b0@Y
_C
 @( I^,{4Ta:R fF$_G7*HIJKST-BZUebY:yg$GNRMC,120035.00,A,0419.70106,S,05539.81222,E,0.301,,190525,,,D*76
$GNVTG,,T,,M,0.301,N,0.558,K,D*32
$GNGNS,120035.00,0419.70106,S,05539.81222,E,DA,17,0.58,12.3,-47.6,,0000*6B
$GNGGA,120035.00,0419.70106,S,05539.81222,E,2,12,0.58,12.3,M,-47.6,M,,0000*42
$GNGSA,A,3,29,10,23,32,26,18,28,31,16,27,,,1.32,0.58,1.19*15
$GNGSA,A,3,70,73,83,84,71,85,72,,,,,,1.32,0.58,1.19*12
$GPGSV,4,1,15,10,21,351,29,16,25,256,16,18,31,067,22,23,05,029,29*7E
$GPGSV,4,2,15,25,04,134,,26,29,225,25,27,32,320,19,28,40,166,30*72
$GPGSV,4,3,15,29,25,145,29,31,25,196,16,32,73,350,27,36,52,277,*77
$GPGSV,4,4,15,40,84,353,29,41,58,082,28,49,32,274,*4E
$GLGSV,3,1,10,70,36,351,24,71,55,281,26,72,22,226,27,73,14,157,24*6E
$GLGSV,3,2,10,74,15,203,,75,00,248,,83,19,127,27,84,45,066,19*68
$GLGSV,3,3,10,85,26,004,28,,,,30*50
$GNGLL,0419.70106,S,05539.81222,E,120035.00,A,D*67
$GNGRS,120035.00,1,-1.1,-1.3,4.5,3.0,-2.8,1.8,-1.3,-1.0,5.3,1.4,,*7B
$GNGRS,120035.00,1,7.3,1.3,9.9,6.0,-4.7,-4.1,-10.6,,,,,*67
$GNGST,120035.00,42,,,,1.3,2.0,3.4*4D
$GNZDA,120035.00,19,05,2025,00,00*75
$GNGBS,120035.00,1.3,2.0,3.4,,,,*5D
b0@\
&_C%
$ @((y+ &I^.{4%Ta$:R fF$_AG7H]IJKS#=T-BU#&b\>y$GNRMC,120036.00,A,0419.70108,S,05539.81212,E,0.374,304.97,190525,,,D*6D
$GNVTG,304.97,T,,M,0.374,N,0.693,K,D*23
$GNGNS,120036.00,0419.70108,S,05539.81212,E,DA,16,0.60,12.2,-47.6,,0000*6E
$GNGGA,120036.00,0419.70108,S,05539.81212,E,2,12,0.60,12.2,M,-47.6,M,,0000*46
$GNGSA,A,3,29,10,23,32,26,28,31,16,27,,,,1.34,0.60,1.20*1B
$GNGSA,A,3,70,73,83,84,71,85,72,,,,,,1.34,0.60,1.20*15
$GPGSV,4,1,15,10,21,351,38,16,25,256,27,18,31,067,21,23,05,029,37*70
$GPGSV,4,2,15,25,04,134,,26,29,225,31,27,32,320,36,28,40,166,40*7D
$GPGSV,4,3,15,29,25,145,43,31,25,196,26,32,73,350,38,36,52,277,*76
$GPGSV,4,4,15,40,84,353,37,41,58,082,36,49,32,274,*4E
$GLGSV,3,1,10,70,36,351,23,71,55,281,26,72,22,226,26,73,14,157,23*6F
$GLGSV,3,2,10,74,15,203,,75,00,248,,83,19,127,35,84,45,066,17*65
$GLGSV,3,3,10,85,26,004,35,,,,38*54
$GNGLL,0419.70108,S,05539.81212,E,120036.00,A,D*69
$GNGRS,120036.00,1,-1.1,-2.6,1.7,0.5,-2.8,-1.4,7.9,4.1,3.8,,,*70
$GNGRS,120036.00,1,8.3,-0.4,5.7,2.9,-8.5,-3.3,-9.3,,,,,*79
$GNGST,120036.00,35,,,,1.3,2.0,3.4*4E
$GNZDA,120036.00,19,05,2025,00,00*76
$GNGBS,120036.00,1.3,2.0,3.4,,,,*5E
b0@`
*_!TC'Z
"## @-'(-* %I^{4)Ta&:R fF$_jG#7bHIJKS"T-BU &b`Bys($GNRMC,120037.00,A,0419.70107,S,05539.81211,E,0.069,,190525,,,D*78
$GNVTG,,T,,M,0.069,N,0.127,K,D*33
$GNGNS,120037.00,0419.70107,S,05539.81211,E,DA,17,0.58,12.2,-47.6,,0000*69
$GNGGA,120037.00,0419.70107,S,05539.81211,E,2,12,0.58,12.2,M,-47.6,M,,0000*40
$GNGSA,A,3,29,10,23,32,26,18,28,31,16,27,,,1.32,0.58,1.19*15
$GNGSA,A,3,70,73,83,84,71,85,72,,,,,,1.32,0.58,1.19*12
$GPGSV,4,1,15,10,21,351,42,16,25,256,33,18,31,067,30,23,05,029,39*76
$GPGSV,4,2,15,25,04,134,,26,29,225,34,27,32,320,35,28,40,166,39*75
$GPGSV,4,3,15,29,25,145,45,31,25,196,26,32,73,350,37,36,52,277,*7F
$GPGSV,4,4,15,40,84,353,41,41,58,082,38,49,32,274,*41
$GLGSV,3,1,10,70,36,351,31,71,55,281,35,72,22,226,31,73,14,157,26*6D
$GLGSV,3,2,10,74,15,203,,75,00,248,,83,19,127,34,84,45,066,18*6B
$GLGSV,3,3,10,85,26,004,32,,,,38*53
$GNGLL,0419.70107,S,05539.81211,E,120037.00,A,D*64
$GNGRS,120037.00,1,-1.0,-3.5,6.0,4.9,0.3,-5.9,0.2,3.0,6.0,0.5,,*7B
$GNGRS,120037.00,1,8.7,-0.2,5.1,2.7,-6.7,1.6,-6.1,,,,,*59
$GNGST,120037.00,29,,,,1.3,2.0,3.4*42
$GNZDA,120037.00,19,05,2025,00,00*77
$GNGBS,120037.00,1.3,2.0,3.4,,,,*5F
b0@d
'_!!C$
 @g$(T$ I^Q{4"Ta:R fRF$_?G7
HIJKS+T-BU$$`bdFyK$GNRMC,120038.00,A,0419.70103,S,05539.81211,E,0.098,,190525,,,D*7D
$GNVTG,,T,,M,0.098,N,0.181,K,D*31
$GNGNS,120038.00,0419.70103,S,05539.81211,E,DA,17,0.58,12.3,-47.6,,0000*63
$GNGGA,120038.00,0419.70103,S,05539.81211,E,2,12,0.58,12.3,M,-47.6,M,,0000*4A
$GNGSA,A,3,29,10,23,32,26,18,28,31,16,27,,,1.32,0.58,1.19*15
$GNGSA,A,3,70,73,83,84,71,85,72,,,,,,1.32,0.58,1.19*12
$GPGSV,4,1,15,10,21,351,39,16,25,256,31,18,31,067,33,23,05,029,36*74
$GPGSV,4,2,15,25,04,134,15,26,29,225,29,27,32,320,26,28,40,166,36*70
$GPGSV,4,3,15,29,25,145,36,31,25,196,22,32,73,350,31,36,52,277,*79
$GPGSV,4,4,15,40,84,353,34,41,58,082,30,49,32,274,*4B
$GLGSV,3,1,10,70,36,351,30,71,55,281,23,72,22,226,31,73,14,157,25*68
$GLGSV,3,2,10,74,15,203,,75,00,248,,83,19,127,26,84,45,066,17*67
$GLGSV,3,3,10,85,26,004,36,,,,36*59
$GNGLL,0419.70103,S,05539.81211,E,120038.00,A,D*6F
$GNGRS,120038.00,1,-0.9,-2.2,4.0,8.5,0.0,-2.5,-1.7,4.6,7.7,1.0,,*5A
$GNGRS,120038.00,1,5.8,-0.8,0.4,5.0,-5.0,4.6,-11.2,,,,,*6A
$GNGST,120038.00,31,,,,1.3,2.0,3.5*45
$GNZDA,120038.00,19,05,2025,00,00*78
$GNGBS,120038.00,1.3,2.0,3.5,,,,*51
b0@h
'_'C$
% @(,% 'I^1{4Ta:R fUF$_pG(7H@IJKStT-B[U'{&bhuJy#$GNRMC,120039.00,A,0419.70104,S,05539.81211,E,0.046,,190525,,,D*78
$GNVTG,,T,,M,0.046,N,0.085,K,D*37
$GNGNS,120039.00,0419.70104,S,05539.81211,E,DA,17,0.58,11.9,-47.6,,0000*6C
$GNGGA,120039.00,0419.70104,S,05539.81211,E,2,12,0.58,11.9,M,-47.6,M,,0000*45
$GNGSA,A,3,29,10,23,32,26,18,28,31,16,27,,,1.32,0.58,1.19*15
$GNGSA,A,3,70,73,83,84,71,85,72,,,,,,1.32,0.58,1.19*12
$GPGSV,4,1,15,10,21,351,39,16,25,256,39,18,31,067,28,23,05,029,36*76
$GPGSV,4,2,15,25,04,134,,26,29,225,29,27,32,320,37,28,40,166,28*7B
$GPGSV,4,3,15,29,25,145,28,31,25,196,37,32,73,350,39,36,52,277,*7A
$GPGSV,4,4,15,40,84,353,30,41,58,082,,49,32,274,*4C
$GLGSV,3,1,10,70,36,351,23,71,55,281,40,72,22,226,22,73,14,157,22*6A
$GLGSV,3,2,10,74,15,203,,75,00,248,,83,19,127,24,84,45,066,18*6A
$GLGSV,3,3,10,85,26,004,39,,,,38*58
$GNGLL,0419.70104,S,05539.81211,E,120039.00,A,D*69
$GNGRS,120039.00,1,-1.2,1.9,2.4,-4.6,-0.3,-5.2,-4.7,-0.3,0.1,-0.9,,*77
$GNGRS,120039.00,1,6.2,-3.2,3.7,6.0,-3.7,-1.3,-7.0,,,,,*71
$GNGST,120039.00,34,,,,1.3,2.0,3.4*40
$GNZDA,120039.00,19,05,2025,00,00*79
$GNGBS,120039.00,1.3,2.0,3.4,,,,*51
b0@l
$_0+Cc
.' @ (%S #I^={4Ta:R fF$_G(7H^I'JKST-BaU#"-bl]Ny`$GNRMC,120040.00,A,0419.70102,S,05539.81208,E,0.105,,190525,,,D*7E
$GNVTG,,T,,M,0.105,N,0.194,K,D*30
$GNGNS,120040.00,0419.70102,S,05539.81208,E,DA,17,0.58,11.9,-47.6,,0000*6C
$GNGGA,120040.00,0419.70102,S,05539.81208,E,2,12,0.58,11.9,M,-47.6,M,,0000*45
$GNGSA,A,3,29,10,23,32,26,18,28,31,16,27,,,1.32,0.58,1.19*15
$GNGSA,A,3,70,73,83,84,71,85,72,,,,,,1.32,0.58,1.19*12
$GPGSV,4,1,15,10,21,351,36,16,25,256,28,18,31,067,25,23,05,029,29*7A
$GPGSV,4,2,15,25,04,134,,26,29,225,20,27,32,320,39,28,40,166,32*77
$GPGSV,4,3,15,29,25,145,37,31,25,196,25,32,73,350,35,36,52,277,31*79
$GPGSV,4,4,15,40,84,353,,41,58,082,,49,32,274,*4F
$GLGSV,3,1,10,70,36,351,26,71,55,281,40,72,22,226,21,73,14,157,21*6F
$GLGSV,3,2,10,74,15,203,,75,00,248,,83,19,127,31,84,45,066,18*6E
$GLGSV,3,3,10,85,26,004,35,,,,34*58
$GNGLL,0419.70102,S,05539.81208,E,120040.00,A,D*69
$GNGRS,120040.00,1,-0.3,0.5,3.5,-4.5,-2.1,-4.9,-3.8,-4.3,-2.1,2.6,,*7E
$GNGRS,120040.00,1,5.0,-2.2,4.7,6.1,-0.4,-3.4,-9.3,,,,,*71
$GNGST,120040.00,35,,,,1.3,2.0,3.5*4E
$GNZDA,120040.00,19,05,2025,00,00*77
$GNGBS,120040.00,1.3,2.0,3.5,,,,*5E
b0@xp
)_yCqE
* @4 ($- )I^{4Ta:R fF$_`G"7MHEI_JKST-BU"G&bxpERy$GNRMC,120041.00,A,0419.70103,S,05539.81201,E,0.200,,190525,,,D*71
$GNVTG,,T,,M,0.200,N,0.370,K,D*3E
$GNGNS,120041.00,0419.70103,S,05539.81201,E,DA,17,0.58,11.7,-47.6,,0000*6B
$GNGGA,120041.00,0419.70103,S,05539.81201,E,2,12,0.58,11.7,M,-47.6,M,,0000*42
$GNGSA,A,3,29,10,23,32,26,18,28,31,16,27,,,1.32,0.58,1.19*15
$GNGSA,A,3,70,73,83,84,71,85,72,,,,,,1.32,0.58,1.19*12
$GPGSV,4,1,15,10,21,351,41,16,25,256,26,18,31,067,24,23,05,029,27*7B
$GPGSV,4,2,15,25,04,134,,26,29,225,23,27,32,320,42,28,40,166,32*78
$GPGSV,4,3,15,29,25,145,36,31,25,196,31,32,73,350,41,36,52,277,30*7F
$GPGSV,4,4,15,40,84,353,,41,58,082,,49,32,274,*4F
$GLGSV,3,1,10,70,36,351,26,71,55,281,34,72,22,226,20,73,14,157,17*68
$GLGSV,3,2,10,74,15,203,,75,00,248,,83,19,127,29,84,45,066,17*68
$GLGSV,3,3,10,85,26,004,34,,,,38*55
$GNGLL,0419.70103,S,05539.81201,E,120041.00,A,D*60
$GNGRS,120041.00,1,-1.0,1.4,-4.4,-2.5,-2.5,-4.0,-3.5,-7.2,-3.9,0.5,,*5A
$GNGRS,120041.00,1,1.0,-1.6,-0.9,7.5,-1.8,-1.9,-1.9,,,,,*51
$GNGST,120041.00,41,,,,1.3,2.0,3.4*4D
$GNZDA,120041.00,19,05,2025,00,00*76
$GNGBS,120041.00,1.3,2.0,3.4,,,,*5E
b0@`t
)_C d
o+ @ ($"i (I^{4Ta:R fF$_NG%7FHIJKST-BU$Kb`t-Vy0$GNRMC,120042.00,A,0419.70100,S,05539.81199,E,0.116,,190525,,,D*77
$GNVTG,,T,,M,0.116,N,0.215,K,D*38
$GNGNS,120042.00,0419.70100,S,05539.81199,E,DA,17,0.60,11.7,-47.6,,0000*62
$GNGGA,120042.00,0419.70100,S,05539.81199,E,2,12,0.60,11.7,M,-47.6,M,,0000*4B
$GNGSA,A,3,29,10,23,32,26,18,28,31,16,27,,,1.36,0.60,1.22*12
$GNGSA,A,3,70,73,83,84,71,85,72,,,,,,1.36,0.60,1.22*15
$GPGSV,4,1,15,10,20,351,41,16,25,256,24,18,31,067,26,23,05,029,32*7E
$GPGSV,4,2,15,25,04,134,,26,29,225,26,27,32,320,43,28,40,166,32*7C
$GPGSV,4,3,15,29,25,145,36,31,25,196,34,32,73,350,40,36,52,277,28*72
$GPGSV,4,4,15,40,84,353,,41,58,082,,49,32,274,*4F
$GLGSV,3,1,10,70,36,351,28,71,55,281,37,72,22,226,20,73,14,157,18*6A
$GLGSV,3,2,10,74,15,203,,75,00,248,,83,19,127,27,84,45,066,15*64
$GLGSV,3,3,10,85,26,004,30,,,,36*5F
$GNGLL,0419.70100,S,05539.81199,E,120042.00,A,D*62
$GNGRS,120042.00,1,-3.0,-0.9,3.6,0.1,-1.5,-2.6,-5.5,-1.5,-7.6,1.7,,*75
$GNGRS,120042.00,1,3.3,-0.7,2.7,7.9,-1.9,2.3,-6.4,,,,,*51
$GNGST,120042.00,41,,,,1.3,2.0,3.4*4E
$GNZDA,120042.00,19,05,2025,00,00*75
$GNGBS,120042.00,1.3,2.0,3.4,,,,*5D
b0@Hx
(_'C 
, @6 (H%> %I^{!4Ta:R fF$_G'7CHzI.JKST-BU!3bHxZy$GNRMC,120043.00,A,0419.70098,S,05539.81198,E,0.073,,190525,,,D*75
$GNVTG,,T,,M,0.073,N,0.134,K,D*3A
$GNGNS,120043.00,0419.70098,S,05539.81198,E,DA,17,0.60,11.5,-47.6,,0000*60
$GNGGA,120043.00,0419.70098,S,05539.81198,E,2,12,0.60,11.5,M,-47.6,M,,0000*49
$GNGSA,A,3,29,10,23,32,26,18,28,31,16,27,,,1.36,0.60,1.22*12
$GNGSA,A,3,70,73,83,84,71,85,72,,,,,,1.36,0.60,1.22*15
$GPGSV,4,1,15,10,20,351,40,16,25,256,25,18,31,067,28,23,05,029,32*70
$GPGSV,4,2,15,25,04,134,,26,29,225,26,27,32,320,44,28,40,166,32*7B
$GPGSV,4,3,15,29,25,145,37,31,25,196,29,32,73,350,37,36,52,277,33*75
$GPGSV,4,4,15,40,84,353,,41,58,082,,49,32,274,*4F
$GLGSV,3,1,10,70,36,351,28,71,55,281,39,72,22,226,18,73,14,157,19*6E
$GLGSV,3,2,10,74,15,203,,75,00,248,,83,19,127,27,84,45,066,14*65
$GLGSV,3,3,10,85,26,004,20,,,,33*5B
$GNGLL,0419.70098,S,05539.81198,E,120043.00,A,D*62
$GNGRS,120043.00,1,-1.9,1.3,2.2,-2.3,-0.8,-2.7,-4.4,-2.8,-7.3,0.5,,*74
$GNGRS,120043.00,1,7.3,0.5,2.7,5.3,-1.9,-0.9,-6.5,,,,,*57
$GNGST,120043.00,47,,,,1.3,2.0,3.4*49
$GNZDA,120043.00,19,05,2025,00,00*74
$GNGBS,120043.00,1.3,2.0,3.4,,,,*5C
b0@0|
 _@CX v
) @ (h% I^0{'4Ta:R fF$_G$7HIJKSuT-BUb0|]yZ$GNRMC,120044.00,A,0419.70098,S,05539.81203,E,0.193,,190525,,,D*7C
$GNVTG,,T,,M,0.193,N,0.357,K,D*32
$GNGNS,120044.00,0419.70098,S,05539.81203,E,DA,17,0.60,11.5,-47.6,,0000*66
$GNGGA,120044.00,0419.70098,S,05539.81203,E,2,12,0.60,11.5,M,-47.6,M,,0000*4F
$GNGSA,A,3,29,10,23,32,26,18,28,31,16,27,,,1.36,0.60,1.22*12
$GNGSA,A,3,70,73,83,84,71,85,72,,,,,,1.36,0.60,1.22*15
$GPGSV,4,1,15,10,20,351,32,16,25,256,27,18,31,067,29,23,05,029,32*76
$GPGSV,4,2,15,25,04,134,15,26,29,225,26,27,32,320,41,28,40,166,32*7A
$GPGSV,4,3,15,29,25,145,37,31,25,196,16,32,73,350,29,36,52,277,39*7C
$GPGSV,4,4,15,40,84,353,,41,58,082,,49,32,274,*4F
$GLGSV,3,1,10,70,36,351,27,71,55,281,36,72,22,226,17,73,14,157,20*6B
$GLGSV,3,2,10,74,15,203,,75,00,248,,83,19,127,27,84,45,066,12*63
$GLGSV,3,3,10,85,26,004,27,,,,30*5F
$GNGLL,0419.70098,S,05539.81203,E,120044.00,A,D*64
$GNGRS,120044.00,1,-2.5,0.6,1.2,-2.1,-0.8,-4.2,-4.1,0.2,-8.3,-0.4,,*79
$GNGRS,120044.00,1,12.4,-0.7,1.2,4.1,-3.4,-0.4,-8.5,,,,,*45
$GNGST,120044.00,45,,,,1.3,2.1,3.5*4C
$GNZDA,120044.00,19,05,2025,00,00*73
$GNGBS,120044.00,1.3,2.1,3.5,,,,*5B
b0@
_\LCN 
) @ (`& I^?{%4Ta:R fEF$_G$7OHIjJKST-BUq~bay2e$GNRMC,120045.00,A,0419.70098,S,05539.81205,E,0.072,,190525,,,D*75
$GNVTG,,T,,M,0.072,N,0.134,K,D*3B
$GNGNS,120045.00,0419.70098,S,05539.81205,E,DA,17,0.60,11.4,-47.6,,0000*60
$GNGGA,120045.00,0419.70098,S,05539.81205,E,2,12,0.60,11.4,M,-47.6,M,,0000*49
$GNGSA,A,3,29,10,23,32,26,18,28,31,16,27,,,1.36,0.60,1.22*12
$GNGSA,A,3,70,73,83,84,71,85,72,,,,,,1.36,0.60,1.22*15
$GPGSV,4,1,15,10,20,351,31,16,25,256,27,18,31,067,29,23,05,029,32*75
$GPGSV,4,2,15,25,04,134,,26,29,225,25,27,32,320,41,28,40,166,32*7D
$GPGSV,4,3,15,29,25,145,38,31,25,196,20,32,73,350,30,36,52,277,37*70
$GPGSV,4,4,15,40,84,353,,41,58,082,,49,32,274,*4F
$GLGSV,3,1,10,70,36,351,24,71,55,281,36,72,22,226,15,73,14,157,20*6A
$GLGSV,3,2,10,74,15,203,,75,00,248,,83,19,127,27,84,45,066,11*60
$GLGSV,3,3,10,85,26,004,28,,,,29*58
$GNGLL,0419.70098,S,05539.81205,E,120045.00,A,D*63
$GNGRS,120045.00,1,-0.6,0.9,2.5,-7.1,-2.8,-4.3,1.0,1.9,-4.4,1.3,,*77
$GNGRS,120045.00,1,11.7,1.1,0.2,5.2,-1.8,1.1,-9.0,,,,,*4E
$GNGST,120045.00,46,,,,1.4,2.1,3.6*4A
$GNZDA,120045.00,19,05,2025,00,00*72
$GNGBS,120045.00,1.4,2.1,3.6,,,,*5E
b0@
&_oCH"f
Z, @$($N )I^ {4Ta:R fF$_;G%70H5I|JKST-BEUz#bey
$GNRMC,120046.00,A,0419.70096,S,05539.81207,E,0.050,,190525,,,D*7A
$GNVTG,,T,,M,0.050,N,0.092,K,D*36
$GNGNS,120046.00,0419.70096,S,05539.81207,E,DA,17,0.60,11.4,-47.6,,0000*6F
$GNGGA,120046.00,0419.70096,S,05539.81207,E,2,12,0.60,11.4,M,-47.6,M,,0000*46
$GNGSA,A,3,29,10,23,32,26,18,28,31,16,27,,,1.36,0.60,1.22*12
$GNGSA,A,3,70,73,83,84,71,85,72,,,,,,1.36,0.60,1.22*15
$GPGSV,4,1,15,10,20,351,38,16,25,256,28,18,31,067,30,23,05,029,34*7D
$GPGSV,4,2,15,25,04,134,,26,29,225,25,27,32,320,44,28,40,166,36*7C
$GPGSV,4,3,15,29,25,145,36,31,25,196,30,32,73,350,41,36,52,277,31*7F
$GPGSV,4,4,15,40,84,353,,41,58,082,,49,32,274,*4F
$GLGSV,3,1,10,70,36,351,25,71,55,281,37,72,22,226,16,73,14,157,21*68
$GLGSV,3,2,10,74,15,203,,75,00,248,,83,19,127,28,84,45,066,12*6C
$GLGSV,3,3,10,85,26,004,27,,,,35*5A
$GNGLL,0419.70096,S,05539.81207,E,120046.00,A,D*6C
$GNGRS,120046.00,1,-1.8,1.1,3.6,0.3,-4.2,-7.0,-2.7,-3.0,-3.2,0.2,,*5A
$GNGRS,120046.00,1,15.9,1.2,0.1,8.4,-2.1,-1.3,-9.7,,,,,*6E
$GNGST,120046.00,45,,,,1.4,2.1,3.5*49
$GNZDA,120046.00,19,05,2025,00,00*71
$GNGBS,120046.00,1.4,2.1,3.5,,,,*5E
b0@
$_8CJ
* @" (#$# 'I^{#4Ta:R fWF$_"G7HNIJKSwT-BUbiy&$GNRMC,120047.00,A,0419.70092,S,05539.81207,E,0.185,,190525,,,D*76
$GNVTG,,T,,M,0.185,N,0.343,K,D*30
$GNGNS,120047.00,0419.70092,S,05539.81207,E,DA,17,0.58,11.7,-47.6,,0000*62
$GNGGA,120047.00,0419.70092,S,05539.81207,E,2,12,0.58,11.7,M,-47.6,M,,0000*4B
$GNGSA,A,3,29,10,23,32,26,18,28,31,16,27,,,1.32,0.58,1.19*15
$GNGSA,A,3,70,73,83,84,71,85,72,,,,,,1.32,0.58,1.19*12
$GPGSV,4,1,15,10,20,351,36,16,25,256,27,18,31,067,23,23,05,029,31*7B
$GPGSV,4,2,15,25,04,134,,26,29,225,23,27,32,320,42,28,40,166,32*78
$GPGSV,4,3,15,29,25,145,35,31,25,196,36,32,73,350,39,36,52,277,35*71
$GPGSV,4,4,15,40,84,353,,41,58,082,,49,32,274,*4F
$GLGSV,3,1,10,70,36,351,26,71,55,281,24,72,22,226,20,73,14,157,21*6C
$GLGSV,3,2,10,74,15,203,,75,00,248,,83,19,127,28,84,45,066,11*6F
$GLGSV,3,3,10,85,26,004,25,,,,31*5C
$GNGLL,0419.70092,S,05539.81207,E,120047.00,A,D*69
$GNGRS,120047.00,1,-0.9,0.6,7.1,2.7,-3.8,-1.8,-2.7,0.4,-0.1,0.3,,*70
$GNGRS,120047.00,1,15.7,1.3,1.2,10.3,-3.1,-3.0,-9.5,,,,,*5E
$GNGST,120047.00,45,,,,1.4,2.1,3.5*48
$GNZDA,120047.00,19,05,2025,00,00*70
$GNGBS,120047.00,1.4,2.1,3.5,,,,*5F
b0@
_R-C
! @(b! !I^{4Ta:R fF$_G7HIJKST-BdUbmy$GNRMC,120048.00,A,0419.70084,S,05539.81210,E,0.371,,190525,,,D*71
$GNVTG,,T,,M,0.371,N,0.687,K,D*34
$GNGNS,120048.00,0419.70084,S,05539.81210,E,DA,17,0.58,11.6,-47.6,,0000*6D
$GNGGA,120048.00,0419.70084,S,05539.81210,E,2,12,0.58,11.6,M,-47.6,M,,0000*44
$GNGSA,A,3,29,10,23,32,26,18,28,31,16,27,,,1.32,0.58,1.19*15
$GNGSA,A,3,70,73,83,84,71,85,72,,,,,,1.32,0.58,1.19*12
$GPGSV,4,1,15,10,20,351,26,16,25,256,25,18,31,067,22,23,05,029,21*78
$GPGSV,4,2,15,25,04,134,,26,29,225,21,27,32,320,33,28,40,166,27*78
$GPGSV,4,3,15,29,25,145,30,31,25,196,22,32,73,350,33,36,52,277,30*7E
$GPGSV,4,4,15,40,84,353,,41,58,082,,49,32,274,*4F
$GLGSV,3,1,10,70,36,351,25,71,55,281,30,72,22,226,20,73,14,157,20*6B
$GLGSV,3,2,10,74,15,203,,75,00,248,,83,19,127,28,84,45,066,11*6F
$GLGSV,3,3,10,85,26,004,24,,,,26*5B
$GNGLL,0419.70084,S,05539.81210,E,120048.00,A,D*67
$GNGRS,120048.00,1,-2.8,0.8,-0.3,-3.8,-3.8,3.8,-4.1,0.3,0.5,0.2,,*79
$GNGRS,120048.00,1,15.4,1.9,7.8,11.2,-2.9,0.2,-10.2,,,,,*4E
$GNGST,120048.00,47,,,,1.5,2.2,3.6*44
$GNZDA,120048.00,19,05,2025,00,00*7F
$GNGBS,120048.00,1.5,2.2,3.6,,,,*51
b0@
_uC
( @$(c!I %I^{$4Ta:R  fF$_G&7HIJKS]T-B|Ubqy$GNRMC,120049.00,A,0419.70086,S,05539.81221,E,0.646,,190525,,,D*71
$GNVTG,,T,,M,0.646,N,1.196,K,D*33
$GNGNS,120049.00,0419.70086,S,05539.81221,E,DA,16,0.60,11.6,-47.6,,0000*66
$GNGGA,120049.00,0419.70086,S,05539.81221,E,2,12,0.60,11.6,M,-47.6,M,,0000*4E
$GNGSA,A,3,29,10,23,32,18,28,31,16,27,,,,1.33,0.60,1.19*1B
$GNGSA,A,3,70,73,83,84,71,85,72,,,,,,1.33,0.60,1.19*18
$GPGSV,4,1,15,10,20,351,25,16,25,256,24,18,31,067,22,23,05,029,28*73
$GPGSV,4,2,15,25,04,134,,26,29,225,21,27,32,320,40,28,40,166,36*7C
$GPGSV,4,3,15,29,25,145,33,31,25,196,29,32,73,350,37,36,52,277,36*74
$GPGSV,4,4,15,40,84,353,,41,58,082,,49,32,274,*4F
$GLGSV,3,1,10,70,36,351,24,71,55,281,38,72,22,226,21,73,14,157,19*69
$GLGSV,3,2,10,74,15,203,,75,00,248,,83,19,127,20,84,45,066,11*67
$GLGSV,3,3,10,85,26,004,22,,,,31*5B
$GNGLL,0419.70086,S,05539.81221,E,120049.00,A,D*66
$GNGRS,120049.00,1,-1.8,2.4,4.4,1.4,-0.5,-1.6,-0.7,-1.4,2.0,,,*55
$GNGRS,120049.00,1,17.1,6.5,3.5,11.5,1.7,6.6,-11.3,,,,,*6F
$GNGST,120049.00,43,,,,1.5,2.3,3.6*40
$GNZDA,120049.00,19,05,2025,00,00*7E
$GNGBS,120049.00,1.5,2.3,3.6,,,,*51
b0@
%_-+C
+ @&(b%5 %I^Y{$4Ta:R f'F$_G$7HIJKS!T-BUbmuyi^$GNRMC,120050.00,A,0419.70081,S,05539.81226,E,0.337,,190525,,,D*7A
$GNVTG,,T,,M,0.337,N,0.624,K,D*3F
$GNGNS,120050.00,0419.70081,S,05539.81226,E,DA,17,0.58,11.8,-47.6,,0000*6A
$GNGGA,120050.00,0419.70081,S,05539.81226,E,2,12,0.58,11.8,M,-47.6,M,,0000*43
$GNGSA,A,3,29,10,23,32,26,18,28,31,16,27,,,1.32,0.58,1.19*15
$GNGSA,A,3,70,73,83,84,71,85,72,,,,,,1.32,0.58,1.19*12
$GPGSV,4,1,15,10,20,351,37,16,25,256,23,18,31,067,24,23,05,029,21*78
$GPGSV,4,2,15,25,04,134,,26,29,225,23,27,32,320,43,28,40,166,38*73
$GPGSV,4,3,15,29,25,145,37,31,25,196,28,32,73,350,37,36,52,277,36*71
$GPGSV,4,4,15,40,84,353,,41,58,082,,49,32,274,*4F
$GLGSV,3,1,10,70,36,351,24,71,55,281,36,72,22,226,24,73,14,157,20*68
$GLGSV,3,2,10,74,15,203,,75,00,248,,83,19,127,29,84,45,066,12*6D
$GLGSV,3,3,10,85,26,004,25,,,,30*5D
$GNGLL,0419.70081,S,05539.81226,E,120050.00,A,D*6E
$GNGRS,120050.00,1,-0.2,0.5,5.0,3.4,-5.8,-2.9,1.0,3.1,5.5,1.9,,*73
$GNGRS,120050.00,1,15.2,6.7,10.6,12.6,-1.2,2.1,-10.6,,,,,*7A
$GNGST,120050.00,43,,,,1.5,2.3,3.7*49
$GNZDA,120050.00,19,05,2025,00,00*76
$GNGBS,120050.00,1.5,2.3,3.7,,,,*58
b0@
&_(C:f
:* @&($8 'I^{4Ta:R fQF$_XG&7HIJKSXT-B>UMbUyyA$GNRMC,120051.00,A,0419.70078,S,05539.81227,E,0.247,,190525,,,D*7A
$GNVTG,,T,,M,0.247,N,0.457,K,D*3F
$GNGNS,120051.00,0419.70078,S,05539.81227,E,DA,17,0.58,11.7,-47.6,,0000*63
$GNGGA,120051.00,0419.70078,S,05539.81227,E,2,12,0.58,11.7,M,-47.6,M,,0000*4A
$GNGSA,A,3,29,10,23,32,26,18,28,31,16,27,,,1.32,0.58,1.19*15
$GNGSA,A,3,70,73,83,84,71,85,72,,,,,,1.32,0.58,1.19*12
$GPGSV,4,1,15,10,20,351,38,16,25,256,30,18,31,067,26,23,05,029,28*7E
$GPGSV,4,2,15,25,04,134,,26,29,225,22,27,32,320,42,28,40,166,38*73
$GPGSV,4,3,15,29,25,145,36,31,25,196,18,32,73,350,39,36,52,277,31*7A
$GPGSV,4,4,15,40,84,353,,41,58,082,,49,32,274,*4F
$GLGSV,3,1,10,70,36,351,26,71,55,281,38,72,22,226,22,73,14,157,21*63
$GLGSV,3,2,10,74,15,203,,75,00,248,,83,19,127,29,84,45,066,12*6D
$GLGSV,3,3,10,85,26,004,23,,,,30*5B
$GNGLL,0419.70078,S,05539.81227,E,120051.00,A,D*68
$GNGRS,120051.00,1,-1.0,-2.2,-1.5,-0.3,-4.5,3.1,-3.3,-2.0,1.9,2.1,,*76
$GNGRS,120051.00,1,13.7,4.7,3.4,13.4,-5.4,-4.3,-8.8,,,,,*55
$GNGST,120051.00,43,,,,1.5,2.3,3.6*49
$GNZDA,120051.00,19,05,2025,00,00*77
$GNGBS,120051.00,1.5,2.3,3.6,,,,*58
b0@p
"_C
3+ @%(X$u I^A{4Ta:R fF$_G&7HLIjJKS?T-BuUdYXbp=}y.$GNRMC,120052.00,A,0419.70075,S,05539.81234,E,0.087,,190525,,,D*78
$GNVTG,,T,,M,0.087,N,0.161,K,D*31
$GNGNS,120052.00,0419.70075,S,05539.81234,E,DA,17,0.58,11.6,-47.6,,0000*6E
$GNGGA,120052.00,0419.70075,S,05539.81234,E,2,12,0.58,11.6,M,-47.6,M,,0000*47
$GNGSA,A,3,29,10,23,32,26,18,28,31,16,27,,,1.32,0.58,1.19*15
$GNGSA,A,3,70,73,83,84,71,85,72,,,,,,1.32,0.58,1.19*12
$GPGSV,4,1,15,10,20,351,34,16,25,256,24,18,31,067,24,23,05,029,25*78
$GPGSV,4,2,15,25,04,134,,26,29,225,19,27,32,320,43,28,40,166,37*75
$GPGSV,4,3,15,29,25,145,36,31,25,196,21,32,73,350,31,36,52,277,31*78
$GPGSV,4,4,15,40,84,353,,41,58,082,,49,32,274,*4F
$GLGSV,3,1,10,70,36,351,26,71,55,281,38,72,22,226,21,73,14,157,20*61
$GLGSV,3,2,10,74,15,203,,75,00,248,,83,19,127,28,84,45,066,11*6F
$GLGSV,3,3,10,85,26,004,20,,,,31*59
$GNGLL,0419.70075,S,05539.81234,E,120052.00,A,D*64
$GNGRS,120052.00,1,-1.4,2.0,-3.6,8.3,-4.6,1.3,-1.7,-0.7,-3.2,2.0,,*5F
$GNGRS,120052.00,1,14.4,3.6,3.2,16.5,-5.7,-6.7,-9.5,,,,,*5F
$GNGST,120052.00,50,,,,1.6,2.3,3.7*4A
$GNZDA,120052.00,19,05,2025,00,00*74
$GNGBS,120052.00,1.6,2.3,3.7,,,,*59
b0@X
$_C
* @"( !u %I^{$4Ta:R !fF$_G#7~HMIJKS<T-B|U#bX%y$GNRMC,120053.00,A,0419.70072,S,05539.81238,E,0.041,,190525,,,D*78
$GNVTG,,T,,M,0.041,N,0.076,K,D*3C
$GNGNS,120053.00,0419.70072,S,05539.81238,E,DA,17,0.58,11.8,-47.6,,0000*6A
$GNGGA,120053.00,0419.70072,S,05539.81238,E,2,12,0.58,11.8,M,-47.6,M,,0000*43
$GNGSA,A,3,29,10,23,32,26,18,28,31,16,27,,,1.32,0.58,1.19*15
$GNGSA,A,3,70,73,83,84,71,85,72,,,,,,1.32,0.58,1.19*12
$GPGSV,4,1,15,10,20,351,36,16,25,256,25,18,31,067,21,23,05,029,24*7F
$GPGSV,4,2,15,25,04,134,,26,29,225,20,27,32,320,42,28,40,166,34*7D
$GPGSV,4,3,15,29,25,145,32,31,25,196,33,32,73,350,37,36,52,277,36*7E
$GPGSV,4,4,15,40,84,353,,41,58,082,,49,32,274,*4F
$GLGSV,3,1,10,70,36,351,27,71,55,281,35,72,22,226,21,73,14,157,19*67
$GLGSV,3,2,10,74,15,203,,75,00,248,,83,19,127,29,84,45,066,12*6D
$GLGSV,3,3,10,85,26,004,21,,,,35*5C
$GNGLL,0419.70072,S,05539.81238,E,120053.00,A,D*6E
$GNGRS,120053.00,1,-2.6,-0.1,-0.5,4.3,-6.3,-0.5,-1.0,1.2,-5.0,1.8,,*71
$GNGRS,120053.00,1,12.9,4.4,3.2,16.6,-6.4,-2.4,-9.5,,,,,*54
$GNGST,120053.00,43,,,,1.6,2.3,3.7*49
$GNZDA,120053.00,19,05,2025,00,00*75
$GNGBS,120053.00,1.6,2.3,3.7,,,,*58
b0@@
$_<#gC!
+, @( ) )I^#{#4Ta:R f<F$_G$7HrI~JKST-BU!F#\b@y$GNRMC,120054.00,A,0419.70067,S,05539.81243,E,0.059,,190525,,,D*7E
$GNVTG,,T,,M,0.059,N,0.109,K,D*3C
$GNGNS,120054.00,0419.70067,S,05539.81243,E,DA,17,0.58,12.0,-47.6,,0000*6E
$GNGGA,120054.00,0419.70067,S,05539.81243,E,2,12,0.58,12.0,M,-47.6,M,,0000*47
$GNGSA,A,3,29,10,23,32,26,18,28,31,16,27,,,1.32,0.58,1.19*15
$GNGSA,A,3,70,73,83,84,71,85,72,,,,,,1.32,0.58,1.19*12
$GPGSV,4,1,15,10,20,351,36,16,25,256,35,18,31,067,19,23,05,029,33*73
$GPGSV,4,2,15,25,04,134,,26,29,225,25,27,32,320,44,28,40,166,28*73
$GPGSV,4,3,15,29,25,145,32,31,25,196,27,32,73,350,41,36,52,277,35*79
$GPGSV,4,4,15,40,84,353,,41,58,082,,49,32,274,*4F
$GLGSV,3,1,10,70,36,351,28,71,55,281,36,72,22,226,21,73,14,157,19*6B
$GLGSV,3,2,10,74,15,203,,75,00,248,,83,19,127,28,84,45,066,16*68
$GLGSV,3,3,10,85,26,004,33,,,,35*5F
$GNGLL,0419.70067,S,05539.81243,E,120054.00,A,D*61
$GNGRS,120054.00,1,-0.7,0.6,1.4,2.9,-4.7,-2.5,1.8,0.4,3.6,1.9,,*74
$GNGRS,120054.00,1,13.0,3.8,5.4,15.7,-5.9,-1.9,-9.1,,,,,*56
$GNGST,120054.00,43,,,,1.6,2.3,3.7*4E
$GNZDA,120054.00,19,05,2025,00,00*72
$GNGBS,120054.00,1.6,2.3,3.7,,,,*5F
b0@(
"_}DCx
_* @(  #I^T{'4Ta:R f%F$_%G'7cHIKJKST-BU R"=b(yc$GNRMC,120055.00,A,0419.70067,S,05539.81247,E,0.060,,190525,,,D*71
$GNVTG,,T,,M,0.060,N,0.111,K,D*3F
$GNGNS,120055.00,0419.70067,S,05539.81247,E,DA,17,0.58,12.0,-47.6,,0000*6B
$GNGGA,120055.00,0419.70067,S,05539.81247,E,2,12,0.58,12.0,M,-47.6,M,,0000*42
$GNGSA,A,3,29,10,23,32,26,18,28,31,16,27,,,1.32,0.58,1.19*15
$GNGSA,A,3,70,73,83,84,71,85,72,,,,,,1.32,0.58,1.19*12
$GPGSV,4,1,15,10,20,351,34,16,25,256,31,18,31,067,24,23,05,029,28*71
$GPGSV,4,2,15,25,04,134,,26,29,225,28,27,32,320,42,28,40,166,27*77
$GPGSV,4,3,15,29,25,145,32,31,25,196,26,32,73,350,35,36,52,277,39*77
$GPGSV,4,4,15,40,84,353,,41,58,082,,49,32,274,*4F
$GLGSV,3,1,10,70,36,351,28,71,55,281,39,72,22,226,20,73,14,157,17*6B
$GLGSV,3,2,10,74,15,203,,75,00,248,,83,19,127,27,84,45,066,16*67
$GLGSV,3,3,10,85,26,004,32,,,,34*5F
$GNGLL,0419.70067,S,05539.81247,E,120055.00,A,D*64
$GNGRS,120055.00,1,2.2,-3.9,4.1,3.4,0.9,-3.9,2.4,2.4,0.7,1.8,,*56
$GNGRS,120055.00,1,13.2,3.3,1.8,14.5,-4.1,-4.3,-9.0,,,,,*52
$GNGST,120055.00,42,,,,1.6,2.2,3.7*4F
$GNZDA,120055.00,19,05,2025,00,00*73
$GNGBS,120055.00,1.6,2.2,3.7,,,,*5F
b0@
$_!C
* @(  'I^){(4Ta:R fF$_G%7uHImJKSfT-BUH"wbyx$GNRMC,120056.00,A,0419.70065,S,05539.81252,E,0.095,,190525,,,D*7E
$GNVTG,,T,,M,0.095,N,0.176,K,D*34
$GNGNS,120056.00,0419.70065,S,05539.81252,E,DA,17,0.58,12.1,-47.6,,0000*6F
$GNGGA,120056.00,0419.70065,S,05539.81252,E,2,12,0.58,12.1,M,-47.6,M,,0000*46
$GNGSA,A,3,29,10,23,32,26,18,28,31,16,27,,,1.32,0.58,1.19*15
$GNGSA,A,3,70,73,83,84,71,85,72,,,,,,1.32,0.58,1.19*12
$GPGSV,4,1,15,10,20,351,36,16,25,256,33,18,31,067,25,23,05,029,26*7E
$GPGSV,4,2,15,25,04,133,,26,29,225,29,27,32,320,42,28,40,166,27*71
$GPGSV,4,3,15,29,25,145,32,31,25,196,24,32,73,350,39,36,52,277,40*77
$GPGSV,4,4,15,40,84,353,,41,58,082,,49,32,274,*4F
$GLGSV,3,1,10,70,36,351,27,71,55,281,37,72,22,226,19,73,14,157,15*62
$GLGSV,3,2,10,74,15,203,,75,00,248,,83,19,127,25,84,45,066,15*66
$GLGSV,3,3,10,85,26,004,31,,,,34*5C
$GNGLL,0419.70065,S,05539.81252,E,120056.00,A,D*61
$GNGRS,120056.00,1,2.4,-1.0,-2.7,3.0,1.4,-6.1,1.5,5.1,0.2,1.8,,*75
$GNGRS,120056.00,1,11.7,3.6,3.6,12.8,-3.9,-4.4,-8.6,,,,,*5B
$GNGST,120056.00,45,,,,1.6,2.3,3.7*4A
$GNZDA,120056.00,19,05,2025,00,00*70
$GNGBS,120056.00,1.6,2.3,3.7,,,,*5D
b0@
%_Cj
' @(y- (I^{&4Ta:R fqF$_VG 7H3IJKST-BUx$[byO$$GNRMC,120057.00,A,0419.70056,S,05539.81248,E,0.451,,190525,,,D*78
$GNVTG,,T,,M,0.451,N,0.834,K,D*37
$GNGNS,120057.00,0419.70056,S,05539.81248,E,DA,17,0.58,12.0,-47.6,,0000*64
$GNGGA,120057.00,0419.70056,S,05539.81248,E,2,12,0.58,12.0,M,-47.6,M,,0000*4D
$GNGSA,A,3,29,10,23,32,26,18,28,31,16,27,,,1.32,0.58,1.19*15
$GNGSA,A,3,70,73,83,84,71,85,72,,,,,,1.32,0.58,1.19*12
$GPGSV,4,1,15,10,20,351,37,16,25,256,27,18,31,067,22,23,05,029,26*7D
$GPGSV,4,2,15,25,04,133,,26,29,224,27,27,32,320,39,28,40,166,27*72
$GPGSV,4,3,15,29,25,145,30,31,25,196,29,32,73,350,40,36,52,277,38*79
$GPGSV,4,4,15,40,84,353,,41,58,082,,49,32,274,*4F
$GLGSV,3,1,10,70,36,351,25,71,55,281,32,72,22,226,18,73,14,157,15*64
$GLGSV,3,2,10,74,15,203,,75,00,248,,83,19,127,25,84,45,066,13*60
$GLGSV,3,3,10,85,26,004,31,,,,36*5E
$GNGLL,0419.70056,S,05539.81248,E,120057.00,A,D*6B
$GNGRS,120057.00,1,0.5,-0.6,5.0,-0.9,-0.5,-6.6,1.2,4.8,2.7,1.8,,*58
$GNGRS,120057.00,1,11.1,5.3,-0.3,12.3,-3.6,-1.4,-9.7,,,,,*75
$GNGST,120057.00,70662,,,,1.6,2.3,3.7*7F
$GNZDA,120057.00,19,05,2025,00,00*71
$GNGBS,120057.00,1.6,2.3,3.7,,,,*5C
b0@
'_"C%A
# @+(*% ,I^{&4Ta:R fF$_G#71HIJKS#uT-BU#Pby'$GNRMC,120058.00,A,0419.70049,S,05539.81245,E,0.039,,190525,,,D*7E
$GNVTG,,T,,M,0.039,N,0.072,K,D*37
$GNGNS,120058.00,0419.70049,S,05539.81245,E,DA,17,0.58,11.8,-47.6,,0000*63
$GNGGA,120058.00,0419.70049,S,05539.81245,E,2,12,0.58,11.8,M,-47.6,M,,0000*4A
$GNGSA,A,3,29,10,23,32,26,18,28,31,16,27,,,1.32,0.58,1.19*15
$GNGSA,A,3,70,73,83,84,71,85,72,,,,,,1.32,0.58,1.19*12
$GPGSV,4,1,15,10,20,351,39,16,25,256,34,18,31,067,23,23,05,029,37*70
$GPGSV,4,2,15,25,04,133,,26,29,224,30,27,32,320,35,28,40,166,43*7A
$GPGSV,4,3,15,29,25,145,42,31,25,196,37,32,73,350,44,36,52,277,38*77
$GPGSV,4,4,15,40,84,353,,41,58,082,,49,32,274,*4F
$GLGSV,3,1,10,70,36,351,24,71,55,281,35,72,22,226,17,73,14,157,28*63
$GLGSV,3,2,10,74,15,203,,75,00,248,,83,19,127,35,84,45,066,16*64
$GLGSV,3,3,10,85,26,004,35,,,,29*54
$GNGLL,0419.70049,S,05539.81245,E,120058.00,A,D*67
$GNGRS,120058.00,1,-1.3,-3.3,5.8,-0.7,-5.9,-8.7,-2.3,2.0,0.1,1.8,,*5E
$GNGRS,120058.00,1,12.6,4.5,-1.4,12.6,-2.1,0.1,-10.3,,,,,*69
$GNGST,120058.00,70662,,,,1.6,2.3,3.6*71
$GNZDA,120058.00,19,05,2025,00,00*7E
$GNGBS,120058.00,1.6,2.3,3.6,,,,*52
b0@
*_+C&
# @)(&&N )I^{#4Ta:R f>F$_zG7H:IJKS"T-BU&x$RDby$GNRMC,120059.00,A,0419.70046,S,05539.81249,E,0.040,,190525,,,D*72
$GNVTG,,T,,M,0.040,N,0.073,K,D*38
$GNGNS,120059.00,0419.70046,S,05539.81249,E,DA,16,0.60,11.9,-47.6,,0000*6A
$GNGGA,120059.00,0419.70046,S,05539.81249,E,2,12,0.60,11.9,M,-47.6,M,,0000*42
$GNGSA,A,3,29,10,23,32,18,28,31,16,27,,,,1.33,0.60,1.19*1B
$GNGSA,A,3,70,73,83,84,71,85,72,,,,,,1.33,0.60,1.19*18
$GPGSV,4,1,15,10,20,351,42,16,25,256,30,18,31,067,27,23,05,029,38*73
$GPGSV,4,2,15,25,04,133,,26,29,224,26,27,32,320,35,28,40,166,41*7F
$GPGSV,4,3,15,29,25,145,38,31,25,196,29,32,73,350,41,36,52,277,35*7D
$GPGSV,4,4,15,40,84,353,,41,58,082,,49,32,274,*4F
$GLGSV,3,1,10,70,36,351,22,71,55,281,31,72,22,226,30,73,14,157,29*65
$GLGSV,3,2,10,74,15,203,,75,00,248,,83,19,127,34,84,45,066,19*6A
$GLGSV,3,3,10,85,26,004,38,,,,36*57
$GNGLL,0419.70046,S,05539.81249,E,120059.00,A,D*65
$GNGRS,120059.00,1,0.8,-1.2,5.1,1.8,-8.2,-2.2,-0.2,3.0,1.6,,,*7B
$GNGRS,120059.00,1,11.5,4.1,2.3,2.0,-0.6,-3.9,-7.1,,,,,*65
$GNGST,120059.00,32,,,,1.5,2.2,3.6*46
$GNZDA,120059.00,19,05,2025,00,00*7F
$GNGBS,120059.00,1.5,2.2,3.6,,,,*51
b0@
$_=&zC$
2( @"($! I^{!4Ta:R fF$_<G7HIzJKSPT-BU$t$Vb}y\$GNRMC,120100.00,A,0419.70047,S,05539.81246,E,0.054,,190525,,,D*74
$GNVTG,,T,,M,0.054,N,0.100,K,D*38
$GNGNS,120100.00,0419.70047,S,05539.81246,E,DA,16,0.60,11.9,-47.6,,0000*69
$GNGGA,120100.00,0419.70047,S,05539.81246,E,2,12,0.60,11.9,M,-47.6,M,,0000*41
$GNGSA,A,3,29,10,23,32,18,28,31,16,27,,,,1.33,0.60,1.19*1B
$GNGSA,A,3,70,73,83,84,71,85,72,,,,,,1.33,0.60,1.19*18
$GPGSV,4,1,15,10,20,351,36,16,25,256,38,18,31,067,27,23,05,029,36*76
$GPGSV,4,2,15,25,04,133,,26,29,224,25,27,32,320,40,28,40,166,34*7C
$GPGSV,4,3,15,29,25,145,36,31,25,196,26,32,73,350,30,36,52,277,33*7C
$GPGSV,4,4,15,40,84,353,,41,58,082,,49,32,274,*4F
$GLGSV,3,1,10,70,36,351,25,71,55,281,31,72,22,226,21,73,14,157,19*61
$GLGSV,3,2,10,74,15,203,,75,00,248,,83,19,127,25,84,45,066,09*6B
$GLGSV,3,3,10,85,26,004,36,,,,36*59
$GNGLL,0419.70047,S,05539.81246,E,120100.00,A,D*66
$GNGRS,120100.00,1,0.3,0.6,2.3,1.5,-7.5,-0.3,0.3,1.2,1.5,,,*79
$GNGRS,120100.00,1,10.8,8.9,0.8,4.2,-2.4,-6.5,-7.4,,,,,*61
$GNGST,120100.00,104703,,,,1.5,2.2,3.6*4B
$GNZDA,120100.00,19,05,2025,00,00*72
$GNGBS,120100.00,1.5,2.2,3.6,,,,*5C
b0@
!_6!C
* @(D' I^;{4Ta:R fTF$_CG"7HILJKS,T
-BUBbey$GNRMC,120101.00,A,0419.70049,S,05539.81245,E,0.053,,190525,,,D*7F
$GNVTG,,T,,M,0.053,N,0.097,K,D*30
$GNGNS,120101.00,0419.70049,S,05539.81245,E,DA,17,0.58,11.9,-47.6,,0000*6F
$GNGGA,120101.00,0419.70049,S,05539.81245,E,2,12,0.58,11.9,M,-47.6,M,,0000*46
$GNGSA,A,3,29,10,23,32,26,18,28,31,16,27,,,1.32,0.58,1.19*15
$GNGSA,A,3,70,73,83,84,71,85,72,,,,,,1.32,0.58,1.19*12
$GPGSV,4,1,15,10,20,351,33,16,25,256,33,18,31,067,26,23,05,029,29*77
$GPGSV,4,2,15,25,04,133,,26,29,224,26,27,32,320,42,28,40,166,23*7B
$GPGSV,4,3,15,29,25,145,39,31,25,196,25,32,73,350,30,36,52,277,28*7A
$GPGSV,4,4,15,40,84,353,,41,58,082,,49,32,274,*4F
$GLGSV,3,1,10,70,36,351,25,71,55,281,34,72,22,226,19,73,14,157,21*64
$GLGSV,3,2,10,74,15,203,,75,00,248,,83,19,127,31,84,45,066,10*66
$GLGSV,3,3,10,85,26,004,29,,,,29*59
$GNGLL,0419.70049,S,05539.81245,E,120101.00,A,D*6A
$GNGRS,120101.00,1,1.6,-4.6,4.3,3.2,2.5,-7.6,3.2,-1.0,-0.4,1.7,,*54
$GNGRS,120101.00,1,10.9,5.9,0.4,4.0,-0.1,-4.5,-8.6,,,,,*6A
$GNGST,120101.00,152629,,,,1.5,2.2,3.6*40
$GNZDA,120101.00,19,05,2025,00,00*73
$GNGBS,120101.00,1.5,2.2,3.6,,,,*5D
b0@
#_!CD
O( @(%. I^{!4Ta:R fF$_zG"7mHIJKSlT-BU!tbMy,$GNRMC,120102.00,A,0419.70045,S,05539.81246,E,0.203,,190525,,,D*74
$GNVTG,,T,,M,0.203,N,0.376,K,D*3B
$GNGNS,120102.00,0419.70045,S,05539.81246,E,DA,17,0.58,11.9,-47.6,,0000*63
$GNGGA,120102.00,0419.70045,S,05539.81246,E,2,12,0.58,11.9,M,-47.6,M,,0000*4A
$GNGSA,A,3,29,10,23,32,26,18,28,31,16,27,,,1.32,0.58,1.19*15
$GNGSA,A,3,70,73,83,84,71,85,72,,,,,,1.32,0.58,1.19*12
$GPGSV,4,1,15,10,20,351,35,16,25,256,33,18,31,067,25,23,05,029,28*73
$GPGSV,4,2,15,25,04,133,,26,29,224,26,27,32,320,40,28,40,166,26*7C
$GPGSV,4,3,15,29,25,145,37,31,25,195,22,32,73,350,30,36,52,277,33*7A
$GPGSV,4,4,15,40,84,353,,41,58,082,,49,32,274,*4F
$GLGSV,3,1,10,70,36,351,23,71,55,281,34,72,22,226,18,73,14,157,20*62
$GLGSV,3,2,10,74,15,203,,75,00,248,,83,19,127,31,84,45,066,09*6E
$GLGSV,3,3,10,85,26,004,28,,,,33*53
$GNGLL,0419.70045,S,05539.81246,E,120102.00,A,D*66
$GNGRS,120102.00,1,0.1,-2.8,8.4,5.4,-4.3,-7.8,-4.9,-2.1,2.6,1.5,,*7D
$GNGRS,120102.00,1,11.5,4.0,1.1,4.3,-1.5,-3.6,-5.9,,,,,*68
$GNGST,120102.00,43,,,,1.5,2.2,3.7*4E
$GNZDA,120102.00,19,05,2025,00,00*70
$GNGBS,120102.00,1.5,2.2,3.7,,,,*5F
b0@h
'_v"C|!
& @(%E "I^{&4Ta:R fF$_0G7\HI/JKST-BU#bh5y_$GNRMC,120103.00,A,0419.70040,S,05539.81243,E,0.150,,190525,,,D*70
$GNVTG,,T,,M,0.150,N,0.278,K,D*31
$GNGNS,120103.00,0419.70040,S,05539.81243,E,DA,17,0.58,11.9,-47.6,,0000*62
$GNGGA,120103.00,0419.70040,S,05539.81243,E,2,12,0.58,11.9,M,-47.6,M,,0000*4B
$GNGSA,A,3,29,10,23,32,26,18,28,31,16,27,,,1.32,0.58,1.19*15
$GNGSA,A,3,70,73,83,84,71,85,72,,,,,,1.32,0.58,1.19*12
$GPGSV,4,1,15,10,20,351,39,16,25,256,34,18,31,067,23,23,05,029,33*74
$GPGSV,4,2,15,25,04,133,,26,29,224,27,27,32,320,38,28,40,166,29*7D
$GPGSV,4,3,15,29,25,145,37,31,25,195,30,32,73,350,34,36,52,277,38*76
$GPGSV,4,4,15,40,84,353,,41,58,082,,49,32,274,*4F
$GLGSV,3,1,10,70,36,351,25,71,55,282,30,72,22,226,17,73,14,157,21*6D
$GLGSV,3,2,10,74,15,203,,75,00,248,,83,19,127,30,84,45,066,14*63
$GLGSV,3,3,10,85,26,004,28,,,,35*55
$GNGLL,0419.70040,S,05539.81243,E,120103.00,A,D*67
$GNGRS,120103.00,1,-0.1,-1.4,7.0,1.3,-0.8,-6.4,-3.7,0.7,4.6,1.5,,*72
$GNGRS,120103.00,1,10.7,0.5,-0.6,4.4,-1.6,-2.7,-8.7,,,,,*47
$GNGST,120103.00,2827,,,,1.5,2.2,3.8*48
$GNZDA,120103.00,19,05,2025,00,00*71
$GNGBS,120103.00,1.5,2.2,3.8,,,,*51
b0@P
#_#_CQ!
@& @(%n M #I^{&4Ta:R flF$_NG7HI]JKST-BU< 0bPy7$GNRMC,120104.00,A,0419.70040,S,05539.81240,E,0.094,,190525,,,D*7D
$GNVTG,,T,,M,0.094,N,0.174,K,D*37
$GNGNS,120104.00,0419.70040,S,05539.81240,E,DA,17,0.58,11.8,-47.6,,0000*67
$GNGGA,120104.00,0419.70040,S,05539.81240,E,2,12,0.58,11.8,M,-47.6,M,,0000*4E
$GNGSA,A,3,29,10,23,32,26,18,28,31,16,27,,,1.32,0.58,1.19*15
$GNGSA,A,3,70,73,83,84,71,85,72,,,,,,1.32,0.58,1.19*12
$GPGSV,4,1,15,10,20,351,35,16,25,256,35,18,31,067,20,23,05,029,33*7A
$GPGSV,4,2,15,25,04,133,,26,29,224,26,27,32,320,38,28,40,166,30*74
$GPGSV,4,3,15,29,25,145,37,31,25,195,32,32,73,350,35,36,52,277,38*75
$GPGSV,4,4,15,40,84,353,,41,58,082,,49,32,274,*4F
$GLGSV,3,1,10,70,36,351,27,71,55,282,31,72,22,226,16,73,14,157,21*6F
$GLGSV,3,2,10,74,15,203,,75,00,248,,83,19,127,28,84,45,066,11*6F
$GLGSV,3,3,10,85,26,004,29,,,,32*53
$GNGLL,0419.70040,S,05539.81240,E,120104.00,A,D*63
$GNGRS,120104.00,1,-1.5,-0.5,2.9,-3.4,0.6,-4.3,-2.5,-1.8,3.5,1.7,,*54
$GNGRS,120104.00,1,11.0,3.5,1.5,4.5,-5.0,-4.5,-12.7,,,,,*56
$GNGST,120104.00,4240,,,,1.5,2.2,3.8*42
$GNZDA,120104.00,19,05,2025,00,00*76
$GNGBS,120104.00,1.5,2.2,3.8,,,,*56
b0@8
%_#Ch!
R$ @(i%&  "I^{%4Ta:R fF$_G#7HILJKST-BU!!b8yd$GNRMC,120105.00,A,0419.70039,S,05539.81238,E,0.155,,190525,,,D*71
$GNVTG,,T,,M,0.155,N,0.287,K,D*34
$GNGNS,120105.00,0419.70039,S,05539.81238,E,DA,17,0.58,11.6,-47.6,,0000*69
$GNGGA,120105.00,0419.70039,S,05539.81238,E,2,12,0.58,11.6,M,-47.6,M,,0000*40
$GNGSA,A,3,29,10,23,32,26,18,28,31,16,27,,,1.32,0.58,1.19*15
$GNGSA,A,3,70,73,83,84,71,85,72,,,,,,1.32,0.58,1.19*12
$GPGSV,4,1,15,10,20,351,37,16,25,256,35,18,31,067,18,23,05,029,33*73
$GPGSV,4,2,15,25,04,133,,26,29,224,26,27,32,320,36,28,40,166,30*7A
$GPGSV,4,3,15,29,25,145,37,31,25,195,32,32,73,350,34,36,52,277,37*7B
$GPGSV,4,4,15,40,84,353,,41,58,082,,49,32,274,*4F
$GLGSV,3,1,10,70,36,351,26,71,55,282,35,72,22,226,17,73,14,157,22*68
$GLGSV,3,2,10,74,15,203,,75,00,248,,83,19,127,28,84,45,066,12*6C
$GLGSV,3,3,10,85,26,004,33,,,,33*59
$GNGLL,0419.70039,S,05539.81238,E,120105.00,A,D*63
$GNGRS,120105.00,1,0.4,-0.5,2.3,-2.5,3.4,-6.6,-1.5,0.2,2.8,1.6,,*5C
$GNGRS,120105.00,1,10.2,8.4,4.9,-13.3,-8.4,-4.9,-11.3,,,,,*48
$GNGST,120105.00,39,,,,1.5,2.2,3.8*4B
$GNZDA,120105.00,19,05,2025,00,00*77
$GNGBS,120105.00,1.5,2.2,3.8,,,,*57
b0@ 
$_Cm"
}& @($m!) !I^{%4Ta:R fF$_G"7H3IJJKST-BU  ab y$GNRMC,120106.00,A,0419.70043,S,05539.81235,E,0.273,,190525,,,D*75
$GNVTG,,T,,M,0.273,N,0.505,K,D*3E
$GNGNS,120106.00,0419.70043,S,05539.81235,E,DA,17,0.58,11.6,-47.6,,0000*6A
$GNGGA,120106.00,0419.70043,S,05539.81235,E,2,12,0.58,11.6,M,-47.6,M,,0000*43
$GNGSA,A,3,29,10,23,32,26,18,28,31,16,27,,,1.32,0.58,1.19*15
$GNGSA,A,3,70,73,83,84,71,85,72,,,,,,1.32,0.58,1.19*12
$GPGSV,4,1,15,10,20,351,36,16,25,256,31,18,31,067,19,23,05,029,34*70
$GPGSV,4,2,15,25,04,133,,26,29,224,27,27,32,320,38,28,40,166,29*7D
$GPGSV,4,3,15,29,25,145,36,31,25,195,33,32,73,350,33,36,52,277,37*7C
$GPGSV,4,4,15,40,84,353,,41,58,082,,49,32,274,*4F
$GLGSV,3,1,10,70,36,351,25,71,55,282,34,72,22,226,16,73,14,157,21*68
$GLGSV,3,2,10,74,15,203,,75,00,248,,83,19,127,29,84,45,066,14*6B
$GLGSV,3,3,10,85,26,004,32,,,,32*59
$GNGLL,0419.70043,S,05539.81235,E,120106.00,A,D*60
$GNGRS,120106.00,1,1.1,0.0,1.4,-2.4,3.8,-6.6,-2.7,0.4,2.1,1.6,,*74
$GNGRS,120106.00,1,10.2,5.9,4.1,4.0,-6.0,-5.0,-12.3,,,,,*5A
$GNGST,120106.00,175241,,,,1.5,2.2,3.8*46
$GNZDA,120106.00,19,05,2025,00,00*74
$GNGBS,120106.00,1.5,2.2,3.8,,,,*54
b0@
"_C
n( @$(4 $I^{#4Ta:R $f^F$_9G7^HI^JKS<T-BwUQ!by1$GNRMC,120107.00,A,0419.70050,S,05539.81233,E,0.235,,190525,,,D*72
$GNVTG,,T,,M,0.235,N,0.435,K,D*3E
$GNGNS,120107.00,0419.70050,S,05539.81233,E,DA,17,0.58,11.7,-47.6,,0000*6E
$GNGGA,120107.00,0419.70050,S,05539.81233,E,2,12,0.58,11.7,M,-47.6,M,,0000*47
$GNGSA,A,3,29,10,23,32,26,18,28,31,16,27,,,1.32,0.58,1.19*15
$GNGSA,A,3,70,73,83,84,71,85,72,,,,,,1.32,0.58,1.19*12
$GPGSV,4,1,15,10,20,351,34,16,25,256,25,18,31,067,24,23,05,029,26*7A
$GPGSV,4,2,15,25,04,133,,26,29,224,28,27,32,320,40,28,40,166,36*73
$GPGSV,4,3,15,29,25,145,27,31,25,195,30,32,73,350,36,36,52,277,35*78
$GPGSV,4,4,15,40,84,353,,41,58,082,,49,32,274,*4F
$GLGSV,3,1,10,70,36,351,23,71,55,282,29,72,22,226,18,73,14,157,18*66
$GLGSV,3,2,10,74,15,203,,75,00,248,,83,19,127,29,84,45,066,11*6E
$GLGSV,3,3,10,85,26,004,30,,,,26*5E
$GNGLL,0419.70050,S,05539.81233,E,120107.00,A,D*65
$GNGRS,120107.00,1,1.4,0.3,2.5,-0.9,1.1,-7.7,-5.4,0.5,1.4,1.7,,*77
$GNGRS,120107.00,1,10.8,6.1,3.2,3.8,-6.7,-8.0,-11.4,,,,,*5F
$GNGST,120107.00,2803859,,,,1.5,2.2,3.9*7F
$GNZDA,120107.00,19,05,2025,00,00*75
$GNGBS,120107.00,1.5,2.2,3.9,,,,*54
b0@
#_#TC
" @R&( wE I^{%4Ta:R &fF$_pG%71HIJKSNT-B#UBby$GNRMC,120108.00,A,0419.70057,S,05539.81228,E,0.437,,190525,,,D*74
$GNVTG,,T,,M,0.437,N,0.810,K,D*31
$GNGNS,120108.00,0419.70057,S,05539.81228,E,DA,17,0.60,11.6,-47.6,,0000*66
$GNGGA,120108.00,0419.70057,S,05539.81228,E,2,12,0.60,11.6,M,-47.6,M,,0000*4F
$GNGSA,A,3,29,10,23,32,26,18,28,31,16,27,,,1.42,0.60,1.28*1B
$GNGSA,A,3,70,73,83,84,71,85,72,,,,,,1.42,0.60,1.28*1C
$GPGSV,4,1,15,10,20,351,35,16,25,256,35,18,31,067,25,23,05,029,24*79
$GPGSV,4,2,15,25,04,133,,26,29,224,20,27,32,320,34,28,40,166,38*76
$GPGSV,4,3,15,29,25,145,32,31,25,195,29,32,73,350,23,36,52,277,37*72
$GPGSV,4,4,15,40,84,353,,41,58,082,,49,32,274,*4F
$GLGSV,3,1,10,70,36,351,20,71,55,282,37,72,22,226,18,73,14,157,21*60
$GLGSV,3,2,10,74,15,203,,75,00,248,,83,19,127,28,84,45,066,11*6F
$GLGSV,3,3,10,85,26,004,23,,,,25*5F
$GNGLL,0419.70057,S,05539.81228,E,120108.00,A,D*67
$GNGRS,120108.00,1,-1.4,-0.1,4.0,2.0,2.7,-8.0,-0.8,0.7,3.4,0.8,,*55
$GNGRS,120108.00,1,11.4,7.3,3.3,43.9,-7.2,-5.0,-11.0,,,,,*67
$GNGST,120108.00,39,,,,1.6,2.2,4.0*4A
$GNZDA,120108.00,19,05,2025,00,00*7A
$GNGBS,120108.00,1.6,2.2,4.0,,,,*56
b0@
_2C
 @(Es I^g{4Ta:R f)F$_G7HI<JKS$T-BUwjbym$GNRMC,120109.00,A,0419.70041,S,05539.81208,E,1.218,,190525,,,D*7A
$GNVTG,,T,,M,1.218,N,2.256,K,D*31
$GNGNS,120109.00,0419.70041,S,05539.81208,E,DA,17,0.58,11.7,-47.6,,0000*68
$GNGGA,120109.00,0419.70041,S,05539.81208,E,2,12,0.58,11.7,M,-47.6,M,,0000*41
$GNGSA,A,3,29,10,23,32,26,18,28,31,16,27,,,1.32,0.58,1.19*15
$GNGSA,A,3,70,73,83,84,71,85,72,,,,,,1.32,0.58,1.19*12
$GPGSV,4,1,15,10,20,351,24,16,25,256,21,18,31,067,22,23,05,029,30*7E
$GPGSV,4,2,15,25,04,133,,26,29,224,22,27,32,320,18,28,40,166,24*77
$GPGSV,4,3,15,29,25,145,25,31,25,195,22,32,73,350,22,36,52,277,27*7F
$GPGSV,4,4,15,40,84,353,,41,58,082,,49,32,274,*4F
$GLGSV,3,1,10,70,36,351,18,71,55,282,21,72,22,226,20,73,14,157,20*66
$GLGSV,3,2,10,74,15,203,,75,00,248,21,83,19,127,19,84,45,066,12*6D
$GLGSV,3,3,10,85,26,004,22,,,,25*5E
$GNGLL,0419.70041,S,05539.81208,E,120109.00,A,D*63
$GNGRS,120109.00,1,-0.9,-0.4,4.8,1.0,9.3,-3.2,-1.9,3.7,5.6,5.3,,*59
$GNGRS,120109.00,1,12.3,5.7,2.9,4.2,-2.8,-6.0,-11.4,,,,,*5F
$GNGST,120109.00,2803859,,,,1.7,2.5,4.2*78
$GNZDA,120109.00,19,05,2025,00,00*7B
$GNGBS,120109.00,1.7,2.5,4.2,,,,*53
b0@
_&%Ce-
s @( I^{4Ta:R $fF$_G7cHIJKS!T-BU+byEZ$GNRMC,120110.00,A,0419.70045,S,05539.81202,E,0.278,,190525,,,D*7B
$GNVTG,,T,,M,0.278,N,0.514,K,D*35
$GNGNS,120110.00,0419.70045,S,05539.81202,E,DA,16,0.58,11.8,-47.6,,0000*60
$GNGGA,120110.00,0419.70045,S,05539.81202,E,2,12,0.58,11.8,M,-47.6,M,,0000*48
$GNGSA,A,3,29,10,23,26,18,28,31,16,27,,,,1.55,0.58,1.44*1D
$GNGSA,A,3,70,73,83,84,71,85,72,,,,,,1.55,0.58,1.44*1B
$GPGSV,4,1,15,10,20,351,24,16,25,256,37,18,31,067,29,23,05,029,22*71
$GPGSV,4,2,15,25,04,133,11,26,29,224,29,27,32,320,27,28,40,166,31*74
$GPGSV,4,3,15,29,25,145,30,31,25,195,29,32,73,350,,36,52,277,*75
$GPGSV,4,4,15,40,84,353,,41,58,082,,49,32,274,*4F
$GLGSV,3,1,10,70,36,351,16,71,55,282,28,72,22,226,19,73,14,157,19*61
$GLGSV,3,2,10,74,15,203,,75,00,248,20,83,19,127,33,84,45,066,11*67
$GLGSV,3,3,10,85,26,004,22,,,,23*58
$GNGLL,0419.70045,S,05539.81202,E,120110.00,A,D*65
$GNGRS,120110.00,1,2.0,-2.2,6.1,6.3,-5.5,-5.4,2.3,1.9,-0.5,,,*70
$GNGRS,120110.00,1,12.1,4.6,7.4,4.1,-1.6,-5.6,-10.9,,,,,*5A
$GNGST,120110.00,2885147,,,,1.9,2.5,4.5*71
$GNZDA,120110.00,19,05,2025,00,00*73
$GNGBS,120110.00,1.9,2.5,4.5,,,,*52
b04
"_ CD0

  @"(% I^{4Ta:R "fF$_.G%7zHIJKSMT-BU7buy$GNRMC,120111.00,A,0419.70053,S,05539.81200,E,0.312,,190525,,,D*72
$GNVTG,,T,,M,0.312,N,0.578,K,D*32
$GNGNS,120111.00,0419.70053,S,05539.81200,E,DA,16,0.58,11.7,-47.6,,0000*6B
$GNGGA,120111.00,0419.70053,S,05539.81200,E,2,12,0.58,11.7,M,-47.6,M,,0000*43
$GNGSA,A,3,29,10,23,26,18,28,31,16,27,,,,1.55,0.58,1.44*1D
$GNGSA,A,3,70,73,83,84,71,85,72,,,,,,1.55,0.58,1.44*1B
$GPGSV,4,1,15,10,20,351,34,16,25,256,32,18,31,067,23,23,05,029,24*79
$GPGSV,4,2,15,25,04,133,09,26,29,224,23,27,32,320,32,28,40,166,34*76
$GPGSV,4,3,15,29,25,145,37,31,25,195,30,32,73,350,27,36,52,277,*7F
$GPGSV,4,4,15,40,84,353,,41,58,082,,49,32,274,*4F
$GLGSV,3,1,09,70,36,351,13,71,55,282,37,72,22,226,18,73,14,157,21*68
$GLGSV,3,2,09,74,15,203,,75,00,248,19,83,19,127,28,84,45,066,15*6B
$GLGSV,3,3,09,85,26,004,29*5A
$GNGLL,0419.70053,S,05539.81200,E,120111.00,A,D*61
$GNGRS,120111.00,1,0.1,1.3,0.7,7.8,-3.0,-4.9,2.2,2.4,-0.7,,,*55
$GNGRS,120111.00,1,8.1,4.9,8.4,2.7,-3.9,-3.8,-13.4,,,,,*6B
$GNGST,120111.00,44,,,,1.9,2.5,4.5*45
$GNZDA,120111.00,19,05,2025,00,00*72
$GNGBS,120111.00,1.9,2.5,4.5,,,,*53
b04
_\Cb2
' @0%(
" I^{4Ta:R fF
$_G7^HIJKST-BUw b]y*$GNRMC,120112.00,A,0419.70053,S,05539.81192,E,0.265,,190525,,,D*78
$GNVTG,,T,,M,0.265,N,0.490,K,D*34
$GNGNS,120112.00,0419.70053,S,05539.81192,E,DA,17,0.58,11.6,-47.6,,0000*60
$GNGGA,120112.00,0419.70053,S,05539.81192,E,2,12,0.58,11.6,M,-47.6,M,,0000*49
$GNGSA,A,3,29,10,23,32,26,18,28,31,16,27,,,1.32,0.58,1.19*15
$GNGSA,A,3,70,73,83,84,71,85,72,,,,,,1.32,0.58,1.19*12
$GPGSV,4,1,15,10,20,351,31,16,25,256,25,18,31,067,23,23,05,029,25*7B
$GPGSV,4,2,15,25,04,133,09,26,29,224,22,27,32,320,39,28,40,166,37*7F
$GPGSV,4,3,15,29,25,145,25,31,25,195,34,32,73,350,26,36,52,277,*79
$GPGSV,4,4,15,40,84,353,,41,58,082,,49,32,274,*4F
$GLGSV,3,1,09,70,36,351,10,71,55,282,31,72,22,226,19,73,14,157,22*6F
$GLGSV,3,2,09,74,15,203,,75,00,248,18,83,19,127,28,84,45,066,14*6B
$GLGSV,3,3,09,85,26,004,30*52
$GNGLL,0419.70053,S,05539.81192,E,120112.00,A,D*6A
$GNGRS,120112.00,1,0.1,-9.3,-0.8,-5.8,4.8,-6.7,-3.0,2.6,5.2,0.5,,*7A
$GNGRS,120112.00,1,1.5,2.3,9.2,2.0,-4.2,-6.5,-14.1,,,,,*6F
$GNGST,120112.00,49,,,,1.9,2.5,4.7*49
$GNZDA,120112.00,19,05,2025,00,00*71
$GNGBS,120112.00,1.9,2.5,4.7,,,,*52
b04x
"_yC
3
) @A%( #R #I^{4Ta:R fF$_G7HI|JKS!zT
-BUXbxEy$GNRMC,120113.00,A,0419.70052,S,05539.81187,E,0.044,,190525,,,D*7D
$GNVTG,,T,,M,0.044,N,0.081,K,D*31
$GNGNS,120113.00,0419.70052,S,05539.81187,E,DA,16,0.60,11.2,-47.6,,0000*6A
$GNGGA,120113.00,0419.70052,S,05539.81187,E,2,12,0.60,11.2,M,-47.6,M,,0000*42
$GNGSA,A,3,29,10,23,32,26,18,28,31,16,27,,,1.42,0.60,1.28*1B
$GNGSA,A,3,70,73,83,71,85,72,,,,,,,1.42,0.60,1.28*10
$GPGSV,4,1,15,10,20,351,34,16,25,256,23,18,31,067,22,23,05,029,27*7B
$GPGSV,4,2,15,25,04,133,09,26,29,224,21,27,32,320,41,28,40,166,37*73
$GPGSV,4,3,15,29,25,145,32,31,25,195,35,32,73,350,35,36,52,277,*7C
$GPGSV,4,4,15,40,84,353,,41,58,082,,49,32,274,*4F
$GLGSV,3,1,09,70,36,351,18,71,55,282,30,72,22,226,18,73,14,157,20*65
$GLGSV,3,2,09,74,15,203,,75,00,248,16,83,19,127,33,84,45,066,10*6B
$GLGSV,3,3,09,85,26,004,25*56
$GNGLL,0419.70052,S,05539.81187,E,120113.00,A,D*6E
$GNGRS,120113.00,1,1.7,2.3,1.9,-5.9,4.8,-7.6,-3.2,0.8,3.8,0.7,,*76
$GNGRS,120113.00,1,1.8,1.2,6.3,-3.0,-4.2,-12.6,,,,,,*42
$GNGST,120113.00,41,,,,1.9,2.6,4.8*4C
$GNZDA,120113.00,19,05,2025,00,00*70
$GNGBS,120113.00,1.9,2.6,4.8,,,,*5F
b04`
%_u>C 
N
, @%(%$ &I^U{4Ta:R f?F$_G 7,HIFJKS!T-B~U@9b`-y$GNRMC,120114.00,A,0419.70055,S,05539.81178,E,0.115,,190525,,,D*78
$GNVTG,,T,,M,0.115,N,0.213,K,D*3D
$GNGNS,120114.00,0419.70055,S,05539.81178,E,DA,17,0.58,10.4,-47.6,,0000*67
$GNGGA,120114.00,0419.70055,S,05539.81178,E,2,12,0.58,10.4,M,-47.6,M,,0000*4E
$GNGSA,A,3,29,10,23,32,26,18,28,31,16,27,,,1.32,0.58,1.19*15
$GNGSA,A,3,70,73,83,84,71,85,72,,,,,,1.32,0.58,1.19*12
$GPGSV,4,1,15,10,20,351,37,16,25,256,28,18,31,067,22,23,05,029,32*77
$GPGSV,4,2,15,25,04,133,11,26,29,224,19,27,32,320,44,28,40,166,37*74
$GPGSV,4,3,15,29,25,145,37,31,25,195,36,32,73,350,38,36,52,277,*77
$GPGSV,4,4,15,40,84,353,,41,58,082,,49,32,274,*4F
$GLGSV,3,1,09,70,36,351,23,71,55,282,32,72,22,226,17,73,14,157,19*6A
$GLGSV,3,2,09,74,15,203,,75,00,248,13,83,19,127,33,84,45,066,08*67
$GLGSV,3,3,09,85,26,004,27*54
$GNGLL,0419.70055,S,05539.81178,E,120114.00,A,D*6E
$GNGRS,120114.00,1,1.4,1.2,0.3,-4.3,4.4,-3.4,-2.8,-0.2,5.7,-2.3,,*74
$GNGRS,120114.00,1,3.9,0.7,2.0,-3.9,-4.7,1.3,-11.4,,,,,*64
$GNGST,120114.00,51,,,,1.8,2.5,4.6*46
$GNZDA,120114.00,19,05,2025,00,00*77
$GNGBS,120114.00,1.8,2.5,4.6,,,,*54
b04H
 _CZ
* @"(u#r I^{4Ta:R fF$_fG#7HIJKS  T-BU-dbHy}b$GNRMC,120115.00,A,0419.70054,S,05539.81180,E,0.134,,190525,,,D*7C
$GNVTG,,T,,M,0.134,N,0.249,K,D*31
$GNGNS,120115.00,0419.70054,S,05539.81180,E,DA,17,0.58,10.3,-47.6,,0000*67
$GNGGA,120115.00,0419.70054,S,05539.81180,E,2,12,0.58,10.3,M,-47.6,M,,0000*4E
$GNGSA,A,3,29,10,23,32,26,18,28,31,16,27,,,1.32,0.58,1.19*15
$GNGSA,A,3,70,73,83,84,71,85,72,,,,,,1.32,0.58,1.19*12
$GPGSV,4,1,15,10,20,351,32,16,25,256,29,18,31,067,22,23,05,029,30*71
$GPGSV,4,2,15,25,04,133,07,26,29,224,17,27,32,320,42,28,40,166,34*78
$GPGSV,4,3,15,29,25,145,35,31,25,195,28,32,73,350,31,36,52,277,*73
$GPGSV,4,4,15,40,84,353,,41,58,082,,49,32,274,*4F
$GLGSV,3,1,09,70,36,351,24,71,55,282,35,72,22,226,11,73,14,157,20*66
$GLGSV,3,2,09,74,15,203,,75,00,248,11,83,19,127,32,84,45,066,07*6B
$GLGSV,3,3,09,85,26,004,24*57
$GNGLL,0419.70054,S,05539.81180,E,120115.00,A,D*69
$GNGRS,120115.00,1,1.1,4.4,-4.2,-5.7,4.0,-2.7,-1.4,-2.4,4.1,-0.2,,*57
$GNGRS,120115.00,1,3.6,1.5,0.3,-3.8,-5.4,3.0,-11.3,,,,,*6D
$GNGST,120115.00,99931,,,,1.8,2.5,4.7*79
$GNZDA,120115.00,19,05,2025,00,00*76
$GNGBS,120115.00,1.8,2.5,4.7,,,,*54
b040
'_C;?
) @%($ $I^{4Ta:R fF$_G&7HIJKS gT
-BxUab0yT$GNRMC,120116.00,A,0419.70051,S,05539.81184,E,0.045,,190525,,,D*79
$GNVTG,,T,,M,0.045,N,0.084,K,D*35
$GNGNS,120116.00,0419.70051,S,05539.81184,E,DA,16,0.60,10.1,-47.6,,0000*6D
$GNGGA,120116.00,0419.70051,S,05539.81184,E,2,12,0.60,10.1,M,-47.6,M,,0000*45
$GNGSA,A,3,29,10,23,32,18,28,31,16,27,,,,1.33,0.60,1.19*1B
$GNGSA,A,3,70,73,83,84,71,85,72,,,,,,1.33,0.60,1.19*18
$GPGSV,4,1,15,10,20,351,39,16,25,256,24,18,31,067,22,23,05,029,29*7F
$GPGSV,4,2,15,25,04,133,11,26,29,224,,27,32,320,41,28,40,166,37*79
$GPGSV,4,3,15,29,25,145,36,31,25,195,30,32,73,350,36,36,52,277,*7E
$GPGSV,4,4,15,40,84,353,,41,58,082,,49,32,274,*4F
$GLGSV,3,1,09,70,36,351,31,71,55,282,38,72,22,226,12,73,14,157,21*6D
$GLGSV,3,2,09,74,15,203,,75,00,248,08,83,19,127,32,84,45,066,10*65
$GLGSV,3,3,09,85,26,004,25*56
$GNGLL,0419.70051,S,05539.81184,E,120116.00,A,D*6B
$GNGRS,120116.00,1,-2.5,-0.3,5.7,1.4,0.6,-2.3,1.9,2.3,-0.9,,,*7F
$GNGRS,120116.00,1,3.9,1.7,1.0,-3.9,-3.8,-0.6,-11.2,,,,,*43
$GNGST,120116.00,102828,,,,1.8,2.6,4.6*42
$GNZDA,120116.00,19,05,2025,00,00*75
$GNGBS,120116.00,1.8,2.6,4.6,,,,*55
b04
+_"5CK$J" @D'(K$" $I^{4Ta:R fF$_G+72HI&JKS$T-BU(xby,/$GNRMC,120117.00,A,0419.70046,S,05539.81197,E,0.072,,190525,,,D*78
$GNVTG,,T,,M,0.072,N,0.134,K,D*3B
$GNGNS,120117.00,0419.70046,S,05539.81197,E,DA,16,0.60,10.1,-47.6,,0000*68
$GNGGA,120117.00,0419.70046,S,05539.81197,E,2,12,0.60,10.1,M,-47.6,M,,0000*40
$GNGSA,A,3,29,10,23,32,18,28,31,16,27,,,,1.33,0.60,1.19*1B
$GNGSA,A,3,70,73,83,84,71,85,72,,,,,,1.33,0.60,1.19*18
$GPGSV,4,1,15,10,20,351,43,16,25,256,34,18,31,067,25,23,05,029,36*7A
$GPGSV,4,2,15,25,04,133,,26,29,224,,27,32,320,34,28,40,166,39*75
$GPGSV,4,3,15,29,25,145,36,31,25,195,34,32,73,350,36,36,52,277,*7A
$GPGSV,4,4,15,40,84,353,,41,58,082,,49,32,274,*4F
$GLGSV,3,1,09,70,36,351,26,71,55,282,43,72,22,226,19,73,14,157,23*6E
$GLGSV,3,2,09,74,15,203,,75,00,248,11,83,19,127,36,84,45,066,17*6E
$GLGSV,3,3,09,85,26,004,40*55
$GNGLL,0419.70046,S,05539.81197,E,120117.00,A,D*6E
$GNGRS,120117.00,1,1.7,-0.6,8.4,5.2,-1.8,0.7,-0.6,0.5,5.8,,,*5C
$GNGRS,120117.00,1,1.7,0.4,2.1,-15.4,-4.6,2.5,-9.9,,,,,*63
$GNGST,120117.00,39,,,,1.8,2.6,4.6*48
$GNZDA,120117.00,19,05,2025,00,00*74
$GNGBS,120117.00,1.8,2.6,4.6,,,,*54
b04
*_g"^ C%
$ @i*(&] +I^{4Ta:R f#F$_.G(7$HIIFJKS#T-BU)zsby$GNRMC,120118.00,A,0419.70041,S,05539.81203,E,0.019,,190525,,,D*73
$GNVTG,,T,,M,0.019,N,0.035,K,D*36
$GNGNS,120118.00,0419.70041,S,05539.81203,E,DA,16,0.60,10.4,-47.6,,0000*6B
$GNGGA,120118.00,0419.70041,S,05539.81203,E,2,12,0.60,10.4,M,-47.6,M,,0000*43
$GNGSA,A,3,29,10,23,32,18,28,31,16,27,,,,1.33,0.60,1.19*1B
$GNGSA,A,3,70,73,83,84,71,85,72,,,,,,1.33,0.60,1.19*18
$GPGSV,4,1,15,10,20,351,42,16,25,256,34,18,31,067,32,23,05,029,37*7C
$GPGSV,4,2,15,25,04,133,,26,29,224,,27,32,320,36,28,40,166,42*7B
$GPGSV,4,3,15,29,25,145,38,31,25,195,31,32,73,350,43,36,52,277,*73
$GPGSV,4,4,15,40,84,353,,41,58,082,,49,32,274,*4F
$GLGSV,3,1,09,70,36,351,25,71,55,282,40,72,22,226,28,73,14,157,30*6E
$GLGSV,3,2,09,74,15,203,,75,00,248,16,83,19,127,35,84,45,066,16*6B
$GLGSV,3,3,09,85,26,004,41*54
$GNGLL,0419.70041,S,05539.81203,E,120118.00,A,D*68
$GNGRS,120118.00,1,-1.0,-1.5,5.2,4.0,-11.0,-0.3,-1.6,0.9,6.2,,,*67
$GNGRS,120118.00,1,0.5,3.3,4.9,3.9,-2.2,1.2,8.4,,,,,*55
$GNGST,120118.00,110520,,,,1.7,2.5,4.4*44
$GNZDA,120118.00,19,05,2025,00,00*7B
$GNGBS,120118.00,1.7,2.5,4.4,,,,*55
b04
*_-"4C'4
% @*(%" ,I^F{4Ta:R fF$_G&7ZHI'JKS#CT-BlU)+rby$GNRMC,120119.00,A,0419.70041,S,05539.81210,E,0.089,,190525,,,D*79
$GNVTG,,T,,M,0.089,N,0.165,K,D*3B
$GNGNS,120119.00,0419.70041,S,05539.81210,E,DA,17,0.58,10.5,-47.6,,0000*63
$GNGGA,120119.00,0419.70041,S,05539.81210,E,2,12,0.58,10.5,M,-47.6,M,,0000*4A
$GNGSA,A,3,29,10,23,32,26,18,28,31,16,27,,,1.32,0.58,1.19*15
$GNGSA,A,3,70,73,83,84,71,85,72,,,,,,1.32,0.58,1.19*12
$GPGSV,4,1,15,10,20,351,42,16,25,256,34,18,31,067,30,23,05,030,39*78
$GPGSV,4,2,15,25,04,133,,26,29,224,31,27,32,320,37,28,40,166,42*78
$GPGSV,4,3,15,29,25,145,37,31,25,195,34,32,73,350,44,36,52,277,*7E
$GPGSV,4,4,15,40,84,353,,41,58,082,,49,32,274,*4F
$GLGSV,3,1,09,70,36,351,24,71,55,282,38,72,22,226,30,73,14,157,30*69
$GLGSV,3,2,09,74,15,203,,75,00,248,17,83,19,127,35,84,45,066,18*64
$GLGSV,3,3,09,85,26,004,41*54
$GNGLL,0419.70041,S,05539.81210,E,120119.00,A,D*6B
$GNGRS,120119.00,1,1.6,-2.1,5.6,3.3,2.3,-13.1,0.1,2.0,3.1,1.9,,*66
$GNGRS,120119.00,1,-0.3,8.1,5.8,3.6,-1.7,0.4,-0.4,,,,,*5D
$GNGST,120119.00,158282,,,,1.7,2.5,4.2*40
$GNZDA,120119.00,19,05,2025,00,00*7A
$GNGBS,120119.00,1.7,2.5,4.2,,,,*52
b04
'_.!C%
d$ @+('"m *I^{%4Ta:R fzF$_G'7uHIJKS%T-BU(byf$GNRMC,120120.00,A,0419.70042,S,05539.81222,E,0.052,,190525,,,D*77
$GNVTG,,T,,M,0.052,N,0.097,K,D*31
$GNGNS,120120.00,0419.70042,S,05539.81222,E,DA,17,0.58,10.5,-47.6,,0000*6B
$GNGGA,120120.00,0419.70042,S,05539.81222,E,2,12,0.58,10.5,M,-47.6,M,,0000*42
$GNGSA,A,3,29,10,23,32,26,18,28,31,16,27,,,1.32,0.58,1.19*15
$GNGSA,A,3,70,73,83,84,71,85,72,,,,,,1.32,0.58,1.19*12
$GPGSV,4,1,15,10,20,351,39,16,25,256,29,18,31,067,33,23,05,030,37*75
$GPGSV,4,2,15,25,04,133,,26,29,224,31,27,32,320,36,28,40,166,43*78
$GPGSV,4,3,15,29,25,145,39,31,25,195,34,32,73,350,42,36,52,277,37*72
$GPGSV,4,4,15,40,84,353,,41,58,082,,49,32,274,*4F
$GLGSV,3,1,09,70,36,351,22,71,55,282,39,72,22,226,29,73,14,157,30*66
$GLGSV,3,2,09,74,15,203,,75,00,248,17,83,19,127,37,84,45,066,15*6B
$GLGSV,3,3,09,85,26,004,40*55
$GNGLL,0419.70042,S,05539.81222,E,120120.00,A,D*63
$GNGRS,120120.00,1,2.2,-2.6,4.8,2.0,-1.6,-8.7,-0.7,1.1,3.0,-0.3,,*78
$GNGRS,120120.00,1,-3.3,5.3,6.4,4.7,-3.9,2.2,-2.6,,,,,*5A
$GNGST,120120.00,30,,,,1.6,2.4,4.1*4E
$GNZDA,120120.00,19,05,2025,00,00*70
$GNGBS,120120.00,1.6,2.4,4.1,,,,*5B
b04
#_C%
& @+()\ *I^{#4Ta:R fF$_G!7HIJKS$T-B5U%;zby$GNRMC,120121.00,A,0419.70044,S,05539.81227,E,0.050,,190525,,,D*77
$GNVTG,,T,,M,0.050,N,0.093,K,D*37
$GNGNS,120121.00,0419.70044,S,05539.81227,E,DA,17,0.58,10.5,-47.6,,0000*69
$GNGGA,120121.00,0419.70044,S,05539.81227,E,2,12,0.58,10.5,M,-47.6,M,,0000*40
$GNGSA,A,3,29,10,23,32,26,18,28,31,16,27,,,1.32,0.58,1.19*15
$GNGSA,A,3,70,73,83,84,71,85,72,,,,,,1.32,0.58,1.19*12
$GPGSV,4,1,15,10,20,351,35,16,25,256,28,18,31,067,31,23,05,030,37*7A
$GPGSV,4,2,15,25,04,133,,26,29,224,28,27,32,320,38,28,40,166,43*7E
$GPGSV,4,3,15,29,25,145,41,31,25,195,30,32,73,350,42,36,52,277,35*7B
$GPGSV,4,4,15,40,84,353,,41,58,082,,49,32,274,*4F
$GLGSV,3,1,09,70,36,351,23,71,55,282,33,72,22,226,27,73,14,157,28*6A
$GLGSV,3,2,09,74,15,203,,75,00,248,15,83,19,127,36,84,45,066,20*6E
$GLGSV,3,3,09,85,26,004,37*55
$GNGLL,0419.70044,S,05539.81227,E,120121.00,A,D*61
$GNGRS,120121.00,1,0.9,-2.6,4.4,-0.4,-6.1,-5.8,-0.3,-1.1,2.7,-2.5,,*7E
$GNGRS,120121.00,1,-0.3,6.8,5.3,5.7,-3.2,-1.2,-6.3,,,,,*71
$GNGST,120121.00,29,,,,1.6,2.4,4.0*46
$GNZDA,120121.00,19,05,2025,00,00*71
$GNGBS,120121.00,1.6,2.4,4.0,,,,*5B
b04
+_
#VCH
'& @,(e* +I^-{&4Ta:R fuF$_G#7HIJKS$T-BU$bmyd6$GNRMC,120122.00,A,0419.70044,S,05539.81231,E,0.145,,190525,,,D*76
$GNVTG,,T,,M,0.145,N,0.269,K,D*35
$GNGNS,120122.00,0419.70044,S,05539.81231,E,DA,17,0.58,10.5,-47.6,,0000*6D
$GNGGA,120122.00,0419.70044,S,05539.81231,E,2,12,0.58,10.5,M,-47.6,M,,0000*44
$GNGSA,A,3,29,10,23,32,26,18,28,31,16,27,,,1.32,0.58,1.19*15
$GNGSA,A,3,70,73,83,84,71,85,72,,,,,,1.32,0.58,1.19*12
$GPGSV,4,1,15,10,20,351,43,16,25,256,35,18,31,067,25,23,05,030,30*75
$GPGSV,4,2,15,25,04,133,,26,29,224,27,27,32,320,38,28,40,166,44*76
$GPGSV,4,3,15,29,25,145,42,31,25,195,29,32,73,350,43,36,52,277,38*7C
$GPGSV,4,4,15,40,84,353,,41,58,082,,49,32,274,*4F
$GLGSV,3,1,09,70,36,351,23,71,55,282,35,72,22,226,26,73,14,157,27*62
$GLGSV,3,2,09,74,15,203,,75,00,248,12,83,19,127,36,84,45,066,22*6B
$GLGSV,3,3,09,85,26,004,36*54
$GNGLL,0419.70044,S,05539.81231,E,120122.00,A,D*65
$GNGRS,120122.00,1,1.6,-2.5,5.8,0.5,-4.7,1.8,-1.5,2.6,3.4,-3.1,,*55
$GNGRS,120122.00,1,2.0,6.9,2.5,6.8,-3.1,-2.3,-5.3,,,,,*50
$GNGST,120122.00,28,,,,1.6,2.3,3.9*4D
$GNZDA,120122.00,19,05,2025,00,00*72
$GNGBS,120122.00,1.6,2.3,3.9,,,,*51
b04
%_ C 
 @c+('! )I^Z{$4Ta:R f"F$_G#7HIJKS%T-BU#
bUy<$GNRMC,120123.00,A,0419.70043,S,05539.81231,E,0.079,,190525,,,D*7E
$GNVTG,,T,,M,0.079,N,0.146,K,D*35
$GNGNS,120123.00,0419.70043,S,05539.81231,E,DA,17,0.58,10.5,-47.6,,0000*6B
$GNGGA,120123.00,0419.70043,S,05539.81231,E,2,12,0.58,10.5,M,-47.6,M,,0000*42
$GNGSA,A,3,29,10,23,32,26,18,28,31,16,27,,,1.32,0.58,1.19*15
$GNGSA,A,3,70,73,83,84,71,85,72,,,,,,1.32,0.58,1.19*12
$GPGSV,4,1,15,10,20,351,37,16,25,256,32,18,31,067,22,23,05,030,32*74
$GPGSV,4,2,15,25,04,133,,26,29,224,26,27,32,320,28,28,40,166,43*71
$GPGSV,4,3,15,29,25,145,39,31,25,195,33,32,73,350,41,36,52,277,36*77
$GPGSV,4,4,15,40,84,353,,41,58,082,,49,32,274,*4F
$GLGSV,3,1,09,70,36,351,22,71,55,282,35,72,22,226,26,73,14,157,28*6C
$GLGSV,3,2,09,74,15,203,,75,00,248,12,83,19,127,37,84,45,066,22*6A
$GLGSV,3,3,09,85,26,004,35*57
$GNGLL,0419.70043,S,05539.81231,E,120123.00,A,D*63
$GNGRS,120123.00,1,-0.5,-2.2,1.6,0.9,-0.3,4.3,-0.7,2.3,4.7,-4.1,,*71
$GNGRS,120123.00,1,4.6,4.4,2.1,6.8,-2.7,-1.0,-2.8,,,,,*51
$GNGST,120123.00,30,,,,1.5,2.3,3.8*47
$GNZDA,120123.00,19,05,2025,00,00*73
$GNGBS,120123.00,1.5,2.3,3.8,,,,*52
b04p
)`!C%
# @,('"! )I^`{#4Ta:R fF$_QG$7HIJKS%T-BU&8Vbp=y$GNRMC,120124.00,A,0419.70041,S,05539.81231,E,0.086,,190525,,,D*7B
$GNVTG,,T,,M,0.086,N,0.159,K,D*3B
$GNGNS,120124.00,0419.70041,S,05539.81231,E,DA,16,0.60,10.6,-47.6,,0000*67
$GNGGA,120124.00,0419.70041,S,05539.81231,E,2,12,0.60,10.6,M,-47.6,M,,0000*4F
$GNGSA,A,3,29,10,23,32,26,28,31,16,27,,,,1.34,0.60,1.20*1B
$GNGSA,A,3,70,73,83,84,71,85,72,,,,,,1.34,0.60,1.20*15
$GPGSV,4,1,15,10,20,352,41,16,25,255,33,18,31,067,28,23,05,030,37*7B
$GPGSV,4,2,15,25,04,133,,26,29,224,27,27,32,320,27,28,40,166,44*78
$GPGSV,4,3,15,29,25,145,39,31,25,195,34,32,73,350,41,36,52,277,35*73
$GPGSV,4,4,15,40,84,353,,41,58,082,,49,32,274,*4F
$GLGSV,3,1,09,70,36,351,21,71,55,282,36,72,22,226,25,73,14,157,27*60
$GLGSV,3,2,09,74,15,203,,75,00,248,16,83,19,127,37,84,45,066,22*6E
$GLGSV,3,3,09,85,26,004,38*5A
$GNGLL,0419.70041,S,05539.81231,E,120124.00,A,D*66
$GNGRS,120124.00,1,0.1,-2.5,4.0,1.0,0.3,-1.0,2.9,2.0,4.2,,,*74
$GNGRS,120124.00,1,5.9,2.6,1.8,5.3,-2.7,-2.0,0.1,,,,,*7B
$GNGST,120124.00,31,,,,1.5,2.3,3.7*4E
$GNZDA,120124.00,19,05,2025,00,00*74
$GNGBS,120124.00,1.5,2.3,3.7,,,,*5A
b04X
*`%C(
E! @-()% +I^a{&4Ta:R f{F$_G$7HIjJKS%T-BU)!5bX%yn$GNRMC,120125.00,A,0419.70043,S,05539.81225,E,0.025,,190525,,,D*74
$GNVTG,,T,,M,0.025,N,0.046,K,D*3D
$GNGNS,120125.00,0419.70043,S,05539.81225,E,DA,17,0.58,10.3,-47.6,,0000*6E
$GNGGA,120125.00,0419.70043,S,05539.81225,E,2,12,0.58,10.3,M,-47.6,M,,0000*47
$GNGSA,A,3,29,10,23,32,26,18,28,31,16,27,,,1.32,0.58,1.19*15
$GNGSA,A,3,70,73,83,84,71,85,72,,,,,,1.32,0.58,1.19*12
$GPGSV,4,1,15,10,20,352,42,16,25,255,37,18,31,067,29,23,05,030,40*7D
$GPGSV,4,2,15,25,04,133,,26,29,224,28,27,32,320,33,28,40,166,45*73
$GPGSV,4,3,15,29,25,145,41,31,25,195,37,32,73,350,43,36,52,277,38*70
$GPGSV,4,4,15,40,84,353,,41,58,082,,49,32,274,*4F
$GLGSV,3,1,09,70,36,351,20,71,55,282,36,72,22,226,23,73,14,157,27*67
$GLGSV,3,2,09,74,15,203,,75,00,248,17,83,19,127,37,84,45,066,20*6D
$GLGSV,3,3,09,85,26,004,41*54
$GNGLL,0419.70043,S,05539.81225,E,120125.00,A,D*60
$GNGRS,120125.00,1,0.3,-2.4,5.3,1.0,0.7,1.6,-1.0,4.2,5.1,6.9,,*5B
$GNGRS,120125.00,1,5.3,3.6,1.4,4.3,-2.8,-2.2,-3.1,,,,,*5F
$GNGST,120125.00,34,,,,1.5,2.2,3.6*4A
$GNZDA,120125.00,19,05,2025,00,00*75
$GNGBS,120125.00,1.5,2.2,3.6,,,,*5B
b04@ 
(`1$C(g
