b0XA
!cIGT "v#>+
ug Ea
{4Ta:R gF
 aG5"H?IJKST/I~Ut>bdp\$GNRMC,120933.00,A,0419.72054,S,05539.81105,E,0.455,,190525,,,A*78
$GNVTG,,T,,M,0.455,N,0.843,K,A*36
$GNGNS,120933.00,0419.72054,S,05539.81105,E,AA,14,0.69,10.9,-47.6,,*6A
$GNGGA,120933.00,0419.72054,S,05539.81105,E,1,12,0.69,10.9,M,-47.6,M,,*46
$GNGSA,A,3,29,10,32,26,18,28,31,16,27,,,,1.77,0.69,1.63*1A
$GNGSA,A,3,70,84,71,85,72,,,,,,,,1.77,0.69,1.63*13
$GPGSV,4,1,16,08,00,321,,10,19,355,33,16,25,251,12,18,31,071,22*71
$GPGSV,4,2,16,23,04,032,21,25,03,131,13,26,29,221,14,27,35,318,22*78
$GPGSV,4,3,16,28,43,162,18,29,22,146,10,31,28,193,20,32,69,353,25*7C
$GPGSV,4,4,16,36,52,277,,40,84,353,,41,58,082,,49,32,274,*7C
$GLGSV,3,1,11,70,32,353,10,71,53,290,25,72,25,231,11,73,14,153,*6D
$GLGSV,3,2,11,74,15,198,,75,00,243,,83,17,131,,84,47,073,11*61
$GLGSV,3,3,11,85,30,006,23,,,,17,,,,28*50
$GNGLL,0419.72054,S,05539.81105,E,120933.00,A,A*6F
$GNGRS,120933.00,1,16.5,-1.2,0.2,8.9,-4.3,9.5,-9.2,16.1,6.4,,,*5F
$GNGRS,120933.00,1,-0.2,3.8,-2.3,1.2,8.3,,,,,,,*74
$GNGST,120933.00,5507758,,,,6.4,7.6,13*51
$GNZDA,120933.00,19,05,2025,00,00*7A
$GNGBS,120933.00,6.4,7.6,13.1,,,,*65
b0XA
%c>G A#>++ Ea3
{4Ta:R gF aG5"H-IJKST/IUh({bLt42$GNRMC,120934.00,A,0419.72066,S,05539.81093,E,0.626,,190525,,,A*76
$GNVTG,,T,,M,0.626,N,1.160,K,A*39
$GNGNS,120934.00,0419.72066,S,05539.81093,E,AA,14,0.69,10.8,-47.6,,*63
$GNGGA,120934.00,0419.72066,S,05539.81093,E,1,12,0.69,10.8,M,-47.6,M,,*4F
$GNGSA,A,3,29,10,32,26,18,28,31,16,27,,,,1.77,0.69,1.63*1A
$GNGSA,A,3,70,84,71,85,72,,,,,,,,1.77,0.69,1.63*13
$GPGSV,4,1,16,08,00,321,,10,19,355,37,16,25,251,14,18,31,071,21*70
$GPGSV,4,2,16,23,04,032,21,25,03,131,09,26,29,221,14,27,35,318,23*72
$GPGSV,4,3,16,28,43,162,17,29,22,146,11,31,28,193,20,32,69,353,25*72
$GPGSV,4,4,16,36,52,277,,40,84,353,,41,58,082,,49,32,274,*7C
$GLGSV,3,1,11,70,32,353,09,71,53,290,24,72,25,231,07,73,14,153,*63
$GLGSV,3,2,11,74,15,198,,75,00,243,,83,17,131,,84,47,073,09*68
$GLGSV,3,3,11,85,30,006,30,,,,14,,,,31*59
$GNGLL,0419.72066,S,05539.81093,E,120934.00,A,A*67
$GNGRS,120934.00,1,16.9,-1.2,-2.1,6.9,-4.8,9.7,-9.8,16.0,4.7,,,*75
$GNGRS,120934.00,1,-0.2,3.8,-2.3,-4.1,8.1,,,,,,,*5A
$GNGST,120934.00,5509119,,,,6.4,7.7,13*5A
$GNZDA,120934.00,19,05,2025,00,00*7D
$GNGBS,120934.00,6.4,7.7,13.2,,,,*60
b0XhA
'cO H G
TW#>+O Eas
{4Ta:R gdF
 aNG5""HIJKST/I:U/$ebh4x$GNRMC,120935.00,A,0419.72060,S,05539.81089,E,0.463,,190525,,,A*79
$GNVTG,,T,,M,0.463,N,0.858,K,A*39
$GNGNS,120935.00,0419.72060,S,05539.81089,E,AA,13,0.77,10.9,-47.6,,*66
$GNGGA,120935.00,0419.72060,S,05539.81089,E,1,12,0.77,10.9,M,-47.6,M,,*4D
$GNGSA,A,3,29,10,32,26,18,31,16,27,,,,,1.95,0.77,1.79*18
$GNGSA,A,3,70,84,71,85,72,,,,,,,,1.95,0.77,1.79*1B
$GPGSV,4,1,16,08,00,321,,10,19,355,39,16,25,251,20,18,32,072,23*7B
$GPGSV,4,2,16,23,04,032,22,25,03,131,10,26,29,221,15,27,35,318,25*7E
$GPGSV,4,3,16,28,43,162,,29,22,146,11,31,28,193,21,32,69,353,26*76
$GPGSV,4,4,16,36,52,277,,40,84,353,,41,58,082,,49,32,274,*7C
$GLGSV,3,1,11,70,32,353,10,71,53,290,25,72,25,231,08,73,14,153,*65
$GLGSV,3,2,11,74,15,198,,75,00,243,,83,17,131,,84,47,073,08*69
$GLGSV,3,3,11,85,30,006,30,,,,14,,,,36*5E
$GNGLL,0419.72060,S,05539.81089,E,120935.00,A,A*6B
$GNGRS,120935.00,1,-58.1,-0.9,-1.4,6.0,-3.5,-8.7,5.9,0.0,,,,*42
$GNGRS,120935.00,1,3.3,151,-4.8,-4.7,73.7,,,,,,,*55
$GNGST,120935.00,81,,,,6.3,7.7,13*65
$GNZDA,120935.00,19,05,2025,00,00*7C
$GNGBS,120935.00,6.3,7.7,13.0,,,,*64
b0XPA
$cU H #>.+ Ea
{4Ta:R g\F aG5"!HsIJKST
/IUX#ebP|$GNRMC,120936.00,A,0419.72050,S,05539.81077,E,0.476,,190525,,,A*7C
$GNVTG,,T,,M,0.476,N,0.882,K,A*3A
$GNGNS,120936.00,0419.72050,S,05539.81077,E,AA,11,0.85,11.0,-47.6,,*60
$GNGGA,120936.00,0419.72050,S,05539.81077,E,1,11,0.85,11.0,M,-47.6,M,,*4A
$GNGSA,A,3,10,32,26,18,31,16,27,,,,,,1.98,0.85,1.79*13
$GNGSA,A,3,70,84,71,85,,,,,,,,,1.98,0.85,1.79*1E
$GPGSV,4,1,16,08,00,321,,10,19,355,36,16,25,251,12,18,32,072,22*74
$GPGSV,4,2,16,23,04,032,21,25,03,131,06,26,29,221,16,27,35,318,25*79
$GPGSV,4,3,16,28,43,162,20,29,22,146,06,31,28,193,21,32,69,353,27*73
$GPGSV,4,4,16,36,52,277,,40,84,353,,41,58,082,,49,32,274,*7C
$GLGSV,3,1,11,70,32,353,09,71,53,290,26,72,25,231,06,73,14,153,*60
$GLGSV,3,2,11,74,15,198,,75,00,243,,83,17,131,,84,47,073,10*60
$GLGSV,3,3,11,85,30,006,31,,,,15,,,,35*5D
$GNGLL,0419.72050,S,05539.81077,E,120936.00,A,A*6A
$GNGRS,120936.00,1,-1.0,0.0,6.5,-2.7,-8.6,16.2,0.5,,,,,*65
$GNGRS,120936.00,1,0.0,4.4,-4.8,-4.2,,,,,,,,*55
$GNGST,120936.00,43538,,,,6.3,7.6,13*57
$GNZDA,120936.00,19,05,2025,00,00*7F
$GNGBS,120936.00,6.3,7.6,12.8,,,,*6F
b0X8A
%c> Hb _#>+!
 Ea
{4Ta:R gF a#G5"HIJKST/IU "b8j$GNRMC,120937.00,A,0419.72041,S,05539.81075,E,0.342,,190525,,,A*7F
$GNVTG,,T,,M,0.342,N,0.634,K,A*39
$GNGNS,120937.00,0419.72041,S,05539.81075,E,AA,12,0.71,11.0,-47.6,,*6B
$GNGGA,120937.00,0419.72041,S,05539.81075,E,1,12,0.71,11.0,M,-47.6,M,,*41
$GNGSA,A,3,29,10,32,26,18,31,16,27,,,,,1.83,0.71,1.68*19
$GNGSA,A,3,70,71,85,72,,,,,,,,,1.83,0.71,1.68*16
$GPGSV,4,1,16,08,00,321,,10,19,355,37,16,25,251,16,18,32,072,20*73
$GPGSV,4,2,16,23,04,032,21,25,03,131,09,26,29,221,17,27,35,318,25*77
$GPGSV,4,3,16,28,43,162,19,29,22,146,10,31,28,193,22,32,69,353,30*7B
$GPGSV,4,4,16,36,52,277,,40,84,353,,41,58,082,,49,32,274,*7C
$GLGSV,3,1,11,70,32,353,11,71,53,290,26,72,25,231,12,73,14,153,*6C
$GLGSV,3,2,11,74,15,198,,75,00,243,,83,17,131,,84,47,073,06*67
$GLGSV,3,3,11,85,30,006,32,,,,16,,,,34*5C
$GNGLL,0419.72041,S,05539.81075,E,120937.00,A,A*69
$GNGRS,120937.00,1,18.2,-0.9,-3.2,6.1,1.0,-7.7,13.4,-1.1,,,,*5D
$GNGRS,120937.00,1,0.4,-5.0,-3.7,9.2,,,,,,,,*50
$GNGST,120937.00,3300140,,,,6.2,7.6,13*5B
$GNZDA,120937.00,19,05,2025,00,00*7E
$GNGBS,120937.00,6.2,7.6,12.6,,,,*61
b0X A
%cW H >?#>+O Ea
{4Ta:R gGF a{G5"H<IJKST/IU "b $GNRMC,120938.00,A,0419.72067,S,05539.81070,E,0.542,,190525,,,A*77
$GNVTG,,T,,M,0.542,N,1.005,K,A*3A
$GNGNS,120938.00,0419.72067,S,05539.81070,E,AA,13,0.77,10.1,-47.6,,*62
$GNGGA,120938.00,0419.72067,S,05539.81070,E,1,12,0.77,10.1,M,-47.6,M,,*49
$GNGSA,A,3,29,10,32,26,18,31,16,27,,,,,1.95,0.77,1.79*18
$GNGSA,A,3,70,84,71,85,72,,,,,,,,1.95,0.77,1.79*1B
$GPGSV,4,1,16,08,00,321,,10,19,355,37,16,25,251,17,18,32,072,19*78
$GPGSV,4,2,16,23,04,032,22,25,03,131,12,26,29,221,18,27,35,318,25*71
$GPGSV,4,3,16,28,43,162,19,29,22,146,11,31,28,193,22,32,69,353,31*7B
$GPGSV,4,4,16,36,52,277,,40,84,353,,41,58,082,,49,32,274,*7C
$GLGSV,3,1,11,70,32,353,09,71,53,290,27,72,25,231,08,73,14,153,*6F
$GLGSV,3,2,11,74,15,198,,75,00,243,,83,17,131,,84,47,073,14*64
$GLGSV,3,3,11,85,30,006,32,,,,15,,,,34*5F
$GNGLL,0419.72067,S,05539.81070,E,120938.00,A,A*67
$GNGRS,120938.00,1,-93.9,-0.9,-2.6,5.1,-0.4,-7.7,11.1,-1.2,,,,*5D
$GNGRS,120938.00,1,49.9,-141,-2.4,1.4,155,,,,,,,*4D
$GNGST,120938.00,91,,,,6.2,7.5,12*6B
$GNZDA,120938.00,19,05,2025,00,00*71
$GNGBS,120938.00,6.2,7.5,12.3,,,,*68
b0XA
%c` H#!e?#>+3| Ea
{4Ta:R gF aG5"HMIJKST/IU-"!9bk7$GNRMC,120939.00,A,0419.72077,S,05539.81066,E,0.443,,190525,,,A*70
$GNVTG,,T,,M,0.443,N,0.821,K,A*35
$GNGNS,120939.00,0419.72077,S,05539.81066,E,AA,11,0.81,9.7,-47.6,,*50
$GNGGA,120939.00,0419.72077,S,05539.81066,E,1,11,0.81,9.7,M,-47.6,M,,*7A
$GNGSA,A,3,10,32,26,18,28,31,16,27,,,,,1.96,0.81,1.78*12
$GNGSA,A,3,84,71,85,,,,,,,,,,1.96,0.81,1.78*12
$GPGSV,4,1,16,08,00,321,,10,19,355,37,16,25,251,17,18,32,072,20*72
$GPGSV,4,2,16,23,04,033,26,25,03,131,09,26,29,221,18,27,35,318,26*7D
$GPGSV,4,3,16,28,43,162,19,29,22,146,07,31,28,193,21,32,69,353,31*7F
$GPGSV,4,4,16,36,52,277,,40,84,353,,41,58,082,,49,32,274,*7C
$GLGSV,3,1,11,70,32,353,06,71,53,290,27,72,25,231,06,73,14,153,*6E
$GLGSV,3,2,11,74,15,198,,75,00,243,,83,17,131,,84,47,073,13*63
$GLGSV,3,3,11,85,30,006,31,,,,15,,,,34*5C
$GNGLL,0419.72077,S,05539.81066,E,120939.00,A,A*60
$GNGRS,120939.00,1,-0.8,-0.5,2.8,0.4,-30.2,-7.5,8.6,-0.9,,,,*4A
$GNGRS,120939.00,1,4.0,-2.7,0.5,,,,,,,,,*57
$GNGST,120939.00,3616,,,,6.1,7.5,12*63
$GNZDA,120939.00,19,05,2025,00,00*70
$GNGBS,120939.00,6.1,7.5,12.1,,,,*68
b0XA
&c H!(#>+yrG Ea
{4Ta:R gF aG5"H=IJKST/IU"nbB$GNRMC,120940.00,A,0419.72094,S,05539.81067,E,0.564,,190525,,,A*76
$GNVTG,,T,,M,0.564,N,1.044,K,A*3B
$GNGNS,120940.00,0419.72094,S,05539.81067,E,AA,14,0.72,9.2,-47.6,,*5E
$GNGGA,120940.00,0419.72094,S,05539.81067,E,1,12,0.72,9.2,M,-47.6,M,,*72
$GNGSA,A,3,29,10,32,26,18,28,31,16,27,,,,1.83,0.72,1.69*11
$GNGSA,A,3,70,84,71,85,72,,,,,,,,1.83,0.72,1.69*18
$GPGSV,4,1,16,08,00,321,,10,19,355,38,16,25,251,18,18,32,072,20*72
$GPGSV,4,2,16,23,04,033,26,25,03,131,12,26,29,221,17,27,35,318,26*78
$GPGSV,4,3,16,28,43,162,18,29,22,146,11,31,28,193,21,32,69,353,31*79
$GPGSV,4,4,16,36,52,277,,40,84,353,,41,58,082,,49,32,274,*7C
$GLGSV,3,1,11,70,32,353,11,71,53,290,27,72,25,231,11,73,14,153,*6E
$GLGSV,3,2,11,74,15,198,,75,00,243,,83,17,131,,84,47,073,13*63
$GLGSV,3,3,11,85,30,006,31,,,,16,,,,34*5F
$GNGLL,0419.72094,S,05539.81067,E,120940.00,A,A*62
$GNGRS,120940.00,1,16.5,-1.0,-2.9,1.9,1.3,-29.5,-9.5,7.1,-0.9,,,*52
$GNGRS,120940.00,1,-0.3,3.9,-0.9,0.2,8.3,,,,,,,*79
$GNGST,120940.00,4665908,,,,6.1,7.4,12*5E
$GNZDA,120940.00,19,05,2025,00,00*7E
$GNGBS,120940.00,6.1,7.4,11.9,,,,*6C
b0XA
'cH H!Nr#>/+(40& Ea
{4Ta:R gF azG5"HIJKST
/I|U $b$GNRMC,120941.00,A,0419.72083,S,05539.81082,E,0.719,,190525,,,A*72
$GNVTG,,T,,M,0.719,N,1.331,K,A*32
$GNGNS,120941.00,0419.72083,S,05539.81082,E,AA,14,0.72,9.5,-47.6,,*55
$GNGGA,120941.00,0419.72083,S,05539.81082,E,1,12,0.72,9.5,M,-47.6,M,,*79
$GNGSA,A,3,29,10,32,26,18,28,31,16,27,,,,1.83,0.72,1.69*11
$GNGSA,A,3,70,84,71,85,72,,,,,,,,1.83,0.72,1.69*18
$GPGSV,4,1,16,08,00,321,,10,19,355,39,16,25,251,18,18,32,072,20*73
$GPGSV,4,2,16,23,04,033,26,25,03,130,09,26,29,221,17,27,35,318,26*73
$GPGSV,4,3,16,28,43,162,18,29,22,146,12,31,28,193,21,32,69,353,30*7B
$GPGSV,4,4,16,36,52,277,,40,84,353,,41,58,082,,49,32,274,*7C
$GLGSV,3,1,11,70,32,353,11,71,53,290,26,72,25,231,09,73,14,153,*66
$GLGSV,3,2,11,74,15,198,,75,00,243,,83,17,131,,84,47,073,10*60
$GLGSV,3,3,11,85,30,006,32,,,,16,,,,36*5E
$GNGLL,0419.72083,S,05539.81082,E,120941.00,A,A*6E
$GNGRS,120941.00,1,123,-1.0,-0.2,1.1,1.4,-20.1,-9.9,5.8,-2.1,,,*79
$GNGRS,120941.00,1,75.5,8.9,-0.4,-0.2,-23.4,,,,,,,*59
$GNGST,120941.00,85,,,,6.1,7.4,12*62
$GNZDA,120941.00,19,05,2025,00,00*7F
$GNGBS,120941.00,6.1,7.4,11.7,,,,*63
b0XA
'ce Hm!t)#>+SU Ea<
{4Ta:R gF
 aG5"H<IJKST
/IU $,b`$GNRMC,120942.00,A,0419.72101,S,05539.81100,E,0.907,,190525,,,A*70
$GNVTG,,T,,M,0.907,N,1.679,K,A*3A
$GNGNS,120942.00,0419.72101,S,05539.81100,E,AA,14,0.69,9.2,-47.6,,*5B
$GNGGA,120942.00,0419.72101,S,05539.81100,E,1,12,0.69,9.2,M,-47.6,M,,*77
$GNGSA,A,3,29,10,32,26,18,28,31,16,27,,,,1.77,0.69,1.63*1A
$GNGSA,A,3,70,84,71,85,72,,,,,,,,1.77,0.69,1.63*13
$GPGSV,4,1,16,08,00,321,,10,19,355,39,16,25,251,18,18,32,072,21*72
$GPGSV,4,2,16,23,04,033,26,25,03,130,08,26,29,220,17,27,35,318,27*72
$GPGSV,4,3,16,28,43,162,18,29,22,146,11,31,28,193,22,32,69,353,30*7B
$GPGSV,4,4,16,36,52,277,,40,84,353,,41,58,082,,49,32,274,*7C
$GLGSV,3,1,11,70,32,353,10,71,53,290,26,72,25,231,09,73,14,153,*67
$GLGSV,3,2,11,74,15,198,,75,00,243,,83,17,131,,84,47,073,10*60
$GLGSV,3,3,11,85,30,006,32,,,,17,,,,36*5F
$GNGLL,0419.72101,S,05539.81100,E,120942.00,A,A*6D
$GNGRS,120942.00,1,16.2,-0.7,-2.0,1.4,1.1,-14.5,-10.7,3.6,-3.4,,,*6E
$GNGRS,120942.00,1,-0.1,3.8,1.3,-0.8,8.3,,,,,,,*79
$GNGST,120942.00,4496639,,,,6.0,7.4,12*5E
$GNZDA,120942.00,19,05,2025,00,00*7C
$GNGBS,120942.00,6.0,7.4,11.6,,,,*60
b0XA
%cJ H<!
;$=V+_ Ea
{4Ta:R gF aG5"'HIJKST/IU$igbt$GNRMC,120943.00,A,0419.72110,S,05539.81105,E,0.518,,190525,,,A*76
$GNVTG,,T,,M,0.518,N,0.960,K,A*3E
$GNGNS,120943.00,0419.72110,S,05539.81105,E,AA,14,0.69,8.7,-47.6,,*5B
$GNGGA,120943.00,0419.72110,S,05539.81105,E,1,12,0.69,8.7,M,-47.6,M,,*77
$GNGSA,A,3,29,10,32,26,18,28,31,16,27,,,,1.77,0.69,1.63*1A
$GNGSA,A,3,70,84,71,85,72,,,,,,,,1.77,0.69,1.63*13
$GPGSV,4,1,16,08,00,321,,10,19,355,37,16,25,251,17,18,32,072,22*70
$GPGSV,4,2,16,23,04,033,26,25,03,130,10,26,29,220,16,27,36,317,27*76
$GPGSV,4,3,16,28,43,162,17,29,22,146,09,31,28,193,21,32,69,353,30*7E
$GPGSV,4,4,16,36,52,277,,40,84,353,,41,58,082,,49,32,274,*7C
$GLGSV,3,1,11,70,32,353,09,71,53,290,26,72,25,231,09,73,14,153,*6F
$GLGSV,3,2,11,74,15,198,,75,00,243,,83,17,131,,84,47,073,09*68
$GLGSV,3,3,11,85,30,006,31,,,,18,,,,36*53
$GNGLL,0419.72110,S,05539.81105,E,120943.00,A,A*69
$GNGRS,120943.00,1,16.3,-0.6,-6.0,1.7,0.6,-13.7,-11.3,3.3,-6.8,,,*62
$GNGRS,120943.00,1,-0.1,4.0,0.4,-0.2,7.9,,,,,,,*7E
$GNGST,120943.00,4497217,,,,6.0,7.3,11*52
$GNZDA,120943.00,19,05,2025,00,00*7D
$GNGBS,120943.00,6.0,7.3,11.4,,,,*64
b0XA
%c H!$=+ EaI
{4Ta:R gF a<G5"H'IJKST/IU#b\0$GNRMC,120944.00,A,0419.72118,S,05539.81117,E,0.690,,190525,,,A*79
$GNVTG,,T,,M,0.690,N,1.278,K,A*3E
$GNGNS,120944.00,0419.72118,S,05539.81117,E,AA,13,0.76,8.6,-47.6,,*5F
$GNGGA,120944.00,0419.72118,S,05539.81117,E,1,12,0.76,8.6,M,-47.6,M,,*74
$GNGSA,A,3,29,10,32,26,18,28,31,16,27,,,,1.89,0.76,1.73*14
$GNGSA,A,3,70,84,71,85,,,,,,,,,1.89,0.76,1.73*18
$GPGSV,4,1,16,08,00,321,,10,19,355,37,16,25,251,18,18,32,072,22*7F
$GPGSV,4,2,16,23,04,033,25,25,03,130,09,26,29,220,15,27,36,317,27*7E
$GPGSV,4,3,16,28,43,162,17,29,22,146,08,31,28,193,21,32,69,353,30*7F
$GPGSV,4,4,16,36,52,277,,40,84,353,,41,58,082,,49,32,274,*7C
$GLGSV,3,1,11,70,32,353,11,71,53,290,26,72,25,231,06,73,14,153,*69
$GLGSV,3,2,11,74,15,198,,75,00,243,,83,17,131,,84,47,073,08*69
$GLGSV,3,3,11,85,30,006,30,,,,18,,,,35*51
$GNGLL,0419.72118,S,05539.81117,E,120944.00,A,A*65
$GNGRS,120944.00,1,48.2,-0.8,0.7,2.9,-1.3,-11.0,-13.3,2.4,-8.4,,,*6A
$GNGRS,120944.00,1,-2.0,-109,1.5,-0.3,,,,,,,,*64
$GNGST,120944.00,66,,,,5.9,7.2,11*64
$GNZDA,120944.00,19,05,2025,00,00*7A
$GNGBS,120944.00,5.9,7.2,11.3,,,,*6F
b0XxA
%c} H!T$=+ Ea
{4Ta:R gF
 aG5"&H
IJKST/IUd"kbxDz$GNRMC,120945.00,A,0419.72099,S,05539.81114,E,0.353,,190525,,,A*79
$GNVTG,,T,,M,0.353,N,0.654,K,A*3F
$GNGNS,120945.00,0419.72099,S,05539.81114,E,AA,14,0.69,8.9,-47.6,,*53
$GNGGA,120945.00,0419.72099,S,05539.81114,E,1,12,0.69,8.9,M,-47.6,M,,*7F
$GNGSA,A,3,29,10,32,26,18,28,31,16,27,,,,1.77,0.69,1.63*1A
$GNGSA,A,3,70,84,71,85,72,,,,,,,,1.77,0.69,1.63*13
$GPGSV,4,1,16,08,00,321,,10,19,355,37,16,25,251,18,18,32,072,22*7F
$GPGSV,4,2,16,23,04,033,25,25,03,130,08,26,29,220,14,27,36,317,27*7E
$GPGSV,4,3,16,28,43,162,16,29,21,146,08,31,28,193,22,32,69,353,30*7E
$GPGSV,4,4,16,36,52,277,,40,84,353,,41,58,082,,49,32,274,*7C
$GLGSV,3,1,11,70,32,353,10,71,53,290,27,72,25,231,10,73,14,153,*6E
$GLGSV,3,2,11,74,15,198,,75,00,243,,83,17,131,,84,47,073,11*61
$GLGSV,3,3,11,85,30,006,30,,,,18,,,,34*50
$GNGLL,0419.72099,S,05539.81114,E,120945.00,A,A*6F
$GNGRS,120945.00,1,17.7,-0.9,-2.9,2.0,-0.6,-8.8,-13.2,1.3,-7.5,,,*72
$GNGRS,120945.00,1,-0.3,4.2,2.9,3.6,9.2,,,,,,,*58
$GNGST,120945.00,5506703,,,,5.9,7.2,11*57
$GNZDA,120945.00,19,05,2025,00,00*7B
$GNGBS,120945.00,5.9,7.2,11.2,,,,*6F
b0X`A
%c H!MF$=+P Ea
{4Ta:R gF
 aG5"7HIJKST
/IUi#Xb`,R$GNRMC,120946.00,A,0419.72091,S,05539.81107,E,0.313,,190525,,,A*74
$GNVTG,,T,,M,0.313,N,0.579,K,A*37
$GNGNS,120946.00,0419.72091,S,05539.81107,E,AA,14,0.69,8.9,-47.6,,*5A
$GNGGA,120946.00,0419.72091,S,05539.81107,E,1,12,0.69,8.9,M,-47.6,M,,*76
$GNGSA,A,3,29,10,32,26,18,28,31,16,27,,,,1.77,0.69,1.63*1A
$GNGSA,A,3,70,84,71,85,72,,,,,,,,1.77,0.69,1.63*13
$GPGSV,4,1,16,08,00,321,,10,19,355,37,16,25,251,17,18,32,072,22*70
$GPGSV,4,2,16,23,04,033,23,25,03,130,08,26,29,220,14,27,36,317,28*77
$GPGSV,4,3,16,28,43,162,14,29,21,146,09,31,28,193,21,32,69,353,30*7E
$GPGSV,4,4,16,36,52,277,,40,84,353,,41,58,082,,49,32,274,*7C
$GLGSV,3,1,11,70,32,353,10,71,53,290,26,72,25,231,08,73,14,153,*66
$GLGSV,3,2,11,74,15,198,,75,00,243,,83,17,131,,84,47,073,10*60
$GLGSV,3,3,11,85,30,006,30,,,,18,,,,35*51
$GNGLL,0419.72091,S,05539.81107,E,120946.00,A,A*66
$GNGRS,120946.00,1,18.7,-0.7,-3.5,2.2,-3.0,-10.4,-12.8,2.0,-8.4,,,*4A
$GNGRS,120946.00,1,-0.4,4.7,3.1,-1.5,9.7,,,,,,,*79
$GNGST,120946.00,5506745,,,,5.9,7.1,11*55
$GNZDA,120946.00,19,05,2025,00,00*78
$GNGBS,120946.00,5.9,7.1,11.1,,,,*6C
b0XHA
%c H!P$=+Md EaK
{4Ta:R gF aG5"H#IJKST
/IU}$bH*h$GNRMC,120947.00,A,0419.72083,S,05539.81096,E,0.283,,190525,,,A*77
$GNVTG,,T,,M,0.283,N,0.524,K,A*37
$GNGNS,120947.00,0419.72083,S,05539.81096,E,AA,14,0.73,9.1,-47.6,,*53
$GNGGA,120947.00,0419.72083,S,05539.81096,E,1,12,0.73,9.1,M,-47.6,M,,*7F
$GNGSA,A,3,29,10,32,26,18,28,31,16,27,,,,1.84,0.73,1.69*17
$GNGSA,A,3,70,84,71,85,72,,,,,,,,1.84,0.73,1.69*1E
$GPGSV,4,1,16,08,00,321,,10,19,355,37,16,25,251,17,18,32,072,22*70
$GPGSV,4,2,16,23,04,033,22,25,03,130,06,26,29,220,15,27,36,317,27*76
$GPGSV,4,3,16,28,43,162,14,29,21,146,09,31,28,193,20,32,69,353,28*76
$GPGSV,4,4,16,36,52,277,,40,84,353,,41,58,082,,49,32,274,*7C
$GLGSV,3,1,11,70,32,353,14,71,53,290,26,72,25,231,11,73,14,153,*6A
$GLGSV,3,2,11,74,15,198,,75,00,243,,83,17,131,,84,47,073,10*60
$GLGSV,3,3,11,85,30,006,30,,,,18,,,,36*52
$GNGLL,0419.72083,S,05539.81096,E,120947.00,A,A*6D
$GNGRS,120947.00,1,-127,-0.6,0.7,2.2,-3.6,-9.5,-11.8,1.3,-7.9,,,*51
$GNGRS,120947.00,1,2.6,-141,2.6,1.2,56.7,,,,,,,*77
$GNGST,120947.00,83,,,,5.8,7.0,11*6F
$GNZDA,120947.00,19,05,2025,00,00*79
$GNGBS,120947.00,5.8,7.0,11.0,,,,*6C
b0X0A
$cg H!
S$=+o
o Dbl
{4Ta:R gF aG5"HUIJKST/IeU#Omb0$GNRMC,120948.00,A,0419.72084,S,05539.81100,E,0.252,,190525,,,A*7D
$GNVTG,,T,,M,0.252,N,0.467,K,A*3D
$GNGNS,120948.00,0419.72084,S,05539.81100,E,AA,14,0.69,9.1,-47.6,,*5E
$GNGGA,120948.00,0419.72084,S,05539.81100,E,1,12,0.69,9.1,M,-47.6,M,,*72
$GNGSA,A,3,29,10,32,26,18,28,31,16,27,,,,1.77,0.69,1.63*1A
$GNGSA,A,3,70,84,71,85,72,,,,,,,,1.77,0.69,1.63*13
$GPGSV,4,1,16,08,00,321,,10,19,355,36,16,25,251,17,18,32,072,22*71
$GPGSV,4,2,16,23,04,033,22,25,03,130,10,26,29,220,15,27,36,317,28*7E
$GPGSV,4,3,16,28,43,162,14,29,21,146,10,31,28,193,21,32,68,354,29*78
$GPGSV,4,4,16,36,52,277,,40,84,353,,41,58,082,,49,32,274,*7C
$GLGSV,3,1,11,70,32,353,13,71,53,290,26,72,25,231,07,73,14,153,*6A
$GLGSV,3,2,11,74,15,198,,75,00,243,,83,17,131,,84,47,073,09*68
$GLGSV,3,3,11,85,30,006,30,,,,18,,,,35*51
$GNGLL,0419.72084,S,05539.81100,E,120948.00,A,A*6B
$GNGRS,120948.00,1,16.5,-0.6,-1.5,2.1,-3.2,-11.7,-11.5,1.0,-5.4,,,*48
$GNGRS,120948.00,1,-0.4,3.6,2.2,4.7,8.5,,,,,,,*5A
$GNGST,120948.00,3205796,,,,5.8,7.0,11*57
$GNZDA,120948.00,19,05,2025,00,00*76
$GNGBS,120948.00,5.8,7.0,10.9,,,,*6B
b0XA
$c H3!Z$=+'
 Db
{4Ta:R gF aG5"HdIJKST/IGU#b5$GNRMC,120949.00,A,0419.72072,S,05539.81099,E,0.261,,190525,,,A*74
$GNVTG,,T,,M,0.261,N,0.484,K,A*30
$GNGNS,120949.00,0419.72072,S,05539.81099,E,AA,14,0.69,9.3,-47.6,,*55
$GNGGA,120949.00,0419.72072,S,05539.81099,E,1,12,0.69,9.3,M,-47.6,M,,*79
$GNGSA,A,3,29,10,32,26,18,28,31,16,27,,,,1.77,0.69,1.63*1A
$GNGSA,A,3,70,84,71,85,72,,,,,,,,1.77,0.69,1.63*13
$GPGSV,4,1,16,08,00,321,,10,19,355,36,16,25,251,16,18,32,072,22*70
$GPGSV,4,2,16,23,04,033,22,25,03,130,11,26,29,220,15,27,36,317,27*70
$GPGSV,4,3,16,28,43,162,13,29,21,146,10,31,28,193,20,32,68,354,28*7F
$GPGSV,4,4,16,36,52,277,,40,84,353,,41,58,082,,49,32,274,*7C
$GLGSV,3,1,11,70,32,353,11,71,53,290,26,72,25,231,07,73,14,153,*68
$GLGSV,3,2,11,74,15,198,,75,00,243,,83,17,131,,84,47,073,08*69
$GLGSV,3,3,11,85,30,006,30,,,,18,,,,35*51
$GNGLL,0419.72072,S,05539.81099,E,120949.00,A,A*62
$GNGRS,120949.00,1,16.7,-0.5,-1.1,0.9,-2.0,-12.4,-11.4,-1.1,-6.0,,,*6F
$GNGRS,120949.00,1,-0.7,3.3,2.1,5.4,8.7,,,,,,,*5E
$GNGST,120949.00,3205998,,,,5.8,6.9,11*5E
$GNZDA,120949.00,19,05,2025,00,00*77
$GNGBS,120949.00,5.8,6.9,10.9,,,,*62
b0XA
 cQ HW!
0=$=E+
t Dba
{4Ta:R gF a*G5"tHIJKST/IUb$GNRMC,120950.00,A,0419.72053,S,05539.81099,E,0.490,,190525,,,A*77
$GNVTG,,T,,M,0.490,N,0.908,K,A*31
$GNGNS,120950.00,0419.72053,S,05539.81099,E,AA,14,0.73,9.7,-47.6,,*51
$GNGGA,120950.00,0419.72053,S,05539.81099,E,1,12,0.73,9.7,M,-47.6,M,,*7D
$GNGSA,A,3,29,10,32,26,18,28,31,16,27,,,,1.84,0.73,1.69*17
$GNGSA,A,3,70,84,71,85,72,,,,,,,,1.84,0.73,1.69*1E
$GPGSV,4,1,16,08,00,321,,10,19,355,32,16,25,251,15,18,32,072,21*74
$GPGSV,4,2,16,23,04,033,21,25,03,130,10,26,29,220,14,27,36,317,26*72
$GPGSV,4,3,16,28,43,162,15,29,21,146,10,31,28,193,19,32,68,354,26*7D
$GPGSV,4,4,16,36,52,277,,40,84,353,,41,58,082,,49,32,274,*7C
$GLGSV,3,1,11,70,32,353,11,71,53,290,25,72,25,231,09,73,14,153,*65
$GLGSV,3,2,11,74,15,198,,75,00,243,,83,17,131,,84,47,073,11*61
$GLGSV,3,3,11,85,30,006,29,,,,17,,,,31*52
$GNGLL,0419.72053,S,05539.81099,E,120950.00,A,A*69
$GNGRS,120950.00,1,-129,-0.3,-1.6,0.6,-1.7,-10.6,-13.9,-1.8,-4.4,,,*64
$GNGRS,120950.00,1,-63.6,-144,1.2,1.6,-7.6,,,,,,,*75
$GNGST,120950.00,82,,,,5.8,6.9,11*60
$GNZDA,120950.00,19,05,2025,00,00*7F
$GNGBS,120950.00,5.8,6.9,10.9,,,,*6A
b0XA
'c H!zq$=+
 Db
{4Ta:R gF aG5"HLIJKST/IU!%b$GNRMC,120951.00,A,0419.72054,S,05539.81099,E,0.439,,190525,,,A*72
$GNVTG,,T,,M,0.439,N,0.813,K,A*39
$GNGNS,120951.00,0419.72054,S,05539.81099,E,AA,13,0.72,9.6,-47.6,,*50
$GNGGA,120951.00,0419.72054,S,05539.81099,E,1,12,0.72,9.6,M,-47.6,M,,*7B
$GNGSA,A,3,29,10,32,26,18,31,16,27,,,,,1.83,0.72,1.69*1B
$GNGSA,A,3,70,84,71,85,72,,,,,,,,1.83,0.72,1.69*18
$GPGSV,4,1,16,08,00,321,19,10,19,355,39,16,25,251,14,18,32,072,22*75
$GPGSV,4,2,16,23,04,033,21,25,03,130,08,26,29,220,13,27,36,317,27*7D
$GPGSV,4,3,16,28,43,162,,29,21,146,10,31,28,193,19,32,68,354,27*78
$GPGSV,4,4,16,36,52,277,,40,84,353,,41,58,082,,49,32,274,*7C
$GLGSV,3,1,11,70,32,353,14,71,53,290,25,72,25,231,08,73,14,153,*61
$GLGSV,3,2,11,74,15,198,,75,00,243,,83,17,131,,84,47,073,09*68
$GLGSV,3,3,11,85,30,006,33,,,,16,,,,37*5E
$GNGLL,0419.72054,S,05539.81099,E,120951.00,A,A*6F
$GNGRS,120951.00,1,16.9,-0.1,-5.5,3.7,0.2,-13.9,-2.3,-3.0,,,,*73
$GNGRS,120951.00,1,-0.1,4.1,2.8,-0.7,8.4,,,,,,,*75
$GNGST,120951.00,3332234,,,,5.8,6.9,11*5F
$GNZDA,120951.00,19,05,2025,00,00*7E
$GNGBS,120951.00,5.8,6.9,10.8,,,,*6A
b0XA
%c H!v$=+2@ Db
{4Ta:R gF aG5"H
dIJKST
/IU #gb`^$GNRMC,120952.00,A,0419.72034,S,05539.81085,E,0.187,,190525,,,A*7A
$GNVTG,,T,,M,0.187,N,0.347,K,A*33
$GNGNS,120952.00,0419.72034,S,05539.81085,E,AA,13,0.72,9.9,-47.6,,*57
$GNGGA,120952.00,0419.72034,S,05539.81085,E,1,12,0.72,9.9,M,-47.6,M,,*7C
$GNGSA,A,3,29,10,32,26,18,31,16,27,,,,,1.83,0.72,1.69*1B
$GNGSA,A,3,70,84,71,85,72,,,,,,,,1.83,0.72,1.69*18
$GPGSV,4,1,16,08,00,321,19,10,19,355,37,16,25,251,13,18,32,072,22*7C
$GPGSV,4,2,16,23,04,033,20,25,03,130,11,26,29,220,14,27,36,317,28*7C
$GPGSV,4,3,16,28,43,162,18,29,21,146,09,31,28,193,19,32,68,354,27*79
$GPGSV,4,4,16,36,52,277,,40,84,353,,41,58,082,,49,32,274,*7C
$GLGSV,3,1,11,70,32,353,09,71,53,290,26,72,25,231,10,73,14,153,*67
$GLGSV,3,2,11,74,15,198,,75,00,243,,83,17,131,,84,47,073,10*60
$GLGSV,3,3,11,85,30,006,32,,,,17,,,,35*5C
$GNGLL,0419.72034,S,05539.81085,E,120952.00,A,A*67
$GNGRS,120952.00,1,18.2,-0.4,-3.0,4.1,-0.7,-12.2,2.2,-3.3,,,,*7F
$GNGRS,120952.00,1,-0.1,4.7,4.2,-0.5,8.7,,,,,,,*7D
$GNGST,120952.00,4685286,,,,5.9,6.9,11*5A
$GNZDA,120952.00,19,05,2025,00,00*7D
$GNGBS,120952.00,5.9,6.9,10.8,,,,*68
b0XA
&c H!#
<$=o+
3 Dbz
{4Ta:R gF aG5"HIJKST/IU#b8$GNRMC,120953.00,A,0419.72042,S,05539.81090,E,0.189,,190525,,,A*70
$GNVTG,,T,,M,0.189,N,0.350,K,A*3B
$GNGNS,120953.00,0419.72042,S,05539.81090,E,AA,13,0.77,9.7,-47.6,,*58
$GNGGA,120953.00,0419.72042,S,05539.81090,E,1,12,0.77,9.7,M,-47.6,M,,*73
$GNGSA,A,3,29,10,32,26,18,31,16,27,,,,,1.96,0.77,1.80*1D
$GNGSA,A,3,70,84,71,85,72,,,,,,,,1.96,0.77,1.80*1E
$GPGSV,4,1,16,08,00,321,19,10,19,355,38,16,25,251,15,18,32,072,22*75
$GPGSV,4,2,16,23,04,033,19,25,03,130,10,26,29,220,14,27,36,317,29*76
$GPGSV,4,3,16,28,43,162,16,29,21,146,10,31,28,193,19,32,68,354,27*7F
$GPGSV,4,4,16,36,52,277,,40,84,353,,41,58,082,,49,32,274,*7C
$GLGSV,3,1,11,70,32,353,15,71,53,290,26,72,25,231,07,73,14,153,*6C
$GLGSV,3,2,11,74,15,198,,75,00,243,,83,17,131,,84,47,073,11*61
$GLGSV,3,3,11,85,30,006,31,,,,19,,,,35*51
$GNGLL,0419.72042,S,05539.81090,E,120953.00,A,A*63
$GNGRS,120953.00,1,133,0.0,-1.3,8.3,-3.1,-13.7,4.9,-6.6,,,,*70
$GNGRS,120953.00,1,11.7,-106,2.8,-1.2,-25.4,,,,,,,*4B
$GNGST,120953.00,83,,,,5.9,6.9,11*63
$GNZDA,120953.00,19,05,2025,00,00*7C
$GNGBS,120953.00,5.9,6.9,10.8,,,,*69
b0XA
%c! H!l]$=+ Db
{4Ta:R gF aG5"H\IJKST/IrU,#bl.$GNRMC,120954.00,A,0419.72042,S,05539.81090,E,0.258,,190525,,,A*78
$GNVTG,,T,,M,0.258,N,0.477,K,A*36
$GNGNS,120954.00,0419.72042,S,05539.81090,E,AA,13,0.72,9.7,-47.6,,*5A
$GNGGA,120954.00,0419.72042,S,05539.81090,E,1,12,0.72,9.7,M,-47.6,M,,*71
$GNGSA,A,3,29,10,32,26,18,31,16,27,,,,,1.83,0.72,1.69*1B
$GNGSA,A,3,70,84,71,85,72,,,,,,,,1.83,0.72,1.69*18
$GPGSV,4,1,16,08,00,321,20,10,19,355,37,16,25,251,15,18,32,072,22*70
$GPGSV,4,2,16,23,04,033,17,25,03,130,12,26,29,220,14,27,36,317,29*7A
$GPGSV,4,3,16,28,43,162,15,29,21,146,11,31,28,193,20,32,68,354,26*76
$GPGSV,4,4,16,36,52,277,,40,84,353,,41,58,082,,49,32,274,*7C
$GLGSV,3,1,11,70,32,353,17,71,53,290,25,72,25,231,09,73,14,153,*63
$GLGSV,3,2,11,74,15,198,,75,00,243,,83,17,131,,84,47,073,11*61
$GLGSV,3,3,11,85,30,006,31,,,,19,,,,35*51
$GNGLL,0419.72042,S,05539.81090,E,120954.00,A,A*64
$GNGRS,120954.00,1,16.6,0.3,0.1,6.1,-5.1,-14.1,6.9,-8.7,,,,*72
$GNGRS,120954.00,1,-0.2,3.7,2.7,0.4,8.6,,,,,,,*51
$GNGST,120954.00,5716089,,,,6.0,6.8,11*50
$GNZDA,120954.00,19,05,2025,00,00*7B
$GNGBS,120954.00,6.0,6.8,10.9,,,,*64
b0XA
&cC? H!mJ$=u+ Db
{4Ta:R gF aG5"fHsIJKST
/IQU4#CbT$GNRMC,120955.00,A,0419.72035,S,05539.81092,E,0.236,,190525,,,A*73
$GNVTG,,T,,M,0.236,N,0.437,K,A*3A
$GNGNS,120955.00,0419.72035,S,05539.81092,E,AA,13,0.72,9.8,-47.6,,*56
$GNGGA,120955.00,0419.72035,S,05539.81092,E,1,12,0.72,9.8,M,-47.6,M,,*7D
$GNGSA,A,3,29,10,32,26,18,31,16,27,,,,,1.83,0.72,1.69*1B
$GNGSA,A,3,70,84,71,85,72,,,,,,,,1.83,0.72,1.69*18
$GPGSV,4,1,16,08,00,321,20,10,19,355,38,16,25,251,16,18,32,072,21*7F
$GPGSV,4,2,16,23,04,033,17,25,03,130,09,26,29,220,12,27,36,317,28*77
$GPGSV,4,3,16,28,43,162,,29,21,146,09,31,28,193,19,32,68,354,26*71
$GPGSV,4,4,16,36,52,277,,40,84,353,,41,58,082,,49,32,274,*7C
$GLGSV,3,1,11,70,32,353,16,71,53,290,25,72,25,231,09,73,14,153,*62
$GLGSV,3,2,11,74,15,198,,75,00,243,,83,17,131,,84,47,073,10*60
$GLGSV,3,3,11,85,30,006,31,,,,19,,,,35*51
$GNGLL,0419.72035,S,05539.81092,E,120955.00,A,A*67
$GNGRS,120955.00,1,16.9,0.7,2.0,5.9,-8.4,-12.7,8.3,-9.1,,,,*7B
$GNGRS,120955.00,1,-0.3,3.4,1.0,3.1,8.8,,,,,,,*5E
$GNGST,120955.00,5718024,,,,6.0,6.8,11*58
$GNZDA,120955.00,19,05,2025,00,00*7A
$GNGBS,120955.00,6.0,6.8,10.9,,,,*65
b0XpA
%c=F H!R9$=s+/ Db
{4Ta:R gF aG5"H
IJKST/IU%$bbp<$GNRMC,120956.00,A,0419.72037,S,05539.81096,E,0.156,,190525,,,A*73
$GNVTG,,T,,M,0.156,N,0.290,K,A*34
$GNGNS,120956.00,0419.72037,S,05539.81096,E,AA,13,0.77,9.6,-47.6,,*58
$GNGGA,120956.00,0419.72037,S,05539.81096,E,1,12,0.77,9.6,M,-47.6,M,,*73
$GNGSA,A,3,29,10,32,26,18,31,16,27,,,,,1.96,0.77,1.80*1D
$GNGSA,A,3,70,84,71,85,72,,,,,,,,1.96,0.77,1.80*1E
$GPGSV,4,1,16,08,00,321,19,10,19,355,37,16,25,251,16,18,32,072,20*7B
$GPGSV,4,2,16,23,04,033,17,25,03,130,08,26,29,220,13,27,36,317,28*77
$GPGSV,4,3,16,28,43,162,19,29,21,146,11,31,28,193,18,32,68,354,26*71
$GPGSV,4,4,16,36,52,277,,40,84,353,,41,58,082,,49,32,274,*7C
$GLGSV,3,1,11,70,32,353,14,71,53,290,25,72,25,231,10,73,14,153,*68
$GLGSV,3,2,11,74,15,198,,75,00,243,,83,17,131,,84,47,073,11*61
$GLGSV,3,3,11,85,30,006,31,,,,18,,,,36*53
$GNGLL,0419.72037,S,05539.81096,E,120956.00,A,A*62
$GNGRS,120956.00,1,122,0.6,0.1,7.5,-7.9,-13.9,8.4,-9.1,,,,*5F
$GNGRS,120956.00,1,-1.1,-33.7,2.8,2.9,-34.3,,,,,,,*58
$GNGST,120956.00,79,,,,6.0,6.8,11*68
$GNZDA,120956.00,19,05,2025,00,00*79
$GNGBS,120956.00,6.0,6.8,10.8,,,,*67
b0XXA
$cG@ H!x$=+)S Db
{4Ta:R gF aG5"HIJKST/IU $bX$f$GNRMC,120957.00,A,0419.72017,S,05539.81085,E,0.189,,190525,,,A*70
$GNVTG,,T,,M,0.189,N,0.349,K,A*33
$GNGNS,120957.00,0419.72017,S,05539.81085,E,AA,12,0.74,9.9,-47.6,,*54
$GNGGA,120957.00,0419.72017,S,05539.81085,E,1,12,0.74,9.9,M,-47.6,M,,*7E
$GNGSA,A,3,29,10,32,18,31,16,27,,,,,,1.84,0.74,1.69*1E
$GNGSA,A,3,70,84,71,85,72,,,,,,,,1.84,0.74,1.69*19
$GPGSV,4,1,16,08,00,321,18,10,19,355,36,16,25,251,15,18,32,072,18*73
$GPGSV,4,2,16,23,04,033,16,25,03,130,09,26,29,220,09,27,36,317,28*7C
$GPGSV,4,3,16,28,43,162,17,29,21,146,08,31,28,193,19,32,68,354,26*76
$GPGSV,4,4,16,36,52,277,,40,84,353,,41,58,082,,49,32,274,*7C
$GLGSV,3,1,11,70,32,353,15,71,53,290,25,72,25,231,08,73,14,153,*60
$GLGSV,3,2,11,74,15,198,,75,00,243,,83,17,131,,84,47,073,09*68
$GLGSV,3,3,11,85,30,006,32,,,,19,,,,36*51
$GNGLL,0419.72017,S,05539.81085,E,120957.00,A,A*63
$GNGRS,120957.00,1,17.4,0.7,-0.4,-8.2,-12.0,10.9,-7.5,,,,,*44
$GNGRS,120957.00,1,-0.3,4.0,2.0,2.8,9.0,,,,,,,*5D
$GNGST,120957.00,5947886,,,,6.1,6.8,11*5F
$GNZDA,120957.00,19,05,2025,00,00*78
$GNGBS,120957.00,6.1,6.8,10.9,,,,*66
b0X@A
$cH H!u$=+%D Dbt
{4Ta:R gF aG5"_H
IJKST/IU"b@p$GNRMC,120958.00,A,0419.71998,S,05539.81077,E,0.027,,190525,,,A*7A
$GNVTG,,T,,M,0.027,N,0.051,K,A*3C
$GNGNS,120958.00,0419.71998,S,05539.81077,E,AA,13,0.72,10.2,-47.6,,*6F
$GNGGA,120958.00,0419.71998,S,05539.81077,E,1,12,0.72,10.2,M,-47.6,M,,*44
$GNGSA,A,3,29,10,32,26,18,31,16,27,,,,,1.83,0.72,1.69*1B
$GNGSA,A,3,70,84,71,85,72,,,,,,,,1.83,0.72,1.69*18
$GPGSV,4,1,16,08,00,321,17,10,19,355,36,16,25,251,14,18,32,072,18*7D
$GPGSV,4,2,16,23,04,033,17,25,03,130,07,26,29,220,14,27,36,317,28*7F
$GPGSV,4,3,16,28,43,162,16,29,21,146,08,31,28,193,18,32,68,354,26*76
$GPGSV,4,4,16,36,52,277,,40,84,353,,41,58,082,,49,32,274,*7C
$GLGSV,3,1,11,70,32,353,15,71,53,290,25,72,25,231,10,73,14,153,*69
$GLGSV,3,2,11,74,15,198,,75,00,243,,83,17,131,,84,47,073,12*62
$GLGSV,3,3,11,85,30,006,31,,,,18,,,,34*51
$GNGLL,0419.71998,S,05539.81077,E,120958.00,A,A*6C
$GNGRS,120958.00,1,18.1,0.7,1.2,9.4,-8.2,-12.1,10.0,-5.9,,,,*4E
$GNGRS,120958.00,1,-0.4,4.2,3.5,1.5,9.5,,,,,,,*58
$GNGST,120958.00,5715154,,,,6.2,6.8,11*5C
$GNZDA,120958.00,19,05,2025,00,00*77
$GNGBS,120958.00,6.2,6.8,10.9,,,,*6A
b0X(A
$co& Hu!!$=g+on Db
{4Ta:R gF
 a&G5"HIJKST/I+UN$>b(G3$GNRMC,120959.00,A,0419.72013,S,05539.81080,E,0.117,,190525,,,A*78
$GNVTG,,T,,M,0.117,N,0.216,K,A*3F
$GNGNS,120959.00,0419.72013,S,05539.81080,E,AA,12,0.80,9.9,-47.6,,*50
$GNGGA,120959.00,0419.72013,S,05539.81080,E,1,12,0.80,9.9,M,-47.6,M,,*7A
$GNGSA,A,3,29,10,32,18,31,16,27,,,,,,1.97,0.80,1.80*10
$GNGSA,A,3,70,84,71,85,72,,,,,,,,1.97,0.80,1.80*17
$GPGSV,4,1,16,08,00,321,17,10,19,355,36,16,25,251,13,18,32,072,17*75
$GPGSV,4,2,16,23,04,033,17,25,03,130,11,26,29,220,,27,36,317,28*7D
$GPGSV,4,3,16,28,43,162,14,29,21,146,13,31,28,193,16,32,68,354,26*70
$GPGSV,4,4,16,36,52,277,,40,84,353,,41,58,082,,49,32,274,*7C
$GLGSV,3,1,11,70,32,353,10,71,53,290,25,72,25,231,11,73,14,153,*6D
$GLGSV,3,2,11,74,15,198,,75,00,243,,83,17,131,,84,47,073,12*62
$GLGSV,3,3,11,85,30,006,31,,,,18,,,,36*53
$GNGLL,0419.72013,S,05539.81080,E,120959.00,A,A*6C
$GNGRS,120959.00,1,11.3,1.1,2.7,-6.5,-10.8,8.1,-6.7,,,,,*51
$GNGRS,120959.00,1,18.3,28.6,2.4,0.8,74.6,,,,,,,*45
$GNGST,120959.00,77,,,,6.3,6.9,11*6B
$GNZDA,120959.00,19,05,2025,00,00*76
$GNGBS,120959.00,6.3,6.9,10.9,,,,*6B
b0XA
$cy H[!H $=+, Db
{4Ta:R gF aG5"YH.IJKST/IbU$b$GNRMC,121000.00,A,0419.72026,S,05539.81089,E,0.355,,190525,,,A*77
$GNVTG,,T,,M,0.355,N,0.657,K,A*3A
$GNGNS,121000.00,0419.72026,S,05539.81089,E,AA,13,0.71,9.6,-47.6,,*5B
$GNGGA,121000.00,0419.72026,S,05539.81089,E,1,12,0.71,9.6,M,-47.6,M,,*70
$GNGSA,A,3,29,10,32,18,28,31,16,27,,,,,1.78,0.71,1.63*18
$GNGSA,A,3,70,84,71,85,72,,,,,,,,1.78,0.71,1.63*15
$GPGSV,4,1,16,08,00,321,19,10,19,355,36,16,25,251,14,18,32,072,18*73
$GPGSV,4,2,16,23,04,033,21,25,03,130,09,26,29,220,17,27,36,317,29*76
$GPGSV,4,3,16,28,43,162,14,29,21,146,16,31,28,193,16,32,68,354,27*74
$GPGSV,4,4,16,36,52,277,,40,84,353,,41,58,082,,49,32,274,*7C
$GLGSV,3,1,11,70,32,353,11,71,53,290,24,72,25,231,11,73,14,153,*6D
$GLGSV,3,2,11,74,15,198,,75,00,243,,83,17,131,,84,47,073,07*66
$GLGSV,3,3,11,85,30,006,31,,,,17,,,,36*5C
$GNGLL,0419.72026,S,05539.81089,E,121000.00,A,A*67
$GNGRS,121000.00,1,15.8,1.2,2.8,-6.8,-12.8,-10.7,7.1,-8.9,,,,*63
$GNGRS,121000.00,1,-0.1,3.5,3.5,4.5,8.1,,,,,,,*58
$GNGST,121000.00,5715009,,,,6.4,6.9,11*57
$GNZDA,121000.00,19,05,2025,00,00*72
$GNGBS,121000.00,6.4,6.9,11.0,,,,*60
b0XA
$cb H^!$=C+L Db
{4Ta:R gF aG5"HIJKST
/IKU#I1b$GNRMC,121001.00,A,0419.72026,S,05539.81091,E,0.224,,190525,,,A*78
$GNVTG,,T,,M,0.224,N,0.416,K,A*3A
$GNGNS,121001.00,0419.72026,S,05539.81091,E,AA,13,0.71,9.7,-47.6,,*52
$GNGGA,121001.00,0419.72026,S,05539.81091,E,1,12,0.71,9.7,M,-47.6,M,,*79
$GNGSA,A,3,29,10,32,18,28,31,16,27,,,,,1.78,0.71,1.63*18
$GNGSA,A,3,70,84,71,85,72,,,,,,,,1.78,0.71,1.63*15
$GPGSV,4,1,16,08,00,321,18,10,19,355,36,16,25,251,14,18,32,072,18*72
$GPGSV,4,2,16,23,04,033,22,25,03,130,11,26,29,220,15,27,36,317,28*7F
$GPGSV,4,3,16,28,43,162,12,29,21,146,08,31,28,193,15,32,68,354,27*7E
$GPGSV,4,4,16,36,52,277,,40,84,353,,41,58,082,,49,32,274,*7C
$GLGSV,3,1,11,70,32,353,13,71,53,290,22,72,25,231,09,73,14,153,*60
$GLGSV,3,2,11,74,15,198,,75,00,243,,83,17,131,,84,47,073,10*60
$GLGSV,3,3,11,85,30,006,30,,,,15,,,,35*5C
$GNGLL,0419.72026,S,05539.81091,E,121001.00,A,A*6F
$GNGRS,121001.00,1,15.5,1.0,5.2,-4.2,-9.5,-11.4,7.6,-7.0,,,,*5C
$GNGRS,121001.00,1,-0.1,3.3,4.5,2.8,7.9,,,,,,,*54
$GNGST,121001.00,5715531,,,,6.5,6.9,11*59
$GNZDA,121001.00,19,05,2025,00,00*73
$GNGBS,121001.00,6.5,6.9,11.0,,,,*60
b0XA
#cUa Ht!}$=.+X Db"
{4Ta:R gF aG5"HMIJKST/IU#lb\$GNRMC,121002.00,A,0419.72057,S,05539.81110,E,0.552,,190525,,,A*73
$GNVTG,,T,,M,0.552,N,1.022,K,A*3E
$GNGNS,121002.00,0419.72057,S,05539.81110,E,AA,12,0.80,9.3,-47.6,,*54
$GNGGA,121002.00,0419.72057,S,05539.81110,E,1,12,0.80,9.3,M,-47.6,M,,*7E
$GNGSA,A,3,29,10,32,18,31,16,27,,,,,,1.97,0.80,1.80*10
$GNGSA,A,3,70,84,71,85,72,,,,,,,,1.97,0.80,1.80*17
$GPGSV,4,1,16,08,00,321,18,10,19,355,35,16,25,251,14,18,32,072,16*7F
$GPGSV,4,2,16,23,04,033,23,25,03,130,09,26,29,220,12,27,36,317,29*71
$GPGSV,4,3,16,28,43,162,09,29,21,146,09,31,28,193,15,32,68,354,27*75
$GPGSV,4,4,16,36,52,277,,40,84,353,,41,58,082,,49,32,274,*7C
$GLGSV,3,1,11,70,32,353,13,71,53,290,22,72,25,231,12,73,14,153,*6A
$GLGSV,3,2,11,74,15,198,,75,00,243,,83,17,131,,84,47,073,12*62
$GLGSV,3,3,11,85,30,006,30,,,,15,,,,35*5C
$GNGLL,0419.72057,S,05539.81110,E,121002.00,A,A*62
$GNGRS,121002.00,1,40.0,0.9,5.5,-1.4,-10.6,6.1,-7.2,,,,,*5E
$GNGRS,121002.00,1,-147,-144,4.3,-0.1,31.5,,,,,,,*61
$GNGST,121002.00,85,,,,6.6,6.9,11*65
$GNZDA,121002.00,19,05,2025,00,00*70
$GNGBS,121002.00,6.6,6.9,11.1,,,,*61
b0XA
!ch H!$=
+ Db
{4Ta:R gF aG5"HIJKST/IU#b$GNRMC,121003.00,A,0419.72040,S,05539.81114,E,0.303,,190525,,,A*72
$GNVTG,,T,,M,0.303,N,0.560,K,A*3E
$GNGNS,121003.00,0419.72040,S,05539.81114,E,AA,11,0.80,9.7,-47.6,,*50
$GNGGA,121003.00,0419.72040,S,05539.81114,E,1,11,0.80,9.7,M,-47.6,M,,*7A
$GNGSA,A,3,29,10,32,18,31,16,27,,,,,,1.97,0.80,1.80*10
$GNGSA,A,3,70,71,85,72,,,,,,,,,1.97,0.80,1.80*1B
$GPGSV,4,1,16,08,00,321,17,10,19,355,33,16,25,251,13,18,32,072,14*73
$GPGSV,4,2,16,23,04,033,23,25,03,130,11,26,29,220,09,27,36,317,28*73
$GPGSV,4,3,16,28,43,162,10,29,21,146,07,31,28,193,14,32,68,354,26*73
$GPGSV,4,4,16,36,52,277,,40,84,353,,41,58,082,,49,32,274,*7C
$GLGSV,3,1,11,70,32,353,09,71,53,290,21,72,25,231,09,73,14,153,*68
$GLGSV,3,2,11,74,15,198,,75,00,243,,83,17,131,,84,47,073,06*67
$GLGSV,3,3,11,85,30,006,29,,,,15,,,,35*54
$GNGLL,0419.72040,S,05539.81114,E,121003.00,A,A*61
$GNGRS,121003.00,1,17.5,1.0,6.8,-1.1,-11.0,4.2,-10.8,,,,,*61
$GNGRS,121003.00,1,-0.2,2.6,-0.2,9.2,,,,,,,,*5E
$GNGST,121003.00,5072372,,,,6.7,6.9,11*5E
$GNZDA,121003.00,19,05,2025,00,00*71
$GNGBS,121003.00,6.7,6.9,11.1,,,,*61
b0XA
"cY H%!8$=+
$ Db
{4Ta:R gF
 aG5"SH
IJKST/IU!jb|:$GNRMC,121004.00,A,0419.72033,S,05539.81120,E,0.458,,190525,,,A*7F
$GNVTG,,T,,M,0.458,N,0.847,K,A*3F
$GNGNS,121004.00,0419.72033,S,05539.81120,E,AA,13,0.71,9.9,-47.6,,*56
$GNGGA,121004.00,0419.72033,S,05539.81120,E,1,12,0.71,9.9,M,-47.6,M,,*7D
$GNGSA,A,3,29,10,32,18,28,31,16,27,,,,,1.78,0.71,1.63*18
$GNGSA,A,3,70,84,71,85,72,,,,,,,,1.78,0.71,1.63*15
$GPGSV,4,1,16,08,00,321,17,10,19,355,34,16,25,251,12,18,32,072,15*74
$GPGSV,4,2,16,23,04,033,23,25,03,130,12,26,29,220,09,27,36,317,28*70
$GPGSV,4,3,16,28,43,162,11,29,21,146,10,31,28,193,11,32,68,354,26*71
$GPGSV,4,4,16,36,52,277,,40,84,353,,41,58,082,,49,32,274,*7C
$GLGSV,3,1,11,70,32,353,10,71,53,290,22,72,25,231,10,73,14,153,*6B
$GLGSV,3,2,11,74,15,198,,75,00,243,,83,17,131,,84,47,073,11*61
$GLGSV,3,3,11,85,30,006,28,,,,14,,,,33*52
$GNGLL,0419.72033,S,05539.81120,E,121004.00,A,A*65
$GNGRS,121004.00,1,18.3,4.2,7.0,-2.2,-8.7,-11.5,0.9,-7.8,,,,*51
$GNGRS,121004.00,1,-0.2,4.3,3.4,2.0,9.7,,,,,,,*5B
$GNGST,121004.00,4665908,,,,6.9,7.0,11*59
$GNZDA,121004.00,19,05,2025,00,00*76
$GNGBS,121004.00,6.9,7.0,11.3,,,,*62
b0XA
#c* Hx!T$=t+
. Db
{4Ta:R gF aG5"H
!IJKST/IU!#rbdW$GNRMC,121005.00,A,0419.72034,S,05539.81118,E,0.181,,190525,,,A*73
$GNVTG,,T,,M,0.181,N,0.336,K,A*33
$GNGNS,121005.00,0419.72034,S,05539.81118,E,AA,12,0.80,9.9,-47.6,,*54
$GNGGA,121005.00,0419.72034,S,05539.81118,E,1,12,0.80,9.9,M,-47.6,M,,*7E
$GNGSA,A,3,29,10,32,18,31,16,27,,,,,,1.97,0.80,1.80*10
$GNGSA,A,3,70,84,71,85,72,,,,,,,,1.97,0.80,1.80*17
$GPGSV,4,1,16,08,00,321,15,10,19,355,35,16,25,251,11,18,32,072,14*75
$GPGSV,4,2,16,23,04,033,22,25,03,130,08,26,29,220,08,27,36,317,28*7B
$GPGSV,4,3,16,28,43,162,09,29,21,146,10,31,28,193,12,32,68,354,27*7A
$GPGSV,4,4,16,36,52,277,,40,84,353,,41,58,082,,49,32,274,*7C
$GLGSV,3,1,11,70,32,353,09,71,53,290,22,72,25,231,10,73,14,153,*63
$GLGSV,3,2,11,74,15,198,,75,00,243,,83,17,131,,84,47,073,13*63
$GLGSV,3,3,11,85,30,006,33,,,,15,,,,35*5F
$GNGLL,0419.72034,S,05539.81118,E,121005.00,A,A*68
$GNGRS,121005.00,1,-128,2.0,6.5,-3.9,-12.8,3.0,-6.5,,,,,*5C
$GNGRS,121005.00,1,63.9,-76.8,4.0,-0.3,86.9,,,,,,,*4C
$GNGST,121005.00,96,,,,7.0,7.0,11*6F
$GNZDA,121005.00,19,05,2025,00,00*77
$GNGBS,121005.00,7.0,7.0,11.3,,,,*6B
b0XA
c:2 H!D
$=Z+& Db0
{4Ta:R gF aG5"yHjIJKST/IUj 9bL/
$GNRMC,121006.00,A,0419.72020,S,05539.81116,E,0.147,,190525,,,A*71
$GNVTG,,T,,M,0.147,N,0.272,K,A*38
$GNGNS,121006.00,0419.72020,S,05539.81116,E,AA,13,0.72,10.0,-47.6,,*61
$GNGGA,121006.00,0419.72020,S,05539.81116,E,1,12,0.72,10.0,M,-47.6,M,,*4A
$GNGSA,A,3,29,10,32,26,18,31,16,27,,,,,1.83,0.72,1.69*1B
$GNGSA,A,3,70,84,71,85,72,,,,,,,,1.83,0.72,1.69*18
$GPGSV,4,1,16,08,00,321,12,10,19,355,31,16,25,251,12,18,32,072,13*72
$GPGSV,4,2,16,23,04,033,20,25,03,130,10,26,29,220,11,27,36,317,27*77
$GPGSV,4,3,16,28,43,162,08,29,21,146,13,31,28,193,12,32,68,354,27*78
$GPGSV,4,4,16,36,52,277,,40,84,353,,41,58,082,,49,32,274,*7C
$GLGSV,3,1,11,70,32,353,08,71,53,290,22,72,25,231,11,73,14,153,*63
$GLGSV,3,2,11,74,15,198,,75,00,243,,83,17,131,,84,47,073,11*61
$GLGSV,3,3,11,85,30,006,29,,,,15,,,,32*53
$GNGLL,0419.72020,S,05539.81116,E,121006.00,A,A*60
$GNGRS,121006.00,1,17.1,8.3,5.6,-12.7,-5.9,-12.4,3.1,-6.8,,,,*68
$GNGRS,121006.00,1,-0.3,3.9,3.8,3.6,8.7,,,,,,,*5F
$GNGST,121006.00,3329224,,,,7.3,7.0,11*5F
$GNZDA,121006.00,19,05,2025,00,00*74
$GNGBS,121006.00,7.3,7.0,11.5,,,,*6D
b0XhA
 cO H!_O$=+#6 Db}
{4Ta:R hF
 aG5"rHrIJKST/I|U!g$Nbh4r$GNRMC,121007.00,A,0419.72016,S,05539.81121,E,0.177,,190525,,,A*72
$GNVTG,,T,,M,0.177,N,0.328,K,A*35
$GNGNS,121007.00,0419.72016,S,05539.81121,E,AA,11,0.80,10.0,-47.6,,*6E
$GNGGA,121007.00,0419.72016,S,05539.81121,E,1,11,0.80,10.0,M,-47.6,M,,*44
$GNGSA,A,3,29,10,32,18,31,27,,,,,,,1.89,0.80,1.71*16
$GNGSA,A,3,70,84,71,85,72,,,,,,,,1.89,0.80,1.71*16
$GPGSV,4,1,16,08,00,321,08,10,19,355,32,16,25,251,09,18,32,072,11*72
$GPGSV,4,2,16,23,04,033,19,25,03,130,05,26,29,220,09,27,36,317,27*70
$GPGSV,4,3,16,28,43,162,08,29,21,146,07,31,28,193,12,32,68,354,26*7C
$GPGSV,4,4,16,36,52,277,,40,84,353,,41,58,082,,49,32,274,*7C
$GLGSV,3,1,11,70,32,353,10,71,53,290,22,72,25,231,09,73,14,153,*63
$GLGSV,3,2,11,74,15,198,,75,00,243,,83,17,131,,84,47,073,11*61
$GLGSV,3,3,11,85,30,006,33,,,,16,,,,36*5F
$GNGLL,0419.72016,S,05539.81121,E,121007.00,A,A*60
$GNGRS,121007.00,1,17.2,3.4,3.8,-8.5,-12.3,-8.4,,,,,,*71
$GNGRS,121007.00,1,-0.4,3.8,1.1,3.6,8.8,,,,,,,*5C
$GNGST,121007.00,3621343,,,,7.6,7.1,12*54
$GNZDA,121007.00,19,05,2025,00,00*75
$GNGBS,121007.00,7.6,7.1,11.7,,,,*6A
b0XPA
!c H!O)$=+F Db
{4Ta:R hF aG5"H
iIJKST/IU"`bP$GNRMC,121008.00,A,0419.72016,S,05539.81135,E,0.116,,190525,,,A*7F
$GNVTG,,T,,M,0.116,N,0.215,K,A*3D
$GNGNS,121008.00,0419.72016,S,05539.81135,E,AA,11,0.87,9.9,-47.6,,*52
$GNGGA,121008.00,0419.72016,S,05539.81135,E,1,11,0.87,9.9,M,-47.6,M,,*78
$GNGSA,A,3,29,10,32,18,31,27,,,,,,,2.05,0.87,1.85*1D
$GNGSA,A,3,70,84,71,85,72,,,,,,,,2.05,0.87,1.85*1D
$GPGSV,4,1,16,08,00,321,08,10,19,355,33,16,25,251,08,18,32,072,09*7B
$GPGSV,4,2,16,23,04,033,19,25,03,130,09,26,29,220,09,27,36,317,27*7C
$GPGSV,4,3,16,28,43,162,07,29,21,146,11,31,28,193,09,32,68,354,26*7E
$GPGSV,4,4,16,36,52,277,,40,84,353,,41,58,082,,49,32,274,*7C
$GLGSV,3,1,11,70,32,353,09,71,53,290,21,72,25,231,10,73,14,153,*60
$GLGSV,3,2,11,74,15,198,,75,00,243,,83,17,131,,84,47,073,08*69
$GLGSV,3,3,11,85,30,006,30,,,,17,,,,34*5F
$GNGLL,0419.72016,S,05539.81135,E,121008.00,A,A*6A
$GNGRS,121008.00,1,48.6,2.6,4.9,-8.3,0.7,-7.7,,,,,,*65
$GNGRS,121008.00,1,-147,73.5,-0.8,4.0,-22.0,,,,,,,*48
$GNGST,121008.00,94,,,,7.8,7.2,12*69
$GNZDA,121008.00,19,05,2025,00,00*7A
$GNGBS,121008.00,7.8,7.2,11.9,,,,*66
b0X8A
"c4
) H!|
e
o$=+[ Db
{4Ta:R hF aG5"4HAIJKST/I^U6"8b8B$GNRMC,121009.00,A,0419.72019,S,05539.81144,E,0.085,,190525,,,A*7C
$GNVTG,,T,,M,0.085,N,0.157,K,A*33
$GNGNS,121009.00,0419.72019,S,05539.81144,E,AA,12,0.74,9.8,-47.6,,*54
$GNGGA,121009.00,0419.72019,S,05539.81144,E,1,12,0.74,9.8,M,-47.6,M,,*7E
$GNGSA,A,3,29,10,32,18,31,16,27,,,,,,1.84,0.74,1.69*1E
$GNGSA,A,3,70,84,71,85,72,,,,,,,,1.84,0.74,1.69*19
$GPGSV,4,1,16,08,00,321,,10,19,355,34,16,25,251,10,18,32,072,17*72
$GPGSV,4,2,16,23,04,033,21,25,03,130,10,26,29,220,10,27,36,317,28*78
$GPGSV,4,3,16,28,43,162,08,29,21,146,08,31,28,193,12,32,68,354,26*73
$GPGSV,4,4,16,36,52,277,,40,84,353,,41,58,082,,49,32,274,*7C
$GLGSV,3,1,11,70,32,353,07,71,53,290,21,72,25,231,09,73,14,153,*66
$GLGSV,3,2,11,74,15,198,,75,00,243,,83,17,131,,84,47,073,08*69
$GLGSV,3,3,11,85,30,006,31,,,,18,,,,34*51
$GNGLL,0419.72019,S,05539.81144,E,121009.00,A,A*62
$GNGRS,121009.00,1,16.3,0.5,5.4,-8.5,14.2,8.1,-8.1,,,,,*7F
$GNGRS,121009.00,1,-0.3,3.5,0.5,3.1,8.3,,,,,,,*51
$GNGST,121009.00,5950463,,,,8.2,7.3,12*59
$GNZDA,121009.00,19,05,2025,00,00*7B
$GNGBS,121009.00,8.2,7.3,12.2,,,,*6B
b0X A
"c2t Hx!H
+$=B+# Db
{4Ta:R hF aG5"HIJKST/I(U"b $GNRMC,121010.00,A,0419.72044,S,05539.81149,E,0.323,,190525,,,A*7E
$GNVTG,,T,,M,0.323,N,0.598,K,A*3B
$GNGNS,121010.00,0419.72044,S,05539.81149,E,AA,14,0.71,9.4,-47.6,,*56
$GNGGA,121010.00,0419.72044,S,05539.81149,E,1,12,0.71,9.4,M,-47.6,M,,*7A
$GNGSA,A,3,29,10,32,26,18,28,31,16,27,,,,1.78,0.71,1.63*1C
$GNGSA,A,3,70,84,71,85,72,,,,,,,,1.78,0.71,1.63*15
$GPGSV,4,1,16,08,00,321,,10,19,355,34,16,25,251,13,18,32,072,13*75
$GPGSV,4,2,16,23,04,033,20,25,03,130,10,26,29,220,11,27,36,317,28*78
$GPGSV,4,3,16,28,43,162,13,29,21,146,08,31,28,193,09,32,68,354,25*70
$GPGSV,4,4,16,36,52,277,,40,84,353,,41,58,082,,49,32,274,*7C
$GLGSV,3,1,11,70,32,353,09,71,53,290,21,72,25,231,13,73,14,153,*63
$GLGSV,3,2,11,74,15,198,,75,00,243,,83,17,131,,84,47,073,11*61
$GLGSV,3,3,11,85,30,006,30,,,,17,,,,34*5F
$GNGLL,0419.72044,S,05539.81149,E,121010.00,A,A*6F
$GNGRS,121010.00,1,15.3,5.6,6.4,-27.7,-9.0,-12.6,13.2,8.8,-7.0,,,*72
$GNGRS,121010.00,1,-0.5,3.0,2.8,-2.8,7.5,,,,,,,*79
$GNGST,121010.00,6599633,,,,8.6,7.5,12*5E
$GNZDA,121010.00,19,05,2025,00,00*73
$GNGBS,121010.00,8.6,7.5,12.5,,,,*66
b0X#A
!c~ H!&$=u+ Db
{4Ta:R hF agG5"HIJKST/IU $b#g$GNRMC,121011.00,A,0419.71994,S,05539.81136,E,0.127,,190525,,,A*76
$GNVTG,,T,,M,0.127,N,0.235,K,A*3D
$GNGNS,121011.00,0419.71994,S,05539.81136,E,AA,14,0.75,10.1,-47.6,,*61
$GNGGA,121011.00,0419.71994,S,05539.81136,E,1,12,0.75,10.1,M,-47.6,M,,*4D
$GNGSA,A,3,29,10,32,26,18,28,31,16,27,,,,1.86,0.75,1.70*1B
$GNGSA,A,3,70,84,71,85,72,,,,,,,,1.86,0.75,1.70*12
$GPGSV,4,1,16,08,00,321,,10,19,355,33,16,25,251,14,18,32,072,09*7E
$GPGSV,4,2,16,23,04,033,19,25,03,130,11,26,29,220,12,27,36,317,28*70
$GPGSV,4,3,16,28,43,162,09,29,21,146,12,31,28,193,11,32,68,354,25*79
$GPGSV,4,4,16,36,52,277,,40,84,353,,41,58,082,,49,32,274,*7C
$GLGSV,3,1,11,70,32,353,08,71,53,290,23,72,25,231,09,73,14,153,*6B
$GLGSV,3,2,11,74,15,198,,75,00,243,,83,17,131,,84,47,073,07*66
$GLGSV,3,3,11,85,30,006,32,,,,15,,,,36*5D
$GNGLL,0419.71994,S,05539.81136,E,121011.00,A,A*61
$GNGRS,121011.00,1,-103,3.8,4.9,-27.8,-1.0,-2.6,-24.1,6.8,-6.5,,,*64
$GNGRS,121011.00,1,-80.9,-24.1,1.9,2.8,-16.6,,,,,,,*64
$GNGST,121011.00,90,,,,8.6,7.5,13*62
$GNZDA,121011.00,19,05,2025,00,00*72
$GNGBS,121011.00,8.6,7.5,12.5,,,,*67
b0X&A
$c H!#E$=+
.X Db
{4Ta:R hF aG5"H,IJKST/IIU ""b&>j$GNRMC,121012.00,A,0419.72016,S,05539.81156,E,0.358,,190525,,,A*79
$GNVTG,,T,,M,0.358,N,0.662,K,A*31
$GNGNS,121012.00,0419.72016,S,05539.81156,E,AA,13,0.74,10.0,-47.6,,*63
$GNGGA,121012.00,0419.72016,S,05539.81156,E,1,12,0.74,10.0,M,-47.6,M,,*48
$GNGSA,A,3,29,10,32,26,18,31,16,27,,,,,1.84,0.74,1.69*1A
$GNGSA,A,3,70,84,71,85,72,,,,,,,,1.84,0.74,1.69*19
$GPGSV,4,1,16,08,00,321,,10,19,355,36,16,25,251,15,18,32,072,15*77
$GPGSV,4,2,16,23,04,033,16,25,03,130,09,26,29,220,13,27,36,317,30*7E
$GPGSV,4,3,16,28,43,162,,29,21,146,10,31,28,193,15,32,68,354,26*75
$GPGSV,4,4,16,36,52,277,,40,84,353,,41,58,082,,49,32,274,*7C
$GLGSV,3,1,11,70,32,353,12,71,53,290,22,72,25,231,08,73,14,153,*60
$GLGSV,3,2,11,74,15,198,,75,00,243,,83,17,131,,84,47,073,09*68
$GLGSV,3,3,11,85,30,006,32,,,,15,,,,34*5F
$GNGLL,0419.72016,S,05539.81156,E,121012.00,A,A*64
$GNGRS,121012.00,1,15.8,-0.2,5.2,-27.5,13.0,13.7,6.6,-8.5,,,,*7F
$GNGRS,121012.00,1,0.0,3.3,4.1,5.5,8.1,,,,,,,*73
$GNGST,121012.00,6869115,,,,8.9,7.5,13*53
$GNZDA,121012.00,19,05,2025,00,00*71
$GNGBS,121012.00,8.9,7.5,12.7,,,,*69
b0X*A
$cd H!
$=+!# Db
{4Ta:R hF aG5"HIJKST
/I,U |"b*$GNRMC,121013.00,A,0419.72031,S,05539.81166,E,0.444,,190525,,,A*74
$GNVTG,,T,,M,0.444,N,0.822,K,A*31
$GNGNS,121013.00,0419.72031,S,05539.81166,E,AA,13,0.74,9.9,-47.6,,*55
$GNGGA,121013.00,0419.72031,S,05539.81166,E,1,12,0.74,9.9,M,-47.6,M,,*7E
$GNGSA,A,3,29,10,32,26,18,31,16,27,,,,,1.84,0.74,1.69*1A
$GNGSA,A,3,70,84,71,85,72,,,,,,,,1.84,0.74,1.69*19
$GPGSV,4,1,16,08,00,321,,10,19,355,36,16,25,251,17,18,32,072,18*78
$GPGSV,4,2,16,23,04,033,15,25,03,130,10,26,29,220,14,27,36,317,30*72
$GPGSV,4,3,16,28,43,162,17,29,21,146,12,31,28,193,12,32,68,354,26*76
$GPGSV,4,4,16,36,52,277,,40,84,353,,41,58,082,,49,32,274,*7C
$GLGSV,3,1,11,70,32,353,09,71,53,290,22,72,25,231,09,73,14,153,*6B
$GLGSV,3,2,11,74,15,198,,75,00,243,,83,17,131,,84,47,073,10*60
$GLGSV,3,3,11,85,30,006,32,,,,16,,,,34*5C
$GNGLL,0419.72031,S,05539.81166,E,121013.00,A,A*63
$GNGRS,121013.00,1,15.5,0.2,2.6,-26.6,12.6,13.1,6.1,-10.7,,,,*62
$GNGRS,121013.00,1,0.1,3.0,5.2,3.8,7.9,,,,,,,*7E
$GNGST,121013.00,6870413,,,,9.3,7.6,13*51
$GNZDA,121013.00,19,05,2025,00,00*70
$GNGBS,121013.00,9.3,7.6,12.9,,,,*6E
b0X.A
$c4 H!$=+
7 Db
{4Ta:R hFbG5"HEIJKST/IU '"b.:$GNRMC,121014.00,A,0419.72037,S,05539.81173,E,0.452,,190525,,,A*76
$GNVTG,,T,,M,0.452,N,0.838,K,A*3D
$GNGNS,121014.00,0419.72037,S,05539.81173,E,AA,12,0.80,9.9,-47.6,,*5A
$GNGGA,121014.00,0419.72037,S,05539.81173,E,1,12,0.80,9.9,M,-47.6,M,,*70
$GNGSA,A,3,29,10,32,26,18,31,16,27,,,,,1.97,0.80,1.80*14
$GNGSA,A,3,70,71,85,72,,,,,,,,,1.97,0.80,1.80*1B
$GPGSV,4,1,16,08,00,321,,10,19,355,36,16,25,251,18,18,32,072,16*79
$GPGSV,4,2,16,23,04,033,13,25,03,130,07,26,29,220,15,27,36,317,29*7B
$GPGSV,4,3,16,28,43,162,16,29,21,146,13,31,28,193,10,32,68,354,26*74
$GPGSV,4,4,16,36,52,277,,40,84,353,,41,58,082,,49,32,274,*7C
$GLGSV,3,1,11,70,31,354,09,71,53,290,21,72,25,231,16,73,14,153,*62
$GLGSV,3,2,11,74,15,198,,75,00,243,,83,17,131,,84,47,073,07*66
$GLGSV,3,3,11,85,30,006,32,,,,16,,,,34*5C
$GNGLL,0419.72037,S,05539.81173,E,121014.00,A,A*66
$GNGRS,121014.00,1,10.3,0.5,2.8,-29.4,-0.1,10.8,6.5,-10.2,,,,*70
$GNGRS,121014.00,1,0.3,7.1,3.0,-17.2,,,,,,,,*48
$GNGST,121014.00,74,,,,9.1,7.6,13*68
$GNZDA,121014.00,19,05,2025,00,00*77
$GNGBS,121014.00,9.1,7.6,12.8,,,,*6A
b0X2A
$c3B HM!4$=+' Db)
{4Ta:R hFbG5#HnIJKST/IU!#b2t$GNRMC,121015.00,A,0419.72039,S,05539.81175,E,0.400,,190525,,,A*78
$GNVTG,,T,,M,0.400,N,0.741,K,A*3B
$GNGNS,121015.00,0419.72039,S,05539.81175,E,AA,13,0.74,9.9,-47.6,,*59
$GNGGA,121015.00,0419.72039,S,05539.81175,E,1,12,0.74,9.9,M,-47.6,M,,*72
$GNGSA,A,3,29,10,32,26,18,31,16,27,,,,,1.84,0.74,1.69*1A
$GNGSA,A,3,70,84,71,85,72,,,,,,,,1.84,0.74,1.69*19
$GPGSV,4,1,16,08,00,321,18,10,19,355,36,16,25,251,18,18,32,072,16*70
$GPGSV,4,2,16,23,04,033,15,25,03,130,11,26,29,220,15,27,36,317,29*7A
$GPGSV,4,3,16,28,43,162,16,29,21,146,16,31,28,193,12,32,68,354,28*7D
$GPGSV,4,4,16,36,52,277,,40,84,353,,41,58,082,,49,32,274,*7C
$GLGSV,3,1,11,70,31,354,09,71,53,291,21,72,25,231,11,73,14,153,*64
$GLGSV,3,2,11,74,15,198,,75,00,243,,83,17,131,,84,47,073,09*68
$GLGSV,3,3,11,85,30,006,33,,,,16,,,,35*5C
$GNGLL,0419.72039,S,05539.81175,E,121015.00,A,A*6F
$GNGRS,121015.00,1,16.7,0.5,3.0,-32.8,13.6,14.5,5.8,-2.3,,,,*51
$GNGRS,121015.00,1,-0.3,3.8,6.8,2.0,8.8,,,,,,,*51
$GNGST,121015.00,4859061,,,,9.4,7.6,13*58
$GNZDA,121015.00,19,05,2025,00,00*76
$GNGBS,121015.00,9.4,7.6,12.9,,,,*6F
b0X6A
#c2 HK!$=+W
 Db
{4Ta:R hF
bG5#HIJKST/IU #b6\
$GNRMC,121016.00,A,0419.72038,S,05539.81183,E,0.494,,190525,,,A*7E
$GNVTG,,T,,M,0.494,N,0.914,K,A*38
$GNGNS,121016.00,0419.72038,S,05539.81183,E,AA,13,0.74,10.0,-47.6,,*63
$GNGGA,121016.00,0419.72038,S,05539.81183,E,1,12,0.74,10.0,M,-47.6,M,,*48
$GNGSA,A,3,29,10,32,26,18,31,16,27,,,,,1.84,0.74,1.69*1A
$GNGSA,A,3,70,84,71,85,72,,,,,,,,1.84,0.74,1.69*19
$GPGSV,4,1,16,08,00,321,18,10,19,355,35,16,25,251,18,18,32,072,17*72
$GPGSV,4,2,16,23,04,033,18,25,03,130,09,26,29,220,15,27,36,317,29*7E
$GPGSV,4,3,16,28,43,162,15,29,21,146,15,31,28,193,10,32,68,354,28*7F
$GPGSV,4,4,16,36,52,277,,40,84,353,,41,58,082,,49,32,274,*7C
$GLGSV,3,1,11,70,31,354,10,71,53,291,22,72,25,231,12,73,14,153,*6C
$GLGSV,3,2,11,74,15,198,,75,00,243,,83,17,131,,84,47,073,11*61
$GLGSV,3,3,11,85,30,006,32,,,,14,,,,35*5F
$GNGLL,0419.72038,S,05539.81183,E,121016.00,A,A*64
$GNGRS,121016.00,1,16.9,0.5,2.6,-30.8,13.6,14.8,1.8,-8.2,,,,*5B
$GNGRS,121016.00,1,-0.5,3.9,6.5,-1.2,9.4,,,,,,,*79
$GNGST,121016.00,5948727,,,,9.6,7.7,13*5D
$GNZDA,121016.00,19,05,2025,00,00*75
$GNGBS,121016.00,9.6,7.7,13.1,,,,*66
b0Xx:A
!c< H!H
TB_$=+F Db$
{4Ta:R hFbG5#2H
!IJKST/IUj#bx:Dvr$GNRMC,121017.00,A,0419.72089,S,05539.81203,E,0.414,,190525,,,A*76
$GNVTG,,T,,M,0.414,N,0.767,K,A*3A
$GNGNS,121017.00,0419.72089,S,05539.81203,E,AA,13,0.87,9.2,-47.6,,*55
$GNGGA,121017.00,0419.72089,S,05539.81203,E,1,12,0.87,9.2,M,-47.6,M,,*7E
$GNGSA,A,3,29,10,32,26,28,31,16,27,,,,,1.91,0.87,1.70*19
$GNGSA,A,3,70,84,71,85,72,,,,,,,,1.91,0.87,1.70*19
$GPGSV,4,1,16,08,00,321,19,10,19,355,33,16,25,251,19,18,32,072,09*7B
$GPGSV,4,2,16,23,04,033,20,25,03,130,10,26,29,220,14,27,36,317,29*7C
$GPGSV,4,3,16,28,43,162,15,29,21,146,12,31,28,193,09,32,68,354,28*70
$GPGSV,4,4,16,36,52,277,,40,84,353,,41,58,082,,49,32,274,*7C
$GLGSV,3,1,11,70,31,354,11,71,53,291,21,72,25,231,10,73,14,152,*6D
$GLGSV,3,2,11,74,15,198,,75,00,243,,83,17,131,,84,47,073,09*68
$GLGSV,3,3,11,85,30,006,31,,,,12,,,,35*5A
$GNGLL,0419.72089,S,05539.81203,E,121017.00,A,A*64
$GNGRS,121017.00,1,57.0,0.6,2.9,-32.3,4.1,-20.3,-0.5,-5.9,,,,*64
$GNGRS,121017.00,1,38.5,-61.3,5.6,-1.5,84.5,,,,,,,*4E
$GNGST,121017.00,78,,,,9.4,7.7,13*63
$GNZDA,121017.00,19,05,2025,00,00*74
$GNGBS,121017.00,9.4,7.7,12.9,,,,*6C
b0X`>A
!c H!:v$=+ Db
{4Ta:R hFbG5#.HoIJKST/IqUs#gb`>, N$GNRMC,121018.00,A,0419.72086,S,05539.81206,E,0.379,,190525,,,A*7F
$GNVTG,,T,,M,0.379,N,0.703,K,A*34
$GNGNS,121018.00,0419.72086,S,05539.81206,E,AA,13,0.79,9.4,-47.6,,*57
$GNGGA,121018.00,0419.72086,S,05539.81206,E,1,12,0.79,9.4,M,-47.6,M,,*7C
$GNGSA,A,3,29,10,32,26,28,31,16,27,,,,,1.82,0.79,1.64*1F
$GNGSA,A,3,70,84,71,85,72,,,,,,,,1.82,0.79,1.64*1F
$GPGSV,4,1,16,08,00,321,20,10,19,355,33,16,25,251,19,18,32,072,09*71
$GPGSV,4,2,16,23,04,033,21,25,03,130,08,26,29,220,12,27,36,317,29*72
$GPGSV,4,3,16,28,43,162,13,29,21,146,07,31,28,193,08,32,68,354,29*72
$GPGSV,4,4,16,36,52,277,,40,84,353,,41,58,082,,49,32,274,*7C
$GLGSV,3,1,11,70,31,354,13,71,53,291,21,72,25,231,08,73,14,152,*66
$GLGSV,3,2,11,74,15,198,,75,00,243,,83,17,131,,84,47,073,08*69
$GLGSV,3,3,11,85,30,006,31,,,,14,,,,35*5C
$GNGLL,0419.72086,S,05539.81206,E,121018.00,A,A*61
$GNGRS,121018.00,1,16.8,4.0,4.5,-29.5,1.5,14.6,-2.4,-8.1,,,,*4A
$GNGRS,121018.00,1,-0.3,3.7,8.1,-1.4,8.8,,,,,,,*7E
$GNGST,121018.00,6868079,,,,9.5,7.7,13*5C
$GNZDA,121018.00,19,05,2025,00,00*7B
$GNGBS,121018.00,9.5,7.7,12.9,,,,*62
b0XHBA
$ca H!A$=+;n DbV
{4Ta:R hFbG5#H6IJKST/I>U$`bHB$&B$GNRMC,121019.00,A,0419.72113,S,05539.81216,E,0.350,,190525,,,A*79
$GNVTG,,T,,M,0.350,N,0.648,K,A*31
$GNGNS,121019.00,0419.72113,S,05539.81216,E,AA,12,0.73,8.9,-47.6,,*5D
$GNGGA,121019.00,0419.72113,S,05539.81216,E,1,12,0.73,8.9,M,-47.6,M,,*77
$GNGSA,A,3,29,10,32,18,28,31,16,27,,,,,1.80,0.73,1.64*1A
$GNGSA,A,3,84,71,85,72,,,,,,,,,1.80,0.73,1.64*10
$GPGSV,4,1,16,08,00,321,21,10,19,355,36,16,25,251,17,18,32,072,13*70
$GPGSV,4,2,16,23,04,033,21,25,03,130,09,26,29,220,12,27,36,317,29*73
$GPGSV,4,3,16,28,43,162,15,29,21,146,16,31,28,193,08,32,68,354,30*7C
$GPGSV,4,4,16,36,52,277,,40,84,353,,41,58,082,,49,32,274,*7C
$GLGSV,3,1,11,70,31,354,07,71,53,291,21,72,25,231,09,73,14,152,*62
$GLGSV,3,2,11,74,15,198,,75,00,243,,83,17,131,,84,47,073,08*69
$GLGSV,3,3,11,85,30,006,30,,,,15,,,,36*5F
$GNGLL,0419.72113,S,05539.81216,E,121019.00,A,A*6C
$GNGRS,121019.00,1,16.0,0.3,0.9,11.8,-7.8,13.9,-4.1,-3.6,,,,*46
$GNGRS,121019.00,1,3.2,9.1,-1.2,8.2,,,,,,,,*77
$GNGST,121019.00,5948027,,,,9.5,7.7,13*56
$GNZDA,121019.00,19,05,2025,00,00*7A
$GNGBS,121019.00,9.5,7.7,13.0,,,,*6B
b0X0FA
$c Hh!&$=+P Db
{4Ta:R hFb$-G5#,HjIJKST
/IU&$b0F'$GNRMC,121020.00,A,0419.72055,S,05539.81197,E,0.154,,190525,,,A*7C
$GNVTG,,T,,M,0.154,N,0.285,K,A*32
$GNGNS,121020.00,0419.72055,S,05539.81197,E,AA,14,0.75,9.9,-47.6,,*5F
$GNGGA,121020.00,0419.72055,S,05539.81197,E,1,12,0.75,9.9,M,-47.6,M,,*73
$GNGSA,A,3,29,10,32,26,18,28,31,16,27,,,,1.86,0.75,1.70*1B
$GNGSA,A,3,70,84,71,85,72,,,,,,,,1.86,0.75,1.70*12
$GPGSV,4,1,16,08,00,321,21,10,19,355,36,16,25,251,16,18,32,072,14*76
$GPGSV,4,2,16,23,04,033,21,25,03,130,06,26,29,220,11,27,36,317,29*7F
$GPGSV,4,3,16,28,43,162,14,29,21,146,13,31,28,193,12,32,68,354,30*73
$GPGSV,4,4,16,36,52,277,,40,84,353,,41,58,082,,49,32,274,*7C
$GLGSV,3,1,11,70,31,354,08,71,53,291,22,72,25,231,09,73,14,152,*6E
$GLGSV,3,2,11,74,15,198,,75,00,243,,83,17,131,,84,47,073,10*60
$GLGSV,3,3,11,85,30,006,31,,,,15,,,,36*5E
$GNGLL,0419.72055,S,05539.81197,E,121020.00,A,A*6F
$GNGRS,121020.00,1,-26.5,2.2,-0.2,-27.8,11.3,-10.6,11.0,-3.7,-3.7,,,*44
$GNGRS,121020.00,1,116,-123,8.1,-2.2,-137,,,,,,,*47
$GNGST,121020.00,95,,,,9.3,7.6,13*62
$GNZDA,121020.00,19,05,2025,00,00*70
$GNGBS,121020.00,9.3,7.6,12.8,,,,*6F
b0XJA
#c{ H!c
T$=+Dn Db
{4Ta:R hFbG5#H9IJKST/IIU'$bJ+$GNRMC,121021.00,A,0419.72072,S,05539.81212,E,0.542,,190525,,,A*75
$GNVTG,,T,,M,0.542,N,1.004,K,A*3B
$GNGNS,121021.00,0419.72072,S,05539.81212,E,AA,13,0.71,9.6,-47.6,,*59
$GNGGA,121021.00,0419.72072,S,05539.81212,E,1,12,0.71,9.6,M,-47.6,M,,*72
$GNGSA,A,3,29,10,32,18,28,31,16,27,,,,,1.78,0.71,1.63*18
$GNGSA,A,3,70,84,71,85,72,,,,,,,,1.78,0.71,1.63*15
$GPGSV,4,1,16,08,00,321,21,10,19,355,35,16,25,251,16,18,32,072,14*75
$GPGSV,4,2,16,23,04,033,21,25,03,130,10,26,29,220,,27,36,317,29*78
$GPGSV,4,3,16,28,43,162,13,29,21,146,15,31,28,193,09,32,68,354,30*78
$GPGSV,4,4,16,36,52,277,,40,84,353,,41,58,082,,49,32,274,*7C
$GLGSV,3,1,11,70,31,354,08,71,53,291,22,72,25,231,09,73,14,152,*6E
$GLGSV,3,2,11,74,15,198,,75,00,243,,83,17,131,,84,47,073,09*68
$GLGSV,3,3,11,85,30,006,31,,,,12,,,,36*59
$GNGLL,0419.72072,S,05539.81212,E,121021.00,A,A*65
$GNGRS,121021.00,1,16.0,-0.4,-0.8,12.9,-13.5,13.9,-1.3,-5.4,,,,*72
$GNGRS,121021.00,1,0.0,3.3,7.5,0.4,8.2,,,,,,,*73
$GNGST,121021.00,5714789,,,,9.3,7.6,13*5E
$GNZDA,121021.00,19,05,2025,00,00*71
$GNGBS,121021.00,9.3,7.6,12.8,,,,*6E
b0XNA
"c H!9$=q+z2J Db
{4Ta:R hFbG5#H&IJKST/IU#FbN/w$GNRMC,121022.00,A,0419.72080,S,05539.81218,E,0.430,,190525,,,A*75
$GNVTG,,T,,M,0.430,N,0.796,K,A*32
$GNGNS,121022.00,0419.72080,S,05539.81218,E,AA,13,0.71,9.5,-47.6,,*5E
$GNGGA,121022.00,0419.72080,S,05539.81218,E,1,12,0.71,9.5,M,-47.6,M,,*75
$GNGSA,A,3,29,10,32,18,28,31,16,27,,,,,1.78,0.71,1.63*18
$GNGSA,A,3,70,84,71,85,72,,,,,,,,1.78,0.71,1.63*15
$GPGSV,4,1,16,08,00,321,19,10,19,355,34,16,25,251,15,18,32,072,12*7A
$GPGSV,4,2,16,23,04,033,21,25,03,130,11,26,29,220,,27,36,317,29*79
$GPGSV,4,3,16,28,43,162,15,29,21,146,15,31,28,193,11,32,68,354,30*77
$GPGSV,4,4,16,36,52,277,,40,84,353,,41,58,082,,49,32,274,*7C
$GLGSV,3,1,11,70,31,354,09,71,53,291,22,72,25,231,07,73,14,152,*61
$GLGSV,3,2,11,74,15,198,,75,00,243,,83,17,131,,84,47,073,09*68
$GLGSV,3,3,11,85,30,006,31,,,,12,,,,35*5A
$GNGLL,0419.72080,S,05539.81218,E,121022.00,A,A*61
$GNGRS,121022.00,1,15.9,1.5,0.1,9.7,-9.0,13.5,-2.4,-4.0,,,,*75
$GNGRS,121022.00,1,0.0,2.9,7.4,2.0,8.1,,,,,,,*7F
$GNGST,121022.00,5715100,,,,9.4,7.6,13*5C
$GNZDA,121022.00,19,05,2025,00,00*72
$GNGBS,121022.00,9.4,7.6,12.8,,,,*6A
b0XQA
#ck H!$=+Ax Db
{4Ta:R hFbG5#H
IJKST
/I-UC$CbQ3$GNRMC,121023.00,A,0419.72096,S,05539.81231,E,0.618,,190525,,,A*70
$GNVTG,,T,,M,0.618,N,1.144,K,A*32
$GNGNS,121023.00,0419.72096,S,05539.81231,E,AA,13,0.75,9.3,-47.6,,*51
$GNGGA,121023.00,0419.72096,S,05539.81231,E,1,12,0.75,9.3,M,-47.6,M,,*7A
$GNGSA,A,3,29,10,32,18,28,31,16,27,,,,,1.86,0.75,1.70*1F
$GNGSA,A,3,70,84,71,85,72,,,,,,,,1.86,0.75,1.70*12
$GPGSV,4,1,16,08,00,321,19,10,19,355,35,16,25,251,15,18,32,072,12*7B
$GPGSV,4,2,16,23,04,033,21,25,03,130,07,26,29,220,,27,36,317,29*7E
$GPGSV,4,3,16,28,43,162,15,29,21,146,11,31,28,193,08,32,68,354,30*7B
$GPGSV,4,4,16,36,52,277,,40,84,353,,41,58,082,,49,32,274,*7C
$GLGSV,3,1,11,70,31,354,12,71,53,291,22,72,25,231,10,73,14,152,*6D
$GLGSV,3,2,11,74,15,198,,75,00,243,,83,17,131,,84,47,073,10*60
$GLGSV,3,3,11,85,30,006,31,,,,11,,,,36*5A
$GNGLL,0419.72096,S,05539.81231,E,121023.00,A,A*6C
$GNGRS,121023.00,1,-9.9,1.1,1.7,10.5,-9.6,-34.6,-3.0,-8.3,,,,*7A
$GNGRS,121023.00,1,64.3,117,7.5,3.2,-24.3,,,,,,,*4E
$GNGST,121023.00,82,,,,9.2,7.6,13*66
$GNZDA,121023.00,19,05,2025,00,00*73
$GNGBS,121023.00,9.2,7.6,12.7,,,,*62
b0LUA
#cR Hi!SQ$=+fF Db
{4Ta:R hF
bG5#H:IJKST/I[U$bU7\8$GNRMC,121024.00,A,0419.72123,S,05539.81249,E,0.735,,190525,,,A*79
$GNVTG,,T,,M,0.735,N,1.361,K,A*39
$GNGNS,121024.00,0419.72123,S,05539.81249,E,AA,12,0.74,8.8,-47.6,,*5C
$GNGGA,121024.00,0419.72123,S,05539.81249,E,1,12,0.74,8.8,M,-47.6,M,,*76
$GNGSA,A,3,29,10,32,18,28,16,27,,,,,,1.80,0.74,1.63*18
$GNGSA,A,3,70,84,71,85,72,,,,,,,,1.80,0.74,1.63*17
$GPGSV,4,1,16,08,00,321,19,10,19,355,35,16,25,251,16,18,32,072,12*78
$GPGSV,4,2,16,23,04,033,20,25,03,130,07,26,29,220,,27,36,317,29*7F
$GPGSV,4,3,16,28,43,162,17,29,21,146,09,31,28,193,,32,68,354,31*79
$GPGSV,4,4,16,36,52,277,,40,84,353,,41,58,082,,49,32,274,*7C
$GLGSV,3,1,10,70,31,354,10,71,53,291,23,72,25,231,09,73,14,152,*67
$GLGSV,3,2,10,74,15,198,,75,00,243,,83,17,131,,84,47,073,07*67
$GLGSV,3,3,10,85,30,006,31,,,,36*5B
$GNGLL,0419.72123,S,05539.81249,E,121024.00,A,A*6B
