b0L`
'`/%`#E&
e!!?)R )H_{4$Ta":R fF"`G6HIJKST.EU!!b`-|$GNRMC,120426.00,A,0419.71116,S,05539.81374,E,0.036,,190525,,,D*75
$GNVTG,,T,,M,0.036,N,0.066,K,D*3D
$GNGNS,120426.00,0419.71116,S,05539.81374,E,DA,15,0.66,12.4,-47.6,,0000*67
$GNGGA,120426.00,0419.71116,S,05539.81374,E,2,12,0.66,12.4,M,-47.6,M,,0000*4C
$GNGSA,A,3,29,10,32,26,18,28,31,16,27,,,,1.63,0.66,1.49*18
$GNGSA,A,3,70,73,84,71,85,72,,,,,,,1.63,0.66,1.49*15
$GPGSV,4,1,15,10,20,352,39,16,25,254,37,18,31,069,35,23,05,030,38*7C
$GPGSV,4,2,15,25,03,133,,26,29,223,29,27,33,319,33,28,41,165,27*7F
$GPGSV,4,3,15,29,24,146,28,31,26,195,24,32,72,351,41,36,52,277,*75
$GPGSV,4,4,15,40,84,353,36,41,58,082,34,49,32,274,*4D
$GLGSV,3,1,11,70,34,352,24,71,54,285,28,72,23,228,20,73,14,155,07*6E
$GLGSV,3,2,11,74,15,201,,75,00,246,,83,18,128,,84,46,069,29*61
$GLGSV,3,3,11,85,27,005,33,,,,25,,,,33*5F
$GNGLL,0419.71116,S,05539.81374,E,120426.00,A,D*63
$GNGRS,120426.00,1,1.6,0.5,0.1,-1.6,0.2,3.4,-0.6,1.0,1.9,,,*73
$GNGRS,120426.00,1,19.3,-13.4,6.7,-5.3,-1.3,-13.6,,,,,,*6F
$GNGST,120426.00,46,,,,1.5,1.7,3.6*4F
$GNZDA,120426.00,19,05,2025,00,00*73
$GNGBS,120426.00,1.5,1.7,3.6,,,,*5B
b0LH
'aK'J#ED'j
Z"!?)j *H_{4%Ta#:R fF"`G6^H2IJKST.EsU"x!RbH|_N$GNRMC,120427.00,A,0419.71115,S,05539.81374,E,0.057,,190525,,,D*70
$GNVTG,,T,,M,0.057,N,0.105,K,D*3E
$GNGNS,120427.00,0419.71115,S,05539.81374,E,DA,15,0.66,12.4,-47.6,,0000*65
$GNGGA,120427.00,0419.71115,S,05539.81374,E,2,12,0.66,12.4,M,-47.6,M,,0000*4E
$GNGSA,A,3,29,10,32,26,18,28,31,16,27,,,,1.63,0.66,1.49*18
$GNGSA,A,3,70,73,84,71,85,72,,,,,,,1.63,0.66,1.49*15
$GPGSV,4,1,15,10,20,353,39,16,25,254,39,18,31,069,35,23,05,030,39*72
$GPGSV,4,2,15,25,03,133,,26,29,223,30,27,33,319,34,28,41,165,28*7F
$GPGSV,4,3,15,29,24,146,29,31,26,195,22,32,72,351,42,36,52,277,*71
$GPGSV,4,4,15,40,84,353,37,41,58,082,35,49,32,274,*4D
$GLGSV,3,1,11,70,34,352,24,71,54,285,28,72,23,228,19,73,14,155,08*6B
$GLGSV,3,2,11,74,15,201,,75,00,246,,83,18,128,,84,46,069,27*6F
$GLGSV,3,3,11,85,27,005,34,,,,27,,,,33*5A
$GNGLL,0419.71115,S,05539.81374,E,120427.00,A,D*61
$GNGRS,120427.00,1,1.8,0.8,-0.1,-4.2,-1.9,-1.1,1.1,0.7,2.1,,,*76
$GNGRS,120427.00,1,15.4,7.8,1.1,-4.2,-1.4,-14.9,,,,,,*7F
$GNGST,120427.00,3071473,,,,1.5,1.7,3.6*79
$GNZDA,120427.00,19,05,2025,00,00*72
$GNGBS,120427.00,1.5,1.7,3.6,,,,*5A
b0L0
&aF(R"E$s
9#!?))" &H_{4 Ta#:R fF"`HG6H%IJKST.E[U'o#b0|6$GNRMC,120428.00,A,0419.71114,S,05539.81374,E,0.031,,190525,,,D*7E
$GNVTG,,T,,M,0.031,N,0.057,K,D*38
$GNGNS,120428.00,0419.71114,S,05539.81374,E,DA,15,0.66,12.4,-47.6,,0000*6B
$GNGGA,120428.00,0419.71114,S,05539.81374,E,2,12,0.66,12.4,M,-47.6,M,,0000*40
$GNGSA,A,3,29,10,32,26,18,28,31,16,27,,,,1.63,0.66,1.49*18
$GNGSA,A,3,70,73,84,71,85,72,,,,,,,1.63,0.66,1.49*15
$GPGSV,4,1,15,10,20,353,38,16,25,254,40,18,31,069,34,23,05,030,36*73
$GPGSV,4,2,15,25,03,133,,26,29,223,20,27,33,319,35,28,41,165,27*70
$GPGSV,4,3,15,29,24,146,41,31,26,195,34,32,72,351,38,36,52,277,*75
$GPGSV,4,4,15,40,84,353,32,41,58,082,35,49,32,274,*48
$GLGSV,3,1,11,70,34,352,31,71,54,285,30,72,23,228,21,73,14,155,16*62
$GLGSV,3,2,11,74,15,201,,75,00,246,,83,18,128,,84,46,069,29*61
$GLGSV,3,3,11,85,27,005,39,,,,31,,,,35*56
$GNGLL,0419.71114,S,05539.81374,E,120428.00,A,D*6F
$GNGRS,120428.00,1,2.3,0.7,0.2,0.6,-5.4,-5.7,-3.4,0.8,-0.5,,,*78
$GNGRS,120428.00,1,8.4,7.9,3.5,-5.2,-1.5,-17.5,,,,,,*44
$GNGST,120428.00,3071473,,,,1.5,1.7,3.6*76
$GNZDA,120428.00,19,05,2025,00,00*7D
$GNGBS,120428.00,1.5,1.7,3.6,,,,*55
b0L
)aV(B)E*|
!$!?)X *H_J{4(Ta$:R fF"`G"6dHI@JKST.EU(o%'{b|$GNRMC,120429.00,A,0419.71117,S,05539.81370,E,0.189,,190525,,,D*7A
$GNVTG,,T,,M,0.189,N,0.351,K,D*3F
$GNGNS,120429.00,0419.71117,S,05539.81370,E,DA,15,0.69,12.4,-47.6,,0000*62
$GNGGA,120429.00,0419.71117,S,05539.81370,E,2,12,0.69,12.4,M,-47.6,M,,0000*49
$GNGSA,A,3,29,10,32,26,18,28,31,16,27,,,,1.66,0.69,1.51*1B
$GNGSA,A,3,70,73,84,71,85,72,,,,,,,1.66,0.69,1.51*16
$GPGSV,4,1,15,10,20,353,41,16,25,254,40,18,31,069,41,23,05,030,42*7C
$GPGSV,4,2,15,25,03,133,,26,29,223,33,27,33,319,36,28,41,165,31*76
$GPGSV,4,3,15,29,24,146,28,31,26,195,26,32,72,351,42,36,52,277,*74
$GPGSV,4,4,15,40,84,353,40,41,58,082,36,49,32,274,*4E
$GLGSV,3,1,11,70,34,352,31,71,54,285,34,72,23,228,29,73,14,155,12*6A
$GLGSV,3,2,11,74,15,201,,75,00,246,,83,18,128,,84,46,069,29*61
$GLGSV,3,3,11,85,27,005,40,,,,37,,,,39*52
$GNGLL,0419.71117,S,05539.81370,E,120429.00,A,D*69
$GNGRS,120429.00,1,5.0,0.9,0.7,1.7,-2.4,-7.7,-4.2,0.7,0.2,,,*57
$GNGRS,120429.00,1,5.4,18.6,-0.1,-4.1,-1.4,-16.0,,,,,,*54
$GNGST,120429.00,38,,,,1.5,1.7,3.6*49
$GNZDA,120429.00,19,05,2025,00,00*7C
$GNGBS,120429.00,1.5,1.7,3.6,,,,*54
b0L
'aB)Z(E)^
" !?l)! )H_o{4'Ta#:R fF"`=G"6HJI
JKST.EU'n"%b|$GNRMC,120430.00,A,0419.71118,S,05539.81370,E,0.022,,190525,,,D*7D
$GNVTG,,T,,M,0.022,N,0.042,K,D*3E
$GNGNS,120430.00,0419.71118,S,05539.81370,E,DA,15,0.66,12.4,-47.6,,0000*6A
$GNGGA,120430.00,0419.71118,S,05539.81370,E,2,12,0.66,12.4,M,-47.6,M,,0000*41
$GNGSA,A,3,29,10,32,26,18,28,31,16,27,,,,1.63,0.66,1.49*18
$GNGSA,A,3,70,73,84,71,85,72,,,,,,,1.63,0.66,1.49*15
$GPGSV,4,1,15,10,20,353,39,16,25,254,41,18,31,069,40,23,05,030,41*70
$GPGSV,4,2,15,25,03,133,,26,29,223,34,27,33,319,32,28,41,165,30*74
$GPGSV,4,3,15,29,24,146,33,31,26,195,24,32,72,351,41,36,52,277,*7F
$GPGSV,4,4,15,40,84,353,39,41,58,082,35,49,32,274,*43
$GLGSV,3,1,11,70,34,352,31,71,54,285,34,72,23,228,30,73,14,155,10*60
$GLGSV,3,2,11,74,15,201,,75,00,246,,83,18,128,,84,46,069,29*61
$GLGSV,3,3,11,85,27,005,39,,,,34,,,,37*51
$GNGLL,0419.71118,S,05539.81370,E,120430.00,A,D*6E
$GNGRS,120430.00,1,3.9,0.7,1.1,0.2,-0.5,-1.0,-5.0,0.9,1.1,,,*50
$GNGRS,120430.00,1,5.7,7.8,2.0,2.3,-1.5,-14.6,,,,,,*6D
$GNGST,120430.00,111465,,,,1.5,1.7,3.6*4C
$GNZDA,120430.00,19,05,2025,00,00*74
$GNGBS,120430.00,1.5,1.7,3.6,,,,*5C
b0L
&aR#K"E'Y
! !?z"),  (H_u{"4%Ta#:R fF"`$G"6HIJKST.ErU'j&ib|$GNRMC,120431.00,A,0419.71115,S,05539.81371,E,0.024,,190525,,,D*76
$GNVTG,,T,,M,0.024,N,0.045,K,D*3F
$GNGNS,120431.00,0419.71115,S,05539.81371,E,DA,15,0.66,12.5,-47.6,,0000*66
$GNGGA,120431.00,0419.71115,S,05539.81371,E,2,12,0.66,12.5,M,-47.6,M,,0000*4D
$GNGSA,A,3,29,10,32,26,18,28,31,16,27,,,,1.63,0.66,1.49*18
$GNGSA,A,3,70,73,84,71,85,72,,,,,,,1.63,0.66,1.49*15
$GPGSV,4,1,15,10,20,353,38,16,25,254,35,18,31,069,34,23,05,030,39*7E
$GPGSV,4,2,15,25,03,133,,26,29,223,33,27,33,319,32,28,41,165,34*77
$GPGSV,4,3,15,29,24,146,32,31,26,195,24,32,72,351,40,36,52,277,34*78
$GPGSV,4,4,15,40,84,353,37,41,58,082,35,49,32,274,*4D
$GLGSV,3,1,11,70,34,352,29,71,54,285,34,72,23,228,29,73,14,155,14*65
$GLGSV,3,2,11,74,15,201,,75,00,246,,83,18,128,,84,46,069,30*69
$GLGSV,3,3,11,85,27,005,39,,,,31,,,,38*5B
$GNGLL,0419.71115,S,05539.81371,E,120431.00,A,D*63
$GNGRS,120431.00,1,-1.0,0.8,1.2,-1.3,-0.6,-2.1,-3.6,0.8,3.8,,,*5D
$GNGRS,120431.00,1,5.5,7.7,6.3,-3.5,-1.5,-6.0,,,,,,*79
$GNGST,120431.00,167197,,,,1.5,1.7,3.5*47
$GNZDA,120431.00,19,05,2025,00,00*75
$GNGBS,120431.00,1.5,1.7,3.5,,,,*5E
b0L
)a,&,%E)H
!$!?} )/! )H_‾{$4&Ta#:R fF"`G"6HPIJKST.EU'‾&b|D$GNRMC,120432.00,A,0419.71113,S,05539.81370,E,0.022,,190525,,,D*74
$GNVTG,,T,,M,0.022,N,0.041,K,D*3D
$GNGNS,120432.00,0419.71113,S,05539.81370,E,DA,15,0.66,12.6,-47.6,,0000*61
$GNGGA,120432.00,0419.71113,S,05539.81370,E,2,12,0.66,12.6,M,-47.6,M,,0000*4A
$GNGSA,A,3,29,10,32,26,18,28,31,16,27,,,,1.63,0.66,1.49*18
$GNGSA,A,3,70,73,84,71,85,72,,,,,,,1.63,0.66,1.49*15
$GPGSV,4,1,15,10,20,353,41,16,25,254,38,18,31,069,37,23,05,030,41*71
$GPGSV,4,2,15,25,03,133,,26,29,223,33,27,33,319,36,28,41,165,32*75
$GPGSV,4,3,15,29,24,146,33,31,26,195,24,32,72,351,41,36,52,277,36*7A
$GPGSV,4,4,15,40,84,353,38,41,58,082,35,49,32,274,*42
$GLGSV,3,1,11,70,34,352,24,71,54,285,34,72,23,228,29,73,14,155,19*65
$GLGSV,3,2,11,74,15,201,,75,00,246,,83,18,128,,84,46,069,29*61
$GLGSV,3,3,11,85,27,005,39,,,,26,,,,38*5D
$GNGLL,0419.71113,S,05539.81370,E,120432.00,A,D*67
$GNGRS,120432.00,1,1.3,0.4,1.3,2.5,-0.3,-2.1,2.1,0.4,3.8,,,*77
$GNGRS,120432.00,1,11.7,1.6,4.9,-0.6,-1.3,-6.9,,,,,,*4D
$GNGST,120432.00,33,,,,1.5,1.7,3.5*4B
$GNZDA,120432.00,19,05,2025,00,00*76
$GNGBS,120432.00,1.5,1.7,3.5,,,,*5D
b0L
'a%%E*Q
"!!?")q$Y )H_o{"4&Ta$:R fF"`iG"6HIJKST.E^U)'b|m$GNRMC,120433.00,A,0419.71111,S,05539.81369,E,0.005,,190525,,,D*7A
$GNVTG,,T,,M,0.005,N,0.009,K,D*34
$GNGNS,120433.00,0419.71111,S,05539.81369,E,DA,15,0.66,12.7,-47.6,,0000*6B
$GNGGA,120433.00,0419.71111,S,05539.81369,E,2,12,0.66,12.7,M,-47.6,M,,0000*40
$GNGSA,A,3,29,10,32,26,18,28,31,16,27,,,,1.63,0.66,1.49*18
$GNGSA,A,3,70,73,84,71,85,72,,,,,,,1.63,0.66,1.49*15
$GPGSV,4,1,15,10,20,353,39,16,25,254,37,18,31,069,37,23,05,030,42*72
$GPGSV,4,2,15,25,03,133,,26,29,223,34,27,33,319,33,28,41,165,34*71
$GPGSV,4,3,15,29,24,146,36,31,26,195,23,32,72,351,41,36,52,277,34*7A
$GPGSV,4,4,15,40,84,353,38,41,58,082,36,49,32,274,*41
$GLGSV,3,1,11,70,34,352,25,71,54,285,34,72,23,228,28,73,14,155,16*6A
$GLGSV,3,2,11,74,15,201,,75,00,246,,83,18,128,,84,46,069,30*69
$GLGSV,3,3,11,85,27,005,41,,,,28,,,,39*5D
$GNGLL,0419.71111,S,05539.81369,E,120433.00,A,D*6C
$GNGRS,120433.00,1,-0.5,0.3,1.1,0.1,-0.1,-1.4,0.9,0.2,4.9,,,*51
$GNGRS,120433.00,1,6.2,7.6,0.9,-1.1,-0.9,-10.2,,,,,,*4C
$GNGST,120433.00,35,,,,1.5,1.7,3.5*4C
$GNZDA,120433.00,19,05,2025,00,00*77
$GNGBS,120433.00,1.5,1.7,3.5,,,,*5C
b0L
$a%$E+2
""!?V#)m"} )H_O{$4&Ta$:R fF"`G"6oHILJKST.EMU& $0bm|E$GNRMC,120434.00,A,0419.71110,S,05539.81368,E,0.003,,190525,,,D*7B
$GNVTG,,T,,M,0.003,N,0.005,K,D*3E
$GNGNS,120434.00,0419.71110,S,05539.81368,E,DA,15,0.66,12.7,-47.6,,0000*6C
$GNGGA,120434.00,0419.71110,S,05539.81368,E,2,12,0.66,12.7,M,-47.6,M,,0000*47
$GNGSA,A,3,29,10,32,26,18,28,31,16,27,,,,1.63,0.66,1.50*10
$GNGSA,A,3,70,73,84,71,85,72,,,,,,,1.63,0.66,1.50*1D
$GPGSV,4,1,15,10,20,353,36,16,25,254,37,18,31,069,36,23,05,030,43*7D
$GPGSV,4,2,15,25,03,133,,26,29,223,34,27,33,319,34,28,41,165,35*77
$GPGSV,4,3,15,29,24,146,34,31,26,195,22,32,72,351,41,36,52,277,36*7B
$GPGSV,4,4,15,40,84,353,38,41,58,082,36,49,32,274,*41
$GLGSV,3,1,11,70,34,352,24,71,54,285,34,72,23,228,28,73,14,155,17*6A
$GLGSV,3,2,11,74,15,201,,75,00,246,,83,18,128,,84,46,069,30*69
$GLGSV,3,3,11,85,27,005,38,,,,32,,,,36*57
$GNGLL,0419.71110,S,05539.81368,E,120434.00,A,D*6B
$GNGRS,120434.00,1,-0.9,-0.1,0.8,0.2,0.1,-1.5,1.3,0.2,0.9,,,*5D
$GNGRS,120434.00,1,4.9,8.4,-1.8,1.1,-0.6,-8.6,,,,,,*7D
$GNGST,120434.00,33,,,,1.5,1.7,3.5*4D
$GNZDA,120434.00,19,05,2025,00,00*70
$GNGBS,120434.00,1.5,1.7,3.5,,,,*5B
b0L
(a%$E**
":"!? )!c (H_F{"4%Ta%:R fF"`G"6HIJKST.EEU( '+bU|$GNRMC,120435.00,A,0419.71110,S,05539.81369,E,0.016,,190525,,,D*7F
$GNVTG,,T,,M,0.016,N,0.030,K,D*3C
$GNGNS,120435.00,0419.71110,S,05539.81369,E,DA,15,0.66,12.8,-47.6,,0000*63
$GNGGA,120435.00,0419.71110,S,05539.81369,E,2,12,0.66,12.8,M,-47.6,M,,0000*48
$GNGSA,A,3,29,10,32,26,18,28,31,16,27,,,,1.63,0.66,1.50*10
$GNGSA,A,3,70,73,84,71,85,72,,,,,,,1.63,0.66,1.50*1D
$GPGSV,4,1,15,10,20,353,40,16,25,254,37,18,31,069,36,23,05,030,42*7D
$GPGSV,4,2,15,25,03,133,,26,29,223,34,27,33,319,34,28,41,165,32*70
$GPGSV,4,3,15,29,24,146,33,31,26,195,21,32,72,351,40,36,52,277,34*7C
$GPGSV,4,4,15,40,84,353,37,41,58,082,37,49,32,274,*4F
$GLGSV,3,1,11,70,34,352,25,71,54,285,34,72,24,228,29,73,14,155,16*6C
$GLGSV,3,2,11,74,15,201,,75,00,246,,83,18,128,,84,46,069,31*68
$GLGSV,3,3,11,85,27,005,40,,,,32,,,,39*57
$GNGLL,0419.71110,S,05539.81369,E,120435.00,A,D*6B
$GNGRS,120435.00,1,2.1,-0.2,0.7,0.6,0.2,0.3,1.0,0.0,-0.2,,,*7D
$GNGRS,120435.00,1,4.3,7.3,3.2,0.1,-0.4,-5.1,,,,,,*52
$GNGST,120435.00,33,,,,1.5,1.7,3.5*4C
$GNZDA,120435.00,19,05,2025,00,00*71
$GNGBS,120435.00,1.5,1.7,3.5,,,,*5A
b0Lp
(a%$E*$
"!!?] )! (H_`{"4&Ta$:R fF"`FG!6HItJKST.EU( 'xbp=|$GNRMC,120436.00,A,0419.71109,S,05539.81369,E,0.026,,190525,,,D*77
$GNVTG,,T,,M,0.026,N,0.048,K,D*30
$GNGNS,120436.00,0419.71109,S,05539.81369,E,DA,15,0.66,12.9,-47.6,,0000*69
$GNGGA,120436.00,0419.71109,S,05539.81369,E,2,12,0.66,12.9,M,-47.6,M,,0000*42
$GNGSA,A,3,29,10,32,26,18,28,31,16,27,,,,1.63,0.66,1.50*10
$GNGSA,A,3,70,73,84,71,85,72,,,,,,,1.63,0.66,1.50*1D
$GPGSV,4,1,15,10,20,353,40,16,25,254,37,18,31,069,36,23,05,030,42*7D
$GPGSV,4,2,15,25,03,133,,26,29,223,34,27,33,319,33,28,41,165,32*77
$GPGSV,4,3,15,29,24,146,33,31,26,195,20,32,72,351,40,36,52,277,34*7D
$GPGSV,4,4,15,40,84,353,38,41,58,082,36,49,32,274,*41
$GLGSV,3,1,11,70,34,352,25,71,54,285,33,72,24,228,30,73,14,155,18*6D
$GLGSV,3,2,11,74,15,201,,75,00,246,,83,18,128,,84,46,069,31*68
$GLGSV,3,3,11,85,27,005,40,,,,32,,,,39*57
$GNGLL,0419.71109,S,05539.81369,E,120436.00,A,D*60
$GNGRS,120436.00,1,-1.0,0.0,1.0,0.2,0.2,-1.0,2.5,-0.1,3.5,,,*50
$GNGRS,120436.00,1,5.8,3.7,7.0,-0.4,-0.1,-1.3,,,,,,*76
$GNGST,120436.00,31,,,,1.4,1.7,3.4*4D
$GNZDA,120436.00,19,05,2025,00,00*72
$GNGBS,120436.00,1.4,1.7,3.4,,,,*59
b0LX

&a $$E(C
!!!?& )"T (H_Z{!4&Ta$:R fF"`G 6HI1JKST.EU(''bX
%|Z$GNRMC,120437.00,A,0419.71107,S,05539.81370,E,0.024,,190525,,,D*72
$GNVTG,,T,,M,0.024,N,0.044,K,D*3E
$GNGNS,120437.00,0419.71107,S,05539.81370,E,DA,15,0.66,13.0,-47.6,,0000*66
$GNGGA,120437.00,0419.71107,S,05539.81370,E,2,12,0.66,13.0,M,-47.6,M,,0000*4D
$GNGSA,A,3,29,10,32,26,18,28,31,16,27,,,,1.63,0.66,1.50*10
$GNGSA,A,3,70,73,84,71,85,72,,,,,,,1.63,0.66,1.50*1D
$GPGSV,4,1,15,10,20,353,38,16,25,254,36,18,31,069,36,23,05,030,40*71
$GPGSV,4,2,15,25,03,133,,26,29,223,33,27,33,319,33,28,41,165,32*70
$GPGSV,4,3,15,29,24,146,34,31,26,195,19,32,72,351,40,36,52,277,33*77
$GPGSV,4,4,15,40,84,353,38,41,58,082,36,49,32,274,*41
$GLGSV,3,1,11,70,34,352,25,71,54,285,32,72,24,228,29,73,14,155,18*64
$GLGSV,3,2,11,74,15,201,,75,00,246,,83,18,128,,84,46,069,31*68
$GLGSV,3,3,11,85,27,005,40,,,,30,,,,39*55
$GNGLL,0419.71107,S,05539.81370,E,120437.00,A,D*67
$GNGRS,120437.00,1,0.8,0.3,0.9,-0.9,0.0,-2.8,1.6,0.1,2.9,,,*71
$GNGRS,120437.00,1,4.2,3.0,2.4,-0.5,0.4,-8.0,,,,,,*59
$GNGST,120437.00,28,,,,1.4,1.7,3.4*44
$GNZDA,120437.00,19,05,2025,00,00*73
$GNGBS,120437.00,1.4,1.7,3.4,,,,*58
b0L@
&a$$E)L
!"!? )# 'H_[{!4'Ta%:R fF"`-G!6HITJKST.EU)M'b@|$GNRMC,120438.00,A,0419.71104,S,05539.81370,E,0.030,,190525,,,D*7B
$GNVTG,,T,,M,0.030,N,0.056,K,D*38
$GNGNS,120438.00,0419.71104,S,05539.81370,E,DA,15,0.66,13.1,-47.6,,0000*6B
$GNGGA,120438.00,0419.71104,S,05539.81370,E,2,12,0.66,13.1,M,-47.6,M,,0000*40
$GNGSA,A,3,29,10,32,26,18,28,31,16,27,,,,1.63,0.66,1.50*10
$GNGSA,A,3,70,73,84,71,85,72,,,,,,,1.63,0.66,1.50*1D
$GPGSV,4,1,15,10,20,353,38,16,25,254,36,18,31,069,36,23,05,030,41*70
$GPGSV,4,2,15,25,03,133,,26,29,223,33,27,33,319,34,28,41,165,32*77
$GPGSV,4,3,15,29,24,146,35,31,26,195,17,32,72,351,39,36,52,277,33*76
$GPGSV,4,4,15,40,84,353,39,41,58,082,37,49,32,274,*41
$GLGSV,3,1,11,70,34,352,25,71,54,285,33,72,24,228,30,73,14,155,19*6C
$GLGSV,3,2,11,74,15,201,,75,00,246,,83,18,128,,84,46,069,31*68
$GLGSV,3,3,11,85,27,005,41,,,,31,,,,39*55
$GNGLL,0419.71104,S,05539.81370,E,120438.00,A,D*6B
$GNGRS,120438.00,1,0.0,0.3,0.9,-0.9,-0.3,0.3,2.5,-0.1,2.1,,,*59
$GNGRS,120438.00,1,5.6,0.8,2.2,-0.9,0.8,-8.6,,,,,,*58
$GNGST,120438.00,32,,,,1.4,1.7,3.4*40
$GNZDA,120438.00,19,05,2025,00,00*7C
$GNGBS,120438.00,1.4,1.7,3.4,,,,*57
b0L(
'a!$'E)
 !!? )E#5] 'H_Y{"4'Ta%:R fF"`G!6HIUJKST.EoU(F&ucb(|}'$GNRMC,120439.00,A,0419.71102,S,05539.81371,E,0.012,,190525,,,D*7D
$GNVTG,,T,,M,0.012,N,0.022,K,D*3B
$GNGNS,120439.00,0419.71102,S,05539.81371,E,DA,15,0.66,13.2,-47.6,,0000*6E
$GNGGA,120439.00,0419.71102,S,05539.81371,E,2,12,0.66,13.2,M,-47.6,M,,0000*45
$GNGSA,A,3,29,10,32,26,18,28,31,16,27,,,,1.63,0.66,1.50*10
$GNGSA,A,3,70,73,84,71,85,72,,,,,,,1.63,0.66,1.50*1D
$GPGSV,4,1,15,10,20,353,39,16,25,254,36,18,31,069,39,23,05,031,41*7F
$GPGSV,4,2,15,25,03,133,,26,29,223,32,27,33,319,33,28,41,165,32*71
$GPGSV,4,3,15,29,24,146,35,31,26,195,17,32,72,351,39,36,52,277,34*71
$GPGSV,4,4,15,40,84,353,39,41,58,082,37,49,32,274,*41
$GLGSV,3,1,11,70,34,352,26,71,54,285,33,72,24,228,28,73,14,155,18*67
$GLGSV,3,2,11,74,15,201,,75,00,246,,83,18,128,,84,46,069,30*69
$GLGSV,3,3,11,85,27,005,40,,,,30,,,,38*54
$GNGLL,0419.71102,S,05539.81371,E,120439.00,A,D*6D
$GNGRS,120439.00,1,0.5,0.3,0.9,-0.9,0.0,-1.9,0.9,-0.3,1.9,,,*52
$GNGRS,120439.00,1,4.6,-1.7,3.7,-1.0,0.7,-8.6,,,,,,*78
$GNGST,120439.00,34,,,,1.4,1.6,3.4*46
$GNZDA,120439.00,19,05,2025,00,00*7D
$GNGBS,120439.00,1.4,1.6,3.4,,,,*57
b0L
(a<$&E(
 !!?")# )H_d{"4'Ta$:R fF"`@G"6HsI5JKST.EU)O(b|U$GNRMC,120440.00,A,0419.71100,S,05539.81372,E,0.016,,190525,,,D*76
$GNVTG,,T,,M,0.016,N,0.030,K,D*3C
$GNGNS,120440.00,0419.71100,S,05539.81372,E,DA,15,0.66,13.2,-47.6,,0000*61
$GNGGA,120440.00,0419.71100,S,05539.81372,E,2,12,0.66,13.2,M,-47.6,M,,0000*4A
$GNGSA,A,3,29,10,32,26,18,28,31,16,27,,,,1.63,0.66,1.50*10
$GNGSA,A,3,70,73,84,71,85,72,,,,,,,1.63,0.66,1.50*1D
$GPGSV,4,1,15,10,20,353,40,16,25,254,36,18,31,069,38,23,05,031,40*71
$GPGSV,4,2,15,25,03,133,,26,29,223,32,27,33,319,33,28,41,165,34*77
$GPGSV,4,3,15,29,24,146,35,31,26,195,19,32,72,351,41,36,52,277,34*70
$GPGSV,4,4,15,40,84,353,39,41,58,082,36,49,32,274,*40
$GLGSV,3,1,11,70,34,352,26,71,54,285,34,72,24,228,27,73,14,155,19*6E
$GLGSV,3,2,11,74,15,201,,75,00,246,,83,18,128,,84,46,069,31*68
$GLGSV,3,3,11,85,27,005,41,,,,30,,,,40*5A
$GNGLL,0419.71100,S,05539.81372,E,120440.00,A,D*62
$GNGRS,120440.00,1,0.2,0.6,1.0,-0.8,-0.2,0.1,1.6,-0.3,1.7,,,*5C
$GNGRS,120440.00,1,3.2,-2.0,3.9,-1.0,0.8,-11.6,,,,,,*48
$GNGST,120440.00,28,,,,1.4,1.6,3.4*45
$GNZDA,120440.00,19,05,2025,00,00*73
$GNGBS,120440.00,1.4,1.6,3.4,,,,*59
b0L
'aG%(E*
!3"!?!)%1 (H_¥{#4(Ta&:R fF"`WG 6HIJKST.EU&i'2b|0$GNRMC,120441.00,A,0419.71099,S,05539.81373,E,0.014,,190525,,,D*75
$GNVTG,,T,,M,0.014,N,0.027,K,D*38
$GNGNS,120441.00,0419.71099,S,05539.81373,E,DA,15,0.66,13.3,-47.6,,0000*61
$GNGGA,120441.00,0419.71099,S,05539.81373,E,2,12,0.66,13.3,M,-47.6,M,,0000*4A
$GNGSA,A,3,29,10,32,26,18,28,31,16,27,,,,1.63,0.66,1.50*10
$GNGSA,A,3,70,73,84,71,85,72,,,,,,,1.63,0.66,1.50*1D
$GPGSV,4,1,15,10,20,353,39,16,25,254,37,18,31,069,40,23,05,031,42*73
$GPGSV,4,2,15,25,03,132,,26,29,223,33,27,33,319,34,28,41,165,33*77
$GPGSV,4,3,15,29,24,146,37,31,26,195,22,32,72,351,40,36,52,277,35*7A
$GPGSV,4,4,15,40,84,353,40,41,58,082,38,49,32,274,*40
$GLGSV,3,1,11,70,34,352,28,71,54,285,32,72,24,228,28,73,14,155,22*61
$GLGSV,3,2,11,74,15,201,,75,00,246,,83,18,128,,84,46,069,29*61
$GLGSV,3,3,11,85,27,005,38,,,,28,,,,39*53
$GNGLL,0419.71099,S,05539.81373,E,120441.00,A,D*63
$GNGRS,120441.00,1,0.5,0.7,0.9,-2.1,-0.2,-0.9,1.5,-0.2,1.8,,,*70
$GNGRS,120441.00,1,3.4,-0.3,9.3,0.1,1.1,-10.4,,,,,,*68
$GNGST,120441.00,30,,,,1.4,1.6,3.4*4D
$GNZDA,120441.00,19,05,2025,00,00*72
$GNGBS,120441.00,1.4,1.6,3.4,,,,*58
b0L
(aN%&E)
!{"!?!)
&, (H_`{"4(Ta&:R f(F"`G 6lHHIUJKST.EXU'b'b|t$GNRMC,120442.00,A,0419.71097,S,05539.81374,E,0.022,,190525,,,D*7A
$GNVTG,,T,,M,0.022,N,0.041,K,D*3D
$GNGNS,120442.00,0419.71097,S,05539.81374,E,DA,15,0.66,13.3,-47.6,,0000*6B
$GNGGA,120442.00,0419.71097,S,05539.81374,E,2,12,0.66,13.3,M,-47.6,M,,0000*40
$GNGSA,A,3,29,10,32,26,18,28,31,16,27,,,,1.63,0.66,1.50*10
$GNGSA,A,3,70,73,84,71,85,72,,,,,,,1.63,0.66,1.50*1D
$GPGSV,4,1,15,10,20,353,40,16,25,254,37,18,31,069,38,23,05,031,41*71
$GPGSV,4,2,15,25,03,132,,26,29,223,33,27,33,319,34,28,41,165,33*77
$GPGSV,4,3,15,29,24,146,38,31,26,195,21,32,72,351,40,36,52,277,34*77
$GPGSV,4,4,15,40,84,353,40,41,58,082,38,49,32,274,*40
$GLGSV,3,1,11,70,34,352,27,71,54,285,32,72,24,228,27,73,14,155,21*62
$GLGSV,3,2,11,74,15,201,,75,00,246,,83,18,128,,84,46,069,29*61
$GLGSV,3,3,11,85,27,005,39,,,,29,,,,39*53
$GNGLL,0419.71097,S,05539.81374,E,120442.00,A,D*69
$GNGRS,120442.00,1,0.4,0.8,1.0,-6.5,-0.3,0.1,4.9,0.0,1.7,,,*78
$GNGRS,120442.00,1,2.4,-1.7,6.0,-4.0,1.0,-9.5,,,,,,*73
$GNGST,120442.00,32,,,,1.4,1.7,3.5*4C
$GNZDA,120442.00,19,05,2025,00,00*71
$GNGBS,120442.00,1.4,1.7,3.5,,,,*5B
b0L!
%aS$%E'
q"? )": $H_^{!4'Ta$:R f)F"`(G 6HHIaJKST.EU&d'7$b!}$GNRMC,120443.00,A,0419.71096,S,05539.81374,E,0.071,,190525,,,D*7C
$GNVTG,,T,,M,0.071,N,0.132,K,D*3E
$GNGNS,120443.00,0419.71096,S,05539.81374,E,DA,15,0.66,13.3,-47.6,,0000*6B
$GNGGA,120443.00,0419.71096,S,05539.81374,E,2,12,0.66,13.3,M,-47.6,M,,0000*40
$GNGSA,A,3,29,10,32,26,18,28,31,16,27,,,,1.63,0.66,1.50*10
$GNGSA,A,3,70,73,84,71,85,72,,,,,,,1.63,0.66,1.50*1D
$GPGSV,4,1,15,10,20,353,37,16,25,254,36,18,31,069,37,23,05,031,39*70
$GPGSV,4,2,15,25,03,132,,26,29,223,31,27,34,319,31,28,41,165,32*76
$GPGSV,4,3,15,29,24,146,34,31,26,195,17,32,72,351,36,36,52,277,33*78
$GPGSV,4,4,15,40,84,353,39,41,58,082,36,49,32,274,*40
$GLGSV,3,1,11,70,34,352,28,71,54,285,32,72,24,228,26,73,14,155,19*67
$GLGSV,3,2,11,74,15,201,,75,00,246,,83,18,128,,84,46,069,29*61
$GLGSV,3,3,11,85,27,005,38,,,,28,,,,39*53
$GNGLL,0419.71096,S,05539.81374,E,120443.00,A,D*69
$GNGRS,120443.00,1,0.6,0.8,0.9,-4.0,-0.4,-0.2,7.9,0.0,2.5,,,*5F
$GNGRS,120443.00,1,3.0,-1.6,5.1,-4.4,1.0,-6.3,,,,,,*79
$GNGST,120443.00,35,,,,1.5,1.7,3.5*4B
$GNZDA,120443.00,19,05,2025,00,00*70
$GNGBS,120443.00,1.5,1.7,3.5,,,,*5B
b0L%
'a?"$E$
""?*#" "H_j{ 4&Ta":R f$(F"`G!6HIJKST.EU)a(b%}}"$GNRMC,120444.00,A,0419.71094,S,05539.81374,E,0.028,,190525,,,D*75
$GNVTG,,T,,M,0.028,N,0.051,K,D*36
$GNGNS,120444.00,0419.71094,S,05539.81374,E,DA,14,0.68,13.2,-47.6,,0000*60
$GNGGA,120444.00,0419.71094,S,05539.81374,E,2,12,0.68,13.2,M,-47.6,M,,0000*4A
$GNGSA,A,3,29,10,32,26,18,28,16,27,,,,,1.64,0.68,1.50*1B
$GNGSA,A,3,70,73,84,71,85,72,,,,,,,1.64,0.68,1.50*14
$GPGSV,4,1,15,10,20,353,39,16,25,254,34,18,31,069,36,23,05,031,36*72
$GPGSV,4,2,15,25,03,132,,26,29,223,27,27,34,319,34,28,42,164,31*75
$GPGSV,4,3,15,29,24,146,35,31,26,195,07,32,72,351,34,36,52,277,32*7B
$GPGSV,4,4,15,40,84,353,38,41,58,082,34,49,32,274,*43
$GLGSV,3,1,11,70,34,352,31,71,54,285,33,72,24,228,24,73,14,155,17*62
$GLGSV,3,2,11,74,15,201,,75,00,246,,83,18,128,,84,46,069,30*69
$GLGSV,3,3,11,85,27,005,41,,,,26,,,,40*5D
$GNGLL,0419.71094,S,05539.81374,E,120444.00,A,D*6C
$GNGRS,120444.00,1,0.3,0.6,1.1,-0.4,-0.3,1.6,0.0,1.8,,,,*5B
$GNGRS,120444.00,1,6.5,-3.2,1.7,-3.9,1.0,-10.3,,,,,,*47
$GNGST,120444.00,30,,,,1.5,1.7,3.6*4A
$GNZDA,120444.00,19,05,2025,00,00*77
$GNGBS,120444.00,1.5,1.7,3.6,,,,*5F
b0L)
 aBE"
+"?*[3 H_I{4!Ta:R f(F"`G6`HIJKST.ENU#¥"b)e}$GNRMC,120445.00,A,0419.71093,S,05539.81374,E,0.041,,190525,,,D*7C
$GNVTG,,T,,M,0.041,N,0.076,K,D*3C
$GNGNS,120445.00,0419.71093,S,05539.81374,E,DA,14,0.68,13.3,-47.6,,0000*67
$GNGGA,120445.00,0419.71093,S,05539.81374,E,2,12,0.68,13.3,M,-47.6,M,,0000*4D
$GNGSA,A,3,29,10,32,26,18,28,16,27,,,,,1.64,0.68,1.50*1B
$GNGSA,A,3,70,73,84,71,85,72,,,,,,,1.64,0.68,1.50*14
$GPGSV,4,1,15,10,20,353,32,16,25,254,30,18,31,069,30,23,05,031,30*7D
$GPGSV,4,2,15,25,03,132,,26,29,223,27,27,34,319,30,28,42,164,26*77
$GPGSV,4,3,15,29,23,146,28,31,26,195,07,32,72,351,30,36,52,277,27*70
$GPGSV,4,4,15,40,84,353,33,41,58,082,30,49,32,274,*4C
$GLGSV,3,1,11,70,34,352,25,71,54,285,27,72,24,228,23,73,14,155,16*64
$GLGSV,3,2,11,74,15,201,,75,00,246,,83,18,128,,84,46,069,28*60
$GLGSV,3,3,11,85,27,005,35,,,,25,,,,34*5E
$GNGLL,0419.71093,S,05539.81374,E,120445.00,A,D*6A
$GNGRS,120445.00,1,2.4,0.7,0.7,-4.7,-0.4,0.9,-0.1,3.9,,,,*78
$GNGRS,120445.00,1,8.0,-3.2,0.8,-4.2,0.9,-11.4,,,,,,*41
$GNGST,120445.00,35,,,,1.5,1.7,3.7*4F
$GNZDA,120445.00,19,05,2025,00,00*76
$GNGBS,120445.00,1.5,1.7,3.7,,,,*5F
b0L-
)a>$%E'
#"?h *Y" %H_x{!4'Ta":R f+-F "`G!6dHmI)JKST.EU*`*Vb-M}e$GNRMC,120446.00,A,0419.71090,S,05539.81374,E,0.053,,190525,,,D*7F
$GNVTG,,T,,M,0.053,N,0.098,K,D*3F
$GNGNS,120446.00,0419.71090,S,05539.81374,E,DA,15,0.66,13.2,-47.6,,0000*69
$GNGGA,120446.00,0419.71090,S,05539.81374,E,2,12,0.66,13.2,M,-47.6,M,,0000*42
$GNGSA,A,3,29,10,32,26,18,28,31,16,27,,,,1.63,0.66,1.50*10
$GNGSA,A,3,70,73,84,71,85,72,,,,,,,1.63,0.66,1.50*1D
$GPGSV,4,1,15,10,20,353,41,16,25,254,36,18,31,069,37,23,05,031,39*71
$GPGSV,4,2,15,25,03,132,,26,29,223,28,27,34,319,35,28,42,164,32*78
$GPGSV,4,3,15,29,23,146,34,31,26,195,15,32,72,351,37,36,52,277,33*7C
$GPGSV,4,4,15,40,84,353,39,41,58,082,34,49,32,274,*42
$GLGSV,3,1,11,70,34,352,32,71,54,285,33,72,24,228,24,73,14,155,16*60
$GLGSV,3,2,11,74,15,201,,75,00,246,,83,18,128,,84,46,069,29*61
$GLGSV,3,3,11,85,27,005,42,,,,25,,,,42*5F
$GNGLL,0419.71090,S,05539.81374,E,120446.00,A,D*6A
$GNGRS,120446.00,1,0.3,0.6,1.2,-5.8,-0.8,0.9,7.7,0.2,1.0,,,*72
$GNGRS,120446.00,1,10.0,-2.1,1.4,-6.7,1.0,-11.7,,,,,,*78
$GNGST,120446.00,77406,,,,1.5,1.7,3.7*78
$GNZDA,120446.00,19,05,2025,00,00*75
$GNGBS,120446.00,1.5,1.7,3.7,,,,*5C
b0Lh1
'a-#%E%
#"?, *" %H_{!4&Ta":R f+F "`G!6aHyIJKST.EU*>*bh15}=Z$GNRMC,120447.00,A,0419.71087,S,05539.81375,E,0.021,,190525,,,D*7C
$GNVTG,,T,,M,0.021,N,0.038,K,D*30
$GNGNS,120447.00,0419.71087,S,05539.81375,E,DA,14,0.68,13.2,-47.6,,0000*60
$GNGGA,120447.00,0419.71087,S,05539.81375,E,2,12,0.68,13.2,M,-47.6,M,,0000*4A
$GNGSA,A,3,29,10,32,26,18,28,16,27,,,,,1.64,0.68,1.50*1B
$GNGSA,A,3,70,73,84,71,85,72,,,,,,,1.64,0.68,1.50*14
$GPGSV,4,1,15,10,20,353,39,16,25,254,35,18,31,069,37,23,05,031,37*73
$GPGSV,4,2,15,25,03,132,,26,29,223,29,27,34,319,35,28,42,164,32*79
$GPGSV,4,3,15,29,23,146,34,31,26,194,08,32,72,351,37,36,52,277,33*71
$GPGSV,4,4,15,40,84,353,38,41,58,082,34,49,32,274,*43
$GLGSV,3,1,11,70,34,352,32,71,54,285,33,72,24,228,24,73,14,155,16*60
$GLGSV,3,2,11,74,15,201,,75,00,246,,83,18,128,,84,46,069,29*61
$GLGSV,3,3,11,85,27,005,42,,,,26,,,,42*5C
$GNGLL,0419.71087,S,05539.81375,E,120447.00,A,D*6C
$GNGRS,120447.00,1,2.0,0.4,1.7,-2.3,-0.9,-3.8,0.1,3.0,,,,*78
$GNGRS,120447.00,1,10.1,-2.7,2.1,-4.1,0.6,-11.6,,,,,,*7A
$GNGST,120447.00,31,,,,1.5,1.7,3.7*49
$GNZDA,120447.00,19,05,2025,00,00*74
$GNGBS,120447.00,1.5,1.7,3.7,,,,*5D
b0LP5
%a$%E&
$"?*#% %G`{"4'Ta":R fz+F "`G!6HwIXJKST.EU)<(XbP5}$GNRMC,120448.00,A,0419.71086,S,05539.81375,E,0.052,,190525,,,D*76
$GNVTG,,T,,M,0.052,N,0.096,K,D*30
$GNGNS,120448.00,0419.71086,S,05539.81375,E,DA,15,0.66,13.3,-47.6,,0000*60
$GNGGA,120448.00,0419.71086,S,05539.81375,E,2,12,0.66,13.3,M,-47.6,M,,0000*4B
$GNGSA,A,3,29,10,32,26,18,28,31,16,27,,,,1.63,0.66,1.50*10
$GNGSA,A,3,70,73,84,71,85,72,,,,,,,1.63,0.66,1.50*1D
$GPGSV,4,1,15,10,20,353,37,16,25,254,36,18,31,069,37,23,05,031,38*71
$GPGSV,4,2,15,25,03,132,,26,29,223,29,27,34,319,36,28,42,164,31*79
$GPGSV,4,3,15,29,23,146,35,31,26,194,12,32,71,352,37,36,52,277,34*7C
$GPGSV,4,4,15,40,84,353,39,41,58,082,34,49,32,274,*42
$GLGSV,3,1,11,70,34,352,32,71,54,285,33,72,24,228,24,73,14,155,16*60
$GLGSV,3,2,11,74,15,201,,75,00,246,,83,18,128,,84,46,069,29*61
$GLGSV,3,3,11,85,27,005,41,,,,26,,,,40*5D
$GNGLL,0419.71086,S,05539.81375,E,120448.00,A,D*62
$GNGRS,120448.00,1,1.7,0.2,1.7,-3.7,-1.0,-0.6,8.0,0.0,-0.3,,,*7F
$GNGRS,120448.00,1,7.2,-1.7,5.2,-0.6,0.6,-11.6,,,,,,*44
$GNGST,120448.00,38,,,,1.5,1.7,3.7*4F
$GNZDA,120448.00,19,05,2025,00,00*7B
$GNGBS,120448.00,1.5,1.7,3.7,,,,*52
b0L89
#a#&E%
(#"?*y#[ !G`{!4'Ta#:R f2-F"`G!6hHYIJKST.EU';%qb89}*$GNRMC,120449.00,A,0419.71085,S,05539.81374,E,0.035,,190525,,,D*74
$GNVTG,,T,,M,0.035,N,0.064,K,D*3C
$GNGNS,120449.00,0419.71085,S,05539.81374,E,DA,15,0.66,13.3,-47.6,,0000*63
$GNGGA,120449.00,0419.71085,S,05539.81374,E,2,12,0.66,13.3,M,-47.6,M,,0000*48
$GNGSA,A,3,29,10,32,26,18,28,31,16,27,,,,1.63,0.66,1.50*10
$GNGSA,A,3,70,73,84,71,85,72,,,,,,,1.63,0.66,1.50*1D
$GPGSV,4,1,15,10,20,353,35,16,25,254,35,18,31,069,38,23,05,031,37*70
$GPGSV,4,2,15,25,03,132,,26,29,223,29,27,34,319,35,28,42,164,31*7A
$GPGSV,4,3,15,29,23,146,35,31,26,194,14,32,71,352,33,36,52,277,33*79
$GPGSV,4,4,15,40,84,353,39,41,58,082,35,49,32,274,*43
$GLGSV,3,1,11,70,34,352,30,71,54,285,33,72,24,228,25,73,14,155,17*62
$GLGSV,3,2,11,74,15,201,,75,00,246,,83,18,128,,84,46,069,29*61
$GLGSV,3,3,11,85,27,005,39,,,,27,,,,37*53
$GNGLL,0419.71085,S,05539.81374,E,120449.00,A,D*61
$GNGRS,120449.00,1,-1.0,0.0,1.9,0.4,-1.2,-1.4,8.6,0.1,1.7,,,*5B
$GNGRS,120449.00,1,7.9,-2.3,4.2,-4.1,0.6,-11.9,,,,,,*44
$GNGST,120449.00,35,,,,1.5,1.7,3.8*4C
$GNZDA,120449.00,19,05,2025,00,00*7A
$GNGBS,120449.00,1.5,1.7,3.8,,,,*5C
b0L =
)a;$&Ew'
o%"? *$4 %G`{"4(Ta%:R fL.F"`G 6HvIJKST.E|U+*b =}$GNRMC,120450.00,A,0419.71084,S,05539.81375,E,0.015,,190525,,,D*7E
$GNVTG,,T,,M,0.015,N,0.028,K,D*36
$GNGNS,120450.00,0419.71084,S,05539.81375,E,DA,15,0.66,13.3,-47.6,,0000*6B
$GNGGA,120450.00,0419.71084,S,05539.81375,E,2,12,0.66,13.3,M,-47.6,M,,0000*40
$GNGSA,A,3,29,10,32,26,18,28,31,16,27,,,,1.64,0.66,1.50*17
$GNGSA,A,3,70,73,84,71,85,72,,,,,,,1.64,0.66,1.50*1A
$GPGSV,4,1,15,10,20,353,41,16,25,254,36,18,31,069,38,23,05,031,39*7E
$GPGSV,4,2,15,25,03,132,,26,29,223,31,27,34,319,37,28,42,164,32*72
$GPGSV,4,3,15,29,23,146,36,31,26,194,16,32,71,352,37,36,52,277,34*7B
$GPGSV,4,4,15,40,84,353,40,41,58,082,37,49,32,274,*4F
$GLGSV,3,1,11,70,34,352,31,71,54,285,32,72,24,228,26,73,14,155,17*61
$GLGSV,3,2,11,74,15,201,,75,00,246,,83,18,128,,84,46,069,29*61
$GLGSV,3,3,11,85,27,005,43,,,,27,,,,42*5C
$GNGLL,0419.71084,S,05539.81375,E,120450.00,A,D*69
$GNGRS,120450.00,1,0.5,0.6,2.2,-1.5,-1.4,-0.7,7.4,-0.1,-0.3,,,*55
$GNGRS,120450.00,1,2.4,-4.9,6.4,-7.8,0.2,-14.2,,,,,,*4C
$GNGST,120450.00,36,,,,1.5,1.7,3.8*47
$GNZDA,120450.00,19,05,2025,00,00*72
$GNGBS,120450.00,1.5,1.7,3.8,,,,*54
b0LA
)a:$&E(
%"? *|$E &G`{"4(Ta%:R f/F!"`WG!60H:IQJKST.EU+*bA"}$GNRMC,120451.00,A,0419.71082,S,05539.81376,E,0.018,,190525,,,D*77
$GNVTG,,T,,M,0.018,N,0.033,K,D*31
$GNGNS,120451.00,0419.71082,S,05539.81376,E,DA,15,0.66,13.2,-47.6,,0000*6E
$GNGGA,120451.00,0419.71082,S,05539.81376,E,2,12,0.66,13.2,M,-47.6,M,,0000*45
$GNGSA,A,3,29,10,32,26,18,28,31,16,27,,,,1.64,0.66,1.50*17
$GNGSA,A,3,70,73,84,71,85,72,,,,,,,1.64,0.66,1.50*1A
$GPGSV,4,1,15,10,20,353,41,16,25,254,36,18,31,069,38,23,05,031,40*70
$GPGSV,4,2,15,25,03,132,,26,29,223,31,27,34,319,37,28,42,164,32*72
$GPGSV,4,3,15,29,23,146,36,31,26,194,18,32,71,352,38,36,52,277,34*7A
$GPGSV,4,4,15,40,84,353,40,41,58,082,37,49,32,274,*4F
$GLGSV,3,1,11,70,34,352,33,71,54,285,33,72,24,228,26,73,14,155,19*6C
$GLGSV,3,2,11,74,15,201,,75,00,246,,83,18,128,,84,46,069,29*61
$GLGSV,3,3,11,85,27,005,43,,,,27,,,,42*5C
$GNGLL,0419.71082,S,05539.81376,E,120451.00,A,D*6D
$GNGRS,120451.00,1,0.7,0.6,-0.8,-2.3,-0.7,-1.3,4.3,-0.1,1.9,,,*53
$GNGRS,120451.00,1,3.4,-4.3,4.3,-7.2,-0.1,-14.8,,,,,,*6D
$GNGST,120451.00,34,,,,1.4,1.7,3.8*45
$GNZDA,120451.00,19,05,2025,00,00*73
$GNGBS,120451.00,1.4,1.7,3.8,,,,*54
b0LD
'a>$&E*h
#"?*$ (G`C{"4(Ta&:R f0F "`G!6HI"JKST.EU()bD&}sP$GNRMC,120452.00,A,0419.71079,S,05539.81377,E,0.035,,190525,,,D*7E
$GNVTG,,T,,M,0.035,N,0.066,K,D*3E
$GNGNS,120452.00,0419.71079,S,05539.81377,E,DA,15,0.66,13.4,-47.6,,0000*6E
$GNGGA,120452.00,0419.71079,S,05539.81377,E,2,12,0.66,13.4,M,-47.6,M,,0000*45
$GNGSA,A,3,29,10,32,26,18,28,31,16,27,,,,1.64,0.66,1.50*17
$GNGSA,A,3,70,73,84,71,85,72,,,,,,,1.64,0.66,1.50*1A
$GPGSV,4,1,15,10,20,353,39,16,25,254,36,18,31,069,38,23,05,031,42*7D
$GPGSV,4,2,15,25,03,132,,26,29,223,31,27,34,319,35,28,42,164,30*72
$GPGSV,4,3,15,29,23,146,36,31,26,194,18,32,71,352,40,36,52,277,34*75
$GPGSV,4,4,15,40,84,353,40,41,58,082,38,49,32,274,*40
$GLGSV,3,1,11,70,34,352,32,71,54,285,33,72,24,228,26,73,14,155,18*6C
$GLGSV,3,2,11,74,15,201,,75,00,246,,83,18,128,,84,46,069,29*61
$GLGSV,3,3,11,85,27,005,40,,,,28,,,,41*53
$GNGLL,0419.71079,S,05539.81377,E,120452.00,A,D*6B
$GNGRS,120452.00,1,-0.2,0.6,0.7,-3.0,-0.8,-2.4,3.9,0.0,1.3,,,*78
$GNGRS,120452.00,1,7.9,-4.8,4.2,-7.7,-0.4,-14.1,,,,,,*64
$GNGST,120452.00,34,,,,1.4,1.7,3.7*49
$GNZDA,120452.00,19,05,2025,00,00*70
$GNGBS,120452.00,1.4,1.7,3.7,,,,*58
b0LH
%a@$%E!q
"$#"?#*%n )G`P{!4'Ta%:R fF"`>G!6kHINJKST.EU"  bH*}K$GNRMC,120453.00,A,0419.71075,S,05539.81378,E,0.017,,190525,,,D*7C
$GNVTG,,T,,M,0.017,N,0.031,K,D*3C
$GNGNS,120453.00,0419.71075,S,05539.81378,E,DA,15,0.66,13.4,-47.6,,0000*6C
$GNGGA,120453.00,0419.71075,S,05539.81378,E,2,12,0.66,13.4,M,-47.6,M,,0000*47
$GNGSA,A,3,29,10,32,26,18,28,31,16,27,,,,1.64,0.66,1.50*17
$GNGSA,A,3,70,73,84,71,85,72,,,,,,,1.64,0.66,1.50*1A
$GPGSV,4,1,15,10,20,353,37,16,25,254,36,18,31,069,37,23,05,031,33*7A
$GPGSV,4,2,15,25,03,132,,26,29,223,34,27,34,319,35,28,42,164,35*72
$GPGSV,4,3,15,29,23,146,37,31,26,194,17,32,71,352,41,36,52,277,33*7D
$GPGSV,4,4,15,40,84,353,39,41,58,082,37,49,32,274,*41
$GLGSV,3,1,11,70,34,352,29,71,54,285,33,72,24,228,27,73,14,155,18*67
$GLGSV,3,2,11,74,15,201,,75,00,246,,83,18,128,,84,46,069,29*61
$GLGSV,3,3,11,85,27,005,34,,,,32,,,,32*5F
$GNGLL,0419.71075,S,05539.81378,E,120453.00,A,D*69
$GNGRS,120453.00,1,1.1,0.6,0.8,-4.8,-1.1,-1.1,4.7,0.2,4.6,,,*53
$GNGRS,120453.00,1,10.9,-4.3,2.3,-6.6,-0.9,-15.3,,,,,,*51
$GNGST,120453.00,34,,,,1.4,1.6,3.7*49
$GNZDA,120453.00,19,05,2025,00,00*71
$GNGBS,120453.00,1.4,1.6,3.7,,,,*58
b0LL
'aJ")E&
"u"?$*%v *G`+{ 4%Ta$:R fF"`G 6tHdIJKST.EU%"5bL.}$0$GNRMC,120454.00,A,0419.71074,S,05539.81378,E,0.035,,190525,,,D*7A
$GNVTG,,T,,M,0.035,N,0.065,K,D*3D
$GNGNS,120454.00,0419.71074,S,05539.81378,E,DA,15,0.66,13.4,-47.6,,0000*6A
$GNGGA,120454.00,0419.71074,S,05539.81378,E,2,12,0.66,13.4,M,-47.6,M,,0000*41
$GNGSA,A,3,29,10,32,26,18,28,31,16,27,,,,1.64,0.66,1.50*17
$GNGSA,A,3,70,73,84,71,85,72,,,,,,,1.64,0.66,1.50*1A
$GPGSV,4,1,15,10,20,353,39,16,25,254,34,18,31,069,41,23,05,031,38*7C
$GPGSV,4,2,15,25,03,132,,26,29,223,34,27,34,319,31,28,42,164,36*75
$GPGSV,4,3,15,29,23,146,37,31,26,194,16,32,71,352,42,36,52,277,32*7E
$GPGSV,4,4,15,40,84,353,37,41,58,082,36,49,32,274,*4E
$GLGSV,3,1,11,70,34,352,28,71,54,285,32,72,24,228,28,73,14,155,18*68
$GLGSV,3,2,11,74,15,201,,75,00,246,,83,18,128,,84,46,069,30*69
$GLGSV,3,3,11,85,27,005,37,,,,31,,,,34*59
$GNGLL,0419.71074,S,05539.81378,E,120454.00,A,D*6F
$GNGRS,120454.00,1,1.2,0.7,0.4,-1.4,-1.2,0.0,4.4,0.1,4.6,,,*7D
$GNGRS,120454.00,1,12.1,-3.7,1.6,-6.5,-0.9,-14.4,,,,,,*5C
$GNGST,120454.00,34,,,,1.4,1.6,3.7*4E
$GNZDA,120454.00,19,05,2025,00,00*76
$GNGBS,120454.00,1.4,1.6,3.7,,,,*5F
b0LP
&ae"*Ec%
!&"?$*% +G`'{4%Ta$:R fF"`G6HIJKST.EtU&$mbPt2}$GNRMC,120455.00,A,0419.71073,S,05539.81378,E,0.029,,190525,,,D*71
$GNVTG,,T,,M,0.029,N,0.053,K,D*35
$GNGNS,120455.00,0419.71073,S,05539.81378,E,DA,15,0.66,13.5,-47.6,,0000*6D
$GNGGA,120455.00,0419.71073,S,05539.81378,E,2,12,0.66,13.5,M,-47.6,M,,0000*46
$GNGSA,A,3,29,10,32,26,18,28,31,16,27,,,,1.64,0.66,1.50*17
$GNGSA,A,3,70,73,84,71,85,72,,,,,,,1.64,0.66,1.50*1A
$GPGSV,4,1,15,10,20,353,38,16,25,254,34,18,31,069,42,23,05,031,37*71
$GPGSV,4,2,15,25,03,132,,26,29,223,33,27,34,319,31,28,42,164,36*72
$GPGSV,4,3,15,29,23,146,37,31,26,194,15,32,71,352,43,36,52,277,31*7F
$GPGSV,4,4,15,40,84,353,37,41,58,082,36,49,32,274,*4E
$GLGSV,3,1,11,70,34,352,27,71,54,285,30,72,24,228,28,73,14,155,19*64
$GLGSV,3,2,11,74,15,201,,75,00,246,,83,18,128,,84,46,069,31*68
$GLGSV,3,3,11,85,27,005,38,,,,31,,,,36*54
$GNGLL,0419.71073,S,05539.81378,E,120455.00,A,D*69
$GNGRS,120455.00,1,1.9,1.0,0.4,-2.2,-1.6,0.1,0.1,0.0,2.8,,,*79
$GNGRS,120455.00,1,7.2,-3.4,1.2,-6.4,-1.1,-13.5,,,,,,*63
$GNGST,120455.00,36,,,,1.4,1.6,3.6*4C
$GNZDA,120455.00,19,05,2025,00,00*77
$GNGBS,120455.00,1.4,1.6,3.6,,,,*5F
b0LT
&aO"*EN%
!("?#*J% +G`{ 4$Ta$:R fF"`G6xHgIMJKST.EU%o$bT¥6}$GNRMC,120456.00,A,0419.71073,S,05539.81378,E,0.008,,190525,,,D*71
$GNVTG,,T,,M,0.008,N,0.014,K,D*35
$GNGNS,120456.00,0419.71073,S,05539.81378,E,DA,15,0.66,13.5,-47.6,,0000*6E
$GNGGA,120456.00,0419.71073,S,05539.81378,E,2,12,0.66,13.5,M,-47.6,M,,0000*45
$GNGSA,A,3,29,10,32,26,18,28,31,16,27,,,,1.64,0.66,1.50*17
$GNGSA,A,3,70,73,84,71,85,72,,,,,,,1.64,0.66,1.50*1A
$GPGSV,4,1,15,10,20,353,38,16,25,254,34,18,31,069,42,23,05,031,37*71
$GPGSV,4,2,15,25,03,132,,26,29,223,33,27,34,319,31,28,42,164,35*71
$GPGSV,4,3,15,29,23,146,37,31,26,194,15,32,71,352,43,36,52,277,32*7C
$GPGSV,4,4,15,40,84,353,36,41,58,082,36,49,32,274,*4F
$GLGSV,3,1,11,70,34,352,26,71,54,285,31,72,24,228,28,73,14,155,20*6E
$GLGSV,3,2,11,74,15,201,,75,00,246,,83,18,128,,84,46,069,30*69
$GLGSV,3,3,11,85,27,005,37,,,,31,,,,36*5B
$GNGLL,0419.71073,S,05539.81378,E,120456.00,A,D*6A
$GNGRS,120456.00,1,1.8,0.8,0.2,0.4,-1.8,0.7,1.8,0.3,2.0,,,*56
$GNGRS,120456.00,1,7.6,-4.4,2.5,-6.5,-1.4,-14.3,,,,,,*62
$GNGST,120456.00,35,,,,1.4,1.6,3.6*4C
$GNZDA,120456.00,19,05,2025,00,00*74
$GNGBS,120456.00,1.4,1.6,3.6,,,,*5C
b0LxX
&an"(E'%
!"?>%*% )G`{4"Ta&:R fF"`G6HIgJKST.E"U%f$ObxXD:}T$GNRMC,120457.00,A,0419.71074,S,05539.81378,E,0.027,,190525,,,D*7A
$GNVTG,,T,,M,0.027,N,0.050,K,D*38
$GNGNS,120457.00,0419.71074,S,05539.81378,E,DA,15,0.66,13.5,-47.6,,0000*68
$GNGGA,120457.00,0419.71074,S,05539.81378,E,2,12,0.66,13.5,M,-47.6,M,,0000*43
$GNGSA,A,3,29,10,32,26,18,28,31,16,27,,,,1.64,0.66,1.50*17
$GNGSA,A,3,70,73,84,71,85,72,,,,,,,1.64,0.66,1.50*1A
$GPGSV,4,1,15,10,20,353,38,16,25,254,34,18,31,069,40,23,05,031,39*7D
$GPGSV,4,2,15,25,03,132,,26,29,223,33,27,34,319,31,28,42,164,37*73
$GPGSV,4,3,15,29,23,146,37,31,26,194,17,32,71,352,41,36,52,277,31*7F
$GPGSV,4,4,15,40,84,353,34,41,58,082,38,49,32,274,*43
$GLGSV,3,1,11,70,34,352,26,71,54,285,30,72,24,228,28,73,14,155,20*6F
$GLGSV,3,2,11,74,15,201,,75,00,246,,83,18,128,,84,46,069,30*69
$GLGSV,3,3,11,85,27,005,37,,,,30,,,,36*5A
$GNGLL,0419.71074,S,05539.81378,E,120457.00,A,D*6C
$GNGRS,120457.00,1,1.7,1.1,0.1,-0.5,-2.3,1.3,2.3,2.7,0.6,,,*78
$GNGRS,120457.00,1,7.8,-1.5,2.9,-6.1,-1.5,-14.0,,,,,,*63
$GNGST,120457.00,33,,,,1.4,1.6,3.5*48
$GNZDA,120457.00,19,05,2025,00,00*75
$GNGBS,120457.00,1.4,1.6,3.5,,,,*5E
b0L`¥
&ac"])E&
!"?1#*}% )G`{4"Ta&:R fF"`-G6HIJKST.EiU&Y$)b`¥,>}$GNRMC,120458.00,A,0419.71072,S,05539.81377,E,0.053,,190525,,,D*7F
$GNVTG,,T,,M,0.053,N,0.098,K,D*3F
$GNGNS,120458.00,0419.71072,S,05539.81377,E,DA,15,0.66,13.6,-47.6,,0000*6D
$GNGGA,120458.00,0419.71072,S,05539.81377,E,2,12,0.66,13.6,M,-47.6,M,,0000*46
$GNGSA,A,3,29,10,32,26,18,28,31,16,27,,,,1.64,0.66,1.50*17
$GNGSA,A,3,70,73,84,71,85,72,,,,,,,1.64,0.66,1.50*1A
$GPGSV,4,1,15,10,20,353,38,16,25,254,34,18,31,069,41,23,05,031,38*7D
$GPGSV,4,2,15,25,03,132,,26,29,223,33,27,34,319,30,28,42,164,35*70
$GPGSV,4,3,15,29,23,146,37,31,26,194,16,32,71,352,41,36,52,277,*7C
$GPGSV,4,4,15,40,84,353,34,41,58,082,38,49,32,274,*43
$GLGSV,3,1,11,70,34,352,27,71,54,285,30,72,24,228,27,73,14,155,20*61
$GLGSV,3,2,11,74,15,201,,75,00,246,,83,18,128,,84,46,069,30*69
$GLGSV,3,3,11,85,27,005,38,,,,29,,,,36*5D
$GNGLL,0419.71072,S,05539.81377,E,120458.00,A,D*6A
$GNGRS,120458.00,1,1.6,1.0,0.0,-0.8,-2.4,1.3,2.0,-1.6,3.1,,,*54
$GNGRS,120458.00,1,8.1,-0.8,1.0,-2.6,-1.7,-12.8,,,,,,*63
$GNGST,120458.00,33,,,,1.4,1.6,3.5*47
$GNZDA,120458.00,19,05,2025,00,00*7A
$GNGBS,120458.00,1.4,1.6,3.5,,,,*51
b0LH`
&a!-(E'
!"?$*%e )G`{4#Ta&:R fF"`G6HdIJKST.EU%>$=6bH`B}Z$$GNRMC,120459.00,A,0419.71071,S,05539.81375,E,0.039,,190525,,,D*73
$GNVTG,,T,,M,0.039,N,0.073,K,D*36
$GNGNS,120459.00,0419.71071,S,05539.81375,E,DA,15,0.66,13.6,-47.6,,0000*6D
$GNGGA,120459.00,0419.71071,S,05539.81375,E,2,12,0.66,13.6,M,-47.6,M,,0000*46
$GNGSA,A,3,29,10,32,26,18,28,31,16,27,,,,1.64,0.66,1.50*17
$GNGSA,A,3,70,73,84,71,85,72,,,,,,,1.64,0.66,1.50*1A
$GPGSV,4,1,15,10,20,353,38,16,25,254,33,18,31,069,40,23,05,031,39*7A
$GPGSV,4,2,15,25,03,132,,26,29,223,33,27,34,319,29,28,42,164,36*7B
$GPGSV,4,3,15,29,23,146,37,31,26,194,16,32,71,352,41,36,52,277,*7C
$GPGSV,4,4,15,40,84,353,35,41,58,082,38,49,32,274,*42
$GLGSV,3,1,11,70,34,352,26,71,54,285,30,72,24,228,26,73,14,155,20*61
$GLGSV,3,2,11,74,15,201,,75,00,246,,83,18,128,,84,46,069,31*68
$GLGSV,3,3,11,85,27,005,37,,,,29,,,,36*52
$GNGLL,0419.71071,S,05539.81375,E,120459.00,A,D*6A
$GNGRS,120459.00,1,1.3,1.5,-0.3,-0.5,-2.5,-0.3,1.0,0.4,5.1,,,*70
$GNGRS,120459.00,1,5.3,-0.8,-2.5,-1.2,-1.9,-14.4,,,,,,*45
$GNGST,120459.00,33,,,,1.4,1.6,3.5*46
$GNZDA,120459.00,19,05,2025,00,00*7B
$GNGBS,120459.00,1.4,1.6,3.5,,,,*50
b0L0d
&a!(E'&
""?$*% *G`{4#Ta&:R fF"`lG6=HI#JKST.EU%B$ob0dE}1$GNRMC,120500.00,A,0419.71071,S,05539.81372,E,0.042,,190525,,,D*75
$GNVTG,,T,,M,0.042,N,0.077,K,D*3E
$GNGNS,120500.00,0419.71071,S,05539.81372,E,DA,15,0.66,13.5,-47.6,,0000*64
$GNGGA,120500.00,0419.71071,S,05539.81372,E,2,12,0.66,13.5,M,-47.6,M,,0000*4F
$GNGSA,A,3,29,10,32,26,18,28,31,16,27,,,,1.64,0.66,1.50*17
$GNGSA,A,3,70,73,84,71,85,72,,,,,,,1.64,0.66,1.50*1A
$GPGSV,4,1,15,10,20,353,38,16,25,254,33,18,31,069,40,23,05,031,39*7A
$GPGSV,4,2,15,25,03,132,,26,29,223,34,27,34,319,29,28,42,164,36*7C
$GPGSV,4,3,15,29,23,146,37,31,26,194,16,32,71,352,42,36,52,277,*7F
$GPGSV,4,4,15,40,84,353,35,41,58,082,38,49,32,274,*42
$GLGSV,3,1,11,70,34,352,26,71,54,285,30,72,24,228,25,73,14,155,20*62
$GLGSV,3,2,11,74,15,201,,75,00,246,,83,18,128,,84,46,069,31*68
$GLGSV,3,3,11,85,27,005,37,,,,29,,,,36*52
$GNGLL,0419.71071,S,05539.81372,E,120500.00,A,D*60
$GNGRS,120500.00,1,1.4,2.1,-0.3,-0.8,-2.7,-0.7,2.1,-0.1,2.6,,,*5C
$GNGRS,120500.00,1,3.6,0.3,-2.7,-4.5,-1.9,-12.6,,,,,,*69
$GNGST,120500.00,33,,,,1.4,1.6,3.5*4B
$GNZDA,120500.00,19,05,2025,00,00*76
$GNGBS,120500.00,1.4,1.6,3.5,,,,*5D
b0Lh
&a!(E&!
""?I$*%s *G`{4#Ta%:R fF"`G6HMIJKST.EU%)$z bhI}$GNRMC,120501.00,A,0419.71070,S,05539.81371,E,0.025,,190525,,,D*77
$GNVTG,,T,,M,0.025,N,0.046,K,D*3D
$GNGNS,120501.00,0419.71070,S,05539.81371,E,DA,15,0.66,13.4,-47.6,,0000*66
$GNGGA,120501.00,0419.71070,S,05539.81371,E,2,12,0.66,13.4,M,-47.6,M,,0000*4D
$GNGSA,A,3,29,10,32,26,18,28,31,16,27,,,,1.64,0.66,1.50*17
$GNGSA,A,3,70,73,84,71,85,72,,,,,,,1.64,0.66,1.50*1A
$GPGSV,4,1,15,10,20,353,38,16,25,254,33,18,31,069,40,23,05,031,38*7B
$GPGSV,4,2,15,25,03,132,,26,29,223,34,27,34,319,29,28,42,164,36*7C
$GPGSV,4,3,15,29,23,146,37,31,26,194,16,32,71,352,42,36,52,277,*7F
$GPGSV,4,4,15,40,84,353,35,41,58,082,37,49,32,274,*4D
$GLGSV,3,1,11,70,34,352,26,71,54,285,31,72,24,228,26,73,14,155,19*6A
$GLGSV,3,2,11,74,15,201,,75,00,246,,83,18,128,,84,46,069,30*69
$GLGSV,3,3,11,85,27,005,37,,,,30,,,,36*5A
$GNGLL,0419.71070,S,05539.81371,E,120501.00,A,D*63
$GNGRS,120501.00,1,1.6,2.6,-0.4,-0.9,-2.4,-0.8,1.1,0.0,8.4,,,*75
$GNGRS,120501.00,1,4.5,0.2,-0.7,-7.8,-2.1,-12.0,,,,,,*6C
$GNGST,120501.00,35,,,,1.4,1.6,3.5*4C
$GNZDA,120501.00,19,05,2025,00,00*77
$GNGBS,120501.00,1.4,1.6,3.5,,,,*5C
b0Ll
$a N&E%=
!"?8"*#} 'G`{4"Ta$:R fF"`G6HIzJKST.E¥U$"9XblM}Y$GNRMC,120502.00,A,0419.71070,S,05539.81370,E,0.025,,190525,,,D*75
$GNVTG,,T,,M,0.025,N,0.046,K,D*3D
$GNGNS,120502.00,0419.71070,S,05539.81370,E,DA,15,0.66,13.4,-47.6,,0000*64
$GNGGA,120502.00,0419.71070,S,05539.81370,E,2,12,0.66,13.4,M,-47.6,M,,0000*4F
$GNGSA,A,3,29,10,32,26,18,28,31,16,27,,,,1.64,0.66,1.50*17
$GNGSA,A,3,70,73,84,71,85,72,,,,,,,1.64,0.66,1.50*1A
$GPGSV,4,1,15,10,20,353,36,16,25,254,32,18,31,069,38,23,05,031,37*74
$GPGSV,4,2,15,25,03,132,,26,29,223,33,27,34,319,28,28,42,164,34*78
$GPGSV,4,3,15,29,23,146,35,31,26,194,17,32,71,352,39,36,52,277,*70
$GPGSV,4,4,15,40,84,353,34,41,58,082,36,49,32,274,*4D
$GLGSV,3,1,11,70,34,352,26,71,54,285,31,72,24,228,25,73,14,155,18*68
$GLGSV,3,2,11,74,15,201,,75,00,246,,83,18,128,,84,46,069,30*69
$GLGSV,3,3,11,85,27,005,36,,,,28,,,,34*50
$GNGLL,0419.71070,S,05539.81370,E,120502.00,A,D*61
$GNGRS,120502.00,1,1.7,2.7,-0.2,-1.2,-2.4,-1.1,1.3,0.8,5.7,,,*76
$GNGRS,120502.00,1,4.2,1.2,3.5,-2.3,-2.7,-15.4,,,,,,*4E
$GNGST,120502.00,30,,,,1.4,1.6,3.5*4A
$GNZDA,120502.00,19,05,2025,00,00*74
$GNGBS,120502.00,1.4,1.6,3.5,,,,*5F
b0Lo
%aY&E5%
 "?"*$ (G`{4"Ta$:R fF"`<G 6HZI_JKST.EKU&$>boQ}$GNRMC,120503.00,A,0419.71069,S,05539.81367,E,0.015,,190525,,,D*79
$GNVTG,,T,,M,0.015,N,0.028,K,D*36
$GNGNS,120503.00,0419.71069,S,05539.81367,E,DA,15,0.66,13.4,-47.6,,0000*6B
$GNGGA,120503.00,0419.71069,S,05539.81367,E,2,12,0.66,13.4,M,-47.6,M,,0000*40
$GNGSA,A,3,29,10,32,26,18,28,31,16,27,,,,1.64,0.66,1.50*17
$GNGSA,A,3,70,73,84,71,85,72,,,,,,,1.64,0.66,1.50*1A
$GPGSV,4,1,15,10,20,353,37,16,25,254,31,18,31,069,38,23,05,031,37*76
$GPGSV,4,2,15,25,03,132,,26,29,223,32,27,34,319,27,28,42,164,34*76
$GPGSV,4,3,15,29,23,146,36,31,26,194,15,32,71,352,40,36,52,277,*7F
$GPGSV,4,4,15,40,84,353,34,41,58,082,36,49,32,274,*4D
$GLGSV,3,1,11,70,34,352,26,71,54,285,32,72,24,228,25,73,14,155,18*6B
$GLGSV,3,2,11,74,15,201,,75,00,246,,83,18,128,,84,46,069,30*69
$GLGSV,3,3,11,85,27,005,38,,,,28,,,,36*5C
$GNGLL,0419.71069,S,05539.81367,E,120503.00,A,D*6E
$GNGRS,120503.00,1,1.5,2.7,-0.3,-1.2,-2.0,-1.2,1.4,6.0,4.6,,,*7A
$GNGRS,120503.00,1,5.7,1.0,3.3,2.6,-3.1,-14.5,,,,,,*60
$GNGST,120503.00,34,,,,1.4,1.6,3.5*4F
$GNZDA,120503.00,19,05,2025,00,00*75
$GNGBS,120503.00,1.4,1.6,3.5,,,,*5E
b0Ls
%a 'E,&!
 "?"*$ )G`{4#Ta$:R fF"`>G!6HhI{JKST.EU&$@bsU}$GNRMC,120504.00,A,0419.71069,S,05539.81366,E,0.024,,190525,,,D*7D
$GNVTG,,T,,M,0.024,N,0.044,K,D*3E
$GNGNS,120504.00,0419.71069,S,05539.81366,E,DA,15,0.66,13.4,-47.6,,0000*6D
$GNGGA,120504.00,0419.71069,S,05539.81366,E,2,12,0.66,13.4,M,-47.6,M,,0000*46
$GNGSA,A,3,29,10,32,26,18,28,31,16,27,,,,1.64,0.66,1.50*17
$GNGSA,A,3,70,73,84,71,85,72,,,,,,,1.64,0.66,1.50*1A
$GPGSV,4,1,15,10,20,353,37,16,25,254,32,18,31,069,39,23,05,031,38*7B
$GPGSV,4,2,15,25,03,132,,26,29,223,32,27,34,319,27,28,42,164,34*76
$GPGSV,4,3,15,29,23,146,36,31,26,194,14,32,71,352,41,36,52,277,*7F
$GPGSV,4,4,15,40,84,353,35,41,58,082,36,49,32,274,*4C
$GLGSV,3,1,11,70,34,352,27,71,54,285,33,72,24,228,24,73,14,155,18*6A
$GLGSV,3,2,11,74,15,201,,75,00,246,,83,18,128,,84,46,069,31*68
$GLGSV,3,3,11,85,27,005,38,,,,27,,,,36*53
$GNGLL,0419.71069,S,05539.81366,E,120504.00,A,D*68
$GNGRS,120504.00,1,1.8,2.4,-0.1,-1.2,-2.1,-1.0,-0.6,2.5,6.4,,,*5D
$GNGRS,120504.00,1,5.7,1.2,1.8,-0.8,-3.4,-14.3,,,,,,*4E
$GNGST,120504.00,36,,,,1.4,1.6,3.4*4B
$GNZDA,120504.00,19,05,2025,00,00*72
$GNGBS,120504.00,1.4,1.6,3.4,,,,*58
b0Lw
&a"!K(E:'
$v"? "*%D *G`{4%Ta':R fF"`G!6HFIJKST.EU%$bwY}h$GNRMC,120505.00,A,0419.71068,S,05539.81365,E,0.016,,190525,,,D*7F
$GNVTG,,T,,M,0.016,N,0.029,K,D*34
$GNGNS,120505.00,0419.71068,S,05539.81365,E,DA,15,0.66,13.4,-47.6,,0000*6E
$GNGGA,120505.00,0419.71068,S,05539.81365,E,2,12,0.66,13.4,M,-47.6,M,,0000*45
$GNGSA,A,3,29,10,32,26,18,28,31,16,27,,,,1.64,0.66,1.50*17
$GNGSA,A,3,70,73,84,71,85,72,,,,,,,1.64,0.66,1.50*1A
$GPGSV,4,1,15,10,20,353,38,16,25,254,33,18,31,069,40,23,05,031,39*7A
$GPGSV,4,2,15,25,03,132,,26,29,223,36,27,34,319,27,28,42,164,34*72
$GPGSV,4,3,15,29,23,146,37,31,26,194,15,32,71,352,42,36,52,277,*7C
$GPGSV,4,4,15,40,84,353,37,41,58,082,39,49,32,274,*41
$GLGSV,3,1,11,70,34,352,26,71,54,285,33,72,24,228,26,73,14,155,19*68
$GLGSV,3,2,11,74,15,201,,75,00,246,,83,18,128,,84,46,069,31*68
$GLGSV,3,3,11,85,27,005,37,,,,27,,,,36*5C
$GNGLL,0419.71068,S,05539.81365,E,120505.00,A,D*6B
$GNGRS,120505.00,1,1.6,2.9,0.3,-1.4,-2.0,-1.2,0.7,3.3,8.0,,,*54
$GNGRS,120505.00,1,4.8,1.4,-1.0,-3.2,-3.2,-14.7,,,,,,*69
$GNGST,120505.00,37,,,,1.4,1.6,3.4*4B
$GNZDA,120505.00,19,05,2025,00,00*73
$GNGBS,120505.00,1.4,1.6,3.4,,,,*59
b0L{
%a05&EA'
!"?*!*$. )G`{4"Ta$:R fF"`#G 6H}IJKST.EU&%b{l]}@$GNRMC,120506.00,A,0419.71068,S,05539.81364,E,0.024,,190525,,,D*7C
$GNVTG,,T,,M,0.024,N,0.044,K,D*3E
$GNGNS,120506.00,0419.71068,S,05539.81364,E,DA,15,0.66,13.4,-47.6,,0000*6C
$GNGGA,120506.00,0419.71068,S,05539.81364,E,2,12,0.66,13.4,M,-47.6,M,,0000*47
$GNGSA,A,3,29,10,32,26,18,28,31,16,27,,,,1.64,0.66,1.50*17
$GNGSA,A,3,70,73,84,71,85,72,,,,,,,1.64,0.66,1.50*1A
$GPGSV,4,1,15,10,20,353,37,16,25,254,30,18,31,069,38,23,05,031,39*79
$GPGSV,4,2,15,25,03,132,,26,29,223,33,27,34,319,26,28,42,164,33*71
$GPGSV,4,3,15,29,23,146,36,31,26,194,12,32,71,352,41,36,52,277,*79
$GPGSV,4,4,15,40,84,353,34,41,58,082,36,49,32,274,*4D
$GLGSV,3,1,11,70,34,352,26,71,54,285,32,72,24,228,27,73,14,155,20*62
$GLGSV,3,2,11,74,15,201,,75,00,246,,83,18,128,,84,46,069,31*68
$GLGSV,3,3,11,85,27,005,38,,,,28,,,,37*5D
$GNGLL,0419.71068,S,05539.81364,E,120506.00,A,D*69
$GNGRS,120506.00,1,1.7,3.0,0.2,-1.1,-1.9,-1.2,-2.1,0.5,10.7,,,*42
$GNGRS,120506.00,1,2.9,2.2,1.8,-0.9,-3.4,-14.1,,,,,,*45
$GNGST,120506.00,36,,,,1.4,1.6,3.4*49
$GNZDA,120506.00,19,05,2025,00,00*70
$GNGBS,120506.00,1.4,1.6,3.4,,,,*5A
b0L
$a9@&EW'0
!"?"*$
 )G`{4"Ta$:R gF"`G!6H.IJKST.ECU%#RbTa}R$GNRMC,120507.00,A,0419.71067,S,05539.81364,E,0.022,,190525,,,D*74
$GNVTG,,T,,M,0.022,N,0.041,K,D*3D
$GNGNS,120507.00,0419.71067,S,05539.81364,E,DA,14,0.68,13.5,-47.6,,0000*6C
$GNGGA,120507.00,0419.71067,S,05539.81364,E,2,12,0.68,13.5,M,-47.6,M,,0000*46
$GNGSA,A,3,29,10,32,26,18,28,16,27,,,,,1.64,0.68,1.50*1B
$GNGSA,A,3,70,73,84,71,85,72,,,,,,,1.64,0.68,1.50*14
$GPGSV,4,1,15,10,20,353,36,16,25,254,31,18,31,069,38,23,05,031,39*79
$GPGSV,4,2,15,25,03,132,,26,29,223,33,27,34,319,27,28,42,164,34*77
$GPGSV,4,3,15,29,23,146,36,31,26,194,10,32,71,352,41,36,52,277,*7B
$GPGSV,4,4,15,40,84,353,34,41,58,082,36,49,32,274,*4D
$GLGSV,3,1,11,70,34,352,27,71,54,285,33,72,24,228,27,73,14,155,20*62
$GLGSV,3,2,11,74,15,201,,75,00,246,,83,18,128,,84,46,069,31*68
$GLGSV,3,3,11,85,27,005,37,,,,29,,,,35*51
$GNGLL,0419.71067,S,05539.81364,E,120507.00,A,D*67
$GNGRS,120507.00,1,1.6,3.1,0.3,-1.1,-1.7,-1.1,0.6,10.2,,,,*49
$GNGRS,120507.00,1,2.7,2.3,0.7,-2.9,-3.5,-12.3,,,,,,*42
$GNGST,120507.00,25,,,,1.4,1.6,3.4*4A
$GNZDA,120507.00,19,05,2025,00,00*71
$GNGBS,120507.00,1.4,1.6,3.4,,,,*5B
b0Lp
$a$ &Ee'
!z"?"*$
 )G`{4"Ta%:R gF"`8G 6`HIJKST.E_U$$>4bp<e}$GNRMC,120508.00,A,0419.71066,S,05539.81364,E,0.028,,190525,,,D*70
$GNVTG,,T,,M,0.028,N,0.052,K,D*35
$GNGNS,120508.00,0419.71066,S,05539.81364,E,DA,15,0.66,13.5,-47.6,,0000*6D
$GNGGA,120508.00,0419.71066,S,05539.81364,E,2,12,0.66,13.5,M,-47.6,M,,0000*46
$GNGSA,A,3,29,10,32,26,18,28,31,16,27,,,,1.64,0.66,1.50*17
$GNGSA,A,3,70,73,84,71,85,72,,,,,,,1.64,0.66,1.50*1A
$GPGSV,4,1,15,10,20,353,36,16,25,254,32,18,31,069,38,23,05,031,39*7A
$GPGSV,4,2,15,25,03,132,,26,29,223,33,27,34,319,28,28,42,164,34*78
$GPGSV,4,3,15,29,23,146,36,31,26,194,10,32,71,352,41,36,52,277,*7B
$GPGSV,4,4,15,40,84,353,34,41,58,082,37,49,32,274,*4C
$GLGSV,3,1,11,70,34,352,27,71,54,285,32,72,24,228,27,73,14,155,20*63
$GLGSV,3,2,11,74,15,201,,75,00,246,,83,18,128,,84,46,069,30*69
$GLGSV,3,3,11,85,27,005,36,,,,29,,,,36*53
$GNGLL,0419.71066,S,05539.81364,E,120508.00,A,D*69
$GNGRS,120508.00,1,1.7,2.9,0.2,-1.3,-1.5,-0.8,-3.5,0.0,9.3,,,*7D
$GNGRS,120508.00,1,3.1,2.1,1.0,-4.2,-3.4,-10.8,,,,,,*4B
$GNGST,120508.00,36,,,,1.4,1.6,3.4*47
$GNZDA,120508.00,19,05,2025,00,00*7E
$GNGBS,120508.00,1.4,1.6,3.4,,,,*54
b0LX
%a $&EZ'
!"?#*$y )G`{4#Ta%:R gF!`aG 6HIJKST.EYU%$vzbX$i}"$GNRMC,120509.00,A,0419.71066,S,05539.81365,E,0.014,,190525,,,D*7F
$GNVTG,,T,,M,0.014,N,0.025,K,D*3A
$GNGNS,120509.00,0419.71066,S,05539.81365,E,DA,15,0.66,13.4,-47.6,,0000*6C
$GNGGA,120509.00,0419.71066,S,05539.81365,E,2,12,0.66,13.4,M,-47.6,M,,0000*47
$GNGSA,A,3,29,10,32,26,18,28,31,16,27,,,,1.64,0.66,1.50*17
$GNGSA,A,3,70,73,84,71,85,72,,,,,,,1.64,0.66,1.50*1A
$GPGSV,4,1,15,10,20,353,37,16,25,254,32,18,31,069,38,23,05,031,39*7B
$GPGSV,4,2,15,25,03,132,,26,29,223,33,27,34,319,28,28,42,164,35*79
$GPGSV,4,3,15,29,23,146,36,31,26,194,13,32,71,352,41,36,52,277,*78
$GPGSV,4,4,15,40,84,353,35,41,58,082,37,49,32,274,*4D
$GLGSV,3,1,11,70,33,352,27,71,54,285,32,72,24,228,27,73,14,155,20*64
$GLGSV,3,2,11,74,15,201,,75,00,246,,83,18,128,,84,46,069,30*69
$GLGSV,3,3,11,85,27,005,37,,,,28,,,,36*53
$GNGLL,0419.71066,S,05539.81365,E,120509.00,A,D*69
$GNGRS,120509.00,1,1.8,2.9,0.3,-1.3,-1.7,-0.7,-3.9,0.4,6.9,,,*72
$GNGRS,120509.00,1,3.5,1.8,0.9,-3.3,-3.5,-11.1,,,,,,*43
$GNGST,120509.00,33,,,,1.4,1.6,3.4*43
$GNZDA,120509.00,19,05,2025,00,00*7F
$GNGBS,120509.00,1.4,1.6,3.4,,,,*55
b0L@
%a!&EX'
!"?#*%m )G`){4#Ta%:R gF!`G 6HcIWJKST.E@U%$ab@m}$GNRMC,120510.00,A,0419.71066,S,05539.81364,E,0.025,,190525,,,D*74
$GNVTG,,T,,M,0.025,N,0.046,K,D*3D
$GNGNS,120510.00,0419.71066,S,05539.81364,E,DA,15,0.66,13.5,-47.6,,0000*64
$GNGGA,120510.00,0419.71066,S,05539.81364,E,2,12,0.66,13.5,M,-47.6,M,,0000*4F
$GNGSA,A,3,29,10,32,26,18,28,31,16,27,,,,1.64,0.66,1.50*17
$GNGSA,A,3,70,73,84,71,85,72,,,,,,,1.64,0.66,1.50*1A
$GPGSV,4,1,15,10,20,353,37,16,25,254,33,18,31,069,38,23,05,031,39*7A
$GPGSV,4,2,15,25,03,132,,26,29,223,33,27,34,319,29,28,42,164,35*78
$GPGSV,4,3,15,29,23,146,37,31,26,194,14,32,71,352,41,36,52,277,*7E
$GPGSV,4,4,15,40,84,353,35,41,58,082,37,49,32,274,*4D
$GLGSV,3,1,11,70,33,352,27,71,54,285,32,72,24,228,26,73,14,155,20*65
$GLGSV,3,2,11,74,15,201,,75,00,246,,83,18,128,,84,46,069,31*68
$GLGSV,3,3,11,85,27,005,37,,,,27,,,,36*5C
$GNGLL,0419.71066,S,05539.81364,E,120510.00,A,D*60
$GNGRS,120510.00,1,1.5,2.6,0.4,-1.2,-1.7,-0.5,-4.0,2.2,4.1,,,*7C
$GNGRS,120510.00,1,4.3,3.4,0.6,-3.8,-3.4,-11.8,,,,,,*48
$GNGST,120510.00,33,,,,1.4,1.6,3.4*4B
$GNZDA,120510.00,19,05,2025,00,00*77
$GNGBS,120510.00,1.4,1.6,3.4,,,,*5D
b0L(
%a 'En'
 "?`"*% (G`{4$Ta%:R gF!`QG 6HIJKST.EAU%$b(p}w$GNRMC,120511.00,A,0419.71066,S,05539.81365,E,0.012,,190525,,,D*70
$GNVTG,,T,,M,0.012,N,0.022,K,D*3B
$GNGNS,120511.00,0419.71066,S,05539.81365,E,DA,15,0.66,13.5,-47.6,,0000*64
$GNGGA,120511.00,0419.71066,S,05539.81365,E,2,12,0.66,13.5,M,-47.6,M,,0000*4F
$GNGSA,A,3,29,10,32,26,18,28,31,16,27,,,,1.64,0.66,1.50*17
$GNGSA,A,3,70,73,84,71,85,72,,,,,,,1.64,0.66,1.50*1A
$GPGSV,4,1,15,10,20,353,37,16,25,254,32,18,31,069,39,23,05,031,39*7A
$GPGSV,4,2,15,25,03,132,,26,29,223,32,27,34,319,29,28,42,164,34*78
$GPGSV,4,3,15,29,23,146,37,31,26,194,15,32,71,352,40,36,52,277,*7E
$GPGSV,4,4,15,40,84,353,36,41,58,082,37,49,32,274,*4E
$GLGSV,3,1,11,70,33,352,27,71,54,285,32,72,24,228,26,73,14,155,20*65
$GLGSV,3,2,11,74,15,201,,75,00,246,,83,18,128,,84,46,069,31*68
$GLGSV,3,3,11,85,27,005,37,,,,27,,,,36*5C
$GNGLL,0419.71066,S,05539.81365,E,120511.00,A,D*60
$GNGRS,120511.00,1,1.5,2.6,0.3,-1.1,-1.5,-0.6,-2.4,-0.5,3.5,,,*51
$GNGRS,120511.00,1,3.4,4.2,8.3,-3.8,-3.4,-11.4,,,,,,*49
$GNGST,120511.00,32,,,,1.4,1.6,3.4*4B
$GNZDA,120511.00,19,05,2025,00,00*76
$GNGBS,120511.00,1.4,1.6,3.4,,,,*5C
b0L
%a!'El&
 "?"*$ (G`5{4$Ta%:R gF!`/G 6tHIJKST.E-U%$bt}OW$GNRMC,120512.00,A,0419.71065,S,05539.81365,E,0.020,,190525,,,D*71
$GNVTG,,T,,M,0.020,N,0.038,K,D*31
$GNGNS,120512.00,0419.71065,S,05539.81365,E,DA,15,0.66,13.5,-47.6,,0000*64
$GNGGA,120512.00,0419.71065,S,05539.81365,E,2,12,0.66,13.5,M,-47.6,M,,0000*4F
$GNGSA,A,3,29,10,32,26,18,28,31,16,27,,,,1.64,0.66,1.50*17
$GNGSA,A,3,70,73,84,71,85,72,,,,,,,1.64,0.66,1.50*1A
$GPGSV,4,1,15,10,20,353,37,16,25,254,33,18,31,069,39,23,05,031,38*7A
$GPGSV,4,2,15,25,03,132,,26,29,223,32,27,34,319,29,28,42,164,34*78
$GPGSV,4,3,15,29,23,146,36,31,26,194,17,32,71,352,40,36,52,277,*7D
$GPGSV,4,4,15,40,84,353,36,41,58,082,37,49,32,274,*4E
$GLGSV,3,1,11,70,33,352,27,71,54,285,32,72,24,228,26,73,14,155,21*64
$GLGSV,3,2,11,74,15,201,,75,00,246,,83,18,128,,84,46,069,31*68
$GLGSV,3,3,11,85,27,005,37,,,,27,,,,36*5C
$GNGLL,0419.71065,S,05539.81365,E,120512.00,A,D*60
$GNGRS,120512.00,1,1.7,2.2,0.5,-1.0,-1.5,-0.5,-3.4,1.5,1.5,,,*7F
$GNGRS,120512.00,1,3.0,4.7,3.0,-4.0,-3.4,-12.6,,,,,,*4D
$GNGST,120512.00,31,,,,1.4,1.6,3.4*4B
$GNZDA,120512.00,19,05,2025,00,00*75
$GNGBS,120512.00,1.4,1.6,3.4,,,,*5F
b0L
%a!'Ec&$
!"??!*%q (G`{4$Ta%:R gF!`G!6uHIwJKST .EU%%jbx}&$GNRMC,120513.00,A,0419.71065,S,05539.81365,E,0.031,,190525,,,D*70
$GNVTG,,T,,M,0.031,N,0.058,K,D*37
$GNGNS,120513.00,0419.71065,S,05539.81365,E,DA,15,0.66,13.5,-47.6,,0000*65
$GNGGA,120513.00,0419.71065,S,05539.81365,E,2,12,0.66,13.5,M,-47.6,M,,0000*4E
$GNGSA,A,3,29,10,32,26,18,28,31,16,27,,,,1.64,0.66,1.50*17
$GNGSA,A,3,70,73,84,71,85,72,,,,,,,1.64,0.66,1.50*1A
$GPGSV,4,1,15,10,20,353,37,16,25,254,33,18,31,069,39,23,05,031,38*7A
$GPGSV,4,2,15,25,03,132,,26,29,223,33,27,34,319,30,28,42,164,33*76
$GPGSV,4,3,15,29,23,146,37,31,26,194,17,32,71,352,40,36,52,277,*7C
$GPGSV,4,4,15,40,84,353,36,41,58,082,37,49,32,274,*4E
$GLGSV,3,1,11,70,33,352,28,71,54,285,33,72,24,228,26,73,14,155,21*6A
$GLGSV,3,2,11,74,15,201,,75,00,246,,83,18,128,,84,46,069,32*6B
$GLGSV,3,3,11,85,27,005,37,,,,28,,,,37*52
$GNGLL,0419.71065,S,05539.81365,E,120513.00,A,D*61
$GNGRS,120513.00,1,1.1,2.2,0.1,-0.9,-1.6,-0.2,-3.4,0.1,0.6,,,*77
$GNGRS,120513.00,1,3.9,6.3,0.2,-3.9,-3.2,-12.8,,,,,,*44
$GNGST,120513.00,31,,,,1.4,1.6,3.4*4A
$GNZDA,120513.00,19,05,2025,00,00*74
$GNGBS,120513.00,1.4,1.6,3.4,,,,*5E
b0L
&a 'Et&;
 "?!*%{G (G`;{4$Ta%:R gF!`G!6{H?IJKST .EU&%b|}$GNRMC,120514.00,A,0419.71064,S,05539.81364,E,0.025,,190525,,,D*72
$GNVTG,,T,,M,0.025,N,0.047,K,D*3C
$GNGNS,120514.00,0419.71064,S,05539.81364,E,DA,15,0.66,13.6,-47.6,,0000*61
$GNGGA,120514.00,0419.71064,S,05539.81364,E,2,12,0.66,13.6,M,-47.6,M,,0000*4A
$GNGSA,A,3,29,10,32,26,18,28,31,16,27,,,,1.64,0.66,1.50*17
$GNGSA,A,3,70,73,84,71,85,72,,,,,,,1.64,0.66,1.50*1A
$GPGSV,4,1,15,10,20,353,38,16,25,254,32,18,31,069,39,23,05,031,38*74
$GPGSV,4,2,15,25,03,132,,26,29,223,32,27,34,319,31,28,42,164,33*76
$GPGSV,4,3,15,29,23,146,37,31,26,194,18,32,71,352,40,36,52,277,*73
$GPGSV,4,4,15,40,84,353,36,41,58,082,37,49,32,274,*4E
$GLGSV,3,1,11,70,33,352,27,71,54,285,33,72,24,228,26,73,14,155,21*65
$GLGSV,3,2,11,74,15,201,,75,00,246,,83,18,128,,84,46,069,32*6B
$GLGSV,3,3,11,85,27,005,38,,,,27,,,,37*52
$GNGLL,0419.71064,S,05539.81364,E,120514.00,A,D*66
$GNGRS,120514.00,1,1.2,2.3,0.6,-0.8,-1.4,-0.1,-4.4,4.5,-0.1,,,*58
$GNGRS,120514.00,1,4.4,5.3,-3.4,-3.9,-3.2,-12.2,,,,,,*68
$GNGST,120514.00,30,,,,1.4,1.6,3.4*4C
$GNZDA,120514.00,19,05,2025,00,00*73
$GNGBS,120514.00,1.4,1.6,3.4,,,,*59
b0L
(a$@'E(
 "?"*' )G`M{4$Ta':R gF!`G!6HI=JKST .EU%%/b}$GNRMC,120515.00,A,0419.71065,S,05539.81364,E,0.014,,190525,,,D*70
$GNVTG,,T,,M,0.014,N,0.025,K,D*3A
$GNGNS,120515.00,0419.71065,S,05539.81364,E,DA,15,0.66,13.6,-47.6,,0000*61
$GNGGA,120515.00,0419.71065,S,05539.81364,E,2,12,0.66,13.6,M,-47.6,M,,0000*4A
$GNGSA,A,3,29,10,32,26,18,28,31,16,27,,,,1.64,0.66,1.50*17
$GNGSA,A,3,70,73,84,71,85,72,,,,,,,1.64,0.66,1.50*1A
$GPGSV,4,1,15,10,20,353,40,16,25,254,36,18,31,069,39,23,05,031,40*70
$GPGSV,4,2,15,25,03,132,,26,29,223,32,27,34,319,31,28,42,164,34*71
$GPGSV,4,3,15,29,23,146,39,31,26,194,18,32,71,352,41,36,52,277,*7C
$GPGSV,4,4,15,40,84,353,36,41,58,082,39,49,32,274,*40
$GLGSV,3,1,11,70,33,352,28,71,54,287,33,72,24,228,27,73,14,155,22*6A
$GLGSV,3,2,11,74,15,201,,75,00,246,,83,18,128,,84,46,069,32*6B
$GLGSV,3,3,11,85,27,005,37,,,,28,,,,37*52
$GNGLL,0419.71065,S,05539.81364,E,120515.00,A,D*66
$GNGRS,120515.00,1,1.3,2.3,0.8,-0.7,-0.7,-0.1,-2.4,3.2,-3.1,,,*5E
$GNGRS,120515.00,1,2.1,3.2,-2.7,-3.4,-3.5,-13.7,,,,,,*61
$GNGST,120515.00,31,,,,1.4,1.6,3.4*4C
$GNZDA,120515.00,19,05,2025,00,00*72
$GNGBS,120515.00,1.4,1.6,3.4,,,,*58
b0L
*a&'E)
! "?"*&i^ ,G`V{4&Ta(:R gF!`G!6HIQJKST .EU& &b|}$GNRMC,120516.00,A,0419.71066,S,05539.81363,E,0.039,,190525,,,D*78
$GNVTG,,T,,M,0.039,N,0.073,K,D*36
$GNGNS,120516.00,0419.71066,S,05539.81363,E,DA,15,0.66,13.6,-47.6,,0000*66
$GNGGA,120516.00,0419.71066,S,05539.81363,E,2,12,0.66,13.6,M,-47.6,M,,0000*4D
$GNGSA,A,3,29,10,32,26,18,28,31,16,27,,,,1.64,0.66,1.50*17
$GNGSA,A,3,70,73,84,71,85,72,,,,,,,1.64,0.66,1.50*1A
$GPGSV,4,1,15,10,20,353,42,16,25,254,38,18,31,069,39,23,05,031,41*7D
$GPGSV,4,2,15,25,03,132,,26,29,223,33,27,34,319,32,28,42,164,34*73
$GPGSV,4,3,15,29,23,146,38,31,26,194,20,32,71,352,44,36,52,277,*73
$GPGSV,4,4,15,40,84,353,38,41,58,082,40,49,32,274,*40
$GLGSV,3,1,11,70,33,352,27,71,54,287,33,72,24,229,28,73,14,155,21*68
$GLGSV,3,2,11,74,15,201,,75,00,246,,83,18,128,,84,46,069,32*6B
$GLGSV,3,3,11,85,27,005,38,,,,32,,,,38*59
$GNGLL,0419.71066,S,05539.81363,E,120516.00,A,D*61
$GNGRS,120516.00,1,1.0,2.3,0.9,-1.0,-1.0,0.0,-1.6,2.3,-2.4,,,*76
$GNGRS,120516.00,1,2.6,3.4,2.4,-0.3,-3.5,-15.1,,,,,,*49
$GNGST,120516.00,32,,,,1.4,1.6,3.3*4B
$GNZDA,120516.00,19,05,2025,00,00*71
$GNGBS,120516.00,1.4,1.6,3.3,,,,*5C
b0L
)a&(E)!
"{!"?#*"V[ *G`R{4$Ta':R gF!`G!6H[IJKST.EU&&bd}P$GNRMC,120517.00,A,0419.71066,S,05539.81363,E,0.041,,190525,,,D*76
$GNVTG,,T,,M,0.041,N,0.075,K,D*3F
$GNGNS,120517.00,0419.71066,S,05539.81363,E,DA,15,0.66,13.7,-47.6,,0000*66
