$GNRMC,075210.00,A,0419.73009,S,05539.79580,E,0.063,,220525,,,A*7D
$GNVTG,,T,,M,0.063,N,0.117,K,A*3F
$GNGGA,075210.00,0419.73009,S,05539.79580,E,1,12,0.79,21.8,M,-47.6,M,,*48
$GNGSA,A,3,25,12,23,15,18,05,24,29,10,,,,1.58,0.79,1.37*1A
$GNGSA,A,3,75,71,72,76,,,,,,,,,1.58,0.79,1.37*1B
$GPGSV,5,1,17,05,14,028,18,10,29,221,23,12,55,147,29,13,10,079,*75
$GPGSV,5,2,17,15,44,099,26,18,24,321,23,23,69,252,28,24,21,154,20*70
$GPGSV,5,3,17,25,83,253,31,28,11,266,,29,26,009,25,32,02,218,*72
$GPGSV,5,4,17,36,52,277,,40,86,351,34,41,58,082,,49,32,274,*7B
$GPGSV,5,5,17,50,10,089,*4A
$GLGSV,3,1,10,65,12,197,,70,04,040,09,71,40,070,12,72,51,149,25*6B
$GLGSV,3,2,10,74,13,162,,75,53,202,33,76,39,299,34,77,01,323,*68
$GLGSV,3,3,10,86,07,358,,87,03,317,*6A
$GNGLL,0419.73009,S,05539.79580,E,075210.00,A,A*63
$GNRMC,075211.00,A,0419.73011,S,05539.79566,E,0.429,,220525,,,A*77
$GNVTG,,T,,M,0.429,N,0.795,K,A*39
$GNGGA,075211.00,0419.73011,S,05539.79566,E,1,12,0.79,22.1,M,-47.6,M,,*42
$GNGSA,A,3,25,12,23,15,18,05,24,29,10,,,,1.58,0.79,1.37*1A
$GNGSA,A,3,75,71,72,76,,,,,,,,,1.58,0.79,1.37*1B
$GPGSV,5,1,17,05,14,028,17,10,29,221,22,12,55,147,23,13,10,079,*71
$GPGSV,5,2,17,15,44,099,25,18,24,321,20,23,69,252,26,24,21,154,19*74
$GPGSV,5,3,17,25,83,253,31,28,11,266,,29,26,009,23,32,02,218,*74
$GPGSV,5,4,17,36,52,277,,40,86,351,31,41,58,082,,49,32,274,*7E
$GPGSV,5,5,17,50,10,089,*4A
$GLGSV,3,1,10,65,12,197,,70,04,040,07,71,40,070,10,72,51,149,24*66
$GLGSV,3,2,10,74,13,162,,75,53,202,29,76,39,299,31,77,01,323,*66
$GLGSV,3,3,10,86,07,358,,87,03,317,*6A
$GNGLL,0419.73011,S,05539.79566,E,075211.00,A,A*63
$GNRMC,075212.00,A,0419.73019,S,05539.79560,E,0.056,,220525,,,A*76
$GNVTG,,T,,M,0.056,N,0.103,K,A*3C
$GNGGA,075212.00,0419.73019,S,05539.79560,E,1,12,0.79,21.8,M,-47.6,M,,*45
$GNGSA,A,3,25,12,23,15,18,05,24,29,10,,,,1.58,0.79,1.37*1A
$GNGSA,A,3,75,71,72,76,,,,,,,,,1.58,0.79,1.37*1B
$GPGSV,5,1,17,05,14,028,16,10,29,221,24,12,55,147,31,13,10,079,*75
$GPGSV,5,2,17,15,44,099,25,18,24,321,29,23,69,252,28,24,21,154,19*73
$GPGSV,5,3,17,25,83,253,34,28,11,266,,29,26,009,26,32,02,218,*74
$GPGSV,5,4,17,36,52,277,,40,86,351,37,41,58,082,,49,32,274,*78
$GPGSV,5,5,17,50,10,089,*4A
$GLGSV,3,1,10,65,12,197,,70,04,040,12,71,40,070,16,72,51,149,26*66
$GLGSV,3,2,10,74,13,162,,75,53,202,33,76,39,299,38,77,01,323,*64
$GLGSV,3,3,10,86,07,358,,87,03,317,*6A
$GNGLL,0419.73019,S,05539.79560,E,075212.00,A,A*6E
$GNRMC,075213.00,A,0419.73028,S,05539.79555,E,0.057,,220525,,,A*72
$GNVTG,,T,,M,0.057,N,0.106,K,A*38
$GNGGA,075213.00,0419.73028,S,05539.79555,E,1,12,0.79,21.3,M,-47.6,M,,*4B
$GNGSA,A,3,25,12,23,15,18,05,24,29,10,,,,1.58,0.79,1.37*1A
$GNGSA,A,3,75,71,72,76,,,,,,,,,1.58,0.79,1.37*1B
$GPGSV,5,1,17,05,14,028,17,10,29,221,26,12,55,147,31,13,10,079,*76
$GPGSV,5,2,17,15,44,099,26,18,24,321,29,23,69,252,30,24,21,154,21*72
$GPGSV,5,3,17,25,83,253,31,28,11,266,21,29,26,009,26,32,02,218,*72
$GPGSV,5,4,17,36,52,277,,40,86,351,38,41,58,082,,49,32,274,*77
$GPGSV,5,5,17,50,10,089,*4A
$GLGSV,3,1,10,65,12,197,,70,04,040,08,71,40,070,21,72,51,149,27*68
$GLGSV,3,2,10,74,13,162,,75,53,202,34,76,39,299,38,77,01,323,*63
$GLGSV,3,3,10,86,07,358,,87,03,317,*6A
$GNGLL,0419.73028,S,05539.79555,E,075213.00,A,A*6B
$GNRMC,075214.00,A,0419.73041,S,05539.79547,E,0.053,,220525,,,A*7D
$GNVTG,,T,,M,0.053,N,0.099,K,A*3B
$GNGGA,075214.00,0419.73041,S,05539.79547,E,1,12,0.79,21.1,M,-47.6,M,,*42
$GNGSA,A,3,25,12,23,15,18,05,24,29,10,,,,1.58,0.79,1.37*1A
$GNGSA,A,3,75,71,72,76,,,,,,,,,1.58,0.79,1.37*1B
$GPGSV,5,1,17,05,14,028,19,10,29,221,26,12,55,147,31,13,10,079,13*7A
$GPGSV,5,2,17,15,44,099,27,18,24,321,29,23,69,252,31,24,21,154,22*71
$GPGSV,5,3,17,25,83,253,32,28,11,266,20,29,26,009,25,32,02,218,*73
$GPGSV,5,4,17,36,52,277,,40,86,351,38,41,58,082,,49,32,274,*77
$GPGSV,5,5,17,50,10,089,*4A
$GLGSV,3,1,10,65,12,197,,70,04,039,11,71,40,070,21,72,51,149,27*6E
$GLGSV,3,2,10,74,13,162,,75,53,202,34,76,39,299,38,77,01,323,*63
$GLGSV,3,3,10,86,07,358,,87,03,317,*6A
$GNGLL,0419.73041,S,05539.79547,E,075214.00,A,A*60
$GNRMC,075215.00,A,0419.73048,S,05539.79541,E,0.047,,220525,,,A*76
$GNVTG,,T,,M,0.047,N,0.088,K,A*3E
$GNGGA,075215.00,0419.73048,S,05539.79541,E,1,12,0.79,21.2,M,-47.6,M,,*4F
$GNGSA,A,3,25,12,23,15,18,05,24,29,10,,,,1.58,0.79,1.37*1A
$GNGSA,A,3,75,71,72,76,,,,,,,,,1.58,0.79,1.37*1B
$GPGSV,5,1,17,05,14,028,19,10,29,221,27,12,55,147,31,13,10,079,13*7B
$GPGSV,5,2,17,15,44,099,26,18,24,321,29,23,69,252,32,24,21,154,22*73
$GPGSV,5,3,17,25,83,253,32,28,11,266,20,29,26,009,25,32,02,218,*73
$GPGSV,5,4,17,36,52,277,,40,86,351,38,41,58,082,,49,32,274,*77
$GPGSV,5,5,17,50,10,089,*4A
$GLGSV,3,1,10,65,12,197,,70,04,039,07,71,40,069,22,72,51,149,28*6D
$GLGSV,3,2,10,74,13,162,,75,53,202,34,76,39,299,37,77,01,323,*6C
$GLGSV,3,3,10,86,07,358,,87,03,317,*6A
$GNGLL,0419.73048,S,05539.79541,E,075215.00,A,A*6E
$GNRMC,075216.00,A,0419.73050,S,05539.79545,E,0.085,,220525,,,A*76
$GNVTG,,T,,M,0.085,N,0.157,K,A*33
$GNGGA,075216.00,0419.73050,S,05539.79545,E,1,12,0.79,21.2,M,-47.6,M,,*41
$GNGSA,A,3,25,12,23,15,18,05,24,29,10,,,,1.58,0.79,1.37*1A
$GNGSA,A,3,75,71,72,76,,,,,,,,,1.58,0.79,1.37*1B
$GPGSV,5,1,17,05,14,028,19,10,29,221,27,12,55,147,32,13,10,079,09*73
$GPGSV,5,2,17,15,44,099,26,18,24,321,30,23,69,252,31,24,21,154,22*78
$GPGSV,5,3,17,25,83,253,33,28,11,266,21,29,26,009,24,32,02,218,*72
$GPGSV,5,4,17,36,52,277,,40,86,351,38,41,58,082,,49,32,274,*77
$GPGSV,5,5,17,50,10,089,*4A
$GLGSV,3,1,10,65,12,197,,70,04,039,10,71,40,069,23,72,51,148,28*6B
$GLGSV,3,2,10,74,13,162,,75,53,202,33,76,39,299,35,77,01,323,*69
$GLGSV,3,3,10,86,07,358,,87,03,317,*6A
$GNGLL,0419.73050,S,05539.79545,E,075216.00,A,A*60
$GNRMC,075217.00,A,0419.73048,S,05539.79542,E,0.181,,220525,,,A*7C
$GNVTG,,T,,M,0.181,N,0.336,K,A*33
$GNGGA,075217.00,0419.73048,S,05539.79542,E,1,12,0.79,21.4,M,-47.6,M,,*48
$GNGSA,A,3,25,12,23,15,18,05,24,29,10,,,,1.58,0.79,1.37*1A
$GNGSA,A,3,75,71,72,76,,,,,,,,,1.58,0.79,1.37*1B
$GPGSV,5,1,17,05,14,028,20,10,29,221,27,12,55,147,32,13,10,079,07*77
$GPGSV,5,2,17,15,44,099,26,18,24,321,30,23,69,252,30,24,21,154,21*7A
$GPGSV,5,3,17,25,83,253,32,28,11,266,21,29,26,009,21,32,02,218,*76
$GPGSV,5,4,17,36,52,277,,40,86,351,28,41,58,082,,49,32,274,*76
$GPGSV,5,5,17,50,10,089,*4A
$GLGSV,3,1,10,65,12,197,,70,04,039,09,71,40,069,23,72,51,148,29*62
$GLGSV,3,2,10,74,13,162,,75,53,202,33,76,39,299,36,77,01,323,*6A
$GLGSV,3,3,10,86,07,358,,87,03,317,*6A
$GNGLL,0419.73048,S,05539.79542,E,075217.00,A,A*6F
$GNRMC,075218.00,A,0419.73048,S,05539.79541,E,0.051,,220525,,,A*7C
$GNVTG,,T,,M,0.051,N,0.094,K,A*34
$GNGGA,075218.00,0419.73048,S,05539.79541,E,1,12,0.79,21.7,M,-47.6,M,,*47
$GNGSA,A,3,25,12,23,15,18,05,24,29,10,,,,1.58,0.79,1.37*1A
$GNGSA,A,3,75,71,72,76,,,,,,,,,1.58,0.79,1.37*1B
$GPGSV,5,1,17,05,14,028,20,10,29,221,27,12,55,147,32,13,10,079,07*77
$GPGSV,5,2,17,15,44,099,25,18,24,321,30,23,69,252,31,24,21,154,21*78
$GPGSV,5,3,17,25,83,253,33,28,11,266,21,29,26,009,19,32,02,218,*7C
$GPGSV,5,4,17,36,52,277,,40,86,351,33,41,58,082,,49,32,274,*7C
$GPGSV,5,5,17,50,10,089,*4A
$GLGSV,3,1,10,65,12,197,,70,04,039,09,71,40,069,24,72,51,148,28*64
$GLGSV,3,2,10,74,12,162,,75,53,202,33,76,39,299,36,77,01,323,*6B
$GLGSV,3,3,10,86,07,358,,87,03,317,*6A
$GNGLL,0419.73048,S,05539.79541,E,075218.00,A,A*63
$GNRMC,075219.00,A,0419.73048,S,05539.79543,E,0.078,,220525,,,A*74
$GNVTG,,T,,M,0.078,N,0.145,K,A*32
$GNGGA,075219.00,0419.73048,S,05539.79543,E,1,12,0.79,21.9,M,-47.6,M,,*4A
$GNGSA,A,3,25,12,23,15,18,05,24,29,10,,,,1.58,0.79,1.37*1A
$GNGSA,A,3,75,71,72,76,,,,,,,,,1.58,0.79,1.37*1B
$GPGSV,5,1,17,05,14,028,21,10,29,221,27,12,55,147,30,13,10,079,06*75
$GPGSV,5,2,17,15,44,099,26,18,24,321,30,23,69,252,30,24,21,154,20*7B
$GPGSV,5,3,17,25,83,253,33,28,11,266,22,29,26,009,19,32,02,218,*7F
$GPGSV,5,4,17,36,52,277,,40,86,351,35,41,58,082,,49,32,274,*7A
$GPGSV,5,5,17,50,10,089,*4A
$GLGSV,3,1,10,65,12,197,,70,04,039,09,71,40,069,25,72,51,148,28*65
$GLGSV,3,2,10,74,12,162,,75,52,201,33,76,39,299,35,77,01,323,*6A
$GLGSV,3,3,10,86,07,358,,87,03,317,*6A
$GNGLL,0419.73048,S,05539.79543,E,075219.00,A,A*60
$GNRMC,075220.00,A,0419.73046,S,05539.79542,E,0.083,,220525,,,A*75
$GNVTG,,T,,M,0.083,N,0.154,K,A*36
$GNGGA,075220.00,0419.73046,S,05539.79542,E,1,12,0.79,22.1,M,-47.6,M,,*44
$GNGSA,A,3,25,12,23,15,18,05,24,29,10,,,,1.58,0.79,1.37*1A
$GNGSA,A,3,75,71,72,76,,,,,,,,,1.58,0.79,1.37*1B
$GPGSV,5,1,17,05,14,028,21,10,29,221,29,12,55,147,30,13,10,079,12*7E
$GPGSV,5,2,17,15,44,099,27,18,24,321,28,23,69,252,30,24,21,154,20*73
$GPGSV,5,3,17,25,83,253,30,28,11,266,21,29,26,009,18,32,02,218,*7E
$GPGSV,5,4,17,36,52,277,,40,86,351,35,41,58,082,,49,32,274,*7A
$GPGSV,5,5,17,50,10,089,*4A
$GLGSV,3,1,10,65,12,197,,70,04,039,08,71,40,069,25,72,51,148,28*64
$GLGSV,3,2,10,74,12,162,,75,52,201,33,76,40,298,33,77,01,323,*63
$GLGSV,3,3,10,86,07,358,,87,03,317,*6A
$GNGLL,0419.73046,S,05539.79542,E,075220.00,A,A*65
$GNRMC,075221.00,A,0419.73043,S,05539.79546,E,0.122,,220525,,,A*7F
$GNVTG,,T,,M,0.122,N,0.225,K,A*39
$GNGGA,075221.00,0419.73043,S,05539.79546,E,1,12,0.79,22.4,M,-47.6,M,,*41
$GNGSA,A,3,25,12,23,15,18,05,24,29,10,13,,,1.58,0.79,1.37*18
$GNGSA,A,3,75,71,72,76,,,,,,,,,1.58,0.79,1.37*1B
$GPGSV,5,1,17,05,14,028,22,10,29,221,29,12,55,147,31,13,10,079,12*7C
$GPGSV,5,2,17,15,44,099,26,18,24,321,26,23,69,252,31,24,21,154,21*7C
$GPGSV,5,3,17,25,83,253,31,28,11,266,21,29,26,009,19,32,02,218,*7E
$GPGSV,5,4,17,36,52,277,,40,86,351,31,41,58,082,,49,32,274,*7E
$GPGSV,5,5,17,50,10,089,*4A
$GLGSV,3,1,10,65,12,197,,70,04,039,11,71,40,069,24,72,51,148,28*6D
$GLGSV,3,2,10,74,12,162,,75,52,201,33,76,40,298,34,77,01,322,*65
$GLGSV,3,3,10,86,07,358,,87,03,317,*6A
$GNGLL,0419.73043,S,05539.79546,E,075221.00,A,A*65
$GNRMC,075222.00,A,0419.73042,S,05539.79546,E,0.084,,220525,,,A*70
$GNVTG,,T,,M,0.084,N,0.155,K,A*30
$GNGGA,075222.00,0419.73042,S,05539.79546,E,1,12,0.79,22.4,M,-47.6,M,,*43
$GNGSA,A,3,25,12,23,15,18,05,24,29,10,13,,,1.58,0.79,1.37*18
$GNGSA,A,3,75,71,72,76,,,,,,,,,1.58,0.79,1.37*1B
$GPGSV,5,1,17,05,14,028,24,10,29,221,27,12,55,147,33,13,10,079,12*76
$GPGSV,5,2,17,15,44,099,25,18,24,321,29,23,69,252,31,24,21,154,19*7B
$GPGSV,5,3,17,25,83,253,35,28,11,266,21,29,26,009,20,32,02,218,*70
$GPGSV,5,4,17,36,52,277,,40,86,351,39,41,58,082,,49,32,274,*76
$GPGSV,5,5,17,50,10,089,*4A
$GLGSV,3,1,10,65,12,197,,70,04,039,10,71,40,069,25,72,51,148,29*6C
$GLGSV,3,2,10,74,12,162,,75,52,201,34,76,40,298,34,77,01,322,*62
$GLGSV,3,3,10,86,07,358,,87,03,317,*6A
$GNGLL,0419.73042,S,05539.79546,E,075222.00,A,A*67
$GNRMC,075223.00,A,0419.73043,S,05539.79544,E,0.120,,220525,,,A*7D
$GNVTG,,T,,M,0.120,N,0.223,K,A*3D
$GNGGA,075223.00,0419.73043,S,05539.79544,E,1,12,0.79,22.5,M,-47.6,M,,*40
$GNGSA,A,3,25,12,23,15,18,05,24,29,10,13,,,1.58,0.79,1.37*18
$GNGSA,A,3,75,71,72,76,,,,,,,,,1.58,0.79,1.37*1B
$GPGSV,5,1,17,05,14,028,24,10,29,221,27,12,55,147,32,13,10,079,12*77
$GPGSV,5,2,17,15,44,099,23,18,24,321,27,23,69,252,31,24,21,154,19*73
$GPGSV,5,3,17,25,83,253,34,28,11,266,21,29,26,009,21,32,02,218,*70
$GPGSV,5,4,17,36,52,277,,40,86,351,37,41,58,082,,49,32,274,*78
$GPGSV,5,5,17,50,10,089,*4A
$GLGSV,3,1,10,65,12,197,,70,04,039,08,71,40,069,25,72,51,148,29*65
$GLGSV,3,2,10,74,12,162,,75,52,201,34,76,40,298,34,77,01,322,*62
$GLGSV,3,3,10,86,07,358,,87,03,317,*6A
$GNGLL,0419.73043,S,05539.79544,E,075223.00,A,A*65
$GNRMC,075224.00,A,0419.73043,S,05539.79542,E,0.127,,220525,,,A*7B
$GNVTG,,T,,M,0.127,N,0.236,K,A*3E
$GNGGA,075224.00,0419.73043,S,05539.79542,E,1,12,0.79,22.7,M,-47.6,M,,*43
$GNGSA,A,3,25,12,23,15,18,05,24,29,10,13,,,1.58,0.79,1.37*18
$GNGSA,A,3,75,71,72,76,,,,,,,,,1.58,0.79,1.37*1B
$GPGSV,5,1,17,05,14,028,24,10,29,221,28,12,55,147,32,13,10,079,12*78
$GPGSV,5,2,17,15,44,099,23,18,24,321,26,23,69,252,31,24,21,154,20*78
$GPGSV,5,3,17,25,83,253,33,28,11,266,20,29,26,009,22,32,02,218,*75
$GPGSV,5,4,17,36,52,277,,40,86,351,38,41,58,082,,49,32,274,*77
$GPGSV,5,5,17,50,10,089,*4A
$GLGSV,3,1,10,65,12,197,,70,04,039,08,71,40,069,25,72,51,148,29*65
$GLGSV,3,2,10,74,12,162,,75,52,201,33,76,40,298,33,77,01,322,*62
$GLGSV,3,3,10,86,07,358,,87,03,317,*6A
$GNGLL,0419.73043,S,05539.79542,E,075224.00,A,A*64
$GNRMC,075225.00,A,0419.73041,S,05539.79540,E,0.082,,220525,,,A*74
$GNVTG,,T,,M,0.082,N,0.151,K,A*32
$GNGGA,075225.00,0419.73041,S,05539.79540,E,1,12,0.79,22.6,M,-47.6,M,,*43
$GNGSA,A,3,25,12,23,15,18,05,24,29,10,13,,,1.58,0.79,1.37*18
$GNGSA,A,3,75,71,72,76,,,,,,,,,1.58,0.79,1.37*1B
$GPGSV,5,1,17,05,14,028,23,10,29,221,28,12,55,147,32,13,10,079,12*7F
$GPGSV,5,2,17,15,44,099,22,18,24,321,26,23,69,252,31,24,21,154,20*79
$GPGSV,5,3,17,25,83,253,34,28,11,266,21,29,26,009,23,32,02,218,*72
$GPGSV,5,4,17,36,52,277,,40,86,351,38,41,58,082,,49,32,274,*77
$GPGSV,5,5,17,50,10,089,*4A
$GLGSV,3,1,10,65,12,197,,70,04,039,11,71,40,069,23,72,51,148,30*63
$GLGSV,3,2,10,74,12,162,,75,52,201,33,76,40,298,34,77,01,322,*65
$GLGSV,3,3,10,86,07,358,,87,03,317,*6A
$GNGLL,0419.73041,S,05539.79540,E,075225.00,A,A*65
$GNRMC,075226.00,A,0419.73036,S,05539.79543,E,0.136,,220525,,,A*7A
$GNVTG,,T,,M,0.136,N,0.253,K,A*3D
$GNGGA,075226.00,0419.73036,S,05539.79543,E,1,12,0.79,22.3,M,-47.6,M,,*46
$GNGSA,A,3,25,12,23,15,18,05,24,29,10,13,,,1.58,0.79,1.37*18
$GNGSA,A,3,75,71,72,76,,,,,,,,,1.58,0.79,1.37*1B
$GPGSV,5,1,17,05,14,028,22,10,29,221,28,12,55,147,33,13,10,079,13*7E
$GPGSV,5,2,17,15,44,099,23,18,24,321,27,23,69,252,31,24,21,154,20*79
$GPGSV,5,3,17,25,83,253,34,28,11,266,21,29,26,009,23,32,02,218,*72
$GPGSV,5,4,17,36,52,277,,40,86,351,38,41,58,082,,49,32,274,*77
$GPGSV,5,5,17,50,10,089,*4A
$GLGSV,3,1,10,65,12,197,,70,04,039,10,71,40,069,23,72,51,148,31*63
$GLGSV,3,2,10,74,12,162,,75,52,201,33,76,40,298,34,77,01,322,*65
$GLGSV,3,3,10,86,07,358,,87,03,317,*6A
$GNGLL,0419.73036,S,05539.79543,E,075226.00,A,A*65
$GNRMC,075227.00,A,0419.73032,S,05539.79553,E,0.207,,220525,,,A*7F
$GNVTG,,T,,M,0.207,N,0.383,K,A*30
$GNGGA,075227.00,0419.73032,S,05539.79553,E,1,12,0.76,21.8,M,-47.6,M,,*45
$GNGSA,A,3,25,12,23,15,18,05,24,29,10,13,,,1.46,0.76,1.25*1B
$GNGSA,A,3,75,71,72,76,,,,,,,,,1.46,0.76,1.25*18
$GPGSV,5,1,17,05,14,028,22,10,29,221,28,12,55,147,34,13,10,079,13*79
$GPGSV,5,2,17,15,44,099,23,18,24,321,28,23,69,252,32,24,21,154,20*75
$GPGSV,5,3,17,25,83,253,36,28,11,266,22,29,26,009,23,32,02,218,*73
$GPGSV,5,4,17,36,52,277,,40,86,351,40,41,58,082,31,49,32,274,*7A
$GPGSV,5,5,17,50,10,089,*4A
$GLGSV,3,1,10,65,12,197,,70,04,039,11,71,40,069,24,72,51,148,31*65
$GLGSV,3,2,10,74,12,162,,75,52,201,33,76,40,298,34,77,01,322,*65
$GLGSV,3,3,10,86,07,358,,87,03,317,*6A
$GNGLL,0419.73032,S,05539.79553,E,075227.00,A,A*61
$GNRMC,075228.00,A,0419.73028,S,05539.79554,E,0.063,,220525,,,A*7C
$GNVTG,,T,,M,0.063,N,0.117,K,A*3F
$GNGGA,075228.00,0419.73028,S,05539.79554,E,1,12,0.79,21.6,M,-47.6,M,,*47
$GNGSA,A,3,25,12,23,15,18,05,24,29,10,13,,,1.58,0.79,1.37*18
$GNGSA,A,3,75,71,72,76,,,,,,,,,1.58,0.79,1.37*1B
$GPGSV,5,1,17,05,14,028,22,10,29,221,29,12,55,147,34,13,10,079,13*78
$GPGSV,5,2,17,15,44,099,23,18,24,321,28,23,69,252,32,24,21,154,20*75
$GPGSV,5,3,17,25,83,253,36,28,11,266,22,29,26,009,23,32,02,218,*73
$GPGSV,5,4,17,36,52,277,,40,86,351,38,41,58,082,31,49,32,274,*75
$GPGSV,5,5,17,50,10,089,*4A
$GLGSV,3,1,10,65,12,197,,70,04,039,13,71,40,069,23,72,51,148,31*60
$GLGSV,3,2,10,74,12,162,,75,52,201,34,76,40,298,33,77,01,322,*65
$GLGSV,3,3,10,86,07,358,,87,03,317,*6A
$GNGLL,0419.73028,S,05539.79554,E,075228.00,A,A*62
$GNRMC,075229.00,A,0419.73029,S,05539.79552,E,0.129,,220525,,,A*75
$GNVTG,,T,,M,0.129,N,0.239,K,A*3F
$GNGGA,075229.00,0419.73029,S,05539.79552,E,1,12,0.79,21.5,M,-47.6,M,,*42
$GNGSA,A,3,25,12,23,15,18,05,24,29,10,13,,,1.58,0.79,1.37*18
$GNGSA,A,3,75,71,72,76,,,,,,,,,1.58,0.79,1.37*1B
$GPGSV,5,1,17,05,14,028,21,10,29,221,29,12,55,147,34,13,10,079,13*7B
$GPGSV,5,2,17,15,44,099,24,18,24,321,29,23,69,252,31,24,21,154,20*70
$GPGSV,5,3,17,25,83,253,35,28,11,266,21,29,26,009,21,32,02,218,*71
$GPGSV,5,4,17,36,52,277,,40,86,351,36,41,58,082,30,49,32,274,*7A
$GPGSV,5,5,17,50,10,089,*4A
$GLGSV,3,1,10,65,12,197,,70,04,039,09,71,40,069,23,72,51,148,31*6B
$GLGSV,3,2,10,74,12,162,,75,52,201,34,76,40,298,32,77,01,322,*64
$GLGSV,3,3,10,86,07,358,,87,03,317,*6A
$GNGLL,0419.73029,S,05539.79552,E,075229.00,A,A*64
$GNRMC,075230.00,A,0419.73027,S,05539.79553,E,0.048,,220525,,,A*74
$GNVTG,,T,,M,0.048,N,0.089,K,A*30
$GNGGA,075230.00,0419.73027,S,05539.79553,E,1,12,0.79,21.5,M,-47.6,M,,*45
$GNGSA,A,3,25,12,23,15,18,05,24,29,10,13,,,1.58,0.79,1.37*18
$GNGSA,A,3,75,71,72,76,,,,,,,,,1.58,0.79,1.37*1B
$GPGSV,5,1,17,05,14,028,19,10,29,221,29,12,55,147,33,13,10,079,13*77
$GPGSV,5,2,17,15,44,099,24,18,24,321,28,23,69,252,30,24,21,154,20*70
$GPGSV,5,3,17,25,83,253,34,28,11,266,20,29,26,009,19,32,02,218,*7A
$GPGSV,5,4,17,36,52,277,,40,86,351,36,41,58,082,29,49,32,274,*72
$GPGSV,5,5,17,50,10,089,*4A
$GLGSV,3,1,10,65,12,197,,70,04,039,06,71,40,069,23,72,51,148,31*64
$GLGSV,3,2,10,74,12,162,,75,52,201,34,76,40,298,32,77,01,322,*64
$GLGSV,3,3,10,86,07,359,,87,03,317,*6B
$GNGLL,0419.73027,S,05539.79553,E,075230.00,A,A*63
$GNRMC,075231.00,A,0419.73021,S,05539.79554,E,0.117,,220525,,,A*7F
$GNVTG,,T,,M,0.117,N,0.217,K,A*3E
$GNGGA,075231.00,0419.73021,S,05539.79554,E,1,12,0.79,21.4,M,-47.6,M,,*44
$GNGSA,A,3,25,12,23,15,18,05,24,29,10,13,,,1.58,0.79,1.37*18
$GNGSA,A,3,75,71,72,76,,,,,,,,,1.58,0.79,1.37*1B
$GPGSV,5,1,17,05,14,028,18,10,29,221,29,12,55,147,32,13,10,079,13*77
$GPGSV,5,2,17,15,44,099,24,18,24,321,27,23,69,252,30,24,21,154,19*75
$GPGSV,5,3,17,25,83,253,33,28,11,266,19,29,26,009,20,32,02,218,*7D
$GPGSV,5,4,17,36,52,277,,40,86,351,35,41,58,082,30,49,32,274,*79
$GPGSV,5,5,17,50,10,089,*4A
$GLGSV,3,1,10,65,12,197,,70,04,039,06,71,40,069,22,72,51,148,31*65
$GLGSV,3,2,10,74,12,162,,75,52,201,32,76,40,298,33,77,01,322,*63
$GLGSV,3,3,10,86,07,359,,87,03,318,*64
$GNGLL,0419.73021,S,05539.79554,E,075231.00,A,A*63
$GNRMC,075232.00,A,0419.73017,S,05539.79558,E,0.109,,220525,,,A*7A
$GNVTG,,T,,M,0.109,N,0.201,K,A*36
$GNGGA,075232.00,0419.73017,S,05539.79558,E,1,12,0.79,21.2,M,-47.6,M,,*48
$GNGSA,A,3,25,12,23,15,18,05,24,29,10,13,,,1.58,0.79,1.37*18
$GNGSA,A,3,75,71,72,76,,,,,,,,,1.58,0.79,1.37*1B
$GPGSV,5,1,17,05,14,028,16,10,29,221,30,12,55,147,33,13,10,079,17*74
$GPGSV,5,2,17,15,44,099,25,18,24,321,27,23,69,252,31,24,21,154,19*75
$GPGSV,5,3,17,25,83,253,33,28,11,266,18,29,26,009,22,32,02,218,*7E
$GPGSV,5,4,17,36,52,277,,40,86,351,35,41,58,082,30,49,32,274,*79
$GPGSV,5,5,17,50,10,089,*4A
$GLGSV,3,1,10,65,12,197,,70,04,039,06,71,40,069,23,72,51,148,31*64
$GLGSV,3,2,10,74,12,162,,75,52,201,33,76,40,298,33,77,01,322,*62
$GLGSV,3,3,10,86,07,359,,87,03,318,*64
$GNGLL,0419.73017,S,05539.79558,E,075232.00,A,A*69
$GNRMC,075233.00,A,0419.73013,S,05539.79556,E,0.028,,220525,,,A*73
$GNVTG,,T,,M,0.028,N,0.052,K,A*30
$GNGGA,075233.00,0419.73013,S,05539.79556,E,1,12,0.79,21.3,M,-47.6,M,,*42
$GNGSA,A,3,25,12,23,15,18,05,24,29,10,,,,1.58,0.79,1.37*1A
$GNGSA,A,3,75,71,72,76,,,,,,,,,1.58,0.79,1.37*1B
$GPGSV,5,1,17,05,14,028,16,10,29,221,30,12,55,147,33,13,10,079,*72
$GPGSV,5,2,17,15,44,099,25,18,24,321,27,23,69,252,32,24,21,154,17*78
$GPGSV,5,3,17,25,83,253,32,28,11,266,18,29,26,009,24,32,02,218,*79
$GPGSV,5,4,17,36,52,277,,40,86,351,35,41,58,082,30,49,32,274,*79
$GPGSV,5,5,17,50,10,089,*4A
$GLGSV,3,1,10,65,12,197,,70,04,039,12,71,40,069,24,72,51,148,31*66
$GLGSV,3,2,10,74,12,162,,75,52,201,33,76,40,298,33,77,01,322,*62
$GLGSV,3,3,10,86,07,359,,87,03,318,*64
$GNGLL,0419.73013,S,05539.79556,E,075233.00,A,A*62
$GNRMC,075234.00,A,0419.73009,S,05539.79551,E,0.039,,220525,,,A*78
$GNVTG,,T,,M,0.039,N,0.073,K,A*33
$GNGGA,075234.00,0419.73009,S,05539.79551,E,1,12,0.79,21.3,M,-47.6,M,,*49
$GNGSA,A,3,25,12,23,15,18,05,24,29,10,,,,1.58,0.79,1.37*1A
$GNGSA,A,3,75,71,72,76,,,,,,,,,1.58,0.79,1.37*1B
$GPGSV,5,1,17,05,14,028,15,10,29,221,30,12,55,147,32,13,10,079,17*76
$GPGSV,5,2,17,15,44,099,24,18,24,321,26,23,69,252,31,24,21,154,17*7B
$GPGSV,5,3,17,25,83,253,32,28,11,266,18,29,26,009,24,32,02,218,*79
$GPGSV,5,4,17,36,52,277,,40,86,351,34,41,58,082,30,49,32,274,*78
$GPGSV,5,5,17,50,10,089,*4A
$GLGSV,3,1,10,65,12,197,,70,04,039,12,71,40,069,25,72,51,148,31*67
$GLGSV,3,2,10,74,12,162,,75,52,201,33,76,40,298,33,77,01,322,*62
$GLGSV,3,3,10,86,07,359,,87,03,318,*64
$GNGLL,0419.73009,S,05539.79551,E,075234.00,A,A*69
$GNRMC,075235.00,A,0419.73009,S,05539.79549,E,0.068,,220525,,,A*74
$GNVTG,,T,,M,0.068,N,0.125,K,A*35
$GNGGA,075235.00,0419.73009,S,05539.79549,E,1,12,0.79,21.2,M,-47.6,M,,*40
$GNGSA,A,3,25,12,23,15,18,05,24,29,10,,,,1.58,0.79,1.37*1A
$GNGSA,A,3,75,71,72,76,,,,,,,,,1.58,0.79,1.37*1B
$GPGSV,5,1,17,05,14,028,14,10,29,221,29,12,55,147,33,13,10,079,16*7F
$GPGSV,5,2,17,15,44,099,26,18,24,321,27,23,69,252,32,24,21,154,18*74
$GPGSV,5,3,17,25,83,253,33,28,11,266,19,29,26,009,25,32,02,218,*78
$GPGSV,5,4,17,36,52,277,,40,86,351,36,41,58,082,31,49,32,274,*7B
$GPGSV,5,5,17,50,10,089,*4A
$GLGSV,3,1,10,65,12,197,,70,04,039,09,71,40,069,25,72,51,148,31*6D
$GLGSV,3,2,10,74,12,162,,75,52,201,33,76,40,298,32,77,01,322,*63
$GLGSV,3,3,10,86,07,359,,87,03,318,*64
$GNGLL,0419.73009,S,05539.79549,E,075235.00,A,A*61
$GNRMC,075236.00,A,0419.73009,S,05539.79550,E,0.011,,220525,,,A*71
$GNVTG,,T,,M,0.011,N,0.021,K,A*3E
$GNGGA,075236.00,0419.73009,S,05539.79550,E,1,12,0.79,21.0,M,-47.6,M,,*49
$GNGSA,A,3,25,12,23,15,18,05,24,29,10,,,,1.58,0.79,1.37*1A
$GNGSA,A,3,75,71,72,76,,,,,,,,,1.58,0.79,1.37*1B
$GPGSV,5,1,17,05,14,028,14,10,29,221,29,12,55,147,33,13,10,079,13*7A
$GPGSV,5,2,17,15,44,099,25,18,24,321,27,23,69,252,32,24,21,154,19*76
$GPGSV,5,3,17,25,83,253,34,28,11,266,18,29,26,009,25,32,02,218,*7E
$GPGSV,5,4,17,36,52,277,,40,86,351,36,41,58,082,31,49,32,274,*7B
$GPGSV,5,5,17,50,10,089,*4A
$GLGSV,3,1,10,65,12,197,,70,04,039,09,71,40,069,26,72,51,148,30*6F
$GLGSV,3,2,10,74,12,162,,75,52,201,33,76,40,298,32,77,01,322,*63
$GLGSV,3,3,10,86,07,359,,87,03,318,*64
$GNGLL,0419.73009,S,05539.79550,E,075236.00,A,A*6A
$GNRMC,075237.00,A,0419.73009,S,05539.79553,E,0.068,,220525,,,A*7D
$GNVTG,,T,,M,0.068,N,0.127,K,A*37
$GNGGA,075237.00,0419.73009,S,05539.79553,E,1,12,0.79,21.0,M,-47.6,M,,*4B
$GNGSA,A,3,25,12,23,15,18,05,24,29,10,,,,1.58,0.79,1.37*1A
$GNGSA,A,3,75,71,72,76,,,,,,,,,1.58,0.79,1.37*1B
$GPGSV,5,1,17,05,14,028,19,10,29,221,30,12,55,147,33,13,10,079,14*78
$GPGSV,5,2,17,15,44,099,24,18,24,321,28,23,69,252,32,24,21,154,19*78
$GPGSV,5,3,17,25,83,253,34,28,11,266,18,29,26,009,24,32,02,218,*7F
$GPGSV,5,4,17,36,52,277,,40,86,351,38,41,58,082,30,49,32,274,*74
$GPGSV,5,5,17,50,10,089,*4A
$GLGSV,3,1,10,65,12,197,,70,04,039,09,71,40,069,25,72,51,148,29*64
$GLGSV,3,2,10,74,12,162,,75,52,201,33,76,40,298,33,77,01,322,*62
$GLGSV,3,3,10,86,07,359,,87,03,318,*64
$GNGLL,0419.73009,S,05539.79553,E,075237.00,A,A*68
$GNRMC,075238.00,A,0419.73007,S,05539.79549,E,0.040,,220525,,,A*7D
$GNVTG,,T,,M,0.040,N,0.075,K,A*3B
$GNGGA,075238.00,0419.73007,S,05539.79549,E,1,12,0.79,21.1,M,-47.6,M,,*40
$GNGSA,A,3,25,12,23,15,18,05,24,29,10,,,,1.58,0.79,1.37*1A
$GNGSA,A,3,75,71,72,76,,,,,,,,,1.58,0.79,1.37*1B
$GPGSV,5,1,17,05,14,028,19,10,29,221,30,12,55,147,29,13,10,079,14*73
$GPGSV,5,2,17,15,44,099,23,18,24,321,28,23,69,252,31,24,21,154,17*72
$GPGSV,5,3,17,25,83,253,31,28,11,266,15,29,26,009,21,32,02,218,*72
$GPGSV,5,4,17,36,52,277,,40,86,351,36,41,58,082,29,49,32,274,*72
$GPGSV,5,5,17,50,10,089,*4A
$GLGSV,3,1,10,65,12,197,,70,04,039,09,71,40,069,25,72,51,148,29*64
$GLGSV,3,2,10,74,12,162,,75,52,201,32,76,40,298,33,77,01,322,*63
$GLGSV,3,3,10,86,07,359,,87,03,318,*64
$GNGLL,0419.73007,S,05539.79549,E,075238.00,A,A*62
$GNRMC,075239.00,A,0419.73006,S,05539.79539,E,0.211,,220525,,,A*7C
$GNVTG,,T,,M,0.211,N,0.390,K,A*35
$GNGGA,075239.00,0419.73006,S,05539.79539,E,1,12,0.76,21.6,M,-47.6,M,,*4F
$GNGSA,A,3,25,12,23,15,18,05,24,29,10,13,,,1.46,0.76,1.25*1B
$GNGSA,A,3,75,71,72,76,,,,,,,,,1.46,0.76,1.25*18
$GPGSV,5,1,17,05,14,028,17,10,29,221,30,12,55,147,34,13,10,079,14*71
$GPGSV,5,2,17,15,44,099,22,18,24,321,28,23,69,252,31,24,21,154,16*72
$GPGSV,5,3,17,25,83,253,34,28,11,266,14,29,26,009,21,32,02,218,*76
$GPGSV,5,4,17,36,52,277,,40,86,351,37,41,58,082,29,49,32,274,*73
$GPGSV,5,5,17,50,10,089,*4A
$GLGSV,3,1,10,65,12,197,,70,04,039,09,71,40,069,25,72,51,148,30*6C
$GLGSV,3,2,10,74,12,162,,75,52,201,33,76,40,298,33,77,01,322,*62
$GLGSV,3,3,10,86,07,359,,87,03,318,*64
$GNGLL,0419.73006,S,05539.79539,E,075239.00,A,A*65
$GNRMC,075240.00,A,0419.73007,S,05539.79532,E,0.100,,220525,,,A*7B
$GNVTG,,T,,M,0.100,N,0.184,K,A*31
$GNGGA,075240.00,0419.73007,S,05539.79532,E,1,12,0.76,21.9,M,-47.6,M,,*44
$GNGSA,A,3,25,12,23,15,18,05,24,29,10,13,,,1.46,0.76,1.25*1B
$GNGSA,A,3,75,71,72,76,,,,,,,,,1.46,0.76,1.25*18
$GPGSV,5,1,17,05,14,028,16,10,29,221,30,12,55,147,33,13,10,079,15*76
$GPGSV,5,2,17,15,44,099,21,18,24,321,28,23,69,252,31,24,21,154,16*71
$GPGSV,5,3,17,25,83,253,34,28,11,266,18,29,26,009,23,32,02,218,*78
$GPGSV,5,4,17,36,52,277,,40,86,351,37,41,58,082,30,49,32,274,*7B
$GPGSV,5,5,17,50,10,089,*4A
$GLGSV,3,1,10,65,12,197,,70,04,039,09,71,40,069,25,72,51,148,30*6C
$GLGSV,3,2,10,74,12,162,,75,52,201,32,76,40,298,32,77,01,322,*62
$GLGSV,3,3,10,86,07,359,,87,03,318,*64
$GNGLL,0419.73007,S,05539.79532,E,075240.00,A,A*61
$GNRMC,075241.00,A,0419.73011,S,05539.79524,E,0.069,,220525,,,A*74
$GNVTG,,T,,M,0.069,N,0.127,K,A*36
$GNGGA,075241.00,0419.73011,S,05539.79524,E,1,12,0.76,22.0,M,-47.6,M,,*4F
$GNGSA,A,3,25,12,23,15,18,05,24,29,10,13,,,1.46,0.76,1.25*1B
$GNGSA,A,3,75,71,72,76,,,,,,,,,1.46,0.76,1.25*18
$GPGSV,5,1,17,05,14,028,18,10,29,221,30,12,55,147,32,13,10,079,15*79
$GPGSV,5,2,17,15,44,099,22,18,24,321,30,23,69,252,31,24,21,154,18*75
$GPGSV,5,3,17,25,83,253,31,28,11,266,17,29,26,009,25,32,02,218,*74
$GPGSV,5,4,17,36,52,277,,40,86,351,39,41,58,082,30,49,32,274,*75
$GPGSV,5,5,17,50,10,089,*4A
$GLGSV,3,1,10,65,12,197,,70,04,039,09,71,40,069,23,72,51,148,30*6A
$GLGSV,3,2,10,74,12,162,,75,52,201,33,76,40,298,33,77,01,322,*62
$GLGSV,3,3,10,86,07,359,,87,03,318,*64
$GNGLL,0419.73011,S,05539.79524,E,075241.00,A,A*60
$GNRMC,075242.00,A,0419.73011,S,05539.79520,E,0.035,,220525,,,A*7A
$GNVTG,,T,,M,0.035,N,0.065,K,A*38
$GNGGA,075242.00,0419.73011,S,05539.79520,E,1,12,0.79,22.1,M,-47.6,M,,*46
$GNGSA,A,3,25,12,23,15,18,05,24,29,10,,,,1.58,0.79,1.37*1A
$GNGSA,A,3,75,71,72,76,,,,,,,,,1.58,0.79,1.37*1B
$GPGSV,5,1,17,05,14,028,20,10,29,221,29,12,55,147,31,13,10,079,10*7C
$GPGSV,5,2,17,15,44,099,22,18,24,321,27,23,69,252,30,24,21,154,17*7D
$GPGSV,5,3,17,25,83,253,32,28,11,266,16,29,26,009,25,32,02,218,*76
$GPGSV,5,4,17,36,52,277,,40,86,351,36,41,58,082,30,49,32,274,*7A
$GPGSV,5,5,17,50,10,089,*4A
$GLGSV,3,1,10,65,12,197,,70,04,039,08,71,40,069,22,72,51,148,29*62
$GLGSV,3,2,10,74,12,162,,75,52,201,32,76,40,298,34,77,01,322,*64
$GLGSV,3,3,10,86,07,359,,87,03,318,*64
$GNGLL,0419.73011,S,05539.79520,E,075242.00,A,A*67
$GNRMC,075243.00,A,0419.73014,S,05539.79515,E,0.105,,220525,,,A*7A
$GNVTG,,T,,M,0.105,N,0.194,K,A*35
$GNGGA,075243.00,0419.73014,S,05539.79515,E,1,12,0.79,22.1,M,-47.6,M,,*44
$GNGSA,A,3,25,12,23,15,18,05,24,29,10,,,,1.58,0.79,1.37*1A
$GNGSA,A,3,75,71,72,76,,,,,,,,,1.58,0.79,1.37*1B
$GPGSV,5,1,17,05,14,028,20,10,29,221,27,12,55,147,29,13,10,079,08*72
$GPGSV,5,2,17,15,44,099,22,18,24,321,26,23,69,252,30,24,21,154,15*7E
$GPGSV,5,3,17,25,83,253,31,28,11,266,13,29,26,009,25,32,02,218,*70
$GPGSV,5,4,17,36,52,277,,40,86,351,36,41,58,082,29,49,32,274,*72
$GPGSV,5,5,17,50,10,089,*4A
$GLGSV,3,1,10,65,12,197,,70,04,039,09,71,40,069,23,72,51,148,29*62
$GLGSV,3,2,10,74,12,162,,75,52,201,33,76,40,298,34,77,01,322,*65
$GLGSV,3,3,10,86,07,359,,87,03,318,*64
$GNGLL,0419.73014,S,05539.79515,E,075243.00,A,A*65
$GNRMC,075244.00,A,0419.73019,S,05539.79505,E,0.102,,220525,,,A*76
$GNVTG,,T,,M,0.102,N,0.188,K,A*3F
$GNGGA,075244.00,0419.73019,S,05539.79505,E,1,12,0.79,22.2,M,-47.6,M,,*4C
$GNGSA,A,3,25,12,23,15,18,05,24,29,10,,,,1.58,0.79,1.37*1A
$GNGSA,A,3,75,71,72,76,,,,,,,,,1.58,0.79,1.37*1B
$GPGSV,5,1,17,05,14,028,19,10,29,221,27,12,54,147,30,13,10,079,08*71
$GPGSV,5,2,17,15,44,099,22,18,24,321,25,23,69,252,30,24,21,154,12*7A
$GPGSV,5,3,17,25,83,253,32,28,11,266,15,29,26,009,23,32,02,218,*73
$GPGSV,5,4,17,36,52,277,,40,86,351,36,41,58,082,28,49,32,274,*73
$GPGSV,5,5,17,50,10,089,*4A
$GLGSV,3,1,10,65,12,197,,70,04,039,09,71,40,069,23,72,51,148,29*62
$GLGSV,3,2,10,74,12,162,,75,52,201,33,76,40,298,34,77,01,322,*65
$GLGSV,3,3,10,86,07,359,,87,03,318,*64
$GNGLL,0419.73019,S,05539.79505,E,075244.00,A,A*6E
$GNRMC,075245.00,A,0419.73020,S,05539.79499,E,0.089,,220525,,,A*7B
$GNVTG,,T,,M,0.089,N,0.164,K,A*3F
$GNGGA,075245.00,0419.73020,S,05539.79499,E,1,12,0.79,22.3,M,-47.6,M,,*42
$GNGSA,A,3,25,12,23,15,18,05,24,29,10,,,,1.58,0.79,1.37*1A
$GNGSA,A,3,75,71,72,76,,,,,,,,,1.58,0.79,1.37*1B
$GPGSV,5,1,17,05,14,028,17,10,29,221,27,12,54,147,29,13,09,079,08*7F
$GPGSV,5,2,17,15,44,099,23,18,24,321,24,23,69,252,30,24,21,154,14*7C
$GPGSV,5,3,17,25,83,253,33,28,11,266,16,29,26,009,24,32,02,218,*76
$GPGSV,5,4,17,36,52,277,,40,86,351,36,41,58,082,29,49,32,274,*72
$GPGSV,5,5,17,50,10,089,*4A
$GLGSV,3,1,10,65,12,197,,70,04,039,09,71,40,069,23,72,51,148,29*62
$GLGSV,3,2,10,74,12,162,,75,52,201,33,76,40,298,34,77,01,322,*65
$GLGSV,3,3,10,86,07,359,,87,03,318,*64
$GNGLL,0419.73020,S,05539.79499,E,075245.00,A,A*61
$GNRMC,075246.00,A,0419.73024,S,05539.79494,E,0.008,,220525,,,A*78
$GNVTG,,T,,M,0.008,N,0.016,K,A*32
$GNGGA,075246.00,0419.73024,S,05539.79494,E,1,12,0.79,22.2,M,-47.6,M,,*49
$GNGSA,A,3,25,12,23,15,18,05,24,29,10,,,,1.58,0.79,1.37*1A
$GNGSA,A,3,75,71,72,76,,,,,,,,,1.58,0.79,1.37*1B
$GPGSV,5,1,17,05,14,028,17,10,29,221,27,12,54,147,31,13,09,079,08*76
$GPGSV,5,2,17,15,44,099,26,18,24,321,23,23,69,252,30,24,21,154,15*7F
$GPGSV,5,3,17,25,83,253,33,28,11,266,16,29,26,009,25,32,02,218,*77
$GPGSV,5,4,17,36,52,277,,40,86,351,38,41,58,082,30,49,32,274,*74
$GPGSV,5,5,17,50,10,089,*4A
$GLGSV,3,1,10,65,12,197,,70,04,039,11,71,40,069,23,72,51,148,29*6B
$GLGSV,3,2,10,74,12,162,,75,52,201,33,76,40,298,34,77,01,322,*65
$GLGSV,3,3,10,86,07,359,,87,03,318,*64
$GNGLL,0419.73024,S,05539.79494,E,075246.00,A,A*6B
$GNRMC,075247.00,A,0419.73034,S,05539.79480,E,0.219,,220525,,,A*7F
$GNVTG,,T,,M,0.219,N,0.406,K,A*35
$GNGGA,075247.00,0419.73034,S,05539.79480,E,1,12,0.79,22.2,M,-47.6,M,,*4C
$GNGSA,A,3,25,12,23,15,18,05,24,29,10,,,,1.58,0.79,1.37*1A
$GNGSA,A,3,75,71,72,76,,,,,,,,,1.58,0.79,1.37*1B
$GPGSV,5,1,17,05,14,028,16,10,29,221,27,12,54,147,31,13,09,079,09*76
$GPGSV,5,2,17,15,44,098,24,18,24,321,25,23,69,252,30,24,21,154,17*78
$GPGSV,5,3,17,25,83,253,33,28,11,266,17,29,26,009,25,32,02,218,*76
$GPGSV,5,4,17,36,52,277,,40,86,351,38,41,58,082,31,49,32,274,*75
$GPGSV,5,5,17,50,10,089,*4A
$GLGSV,3,1,10,65,12,197,,70,04,039,10,71,40,069,23,72,51,148,29*6A
$GLGSV,3,2,10,74,12,162,,75,52,201,33,76,40,298,34,77,01,322,*65
$GLGSV,3,3,10,86,07,359,,87,03,318,*64
$GNGLL,0419.73034,S,05539.79480,E,075247.00,A,A*6E
$GNRMC,075248.00,A,0419.73040,S,05539.79468,E,0.052,,220525,,,A*78
$GNVTG,,T,,M,0.052,N,0.097,K,A*34
$GNGGA,075248.00,0419.73040,S,05539.79468,E,1,12,0.79,22.4,M,-47.6,M,,*40
$GNGSA,A,3,25,12,23,15,18,05,24,29,10,,,,1.58,0.79,1.37*1A
$GNGSA,A,3,75,71,72,76,,,,,,,,,1.58,0.79,1.37*1B
$GPGSV,5,1,17,05,14,028,15,10,29,221,26,12,54,147,29,13,09,079,08*7C
$GPGSV,5,2,17,15,44,098,21,18,24,321,24,23,69,252,29,24,21,154,17*74
$GPGSV,5,3,17,25,83,253,30,28,11,266,17,29,26,009,23,32,02,218,*73
$GPGSV,5,4,17,36,52,277,,40,86,351,37,41,58,082,30,49,32,274,*7B
$GPGSV,5,5,17,50,10,089,*4A
$GLGSV,3,1,10,65,12,197,,70,04,039,10,71,40,069,22,72,51,148,30*63
$GLGSV,3,2,10,74,12,162,,75,52,201,33,76,40,298,33,77,01,322,*62
$GLGSV,3,3,10,86,07,359,,87,03,318,*64
$GNGLL,0419.73040,S,05539.79468,E,075248.00,A,A*64
$GNRMC,075249.00,A,0419.73047,S,05539.79460,E,0.101,,220525,,,A*71
$GNVTG,,T,,M,0.101,N,0.187,K,A*33
$GNGGA,075249.00,0419.73047,S,05539.79460,E,1,12,0.79,22.6,M,-47.6,M,,*4C
$GNGSA,A,3,25,12,23,15,18,05,24,29,10,,,,1.58,0.79,1.37*1A
$GNGSA,A,3,75,71,72,76,,,,,,,,,1.58,0.79,1.37*1B
$GPGSV,5,1,17,05,14,028,17,10,29,221,25,12,54,147,29,13,09,079,*75
$GPGSV,5,2,17,15,44,098,17,18,24,321,23,23,69,252,28,24,21,154,17*77
$GPGSV,5,3,17,25,83,253,31,28,11,266,16,29,26,009,21,32,02,218,*71
$GPGSV,5,4,17,36,52,277,,40,86,351,36,41,58,082,30,49,32,274,*7A
$GPGSV,5,5,17,50,10,089,*4A
$GLGSV,3,1,10,65,12,197,,70,04,039,08,71,40,069,20,72,51,148,30*68
$GLGSV,3,2,10,74,12,162,,75,52,201,33,76,40,298,33,77,01,322,*62
$GLGSV,3,3,10,86,07,359,,87,03,318,*64
$GNGLL,0419.73047,S,05539.79460,E,075249.00,A,A*6A
$GNRMC,075250.00,A,0419.73058,S,05539.79444,E,0.159,,220525,,,A*7C
$GNVTG,,T,,M,0.159,N,0.294,K,A*3F
$GNGGA,075250.00,0419.73058,S,05539.79444,E,1,12,0.80,22.8,M,-47.6,M,,*44
$GNGSA,A,3,25,12,23,15,18,05,24,29,10,,,,1.58,0.80,1.37*1C
$GNGSA,A,3,75,71,72,76,,,,,,,,,1.58,0.80,1.37*1D
$GPGSV,5,1,17,05,14,028,18,10,29,221,25,12,54,147,30,13,09,079,*72
$GPGSV,5,2,17,15,44,098,17,18,24,322,22,23,69,252,28,24,21,154,17*75
$GPGSV,5,3,17,25,83,253,32,28,11,266,15,29,26,009,19,32,02,218,*7A
$GPGSV,5,4,17,36,52,277,,40,86,351,35,41,58,082,30,49,32,274,*79
$GPGSV,5,5,17,50,10,089,*4A
$GLGSV,3,1,10,65,12,197,,70,04,039,12,71,40,069,20,72,51,148,31*62
$GLGSV,3,2,10,74,12,162,,75,52,201,34,76,40,298,33,77,01,322,*65
$GLGSV,3,3,10,86,07,359,,87,03,318,*64
$GNGLL,0419.73058,S,05539.79444,E,075250.00,A,A*6A
$GNRMC,075251.00,A,0419.73068,S,05539.79432,E,0.067,,220525,,,A*73
$GNVTG,,T,,M,0.067,N,0.125,K,A*3A
$GNGGA,075251.00,0419.73068,S,05539.79432,E,1,12,0.80,22.9,M,-47.6,M,,*46
$GNGSA,A,3,25,12,23,15,18,05,24,29,10,,,,1.58,0.80,1.37*1C
$GNGSA,A,3,75,71,72,76,,,,,,,,,1.58,0.80,1.37*1D
$GPGSV,5,1,17,05,14,028,17,10,29,221,24,12,54,147,31,13,09,079,*7D
$GPGSV,5,2,17,15,44,098,17,18,24,322,22,23,69,252,28,24,21,154,16*74
$GPGSV,5,3,17,25,83,253,33,28,11,266,13,29,26,009,19,32,02,218,*7D
$GPGSV,5,4,17,36,52,277,,40,86,351,35,41,58,082,30,49,32,274,*79
$GPGSV,5,5,17,50,10,089,*4A
$GLGSV,3,1,10,65,12,197,,70,04,039,09,71,40,069,22,72,51,148,30*6B
$GLGSV,3,2,10,74,12,162,,75,52,201,33,76,40,298,33,77,01,322,*62
$GLGSV,3,3,10,86,07,359,,87,03,318,*64
$GNGLL,0419.73068,S,05539.79432,E,075251.00,A,A*69
$GNRMC,075252.00,A,0419.73080,S,05539.79420,E,0.181,,220525,,,A*7C
$GNVTG,,T,,M,0.181,N,0.336,K,A*33
$GNGGA,075252.00,0419.73080,S,05539.79420,E,1,12,0.80,22.8,M,-47.6,M,,*41
$GNGSA,A,3,25,12,23,15,18,05,24,29,10,,,,1.58,0.80,1.37*1C
$GNGSA,A,3,75,71,72,76,,,,,,,,,1.58,0.80,1.37*1D
$GPGSV,5,1,17,05,14,028,17,10,29,221,24,12,54,147,29,13,09,079,*74
$GPGSV,5,2,17,15,44,098,18,18,24,322,21,23,69,252,27,24,21,154,13*72
$GPGSV,5,3,17,25,83,253,32,28,11,266,13,29,26,009,20,32,02,218,*76
$GPGSV,5,4,17,36,52,277,,40,86,351,40,41,58,082,31,49,32,274,*7A
$GPGSV,5,5,17,50,10,089,*4A
$GLGSV,3,1,10,65,12,197,,70,04,039,10,71,40,069,23,72,51,148,30*62
$GLGSV,3,2,10,74,12,162,,75,52,201,34,76,40,298,33,77,01,322,*65
$GLGSV,3,3,10,86,07,359,,87,03,318,*64
$GNGLL,0419.73080,S,05539.79420,E,075252.00,A,A*6F
$GNRMC,075253.00,A,0419.73086,S,05539.79409,E,0.084,,220525,,,A*74
$GNVTG,,T,,M,0.084,N,0.156,K,A*33
$GNGGA,075253.00,0419.73086,S,05539.79409,E,1,12,0.80,23.0,M,-47.6,M,,*44
$GNGSA,A,3,25,12,23,15,18,05,24,29,10,,,,1.58,0.80,1.37*1C
$GNGSA,A,3,75,71,72,76,,,,,,,,,1.58,0.80,1.37*1D
$GPGSV,5,1,17,05,14,028,18,10,29,221,25,12,54,147,30,13,09,079,*72
$GPGSV,5,2,17,15,44,098,20,18,24,322,22,23,69,252,27,24,21,154,15*7C
$GPGSV,5,3,17,25,83,253,32,28,11,266,15,29,26,009,22,32,02,218,*72
$GPGSV,5,4,17,36,52,277,,40,86,351,40,41,58,082,32,49,32,274,*79
$GPGSV,5,5,17,50,10,089,*4A
$GLGSV,3,1,10,65,12,197,,70,04,039,09,71,40,069,23,72,51,148,31*6B
$GLGSV,3,2,10,74,12,162,,75,52,201,34,76,40,298,33,77,01,322,*65
$GLGSV,3,3,10,86,07,359,,87,03,318,23*65
$GNGLL,0419.73086,S,05539.79409,E,075253.00,A,A*63
$GNRMC,075254.00,A,0419.73094,S,05539.79396,E,0.077,,220525,,,A*7D
$GNVTG,,T,,M,0.077,N,0.143,K,A*3B
$GNGGA,075254.00,0419.73094,S,05539.79396,E,1,12,0.80,23.2,M,-47.6,M,,*43
$GNGSA,A,3,25,12,23,15,18,05,24,29,10,,,,1.58,0.80,1.37*1C
$GNGSA,A,3,75,71,72,76,,,,,,,,,1.58,0.80,1.37*1D
$GPGSV,5,1,17,05,14,028,19,10,29,221,27,12,54,147,30,13,09,079,*71
$GPGSV,5,2,17,15,44,098,19,18,24,322,23,23,69,254,28,24,21,154,14*7F
$GPGSV,5,3,17,25,83,253,30,28,11,266,16,29,26,009,23,32,02,218,*72
$GPGSV,5,4,17,36,52,277,,40,86,351,39,41,58,082,33,49,32,274,*76
$GPGSV,5,5,17,50,10,089,*4A
$GLGSV,3,1,10,65,12,197,,70,04,039,11,71,40,069,22,72,51,148,31*63
$GLGSV,3,2,10,74,12,162,,75,52,201,34,76,40,298,34,77,01,322,*62
$GLGSV,3,3,10,86,07,359,,87,03,318,21*67
$GNGLL,0419.73094,S,05539.79396,E,075254.00,A,A*66
$GNRMC,075255.00,A,0419.73102,S,05539.79388,E,0.056,,220525,,,A*7E
$GNVTG,,T,,M,0.056,N,0.103,K,A*3C
$GNGGA,075255.00,0419.73102,S,05539.79388,E,1,12,0.80,23.3,M,-47.6,M,,*42
$GNGSA,A,3,25,12,23,15,18,05,24,29,10,,,,1.58,0.80,1.37*1C
$GNGSA,A,3,75,71,72,76,,,,,,,,,1.58,0.80,1.37*1D
$GPGSV,5,1,17,05,14,028,18,10,29,221,27,12,54,147,30,13,09,079,*70
$GPGSV,5,2,17,15,44,098,19,18,24,322,24,23,69,254,28,24,21,153,14*7F
$GPGSV,5,3,17,25,83,253,30,28,11,266,16,29,26,009,23,32,02,218,*72
$GPGSV,5,4,17,36,52,277,,40,86,351,40,41,58,082,33,49,32,274,*78
$GPGSV,5,5,17,50,10,089,*4A
$GLGSV,3,1,10,65,12,197,,70,04,039,12,71,40,069,20,72,51,148,31*62
$GLGSV,3,2,10,74,12,162,,75,52,201,35,76,40,298,34,77,01,322,*63
$GLGSV,3,3,10,86,07,359,,87,03,318,20*66
$GNGLL,0419.73102,S,05539.79388,E,075255.00,A,A*66
$GNRMC,075256.00,A,0419.73107,S,05539.79376,E,0.092,,220525,,,A*71
$GNVTG,,T,,M,0.092,N,0.170,K,A*30
$GNGGA,075256.00,0419.73107,S,05539.79376,E,1,12,0.80,23.4,M,-47.6,M,,*42
$GNGSA,A,3,25,12,23,15,18,05,24,29,10,,,,1.58,0.80,1.37*1C
$GNGSA,A,3,75,71,72,76,,,,,,,,,1.58,0.80,1.37*1D
$GPGSV,5,1,17,05,14,028,16,10,29,221,26,12,54,147,31,13,09,079,14*7B
$GPGSV,5,2,17,15,44,098,18,18,24,322,26,23,69,254,27,24,21,153,16*71
$GPGSV,5,3,17,25,83,248,29,28,11,266,14,29,26,009,21,32,02,218,*70
$GPGSV,5,4,17,36,52,277,,40,86,351,40,41,58,082,33,49,32,274,*78
$GPGSV,5,5,17,50,10,089,*4A
$GLGSV,3,1,10,65,12,197,,70,04,039,10,71,40,069,20,72,51,148,32*63
$GLGSV,3,2,10,74,12,162,,75,52,201,35,76,40,298,34,77,01,322,*63
$GLGSV,3,3,10,86,07,359,,87,03,318,19*6C
$GNGLL,0419.73107,S,05539.79376,E,075256.00,A,A*61
$GNRMC,075257.00,A,0419.73113,S,05539.79366,E,0.112,,220525,,,A*7D
$GNVTG,,T,,M,0.112,N,0.208,K,A*35
$GNGGA,075257.00,0419.73113,S,05539.79366,E,1,12,0.80,23.4,M,-47.6,M,,*47
$GNGSA,A,3,25,12,23,15,18,05,24,29,10,,,,1.58,0.80,1.37*1C
$GNGSA,A,3,75,71,72,76,,,,,,,,,1.58,0.80,1.37*1D
$GPGSV,5,1,17,05,14,028,16,10,29,221,25,12,54,147,31,13,09,079,12*7E
$GPGSV,5,2,17,15,44,098,18,18,24,322,26,23,69,254,25,24,21,153,18*7D
$GPGSV,5,3,17,25,83,248,30,28,11,266,11,29,26,009,20,32,02,218,*7C
$GPGSV,5,4,17,36,52,277,,40,86,351,40,41,58,082,33,49,32,274,*78
$GPGSV,5,5,17,50,10,089,*4A
$GLGSV,3,1,10,65,12,197,,70,04,039,10,71,40,069,21,72,51,148,32*62
$GLGSV,3,2,10,74,12,162,,75,52,201,36,76,40,298,34,77,01,322,*60
$GLGSV,3,3,10,86,07,359,,87,03,318,19*6C
$GNGLL,0419.73113,S,05539.79366,E,075257.00,A,A*64
$GNRMC,075258.00,A,0419.73113,S,05539.79365,E,0.132,,220525,,,A*73
$GNVTG,,T,,M,0.132,N,0.244,K,A*3F
$GNGGA,075258.00,0419.73113,S,05539.79365,E,1,12,0.80,23.1,M,-47.6,M,,*4E
$GNGSA,A,3,25,12,23,15,18,05,24,29,10,,,,1.58,0.80,1.37*1C
$GNGSA,A,3,75,71,72,76,,,,,,,,,1.58,0.80,1.37*1D
$GPGSV,5,1,17,05,14,028,16,10,29,221,26,12,54,147,32,13,09,079,13*7F
$GPGSV,5,2,17,15,44,098,18,18,24,322,26,23,69,254,26,24,21,153,19*7F
$GPGSV,5,3,17,25,83,248,31,28,11,266,,29,26,009,21,32,02,218,*7C
$GPGSV,5,4,17,36,52,277,,40,86,351,40,41,58,082,31,49,32,274,*7A
$GPGSV,5,5,17,50,10,089,*4A
$GLGSV,3,1,10,65,12,197,,70,04,039,09,71,40,069,21,72,51,148,31*69
$GLGSV,3,2,10,74,12,162,,75,52,201,35,76,40,298,33,77,01,322,*64
$GLGSV,3,3,10,86,07,359,,87,03,318,17*62
$GNGLL,0419.73113,S,05539.79365,E,075258.00,A,A*68
$GNRMC,075259.00,A,0419.73116,S,05539.79358,E,0.037,,220525,,,A*7D
$GNVTG,,T,,M,0.037,N,0.068,K,A*37
$GNGGA,075259.00,0419.73116,S,05539.79358,E,1,12,0.80,23.1,M,-47.6,M,,*44
$GNGSA,A,3,25,12,23,15,18,05,24,29,10,,,,1.58,0.80,1.37*1C
$GNGSA,A,3,75,71,72,76,,,,,,,,,1.58,0.80,1.37*1D
$GPGSV,5,1,17,05,14,028,18,10,29,221,26,12,54,147,32,13,09,079,13*71
$GPGSV,5,2,17,15,44,098,18,18,24,322,26,23,69,254,26,24,21,153,20*75
$GPGSV,5,3,17,25,83,248,30,28,11,265,22,29,26,009,25,32,02,218,*7A
$GPGSV,5,4,17,36,52,277,,40,86,351,40,41,58,082,30,49,32,274,*7B
$GPGSV,5,5,17,50,10,089,*4A
$GLGSV,3,1,10,65,12,197,,70,04,039,11,71,40,069,21,72,51,148,30*61
$GLGSV,3,2,10,74,12,162,,75,52,201,35,76,40,298,33,77,01,322,*64
$GLGSV,3,3,10,86,07,359,,87,03,318,16*63
$GNGLL,0419.73116,S,05539.79358,E,075259.00,A,A*62
$GNRMC,075300.00,A,0419.73119,S,05539.79350,E,0.036,,220525,,,A*76
$GNVTG,,T,,M,0.036,N,0.068,K,A*36
$GNGGA,075300.00,0419.73119,S,05539.79350,E,1,12,0.80,23.5,M,-47.6,M,,*4A
$GNGSA,A,3,25,12,23,15,18,05,24,29,10,,,,1.58,0.80,1.37*1C
$GNGSA,A,3,75,71,72,76,,,,,,,,,1.58,0.80,1.37*1D
$GPGSV,5,1,17,05,14,028,20,10,29,221,26,12,54,147,31,13,09,079,11*7B
$GPGSV,5,2,17,15,44,098,19,18,24,322,26,23,69,254,25,24,21,153,19*7D
$GPGSV,5,3,17,25,83,248,29,28,11,265,21,29,27,009,27,32,02,218,*72
$GPGSV,5,4,17,36,52,277,,40,86,351,40,41,58,082,31,49,32,274,*7A
$GPGSV,5,5,17,50,10,089,*4A
$GLGSV,3,1,10,65,12,197,,70,04,039,09,71,40,069,22,72,51,148,30*6B
$GLGSV,3,2,10,74,12,162,,75,52,201,35,76,40,298,33,77,01,322,*64
$GLGSV,3,3,10,86,07,359,,87,03,318,16*63
$GNGLL,0419.73119,S,05539.79350,E,075300.00,A,A*68
$GNRMC,075301.00,A,0419.73126,S,05539.79341,E,0.047,,220525,,,A*7D
$GNVTG,,T,,M,0.047,N,0.086,K,A*30
$GNGGA,075301.00,0419.73126,S,05539.79341,E,1,12,0.76,23.6,M,-47.6,M,,*4D
$GNGSA,A,3,25,12,23,15,18,05,24,29,10,13,,,1.46,0.76,1.25*1B
$GNGSA,A,3,75,71,72,76,,,,,,,,,1.46,0.76,1.25*18
$GPGSV,5,1,17,05,14,028,22,10,29,221,25,12,54,147,31,13,09,079,12*79
$GPGSV,5,2,17,15,44,098,19,18,24,322,27,23,69,254,25,24,21,153,17*72
$GPGSV,5,3,17,25,83,248,29,28,11,265,20,29,27,009,27,32,02,218,*73
$GPGSV,5,4,17,36,52,277,,40,86,351,40,41,58,082,32,49,32,274,*79
$GPGSV,5,5,17,50,10,089,*4A
$GLGSV,3,1,10,65,12,197,,70,04,039,09,71,40,069,23,72,51,148,30*6A
$GLGSV,3,2,10,74,12,162,,75,52,201,36,76,40,298,33,77,01,322,*67
$GLGSV,3,3,10,86,07,359,,87,03,318,17*62
$GNGLL,0419.73126,S,05539.79341,E,075301.00,A,A*65
$GNRMC,075302.00,A,0419.73134,S,05539.79331,E,0.076,,220525,,,A*78
$GNVTG,,T,,M,0.076,N,0.140,K,A*39
$GNGGA,075302.00,0419.73134,S,05539.79331,E,1,12,0.76,23.7,M,-47.6,M,,*4B
$GNGSA,A,3,25,12,23,15,18,05,24,29,10,13,,,1.46,0.76,1.25*1B
$GNGSA,A,3,75,71,72,76,,,,,,,,,1.46,0.76,1.25*18
$GPGSV,5,1,17,05,14,028,22,10,29,221,25,12,54,147,31,13,09,079,10*7B
$GPGSV,5,2,17,15,44,098,18,18,24,322,27,23,69,254,25,24,21,153,16*72
$GPGSV,5,3,17,25,83,248,29,28,11,265,19,29,27,009,28,32,02,218,*76
$GPGSV,5,4,17,36,52,277,,40,86,351,41,41,58,082,33,49,32,274,*79
$GPGSV,5,5,17,50,10,089,*4A
$GLGSV,3,1,10,65,12,197,,70,04,039,09,71,40,069,25,72,51,148,30*6C
$GLGSV,3,2,10,74,12,162,,75,52,201,36,76,40,298,33,77,01,322,*67
$GLGSV,3,3,10,86,07,359,,87,03,318,18*6D
$GNGLL,0419.73134,S,05539.79331,E,075302.00,A,A*62
$GNRMC,075303.00,A,0419.73140,S,05539.79331,E,0.176,,220525,,,A*7B
$GNVTG,,T,,M,0.176,N,0.326,K,A*3A
$GNGGA,075303.00,0419.73140,S,05539.79331,E,1,12,0.80,23.5,M,-47.6,M,,*42
$GNGSA,A,3,25,12,23,15,18,05,24,29,10,,,,1.58,0.80,1.37*1C
$GNGSA,A,3,75,71,72,76,,,,,,,,,1.58,0.80,1.37*1D
$GPGSV,5,1,17,05,14,028,23,10,29,221,25,12,54,147,32,13,09,079,10*79
$GPGSV,5,2,17,15,44,098,16,18,24,322,26,23,69,254,24,24,21,153,17*7D
$GPGSV,5,3,17,25,83,248,29,28,11,265,19,29,27,009,28,32,02,217,*79
$GPGSV,5,4,17,36,52,277,,40,86,351,41,41,58,082,32,49,32,274,*78
$GPGSV,5,5,17,50,10,089,*4A
$GLGSV,3,1,10,65,12,197,,70,04,039,09,71,40,069,24,72,51,148,30*6D
$GLGSV,3,2,10,74,12,162,,75,52,201,36,76,40,298,33,77,01,322,*67
$GLGSV,3,3,10,86,07,359,,87,03,318,19*6C
$GNGLL,0419.73140,S,05539.79331,E,075303.00,A,A*60
$GNRMC,075304.00,A,0419.73142,S,05539.79328,E,0.101,,220525,,,A*76
$GNVTG,,T,,M,0.101,N,0.187,K,A*33
$GNGGA,075304.00,0419.73142,S,05539.79328,E,1,12,0.76,23.6,M,-47.6,M,,*45
$GNGSA,A,3,25,12,23,15,18,05,24,29,10,13,,,1.46,0.76,1.25*1B
$GNGSA,A,3,75,71,72,76,,,,,,,,,1.46,0.76,1.25*18
$GPGSV,5,1,17,05,14,028,22,10,29,221,25,12,54,147,32,13,09,079,11*79
$GPGSV,5,2,17,15,44,098,16,18,24,322,26,23,69,254,22,24,21,153,19*75
$GPGSV,5,3,17,25,83,248,28,28,11,265,19,29,27,009,26,32,02,217,*76
$GPGSV,5,4,17,36,52,277,,40,86,351,41,41,58,082,34,49,32,274,*7E
$GPGSV,5,5,17,50,10,089,*4A
$GLGSV,3,1,10,65,12,197,,70,04,039,09,71,40,069,23,72,51,148,30*6A
$GLGSV,3,2,10,74,12,162,,75,52,201,35,76,40,298,34,77,01,322,*63
$GLGSV,3,3,10,86,07,359,,87,03,318,19*6C
$GNGLL,0419.73142,S,05539.79328,E,075304.00,A,A*6D
$GNRMC,075305.00,A,0419.73143,S,05539.79326,E,0.044,,220525,,,A*78
$GNVTG,,T,,M,0.044,N,0.082,K,A*37
$GNGGA,075305.00,0419.73143,S,05539.79326,E,1,12,0.76,23.6,M,-47.6,M,,*4B
$GNGSA,A,3,25,12,23,15,18,05,24,29,10,13,,,1.46,0.76,1.25*1B
$GNGSA,A,3,75,71,72,76,,,,,,,,,1.46,0.76,1.25*18
$GPGSV,5,1,17,05,14,028,22,10,29,221,26,12,54,147,32,13,09,079,12*79
$GPGSV,5,2,17,15,44,098,18,18,24,322,27,23,69,254,22,24,21,153,20*70
$GPGSV,5,3,17,25,83,248,29,28,11,265,19,29,27,009,26,32,02,217,*77
$GPGSV,5,4,17,36,52,277,,40,86,351,41,41,58,082,34,49,32,274,*7E
$GPGSV,5,5,17,50,10,089,*4A
$GLGSV,3,1,10,65,12,197,,70,04,039,08,71,40,069,23,72,51,148,30*6B
$GLGSV,3,2,10,74,12,162,,75,52,201,35,76,40,298,34,77,01,322,*63
$GLGSV,3,3,10,86,07,359,,87,03,318,16*63
$GNGLL,0419.73143,S,05539.79326,E,075305.00,A,A*63
$GNRMC,075306.00,A,0419.73146,S,05539.79322,E,0.117,,220525,,,A*7D
$GNVTG,,T,,M,0.117,N,0.216,K,A*3F
$GNGGA,075306.00,0419.73146,S,05539.79322,E,1,12,0.76,23.6,M,-47.6,M,,*49
$GNGSA,A,3,25,12,23,15,18,05,24,29,10,13,,,1.46,0.76,1.25*1B
$GNGSA,A,3,75,71,72,76,,,,,,,,,1.46,0.76,1.25*18
$GPGSV,5,1,17,05,14,028,24,10,29,221,24,12,54,147,32,13,09,079,13*7C
$GPGSV,5,2,17,15,44,098,18,18,24,322,26,23,69,254,20,24,21,153,20*73
$GPGSV,5,3,17,25,83,248,29,28,11,265,19,29,27,009,26,32,02,217,*77
$GPGSV,5,4,17,36,52,277,,40,86,351,40,41,58,082,33,49,32,274,*78
$GPGSV,5,5,17,50,10,089,*4A
$GLGSV,3,1,10,65,12,197,,70,04,039,08,71,40,069,23,72,51,148,30*6B
$GLGSV,3,2,10,74,12,162,,75,52,201,35,76,40,298,32,77,01,322,*65
$GLGSV,3,3,10,86,07,359,,87,03,318,14*61
$GNGLL,0419.73146,S,05539.79322,E,075306.00,A,A*61
$GNRMC,075307.00,A,0419.73151,S,05539.79313,E,0.225,,220525,,,A*7A
$GNVTG,,T,,M,0.225,N,0.416,K,A*3B
$GNGGA,075307.00,0419.73151,S,05539.79313,E,1,12,0.76,23.5,M,-47.6,M,,*4F
$GNGSA,A,3,25,12,23,15,18,05,24,29,10,13,,,1.46,0.76,1.25*1B
$GNGSA,A,3,75,71,72,76,,,,,,,,,1.46,0.76,1.25*18
$GPGSV,5,1,17,05,14,028,24,10,29,221,25,12,54,147,33,13,09,079,12*7D
$GPGSV,5,2,17,15,44,098,14,18,24,322,25,23,69,254,20,24,21,153,20*7C
$GPGSV,5,3,17,25,83,248,33,28,11,265,21,29,27,009,27,32,02,217,*76
$GPGSV,5,4,17,36,52,277,,40,86,351,40,41,58,082,33,49,32,274,*78
$GPGSV,5,5,17,50,10,089,*4A
$GLGSV,3,1,10,65,12,197,,70,04,039,08,71,40,069,24,72,51,148,31*6D
$GLGSV,3,2,10,74,12,162,,75,52,201,35,76,40,298,32,77,01,322,*65
$GLGSV,3,3,10,86,07,359,,87,03,318,*64
$GNGLL,0419.73151,S,05539.79313,E,075307.00,A,A*64
$GNRMC,075308.00,A,0419.73156,S,05539.79311,E,0.019,,220525,,,A*7D
$GNVTG,,T,,M,0.019,N,0.035,K,A*33
$GNGGA,075308.00,0419.73156,S,05539.79311,E,1,12,0.80,23.1,M,-47.6,M,,*48
$GNGSA,A,3,25,12,23,15,18,05,24,29,10,,,,1.58,0.80,1.37*1C
$GNGSA,A,3,75,71,72,76,,,,,,,,,1.58,0.80,1.37*1D
$GPGSV,5,1,17,05,14,028,24,10,29,221,25,12,54,147,36,13,09,079,09*72
$GPGSV,5,2,17,15,44,098,08,18,24,322,23,23,69,254,21,24,21,153,18*7D
$GPGSV,5,3,17,25,83,248,33,28,11,265,22,29,27,009,32,32,02,217,*71
$GPGSV,5,4,17,36,52,277,,40,86,351,40,41,58,082,34,49,32,274,*7F
$GPGSV,5,5,17,50,10,089,*4A
$GLGSV,3,1,10,65,12,197,,70,04,039,08,71,40,069,24,72,51,148,32*6E
$GLGSV,3,2,10,74,12,162,,75,52,201,35,76,40,298,31,77,01,322,*66
$GLGSV,3,3,10,86,07,359,,87,03,318,*64
$GNGLL,0419.73156,S,05539.79311,E,075308.00,A,A*6E
$GNRMC,075309.00,A,0419.73157,S,05539.79305,E,0.107,,220525,,,A*76
$GNVTG,,T,,M,0.107,N,0.199,K,A*3A
$GNGGA,075309.00,0419.73157,S,05539.79305,E,1,12,0.97,23.1,M,-47.6,M,,*4B
$GNGSA,A,3,25,12,23,15,18,05,29,10,,,,,1.98,0.97,1.73*10
$GNGSA,A,3,75,71,72,76,,,,,,,,,1.98,0.97,1.73*17
$GPGSV,5,1,17,05,14,028,25,10,29,221,25,12,54,147,35,13,09,079,08*71
$GPGSV,5,2,17,15,44,098,16,18,24,322,22,23,69,254,22,24,21,153,*79
$GPGSV,5,3,17,25,83,248,32,28,11,265,22,29,27,009,31,32,02,217,*73
$GPGSV,5,4,17,36,52,277,,40,86,351,38,41,58,082,34,49,32,274,*70
$GPGSV,5,5,17,50,10,089,*4A
$GLGSV,3,1,10,65,12,197,,70,04,039,08,71,40,069,21,72,51,148,32*6B
$GLGSV,3,2,10,74,12,162,,75,52,201,34,76,40,298,31,77,01,322,*67
$GLGSV,3,3,10,86,07,359,,87,03,318,23*65
$GNGLL,0419.73157,S,05539.79305,E,075309.00,A,A*6B
$GNRMC,075310.00,A,0419.73159,S,05539.79309,E,0.109,,220525,,,A*72
$GNVTG,,T,,M,0.109,N,0.202,K,A*35
$GNGGA,075310.00,0419.73159,S,05539.79309,E,1,12,0.85,22.7,M,-47.6,M,,*45
$GNGSA,A,3,25,12,23,15,18,05,29,10,13,,,,1.67,0.85,1.44*15
$GNGSA,A,3,75,71,72,76,,,,,,,,,1.67,0.85,1.44*10
$GPGSV,5,1,17,05,14,028,24,10,29,221,26,12,54,147,37,13,09,079,11*79
$GPGSV,5,2,17,15,44,098,14,18,24,322,21,23,69,254,21,24,21,153,19*73
$GPGSV,5,3,17,25,83,248,36,28,11,265,22,29,27,009,29,32,02,217,*7E
$GPGSV,5,4,17,36,52,277,,40,86,351,36,41,58,082,33,49,32,274,*79
$GPGSV,5,5,17,50,10,089,*4A
$GLGSV,3,1,10,65,12,197,,70,04,039,08,71,40,069,21,72,51,148,33*6A
$GLGSV,3,2,10,74,12,162,,75,52,201,34,76,40,298,31,77,01,322,*67
$GLGSV,3,3,10,86,07,359,,87,03,318,23*65
$GNGLL,0419.73159,S,05539.79309,E,075310.00,A,A*61
$GNRMC,075311.00,A,0419.73157,S,05539.79307,E,0.125,,220525,,,A*7D
$GNVTG,,T,,M,0.125,N,0.232,K,A*38
$GNGGA,075311.00,0419.73157,S,05539.79307,E,1,12,0.86,22.7,M,-47.6,M,,*47
$GNGSA,A,3,25,12,23,15,18,05,29,10,13,,,,1.67,0.86,1.44*16
$GNGSA,A,3,75,71,72,76,,,,,,,,,1.67,0.86,1.44*13
$GPGSV,5,1,17,05,14,028,23,10,29,221,26,12,54,147,34,13,09,079,09*74
$GPGSV,5,2,17,15,44,098,10,18,24,322,23,23,69,254,21,24,21,153,19*75
$GPGSV,5,3,17,25,83,248,28,28,11,265,21,29,27,009,27,32,02,217,*7C
$GPGSV,5,4,17,36,52,277,,40,86,351,39,41,58,082,32,49,32,274,*77
$GPGSV,5,5,17,50,10,089,*4A
$GLGSV,3,1,10,65,12,197,,70,04,039,11,71,40,069,22,72,51,148,30*62
$GLGSV,3,2,10,74,12,162,,75,52,201,35,76,40,298,31,77,01,322,*66
$GLGSV,3,3,10,86,07,359,,87,03,318,22*64
$GNGLL,0419.73157,S,05539.79307,E,075311.00,A,A*60
$GNRMC,075312.00,A,0419.73156,S,05539.79307,E,0.128,,220525,,,A*72
$GNVTG,,T,,M,0.128,N,0.238,K,A*3F
$GNGGA,075312.00,0419.73156,S,05539.79307,E,1,12,0.97,22.6,M,-47.6,M,,*44
$GNGSA,A,3,25,12,23,15,18,05,29,10,13,,,,1.98,0.97,1.73*12
$GNGSA,A,3,75,71,72,76,,,,,,,,,1.98,0.97,1.73*17
$GPGSV,5,1,17,05,14,028,24,10,29,221,26,12,54,147,34,13,09,079,12*79
$GPGSV,5,2,17,15,44,098,13,18,24,322,23,23,69,254,23,24,21,153,18*75
$GPGSV,5,3,17,25,83,248,25,28,11,265,20,29,27,009,29,32,02,217,*7E
$GPGSV,5,4,17,36,52,277,,40,86,351,38,41,58,082,34,49,32,274,*70
$GPGSV,5,5,17,50,10,089,*4A
$GLGSV,3,1,10,65,12,197,,70,04,039,11,71,40,069,21,72,51,148,31*60
$GLGSV,3,2,10,74,12,162,,75,52,201,35,76,40,298,32,77,01,322,*65
$GLGSV,3,3,10,86,07,359,,87,03,318,23*65
$GNGLL,0419.73156,S,05539.79307,E,075312.00,A,A*62
$GNRMC,075313.00,A,0419.73158,S,05539.79311,E,0.029,,220525,,,A*7A
$GNVTG,,T,,M,0.029,N,0.054,K,A*37
$GNGGA,075313.00,0419.73158,S,05539.79311,E,1,12,0.92,22.5,M,-47.6,M,,*4A
$GNGSA,A,3,25,12,23,15,18,05,24,29,10,13,,,1.96,0.92,1.73*1F
$GNGSA,A,3,75,71,72,76,,,,,,,,,1.96,0.92,1.73*1C
$GPGSV,5,1,17,05,14,028,23,10,29,221,25,12,54,147,34,13,09,079,12*7D
$GPGSV,5,2,17,15,44,098,21,18,24,322,23,23,69,254,26,24,21,153,18*71
$GPGSV,5,3,17,25,83,248,25,28,11,265,19,29,27,009,30,32,02,217,*7C
$GPGSV,5,4,17,36,52,277,,40,86,351,38,41,58,082,34,49,32,274,*70
$GPGSV,5,5,17,50,10,089,*4A
$GLGSV,3,1,10,65,12,197,,70,04,039,09,71,40,069,19,72,51,148,31*62
$GLGSV,3,2,10,74,12,162,,75,52,201,35,76,40,298,34,77,01,322,*63
$GLGSV,3,3,10,86,07,359,,87,03,318,23*65
$GNGLL,0419.73158,S,05539.79311,E,075313.00,A,A*6A
$GNRMC,075314.00,A,0419.73153,S,05539.79319,E,0.165,,220525,,,A*77
$GNVTG,,T,,M,0.165,N,0.306,K,A*3A
$GNGGA,075314.00,0419.73153,S,05539.79319,E,1,12,0.92,22.5,M,-47.6,M,,*4E
$GNGSA,A,3,25,12,23,15,18,05,24,29,10,13,,,1.96,0.92,1.73*1F
$GNGSA,A,3,75,71,72,76,,,,,,,,,1.96,0.92,1.73*1C
$GPGSV,5,1,17,05,14,028,23,10,29,221,24,12,54,147,34,13,09,079,12*7C
$GPGSV,5,2,17,15,44,098,18,18,24,322,21,23,69,254,27,24,21,153,18*78
$GPGSV,5,3,17,25,83,248,31,28,11,265,18,29,27,009,30,32,02,217,*78
$GPGSV,5,4,17,36,52,277,,40,86,351,39,41,58,082,33,49,32,274,*76
$GPGSV,5,5,17,50,10,089,*4A
$GLGSV,3,1,10,65,12,197,,70,04,039,08,71,40,069,15,72,51,148,30*6E
$GLGSV,3,2,10,74,12,162,,75,52,201,34,76,40,298,35,77,01,322,*63
$GLGSV,3,3,10,86,07,359,,87,03,318,22*64
$GNGLL,0419.73153,S,05539.79319,E,075314.00,A,A*6E
$GNRMC,075315.00,A,0419.73148,S,05539.79325,E,0.073,,220525,,,A*75
$GNVTG,,T,,M,0.073,N,0.136,K,A*3D
$GNGGA,075315.00,0419.73148,S,05539.79325,E,1,12,0.86,22.3,M,-47.6,M,,*49
$GNGSA,A,3,25,12,23,15,18,05,24,29,10,13,,,1.67,0.86,1.44*10
$GNGSA,A,3,75,71,72,76,,,,,,,,,1.67,0.86,1.44*13
$GPGSV,5,1,17,05,14,028,22,10,29,221,24,12,54,147,34,13,09,079,12*7D
$GPGSV,5,2,17,15,44,098,16,18,24,322,21,23,69,254,27,24,21,153,16*78
$GPGSV,5,3,17,25,83,248,30,28,11,265,17,29,27,009,30,32,02,217,*76
$GPGSV,5,4,17,36,52,277,,40,86,351,37,41,58,082,32,49,32,274,*79
$GPGSV,5,5,17,50,10,089,*4A
$GLGSV,3,1,10,65,12,197,,70,04,039,07,71,40,069,17,72,51,148,29*6B
$GLGSV,3,2,10,74,12,162,,75,52,201,35,76,40,298,34,77,01,322,*63
$GLGSV,3,3,10,86,07,359,,87,03,318,22*64
$GNGLL,0419.73148,S,05539.79325,E,075315.00,A,A*6A
$GNRMC,075316.00,A,0419.73144,S,05539.79334,E,0.102,,220525,,,A*7D
$GNVTG,,T,,M,0.102,N,0.189,K,A*3E
$GNGGA,075316.00,0419.73144,S,05539.79334,E,1,12,0.92,22.1,M,-47.6,M,,*41
$GNGSA,A,3,25,12,23,15,18,05,24,29,10,13,,,1.96,0.92,1.73*1F
$GNGSA,A,3,75,71,72,76,,,,,,,,,1.96,0.92,1.73*1C
$GPGSV,5,1,17,05,14,028,22,10,29,221,23,12,54,147,31,13,09,079,12*7F
$GPGSV,5,2,17,15,44,098,13,18,24,322,21,23,69,254,28,24,21,153,15*71
$GPGSV,5,3,17,25,83,248,29,28,11,265,15,29,27,009,32,32,02,217,*7E
$GPGSV,5,4,17,36,52,277,,40,86,351,38,41,58,082,31,49,32,274,*75
$GPGSV,5,5,17,50,10,089,*4A
$GLGSV,3,1,10,65,12,197,,70,04,039,09,71,40,069,16,72,51,148,24*69
$GLGSV,3,2,10,74,12,162,,75,52,201,31,76,40,298,35,77,01,322,*66
$GLGSV,3,3,10,86,07,359,,87,03,318,21*67
$GNGLL,0419.73144,S,05539.79334,E,075316.00,A,A*65
$GNRMC,075317.00,A,0419.73144,S,05539.79334,E,0.187,,220525,,,A*71
$GNVTG,,T,,M,0.187,N,0.347,K,A*33
$GNGGA,075317.00,0419.73144,S,05539.79334,E,1,12,0.80,22.0,M,-47.6,M,,*42
$GNGSA,A,3,25,12,23,15,18,05,24,29,10,13,,,1.58,0.80,1.37*1E
$GNGSA,A,3,75,71,72,76,,,,,,,,,1.58,0.80,1.37*1D
$GPGSV,5,1,17,05,14,028,22,10,29,221,21,12,54,147,35,13,09,079,12*79
$GPGSV,5,2,17,15,44,098,15,18,24,322,19,23,69,254,26,24,21,153,16*71
$GPGSV,5,3,17,25,83,248,28,28,11,265,14,29,27,009,33,32,02,217,*7F
$GPGSV,5,4,17,36,52,277,,40,86,351,37,41,58,082,34,49,32,274,*7F
$GPGSV,5,5,17,50,10,089,*4A
$GLGSV,3,1,10,65,12,197,,70,04,039,11,71,40,069,17,72,51,148,25*60
$GLGSV,3,2,10,74,12,162,,75,52,201,32,76,40,298,31,77,01,322,*61
$GLGSV,3,3,10,86,07,359,,87,03,318,21*67
$GNGLL,0419.73144,S,05539.79334,E,075317.00,A,A*64
$GNRMC,075318.00,A,0419.73146,S,05539.79331,E,0.059,,220525,,,A*7B
$GNVTG,,T,,M,0.059,N,0.109,K,A*39
$GNGGA,075318.00,0419.73146,S,05539.79331,E,1,12,0.76,21.9,M,-47.6,M,,*49
$GNGSA,A,3,25,12,23,15,18,05,24,29,10,13,,,1.46,0.76,1.25*1B
$GNGSA,A,3,75,71,72,76,,,,,,,,,1.46,0.76,1.25*18
$GPGSV,5,1,17,05,14,028,23,10,29,221,21,12,54,147,36,13,09,079,12*7B
$GPGSV,5,2,17,15,44,098,17,18,24,322,19,23,69,254,28,24,21,153,15*7E
$GPGSV,5,3,17,25,83,248,29,28,11,265,13,29,27,009,32,32,02,217,*78
$GPGSV,5,4,17,36,52,277,,40,86,351,38,41,58,082,33,49,32,274,*77
$GPGSV,5,5,17,50,10,089,*4A
$GLGSV,3,1,10,65,12,197,,70,04,039,14,71,40,069,23,72,51,148,28*6F
$GLGSV,3,2,10,74,12,162,,75,52,201,34,76,40,298,32,77,01,322,*64
$GLGSV,3,3,10,86,07,359,,87,03,318,20*66
$GNGLL,0419.73146,S,05539.79331,E,075318.00,A,A*6C
$GNRMC,075319.00,A,0419.73144,S,05539.79333,E,0.009,,220525,,,A*7F
$GNVTG,,T,,M,0.009,N,0.018,K,A*3D
$GNGGA,075319.00,0419.73144,S,05539.79333,E,1,12,0.77,21.5,M,-47.6,M,,*45
$GNGSA,A,3,25,12,23,15,18,05,24,29,10,13,41,,1.51,0.77,1.30*1D
$GNGSA,A,3,75,71,72,76,,,,,,,,,1.51,0.77,1.30*1B
$GPGSV,5,1,17,05,14,028,24,10,29,221,20,12,54,147,36,13,09,079,12*7D
$GPGSV,5,2,17,15,44,098,21,18,24,322,21,23,69,254,29,24,21,153,13*77
$GPGSV,5,3,17,25,83,248,29,28,11,265,15,29,27,009,31,32,02,217,*7D
$GPGSV,5,4,17,36,52,277,,40,86,351,38,41,58,082,33,49,32,274,*77
$GPGSV,5,5,17,50,10,089,*4A
$GLGSV,3,1,10,65,12,197,,70,04,039,10,71,40,069,26,72,51,148,30*67
$GLGSV,3,2,10,74,12,162,,75,52,201,34,76,40,298,33,77,01,322,*65
$GLGSV,3,3,10,86,07,359,,87,03,318,19*6C
$GNGLL,0419.73144,S,05539.79333,E,075319.00,A,A*6D
$GNRMC,075320.00,A,0419.73143,S,05539.79335,E,0.035,,220525,,,A*7B
$GNVTG,,T,,M,0.035,N,0.064,K,A*39
$GNGGA,075320.00,0419.73143,S,05539.79335,E,1,12,0.77,21.1,M,-47.6,M,,*4A
$GNGSA,A,3,25,12,23,15,18,05,24,29,10,13,41,,1.51,0.77,1.30*1D
$GNGSA,A,3,75,71,72,76,,,,,,,,,1.51,0.77,1.30*1B
$GPGSV,5,1,17,05,14,028,22,10,29,221,20,12,54,147,37,13,09,079,12*7A
$GPGSV,5,2,17,15,44,098,23,18,24,322,23,23,69,254,28,24,21,153,13*76
$GPGSV,5,3,17,25,83,248,29,28,11,265,15,29,27,009,32,32,02,217,*7E
$GPGSV,5,4,17,36,52,277,,40,86,351,38,41,58,082,33,49,32,274,*77
$GPGSV,5,5,17,50,10,089,*4A
$GLGSV,3,1,10,65,12,197,,70,04,039,06,71,40,069,26,72,51,148,29*68
$GLGSV,3,2,10,74,12,162,,75,52,201,35,76,40,298,34,77,01,322,*63
$GLGSV,3,3,10,86,07,359,,87,03,318,18*6D
$GNGLL,0419.73143,S,05539.79335,E,075320.00,A,A*66
$GNRMC,075321.00,A,0419.73140,S,05539.79337,E,0.070,,220525,,,A*7A
$GNVTG,,T,,M,0.070,N,0.130,K,A*38
$GNGGA,075321.00,0419.73140,S,05539.79337,E,1,12,0.77,20.9,M,-47.6,M,,*43
$GNGSA,A,3,25,12,23,15,18,05,24,29,10,13,41,,1.51,0.77,1.30*1D
$GNGSA,A,3,75,71,72,76,,,,,,,,,1.51,0.77,1.30*1B
$GPGSV,5,1,17,05,14,028,22,10,29,221,20,12,54,147,37,13,09,079,12*7A
$GPGSV,5,2,17,15,44,098,26,18,24,322,21,23,69,254,27,24,21,153,12*7F
$GPGSV,5,3,17,25,83,248,31,28,11,265,14,29,27,009,31,32,02,217,*75
$GPGSV,5,4,17,36,52,277,,40,86,351,38,41,58,082,32,49,32,274,*76
$GPGSV,5,5,17,50,10,089,*4A
$GLGSV,3,1,10,65,12,197,,70,04,039,11,71,40,069,27,72,51,148,28*6E
$GLGSV,3,2,10,74,12,162,,75,52,201,35,76,40,298,35,77,01,322,*62
$GLGSV,3,3,10,86,07,359,,87,03,318,18*6D
$GNGLL,0419.73140,S,05539.79337,E,075321.00,A,A*66
$GNRMC,075322.00,A,0419.73141,S,05539.79338,E,0.056,,220525,,,A*73
$GNVTG,,T,,M,0.056,N,0.103,K,A*3C
$GNGGA,075322.00,0419.73141,S,05539.79338,E,1,12,0.77,20.7,M,-47.6,M,,*40
$GNGSA,A,3,25,12,23,15,18,05,24,29,10,13,41,,1.51,0.77,1.30*1D
$GNGSA,A,3,75,71,72,76,,,,,,,,,1.51,0.77,1.30*1B
$GPGSV,5,1,17,05,14,028,20,10,29,221,18,12,54,147,33,13,09,079,12*77
$GPGSV,5,2,17,15,44,098,26,18,24,322,23,23,69,254,27,24,21,153,11*7E
$GPGSV,5,3,17,25,83,248,25,28,11,265,14,29,27,009,30,32,02,217,*71
$GPGSV,5,4,17,36,52,277,,40,86,351,38,41,58,082,29,49,32,274,*7C
$GPGSV,5,5,17,50,10,089,*4A
$GLGSV,3,1,10,65,12,197,,70,04,039,09,71,40,069,26,72,51,148,26*68
$GLGSV,3,2,10,74,12,162,,75,52,201,34,76,40,298,31,77,01,322,*67
$GLGSV,3,3,10,86,07,359,,87,03,318,16*63
$GNGLL,0419.73141,S,05539.79338,E,075322.00,A,A*6B
$GNRMC,075323.00,A,0419.73138,S,05539.79339,E,0.045,,220525,,,A*7F
$GNVTG,,T,,M,0.045,N,0.083,K,A*37
$GNGGA,075323.00,0419.73138,S,05539.79339,E,1,12,0.77,20.8,M,-47.6,M,,*41
$GNGSA,A,3,25,12,23,15,18,05,24,29,10,13,41,,1.51,0.77,1.30*1D
$GNGSA,A,3,75,71,72,76,,,,,,,,,1.51,0.77,1.30*1B
