$GNRMC,074812.00,A,0419.73453,S,05539.79425,E,0.755,,220525,,,A*73
$GNVTG,,T,,M,0.755,N,1.398,K,A*39
$GNGGA,074812.00,0419.73453,S,05539.79425,E,1,12,1.17,21.9,M,-47.6,M,,*4C
$GNGSA,A,3,25,12,23,15,18,05,29,10,40,,,,2.39,1.17,2.08*1A
$GNGSA,A,3,75,71,72,76,70,,,,,,,,2.39,1.17,2.08*1E
$GPGSV,5,1,17,05,16,028,17,10,27,220,09,12,56,145,23,13,10,081,*73
$GPGSV,5,2,17,15,44,101,16,18,24,320,23,23,68,247,29,24,22,155,08*7E
$GPGSV,5,3,17,25,83,269,27,28,10,267,,29,25,007,28,32,01,219,*7E
$GPGSV,5,4,17,36,52,277,,40,86,351,29,41,58,082,,49,32,274,*77
$GPGSV,5,5,17,50,10,089,*4A
$GLGSV,3,1,10,65,10,198,,70,05,041,11,71,40,073,10,72,49,151,13*6B
$GLGSV,3,2,10,74,14,163,,75,55,204,22,76,38,302,22,77,00,324,*6D
$GLGSV,3,3,10,86,07,356,,87,03,315,*66
$GNGLL,0419.73453,S,05539.79425,E,074812.00,A,A*6F
$GNRMC,074813.00,A,0419.73463,S,05539.79428,E,0.149,,220525,,,A*77
$GNVTG,,T,,M,0.149,N,0.276,K,A*32
$GNGGA,074813.00,0419.73463,S,05539.79428,E,1,12,0.88,21.3,M,-47.6,M,,*4E
$GNGSA,A,3,25,12,23,15,18,05,29,10,40,,,,1.72,0.88,1.47*19
$GNGSA,A,3,75,71,72,76,70,,,,,,,,1.72,0.88,1.47*1D
$GPGSV,5,1,17,05,16,028,16,10,27,220,14,12,56,145,31,13,10,081,*7D
$GPGSV,5,2,17,15,44,101,14,18,24,320,22,23,68,247,34,24,22,155,08*71
$GPGSV,5,3,17,25,83,269,35,28,10,267,,29,25,007,27,32,01,219,*72
$GPGSV,5,4,17,36,52,277,,40,86,351,30,41,58,082,,49,32,274,*7F
$GPGSV,5,5,17,50,10,089,*4A
$GLGSV,3,1,10,65,10,198,,70,05,041,11,71,40,073,16,72,49,151,12*6C
$GLGSV,3,2,10,74,14,163,,75,55,204,20,76,38,302,21,77,00,324,*6C
$GLGSV,3,3,10,86,07,356,,87,03,315,*66
$GNGLL,0419.73463,S,05539.79428,E,074813.00,A,A*60
$GNRMC,074814.00,A,0419.73475,S,05539.79425,E,0.240,,220525,,,A*70
$GNVTG,,T,,M,0.240,N,0.444,K,A*3F
$GNGGA,074814.00,0419.73475,S,05539.79425,E,1,12,0.88,20.7,M,-47.6,M,,*46
$GNGSA,A,3,25,12,23,15,18,05,29,10,40,,,,1.72,0.88,1.47*19
$GNGSA,A,3,75,71,72,76,70,,,,,,,,1.72,0.88,1.47*1D
$GPGSV,5,1,17,05,16,028,16,10,27,220,10,12,56,145,31,13,10,081,*79
$GPGSV,5,2,17,15,44,101,17,18,24,320,21,23,68,247,33,24,22,155,*7E
$GPGSV,5,3,17,25,83,269,33,28,10,267,,29,25,007,30,32,01,219,*72
$GPGSV,5,4,17,36,52,277,,40,86,351,31,41,58,082,,49,32,274,*7E
$GPGSV,5,5,17,50,10,089,*4A
$GLGSV,3,1,10,65,10,198,,70,05,041,11,71,40,073,11,72,49,151,18*61
$GLGSV,3,2,10,74,14,163,,75,55,204,19,76,38,302,23,77,00,324,*64
$GLGSV,3,3,10,86,07,356,,87,03,315,*66
$GNGLL,0419.73475,S,05539.79425,E,074814.00,A,A*6D
$GNRMC,074815.00,A,0419.73489,S,05539.79423,E,0.190,,220525,,,A*7A
$GNVTG,,T,,M,0.190,N,0.351,K,A*32
$GNGGA,074815.00,0419.73489,S,05539.79423,E,1,12,0.88,20.1,M,-47.6,M,,*44
$GNGSA,A,3,25,12,23,15,18,05,29,10,40,,,,1.72,0.88,1.47*19
$GNGSA,A,3,75,71,72,76,70,,,,,,,,1.72,0.88,1.47*1D
$GPGSV,5,1,17,05,16,028,17,10,27,220,10,12,56,145,30,13,10,081,*79
$GPGSV,5,2,17,15,44,101,16,18,24,320,20,23,68,247,31,24,22,155,15*78
$GPGSV,5,3,17,25,83,269,34,28,10,267,,29,25,007,30,32,01,219,*75
$GPGSV,5,4,17,36,52,277,,40,86,351,31,41,58,082,,49,32,274,*7E
$GPGSV,5,5,17,50,10,089,*4A
$GLGSV,3,1,10,65,10,198,,70,05,041,11,71,40,073,12,72,49,151,20*69
$GLGSV,3,2,10,74,14,163,,75,55,204,19,76,38,302,24,77,00,324,*63
$GLGSV,3,3,10,86,07,356,,87,03,315,*66
$GNGLL,0419.73489,S,05539.79423,E,074815.00,A,A*69
$GNRMC,074816.00,A,0419.73513,S,05539.79422,E,0.258,,220525,,,A*7D
$GNVTG,,T,,M,0.258,N,0.478,K,A*39
$GNGGA,074816.00,0419.73513,S,05539.79422,E,1,12,0.88,19.2,M,-47.6,M,,*4D
$GNGSA,A,3,25,12,23,15,18,05,29,10,40,,,,1.72,0.88,1.47*19
$GNGSA,A,3,75,71,72,76,70,,,,,,,,1.72,0.88,1.47*1D
$GPGSV,5,1,17,05,16,028,18,10,27,220,10,12,56,145,30,13,10,081,*76
$GPGSV,5,2,17,15,44,101,18,18,24,320,20,23,68,247,31,24,22,155,13*70
$GPGSV,5,3,17,25,83,269,34,28,10,267,,29,25,007,31,32,01,219,*74
$GPGSV,5,4,17,36,52,277,,40,86,351,31,41,58,082,,49,32,274,*7E
$GPGSV,5,5,17,50,10,089,*4A
$GLGSV,3,1,10,65,10,198,,70,05,041,10,71,40,073,17,72,49,151,21*6C
$GLGSV,3,2,10,74,14,163,,75,55,204,22,76,38,302,26,77,00,324,*69
$GLGSV,3,3,10,86,07,356,,87,03,315,*66
$GNGLL,0419.73513,S,05539.79422,E,074816.00,A,A*69
$GNRMC,074817.00,A,0419.73524,S,05539.79419,E,0.178,,220525,,,A*71
$GNVTG,,T,,M,0.178,N,0.330,K,A*33
$GNGGA,074817.00,0419.73524,S,05539.79419,E,1,12,0.88,18.7,M,-47.6,M,,*44
$GNGSA,A,3,25,12,23,15,18,05,29,10,40,,,,1.72,0.88,1.47*19
$GNGSA,A,3,75,71,72,76,70,,,,,,,,1.72,0.88,1.47*1D
$GPGSV,5,1,17,05,16,028,19,10,27,220,10,12,56,145,29,13,10,081,*7F
$GPGSV,5,2,17,15,44,101,20,18,24,320,21,23,68,247,32,24,22,155,11*7B
$GPGSV,5,3,17,25,83,269,34,28,10,267,,29,25,007,31,32,01,219,*74
$GPGSV,5,4,17,36,52,277,,40,86,351,32,41,58,082,,49,32,274,*7D
$GPGSV,5,5,17,50,10,089,*4A
$GLGSV,3,1,10,65,10,198,,70,05,041,09,71,40,073,21,72,49,151,22*62
$GLGSV,3,2,10,74,14,163,,75,55,204,25,76,38,302,27,77,00,324,*6F
$GLGSV,3,3,10,86,07,356,,87,03,315,*66
$GNGLL,0419.73524,S,05539.79419,E,074817.00,A,A*64
$GNRMC,074818.00,A,0419.73530,S,05539.79417,E,0.145,,220525,,,A*7B
$GNVTG,,T,,M,0.145,N,0.269,K,A*30
$GNGGA,074818.00,0419.73530,S,05539.79417,E,1,12,0.88,18.7,M,-47.6,M,,*40
$GNGSA,A,3,25,12,23,15,18,05,29,10,40,,,,1.72,0.88,1.47*19
$GNGSA,A,3,75,71,72,76,70,,,,,,,,1.72,0.88,1.47*1D
$GPGSV,5,1,17,05,16,028,21,10,27,220,10,12,56,145,29,13,10,081,*74
$GPGSV,5,2,17,15,44,101,22,18,24,320,23,23,68,247,31,24,22,155,11*78
$GPGSV,5,3,17,25,83,269,33,28,10,267,,29,25,007,30,32,01,219,*72
$GPGSV,5,4,17,36,52,277,,40,86,351,33,41,58,082,,49,32,274,*7C
$GPGSV,5,5,17,50,10,089,*4A
$GLGSV,3,1,10,65,10,198,,70,05,041,10,71,40,073,22,72,49,151,22*69
$GLGSV,3,2,10,74,14,163,,75,55,204,24,76,38,302,28,77,00,324,*61
$GLGSV,3,3,10,86,07,356,,87,03,315,*66
$GNGLL,0419.73530,S,05539.79417,E,074818.00,A,A*60
$GNRMC,074819.00,A,0419.73543,S,05539.79411,E,0.122,,220525,,,A*79
$GNVTG,,T,,M,0.122,N,0.226,K,A*3A
$GNGGA,074819.00,0419.73543,S,05539.79411,E,1,12,0.88,18.3,M,-47.6,M,,*47
$GNGSA,A,3,25,12,23,15,18,05,29,10,40,,,,1.72,0.88,1.47*19
$GNGSA,A,3,75,71,72,76,70,,,,,,,,1.72,0.88,1.47*1D
$GPGSV,5,1,17,05,16,028,22,10,27,220,15,12,56,145,29,13,10,081,*72
$GPGSV,5,2,17,15,44,101,23,18,24,320,25,23,68,247,31,24,22,155,13*7D
$GPGSV,5,3,17,25,83,269,33,28,10,267,,29,25,007,30,32,01,219,*72
$GPGSV,5,4,17,36,52,277,,40,86,351,33,41,58,082,,49,32,274,*7C
$GPGSV,5,5,17,50,10,089,*4A
$GLGSV,3,1,10,65,10,198,,70,05,041,10,71,40,073,23,72,49,151,20*6A
$GLGSV,3,2,10,74,14,163,,75,55,204,22,76,38,302,29,77,00,324,*66
$GLGSV,3,3,10,86,07,356,,87,03,315,*66
$GNGLL,0419.73543,S,05539.79411,E,074819.00,A,A*63
$GNRMC,074820.00,A,0419.73543,S,05539.79405,E,0.171,,220525,,,A*70
$GNVTG,,T,,M,0.171,N,0.317,K,A*3F
$GNGGA,074820.00,0419.73543,S,05539.79405,E,1,12,0.78,18.3,M,-47.6,M,,*47
$GNGSA,A,3,25,12,23,15,18,05,24,29,10,40,,,1.45,0.78,1.22*17
$GNGSA,A,3,75,71,72,76,70,,,,,,,,1.45,0.78,1.22*15
$GPGSV,5,1,17,05,16,028,23,10,27,220,15,12,56,145,29,13,10,081,*73
$GPGSV,5,2,17,15,44,101,23,18,24,320,25,23,68,247,32,24,22,155,13*7E
$GPGSV,5,3,17,25,83,269,34,28,10,267,,29,25,007,30,32,01,219,*75
$GPGSV,5,4,17,36,52,277,,40,86,351,33,41,58,082,,49,32,274,*7C
$GPGSV,5,5,17,50,10,089,*4A
$GLGSV,3,1,10,65,10,198,,70,05,041,11,71,40,073,23,72,49,151,20*6B
$GLGSV,3,2,10,74,14,163,,75,55,204,21,76,38,302,28,77,00,324,*64
$GLGSV,3,3,10,86,07,356,,87,03,315,*66
$GNGLL,0419.73543,S,05539.79405,E,074820.00,A,A*6C
$GNRMC,074821.00,A,0419.73546,S,05539.79402,E,0.158,,220525,,,A*78
$GNVTG,,T,,M,0.158,N,0.293,K,A*39
$GNGGA,074821.00,0419.73546,S,05539.79402,E,1,12,0.78,18.1,M,-47.6,M,,*46
$GNGSA,A,3,25,12,23,15,18,05,24,29,10,40,,,1.45,0.78,1.22*17
$GNGSA,A,3,75,71,72,76,70,,,,,,,,1.45,0.78,1.22*15
$GPGSV,5,1,17,05,16,028,22,10,27,220,15,12,56,145,29,13,10,081,*72
$GPGSV,5,2,17,15,44,101,23,18,24,320,26,23,68,247,32,24,22,155,15*7B
$GPGSV,5,3,17,25,83,269,34,28,10,267,,29,25,007,30,32,01,219,*75
$GPGSV,5,4,17,36,52,277,,40,86,351,33,41,58,082,,49,32,274,*7C
$GPGSV,5,5,17,50,10,089,*4A
$GLGSV,3,1,10,65,10,198,,70,05,041,11,71,40,073,23,72,49,151,21*6A
$GLGSV,3,2,10,74,14,163,,75,55,204,22,76,38,302,28,77,00,324,*67
$GLGSV,3,3,10,86,07,356,,87,03,315,*66
$GNGLL,0419.73546,S,05539.79402,E,074821.00,A,A*6F
$GNRMC,074822.00,A,0419.73555,S,05539.79384,E,0.340,,220525,,,A*7B
$GNVTG,,T,,M,0.340,N,0.630,K,A*3F
$GNGGA,074822.00,0419.73555,S,05539.79384,E,1,12,0.78,17.8,M,-47.6,M,,*48
$GNGSA,A,3,25,12,23,15,18,05,24,29,10,40,,,1.45,0.78,1.22*17
$GNGSA,A,3,75,71,72,76,,,,,,,,,1.45,0.78,1.22*12
$GPGSV,5,1,17,05,16,028,23,10,27,220,15,12,56,145,29,13,10,081,*73
$GPGSV,5,2,17,15,44,101,23,18,24,320,27,23,68,247,32,24,22,155,16*79
$GPGSV,5,3,17,25,83,269,34,28,10,267,,29,25,007,30,32,01,219,*75
$GPGSV,5,4,17,36,52,277,,40,86,351,33,41,58,082,,49,32,274,*7C
$GPGSV,5,5,17,50,10,089,*4A
$GLGSV,3,1,10,65,10,198,,70,05,041,09,71,40,073,23,72,49,151,21*63
$GLGSV,3,2,10,74,14,163,,75,55,204,23,76,38,302,29,77,00,324,*67
$GLGSV,3,3,10,86,07,356,,87,03,315,*66
$GNGLL,0419.73555,S,05539.79384,E,074822.00,A,A*67
$GNRMC,074823.00,A,0419.73561,S,05539.79377,E,0.231,,220525,,,A*76
$GNVTG,,T,,M,0.231,N,0.427,K,A*3C
$GNGGA,074823.00,0419.73561,S,05539.79377,E,1,12,0.78,17.9,M,-47.6,M,,*43
$GNGSA,A,3,25,12,23,15,18,05,24,29,10,40,,,1.45,0.78,1.22*17
$GNGSA,A,3,75,71,72,76,,,,,,,,,1.45,0.78,1.22*12
$GPGSV,5,1,17,05,16,028,23,10,27,220,15,12,56,145,28,13,10,081,*72
$GPGSV,5,2,17,15,44,101,24,18,24,320,27,23,68,247,31,24,22,155,15*7E
$GPGSV,5,3,17,25,83,269,33,28,10,267,,29,25,007,30,32,01,219,*72
$GPGSV,5,4,17,36,52,277,,40,86,351,33,41,58,082,,49,32,274,*7C
$GPGSV,5,5,17,50,10,089,*4A
$GLGSV,3,1,10,65,10,198,,70,05,041,10,71,40,073,22,72,49,151,21*6A
$GLGSV,3,2,10,74,14,163,,75,55,204,22,76,38,302,29,77,00,324,*66
$GLGSV,3,3,10,86,07,356,,87,03,315,*66
$GNGLL,0419.73561,S,05539.79377,E,074823.00,A,A*6D
$GNRMC,074824.00,A,0419.73562,S,05539.79375,E,0.076,,220525,,,A*71
$GNVTG,,T,,M,0.076,N,0.140,K,A*39
$GNGGA,074824.00,0419.73562,S,05539.79375,E,1,12,0.91,17.9,M,-47.6,M,,*42
$GNGSA,A,3,25,12,23,15,18,05,24,29,40,,,,1.66,0.91,1.39*1A
$GNGSA,A,3,75,71,72,76,,,,,,,,,1.66,0.91,1.39*1E
$GPGSV,5,1,17,05,16,028,23,10,27,220,,12,56,145,28,13,10,081,*76
$GPGSV,5,2,17,15,44,101,25,18,24,320,27,23,68,247,31,24,22,155,16*7C
$GPGSV,5,3,17,25,83,269,33,28,10,267,,29,25,007,30,32,01,219,*72
$GPGSV,5,4,17,36,52,277,,40,86,351,33,41,58,082,,49,32,274,*7C
$GPGSV,5,5,17,50,10,089,*4A
$GLGSV,3,1,10,65,10,198,,70,05,041,08,71,40,073,21,72,49,151,22*63
$GLGSV,3,2,10,74,14,163,,75,55,204,21,76,38,302,30,77,00,324,*6D
$GLGSV,3,3,10,86,07,356,,87,03,315,*66
$GNGLL,0419.73562,S,05539.79375,E,074824.00,A,A*6B
$GNRMC,074825.00,A,0419.73564,S,05539.79380,E,0.084,,220525,,,A*71
$GNVTG,,T,,M,0.084,N,0.156,K,A*33
$GNGGA,074825.00,0419.73564,S,05539.79380,E,1,12,0.91,17.9,M,-47.6,M,,*4F
$GNGSA,A,3,25,12,23,15,18,05,24,29,40,,,,1.66,0.91,1.39*1A
$GNGSA,A,3,75,71,72,76,,,,,,,,,1.66,0.91,1.39*1E
$GPGSV,5,1,17,05,16,028,23,10,27,220,17,12,56,145,28,13,10,081,*70
$GPGSV,5,2,17,15,44,101,25,18,24,320,27,23,68,247,32,24,22,155,15*7C
$GPGSV,5,3,17,25,83,269,33,28,10,267,,29,25,007,30,32,01,219,*72
$GPGSV,5,4,17,36,52,277,,40,86,351,33,41,58,082,,49,32,274,*7C
$GPGSV,5,5,17,50,10,089,*4A
$GLGSV,3,1,10,65,10,198,,70,05,041,09,71,40,073,22,72,49,151,20*63
$GLGSV,3,2,10,74,14,163,,75,55,204,22,76,38,302,30,77,00,324,*6E
$GLGSV,3,3,10,86,07,356,,87,03,315,*66
$GNGLL,0419.73564,S,05539.79380,E,074825.00,A,A*66
$GNRMC,074826.00,A,0419.73572,S,05539.79381,E,0.078,,220525,,,A*77
$GNVTG,,T,,M,0.078,N,0.145,K,A*32
$GNGGA,074826.00,0419.73572,S,05539.79381,E,1,12,0.96,17.7,M,-47.6,M,,*43
$GNGSA,A,3,25,12,23,15,18,05,24,29,40,,,,1.69,0.96,1.39*12
$GNGSA,A,3,75,71,72,76,,,,,,,,,1.69,0.96,1.39*16
$GPGSV,5,1,17,05,16,028,23,10,27,220,16,12,56,145,27,13,10,081,*7E
$GPGSV,5,2,17,15,44,101,25,18,24,320,27,23,68,247,32,24,22,155,15*7C
$GPGSV,5,3,17,25,83,269,33,28,10,267,,29,25,007,31,32,01,219,*73
$GPGSV,5,4,17,36,52,277,,40,86,351,33,41,58,082,,49,32,274,*7C
$GPGSV,5,5,17,50,10,089,*4A
$GLGSV,3,1,10,65,10,198,,70,05,041,12,71,40,073,21,72,49,151,21*6B
$GLGSV,3,2,10,74,14,163,,75,55,204,22,76,38,302,30,77,00,324,*6E
$GLGSV,3,3,10,86,07,356,,87,03,315,*66
$GNGLL,0419.73572,S,05539.79381,E,074826.00,A,A*63
$GNRMC,074827.00,A,0419.73565,S,05539.79385,E,0.140,,220525,,,A*7E
$GNVTG,,T,,M,0.140,N,0.259,K,A*36
$GNGGA,074827.00,0419.73565,S,05539.79385,E,1,12,0.91,18.0,M,-47.6,M,,*4F
$GNGSA,A,3,25,12,23,15,18,05,24,29,40,,,,1.66,0.91,1.39*1A
$GNGSA,A,3,75,71,72,76,,,,,,,,,1.66,0.91,1.39*1E
$GPGSV,5,1,17,05,16,028,23,10,27,220,14,12,56,145,27,13,10,081,*7C
$GPGSV,5,2,17,15,44,101,26,18,24,320,27,23,68,247,32,24,22,155,15*7F
$GPGSV,5,3,17,25,83,269,33,28,10,267,,29,25,007,31,32,01,219,*73
$GPGSV,5,4,17,36,52,277,,40,86,351,33,41,58,082,,49,32,274,*7C
$GPGSV,5,5,17,50,10,089,*4A
$GLGSV,3,1,10,65,10,198,,70,05,041,10,71,40,073,22,72,49,151,20*6B
$GLGSV,3,2,10,74,14,163,,75,55,204,23,76,38,302,30,77,00,324,*6F
$GLGSV,3,3,10,86,07,356,,87,03,315,*66
$GNGLL,0419.73565,S,05539.79385,E,074827.00,A,A*60
$GNRMC,074828.00,A,0419.73555,S,05539.79386,E,0.068,,220525,,,A*7A
$GNVTG,,T,,M,0.068,N,0.127,K,A*37
$GNGGA,074828.00,0419.73555,S,05539.79386,E,1,12,0.91,18.6,M,-47.6,M,,*46
$GNGSA,A,3,25,12,23,15,18,05,24,29,40,,,,1.66,0.91,1.39*1A
$GNGSA,A,3,75,71,72,76,,,,,,,,,1.66,0.91,1.39*1E
$GPGSV,5,1,17,05,16,028,24,10,27,220,11,12,56,145,27,13,10,081,*7E
$GPGSV,5,2,17,15,44,101,25,18,24,320,27,23,68,247,32,24,22,155,15*7C
$GPGSV,5,3,17,25,83,269,33,28,10,267,,29,25,007,30,32,01,219,*72
$GPGSV,5,4,17,36,52,277,,40,86,351,33,41,58,082,,49,32,274,*7C
$GPGSV,5,5,17,50,10,089,*4A
$GLGSV,3,1,10,65,10,198,,70,05,041,10,71,40,073,22,72,49,151,20*6B
$GLGSV,3,2,10,74,14,163,,75,55,204,22,76,38,302,31,77,00,324,*6F
$GLGSV,3,3,10,86,07,356,,87,03,315,*66
$GNGLL,0419.73555,S,05539.79386,E,074828.00,A,A*6F
$GNRMC,074829.00,A,0419.73557,S,05539.79391,E,0.170,,220525,,,A*77
$GNVTG,,T,,M,0.170,N,0.315,K,A*3C
$GNGGA,074829.00,0419.73557,S,05539.79391,E,1,12,0.91,18.7,M,-47.6,M,,*42
$GNGSA,A,3,25,12,23,15,18,05,24,29,40,,,,1.66,0.91,1.39*1A
$GNGSA,A,3,75,71,72,76,,,,,,,,,1.66,0.91,1.39*1E
$GPGSV,5,1,17,05,16,028,22,10,27,220,09,12,56,145,26,13,10,081,*70
$GPGSV,5,2,17,15,44,101,25,18,24,320,28,23,68,247,32,24,22,155,14*72
$GPGSV,5,3,17,25,83,269,33,28,10,267,,29,25,007,31,32,01,219,*73
$GPGSV,5,4,17,36,52,277,,40,86,351,33,41,58,082,,49,32,274,*7C
$GPGSV,5,5,17,50,10,089,*4A
$GLGSV,3,1,10,65,10,198,,70,05,041,09,71,40,073,22,72,49,151,20*63
$GLGSV,3,2,10,74,14,163,,75,55,204,22,76,38,302,31,77,00,324,*6F
$GLGSV,3,3,10,86,07,356,,87,03,315,*66
$GNGLL,0419.73557,S,05539.79391,E,074829.00,A,A*6A
$GNRMC,074830.00,A,0419.73550,S,05539.79399,E,0.258,,220525,,,A*79
$GNVTG,,T,,M,0.258,N,0.477,K,A*36
$GNGGA,074830.00,0419.73550,S,05539.79399,E,1,12,0.91,19.1,M,-47.6,M,,*42
$GNGSA,A,3,25,12,23,15,18,05,24,29,40,,,,1.66,0.91,1.39*1A
$GNGSA,A,3,75,71,72,76,,,,,,,,,1.66,0.91,1.39*1E
$GPGSV,5,1,17,05,16,028,21,10,27,220,08,12,56,145,26,13,10,081,*72
$GPGSV,5,2,17,15,44,101,26,18,24,320,27,23,68,247,32,24,22,155,15*7F
$GPGSV,5,3,17,25,83,269,33,28,10,267,,29,25,007,31,32,01,219,*73
$GPGSV,5,4,17,36,52,277,,40,86,351,33,41,58,082,,49,32,274,*7C
$GPGSV,5,5,17,50,10,089,*4A
$GLGSV,3,1,10,65,10,198,,70,05,041,10,71,40,072,22,72,49,151,21*6B
$GLGSV,3,2,10,74,14,163,,75,55,204,22,76,38,302,31,77,00,324,*6F
$GLGSV,3,3,10,86,07,356,,87,03,315,*66
$GNGLL,0419.73550,S,05539.79399,E,074830.00,A,A*6D
$GNRMC,074831.00,A,0419.73551,S,05539.79398,E,0.042,,220525,,,A*71
$GNVTG,,T,,M,0.042,N,0.078,K,A*34
$GNGGA,074831.00,0419.73551,S,05539.79398,E,1,12,0.91,19.4,M,-47.6,M,,*46
$GNGSA,A,3,25,12,23,15,18,05,24,29,40,,,,1.66,0.91,1.39*1A
$GNGSA,A,3,75,71,72,76,,,,,,,,,1.66,0.91,1.39*1E
$GPGSV,5,1,17,05,16,028,21,10,27,220,08,12,56,145,27,13,10,081,*73
$GPGSV,5,2,17,15,44,101,27,18,24,320,27,23,68,247,31,24,22,155,16*7E
$GPGSV,5,3,17,25,83,269,33,28,10,267,,29,25,007,31,32,01,219,*73
$GPGSV,5,4,17,36,52,277,,40,86,351,32,41,58,082,,49,32,274,*7D
$GPGSV,5,5,17,50,10,089,*4A
$GLGSV,3,1,10,65,10,198,,70,05,041,10,71,40,072,23,72,50,150,20*62
$GLGSV,3,2,10,74,14,163,,75,55,204,22,76,38,302,31,77,00,324,*6F
$GLGSV,3,3,10,86,07,356,,87,03,315,*66
$GNGLL,0419.73551,S,05539.79398,E,074831.00,A,A*6C
$GNRMC,074832.00,A,0419.73543,S,05539.79396,E,0.083,,220525,,,A*72
$GNVTG,,T,,M,0.083,N,0.154,K,A*36
$GNGGA,074832.00,0419.73543,S,05539.79396,E,1,12,0.87,19.8,M,-47.6,M,,*43
$GNGSA,A,3,25,12,23,15,18,05,24,29,40,,,,1.42,0.87,1.13*13
$GNGSA,A,3,75,71,72,76,,,,,,,,,1.42,0.87,1.13*17
$GPGSV,5,1,17,05,16,028,22,10,27,220,08,12,56,145,27,13,10,081,*70
$GPGSV,5,2,17,15,44,101,27,18,24,320,27,23,68,247,30,24,22,155,16*7F
$GPGSV,5,3,17,25,83,269,33,28,10,267,,29,25,007,31,32,01,219,*73
$GPGSV,5,4,17,36,52,277,,40,86,351,31,41,58,082,,49,32,274,*7E
$GPGSV,5,5,17,50,10,089,*4A
$GLGSV,3,1,10,65,10,198,,70,05,041,10,71,40,072,22,72,50,150,19*69
$GLGSV,3,2,10,74,14,163,,75,55,204,22,76,38,302,31,77,00,324,*6F
$GLGSV,3,3,10,86,07,356,,87,03,315,*66
$GNGLL,0419.73543,S,05539.79396,E,074832.00,A,A*62
$GNRMC,074833.00,A,0419.73548,S,05539.79396,E,0.136,,220525,,,A*77
$GNVTG,,T,,M,0.136,N,0.252,K,A*3C
$GNGGA,074833.00,0419.73548,S,05539.79396,E,1,12,0.88,19.8,M,-47.6,M,,*46
$GNGSA,A,3,25,12,23,15,18,05,24,29,40,,,,1.51,0.88,1.23*1D
$GNGSA,A,3,75,71,72,76,,,,,,,,,1.51,0.88,1.23*19
$GPGSV,5,1,17,05,16,028,23,10,27,220,08,12,56,145,26,13,10,081,*70
$GPGSV,5,2,17,15,44,101,27,18,24,320,27,23,68,247,28,24,22,155,16*76
$GPGSV,5,3,17,25,83,269,32,28,10,267,,29,25,007,31,32,01,219,*72
$GPGSV,5,4,17,36,52,277,,40,86,351,29,41,58,082,,49,32,274,*77
$GPGSV,5,5,17,50,10,089,*4A
$GLGSV,3,1,10,65,10,198,,70,05,041,07,71,40,072,22,72,50,150,19*6F
$GLGSV,3,2,10,74,14,163,,75,55,204,24,76,38,302,31,77,00,324,*69
$GLGSV,3,3,10,86,07,356,,87,03,315,*66
$GNGLL,0419.73548,S,05539.79396,E,074833.00,A,A*68
$GNRMC,074834.00,A,0419.73559,S,05539.79391,E,0.096,,220525,,,A*7C
$GNVTG,,T,,M,0.096,N,0.178,K,A*3C
$GNGGA,074834.00,0419.73559,S,05539.79391,E,1,12,0.91,19.5,M,-47.6,M,,*43
$GNGSA,A,3,25,12,23,15,18,05,24,29,40,,,,1.66,0.91,1.39*1A
$GNGSA,A,3,75,71,72,76,,,,,,,,,1.66,0.91,1.39*1E
$GPGSV,5,1,17,05,16,028,24,10,27,220,08,12,56,145,26,13,10,081,*77
$GPGSV,5,2,17,15,44,101,27,18,24,320,27,23,68,247,25,24,22,155,15*78
$GPGSV,5,3,17,25,83,269,32,28,10,267,,29,25,007,32,32,01,219,*71
$GPGSV,5,4,17,36,52,277,,40,86,351,29,41,58,082,,49,32,274,*77
$GPGSV,5,5,17,50,10,089,*4A
$GLGSV,3,1,10,65,10,198,,70,05,041,07,71,40,072,21,72,50,150,20*66
$GLGSV,3,2,10,74,14,163,,75,54,203,24,76,38,302,31,77,00,324,*6F
$GLGSV,3,3,10,86,07,356,,87,03,315,*66
$GNGLL,0419.73559,S,05539.79391,E,074834.00,A,A*68
$GNRMC,074835.00,A,0419.73558,S,05539.79388,E,0.070,,220525,,,A*7C
$GNVTG,,T,,M,0.070,N,0.129,K,A*30
$GNGGA,074835.00,0419.73558,S,05539.79388,E,1,12,0.93,19.7,M,-47.6,M,,*4B
$GNGSA,A,3,25,12,23,15,18,05,24,29,40,,,,1.82,0.93,1.56*1B
$GNGSA,A,3,75,71,72,76,,,,,,,,,1.82,0.93,1.56*1F
$GPGSV,5,1,17,05,16,028,22,10,27,220,08,12,56,145,26,13,10,081,*71
$GPGSV,5,2,17,15,44,101,27,18,24,320,27,23,68,247,27,24,22,155,15*7A
$GPGSV,5,3,17,25,83,269,32,28,10,267,,29,25,007,31,32,01,219,*72
$GPGSV,5,4,17,36,52,277,,40,86,351,30,41,58,082,,49,32,274,*7F
$GPGSV,5,5,17,50,10,089,*4A
$GLGSV,3,1,10,65,10,198,,70,05,041,09,71,40,072,21,72,50,150,18*63
$GLGSV,3,2,10,74,14,163,,75,54,203,24,76,39,301,31,77,00,324,*6D
$GLGSV,3,3,10,86,07,356,,87,03,315,*66
$GNGLL,0419.73558,S,05539.79388,E,074835.00,A,A*60
$GNRMC,074836.00,A,0419.73554,S,05539.79385,E,0.042,,220525,,,A*7F
$GNVTG,,T,,M,0.042,N,0.078,K,A*34
$GNGGA,074836.00,0419.73554,S,05539.79385,E,1,12,0.91,20.0,M,-47.6,M,,*46
$GNGSA,A,3,25,12,23,15,18,05,24,29,40,,,,1.66,0.91,1.39*1A
$GNGSA,A,3,75,71,72,76,,,,,,,,,1.66,0.91,1.39*1E
$GPGSV,5,1,17,05,16,028,21,10,27,220,,12,56,145,26,13,10,081,*7A
$GPGSV,5,2,17,15,44,101,27,18,24,320,27,23,68,247,28,24,22,155,16*76
$GPGSV,5,3,17,25,83,269,33,28,10,267,,29,25,007,31,32,01,219,*73
$GPGSV,5,4,17,36,52,277,,40,86,351,31,41,58,082,,49,32,274,*7E
$GPGSV,5,5,17,50,10,089,*4A
$GLGSV,3,1,10,65,10,198,,70,05,041,09,71,40,072,21,72,50,150,16*6D
$GLGSV,3,2,10,74,14,163,,75,54,203,23,76,39,301,32,77,00,323,*6E
$GLGSV,3,3,10,86,07,356,,87,03,315,*66
$GNGLL,0419.73554,S,05539.79385,E,074836.00,A,A*62
$GNRMC,074837.00,A,0419.73538,S,05539.79386,E,0.078,,220525,,,A*7E
$GNVTG,,T,,M,0.078,N,0.144,K,A*33
$GNGGA,074837.00,0419.73538,S,05539.79386,E,1,12,0.91,20.6,M,-47.6,M,,*48
$GNGSA,A,3,25,12,23,15,18,05,24,29,40,,,,1.66,0.91,1.39*1A
$GNGSA,A,3,75,71,72,76,,,,,,,,,1.66,0.91,1.39*1E
$GPGSV,5,1,17,05,16,028,19,10,27,220,,12,56,145,25,13,10,081,*72
$GPGSV,5,2,17,15,44,101,26,18,24,320,27,23,68,247,29,24,22,155,17*77
$GPGSV,5,3,17,25,83,269,34,28,10,267,,29,25,007,31,32,01,219,*74
$GPGSV,5,4,17,36,52,277,,40,86,351,32,41,58,082,,49,32,274,*7D
$GPGSV,5,5,17,50,10,089,*4A
$GLGSV,3,1,10,65,10,198,,70,05,041,09,71,40,072,20,72,50,150,13*69
$GLGSV,3,2,10,74,14,163,,75,54,203,23,76,39,301,32,77,00,323,*6E
$GLGSV,3,3,10,86,07,356,,87,03,315,*66
$GNGLL,0419.73538,S,05539.79386,E,074837.00,A,A*6A
$GNRMC,074838.00,A,0419.73538,S,05539.79387,E,0.082,,220525,,,A*75
$GNVTG,,T,,M,0.082,N,0.152,K,A*31
$GNGGA,074838.00,0419.73538,S,05539.79387,E,1,12,0.91,20.6,M,-47.6,M,,*46
$GNGSA,A,3,25,12,23,15,18,05,24,29,40,,,,1.66,0.91,1.39*1A
$GNGSA,A,3,75,71,72,76,,,,,,,,,1.66,0.91,1.39*1E
$GPGSV,5,1,17,05,16,028,19,10,27,220,04,12,56,145,25,13,10,081,21*75
$GPGSV,5,2,17,15,44,101,26,18,24,320,28,23,68,247,30,24,22,155,17*70
$GPGSV,5,3,17,25,83,269,33,28,10,267,,29,25,007,31,32,01,219,*73
$GPGSV,5,4,17,36,52,277,,40,86,351,32,41,58,082,,49,32,274,*7D
$GPGSV,5,5,17,50,10,089,*4A
$GLGSV,3,1,10,65,10,198,,70,05,041,09,71,40,072,21,72,50,150,12*69
$GLGSV,3,2,10,74,14,163,,75,54,203,23,76,39,301,31,77,00,323,*6D
$GLGSV,3,3,10,86,07,356,,87,03,315,*66
$GNGLL,0419.73538,S,05539.79387,E,074838.00,A,A*64
$GNRMC,074839.00,A,0419.73559,S,05539.79381,E,0.187,,220525,,,A*71
$GNVTG,,T,,M,0.187,N,0.346,K,A*32
$GNGGA,074839.00,0419.73559,S,05539.79381,E,1,12,0.96,20.1,M,-47.6,M,,*46
$GNGSA,A,3,25,12,23,15,18,05,24,29,40,,,,1.69,0.96,1.39*12
$GNGSA,A,3,75,71,72,76,,,,,,,,,1.69,0.96,1.39*16
$GPGSV,5,1,17,05,16,028,19,10,27,220,07,12,56,145,24,13,10,081,18*7D
$GPGSV,5,2,17,15,44,101,25,18,24,320,27,23,68,247,30,24,22,155,17*7C
$GPGSV,5,3,17,25,83,269,32,28,10,267,,29,25,007,30,32,01,219,*73
$GPGSV,5,4,17,36,52,277,,40,86,351,31,41,58,082,,49,32,274,*7E
$GPGSV,5,5,17,50,10,089,*4A
$GLGSV,3,1,10,65,10,198,,70,05,041,10,71,40,072,22,72,50,150,13*63
$GLGSV,3,2,10,74,14,163,,75,54,203,23,76,39,301,32,77,00,323,*6E
$GLGSV,3,3,10,86,07,356,,87,03,315,*66
$GNGLL,0419.73559,S,05539.79381,E,074839.00,A,A*64
$GNRMC,074840.00,A,0419.73572,S,05539.79376,E,0.207,,220525,,,A*75
$GNVTG,,T,,M,0.207,N,0.384,K,A*37
$GNGGA,074840.00,0419.73572,S,05539.79376,E,1,12,0.96,20.0,M,-47.6,M,,*48
$GNGSA,A,3,25,12,23,15,18,05,24,29,10,40,,,1.69,0.96,1.39*13
$GNGSA,A,3,75,71,72,76,,,,,,,,,1.69,0.96,1.39*16
$GPGSV,5,1,17,05,16,028,20,10,27,220,10,12,56,145,23,13,10,081,15*7B
$GPGSV,5,2,17,15,44,101,25,18,24,320,27,23,68,247,29,24,22,155,18*7B
$GPGSV,5,3,17,25,83,269,32,28,10,267,,29,25,007,30,32,01,219,*73
$GPGSV,5,4,17,36,52,277,,40,86,351,31,41,58,082,,49,32,274,*7E
$GPGSV,5,5,17,50,10,089,*4A
$GLGSV,3,1,10,65,10,198,,70,05,041,10,71,40,072,23,72,50,150,13*62
$GLGSV,3,2,10,74,14,163,,75,54,203,22,76,39,301,31,77,00,323,*6C
$GLGSV,3,3,10,86,07,356,,87,03,315,*66
$GNGLL,0419.73572,S,05539.79376,E,074840.00,A,A*6B
$GNRMC,074841.00,A,0419.73575,S,05539.79373,E,0.285,,220525,,,A*7C
$GNVTG,,T,,M,0.285,N,0.528,K,A*3D
$GNGGA,074841.00,0419.73575,S,05539.79373,E,1,12,0.93,20.1,M,-47.6,M,,*4F
$GNGSA,A,3,25,12,23,15,18,05,24,29,10,40,,,1.67,0.93,1.39*18
$GNGSA,A,3,75,71,76,,,,,,,,,,1.67,0.93,1.39*18
$GPGSV,5,1,17,05,16,028,19,10,27,220,10,12,56,145,23,13,10,081,11*75
$GPGSV,5,2,17,15,44,101,25,18,24,320,27,23,68,247,29,24,22,155,17*74
$GPGSV,5,3,17,25,83,269,32,28,10,267,,29,25,007,30,32,01,219,*73
$GPGSV,5,4,17,36,52,277,,40,86,351,31,41,58,082,,49,32,274,*7E
$GPGSV,5,5,17,50,10,089,*4A
$GLGSV,3,1,10,65,10,198,,70,05,041,08,71,40,072,22,72,50,150,*68
$GLGSV,3,2,10,74,14,163,,75,54,203,22,76,39,301,31,77,00,323,*6C
$GLGSV,3,3,10,86,07,356,,87,03,315,*66
$GNGLL,0419.73575,S,05539.79373,E,074841.00,A,A*68
$GNRMC,074842.00,A,0419.73579,S,05539.79373,E,0.226,,220525,,,A*7A
$GNVTG,,T,,M,0.226,N,0.418,K,A*36
$GNGGA,074842.00,0419.73579,S,05539.79373,E,1,12,0.93,20.1,M,-47.6,M,,*40
$GNGSA,A,3,25,12,23,15,18,05,24,29,10,40,,,1.67,0.93,1.39*18
$GNGSA,A,3,75,71,76,,,,,,,,,,1.67,0.93,1.39*18
$GPGSV,5,1,17,05,16,028,18,10,27,220,08,12,56,145,22,13,10,081,09*75
$GPGSV,5,2,17,15,44,101,24,18,24,320,27,23,68,247,29,24,22,155,16*74
$GPGSV,5,3,17,25,83,269,32,28,10,267,,29,25,007,30,32,01,219,*73
$GPGSV,5,4,17,36,52,277,,40,86,351,31,41,58,082,,49,32,274,*7E
$GPGSV,5,5,17,50,10,089,*4A
$GLGSV,3,1,10,65,10,198,,70,05,041,11,71,40,072,23,72,50,150,*61
$GLGSV,3,2,10,74,14,163,,75,54,203,23,76,39,301,31,77,00,323,*6D
$GLGSV,3,3,10,86,07,356,,87,03,315,*66
$GNGLL,0419.73579,S,05539.79373,E,074842.00,A,A*67
$GNRMC,074843.00,A,0419.73568,S,05539.79369,E,0.106,,220525,,,A*71
$GNVTG,,T,,M,0.106,N,0.195,K,A*37
$GNGGA,074843.00,0419.73568,S,05539.79369,E,1,12,0.80,20.6,M,-47.6,M,,*4F
$GNGSA,A,3,25,12,23,15,18,05,24,29,10,40,,,1.46,0.80,1.23*12
$GNGSA,A,3,75,71,76,,,,,,,,,,1.46,0.80,1.23*12
$GPGSV,5,1,17,05,16,028,18,10,27,220,10,12,56,145,20,13,10,081,08*7F
$GPGSV,5,2,17,15,44,101,24,18,24,320,27,23,68,247,29,24,22,155,15*77
$GPGSV,5,3,17,25,83,269,32,28,10,267,,29,25,007,30,32,01,219,*73
$GPGSV,5,4,17,36,52,277,,40,86,351,32,41,58,082,,49,32,274,*7D
$GPGSV,5,5,17,50,10,089,*4A
$GLGSV,3,1,10,65,10,198,,70,05,041,09,71,40,072,22,72,50,150,*69
$GLGSV,3,2,10,74,14,163,,75,54,203,23,76,39,301,31,77,00,323,*6D
$GLGSV,3,3,10,86,07,356,,87,03,315,*66
$GNGLL,0419.73568,S,05539.79369,E,074843.00,A,A*6D
$GNRMC,074844.00,A,0419.73570,S,05539.79369,E,0.138,,220525,,,A*72
$GNVTG,,T,,M,0.138,N,0.256,K,A*36
$GNGGA,074844.00,0419.73570,S,05539.79369,E,1,12,0.80,20.7,M,-47.6,M,,*40
$GNGSA,A,3,25,12,23,15,18,05,24,29,10,40,,,1.46,0.80,1.23*12
$GNGSA,A,3,75,71,76,,,,,,,,,,1.46,0.80,1.23*12
$GPGSV,5,1,17,05,16,028,17,10,27,220,10,12,56,145,21,13,10,081,07*7E
$GPGSV,5,2,17,15,44,101,23,18,24,320,27,23,68,247,29,24,22,155,15*70
$GPGSV,5,3,17,25,83,269,32,28,10,267,,29,25,007,31,32,01,219,*72
$GPGSV,5,4,17,36,52,277,,40,86,351,31,41,58,082,,49,32,274,*7E
$GPGSV,5,5,17,50,10,089,*4A
$GLGSV,3,1,10,65,10,198,,70,05,041,07,71,40,072,23,72,50,150,*66
$GLGSV,3,2,10,74,14,163,,75,54,203,23,76,39,301,30,77,00,323,*6C
$GLGSV,3,3,10,86,07,356,,87,03,315,*66
$GNGLL,0419.73570,S,05539.79369,E,074844.00,A,A*63
$GNRMC,074845.00,A,0419.73582,S,05539.79365,E,0.147,,220525,,,A*7A
$GNVTG,,T,,M,0.147,N,0.273,K,A*39
$GNGGA,074845.00,0419.73582,S,05539.79365,E,1,12,0.93,20.5,M,-47.6,M,,*40
$GNGSA,A,3,25,12,23,15,18,05,24,29,10,40,,,1.67,0.93,1.39*18
$GNGSA,A,3,75,71,76,,,,,,,,,,1.67,0.93,1.39*18
$GPGSV,5,1,17,05,16,028,19,10,27,220,11,12,56,145,22,13,10,081,07*72
$GPGSV,5,2,17,15,44,101,24,18,24,320,28,23,68,247,30,24,22,155,17*72
$GPGSV,5,3,17,25,83,269,32,28,10,267,,29,25,007,31,32,01,219,*72
$GPGSV,5,4,17,36,52,277,,40,86,351,32,41,58,082,,49,32,274,*7D
$GPGSV,5,5,17,50,10,089,*4A
$GLGSV,3,1,10,65,10,198,,70,05,041,11,71,40,072,23,72,50,150,*61
$GLGSV,3,2,10,74,14,163,,75,54,203,23,76,39,301,29,77,00,323,*64
$GLGSV,3,3,10,86,07,357,,87,03,315,*67
$GNGLL,0419.73582,S,05539.79365,E,074845.00,A,A*63
$GNRMC,074846.00,A,0419.73560,S,05539.79368,E,0.295,,220525,,,A*74
$GNVTG,,T,,M,0.295,N,0.546,K,A*34
$GNGGA,074846.00,0419.73560,S,05539.79368,E,1,12,0.80,21.2,M,-47.6,M,,*46
$GNGSA,A,3,25,12,23,15,18,05,24,29,10,40,,,1.46,0.80,1.23*12
$GNGSA,A,3,75,71,76,,,,,,,,,,1.46,0.80,1.23*12
$GPGSV,5,1,17,05,16,028,19,10,27,220,11,12,56,145,22,13,10,081,07*72
$GPGSV,5,2,17,15,44,101,23,18,24,320,28,23,68,247,29,24,22,155,18*72
$GPGSV,5,3,17,25,83,269,32,28,10,267,,29,25,007,30,32,01,219,*73
$GPGSV,5,4,17,36,52,277,,40,86,351,32,41,58,082,,49,32,274,*7D
$GPGSV,5,5,17,50,10,089,*4A
$GLGSV,3,1,10,65,10,198,,70,05,041,09,71,40,072,21,72,50,150,*6A
$GLGSV,3,2,10,74,14,163,,75,54,203,22,76,39,301,29,77,00,323,*65
$GLGSV,3,3,10,86,07,357,,87,03,316,*64
$GNGLL,0419.73560,S,05539.79368,E,074846.00,A,A*61
$GNRMC,074847.00,A,0419.73555,S,05539.79362,E,0.113,,220525,,,A*74
$GNVTG,,T,,M,0.113,N,0.209,K,A*35
$GNGGA,074847.00,0419.73555,S,05539.79362,E,1,12,0.80,21.5,M,-47.6,M,,*4C
$GNGSA,A,3,25,12,23,15,18,05,24,29,10,40,,,1.46,0.80,1.23*12
$GNGSA,A,3,75,71,76,,,,,,,,,,1.46,0.80,1.23*12
$GPGSV,5,1,17,05,16,028,18,10,27,220,11,12,56,145,22,13,10,081,07*73
$GPGSV,5,2,17,15,44,101,22,18,24,320,28,23,68,247,30,24,22,155,18*7B
$GPGSV,5,3,17,25,83,269,32,28,10,267,,29,25,007,30,32,01,219,*73
$GPGSV,5,4,17,36,52,277,,40,86,351,32,41,58,082,,49,32,274,*7D
$GPGSV,5,5,17,50,10,089,*4A
$GLGSV,3,1,10,65,10,198,,70,05,041,12,71,40,072,21,72,50,150,*60
$GLGSV,3,2,10,74,14,163,,75,54,203,22,76,39,301,29,77,00,323,*65
$GLGSV,3,3,10,86,07,357,,87,03,316,*64
$GNGLL,0419.73555,S,05539.79362,E,074847.00,A,A*6C
$GNRMC,074848.00,A,0419.73576,S,05539.79361,E,0.171,,220525,,,A*7D
$GNVTG,,T,,M,0.171,N,0.317,K,A*3F
$GNGGA,074848.00,0419.73576,S,05539.79361,E,1,12,0.80,21.0,M,-47.6,M,,*44
$GNGSA,A,3,25,12,23,15,18,05,24,29,10,40,,,1.46,0.80,1.23*12
$GNGSA,A,3,75,71,76,,,,,,,,,,1.46,0.80,1.23*12
$GPGSV,5,1,17,05,16,028,16,10,27,220,11,12,56,145,23,13,10,081,08*73
$GPGSV,5,2,17,15,44,101,21,18,24,320,28,23,68,247,30,24,22,155,18*78
$GPGSV,5,3,17,25,83,269,32,28,10,267,,29,25,007,30,32,01,219,*73
$GPGSV,5,4,17,36,52,277,,40,86,351,32,41,58,082,,49,32,274,*7D
$GPGSV,5,5,17,50,10,089,*4A
$GLGSV,3,1,10,65,10,198,,70,05,041,09,71,40,072,20,72,50,150,*6B
$GLGSV,3,2,10,74,14,163,,75,54,203,21,76,39,301,29,77,00,323,*66
$GLGSV,3,3,10,86,07,357,,87,03,316,*64
$GNGLL,0419.73576,S,05539.79361,E,074848.00,A,A*61
$GNRMC,074849.00,A,0419.73570,S,05539.79360,E,0.023,,220525,,,A*7D
$GNVTG,,T,,M,0.023,N,0.043,K,A*3B
$GNGGA,074849.00,0419.73570,S,05539.79360,E,1,12,0.80,21.3,M,-47.6,M,,*41
$GNGSA,A,3,25,12,23,15,18,05,24,29,10,40,,,1.46,0.80,1.23*12
$GNGSA,A,3,75,71,76,,,,,,,,,,1.46,0.80,1.23*12
$GPGSV,5,1,17,05,16,028,15,10,27,220,17,12,56,145,23,13,10,081,*7E
$GPGSV,5,2,17,15,44,101,21,18,24,320,28,23,68,247,29,24,22,155,17*7F
$GPGSV,5,3,17,25,83,269,33,28,10,267,,29,25,007,30,32,01,219,*72
$GPGSV,5,4,17,36,52,277,,40,86,351,32,41,58,082,,49,32,274,*7D
$GPGSV,5,5,17,50,10,089,*4A
$GLGSV,3,1,10,65,10,198,,70,05,041,10,71,40,072,20,72,50,150,*63
$GLGSV,3,2,10,74,14,163,,75,54,203,22,76,39,301,29,77,00,323,*65
$GLGSV,3,3,10,86,07,357,,87,03,316,*64
$GNGLL,0419.73570,S,05539.79360,E,074849.00,A,A*67
$GNRMC,074850.00,A,0419.73565,S,05539.79363,E,0.189,,220525,,,A*73
$GNVTG,,T,,M,0.189,N,0.350,K,A*3B
$GNGGA,074850.00,0419.73565,S,05539.79363,E,1,12,0.80,21.7,M,-47.6,M,,*4A
$GNGSA,A,3,25,12,23,15,18,05,24,29,10,40,,,1.46,0.80,1.23*12
$GNGSA,A,3,75,71,76,,,,,,,,,,1.46,0.80,1.23*12
$GPGSV,5,1,17,05,16,028,16,10,27,220,17,12,56,145,23,13,10,081,*7D
$GPGSV,5,2,17,15,44,101,19,18,24,320,29,23,68,247,29,24,22,155,17*75
$GPGSV,5,3,17,25,83,269,32,28,10,267,,29,25,007,30,32,01,219,*73
$GPGSV,5,4,17,36,52,277,,40,86,351,32,41,58,082,,49,32,274,*7D
$GPGSV,5,5,17,50,10,089,*4A
$GLGSV,3,1,10,65,10,198,,70,05,041,10,71,40,072,20,72,50,150,*63
$GLGSV,3,2,10,74,14,163,,75,54,203,22,76,39,301,29,77,00,323,*65
$GLGSV,3,3,10,86,07,357,,87,03,316,*64
$GNGLL,0419.73565,S,05539.79363,E,074850.00,A,A*68
$GNRMC,074851.00,A,0419.73543,S,05539.79361,E,0.157,,220525,,,A*77
$GNVTG,,T,,M,0.157,N,0.290,K,A*35
$GNGGA,074851.00,0419.73543,S,05539.79361,E,1,12,0.80,22.5,M,-47.6,M,,*4C
$GNGSA,A,3,25,12,23,15,18,05,24,29,10,40,,,1.46,0.80,1.23*12
$GNGSA,A,3,75,71,76,,,,,,,,,,1.46,0.80,1.23*12
$GPGSV,5,1,17,05,16,028,14,10,27,220,17,12,56,145,23,13,10,081,*7F
$GPGSV,5,2,17,15,44,101,17,18,24,320,29,23,68,247,31,24,22,155,16*73
$GPGSV,5,3,17,25,83,269,33,28,10,267,,29,25,007,30,32,01,219,*72
$GPGSV,5,4,17,36,52,277,,40,86,351,32,41,58,082,,49,32,274,*7D
$GPGSV,5,5,17,50,10,089,*4A
$GLGSV,3,1,10,65,10,198,,70,05,041,10,71,40,072,18,72,50,150,*68
$GLGSV,3,2,10,74,14,163,,75,54,203,22,76,39,301,28,77,00,323,*64
$GLGSV,3,3,10,86,07,357,,87,03,316,*64
$GNGLL,0419.73543,S,05539.79361,E,074851.00,A,A*6F
$GNRMC,074852.00,A,0419.73548,S,05539.79360,E,0.069,,220525,,,A*72
$GNVTG,,T,,M,0.069,N,0.128,K,A*39
$GNGGA,074852.00,0419.73548,S,05539.79360,E,1,12,0.82,22.4,M,-47.6,M,,*46
$GNGSA,A,3,25,12,23,15,18,05,24,29,10,40,,,1.48,0.82,1.23*1E
$GNGSA,A,3,75,71,76,,,,,,,,,,1.48,0.82,1.23*1E
$GPGSV,5,1,17,05,15,028,12,10,27,220,17,12,56,145,24,13,10,081,*7D
$GPGSV,5,2,17,15,44,101,15,18,24,320,30,23,68,247,31,24,22,155,17*78
$GPGSV,5,3,17,25,83,269,33,28,10,267,,29,25,007,30,32,01,219,*72
$GPGSV,5,4,17,36,52,277,,40,86,351,32,41,58,082,,49,32,274,*7D
$GPGSV,5,5,17,50,10,089,*4A
$GLGSV,3,1,10,65,10,198,,70,05,041,10,71,40,072,17,72,50,150,*67
$GLGSV,3,2,10,74,14,163,,75,54,203,22,76,39,301,27,77,00,323,*6B
$GLGSV,3,3,10,86,07,357,,87,03,316,*64
$GNGLL,0419.73548,S,05539.79360,E,074852.00,A,A*66
$GNRMC,074853.00,A,0419.73568,S,05539.79373,E,0.282,,220525,,,A*74
$GNVTG,,T,,M,0.282,N,0.523,K,A*31
$GNGGA,074853.00,0419.73568,S,05539.79373,E,1,12,0.80,21.8,M,-47.6,M,,*4A
$GNGSA,A,3,25,12,23,15,18,05,24,29,10,40,,,1.46,0.80,1.23*12
$GNGSA,A,3,75,71,76,,,,,,,,,,1.46,0.80,1.23*12
$GPGSV,5,1,17,05,15,028,12,10,27,220,17,12,56,145,25,13,10,081,*7C
$GPGSV,5,2,17,15,44,101,16,18,24,320,30,23,68,247,31,24,22,155,15*79
$GPGSV,5,3,17,25,83,269,33,28,10,267,,29,25,007,30,32,01,219,*72
$GPGSV,5,4,17,36,52,277,,40,86,351,32,41,58,082,,49,32,274,*7D
$GPGSV,5,5,17,50,10,089,*4A
$GLGSV,3,1,10,65,10,198,,70,05,041,08,71,40,072,16,72,50,150,*6F
$GLGSV,3,2,10,74,14,163,,75,54,203,21,76,39,301,27,77,00,323,*68
$GLGSV,3,3,10,86,07,357,,87,03,316,*64
$GNGLL,0419.73568,S,05539.79373,E,074853.00,A,A*67
$GNRMC,074854.00,A,0419.73566,S,05539.79374,E,0.149,,220525,,,A*7E
$GNVTG,,T,,M,0.149,N,0.276,K,A*32
$GNGGA,074854.00,0419.73566,S,05539.79374,E,1,12,0.80,21.8,M,-47.6,M,,*44
$GNGSA,A,3,25,12,23,15,18,05,24,29,10,40,,,1.46,0.80,1.23*12
$GNGSA,A,3,75,71,76,,,,,,,,,,1.46,0.80,1.23*12
$GPGSV,5,1,17,05,15,028,14,10,27,220,17,12,56,145,25,13,10,081,*7A
$GPGSV,5,2,17,15,44,101,17,18,24,320,29,23,68,247,30,24,22,155,14*70
$GPGSV,5,3,17,25,83,269,34,28,10,267,,29,25,007,30,32,01,219,*75
$GPGSV,5,4,17,36,52,277,,40,86,351,32,41,58,082,,49,32,274,*7D
$GPGSV,5,5,17,50,10,089,*4A
$GLGSV,3,1,10,65,10,198,,70,05,041,10,71,40,072,16,72,50,150,*66
$GLGSV,3,2,10,74,14,163,,75,54,203,20,76,39,301,27,77,00,323,*69
$GLGSV,3,3,10,86,07,357,,87,03,316,*64
$GNGLL,0419.73566,S,05539.79374,E,074854.00,A,A*69
$GNRMC,074855.00,A,0419.73559,S,05539.79367,E,0.257,,220525,,,A*7D
$GNVTG,,T,,M,0.257,N,0.475,K,A*3B
$GNGGA,074855.00,0419.73559,S,05539.79367,E,1,12,0.80,22.0,M,-47.6,M,,*40
$GNGSA,A,3,25,12,23,15,18,05,24,29,10,40,,,1.46,0.80,1.23*12
$GNGSA,A,3,75,71,76,,,,,,,,,,1.46,0.80,1.23*12
$GPGSV,5,1,17,05,15,028,15,10,27,220,17,12,56,145,25,13,10,081,*7B
$GPGSV,5,2,17,15,44,101,15,18,24,320,29,23,68,247,29,24,22,155,15*7B
$GPGSV,5,3,17,25,83,269,33,28,10,267,,29,25,007,29,32,01,219,*7A
$GPGSV,5,4,17,36,52,277,,40,86,351,32,41,58,082,,49,32,274,*7D
$GPGSV,5,5,17,50,10,089,*4A
$GLGSV,3,1,10,65,10,198,,70,05,041,07,71,40,072,15,72,50,150,*63
$GLGSV,3,2,10,74,14,163,,75,54,203,20,76,39,301,27,77,00,323,*69
$GLGSV,3,3,10,86,07,357,,87,03,316,*64
$GNGLL,0419.73559,S,05539.79367,E,074855.00,A,A*66
$GNRMC,074856.00,A,0419.73563,S,05539.79361,E,0.199,,220525,,,A*70
$GNVTG,,T,,M,0.199,N,0.369,K,A*30
$GNGGA,074856.00,0419.73563,S,05539.79361,E,1,12,0.80,22.0,M,-47.6,M,,*4C
$GNGSA,A,3,25,12,23,15,18,05,24,29,10,40,,,1.46,0.80,1.23*12
$GNGSA,A,3,75,71,76,,,,,,,,,,1.46,0.80,1.23*12
$GPGSV,5,1,17,05,15,028,15,10,27,220,17,12,56,145,25,13,10,081,*7B
$GPGSV,5,2,17,15,44,101,14,18,24,320,29,23,68,247,29,24,22,155,16*79
$GPGSV,5,3,17,25,83,269,33,28,10,267,,29,25,007,29,32,01,219,*7A
$GPGSV,5,4,17,36,52,277,,40,86,351,32,41,58,082,,49,32,274,*7D
$GPGSV,5,5,17,50,10,089,*4A
$GLGSV,3,1,10,65,10,198,,70,05,041,08,71,40,072,15,72,50,150,*6C
$GLGSV,3,2,10,74,14,163,,75,54,203,19,76,39,301,28,77,00,323,*6C
$GLGSV,3,3,10,86,07,357,,87,03,316,*64
$GNGLL,0419.73563,S,05539.79361,E,074856.00,A,A*6A
$GNRMC,074857.00,A,0419.73538,S,05539.79348,E,0.423,,220525,,,A*70
$GNVTG,,T,,M,0.423,N,0.783,K,A*34
$GNGGA,074857.00,0419.73538,S,05539.79348,E,1,12,0.80,22.8,M,-47.6,M,,*40
$GNGSA,A,3,25,12,23,15,18,05,24,29,10,40,,,1.46,0.80,1.23*12
$GNGSA,A,3,75,71,76,,,,,,,,,,1.46,0.80,1.23*12
$GPGSV,5,1,17,05,15,028,16,10,28,220,17,12,56,145,25,13,10,081,*77
$GPGSV,5,2,17,15,44,101,14,18,24,320,30,23,68,247,29,24,22,155,16*71
$GPGSV,5,3,17,25,83,269,34,28,10,267,,29,25,007,29,32,01,219,*7D
$GPGSV,5,4,17,36,52,277,,40,86,351,32,41,58,082,,49,32,274,*7D
$GPGSV,5,5,17,50,10,089,*4A
$GLGSV,3,1,10,65,10,198,,70,05,041,10,71,40,072,14,72,50,150,*64
$GLGSV,3,2,10,74,14,163,,75,54,203,19,76,39,301,27,77,00,323,*63
$GLGSV,3,3,10,86,07,357,,87,03,316,*64
$GNGLL,0419.73538,S,05539.79348,E,074857.00,A,A*6E
$GNRMC,074858.00,A,0419.73556,S,05539.79352,E,0.026,,220525,,,A*7D
$GNVTG,,T,,M,0.026,N,0.049,K,A*34
$GNGGA,074858.00,0419.73556,S,05539.79352,E,1,12,0.80,22.4,M,-47.6,M,,*40
$GNGSA,A,3,25,12,23,15,18,05,24,29,10,40,,,1.46,0.80,1.23*12
$GNGSA,A,3,75,71,76,,,,,,,,,,1.46,0.80,1.23*12
$GPGSV,5,1,17,05,15,028,15,10,28,220,17,12,56,145,26,13,10,081,*77
$GPGSV,5,2,17,15,44,101,14,18,24,320,30,23,68,247,29,24,22,155,15*72
$GPGSV,5,3,17,25,83,269,34,28,10,267,,29,25,007,29,32,01,219,*7D
$GPGSV,5,4,17,36,52,277,,40,86,351,32,41,58,082,,49,32,274,*7D
$GPGSV,5,5,17,50,10,089,*4A
$GLGSV,3,1,10,65,10,198,,70,05,041,11,71,40,072,13,72,50,150,05*67
$GLGSV,3,2,10,74,14,163,,75,54,203,18,76,39,301,27,77,00,323,*62
$GLGSV,3,3,10,86,07,357,,87,03,316,*64
$GNGLL,0419.73556,S,05539.79352,E,074858.00,A,A*62
$GNRMC,074859.00,A,0419.73542,S,05539.79352,E,0.294,,220525,,,A*72
$GNVTG,,T,,M,0.294,N,0.544,K,A*37
$GNGGA,074859.00,0419.73542,S,05539.79352,E,1,12,0.80,22.9,M,-47.6,M,,*49
$GNGSA,A,3,25,12,23,15,18,05,24,29,10,40,,,1.46,0.80,1.23*12
$GNGSA,A,3,75,71,76,,,,,,,,,,1.46,0.80,1.23*12
$GPGSV,5,1,17,05,15,028,16,10,28,220,17,12,56,146,26,13,10,081,*77
$GPGSV,5,2,17,15,44,101,12,18,24,320,30,23,68,247,29,24,22,155,15*74
$GPGSV,5,3,17,25,83,269,33,28,10,267,,29,25,007,30,32,01,219,*72
$GPGSV,5,4,17,36,52,277,,40,86,351,33,41,58,082,,49,32,274,*7C
$GPGSV,5,5,17,50,10,089,*4A
$GLGSV,3,1,10,65,10,198,,70,05,041,11,71,40,072,12,72,50,150,*63
$GLGSV,3,2,10,74,14,163,,75,54,203,17,76,39,301,27,77,00,323,*6D
$GLGSV,3,3,10,86,07,357,,87,03,316,*64
$GNGLL,0419.73542,S,05539.79352,E,074859.00,A,A*66
$GNRMC,074900.00,A,0419.73543,S,05539.79352,E,0.111,,220525,,,A*70
$GNVTG,,T,,M,0.111,N,0.205,K,A*3B
$GNGGA,074900.00,0419.73543,S,05539.79352,E,1,11,1.02,22.9,M,-47.6,M,,*4D
$GNGSA,A,3,25,12,23,15,18,05,24,29,40,,,,1.74,1.02,1.41*1D
$GNGSA,A,3,75,76,,,,,,,,,,,1.74,1.02,1.41*1A
$GPGSV,5,1,17,05,15,028,15,10,28,220,,12,56,146,26,13,10,080,*73
$GPGSV,5,2,17,15,44,101,14,18,24,320,31,23,68,247,29,24,22,155,14*72
$GPGSV,5,3,17,25,83,269,33,28,10,267,,29,25,007,30,32,01,219,*72
$GPGSV,5,4,17,36,52,277,,40,86,351,33,41,58,082,,49,32,274,*7C
$GPGSV,5,5,17,50,10,089,*4A
$GLGSV,3,1,10,65,10,198,,70,05,041,10,71,40,072,10,72,50,150,*60
$GLGSV,3,2,10,74,14,163,,75,54,203,18,76,39,301,27,77,00,323,*62
$GLGSV,3,3,10,86,07,357,,87,03,316,*64
$GNGLL,0419.73543,S,05539.79352,E,074900.00,A,A*6A
$GNRMC,074901.00,A,0419.73548,S,05539.79357,E,0.046,,220525,,,A*7C
$GNVTG,,T,,M,0.046,N,0.086,K,A*31
$GNGGA,074901.00,0419.73548,S,05539.79357,E,1,12,0.93,23.0,M,-47.6,M,,*40
$GNGSA,A,3,25,12,23,15,18,05,24,29,40,,,,1.67,0.93,1.39*19
$GNGSA,A,3,75,71,76,,,,,,,,,,1.67,0.93,1.39*18
$GPGSV,5,1,17,05,15,028,12,10,28,220,,12,56,146,27,13,10,080,*75
$GPGSV,5,2,17,15,44,101,16,18,24,320,31,23,68,247,29,24,22,155,16*72
$GPGSV,5,3,17,25,83,269,33,28,10,267,,29,25,007,30,32,01,219,*72
$GPGSV,5,4,17,36,52,277,,40,86,351,33,41,58,082,,49,32,274,*7C
$GPGSV,5,5,17,50,10,089,*4A
$GLGSV,3,1,10,65,10,198,,70,05,041,10,71,40,072,13,72,50,150,*63
$GLGSV,3,2,10,74,14,163,,75,54,203,18,76,39,301,26,77,00,323,*63
$GLGSV,3,3,10,86,07,357,,87,03,316,*64
$GNGLL,0419.73548,S,05539.79357,E,074901.00,A,A*65
$GNRMC,074902.00,A,0419.73561,S,05539.79361,E,0.019,,220525,,,A*7B
$GNVTG,,T,,M,0.019,N,0.036,K,A*30
$GNGGA,074902.00,0419.73561,S,05539.79361,E,1,12,0.93,22.6,M,-47.6,M,,*4A
$GNGSA,A,3,25,12,23,15,18,05,24,29,40,,,,1.67,0.93,1.39*19
$GNGSA,A,3,75,71,76,,,,,,,,,,1.67,0.93,1.39*18
$GPGSV,5,1,17,05,15,028,11,10,28,220,15,12,56,146,28,13,10,080,*7D
$GPGSV,5,2,17,15,44,100,17,18,24,320,31,23,68,247,29,24,22,155,18*7C
$GPGSV,5,3,17,25,83,269,33,28,10,267,,29,25,007,31,32,01,219,*73
$GPGSV,5,4,17,36,52,277,,40,86,351,33,41,58,082,,49,32,274,*7C
$GPGSV,5,5,17,50,10,089,*4A
$GLGSV,3,1,10,65,10,198,,70,05,041,10,71,40,072,13,72,50,150,*63
$GLGSV,3,2,10,74,14,163,,75,54,203,18,76,39,301,26,77,00,323,*63
$GLGSV,3,3,10,86,07,357,,87,03,316,*64
$GNGLL,0419.73561,S,05539.79361,E,074902.00,A,A*68
$GNRMC,074903.00,A,0419.73574,S,05539.79362,E,0.020,,220525,,,A*77
$GNVTG,,T,,M,0.020,N,0.037,K,A*3B
$GNGGA,074903.00,0419.73574,S,05539.79362,E,1,12,0.93,22.3,M,-47.6,M,,*49
$GNGSA,A,3,25,12,23,15,18,05,24,29,40,,,,1.67,0.93,1.39*19
$GNGSA,A,3,75,71,76,,,,,,,,,,1.67,0.93,1.39*18
$GPGSV,5,1,17,05,15,028,13,10,28,220,15,12,56,146,28,13,10,080,*7F
$GPGSV,5,2,17,15,44,100,18,18,24,320,31,23,68,247,29,24,22,155,18*73
$GPGSV,5,3,17,25,83,269,33,28,10,267,,29,25,007,31,32,01,219,*73
$GPGSV,5,4,17,36,52,277,,40,86,351,33,41,58,082,,49,32,274,*7C
$GPGSV,5,5,17,50,10,089,*4A
$GLGSV,3,1,10,65,10,198,,70,05,041,13,71,40,072,11,72,50,150,*62
$GLGSV,3,2,10,74,14,163,,75,54,203,18,76,39,301,25,77,00,323,*60
$GLGSV,3,3,10,86,07,357,,87,03,316,*64
$GNGLL,0419.73574,S,05539.79362,E,074903.00,A,A*6E
$GNRMC,074904.00,A,0419.73581,S,05539.79367,E,0.107,,220525,,,A*7B
$GNVTG,,T,,M,0.107,N,0.198,K,A*3B
$GNGGA,074904.00,0419.73581,S,05539.79367,E,1,11,1.02,22.2,M,-47.6,M,,*4A
$GNGSA,A,3,25,12,23,15,18,05,24,29,40,,,,1.74,1.02,1.41*1D
$GNGSA,A,3,75,76,,,,,,,,,,,1.74,1.02,1.41*1A
$GPGSV,5,1,17,05,15,028,12,10,28,220,16,12,56,146,28,13,10,080,*7D
$GPGSV,5,2,17,15,44,100,18,18,24,320,31,23,68,247,29,24,22,155,18*73
$GPGSV,5,3,17,25,83,269,34,28,10,267,,29,25,007,31,32,01,219,*74
$GPGSV,5,4,17,36,52,277,,40,86,351,33,41,58,082,,49,32,274,*7C
$GPGSV,5,5,17,50,10,089,*4A
$GLGSV,3,1,10,65,10,198,,70,05,041,13,71,40,072,09,72,50,150,*6B
$GLGSV,3,2,10,74,14,163,,75,54,203,19,76,39,301,24,77,00,323,*60
$GLGSV,3,3,10,86,07,357,,87,03,316,*64
$GNGLL,0419.73581,S,05539.79367,E,074904.00,A,A*66
$GNRMC,074905.00,A,0419.73574,S,05539.79373,E,0.087,,220525,,,A*7C
$GNVTG,,T,,M,0.087,N,0.160,K,A*35
$GNGGA,074905.00,0419.73574,S,05539.79373,E,1,12,0.93,22.5,M,-47.6,M,,*49
$GNGSA,A,3,25,12,23,15,18,05,24,29,40,,,,1.67,0.93,1.39*19
$GNGSA,A,3,75,71,76,,,,,,,,,,1.67,0.93,1.39*18
$GPGSV,5,1,17,05,15,028,09,10,28,220,16,12,56,146,28,13,10,080,*77
$GPGSV,5,2,17,15,44,100,19,18,24,320,31,23,68,247,28,24,22,155,18*73
$GPGSV,5,3,17,25,83,269,34,28,10,267,,29,25,007,31,32,01,219,*74
$GPGSV,5,4,17,36,52,277,,40,86,351,33,41,58,082,,49,32,274,*7C
$GPGSV,5,5,17,50,10,089,*4A
$GLGSV,3,1,10,65,10,198,,70,05,041,11,71,40,072,14,72,50,150,*65
$GLGSV,3,2,10,74,14,163,,75,54,203,18,76,39,301,22,77,00,323,*67
$GLGSV,3,3,10,86,07,357,,87,03,316,*64
$GNGLL,0419.73574,S,05539.79373,E,074905.00,A,A*68
$GNRMC,074906.00,A,0419.73572,S,05539.79376,E,0.245,,220525,,,D*75
$GNVTG,,T,,M,0.245,N,0.454,K,D*3E
$GNGGA,074906.00,0419.73572,S,05539.79376,E,2,12,0.94,22.6,M,-47.6,M,,0000*4E
$GNGSA,A,3,25,12,23,15,18,05,24,29,10,40,,,1.63,0.94,1.33*11
$GNGSA,A,3,75,71,76,,,,,,,,,,1.63,0.94,1.33*11
$GPGSV,5,1,17,05,15,028,12,10,28,220,15,12,56,146,28,13,10,080,*7E
$GPGSV,5,2,17,15,44,100,19,18,24,320,31,23,68,247,27,24,22,155,17*73
$GPGSV,5,3,17,25,83,269,34,28,10,267,,29,25,007,31,32,01,219,*74
$GPGSV,5,4,17,36,52,277,,40,86,351,33,41,58,082,,49,32,274,*7C
$GPGSV,5,5,17,50,10,089,*4A
$GLGSV,3,1,10,65,10,198,,70,05,041,11,71,40,072,14,72,50,150,*65
$GLGSV,3,2,10,74,14,163,,75,54,203,17,76,39,301,21,77,00,323,*6B
$GLGSV,3,3,10,86,07,357,,87,03,316,*64
$GNGLL,0419.73572,S,05539.79376,E,074906.00,A,D*6D
$GNRMC,074907.00,A,0419.73577,S,05539.79379,E,0.160,,220525,,,D*7A
$GNVTG,,T,,M,0.160,N,0.296,K,D*32
$GNGGA,074907.00,0419.73577,S,05539.79379,E,2,12,0.85,22.3,M,-47.6,M,,0000*40
$GNGSA,A,3,25,12,23,15,18,05,24,29,10,40,,,1.57,0.85,1.32*17
$GNGSA,A,3,75,71,76,,,,,,,,,,1.57,0.85,1.32*17
$GPGSV,5,1,17,05,15,028,13,10,28,220,15,12,56,146,28,13,10,080,*7F
$GPGSV,5,2,17,15,44,100,18,18,24,320,31,23,68,247,27,24,22,155,18*7D
$GPGSV,5,3,17,25,83,269,33,28,10,267,,29,25,007,31,32,01,219,*73
$GPGSV,5,4,17,36,52,277,,40,86,351,33,41,58,082,,49,32,274,*7C
$GPGSV,5,5,17,50,10,089,*4A
$GLGSV,3,1,10,65,10,198,,70,05,041,11,71,40,072,14,72,50,150,*65
$GLGSV,3,2,10,74,14,163,,75,54,203,17,76,39,301,20,77,00,323,*6A
$GLGSV,3,3,10,86,07,357,,87,03,316,*64
$GNGLL,0419.73577,S,05539.79379,E,074907.00,A,D*66
$GNRMC,074908.00,A,0419.73575,S,05539.79383,E,0.177,,220525,,,D*74
$GNVTG,,T,,M,0.177,N,0.327,K,D*3F
$GNGGA,074908.00,0419.73575,S,05539.79383,E,2,12,0.85,22.4,M,-47.6,M,,0000*4F
$GNGSA,A,3,25,12,23,15,18,05,24,29,10,40,,,1.57,0.85,1.32*17
$GNGSA,A,3,75,71,76,,,,,,,,,,1.57,0.85,1.32*17
$GPGSV,5,1,17,05,15,028,08,10,28,220,17,12,56,146,29,13,10,080,*76
$GPGSV,5,2,17,15,44,100,16,18,24,320,30,23,68,247,27,24,22,155,18*72
$GPGSV,5,3,17,25,83,269,34,28,10,267,,29,25,007,31,32,01,219,*74
$GPGSV,5,4,17,36,52,277,,40,86,351,33,41,58,082,,49,32,274,*7C
$GPGSV,5,5,17,50,10,089,*4A
$GLGSV,3,1,10,65,10,198,,70,05,041,11,71,40,072,14,72,50,150,*65
$GLGSV,3,2,10,74,14,163,,75,54,203,18,76,39,301,20,77,00,323,*65
$GLGSV,3,3,10,86,07,357,,87,03,316,*64
$GNGLL,0419.73575,S,05539.79383,E,074908.00,A,D*6E
$GNRMC,074909.00,A,0419.73585,S,05539.79386,E,0.064,,220525,,,D*7C
$GNVTG,,T,,M,0.064,N,0.119,K,D*33
$GNGGA,074909.00,0419.73585,S,05539.79386,E,2,12,0.97,22.1,M,-47.6,M,,0000*42
$GNGSA,A,3,25,12,23,15,18,05,24,29,10,40,,,1.66,0.97,1.34*10
$GNGSA,A,3,75,76,,,,,,,,,,,1.66,0.97,1.34*16
$GPGSV,5,1,17,05,15,028,12,10,28,220,19,12,56,146,29,13,10,080,*73
$GPGSV,5,2,17,15,44,100,16,18,24,320,30,23,68,249,27,24,22,155,17*73
$GPGSV,5,3,17,25,83,269,34,28,10,267,,29,25,007,31,32,01,219,*74
$GPGSV,5,4,17,36,52,277,,40,86,351,32,41,58,082,,49,32,274,*7D
$GPGSV,5,5,17,50,10,089,*4A
$GLGSV,3,1,10,65,10,198,,70,05,041,07,71,40,072,08,72,50,150,*6F
$GLGSV,3,2,10,74,14,163,,75,54,203,19,76,39,301,20,77,00,323,*64
$GLGSV,3,3,10,86,07,357,,87,03,316,*64
$GNGLL,0419.73585,S,05539.79386,E,074909.00,A,D*65
$GNRMC,074910.00,A,0419.73580,S,05539.79384,E,0.157,,220525,,,D*72
$GNVTG,,T,,M,0.157,N,0.290,K,D*30
$GNGGA,074910.00,0419.73580,S,05539.79384,E,2,12,0.94,22.2,M,-47.6,M,,0000*4D
$GNGSA,A,3,25,12,23,15,18,05,24,29,10,40,,,1.63,0.94,1.33*11
$GNGSA,A,3,75,76,,,,,,,,,,,1.63,0.94,1.33*17
$GPGSV,5,1,17,05,15,028,11,10,28,220,20,12,56,146,28,13,10,080,*7B
$GPGSV,5,2,17,15,44,100,16,18,24,320,30,23,68,249,26,24,21,155,18*7E
$GPGSV,5,3,17,25,83,269,34,28,10,267,,29,25,007,31,32,01,219,*74
$GPGSV,5,4,17,36,52,277,,40,86,351,33,41,58,082,,49,32,274,*7C
$GPGSV,5,5,17,50,10,089,*4A
$GLGSV,3,1,10,65,10,198,,70,05,041,07,71,40,072,08,72,50,150,*6F
$GLGSV,3,2,10,74,14,163,,75,54,203,20,76,39,301,20,77,00,323,*6E
$GLGSV,3,3,10,86,07,357,,87,03,316,*64
$GNGLL,0419.73580,S,05539.79384,E,074910.00,A,D*6A
$GNRMC,074911.00,A,0419.73579,S,05539.79387,E,0.073,,220525,,,D*71
$GNVTG,,T,,M,0.073,N,0.135,K,D*3B
$GNGGA,074911.00,0419.73579,S,05539.79387,E,2,12,0.86,22.2,M,-47.6,M,,0000*4A
$GNGSA,A,3,25,12,23,15,18,05,24,29,10,40,,,1.50,0.86,1.23*13
$GNGSA,A,3,75,76,,,,,,,,,,,1.50,0.86,1.23*15
$GPGSV,5,1,17,05,15,028,09,10,28,220,20,12,56,146,28,13,10,080,*72
$GPGSV,5,2,17,15,44,100,17,18,24,320,30,23,68,249,26,24,21,155,17*70
$GPGSV,5,3,17,25,83,263,34,28,10,267,,29,25,007,30,32,01,219,*7F
$GPGSV,5,4,17,36,52,277,,40,86,351,33,41,58,082,,49,32,274,*7C
$GPGSV,5,5,17,50,10,089,*4A
$GLGSV,3,1,10,65,10,198,,70,05,041,09,71,40,072,09,72,50,150,*60
$GLGSV,3,2,10,74,14,163,,75,54,203,20,76,39,301,22,77,00,323,*6C
$GLGSV,3,3,10,86,07,357,,87,03,316,*64
$GNGLL,0419.73579,S,05539.79387,E,074911.00,A,D*6E
$GNRMC,074912.00,A,0419.73581,S,05539.79394,E,0.136,,220525,,,D*77
$GNVTG,,T,,M,0.136,N,0.252,K,D*39
$GNGGA,074912.00,0419.73581,S,05539.79394,E,2,12,0.86,22.1,M,-47.6,M,,0000*4F
$GNGSA,A,3,25,12,23,15,18,05,24,29,10,40,,,1.50,0.86,1.23*13
$GNGSA,A,3,75,71,76,,,,,,,,,,1.50,0.86,1.23*13
$GPGSV,5,1,17,05,15,028,10,10,28,220,20,12,56,146,28,13,10,080,*7A
$GPGSV,5,2,17,15,44,100,20,18,24,320,30,23,68,249,26,24,21,155,16*75
$GPGSV,5,3,17,25,83,263,34,28,10,267,,29,25,007,30,32,01,219,*7F
$GPGSV,5,4,17,36,52,277,,40,86,351,33,41,58,082,,49,32,274,*7C
$GPGSV,5,5,17,50,10,089,*4A
$GLGSV,3,1,10,65,10,198,,70,05,041,08,71,40,072,10,72,50,150,*69
$GLGSV,3,2,10,74,14,163,,75,54,203,20,76,39,301,23,77,00,323,*6D
$GLGSV,3,3,10,86,07,357,,87,03,316,*64
$GNGLL,0419.73581,S,05539.79394,E,074912.00,A,D*68
$GNRMC,074913.00,A,0419.73575,S,05539.79395,E,0.043,,220525,,,D*7F
$GNVTG,,T,,M,0.043,N,0.080,K,D*37
$GNGGA,074913.00,0419.73575,S,05539.79395,E,2,12,0.85,22.3,M,-47.6,M,,0000*45
$GNGSA,A,3,25,12,23,15,18,05,24,29,10,40,,,1.57,0.85,1.32*17
$GNGSA,A,3,75,71,76,,,,,,,,,,1.57,0.85,1.32*17
$GPGSV,5,1,17,05,15,028,13,10,28,220,20,12,56,146,28,13,10,080,*79
$GPGSV,5,2,17,15,44,100,21,18,24,320,30,23,68,249,26,24,21,155,15*77
$GPGSV,5,3,17,25,83,263,34,28,10,267,,29,25,007,29,32,01,219,*77
$GPGSV,5,4,17,36,52,277,,40,86,351,33,41,58,082,,49,32,274,*7C
$GPGSV,5,5,17,50,10,089,*4A
$GLGSV,3,1,10,65,10,198,,70,05,041,10,71,40,072,08,72,50,150,*69
$GLGSV,3,2,10,74,14,163,,75,54,203,21,76,39,301,24,77,00,323,*6B
$GLGSV,3,3,10,86,07,357,,87,03,316,*64
$GNGLL,0419.73575,S,05539.79395,E,074913.00,A,D*63
$GNRMC,074914.00,A,0419.73579,S,05539.79393,E,0.191,,220525,,,D*7C
$GNVTG,,T,,M,0.191,N,0.355,K,D*32
$GNGGA,074914.00,0419.73579,S,05539.79393,E,2,12,0.85,22.3,M,-47.6,M,,0000*48
$GNGSA,A,3,25,12,23,15,18,05,24,29,10,40,,,1.57,0.85,1.32*17
$GNGSA,A,3,75,71,76,,,,,,,,,,1.57,0.85,1.32*17
$GPGSV,5,1,17,05,15,028,12,10,28,220,21,12,56,146,28,13,10,080,*79
$GPGSV,5,2,17,15,44,100,21,18,24,320,31,23,68,249,25,24,21,155,15*75
$GPGSV,5,3,17,25,83,263,34,28,11,267,,29,25,007,30,32,01,219,*7E
$GPGSV,5,4,17,36,52,277,,40,86,351,33,41,58,082,,49,32,274,*7C
$GPGSV,5,5,17,50,10,089,*4A
$GLGSV,3,1,10,65,10,198,,70,05,041,10,71,40,072,12,72,50,150,*62
$GLGSV,3,2,10,74,14,163,,75,54,203,21,76,39,301,25,77,00,323,*6A
$GLGSV,3,3,10,86,07,357,,87,03,316,*64
$GNGLL,0419.73579,S,05539.79393,E,074914.00,A,D*6E
$GNRMC,074915.00,A,0419.73587,S,05539.79397,E,0.124,,220525,,,D*76
$GNVTG,,T,,M,0.124,N,0.229,K,D*36
$GNGGA,074915.00,0419.73587,S,05539.79397,E,2,12,0.85,22.0,M,-47.6,M,,0000*4F
$GNGSA,A,3,25,12,23,15,18,05,24,29,10,40,,,1.57,0.85,1.32*17
$GNGSA,A,3,75,71,76,,,,,,,,,,1.57,0.85,1.32*17
$GPGSV,5,1,17,05,15,028,14,10,28,220,20,12,56,146,28,13,10,080,*7E
$GPGSV,5,2,17,15,44,100,22,18,24,320,31,23,68,249,24,24,21,155,15*77
$GPGSV,5,3,17,25,83,263,34,28,11,267,,29,26,008,30,32,01,219,*72
$GPGSV,5,4,17,36,52,277,,40,86,351,33,41,58,082,,49,32,274,*7C
$GPGSV,5,5,17,50,10,089,*4A
$GLGSV,3,1,10,65,10,198,,70,05,041,09,71,40,072,09,72,50,150,*60
$GLGSV,3,2,10,74,14,163,,75,54,203,20,76,39,301,25,77,00,323,*6B
$GLGSV,3,3,10,86,07,357,,87,03,316,*64
$GNGLL,0419.73587,S,05539.79397,E,074915.00,A,D*6A
$GNRMC,074916.00,A,0419.73579,S,05539.79402,E,0.116,,220525,,,D*7E
$GNVTG,,T,,M,0.116,N,0.215,K,D*38
$GNGGA,074916.00,0419.73579,S,05539.79402,E,2,12,0.85,22.3,M,-47.6,M,,0000*45
$GNGSA,A,3,25,12,23,15,18,05,24,29,10,40,,,1.57,0.85,1.32*17
$GNGSA,A,3,75,71,76,,,,,,,,,,1.57,0.85,1.32*17
$GPGSV,5,1,17,05,15,028,13,10,28,220,21,12,56,146,28,13,10,080,*78
$GPGSV,5,2,17,15,44,100,22,18,24,320,30,23,68,249,25,24,21,155,15*77
$GPGSV,5,3,17,25,83,263,34,28,11,267,,29,26,008,30,32,01,219,*72
$GPGSV,5,4,17,36,52,277,,40,86,351,33,41,58,082,,49,32,274,*7C
$GPGSV,5,5,17,50,10,089,*4A
$GLGSV,3,1,10,65,10,198,,70,05,041,10,71,40,072,13,72,50,150,*63
$GLGSV,3,2,10,74,14,163,,75,54,203,18,76,39,301,26,77,00,323,*63
$GLGSV,3,3,10,86,07,357,,87,03,316,*64
$GNGLL,0419.73579,S,05539.79402,E,074916.00,A,D*63
$GNRMC,074917.00,A,0419.73571,S,05539.79406,E,0.221,,220525,,,D*74
$GNVTG,,T,,M,0.221,N,0.409,K,D*34
$GNGGA,074917.00,0419.73571,S,05539.79406,E,2,12,0.85,22.6,M,-47.6,M,,0000*4D
$GNGSA,A,3,25,12,23,15,18,05,24,29,10,40,,,1.57,0.85,1.33*16
$GNGSA,A,3,75,71,76,,,,,,,,,,1.57,0.85,1.33*16
$GPGSV,5,1,17,05,15,028,09,10,28,220,21,12,56,146,28,13,10,080,*73
$GPGSV,5,2,17,15,44,100,22,18,24,320,30,23,68,249,25,24,21,155,15*77
$GPGSV,5,3,17,25,83,263,34,28,11,267,,29,26,008,30,32,01,219,*72
$GPGSV,5,4,17,36,52,277,,40,86,351,33,41,58,082,,49,32,274,*7C
$GPGSV,5,5,17,50,10,089,*4A
$GLGSV,3,1,10,65,10,198,,70,05,041,08,71,40,072,10,72,50,150,*69
$GLGSV,3,2,10,74,14,163,,75,54,203,17,76,39,301,26,77,00,323,*6C
$GLGSV,3,3,10,86,07,357,,87,03,316,*64
$GNGLL,0419.73571,S,05539.79406,E,074917.00,A,D*6E
$GNRMC,074918.00,A,0419.73567,S,05539.79405,E,0.172,,220525,,,D*7A
$GNVTG,,T,,M,0.172,N,0.318,K,D*36
$GNGGA,074918.00,0419.73567,S,05539.79405,E,2,12,0.85,22.7,M,-47.6,M,,0000*47
$GNGSA,A,3,25,12,23,15,18,05,24,29,10,40,,,1.57,0.85,1.33*16
$GNGSA,A,3,75,71,76,,,,,,,,,,1.57,0.85,1.33*16
$GPGSV,5,1,17,05,15,028,11,10,28,220,21,12,56,146,28,13,10,080,*7A
$GPGSV,5,2,17,15,44,100,22,18,24,320,31,23,68,249,26,24,21,155,15*75
$GPGSV,5,3,17,25,83,263,34,28,11,267,,29,26,008,29,32,01,219,*7A
$GPGSV,5,4,17,36,52,277,,40,86,351,33,41,58,082,,49,32,274,*7C
$GPGSV,5,5,17,50,10,089,*4A
$GLGSV,3,1,10,65,10,198,,70,05,041,10,71,40,072,13,72,50,150,*63
$GLGSV,3,2,10,74,14,163,,75,54,203,16,76,39,301,26,77,00,323,*6D
$GLGSV,3,3,10,86,07,357,,87,03,316,*64
$GNGLL,0419.73567,S,05539.79405,E,074918.00,A,D*65
$GNRMC,074919.00,A,0419.73558,S,05539.79406,E,0.221,,220525,,,D*71
$GNVTG,,T,,M,0.221,N,0.409,K,D*34
$GNGGA,074919.00,0419.73558,S,05539.79406,E,2,12,0.85,22.9,M,-47.6,M,,0000*47
$GNGSA,A,3,25,12,23,15,18,05,24,29,10,40,,,1.57,0.85,1.33*16
$GNGSA,A,3,75,71,76,,,,,,,,,,1.57,0.85,1.33*16
$GPGSV,5,1,17,05,15,028,16,10,28,220,21,12,56,146,28,13,10,080,*7D
$GPGSV,5,2,17,15,44,100,23,18,24,320,31,23,68,249,26,24,21,155,17*76
$GPGSV,5,3,17,25,83,263,34,28,11,267,,29,26,008,30,32,01,219,*72
$GPGSV,5,4,17,36,52,277,,40,86,351,33,41,58,082,,49,32,274,*7C
$GPGSV,5,5,17,50,10,089,*4A
$GLGSV,3,1,10,65,10,198,,70,05,041,13,71,40,072,13,72,50,150,*60
$GLGSV,3,2,10,74,14,163,,75,54,203,14,76,39,301,25,77,00,323,*6C
$GLGSV,3,3,10,86,07,357,,87,03,316,*64
$GNGLL,0419.73558,S,05539.79406,E,074919.00,A,D*6B
$GNRMC,074920.00,A,0419.73557,S,05539.79406,E,0.124,,220525,,,D*72
$GNVTG,,T,,M,0.124,N,0.230,K,D*3E
$GNGGA,074920.00,0419.73557,S,05539.79406,E,2,12,0.85,23.0,M,-47.6,M,,0000*4A
$GNGSA,A,3,25,12,23,15,18,05,24,29,10,40,,,1.57,0.85,1.33*16
$GNGSA,A,3,75,71,76,,,,,,,,,,1.57,0.85,1.33*16
$GPGSV,5,1,17,05,15,028,12,10,28,220,20,12,56,146,29,13,10,080,*79
$GPGSV,5,2,17,15,44,100,23,18,24,320,30,23,68,249,25,24,21,155,19*7A
$GPGSV,5,3,17,25,83,263,34,28,11,267,,29,26,008,30,32,01,219,*72
$GPGSV,5,4,17,36,52,277,,40,86,351,33,41,58,082,,49,32,274,*7C
$GPGSV,5,5,17,50,10,089,*4A
$GLGSV,3,1,10,65,10,198,,70,05,041,09,71,40,072,10,72,50,150,*68
$GLGSV,3,2,10,74,14,163,,75,54,203,13,76,39,301,26,77,00,323,*68
$GLGSV,3,3,10,86,07,357,,87,03,316,*64
$GNGLL,0419.73557,S,05539.79406,E,074920.00,A,D*6E
$GNRMC,074921.00,A,0419.73562,S,05539.79402,E,0.102,,220525,,,D*75
$GNVTG,,T,,M,0.102,N,0.188,K,D*3A
$GNGGA,074921.00,0419.73562,S,05539.79402,E,2,12,0.85,22.9,M,-47.6,M,,0000*41
$GNGSA,A,3,25,12,23,15,18,05,24,29,10,40,,,1.57,0.85,1.33*16
$GNGSA,A,3,75,71,76,,,,,,,,,,1.57,0.85,1.33*16
$GPGSV,5,1,17,05,15,028,11,10,28,220,20,12,56,146,29,13,10,080,*7A
$GPGSV,5,2,17,15,44,100,23,18,24,320,30,23,68,249,26,24,21,155,19*79
$GPGSV,5,3,17,25,83,263,34,28,11,267,,29,26,008,29,32,01,219,*7A
$GPGSV,5,4,17,36,52,277,,40,86,351,33,41,58,082,,49,32,274,*7C
$GPGSV,5,5,17,50,10,089,*4A
$GLGSV,3,1,10,65,10,198,,70,05,041,10,71,40,072,11,72,50,150,*61
$GLGSV,3,2,10,74,14,163,,75,54,203,12,76,39,301,25,77,00,323,*6A
$GLGSV,3,3,10,86,07,357,,87,03,316,*64
$GNGLL,0419.73562,S,05539.79402,E,074921.00,A,D*6D
$GNRMC,074922.00,A,0419.73567,S,05539.79401,E,0.031,,220525,,,D*71
$GNVTG,,T,,M,0.031,N,0.057,K,D*38
$GNGGA,074922.00,0419.73567,S,05539.79401,E,2,12,0.85,22.8,M,-47.6,M,,0000*45
$GNGSA,A,3,25,12,23,15,18,05,24,29,10,40,,,1.57,0.85,1.33*16
$GNGSA,A,3,75,71,76,,,,,,,,,,1.57,0.85,1.33*16
$GPGSV,5,1,17,05,15,028,12,10,28,220,19,12,56,146,29,13,10,080,*73
$GPGSV,5,2,17,15,44,100,23,18,24,320,30,23,68,249,26,24,21,155,19*79
$GPGSV,5,3,17,25,83,263,34,28,11,267,,29,26,008,29,32,01,219,*7A
$GPGSV,5,4,17,36,52,277,,40,86,351,33,41,58,082,,49,32,274,*7C
$GPGSV,5,5,17,50,10,089,*4A
$GLGSV,3,1,10,65,10,198,,70,05,041,09,71,40,072,12,72,50,150,*6A
$GLGSV,3,2,10,74,14,163,,75,54,203,12,76,39,301,25,77,00,323,*6A
$GLGSV,3,3,10,86,07,357,,87,03,316,*64
$GNGLL,0419.73567,S,05539.79401,E,074922.00,A,D*68
$GNRMC,074923.00,A,0419.73568,S,05539.79401,E,0.095,,220525,,,D*71
$GNVTG,,T,,M,0.095,N,0.176,K,D*34
$GNGGA,074923.00,0419.73568,S,05539.79401,E,2,12,0.85,22.7,M,-47.6,M,,0000*44
$GNGSA,A,3,25,12,23,15,18,24,29,10,40,,,,1.57,0.85,1.33*13
$GNGSA,A,3,75,71,76,,,,,,,,,,1.57,0.85,1.33*16
$GPGSV,5,1,17,05,15,028,06,10,28,220,20,12,56,146,29,13,10,080,*7C
$GPGSV,5,2,17,15,44,100,22,18,24,320,29,23,68,249,25,24,21,155,18*72
$GPGSV,5,3,17,25,83,263,34,28,11,267,,29,26,008,30,32,01,219,*72
$GPGSV,5,4,17,36,52,277,,40,86,351,33,41,58,082,,49,32,274,*7C
$GPGSV,5,5,17,50,10,089,*4A
$GLGSV,3,1,10,65,10,198,,70,05,041,11,71,40,072,10,72,50,150,*61
$GLGSV,3,2,10,74,14,163,,75,54,203,14,76,39,301,25,77,00,323,*6C
$GLGSV,3,3,10,86,07,357,,87,03,316,*64
$GNGLL,0419.73568,S,05539.79401,E,074923.00,A,D*66
$GNRMC,074924.00,A,0419.73566,S,05539.79404,E,0.180,,220525,,,D*78
$GNVTG,,T,,M,0.180,N,0.334,K,D*35
$GNGGA,074924.00,0419.73566,S,05539.79404,E,2,12,0.85,22.6,M,-47.6,M,,0000*49
$GNGSA,A,3,25,12,23,15,18,05,24,29,10,40,,,1.57,0.85,1.33*16
$GNGSA,A,3,75,71,76,,,,,,,,,,1.57,0.85,1.33*16
$GPGSV,5,1,17,05,15,028,09,10,28,220,20,12,56,146,29,13,10,080,*73
$GPGSV,5,2,17,15,44,100,22,18,24,320,30,23,68,249,26,24,21,155,17*76
$GPGSV,5,3,17,25,83,263,34,28,11,267,,29,26,008,30,32,01,219,*72
$GPGSV,5,4,17,36,52,277,,40,86,351,34,41,58,082,,49,32,274,*7B
$GPGSV,5,5,17,50,10,089,*4A
$GLGSV,3,1,10,65,10,198,,70,05,041,11,71,40,072,10,72,50,150,*61
$GLGSV,3,2,10,74,14,163,,75,54,203,16,76,39,301,25,77,00,323,*6E
$GLGSV,3,3,10,86,07,357,,87,03,316,*64
$GNGLL,0419.73566,S,05539.79404,E,074924.00,A,D*6A
$GNRMC,074925.00,A,0419.73574,S,05539.79410,E,0.161,,220525,,,D*70
$GNVTG,,T,,M,0.161,N,0.299,K,D*3C
$GNGGA,074925.00,0419.73574,S,05539.79410,E,2,12,0.85,22.2,M,-47.6,M,,0000*4A
$GNGSA,A,3,25,12,23,15,18,05,24,29,10,40,,,1.57,0.85,1.33*16
$GNGSA,A,3,75,71,76,,,,,,,,,,1.57,0.85,1.33*16
$GPGSV,5,1,17,05,15,028,11,10,28,220,20,12,56,146,29,13,10,080,*7A
$GPGSV,5,2,17,15,44,100,21,18,24,320,29,23,68,249,26,24,21,155,16*7C
$GPGSV,5,3,17,25,83,263,34,28,11,267,,29,26,008,30,32,01,219,*72
$GPGSV,5,4,17,36,52,277,,40,86,351,33,41,58,082,,49,32,274,*7C
$GPGSV,5,5,17,50,10,089,*4A
$GLGSV,3,1,10,65,10,198,,70,05,041,13,71,40,072,10,72,50,150,*63
$GLGSV,3,2,10,74,14,163,,75,54,203,15,76,39,301,25,77,00,323,*6D
$GLGSV,3,3,10,86,07,357,,87,03,316,*64
