b0LN'

y'E+7j<Z< 
{4 Ta:RQ 
YvzFQGOHIJPi.
STJ98U
 Yb$GNRMC,131152.00,A,0419.86408,S,05539.76635,E,0.436,,260525,,,A*74
$GNVTG,,T,,M,0.436,N,0.807,K,A*33
$GNGNS,131152.00,0419.86408,S,05539.76635,E,AA,14,0.68,15.1,-47.6,,*63
$GNGGA,131152.00,0419.86408,S,05539.76635,E,1,12,0.68,15.1,M,-47.6,M,,*4F
$GNGSA,A,3,28,31,27,26,32,18,08,16,10,41,,,1.26,0.68,1.06*1A
$GNGSA,A,3,84,83,71,80,,,,,,,,,1.26,0.68,1.06*19
$GPGSV,5,2,17,16,24,209,10,18,25,121,30,23,01,069,12,26,29,178,29*7A
$GPGSV,5,3,17,27,55,258,30,28,60,090,17,31,60,158,31,32,27,010,22*7C
$GPGSV,5,4,17,36,52,277,,40,84,353,32,41,58,082,30,49,32,274,*7E
$GPGSV,5,5,17,50,10,089,*4A
$GLGSV,3,1,09,70,23,337,,71,28,285,18,72,07,239,,73,24,161,*6B
$GLGSV,3,2,09,74,07,203,,80,16,105,12,83,31,144,24,84,74,057,12*60
$GLGSV,3,3,09,85,32,345,10*53
$GNGLL,0419.86408,S,05539.76635,E,131152.00,A,A*6A
$GNGRS,131152.00,1,-13.2,-3.8,-1.5,1.9,7.0,3.0,-0.2,14.2,-15.3,-130,,*78
$GNGRS,131152.00,1,0.6,-3.7,0.8,5.6,,,,,,,,*71
$GNGST,131152.00,3073260,,,,4.8,4.2,9.7*7B
$GNZDA,131152.00,26,05,2025,00,00*79
$GNGBS,131152.00,4.8,4.2,9.7,,,,*5E
$GNTXT,01,01,01,More than 100 frame errors, UART RX was disabled*70
$GNTXT,01,01,01,More than 100 frame errors, UART RX was disabled*70
b0LN'
y
E^7<ZP<j 
X{4Ta :R 
YvxFQGHIJPi
STJ9U Y!b]C$GNRMC,131156.00,A,0419.86449,S,05539.76598,E,0.444,,260525,,,A*74
$GNVTG,,T,,M,0.444,N,0.823,K,A*30
$GNGNS,131156.00,0419.86449,S,05539.76598,E,AA,15,0.72,14.5,-47.6,,*69
$GNGGA,131156.00,0419.86449,S,05539.76598,E,1,12,0.72,14.5,M,-47.6,M,,*44
$GNGSA,A,3,28,31,27,26,32,18,08,16,10,41,,,1.32,0.72,1.10*13
$GNGSA,A,3,84,83,71,85,80,,,,,,,,1.32,0.72,1.10*1D
$GPGSV,5,1,17,02,09,334,21,04,12,232,,08,27,295,26,10,13,031,20*77
$GPGSV,5,2,17,16,24,209,17,18,25,121,30,23,01,069,11,26,29,178,31*77
$GPGSV,5,3,17,27,55,258,30,28,60,090,24,31,60,158,30,32,27,010,17*7B
$GPGSV,5,4,17,36,52,277,,40,84,353,29,41,58,082,32,49,32,274,*76
$GPGSV,5,5,17,50,10,089,*4A
$GLGSV,3,1,09,70,23,337,,71,28,285,23,72,07,239,,73,24,161,*63
$GLGSV,3,2,09,74,07,203,,80,16,105,16,83,31,144,29,84,74,057,13*68
$GLGSV,3,3,09,85,32,345,12*51
$GNGLL,0419.86449,S,05539.76598,E,131156.00,A,A*6F
$GNGRS,131156.00,1,-14.6,-4.1,-8.0,3.5,8.6,-5.0,-5.7,-33.1,-10.8,-138,,*7C
$GNGRS,131156.00,1,7.0,-5.5,4.8,-2.2,-5.8,,,,,,,*54
$GNGST,131156.00,1060,,,,5.0,4.3,9.6*42
$GNZDA,131156.00,26,05,2025,00,00*7D
$GNGBS,131156.00,5.0,4.3,9.6,,,,*53
$GNTXT,01,01,01,More than 100 frame errors, UART RX was disabled*70
$GNTXT,01,01,01,More than 100 frame errors, UART RX was disabled*70
b0LN&
>dyE X7<Z#< 
{4Ta :R 
YvFQGCHIJPiJ
SSTJ9U Yb-z$GNRMC,131158.00,A,0419.86470,S,05539.76575,E,0.023,,260525,,,A*76
$GNVTG,,T,,M,0.023,N,0.043,K,A*3B
$GNGNS,131158.00,0419.86470,S,05539.76575,E,AA,15,0.65,13.3,-47.6,,*69
$GNGGA,131158.00,0419.86470,S,05539.76575,E,1,12,0.65,13.3,M,-47.6,M,,*44
$GNGSA,A,3,28,31,27,26,32,18,08,16,10,41,,,1.25,0.65,1.06*14
$GNGSA,A,3,84,83,71,85,80,,,,,,,,1.25,0.65,1.06*1A
$GPGSV,5,1,17,02,09,334,19,04,12,232,,08,28,294,26,10,13,031,19*78
$GPGSV,5,2,17,16,24,209,20,18,25,121,30,23,01,069,11,26,29,178,31*73
$GPGSV,5,3,17,27,55,258,29,28,60,090,25,31,60,158,35,32,27,010,14*74
$GPGSV,5,4,17,36,52,277,,40,84,353,28,41,58,082,32,49,32,274,*77
$GPGSV,5,5,17,50,10,089,*4A
$GLGSV,3,1,09,70,23,337,,71,28,285,24,72,07,239,,73,24,161,*64
$GLGSV,3,2,09,74,07,203,,80,16,105,18,83,31,144,28,84,74,057,11*65
$GLGSV,3,3,09,85,32,345,12*51
$GNGLL,0419.86470,S,05539.76575,E,131158.00,A,A*68
$GNGRS,131158.00,1,-12.7,-5.6,-0.2,3.4,12.2,-0.6,-6.1,13.8,-7.1,-135,,*55
$GNGRS,131158.00,1,1.4,0.8,3.2,7.0,5.9,,,,,,,*76
$GNGST,131158.00,2984899,,,,4.9,4.2,9.3*78
$GNZDA,131158.00,26,05,2025,00,00*73
$GNGBS,131158.00,4.9,4.2,9.3,,,,*51
$GNTXT,01,01,01,More than 100 frame errors, UART RX was disabled*70
b0LhN&
ByE"7u<Z< 
d{4Ta :R 
YviFQG,HIJPi
STJ9U
 Ybh$GNRMC,131159.00,A,0419.86478,S,05539.76572,E,0.136,,260525,,,A*7D
$GNVTG,,T,,M,0.136,N,0.251,K,A*3F
$GNGNS,131159.00,0419.86478,S,05539.76572,E,AA,15,0.68,12.9,-47.6,,*61
$GNGGA,131159.00,0419.86478,S,05539.76572,E,1,12,0.68,12.9,M,-47.6,M,,*4C
$GNGSA,A,3,28,31,27,26,32,18,08,16,10,41,,,1.26,0.68,1.06*1A
$GNGSA,A,3,84,83,71,85,80,,,,,,,,1.26,0.68,1.06*14
$GPGSV,5,1,17,02,09,334,20,04,12,232,,08,28,294,26,10,13,031,19*72
$GPGSV,5,2,17,16,24,209,12,18,25,121,30,23,01,069,11,26,29,178,30*73
$GPGSV,5,3,17,27,55,258,28,28,60,090,25,31,60,158,29,32,27,010,14*78
$GPGSV,5,4,17,36,52,277,,40,84,353,29,41,58,082,32,49,32,274,*76
$GPGSV,5,5,17,50,10,089,*4A
$GLGSV,3,1,09,70,23,337,,71,28,285,25,72,07,239,,73,24,161,*65
$GLGSV,3,2,09,74,07,203,,80,16,105,14,83,31,144,28,84,74,057,13*6B
$GLGSV,3,3,09,85,32,345,10*53
$GNGLL,0419.86478,S,05539.76572,E,131159.00,A,A*66
$GNGRS,131159.00,1,-12.7,-2.9,-9.1,0.3,8.7,0.0,-7.6,13.5,-6.2,-136,,*4D
$GNGRS,131159.00,1,-6.1,0.2,3.0,-33.0,0.2,,,,,,,*44
$GNGST,131159.00,1060,,,,4.9,4.1,9.3*42
$GNZDA,131159.00,26,05,2025,00,00*72
$GNGBS,131159.00,4.9,4.1,9.3,,,,*53
b0LN&h
RydEgq7;<Z<0 
{4Ta:R 
YvtFQG/H$GLGSV,3,1,09,70,23,337,,71,28,285,26,72,07,239,,73,24,161,*66
$GLGSV,3,2,09,74,07,203,,80,16,105,17,83,31,144,20,84,74,057,13*60
$GLGSV,3,3,09,85,32,345,10*53
$GNGLL,0419.86531,S,05539.76548,E,131204.00,A,A*68
$GNGRS,131204.00,1,-11.8,-0.8,4.0,5.4,4.1,7.1,-9.5,6.2,-4.8,-133,,*55
$GNGRS,131204.00,1,1.0,6.5,-0.2,7.7,5.8,,,,,,,*5B
$GNTXT,01,01,01,More than 100 frame errors, UART RX was disabled*70
$GLGSV,3,1,09,70,23,337,,71,28,285,27,72,07,239,,73,24,161,*67
$GLGSV,3,2,09,74,07,203,,80,16,105,16,83,31,144,22,84,74,057,08*69
$GLGSV,3,3,09,85,32,345,07*55
$GNGLL,0419.86552,S,05539.76533,E,131206.00,A,A*63
$GNGRS,131206.00,1,-10.6,-0.7,2.6,2.8,4.1,2.8,-6.3,2.7,-3.4,-136,,*56
$GNGRS,131206.00,1,0.8,4.9,0.1,5.8,,,,,,,,*5E
$GNGST,131206.00,49648,,,,5.0,4.2,9.4*77
$GNZDA,131206.00,26,05,2025,00,00*7B
$GNGBS,131206.00,5.0,4.2,9.4,,,,*56
$GNTXT,01,01,01,More than 100 frame errors, UART RX was disabled*70
b0LN&
yE[7b<Z<T 
^{4Ta:R 
YvFQGHIJPi1
S\T
J96U Y~bU$GNRMC,131207.00,A,0419.86558,S,05539.76529,E,0.037,,260525,,,A*78
$GNVTG,,T,,M,0.037,N,0.069,K,A*36
$GNGNS,131207.00,0419.86558,S,05539.76529,E,AA,14,0.68,11.8,-47.6,,*67
$GNGGA,131207.00,0419.86558,S,05539.76529,E,1,12,0.68,11.8,M,-47.6,M,,*4B
$GNGSA,A,3,28,31,27,26,32,18,08,16,10,41,,,1.26,0.68,1.06*1A
$GNGSA,A,3,84,83,71,80,,,,,,,,,1.26,0.68,1.06*19
$GPGSV,5,1,17,02,09,334,20,04,12,232,,08,28,294,21,10,13,031,19*75
$GPGSV,5,2,17,16,24,209,14,18,25,121,29,23,01,069,09,26,29,178,31*75
$GPGSV,5,3,17,27,55,258,28,28,60,090,21,31,60,158,30,32,27,010,20*73
$GPGSV,5,4,17,36,52,277,,40,84,353,28,41,58,082,29,49,32,274,*7D
$GPGSV,5,5,17,50,10,089,*4A
$GLGSV,3,1,09,70,23,337,,71,28,285,27,72,07,239,,73,24,161,*67
$GLGSV,3,2,09,74,07,203,,80,16,105,17,83,31,144,23,84,74,057,10*60
$GLGSV,3,3,09,85,32,345,07*55
$GNGLL,0419.86558,S,05539.76529,E,131207.00,A,A*63
$GNGRS,131207.00,1,-8.9,-1.7,3.5,3.5,3.5,-0.2,-6.3,3.9,-2.6,-136,,*44
$GNGRS,131207.00,1,0.5,6.0,-0.8,5.6,,,,,,,,*73
$GNGST,131207.00,74462,,,,4.9,4.2,9.4*7A
$GNZDA,131207.00,26,05,2025,00,00*7A
$GNGBS,131207.00,4.9,4.2,9.4,,,,*5F
b0LN&=
zgEn78<Z<1 
{4Ta:R 
YvFQGHIJPi
ST
J9U Yeb=ax$GNRMC,131208.00,A,0419.86569,S,05539.76525,E,0.200,,260525,,,A*7F
$GNVTG,,T,,M,0.200,N,0.370,K,A*3B
$GNGNS,131208.00,0419.86569,S,05539.76525,E,AA,14,0.68,11.5,-47.6,,*6B
$GNGGA,131208.00,0419.86569,S,05539.76525,E,1,12,0.68,11.5,M,-47.6,M,,*47
$GNGSA,A,3,28,31,27,26,32,18,08,16,10,41,,,1.26,0.68,1.06*1A
$GNGSA,A,3,84,83,71,80,,,,,,,,,1.26,0.68,1.06*19
$GPGSV,5,1,17,02,09,334,20,04,12,232,,08,28,294,23,10,13,031,18*76
$GPGSV,5,2,17,16,24,209,15,18,25,122,28,23,01,069,08,26,29,178,30*76
$GPGSV,5,3,17,27,55,258,30,28,60,090,22,31,60,158,31,32,27,010,21*79
$GPGSV,5,4,17,36,52,277,,40,84,353,29,41,58,082,30,49,32,274,*74
$GPGSV,5,5,17,50,10,089,*4A
$GLGSV,3,1,09,70,23,337,,71,28,285,26,72,07,239,,73,24,161,*66
$GLGSV,3,2,09,74,07,203,,80,16,105,17,83,31,144,22,84,74,057,10*61
$GLGSV,3,3,09,85,32,345,07*55
$GNGLL,0419.86569,S,05539.76525,E,131208.00,A,A*62
$GNGRS,131208.00,1,-11.4,-7.2,-2.0,3.7,1.9,1.0,-7.1,1.7,-2.9,-136,,*76
$GNGRS,131208.00,1,5.2,5.4,-1.1,-1.2,,,,,,,,*5C
$GNGST,131208.00,1060,,,,4.9,4.2,9.3*46
$GNZDA,131208.00,26,05,2025,00,00*75
$GNGBS,131208.00,4.9,4.2,9.3,,,,*57
$GNTXT,01,01,01,More than 100 frame errors, UART RX was disabled*70
$GLGSV,3,1,09,70,23,337,,71,28,285,26,72,07,239,,73,24,161,*66
$GLGSV,3,2,09,74,07,203,,80,16,105,17,83,31,144,21,84,74,057,10*62
$GLGSV,3,3,09,85,32,345,07*55
$GNGLL,0419.86578,S,05539.76524,E,131209.00,A,A*62
$GNGRS,131209.00,1,-12.7,-5.0,-1.4,2.0,-0.6,1.9,-6.5,-0.6,-1.9,-136,,*77
$GNGRS,131209.00,1,0.9,5.4,-1.9,5.9,,,,,,,,*79
$GNGST,131209.00,86757,,,,4.9,4.2,9.3*7B
$GNZDA,131209.00,26,05,2025,00,00*74
$GNGBS,131209.00,4.9,4.2,9.3,,,,*56
$GNTXT,01,01,01,More than 100 frame errors, UART RX was disabled*70
$GNTXT,01,01,01,More than 100 frame errors, UART RX was disabled*70
b0LHN&~
/z`E7<Z0<G 
{4Ta:R 
YvFQGHIJPi
STJ99U Yb0$GNRMC,131212.00,A,0419.86592,S,05539.76535,E,0.032,,260525,,,A*72
$GNVTG,,T,,M,0.032,N,0.060,K,A*3A
$GNGNS,131212.00,0419.86592,S,05539.76535,E,AA,15,0.65,11.6,-47.6,,*6A
$GNGGA,131212.00,0419.86592,S,05539.76535,E,1,12,0.65,11.6,M,-47.6,M,,*47
$GNGSA,A,3,28,31,27,26,32,18,08,16,10,41,,,1.25,0.65,1.06*14
$GNGSA,A,3,84,83,71,85,80,,,,,,,,1.25,0.65,1.06*1A
$GPGSV,5,1,17,02,09,334,15,04,12,232,,08,28,294,23,10,13,031,17*7F
$GPGSV,5,2,17,16,24,209,18,18,25,122,32,23,01,069,,26,29,178,31*79
$GPGSV,5,3,17,27,55,258,32,28,60,090,23,31,60,158,32,32,27,010,22*7A
$GPGSV,5,4,17,36,52,277,,40,84,353,31,41,58,082,30,49,32,274,*7D
$GPGSV,5,5,17,50,10,089,*4A
$GLGSV,3,1,09,70,23,337,,71,28,285,29,72,07,239,,73,24,161,*69
b0LN&
-zEW 7<Z <k 
{4Ta:R 
YvYFQGYHIJPi
STJ9!U Ypb}$GNRMC,131213.00,A,0419.86597,S,05539.76541,E,0.278,,260525,,,A*79
$GNVTG,,T,,M,0.278,N,0.515,K,A*31
$GNGNS,131213.00,0419.86597,S,05539.76541,E,AA,15,0.65,11.7,-47.6,,*6C
$GNGGA,131213.00,0419.86597,S,05539.76541,E,1,12,0.65,11.7,M,-47.6,M,,*41
$GNGSA,A,3,28,31,27,26,32,18,08,16,10,41,,,1.25,0.65,1.06*14
$GNGSA,A,3,84,83,71,85,80,,,,,,,,1.25,0.65,1.06*1A
$GPGSV,5,1,17,02,09,334,12,04,12,232,,08,28,294,23,10,13,031,19*76
$GPGSV,5,2,17,16,24,209,18,18,25,122,31,23,01,069,,26,29,178,30*7B
$GPGSV,5,3,17,27,55,258,32,28,60,090,25,31,60,158,32,32,27,010,23*7D
$GPGSV,5,4,17,36,52,277,,40,84,353,31,41,58,082,29,49,32,274,*75
$GPGSV,5,5,17,50,10,089,*4A
$GLGSV,3,1,09,70,23,337,,71,28,285,25,72,07,239,,73,24,161,*65
$GLGSV,3,2,09,74,07,203,,80,16,105,21,83,31,144,29,84,74,057,12*6D
$GLGSV,3,3,09,85,32,345,08*5A
$GNGLL,0419.86597,S,05539.76541,E,131213.00,A,A*6B
$GNGRS,131213.00,1,-8.9,3.6,-0.9,3.4,-2.4,2.7,-0.1,-4.7,-4.8,-136,,*63
b0L
N&
zE7<Z < 
{4!Ta:RY 
YvFQGHIJPi
STJ9U YGbp$GNRMC,131214.00,A,0419.86605,S,05539.76542,E,0.062,,260525,,,A*7C
$GNVTG,,T,,M,0.062,N,0.115,K,A*3C
$GNGNS,131214.00,0419.86605,S,05539.76542,E,AA,15,0.67,11.8,-47.6,,*6D
$GNGGA,131214.00,0419.86605,S,05539.76542,E,1,12,0.67,11.8,M,-47.6,M,,*40
$GNGSA,A,3,28,31,27,26,32,18,08,16,10,41,,,1.32,0.67,1.14*13
$GNGSA,A,3,84,83,71,85,80,,,,,,,,1.32,0.67,1.14*1D
$GPGSV,5,1,17,02,09,334,10,04,12,232,,08,28,294,23,10,13,031,19*74
$GPGSV,5,2,17,16,24,209,18,18,25,122,31,23,01,069,,26,29,178,31*7A
$GPGSV,5,3,17,27,55,258,31,28,60,090,26,31,60,158,32,32,27,010,25*7B
$GPGSV,5,4,17,36,52,277,,40,84,353,33,41,58,082,30,49,32,274,*7F
$GPGSV,5,5,17,50,10,089,*4A
$GLGSV,3,1,09,70,23,337,,71,28,285,28,72,07,239,,73,24,161,*68
$GLGSV,3,2,09,74,07,203,,80,16,105,23,83,31,144,29,84,74,057,14*69
$GLGSV,3,3,09,85,32,345,12*51
$GNGLL,0419.86605,S,05539.76542,E,131214.00,A,A*67
$GNGRS,131214.00,1,-8.3,2.5,-0.3,0.2,-2.5,2.8,1.8,-2.5,-3.4,-137,,*46
$GNGRS,131214.00,1,-3.2,-0.3,-7.5,-17.2,5.0,,,,,,,*4B
$GNGST,131214.00,52,,,,4.8,4.0,9.1*4A
$GNZDA,131214.00,26,05,2025,00,00*78
$GNGBS,131214.00,4.8,4.0,9.1,,,,*5B
$GNTXT,01,01,01,More than 100 frame errors, UART RX was disabled*70
b0LN&
7zE| 7<Z< 
{4 Ta:RZ 
YvFQGHIJPi
STJ9YU Y/bG>$GNRMC,131215.00,A,0419.86618,S,05539.76539,E,0.171,,260525,,,A*7E
$GNVTG,,T,,M,0.171,N,0.317,K,A*3F
$GNGNS,131215.00,0419.86618,S,05539.76539,E,AA,15,0.65,11.9,-47.6,,*6F
$GNGGA,131215.00,0419.86618,S,05539.76539,E,1,12,0.65,11.9,M,-47.6,M,,*42
$GNGSA,A,3,28,31,27,26,32,18,08,16,10,41,,,1.25,0.65,1.06*14
$GNGSA,A,3,84,83,71,85,80,,,,,,,,1.25,0.65,1.06*1A
$GPGSV,5,1,17,02,09,334,13,04,12,232,,08,28,294,22,10,13,031,19*76
$GPGSV,5,2,17,16,24,209,18,18,25,122,31,23,01,069,,26,29,178,30*7B
$GPGSV,5,3,17,27,55,258,32,28,60,090,26,31,60,158,31,32,27,010,25*7B
$GPGSV,5,4,17,36,52,277,,40,84,353,32,41,58,082,31,49,32,274,*7F
$GPGSV,5,5,17,50,10,089,*4A
$GLGSV,3,1,09,70,23,337,,71,28,285,27,72,07,239,,73,24,161,*67
$GLGSV,3,2,09,74,07,203,,80,16,105,22,83,31,144,29,84,74,057,15*69
$GLGSV,3,3,09,85,32,345,17*54
$GNGLL,0419.86618,S,05539.76539,E,131215.00,A,A*66
$GNGRS,131215.00,1,-8.6,4.8,1.9,3.8,-2.7,1.7,5.2,-2.0,-2.3,-137,,*65
$GNGRS,131215.00,1,0.9,1.3,-7.9,7.5,4.6,,,,,,,*53
$GNGST,131215.00,2974124,,,,4.7,4.0,9.0*7D
$GNZDA,131215.00,26,05,2025,00,00*79
$GNGBS,131215.00,4.7,4.0,9.0,,,,*54
$GNTXT,01,01,01,More than 100 frame errors, UART RX was disabled*70
b0LN&
6zE 7<Zs<E 
f{4Ta :Rq 
YvFQG)HIJPi
SyTJ9WU Yb}$GNRMC,131216.00,A,0419.86630,S,05539.76537,E,0.166,,260525,,,A*7F
$GNVTG,,T,,M,0.166,N,0.307,K,A*38
$GNGNS,131216.00,0419.86630,S,05539.76537,E,AA,15,0.65,12.0,-47.6,,*62
$GNGGA,131216.00,0419.86630,S,05539.76537,E,1,12,0.65,12.0,M,-47.6,M,,*4F
$GNGSA,A,3,28,31,27,26,32,18,08,16,10,41,,,1.25,0.65,1.06*14
$GNGSA,A,3,84,83,71,85,80,,,,,,,,1.25,0.65,1.06*1A
$GPGSV,5,1,17,02,09,334,16,04,12,232,,08,28,294,22,10,13,031,20*79
$GPGSV,5,2,17,16,24,209,17,18,25,122,29,23,01,069,,26,29,178,30*7D
$GPGSV,5,3,17,27,55,257,32,28,60,090,25,31,60,158,26,32,27,010,25*71
$GPGSV,5,4,17,36,52,277,,40,84,353,31,41,58,082,32,49,32,274,*7F
$GPGSV,5,5,17,50,10,089,*4A
$GLGSV,3,1,09,70,23,337,,71,28,285,28,72,07,239,,73,24,161,*68
$GLGSV,3,2,09,74,07,203,,80,16,105,22,83,31,144,27,84,74,057,15*67
$GLGSV,3,3,09,85,32,345,18*5B
$GNGLL,0419.86630,S,05539.76537,E,131216.00,A,A*61
$GNGRS,131216.00,1,-9.1,8.4,-0.8,4.9,-4.1,1.7,7.6,-2.8,-2.0,-137,,*46
$GNGRS,131216.00,1,0.9,8.9,-9.8,7.6,2.2,,,,,,,*5D
$GNGST,131216.00,2974328,,,,4.7,3.9,9.0*7E
$GNZDA,131216.00,26,05,2025,00,00*7A
$GNGBS,131216.00,4.7,3.9,9.0,,,,*59
b0LN&]
*zE7\<X< 
{4Ta:Rq 
YvFQGKHIJPil
STJ9U YYbe$GNRMC,131217.00,A,0419.86638,S,05539.76539,E,0.068,,260525,,,A*77
$GNVTG,,T,,M,0.068,N,0.126,K,A*36
$GNGNS,131217.00,0419.86638,S,05539.76539,E,AA,15,0.65,12.1,-47.6,,*64
$GNGGA,131217.00,0419.86638,S,05539.76539,E,1,12,0.65,12.1,M,-47.6,M,,*49
$GNGSA,A,3,28,31,27,26,32,18,08,16,10,41,,,1.25,0.65,1.06*14
$GNGSA,A,3,84,83,71,85,80,,,,,,,,1.25,0.65,1.06*1A
$GPGSV,5,1,17,02,09,334,15,04,12,232,,08,28,294,22,10,13,031,19*70
$GPGSV,5,2,17,16,24,209,14,18,25,122,28,23,01,069,,26,29,178,29*77
$GPGSV,5,3,17,27,55,257,30,28,60,088,24,31,60,158,26,32,27,010,22*7C
$GPGSV,5,4,17,36,52,277,,40,84,353,28,41,58,082,30,49,32,274,*75
$GPGSV,5,5,17,50,10,089,*4A
$GLGSV,3,1,09,70,23,337,,71,28,285,28,72,07,239,,73,24,161,*68
$GLGSV,3,2,09,74,07,203,,80,16,105,21,83,31,144,25,84,74,057,14*67
$GLGSV,3,3,09,85,32,345,15*56
$GNGLL,0419.86638,S,05539.76539,E,131217.00,A,A*66
$GNGRS,131217.00,1,-7.4,10.0,-1.6,2.7,-2.9,5.0,8.6,-2.1,-0.3,-137,,*7C
$GNGRS,131217.00,1,0.1,12.5,-9.5,-19.6,3.6,,,,,,,*79
$GNGST,131217.00,1026,,,,4.6,3.9,9.0*4A
$GNZDA,131217.00,26,05,2025,00,00*7B
$GNGBS,131217.00,4.6,3.9,9.0,,,,*59
b0LN&
=!zlE7<X< 
~{4Ta:R 
Yv#FQG=HIJPi
S$TJ9MU YbM$GNRMC,131218.00,A,0419.86641,S,05539.76543,E,0.200,,260525,,,A*77
$GNVTG,,T,,M,0.200,N,0.369,K,A*33
$GNGNS,131218.00,0419.86641,S,05539.76543,E,AA,15,0.65,12.2,-47.6,,*6B
$GNGGA,131218.00,0419.86641,S,05539.76543,E,1,12,0.65,12.2,M,-47.6,M,,*46
$GNGSA,A,3,28,31,27,26,32,18,08,16,10,41,,,1.25,0.65,1.06*14
$GNGSA,A,3,84,83,71,85,80,,,,,,,,1.25,0.65,1.06*1A
$GPGSV,5,1,17,02,09,334,15,04,12,232,,08,28,294,24,10,13,031,18*77
$GPGSV,5,2,17,16,24,209,13,18,25,122,33,23,01,069,,26,29,178,30*72
$GPGSV,5,3,17,27,55,257,31,28,60,088,26,31,60,158,31,32,27,010,20*7B
$GPGSV,5,4,17,36,52,277,,40,84,353,28,41,58,082,30,49,32,274,*75
$GPGSV,5,5,17,50,10,089,*4A
$GLGSV,3,1,09,70,23,337,,71,28,285,27,72,07,239,,73,24,161,*67
$GLGSV,3,2,09,74,07,203,,80,16,105,20,83,31,144,27,84,74,057,15*65
$GLGSV,3,3,09,85,32,345,19*5A
$GNGLL,0419.86641,S,05539.76543,E,131218.00,A,A*6A
$GNGRS,131218.00,1,-8.2,4.0,-0.3,2.0,-3.9,3.6,6.6,-2.9,0.6,-137,,*63
$GNGRS,131218.00,1,0.8,8.0,-9.6,7.3,2.5,,,,,,,*57
b0LN&
 zE7x<XW < 
{4"Ta:R 
YvCFQGHIJPi[
STJ9]U Yhb5
$GNRMC,131219.00,A,0419.86652,S,05539.76539,E,0.255,,260525,,,A*79
$GNVTG,,T,,M,0.255,N,0.473,K,A*3F
$GNGNS,131219.00,0419.86652,S,05539.76539,E,AA,15,0.65,12.2,-47.6,,*65
$GNGGA,131219.00,0419.86652,S,05539.76539,E,1,12,0.65,12.2,M,-47.6,M,,*48
$GNGSA,A,3,28,31,27,26,32,18,08,16,10,41,,,1.25,0.65,1.06*14
$GNGSA,A,3,84,83,71,85,80,,,,,,,,1.25,0.65,1.06*1A
$GPGSV,5,1,17,02,09,334,17,04,12,232,,08,28,294,25,10,13,031,19*75
$GPGSV,5,2,17,16,24,209,13,18,25,122,32,23,01,069,,26,29,178,31*72
$GPGSV,5,3,17,27,55,257,31,28,60,088,23,31,60,158,32,32,27,010,19*77
$GPGSV,5,4,17,36,52,277,,40,84,353,34,41,58,082,30,49,32,274,*78
$GPGSV,5,5,17,50,10,089,*4A
$GLGSV,3,1,09,70,23,337,,71,28,285,27,72,07,239,,73,24,161,*67
$GLGSV,3,2,09,74,07,203,,80,16,105,20,83,31,144,27,84,74,057,11*61
$GLGSV,3,3,09,85,32,345,17*54
$GNGLL,0419.86652,S,05539.76539,E,131219.00,A,A*64
$GNGRS,131219.00,1,-9.4,2.7,-1.4,2.1,0.1,1.6,5.4,-3.0,-0.4,-137,,*61
$GNGRS,131219.00,1,0.9,9.0,-5.8,3.9,0.9,,,,,,,*54
$GNGST,131219.00,9052,,,,4.6,3.9,8.9*47
$GNZDA,131219.00,26,05,2025,00,00*75
$GNGBS,131219.00,4.6,3.9,8.9,,,,*5F
$GNTXT,01,01,01,More than 100 frame errors, UART RX was disabled*70
b0LpN&
5 zE 7<XL=j 
{4 Ta:R 
YvvFQGHIJPi
SRTJ9U YyxIbpV$GNRMC,131220.00,A,0419.86657,S,05539.76541,E,0.102,,260525,,,A*78
$GNVTG,,T,,M,0.102,N,0.189,K,A*3E
$GNGNS,131220.00,0419.86657,S,05539.76541,E,AA,15,0.67,12.2,-47.6,,*67
$GNGGA,131220.00,0419.86657,S,05539.76541,E,1,12,0.67,12.2,M,-47.6,M,,*4A
$GNGSA,A,3,28,31,27,26,32,18,08,16,10,41,,,1.32,0.67,1.14*13
$GNGSA,A,3,84,83,71,85,80,,,,,,,,1.32,0.67,1.14*1D
$GPGSV,5,1,17,02,09,334,18,04,12,232,,08,28,294,26,10,13,031,20*73
$GPGSV,5,2,17,16,24,209,13,18,25,122,32,23,01,069,,26,29,178,31*72
$GPGSV,5,3,17,27,55,257,32,28,60,088,25,31,61,157,31,32,27,010,17*71
$GPGSV,5,4,17,36,52,277,,40,84,353,32,41,58,082,30,49,32,274,*7E
$GPGSV,5,5,17,50,10,089,*4A
$GLGSV,3,1,09,70,23,337,,71,28,285,27,72,07,239,,73,24,161,*67
$GLGSV,3,2,09,74,07,203,,80,16,105,21,83,31,144,28,84,74,057,09*66
$GLGSV,3,3,09,85,32,345,20*50
$GNGLL,0419.86657,S,05539.76541,E,131220.00,A,A*64
$GNGRS,131220.00,1,-9.5,6.2,-2.6,-1.1,1.6,5.4,4.6,-4.6,0.3,-137,,*6C
$GNGRS,131220.00,1,4.0,5.9,-3.3,-3.9,2.6,,,,,,,*7B
$GNGST,131220.00,53,,,,4.6,3.8,8.8*45
$GNZDA,131220.00,26,05,2025,00,00*7F
$GNGBS,131220.00,4.6,3.8,8.8,,,,*55
$GNTXT,01,01,01,More than 100 frame errors, UART RX was disabled*70
b0LXN&
p zER7<X = 
t{4 Ta:R 
YvLFQGHIJPiD
STJ9CU YbXY$GNRMC,131221.00,A,0419.86670,S,05539.76540,E,0.126,,260525,,,A*7B
$GNVTG,,T,,M,0.126,N,0.233,K,A*3A
$GNGNS,131221.00,0419.86670,S,05539.76540,E,AA,15,0.67,12.1,-47.6,,*61
$GNGGA,131221.00,0419.86670,S,05539.76540,E,1,12,0.67,12.1,M,-47.6,M,,*4C
$GNGSA,A,3,28,31,27,26,32,18,08,16,10,41,,,1.32,0.67,1.14*13
$GNGSA,A,3,84,83,71,85,80,,,,,,,,1.32,0.67,1.14*1D
$GPGSV,5,1,17,02,09,334,17,04,12,232,,08,28,294,25,10,13,031,20*7F
$GPGSV,5,2,17,16,24,209,16,18,25,122,32,23,01,069,,26,29,178,30*76
$GPGSV,5,3,17,27,55,257,31,28,60,088,24,31,61,157,32,32,27,010,17*70
$GPGSV,5,4,17,36,52,277,,40,84,353,32,41,58,082,27,49,32,274,*78
$GPGSV,5,5,17,50,10,089,*4A
$GLGSV,3,1,09,70,23,337,,71,28,285,28,72,07,239,,73,24,161,*68
$GLGSV,3,2,09,74,07,203,,80,16,105,21,83,31,144,28,84,74,057,13*6D
$GLGSV,3,3,09,85,32,345,23*53
$GNGLL,0419.86670,S,05539.76540,E,131221.00,A,A*61
$GNGRS,131221.00,1,-10.8,1.6,-0.3,5.9,3.7,4.0,4.3,-6.6,1.7,-139,,*77
$GNGRS,131221.00,1,0.7,11.7,-5.2,-3.8,0.7,,,,,,,*47
$GNGST,131221.00,30962,,,,4.6,3.8,8.8*7C
$GNZDA,131221.00,26,05,2025,00,00*7E
$GNGBS,131221.00,4.6,3.8,8.8,,,,*54
$GNTXT,01,01,01,More than 100 frame errors, UART RX was disabled*70
b0L@N&
!zE7<X = 
>{4!Ta:RW 
YvFQGHIJPi
S
T
J9U Y<db@0#$GNRMC,131222.00,A,0419.86676,S,05539.76540,E,0.061,,260525,,,A*7C
$GNVTG,,T,,M,0.061,N,0.112,K,A*38
$GNGNS,131222.00,0419.86676,S,05539.76540,E,AA,15,0.67,12.3,-47.6,,*66
$GNGGA,131222.00,0419.86676,S,05539.76540,E,1,12,0.67,12.3,M,-47.6,M,,*4B
$GNGSA,A,3,28,31,27,26,32,18,08,16,10,41,,,1.32,0.67,1.14*13
$GNGSA,A,3,84,83,71,85,80,,,,,,,,1.32,0.67,1.14*1D
$GPGSV,5,1,17,02,09,334,17,04,12,232,,08,28,294,25,10,13,031,19*75
$GPGSV,5,2,17,16,24,209,17,18,25,122,33,23,01,069,,26,29,178,29*7E
$GPGSV,5,3,17,27,55,257,31,28,60,088,21,31,61,157,32,32,27,010,18*7A
$GPGSV,5,4,17,36,52,277,,40,84,353,33,41,58,082,27,49,32,274,*79
$GPGSV,5,5,17,50,10,089,*4A
$GLGSV,3,1,09,70,23,337,,71,28,285,28,72,07,239,,73,24,161,*68
$GLGSV,3,2,09,74,07,203,,80,16,105,22,83,31,144,28,84,74,057,10*6D
$GLGSV,3,3,09,85,32,345,22*52
$GNGLL,0419.86676,S,05539.76540,E,131222.00,A,A*64
$GNGRS,131222.00,1,-11.2,5.3,-0.2,7.9,5.7,2.3,4.7,-6.0,4.2,-132,,*77
$GNGRS,131222.00,1,0.2,10.3,-1.1,-4.5,-1.0,,,,,,,*62
$GNGST,131222.00,46444,,,,4.5,3.8,8.7*7B
$GNZDA,131222.00,26,05,2025,00,00*7D
$GNGBS,131222.00,4.5,3.8,8.7,,,,*5B
$GNTXT,01,01,01,More than 100 frame errors, UART RX was disabled*70
b0L(N&
D!zE 7<X^ = 
{4 Ta:R 
Yv~FQGHIJPi
SaTJ9WU YH(b($GNRMC,131223.00,A,0419.86680,S,05539.76541,E,0.101,,260525,,,A*72
$GNVTG,,T,,M,0.101,N,0.187,K,A*33
$GNGNS,131223.00,0419.86680,S,05539.76541,E,AA,14,0.67,12.4,-47.6,,*69
$GNGGA,131223.00,0419.86680,S,05539.76541,E,1,12,0.67,12.4,M,-47.6,M,,*45
$GNGSA,A,3,28,31,27,26,32,18,08,16,10,,,,1.32,0.67,1.14*16
$GNGSA,A,3,84,83,71,85,80,,,,,,,,1.32,0.67,1.14*1D
$GPGSV,5,1,17,02,09,334,17,04,12,232,,08,28,294,26,10,13,031,16*79
$GPGSV,5,2,17,16,24,209,20,18,25,122,33,23,01,069,,26,29,178,29*7A
$GPGSV,5,3,17,27,55,257,32,28,60,088,18,31,61,157,32,32,27,010,20*78
$GPGSV,5,4,17,36,52,277,,40,84,353,32,41,58,082,,49,32,274,*7D
$GPGSV,5,5,17,50,10,089,*4A
$GLGSV,3,1,09,70,23,337,,71,28,285,28,72,07,239,,73,24,161,*68
$GLGSV,3,2,09,74,07,203,,80,16,105,21,83,31,144,30,84,74,057,15*62
$GLGSV,3,3,09,85,32,345,20*50
$GNGLL,0419.86680,S,05539.76541,E,131223.00,A,A*6D
$GNGRS,131223.00,1,-11.9,7.1,-3.1,6.5,6.5,1.7,5.2,-8.0,5.8,,,*6A
$GNGRS,131223.00,1,-1.7,6.1,1.5,-6.0,-0.2,,,,,,,*52
$GNGST,131223.00,47,,,,4.5,3.7,8.7*40
$GNZDA,131223.00,26,05,2025,00,00*7C
$GNGBS,131223.00,4.5,3.7,8.7,,,,*55
$GNTXT,01,01,01,More than 100 frame errors, UART RX was disabled*70
b0LN&
"zE 7<X=[ 
h{4 Ta:R 
YvFQGHIJPio
SWTJ9BU Yn!b$GNRMC,131224.00,A,0419.86684,S,05539.76537,E,0.051,,260525,,,A*74
$GNVTG,,T,,M,0.051,N,0.094,K,A*34
$GNGNS,131224.00,0419.86684,S,05539.76537,E,AA,14,0.67,12.5,-47.6,,*6A
$GNGGA,131224.00,0419.86684,S,05539.76537,E,1,12,0.67,12.5,M,-47.6,M,,*46
$GNGSA,A,3,28,31,27,26,32,18,08,16,10,,,,1.32,0.67,1.14*16
$GNGSA,A,3,84,83,71,85,80,,,,,,,,1.32,0.67,1.14*1D
$GPGSV,5,1,17,02,09,334,18,04,12,232,,08,28,294,25,10,13,031,13*70
$GPGSV,5,2,17,16,24,209,19,18,25,122,34,23,01,069,,26,29,178,29*77
$GPGSV,5,3,17,27,55,257,32,28,60,088,21,31,61,157,29,32,27,010,19*72
$GPGSV,5,4,17,36,52,277,,40,84,353,32,41,58,082,,49,32,274,*7D
$GPGSV,5,5,17,50,10,089,*4A
$GLGSV,3,1,09,70,23,337,,71,28,285,28,72,07,239,,73,24,161,*68
$GLGSV,3,2,09,74,07,203,,80,16,105,18,83,31,144,29,84,74,057,12*67
$GLGSV,3,3,09,85,32,345,20*50
$GNGLL,0419.86684,S,05539.76537,E,131224.00,A,A*6F
$GNGRS,131224.00,1,-13.2,3.5,2.6,2.0,6.2,0.1,5.1,-8.2,4.6,,,*40
$GNGRS,131224.00,1,0.7,8.6,-0.2,-5.4,-1.5,,,,,,,*5A
$GNGST,131224.00,78391,,,,4.5,3.7,8.6*71
b0LN&4

%"zE7<X= 
{4"Ta:R 
YvFQGAHIJPi
S#TJ90U Y37b!L$GNRMC,131225.00,A,0419.86683,S,05539.76537,E,0.172,,260525,,,A*72
$GNVTG,,T,,M,0.172,N,0.318,K,A*33
$GNGNS,131225.00,0419.86683,S,05539.76537,E,AA,14,0.67,12.7,-47.6,,*6E
$GNGGA,131225.00,0419.86683,S,05539.76537,E,1,12,0.67,12.7,M,-47.6,M,,*42
$GNGSA,A,3,28,31,27,26,32,18,08,16,10,,,,1.32,0.67,1.14*16
$GNGSA,A,3,84,83,71,85,80,,,,,,,,1.32,0.67,1.14*1D
$GNTXT,01,01,01,More than 100 frame errors, UART RX was disabled*70
$GNTXT,01,01,01,More than 100 frame errors, UART RX was disabled*70
$GNTXT,01,01,01,More than 100 frame errors, UART RX was disabled*70
$GNTXT,01,01,01,More than 100 frame errors, UART RX was disabled*70
$GNTXT,01,01,01,More than 100 frame errors, UART RX was disabled*70
$GNGRS,131232.00,1,-2.1,8.4,-6.0,-4.6,4.6,,,,,,,*5A
$GNGST,131232.00,51,,,,4.6,3.7,8.7*44
$GNZDA,131232.00,26,05,2025,00,00*7C
$GNGBS,131232.00,4.6,3.7,8.7,,,,*56
$GNTXT,01,01,01,More than 100 frame errors, UART RX was disabled*70
$GPGSV,5,2,17,16,24,209,21,18,25,122,36,23,01,069,,26,29,178,31*77
$GPGSV,5,3,17,27,55,257,32,28,60,088,13,31,61,157,30,32,27,010,17*75
$GPGSV,5,4,17,36,52,277,,40,84,353,33,41,58,082,28,49,32,274,*76
$GPGSV,5,5,17,50,10,089,*4A
$GLGSV,3,1,09,70,23,337,,71,28,285,28,72,07,239,,73,24,161,22*68
$GLGSV,3,2,09,74,07,203,,80,16,105,,83,31,144,28,84,74,057,13*6E
$GLGSV,3,3,09,85,32,345,19*5A
$GNGLL,0419.86702,S,05539.76533,E,131233.00,A,A*62
$GNGRS,131233.00,1,-18.3,5.7,3.8,-4.5,8.9,0.7,3.5,-15.4,8.7,-135,,*45
$GNGRS,131233.00,1,0.5,5.1,-5.7,-6.3,,,,,,,,*57
$GNGST,131233.00,22434,,,,4.6,3.6,8.7*73
$GNZDA,131233.00,26,05,2025,00,00*7D
$GNGBS,131233.00,4.6,3.6,8.7,,,,*56
$GPGSV,5,2,17,16,24,209,23,18,25,122,36,23,01,069,,26,29,178,30*74
$GPGSV,5,3,17,27,55,257,32,28,60,088,14,31,61,157,30,32,27,010,20*76
$GPGSV,5,4,17,36,52,277,,40,84,353,33,41,58,082,29,49,32,274,*77
$GPGSV,5,5,17,50,10,089,*4A
$GLGSV,3,1,09,70,23,337,,71,28,285,27,72,07,239,,73,24,161,22*67
$GLGSV,3,2,09,74,07,203,,80,16,105,21,83,31,144,28,84,74,057,13*6D
$GLGSV,3,3,09,85,32,345,19*5A
$GNGLL,0419.86685,S,05539.76544,E,131234.00,A,A*6B
$GNGRS,131234.00,1,-18.3,1.2,0.1,-3.9,9.4,0.8,-1.6,-15.2,7.9,-140,,*68
$GNGRS,131234.00,1,0.2,2.3,-5.7,-4.7,,,,,,,,*54
$GNGST,131234.00,33652,,,,4.6,3.6,8.7*76
$GNZDA,131234.00,26,05,2025,00,00*7A
$GNGBS,131234.00,4.6,3.6,8.7,,,,*51
$GPGSV,5,2,17,16,24,209,22,18,25,122,37,23,01,069,,26,29,178,31*75
$GPGSV,5,3,17,27,55,257,33,28,60,088,19,31,61,157,31,32,27,010,21*7A
$GPGSV,5,4,17,36,52,277,,40,84,353,33,41,58,082,28,49,32,274,*76
$GPGSV,5,5,17,50,10,089,*4A
$GLGSV,3,1,09,70,23,337,,71,28,285,28,72,07,239,,73,24,161,23*69
$GLGSV,3,2,09,74,07,203,,80,16,105,20,83,31,144,29,84,74,057,18*66
$GLGSV,3,3,09,85,32,345,19*5A
$GNGLL,0419.86660,S,05539.76575,E,131236.00,A,A*60
$GNGRS,131236.00,1,-16.8,6.7,-1.1,-0.8,8.6,0.6,-5.8,-16.3,3.0,-133,,*4F
$GNGRS,131236.00,1,0.8,-1.3,-8.0,-6.9,,,,,,,,*74
$GNGST,131236.00,19230,,,,4.5,3.5,8.6*7D
$GNZDA,131236.00,26,05,2025,00,00*78
$GNGBS,131236.00,4.5,3.5,8.6,,,,*52
b0LON&
9^%zEE1 7<X = 
{4!Ta:RI 
Yv%FQG,HIJPiu
STJ9ZU YbOmT$GNRMC,131238.00,A,0419.86652,S,05539.76595,E,0.298,,260525,,,A*7D
$GNVTG,,T,,M,0.298,N,0.551,K,A*3F
$GNGNS,131238.00,0419.86652,S,05539.76595,E,AA,15,0.67,14.1,-47.6,,*67
$GNGGA,131238.00,0419.86652,S,05539.76595,E,1,12,0.67,14.1,M,-47.6,M,,*4A
$GNGSA,A,3,28,31,27,26,32,18,08,16,10,41,,,1.32,0.67,1.14*13
$GNGSA,A,3,84,83,71,85,80,,,,,,,,1.32,0.67,1.14*1D
$GPGSV,5,1,17,02,09,334,19,04,12,232,,08,28,294,26,10,13,031,25*77
$GPGSV,5,2,17,16,24,209,22,18,25,122,37,23,01,069,,26,29,178,30*74
$GPGSV,5,3,17,27,55,257,32,28,60,088,21,31,61,157,32,32,27,010,25*77
$GPGSV,5,4,17,36,52,277,,40,84,353,33,41,58,082,28,49,32,274,*76
$GPGSV,5,5,17,50,10,089,*4A
$GLGSV,3,1,09,70,23,337,,71,28,285,28,72,07,239,,73,24,161,23*69
$GLGSV,3,2,09,74,07,203,,80,16,105,23,83,31,144,29,84,74,057,15*68
$GLGSV,3,3,09,85,32,345,20*50
$GNGLL,0419.86652,S,05539.76595,E,131238.00,A,A*61
$GNGRS,131238.00,1,-18.2,0.2,4.5,0.5,7.4,0.7,-11.3,-17.0,3.1,-135,,*7D
$GNGRS,131238.00,1,13.7,4.9,-9.8,-7.9,11.4,,,,,,,*77
$GNGST,131238.00,44,,,,4.4,3.5,8.4*49
$GNZDA,131238.00,26,05,2025,00,00*76
$GNGBS,131238.00,4.4,3.5,8.4,,,,*5F
$GNVTG,,T,,M,0.195,N,0.362,K,A*37
$GNGNS,131239.00,0419.86644,S,05539.76611,E,AA,15,0.67,14.2,-47.6,,*6D
$GNGGA,131239.00,0419.86644,S,05539.76611,E,1,12,0.67,14.2,M,-47.6,M,,*40
$GNGSA,A,3,28,31,27,26,32,18,08,16,10,41,,,1.32,0.67,1.14*13
$GNGSA,A,3,84,83,71,85,80,,,,,,,,1.32,0.67,1.14*1D
$GPGSV,5,1,17,02,09,334,20,04,12,232,,08,28,294,26,10,13,031,25*7D
$GPGSV,5,2,17,16,24,209,22,18,25,122,37,23,01,069,,26,29,178,30*74
$GPGSV,5,3,17,27,55,257,30,28,60,088,21,31,61,157,31,32,27,010,26*75
$GPGSV,5,4,17,36,52,277,,40,84,353,33,41,58,082,29,49,32,274,*77
$GPGSV,5,5,17,50,10,089,*4A
$GLGSV,3,1,09,70,23,337,,71,28,286,27,72,07,239,,73,24,161,24*62
$GLGSV,3,2,09,74,07,203,,80,16,105,23,83,31,144,29,84,74,057,15*68
$GLGSV,3,3,09,85,32,345,17*54
$GNGLL,0419.86644,S,05539.76611,E,131239.00,A,A*68
$GNGRS,131239.00,1,-16.9,1.9,1.4,0.7,8.4,0.6,-13.1,-15.1,1.3,-134,,*79
$GNGRS,131239.00,1,0.7,4.4,-12.9,-7.4,10.6,,,,,,,*7C
$GNGST,131239.00,136235,,,,4.3,3.4,8.4*4E
$GNZDA,131239.00,26,05,2025,00,00*77
$GNGBS,131239.00,4.3,3.4,8.4,,,,*58
$GPGSV,5,5,17,50,10,089,*4A
$GLGSV,3,1,09,70,23,337,,71,28,286,27,72,07,239,,73,24,161,24*62
$GLGSV,3,2,09,74,07,203,,80,16,105,23,83,31,144,28,84,74,057,15*69
$GLGSV,3,3,09,85,32,345,16*55
$GNGLL,0419.86634,S,05539.76625,E,131240.00,A,A*66
$GNGRS,131240.00,1,-14.1,5.9,4.9,4.1,6.9,0.6,-12.7,-15.1,0.0,-136,,*77
$GNGRS,131240.00,1,0.4,4.3,-8.4,-5.3,7.5,,,,,,,*70
$GNGST,131240.00,3071473,,,,4.3,3.4,8.4*75
$GNZDA,131240.00,26,05,2025,00,00*79
$GNGBS,131240.00,4.3,3.4,8.4,,,,*56
$GNTXT,01,01,01,More than 100 frame errors, UART RX was disabled*70
$GNGGA,131241.00,0419.86629,S,05539.76633,E,1,12,0.67,14.8,M,-47.6,M,,*4E
$GNGSA,A,3,28,31,27,26,32,18,08,16,10,41,,,1.32,0.67,1.14*13
$GNGSA,A,3,84,83,71,85,80,,,,,,,,1.32,0.67,1.14*1D
$GPGSV,5,1,17,02,09,334,20,04,12,232,,08,28,294,25,10,13,031,25*7E
$GPGSV,5,2,17,16,24,209,21,18,25,122,37,23,01,069,,26,29,178,30*77
$GPGSV,5,3,17,27,55,257,28,28,60,088,22,31,61,157,30,32,27,010,26*7E
$GPGSV,5,4,17,36,52,277,,40,84,353,33,41,58,082,29,49,32,274,*77
$GPGSV,5,5,17,50,10,089,*4A
$GLGSV,3,1,09,70,23,337,,71,28,286,27,72,07,239,,73,24,161,24*62
$GLGSV,3,2,09,74,07,203,,80,16,105,23,83,31,144,28,84,74,057,12*6E
$GLGSV,3,3,09,85,32,345,16*55
$GNGLL,0419.86629,S,05539.76633,E,131241.00,A,A*6C
$GNGRS,131241.00,1,-13.7,5.6,12.3,-2.4,5.4,0.6,-12.4,-15.9,-1.0,-136,,*42
$GNGRS,131241.00,1,-5.6,0.6,-8.9,-4.9,7.2,,,,,,,*5B
$GNGST,131241.00,48,,,,4.3,3.4,8.4*4D
$GNZDA,131241.00,26,05,2025,00,00*78
$GNGBS,131241.00,4.3,3.4,8.4,,,,*57
$GNTXT,01,01,01,More than 100 frame errors, UART RX was disabled*70
$GNGNS,131242.00,0419.86633,S,05539.76636,E,AA,15,0.67,15.0,-47.6,,*67
$GNGGA,131242.00,0419.86633,S,05539.76636,E,1,12,0.67,15.0,M,-47.6,M,,*4A
$GNGSA,A,3,28,31,27,26,32,18,08,16,10,41,,,1.32,0.67,1.14*13
$GNGSA,A,3,84,83,71,85,80,,,,,,,,1.32,0.67,1.14*1D
$GPGSV,5,1,17,02,09,334,20,04,12,232,,08,28,294,26,10,13,031,25*7D
$GPGSV,5,2,17,16,24,209,19,18,25,122,36,23,01,069,,26,29,178,30*7D
$GPGSV,5,3,17,27,55,257,32,28,60,088,21,31,61,157,30,32,27,010,25*75
$GPGSV,5,4,17,36,52,277,,40,84,353,33,41,58,082,27,49,32,274,*79
$GPGSV,5,5,17,50,10,089,*4A
$GLGSV,3,1,09,70,23,337,,71,28,286,27,72,07,239,,73,24,161,22*64
$GLGSV,3,2,09,74,07,203,,80,16,105,23,83,31,144,28,84,74,057,17*6B
$GLGSV,3,3,09,85,32,345,17*54
$GNGLL,0419.86633,S,05539.76636,E,131242.00,A,A*61
$GNGRS,131242.00,1,-14.0,1.0,8.0,5.2,6.6,0.6,-9.4,-16.6,0.5,-137,,*48
$GNGRS,131242.00,1,0.7,4.1,-12.7,-3.2,4.0,,,,,,,*4A
$GNGST,131242.00,61925,,,,4.3,3.4,8.4*7B
$GNZDA,131242.00,26,05,2025,00,00*7B
$GNGBS,131242.00,4.3,3.4,8.4,,,,*54
$GNTXT,01,01,01,More than 100 frame errors, UART RX was disabled*70
$GNGGA,131243.00,0419.86634,S,05539.76644,E,1,12,0.67,15.5,M,-47.6,M,,*4C
$GNGSA,A,3,28,31,27,26,32,18,08,16,10,,,,1.32,0.67,1.14*16
$GNGSA,A,3,84,83,71,85,80,,,,,,,,1.32,0.67,1.14*1D
$GPGSV,5,1,17,02,09,334,19,04,12,232,,08,28,294,27,10,13,031,25*76
$GPGSV,5,2,17,16,24,209,17,18,25,122,35,23,01,069,,26,29,178,30*70
$GPGSV,5,3,17,27,55,257,31,28,60,088,21,31,61,157,29,32,27,010,23*78
$GPGSV,5,4,17,36,52,277,,40,84,353,34,41,58,082,,49,32,274,*7B
$GPGSV,5,5,17,50,10,089,*4A
$GLGSV,3,1,09,70,23,337,,71,28,286,27,72,07,239,,73,24,161,21*67
$GLGSV,3,2,09,74,07,203,,80,16,105,22,83,31,144,29,84,74,057,14*68
$GLGSV,3,3,09,85,32,345,16*55
$GNGLL,0419.86634,S,05539.76644,E,131243.00,A,A*62
$GNGRS,131243.00,1,-13.2,6.2,4.9,5.8,6.1,0.5,-5.1,-16.7,1.2,,,*54
$GNGRS,131243.00,1,0.3,3.2,-11.9,-4.4,9.4,,,,,,,*4E
$GNGST,131243.00,92887,,,,4.3,3.3,8.4*78
$GNZDA,131243.00,26,05,2025,00,00*7A
$GNGBS,131243.00,4.3,3.3,8.4,,,,*52
b0L0gN&O
#zDE|7<Xy=( 
{4!Ta:R 
YvyFQG}HIJPi
STJ9U Y;b0gk$GNRMC,131244.00,A,0419.86637,S,05539.76644,E,0.179,,260525,,,A*76
$GNVTG,,T,,M,0.179,N,0.331,K,A*33
$GNGNS,131244.00,0419.86637,S,05539.76644,E,AA,13,0.68,15.8,-47.6,,*61
$GNGGA,131244.00,0419.86637,S,05539.76644,E,1,12,0.68,15.8,M,-47.6,M,,*4A
$GNGSA,A,3,28,31,27,26,32,18,08,16,10,,,,1.51,0.68,1.35*1F
$GNGSA,A,3,83,71,85,80,,,,,,,,,1.51,0.68,1.35*18
$GPGSV,5,1,17,02,09,334,18,04,12,232,,08,28,294,26,10,13,031,24*77
$GPGSV,5,2,17,16,24,209,20,18,25,122,35,23,01,069,,26,29,178,30*74
$GPGSV,5,3,17,27,55,257,29,28,60,088,20,31,61,157,30,32,27,010,22*79
$GPGSV,5,4,17,36,52,277,,40,84,353,33,41,58,082,,49,32,274,*7C
$GPGSV,5,5,17,50,10,089,*4A
$GLGSV,3,1,09,70,23,337,,71,28,286,26,72,07,239,,73,24,161,22*65
$GLGSV,3,2,09,74,07,203,,80,16,105,20,83,31,144,30,84,74,057,08*6F
$GLGSV,3,3,09,85,32,345,16*55
b0LkN&
gQ$z<E7@<Xi= 
{4 Ta:RA 
YvbFQGHIJPiM
SlT
J9U YqbkoW$GNRMC,131245.00,A,0419.86637,S,05539.76649,E,0.086,,260525,,,A*7B
$GNVTG,,T,,M,0.086,N,0.159,K,A*3E
$GNGNS,131245.00,0419.86637,S,05539.76649,E,AA,13,0.68,16.1,-47.6,,*67
$GLGSV,3,2,09,74,08,203,,80,16,105,19,83,31,144,31,84,74,057,14*66
$GLGSV,3,3,09,85,32,345,12*51
$GNGLL,0419.86611,S,05539.76674,E,131252.00,A,A*66
$GNGRS,131252.00,1,-9.5,3.1,10.7,0.5,9.7,0.1,4.1,-1.1,3.1,-145,,*50
$GNGRS,131252.00,1,1.1,4.5,-5.0,5.6,0.0,,,,,,,*52
$GNGST,131252.00,77406,,,,4.1,3.3,8.3*73
$GNZDA,131252.00,26,05,2025,00,00*7A
$GNGBS,131252.00,4.1,3.3,8.3,,,,*57
$GNTXT,01,01,01,More than 100 frame errors, UART RX was disabled*70
$GNZDA,131253.00,26,05,2025,00,00*7B
$GNGBS,131253.00,4.1,3.3,8.2,,,,*57
$GNTXT,01,01,01,More than 100 frame errors, UART RX was disabled*70
$GLGSV,3,1,09,70,22,337,,71,28,286,25,72,07,240,,73,24,160,22*68
$GLGSV,3,2,09,74,08,203,,80,16,105,18,83,31,144,30,84,74,057,19*6B
$GLGSV,3,3,09,85,32,345,20*50
$GNGLL,0419.86602,S,05539.76678,E,131254.00,A,A*6E
$GNGRS,131254.00,1,-11.8,4.7,6.9,1.5,12.2,2.0,6.8,-0.1,4.3,-143,,*6E
$GNGRS,131254.00,1,2.1,5.4,-5.2,7.1,-1.8,,,,,,,*74
$GNGST,131254.00,89791,,,,4.1,3.3,8.2*78
$GNZDA,131254.00,26,05,2025,00,00*7C
$GNGBS,131254.00,4.1,3.3,8.2,,,,*50
$GNTXT,01,01,01,More than 100 frame errors, UART RX was disabled*70
b0LN&g
u!zE67K<X= 
{4!Ta:R 
YvFQGHIJPi
S TJ9TU YFDb$GNRMC,131256.00,A,0419.86589,S,05539.76680,E,0.267,,260525,,,A*77
$GNVTG,,T,,M,0.267,N,0.494,K,A*37
$GNGNS,131256.00,0419.86589,S,05539.76680,E,AA,15,0.65,18.9,-47.6,,*6B
$GNGGA,131256.00,0419.86589,S,05539.76680,E,1,12,0.65,18.9,M,-47.6,M,,*46
$GNGSA,A,3,28,31,27,26,32,18,08,16,10,41,,,1.25,0.65,1.06*14
$GNGSA,A,3,84,83,71,85,80,,,,,,,,1.25,0.65,1.06*1A
$GPGSV,5,1,17,02,09,334,20,04,12,232,,08,28,294,26,10,13,031,23*7B
$GPGSV,5,2,17,16,24,209,16,18,25,122,33,23,01,069,,26,29,178,30*77
$GPGSV,5,3,17,27,55,257,28,28,60,088,20,31,61,157,31,32,27,010,21*7A
$GPGSV,5,4,17,36,52,277,,40,84,353,33,41,58,082,29,49,32,274,*77
$GPGSV,5,5,17,50,10,089,*4A
$GLGSV,3,1,09,70,22,337,,71,28,286,26,72,07,240,,73,24,160,23*6A
$GLGSV,3,2,09,74,08,203,,80,16,105,19,83,31,144,32,84,74,057,19*68
$GLGSV,3,3,09,85,32,345,20*50
$GNGLL,0419.86589,S,05539.76680,E,131256.00,A,A*6B
$GNGRS,131256.00,1,-11.2,1.3,13.6,0.5,11.5,1.8,6.2,-1.4,2.5,-144,,*5B
$GNGRS,131256.00,1,3.4,6.6,-2.4,4.9,-2.7,,,,,,,*75
$GNGST,131256.00,1026,,,,4.1,3.3,8.1*42
$GNZDA,131256.00,26,05,2025,00,00*7E
$GNGBS,131256.00,4.1,3.3,8.1,,,,*51
b0LN&
!z6E7)<X= 
{4!Ta:Rf 
YvcFQGSHIJPh
S!TJ9U YLOb$GNRMC,131257.00,A,0419.86597,S,05539.76673,E,0.297,,260525,,,A*7A
$GNVTG,,T,,M,0.297,N,0.550,K,A*31
$GNGNS,131257.00,0419.86597,S,05539.76673,E,AA,15,0.67,19.1,-47.6,,*62
$GNGGA,131257.00,0419.86597,S,05539.76673,E,1,12,0.67,19.1,M,-47.6,M,,*4F
$GNGSA,A,3,28,31,27,26,32,18,08,16,10,41,,,1.32,0.67,1.14*13
$GNGSA,A,3,84,83,71,85,80,,,,,,,,1.32,0.67,1.14*1D
$GPGSV,5,1,17,02,09,334,20,04,12,232,,08,28,294,26,10,13,031,23*7B
$GPGSV,5,2,17,16,24,209,16,18,25,122,33,23,01,069,,26,29,178,30*77
$GPGSV,5,3,17,27,55,257,28,28,60,088,19,31,61,157,31,32,27,010,20*71
$GPGSV,5,4,17,36,52,277,,40,84,353,33,41,58,082,28,49,32,274,*76
$GPGSV,5,5,17,50,10,089,*4A
$GLGSV,3,1,09,70,22,337,,71,28,286,27,72,07,240,,73,24,160,26*6E
$GLGSV,3,2,09,74,08,203,,80,16,104,19,83,31,144,33,84,74,057,19*68
$GLGSV,3,3,09,85,32,345,21*51
$GNGLL,0419.86597,S,05539.76673,E,131257.00,A,A*69
$GNGRS,131257.00,1,-11.5,1.9,10.6,4.9,9.2,0.5,7.1,-0.6,2.2,-145,,*69
$GNGRS,131257.00,1,2.0,9.4,-1.7,2.3,-3.0,,,,,,,*76
$GNGST,131257.00,42,,,,4.1,3.3,8.1*40
$GNZDA,131257.00,26,05,2025,00,00*7F
$GNGBS,131257.00,4.1,3.3,8.1,,,,*50
$GNTXT,01,01,01,More than 100 frame errors, UART RX was disabled*70
$GNTXT,01,01,01,More than 100 frame errors, UART RX was disabled*70
b0L
N&
`%z"EB 7<X"=B 
{4#Ta:RL 
YvnFQGHIJPh>
S_TK;U Yb #$GNRMC,131307.00,A,0419.86558,S,05539.76717,E,0.262,,260525,,,A*74
$GNVTG,,T,,M,0.262,N,0.486,K,A*31
$GNGNS,131307.00,0419.86558,S,05539.76717,E,AA,14,0.68,19.5,-47.6,,*6C
$GNGGA,131307.00,0419.86558,S,05539.76717,E,1,12,0.68,19.5,M,-47.6,M,,*40
$GNGSA,A,3,28,31,27,26,32,18,08,16,10,41,,,1.51,0.68,1.35*1A
$GNGSA,A,3,83,71,85,80,,,,,,,,,1.51,0.68,1.35*18
$GPGSV,5,1,17,02,10,334,20,04,12,232,,08,28,294,27,10,13,031,23*72
$GPGSV,5,2,17,16,24,209,18,18,25,122,37,23,01,069,13,26,29,178,32*7D
$GPGSV,5,3,17,27,55,257,28,28,60,088,19,31,61,157,34,32,27,010,25*71
$GPGSV,5,4,17,36,52,277,,40,84,353,35,41,58,082,29,49,32,274,*71
$GPGSV,5,5,17,50,10,089,*4A
$GLGSV,3,1,09,70,22,337,,71,28,286,23,72,07,240,,73,24,160,28*64
$GLGSV,3,2,09,74,08,203,,80,16,104,19,83,31,145,28,84,75,059,08*6C
$GLGSV,3,3,09,85,32,345,17*54
$GNGLL,0419.86558,S,05539.76717,E,131307.00,A,A*6D
$GNGRS,131307.00,1,-8.5,-1.9,-15.8,-2.6,7.1,0.3,-3.6,-11.8,-2.5,-143,,*4D
$GNGRS,131307.00,1,11.2,-7.6,-7.6,-7.1,,,,,,,,*4E
$GNGST,131307.00,41,,,,3.9,3.2,7.8*4F
$GNZDA,131307.00,26,05,2025,00,00*7B
$GNGBS,131307.00,3.9,3.2,7.8,,,,*5C
$GNTXT,01,01,01,More than 100 frame errors, UART RX was disabled*70
b0L
N&
(%zE 7<X"=] 
{4"Ta:R$ 
YvpFQGHIJPh
S)TK;]U Ylrb|$GNRMC,131308.00,A,0419.86556,S,05539.76724,E,0.031,,260525,,,A*71
$GNVTG,,T,,M,0.031,N,0.057,K,A*3D
$GNGNS,131308.00,0419.86556,S,05539.76724,E,AA,14,0.66,19.4,-47.6,,*62
$GNGGA,131308.00,0419.86556,S,05539.76724,E,1,12,0.66,19.4,M,-47.6,M,,*4E
$GNGSA,A,3,28,31,27,26,32,18,08,16,10,41,,,1.37,0.66,1.20*10
$GNGSA,A,3,83,71,85,80,,,,,,,,,1.37,0.66,1.20*12
$GPGSV,5,1,17,02,10,334,21,04,12,232,,08,28,294,27,10,13,031,23*73
$GPGSV,5,2,17,16,24,209,21,18,25,122,37,23,01,069,09,26,29,178,32*7C
$GPGSV,5,3,17,27,55,257,28,28,60,088,18,31,61,157,34,32,27,010,26*73
$GPGSV,5,4,17,36,52,277,,40,84,353,34,41,58,082,29,49,32,274,*70
$GPGSV,5,5,17,50,10,089,*4A
$GLGSV,3,1,09,70,22,337,,71,28,286,23,72,07,240,,73,24,160,27*6B
$GLGSV,3,2,09,74,08,203,,80,16,104,19,83,31,145,28,84,75,059,08*6C
$GLGSV,3,3,09,85,32,345,17*54
$GNGLL,0419.86556,S,05539.76724,E,131308.00,A,A*6C
$GNGRS,131308.00,1,-8.7,-1.6,-16.6,-1.2,8.0,0.3,-3.8,-13.6,-4.7,-143,,*4D
$GNGRS,131308.00,1,8.1,-7.4,-8.5,-6.2,,,,,,,,*76
$GNGST,131308.00,1059,,,,3.9,3.2,7.8*48
$GNZDA,131308.00,26,05,2025,00,00*74
$GNGBS,131308.00,3.9,3.2,7.8,,,,*53
$GNTXT,01,01,01,More than 100 frame errors, UART RX was disabled*70
b0L
N&
%zE 7;<X"= 
{4"Ta:R" 
YvFQG|HIJPhQ
S_TK;pU Yvb$GNRMC,131309.00,A,0419.86556,S,05539.76730,E,0.034,,260525,,,A*70
$GNVTG,,T,,M,0.034,N,0.063,K,A*3F
$GNGNS,131309.00,0419.86556,S,05539.76730,E,AA,14,0.66,19.5,-47.6,,*67
$GNGGA,131309.00,0419.86556,S,05539.76730,E,1,12,0.66,19.5,M,-47.6,M,,*4B
$GNGSA,A,3,28,31,27,26,32,18,08,16,10,41,,,1.37,0.66,1.20*10
$GNGSA,A,3,83,71,85,80,,,,,,,,,1.37,0.66,1.20*12
$GPGSV,5,1,17,02,10,334,21,04,13,232,,08,28,294,27,10,13,031,24*75
$GPGSV,5,2,17,16,24,209,23,18,25,122,37,23,01,069,07,26,29,178,32*70
$GPGSV,5,3,17,27,55,257,28,28,60,088,18,31,61,157,34,32,27,010,25*70
$GPGSV,5,4,17,36,52,277,,40,84,353,34,41,58,082,29,49,32,274,*70
$GPGSV,5,5,17,50,10,089,*4A
$GLGSV,3,1,09,70,22,337,,71,28,286,23,72,07,240,,73,24,160,28*64
$GLGSV,3,2,09,74,08,203,,80,16,104,19,83,31,145,30,84,75,059,13*6F
$GLGSV,3,3,09,85,32,345,16*55
$GNGLL,0419.86556,S,05539.76730,E,131309.00,A,A*68
$GNGRS,131309.00,1,-4.9,-3.2,-17.3,-1.3,7.1,0.2,-2.4,-13.7,-4.9,-143,,*40
$GNGRS,131309.00,1,6.1,-9.0,-7.9,-6.9,,,,,,,,*7B
$GNGST,131309.00,1059,,,,3.8,3.2,7.8*48
$GNZDA,131309.00,26,05,2025,00,00*75
$GNGBS,131309.00,3.8,3.2,7.8,,,,*53
$GNTXT,01,01,01,More than 100 frame errors, UART RX was disabled*70
b0L
N&j
%z
E!7~<X"= 
k{4"Ta:R 
YvMFQGHIJPh
STK;IU YcBbmL$GNRMC,131310.00,A,0419.86556,S,05539.76735,E,0.077,,260525,,,A*7A
$GNVTG,,T,,M,0.077,N,0.142,K,A*3A
$GNGNS,131310.00,0419.86556,S,05539.76735,E,AA,14,0.66,19.3,-47.6,,*6C
$GNGGA,131310.00,0419.86556,S,05539.76735,E,1,12,0.66,19.3,M,-47.6,M,,*40
$GNGSA,A,3,28,31,27,26,32,18,08,16,10,41,,,1.37,0.66,1.20*10
$GNGSA,A,3,83,71,85,80,,,,,,,,,1.37,0.66,1.20*12
$GPGSV,5,1,17,02,10,334,21,04,13,232,,08,28,294,26,10,13,031,24*74
$GPGSV,5,2,17,16,24,209,23,18,25,122,37,23,01,069,07,26,29,178,33*71
$GPGSV,5,3,17,27,55,257,29,28,60,088,18,31,61,157,34,32,27,010,25*71
$GPGSV,5,4,17,36,52,277,,40,84,353,34,41,58,082,29,49,32,274,*70
$GPGSV,5,5,17,50,10,089,*4A
$GLGSV,3,1,09,70,22,337,,71,28,286,24,72,07,240,,73,24,160,28*63
$GLGSV,3,2,09,74,08,203,,80,16,104,19,83,31,145,30,84,75,059,13*6F
$GLGSV,3,3,09,85,32,345,18*5B
$GNGLL,0419.86556,S,05539.76735,E,131310.00,A,A*65
$GNGRS,131310.00,1,-5.3,-3.4,-16.7,-1.0,6.2,0.1,-4.1,-14.0,-2.4,-143,,*4A
$GNGRS,131310.00,1,4.6,-8.6,-8.0,-8.7,,,,,,,,*77
$GNGST,131310.00,1059,,,,3.8,3.1,7.7*4C
$GNZDA,131310.00,26,05,2025,00,00*7D
$GNGBS,131310.00,3.8,3.1,7.7,,,,*57
$GNTXT,01,01,01,More than 100 frame errors, UART RX was disabled*70
b0L
N&t
c%z!E!7<XG"= 
{4"Ta:R 
YvFQGnHIJPh
SzTK;OU YhbU$GNRMC,131311.00,A,0419.86557,S,05539.76738,E,0.074,,260525,,,A*74
$GNVTG,,T,,M,0.074,N,0.138,K,A*34
$GNGNS,131311.00,0419.86557,S,05539.76738,E,AA,14,0.66,19.0,-47.6,,*62
$GNGGA,131311.00,0419.86557,S,05539.76738,E,1,12,0.66,19.0,M,-47.6,M,,*4E
$GNGSA,A,3,28,31,27,26,32,18,08,16,10,41,,,1.37,0.66,1.20*10
$GNGSA,A,3,83,71,85,80,,,,,,,,,1.37,0.66,1.20*12
$GPGSV,5,1,17,02,10,334,20,04,13,232,,08,28,294,25,10,13,031,25*77
$GPGSV,5,2,17,16,24,209,23,18,25,122,37,23,01,069,06,26,29,178,33*70
$GPGSV,5,3,17,27,55,257,29,28,60,088,18,31,61,157,34,32,27,010,26*72
$GPGSV,5,4,17,36,52,277,,40,84,353,34,41,58,082,29,49,32,274,*70
$GPGSV,5,5,17,50,10,089,*4A
$GLGSV,3,1,09,70,22,337,,71,28,286,25,72,07,240,,73,24,160,29*63
$GLGSV,3,2,09,74,08,203,,80,16,104,20,83,31,145,31,84,75,059,09*6F
$GLGSV,3,3,09,85,32,345,21*51
$GNGLL,0419.86557,S,05539.76738,E,131311.00,A,A*68
$GNGRS,131311.00,1,-7.0,-3.7,-10.2,0.0,4.8,0.3,-1.4,-12.6,-1.6,-144,,*6A
$GNGRS,131311.00,1,-1.3,-9.1,-11.1,-8.6,,,,,,,,*65
$GNGST,131311.00,1059,,,,3.8,3.1,7.7*4D
$GNZDA,131311.00,26,05,2025,00,00*7C
$GNGBS,131311.00,3.8,3.1,7.7,,,,*56
$GNTXT,01,01,01,More than 100 frame errors, UART RX was disabled*70
b0L`
N&t
%z%E)!7b<X2!= 
{4#Ta:Rs 
YvFQGHIJPhT
STK;HU YzYb`$GNRMC,131314.00,A,0419.86551,S,05539.76753,E,0.022,,260525,,,A*79
$GNVTG,,T,,M,0.022,N,0.042,K,A*3B
$GNGNS,131314.00,0419.86551,S,05539.76753,E,AA,15,0.65,19.0,-47.6,,*6E
$GNGGA,131314.00,0419.86551,S,05539.76753,E,1,12,0.65,19.0,M,-47.6,M,,*43
$GNGSA,A,3,28,31,27,26,32,18,08,16,10,41,,,1.25,0.65,1.06*14
$GNGSA,A,3,84,83,71,85,80,,,,,,,,1.25,0.65,1.06*1A
$GPGSV,5,1,17,02,10,334,20,04,13,232,,08,28,294,25,10,13,031,25*77
$GPGSV,5,2,17,16,24,209,24,18,25,122,37,23,01,069,06,26,29,178,33*77
$GPGSV,5,3,17,27,55,257,30,28,60,088,19,31,61,157,33,32,27,010,27*7D
$GPGSV,5,4,17,36,52,277,,40,84,353,35,41,58,082,29,49,32,274,*71
$GPGSV,5,5,17,50,10,089,*4A
$GLGSV,3,1,09,70,22,337,,71,28,286,26,72,07,240,,73,24,160,28*61
$GLGSV,3,2,09,74,08,203,,80,16,104,20,83,31,145,30,84,75,059,07*60
$GLGSV,3,3,09,85,32,345,18*5B
$GNGLL,0419.86551,S,05539.76753,E,131314.00,A,A*66
$GNGRS,131314.00,1,-7.2,-3.3,-6.7,-2.6,-0.4,0.4,1.2,-10.1,-0.2,-142,,*7D
$GNGRS,131314.00,1,0.7,5.1,-11.2,-10.7,-6.8,,,,,,,*5F
$GNGST,131314.00,9052,,,,3.7,3.1,7.6*45
$GNZDA,131314.00,26,05,2025,00,00*79
$GNGBS,131314.00,3.7,3.1,7.6,,,,*5D
$GNTXT,01,01,01,More than 100 frame errors, UART RX was disabled*70
b0L
N&
 %z%E!?7(<X"= 
{4"Ta:R5 
YvFQGHIJPh
STK;gU Y*;vbf$GNRMC,131318.00,A,0419.86561,S,05539.76767,E,0.088,,260525,,,A*71
$GNVTG,,T,,M,0.088,N,0.164,K,A*3E
$GNGNS,131318.00,0419.86561,S,05539.76767,E,AA,15,0.65,19.1,-47.6,,*67
$GNGGA,131318.00,0419.86561,S,05539.76767,E,1,12,0.65,19.1,M,-47.6,M,,*4A
$GNGSA,A,3,28,31,27,26,32,18,08,16,10,41,,,1.25,0.65,1.06*14
$GNGSA,A,3,84,83,71,85,80,,,,,,,,1.25,0.65,1.06*1A
$GPGSV,5,1,17,02,10,334,19,04,13,232,,08,28,294,26,10,13,032,25*7D
$GPGSV,5,2,17,16,24,209,26,18,25,122,37,23,01,069,06,26,29,178,33*75
$GPGSV,5,3,17,27,55,257,30,28,60,088,21,31,61,157,34,32,27,010,27*71
$GPGSV,5,4,17,36,52,277,,40,84,353,34,41,58,082,29,49,32,274,*70
$GPGSV,5,5,17,50,10,089,*4A
$GLGSV,3,1,09,70,22,337,,71,28,286,25,72,07,240,,73,24,160,30*6B
$GLGSV,3,2,09,74,08,203,,80,16,104,16,83,31,145,31,84,75,059,14*66
$GLGSV,3,3,09,85,32,345,15*56
$GNGLL,0419.86561,S,05539.76767,E,131318.00,A,A*6E
$GNGRS,131318.00,1,-8.0,-2.4,3.0,-1.9,-7.7,0.4,-3.1,-11.2,-0.2,-143,,*72
$GNGRS,131318.00,1,1.0,7.4,-9.9,-9.8,-6.1,,,,,,,*5E
$GNGST,131318.00,47978,,,,3.5,3.1,7.5*73
$GNZDA,131318.00,26,05,2025,00,00*75
$GNGBS,131318.00,3.5,3.1,7.5,,,,*50
$GNTXT,01,01,01,More than 100 frame errors, UART RX was disabled*70
b0L
N&
 '%zE*!Q7'<X!= 
{4#Ta:R 
Yv+FQGHIJPh
S TK;GU Yb}J$GNRMC,131320.00,A,0419.86561,S,05539.76774,E,0.042,,260525,,,A*7E
$GNVTG,,T,,M,0.042,N,0.079,K,A*35
$GNGNS,131320.00,0419.86561,S,05539.76774,E,AA,15,0.65,19.2,-47.6,,*6D
$GNGGA,131320.00,0419.86561,S,05539.76774,E,1,12,0.65,19.2,M,-47.6,M,,*40
$GNGSA,A,3,28,31,27,26,32,18,08,16,10,41,,,1.25,0.65,1.06*14
$GNGSA,A,3,84,83,71,85,80,,,,,,,,1.25,0.65,1.06*1A
$GPGSV,5,1,17,02,10,334,20,04,13,232,,08,28,294,25,10,13,032,26*77
$GPGSV,5,2,17,16,24,209,27,18,25,122,37,23,01,069,06,26,29,178,33*74
$GPGSV,5,3,17,27,55,257,29,28,60,088,20,31,61,157,33,32,27,010,27*7F
$GPGSV,5,4,17,36,52,277,,40,84,353,35,41,58,082,28,49,32,274,*70
$GPGSV,5,5,17,50,10,089,*4A
$GLGSV,3,1,09,70,22,337,,71,28,286,23,72,07,240,,73,24,160,30*6D
$GLGSV,3,2,09,74,08,203,,80,16,104,15,83,31,145,32,84,75,059,11*63
$GLGSV,3,3,09,85,32,345,11*52
$GNGLL,0419.86561,S,05539.76774,E,131320.00,A,A*67
$GNGRS,131320.00,1,-7.8,-2.4,0.4,-1.7,-5.5,0.2,4.0,-12.4,-1.0,-143,,*5C
$GNGRS,131320.00,1,0.7,2.7,-8.1,-13.1,-7.9,,,,,,,*67
$GNGST,131320.00,3169,,,,3.4,3.1,7.5*41
$GNZDA,131320.00,26,05,2025,00,00*7E
$GNGBS,131320.00,3.4,3.1,7.5,,,,*5A
$GNTXT,01,01,01,More than 100 frame errors, UART RX was disabled*70
b0L
N&
 B&zE!!J7a<X!=< 
{4"Ta:R 
YvHFQG1HIJPh
S T
K;9U Ybe$GNRMC,131321.00,A,0419.86561,S,05539.76778,E,0.016,,260525,,,A*72
$GNVTG,,T,,M,0.016,N,0.029,K,A*31
$GNGNS,131321.00,0419.86561,S,05539.76778,E,AA,15,0.67,19.1,-47.6,,*61
$GNGGA,131321.00,0419.86561,S,05539.76778,E,1,12,0.67,19.1,M,-47.6,M,,*4C
$GNGSA,A,3,28,31,27,26,32,18,08,16,10,41,,,1.32,0.67,1.14*13
$GNGSA,A,3,84,83,71,85,80,,,,,,,,1.32,0.67,1.14*1D
$GPGSV,5,1,17,02,10,334,20,04,13,232,,08,28,294,25,10,13,032,25*74
$GPGSV,5,2,17,16,24,208,27,18,25,122,38,23,01,069,06,26,29,178,33*7A
$GPGSV,5,3,17,27,55,257,29,28,60,088,20,31,61,157,33,32,27,010,27*7F
$GPGSV,5,4,17,36,52,277,,40,84,353,34,41,58,082,29,49,32,274,*70
$GPGSV,5,5,17,50,10,089,*4A
$GLGSV,3,1,09,70,22,337,,71,28,286,23,72,07,240,,73,24,160,30*6D
$GLGSV,3,2,09,74,08,203,,80,16,104,16,83,31,145,32,84,75,059,10*61
$GLGSV,3,3,09,85,32,345,12*51
$GNGLL,0419.86561,S,05539.76778,E,131321.00,A,A*6A
$GNGRS,131321.00,1,-8.5,-2.0,-1.6,-1.8,-2.8,0.2,4.0,-11.2,-1.9,-143,,*7C
$GNGRS,131321.00,1,0.6,4.0,-7.2,-10.7,-5.1,,,,,,,*65
$GNGST,131321.00,4645,,,,3.4,3.1,7.5*4E
$GNZDA,131321.00,26,05,2025,00,00*7F
$GNGBS,131321.00,3.4,3.1,7.5,,,,*5B
$GNTXT,01,01,01,More than 100 frame errors, UART RX was disabled*70
$GLGSV,3,2,09,74,08,203,,80,16,104,16,83,31,145,32,84,75,059,13*62
$GLGSV,3,3,09,85,32,345,14*57
$GNGLL,0419.86560,S,05539.76781,E,131322.00,A,A*6E
$GNGRS,131322.00,1,-9.0,-1.8,-3.0,-1.6,-3.9,0.2,6.0,-12.8,-1.6,-144,,*79
$GNGRS,131322.00,1,-1.5,4.9,-7.3,-11.0,-3.7,,,,,,,*47
$GNGST,131322.00,50,,,,3.3,3.0,7.4*4C
$GNZDA,131322.00,26,05,2025,00,00*7C
$GNGBS,131322.00,3.3,3.0,7.4,,,,*5F
$GNTXT,01,01,01,More than 100 frame errors, UART RX was disabled*70
b0L
N&
 %{E!!k7<X=!=< 
{4"Ta:R 
Yv>FQGHIJPh{
S -TK;9U Yqy0b5$GNRMC,131323.00,A,0419.86559,S,05539.76786,E,0.024,,260525,,,A*7B
$GNVTG,,T,,M,0.024,N,0.045,K,A*3A
$GNGNS,131323.00,0419.86559,S,05539.76786,E,AA,15,0.65,19.3,-47.6,,*69
$GNGGA,131323.00,0419.86559,S,05539.76786,E,1,12,0.65,19.3,M,-47.6,M,,*44
$GNGSA,A,3,28,31,27,26,32,18,08,16,10,41,,,1.25,0.65,1.06*14
$GNGSA,A,3,84,83,71,85,80,,,,,,,,1.25,0.65,1.06*1A
$GPGSV,5,1,17,02,10,334,20,04,13,232,,08,28,294,26,10,13,032,23*71
$GPGSV,5,2,17,16,24,208,28,18,25,123,37,23,01,069,06,26,29,178,33*7B
$GPGSV,5,3,17,27,55,257,27,28,60,088,21,31,61,157,33,32,27,010,27*70
$GNTXT,01,01,01,More than 100 frame errors, UART RX was disabled*70
b0LX
N&L
 %{E"87<X"=q 
{4"Ta:RH 
YvFQGHIJPh
S!~TK;zU YejbXOb$GNTXT,01,01,01,More than 100 frame errors, UART RX was disabled*70
$GLGSV,3,3,09,85,32,345,13*50
$GNGLL,0419.86555,S,05539.76790,E,131326.00,A,A*6C
$GNGRS,131326.00,1,-5.3,-1.5,14.9,-2.1,-2.5,-0.1,-0.2,-10.8,2.1,-145,,*49
$GNGRS,131326.00,1,0.7,2.1,-4.0,-9.6,-7.3,,,,,,,*5C
$GNGST,131326.00,68117,,,,3.2,3.0,7.3*72
$GNZDA,131326.00,26,05,2025,00,00*78
$GNGBS,131326.00,3.2,3.0,7.3,,,,*5D
$GNTXT,01,01,01,More than 100 frame errors, UART RX was disabled*70
$GNTXT,01,01,01,More than 100 frame errors, UART RX was disabled*70
$GNGSA,A,3,28,31,27,26,32,18,08,16,10,41,,,1.25,0.65,1.06*14
$GNGSA,A,3,84,83,71,85,80,,,,,,,,1.25,0.65,1.06*1A
$GPGSV,5,1,17,02,10,334,20,04,13,232,,08,28,294,26,10,13,032,19*78
$GPGSV,5,2,17,16,24,208,27,18,25,123,38,23,01,070,,26,29,178,34*72
$GPGSV,5,3,17,27,55,257,26,28,60,088,25,31,61,157,33,32,27,010,27*75
$GPGSV,5,4,17,36,52,277,,40,84,353,34,41,58,082,29,49,32,274,*70
$GPGSV,5,5,17,50,10,089,*4A
$GLGSV,3,1,09,70,22,337,,71,28,286,19,72,07,240,,73,24,160,31*65
$GLGSV,3,2,09,74,08,203,,80,16,104,16,83,31,145,33,84,75,059,12*62
$GLGSV,3,3,09,85,32,345,12*51
$GNGLL,0419.86552,S,05539.76791,E,131328.00,A,A*64
$GNGRS,131328.00,1,-6.1,-1.2,17.0,-2.3,-3.5,-0.4,-1.7,-10.8,3.8,-146,,*42
$GNGRS,131328.00,1,-14.5,4.0,-6.2,-5.7,-5.7,,,,,,,*44
$GNGST,131328.00,1026,,,,3.2,3.0,7.3*40
$GNZDA,131328.00,26,05,2025,00,00*76
$GNGBS,131328.00,3.2,3.0,7.3,,,,*53
$GNTXT,01,01,01,More than 100 frame errors, UART RX was disabled*70
b$GNRMC,131329.00,A,0419.86551,S,05539.76791,E,0.100,,260525,,,A*78
$GNVTG,,T,,M,0.100,N,0.184,K,A*31
$GNGNS,131329.00,0419.86551,S,05539.76791,E,AA,15,0.67,20.1,-47.6,,*67
$GNGGA,131329.00,0419.86551,S,05539.76791,E,1,12,0.67,20.1,M,-47.6,M,,*4A
$GNGSA,A,3,28,31,27,26,32,18,08,16,10,41,,,1.32,0.67,1.14*13
$GNGSA,A,3,84,83,71,85,80,,,,,,,,1.32,0.67,1.14*1D
$GPGSV,5,1,17,02,10,334,20,04,13,232,,08,28,294,26,10,13,032,20*72
$GPGSV,5,2,17,16,24,208,27,18,25,123,38,23,01,070,,26,29,178,34*72
$GPGSV,5,3,17,27,55,257,27,28,60,088,25,31,61,157,34,32,27,010,27*73
$GPGSV,5,4,17,36,52,277,,40,84,353,35,41,58,082,29,49,32,274,*71
$GPGSV,5,5,17,50,10,089,*4A
$GLGSV,3,1,09,70,22,337,,71,28,286,19,72,07,240,,73,24,160,31*65
$GLGSV,3,2,09,74,08,203,,80,16,104,16,83,31,145,33,84,75,059,10*60
$GLGSV,3,3,09,85,32,345,15*56
$GNGLL,0419.86551,S,05539.76791,E,131329.00,A,A*66
$GNGRS,131329.00,1,-5.2,-1.0,17.7,-2.4,-3.6,-0.5,-2.8,-11.3,3.6,-146,,*4B
$GNGRS,131329.00,1,0.6,4.7,-5.1,-5.8,-7.8,,,,,,,*5B
$GNGST,131329.00,178645,,,,3.1,3.0,7.3*4E
$GNZDA,131329.00,26,05,2025,00,00*77
$GNGBS,131329.00,3.1,3.0,7.3,,,,*51
b0L
N&W
 @%{F!7{<X&#= 
{4#Ta:R 
YvFQGHIJPh 
S!TK;%U Y\bX$GNRMC,131330.00,A,0419.86549,S,05539.76792,E,0.099,,260525,,,A*7B
$GNVTG,,T,,M,0.099,N,0.184,K,A*30
$GNGNS,131330.00,0419.86549,S,05539.76792,E,AA,15,0.67,20.2,-47.6,,*66
$GNGGA,131330.00,0419.86549,S,05539.76792,E,1,12,0.67,20.2,M,-47.6,M,,*4B
$GNGSA,A,3,28,31,27,26,32,18,08,16,10,41,,,1.32,0.67,1.14*13
$GNGSA,A,3,84,83,71,85,80,,,,,,,,1.32,0.67,1.14*1D
$GPGSV,5,1,17,02,10,334,20,04,13,232,,08,28,294,27,10,13,032,19*79
$GPGSV,5,2,17,16,24,208,27,18,25,123,37,23,01,070,,26,30,177,33*7D
$GPGSV,5,3,17,27,55,257,29,28,60,088,24,31,61,157,35,32,27,010,28*72
$GPGSV,5,4,17,36,52,277,,40,84,353,35,41,58,082,29,49,32,274,*71
$GPGSV,5,5,17,50,10,089,*4A
b0L"
N&
 "{F"7<W!=r 
{4!Ta:R 
YvFQGHIJPhP
S TK;AU YGb"]'5($GNRMC,131332.00,A,0419.86547,S,05539.76797,E,0.104,,260525,,,A*77
$GNVTG,,T,,M,0.104,N,0.192,K,A*32
$GNGNS,131332.00,0419.86547,S,05539.76797,E,AA,15,0.65,20.3,-47.6,,*6C
$GNGGA,131332.00,0419.86547,S,05539.76797,E,1,12,0.65,20.3,M,-47.6,M,,*41
$GNGSA,A,3,28,31,27,26,32,18,08,16,10,41,,,1.25,0.65,1.06*14
$GNGSA,A,3,84,83,71,85,80,,,,,,,,1.25,0.65,1.06*1A
$GPGSV,5,1,17,02,10,334,21,04,13,232,,08,28,294,28,10,13,032,16*78
$GPGSV,5,2,17,16,24,208,26,18,25,123,34,23,01,070,,26,30,177,34*78
$GPGSV,5,3,17,27,55,256,29,28,60,087,23,31,61,157,33,32,27,010,26*73
$GPGSV,5,4,17,36,52,277,,40,84,353,33,41,58,082,30,49,32,274,*7F
$GPGSV,5,5,17,50,10,089,*4A
$GLGSV,3,1,09,70,22,337,,71,28,286,19,72,07,240,,73,24,160,30*64
$GLGSV,3,2,09,74,08,203,,80,16,104,13,83,31,145,32,84,75,059,16*62
$GLGSV,3,3,09,85,32,345,12*51
$GNGLL,0419.86547,S,05539.76797,E,131332.00,A,A*6D
$GNGRS,131332.00,1,-3.7,-1.4,-5.7,-2.9,-5.1,-0.6,-0.9,-12.8,5.2,-148,,*50
$GNGRS,131332.00,1,0.6,5.3,-1.3,7.1,-6.9,,,,,,,*74
$GNGST,131332.00,2974812,,,,3.1,3.0,7.2*7F
$GNZDA,131332.00,26,05,2025,00,00*7D
$GNGBS,131332.00,3.1,3.0,7.2,,,,*5A
$GNTXT,01,01,01,More than 100 frame errors, UART RX was disabled*70
b0L&
N&
 F!{F!7e<WF!= 
{4!Ta:R3 
YvHFQGHIrJPhu
S TK;'U Y$b&E+$GNRMC,131333.00,A,0419.86545,S,05539.76802,E,0.087,,260525,,,A*7D
$GNVTG,,T,,M,0.087,N,0.162,K,A*37
$GNGNS,131333.00,0419.86545,S,05539.76802,E,AA,16,0.65,20.4,-47.6,,*68
$GNGGA,131333.00,0419.86545,S,05539.76802,E,1,12,0.65,20.4,M,-47.6,M,,*46
$GNGSA,A,3,28,31,27,26,32,18,08,16,10,41,,,1.30,0.65,1.13*14
$GNGSA,A,3,84,83,71,85,80,73,,,,,,,1.30,0.65,1.13*1E
$GPGSV,5,1,17,02,10,334,21,04,13,232,,08,28,294,28,10,13,032,14*7A
$GPGSV,5,2,17,16,24,208,27,18,25,123,33,23,01,070,,26,30,177,33*79
$GPGSV,5,3,17,27,55,256,27,28,60,087,23,31,61,157,33,32,27,010,25*7E
$GPGSV,5,4,17,36,52,277,,40,84,353,33,41,58,082,28,49,32,274,*76
$GPGSV,5,5,17,50,10,089,*4A
$GLGSV,3,1,09,70,22,337,,71,28,286,21,72,07,240,,73,25,160,30*6E
$GLGSV,3,2,09,74,08,203,,80,16,104,13,83,31,145,32,84,75,059,16*62
$GLGSV,3,3,09,85,32,345,13*50
$GNGLL,0419.86545,S,05539.76802,E,131333.00,A,A*6D
$GNGRS,131333.00,1,-4.4,-1.3,-6.7,-2.7,-5.2,-0.6,-0.3,-12.1,4.0,-148,,*5C
$GNGRS,131333.00,1,0.4,1.9,-0.7,7.0,-9.1,-6.5,,,,,,*7A
$GNGST,131333.00,2975899,,,,3.1,3.0,7.2*7C
$GNZDA,131333.00,26,05,2025,00,00*7C
$GNGBS,131333.00,3.1,3.0,7.2,,,,*5B
$GNTXT,01,01,01,More than 100 frame errors, UART RX was disabled*70
b0Lh.
N&
 #{F!n7y<W!= 
{4!Ta:Rk 
YvFFQG.HIJPh
S /TK;OU Ybh.3`$GNRMC,131335.00,A,0419.86546,S,05539.76803,E,0.153,,260525,,,A*71
$GNVTG,,T,,M,0.153,N,0.284,K,A*34
$GNGNS,131335.00,0419.86546,S,05539.76803,E,AA,16,0.65,20.5,-47.6,,*6D
$GNGGA,131335.00,0419.86546,S,05539.76803,E,1,12,0.65,20.5,M,-47.6,M,,*43
$GNGSA,A,3,28,31,27,26,32,18,08,16,10,41,,,1.30,0.65,1.13*14
$GNGSA,A,3,84,83,71,85,80,73,,,,,,,1.30,0.65,1.13*1E
$GPGSV,5,1,17,02,10,334,21,04,13,232,,08,28,294,27,10,13,032,15*74
$GPGSV,5,2,17,16,24,208,25,18,25,123,35,23,01,070,,26,30,177,33*7D
$GPGSV,5,3,17,27,55,256,25,28,60,087,23,31,61,156,33,32,27,010,25*7D
$GPGSV,5,4,17,36,52,277,,40,84,353,33,41,58,082,28,49,32,274,*76
$GPGSV,5,5,17,50,10,089,*4A
$GLGSV,3,1,09,70,22,337,,71,28,286,21,72,07,240,,73,25,160,30*6E
$GLGSV,3,2,09,74,08,203,,80,16,104,12,83,31,145,32,84,75,059,16*63
$GLGSV,3,3,09,85,32,345,15*56
$GNGLL,0419.86546,S,05539.76803,E,131335.00,A,A*69
$GNGRS,131335.00,1,-3.1,-0.7,1.2,1.1,-2.5,-0.4,-0.2,-10.1,4.7,-147,,*53
$GNGRS,131335.00,1,0.8,3.0,-2.1,7.0,-8.2,-5.8,,,,,,*73
$GNGST,131335.00,43237,,,,3.1,3.0,7.2*7A
$GNZDA,131335.00,26,05,2025,00,00*7A
$GNGBS,131335.00,3.1,3.0,7.2,,,,*5D
$GNTXT,01,01,01,More than 100 frame errors, UART RX was disabled*70
b0L86
N&
 U"{F 7.<W!= {4"Ta:R 
YvFQG-HIJPh
S TK;JU Y'hb86:l-$GNRMC,131337.00,A,0419.86540,S,05539.76807,E,0.042,,260525,,,A*70
$GNVTG,,T,,M,0.042,N,0.078,K,A*34
$GNGNS,131337.00,0419.86540,S,05539.76807,E,AA,16,0.65,20.8,-47.6,,*60
$GNGGA,131337.00,0419.86540,S,05539.76807,E,1,12,0.65,20.8,M,-47.6,M,,*4E
$GNGSA,A,3,28,31,27,26,32,18,08,16,10,41,,,1.30,0.65,1.13*14
$GNGSA,A,3,84,83,71,85,80,73,,,,,,,1.30,0.65,1.13*1E
$GPGSV,5,1,17,02,10,334,20,04,13,232,,08,28,294,25,10,13,032,17*75
$GPGSV,5,2,17,16,24,208,25,18,25,123,34,23,01,070,,26,30,177,32*7D
$GPGSV,5,3,17,27,55,256,23,28,60,087,21,31,61,156,33,32,26,011,25*79
$GPGSV,5,4,17,36,52,277,,40,84,353,34,41,58,082,27,49,32,274,*7E
$GPGSV,5,5,17,50,10,089,*4A
$GLGSV,3,1,09,70,22,337,,71,28,286,20,72,07,240,,73,25,160,31*6E
$GLGSV,3,2,09,74,08,203,,80,16,104,14,83,31,145,32,84,75,059,15*66
$GLGSV,3,3,09,85,32,345,16*55
$GNGLL,0419.86540,S,05539.76807,E,131337.00,A,A*69
$GNGRS,131337.00,1,-2.9,-0.7,3.0,-3.5,-2.5,-0.4,-1.0,-6.8,6.5,-139,,*47
$GNGRS,131337.00,1,0.7,1.6,-2.1,8.1,-5.0,-5.7,,,,,,*74
$GNGST,131337.00,50,,,,3.2,3.0,7.2*4F
$GNZDA,131337.00,26,05,2025,00,00*78
$GNGBS,131337.00,3.2,3.0,7.2,41,,139.2,4098.9*6C
$GNTXT,01,01,01,More than 100 frame errors, UART RX was disabled*70
b0LA
N&z
 N!{RFg7<W"= {4#Ta:R 
YvVFQGzHIQJPht
S hTK;U Y+bAFV$GNRMC,131340.00,A,0419.86517,S,05539.76810,E,0.162,,260525,,,A*77
$GNVTG,,T,,M,0.162,N,0.301,K,A*3A
$GNGNS,131340.00,0419.86517,S,05539.76810,E,AA,15,0.65,20.8,-47.6,,*67
$GNGGA,131340.00,0419.86517,S,05539.76810,E,1,12,0.65,20.8,M,-47.6,M,,*4A
$GNGSA,A,3,28,31,27,26,32,18,08,16,10,,,,1.30,0.65,1.13*11
$GNGSA,A,3,84,83,71,85,80,73,,,,,,,1.30,0.65,1.13*1E
$GPGSV,5,1,17,02,10,334,21,04,13,232,,08,28,294,27,10,13,032,16*77
$GPGSV,5,2,17,16,24,208,26,18,25,123,33,23,01,070,,26,30,177,31*7A
$GPGSV,5,3,17,27,55,256,21,28,60,087,23,31,61,156,34,32,26,011,26*7D
$GPGSV,5,4,17,36,52,277,,40,84,353,35,41,58,082,,49,32,274,*7A
$GPGSV,5,5,17,50,10,089,*4A
$GLGSV,3,1,09,70,22,337,,71,28,286,17,72,07,240,,73,25,160,31*6A
$GLGSV,3,2,09,74,08,203,,80,16,104,14,83,31,145,32,84,75,059,18*6B
