b0LM)R
JxxC 8<^ ; {4!Ta:R 
YvFOGHIJPk
S!dTH1)UZP7b$GNRMC,130749.00,A,0419.86845,S,05539.77171,E,0.202,,260525,,,A*7B
$GNVTG,,T,,M,0.202,N,0.374,K,A*3D
$GNGNS,130749.00,0419.86845,S,05539.77171,E,AA,14,0.74,24.7,-47.6,,*64
$GNGGA,130749.00,0419.86845,S,05539.77171,E,1,12,0.74,24.7,M,-47.6,M,,*48
$GNGSA,A,3,28,31,27,26,32,18,08,16,10,,,,1.53,0.74,1.33*16
$GNGSA,A,3,84,83,71,85,80,,,,,,,,1.53,0.74,1.33*1D
$GPGSV,5,1,17,02,08,333,,04,11,230,,08,27,297,24,10,13,029,12*7B
$GPGSV,5,2,17,16,24,211,21,18,26,120,28,23,01,067,,26,29,180,24*7D
$GPGSV,5,3,17,27,56,261,32,28,60,094,27,31,59,160,32,32,29,009,28*7E
$GPGSV,5,4,17,36,52,277,,40,84,353,33,41,58,082,31,49,32,274,*7E
$GPGSV,5,5,17,50,10,089,*4A
$GLGSV,3,1,09,70,24,335,,71,28,283,20,72,07,238,,73,23,163,23*66
$GLGSV,3,2,09,74,07,205,,80,16,107,24,83,33,142,30,84,72,049,15*6E
$GLGSV,3,3,09,85,29,346,22*5B
$GNGLL,0419.86845,S,05539.77171,E,130749.00,A,A*64
$GNGRS,130749.00,1,-5.1,2.0,-2.8,2.7,6.5,-6.5,-1.7,18.7,22.4,,,*73
$GNGRS,130749.00,1,3.0,1.0,-11.3,3.4,-0.4,,,,,,,*44
$GNGST,130749.00,39,,,,3.8,3.6,8.6*4B
$GNZDA,130749.00,26,05,2025,00,00*74
$GNGBS,130749.00,3.8,3.6,8.6,,,,*57
b0LM)
Sx?C8y<^;  K{4$Ta":R 
YvFOGHIJPk
S!TH1!UZibm$GNRMC,130750.00,A,0419.86838,S,05539.77172,E,0.154,,260525,,,A*7A
$GNVTG,,T,,M,0.154,N,0.285,K,A*32
$GNGNS,130750.00,0419.86838,S,05539.77172,E,AA,14,0.82,24.7,-47.6,,*6C
$GNGGA,130750.00,0419.86838,S,05539.77172,E,1,12,0.82,24.7,M,-47.6,M,,*40
$GNGSA,A,3,28,31,27,26,32,18,08,16,10,,,,1.61,0.82,1.38*15
$GNGSA,A,3,84,83,71,85,80,,,,,,,,1.61,0.82,1.38*1E
$GPGSV,5,1,17,02,08,333,,04,11,230,,08,27,297,20,10,13,029,14*79
$GPGSV,5,2,17,16,24,211,20,18,26,120,26,23,01,067,,26,29,180,22*74
$GPGSV,5,3,17,27,56,261,29,28,60,094,28,31,59,160,28,32,29,009,32*7B
$GPGSV,5,4,17,36,52,277,,40,84,353,36,41,58,082,34,49,32,274,*7E
$GPGSV,5,5,17,50,10,089,*4A
$GLGSV,3,1,09,70,24,335,,71,28,283,17,72,07,238,,73,23,162,20*60
$GLGSV,3,2,09,74,07,205,,80,16,107,21,83,33,142,25,84,72,049,14*6E
$GLGSV,3,3,09,85,29,346,20*59
$GNGLL,0419.86838,S,05539.77172,E,130750.00,A,A*65
$GNGRS,130750.00,1,-4.9,2.8,-9.0,2.8,3.3,-9.6,0.3,21.3,22.0,,,*5B
$GNGRS,130750.00,1,0.3,2.0,-11.4,5.1,0.1,,,,,,,*63
$GNGST,130750.00,44,,,,3.7,3.6,8.7*47
$GNZDA,130750.00,26,05,2025,00,00*7C
$GNGBS,130750.00,3.7,3.6,8.7,,,,*51
$GPGSV,5,5,17,50,10,089,*4A
$GLGSV,3,1,09,70,24,335,,71,28,283,23,72,07,238,,73,23,162,21*66
$GLGSV,3,2,09,74,07,205,,80,16,107,21,83,33,142,31,84,72,049,15*6A
$GLGSV,3,3,09,85,29,346,19*53
$GNGLL,0419.86853,S,05539.77173,E,130754.00,A,A*6D
$GNGRS,130754.00,1,-6.7,2.0,-1.9,6.4,1.8,-5.0,1.5,19.3,,,,*43
$GNGRS,130754.00,1,1.8,2.3,-15.1,3.4,-0.3,,,,,,,*43
$GNGST,130754.00,40,,,,3.5,3.5,8.6*47
$GNZDA,130754.00,26,05,2025,00,00*78
$GNGBS,130754.00,3.5,3.5,8.6,,,,*55
IJPk
S!(TH1UZ`bH$GNRMC,130755.00,A,0419.86851,S,05539.77179,E,0.060,,260525,,,A*7D
$GNVTG,,T,,M,0.060,N,0.111,K,A*3A
$GNGNS,130755.00,0419.86851,S,05539.77179,E,AA,14,0.68,23.6,-47.6,,*6F
$GNGGA,130755.00,0419.86851,S,05539.77179,E,1,12,0.68,23.6,M,-47.6,M,,*43
$GNGSA,A,3,28,31,27,26,32,18,08,16,10,,,,1.41,0.68,1.23*19
$GNGSA,A,3,84,83,71,85,80,,,,,,,,1.41,0.68,1.23*12
$GPGSV,5,1,17,02,08,333,,04,11,230,,08,27,297,23,10,13,029,21*7C
$GPGSV,5,2,17,16,24,211,21,18,26,120,29,23,01,067,,26,29,180,24*7C
$GPGSV,5,3,17,27,56,261,34,28,60,094,31,31,59,160,34,32,29,009,35*75
$GPGSV,5,4,17,36,52,277,,40,84,353,39,41,58,082,36,49,32,274,*73
$GPGSV,5,5,17,50,10,089,*4A
$GLGSV,3,1,09,70,24,335,,71,28,283,22,72,07,238,,73,23,162,20*66
$GLGSV,3,2,09,74,07,205,,80,16,107,20,83,33,142,31,84,72,049,15*6B
$GLGSV,3,3,09,85,29,346,18*52
$GNGLL,0419.86851,S,05539.77179,E,130755.00,A,A*64
$GNGRS,130755.00,1,-2.6,3.0,-6.9,7.1,3.1,-3.7,2.1,17.3,16.0,,,*5F
$GNGRS,130755.00,1,2.7,0.4,-14.5,4.9,-0.3,,,,,,,*44
$GNGST,130755.00,43,,,,3.5,3.5,8.5*46
$GNZDA,130755.00,26,05,2025,00,00*79
$GNGBS,130755.00,3.5,3.5,8.5,,,,*57
b0L0M)-
xnCK!8<^!; "{4'Ta#:R 
YvFOGHIJPkD
S!TH1QUZAb0$GNRMC,130756.00,A,0419.86852,S,05539.77177,E,0.180,,260525,,,A*7C
$GNVTG,,T,,M,0.180,N,0.333,K,A*37
$GNGNS,130756.00,0419.86852,S,05539.77177,E,AA,14,0.68,23.5,-47.6,,*62
$GNGGA,130756.00,0419.86852,S,05539.77177,E,1,12,0.68,23.5,M,-47.6,M,,*4E
$GNGSA,A,3,28,31,27,26,32,18,08,16,10,,,,1.41,0.68,1.23*19
$GNGSA,A,3,84,83,71,85,80,,,,,,,,1.41,0.68,1.23*12
$GPGSV,5,1,17,02,08,333,,04,11,230,,08,27,297,22,10,13,029,24*78
$GPGSV,5,2,17,16,24,211,22,18,26,120,30,23,01,067,,26,29,180,25*76
$GPGSV,5,3,17,27,56,261,33,28,60,094,30,31,59,160,33,32,29,009,34*75
$GPGSV,5,4,17,36,52,277,,40,84,353,39,41,58,082,35,49,32,274,*70
$GPGSV,5,5,17,50,10,089,*4A
$GLGSV,3,1,09,70,24,335,,71,28,283,20,72,07,238,,73,23,162,17*60
$GLGSV,3,2,09,74,07,205,,80,16,107,19,83,33,142,30,84,72,049,16*63
$GLGSV,3,3,09,85,29,346,16*5C
$GNGLL,0419.86852,S,05539.77177,E,130756.00,A,A*6A
$GNGRS,130756.00,1,-1.1,5.3,-6.4,8.4,2.1,-9.1,3.0,15.3,3.9,,,*68
$GNGRS,130756.00,1,3.4,6.6,-13.6,8.3,0.7,,,,,,,*6A
$GNGST,130756.00,44,,,,3.4,3.5,8.5*43
$GNZDA,130756.00,26,05,2025,00,00*7A
$GNGBS,130756.00,3.4,3.5,8.5,,,,*55
$GNTXT,01,01,01,More than 100 frame errors, UART RX was disabled*70
$GNTXT,01,01,01,More than 100 frame errors, UART RX was disabled*70
$GNTXT,01,01,01,More than 100 frame errors, UART RX was disabled*70
b0LM)z
Sx_C8<^; "}{4#Ta":R 
YvFOGHIJPk
S!3TH1YUZbq$GNRMC,130759.00,A,0419.86865,S,05539.77168,E,0.082,,260525,,,A*7A
$GNVTG,,T,,M,0.082,N,0.152,K,A*31
$GNGNS,130759.00,0419.86865,S,05539.77168,E,AA,14,0.68,22.8,-47.6,,*6B
$GNGGA,130759.00,0419.86865,S,05539.77168,E,1,12,0.68,22.8,M,-47.6,M,,*47
$GNGSA,A,3,28,31,27,26,32,18,08,16,10,,,,1.41,0.68,1.23*19
$GNGSA,A,3,84,83,71,85,80,,,,,,,,1.41,0.68,1.23*12
$GPGSV,5,1,17,02,08,333,,04,11,230,,08,27,297,23,10,13,029,25*78
$GPGSV,5,2,17,16,24,211,21,18,26,120,30,23,01,067,,26,29,180,23*73
$GPGSV,5,3,17,27,56,261,31,28,60,094,30,31,59,160,27,32,29,009,34*72
$GPGSV,5,4,17,36,52,277,,40,84,353,35,41,58,082,34,49,32,274,*7D
$GPGSV,5,5,17,50,10,089,*4A
$GLGSV,3,1,09,70,24,335,,71,28,283,22,72,07,238,,73,23,162,17*62
$GLGSV,3,2,09,74,07,205,,80,16,107,18,83,33,142,30,84,72,049,16*62
$GLGSV,3,3,09,85,29,346,19*53
$GNGLL,0419.86865,S,05539.77168,E,130759.00,A,A*6F
$GNGRS,130759.00,1,-2.5,7.5,-5.4,7.9,1.2,-6.7,3.8,13.6,2.9,,,*66
$GNGRS,130759.00,1,-1.7,10.7,-10.6,9.7,1.9,,,,,,,*76
$GNGST,130759.00,41,,,,3.2,3.5,8.3*49
$GNZDA,130759.00,26,05,2025,00,00*75
$GNGBS,130759.00,3.2,3.5,8.3,,,,*5A
$GNTXT,01,01,01,More than 100 frame errors, UART RX was disabled*70
$GNTXT,01,01,01,More than 100 frame errors, UART RX was disabled*70
$GNVTG,,T,,M,0.084,N,0.156,K,D*36
$GNGNS,130803.00,0419.86862,S,05539.77183,E,DA,14,0.70,23.1,-47.6,,0000*6D
$GNGGA,130803.00,0419.86862,S,05539.77183,E,2,12,0.70,23.1,M,-47.6,M,,0000*47
$GNGSA,A,3,28,31,27,26,32,18,08,16,10,,,,1.62,0.70,1.46*12
$GNGSA,A,3,84,83,71,85,80,,,,,,,,1.62,0.70,1.46*19
$GPGSV,5,1,17,02,08,333,,04,11,230,,08,27,297,22,10,13,029,17*78
$GPGSV,5,2,17,16,24,211,23,18,26,120,30,23,01,067,,26,29,180,20*72
$GPGSV,5,3,17,27,56,261,32,28,60,094,31,31,59,160,33,32,29,009,33*72
$GPGSV,5,4,17,36,52,277,,40,84,353,38,41,58,082,36,49,32,274,*72
$GNTXT,01,01,01,More than 100 frame errors, UART RX was disabled*70
$GPGSV,5,5,17,50,10,089,*4A
$GLGSV,3,1,09,70,24,335,,71,28,283,23,72,07,238,,73,23,162,21*66
$GLGSV,3,2,09,74,07,205,,80,16,107,12,83,33,143,29,84,73,051,17*68
$GLGSV,3,3,09,85,30,346,15*57
$GNGLL,0419.86862,S,05539.77183,E,130803.00,A,D*68
$GNGRS,130803.00,1,3.8,6.2,-3.0,2.0,6.2,-5.5,0.3,4.3,0.4,,,*7D
$GNGRS,130803.00,1,-31.9,12.3,-10.5,17.6,4.5,,,,,,,*79
$GNGST,130803.00,44,,,,3.2,3.5,8.4*4B
$GNZDA,130803.00,26,05,2025,00,00*75
$GNGBS,130803.00,3.2,3.5,8.4,,,,*5D
b0Lp!M)
xC 8@<^E ;| "^{4'Ta$:R 
YvFOG5HIJPk
S!TI3;UZ6bp!&$GNRMC,130804.00,A,0419.86858,S,05539.77190,E,0.112,,260525,,,D*79
$GNVTG,,T,,M,0.112,N,0.208,K,D*30
$GNGNS,130804.00,0419.86858,S,05539.77190,E,DA,13,0.72,23.3,-47.6,,0000*66
$GNGGA,130804.00,0419.86858,S,05539.77190,E,2,12,0.72,23.3,M,-47.6,M,,0000*4B
$GNGSA,A,3,28,31,27,26,32,18,08,16,10,,,,1.51,0.72,1.32*13
$GNGSA,A,3,84,83,71,85,,,,,,,,,1.51,0.72,1.32*10
$GPGSV,5,1,17,02,08,333,,04,11,230,,08,27,297,22,10,13,029,18*77
$GPGSV,5,2,17,16,24,211,25,18,26,120,30,23,01,067,,26,29,180,22*76
$GPGSV,5,3,17,27,56,261,32,28,60,094,30,31,59,160,32,32,29,009,34*75
$GPGSV,5,4,17,36,52,277,,40,84,353,39,41,58,082,36,49,32,274,*73
$GPGSV,5,5,17,50,10,089,*4A
$GLGSV,3,1,09,70,24,335,,71,28,283,23,72,07,238,,73,23,162,23*64
$GLGSV,3,2,09,74,07,205,,80,16,107,09,83,33,143,30,84,73,051,17*6A
$GLGSV,3,3,09,85,30,346,17*55
$GNGLL,0419.86858,S,05539.77190,E,130804.00,A,D*64
$GNGRS,130804.00,1,8.4,6.4,0.6,5.2,3.5,-5.1,-1.2,2.4,-0.5,,,*50
$GNGRS,130804.00,1,0.6,10.1,-9.7,16.9,,,,,,,,*75
$GNGST,130804.00,3299292,,,,3.2,3.5,8.3*73
$GNZDA,130804.00,26,05,2025,00,00*72
$GNGBS,130804.00,3.2,3.5,8.3,,,,*5D
$GNTXT,01,01,01,More than 100 frame errors, UART RX was disabled*70
b0LX%M)0
x~C 8<^R!; "I{4'Ta$:R 
YvFFOGsHIJPk
S!ATI3UZ"bX%*D$GNRMC,130805.00,A,0419.86855,S,05539.77195,E,0.091,,260525,,,D*7A
$GNVTG,,T,,M,0.091,N,0.168,K,D*3F
$GNGNS,130805.00,0419.86855,S,05539.77195,E,DA,14,0.68,23.5,-47.6,,0000*65
$GNGGA,130805.00,0419.86855,S,05539.77195,E,2,12,0.68,23.5,M,-47.6,M,,0000*4F
$GNGSA,A,3,28,31,27,26,32,18,08,16,10,,,,1.41,0.68,1.23*19
$GNGSA,A,3,84,83,71,85,80,,,,,,,,1.41,0.68,1.23*12
$GPGSV,5,1,17,02,08,333,,04,11,230,,08,27,297,22,10,13,029,18*77
$GPGSV,5,2,17,16,24,211,26,18,26,120,31,23,01,067,,26,29,180,24*72
$GPGSV,5,3,17,27,56,261,32,28,60,094,30,31,59,160,33,32,29,009,34*74
$GPGSV,5,4,17,36,52,277,,40,84,353,39,41,58,082,36,49,32,274,*73
$GPGSV,5,5,17,50,10,089,*4A
$GNTXT,01,01,01,More than 100 frame errors, UART RX was disabled*70
$GLGSV,3,1,09,70,24,335,,71,28,283,24,72,07,238,,73,23,162,23*63
$GLGSV,3,2,09,74,07,205,,80,16,107,12,83,33,143,30,84,73,051,13*64
$GLGSV,3,3,09,85,30,346,16*54
$GNGLL,0419.86855,S,05539.77195,E,130805.00,A,D*6D
$GNGRS,130805.00,1,8.5,6.8,2.1,4.5,3.3,-1.3,0.5,-4.9,-2.7,,,*52
$GNGRS,130805.00,1,0.2,13.5,-9.1,17.4,4.1,,,,,,,*56
$GNGST,130805.00,3180286,,,,3.2,3.5,8.3*7C
$GNZDA,130805.00,26,05,2025,00,00*73
$GNGBS,130805.00,3.2,3.5,8.3,,,,*5C
b0L4M)
_xC8<^!; $,{4'Ta$:R 
YvFOGHIJPk
S!TI3UZ_7b49$GNRMC,130809.00,A,0419.86838,S,05539.77219,E,0.080,,260525,,,D*7A
$GNVTG,,T,,M,0.080,N,0.148,K,D*3D
$GNGNS,130809.00,0419.86838,S,05539.77219,E,DA,14,0.72,24.7,-47.6,,0000*6B
$GNGGA,130809.00,0419.86838,S,05539.77219,E,2,12,0.72,24.7,M,-47.6,M,,0000*41
$GNGSA,A,3,28,31,27,26,32,18,08,16,10,,,,1.51,0.72,1.32*13
$GNGSA,A,3,84,83,71,85,80,,,,,,,,1.51,0.72,1.32*18
$GPGSV,5,1,17,02,08,333,,04,11,230,,08,27,297,21,10,13,029,22*7D
$GPGSV,5,2,17,16,24,211,24,18,26,120,31,23,01,067,,26,29,180,23*77
b0LDM(=
oxC!83!<^ ; "{{4'Ta%:R 
YvFOG,HIJPkY
S!(TI38UZbDEIAr$GNRMC,130813.00,A,0419.86811,S,05539.77246,E,0.045,,260525,,,D*79
$GNVTG,,T,,M,0.045,N,0.083,K,D*32
$GNGNS,130813.00,0419.86811,S,05539.77246,E,DA,14,0.68,25.6,-47.6,,0000*6A
$GNGGA,130813.00,0419.86811,S,05539.77246,E,2,12,0.68,25.6,M,-47.6,M,,0000*40
$GNGSA,A,3,28,31,27,26,32,18,08,16,10,,,,1.41,0.68,1.23*19
$GNGSA,A,3,84,83,71,85,80,,,,,,,,1.41,0.68,1.23*12
$GPGSV,5,1,17,02,08,333,,04,11,230,,08,27,296,23,10,13,029,19*76
$GPGSV,5,2,17,16,24,211,23,18,26,120,31,23,01,067,,26,29,180,24*77
$GPGSV,5,3,17,27,56,261,33,28,60,094,33,31,59,160,32,32,29,009,34*77
$GPGSV,5,4,17,36,52,277,,40,84,353,39,41,58,082,37,49,32,274,*72
$GPGSV,5,5,17,50,10,089,*4A
$GLGSV,3,1,09,70,24,335,,71,28,283,25,72,07,238,,73,23,162,21*60
$GLGSV,3,2,09,74,07,205,,80,16,107,11,83,33,143,30,84,73,051,17*63
$GLGSV,3,3,09,85,30,346,14*56
$GNGLL,0419.86811,S,05539.77246,E,130813.00,A,D*67
$GNTXT,01,01,01,More than 100 frame errors, UART RX was disabled*70
$GNGRS,130813.00,1,0.0,7.4,0.5,10.4,6.4,-5.0,10.8,-10.6,-14.2,,,*56
$GNGRS,130813.00,1,0.6,10.6,-12.4,4.0,6.0,,,,,,,*5F
$GNGST,130813.00,4496177,,,,2.9,3.3,7.9*7A
$GNZDA,130813.00,26,05,2025,00,00*74
$GNGBS,130813.00,2.9,3.3,7.9,,,,*52
b0LHM(

~xUC!8; <^!; #%{4'Ta%:R 
YvFOGHIJPkG
S!TI3UZcbbH-M$GNRMC,130814.00,A,0419.86807,S,05539.77253,E,0.096,,260525,,,D*73
$GNVTG,,T,,M,0.096,N,0.178,K,D*39
$GNGNS,130814.00,0419.86807,S,05539.77253,E,DA,14,0.68,25.9,-47.6,,0000*61
$GNGGA,130814.00,0419.86807,S,05539.77253,E,2,12,0.68,25.9,M,-47.6,M,,0000*4B
$GNTXT,01,01,01,More than 100 frame errors, UART RX was disabled*70
$GNGSA,A,3,28,31,27,26,32,18,08,16,10,,,,1.41,0.68,1.23*19
$GNGSA,A,3,84,83,71,85,80,,,,,,,,1.41,0.68,1.23*12
$GPGSV,5,1,17,02,08,333,,04,11,230,,08,27,296,23,10,13,029,19*76
$GPGSV,5,2,17,16,24,211,24,18,26,120,31,23,01,067,,26,29,180,24*70
$GPGSV,5,3,17,27,56,261,33,28,60,094,32,31,59,160,33,32,29,009,35*76
$GPGSV,5,4,17,36,52,277,,40,84,353,39,41,58,082,37,49,32,274,*72
$GPGSV,5,5,17,50,10,089,*4A
$GLGSV,3,1,09,70,24,335,,71,28,283,25,72,07,238,,73,23,162,20*61
$GLGSV,3,2,09,74,07,205,,80,16,107,11,83,33,143,30,84,73,051,17*63
$GLGSV,3,3,09,85,30,346,13*51
$GNGLL,0419.86807,S,05539.77253,E,130814.00,A,D*63
$GNGRS,130814.00,1,-0.1,6.8,-2.0,10.2,5.5,-6.8,10.3,-11.5,-12.6,,,*5E
$GNGRS,130814.00,1,0.1,9.6,-13.5,1.0,5.8,,,,,,,*69
$GNGST,130814.00,4496177,,,,2.9,3.3,7.9*7D
$GNZDA,130814.00,26,05,2025,00,00*73
$GNGBS,130814.00,2.9,3.3,7.9,,,,*55
$GNGSA,A,3,28,31,27,26,32,18,08,16,10,,,,1.42,0.71,1.23*12
$GNGSA,A,3,84,83,71,80,,,,,,,,,1.42,0.71,1.23*14
$GNTXT,01,01,01,More than 100 frame errors, UART RX was disabled*70
$GPGSV,5,1,17,02,08,333,,04,11,230,,08,27,296,22,10,13,029,19*77
$GPGSV,5,2,17,16,24,211,24,18,26,120,32,23,01,067,,26,29,180,25*72
$GPGSV,5,3,17,27,56,261,33,28,60,094,31,31,59,160,35,32,29,009,36*70
$GPGSV,5,4,17,36,52,277,,40,84,353,39,41,58,082,36,49,32,274,*73
$GPGSV,5,5,17,50,10,089,*4A
$GLGSV,3,1,09,70,24,335,,71,28,283,25,72,07,238,,73,23,162,18*6A
$GLGSV,3,2,09,74,07,205,,80,16,107,09,83,33,143,30,84,73,051,18*65
$GLGSV,3,3,09,85,30,346,10*52
$GNGLL,0419.86800,S,05539.77260,E,130816.00,A,D*66
$GNGRS,130816.00,1,1.3,5.4,1.0,7.9,3.5,-5.0,15.8,-13.6,-13.9,,,*62
$GNGRS,130816.00,1,0.5,5.0,-12.6,5.9,,,,,,,,*49
$GNGST,130816.00,3299776,,,,2.9,3.3,7.8*77
$GNZDA,130816.00,26,05,2025,00,00*71
$GNGBS,130816.00,2.9,3.3,7.8,,,,*56
b0L8TM(
 xmC"8e <^
#; #T{4'Ta$:R 
YvFOGHIJPk6
S!zTI3UZ,b8TX$GNRMC,130817.00,A,0419.86795,S,05539.77266,E,0.016,,260525,,,D*7A
$GNVTG,,T,,M,0.016,N,0.030,K,D*3C
$GNGNS,130817.00,0419.86795,S,05539.77266,E,DA,13,0.77,27.2,-47.6,,0000*60
$GNGGA,130817.00,0419.86795,S,05539.77266,E,2,12,0.77,27.2,M,-47.6,M,,0000*4D
$GNGSA,A,3,28,31,27,26,32,18,08,16,10,,,,1.47,0.77,1.25*17
$GNGSA,A,3,84,83,71,80,,,,,,,,,1.47,0.77,1.25*11
$GPGSV,5,1,17,02,08,333,,04,11,230,,08,27,296,22,10,13,029,18*76
$GPGSV,5,2,17,16,24,211,25,18,26,120,32,23,01,067,,26,29,180,25*73
$GPGSV,5,3,17,27,56,261,34,28,60,094,32,31,59,160,35,32,29,009,35*77
$GPGSV,5,4,17,36,52,277,,40,84,353,39,41,58,082,36,49,32,274,*73
$GPGSV,5,5,17,50,10,089,*4A
$GLGSV,3,1,09,70,24,335,,71,28,283,25,72,07,238,,73,23,162,17*65
$GLGSV,3,2,09,74,07,205,,80,16,107,17,83,33,143,30,84,73,051,16*64
$GLGSV,3,3,09,85,30,346,09*5A
$GNGLL,0419.86795,S,05539.77266,E,130817.00,A,D*62
$GNGRS,130817.00,1,2.7,4.6,1.0,9.3,3.4,-6.6,20.7,-11.4,-10.9,,,*6D
$GNGRS,130817.00,1,-0.5,3.8,-12.7,5.7,,,,,,,,*64
$GNGST,130817.00,3434011,,,,2.8,3.3,7.8*70
$GNZDA,130817.00,26,05,2025,00,00*70
$GNGBS,130817.00,2.8,3.3,7.8,,,,*56
$GNGSA,A,3,28,31,27,26,32,18,08,16,10,,,,1.47,0.77,1.25*17
$GNGSA,A,3,84,83,71,80,,,,,,,,,1.47,0.77,1.25*11
$GPGSV,5,1,17,02,08,333,,04,11,230,,08,27,296,21,10,13,029,16*7B
$GPGSV,5,2,17,16,24,211,24,18,26,120,32,23,01,067,,26,29,180,24*73
$GPGSV,5,3,17,27,56,261,33,28,60,094,31,31,59,160,34,32,29,009,35*72
$GPGSV,5,4,17,36,52,277,,40,84,353,38,41,58,082,37,49,32,274,*73
$GPGSV,5,5,17,50,10,089,*4A
$GLGSV,3,1,09,70,24,335,,71,28,283,26,72,07,238,,73,23,162,17*66
$GLGSV,3,2,09,74,07,205,,80,16,107,17,83,33,143,31,84,73,051,17*64
$GLGSV,3,3,09,85,30,346,08*5B
$GNGLL,0419.86791,S,05539.77272,E,130818.00,A,D*6C
$GNGRS,130818.00,1,0.4,4.6,0.7,10.0,3.4,-4.7,22.7,-11.5,-12.1,,,*54
$GNGRS,130818.00,1,-0.9,4.7,-12.3,8.8,,,,,,,,*69
$GNGST,130818.00,45,,,,2.8,3.3,7.8*4E
$GNZDA,130818.00,26,05,2025,00,00*7F
$GNGBS,130818.00,2.8,3.3,7.8,,,,*59
b0L\M(
xC 8t<^"; #T{4'Ta%:R 
YvFOGHIJPkR
S!TI3UZYb\`P$GNRMC,130819.00,A,0419.86786,S,05539.77282,E,0.081,,260525,,,D*72
$GNVTG,,T,,M,0.081,N,0.150,K,D*35
$GNGNS,130819.00,0419.86786,S,05539.77282,E,DA,13,0.77,27.9,-47.6,,0000*6D
$GNGGA,130819.00,0419.86786,S,05539.77282,E,2,12,0.77,27.9,M,-47.6,M,,0000*40
$GNGSA,A,3,28,31,27,26,32,18,08,16,10,,,,1.47,0.77,1.25*17
$GNGSA,A,3,84,83,71,80,,,,,,,,,1.47,0.77,1.25*11
$GPGSV,5,1,17,02,08,333,,04,11,230,,08,27,296,20,10,13,029,14*78
$GPGSV,5,2,17,16,24,211,23,18,26,120,31,23,01,067,,26,29,180,24*77
$GPGSV,5,3,17,27,56,261,32,28,60,094,31,31,59,160,34,32,29,009,35*73
$GPGSV,5,4,17,36,52,277,,40,84,353,39,41,58,082,37,49,32,274,*72
$GPGSV,5,5,17,50,10,089,*4A
$GLGSV,3,1,09,70,24,335,,71,28,283,27,72,07,238,,73,23,162,18*68
$GLGSV,3,2,09,74,07,205,,80,16,107,17,83,33,143,31,84,73,051,18*6B
$GLGSV,3,3,09,85,30,346,08*5B
$GNGLL,0419.86786,S,05539.77282,E,130819.00,A,D*64
$GNGRS,130819.00,1,0.0,4.5,-4.0,9.1,3.4,-3.1,24.4,-14.0,-12.7,,,*47
$GNGRS,130819.00,1,-0.5,3.9,-11.0,5.9,,,,,,,,*61
$GNGST,130819.00,38079,,,,2.8,3.3,7.8*7B
$GNZDA,130819.00,26,05,2025,00,00*7E
$GNGBS,130819.00,2.8,3.3,7.8,,,,*58
$GNTXT,01,01,01,More than 100 frame errors, UART RX was disabled*70
$GNTXT,01,01,01,More than 100 frame errors, UART RX was disabled*70
b0L_M( 
x C8O<^p"; $Z{4'Ta%:R 
YvFOGHIJPk2
S!TI3UZb_d'8$GNRMC,130820.00,A,0419.86783,S,05539.77293,E,0.053,,260525,,,D*72
$GNVTG,,T,,M,0.053,N,0.099,K,D*3E
$GNGNS,130820.00,0419.86783,S,05539.77293,E,DA,13,0.77,28.1,-47.6,,0000*65
$GNGGA,130820.00,0419.86783,S,05539.77293,E,2,12,0.77,28.1,M,-47.6,M,,0000*48
$GNGSA,A,3,28,31,27,26,32,18,08,16,10,,,,1.47,0.77,1.25*17
$GNGSA,A,3,84,83,71,80,,,,,,,,,1.47,0.77,1.25*11
$GPGSV,5,1,17,02,08,333,,04,11,230,,08,27,296,21,10,13,029,11*7C
$GPGSV,5,2,17,16,24,211,23,18,26,120,31,23,01,067,,26,29,180,23*70
$GPGSV,5,3,17,27,56,261,31,28,60,094,31,31,59,160,34,32,29,009,36*73
$GPGSV,5,4,17,36,52,277,,40,84,353,39,41,58,082,37,49,32,274,*72
$GPGSV,5,5,17,50,10,089,*4A
$GLGSV,3,1,09,70,24,335,,71,28,283,26,72,07,238,,73,23,162,20*62
$GLGSV,3,2,09,74,07,205,,80,16,107,17,83,33,143,30,84,73,051,17*65
$GLGSV,3,3,09,85,30,346,08*5B
$GNGLL,0419.86783,S,05539.77293,E,130820.00,A,D*6B
$GNGRS,130820.00,1,1.1,4.2,-4.3,7.5,3.5,-2.2,20.8,-13.7,-13.5,,,*4B
$GNGRS,130820.00,1,-0.3,10.0,-11.5,5.6,,,,,,,,*5C
$GNGST,130820.00,55387,,,,2.8,3.2,7.7*76
$GNZDA,130820.00,26,05,2025,00,00*74
$GNGBS,130820.00,2.8,3.2,7.7,,,,*5C
$GNTXT,01,01,01,More than 100 frame errors, UART RX was disabled*70
b0LcM(L
7}xC8<^Y!;{ "I{4&Ta$:R 
Yv0FOGKHIJPk
S!aTI3UZtbch$GNRMC,130821.00,A,0419.86782,S,05539.77297,E,0.027,,260525,,,D*75
$GNVTG,,T,,M,0.027,N,0.050,K,D*38
$GNGNS,130821.00,0419.86782,S,05539.77297,E,DA,14,0.68,28.2,-47.6,,0000*6B
$GNGGA,130821.00,0419.86782,S,05539.77297,E,2,12,0.68,28.2,M,-47.6,M,,0000*41
$GNGSA,A,3,28,31,27,26,32,18,08,16,10,,,,1.41,0.68,1.23*19
$GNGSA,A,3,84,83,71,85,80,,,,,,,,1.41,0.68,1.23*12
$GPGSV,5,1,17,02,08,333,,04,11,230,,08,27,296,20,10,13,029,12*7E
$GPGSV,5,2,17,16,24,210,22,18,26,120,30,23,01,067,,26,29,180,22*70
$GPGSV,5,3,17,27,56,261,31,28,60,094,31,31,59,160,33,32,29,009,34*76
$GPGSV,5,4,17,36,52,277,,40,84,353,38,41,58,082,36,49,32,274,*72
$GPGSV,5,5,17,50,10,089,*4A
$GLGSV,3,1,09,70,24,335,,71,28,283,26,72,07,238,,73,23,162,20*62
$GLGSV,3,2,09,74,07,205,,80,16,107,15,83,33,143,30,84,73,051,17*67
$GLGSV,3,3,09,85,30,346,13*51
$GNGLL,0419.86782,S,05539.77297,E,130821.00,A,D*6F
$GNGRS,130821.00,1,0.9,3.8,-2.8,9.5,3.3,-4.8,18.7,-11.6,-12.3,,,*47
$GNGRS,130821.00,1,0.2,8.7,-12.0,3.7,5.2,,,,,,,*67
$GNGST,130821.00,50,,,,2.8,3.2,7.7*4E
$GNZDA,130821.00,26,05,2025,00,00*75
$GNGBS,130821.00,2.8,3.2,7.7,,,,*5D
$GNTXT,01,01,01,More than 100 frame errors, UART RX was disabled*70
b0LgM(
xCT8q<^!;b  -{4%Ta$:R 
YvnFOG HIJPk
S!?TI3UZebgml$GNRMC,130822.00,A,0419.86781,S,05539.77305,E,0.135,,260525,,,D*7D
$GNVTG,,T,,M,0.135,N,0.249,K,D*30
$GNGNS,130822.00,0419.86781,S,05539.77305,E,DA,14,0.68,28.4,-47.6,,0000*67
$GNGGA,130822.00,0419.86781,S,05539.77305,E,2,12,0.68,28.4,M,-47.6,M,,0000*4D
$GNGSA,A,3,28,31,27,26,32,18,08,16,10,,,,1.41,0.68,1.23*19
$GNGSA,A,3,84,83,71,85,80,,,,,,,,1.41,0.68,1.23*12
$GPGSV,5,1,17,02,08,333,,04,11,230,,08,27,296,19,10,13,029,11*77
$GPGSV,5,2,17,16,24,210,19,18,26,120,29,23,01,067,,26,29,180,21*73
$GPGSV,5,3,17,27,56,261,31,28,60,094,31,31,59,160,33,32,29,009,32*70
$GPGSV,5,4,17,36,52,277,,40,84,353,37,41,58,082,36,49,32,274,*7D
$GPGSV,5,5,17,50,10,089,*4A
$GLGSV,3,1,09,70,24,335,,71,28,283,25,72,07,238,,73,23,162,18*6A
$GLGSV,3,2,09,74,07,205,,80,16,107,18,83,33,143,29,84,73,051,16*63
$GLGSV,3,3,09,85,30,346,13*51
$GNGLL,0419.86781,S,05539.77305,E,130822.00,A,D*65
$GNTXT,01,01,01,More than 100 frame errors, UART RX was disabled*70
b0LoM(
x/C!8 <^C ;2  {4$Ta#:R 
YvFOGHIJPk
S!RTI3UZbo=t$GNRMC,130824.00,A,0419.86776,S,05539.77316,E,0.142,,260525,,,D*71
$GNVTG,,T,,M,0.142,N,0.262,K,D*39
$GNGNS,130824.00,0419.86776,S,05539.77316,E,DA,13,0.74,28.6,-47.6,,0000*63
$GNGGA,130824.00,0419.86776,S,05539.77316,E,2,12,0.74,28.6,M,-47.6,M,,0000*4E
$GNGSA,A,3,28,31,27,26,32,18,08,16,,,,,1.52,0.74,1.33*16
$GNGSA,A,3,84,83,71,85,80,,,,,,,,1.52,0.74,1.33*1C
$GPGSV,5,1,17,02,08,333,,04,11,230,,08,27,296,15,10,13,029,08*73
$GPGSV,5,2,17,16,24,210,16,18,26,120,28,23,01,067,,26,29,180,20*7C
$GPGSV,5,3,17,27,56,261,33,28,60,094,32,31,59,160,32,32,29,009,32*70
$GPGSV,5,4,17,36,52,277,,40,84,353,36,41,58,082,35,49,32,274,*7F
$GPGSV,5,5,17,50,10,089,*4A
$GLGSV,3,1,09,70,24,335,,71,28,283,25,72,07,238,,73,23,162,19*6B
$GLGSV,3,2,09,74,07,205,,80,16,107,21,83,33,143,29,84,73,051,16*69
$GLGSV,3,3,09,85,30,346,15*57
$GNGLL,0419.86776,S,05539.77316,E,130824.00,A,D*69
$GNGRS,130824.00,1,0.7,3.1,-1.3,10.3,2.6,-9.8,20.0,-12.6,,,,*46
$GNGRS,130824.00,1,-2.9,5.9,-13.2,-15.3,4.3,,,,,,,*58
$GNGST,130824.00,46,,,,2.9,3.3,7.8*43
$GNZDA,130824.00,26,05,2025,00,00*70
$GNGBS,130824.00,2.9,3.3,7.8,,,,*57
$GNTXT,01,01,01,More than 100 frame errors, UART RX was disabled*70
b0LxsM(q
x C>!8= <^p!; !{4(Ta%:R 
YvFOGHIJPk
S!$TI3<UZubxs%x_@$GNRMC,130825.00,A,0419.86775,S,05539.77318,E,0.042,,260525,,,D*7C
$GNVTG,,T,,M,0.042,N,0.077,K,D*3E
$GNGNS,130825.00,0419.86775,S,05539.77318,E,DA,13,0.74,28.4,-47.6,,0000*6D
$GNGGA,130825.00,0419.86775,S,05539.77318,E,2,12,0.74,28.4,M,-47.6,M,,0000*40
$GNGSA,A,3,28,31,27,26,32,18,08,16,,,,,1.52,0.74,1.33*16
$GNGSA,A,3,84,83,71,85,80,,,,,,,,1.52,0.74,1.33*1C
$GPGSV,5,1,17,02,08,333,,04,11,230,,08,27,296,15,10,13,029,07*7C
$GPGSV,5,2,17,16,24,210,18,18,26,120,28,23,01,067,,26,29,180,20*72
$GPGSV,5,3,17,27,56,261,33,28,60,094,32,31,59,160,33,32,29,009,33*70
$GPGSV,5,4,17,36,52,277,,40,84,353,40,41,58,082,37,49,32,274,*7C
$GPGSV,5,5,17,50,10,089,*4A
$GLGSV,3,1,09,70,24,335,,71,28,283,23,72,07,238,,73,23,162,17*63
$GLGSV,3,2,09,74,07,205,,80,16,107,19,83,33,143,28,84,73,051,15*60
$GLGSV,3,3,09,85,30,346,15*57
$GNGLL,0419.86775,S,05539.77318,E,130825.00,A,D*65
$GNGRS,130825.00,1,-4.0,2.9,-4.5,10.9,4.7,-4.8,19.0,-13.4,,,,*6A
$GNGRS,130825.00,1,-4.5,5.5,-13.1,8.0,4.1,,,,,,,*4C
$GNGST,130825.00,3299292,,,,2.9,3.3,7.8*78
$GNZDA,130825.00,26,05,2025,00,00*71
$GNGBS,130825.00,2.9,3.3,7.8,,,,*56
b0L`wM(
x@CB8M <^!; #'{4&Ta%:R 
Y
v:FOGHIJPk
S!tTI3=UZ3b`w|7$GNRMC,130826.00,A,0419.86769,S,05539.77322,E,0.086,,260525,,,D*73
$GNVTG,,T,,M,0.086,N,0.159,K,D*3B
$GNGNS,130826.00,0419.86769,S,05539.77322,E,DA,14,0.78,28.5,-47.6,,0000*60
$GNGGA,130826.00,0419.86769,S,05539.77322,E,2,12,0.78,28.5,M,-47.6,M,,0000*4A
$GNGSA,A,3,28,31,27,26,32,18,08,16,10,,,,1.57,0.78,1.36*1B
$GNGSA,A,3,84,83,71,85,80,,,,,,,,1.57,0.78,1.36*10
$GPGSV,5,1,17,02,08,333,,04,11,230,,08,27,296,14,10,13,029,15*7E
$GPGSV,5,2,17,16,24,210,22,18,26,120,28,23,01,067,,26,29,180,19*71
$GPGSV,5,3,17,27,56,261,31,28,60,094,32,31,59,160,33,32,29,009,35*74
$GPGSV,5,4,17,36,52,277,,40,84,353,38,41,58,082,37,49,32,274,*73
$GPGSV,5,5,17,50,10,089,*4A
$GLGSV,3,1,09,70,24,335,,71,28,283,22,72,07,238,,73,23,162,18*6D
$GLGSV,3,2,09,74,07,205,,80,16,107,20,83,33,143,30,84,73,051,17*61
$GLGSV,3,3,09,85,30,346,15*57
$GNGLL,0419.86769,S,05539.77322,E,130826.00,A,D*62
$GNGRS,130826.00,1,-3.7,2.6,3.3,10.9,5.5,-1.9,20.4,-13.9,22.3,,,*53
$GNGRS,130826.00,1,-4.5,1.2,-13.3,7.8,2.7,,,,,,,*49
$GNGST,130826.00,3434011,,,,2.9,3.3,7.8*73
$GNZDA,130826.00,26,05,2025,00,00*72
$GNGBS,130826.00,2.9,3.3,7.8,,,,*55
b0LH{M(6
x8D8_ <^c ; *{4#Ta#:R 
YvFOGHIJPk
S!TI3ZUZC bH{$GNRMC,130827.00,A,0419.86772,S,05539.77317,E,0.182,,260525,,,D*7B
$GNVTG,,T,,M,0.182,N,0.338,K,D*3B
$GNGNS,130827.00,0419.86772,S,05539.77317,E,DA,14,0.73,28.4,-47.6,,0000*67
$GNGGA,130827.00,0419.86772,S,05539.77317,E,2,12,0.73,28.4,M,-47.6,M,,0000*4D
$GNGSA,A,3,28,31,27,26,32,18,08,16,10,,,,1.44,0.73,1.25*10
$GNGSA,A,3,84,83,71,85,80,,,,,,,,1.44,0.73,1.25*1B
$GPGSV,5,1,17,02,08,333,,04,11,230,,08,27,296,12,10,13,029,15*78
$GPGSV,5,2,17,16,24,210,22,18,26,120,28,23,01,068,,26,29,180,20*74
$GPGSV,5,3,17,27,56,261,30,28,60,094,32,31,59,160,32,32,29,009,30*71
$GPGSV,5,4,17,36,52,277,,40,84,353,35,41,58,082,35,49,32,274,*7C
$GPGSV,5,5,17,50,10,089,*4A
$GLGSV,3,1,09,70,24,335,,71,28,283,21,72,07,238,,73,23,162,18*6E
$GLGSV,3,2,09,74,07,205,,80,16,107,20,83,33,143,30,84,73,051,17*61
$GLGSV,3,3,09,85,30,346,12*50
$GNTXT,01,01,01,More than 100 frame errors, UART RX was disabled*70
$GNTXT,01,01,01,More than 100 frame errors, UART RX was disabled*70
b0LM(S
xD8i<^; {4Ta:R 
Y
vBFOGHIJPk
S!TI3PUZb$GNRMC,130829.00,A,0419.86768,S,05539.77317,E,0.197,,260525,,,D*7A
$GNVTG,,T,,M,0.197,N,0.364,K,D*36
$GNGNS,130829.00,0419.86768,S,05539.77317,E,DA,13,0.76,28.4,-47.6,,0000*60
$GNGGA,130829.00,0419.86768,S,05539.77317,E,2,12,0.76,28.4,M,-47.6,M,,0000*4D
$GNGSA,A,3,28,31,27,26,32,18,16,10,,,,,1.46,0.76,1.25*1F
$GNGSA,A,3,84,83,71,85,80,,,,,,,,1.46,0.76,1.25*1C
$GPGSV,5,1,17,02,08,333,,04,11,230,,08,27,296,09,10,13,029,15*72
$GPGSV,5,2,17,16,24,210,21,18,26,120,26,23,01,068,,26,29,180,21*78
$GPGSV,5,3,17,27,56,261,29,28,60,094,28,31,59,160,29,32,29,009,29*70
$GPGSV,5,4,17,36,52,277,,40,84,353,31,41,58,082,31,49,32,274,*7C
$GPGSV,5,5,17,50,10,089,*4A
$GLGSV,3,1,09,70,24,335,,71,28,283,20,72,07,238,,73,23,162,18*6F
$GLGSV,3,2,09,74,07,205,,80,16,107,19,83,33,143,28,84,73,051,14*61
$GLGSV,3,3,09,85,30,346,13*51
$GNGLL,0419.86768,S,05539.77317,E,130829.00,A,D*6A
$GNGRS,130829.00,1,-2.8,1.7,11.3,9.1,4.4,-0.9,-11.0,22.0,,,,*42
$GNGRS,130829.00,1,-1.8,4.2,-13.6,7.7,4.1,,,,,,,*41
$GNGST,130829.00,93125,,,,2.9,3.3,7.9*71
$GNZDA,130829.00,26,05,2025,00,00*7D
$GNGBS,130829.00,2.9,3.3,7.9,,,,*5B
b0LM(
xD!8I!<^"; !{4%Ta$:R 
YvFOGHIJPk]
S !TI3UZ
bm$GNRMC,130831.00,A,0419.86766,S,05539.77314,E,0.157,,260525,,,D*72
$GNVTG,,T,,M,0.157,N,0.291,K,D*31
$GNGNS,130831.00,0419.86766,S,05539.77314,E,DA,11,0.85,28.0,-47.6,,0000*6E
b0LM(

xD!8f"<\:#;  {4&Ta%:R 
YvFOGHIJPkV
S!uTI3[UZNb}E$GNRMC,130832.00,A,0419.86763,S,05539.77323,E,0.227,,260525,,,D*74
$GNVTG,,T,,M,0.227,N,0.420,K,D*39
$GNGNS,130832.00,0419.86763,S,05539.77323,E,DA,11,0.85,27.9,-47.6,,0000*6A
$GNGGA,130832.00,0419.86763,S,05539.77323,E,2,11,0.85,27.9,M,-47.6,M,,0000*46
$GNGSA,A,3,28,31,27,26,32,18,16,,,,,,1.63,0.85,1.40*16
$GNGSA,A,3,84,83,71,80,,,,,,,,,1.63,0.85,1.40*19
$GPGSV,5,1,17,02,08,333,,04,11,230,,08,27,296,15,10,13,029,10*7A
$GPGSV,5,2,17,16,24,210,22,18,26,120,26,23,01,068,,26,29,179,19*76
$GPGSV,5,3,17,27,56,260,33,28,60,092,34,31,59,160,35,32,29,009,32*76
$GPGSV,5,4,17,36,52,277,,40,84,353,38,41,58,082,37,49,32,274,*73
$GPGSV,5,5,17,50,10,089,*4A
$GLGSV,3,1,09,70,24,335,,71,28,283,21,72,07,238,,73,23,162,17*61
$GLGSV,3,2,09,74,07,205,,80,16,107,18,83,33,143,31,84,73,051,18*64
$GLGSV,3,3,09,85,30,346,14*56
$GNGLL,0419.86763,S,05539.77323,E,130832.00,A,D*6C
$GNGRS,130832.00,1,-2.0,-2.4,-1.5,9.8,4.6,1.9,-10.9,,,,,*46
$GNGRS,130832.00,1,0.9,3.7,-11.5,3.4,,,,,,,,*49
$GNGST,130832.00,39,,,,3.0,3.4,7.9*42
$GNZDA,130832.00,26,05,2025,00,00*77
$GNGBS,130832.00,3.0,3.4,7.9,,,,*5E
b0LM(

xVD8<\`; {4!Ta!:R 
YvFOGHIJPk
S!TI3UZrbM$GNRMC,130834.00,A,0419.86762,S,05539.77339,E,0.241,,260525,,,D*78
$GNVTG,,T,,M,0.241,N,0.447,K,D*38
$GNGNS,130834.00,0419.86762,S,05539.77339,E,DA,13,0.79,27.7,-47.6,,0000*69
$GNGGA,130834.00,0419.86762,S,05539.77339,E,2,12,0.79,27.7,M,-47.6,M,,0000*44
$GNGSA,A,3,28,31,27,26,32,18,08,16,10,,,,1.56,0.79,1.35*18
$GNGSA,A,3,84,83,71,80,,,,,,,,,1.56,0.79,1.35*1E
$GPGSV,5,1,17,02,08,333,,04,11,230,,08,27,296,15,10,13,029,10*7A
$GPGSV,5,2,17,16,24,210,21,18,26,120,24,23,01,068,,26,29,179,19*77
$GPGSV,5,3,17,27,56,260,27,28,60,092,30,31,59,160,31,32,29,009,29*79
$GPGSV,5,4,17,36,52,277,,40,84,353,33,41,58,082,33,49,32,274,*7C
$GPGSV,5,5,17,50,10,089,*4A
$GLGSV,3,1,09,70,24,335,,71,28,283,21,72,07,238,,73,23,162,15*63
$GLGSV,3,2,09,74,07,205,,80,16,107,19,83,33,143,29,84,73,051,16*62
$GLGSV,3,3,09,85,30,346,*53
$GNGLL,0419.86762,S,05539.77339,E,130834.00,A,D*60
$GNGRS,130834.00,1,-1.6,-1.3,2.0,11.5,7.1,3.4,17.3,-6.2,22.3,,,*6F
$GNGRS,130834.00,1,0.2,9.8,-15.8,1.8,,,,,,,,*46
$GNGST,130834.00,443098,,,,3.0,3.4,8.0*4A
$GNZDA,130834.00,26,05,2025,00,00*71
$GNGBS,130834.00,3.0,3.4,8.0,,,,*5E
$GNTXT,01,01,01,More than 100 frame errors, UART RX was disabled*70
b0LpM(@


xD8 <\ ; 
{4#Ta":R 
YvFOG<HIJPk&
S!2TI3UZ/%bp$GNRMC,130836.00,A,0419.86756,S,05539.77346,E,0.202,,260525,,,D*72
$GNVTG,,T,,M,0.202,N,0.375,K,D*39
$GNGNS,130836.00,0419.86756,S,05539.77346,E,DA,13,0.85,28.0,-47.6,,0000*6F
$GNGGA,130836.00,0419.86756,S,05539.77346,E,2,12,0.85,28.0,M,-47.6,M,,0000*42
$GNGSA,A,3,28,31,27,26,32,18,08,16,10,,,,1.63,0.85,1.40*1F
$GNGSA,A,3,84,83,71,80,,,,,,,,,1.63,0.85,1.40*19
$GPGSV,5,1,17,02,08,333,,04,11,230,,08,27,296,15,10,13,029,10*7A
$GPGSV,5,2,17,16,24,210,19,18,26,120,24,23,01,068,,26,29,179,19*7C
$GPGSV,5,3,17,27,56,260,27,28,60,092,32,31,59,159,32,32,28,010,29*7B
$GPGSV,5,4,17,36,52,277,,40,84,353,35,41,58,082,34,49,32,274,*7D
$GPGSV,5,5,17,50,10,089,*4A
$GLGSV,3,1,09,70,24,335,,71,28,283,21,72,07,238,,73,23,162,14*62
$GLGSV,3,2,09,74,07,205,,80,16,107,18,83,33,143,28,84,73,051,14*60
$GLGSV,3,3,09,85,30,346,*53
$GNGLL,0419.86756,S,05539.77346,E,130836.00,A,D*6D
$GNGRS,130836.00,1,-1.1,1.7,8.0,9.5,5.2,4.1,26.2,-6.1,-49.1,,,*51
$GNGRS,130836.00,1,1.5,0.5,-19.9,0.4,,,,,,,,*46
$GNGST,130836.00,43,,,,3.1,3.5,8.2*4F
$GNZDA,130836.00,26,05,2025,00,00*73
$GNGBS,130836.00,3.1,3.5,8.2,,,,*5E
$GNTXT,01,01,01,More than 100 frame errors, UART RX was disabled*70
b0LXM(

xD_8<\ ; 
{4#Ta#:R 
YvFOGHIJPkZ
S!%TI3UZAbX}$GNRMC,130837.00,A,0419.86753,S,05539.77343,E,0.149,,260525,,,D*7F
$GNVTG,,T,,M,0.149,N,0.275,K,D*34
$GNGNS,130837.00,0419.86753,S,05539.77343,E,DA,13,0.79,28.0,-47.6,,0000*6D
$GNGGA,130837.00,0419.86753,S,05539.77343,E,2,12,0.79,28.0,M,-47.6,M,,0000*40
$GNGSA,A,3,28,31,27,26,32,18,08,16,10,,,,1.56,0.79,1.35*18
$GNGSA,A,3,84,83,71,80,,,,,,,,,1.56,0.79,1.35*1E
$GPGSV,5,1,17,02,08,333,,04,11,230,,08,27,296,15,10,13,029,10*7A
$GPGSV,5,2,17,16,24,210,19,18,26,120,23,23,01,068,,26,29,179,19*7B
$GPGSV,5,3,17,27,56,260,27,28,60,092,31,31,59,159,32,32,28,010,29*78
$GPGSV,5,4,17,36,52,277,,40,84,353,35,41,58,082,35,49,32,274,*7C
$GPGSV,5,5,17,50,10,089,*4A
$GLGSV,3,1,09,70,24,335,,71,28,283,19,72,07,238,,73,23,162,13*6E
$GLGSV,3,2,09,74,07,205,,80,16,107,18,83,33,143,27,84,73,051,12*69
$GLGSV,3,3,09,85,30,346,*53
$GNGLL,0419.86753,S,05539.77343,E,130837.00,A,D*6C
$GNGRS,130837.00,1,1.5,-5.1,11.7,8.6,2.5,4.9,17.3,-5.8,22.5,,,*4E
$GNGRS,130837.00,1,-0.9,0.4,-18.5,0.9,,,,,,,,*66
$GNGST,130837.00,110775,,,,3.1,3.6,8.3*4E
$GNZDA,130837.00,26,05,2025,00,00*72
$GNGBS,130837.00,3.1,3.6,8.3,,,,*5D
$GNTXT,01,01,01,More than 100 frame errors, UART RX was disabled*70
b0L@M(
nxD8< <\; 
{4"Ta!:R 
YvFOGHI
JPk
S!TI3%UZ$Tb@Ts$GNRMC,130838.00,A,0419.86757,S,05539.77339,E,0.131,,260525,,,D*76
$GNVTG,,T,,M,0.131,N,0.242,K,D*3F
$GNGNS,130838.00,0419.86757,S,05539.77339,E,DA,13,0.79,27.7,-47.6,,0000*63
$GNGGA,130838.00,0419.86757,S,05539.77339,E,2,12,0.79,27.7,M,-47.6,M,,0000*4E
$GNGSA,A,3,28,31,27,26,32,18,08,16,10,,,,1.56,0.79,1.35*18
$GNGSA,A,3,84,83,71,80,,,,,,,,,1.56,0.79,1.35*1E
$GPGSV,5,1,17,02,08,333,,04,11,230,,08,27,296,17,10,13,029,15*7D
$GPGSV,5,2,17,16,24,210,19,18,26,120,23,23,01,068,,26,29,179,19*7B
$GPGSV,5,3,17,27,56,260,27,28,60,092,32,31,59,159,31,32,28,010,28*79
$GPGSV,5,4,17,36,52,277,,40,84,353,34,41,58,082,33,49,32,274,*7B
$GPGSV,5,5,17,50,10,089,*4A
$GLGSV,3,1,09,70,24,335,,71,28,283,17,72,07,238,,73,23,162,10*63
$GLGSV,3,2,09,74,07,205,,80,16,107,17,83,33,143,26,84,73,051,09*6D
$GLGSV,3,3,09,85,30,346,*53
$GNGLL,0419.86757,S,05539.77339,E,130838.00,A,D*6A
$GNGRS,130838.00,1,0.1,-3.0,8.3,9.4,-0.6,6.4,17.6,-4.0,22.3,,,*55
$GNGRS,130838.00,1,-2.2,-0.6,-15.2,1.8,,,,,,,,*45
$GNGST,130838.00,166162,,,,3.1,3.6,8.4*47
$GNZDA,130838.00,26,05,2025,00,00*7D
$GNGBS,130838.00,3.1,3.6,8.4,,,,*55
$GNTXT,01,01,01,More than 100 frame errors, UART RX was disabled*70
b0L(M(
xlD8<\ ; 
;{4%Ta$:R 
YvFOGHIJPk'
S!TI3UZ b(,$GNRMC,130839.00,A,0419.86756,S,05539.77337,E,0.062,,260525,,,D*7F
$GNVTG,,T,,M,0.062,N,0.115,K,D*39
$GNGNS,130839.00,0419.86756,S,05539.77337,E,DA,12,0.79,27.6,-47.6,,0000*6D
$GNGGA,130839.00,0419.86756,S,05539.77337,E,2,12,0.79,27.6,M,-47.6,M,,0000*41
$GNGSA,A,3,28,31,27,26,32,18,08,16,,,,,1.56,0.79,1.35*19
$GNGSA,A,3,84,83,71,80,,,,,,,,,1.56,0.79,1.35*1E
$GPGSV,5,1,17,02,08,333,,04,11,230,,08,27,296,17,10,13,029,*79
$GPGSV,5,2,17,16,24,210,19,18,26,120,24,23,01,068,,26,29,179,20*76
$GPGSV,5,3,17,27,56,260,27,28,60,092,31,31,59,159,32,32,28,010,28*79
$GPGSV,5,4,17,36,52,277,,40,84,353,37,41,58,082,36,49,32,274,*7D
$GPGSV,5,5,17,50,10,089,*4A
$GLGSV,3,1,09,70,24,335,,71,28,283,16,72,07,238,,73,23,162,12*60
$GLGSV,3,2,09,74,07,205,,80,16,107,19,83,33,143,28,84,73,051,11*64
$GLGSV,3,3,09,85,30,346,*53
$GNGLL,0419.86756,S,05539.77337,E,130839.00,A,D*64
$GNGRS,130839.00,1,-2.7,-3.1,5.2,9.5,3.1,3.6,17.0,-3.4,,,,*47
$GNGRS,130839.00,1,-2.2,1.8,-15.1,0.4,,,,,,,,*68
$GNGST,130839.00,47,,,,3.2,3.7,8.5*42
$GNZDA,130839.00,26,05,2025,00,00*7C
$GNGBS,130839.00,3.2,3.7,8.5,,,,*57
$GNTXT,01,01,01,More than 100 frame errors, UART RX was disabled*70
b0LM(
xD8^<\;  
y{4&Ta":R 
YvFOGHIJPk
S!TI3UZkbC$GNRMC,130840.00,A,0419.86752,S,05539.77341,E,0.119,,260525,,,D*79
$GNVTG,,T,,M,0.119,N,0.221,K,D*30
$GNGNS,130840.00,0419.86752,S,05539.77341,E,DA,12,0.79,27.6,-47.6,,0000*66
$GNGGA,130840.00,0419.86752,S,05539.77341,E,2,12,0.79,27.6,M,-47.6,M,,0000*4A
$GNGSA,A,3,28,31,27,26,32,18,08,16,,,,,1.56,0.79,1.35*19
$GNGSA,A,3,84,83,71,80,,,,,,,,,1.56,0.79,1.35*1E
$GPGSV,5,1,17,02,08,333,,04,11,230,,08,27,296,17,10,13,029,*79
$GPGSV,5,2,17,16,24,210,21,18,26,120,26,23,01,068,,26,29,179,24*7B
$GPGSV,5,3,17,27,56,260,28,28,60,092,31,31,59,159,29,32,28,010,32*77
$GPGSV,5,4,17,36,52,277,,40,84,353,38,41,58,082,34,49,32,274,*70
$GPGSV,5,5,17,50,10,089,*4A
$GLGSV,3,1,09,70,24,335,,71,28,283,17,72,07,238,,73,23,162,*62
$GLGSV,3,2,09,74,07,205,,80,16,107,18,83,33,143,27,84,73,051,13*68
$GLGSV,3,3,09,85,30,346,*53
$GNGLL,0419.86752,S,05539.77341,E,130840.00,A,D*6F
$GNGRS,130840.00,1,-1.2,-2.8,3.5,9.6,6.3,6.4,17.5,-2.8,,,,*4D
$GNGRS,130840.00,1,-2.5,1.5,-15.1,-0.9,,,,,,,,*4C
$GNGST,130840.00,86819,,,,3.2,3.7,8.5*71
$GNZDA,130840.00,26,05,2025,00,00*72
$GNGBS,130840.00,3.2,3.7,8.5,,,,*59
$GNTXT,01,01,01,More than 100 frame errors, UART RX was disabled*70
b0LM(
xD82"<\"; "
{4'Ta%:R 
YvFOG]HIJPko
S!TI3UZb$GNRMC,130841.00,A,0419.86751,S,05539.77343,E,0.014,,260525,,,D*75
$GNVTG,,T,,M,0.014,N,0.025,K,D*3A
$GNGNS,130841.00,0419.86751,S,05539.77343,E,DA,12,0.79,27.3,-47.6,,0000*63
$GNGGA,130841.00,0419.86751,S,05539.77343,E,2,12,0.79,27.3,M,-47.6,M,,0000*4F
$GNGSA,A,3,28,31,27,26,32,18,08,16,,,,,1.56,0.79,1.35*19
$GNGSA,A,3,84,83,71,80,,,,,,,,,1.56,0.79,1.35*1E
$GPGSV,5,1,17,02,08,333,,04,11,230,,08,27,296,17,10,13,029,*79
$GPGSV,5,2,17,16,24,210,23,18,26,120,30,23,01,068,,26,29,179,26*7C
$GPGSV,5,3,17,27,56,260,29,28,60,092,34,31,59,159,34,32,28,010,34*79
$GPGSV,5,4,17,36,52,277,,40,84,353,39,41,58,082,37,49,32,274,*72
$GPGSV,5,5,17,50,10,089,*4A
$GLGSV,3,1,09,70,24,335,,71,28,283,20,72,07,238,,73,23,162,*66
$GLGSV,3,2,09,74,07,205,,80,16,107,19,83,33,143,28,84,73,051,15*60
$GLGSV,3,3,09,85,30,346,*53
$GNGLL,0419.86751,S,05539.77343,E,130841.00,A,D*6F
$GNGRS,130841.00,1,-2.7,-0.6,0.5,7.9,4.8,5.3,17.2,-4.9,,,,*49
$GNGRS,130841.00,1,-2.7,2.4,-14.4,-1.5,,,,,,,,*44
$GNGST,130841.00,87164,,,,3.1,3.7,8.4*70
$GNZDA,130841.00,26,05,2025,00,00*73
$GNGBS,130841.00,3.1,3.7,8.4,,,,*5A
$GNTXT,01,01,01,More than 100 frame errors, UART RX was disabled*70
b0LM(L
RxND8)"<\ ; "
{4&Ta$:R 
YvFOGHIJPk&
S!STI3OUZCbul$GNRMC,130843.00,A,0419.86733,S,05539.77340,E,0.050,,260525,,,D*70
$GNVTG,,T,,M,0.050,N,0.092,K,D*36
$GNGNS,130843.00,0419.86733,S,05539.77340,E,DA,12,0.79,26.8,-47.6,,0000*6C
$GNGGA,130843.00,0419.86733,S,05539.77340,E,2,12,0.79,26.8,M,-47.6,M,,0000*40
$GNGSA,A,3,28,31,27,26,32,18,08,16,,,,,1.56,0.79,1.35*19
$GNGSA,A,3,84,83,71,80,,,,,,,,,1.56,0.79,1.35*1E
$GPGSV,5,1,17,02,08,333,,04,11,230,,08,27,296,24,10,13,029,*79
$GPGSV,5,2,17,16,24,210,22,18,26,120,28,23,01,068,,26,29,179,22*70
$GPGSV,5,3,17,27,56,260,29,28,60,092,34,31,59,159,32,32,28,010,34*7F
$GPGSV,5,4,17,36,52,277,,40,84,353,38,41,58,082,36,49,32,274,*72
$GPGSV,5,5,17,50,10,089,*4A
$GLGSV,3,1,09,70,24,335,,71,28,283,19,72,07,238,,73,23,162,22*6C
$GLGSV,3,2,09,74,07,205,,80,16,107,21,83,33,143,28,84,73,051,15*6B
$GLGSV,3,3,09,85,30,346,*53
$GNGLL,0419.86733,S,05539.77340,E,130843.00,A,D*6A
$GNGRS,130843.00,1,-2.5,0.3,8.1,0.1,6.6,8.5,13.6,-6.9,,,,*67
$GNGRS,130843.00,1,0.8,6.0,-16.0,-7.3,,,,,,,,*60
$GNGST,130843.00,20770,,,,3.1,3.7,8.3*7B
$GNZDA,130843.00,26,05,2025,00,00*71
$GNGBS,130843.00,3.1,3.7,8.3,,,,*5F
$GNTXT,01,01,01,More than 100 frame errors, UART RX was disabled*70
b0LM(
xD`8l!<\;%  
{4&Ta$:R 
YvFOGlHIJPk|
S!JTI3CUZzb]c$GNRMC,130844.00,A,0419.86729,S,05539.77336,E,0.175,,260525,,,D*7B
$GNVTG,,T,,M,0.175,N,0.325,K,D*3F
$GNGNS,130844.00,0419.86729,S,05539.77336,E,DA,12,0.79,26.8,-47.6,,0000*61
$GNGGA,130844.00,0419.86729,S,05539.77336,E,2,12,0.79,26.8,M,-47.6,M,,0000*4D
$GNGSA,A,3,28,31,27,26,32,18,08,16,,,,,1.56,0.79,1.35*19
$GNGSA,A,3,84,83,71,80,,,,,,,,,1.56,0.79,1.35*1E
$GPGSV,5,1,17,02,08,333,,04,11,230,,08,27,296,25,10,13,029,*78
$GNTXT,01,01,01,More than 100 frame errors, UART RX was disabled*70
$GPGSV,5,2,17,16,24,210,21,18,26,120,27,23,01,068,,26,29,179,21*7F
$GPGSV,5,3,17,27,56,260,28,28,60,092,33,31,59,159,30,32,28,010,32*7D
$GPGSV,5,4,17,36,52,277,,40,84,353,38,41,58,082,36,49,32,274,*72
$GPGSV,5,5,17,50,10,089,*4A
$GLGSV,3,1,09,70,24,335,,71,28,283,19,72,07,238,,73,23,162,21*6F
$GLGSV,3,2,09,74,07,205,,80,16,107,22,83,33,143,27,84,73,051,15*67
$GLGSV,3,3,09,85,30,346,*53
$GNGLL,0419.86729,S,05539.77336,E,130844.00,A,D*67
$GNGRS,130844.00,1,-2.7,0.4,8.8,1.0,4.1,6.9,12.9,-8.4,,,,*66
$GNGRS,130844.00,1,0.7,5.9,-16.8,-9.0,,,,,,,,*67
$GNGST,130844.00,31155,,,,3.1,3.7,8.3*7D
$GNZDA,130844.00,26,05,2025,00,00*76
$GNGBS,130844.00,3.1,3.7,8.3,,,,*58
b0LM(
xKD78"<\;e &
{4&Ta%:R 
YvFOGHIJPk
S!JTI3UZJ4b-$GNRMC,130846.00,A,0419.86709,S,05539.77331,E,0.110,,260525,,,D*7F
$GNVTG,,T,,M,0.110,N,0.204,K,D*3E
$GNGNS,130846.00,0419.86709,S,05539.77331,E,DA,12,0.79,26.5,-47.6,,0000*6B
$GNGGA,130846.00,0419.86709,S,05539.77331,E,2,12,0.79,26.5,M,-47.6,M,,0000*47
$GNGSA,A,3,28,31,27,26,32,18,08,16,,,,,1.56,0.79,1.35*19
$GNGSA,A,3,84,83,71,80,,,,,,,,,1.56,0.79,1.35*1E
$GPGSV,5,1,17,02,08,333,,04,11,230,,08,27,296,26,10,13,029,*7B
$GPGSV,5,2,17,16,24,210,24,18,26,120,26,23,01,068,,26,29,179,20*7A
$GPGSV,5,3,17,27,56,260,29,28,60,092,34,31,59,159,29,32,28,010,38*79
$GPGSV,5,4,17,36,52,277,,40,84,353,38,41,58,082,37,49,32,274,*73
$GPGSV,5,5,17,50,10,089,*4A
$GLGSV,3,1,09,70,24,335,,71,28,283,22,72,07,238,,73,23,162,19*6C
$GLGSV,3,2,09,74,07,205,,80,16,107,21,83,33,143,27,84,73,051,21*63
$GLGSV,3,3,09,85,30,346,*53
$GNGLL,0419.86709,S,05539.77331,E,130846.00,A,D*60
$GNGRS,130846.00,1,-3.3,6.1,7.4,3.1,4.6,3.3,9.6,-8.6,,,,*5D
$GNGRS,130846.00,1,1.3,0.7,-17.9,-8.1,,,,,,,,*6B
$GNGST,130846.00,37,,,,3.0,3.6,8.2*49
$GNZDA,130846.00,26,05,2025,00,00*74
$GNGBS,130846.00,3.0,3.6,8.2,,,,*5B
$GNTXT,01,01,01,More than 100 frame errors, UART RX was disabled*70
b0LhM(O
xD8#<\~; '
Z{4(Ta%:R 
YvFOGHIJPk
S!5TI3`UZ,3bh$GNRMC,130847.00,A,0419.86699,S,05539.77329,E,0.039,,260525,,,D*75
$GNVTG,,T,,M,0.039,N,0.071,K,D*34
$GNGNS,130847.00,0419.86699,S,05539.77329,E,DA,12,0.79,26.5,-47.6,,0000*6B
$GNGGA,130847.00,0419.86699,S,05539.77329,E,2,12,0.79,26.5,M,-47.6,M,,0000*47
$GNGSA,A,3,28,31,27,26,32,18,08,16,,,,,1.56,0.79,1.35*19
$GNGSA,A,3,84,83,71,80,,,,,,,,,1.56,0.79,1.35*1E
$GPGSV,5,1,17,02,08,333,,04,11,230,,08,27,296,26,10,13,029,*7B
$GPGSV,5,2,17,16,24,210,26,18,26,120,27,23,01,068,,26,29,179,20*79
$GPGSV,5,3,17,27,56,260,31,28,60,092,35,31,59,159,30,32,28,010,39*78
$GPGSV,5,4,17,36,52,277,,40,84,353,40,41,58,082,37,49,32,274,*7C
$GPGSV,5,5,17,50,10,089,*4A
$GLGSV,3,1,09,70,24,335,,71,28,283,23,72,07,238,,73,23,162,18*6C
$GLGSV,3,2,09,74,07,205,,80,16,107,21,83,33,143,27,84,73,051,21*63
$GLGSV,3,3,09,85,30,346,*53
$GNGLL,0419.86699,S,05539.77329,E,130847.00,A,D*60
$GNGRS,130847.00,1,-3.9,4.4,4.1,4.7,3.5,-2.4,5.9,-7.5,,,,*76
$GNGRS,130847.00,1,1.0,5.6,-19.1,-8.9,,,,,,,,*63
$GNGST,130847.00,36,,,,3.0,3.6,8.1*4A
$GNZDA,130847.00,26,05,2025,00,00*75
$GNGBS,130847.00,3.0,3.6,8.1,,,,*59
$GNTXT,01,01,01,More than 100 frame errors, UART RX was disabled*70
b0L8M(
x9D^8_#<\: ;s '
,{4'Ta&:R 
YvFOGlHIJPkY
S!TI3UZb8$GNRMC,130849.00,A,0419.86690,S,05539.77307,E,0.025,,260525,,,D*73
$GNVTG,,T,,M,0.025,N,0.047,K,D*3C
$GNGNS,130849.00,0419.86690,S,05539.77307,E,DA,12,0.84,25.8,-47.6,,0000*6C
$GNGGA,130849.00,0419.86690,S,05539.77307,E,2,12,0.84,25.8,M,-47.6,M,,0000*40
$GNGSA,A,3,28,31,27,26,32,18,08,16,,,,,1.61,0.84,1.38*12
$GNGSA,A,3,84,83,71,80,,,,,,,,,1.61,0.84,1.38*15
$GPGSV,5,1,17,02,08,333,,04,11,230,,08,27,296,27,10,13,029,*7A
$GPGSV,5,2,17,16,24,210,26,18,26,120,26,23,01,068,,26,29,179,23*7B
$GPGSV,5,3,17,27,56,260,29,28,60,092,35,31,59,159,32,32,28,010,39*73
$GPGSV,5,4,17,36,52,277,,40,84,353,39,41,58,082,38,49,32,274,*7D
$GPGSV,5,5,17,50,10,089,*4A
$GLGSV,3,1,09,70,24,335,,71,28,283,23,72,07,238,,73,23,162,14*60
$GLGSV,3,2,09,74,07,205,,80,16,107,18,83,33,143,27,84,73,051,19*62
$GLGSV,3,3,09,85,30,346,17*55
$GNGLL,0419.86690,S,05539.77307,E,130849.00,A,D*6B
$GNGRS,130849.00,1,-4.5,3.7,13.8,8.6,3.0,-2.0,1.9,-3.4,,,,*45
$GNGRS,130849.00,1,-3.1,2.6,-24.5,-9.4,,,,,,,,*42
$GNGST,130849.00,36,,,,2.9,3.5,7.9*48
$GNZDA,130849.00,26,05,2025,00,00*7B
$GNGBS,130849.00,2.9,3.5,7.9,,,,*5B
$GNTXT,01,01,01,More than 100 frame errors, UART RX was disabled*70
$GNTXT,01,01,01,More than 100 frame errors, UART RX was disabled*70
b0LM(
xQD8^#<\;y '
>{4'Ta%:R 
YvFOGHIJPk!
S!PTI3UZb!$GNRMC,130852.00,A,0419.86689,S,05539.77272,E,0.020,,260525,,,D*77
$GNVTG,,T,,M,0.020,N,0.037,K,D*3E
$GNGNS,130852.00,0419.86689,S,05539.77272,E,DA,13,0.84,24.6,-47.6,,0000*63
$GNGGA,130852.00,0419.86689,S,05539.77272,E,2,12,0.84,24.6,M,-47.6,M,,0000*4E
$GNGSA,A,3,28,31,27,26,32,18,08,16,,,,,1.61,0.84,1.38*12
$GNGSA,A,3,84,83,71,85,80,,,,,,,,1.61,0.84,1.38*18
$GPGSV,5,1,17,02,08,333,,04,11,230,,08,27,296,26,10,13,029,19*73
$GPGSV,5,2,17,16,24,210,28,18,26,120,25,23,01,068,,26,29,179,21*74
$GPGSV,5,3,17,27,56,260,31,28,60,092,35,31,59,159,31,32,28,010,39*79
$GPGSV,5,4,17,36,52,277,,40,84,353,39,41,58,082,37,49,32,274,*72
$GPGSV,5,5,17,50,10,089,*4A
$GLGSV,3,1,09,70,24,335,,71,28,283,20,72,07,238,,73,23,162,14*63
$GLGSV,3,2,09,74,07,205,,80,16,107,18,83,33,143,30,84,73,051,18*65
$GLGSV,3,3,09,85,30,346,19*5B
$GNGLL,0419.86689,S,05539.77272,E,130852.00,A,D*6A
$GNGRS,130852.00,1,-4.8,8.9,8.6,17.7,3.2,3.4,-1.2,-8.0,,,,*4F
$GNGRS,130852.00,1,-5.2,5.9,-26.8,19.9,-9.9,,,,,,,*58
$GNGST,130852.00,36,,,,2.7,3.4,7.6*42
$GNZDA,130852.00,26,05,2025,00,00*71
$GNGBS,130852.00,2.7,3.4,7.6,,,,*51
$GNTXT,01,01,01,More than 100 frame errors, UART RX was disabled*70
b0LM(
_xD8#<\; '
 {4'Ta&:R 
YvFOGaHIJPk
S!TI3UZS&bj$GNRMC,130853.00,A,0419.86687,S,05539.77267,E,0.034,,260525,,,D*79
$GNVTG,,T,,M,0.034,N,0.062,K,D*3B
$GNGNS,130853.00,0419.86687,S,05539.77267,E,DA,14,0.73,24.3,-47.6,,0000*62
$GNGGA,130853.00,0419.86687,S,05539.77267,E,2,12,0.73,24.3,M,-47.6,M,,0000*48
$GNGSA,A,3,28,31,27,26,32,18,08,16,10,,,,1.44,0.73,1.24*11
$GNGSA,A,3,84,83,71,85,80,,,,,,,,1.44,0.73,1.24*1A
$GPGSV,5,1,17,02,08,333,,04,11,230,,08,27,296,27,10,13,029,17*7C
$GPGSV,5,2,17,16,24,210,27,18,26,120,25,23,01,068,,26,29,179,19*70
$GPGSV,5,3,17,27,56,260,31,28,60,092,35,31,59,159,30,32,28,010,39*78
$GPGSV,5,4,17,36,52,277,,40,84,353,39,41,58,082,38,49,32,274,*7D
$GPGSV,5,5,17,50,10,089,*4A
$GLGSV,3,1,09,70,24,335,,71,28,283,18,72,07,238,,73,23,162,17*6B
$GLGSV,3,2,09,74,07,205,,80,16,107,18,83,33,143,30,84,73,051,19*64
$GLGSV,3,3,09,85,30,346,23*52
$GNGLL,0419.86687,S,05539.77267,E,130853.00,A,D*61
$GNGRS,130853.00,1,-5.0,7.5,4.0,17.6,2.9,0.3,-1.1,-5.4,13.8,,,*5F
$GNGRS,130853.00,1,-5.1,7.1,-27.2,8.5,-8.6,,,,,,,*69
$GNGST,130853.00,40,,,,2.7,3.4,7.6*42
$GNZDA,130853.00,26,05,2025,00,00*70
$GNGBS,130853.00,2.7,3.4,7.6,,,,*50
$GNTXT,01,01,01,More than 100 frame errors, UART RX was disabled*70
b0LM(l
MxD8#<\ ; '
{4'Ta&:R 
YvFOG$HIJPkv
S!TI3UZ
bm$GNRMC,130854.00,A,0419.86683,S,05539.77261,E,0.051,,260525,,,D*7F
$GNVTG,,T,,M,0.051,N,0.094,K,D*31
$GNGNS,130854.00,0419.86683,S,05539.77261,E,DA,14,0.73,24.1,-47.6,,0000*65
$GNGGA,130854.00,0419.86683,S,05539.77261,E,2,12,0.73,24.1,M,-47.6,M,,0000*4F
$GNGSA,A,3,28,31,27,26,32,18,08,16,10,,,,1.44,0.73,1.24*11
$GNGSA,A,3,84,83,71,85,80,,,,,,,,1.44,0.73,1.24*1A
$GPGSV,5,1,17,02,08,333,,04,11,230,,08,27,296,27,10,13,029,15*7E
$GPGSV,5,2,17,16,24,210,27,18,26,120,27,23,01,068,,26,29,179,16*7D
$GPGSV,5,3,17,27,56,260,31,28,60,092,35,31,59,159,29,32,28,010,39*70
$GPGSV,5,4,17,36,52,277,,40,84,353,39,41,58,082,38,49,32,274,*7D
$GPGSV,5,5,17,50,10,089,*4A
$GLGSV,3,1,09,70,24,335,,71,28,283,17,72,07,238,,73,23,162,17*64
$GLGSV,3,2,09,74,07,205,,80,16,107,17,83,33,143,29,84,73,051,19*63
$GLGSV,3,3,09,85,30,346,25*54
$GNGLL,0419.86683,S,05539.77261,E,130854.00,A,D*64
$GNGRS,130854.00,1,-4.8,9.7,7.1,14.6,2.7,0.3,-1.5,-6.9,6.8,,,*6C
$GNGRS,130854.00,1,-8.0,7.9,-25.2,5.2,-9.1,,,,,,,*64
$GNGST,130854.00,46,,,,2.6,3.4,7.5*41
$GNZDA,130854.00,26,05,2025,00,00*77
$GNGBS,130854.00,2.6,3.4,7.5,,,,*55
$GNTXT,01,01,01,More than 100 frame errors, UART RX was disabled*70
b0LM(
xCD(8#<\0; (
{4'Ta%:R 
Yv,FOGHIJPkZ
S!TI3UZrbU:$GNRMC,130855.00,A,0419.86680,S,05539.77252,E,0.010,,260525,,,D*78
$GNVTG,,T,,M,0.010,N,0.018,K,D*30
$GNGNS,130855.00,0419.86680,S,05539.77252,E,DA,14,0.73,24.0,-47.6,,0000*66
$GNGGA,130855.00,0419.86680,S,05539.77252,E,2,12,0.73,24.0,M,-47.6,M,,0000*4C
$GNGSA,A,3,28,31,27,26,32,18,08,16,10,,,,1.44,0.73,1.24*11
$GNGSA,A,3,84,83,71,85,80,,,,,,,,1.44,0.73,1.24*1A
$GPGSV,5,1,17,02,08,333,,04,11,230,,08,27,296,27,10,13,029,15*7E
$GPGSV,5,2,17,16,24,210,27,18,26,120,29,23,01,068,,26,29,179,17*72
$GPGSV,5,3,17,27,56,260,29,28,60,092,35,31,59,159,30,32,28,010,40*7F
$GPGSV,5,4,17,36,52,277,,40,84,353,39,41,58,082,37,49,32,274,*72
$GPGSV,5,5,17,50,10,089,*4A
$GLGSV,3,1,09,70,24,335,,71,28,283,16,72,07,238,,73,23,162,17*65
$GLGSV,3,2,09,74,07,205,,80,16,107,20,83,33,143,29,84,73,051,18*66
$GLGSV,3,3,09,85,30,346,25*54
$GNGLL,0419.86680,S,05539.77252,E,130855.00,A,D*66
$GNGRS,130855.00,1,-4.6,6.9,11.8,13.2,2.3,-4.4,0.0,-5.5,-0.6,,,*76
$GNGRS,130855.00,1,-6.1,7.6,-22.8,-0.4,-6.8,,,,,,,*40
$GNGST,130855.00,45,,,,2.6,3.3,7.5*44
$GNZDA,130855.00,26,05,2025,00,00*76
$GNGBS,130855.00,2.6,3.3,7.5,,,,*53
b0LM(Z
xxD8=#<\0;O (
{4&Ta%:R 
YvFOGHIJPk
S!=TI3UZxTb=$GNRMC,130856.00,A,0419.86676,S,05539.77249,E,0.031,,260525,,,D*7B
$GNVTG,,T,,M,0.031,N,0.057,K,D*38
$GNGNS,130856.00,0419.86676,S,05539.77249,E,DA,14,0.73,23.9,-47.6,,0000*68
$GNGGA,130856.00,0419.86676,S,05539.77249,E,2,12,0.73,23.9,M,-47.6,M,,0000*42
$GNGSA,A,3,28,31,27,26,32,18,08,16,10,,,,1.44,0.73,1.24*11
$GNGSA,A,3,84,83,71,85,80,,,,,,,,1.44,0.73,1.24*1A
$GPGSV,5,1,17,02,08,333,,04,11,230,,08,27,296,26,10,13,029,15*7F
$GPGSV,5,2,17,16,24,210,29,18,26,120,28,23,01,068,,26,29,179,18*72
$GPGSV,5,3,17,27,56,260,27,28,60,092,35,31,59,159,31,32,28,010,40*70
$GPGSV,5,4,17,36,52,277,,40,84,353,38,41,58,082,37,49,32,274,*73
$GPGSV,5,5,17,50,10,089,*4A
$GLGSV,3,1,09,70,24,335,,71,28,283,17,72,07,238,,73,23,162,17*64
$GLGSV,3,2,09,74,07,205,,80,16,107,22,83,33,143,29,84,73,051,17*6B
$GLGSV,3,3,09,85,30,346,24*55
$GNGLL,0419.86676,S,05539.77249,E,130856.00,A,D*66
$GNGRS,130856.00,1,-4.6,3.3,13.4,12.8,2.5,-1.4,-4.2,-7.6,-3.5,,,*56
$GNTXT,01,01,01,More than 100 frame errors, UART RX was disabled*70
$GNGRS,130856.00,1,-6.4,8.3,-21.6,-1.4,-5.8,,,,,,,*43
$GNGST,130856.00,44,,,,2.6,3.3,7.4*47
$GNZDA,130856.00,26,05,2025,00,00*75
$GNGBS,130856.00,2.6,3.3,7.4,,,,*51
$GNTXT,01,01,01,More than 100 frame errors, UART RX was disabled*70
b0L`M(
xD8#<\#;U (
{4'Ta%:R 
YvFOGOHIJPk)
S!TI3UZb`1r$GNRMC,130858.00,A,0419.86668,S,05539.77243,E,0.126,,260525,,,D*77
$GNVTG,,T,,M,0.126,N,0.233,K,D*3F
$GNGNS,130858.00,0419.86668,S,05539.77243,E,DA,14,0.68,23.8,-47.6,,0000*68
$GNGGA,130858.00,0419.86668,S,05539.77243,E,2,12,0.68,23.8,M,-47.6,M,,0000*42
$GNGSA,A,3,28,31,27,26,32,18,08,16,10,,,,1.40,0.68,1.23*18
$GNGSA,A,3,84,83,71,85,80,,,,,,,,1.40,0.68,1.23*13
$GPGSV,5,1,17,02,08,333,,04,11,230,,08,27,296,25,10,13,029,15*7C
$GPGSV,5,2,17,16,24,210,27,18,26,120,25,23,01,068,,26,29,179,16*7F
$GPGSV,5,3,17,27,56,260,24,28,60,092,35,31,59,159,30,32,28,010,40*72
$GPGSV,5,4,17,36,52,277,,40,84,353,39,41,58,082,37,49,32,274,*72
$GPGSV,5,5,17,50,10,089,*4A
$GLGSV,3,1,09,70,24,335,,71,28,283,20,72,07,238,,73,23,162,*66
$GLGSV,3,2,09,74,07,205,,80,16,107,21,83,33,143,30,84,73,051,16*61
$GLGSV,3,3,09,85,30,346,25*54
$GNGLL,0419.86668,S,05539.77243,E,130858.00,A,D*6D
$GNGRS,130858.00,1,-4.8,0.9,15.2,12.4,1.8,-3.8,-4.9,-10.4,-2.3,,,*6B
$GNGRS,130858.00,1,-2.9,4.4,-19.7,-2.4,-2.2,,,,,,,*4B
$GNGST,130858.00,49,,,,2.5,3.3,7.3*40
$GNZDA,130858.00,26,05,2025,00,00*7B
$GNGBS,130858.00,2.5,3.3,7.3,,,,*5B
b0LHM(
xD8#<\; '
{4'Ta$:R 
YvKFOGHIJPkU
S!3TI3UZwbH$GNRMC,130859.00,A,0419.86664,S,05539.77234,E,0.167,,260525,,,D*7F
$GNVTG,,T,,M,0.167,N,0.309,K,D*32
$GNGNS,130859.00,0419.86664,S,05539.77234,E,DA,14,0.73,24.0,-47.6,,0000*60
$GNGGA,130859.00,0419.86664,S,05539.77234,E,2,12,0.73,24.0,M,-47.6,M,,0000*4A
$GNGSA,A,3,28,31,27,26,32,18,08,16,10,,,,1.44,0.73,1.24*11
$GNGSA,A,3,84,83,71,85,80,,,,,,,,1.44,0.73,1.24*1A
$GNTXT,01,01,01,More than 100 frame errors, UART RX was disabled*70
$GPGSV,5,1,17,02,08,333,,04,11,230,,08,27,296,26,10,13,029,19*73
$GPGSV,5,2,17,16,24,210,27,18,26,120,25,23,01,068,,26,29,179,15*7C
$GPGSV,5,3,17,27,56,260,26,28,60,092,35,31,59,159,31,32,28,010,39*7F
$GPGSV,5,4,17,36,52,277,,40,84,353,39,41,58,082,36,49,32,274,*73
$GPGSV,5,5,17,50,10,089,*4A
$GLGSV,3,1,09,70,24,335,,71,28,283,21,72,07,238,,73,23,162,*67
$GLGSV,3,2,09,74,07,205,,80,16,107,19,83,33,143,30,84,73,051,17*6B
$GLGSV,3,3,09,85,30,346,25*54
$GNGLL,0419.86664,S,05539.77234,E,130859.00,A,D*60
$GNGRS,130859.00,1,-5.2,2.0,20.7,9.0,1.5,-6.0,-3.8,-13.5,-2.4,,,*54
$GNGRS,130859.00,1,-2.9,3.1,-20.2,-2.7,-1.7,,,,,,,*42
$GNGST,130859.00,45,,,,2.5,3.3,7.3*4D
$GNZDA,130859.00,26,05,2025,00,00*7A
$GNGBS,130859.00,2.5,3.3,7.3,,,,*5A
b0LM(
xD8#<\ ;& (
{4'Ta$:R 
YvFOGHIJPk
S!TI3UZdb$GNRMC,130901.00,A,0419.86657,S,05539.77225,E,0.029,,260525,,,A*7D
$GNVTG,,T,,M,0.029,N,0.054,K,A*37
$GNGNS,130901.00,0419.86657,S,05539.77225,E,AA,14,0.67,24.5,-47.6,,*69
$GNGGA,130901.00,0419.86657,S,05539.77225,E,1,12,0.67,24.5,M,-47.6,M,,*45
$GNGSA,A,3,28,31,27,26,32,18,08,16,10,,,,1.33,0.67,1.15*16
$GNGSA,A,3,84,83,71,85,80,,,,,,,,1.33,0.67,1.15*1D
$GPGSV,5,1,17,02,08,333,,04,11,230,,08,27,296,28,10,13,029,18*7C
$GPGSV,5,2,17,16,24,210,27,18,26,120,25,23,01,068,,26,29,179,15*7C
$GPGSV,5,3,17,27,56,260,25,28,60,092,35,31,59,159,32,32,28,010,40*71
$GPGSV,5,4,17,36,52,277,,40,84,353,39,41,58,082,36,49,32,274,*73
$GPGSV,5,5,17,50,10,089,*4A
$GLGSV,3,1,09,70,24,335,,71,28,283,23,72,07,238,,73,23,162,*65
$GLGSV,3,2,09,74,07,205,,80,16,107,15,83,33,143,31,84,73,051,18*69
$GLGSV,3,3,09,85,30,346,24*55
$GNGLL,0419.86657,S,05539.77225,E,130901.00,A,A*69
$GNGRS,130901.00,1,-6.0,5.5,19.5,6.6,-0.3,-6.1,-5.9,-8.2,-3.3,,,*4D
$GNGRS,130901.00,1,-3.6,-2.7,-17.7,-3.5,-0.8,,,,,,,*66
$GNGST,130901.00,51,,,,2.4,3.3,7.3*45
$GNZDA,130901.00,26,05,2025,00,00*76
$GNGBS,130901.00,2.4,3.3,7.3,,,,*57
$GNTXT,01,01,01,More than 100 frame errors, UART RX was disabled*70
b0LM(u
,xD8L!<\; (
{4'Ta$:R 
YvFPGHIJPke
S!bTI3UZbgb$GNRMC,130903.00,A,0419.86659,S,05539.77218,E,0.041,,260525,,,A*71
$GNVTG,,T,,M,0.041,N,0.076,K,A*39
$GNGNS,130903.00,0419.86659,S,05539.77218,E,AA,15,0.67,25.0,-47.6,,*6E
$GNGGA,130903.00,0419.86659,S,05539.77218,E,1,12,0.67,25.0,M,-47.6,M,,*43
$GNGSA,A,3,28,31,27,26,32,18,08,16,10,41,,,1.33,0.67,1.15*13
$GNGSA,A,3,84,83,71,85,80,,,,,,,,1.33,0.67,1.15*1D
$GPGSV,5,1,17,02,08,333,,04,11,230,,08,27,296,28,10,13,029,17*73
$GPGSV,5,2,17,16,24,210,25,18,26,120,26,23,01,068,,26,29,179,17*7F
$GPGSV,5,3,17,27,56,260,27,28,60,092,33,31,59,159,31,32,28,010,40*76
$GPGSV,5,4,17,36,52,277,,40,84,353,39,41,58,082,36,49,32,274,*73
$GPGSV,5,5,17,50,10,089,*4A
$GLGSV,3,1,09,70,23,336,,71,28,284,23,72,07,238,,73,23,162,*66
$GLGSV,3,2,09,74,07,205,,80,16,107,13,83,33,143,31,84,73,051,17*60
$GLGSV,3,3,09,85,30,346,21*50
$GNGLL,0419.86659,S,05539.77218,E,130903.00,A,A*6B
$GNGRS,130903.00,1,-6.1,9.9,13.6,7.6,-0.5,-4.9,-6.5,-2.1,-2.7,-134,,*52
$GNGRS,130903.00,1,-3.4,-1.6,-15.3,-5.4,-1.5,,,,,,,*69
$GNGST,130903.00,1059,,,,2.4,3.3,7.3*4E
$GNZDA,130903.00,26,05,2025,00,00*74
$GNGBS,130903.00,2.4,3.3,7.3,,,,*55
$GNTXT,01,01,01,More than 100 frame errors, UART RX was disabled*70
b0LM(
vxCD8 <\;w '
{4'Ta#:R 
YvFPGvHIJPkv
S !TI3iUZ&b}?$GNRMC,130904.00,A,0419.86660,S,05539.77217,E,0.047,,260525,,,A*75
$GNVTG,,T,,M,0.047,N,0.088,K,A*3E
$GNGNS,130904.00,0419.86660,S,05539.77217,E,AA,15,0.67,25.1,-47.6,,*6D
$GNGGA,130904.00,0419.86660,S,05539.77217,E,1,12,0.67,25.1,M,-47.6,M,,*40
$GNGSA,A,3,28,31,27,26,32,18,08,16,10,41,,,1.33,0.67,1.15*13
$GNGSA,A,3,84,83,71,85,80,,,,,,,,1.33,0.67,1.15*1D
$GPGSV,5,1,17,02,08,333,,04,11,230,,08,27,296,28,10,13,029,17*73
$GPGSV,5,2,17,16,24,210,24,18,26,120,26,23,01,068,,26,29,179,18*71
$GPGSV,5,3,17,27,56,260,26,28,60,092,32,31,59,159,30,32,28,010,39*79
$GPGSV,5,4,17,36,52,277,,40,84,353,39,41,58,082,35,49,32,274,*70
$GPGSV,5,5,17,50,10,089,*4A
$GLGSV,3,1,09,70,23,336,,71,28,284,22,72,07,238,,73,23,162,*67
$GLGSV,3,2,09,74,07,205,,80,16,107,15,83,33,143,32,84,73,051,18*6A
$GLGSV,3,3,09,85,30,346,20*51
$GNGLL,0419.86660,S,05539.77217,E,130904.00,A,A*69
$GNGRS,130904.00,1,-6.0,8.9,13.1,6.7,-0.4,-4.5,-8.0,-2.3,-3.9,-134,,*59
$GNGRS,130904.00,1,-4.1,-0.8,-16.7,-6.1,-1.4,,,,,,,*63
$GNGST,130904.00,1059,,,,2.4,3.3,7.3*49
$GNZDA,130904.00,26,05,2025,00,00*73
$GNGBS,130904.00,2.4,3.3,7.3,,,,*52
b0LM(
Q=xDi8<\; '
{4&Ta#:R 
YvFPGHHIJPk
S!TI3UZ56be2$GNRMC,130905.00,A,0419.86664,S,05539.77216,E,0.022,,260525,,,A*72
$GNVTG,,T,,M,0.022,N,0.040,K,A*39
$GNGNS,130905.00,0419.86664,S,05539.77216,E,AA,15,0.67,25.3,-47.6,,*6B
$GNGGA,130905.00,0419.86664,S,05539.77216,E,1,12,0.67,25.3,M,-47.6,M,,*46
$GNGSA,A,3,28,31,27,26,32,18,08,16,10,41,,,1.33,0.67,1.15*13
$GNGSA,A,3,84,83,71,85,80,,,,,,,,1.33,0.67,1.15*1D
$GPGSV,5,1,17,02,08,333,,04,11,230,,08,27,296,27,10,13,029,15*7E
$GPGSV,5,2,17,16,24,210,22,18,26,120,27,23,01,068,,26,29,179,17*79
$GPGSV,5,3,17,27,56,260,27,28,60,092,31,31,59,159,30,32,28,010,39*7B
$GPGSV,5,4,17,36,52,277,,40,84,353,38,41,58,082,35,49,32,274,*71
$GPGSV,5,5,17,50,10,089,*4A
$GLGSV,3,1,09,70,23,336,,71,28,284,20,72,07,238,,73,24,162,*62
$GLGSV,3,2,09,74,07,205,,80,16,107,16,83,33,143,31,84,73,051,18*6A
$GLGSV,3,3,09,85,30,346,20*51
$GNGLL,0419.86664,S,05539.77216,E,130905.00,A,A*6D
$GNGRS,130905.00,1,-5.9,12.9,11.9,6.2,-0.5,-2.8,-8.7,-2.0,-4.3,-134,,*65
$GNGRS,130905.00,1,-3.3,2.7,-14.6,-3.2,2.2,,,,,,,*6A
$GNGST,130905.00,1059,,,,2.4,3.3,7.3*48
$GNZDA,130905.00,26,05,2025,00,00*72
$GNGBS,130905.00,2.4,3.3,7.3,,,,*53
$GNTXT,01,01,01,More than 100 frame errors, UART RX was disabled*70
b0LpM(
BxDC8 <\;- '
{4(Ta#:R 
YvFPGHIJPki
S!TI3UZ\bp j$GNRMC,130908.00,A,0419.86670,S,05539.77224,E,0.112,,260525,,,A*79
$GNVTG,,T,,M,0.112,N,0.207,K,A*3A
$GNGNS,130908.00,0419.86670,S,05539.77224,E,AA,15,0.67,25.1,-47.6,,*60
$GNGGA,130908.00,0419.86670,S,05539.77224,E,1,12,0.67,25.1,M,-47.6,M,,*4D
$GNGSA,A,3,28,31,27,26,32,18,08,16,10,41,,,1.33,0.67,1.15*13
$GNGSA,A,3,84,83,71,85,80,,,,,,,,1.33,0.67,1.15*1D
$GPGSV,5,1,17,02,08,333,,04,11,230,,08,27,296,26,10,13,029,16*7C
$GPGSV,5,2,17,16,24,210,19,18,26,120,27,23,01,068,,26,29,179,15*73
$GPGSV,5,3,17,27,56,260,31,28,60,092,32,31,59,159,31,32,28,010,39*7E
$GPGSV,5,4,17,36,52,277,,40,84,353,40,41,58,082,35,49,32,274,*7E
$GPGSV,5,5,17,50,10,089,*4A
$GLGSV,3,1,09,70,23,336,,71,28,284,19,72,07,238,,73,24,162,*68
$GLGSV,3,2,09,74,07,204,,80,16,107,20,83,33,143,31,84,73,051,19*6F
$GLGSV,3,3,09,85,30,346,18*5A
$GNGLL,0419.86670,S,05539.77224,E,130908.00,A,A*64
$GNGRS,130908.00,1,-5.6,3.0,1.6,5.8,-0.5,-0.7,-5.8,-1.9,-3.2,-134,,*6A
$GNGRS,130908.00,1,-8.2,1.3,-13.2,5.2,3.6,,,,,,,*47
$GNGST,130908.00,1059,,,,2.4,3.3,7.3*45
$GNZDA,130908.00,26,05,2025,00,00*7F
$GNGBS,130908.00,2.4,3.3,7.3,,,,*5E
$GNTXT,01,01,01,More than 100 frame errors, UART RX was disabled*70
b0LXM(
1xD8!<\; "
{4(Ta$:R 
YvFPG|HIJPkS
S!TI3UZ}SbX$w$GNRMC,130909.00,A,0419.86672,S,05539.77224,E,0.128,,260525,,,A*73
$GNVTG,,T,,M,0.128,N,0.238,K,A*3F
$GNGNS,130909.00,0419.86672,S,05539.77224,E,AA,15,0.67,24.9,-47.6,,*6A
$GNGGA,130909.00,0419.86672,S,05539.77224,E,1,12,0.67,24.9,M,-47.6,M,,*47
$GNGSA,A,3,28,31,27,26,32,18,08,16,10,41,,,1.33,0.67,1.15*13
$GNGSA,A,3,84,83,71,85,80,,,,,,,,1.33,0.67,1.15*1D
$GPGSV,5,1,17,02,08,333,,04,11,230,,08,27,296,27,10,13,029,15*7E
$GPGSV,5,2,17,16,24,210,20,18,26,120,29,23,01,068,17,26,29,179,18*7C
$GPGSV,5,3,17,27,56,260,29,28,60,092,33,31,59,159,31,32,28,010,34*7B
$GPGSV,5,4,17,36,52,277,,40,84,353,40,41,58,082,36,49,32,274,*7D
$GPGSV,5,5,17,50,10,089,*4A
$GLGSV,3,1,09,70,23,336,,71,28,284,20,72,07,238,,73,24,162,*62
$GLGSV,3,2,09,74,07,204,,80,16,107,21,83,33,143,31,84,73,051,20*64
$GLGSV,3,3,09,85,30,346,20*51
$GNGLL,0419.86672,S,05539.77224,E,130909.00,A,A*67
$GNGRS,130909.00,1,-5.8,5.2,6.9,7.2,-0.9,-1.1,-3.5,-5.2,0.5,-134,,*47
$GNGRS,130909.00,1,-8.3,-0.3,-11.6,6.4,3.4,,,,,,,*6A
$GNGST,130909.00,1059,,,,2.4,3.2,7.3*45
$GNZDA,130909.00,26,05,2025,00,00*7E
$GNGBS,130909.00,2.4,3.2,7.3,,,,*5E
$GNTXT,01,01,01,More than 100 frame errors, UART RX was disabled*70
b0L+M(
xDR8U<\\!; 
{4(Ta :Rr 
Yv
FPG9HIJPjk
S!ZTI3UZ=sb+/$GNRMC,130912.00,A,0419.86667,S,05539.77228,E,0.085,,260525,,,A*77
$GNVTG,,T,,M,0.085,N,0.157,K,A*33
$GNGNS,130912.00,0419.86667,S,05539.77228,E,AA,15,0.67,25.2,-47.6,,*62
$GNGGA,130912.00,0419.86667,S,05539.77228,E,1,12,0.67,25.2,M,-47.6,M,,*4F
