$GNRMC,070418.00,A,0419.87489,S,05539.58453,E,0.215,,270525,,,D*7E
$GNVTG,,T,,M,0.215,N,0.398,K,D*3C
$GNGGA,070418.00,0419.87489,S,05539.58453,E,2,12,0.72,8.0,M,-47.6,M,,0000*73
$GNGSA,A,3,25,12,23,15,18,05,24,29,10,28,,,1.25,0.72,1.02*17
$GNGSA,A,3,80,69,79,83,73,84,,,,,,,1.25,0.72,1.02*16
$GPGSV,4,1,16,05,25,029,35,10,18,215,38,12,66,131,38,13,12,092,19*78
$GPGSV,4,2,16,15,43,117,23,18,28,309,37,23,61,225,33,24,25,164,32*70
$GPGSV,4,3,16,25,75,326,34,28,09,278,38,29,20,359,34,36,52,277,35*7E
$GPGSV,4,4,16,40,86,351,39,41,58,082,,49,32,274,,50,10,089,*73
$GLGSV,2,1,08,67,07,048,,68,40,087,12,69,40,158,34,73,28,313,27*68
$GLGSV,2,2,08,79,28,167,32,80,67,238,30,83,09,350,25,84,06,300,25*66
$GNGLL,0419.87489,S,05539.58453,E,070418.00,A,D*66
$GNRMC,070419.00,A,0419.87488,S,05539.58453,E,0.049,,270525,,,D*75
$GNVTG,,T,,M,0.049,N,0.091,K,D*3D
$GNGGA,070419.00,0419.87488,S,05539.58453,E,2,12,0.72,8.0,M,-47.6,M,,0000*73
$GNGSA,A,3,25,12,23,15,18,05,24,29,10,28,,,1.25,0.72,1.02*17
$GNGSA,A,3,80,69,79,83,73,84,,,,,,,1.25,0.72,1.02*16
$GPGSV,4,1,16,05,25,029,34,10,18,215,41,12,66,131,38,13,12,092,15*7B
$GPGSV,4,2,16,15,43,117,21,18,28,309,39,23,61,225,34,24,25,164,31*78
$GPGSV,4,3,16,25,75,326,39,28,09,278,40,29,20,359,35,36,52,277,34*7C
$GPGSV,4,4,16,40,86,351,42,41,58,082,,49,32,274,,50,10,089,*7F
$GLGSV,2,1,08,67,07,048,,68,40,087,10,69,40,158,40,73,28,313,33*6C
$GLGSV,2,2,08,79,28,167,35,80,67,238,28,83,09,350,23,84,06,300,23*68
$GNGLL,0419.87488,S,05539.58453,E,070419.00,A,D*66
$GNRMC,070420.00,A,0419.87489,S,05539.58455,E,0.049,,270525,,,D*78
$GNVTG,,T,,M,0.049,N,0.090,K,D*3C
$GNGGA,070420.00,0419.87489,S,05539.58455,E,2,12,0.72,8.0,M,-47.6,M,,0000*7E
$GNGSA,A,3,25,12,23,15,18,05,24,29,10,28,,,1.25,0.72,1.02*17
$GNGSA,A,3,80,68,69,79,83,73,84,,,,,,1.25,0.72,1.02*18
$GPGSV,4,1,16,05,25,029,38,10,18,215,43,12,66,131,38,13,12,092,11*71
$GPGSV,4,2,16,15,43,117,21,18,28,309,40,23,61,225,35,24,25,164,31*77
$GPGSV,4,3,16,25,75,326,39,28,09,278,41,29,20,359,38,36,52,277,34*70
$GPGSV,4,4,16,40,86,351,44,41,58,082,,49,32,274,,50,10,089,*79
$GLGSV,2,1,08,67,07,048,,68,40,087,13,69,40,158,40,73,28,313,32*6E
$GLGSV,2,2,08,79,28,167,36,80,67,238,28,83,09,350,21,84,06,300,23*69
$GNGLL,0419.87489,S,05539.58455,E,070420.00,A,D*6B
$GNRMC,070421.00,A,0419.87488,S,05539.58455,E,0.048,,270525,,,D*79
$GNVTG,,T,,M,0.048,N,0.090,K,D*3D
$GNGGA,070421.00,0419.87488,S,05539.58455,E,2,12,0.72,8.0,M,-47.6,M,,0000*7E
$GNGSA,A,3,25,12,23,15,18,05,24,29,10,28,,,1.25,0.72,1.02*17
$GNGSA,A,3,80,68,69,79,83,73,84,,,,,,1.25,0.72,1.02*18
$GPGSV,4,1,16,05,25,029,38,10,18,215,42,12,66,131,39,13,12,092,10*70
$GPGSV,4,2,16,15,43,117,20,18,28,309,40,23,61,225,37,24,25,164,32*77
$GPGSV,4,3,16,25,75,326,39,28,09,278,42,29,20,359,36,36,52,277,34*7D
$GPGSV,4,4,16,40,86,351,44,41,58,082,,49,32,274,,50,10,089,*79
$GLGSV,2,1,08,67,07,048,,68,40,087,19,69,40,158,38,73,28,313,32*6B
$GLGSV,2,2,08,79,28,167,32,80,67,238,29,83,09,350,20,84,06,300,25*6B
$GNGLL,0419.87488,S,05539.58455,E,070421.00,A,D*6B
$GNRMC,070422.00,A,0419.87489,S,05539.58455,E,0.054,,270525,,,D*76
$GNVTG,,T,,M,0.054,N,0.101,K,D*39
$GNGGA,070422.00,0419.87489,S,05539.58455,E,2,12,0.72,8.0,M,-47.6,M,,0000*7C
$GNGSA,A,3,25,12,23,15,18,05,24,29,10,28,,,1.25,0.72,1.02*17
$GNGSA,A,3,80,68,69,79,83,73,84,,,,,,1.25,0.72,1.02*18
$GPGSV,4,1,16,05,25,029,39,10,18,215,43,12,66,131,41,13,12,092,11*7E
$GPGSV,4,2,16,15,43,117,19,18,28,309,40,23,61,225,39,24,25,164,33*72
$GPGSV,4,3,16,25,75,326,42,28,09,278,43,29,20,359,37,36,52,277,37*72
$GPGSV,4,4,16,40,86,351,45,41,58,082,,49,32,274,,50,10,089,*78
$GLGSV,2,1,08,67,07,048,,68,40,087,17,69,40,158,38,73,28,313,30*67
$GLGSV,2,2,08,79,28,167,32,80,67,238,30,83,09,350,21,84,06,300,26*61
$GNGLL,0419.87489,S,05539.58455,E,070422.00,A,D*69
$GNRMC,070423.00,A,0419.87489,S,05539.58454,E,0.072,,270525,,,D*72
$GNVTG,,T,,M,0.072,N,0.133,K,D*3C
$GNGGA,070423.00,0419.87489,S,05539.58454,E,2,12,0.67,7.9,M,-47.6,M,,0000*7E
$GNGSA,A,3,25,12,23,15,18,05,24,29,10,28,,,1.22,0.67,1.02*14
$GNGSA,A,3,80,68,69,79,83,73,84,,,,,,1.22,0.67,1.02*1B
$GPGSV,4,1,16,05,25,029,39,10,18,215,43,12,66,131,40,13,12,092,12*7C
$GPGSV,4,2,16,15,43,117,19,18,28,309,41,23,61,225,40,24,25,164,32*7C
$GPGSV,4,3,16,25,75,326,41,28,09,278,43,29,20,359,38,36,52,277,36*7F
$GPGSV,4,4,16,40,86,351,46,41,58,082,,49,32,274,,50,10,089,*7B
$GLGSV,2,1,08,67,07,048,,68,40,087,18,69,40,158,38,73,28,313,31*69
$GLGSV,2,2,08,79,28,167,32,80,67,238,29,83,09,350,20,84,06,300,25*6B
$GNGLL,0419.87489,S,05539.58454,E,070423.00,A,D*69
$GNRMC,070424.00,A,0419.87489,S,05539.58453,E,0.013,,270525,,,D*75
$GNVTG,,T,,M,0.013,N,0.025,K,D*3D
$GNGGA,070424.00,0419.87489,S,05539.58453,E,2,12,0.67,7.9,M,-47.6,M,,0000*7E
$GNGSA,A,3,25,12,23,15,18,05,24,29,10,28,,,1.22,0.67,1.02*14
$GNGSA,A,3,80,68,69,79,83,73,84,,,,,,1.22,0.67,1.02*1B
$GPGSV,4,1,16,05,25,029,38,10,18,215,42,12,66,131,40,13,12,092,13*7D
$GPGSV,4,2,16,15,43,117,22,18,28,309,40,23,61,225,39,24,25,164,32*7B
$GPGSV,4,3,16,25,75,326,41,28,09,278,43,29,20,359,38,36,52,277,38*71
$GPGSV,4,4,16,40,86,351,44,41,58,082,,49,32,274,,50,10,089,*79
$GLGSV,2,1,08,67,07,048,,68,40,087,11,69,40,158,38,73,28,313,31*60
$GLGSV,2,2,08,79,28,167,32,80,67,238,29,83,09,350,20,84,06,300,25*6B
$GNGLL,0419.87489,S,05539.58453,E,070424.00,A,D*69
$GNRMC,070425.00,A,0419.87490,S,05539.58454,E,0.049,,270525,,,D*74
$GNVTG,,T,,M,0.049,N,0.092,K,D*3E
$GNGGA,070425.00,0419.87490,S,05539.58454,E,2,12,0.67,7.9,M,-47.6,M,,0000*70
$GNGSA,A,3,25,12,23,15,18,05,24,29,10,28,,,1.22,0.67,1.02*14
$GNGSA,A,3,80,68,69,79,83,73,84,,,,,,1.22,0.67,1.02*1B
$GPGSV,4,1,16,05,25,029,38,10,18,215,44,12,66,131,40,13,12,092,*79
$GPGSV,4,2,16,15,43,117,21,18,28,309,42,23,61,225,39,24,25,164,34*7C
$GPGSV,4,3,16,25,75,326,40,28,09,278,43,29,20,359,37,36,52,277,35*72
$GPGSV,4,4,16,40,86,351,45,41,58,082,,49,32,274,,50,10,089,*78
$GLGSV,2,1,08,67,07,048,,68,40,087,11,69,40,158,39,73,28,313,34*64
$GLGSV,2,2,08,79,28,167,32,80,67,238,31,83,09,350,20,84,06,300,25*62
$GNGLL,0419.87490,S,05539.58454,E,070425.00,A,D*67
$GNRMC,070426.00,A,0419.87489,S,05539.58454,E,0.025,,270525,,,D*75
$GNVTG,,T,,M,0.025,N,0.047,K,D*3C
$GNGGA,070426.00,0419.87489,S,05539.58454,E,2,12,0.67,7.9,M,-47.6,M,,0000*7B
$GNGSA,A,3,25,12,23,15,18,05,24,29,10,28,,,1.22,0.67,1.02*14
$GNGSA,A,3,80,68,69,79,83,73,84,,,,,,1.22,0.67,1.02*1B
$GPGSV,4,1,16,05,25,029,38,10,18,215,44,12,66,131,42,13,12,092,*7B
$GPGSV,4,2,16,15,43,117,21,18,28,309,41,23,61,225,39,24,25,164,34*7F
$GPGSV,4,3,16,25,75,326,41,28,09,278,42,29,20,359,38,36,52,277,36*7E
$GPGSV,4,4,16,40,86,351,45,41,58,082,,49,32,274,,50,10,089,*78
$GLGSV,2,1,08,67,07,048,,68,40,087,14,69,40,158,40,73,28,313,35*6E
$GLGSV,2,2,08,79,28,167,31,80,67,238,31,83,09,350,21,84,06,300,24*61
$GNGLL,0419.87489,S,05539.58454,E,070426.00,A,D*6C
$GNRMC,070427.00,A,0419.87487,S,05539.58452,E,0.026,,270525,,,D*7F
$GNVTG,,T,,M,0.026,N,0.048,K,D*30
$GNGGA,070427.00,0419.87487,S,05539.58452,E,2,12,0.67,8.0,M,-47.6,M,,0000*74
$GNGSA,A,3,25,12,23,15,18,05,24,29,10,28,,,1.22,0.67,1.02*14
$GNGSA,A,3,80,68,69,79,83,73,84,,,,,,1.22,0.67,1.02*1B
$GPGSV,4,1,16,05,25,029,37,10,18,215,43,12,66,131,41,13,12,092,*70
$GPGSV,4,2,16,15,43,117,21,18,28,309,39,23,61,225,39,24,25,164,35*71
$GPGSV,4,3,16,25,75,326,42,28,09,278,42,29,20,359,38,36,52,277,35*7E
$GPGSV,4,4,16,40,86,351,44,41,58,082,,49,32,274,,50,10,089,*79
$GLGSV,2,1,08,67,07,048,,68,40,087,13,69,40,158,40,73,28,313,35*69
$GLGSV,2,2,08,79,28,167,31,80,67,238,35,83,09,350,22,84,06,300,24*66
$GNGLL,0419.87487,S,05539.58452,E,070427.00,A,D*65
$GNRMC,070428.00,A,0419.87486,S,05539.58450,E,0.008,,270525,,,D*7F
$GNVTG,,T,,M,0.008,N,0.015,K,D*34
$GNGGA,070428.00,0419.87486,S,05539.58450,E,2,12,0.72,8.1,M,-47.6,M,,0000*7D
$GNGSA,A,3,25,12,23,15,18,05,24,29,10,28,,,1.25,0.72,1.02*17
$GNGSA,A,3,80,68,69,79,83,73,84,,,,,,1.25,0.72,1.02*18
$GPGSV,4,1,16,05,25,029,37,10,18,215,43,12,66,131,41,13,12,092,*70
$GPGSV,4,2,16,15,43,117,22,18,28,309,39,23,61,225,38,24,25,164,36*70
$GPGSV,4,3,16,25,75,326,45,28,09,278,42,29,20,359,38,36,52,277,34*78
$GPGSV,4,4,16,40,86,351,43,41,58,082,,49,32,274,,50,10,089,*7E
$GLGSV,2,1,08,67,07,048,,68,40,087,13,69,40,158,40,73,28,313,34*68
$GLGSV,2,2,08,79,28,167,32,80,67,238,33,83,09,350,22,84,06,300,25*62
$GNGLL,0419.87486,S,05539.58450,E,070428.00,A,D*69
$GNRMC,070429.00,A,0419.87486,S,05539.58450,E,0.028,,270525,,,D*7C
$GNVTG,,T,,M,0.028,N,0.053,K,D*34
$GNGGA,070429.00,0419.87486,S,05539.58450,E,2,12,0.67,8.1,M,-47.6,M,,0000*78
$GNGSA,A,3,25,12,23,15,18,05,24,29,10,28,,,1.22,0.67,1.02*14
$GNGSA,A,3,80,68,69,79,83,73,84,,,,,,1.22,0.67,1.02*1B
$GPGSV,4,1,16,05,25,029,35,10,18,215,39,12,66,131,38,13,12,092,*71
$GPGSV,4,2,16,15,43,117,24,18,28,309,36,23,61,225,34,24,25,164,31*72
$GPGSV,4,3,16,25,75,326,38,28,09,278,38,29,20,359,35,36,52,277,32*74
$GPGSV,4,4,16,40,86,351,39,41,58,082,,49,32,274,,50,10,089,*73
$GLGSV,2,1,08,67,07,048,,68,40,087,17,69,40,158,32,73,28,313,27*6B
$GLGSV,2,2,08,79,28,167,25,80,67,238,26,83,09,350,21,84,06,300,26*60
$GNGLL,0419.87486,S,05539.58450,E,070429.00,A,D*68
$GNRMC,070430.00,A,0419.87484,S,05539.58450,E,0.033,,270525,,,D*7C
$GNVTG,,T,,M,0.033,N,0.062,K,D*3C
$GNGGA,070430.00,0419.87484,S,05539.58450,E,2,12,0.67,8.1,M,-47.6,M,,0000*72
$GNGSA,A,3,25,12,23,15,18,05,24,29,10,28,,,1.22,0.67,1.02*14
$GNGSA,A,3,80,68,69,79,83,73,84,,,,,,1.22,0.67,1.02*1B
$GPGSV,4,1,16,05,25,029,39,10,18,215,43,12,66,131,41,13,12,092,*7E
$GPGSV,4,2,16,15,43,117,22,18,28,309,39,23,61,225,38,24,25,164,35*73
$GPGSV,4,3,16,25,75,326,42,28,09,278,43,29,20,359,38,36,52,277,33*79
$GPGSV,4,4,16,40,86,351,44,41,58,082,,49,32,274,,50,10,089,*79
$GLGSV,2,1,08,67,07,048,,68,40,087,13,69,40,158,37,73,28,313,35*69
$GLGSV,2,2,08,79,28,167,28,80,67,238,30,83,09,350,23,84,06,300,27*69
$GNGLL,0419.87484,S,05539.58450,E,070430.00,A,D*62
$GNRMC,070431.00,A,0419.87483,S,05539.58449,E,0.044,,270525,,,D*72
$GNVTG,,T,,M,0.044,N,0.082,K,D*32
$GNGGA,070431.00,0419.87483,S,05539.58449,E,2,12,0.67,8.0,M,-47.6,M,,0000*7D
$GNGSA,A,3,25,12,23,15,18,05,24,29,10,28,,,1.22,0.67,1.02*14
$GNGSA,A,3,80,68,69,79,83,73,84,,,,,,1.22,0.67,1.02*1B
$GPGSV,4,1,16,05,25,029,37,10,18,215,43,12,66,131,41,13,12,092,*70
$GPGSV,4,2,16,15,43,117,21,18,28,309,39,23,61,225,38,24,25,164,34*71
$GPGSV,4,3,16,25,75,326,42,28,09,278,42,29,20,359,37,36,52,277,33*77
$GPGSV,4,4,16,40,86,351,44,41,58,082,,49,32,274,,50,10,089,*79
$GLGSV,2,1,08,67,07,048,,68,40,087,12,69,40,158,37,73,28,313,35*68
$GLGSV,2,2,08,79,28,167,29,80,67,238,31,83,09,350,24,84,06,300,27*6E
$GNGLL,0419.87483,S,05539.58449,E,070431.00,A,D*6C
$GNRMC,070432.00,A,0419.87482,S,05539.58448,E,0.040,,270525,,,D*75
$GNVTG,,T,,M,0.040,N,0.073,K,D*38
$GNGGA,070432.00,0419.87482,S,05539.58448,E,2,12,0.67,8.0,M,-47.6,M,,0000*7E
$GNGSA,A,3,25,12,23,15,18,05,24,29,10,28,,,1.22,0.67,1.02*14
$GNGSA,A,3,80,68,69,79,83,73,84,,,,,,1.22,0.67,1.02*1B
$GPGSV,4,1,16,05,25,029,39,10,18,215,43,12,66,131,40,13,12,092,18*76
$GPGSV,4,2,16,15,43,117,18,18,28,309,39,23,61,225,39,24,25,164,34*7A
$GPGSV,4,3,16,25,75,326,43,28,09,278,42,29,20,359,38,36,52,277,34*7E
$GPGSV,4,4,16,40,86,351,44,41,58,082,,49,32,274,,50,10,089,*79
$GLGSV,2,1,08,67,07,048,,68,40,087,14,69,40,158,39,73,28,313,34*61
$GLGSV,2,2,08,79,28,167,35,80,67,238,31,83,09,350,25,84,06,300,26*63
$GNGLL,0419.87482,S,05539.58448,E,070432.00,A,D*6F
$GNRMC,070433.00,A,0419.87480,S,05539.58447,E,0.049,,270525,,,D*70
$GNVTG,,T,,M,0.049,N,0.091,K,D*3D
$GNGGA,070433.00,0419.87480,S,05539.58447,E,2,12,0.67,7.9,M,-47.6,M,,0000*74
$GNGSA,A,3,25,12,23,15,18,05,24,29,10,28,,,1.22,0.67,1.02*14
$GNGSA,A,3,80,68,69,79,83,73,84,,,,,,1.22,0.67,1.02*1B
$GPGSV,4,1,16,05,25,029,38,10,18,215,43,12,66,131,41,13,12,092,*7F
$GPGSV,4,2,16,15,43,117,18,18,28,309,39,23,61,225,39,24,25,164,35*7B
$GPGSV,4,3,16,25,75,326,43,28,09,278,43,29,20,359,37,36,52,277,34*70
$GPGSV,4,4,16,40,86,351,45,41,58,082,,49,32,274,,50,10,089,*78
$GLGSV,2,1,08,67,07,048,,68,40,087,15,69,40,158,41,73,28,313,35*6E
$GLGSV,2,2,08,79,28,167,34,80,67,238,33,83,09,350,27,84,06,300,28*6C
$GNGLL,0419.87480,S,05539.58447,E,070433.00,A,D*63
$GNRMC,070434.00,A,0419.87477,S,05539.58446,E,0.014,,270525,,,D*76
$GNVTG,,T,,M,0.014,N,0.026,K,D*39
$GNGGA,070434.00,0419.87477,S,05539.58446,E,2,12,0.67,7.8,M,-47.6,M,,0000*7B
$GNGSA,A,3,25,12,23,15,18,05,24,29,10,28,,,1.22,0.67,1.02*14
$GNGSA,A,3,80,68,69,79,83,73,84,,,,,,1.22,0.67,1.02*1B
$GPGSV,4,1,16,05,25,029,39,10,18,215,43,12,66,131,41,13,12,092,*7E
$GPGSV,4,2,16,15,43,117,23,18,28,309,41,23,61,225,39,24,25,164,39*70
$GPGSV,4,3,16,25,75,326,43,28,09,278,43,29,20,359,37,36,52,277,34*70
$GPGSV,4,4,16,40,86,351,45,41,58,082,,49,32,274,,50,10,089,*78
$GLGSV,2,1,08,67,07,048,,68,40,087,21,69,40,158,39,73,28,313,35*66
$GLGSV,2,2,08,79,28,167,34,80,67,238,33,83,09,350,26,84,06,300,28*6D
$GNGLL,0419.87477,S,05539.58446,E,070434.00,A,D*6D
$GNRMC,070435.00,A,0419.87477,S,05539.58447,E,0.066,,270525,,,D*73
$GNVTG,,T,,M,0.066,N,0.121,K,D*3A
$GNGGA,070435.00,0419.87477,S,05539.58447,E,2,12,0.67,7.7,M,-47.6,M,,0000*74
$GNGSA,A,3,25,12,23,15,18,05,24,29,10,28,,,1.22,0.67,1.02*14
$GNGSA,A,3,80,68,69,79,83,73,84,,,,,,1.22,0.67,1.02*1B
$GPGSV,4,1,16,05,25,029,39,10,18,215,43,12,66,131,41,13,12,092,*7E
$GPGSV,4,2,16,15,43,117,25,18,28,309,39,23,61,225,39,24,25,164,36*76
$GPGSV,4,3,16,25,75,326,43,28,09,278,43,29,20,359,37,36,52,277,34*70
$GPGSV,4,4,16,40,86,351,45,41,58,082,,49,32,274,,50,10,089,*78
$GLGSV,2,1,08,67,07,048,,68,40,087,24,69,40,158,39,73,28,313,33*65
$GLGSV,2,2,08,79,28,167,32,80,67,238,32,83,09,350,24,84,06,300,27*67
$GNGLL,0419.87477,S,05539.58447,E,070435.00,A,D*6D
$GNRMC,070436.00,A,0419.87475,S,05539.58447,E,0.048,,270525,,,D*7E
$GNVTG,,T,,M,0.048,N,0.089,K,D*35
$GNGGA,070436.00,0419.87475,S,05539.58447,E,2,12,0.67,7.6,M,-47.6,M,,0000*74
$GNGSA,A,3,25,12,23,15,18,05,24,29,10,28,,,1.22,0.67,1.02*14
$GNGSA,A,3,80,68,69,79,83,73,84,,,,,,1.22,0.67,1.02*1B
$GPGSV,4,1,16,05,25,029,39,10,18,215,44,12,66,131,41,13,12,092,*79
$GPGSV,4,2,16,15,43,117,23,18,28,309,41,23,61,225,39,24,25,164,36*7F
$GPGSV,4,3,16,25,75,326,44,28,09,278,43,29,20,359,36,36,52,277,34*76
$GPGSV,4,4,16,40,86,351,46,41,58,082,,49,32,274,,50,10,089,*7B
$GLGSV,2,1,08,67,07,048,,68,40,087,19,69,40,158,39,73,28,313,34*6C
$GLGSV,2,2,08,79,28,167,33,80,67,238,33,83,09,350,24,84,06,300,27*67
$GNGLL,0419.87475,S,05539.58447,E,070436.00,A,D*6C
$GNRMC,070437.00,A,0419.87474,S,05539.58448,E,0.015,,270525,,,D*79
$GNVTG,,T,,M,0.015,N,0.027,K,D*39
$GNGGA,070437.00,0419.87474,S,05539.58448,E,2,12,0.67,7.5,M,-47.6,M,,0000*78
$GNGSA,A,3,25,12,23,15,18,05,24,29,10,28,,,1.22,0.67,1.02*14
$GNGSA,A,3,80,68,69,79,83,73,84,,,,,,1.22,0.67,1.02*1B
$GPGSV,4,1,16,05,25,029,39,10,18,215,43,12,66,131,41,13,12,092,*7E
$GPGSV,4,2,16,15,43,117,23,18,28,309,41,23,61,225,39,24,25,164,35*7C
$GPGSV,4,3,16,25,75,326,44,28,09,278,43,29,20,359,37,36,52,277,34*77
$GPGSV,4,4,16,40,86,351,45,41,58,082,,49,32,274,,50,10,089,*78
$GLGSV,2,1,08,67,07,048,,68,40,087,20,69,40,158,41,73,28,313,35*68
$GLGSV,2,2,08,79,28,167,33,80,67,238,34,83,09,350,25,84,06,300,27*61
$GNGLL,0419.87474,S,05539.58448,E,070437.00,A,D*63
$GNRMC,070438.00,A,0419.87474,S,05539.58448,E,0.025,,270525,,,D*75
$GNVTG,,T,,M,0.025,N,0.047,K,D*3C
$GNGGA,070438.00,0419.87474,S,05539.58448,E,2,12,0.67,7.5,M,-47.6,M,,0000*77
$GNGSA,A,3,25,12,23,15,18,05,24,29,10,28,,,1.22,0.67,1.02*14
$GNGSA,A,3,80,68,69,79,83,73,84,,,,,,1.22,0.67,1.02*1B
$GPGSV,4,1,16,05,25,029,38,10,18,215,43,12,66,131,40,13,12,092,*7E
$GPGSV,4,2,16,15,43,117,23,18,28,309,40,23,61,225,38,24,25,164,35*7C
$GPGSV,4,3,16,25,75,326,43,28,09,278,41,29,20,359,36,36,52,277,33*74
$GPGSV,4,4,16,40,86,351,44,41,58,082,,49,32,274,,50,10,089,*79
$GLGSV,2,1,08,67,07,048,,68,40,087,22,69,40,158,41,73,28,313,36*69
$GLGSV,2,2,08,79,28,167,33,80,67,238,35,83,09,350,27,84,06,300,28*6D
$GNGLL,0419.87474,S,05539.58448,E,070438.00,A,D*6C
$GNRMC,070439.00,A,0419.87474,S,05539.58449,E,0.020,,270525,,,D*70
$GNVTG,,T,,M,0.020,N,0.037,K,D*3E
$GNGGA,070439.00,0419.87474,S,05539.58449,E,2,12,0.67,7.5,M,-47.6,M,,0000*77
$GNGSA,A,3,25,12,23,15,18,05,24,29,10,28,,,1.22,0.67,1.02*14
$GNGSA,A,3,80,68,69,79,83,73,84,,,,,,1.22,0.67,1.02*1B
$GPGSV,4,1,16,05,25,029,38,10,18,215,43,12,66,131,41,13,12,092,*7F
$GPGSV,4,2,16,15,43,117,22,18,28,309,40,23,61,225,37,24,25,164,36*71
$GPGSV,4,3,16,25,75,326,43,28,09,278,41,29,20,359,36,36,52,277,33*74
$GPGSV,4,4,16,40,86,351,45,41,58,082,,49,32,274,,50,10,089,*78
$GLGSV,2,1,08,67,07,048,,68,40,087,21,69,40,158,42,73,28,313,36*69
$GLGSV,2,2,08,79,28,167,34,80,67,238,35,83,09,350,25,84,06,300,29*69
$GNGLL,0419.87474,S,05539.58449,E,070439.00,A,D*6C
$GNRMC,070440.00,A,0419.87475,S,05539.58449,E,0.039,,270525,,,D*77
$GNVTG,,T,,M,0.039,N,0.072,K,D*37
$GNGGA,070440.00,0419.87475,S,05539.58449,E,2,12,0.72,7.4,M,-47.6,M,,0000*7D
$GNGSA,A,3,25,12,23,15,18,05,24,29,10,28,,,1.25,0.72,1.02*17
$GNGSA,A,3,80,68,69,79,83,73,84,,,,,,1.25,0.72,1.02*18
$GPGSV,4,1,16,05,25,029,38,10,18,215,42,12,66,131,41,13,12,092,*7E
$GPGSV,4,2,16,15,43,117,20,18,28,309,38,23,61,225,36,24,25,164,36*7D
$GPGSV,4,3,16,25,75,326,43,28,09,278,42,29,20,359,36,36,52,277,32*76
$GPGSV,4,4,16,40,86,351,44,41,58,082,,49,32,274,,50,10,089,*79
$GLGSV,2,1,08,67,07,048,,68,40,087,20,69,40,158,41,73,28,313,37*6A
$GLGSV,2,2,08,79,28,167,35,80,67,238,34,83,09,350,27,84,06,300,29*6B
$GNGLL,0419.87475,S,05539.58449,E,070440.00,A,D*63
$GNRMC,070441.00,A,0419.87476,S,05539.58449,E,0.020,,270525,,,D*7D
$GNVTG,,T,,M,0.020,N,0.037,K,D*3E
$GNGGA,070441.00,0419.87476,S,05539.58449,E,2,12,0.67,7.4,M,-47.6,M,,0000*7B
$GNGSA,A,3,25,12,23,15,18,05,24,29,10,28,,,1.22,0.67,1.02*14
$GNGSA,A,3,80,68,69,79,83,73,84,,,,,,1.22,0.67,1.02*1B
$GPGSV,4,1,16,05,25,029,37,10,18,215,41,12,66,131,41,13,12,092,*72
$GPGSV,4,2,16,15,43,117,18,18,28,309,38,23,61,225,38,24,25,164,36*78
$GPGSV,4,3,16,25,75,326,43,28,09,278,42,29,20,359,36,36,52,277,33*77
$GPGSV,4,4,16,40,86,351,44,41,58,082,,49,32,274,,50,10,089,*79
$GLGSV,2,1,08,67,07,048,,68,40,086,19,69,40,158,41,73,28,313,36*60
$GLGSV,2,2,08,79,28,167,35,80,67,238,34,83,09,350,27,84,06,300,29*6B
$GNGLL,0419.87476,S,05539.58449,E,070441.00,A,D*61
$GNRMC,070442.00,A,0419.87477,S,05539.58449,E,0.013,,270525,,,D*7F
$GNVTG,,T,,M,0.013,N,0.024,K,D*3C
$GNGGA,070442.00,0419.87477,S,05539.58449,E,2,12,0.67,7.4,M,-47.6,M,,0000*79
$GNGSA,A,3,25,12,23,15,18,05,24,29,10,28,,,1.22,0.67,1.02*14
$GNGSA,A,3,80,68,69,79,83,73,84,,,,,,1.22,0.67,1.02*1B
$GPGSV,4,1,16,05,25,029,37,10,18,215,42,12,66,131,41,13,12,092,*71
$GPGSV,4,2,16,15,43,117,20,18,28,309,38,23,61,225,38,24,25,164,35*70
$GPGSV,4,3,16,25,75,326,43,28,09,278,42,29,20,359,37,36,52,277,35*70
$GPGSV,4,4,16,40,86,351,44,41,58,082,,49,32,274,,50,10,089,*79
$GLGSV,2,1,08,67,07,048,,68,40,086,15,69,41,157,41,73,28,313,36*62
$GLGSV,2,2,08,79,28,167,34,80,67,238,35,83,09,350,28,84,06,300,29*64
$GNGLL,0419.87477,S,05539.58449,E,070442.00,A,D*63
$GNRMC,070443.00,A,0419.87478,S,05539.58450,E,0.020,,270525,,,D*79
$GNVTG,,T,,M,0.020,N,0.038,K,D*31
$GNGGA,070443.00,0419.87478,S,05539.58450,E,2,12,0.67,7.4,M,-47.6,M,,0000*7F
$GNGSA,A,3,25,12,23,15,18,05,24,29,10,28,,,1.22,0.67,1.02*14
$GNGSA,A,3,80,68,69,79,83,73,84,,,,,,1.22,0.67,1.02*1B
$GPGSV,4,1,16,05,25,029,37,10,18,215,42,12,66,131,41,13,12,092,*71
$GPGSV,4,2,16,15,43,117,20,18,28,309,39,23,61,225,38,24,25,164,35*71
$GPGSV,4,3,16,25,75,326,43,28,09,278,42,29,20,359,35,36,52,277,35*72
$GPGSV,4,4,16,40,86,351,44,41,58,082,,49,32,274,,50,10,089,*79
$GLGSV,2,1,08,67,07,048,,68,40,086,14,69,41,157,41,73,28,313,36*63
$GLGSV,2,2,08,79,28,167,35,80,67,238,35,83,09,350,28,84,06,300,28*64
$GNGLL,0419.87478,S,05539.58450,E,070443.00,A,D*65
$GNRMC,070444.00,A,0419.87479,S,05539.58449,E,0.030,,270525,,,D*76
$GNVTG,,T,,M,0.030,N,0.055,K,D*3B
$GNGGA,070444.00,0419.87479,S,05539.58449,E,2,12,0.67,7.3,M,-47.6,M,,0000*76
$GNGSA,A,3,25,12,23,15,18,05,24,29,10,28,,,1.22,0.67,1.02*14
$GNGSA,A,3,80,68,69,79,83,73,84,,,,,,1.22,0.67,1.02*1B
$GPGSV,4,1,16,05,25,029,38,10,18,215,43,12,66,131,39,13,12,092,*70
$GPGSV,4,2,16,15,43,117,22,18,28,309,39,23,61,225,40,24,25,164,35*7C
$GPGSV,4,3,16,25,75,326,42,28,09,278,42,29,20,359,37,36,52,277,35*71
$GPGSV,4,4,16,40,86,351,43,41,58,082,,49,32,274,,50,10,089,*7E
$GLGSV,2,1,08,67,07,048,,68,40,086,16,69,41,157,37,73,28,313,35*63
$GLGSV,2,2,08,79,28,167,34,80,67,238,34,83,09,350,29,84,06,300,29*64
$GNGLL,0419.87479,S,05539.58449,E,070444.00,A,D*6B
$GNRMC,070445.00,A,0419.87479,S,05539.58450,E,0.035,,270525,,,D*7A
$GNVTG,,T,,M,0.035,N,0.064,K,D*3C
$GNGGA,070445.00,0419.87479,S,05539.58450,E,2,12,0.67,7.3,M,-47.6,M,,0000*7F
$GNGSA,A,3,25,12,23,15,18,05,24,29,10,28,,,1.22,0.67,1.02*14
$GNGSA,A,3,80,68,69,79,83,73,84,,,,,,1.22,0.67,1.02*1B
$GPGSV,4,1,16,05,25,029,38,10,18,215,44,12,66,131,38,13,12,092,*76
$GPGSV,4,2,16,15,43,117,25,18,28,309,38,23,61,225,39,24,25,164,34*75
$GPGSV,4,3,16,25,75,326,42,28,09,278,42,29,20,359,38,36,52,277,34*7F
$GPGSV,4,4,16,40,86,351,44,41,58,082,,49,32,274,,50,10,089,*79
$GLGSV,2,1,08,67,07,048,,68,40,086,18,69,41,157,38,73,28,313,36*61
$GLGSV,2,2,08,79,28,167,32,80,67,238,34,83,09,350,26,84,06,300,28*6C
$GNGLL,0419.87479,S,05539.58450,E,070445.00,A,D*62
$GNRMC,070446.00,A,0419.87478,S,05539.58451,E,0.037,,270525,,,D*7B
$GNVTG,,T,,M,0.037,N,0.069,K,D*33
$GNGGA,070446.00,0419.87478,S,05539.58451,E,2,12,0.67,7.3,M,-47.6,M,,0000*7C
$GNGSA,A,3,25,12,23,15,18,05,24,29,10,28,,,1.22,0.67,1.02*14
$GNGSA,A,3,80,68,69,79,83,73,84,,,,,,1.22,0.67,1.02*1B
$GPGSV,4,1,16,05,25,029,38,10,18,215,43,12,66,131,38,13,12,092,*71
$GPGSV,4,2,16,15,43,117,23,18,28,309,38,23,61,225,39,24,25,164,34*73
$GPGSV,4,3,16,25,75,326,41,28,09,278,42,29,20,359,38,36,52,277,33*7B
$GPGSV,4,4,16,40,86,351,44,41,58,082,,49,32,274,,50,10,089,*79
$GLGSV,2,1,08,67,07,048,,68,40,086,20,69,41,157,38,73,29,313,36*6B
$GLGSV,2,2,08,79,28,167,32,80,67,238,34,83,09,350,24,84,06,300,28*6E
$GNGLL,0419.87478,S,05539.58451,E,070446.00,A,D*61
$GNRMC,070447.00,A,0419.87478,S,05539.58452,E,0.035,,270525,,,D*7B
$GNVTG,,T,,M,0.035,N,0.065,K,D*3D
$GNGGA,070447.00,0419.87478,S,05539.58452,E,2,12,0.67,7.2,M,-47.6,M,,0000*7F
$GNGSA,A,3,25,12,23,15,18,05,24,29,10,28,,,1.22,0.67,1.02*14
$GNGSA,A,3,80,68,69,79,83,73,84,,,,,,1.22,0.67,1.02*1B
$GPGSV,4,1,16,05,25,029,38,10,18,215,43,12,66,131,38,13,12,092,*71
$GPGSV,4,2,16,15,43,117,23,18,28,309,38,23,61,225,38,24,25,164,34*72
$GPGSV,4,3,16,25,75,326,42,28,09,278,42,29,20,359,38,36,52,277,33*78
$GPGSV,4,4,16,40,86,351,44,41,58,082,,49,32,274,,50,10,089,*79
$GLGSV,2,1,08,67,07,048,,68,40,086,20,69,41,157,38,73,29,313,35*68
$GLGSV,2,2,08,79,28,167,32,80,67,238,35,83,09,350,21,84,06,300,28*6A
$GNGLL,0419.87478,S,05539.58452,E,070447.00,A,D*63
$GNRMC,070448.00,A,0419.87477,S,05539.58453,E,0.030,,270525,,,D*7F
$GNVTG,,T,,M,0.030,N,0.056,K,D*38
$GNGGA,070448.00,0419.87477,S,05539.58453,E,2,12,0.67,7.2,M,-47.6,M,,0000*7E
$GNGSA,A,3,25,12,23,15,18,05,24,29,10,28,,,1.22,0.67,1.02*14
$GNGSA,A,3,80,68,69,79,83,73,84,,,,,,1.22,0.67,1.02*1B
$GPGSV,4,1,16,05,25,029,38,10,18,215,43,12,66,131,37,13,12,092,*7E
$GPGSV,4,2,16,15,43,117,23,18,28,309,38,23,61,225,39,24,25,164,35*72
$GPGSV,4,3,16,25,75,326,42,28,09,278,42,29,20,359,38,36,52,277,33*78
$GPGSV,4,4,16,40,86,351,44,41,58,082,,49,32,274,,50,10,089,*79
$GLGSV,2,1,08,67,07,048,,68,40,086,22,69,41,157,38,73,29,313,34*6B
$GLGSV,2,2,08,79,28,167,31,80,67,238,34,83,09,350,20,84,06,300,28*69
$GNGLL,0419.87477,S,05539.58453,E,070448.00,A,D*62
$GNRMC,070449.00,A,0419.87478,S,05539.58455,E,0.040,,270525,,,D*70
$GNVTG,,T,,M,0.040,N,0.075,K,D*3E
$GNGGA,070449.00,0419.87478,S,05539.58455,E,2,12,0.67,7.1,M,-47.6,M,,0000*75
$GNGSA,A,3,25,12,23,15,18,05,24,29,10,28,,,1.22,0.67,1.02*14
$GNGSA,A,3,80,68,69,79,83,73,84,,,,,,1.22,0.67,1.02*1B
$GPGSV,4,1,16,05,25,029,36,10,18,215,42,12,66,131,37,13,12,092,*71
$GPGSV,4,2,16,15,43,117,22,18,28,309,36,23,61,225,38,24,25,164,34*7D
$GPGSV,4,3,16,25,75,326,42,28,09,278,42,29,20,359,36,36,52,277,32*77
$GPGSV,4,4,16,40,86,351,43,41,58,082,,49,32,274,,50,10,089,*7E
$GLGSV,2,1,08,67,07,048,,68,40,086,22,69,41,157,38,73,29,313,34*6B
$GLGSV,2,2,08,79,28,167,32,80,67,238,34,83,09,350,20,84,06,300,28*6A
$GNGLL,0419.87478,S,05539.58455,E,070449.00,A,D*6A
$GNRMC,070450.00,A,0419.87480,S,05539.58456,E,0.067,,270525,,,D*79
$GNVTG,,T,,M,0.067,N,0.125,K,D*3F
$GNGGA,070450.00,0419.87480,S,05539.58456,E,2,12,0.67,7.0,M,-47.6,M,,0000*78
$GNGSA,A,3,25,12,23,15,18,05,24,29,10,28,,,1.22,0.67,1.02*14
$GNGSA,A,3,80,68,69,79,83,73,84,,,,,,1.22,0.67,1.02*1B
$GPGSV,4,1,16,05,25,029,36,10,18,215,40,12,66,131,37,13,12,092,*73
$GPGSV,4,2,16,15,43,117,18,18,28,309,36,23,61,225,36,24,25,164,31*7F
$GPGSV,4,3,16,25,75,326,41,28,09,278,39,29,20,359,35,36,52,277,31*78
$GPGSV,4,4,16,40,86,351,41,41,58,082,,49,32,274,,50,10,089,*7C
$GLGSV,2,1,08,67,07,048,,68,40,086,18,69,41,157,39,73,29,313,35*62
$GLGSV,2,2,08,79,28,167,32,80,67,238,36,83,09,350,20,84,06,300,24*64
$GNGLL,0419.87480,S,05539.58456,E,070450.00,A,D*66
$GNRMC,070451.00,A,0419.87481,S,05539.58455,E,0.099,,270525,,,D*7B
$GNVTG,,T,,M,0.099,N,0.183,K,D*32
$GNGGA,070451.00,0419.87481,S,05539.58455,E,2,12,0.67,7.0,M,-47.6,M,,0000*7B
$GNGSA,A,3,25,12,23,15,18,05,24,29,10,28,,,1.22,0.67,1.02*14
$GNGSA,A,3,80,68,69,79,83,73,84,,,,,,1.22,0.67,1.02*1B
$GPGSV,4,1,16,05,25,029,36,10,18,215,40,12,66,131,38,13,12,092,*7C
$GPGSV,4,2,16,15,43,117,18,18,28,309,37,23,61,225,36,24,25,164,32*7D
$GPGSV,4,3,16,25,75,326,41,28,09,278,40,29,20,359,35,36,52,277,31*76
$GPGSV,4,4,16,40,86,351,41,41,58,082,,49,32,274,,50,10,089,*7C
$GLGSV,2,1,08,67,07,048,,68,40,086,17,69,41,157,39,73,29,313,36*6E
$GLGSV,2,2,08,79,28,167,31,80,67,238,35,83,09,350,21,84,06,300,25*64
$GNGLL,0419.87481,S,05539.58455,E,070451.00,A,D*65
$GNRMC,070452.00,A,0419.87482,S,05539.58454,E,0.043,,270525,,,D*7D
$GNVTG,,T,,M,0.043,N,0.080,K,D*37
$GNGGA,070452.00,0419.87482,S,05539.58454,E,2,12,0.67,7.0,M,-47.6,M,,0000*7A
$GNGSA,A,3,25,12,23,15,18,05,24,29,10,28,,,1.22,0.67,1.02*14
$GNGSA,A,3,80,68,69,79,83,73,84,,,,,,1.22,0.67,1.02*1B
$GPGSV,4,1,16,05,25,029,36,10,18,215,41,12,66,131,38,13,12,092,*7D
$GPGSV,4,2,16,15,43,117,19,18,28,309,37,23,61,225,36,24,25,164,33*7D
$GPGSV,4,3,16,25,75,326,41,28,09,278,40,29,20,359,34,36,52,277,30*76
$GPGSV,4,4,16,40,86,351,43,41,58,082,,49,32,274,,50,10,089,*7E
$GLGSV,2,1,08,67,07,048,,68,40,086,18,69,41,157,38,73,29,313,35*63
$GLGSV,2,2,08,79,28,167,31,80,67,238,33,83,09,350,19,84,06,300,26*6A
$GNGLL,0419.87482,S,05539.58454,E,070452.00,A,D*64
$GNRMC,070453.00,A,0419.87483,S,05539.58453,E,0.038,,270525,,,D*76
$GNVTG,,T,,M,0.038,N,0.070,K,D*34
$GNGGA,070453.00,0419.87483,S,05539.58453,E,2,12,0.67,7.0,M,-47.6,M,,0000*7D
$GNGSA,A,3,25,12,23,15,18,05,24,29,10,28,,,1.22,0.67,1.02*14
$GNGSA,A,3,80,68,69,79,83,73,84,,,,,,1.22,0.67,1.02*1B
$GPGSV,4,1,16,05,25,029,37,10,18,215,41,12,66,131,39,13,12,092,*7D
$GPGSV,4,2,16,15,43,117,18,18,28,309,38,23,61,225,35,24,25,164,33*70
$GPGSV,4,3,16,25,75,326,41,28,09,278,41,29,20,359,35,36,52,277,32*74
$GPGSV,4,4,16,40,86,351,42,41,58,082,,49,32,274,,50,10,089,*7F
$GLGSV,2,1,08,67,07,048,,68,40,086,19,69,41,157,40,73,29,313,35*6D
$GLGSV,2,2,08,79,28,167,35,80,67,236,36,83,09,350,22,84,06,300,26*6D
$GNGLL,0419.87483,S,05539.58453,E,070453.00,A,D*63
$GNRMC,070454.00,A,0419.87483,S,05539.58452,E,0.014,,270525,,,D*7E
$GNVTG,,T,,M,0.014,N,0.027,K,D*38
$GNGGA,070454.00,0419.87483,S,05539.58452,E,2,12,0.67,7.0,M,-47.6,M,,0000*7B
$GNGSA,A,3,25,12,23,15,18,05,24,29,10,28,,,1.22,0.67,1.02*14
$GNGSA,A,3,80,68,69,79,83,73,84,,,,,,1.22,0.67,1.02*1B
$GPGSV,4,1,16,05,25,029,37,10,18,215,41,12,66,131,38,13,12,092,*7C
$GPGSV,4,2,16,15,43,117,19,18,28,309,36,23,61,225,35,24,25,164,34*78
$GPGSV,4,3,16,25,75,326,42,28,09,278,41,29,20,359,35,36,52,277,32*77
$GPGSV,4,4,16,40,86,351,42,41,58,082,,49,32,274,,50,10,089,*7F
$GLGSV,2,1,08,67,07,048,,68,40,086,20,69,41,157,41,73,29,313,35*66
$GLGSV,2,2,08,79,28,167,32,80,67,236,36,83,09,350,21,84,06,300,27*68
$GNGLL,0419.87483,S,05539.58452,E,070454.00,A,D*65
$GNRMC,070455.00,A,0419.87483,S,05539.58450,E,0.044,,270525,,,D*78
$GNVTG,,T,,M,0.044,N,0.082,K,D*32
$GNGGA,070455.00,0419.87483,S,05539.58450,E,2,12,0.67,7.0,M,-47.6,M,,0000*78
$GNGSA,A,3,25,12,23,15,18,05,24,29,10,28,,,1.22,0.67,1.02*14
$GNGSA,A,3,80,68,69,79,83,73,84,,,,,,1.22,0.67,1.02*1B
$GPGSV,4,1,16,05,25,029,36,10,18,215,40,12,66,131,39,13,12,092,*7D
$GPGSV,4,2,16,15,43,117,18,18,28,309,36,23,61,225,36,24,25,164,33*7D
$GPGSV,4,3,16,25,75,326,42,28,09,278,41,29,20,359,35,36,52,277,31*74
$GPGSV,4,4,16,40,86,351,42,41,58,082,,49,32,274,,50,10,089,*7F
$GLGSV,2,1,08,67,07,048,,68,40,086,22,69,41,157,41,73,29,313,36*67
$GLGSV,2,2,08,79,28,167,32,80,67,236,35,83,09,350,22,84,06,300,27*68
$GNGLL,0419.87483,S,05539.58450,E,070455.00,A,D*66
$GNRMC,070456.00,A,0419.87483,S,05539.58450,E,0.050,,270525,,,D*7E
$GNVTG,,T,,M,0.050,N,0.092,K,D*36
$GNGGA,070456.00,0419.87483,S,05539.58450,E,2,12,0.67,7.0,M,-47.6,M,,0000*7B
$GNGSA,A,3,25,12,23,15,18,05,24,29,10,28,,,1.22,0.67,1.02*14
$GNGSA,A,3,80,68,69,79,83,73,84,,,,,,1.22,0.67,1.02*1B
$GPGSV,4,1,16,05,25,029,36,10,18,215,40,12,66,131,39,13,12,092,*7D
$GPGSV,4,2,16,15,43,117,20,18,28,309,36,23,61,225,35,24,25,164,31*77
$GPGSV,4,3,16,25,75,326,41,28,09,278,41,29,20,359,35,36,52,277,30*76
$GPGSV,4,4,16,40,86,351,42,41,58,082,,49,32,274,,50,10,089,*7F
$GLGSV,2,1,08,67,07,048,,68,40,086,22,69,41,157,39,73,29,313,34*6A
$GLGSV,2,2,08,79,28,167,31,80,67,236,35,83,09,351,21,84,06,300,27*69
$GNGLL,0419.87483,S,05539.58450,E,070456.00,A,D*65
$GNRMC,070457.00,A,0419.87483,S,05539.58451,E,0.025,,270525,,,D*7C
$GNVTG,,T,,M,0.025,N,0.045,K,D*3E
$GNGGA,070457.00,0419.87483,S,05539.58451,E,2,12,0.67,6.9,M,-47.6,M,,0000*73
$GNGSA,A,3,25,12,23,15,18,05,24,29,10,28,,,1.22,0.67,1.02*14
$GNGSA,A,3,80,68,69,79,83,73,84,,,,,,1.22,0.67,1.02*1B
$GPGSV,4,1,16,05,25,029,35,10,18,215,40,12,66,131,38,13,12,092,*7F
$GPGSV,4,2,16,15,43,117,19,18,28,309,36,23,61,225,35,24,25,164,32*7E
$GPGSV,4,3,16,25,75,326,42,28,09,278,42,29,20,359,35,36,52,277,32*74
$GPGSV,4,4,16,40,86,351,42,41,58,082,,49,32,274,,50,10,089,*7F
$GLGSV,2,1,08,67,07,048,,68,40,086,21,69,41,157,40,73,29,313,35*66
$GLGSV,2,2,08,79,28,167,31,80,67,236,34,83,09,351,21,84,06,300,27*68
$GNGLL,0419.87483,S,05539.58451,E,070457.00,A,D*65
$GNRMC,070458.00,A,0419.87484,S,05539.58451,E,0.006,,270525,,,D*75
$GNVTG,,T,,M,0.006,N,0.011,K,D*3E
$GNGGA,070458.00,0419.87484,S,05539.58451,E,2,12,0.67,6.9,M,-47.6,M,,0000*7B
$GNGSA,A,3,25,12,23,15,18,05,24,29,10,28,,,1.22,0.67,1.02*14
$GNGSA,A,3,80,68,69,79,83,73,84,,,,,,1.22,0.67,1.02*1B
$GPGSV,4,1,16,05,25,029,36,10,18,215,41,12,66,131,38,13,12,092,*7D
$GPGSV,4,2,16,15,43,117,18,18,28,309,35,23,61,225,36,24,25,164,33*7E
$GPGSV,4,3,16,25,75,326,41,28,09,278,41,29,20,359,35,36,52,277,31*77
$GPGSV,4,4,16,40,86,351,42,41,58,082,,49,32,274,,50,10,089,*7F
$GLGSV,2,1,08,67,07,048,,68,40,086,21,69,41,157,40,73,29,313,35*66
$GLGSV,2,2,08,79,28,167,32,80,67,236,34,83,09,351,22,84,06,300,27*68
$GNGLL,0419.87484,S,05539.58451,E,070458.00,A,D*6D
$GNRMC,070459.00,A,0419.87484,S,05539.58451,E,0.014,,270525,,,D*77
$GNVTG,,T,,M,0.014,N,0.025,K,D*3A
$GNGGA,070459.00,0419.87484,S,05539.58451,E,2,12,0.67,6.9,M,-47.6,M,,0000*7A
$GNGSA,A,3,25,12,23,15,18,05,24,29,10,28,,,1.22,0.67,1.02*14
$GNGSA,A,3,80,68,69,79,83,73,84,,,,,,1.22,0.67,1.02*1B
$GPGSV,4,1,16,05,25,029,36,10,18,215,41,12,66,131,39,13,12,092,*7C
$GPGSV,4,2,16,15,43,117,17,18,28,309,35,23,61,225,35,24,25,164,33*72
$GPGSV,4,3,16,25,75,326,41,28,09,278,41,29,20,359,34,36,52,277,31*76
$GPGSV,4,4,16,40,86,351,42,41,58,082,,49,32,274,,50,10,089,*7F
$GLGSV,2,1,08,67,07,048,,68,40,086,21,69,41,157,40,73,29,313,35*66
$GLGSV,2,2,08,79,28,167,31,80,67,236,33,83,09,351,22,84,06,300,27*6C
$GNGLL,0419.87484,S,05539.58451,E,070459.00,A,D*6C
$GNRMC,070500.00,A,0419.87484,S,05539.58451,E,0.024,,270525,,,D*79
$GNVTG,,T,,M,0.024,N,0.045,K,D*3F
$GNGGA,070500.00,0419.87484,S,05539.58451,E,2,12,0.67,6.8,M,-47.6,M,,0000*76
$GNGSA,A,3,25,12,23,15,18,05,24,29,10,28,,,1.22,0.67,1.02*14
$GNGSA,A,3,80,68,69,79,83,73,84,,,,,,1.22,0.67,1.02*1B
$GPGSV,4,1,16,05,25,029,37,10,18,215,39,12,66,131,40,13,12,092,*7C
$GPGSV,4,2,16,15,43,117,18,18,28,309,35,23,61,225,36,24,25,164,33*7E
$GPGSV,4,3,16,25,75,326,41,28,09,278,41,29,20,359,35,36,52,277,31*77
$GPGSV,4,4,16,40,86,351,42,41,58,082,,49,32,274,,50,10,089,*7F
$GLGSV,2,1,08,67,07,048,,68,40,086,22,69,41,157,39,73,29,313,36*68
$GLGSV,2,2,08,79,28,167,32,80,67,236,34,83,09,351,23,84,06,300,27*69
$GNGLL,0419.87484,S,05539.58451,E,070500.00,A,D*61
$GNRMC,070501.00,A,0419.87484,S,05539.58452,E,0.016,,270525,,,D*7A
$GNVTG,,T,,M,0.016,N,0.029,K,D*34
$GNGGA,070501.00,0419.87484,S,05539.58452,E,2,12,0.67,6.8,M,-47.6,M,,0000*74
$GNGSA,A,3,25,12,23,15,18,05,24,29,10,28,,,1.22,0.67,1.02*14
$GNGSA,A,3,80,68,69,79,83,73,84,,,,,,1.22,0.67,1.02*1B
$GPGSV,4,1,16,05,25,029,36,10,18,215,40,12,66,131,39,13,12,092,*7D
$GPGSV,4,2,16,15,43,117,19,18,28,309,36,23,61,225,35,24,25,164,33*7F
$GPGSV,4,3,16,25,75,326,42,28,09,278,41,29,20,359,34,36,52,277,31*75
$GPGSV,4,4,16,40,86,351,42,41,58,082,,49,32,274,,50,10,089,*7F
$GLGSV,2,1,08,67,07,048,,68,40,086,23,69,41,157,39,73,29,313,36*69
$GLGSV,2,2,08,79,28,167,32,80,67,236,34,83,09,351,24,84,06,300,28*61
$GNGLL,0419.87484,S,05539.58452,E,070501.00,A,D*63
$GNRMC,070502.00,A,0419.87485,S,05539.58452,E,0.034,,270525,,,D*78
$GNVTG,,T,,M,0.034,N,0.062,K,D*3B
$GNGGA,070502.00,0419.87485,S,05539.58452,E,2,12,0.67,6.8,M,-47.6,M,,0000*76
$GNGSA,A,3,25,12,23,15,18,05,24,29,10,28,,,1.22,0.67,1.02*14
$GNGSA,A,3,80,68,69,79,83,73,84,,,,,,1.22,0.67,1.02*1B
$GPGSV,4,1,16,05,25,029,36,10,18,215,39,12,66,131,39,13,12,092,*73
$GPGSV,4,2,16,15,43,117,18,18,28,309,36,23,61,225,36,24,25,164,33*7D
$GPGSV,4,3,16,25,75,326,42,28,09,278,41,29,20,359,35,36,52,277,29*7D
$GPGSV,4,4,16,40,86,351,42,41,58,082,,49,32,274,,50,10,089,*7F
$GLGSV,2,1,08,67,07,048,,68,40,086,23,69,41,157,40,73,29,313,35*64
$GLGSV,2,2,08,79,28,167,31,80,67,236,35,83,09,351,23,84,06,300,28*64
$GNGLL,0419.87485,S,05539.58452,E,070502.00,A,D*61
$GNRMC,070503.00,A,0419.87485,S,05539.58453,E,0.010,,270525,,,D*7E
$GNVTG,,T,,M,0.010,N,0.019,K,D*31
$GNGGA,070503.00,0419.87485,S,05539.58453,E,2,12,0.67,6.7,M,-47.6,M,,0000*79
$GNGSA,A,3,25,12,23,15,18,05,24,29,10,28,,,1.22,0.67,1.02*14
$GNGSA,A,3,80,68,69,79,83,73,84,,,,,,1.22,0.67,1.02*1B
$GPGSV,4,1,16,05,25,029,37,10,18,215,41,12,66,131,39,13,12,092,*7D
$GPGSV,4,2,16,15,43,117,18,18,28,309,36,23,61,225,36,24,25,164,33*7D
$GPGSV,4,3,16,25,75,326,43,28,09,278,42,29,20,359,36,36,52,277,30*74
$GPGSV,4,4,16,40,86,351,43,41,58,082,,49,32,274,,50,10,089,*7E
$GLGSV,2,1,08,67,07,048,,68,40,086,24,69,41,157,40,73,29,313,34*62
$GLGSV,2,2,08,79,28,167,31,80,67,236,35,83,09,351,20,84,06,300,28*67
$GNGLL,0419.87485,S,05539.58453,E,070503.00,A,D*61
$GNRMC,070504.00,A,0419.87485,S,05539.58453,E,0.024,,270525,,,D*7E
$GNVTG,,T,,M,0.024,N,0.045,K,D*3F
$GNGGA,070504.00,0419.87485,S,05539.58453,E,2,12,0.67,6.7,M,-47.6,M,,0000*7E
$GNGSA,A,3,25,12,23,15,18,05,24,29,10,28,,,1.22,0.67,1.02*14
$GNGSA,A,3,80,68,69,79,83,73,84,,,,,,1.22,0.67,1.02*1B
$GPGSV,4,1,16,05,25,029,36,10,18,215,41,12,66,131,39,13,12,092,*7C
$GPGSV,4,2,16,15,43,117,19,18,28,309,35,23,61,225,35,24,25,164,33*7C
$GPGSV,4,3,16,25,75,326,42,28,09,278,41,29,20,359,35,36,52,277,32*77
$GPGSV,4,4,16,40,86,351,42,41,58,082,,49,32,274,,50,10,089,*7F
$GLGSV,2,1,08,67,07,048,,68,40,086,25,69,41,157,39,73,29,313,35*6C
$GLGSV,2,2,08,79,28,167,31,80,67,236,34,83,09,351,19,84,06,300,28*6C
$GNGLL,0419.87485,S,05539.58453,E,070504.00,A,D*66
$GNRMC,070505.00,A,0419.87486,S,05539.58453,E,0.018,,270525,,,D*73
$GNVTG,,T,,M,0.018,N,0.033,K,D*31
$GNGGA,070505.00,0419.87486,S,05539.58453,E,2,12,0.67,6.7,M,-47.6,M,,0000*7C
$GNGSA,A,3,25,12,23,15,18,05,24,29,10,28,,,1.22,0.67,1.02*14
$GNGSA,A,3,80,68,69,79,83,73,84,,,,,,1.22,0.67,1.02*1B
$GPGSV,4,1,16,05,25,029,37,10,18,215,41,12,66,131,40,13,12,092,*73
$GPGSV,4,2,16,15,43,117,21,18,28,309,35,23,61,225,35,24,25,164,34*70
$GPGSV,4,3,16,25,75,326,42,28,09,278,41,29,20,359,35,36,52,277,31*74
$GPGSV,4,4,16,40,86,351,42,41,58,082,,49,32,274,,50,10,089,*7F
$GLGSV,2,1,08,67,07,048,,68,40,086,25,69,41,157,40,73,29,313,35*62
$GLGSV,2,2,08,79,28,167,31,80,67,236,34,83,09,351,19,84,06,300,28*6C
$GNGLL,0419.87486,S,05539.58453,E,070505.00,A,D*64
$GNRMC,070506.00,A,0419.87487,S,05539.58453,E,0.017,,270525,,,D*7E
$GNVTG,,T,,M,0.017,N,0.032,K,D*3F
$GNGGA,070506.00,0419.87487,S,05539.58453,E,2,12,0.67,6.7,M,-47.6,M,,0000*7E
$GNGSA,A,3,25,12,23,15,18,05,24,29,10,28,,,1.22,0.67,1.02*14
$GNGSA,A,3,80,68,69,79,83,73,84,,,,,,1.22,0.67,1.02*1B
$GPGSV,4,1,16,05,25,029,36,10,18,215,41,12,66,131,40,13,12,092,*72
$GPGSV,4,2,16,15,43,117,23,18,28,309,34,23,61,225,35,24,25,164,33*74
$GPGSV,4,3,16,25,75,326,42,28,09,278,41,29,20,359,34,36,52,277,31*75
$GPGSV,4,4,16,40,86,351,43,41,58,082,,49,32,274,,50,10,089,*7E
$GLGSV,2,1,08,67,07,048,,68,40,086,26,69,41,157,40,73,29,313,35*61
$GLGSV,2,2,08,79,28,167,32,80,67,236,34,83,09,351,20,84,06,300,28*65
$GNGLL,0419.87487,S,05539.58453,E,070506.00,A,D*66
$GNRMC,070507.00,A,0419.87488,S,05539.58453,E,0.005,,270525,,,D*73
$GNVTG,,T,,M,0.005,N,0.009,K,D*34
$GNGGA,070507.00,0419.87488,S,05539.58453,E,2,12,0.67,6.7,M,-47.6,M,,0000*70
$GNGSA,A,3,25,12,23,15,18,05,24,29,10,28,,,1.22,0.67,1.02*14
$GNGSA,A,3,80,68,69,79,83,73,84,,,,,,1.22,0.67,1.02*1B
$GPGSV,4,1,16,05,25,029,36,10,18,215,41,12,66,131,40,13,12,092,*72
$GPGSV,4,2,16,15,43,117,24,18,28,309,35,23,61,225,35,24,25,164,33*72
$GPGSV,4,3,16,25,75,326,42,28,09,278,42,29,20,359,35,36,52,277,31*77
$GPGSV,4,4,16,40,86,351,42,41,58,082,,49,32,274,,50,10,089,*7F
$GLGSV,2,1,08,67,07,048,,68,40,086,27,69,41,157,40,73,29,313,35*60
$GLGSV,2,2,08,79,28,167,32,80,67,236,34,83,09,351,22,84,06,300,28*67
$GNGLL,0419.87488,S,05539.58453,E,070507.00,A,D*68
$GNRMC,070508.00,A,0419.87489,S,05539.58453,E,0.016,,270525,,,D*7F
$GNVTG,,T,,M,0.016,N,0.029,K,D*34
$GNGGA,070508.00,0419.87489,S,05539.58453,E,2,12,0.67,6.7,M,-47.6,M,,0000*7E
$GNGSA,A,3,25,12,23,15,18,05,24,29,10,28,,,1.22,0.67,1.02*14
$GNGSA,A,3,80,68,69,79,83,73,84,,,,,,1.22,0.67,1.02*1B
$GPGSV,4,1,16,05,25,029,37,10,18,215,41,12,66,131,40,13,12,092,*73
$GPGSV,4,2,16,15,43,117,23,18,28,309,34,23,61,225,34,24,25,164,33*75
$GPGSV,4,3,16,25,75,326,43,28,09,278,42,29,20,359,35,36,52,277,30*77
$GPGSV,4,4,16,40,86,351,43,41,58,082,,49,32,274,,50,10,089,*7E
$GLGSV,2,1,08,67,07,048,,68,40,086,27,69,41,157,42,73,29,313,35*62
$GLGSV,2,2,08,79,28,167,31,80,67,236,34,83,09,351,23,84,06,300,28*65
$GNGLL,0419.87489,S,05539.58453,E,070508.00,A,D*66
$GNRMC,070509.00,A,0419.87489,S,05539.58452,E,0.028,,270525,,,D*72
$GNVTG,,T,,M,0.028,N,0.051,K,D*36
$GNGGA,070509.00,0419.87489,S,05539.58452,E,2,12,0.67,6.7,M,-47.6,M,,0000*7E
$GNGSA,A,3,25,12,23,15,18,05,24,29,10,28,,,1.22,0.67,1.02*14
$GNGSA,A,3,80,68,69,79,83,73,84,,,,,,1.22,0.67,1.02*1B
$GPGSV,4,1,16,05,25,029,37,10,18,215,41,12,66,131,41,13,12,092,*72
$GPGSV,4,2,16,15,43,117,22,18,28,309,35,23,61,225,34,24,25,164,32*74
$GPGSV,4,3,16,25,75,326,42,28,09,278,42,29,20,359,34,36,52,277,31*76
$GPGSV,4,4,16,40,86,351,43,41,58,082,,49,32,274,,50,10,089,*7E
$GLGSV,2,1,08,67,07,048,,68,40,086,27,69,41,157,42,73,29,313,35*62
$GLGSV,2,2,08,79,28,167,33,80,67,236,35,83,09,351,21,84,06,300,28*64
$GNGLL,0419.87489,S,05539.58452,E,070509.00,A,D*66
$GNRMC,070510.00,A,0419.87490,S,05539.58450,E,0.009,,270525,,,D*73
$GNVTG,,T,,M,0.009,N,0.017,K,D*37
$GNGGA,070510.00,0419.87490,S,05539.58450,E,2,12,0.67,6.7,M,-47.6,M,,0000*7C
$GNGSA,A,3,25,12,23,15,18,05,24,29,10,28,,,1.22,0.67,1.02*14
$GNGSA,A,3,80,68,69,79,83,73,84,,,,,,1.22,0.67,1.02*1B
$GPGSV,4,1,16,05,25,029,37,10,18,215,41,12,66,131,40,13,12,092,*73
$GPGSV,4,2,16,15,43,117,24,18,28,309,35,23,61,225,35,24,25,164,33*72
$GPGSV,4,3,16,25,75,326,42,28,09,278,42,29,20,359,34,36,52,277,31*76
$GPGSV,4,4,16,40,86,351,43,41,58,082,,49,32,274,,50,10,089,*7E
$GLGSV,2,1,08,67,07,048,,68,40,086,28,69,41,157,42,73,29,313,35*6D
$GLGSV,2,2,08,79,28,167,33,80,67,236,37,83,09,351,22,84,06,300,29*64
$GNGLL,0419.87490,S,05539.58450,E,070510.00,A,D*64
$GNRMC,070511.00,A,0419.87491,S,05539.58448,E,0.041,,270525,,,D*76
$GNVTG,,T,,M,0.041,N,0.076,K,D*3C
$GNGGA,070511.00,0419.87491,S,05539.58448,E,2,12,0.67,6.7,M,-47.6,M,,0000*75
$GNGSA,A,3,25,12,23,15,18,05,24,29,10,28,,,1.22,0.67,1.02*14
$GNGSA,A,3,80,68,69,79,83,73,84,,,,,,1.22,0.67,1.02*1B
$GPGSV,4,1,16,05,25,029,36,10,19,215,41,12,66,131,39,13,12,092,*7D
$GPGSV,4,2,16,15,43,117,25,18,28,309,36,23,61,225,35,24,25,164,32*71
$GPGSV,4,3,16,25,75,326,41,28,09,278,41,29,20,359,33,36,52,277,35*75
$GPGSV,4,4,16,40,86,351,43,41,58,082,,49,32,274,,50,10,089,*7E
$GLGSV,2,1,08,67,07,048,,68,40,086,28,69,41,157,38,73,29,313,37*62
$GLGSV,2,2,08,79,28,167,33,80,67,236,35,83,09,351,19,84,06,300,29*6E
$GNGLL,0419.87491,S,05539.58448,E,070511.00,A,D*6D
$GNRMC,070512.00,A,0419.87492,S,05539.58445,E,0.009,,270525,,,D*77
$GNVTG,,T,,M,0.009,N,0.017,K,D*37
$GNGGA,070512.00,0419.87492,S,05539.58445,E,2,12,0.67,6.8,M,-47.6,M,,0000*77
$GNGSA,A,3,25,12,23,15,18,05,24,29,10,28,,,1.22,0.67,1.02*14
$GNGSA,A,3,80,68,69,79,83,73,84,,,,,,1.22,0.67,1.02*1B
$GPGSV,4,1,16,05,25,029,36,10,19,215,42,12,66,131,39,13,12,092,*7E
$GPGSV,4,2,16,15,43,117,23,18,28,309,36,23,61,225,33,24,25,164,33*70
$GPGSV,4,3,16,25,75,326,42,28,09,278,42,29,20,359,34,36,52,277,35*72
$GPGSV,4,4,16,40,86,351,42,41,58,082,,49,32,274,,50,10,089,*7F
$GLGSV,2,1,08,67,07,048,,68,40,086,30,69,41,157,38,73,29,313,38*64
$GLGSV,2,2,08,79,28,167,33,80,67,236,34,83,09,351,16,84,06,300,30*68
$GNGLL,0419.87492,S,05539.58445,E,070512.00,A,D*60
$GNRMC,070513.00,A,0419.87493,S,05539.58442,E,0.021,,270525,,,D*7A
$GNVTG,,T,,M,0.021,N,0.039,K,D*31
$GNGGA,070513.00,0419.87493,S,05539.58442,E,2,12,0.67,6.9,M,-47.6,M,,0000*71
$GNGSA,A,3,25,12,23,15,18,05,24,29,10,28,,,1.22,0.67,1.02*14
$GNGSA,A,3,80,68,69,79,83,73,84,,,,,,1.22,0.67,1.02*1B
$GPGSV,4,1,16,05,25,029,36,10,19,215,42,12,66,132,40,13,12,092,*73
$GPGSV,4,2,16,15,43,117,23,18,28,309,36,23,61,225,34,24,25,164,33*77
$GPGSV,4,3,16,25,75,326,42,28,09,278,42,29,20,359,34,36,52,277,35*72
$GPGSV,4,4,16,40,86,351,42,41,58,082,,49,32,274,,50,10,089,*7F
$GLGSV,2,1,08,67,07,048,,68,40,086,29,69,41,157,38,73,29,313,36*62
$GLGSV,2,2,08,79,28,167,32,80,67,236,35,83,09,351,16,84,06,300,29*60
$GNGLL,0419.87493,S,05539.58442,E,070513.00,A,D*67
$GNRMC,070514.00,A,0419.87494,S,05539.58441,E,0.030,,270525,,,D*79
$GNVTG,,T,,M,0.030,N,0.056,K,D*38
$GNGGA,070514.00,0419.87494,S,05539.58441,E,2,12,0.67,6.9,M,-47.6,M,,0000*72
$GNGSA,A,3,25,12,23,15,18,05,24,29,10,28,,,1.22,0.67,1.02*14
$GNGSA,A,3,80,68,69,79,83,73,84,,,,,,1.22,0.67,1.02*1B
$GPGSV,4,1,16,05,25,029,36,10,19,215,42,12,66,132,40,13,12,091,*70
$GPGSV,4,2,16,15,43,117,21,18,28,309,36,23,61,225,34,24,25,164,33*75
$GPGSV,4,3,16,25,75,326,43,28,09,278,42,29,20,359,34,36,52,277,32*74
$GPGSV,4,4,16,40,86,351,43,41,58,082,,49,32,274,,50,10,089,*7E
$GLGSV,2,1,08,67,07,048,,68,40,086,28,69,41,157,40,73,29,313,37*6D
$GLGSV,2,2,08,79,28,167,31,80,67,236,35,83,09,351,18,84,06,300,29*6D
$GNGLL,0419.87494,S,05539.58441,E,070514.00,A,D*64
$GNRMC,070515.00,A,0419.87494,S,05539.58439,E,0.036,,270525,,,D*71
$GNVTG,,T,,M,0.036,N,0.067,K,D*3C
$GNGGA,070515.00,0419.87494,S,05539.58439,E,2,12,0.67,7.0,M,-47.6,M,,0000*74
$GNGSA,A,3,25,12,23,15,18,05,24,29,10,28,,,1.22,0.67,1.02*14
$GNGSA,A,3,80,68,69,79,83,73,84,,,,,,1.22,0.67,1.02*1B
$GPGSV,4,1,16,05,25,029,36,10,19,215,41,12,66,132,39,13,12,091,*7D
$GPGSV,4,2,16,15,43,117,19,18,28,309,35,23,61,225,34,24,25,164,33*7D
$GPGSV,4,3,16,25,75,326,42,28,09,278,42,29,20,359,34,36,52,277,32*75
$GPGSV,4,4,16,40,86,351,41,41,58,082,,49,32,274,,50,10,089,*7C
$GLGSV,2,1,08,67,07,048,,68,40,086,28,69,41,157,38,73,29,313,36*63
$GLGSV,2,2,08,79,28,167,31,80,67,236,34,83,09,351,21,84,06,300,29*66
$GNGLL,0419.87494,S,05539.58439,E,070515.00,A,D*6A
$GNRMC,070516.00,A,0419.87494,S,05539.58439,E,0.045,,270525,,,D*76
$GNVTG,,T,,M,0.045,N,0.083,K,D*32
$GNGGA,070516.00,0419.87494,S,05539.58439,E,2,12,0.67,7.0,M,-47.6,M,,0000*77
$GNGSA,A,3,25,12,23,15,18,05,24,29,10,28,,,1.22,0.67,1.02*14
$GNGSA,A,3,80,68,69,79,83,73,84,,,,,,1.22,0.67,1.02*1B
$GPGSV,4,1,16,05,25,029,36,10,19,215,42,12,66,132,41,13,12,091,*71
$GPGSV,4,2,16,15,43,116,21,18,28,309,35,23,61,225,35,24,25,164,33*76
$GPGSV,4,3,16,25,75,326,42,28,09,278,42,29,20,359,33,36,52,277,31*71
$GPGSV,4,4,16,40,86,351,42,41,58,082,,49,32,274,,50,10,089,*7F
$GLGSV,2,1,08,67,07,048,,68,40,086,28,69,41,157,41,73,29,313,36*6D
$GLGSV,2,2,08,79,28,167,33,80,67,236,35,83,09,351,22,84,06,300,29*66
$GNGLL,0419.87494,S,05539.58439,E,070516.00,A,D*69
$GNRMC,070517.00,A,0419.87494,S,05539.58437,E,0.007,,270525,,,D*7F
$GNVTG,,T,,M,0.007,N,0.013,K,D*3D
$GNGGA,070517.00,0419.87494,S,05539.58437,E,2,12,0.67,7.1,M,-47.6,M,,0000*79
$GNGSA,A,3,25,12,23,15,18,05,24,29,10,28,,,1.22,0.67,1.02*14
$GNGSA,A,3,80,68,69,79,83,73,84,,,,,,1.22,0.67,1.02*1B
$GPGSV,4,1,16,05,25,029,36,10,19,215,42,12,66,132,40,13,12,091,*70
$GPGSV,4,2,16,15,43,116,20,18,28,309,36,23,61,225,36,24,25,164,33*77
$GPGSV,4,3,16,25,75,326,42,28,09,278,42,29,20,359,34,36,52,277,31*76
$GPGSV,4,4,16,40,86,351,42,41,58,082,,49,32,274,,50,10,089,*7F
$GLGSV,2,1,08,67,07,048,,68,40,086,29,69,41,157,42,73,29,313,37*6E
$GLGSV,2,2,08,79,28,167,33,80,67,236,35,83,09,351,21,84,06,300,29*65
$GNGLL,0419.87494,S,05539.58437,E,070517.00,A,D*66
$GNRMC,070518.00,A,0419.87494,S,05539.58436,E,0.025,,270525,,,D*71
$GNVTG,,T,,M,0.025,N,0.046,K,D*3D
$GNGGA,070518.00,0419.87494,S,05539.58436,E,2,12,0.67,7.1,M,-47.6,M,,0000*77
$GNGSA,A,3,25,12,23,15,18,05,24,29,10,28,,,1.22,0.67,1.02*14
$GNGSA,A,3,80,68,69,79,83,73,84,,,,,,1.22,0.67,1.02*1B
$GPGSV,4,1,16,05,25,029,36,10,19,215,42,12,66,132,39,13,12,091,*7E
$GPGSV,4,2,16,15,43,116,22,18,28,309,36,23,61,225,36,24,25,164,34*72
$GPGSV,4,3,16,25,75,326,43,28,09,278,42,29,20,359,34,36,52,277,31*77
$GPGSV,4,4,16,40,86,351,43,41,58,082,,49,32,274,,50,10,089,*7E
$GLGSV,2,1,08,67,07,048,,68,40,086,29,69,41,157,42,73,29,313,37*6E
$GLGSV,2,2,08,79,28,167,33,80,67,236,36,83,09,351,22,84,06,300,30*6D
$GNGLL,0419.87494,S,05539.58436,E,070518.00,A,D*68
$GNRMC,070519.00,A,0419.87495,S,05539.58435,E,0.018,,270525,,,D*7C
$GNVTG,,T,,M,0.018,N,0.033,K,D*31
$GNGGA,070519.00,0419.87495,S,05539.58435,E,2,12,0.67,7.1,M,-47.6,M,,0000*74
$GNGSA,A,3,25,12,23,15,18,05,24,29,10,28,,,1.22,0.67,1.02*14
$GNGSA,A,3,80,68,69,79,83,73,84,,,,,,1.22,0.67,1.02*1B
$GPGSV,4,1,16,05,25,029,36,10,19,215,41,12,66,132,40,13,12,091,*73
$GPGSV,4,2,16,15,43,116,24,18,28,309,36,23,61,225,35,24,25,164,34*77
$GPGSV,4,3,16,25,75,326,43,28,09,278,42,29,20,359,34,36,52,277,31*77
$GPGSV,4,4,16,40,86,351,42,41,58,082,,49,32,274,,50,10,089,*7F
$GLGSV,2,1,08,67,07,048,,68,40,086,29,69,41,157,40,73,29,313,36*6D
$GLGSV,2,2,08,79,28,167,31,80,67,236,34,83,09,351,22,84,06,300,29*65
$GNGLL,0419.87495,S,05539.58435,E,070519.00,A,D*6B
$GNRMC,070520.00,A,0419.87497,S,05539.58434,E,0.029,,270525,,,D*77
$GNVTG,,T,,M,0.029,N,0.054,K,D*32
$GNGGA,070520.00,0419.87497,S,05539.58434,E,2,12,0.67,7.2,M,-47.6,M,,0000*7E
$GNGSA,A,3,25,12,23,15,18,05,24,29,10,28,,,1.22,0.67,1.02*14
$GNGSA,A,3,80,68,69,79,83,73,84,,,,,,1.22,0.67,1.02*1B
$GPGSV,4,1,16,05,25,029,36,10,19,215,42,12,66,132,41,13,12,091,*71
$GPGSV,4,2,16,15,43,116,24,18,28,309,35,23,61,225,35,24,25,164,34*74
$GPGSV,4,3,16,25,75,326,42,28,09,278,42,29,20,359,34,36,52,277,32*75
$GPGSV,4,4,16,40,86,351,43,41,58,082,,49,32,274,,50,10,089,*7E
$GLGSV,2,1,08,67,07,048,,68,40,086,27,69,41,157,40,73,29,313,36*63
$GLGSV,2,2,08,79,28,167,32,80,67,236,34,83,09,351,21,84,06,300,29*65
$GNGLL,0419.87497,S,05539.58434,E,070520.00,A,D*62
$GNRMC,070521.00,A,0419.87497,S,05539.58433,E,0.027,,270525,,,D*7F
$GNVTG,,T,,M,0.027,N,0.050,K,D*38
$GNGGA,070521.00,0419.87497,S,05539.58433,E,2,12,0.67,7.2,M,-47.6,M,,0000*78
$GNGSA,A,3,25,12,23,15,18,05,24,29,10,28,,,1.22,0.67,1.02*14
$GNGSA,A,3,80,68,69,79,83,73,84,,,,,,1.22,0.67,1.02*1B
$GPGSV,4,1,16,05,25,029,36,10,19,215,42,12,66,132,40,13,12,091,*70
$GPGSV,4,2,16,15,43,116,23,18,28,309,36,23,61,225,35,24,25,164,34*70
$GPGSV,4,3,16,25,75,326,44,28,09,278,41,29,20,359,34,36,52,277,32*70
$GPGSV,4,4,16,40,86,351,43,41,58,082,,49,32,274,,50,10,089,*7E
$GLGSV,2,1,08,67,07,048,,68,40,086,26,69,41,157,40,73,29,313,36*62
$GLGSV,2,2,08,79,28,167,31,80,67,236,37,83,09,351,21,84,06,300,29*65
$GNGLL,0419.87497,S,05539.58433,E,070521.00,A,D*64
$GNRMC,070522.00,A,0419.87498,S,05539.58433,E,0.016,,270525,,,D*71
$GNVTG,,T,,M,0.016,N,0.029,K,D*34
$GNGGA,070522.00,0419.87498,S,05539.58433,E,2,12,0.67,7.2,M,-47.6,M,,0000*74
$GNGSA,A,3,25,12,23,15,18,05,24,29,10,28,,,1.22,0.67,1.02*14
$GNGSA,A,3,80,68,69,79,83,73,84,,,,,,1.22,0.67,1.02*1B
$GPGSV,4,1,16,05,25,029,36,10,19,215,40,12,66,132,40,13,12,091,*72
$GPGSV,4,2,16,15,43,116,30,18,28,309,34,23,61,225,35,24,25,164,33*77
$GPGSV,4,3,16,25,75,326,43,28,09,278,41,29,20,359,34,36,52,277,33*76
$GPGSV,4,4,16,40,86,351,43,41,58,082,,49,32,274,,50,10,089,*7E
$GLGSV,2,1,08,67,07,048,,68,40,086,26,69,41,157,40,73,29,313,36*62
$GLGSV,2,2,08,79,28,167,31,80,67,236,34,83,09,351,19,84,06,300,29*6D
$GNGLL,0419.87498,S,05539.58433,E,070522.00,A,D*68
$GNRMC,070523.00,A,0419.87498,S,05539.58435,E,0.019,,270525,,,D*79
$GNVTG,,T,,M,0.019,N,0.035,K,D*36
$GNGGA,070523.00,0419.87498,S,05539.58435,E,2,12,0.72,7.1,M,-47.6,M,,0000*74
$GNGSA,A,3,25,12,23,15,18,05,24,29,10,28,,,1.25,0.72,1.02*17
$GNGSA,A,3,80,68,69,79,83,73,84,,,,,,1.25,0.72,1.02*18
$GPGSV,4,1,16,05,25,029,35,10,19,215,42,12,66,132,40,13,12,091,*73
$GPGSV,4,2,16,15,43,116,28,18,28,309,34,23,61,226,35,24,25,164,34*7A
$GPGSV,4,3,16,25,75,326,43,28,09,278,42,29,20,359,36,36,52,277,31*75
$GPGSV,4,4,16,40,86,351,42,41,58,082,,49,32,274,,50,10,089,*7F
$GLGSV,2,1,08,67,07,048,,68,40,086,25,69,41,157,40,73,29,313,36*61
$GLGSV,2,2,08,79,28,167,31,80,67,236,34,83,09,351,17,84,06,300,28*62
$GNGLL,0419.87498,S,05539.58435,E,070523.00,A,D*6F
$GNRMC,070524.00,A,0419.87498,S,05539.58437,E,0.014,,270525,,,D*71
$GNVTG,,T,,M,0.014,N,0.027,K,D*38
$GNGGA,070524.00,0419.87498,S,05539.58437,E,2,12,0.72,7.1,M,-47.6,M,,0000*71
$GNGSA,A,3,25,12,23,15,18,05,24,29,10,28,,,1.25,0.72,1.02*17
$GNGSA,A,3,80,68,69,79,83,73,84,,,,,,1.25,0.72,1.02*18
$GPGSV,4,1,16,05,25,029,36,10,19,215,42,12,66,132,41,13,12,091,*71
$GPGSV,4,2,16,15,43,116,27,18,28,309,37,23,61,226,35,24,25,164,34*76
$GPGSV,4,3,16,25,75,326,43,28,09,278,42,29,20,359,35,36,52,277,30*77
$GPGSV,4,4,16,40,86,351,42,41,58,082,,49,32,274,,50,10,089,*7F
$GLGSV,2,1,08,67,07,048,,68,40,086,24,69,41,157,40,73,29,313,36*60
$GLGSV,2,2,08,79,28,167,31,80,67,236,33,83,09,351,14,84,06,300,29*67
$GNGLL,0419.87498,S,05539.58437,E,070524.00,A,D*6A
$GNRMC,070525.00,A,0419.87499,S,05539.58435,E,0.037,,270525,,,D*72
$GNVTG,,T,,M,0.037,N,0.068,K,D*32
$GNGGA,070525.00,0419.87499,S,05539.58435,E,2,12,0.67,7.1,M,-47.6,M,,0000*77
$GNGSA,A,3,25,12,23,15,18,05,24,29,10,28,,,1.22,0.67,1.02*14
$GNGSA,A,3,80,68,69,79,83,73,84,,,,,,1.22,0.67,1.02*1B
$GPGSV,4,1,16,05,25,029,38,10,19,215,42,12,66,132,41,13,12,091,*7F
$GPGSV,4,2,16,15,43,116,25,18,28,309,37,23,61,226,35,24,25,164,34*74
$GPGSV,4,3,16,25,76,325,43,28,09,278,41,29,20,359,36,36,52,277,31*76
$GPGSV,4,4,16,40,86,351,42,41,58,082,,49,32,274,,50,10,089,*7F
$GLGSV,2,1,08,67,07,048,,68,40,086,27,69,41,157,41,73,29,313,36*62
$GLGSV,2,2,08,79,28,167,31,80,67,236,33,83,09,351,14,84,06,300,29*67
$GNGLL,0419.87499,S,05539.58435,E,070525.00,A,D*68
$GNRMC,070526.00,A,0419.87499,S,05539.58434,E,0.015,,270525,,,D*70
$GNVTG,,T,,M,0.015,N,0.028,K,D*36
$GNGGA,070526.00,0419.87499,S,05539.58434,E,2,12,0.67,7.1,M,-47.6,M,,0000*75
$GNGSA,A,3,25,12,23,15,18,05,24,29,10,28,,,1.22,0.67,1.02*14
$GNGSA,A,3,80,68,69,79,83,73,84,,,,,,1.22,0.67,1.02*1B
$GPGSV,4,1,16,05,25,029,37,10,19,215,42,12,66,132,41,13,12,091,*70
$GPGSV,4,2,16,15,43,116,27,18,28,309,37,23,61,226,36,24,25,164,34*75
$GPGSV,4,3,16,25,76,325,43,28,09,278,40,29,20,359,37,36,52,277,31*76
$GPGSV,4,4,16,40,86,351,42,41,58,082,,49,32,274,,50,10,089,*7F
$GLGSV,2,1,08,67,07,048,,68,40,086,28,69,41,157,41,73,29,313,36*6D
$GLGSV,2,2,08,79,28,167,31,80,67,236,33,83,09,351,12,84,06,300,29*61
$GNGLL,0419.87499,S,05539.58434,E,070526.00,A,D*6A
$GNRMC,070527.00,A,0419.87499,S,05539.58433,E,0.013,,270525,,,D*70
$GNVTG,,T,,M,0.013,N,0.023,K,D*3B
$GNGGA,070527.00,0419.87499,S,05539.58433,E,2,12,0.67,7.1,M,-47.6,M,,0000*73
$GNGSA,A,3,25,12,23,15,18,05,24,29,10,28,,,1.22,0.67,1.02*14
$GNGSA,A,3,80,68,69,79,83,73,84,,,,,,1.22,0.67,1.02*1B
$GPGSV,4,1,16,05,25,029,37,10,19,215,39,12,66,132,39,13,12,091,*73
$GPGSV,4,2,16,15,43,116,27,18,28,309,35,23,61,226,32,24,25,164,33*74
$GPGSV,4,3,16,25,76,325,41,28,09,278,39,29,20,359,33,36,52,277,32*7D
$GPGSV,4,4,16,40,86,351,41,41,58,082,,49,32,274,,50,10,089,*7C
$GLGSV,2,1,08,67,07,048,,68,40,086,27,69,41,157,38,73,29,313,34*6E
$GLGSV,2,2,08,79,28,167,31,80,67,236,33,83,09,351,15,84,06,300,29*66
$GNGLL,0419.87499,S,05539.58433,E,070527.00,A,D*6C
$GNRMC,070528.00,A,0419.87499,S,05539.58436,E,0.010,,270525,,,D*79
$GNVTG,,T,,M,0.010,N,0.019,K,D*31
$GNGGA,070528.00,0419.87499,S,05539.58436,E,2,12,0.72,7.0,M,-47.6,M,,0000*7C
$GNGSA,A,3,25,12,23,15,18,05,24,29,10,28,,,1.25,0.72,1.02*17
$GNGSA,A,3,80,68,69,79,83,73,84,,,,,,1.25,0.72,1.02*18
$GPGSV,4,1,16,05,25,029,36,10,19,215,41,12,66,132,40,13,12,091,*73
$GPGSV,4,2,16,15,43,116,24,18,28,309,37,23,61,226,36,24,25,164,33*71
$GPGSV,4,3,16,25,76,325,41,28,09,277,42,29,20,359,35,36,52,277,33*79
$GPGSV,4,4,16,40,86,351,42,41,58,082,,49,32,274,,50,10,089,*7F
$GLGSV,2,1,08,67,07,048,,68,40,086,26,69,41,157,41,73,29,313,37*62
$GLGSV,2,2,08,79,28,167,31,80,67,236,34,83,09,351,15,84,06,300,30*69
$GNGLL,0419.87499,S,05539.58436,E,070528.00,A,D*66
$GNRMC,070529.00,A,0419.87499,S,05539.58436,E,0.078,,270525,,,D*76
$GNVTG,,T,,M,0.078,N,0.145,K,D*37
$GNGGA,070529.00,0419.87499,S,05539.58436,E,2,12,0.72,7.1,M,-47.6,M,,0000*7C
$GNGSA,A,3,25,12,23,15,18,05,24,29,10,28,,,1.25,0.72,1.02*17
$GNGSA,A,3,80,68,69,79,83,73,84,,,,,,1.25,0.72,1.02*18
$GPGSV,4,1,16,05,25,029,36,10,19,215,41,12,66,132,40,13,12,091,*73
$GPGSV,4,2,16,15,43,116,21,18,28,309,36,23,61,226,36,24,25,164,35*73
$GPGSV,4,3,16,25,76,325,42,28,09,277,43,29,20,359,35,36,52,277,28*71
$GPGSV,4,4,16,40,86,351,43,41,58,082,,49,32,274,,50,10,089,*7E
$GLGSV,2,1,08,67,07,048,,68,40,086,27,69,41,157,42,73,29,313,38*6F
$GLGSV,2,2,08,79,28,167,32,80,67,236,35,83,09,351,16,84,06,300,31*69
$GNGLL,0419.87499,S,05539.58436,E,070529.00,A,D*67
$GNRMC,070530.00,A,0419.87499,S,05539.58435,E,0.024,,270525,,,D*74
$GNVTG,,T,,M,0.024,N,0.044,K,D*3E
$GNGGA,070530.00,0419.87499,S,05539.58435,E,2,12,0.72,7.1,M,-47.6,M,,0000*77
$GNGSA,A,3,25,12,23,15,18,05,24,29,10,28,,,1.25,0.72,1.02*17
$GNGSA,A,3,80,68,69,79,83,73,84,,,,,,1.25,0.72,1.02*18
$GPGSV,4,1,16,05,25,029,38,10,19,215,43,12,66,132,42,13,12,091,*7D
$GPGSV,4,2,16,15,43,116,24,18,28,309,40,23,61,226,35,24,25,164,34*75
$GPGSV,4,3,16,25,76,325,45,28,09,277,43,29,20,359,35,36,52,277,31*7E
$GPGSV,4,4,16,40,86,351,45,41,58,082,,49,32,274,,50,10,089,*78
$GLGSV,2,1,08,67,07,048,,68,40,086,28,69,41,157,39,73,29,313,36*62
$GLGSV,2,2,08,79,28,167,28,80,67,236,34,83,09,351,17,84,06,300,28*6A
$GNGLL,0419.87499,S,05539.58435,E,070530.00,A,D*6C
$GNRMC,070531.00,A,0419.87499,S,05539.58436,E,0.055,,270525,,,D*70
$GNVTG,,T,,M,0.055,N,0.102,K,D*3B
$GNGGA,070531.00,0419.87499,S,05539.58436,E,2,12,0.72,7.1,M,-47.6,M,,0000*75
$GNGSA,A,3,25,12,23,15,18,05,24,29,10,28,,,1.25,0.72,1.02*17
$GNGSA,A,3,80,68,69,79,83,73,84,,,,,,1.25,0.72,1.02*18
$GPGSV,4,1,16,05,25,029,39,10,19,215,43,12,66,132,42,13,12,091,*7C
$GPGSV,4,2,16,15,43,116,32,18,28,309,40,23,61,226,36,24,25,164,34*71
$GPGSV,4,3,16,25,76,325,44,28,09,277,43,29,20,359,35,36,52,277,32*7C
$GPGSV,4,4,16,40,86,351,47,41,58,082,,49,32,274,,50,10,089,*7A
$GLGSV,2,1,08,67,07,048,,68,40,086,27,69,41,157,41,73,29,313,37*63
$GLGSV,2,2,08,79,28,167,28,80,67,236,34,83,09,351,11,84,06,300,28*6C
$GNGLL,0419.87499,S,05539.58436,E,070531.00,A,D*6E
$GNRMC,070532.00,A,0419.87498,S,05539.58437,E,0.083,,270525,,,D*78
$GNVTG,,T,,M,0.083,N,0.154,K,D*33
$GNGGA,070532.00,0419.87498,S,05539.58437,E,2,12,0.75,7.1,M,-47.6,M,,0000*71
$GNGSA,A,3,25,12,23,15,18,05,24,29,10,28,,,1.30,0.75,1.07*11
$GNGSA,A,3,80,68,69,79,73,84,,,,,,,1.30,0.75,1.07*15
$GPGSV,4,1,16,05,25,029,39,10,19,215,43,12,66,132,43,13,12,091,*7D
$GPGSV,4,2,16,15,43,116,31,18,28,309,40,23,61,226,37,24,25,164,36*71
$GPGSV,4,3,16,25,76,325,44,28,09,277,43,29,20,359,35,36,52,277,34*7A
$GPGSV,4,4,16,40,86,351,44,41,58,082,,49,32,274,,50,10,089,*79
$GLGSV,2,1,08,67,07,048,,68,40,086,26,69,41,157,41,73,29,313,36*63
$GLGSV,2,2,08,79,28,167,29,80,67,236,35,83,09,351,10,84,06,300,27*62
$GNGLL,0419.87498,S,05539.58437,E,070532.00,A,D*6D
$GNRMC,070533.00,A,0419.87497,S,05539.58440,E,0.038,,270525,,,D*76
$GNVTG,,T,,M,0.038,N,0.070,K,D*34
$GNGGA,070533.00,0419.87497,S,05539.58440,E,2,12,0.75,7.1,M,-47.6,M,,0000*7F
$GNGSA,A,3,25,12,23,15,18,05,24,29,10,28,,,1.30,0.75,1.07*11
$GNGSA,A,3,80,68,69,79,83,73,84,,,,,,1.30,0.75,1.07*1E
$GPGSV,4,1,16,05,25,029,39,10,19,215,43,12,66,132,42,13,12,091,*7C
$GPGSV,4,2,16,15,43,116,29,18,28,309,40,23,61,226,37,24,25,164,35*7B
$GPGSV,4,3,16,25,76,325,44,28,09,277,43,29,20,359,34,36,52,277,34*7B
$GPGSV,4,4,16,40,86,351,43,41,58,082,,49,32,274,,50,10,089,*7E
$GLGSV,2,1,08,67,07,048,,68,40,086,26,69,41,157,42,73,29,313,37*61
$GLGSV,2,2,08,79,28,167,29,80,67,236,36,83,09,351,15,84,06,300,28*6B
$GNGLL,0419.87497,S,05539.58440,E,070533.00,A,D*63
$GNRMC,070534.00,A,0419.87496,S,05539.58441,E,0.014,,270525,,,D*7F
$GNVTG,,T,,M,0.014,N,0.027,K,D*38
$GNGGA,070534.00,0419.87496,S,05539.58441,E,2,12,0.75,7.1,M,-47.6,M,,0000*78
$GNGSA,A,3,25,12,23,15,18,05,24,29,10,28,,,1.30,0.75,1.07*11
$GNGSA,A,3,80,68,69,79,83,73,84,,,,,,1.30,0.75,1.07*1E
$GPGSV,4,1,16,05,25,029,39,10,19,215,43,12,66,132,41,13,12,091,*7F
$GPGSV,4,2,16,15,43,116,30,18,28,309,40,23,61,226,36,24,25,164,36*71
$GPGSV,4,3,16,25,76,325,42,28,09,277,43,29,20,359,35,36,52,277,33*7B
$GPGSV,4,4,16,40,86,351,43,41,58,082,,49,32,274,,50,10,089,*7E
$GLGSV,2,1,08,67,07,048,,68,40,086,27,69,41,157,41,73,29,313,38*6C
$GLGSV,2,2,08,79,28,167,29,80,67,236,37,83,09,351,15,84,06,300,28*6A
$GNGLL,0419.87496,S,05539.58441,E,070534.00,A,D*64
$GNRMC,070535.00,A,0419.87496,S,05539.58443,E,0.017,,270525,,,D*7F
$GNVTG,,T,,M,0.017,N,0.032,K,D*3F
$GNGGA,070535.00,0419.87496,S,05539.58443,E,2,12,0.75,7.1,M,-47.6,M,,0000*7B
$GNGSA,A,3,25,12,23,15,18,05,24,29,10,28,,,1.30,0.75,1.07*11
$GNGSA,A,3,80,68,69,79,83,73,84,,,,,,1.30,0.75,1.07*1E
$GPGSV,4,1,16,05,25,029,39,10,19,215,43,12,66,132,41,13,12,091,*7F
$GPGSV,4,2,16,15,43,116,30,18,28,309,39,23,61,226,37,24,25,164,36*7E
$GPGSV,4,3,16,25,76,325,43,28,09,277,43,29,20,359,35,36,52,277,32*7B
$GPGSV,4,4,16,40,86,351,43,41,58,082,,49,32,274,,50,10,089,*7E
$GLGSV,2,1,08,67,07,048,,68,40,086,27,69,41,157,43,73,29,313,41*60
$GLGSV,2,2,08,79,28,167,30,80,67,236,37,83,09,351,12,84,06,300,29*64
$GNGLL,0419.87496,S,05539.58443,E,070535.00,A,D*67
$GNRMC,070536.00,A,0419.87495,S,05539.58445,E,0.011,,270525,,,D*7F
$GNVTG,,T,,M,0.011,N,0.021,K,D*3B
$GNGGA,070536.00,0419.87495,S,05539.58445,E,2,12,0.72,7.1,M,-47.6,M,,0000*7A
$GNGSA,A,3,25,12,23,15,18,05,24,29,10,28,,,1.25,0.72,1.02*17
$GNGSA,A,3,80,68,69,79,83,73,84,,,,,,1.25,0.72,1.02*18
$GPGSV,4,1,16,05,25,029,39,10,19,215,43,12,66,132,41,13,12,091,*7F
$GPGSV,4,2,16,15,43,116,28,18,28,309,39,23,61,226,36,24,25,164,36*76
$GPGSV,4,3,16,25,76,325,41,28,09,277,44,29,20,359,37,36,52,277,32*7C
$GPGSV,4,4,16,40,86,351,44,41,58,082,,49,32,274,,50,10,089,*79
