$GNRMC,065550.00,A,0419.87152,S,05539.58842,E,0.056,,270525,,,A*78
$GNVTG,,T,,M,0.056,N,0.105,K,A*3A
$GNGGA,065550.00,0419.87152,S,05539.58842,E,1,12,0.77,10.3,M,-47.6,M,,*49
$GNGSA,A,3,25,12,23,15,18,05,24,29,28,,,,1.38,0.77,1.15*19
$GNGSA,A,3,80,68,69,79,83,,,,,,,,1.38,0.77,1.15*1F
$GPGSV,4,1,16,05,29,030,17,10,15,214,08,12,69,122,31,13,12,096,*7B
$GPGSV,4,2,16,15,42,122,27,18,29,304,32,23,57,220,26,24,27,167,33*7E
$GPGSV,4,3,16,25,71,333,36,28,08,281,36,29,18,356,37,36,52,277,34*73
$GPGSV,4,4,16,40,86,351,33,41,58,082,,49,32,274,,50,10,089,*79
$GLGSV,2,1,08,67,09,052,,68,40,094,26,69,37,162,33,73,25,317,24*6C
$GLGSV,2,2,08,79,33,167,37,80,70,251,28,83,10,346,28,84,07,295,*60
$GNGLL,0419.87152,S,05539.58842,E,065550.00,A,A*65
$GNRMC,065551.00,A,0419.87151,S,05539.58844,E,0.043,,270525,,,A*78
$GNVTG,,T,,M,0.043,N,0.080,K,A*32
$GNGGA,065551.00,0419.87151,S,05539.58844,E,1,12,0.77,10.4,M,-47.6,M,,*4A
$GNGSA,A,3,25,12,23,15,18,05,24,29,28,,,,1.38,0.77,1.15*19
$GNGSA,A,3,80,68,69,79,83,,,,,,,,1.38,0.77,1.15*1F
$GPGSV,4,1,16,05,29,030,16,10,15,214,08,12,69,122,26,13,12,096,*7C
$GPGSV,4,2,16,15,42,122,24,18,29,304,28,23,57,220,24,24,27,167,29*7F
$GPGSV,4,3,16,25,71,333,27,28,08,281,34,29,18,356,35,36,52,277,33*74
$GPGSV,4,4,16,40,86,351,30,41,58,082,,49,32,274,,50,10,089,*7A
$GLGSV,2,1,08,67,09,052,,68,40,094,25,69,37,162,28,73,25,317,22*63
$GLGSV,2,2,08,79,33,167,30,80,70,251,26,83,10,346,27,84,07,295,*66
$GNGLL,0419.87151,S,05539.58844,E,065551.00,A,A*61
$GNRMC,065552.00,A,0419.87154,S,05539.58837,E,0.039,,270525,,,A*77
$GNVTG,,T,,M,0.039,N,0.073,K,A*33
$GNGGA,065552.00,0419.87154,S,05539.58837,E,1,12,0.77,10.2,M,-47.6,M,,*4E
$GNGSA,A,3,25,12,23,15,18,05,24,29,28,,,,1.38,0.77,1.15*19
$GNGSA,A,3,80,68,69,79,83,,,,,,,,1.38,0.77,1.15*1F
$GPGSV,4,1,16,05,29,030,18,10,15,214,08,12,69,122,32,13,12,096,*77
$GPGSV,4,2,16,15,42,122,22,18,29,304,35,23,57,220,22,24,27,167,33*78
$GPGSV,4,3,16,25,71,333,37,28,08,281,36,29,18,356,41,36,52,277,38*7F
$GPGSV,4,4,16,40,86,351,39,41,58,082,,49,32,274,,50,10,089,*73
$GLGSV,2,1,08,67,09,052,,68,40,094,31,69,37,162,33,73,25,317,21*6F
$GLGSV,2,2,08,79,33,167,36,80,70,251,27,83,10,346,32,84,07,295,*65
$GNGLL,0419.87154,S,05539.58837,E,065552.00,A,A*63
$GNRMC,065553.00,A,0419.87154,S,05539.58835,E,0.052,,270525,,,A*79
$GNVTG,,T,,M,0.052,N,0.095,K,A*36
$GNGGA,065553.00,0419.87154,S,05539.58835,E,1,12,0.77,10.2,M,-47.6,M,,*4D
$GNGSA,A,3,25,12,23,15,18,05,24,29,28,,,,1.38,0.77,1.15*19
$GNGSA,A,3,80,68,69,79,83,,,,,,,,1.38,0.77,1.15*1F
$GPGSV,4,1,16,05,29,030,19,10,15,214,08,12,69,122,32,13,12,096,*76
$GPGSV,4,2,16,15,42,122,19,18,29,304,35,23,57,220,26,24,27,167,33*74
$GPGSV,4,3,16,25,71,333,38,28,08,281,36,29,18,356,39,36,52,277,38*7F
$GPGSV,4,4,16,40,86,351,36,41,58,082,,49,32,274,,50,10,089,*7C
$GLGSV,2,1,08,67,09,052,,68,40,094,30,69,37,162,34,73,25,317,22*6A
$GLGSV,2,2,08,79,33,167,37,80,70,251,27,83,10,346,33,84,07,295,*65
$GNGLL,0419.87154,S,05539.58835,E,065553.00,A,A*60
$GNRMC,065554.00,A,0419.87153,S,05539.58838,E,0.034,,270525,,,A*74
$GNVTG,,T,,M,0.034,N,0.063,K,A*3F
$GNGGA,065554.00,0419.87153,S,05539.58838,E,1,12,0.77,10.4,M,-47.6,M,,*46
$GNGSA,A,3,25,12,23,15,18,05,24,29,28,,,,1.38,0.77,1.15*19
$GNGSA,A,3,80,68,69,79,83,,,,,,,,1.38,0.77,1.15*1F
$GPGSV,4,1,16,05,29,030,19,10,15,214,08,12,69,122,31,13,12,096,*75
$GPGSV,4,2,16,15,42,122,23,18,29,304,35,23,57,220,23,24,27,167,34*7F
$GPGSV,4,3,16,25,71,333,37,28,08,281,36,29,18,356,41,36,52,277,36*71
$GPGSV,4,4,16,40,86,351,38,41,58,082,,49,32,274,,50,10,089,*72
$GLGSV,2,1,08,67,09,052,,68,40,094,30,69,37,162,34,73,25,317,24*6C
$GLGSV,2,2,08,79,33,167,37,80,70,251,28,83,10,346,34,84,07,295,*6D
$GNGLL,0419.87153,S,05539.58838,E,065554.00,A,A*6D
$GNRMC,065555.00,A,0419.87153,S,05539.58835,E,0.002,,270525,,,A*7D
$GNVTG,,T,,M,0.002,N,0.004,K,A*3B
$GNGGA,065555.00,0419.87153,S,05539.58835,E,1,12,0.77,10.5,M,-47.6,M,,*4B
$GNGSA,A,3,25,12,23,15,18,05,24,29,28,,,,1.38,0.77,1.15*19
$GNGSA,A,3,80,68,69,79,83,,,,,,,,1.38,0.77,1.15*1F
$GPGSV,4,1,16,05,29,030,18,10,15,214,08,12,69,122,31,13,12,096,*74
$GPGSV,4,2,16,15,42,122,27,18,29,304,35,23,57,220,25,24,27,167,34*7D
$GPGSV,4,3,16,25,71,333,37,28,08,281,36,29,18,356,40,36,52,277,36*70
$GPGSV,4,4,16,40,86,351,38,41,58,082,,49,32,274,,50,10,089,*72
$GLGSV,2,1,08,67,09,051,,68,40,094,30,69,37,162,29,73,25,317,25*62
$GLGSV,2,2,08,79,33,167,37,80,70,251,28,83,10,346,35,84,07,295,*6C
$GNGLL,0419.87153,S,05539.58835,E,065555.00,A,A*61
$GNRMC,065556.00,A,0419.87153,S,05539.58838,E,0.080,,270525,,,A*79
$GNVTG,,T,,M,0.080,N,0.148,K,A*38
$GNGGA,065556.00,0419.87153,S,05539.58838,E,1,12,0.77,10.6,M,-47.6,M,,*46
$GNGSA,A,3,25,12,23,15,18,05,24,29,28,,,,1.38,0.77,1.14*18
$GNGSA,A,3,80,68,69,79,83,,,,,,,,1.38,0.77,1.14*1E
$GPGSV,4,1,16,05,29,030,15,10,15,214,07,12,69,122,30,13,12,096,*77
$GPGSV,4,2,16,15,42,122,26,18,29,304,32,23,57,220,23,24,27,167,32*7B
$GPGSV,4,3,16,25,71,333,33,28,08,281,34,29,18,356,37,36,52,277,32*72
$GPGSV,4,4,16,40,86,351,33,41,58,082,,49,32,274,,50,10,089,*79
$GLGSV,2,1,08,67,09,051,,68,40,093,28,69,37,162,31,73,25,317,25*65
$GLGSV,2,2,08,79,33,167,36,80,70,251,30,83,10,346,31,84,07,295,*60
$GNGLL,0419.87153,S,05539.58838,E,065556.00,A,A*6F
$GNRMC,065557.00,A,0419.87151,S,05539.58838,E,0.041,,270525,,,A*77
$GNVTG,,T,,M,0.041,N,0.076,K,A*39
$GNGGA,065557.00,0419.87151,S,05539.58838,E,1,12,0.77,10.6,M,-47.6,M,,*45
$GNGSA,A,3,25,12,23,15,18,05,24,29,28,,,,1.38,0.77,1.14*18
$GNGSA,A,3,80,68,69,79,83,,,,,,,,1.38,0.77,1.14*1E
$GPGSV,4,1,16,05,29,030,16,10,15,214,07,12,69,122,29,13,12,096,*7C
$GPGSV,4,2,16,15,42,122,25,18,29,304,31,23,57,220,23,24,27,167,27*7F
$GPGSV,4,3,16,25,71,333,28,28,08,281,34,29,18,356,33,36,52,277,31*7F
$GPGSV,4,4,16,40,86,351,31,41,58,082,,49,32,274,,50,10,089,*7B
$GLGSV,2,1,08,67,09,051,,68,40,093,26,69,37,161,27,73,25,317,24*6E
$GLGSV,2,2,08,79,33,167,33,80,70,251,30,83,10,346,30,84,07,295,*64
$GNGLL,0419.87151,S,05539.58838,E,065557.00,A,A*6C
$GNRMC,065558.00,A,0419.87149,S,05539.58839,E,0.035,,270525,,,A*73
$GNVTG,,T,,M,0.035,N,0.065,K,A*38
$GNGGA,065558.00,0419.87149,S,05539.58839,E,1,12,0.77,10.6,M,-47.6,M,,*42
$GNGSA,A,3,25,12,23,15,18,05,24,29,28,,,,1.38,0.77,1.14*18
$GNGSA,A,3,80,68,69,79,83,,,,,,,,1.38,0.77,1.14*1E
$GPGSV,4,1,16,05,29,030,17,10,15,214,07,12,69,122,31,13,12,096,*74
$GPGSV,4,2,16,15,42,122,23,18,29,304,32,23,57,220,22,24,27,167,31*7C
$GPGSV,4,3,16,25,71,333,34,28,08,281,35,29,18,356,37,36,52,277,35*73
$GPGSV,4,4,16,40,86,351,35,41,58,082,,49,32,274,,50,10,089,*7F
$GLGSV,2,1,08,67,09,051,,68,40,093,26,69,37,161,27,73,25,317,24*6E
$GLGSV,2,2,08,79,33,167,34,80,70,251,30,83,10,346,31,84,07,295,*62
$GNGLL,0419.87149,S,05539.58839,E,065558.00,A,A*6B
$GNRMC,065559.00,A,0419.87149,S,05539.58841,E,0.026,,270525,,,A*7F
$GNVTG,,T,,M,0.026,N,0.047,K,A*3A
$GNGGA,065559.00,0419.87149,S,05539.58841,E,1,12,0.84,10.6,M,-47.6,M,,*40
$GNGSA,A,3,25,12,23,15,18,05,24,29,28,,,,1.42,0.84,1.15*18
$GNGSA,A,3,80,68,69,79,83,,,,,,,,1.42,0.84,1.15*1E
$GPGSV,4,1,16,05,29,030,19,10,15,214,08,12,69,122,31,13,12,096,*75
$GPGSV,4,2,16,15,42,122,25,18,29,304,35,23,57,220,24,24,27,167,33*79
$GPGSV,4,3,16,25,71,333,35,28,08,281,36,29,18,356,38,36,52,277,35*7E
$GPGSV,4,4,16,40,86,351,33,41,58,082,,49,32,274,,50,10,089,*79
$GLGSV,2,1,08,67,09,051,,68,40,093,26,69,37,161,27,73,25,317,23*69
$GLGSV,2,2,08,79,33,167,34,80,70,251,30,83,10,346,31,84,07,295,*62
$GNGLL,0419.87149,S,05539.58841,E,065559.00,A,A*65
$GNRMC,065600.00,A,0419.87150,S,05539.58840,E,0.183,,270525,,,A*77
$GNVTG,,T,,M,0.183,N,0.339,K,A*3E
$GNGGA,065600.00,0419.87150,S,05539.58840,E,1,12,0.84,10.6,M,-47.6,M,,*46
$GNGSA,A,3,25,12,23,15,18,05,24,29,28,,,,1.42,0.84,1.15*18
$GNGSA,A,3,80,68,69,79,83,,,,,,,,1.42,0.84,1.15*1E
$GPGSV,4,1,16,05,29,030,17,10,15,214,08,12,69,122,27,13,12,096,*7C
$GPGSV,4,2,16,15,42,122,23,18,29,304,31,23,57,220,22,24,27,167,29*76
$GPGSV,4,3,16,25,71,333,31,28,08,281,34,29,18,356,35,36,52,277,31*71
$GPGSV,4,4,16,40,86,351,30,41,58,082,,49,32,274,,50,10,089,*7A
$GLGSV,2,1,08,67,09,051,,68,40,093,26,69,37,161,29,73,25,317,23*67
$GLGSV,2,2,08,79,33,167,37,80,70,251,30,83,10,346,32,84,07,295,*62
$GNGLL,0419.87150,S,05539.58840,E,065600.00,A,A*63
$GNRMC,065601.00,A,0419.87149,S,05539.58843,E,0.024,,270525,,,A*71
$GNVTG,,T,,M,0.024,N,0.045,K,A*3A
$GNGGA,065601.00,0419.87149,S,05539.58843,E,1,12,0.84,10.5,M,-47.6,M,,*4F
$GNGSA,A,3,25,12,23,15,18,05,24,29,28,,,,1.42,0.84,1.15*18
$GNGSA,A,3,80,68,69,79,83,,,,,,,,1.42,0.84,1.15*1E
$GPGSV,4,1,16,05,29,030,17,10,15,214,08,12,69,122,30,13,12,096,*7A
$GPGSV,4,2,16,15,42,122,23,18,29,304,32,23,57,220,22,24,27,167,32*7F
$GPGSV,4,3,16,25,71,333,33,28,08,281,34,29,18,356,36,36,52,277,33*72
$GPGSV,4,4,16,40,86,351,32,41,58,082,,49,32,274,,50,10,089,*78
$GLGSV,2,1,08,67,09,051,,68,40,093,26,69,37,161,30,73,26,317,22*6D
$GLGSV,2,2,08,79,33,167,36,80,70,251,30,83,10,346,31,84,07,295,*60
$GNGLL,0419.87149,S,05539.58843,E,065601.00,A,A*69
$GNRMC,065602.00,A,0419.87149,S,05539.58846,E,0.016,,270525,,,A*76
$GNVTG,,T,,M,0.016,N,0.030,K,A*39
$GNGGA,065602.00,0419.87149,S,05539.58846,E,1,12,0.77,10.3,M,-47.6,M,,*43
$GNGSA,A,3,25,12,23,15,18,05,24,29,28,,,,1.38,0.77,1.14*18
$GNGSA,A,3,80,68,69,79,83,,,,,,,,1.38,0.77,1.14*1E
$GPGSV,4,1,16,05,29,030,19,10,15,214,08,12,69,122,31,13,12,096,*75
$GPGSV,4,2,16,15,42,122,22,18,29,304,33,23,57,220,22,24,27,167,32*7F
$GPGSV,4,3,16,25,71,333,33,28,08,281,36,29,18,356,36,36,52,277,34*77
$GPGSV,4,4,16,40,86,351,33,41,58,082,,49,32,274,,50,10,089,*79
$GLGSV,2,1,08,67,09,051,,68,40,093,26,69,37,161,29,73,26,317,22*65
$GLGSV,2,2,08,79,33,167,36,80,70,251,31,83,10,346,34,84,07,295,*64
$GNGLL,0419.87149,S,05539.58846,E,065602.00,A,A*6F
$GNRMC,065603.00,A,0419.87148,S,05539.58849,E,0.053,,270525,,,A*78
$GNVTG,,T,,M,0.053,N,0.099,K,A*3B
$GNGGA,065603.00,0419.87148,S,05539.58849,E,1,12,0.77,10.2,M,-47.6,M,,*4D
$GNGSA,A,3,25,12,23,15,18,05,24,29,28,,,,1.38,0.77,1.14*18
$GNGSA,A,3,80,68,69,79,83,,,,,,,,1.38,0.77,1.14*1E
$GPGSV,4,1,16,05,29,030,20,10,15,214,08,12,69,122,30,13,12,096,*7E
$GPGSV,4,2,16,15,42,122,24,18,29,304,31,23,57,220,22,24,27,167,32*7B
$GPGSV,4,3,16,25,71,333,34,28,08,281,36,29,18,356,36,36,52,277,31*75
$GPGSV,4,4,16,40,86,351,34,41,58,082,,49,32,274,,50,10,089,*7E
$GLGSV,2,1,08,67,09,051,,68,40,093,24,69,37,161,28,73,26,317,21*65
$GLGSV,2,2,08,79,33,167,32,80,70,251,25,83,10,346,29,84,07,295,*69
$GNGLL,0419.87148,S,05539.58849,E,065603.00,A,A*60
$GNRMC,065604.00,A,0419.87148,S,05539.58851,E,0.039,,270525,,,A*7A
$GNVTG,,T,,M,0.039,N,0.071,K,A*31
$GNGGA,065604.00,0419.87148,S,05539.58851,E,1,12,0.77,10.1,M,-47.6,M,,*40
$GNGSA,A,3,25,12,23,15,18,05,24,29,28,,,,1.38,0.77,1.14*18
$GNGSA,A,3,80,68,69,79,83,,,,,,,,1.38,0.77,1.14*1E
$GPGSV,4,1,16,05,29,030,22,10,15,214,,12,69,122,31,13,12,096,*75
$GPGSV,4,2,16,15,42,122,26,18,29,304,32,23,57,220,22,24,27,167,32*7A
$GPGSV,4,3,16,25,71,333,35,28,08,281,36,29,18,356,38,36,52,277,35*7E
$GPGSV,4,4,16,40,86,351,34,41,58,082,,49,32,274,,50,10,089,*7E
$GLGSV,2,1,08,67,09,051,,68,40,093,26,69,37,161,29,73,26,317,22*65
$GLGSV,2,2,08,79,33,167,35,80,70,251,30,83,10,346,33,84,07,295,*61
$GNGLL,0419.87148,S,05539.58851,E,065604.00,A,A*6E
$GNRMC,065605.00,A,0419.87147,S,05539.58853,E,0.040,,270525,,,A*78
$GNVTG,,T,,M,0.040,N,0.075,K,A*3B
$GNGGA,065605.00,0419.87147,S,05539.58853,E,1,12,0.77,10.0,M,-47.6,M,,*4D
$GNGSA,A,3,25,12,23,15,18,05,24,29,28,,,,1.38,0.77,1.14*18
$GNGSA,A,3,80,68,69,79,83,,,,,,,,1.38,0.77,1.14*1E
$GPGSV,4,1,16,05,29,030,22,10,15,214,19,12,69,122,31,13,12,096,*7D
$GPGSV,4,2,16,15,42,122,25,18,29,304,33,23,57,220,22,24,27,167,32*78
$GPGSV,4,3,16,25,71,333,35,28,08,281,36,29,18,356,36,36,52,277,32*77
$GPGSV,4,4,16,40,86,351,34,41,58,082,,49,32,274,,50,10,089,*7E
$GLGSV,2,1,08,67,09,051,,68,40,093,26,69,37,161,28,73,26,317,22*64
$GLGSV,2,2,08,79,33,167,33,80,70,251,29,83,10,346,32,84,07,295,*6E
$GNGLL,0419.87147,S,05539.58853,E,065605.00,A,A*62
$GNRMC,065606.00,A,0419.87146,S,05539.58853,E,0.038,,270525,,,A*75
$GNVTG,,T,,M,0.038,N,0.070,K,A*31
$GNGGA,065606.00,0419.87146,S,05539.58853,E,1,12,0.77,9.9,M,-47.6,M,,*7E
$GNGSA,A,3,25,12,23,15,18,05,24,29,28,,,,1.38,0.77,1.14*18
$GNGSA,A,3,80,68,69,79,83,,,,,,,,1.38,0.77,1.14*1E
$GPGSV,4,1,16,05,29,030,22,10,15,214,16,12,69,122,31,13,12,096,*72
$GPGSV,4,2,16,15,42,122,25,18,29,304,33,23,57,220,23,24,27,167,33*78
$GPGSV,4,3,16,25,71,333,33,28,08,281,36,29,18,356,37,36,52,277,33*71
$GPGSV,4,4,16,40,86,351,34,41,58,082,,49,32,274,,50,10,089,*7E
$GLGSV,2,1,08,67,09,051,,68,40,093,27,69,37,161,29,73,26,317,23*65
$GLGSV,2,2,08,79,33,167,35,80,70,251,31,83,10,346,34,84,07,295,*67
$GNGLL,0419.87146,S,05539.58853,E,065606.00,A,A*60
$GNRMC,065607.00,A,0419.87147,S,05539.58852,E,0.050,,270525,,,A*7A
$GNVTG,,T,,M,0.050,N,0.092,K,A*33
$GNGGA,065607.00,0419.87147,S,05539.58852,E,1,12,0.77,9.9,M,-47.6,M,,*7F
$GNGSA,A,3,25,12,23,15,18,05,24,29,28,,,,1.38,0.77,1.14*18
$GNGSA,A,3,80,68,69,79,83,,,,,,,,1.38,0.77,1.14*1E
$GPGSV,4,1,16,05,29,030,22,10,15,214,14,12,69,122,32,13,12,096,*73
$GPGSV,4,2,16,15,42,122,25,18,29,304,34,23,57,220,23,24,27,167,33*7F
$GPGSV,4,3,16,25,71,333,37,28,08,281,37,29,18,356,38,36,52,277,36*7E
$GPGSV,4,4,16,40,86,351,35,41,58,082,,49,32,274,,50,10,089,*7F
$GLGSV,2,1,08,67,09,051,,68,40,093,28,69,37,161,28,73,26,317,25*6D
$GLGSV,2,2,08,79,32,167,36,80,70,251,30,83,10,346,34,84,07,295,*64
$GNGLL,0419.87147,S,05539.58852,E,065607.00,A,A*61
$GNRMC,065608.00,A,0419.87147,S,05539.58855,E,0.035,,270525,,,A*71
$GNVTG,,T,,M,0.035,N,0.065,K,A*38
$GNGGA,065608.00,0419.87147,S,05539.58855,E,1,12,0.77,9.8,M,-47.6,M,,*76
$GNGSA,A,3,25,12,23,15,18,05,24,29,28,,,,1.38,0.77,1.14*18
$GNGSA,A,3,80,68,69,79,83,,,,,,,,1.38,0.77,1.14*1E
$GPGSV,4,1,16,05,29,030,22,10,15,214,14,12,69,122,33,13,12,096,*72
$GPGSV,4,2,16,15,42,122,27,18,29,304,34,23,57,220,26,24,27,167,33*78
$GPGSV,4,3,16,25,71,333,36,28,08,281,37,29,18,356,38,36,52,277,34*7D
$GPGSV,4,4,16,40,86,351,35,41,58,082,,49,32,274,,50,10,089,*7F
$GLGSV,2,1,08,67,09,051,,68,40,093,28,69,37,161,29,73,26,317,24*6D
$GLGSV,2,2,08,79,32,167,35,80,69,249,30,83,10,346,33,84,07,295,*61
$GNGLL,0419.87147,S,05539.58855,E,065608.00,A,A*69
$GNRMC,065609.00,A,0419.87145,S,05539.58856,E,0.041,,270525,,,A*72
$GNVTG,,T,,M,0.041,N,0.076,K,A*39
$GNGGA,065609.00,0419.87145,S,05539.58856,E,1,12,0.77,9.8,M,-47.6,M,,*76
$GNGSA,A,3,25,12,23,15,18,05,24,29,28,,,,1.38,0.77,1.14*18
$GNGSA,A,3,80,68,69,79,83,,,,,,,,1.38,0.77,1.14*1E
$GPGSV,4,1,16,05,29,030,21,10,15,214,13,12,69,122,32,13,12,096,*77
$GPGSV,4,2,16,15,42,122,27,18,29,304,33,23,57,220,26,24,27,167,32*7E
$GPGSV,4,3,16,25,71,333,36,28,08,281,38,29,18,356,39,36,52,277,34*73
$GPGSV,4,4,16,40,86,351,33,41,58,082,,49,32,274,,50,10,089,*79
$GLGSV,2,1,08,67,09,051,,68,40,093,28,69,37,161,27,73,26,317,24*63
$GLGSV,2,2,08,79,32,167,34,80,69,249,29,83,10,346,33,84,07,295,*68
$GNGLL,0419.87145,S,05539.58856,E,065609.00,A,A*69
$GNRMC,065610.00,A,0419.87146,S,05539.58855,E,0.087,,270525,,,A*70
$GNVTG,,T,,M,0.087,N,0.160,K,A*35
$GNGGA,065610.00,0419.87146,S,05539.58855,E,1,12,0.77,9.8,M,-47.6,M,,*7E
$GNGSA,A,3,25,12,23,15,18,05,24,29,10,28,,,1.38,0.77,1.14*19
$GNGSA,A,3,80,68,69,79,83,,,,,,,,1.38,0.77,1.14*1E
$GPGSV,4,1,16,05,29,030,22,10,15,214,12,12,69,122,31,13,12,096,15*72
$GPGSV,4,2,16,15,42,122,26,18,29,304,32,23,57,220,26,24,27,167,31*7D
$GPGSV,4,3,16,25,71,333,33,28,08,281,35,29,18,356,37,36,52,277,32*73
$GPGSV,4,4,16,40,86,351,33,41,58,082,,49,32,274,,50,10,089,*79
$GLGSV,2,1,08,67,09,051,,68,40,093,28,69,37,161,27,73,26,317,23*64
$GLGSV,2,2,08,79,32,167,35,80,69,249,29,83,10,346,33,84,07,295,*69
$GNGLL,0419.87146,S,05539.58855,E,065610.00,A,A*61
$GNRMC,065611.00,A,0419.87146,S,05539.58847,E,0.056,,270525,,,A*7E
$GNVTG,,T,,M,0.056,N,0.103,K,A*3C
$GNGGA,065611.00,0419.87146,S,05539.58847,E,1,12,0.77,9.9,M,-47.6,M,,*7D
$GNGSA,A,3,25,12,23,15,18,05,24,29,10,28,,,1.38,0.77,1.14*19
$GNGSA,A,3,80,68,69,79,83,,,,,,,,1.38,0.77,1.14*1E
$GPGSV,4,1,16,05,29,030,22,10,15,214,11,12,69,122,31,13,12,096,*75
$GPGSV,4,2,16,15,42,122,26,18,29,304,32,23,57,220,26,24,27,167,32*7E
$GPGSV,4,3,16,25,71,333,36,28,08,281,36,29,18,356,38,36,52,277,33*7B
$GPGSV,4,4,16,40,86,351,34,41,58,082,,49,32,274,,50,10,089,*7E
$GLGSV,2,1,08,67,09,051,,68,40,093,32,69,37,161,28,73,26,317,24*67
$GLGSV,2,2,08,79,32,167,36,80,69,249,29,83,10,347,34,84,07,295,*6C
$GNGLL,0419.87146,S,05539.58847,E,065611.00,A,A*63
$GNRMC,065612.00,A,0419.87145,S,05539.58845,E,0.014,,270525,,,A*7A
$GNVTG,,T,,M,0.014,N,0.027,K,A*3D
$GNGGA,065612.00,0419.87145,S,05539.58845,E,1,12,0.77,10.0,M,-47.6,M,,*4E
$GNGSA,A,3,25,12,23,15,18,05,24,29,28,,,,1.38,0.77,1.14*18
$GNGSA,A,3,80,68,69,79,83,,,,,,,,1.38,0.77,1.14*1E
$GPGSV,4,1,16,05,29,030,23,10,15,214,09,12,69,122,31,13,12,096,16*7A
$GPGSV,4,2,16,15,42,122,26,18,29,304,33,23,57,220,25,24,27,167,33*7D
$GPGSV,4,3,16,25,71,333,36,28,08,281,36,29,18,356,37,36,52,277,34*73
$GPGSV,4,4,16,40,86,351,34,41,58,082,,49,32,274,,50,10,089,*7E
$GLGSV,2,1,08,67,09,051,,68,40,093,27,69,37,161,32,73,26,317,24*68
$GLGSV,2,2,08,79,32,167,37,80,69,249,30,83,10,347,33,84,07,296,*61
$GNGLL,0419.87145,S,05539.58845,E,065612.00,A,A*61
$GNRMC,065613.00,A,0419.87141,S,05539.58851,E,0.298,,270525,,,A*7C
$GNVTG,,T,,M,0.298,N,0.551,K,A*3F
$GNGGA,065613.00,0419.87141,S,05539.58851,E,1,12,0.77,9.9,M,-47.6,M,,*7F
$GNGSA,A,3,25,12,23,15,18,05,24,29,28,,,,1.38,0.77,1.14*18
$GNGSA,A,3,80,68,69,79,83,,,,,,,,1.38,0.77,1.14*1E
$GPGSV,4,1,16,05,29,030,22,10,15,214,09,12,69,122,30,13,12,096,15*79
$GPGSV,4,2,16,15,42,122,25,18,29,304,33,23,57,220,24,24,27,167,34*78
$GPGSV,4,3,16,25,71,333,35,28,08,281,37,29,18,356,38,36,52,277,35*7F
$GPGSV,4,4,16,40,86,351,33,41,58,082,,49,32,274,,50,10,089,*79
$GLGSV,2,1,08,67,09,051,,68,40,093,25,69,37,161,27,73,26,317,23*69
$GLGSV,2,2,08,79,32,167,35,80,69,249,29,83,10,347,31,84,07,296,*69
$GNGLL,0419.87141,S,05539.58851,E,065613.00,A,A*61
$GNRMC,065614.00,A,0419.87138,S,05539.58853,E,0.128,,270525,,,A*7F
$GNVTG,,T,,M,0.128,N,0.236,K,A*31
$GNGGA,065614.00,0419.87138,S,05539.58853,E,1,12,0.84,9.9,M,-47.6,M,,*78
$GNGSA,A,3,25,12,23,15,18,05,24,29,10,28,,,1.42,0.84,1.14*18
$GNGSA,A,3,80,68,69,79,83,,,,,,,,1.42,0.84,1.14*1F
$GPGSV,4,1,16,05,29,030,23,10,15,214,11,12,69,122,30,13,12,096,15*71
$GPGSV,4,2,16,15,42,122,23,18,29,304,35,23,57,220,25,24,27,167,34*79
$GPGSV,4,3,16,25,71,333,36,28,08,281,37,29,18,356,37,36,52,277,35*73
$GPGSV,4,4,16,40,86,351,36,41,58,082,,49,32,274,,50,10,089,*7C
$GLGSV,2,1,08,67,09,051,,68,40,093,25,69,37,161,29,73,26,317,22*66
$GLGSV,2,2,08,79,32,167,36,80,69,249,30,83,10,347,31,84,07,296,*62
$GNGLL,0419.87138,S,05539.58853,E,065614.00,A,A*6A
$GNRMC,065615.00,A,0419.87139,S,05539.58850,E,0.020,,270525,,,A*75
$GNVTG,,T,,M,0.020,N,0.036,K,A*3A
$GNGGA,065615.00,0419.87139,S,05539.58850,E,1,12,0.77,9.8,M,-47.6,M,,*76
$GNGSA,A,3,25,12,23,15,18,05,24,29,10,28,,,1.38,0.77,1.14*19
$GNGSA,A,3,80,68,69,79,83,,,,,,,,1.38,0.77,1.14*1E
$GPGSV,4,1,16,05,29,030,22,10,15,214,14,12,69,122,31,13,12,096,*70
$GPGSV,4,2,16,15,42,122,27,18,29,304,32,23,57,220,26,24,27,167,33*7E
$GPGSV,4,3,16,25,71,333,36,28,08,281,35,29,18,356,39,36,52,277,37*7D
$GPGSV,4,4,16,40,86,351,36,41,58,082,,49,32,274,,50,10,089,*7C
$GLGSV,2,1,08,67,09,051,,68,40,093,28,69,37,161,28,73,26,317,22*6A
$GLGSV,2,2,08,79,32,167,36,80,69,249,30,83,10,347,33,84,07,296,*60
$GNGLL,0419.87139,S,05539.58850,E,065615.00,A,A*69
$GNRMC,065616.00,A,0419.87138,S,05539.58849,E,0.042,,270525,,,A*7B
$GNVTG,,T,,M,0.042,N,0.078,K,A*34
$GNGGA,065616.00,0419.87138,S,05539.58849,E,1,12,0.77,9.8,M,-47.6,M,,*7C
$GNGSA,A,3,25,12,23,15,18,05,24,29,10,28,,,1.38,0.77,1.14*19
$GNGSA,A,3,80,68,69,79,83,,,,,,,,1.38,0.77,1.14*1E
$GPGSV,4,1,16,05,29,030,23,10,15,214,15,12,69,122,32,13,12,096,*73
$GPGSV,4,2,16,15,42,122,26,18,29,304,32,23,57,220,25,24,27,167,33*7C
$GPGSV,4,3,16,25,71,333,36,28,08,281,34,29,18,356,38,36,52,277,35*7F
$GPGSV,4,4,16,40,86,351,36,41,58,082,,49,32,274,,50,10,089,*7C
$GLGSV,2,1,08,67,09,051,,68,40,093,28,69,37,161,28,73,26,317,23*6B
$GLGSV,2,2,08,79,32,167,35,80,69,249,29,83,10,347,36,84,07,296,*6E
$GNGLL,0419.87138,S,05539.58849,E,065616.00,A,A*63
$GNRMC,065617.00,A,0419.87138,S,05539.58847,E,0.042,,270525,,,A*74
$GNVTG,,T,,M,0.042,N,0.077,K,A*3B
$GNGGA,065617.00,0419.87138,S,05539.58847,E,1,12,0.77,9.8,M,-47.6,M,,*73
$GNGSA,A,3,25,12,23,15,18,05,24,29,10,28,,,1.38,0.77,1.14*19
$GNGSA,A,3,80,68,69,79,83,,,,,,,,1.38,0.77,1.14*1E
$GPGSV,4,1,16,05,29,030,24,10,15,214,14,12,69,122,32,13,12,096,*75
$GPGSV,4,2,16,15,42,122,25,18,29,304,32,23,57,220,22,24,27,167,33*78
$GPGSV,4,3,16,25,71,333,36,28,08,281,35,29,18,356,38,36,52,277,35*7E
$GPGSV,4,4,16,40,86,351,36,41,58,082,,49,32,274,,50,10,089,*7C
$GLGSV,2,1,08,67,09,051,,68,40,093,29,69,37,161,29,73,26,317,24*6C
$GLGSV,2,2,08,79,32,167,36,80,69,249,28,83,10,347,35,84,07,296,*6F
$GNGLL,0419.87138,S,05539.58847,E,065617.00,A,A*6C
$GNRMC,065618.00,A,0419.87139,S,05539.58845,E,0.017,,270525,,,A*78
$GNVTG,,T,,M,0.017,N,0.032,K,A*3A
$GNGGA,065618.00,0419.87139,S,05539.58845,E,1,12,0.77,9.7,M,-47.6,M,,*70
$GNGSA,A,3,25,12,23,15,18,05,24,29,10,28,,,1.38,0.77,1.14*19
$GNGSA,A,3,80,68,69,79,83,,,,,,,,1.38,0.77,1.14*1E
$GPGSV,4,1,16,05,29,030,24,10,15,214,16,12,69,122,31,13,12,096,*74
$GPGSV,4,2,16,15,42,122,23,18,29,304,33,23,57,220,24,24,27,167,34*7E
$GPGSV,4,3,16,25,71,333,36,28,08,281,35,29,18,356,39,36,52,277,35*7F
$GPGSV,4,4,16,40,86,351,37,41,58,082,,49,32,274,,50,10,089,*7D
$GLGSV,2,1,08,67,09,051,,68,40,093,30,69,37,161,28,73,26,317,25*64
$GLGSV,2,2,08,79,32,167,36,80,69,249,28,83,10,347,34,84,07,296,*6E
$GNGLL,0419.87139,S,05539.58845,E,065618.00,A,A*60
$GNRMC,065619.00,A,0419.87139,S,05539.58844,E,0.018,,270525,,,A*77
$GNVTG,,T,,M,0.018,N,0.034,K,A*33
$GNGGA,065619.00,0419.87139,S,05539.58844,E,1,12,0.77,9.6,M,-47.6,M,,*71
$GNGSA,A,3,25,12,23,15,18,05,24,29,10,28,,,1.38,0.77,1.14*19
$GNGSA,A,3,80,68,69,79,83,,,,,,,,1.38,0.77,1.14*1E
$GPGSV,4,1,16,05,29,030,24,10,15,214,16,12,69,122,31,13,12,096,*74
$GPGSV,4,2,16,15,42,122,21,18,29,304,33,23,57,220,25,24,27,167,34*7D
$GPGSV,4,3,16,25,71,333,37,28,08,281,35,29,18,356,39,36,52,277,35*7E
$GPGSV,4,4,16,40,86,351,37,41,58,082,,49,32,274,,50,10,089,*7D
$GLGSV,2,1,08,67,09,051,,68,40,093,29,69,37,161,29,73,26,317,26*6E
$GLGSV,2,2,08,79,32,167,34,80,69,249,28,83,10,347,35,84,07,296,*6D
$GNGLL,0419.87139,S,05539.58844,E,065619.00,A,A*60
$GNRMC,065620.00,A,0419.87139,S,05539.58844,E,0.038,,270525,,,A*7F
$GNVTG,,T,,M,0.038,N,0.070,K,A*31
$GNGGA,065620.00,0419.87139,S,05539.58844,E,1,12,0.77,9.5,M,-47.6,M,,*78
$GNGSA,A,3,25,12,23,15,18,05,24,29,10,28,,,1.38,0.77,1.14*19
$GNGSA,A,3,80,68,69,79,83,,,,,,,,1.38,0.77,1.14*1E
$GPGSV,4,1,16,05,29,030,24,10,15,214,15,12,69,122,31,13,12,096,*77
$GPGSV,4,2,16,15,42,122,20,18,29,304,33,23,57,220,25,24,27,167,34*7C
$GPGSV,4,3,16,25,71,333,37,28,08,281,36,29,18,356,39,36,52,277,36*7E
$GPGSV,4,4,16,40,86,351,36,41,58,082,,49,32,274,,50,10,089,*7C
$GLGSV,2,1,08,67,09,051,,68,40,093,30,69,37,161,29,73,26,317,25*65
$GLGSV,2,2,08,79,32,167,36,80,69,249,29,83,10,347,35,84,07,296,*6E
$GNGLL,0419.87139,S,05539.58844,E,065620.00,A,A*6A
$GNRMC,065621.00,A,0419.87137,S,05539.58841,E,0.024,,270525,,,A*78
$GNVTG,,T,,M,0.024,N,0.045,K,A*3A
$GNGGA,065621.00,0419.87137,S,05539.58841,E,1,12,0.77,9.5,M,-47.6,M,,*72
$GNGSA,A,3,25,12,23,15,18,05,24,29,10,28,,,1.38,0.77,1.14*19
$GNGSA,A,3,80,68,69,79,83,,,,,,,,1.38,0.77,1.14*1E
$GPGSV,4,1,16,05,28,030,25,10,15,214,18,12,69,122,30,13,12,096,*7B
$GPGSV,4,2,16,15,42,122,18,18,29,304,33,23,57,220,24,24,27,167,34*76
$GPGSV,4,3,16,25,71,333,37,28,08,281,36,29,18,356,39,36,52,277,36*7E
$GPGSV,4,4,16,40,86,351,37,41,58,082,,49,32,274,,50,10,089,*7D
$GLGSV,2,1,08,67,09,051,,68,40,093,30,69,37,161,29,73,26,317,26*66
$GLGSV,2,2,08,79,32,167,36,80,69,249,29,83,10,347,36,84,07,296,*6D
$GNGLL,0419.87137,S,05539.58841,E,065621.00,A,A*60
$GNRMC,065622.00,A,0419.87137,S,05539.58838,E,0.028,,270525,,,A*79
$GNVTG,,T,,M,0.028,N,0.052,K,A*30
$GNGGA,065622.00,0419.87137,S,05539.58838,E,1,12,0.77,9.5,M,-47.6,M,,*7F
$GNGSA,A,3,25,12,23,15,18,05,24,29,10,28,,,1.38,0.77,1.14*19
$GNGSA,A,3,80,68,69,79,83,,,,,,,,1.38,0.77,1.14*1E
$GPGSV,4,1,16,05,28,030,24,10,15,214,18,12,69,122,30,13,12,096,*7A
$GPGSV,4,2,16,15,42,122,20,18,29,304,32,23,57,220,24,24,27,167,34*7C
$GPGSV,4,3,16,25,71,333,37,28,08,281,36,29,18,356,39,36,52,277,36*7E
$GPGSV,4,4,16,40,86,351,37,41,58,082,,49,32,274,,50,10,089,*7D
$GLGSV,2,1,08,67,09,051,,68,40,093,30,69,37,161,31,73,26,317,26*6F
$GLGSV,2,2,08,79,32,167,36,80,69,249,29,83,10,347,35,84,07,296,*6E
$GNGLL,0419.87137,S,05539.58838,E,065622.00,A,A*6D
$GNRMC,065623.00,A,0419.87136,S,05539.58837,E,0.054,,270525,,,A*7D
$GNVTG,,T,,M,0.054,N,0.099,K,A*3C
$GNGGA,065623.00,0419.87136,S,05539.58837,E,1,12,0.77,9.4,M,-47.6,M,,*71
$GNGSA,A,3,25,12,23,15,18,05,24,29,10,28,,,1.38,0.77,1.14*19
$GNGSA,A,3,80,68,69,79,83,,,,,,,,1.38,0.77,1.14*1E
$GPGSV,4,1,16,05,28,030,23,10,15,214,17,12,69,122,30,13,12,096,*72
$GPGSV,4,2,16,15,42,122,21,18,29,304,33,23,57,220,25,24,27,167,33*7A
$GPGSV,4,3,16,25,71,333,37,28,08,281,35,29,18,356,39,36,52,277,35*7E
$GPGSV,4,4,16,40,86,351,36,41,58,082,,49,32,274,,50,10,089,*7C
$GLGSV,2,1,08,67,09,051,,68,40,093,30,69,37,161,30,73,26,317,26*6E
$GLGSV,2,2,08,79,32,167,35,80,69,249,29,83,10,347,35,84,07,296,*6D
$GNGLL,0419.87136,S,05539.58837,E,065623.00,A,A*62
$GNRMC,065624.00,A,0419.87134,S,05539.58837,E,0.006,,270525,,,A*7F
$GNVTG,,T,,M,0.006,N,0.012,K,A*38
$GNGGA,065624.00,0419.87134,S,05539.58837,E,1,12,0.77,9.4,M,-47.6,M,,*74
$GNGSA,A,3,25,12,23,15,18,05,24,29,10,28,,,1.38,0.77,1.14*19
$GNGSA,A,3,80,68,69,79,83,,,,,,,,1.38,0.77,1.14*1E
$GPGSV,4,1,16,05,28,030,23,10,15,214,17,12,69,122,30,13,12,096,*72
$GPGSV,4,2,16,15,42,122,21,18,29,304,31,23,57,220,25,24,27,167,34*7F
$GPGSV,4,3,16,25,71,333,37,28,08,281,36,29,18,356,39,36,52,277,35*7D
$GPGSV,4,4,16,40,86,351,36,41,58,082,,49,32,274,,50,10,089,*7C
$GLGSV,2,1,08,67,09,051,,68,40,093,31,69,37,161,30,73,26,317,25*6C
$GLGSV,2,2,08,79,32,167,36,80,69,249,29,83,10,347,35,84,07,296,*6E
$GNGLL,0419.87134,S,05539.58837,E,065624.00,A,A*67
$GNRMC,065625.00,A,0419.87134,S,05539.58835,E,0.011,,270525,,,A*7A
$GNVTG,,T,,M,0.011,N,0.020,K,A*3F
$GNGGA,065625.00,0419.87134,S,05539.58835,E,1,12,0.77,9.4,M,-47.6,M,,*77
$GNGSA,A,3,25,12,23,15,18,05,24,29,10,28,,,1.38,0.77,1.14*19
$GNGSA,A,3,80,68,69,79,83,,,,,,,,1.38,0.77,1.14*1E
$GPGSV,4,1,16,05,28,030,24,10,15,214,19,12,69,122,30,13,12,096,*7B
$GPGSV,4,2,16,15,42,122,21,18,29,304,31,23,57,220,25,24,27,167,34*7F
$GPGSV,4,3,16,25,71,333,37,28,08,281,36,29,18,356,39,36,52,277,35*7D
$GPGSV,4,4,16,40,86,351,37,41,58,082,,49,32,274,,50,10,089,*7D
$GLGSV,2,1,08,67,09,051,,68,40,093,30,69,37,161,30,73,26,317,26*6E
$GLGSV,2,2,08,79,32,167,36,80,69,249,28,83,10,347,35,84,07,296,*6F
$GNGLL,0419.87134,S,05539.58835,E,065625.00,A,A*64
$GNRMC,065626.00,A,0419.87133,S,05539.58833,E,0.031,,270525,,,A*7A
$GNVTG,,T,,M,0.031,N,0.058,K,A*32
$GNGGA,065626.00,0419.87133,S,05539.58833,E,1,12,0.77,9.3,M,-47.6,M,,*72
$GNGSA,A,3,25,12,23,15,18,05,24,29,10,28,,,1.38,0.77,1.14*19
$GNGSA,A,3,80,68,69,79,83,,,,,,,,1.38,0.77,1.14*1E
$GPGSV,4,1,16,05,28,030,22,10,15,214,19,12,69,122,29,13,12,096,*75
$GPGSV,4,2,16,15,42,122,25,18,29,304,31,23,57,220,26,24,27,167,34*78
$GPGSV,4,3,16,25,71,333,37,28,08,281,36,29,18,356,40,36,52,277,35*73
$GPGSV,4,4,16,40,86,351,36,41,58,082,,49,32,274,,50,10,089,*7C
$GLGSV,2,1,08,67,09,051,,68,40,093,31,69,37,161,30,73,26,317,26*6F
$GLGSV,2,2,08,79,32,167,36,80,69,249,28,83,10,347,35,84,07,296,*6F
$GNGLL,0419.87133,S,05539.58833,E,065626.00,A,A*66
$GNRMC,065627.00,A,0419.87133,S,05539.58832,E,0.025,,270525,,,A*7F
$GNVTG,,T,,M,0.025,N,0.046,K,A*38
$GNGGA,065627.00,0419.87133,S,05539.58832,E,1,12,0.77,9.2,M,-47.6,M,,*73
$GNGSA,A,3,25,12,23,15,18,05,24,29,10,28,,,1.38,0.77,1.14*19
$GNGSA,A,3,80,68,69,79,83,,,,,,,,1.38,0.77,1.14*1E
$GPGSV,4,1,16,05,28,030,22,10,15,214,19,12,69,122,29,13,12,096,23*74
$GPGSV,4,2,16,15,42,122,25,18,29,304,31,23,57,220,25,24,27,167,34*7B
$GPGSV,4,3,16,25,71,333,38,28,08,281,36,29,18,356,39,36,52,277,35*72
$GPGSV,4,4,16,40,86,351,37,41,58,082,,49,32,274,,50,10,089,*7D
$GLGSV,2,1,08,67,09,051,,68,40,093,31,69,37,161,30,73,26,317,26*6F
$GLGSV,2,2,08,79,32,167,36,80,69,249,28,83,10,347,36,84,07,296,*6C
$GNGLL,0419.87133,S,05539.58832,E,065627.00,A,A*66
$GNRMC,065628.00,A,0419.87132,S,05539.58831,E,0.033,,270525,,,A*75
$GNVTG,,T,,M,0.033,N,0.061,K,A*3A
$GNGGA,065628.00,0419.87132,S,05539.58831,E,1,12,0.77,9.2,M,-47.6,M,,*7E
$GNGSA,A,3,25,12,23,15,18,05,24,29,10,28,,,1.38,0.77,1.14*19
$GNGSA,A,3,80,68,69,79,83,,,,,,,,1.38,0.77,1.14*1E
$GPGSV,4,1,16,05,28,030,24,10,15,214,18,12,69,124,29,13,12,096,20*76
$GPGSV,4,2,16,15,42,122,23,18,29,304,32,23,57,220,26,24,27,167,34*7D
$GPGSV,4,3,16,25,71,333,38,28,08,281,36,29,18,356,39,36,52,277,35*72
$GPGSV,4,4,16,40,86,351,36,41,58,082,,49,32,274,,50,10,089,*7C
$GLGSV,2,1,08,67,09,051,,68,40,093,30,69,37,161,30,73,26,317,26*6E
$GLGSV,2,2,08,79,32,167,36,80,69,249,29,83,10,347,36,84,07,296,*6D
$GNGLL,0419.87132,S,05539.58831,E,065628.00,A,A*6B
$GNRMC,065629.00,A,0419.87132,S,05539.58832,E,0.010,,270525,,,A*76
$GNVTG,,T,,M,0.010,N,0.019,K,A*34
$GNGGA,065629.00,0419.87132,S,05539.58832,E,1,12,0.77,9.1,M,-47.6,M,,*7F
$GNGSA,A,3,25,12,23,15,18,05,24,29,10,28,,,1.38,0.77,1.14*19
$GNGSA,A,3,80,68,69,79,83,,,,,,,,1.38,0.77,1.14*1E
$GPGSV,4,1,16,05,28,030,24,10,15,214,20,12,69,124,30,13,12,095,*74
$GPGSV,4,2,16,15,42,122,23,18,29,304,32,23,57,220,26,24,27,167,34*7D
$GPGSV,4,3,16,25,71,333,37,28,08,281,36,29,18,356,39,36,52,277,35*7D
$GPGSV,4,4,16,40,86,351,37,41,58,082,,49,32,274,,50,10,089,*7D
$GLGSV,2,1,08,67,09,051,,68,40,093,30,69,37,161,29,73,26,317,26*66
$GLGSV,2,2,08,79,32,167,36,80,69,249,29,83,10,347,35,84,07,296,*6E
$GNGLL,0419.87132,S,05539.58832,E,065629.00,A,A*69
$GNRMC,065630.00,A,0419.87133,S,05539.58830,E,0.040,,270525,,,A*78
$GNVTG,,T,,M,0.040,N,0.074,K,A*3A
$GNGGA,065630.00,0419.87133,S,05539.58830,E,1,12,0.72,9.0,M,-47.6,M,,*70
$GNGSA,A,3,25,12,23,15,18,05,24,29,10,28,,,1.29,0.72,1.07*1E
$GNGSA,A,3,80,68,69,79,83,,,,,,,,1.29,0.72,1.07*19
$GPGSV,4,1,16,05,28,030,23,10,15,214,22,12,69,124,29,13,12,095,*79
$GPGSV,4,2,16,15,42,122,22,18,29,304,33,23,57,220,25,24,27,167,34*7E
$GPGSV,4,3,16,25,71,333,38,28,08,281,36,29,18,356,39,36,52,277,36*71
$GPGSV,4,4,16,40,86,351,37,41,58,082,,49,32,274,,50,10,089,*7D
$GLGSV,2,1,08,67,09,051,,68,40,093,30,69,37,161,30,73,26,317,26*6E
$GLGSV,2,2,08,79,32,167,36,80,69,249,29,83,10,347,35,84,07,296,*6E
$GNGLL,0419.87133,S,05539.58830,E,065630.00,A,A*62
$GNRMC,065631.00,A,0419.87134,S,05539.58828,E,0.032,,270525,,,A*72
$GNVTG,,T,,M,0.032,N,0.060,K,A*3A
$GNGGA,065631.00,0419.87134,S,05539.58828,E,1,12,0.72,8.9,M,-47.6,M,,*77
$GNGSA,A,3,25,12,23,15,18,05,24,29,10,28,,,1.29,0.72,1.07*1E
$GNGSA,A,3,80,68,69,79,83,,,,,,,,1.29,0.72,1.07*19
$GPGSV,4,1,16,05,28,030,22,10,15,214,21,12,69,124,29,13,12,095,*7B
$GPGSV,4,2,16,15,43,122,22,18,29,304,33,23,57,220,25,24,27,167,34*7F
$GPGSV,4,3,16,25,71,333,38,28,08,281,36,29,18,356,39,36,52,277,35*72
$GPGSV,4,4,16,40,86,351,36,41,58,082,,49,32,274,,50,10,089,*7C
$GLGSV,2,1,08,67,09,051,,68,40,093,30,69,37,161,29,73,26,317,25*65
$GLGSV,2,2,08,79,32,167,36,80,69,249,29,83,10,347,35,84,07,296,*6E
$GNGLL,0419.87134,S,05539.58828,E,065631.00,A,A*6D
$GNRMC,065632.00,A,0419.87134,S,05539.58827,E,0.011,,270525,,,A*7F
$GNVTG,,T,,M,0.011,N,0.021,K,A*3E
$GNGGA,065632.00,0419.87134,S,05539.58827,E,1,12,0.72,8.9,M,-47.6,M,,*7B
$GNGSA,A,3,25,12,23,15,18,05,24,29,10,28,,,1.29,0.72,1.07*1E
$GNGSA,A,3,80,68,69,79,83,,,,,,,,1.29,0.72,1.07*19
$GPGSV,4,1,16,05,28,030,23,10,15,214,21,12,69,124,30,13,12,095,*72
$GPGSV,4,2,16,15,43,122,21,18,29,304,32,23,57,220,25,24,27,167,34*7D
$GPGSV,4,3,16,25,71,333,37,28,08,281,36,29,18,356,39,36,52,277,35*7D
$GPGSV,4,4,16,40,86,351,37,41,58,082,,49,32,274,,50,10,089,*7D
$GLGSV,2,1,08,67,09,051,,68,40,093,30,69,37,161,29,73,26,317,25*65
$GLGSV,2,2,08,79,32,167,36,80,69,249,29,83,10,347,35,84,07,296,*6E
$GNGLL,0419.87134,S,05539.58827,E,065632.00,A,A*61
$GNRMC,065633.00,A,0419.87135,S,05539.58826,E,0.030,,270525,,,A*7D
$GNVTG,,T,,M,0.030,N,0.055,K,A*3E
$GNGGA,065633.00,0419.87135,S,05539.58826,E,1,12,0.72,8.8,M,-47.6,M,,*7B
$GNGSA,A,3,25,12,23,15,18,05,24,29,10,28,,,1.29,0.72,1.07*1E
$GNGSA,A,3,80,68,69,79,83,,,,,,,,1.29,0.72,1.07*19
$GPGSV,4,1,16,05,28,030,22,10,15,214,21,12,69,124,30,13,12,095,*73
$GPGSV,4,2,16,15,43,122,21,18,29,304,31,23,57,220,26,24,27,167,34*7D
$GPGSV,4,3,16,25,71,333,37,28,08,281,35,29,18,356,39,36,52,277,34*7F
$GPGSV,4,4,16,40,86,351,37,41,58,082,,49,32,274,,50,10,089,*7D
$GLGSV,2,1,08,67,09,051,,68,40,093,30,69,37,161,28,73,26,317,25*64
$GLGSV,2,2,08,79,32,167,36,80,69,249,29,83,10,347,35,84,07,296,*6E
$GNGLL,0419.87135,S,05539.58826,E,065633.00,A,A*60
$GNRMC,065634.00,A,0419.87134,S,05539.58825,E,0.011,,270525,,,A*7B
$GNVTG,,T,,M,0.011,N,0.020,K,A*3F
$GNGGA,065634.00,0419.87134,S,05539.58825,E,1,12,0.72,8.8,M,-47.6,M,,*7E
$GNGSA,A,3,25,12,23,15,18,05,24,29,10,28,,,1.29,0.72,1.07*1E
$GNGSA,A,3,80,68,69,79,83,,,,,,,,1.29,0.72,1.07*19
$GPGSV,4,1,16,05,28,030,19,10,15,214,19,12,69,124,29,13,12,095,*78
$GPGSV,4,2,16,15,43,122,22,18,29,305,31,23,57,220,26,24,27,167,34*7F
$GPGSV,4,3,16,25,71,333,37,28,08,281,36,29,18,356,39,36,52,277,35*7D
$GPGSV,4,4,16,40,86,351,37,41,58,082,,49,32,274,,50,10,089,*7D
$GLGSV,2,1,08,67,09,051,,68,40,093,30,69,37,161,30,73,26,317,26*6E
$GLGSV,2,2,08,79,32,167,36,80,69,249,29,83,10,347,35,84,07,296,*6E
$GNGLL,0419.87134,S,05539.58825,E,065634.00,A,A*65
$GNRMC,065635.00,A,0419.87134,S,05539.58823,E,0.012,,270525,,,A*7F
$GNVTG,,T,,M,0.012,N,0.023,K,A*3F
$GNGGA,065635.00,0419.87134,S,05539.58823,E,1,12,0.72,8.8,M,-47.6,M,,*79
$GNGSA,A,3,25,12,23,15,18,05,24,29,10,28,,,1.29,0.72,1.07*1E
$GNGSA,A,3,80,68,69,79,83,,,,,,,,1.29,0.72,1.07*19
$GPGSV,4,1,16,05,28,030,20,10,15,214,21,12,69,124,28,13,12,095,*78
$GPGSV,4,2,16,15,43,122,24,18,29,305,31,23,57,220,26,24,27,167,35*78
$GPGSV,4,3,16,25,71,333,38,28,08,281,36,29,18,356,39,36,52,277,34*73
$GPGSV,4,4,16,40,86,351,37,41,58,082,,49,32,274,,50,10,089,*7D
$GLGSV,2,1,08,67,09,051,,68,40,093,30,69,37,161,30,73,26,317,25*6D
$GLGSV,2,2,08,79,32,167,36,80,69,249,30,83,10,347,34,84,07,296,*67
$GNGLL,0419.87134,S,05539.58823,E,065635.00,A,A*62
$GNRMC,065636.00,A,0419.87134,S,05539.58822,E,0.020,,270525,,,A*7C
$GNVTG,,T,,M,0.020,N,0.037,K,A*3B
$GNGGA,065636.00,0419.87134,S,05539.58822,E,1,12,0.72,8.7,M,-47.6,M,,*74
$GNGSA,A,3,25,12,23,15,18,05,24,29,10,28,,,1.29,0.72,1.07*1E
$GNGSA,A,3,80,68,69,79,83,,,,,,,,1.29,0.72,1.07*19
$GPGSV,4,1,16,05,28,030,20,10,15,214,21,12,69,124,29,13,12,095,*79
$GPGSV,4,2,16,15,43,122,24,18,29,305,31,23,57,220,26,24,27,167,34*79
$GPGSV,4,3,16,25,71,333,38,28,08,281,35,29,18,356,39,36,52,277,34*70
$GPGSV,4,4,16,40,86,351,36,41,58,082,,49,32,274,,50,10,089,*7C
$GLGSV,2,1,08,67,09,051,,68,40,093,30,69,37,161,29,73,26,317,24*64
$GLGSV,2,2,08,79,32,167,36,80,69,249,29,83,10,347,34,84,07,296,*6F
$GNGLL,0419.87134,S,05539.58822,E,065636.00,A,A*60
$GNRMC,065637.00,A,0419.87134,S,05539.58818,E,0.027,,270525,,,A*73
$GNVTG,,T,,M,0.027,N,0.050,K,A*3D
$GNGGA,065637.00,0419.87134,S,05539.58818,E,1,12,0.72,8.7,M,-47.6,M,,*7C
$GNGSA,A,3,25,12,23,15,18,05,24,29,10,28,,,1.29,0.72,1.07*1E
$GNGSA,A,3,80,68,69,79,83,,,,,,,,1.29,0.72,1.07*19
$GPGSV,4,1,16,05,28,030,21,10,15,214,19,12,69,124,28,13,12,095,*72
$GPGSV,4,2,16,15,43,122,23,18,29,305,30,23,57,220,26,24,27,167,34*7F
$GPGSV,4,3,16,25,71,333,38,28,08,281,35,29,18,356,39,36,52,277,35*71
$GPGSV,4,4,16,40,86,351,37,41,58,082,,49,32,274,,50,10,089,*7D
$GLGSV,2,1,08,67,09,051,,68,40,093,30,69,37,161,29,73,26,317,24*64
$GLGSV,2,2,08,79,32,167,36,80,69,249,29,83,10,347,34,84,07,296,*6F
$GNGLL,0419.87134,S,05539.58818,E,065637.00,A,A*68
$GNRMC,065638.00,A,0419.87134,S,05539.58815,E,0.033,,270525,,,A*74
$GNVTG,,T,,M,0.033,N,0.062,K,A*39
$GNGGA,065638.00,0419.87134,S,05539.58815,E,1,12,0.72,8.7,M,-47.6,M,,*7E
$GNGSA,A,3,25,12,23,15,18,05,24,29,10,28,,,1.29,0.72,1.07*1E
$GNGSA,A,3,80,68,69,79,83,,,,,,,,1.29,0.72,1.07*19
$GPGSV,4,1,16,05,28,030,23,10,15,214,20,12,69,124,29,13,12,095,*7B
$GPGSV,4,2,16,15,43,122,26,18,29,305,30,23,57,220,26,24,27,167,34*7A
$GPGSV,4,3,16,25,71,333,38,28,08,281,35,29,18,356,39,36,52,277,35*71
$GPGSV,4,4,16,40,86,351,38,41,58,082,,49,32,274,,50,10,089,*72
$GLGSV,2,1,08,67,09,051,,68,40,093,30,69,37,161,29,73,26,317,25*65
$GLGSV,2,2,08,79,32,167,36,80,69,249,28,83,10,347,35,84,07,296,*6F
$GNGLL,0419.87134,S,05539.58815,E,065638.00,A,A*6A
$GNRMC,065639.00,A,0419.87134,S,05539.58813,E,0.023,,270525,,,A*72
$GNVTG,,T,,M,0.023,N,0.042,K,A*3A
$GNGGA,065639.00,0419.87134,S,05539.58813,E,1,12,0.72,8.7,M,-47.6,M,,*79
$GNGSA,A,3,25,12,23,15,18,05,24,29,10,28,,,1.29,0.72,1.07*1E
$GNGSA,A,3,80,68,69,79,83,,,,,,,,1.29,0.72,1.07*19
$GPGSV,4,1,16,05,28,030,25,10,15,214,19,12,69,124,29,13,12,095,*77
$GPGSV,4,2,16,15,43,122,23,18,29,305,30,23,57,220,26,24,27,167,34*7F
$GPGSV,4,3,16,25,71,333,38,28,08,281,35,29,18,356,39,36,52,277,35*71
$GPGSV,4,4,16,40,86,351,37,41,58,082,,49,32,274,,50,10,089,*7D
$GLGSV,2,1,08,67,09,051,,68,40,093,29,69,37,161,28,73,26,317,25*6C
$GLGSV,2,2,08,79,32,167,36,80,69,249,28,83,10,347,35,84,07,296,*6F
$GNGLL,0419.87134,S,05539.58813,E,065639.00,A,A*6D
$GNRMC,065640.00,A,0419.87133,S,05539.58811,E,0.008,,270525,,,A*70
$GNVTG,,T,,M,0.008,N,0.015,K,A*31
$GNGGA,065640.00,0419.87133,S,05539.58811,E,1,12,0.72,8.7,M,-47.6,M,,*72
$GNGSA,A,3,25,12,23,15,18,05,24,29,10,28,,,1.29,0.72,1.07*1E
$GNGSA,A,3,80,68,69,79,83,,,,,,,,1.29,0.72,1.07*19
$GPGSV,4,1,16,05,28,030,26,10,15,214,20,12,69,124,30,13,12,095,*76
$GPGSV,4,2,16,15,43,122,24,18,29,305,29,23,57,220,26,24,27,167,34*70
$GPGSV,4,3,16,25,72,332,38,28,08,281,36,29,18,356,39,36,52,277,35*70
$GPGSV,4,4,16,40,86,351,37,41,58,082,,49,32,274,,50,10,089,*7D
$GLGSV,2,1,08,67,09,051,,68,40,093,29,69,37,161,28,73,26,317,25*6C
$GLGSV,2,2,08,79,32,167,36,80,69,249,28,83,10,347,35,84,07,296,*6F
$GNGLL,0419.87133,S,05539.58811,E,065640.00,A,A*66
$GNRMC,065641.00,A,0419.87134,S,05539.58812,E,0.071,,270525,,,A*7B
$GNVTG,,T,,M,0.071,N,0.132,K,A*3B
$GNGGA,065641.00,0419.87134,S,05539.58812,E,1,12,0.72,8.6,M,-47.6,M,,*76
$GNGSA,A,3,25,12,23,15,18,05,24,29,10,28,,,1.29,0.72,1.07*1E
$GNGSA,A,3,80,68,69,79,83,,,,,,,,1.29,0.72,1.07*19
$GPGSV,4,1,16,05,28,030,26,10,15,214,21,12,69,124,28,13,12,095,*7E
$GPGSV,4,2,16,15,43,122,21,18,29,305,29,23,57,220,25,24,27,167,34*76
$GPGSV,4,3,16,25,72,332,37,28,08,281,35,29,18,356,39,36,52,277,36*7F
$GPGSV,4,4,16,40,86,351,37,41,58,082,,49,32,274,,50,10,089,*7D
$GLGSV,2,1,08,67,09,051,,68,40,093,29,69,37,161,28,73,26,317,26*6F
$GLGSV,2,2,08,79,32,167,35,80,69,249,28,83,10,347,35,84,07,296,*6C
$GNGLL,0419.87134,S,05539.58812,E,065641.00,A,A*63
$GNRMC,065642.00,A,0419.87134,S,05539.58814,E,0.031,,270525,,,A*7A
$GNVTG,,T,,M,0.031,N,0.058,K,A*32
$GNGGA,065642.00,0419.87134,S,05539.58814,E,1,12,0.72,8.5,M,-47.6,M,,*70
$GNGSA,A,3,25,12,23,15,18,05,24,29,10,28,,,1.29,0.72,1.07*1E
$GNGSA,A,3,80,68,69,79,83,,,,,,,,1.29,0.72,1.07*19
$GPGSV,4,1,16,05,28,030,25,10,15,214,21,12,69,124,30,13,12,095,*74
$GPGSV,4,2,16,15,43,122,23,18,29,305,29,23,57,220,24,24,27,167,34*75
$GPGSV,4,3,16,25,72,332,38,28,08,281,35,29,18,356,39,36,52,277,36*70
$GPGSV,4,4,16,40,86,351,37,41,58,082,,49,32,274,,50,10,089,*7D
$GLGSV,2,1,08,67,09,051,,68,40,093,29,69,37,161,29,73,26,317,26*6E
$GLGSV,2,2,08,79,32,167,35,80,69,249,28,83,10,347,35,84,07,296,*6C
$GNGLL,0419.87134,S,05539.58814,E,065642.00,A,A*66
$GNRMC,065643.00,A,0419.87134,S,05539.58814,E,0.019,,270525,,,A*71
$GNVTG,,T,,M,0.019,N,0.035,K,A*33
$GNGGA,065643.00,0419.87134,S,05539.58814,E,1,12,0.72,8.5,M,-47.6,M,,*71
$GNGSA,A,3,25,12,23,15,18,05,24,29,10,28,,,1.29,0.72,1.07*1E
$GNGSA,A,3,80,68,69,79,83,,,,,,,,1.29,0.72,1.07*19
$GPGSV,4,1,16,05,28,030,23,10,15,214,21,12,69,124,28,13,12,095,*7B
$GPGSV,4,2,16,15,43,122,22,18,29,305,29,23,57,220,26,24,27,167,34*76
$GPGSV,4,3,16,25,72,332,38,28,08,281,35,29,18,356,39,36,52,277,36*70
$GPGSV,4,4,16,40,86,351,37,41,58,082,,49,32,274,,50,10,089,*7D
$GLGSV,2,1,08,67,09,051,,68,40,093,29,69,37,161,29,73,26,317,26*6E
$GLGSV,2,2,08,79,32,167,35,80,69,249,27,83,10,347,35,84,07,296,*63
$GNGLL,0419.87134,S,05539.58814,E,065643.00,A,A*67
$GNRMC,065644.00,A,0419.87135,S,05539.58814,E,0.027,,270525,,,A*7A
$GNVTG,,T,,M,0.027,N,0.050,K,A*3D
$GNGGA,065644.00,0419.87135,S,05539.58814,E,1,12,0.72,8.5,M,-47.6,M,,*77
$GNGSA,A,3,25,12,23,15,18,05,24,29,10,28,,,1.29,0.72,1.07*1E
$GNGSA,A,3,80,68,69,79,83,,,,,,,,1.29,0.72,1.07*19
$GPGSV,4,1,16,05,28,030,23,10,15,214,21,12,69,124,29,13,12,095,*7A
$GPGSV,4,2,16,15,43,122,24,18,29,305,29,23,57,220,27,24,27,167,34*71
$GPGSV,4,3,16,25,72,332,38,28,08,281,36,29,19,356,39,36,52,277,36*72
$GPGSV,4,4,16,40,86,351,38,41,58,082,,49,32,274,,50,10,089,*72
$GLGSV,2,1,08,67,09,051,,68,40,093,30,69,37,161,30,73,26,317,26*6E
$GLGSV,2,2,08,79,32,167,36,80,69,249,27,83,10,347,35,84,07,296,*60
$GNGLL,0419.87135,S,05539.58814,E,065644.00,A,A*61
$GNRMC,065645.00,A,0419.87135,S,05539.58814,E,0.010,,270525,,,A*7F
$GNVTG,,T,,M,0.010,N,0.019,K,A*34
$GNGGA,065645.00,0419.87135,S,05539.58814,E,1,12,0.72,8.4,M,-47.6,M,,*77
$GNGSA,A,3,25,12,23,15,18,05,24,29,10,28,,,1.29,0.72,1.07*1E
$GNGSA,A,3,80,68,69,79,83,,,,,,,,1.29,0.72,1.07*19
$GPGSV,4,1,16,05,28,030,25,10,15,214,20,12,69,124,28,13,12,095,*7C
$GPGSV,4,2,16,15,43,122,23,18,29,305,30,23,57,220,27,24,27,167,34*7E
$GPGSV,4,3,16,25,72,332,38,28,08,281,36,29,19,356,39,36,52,277,35*71
$GPGSV,4,4,16,40,86,351,37,41,58,082,,49,32,274,,50,10,089,*7D
$GLGSV,2,1,08,67,09,051,,68,40,093,30,69,37,161,30,73,26,317,25*6D
$GLGSV,2,2,08,79,32,167,36,80,69,249,27,83,10,347,35,84,07,296,*60
$GNGLL,0419.87135,S,05539.58814,E,065645.00,A,A*60
$GNRMC,065646.00,A,0419.87134,S,05539.58812,E,0.015,,270525,,,A*7E
$GNVTG,,T,,M,0.015,N,0.028,K,A*33
$GNGGA,065646.00,0419.87134,S,05539.58812,E,1,12,0.72,8.4,M,-47.6,M,,*73
$GNGSA,A,3,25,12,23,15,18,05,24,29,10,28,,,1.29,0.72,1.07*1E
$GNGSA,A,3,80,68,69,79,83,,,,,,,,1.29,0.72,1.07*19
$GPGSV,4,1,16,05,28,030,25,10,15,214,21,12,69,124,28,13,12,095,*7D
$GPGSV,4,2,16,15,43,122,21,18,29,305,29,23,57,220,28,24,27,167,34*7B
$GPGSV,4,3,16,25,72,332,38,28,08,281,35,29,19,356,39,36,52,277,35*72
$GPGSV,4,4,16,40,86,351,37,41,58,082,,49,32,274,,50,10,089,*7D
$GLGSV,2,1,08,67,09,051,,68,40,093,30,69,37,161,30,73,26,317,26*6E
$GLGSV,2,2,08,79,32,167,36,80,69,249,27,83,10,347,35,84,07,296,*60
$GNGLL,0419.87134,S,05539.58812,E,065646.00,A,A*64
$GNRMC,065647.00,A,0419.87134,S,05539.58812,E,0.034,,270525,,,A*7C
$GNVTG,,T,,M,0.034,N,0.063,K,A*3F
$GNGGA,065647.00,0419.87134,S,05539.58812,E,1,12,0.72,8.4,M,-47.6,M,,*72
$GNGSA,A,3,25,12,23,15,18,05,24,29,10,28,,,1.29,0.72,1.07*1E
$GNGSA,A,3,80,68,69,79,83,,,,,,,,1.29,0.72,1.07*19
$GPGSV,4,1,16,05,28,030,26,10,15,214,21,12,69,124,28,13,12,095,*7E
$GPGSV,4,2,16,15,43,122,22,18,29,305,28,23,57,220,28,24,27,167,34*79
$GPGSV,4,3,16,25,72,332,40,28,08,281,35,29,19,356,39,36,52,277,36*7E
$GPGSV,4,4,16,40,86,351,37,41,58,082,,49,32,274,,50,10,089,*7D
$GLGSV,2,1,08,67,09,051,,68,40,093,29,69,37,161,29,73,26,317,25*6D
$GLGSV,2,2,08,79,32,167,36,80,69,249,27,83,10,347,36,84,07,296,*63
$GNGLL,0419.87134,S,05539.58812,E,065647.00,A,A*65
$GNRMC,065648.00,A,0419.87134,S,05539.58812,E,0.023,,270525,,,A*75
$GNVTG,,T,,M,0.023,N,0.042,K,A*3A
$GNGGA,065648.00,0419.87134,S,05539.58812,E,1,12,0.72,8.3,M,-47.6,M,,*7A
$GNGSA,A,3,25,12,23,15,18,05,24,29,10,28,,,1.29,0.72,1.07*1E
$GNGSA,A,3,80,68,69,79,83,,,,,,,,1.29,0.72,1.07*19
$GPGSV,4,1,16,05,28,030,26,10,15,214,22,12,69,124,29,13,12,095,*7C
$GPGSV,4,2,16,15,43,122,22,18,29,305,29,23,57,220,28,24,27,167,34*78
$GPGSV,4,3,16,25,72,332,38,28,08,281,36,29,19,356,39,36,52,277,36*72
$GPGSV,4,4,16,40,86,351,36,41,58,082,,49,32,274,,50,10,089,*7C
$GLGSV,2,1,08,67,09,051,,68,40,093,29,69,37,161,29,73,26,317,25*6D
$GLGSV,2,2,08,79,32,167,36,80,69,249,27,83,10,347,36,84,07,296,*63
$GNGLL,0419.87134,S,05539.58812,E,065648.00,A,A*6A
$GNRMC,065649.00,A,0419.87134,S,05539.58812,E,0.015,,270525,,,A*71
$GNVTG,,T,,M,0.015,N,0.028,K,A*33
$GNGGA,065649.00,0419.87134,S,05539.58812,E,1,12,0.72,8.4,M,-47.6,M,,*7C
$GNGSA,A,3,25,12,23,15,18,05,24,29,10,28,,,1.29,0.72,1.07*1E
$GNGSA,A,3,80,68,69,79,83,,,,,,,,1.29,0.72,1.07*19
$GPGSV,4,1,16,05,28,030,25,10,15,214,21,12,69,124,29,13,12,095,*7C
$GPGSV,4,2,16,15,43,122,25,18,29,305,29,23,57,220,26,24,27,167,34*71
$GPGSV,4,3,16,25,72,332,39,28,08,281,36,29,19,356,39,36,52,277,36*73
$GPGSV,4,4,16,40,86,351,37,41,58,082,,49,32,274,,50,10,089,*7D
$GLGSV,2,1,08,67,09,051,,68,40,093,30,69,37,161,28,73,26,317,26*67
$GLGSV,2,2,08,79,32,167,36,80,69,249,28,83,10,347,35,84,07,296,*6F
$GNGLL,0419.87134,S,05539.58812,E,065649.00,A,A*6B
$GNRMC,065650.00,A,0419.87132,S,05539.58813,E,0.023,,270525,,,A*7B
$GNVTG,,T,,M,0.023,N,0.042,K,A*3A
$GNGGA,065650.00,0419.87132,S,05539.58813,E,1,12,0.72,8.4,M,-47.6,M,,*73
$GNGSA,A,3,25,12,23,15,18,05,24,29,10,28,,,1.29,0.72,1.07*1E
$GNGSA,A,3,80,68,69,79,83,,,,,,,,1.29,0.72,1.07*19
$GPGSV,4,1,16,05,28,030,24,10,15,214,21,12,69,124,28,13,12,095,*7C
$GPGSV,4,2,16,15,43,122,25,18,29,305,31,23,57,220,26,24,27,167,34*78
$GPGSV,4,3,16,25,72,332,39,28,08,281,36,29,19,356,39,36,52,277,36*73
$GPGSV,4,4,16,40,86,351,37,41,58,082,,49,32,274,,50,10,089,*7D
$GLGSV,2,1,08,67,09,051,,68,40,093,29,69,37,161,28,73,26,317,26*6F
$GLGSV,2,2,08,79,32,167,35,80,69,249,28,83,10,347,35,84,07,296,*6C
$GNGLL,0419.87132,S,05539.58813,E,065650.00,A,A*64
$GNRMC,065651.00,A,0419.87131,S,05539.58811,E,0.047,,270525,,,A*79
$GNVTG,,T,,M,0.047,N,0.088,K,A*3E
$GNGGA,065651.00,0419.87131,S,05539.58811,E,1,12,0.72,8.4,M,-47.6,M,,*73
$GNGSA,A,3,25,12,23,15,18,05,24,29,10,28,,,1.29,0.72,1.07*1E
$GNGSA,A,3,80,68,69,79,83,,,,,,,,1.29,0.72,1.07*19
$GPGSV,4,1,16,05,28,030,23,10,15,214,19,12,69,124,28,13,12,095,*70
$GPGSV,4,2,16,15,43,122,24,18,29,305,29,23,57,220,26,24,27,167,33*77
$GPGSV,4,3,16,25,72,332,39,28,08,281,36,29,19,356,39,36,52,277,35*70
$GPGSV,4,4,16,40,86,351,37,41,58,082,,49,32,274,,50,10,089,*7D
$GLGSV,2,1,08,67,09,051,,68,40,093,29,69,37,161,27,73,26,317,26*60
$GLGSV,2,2,08,79,32,167,36,80,69,249,28,83,10,347,34,84,07,296,*6E
$GNGLL,0419.87131,S,05539.58811,E,065651.00,A,A*64
$GNRMC,065652.00,A,0419.87130,S,05539.58811,E,0.035,,270525,,,A*7E
$GNVTG,,T,,M,0.035,N,0.064,K,A*39
$GNGGA,065652.00,0419.87130,S,05539.58811,E,1,12,0.72,8.4,M,-47.6,M,,*71
$GNGSA,A,3,25,12,23,15,18,05,24,29,10,28,,,1.29,0.72,1.07*1E
$GNGSA,A,3,80,68,69,79,83,,,,,,,,1.29,0.72,1.07*19
$GPGSV,4,1,16,05,28,030,24,10,15,214,19,12,69,124,28,13,12,095,*77
$GPGSV,4,2,16,15,43,122,24,18,29,305,30,23,57,220,26,24,27,167,34*78
$GPGSV,4,3,16,25,72,332,38,28,08,281,36,29,19,356,39,36,52,277,34*70
$GPGSV,4,4,16,40,86,351,37,41,58,082,,49,32,274,,50,10,089,*7D
$GLGSV,2,1,08,67,09,051,,68,40,093,29,69,37,161,27,73,26,317,26*60
$GLGSV,2,2,08,79,32,167,36,80,69,249,28,83,10,347,35,84,07,296,*6F
$GNGLL,0419.87130,S,05539.58811,E,065652.00,A,A*66
$GNRMC,065653.00,A,0419.87129,S,05539.58812,E,0.019,,270525,,,A*7A
$GNVTG,,T,,M,0.019,N,0.035,K,A*33
$GNGGA,065653.00,0419.87129,S,05539.58812,E,1,12,0.72,8.3,M,-47.6,M,,*7C
$GNGSA,A,3,25,12,23,15,18,05,24,29,10,28,,,1.29,0.72,1.07*1E
$GNGSA,A,3,80,68,69,79,83,,,,,,,,1.29,0.72,1.07*19
$GPGSV,4,1,16,05,28,030,25,10,15,214,19,12,69,124,28,13,12,095,*76
$GPGSV,4,2,16,15,43,122,22,18,29,305,30,23,57,220,27,24,27,167,34*7F
$GPGSV,4,3,16,25,72,332,38,28,08,281,35,29,19,356,39,36,52,277,35*72
$GPGSV,4,4,16,40,86,351,37,41,58,082,,49,32,274,,50,10,089,*7D
$GLGSV,2,1,08,67,09,051,,68,40,093,28,69,37,161,27,73,26,317,26*61
$GLGSV,2,2,08,79,32,167,36,80,69,249,28,83,10,347,35,84,07,296,*6F
$GNGLL,0419.87129,S,05539.58812,E,065653.00,A,A*6C
$GNRMC,065654.00,A,0419.87127,S,05539.58813,E,0.051,,270525,,,A*7E
$GNVTG,,T,,M,0.051,N,0.094,K,A*34
$GNGGA,065654.00,0419.87127,S,05539.58813,E,1,12,0.72,8.4,M,-47.6,M,,*73
$GNGSA,A,3,25,12,23,15,18,05,24,29,10,28,,,1.29,0.72,1.07*1E
$GNGSA,A,3,80,68,69,79,83,,,,,,,,1.29,0.72,1.07*19
$GPGSV,4,1,16,05,28,030,25,10,15,214,17,12,69,124,28,13,12,095,*78
$GPGSV,4,2,16,15,43,122,24,18,29,305,30,23,57,220,28,24,27,167,34*76
$GPGSV,4,3,16,25,72,332,39,28,08,281,36,29,19,356,39,36,52,277,35*70
$GPGSV,4,4,16,40,86,351,37,41,58,082,,49,32,274,,50,10,089,*7D
$GLGSV,2,1,08,67,09,051,,68,40,093,28,69,37,161,27,73,26,317,26*61
$GLGSV,2,2,08,79,32,167,36,80,69,249,27,83,10,347,35,84,07,296,*60
$GNGLL,0419.87127,S,05539.58813,E,065654.00,A,A*64
$GNRMC,065655.00,A,0419.87127,S,05539.58813,E,0.019,,270525,,,A*73
$GNVTG,,T,,M,0.019,N,0.035,K,A*33
$GNGGA,065655.00,0419.87127,S,05539.58813,E,1,12,0.72,8.4,M,-47.6,M,,*72
$GNGSA,A,3,25,12,23,15,18,05,24,29,10,28,,,1.29,0.72,1.07*1E
$GNGSA,A,3,80,68,69,79,83,,,,,,,,1.29,0.72,1.07*19
$GPGSV,4,1,16,05,28,030,25,10,15,214,17,12,69,124,29,13,12,095,*79
$GPGSV,4,2,16,15,43,122,25,18,29,305,29,23,57,220,28,24,27,167,34*7F
$GPGSV,4,3,16,25,72,332,38,28,08,281,36,29,19,356,39,36,52,277,34*70
$GPGSV,4,4,16,40,86,351,37,41,58,082,,49,32,274,,50,10,089,*7D
$GLGSV,2,1,08,67,09,051,,68,40,093,29,69,37,161,27,73,26,317,25*63
$GLGSV,2,2,08,79,32,167,36,80,69,249,27,83,10,347,34,84,07,296,*61
$GNGLL,0419.87127,S,05539.58813,E,065655.00,A,A*65
$GNRMC,065656.00,A,0419.87126,S,05539.58813,E,0.019,,270525,,,A*71
$GNVTG,,T,,M,0.019,N,0.035,K,A*33
$GNGGA,065656.00,0419.87126,S,05539.58813,E,1,12,0.72,8.4,M,-47.6,M,,*70
$GNGSA,A,3,25,12,23,15,18,05,24,29,10,28,,,1.29,0.72,1.07*1E
$GNGSA,A,3,80,68,69,79,83,,,,,,,,1.29,0.72,1.07*19
$GPGSV,4,1,16,05,28,030,23,10,15,214,16,12,69,124,30,13,12,095,*76
$GPGSV,4,2,16,15,43,122,22,18,29,305,29,23,57,220,28,24,27,167,34*78
$GPGSV,4,3,16,25,72,332,38,28,08,281,35,29,19,356,39,36,52,277,35*72
$GPGSV,4,4,16,40,86,351,36,41,58,082,,49,32,274,,50,10,089,*7C
$GLGSV,2,1,08,67,09,051,,68,40,093,29,69,37,161,27,73,26,317,25*63
$GLGSV,2,2,08,79,32,167,36,80,69,249,26,83,10,347,35,84,07,296,*61
$GNGLL,0419.87126,S,05539.58813,E,065656.00,A,A*67
$GNRMC,065657.00,A,0419.87125,S,05539.58813,E,0.060,,270525,,,A*7D
$GNVTG,,T,,M,0.060,N,0.110,K,A*3B
$GNGGA,065657.00,0419.87125,S,05539.58813,E,1,12,0.72,8.4,M,-47.6,M,,*72
$GNGSA,A,3,25,12,23,15,18,05,24,29,10,28,,,1.29,0.72,1.07*1E
$GNGSA,A,3,80,68,69,79,83,,,,,,,,1.29,0.72,1.07*19
$GPGSV,4,1,16,05,28,030,22,10,15,214,18,12,69,124,28,13,12,095,*70
$GPGSV,4,2,16,15,43,122,23,18,29,305,29,23,57,220,27,24,27,167,34*76
$GPGSV,4,3,16,25,72,332,38,28,08,281,35,29,19,356,39,36,52,277,34*73
$GPGSV,4,4,16,40,86,351,37,41,58,082,,49,32,274,,50,10,089,*7D
$GLGSV,2,1,08,67,09,051,,68,40,093,29,69,37,161,27,73,26,317,26*60
$GLGSV,2,2,08,79,32,167,36,80,69,249,27,83,10,347,35,84,07,296,*60
$GNGLL,0419.87125,S,05539.58813,E,065657.00,A,A*65
$GNRMC,065658.00,A,0419.87125,S,05539.58811,E,0.018,,270525,,,A*7F
$GNVTG,,T,,M,0.018,N,0.034,K,A*33
$GNGGA,065658.00,0419.87125,S,05539.58811,E,1,12,0.72,8.4,M,-47.6,M,,*7F
$GNGSA,A,3,25,12,23,15,18,05,24,29,10,28,,,1.29,0.72,1.07*1E
$GNGSA,A,3,80,68,69,79,83,,,,,,,,1.29,0.72,1.07*19
$GPGSV,4,1,16,05,28,030,21,10,15,214,17,12,69,124,29,13,12,095,*7D
$GPGSV,4,2,16,15,43,122,23,18,29,305,29,23,57,220,27,24,27,167,34*76
$GPGSV,4,3,16,25,72,332,38,28,08,281,35,29,19,356,39,36,52,277,35*72
$GPGSV,4,4,16,40,86,351,37,41,58,082,,49,32,274,,50,10,089,*7D
$GLGSV,2,1,08,67,09,051,,68,40,093,28,69,37,161,26,73,26,317,27*61
$GLGSV,2,2,08,79,32,167,36,80,69,249,27,83,10,347,35,84,07,296,*60
$GNGLL,0419.87125,S,05539.58811,E,065658.00,A,A*68
$GNRMC,065659.00,A,0419.87125,S,05539.58810,E,0.009,,270525,,,A*7F
$GNVTG,,T,,M,0.009,N,0.016,K,A*33
$GNGGA,065659.00,0419.87125,S,05539.58810,E,1,12,0.72,8.4,M,-47.6,M,,*7F
$GNGSA,A,3,25,12,23,15,18,05,24,29,10,28,,,1.29,0.72,1.07*1E
$GNGSA,A,3,80,68,69,79,83,,,,,,,,1.29,0.72,1.07*19
$GPGSV,4,1,16,05,28,030,21,10,15,214,18,12,69,124,30,13,12,095,*7A
$GPGSV,4,2,16,15,43,122,22,18,29,305,30,23,57,220,27,24,27,167,33*78
$GPGSV,4,3,16,25,72,332,38,28,08,281,35,29,19,356,39,36,52,277,35*72
$GPGSV,4,4,16,40,86,351,37,41,58,082,,49,32,274,,50,10,089,*7D
$GLGSV,2,1,08,67,09,051,,68,40,093,29,69,37,161,25,73,26,317,26*62
$GLGSV,2,2,08,79,32,167,36,80,69,249,28,83,10,347,35,84,07,296,*6F
$GNGLL,0419.87125,S,05539.58810,E,065659.00,A,A*68
$GNRMC,065700.00,A,0419.87124,S,05539.58811,E,0.098,,270525,,,A*7A
$GNVTG,,T,,M,0.098,N,0.182,K,A*37
$GNGGA,065700.00,0419.87124,S,05539.58811,E,1,12,0.72,8.5,M,-47.6,M,,*73
$GNGSA,A,3,25,12,23,15,18,05,24,29,10,28,,,1.29,0.72,1.07*1E
$GNGSA,A,3,80,68,69,79,83,,,,,,,,1.29,0.72,1.07*19
$GPGSV,4,1,16,05,28,030,20,10,15,214,18,12,69,124,30,13,12,095,*7B
$GPGSV,4,2,16,15,43,122,25,18,29,305,31,23,57,220,26,24,27,167,34*78
$GPGSV,4,3,16,25,72,332,38,28,08,281,35,29,19,356,39,36,52,277,35*72
$GPGSV,4,4,16,40,86,351,37,41,58,082,,49,32,274,,50,10,089,*7D
$GLGSV,2,1,08,67,09,051,,68,40,093,29,69,37,161,25,73,26,317,26*62
$GLGSV,2,2,08,79,32,167,36,80,69,249,27,83,10,347,35,84,07,296,*60
$GNGLL,0419.87124,S,05539.58811,E,065700.00,A,A*65
$GNRMC,065701.00,A,0419.87123,S,05539.58811,E,0.007,,270525,,,A*7A
$GNVTG,,T,,M,0.007,N,0.014,K,A*3F
$GNGGA,065701.00,0419.87123,S,05539.58811,E,1,12,0.72,8.5,M,-47.6,M,,*75
$GNGSA,A,3,25,12,23,15,18,05,24,29,10,28,,,1.29,0.72,1.07*1E
$GNGSA,A,3,80,68,69,79,83,,,,,,,,1.29,0.72,1.07*19
$GPGSV,4,1,16,05,28,030,21,10,15,214,19,12,69,124,30,13,12,095,*7B
$GPGSV,4,2,16,15,43,122,26,18,29,305,30,23,57,220,27,24,27,167,34*7B
$GPGSV,4,3,16,25,72,332,38,28,08,281,35,29,19,356,39,36,52,277,36*71
$GPGSV,4,4,16,40,86,351,37,41,58,082,,49,32,274,,50,10,089,*7D
$GLGSV,2,1,08,67,09,051,,68,40,093,29,69,37,161,26,73,26,317,25*62
$GLGSV,2,2,08,79,32,167,36,80,69,249,27,83,10,347,35,84,07,296,*60
$GNGLL,0419.87123,S,05539.58811,E,065701.00,A,A*63
$GNRMC,065702.00,A,0419.87122,S,05539.58809,E,0.053,,270525,,,A*70
$GNVTG,,T,,M,0.053,N,0.099,K,A*3B
$GNGGA,065702.00,0419.87122,S,05539.58809,E,1,12,0.72,8.5,M,-47.6,M,,*7E
$GNGSA,A,3,25,12,23,15,18,05,24,29,10,28,,,1.29,0.72,1.07*1E
$GNGSA,A,3,80,68,69,79,83,,,,,,,,1.29,0.72,1.07*19
$GPGSV,4,1,16,05,28,030,20,10,15,214,19,12,69,124,30,13,12,095,*7A
$GPGSV,4,2,16,15,43,122,26,18,29,305,30,23,57,220,26,24,27,167,34*7A
$GPGSV,4,3,16,25,72,332,38,28,08,281,35,29,19,356,39,36,52,277,36*71
$GPGSV,4,4,16,40,86,351,37,41,58,082,,49,32,274,,50,10,089,*7D
$GLGSV,2,1,08,67,09,051,,68,40,093,29,69,37,161,27,73,26,317,25*63
$GLGSV,2,2,08,79,32,167,36,80,69,249,27,83,10,347,35,84,07,296,*60
$GNGLL,0419.87122,S,05539.58809,E,065702.00,A,A*68
$GNRMC,065703.00,A,0419.87122,S,05539.58806,E,0.029,,270525,,,A*73
$GNVTG,,T,,M,0.029,N,0.054,K,A*37
$GNGGA,065703.00,0419.87122,S,05539.58806,E,1,12,0.72,8.5,M,-47.6,M,,*70
$GNGSA,A,3,25,12,23,15,18,05,24,29,10,28,,,1.29,0.72,1.07*1E
$GNGSA,A,3,80,68,69,79,83,,,,,,,,1.29,0.72,1.07*19
$GPGSV,4,1,16,05,28,030,20,10,15,214,18,12,69,124,30,13,12,095,*7B
$GPGSV,4,2,16,15,43,122,27,18,29,305,30,23,57,220,26,24,27,167,34*7B
$GPGSV,4,3,16,25,72,332,38,28,08,281,36,29,19,356,38,36,52,277,36*73
$GPGSV,4,4,16,40,86,351,36,41,58,082,,49,32,274,,50,10,089,*7C
$GLGSV,2,1,08,67,09,051,,68,40,093,29,69,37,161,27,73,26,317,25*63
$GLGSV,2,2,08,79,32,167,36,80,69,249,26,83,10,347,35,84,07,296,*61
$GNGLL,0419.87122,S,05539.58806,E,065703.00,A,A*66
$GNRMC,065704.00,A,0419.87121,S,05539.58805,E,0.017,,270525,,,A*79
$GNVTG,,T,,M,0.017,N,0.031,K,A*39
$GNGGA,065704.00,0419.87121,S,05539.58805,E,1,12,0.72,8.5,M,-47.6,M,,*77
$GNGSA,A,3,25,12,23,15,18,05,24,29,10,28,,,1.29,0.72,1.07*1E
$GNGSA,A,3,80,68,69,79,83,,,,,,,,1.29,0.72,1.07*19
$GPGSV,4,1,16,05,28,030,21,10,15,214,18,12,69,124,30,13,12,095,*7A
$GPGSV,4,2,16,15,43,122,26,18,29,305,29,23,57,220,27,24,27,167,34*73
$GPGSV,4,3,16,25,72,332,38,28,08,281,35,29,19,356,39,36,52,277,35*72
$GPGSV,4,4,16,40,86,351,37,41,58,082,,49,32,274,,50,10,089,*7D
$GLGSV,2,1,08,67,09,051,,68,40,093,28,69,37,161,26,73,26,317,25*63
$GLGSV,2,2,08,79,32,167,36,80,69,249,27,83,10,347,35,84,07,296,*60
$GNGLL,0419.87121,S,05539.58805,E,065704.00,A,A*61
$GNRMC,065705.00,A,0419.87121,S,05539.58803,E,0.023,,270525,,,A*79
$GNVTG,,T,,M,0.023,N,0.042,K,A*3A
$GNGGA,065705.00,0419.87121,S,05539.58803,E,1,12,0.72,8.5,M,-47.6,M,,*70
$GNGSA,A,3,25,12,23,15,18,05,24,29,10,28,,,1.29,0.72,1.07*1E
$GNGSA,A,3,80,68,69,79,83,,,,,,,,1.29,0.72,1.07*19
$GPGSV,4,1,16,05,28,030,20,10,15,214,16,12,69,124,30,13,12,095,*75
$GPGSV,4,2,16,15,43,122,26,18,29,305,29,23,57,220,26,24,27,167,34*72
$GPGSV,4,3,16,25,72,332,38,28,08,281,35,29,19,356,38,36,52,277,35*73
$GPGSV,4,4,16,40,86,351,37,41,58,082,,49,32,274,,50,10,089,*7D
$GLGSV,2,1,08,67,09,051,,68,40,093,29,69,37,161,25,73,26,317,25*61
$GLGSV,2,2,08,79,32,167,36,80,69,249,26,83,10,347,35,84,07,296,*61
$GNGLL,0419.87121,S,05539.58803,E,065705.00,A,A*66
$GNRMC,065706.00,A,0419.87120,S,05539.58804,E,0.039,,270525,,,A*77
$GNVTG,,T,,M,0.039,N,0.072,K,A*32
$GNGGA,065706.00,0419.87120,S,05539.58804,E,1,12,0.72,8.5,M,-47.6,M,,*75
$GNGSA,A,3,25,12,23,15,18,05,24,29,10,28,,,1.29,0.72,1.07*1E
$GNGSA,A,3,80,68,69,79,83,,,,,,,,1.29,0.72,1.07*19
$GPGSV,4,1,16,05,28,030,20,10,15,214,17,12,69,124,29,13,12,095,*7C
$GPGSV,4,2,16,15,43,122,26,18,29,305,29,23,57,220,26,24,27,167,34*72
$GPGSV,4,3,16,25,72,332,38,28,08,281,35,29,19,356,39,36,52,277,35*72
$GPGSV,4,4,16,40,86,351,38,41,58,082,,49,32,274,,50,10,089,*72
$GLGSV,2,1,08,67,09,051,,68,40,093,28,69,37,161,25,73,26,317,24*61
$GLGSV,2,2,08,79,32,167,36,80,69,249,27,83,10,347,35,84,07,296,*60
$GNGLL,0419.87120,S,05539.58804,E,065706.00,A,A*63
$GNRMC,065707.00,A,0419.87119,S,05539.58803,E,0.011,,270525,,,A*71
$GNVTG,,T,,M,0.011,N,0.020,K,A*3F
$GNGGA,065707.00,0419.87119,S,05539.58803,E,1,12,0.72,8.5,M,-47.6,M,,*79
$GNGSA,A,3,25,12,23,15,18,05,24,29,10,28,,,1.29,0.72,1.07*1E
$GNGSA,A,3,80,68,69,79,83,,,,,,,,1.29,0.72,1.07*19
$GPGSV,4,1,16,05,28,030,20,10,15,214,17,12,69,124,30,13,12,095,*74
$GPGSV,4,2,16,15,43,122,26,18,29,305,28,23,57,220,24,24,27,167,34*71
$GPGSV,4,3,16,25,72,332,38,28,08,281,36,29,19,356,39,36,52,277,34*70
$GPGSV,4,4,16,40,86,351,37,41,58,082,,49,32,274,,50,10,089,*7D
$GLGSV,2,1,08,67,09,051,,68,40,093,29,69,37,161,24,73,26,317,22*67
$GLGSV,2,2,08,79,32,167,36,80,69,249,27,83,10,347,35,84,07,296,*60
$GNGLL,0419.87119,S,05539.58803,E,065707.00,A,A*6F
$GNRMC,065708.00,A,0419.87118,S,05539.58804,E,0.045,,270525,,,A*79
$GNVTG,,T,,M,0.045,N,0.083,K,A*37
$GNGGA,065708.00,0419.87118,S,05539.58804,E,1,12,0.72,8.5,M,-47.6,M,,*70
$GNGSA,A,3,25,12,23,15,18,05,24,29,10,28,,,1.29,0.72,1.07*1E
$GNGSA,A,3,80,68,69,79,83,,,,,,,,1.29,0.72,1.07*19
$GPGSV,4,1,16,05,28,030,22,10,15,214,18,12,69,124,30,13,12,095,*79
$GPGSV,4,2,16,15,43,122,27,18,29,305,27,23,57,220,24,24,27,167,34*7F
$GPGSV,4,3,16,25,72,332,37,28,08,281,35,29,19,356,39,36,52,277,35*7D
$GPGSV,4,4,16,40,86,351,37,41,58,082,,49,32,274,,50,10,089,*7D
$GLGSV,2,1,08,67,09,051,,68,40,093,28,69,37,161,23,73,26,317,21*62
$GLGSV,2,2,08,79,32,167,36,80,69,249,27,83,10,347,35,84,07,296,*60
$GNGLL,0419.87118,S,05539.58804,E,065708.00,A,A*66
$GNRMC,065709.00,A,0419.87118,S,05539.58804,E,0.009,,270525,,,A*70
$GNVTG,,T,,M,0.009,N,0.016,K,A*33
$GNGGA,065709.00,0419.87118,S,05539.58804,E,1,12,0.72,8.6,M,-47.6,M,,*72
$GNGSA,A,3,25,12,23,15,18,05,24,29,10,28,,,1.29,0.72,1.07*1E
$GNGSA,A,3,80,68,69,79,83,,,,,,,,1.29,0.72,1.07*19
$GPGSV,4,1,16,05,28,030,22,10,15,214,16,12,69,124,31,13,12,095,*76
$GPGSV,4,2,16,15,43,122,26,18,29,305,26,23,57,220,25,24,27,167,34*7E
$GPGSV,4,3,16,25,72,332,38,28,08,281,36,29,19,356,39,36,52,277,35*71
$GPGSV,4,4,16,40,86,351,36,41,58,082,,49,32,274,,50,10,089,*7C
$GLGSV,2,1,08,67,09,051,,68,40,093,29,69,37,161,25,73,26,317,21*65
