$GNRMC,070013.00,A,0419.87761,S,05539.58763,E,0.109,,270525,,,A*7F
$GNVTG,,T,,M,0.109,N,0.201,K,A*36
$GNGGA,070013.00,0419.87761,S,05539.58763,E,1,12,0.82,11.7,M,-47.6,M,,*4A
$GNGSA,A,3,25,12,23,15,18,24,29,10,28,,,,1.43,0.82,1.17*19
$GNGSA,A,3,80,68,69,79,83,,,,,,,,1.43,0.82,1.17*1B
$GPGSV,4,1,16,05,27,030,16,10,17,215,33,12,67,128,32,13,12,094,*7A
$GPGSV,4,2,16,15,43,120,29,18,28,306,29,23,59,222,29,24,26,166,27*7C
$GPGSV,4,3,16,25,73,330,33,28,08,280,19,29,19,357,20,36,52,277,*7A
$GPGSV,4,4,16,40,86,351,32,41,58,082,,49,32,274,,50,10,089,*78
$GLGSV,2,1,08,67,08,050,,68,40,090,28,69,39,160,33,73,27,315,23*6E
$GLGSV,2,2,08,79,30,167,31,80,68,243,31,83,09,348,08,84,06,298,*6F
$GNGLL,0419.87761,S,05539.58763,E,070013.00,A,A*69
$GNRMC,070014.00,A,0419.87764,S,05539.58763,E,0.102,,270525,,,A*76
$GNVTG,,T,,M,0.102,N,0.189,K,A*3E
$GNGGA,070014.00,0419.87764,S,05539.58763,E,1,12,0.74,11.9,M,-47.6,M,,*4F
$GNGSA,A,3,25,12,23,15,18,05,24,29,10,28,,,1.35,0.74,1.13*10
$GNGSA,A,3,80,68,69,79,83,,,,,,,,1.35,0.74,1.13*17
$GPGSV,4,1,16,05,27,030,16,10,17,215,35,12,67,128,38,13,12,093,*71
$GPGSV,4,2,16,15,43,120,33,18,28,306,27,23,59,222,31,24,26,166,25*72
$GPGSV,4,3,16,25,73,330,34,28,08,280,18,29,19,357,17,36,52,277,*78
$GPGSV,4,4,16,40,86,351,38,41,58,082,,49,32,274,,50,10,089,*72
$GLGSV,2,1,08,67,08,050,,68,40,090,26,69,39,160,32,73,27,315,21*63
$GLGSV,2,2,08,79,30,167,31,80,68,243,31,83,09,348,09,84,06,298,*6E
$GNGLL,0419.87764,S,05539.58763,E,070014.00,A,A*6B
$GNRMC,070015.00,A,0419.87770,S,05539.58761,E,0.069,,270525,,,A*7C
$GNVTG,,T,,M,0.069,N,0.128,K,A*39
$GNGGA,070015.00,0419.87770,S,05539.58761,E,1,12,0.72,12.0,M,-47.6,M,,*45
$GNGSA,A,3,25,12,23,15,18,05,24,29,10,28,,,1.29,0.72,1.07*1E
$GNGSA,A,3,80,68,69,79,83,,,,,,,,1.29,0.72,1.07*19
$GPGSV,4,1,16,05,27,030,19,10,17,215,34,12,67,128,37,13,12,093,*70
$GPGSV,4,2,16,15,43,120,34,18,28,306,26,23,59,222,32,24,26,166,27*75
$GPGSV,4,3,16,25,73,330,36,28,08,280,16,29,19,357,18,36,52,277,*7B
$GPGSV,4,4,16,40,86,351,35,41,58,082,,49,32,274,,50,10,089,*7F
$GLGSV,2,1,08,67,08,050,,68,40,090,27,69,39,160,36,73,27,315,19*6D
$GLGSV,2,2,08,79,30,167,35,80,68,243,35,83,09,348,12,84,06,298,*64
$GNGLL,0419.87770,S,05539.58761,E,070015.00,A,A*6D
$GNRMC,070016.00,A,0419.87772,S,05539.58758,E,0.110,,270525,,,A*78
$GNVTG,,T,,M,0.110,N,0.203,K,A*3C
$GNGGA,070016.00,0419.87772,S,05539.58758,E,1,12,0.74,12.1,M,-47.6,M,,*49
$GNGSA,A,3,25,12,23,15,18,05,24,29,10,28,,,1.35,0.74,1.13*10
$GNGSA,A,3,80,68,69,79,83,,,,,,,,1.35,0.74,1.13*17
$GPGSV,4,1,16,05,27,030,20,10,17,215,34,12,67,128,37,13,12,093,*7A
$GPGSV,4,2,16,15,43,119,31,18,28,306,26,23,59,222,27,24,26,166,26*7F
$GPGSV,4,3,16,25,73,330,35,28,08,280,16,29,19,357,19,36,52,277,*79
$GPGSV,4,4,16,40,86,351,32,41,58,082,,49,32,274,,50,10,089,*78
$GLGSV,2,1,08,67,08,050,,68,40,090,27,69,39,160,33,73,27,315,20*62
$GLGSV,2,2,08,79,30,167,33,80,68,243,30,83,09,348,09,84,06,298,*6D
$GNGLL,0419.87772,S,05539.58758,E,070016.00,A,A*66
$GNRMC,070017.00,A,0419.87776,S,05539.58756,E,0.082,,270525,,,A*79
$GNVTG,,T,,M,0.082,N,0.152,K,A*31
$GNGGA,070017.00,0419.87776,S,05539.58756,E,1,12,0.74,12.2,M,-47.6,M,,*41
$GNGSA,A,3,25,12,23,15,18,05,24,29,10,28,,,1.35,0.74,1.13*10
$GNGSA,A,3,80,68,69,79,83,,,,,,,,1.35,0.74,1.13*17
$GPGSV,4,1,16,05,27,030,20,10,17,215,34,12,67,128,37,13,12,093,*7A
$GPGSV,4,2,16,15,43,119,32,18,28,306,25,23,59,222,29,24,26,166,25*72
$GPGSV,4,3,16,25,73,330,33,28,08,280,15,29,19,357,19,36,52,277,*7C
$GPGSV,4,4,16,40,86,351,35,41,58,082,,49,32,274,,50,10,089,*7F
$GLGSV,2,1,08,67,08,050,,68,40,090,26,69,39,160,32,73,27,315,20*62
$GLGSV,2,2,08,79,30,167,33,80,68,243,34,83,09,348,14,84,06,298,*65
$GNGLL,0419.87776,S,05539.58756,E,070017.00,A,A*6D
$GNRMC,070018.00,A,0419.87780,S,05539.58755,E,0.059,,270525,,,A*7A
$GNVTG,,T,,M,0.059,N,0.109,K,A*39
$GNGGA,070018.00,0419.87780,S,05539.58755,E,1,12,0.74,12.3,M,-47.6,M,,*45
$GNGSA,A,3,25,12,23,15,18,05,24,29,10,28,,,1.35,0.74,1.13*10
$GNGSA,A,3,80,68,69,79,83,,,,,,,,1.35,0.74,1.13*17
$GPGSV,4,1,16,05,27,030,22,10,17,215,33,12,67,128,37,13,12,093,*7F
$GPGSV,4,2,16,15,43,119,33,18,28,306,26,23,59,222,30,24,26,166,26*7B
$GPGSV,4,3,16,25,73,330,33,28,08,280,15,29,19,357,19,36,52,277,*7C
$GPGSV,4,4,16,40,86,351,35,41,58,082,,49,32,274,,50,10,089,*7F
$GLGSV,2,1,08,67,08,050,,68,40,090,27,69,39,160,35,73,27,315,20*64
$GLGSV,2,2,08,79,30,167,34,80,68,243,35,83,09,348,13,84,06,298,*64
$GNGLL,0419.87780,S,05539.58755,E,070018.00,A,A*68
$GNRMC,070019.00,A,0419.87787,S,05539.58752,E,0.130,,270525,,,A*75
$GNVTG,,T,,M,0.130,N,0.240,K,A*39
$GNGGA,070019.00,0419.87787,S,05539.58752,E,1,12,0.74,12.4,M,-47.6,M,,*43
$GNGSA,A,3,25,12,23,15,18,05,24,29,10,28,,,1.35,0.74,1.13*10
$GNGSA,A,3,80,68,69,79,83,,,,,,,,1.35,0.74,1.13*17
$GPGSV,4,1,16,05,27,030,23,10,17,215,34,12,67,128,37,13,12,093,*79
$GPGSV,4,2,16,15,43,119,33,18,28,307,26,23,59,222,27,24,26,166,32*79
$GPGSV,4,3,16,25,73,330,37,28,08,280,17,29,19,357,18,36,52,277,*7B
$GPGSV,4,4,16,40,86,351,37,41,58,082,,49,32,274,,50,10,089,*7D
$GLGSV,2,1,08,67,08,050,,68,40,090,27,69,39,160,35,73,27,315,20*64
$GLGSV,2,2,08,79,30,167,37,80,68,243,34,83,09,348,10,84,06,298,*65
$GNGLL,0419.87787,S,05539.58752,E,070019.00,A,A*69
$GNRMC,070020.00,A,0419.87797,S,05539.58749,E,0.382,,270525,,,A*7F
$GNVTG,,T,,M,0.382,N,0.707,K,A*34
$GNGGA,070020.00,0419.87797,S,05539.58749,E,1,12,0.74,12.6,M,-47.6,M,,*40
$GNGSA,A,3,25,12,23,15,18,05,24,29,10,28,,,1.35,0.74,1.13*10
$GNGSA,A,3,80,68,69,79,83,,,,,,,,1.35,0.74,1.13*17
$GPGSV,4,1,16,05,27,030,23,10,17,215,29,12,67,128,24,13,12,093,*77
$GPGSV,4,2,16,15,43,119,34,18,28,307,24,23,59,222,40,24,26,166,32*7D
$GPGSV,4,3,16,25,73,330,36,28,08,280,17,29,19,357,18,36,52,277,*7A
$GPGSV,4,4,16,40,86,351,37,41,58,082,,49,32,274,,50,10,089,*7D
$GLGSV,2,1,08,67,08,050,,68,40,090,27,69,39,160,33,73,27,315,19*68
$GLGSV,2,2,08,79,30,167,37,80,68,243,34,83,09,348,09,84,06,298,*6D
$GNGLL,0419.87797,S,05539.58749,E,070020.00,A,A*68
$GNRMC,070021.00,A,0419.87800,S,05539.58755,E,0.193,,270525,,,A*70
$GNVTG,,T,,M,0.193,N,0.357,K,A*37
$GNGGA,070021.00,0419.87800,S,05539.58755,E,1,12,0.74,12.8,M,-47.6,M,,*43
$GNGSA,A,3,25,12,23,15,18,05,24,29,10,28,,,1.35,0.74,1.13*10
$GNGSA,A,3,80,68,69,79,83,,,,,,,,1.35,0.74,1.13*17
$GPGSV,4,1,16,05,27,030,21,10,17,215,20,12,67,128,24,13,12,093,*7C
$GPGSV,4,2,16,15,43,119,33,18,28,307,22,23,59,222,37,24,26,166,27*78
$GPGSV,4,3,16,25,73,330,35,28,08,280,17,29,19,357,19,36,52,277,*78
$GPGSV,4,4,16,40,86,351,31,41,58,082,,49,32,274,,50,10,089,*7B
$GLGSV,2,1,08,67,08,050,,68,40,090,18,69,39,160,28,73,27,315,21*65
$GLGSV,2,2,08,79,30,167,31,80,68,243,30,83,09,348,10,84,06,298,*67
$GNGLL,0419.87800,S,05539.58755,E,070021.00,A,A*65
$GNRMC,070022.00,A,0419.87800,S,05539.58755,E,0.064,,270525,,,A*7A
$GNVTG,,T,,M,0.064,N,0.118,K,A*37
$GNGGA,070022.00,0419.87800,S,05539.58755,E,1,12,0.80,12.8,M,-47.6,M,,*4B
$GNGSA,A,3,25,12,23,15,18,05,24,29,10,28,,,1.39,0.80,1.14*10
$GNGSA,A,3,80,68,69,79,83,,,,,,,,1.39,0.80,1.14*17
$GPGSV,4,1,16,05,27,030,22,10,17,215,30,12,67,128,34,13,12,093,*7F
$GPGSV,4,2,16,15,43,119,36,18,28,307,22,23,59,222,36,24,26,166,27*7C
$GPGSV,4,3,16,25,73,330,37,28,08,280,18,29,19,357,21,36,52,277,*7E
$GPGSV,4,4,16,40,86,351,38,41,58,082,,49,32,274,,50,10,089,*72
$GLGSV,2,1,08,67,08,050,,68,40,090,30,69,39,160,32,73,27,315,20*65
$GLGSV,2,2,08,79,30,167,35,80,68,243,35,83,09,348,10,84,06,298,*66
$GNGLL,0419.87800,S,05539.58755,E,070022.00,A,A*66
$GNRMC,070023.00,A,0419.87808,S,05539.58749,E,0.037,,270525,,,A*78
$GNVTG,,T,,M,0.037,N,0.068,K,A*37
$GNGGA,070023.00,0419.87808,S,05539.58749,E,1,12,0.74,13.0,M,-47.6,M,,*4D
$GNGSA,A,3,25,12,23,15,18,05,24,29,10,28,,,1.35,0.74,1.13*10
$GNGSA,A,3,80,68,69,79,83,,,,,,,,1.35,0.74,1.13*17
$GPGSV,4,1,16,05,27,030,23,10,17,215,31,12,67,128,33,13,12,093,*78
$GPGSV,4,2,16,15,43,119,36,18,28,307,23,23,59,222,36,24,26,166,28*72
$GPGSV,4,3,16,25,73,330,37,28,08,280,18,29,19,357,21,36,52,277,*7E
$GPGSV,4,4,16,40,86,351,38,41,58,082,,49,32,274,,50,10,089,*72
$GLGSV,2,1,08,67,08,050,,68,40,090,30,69,39,160,28,73,27,315,23*6D
$GLGSV,2,2,08,79,30,167,37,80,68,243,36,83,09,348,11,84,06,298,*66
$GNGLL,0419.87808,S,05539.58749,E,070023.00,A,A*62
$GNRMC,070024.00,A,0419.87812,S,05539.58744,E,0.054,,270525,,,A*7C
$GNVTG,,T,,M,0.054,N,0.101,K,A*3C
$GNGGA,070024.00,0419.87812,S,05539.58744,E,1,12,0.74,13.1,M,-47.6,M,,*4D
$GNGSA,A,3,25,12,23,15,18,05,24,29,10,28,,,1.35,0.74,1.13*10
$GNGSA,A,3,80,68,69,79,83,,,,,,,,1.35,0.74,1.13*17
$GPGSV,4,1,16,05,27,030,24,10,17,215,32,12,67,128,33,13,12,093,*7C
$GPGSV,4,2,16,15,43,119,37,18,28,307,21,23,59,222,36,24,26,165,28*72
$GPGSV,4,3,16,25,73,330,33,28,08,280,17,29,19,357,20,36,52,277,*74
$GPGSV,4,4,16,40,86,351,35,41,58,082,,49,32,274,,50,10,089,*7F
$GLGSV,2,1,08,67,08,050,,68,40,090,29,69,39,160,30,73,27,315,23*6C
$GLGSV,2,2,08,79,30,167,33,80,68,243,35,83,09,348,11,84,06,298,*61
$GNGLL,0419.87812,S,05539.58744,E,070024.00,A,A*63
$GNRMC,070025.00,A,0419.87811,S,05539.58737,E,0.170,,270525,,,A*7D
$GNVTG,,T,,M,0.170,N,0.315,K,A*3C
$GNGGA,070025.00,0419.87811,S,05539.58737,E,1,12,0.74,13.1,M,-47.6,M,,*4B
$GNGSA,A,3,25,12,23,15,18,05,24,29,10,28,,,1.35,0.74,1.13*10
$GNGSA,A,3,80,68,69,79,83,,,,,,,,1.35,0.74,1.13*17
$GPGSV,4,1,16,05,27,030,21,10,17,215,31,12,67,128,30,13,12,093,*79
$GPGSV,4,2,16,15,43,119,34,18,28,307,19,23,59,222,35,24,26,165,26*77
$GPGSV,4,3,16,25,74,329,33,28,08,280,17,29,19,357,19,36,52,277,*71
$GPGSV,4,4,16,40,86,351,35,41,58,082,,49,32,274,,50,10,089,*7F
$GLGSV,2,1,08,67,08,050,,68,40,090,30,69,39,160,23,73,27,315,23*66
$GLGSV,2,2,08,79,30,167,33,80,68,243,33,83,09,348,10,84,06,298,*66
$GNGLL,0419.87811,S,05539.58737,E,070025.00,A,A*65
$GNRMC,070026.00,A,0419.87817,S,05539.58733,E,0.101,,270525,,,A*7A
$GNVTG,,T,,M,0.101,N,0.188,K,A*3C
$GNGGA,070026.00,0419.87817,S,05539.58733,E,1,12,0.74,13.4,M,-47.6,M,,*4F
$GNGSA,A,3,25,12,23,15,18,05,24,29,10,28,,,1.35,0.74,1.13*10
$GNGSA,A,3,80,68,69,79,83,,,,,,,,1.35,0.74,1.13*17
$GPGSV,4,1,16,05,27,030,19,10,17,215,31,12,67,128,32,13,12,093,*70
$GPGSV,4,2,16,15,43,119,35,18,28,307,16,23,59,222,37,24,26,165,29*74
$GPGSV,4,3,16,25,74,329,34,28,08,280,18,29,19,357,19,36,52,277,*79
$GPGSV,4,4,16,40,86,351,35,41,58,082,,49,32,274,,50,10,089,*7F
$GLGSV,2,1,08,67,08,050,,68,40,090,28,69,39,160,26,73,27,315,21*68
$GLGSV,2,2,08,79,30,167,33,80,68,243,34,83,09,348,12,84,06,298,*63
$GNGLL,0419.87817,S,05539.58733,E,070026.00,A,A*64
$GNRMC,070027.00,A,0419.87822,S,05539.58732,E,0.090,,270525,,,A*75
$GNVTG,,T,,M,0.090,N,0.166,K,A*35
$GNGGA,070027.00,0419.87822,S,05539.58732,E,1,12,0.74,13.5,M,-47.6,M,,*48
$GNGSA,A,3,25,12,23,15,18,05,24,29,10,28,,,1.35,0.74,1.13*10
$GNGSA,A,3,80,68,69,79,83,,,,,,,,1.35,0.74,1.13*17
$GPGSV,4,1,16,05,27,030,19,10,17,215,31,12,67,128,33,13,12,093,*71
$GPGSV,4,2,16,15,43,119,35,18,28,307,19,23,59,222,37,24,26,165,31*72
$GPGSV,4,3,16,25,74,329,35,28,08,280,19,29,19,357,18,36,52,277,*78
$GPGSV,4,4,16,40,86,351,36,41,58,082,,49,32,274,,50,10,089,*7C
$GLGSV,2,1,08,67,08,050,,68,40,090,25,69,39,160,27,73,27,315,20*65
$GLGSV,2,2,08,79,30,167,34,80,68,243,34,83,09,348,11,84,06,298,*67
$GNGLL,0419.87822,S,05539.58732,E,070027.00,A,A*62
$GNRMC,070028.00,A,0419.87826,S,05539.58731,E,0.114,,270525,,,A*70
$GNVTG,,T,,M,0.114,N,0.211,K,A*3B
$GNGGA,070028.00,0419.87826,S,05539.58731,E,1,12,0.74,13.5,M,-47.6,M,,*40
$GNGSA,A,3,25,12,23,15,18,05,24,29,10,28,,,1.35,0.74,1.13*10
$GNGSA,A,3,80,68,69,79,83,,,,,,,,1.35,0.74,1.13*17
$GPGSV,4,1,16,05,27,030,18,10,17,215,30,12,67,128,29,13,12,093,*7A
$GPGSV,4,2,16,15,43,119,31,18,28,307,21,23,59,222,39,24,26,165,32*70
$GPGSV,4,3,16,25,74,329,35,28,08,279,20,29,19,357,17,36,52,277,*7B
$GPGSV,4,4,16,40,86,351,35,41,58,082,,49,32,274,,50,10,089,*7F
$GLGSV,2,1,08,67,08,050,,68,40,090,24,69,39,160,26,73,27,315,20*65
$GLGSV,2,2,08,79,30,167,35,80,68,243,34,83,09,348,13,84,06,298,*64
$GNGLL,0419.87826,S,05539.58731,E,070028.00,A,A*6A
$GNRMC,070029.00,A,0419.87828,S,05539.58728,E,0.228,,270525,,,A*7B
$GNVTG,,T,,M,0.228,N,0.421,K,A*32
$GNGGA,070029.00,0419.87828,S,05539.58728,E,1,12,0.74,13.5,M,-47.6,M,,*47
$GNGSA,A,3,25,12,23,15,18,05,24,29,10,28,,,1.35,0.74,1.13*10
$GNGSA,A,3,80,68,69,79,83,,,,,,,,1.35,0.74,1.13*17
$GPGSV,4,1,16,05,27,030,18,10,17,215,28,12,67,128,34,13,12,093,*7F
$GPGSV,4,2,16,15,43,119,32,18,28,307,19,23,59,222,29,24,26,165,24*7E
$GPGSV,4,3,16,25,74,329,32,28,08,279,20,29,19,357,18,36,52,277,*73
$GPGSV,4,4,16,40,86,351,36,41,58,082,,49,32,274,,50,10,089,*7C
$GLGSV,2,1,08,67,08,050,,68,40,090,24,69,39,160,27,73,27,315,22*66
$GLGSV,2,2,08,79,30,167,32,80,68,243,35,83,09,348,09,84,06,298,*69
$GNGLL,0419.87828,S,05539.58728,E,070029.00,A,A*6D
$GNRMC,070030.00,A,0419.87832,S,05539.58723,E,0.035,,270525,,,A*7D
$GNVTG,,T,,M,0.035,N,0.064,K,A*39
$GNGGA,070030.00,0419.87832,S,05539.58723,E,1,12,0.74,13.7,M,-47.6,M,,*4D
$GNGSA,A,3,25,12,23,15,18,05,24,29,10,28,,,1.35,0.74,1.13*10
$GNGSA,A,3,80,68,69,79,83,,,,,,,,1.35,0.74,1.13*17
$GPGSV,4,1,16,05,27,030,17,10,17,215,32,12,67,128,29,13,12,093,*77
$GPGSV,4,2,16,15,43,119,37,18,28,307,22,23,59,222,35,24,26,165,23*79
$GPGSV,4,3,16,25,74,329,33,28,08,279,19,29,19,357,19,36,52,277,*79
$GPGSV,4,4,16,40,86,351,35,41,58,082,,49,32,274,,50,10,089,*7F
$GLGSV,2,1,08,67,08,050,,68,40,090,25,69,39,160,28,73,27,315,22*68
$GLGSV,2,2,08,79,30,167,33,80,68,243,31,83,09,348,09,84,06,298,*6C
$GNGLL,0419.87832,S,05539.58723,E,070030.00,A,A*65
$GNRMC,070031.00,A,0419.87835,S,05539.58721,E,0.119,,270525,,,A*76
$GNVTG,,T,,M,0.119,N,0.220,K,A*34
$GNGGA,070031.00,0419.87835,S,05539.58721,E,1,12,0.74,13.7,M,-47.6,M,,*49
$GNGSA,A,3,25,12,23,15,18,05,24,29,10,28,,,1.35,0.74,1.13*10
$GNGSA,A,3,80,68,69,79,83,,,,,,,,1.35,0.74,1.13*17
$GPGSV,4,1,16,05,27,030,16,10,17,215,34,12,67,128,32,13,12,093,*7A
$GPGSV,4,2,16,15,43,119,36,18,28,307,25,23,59,222,36,24,26,165,23*7C
$GPGSV,4,3,16,25,74,329,34,28,08,279,17,29,19,357,20,36,52,277,*7A
$GPGSV,4,4,16,40,86,351,36,41,58,082,,49,32,274,,50,10,089,*7C
$GLGSV,2,1,08,67,08,050,,68,40,090,26,69,39,160,30,73,27,315,22*62
$GLGSV,2,2,08,79,30,167,32,80,68,243,33,83,09,348,11,84,06,298,*66
$GNGLL,0419.87835,S,05539.58721,E,070031.00,A,A*61
$GNRMC,070032.00,A,0419.87840,S,05539.58720,E,0.074,,270525,,,A*7C
$GNVTG,,T,,M,0.074,N,0.136,K,A*3A
$GNGGA,070032.00,0419.87840,S,05539.58720,E,1,12,0.74,13.8,M,-47.6,M,,*46
$GNGSA,A,3,25,12,23,15,18,05,24,29,10,28,,,1.35,0.74,1.13*10
$GNGSA,A,3,80,68,69,79,83,,,,,,,,1.35,0.74,1.13*17
$GPGSV,4,1,16,05,27,030,17,10,17,215,32,12,67,128,34,13,12,093,*7B
$GPGSV,4,2,16,15,43,119,36,18,28,307,26,23,59,222,36,24,26,165,25*79
$GPGSV,4,3,16,25,74,329,35,28,08,279,17,29,19,357,19,36,52,277,*71
$GPGSV,4,4,16,40,86,351,37,41,58,082,,49,32,274,,50,10,089,*7D
$GLGSV,2,1,08,67,08,050,,68,40,090,26,69,39,160,27,73,27,315,23*65
$GLGSV,2,2,08,79,30,167,33,80,68,243,33,83,09,348,10,84,06,298,*66
$GNGLL,0419.87840,S,05539.58720,E,070032.00,A,A*61
$GNRMC,070033.00,A,0419.87840,S,05539.58718,E,0.031,,270525,,,A*77
$GNVTG,,T,,M,0.031,N,0.057,K,A*3D
$GNGGA,070033.00,0419.87840,S,05539.58718,E,1,12,0.74,13.8,M,-47.6,M,,*4C
$GNGSA,A,3,25,12,23,15,18,05,24,29,10,28,,,1.35,0.74,1.13*10
$GNGSA,A,3,80,68,69,79,83,,,,,,,,1.35,0.74,1.13*17
$GPGSV,4,1,16,05,27,030,18,10,17,215,31,12,67,128,33,13,12,093,*70
$GPGSV,4,2,16,15,43,119,35,18,28,307,22,23,59,222,35,24,26,165,26*7E
$GPGSV,4,3,16,25,74,329,35,28,08,279,15,29,19,357,19,36,52,277,*73
$GPGSV,4,4,16,40,86,351,37,41,58,082,,49,32,274,,50,10,089,*7D
$GLGSV,2,1,08,67,08,050,,68,40,090,26,69,39,160,26,73,27,315,22*65
$GLGSV,2,2,08,79,30,167,33,80,68,243,33,83,09,348,09,84,06,298,*6E
$GNGLL,0419.87840,S,05539.58718,E,070033.00,A,A*6B
$GNRMC,070034.00,A,0419.87841,S,05539.58715,E,0.068,,270525,,,A*70
$GNVTG,,T,,M,0.068,N,0.127,K,A*37
$GNGGA,070034.00,0419.87841,S,05539.58715,E,1,12,0.74,13.8,M,-47.6,M,,*47
$GNGSA,A,3,25,12,23,15,18,05,24,29,10,28,,,1.35,0.74,1.13*10
$GNGSA,A,3,80,68,69,79,83,,,,,,,,1.35,0.74,1.13*17
$GPGSV,4,1,16,05,27,030,17,10,17,215,32,12,67,128,33,13,12,093,*7C
$GPGSV,4,2,16,15,43,119,35,18,28,307,20,23,59,222,31,24,26,165,27*79
$GPGSV,4,3,16,25,74,329,35,28,08,279,14,29,19,357,17,36,52,277,*7C
$GPGSV,4,4,16,40,86,351,39,41,58,082,,49,32,274,,50,10,089,*73
$GLGSV,2,1,08,67,08,050,,68,40,090,27,69,39,160,25,73,27,315,23*66
$GLGSV,2,2,08,79,30,167,35,80,68,243,34,83,09,348,07,84,06,298,*61
$GNGLL,0419.87841,S,05539.58715,E,070034.00,A,A*60
$GNRMC,070035.00,A,0419.87844,S,05539.58713,E,0.085,,270525,,,A*71
$GNVTG,,T,,M,0.085,N,0.157,K,A*33
$GNGGA,070035.00,0419.87844,S,05539.58713,E,1,12,0.74,13.9,M,-47.6,M,,*44
$GNGSA,A,3,25,12,23,15,18,05,24,29,10,28,,,1.35,0.74,1.13*10
$GNGSA,A,3,80,68,69,79,83,,,,,,,,1.35,0.74,1.13*17
$GPGSV,4,1,16,05,27,030,16,10,17,215,32,12,67,128,34,13,12,093,*7A
$GPGSV,4,2,16,15,43,119,35,18,28,307,19,23,59,222,37,24,26,165,28*7A
$GPGSV,4,3,16,25,74,329,37,28,08,279,12,29,19,357,15,36,52,277,*7A
$GPGSV,4,4,16,40,86,351,37,41,58,082,,49,32,274,,50,10,089,*7D
$GLGSV,2,1,08,67,08,050,,68,40,090,27,69,39,160,32,73,27,315,23*60
$GLGSV,2,2,08,79,30,167,35,80,68,243,34,83,09,348,09,84,06,298,*6F
$GNGLL,0419.87844,S,05539.58713,E,070035.00,A,A*62
$GNRMC,070036.00,A,0419.87848,S,05539.58709,E,0.068,,270525,,,A*76
$GNVTG,,T,,M,0.068,N,0.126,K,A*36
$GNGGA,070036.00,0419.87848,S,05539.58709,E,1,12,0.74,14.0,M,-47.6,M,,*4E
$GNGSA,A,3,25,12,23,15,18,05,24,29,10,28,,,1.35,0.74,1.13*10
$GNGSA,A,3,80,68,69,79,83,,,,,,,,1.35,0.74,1.13*17
$GPGSV,4,1,16,05,27,030,17,10,17,215,31,12,67,128,34,13,12,093,*78
$GPGSV,4,2,16,15,43,119,36,18,28,307,19,23,59,222,37,24,26,165,29*78
$GPGSV,4,3,16,25,74,329,34,28,08,279,14,29,19,357,16,36,52,277,*7C
$GPGSV,4,4,16,40,86,351,35,41,58,082,,49,32,274,,50,10,089,*7F
$GLGSV,2,1,08,67,08,050,,68,40,090,27,69,39,160,30,73,27,315,24*65
$GLGSV,2,2,08,79,30,167,34,80,68,243,34,83,09,348,09,84,06,298,*6E
$GNGLL,0419.87848,S,05539.58709,E,070036.00,A,A*66
$GNRMC,070037.00,A,0419.87846,S,05539.58705,E,0.126,,270525,,,A*7E
$GNVTG,,T,,M,0.126,N,0.233,K,A*3A
$GNGGA,070037.00,0419.87846,S,05539.58705,E,1,12,0.74,14.0,M,-47.6,M,,*4D
$GNGSA,A,3,25,12,23,15,18,05,24,29,10,28,,,1.35,0.74,1.13*10
$GNGSA,A,3,80,68,69,79,83,,,,,,,,1.35,0.74,1.13*17
$GPGSV,4,1,16,05,27,030,19,10,17,215,32,12,67,128,32,13,12,093,*73
$GPGSV,4,2,16,15,43,119,36,18,28,307,20,23,59,222,36,24,26,165,28*72
$GPGSV,4,3,16,25,74,329,34,28,08,279,16,29,19,357,19,36,52,277,*71
$GPGSV,4,4,16,40,86,351,35,41,58,082,,49,32,274,,50,10,089,*7F
$GLGSV,2,1,08,67,08,050,,68,40,090,28,69,39,160,28,73,27,315,24*63
$GLGSV,2,2,08,79,30,167,32,80,68,243,33,83,09,348,10,84,06,298,*67
$GNGLL,0419.87846,S,05539.58705,E,070037.00,A,A*65
$GNRMC,070038.00,A,0419.87853,S,05539.58704,E,0.109,,270525,,,A*79
$GNVTG,,T,,M,0.109,N,0.202,K,A*35
$GNGGA,070038.00,0419.87853,S,05539.58704,E,1,12,0.74,14.2,M,-47.6,M,,*45
$GNGSA,A,3,25,12,23,15,18,05,24,29,10,28,,,1.35,0.74,1.13*10
$GNGSA,A,3,80,68,69,79,83,,,,,,,,1.35,0.74,1.13*17
$GPGSV,4,1,16,05,27,030,22,10,17,215,31,12,67,128,33,13,12,093,*79
$GPGSV,4,2,16,15,43,119,36,18,28,307,18,23,59,222,34,24,26,165,27*74
$GPGSV,4,3,16,25,74,329,34,28,08,279,16,29,19,357,18,36,52,277,*70
$GPGSV,4,4,16,40,86,351,36,41,58,082,,49,32,274,,50,10,089,*7C
$GLGSV,2,1,08,67,08,050,,68,40,090,29,69,39,160,26,73,27,315,24*6C
$GLGSV,2,2,08,79,30,167,33,80,68,243,33,83,09,348,11,84,06,298,*67
$GNGLL,0419.87853,S,05539.58704,E,070038.00,A,A*6F
$GNRMC,070039.00,A,0419.87850,S,05539.58702,E,0.038,,270525,,,A*7E
$GNVTG,,T,,M,0.038,N,0.070,K,A*31
$GNGGA,070039.00,0419.87850,S,05539.58702,E,1,12,0.74,14.0,M,-47.6,M,,*43
$GNGSA,A,3,25,12,23,15,18,05,24,29,10,28,,,1.35,0.74,1.13*10
$GNGSA,A,3,80,68,69,79,83,,,,,,,,1.35,0.74,1.13*17
$GPGSV,4,1,16,05,27,030,22,10,17,215,32,12,67,128,35,13,12,093,*7C
$GPGSV,4,2,16,15,43,119,36,18,28,307,20,23,59,222,37,24,26,165,28*73
$GPGSV,4,3,16,25,74,329,35,28,08,279,16,29,19,357,18,36,52,277,*71
$GPGSV,4,4,16,40,86,351,36,41,58,082,,49,32,274,,50,10,089,*7C
$GLGSV,2,1,08,67,08,050,,68,40,090,29,69,39,160,27,73,27,315,23*6A
$GLGSV,2,2,08,79,30,167,34,80,68,243,34,83,09,348,10,84,06,298,*66
$GNGLL,0419.87850,S,05539.58702,E,070039.00,A,A*6B
$GNRMC,070040.00,A,0419.87845,S,05539.58703,E,0.077,,270525,,,A*7E
$GNVTG,,T,,M,0.077,N,0.142,K,A*3A
$GNGGA,070040.00,0419.87845,S,05539.58703,E,1,12,0.74,13.8,M,-47.6,M,,*47
$GNGSA,A,3,25,12,23,15,18,05,24,29,10,28,,,1.35,0.74,1.13*10
$GNGSA,A,3,80,68,69,79,83,,,,,,,,1.35,0.74,1.13*17
$GPGSV,4,1,16,05,27,030,19,10,17,215,33,12,67,128,35,13,12,093,*75
$GPGSV,4,2,16,15,43,119,36,18,28,307,20,23,59,222,37,24,26,165,29*72
$GPGSV,4,3,16,25,74,329,36,28,08,279,17,29,19,357,20,36,52,277,*78
$GPGSV,4,4,16,40,86,351,36,41,58,082,,49,32,274,,50,10,089,*7C
$GLGSV,2,1,08,67,08,050,,68,40,090,28,69,39,160,32,73,27,315,23*6F
$GLGSV,2,2,08,79,30,167,35,80,68,243,35,83,09,348,09,84,06,298,*6E
$GNGLL,0419.87845,S,05539.58703,E,070040.00,A,A*60
$GNRMC,070041.00,A,0419.87850,S,05539.58703,E,0.126,,270525,,,A*7E
$GNVTG,,T,,M,0.126,N,0.233,K,A*3A
$GNGGA,070041.00,0419.87850,S,05539.58703,E,1,12,0.74,13.9,M,-47.6,M,,*43
$GNGSA,A,3,25,12,23,15,18,05,24,29,10,28,,,1.35,0.74,1.13*10
$GNGSA,A,3,80,68,69,79,83,,,,,,,,1.35,0.74,1.13*17
$GPGSV,4,1,16,05,27,030,17,10,17,215,31,12,67,128,34,13,12,093,*78
$GPGSV,4,2,16,15,43,119,35,18,28,307,22,23,59,222,37,24,26,165,29*73
$GPGSV,4,3,16,25,74,329,35,28,08,279,16,29,19,357,21,36,52,277,*7B
$GPGSV,4,4,16,40,86,351,37,41,58,082,,49,32,274,,50,10,089,*7D
$GLGSV,2,1,08,67,08,050,,68,40,090,28,69,39,160,31,73,27,315,22*6D
$GLGSV,2,2,08,79,30,167,35,80,68,243,35,83,09,348,15,84,06,298,*63
$GNGLL,0419.87850,S,05539.58703,E,070041.00,A,A*65
$GNRMC,070042.00,A,0419.87854,S,05539.58701,E,0.065,,270525,,,A*7D
$GNVTG,,T,,M,0.065,N,0.121,K,A*3C
$GNGGA,070042.00,0419.87854,S,05539.58701,E,1,12,0.74,13.9,M,-47.6,M,,*46
$GNGSA,A,3,25,12,23,15,18,05,24,29,10,28,,,1.35,0.74,1.13*10
$GNGSA,A,3,80,68,69,79,83,,,,,,,,1.35,0.74,1.13*17
$GPGSV,4,1,16,05,27,030,20,10,17,215,31,12,67,128,35,13,12,093,*7D
$GPGSV,4,2,16,15,43,119,35,18,28,307,21,23,59,222,37,24,26,165,29*70
$GPGSV,4,3,16,25,74,329,35,28,08,279,16,29,19,357,21,36,52,277,*7B
$GPGSV,4,4,16,40,86,351,37,41,58,082,,49,32,274,,50,10,089,*7D
$GLGSV,2,1,08,67,08,050,,68,40,090,29,69,39,160,32,73,27,315,21*6C
$GLGSV,2,2,08,79,30,167,36,80,68,243,35,83,09,348,09,84,06,298,*6D
$GNGLL,0419.87854,S,05539.58701,E,070042.00,A,A*60
$GNRMC,070043.00,A,0419.87851,S,05539.58699,E,0.082,,270525,,,A*70
$GNVTG,,T,,M,0.082,N,0.153,K,A*30
$GNGGA,070043.00,0419.87851,S,05539.58699,E,1,12,0.74,13.8,M,-47.6,M,,*43
$GNGSA,A,3,25,12,23,15,18,05,24,29,10,28,,,1.35,0.74,1.13*10
$GNGSA,A,3,80,68,69,79,83,,,,,,,,1.35,0.74,1.13*17
$GPGSV,4,1,16,05,27,030,22,10,17,215,30,12,67,128,34,13,12,093,*7F
$GPGSV,4,2,16,15,43,119,35,18,28,307,19,23,59,222,37,24,26,165,30*73
$GPGSV,4,3,16,25,74,329,36,28,08,279,20,29,19,357,21,36,52,277,*7D
$GPGSV,4,4,16,40,86,351,36,41,58,082,,49,32,274,,50,10,089,*7C
$GLGSV,2,1,08,67,08,050,,68,40,090,29,69,39,160,32,73,27,315,19*67
$GLGSV,2,2,08,79,30,167,36,80,68,243,35,83,09,348,11,84,06,298,*64
$GNGLL,0419.87851,S,05539.58699,E,070043.00,A,A*64
$GNRMC,070044.00,A,0419.87855,S,05539.58696,E,0.069,,270525,,,A*79
$GNVTG,,T,,M,0.069,N,0.128,K,A*39
$GNGGA,070044.00,0419.87855,S,05539.58696,E,1,12,0.74,13.9,M,-47.6,M,,*4E
$GNGSA,A,3,25,12,23,15,18,05,24,29,10,28,,,1.35,0.74,1.13*10
$GNGSA,A,3,80,68,69,79,83,,,,,,,,1.35,0.74,1.13*17
$GPGSV,4,1,16,05,27,030,23,10,17,215,30,12,67,128,34,13,12,093,*7E
$GPGSV,4,2,16,15,43,119,32,18,28,307,19,23,59,222,36,24,26,165,30*75
$GPGSV,4,3,16,25,74,329,35,28,08,279,20,29,19,357,20,36,52,277,*7F
$GPGSV,4,4,16,40,86,351,37,41,58,082,,49,32,274,,50,10,089,*7D
$GLGSV,2,1,08,67,08,050,,68,40,090,29,69,39,160,25,73,27,315,18*60
$GLGSV,2,2,08,79,30,167,36,80,68,243,35,83,09,348,12,84,06,298,*67
$GNGLL,0419.87855,S,05539.58696,E,070044.00,A,A*68
$GNRMC,070045.00,A,0419.87859,S,05539.58693,E,0.137,,270525,,,A*7B
$GNVTG,,T,,M,0.137,N,0.253,K,A*3C
$GNGGA,070045.00,0419.87859,S,05539.58693,E,1,12,0.74,13.9,M,-47.6,M,,*46
$GNGSA,A,3,25,12,23,15,18,05,24,29,10,28,,,1.35,0.74,1.13*10
$GNGSA,A,3,80,68,69,79,83,,,,,,,,1.35,0.74,1.13*17
$GPGSV,4,1,16,05,27,030,22,10,17,215,32,12,67,128,35,13,12,093,*7C
$GPGSV,4,2,16,15,43,119,33,18,28,307,19,23,59,222,36,24,26,165,31*75
$GPGSV,4,3,16,25,74,329,35,28,08,279,21,29,19,357,22,36,52,277,*7C
$GPGSV,4,4,16,40,86,351,36,41,58,082,,49,32,274,,50,10,089,*7C
$GLGSV,2,1,08,67,08,050,,68,40,090,27,69,39,160,31,73,27,315,21*61
$GLGSV,2,2,08,79,30,167,35,80,68,243,35,83,09,348,08,84,06,298,*6F
$GNGLL,0419.87859,S,05539.58693,E,070045.00,A,A*60
$GNRMC,070046.00,A,0419.87858,S,05539.58691,E,0.008,,270525,,,A*76
$GNVTG,,T,,M,0.008,N,0.015,K,A*31
$GNGGA,070046.00,0419.87858,S,05539.58691,E,1,12,0.74,13.8,M,-47.6,M,,*47
$GNGSA,A,3,25,12,23,15,18,05,24,29,10,28,,,1.35,0.74,1.13*10
$GNGSA,A,3,80,68,69,79,83,,,,,,,,1.35,0.74,1.13*17
$GPGSV,4,1,16,05,27,030,23,10,17,215,32,12,67,128,35,13,12,093,*7D
$GPGSV,4,2,16,15,43,119,32,18,28,307,22,23,59,222,36,24,26,165,29*75
$GPGSV,4,3,16,25,74,329,35,28,08,279,20,29,19,357,22,36,52,277,*7D
$GPGSV,4,4,16,40,86,351,36,41,58,082,,49,32,274,,50,10,089,*7C
$GLGSV,2,1,08,67,08,050,,68,40,090,28,69,39,160,30,73,27,315,23*6D
$GLGSV,2,2,08,79,30,167,34,80,68,243,35,83,09,348,10,84,06,298,*67
$GNGLL,0419.87858,S,05539.58691,E,070046.00,A,A*60
$GNRMC,070047.00,A,0419.87861,S,05539.58691,E,0.026,,270525,,,A*71
$GNVTG,,T,,M,0.026,N,0.047,K,A*3A
$GNGGA,070047.00,0419.87861,S,05539.58691,E,1,12,0.74,13.9,M,-47.6,M,,*4D
$GNGSA,A,3,25,12,23,15,18,05,24,29,10,28,,,1.35,0.74,1.13*10
$GNGSA,A,3,80,68,69,79,83,,,,,,,,1.35,0.74,1.13*17
$GPGSV,4,1,16,05,27,030,26,10,17,215,33,12,67,128,35,13,12,093,*79
$GPGSV,4,2,16,15,43,119,34,18,28,307,24,23,59,222,35,24,26,165,23*7C
$GPGSV,4,3,16,25,74,329,36,28,08,279,20,29,19,357,22,36,52,277,*7E
$GPGSV,4,4,16,40,86,351,36,41,58,082,,49,32,274,,50,10,089,*7C
$GLGSV,2,1,08,67,08,050,,68,40,090,29,69,39,160,29,73,27,315,25*62
$GLGSV,2,2,08,79,30,167,35,80,68,243,35,83,09,348,09,84,06,298,*6E
$GNGLL,0419.87861,S,05539.58691,E,070047.00,A,A*6B
$GNRMC,070048.00,A,0419.87862,S,05539.58692,E,0.009,,270525,,,A*73
$GNVTG,,T,,M,0.009,N,0.016,K,A*33
$GNGGA,070048.00,0419.87862,S,05539.58692,E,1,12,0.74,13.9,M,-47.6,M,,*42
$GNGSA,A,3,25,12,23,15,18,05,24,29,10,28,,,1.35,0.74,1.13*10
$GNGSA,A,3,80,68,69,79,83,,,,,,,,1.35,0.74,1.13*17
$GPGSV,4,1,16,05,27,030,25,10,17,215,32,12,67,128,35,13,12,093,*7B
$GPGSV,4,2,16,15,43,119,34,18,28,307,24,23,59,222,34,24,26,165,26*78
$GPGSV,4,3,16,25,74,329,36,28,08,279,19,29,19,357,24,36,52,277,*72
$GPGSV,4,4,16,40,86,351,36,41,58,082,,49,32,274,,50,10,089,*7C
$GLGSV,2,1,08,67,08,050,,68,40,090,28,69,39,160,30,73,27,315,25*6B
$GLGSV,2,2,08,79,30,167,35,80,68,243,35,83,09,348,11,84,06,298,*67
$GNGLL,0419.87862,S,05539.58692,E,070048.00,A,A*64
$GNRMC,070049.00,A,0419.87864,S,05539.58693,E,0.070,,270525,,,A*7B
$GNVTG,,T,,M,0.070,N,0.129,K,A*30
$GNGGA,070049.00,0419.87864,S,05539.58693,E,1,12,0.74,14.0,M,-47.6,M,,*4A
$GNGSA,A,3,25,12,23,15,18,05,24,29,10,28,,,1.35,0.74,1.13*10
$GNGSA,A,3,80,68,69,79,83,,,,,,,,1.35,0.74,1.13*17
$GPGSV,4,1,16,05,27,030,23,10,17,215,31,12,67,128,34,13,12,093,*7F
$GPGSV,4,2,16,15,43,119,33,18,28,307,25,23,59,222,33,24,26,165,29*76
$GPGSV,4,3,16,25,74,329,36,28,08,279,20,29,19,357,25,36,52,277,*79
$GPGSV,4,4,16,40,86,351,39,41,58,082,,49,32,274,,50,10,089,*73
$GLGSV,2,1,08,67,08,050,,68,40,090,27,69,39,160,31,73,27,315,23*63
$GLGSV,2,2,08,79,30,167,35,80,68,243,35,83,09,348,09,84,06,298,*6E
$GNGLL,0419.87864,S,05539.58693,E,070049.00,A,A*62
$GNRMC,070050.00,A,0419.87866,S,05539.58693,E,0.066,,270525,,,A*76
$GNVTG,,T,,M,0.066,N,0.122,K,A*3C
$GNGGA,070050.00,0419.87866,S,05539.58693,E,1,12,0.74,14.2,M,-47.6,M,,*42
$GNGSA,A,3,25,12,23,15,18,05,24,29,10,28,,,1.35,0.74,1.13*10
$GNGSA,A,3,80,68,69,79,83,,,,,,,,1.35,0.74,1.13*17
$GPGSV,4,1,16,05,27,030,23,10,17,215,27,12,67,128,33,13,12,093,*7F
$GPGSV,4,2,16,15,43,119,33,18,28,307,24,23,59,222,33,24,26,165,29*77
$GPGSV,4,3,16,25,74,329,37,28,08,279,18,29,19,357,25,36,52,277,*73
$GPGSV,4,4,16,40,86,351,39,41,58,082,,49,32,274,,50,10,089,*73
$GLGSV,2,1,08,67,08,050,,68,40,090,27,69,39,160,31,73,27,315,21*61
$GLGSV,2,2,08,79,30,167,35,80,68,243,36,83,09,348,11,84,06,298,*64
$GNGLL,0419.87866,S,05539.58693,E,070050.00,A,A*68
$GNRMC,070051.00,A,0419.87871,S,05539.58694,E,0.049,,270525,,,A*7B
$GNVTG,,T,,M,0.049,N,0.091,K,A*38
$GNGGA,070051.00,0419.87871,S,05539.58694,E,1,12,0.74,14.4,M,-47.6,M,,*44
$GNGSA,A,3,25,12,23,15,18,05,24,29,10,28,,,1.35,0.74,1.13*10
$GNGSA,A,3,80,68,69,79,83,,,,,,,,1.35,0.74,1.13*17
$GPGSV,4,1,16,05,27,030,22,10,17,215,32,12,67,128,33,13,12,093,*7A
$GPGSV,4,2,16,15,43,119,33,18,28,307,20,23,59,222,31,24,26,165,30*79
$GPGSV,4,3,16,25,74,329,37,28,08,279,15,29,19,357,25,36,52,277,*7E
$GPGSV,4,4,16,40,86,351,39,41,58,082,,49,32,274,,50,10,089,*73
$GLGSV,2,1,08,67,08,050,,68,40,090,27,69,39,160,31,73,27,315,19*6A
$GLGSV,2,2,08,79,30,167,35,80,68,243,36,83,09,348,10,84,06,298,*65
$GNGLL,0419.87871,S,05539.58694,E,070051.00,A,A*68
$GNRMC,070052.00,A,0419.87872,S,05539.58694,E,0.033,,270525,,,A*76
$GNVTG,,T,,M,0.033,N,0.062,K,A*39
$GNGGA,070052.00,0419.87872,S,05539.58694,E,1,12,0.74,14.6,M,-47.6,M,,*46
$GNGSA,A,3,25,12,23,15,18,05,24,29,10,28,,,1.35,0.74,1.13*10
$GNGSA,A,3,80,68,69,79,83,,,,,,,,1.35,0.74,1.13*17
$GPGSV,4,1,16,05,27,030,21,10,17,215,28,12,67,128,33,13,12,093,*72
$GPGSV,4,2,16,15,43,119,34,18,28,307,19,23,59,222,30,24,26,165,30*75
$GPGSV,4,3,16,25,74,329,37,28,08,279,13,29,19,357,23,36,52,277,*7E
$GPGSV,4,4,16,40,86,351,40,41,58,082,,49,32,274,,50,10,089,*7D
$GLGSV,2,1,08,67,08,050,,68,40,090,25,69,39,160,32,73,27,315,16*64
$GLGSV,2,2,08,79,30,167,35,80,68,243,36,83,09,348,08,84,06,298,*6C
$GNGLL,0419.87872,S,05539.58694,E,070052.00,A,A*68
$GNRMC,070053.00,A,0419.87871,S,05539.58692,E,0.020,,270525,,,A*70
$GNVTG,,T,,M,0.020,N,0.037,K,A*3B
$GNGGA,070053.00,0419.87871,S,05539.58692,E,1,12,0.78,14.6,M,-47.6,M,,*4E
$GNGSA,A,3,25,12,23,15,05,24,29,10,28,,,,1.38,0.78,1.13*18
$GNGSA,A,3,80,68,69,79,83,,,,,,,,1.38,0.78,1.13*16
$GPGSV,4,1,16,05,27,030,21,10,17,215,28,12,67,128,34,13,12,093,*75
$GPGSV,4,2,16,15,43,119,35,18,28,307,19,23,59,222,29,24,26,165,29*74
$GPGSV,4,3,16,25,74,329,37,28,08,279,11,29,19,357,24,36,52,277,*7B
$GPGSV,4,4,16,40,86,351,40,41,58,082,,49,32,274,,50,10,089,*7D
$GLGSV,2,1,08,67,08,050,,68,40,090,26,69,39,160,32,73,27,315,15*64
$GLGSV,2,2,08,79,30,167,35,80,68,243,36,83,09,348,11,84,06,298,*64
$GNGLL,0419.87871,S,05539.58692,E,070053.00,A,A*6C
$GNRMC,070054.00,A,0419.87875,S,05539.58691,E,0.111,,270525,,,A*73
$GNVTG,,T,,M,0.111,N,0.205,K,A*3B
$GNGGA,070054.00,0419.87875,S,05539.58691,E,1,12,0.78,14.7,M,-47.6,M,,*4F
$GNGSA,A,3,25,12,23,15,05,24,29,10,28,,,,1.38,0.78,1.13*18
$GNGSA,A,3,80,68,69,79,83,,,,,,,,1.38,0.78,1.13*16
$GPGSV,4,1,16,05,27,030,20,10,17,215,29,12,67,128,35,13,12,093,*74
$GPGSV,4,2,16,15,43,119,35,18,28,307,20,23,59,222,30,24,26,165,29*76
$GPGSV,4,3,16,25,74,329,37,28,08,279,17,29,19,357,24,36,52,277,*7D
$GPGSV,4,4,16,40,86,351,40,41,58,082,,49,32,274,,50,10,089,*7D
$GLGSV,2,1,08,67,08,050,,68,40,090,26,69,39,160,33,73,27,315,12*62
$GLGSV,2,2,08,79,30,167,35,80,68,243,36,83,09,348,14,84,06,298,*61
$GNGLL,0419.87875,S,05539.58691,E,070054.00,A,A*6C
$GNRMC,070055.00,A,0419.87879,S,05539.58690,E,0.069,,270525,,,A*71
$GNVTG,,T,,M,0.069,N,0.127,K,A*36
$GNGGA,070055.00,0419.87879,S,05539.58690,E,1,12,0.90,14.9,M,-47.6,M,,*4B
$GNGSA,A,3,25,12,23,15,05,24,29,10,28,,,,1.55,0.90,1.26*13
$GNGSA,A,3,80,68,69,79,83,,,,,,,,1.55,0.90,1.26*1D
$GPGSV,4,1,16,05,27,030,21,10,17,215,29,12,67,128,35,13,12,093,*75
$GPGSV,4,2,16,15,43,119,35,18,28,307,19,23,59,222,29,24,26,165,30*7C
$GPGSV,4,3,16,25,74,329,37,28,08,279,17,29,19,357,23,36,52,277,*7A
$GPGSV,4,4,16,40,86,351,39,41,58,082,,49,32,274,,50,10,089,*73
$GLGSV,2,1,08,67,08,049,,68,40,090,25,69,39,160,33,73,27,315,*6A
$GLGSV,2,2,08,79,30,167,34,80,68,243,36,83,09,348,10,84,06,298,*64
$GNGLL,0419.87879,S,05539.58690,E,070055.00,A,A*60
$GNRMC,070056.00,A,0419.87879,S,05539.58688,E,0.108,,270525,,,A*7D
$GNVTG,,T,,M,0.108,N,0.199,K,A*35
$GNGGA,070056.00,0419.87879,S,05539.58688,E,1,12,0.80,14.9,M,-47.6,M,,*40
$GNGSA,A,3,25,12,23,15,18,05,24,29,10,28,,,1.47,0.80,1.24*1A
$GNGSA,A,3,80,68,69,79,83,,,,,,,,1.47,0.80,1.24*1D
$GPGSV,4,1,16,05,27,030,20,10,17,215,29,12,67,128,35,13,12,093,*74
$GPGSV,4,2,16,15,43,119,34,18,28,307,20,23,59,222,28,24,26,165,29*7E
$GPGSV,4,3,16,25,74,329,38,28,08,279,13,29,19,357,24,36,52,277,*76
$GPGSV,4,4,16,40,86,351,40,41,58,082,,49,32,274,,50,10,089,*7D
$GLGSV,2,1,08,67,08,049,,68,40,089,25,69,39,160,32,73,27,315,*63
$GLGSV,2,2,08,79,30,167,34,80,68,243,37,83,09,348,11,84,06,298,*64
$GNGLL,0419.87879,S,05539.58688,E,070056.00,A,A*6A
$GNRMC,070057.00,A,0419.87880,S,05539.58689,E,0.081,,270525,,,A*7B
$GNVTG,,T,,M,0.081,N,0.149,K,A*38
$GNGGA,070057.00,0419.87880,S,05539.58689,E,1,12,0.80,15.0,M,-47.6,M,,*4E
$GNGSA,A,3,25,12,23,15,18,05,24,29,10,,,,1.47,0.80,1.24*10
$GNGSA,A,3,80,68,69,79,83,,,,,,,,1.47,0.80,1.24*1D
$GPGSV,4,1,16,05,27,030,20,10,17,215,29,12,67,128,35,13,12,093,*74
$GPGSV,4,2,16,15,43,119,28,18,28,307,20,23,59,222,29,24,26,165,28*73
$GPGSV,4,3,16,25,74,329,37,28,08,279,04,29,19,357,24,36,52,277,*7F
$GPGSV,4,4,16,40,86,351,39,41,58,082,,49,32,274,,50,10,089,*73
$GLGSV,2,1,08,67,08,049,,68,40,089,25,69,39,159,31,73,27,315,*6A
$GLGSV,2,2,08,79,30,167,34,80,68,243,37,83,09,348,12,84,06,298,*67
$GNGLL,0419.87880,S,05539.58689,E,070057.00,A,A*6C
$GNRMC,070058.00,A,0419.87882,S,05539.58687,E,0.125,,270525,,,A*77
$GNVTG,,T,,M,0.125,N,0.231,K,A*3B
$GNGGA,070058.00,0419.87882,S,05539.58687,E,1,12,0.80,15.0,M,-47.6,M,,*4D
$GNGSA,A,3,25,12,23,15,18,05,24,29,10,,,,1.47,0.80,1.24*10
$GNGSA,A,3,80,68,69,79,83,,,,,,,,1.47,0.80,1.24*1D
$GPGSV,4,1,16,05,27,030,19,10,17,215,28,12,67,128,34,13,12,093,*7E
$GPGSV,4,2,16,15,43,119,31,18,28,307,18,23,59,222,30,24,26,165,28*78
$GPGSV,4,3,16,25,74,329,37,28,08,279,09,29,19,357,24,36,52,277,*72
$GPGSV,4,4,16,40,86,351,39,41,58,082,,49,32,274,,50,10,089,*73
$GLGSV,2,1,08,67,08,049,,68,40,089,25,69,39,159,32,73,27,315,22*69
$GLGSV,2,2,08,79,30,167,34,80,68,243,37,83,09,348,13,84,06,298,*66
$GNGLL,0419.87882,S,05539.58687,E,070058.00,A,A*6F
$GNRMC,070059.00,A,0419.87880,S,05539.58687,E,0.038,,270525,,,A*79
$GNVTG,,T,,M,0.038,N,0.070,K,A*31
$GNGGA,070059.00,0419.87880,S,05539.58687,E,1,12,0.80,15.0,M,-47.6,M,,*4E
$GNGSA,A,3,25,12,23,15,18,05,24,29,10,28,,,1.47,0.80,1.24*1A
$GNGSA,A,3,80,68,69,79,83,,,,,,,,1.47,0.80,1.24*1D
$GPGSV,4,1,16,05,27,030,17,10,17,215,27,12,67,128,33,13,12,093,*78
$GPGSV,4,2,16,15,43,119,32,18,28,307,18,23,59,222,29,24,26,165,28*73
$GPGSV,4,3,16,25,74,329,37,28,08,279,11,29,19,357,24,36,52,277,*7B
$GPGSV,4,4,16,40,86,351,39,41,58,082,,49,32,274,,50,10,089,*73
$GLGSV,2,1,08,67,08,049,,68,40,089,25,69,39,159,32,73,27,315,21*6A
$GLGSV,2,2,08,79,30,167,33,80,68,243,37,83,09,348,11,84,06,298,*63
$GNGLL,0419.87880,S,05539.58687,E,070059.00,A,A*6C
$GNRMC,070100.00,A,0419.87874,S,05539.58686,E,0.049,,270525,,,A*78
$GNVTG,,T,,M,0.049,N,0.091,K,A*38
$GNGGA,070100.00,0419.87874,S,05539.58686,E,1,12,0.80,14.9,M,-47.6,M,,*41
$GNGSA,A,3,25,12,23,15,18,05,24,29,10,28,,,1.47,0.80,1.24*1A
$GNGSA,A,3,80,68,69,79,83,,,,,,,,1.47,0.80,1.24*1D
$GPGSV,4,1,16,05,27,030,16,10,17,215,28,12,67,128,33,13,12,093,*76
$GPGSV,4,2,16,15,43,119,32,18,28,307,19,23,59,222,28,24,26,165,29*72
$GPGSV,4,3,16,25,74,329,38,28,08,279,16,29,19,357,22,36,52,277,*75
$GPGSV,4,4,16,40,86,351,39,41,58,082,,49,32,274,,50,10,089,*73
$GLGSV,2,1,08,67,08,049,,68,40,089,25,69,39,159,33,73,27,315,18*61
$GLGSV,2,2,08,79,30,167,34,80,68,243,37,83,09,348,11,84,06,298,*64
$GNGLL,0419.87874,S,05539.58686,E,070100.00,A,A*6B
$GNRMC,070101.00,A,0419.87871,S,05539.58684,E,0.079,,270525,,,A*7D
$GNVTG,,T,,M,0.079,N,0.146,K,A*30
$GNGGA,070101.00,0419.87871,S,05539.58684,E,1,12,0.80,14.8,M,-47.6,M,,*46
$GNGSA,A,3,25,12,23,15,18,05,24,29,10,28,,,1.47,0.80,1.24*1A
$GNGSA,A,3,80,68,69,79,,,,,,,,,1.47,0.80,1.24*16
$GPGSV,4,1,16,05,27,030,16,10,17,215,28,12,67,128,34,13,12,093,*71
$GPGSV,4,2,16,15,43,119,32,18,28,307,19,23,59,222,29,24,26,165,30*7B
$GPGSV,4,3,16,25,74,329,37,28,08,279,17,29,19,357,23,36,52,277,*7A
$GPGSV,4,4,16,40,86,351,39,41,58,082,,49,32,274,,50,10,089,*73
$GLGSV,2,1,08,67,08,049,,68,40,089,23,69,39,159,34,73,27,315,19*61
$GLGSV,2,2,08,79,30,167,34,80,68,243,37,83,09,348,05,84,06,298,*61
$GNGLL,0419.87871,S,05539.58684,E,070101.00,A,A*6D
$GNRMC,070102.00,A,0419.87870,S,05539.58684,E,0.077,,270525,,,A*71
$GNVTG,,T,,M,0.077,N,0.142,K,A*3A
$GNGGA,070102.00,0419.87870,S,05539.58684,E,1,12,0.74,14.8,M,-47.6,M,,*4F
$GNGSA,A,3,25,12,23,15,18,05,24,29,10,28,,,1.35,0.74,1.13*10
$GNGSA,A,3,80,68,69,79,83,,,,,,,,1.35,0.74,1.13*17
$GPGSV,4,1,16,05,27,030,16,10,17,215,28,12,67,128,34,13,12,093,*71
$GPGSV,4,2,16,15,43,119,32,18,28,307,19,23,59,222,29,24,26,165,30*7B
$GPGSV,4,3,16,25,74,329,37,28,08,279,16,29,19,357,23,36,52,277,*7B
$GPGSV,4,4,16,40,86,351,39,41,58,082,,49,32,274,,50,10,089,*73
$GLGSV,2,1,08,67,08,049,,68,40,089,22,69,39,159,33,73,27,315,17*69
$GLGSV,2,2,08,79,30,167,34,80,68,243,37,83,09,348,11,84,06,298,*64
$GNGLL,0419.87870,S,05539.58684,E,070102.00,A,A*6F
$GNRMC,070103.00,A,0419.87878,S,05539.58683,E,0.197,,270525,,,A*70
$GNVTG,,T,,M,0.197,N,0.364,K,A*33
$GNGGA,070103.00,0419.87878,S,05539.58683,E,1,12,0.78,15.1,M,-47.6,M,,*45
$GNGSA,A,3,25,12,23,15,05,24,29,10,28,,,,1.38,0.78,1.13*18
$GNGSA,A,3,80,68,69,79,83,,,,,,,,1.38,0.78,1.13*16
$GPGSV,4,1,16,05,27,030,18,10,17,215,27,12,67,128,33,13,12,093,*77
$GPGSV,4,2,16,15,43,119,32,18,28,307,,23,59,222,28,24,26,165,30*72
$GPGSV,4,3,16,25,74,329,37,28,08,279,15,29,19,357,24,36,52,277,*7F
$GPGSV,4,4,16,40,86,351,39,41,58,082,,49,32,274,,50,10,089,*73
$GLGSV,2,1,08,67,08,049,,68,40,089,23,69,39,159,33,73,27,315,18*67
$GLGSV,2,2,08,79,30,167,34,80,68,243,37,83,09,348,11,84,06,298,*64
$GNGLL,0419.87878,S,05539.58683,E,070103.00,A,A*61
$GNRMC,070104.00,A,0419.87872,S,05539.58682,E,0.015,,270525,,,A*77
$GNVTG,,T,,M,0.015,N,0.028,K,A*33
$GNGGA,070104.00,0419.87872,S,05539.58682,E,1,12,0.78,14.9,M,-47.6,M,,*40
$GNGSA,A,3,25,12,23,15,05,24,29,10,28,,,,1.38,0.78,1.13*18
$GNGSA,A,3,80,68,69,79,83,,,,,,,,1.38,0.78,1.13*16
$GPGSV,4,1,16,05,27,030,20,10,17,215,29,12,67,128,33,13,12,093,*72
$GPGSV,4,2,16,15,43,119,31,18,28,307,,23,59,222,28,24,26,165,29*79
$GPGSV,4,3,16,25,74,329,37,28,08,279,14,29,19,357,24,36,52,277,*7E
$GPGSV,4,4,16,40,86,351,39,41,58,082,,49,32,274,,50,10,089,*73
$GLGSV,2,1,08,67,08,049,,68,40,089,24,69,39,159,33,73,27,315,19*61
$GLGSV,2,2,08,79,30,167,34,80,68,243,37,83,09,348,10,84,06,298,*65
$GNGLL,0419.87872,S,05539.58682,E,070104.00,A,A*6D
$GNRMC,070105.00,A,0419.87858,S,05539.58684,E,0.128,,270525,,,A*77
$GNVTG,,T,,M,0.128,N,0.238,K,A*3F
$GNGGA,070105.00,0419.87858,S,05539.58684,E,1,12,0.78,14.5,M,-47.6,M,,*43
$GNGSA,A,3,25,12,23,15,05,24,29,10,28,,,,1.38,0.78,1.13*18
$GNGSA,A,3,80,68,69,79,83,,,,,,,,1.38,0.78,1.13*16
$GPGSV,4,1,16,05,27,030,19,10,17,215,30,12,67,128,33,13,12,093,06*76
$GPGSV,4,2,16,15,43,119,32,18,28,307,18,23,59,222,27,24,26,165,29*7C
$GPGSV,4,3,16,25,74,329,37,28,08,279,13,29,19,357,24,36,52,277,*79
$GPGSV,4,4,16,40,86,351,39,41,58,082,,49,32,274,,50,10,089,*73
$GLGSV,2,1,08,67,08,049,,68,40,089,23,69,39,159,34,73,27,315,20*6B
$GLGSV,2,2,08,79,30,167,35,80,68,243,39,83,09,348,08,84,06,298,*63
$GNGLL,0419.87858,S,05539.58684,E,070105.00,A,A*62
$GNRMC,070106.00,A,0419.87849,S,05539.58685,E,0.133,,270525,,,A*7F
$GNVTG,,T,,M,0.133,N,0.247,K,A*3D
$GNGGA,070106.00,0419.87849,S,05539.58685,E,1,12,0.78,14.3,M,-47.6,M,,*47
$GNGSA,A,3,25,12,23,15,05,24,29,10,13,28,,,1.38,0.78,1.13*1A
$GNGSA,A,3,80,68,69,79,83,,,,,,,,1.38,0.78,1.13*16
$GPGSV,4,1,16,05,27,030,18,10,17,215,29,12,67,128,33,13,12,093,08*71
$GPGSV,4,2,16,15,43,119,32,18,28,307,18,23,59,222,26,24,26,165,29*7D
$GPGSV,4,3,16,25,74,329,38,28,08,279,13,29,19,357,24,36,52,277,*76
$GPGSV,4,4,16,40,86,351,39,41,58,082,,49,32,274,,50,10,089,*73
$GLGSV,2,1,08,67,08,049,,68,40,089,24,69,39,159,33,73,27,315,20*6B
$GLGSV,2,2,08,79,30,167,36,80,68,243,38,83,09,348,13,84,06,298,*6B
$GNGLL,0419.87849,S,05539.58685,E,070106.00,A,A*60
$GNRMC,070107.00,A,0419.87849,S,05539.58686,E,0.040,,270525,,,A*78
$GNVTG,,T,,M,0.040,N,0.074,K,A*3A
$GNGGA,070107.00,0419.87849,S,05539.58686,E,1,12,0.78,14.4,M,-47.6,M,,*42
$GNGSA,A,3,25,12,23,15,05,24,29,10,28,,,,1.38,0.78,1.13*18
$GNGSA,A,3,80,68,69,79,83,,,,,,,,1.38,0.78,1.13*16
$GPGSV,4,1,16,05,27,030,20,10,17,215,29,12,67,128,33,13,12,093,08*7A
$GPGSV,4,2,16,15,43,119,32,18,28,307,,23,59,222,23,24,26,165,29*71
$GPGSV,4,3,16,25,74,329,38,28,08,279,13,29,19,357,23,36,52,277,*71
$GPGSV,4,4,16,40,86,351,40,41,58,082,,49,32,274,,50,10,089,*7D
$GLGSV,2,1,08,67,08,049,,68,40,089,25,69,39,159,33,73,27,315,21*6B
$GLGSV,2,2,08,79,30,167,35,80,68,243,37,83,09,348,09,84,06,298,*6C
$GNGLL,0419.87849,S,05539.58686,E,070107.00,A,A*62
$GNRMC,070108.00,A,0419.87857,S,05539.58697,E,0.493,,270525,,,A*72
$GNVTG,,T,,M,0.493,N,0.913,K,A*38
$GNGGA,070108.00,0419.87857,S,05539.58697,E,1,12,0.78,14.9,M,-47.6,M,,*4F
$GNGSA,A,3,25,12,23,15,05,24,29,10,13,28,,,1.38,0.78,1.13*1A
$GNGSA,A,3,80,68,69,79,83,,,,,,,,1.38,0.78,1.13*16
$GPGSV,4,1,16,05,27,030,21,10,17,215,28,12,67,128,35,13,12,093,16*73
$GPGSV,4,2,16,15,43,119,32,18,28,307,,23,59,222,30,24,26,165,30*7B
$GPGSV,4,3,16,25,74,329,33,28,08,279,12,29,19,357,23,36,52,277,*7B
$GPGSV,4,4,16,40,86,351,37,41,58,082,,49,32,274,,50,10,089,*7D
$GLGSV,2,1,08,67,08,049,,68,40,089,24,69,39,159,33,73,27,315,22*69
$GLGSV,2,2,08,79,30,167,36,80,68,241,37,83,09,348,12,84,06,298,*67
$GNGLL,0419.87857,S,05539.58697,E,070108.00,A,A*62
$GNRMC,070109.00,A,0419.87845,S,05539.58701,E,0.041,,270525,,,A*75
$GNVTG,,T,,M,0.041,N,0.075,K,A*3A
$GNGGA,070109.00,0419.87845,S,05539.58701,E,1,12,0.85,14.6,M,-47.6,M,,*4E
$GNGSA,A,3,25,12,23,15,05,24,29,10,13,,,,1.41,0.85,1.13*1C
$GNGSA,A,3,80,68,69,79,83,,,,,,,,1.41,0.85,1.13*1A
$GPGSV,4,1,16,05,27,030,21,10,17,215,32,12,67,128,35,13,12,093,16*78
$GPGSV,4,2,16,15,43,119,32,18,28,307,,23,59,222,30,24,26,165,30*7B
$GPGSV,4,3,16,25,74,329,35,28,08,279,10,29,19,357,22,36,52,277,*7E
$GPGSV,4,4,16,40,86,351,38,41,58,082,,49,32,274,,50,10,089,*72
$GLGSV,2,1,08,67,08,049,,68,40,089,23,69,39,159,32,73,27,315,21*6C
$GLGSV,2,2,08,79,30,167,36,80,68,241,38,83,09,348,18,84,06,298,*62
$GNGLL,0419.87845,S,05539.58701,E,070109.00,A,A*6E
$GNRMC,070110.00,A,0419.87845,S,05539.58703,E,0.096,,270525,,,A*75
$GNVTG,,T,,M,0.096,N,0.178,K,A*3C
$GNGGA,070110.00,0419.87845,S,05539.58703,E,1,12,0.78,14.6,M,-47.6,M,,*46
$GNGSA,A,3,25,12,23,15,05,24,29,10,13,28,,,1.38,0.78,1.13*1A
$GNGSA,A,3,80,68,69,79,83,,,,,,,,1.38,0.78,1.13*16
$GPGSV,4,1,16,05,27,030,19,10,17,215,31,12,67,128,35,13,12,093,16*70
$GPGSV,4,2,16,15,43,119,33,18,28,307,20,23,59,222,30,24,26,165,30*78
$GPGSV,4,3,16,25,74,329,35,28,08,279,11,29,19,357,22,36,52,277,*7F
$GPGSV,4,4,16,40,86,351,38,41,58,082,,49,32,274,,50,10,089,*72
$GLGSV,2,1,08,67,08,049,,68,40,089,25,69,39,159,32,73,27,315,22*69
$GLGSV,2,2,08,79,30,167,35,80,68,241,38,83,09,348,09,84,06,298,*61
$GNGLL,0419.87845,S,05539.58703,E,070110.00,A,A*64
$GNRMC,070111.00,A,0419.87845,S,05539.58703,E,0.061,,270525,,,A*7C
$GNVTG,,T,,M,0.061,N,0.113,K,A*39
$GNGGA,070111.00,0419.87845,S,05539.58703,E,1,12,0.78,14.6,M,-47.6,M,,*47
$GNGSA,A,3,25,12,23,15,05,24,29,10,13,28,,,1.38,0.78,1.13*1A
$GNGSA,A,3,80,68,69,79,83,,,,,,,,1.38,0.78,1.13*16
$GPGSV,4,1,16,05,27,030,19,10,17,215,33,12,67,128,35,13,12,093,16*72
$GPGSV,4,2,16,15,43,119,33,18,28,307,20,23,59,222,30,24,26,165,28*71
$GPGSV,4,3,16,25,74,329,35,28,08,279,12,29,19,357,22,36,52,277,*7C
$GPGSV,4,4,16,40,86,351,37,41,58,082,,49,32,274,,50,10,089,*7D
$GLGSV,2,1,08,67,08,049,,68,40,089,26,69,39,159,32,73,27,315,23*6B
$GLGSV,2,2,08,79,30,167,36,80,68,241,36,83,09,349,10,84,06,298,*65
$GNGLL,0419.87845,S,05539.58703,E,070111.00,A,A*65
$GNRMC,070112.00,A,0419.87849,S,05539.58704,E,0.122,,270525,,,A*72
$GNVTG,,T,,M,0.122,N,0.227,K,A*3B
$GNGGA,070112.00,0419.87849,S,05539.58704,E,1,12,0.67,14.7,M,-47.6,M,,*40
$GNGSA,A,3,25,12,23,15,18,05,24,29,10,13,28,,1.22,0.67,1.01*15
$GNGSA,A,3,80,68,69,79,83,,,,,,,,1.22,0.67,1.01*10
$GPGSV,4,1,16,05,27,030,23,10,17,215,32,12,67,128,36,13,12,093,16*79
$GPGSV,4,2,16,15,43,119,33,18,28,307,21,23,59,222,31,24,26,165,28*71
$GPGSV,4,3,16,25,74,329,36,28,08,279,12,29,19,357,22,36,52,277,*7F
$GPGSV,4,4,16,40,86,351,38,41,58,082,,49,32,274,,50,10,089,*72
$GLGSV,2,1,08,67,08,049,,68,40,089,27,69,39,159,31,73,27,315,23*69
$GLGSV,2,2,08,79,30,167,36,80,68,241,37,83,09,349,11,84,06,298,*65
$GNGLL,0419.87849,S,05539.58704,E,070112.00,A,A*6D
$GNRMC,070113.00,A,0419.87855,S,05539.58700,E,0.135,,270525,,,A*7C
$GNVTG,,T,,M,0.135,N,0.249,K,A*35
$GNGGA,070113.00,0419.87855,S,05539.58700,E,1,12,0.74,14.9,M,-47.6,M,,*44
$GNGSA,A,3,25,12,23,15,18,05,24,29,10,13,28,,1.35,0.74,1.13*12
$GNGSA,A,3,80,68,69,79,83,,,,,,,,1.35,0.74,1.13*17
$GPGSV,4,1,16,05,27,030,23,10,17,215,33,12,67,128,35,13,12,093,16*7B
$GPGSV,4,2,16,15,43,119,34,18,28,307,20,23,59,222,31,24,26,165,30*7E
$GPGSV,4,3,16,25,74,329,36,28,08,279,12,29,19,357,21,36,52,277,*7C
$GPGSV,4,4,16,40,86,351,38,41,58,082,,49,32,274,,50,10,089,*72
$GLGSV,2,1,08,67,08,049,,68,40,089,26,69,39,159,29,73,27,315,23*61
$GLGSV,2,2,08,79,30,167,36,80,68,241,37,83,09,349,10,84,06,298,*64
$GNGLL,0419.87855,S,05539.58700,E,070113.00,A,A*65
$GNRMC,070114.00,A,0419.87862,S,05539.58697,E,0.121,,270525,,,A*75
$GNVTG,,T,,M,0.121,N,0.223,K,A*3C
$GNGGA,070114.00,0419.87862,S,05539.58697,E,1,12,0.74,15.0,M,-47.6,M,,*40
$GNGSA,A,3,25,12,23,15,18,05,24,29,10,13,28,,1.35,0.74,1.13*12
$GNGSA,A,3,80,68,69,79,83,,,,,,,,1.35,0.74,1.13*17
$GPGSV,4,1,16,05,27,030,23,10,17,215,34,12,67,128,35,13,12,093,12*78
$GPGSV,4,2,16,15,43,119,34,18,28,307,21,23,59,222,30,24,26,165,30*7E
$GPGSV,4,3,16,25,74,329,35,28,08,279,16,29,19,357,20,36,52,277,*7A
$GPGSV,4,4,16,40,86,351,38,41,58,082,,49,32,274,,50,10,089,*72
$GLGSV,2,1,08,67,08,049,,68,40,089,27,69,39,159,29,73,27,315,23*60
$GLGSV,2,2,08,79,30,167,37,80,68,241,37,83,09,349,13,84,06,298,*66
$GNGLL,0419.87862,S,05539.58697,E,070114.00,A,A*69
$GNRMC,070115.00,A,0419.87862,S,05539.58696,E,0.082,,270525,,,A*7D
$GNVTG,,T,,M,0.082,N,0.151,K,A*32
$GNGGA,070115.00,0419.87862,S,05539.58696,E,1,12,0.74,15.0,M,-47.6,M,,*40
$GNGSA,A,3,25,12,23,15,18,05,24,29,10,28,,,1.35,0.74,1.13*10
$GNGSA,A,3,80,68,69,79,83,,,,,,,,1.35,0.74,1.13*17
$GPGSV,4,1,16,05,27,030,24,10,17,215,35,12,67,128,34,13,12,093,12*7F
$GPGSV,4,2,16,15,43,119,30,18,28,307,20,23,59,222,30,24,26,165,30*7B
$GPGSV,4,3,16,25,74,329,36,28,08,279,16,29,19,357,20,36,52,277,*79
$GPGSV,4,4,16,40,86,351,38,41,58,082,,49,32,274,,50,10,089,*72
$GLGSV,2,1,08,67,08,049,,68,40,089,26,69,39,159,33,73,27,315,21*68
$GLGSV,2,2,08,79,30,167,36,80,68,241,37,83,09,349,11,84,06,298,*65
$GNGLL,0419.87862,S,05539.58696,E,070115.00,A,A*69
$GNRMC,070116.00,A,0419.87874,S,05539.58696,E,0.228,,270525,,,A*7B
$GNVTG,,T,,M,0.228,N,0.423,K,A*30
$GNGGA,070116.00,0419.87874,S,05539.58696,E,1,12,0.74,15.3,M,-47.6,M,,*47
$GNGSA,A,3,25,12,23,15,18,05,24,29,10,28,,,1.35,0.74,1.13*10
$GNGSA,A,3,80,68,69,79,83,,,,,,,,1.35,0.74,1.13*17
$GPGSV,4,1,16,05,27,030,22,10,17,215,34,12,67,128,33,13,12,093,12*7F
$GPGSV,4,2,16,15,43,119,33,18,28,307,21,23,59,222,32,24,26,165,29*73
$GPGSV,4,3,16,25,74,329,37,28,08,279,15,29,19,357,20,36,52,277,*7B
$GPGSV,4,4,16,40,86,351,39,41,58,082,,49,32,274,,50,10,089,*73
$GLGSV,2,1,08,67,08,049,,68,40,089,25,69,39,159,31,73,27,315,20*68
$GLGSV,2,2,08,79,30,167,35,80,68,241,38,83,09,349,13,84,06,298,*6B
$GNGLL,0419.87874,S,05539.58696,E,070116.00,A,A*6D
$GNRMC,070117.00,A,0419.87878,S,05539.58696,E,0.147,,270525,,,A*7C
$GNVTG,,T,,M,0.147,N,0.271,K,A*3B
$GNGGA,070117.00,0419.87878,S,05539.58696,E,1,12,0.74,15.4,M,-47.6,M,,*4D
$GNGSA,A,3,25,12,23,15,18,05,24,29,10,28,,,1.35,0.74,1.13*10
$GNGSA,A,3,80,68,69,79,83,,,,,,,,1.35,0.74,1.13*17
$GPGSV,4,1,16,05,27,030,20,10,17,215,34,12,67,128,33,13,12,093,12*7D
$GPGSV,4,2,16,15,43,119,33,18,28,307,19,23,59,222,31,24,26,165,28*7A
$GPGSV,4,3,16,25,74,329,37,28,08,279,15,29,19,357,21,36,52,277,*7A
$GPGSV,4,4,16,40,86,351,39,41,58,082,,49,32,274,,50,10,089,*73
$GLGSV,2,1,08,67,08,049,,68,40,089,25,69,39,159,30,73,27,315,21*68
$GLGSV,2,2,08,79,30,167,35,80,68,241,38,83,09,349,10,84,06,298,*68
$GNGLL,0419.87878,S,05539.58696,E,070117.00,A,A*60
$GNRMC,070118.00,A,0419.87886,S,05539.58696,E,0.172,,270525,,,A*74
$GNVTG,,T,,M,0.172,N,0.319,K,A*32
$GNGGA,070118.00,0419.87886,S,05539.58696,E,1,12,0.67,15.8,M,-47.6,M,,*4D
$GNGSA,A,3,25,12,23,15,18,05,24,29,10,13,28,,1.22,0.67,1.01*15
$GNGSA,A,3,80,68,69,79,83,,,,,,,,1.22,0.67,1.01*10
$GPGSV,4,1,16,05,27,030,19,10,17,215,35,12,67,128,34,13,12,093,12*71
$GPGSV,4,2,16,15,43,119,33,18,28,307,17,23,59,222,30,24,26,165,28*75
$GPGSV,4,3,16,25,74,329,37,28,08,279,16,29,19,357,21,36,52,277,*79
$GPGSV,4,4,16,40,86,351,39,41,58,082,,49,32,274,,50,10,089,*73
$GLGSV,2,1,08,67,08,049,,68,40,089,24,69,39,159,31,73,27,315,22*6B
$GLGSV,2,2,08,79,30,167,35,80,68,241,38,83,09,349,10,84,06,298,*68
$GNGLL,0419.87886,S,05539.58696,E,070118.00,A,A*6E
$GNRMC,070119.00,A,0419.87894,S,05539.58697,E,0.210,,270525,,,A*70
$GNVTG,,T,,M,0.210,N,0.388,K,A*3D
$GNGGA,070119.00,0419.87894,S,05539.58697,E,1,12,0.74,16.1,M,-47.6,M,,*46
$GNGSA,A,3,25,12,23,15,18,05,24,29,10,13,28,,1.35,0.74,1.13*12
$GNGSA,A,3,80,68,69,79,83,,,,,,,,1.35,0.74,1.13*17
$GPGSV,4,1,16,05,27,030,21,10,17,215,34,12,67,128,35,13,12,093,12*7A
$GPGSV,4,2,16,15,43,119,34,18,28,307,17,23,59,222,30,24,26,165,27*7D
$GPGSV,4,3,16,25,74,329,36,28,08,279,14,29,19,357,21,36,52,277,*7A
$GPGSV,4,4,16,40,86,351,39,41,58,082,,49,32,274,,50,10,089,*73
$GLGSV,2,1,08,67,08,049,,68,40,089,22,69,39,159,31,73,27,315,23*6C
$GLGSV,2,2,08,79,30,167,34,80,68,241,38,83,09,349,08,84,06,298,*60
$GNGLL,0419.87894,S,05539.58697,E,070119.00,A,A*6D
$GNRMC,070120.00,A,0419.87892,S,05539.58699,E,0.110,,270525,,,A*71
$GNVTG,,T,,M,0.110,N,0.204,K,A*3B
$GNGGA,070120.00,0419.87892,S,05539.58699,E,1,12,0.74,16.1,M,-47.6,M,,*44
$GNGSA,A,3,25,12,23,15,18,05,24,29,10,13,28,,1.35,0.74,1.13*12
$GNGSA,A,3,80,68,69,79,83,,,,,,,,1.35,0.74,1.13*17
$GPGSV,4,1,16,05,27,030,20,10,17,215,34,12,67,128,34,13,12,093,11*79
$GPGSV,4,2,16,15,43,119,33,18,28,307,16,23,59,222,30,24,26,165,26*7A
$GPGSV,4,3,16,25,74,329,36,28,08,279,14,29,19,357,23,36,52,277,*78
$GPGSV,4,4,16,40,86,351,39,41,58,082,,49,32,274,,50,10,089,*73
$GLGSV,2,1,08,67,08,049,,68,40,089,20,69,39,159,31,73,27,315,24*69
$GLGSV,2,2,08,79,30,167,34,80,68,241,38,83,09,349,12,84,06,298,*6B
$GNGLL,0419.87892,S,05539.58699,E,070120.00,A,A*6F
$GNRMC,070121.00,A,0419.87899,S,05539.58701,E,0.210,,270525,,,A*78
$GNVTG,,T,,M,0.210,N,0.389,K,A*3C
$GNGGA,070121.00,0419.87899,S,05539.58701,E,1,12,0.67,16.4,M,-47.6,M,,*49
$GNGSA,A,3,25,12,23,15,18,05,24,29,10,13,28,,1.22,0.67,1.01*15
$GNGSA,A,3,80,68,69,79,83,,,,,,,,1.22,0.67,1.01*10
$GPGSV,4,1,16,05,26,030,19,10,17,215,35,12,67,128,35,13,12,093,11*72
$GPGSV,4,2,16,15,43,119,34,18,28,307,18,23,59,222,30,24,26,165,27*72
$GPGSV,4,3,16,25,74,329,36,28,08,279,14,29,19,357,23,36,52,277,*78
$GPGSV,4,4,16,40,86,351,39,41,58,082,,49,32,274,,50,10,089,*73
$GLGSV,2,1,08,67,08,049,,68,40,089,18,69,39,159,30,73,27,315,24*63
$GLGSV,2,2,08,79,30,167,34,80,68,241,38,83,09,349,14,84,06,298,*6D
$GNGLL,0419.87899,S,05539.58701,E,070121.00,A,A*65
$GNRMC,070122.00,A,0419.87895,S,05539.58703,E,0.048,,270525,,,A*7A
$GNVTG,,T,,M,0.048,N,0.089,K,A*30
$GNGGA,070122.00,0419.87895,S,05539.58703,E,1,12,0.74,16.3,M,-47.6,M,,*41
$GNGSA,A,3,25,12,23,15,18,05,24,29,10,13,28,,1.35,0.74,1.13*12
$GNGSA,A,3,80,68,69,79,83,,,,,,,,1.35,0.74,1.13*17
$GPGSV,4,1,16,05,26,030,20,10,17,215,34,12,67,128,35,13,12,093,11*79
$GPGSV,4,2,16,15,43,119,33,18,28,307,21,23,59,222,32,24,26,165,27*7D
$GPGSV,4,3,16,25,74,329,36,28,08,279,14,29,19,357,22,36,52,277,*79
$GPGSV,4,4,16,40,86,351,39,41,58,082,,49,32,274,,50,10,089,*73
$GLGSV,2,1,08,67,08,049,,68,40,089,20,69,39,159,30,73,27,315,24*68
$GLGSV,2,2,08,79,30,167,33,80,68,241,38,83,09,349,13,84,06,298,*6D
$GNGLL,0419.87895,S,05539.58703,E,070122.00,A,A*68
$GNRMC,070123.00,A,0419.87894,S,05539.58706,E,0.102,,270525,,,A*70
$GNVTG,,T,,M,0.102,N,0.188,K,A*3F
$GNGGA,070123.00,0419.87894,S,05539.58706,E,1,12,0.74,16.4,M,-47.6,M,,*43
$GNGSA,A,3,25,12,23,15,18,05,24,29,10,13,28,,1.35,0.74,1.13*12
$GNGSA,A,3,80,68,69,79,83,,,,,,,,1.35,0.74,1.13*17
$GPGSV,4,1,16,05,26,030,18,10,17,215,34,12,67,128,35,13,12,093,11*72
$GPGSV,4,2,16,15,43,119,34,18,28,307,23,23,59,222,32,24,26,165,28*77
$GPGSV,4,3,16,25,74,329,36,28,08,279,13,29,19,357,23,36,52,277,*7F
$GPGSV,4,4,16,40,86,351,39,41,58,082,,49,32,274,,50,10,089,*73
$GLGSV,2,1,08,67,08,049,,68,40,089,20,69,39,159,30,73,27,315,23*6F
$GLGSV,2,2,08,79,30,167,33,80,68,241,38,83,09,349,14,84,06,298,*6A
$GNGLL,0419.87894,S,05539.58706,E,070123.00,A,A*6D
$GNRMC,070124.00,A,0419.87898,S,05539.58708,E,0.107,,270525,,,D*75
$GNVTG,,T,,M,0.107,N,0.198,K,D*3E
$GNGGA,070124.00,0419.87898,S,05539.58708,E,2,12,0.71,16.5,M,-47.6,M,,0000*41
$GNGSA,A,3,25,12,23,15,18,05,24,29,10,28,,,1.28,0.71,1.07*1C
$GNGSA,A,3,80,68,69,79,83,,,,,,,,1.28,0.71,1.07*1B
$GPGSV,4,1,16,05,26,030,17,10,17,215,35,12,67,128,35,13,12,093,*7C
$GPGSV,4,2,16,15,43,119,33,18,28,307,23,23,59,222,31,24,26,165,28*73
$GPGSV,4,3,16,25,74,329,36,28,08,279,12,29,19,357,22,36,52,277,*7F
$GPGSV,4,4,16,40,86,351,39,41,58,082,,49,32,274,,50,10,089,*73
$GLGSV,2,1,08,67,08,049,,68,40,089,20,69,39,159,30,73,27,315,24*68
$GLGSV,2,2,08,79,30,167,33,80,68,241,38,83,09,349,10,84,06,298,*6E
$GNGLL,0419.87898,S,05539.58708,E,070124.00,A,D*6D
$GNRMC,070125.00,A,0419.87901,S,05539.58707,E,0.156,,270525,,,D*7E
$GNVTG,,T,,M,0.156,N,0.289,K,D*39
$GNGGA,070125.00,0419.87901,S,05539.58707,E,2,12,0.74,16.7,M,-47.6,M,,0000*49
$GNGSA,A,3,25,12,23,15,18,05,24,29,10,28,,,1.35,0.74,1.13*10
$GNGSA,A,3,80,68,69,79,83,,,,,,,,1.35,0.74,1.13*17
$GPGSV,4,1,16,05,26,030,18,10,17,215,35,12,67,128,35,13,12,093,*73
$GPGSV,4,2,16,15,43,119,32,18,28,307,24,23,59,222,30,24,26,165,27*7B
$GPGSV,4,3,16,25,74,329,36,28,08,279,16,29,19,357,23,36,52,277,*7A
$GPGSV,4,4,16,40,86,351,39,41,58,082,,49,32,274,,50,10,089,*73
$GLGSV,2,1,08,67,08,049,,68,40,089,20,69,39,159,29,73,27,315,24*60
$GLGSV,2,2,08,79,30,167,33,80,68,241,37,83,09,349,11,84,06,298,*60
$GNGLL,0419.87901,S,05539.58707,E,070125.00,A,D*62
$GNRMC,070126.00,A,0419.87907,S,05539.58707,E,0.126,,270525,,,D*7C
$GNVTG,,T,,M,0.126,N,0.234,K,D*38
$GNGGA,070126.00,0419.87907,S,05539.58707,E,2,12,0.74,16.9,M,-47.6,M,,0000*42
$GNGSA,A,3,25,12,23,15,18,05,24,29,10,28,,,1.35,0.74,1.13*10
$GNGSA,A,3,80,68,69,79,83,,,,,,,,1.35,0.74,1.13*17
$GPGSV,4,1,16,05,26,030,19,10,17,215,35,12,67,128,34,13,12,093,*73
$GPGSV,4,2,16,15,43,119,32,18,28,307,22,23,59,222,30,24,26,165,27*7D
$GPGSV,4,3,16,25,74,329,36,28,08,279,17,29,19,357,22,36,52,277,*7A
$GPGSV,4,4,16,40,86,351,38,41,58,082,,49,32,274,,50,10,089,*72
$GLGSV,2,1,08,67,08,049,,68,40,089,20,69,39,159,29,73,27,315,23*67
$GLGSV,2,2,08,79,30,167,32,80,68,241,38,83,09,349,12,84,06,298,*6D
$GNGLL,0419.87907,S,05539.58707,E,070126.00,A,D*67
$GNRMC,070127.00,A,0419.87908,S,05539.58706,E,0.144,,270525,,,D*77
$GNVTG,,T,,M,0.144,N,0.266,K,D*3B
$GNGGA,070127.00,0419.87908,S,05539.58706,E,2,12,0.74,17.0,M,-47.6,M,,0000*45
$GNGSA,A,3,25,12,23,15,18,05,24,29,10,28,,,1.35,0.74,1.13*10
$GNGSA,A,3,80,68,69,79,83,,,,,,,,1.35,0.74,1.13*17
$GPGSV,4,1,16,05,26,030,21,10,17,215,35,12,67,128,34,13,12,093,*78
$GPGSV,4,2,16,15,43,119,31,18,28,307,19,23,59,222,30,24,26,165,27*76
$GPGSV,4,3,16,25,74,329,36,28,08,279,17,29,19,357,22,36,52,277,*7A
$GPGSV,4,4,16,40,86,351,38,41,58,082,,49,32,274,,50,10,089,*72
$GLGSV,2,1,08,67,08,049,,68,40,089,20,69,39,159,29,73,27,315,24*60
$GLGSV,2,2,08,79,30,167,32,80,68,241,38,83,09,349,14,84,06,298,*6B
$GNGLL,0419.87908,S,05539.58706,E,070127.00,A,D*68
$GNRMC,070128.00,A,0419.87912,S,05539.58706,E,0.124,,270525,,,D*75
$GNVTG,,T,,M,0.124,N,0.230,K,D*3E
$GNGGA,070128.00,0419.87912,S,05539.58706,E,2,12,0.74,17.2,M,-47.6,M,,0000*43
$GNGSA,A,3,25,12,23,15,18,05,24,29,10,28,,,1.35,0.74,1.13*10
$GNGSA,A,3,80,68,69,79,83,,,,,,,,1.35,0.74,1.13*17
$GPGSV,4,1,16,05,26,030,24,10,17,215,34,12,67,129,34,13,12,093,*7D
$GPGSV,4,2,16,15,43,119,31,18,28,307,14,23,59,222,30,24,26,165,27*7B
$GPGSV,4,3,16,25,74,329,37,28,08,279,16,29,19,357,21,36,52,277,*79
$GPGSV,4,4,16,40,86,351,38,41,58,082,,49,32,274,,50,10,089,*72
$GLGSV,2,1,08,67,08,049,,68,40,089,22,69,39,159,30,73,27,315,24*6A
$GLGSV,2,2,08,79,30,167,32,80,68,241,38,83,09,349,11,84,06,298,*6E
$GNGLL,0419.87912,S,05539.58706,E,070128.00,A,D*6C
$GNRMC,070129.00,A,0419.87919,S,05539.58706,E,0.249,,270525,,,D*77
$GNVTG,,T,,M,0.249,N,0.461,K,D*34
$GNGGA,070129.00,0419.87919,S,05539.58706,E,2,12,0.74,17.4,M,-47.6,M,,0000*4F
$GNGSA,A,3,25,12,23,15,18,05,24,29,10,28,,,1.35,0.74,1.13*10
$GNGSA,A,3,80,68,69,79,83,,,,,,,,1.35,0.74,1.13*17
$GPGSV,4,1,16,05,26,030,25,10,17,215,34,12,67,129,34,13,12,093,*7C
$GPGSV,4,2,16,15,43,119,31,18,28,307,10,23,59,222,30,24,26,165,27*7F
$GPGSV,4,3,16,25,74,329,37,28,08,279,16,29,19,357,20,36,52,277,*78
$GPGSV,4,4,16,40,86,351,38,41,58,082,,49,32,274,,50,10,089,*72
$GLGSV,2,1,08,67,08,049,,68,40,089,22,69,39,159,31,73,27,315,24*6B
$GLGSV,2,2,08,79,30,167,32,80,68,241,38,83,09,349,10,84,06,298,*6F
$GNGLL,0419.87919,S,05539.58706,E,070129.00,A,D*66
$GNRMC,070130.00,A,0419.87916,S,05539.58710,E,0.142,,270525,,,D*7F
$GNVTG,,T,,M,0.142,N,0.262,K,D*39
$GNGGA,070130.00,0419.87916,S,05539.58710,E,2,12,0.74,17.3,M,-47.6,M,,0000*48
$GNGSA,A,3,25,12,23,15,18,05,24,29,10,28,,,1.35,0.74,1.13*10
$GNGSA,A,3,80,68,69,79,83,,,,,,,,1.35,0.74,1.13*17
$GPGSV,4,1,16,05,26,030,26,10,17,215,34,12,67,129,35,13,12,093,*7E
$GPGSV,4,2,16,15,43,119,31,18,28,307,19,23,59,222,31,24,26,165,26*76
$GPGSV,4,3,16,25,74,329,36,28,08,279,15,29,19,357,20,36,52,277,*7A
$GPGSV,4,4,16,40,86,351,37,41,58,082,,49,32,274,,50,10,089,*7D
$GLGSV,2,1,08,67,08,049,,68,40,089,22,69,39,159,31,73,27,315,24*6B
$GLGSV,2,2,08,79,30,167,33,80,68,241,36,83,09,349,11,84,06,298,*61
$GNGLL,0419.87916,S,05539.58710,E,070130.00,A,D*66
$GNRMC,070131.00,A,0419.87918,S,05539.58713,E,0.119,,270525,,,D*7D
$GNVTG,,T,,M,0.119,N,0.220,K,D*31
$GNGGA,070131.00,0419.87918,S,05539.58713,E,2,12,0.74,17.4,M,-47.6,M,,0000*43
$GNGSA,A,3,25,12,23,15,18,05,24,29,10,28,,,1.35,0.74,1.13*10
$GNGSA,A,3,80,68,69,79,83,,,,,,,,1.35,0.74,1.13*17
$GPGSV,4,1,16,05,26,030,25,10,17,215,35,12,67,129,37,13,12,093,*7E
$GPGSV,4,2,16,15,43,118,34,18,28,307,17,23,59,222,22,24,26,165,28*70
$GPGSV,4,3,16,25,74,329,36,28,08,279,13,29,19,357,20,36,52,277,*7C
$GPGSV,4,4,16,40,86,351,37,41,58,082,,49,32,274,,50,10,089,*7D
$GLGSV,2,1,08,67,08,049,,68,40,089,21,69,39,159,33,73,27,315,23*6D
$GLGSV,2,2,08,79,30,167,36,80,68,241,36,83,09,349,08,84,06,298,*6C
$GNGLL,0419.87918,S,05539.58713,E,070131.00,A,D*6A
$GNRMC,070132.00,A,0419.87919,S,05539.58711,E,0.052,,270525,,,D*73
$GNVTG,,T,,M,0.052,N,0.096,K,D*30
$GNGGA,070132.00,0419.87919,S,05539.58711,E,2,12,0.74,17.4,M,-47.6,M,,0000*43
$GNGSA,A,3,25,12,23,15,18,05,24,29,10,28,,,1.35,0.74,1.13*10
$GNGSA,A,3,80,68,69,79,83,,,,,,,,1.35,0.74,1.13*17
$GPGSV,4,1,16,05,26,030,26,10,17,215,36,12,67,129,36,13,12,093,*7F
$GPGSV,4,2,16,15,43,118,34,18,28,307,20,23,59,222,22,24,26,165,27*7B
$GPGSV,4,3,16,25,74,329,36,28,08,279,11,29,19,357,19,36,52,277,*74
$GPGSV,4,4,16,40,86,351,37,41,58,082,,49,32,274,,50,10,089,*7D
$GLGSV,2,1,08,67,08,049,,68,40,089,20,69,39,159,34,73,27,315,22*6A
$GLGSV,2,2,08,79,30,167,36,80,68,241,35,83,09,349,10,84,06,298,*66
