b0L#,-Z#n 2&3k[$:'
{#4(V^$:R 
Y![FoGUHI"J!4XK%
UV!6-yW!4br&Z$GNRMC,040216.00,A,0419.89115,S,05539.92007,E,0.042,,230525,,,D*7C
$GNVTG,,T,,M,0.042,N,0.077,K,D*3E
$GNGNS,040216.00,0419.89115,S,05539.92007,E,DA,17,0.60,14.8,-47.6,,0000*6A
$GNGGA,040216.00,0419.89115,S,05539.92007,E,2,12,0.60,14.8,M,-47.6,M,,0000*43
$GNGSA,A,3,24,20,05,13,15,22,06,12,14,,,,1.23,0.60,1.07*1B
$GNGSA,A,3,86,74,75,87,85,73,71,72,,,,,1.23,0.60,1.07*16
$GPGSV,5,1,17,05,44,163,35,06,12,028,23,11,45,020,,12,16,346,19*7C
$GPGSV,5,2,17,13,28,177,35,14,12,110,31,15,27,214,32,18,06,218,*70
$GPGSV,5,3,17,20,51,107,38,22,21,091,31,24,58,295,36,29,12,277,*71
$GPGSV,5,4,17,36,52,277,35,40,86,350,40,41,58,082,36,49,32,274,*7A
$GPGSV,5,5,17,50,10,089,*4A
$GLGSV,3,1,09,70,00,111,18,71,13,152,29,72,13,201,09,73,20,134,34*62
$GLGSV,3,2,09,74,52,088,33,75,37,010,21,85,20,004,19,86,54,301,33*63
$GLGSV,3,3,09,87,33,238,27*5F
$GNGLL,0419.89115,S,05539.92007,E,040216.00,A,D*60
$GNGRS,040216.00,1,-2.4,-1.1,-0.1,2.2,-2.1,0.2,0.2,15.0,-0.6,,,*64
$GNGRS,040216.00,1,-1.4,7.9,8.0,10.8,9.2,-3.6,-1.7,7.7,,,,*4E
$GNGST,040216.00,3965255,,,,1.9,1.7,3.5*7B
$GNZDA,040216.00,23,05,2025,00,00*78
$GNGBS,040216.00,1.9,1.7,3.5,,,,*56
$GNTXT,01,01,01,More than 100 frame errors, UART RX was disabled*70
b0Lx!,G-Z n]^"3k[!:' 
{4"V^:R 
Y\FoGHH
IJ4XK%
UV6-RW!1bxr^S$GNRMC,040217.00,A,0419.89114,S,05539.92007,E,0.012,,230525,,,D*79
$GNVTG,,T,,M,0.012,N,0.023,K,D*3A
$GNGNS,040217.00,0419.89114,S,05539.92007,E,DA,17,0.60,14.8,-47.6,,0000*6A
$GNGGA,040217.00,0419.89114,S,05539.92007,E,2,12,0.60,14.8,M,-47.6,M,,0000*43
$GNGSA,A,3,24,20,05,13,15,22,06,12,14,,,,1.23,0.60,1.07*1B
$GNGSA,A,3,86,74,75,87,85,73,71,72,,,,,1.23,0.60,1.07*16
$GPGSV,5,1,17,05,44,163,33,06,12,028,22,11,45,020,,12,16,346,14*76
$GPGSV,5,2,17,13,28,177,32,14,12,110,27,15,27,214,28,18,06,218,*7B
$GPGSV,5,3,17,20,51,107,34,22,21,091,26,24,58,295,33,29,12,277,*7E
$GPGSV,5,4,17,36,52,277,31,40,86,350,34,41,58,082,28,49,32,274,*72
$GPGSV,5,5,17,50,10,089,*4A
$GLGSV,3,1,09,70,00,111,18,71,13,152,23,72,13,201,10,73,20,134,31*65
$GLGSV,3,2,09,74,52,088,28,75,37,010,19,85,20,004,16,86,54,301,22*6D
$GLGSV,3,3,09,87,33,238,24*5C
$GNGLL,0419.89114,S,05539.92007,E,040217.00,A,D*60
$GNGRS,040217.00,1,-2.2,-1.1,-1.8,2.1,-1.6,-0.4,-1.2,15.2,3.5,,,*44
$GNGRS,040217.00,1,-1.7,4.6,4.8,13.3,11.6,-4.9,-12.1,7.5,,,,*4F
$GNGST,040217.00,3965255,,,,2.0,1.7,3.6*73
$GNZDA,040217.00,23,05,2025,00,00*79
$GNGBS,040217.00,2.0,1.7,3.6,,,,*5E
$GNTXT,01,01,01,More than 100 frame errors, UART RX was disabled*70
b0L`$,-Z#n!M&3k[X":'
{!4&V^":R 
Y\FoGH/IuJ4XK%
UmV6-W!&b`ra$GNRMC,040218.00,A,0419.89110,S,05539.92003,E,0.065,,230525,,,D*76
$GNVTG,,T,,M,0.065,N,0.121,K,D*39
$GNGNS,040218.00,0419.89110,S,05539.92003,E,DA,17,0.64,14.6,-47.6,,0000*6F
$GNGGA,040218.00,0419.89110,S,05539.92003,E,2,12,0.64,14.6,M,-47.6,M,,0000*46
$GNGSA,A,3,24,20,05,13,15,22,06,12,14,,,,1.32,0.64,1.15*1C
$GNGSA,A,3,86,74,75,87,85,73,71,72,,,,,1.32,0.64,1.15*11
$GPGSV,5,1,17,05,44,163,36,06,12,028,22,11,45,020,,12,16,346,15*72
$GPGSV,5,2,17,13,28,177,35,14,12,110,30,15,27,214,33,18,06,218,*70
$GPGSV,5,3,17,20,51,107,38,22,21,091,29,24,58,295,34,29,12,277,*7A
$GPGSV,5,4,17,36,52,277,33,40,86,350,38,41,58,082,34,49,32,274,*71
$GPGSV,5,5,17,50,10,089,*4A
$GLGSV,3,1,09,70,00,111,18,71,13,152,31,72,13,201,11,73,20,134,31*67
$GLGSV,3,2,09,74,52,088,30,75,37,010,17,85,20,004,15,86,54,301,29*62
$GLGSV,3,3,09,87,33,238,24*5C
$GNGLL,0419.89110,S,05539.92003,E,040218.00,A,D*6F
$GNGRS,040218.00,1,-2.4,-0.8,-0.4,2.0,0.8,0.9,-1.1,14.4,-0.9,,,*6D
$GNGRS,040218.00,1,-0.6,4.4,4.5,14.3,13.9,-9.1,-10.6,-71.2,,,,*5E
$GNGST,040218.00,41,,,,2.0,1.7,3.6*42
$GNZDA,040218.00,23,05,2025,00,00*76
$GNGBS,040218.00,2.0,1.7,3.6,,,,*51
$GNTXT,01,01,01,More than 100 frame errors, UART RX was disabled*70
b0LH$,-Z$ n!&3k[":'0
{"4&V^#:R 
Y\hFoGHI AJ"4XZK%
U~V6-W!bHre[ $GNRMC,040219.00,A,0419.89109,S,05539.92001,E,0.061,,230525,,,D*79
$GNVTG,,T,,M,0.061,N,0.113,K,D*3C
$GNGNS,040219.00,0419.89109,S,05539.92001,E,DA,17,0.60,14.5,-47.6,,0000*63
$GNGGA,040219.00,0419.89109,S,05539.92001,E,2,12,0.60,14.5,M,-47.6,M,,0000*4A
$GNGSA,A,3,24,20,05,13,15,22,06,12,14,,,,1.23,0.60,1.07*1B
$GNGSA,A,3,86,74,75,87,85,73,71,72,,,,,1.23,0.60,1.07*16
$GPGSV,5,1,17,05,44,163,36,06,12,028,23,11,45,020,,12,16,346,17*71
$GPGSV,5,2,17,13,28,177,36,14,12,110,32,15,27,214,33,18,06,218,*71
$GPGSV,5,3,17,20,51,107,38,22,21,091,30,24,58,295,34,29,12,277,*72
$GPGSV,5,4,17,36,52,277,34,40,86,350,38,41,58,082,35,49,32,274,*77
$GPGSV,5,5,17,50,10,089,*4A
$GLGSV,3,1,09,70,00,111,21,71,13,152,29,72,13,201,12,73,20,134,32*64
$GLGSV,3,2,09,74,52,088,34,75,37,010,18,85,20,004,16,86,54,301,29*6A
$GLGSV,3,3,09,87,33,238,26*5E
$GNGLL,0419.89109,S,05539.92001,E,040219.00,A,D*64
$GNGRS,040219.00,1,-2.1,-1.2,1.8,2.1,-1.2,2.0,-0.5,14.5,1.5,,,*4A
$GNGRS,040219.00,1,4.4,6.0,6.7,10.4,11.5,-1.9,-5.1,7.7,,,,*55
$GNGST,040219.00,50876,,,,2.0,1.7,3.6*7A
$GNZDA,040219.00,23,05,2025,00,00*77
$GNGBS,040219.00,2.0,1.7,3.6,,,,*50
$GNTXT,01,01,01,More than 100 frame errors, UART RX was disabled*70
b0L0$,5-Z#nr(3k|![:!:'
{4(V^%:R 
Y\QFoGHI"J!4XK%
bUV6-SW!b0ri3$GNRMC,040220.00,A,0419.89105,S,05539.91993,E,0.055,,230525,,,D*79
$GNVTG,,T,,M,0.055,N,0.102,K,D*3B
$GNGNS,040220.00,0419.89105,S,05539.91993,E,DA,17,0.60,14.3,-47.6,,0000*62
$GNGGA,040220.00,0419.89105,S,05539.91993,E,2,12,0.60,14.3,M,-47.6,M,,0000*4B
$GNGSA,A,3,24,20,05,13,15,22,06,12,14,,,,1.23,0.60,1.07*1B
$GNGSA,A,3,86,74,75,87,85,73,71,72,,,,,1.23,0.60,1.07*16
$GPGSV,5,1,17,05,44,163,36,06,12,028,21,11,45,020,,12,16,346,17*73
$GPGSV,5,2,17,13,28,177,35,14,12,110,30,15,27,214,31,18,06,218,*72
$GPGSV,5,3,17,20,51,107,40,22,21,091,33,24,58,295,33,29,12,277,*79
$GPGSV,5,4,17,36,52,277,31,40,86,350,40,41,58,082,37,49,32,274,*7F
$GPGSV,5,5,17,50,10,089,*4A
$GLGSV,3,1,09,70,00,111,24,71,13,152,31,72,13,201,08,73,20,134,34*65
$GLGSV,3,2,09,74,52,088,33,75,37,010,19,85,20,004,16,86,54,301,26*63
$GLGSV,3,3,09,87,33,238,27*5F
$GNGLL,0419.89105,S,05539.91993,E,040220.00,A,D*63
$GNGRS,040220.00,1,-1.0,-1.3,0.5,2.3,1.3,0.6,-2.4,14.3,-4.0,,,*4D
$GNGRS,040220.00,1,8.5,9.7,6.1,5.3,10.2,-5.5,-7.7,7.6,,,,*64
$GNGST,040220.00,76315,,,,2.0,1.7,3.6*7A
$GNZDA,040220.00,23,05,2025,00,00*7D
$GNGBS,040220.00,2.0,1.7,3.6,,,,*5A
$GNTXT,01,01,01,More than 100 frame errors, UART RX was disabled*70
b0L$,-Z"n #3k{ [p!:'v
{4)V^$:R 
Y\FoG\HI!J4XK%
U;V6-yW!vbrm$GNRMC,040221.00,A,0419.89104,S,05539.91991,E,0.093,,230525,,,D*71
$GNVTG,,T,,M,0.093,N,0.173,K,D*37
$GNGNS,040221.00,0419.89104,S,05539.91991,E,DA,17,0.60,14.3,-47.6,,0000*60
$GNGGA,040221.00,0419.89104,S,05539.91991,E,2,12,0.60,14.3,M,-47.6,M,,0000*49
$GNGSA,A,3,24,20,05,13,15,22,06,12,14,,,,1.23,0.60,1.07*1B
$GNGSA,A,3,86,74,75,87,85,73,71,72,,,,,1.23,0.60,1.07*16
$GPGSV,5,1,17,05,44,163,36,06,12,028,20,11,45,020,,12,16,346,17*72
$GPGSV,5,2,17,13,28,177,34,14,12,110,31,15,27,214,32,18,06,218,*71
$GPGSV,5,3,17,20,51,107,35,22,21,091,32,24,58,295,33,29,12,277,*7A
$GPGSV,5,4,17,36,52,277,31,40,86,350,41,41,58,082,36,49,32,274,*7F
$GPGSV,5,5,17,50,10,089,*4A
$GLGSV,3,1,09,70,00,111,24,71,13,152,28,72,13,201,15,73,20,134,33*66
$GLGSV,3,2,09,74,52,088,31,75,37,010,19,85,20,004,15,86,54,301,26*62
$GLGSV,3,3,09,87,33,238,26*5E
$GNGLL,0419.89104,S,05539.91991,E,040221.00,A,D*61
$GNGRS,040221.00,1,-3.9,-1.3,1.6,2.2,-0.3,3.7,-3.8,12.0,-0.9,,,*6F
$GNGRS,040221.00,1,6.3,10.2,6.9,3.7,10.8,-5.6,-1.6,18.0,,,,*6C
$GNGST,040221.00,41,,,,2.0,1.7,3.6*48
$GNZDA,040221.00,23,05,2025,00,00*7C
$GNGBS,040221.00,2.0,1.7,3.6,,,,*5B
$GNTXT,01,01,01,More than 100 frame errors, UART RX was disabled*70
b0L',s-Z!#n&3kt[$:'
{#4(V^&:R 
Y\XFoG%HI!%J4XmK%
nUV6-W!ebrqX$GNRMC,040222.00,A,0419.89107,S,05539.91989,E,0.028,,230525,,,D*78
$GNVTG,,T,,M,0.028,N,0.052,K,D*35
$GNGNS,040222.00,0419.89107,S,05539.91989,E,DA,17,0.60,14.2,-47.6,,0000*68
$GNGGA,040222.00,0419.89107,S,05539.91989,E,2,12,0.60,14.2,M,-47.6,M,,0000*41
$GNGSA,A,3,24,20,05,13,15,22,06,12,14,,,,1.23,0.60,1.07*1B
$GNGSA,A,3,86,74,75,87,85,73,71,72,,,,,1.23,0.60,1.07*16
$GPGSV,5,1,17,05,44,163,39,06,12,028,18,11,45,020,,12,16,346,17*76
$GPGSV,5,2,17,13,28,177,35,14,12,110,30,15,27,214,31,18,06,218,*72
$GPGSV,5,3,17,20,51,107,38,22,21,091,27,24,58,295,36,29,12,277,*76
$GPGSV,5,4,17,36,52,277,35,40,86,350,40,41,58,082,38,49,32,274,*74
$GPGSV,5,5,17,50,10,089,*4A
$GLGSV,3,1,09,70,00,111,22,71,13,152,28,72,13,201,11,73,20,134,33*64
$GLGSV,3,2,09,74,52,088,31,75,37,010,23,85,20,004,11,86,54,301,29*60
$GLGSV,3,3,09,87,33,238,25*5D
$GNGLL,0419.89107,S,05539.91989,E,040222.00,A,D*68
$GNGRS,040222.00,1,-1.2,-1.4,1.2,2.3,0.0,2.1,-3.1,10.6,2.6,,,*63
$GNGRS,040222.00,1,1.4,11.3,6.2,2.4,12.5,-2.2,0.4,7.4,,,,*7E
$GNGST,040222.00,101753,,,,2.0,1.7,3.7*4E
$GNZDA,040222.00,23,05,2025,00,00*7F
$GNGBS,040222.00,2.0,1.7,3.7,,,,*59
$GNTXT,01,01,01,More than 100 frame errors, UART RX was disabled*70
b0L',-Z{#n "'3k[$:'R
{#4(V^&:R 
Y\FoGHI"J4XK%
U1V6-W!br~u$GNRMC,040223.00,A,0419.89112,S,05539.91987,E,0.023,,230525,,,D*78
$GNVTG,,T,,M,0.023,N,0.043,K,D*3E
$GNGNS,040223.00,0419.89112,S,05539.91987,E,DA,17,0.60,14.2,-47.6,,0000*63
$GNGGA,040223.00,0419.89112,S,05539.91987,E,2,12,0.60,14.2,M,-47.6,M,,0000*4A
$GNGSA,A,3,24,20,05,13,15,22,06,12,14,,,,1.23,0.60,1.07*1B
$GNGSA,A,3,86,74,75,87,85,73,71,72,,,,,1.23,0.60,1.07*16
$GPGSV,5,1,17,05,44,163,39,06,12,028,18,11,45,020,,12,16,346,19*78
$GPGSV,5,2,17,13,28,177,35,14,12,110,30,15,27,214,32,18,06,218,*71
$GPGSV,5,3,17,20,51,107,39,22,21,091,29,24,58,295,36,29,12,277,*79
$GPGSV,5,4,17,36,52,277,35,40,86,350,40,41,58,082,38,49,32,274,*74
$GPGSV,5,5,17,50,10,089,*4A
$GLGSV,3,1,09,70,00,111,22,71,13,152,28,72,13,201,11,73,20,134,34*63
$GLGSV,3,2,09,74,52,088,31,75,37,010,25,85,20,004,13,86,54,301,29*64
$GLGSV,3,3,09,87,33,238,25*5D
$GNGLL,0419.89112,S,05539.91987,E,040223.00,A,D*63
$GNGRS,040223.00,1,-1.7,-1.2,1.8,2.6,-2.2,1.5,-2.7,8.9,2.7,,,*74
$GNGRS,040223.00,1,2.2,14.2,5.1,1.9,13.3,-3.1,-2.6,6.9,,,,*54
$GNGST,040223.00,152629,,,,2.0,1.7,3.7*45
$GNZDA,040223.00,23,05,2025,00,00*7E
$GNGBS,040223.00,2.0,1.7,3.7,,,,*58
$GNTXT,01,01,01,More than 100 frame errors, UART RX was disabled*70
b0L&,E-Z="n'3kz[$:'
{#4(V^&:R 
Y\FoGHI!J 4XK%
xUV6-W!1pbrfy$GNRMC,040224.00,A,0419.89114,S,05539.91985,E,0.020,,230525,,,D*78
$GNVTG,,T,,M,0.020,N,0.037,K,D*3E
$GNGNS,040224.00,0419.89114,S,05539.91985,E,DA,17,0.60,14.0,-47.6,,0000*62
$GNGGA,040224.00,0419.89114,S,05539.91985,E,2,12,0.60,14.0,M,-47.6,M,,0000*4B
$GNGSA,A,3,24,20,05,13,15,22,06,12,14,,,,1.23,0.60,1.07*1B
$GNGSA,A,3,86,74,75,87,85,73,71,72,,,,,1.23,0.60,1.07*16
$GPGSV,5,1,17,05,44,163,38,06,12,028,19,11,45,020,,12,16,346,19*78
$GPGSV,5,2,17,13,28,177,34,14,12,110,31,15,27,214,31,18,06,218,*72
$GPGSV,5,3,17,20,51,107,39,22,21,091,29,24,58,295,36,29,12,277,*79
$GPGSV,5,4,17,36,52,277,35,40,86,350,40,41,58,082,38,49,32,274,*74
$GPGSV,5,5,17,50,10,089,*4A
$GLGSV,3,1,09,70,00,111,22,71,13,152,28,72,13,201,11,73,20,134,33*64
$GLGSV,3,2,09,74,52,088,32,75,37,010,26,85,20,004,13,86,54,301,29*64
$GLGSV,3,3,09,87,33,238,25*5D
$GNGLL,0419.89114,S,05539.91985,E,040224.00,A,D*60
$GNGRS,040224.00,1,-2.7,-1.3,0.7,2.7,-2.7,-1.3,-2.9,10.8,2.3,,,*62
$GNGRS,040224.00,1,0.3,9.9,3.8,3.0,14.6,-3.7,-2.9,5.2,,,,*60
$GNGST,040224.00,44,,,,2.0,1.7,3.7*49
$GNZDA,040224.00,23,05,2025,00,00*79
$GNGBS,040224.00,2.0,1.7,3.7,,,,*5F
$GNTXT,01,01,01,More than 100 frame errors, UART RX was disabled*70
b0L%,#e-Z"!n '3k[$:'
{"4(V^&:R 
Y\2FoG
HI!UJ 4XK%
UV6-+W!;brN}k$GNRMC,040225.00,A,0419.89115,S,05539.91982,E,0.062,,230525,,,D*79
$GNVTG,,T,,M,0.062,N,0.115,K,D*39
$GNGNS,040225.00,0419.89115,S,05539.91982,E,DA,17,0.60,14.0,-47.6,,0000*65
$GNGGA,040225.00,0419.89115,S,05539.91982,E,2,12,0.60,14.0,M,-47.6,M,,0000*4C
$GNGSA,A,3,24,20,05,13,15,22,06,12,14,,,,1.23,0.60,1.07*1B
$GNGSA,A,3,86,74,75,87,85,73,71,72,,,,,1.23,0.60,1.07*16
$GPGSV,5,1,17,05,44,163,37,06,12,028,18,11,45,020,,12,16,346,20*7C
$GPGSV,5,2,17,13,28,177,34,14,12,110,31,15,27,214,32,18,06,218,*71
$GPGSV,5,3,17,20,51,107,39,22,21,091,29,24,58,295,36,29,12,277,*79
$GPGSV,5,4,17,36,52,277,34,40,86,350,40,41,58,082,38,49,32,274,*75
$GPGSV,5,5,17,50,10,089,*4A
$GLGSV,3,1,09,70,00,111,22,71,13,152,28,72,13,201,09,73,20,134,33*6D
$GLGSV,3,2,09,74,52,088,32,75,37,010,26,85,20,004,14,86,54,301,30*6B
$GLGSV,3,3,09,87,33,238,25*5D
$GNGLL,0419.89115,S,05539.91982,E,040225.00,A,D*67
$GNGRS,040225.00,1,-1.0,-1.2,0.4,2.9,-2.8,1.4,-1.5,9.5,1.4,,,*70
$GNGRS,040225.00,1,0.4,9.5,3.9,4.7,15.4,-4.3,-5.0,7.7,,,,*62
$GNGST,040225.00,8480,,,,2.0,1.7,3.7*4C
$GNZDA,040225.00,23,05,2025,00,00*78
$GNGBS,040225.00,2.0,1.7,3.7,,,,*5E
$GNTXT,01,01,01,More than 100 frame errors, UART RX was disabled*70
b0L',#-Z%nL-&3k[!:'
{4&V^!:R 
Y\FoG!\HI"DJ 4X=K%
UCV6-NW!br6C$GNRMC,040226.00,A,0419.89118,S,05539.91981,E,0.058,,230525,,,D*7D
$GNVTG,,T,,M,0.058,N,0.107,K,D*33
$GNGNS,040226.00,0419.89118,S,05539.91981,E,DA,17,0.60,14.0,-47.6,,0000*68
$GNGGA,040226.00,0419.89118,S,05539.91981,E,2,12,0.60,14.0,M,-47.6,M,,0000*41
$GNGSA,A,3,24,20,05,13,15,22,06,12,14,,,,1.23,0.60,1.07*1B
$GNGSA,A,3,86,74,75,87,85,73,71,72,,,,,1.23,0.60,1.07*16
$GPGSV,5,1,17,05,44,163,39,06,12,028,18,11,45,020,,12,16,346,20*72
$GPGSV,5,2,17,13,28,177,37,14,12,110,31,15,27,214,31,18,06,218,*71
$GPGSV,5,3,17,20,51,107,38,22,21,091,28,24,58,295,33,29,12,277,*7C
$GPGSV,5,4,17,36,52,277,31,40,86,350,38,41,58,082,33,49,32,274,*74
$GPGSV,5,5,17,50,10,089,*4A
$GLGSV,3,1,09,70,00,111,21,71,13,152,33,72,13,201,11,73,20,134,34*6A
$GLGSV,3,2,09,74,52,088,32,75,37,010,25,85,20,004,14,86,54,301,30*68
$GLGSV,3,3,09,87,33,238,25*5D
$GNGLL,0419.89118,S,05539.91981,E,040226.00,A,D*6A
$GNGRS,040226.00,1,-0.5,-1.0,0.4,2.6,0.5,9.5,-0.9,9.7,-1.8,,,*7F
$GNGRS,040226.00,1,0.8,8.3,2.1,4.1,13.5,-4.4,-4.2,7.6,,,,*67
$GNGST,040226.00,12719,,,,2.0,1.7,3.7*77
$GNZDA,040226.00,23,05,2025,00,00*7B
$GNGBS,040226.00,2.0,1.7,3.7,,,,*5D
$GNTXT,01,01,01,More than 100 frame errors, UART RX was disabled*70
b0L
#,4-Z6""n[*3k[$:'
{%4'V^&:R 
Y\FoGH-I!BJ 4XK%
UV!6-"W!b
r_$GNRMC,040227.00,A,0419.89120,S,05539.91977,E,0.028,,230525,,,D*79
$GNVTG,,T,,M,0.028,N,0.051,K,D*36
$GNGNS,040227.00,0419.89120,S,05539.91977,E,DA,17,0.64,14.0,-47.6,,0000*6F
$GNGGA,040227.00,0419.89120,S,05539.91977,E,2,12,0.64,14.0,M,-47.6,M,,0000*46
$GNGSA,A,3,24,20,05,13,15,22,06,12,14,,,,1.32,0.64,1.15*1C
$GNGSA,A,3,86,74,75,87,85,73,71,72,,,,,1.32,0.64,1.15*11
$GPGSV,5,1,17,05,44,163,35,06,12,028,22,11,45,020,,12,16,346,19*7D
$GPGSV,5,2,17,13,28,177,34,14,12,110,34,15,27,214,30,18,06,218,*76
$GPGSV,5,3,17,20,51,107,42,22,21,091,15,24,58,295,36,29,12,277,*7A
$GPGSV,5,4,17,36,52,277,37,40,86,350,39,41,58,082,38,49,32,274,*78
$GPGSV,5,5,17,50,10,089,*4A
$GLGSV,3,1,09,70,00,111,20,71,13,152,29,72,13,201,09,73,20,134,33*6E
$GLGSV,3,2,09,74,52,088,32,75,37,010,23,85,20,004,17,86,54,301,33*6E
$GLGSV,3,3,09,87,33,238,23*5B
$GNGLL,0419.89120,S,05539.91977,E,040227.00,A,D*69
$GNGRS,040227.00,1,-0.3,-1.0,0.5,2.6,0.0,10.0,-0.1,8.2,-4.2,,,*42
$GNGRS,040227.00,1,-2.2,7.6,2.0,5.0,14.6,-4.5,-2.7,74.7,,,,*7B
$GNGST,040227.00,43,,,,2.0,1.7,3.7*4D
$GNZDA,040227.00,23,05,2025,00,00*7A
$GNGBS,040227.00,2.0,1.7,3.7,,,,*5C
$GNTXT,01,01,01,More than 100 frame errors, UART RX was disabled*70
b0Lp&,#}-Z"!n)3k[1$:'
{$4'V^$:R 
Y \LFoGCHI!HJ 4XK%
QUV 6-W!ZE3bpr$GNRMC,040228.00,A,0419.89117,S,05539.91974,E,0.121,,230525,,,D*79
$GNVTG,,T,,M,0.121,N,0.224,K,D*3E
$GNGNS,040228.00,0419.89117,S,05539.91974,E,DA,17,0.60,13.8,-47.6,,0000*6C
$GNGGA,040228.00,0419.89117,S,05539.91974,E,2,12,0.60,13.8,M,-47.6,M,,0000*45
$GNGSA,A,3,24,20,05,13,15,22,06,12,14,,,,1.23,0.60,1.07*1B
$GNGSA,A,3,86,74,75,87,85,73,71,72,,,,,1.23,0.60,1.07*16
$GPGSV,5,1,17,05,44,163,38,06,12,028,23,11,45,020,,12,16,346,19*71
$GPGSV,5,2,17,13,28,177,34,14,12,110,33,15,27,214,29,18,06,218,*79
$GPGSV,5,3,17,20,51,107,41,22,21,091,29,24,58,295,36,29,12,277,*76
$GPGSV,5,4,17,36,52,277,36,40,86,350,39,41,58,082,36,49,32,274,*77
$GPGSV,5,5,17,50,10,089,*4A
$GLGSV,3,1,09,70,00,111,19,71,13,152,31,72,13,201,09,73,20,134,33*6D
$GLGSV,3,2,09,74,52,088,32,75,37,010,21,85,20,004,17,86,54,301,32*6D
$GLGSV,3,3,09,87,33,238,21*59
$GNGLL,0419.89117,S,05539.91974,E,040228.00,A,D*61
$GNGRS,040228.00,1,-0.4,-0.7,0.3,2.6,1.8,0.5,-1.3,7.1,-2.5,,,*79
$GNGRS,040228.00,1,-3.5,7.8,0.8,6.0,14.3,-4.4,-4.5,7.4,,,,*42
$GNGST,040228.00,2803859,,,,2.0,1.7,3.7*78
$GNZDA,040228.00,23,05,2025,00,00*75
$GNGBS,040228.00,2.0,1.7,3.7,,,,*53
$GNTXT,01,01,01,More than 100 frame errors, UART RX was disabled*70
b0LX#,-Z"L!n!)3k[#:'
{#4'V^&:R 
Y\lFoG`H
I!UJ 4YCK%
_UnV6-W!rbXr,$GNRMC,040229.00,A,0419.89117,S,05539.91973,E,0.005,,230525,,,D*78
$GNVTG,,T,,M,0.005,N,0.010,K,D*3C
$GNGNS,040229.00,0419.89117,S,05539.91973,E,DA,17,0.60,13.7,-47.6,,0000*65
$GNGGA,040229.00,0419.89117,S,05539.91973,E,2,12,0.60,13.7,M,-47.6,M,,0000*4C
$GNGSA,A,3,24,20,05,13,15,22,06,12,14,,,,1.23,0.60,1.07*1B
$GNGSA,A,3,86,74,75,87,85,73,71,72,,,,,1.23,0.60,1.07*16
$GPGSV,5,1,17,05,44,163,35,06,12,028,22,11,45,020,,12,16,346,19*7D
$GPGSV,5,2,17,13,28,177,34,14,12,110,33,15,27,214,29,18,06,218,*79
$GPGSV,5,3,17,20,51,107,41,22,21,091,19,24,58,295,35,29,12,277,*76
$GPGSV,5,4,17,36,52,277,35,40,86,350,39,41,58,082,38,49,32,274,*7A
$GPGSV,5,5,17,50,10,089,*4A
$GLGSV,3,1,09,70,00,111,18,71,13,152,30,72,13,201,10,73,20,134,33*65
$GLGSV,3,2,09,74,52,089,32,75,37,010,20,85,20,004,17,86,54,301,31*6E
$GLGSV,3,3,09,87,33,238,17*5C
$GNGLL,0419.89117,S,05539.91973,E,040229.00,A,D*67
$GNGRS,040229.00,1,-0.2,-0.6,0.1,3.3,0.3,2.3,-0.1,9.0,1.4,,,*54
$GNGRS,040229.00,1,-5.1,8.4,0.9,3.7,13.9,-4.3,-6.7,7.1,,,,*4E
$GNGST,040229.00,2803859,,,,2.0,1.7,3.7*79
$GNZDA,040229.00,23,05,2025,00,00*74
$GNGBS,040229.00,2.0,1.7,3.7,,,,*52
$GNTXT,01,01,01,More than 100 frame errors, UART RX was disabled*70
b0L@#,-Z"!n}'3k[$:'
{"4$V^':R 
Y\FoGH#I!UJ 4Y!K&
UV 6-W!Vb@r$GNRMC,040230.00,A,0419.89115,S,05539.91970,E,0.085,,230525,,,D*79
$GNVTG,,T,,M,0.085,N,0.158,K,D*39
$GNGNS,040230.00,0419.89115,S,05539.91970,E,DA,17,0.64,13.6,-47.6,,0000*69
$GNGGA,040230.00,0419.89115,S,05539.91970,E,2,12,0.64,13.6,M,-47.6,M,,0000*40
$GNGSA,A,3,24,20,05,13,15,22,06,12,14,,,,1.32,0.64,1.15*1C
$GNGSA,A,3,86,74,75,87,85,73,71,72,,,,,1.32,0.64,1.15*11
$GPGSV,5,1,17,05,44,163,35,06,12,028,22,11,45,020,,12,16,346,18*7C
$GPGSV,5,2,17,13,28,177,34,14,11,110,33,15,27,214,29,18,06,218,*7A
$GPGSV,5,3,17,20,51,107,39,22,21,091,24,24,58,295,36,29,12,277,*74
$GPGSV,5,4,17,36,52,277,34,40,86,350,36,41,58,082,39,49,32,274,*75
$GPGSV,5,5,17,50,10,089,*4A
$GLGSV,3,1,09,70,00,111,18,71,13,152,30,72,13,201,09,73,20,134,33*6D
$GLGSV,3,2,09,74,52,089,32,75,38,010,19,85,20,004,19,86,54,301,32*66
$GLGSV,3,3,09,87,33,238,18*53
$GNGLL,0419.89115,S,05539.91970,E,040230.00,A,D*6E
$GNGRS,040230.00,1,-0.4,-0.6,0.1,2.8,-3.6,-1.1,2.0,9.8,1.3,,,*76
$GNGRS,040230.00,1,-1.0,8.0,-1.1,3.4,14.5,-4.3,-5.5,89.8,,,,*55
$GNGST,040230.00,36,,,,2.0,1.7,3.7*49
$GNZDA,040230.00,23,05,2025,00,00*7C
$GNGBS,040230.00,2.0,1.7,3.7,,,,*5A
$GNTXT,01,01,01,More than 100 frame errors, UART RX was disabled*70
b0L(',-Z#"n!p(3k[@!:'
{4'V^&:R 
Y!\UFoG"HI 8J 4Y'K&
MUV6-W!jab(rz$GNRMC,040231.00,A,0419.89111,S,05539.91966,E,0.087,,230525,,,D*79
$GNVTG,,T,,M,0.087,N,0.160,K,D*30
$GNGNS,040231.00,0419.89111,S,05539.91966,E,DA,17,0.60,13.5,-47.6,,0000*6C
$GNGGA,040231.00,0419.89111,S,05539.91966,E,2,12,0.60,13.5,M,-47.6,M,,0000*45
$GNGSA,A,3,24,20,05,13,15,22,06,12,14,,,,1.23,0.60,1.07*1B
$GNGSA,A,3,86,74,75,87,85,73,71,72,,,,,1.23,0.60,1.07*16
$GPGSV,5,1,17,05,44,163,39,06,12,028,22,11,45,020,,12,16,346,19*71
$GPGSV,5,2,17,13,28,177,35,14,11,110,34,15,27,214,33,18,06,218,*77
$GPGSV,5,3,17,20,51,107,40,22,21,091,25,24,58,295,33,29,12,277,*7E
$GPGSV,5,4,17,36,52,277,29,40,86,350,39,41,58,082,38,49,32,274,*77
$GPGSV,5,5,17,50,10,089,*4A
$GLGSV,3,1,09,70,00,111,19,71,13,152,34,72,13,201,09,73,20,134,32*69
$GLGSV,3,2,09,74,52,089,32,75,38,010,18,85,20,004,20,86,54,301,27*69
$GLGSV,3,3,09,87,33,238,23*5B
$GNGLL,0419.89111,S,05539.91966,E,040231.00,A,D*6C
$GNGRS,040231.00,1,-0.9,-0.4,0.0,4.8,-1.4,5.8,1.3,7.4,0.3,,,*5C
$GNGRS,040231.00,1,4.1,8.1,-1.8,4.1,14.6,-4.6,-3.6,7.5,,,,*4F
$GNGST,040231.00,96100,,,,2.0,1.7,3.7*73
$GNZDA,040231.00,23,05,2025,00,00*7D
$GNGBS,040231.00,2.0,1.7,3.7,,,,*5B
$GNTXT,01,01,01,More than 100 frame errors, UART RX was disabled*70
b0L&,#R-Z#$!nn!\(3k[@!:'
{4'V^&:R 
Y\FoG"HI ?J 4Y4K&
zU{V6-W!ObrRd$GNRMC,040232.00,A,0419.89110,S,05539.91961,E,0.058,,230525,,,D*7E
$GNVTG,,T,,M,0.058,N,0.107,K,D*33
$GNGNS,040232.00,0419.89110,S,05539.91961,E,DA,17,0.60,13.4,-47.6,,0000*68
$GNGGA,040232.00,0419.89110,S,05539.91961,E,2,12,0.60,13.4,M,-47.6,M,,0000*41
$GNGSA,A,3,24,20,05,13,15,22,06,12,14,,,,1.23,0.60,1.07*1B
$GNGSA,A,3,86,74,75,87,85,73,71,72,,,,,1.23,0.60,1.07*16
$GPGSV,5,1,17,05,44,163,38,06,12,028,22,11,45,020,,12,16,346,20*7A
$GPGSV,5,2,17,13,28,177,36,14,11,110,33,15,27,214,33,18,06,218,*73
$GPGSV,5,3,17,20,51,107,40,22,21,091,26,24,58,295,33,29,12,277,*7D
$GPGSV,5,4,17,36,52,277,29,40,86,350,39,41,58,082,38,49,32,274,*77
$GPGSV,5,5,17,50,10,089,*4A
$GLGSV,3,1,09,70,00,111,20,71,13,152,34,72,13,201,09,73,20,134,32*63
$GLGSV,3,2,09,74,52,089,32,75,38,010,19,85,20,004,20,86,54,301,27*68
$GLGSV,3,3,09,87,33,238,25*5D
$GNGLL,0419.89110,S,05539.91961,E,040232.00,A,D*69
$GNGRS,040232.00,1,-0.8,-0.6,0.4,4.5,0.9,5.8,0.8,8.0,1.1,,,*76
$GNGRS,040232.00,1,4.9,8.2,-3.9,5.9,14.0,-4.5,-0.7,7.2,,,,*4D
$GNGST,040232.00,141324,,,,2.0,1.7,3.6*4E
$GNZDA,040232.00,23,05,2025,00,00*7E
$GNGBS,040232.00,2.0,1.7,3.6,,,,*59
$GNTXT,01,01,01,More than 100 frame errors, UART RX was disabled*70
b0L!&,+-Z$
!n!'3k[m":'
{4'V^&:R 
Y\!FoG"dHI!KJ 4YUK&
`UV6-+W!gub!r)$GNRMC,040233.00,A,0419.89107,S,05539.91957,E,0.048,,230525,,,D*7D
$GNVTG,,T,,M,0.048,N,0.089,K,D*35
$GNGNS,040233.00,0419.89107,S,05539.91957,E,DA,16,0.64,13.2,-47.6,,0000*69
$GNGGA,040233.00,0419.89107,S,05539.91957,E,2,12,0.64,13.2,M,-47.6,M,,0000*41
$GNGSA,A,3,24,20,05,13,15,22,06,12,14,,,,1.32,0.64,1.15*1C
$GNGSA,A,3,86,74,75,87,85,73,71,,,,,,1.32,0.64,1.15*14
$GPGSV,5,1,17,05,44,163,38,06,12,028,22,11,45,020,,12,16,346,21*7B
$GPGSV,5,2,17,13,28,177,36,14,11,110,33,15,27,214,33,18,06,218,*73
$GPGSV,5,3,17,20,51,107,39,22,21,091,27,24,58,295,34,29,12,277,*75
$GPGSV,5,4,17,36,52,277,28,40,86,350,39,41,58,082,38,49,32,274,*76
$GPGSV,5,5,17,50,10,089,*4A
$GLGSV,3,1,09,70,00,111,20,71,13,152,34,72,13,201,09,73,20,134,33*62
$GLGSV,3,2,09,74,52,089,32,75,38,010,20,85,20,004,20,86,54,301,28*6D
$GLGSV,3,3,09,87,33,238,26*5E
$GNGLL,0419.89107,S,05539.91957,E,040233.00,A,D*6B
$GNGRS,040233.00,1,-0.6,-0.7,0.4,2.7,1.8,1.1,-0.4,7.2,1.3,,,*5F
$GNGRS,040233.00,1,0.4,8.5,-4.2,6.1,13.1,-4.4,-4.1,,,,,*6B
$GNGST,040233.00,30,,,,2.0,1.7,3.6*4D
$GNZDA,040233.00,23,05,2025,00,00*7F
$GNGBS,040233.00,2.0,1.7,3.6,,,,*58
$GNTXT,01,01,01,More than 100 frame errors, UART RX was disabled*70
b0L%&,M-Zs$F n '3k[<#:'
{4'V^&:R 
Y\ZFoG"JHI!=J 4YYK&
UV6-{W!Tb%rv%$GNRMC,040234.00,A,0419.89108,S,05539.91955,E,0.049,,230525,,,D*76
$GNVTG,,T,,M,0.049,N,0.090,K,D*3C
$GNGNS,040234.00,0419.89108,S,05539.91955,E,DA,16,0.64,13.2,-47.6,,0000*63
$GNGGA,040234.00,0419.89108,S,05539.91955,E,2,12,0.64,13.2,M,-47.6,M,,0000*4B
$GNGSA,A,3,24,20,05,13,15,22,06,12,14,,,,1.32,0.64,1.15*1C
$GNGSA,A,3,86,74,75,87,85,73,71,,,,,,1.32,0.64,1.15*14
$GPGSV,5,1,17,05,44,163,38,06,12,028,22,11,45,020,,12,16,346,22*78
$GPGSV,5,2,17,13,28,177,36,14,11,110,32,15,27,214,32,18,06,218,*73
$GPGSV,5,3,17,20,51,107,39,22,21,091,27,24,58,295,35,29,12,277,*74
$GPGSV,5,4,17,36,52,277,28,40,86,350,39,41,58,082,38,49,32,274,*76
$GPGSV,5,5,17,50,10,089,*4A
$GLGSV,3,1,09,70,00,111,19,71,13,152,34,72,13,201,09,73,20,134,33*68
$GLGSV,3,2,09,74,52,089,32,75,38,010,22,85,20,004,20,86,54,301,28*6F
$GLGSV,3,3,09,87,33,238,26*5E
$GNGLL,0419.89108,S,05539.91955,E,040234.00,A,D*61
$GNGRS,040234.00,1,-0.4,-0.6,0.8,3.3,-0.4,0.6,-0.9,6.3,1.3,,,*79
$GNGRS,040234.00,1,-1.3,8.6,-8.8,2.3,12.1,-4.5,-4.4,,,,,*41
$GNGST,040234.00,31,,,,2.0,1.7,3.6*4B
$GNZDA,040234.00,23,05,2025,00,00*78
$GNGBS,040234.00,2.0,1.7,3.6,,,,*5F
$GNTXT,01,01,01,More than 100 frame errors, UART RX was disabled*70
b0L)$,h-Z#9n'3k[#:'
{!4)V^&:R 
Y\FoGHI"ZJ 4YK&
U
V6-dW!Khb)r^$GNRMC,040235.00,A,0419.89112,S,05539.91953,E,0.040,,230525,,,D*73
$GNVTG,,T,,M,0.040,N,0.074,K,D*3F
$GNGNS,040235.00,0419.89112,S,05539.91953,E,DA,16,0.64,13.3,-47.6,,0000*6E
$GNGGA,040235.00,0419.89112,S,05539.91953,E,2,12,0.64,13.3,M,-47.6,M,,0000*46
$GNGSA,A,3,24,20,05,13,15,22,06,12,14,,,,1.32,0.64,1.15*1C
$GNGSA,A,3,86,74,75,87,85,73,71,,,,,,1.32,0.64,1.15*14
$GPGSV,5,1,17,05,44,163,36,06,12,028,21,11,45,020,,12,16,346,23*74
$GPGSV,5,2,17,13,28,177,35,14,11,110,31,15,27,214,31,18,06,218,*70
$GPGSV,5,3,17,20,51,107,39,22,21,091,27,24,58,295,35,29,12,277,*74
$GPGSV,5,4,17,36,52,277,33,40,86,350,41,41,58,082,38,49,32,274,*73
$GPGSV,5,5,17,50,10,089,*4A
$GLGSV,3,1,09,70,00,111,18,71,13,152,30,72,13,201,11,73,20,134,34*63
$GLGSV,3,2,09,74,52,089,32,75,38,010,25,85,20,004,19,86,54,301,29*63
$GLGSV,3,3,09,87,33,238,26*5E
$GNGLL,0419.89112,S,05539.91953,E,040235.00,A,D*6D
$GNGRS,040235.00,1,-0.4,-0.7,1.0,3.1,1.6,1.4,-3.4,4.3,1.4,,,*54
$GNGRS,040235.00,1,-1.6,5.2,-10.2,0.8,12.9,-4.2,-3.7,,,,,*7D
$GNGST,040235.00,30,,,,2.0,1.7,3.7*4A
$GNZDA,040235.00,23,05,2025,00,00*79
$GNGBS,040235.00,2.0,1.7,3.7,,,,*5F
$GNTXT,01,01,01,More than 100 frame errors, UART RX was disabled*70
b0L-$,kk-Z}"n}'3k[1#:'
{"4)V^':R 
Y\2FoGH,I!hJ!4Y@K&
UV6-W!-b-rF$GNRMC,040236.00,A,0419.89115,S,05539.91951,E,0.071,,230525,,,D*77
$GNVTG,,T,,M,0.071,N,0.132,K,D*3E
$GNGNS,040236.00,0419.89115,S,05539.91951,E,DA,17,0.64,13.3,-47.6,,0000*69
$GNGGA,040236.00,0419.89115,S,05539.91951,E,2,12,0.64,13.3,M,-47.6,M,,0000*40
$GNGSA,A,3,24,20,05,13,15,22,06,12,14,,,,1.32,0.64,1.15*1C
$GNGSA,A,3,86,74,75,87,85,73,71,72,,,,,1.32,0.64,1.15*11
$GPGSV,5,1,17,05,44,163,36,06,12,028,21,11,45,020,,12,16,346,22*75
$GPGSV,5,2,17,13,28,177,34,14,11,110,31,15,27,214,30,18,06,218,*70
$GPGSV,5,3,17,20,51,107,39,22,21,091,28,24,58,295,35,29,12,277,*7B
$GPGSV,5,4,17,36,52,277,34,40,86,350,41,41,58,082,39,49,32,274,*75
$GPGSV,5,5,17,50,10,089,*4A
$GLGSV,3,1,09,70,00,111,19,71,13,152,30,72,13,201,11,73,20,134,33*65
$GLGSV,3,2,09,74,52,089,33,75,38,010,25,85,20,004,19,86,54,301,29*62
$GLGSV,3,3,09,87,33,238,26*5E
$GNGLL,0419.89115,S,05539.91951,E,040236.00,A,D*6B
$GNGRS,040236.00,1,-0.7,-1.0,1.1,2.0,1.5,3.1,-1.5,1.2,1.3,,,*57
$GNGRS,040236.00,1,0.0,10.9,-8.9,0.4,12.3,-4.1,-0.3,114,,,,*6F
$GNGST,040236.00,30,,,,2.0,1.7,3.7*49
$GNZDA,040236.00,23,05,2025,00,00*7A
$GNGBS,040236.00,2.0,1.7,3.7,,,,*5C
$GNTXT,01,01,01,More than 100 frame errors, UART RX was disabled*70
b0L1$,_F-Z9"nS'3k[#:'
{"4(V^':R 
Y\FoGHI"dJ!4Y_K&
UV6-CW!fb1r.]$GNRMC,040237.00,A,0419.89116,S,05539.91949,E,0.044,,230525,,,D*7A
$GNVTG,,T,,M,0.044,N,0.081,K,D*31
$GNGNS,040237.00,0419.89116,S,05539.91949,E,DA,17,0.60,13.2,-47.6,,0000*67
$GNGGA,040237.00,0419.89116,S,05539.91949,E,2,12,0.60,13.2,M,-47.6,M,,0000*4E
$GNGSA,A,3,24,20,05,13,15,22,06,12,14,,,,1.23,0.60,1.07*1B
$GNGSA,A,3,86,74,75,87,85,73,71,72,,,,,1.23,0.60,1.07*16
$GPGSV,5,1,17,05,44,163,36,06,12,028,20,11,45,020,,12,16,346,22*74
$GPGSV,5,2,17,13,28,177,34,14,11,110,30,15,27,214,30,18,06,218,*71
$GPGSV,5,3,17,20,51,107,39,22,21,091,29,24,58,295,35,29,12,277,*7A
$GPGSV,5,4,17,36,52,277,34,40,86,350,40,41,58,082,39,49,32,274,*74
$GPGSV,5,5,17,50,10,089,*4A
$GLGSV,3,1,09,70,00,111,20,71,13,152,30,72,13,201,11,73,20,134,34*68
$GLGSV,3,2,09,74,52,089,33,75,38,010,25,85,20,004,19,86,54,301,29*62
$GLGSV,3,3,09,87,33,238,26*5E
$GNGLL,0419.89116,S,05539.91949,E,040237.00,A,D*60
$GNGRS,040237.00,1,-0.4,-0.8,1.0,2.3,-1.7,0.2,-1.9,0.6,1.8,,,*73
$GNGRS,040237.00,1,3.2,8.6,-8.2,2.0,12.8,-4.1,0.3,7.5,,,,*6A
$GNGST,040237.00,2803859,,,,2.1,1.7,3.7*77
$GNZDA,040237.00,23,05,2025,00,00*7B
$GNGBS,040237.00,2.1,1.7,3.7,,,,*5C
$GNTXT,01,01,01,More than 100 frame errors, UART RX was disabled*70
b0L5$,RS-Z!n{]'3k[$:'
{"4)V^':R 
Y\FoGHI"aJ!4YK&
"UV6-)W!pb5ra$GNRMC,040238.00,A,0419.89117,S,05539.91949,E,0.045,,230525,,,D*75
$GNVTG,,T,,M,0.045,N,0.084,K,D*35
$GNGNS,040238.00,0419.89117,S,05539.91949,E,DA,17,0.60,13.2,-47.6,,0000*69
$GNGGA,040238.00,0419.89117,S,05539.91949,E,2,12,0.60,13.2,M,-47.6,M,,0000*40
$GNGSA,A,3,24,20,05,13,15,22,06,12,14,,,,1.23,0.60,1.07*1B
$GNGSA,A,3,86,74,75,87,85,73,71,72,,,,,1.23,0.60,1.07*16
$GPGSV,5,1,17,05,44,163,36,06,12,028,20,11,45,020,,12,16,346,21*77
$GPGSV,5,2,17,13,28,177,33,14,11,110,30,15,27,214,30,18,06,218,*76
$GPGSV,5,3,17,20,51,107,39,22,21,091,29,24,58,295,36,29,12,277,*79
$GPGSV,5,4,17,36,52,277,34,40,86,350,41,41,58,082,39,49,32,274,*75
$GPGSV,5,5,17,50,10,089,*4A
$GLGSV,3,1,09,70,00,111,21,71,13,152,31,72,13,201,11,73,20,134,34*68
$GLGSV,3,2,09,74,52,089,33,75,38,010,26,85,20,004,19,86,54,301,30*69
$GLGSV,3,3,09,87,33,238,26*5E
$GNGLL,0419.89117,S,05539.91949,E,040238.00,A,D*6E
$GNGRS,040238.00,1,-0.4,-0.6,0.8,2.2,-1.6,2.6,-1.7,0.0,3.8,,,*77
$GNGRS,040238.00,1,5.5,7.8,-7.3,2.3,12.0,-4.1,-3.5,7.2,,,,*4F
$GNGST,040238.00,2803859,,,,2.1,1.7,3.8*77
$GNZDA,040238.00,23,05,2025,00,00*74
$GNGBS,040238.00,2.1,1.7,3.8,,,,*5C
$GNTXT,01,01,01,More than 100 frame errors, UART RX was disabled*70
b0Lh9$,XG-Z!nZ'3k[$:'
{"4)V^':R 
Y\FoG4H9I"qJ!4YoK&
UV6-SW!.bh9r8*$GNRMC,040239.00,A,0419.89117,S,05539.91947,E,0.012,,230525,,,D*78
$GNVTG,,T,,M,0.012,N,0.022,K,D*3B
$GNGNS,040239.00,0419.89117,S,05539.91947,E,DA,17,0.64,13.2,-47.6,,0000*62
$GNGGA,040239.00,0419.89117,S,05539.91947,E,2,12,0.64,13.2,M,-47.6,M,,0000*4B
$GNGSA,A,3,24,20,05,13,15,22,06,12,14,,,,1.32,0.64,1.15*1C
$GNGSA,A,3,86,74,75,87,85,73,71,72,,,,,1.32,0.64,1.15*11
$GPGSV,5,1,17,05,44,163,36,06,12,028,20,11,45,020,,12,16,346,22*74
$GPGSV,5,2,17,13,28,177,33,14,11,110,30,15,27,214,30,18,06,218,*76
$GPGSV,5,3,17,20,51,107,39,22,21,091,29,24,58,295,36,29,12,277,*79
$GPGSV,5,4,17,36,52,277,34,40,86,350,41,41,58,082,39,49,32,274,*75
$GPGSV,5,5,17,50,10,089,*4A
$GLGSV,3,1,09,70,00,111,21,71,13,152,31,72,13,201,12,73,20,134,34*6B
$GLGSV,3,2,09,74,52,089,33,75,38,010,26,85,20,004,20,86,54,301,30*63
$GLGSV,3,3,09,87,33,238,25*5D
$GNGLL,0419.89117,S,05539.91947,E,040239.00,A,D*61
$GNGRS,040239.00,1,-0.4,-0.7,0.9,2.0,6.0,-2.5,-1.9,0.2,6.8,,,*7F
$GNGRS,040239.00,1,3.4,8.8,-6.0,4.1,9.4,-4.0,-7.2,-99.3,,,,*67
$GNGST,040239.00,31,,,,2.1,1.7,3.8*49
$GNZDA,040239.00,23,05,2025,00,00*75
$GNGBS,040239.00,2.1,1.7,3.8,,,,*5D
$GNTXT,01,01,01,More than 100 frame errors, UART RX was disabled*70
b0LP=$,O-Z!n'3k[a$:'
{"4(V^':R 
Y\FoGwHI"rJ!4YK&
UDV6-W!<mubP=r$GNRMC,040240.00,A,0419.89118,S,05539.91946,E,0.009,,230525,,,D*72
$GNVTG,,T,,M,0.009,N,0.016,K,D*36
$GNGNS,040240.00,0419.89118,S,05539.91946,E,DA,17,0.60,13.3,-47.6,,0000*67
$GNGGA,040240.00,0419.89118,S,05539.91946,E,2,12,0.60,13.3,M,-47.6,M,,0000*4E
$GNGSA,A,3,24,20,05,13,15,22,06,12,14,,,,1.23,0.60,1.07*1B
$GNGSA,A,3,86,74,75,87,85,73,71,72,,,,,1.23,0.60,1.07*16
$GPGSV,5,1,17,05,44,163,36,06,12,028,20,11,45,020,,12,16,346,22*74
$GPGSV,5,2,17,13,28,177,33,14,11,110,31,15,27,214,30,18,06,218,*77
$GPGSV,5,3,17,20,51,107,39,22,21,091,29,24,58,295,36,29,12,277,*79
$GPGSV,5,4,17,36,52,277,34,40,86,350,40,41,58,082,39,49,32,274,*74
$GPGSV,5,5,17,50,10,089,*4A
$GLGSV,3,1,09,70,00,111,21,71,13,152,31,72,13,201,12,73,20,134,34*6B
$GLGSV,3,2,09,74,52,089,33,75,38,010,26,85,19,005,19,86,54,301,30*62
$GLGSV,3,3,09,87,33,238,25*5D
$GNGLL,0419.89118,S,05539.91946,E,040240.00,A,D*61
$GNGRS,040240.00,1,-0.5,-0.7,0.8,2.1,-0.3,1.0,-2.3,-1.2,0.2,,,*5A
$GNGRS,040240.00,1,-0.1,7.8,-5.1,3.2,8.4,-4.0,-6.5,7.7,,,,*52
$GNGST,040240.00,2803859,,,,2.1,1.7,3.8*78
$GNZDA,040240.00,23,05,2025,00,00*7B
$GNGBS,040240.00,2.1,1.7,3.8,,,,*53
$GNTXT,01,01,01,More than 100 frame errors, UART RX was disabled*70
b0L8A$,^-Z!nw'3k[$:'
{"4)V^':R 
Y\^FoG2HI"oJ 4YK&
UV5.W!b8Ar$GNRMC,040241.00,A,0419.89118,S,05539.91945,E,0.017,,230525,,,D*7F
$GNVTG,,T,,M,0.017,N,0.031,K,D*3C
$GNGNS,040241.00,0419.89118,S,05539.91945,E,DA,17,0.60,13.2,-47.6,,0000*64
$GNGGA,040241.00,0419.89118,S,05539.91945,E,2,12,0.60,13.2,M,-47.6,M,,0000*4D
$GNGSA,A,3,24,20,05,13,15,22,06,12,14,,,,1.23,0.60,1.07*1B
$GNGSA,A,3,86,74,75,87,85,73,71,72,,,,,1.23,0.60,1.07*16
$GPGSV,5,1,17,05,44,163,36,06,12,028,21,11,45,020,,12,16,346,21*76
$GPGSV,5,2,17,13,28,177,33,14,11,110,30,15,27,214,30,18,06,218,*76
$GPGSV,5,3,17,20,51,107,39,22,21,091,30,24,58,295,36,29,12,277,*71
$GPGSV,5,4,17,36,52,277,34,40,86,350,41,41,58,082,39,49,32,274,*75
$GPGSV,5,5,17,50,10,089,*4A
$GLGSV,3,1,09,70,00,111,22,71,13,152,31,72,13,201,08,73,20,134,34*63
$GLGSV,3,2,09,74,52,089,32,75,38,010,26,85,19,005,20,86,53,302,30*6D
$GLGSV,3,3,09,87,33,238,25*5D
$GNGLL,0419.89118,S,05539.91945,E,040241.00,A,D*63
$GNGRS,040241.00,1,-0.2,-0.7,0.9,2.2,-0.8,-0.8,-3.5,-0.8,1.2,,,*7C
$GNGRS,040241.00,1,4.0,9.0,-5.1,1.9,4.4,-4.0,0.5,7.5,,,,*51
$GNGST,040241.00,2803859,,,,2.1,1.7,3.8*79
$GNZDA,040241.00,23,05,2025,00,00*7A
$GNGBS,040241.00,2.1,1.7,3.8,,,,*52
$GNTXT,01,01,01,More than 100 frame errors, UART RX was disabled*70
b0L E$,k`-ZU"n'3k[+$:'
{"4)V^':R 
Y\FoGH-I"\J 4Y,K&
5U~V5. W!b Erb$GNRMC,040242.00,A,0419.89117,S,05539.91944,E,0.041,,230525,,,D*71
$GNVTG,,T,,M,0.041,N,0.076,K,D*3C
$GNGNS,040242.00,0419.89117,S,05539.91944,E,DA,16,0.64,13.3,-47.6,,0000*6D
$GNGGA,040242.00,0419.89117,S,05539.91944,E,2,12,0.64,13.3,M,-47.6,M,,0000*45
$GNGSA,A,3,24,20,05,13,15,22,06,12,14,,,,1.32,0.64,1.15*1C
$GNGSA,A,3,86,74,75,87,85,73,71,,,,,,1.32,0.64,1.15*14
$GPGSV,5,1,17,05,44,163,36,06,12,028,21,11,45,020,,12,16,346,22*75
$GPGSV,5,2,17,13,28,177,34,14,11,110,30,15,27,214,31,18,06,218,*70
$GPGSV,5,3,17,20,51,107,39,22,21,091,30,24,58,295,36,29,12,277,*71
$GPGSV,5,4,17,36,52,277,34,40,86,350,41,41,58,082,39,49,32,274,*75
$GPGSV,5,5,17,50,10,089,*4A
$GLGSV,3,1,09,70,00,111,22,71,13,152,31,72,13,201,07,73,20,134,34*6C
$GLGSV,3,2,09,74,52,089,32,75,38,010,26,85,19,005,21,86,53,302,30*6C
$GLGSV,3,3,09,87,33,239,25*5C
$GNGLL,0419.89117,S,05539.91944,E,040242.00,A,D*6E
$GNGRS,040242.00,1,-0.5,-0.5,1.1,2.4,-2.8,0.4,-4.2,0.8,1.4,,,*7D
$GNGRS,040242.00,1,2.9,8.1,-4.6,2.5,3.8,-4.2,-3.6,,,,,*5C
$GNGST,040242.00,29,,,,2.1,1.7,3.8*4C
$GNZDA,040242.00,23,05,2025,00,00*79
$GNGBS,040242.00,2.1,1.7,3.8,,,,*51
$GNTXT,01,01,01,More than 100 frame errors, UART RX was disabled*70
b0LI$,xz-Z# n)3k[#:'
{#4)V^&:R 
Y\ZFoG H
I"\J!4YKK&
/UV5.OW!9bIr$GNRMC,040243.00,A,0419.89116,S,05539.91937,E,0.053,,230525,,,D*76
$GNVTG,,T,,M,0.053,N,0.097,K,D*30
$GNGNS,040243.00,0419.89116,S,05539.91937,E,DA,16,0.64,13.0,-47.6,,0000*6A
$GNGGA,040243.00,0419.89116,S,05539.91937,E,2,12,0.64,13.0,M,-47.6,M,,0000*42
$GNGSA,A,3,24,20,05,13,15,22,06,12,14,,,,1.32,0.64,1.15*1C
$GNGSA,A,3,86,74,75,87,85,73,71,,,,,,1.32,0.64,1.15*14
$GPGSV,5,1,17,05,44,163,36,06,12,028,21,11,45,020,,12,16,346,23*74
$GPGSV,5,2,17,13,28,177,35,14,11,110,32,15,27,214,31,18,06,218,*73
$GPGSV,5,3,17,20,51,107,41,22,21,091,30,24,58,295,35,29,12,277,*7D
$GPGSV,5,4,17,36,52,277,35,40,86,350,41,41,58,082,38,49,32,274,*75
$GPGSV,5,5,17,50,10,089,*4A
$GLGSV,3,1,09,70,00,111,22,71,13,152,32,72,13,201,10,73,20,134,34*69
$GLGSV,3,2,09,74,52,089,33,75,38,010,27,85,19,005,21,86,53,302,31*6D
$GLGSV,3,3,09,87,33,239,27*5E
$GNGLL,0419.89116,S,05539.91937,E,040243.00,A,D*6A
$GNGRS,040243.00,1,-0.8,-1.2,1.2,2.3,2.1,-0.5,-3.9,1.4,2.3,,,*7E
$GNGRS,040243.00,1,5.9,8.4,-4.6,3.1,5.1,-4.2,-0.6,,,,,*56
$GNGST,040243.00,28,,,,2.1,1.7,3.8*4C
$GNZDA,040243.00,23,05,2025,00,00*78
$GNGBS,040243.00,2.1,1.7,3.8,,,,*50
$GNTXT,01,01,01,More than 100 frame errors, UART RX was disabled*70
b0LL&,ez-Z% n"H(3k[&:'
{#4*V^&:R 
Y\FoG!)H
I"7J 4YRK&
U)V 5.W!9YWbLro#$GNRMC,040244.00,A,0419.89122,S,05539.91936,E,0.068,,230525,,,D*7F
$GNVTG,,T,,M,0.068,N,0.125,K,D*30
$GNGNS,040244.00,0419.89122,S,05539.91936,E,DA,16,0.64,13.1,-47.6,,0000*6A
$GNGGA,040244.00,0419.89122,S,05539.91936,E,2,12,0.64,13.1,M,-47.6,M,,0000*42
$GNGSA,A,3,24,20,05,13,15,22,06,12,14,,,,1.32,0.64,1.15*1C
$GNGSA,A,3,86,74,75,87,85,73,71,,,,,,1.32,0.64,1.15*14
$GPGSV,5,1,17,05,44,163,38,06,12,028,24,11,45,020,,12,16,346,23*7F
$GPGSV,5,2,17,13,28,177,37,14,11,110,32,15,27,214,34,18,06,218,*74
$GPGSV,5,3,17,20,51,107,40,22,21,091,29,24,58,295,38,29,12,277,*79
$GPGSV,5,4,17,36,52,277,35,40,86,350,42,41,58,082,38,49,32,274,*76
$GPGSV,5,5,17,50,10,089,*4A
$GLGSV,3,1,09,70,00,111,23,71,13,152,33,72,13,201,10,73,20,134,34*69
$GLGSV,3,2,09,74,52,089,32,75,38,010,26,85,19,005,22,86,53,302,32*6D
$GLGSV,3,3,09,87,33,239,26*5F
$GNGLL,0419.89122,S,05539.91936,E,040244.00,A,D*6B
$GNGRS,040244.00,1,-1.2,-0.8,1.0,1.8,0.7,-1.1,-3.9,-0.7,5.4,,,*5D
$GNGRS,040244.00,1,6.5,8.5,-5.6,3.1,5.5,-4.6,-2.1,,,,,*5B
$GNGST,040244.00,27,,,,2.0,1.6,3.8*44
$GNZDA,040244.00,23,05,2025,00,00*7F
$GNGBS,040244.00,2.0,1.6,3.8,,,,*57
$GNTXT,01,01,01,More than 100 frame errors, UART RX was disabled*70
b0LP%,lz-Z% n?"(3k[%:'
{&4*V^(:R 
Y\FoG WH`I!7J!4YmK&
QUV!5.W!,bPrnG$GNRMC,040245.00,A,0419.89127,S,05539.91935,E,0.003,,230525,,,D*75
$GNVTG,,T,,M,0.003,N,0.005,K,D*3E
$GNGNS,040245.00,0419.89127,S,05539.91935,E,DA,17,0.64,13.1,-47.6,,0000*6C
$GNGGA,040245.00,0419.89127,S,05539.91935,E,2,12,0.64,13.1,M,-47.6,M,,0000*45
$GNGSA,A,3,24,20,05,13,15,22,06,12,14,,,,1.32,0.64,1.15*1C
$GNGSA,A,3,86,74,75,87,85,73,71,72,,,,,1.32,0.64,1.15*11
$GPGSV,5,1,17,05,44,163,37,06,12,028,24,11,45,020,,12,16,346,22*71
$GPGSV,5,2,17,13,28,177,37,14,11,110,32,15,27,214,34,18,06,218,*74
$GPGSV,5,3,17,20,51,107,40,22,21,091,31,24,58,295,37,29,12,277,*7F
$GPGSV,5,4,17,36,52,277,38,40,86,350,42,41,58,082,40,49,32,274,*74
$GPGSV,5,5,17,50,10,089,*4A
$GLGSV,3,1,09,70,00,111,22,71,13,152,32,72,13,201,09,73,20,134,33*66
$GLGSV,3,2,09,74,52,089,33,75,38,010,26,85,19,005,23,86,53,302,33*6C
$GLGSV,3,3,09,87,33,239,28*51
$GNGLL,0419.89127,S,05539.91935,E,040245.00,A,D*6C
$GNGRS,040245.00,1,-0.9,-0.6,1.1,2.0,-0.1,-1.2,-3.9,-2.3,-1.9,,,*58
$GNGRS,040245.00,1,-2.5,8.8,-6.9,3.0,2.4,-4.6,-4.3,-140,,,,*69
$GNGST,040245.00,26,,,,2.0,1.6,3.8*44
$GNZDA,040245.00,23,05,2025,00,00*7E
$GNGBS,040245.00,2.0,1.6,3.8,,,,*56
$GNTXT,01,01,01,More than 100 frame errors, UART RX was disabled*70
b0LT",l-Z$ n#(3k#[%:'
{&4)V^(:R 
Y\rFoG#HI"9J"4YWK&
wUV"5.W![`bTrV$GNRMC,040246.00,A,0419.89131,S,05539.91933,E,0.049,,230525,,,D*79
$GNVTG,,T,,M,0.049,N,0.091,K,D*3D
$GNGNS,040246.00,0419.89131,S,05539.91933,E,DA,17,0.60,13.2,-47.6,,0000*69
$GNGGA,040246.00,0419.89131,S,05539.91933,E,2,12,0.60,13.2,M,-47.6,M,,0000*40
$GNGSA,A,3,24,20,05,13,15,22,06,12,14,,,,1.23,0.60,1.07*1B
$GNGSA,A,3,86,74,75,87,85,73,71,72,,,,,1.23,0.60,1.07*16
$GPGSV,5,1,17,05,44,163,34,06,12,028,25,11,45,020,,12,16,346,21*70
$GPGSV,5,2,17,13,28,177,36,14,11,110,32,15,27,214,35,18,06,218,*74
$GPGSV,5,3,17,20,51,107,40,22,21,091,35,24,58,295,37,29,12,277,*7B
$GPGSV,5,4,17,36,52,277,38,40,86,350,41,41,58,082,40,49,32,274,*77
$GPGSV,5,5,17,50,10,089,*4A
$GLGSV,3,1,09,70,00,111,23,71,13,152,35,72,13,201,07,73,20,134,34*69
$GLGSV,3,2,09,74,52,089,34,75,38,010,26,85,19,005,23,86,53,302,34*6C
$GLGSV,3,3,09,87,33,239,29*50
$GNGLL,0419.89131,S,05539.91933,E,040246.00,A,D*6E
$GNGRS,040246.00,1,-0.9,-0.7,1.1,1.8,-0.2,-2.4,-7.4,-2.5,-0.2,,,*52
$GNGRS,040246.00,1,-0.9,8.6,-6.5,5.0,2.0,-4.5,-3.7,7.6,,,,*53
$GNGST,040246.00,2827,,,,2.0,1.6,3.8*4C
$GNZDA,040246.00,23,05,2025,00,00*7D
$GNGBS,040246.00,2.0,1.6,3.8,,,,*55
$GNTXT,01,01,01,More than 100 frame errors, UART RX was disabled*70
b0LX$,E,-Z5$ n#*3k"[!:'
{"4)V^(:R 
Y\FoG!HI#^J"4YhK&
U6V"5.NW!bXr>[$GNRMC,040247.00,A,0419.89136,S,05539.91930,E,0.039,,230525,,,D*7B
$GNVTG,,T,,M,0.039,N,0.072,K,D*37
$GNGNS,040247.00,0419.89136,S,05539.91930,E,DA,17,0.60,13.4,-47.6,,0000*6A
$GNGGA,040247.00,0419.89136,S,05539.91930,E,2,12,0.60,13.4,M,-47.6,M,,0000*43
$GNGSA,A,3,24,20,05,13,15,22,06,12,14,,,,1.23,0.60,1.07*1B
$GNGSA,A,3,86,74,75,87,85,73,71,72,,,,,1.23,0.60,1.07*16
$GPGSV,5,1,17,05,44,163,36,06,12,028,24,11,45,020,,12,16,346,20*72
$GPGSV,5,2,17,13,28,177,36,14,11,110,32,15,27,214,35,18,06,218,*74
$GPGSV,5,3,17,20,51,107,42,22,21,091,34,24,58,295,33,29,12,277,*7C
$GPGSV,5,4,17,36,52,277,34,40,86,350,41,41,58,082,40,49,32,274,*7B
$GPGSV,5,5,17,50,10,089,*4A
$GLGSV,3,1,09,70,00,111,24,71,13,152,33,72,13,201,13,73,20,134,35*6C
$GLGSV,3,2,09,74,52,089,34,75,38,010,27,85,19,005,24,86,53,302,34*6A
$GLGSV,3,3,09,87,33,239,31*59
$GNGLL,0419.89136,S,05539.91930,E,040247.00,A,D*6B
$GNGRS,040247.00,1,-1.0,-0.7,0.7,1.9,0.2,-3.4,-7.2,0.5,-0.2,,,*58
$GNGRS,040247.00,1,-1.8,8.7,-5.8,7.1,0.5,-4.2,-3.6,7.5,,,,*5C
$GNGST,040247.00,4240,,,,2.0,1.5,3.7*4C
$GNZDA,040247.00,23,05,2025,00,00*7C
$GNGBS,040247.00,2.0,1.5,3.7,,,,*58
$GNTXT,01,01,01,More than 100 frame errors, UART RX was disabled*70
b0L\$,W-Z3! nI(3k[#:'#
{4(V^%:R 
Y\FoG HTI#WJ 4YdK&
U*V5.MW!Yb\r&$GNRMC,040248.00,A,0419.89135,S,05539.91928,E,0.047,,230525,,,D*77
$GNVTG,,T,,M,0.047,N,0.087,K,D*34
$GNGNS,040248.00,0419.89135,S,05539.91928,E,DA,17,0.64,13.3,-47.6,,0000*6C
$GNGGA,040248.00,0419.89135,S,05539.91928,E,2,12,0.64,13.3,M,-47.6,M,,0000*45
$GNGSA,A,3,24,20,05,13,15,22,06,12,14,,,,1.32,0.64,1.15*1C
$GNGSA,A,3,86,74,75,87,85,73,71,72,,,,,1.32,0.64,1.15*11
$GPGSV,5,1,17,05,44,163,36,06,12,028,24,11,45,020,,12,16,346,21*73
$GPGSV,5,2,17,13,28,177,33,14,11,110,32,15,27,214,30,18,06,218,*74
$GPGSV,5,3,17,20,51,107,40,22,21,091,30,24,58,295,35,29,12,277,*7C
$GPGSV,5,4,17,36,52,277,31,40,86,350,40,41,58,082,37,49,32,274,*7F
$GPGSV,5,5,17,50,10,089,*4A
$GLGSV,3,1,09,70,00,111,24,71,13,152,32,72,13,201,09,73,20,134,35*66
$GLGSV,3,2,09,74,52,089,32,75,38,010,26,85,19,005,24,86,53,302,31*68
$GLGSV,3,3,09,87,33,239,29*50
$GNGLL,0419.89135,S,05539.91928,E,040248.00,A,D*6E
$GNGRS,040248.00,1,0.4,-0.8,0.9,1.7,-0.9,-0.4,-5.9,3.1,0.7,,,*73
$GNGRS,040248.00,1,-1.8,8.7,-5.9,6.0,0.4,-4.3,-3.7,-29.9,,,,*4E
$GNGST,040248.00,27,,,,2.0,1.5,3.7*44
$GNZDA,040248.00,23,05,2025,00,00*73
$GNGBS,040248.00,2.0,1.5,3.7,,,,*57
$GNTXT,01,01,01,More than 100 frame errors, UART RX was disabled*70
b0Lx`#,du-Z  n6(3k[v":'N
{ 4(V^(:R 
Y\CFoG H
I#MJ 4YK&
`UV5.W!bx`r+$GNRMC,040249.00,A,0419.89135,S,05539.91928,E,0.016,,230525,,,D*72
$GNVTG,,T,,M,0.016,N,0.029,K,D*34
$GNGNS,040249.00,0419.89135,S,05539.91928,E,DA,17,0.60,13.3,-47.6,,0000*69
$GNGGA,040249.00,0419.89135,S,05539.91928,E,2,12,0.60,13.3,M,-47.6,M,,0000*40
$GNGSA,A,3,24,20,05,13,15,22,06,12,14,,,,1.23,0.60,1.07*1B
$GNGSA,A,3,86,74,75,87,85,73,71,72,,,,,1.23,0.60,1.07*16
$GPGSV,5,1,17,05,44,163,35,06,12,028,24,11,45,020,,12,16,346,21*70
$GPGSV,5,2,17,13,28,177,32,14,11,110,32,15,27,214,30,18,06,218,*75
$GPGSV,5,3,17,20,51,107,40,22,21,091,30,24,58,295,34,29,12,277,*7D
$GPGSV,5,4,17,36,52,277,32,40,86,350,40,41,58,082,40,49,32,274,*7C
$GPGSV,5,5,17,50,10,089,*4A
$GLGSV,3,1,09,70,00,111,24,71,13,152,32,72,13,201,10,73,20,134,35*6E
$GLGSV,3,2,09,74,52,089,32,75,38,010,26,85,19,005,25,86,53,302,31*69
$GLGSV,3,3,09,87,33,239,29*50
$GNGLL,0419.89135,S,05539.91928,E,040249.00,A,D*6F
$GNGRS,040249.00,1,-1.8,-0.4,1.0,1.7,-3.8,-1.4,-6.5,4.6,5.7,,,*5F
$GNGRS,040249.00,1,-0.1,7.3,-4.2,6.8,-0.3,-4.3,-3.6,7.7,,,,*7A
$GNGST,040249.00,2803859,,,,2.0,1.5,3.7*7D
$GNZDA,040249.00,23,05,2025,00,00*72
$GNGBS,040249.00,2.0,1.5,3.7,,,,*56
$GNTXT,01,01,01,More than 100 frame errors, UART RX was disabled*70
b0L`d#,r-Z;  n?(3k [":'[
{ 4*V^':R 
Y\ FoG {HI#]J!4YK&
UV 5.W!V)b`dr~$GNRMC,040250.00,A,0419.89134,S,05539.91925,E,0.072,,230525,,,D*74
$GNVTG,,T,,M,0.072,N,0.133,K,D*3C
$GNGNS,040250.00,0419.89134,S,05539.91925,E,DA,16,0.64,13.2,-47.6,,0000*69
$GNGGA,040250.00,0419.89134,S,05539.91925,E,2,12,0.64,13.2,M,-47.6,M,,0000*41
$GNGSA,A,3,24,20,05,13,15,22,06,12,14,,,,1.32,0.64,1.15*1C
$GNGSA,A,3,86,74,75,87,85,73,71,,,,,,1.32,0.64,1.15*14
$GPGSV,5,1,17,05,44,163,35,06,12,028,23,11,45,020,,12,16,346,20*76
$GPGSV,5,2,17,13,28,177,32,14,11,110,32,15,27,214,30,18,06,218,*75
$GPGSV,5,3,17,20,51,107,40,22,21,091,32,24,58,295,34,29,12,277,*7F
$GPGSV,5,4,17,36,52,277,32,40,86,350,42,41,58,082,39,49,32,274,*70
$GPGSV,5,5,17,50,10,089,*4A
$GLGSV,3,1,09,70,00,111,24,71,13,152,32,72,13,201,06,73,20,134,35*69
$GLGSV,3,2,09,74,52,089,33,75,38,010,27,85,19,005,25,86,53,302,32*6A
$GLGSV,3,3,09,87,33,239,28*51
$GNGLL,0419.89134,S,05539.91925,E,040250.00,A,D*6B
$GNGRS,040250.00,1,0.9,-0.6,1.1,1.9,0.6,-0.2,-5.7,3.1,1.5,,,*57
$GNGRS,040250.00,1,-2.3,7.4,-2.6,11.6,-2.7,-4.2,-3.9,,,,,*69
$GNGST,040250.00,27,,,,2.0,1.5,3.7*4D
$GNZDA,040250.00,23,05,2025,00,00*7A
$GNGBS,040250.00,2.0,1.5,3.7,,,,*5E
$GNTXT,01,01,01,More than 100 frame errors, UART RX was disabled*70
b0LHh#,q-Z n3(3k[":'l
{!4*V^':R 
Y\FoG!HCI#(J!4YK&
U}V 5.W!>bHhrV$GNRMC,040251.00,A,0419.89132,S,05539.91923,E,0.035,,230525,,,D*76
$GNVTG,,T,,M,0.035,N,0.064,K,D*3C
$GNGNS,040251.00,0419.89132,S,05539.91923,E,DA,17,0.64,13.2,-47.6,,0000*69
$GNGGA,040251.00,0419.89132,S,05539.91923,E,2,12,0.64,13.2,M,-47.6,M,,0000*40
$GNGSA,A,3,24,20,05,13,15,22,06,12,14,,,,1.32,0.64,1.15*1C
$GNGSA,A,3,86,74,75,87,85,73,71,72,,,,,1.32,0.64,1.15*11
$GPGSV,5,1,17,05,44,163,35,06,12,028,24,11,45,020,,12,16,346,21*70
$GPGSV,5,2,17,13,28,177,32,14,11,110,31,15,27,214,30,18,06,218,*76
$GPGSV,5,3,17,20,51,107,40,22,21,091,31,24,58,295,34,29,12,277,*7C
$GPGSV,5,4,17,36,52,277,33,40,86,350,42,41,58,082,39,49,32,274,*71
$GPGSV,5,5,17,50,10,089,*4A
$GLGSV,3,1,09,70,00,111,24,71,13,152,33,72,13,201,11,73,20,134,35*6E
$GLGSV,3,2,09,74,52,089,33,75,38,010,27,85,19,005,25,86,53,302,32*6A
$GLGSV,3,3,09,87,33,239,28*51
$GNGLL,0419.89132,S,05539.91923,E,040251.00,A,D*6A
$GNGRS,040251.00,1,1.1,-0.7,1.1,1.9,-4.6,2.1,-5.6,4.6,2.8,,,*54
$GNGRS,040251.00,1,-0.7,7.4,-3.5,9.2,-3.9,-4.7,-3.7,-27.5,,,,*66
$GNGST,040251.00,27,,,,2.0,1.5,3.7*4C
$GNZDA,040251.00,23,05,2025,00,00*7B
$GNGBS,040251.00,2.0,1.5,3.7,,,,*5F
$GNTXT,01,01,01,More than 100 frame errors, UART RX was disabled*70
b0L0l#,n-Z n(3k[`":'Q
{ 4*V^':R 
Y\FoG"HI#5J!4YK&
,UV5.W!-b0lr.`$GNRMC,040252.00,A,0419.89131,S,05539.91920,E,0.027,,230525,,,D*76
$GNVTG,,T,,M,0.027,N,0.051,K,D*39
$GNGNS,040252.00,0419.89131,S,05539.91920,E,DA,17,0.60,13.1,-47.6,,0000*6D
$GNGGA,040252.00,0419.89131,S,05539.91920,E,2,12,0.60,13.1,M,-47.6,M,,0000*44
$GNGSA,A,3,24,20,05,13,15,22,06,12,14,,,,1.23,0.60,1.07*1B
$GNGSA,A,3,86,74,75,87,85,73,71,72,,,,,1.23,0.60,1.07*16
$GPGSV,5,1,17,05,44,163,35,06,12,028,24,11,45,020,,12,16,346,20*71
$GPGSV,5,2,17,13,28,177,32,14,11,110,31,15,27,214,31,18,06,218,*77
$GPGSV,5,3,17,20,51,107,40,22,21,091,31,24,58,295,34,29,12,277,*7C
$GPGSV,5,4,17,36,52,277,32,40,86,350,42,41,58,082,39,49,32,274,*70
$GPGSV,5,5,17,50,10,089,*4A
$GLGSV,3,1,09,70,00,111,25,71,13,152,34,72,13,201,08,73,20,134,35*60
$GLGSV,3,2,09,74,52,089,33,75,38,010,27,85,19,005,25,86,53,302,31*69
$GLGSV,3,3,09,87,33,239,27*5E
$GNGLL,0419.89131,S,05539.91920,E,040252.00,A,D*69
$GNGRS,040252.00,1,-1.8,-0.5,1.1,1.9,2.2,3.5,-5.3,4.9,3.8,,,*50
$GNGRS,040252.00,1,2.7,4.7,-2.1,6.7,-5.0,-4.6,-2.7,7.5,,,,*55
$GNGST,040252.00,2803859,,,,2.0,1.5,3.7*77
$GNZDA,040252.00,23,05,2025,00,00*78
$GNGBS,040252.00,2.0,1.5,3.7,,,,*5C
$GNTXT,01,01,01,More than 100 frame errors, UART RX was disabled*70
b0Lp#,T-Z0 n;(3k [":'m
{ 4)V^':R 
Y\FoG"@HI##J!4YK&
UV5.W!bpr$GNRMC,040253.00,A,0419.89133,S,05539.91916,E,0.068,,230525,,,D*7B
$GNVTG,,T,,M,0.068,N,0.125,K,D*30
$GNGNS,040253.00,0419.89133,S,05539.91916,E,DA,17,0.60,13.1,-47.6,,0000*6B
$GNGGA,040253.00,0419.89133,S,05539.91916,E,2,12,0.60,13.1,M,-47.6,M,,0000*42
$GNGSA,A,3,24,20,05,13,15,22,06,12,14,,,,1.23,0.60,1.07*1B
$GNGSA,A,3,86,74,75,87,85,73,71,72,,,,,1.23,0.60,1.07*16
$GPGSV,5,1,17,05,44,163,35,06,12,028,23,11,45,020,,12,16,346,19*7C
$GPGSV,5,2,17,13,28,177,32,14,11,110,30,15,27,214,31,18,06,218,*76
$GPGSV,5,3,17,20,51,107,40,22,21,091,32,24,58,295,34,29,12,277,*7F
$GPGSV,5,4,17,36,52,277,32,40,86,350,41,41,58,082,39,49,32,274,*73
$GPGSV,5,5,17,50,10,089,*4A
$GLGSV,3,1,09,70,00,111,25,71,13,152,34,72,13,201,09,73,20,134,35*61
$GLGSV,3,2,09,74,52,089,33,75,38,010,27,85,19,005,25,86,53,302,31*69
$GLGSV,3,3,09,87,33,239,27*5E
$GNGLL,0419.89133,S,05539.91916,E,040253.00,A,D*6F
$GNGRS,040253.00,1,-1.5,-0.8,1.4,2.4,1.4,-2.3,-4.3,5.6,-2.0,,,*5E
$GNGRS,040253.00,1,2.6,6.8,-3.3,7.2,-5.3,-4.8,0.6,7.1,,,,*78
$GNGST,040253.00,2803859,,,,2.0,1.5,3.7*76
$GNZDA,040253.00,23,05,2025,00,00*79
$GNGBS,040253.00,2.0,1.5,3.7,,,,*5D
$GNTXT,01,01,01,More than 100 frame errors, UART RX was disabled*70
b0Lt#,?-Zz n'3k [":'b
{!4)V^':R 
Y\YFoG"IH
]I#.J!4YK&
UV5.FW!"btr0$GNRMC,040254.00,A,0419.89132,S,05539.91914,E,0.024,,230525,,,D*77
$GNVTG,,T,,M,0.024,N,0.044,K,D*3E
$GNGNS,040254.00,0419.89132,S,05539.91914,E,DA,17,0.64,13.1,-47.6,,0000*6B
$GNGGA,040254.00,0419.89132,S,05539.91914,E,2,12,0.64,13.1,M,-47.6,M,,0000*42
$GNGSA,A,3,24,20,05,13,15,22,06,12,14,,,,1.32,0.64,1.15*1C
$GNGSA,A,3,86,74,75,87,85,73,71,72,,,,,1.32,0.64,1.15*11
$GPGSV,5,1,17,05,44,163,35,06,12,028,23,11,45,020,,12,16,346,19*7C
$GPGSV,5,2,17,13,28,177,31,14,11,110,32,15,27,214,31,18,06,218,*77
$GPGSV,5,3,17,20,51,107,39,22,21,091,32,24,58,295,34,29,12,277,*71
$GPGSV,5,4,17,36,52,277,33,40,86,350,41,41,58,082,39,49,32,274,*72
$GPGSV,5,5,17,50,10,089,*4A
$GLGSV,3,1,09,70,00,111,26,71,13,152,34,72,13,201,10,73,20,134,35*6A
$GLGSV,3,2,09,74,52,089,33,75,38,010,27,85,19,005,25,86,53,302,31*69
$GLGSV,3,3,09,87,33,239,27*5E
$GNGLL,0419.89132,S,05539.91914,E,040254.00,A,D*6B
$GNGRS,040254.00,1,-1.6,-0.9,1.3,2.5,-2.4,-1.1,-4.5,8.9,1.9,,,*51
$GNGRS,040254.00,1,5.8,8.0,-3.2,6.6,-3.7,-4.7,-1.8,-112,,,,*6C
$GNGST,040254.00,27,,,,2.0,1.5,3.7*49
$GNZDA,040254.00,23,05,2025,00,00*7E
$GNGBS,040254.00,2.0,1.5,3.7,,,,*5A
$GNTXT,01,01,01,More than 100 frame errors, UART RX was disabled*70
b0Lw#,-ZnW'3k[i":'2
{!4)V^':R 
Y\FoG"HI#<J!4YK&
;U"V5.TW!wlbwr~$GNRMC,040255.00,A,0419.89132,S,05539.91912,E,0.016,,230525,,,D*71
$GNVTG,,T,,M,0.016,N,0.030,K,D*3C
$GNGNS,040255.00,0419.89132,S,05539.91912,E,DA,17,0.60,13.0,-47.6,,0000*69
$GNGGA,040255.00,0419.89132,S,05539.91912,E,2,12,0.60,13.0,M,-47.6,M,,0000*40
$GNGSA,A,3,24,20,05,13,15,22,06,12,14,,,,1.23,0.60,1.07*1B
$GNGSA,A,3,86,74,75,87,85,73,71,72,,,,,1.23,0.60,1.07*16
$GPGSV,5,1,17,05,44,163,35,06,12,028,23,11,45,020,,12,16,346,19*7C
$GPGSV,5,2,17,13,28,177,31,14,11,110,31,15,27,214,31,18,06,218,*74
$GPGSV,5,3,17,20,51,107,39,22,21,091,31,24,58,295,34,29,12,277,*72
$GPGSV,5,4,17,36,52,277,33,40,86,350,41,41,58,082,39,49,32,274,*72
$GPGSV,5,5,17,50,10,089,*4A
$GLGSV,3,1,09,70,00,111,26,71,13,152,34,72,13,201,08,73,20,134,35*63
$GLGSV,3,2,09,74,52,089,33,75,38,010,27,85,19,005,25,86,53,302,31*69
$GLGSV,3,3,09,87,33,239,27*5E
$GNGLL,0419.89132,S,05539.91912,E,040255.00,A,D*6C
$GNGRS,040255.00,1,-2.1,-1.2,1.3,2.6,-1.7,1.0,-2.7,10.3,2.2,,,*4E
$GNGRS,040255.00,1,0.8,7.7,-4.5,8.9,-4.8,-4.5,-3.5,7.6,,,,*54
$GNGST,040255.00,2803859,,,,2.0,1.5,3.7*70
$GNZDA,040255.00,23,05,2025,00,00*7F
$GNGBS,040255.00,2.0,1.5,3.7,,,,*5B
$GNTXT,01,01,01,More than 100 frame errors, UART RX was disabled*70
b0L{#,x-ZH6 nj(3k [":'1
{ 4)V^':R 
Y\UFoG"HI#9J!4YK&
UV5.W!Jb{rf$GNRMC,040256.00,A,0419.89128,S,05539.91910,E,0.077,,230525,,,D*7C
$GNVTG,,T,,M,0.077,N,0.142,K,D*3F
$GNGNS,040256.00,0419.89128,S,05539.91910,E,DA,17,0.60,12.9,-47.6,,0000*6B
$GNGGA,040256.00,0419.89128,S,05539.91910,E,2,12,0.60,12.9,M,-47.6,M,,0000*42
$GNGSA,A,3,24,20,05,13,15,22,06,12,14,,,,1.23,0.60,1.07*1B
$GNGSA,A,3,86,74,75,87,85,73,71,72,,,,,1.23,0.60,1.07*16
$GPGSV,5,1,17,05,44,163,35,06,12,028,23,11,45,020,,12,16,346,19*7C
$GPGSV,5,2,17,13,28,176,31,14,11,110,32,15,27,214,31,18,06,218,*76
$GPGSV,5,3,17,20,51,107,40,22,21,091,32,24,58,295,34,29,12,277,*7F
$GPGSV,5,4,17,36,52,277,32,40,86,350,41,41,58,082,39,49,32,274,*73
$GPGSV,5,5,17,50,10,089,*4A
$GLGSV,3,1,09,70,00,111,26,71,13,152,34,72,13,201,07,73,20,134,35*6C
$GLGSV,3,2,09,74,52,089,33,75,38,010,27,85,19,005,25,86,53,302,30*68
$GLGSV,3,3,09,87,33,239,27*5E
$GNGLL,0419.89128,S,05539.91910,E,040256.00,A,D*66
$GNGRS,040256.00,1,-2.1,-1.2,1.2,3.1,-0.8,-0.2,-0.8,11.0,3.6,,,*60
$GNGRS,040256.00,1,-0.9,7.8,-2.4,8.4,-5.4,-4.6,-6.0,7.6,,,,*70
$GNGST,040256.00,2803859,,,,2.0,1.5,3.7*73
$GNZDA,040256.00,23,05,2025,00,00*7C
$GNGBS,040256.00,2.0,1.5,3.7,,,,*58
$GNTXT,01,01,01,More than 100 frame errors, UART RX was disabled*70
b0L#,p~-ZP = o(3k[":'Q
{ 4*V^&:R 
Y\FoG"HI#GJ 4Y#K&
U.V5.iW!+brNeY$GNRMC,040257.00,A,0419.89128,S,05539.91907,E,0.049,,230525,,,D*76
$GNVTG,,T,,M,0.049,N,0.091,K,D*3D
$GNGNS,040257.00,0419.89128,S,05539.91907,E,DA,17,0.64,12.7,-47.6,,0000*66
$GNGGA,040257.00,0419.89128,S,05539.91907,E,2,12,0.64,12.7,M,-47.6,M,,0000*4F
$GNGSA,A,3,24,20,05,13,15,22,06,12,14,,,,1.31,0.64,1.15*1F
$GNGSA,A,3,86,74,75,87,85,73,71,72,,,,,1.31,0.64,1.15*12
$GPGSV,5,1,17,05,44,163,35,06,12,028,23,11,45,020,,12,16,346,19*7C
$GPGSV,5,2,17,13,28,176,32,14,11,111,32,15,27,214,31,18,06,218,*74
$GPGSV,5,3,17,20,51,107,40,22,21,091,31,24,58,295,34,29,12,277,*7C
$GPGSV,5,4,17,36,52,277,32,40,86,350,42,41,58,082,38,49,32,274,*71
$GPGSV,5,5,17,50,10,089,*4A
$GLGSV,3,1,09,70,00,111,26,71,13,152,34,72,13,201,11,73,20,134,35*6B
$GLGSV,3,2,09,74,52,089,32,75,38,010,27,85,19,005,25,86,53,302,30*69
$GLGSV,3,3,09,87,33,239,27*5E
$GNGLL,0419.89128,S,05539.91907,E,040257.00,A,D*61
$GNGRS,040257.00,1,-1.7,-1.2,1.1,3.2,1.9,2.7,-1.3,11.0,2.6,,,*68
$GNGRS,040257.00,1,-4.1,8.0,-0.3,10.3,-7.2,-4.4,-2.3,-88.2,,,,*5E
$GNGST,040257.00,28,,,,2.0,1.6,3.7*46
$GNZDA,040257.00,23,05,2025,00,00*7D
$GNGBS,040257.00,2.0,1.6,3.7,,,,*5A
$GNTXT,01,01,01,More than 100 frame errors, UART RX was disabled*70
b0L#,s-Z@ o (3ku['":'5
{4)V^&:R 
Y\_FoG!xH
I#J!4YK&
SUIV5.W!obr6=$GNRMC,040258.00,A,0419.89122,S,05539.91891,E,0.057,,230525,,,D*72
$GNVTG,,T,,M,0.057,N,0.105,K,D*3E
$GNGNS,040258.00,0419.89122,S,05539.91891,E,DA,17,0.62,12.6,-47.6,,0000*6A
$GNGGA,040258.00,0419.89122,S,05539.91891,E,2,12,0.62,12.6,M,-47.6,M,,0000*43
$GNGSA,A,3,24,20,05,13,15,22,06,12,14,,,,1.27,0.62,1.11*1A
$GNGSA,A,3,86,74,75,87,85,73,71,72,,,,,1.27,0.62,1.11*17
$GPGSV,5,1,17,05,44,163,35,06,12,028,24,11,45,020,,12,16,346,19*7B
$GPGSV,5,2,17,13,28,176,32,14,11,111,31,15,27,213,32,18,06,218,*73
$GPGSV,5,3,17,20,51,107,40,22,21,091,31,24,58,295,34,29,12,277,*7C
$GPGSV,5,4,17,36,52,277,31,40,86,350,41,41,58,082,38,49,32,274,*71
$GPGSV,5,5,17,50,10,089,*4A
$GLGSV,3,1,09,70,00,111,26,71,13,152,33,72,13,201,10,73,20,134,35*6D
$GLGSV,3,2,09,74,52,089,33,75,38,010,27,85,19,005,24,86,53,302,30*69
$GLGSV,3,3,09,87,33,239,26*5F
$GNGLL,0419.89122,S,05539.91891,E,040258.00,A,D*6A
$GNGRS,040258.00,1,-2.0,-1.4,1.1,2.7,-1.2,0.4,-2.7,10.9,2.0,,,*4F
$GNGRS,040258.00,1,0.0,10.0,0.8,12.4,-4.4,-2.3,-1.4,9.6,,,,*73
$GNGST,040258.00,2885147,,,,2.8,2.4,3.8*70
$GNZDA,040258.00,23,05,2025,00,00*72
$GNGBS,040258.00,2.8,2.4,3.8,,,,*53
$GNTXT,01,01,01,More than 100 frame errors, UART RX was disabled*70
b0L#,-Z2 on (3k[":'
{4)V^&:R 
Y\IFoG"GH
I!=J!4YK&
UV5.MW! br+$GNRMC,040259.00,A,0419.89120,S,05539.91881,E,0.022,,230525,,,D*72
$GNVTG,,T,,M,0.022,N,0.040,K,D*3C
$GNGNS,040259.00,0419.89120,S,05539.91881,E,DA,17,0.60,12.4,-47.6,,0000*68
$GNGGA,040259.00,0419.89120,S,05539.91881,E,2,12,0.60,12.4,M,-47.6,M,,0000*41
$GNGSA,A,3,24,20,05,13,15,22,06,12,14,,,,1.23,0.60,1.07*1B
$GNGSA,A,3,86,74,75,87,85,73,71,72,,,,,1.23,0.60,1.07*16
$GPGSV,5,1,17,05,44,163,35,06,12,028,25,11,45,020,,12,16,346,19*7A
$GPGSV,5,2,17,13,28,176,32,14,11,111,31,15,27,213,32,18,06,218,*73
$GPGSV,5,3,17,20,51,107,40,22,21,091,31,24,58,295,34,29,12,277,*7C
$GPGSV,5,4,17,36,52,277,31,40,86,350,41,41,58,082,38,49,32,274,*71
$GPGSV,5,5,17,50,10,089,*4A
$GLGSV,3,1,09,70,00,111,26,71,13,152,34,72,13,201,10,73,20,134,33*6C
$GLGSV,3,2,09,74,52,089,33,75,38,010,27,85,19,005,24,86,53,302,29*61
$GLGSV,3,3,09,87,33,239,26*5F
$GNGLL,0419.89120,S,05539.91881,E,040259.00,A,D*68
$GNGRS,040259.00,1,-2.3,-1.3,1.3,2.8,-3.1,2.1,-2.9,10.7,-1.5,,,*6A
$GNGRS,040259.00,1,3.3,10.1,1.9,12.7,-2.6,-2.0,0.7,9.4,,,,*5A
$GNGST,040259.00,2803859,,,,2.7,2.3,3.8*71
$GNZDA,040259.00,23,05,2025,00,00*73
$GNGBS,040259.00,2.7,2.3,3.8,,,,*5A
$GNTXT,01,01,01,More than 100 frame errors, UART RX was disabled*70
b0Lp$,-Zd#o
 '3k[^":'
{4'V^$:R 
Y\oFoG"9HI#J!4YK&
*UzV5.W!^5bpr$GNRMC,040300.00,A,0419.89120,S,05539.91877,E,0.053,,230525,,,D*70
$GNVTG,,T,,M,0.053,N,0.098,K,D*3F
$GNGNS,040300.00,0419.89120,S,05539.91877,E,DA,17,0.64,12.3,-47.6,,0000*6F
$GNGGA,040300.00,0419.89120,S,05539.91877,E,2,12,0.64,12.3,M,-47.6,M,,0000*46
$GNGSA,A,3,24,20,05,13,15,22,06,12,14,,,,1.31,0.64,1.15*1F
$GNGSA,A,3,86,74,75,87,85,73,71,72,,,,,1.31,0.64,1.15*12
$GPGSV,5,1,17,05,44,163,36,06,12,028,25,11,45,020,,12,16,346,20*73
$GPGSV,5,2,17,13,28,176,35,14,11,111,31,15,27,213,32,18,06,218,*74
$GPGSV,5,3,17,20,51,107,39,22,21,091,31,24,58,295,34,29,12,277,*72
$GPGSV,5,4,17,36,52,277,30,40,86,350,39,41,58,082,36,49,32,274,*71
$GPGSV,5,5,17,50,10,089,*4A
$GLGSV,3,1,09,70,00,111,26,71,13,152,34,72,13,201,09,73,20,134,35*62
$GLGSV,3,2,09,74,52,089,33,75,38,010,27,85,19,005,24,86,53,302,29*61
$GLGSV,3,3,09,87,33,239,26*5F
$GNGLL,0419.89120,S,05539.91877,E,040300.00,A,D*6C
$GNGRS,040300.00,1,-2.3,-1.0,1.4,2.9,-3.1,-1.6,-2.4,11.2,0.1,,,*6A
$GNGRS,040300.00,1,-0.1,9.3,3.0,12.3,-3.9,-2.6,0.6,-24.2,,,,*53
$GNGST,040300.00,27,,,,2.7,2.2,3.8*45
$GNZDA,040300.00,23,05,2025,00,00*7E
$GNGBS,040300.00,2.7,2.2,3.8,,,,*56
$GNTXT,01,01,01,More than 100 frame errors, UART RX was disabled*70
b0LX$,~1-Z@"!o!'3k [B":'B
{4(V^':R 
Y\FoG!jHI$J!4YK&
_UNV5.W!JNbXr$GNRMC,040301.00,A,0419.89121,S,05539.91877,E,0.072,,230525,,,D*73
$GNVTG,,T,,M,0.072,N,0.133,K,D*3C
$GNGNS,040301.00,0419.89121,S,05539.91877,E,DA,17,0.60,12.2,-47.6,,0000*6A
$GNGGA,040301.00,0419.89121,S,05539.91877,E,2,12,0.60,12.2,M,-47.6,M,,0000*43
$GNGSA,A,3,24,20,05,13,15,22,06,12,14,,,,1.23,0.60,1.07*1B
$GNGSA,A,3,86,74,75,87,85,73,71,72,,,,,1.23,0.60,1.07*16
$GPGSV,5,1,17,05,44,163,36,06,12,028,25,11,45,020,,12,16,346,20*73
$GPGSV,5,2,17,13,28,176,34,14,11,111,33,15,27,213,33,18,06,218,*76
$GPGSV,5,3,17,20,51,107,39,22,21,091,32,24,58,295,34,29,12,277,*71
$GPGSV,5,4,17,36,52,277,31,40,86,350,40,41,58,082,39,49,32,274,*71
$GPGSV,5,5,17,50,10,089,*4A
$GLGSV,3,1,09,70,00,111,27,71,13,152,33,72,13,201,09,73,20,134,36*67
$GLGSV,3,2,09,74,52,089,33,75,38,010,26,85,19,005,25,86,53,302,29*61
$GLGSV,3,3,09,87,33,239,28*51
$GNGLL,0419.89121,S,05539.91877,E,040301.00,A,D*6C
$GNGRS,040301.00,1,-1.9,-0.5,1.3,2.5,-0.1,3.2,-4.6,10.9,0.1,,,*4B
$GNGRS,040301.00,1,-2.6,9.5,3.5,5.9,-4.3,-2.7,3.6,7.5,,,,*7C
$GNGST,040301.00,2803859,,,,2.6,2.1,3.8*7E
$GNZDA,040301.00,23,05,2025,00,00*7F
$GNGBS,040301.00,2.6,2.1,3.8,,,,*55
$GNTXT,01,01,01,More than 100 frame errors, UART RX was disabled*70
b0L@$,b-ZP"!oW")3k [g#:'@
{4(V^':R 
Y\FoG HI$J!4YK&
UV5.9W!-b@r`$GNRMC,040302.00,A,0419.89122,S,05539.91877,E,0.040,,230525,,,D*72
$GNVTG,,T,,M,0.040,N,0.074,K,D*3F
$GNGNS,040302.00,0419.89122,S,05539.91877,E,DA,17,0.60,12.1,-47.6,,0000*69
$GNGGA,040302.00,0419.89122,S,05539.91877,E,2,12,0.60,12.1,M,-47.6,M,,0000*40
$GNGSA,A,3,24,20,05,13,15,22,06,12,14,,,,1.23,0.60,1.07*1B
$GNGSA,A,3,86,74,75,87,85,73,71,72,,,,,1.23,0.60,1.07*16
$GPGSV,5,1,17,05,44,163,36,06,12,028,25,11,45,020,,12,16,346,20*73
