$GNTXT,01,01,01,More than 100 frame errors, UART RX was disabled*70
b0X6*/Yl 3nY9*
{4%V^ :R 
Y[FqGHIZJ3TK#UV7) W (Gb6rz$GNRMC,035816.00,A,0419.89273,S,05539.92777,E,0.143,,230525,,,D*77
$GNVTG,,T,,M,0.143,N,0.264,K,D*3E
$GNGNS,035816.00,0419.89273,S,05539.92777,E,DA,17,0.60,13.5,-47.6,,0000*6B
$GNGGA,035816.00,0419.89273,S,05539.92777,E,2,12,0.60,13.5,M,-47.6,M,,0000*42
$GNGSA,A,3,24,20,05,13,15,22,06,12,14,,,,1.24,0.60,1.09*12
$GNGSA,A,3,86,74,75,87,85,73,71,72,,,,,1.24,0.60,1.09*1F
$GPGSV,5,1,18,05,42,165,26,06,14,028,31,11,47,021,,12,15,345,31*7D
$GPGSV,5,2,18,13,29,178,31,14,12,108,24,15,27,216,32,18,05,218,*79
$GPGSV,5,3,18,20,51,110,29,22,21,089,30,24,57,298,31,29,12,275,*77
$GPGSV,5,4,18,30,00,144,11,36,52,277,27,40,86,350,37,41,58,082,32*7D
$GPGSV,5,5,18,49,32,274,,50,10,089,*78
$GLGSV,3,1,09,70,00,113,,71,13,154,14,72,13,203,23,73,22,132,16*6F
$GLGSV,3,2,09,74,51,084,21,75,35,009,26,85,21,004,25,86,55,297,30*60
$GLGSV,3,3,09,87,32,236,19*5D
$GNGLL,0419.89273,S,05539.92777,E,035816.00,A,D*6B
$GNGRS,035816.00,1,-0.2,-0.7,-0.2,1.8,4.1,1.3,-5.5,4.1,5.3,,,*7D
$GNGRS,035816.00,1,0.3,4.7,5.1,8.1,-3.2,-11.9,-15.2,-11.5,,,,*6F
$GNGST,035816.00,38,,,,1.6,2.2,4.6*4E
$GNZDA,035816.00,23,05,2025,00,00*70
$GNGBS,035816.00,1.6,2.2,4.6,,,,*53
$GNTXT,01,01,01,More than 100 frame errors, UART RX was disabled*70
b0X9*/Y lhx3n_Y9*
{4!V^ :R 
Y[FqGHIJ3TSK #U`V 7)1W ]ab9rQ-$GNRMC,035817.00,A,0419.89272,S,05539.92776,E,0.030,,230525,,,D*73
$GNVTG,,T,,M,0.030,N,0.055,K,D*3B
$GNGNS,035817.00,0419.89272,S,05539.92776,E,DA,17,0.60,13.5,-47.6,,0000*6A
$GNGGA,035817.00,0419.89272,S,05539.92776,E,2,12,0.60,13.5,M,-47.6,M,,0000*43
$GNGSA,A,3,24,20,05,13,15,22,06,12,14,,,,1.24,0.60,1.09*12
$GNGSA,A,3,86,74,75,87,85,73,71,72,,,,,1.24,0.60,1.09*1F
$GPGSV,5,1,18,05,42,165,26,06,14,028,31,11,47,021,,12,15,345,31*7D
$GPGSV,5,2,18,13,29,178,32,14,12,108,25,15,27,216,31,18,05,218,*78
$GPGSV,5,3,18,20,51,110,30,22,21,089,29,24,57,298,30,29,12,275,*76
$GPGSV,5,4,18,30,00,144,11,36,52,277,27,40,86,350,33,41,58,082,32*79
$GPGSV,5,5,18,49,32,274,,50,10,089,*78
$GLGSV,3,1,09,70,00,113,,71,13,154,12,72,13,203,22,73,22,132,12*6C
$GLGSV,3,2,09,74,51,084,22,75,35,009,32,85,21,004,30,86,55,297,32*60
$GLGSV,3,3,09,87,32,236,18*5C
$GNGLL,0419.89272,S,05539.92776,E,035817.00,A,D*6A
$GNGRS,035817.00,1,-0.3,-4.2,1.5,1.8,1.2,-0.2,-2.8,-2.3,3.6,,,*5C
$GNGRS,035817.00,1,-2.1,3.4,6.7,9.3,-1.6,-15.5,-18.1,-12.6,,,,*41
$GNGST,035817.00,38,,,,1.6,2.2,4.6*4F
$GNZDA,035817.00,23,05,2025,00,00*71
$GNGBS,035817.00,1.6,2.2,4.6,,,,*52
$GNTXT,01,01,01,More than 100 frame errors, UART RX was disabled*70
b0X=*!;/%YlW3n!Y9*n
{4#V^#:R 
Y[FqGHIJ3TtK!#&UV!7)ZW 6b=rv)$GNRMC,035818.00,A,0419.89270,S,05539.92777,E,0.104,,230525,,,D*79
$GNVTG,,T,,M,0.104,N,0.192,K,D*37
$GNGNS,035818.00,0419.89270,S,05539.92777,E,DA,17,0.60,13.4,-47.6,,0000*67
$GNGGA,035818.00,0419.89270,S,05539.92777,E,2,12,0.60,13.4,M,-47.6,M,,0000*4E
$GNGSA,A,3,24,20,05,13,15,22,06,12,14,,,,1.24,0.60,1.09*12
$GNGSA,A,3,86,74,75,87,85,73,71,72,,,,,1.24,0.60,1.09*1F
$GPGSV,5,1,18,05,42,165,24,06,14,028,33,11,47,021,,12,15,345,37*7B
$GPGSV,5,2,18,13,29,178,30,14,12,108,22,15,27,216,26,18,05,218,*7B
$GPGSV,5,3,18,20,51,110,31,22,21,089,33,24,57,298,31,29,12,275,*7D
$GPGSV,5,4,18,30,00,144,09,36,52,277,28,40,86,350,35,41,58,082,35*7E
$GPGSV,5,5,18,49,32,274,,50,10,089,*78
$GLGSV,3,1,09,70,00,113,,71,13,154,17,72,13,203,23,73,22,132,18*62
$GLGSV,3,2,09,74,51,084,24,75,35,009,33,85,21,004,31,86,55,297,33*67
$GLGSV,3,3,09,87,32,236,18*5C
$GNGLL,0419.89270,S,05539.92777,E,035818.00,A,D*66
$GNGRS,035818.00,1,-1.5,-2.3,2.7,1.3,3.4,0.0,-4.5,1.4,4.7,,,*56
$GNGRS,035818.00,1,0.9,3.7,5.5,10.5,-0.9,-15.6,-18.7,-10.9,,,,*53
$GNGST,035818.00,35,,,,1.6,2.2,4.6*4D
$GNZDA,035818.00,23,05,2025,00,00*7E
$GNGBS,035818.00,1.6,2.2,4.6,,,,*5D
$GNTXT,01,01,01,More than 100 frame errors, UART RX was disabled*70
b0XA*h/ Yul!3nY 9*
{4&V^!:R 
Y[FqGoHIJ3TK#UV#7)W WbAr^$GNRMC,035819.00,A,0419.89267,S,05539.92779,E,0.041,,230525,,,D*70
$GNVTG,,T,,M,0.041,N,0.076,K,D*3C
$GNGNS,035819.00,0419.89267,S,05539.92779,E,DA,17,0.61,13.4,-47.6,,0000*6F
$GNGGA,035819.00,0419.89267,S,05539.92779,E,2,12,0.61,13.4,M,-47.6,M,,0000*46
$GNGSA,A,3,24,20,05,13,15,22,06,12,14,,,,1.27,0.61,1.11*19
$GNGSA,A,3,86,74,75,87,85,73,71,72,,,,,1.27,0.61,1.11*14
$GPGSV,5,1,18,05,42,165,24,06,14,028,31,11,47,021,,12,15,345,32*7C
$GPGSV,5,2,18,13,29,178,29,14,12,108,21,15,27,216,29,18,05,218,*7F
$GPGSV,5,3,18,20,51,110,31,22,21,089,28,24,57,298,32,29,12,275,*74
$GPGSV,5,4,18,30,00,144,11,36,52,277,28,40,86,350,38,41,58,082,33*7C
$GPGSV,5,5,18,49,32,274,,50,10,089,*78
$GLGSV,3,1,09,70,00,113,,71,13,154,27,72,13,203,24,73,22,132,21*6C
$GLGSV,3,2,09,74,51,084,26,75,35,009,29,85,21,004,26,86,55,297,35*6E
$GLGSV,3,3,09,87,32,236,21*56
$GNGLL,0419.89267,S,05539.92779,E,035819.00,A,D*6F
$GNGRS,035819.00,1,-1.0,-2.4,1.0,2.3,1.8,-0.3,-0.3,1.2,5.5,,,*75
$GNGRS,035819.00,1,-0.5,4.9,7.3,10.3,4.5,-16.2,-16.8,-11.4,,,,*57
$GNGST,035819.00,32,,,,1.6,2.2,4.6*4B
$GNZDA,035819.00,23,05,2025,00,00*7F
$GNGBS,035819.00,1.6,2.2,4.6,,,,*5C
$GNTXT,01,01,01,More than 100 frame errors, UART RX was disabled*70
b0XE*^/ YlE 3nY 9*l
{4&V^!:R 
Y[vFqGH9IJ3T>K#UV#7)W zbErFe$GNRMC,035820.00,A,0419.89265,S,05539.92780,E,0.035,,230525,,,D*7D
$GNVTG,,T,,M,0.035,N,0.064,K,D*3C
$GNGNS,035820.00,0419.89265,S,05539.92780,E,DA,17,0.60,13.6,-47.6,,0000*62
$GNGGA,035820.00,0419.89265,S,05539.92780,E,2,12,0.60,13.6,M,-47.6,M,,0000*4B
$GNGSA,A,3,24,20,05,13,15,22,06,12,14,,,,1.24,0.60,1.09*12
$GNGSA,A,3,86,74,75,87,85,73,71,72,,,,,1.24,0.60,1.09*1F
$GPGSV,5,1,18,05,42,165,23,06,14,028,31,11,47,021,,12,15,345,32*7B
$GPGSV,5,2,18,13,29,178,30,14,12,108,19,15,27,216,29,18,05,218,*7C
$GPGSV,5,3,18,20,51,110,32,22,21,089,29,24,57,298,32,29,12,275,*76
$GPGSV,5,4,18,30,00,144,13,36,52,277,28,40,86,350,38,41,58,082,33*7E
$GPGSV,5,5,18,49,32,274,,50,10,089,*78
$GLGSV,3,1,09,70,00,113,,71,13,154,26,72,13,203,25,73,22,132,20*6D
$GLGSV,3,2,09,74,51,084,26,75,35,009,29,85,21,004,25,86,55,297,35*6D
$GLGSV,3,3,09,87,32,236,22*55
$GNGLL,0419.89265,S,05539.92780,E,035820.00,A,D*61
$GNGRS,035820.00,1,-0.2,-0.9,1.6,0.2,3.3,1.5,-1.6,-2.3,7.7,,,*7E
$GNGRS,035820.00,1,2.0,5.7,2.5,9.6,-2.4,-16.2,-13.9,-9.7,,,,*52
$GNGST,035820.00,33,,,,1.7,2.2,4.6*41
$GNZDA,035820.00,23,05,2025,00,00*75
$GNGBS,035820.00,1.7,2.2,4.6,,,,*57
$GNTXT,01,01,01,More than 100 frame errors, UART RX was disabled*70
b0XI*{ '/ YPlm3neY<!9*}
{4&V^!:R 
Y[FqGJHIJ3TK#,UV$7)W qxbIr.$GNRMC,035821.00,A,0419.89263,S,05539.92781,E,0.014,,230525,,,D*78
$GNVTG,,T,,M,0.014,N,0.025,K,D*3A
$GNGNS,035821.00,0419.89263,S,05539.92781,E,DA,17,0.60,13.7,-47.6,,0000*65
$GNGGA,035821.00,0419.89263,S,05539.92781,E,2,12,0.60,13.7,M,-47.6,M,,0000*4C
$GNGSA,A,3,24,20,05,13,15,22,06,12,14,,,,1.24,0.60,1.09*12
$GNGSA,A,3,86,74,75,87,85,73,71,72,,,,,1.24,0.60,1.09*1F
$GPGSV,5,1,18,05,42,165,24,06,14,028,32,11,47,021,,12,15,345,32*7F
$GPGSV,5,2,18,13,29,178,31,14,12,108,20,15,27,216,30,18,05,218,*7F
$GPGSV,5,3,18,20,51,110,31,22,21,089,31,24,57,298,33,29,12,275,*7D
$GPGSV,5,4,18,30,00,144,12,36,52,277,28,40,86,350,38,41,58,082,33*7F
$GPGSV,5,5,18,49,32,274,,50,10,089,*78
$GLGSV,3,1,09,70,00,113,,71,13,154,26,72,13,203,25,73,22,132,18*66
$GLGSV,3,2,09,74,51,084,25,75,35,009,29,85,21,004,25,86,55,297,36*6D
$GLGSV,3,3,09,87,32,236,22*55
$GNGLL,0419.89263,S,05539.92781,E,035821.00,A,D*67
$GNGRS,035821.00,1,-1.2,-1.6,1.2,3.4,1.1,0.6,-2.2,-0.1,5.4,,,*75
$GNGRS,035821.00,1,1.6,6.6,8.1,6.4,-5.0,-18.0,-14.6,-10.7,,,,*68
$GNGST,035821.00,32,,,,1.7,2.2,4.6*41
$GNZDA,035821.00,23,05,2025,00,00*74
$GNGBS,035821.00,1.7,2.2,4.6,,,,*56
$GNTXT,01,01,01,More than 100 frame errors, UART RX was disabled*70
b0XM* :/!Y Yln3n[ Y"9*

{4&V^":R 
Y[UFqGHIJ3TK#UV$7)gW A7*bMr5$GNRMC,035822.00,A,0419.89262,S,05539.92782,E,0.008,,230525,,,D*74
$GNVTG,,T,,M,0.008,N,0.016,K,D*37
$GNGNS,035822.00,0419.89262,S,05539.92782,E,DA,17,0.60,13.7,-47.6,,0000*64
$GNGGA,035822.00,0419.89262,S,05539.92782,E,2,12,0.60,13.7,M,-47.6,M,,0000*4D
$GNGSA,A,3,24,20,05,13,15,22,06,12,14,,,,1.24,0.60,1.09*12
$GNGSA,A,3,86,74,75,87,85,73,71,72,,,,,1.24,0.60,1.09*1F
$GPGSV,5,1,18,05,42,165,24,06,14,028,32,11,47,021,,12,15,345,33*7E
$GPGSV,5,2,18,13,29,178,32,14,12,108,23,15,27,216,30,18,05,218,*7F
$GPGSV,5,3,18,20,51,110,31,22,21,089,32,24,57,298,34,29,12,275,*79
$GPGSV,5,4,18,30,00,144,10,36,52,277,28,40,86,350,38,41,58,082,34*7A
$GPGSV,5,5,18,49,32,274,,50,10,089,*78
$GLGSV,3,1,09,70,00,113,,71,13,154,25,72,13,203,26,73,22,132,19*67
$GLGSV,3,2,09,74,51,084,24,75,35,009,30,85,21,004,25,86,55,297,36*64
$GLGSV,3,3,09,87,32,236,21*56
$GNGLL,0419.89262,S,05539.92782,E,035822.00,A,D*66
$GNGRS,035822.00,1,0.0,-1.7,1.9,0.9,3.7,0.1,-2.0,-0.1,4.4,,,*5C
$GNGRS,035822.00,1,-1.5,7.6,2.6,5.8,-3.7,-18.2,-13.2,-11.3,,,,*43
$GNGST,035822.00,31,,,,1.7,2.2,4.6*41
$GNZDA,035822.00,23,05,2025,00,00*77
$GNGBS,035822.00,1.7,2.2,4.6,,,,*55
$GNTXT,01,01,01,More than 100 frame errors, UART RX was disabled*70
b0XhQ* -/ Y l3n;Y"9*
{4&V^":R 
Y[FqG5HCIJ3TK#UV"7)iW bhQr`$GNRMC,035823.00,A,0419.89261,S,05539.92784,E,0.017,,230525,,,D*7E
$GNVTG,,T,,M,0.017,N,0.031,K,D*3C
$GNGNS,035823.00,0419.89261,S,05539.92784,E,DA,17,0.60,13.8,-47.6,,0000*6F
$GNGGA,035823.00,0419.89261,S,05539.92784,E,2,12,0.60,13.8,M,-47.6,M,,0000*46
$GNGSA,A,3,24,20,05,13,15,22,06,12,14,,,,1.24,0.60,1.09*12
$GNGSA,A,3,86,74,75,87,85,73,71,72,,,,,1.24,0.60,1.09*1F
$GPGSV,5,1,18,05,42,165,25,06,14,028,32,11,47,021,,12,15,345,32*7E
$GPGSV,5,2,18,13,29,178,32,14,12,108,24,15,27,216,30,18,05,218,*78
$GPGSV,5,3,18,20,51,110,30,22,21,089,31,24,57,298,34,29,12,275,*7B
$GPGSV,5,4,18,30,00,144,12,36,52,277,28,40,86,350,38,41,58,082,34*78
$GPGSV,5,5,18,49,32,274,,50,10,089,*78
$GLGSV,3,1,09,70,00,113,,71,13,154,23,72,13,203,26,73,22,132,19*61
$GLGSV,3,2,09,74,51,084,24,75,35,009,29,85,21,004,24,86,55,297,34*6F
$GLGSV,3,3,09,87,32,236,21*56
$GNGLL,0419.89261,S,05539.92784,E,035823.00,A,D*62
$GNGRS,035823.00,1,-1.0,0.6,2.6,0.1,1.8,-1.1,-2.1,-0.1,4.1,,,*7D
$GNGRS,035823.00,1,-1.5,7.8,2.3,7.6,-0.5,-19.1,-12.3,-9.6,,,,*7A
$GNGST,035823.00,32,,,,1.7,2.2,4.6*43
$GNZDA,035823.00,23,05,2025,00,00*76
$GNGBS,035823.00,1.7,2.2,4.6,,,,*54
$GNTXT,01,01,01,More than 100 frame errors, UART RX was disabled*70
b0XPU*1!D/!YlZ3nY"9*G
{4&V^":R 
Y[FqGHIJ3TK#UXV#7)W bPUr8$GNRMC,035824.00,A,0419.89261,S,05539.92785,E,0.083,,230525,,,D*75
$GNVTG,,T,,M,0.083,N,0.153,K,D*34
$GNGNS,035824.00,0419.89261,S,05539.92785,E,DA,17,0.60,13.8,-47.6,,0000*69
$GNGGA,035824.00,0419.89261,S,05539.92785,E,2,12,0.60,13.8,M,-47.6,M,,0000*40
$GNGSA,A,3,24,20,05,13,15,22,06,12,14,,,,1.24,0.60,1.09*12
$GNGSA,A,3,86,74,75,87,85,73,71,72,,,,,1.24,0.60,1.09*1F
$GPGSV,5,1,18,05,42,165,26,06,14,028,33,11,47,021,,12,15,345,33*7D
$GPGSV,5,2,18,13,29,178,31,14,12,108,23,15,27,216,30,18,05,218,*7C
$GPGSV,5,3,18,20,51,110,31,22,21,089,31,24,57,298,34,29,12,275,*7A
$GPGSV,5,4,18,30,00,144,13,36,52,277,28,40,86,350,38,41,58,082,34*79
$GPGSV,5,5,18,49,32,274,,50,10,089,*78
$GLGSV,3,1,09,70,00,113,,71,13,154,23,72,13,203,25,73,22,132,21*69
$GLGSV,3,2,09,74,51,084,25,75,35,009,30,85,21,004,26,86,55,297,35*65
$GLGSV,3,3,09,87,32,236,21*56
$GNGLL,0419.89261,S,05539.92785,E,035824.00,A,D*64
$GNGRS,035824.00,1,-1.2,-1.2,0.5,2.8,0.9,-1.2,-1.9,0.3,5.0,,,*7D
$GNGRS,035824.00,1,-1.0,7.7,1.6,9.2,-4.2,-18.1,-13.1,-10.6,,,,*42
$GNGST,035824.00,31,,,,1.7,2.2,4.6*47
$GNZDA,035824.00,23,05,2025,00,00*71
$GNGBS,035824.00,1.7,2.2,4.6,,,,*53
$GNTXT,01,01,01,More than 100 frame errors, UART RX was disabled*70
b0X8Y*M ./!Ylr0 3n
Y!9*
{4%V^":R 
Y[FqG-H}INJ3TVK#,UOV#7)pW b8Yrj$GNRMC,035825.00,A,0419.89260,S,05539.92786,E,0.065,,230525,,,D*7E
$GNVTG,,T,,M,0.065,N,0.121,K,D*39
$GNGNS,035825.00,0419.89260,S,05539.92786,E,DA,17,0.60,13.9,-47.6,,0000*6B
$GNGGA,035825.00,0419.89260,S,05539.92786,E,2,12,0.60,13.9,M,-47.6,M,,0000*42
$GNGSA,A,3,24,20,05,13,15,22,06,12,14,,,,1.24,0.60,1.09*12
$GNGSA,A,3,86,74,75,87,85,73,71,72,,,,,1.24,0.60,1.09*1F
$GPGSV,5,1,18,05,42,165,26,06,14,028,32,11,47,021,,12,15,345,33*7C
$GPGSV,5,2,18,13,29,178,31,14,12,108,22,15,27,216,31,18,05,218,*7C
$GPGSV,5,3,18,20,51,110,32,22,21,089,29,24,57,298,33,29,12,275,*77
$GPGSV,5,4,18,30,00,144,15,36,52,277,28,40,86,350,37,41,58,082,34*70
$GPGSV,5,5,18,49,32,274,,50,10,089,*78
$GLGSV,3,1,09,70,00,113,,71,13,154,22,72,13,203,26,73,22,132,21*6B
$GLGSV,3,2,09,74,51,084,25,75,35,009,30,85,21,004,28,86,55,297,35*6B
$GLGSV,3,3,09,87,32,236,21*56
$GNGLL,0419.89260,S,05539.92786,E,035825.00,A,D*67
$GNGRS,035825.00,1,-0.2,-2.5,0.8,2.2,0.5,1.3,-2.1,0.3,6.3,,,*55
$GNGRS,035825.00,1,-1.4,8.5,5.6,9.2,-4.3,-19.7,-12.4,-9.0,,,,*72
$GNGST,035825.00,31,,,,1.7,2.2,4.6*46
$GNZDA,035825.00,23,05,2025,00,00*70
$GNGBS,035825.00,1.7,2.2,4.6,,,,*52
$GNTXT,01,01,01,More than 100 frame errors, UART RX was disabled*70
b0X ]* 0/!Yl243nYz!9*O
{4%V^":R 
Y[yFqGHjIJ3TSK#kUV#7)W b ]r$GNRMC,035826.00,A,0419.89260,S,05539.92787,E,0.017,,230525,,,D*79
$GNVTG,,T,,M,0.017,N,0.031,K,D*3C
$GNGNS,035826.00,0419.89260,S,05539.92787,E,DA,17,0.61,14.0,-47.6,,0000*66
$GNGGA,035826.00,0419.89260,S,05539.92787,E,2,12,0.61,14.0,M,-47.6,M,,0000*4F
$GNGSA,A,3,24,20,05,13,15,22,06,12,14,,,,1.24,0.61,1.09*13
$GNGSA,A,3,86,74,75,87,85,73,71,72,,,,,1.24,0.61,1.09*1E
$GPGSV,5,1,18,05,42,165,25,06,14,028,32,11,47,021,,12,15,345,33*7F
$GPGSV,5,2,18,13,29,178,31,14,12,108,22,15,27,216,31,18,05,218,*7C
$GPGSV,5,3,18,20,51,110,31,22,21,089,29,24,57,298,33,29,12,275,*74
$GPGSV,5,4,18,30,00,144,16,36,52,277,28,40,86,350,37,41,58,082,34*73
$GPGSV,5,5,18,49,32,274,,50,10,089,*78
$GLGSV,3,1,09,70,00,113,,71,13,154,21,72,13,203,26,73,22,132,21*68
$GLGSV,3,2,09,74,51,084,25,75,35,009,30,85,21,004,28,86,55,297,35*6B
$GLGSV,3,3,09,87,32,236,22*55
$GNGLL,0419.89260,S,05539.92787,E,035826.00,A,D*65
$GNGRS,035826.00,1,-0.4,-0.1,2.3,2.2,0.5,-3.9,-2.1,0.2,5.6,,,*7D
$GNGRS,035826.00,1,-1.2,8.5,1.1,10.2,-11.2,-20.5,-10.7,-9.2,,,,*72
$GNGST,035826.00,30,,,,1.7,2.2,4.6*44
$GNZDA,035826.00,23,05,2025,00,00*73
$GNGBS,035826.00,1.7,2.2,4.6,,,,*51
$GNTXT,01,01,01,More than 100 frame errors, UART RX was disabled*70
b0Xa*J //!Y%l3nY!9*/
{4%V^":R 
Y[FqGHIJ3TK#UV#7)W abar:$GNRMC,035827.00,A,0419.89261,S,05539.92788,E,0.032,,230525,,,D*71
$GNVTG,,T,,M,0.032,N,0.060,K,D*3F
$GNGNS,035827.00,0419.89261,S,05539.92788,E,DA,17,0.61,14.0,-47.6,,0000*69
$GNGGA,035827.00,0419.89261,S,05539.92788,E,2,12,0.61,14.0,M,-47.6,M,,0000*40
$GNGSA,A,3,24,20,05,13,15,22,06,12,14,,,,1.24,0.61,1.09*13
$GNGSA,A,3,86,74,75,87,85,73,71,72,,,,,1.24,0.61,1.09*1E
$GPGSV,5,1,18,05,42,165,25,06,14,028,32,11,47,021,,12,15,345,33*7F
$GPGSV,5,2,18,13,29,178,31,14,12,108,22,15,27,216,30,18,05,218,*7D
$GPGSV,5,3,18,20,51,110,31,22,21,089,28,24,57,298,33,29,12,275,*75
$GPGSV,5,4,18,30,00,144,16,36,52,277,28,40,86,350,37,41,58,082,34*73
$GPGSV,5,5,18,49,32,274,,50,10,089,*78
$GLGSV,3,1,09,70,00,113,,71,13,154,20,72,13,203,26,73,22,132,21*69
$GLGSV,3,2,09,74,51,084,25,75,35,009,30,85,21,004,29,86,55,297,35*6A
$GLGSV,3,3,09,87,32,236,22*55
$GNGLL,0419.89261,S,05539.92788,E,035827.00,A,D*6A
$GNGRS,035827.00,1,-0.2,-2.8,3.3,1.8,2.1,-3.1,-2.1,0.4,7.1,,,*74
$GNGRS,035827.00,1,-1.2,9.0,7.3,11.8,-8.5,-21.7,-10.9,-7.8,,,,*4E
$GNGST,035827.00,32,,,,1.7,2.2,4.6*47
$GNZDA,035827.00,23,05,2025,00,00*72
$GNGBS,035827.00,1.7,2.2,4.6,,,,*50
$GNTXT,01,01,01,More than 100 frame errors, UART RX was disabled*70
b0Xd* /!Y#l3neY 9*
{4%V^":R 
Y[\FqGYHIvJ3TyK#(UV7)W bdr$GNRMC,035828.00,A,0419.89259,S,05539.92789,E,0.099,,230525,,,D*75
$GNVTG,,T,,M,0.099,N,0.183,K,D*32
$GNGNS,035828.00,0419.89259,S,05539.92789,E,DA,17,0.61,14.1,-47.6,,0000*6D
$GNGGA,035828.00,0419.89259,S,05539.92789,E,2,12,0.61,14.1,M,-47.6,M,,0000*44
$GNGSA,A,3,24,20,05,13,15,22,06,12,14,,,,1.24,0.61,1.09*13
$GNGSA,A,3,86,74,75,87,85,73,71,72,,,,,1.24,0.61,1.09*1E
$GPGSV,5,1,18,05,42,165,25,06,14,028,32,11,47,021,,12,15,345,33*7F
$GPGSV,5,2,18,13,29,178,31,14,12,108,22,15,27,216,31,18,05,218,*7C
$GPGSV,5,3,18,20,51,110,31,22,21,089,28,24,57,298,32,29,12,275,*74
$GPGSV,5,4,18,30,00,144,16,36,52,277,28,40,86,350,37,41,58,082,34*73
$GPGSV,5,5,18,49,32,274,,50,10,089,*78
$GLGSV,3,1,09,70,00,113,,71,13,154,20,72,13,203,25,73,22,132,20*6B
$GLGSV,3,2,09,74,51,084,24,75,35,009,29,85,21,004,28,86,55,297,31*66
$GLGSV,3,3,09,87,32,236,21*56
$GNGLL,0419.89259,S,05539.92789,E,035828.00,A,D*6F
$GNGRS,035828.00,1,-0.2,-4.1,5.0,1.5,2.8,-3.0,-2.3,0.3,7.9,,,*79
$GNGRS,035828.00,1,-1.0,8.9,10.6,9.4,1.3,-21.9,-11.9,-7.5,,,,*6D
$GNGST,035828.00,32,,,,1.7,2.2,4.6*48
$GNZDA,035828.00,23,05,2025,00,00*7D
$GNGBS,035828.00,1.7,2.2,4.6,,,,*5F
$GNTXT,01,01,01,More than 100 frame errors, UART RX was disabled*70
b0Xh*; / Y1l>!3nYF 9*
{4%V^#:R 
Y[FqGHIJ3TK#UBV 7)W <bhrno$GNRMC,035829.00,A,0419.89258,S,05539.92787,E,0.038,,230525,,,D*70
$GNVTG,,T,,M,0.038,N,0.071,K,D*35
$GNGNS,035829.00,0419.89258,S,05539.92787,E,DA,17,0.61,14.0,-47.6,,0000*62
$GNGGA,035829.00,0419.89258,S,05539.92787,E,2,12,0.61,14.0,M,-47.6,M,,0000*4B
$GNGSA,A,3,24,20,05,13,15,22,06,12,14,,,,1.24,0.61,1.09*13
$GNGSA,A,3,86,74,75,87,85,73,71,72,,,,,1.24,0.61,1.09*1E
$GPGSV,5,1,18,05,42,165,23,06,14,028,32,11,47,021,,12,15,345,32*78
$GPGSV,5,2,18,13,29,178,30,14,12,108,23,15,27,216,30,18,05,218,*7D
$GPGSV,5,3,18,20,51,110,33,22,21,089,30,24,57,298,32,29,12,275,*7F
$GPGSV,5,4,18,30,00,144,19,36,52,277,28,40,86,350,37,41,58,082,35*7D
$GPGSV,5,5,18,49,32,274,,50,10,089,*78
$GLGSV,3,1,09,70,00,113,,71,13,154,21,72,13,203,23,73,22,132,17*68
$GLGSV,3,2,09,74,51,084,23,75,35,009,28,85,21,004,28,86,55,297,32*63
$GLGSV,3,3,09,87,32,236,20*57
$GNGLL,0419.89258,S,05539.92787,E,035829.00,A,D*61
$GNGRS,035829.00,1,-0.1,-2.6,5.7,2.4,5.7,-4.4,-2.4,0.5,7.7,,,*7B
$GNGRS,035829.00,1,-1.2,9.9,11.7,9.4,-1.9,-21.0,-10.0,-6.4,,,,*49
$GNGST,035829.00,32,,,,1.7,2.2,4.6*49
$GNZDA,035829.00,23,05,2025,00,00*7C
$GNGBS,035829.00,1.7,2.2,4.6,,,,*5E
$GNTXT,01,01,01,More than 100 frame errors, UART RX was disabled*70
b0Xl*/!Y,l3nY 9*
{4%V^ :R 
Y[FqG]HIJ3T.K#U
V7)W blrVGc$GNRMC,035830.00,A,0419.89259,S,05539.92788,E,0.074,,230525,,,D*7E
$GNVTG,,T,,M,0.074,N,0.137,K,D*3E
$GNGNS,035830.00,0419.89259,S,05539.92788,E,DA,17,0.61,14.0,-47.6,,0000*64
$GNGGA,035830.00,0419.89259,S,05539.92788,E,2,12,0.61,14.0,M,-47.6,M,,0000*4D
$GNGSA,A,3,24,20,05,13,15,22,06,12,14,,,,1.24,0.61,1.09*13
$GNGSA,A,3,86,74,75,87,85,73,71,72,,,,,1.24,0.61,1.09*1E
$GPGSV,5,1,18,05,42,165,22,06,14,028,31,11,47,021,,12,15,345,33*7B
$GPGSV,5,2,18,13,29,178,29,14,12,108,24,15,27,216,30,18,05,218,*72
$GPGSV,5,3,18,20,51,110,29,22,21,089,29,24,57,298,32,29,12,275,*7C
$GPGSV,5,4,18,30,00,144,19,36,52,277,28,40,86,350,37,41,58,082,32*7A
$GPGSV,5,5,18,49,32,274,,50,10,089,*78
$GLGSV,3,1,09,70,00,113,,71,13,154,21,72,13,203,21,73,22,132,16*6B
$GLGSV,3,2,09,74,51,084,22,75,35,009,27,85,21,004,27,86,55,297,31*61
$GLGSV,3,3,09,87,32,236,18*5C
$GNGLL,0419.89259,S,05539.92788,E,035830.00,A,D*67
$GNGRS,035830.00,1,-0.3,-3.5,7.1,1.8,7.0,-0.3,-2.4,0.4,3.8,,,*74
$GNGRS,035830.00,1,-1.1,10.7,9.6,9.1,0.1,-20.9,-9.3,-4.9,,,,*51
$GNGST,035830.00,34,,,,1.7,2.2,4.6*47
$GNZDA,035830.00,23,05,2025,00,00*74
$GNGBS,035830.00,1.7,2.2,4.6,,,,*56
$GNTXT,01,01,01,More than 100 frame errors, UART RX was disabled*70
b0Xp*/ Y<$l3nYp9*
{4#V^ :R 
Y[FqGHImJ3T'K#PUV7)W bpr>$GNRMC,035831.00,A,0419.89259,S,05539.92789,E,0.020,,230525,,,D*7F
$GNVTG,,T,,M,0.020,N,0.038,K,D*31
$GNGNS,035831.00,0419.89259,S,05539.92789,E,DA,17,0.61,14.0,-47.6,,0000*64
$GNGGA,035831.00,0419.89259,S,05539.92789,E,2,12,0.61,14.0,M,-47.6,M,,0000*4D
$GNGSA,A,3,24,20,05,13,15,22,06,12,14,,,,1.24,0.61,1.09*13
$GNGSA,A,3,86,74,75,87,85,73,71,72,,,,,1.24,0.61,1.09*1E
$GPGSV,5,1,18,05,42,165,23,06,14,028,31,11,47,021,,12,15,345,32*7B
$GPGSV,5,2,18,13,29,178,30,14,12,108,22,15,27,216,30,18,05,218,*7C
$GPGSV,5,3,18,20,51,110,29,22,21,089,29,24,57,298,31,29,12,275,*7F
$GPGSV,5,4,18,30,00,144,20,36,52,277,28,40,86,350,35,41,58,082,32*72
$GPGSV,5,5,18,49,32,274,,50,10,089,*78
$GLGSV,3,1,09,70,00,113,,71,13,154,20,72,13,203,21,73,22,132,14*68
$GLGSV,3,2,09,74,51,084,22,75,35,009,27,85,21,004,27,86,55,297,31*61
$GLGSV,3,3,09,87,32,236,19*5D
$GNGLL,0419.89259,S,05539.92789,E,035831.00,A,D*67
$GNGRS,035831.00,1,-0.4,-3.1,6.8,2.9,1.6,-1.4,-2.3,0.6,1.8,,,*7D
$GNGRS,035831.00,1,-0.6,10.6,5.9,6.8,1.7,-22.0,-11.2,-5.6,,,,*68
$GNGST,035831.00,34,,,,1.7,2.2,4.6*46
$GNZDA,035831.00,23,05,2025,00,00*75
$GNGBS,035831.00,1.7,2.2,4.6,,,,*57
$GNTXT,01,01,01,More than 100 frame errors, UART RX was disabled*70
b0Xt*O / YBl83n%Y 9*x
{4&V^!:R 
Y[FqGHI J3TK#UV 7)W .rbtr&3$GNRMC,035832.00,A,0419.89259,S,05539.92790,E,0.049,,230525,,,D*7B
$GNVTG,,T,,M,0.049,N,0.090,K,D*3C
$GNGNS,035832.00,0419.89259,S,05539.92790,E,DA,17,0.61,14.1,-47.6,,0000*6E
$GNGGA,035832.00,0419.89259,S,05539.92790,E,2,12,0.61,14.1,M,-47.6,M,,0000*47
$GNGSA,A,3,24,20,05,13,15,22,06,12,14,,,,1.24,0.61,1.08*12
$GNGSA,A,3,86,74,75,87,85,73,71,72,,,,,1.24,0.61,1.08*1F
$GPGSV,5,1,18,05,42,165,25,06,14,028,32,11,47,021,,12,15,345,32*7E
$GPGSV,5,2,18,13,29,178,30,14,12,108,23,15,27,216,31,18,05,218,*7C
$GPGSV,5,3,18,20,51,110,30,22,21,089,29,24,57,298,32,29,12,275,*74
$GPGSV,5,4,18,30,00,144,20,36,52,277,28,40,86,350,38,41,58,082,33*7E
$GPGSV,5,5,18,49,32,274,,50,10,089,*78
$GLGSV,3,1,09,70,00,113,,71,13,154,20,72,13,203,21,73,22,132,13*6F
$GLGSV,3,2,09,74,51,084,22,75,35,009,27,85,21,004,27,86,55,297,32*62
$GLGSV,3,3,09,87,32,236,20*57
$GNGLL,0419.89259,S,05539.92790,E,035832.00,A,D*6C
$GNGRS,035832.00,1,1.2,-2.2,5.9,2.1,0.6,1.5,-0.5,-1.9,-0.2,,,*70
$GNGRS,035832.00,1,-0.9,10.2,14.5,7.3,1.5,-22.7,-11.1,-5.8,,,,*5E
$GNGST,035832.00,33,,,,1.7,2.2,4.7*43
$GNZDA,035832.00,23,05,2025,00,00*76
$GNGBS,035832.00,1.7,2.2,4.7,,,,*55
$GNTXT,01,01,01,More than 100 frame errors, UART RX was disabled*70
b0Xxx* {/ YF l 3nY}"9*
{4&V^":R 
Y[FqG}HIJ3TlK#UV"7)W Z)bxxr$GNRMC,035833.00,A,0419.89258,S,05539.92791,E,0.023,,230525,,,D*76
$GNVTG,,T,,M,0.023,N,0.043,K,D*3E
$GNGNS,035833.00,0419.89258,S,05539.92791,E,DA,17,0.61,14.2,-47.6,,0000*6C
$GNGGA,035833.00,0419.89258,S,05539.92791,E,2,12,0.61,14.2,M,-47.6,M,,0000*45
$GNGSA,A,3,24,20,05,13,15,22,06,12,14,,,,1.24,0.61,1.08*12
$GNGSA,A,3,86,74,75,87,85,73,71,72,,,,,1.24,0.61,1.08*1F
$GPGSV,5,1,18,05,42,165,25,06,14,028,32,11,47,021,,12,15,345,32*7E
$GPGSV,5,2,18,13,29,178,32,14,12,108,22,15,27,216,30,18,05,218,*7E
$GPGSV,5,3,18,20,51,110,31,22,21,089,30,24,57,298,34,29,12,275,*7B
$GPGSV,5,4,18,30,00,144,20,36,52,277,29,40,86,350,38,41,58,082,34*78
$GPGSV,5,5,18,49,32,274,,50,10,089,*78
$GLGSV,3,1,09,70,00,113,,71,13,154,22,72,13,203,23,73,22,132,18*64
$GLGSV,3,2,09,74,51,084,22,75,35,009,28,85,21,004,26,86,55,297,34*6A
$GLGSV,3,3,09,87,32,236,20*57
$GNGLL,0419.89258,S,05539.92791,E,035833.00,A,D*6D
$GNGRS,035833.00,1,1.5,-2.9,5.0,2.3,0.3,1.2,-3.9,0.7,1.7,,,*70
$GNGRS,035833.00,1,-1.1,11.3,12.4,6.5,2.2,-21.0,-11.6,-6.4,,,,*5E
$GNGST,035833.00,32,,,,1.7,2.2,4.7*43
$GNZDA,035833.00,23,05,2025,00,00*77
$GNGBS,035833.00,1.7,2.2,4.7,,,,*54
$GNTXT,01,01,01,More than 100 frame errors, UART RX was disabled*70
b0X`|*/YAl93ncY!9*
{4$V^!:R 
Y[FqGH8I5J3TQK#7U?V!7)W b`|r$GNRMC,035834.00,A,0419.89256,S,05539.92791,E,0.051,,230525,,,D*7A
$GNVTG,,T,,M,0.051,N,0.094,K,D*31
$GNGNS,035834.00,0419.89256,S,05539.92791,E,DA,17,0.60,14.2,-47.6,,0000*64
$GNGGA,035834.00,0419.89256,S,05539.92791,E,2,12,0.60,14.2,M,-47.6,M,,0000*4D
$GNGSA,A,3,24,20,05,13,15,22,06,12,14,,,,1.24,0.60,1.08*13
$GNGSA,A,3,86,74,75,87,85,73,71,72,,,,,1.24,0.60,1.08*1E
$GPGSV,5,1,18,05,42,165,24,06,14,028,31,11,47,021,,12,15,345,31*7F
$GPGSV,5,2,18,13,29,178,31,14,12,108,22,15,27,216,29,18,05,218,*75
$GPGSV,5,3,18,20,51,110,30,22,21,089,29,24,57,298,33,29,12,275,*75
$GPGSV,5,4,18,30,00,144,20,36,52,277,28,40,86,350,36,41,58,082,33*70
$GPGSV,5,5,18,49,32,274,,50,10,089,*78
$GLGSV,3,1,09,70,00,113,,71,13,154,21,72,13,203,23,73,22,132,20*6C
$GLGSV,3,2,09,74,51,084,22,75,35,009,28,85,21,004,24,86,55,297,33*6F
$GLGSV,3,3,09,87,32,236,20*57
$GNGLL,0419.89256,S,05539.92791,E,035834.00,A,D*64
$GNGRS,035834.00,1,0.0,-4.1,5.1,3.2,0.6,2.2,-3.4,0.0,2.1,,,*75
$GNGRS,035834.00,1,-0.9,11.0,8.2,7.2,3.2,-19.9,-10.9,-7.1,,,,*61
$GNGST,035834.00,34,,,,1.7,2.2,4.7*42
$GNZDA,035834.00,23,05,2025,00,00*70
$GNGBS,035834.00,1.7,2.2,4.7,,,,*53
$GNTXT,01,01,01,More than 100 frame errors, UART RX was disabled*70
b0XH*/YylR'3niYC9*KK
{4#V^ :R 
Y[!FqG-HwIJ3THK#UV7)W bHr~h$GNRMC,035835.00,A,0419.89255,S,05539.92789,E,0.032,,230525,,,D*74
$GNVTG,,T,,M,0.032,N,0.058,K,D*34
$GNGNS,035835.00,0419.89255,S,05539.92789,E,DA,17,0.60,14.1,-47.6,,0000*6C
$GNGGA,035835.00,0419.89255,S,05539.92789,E,2,12,0.60,14.1,M,-47.6,M,,0000*45
$GNGSA,A,3,24,20,05,13,15,22,06,12,14,,,,1.24,0.60,1.08*13
$GNGSA,A,3,86,74,75,87,85,73,71,72,,,,,1.24,0.60,1.08*1E
$GPGSV,5,1,18,05,42,165,23,06,14,028,31,11,47,021,,12,15,345,30*79
$GPGSV,5,2,18,13,29,178,30,14,12,108,21,15,27,216,29,18,05,218,*77
$GPGSV,5,3,18,20,51,110,29,22,21,089,28,24,57,298,31,29,12,275,*7E
$GPGSV,5,4,18,30,00,144,18,36,52,277,27,40,86,350,35,41,58,082,32*76
$GPGSV,5,5,18,49,32,274,,50,10,089,*78
$GLGSV,3,1,09,70,00,113,,71,13,154,20,72,13,203,21,73,22,132,20*6F
$GLGSV,3,2,09,74,51,084,21,75,35,009,27,85,21,004,24,86,55,297,31*61
$GLGSV,3,3,09,87,32,236,19*5D
$GNGLL,0419.89255,S,05539.92789,E,035835.00,A,D*6F
$GNGRS,035835.00,1,0.8,-1.5,2.5,3.8,0.4,0.7,-0.8,4.4,3.4,,,*7A
$GNGRS,035835.00,1,-0.9,11.0,6.4,7.6,2.1,-18.1,-12.3,-6.5,,,,*6A
$GNGST,035835.00,37,,,,1.7,2.2,4.8*4F
$GNZDA,035835.00,23,05,2025,00,00*71
$GNGBS,035835.00,1.7,2.2,4.8,,,,*5D
$GNTXT,01,01,01,More than 100 frame errors, UART RX was disabled*70
b0X0*/Yl3nY9*
{4"V^ :R 
Y[OFqG'H.IJ3TK#USV7)W Qb0rV$GNRMC,035836.00,A,0419.89253,S,05539.92789,E,0.047,,230525,,,D*73
$GNVTG,,T,,M,0.047,N,0.088,K,D*3B
$GNGNS,035836.00,0419.89253,S,05539.92789,E,DA,17,0.60,14.1,-47.6,,0000*69
$GNGGA,035836.00,0419.89253,S,05539.92789,E,2,12,0.60,14.1,M,-47.6,M,,0000*40
$GNGSA,A,3,24,20,05,13,15,22,06,12,14,,,,1.24,0.60,1.08*13
$GNGSA,A,3,86,74,75,87,85,73,71,72,,,,,1.24,0.60,1.08*1E
$GPGSV,5,1,18,05,42,165,25,06,14,028,31,11,47,021,,12,15,345,31*7E
$GPGSV,5,2,18,13,29,178,30,14,12,108,19,15,27,216,29,18,05,218,*7C
$GPGSV,5,3,18,20,51,110,29,22,21,089,28,24,57,298,31,29,12,275,*7E
$GPGSV,5,4,18,30,00,144,17,36,52,277,,40,86,350,34,41,58,082,32*7D
$GPGSV,5,5,18,49,32,274,,50,10,089,*78
$GLGSV,3,1,09,70,00,113,,71,13,154,16,72,13,203,20,73,22,132,16*6E
$GLGSV,3,2,09,74,51,084,20,75,35,009,26,85,21,004,24,86,55,297,27*66
$GLGSV,3,3,09,87,32,236,17*53
$GNGLL,0419.89253,S,05539.92789,E,035836.00,A,D*6A
$GNGRS,035836.00,1,-3.2,-3.4,1.5,4.0,-0.2,1.7,-0.8,2.7,4.1,,,*7F
$GNGRS,035836.00,1,-0.4,9.4,5.2,9.7,0.8,-18.5,-17.5,-7.2,,,,*59
$GNGST,035836.00,40,,,,1.7,2.3,4.8*4D
$GNZDA,035836.00,23,05,2025,00,00*72
$GNGBS,035836.00,1.7,2.3,4.8,,,,*5F
$GNTXT,01,01,01,More than 100 frame errors, UART RX was disabled*70
b0X*d/Y*l3nbY9*
{4#V^ :R 
Y[FqGHIpJ3TK#BUV 7)W $`
br/:$GNRMC,035837.00,A,0419.89254,S,05539.92792,E,0.017,,230525,,,D*7A
$GNVTG,,T,,M,0.017,N,0.031,K,D*3C
$GNGNS,035837.00,0419.89254,S,05539.92792,E,DA,17,0.60,14.2,-47.6,,0000*66
$GNGGA,035837.00,0419.89254,S,05539.92792,E,2,12,0.60,14.2,M,-47.6,M,,0000*4F
$GNGSA,A,3,24,20,05,13,15,22,06,12,14,,,,1.24,0.60,1.08*13
$GNGSA,A,3,86,74,75,87,85,73,71,72,,,,,1.24,0.60,1.08*1E
$GPGSV,5,1,18,05,42,165,25,06,14,028,31,11,47,021,,12,15,345,31*7E
$GPGSV,5,2,18,13,29,178,31,14,12,108,19,15,27,216,29,18,05,218,*7D
$GPGSV,5,3,18,20,51,110,30,22,21,089,28,24,57,298,31,29,12,275,*76
$GPGSV,5,4,18,30,00,144,16,36,52,277,,40,86,350,35,41,58,082,32*7D
$GPGSV,5,5,18,49,32,274,,50,10,089,*78
$GLGSV,3,1,09,70,00,113,,71,13,154,16,72,13,203,20,73,22,132,14*6C
$GLGSV,3,2,09,74,51,084,19,75,35,009,26,85,21,004,25,86,55,297,32*69
$GLGSV,3,3,09,87,32,236,18*5C
$GNGLL,0419.89254,S,05539.92792,E,035837.00,A,D*66
$GNGRS,035837.00,1,0.0,-1.6,1.0,3.0,2.3,5.3,-2.8,-3.4,4.0,,,*52
$GNGRS,035837.00,1,-0.6,10.2,3.2,8.0,-2.7,-19.4,-15.7,-8.7,,,,*4E
$GNGST,035837.00,70662,,,,1.7,2.3,4.8*7D
$GNZDA,035837.00,23,05,2025,00,00*73
$GNGBS,035837.00,1.7,2.3,4.8,,,,*5E
$GNTXT,01,01,01,More than 100 frame errors, UART RX was disabled*70
b0X*4/ Yl=3nYB9*k
{4$V^#:R 
Y[FqGHOIJ3TK# UV7)W yGbr$GNRMC,035838.00,A,0419.89254,S,05539.92793,E,0.011,,230525,,,D*72
$GNVTG,,T,,M,0.011,N,0.020,K,D*3A
$GNGNS,035838.00,0419.89254,S,05539.92793,E,DA,17,0.60,14.2,-47.6,,0000*68
$GNGGA,035838.00,0419.89254,S,05539.92793,E,2,12,0.60,14.2,M,-47.6,M,,0000*41
$GNGSA,A,3,24,20,05,13,15,22,06,12,14,,,,1.24,0.60,1.08*13
$GNGSA,A,3,86,74,75,87,85,73,71,72,,,,,1.24,0.60,1.08*1E
$GPGSV,5,1,18,05,42,165,25,06,14,028,31,11,47,021,,12,15,345,32*7D
$GPGSV,5,2,18,13,29,178,31,14,12,108,19,15,27,216,30,18,05,218,*75
$GPGSV,5,3,18,20,51,110,31,22,21,089,27,24,57,298,31,29,12,275,*78
$GPGSV,5,4,18,30,00,144,15,36,52,277,,40,86,350,36,41,58,082,35*7A
$GPGSV,5,5,18,49,32,274,,50,10,089,*78
$GLGSV,3,1,09,70,00,113,,71,13,154,15,72,13,203,20,73,22,132,13*68
$GLGSV,3,2,09,74,51,084,20,75,35,009,26,85,21,004,25,86,55,297,31*60
$GLGSV,3,3,09,87,32,236,19*5D
$GNGLL,0419.89254,S,05539.92793,E,035838.00,A,D*68
$GNGRS,035838.00,1,1.1,-2.3,0.5,4.5,0.6,3.2,-3.4,0.2,4.0,,,*78
$GNGRS,035838.00,1,-2.7,9.7,5.4,7.1,-3.7,-19.2,-15.8,-6.9,,,,*79
$GNGST,035838.00,70662,,,,1.8,2.3,4.9*7C
$GNZDA,035838.00,23,05,2025,00,00*7C
$GNGBS,035838.00,1.8,2.3,4.9,,,,*5F
$GNTXT,01,01,01,More than 100 frame errors, UART RX was disabled*70
b0X* &/!Y l  3nY 9*
{4$V^ :R 
Y[FqGHuI
J3TK#UV 7)W Kbr~
$GNRMC,035839.00,A,0419.89253,S,05539.92794,E,0.071,,230525,,,D*75
$GNVTG,,T,,M,0.071,N,0.131,K,D*3D
$GNGNS,035839.00,0419.89253,S,05539.92794,E,DA,17,0.60,14.2,-47.6,,0000*69
$GNGGA,035839.00,0419.89253,S,05539.92794,E,2,12,0.60,14.2,M,-47.6,M,,0000*40
$GNGSA,A,3,24,20,05,13,15,22,06,12,14,,,,1.24,0.60,1.08*13
$GNGSA,A,3,86,74,75,87,85,73,71,72,,,,,1.24,0.60,1.08*1E
$GPGSV,5,1,18,05,42,165,27,06,14,028,32,11,47,021,,12,15,345,33*7D
$GPGSV,5,2,18,13,29,178,32,14,12,108,22,15,27,216,32,18,05,218,*7C
$GPGSV,5,3,18,20,51,110,32,22,21,089,27,24,57,298,32,29,12,275,*78
$GPGSV,5,4,18,30,00,144,15,36,52,277,,40,86,350,36,41,58,082,32*7D
$GPGSV,5,5,18,49,32,274,,50,10,089,*78
$GLGSV,3,1,09,70,00,113,,71,13,154,16,72,13,203,22,73,22,132,10*6A
$GLGSV,3,2,09,74,51,084,22,75,35,009,27,85,21,004,26,86,55,297,32*63
$GLGSV,3,3,09,87,32,236,20*57
$GNGLL,0419.89253,S,05539.92794,E,035839.00,A,D*69
$GNGRS,035839.00,1,-0.7,-2.5,2.0,4.3,-1.1,4.3,-2.2,2.7,4.3,,,*7A
$GNGRS,035839.00,1,1.7,9.5,2.7,7.7,-3.0,-17.8,-16.5,-6.5,,,,*57
$GNGST,035839.00,39,,,,1.8,2.3,4.9*42
$GNZDA,035839.00,23,05,2025,00,00*7D
$GNGBS,035839.00,1.8,2.3,4.9,,,,*5E
$GNTXT,01,01,01,More than 100 frame errors, UART RX was disabled*70
b0X*% /!YY lx 3nYT 9*V
{4$V^!:R 
Y[FqGHwI
EJ3TK#UV 7)BW ,Nbrfc$GNRMC,035840.00,A,0419.89251,S,05539.92792,E,0.014,,230525,,,D*7C
$GNVTG,,T,,M,0.014,N,0.025,K,D*3A
$GNGNS,035840.00,0419.89251,S,05539.92792,E,DA,17,0.60,14.2,-47.6,,0000*63
$GNGGA,035840.00,0419.89251,S,05539.92792,E,2,12,0.60,14.2,M,-47.6,M,,0000*4A
$GNGSA,A,3,24,20,05,13,15,22,06,12,14,,,,1.24,0.60,1.08*13
$GNGSA,A,3,86,74,75,87,85,73,71,72,,,,,1.24,0.60,1.08*1E
$GPGSV,5,1,18,05,42,165,28,06,14,028,32,11,47,021,,12,15,345,33*72
$GPGSV,5,2,18,13,29,178,32,14,12,108,22,15,27,216,31,18,05,218,*7F
$GPGSV,5,3,18,20,51,110,32,22,21,089,28,24,57,298,32,29,12,275,*77
$GPGSV,5,4,18,30,00,144,14,36,52,277,,40,86,350,36,41,58,082,33*7D
$GPGSV,5,5,18,49,32,274,,50,10,089,*78
$GLGSV,3,1,09,70,00,113,,71,13,154,17,72,13,203,22,73,22,132,10*6B
$GLGSV,3,2,09,74,51,084,22,75,35,009,27,85,21,004,26,86,55,297,32*63
$GLGSV,3,3,09,87,32,236,20*57
$GNGLL,0419.89251,S,05539.92792,E,035840.00,A,D*63
$GNGRS,035840.00,1,-1.7,-3.5,0.4,-0.5,-0.3,-1.7,-2.3,3.5,1.2,,,*74
$GNGRS,035840.00,1,0.7,9.9,2.4,8.0,-3.5,-1.9,-16.7,-6.5,,,,*6E
$GNGST,035840.00,8479,,,,1.8,2.3,4.9*44
$GNZDA,035840.00,23,05,2025,00,00*73
$GNGBS,035840.00,1.8,2.3,4.9,,,,*50
$GNTXT,01,01,01,More than 100 frame errors, UART RX was disabled*70
b0X* / Yl; 3nY 9*
{4$V^!:R 
Y[@FqGjH?ILJ3TK#U:V7)W jbrN$GNRMC,035841.00,A,0419.89251,S,05539.92791,E,0.056,,230525,,,D*78
$GNVTG,,T,,M,0.056,N,0.103,K,D*39
$GNGNS,035841.00,0419.89251,S,05539.92791,E,DA,17,0.60,14.2,-47.6,,0000*61
$GNGGA,035841.00,0419.89251,S,05539.92791,E,2,12,0.60,14.2,M,-47.6,M,,0000*48
$GNGSA,A,3,24,20,05,13,15,22,06,12,14,,,,1.24,0.60,1.08*13
$GNGSA,A,3,86,74,75,87,85,73,71,72,,,,,1.24,0.60,1.08*1E
$GPGSV,5,1,18,05,42,165,28,06,14,028,32,11,47,021,,12,15,345,32*73
$GPGSV,5,2,18,13,29,178,31,14,12,108,22,15,27,216,31,18,05,218,*7C
$GPGSV,5,3,18,20,51,110,32,22,21,089,28,24,57,298,32,29,12,275,*77
$GPGSV,5,4,18,30,00,144,12,36,52,277,,40,86,350,36,41,58,082,33*7B
$GPGSV,5,5,18,49,32,274,,50,10,089,*78
$GLGSV,3,1,09,70,00,113,,71,13,154,17,72,13,203,22,73,22,132,09*63
$GLGSV,3,2,09,74,51,084,22,75,35,009,27,85,21,004,26,86,55,297,31*60
$GLGSV,3,3,09,87,32,236,19*5D
$GNGLL,0419.89251,S,05539.92791,E,035841.00,A,D*61
$GNGRS,035841.00,1,2.2,-2.6,-0.9,2.7,0.3,-0.4,-0.6,1.8,0.6,,,*73
$GNGRS,035841.00,1,-2.5,10.5,1.6,6.2,-4.5,-1.8,-14.3,-7.1,,,,*7E
$GNGST,035841.00,12719,,,,1.8,2.3,4.9*7B
$GNZDA,035841.00,23,05,2025,00,00*72
$GNGBS,035841.00,1.8,2.3,4.9,,,,*51
$GNTXT,01,01,01,More than 100 frame errors, UART RX was disabled*70
b0X* 4/!Y l 3nY 9*;
{4$V^!:R 
Y[FqG%HIJ3TK#qUV 7)W 4br6f3$GNRMC,035842.00,A,0419.89251,S,05539.92791,E,0.042,,230525,,,D*7E
$GNVTG,,T,,M,0.042,N,0.077,K,D*3E
$GNGNS,035842.00,0419.89251,S,05539.92791,E,DA,17,0.60,14.3,-47.6,,0000*63
$GNGGA,035842.00,0419.89251,S,05539.92791,E,2,12,0.60,14.3,M,-47.6,M,,0000*4A
$GNGSA,A,3,24,20,05,13,15,22,06,12,14,,,,1.24,0.60,1.08*13
$GNGSA,A,3,86,74,75,87,85,73,71,72,,,,,1.24,0.60,1.08*1E
$GPGSV,5,1,18,05,42,165,28,06,14,028,32,11,47,021,,12,15,345,33*72
$GPGSV,5,2,18,13,29,178,32,14,12,108,20,15,27,216,31,18,05,218,*7D
$GPGSV,5,3,18,20,51,110,32,22,21,089,28,24,57,298,32,29,12,275,*77
$GPGSV,5,4,18,30,00,144,08,36,52,277,,40,86,350,36,41,58,082,33*70
$GPGSV,5,5,18,49,32,274,,50,10,089,*78
$GLGSV,3,1,09,70,00,113,,71,13,154,17,72,13,202,22,73,22,132,13*69
$GLGSV,3,2,09,74,51,084,23,75,35,009,28,85,21,004,28,86,55,297,32*63
$GLGSV,3,3,09,87,32,236,21*56
$GNGLL,0419.89251,S,05539.92791,E,035842.00,A,D*62
$GNGRS,035842.00,1,-2.0,-2.3,-0.8,-1.0,0.0,-0.8,-4.6,-0.1,-0.9,,,*7E
$GNGRS,035842.00,1,-3.2,9.9,1.1,7.8,-2.5,-3.1,-15.0,-7.6,,,,*4B
$GNGST,035842.00,37,,,,1.8,2.3,4.9*40
$GNZDA,035842.00,23,05,2025,00,00*71
$GNGBS,035842.00,1.8,2.3,4.9,,,,*52
$GNTXT,01,01,01,More than 100 frame errors, UART RX was disabled*70
b0X*/!Y l3n1Y9*

{4#V^!:R 
Y[FqGRHI@J3TK#UV 7)W xbr>$GNRMC,035843.00,A,0419.89252,S,05539.92790,E,0.031,,230525,,,D*79
$GNVTG,,T,,M,0.031,N,0.058,K,D*37
$GNGNS,035843.00,0419.89252,S,05539.92790,E,DA,17,0.60,14.2,-47.6,,0000*61
$GNGGA,035843.00,0419.89252,S,05539.92790,E,2,12,0.60,14.2,M,-47.6,M,,0000*48
$GNGSA,A,3,24,20,05,13,15,22,06,12,14,,,,1.24,0.60,1.08*13
$GNGSA,A,3,86,74,75,87,85,73,71,72,,,,,1.24,0.60,1.08*1E
$GPGSV,5,1,18,05,42,165,27,06,14,028,31,11,47,021,,12,15,345,33*7E
$GPGSV,5,2,18,13,29,178,32,14,12,108,18,15,27,216,31,18,05,218,*76
$GPGSV,5,3,18,20,51,110,31,22,21,089,27,24,57,298,31,29,12,275,*78
$GPGSV,5,4,18,30,00,144,10,36,52,277,,40,86,350,35,41,58,082,33*7A
$GPGSV,5,5,18,49,32,274,,50,10,089,*78
$GLGSV,3,1,09,70,00,113,,71,13,154,17,72,13,202,22,73,21,132,13*6A
$GLGSV,3,2,09,74,51,084,23,75,35,009,28,85,21,004,28,86,55,297,32*63
$GLGSV,3,3,09,87,32,236,22*55
$GNGLL,0419.89252,S,05539.92790,E,035843.00,A,D*61
$GNGRS,035843.00,1,1.5,-2.1,-0.9,-0.1,2.2,1.4,-2.8,0.2,-2.9,,,*53
$GNGRS,035843.00,1,-2.3,9.9,-1.3,8.0,-2.4,-1.9,-14.5,-10.1,,,,*5C
$GNGST,035843.00,14132,,,,1.8,2.3,4.9*70
$GNZDA,035843.00,23,05,2025,00,00*70
$GNGBS,035843.00,1.8,2.3,4.9,,,,*53
$GNTXT,01,01,01,More than 100 frame errors, UART RX was disabled*70
b0Xp*+ / Y.Nll]3nhY9*

{4#V^!:R 
Y[IFqG4H[I<J3UQK#UV 7)W mPbpr$GNRMC,035844.00,A,0419.89254,S,05539.92791,E,0.049,,230525,,,D*76
$GNVTG,,T,,M,0.049,N,0.091,K,D*3D
$GNGNS,035844.00,0419.89254,S,05539.92791,E,DA,17,0.60,14.2,-47.6,,0000*61
$GNGGA,035844.00,0419.89254,S,05539.92791,E,2,12,0.60,14.2,M,-47.6,M,,0000*48
$GNGSA,A,3,24,20,05,13,15,22,06,12,14,,,,1.24,0.60,1.08*13
$GNGSA,A,3,86,74,75,87,85,73,71,72,,,,,1.24,0.60,1.08*1E
$GPGSV,5,1,18,05,42,165,27,06,14,028,32,11,47,021,,12,15,345,32*7C
$GPGSV,5,2,18,13,29,178,31,14,12,108,20,15,27,216,31,18,05,218,*7E
$GPGSV,5,3,18,20,51,110,31,22,21,089,27,24,57,298,31,29,12,275,*78
$GPGSV,5,4,18,30,00,144,10,36,52,277,,40,86,350,35,41,58,082,33*7A
$GPGSV,5,5,18,49,32,274,,50,10,089,*78
$GLGSV,3,1,09,70,00,113,,71,13,154,17,72,13,202,22,73,21,132,18*61
$GLGSV,3,2,09,74,51,085,23,75,35,009,28,85,21,004,28,86,55,297,32*62
$GLGSV,3,3,09,87,32,236,22*55
$GNGLL,0419.89254,S,05539.92791,E,035844.00,A,D*61
$GNGRS,035844.00,1,-0.4,-1.5,0.4,0.8,0.9,4.8,-2.6,0.5,-4.0,,,*7C
$GNGRS,035844.00,1,-1.1,8.5,-1.2,6.5,-1.2,-2.0,-14.8,-9.3,,,,*65
$GNGST,035844.00,21199,,,,1.8,2.3,4.9*70
$GNZDA,035844.00,23,05,2025,00,00*77
$GNGBS,035844.00,1.8,2.3,4.9,,,,*54
$GNTXT,01,01,01,More than 100 frame errors, UART RX was disabled*70
b0XX*/ / Y,Elu3n#Y/9*P
{4$V^!:R 
Y[ZFqGHPIcJ3UK$gU;V 7)W bXr!h$GNRMC,035845.00,A,0419.89254,S,05539.92789,E,0.093,,230525,,,D*79
$GNVTG,,T,,M,0.093,N,0.173,K,D*37
$GNGNS,035845.00,0419.89254,S,05539.92789,E,DA,17,0.60,14.2,-47.6,,0000*69
$GNGGA,035845.00,0419.89254,S,05539.92789,E,2,12,0.60,14.2,M,-47.6,M,,0000*40
$GNGSA,A,3,24,20,05,13,15,22,06,12,14,,,,1.24,0.60,1.08*13
$GNGSA,A,3,86,74,75,87,85,73,71,72,,,,,1.24,0.60,1.08*1E
$GPGSV,5,1,18,05,42,165,27,06,14,028,32,11,47,021,,12,15,345,32*7C
$GPGSV,5,2,18,13,29,178,31,14,12,108,21,15,27,216,31,18,05,218,*7F
$GPGSV,5,3,18,20,51,110,30,22,21,089,27,24,57,298,31,29,12,275,*79
$GPGSV,5,4,18,30,00,144,,36,52,277,,40,86,350,36,41,58,082,33*78
$GPGSV,5,5,18,49,32,274,,50,10,089,*78
$GLGSV,3,1,09,70,00,113,,71,13,154,17,72,13,202,22,73,21,132,15*6C
$GLGSV,3,2,09,74,51,085,23,75,36,009,28,85,21,004,28,86,55,297,32*61
$GLGSV,3,3,09,87,32,236,22*55
$GNGLL,0419.89254,S,05539.92789,E,035845.00,A,D*69
$GNGRS,035845.00,1,-1.8,-2.2,0.5,0.7,1.6,-2.1,-3.0,0.4,-4.0,,,*50
$GNGRS,035845.00,1,-1.1,8.0,3.6,10.4,-2.0,-1.6,-16.6,-9.4,,,,*73
$GNGST,035845.00,36,,,,1.8,2.3,4.9*46
$GNZDA,035845.00,23,05,2025,00,00*76
$GNGBS,035845.00,1.8,2.3,4.9,,,,*55
$GNTXT,01,01,01,More than 100 frame errors, UART RX was disabled*70
b0X@* /!Y' l
.3n_Y9*
{4$V^!:R 
Y[FqGHIJ3UK$UaV!7)W b@r%$GNRMC,035846.00,A,0419.89254,S,05539.92788,E,0.021,,230525,,,D*72
$GNVTG,,T,,M,0.021,N,0.040,K,D*3F
$GNGNS,035846.00,0419.89254,S,05539.92788,E,DA,17,0.60,14.2,-47.6,,0000*6B
$GNGGA,035846.00,0419.89254,S,05539.92788,E,2,12,0.60,14.2,M,-47.6,M,,0000*42
$GNGSA,A,3,24,20,05,13,15,22,06,12,14,,,,1.24,0.60,1.08*13
$GNGSA,A,3,86,74,75,87,85,73,71,72,,,,,1.24,0.60,1.08*1E
$GPGSV,5,1,18,05,42,165,27,06,14,028,32,11,47,021,,12,15,345,33*7D
$GPGSV,5,2,18,13,29,178,32,14,12,108,21,15,27,216,31,18,05,218,*7C
$GPGSV,5,3,18,20,51,110,31,22,21,089,28,24,57,298,31,29,12,275,*77
$GPGSV,5,4,18,30,00,144,,36,52,277,,40,86,350,36,41,58,082,33*78
$GPGSV,5,5,18,49,32,274,,50,10,089,*78
$GLGSV,3,1,09,70,00,113,,71,13,154,16,72,13,202,22,73,21,132,16*6E
$GLGSV,3,2,09,74,51,085,24,75,36,009,29,85,21,004,28,86,55,297,33*66
$GLGSV,3,3,09,87,32,236,21*56
$GNGLL,0419.89254,S,05539.92788,E,035846.00,A,D*6B
$GNGRS,035846.00,1,-0.4,-4.2,-0.8,2.3,0.5,-0.1,-3.0,0.4,-5.0,,,*7F
$GNGRS,035846.00,1,0.3,7.9,-0.1,7.9,-1.6,-2.8,-19.1,-7.9,,,,*49
$GNGST,035846.00,35,,,,1.8,2.3,4.9*46
$GNZDA,035846.00,23,05,2025,00,00*75
$GNGBS,035846.00,1.8,2.3,4.9,,,,*56
$GNTXT,01,01,01,More than 100 frame errors, UART RX was disabled*70
b0X(*i /!Y @l3nYA 9*
{4$V^!:R 
Y[FqGH:IJ3UK$UV!7)W 'b(r)8$GNRMC,035847.00,A,0419.89255,S,05539.92787,E,0.075,,230525,,,D*7C
$GNVTG,,T,,M,0.075,N,0.140,K,D*3F
$GNGNS,035847.00,0419.89255,S,05539.92787,E,DA,17,0.60,14.2,-47.6,,0000*64
$GNGGA,035847.00,0419.89255,S,05539.92787,E,2,12,0.60,14.2,M,-47.6,M,,0000*4D
$GNGSA,A,3,24,20,05,13,15,22,06,12,14,,,,1.24,0.60,1.08*13
$GNGSA,A,3,86,74,75,87,85,73,71,72,,,,,1.24,0.60,1.08*1E
$GPGSV,5,1,18,05,42,165,27,06,14,028,32,11,47,021,,12,15,345,33*7D
$GPGSV,5,2,18,13,29,178,32,14,12,108,22,15,27,216,31,18,05,218,*7F
$GPGSV,5,3,18,20,51,110,31,22,21,089,28,24,57,298,32,29,12,275,*74
$GPGSV,5,4,18,30,00,144,,36,52,277,,40,86,350,36,41,58,082,33*78
$GPGSV,5,5,18,49,32,274,,50,10,089,*78
$GLGSV,3,1,09,70,00,113,,71,13,154,18,72,13,202,22,73,21,132,16*60
$GLGSV,3,2,09,74,51,085,24,75,36,009,29,85,21,004,28,86,55,297,33*66
$GLGSV,3,3,09,87,32,236,22*55
$GNGLL,0419.89255,S,05539.92787,E,035847.00,A,D*64
$GNGRS,035847.00,1,1.4,-3.6,1.0,3.2,-0.5,0.7,-3.3,0.2,-1.1,,,*73
$GNGRS,035847.00,1,2.2,7.9,-0.1,10.0,-1.2,-3.3,-17.8,-7.1,,,,*75
$GNGST,035847.00,34,,,,1.8,2.3,4.9*46
$GNZDA,035847.00,23,05,2025,00,00*74
$GNGBS,035847.00,1.8,2.3,4.9,,,,*57
$GNTXT,01,01,01,More than 100 frame errors, UART RX was disabled*70
b0X* /!YCl Y3nPY 9*
{4$V^!:R 
Y["FqGBH#IJ3UK$UxV!7)W 1aabr-u$GNRMC,035848.00,A,0419.89255,S,05539.92787,E,0.014,,230525,,,D*74
$GNVTG,,T,,M,0.014,N,0.027,K,D*38
$GNGNS,035848.00,0419.89255,S,05539.92787,E,DA,17,0.60,14.3,-47.6,,0000*6A
$GNGGA,035848.00,0419.89255,S,05539.92787,E,2,12,0.60,14.3,M,-47.6,M,,0000*43
$GNGSA,A,3,24,20,05,13,15,22,06,12,14,,,,1.24,0.60,1.08*13
$GNGSA,A,3,86,74,75,87,85,73,71,72,,,,,1.24,0.60,1.08*1E
$GPGSV,5,1,18,05,42,165,26,06,14,028,32,11,47,021,,12,15,345,33*7C
$GPGSV,5,2,18,13,29,178,31,14,12,108,22,15,27,216,32,18,05,218,*7F
$GPGSV,5,3,18,20,51,110,30,22,21,089,28,24,57,298,32,29,12,275,*75
$GPGSV,5,4,18,30,00,144,,36,52,277,,40,86,350,36,41,58,082,33*78
$GPGSV,5,5,18,49,32,274,,50,10,089,*78
$GLGSV,3,1,09,70,00,113,,71,13,154,18,72,13,202,22,73,21,132,16*60
$GLGSV,3,2,09,74,51,085,23,75,36,009,29,85,21,004,28,86,55,297,33*61
$GLGSV,3,3,09,87,32,236,22*55
$GNGLL,0419.89255,S,05539.92787,E,035848.00,A,D*6B
$GNGRS,035848.00,1,-0.4,-4.3,2.0,3.2,-1.7,2.0,-3.3,0.1,0.1,,,*78
$GNGRS,035848.00,1,-0.8,9.1,-0.2,10.7,-1.4,-3.7,-17.3,-7.3,,,,*56
$GNGST,035848.00,35,,,,1.7,2.3,4.9*47
$GNZDA,035848.00,23,05,2025,00,00*7B
$GNGBS,035848.00,1.7,2.3,4.9,,,,*57
$GNTXT,01,01,01,More than 100 frame errors, UART RX was disabled*70
b0X*O /!Y(l3ncY 9*z
{4$V^!:R 
Y[dFqGHeI?J3UbK$UV!7)W sbr1L$GNRMC,035849.00,A,0419.89254,S,05539.92787,E,0.034,,230525,,,D*76
$GNVTG,,T,,M,0.034,N,0.063,K,D*3A
$GNGNS,035849.00,0419.89254,S,05539.92787,E,DA,17,0.60,14.3,-47.6,,0000*6A
$GNGGA,035849.00,0419.89254,S,05539.92787,E,2,12,0.60,14.3,M,-47.6,M,,0000*43
$GNGSA,A,3,24,20,05,13,15,22,06,12,14,,,,1.24,0.60,1.08*13
$GNGSA,A,3,86,74,75,87,85,73,71,72,,,,,1.24,0.60,1.08*1E
$GPGSV,5,1,18,05,42,165,26,06,14,028,32,11,47,021,,12,15,345,33*7C
$GPGSV,5,2,18,13,29,178,31,14,12,108,23,15,27,216,31,18,05,218,*7D
$GPGSV,5,3,18,20,51,110,31,22,21,089,28,24,57,298,32,29,12,275,*74
$GPGSV,5,4,18,30,00,144,,36,52,277,,40,86,350,36,41,58,082,33*78
$GPGSV,5,5,18,49,32,274,,50,10,089,*78
$GLGSV,3,1,09,70,00,113,,71,13,154,18,72,13,202,22,73,21,132,16*60
$GLGSV,3,2,09,74,51,085,23,75,36,009,29,85,21,004,27,86,55,297,33*6E
$GLGSV,3,3,09,87,32,236,22*55
$GNGLL,0419.89254,S,05539.92787,E,035849.00,A,D*6B
$GNGRS,035849.00,1,-1.3,-4.1,0.8,-1.3,2.0,2.7,-3.2,0.4,-0.6,,,*59
$GNGRS,035849.00,1,1.7,8.7,-2.9,11.4,-0.3,-4.5,-17.6,-6.7,,,,*7B
$GNGST,035849.00,35,,,,1.7,2.3,4.9*46
$GNZDA,035849.00,23,05,2025,00,00*7A
$GNGBS,035849.00,1.7,2.3,4.9,,,,*56
$GNTXT,01,01,01,More than 100 frame errors, UART RX was disabled*70
b0X* / Y6l3nSY 9*
{4$V^!:R 
Y[FqGHItJ3UgK$UV!7)~W brv5$a$GNRMC,035850.00,A,0419.89255,S,05539.92787,E,0.064,,230525,,,D*7A
$GNVTG,,T,,M,0.064,N,0.119,K,D*33
$GNGNS,035850.00,0419.89255,S,05539.92787,E,DA,17,0.60,14.3,-47.6,,0000*63
$GNGGA,035850.00,0419.89255,S,05539.92787,E,2,12,0.60,14.3,M,-47.6,M,,0000*4A
$GNGSA,A,3,24,20,05,13,15,22,06,12,14,,,,1.24,0.60,1.08*13
$GNGSA,A,3,86,74,75,87,85,73,71,72,,,,,1.24,0.60,1.08*1E
$GPGSV,5,1,18,05,42,165,26,06,14,028,32,11,47,021,,12,15,345,32*7D
$GPGSV,5,2,18,13,29,178,31,14,12,108,22,15,27,216,31,18,05,218,*7C
$GPGSV,5,3,18,20,51,110,30,22,21,089,28,24,57,298,32,29,12,275,*75
$GPGSV,5,4,18,30,00,144,,36,52,277,,40,86,350,36,41,58,082,33*78
$GPGSV,5,5,18,49,32,274,,50,10,089,*78
$GLGSV,3,1,09,70,00,113,,71,13,154,18,72,13,202,22,73,21,132,15*63
$GLGSV,3,2,09,74,51,085,23,75,36,009,28,85,21,004,27,86,55,297,33*6F
$GLGSV,3,3,09,87,32,236,22*55
$GNGLL,0419.89255,S,05539.92787,E,035850.00,A,D*62
$GNGRS,035850.00,1,-0.1,-4.3,2.2,3.1,2.1,1.3,-0.3,0.3,-2.5,,,*77
$GNGRS,035850.00,1,-1.3,8.7,-3.2,12.0,-2.6,-4.0,-15.6,-7.5,,,,*54
$GNGST,035850.00,35,,,,1.7,2.3,4.9*4E
$GNZDA,035850.00,23,05,2025,00,00*72
$GNGBS,035850.00,1.7,2.3,4.9,,,,*5E
$GNTXT,01,01,01,More than 100 frame errors, UART RX was disabled*70
b0X* J/!YlTU3nY^9*
{4$V^ :R 
Y[FqGHI3J3UK$UCV 7)VW bbr^9$GNRMC,035851.00,A,0419.89253,S,05539.92788,E,0.088,,230525,,,D*70
$GNVTG,,T,,M,0.088,N,0.164,K,D*3B
$GNGNS,035851.00,0419.89253,S,05539.92788,E,DA,17,0.60,14.4,-47.6,,0000*6C
$GNGGA,035851.00,0419.89253,S,05539.92788,E,2,12,0.60,14.4,M,-47.6,M,,0000*45
$GNGSA,A,3,24,20,05,13,15,22,06,12,14,,,,1.24,0.60,1.08*13
$GNGSA,A,3,86,74,75,87,85,73,71,72,,,,,1.24,0.60,1.08*1E
$GPGSV,5,1,18,05,42,165,27,06,14,028,32,11,47,021,,12,15,345,33*7D
$GPGSV,5,2,18,13,29,178,31,14,12,108,22,15,27,216,31,18,05,218,*7C
$GPGSV,5,3,18,20,51,110,30,22,21,089,28,24,57,298,31,29,12,275,*76
$GPGSV,5,4,18,30,00,144,,36,52,277,,40,86,350,36,41,58,082,32*79
$GPGSV,5,5,18,49,32,274,,50,10,089,*78
$GLGSV,3,1,09,70,00,113,,71,13,154,17,72,13,202,21,73,21,132,14*6E
$GLGSV,3,2,09,74,51,085,22,75,36,009,28,85,21,004,27,86,55,297,32*6F
$GLGSV,3,3,09,87,32,236,21*56
$GNGLL,0419.89253,S,05539.92788,E,035851.00,A,D*6A
$GNGRS,035851.00,1,0.2,-6.4,1.5,-2.6,0.9,0.9,-1.8,0.2,-1.7,,,*79
$GNGRS,035851.00,1,-1.7,7.8,-0.7,12.5,-1.9,-4.6,-16.3,-7.7,,,,*5C
$GNGST,035851.00,36,,,,1.8,2.3,5.0*4B
$GNZDA,035851.00,23,05,2025,00,00*73
$GNGBS,035851.00,1.8,2.3,5.0,,,,*58
$GNTXT,01,01,01,More than 100 frame errors, UART RX was disabled*70
b0X*f ,/ Yl(3nY 9*
{4$V^!:R 
Y[PFqGHIJ3UK$UUV 7)TW pbrF=1$GNRMC,035852.00,A,0419.89254,S,05539.92790,E,0.027,,230525,,,D*78
$GNVTG,,T,,M,0.027,N,0.050,K,D*38
$GNGNS,035852.00,0419.89254,S,05539.92790,E,DA,17,0.60,14.4,-47.6,,0000*61
$GNGGA,035852.00,0419.89254,S,05539.92790,E,2,12,0.60,14.4,M,-47.6,M,,0000*48
$GNGSA,A,3,24,20,05,13,15,22,06,12,14,,,,1.24,0.60,1.08*13
$GNGSA,A,3,86,74,75,87,85,73,71,72,,,,,1.24,0.60,1.08*1E
$GPGSV,5,1,18,05,42,165,27,06,14,028,32,11,47,021,,12,15,345,32*7C
$GPGSV,5,2,18,13,29,178,31,14,12,108,22,15,27,216,31,18,05,218,*7C
$GPGSV,5,3,18,20,51,110,30,22,21,089,28,24,57,298,32,29,12,275,*75
$GPGSV,5,4,18,30,00,144,,36,52,277,,40,86,350,36,41,58,082,33*78
$GPGSV,5,5,18,49,32,274,,50,10,089,*78
$GLGSV,3,1,09,70,00,113,,71,13,154,17,72,13,202,21,73,21,132,12*68
$GLGSV,3,2,09,74,51,085,22,75,36,009,28,85,21,004,27,86,55,297,32*6F
$GLGSV,3,3,09,87,32,236,20*57
$GNGLL,0419.89254,S,05539.92790,E,035852.00,A,D*67
$GNGRS,035852.00,1,-0.2,-0.5,3.6,1.6,-0.8,1.6,-4.7,0.2,-2.2,,,*51
$GNGRS,035852.00,1,-1.7,7.8,0.8,11.4,1.6,-6.0,-16.6,-7.7,,,,*5C
$GNGST,035852.00,37,,,,1.8,2.3,5.0*49
$GNZDA,035852.00,23,05,2025,00,00*70
$GNGBS,035852.00,1.8,2.3,5.0,,,,*5B
$GNTXT,01,01,01,More than 100 frame errors, UART RX was disabled*70
b0X*!b/ Y,lC 3nY 9*
{4$V^!:R 
Y[AFqGWHI
6J3UK$UVV 7)W 3~br.A$GNRMC,035853.00,A,0419.89254,S,05539.92792,E,0.018,,230525,,,D*77
$GNVTG,,T,,M,0.018,N,0.033,K,D*31
$GNGNS,035853.00,0419.89254,S,05539.92792,E,DA,17,0.60,14.5,-47.6,,0000*63
$GNGGA,035853.00,0419.89254,S,05539.92792,E,2,12,0.60,14.5,M,-47.6,M,,0000*4A
$GNGSA,A,3,24,20,05,13,15,22,06,12,14,,,,1.24,0.60,1.08*13
$GNGSA,A,3,86,74,75,87,85,73,71,72,,,,,1.24,0.60,1.08*1E
$GPGSV,5,1,18,05,42,165,27,06,14,028,33,11,47,021,,12,15,345,32*7D
$GPGSV,5,2,18,13,29,178,31,14,12,108,23,15,27,216,32,18,05,218,*7E
$GPGSV,5,3,18,20,51,110,31,22,21,089,29,24,57,298,32,29,12,275,*75
$GPGSV,5,4,18,30,00,144,,36,52,277,,40,86,350,36,41,58,082,33*78
$GPGSV,5,5,18,49,32,274,,50,10,089,*78
$GLGSV,3,1,09,70,00,113,,71,13,154,17,72,13,202,21,73,21,132,10*6A
$GLGSV,3,2,09,74,51,085,22,75,36,009,28,85,21,004,27,86,55,297,32*6F
$GLGSV,3,3,09,87,32,236,20*57
$GNGLL,0419.89254,S,05539.92792,E,035853.00,A,D*64
$GNGRS,035853.00,1,0.0,-0.9,4.1,1.6,-1.2,4.3,-4.1,0.4,-1.9,,,*70
$GNGRS,035853.00,1,-2.9,7.9,0.0,10.7,0.9,-7.1,-14.5,-8.4,,,,*58
$GNGST,035853.00,39,,,,1.8,2.3,5.0*46
$GNZDA,035853.00,23,05,2025,00,00*71
$GNGBS,035853.00,1.8,2.3,5.0,,,,*5A
$GNTXT,01,01,01,More than 100 frame errors, UART RX was disabled*70
b0X* /!Yl 3nY9*
{4$V^!:R 
Y[FqGH$IJ3UvK$UV 7)W clbrE$GNRMC,035854.00,A,0419.89254,S,05539.92796,E,0.103,,230525,,,A*7A
$GNVTG,,T,,M,0.103,N,0.192,K,A*35
$GNGNS,035854.00,0419.89254,S,05539.92796,E,AA,16,0.61,14.6,-47.6,,*66
$GNGGA,035854.00,0419.89254,S,05539.92796,E,1,12,0.61,14.6,M,-47.6,M,,*48
$GNGSA,A,3,24,20,05,13,15,22,06,12,14,,,,1.24,0.61,1.08*12
$GNGSA,A,3,86,74,75,87,85,71,72,,,,,,1.24,0.61,1.08*1B
$GPGSV,5,1,18,05,42,165,27,06,14,028,32,11,47,021,,12,15,345,33*7D
$GPGSV,5,2,18,13,29,178,31,14,12,108,23,15,27,216,32,18,05,218,*7E
$GPGSV,5,3,18,20,51,110,30,22,21,089,29,24,57,298,31,29,12,275,*77
$GPGSV,5,4,18,30,00,144,,36,52,277,,40,86,350,36,41,58,082,33*78
$GPGSV,5,5,18,49,32,274,,50,10,089,*78
$GLGSV,3,1,09,70,00,113,,71,13,154,17,72,13,202,20,73,21,132,09*63
$GLGSV,3,2,09,74,51,085,22,75,36,009,27,85,21,004,27,86,55,297,32*60
$GLGSV,3,3,09,87,32,236,20*57
$GNGLL,0419.89254,S,05539.92796,E,035854.00,A,A*62
$GNGRS,035854.00,1,-0.6,-3.2,2.5,-2.4,-1.0,2.2,-3.8,-1.1,-2.9,,,*5B
$GNGRS,035854.00,1,-3.3,8.9,-2.9,10.2,0.2,-15.2,-9.9,,,,,*7C
$GNGST,035854.00,33,,,,1.8,2.3,5.0*4B
$GNZDA,035854.00,23,05,2025,00,00*76
$GNGBS,035854.00,1.8,2.3,5.0,,,,*5D
$GNTXT,01,01,01,More than 100 frame errors, UART RX was disabled*70
b0Xh* /!Y~tl 3nY 9*
{4%V^!:R 
Y[FqGSH0IJJ3UK$UV!7)W 1bhrHYP$GNRMC,035855.00,A,0419.89257,S,05539.92797,E,0.038,,230525,,,A*70
$GNVTG,,T,,M,0.038,N,0.070,K,A*31
$GNGNS,035855.00,0419.89257,S,05539.92797,E,AA,16,0.61,14.5,-47.6,,*66
$GNGGA,035855.00,0419.89257,S,05539.92797,E,1,12,0.61,14.5,M,-47.6,M,,*48
$GNGSA,A,3,24,20,05,13,15,22,06,12,14,,,,1.24,0.61,1.08*12
$GNGSA,A,3,86,74,75,87,85,71,72,,,,,,1.24,0.61,1.08*1B
$GPGSV,5,1,18,05,42,165,27,06,14,028,32,11,47,021,,12,15,345,33*7D
$GPGSV,5,2,18,13,29,178,31,14,12,108,24,15,27,216,32,18,05,218,*79
$GPGSV,5,3,18,20,51,110,30,22,21,089,30,24,57,298,32,29,12,275,*7C
$GPGSV,5,4,18,30,00,144,,36,52,277,,40,86,350,37,41,58,082,33*79
$GPGSV,5,5,18,49,32,274,,50,10,089,*78
$GLGSV,3,1,09,70,00,113,,71,13,154,16,72,13,202,20,73,21,132,08*63
$GLGSV,3,2,09,74,51,085,22,75,36,009,28,85,21,004,26,86,55,297,33*6F
$GLGSV,3,3,09,87,32,236,19*5D
$GNGLL,0419.89257,S,05539.92797,E,035855.00,A,A*61
$GNGRS,035855.00,1,-0.5,-5.1,2.3,1.2,-1.0,1.9,-5.0,-1.3,-1.1,,,*7D
$GNGRS,035855.00,1,-3.1,9.0,-1.1,11.6,0.2,-12.0,-9.8,,,,,*7D
$GNGST,035855.00,34,,,,1.8,2.3,5.0*4D
$GNZDA,035855.00,23,05,2025,00,00*77
$GNGBS,035855.00,1.8,2.3,5.0,,,,*5C
$GNTXT,01,01,01,More than 100 frame errors, UART RX was disabled*70
b0XP**!;/!YxlW3nYw 9*
{4$V^ :R 
Y[FqGHI'J3UHK$UV!6+W HQbPrL1$GNRMC,035856.00,A,0419.89258,S,05539.92799,E,0.035,,230525,,,A*7F
$GNVTG,,T,,M,0.035,N,0.064,K,A*39
$GNGNS,035856.00,0419.89258,S,05539.92799,E,AA,17,0.60,14.6,-47.6,,*67
$GNGGA,035856.00,0419.89258,S,05539.92799,E,1,12,0.60,14.6,M,-47.6,M,,*48
$GNGSA,A,3,24,20,05,13,15,22,06,12,14,,,,1.24,0.60,1.08*13
$GNGSA,A,3,86,74,75,87,85,73,71,72,,,,,1.24,0.60,1.08*1E
$GPGSV,5,1,18,05,42,165,27,06,14,028,33,11,47,021,,12,15,345,33*7C
$GPGSV,5,2,18,13,29,178,30,14,12,108,24,15,27,216,31,18,05,218,*7B
$GPGSV,5,3,18,20,51,110,30,22,21,089,30,24,57,298,32,29,12,275,*7C
$GPGSV,5,4,18,30,00,144,,36,52,277,,40,86,350,36,41,58,082,32*79
$GPGSV,5,5,18,49,32,274,,50,10,089,*78
$GLGSV,3,1,09,70,00,113,,71,13,154,18,72,13,202,21,73,21,132,09*6D
$GLGSV,3,2,09,74,51,085,23,75,36,009,29,85,21,004,27,86,54,299,33*61
$GLGSV,3,3,09,87,32,236,21*56
$GNGLL,0419.89258,S,05539.92799,E,035856.00,A,A*63
$GNGRS,035856.00,1,-0.5,-3.4,0.4,-0.7,-1.0,1.2,-4.5,-1.4,0.9,,,*7D
$GNGRS,035856.00,1,-2.9,8.4,-3.2,11.0,-0.8,-7.3,-10.7,-10.3,,,,*63
$GNGST,035856.00,70662,,,,1.8,2.3,5.0*7C
$GNZDA,035856.00,23,05,2025,00,00*74
$GNGBS,035856.00,1.8,2.3,5.0,,,,*5F
$GNTXT,01,01,01,More than 100 frame errors, UART RX was disabled*70
b0X8*k w/ Yl3nY79*
{4$V^!:R 
Y[FqGeHIBJ3UK$3UV6+W b8rP $GNRMC,035857.00,A,0419.89258,S,05539.92802,E,0.031,,230525,,,A*77
$GNVTG,,T,,M,0.031,N,0.058,K,A*32
$GNGNS,035857.00,0419.89258,S,05539.92802,E,AA,17,0.60,14.8,-47.6,,*65
$GNGGA,035857.00,0419.89258,S,05539.92802,E,1,12,0.60,14.8,M,-47.6,M,,*4A
$GNGSA,A,3,24,20,05,13,15,22,06,12,14,,,,1.24,0.60,1.08*13
$GNGSA,A,3,86,74,75,87,85,73,71,72,,,,,1.24,0.60,1.08*1E
$GPGSV,5,1,18,05,42,165,26,06,14,028,32,11,47,021,,12,15,345,32*7D
$GPGSV,5,2,18,13,29,178,30,14,12,108,23,15,27,216,31,18,05,218,*7C
$GPGSV,5,3,18,20,51,110,30,22,21,089,29,24,57,298,31,29,12,275,*77
$GPGSV,5,4,18,30,00,144,,36,52,277,,40,86,350,36,41,58,082,33*78
$GPGSV,5,5,18,49,32,274,,50,10,089,*78
$GLGSV,3,1,09,70,00,113,,71,13,154,18,72,13,202,20,73,21,132,12*66
$GLGSV,3,2,09,74,51,085,22,75,36,009,28,85,21,004,26,86,54,299,31*62
$GLGSV,3,3,09,87,32,237,20*56
$GNGLL,0419.89258,S,05539.92802,E,035857.00,A,A*6F
$GNGRS,035857.00,1,-0.8,0.1,1.1,1.5,-0.6,0.5,-3.9,-1.2,1.9,,,*7D
$GNGRS,035857.00,1,-2.8,7.9,-4.6,11.7,0.2,-7.0,-11.8,-10.6,,,,*4A
$GNGST,035857.00,70662,,,,1.8,2.3,5.0*7D
$GNZDA,035857.00,23,05,2025,00,00*75
$GNGBS,035857.00,1.8,2.3,5.0,,,,*5E
$GNTXT,01,01,01,More than 100 frame errors, UART RX was disabled*70
b0X *!I/!Y Wl  3nfYu 9*
{4$V^":R 
Y[FqG]HIyJ3U2K$UV#6+3W ub rT$GNRMC,035858.00,A,0419.89259,S,05539.92802,E,0.016,,230525,,,A*7C
$GNVTG,,T,,M,0.016,N,0.029,K,A*31
$GNGNS,035858.00,0419.89259,S,05539.92802,E,AA,17,0.60,14.8,-47.6,,*6B
$GNGGA,035858.00,0419.89259,S,05539.92802,E,1,12,0.60,14.8,M,-47.6,M,,*44
$GNGSA,A,3,24,20,05,13,15,22,06,12,14,,,,1.24,0.60,1.08*13
$GNGSA,A,3,86,74,75,87,85,73,71,72,,,,,1.24,0.60,1.08*1E
$GPGSV,5,1,18,05,42,165,27,06,14,028,33,11,47,021,,12,15,345,33*7C
$GPGSV,5,2,18,13,29,178,32,14,12,108,21,15,27,216,32,18,05,218,*7F
$GPGSV,5,3,18,20,51,110,32,22,21,089,28,24,57,298,32,29,12,275,*77
$GPGSV,5,4,18,30,00,144,,36,52,277,,40,86,350,36,41,58,082,34*7F
$GPGSV,5,5,18,49,32,274,,50,10,089,*78
$GLGSV,3,1,09,70,00,113,,71,13,154,22,72,13,202,22,73,21,132,19*66
$GLGSV,3,2,09,74,51,085,25,75,36,009,30,85,21,004,29,86,54,299,35*67
$GLGSV,3,3,09,87,32,237,20*56
$GNGLL,0419.89259,S,05539.92802,E,035858.00,A,A*61
$GNGRS,035858.00,1,-0.9,-1.5,1.8,0.9,-0.7,-4.0,-4.4,-1.1,2.1,,,*70
$GNGRS,035858.00,1,0.5,8.2,-3.2,10.5,-0.8,-6.5,-9.3,-11.3,,,,*76
$GNGST,035858.00,33,,,,1.8,2.3,5.0*47
$GNZDA,035858.00,23,05,2025,00,00*7A
$GNGBS,035858.00,1.8,2.3,5.0,,,,*51
$GNTXT,01,01,01,More than 100 frame errors, UART RX was disabled*70
b0X*!/!Y l !3nKY[!9*
{4%V^":R 
Y[VFqGH.IJ3UK$U\V$6+W )brX$GNRMC,035859.00,A,0419.89261,S,05539.92804,E,0.046,,230525,,,A*75
$GNVTG,,T,,M,0.046,N,0.086,K,A*31
$GNGNS,035859.00,0419.89261,S,05539.92804,E,AA,17,0.60,14.8,-47.6,,*67
$GNGGA,035859.00,0419.89261,S,05539.92804,E,1,12,0.60,14.8,M,-47.6,M,,*48
$GNGSA,A,3,24,20,05,13,15,22,06,12,14,,,,1.24,0.60,1.08*13
$GNGSA,A,3,86,74,75,87,85,73,71,72,,,,,1.24,0.60,1.08*1E
$GPGSV,5,1,18,05,42,165,29,06,14,028,33,11,47,021,,12,15,345,33*72
$GPGSV,5,2,18,13,29,178,32,14,12,108,20,15,27,216,32,18,05,218,*7E
$GPGSV,5,3,18,20,51,110,33,22,21,089,28,24,57,298,33,29,12,275,*77
$GPGSV,5,4,18,30,00,144,,36,52,277,,40,86,350,37,41,58,082,34*7E
$GPGSV,5,5,18,49,32,274,,50,10,089,*78
$GLGSV,3,1,09,70,00,113,,71,13,154,23,72,13,202,24,73,21,132,17*6F
$GLGSV,3,2,09,74,51,085,26,75,36,009,31,85,21,004,30,86,54,299,36*6E
$GLGSV,3,3,09,87,32,237,22*54
$GNGLL,0419.89261,S,05539.92804,E,035859.00,A,A*6D
$GNGRS,035859.00,1,-0.9,-1.8,2.0,-0.4,-0.7,-4.2,-2.8,-0.8,2.5,,,*53
$GNGRS,035859.00,1,-2.3,7.1,-0.5,9.7,-4.2,-2.4,-7.5,-9.8,,,,*5D
$GNGST,035859.00,32,,,,1.7,2.3,5.0*48
$GNZDA,035859.00,23,05,2025,00,00*7B
$GNGBS,035859.00,1.7,2.3,5.0,,,,*5F
$GNTXT,01,01,01,More than 100 frame errors, UART RX was disabled*70
b0X*"#/"Y!l!!3n5Y!9*
{4&V^%:R 
Y[FqGHXIAJ3UzK$eUV$6+PW br\I$GNRMC,035900.00,A,0419.89261,S,05539.92806,E,0.070,,230525,,,A*7F
$GNVTG,,T,,M,0.070,N,0.129,K,A*30
$GNGNS,035900.00,0419.89261,S,05539.92806,E,AA,17,0.60,14.8,-47.6,,*68
$GNGGA,035900.00,0419.89261,S,05539.92806,E,1,12,0.60,14.8,M,-47.6,M,,*47
$GNGSA,A,3,24,20,05,13,15,22,06,12,14,,,,1.24,0.60,1.08*13
$GNGSA,A,3,86,74,75,87,85,73,71,72,,,,,1.24,0.60,1.08*1E
$GPGSV,5,1,18,05,42,165,29,06,14,028,34,11,47,021,,12,15,345,34*72
$GPGSV,5,2,18,13,29,178,33,14,12,108,22,15,27,216,33,18,05,218,*7C
$GPGSV,5,3,18,20,51,110,33,22,21,089,28,24,57,298,33,29,12,275,*77
$GPGSV,5,4,18,30,00,144,,36,52,277,,40,86,350,38,41,58,082,37*72
$GPGSV,5,5,18,49,32,274,,50,10,089,*78
$GLGSV,3,1,09,70,00,113,,71,13,154,24,72,13,202,25,73,21,132,19*67
$GLGSV,3,2,09,74,51,085,26,75,36,009,31,85,21,004,30,86,54,299,36*6E
$GLGSV,3,3,09,87,32,237,22*54
$GNGLL,0419.89261,S,05539.92806,E,035900.00,A,A*62
$GNGRS,035900.00,1,-1.1,0.5,0.2,-1.1,-0.6,-0.2,-2.2,-0.8,2.0,,,*78
$GNGRS,035900.00,1,-1.8,6.3,-1.6,9.0,-3.0,-4.5,-3.7,-9.4,,,,*56
$GNGST,035900.00,29,,,,1.7,2.3,4.9*47
$GNZDA,035900.00,23,05,2025,00,00*76
$GNGBS,035900.00,1.7,2.3,4.9,,,,*5A
$GNTXT,01,01,01,More than 100 frame errors, UART RX was disabled*70
b0X*9"6/"Y!la!"3nY"9*
{4&V^$:R 
Y[FqGpHIQJ3U(K $UrV$6+W L`brn`h$GNRMC,035901.00,A,0419.89261,S,05539.92808,E,0.045,,230525,,,A*76
$GNVTG,,T,,M,0.045,N,0.084,K,A*30
$GNGNS,035901.00,0419.89261,S,05539.92808,E,AA,17,0.60,14.9,-47.6,,*66
$GNGGA,035901.00,0419.89261,S,05539.92808,E,1,12,0.60,14.9,M,-47.6,M,,*49
$GNGSA,A,3,24,20,05,13,15,22,06,12,14,,,,1.24,0.60,1.08*13
$GNGSA,A,3,86,74,75,87,85,73,71,72,,,,,1.24,0.60,1.08*1E
$GPGSV,5,1,18,05,42,165,29,06,14,028,34,11,47,021,,12,15,345,34*72
$GPGSV,5,2,18,13,29,178,33,14,12,108,23,15,27,216,33,18,05,218,*7D
$GPGSV,5,3,18,20,51,110,34,22,21,089,29,24,57,298,34,29,12,275,*76
$GPGSV,5,4,18,30,00,144,,36,52,277,,40,86,350,38,41,58,082,36*73
$GPGSV,5,5,18,49,32,274,,50,10,089,*78
$GLGSV,3,1,09,70,00,113,,71,13,154,25,72,13,202,24,73,21,132,20*6D
$GLGSV,3,2,09,74,51,085,27,75,36,009,32,85,21,004,30,86,54,299,36*6C
$GLGSV,3,3,09,87,32,237,22*54
$GNGLL,0419.89261,S,05539.92808,E,035901.00,A,A*6D
$GNGRS,035901.00,1,-1.1,0.2,0.6,-1.0,-0.3,-2.8,-4.6,-0.7,1.0,,,*78
$GNGRS,035901.00,1,-0.3,5.5,-2.3,10.2,1.1,-4.3,-4.0,-7.9,,,,*4F
$GNGST,035901.00,28,,,,1.7,2.3,4.9*47
$GNZDA,035901.00,23,05,2025,00,00*77
$GNGBS,035901.00,1.7,2.3,4.9,,,,*5B
$GNTXT,01,01,01,More than 100 frame errors, UART RX was disabled*70
b0X*"/"Y!l~!!3nYw"9*
{4%V^":R 
Y[OFqGKHIJ3UK$UV$6+W brVd@$GNRMC,035902.00,A,0419.89261,S,05539.92810,E,0.022,,230525,,,A*7D
$GNVTG,,T,,M,0.022,N,0.041,K,A*38
$GNGNS,035902.00,0419.89261,S,05539.92810,E,AA,17,0.60,15.1,-47.6,,*65
