b0X=y$,=S

x<Q
0{4"V^:R 
Y
fEtFGIBJYP,TSU!4VbO=f>sZ$GNRMC,051156.00,A,0419.75640,S,05539.78872,E,0.304,,210525,,,A*77
$GNVTG,,T,,M,0.304,N,0.564,K,A*3D
$GNGNS,051156.00,0419.75640,S,05539.78872,E,AA,10,0.88,29.1,-47.6,,*64
$GNGGA,051156.00,0419.75640,S,05539.78872,E,1,10,0.88,29.1,M,-47.6,M,,*4E
$GNGSA,A,3,24,20,11,05,15,22,12,,,,,,1.72,0.88,1.48*13
$GNGSA,A,3,80,73,85,,,,,,,,,,1.72,0.88,1.48*14
$GPGSV,5,1,18,05,61,121,24,11,19,021,15,12,36,004,24,13,19,152,*75
$GPGSV,5,2,18,14,00,133,,15,28,187,17,18,25,235,20,20,44,061,14*7D
$GPGSV,5,3,18,22,15,120,10,23,04,211,,24,60,232,19,25,13,337,*7E
$GPGSV,5,4,18,29,10,304,,36,52,277,,40,86,350,34,41,58,082,*75
$GPGSV,5,5,18,49,32,274,,50,10,089,*78
$GLGSV,3,1,09,69,13,116,,70,17,179,,71,00,219,,73,66,016,26*60
$GLGSV,3,2,09,74,23,345,,80,44,135,18,84,28,339,,85,33,278,13*66
$GLGSV,3,3,09,86,05,228,*5F
$GNGLL,0419.75640,S,05539.78872,E,051156.00,A,A*68
$GNGRS,051156.00,1,5.2,8.5,15.0,-2.6,6.8,17.1,1.3,,,,,*54
$GNGRS,051156.00,1,-0.2,-2.9,-7.2,,,,,,,,,*59
$GNGST,051156.00,6516268,,,,7.2,12,20*73
$GNZDA,051156.00,21,05,2025,00,00*7D
$GNGBS,051156.00,7.2,11.9,19.7,,,,*5A
$GNTXT,01,01,01,More than 100 frame errors, UART RX was disabled*70
b0X=y$
,=

x<Q
0{4!V^:R 
Y
fEtFGIBJYP,TSU!VbO%j>K$GNRMC,051157.00,A,0419.75697,S,05539.78879,E,1.515,,210525,,,A*70
$GNVTG,,T,,M,1.515,N,2.806,K,A*31
$GNGNS,051157.00,0419.75697,S,05539.78879,E,AA,09,0.92,29.1,-47.6,,*67
$GNGGA,051157.00,0419.75697,S,05539.78879,E,1,09,0.92,29.1,M,-47.6,M,,*4D
$GNGSA,A,3,24,20,11,05,15,22,12,,,,,,1.76,0.92,1.50*15
$GNGSA,A,3,73,85,,,,,,,,,,,1.76,0.92,1.50*1A
$GPGSV,5,1,18,05,61,121,22,11,19,021,09,12,36,004,24,13,19,152,*7E
$GPGSV,5,2,18,14,00,133,,15,28,187,16,18,25,235,18,20,44,061,10*73
$GPGSV,5,3,18,22,15,120,10,23,04,211,,24,60,232,17,25,13,337,*70
$GPGSV,5,4,18,29,10,304,,36,52,277,,40,86,350,33,41,58,082,*72
$GPGSV,5,5,18,49,32,274,,50,10,089,*78
$GLGSV,3,1,09,69,13,116,,70,17,179,,71,00,219,,73,66,016,26*60
$GLGSV,3,2,09,74,23,345,,80,44,135,,84,28,339,,85,33,278,13*6F
$GLGSV,3,3,09,86,05,228,*5F
$GNGLL,0419.75697,S,05539.78879,E,051157.00,A,A*68
$GNGRS,051157.00,1,5.1,28.3,-28.5,-5.8,6.7,-38.3,1.5,,,,,*66
$GNGRS,051157.00,1,-3.4,-110,,,,,,,,,,*4E
$GNGST,051157.00,78,,,,7.3,12,20*44
$GNZDA,051157.00,21,05,2025,00,00*7C
$GNGBS,051157.00,7.3,12.2,19.8,,,,*5D
$GNTXT,01,01,01,More than 100 frame errors, UART RX was disabled*70
b0X=yJo$x,=

x<KQ
0{4$V^:R 
Y
fEtFGIBJYP,TSU!,V2bOn>#*$GNRMC,051158.00,A,0419.75722,S,05539.78855,E,0.711,,210525,,,A*79
$GNVTG,,T,,M,0.711,N,1.317,K,A*3E
$GNGNS,051158.00,0419.75722,S,05539.78855,E,AA,09,0.92,27.8,-47.6,,*6E
$GNGGA,051158.00,0419.75722,S,05539.78855,E,1,09,0.92,27.8,M,-47.6,M,,*44
$GNGSA,A,3,24,20,11,05,15,22,12,,,,,,1.76,0.92,1.50*15
$GNGSA,A,3,73,85,,,,,,,,,,,1.76,0.92,1.50*1A
$GPGSV,5,1,18,05,61,121,23,11,19,021,13,12,36,004,28,13,19,152,*78
$GPGSV,5,2,18,14,00,133,,15,28,187,15,18,25,235,15,20,44,061,19*74
$GPGSV,5,3,18,22,15,120,10,23,04,211,,24,60,232,19,25,13,337,*7E
$GPGSV,5,4,18,29,10,304,,36,52,277,,40,86,350,36,41,58,082,*77
$GPGSV,5,5,18,49,32,274,,50,10,089,*78
$GLGSV,3,1,09,69,13,116,,70,17,179,,71,00,219,,73,66,016,26*60
$GLGSV,3,2,09,74,23,345,,80,44,135,,84,28,339,,85,33,278,08*65
$GLGSV,3,3,09,86,05,228,*5F
$GNGLL,0419.75722,S,05539.78855,E,051158.00,A,A*66
$GNGRS,051158.00,1,5.9,7.9,13.9,-6.9,4.9,16.7,1.2,,,,,*53
$GNGRS,051158.00,1,-3.7,3.0,,,,,,,,,,*72
$GNGST,051158.00,7930510,,,,7.4,13,20*7B
$GNZDA,051158.00,21,05,2025,00,00*73
$GNGBS,051158.00,7.4,13.0,19.9,,,,*57
$GNTXT,01,01,01,More than 100 frame errors, UART RX was disabled*70
b0Xh=y9 $,=
x<Q
0{4%V^:R 
Y
fEtFGIBJYP,,TSU
!7VbhOq>$GNRMC,051159.00,A,0419.75738,S,05539.78858,E,0.324,,210525,,,A*7C
$GNVTG,,T,,M,0.324,N,0.601,K,A*3F
$GNGNS,051159.00,0419.75738,S,05539.78858,E,AA,09,0.92,28.0,-47.6,,*6E
$GNGGA,051159.00,0419.75738,S,05539.78858,E,1,09,0.92,28.0,M,-47.6,M,,*44
$GNGSA,A,3,24,20,11,05,15,22,12,,,,,,1.76,0.92,1.50*15
$GNGSA,A,3,73,85,,,,,,,,,,,1.76,0.92,1.50*1A
$GPGSV,5,1,18,05,61,121,22,11,19,021,16,12,36,004,32,13,19,152,*77
$GPGSV,5,2,18,14,00,133,,15,28,187,15,18,25,235,13,20,44,061,16*7D
$GPGSV,5,3,18,22,15,120,11,23,04,211,,24,60,232,22,25,13,337,*77
$GPGSV,5,4,18,29,10,304,,36,52,277,,40,86,350,37,41,58,082,*76
$GPGSV,5,5,18,49,32,274,,50,10,089,*78
$GLGSV,3,1,09,69,13,116,,70,17,179,,71,00,219,,73,66,016,27*61
$GLGSV,3,2,09,74,23,345,,80,44,135,18,84,28,339,,85,33,278,10*65
$GLGSV,3,3,09,86,05,228,*5F
$GNGLL,0419.75738,S,05539.78858,E,051159.00,A,A*61
$GNGRS,051159.00,1,4.7,6.4,13.4,-7.6,5.4,17.5,-5.0,,,,,*76
$GNGRS,051159.00,1,-3.7,3.1,,,,,,,,,,*72
$GNGST,051159.00,6868023,,,,7.4,14,20*75
$GNZDA,051159.00,21,05,2025,00,00*72
$GNGBS,051159.00,7.4,13.5,19.9,,,,*53
$GNTXT,01,01,01,More than 100 frame errors, UART RX was disabled*70
b0XP=y!$K,=
x<Q
0{4$V^:R 
Y
fEtFGIBuJYP,+TSU!yVbPOu>$GNRMC,051200.00,A,0419.75746,S,05539.78786,E,0.557,,210525,,,A*74
$GNVTG,,T,,M,0.557,N,1.031,K,A*39
$GNGNS,051200.00,0419.75746,S,05539.78786,E,AA,08,1.02,28.0,-47.6,,*6D
$GNGGA,051200.00,0419.75746,S,05539.78786,E,1,08,1.02,28.0,M,-47.6,M,,*47
$GNGSA,A,3,24,20,05,15,22,12,,,,,,,2.03,1.02,1.76*18
$GNGSA,A,3,73,85,,,,,,,,,,,2.03,1.02,1.76*17
$GPGSV,5,1,18,05,61,121,22,11,19,021,07,12,36,004,33,13,19,152,*76
$GPGSV,5,2,18,14,00,133,,15,28,187,16,18,25,235,15,20,44,061,19*77
$GPGSV,5,3,18,22,15,120,12,23,04,211,,24,60,232,23,25,13,337,*75
$GPGSV,5,4,18,29,10,304,,36,52,277,,40,86,350,36,41,58,082,*77
$GPGSV,5,5,18,49,32,274,,50,10,089,*78
$GLGSV,3,1,09,69,13,116,,70,17,179,,71,00,219,,73,66,016,27*61
$GLGSV,3,2,09,74,23,345,,80,44,135,19,84,28,339,,85,33,278,09*6C
$GLGSV,3,3,09,86,05,228,*5F
$GNGLL,0419.75746,S,05539.78786,E,051200.00,A,A*6B
$GNGRS,051200.00,1,4.0,4.1,-8.1,3.3,-52.3,-1.1,,,,,,*47
$GNGRS,051200.00,1,-3.9,70.3,,,,,,,,,,*45
$GNGST,051200.00,73,,,,7.3,14,20*48
$GNZDA,051200.00,21,05,2025,00,00*7D
$GNGBS,051200.00,7.3,13.5,19.7,,,,*55
$GNTXT,01,01,01,More than 100 frame errors, UART RX was disabled*70
b0X8=y $,=

x<!Q
0{4&V^:R 
Y
fEtFGIB)JYP,TSU!Vb8Oy>m$GNRMC,051201.00,A,0419.75738,S,05539.78750,E,0.617,,210525,,,A*70
$GNVTG,,T,,M,0.617,N,1.143,K,A*3A
$GNGNS,051201.00,0419.75738,S,05539.78750,E,AA,10,0.88,28.7,-47.6,,*63
$GNGGA,051201.00,0419.75738,S,05539.78750,E,1,10,0.88,28.7,M,-47.6,M,,*49
$GNGSA,A,3,24,20,11,05,15,22,12,,,,,,1.72,0.88,1.48*13
$GNGSA,A,3,80,73,85,,,,,,,,,,1.72,0.88,1.48*14
$GPGSV,5,1,18,05,61,121,20,11,19,021,13,12,36,004,32,13,19,152,*70
$GPGSV,5,2,18,14,00,133,,15,28,187,15,18,25,235,18,20,44,061,21*72
$GPGSV,5,3,18,22,15,120,10,23,04,211,,24,60,232,24,25,13,337,*70
$GPGSV,5,4,18,29,10,304,,36,52,277,,40,86,350,38,41,58,082,*79
$GPGSV,5,5,18,49,32,274,,50,10,089,*78
$GLGSV,3,1,09,69,13,116,,70,17,179,,71,00,219,,73,66,016,28*6E
$GLGSV,3,2,09,74,23,345,,80,44,135,22,84,28,339,,85,33,278,15*69
$GLGSV,3,3,09,86,05,228,*5F
$GNGLL,0419.75738,S,05539.78750,E,051201.00,A,A*68
$GNGRS,051201.00,1,5.5,2.8,15.4,-5.3,4.4,17.6,-1.2,,,,,*76
$GNGRS,051201.00,1,-8.5,-2.1,4.0,,,,,,,,,*73
$GNGST,051201.00,6515579,,,,7.2,14,20*70
$GNZDA,051201.00,21,05,2025,00,00*7C
$GNGBS,051201.00,7.2,13.5,19.5,,,,*57
$GNTXT,01,01,01,More than 100 frame errors, UART RX was disabled*70
b0X =yD$i-,=
x<Q
0{4%V^:R 
Y
fEtFGIBJYP,KTSU!WVub O}>$GNRMC,051202.00,A,0419.75740,S,05539.78683,E,1.148,,210525,,,A*7F
$GNVTG,,T,,M,1.148,N,2.127,K,A*37
$GNGNS,051202.00,0419.75740,S,05539.78683,E,AA,10,0.88,29.1,-47.6,,*67
$GNGGA,051202.00,0419.75740,S,05539.78683,E,1,10,0.88,29.1,M,-47.6,M,,*4D
$GNGSA,A,3,24,20,11,05,15,22,12,,,,,,1.72,0.88,1.48*13
$GNGSA,A,3,80,73,85,,,,,,,,,,1.72,0.88,1.48*14
$GPGSV,5,1,18,05,61,121,21,11,19,021,09,12,36,004,30,13,19,152,06*7E
$GPGSV,5,2,18,14,00,133,,15,28,187,16,18,25,235,20,20,44,061,24*7F
$GPGSV,5,3,18,22,15,120,09,23,04,211,,24,60,232,25,25,13,337,*79
$GPGSV,5,4,18,29,10,304,,36,52,277,,40,86,350,37,41,58,082,*76
$GPGSV,5,5,18,49,32,274,,50,10,089,*78
$GLGSV,3,1,09,69,13,116,,70,17,179,,71,00,219,,73,66,016,29*6F
$GLGSV,3,2,09,74,23,345,,80,44,135,21,84,28,339,,85,33,278,12*6D
$GLGSV,3,3,09,86,05,228,*5F
$GNGLL,0419.75740,S,05539.78683,E,051202.00,A,A*6B
$GNGRS,051202.00,1,4.9,0.1,16.0,-5.5,4.3,18.2,-1.5,,,,,*79
$GNGRS,051202.00,1,-9.5,-0.2,3.4,,,,,,,,,*73
$GNGST,051202.00,6515579,,,,7.2,13,19*7E
$GNZDA,051202.00,21,05,2025,00,00*7F
$GNGBS,051202.00,7.2,13.3,19.4,,,,*53
$GNTXT,01,01,01,More than 100 frame errors, UART RX was disabled*70
b0X=yE$Q,=
x<iQ
0{4&V^:R 
Y
fEtFGIBMJYP,TSU
!VGbO>[=$GNRMC,051203.00,A,0419.75733,S,05539.78636,E,0.467,,210525,,,A*7D
$GNVTG,,T,,M,0.467,N,0.865,K,A*33
$GNGNS,051203.00,0419.75733,S,05539.78636,E,AA,10,0.88,29.9,-47.6,,*64
$GNGGA,051203.00,0419.75733,S,05539.78636,E,1,10,0.88,29.9,M,-47.6,M,,*4E
$GNGSA,A,3,24,20,11,05,15,22,12,,,,,,1.72,0.88,1.48*13
$GNGSA,A,3,80,73,85,,,,,,,,,,1.72,0.88,1.48*14
$GPGSV,5,1,18,05,61,121,23,11,19,021,11,12,36,004,30,13,19,152,08*7B
$GPGSV,5,2,18,14,00,133,,15,28,187,16,18,25,235,21,20,44,061,24*7E
$GPGSV,5,3,18,22,15,120,11,23,04,211,,24,60,232,25,25,13,337,*70
$GPGSV,5,4,18,29,10,304,,36,52,277,,40,86,350,38,41,58,082,*79
$GPGSV,5,5,18,49,32,274,,50,10,089,*78
$GLGSV,3,1,09,69,13,116,,70,17,179,,71,00,219,,73,66,016,27*61
$GLGSV,3,2,09,74,23,345,,80,44,135,20,84,28,339,,85,33,278,10*6E
$GLGSV,3,3,09,86,05,228,*5F
$GNGLL,0419.75733,S,05539.78636,E,051203.00,A,A*60
$GNGRS,051203.00,1,3.6,-1.2,-27.9,-4.4,5.0,-28.6,2.5,,,,,*7F
$GNGRS,051203.00,1,-13.6,0.8,-11.3,,,,,,,,,*74
$GNGST,051203.00,65,,,,7.1,13,19*43
$GNZDA,051203.00,21,05,2025,00,00*7E
$GNGBS,051203.00,7.1,13.0,19.2,,,,*54
$GNTXT,01,01,01,More than 100 frame errors, UART RX was disabled*70
b0X=y$Q,=N
x<Q
0{4%V^:R 
Y
fEtFGIBJYP,CTSU!\VbO}>2$GNRMC,051204.00,A,0419.75728,S,05539.78607,E,0.334,,210525,,,A*73
$GNVTG,,T,,M,0.334,N,0.619,K,A*37
$GNGNS,051204.00,0419.75728,S,05539.78607,E,AA,10,0.88,29.9,-47.6,,*6B
$GNGGA,051204.00,0419.75728,S,05539.78607,E,1,10,0.88,29.9,M,-47.6,M,,*41
$GNGSA,A,3,24,20,11,05,15,22,12,,,,,,1.72,0.88,1.48*13
$GNGSA,A,3,80,73,85,,,,,,,,,,1.72,0.88,1.48*14
$GPGSV,5,1,18,05,61,121,24,11,19,021,11,12,36,004,31,13,19,152,12*76
$GPGSV,5,2,18,14,00,133,,15,28,187,15,18,25,235,21,20,44,061,25*7C
$GPGSV,5,3,18,22,15,120,08,23,04,211,,24,60,232,25,25,13,337,*78
$GPGSV,5,4,18,29,10,304,,36,52,277,,40,86,350,37,41,58,082,*76
$GPGSV,5,5,18,49,32,274,,50,10,089,*78
$GLGSV,3,1,09,69,13,116,,70,17,179,,71,00,219,,73,66,016,27*61
$GLGSV,3,2,09,74,23,345,,80,44,135,21,84,28,339,,85,33,278,09*67
$GLGSV,3,3,09,86,05,228,*5F
$GNGLL,0419.75728,S,05539.78607,E,051204.00,A,A*6F
$GNGRS,051204.00,1,3.9,-1.8,14.7,-3.6,5.3,17.1,2.0,,,,,*7B
$GNGRS,051204.00,1,-12.1,2.4,3.5,,,,,,,,,*63
$GNGST,051204.00,5323325,,,,7.1,13,19*74
$GNZDA,051204.00,21,05,2025,00,00*79
$GNGBS,051204.00,7.1,12.9,19.3,,,,*5A
$GNTXT,01,01,01,More than 100 frame errors, UART RX was disabled*70
b0X=y$/b,=
x<<Q
0{4%V^:R 
Y
fEtFGIBJYP,DTSU!&VbOe>
$GNRMC,051205.00,A,0419.75740,S,05539.78590,E,0.161,,210525,,,A*73
$GNVTG,,T,,M,0.161,N,0.297,K,A*37
$GNGNS,051205.00,0419.75740,S,05539.78590,E,AA,10,0.88,29.6,-47.6,,*66
$GNGGA,051205.00,0419.75740,S,05539.78590,E,1,10,0.88,29.6,M,-47.6,M,,*4C
$GNGSA,A,3,24,20,11,05,15,22,12,,,,,,1.72,0.88,1.48*13
$GNGSA,A,3,80,73,85,,,,,,,,,,1.72,0.88,1.48*14
$GPGSV,5,1,18,05,61,121,24,11,19,021,11,12,36,004,30,13,19,152,11*74
$GPGSV,5,2,18,14,00,133,,15,28,187,15,18,25,235,19,20,44,061,26*74
$GPGSV,5,3,18,22,15,120,09,23,04,211,,24,60,232,26,25,13,337,*7A
$GPGSV,5,4,18,29,10,304,,36,52,277,,40,86,350,37,41,58,082,*76
$GPGSV,5,5,18,49,32,274,,50,10,089,*78
$GLGSV,3,1,09,69,13,116,,70,17,179,,71,00,219,,73,66,016,26*60
$GLGSV,3,2,09,74,23,345,,80,44,135,22,84,28,339,,85,33,278,09*64
$GLGSV,3,3,09,86,05,228,*5F
$GNGLL,0419.75740,S,05539.78590,E,051205.00,A,A*6D
$GNGRS,051205.00,1,5.7,-2.3,14.4,-3.4,6.1,16.6,0.5,,,,,*7B
$GNGRS,051205.00,1,-7.0,-0.9,2.9,,,,,,,,,*78
$GNGST,051205.00,6515579,,,,7.0,13,19*7B
$GNZDA,051205.00,21,05,2025,00,00*78
$GNGBS,051205.00,7.0,12.8,19.3,,,,*5B
$GNTXT,01,01,01,More than 100 frame errors, UART RX was disabled*70
b0X=y $x`,=
xj<Q
0{4%V^:R 
Y
fEtFGIBYJYP,)TSU!VLbOM>f$GNRMC,051206.00,A,0419.75740,S,05539.78602,E,0.479,,210525,,,A*74
$GNVTG,,T,,M,0.479,N,0.887,K,A*30
$GNGNS,051206.00,0419.75740,S,05539.78602,E,AA,10,0.88,29.8,-47.6,,*63
$GNGGA,051206.00,0419.75740,S,05539.78602,E,1,10,0.88,29.8,M,-47.6,M,,*49
$GNGSA,A,3,24,20,11,05,15,22,12,,,,,,1.72,0.88,1.48*13
$GNGSA,A,3,80,73,85,,,,,,,,,,1.72,0.88,1.48*14
$GPGSV,5,1,18,05,61,121,25,11,19,021,11,12,36,004,32,13,19,152,11*77
$GPGSV,5,2,18,14,00,133,,15,28,187,18,18,25,235,17,20,44,061,24*75
$GPGSV,5,3,18,22,15,120,12,23,04,211,,24,60,232,27,25,13,337,*71
$GPGSV,5,4,18,29,10,304,,36,52,277,,40,86,350,37,41,58,082,*76
$GPGSV,5,5,18,49,32,274,,50,10,089,*78
$GLGSV,3,1,09,69,13,116,,70,17,179,,71,00,219,,73,66,016,26*60
$GLGSV,3,2,09,74,23,345,,80,44,135,23,84,28,339,,85,33,278,12*6F
$GLGSV,3,3,09,86,05,228,*5F
$GNGLL,0419.75740,S,05539.78602,E,051206.00,A,A*66
$GNGRS,051206.00,1,7.1,-2.5,-3.7,-3.6,1.4,-4.1,-1.4,,,,,*56
$GNGRS,051206.00,1,-7.3,0.9,-5.1,,,,,,,,,*77
$GNGST,051206.00,65,,,,7.0,13,19*47
$GNZDA,051206.00,21,05,2025,00,00*7B
$GNGBS,051206.00,7.0,12.5,19.2,,,,*54
$GNTXT,01,01,01,More than 100 frame errors, UART RX was disabled*70
b0X=y
 $
,=
xA<Q
0{4%V^:R 
Y
fEtFGIB]JYP,TSU!aVIbO5>$GNRMC,051207.00,A,0419.75764,S,05539.78613,E,0.482,,210525,,,A*77
$GNVTG,,T,,M,0.482,N,0.892,K,A*30
$GNGNS,051207.00,0419.75764,S,05539.78613,E,AA,10,1.13,28.6,-47.6,,*68
$GNGGA,051207.00,0419.75764,S,05539.78613,E,1,10,1.13,28.6,M,-47.6,M,,*42
$GNGSA,A,3,24,20,11,05,13,15,22,12,,,,,1.87,1.13,1.49*19
$GNGSA,A,3,80,73,,,,,,,,,,,1.87,1.13,1.49*11
$GPGSV,5,1,18,05,61,121,25,11,19,021,10,12,36,004,32,13,19,152,16*71
$GPGSV,5,2,18,14,00,133,,15,28,187,19,18,25,235,19,20,44,061,23*7D
$GPGSV,5,3,18,22,15,120,13,23,04,211,,24,60,232,30,25,13,337,*76
$GPGSV,5,4,18,29,10,304,,36,52,277,,40,86,350,37,41,58,082,*76
$GPGSV,5,5,18,49,32,274,,50,10,089,*78
$GLGSV,3,1,09,69,13,116,,70,17,179,,71,00,219,,73,66,016,26*60
$GLGSV,3,2,09,74,23,345,,80,44,135,24,84,28,339,,85,33,278,07*6C
$GLGSV,3,3,09,86,05,228,*5F
$GNGLL,0419.75764,S,05539.78613,E,051207.00,A,A*61
$GNGRS,051207.00,1,-0.1,-5.2,14.8,-5.1,27.2,-0.8,16.0,-3.3,,,,*4B
$GNGRS,051207.00,1,-6.2,-1.6,,,,,,,,,,*52
$GNGST,051207.00,3768646,,,,6.8,12,19*73
$GNZDA,051207.00,21,05,2025,00,00*7A
$GNGBS,051207.00,6.8,12.2,18.9,,,,*51
$GNTXT,01,01,01,More than 100 frame errors, UART RX was disabled*70
b0X=y $w,=b
x<SQ
0{4%V^:R 
Y
fEtFGIBiJYP,JTSU!#V]$bO>6$GNRMC,051208.00,A,0419.75764,S,05539.78588,E,0.120,,210525,,,A*74
$GNVTG,,T,,M,0.120,N,0.221,K,A*3F
$GNGNS,051208.00,0419.75764,S,05539.78588,E,AA,11,0.85,28.8,-47.6,,*67
$GNGGA,051208.00,0419.75764,S,05539.78588,E,1,11,0.85,28.8,M,-47.6,M,,*4D
$GNGSA,A,3,24,20,11,05,13,15,22,12,,,,,1.63,0.85,1.39*1A
$GNGSA,A,3,80,73,85,,,,,,,,,,1.63,0.85,1.39*1F
$GPGSV,5,1,18,05,61,121,25,11,19,021,12,12,36,004,32,13,19,152,16*73
$GPGSV,5,2,18,14,00,133,,15,28,187,18,18,25,235,21,20,44,061,21*75
$GPGSV,5,3,18,22,15,120,18,23,04,211,,24,60,232,30,25,13,337,*7D
$GPGSV,5,4,18,29,10,304,,36,52,277,,40,86,350,37,41,58,082,*76
$GPGSV,5,5,18,49,32,274,,50,10,089,*78
$GLGSV,3,1,09,69,13,116,,70,17,179,,71,00,219,,73,66,016,26*60
$GLGSV,3,2,09,74,23,345,,80,44,135,24,84,28,339,,85,33,278,13*69
$GLGSV,3,3,09,86,05,228,*5F
$GNGLL,0419.75764,S,05539.78588,E,051208.00,A,A*6F
$GNGRS,051208.00,1,0.8,-6.7,15.3,-4.9,25.0,-0.1,16.9,-3.9,,,,*6F
$GNGRS,051208.00,1,-4.4,-1.5,2.9,,,,,,,,,*7F
$GNGST,051208.00,5074644,,,,6.6,12,19*7C
$GNZDA,051208.00,21,05,2025,00,00*75
$GNGBS,051208.00,6.6,12.0,18.7,,,,*5C
$GNTXT,01,01,01,More than 100 frame errors, UART RX was disabled*70
b0Xx"=y$,=
x<Q
0{4#V^:R 
Y
fEtFGIB{JYP,9TSU!VJbx"O>j$GNRMC,051209.00,A,0419.75787,S,05539.78586,E,0.182,,210525,,,A*7E
$GNVTG,,T,,M,0.182,N,0.336,K,A*30
$GNGNS,051209.00,0419.75787,S,05539.78586,E,AA,11,0.85,27.7,-47.6,,*65
$GNGGA,051209.00,0419.75787,S,05539.78586,E,1,11,0.85,27.7,M,-47.6,M,,*4F
$GNGSA,A,3,24,20,11,05,13,15,22,12,,,,,1.63,0.85,1.39*1A
$GNGSA,A,3,80,73,85,,,,,,,,,,1.63,0.85,1.39*1F
$GPGSV,5,1,18,05,61,121,24,11,19,021,09,12,36,004,31,13,19,152,15*78
$GPGSV,5,2,18,14,00,133,,15,28,187,18,18,25,235,22,20,44,061,22*75
$GPGSV,5,3,18,22,15,120,17,23,04,211,,24,60,232,29,25,13,337,*7A
$GPGSV,5,4,18,29,10,304,,36,52,277,,40,86,350,35,41,58,082,27*71
$GPGSV,5,5,18,49,32,274,,50,10,089,*78
$GLGSV,3,1,09,69,13,116,,70,17,179,,71,00,219,,73,66,016,27*61
$GLGSV,3,2,09,74,23,345,,80,44,135,24,84,28,339,,85,33,278,11*6B
$GLGSV,3,3,09,86,05,228,*5F
$GNGLL,0419.75787,S,05539.78586,E,051209.00,A,A*6D
$GNGRS,051209.00,1,4.8,-5.1,-18.6,-5.3,23.3,-0.2,7.4,4.4,,,,*5D
$GNGRS,051209.00,1,-2.0,-3.9,-6.4,,,,,,,,,*56
$GNGST,051209.00,66,,,,6.5,12,18*4F
$GNZDA,051209.00,21,05,2025,00,00*74
$GNGBS,051209.00,6.5,11.7,18.4,,,,*59
$GNTXT,01,01,01,More than 100 frame errors, UART RX was disabled*70
b0X`&=y $,=L
x<cQ
0{4%V^:R 
Y
fEtFGIBJYP,TSU![Vb`&O>A$GNRMC,051210.00,A,0419.75815,S,05539.78589,E,0.407,,210525,,,A*75
$GNVTG,,T,,M,0.407,N,0.754,K,A*38
$GNGNS,051210.00,0419.75815,S,05539.78589,E,AA,10,0.95,26.1,-47.6,,*61
$GNGGA,051210.00,0419.75815,S,05539.78589,E,1,10,0.95,26.1,M,-47.6,M,,*4B
$GNGSA,A,3,24,20,05,13,15,22,12,,,,,,1.88,0.95,1.63*11
$GNGSA,A,3,80,73,85,,,,,,,,,,1.88,0.95,1.63*14
$GPGSV,5,1,18,05,61,121,21,11,19,021,07,12,36,004,32,13,19,152,12*77
$GPGSV,5,2,18,14,00,133,,15,28,187,16,18,25,235,22,20,44,061,23*7A
$GPGSV,5,3,18,22,15,120,14,23,04,211,,24,60,232,18,25,13,337,*7B
$GPGSV,5,4,18,29,10,304,,36,52,277,,40,86,350,37,41,58,082,*76
$GPGSV,5,5,18,49,32,274,,50,10,089,*78
$GLGSV,3,1,09,69,13,116,,70,17,179,,71,00,219,,73,66,016,28*6E
$GLGSV,3,2,09,74,23,345,,80,44,135,21,84,28,339,,85,33,278,22*6E
$GLGSV,3,3,09,86,05,228,*5F
$GNGLL,0419.75815,S,05539.78589,E,051210.00,A,A*6E
$GNGRS,051210.00,1,8.7,-4.4,-5.4,24.7,-0.3,15.6,2.0,,,,,*58
$GNGRS,051210.00,1,-3.2,-3.7,3.5,,,,,,,,,*7A
$GNGST,051210.00,170913,,,,6.4,12,18*4B
$GNZDA,051210.00,21,05,2025,00,00*7C
$GNGBS,051210.00,6.4,11.7,18.3,,,,*57
$GNTXT,01,01,01,More than 100 frame errors, UART RX was disabled*70
b0XH*=yq $B

h,=
x<uQ
0{4&V^:R 
Y
fEtFGIBJYP,TSU!KV9bH*O>k$GNRMC,051211.00,A,0419.75830,S,05539.78594,E,0.540,,210525,,,A*7D
$GNVTG,,T,,M,0.540,N,1.000,K,A*3D
$GNGNS,051211.00,0419.75830,S,05539.78594,E,AA,11,0.88,25.7,-47.6,,*63
$GNGGA,051211.00,0419.75830,S,05539.78594,E,1,11,0.88,25.7,M,-47.6,M,,*49
$GNGSA,A,3,24,20,11,05,13,15,22,12,,,,,1.72,0.88,1.48*11
$GNGSA,A,3,80,73,85,,,,,,,,,,1.72,0.88,1.48*14
$GPGSV,5,1,18,05,61,121,21,11,19,021,11,12,36,004,32,13,19,152,10*72
$GPGSV,5,2,18,14,00,133,,15,28,187,16,18,25,235,20,20,44,061,22*79
$GPGSV,5,3,18,22,15,120,12,23,04,211,,24,60,232,17,25,13,337,*72
$GPGSV,5,4,18,29,10,304,,36,52,277,,40,86,350,38,41,58,082,*79
$GPGSV,5,5,18,49,32,274,,50,10,089,*78
$GLGSV,3,1,09,69,13,116,,70,17,179,,71,00,219,,73,66,016,28*6E
$GLGSV,3,2,09,74,23,345,,80,44,135,19,84,28,339,,85,33,278,14*60
$GLGSV,3,3,09,86,05,228,*5F
$GNGLL,0419.75830,S,05539.78594,E,051211.00,A,A*64
$GNGRS,051211.00,1,8.9,-3.5,13.9,-8.9,27.0,-1.5,15.0,-1.9,,,,*66
$GNGRS,051211.00,1,0.0,-3.6,3.3,,,,,,,,,*50
$GNGST,051211.00,3769180,,,,6.4,12,18*75
$GNZDA,051211.00,21,05,2025,00,00*7D
$GNGBS,051211.00,6.4,11.7,18.3,,,,*56
$GNTXT,01,01,01,More than 100 frame errors, UART RX was disabled*70
b0X0.=yH!$

,=
x<Q
0{4&V^:R 
Y
fEtFGIBJYP,TSU!V!b0.O>$GNRMC,051212.00,A,0419.75828,S,05539.78564,E,0.118,,210525,,,A*71
$GNVTG,,T,,M,0.118,N,0.219,K,A*3F
$GNGNS,051212.00,0419.75828,S,05539.78564,E,AA,11,0.88,25.8,-47.6,,*69
$GNGGA,051212.00,0419.75828,S,05539.78564,E,1,11,0.88,25.8,M,-47.6,M,,*43
$GNGSA,A,3,24,20,11,05,13,15,22,12,,,,,1.72,0.88,1.48*11
$GNGSA,A,3,80,73,85,,,,,,,,,,1.72,0.88,1.48*14
$GPGSV,5,1,18,05,61,121,21,11,19,021,14,12,36,004,33,13,19,152,10*76
$GPGSV,5,2,18,14,00,133,,15,28,187,18,18,25,235,20,20,44,061,22*77
$GPGSV,5,3,18,22,15,120,09,23,04,211,,24,60,232,29,25,13,337,*75
$GPGSV,5,4,18,29,10,304,,36,52,277,,40,86,350,38,41,58,082,*79
$GPGSV,5,5,18,49,32,274,,50,10,089,*78
$GLGSV,3,1,09,69,13,116,,70,17,179,,71,00,219,,73,66,016,28*6E
$GLGSV,3,2,09,74,23,345,,80,44,135,19,84,28,339,,85,33,278,16*62
$GLGSV,3,3,09,86,05,228,*5F
$GNGLL,0419.75828,S,05539.78564,E,051212.00,A,A*61
$GNGRS,051212.00,1,5.2,-3.7,5.2,-12.1,27.2,-3.1,19.4,-3.3,,,,*6A
$GNGRS,051212.00,1,1.3,-3.8,1.5,,,,,,,,,*5B
$GNGST,051212.00,64,,,,6.3,12,18*41
$GNZDA,051212.00,21,05,2025,00,00*7E
$GNGBS,051212.00,6.3,11.6,18.2,,,,*52
$GNTXT,01,01,01,More than 100 frame errors, UART RX was disabled*70
b0X2=y $u,=B
x<:Q
0{4&V^:R 
Y
fEtFGIBJYP,TSU!V{b2O>;$GNRMC,051213.00,A,0419.75823,S,05539.78568,E,0.119,,210525,,,A*76
$GNVTG,,T,,M,0.119,N,0.220,K,A*34
$GNGNS,051213.00,0419.75823,S,05539.78568,E,AA,10,0.88,26.1,-47.6,,*64
$GNGGA,051213.00,0419.75823,S,05539.78568,E,1,10,0.88,26.1,M,-47.6,M,,*4E
$GNGSA,A,3,24,20,11,05,15,22,12,,,,,,1.72,0.88,1.48*13
$GNGSA,A,3,80,73,85,,,,,,,,,,1.72,0.88,1.48*14
$GPGSV,5,1,18,05,61,121,22,11,19,021,15,12,36,004,32,13,19,152,08*7C
$GPGSV,5,2,18,14,00,133,,15,28,187,17,18,25,235,20,20,44,061,22*78
$GPGSV,5,3,18,22,15,120,11,23,04,211,,24,60,232,31,25,13,337,*75
$GPGSV,5,4,18,29,10,304,,36,52,277,,40,86,350,38,41,58,082,*79
$GPGSV,5,5,18,49,32,274,,50,10,089,*78
$GLGSV,3,1,09,69,13,116,,70,17,179,,71,00,219,,73,66,016,28*6E
$GLGSV,3,2,09,74,23,345,,80,44,135,17,84,28,339,,85,33,278,16*6C
$GLGSV,3,3,09,86,05,228,*5F
$GNGLL,0419.75823,S,05539.78568,E,051213.00,A,A*67
$GNGRS,051213.00,1,0.6,-4.5,15.1,-5.8,-3.9,17.2,-2.9,,,,,*70
$GNGRS,051213.00,1,1.5,-4.9,-0.6,,,,,,,,,*75
$GNGST,051213.00,123985,,,,6.3,11,18*45
$GNZDA,051213.00,21,05,2025,00,00*7F
$GNGBS,051213.00,6.3,11.3,18.2,,,,*56
$GNTXT,01,01,01,More than 100 frame errors, UART RX was disabled*70
b0X6=yx9 $,=
x <Q
0{4%V^:R 
Y
fEtFGIBJYP,OTSU!Vb6O>$GNRMC,051214.00,A,0419.75820,S,05539.78572,E,0.166,,210525,,,A*71
$GNVTG,,T,,M,0.166,N,0.307,K,A*38
$GNGNS,051214.00,0419.75820,S,05539.78572,E,AA,11,0.85,26.0,-47.6,,*66
$GNGGA,051214.00,0419.75820,S,05539.78572,E,1,11,0.85,26.0,M,-47.6,M,,*4C
$GNGSA,A,3,24,20,11,05,13,15,22,12,,,,,1.63,0.85,1.39*1A
$GNGSA,A,3,80,73,85,,,,,,,,,,1.63,0.85,1.39*1F
$GPGSV,5,1,18,05,61,121,23,11,19,021,14,12,36,004,32,13,19,152,09*7D
$GPGSV,5,2,18,14,00,133,,15,28,187,18,18,25,235,19,20,44,061,23*7C
$GPGSV,5,3,18,22,15,120,14,23,04,211,,24,60,232,32,25,13,337,*73
$GPGSV,5,4,18,29,10,304,,36,52,277,,40,86,350,37,41,58,082,*76
$GPGSV,5,5,18,49,32,274,,50,10,089,*78
$GLGSV,3,1,09,69,13,116,,70,17,179,,71,00,219,,73,66,016,29*6F
$GLGSV,3,2,09,74,23,345,,80,44,135,17,84,28,339,,85,33,278,16*6C
$GLGSV,3,3,09,86,05,228,*5F
$GNGLL,0419.75820,S,05539.78572,E,051214.00,A,A*68
$GNGRS,051214.00,1,-0.3,-5.1,15.9,-3.9,30.2,-6.1,17.3,-2.9,,,,*46
$GNGRS,051214.00,1,0.8,-3.6,-1.2,,,,,,,,,*73
$GNGST,051214.00,113533,,,,6.3,11,18*40
$GNZDA,051214.00,21,05,2025,00,00*78
$GNGBS,051214.00,6.3,11.0,18.1,,,,*51
$GNTXT,01,01,01,More than 100 frame errors, UART RX was disabled*70
b0X9=ya{$ok,=
xy <Q
0{4%V^:R 
Y
fEtFGIBJYP,TSU!IV%b9Ou>x$GNRMC,051215.00,A,0419.75807,S,05539.78555,E,0.215,,210525,,,A*77
$GNVTG,,T,,M,0.215,N,0.398,K,A*39
$GNGNS,051215.00,0419.75807,S,05539.78555,E,AA,11,0.85,26.7,-47.6,,*60
$GNGGA,051215.00,0419.75807,S,05539.78555,E,1,11,0.85,26.7,M,-47.6,M,,*4A
$GNGSA,A,3,24,20,11,05,13,15,22,12,,,,,1.63,0.85,1.39*1A
$GNGSA,A,3,80,73,85,,,,,,,,,,1.63,0.85,1.39*1F
$GPGSV,5,1,18,05,61,121,23,11,19,021,16,12,36,004,30,13,19,152,15*70
$GPGSV,5,2,18,14,00,133,,15,28,187,18,18,25,235,18,20,44,061,21*7F
$GPGSV,5,3,18,22,15,120,15,23,04,211,,24,60,232,32,25,13,337,*72
$GPGSV,5,4,18,29,10,304,,36,52,277,,40,86,350,37,41,58,082,*76
$GPGSV,5,5,18,49,32,274,,50,10,089,*78
$GLGSV,3,1,09,69,13,116,,70,17,179,,71,00,219,,73,66,016,28*6E
$GLGSV,3,2,09,74,23,345,,80,44,135,18,84,28,339,,85,33,278,15*60
$GLGSV,3,3,09,86,05,228,*5F
$GNGLL,0419.75807,S,05539.78555,E,051215.00,A,A*69
$GNGRS,051215.00,1,2.5,-5.5,14.0,1.0,-14.3,-8.5,14.0,-1.5,,,,*6B
$GNGRS,051215.00,1,1.5,-5.4,-1.8,,,,,,,,,*70
$GNGST,051215.00,59,,,,6.2,11,18*4A
$GNZDA,051215.00,21,05,2025,00,00*79
$GNGBS,051215.00,6.2,10.8,17.8,,,,*5E
$GNTXT,01,01,01,More than 100 frame errors, UART RX was disabled*70
b0X==y$|Q-,=
xv<wQ
0{4'V^:R 
Y
fEtFGIBJYP,TSU!%Vb=O]>Pd$GNRMC,051216.00,A,0419.75814,S,05539.78556,E,0.189,,210525,,,A*73
$GNVTG,,T,,M,0.189,N,0.350,K,A*3B
$GNGNS,051216.00,0419.75814,S,05539.78556,E,AA,11,0.85,26.4,-47.6,,*61
$GNGGA,051216.00,0419.75814,S,05539.78556,E,1,11,0.85,26.4,M,-47.6,M,,*4B
$GNGSA,A,3,24,20,11,05,13,15,22,12,,,,,1.63,0.85,1.39*1A
$GNGSA,A,3,80,73,85,,,,,,,,,,1.63,0.85,1.39*1F
$GPGSV,5,1,18,05,61,121,25,11,19,021,14,12,36,004,30,13,19,152,18*79
$GPGSV,5,2,18,14,00,133,,15,28,187,16,18,25,235,16,20,44,061,20*7E
$GPGSV,5,3,18,22,15,120,16,23,04,211,,24,60,232,27,25,13,337,*75
$GPGSV,5,4,18,29,10,304,,36,52,277,,40,86,350,39,41,58,082,*78
$GPGSV,5,5,18,49,32,274,,50,10,089,*78
$GLGSV,3,1,09,69,13,116,,70,17,179,,71,00,219,,73,66,016,29*6F
$GLGSV,3,2,09,74,23,345,,80,44,135,17,84,28,339,,85,33,278,14*6E
$GLGSV,3,3,09,86,05,228,*5F
$GNGLL,0419.75814,S,05539.78556,E,051216.00,A,A*6B
$GNGRS,051216.00,1,6.3,-5.8,10.1,2.2,13.6,-9.8,16.5,3.8,,,,*65
$GNGRS,051216.00,1,2.5,-3.1,-2.2,,,,,,,,,*7A
$GNGST,051216.00,3587118,,,,6.2,11,18*74
$GNZDA,051216.00,21,05,2025,00,00*7A
$GNGBS,051216.00,6.2,10.6,17.8,,,,*53
$GNTXT,01,01,01,More than 100 frame errors, UART RX was disabled*70
b0XA=y$3-,=
x<Q
0{4&V^:R 
Y
fEtFGIBJYP,!TSU!VbAOE>($GNRMC,051217.00,A,0419.75808,S,05539.78541,E,0.208,,210525,,,A*73
$GNVTG,,T,,M,0.208,N,0.386,K,A*3A
$GNGNS,051217.00,0419.75808,S,05539.78541,E,AA,11,0.85,26.6,-47.6,,*69
$GNGGA,051217.00,0419.75808,S,05539.78541,E,1,11,0.85,26.6,M,-47.6,M,,*43
$GNGSA,A,3,24,20,11,05,13,15,22,12,,,,,1.63,0.85,1.39*1A
$GNGSA,A,3,80,73,85,,,,,,,,,,1.63,0.85,1.39*1F
$GPGSV,5,1,18,05,61,121,26,11,19,021,13,12,36,004,29,13,19,152,15*78
$GPGSV,5,2,18,14,00,133,,15,28,187,16,18,25,235,15,20,44,061,19*77
$GPGSV,5,3,18,22,15,120,17,23,04,211,,24,60,232,28,25,13,337,*7B
$GPGSV,5,4,18,29,10,304,,36,52,277,,40,86,350,38,41,58,082,*79
$GPGSV,5,5,18,49,32,274,,50,10,089,*78
$GLGSV,3,1,09,69,13,116,,70,17,179,,71,00,219,,73,66,016,29*6F
$GLGSV,3,2,09,74,23,345,,80,44,135,18,84,28,339,,85,33,278,11*64
$GLGSV,3,3,09,86,05,228,*5F
$GNGLL,0419.75808,S,05539.78541,E,051217.00,A,A*61
$GNGRS,051217.00,1,5.1,-5.4,9.6,1.3,13.3,-9.8,16.9,4.8,,,,*5A
$GNGRS,051217.00,1,0.3,-0.3,-0.5,,,,,,,,,*7B
$GNGST,051217.00,79544,,,,6.1,10,18*7D
$GNZDA,051217.00,21,05,2025,00,00*7B
$GNGBS,051217.00,6.1,10.4,17.6,,,,*5D
$GNTXT,01,01,01,More than 100 frame errors, UART RX was disabled*70
b0XE=y[
$,=\
x<$Q
0{4&V^:R 
Y
fEtFGIBJYP,TSU!VbEO->4$GNRMC,051218.00,A,0419.75807,S,05539.78539,E,0.311,,210525,,,A*75
$GNVTG,,T,,M,0.311,N,0.577,K,A*3B
$GNGNS,051218.00,0419.75807,S,05539.78539,E,AA,10,0.95,26.2,-47.6,,*62
$GNGGA,051218.00,0419.75807,S,05539.78539,E,1,10,0.95,26.2,M,-47.6,M,,*48
$GNGSA,A,3,24,20,05,13,15,22,12,,,,,,1.88,0.95,1.63*11
$GNGSA,A,3,80,73,85,,,,,,,,,,1.88,0.95,1.63*14
$GPGSV,5,1,18,05,61,121,25,11,19,021,10,12,36,004,29,13,19,152,16*7B
$GPGSV,5,2,18,14,00,133,,15,28,187,18,18,25,235,16,20,44,061,16*75
$GPGSV,5,3,18,22,15,120,16,23,04,211,,24,60,232,28,25,13,337,*7A
$GPGSV,5,4,18,29,10,304,,36,52,277,,40,86,350,38,41,58,082,*79
$GPGSV,5,5,18,49,32,274,,50,10,089,*78
$GLGSV,3,1,09,69,13,116,,70,17,179,,71,00,219,,73,66,016,30*67
$GLGSV,3,2,09,74,23,345,,80,44,135,18,84,28,339,,85,33,278,14*61
$GLGSV,3,3,09,86,05,228,*5F
$GNGLL,0419.75807,S,05539.78539,E,051218.00,A,A*6E
$GNGRS,051218.00,1,2.9,-4.2,0.9,12.0,-8.4,16.7,2.2,,,,,*7A
$GNGRS,051218.00,1,2.0,-2.9,-2.9,,,,,,,,,*73
$GNGST,051218.00,61,,,,6.0,10,17*40
$GNZDA,051218.00,21,05,2025,00,00*74
$GNGBS,051218.00,6.0,10.4,17.4,,,,*51
$GNTXT,01,01,01,More than 100 frame errors, UART RX was disabled*70
b0XI=y
$,=V
x<PQ
0{4%V^:R 
Y
fEtFGIBzJYP,TTSU!sV3bIO>$GNRMC,051219.00,A,0419.75823,S,05539.78544,E,0.396,,210525,,,A*77
$GNVTG,,T,,M,0.396,N,0.734,K,A*31
$GNGNS,051219.00,0419.75823,S,05539.78544,E,AA,11,0.85,25.6,-47.6,,*68
$GNGGA,051219.00,0419.75823,S,05539.78544,E,1,11,0.85,25.6,M,-47.6,M,,*42
$GNGSA,A,3,24,20,11,05,13,15,22,12,,,,,1.63,0.85,1.39*1A
$GNGSA,A,3,80,73,85,,,,,,,,,,1.63,0.85,1.39*1F
$GPGSV,5,1,18,05,61,121,25,11,19,021,10,12,36,004,30,13,19,152,16*73
$GPGSV,5,2,18,14,00,133,,15,28,187,23,18,25,235,17,20,44,061,16*7C
$GPGSV,5,3,18,22,15,120,16,23,04,211,,24,60,232,29,25,13,337,*7B
$GPGSV,5,4,18,29,10,304,,36,52,277,,40,86,350,37,41,58,082,*76
$GPGSV,5,5,18,49,32,274,,50,10,089,*78
$GLGSV,3,1,09,69,13,116,,70,17,179,,71,00,219,,73,66,016,30*67
$GLGSV,3,2,09,74,23,345,,80,44,135,16,84,28,339,,85,33,278,16*6D
$GLGSV,3,3,09,86,05,228,*5F
$GNGLL,0419.75823,S,05539.78544,E,051219.00,A,A*63
$GNGRS,051219.00,1,-1.8,-4.3,6.8,1.9,9.5,-8.1,14.2,-7.9,,,,*6A
$GNGRS,051219.00,1,3.4,-3.9,-4.0,,,,,,,,,*79
$GNGST,051219.00,90391,,,,5.9,10,17*7E
$GNZDA,051219.00,21,05,2025,00,00*75
$GNGBS,051219.00,5.9,10.3,17.2,,,,*5B
$GNTXT,01,01,01,More than 100 frame errors, UART RX was disabled*70
b0XpM=y$4,=
x5<RQ
0{4&V^:R 
Y
fEtFGIBJYP,RTSU!VabbpMO>$GNRMC,051220.00,A,0419.75821,S,05539.78524,E,0.836,,210525,,,A*78
$GNVTG,,T,,M,0.836,N,1.548,K,A*38
$GNGNS,051220.00,0419.75821,S,05539.78524,E,AA,11,0.85,25.7,-47.6,,*67
$GNGGA,051220.00,0419.75821,S,05539.78524,E,1,11,0.85,25.7,M,-47.6,M,,*4D
$GNGSA,A,3,24,20,11,05,13,15,22,12,,,,,1.63,0.85,1.39*1A
$GNGSA,A,3,80,73,85,,,,,,,,,,1.63,0.85,1.39*1F
$GPGSV,5,1,18,05,61,121,25,11,19,021,16,12,36,004,29,13,19,152,15*7E
$GPGSV,5,2,18,14,00,133,,15,28,187,23,18,25,235,16,20,44,061,17*7C
$GPGSV,5,3,18,22,15,120,16,23,04,211,,24,60,232,31,25,13,337,*72
$GPGSV,5,4,18,29,10,304,,36,52,277,,40,86,350,38,41,58,082,*79
$GPGSV,5,5,18,49,32,274,,50,10,089,*78
$GLGSV,3,1,09,69,13,116,,70,17,179,,71,00,219,,73,66,016,30*67
$GLGSV,3,2,09,74,23,345,,80,44,135,14,84,28,339,,85,33,278,17*6E
$GLGSV,3,3,09,86,05,228,*5F
$GNGLL,0419.75821,S,05539.78524,E,051220.00,A,A*6D
$GNGRS,051220.00,1,0.8,-4.9,6.7,2.7,9.8,-8.4,10.8,-2.0,,,,*4E
$GNGRS,051220.00,1,3.4,-7.8,-5.0,,,,,,,,,*77
$GNGST,051220.00,90391,,,,5.9,10,17*74
$GNZDA,051220.00,21,05,2025,00,00*7F
$GNGBS,051220.00,5.9,10.2,16.9,,,,*5A
$GNTXT,01,01,01,More than 100 frame errors, UART RX was disabled*70
b0XXQ=y$?,=
xD <eQ
0{4&V^:R 
Y
fEsFGIB*JYP,TSU!KVFXbXQO>i$GNRMC,051221.00,A,0419.75824,S,05539.78556,E,0.151,,210525,,,A*71
$GNVTG,,T,,M,0.151,N,0.279,K,A*34
$GNGNS,051221.00,0419.75824,S,05539.78556,E,AA,11,0.85,25.7,-47.6,,*66
$GNGGA,051221.00,0419.75824,S,05539.78556,E,1,11,0.85,25.7,M,-47.6,M,,*4C
$GNGSA,A,3,24,20,11,05,13,15,22,12,,,,,1.63,0.85,1.39*1A
$GNGSA,A,3,80,73,85,,,,,,,,,,1.63,0.85,1.39*1F
$GPGSV,5,1,18,05,61,121,25,11,19,021,17,12,36,004,28,13,19,152,14*7F
$GPGSV,5,2,18,14,00,133,,15,28,187,22,18,25,235,14,20,44,061,17*7F
$GPGSV,5,3,18,22,15,120,15,23,04,211,,24,60,232,32,25,13,337,*72
$GPGSV,5,4,18,29,10,304,,36,52,277,,40,86,350,38,41,58,082,*79
$GPGSV,5,5,18,49,32,274,,50,10,089,*78
$GLGSV,3,1,09,69,13,115,,70,17,179,,71,00,219,,73,66,016,29*6C
$GLGSV,3,2,09,74,23,345,,80,44,135,13,84,28,339,,85,33,278,17*69
$GLGSV,3,3,09,86,05,228,*5F
$GNGLL,0419.75824,S,05539.78556,E,051221.00,A,A*6C
$GNGRS,051221.00,1,-1.5,-5.9,-24.2,1.4,10.0,-9.6,8.4,7.3,,,,*5A
$GNGRS,051221.00,1,4.6,-9.8,-6.9,,,,,,,,,*77
$GNGST,051221.00,54,,,,5.8,10,17*47
$GNZDA,051221.00,21,05,2025,00,00*7E
$GNGBS,051221.00,5.8,10.0,16.7,,,,*56
$GNTXT,01,01,01,More than 100 frame errors, UART RX was disabled*70
b0X@U=y$,=
x<OQ
0{4&V^:R 
Y
fEsFGIBJYP,TSU!YVyb@UO>_$GNRMC,051222.00,A,0419.75808,S,05539.78563,E,0.291,,210525,,,A*75
$GNVTG,,T,,M,0.291,N,0.539,K,A*38
$GNGNS,051222.00,0419.75808,S,05539.78563,E,AA,11,0.85,25.7,-47.6,,*6D
$GNGGA,051222.00,0419.75808,S,05539.78563,E,1,11,0.85,25.7,M,-47.6,M,,*47
$GNGSA,A,3,24,20,11,05,13,15,22,12,,,,,1.63,0.85,1.39*1A
$GNGSA,A,3,80,73,85,,,,,,,,,,1.63,0.85,1.39*1F
$GPGSV,5,1,18,05,61,121,23,11,19,021,11,12,36,004,29,13,19,152,14*7E
$GPGSV,5,2,18,14,00,133,,15,28,187,23,18,25,235,17,20,44,061,17*7D
$GPGSV,5,3,18,22,15,120,15,23,04,211,,24,60,232,31,25,13,337,*71
$GPGSV,5,4,18,29,10,304,,36,52,277,,40,86,350,38,41,58,082,*79
$GPGSV,5,5,18,49,32,274,,50,10,089,*78
$GLGSV,3,1,09,69,13,115,,70,17,179,,71,00,219,,73,66,016,27*62
$GLGSV,3,2,09,74,23,345,,80,44,135,19,84,28,339,,85,33,278,15*61
$GLGSV,3,3,09,86,05,228,*5F
$GNGLL,0419.75808,S,05539.78563,E,051222.00,A,A*67
$GNGRS,051222.00,1,0.8,-7.7,14.9,2.7,9.8,-10.7,9.4,9.0,,,,*54
$GNGRS,051222.00,1,4.4,-10.8,-9.4,,,,,,,,,*4C
$GNGST,051222.00,3587847,,,,5.7,9.9,16*56
$GNZDA,051222.00,21,05,2025,00,00*7D
$GNGBS,051222.00,5.7,9.9,16.5,,,,*69
$GNTXT,01,01,01,More than 100 frame errors, UART RX was disabled*70
b0X(Y=y $,=
x|<Q
0{4&V^:R 
Y
fEsFGIBJYP,TSU!1V2b(YO>79$GNRMC,051223.00,A,0419.75813,S,05539.78594,E,0.133,,210525,,,A*7D
$GNVTG,,T,,M,0.133,N,0.246,K,A*3C
$GNGNS,051223.00,0419.75813,S,05539.78594,E,AA,11,0.85,25.4,-47.6,,*6D
$GNGGA,051223.00,0419.75813,S,05539.78594,E,1,11,0.85,25.4,M,-47.6,M,,*47
$GNGSA,A,3,24,20,11,05,13,15,22,12,,,,,1.63,0.85,1.39*1A
$GNGSA,A,3,80,73,85,,,,,,,,,,1.63,0.85,1.39*1F
$GPGSV,5,1,18,05,61,121,23,11,19,021,08,12,36,004,32,13,19,152,16*7E
$GPGSV,5,2,18,14,00,133,,15,28,187,20,18,25,235,20,20,44,061,15*78
$GPGSV,5,3,18,22,15,120,14,23,04,211,,24,60,232,30,25,13,337,*71
$GPGSV,5,4,18,29,10,304,,36,52,277,,40,86,350,38,41,58,082,*79
$GPGSV,5,5,18,49,32,274,,50,10,089,*78
$GLGSV,3,1,09,69,13,115,,70,17,179,,71,00,219,,73,66,016,27*62
$GLGSV,3,2,09,74,23,345,,80,44,135,16,84,28,339,,85,33,278,13*68
$GLGSV,3,3,09,86,05,228,*5F
$GNGLL,0419.75813,S,05539.78594,E,051223.00,A,A*64
$GNGRS,051223.00,1,-3.6,-8.7,14.8,-0.7,9.0,-11.0,8.9,0.3,,,,*5C
$GNGRS,051223.00,1,4.4,0.1,-9.7,,,,,,,,,*5B
$GNGST,051223.00,3586708,,,,5.7,9.8,16*53
$GNZDA,051223.00,21,05,2025,00,00*7C
$GNGBS,051223.00,5.7,9.8,16.3,,,,*6F
$GNTXT,01,01,01,More than 100 frame errors, UART RX was disabled*70
b0X]=y!$,=v
xt<3Q
0{4'V^:R 
Y
fEsFGIBJYP,TSU
!vVEb]O>$GNRMC,051224.00,A,0419.75816,S,05539.78611,E,0.181,,210525,,,A*78
$GNVTG,,T,,M,0.181,N,0.334,K,A*31
$GNGNS,051224.00,0419.75816,S,05539.78611,E,AA,11,0.85,25.7,-47.6,,*62
$GNGGA,051224.00,0419.75816,S,05539.78611,E,1,11,0.85,25.7,M,-47.6,M,,*48
$GNGSA,A,3,24,20,11,05,13,15,22,12,,,,,1.63,0.85,1.39*1A
$GNGSA,A,3,80,73,85,,,,,,,,,,1.63,0.85,1.39*1F
$GPGSV,5,1,18,05,61,121,23,11,19,021,12,12,36,004,33,13,19,152,15*77
$GPGSV,5,2,18,14,00,133,,15,28,187,18,18,25,235,21,20,44,061,15*72
$GPGSV,5,3,18,22,15,120,14,23,04,211,,24,60,232,30,25,13,337,*71
$GPGSV,5,4,18,29,10,304,,36,52,277,,40,86,350,39,41,58,082,*78
$GPGSV,5,5,18,49,32,274,,50,10,089,*78
$GLGSV,3,1,09,69,13,115,,70,17,179,,71,00,219,,73,66,016,26*63
$GLGSV,3,2,09,74,23,345,,80,44,135,17,84,28,339,,85,33,278,10*6A
$GLGSV,3,3,09,86,05,228,*5F
$GNGLL,0419.75816,S,05539.78611,E,051224.00,A,A*68
$GNGRS,051224.00,1,-2.1,-9.1,-25.4,-0.5,9.1,-10.0,6.3,-1.0,,,,*50
$GNGRS,051224.00,1,4.7,-2.9,-11.6,,,,,,,,,*40
$GNGST,051224.00,60,,,,5.6,9.7,16*6B
$GNZDA,051224.00,21,05,2025,00,00*7B
$GNGBS,051224.00,5.6,9.7,16.1,,,,*64
$GNTXT,01,01,01,More than 100 frame errors, UART RX was disabled*70
b0X`=yk $,=|
xv<Q
0{4'V^:R 
Y
fEsFGICNJYP,TSU!]V.b`O>$GNRMC,051225.00,A,0419.75813,S,05539.78610,E,0.074,,210525,,,A*76
$GNVTG,,T,,M,0.074,N,0.136,K,A*3A
$GNGNS,051225.00,0419.75813,S,05539.78610,E,AA,11,0.85,25.7,-47.6,,*67
$GNGGA,051225.00,0419.75813,S,05539.78610,E,1,11,0.85,25.7,M,-47.6,M,,*4D
$GNGSA,A,3,24,20,11,05,13,15,22,12,,,,,1.63,0.85,1.39*1A
$GNGSA,A,3,80,73,85,,,,,,,,,,1.63,0.85,1.39*1F
$GPGSV,5,1,18,05,61,121,22,11,19,021,16,12,36,004,32,13,19,152,16*70
$GPGSV,5,2,18,14,00,133,,15,28,187,17,18,25,235,19,20,44,061,16*75
$GPGSV,5,3,18,22,15,120,13,23,04,211,,24,60,232,30,25,13,337,*76
$GPGSV,5,4,18,29,10,304,,36,52,277,,40,86,350,39,41,58,082,*78
$GPGSV,5,5,18,49,32,274,,50,10,089,*78
$GLGSV,3,1,09,69,13,115,,70,17,179,,71,00,219,,73,67,016,27*63
$GLGSV,3,2,09,74,23,345,,80,44,135,16,84,28,339,,85,33,278,12*69
$GLGSV,3,3,09,86,05,228,*5F
$GNGLL,0419.75813,S,05539.78610,E,051225.00,A,A*6D
$GNGRS,051225.00,1,-0.6,-9.0,15.1,-1.5,7.6,-8.0,6.3,0.1,,,,*62
$GNGRS,051225.00,1,4.7,-1.8,-11.9,,,,,,,,,*4C
$GNGST,051225.00,3587847,,,,5.6,9.7,16*5E
$GNZDA,051225.00,21,05,2025,00,00*7A
$GNGBS,051225.00,5.6,9.7,16.0,,,,*64
$GNTXT,01,01,01,More than 100 frame errors, UART RX was disabled*70
b0Xd=y$,=.
x^<xQ
0{4'V^:R 
Y
fEsFGICJYP,TSU!>VbdOm>b$GNRMC,051226.00,A,0419.75820,S,05539.78613,E,0.054,,210525,,,A*74
$GNVTG,,T,,M,0.054,N,0.100,K,A*3D
$GNGNS,051226.00,0419.75820,S,05539.78613,E,AA,11,0.85,25.7,-47.6,,*67
$GNGGA,051226.00,0419.75820,S,05539.78613,E,1,11,0.85,25.7,M,-47.6,M,,*4D
$GNGSA,A,3,24,20,11,05,13,15,22,12,,,,,1.63,0.85,1.39*1A
$GNGSA,A,3,80,73,85,,,,,,,,,,1.63,0.85,1.39*1F
$GPGSV,5,1,18,05,61,121,20,11,19,021,12,12,36,004,31,13,19,152,18*7B
$GPGSV,5,2,18,14,00,133,,15,28,187,17,18,25,235,17,20,44,061,15*78
$GPGSV,5,3,18,22,15,120,14,23,04,211,,24,60,232,30,25,13,337,*71
$GPGSV,5,4,18,29,10,304,,36,52,277,,40,86,350,39,41,58,082,*78
$GPGSV,5,5,18,49,32,274,,50,10,089,*78
$GLGSV,3,1,09,69,13,115,,70,17,179,,71,00,219,,73,67,016,28*6C
$GLGSV,3,2,09,74,24,345,,80,44,135,14,84,28,339,,85,33,278,16*68
$GLGSV,3,3,09,86,05,228,*5F
$GNGLL,0419.75820,S,05539.78613,E,051226.00,A,A*6D
$GNGRS,051226.00,1,3.8,-9.8,15.2,-0.1,7.0,-10.1,8.6,-2.3,,,,*57
$GNGRS,051226.00,1,4.9,-2.2,-12.2,,,,,,,,,*40
$GNGST,051226.00,3587847,,,,5.5,9.6,16*5F
$GNZDA,051226.00,21,05,2025,00,00*79
$GNGBS,051226.00,5.5,9.6,15.9,,,,*6F
$GNTXT,01,01,01,More than 100 frame errors, UART RX was disabled*70
b0Xh=yJ
$,=
x(<Q
0{4$V^:R 
Y
fEsFGICFJYP,TSU!*VubhOU>$GNRMC,051227.00,A,0419.75832,S,05539.78653,E,0.279,,210525,,,A*7F
$GNVTG,,T,,M,0.279,N,0.517,K,A*32
$GNGNS,051227.00,0419.75832,S,05539.78653,E,AA,11,0.85,25.6,-47.6,,*60
$GNGGA,051227.00,0419.75832,S,05539.78653,E,1,11,0.85,25.6,M,-47.6,M,,*4A
$GNGSA,A,3,24,20,11,05,13,15,22,12,,,,,1.63,0.85,1.39*1A
$GNGSA,A,3,80,73,85,,,,,,,,,,1.63,0.85,1.39*1F
$GPGSV,5,1,18,05,61,121,19,11,19,021,10,12,36,004,31,13,19,152,17*7C
$GPGSV,5,2,18,14,00,133,,15,28,187,16,18,25,235,15,20,44,061,14*7A
$GPGSV,5,3,18,22,15,120,14,23,04,211,,24,60,232,31,25,13,337,*70
$GPGSV,5,4,18,29,10,304,,36,52,277,,40,86,350,36,41,58,082,*77
$GPGSV,5,5,18,49,32,274,,50,10,089,*78
$GLGSV,3,1,09,69,13,115,,70,17,179,,71,00,219,,73,67,016,28*6C
$GLGSV,3,2,09,74,24,345,,80,44,135,13,84,28,339,,85,33,278,15*6C
$GLGSV,3,3,09,86,05,228,*5F
$GNGLL,0419.75832,S,05539.78653,E,051227.00,A,A*6B
$GNGRS,051227.00,1,2.9,-13.7,14.6,0.7,6.6,-7.9,10.6,-5.3,,,,*4B
$GNGRS,051227.00,1,2.1,-4.4,-35.4,,,,,,,,,*4C
$GNGST,051227.00,59,,,,5.5,9.6,16*60
$GNZDA,051227.00,21,05,2025,00,00*78
$GNGBS,051227.00,5.5,9.6,15.8,,,,*6F
$GNTXT,01,01,01,More than 100 frame errors, UART RX was disabled*70
b0Xl=y$Q,=
x<Q
0{4'V^:R 
Y
fEsFGICJYP,TSU!zVblO=>n2$GNRMC,051228.00,A,0419.75839,S,05539.78661,E,0.254,,210525,,,A*75
$GNVTG,,T,,M,0.254,N,0.470,K,A*3D
$GNGNS,051228.00,0419.75839,S,05539.78661,E,AA,11,0.85,25.5,-47.6,,*66
$GNGGA,051228.00,0419.75839,S,05539.78661,E,1,11,0.85,25.5,M,-47.6,M,,*4C
$GNGSA,A,3,24,20,11,05,13,15,22,12,,,,,1.63,0.85,1.39*1A
$GNGSA,A,3,80,73,85,,,,,,,,,,1.63,0.85,1.39*1F
$GPGSV,5,1,18,05,61,121,19,11,19,021,15,12,36,004,31,13,19,152,15*7B
$GPGSV,5,2,18,14,00,133,,15,28,187,18,18,25,235,14,20,44,061,14*75
$GPGSV,5,3,18,22,15,120,16,23,04,211,,24,60,232,30,25,13,337,*73
$GPGSV,5,4,18,29,10,304,,36,52,277,,40,86,350,39,41,58,082,*78
$GPGSV,5,5,18,49,32,274,,50,10,089,*78
$GLGSV,3,1,09,69,13,115,,70,17,179,,71,00,219,,73,67,016,27*63
$GLGSV,3,2,09,74,24,345,,80,44,135,13,84,28,339,,85,33,278,14*6D
$GLGSV,3,3,09,86,05,228,*5F
$GNGLL,0419.75839,S,05539.78661,E,051228.00,A,A*6E
$GNGRS,051228.00,1,5.2,-12.6,12.9,4.0,6.6,-9.4,9.5,-2.3,,,,*7D
$GNGRS,051228.00,1,1.8,-4.9,3.8,,,,,,,,,*50
$GNGST,051228.00,3587847,,,,5.5,9.6,16*51
$GNZDA,051228.00,21,05,2025,00,00*77
$GNGBS,051228.00,5.5,9.6,15.7,,,,*6F
$GNTXT,01,01,01,More than 100 frame errors, UART RX was disabled*70
b0Xp=y$wX,=
xz<Q
0{4'V^:R 
Y
fEsFGICWJYP
,TSU
!UVv2bpO%>F$GNRMC,051229.00,A,0419.75834,S,05539.78654,E,0.110,,210525,,,A*7C
$GNVTG,,T,,M,0.110,N,0.204,K,A*3B
$GNGNS,051229.00,0419.75834,S,05539.78654,E,AA,11,0.85,25.5,-47.6,,*6C
$GNGGA,051229.00,0419.75834,S,05539.78654,E,1,11,0.85,25.5,M,-47.6,M,,*46
$GNGSA,A,3,24,20,11,05,13,15,22,12,,,,,1.63,0.85,1.39*1A
$GNGSA,A,3,80,73,85,,,,,,,,,,1.63,0.85,1.39*1F
$GPGSV,5,1,18,05,61,121,20,11,19,021,15,12,36,004,30,13,19,152,12*77
$GPGSV,5,2,18,14,00,133,,15,28,187,19,18,25,235,17,20,44,061,17*74
$GPGSV,5,3,18,22,15,120,17,23,04,211,,24,60,232,28,25,13,337,*7B
$GPGSV,5,4,18,29,10,304,,36,52,277,,40,86,350,39,41,58,082,*78
$GPGSV,5,5,18,49,32,274,,50,10,089,*78
$GLGSV,3,1,09,69,13,115,,70,17,179,,71,00,219,,73,67,016,27*63
$GLGSV,3,2,09,74,24,345,,80,44,135,10,84,28,339,,85,33,278,10*6A
$GLGSV,3,3,09,86,05,228,*5F
$GNGLL,0419.75834,S,05539.78654,E,051229.00,A,A*64
$GNGRS,051229.00,1,10.1,-10.8,14.2,1.9,6.0,-11.5,8.9,-1.4,,,,*71
$GNGRS,051229.00,1,1.9,-4.2,3.4,,,,,,,,,*57
$GNGST,051229.00,3587847,,,,5.4,9.6,16*51
$GNZDA,051229.00,21,05,2025,00,00*76
$GNGBS,051229.00,5.4,9.6,15.6,,,,*6E
$GNTXT,01,01,01,More than 100 frame errors, UART RX was disabled*70
b0Xt=y$pYe,=
x|<Q
0{4'V^:R 
Y
fEsFGIC8JYP
,NTSU!AV1btO>$GNRMC,051230.00,A,0419.75834,S,05539.78659,E,0.067,,210525,,,A*78
$GNVTG,,T,,M,0.067,N,0.124,K,A*3B
$GNGNS,051230.00,0419.75834,S,05539.78659,E,AA,11,0.85,25.4,-47.6,,*68
$GNGGA,051230.00,0419.75834,S,05539.78659,E,1,11,0.85,25.4,M,-47.6,M,,*42
$GNGSA,A,3,24,20,11,05,13,15,22,12,,,,,1.63,0.85,1.38*1B
$GNGSA,A,3,80,73,85,,,,,,,,,,1.63,0.85,1.38*1E
$GPGSV,5,1,18,05,61,121,21,11,19,021,14,12,36,004,29,13,19,152,14*79
$GPGSV,5,2,18,14,00,133,,15,28,187,20,18,25,235,19,20,44,061,19*7E
$GPGSV,5,3,18,22,15,120,15,23,04,211,,24,60,232,27,25,13,337,*76
$GPGSV,5,4,18,29,10,304,,36,52,277,,40,86,350,39,41,58,082,*78
$GPGSV,5,5,18,49,32,274,,50,10,089,*78
$GLGSV,3,1,09,69,13,115,,70,17,179,,71,00,219,,73,67,016,26*62
$GLGSV,3,2,09,74,24,345,,80,44,135,10,84,28,339,,85,33,278,11*6B
$GLGSV,3,3,09,86,05,228,*5F
$GNGLL,0419.75834,S,05539.78659,E,051230.00,A,A*61
$GNGRS,051230.00,1,9.1,-12.7,12.7,-1.1,6.0,-11.8,8.9,-1.4,,,,*67
$GNGRS,051230.00,1,-14.6,-4.6,-24.9,,,,,,,,,*58
$GNGST,051230.00,59,,,,5.4,9.6,15*64
$GNZDA,051230.00,21,05,2025,00,00*7E
$GNGBS,051230.00,5.4,9.6,15.5,,,,*65
$GNTXT,01,01,01,More than 100 frame errors, UART RX was disabled*70
b0Xhx=yT
$jN:,=
x`<Q
0{4'V^:R 
Y
fEsFGIC[JYP,GTSU!V8]bhxO>g$GNRMC,051231.00,A,0419.75834,S,05539.78655,E,0.080,,210525,,,A*7C
$GNVTG,,T,,M,0.080,N,0.147,K,A*37
$GNGNS,051231.00,0419.75834,S,05539.78655,E,AA,11,0.85,25.5,-47.6,,*64
$GNGGA,051231.00,0419.75834,S,05539.78655,E,1,11,0.85,25.5,M,-47.6,M,,*4E
$GNGSA,A,3,24,20,11,05,13,15,22,12,,,,,1.63,0.85,1.38*1B
$GNGSA,A,3,80,73,85,,,,,,,,,,1.63,0.85,1.38*1E
$GPGSV,5,1,18,05,61,121,18,11,19,021,10,12,36,004,29,13,19,152,13*70
$GPGSV,5,2,18,14,00,133,,15,28,187,20,18,25,235,20,20,44,061,21*7F
$GPGSV,5,3,18,22,15,120,16,23,04,211,,24,60,232,27,25,13,337,*75
$GPGSV,5,4,18,29,10,304,,36,52,277,,40,86,350,39,41,58,082,*78
$GPGSV,5,5,18,49,32,274,,50,10,089,*78
$GLGSV,3,1,09,69,13,115,,70,17,179,,71,00,219,,73,67,016,26*62
$GLGSV,3,2,09,74,24,345,,80,44,135,22,84,28,339,,85,33,278,13*68
$GLGSV,3,3,09,86,05,228,*5F
$GNGLL,0419.75834,S,05539.78655,E,051231.00,A,A*6C
$GNGRS,051231.00,1,9.2,-13.2,12.7,-1.7,5.9,-12.2,11.2,-1.5,,,,*56
$GNGRS,051231.00,1,-4.4,-6.8,3.9,,,,,,,,,*7E
$GNGST,051231.00,5078317,,,,5.4,9.6,15*56
$GNZDA,051231.00,21,05,2025,00,00*7F
$GNGBS,051231.00,5.4,9.6,15.5,,,,*64
$GNTXT,01,01,01,More than 100 frame errors, UART RX was disabled*70
b0XP|=y3$U9,=m
xR<Q
0{4'V^:R 
Y
fEsFGIC[JYP+wTSU!sV8xbP|O>$GNRMC,051232.00,A,0419.75817,S,05539.78622,E,0.389,,210525,,,A*74
$GNVTG,,T,,M,0.389,N,0.720,K,A*3A
$GNGNS,051232.00,0419.75817,S,05539.78622,E,AA,11,0.85,25.8,-47.6,,*6B
$GNGGA,051232.00,0419.75817,S,05539.78622,E,1,11,0.85,25.8,M,-47.6,M,,*41
$GNGSA,A,3,24,20,11,05,13,15,22,12,,,,,1.63,0.85,1.38*1B
$GNGSA,A,3,80,73,85,,,,,,,,,,1.63,0.85,1.38*1E
$GPGSV,5,1,18,05,61,121,16,11,19,021,13,12,36,004,29,13,19,152,18*76
$GPGSV,5,2,18,14,00,133,,15,28,187,22,18,25,235,19,20,44,061,20*76
$GPGSV,5,3,18,22,15,120,15,23,04,211,,24,60,232,28,25,13,337,*79
$GPGSV,5,4,18,29,10,304,,36,52,277,,40,86,350,39,41,58,082,*78
$GPGSV,5,5,18,49,32,274,,50,10,089,*78
$GLGSV,3,1,09,69,13,115,,70,17,179,,71,00,219,,73,67,016,27*63
$GLGSV,3,2,09,74,24,345,,80,43,136,23,84,28,339,,85,33,278,11*6F
$GLGSV,3,3,09,86,05,228,*5F
$GNGLL,0419.75817,S,05539.78622,E,051232.00,A,A*6E
$GNGRS,051232.00,1,7.4,-11.7,12.9,-2.0,6.5,-12.2,11.1,0.8,,,,*7D
$GNGRS,051232.00,1,-3.9,-4.2,3.7,,,,,,,,,*71
$GNGST,051232.00,5073176,,,,5.4,9.6,15*5B
$GNZDA,051232.00,21,05,2025,00,00*7C
$GNGBS,051232.00,5.4,9.6,15.5,,,,*67
$GNTXT,01,01,01,More than 100 frame errors, UART RX was disabled*70
b0X8=yU$W,=M
x<Q
0{4&V^:R 
Y
fEsFGICJYP+]TSU
!%Vb8O>7$GNRMC,051233.00,A,0419.75815,S,05539.78601,E,0.457,,210525,,,A*72
$GNVTG,,T,,M,0.457,N,0.846,K,A*31
$GNGNS,051233.00,0419.75815,S,05539.78601,E,AA,11,0.85,26.0,-47.6,,*62
$GNGGA,051233.00,0419.75815,S,05539.78601,E,1,11,0.85,26.0,M,-47.6,M,,*48
$GNGSA,A,3,24,20,11,05,13,15,22,12,,,,,1.63,0.85,1.38*1B
$GNGSA,A,3,80,73,85,,,,,,,,,,1.63,0.85,1.38*1E
$GPGSV,5,1,18,05,61,121,17,11,19,021,16,12,36,004,30,13,19,152,12*70
$GPGSV,5,2,18,14,00,133,,15,28,187,22,18,25,235,17,20,44,061,20*78
$GPGSV,5,3,18,22,15,120,15,23,04,211,,24,60,232,30,25,13,337,*70
$GPGSV,5,4,18,29,10,304,,36,52,277,,40,86,350,38,41,58,082,27*7C
$GPGSV,5,5,18,49,32,274,,50,10,089,*78
$GLGSV,3,1,09,69,13,115,,70,17,179,,71,00,219,,73,67,016,27*63
$GLGSV,3,2,09,74,24,345,,80,43,136,23,84,28,339,,85,33,278,10*6E
$GLGSV,3,3,09,86,05,228,*5F
$GNGLL,0419.75815,S,05539.78601,E,051233.00,A,A*6C
$GNGRS,051233.00,1,4.4,-12.0,-32.4,-3.1,7.1,-11.4,9.0,3.4,,,,*6E
$GNGRS,051233.00,1,-4.2,-3.0,-22.7,,,,,,,,,*67
$GNGST,051233.00,59,,,,5.4,9.5,15*64
$GNZDA,051233.00,21,05,2025,00,00*7D
$GNGBS,051233.00,5.4,9.5,15.4,,,,*64
$GNTXT,01,01,01,More than 100 frame errors, UART RX was disabled*70
b0X =y$,=
xg<Q
0{4'V^:R 
Y
fEsFGICfJYP+LTSU!Vb O>}$GNRMC,051234.00,A,0419.75815,S,05539.78592,E,0.222,,210525,,,A*78
$GNVTG,,T,,M,0.222,N,0.411,K,A*3B
$GNGNS,051234.00,0419.75815,S,05539.78592,E,AA,11,0.85,25.5,-47.6,,*6A
$GNGGA,051234.00,0419.75815,S,05539.78592,E,1,11,0.85,25.5,M,-47.6,M,,*40
$GNGSA,A,3,24,20,11,05,13,15,22,12,,,,,1.63,0.85,1.38*1B
$GNGSA,A,3,80,73,85,,,,,,,,,,1.63,0.85,1.38*1E
$GPGSV,5,1,18,05,61,121,17,11,19,021,12,12,36,004,28,13,19,152,12*7D
$GPGSV,5,2,18,14,00,133,,15,28,187,19,18,25,235,14,20,44,061,18*78
$GPGSV,5,3,18,22,15,120,15,23,04,211,,24,60,232,31,25,13,337,*71
$GPGSV,5,4,18,29,10,304,,36,52,277,,40,86,350,39,41,58,082,28*72
$GPGSV,5,5,18,49,32,274,,50,10,089,*78
$GLGSV,3,1,09,69,13,115,,70,17,179,,71,00,219,,73,67,016,26*62
$GLGSV,3,2,09,74,24,345,,80,43,136,24,84,28,339,,85,33,278,15*6C
$GLGSV,3,3,09,86,05,228,*5F
$GNGLL,0419.75815,S,05539.78592,E,051234.00,A,A*62
$GNGRS,051234.00,1,2.4,-10.6,14.8,-3.1,7.0,-10.6,8.7,10.3,,,,*7F
$GNGRS,051234.00,1,-6.9,-1.5,3.9,,,,,,,,,*7E
$GNGST,051234.00,5072371,,,,5.4,9.5,15*5A
$GNZDA,051234.00,21,05,2025,00,00*7A
$GNGBS,051234.00,5.4,9.5,15.4,,,,*63
$GNTXT,01,01,01,More than 100 frame errors, UART RX was disabled*70
b0X=y4$",=*
x<uQ
0{4'V^:R 
Y
fEsFGICJYP+TSU!V~FbO>W$GNRMC,051235.00,A,0419.75808,S,05539.78591,E,0.156,,210525,,,D*73
$GNVTG,,T,,M,0.156,N,0.289,K,D*39
$GNGNS,051235.00,0419.75808,S,05539.78591,E,DA,11,0.85,25.4,-47.6,,0000*60
$GNGGA,051235.00,0419.75808,S,05539.78591,E,2,11,0.85,25.4,M,-47.6,M,,0000*4C
$GNGSA,A,3,24,20,11,05,13,15,22,12,,,,,1.63,0.85,1.38*1B
$GNGSA,A,3,80,73,85,,,,,,,,,,1.63,0.85,1.38*1E
$GPGSV,5,1,18,05,61,121,15,11,19,021,15,12,36,004,27,13,19,152,15*70
$GPGSV,5,2,18,14,00,133,,15,28,187,17,18,25,235,15,20,44,061,17*78
$GPGSV,5,3,18,22,15,120,15,23,04,211,,24,60,232,30,25,13,337,*70
$GPGSV,5,4,18,29,10,304,,36,52,277,,40,86,350,39,41,58,082,28*72
$GPGSV,5,5,18,49,32,274,,50,10,089,*78
$GLGSV,3,1,09,69,13,115,,70,17,179,,71,00,219,,73,67,016,27*63
$GLGSV,3,2,09,74,24,345,,80,43,136,23,84,28,339,,85,33,278,12*6C
$GLGSV,3,3,09,86,05,228,*5F
$GNGLL,0419.75808,S,05539.78591,E,051235.00,A,D*69
$GNGRS,051235.00,1,-4.0,-9.8,14.3,-4.6,5.5,-13.3,6.5,6.4,,,,*51
$GNGRS,051235.00,1,-6.1,-2.6,4.0,,,,,,,,,*79
$GNGST,051235.00,5072371,,,,5.4,9.4,15*5A
$GNZDA,051235.00,21,05,2025,00,00*7B
$GNGBS,051235.00,5.4,9.4,15.4,,,,*63
$GNTXT,01,01,01,More than 100 frame errors, UART RX was disabled*70
b0X=y
$1p,=
x<1Q
0{4&V^:R 
Y
fEsFGICJYP+TTU!VbO}?/x$GNRMC,051236.00,A,0419.75810,S,05539.78585,E,0.103,,210525,,,D*7C
$GNVTG,,T,,M,0.103,N,0.192,K,D*30
$GNGNS,051236.00,0419.75810,S,05539.78585,E,DA,11,0.85,25.5,-47.6,,0000*6E
$GNGGA,051236.00,0419.75810,S,05539.78585,E,2,11,0.85,25.5,M,-47.6,M,,0000*42
$GNGSA,A,3,24,20,11,05,13,15,22,12,,,,,1.63,0.85,1.38*1B
$GNGSA,A,3,80,73,85,,,,,,,,,,1.63,0.85,1.38*1E
$GPGSV,5,1,18,05,61,121,16,11,19,021,10,12,36,004,27,13,19,152,17*74
$GPGSV,5,2,18,14,00,133,,15,28,187,17,18,25,235,18,20,44,061,18*7A
$GPGSV,5,3,18,22,15,120,14,23,04,211,,24,60,232,30,25,13,337,*71
$GPGSV,5,4,18,29,10,304,,36,52,277,,40,86,350,38,41,58,082,27*7C
$GPGSV,5,5,18,49,32,274,,50,10,089,*78
$GLGSV,3,1,09,69,13,115,,70,17,179,,71,00,219,,73,67,016,27*63
$GLGSV,3,2,09,74,24,345,,80,43,136,24,84,28,340,,85,33,278,12*65
$GLGSV,3,3,09,86,05,228,*5F
$GNGLL,0419.75810,S,05539.78585,E,051236.00,A,D*66
$GNGRS,051236.00,1,5.6,-8.1,-22.9,0.3,5.6,-11.7,7.2,7.6,,,,*7E
$GNGRS,051236.00,1,-8.4,-2.5,-10.4,,,,,,,,,*6E
$GNGST,051236.00,59,,,,5.3,9.4,15*67
$GNZDA,051236.00,21,05,2025,00,00*78
$GNGBS,051236.00,5.3,9.4,15.3,,,,*60
$GNTXT,01,01,01,More than 100 frame errors, UART RX was disabled*70
b0X=y|$zo,=
xO<cQ
0{4&V^:R 
Y
fEsFGICJYP+TTU!zVbOe?$GNRMC,051237.00,A,0419.75804,S,05539.78571,E,0.086,,210525,,,D*7F
$GNVTG,,T,,M,0.086,N,0.160,K,D*31
$GNGNS,051237.00,0419.75804,S,05539.78571,E,DA,11,0.85,25.4,-47.6,,0000*60
$GNGGA,051237.00,0419.75804,S,05539.78571,E,2,11,0.85,25.4,M,-47.6,M,,0000*4C
$GNGSA,A,3,24,20,11,05,13,15,22,12,,,,,1.63,0.85,1.38*1B
$GNGSA,A,3,80,73,85,,,,,,,,,,1.63,0.85,1.38*1E
$GPGSV,5,1,18,05,61,121,20,11,19,021,14,12,36,004,28,13,19,152,17*7A
$GPGSV,5,2,18,14,00,133,,15,28,187,17,18,25,235,17,20,44,061,21*7F
$GPGSV,5,3,18,22,15,120,12,23,04,211,,24,60,232,31,25,13,337,*76
$GPGSV,5,4,18,29,10,304,,36,52,277,,40,86,350,38,41,58,082,27*7C
$GPGSV,5,5,18,49,32,274,,50,10,089,*78
$GLGSV,3,1,09,69,13,115,,70,17,179,,71,00,219,,73,67,016,25*61
$GLGSV,3,2,09,74,24,345,,80,43,136,25,84,28,340,,85,33,279,13*64
$GLGSV,3,3,09,86,05,228,*5F
$GNGLL,0419.75804,S,05539.78571,E,051237.00,A,D*69
$GNGRS,051237.00,1,1.0,-10.4,15.0,1.2,6.3,-9.1,5.9,7.8,,,,*5F
$GNGRS,051237.00,1,-8.8,-2.9,3.8,,,,,,,,,*7C
$GNGST,051237.00,3591261,,,,5.3,9.3,15*56
$GNZDA,051237.00,21,05,2025,00,00*79
$GNGBS,051237.00,5.3,9.3,15.3,,,,*66
$GNTXT,01,01,01,More than 100 frame errors, UART RX was disabled*70
b0X=yA$:,=q
xt<Q
0{4&V^:R 
Y
fEsFGICJYP+TTU!qVTbOM
?H$GNRMC,051238.00,A,0419.75802,S,05539.78565,E,0.052,,210525,,,D*7A
$GNVTG,,T,,M,0.052,N,0.097,K,D*31
$GNGNS,051238.00,0419.75802,S,05539.78565,E,DA,11,0.85,25.3,-47.6,,0000*6B
$GNGGA,051238.00,0419.75802,S,05539.78565,E,2,11,0.85,25.3,M,-47.6,M,,0000*47
$GNGSA,A,3,24,20,11,05,13,15,22,12,,,,,1.63,0.85,1.38*1B
$GNGSA,A,3,80,73,85,,,,,,,,,,1.63,0.85,1.38*1E
$GPGSV,5,1,18,05,61,121,21,11,19,021,17,12,36,004,29,13,19,152,16*78
$GPGSV,5,2,18,14,00,133,,15,28,187,17,18,25,235,15,20,44,061,21*7D
$GPGSV,5,3,18,22,15,120,11,23,04,211,,24,60,232,31,25,13,337,*75
$GPGSV,5,4,18,29,10,304,,36,52,277,,40,86,350,38,41,58,082,*79
$GPGSV,5,5,18,49,32,274,,50,10,089,*78
$GLGSV,3,1,09,69,13,115,,70,17,179,,71,00,219,,73,67,016,25*61
$GLGSV,3,2,09,74,24,345,,80,43,136,25,84,28,340,,85,33,279,13*64
$GLGSV,3,3,09,86,05,229,*5E
$GNGLL,0419.75802,S,05539.78565,E,051238.00,A,D*65
$GNGRS,051238.00,1,1.3,-11.7,15.0,3.2,10.8,-8.4,1.2,4.8,,,,*67
$GNGRS,051238.00,1,-8.4,-2.5,3.7,,,,,,,,,*7C
$GNGST,051238.00,5072371,,,,5.3,9.3,15*57
$GNZDA,051238.00,21,05,2025,00,00*76
$GNGBS,051238.00,5.3,9.3,15.4,,,,*6E
$GNTXT,01,01,01,More than 100 frame errors, UART RX was disabled*70
b0X=y$byt,=
x<1Q
0{4&V^:R 
Y
fEsFGICrJYP+TTU!&VbO5?$GNRMC,051239.00,A,0419.75795,S,05539.78549,E,0.181,,210525,,,D*7B
$GNVTG,,T,,M,0.181,N,0.335,K,D*35
$GNGNS,051239.00,0419.75795,S,05539.78549,E,DA,10,0.90,25.3,-47.6,,0000*60
$GNGGA,051239.00,0419.75795,S,05539.78549,E,2,10,0.90,25.3,M,-47.6,M,,0000*4C
$GNGSA,A,3,24,20,11,05,13,15,12,,,,,,1.76,0.90,1.51*14
$GNGSA,A,3,80,73,85,,,,,,,,,,1.76,0.90,1.51*11
$GPGSV,5,1,18,05,61,121,20,11,19,021,11,12,36,004,29,13,19,152,15*7C
$GPGSV,5,2,18,14,00,133,,15,28,187,17,18,25,235,12,20,44,061,21*7A
$GPGSV,5,3,18,22,15,120,,23,04,211,,24,60,232,30,25,13,337,*74
$GPGSV,5,4,18,29,10,304,,36,52,277,,40,86,350,38,41,58,082,*79
$GPGSV,5,5,18,49,32,274,,50,10,089,*78
$GLGSV,3,1,09,69,13,115,,70,17,179,,71,00,219,,73,67,016,25*61
$GLGSV,3,2,09,74,24,345,,80,43,136,25,84,28,340,,85,33,279,11*66
$GLGSV,3,3,09,86,05,229,*5E
$GNGLL,0419.75795,S,05539.78549,E,051239.00,A,D*6B
$GNGRS,051239.00,1,0.5,-12.6,15.0,4.2,8.9,-4.0,3.5,,,,,*73
$GNGRS,051239.00,1,-7.6,-1.4,-20.1,,,,,,,,,*68
$GNGST,051239.00,61,,,,5.2,9.3,15*65
$GNZDA,051239.00,21,05,2025,00,00*77
$GNGBS,051239.00,5.2,9.3,15.4,,,,*6E
$GNTXT,01,01,01,More than 100 frame errors, UART RX was disabled*70
b0X=ysB$p,=[
x<Q
0{4'V^:R 
Y
fEsFGICJYP+nTTU!qV91bO?($GNRMC,051240.00,A,0419.75793,S,05539.78539,E,0.042,,210525,,,D*7A
$GNVTG,,T,,M,0.042,N,0.077,K,D*3E
$GNGNS,051240.00,0419.75793,S,05539.78539,E,DA,10,0.90,25.1,-47.6,,0000*6D
$GNGGA,051240.00,0419.75793,S,05539.78539,E,2,10,0.90,25.1,M,-47.6,M,,0000*41
$GNGSA,A,3,24,20,11,05,13,15,12,,,,,,1.76,0.90,1.51*14
$GNGSA,A,3,80,73,85,,,,,,,,,,1.76,0.90,1.51*11
$GPGSV,5,1,18,05,61,121,19,11,19,021,14,12,36,004,30,13,19,152,15*7B
$GPGSV,5,2,18,14,00,133,,15,28,187,18,18,25,235,13,20,44,061,21*74
$GPGSV,5,3,18,22,15,120,,23,04,211,,24,60,232,30,25,13,337,*74
$GPGSV,5,4,18,29,10,304,,36,52,277,,40,86,350,39,41,58,082,*78
$GPGSV,5,5,18,49,32,274,,50,10,089,*78
$GLGSV,3,1,09,69,13,115,,70,17,179,,71,00,219,,73,67,016,26*62
$GLGSV,3,2,09,74,24,345,,80,43,136,25,84,28,340,,85,33,279,18*6F
$GLGSV,3,3,09,86,05,229,*5E
$GNGLL,0419.75793,S,05539.78539,E,051240.00,A,D*64
$GNGRS,051240.00,1,6.6,-14.4,13.5,6.3,7.8,-1.2,6.2,,,,,*77
$GNGRS,051240.00,1,-6.6,-1.0,3.7,,,,,,,,,*79
$GNGST,051240.00,3761771,,,,5.2,9.3,15*5E
$GNZDA,051240.00,21,05,2025,00,00*79
$GNGBS,051240.00,5.2,9.3,15.4,,,,*60
$GNTXT,01,01,01,More than 100 frame errors, UART RX was disabled*70
b0Xx=yy$/,=
x<Q
0{4&V^:R 
Y
fEsFGICJYP+TTU!%V&bxO?f|$GNRMC,051241.00,A,0419.75790,S,05539.78523,E,0.126,,210525,,,D*70
$GNVTG,,T,,M,0.126,N,0.233,K,D*3F
$GNGNS,051241.00,0419.75790,S,05539.78523,E,DA,10,0.90,24.8,-47.6,,0000*6C
$GNGGA,051241.00,0419.75790,S,05539.78523,E,2,10,0.90,24.8,M,-47.6,M,,0000*40
$GNGSA,A,3,24,20,11,05,13,15,12,,,,,,1.76,0.90,1.51*14
$GNGSA,A,3,80,73,85,,,,,,,,,,1.76,0.90,1.51*11
$GPGSV,5,1,18,05,61,121,19,11,19,021,18,12,36,004,29,13,19,152,17*7D
$GPGSV,5,2,18,14,00,133,,15,28,187,20,18,25,235,13,20,44,061,23*7D
$GPGSV,5,3,18,22,15,120,07,23,04,211,,24,60,232,30,25,13,337,*73
$GPGSV,5,4,18,29,10,304,,36,52,277,,40,86,350,38,41,58,082,*79
$GPGSV,5,5,18,49,32,274,,50,10,089,*78
$GLGSV,3,1,09,69,13,115,,70,17,179,,71,00,219,,73,67,016,27*63
$GLGSV,3,2,09,74,24,345,,80,43,136,24,84,28,340,,85,33,279,17*61
$GLGSV,3,3,09,86,05,229,*5E
$GNGLL,0419.75790,S,05539.78523,E,051241.00,A,D*6D
$GNGRS,051241.00,1,5.0,-13.2,12.8,6.3,5.6,-2.4,2.3,,,,,*72
$GNGRS,051241.00,1,-4.9,-2.9,2.9,,,,,,,,,*70
$GNGST,051241.00,51,,,,5.2,9.2,15*68
$GNZDA,051241.00,21,05,2025,00,00*78
$GNGBS,051241.00,5.2,9.2,15.4,,,,*60
$GNTXT,01,01,01,More than 100 frame errors, UART RX was disabled*70
b0X`=y&$,==

x<iQ
0{4&V^:R 
Y
fEsFGICJYP+TTU!Vb`O?=$GNRMC,051242.00,A,0419.75793,S,05539.78522,E,0.085,,210525,,,D*79
$GNVTG,,T,,M,0.085,N,0.158,K,D*39
$GNGNS,051242.00,0419.75793,S,05539.78522,E,DA,10,0.90,24.4,-47.6,,0000*61
$GNGGA,051242.00,0419.75793,S,05539.78522,E,2,10,0.90,24.4,M,-47.6,M,,0000*4D
$GNGSA,A,3,24,20,11,05,13,15,12,,,,,,1.76,0.90,1.51*14
$GNGSA,A,3,80,73,85,,,,,,,,,,1.76,0.90,1.51*11
$GPGSV,5,1,18,05,61,121,17,11,19,021,18,12,36,004,30,13,19,152,19*75
$GPGSV,5,2,18,14,00,133,,15,28,187,21,18,25,235,13,20,44,061,22*7D
$GPGSV,5,3,18,22,15,120,10,23,04,211,,24,60,232,30,25,13,337,*75
$GPGSV,5,4,18,29,10,304,,36,52,277,,40,86,350,38,41,58,082,*79
$GPGSV,5,5,18,49,32,274,,50,10,089,*78
$GLGSV,3,1,09,69,13,115,,70,17,179,,71,00,219,,73,67,016,27*63
$GLGSV,3,2,09,74,24,345,,80,43,136,23,84,28,340,,85,33,279,19*68
$GLGSV,3,3,09,86,05,229,*5E
$GNGLL,0419.75793,S,05539.78522,E,051242.00,A,D*6C
$GNGRS,051242.00,1,3.6,-12.2,12.7,8.1,3.9,-3.1,3.9,,,,,*75
$GNGRS,051242.00,1,-3.3,-5.7,-2.6,,,,,,,,,*55
$GNGST,051242.00,49,,,,5.2,9.1,15*61
$GNZDA,051242.00,21,05,2025,00,00*7B
$GNGBS,051242.00,5.2,9.1,15.3,,,,*67
$GNTXT,01,01,01,More than 100 frame errors, UART RX was disabled*70
b0XH=yz$uL,=~
x<_Q
0{4&V^:R 
Y
fEsFGICVJYP+TTU!V[bHO?I$GNRMC,051243.00,A,0419.75793,S,05539.78505,E,0.131,,210525,,,D*73
$GNVTG,,T,,M,0.131,N,0.242,K,D*3F
$GNGNS,051243.00,0419.75793,S,05539.78505,E,DA,10,0.90,24.3,-47.6,,0000*62
$GNGGA,051243.00,0419.75793,S,05539.78505,E,2,10,0.90,24.3,M,-47.6,M,,0000*4E
$GNGSA,A,3,24,20,11,05,13,15,12,,,,,,1.76,0.90,1.51*14
$GNGSA,A,3,80,73,85,,,,,,,,,,1.76,0.90,1.51*11
$GPGSV,5,1,18,05,61,121,18,11,19,021,18,12,36,004,30,13,19,152,18*7B
$GPGSV,5,2,18,14,00,133,,15,28,187,21,18,25,235,15,20,44,061,21*78
$GPGSV,5,3,18,22,15,120,12,23,04,211,,24,60,232,30,25,13,337,*77
$GPGSV,5,4,18,29,10,304,,36,52,277,,40,86,350,38,41,58,082,*79
$GPGSV,5,5,18,49,32,274,,50,10,089,*78
$GLGSV,3,1,09,69,13,115,,70,17,179,,71,00,219,,73,67,016,28*6C
$GLGSV,3,2,09,74,24,345,,80,43,136,22,84,28,340,,85,33,279,21*62
$GLGSV,3,3,09,86,05,229,*5E
$GNGLL,0419.75793,S,05539.78505,E,051243.00,A,D*68
$GNGRS,051243.00,1,8.6,-11.5,11.9,8.9,4.1,-4.4,1.2,,,,,*7A
$GNGRS,051243.00,1,-5.2,-4.3,-3.8,,,,,,,,,*59
$GNGST,051243.00,48,,,,5.1,9.0,15*63
$GNZDA,051243.00,21,05,2025,00,00*7A
$GNGBS,051243.00,5.1,9.0,15.2,,,,*65
$GNTXT,01,01,01,More than 100 frame errors, UART RX was disabled*70
b0X0=y$,=
x<Q
0{4&V^:R 
Y
fEsFGICjJYP+vTTU!Vp}b0O!?$GNRMC,051244.00,A,0419.75788,S,05539.78486,E,0.180,,210525,,,D*7E
$GNVTG,,T,,M,0.180,N,0.334,K,D*35
$GNGNS,051244.00,0419.75788,S,05539.78486,E,DA,10,0.90,24.1,-47.6,,0000*67
$GNGGA,051244.00,0419.75788,S,05539.78486,E,2,10,0.90,24.1,M,-47.6,M,,0000*4B
$GNGSA,A,3,24,20,11,05,13,15,12,,,,,,1.76,0.90,1.51*14
$GNGSA,A,3,80,73,85,,,,,,,,,,1.76,0.90,1.51*11
$GPGSV,5,1,18,05,61,121,18,11,19,021,18,12,36,004,30,13,19,152,18*7B
$GPGSV,5,2,18,14,00,133,,15,28,187,23,18,25,235,13,20,44,061,22*7F
