b0L<~")<-@~
vU=yP
.{4V^:R 
Y
eEvFI@JYP-TRU"V(bOr:$GNRMC,050737.00,A,0419.76013,S,05539.78180,E,0.066,,210525,,,A*77
$GNVTG,,T,,M,0.066,N,0.122,K,A*3C
$GNGNS,050737.00,0419.76013,S,05539.78180,E,AA,12,0.80,22.6,-47.6,,*65
$GNGGA,050737.00,0419.76013,S,05539.78180,E,1,12,0.80,22.6,M,-47.6,M,,*4F
$GNGSA,A,3,24,20,11,05,13,15,22,12,,,,,1.60,0.80,1.39*1C
$GNGSA,A,3,84,80,73,85,,,,,,,,,1.60,0.80,1.39*15
$GPGSV,5,1,18,05,60,126,26,11,20,021,19,12,34,003,21,13,19,154,15*75
$GPGSV,5,2,18,14,01,131,,15,28,189,15,18,24,233,,20,45,064,29*7D
$GPGSV,5,3,18,22,16,118,12,23,02,212,,24,61,237,29,25,11,336,*75
$GPGSV,5,4,18,29,10,302,,36,52,277,,40,86,350,,41,58,082,*74
$GPGSV,5,5,18,49,32,274,,50,10,089,*78
$GLGSV,2,1,08,69,13,118,,70,16,181,,73,64,014,22,74,21,345,*62
$GLGSV,2,2,08,80,45,133,21,84,30,338,12,85,34,276,14,86,04,226,*62
$GNGLL,0419.76013,S,05539.78180,E,050737.00,A,A*6F
$GNGRS,050737.00,1,1.2,1.3,-17.9,2.1,-4.7,-7.1,0.9,-5.3,,,,*61
$GNGRS,050737.00,1,-3.1,-19.1,-12.7,-0.2,,,,,,,,*5B
$GNGST,050737.00,64,,,,6.8,6.7,16*6B
$GNZDA,050737.00,21,05,2025,00,00*7D
$GNGBS,050737.00,6.8,6.7,15.6,,,,*64
$GNTXT,01,01,01,More than 100 frame errors, UART RX was disabled*70
b0L<~"-@
v=P
.{4V^:R 
Y
eEvFI@JYP-TRUU"NVzbOmv:$GNRMC,050738.00,A,0419.75979,S,05539.78159,E,0.791,,210525,,,A*75
$GNVTG,,T,,M,0.791,N,1.465,K,A*34
$GNGNS,050738.00,0419.75979,S,05539.78159,E,AA,12,0.80,22.9,-47.6,,*67
$GNGGA,050738.00,0419.75979,S,05539.78159,E,1,12,0.80,22.9,M,-47.6,M,,*4D
$GNGSA,A,3,24,20,11,05,13,15,22,12,,,,,1.60,0.80,1.39*1C
$GNGSA,A,3,84,80,73,85,,,,,,,,,1.60,0.80,1.39*15
$GPGSV,5,1,18,05,60,126,25,11,20,021,18,12,34,003,20,13,19,154,17*74
$GPGSV,5,2,18,14,01,131,,15,28,189,16,18,24,233,,20,45,064,28*7F
$GPGSV,5,3,18,22,16,118,13,23,02,212,,24,61,237,27,25,11,336,*7A
$GPGSV,5,4,18,29,10,302,,36,52,277,,40,86,350,,41,58,082,*74
$GPGSV,5,5,18,49,32,274,,50,10,089,*78
$GLGSV,2,1,08,69,13,118,,70,16,181,,73,64,014,23,74,21,345,*63
$GLGSV,2,2,08,80,45,133,19,84,30,338,12,85,34,276,09,86,04,227,*64
$GNGLL,0419.75979,S,05539.78159,E,050738.00,A,A*62
$GNGRS,050738.00,1,2.8,5.2,-17.8,4.0,14.5,-8.2,16.9,-6.2,,,,*43
$GNGRS,050738.00,1,3.4,-21.8,-13.7,3.3,,,,,,,,*50
$GNGST,050738.00,224050,,,,6.9,6.8,16*69
$GNZDA,050738.00,21,05,2025,00,00*72
$GNGBS,050738.00,6.9,6.8,15.7,,,,*64
$GNTXT,01,01,01,More than 100 frame errors, UART RX was disabled*70
b0L<~)"_m-@!
vk='P
.{4V^:R 
Y
eEvFI@rJYP-TRU"\VbOUz:p$GNRMC,050739.00,A,0419.76010,S,05539.78175,E,0.196,,210525,,,A*7E
$GNVTG,,T,,M,0.196,N,0.364,K,A*32
$GNGNS,050739.00,0419.76010,S,05539.78175,E,AA,12,0.80,23.1,-47.6,,*64
$GNGGA,050739.00,0419.76010,S,05539.78175,E,1,12,0.80,23.1,M,-47.6,M,,*4E
$GNGSA,A,3,24,20,11,05,13,15,22,12,,,,,1.60,0.80,1.39*1C
$GNGSA,A,3,84,80,73,85,,,,,,,,,1.60,0.80,1.39*15
$GPGSV,5,1,18,05,60,126,22,11,20,021,18,12,34,003,18,13,19,154,18*77
$GPGSV,5,2,18,14,01,131,,15,28,189,17,18,24,233,,20,45,064,26*70
$GPGSV,5,3,18,22,16,118,11,23,02,212,,24,61,237,27,25,11,336,*78
$GPGSV,5,4,18,29,10,302,,36,52,277,,40,86,350,,41,58,082,*74
$GPGSV,5,5,18,49,32,274,,50,10,089,*78
$GLGSV,2,1,08,69,13,118,,70,16,181,,73,64,014,23,74,21,345,*63
$GLGSV,2,2,08,80,45,133,17,84,30,338,11,85,34,276,11,86,04,227,*60
$GNGLL,0419.76010,S,05539.78175,E,050739.00,A,A*68
$GNGRS,050739.00,1,0.4,8.0,-19.1,8.1,13.9,-7.8,16.4,-6.7,,,,*4F
$GNGRS,050739.00,1,3.9,-21.1,-14.2,3.5,,,,,,,,*51
$GNGST,050739.00,3437980,,,,7.1,6.9,16*53
$GNZDA,050739.00,21,05,2025,00,00*73
$GNGBS,050739.00,7.1,6.9,15.8,,,,*62
$GNTXT,01,01,01,More than 100 frame errors, UART RX was disabled*70
b0L<~"C-@

vi=P
.{4V^:R 
Y
eEvFI@|JYP-CTR0U"VbO=~:$GNRMC,050740.00,A,0419.76030,S,05539.78189,E,0.440,,210525,,,A*7F
$GNVTG,,T,,M,0.440,N,0.814,K,A*30
$GNGNS,050740.00,0419.76030,S,05539.78189,E,AA,10,0.88,23.3,-47.6,,*63
$GNGGA,050740.00,0419.76030,S,05539.78189,E,1,10,0.88,23.3,M,-47.6,M,,*49
$GNGSA,A,3,24,20,11,05,15,22,12,,,,,,1.76,0.88,1.52*1C
$GNGSA,A,3,80,73,85,,,,,,,,,,1.76,0.88,1.52*1B
$GPGSV,5,1,18,05,60,126,22,11,20,021,18,12,34,003,19,13,19,154,09*76
$GPGSV,5,2,18,14,01,131,,15,28,189,18,18,24,233,,20,45,064,26*7F
$GPGSV,5,3,18,22,16,118,10,23,02,212,,24,61,237,28,25,11,336,*76
$GPGSV,5,4,18,29,10,302,,36,52,277,,40,86,350,,41,58,082,*74
$GPGSV,5,5,18,49,32,274,,50,10,089,*78
$GLGSV,2,1,08,69,13,118,,70,16,181,,73,64,014,24,74,21,345,*64
$GLGSV,2,2,08,80,45,133,16,84,30,338,11,85,34,276,15,86,04,227,*65
$GNGLL,0419.76030,S,05539.78189,E,050740.00,A,A*67
$GNGRS,050740.00,1,-5.5,2.0,-15.0,9.4,-9.6,8.7,-7.8,,,,,*4C
$GNGRS,050740.00,1,-22.4,-14.1,24.7,,,,,,,,,*49
$GNGST,050740.00,59,,,,7.2,7.0,16*68
$GNZDA,050740.00,21,05,2025,00,00*7D
$GNGBS,050740.00,7.2,7.0,15.8,,,,*67
$GNTXT,01,01,01,More than 100 frame errors, UART RX was disabled*70
b0L<~Y"It-@%
v#=P
.{4V^:R 
Y
eEvFI@4JYP-TRU"VbO%:t@$GNRMC,050741.00,A,0419.76067,S,05539.78214,E,0.795,,210525,,,A*70
$GNVTG,,T,,M,0.795,N,1.473,K,A*37
$GNGNS,050741.00,0419.76067,S,05539.78214,E,AA,11,0.85,23.3,-47.6,,*6B
$GNGGA,050741.00,0419.76067,S,05539.78214,E,1,11,0.85,23.3,M,-47.6,M,,*41
$GNGSA,A,3,24,20,11,05,13,15,22,12,,,,,1.66,0.85,1.42*13
$GNGSA,A,3,80,73,85,,,,,,,,,,1.66,0.85,1.42*16
$GPGSV,5,1,18,05,60,126,24,11,20,021,18,12,34,003,21,13,19,154,12*71
$GPGSV,5,2,18,14,01,131,,15,28,189,19,18,24,233,,20,45,064,28*70
$GPGSV,5,3,18,22,16,118,08,23,02,212,,24,61,237,29,25,11,336,*7E
$GPGSV,5,4,18,29,10,302,,36,52,277,,40,86,350,,41,58,082,*74
$GPGSV,5,5,18,49,32,274,,50,10,089,*78
$GLGSV,2,1,08,69,13,118,,70,16,181,,73,64,014,23,74,21,345,*63
$GLGSV,2,2,08,80,45,133,15,84,30,338,12,85,34,276,18,86,04,227,*68
$GNGLL,0419.76067,S,05539.78214,E,050741.00,A,A*63
$GNGRS,050741.00,1,-5.4,-4.8,-14.5,5.3,11.0,-9.1,15.7,-5.4,,,,*4B
$GNGRS,050741.00,1,-21.3,-14.8,4.1,,,,,,,,,*71
$GNGST,050741.00,3587847,,,,7.3,7.1,16*57
$GNZDA,050741.00,21,05,2025,00,00*7C
$GNGBS,050741.00,7.3,7.1,15.8,,,,*66
$GNTXT,01,01,01,More than 100 frame errors, UART RX was disabled*70
b0L<~J"I=-@
vE=P
.{4V^:R 
Y
eEvFI@JYP-MT
RU"`V[bO:L$GNRMC,050742.00,A,0419.76061,S,05539.78206,E,0.304,,210525,,,A*7A
$GNVTG,,T,,M,0.304,N,0.563,K,A*3A
$GNGNS,050742.00,0419.76061,S,05539.78206,E,AA,11,0.85,23.0,-47.6,,*6E
$GNGGA,050742.00,0419.76061,S,05539.78206,E,1,11,0.85,23.0,M,-47.6,M,,*44
$GNGSA,A,3,24,20,11,05,13,15,22,12,,,,,1.66,0.85,1.42*13
$GNGSA,A,3,80,73,85,,,,,,,,,,1.66,0.85,1.42*16
$GPGSV,5,1,18,05,60,126,26,11,20,021,16,12,34,003,22,13,19,154,18*74
$GPGSV,5,2,18,14,01,131,,15,28,189,19,18,24,233,,20,45,064,28*70
$GPGSV,5,3,18,22,16,118,09,23,02,212,,24,61,237,29,25,11,336,*7F
$GPGSV,5,4,18,29,10,302,,36,52,277,,40,86,350,,41,58,082,*74
$GPGSV,5,5,18,49,32,274,,50,10,089,*78
$GLGSV,2,1,08,69,13,118,,70,16,181,,73,64,014,22,74,21,345,*62
$GLGSV,2,2,08,80,45,133,17,84,30,338,10,85,34,276,13,86,04,227,*63
$GNGLL,0419.76061,S,05539.78206,E,050742.00,A,A*65
$GNGRS,050742.00,1,-2.5,-5.5,-12.1,4.8,5.9,-9.6,16.0,-2.6,,,,*70
$GNGRS,050742.00,1,-22.3,-16.0,3.5,,,,,,,,,*78
$GNGST,050742.00,130163,,,,7.2,7.0,16*60
$GNZDA,050742.00,21,05,2025,00,00*7F
$GNGBS,050742.00,7.2,7.0,15.8,,,,*65
$GNTXT,01,01,01,More than 100 frame errors, UART RX was disabled*70
b0Lh<~o@"g<-@

v=P
.{4V^:R 
Y
eEvFI@PJYP-T
RU"^VbhO:#$GNRMC,050743.00,A,0419.76052,S,05539.78203,E,0.115,,210525,,,A*7C
$GNVTG,,T,,M,0.115,N,0.213,K,A*38
$GNGNS,050743.00,0419.76052,S,05539.78203,E,AA,12,0.80,23.6,-47.6,,*6A
$GNGGA,050743.00,0419.76052,S,05539.78203,E,1,12,0.80,23.6,M,-47.6,M,,*40
$GNGSA,A,3,24,20,11,05,13,15,22,12,,,,,1.60,0.80,1.39*1C
$GNGSA,A,3,84,80,73,85,,,,,,,,,1.60,0.80,1.39*15
$GPGSV,5,1,18,05,60,126,27,11,20,021,17,12,34,003,24,13,19,154,19*73
$GPGSV,5,2,18,14,01,131,,15,28,189,17,18,24,233,,20,45,064,27*71
$GPGSV,5,3,18,22,16,118,10,23,02,212,,24,61,237,29,25,11,336,*77
$GPGSV,5,4,18,29,10,302,,36,52,277,,40,86,350,,41,58,082,*74
$GPGSV,5,5,18,49,32,274,,50,10,089,*78
$GLGSV,2,1,08,69,13,118,,70,16,181,,73,64,014,20,74,21,345,*60
$GLGSV,2,2,08,80,45,133,18,84,30,338,10,85,34,276,15,86,04,227,*6A
$GNGLL,0419.76052,S,05539.78203,E,050743.00,A,A*61
$GNGRS,050743.00,1,-3.7,-6.2,-9.6,3.7,3.2,-8.6,-17.9,-4.1,,,,*6B
$GNGRS,050743.00,1,-24.0,-21.1,-14.6,0.9,,,,,,,,*46
$GNGST,050743.00,62,,,,7.1,7.0,16*60
$GNZDA,050743.00,21,05,2025,00,00*7E
$GNGBS,050743.00,7.1,7.0,15.7,,,,*68
$GNTXT,01,01,01,More than 100 frame errors, UART RX was disabled*70
b0LP<~3"-@O
vW=SP
.{4V^:R 
Y
eEvFI@JYP-JTRU"pVvbPO:u$GNRMC,050744.00,A,0419.76051,S,05539.78202,E,0.209,,210525,,,A*77
$GNVTG,,T,,M,0.209,N,0.387,K,A*3A
$GNGNS,050744.00,0419.76051,S,05539.78202,E,AA,11,0.88,23.5,-47.6,,*67
$GNGGA,050744.00,0419.76051,S,05539.78202,E,1,11,0.88,23.5,M,-47.6,M,,*4D
$GNGSA,A,3,24,20,11,05,13,22,12,,,,,,1.67,0.88,1.42*1B
$GNGSA,A,3,84,80,73,85,,,,,,,,,1.67,0.88,1.42*16
$GPGSV,5,1,18,05,60,126,26,11,20,021,15,12,34,003,24,13,19,154,20*7A
$GPGSV,5,2,18,14,01,131,,15,28,189,,18,24,233,,20,45,064,27*77
$GPGSV,5,3,18,22,16,118,12,23,02,212,,24,61,237,27,25,11,336,*7B
$GPGSV,5,4,18,29,10,302,,36,52,277,,40,86,350,,41,58,082,*74
$GPGSV,5,5,18,49,32,274,,50,10,089,*78
$GLGSV,2,1,08,69,13,118,,70,16,181,,73,64,014,17,74,21,345,*64
$GLGSV,2,2,08,80,45,133,17,84,30,338,11,85,34,276,15,86,04,227,*64
$GNGLL,0419.76051,S,05539.78202,E,050744.00,A,A*64
$GNGRS,050744.00,1,-1.7,-4.3,-8.9,5.6,5.0,16.2,-2.7,,,,,*4A
$GNGRS,050744.00,1,4.0,-19.7,-12.6,-1.4,,,,,,,,*74
$GNGST,050744.00,5072371,,,,7.0,6.9,16*5F
$GNZDA,050744.00,21,05,2025,00,00*79
$GNGBS,050744.00,7.0,6.9,15.7,,,,*66
$GNTXT,01,01,01,More than 100 frame errors, UART RX was disabled*70
b0L8<}"-@

vW=P
.{4V^:R 
Y
eEvFI@JYP-TRU"VZb8O:$GNRMC,050745.00,A,0419.76051,S,05539.78194,E,0.194,,210525,,,A*7D
$GNVTG,,T,,M,0.194,N,0.359,K,A*3E
$GNGNS,050745.00,0419.76051,S,05539.78194,E,AA,10,0.92,23.2,-47.6,,*67
$GNGGA,050745.00,0419.76051,S,05539.78194,E,1,10,0.92,23.2,M,-47.6,M,,*4D
$GNGSA,A,3,24,20,11,05,13,22,12,,,,,,1.72,0.92,1.46*10
$GNGSA,A,3,80,73,85,,,,,,,,,,1.72,0.92,1.46*11
$GPGSV,5,1,18,05,60,125,28,11,20,021,14,12,34,003,24,13,19,154,20*76
$GPGSV,5,2,18,14,01,131,,15,28,189,17,18,24,233,,20,45,064,27*71
$GPGSV,5,3,18,22,16,118,07,23,02,212,,24,61,237,27,25,11,336,*7F
$GPGSV,5,4,18,29,10,302,,36,52,277,,40,86,350,,41,58,082,*74
$GPGSV,5,5,18,49,32,274,,50,10,089,*78
$GLGSV,2,1,08,69,13,118,,70,16,181,,73,64,014,17,74,21,345,*64
$GLGSV,2,2,08,80,45,133,14,84,30,338,06,85,34,276,14,86,04,227,*60
$GNGLL,0419.76051,S,05539.78194,E,050745.00,A,A*69
$GNGRS,050745.00,1,1.7,-5.0,-5.4,2.8,2.8,16.2,-2.6,,,,,*63
$GNGRS,050745.00,1,-20.8,-13.2,0.2,,,,,,,,,*75
$GNGST,050745.00,3761771,,,,7.0,6.9,16*59
$GNZDA,050745.00,21,05,2025,00,00*78
$GNGBS,050745.00,7.0,6.9,15.6,,,,*66
$GNTXT,01,01,01,More than 100 frame errors, UART RX was disabled*70
b0L <}J"y9-@t

v!=P
.{4V^:R 
Y
eEvFI@JYP-TRU"V7b O:E$GNRMC,050746.00,A,0419.76050,S,05539.78192,E,0.136,,210525,,,A*71
$GNVTG,,T,,M,0.136,N,0.252,K,A*3C
$GNGNS,050746.00,0419.76050,S,05539.78192,E,AA,11,0.88,22.8,-47.6,,*62
$GNGGA,050746.00,0419.76050,S,05539.78192,E,1,11,0.88,22.8,M,-47.6,M,,*48
$GNGSA,A,3,24,20,11,05,13,22,12,,,,,,1.67,0.88,1.42*1B
$GNGSA,A,3,84,80,73,85,,,,,,,,,1.67,0.88,1.42*16
$GPGSV,5,1,18,05,60,125,31,11,20,021,12,12,34,003,25,13,19,154,20*79
$GPGSV,5,2,18,14,01,131,,15,28,189,16,18,24,233,,20,45,064,27*70
$GPGSV,5,3,18,22,16,118,10,23,02,212,,24,61,237,27,25,11,336,*79
$GPGSV,5,4,18,29,10,302,,36,52,277,,40,86,350,,41,58,082,*74
$GPGSV,5,5,18,49,32,274,,50,10,089,*78
$GLGSV,2,1,08,69,13,118,,70,16,181,,73,64,014,18,74,21,345,*6B
$GLGSV,2,2,08,80,45,133,12,84,30,338,09,85,34,276,14,86,04,227,*69
$GNGLL,0419.76050,S,05539.78192,E,050746.00,A,A*6D
$GNGRS,050746.00,1,0.1,-4.0,-6.1,0.7,-0.4,87.0,-3.9,,,,,*4A
$GNGRS,050746.00,1,79.0,-21.5,-13.5,0.0,,,,,,,,*6F
$GNGST,050746.00,72,,,,7.0,6.9,16*6D
$GNZDA,050746.00,21,05,2025,00,00*7B
$GNGBS,050746.00,7.0,6.9,15.6,,,,*65
$GNTXT,01,01,01,More than 100 frame errors, UART RX was disabled*70
b0L#<}"9;-@
vd=P
.{4V^:R 
Y
eEvFI@AJYP
-TRU"VMb#O:$GNRMC,050747.00,A,0419.76047,S,05539.78192,E,0.318,,210525,,,A*78
$GNVTG,,T,,M,0.318,N,0.589,K,A*33
$GNGNS,050747.00,0419.76047,S,05539.78192,E,AA,11,0.88,23.0,-47.6,,*6C
$GNGGA,050747.00,0419.76047,S,05539.78192,E,1,11,0.88,23.0,M,-47.6,M,,*46
$GNGSA,A,3,24,20,11,05,13,22,12,,,,,,1.67,0.88,1.42*1B
$GNGSA,A,3,84,80,73,85,,,,,,,,,1.67,0.88,1.42*16
$GPGSV,5,1,18,05,60,125,31,11,20,021,11,12,34,003,24,13,19,154,18*70
$GPGSV,5,2,18,14,01,131,,15,28,189,16,18,24,233,,20,45,064,26*71
$GPGSV,5,3,18,22,16,118,12,23,02,212,,24,61,237,26,25,11,336,*7A
$GPGSV,5,4,18,29,10,302,,36,52,277,,40,86,350,,41,58,082,*74
$GPGSV,5,5,18,49,32,274,,50,10,089,*78
$GLGSV,2,1,08,69,13,118,,70,16,181,,73,64,014,18,74,21,345,*6B
$GLGSV,2,2,08,80,45,133,10,84,30,338,11,85,34,276,13,86,04,227,*65
$GNGLL,0419.76047,S,05539.78192,E,050747.00,A,A*6A
$GNGRS,050747.00,1,1.9,-5.2,-3.2,2.7,-2.0,16.4,-3.2,,,,,*44
$GNGRS,050747.00,1,4.2,-21.7,-12.2,-0.4,,,,,,,,*7B
$GNGST,050747.00,3587936,,,,7.0,6.9,16*5C
$GNZDA,050747.00,21,05,2025,00,00*7A
$GNGBS,050747.00,7.0,6.9,15.6,,,,*64
$GNTXT,01,01,01,More than 100 frame errors, UART RX was disabled*70
b0L&<}Y"g-@I

vR=_P
.{4V^:R 
Y
eEvFI@ZJYP-xTRU"<VQb&O}:Z$GNRMC,050748.00,A,0419.76065,S,05539.78203,E,0.114,,210525,,,A*72
$GNVTG,,T,,M,0.114,N,0.210,K,A*3A
$GNGNS,050748.00,0419.76065,S,05539.78203,E,AA,11,0.88,22.7,-47.6,,*6E
$GNGGA,050748.00,0419.76065,S,05539.78203,E,1,11,0.88,22.7,M,-47.6,M,,*44
$GNGSA,A,3,24,20,11,05,13,22,12,,,,,,1.67,0.88,1.42*1B
$GNGSA,A,3,84,80,73,85,,,,,,,,,1.67,0.88,1.42*16
$GPGSV,5,1,18,05,60,125,29,11,20,021,11,12,34,003,23,13,19,154,15*73
$GPGSV,5,2,18,14,01,131,,15,28,189,18,18,24,233,,20,45,064,26*7F
$GPGSV,5,3,18,22,16,118,10,23,02,212,,24,61,237,27,25,11,336,*79
$GPGSV,5,4,18,29,10,302,,36,52,277,,40,86,350,,41,58,082,*74
$GPGSV,5,5,18,49,32,274,,50,10,089,*78
$GLGSV,2,1,08,69,13,118,,70,16,181,,73,64,014,18,74,21,345,*6B
$GLGSV,2,2,08,80,45,133,15,84,30,338,08,85,34,276,15,86,04,227,*6E
$GNGLL,0419.76065,S,05539.78203,E,050748.00,A,A*6E
$GNGRS,050748.00,1,-4.2,-4.4,-6.1,8.6,-1.5,16.2,-0.5,,,,,*66
$GNGRS,050748.00,1,4.9,-21.8,-11.9,0.6,,,,,,,,*57
$GNGST,050748.00,3586909,,,,7.0,6.9,16*5E
$GNZDA,050748.00,21,05,2025,00,00*75
$GNGBS,050748.00,7.0,6.9,15.7,,,,*6A
$GNTXT,01,01,01,More than 100 frame errors, UART RX was disabled*70
b0L*<}0"f3-@f
v=P
.{4V^:R 
Y
eEvFI@JYP-iTRgU"Vb*Oe:2n$GNRMC,050749.00,A,0419.76049,S,05539.78196,E,0.107,,210525,,,A*70
$GNVTG,,T,,M,0.107,N,0.199,K,A*3A
$GNGNS,050749.00,0419.76049,S,05539.78196,E,AA,12,0.80,22.5,-47.6,,*67
$GNGGA,050749.00,0419.76049,S,05539.78196,E,1,12,0.80,22.5,M,-47.6,M,,*4D
$GNGSA,A,3,24,20,11,05,13,15,22,12,,,,,1.60,0.80,1.38*1D
$GNGSA,A,3,84,80,73,85,,,,,,,,,1.60,0.80,1.38*14
$GPGSV,5,1,18,05,60,125,30,11,20,021,11,12,34,003,22,13,19,154,13*7C
$GPGSV,5,2,18,14,01,131,,15,28,189,18,18,24,233,,20,45,064,26*7F
$GPGSV,5,3,18,22,16,118,09,23,02,212,,24,61,237,27,25,11,336,*71
$GPGSV,5,4,18,29,10,302,,36,52,277,,40,86,350,,41,58,082,*74
$GPGSV,5,5,18,49,32,274,,50,10,089,*78
$GLGSV,2,1,08,69,13,118,,70,16,181,,73,64,014,18,74,21,345,*6B
$GLGSV,2,2,08,80,45,133,21,84,30,338,14,85,34,276,16,86,04,227,*67
$GNGLL,0419.76049,S,05539.78196,E,050749.00,A,A*6E
$GNGRS,050749.00,1,-3.8,-1.5,-7.2,-3.0,6.6,-27.7,-55.0,-1.5,,,,*7D
$GNGRS,050749.00,1,8.7,-19.4,-11.1,-1.0,,,,,,,,*71
$GNGST,050749.00,67,,,,6.9,6.8,16*6F
$GNZDA,050749.00,21,05,2025,00,00*74
$GNGBS,050749.00,6.9,6.8,15.7,,,,*62
$GNTXT,01,01,01,More than 100 frame errors, UART RX was disabled*70
b0L.<}"&-@
vx=P
.{4V^:R 
Y
eEvFI@JYP-TRU">V3b.OM:
$GNRMC,050750.00,A,0419.76036,S,05539.78199,E,0.161,,210525,,,A*7F
$GNVTG,,T,,M,0.161,N,0.298,K,A*38
$GNGNS,050750.00,0419.76036,S,05539.78199,E,AA,11,0.83,22.9,-47.6,,*64
$GNGGA,050750.00,0419.76036,S,05539.78199,E,1,11,0.83,22.9,M,-47.6,M,,*4E
$GNGSA,A,3,24,20,11,05,15,22,12,,,,,,1.71,0.83,1.49*1A
$GNGSA,A,3,84,80,73,85,,,,,,,,,1.71,0.83,1.49*11
$GPGSV,5,1,18,05,60,125,30,11,20,021,13,12,34,003,26,13,19,154,*78
$GPGSV,5,2,18,14,01,131,,15,28,189,19,18,24,233,21,20,45,064,27*7C
$GPGSV,5,3,18,22,16,118,12,23,02,212,,24,61,237,26,25,11,336,*7A
$GPGSV,5,4,18,29,10,302,,36,52,277,,40,86,350,,41,58,082,*74
$GPGSV,5,5,18,49,32,274,,50,10,089,*78
$GLGSV,2,1,08,69,13,118,,70,16,181,,73,64,014,17,74,21,345,*64
$GLGSV,2,2,08,80,45,133,22,84,30,338,14,85,34,276,17,86,04,227,*65
$GNGLL,0419.76036,S,05539.78199,E,050750.00,A,A*61
$GNGRS,050750.00,1,-2.9,-3.2,-8.7,-6.2,-25.2,16.6,-2.7,,,,,*79
$GNGRS,050750.00,1,4.0,-18.4,-8.6,-1.9,,,,,,,,*45
$GNGST,050750.00,3586970,,,,6.9,6.8,16*50
$GNZDA,050750.00,21,05,2025,00,00*7C
$GNGBS,050750.00,6.9,6.8,15.7,,,,*6A
$GNTXT,01,01,01,More than 100 frame errors, UART RX was disabled*70
b0L2<}`"O(-@}
v=P
.{4V^:R 
Y
eEvFI@JYP-TRU"VBb2O5:>$GNRMC,050751.00,A,0419.76025,S,05539.78193,E,0.046,,210525,,,A*72
$GNVTG,,T,,M,0.046,N,0.085,K,A*32
$GNGNS,050751.00,0419.76025,S,05539.78193,E,AA,11,0.83,23.2,-47.6,,*67
$GNGGA,050751.00,0419.76025,S,05539.78193,E,1,11,0.83,23.2,M,-47.6,M,,*4D
$GNGSA,A,3,24,20,11,05,15,22,12,,,,,,1.71,0.83,1.49*1A
$GNGSA,A,3,84,80,73,85,,,,,,,,,1.71,0.83,1.49*11
$GPGSV,5,1,18,05,60,125,29,11,20,021,12,12,34,003,26,13,19,154,19*79
$GPGSV,5,2,18,14,01,131,,15,28,189,17,18,24,233,19,20,45,064,27*79
$GPGSV,5,3,18,22,16,118,12,23,02,212,,24,61,237,26,25,11,336,*7A
$GPGSV,5,4,18,29,10,302,,36,52,277,,40,86,350,,41,58,082,*74
$GPGSV,5,5,18,49,32,274,,50,10,089,*78
$GLGSV,2,1,08,69,13,118,,70,16,181,,73,64,014,18,74,21,345,*6B
$GLGSV,2,2,08,80,45,133,20,84,30,338,15,85,34,276,15,86,04,227,*64
$GNGLL,0419.76025,S,05539.78193,E,050751.00,A,A*68
$GNGRS,050751.00,1,-2.5,-1.3,-9.3,-5.1,-20.7,17.0,-4.3,,,,,*77
$GNGRS,050751.00,1,3.8,-18.2,-8.5,-0.6,,,,,,,,*40
$GNGST,050751.00,3587298,,,,6.8,6.8,16*5C
$GNZDA,050751.00,21,05,2025,00,00*7D
$GNGBS,050751.00,6.8,6.8,15.8,,,,*65
$GNTXT,01,01,01,More than 100 frame errors, UART RX was disabled*70
b0L6<}!#q-@
v=cP
.{4V^:R 
Y
eEvFI@JYP-VTRU"!VFb6O:$GNRMC,050752.00,A,0419.76020,S,05539.78190,E,0.020,,210525,,,A*77
$GNVTG,,T,,M,0.020,N,0.036,K,A*3A
$GNGNS,050752.00,0419.76020,S,05539.78190,E,AA,11,0.83,23.5,-47.6,,*65
$GNGGA,050752.00,0419.76020,S,05539.78190,E,1,11,0.83,23.5,M,-47.6,M,,*4F
$GNGSA,A,3,24,20,11,05,15,22,12,,,,,,1.71,0.83,1.49*1A
$GNGSA,A,3,84,80,73,85,,,,,,,,,1.71,0.83,1.49*11
$GPGSV,5,1,18,05,60,125,29,11,20,021,13,12,35,003,23,13,19,154,18*7D
$GPGSV,5,2,18,14,01,131,,15,28,189,18,18,24,233,18,20,45,064,27*77
$GPGSV,5,3,18,22,16,118,13,23,02,212,,24,61,237,27,25,11,336,*7A
$GPGSV,5,4,18,29,10,302,,36,52,277,,40,86,350,,41,58,082,*74
$GPGSV,5,5,18,49,32,274,,50,10,089,*78
$GLGSV,2,1,08,69,13,118,,70,16,181,,73,64,014,16,74,21,345,*65
$GLGSV,2,2,08,80,45,133,17,84,30,338,16,85,34,276,15,86,04,227,*63
$GNGLL,0419.76020,S,05539.78190,E,050752.00,A,A*6D
$GNGRS,050752.00,1,-1.6,-1.0,-9.9,0.3,-18.2,9.7,-6.5,,,,,*65
$GNGRS,050752.00,1,-0.6,-17.1,-6.1,0.3,,,,,,,,*4D
$GNGST,050752.00,64,,,,6.8,6.8,16*67
$GNZDA,050752.00,21,05,2025,00,00*7E
$GNGBS,050752.00,6.8,6.8,15.8,,,,*66
b0Lx:<}p_#-@U
v=P
.{4V^:R 
Y
eEvFI@JYP-<TRU"V+bx:O:$GNRMC,050753.00,A,0419.76007,S,05539.78185,E,0.190,,210525,,,A*7D
$GNVTG,,T,,M,0.190,N,0.353,K,A*30
$GNGNS,050753.00,0419.76007,S,05539.78185,E,AA,11,0.83,23.9,-47.6,,*69
$GNGGA,050753.00,0419.76007,S,05539.78185,E,1,11,0.83,23.9,M,-47.6,M,,*43
$GNGSA,A,3,24,20,11,05,15,22,12,,,,,,1.71,0.83,1.49*1A
$GNGSA,A,3,84,80,73,85,,,,,,,,,1.71,0.83,1.49*11
$GPGSV,5,1,18,05,60,125,29,11,20,021,15,12,35,003,21,13,19,153,16*70
$GPGSV,5,2,18,14,01,131,,15,28,189,20,18,24,233,15,20,45,064,26*70
$GPGSV,5,3,18,22,16,118,15,23,02,212,,24,61,237,27,25,11,336,*7C
$GPGSV,5,4,18,29,10,302,,36,52,277,,40,86,350,,41,58,082,*74
$GPGSV,5,5,18,49,32,274,,50,10,089,*78
$GLGSV,2,1,08,69,13,118,,70,16,181,,73,64,014,14,74,21,345,*67
$GLGSV,2,2,08,80,45,133,16,84,30,338,12,85,34,276,16,86,04,227,*65
$GNGLL,0419.76007,S,05539.78185,E,050753.00,A,A*6D
$GNGRS,050753.00,1,-0.5,-1.7,-9.3,1.1,-15.6,16.7,-5.7,,,,,*5E
$GNGRS,050753.00,1,3.9,-17.3,-2.3,0.1,,,,,,,,*6B
$GNGST,050753.00,106768,,,,6.8,6.8,16*6A
$GNZDA,050753.00,21,05,2025,00,00*7F
$GNGBS,050753.00,6.8,6.8,15.8,,,,*67
$GNTXT,01,01,01,More than 100 frame errors, UART RX was disabled*70
b0L`><}-#\-@l

v=P
.{4V^:R 
Y
eEvFI@;JYP-;TRU"[V&b`>O:is$GNRMC,050754.00,A,0419.76003,S,05539.78175,E,0.243,,210525,,,A*7C
$GNVTG,,T,,M,0.243,N,0.450,K,A*39
$GNGNS,050754.00,0419.76003,S,05539.78175,E,AA,12,0.80,24.0,-47.6,,*6B
$GNGGA,050754.00,0419.76003,S,05539.78175,E,1,12,0.80,24.0,M,-47.6,M,,*41
$GNGSA,A,3,24,20,11,05,13,15,22,12,,,,,1.60,0.80,1.38*1D
$GNGSA,A,3,84,80,73,85,,,,,,,,,1.60,0.80,1.38*14
$GPGSV,5,1,18,05,60,125,29,11,20,021,16,12,35,003,20,13,19,153,17*73
$GPGSV,5,2,18,14,01,131,,15,28,189,19,18,24,233,15,20,45,064,25*79
$GPGSV,5,3,18,22,16,118,10,23,02,212,,24,61,237,26,25,11,336,*78
$GPGSV,5,4,18,29,10,302,,36,52,277,,40,86,350,,41,58,082,*74
$GPGSV,5,5,18,49,32,274,,50,10,089,*78
$GLGSV,2,1,08,69,13,118,,70,16,181,,73,64,014,15,74,21,345,*66
$GLGSV,2,2,08,80,45,133,18,84,30,338,13,85,34,276,16,86,04,227,*6A
$GNGLL,0419.76003,S,05539.78175,E,050754.00,A,A*61
$GNGRS,050754.00,1,-0.1,1.1,-9.8,1.8,-3.1,-9.3,16.8,-3.8,,,,*4B
$GNGRS,050754.00,1,3.8,-17.3,-2.0,0.9,,,,,,,,*66
$GNGST,050754.00,150295,,,,6.8,6.8,16*69
$GNZDA,050754.00,21,05,2025,00,00*78
$GNGBS,050754.00,6.8,6.8,15.8,,,,*60
$GNTXT,01,01,01,More than 100 frame errors, UART RX was disabled*70
b0LHB<}D#bWH-@
v=P
.{4V^:R 
Y
eEvFI@JYP-mTRU"[V<bHBO:A$GNRMC,050755.00,A,0419.75995,S,05539.78152,E,0.531,,210525,,,A*7F
$GNVTG,,T,,M,0.531,N,0.983,K,A*38
$GNGNS,050755.00,0419.75995,S,05539.78152,E,AA,12,0.80,24.3,-47.6,,*69
$GNGGA,050755.00,0419.75995,S,05539.78152,E,1,12,0.80,24.3,M,-47.6,M,,*43
$GNGSA,A,3,24,20,11,05,13,15,22,12,,,,,1.60,0.80,1.38*1D
$GNGSA,A,3,84,80,73,85,,,,,,,,,1.60,0.80,1.38*14
$GPGSV,5,1,18,05,60,125,29,11,20,021,15,12,35,003,21,13,19,153,19*7F
$GPGSV,5,2,18,14,01,131,,15,28,188,18,18,24,233,14,20,45,064,25*78
$GPGSV,5,3,18,22,16,118,12,23,02,212,,24,61,237,24,25,11,336,*78
$GPGSV,5,4,18,29,10,302,,36,52,277,,40,86,350,,41,58,082,*74
$GPGSV,5,5,18,49,32,274,,50,10,089,*78
$GLGSV,2,1,08,69,13,118,,70,16,181,,73,64,014,16,74,21,345,*65
$GLGSV,2,2,08,80,45,133,24,84,30,338,11,85,34,276,16,86,04,227,*67
$GNGLL,0419.75995,S,05539.78152,E,050755.00,A,A*60
$GNGRS,050755.00,1,1.6,1.7,-7.0,-0.7,-4.2,-7.0,-11.1,-4.1,,,,*66
$GNGRS,050755.00,1,4.0,-14.3,-3.2,0.9,,,,,,,,*68
$GNGST,050755.00,64,,,,6.7,6.8,16*6F
$GNZDA,050755.00,21,05,2025,00,00*79
$GNGBS,050755.00,6.7,6.8,15.7,,,,*61
$GNTXT,01,01,01,More than 100 frame errors, UART RX was disabled*70
b0L0F<}#-@Z
vs=TP
.{4V^:R 
Y
eEvFI@JYP-TRU"lVb0FO:C$GNRMC,050756.00,A,0419.75984,S,05539.78128,E,0.611,,210525,,,A*70
$GNVTG,,T,,M,0.611,N,1.132,K,A*3A
$GNGNS,050756.00,0419.75984,S,05539.78128,E,AA,12,0.80,24.6,-47.6,,*62
$GNGGA,050756.00,0419.75984,S,05539.78128,E,1,12,0.80,24.6,M,-47.6,M,,*48
$GNGSA,A,3,24,20,11,05,13,15,22,12,,,,,1.60,0.80,1.38*1D
$GNGSA,A,3,84,80,73,85,,,,,,,,,1.60,0.80,1.38*14
$GPGSV,5,1,18,05,60,125,27,11,20,021,12,12,35,003,21,13,19,153,16*79
$GPGSV,5,2,18,14,01,131,,15,28,188,19,18,24,233,13,20,45,064,22*79
$GPGSV,5,3,18,22,16,118,11,23,02,212,,24,61,237,24,25,11,336,*7B
$GPGSV,5,4,18,29,10,302,,36,52,277,,40,86,350,,41,58,082,*74
$GPGSV,5,5,18,49,32,274,,50,10,089,*78
$GLGSV,2,1,08,69,13,118,,70,16,181,,73,64,014,14,74,21,345,*67
$GLGSV,2,2,08,80,45,133,25,84,30,338,13,85,34,276,16,86,04,227,*64
$GNGLL,0419.75984,S,05539.78128,E,050756.00,A,A*6E
$GNGRS,050756.00,1,0.8,3.5,-6.3,-2.5,-8.2,-6.3,16.5,-2.5,,,,*4A
$GNGRS,050756.00,1,4.4,-12.9,-1.1,1.1,,,,,,,,*6B
$GNGST,050756.00,3434011,,,,6.7,6.8,16*5E
$GNZDA,050756.00,21,05,2025,00,00*7A
$GNGBS,050756.00,6.7,6.8,15.7,,,,*62
$GNTXT,01,01,01,More than 100 frame errors, UART RX was disabled*70
b0LJ<}1k#3J-@
vj=P
.{4V^:R 
Y
eEvFI@JJYP-TRU"VbJO:$GNRMC,050757.00,A,0419.75970,S,05539.78111,E,0.447,,210525,,,A*71
$GNVTG,,T,,M,0.447,N,0.828,K,A*38
$GNGNS,050757.00,0419.75970,S,05539.78111,E,AA,12,0.80,24.8,-47.6,,*6C
$GNGGA,050757.00,0419.75970,S,05539.78111,E,1,12,0.80,24.8,M,-47.6,M,,*46
$GNGSA,A,3,24,20,11,05,13,15,22,12,,,,,1.60,0.80,1.38*1D
$GNGSA,A,3,84,80,73,85,,,,,,,,,1.60,0.80,1.38*14
$GPGSV,5,1,18,05,60,125,25,11,20,021,12,12,35,003,22,13,19,153,15*7B
$GPGSV,5,2,18,14,01,131,,15,28,188,17,18,24,233,17,20,45,064,22*73
$GPGSV,5,3,18,22,16,118,13,23,02,212,,24,61,237,27,25,11,336,*7A
$GPGSV,5,4,18,29,10,302,,36,52,277,,40,86,350,,41,58,082,*74
$GPGSV,5,5,18,49,32,274,,50,10,089,*78
$GLGSV,2,1,08,69,13,118,,70,16,181,,73,64,014,13,74,21,345,*60
$GLGSV,2,2,08,80,45,133,22,84,30,338,11,85,34,276,15,86,04,227,*62
$GNGLL,0419.75970,S,05539.78111,E,050757.00,A,A*6E
$GNGRS,050757.00,1,2.5,2.5,-6.6,-2.1,-7.2,-4.4,16.4,-2.9,,,,*43
$GNGRS,050757.00,1,2.6,-11.3,3.3,2.3,,,,,,,,*4B
$GNGST,050757.00,3434011,,,,6.8,6.9,16*51
$GNZDA,050757.00,21,05,2025,00,00*7B
$GNGBS,050757.00,6.8,6.9,15.7,,,,*6D
$GNTXT,01,01,01,More than 100 frame errors, UART RX was disabled*70
b0LN<}F#Ye/-@
v,=wP
.{4V^:R 
Y
eEvFI@JYP-TRWU"VDbNO:$GNRMC,050758.00,A,0419.75968,S,05539.78123,E,0.053,,210525,,,A*77
$GNVTG,,T,,M,0.053,N,0.099,K,A*3B
$GNGNS,050758.00,0419.75968,S,05539.78123,E,AA,11,0.83,25.4,-47.6,,*66
$GNGGA,050758.00,0419.75968,S,05539.78123,E,1,11,0.83,25.4,M,-47.6,M,,*4C
$GNGSA,A,3,24,20,11,05,13,15,22,12,,,,,1.65,0.83,1.42*16
$GNGSA,A,3,84,73,85,,,,,,,,,,1.65,0.83,1.42*17
$GPGSV,5,1,18,05,60,125,22,11,20,021,12,12,35,003,22,13,19,153,15*7C
$GPGSV,5,2,18,14,01,131,,15,28,188,15,18,24,234,16,20,45,064,22*77
$GPGSV,5,3,18,22,16,118,09,23,02,212,,24,61,237,25,25,11,336,*73
$GPGSV,5,4,18,29,10,302,,36,52,277,,40,86,350,,41,58,082,*74
$GPGSV,5,5,18,49,32,274,,50,10,089,*78
$GLGSV,2,1,08,69,13,118,,70,16,181,,73,64,014,17,74,21,345,*64
$GLGSV,2,2,08,80,45,133,,84,30,338,11,85,34,276,14,86,04,227,*63
$GNGLL,0419.75968,S,05539.78123,E,050758.00,A,A*69
$GNGRS,050758.00,1,3.7,1.7,-5.0,3.3,-6.7,-4.7,-55.9,-4.2,,,,*48
$GNGRS,050758.00,1,-1.7,2.8,2.5,,,,,,,,,*57
$GNGST,050758.00,70,,,,6.9,6.9,16*68
$GNZDA,050758.00,21,05,2025,00,00*74
$GNGBS,050758.00,6.9,6.9,15.7,,,,*63
$GNTXT,01,01,01,More than 100 frame errors, UART RX was disabled*70
b0LQ<}~
#N-@k
v^=zP
.{4V^:R 
Y
eEvFI@JYP-'TRZU"V\,bQOu:l$GNRMC,050759.00,A,0419.75968,S,05539.78128,E,0.088,,210525,,,A*7B
$GNVTG,,T,,M,0.088,N,0.163,K,A*39
$GNGNS,050759.00,0419.75968,S,05539.78128,E,AA,10,0.89,25.6,-47.6,,*65
$GNGGA,050759.00,0419.75968,S,05539.78128,E,1,10,0.89,25.6,M,-47.6,M,,*4F
$GNGSA,A,3,24,20,05,13,15,22,12,,,,,,1.79,0.89,1.56*14
$GNGSA,A,3,84,73,85,,,,,,,,,,1.79,0.89,1.56*15
$GPGSV,5,1,18,05,60,125,21,11,20,021,10,12,35,003,22,13,19,153,15*7D
$GPGSV,5,2,18,14,01,131,,15,28,188,17,18,24,234,14,20,45,064,22*77
$GPGSV,5,3,18,22,16,118,16,23,02,212,,24,61,237,24,25,11,336,*7C
$GPGSV,5,4,18,29,10,302,,36,52,277,,40,86,350,,41,58,082,*74
$GPGSV,5,5,18,49,32,274,,50,10,089,*78
$GLGSV,2,1,08,69,13,118,,70,16,181,,73,64,014,20,74,21,345,*60
$GLGSV,2,2,08,80,45,133,22,84,30,338,08,85,34,276,15,86,04,227,*6A
$GNGLL,0419.75968,S,05539.78128,E,050759.00,A,A*63
$GNGRS,050759.00,1,3.8,1.1,6.4,-3.1,-4.3,16.3,-5.1,,,,,*61
$GNGRS,050759.00,1,-1.7,2.8,-0.6,,,,,,,,,*7A
$GNGST,050759.00,3764159,,,,7.0,7.1,16*54
$GNZDA,050759.00,21,05,2025,00,00*75
$GNGBS,050759.00,7.0,7.1,15.8,,,,*6C
$GNTXT,01,01,01,More than 100 frame errors, UART RX was disabled*70
b0LU<}w#1-?m
vj=P
.{4V^:R 
Y
eEvFI@JYP-YTRlU"?VnbUO]:x$GNRMC,050800.00,A,0419.75985,S,05539.78123,E,0.227,,210525,,,A*77
$GNVTG,,T,,M,0.227,N,0.420,K,A*3C
$GNGNS,050800.00,0419.75985,S,05539.78123,E,AA,11,0.83,25.9,-47.6,,*6A
$GNGGA,050800.00,0419.75985,S,05539.78123,E,1,11,0.83,25.9,M,-47.6,M,,*40
$GNGSA,A,3,24,20,11,05,13,15,22,12,,,,,1.65,0.83,1.42*16
$GNGSA,A,3,84,73,85,,,,,,,,,,1.65,0.83,1.42*17
$GPGSV,5,1,18,05,60,125,20,11,20,021,12,12,35,003,22,13,19,153,16*7D
$GPGSV,5,2,18,14,01,131,,15,28,188,17,18,24,234,16,20,45,063,21*71
$GPGSV,5,3,18,22,16,118,09,23,02,212,,24,61,237,22,25,11,336,*74
$GPGSV,5,4,18,29,10,302,,36,52,277,,40,86,350,,41,58,082,*74
$GPGSV,5,5,18,49,32,274,,50,10,089,*78
$GLGSV,2,1,08,69,13,118,,70,16,181,,73,64,014,16,74,21,345,*65
$GLGSV,2,2,08,80,45,133,21,84,30,338,11,85,34,276,16,86,04,227,*62
$GNGLL,0419.75985,S,05539.78123,E,050800.00,A,A*68
$GNGRS,050800.00,1,6.7,1.1,-5.3,3.8,-0.4,-4.6,16.4,-5.1,,,,*60
$GNGRS,050800.00,1,-1.5,2.5,0.6,,,,,,,,,*5B
$GNGST,050800.00,3587847,,,,7.2,7.3,16*5E
$GNZDA,050800.00,21,05,2025,00,00*76
$GNGBS,050800.00,7.2,7.3,15.8,,,,*6F
$GNTXT,01,01,01,More than 100 frame errors, UART RX was disabled*70
b0LY<}l#M-?
v=P
.{4V^:R 
Y
e3EvFI@PJYP-TR8U"VYbYOE:P<$GNRMC,050801.00,A,0419.75980,S,05539.78134,E,0.137,,210525,,,A*77
$GNVTG,,T,,M,0.137,N,0.253,K,A*3C
$GNGNS,050801.00,0419.75980,S,05539.78134,E,AA,10,0.88,26.0,-47.6,,*68
$GNGGA,050801.00,0419.75980,S,05539.78134,E,1,10,0.88,26.0,M,-47.6,M,,*42
$GNGSA,A,3,24,20,11,05,13,15,22,12,,,,,1.71,0.88,1.47*1D
$GNGSA,A,3,73,85,,,,,,,,,,,1.71,0.88,1.47*10
$GPGSV,5,1,18,05,60,125,21,11,20,021,12,12,35,003,21,13,19,153,15*7C
$GPGSV,5,2,18,14,01,131,,15,28,188,16,18,24,234,15,20,45,063,21*73
$GPGSV,5,3,18,22,16,118,11,23,02,212,,24,61,237,22,25,11,336,*7D
$GPGSV,5,4,18,29,10,302,,36,52,277,,40,86,350,,41,58,082,*74
$GPGSV,5,5,18,49,32,274,,50,10,089,*78
$GLGSV,2,1,08,69,13,118,,70,16,181,,73,64,014,15,74,21,345,*66
$GLGSV,2,2,08,80,45,133,20,84,30,338,11,85,34,276,14,86,04,227,*61
$GNGLL,0419.75980,S,05539.78134,E,050801.00,A,A*6A
$GNGRS,050801.00,1,8.0,2.4,-4.0,2.1,0.0,-3.6,20.6,-4.4,,,,*49
$GNGRS,050801.00,1,3.4,-0.5,,,,,,,,,,*73
$GNGST,050801.00,65,,,,7.3,7.6,16*6A
$GNZDA,050801.00,21,05,2025,00,00*77
$GNGBS,050801.00,7.3,7.6,15.8,,,,*6A
$GNTXT,01,01,01,More than 100 frame errors, UART RX was disabled*70
b0L]<}^w#-?T
vK=P
.{4V^:R 
Y
eEvFI
@JYP-TRU"Vb]O-:($GNRMC,050802.00,A,0419.76007,S,05539.78135,E,0.447,,210525,,,A*72
$GNVTG,,T,,M,0.447,N,0.828,K,A*38
$GNGNS,050802.00,0419.76007,S,05539.78135,E,AA,09,0.91,26.1,-47.6,,*6E
$GNGGA,050802.00,0419.76007,S,05539.78135,E,1,09,0.91,26.1,M,-47.6,M,,*44
$GNGSA,A,3,24,20,11,05,13,15,12,,,,,,1.96,0.91,1.74*1C
$GNGSA,A,3,80,85,,,,,,,,,,,1.96,0.91,1.74*1D
$GPGSV,5,1,18,05,60,125,21,11,20,021,08,12,35,003,19,13,19,153,13*7A
$GPGSV,5,2,18,14,01,131,,15,28,188,13,18,24,234,13,20,45,063,20*71
$GPGSV,5,3,18,22,16,118,06,23,03,212,,24,61,237,21,25,11,336,*79
$GPGSV,5,4,18,29,10,302,,36,52,277,,40,86,350,,41,58,082,*74
$GPGSV,5,5,18,49,32,274,,50,10,089,*78
$GLGSV,2,1,08,69,13,118,,70,16,181,,73,64,014,10,74,21,345,*63
$GLGSV,2,2,08,80,45,133,20,84,30,338,11,85,34,276,12,86,04,227,*67
$GNGLL,0419.76007,S,05539.78135,E,050802.00,A,A*6D
$GNGRS,050802.00,1,9.2,0.8,-3.9,0.9,-0.8,-3.6,-3.0,,,,,*7F
$GNGRS,050802.00,1,-8.1,-0.7,,,,,,,,,,*51
$GNGST,050802.00,3966514,,,,7.6,8.0,16*5C
$GNZDA,050802.00,21,05,2025,00,00*74
$GNGBS,050802.00,7.6,8.0,15.9,,,,*64
$GNTXT,01,01,01,More than 100 frame errors, UART RX was disabled*70
b0La<}# f-?e
vA=&P
.{4V^:R 
Y
e>EvFI@JYP-T
RU
"VbaO:$GNRMC,050803.00,A,0419.76026,S,05539.78146,E,0.633,,210525,,,A*75
$GNVTG,,T,,M,0.633,N,1.172,K,A*3E
$GNGNS,050803.00,0419.76026,S,05539.78146,E,AA,09,0.91,26.3,-47.6,,*6A
$GNGGA,050803.00,0419.76026,S,05539.78146,E,1,09,0.91,26.3,M,-47.6,M,,*40
$GNGSA,A,3,24,20,11,05,13,15,12,,,,,,1.96,0.91,1.74*1C
$GNGSA,A,3,80,85,,,,,,,,,,,1.96,0.91,1.74*1D
$GPGSV,5,1,18,05,60,125,20,11,20,021,15,12,35,003,20,13,19,153,14*7A
$GPGSV,5,2,18,14,01,131,,15,28,188,13,18,24,234,13,20,45,063,22*73
$GPGSV,5,3,18,22,16,118,07,23,03,212,,24,61,235,22,25,11,336,*79
$GPGSV,5,4,18,29,10,302,,36,52,277,,40,86,350,,41,58,082,*74
$GPGSV,5,5,18,49,32,274,,50,10,089,*78
$GLGSV,2,1,08,69,13,118,,70,16,181,,73,64,014,08,74,21,345,*6A
$GLGSV,2,2,08,80,45,133,20,84,30,338,10,85,34,276,10,86,04,227,*64
$GNGLL,0419.76026,S,05539.78146,E,050803.00,A,A*6B
$GNGRS,050803.00,1,8.1,3.6,-3.8,1.5,1.0,-5.3,-4.8,,,,,*55
$GNGRS,050803.00,1,-15.1,-0.3,,,,,,,,,,*68
$GNGST,050803.00,3966514,,,,7.8,8.5,16*56
$GNZDA,050803.00,21,05,2025,00,00*75
$GNGBS,050803.00,7.8,8.5,15.9,,,,*6E
$GNTXT,01,01,01,More than 100 frame errors, UART RX was disabled*70
b0Lpe<}
Y#-?
v_=Q
.{4V^:R 
Y
eEvFI@JYP-T
REU"VlbpeO:q$GNRMC,050804.00,A,0419.75979,S,05539.78127,E,0.234,,210525,,,A*76
$GNVTG,,T,,M,0.234,N,0.434,K,A*3B
$GNGNS,050804.00,0419.75979,S,05539.78127,E,AA,11,0.85,26.7,-47.6,,*62
$GNGGA,050804.00,0419.75979,S,05539.78127,E,1,11,0.85,26.7,M,-47.6,M,,*48
$GNGSA,A,3,24,20,11,05,13,15,22,12,,,,,1.66,0.85,1.42*13
$GNGSA,A,3,80,73,85,,,,,,,,,,1.66,0.85,1.42*16
$GPGSV,5,1,18,05,60,125,19,11,20,021,10,12,35,003,19,13,19,153,14*7F
$GPGSV,5,2,18,14,01,131,,15,28,188,13,18,24,234,14,20,45,063,23*75
$GPGSV,5,3,18,22,16,118,08,23,03,212,,24,61,235,21,25,12,337,*77
$GPGSV,5,4,18,29,10,302,,36,52,277,,40,86,350,,41,58,082,*74
$GPGSV,5,5,18,49,32,274,,50,10,089,*78
$GLGSV,2,1,08,69,13,118,,70,16,181,,73,64,014,07,74,21,345,*65
$GLGSV,2,2,08,80,45,133,20,84,30,338,10,85,34,276,09,86,04,227,*6C
$GNGLL,0419.75979,S,05539.78127,E,050804.00,A,A*6B
$GNGRS,050804.00,1,7.0,1.8,-9.3,2.2,1.3,-3.4,-32.3,-5.2,,,,*6D
$GNGRS,050804.00,1,-16.5,17.1,4.7,,,,,,,,,*5C
$GNGST,050804.00,71,,,,8.0,8.8,16*67
$GNZDA,050804.00,21,05,2025,00,00*72
$GNGBS,050804.00,8.0,8.8,16.0,,,,*69
$GNTXT,01,01,01,More than 100 frame errors, UART RX was disabled*70
b0LXi<}U#-?
vJ=Q
.{4V^:R 
Y
eEvFI@JYP-T
RU"]VabXiO:$GNRMC,050805.00,A,0419.75998,S,05539.78122,E,0.180,,210525,,,A*71
$GNVTG,,T,,M,0.180,N,0.334,K,A*30
$GNGNS,050805.00,0419.75998,S,05539.78122,E,AA,11,0.85,27.1,-47.6,,*6E
$GNGGA,050805.00,0419.75998,S,05539.78122,E,1,11,0.85,27.1,M,-47.6,M,,*44
$GNGSA,A,3,24,20,11,05,13,15,22,12,,,,,1.66,0.85,1.42*13
$GNGSA,A,3,80,73,85,,,,,,,,,,1.66,0.85,1.42*16
$GPGSV,5,1,18,05,60,125,19,11,20,021,11,12,35,003,18,13,19,153,11*7A
$GPGSV,5,2,18,14,01,131,,15,28,188,13,18,24,234,17,20,45,063,23*76
$GPGSV,5,3,18,22,16,118,09,23,03,212,,24,61,235,21,25,12,337,*76
$GPGSV,5,4,18,29,10,302,,36,52,277,,40,86,350,,41,58,082,*74
$GPGSV,5,5,18,49,32,274,,50,10,089,*78
$GLGSV,2,1,08,69,13,118,,70,16,181,,73,64,014,14,74,21,345,*67
$GLGSV,2,2,08,80,45,133,20,84,30,338,10,85,34,276,13,86,04,227,*67
$GNGLL,0419.75998,S,05539.78122,E,050805.00,A,A*60
$GNGRS,050805.00,1,6.6,-0.6,14.4,0.9,1.3,-4.9,16.1,-7.5,,,,*70
$GNGRS,050805.00,1,-11.2,16.8,3.5,,,,,,,,,*50
$GNGST,050805.00,3588903,,,,8.2,9.2,16*55
$GNZDA,050805.00,21,05,2025,00,00*73
$GNGBS,050805.00,8.2,9.2,16.1,,,,*60
$GNTXT,01,01,01,More than 100 frame errors, UART RX was disabled*70
b0L@m<}# j-?
vy=Q
.{4V^:R 
Y
e;EvFI@JYP-T
RU"6V)b@mO:A$GNRMC,050806.00,A,0419.75982,S,05539.78101,E,0.173,,210525,,,A*74
$GNVTG,,T,,M,0.173,N,0.321,K,A*38
$GNGNS,050806.00,0419.75982,S,05539.78101,E,AA,11,0.85,27.1,-47.6,,*67
$GNGGA,050806.00,0419.75982,S,05539.78101,E,1,11,0.85,27.1,M,-47.6,M,,*4D
$GNGSA,A,3,24,20,11,05,13,15,22,12,,,,,1.65,0.85,1.42*10
$GNGSA,A,3,80,73,85,,,,,,,,,,1.65,0.85,1.42*15
$GPGSV,5,1,18,05,60,125,17,11,20,021,12,12,35,003,18,13,19,153,11*77
$GPGSV,5,2,18,14,01,131,,15,28,188,14,18,24,234,18,20,45,063,24*79
$GPGSV,5,3,18,22,16,118,09,23,03,212,,24,61,235,21,25,12,337,*76
$GPGSV,5,4,18,29,10,302,,36,52,277,,40,86,350,,41,58,082,*74
$GPGSV,5,5,18,49,32,274,,50,10,089,*78
$GLGSV,2,1,08,69,13,118,,70,16,181,,73,64,014,09,74,21,345,*6B
$GLGSV,2,2,08,80,45,133,20,84,30,338,10,85,34,276,13,86,04,227,*67
$GNGLL,0419.75982,S,05539.78101,E,050806.00,A,A*69
$GNGRS,050806.00,1,6.4,-0.4,14.6,-0.5,0.3,-4.1,16.6,-6.3,,,,*59
$GNGRS,050806.00,1,-8.9,16.8,3.1,,,,,,,,,*64
$GNGST,050806.00,3590223,,,,8.4,9.6,16*54
$GNZDA,050806.00,21,05,2025,00,00*70
$GNGBS,050806.00,8.4,9.6,16.2,,,,*62
$GNTXT,01,01,01,More than 100 frame errors, UART RX was disabled*70
b0L(q<}1Q#}{-?

v=yQ
.{4V^:R 
Y
eEvFI@JYP-TRU"V+b(qO:_$GNRMC,050807.00,A,0419.75998,S,05539.78119,E,0.067,,210525,,,A*73
$GNVTG,,T,,M,0.067,N,0.123,K,A*3C
$GNGNS,050807.00,0419.75998,S,05539.78119,E,AA,12,0.80,27.5,-47.6,,*66
$GNGGA,050807.00,0419.75998,S,05539.78119,E,1,12,0.80,27.5,M,-47.6,M,,*4C
$GNGSA,A,3,24,20,11,05,13,15,22,12,,,,,1.60,0.80,1.38*1D
$GNGSA,A,3,84,80,73,85,,,,,,,,,1.60,0.80,1.38*14
$GPGSV,5,1,18,05,60,125,19,11,20,021,09,12,35,003,18,13,19,153,12*70
$GPGSV,5,2,18,14,01,131,,15,28,188,13,18,24,234,17,20,45,063,23*76
$GPGSV,5,3,18,22,16,118,10,23,03,212,,24,61,235,22,25,12,337,*7D
$GPGSV,5,4,18,29,10,302,,36,52,277,,40,86,350,,41,58,082,*74
$GPGSV,5,5,18,49,32,274,,50,10,089,*78
$GLGSV,2,1,08,69,13,118,,70,16,181,,73,64,014,15,74,21,345,*66
$GLGSV,2,2,08,80,45,133,22,84,30,338,13,85,34,276,17,86,04,227,*62
$GNGLL,0419.75998,S,05539.78119,E,050807.00,A,A*6A
$GNGRS,050807.00,1,3.8,-0.9,0.8,-2.1,-1.3,-3.9,-20.4,-5.4,,,,*6C
$GNGRS,050807.00,1,-54.5,-7.7,2.7,-3.1,,,,,,,,*44
$GNGST,050807.00,71,,,,8.4,9.6,16*6F
$GNZDA,050807.00,21,05,2025,00,00*71
$GNGBS,050807.00,8.4,9.6,16.2,,,,*63
$GNTXT,01,01,01,More than 100 frame errors, UART RX was disabled*70
b0Lu<}#U-?r
v=Q
/{4V^:R 
Y
eEvFI@MJYP-zTRU"VTtbuO:7$GNRMC,050808.00,A,0419.76010,S,05539.78181,E,0.747,,210525,,,A*72
$GNVTG,,T,,M,0.747,N,1.384,K,A*37
$GNGNS,050808.00,0419.76010,S,05539.78181,E,AA,12,0.80,27.4,-47.6,,*63
$GNGGA,050808.00,0419.76010,S,05539.78181,E,1,12,0.80,27.4,M,-47.6,M,,*49
$GNGSA,A,3,24,20,11,05,13,15,22,12,,,,,1.60,0.80,1.38*1D
$GNGSA,A,3,84,80,73,85,,,,,,,,,1.60,0.80,1.38*14
$GPGSV,5,1,18,05,60,125,20,11,20,021,08,12,35,003,16,13,19,153,12*75
$GPGSV,5,2,18,14,01,131,,15,28,188,09,18,24,234,18,20,45,063,23*72
$GPGSV,5,3,18,22,16,118,13,23,03,212,,24,61,235,22,25,12,337,*7E
$GPGSV,5,4,18,29,10,303,,36,52,277,,40,86,350,,41,58,082,*75
$GPGSV,5,5,18,49,32,274,,50,10,089,*78
$GLGSV,2,1,08,69,13,118,,70,16,181,,73,64,014,14,74,21,345,*67
$GLGSV,2,2,08,80,45,133,23,84,30,338,13,85,34,276,15,86,04,227,*61
$GNGLL,0419.76010,S,05539.78181,E,050808.00,A,A*6E
$GNGRS,050808.00,1,1.3,-1.4,14.2,-5.1,-0.7,-3.2,15.6,-4.3,,,,*7F
$GNGRS,050808.00,1,5.0,-9.0,-6.9,5.3,,,,,,,,*50
$GNGST,050808.00,4864263,,,,8.6,9.9,16*52
$GNZDA,050808.00,21,05,2025,00,00*7E
$GNGBS,050808.00,8.6,9.9,16.3,,,,*60
$GNTXT,01,01,01,More than 100 frame errors, UART RX was disabled*70
b0Lx<}#Hu-?g
v=Q
/{4V^:R 
Y
eEvFI@.JYP-TRU"VlZbxO:j$GNRMC,050809.00,A,0419.76023,S,05539.78167,E,0.659,,210525,,,A*75
$GNVTG,,T,,M,0.659,N,1.221,K,A*37
$GNGNS,050809.00,0419.76023,S,05539.78167,E,AA,12,0.80,27.3,-47.6,,*6D
$GNGGA,050809.00,0419.76023,S,05539.78167,E,1,12,0.80,27.3,M,-47.6,M,,*47
$GNGSA,A,3,24,20,11,05,13,15,22,12,,,,,1.60,0.80,1.38*1D
$GNGSA,A,3,84,80,73,85,,,,,,,,,1.60,0.80,1.38*14
$GPGSV,5,1,18,05,60,125,21,11,20,021,09,12,35,003,14,13,19,153,12*77
$GPGSV,5,2,18,14,01,131,,15,28,188,14,18,24,234,19,20,45,063,25*79
$GPGSV,5,3,18,22,16,118,12,23,03,212,,24,61,235,22,25,12,337,*7F
$GPGSV,5,4,18,29,10,303,,36,52,277,,40,86,350,,41,58,082,*75
$GPGSV,5,5,18,49,32,274,,50,10,089,*78
$GLGSV,2,1,08,69,13,118,,70,16,181,,73,64,014,15,74,21,345,*66
$GLGSV,2,2,08,80,45,133,24,84,30,338,12,85,34,276,15,86,04,227,*67
$GNGLL,0419.76023,S,05539.78167,E,050809.00,A,A*67
$GNGRS,050809.00,1,1.9,-1.5,14.1,-6.2,-0.1,-4.0,15.4,-4.4,,,,*70
$GNGRS,050809.00,1,4.7,-6.4,-7.2,4.9,,,,,,,,*5D
$GNGST,050809.00,6868568,,,,8.9,10,16*71
$GNZDA,050809.00,21,05,2025,00,00*7F
$GNGBS,050809.00,8.9,9.9,16.4,,,,*69
$GNTXT,01,01,01,More than 100 frame errors, UART RX was disabled*70
b0L|<}#-?X
v=oQ
/{4V^:R 
Y
eEvFI@JYP-TR#U"8V\b|Om:$GNRMC,050810.00,A,0419.76017,S,05539.78145,E,0.307,,210525,,,A*74
$GNVTG,,T,,M,0.307,N,0.568,K,A*32
$GNGNS,050810.00,0419.76017,S,05539.78145,E,AA,12,0.88,27.2,-47.6,,*6B
$GNGGA,050810.00,0419.76017,S,05539.78145,E,1,12,0.88,27.2,M,-47.6,M,,*41
$GNGSA,A,3,24,20,11,05,13,15,22,12,,,,,1.67,0.88,1.42*1F
$GNGSA,A,3,84,80,73,85,,,,,,,,,1.67,0.88,1.42*16
$GPGSV,5,1,18,05,60,125,21,11,20,021,14,12,35,003,13,13,19,153,12*7C
$GPGSV,5,2,18,14,01,131,,15,28,188,08,18,24,234,19,20,45,063,27*76
$GPGSV,5,3,18,22,16,118,11,23,03,212,,24,61,235,21,25,12,337,*7F
$GPGSV,5,4,18,29,10,303,,36,52,277,,40,86,350,,41,58,082,*75
$GPGSV,5,5,18,49,32,274,,50,10,089,*78
$GLGSV,2,1,08,69,13,118,,70,16,181,,73,64,014,13,74,21,345,*60
$GLGSV,2,2,08,80,45,133,22,84,30,338,12,85,34,276,17,86,04,227,*63
$GNGLL,0419.76017,S,05539.78145,E,050810.00,A,A*68
$GNGRS,050810.00,1,3.7,0.9,-11.2,-7.9,1.4,40.7,-23.7,-5.4,,,,*6C
$GNGRS,050810.00,1,-22.7,-5.8,-10.9,5.7,,,,,,,,*71
$GNGST,050810.00,71,,,,8.8,9.8,16*6B
$GNZDA,050810.00,21,05,2025,00,00*77
$GNGBS,050810.00,8.8,9.8,16.5,,,,*60
$GNTXT,01,01,01,More than 100 frame errors, UART RX was disabled*70
b0L<}#;-?
vZ=qQ
/{4V^:R 
Y
eEvFI@;JYP-TRU"V4bOU::$GNRMC,050811.00,A,0419.76022,S,05539.78171,E,0.593,,210525,,,A*7F
$GNVTG,,T,,M,0.593,N,1.099,K,A*33
$GNGNS,050811.00,0419.76022,S,05539.78171,E,AA,11,0.86,27.3,-47.6,,*67
$GNGGA,050811.00,0419.76022,S,05539.78171,E,1,11,0.86,27.3,M,-47.6,M,,*4D
$GNGSA,A,3,24,20,05,13,15,22,12,,,,,,1.74,0.86,1.51*11
$GNGSA,A,3,84,80,73,85,,,,,,,,,1.74,0.86,1.51*18
$GPGSV,5,1,18,05,60,125,19,11,20,021,06,12,35,003,13,13,19,153,11*77
$GPGSV,5,2,18,14,01,131,,15,28,188,09,18,24,234,19,20,45,063,27*77
$GPGSV,5,3,18,22,16,118,12,23,03,212,,24,61,235,20,25,12,337,*7D
$GPGSV,5,4,18,29,10,303,,36,52,277,,40,86,350,,41,58,082,*75
$GPGSV,5,5,18,49,32,274,,50,10,089,*78
$GLGSV,2,1,08,69,13,118,,70,16,181,,73,64,014,20,74,21,345,*60
$GLGSV,2,2,08,80,45,133,21,84,30,338,15,85,34,276,18,86,04,227,*68
$GNGLL,0419.76022,S,05539.78171,E,050811.00,A,A*68
$GNGRS,050811.00,1,3.7,0.2,-8.5,1.7,10.1,16.3,-7.1,,,,,*7C
$GNGRS,050811.00,1,4.6,-6.3,-7.1,4.3,,,,,,,,*5B
$GNGST,050811.00,6213145,,,,9.1,9.8,17*53
$GNZDA,050811.00,21,05,2025,00,00*76
$GNGBS,050811.00,9.1,9.8,16.6,,,,*6A
$GNTXT,01,01,01,More than 100 frame errors, UART RX was disabled*70
b0L<}#-?

v0=Q
/{4V^:R 
Y
eEvFI@-JYP-TRLU"VbO=:$GNRMC,050812.00,A,0419.76048,S,05539.78229,E,1.136,,210525,,,A*74
$GNVTG,,T,,M,1.136,N,2.104,K,A*3F
$GNGNS,050812.00,0419.76048,S,05539.78229,E,AA,12,0.80,27.4,-47.6,,*64
$GNGGA,050812.00,0419.76048,S,05539.78229,E,1,12,0.80,27.4,M,-47.6,M,,*4E
$GNGSA,A,3,24,20,11,05,13,15,22,12,,,,,1.60,0.80,1.38*1D
$GNGSA,A,3,84,80,73,85,,,,,,,,,1.60,0.80,1.38*14
$GPGSV,5,1,18,05,60,125,15,11,20,021,12,12,35,003,13,13,19,153,09*77
$GPGSV,5,2,18,14,01,131,,15,28,188,11,18,24,234,21,20,45,063,26*74
$GPGSV,5,3,18,22,16,118,10,23,03,212,,24,61,235,19,25,12,337,*75
$GPGSV,5,4,18,29,10,303,,36,52,277,,40,86,350,,41,58,082,*75
$GPGSV,5,5,18,49,32,274,,50,10,089,*78
$GLGSV,2,1,08,69,13,118,,70,16,181,,73,64,014,13,74,21,345,*60
$GLGSV,2,2,08,80,45,133,23,84,30,338,15,85,34,276,16,86,04,227,*64
$GNGLL,0419.76048,S,05539.78229,E,050812.00,A,A*69
$GNGRS,050812.00,1,4.9,2.5,14.7,-8.4,1.6,10.1,15.8,-7.7,,,,*61
$GNGRS,050812.00,1,5.9,-7.9,-7.2,1.4,,,,,,,,*5C
$GNGST,050812.00,6868568,,,,9.3,9.8,17*5F
$GNZDA,050812.00,21,05,2025,00,00*75
$GNGBS,050812.00,9.3,9.8,16.8,,,,*65
$GNTXT,01,01,01,More than 100 frame errors, UART RX was disabled*70
b0L<}0;#
%-?|

v=Q
/{4V^:R 
Y
eEvFI@JYP-TR|U"V.bO%:n
$GNRMC,050813.00,A,0419.76064,S,05539.78245,E,1.090,,210525,,,A*7C
$GNVTG,,T,,M,1.090,N,2.019,K,A*3F
$GNGNS,050813.00,0419.76064,S,05539.78245,E,AA,10,0.88,27.7,-47.6,,*68
$GNGGA,050813.00,0419.76064,S,05539.78245,E,1,10,0.88,27.7,M,-47.6,M,,*42
$GNGSA,A,3,24,20,11,05,15,22,12,,,,,,1.75,0.88,1.52*1F
$GNGSA,A,3,80,73,85,,,,,,,,,,1.75,0.88,1.52*18
$GPGSV,5,1,18,05,60,125,17,11,20,021,09,12,35,003,13,13,19,153,10*77
$GPGSV,5,2,18,14,01,131,,15,28,188,17,18,24,234,21,20,45,063,25*71
$GPGSV,5,3,18,22,16,118,10,23,03,212,,24,61,235,19,25,12,337,*75
$GPGSV,5,4,18,29,10,303,,36,52,277,,40,86,350,,41,58,082,*75
$GPGSV,5,5,18,49,32,274,,50,10,089,*78
$GLGSV,2,1,08,69,13,118,,70,16,181,,73,64,014,17,74,21,345,*64
$GLGSV,2,2,08,80,45,133,23,84,30,338,08,85,34,276,15,86,04,227,*6B
$GNGLL,0419.76064,S,05539.78245,E,050813.00,A,A*6C
$GNGRS,050813.00,1,1.9,3.8,-12.2,-9.8,-12.4,-20.9,-10.2,,,,,*50
$GNGRS,050813.00,1,-8.7,-9.0,1.6,,,,,,,,,*70
$GNGST,050813.00,68,,,,9.3,9.8,17*6B
$GNZDA,050813.00,21,05,2025,00,00*74
$GNGBS,050813.00,9.3,9.8,16.8,13,,114.1,139.5*6D
$GNTXT,01,01,01,More than 100 frame errors, UART RX was disabled*70
b0L<}
]#b-?

v=Q
/{4V^:R 
Y
eEvFI@DJYP-TRU"V/bO;Gt$GNRMC,050814.00,A,0419.76071,S,05539.78246,E,0.764,,210525,,,A*71
$GNVTG,,T,,M,0.764,N,1.415,K,A*39
$GNGNS,050814.00,0419.76071,S,05539.78246,E,AA,11,0.85,27.5,-47.6,,*66
$GNGGA,050814.00,0419.76071,S,05539.78246,E,1,11,0.85,27.5,M,-47.6,M,,*4C
$GNGSA,A,3,24,20,11,05,13,15,22,12,,,,,1.65,0.85,1.42*10
$GNGSA,A,3,80,73,85,,,,,,,,,,1.65,0.85,1.42*15
$GPGSV,5,1,18,05,60,125,21,11,20,021,10,12,35,003,14,13,19,153,16*7B
$GPGSV,5,2,18,14,01,131,,15,28,188,19,18,24,234,21,20,45,063,24*7E
$GPGSV,5,3,18,22,16,118,10,23,03,212,,24,61,235,20,25,12,337,*7F
$GPGSV,5,4,18,29,10,303,,36,52,277,,40,86,350,,41,58,082,*75
$GPGSV,5,5,18,49,32,274,,50,10,089,*78
$GLGSV,2,1,08,69,13,118,,70,16,181,,73,64,014,15,74,21,345,*66
$GLGSV,2,2,08,80,45,133,21,84,30,338,08,85,34,276,15,86,04,227,*69
$GNGLL,0419.76071,S,05539.78246,E,050814.00,A,A*6C
$GNGRS,050814.00,1,2.4,2.7,13.7,-8.6,13.8,9.9,16.6,-13.2,,,,*5B
$GNGRS,050814.00,1,-8.8,-12.1,1.6,,,,,,,,,*43
$GNGST,050814.00,7173416,,,,9.5,9.9,17*54
$GNZDA,050814.00,21,05,2025,00,00*73
$GNGBS,050814.00,9.5,9.9,17.0,,,,*6D
$GNTXT,01,01,01,More than 100 frame errors, UART RX was disabled*70
b0Lh<} >#m-?
v=Q
/{4V^:R 
Y
eEvFI@JYP->T
RUU",VIbhO;$GNRMC,050815.00,A,0419.76081,S,05539.78243,E,0.477,,210525,,,A*7B
$GNVTG,,T,,M,0.477,N,0.883,K,A*3A
$GNGNS,050815.00,0419.76081,S,05539.78243,E,AA,11,0.85,27.1,-47.6,,*69
$GNGGA,050815.00,0419.76081,S,05539.78243,E,1,11,0.85,27.1,M,-47.6,M,,*43
$GNGSA,A,3,24,20,11,05,13,15,22,12,,,,,1.65,0.85,1.42*10
$GNGSA,A,3,80,73,85,,,,,,,,,,1.65,0.85,1.42*15
$GPGSV,5,1,18,05,60,125,22,11,20,021,11,12,35,003,15,13,19,153,14*7A
$GPGSV,5,2,18,14,01,131,,15,28,188,17,18,24,234,20,20,45,063,25*70
$GPGSV,5,3,18,22,16,118,11,23,03,212,,24,61,235,20,25,12,337,*7E
$GPGSV,5,4,18,29,10,303,,36,52,277,,40,86,350,,41,58,082,*75
$GPGSV,5,5,18,49,32,274,,50,10,089,*78
$GLGSV,2,1,08,69,13,118,,70,16,181,,73,64,014,13,74,21,345,*60
$GLGSV,2,2,08,80,45,133,23,84,30,338,10,85,34,276,17,86,04,227,*60
$GNGLL,0419.76081,S,05539.78243,E,050815.00,A,A*67
$GNGRS,050815.00,1,1.3,2.0,13.4,-7.4,13.9,10.4,17.1,-11.0,,,,*65
$GNGRS,050815.00,1,-7.1,-16.0,0.4,,,,,,,,,*42
$GNGST,050815.00,6212360,,,,9.6,9.9,17*55
$GNZDA,050815.00,21,05,2025,00,00*72
$GNGBS,050815.00,9.6,9.9,17.1,,,,*6E
$GNTXT,01,01,01,More than 100 frame errors, UART RX was disabled*70
b0LP<}I#J-?
v=}Q
/{4V^:R 
Y
eEvFI@XJYP-TRU"V=bPO
;A$GNRMC,050816.00,A,0419.76125,S,05539.78252,E,0.782,,210525,,,A*7E
$GNVTG,,T,,M,0.782,N,1.449,K,A*38
$GNGNS,050816.00,0419.76125,S,05539.78252,E,AA,11,0.81,26.2,-47.6,,*63
$GNGGA,050816.00,0419.76125,S,05539.78252,E,1,11,0.81,26.2,M,-47.6,M,,*49
$GNGSA,A,3,24,20,11,05,13,15,22,12,,,,,1.75,0.81,1.55*13
$GNGSA,A,3,84,80,85,,,,,,,,,,1.75,0.81,1.55*1E
$GPGSV,5,1,18,05,60,125,23,11,20,021,17,12,35,003,13,13,19,153,13*7C
$GPGSV,5,2,18,14,01,131,,15,28,188,16,18,24,234,21,20,45,063,25*70
$GPGSV,5,3,18,22,16,118,14,23,03,212,,24,61,235,19,25,12,337,*71
$GPGSV,5,4,18,29,10,303,,36,52,277,,40,86,350,,41,58,082,*75
$GPGSV,5,5,18,49,32,274,,50,10,089,*78
$GLGSV,2,1,08,69,13,118,,70,16,181,,73,64,014,11,74,21,345,*62
$GLGSV,2,2,08,80,45,133,24,84,30,338,13,85,34,276,19,86,04,227,*6A
$GNGLL,0419.76125,S,05539.78252,E,050816.00,A,A*6B
$GNGRS,050816.00,1,1.2,1.4,9.0,-7.0,13.0,10.2,55.7,-12.1,,,,*56
$GNGRS,050816.00,1,9.1,-7.5,-0.9,,,,,,,,,*77
$GNGST,050816.00,74,,,,9.5,9.8,17*65
$GNZDA,050816.00,21,05,2025,00,00*71
$GNGBS,050816.00,9.5,9.8,17.1,,,,*6F
$GNTXT,01,01,01,More than 100 frame errors, UART RX was disabled*70
b0L8<}(_#B -?0
v>=Q
/{4V^:R 
Y
eEvFI@GJYP-TRU"Vb8O;$GNRMC,050817.00,A,0419.76159,S,05539.78225,E,0.814,,210525,,,A*74
$GNVTG,,T,,M,0.814,N,1.507,K,A*33
$GNGNS,050817.00,0419.76159,S,05539.78225,E,AA,12,0.80,25.7,-47.6,,*6D
$GNGGA,050817.00,0419.76159,S,05539.78225,E,1,12,0.80,25.7,M,-47.6,M,,*47
$GNGSA,A,3,24,20,11,05,13,15,22,12,,,,,1.60,0.80,1.38*1D
$GNGSA,A,3,84,80,73,85,,,,,,,,,1.60,0.80,1.38*14
$GPGSV,5,1,18,05,60,125,23,11,20,021,19,12,35,003,15,13,19,153,13*74
$GPGSV,5,2,18,14,01,131,,15,28,188,16,18,24,234,21,20,45,063,24*71
$GPGSV,5,3,18,22,16,118,15,23,03,212,,24,61,235,21,25,12,337,*7B
$GPGSV,5,4,18,29,10,303,,36,52,277,,40,86,350,,41,58,082,*75
$GPGSV,5,5,18,49,32,274,,50,10,089,*78
$GLGSV,2,1,08,69,13,118,,70,16,181,,73,64,014,07,74,21,345,*65
$GLGSV,2,2,08,80,45,133,24,84,30,338,14,85,34,276,21,86,04,227,*66
$GNGLL,0419.76159,S,05539.78225,E,050817.00,A,A*61
$GNGRS,050817.00,1,-0.1,0.5,13.8,-7.3,14.3,8.0,16.0,-14.7,,,,*77
$GNGRS,050817.00,1,9.1,-6.2,-12.1,-2.8,,,,,,,,*42
$GNGST,050817.00,3435444,,,,9.5,9.7,17*5D
$GNZDA,050817.00,21,05,2025,00,00*70
$GNGBS,050817.00,9.5,9.7,17.2,,,,*62
$GNTXT,01,01,01,More than 100 frame errors, UART RX was disabled*70
b0L <}#.
Jk-?
vR=Q
/{4V^:R 
Y
eEvFI@)JYP-TRU"V}b O;$GNRMC,050818.00,A,0419.76161,S,05539.78203,E,0.662,,210525,,,A*7B
$GNVTG,,T,,M,0.662,N,1.225,K,A*3B
$GNGNS,050818.00,0419.76161,S,05539.78203,E,AA,11,0.83,25.4,-47.6,,*6E
$GNGGA,050818.00,0419.76161,S,05539.78203,E,1,11,0.83,25.4,M,-47.6,M,,*44
$GNGSA,A,3,24,20,11,05,15,22,12,,,,,,1.70,0.83,1.48*1A
$GNGSA,A,3,84,80,73,85,,,,,,,,,1.70,0.83,1.48*11
$GPGSV,5,1,18,05,60,125,20,11,20,021,15,12,35,003,20,13,19,153,10*7E
$GPGSV,5,2,18,14,01,131,,15,28,188,18,18,24,234,22,20,45,063,25*7D
$GPGSV,5,3,18,22,16,118,18,23,03,212,,24,61,235,25,25,12,337,*72
$GPGSV,5,4,18,29,10,303,,36,52,277,,40,86,350,,41,58,082,*75
$GPGSV,5,5,18,49,32,274,,50,10,089,*78
$GLGSV,2,1,08,69,13,118,,70,16,181,,73,64,014,18,74,21,345,*6B
$GLGSV,2,2,08,80,45,133,24,84,30,338,16,85,34,276,21,86,04,227,*64
$GNGLL,0419.76161,S,05539.78203,E,050818.00,A,A*61
$GNGRS,050818.00,1,-2.6,1.4,12.7,-5.5,3.6,16.2,-12.3,,,,,*62
$GNGRS,050818.00,1,7.7,-8.4,-12.4,-1.1,,,,,,,,*42
$GNGST,050818.00,3587847,,,,9.4,9.5,17*56
$GNZDA,050818.00,21,05,2025,00,00*7F
$GNGBS,050818.00,9.4,9.5,17.3,,,,*6F
$GNTXT,01,01,01,More than 100 frame errors, UART RX was disabled*70
b0L<}<#l-?n
v]=9Q
/{4V^:R 
Y
eEvFI@JYP-*TRU"VbO;~y$GNRMC,050819.00,A,0419.76165,S,05539.78223,E,0.462,,210525,,,A*7E
$GNVTG,,T,,M,0.462,N,0.856,K,A*36
$GNGNS,050819.00,0419.76165,S,05539.78223,E,AA,11,0.86,24.7,-47.6,,*6E
$GNGGA,050819.00,0419.76165,S,05539.78223,E,1,11,0.86,24.7,M,-47.6,M,,*44
$GNGSA,A,3,24,20,11,05,13,15,12,,,,,,1.74,0.86,1.52*12
$GNGSA,A,3,84,80,73,85,,,,,,,,,1.74,0.86,1.52*1B
$GPGSV,5,1,18,05,60,125,20,11,20,021,16,12,35,003,19,13,19,153,13*74
$GPGSV,5,2,18,14,01,131,,15,28,188,16,18,24,234,23,20,45,063,27*70
$GPGSV,5,3,18,22,16,118,08,23,03,212,,24,61,235,25,25,12,337,*73
$GPGSV,5,4,18,29,10,303,,36,52,277,,40,86,350,,41,58,082,*75
$GPGSV,5,5,18,49,32,274,,50,10,089,*78
$GLGSV,2,1,08,69,13,118,,70,16,181,,73,64,014,11,74,21,345,*62
$GLGSV,2,2,08,80,45,133,24,84,30,338,16,85,34,276,22,86,04,227,*67
$GNGLL,0419.76165,S,05539.78223,E,050819.00,A,A*66
$GNGRS,050819.00,1,0.6,1.1,10.8,-5.1,12.2,3.6,-8.9,,,,,*75
$GNGRS,050819.00,1,6.8,-9.8,-15.6,-0.6,,,,,,,,*43
$GNGST,050819.00,57,,,,9.2,9.4,17*60
$GNZDA,050819.00,21,05,2025,00,00*7E
$GNGBS,050819.00,9.2,9.4,17.3,,,,*69
$GNTXT,01,01,01,More than 100 frame errors, UART RX was disabled*70
b0L<}-#-?

v=Q
/{4V^:R 
Y
eEvFI@.JYP-cTR@U"VbO};U$GNRMC,050820.00,A,0419.76195,S,05539.78224,E,0.652,,210525,,,A*7D
$GNVTG,,T,,M,0.652,N,1.207,K,A*38
$GNGNS,050820.00,0419.76195,S,05539.78224,E,AA,12,0.80,24.2,-47.6,,*6C
$GNGGA,050820.00,0419.76195,S,05539.78224,E,1,12,0.80,24.2,M,-47.6,M,,*46
$GNGSA,A,3,24,20,11,05,13,15,22,12,,,,,1.60,0.80,1.38*1D
$GNGSA,A,3,84,80,73,85,,,,,,,,,1.60,0.80,1.38*14
$GPGSV,5,1,18,05,60,125,20,11,20,021,15,12,35,003,20,13,19,153,15*7B
$GPGSV,5,2,18,14,01,131,,15,28,188,15,18,24,234,23,20,45,063,28*7C
$GPGSV,5,3,18,22,16,118,10,23,03,212,,24,61,235,22,25,12,337,*7D
$GPGSV,5,4,18,29,10,303,,36,52,277,,40,86,350,,41,58,082,*75
$GPGSV,5,5,18,49,32,274,,50,10,089,*78
$GLGSV,2,1,08,69,13,118,,70,16,181,,73,64,014,19,74,21,345,*6A
$GLGSV,2,2,08,80,45,133,22,84,30,338,17,85,34,276,24,86,04,227,*66
$GNGLL,0419.76195,S,05539.78224,E,050820.00,A,A*64
$GNGRS,050820.00,1,-0.7,2.0,9.9,-4.7,10.1,6.4,15.0,-10.6,,,,*45
$GNGRS,050820.00,1,5.8,-11.8,-7.2,-3.1,,,,,,,,*40
$GNGST,050820.00,34617,,,,9.0,9.2,17*5B
$GNZDA,050820.00,21,05,2025,00,00*74
$GNGBS,050820.00,9.0,9.2,17.2,,,,*66
$GNTXT,01,01,01,More than 100 frame errors, UART RX was disabled*70
b0L<}#-?H
v=Q
/{4V^:R 
Y
eEvFI@JYP-TRU"V#bOe;-:$GNRMC,050821.00,A,0419.76186,S,05539.78232,E,0.140,,210525,,,A*7D
$GNVTG,,T,,M,0.140,N,0.259,K,A*36
$GNGNS,050821.00,0419.76186,S,05539.78232,E,AA,11,0.81,23.5,-47.6,,*6A
$GNGGA,050821.00,0419.76186,S,05539.78232,E,1,11,0.81,23.5,M,-47.6,M,,*40
$GNGSA,A,3,24,20,11,05,13,15,22,12,,,,,1.75,0.81,1.55*13
$GNGSA,A,3,84,80,85,,,,,,,,,,1.75,0.81,1.55*1E
$GPGSV,5,1,18,05,60,125,18,11,20,021,12,12,35,003,19,13,19,153,14*7C
$GPGSV,5,2,18,14,01,131,,15,28,188,17,18,24,234,22,20,45,063,26*71
$GPGSV,5,3,18,22,16,118,13,23,03,212,,24,61,235,22,25,12,337,*7E
$GPGSV,5,4,18,29,10,303,,36,52,277,,40,86,350,,41,58,082,*75
$GPGSV,5,5,18,49,32,274,,50,10,089,*78
$GLGSV,2,1,08,69,13,118,,70,16,181,,73,64,014,09,74,21,345,*6B
$GLGSV,2,2,08,80,45,133,21,84,30,338,18,85,34,276,25,86,04,227,*6B
$GNGLL,0419.76186,S,05539.78232,E,050821.00,A,A*60
$GNGRS,050821.00,1,1.3,3.3,11.6,-5.7,9.2,3.8,14.8,-11.3,,,,*66
$GNGRS,050821.00,1,4.8,-11.4,-2.5,,,,,,,,,*4F
$GNGST,050821.00,57,,,,8.8,9.0,17*64
$GNZDA,050821.00,21,05,2025,00,00*75
$GNGBS,050821.00,8.8,9.0,17.2,,,,*6C
$GNTXT,01,01,01,More than 100 frame errors, UART RX was disabled*70
b0L<}##Y%-?
vB=Q
/{4V^:R 
Y
eEvFI@QJYP-TR2U"V{bOM";$GNRMC,050822.00,A,0419.76150,S,05539.78222,E,0.759,,210525,,,A*7A
$GNVTG,,T,,M,0.759,N,1.406,K,A*35
$GNGNS,050822.00,0419.76150,S,05539.78222,E,AA,11,0.86,22.9,-47.6,,*69
$GNGGA,050822.00,0419.76150,S,05539.78222,E,1,11,0.86,22.9,M,-47.6,M,,*43
$GNGSA,A,3,24,20,05,13,15,22,12,,,,,,1.74,0.86,1.51*11
$GNGSA,A,3,84,80,73,85,,,,,,,,,1.74,0.86,1.51*18
$GPGSV,5,1,18,05,60,125,15,11,20,021,09,12,35,003,18,13,19,153,13*7D
$GPGSV,5,2,18,14,01,131,,15,28,188,17,18,24,234,21,20,45,063,23*77
$GPGSV,5,3,18,22,16,118,13,23,03,212,,24,61,235,22,25,12,337,*7E
$GPGSV,5,4,18,29,10,303,,36,52,277,,40,86,350,,41,58,082,*75
$GPGSV,5,5,18,49,32,274,,50,10,089,*78
$GLGSV,2,1,08,69,13,118,,70,16,181,,73,64,014,13,74,21,345,*60
$GLGSV,2,2,08,80,45,133,21,84,30,338,17,85,34,276,23,86,04,227,*62
$GNGLL,0419.76150,S,05539.78222,E,050822.00,A,A*69
$GNGRS,050822.00,1,2.9,6.9,-9.9,8.0,1.3,13.5,-11.9,,,,,*73
$GNGRS,050822.00,1,5.6,-10.1,-9.4,-0.3,,,,,,,,*4D
$GNGST,050822.00,60,,,,8.7,8.9,17*64
$GNZDA,050822.00,21,05,2025,00,00*76
$GNGBS,050822.00,8.7,8.9,17.1,,,,*6B
$GNTXT,01,01,01,More than 100 frame errors, UART RX was disabled*70
b0L<}%#
-?

v=Q
/{4V^:R 
Y
eEvFI@JYP-7TRsU"
V@}bO5&;
$GNRMC,050823.00,A,0419.76141,S,05539.78212,E,0.637,,210525,,,A*71
$GNVTG,,T,,M,0.637,N,1.181,K,A*36
$GNGNS,050823.00,0419.76141,S,05539.78212,E,AA,11,0.86,22.3,-47.6,,*61
$GNGGA,050823.00,0419.76141,S,05539.78212,E,1,11,0.86,22.3,M,-47.6,M,,*4B
$GNGSA,A,3,24,20,11,05,13,15,12,,,,,,1.74,0.86,1.52*12
$GNGSA,A,3,84,80,73,85,,,,,,,,,1.74,0.86,1.52*1B
$GPGSV,5,1,18,05,60,125,12,11,20,021,14,12,35,003,17,13,19,153,10*7A
$GPGSV,5,2,18,14,01,131,,15,28,188,21,18,24,234,21,20,45,063,23*72
$GPGSV,5,3,18,22,16,118,10,23,03,212,,24,61,235,23,25,12,337,*7C
$GPGSV,5,4,18,29,10,303,,36,52,277,,40,86,350,,41,58,082,*75
$GPGSV,5,5,18,49,32,274,,50,10,089,*78
$GLGSV,2,1,08,69,13,118,,70,16,181,,73,64,014,15,74,21,345,*66
$GLGSV,2,2,08,80,45,133,22,84,30,338,15,85,34,276,22,86,04,227,*62
$GNGLL,0419.76141,S,05539.78212,E,050823.00,A,A*6B
$GNGRS,050823.00,1,4.2,7.3,14.7,-17.5,7.0,0.0,-13.2,,,,,*46
$GNGRS,050823.00,1,6.3,-9.7,-11.3,0.1,,,,,,,,*65
$GNGST,050823.00,90391,,,,8.7,8.9,17*51
$GNZDA,050823.00,21,05,2025,00,00*77
$GNGBS,050823.00,8.7,8.9,17.2,,,,*69
$GNTXT,01,01,01,More than 100 frame errors, UART RX was disabled*70
b0L<}
#-?L
v=OQ
/{4V^:R 
Y
eEvFI@JYP-2TRwU"VbO*;r$GNRMC,050824.00,A,0419.76163,S,05539.78205,E,0.179,,210525,,,A*7D
$GNVTG,,T,,M,0.179,N,0.332,K,A*30
$GNGNS,050824.00,0419.76163,S,05539.78205,E,AA,11,0.86,22.3,-47.6,,*60
$GNGGA,050824.00,0419.76163,S,05539.78205,E,1,11,0.86,22.3,M,-47.6,M,,*4A
$GNGSA,A,3,24,20,11,05,13,15,12,,,,,,1.74,0.86,1.52*12
$GNGSA,A,3,84,80,73,85,,,,,,,,,1.74,0.86,1.52*1B
$GPGSV,5,1,18,05,60,125,16,11,20,021,10,12,35,003,16,13,19,153,11*7A
$GPGSV,5,2,18,14,01,131,,15,28,188,21,18,24,234,22,20,45,063,20*72
$GPGSV,5,3,18,22,16,118,07,23,03,212,,24,61,235,21,25,12,337,*78
$GPGSV,5,4,18,29,10,303,,36,52,277,,40,86,350,,41,58,082,*75
$GPGSV,5,5,18,49,32,274,,50,10,089,*78
$GLGSV,2,1,08,69,13,118,,70,16,181,,73,64,014,17,74,21,345,*64
$GLGSV,2,2,08,80,45,133,22,84,30,338,13,85,34,276,20,86,04,227,*66
$GNGLL,0419.76163,S,05539.78205,E,050824.00,A,A*6A
$GNGRS,050824.00,1,5.9,5.9,-21.5,-16.1,5.3,-0.6,-10.6,,,,,*42
$GNGRS,050824.00,1,6.3,-9.7,-11.4,-2.8,,,,,,,,*43
$GNGST,050824.00,59,,,,8.6,8.9,17*69
$GNZDA,050824.00,21,05,2025,00,00*70
$GNGBS,050824.00,8.6,8.9,17.2,,,,*6F
$GNTXT,01,01,01,More than 100 frame errors, UART RX was disabled*70
b0Lx<}
#>-?

v=Q
/{4V^:R 
Y
eEvFI@=JYP-T
RU"VbxO.;$GNRMC,050825.00,A,0419.76183,S,05539.78208,E,0.294,,210525,,,A*7F
$GNVTG,,T,,M,0.294,N,0.544,K,A*37
$GNGNS,050825.00,0419.76183,S,05539.78208,E,AA,12,0.80,22.4,-47.6,,*60
$GNGGA,050825.00,0419.76183,S,05539.78208,E,1,12,0.80,22.4,M,-47.6,M,,*4A
$GNGSA,A,3,24,20,11,05,13,15,22,12,,,,,1.60,0.80,1.38*1D
$GNGSA,A,3,84,80,73,85,,,,,,,,,1.60,0.80,1.38*14
$GPGSV,5,1,18,05,60,125,18,11,20,021,10,12,35,003,15,13,19,153,17*71
$GPGSV,5,2,18,14,01,131,,15,28,188,19,18,24,234,23,20,45,063,20*78
$GPGSV,5,3,18,22,16,118,10,23,03,212,,24,61,235,19,25,12,337,*75
$GPGSV,5,4,18,29,10,303,,36,52,277,,40,86,350,,41,58,082,*75
$GPGSV,5,5,18,49,32,274,,50,10,089,*78
$GLGSV,2,1,08,69,13,118,,70,16,181,,73,64,014,17,74,21,345,*64
$GLGSV,2,2,08,80,45,133,21,84,30,338,10,85,34,276,20,86,04,227,*66
$GNGLL,0419.76183,S,05539.78208,E,050825.00,A,A*68
$GNGRS,050825.00,1,5.3,6.6,14.3,-16.0,4.7,0.6,-0.3,-10.2,,,,*45
$GNGRS,050825.00,1,5.1,-10.4,-9.6,-5.5,,,,,,,,*49
$GNGST,050825.00,3437281,,,,8.7,8.9,17*5D
$GNZDA,050825.00,21,05,2025,00,00*71
$GNGBS,050825.00,8.7,8.9,17.3,,,,*6E
$GNTXT,01,01,01,More than 100 frame errors, UART RX was disabled*70
b0L`<}
G#>wK-?

vb=PQ
/{4V^:R 
Y
eEvFI@JYP-TRU"HVFb`O1;d?$GNRMC,050826.00,A,0419.76185,S,05539.78254,E,0.829,,210525,,,A*7F
$GNVTG,,T,,M,0.829,N,1.535,K,A*3C
$GNGNS,050826.00,0419.76185,S,05539.78254,E,AA,12,0.80,22.5,-47.6,,*6D
$GNGGA,050826.00,0419.76185,S,05539.78254,E,1,12,0.80,22.5,M,-47.6,M,,*47
$GNGSA,A,3,24,20,11,05,13,15,22,12,,,,,1.60,0.80,1.38*1D
$GNGSA,A,3,84,80,73,85,,,,,,,,,1.60,0.80,1.38*14
$GPGSV,5,1,18,05,60,125,19,11,20,021,10,12,35,003,15,13,19,153,15*72
$GPGSV,5,2,18,14,01,131,,15,28,188,17,18,24,234,22,20,45,063,18*7C
$GPGSV,5,3,18,22,16,118,10,23,03,212,,24,61,235,20,25,12,337,*7F
$GPGSV,5,4,18,29,10,303,,36,52,277,,40,86,350,,41,58,082,*75
