$GNRMC,134036.00,A,0419.72766,S,05539.75386,E,0.092,,200525,,,A*70
$GNVTG,,T,,M,0.092,N,0.170,K,A*30
$GNGGA,134036.00,0419.72766,S,05539.75386,E,1,12,0.71,16.2,M,-47.6,M,,*4F
$GNGSA,A,3,32,10,28,26,16,27,31,40,08,02,,,1.25,0.71,1.03*1E
$GNGSA,A,3,85,72,75,86,65,87,,,,,,,1.25,0.71,1.03*16
$GPGSV,5,1,17,02,11,334,33,04,13,233,,08,28,293,36,10,13,033,25*72
$GPGSV,5,2,17,16,24,207,11,18,24,124,,23,01,071,,26,30,176,18*7C
$GPGSV,5,3,17,27,55,254,38,28,60,085,25,31,62,155,26,32,26,011,28*7E
$GPGSV,5,4,17,36,52,277,,40,84,353,36,41,58,082,,49,32,274,*79
$GPGSV,5,5,17,50,10,089,*4A
$GLGSV,3,1,09,65,25,287,33,66,08,241,05,72,19,346,29,74,15,098,08*64
$GLGSV,3,2,09,75,24,150,08,76,06,205,06,85,30,147,10,86,76,051,26*61
$GLGSV,3,3,09,87,36,347,33*56
$GNGLL,0419.72766,S,05539.75386,E,134036.00,A,A*62
$GNRMC,134037.00,A,0419.72757,S,05539.75381,E,0.088,,200525,,,A*7F
$GNVTG,,T,,M,0.088,N,0.162,K,A*38
$GNGGA,134037.00,0419.72757,S,05539.75381,E,1,12,0.67,16.6,M,-47.6,M,,*48
$GNGSA,A,3,32,10,28,26,16,27,31,40,08,02,,,1.27,0.67,1.08*10
$GNGSA,A,3,85,72,75,86,65,87,76,66,,,,,1.27,0.67,1.08*19
$GPGSV,5,1,17,02,11,334,30,04,13,233,,08,28,293,30,10,13,033,22*70
$GPGSV,5,2,17,16,24,207,11,18,24,124,,23,01,071,,26,30,176,16*72
$GPGSV,5,3,17,27,55,254,32,28,60,085,23,31,62,154,24,32,26,011,27*7E
$GPGSV,5,4,17,36,52,277,,40,84,353,29,41,58,082,,49,32,274,*77
$GPGSV,5,5,17,50,10,089,*4A
$GLGSV,3,1,09,65,25,287,30,66,08,241,13,72,19,346,28,74,15,098,11*69
$GLGSV,3,2,09,75,24,150,10,76,06,205,07,85,30,147,08,86,76,051,24*62
$GLGSV,3,3,09,87,36,347,31*54
$GNGLL,0419.72757,S,05539.75381,E,134037.00,A,A*66
$GNRMC,134038.00,A,0419.72758,S,05539.75379,E,0.225,,200525,,,A*7D
$GNVTG,,T,,M,0.225,N,0.416,K,A*3B
$GNGGA,134038.00,0419.72758,S,05539.75379,E,1,12,0.95,16.6,M,-47.6,M,,*42
$GNGSA,A,3,32,10,28,26,16,27,31,40,08,02,,,1.64,0.95,1.33*12
$GNGSA,A,3,85,72,75,86,65,87,76,66,,,,,1.64,0.95,1.33*1B
$GPGSV,5,1,17,02,11,334,31,04,13,233,,08,28,293,37,10,13,033,34*71
$GPGSV,5,2,17,16,24,207,07,18,24,124,,23,01,071,,26,30,176,17*74
$GPGSV,5,3,17,27,55,254,35,28,60,085,23,31,62,154,26,32,26,011,26*7A
$GPGSV,5,4,17,36,52,277,,40,84,353,37,41,58,082,,49,32,274,*78
$GPGSV,5,5,17,50,10,089,*4A
$GLGSV,3,1,09,65,25,287,37,66,08,241,08,72,19,346,26,74,15,098,11*6A
$GLGSV,3,2,09,75,24,150,09,76,06,205,08,85,30,147,07,86,76,051,30*6F
$GLGSV,3,3,09,87,36,347,31*54
$GNGLL,0419.72758,S,05539.75379,E,134038.00,A,A*61
$GNRMC,134039.00,A,0419.72737,S,05539.75361,E,0.340,,200525,,,A*7E
$GNVTG,,T,,M,0.340,N,0.630,K,A*3F
$GNGGA,134039.00,0419.72737,S,05539.75361,E,1,12,0.67,17.3,M,-47.6,M,,*4A
$GNGSA,A,3,32,10,28,26,16,27,31,40,08,02,,,1.27,0.67,1.08*10
$GNGSA,A,3,85,72,75,86,65,87,76,66,,,,,1.27,0.67,1.08*19
$GPGSV,5,1,17,02,11,334,31,04,13,233,,08,28,293,41,10,13,033,29*7C
$GPGSV,5,2,17,16,24,207,12,18,24,124,,23,01,071,,26,30,176,17*70
$GPGSV,5,3,17,27,55,254,26,28,60,085,22,31,62,154,27,32,26,011,36*79
$GPGSV,5,4,17,36,52,277,,40,84,353,37,41,58,082,,49,32,274,*78
$GPGSV,5,5,17,50,10,089,*4A
$GLGSV,3,1,09,65,25,287,34,66,08,241,11,72,19,346,28,74,15,098,08*67
$GLGSV,3,2,09,75,24,150,11,76,06,205,08,85,30,147,10,86,76,051,30*60
$GLGSV,3,3,09,87,36,347,34*51
$GNGLL,0419.72737,S,05539.75361,E,134039.00,A,A*60
$GNRMC,134040.00,A,0419.72728,S,05539.75356,E,0.354,,200525,,,A*7F
$GNVTG,,T,,M,0.354,N,0.655,K,A*39
$GNGGA,134040.00,0419.72728,S,05539.75356,E,1,12,0.68,16.9,M,-47.6,M,,*4A
$GNGSA,A,3,32,10,28,26,16,27,31,40,08,02,,,1.19,0.68,0.98*1A
$GNGSA,A,3,85,72,75,86,65,87,76,66,,,,,1.19,0.68,0.98*13
$GPGSV,5,1,17,02,11,334,24,04,13,233,,08,28,293,37,10,13,033,32*73
$GPGSV,5,2,17,16,24,207,09,18,24,124,,23,01,071,,26,30,176,16*7B
$GPGSV,5,3,17,27,55,254,27,28,60,085,30,31,62,154,15,32,26,011,27*7A
$GPGSV,5,4,17,36,52,277,,40,84,353,35,41,58,082,,49,32,274,*7A
$GPGSV,5,5,17,50,10,089,*4A
$GLGSV,3,1,09,65,25,287,26,66,08,241,10,72,19,346,27,74,15,098,08*6A
$GLGSV,3,2,09,75,24,150,09,76,06,205,11,85,30,147,11,86,76,051,33*63
$GLGSV,3,3,09,87,36,347,34*51
$GNGLL,0419.72728,S,05539.75356,E,134040.00,A,A*64
$GNRMC,134041.00,A,0419.72736,S,05539.75364,E,0.403,,200525,,,A*75
$GNVTG,,T,,M,0.403,N,0.745,K,A*3C
$GNGGA,134041.00,0419.72736,S,05539.75364,E,1,12,0.93,16.8,M,-47.6,M,,*40
$GNGSA,A,3,32,10,28,26,16,27,31,40,08,02,,,1.72,0.93,1.45*12
$GNGSA,A,3,85,72,75,86,65,87,76,66,,,,,1.72,0.93,1.45*1B
$GPGSV,5,1,17,02,11,334,25,04,13,233,,08,28,293,31,10,13,033,35*73
$GPGSV,5,2,17,16,24,207,12,18,24,124,,23,01,071,,26,30,176,14*73
$GPGSV,5,3,17,27,55,254,25,28,60,085,30,31,62,154,19,32,26,011,35*77
$GPGSV,5,4,17,36,52,277,,40,84,353,36,41,58,082,,49,32,274,*79
$GPGSV,5,5,17,50,10,089,*4A
$GLGSV,3,1,09,65,25,287,26,66,08,241,08,72,19,346,25,74,15,098,08*61
$GLGSV,3,2,09,75,24,150,08,76,06,205,09,85,30,147,11,86,76,051,34*6C
$GLGSV,3,3,09,87,36,347,27*53
$GNGLL,0419.72736,S,05539.75364,E,134041.00,A,A*6B
$GNRMC,134042.00,A,0419.72735,S,05539.75371,E,0.141,,200525,,,A*72
$GNVTG,,T,,M,0.141,N,0.262,K,A*3F
$GNGGA,134042.00,0419.72735,S,05539.75371,E,1,12,0.66,16.7,M,-47.6,M,,*41
$GNGSA,A,3,32,10,28,26,16,27,31,40,08,02,,,1.17,0.66,0.97*15
$GNGSA,A,3,85,72,75,86,65,87,76,66,,,,,1.17,0.66,0.97*1C
$GPGSV,5,1,17,02,11,334,23,04,13,233,,08,28,293,36,10,13,033,21*77
$GPGSV,5,2,17,16,24,207,09,18,24,124,,23,01,071,,26,30,176,18*75
$GPGSV,5,3,17,27,55,254,24,28,60,085,24,31,62,154,22,32,26,011,35*7B
$GPGSV,5,4,17,36,52,277,33,40,84,353,40,41,58,082,,49,32,274,*78
$GPGSV,5,5,17,50,10,089,*4A
$GLGSV,3,1,09,65,25,287,24,66,08,241,11,72,19,346,25,74,15,098,10*62
$GLGSV,3,2,09,75,24,150,11,76,06,205,09,85,30,147,15,86,76,051,32*66
$GLGSV,3,3,09,87,36,347,36*53
$GNGLL,0419.72735,S,05539.75371,E,134042.00,A,A*6F
$GNRMC,134043.00,A,0419.72734,S,05539.75368,E,0.121,,200525,,,A*7C
$GNVTG,,T,,M,0.121,N,0.224,K,A*3B
$GNGGA,134043.00,0419.72734,S,05539.75368,E,1,12,0.66,16.8,M,-47.6,M,,*46
$GNGSA,A,3,32,10,28,26,16,27,31,40,08,02,,,1.17,0.66,0.97*15
$GNGSA,A,3,85,72,75,86,65,87,76,66,,,,,1.17,0.66,0.97*1C
$GPGSV,5,1,17,02,11,334,21,04,13,233,,08,28,293,31,10,13,033,19*79
$GPGSV,5,2,17,16,24,207,13,18,24,124,,23,01,071,,26,30,176,18*7E
$GPGSV,5,3,17,27,55,254,24,28,60,085,25,31,62,154,21,32,26,011,33*7F
$GPGSV,5,4,17,36,52,277,32,40,84,353,38,41,58,082,,49,32,274,*76
$GPGSV,5,5,17,50,10,089,*4A
$GLGSV,3,1,09,65,25,287,23,66,08,241,12,72,19,346,26,74,15,098,10*65
$GLGSV,3,2,09,75,24,150,08,76,06,205,12,85,30,147,12,86,76,051,31*60
$GLGSV,3,3,09,87,36,347,35*50
$GNGLL,0419.72734,S,05539.75368,E,134043.00,A,A*67
$GNRMC,134044.00,A,0419.72726,S,05539.75363,E,0.411,,200525,,,A*75
$GNVTG,,T,,M,0.411,N,0.760,K,A*38
$GNGGA,134044.00,0419.72726,S,05539.75363,E,1,12,0.91,17.1,M,-47.6,M,,*49
$GNGSA,A,3,32,10,28,26,16,27,31,40,08,02,,,1.57,0.91,1.28*1C
$GNGSA,A,3,85,72,75,86,65,87,76,66,,,,,1.57,0.91,1.28*15
$GPGSV,5,1,17,02,11,334,20,04,13,233,,08,28,293,30,10,13,033,19*79
$GPGSV,5,2,17,16,24,207,09,18,24,124,,23,01,071,,26,30,176,15*78
$GPGSV,5,3,17,27,55,254,22,28,60,085,26,31,62,154,22,32,26,011,34*7E
$GPGSV,5,4,17,36,52,277,31,40,84,353,38,41,58,082,,49,32,274,*75
$GPGSV,5,5,17,50,10,089,*4A
$GLGSV,3,1,09,65,25,287,23,66,08,241,09,72,19,346,27,74,15,098,07*68
$GLGSV,3,2,09,75,24,150,07,76,06,205,11,85,30,147,11,86,76,051,31*6F
$GLGSV,3,3,09,87,36,347,33*56
$GNGLL,0419.72726,S,05539.75363,E,134044.00,A,A*68
$GNRMC,134045.00,A,0419.72715,S,05539.75355,E,0.180,,200525,,,A*7C
$GNVTG,,T,,M,0.180,N,0.333,K,A*37
$GNGGA,134045.00,0419.72715,S,05539.75355,E,1,12,0.68,17.6,M,-47.6,M,,*4C
$GNGSA,A,3,32,10,28,16,27,31,40,08,02,,,,1.19,0.68,0.98*1E
$GNGSA,A,3,85,72,75,86,65,87,66,,,,,,1.19,0.68,0.98*12
$GPGSV,5,1,17,02,11,334,19,04,13,233,,08,28,293,30,10,13,033,17*7D
$GPGSV,5,2,17,16,24,207,07,18,24,124,,23,01,071,,26,30,176,10*73
$GPGSV,5,3,17,27,55,254,24,28,60,085,27,31,62,154,22,32,26,011,34*79
$GPGSV,5,4,17,36,52,277,31,40,84,353,39,41,58,082,,49,32,274,*74
$GPGSV,5,5,17,50,10,089,*4A
$GLGSV,3,1,09,65,25,287,24,66,08,241,11,72,19,346,28,74,15,098,08*66
$GLGSV,3,2,09,75,24,150,11,76,06,205,06,85,30,147,10,86,76,051,31*6F
$GLGSV,3,3,09,87,36,347,32*57
$GNGLL,0419.72715,S,05539.75355,E,134045.00,A,A*6C
$GNRMC,134046.00,A,0419.72720,S,05539.75350,E,0.283,,200525,,,A*7C
$GNVTG,,T,,M,0.283,N,0.525,K,A*36
$GNGGA,134046.00,0419.72720,S,05539.75350,E,1,12,0.66,17.5,M,-47.6,M,,*41
$GNGSA,A,3,32,10,28,26,16,27,31,40,08,02,,,1.17,0.66,0.97*15
$GNGSA,A,3,85,72,75,86,65,87,76,66,,,,,1.17,0.66,0.97*1C
$GPGSV,5,1,17,02,11,334,19,04,13,233,,08,28,293,22,10,13,033,18*71
$GPGSV,5,2,17,16,24,207,11,18,24,124,,23,01,071,,26,30,176,09*7C
$GPGSV,5,3,17,27,55,254,23,28,60,085,27,31,62,154,23,32,26,011,33*78
$GPGSV,5,4,17,36,52,277,29,40,84,353,41,41,58,082,,49,32,274,*72
$GPGSV,5,5,17,50,10,089,*4A
$GLGSV,3,1,09,65,25,287,23,66,08,241,07,72,19,346,28,74,15,098,09*67
$GLGSV,3,2,09,75,24,150,09,76,06,205,07,85,30,147,13,86,76,051,31*64
$GLGSV,3,3,09,87,36,347,30*55
$GNGLL,0419.72720,S,05539.75350,E,134046.00,A,A*6C
$GNRMC,134047.00,A,0419.72703,S,05539.75352,E,0.492,,200525,,,D*7D
$GNVTG,,T,,M,0.492,N,0.911,K,D*3E
$GNGGA,134047.00,0419.72703,S,05539.75352,E,2,12,0.92,17.7,M,-47.6,M,,0000*49
$GNGSA,A,3,32,10,28,26,16,27,31,40,08,02,,,1.59,0.92,1.29*10
$GNGSA,A,3,85,72,75,86,65,87,76,66,,,,,1.59,0.92,1.29*19
$GPGSV,5,1,17,02,11,334,19,04,13,233,,08,28,293,26,10,13,033,16*7B
$GPGSV,5,2,17,16,24,207,10,18,24,124,,23,01,071,,26,30,176,09*7D
$GPGSV,5,3,17,27,55,254,23,28,60,085,26,31,62,154,24,32,26,011,32*7F
$GPGSV,5,4,17,36,52,277,30,40,84,353,40,41,58,082,,49,32,274,*7B
$GPGSV,5,5,17,50,10,089,*4A
$GLGSV,3,1,09,65,25,287,23,66,08,241,10,72,19,346,27,74,15,098,07*60
$GLGSV,3,2,09,75,24,150,10,76,06,205,09,85,30,147,10,86,76,051,32*62
$GLGSV,3,3,09,87,36,347,23*57
$GNGLL,0419.72703,S,05539.75352,E,134047.00,A,D*6B
$GNRMC,134048.00,A,0419.72699,S,05539.75356,E,0.123,,200525,,,D*7B
$GNVTG,,T,,M,0.123,N,0.228,K,D*30
$GNGGA,134048.00,0419.72699,S,05539.75356,E,2,12,0.66,17.8,M,-47.6,M,,0000*44
$GNGSA,A,3,32,10,28,26,16,27,31,40,08,02,,,1.17,0.66,0.97*15
$GNGSA,A,3,85,72,75,86,65,87,66,,,,,,1.17,0.66,0.97*1D
$GPGSV,5,1,17,02,11,334,19,04,13,233,,08,28,293,28,10,13,033,15*76
$GPGSV,5,2,17,16,24,207,11,18,24,124,,23,01,071,,26,30,176,08*7D
$GPGSV,5,3,17,27,55,254,24,28,60,085,27,31,62,154,23,32,26,011,32*7E
$GPGSV,5,4,17,36,52,277,30,40,84,353,40,41,58,082,,49,32,274,*7B
$GPGSV,5,5,17,50,10,089,*4A
$GLGSV,3,1,09,65,25,287,23,66,08,241,08,72,19,346,27,74,15,098,10*6F
$GLGSV,3,2,09,75,24,150,10,76,06,205,06,85,30,147,11,86,76,051,32*6C
$GLGSV,3,3,09,87,36,347,30*55
$GNGLL,0419.72699,S,05539.75356,E,134048.00,A,D*62
$GNRMC,134049.00,A,0419.72704,S,05539.75357,E,0.099,,200525,,,D*7E
$GNVTG,,T,,M,0.099,N,0.183,K,D*32
$GNGGA,134049.00,0419.72704,S,05539.75357,E,2,12,0.66,17.7,M,-47.6,M,,0000*4E
$GNGSA,A,3,32,10,28,26,16,27,31,40,08,02,,,1.17,0.66,0.97*15
$GNGSA,A,3,85,72,75,86,65,87,76,66,,,,,1.17,0.66,0.97*1C
$GPGSV,5,1,17,02,11,334,17,04,13,233,,08,28,293,28,10,13,033,15*78
$GPGSV,5,2,17,16,24,207,10,18,24,124,,23,01,071,,26,30,176,10*75
$GPGSV,5,3,17,27,55,254,23,28,60,085,27,31,62,154,23,32,26,011,32*79
$GPGSV,5,4,17,36,52,277,31,40,84,353,40,41,58,082,,49,32,274,*7A
$GPGSV,5,5,17,50,10,089,*4A
$GLGSV,3,1,09,65,25,287,23,66,08,241,11,72,19,346,27,74,15,098,12*65
$GLGSV,3,2,09,75,24,150,11,76,06,205,10,85,30,147,11,86,76,051,32*6A
$GLGSV,3,3,09,87,36,347,28*5C
$GNGLL,0419.72704,S,05539.75357,E,134049.00,A,D*67
$GNRMC,134050.00,A,0419.72706,S,05539.75357,E,0.072,,200525,,,D*71
$GNVTG,,T,,M,0.072,N,0.133,K,D*3C
$GNGGA,134050.00,0419.72706,S,05539.75357,E,2,12,0.88,17.7,M,-47.6,M,,0000*44
$GNGSA,A,3,32,10,28,26,16,27,31,40,08,02,,,1.49,0.88,1.20*13
$GNGSA,A,3,85,72,75,86,65,87,76,66,,,,,1.49,0.88,1.20*1A
$GPGSV,5,1,17,02,11,334,15,04,13,233,,08,28,293,28,10,13,033,15*7A
$GPGSV,5,2,17,16,24,207,11,18,24,124,,23,01,071,,26,30,176,11*75
$GPGSV,5,3,17,27,55,254,25,28,60,085,27,31,62,154,23,32,26,011,32*7F
$GPGSV,5,4,17,36,52,277,31,40,84,353,40,41,58,082,,49,32,274,*7A
$GPGSV,5,5,17,50,10,089,*4A
$GLGSV,3,1,09,65,25,287,24,66,08,241,11,72,19,346,28,74,15,098,09*67
$GLGSV,3,2,09,75,24,150,11,76,06,205,08,85,30,147,10,86,76,051,32*62
$GLGSV,3,3,09,87,36,347,29*5D
$GNGLL,0419.72706,S,05539.75357,E,134050.00,A,D*6D
$GNRMC,134051.00,A,0419.72711,S,05539.75355,E,0.235,,200525,,,D*75
$GNVTG,,T,,M,0.235,N,0.435,K,D*3E
$GNGGA,134051.00,0419.72711,S,05539.75355,E,2,12,0.68,17.7,M,-47.6,M,,0000*4F
$GNGSA,A,3,32,10,28,16,27,31,40,08,02,,,,1.19,0.68,0.98*1E
$GNGSA,A,3,85,72,75,86,65,87,76,66,,,,,1.19,0.68,0.98*13
$GPGSV,5,1,17,02,11,334,15,04,13,233,,08,28,293,29,10,13,033,17*79
$GPGSV,5,2,17,16,24,207,09,18,24,124,,23,01,071,,26,30,176,07*7B
$GPGSV,5,3,17,27,55,254,24,28,60,085,28,31,62,154,24,32,26,011,32*76
$GPGSV,5,4,17,36,52,277,30,40,84,353,40,41,58,082,,49,32,274,*7B
$GPGSV,5,5,17,50,10,089,*4A
$GLGSV,3,1,09,65,25,287,22,66,08,241,09,72,19,346,28,74,15,098,09*68
$GLGSV,3,2,09,75,24,150,09,76,06,205,08,85,30,147,11,86,76,051,33*6B
$GLGSV,3,3,09,87,36,347,31*54
$GNGLL,0419.72711,S,05539.75355,E,134051.00,A,D*68
$GNRMC,134052.00,A,0419.72706,S,05539.75346,E,0.185,,200525,,,D*7A
$GNVTG,,T,,M,0.185,N,0.342,K,D*31
$GNGGA,134052.00,0419.72706,S,05539.75346,E,2,12,0.66,18.0,M,-47.6,M,,0000*4E
$GNGSA,A,3,32,10,28,26,16,27,31,40,08,02,,,1.17,0.66,0.97*15
$GNGSA,A,3,85,72,75,86,65,87,76,66,,,,,1.17,0.66,0.97*1C
$GPGSV,5,1,17,02,11,334,16,04,13,233,,08,28,293,29,10,13,033,19*74
$GPGSV,5,2,17,16,24,207,11,18,24,124,,23,01,071,,26,30,176,11*75
$GPGSV,5,3,17,27,55,254,24,28,60,085,28,31,62,154,25,32,26,011,32*77
$GPGSV,5,4,17,36,52,277,30,40,84,353,40,41,58,082,,49,32,274,*7B
$GPGSV,5,5,17,50,10,089,*4A
$GLGSV,3,1,09,65,25,287,22,66,08,241,07,72,19,346,27,74,15,098,08*68
$GLGSV,3,2,09,75,24,150,08,76,06,205,10,85,30,147,15,86,76,051,33*67
$GLGSV,3,3,09,87,36,347,31*54
$GNGLL,0419.72706,S,05539.75346,E,134052.00,A,D*6F
$GNRMC,134053.00,A,0419.72698,S,05539.75338,E,0.033,,200525,,,D*78
$GNVTG,,T,,M,0.033,N,0.061,K,D*3F
$GNGGA,134053.00,0419.72698,S,05539.75338,E,2,12,0.74,18.5,M,-47.6,M,,0000*46
$GNGSA,A,3,32,10,28,26,16,27,31,40,08,02,,,1.22,0.74,0.97*10
$GNGSA,A,3,85,72,75,86,65,87,76,66,,,,,1.22,0.74,0.97*19
$GPGSV,5,1,17,02,11,334,14,04,13,233,,08,28,293,28,10,13,033,17*79
$GPGSV,5,2,17,16,24,207,08,18,24,124,,23,01,071,,26,30,176,11*7D
$GPGSV,5,3,17,27,55,254,25,28,60,085,28,31,62,154,24,32,26,011,32*77
$GPGSV,5,4,17,36,52,277,31,40,84,353,40,41,58,082,,49,32,274,*7A
$GPGSV,5,5,17,50,10,089,*4A
$GLGSV,3,1,09,65,25,287,23,66,08,241,09,72,19,346,28,74,15,098,10*61
$GLGSV,3,2,09,75,24,150,08,76,06,205,11,85,30,147,10,86,76,051,32*62
$GLGSV,3,3,09,87,36,347,29*5D
$GNGLL,0419.72698,S,05539.75338,E,134053.00,A,D*61
$GNRMC,134054.00,A,0419.72698,S,05539.75335,E,0.052,,200525,,,D*75
$GNVTG,,T,,M,0.052,N,0.096,K,D*30
$GNGGA,134054.00,0419.72698,S,05539.75335,E,2,12,0.66,18.7,M,-47.6,M,,0000*4D
$GNGSA,A,3,32,10,28,26,16,27,31,40,08,02,,,1.17,0.66,0.97*15
$GNGSA,A,3,85,72,75,86,65,87,66,,,,,,1.17,0.66,0.97*1D
$GPGSV,5,1,17,02,11,334,13,04,13,233,,08,28,293,28,10,13,033,14*7D
$GPGSV,5,2,17,16,24,207,07,18,24,124,,23,01,071,,26,30,176,10*73
$GPGSV,5,3,17,27,55,254,25,28,60,085,28,31,62,154,24,32,26,011,32*77
$GPGSV,5,4,17,36,52,277,31,40,84,353,40,41,58,082,,49,32,274,*7A
$GPGSV,5,5,17,50,10,089,*4A
$GLGSV,3,1,09,65,25,287,25,66,08,241,07,72,19,346,29,74,15,098,08*61
$GLGSV,3,2,09,75,24,150,08,76,06,205,06,85,30,147,12,86,76,051,32*66
$GLGSV,3,3,09,87,36,347,28*5C
$GNGLL,0419.72698,S,05539.75335,E,134054.00,A,D*6B
$GNRMC,134055.00,A,0419.72700,S,05539.75334,E,0.076,,200525,,,D*73
$GNVTG,,T,,M,0.076,N,0.141,K,D*3D
$GNGGA,134055.00,0419.72700,S,05539.75334,E,2,12,0.71,18.8,M,-47.6,M,,0000*44
$GNGSA,A,3,32,10,28,26,16,27,31,40,08,02,,,1.24,0.71,1.01*1D
$GNGSA,A,3,85,72,86,65,87,76,66,,,,,,1.24,0.71,1.01*16
$GPGSV,5,1,17,02,11,334,11,04,13,233,,08,28,293,28,10,13,033,10*7B
$GPGSV,5,2,17,16,24,207,09,18,24,124,,23,01,071,,26,30,176,09*75
$GPGSV,5,3,17,27,55,254,25,28,60,085,27,31,62,154,24,32,26,011,32*78
$GPGSV,5,4,17,36,52,277,31,40,84,353,40,41,58,082,,49,32,274,*7A
$GPGSV,5,5,17,50,10,089,*4A
$GLGSV,3,1,09,65,25,287,25,66,08,241,11,72,19,346,29,74,15,098,07*69
$GLGSV,3,2,09,75,24,150,05,76,06,205,10,85,30,147,10,86,76,051,32*6E
$GLGSV,3,3,09,87,36,347,27*53
$GNGLL,0419.72700,S,05539.75334,E,134055.00,A,D*6B
$GNRMC,134056.00,A,0419.72703,S,05539.75335,E,0.078,,200525,,,D*7C
$GNVTG,,T,,M,0.078,N,0.144,K,D*36
$GNGGA,134056.00,0419.72703,S,05539.75335,E,2,12,0.74,19.0,M,-47.6,M,,0000*49
$GNGSA,A,3,32,10,28,26,16,27,31,40,08,02,,,1.22,0.74,0.97*10
$GNGSA,A,3,85,72,75,86,65,87,76,66,,,,,1.22,0.74,0.97*19
$GPGSV,5,1,17,02,11,334,12,04,13,233,,08,28,293,29,10,13,033,14*7D
$GPGSV,5,2,17,16,24,207,09,18,24,124,,23,01,071,,26,30,176,09*75
$GPGSV,5,3,17,27,55,254,25,28,60,085,28,31,62,154,24,32,26,011,33*76
$GPGSV,5,4,17,36,52,277,32,40,84,353,41,41,58,082,,49,32,274,*78
$GPGSV,5,5,17,50,10,089,*4A
$GLGSV,3,1,09,65,25,287,25,66,08,241,10,72,19,346,28,74,15,098,11*6E
$GLGSV,3,2,09,75,24,150,11,76,06,205,08,85,30,147,13,86,76,051,32*61
$GLGSV,3,3,09,87,36,347,27*53
$GNGLL,0419.72703,S,05539.75335,E,134056.00,A,D*6A
$GNRMC,134057.00,A,0419.72705,S,05539.75333,E,0.047,,200525,,,D*71
$GNVTG,,T,,M,0.047,N,0.087,K,D*34
$GNGGA,134057.00,0419.72705,S,05539.75333,E,2,12,0.74,19.1,M,-47.6,M,,0000*49
$GNGSA,A,3,32,10,28,26,16,27,31,40,08,02,,,1.30,0.74,1.07*1B
$GNGSA,A,3,85,72,75,86,65,87,76,66,,,,,1.30,0.74,1.07*12
$GPGSV,5,1,17,02,11,334,15,04,13,233,,08,28,293,30,10,13,033,19*7F
$GPGSV,5,2,17,16,24,207,10,18,24,124,,23,01,071,05,26,30,176,13*73
$GPGSV,5,3,17,27,55,254,25,28,60,085,29,31,62,154,25,32,26,011,33*76
$GPGSV,5,4,17,36,52,277,32,40,84,353,41,41,58,082,,49,32,274,*78
$GPGSV,5,5,17,50,10,089,*4A
$GLGSV,3,1,09,65,25,287,25,66,08,241,09,72,19,346,28,74,15,098,09*6F
$GLGSV,3,2,09,75,24,150,11,76,06,205,09,85,30,147,16,86,76,051,32*65
$GLGSV,3,3,09,87,36,347,27*53
$GNGLL,0419.72705,S,05539.75333,E,134057.00,A,D*6B
$GNRMC,134058.00,A,0419.72711,S,05539.75333,E,0.097,,200525,,,D*76
$GNVTG,,T,,M,0.097,N,0.180,K,D*3F
$GNGGA,134058.00,0419.72711,S,05539.75333,E,2,12,0.81,19.1,M,-47.6,M,,0000*49
$GNGSA,A,3,32,10,28,26,16,27,31,40,08,02,,,1.40,0.81,1.14*14
$GNGSA,A,3,85,72,86,65,87,76,66,,,,,,1.40,0.81,1.14*1F
$GPGSV,5,1,17,02,11,334,15,04,13,233,,08,28,293,30,10,13,033,10*76
$GPGSV,5,2,17,16,24,207,12,18,24,124,,23,01,071,06,26,30,176,10*71
$GPGSV,5,3,17,27,55,254,25,28,60,085,28,31,62,154,24,32,26,011,32*77
$GPGSV,5,4,17,36,52,277,32,40,84,353,40,41,58,082,,49,32,274,*79
$GPGSV,5,5,17,50,10,089,*4A
$GLGSV,3,1,09,65,25,287,25,66,08,241,12,72,19,346,28,74,15,098,08*64
$GLGSV,3,2,09,75,24,150,07,76,06,205,10,85,30,147,13,86,76,051,32*6F
$GLGSV,3,3,09,87,36,347,26*52
$GNGLL,0419.72711,S,05539.75333,E,134058.00,A,D*61
$GNRMC,134059.00,A,0419.72710,S,05539.75328,E,0.031,,200525,,,D*70
$GNVTG,,T,,M,0.031,N,0.058,K,D*37
$GNGGA,134059.00,0419.72710,S,05539.75328,E,2,12,0.73,19.3,M,-47.6,M,,0000*4C
$GNGSA,A,3,32,10,28,26,16,27,31,40,08,02,,,1.19,0.73,0.94*1C
$GNGSA,A,3,85,72,86,65,87,76,66,,,,,,1.19,0.73,0.94*17
$GPGSV,5,1,17,02,11,334,17,04,13,233,,08,28,293,30,10,13,033,11*75
$GPGSV,5,2,17,16,24,207,09,18,24,124,,23,01,071,,26,30,176,11*7C
$GPGSV,5,3,17,27,55,254,25,28,60,085,28,31,62,154,24,32,26,011,32*77
$GPGSV,5,4,17,36,52,277,32,40,84,353,41,41,58,082,,49,32,274,*78
$GPGSV,5,5,17,50,10,089,*4A
$GLGSV,3,1,09,65,25,288,25,66,08,241,08,72,19,346,28,74,15,098,09*61
$GLGSV,3,2,09,75,24,150,06,76,06,205,11,85,30,147,12,86,76,051,32*6E
$GLGSV,3,3,09,87,36,347,26*52
$GNGLL,0419.72710,S,05539.75328,E,134059.00,A,D*6B
$GNRMC,134100.00,A,0419.72709,S,05539.75324,E,0.019,,200525,,,D*73
$GNVTG,,T,,M,0.019,N,0.036,K,D*35
$GNGGA,134100.00,0419.72709,S,05539.75324,E,2,12,0.74,19.5,M,-47.6,M,,0000*44
$GNGSA,A,3,32,10,28,26,16,27,31,40,08,02,,,1.30,0.74,1.07*1B
$GNGSA,A,3,85,72,75,86,65,87,76,66,,,,,1.30,0.74,1.07*12
$GPGSV,5,1,17,02,11,334,19,04,13,233,14,08,28,293,30,10,13,033,17*78
$GPGSV,5,2,17,16,24,207,09,18,24,124,,23,01,071,,26,30,176,09*75
$GPGSV,5,3,17,27,55,254,25,28,60,085,28,31,62,154,25,32,26,011,33*77
$GPGSV,5,4,17,36,52,277,31,40,84,353,40,41,58,082,,49,32,274,*7A
$GPGSV,5,5,17,50,10,089,*4A
$GLGSV,3,1,09,65,25,288,24,66,08,241,07,72,19,346,28,74,15,098,08*6E
$GLGSV,3,2,09,75,24,150,07,76,06,205,08,85,30,147,11,86,76,051,32*64
$GLGSV,3,3,09,87,36,347,27*53
$GNGLL,0419.72709,S,05539.75324,E,134100.00,A,D*62
$GNRMC,134101.00,A,0419.72706,S,05539.75319,E,0.163,,200525,,,D*7F
$GNVTG,,T,,M,0.163,N,0.302,K,D*3D
$GNGGA,134101.00,0419.72706,S,05539.75319,E,2,12,0.74,19.7,M,-47.6,M,,0000*46
$GNGSA,A,3,32,10,28,26,16,27,31,40,08,02,,,1.30,0.74,1.07*1B
$GNGSA,A,3,85,72,75,86,65,87,76,66,,,,,1.30,0.74,1.07*12
$GPGSV,5,1,17,02,11,334,20,04,13,233,11,08,28,293,30,10,13,033,15*75
$GPGSV,5,2,17,16,24,207,12,18,24,124,,23,01,071,,26,30,176,10*77
$GPGSV,5,3,17,27,55,254,24,28,60,085,27,31,62,154,25,32,26,011,33*79
$GPGSV,5,4,17,36,52,277,31,40,84,353,40,41,58,082,,49,32,274,*7A
$GPGSV,5,5,17,50,10,089,*4A
$GLGSV,3,1,09,65,25,288,24,66,08,241,12,72,19,346,28,74,15,098,08*6A
$GLGSV,3,2,09,75,24,150,11,76,06,205,08,85,30,147,13,86,76,051,32*61
$GLGSV,3,3,09,87,36,347,29*5D
$GNGLL,0419.72706,S,05539.75319,E,134101.00,A,D*62
$GNRMC,134102.00,A,0419.72706,S,05539.75320,E,0.061,,200525,,,D*75
$GNVTG,,T,,M,0.061,N,0.114,K,D*3B
$GNGGA,134102.00,0419.72706,S,05539.75320,E,2,12,1.00,19.8,M,-47.6,M,,0000*42
$GNGSA,A,3,32,10,28,26,27,31,40,08,02,,,,1.72,1.00,1.40*1B
$GNGSA,A,3,85,72,75,86,65,87,76,66,,,,,1.72,1.00,1.40*15
$GPGSV,5,1,17,02,11,334,22,04,13,233,09,08,28,293,30,10,13,033,12*79
$GPGSV,5,2,17,16,24,207,07,18,24,124,,23,01,071,,26,30,176,12*71
$GPGSV,5,3,17,27,55,254,23,28,60,085,27,31,62,154,25,32,26,011,33*7E
$GPGSV,5,4,17,36,52,277,30,40,84,353,40,41,58,082,,49,32,274,*7B
$GPGSV,5,5,17,50,10,089,*4A
$GLGSV,3,1,09,65,25,288,23,66,08,241,10,72,19,346,28,74,15,098,07*60
$GLGSV,3,2,09,75,24,150,09,76,06,205,09,85,30,147,15,86,76,051,33*6E
$GLGSV,3,3,09,87,36,347,30*55
$GNGLL,0419.72706,S,05539.75320,E,134102.00,A,D*6B
$GNRMC,134103.00,A,0419.72699,S,05539.75317,E,0.188,,200525,,,D*71
$GNVTG,,T,,M,0.188,N,0.348,K,D*36
$GNGGA,134103.00,0419.72699,S,05539.75317,E,2,12,0.66,20.0,M,-47.6,M,,0000*43
$GNGSA,A,3,32,10,28,26,16,27,31,40,08,02,,,1.17,0.66,0.97*15
$GNGSA,A,3,85,72,75,86,65,87,76,66,,,,,1.17,0.66,0.97*1C
$GPGSV,5,1,17,02,11,334,21,04,13,233,,08,28,293,29,10,13,033,17*7E
$GPGSV,5,2,17,16,24,207,10,18,24,124,,23,01,071,,26,30,176,11*74
$GPGSV,5,3,17,27,55,254,23,28,60,085,27,31,62,154,25,32,26,011,33*7E
$GPGSV,5,4,17,36,52,277,29,40,84,353,39,41,58,082,,49,32,274,*7D
$GPGSV,5,5,17,50,10,089,*4A
$GLGSV,3,1,09,65,25,288,23,66,08,241,10,72,19,346,28,74,15,098,06*61
$GLGSV,3,2,09,75,24,150,09,76,06,205,12,85,30,147,15,86,76,051,32*65
$GLGSV,3,3,09,87,36,347,31*54
$GNGLL,0419.72699,S,05539.75317,E,134103.00,A,D*69
$GNRMC,134104.00,A,0419.72690,S,05539.75314,E,0.097,,200525,,,D*73
$GNVTG,,T,,M,0.097,N,0.180,K,D*3F
$GNGGA,134104.00,0419.72690,S,05539.75314,E,2,12,0.66,20.3,M,-47.6,M,,0000*4D
$GNGSA,A,3,32,10,28,26,16,27,31,40,08,02,,,1.17,0.66,0.97*15
$GNGSA,A,3,85,72,75,86,65,87,66,,,,,,1.17,0.66,0.97*1D
$GPGSV,5,1,17,02,11,334,20,04,13,233,,08,28,293,29,10,13,033,20*7B
$GPGSV,5,2,17,16,24,207,09,18,24,124,,23,01,071,,26,30,176,09*75
$GPGSV,5,3,17,27,55,254,25,28,60,085,27,31,62,154,25,32,26,011,33*78
$GPGSV,5,4,17,36,52,277,29,40,84,353,39,41,58,082,,49,32,274,*7D
$GPGSV,5,5,17,50,10,089,*4A
$GLGSV,3,1,09,65,25,288,23,66,08,241,11,72,19,346,28,74,15,098,06*60
$GLGSV,3,2,09,75,24,150,08,76,06,205,06,85,30,147,14,86,76,051,33*61
$GLGSV,3,3,09,87,36,347,31*54
$GNGLL,0419.72690,S,05539.75314,E,134104.00,A,D*64
$GNRMC,134105.00,A,0419.72689,S,05539.75313,E,0.095,,200525,,,D*7F
$GNVTG,,T,,M,0.095,N,0.176,K,D*34
$GNGGA,134105.00,0419.72689,S,05539.75313,E,2,12,1.40,20.3,M,-47.6,M,,0000*46
$GNGSA,A,3,32,10,28,16,27,31,40,08,02,,,,2.40,1.40,1.95*16
$GNGSA,A,3,72,75,86,65,87,76,66,,,,,,2.40,1.40,1.95*16
$GPGSV,5,1,17,02,11,334,19,04,13,233,,08,28,293,29,10,13,033,20*71
$GPGSV,5,2,17,16,24,207,09,18,24,124,,23,01,071,,26,30,176,07*7B
$GPGSV,5,3,17,27,55,254,25,28,60,085,28,31,62,154,25,32,26,011,33*77
$GPGSV,5,4,17,36,52,277,29,40,84,353,39,41,58,082,,49,32,274,*7D
$GPGSV,5,5,17,50,10,089,*4A
$GLGSV,3,1,09,65,25,288,23,66,08,241,08,72,19,346,28,74,15,098,10*6F
$GLGSV,3,2,09,75,24,150,09,76,06,205,10,85,30,147,07,86,76,051,33*65
$GLGSV,3,3,09,87,36,347,31*54
$GNGLL,0419.72689,S,05539.75313,E,134105.00,A,D*6A
$GNRMC,134106.00,A,0419.72687,S,05539.75318,E,0.157,,200525,,,D*76
$GNVTG,,T,,M,0.157,N,0.290,K,D*30
$GNGGA,134106.00,0419.72687,S,05539.75318,E,2,12,0.70,20.2,M,-47.6,M,,0000*43
$GNGSA,A,3,32,10,28,26,16,27,31,40,08,02,,,1.21,0.70,0.99*19
$GNGSA,A,3,72,75,86,65,87,76,66,,,,,,1.21,0.70,0.99*1D
$GPGSV,5,1,17,02,11,334,18,04,13,233,,08,28,293,30,10,13,033,19*72
$GPGSV,5,2,17,16,24,207,07,18,24,124,,23,01,071,,26,30,176,10*73
$GPGSV,5,3,17,27,55,254,24,28,60,085,27,31,62,154,25,32,26,011,33*79
$GPGSV,5,4,17,36,52,277,29,40,84,353,40,41,58,082,,49,32,274,*73
$GPGSV,5,5,17,50,10,089,*4A
$GLGSV,3,1,09,65,25,288,22,66,08,241,10,72,19,347,28,74,15,098,07*60
$GLGSV,3,2,09,75,24,150,12,76,06,205,08,85,30,147,10,86,76,051,33*60
$GLGSV,3,3,09,87,36,347,30*55
$GNGLL,0419.72687,S,05539.75318,E,134106.00,A,D*6C
$GNRMC,134107.00,A,0419.72681,S,05539.75320,E,0.023,,200525,,,D*78
$GNVTG,,T,,M,0.023,N,0.043,K,D*3E
$GNGGA,134107.00,0419.72681,S,05539.75320,E,2,12,0.71,20.4,M,-47.6,M,,0000*48
$GNGSA,A,3,32,10,28,26,16,27,31,40,08,02,,,1.24,0.71,1.01*1D
$GNGSA,A,3,85,72,86,65,87,76,66,,,,,,1.24,0.71,1.01*16
$GPGSV,5,1,17,02,11,334,18,04,13,233,,08,28,293,31,10,13,033,18*72
$GPGSV,5,2,17,16,24,207,09,18,24,124,,23,01,071,,26,30,176,09*75
$GPGSV,5,3,17,27,55,254,23,28,60,085,27,31,62,154,25,32,26,011,33*7E
$GPGSV,5,4,17,36,52,277,30,40,84,353,41,41,58,082,,49,32,274,*7A
$GPGSV,5,5,17,50,10,089,*4A
$GLGSV,3,1,09,65,25,288,20,66,08,241,11,72,19,347,28,74,15,098,08*6C
$GLGSV,3,2,09,75,24,150,07,76,06,205,09,85,30,147,13,86,76,051,32*67
$GLGSV,3,3,09,87,36,347,29*5D
$GNGLL,0419.72681,S,05539.75320,E,134107.00,A,D*60
$GNRMC,134108.00,A,0419.72686,S,05539.75327,E,0.156,,200525,,,D*74
$GNVTG,,T,,M,0.156,N,0.289,K,D*39
$GNGGA,134108.00,0419.72686,S,05539.75327,E,2,12,0.81,20.2,M,-47.6,M,,0000*4E
$GNGSA,A,3,32,10,28,26,16,27,31,40,08,02,,,1.38,0.81,1.11*1E
$GNGSA,A,3,85,72,75,86,65,87,76,66,,,,,1.38,0.81,1.11*17
$GPGSV,5,1,17,02,11,334,19,04,13,233,,08,28,293,31,10,13,033,17*7C
$GPGSV,5,2,17,16,24,207,09,18,24,124,,23,01,071,,26,30,176,11*7C
$GPGSV,5,3,17,27,55,254,23,28,60,085,28,31,62,154,26,32,26,011,34*75
$GPGSV,5,4,17,36,52,277,30,40,84,353,41,41,58,082,,49,32,274,*7A
$GPGSV,5,5,17,50,10,089,*4A
$GLGSV,3,1,09,65,25,288,19,66,08,241,08,72,19,347,28,74,15,098,08*6E
$GLGSV,3,2,09,75,24,150,11,76,06,205,09,85,30,147,14,86,76,051,32*67
$GLGSV,3,3,09,87,36,347,29*5D
$GNGLL,0419.72686,S,05539.75327,E,134108.00,A,D*6F
$GNRMC,134109.00,A,0419.72692,S,05539.75329,E,0.105,,200525,,,D*78
$GNVTG,,T,,M,0.105,N,0.194,K,D*30
$GNGGA,134109.00,0419.72692,S,05539.75329,E,2,12,0.66,20.0,M,-47.6,M,,0000*4F
$GNGSA,A,3,32,10,28,26,16,27,31,40,08,02,,,1.17,0.66,0.97*15
$GNGSA,A,3,85,72,75,86,65,87,76,66,,,,,1.17,0.66,0.97*1C
$GPGSV,5,1,17,02,11,334,20,04,13,233,,08,28,293,31,10,13,033,15*74
$GPGSV,5,2,17,16,24,207,09,18,24,124,,23,01,071,,26,30,176,10*7D
$GPGSV,5,3,17,27,55,254,23,28,60,085,28,31,62,154,26,32,26,011,34*75
$GPGSV,5,4,17,36,52,277,31,40,84,353,41,41,58,082,,49,32,274,*7B
$GPGSV,5,5,17,50,10,089,*4A
$GLGSV,3,1,09,65,25,288,19,66,08,241,08,72,19,347,28,74,15,098,09*6F
$GLGSV,3,2,09,75,24,150,11,76,06,205,13,85,30,147,15,86,76,051,33*6C
$GLGSV,3,3,09,87,36,347,29*5D
$GNGLL,0419.72692,S,05539.75329,E,134109.00,A,D*65
$GNRMC,134110.00,A,0419.72693,S,05539.75329,E,0.216,,200525,,,D*70
$GNVTG,,T,,M,0.216,N,0.400,K,D*39
$GNGGA,134110.00,0419.72693,S,05539.75329,E,2,12,0.66,20.1,M,-47.6,M,,0000*47
$GNGSA,A,3,32,10,28,26,16,27,31,40,08,02,,,1.17,0.66,0.97*15
$GNGSA,A,3,85,72,75,86,65,87,76,66,,,,,1.17,0.66,0.97*1C
$GPGSV,5,1,17,02,11,334,20,04,13,233,,08,28,293,31,10,13,033,14*75
$GPGSV,5,2,17,16,24,207,09,18,24,124,,23,01,071,,26,30,176,09*75
$GPGSV,5,3,17,27,55,254,24,28,60,085,28,31,62,154,26,32,26,011,34*72
$GPGSV,5,4,17,36,52,277,30,40,84,353,41,41,58,082,,49,32,274,*7A
$GPGSV,5,5,17,50,10,089,*4A
$GLGSV,3,1,09,65,25,288,19,66,08,241,10,72,19,347,28,74,15,098,10*6E
$GLGSV,3,2,09,75,24,150,10,76,06,205,08,85,30,147,16,86,76,051,32*65
$GLGSV,3,3,09,87,36,347,29*5D
$GNGLL,0419.72693,S,05539.75329,E,134110.00,A,D*6C
$GNRMC,134111.00,A,0419.72672,S,05539.75317,E,0.143,,200525,,,D*70
$GNVTG,,T,,M,0.143,N,0.265,K,D*3F
$GNGGA,134111.00,0419.72672,S,05539.75317,E,2,12,0.92,20.9,M,-47.6,M,,0000*47
$GNGSA,A,3,32,10,28,26,16,27,31,40,08,02,,,1.58,0.92,1.29*11
$GNGSA,A,3,85,72,75,86,65,87,76,66,,,,,1.58,0.92,1.29*18
$GPGSV,5,1,17,02,11,334,19,04,13,233,,08,28,293,31,10,13,033,15*7E
$GPGSV,5,2,17,16,24,207,11,18,24,124,,23,01,071,,26,30,176,11*75
$GPGSV,5,3,17,27,55,254,25,28,60,085,28,31,62,154,25,32,26,011,34*70
$GPGSV,5,4,17,36,52,277,31,40,84,353,41,41,58,082,,49,32,274,*7B
$GPGSV,5,5,17,50,10,089,*4A
$GLGSV,3,1,09,65,25,288,21,66,08,241,09,72,19,347,27,74,15,098,07*64
$GLGSV,3,2,09,75,24,150,11,76,06,205,08,85,30,147,15,86,76,051,32*67
$GLGSV,3,3,09,87,36,347,30*55
$GNGLL,0419.72672,S,05539.75317,E,134111.00,A,D*6F
$GNRMC,134112.00,A,0419.72664,S,05539.75309,E,0.173,,200525,,,D*78
$GNVTG,,T,,M,0.173,N,0.321,K,D*3D
$GNGGA,134112.00,0419.72664,S,05539.75309,E,2,12,0.66,21.2,M,-47.6,M,,0000*4D
$GNGSA,A,3,32,10,28,26,16,27,31,40,08,02,,,1.17,0.66,0.97*15
$GNGSA,A,3,85,72,75,86,65,87,76,66,,,,,1.17,0.66,0.97*1C
$GPGSV,5,1,17,02,11,334,18,04,13,233,,08,28,293,30,10,13,033,17*7C
$GPGSV,5,2,17,16,24,207,10,18,24,124,,23,01,071,,26,30,176,11*74
$GPGSV,5,3,17,27,55,254,25,28,60,085,27,31,62,154,25,32,26,011,33*78
$GPGSV,5,4,17,36,52,277,31,40,84,353,41,41,58,082,,49,32,274,*7B
$GPGSV,5,5,17,50,10,089,*4A
$GLGSV,3,1,09,65,25,288,23,66,08,241,10,72,19,347,27,74,15,098,09*60
$GLGSV,3,2,09,75,24,150,10,76,06,205,08,85,30,147,12,86,76,051,32*61
$GLGSV,3,3,09,87,36,347,29*5D
$GNGLL,0419.72664,S,05539.75309,E,134112.00,A,D*64
$GNRMC,134113.00,A,0419.72663,S,05539.75302,E,0.237,,200525,,,D*76
$GNVTG,,T,,M,0.237,N,0.439,K,D*30
$GNGGA,134113.00,0419.72663,S,05539.75302,E,2,12,0.66,21.4,M,-47.6,M,,0000*46
$GNGSA,A,3,32,10,28,26,16,27,31,40,08,02,,,1.17,0.66,0.97*15
$GNGSA,A,3,85,72,75,86,65,87,76,66,,,,,1.17,0.66,0.97*1C
$GPGSV,5,1,17,02,11,334,16,04,13,233,,08,28,293,29,10,13,033,16*7B
$GPGSV,5,2,17,16,24,207,11,18,24,124,,23,01,071,,26,30,176,11*75
$GPGSV,5,3,17,27,55,254,23,28,60,085,25,31,62,154,24,32,26,011,33*7D
$GPGSV,5,4,17,36,52,277,29,40,84,353,38,41,58,082,,49,32,274,*7C
$GPGSV,5,5,17,50,10,089,*4A
$GLGSV,3,1,09,65,25,288,23,66,08,241,12,72,19,347,27,74,15,098,08*63
$GLGSV,3,2,09,75,24,150,09,76,06,205,10,85,30,147,13,86,76,051,30*63
$GLGSV,3,3,09,87,36,347,28*5C
$GNGLL,0419.72663,S,05539.75302,E,134113.00,A,D*69
$GNRMC,134114.00,A,0419.72656,S,05539.75297,E,0.136,,200525,,,D*78
$GNVTG,,T,,M,0.136,N,0.251,K,D*3A
$GNGGA,134114.00,0419.72656,S,05539.75297,E,2,12,0.81,21.6,M,-47.6,M,,0000*41
$GNGSA,A,3,32,10,28,26,27,31,40,08,02,,,,1.38,0.81,1.11*19
$GNGSA,A,3,85,72,75,86,65,87,76,,,,,,1.38,0.81,1.11*17
$GPGSV,5,1,17,02,11,334,14,04,13,233,,08,28,293,29,10,13,033,16*79
$GPGSV,5,2,17,16,24,207,07,18,24,124,,23,01,071,,26,30,176,09*7B
$GPGSV,5,3,17,27,55,254,21,28,60,085,25,31,62,154,23,32,26,011,33*78
$GPGSV,5,4,17,36,52,277,28,40,84,353,38,41,58,082,,49,32,274,*7D
$GPGSV,5,5,17,50,10,089,*4A
$GLGSV,3,1,09,65,25,288,22,66,08,241,12,72,19,347,26,74,15,098,08*63
$GLGSV,3,2,09,75,24,150,11,76,06,205,09,85,30,147,13,86,76,051,30*62
$GLGSV,3,3,09,87,36,347,28*5C
$GNGLL,0419.72656,S,05539.75297,E,134114.00,A,D*65
$GNRMC,134115.00,A,0419.72656,S,05539.75294,E,0.878,,200525,,,D*79
$GNVTG,,T,,M,0.878,N,1.626,K,D*3C
$GNGGA,134115.00,0419.72656,S,05539.75294,E,2,12,0.71,21.6,M,-47.6,M,,0000*4C
$GNGSA,A,3,32,10,28,26,16,27,31,40,08,02,,,1.25,0.71,1.03*1E
$GNGSA,A,3,85,72,75,86,65,87,76,,,,,,1.25,0.71,1.03*17
$GPGSV,5,1,17,02,11,334,13,04,13,233,,08,28,293,28,10,13,033,17*7E
$GPGSV,5,2,17,16,24,207,09,18,24,124,,23,01,071,,26,30,176,16*7B
$GPGSV,5,3,17,27,55,254,23,28,60,085,26,31,62,154,22,32,26,011,34*7F
$GPGSV,5,4,17,36,52,277,32,40,84,353,41,41,58,082,,49,32,274,*78
$GPGSV,5,5,17,50,10,089,*4A
$GLGSV,3,1,09,65,25,288,21,66,08,241,09,72,19,347,26,74,15,098,10*63
$GLGSV,3,2,09,75,24,150,09,76,06,205,11,85,30,147,13,86,76,051,34*66
$GLGSV,3,3,09,87,36,347,33*56
$GNGLL,0419.72656,S,05539.75294,E,134115.00,A,D*67
$GNRMC,134116.00,A,0419.72658,S,05539.75294,E,0.215,,200525,,,D*75
$GNVTG,,T,,M,0.215,N,0.398,K,D*3C
$GNGGA,134116.00,0419.72658,S,05539.75294,E,2,12,0.71,21.7,M,-47.6,M,,0000*40
$GNGSA,A,3,32,10,28,26,16,27,31,40,08,02,,,1.25,0.71,1.03*1E
$GNGSA,A,3,85,72,75,86,65,87,,,,,,,1.25,0.71,1.03*16
$GPGSV,5,1,17,02,11,334,20,04,13,233,,08,28,293,29,10,13,033,19*71
$GPGSV,5,2,17,16,24,207,07,18,24,124,,23,01,071,,26,30,176,11*72
$GPGSV,5,3,17,27,55,254,22,28,60,085,26,31,62,154,21,32,26,011,29*71
$GPGSV,5,4,17,36,52,277,31,40,84,353,37,41,58,082,,49,32,274,*7A
$GPGSV,5,5,17,50,10,089,*4A
$GLGSV,3,1,09,65,25,288,21,66,08,241,09,72,19,347,25,74,15,098,10*60
$GLGSV,3,2,09,75,24,150,07,76,06,205,07,85,30,147,12,86,76,051,32*68
$GLGSV,3,3,09,87,36,347,29*5D
$GNGLL,0419.72658,S,05539.75294,E,134116.00,A,D*6A
$GNRMC,134117.00,A,0419.72642,S,05539.75285,E,0.280,,200525,,,D*73
$GNVTG,,T,,M,0.280,N,0.519,K,D*3F
$GNGGA,134117.00,0419.72642,S,05539.75285,E,2,12,0.92,22.1,M,-47.6,M,,0000*42
$GNGSA,A,3,32,10,28,26,27,31,40,08,02,,,,1.58,0.92,1.29*16
$GNGSA,A,3,85,72,75,86,65,87,76,,,,,,1.58,0.92,1.29*18
$GPGSV,5,1,17,02,11,334,19,04,13,233,,08,28,293,28,10,13,033,19*7A
$GPGSV,5,2,17,16,24,207,07,18,24,124,,23,01,071,,26,30,176,08*7A
$GPGSV,5,3,17,27,55,254,20,28,60,085,23,31,62,154,19,32,26,011,27*73
$GPGSV,5,4,17,36,52,277,28,40,84,353,34,41,58,082,,49,32,274,*71
$GPGSV,5,5,17,50,10,089,*4A
$GLGSV,3,1,09,65,25,288,20,66,08,241,08,72,19,347,23,74,15,098,09*6E
$GLGSV,3,2,09,75,24,150,08,76,06,205,10,85,30,147,10,86,76,051,26*66
$GLGSV,3,3,09,87,36,347,29*5D
$GNGLL,0419.72642,S,05539.75285,E,134117.00,A,D*60
$GNRMC,134118.00,A,0419.72630,S,05539.75278,E,0.111,,200525,,,D*70
$GNVTG,,T,,M,0.111,N,0.205,K,D*3E
$GNGGA,134118.00,0419.72630,S,05539.75278,E,2,12,0.71,22.4,M,-47.6,M,,0000*42
$GNGSA,A,3,32,10,28,26,16,27,31,40,08,02,,,1.25,0.71,1.03*1E
$GNGSA,A,3,85,72,75,86,65,87,76,,,,,,1.25,0.71,1.03*17
$GPGSV,5,1,17,02,11,334,17,04,13,233,,08,28,293,28,10,13,033,16*7B
$GPGSV,5,2,17,16,24,207,09,18,24,124,,23,01,071,,26,30,176,10*7D
$GPGSV,5,3,17,27,55,254,18,28,60,085,22,31,62,154,18,32,26,011,26*79
$GPGSV,5,4,17,36,52,277,28,40,84,353,39,41,58,082,,49,32,274,*7C
$GPGSV,5,5,17,50,10,089,*4A
$GLGSV,3,1,09,65,25,288,21,66,08,241,06,72,19,347,23,74,15,098,08*60
$GLGSV,3,2,09,75,24,150,07,76,06,205,09,85,30,147,10,86,76,051,27*60
$GLGSV,3,3,09,87,36,347,32*57
$GNGLL,0419.72630,S,05539.75278,E,134118.00,A,D*68
$GNRMC,134119.00,A,0419.72622,S,05539.75272,E,0.175,,200525,,,D*7A
$GNVTG,,T,,M,0.175,N,0.324,K,D*3E
$GNGGA,134119.00,0419.72622,S,05539.75272,E,2,12,0.74,22.4,M,-47.6,M,,0000*4F
$GNGSA,A,3,32,10,28,26,16,27,31,40,08,02,,,1.29,0.74,1.06*12
$GNGSA,A,3,72,75,86,65,87,76,,,,,,,1.29,0.74,1.06*16
$GPGSV,5,1,17,02,11,334,18,04,13,233,,08,28,293,28,10,13,033,15*77
$GPGSV,5,2,17,16,24,207,10,18,24,124,,23,01,071,,26,30,176,08*7C
$GPGSV,5,3,17,27,55,254,19,28,60,085,20,31,62,154,17,32,26,011,25*76
$GPGSV,5,4,17,36,52,277,28,40,84,353,37,41,58,082,,49,32,274,*72
$GPGSV,5,5,17,50,10,089,*4A
$GLGSV,3,1,09,65,25,288,22,66,08,241,09,72,19,347,23,74,15,098,10*65
$GLGSV,3,2,09,75,24,150,10,76,06,205,10,85,30,148,08,86,76,051,27*68
$GLGSV,3,3,09,87,36,347,30*55
$GNGLL,0419.72622,S,05539.75272,E,134119.00,A,D*60
$GNRMC,134120.00,A,0419.72600,S,05539.75265,E,0.416,,200525,,,D*76
$GNVTG,,T,,M,0.416,N,0.770,K,D*3B
$GNGGA,134120.00,0419.72600,S,05539.75265,E,2,12,0.80,22.8,M,-47.6,M,,0000*44
$GNGSA,A,3,32,10,28,26,16,27,31,40,08,02,,,1.34,0.80,1.07*14
$GNGSA,A,3,85,72,75,86,65,87,76,66,,,,,1.34,0.80,1.07*1D
$GPGSV,5,1,17,02,11,334,19,04,13,233,,08,28,293,29,10,13,033,15*77
$GPGSV,5,2,17,16,24,207,12,18,24,124,,23,01,071,,26,30,176,10*77
$GPGSV,5,3,17,27,55,254,19,28,60,085,21,31,62,154,17,32,26,011,23*71
$GPGSV,5,4,17,36,52,277,28,40,84,353,37,41,58,082,,49,32,274,*72
$GPGSV,5,5,17,50,10,089,*4A
$GLGSV,3,1,09,65,25,288,22,66,08,241,11,72,19,347,22,74,15,098,08*64
$GLGSV,3,2,09,75,24,150,11,76,06,205,10,85,30,148,10,86,77,054,27*64
$GLGSV,3,3,09,87,36,347,29*5D
$GNGLL,0419.72600,S,05539.75265,E,134120.00,A,D*6C
$GNRMC,134121.00,A,0419.72590,S,05539.75265,E,0.312,,200525,,,D*7E
$GNVTG,,T,,M,0.312,N,0.579,K,D*33
$GNGGA,134121.00,0419.72590,S,05539.75265,E,2,12,0.71,23.0,M,-47.6,M,,0000*48
$GNGSA,A,3,32,10,28,26,16,27,31,40,08,02,,,1.24,0.71,1.01*1D
$GNGSA,A,3,85,72,86,65,87,76,66,,,,,,1.24,0.71,1.01*16
$GPGSV,5,1,17,02,11,334,20,04,13,233,,08,28,293,30,10,13,033,17*77
$GPGSV,5,2,17,16,24,207,10,18,24,124,,23,01,071,,26,30,176,08*7C
$GPGSV,5,3,17,27,55,254,21,28,60,085,23,31,62,154,19,32,26,011,26*73
$GPGSV,5,4,17,36,52,277,30,40,84,353,39,41,58,082,,49,32,274,*75
$GPGSV,5,5,17,50,10,089,*4A
$GLGSV,3,1,09,65,25,288,22,66,08,241,07,72,19,347,22,74,15,098,08*63
$GLGSV,3,2,09,75,24,150,06,76,06,205,10,85,30,148,12,86,77,054,28*6F
$GLGSV,3,3,09,87,37,347,29*5C
$GNGLL,0419.72590,S,05539.75265,E,134121.00,A,D*67
$GNRMC,134122.00,A,0419.72604,S,05539.75301,E,0.910,,200525,,,D*78
$GNVTG,,T,,M,0.910,N,1.684,K,D*3B
$GNGGA,134122.00,0419.72604,S,05539.75301,E,2,12,0.71,21.9,M,-47.6,M,,0000*4D
$GNGSA,A,3,32,10,28,26,16,27,31,40,08,02,,,1.24,0.71,1.01*1D
$GNGSA,A,3,85,72,86,65,87,76,66,,,,,,1.24,0.71,1.01*16
$GPGSV,5,1,17,02,11,334,21,04,13,233,,08,28,293,30,10,13,033,17*76
$GPGSV,5,2,17,16,24,207,11,18,24,124,,23,01,071,,26,30,176,09*7C
$GPGSV,5,3,17,27,55,254,21,28,60,085,22,31,62,154,19,32,26,011,26*72
$GPGSV,5,4,17,36,52,277,30,40,84,353,37,41,58,082,,49,32,274,*7B
$GPGSV,5,5,17,50,10,089,*4A
$GLGSV,3,1,09,65,25,288,21,66,08,241,09,72,19,347,22,74,15,098,06*60
$GLGSV,3,2,09,75,24,150,04,76,06,205,07,85,30,148,11,86,77,054,28*68
$GLGSV,3,3,09,87,37,347,30*54
$GNGLL,0419.72604,S,05539.75301,E,134122.00,A,D*69
$GNRMC,134123.00,A,0419.72627,S,05539.75312,E,0.282,,200525,,,D*7A
$GNVTG,,T,,M,0.282,N,0.522,K,D*35
$GNGGA,134123.00,0419.72627,S,05539.75312,E,2,12,0.92,21.6,M,-47.6,M,,0000*4D
$GNGSA,A,3,32,10,28,27,31,40,08,02,,,,,1.58,0.92,1.29*12
$GNGSA,A,3,85,72,75,86,65,87,,,,,,,1.58,0.92,1.29*19
$GPGSV,5,1,17,02,11,334,19,04,13,233,,08,28,293,28,10,13,033,14*77
$GPGSV,5,2,17,16,24,207,07,18,24,124,,23,01,071,,26,30,176,05*77
$GPGSV,5,3,17,27,55,254,19,28,60,085,21,31,62,154,17,32,26,011,23*71
$GPGSV,5,4,17,36,52,277,27,40,84,353,35,41,58,082,,49,32,274,*7F
$GPGSV,5,5,17,50,10,089,*4A
$GLGSV,3,1,09,65,25,288,21,66,08,241,06,72,19,347,22,74,15,098,09*60
$GLGSV,3,2,09,75,24,150,07,76,06,205,07,85,30,148,11,86,77,054,21*62
$GLGSV,3,3,09,87,37,347,29*5C
$GNGLL,0419.72627,S,05539.75312,E,134123.00,A,D*6B
$GNRMC,134124.00,A,0419.72631,S,05539.75307,E,0.474,,200525,,,D*71
$GNVTG,,T,,M,0.474,N,0.879,K,D*39
$GNGGA,134124.00,0419.72631,S,05539.75307,E,2,12,0.66,22.0,M,-47.6,M,,0000*47
$GNGSA,A,3,32,10,28,26,16,27,31,40,08,02,,,1.17,0.66,0.97*15
$GNGSA,A,3,85,72,75,86,65,87,76,66,,,,,1.17,0.66,0.97*1C
$GPGSV,5,1,17,02,11,334,18,04,13,233,,08,28,293,28,10,13,033,14*76
$GPGSV,5,2,17,16,24,207,10,18,24,124,,23,01,071,,26,30,176,08*7C
$GPGSV,5,3,17,27,55,254,18,28,60,085,20,31,62,154,16,32,26,011,22*71
$GPGSV,5,4,17,36,52,277,27,40,84,353,35,41,58,082,,49,32,274,*7F
$GPGSV,5,5,17,50,10,089,*4A
$GLGSV,3,1,09,65,25,288,21,66,08,241,11,72,19,347,22,74,15,098,07*68
$GLGSV,3,2,09,75,24,150,10,76,06,205,09,85,30,148,08,86,77,054,24*67
$GLGSV,3,3,09,87,37,347,29*5C
$GNGLL,0419.72631,S,05539.75307,E,134124.00,A,D*6F
$GNRMC,134125.00,A,0419.72619,S,05539.75296,E,0.113,,200525,,,D*77
$GNVTG,,T,,M,0.113,N,0.209,K,D*30
$GNGGA,134125.00,0419.72619,S,05539.75296,E,2,12,0.66,22.3,M,-47.6,M,,0000*46
$GNGSA,A,3,32,10,28,26,16,27,31,40,08,02,,,1.17,0.66,0.97*15
$GNGSA,A,3,85,72,75,86,65,87,76,66,,,,,1.17,0.66,0.97*1C
$GPGSV,5,1,17,02,11,334,20,04,13,233,,08,28,293,28,10,13,033,16*7F
$GPGSV,5,2,17,16,24,207,07,18,24,124,,23,01,071,,26,30,176,08*7A
$GPGSV,5,3,17,27,55,254,20,28,60,085,20,31,62,154,15,32,26,011,29*72
$GPGSV,5,4,17,36,52,277,28,40,84,353,38,41,58,082,,49,32,274,*7D
$GPGSV,5,5,17,50,10,089,*4A
$GLGSV,3,1,09,65,25,288,21,66,08,241,11,72,19,347,22,74,15,098,08*67
$GLGSV,3,2,09,75,24,150,10,76,06,205,08,85,30,148,08,86,77,054,27*65
$GLGSV,3,3,09,87,37,347,33*57
$GNGLL,0419.72619,S,05539.75296,E,134125.00,A,D*6D
$GNRMC,134126.00,A,0419.72614,S,05539.75291,E,0.114,,200525,,,D*79
$GNVTG,,T,,M,0.114,N,0.211,K,D*3E
$GNGGA,134126.00,0419.72614,S,05539.75291,E,2,12,0.80,22.3,M,-47.6,M,,0000*47
$GNGSA,A,3,32,10,28,26,16,27,31,40,08,02,,,1.34,0.80,1.07*14
$GNGSA,A,3,85,72,75,86,65,87,76,66,,,,,1.34,0.80,1.07*1D
$GPGSV,5,1,17,02,11,334,20,04,13,233,,08,28,293,33,10,13,033,15*76
$GPGSV,5,2,17,16,24,207,09,18,24,124,,23,01,071,,26,30,176,08*74
$GPGSV,5,3,17,27,55,254,21,28,60,085,21,31,62,154,16,32,26,011,28*70
$GPGSV,5,4,17,36,52,277,28,40,84,353,40,41,58,082,,49,32,274,*72
$GPGSV,5,5,17,50,10,089,*4A
$GLGSV,3,1,09,65,25,288,21,66,08,241,11,72,19,347,23,74,15,098,08*66
$GLGSV,3,2,09,75,24,150,08,76,06,205,11,85,30,148,09,86,77,054,27*65
$GLGSV,3,3,09,87,37,347,31*55
$GNGLL,0419.72614,S,05539.75291,E,134126.00,A,D*64
$GNRMC,134127.00,A,0419.72625,S,05539.75294,E,0.248,,200525,,,D*75
$GNVTG,,T,,M,0.248,N,0.459,K,D*3E
$GNGGA,134127.00,0419.72625,S,05539.75294,E,2,12,0.66,22.1,M,-47.6,M,,0000*4B
$GNGSA,A,3,32,10,28,26,16,27,31,40,08,02,,,1.17,0.66,0.97*15
$GNGSA,A,3,85,72,75,86,65,87,66,,,,,,1.17,0.66,0.97*1D
$GPGSV,5,1,17,02,11,334,20,04,13,233,,08,28,293,29,10,13,033,18*70
$GPGSV,5,2,17,16,24,207,07,18,24,124,,23,01,071,,26,30,176,09*7B
$GPGSV,5,3,17,27,55,254,21,28,60,085,21,31,62,154,16,32,26,011,27*7F
$GPGSV,5,4,17,36,52,277,27,40,84,353,37,41,58,082,,49,32,274,*7D
$GPGSV,5,5,17,50,10,089,*4A
$GLGSV,3,1,09,65,25,288,22,66,08,241,11,72,19,347,22,74,15,098,08*64
$GLGSV,3,2,09,75,24,150,07,76,06,205,06,85,30,148,09,86,77,054,27*6C
$GLGSV,3,3,09,87,37,347,30*54
$GNGLL,0419.72625,S,05539.75294,E,134127.00,A,D*62
$GNRMC,134128.00,A,0419.72621,S,05539.75288,E,0.267,,200525,,,D*7E
$GNVTG,,T,,M,0.267,N,0.495,K,D*33
$GNGGA,134128.00,0419.72621,S,05539.75288,E,2,12,0.66,22.3,M,-47.6,M,,0000*4F
$GNGSA,A,3,32,10,28,26,16,27,31,40,08,02,,,1.17,0.66,0.97*15
$GNGSA,A,3,85,72,75,86,65,87,66,,,,,,1.17,0.66,0.97*1D
$GPGSV,5,1,17,02,11,334,20,04,13,233,,08,28,293,29,10,13,033,15*7D
$GPGSV,5,2,17,16,24,207,08,18,24,124,,23,01,071,,26,30,176,08*75
$GPGSV,5,3,17,27,55,254,21,28,60,085,21,31,62,154,17,32,26,011,28*71
$GPGSV,5,4,17,36,52,277,,40,84,353,36,41,58,082,,49,32,274,*79
$GPGSV,5,5,17,50,10,089,*4A
$GLGSV,3,1,09,65,25,288,21,66,08,241,10,72,19,347,23,74,15,098,08*67
$GLGSV,3,2,09,75,24,150,11,76,06,205,07,85,30,148,09,86,77,054,26*6B
$GLGSV,3,3,09,87,37,347,26*53
$GNGLL,0419.72621,S,05539.75288,E,134128.00,A,D*64
$GNRMC,134129.00,A,0419.72607,S,05539.75275,E,0.092,,200525,,,D*71
$GNVTG,,T,,M,0.092,N,0.171,K,D*34
$GNGGA,134129.00,0419.72607,S,05539.75275,E,2,12,0.80,22.7,M,-47.6,M,,0000*44
$GNGSA,A,3,32,10,28,26,16,27,31,40,08,02,,,1.34,0.80,1.07*14
$GNGSA,A,3,85,72,86,65,87,66,,,,,,,1.34,0.80,1.07*1E
$GPGSV,5,1,17,02,11,334,20,04,13,233,,08,28,293,29,10,13,033,16*7E
$GPGSV,5,2,17,16,24,207,09,18,24,124,,23,01,071,,26,30,176,11*7C
$GPGSV,5,3,17,27,55,254,20,28,60,085,21,31,62,154,16,32,26,011,28*71
$GPGSV,5,4,17,36,52,277,,40,84,353,39,41,58,082,,49,32,274,*76
$GPGSV,5,5,17,50,10,089,*4A
$GLGSV,3,1,09,65,25,288,22,66,08,241,09,72,19,347,21,74,15,098,10*67
$GLGSV,3,2,09,75,24,150,10,76,06,205,08,85,30,148,11,86,77,054,27*6D
$GLGSV,3,3,09,87,37,347,27*52
$GNGLL,0419.72607,S,05539.75275,E,134129.00,A,D*63
$GNRMC,134130.00,A,0419.72608,S,05539.75282,E,0.236,,200525,,,D*72
$GNVTG,,T,,M,0.236,N,0.436,K,D*3E
$GNGGA,134130.00,0419.72608,S,05539.75282,E,2,12,0.74,22.4,M,-47.6,M,,0000*43
$GNGSA,A,3,32,10,28,26,27,31,40,08,02,,,,1.27,0.74,1.03*1E
$GNGSA,A,3,85,72,86,65,87,66,,,,,,,1.27,0.74,1.03*13
$GPGSV,5,1,17,02,11,334,20,04,13,233,,08,28,292,30,10,13,033,18*79
$GPGSV,5,2,17,16,24,207,06,18,24,124,,23,01,071,,26,30,176,08*7B
$GPGSV,5,3,17,27,55,254,20,28,60,085,21,31,62,154,17,32,26,011,28*70
$GPGSV,5,4,17,36,52,277,,40,84,353,38,41,58,082,,49,32,274,*77
$GPGSV,5,5,17,50,10,089,*4A
$GLGSV,3,1,09,65,25,288,22,66,08,241,10,72,19,347,22,74,15,098,11*6D
$GLGSV,3,2,09,75,24,150,13,76,06,205,09,85,30,148,10,86,77,054,28*61
$GLGSV,3,3,09,87,37,347,29*5C
$GNGLL,0419.72608,S,05539.75282,E,134130.00,A,D*6C
$GNRMC,134131.00,A,0419.72596,S,05539.75281,E,0.149,,200525,,,D*7F
$GNVTG,,T,,M,0.149,N,0.276,K,D*37
$GNGGA,134131.00,0419.72596,S,05539.75281,E,2,12,0.71,22.8,M,-47.6,M,,0000*4C
$GNGSA,A,3,32,10,28,26,16,27,31,40,08,02,,,1.24,0.71,1.01*1D
$GNGSA,A,3,85,72,86,65,87,66,,,,,,,1.24,0.71,1.01*17
$GPGSV,5,1,17,02,11,334,19,04,13,233,,08,28,292,29,10,13,033,17*74
$GPGSV,5,2,17,16,24,207,11,18,24,124,,23,01,071,,26,30,176,09*7C
$GPGSV,5,3,17,27,55,254,21,28,60,085,21,31,62,154,19,32,26,011,28*7F
$GPGSV,5,4,17,36,52,277,,40,84,353,37,41,58,082,,49,32,274,*78
$GPGSV,5,5,17,50,10,089,*4A
$GLGSV,3,1,09,65,25,288,22,66,08,241,11,72,19,347,23,74,15,098,08*65
$GLGSV,3,2,09,75,24,150,08,76,06,205,11,85,30,148,10,86,77,054,28*62
$GLGSV,3,3,09,87,37,347,31*55
$GNGLL,0419.72596,S,05539.75281,E,134131.00,A,D*6A
$GNRMC,134132.00,A,0419.72631,S,05539.75299,E,0.055,,200525,,,D*77
$GNVTG,,T,,M,0.055,N,0.102,K,D*3B
$GNGGA,134132.00,0419.72631,S,05539.75299,E,2,12,0.72,21.6,M,-47.6,M,,0000*46
$GNGSA,A,3,32,10,28,26,16,27,31,40,08,02,,,1.22,0.72,0.99*18
$GNGSA,A,3,85,72,75,86,65,87,76,66,,,,,1.22,0.72,0.99*11
$GPGSV,5,1,17,02,11,334,19,04,13,233,,08,28,292,29,10,13,033,18*7B
$GPGSV,5,2,17,16,24,207,10,18,24,124,,23,01,071,,26,30,176,09*7D
$GPGSV,5,3,17,27,55,254,21,28,60,085,21,31,62,154,19,32,26,011,28*7F
$GPGSV,5,4,17,36,52,277,,40,84,353,38,41,58,082,,49,32,274,*77
$GPGSV,5,5,17,50,10,089,*4A
$GLGSV,3,1,09,65,25,288,22,66,08,241,12,72,19,347,22,74,15,098,08*67
$GLGSV,3,2,09,75,24,150,09,76,06,205,08,85,30,148,12,86,77,054,29*68
$GLGSV,3,3,09,87,37,347,30*54
$GNGLL,0419.72631,S,05539.75299,E,134132.00,A,D*6E
$GNRMC,134133.00,A,0419.72640,S,05539.75306,E,0.247,,200525,,,D*76
$GNVTG,,T,,M,0.247,N,0.457,K,D*3F
$GNGGA,134133.00,0419.72640,S,05539.75306,E,2,12,0.69,21.3,M,-47.6,M,,0000*49
$GNGSA,A,3,32,10,28,26,27,31,40,08,02,,,,1.20,0.69,0.98*16
$GNGSA,A,3,85,72,75,86,65,87,76,66,,,,,1.20,0.69,0.98*18
$GPGSV,5,1,17,02,11,334,20,04,13,233,,08,28,292,30,10,13,033,19*78
$GPGSV,5,2,17,16,24,207,07,18,24,124,,23,01,071,,26,30,176,13*70
$GPGSV,5,3,17,27,55,254,21,28,60,085,21,31,62,154,18,32,26,011,30*77
$GPGSV,5,4,17,36,52,277,,40,84,353,39,41,58,082,,49,32,274,*76
$GPGSV,5,5,17,50,10,089,*4A
$GLGSV,3,1,09,65,25,288,22,66,08,241,10,72,19,347,22,74,15,098,10*6C
$GLGSV,3,2,09,75,24,150,10,76,06,205,08,85,30,148,13,86,77,054,29*61
$GLGSV,3,3,09,87,37,347,29*5C
$GNGLL,0419.72640,S,05539.75306,E,134133.00,A,D*6E
$GNRMC,134134.00,A,0419.72661,S,05539.75319,E,0.097,,200525,,,D*73
$GNVTG,,T,,M,0.097,N,0.180,K,D*3F
$GNGGA,134134.00,0419.72661,S,05539.75319,E,2,12,0.65,20.5,M,-47.6,M,,0000*48
$GNGSA,A,3,32,10,28,26,16,27,31,40,08,02,,,1.11,0.65,0.90*17
$GNGSA,A,3,85,72,75,86,65,87,76,66,,,,,1.11,0.65,0.90*1E
$GPGSV,5,1,17,02,11,334,19,04,13,233,,08,28,292,29,10,13,033,18*7B
$GPGSV,5,2,17,16,24,207,12,18,24,124,,23,01,071,,26,30,176,09*7F
$GPGSV,5,3,17,27,55,254,22,28,60,085,22,31,62,154,18,32,26,011,30*77
$GPGSV,5,4,17,36,52,277,,40,84,353,39,41,58,082,,49,32,274,*76
$GPGSV,5,5,17,50,10,089,*4A
$GLGSV,3,1,09,65,25,288,23,66,08,241,10,72,19,347,21,74,15,098,09*66
$GLGSV,3,2,09,75,24,150,11,76,06,205,11,85,30,148,09,86,77,054,29*63
$GLGSV,3,3,09,87,37,347,28*5D
$GNGLL,0419.72661,S,05539.75319,E,134134.00,A,D*64
$GNRMC,134135.00,A,0419.72652,S,05539.75319,E,0.157,,200525,,,D*7F
$GNVTG,,T,,M,0.157,N,0.291,K,D*31
$GNGGA,134135.00,0419.72652,S,05539.75319,E,2,12,0.80,20.5,M,-47.6,M,,0000*42
$GNGSA,A,3,32,10,28,26,16,27,31,40,08,02,,,1.34,0.80,1.07*14
$GNGSA,A,3,85,72,75,86,65,87,66,,,,,,1.34,0.80,1.07*1C
$GPGSV,5,1,17,02,11,334,18,04,13,233,,08,28,292,30,10,13,033,20*79
$GPGSV,5,2,17,16,24,207,08,18,24,124,,23,01,071,,26,30,176,09*74
$GPGSV,5,3,17,27,55,254,21,28,60,085,22,31,62,154,18,32,26,011,29*7C
$GPGSV,5,4,17,36,52,277,,40,84,353,39,41,58,082,,49,32,274,*76
$GPGSV,5,5,17,50,10,089,*4A
$GLGSV,3,1,09,65,25,288,23,66,08,241,10,72,19,347,20,74,15,098,11*6E
$GLGSV,3,2,09,75,24,150,11,76,06,205,10,85,30,148,10,86,77,054,29*6A
$GLGSV,3,3,09,87,37,347,28*5D
$GNGLL,0419.72652,S,05539.75319,E,134135.00,A,D*65
$GNRMC,134136.00,A,0419.72633,S,05539.75306,E,0.156,,200525,,,D*74
$GNVTG,,T,,M,0.156,N,0.289,K,D*39
$GNGGA,134136.00,0419.72633,S,05539.75306,E,2,12,0.66,21.1,M,-47.6,M,,0000*45
$GNGSA,A,3,32,10,28,26,16,27,31,40,08,02,,,1.17,0.66,0.97*15
$GNGSA,A,3,85,72,75,86,65,87,66,,,,,,1.17,0.66,0.97*1D
$GPGSV,5,1,17,02,11,334,18,04,13,233,,08,28,292,30,10,13,033,19*73
$GPGSV,5,2,17,16,24,207,12,18,24,124,,23,01,071,,26,30,176,10*77
$GPGSV,5,3,17,27,55,254,21,28,60,085,22,31,62,154,18,32,26,011,28*7D
$GPGSV,5,4,17,36,52,277,,40,84,353,39,41,58,082,,49,32,274,*76
$GPGSV,5,5,17,50,10,089,*4A
$GLGSV,3,1,09,65,25,288,22,66,08,241,10,72,19,347,21,74,15,098,10*6F
$GLGSV,3,2,09,75,24,150,09,76,06,205,11,85,30,148,11,86,77,054,28*62
$GLGSV,3,3,09,87,37,347,28*5D
$GNGLL,0419.72633,S,05539.75306,E,134136.00,A,D*6F
$GNRMC,134137.00,A,0419.72637,S,05539.75307,E,0.313,,200525,,,D*73
$GNVTG,,T,,M,0.313,N,0.580,K,D*34
$GNGGA,134137.00,0419.72637,S,05539.75307,E,2,12,0.66,21.1,M,-47.6,M,,0000*41
$GNGSA,A,3,32,10,28,26,16,27,31,40,08,02,,,1.17,0.66,0.97*15
$GNGSA,A,3,85,72,75,86,65,87,66,,,,,,1.17,0.66,0.97*1D
$GPGSV,5,1,17,02,11,334,17,04,13,233,,08,28,292,30,10,13,033,18*7D
$GPGSV,5,2,17,16,24,207,09,18,24,124,,23,01,071,,26,30,176,10*7D
$GPGSV,5,3,17,27,55,254,20,28,60,085,21,31,62,154,18,32,26,011,27*70
$GPGSV,5,4,17,36,52,277,,40,84,353,37,41,58,082,,49,32,274,*78
$GPGSV,5,5,17,50,10,089,*4A
$GLGSV,3,1,09,65,25,288,22,66,08,241,11,72,19,347,22,74,15,098,09*65
$GLGSV,3,2,09,75,24,150,10,76,06,205,10,85,30,148,08,86,77,054,28*63
$GLGSV,3,3,09,87,37,347,29*5C
$GNGLL,0419.72637,S,05539.75307,E,134137.00,A,D*6B
$GNRMC,134138.00,A,0419.72634,S,05539.75298,E,0.357,,200525,,,D*78
$GNVTG,,T,,M,0.357,N,0.661,K,D*38
$GNGGA,134138.00,0419.72634,S,05539.75298,E,2,12,0.92,21.4,M,-47.6,M,,0000*44
$GNGSA,A,3,32,10,28,26,16,27,31,40,08,02,,,1.58,0.92,1.29*11
$GNGSA,A,3,85,72,75,86,65,87,,,,,,,1.58,0.92,1.29*19
$GPGSV,5,1,17,02,11,334,17,04,13,233,,08,28,292,29,10,13,033,18*75
$GPGSV,5,2,17,16,24,206,10,18,24,124,,23,01,071,,26,30,176,09*7C
$GPGSV,5,3,17,27,55,254,19,28,60,085,21,31,62,154,18,32,26,011,25*78
$GPGSV,5,4,17,36,52,277,,40,84,353,37,41,58,082,,49,32,274,*78
$GPGSV,5,5,17,50,10,089,*4A
$GLGSV,3,1,09,65,25,288,21,66,08,241,07,72,19,347,21,74,15,098,08*63
$GLGSV,3,2,09,75,24,150,10,76,06,205,07,85,30,148,12,86,77,054,27*61
$GLGSV,3,3,09,87,37,347,28*5D
$GNGLL,0419.72634,S,05539.75298,E,134138.00,A,D*60
$GNRMC,134139.00,A,0419.72614,S,05539.75285,E,0.116,,200525,,,D*70
$GNVTG,,T,,M,0.116,N,0.214,K,D*39
$GNGGA,134139.00,0419.72614,S,05539.75285,E,2,12,0.75,22.2,M,-47.6,M,,0000*47
$GNGSA,A,3,32,10,28,16,27,31,40,08,02,,,,1.28,0.75,1.03*13
$GNGSA,A,3,85,72,86,65,87,66,,,,,,,1.28,0.75,1.03*1D
$GPGSV,5,1,17,02,11,334,18,04,13,233,,08,28,292,30,10,13,033,19*73
$GPGSV,5,2,17,16,24,206,10,18,24,124,,23,01,071,,26,30,176,07*72
$GPGSV,5,3,17,27,55,254,19,28,60,085,20,31,62,154,18,32,26,011,27*7B
$GPGSV,5,4,17,36,52,277,,40,84,353,39,41,58,082,,49,32,274,*76
$GPGSV,5,5,17,50,10,089,*4A
$GLGSV,3,1,09,65,25,288,20,66,08,241,08,72,19,347,21,74,15,098,08*6D
$GLGSV,3,2,09,75,24,150,06,76,06,205,07,85,30,148,11,86,77,054,27*65
$GLGSV,3,3,09,87,37,347,28*5D
$GNGLL,0419.72614,S,05539.75285,E,134139.00,A,D*6F
$GNRMC,134140.00,A,0419.72617,S,05539.75281,E,0.329,,200525,,,D*77
$GNVTG,,T,,M,0.329,N,0.609,K,D*3F
$GNGGA,134140.00,0419.72617,S,05539.75281,E,2,12,0.66,22.6,M,-47.6,M,,0000*48
$GNGSA,A,3,32,10,28,26,16,27,31,40,08,02,,,1.17,0.66,0.97*15
$GNGSA,A,3,85,72,75,86,65,87,66,,,,,,1.17,0.66,0.97*1D
$GPGSV,5,1,17,02,11,334,16,04,13,233,,08,28,292,29,10,13,033,18*74
$GPGSV,5,2,17,16,24,206,11,18,24,124,,23,01,071,,26,30,176,09*7D
$GPGSV,5,3,17,27,55,254,18,28,60,085,20,31,62,154,17,32,26,011,25*77
$GPGSV,5,4,17,36,52,277,,40,84,353,36,41,58,082,,49,32,274,*79
$GPGSV,5,5,17,50,10,089,*4A
$GLGSV,3,1,09,65,25,288,19,66,08,241,14,72,19,347,21,74,15,098,09*6B
$GLGSV,3,2,09,75,24,150,09,76,06,205,06,85,30,148,09,86,77,054,26*63
$GLGSV,3,3,09,87,37,347,28*5D
$GNGLL,0419.72617,S,05539.75281,E,134140.00,A,D*66
$GNRMC,134141.00,A,0419.72612,S,05539.75275,E,0.303,,200525,,,D*70
$GNVTG,,T,,M,0.303,N,0.561,K,D*3A
$GNGGA,134141.00,0419.72612,S,05539.75275,E,2,12,0.74,22.8,M,-47.6,M,,0000*4A
$GNGSA,A,3,32,10,28,26,16,27,31,40,08,02,,,1.27,0.74,1.03*19
$GNGSA,A,3,85,72,75,86,65,87,66,,,,,,1.27,0.74,1.03*11
$GPGSV,5,1,17,02,11,334,18,04,13,233,,08,28,292,29,10,13,033,18*7A
$GPGSV,5,2,17,16,24,206,09,18,24,124,,23,01,071,,26,30,176,10*7C
$GPGSV,5,3,17,27,55,254,18,28,60,085,20,31,62,154,17,32,26,011,27*75
$GPGSV,5,4,17,36,52,277,,40,84,353,38,41,58,082,,49,32,274,*77
$GPGSV,5,5,17,50,10,089,*4A
$GLGSV,3,1,09,65,25,288,20,66,08,241,09,72,19,347,21,74,15,098,10*65
$GLGSV,3,2,09,75,24,150,10,76,06,205,09,85,30,148,09,86,77,054,28*6A
$GLGSV,3,3,09,87,37,347,29*5C
$GNGLL,0419.72612,S,05539.75275,E,134141.00,A,D*69
$GNRMC,134142.00,A,0419.72611,S,05539.75275,E,0.200,,200525,,,D*72
$GNVTG,,T,,M,0.200,N,0.370,K,D*3E
$GNGGA,134142.00,0419.72611,S,05539.75275,E,2,12,0.66,22.7,M,-47.6,M,,0000*46
$GNGSA,A,3,32,10,28,26,16,27,31,40,08,02,,,1.17,0.66,0.97*15
$GNGSA,A,3,85,72,75,86,65,87,66,,,,,,1.17,0.66,0.97*1D
$GPGSV,5,1,17,02,11,334,17,04,13,233,,08,28,292,29,10,13,033,19*74
$GPGSV,5,2,17,16,24,206,07,18,24,124,,23,01,071,,26,30,176,09*7A
$GPGSV,5,3,17,27,55,254,17,28,60,085,21,31,62,154,18,32,26,011,27*74
$GPGSV,5,4,17,36,52,277,,40,84,353,38,41,58,082,,49,32,274,*77
$GPGSV,5,5,17,50,10,089,*4A
$GLGSV,3,1,09,65,25,288,21,66,08,241,09,72,19,347,20,74,15,098,13*66
$GLGSV,3,2,09,75,24,150,11,76,06,205,11,85,30,148,10,86,77,054,29*6B
$GLGSV,3,3,09,87,37,347,28*5D
$GNGLL,0419.72611,S,05539.75275,E,134142.00,A,D*69
$GNRMC,134143.00,A,0419.72606,S,05539.75281,E,0.343,,200525,,,D*78
$GNVTG,,T,,M,0.343,N,0.635,K,D*3C
$GNGGA,134143.00,0419.72606,S,05539.75281,E,2,12,0.66,22.7,M,-47.6,M,,0000*4A
$GNGSA,A,3,32,10,28,26,16,27,31,40,08,02,,,1.17,0.66,0.97*15
$GNGSA,A,3,85,72,75,86,65,87,66,,,,,,1.17,0.66,0.97*1D
$GPGSV,5,1,17,02,11,334,20,04,13,233,,08,28,292,30,10,13,033,19*78
$GPGSV,5,2,17,16,24,206,09,18,24,124,,23,01,071,,26,30,176,09*74
$GPGSV,5,3,17,27,55,254,17,28,60,085,20,31,62,154,20,32,26,011,24*7D
$GPGSV,5,4,17,36,52,277,,40,84,353,41,41,58,082,,49,32,274,*79
$GPGSV,5,5,17,50,10,089,*4A
$GLGSV,3,1,09,65,25,288,22,66,08,241,09,72,19,347,23,74,15,098,09*6D
$GLGSV,3,2,09,75,24,150,11,76,06,205,11,85,30,148,11,86,77,054,30*62
$GLGSV,3,3,09,87,37,347,27*52
$GNGLL,0419.72606,S,05539.75281,E,134143.00,A,D*65
$GNRMC,134144.00,A,0419.72592,S,05539.75284,E,0.548,,200525,,,D*79
$GNVTG,,T,,M,0.548,N,1.015,K,D*34
$GNGGA,134144.00,0419.72592,S,05539.75284,E,2,12,0.80,22.9,M,-47.6,M,,0000*40
$GNGSA,A,3,32,10,28,26,16,27,31,40,08,02,,,1.34,0.80,1.07*14
$GNGSA,A,3,85,72,75,86,65,87,76,66,,,,,1.34,0.80,1.07*1D
$GPGSV,5,1,17,02,11,334,21,04,13,233,,08,28,292,30,10,13,033,20*73
$GPGSV,5,2,17,16,24,206,11,18,24,124,,23,01,072,,26,30,176,08*7F
$GPGSV,5,3,17,27,55,254,18,28,60,085,18,31,62,154,21,32,26,011,21*7D
$GPGSV,5,4,17,36,52,277,,40,84,353,41,41,58,082,,49,32,274,*79
$GPGSV,5,5,17,50,10,089,*4A
$GLGSV,3,1,09,65,25,288,23,66,08,241,11,72,19,347,25,74,15,098,08*62
$GLGSV,3,2,09,75,24,150,11,76,06,205,09,85,30,148,13,86,77,054,30*69
$GLGSV,3,3,09,87,37,347,26*53
$GNGLL,0419.72592,S,05539.75284,E,134144.00,A,D*69
$GNRMC,134145.00,A,0419.72598,S,05539.75293,E,0.172,,200525,,,D*79
$GNVTG,,T,,M,0.172,N,0.318,K,D*36
$GNGGA,134145.00,0419.72598,S,05539.75293,E,2,12,0.66,22.9,M,-47.6,M,,0000*45
$GNGSA,A,3,32,10,28,26,16,27,31,40,08,02,,,1.17,0.66,0.97*15
$GNGSA,A,3,85,72,75,86,65,87,76,66,,,,,1.17,0.66,0.97*1C
$GPGSV,5,1,17,02,11,334,22,04,13,233,,08,28,292,30,10,13,033,22*72
$GPGSV,5,2,17,16,24,206,08,18,24,124,,23,01,072,,26,30,176,10*7E
$GPGSV,5,3,17,27,55,254,17,28,60,085,16,31,62,154,21,32,26,011,20*7D
$GPGSV,5,4,17,36,52,277,32,40,84,353,40,41,58,082,,49,32,274,*79
$GPGSV,5,5,17,50,10,089,*4A
$GLGSV,3,1,09,65,25,288,22,66,08,241,10,72,19,347,26,74,15,098,09*60
$GLGSV,3,2,09,75,24,150,10,76,06,205,13,85,30,148,10,86,77,054,30*60
$GLGSV,3,3,09,87,37,347,26*53
$GNGLL,0419.72598,S,05539.75293,E,134145.00,A,D*64
$GNRMC,134146.00,A,0419.72599,S,05539.75298,E,0.094,,200525,,,D*79
$GNVTG,,T,,M,0.094,N,0.173,K,D*30
$GNGGA,134146.00,0419.72599,S,05539.75298,E,2,12,0.65,23.5,M,-47.6,M,,0000*42
$GNGSA,A,3,32,10,28,26,16,27,31,40,08,02,,,1.11,0.65,0.90*17
$GNGSA,A,3,85,72,75,86,65,87,76,66,,,,,1.11,0.65,0.90*1E
$GPGSV,5,1,17,02,11,334,24,04,13,233,,08,28,292,31,10,13,033,23*74
$GPGSV,5,2,17,16,24,206,09,18,24,124,,23,01,072,,26,30,176,10*7F
$GPGSV,5,3,17,27,55,254,16,28,60,085,17,31,62,154,21,32,26,011,22*7F
$GPGSV,5,4,17,36,52,277,32,40,84,353,40,41,58,082,,49,32,274,*79
$GPGSV,5,5,17,50,10,089,*4A
$GLGSV,3,1,09,65,25,288,22,66,08,241,11,72,19,347,27,74,15,098,09*60
$GLGSV,3,2,09,75,24,150,11,76,06,205,11,85,30,148,11,86,77,054,30*62
$GLGSV,3,3,09,87,37,347,26*53
$GNGLL,0419.72599,S,05539.75298,E,134146.00,A,D*6D
$GNRMC,134147.00,A,0419.72589,S,05539.75298,E,0.088,,200525,,,D*74
$GNVTG,,T,,M,0.088,N,0.164,K,D*3B
$GNGGA,134147.00,0419.72589,S,05539.75298,E,2,12,1.41,24.1,M,-47.6,M,,0000*46
$GNGSA,A,3,32,10,28,16,27,31,40,08,02,,,,2.41,1.41,1.96*15
$GNGSA,A,3,85,72,75,86,65,87,76,66,,,,,2.41,1.41,1.96*18
$GPGSV,5,1,17,02,11,334,24,04,13,233,,08,28,292,32,10,13,033,20*74
$GPGSV,5,2,17,16,24,206,08,18,24,124,,23,01,072,,26,30,176,07*78
$GPGSV,5,3,17,27,55,254,17,28,60,085,20,31,62,154,21,32,26,011,26*7E
$GPGSV,5,4,17,36,52,277,32,40,84,353,41,41,58,082,,49,32,274,*78
$GPGSV,5,5,17,50,10,089,*4A
$GLGSV,3,1,09,65,25,288,22,66,08,241,10,72,19,347,25,74,15,098,12*69
$GLGSV,3,2,09,75,24,150,11,76,06,205,09,85,30,148,10,86,77,054,30*6A
$GLGSV,3,3,09,87,37,347,26*53
$GNGLL,0419.72589,S,05539.75298,E,134147.00,A,D*6D
$GNRMC,134148.00,A,0419.72558,S,05539.75277,E,0.078,,200525,,,D*79
$GNVTG,,T,,M,0.078,N,0.144,K,D*36
$GNGGA,134148.00,0419.72558,S,05539.75277,E,2,12,0.66,25.2,M,-47.6,M,,0000*42
$GNGSA,A,3,32,10,28,26,16,27,31,40,08,02,,,1.17,0.66,0.97*15
$GNGSA,A,3,85,72,75,86,65,87,76,66,,,,,1.17,0.66,0.97*1C
$GPGSV,5,1,17,02,11,334,22,04,13,233,,08,28,292,32,10,13,033,19*78
$GPGSV,5,2,17,16,24,206,08,18,24,124,,23,01,072,,26,30,176,09*76
$GPGSV,5,3,17,27,55,252,17,28,60,085,20,31,62,154,20,32,26,011,27*78
$GPGSV,5,4,17,36,52,277,32,40,84,353,41,41,58,082,,49,32,274,*78
$GPGSV,5,5,17,50,10,089,*4A
$GLGSV,3,1,09,65,25,288,22,66,08,241,10,72,19,347,23,74,15,098,10*6D
$GLGSV,3,2,09,75,24,150,10,76,06,205,09,85,30,148,09,86,77,054,30*63
$GLGSV,3,3,09,87,37,347,26*53
$GNGLL,0419.72558,S,05539.75277,E,134148.00,A,D*6F
