$GNRMC,133614.00,A,0419.72118,S,05539.73783,E,0.056,,200525,,,D*74
$GNVTG,,T,,M,0.056,N,0.103,K,D*39
$GNGGA,133614.00,0419.72118,S,05539.73783,E,2,12,0.59,8.3,M,-47.6,M,,0000*71
$GNGSA,A,3,32,18,10,28,26,16,27,31,40,08,04,02,1.06,0.59,0.88*1A
$GNGSA,A,3,85,72,75,86,65,87,76,66,,,,,1.06,0.59,0.88*1E
$GPGSV,5,1,17,02,09,334,33,04,12,231,29,08,27,295,32,10,13,030,29*71
$GPGSV,5,2,17,16,24,209,32,18,25,122,28,23,01,069,14,26,29,179,29*77
$GPGSV,5,3,17,27,56,258,31,28,60,090,29,31,60,158,33,32,28,010,34*79
$GPGSV,5,4,17,36,52,277,35,40,84,353,34,41,58,082,30,49,32,274,*7E
$GPGSV,5,5,17,50,10,089,*4A
$GLGSV,3,1,09,65,26,285,37,66,08,239,37,72,20,345,29,74,15,100,08*66
$GLGSV,3,2,09,75,23,152,13,76,05,207,14,85,32,146,27,86,74,043,38*65
$GLGSV,3,3,09,87,34,347,29*5F
$GNGLL,0419.72118,S,05539.73783,E,133614.00,A,D*6E
$GNRMC,133615.00,A,0419.72119,S,05539.73783,E,0.064,,200525,,,D*75
$GNVTG,,T,,M,0.064,N,0.119,K,D*33
$GNGGA,133615.00,0419.72119,S,05539.73783,E,2,12,0.60,8.4,M,-47.6,M,,0000*7C
$GNGSA,A,3,32,18,10,28,26,16,27,31,40,08,04,02,1.19,0.60,1.03*1C
$GNGSA,A,3,85,72,75,86,65,87,76,66,,,,,1.19,0.60,1.03*18
$GPGSV,5,1,17,02,09,334,32,04,12,231,24,08,27,295,28,10,13,030,23*7C
$GPGSV,5,2,17,16,24,209,32,18,25,122,26,23,01,069,12,26,29,179,29*7F
$GPGSV,5,3,17,27,56,258,31,28,60,090,28,31,60,158,30,32,28,010,32*7D
$GPGSV,5,4,17,36,52,277,34,40,84,353,33,41,58,082,33,49,32,274,*7B
$GPGSV,5,5,17,50,10,089,*4A
$GLGSV,3,1,09,65,26,285,35,66,08,239,38,72,20,345,27,74,15,100,10*6C
$GLGSV,3,2,09,75,23,152,09,76,05,207,09,85,32,146,25,86,74,043,36*6E
$GLGSV,3,3,09,87,34,347,30*57
$GNGLL,0419.72119,S,05539.73783,E,133615.00,A,D*6E
$GNRMC,133616.00,A,0419.72116,S,05539.73780,E,0.031,,200525,,,D*7A
$GNVTG,,T,,M,0.031,N,0.057,K,D*38
$GNGGA,133616.00,0419.72116,S,05539.73780,E,2,12,0.60,8.6,M,-47.6,M,,0000*71
$GNGSA,A,3,32,18,10,28,26,16,27,31,40,08,04,02,1.19,0.60,1.03*1C
$GNGSA,A,3,85,72,75,86,65,87,76,66,,,,,1.19,0.60,1.03*18
$GPGSV,5,1,17,02,09,334,33,04,12,231,31,08,27,295,33,10,13,030,24*74
$GPGSV,5,2,17,16,24,209,37,18,25,122,28,23,01,069,,26,29,179,29*77
$GPGSV,5,3,17,27,56,258,34,28,60,090,30,31,60,158,34,32,28,010,36*71
$GPGSV,5,4,17,36,52,277,38,40,84,353,38,41,58,082,36,49,32,274,*79
$GPGSV,5,5,17,50,10,089,*4A
$GLGSV,3,1,09,65,26,285,41,66,08,239,43,72,20,345,27,74,15,100,08*6A
$GLGSV,3,2,09,75,23,152,12,76,05,207,11,85,32,146,26,86,74,043,41*6E
$GLGSV,3,3,09,87,34,347,34*53
$GNGLL,0419.72116,S,05539.73780,E,133616.00,A,D*61
$GNRMC,133617.00,A,0419.72116,S,05539.73779,E,0.045,,200525,,,D*7E
$GNVTG,,T,,M,0.045,N,0.083,K,D*32
$GNGGA,133617.00,0419.72116,S,05539.73779,E,2,12,0.61,8.8,M,-47.6,M,,0000*79
$GNGSA,A,3,32,18,10,28,26,16,27,31,40,08,04,02,1.08,0.61,0.89*1E
$GNGSA,A,3,85,72,75,86,65,87,76,66,,,,,1.08,0.61,0.89*1A
$GPGSV,5,1,17,02,09,334,33,04,12,231,30,08,27,295,38,10,13,030,26*7C
$GPGSV,5,2,17,16,24,209,38,18,25,122,29,23,01,069,,26,29,179,28*78
$GPGSV,5,3,17,27,56,258,38,28,60,090,30,31,60,158,37,32,28,010,34*7C
$GPGSV,5,4,17,36,52,277,41,40,84,353,42,41,58,082,40,49,32,274,*7B
$GPGSV,5,5,17,50,10,089,*4A
$GLGSV,3,1,09,65,26,285,40,66,08,239,41,72,20,345,32,74,15,100,09*6C
$GLGSV,3,2,09,75,23,152,14,76,05,207,10,85,32,146,28,86,74,043,38*69
$GLGSV,3,3,09,87,34,347,34*53
$GNGLL,0419.72116,S,05539.73779,E,133617.00,A,D*66
$GNRMC,133618.00,A,0419.72116,S,05539.73782,E,0.065,,200525,,,D*77
$GNVTG,,T,,M,0.065,N,0.120,K,D*38
$GNGGA,133618.00,0419.72116,S,05539.73782,E,2,12,0.60,8.8,M,-47.6,M,,0000*73
$GNGSA,A,3,32,18,10,28,26,16,27,31,40,08,04,02,1.10,0.60,0.92*1C
$GNGSA,A,3,85,72,75,86,65,87,76,66,,,,,1.10,0.60,0.92*18
$GPGSV,5,1,17,02,09,334,37,04,12,231,30,08,27,295,40,10,13,030,28*79
$GPGSV,5,2,17,16,24,209,42,18,25,122,32,23,01,069,,26,29,179,35*73
$GPGSV,5,3,17,27,56,258,40,28,60,090,37,31,60,158,36,32,28,010,32*73
$GPGSV,5,4,17,36,52,277,42,40,84,353,43,41,58,082,42,49,32,274,*7B
$GPGSV,5,5,17,50,10,089,*4A
$GLGSV,3,1,09,65,26,285,40,66,08,239,42,72,20,345,34,74,15,100,10*61
$GLGSV,3,2,09,75,23,152,12,76,05,207,15,85,32,146,16,86,74,043,34*6B
$GLGSV,3,3,09,87,34,347,32*55
$GNGLL,0419.72116,S,05539.73782,E,133618.00,A,D*6D
$GNRMC,133619.00,A,0419.72118,S,05539.73780,E,0.039,,200525,,,D*73
$GNVTG,,T,,M,0.039,N,0.072,K,D*37
$GNGGA,133619.00,0419.72118,S,05539.73780,E,2,12,0.60,8.8,M,-47.6,M,,0000*7E
$GNGSA,A,3,32,18,10,28,26,16,27,31,40,08,04,02,1.10,0.60,0.92*1C
$GNGSA,A,3,85,72,75,86,65,87,76,66,,,,,1.10,0.60,0.92*18
$GPGSV,5,1,17,02,09,334,37,04,12,231,31,08,27,295,41,10,13,030,28*79
$GPGSV,5,2,17,16,24,209,43,18,25,122,33,23,01,069,,26,29,179,34*72
$GPGSV,5,3,17,27,56,258,40,28,60,090,37,31,60,158,37,32,28,010,30*70
$GPGSV,5,4,17,36,52,277,42,40,84,353,42,41,58,082,41,49,32,274,*79
$GPGSV,5,5,17,50,10,089,*4A
$GLGSV,3,1,09,65,26,285,40,66,08,239,41,72,20,345,35,74,15,100,07*65
$GLGSV,3,2,09,75,23,152,14,76,05,207,10,85,32,146,21,86,74,043,35*6D
$GLGSV,3,3,09,87,34,347,31*56
$GNGLL,0419.72118,S,05539.73780,E,133619.00,A,D*60
$GNRMC,133620.00,A,0419.72121,S,05539.73780,E,0.241,,200525,,,D*7E
$GNVTG,,T,,M,0.241,N,0.446,K,D*39
$GNGGA,133620.00,0419.72121,S,05539.73780,E,2,12,0.60,8.7,M,-47.6,M,,0000*71
$GNGSA,A,3,32,18,10,28,26,16,27,31,40,08,04,02,1.10,0.60,0.92*1C
$GNGSA,A,3,85,72,75,86,65,87,76,66,,,,,1.10,0.60,0.92*18
$GPGSV,5,1,17,02,09,334,34,04,12,231,31,08,27,295,31,10,13,030,33*77
$GPGSV,5,2,17,16,24,209,39,18,25,122,28,23,01,069,,26,29,179,30*71
$GPGSV,5,3,17,27,56,258,41,28,60,090,34,31,60,158,37,32,28,010,34*76
$GPGSV,5,4,17,36,52,277,41,40,84,353,41,41,58,082,38,49,32,274,*77
$GPGSV,5,5,17,50,10,089,*4A
$GLGSV,3,1,09,65,26,285,37,66,08,239,40,72,20,345,30,74,15,100,09*6F
$GLGSV,3,2,09,75,23,152,14,76,05,207,09,85,32,146,24,86,75,045,36*64
$GLGSV,3,3,09,87,34,347,31*56
$GNGLL,0419.72121,S,05539.73780,E,133620.00,A,D*60
$GNRMC,133621.00,A,0419.72121,S,05539.73780,E,0.042,,200525,,,D*7E
$GNVTG,,T,,M,0.042,N,0.078,K,D*31
$GNGGA,133621.00,0419.72121,S,05539.73780,E,2,12,0.60,8.7,M,-47.6,M,,0000*70
$GNGSA,A,3,32,18,10,28,26,16,27,31,40,08,04,02,1.10,0.60,0.92*1C
$GNGSA,A,3,85,72,75,86,65,87,76,66,,,,,1.10,0.60,0.92*18
$GPGSV,5,1,17,02,09,334,34,04,12,231,31,08,27,295,30,10,13,030,35*70
$GPGSV,5,2,17,16,24,209,40,18,25,122,28,23,01,069,,26,29,179,32*7D
$GPGSV,5,3,17,27,56,258,35,28,60,090,33,31,60,158,34,32,28,010,38*7D
$GPGSV,5,4,17,36,52,277,37,40,84,353,38,41,58,082,38,49,32,274,*78
$GPGSV,5,5,17,50,10,089,*4A
$GLGSV,3,1,09,65,26,285,39,66,08,239,43,72,20,345,23,74,15,100,10*68
$GLGSV,3,2,09,75,23,152,19,76,05,207,12,85,32,146,23,86,75,045,38*6A
$GLGSV,3,3,09,87,34,347,30*57
$GNGLL,0419.72121,S,05539.73780,E,133621.00,A,D*61
$GNRMC,133622.00,A,0419.72118,S,05539.73784,E,0.093,,200525,,,D*7F
$GNVTG,,T,,M,0.093,N,0.172,K,D*36
$GNGGA,133622.00,0419.72118,S,05539.73784,E,2,12,0.60,8.4,M,-47.6,M,,0000*7E
$GNGSA,A,3,32,18,10,28,26,16,27,31,40,08,04,02,1.10,0.60,0.92*1C
$GNGSA,A,3,85,72,75,86,65,87,76,66,,,,,1.10,0.60,0.92*18
$GPGSV,5,1,17,02,09,334,28,04,12,231,30,08,27,295,36,10,13,030,30*7F
$GPGSV,5,2,17,16,24,209,41,18,25,122,33,23,01,069,,26,29,179,35*71
$GPGSV,5,3,17,27,56,258,41,28,60,090,37,31,60,158,37,32,28,010,38*79
$GPGSV,5,4,17,36,52,277,41,40,84,353,38,41,58,082,38,49,32,274,*79
$GPGSV,5,5,17,50,10,089,*4A
$GLGSV,3,1,09,65,26,285,39,66,08,239,43,72,20,345,23,74,15,100,11*69
$GLGSV,3,2,09,75,23,152,16,76,05,207,12,85,32,146,24,86,75,045,36*6C
$GLGSV,3,3,09,87,34,347,29*5F
$GNGLL,0419.72118,S,05539.73784,E,133622.00,A,D*6C
$GNRMC,133623.00,A,0419.72118,S,05539.73781,E,0.092,,200525,,,D*7A
$GNVTG,,T,,M,0.092,N,0.170,K,D*35
$GNGGA,133623.00,0419.72118,S,05539.73781,E,2,12,0.59,8.6,M,-47.6,M,,0000*72
$GNGSA,A,3,32,18,10,28,26,16,27,31,40,08,04,02,1.06,0.59,0.88*1A
$GNGSA,A,3,85,72,75,86,65,87,76,66,,,,,1.06,0.59,0.88*1E
$GPGSV,5,1,17,02,09,334,37,04,12,231,29,08,27,295,38,10,13,030,38*7F
$GPGSV,5,2,17,16,24,209,39,18,25,122,32,23,01,069,,26,29,179,35*7F
$GPGSV,5,3,17,27,56,258,33,28,60,090,34,31,60,158,36,32,28,010,33*75
$GPGSV,5,4,17,36,52,277,38,40,84,353,39,41,58,082,39,49,32,274,*77
$GPGSV,5,5,17,50,10,089,*4A
$GLGSV,3,1,09,65,26,285,39,66,08,239,41,72,20,345,30,74,15,100,11*69
$GLGSV,3,2,09,75,23,152,16,76,05,207,12,85,32,146,25,86,75,045,34*6F
$GLGSV,3,3,09,87,34,347,23*55
$GNGLL,0419.72118,S,05539.73781,E,133623.00,A,D*68
$GNRMC,133624.00,A,0419.72120,S,05539.73784,E,0.038,,200525,,,D*73
$GNVTG,,T,,M,0.038,N,0.071,K,D*35
$GNGGA,133624.00,0419.72120,S,05539.73784,E,2,12,0.60,8.5,M,-47.6,M,,0000*72
$GNGSA,A,3,32,18,10,28,26,16,27,31,40,08,04,02,1.10,0.60,0.92*1C
$GNGSA,A,3,85,72,75,86,65,87,76,66,,,,,1.10,0.60,0.92*18
$GPGSV,5,1,17,02,10,334,35,04,12,231,29,08,27,295,38,10,13,030,36*7B
$GPGSV,5,2,17,16,24,209,43,18,25,122,30,23,01,069,,26,29,179,33*76
$GPGSV,5,3,17,27,56,258,42,28,60,090,37,31,60,158,35,32,28,010,35*75
$GPGSV,5,4,17,36,52,277,41,40,84,353,41,41,58,082,42,49,32,274,*7A
$GPGSV,5,5,17,50,10,089,*4A
$GLGSV,3,1,09,65,26,285,39,66,08,239,41,72,20,345,32,74,15,100,11*6B
$GLGSV,3,2,09,75,23,152,18,76,05,207,12,85,32,146,26,86,75,045,39*6F
$GLGSV,3,3,09,87,34,347,33*54
$GNGLL,0419.72120,S,05539.73784,E,133624.00,A,D*61
$GNRMC,133625.00,A,0419.72122,S,05539.73787,E,0.038,,200525,,,D*73
$GNVTG,,T,,M,0.038,N,0.071,K,D*35
$GNGGA,133625.00,0419.72122,S,05539.73787,E,2,12,0.60,8.5,M,-47.6,M,,0000*72
$GNGSA,A,3,32,18,10,28,26,16,27,31,40,08,04,02,1.10,0.60,0.92*1C
$GNGSA,A,3,85,72,75,86,65,87,76,66,,,,,1.10,0.60,0.92*18
$GPGSV,5,1,17,02,10,334,35,04,12,231,30,08,27,295,38,10,13,030,36*73
$GPGSV,5,2,17,16,24,209,42,18,25,122,30,23,01,069,,26,29,179,33*77
$GPGSV,5,3,17,27,56,258,43,28,60,090,38,31,60,158,36,32,28,010,34*79
$GPGSV,5,4,17,36,52,277,41,40,84,353,42,41,58,082,42,49,32,274,*79
$GPGSV,5,5,17,50,10,089,*4A
$GLGSV,3,1,09,65,26,285,39,66,08,239,42,72,20,345,33,74,15,100,11*69
$GLGSV,3,2,09,75,23,152,18,76,05,207,10,85,32,146,27,86,75,045,38*6D
$GLGSV,3,3,09,87,34,347,33*54
$GNGLL,0419.72122,S,05539.73787,E,133625.00,A,D*61
$GNRMC,133626.00,A,0419.72122,S,05539.73789,E,0.029,,200525,,,D*7E
$GNVTG,,T,,M,0.029,N,0.054,K,D*32
$GNGGA,133626.00,0419.72122,S,05539.73789,E,2,12,0.60,8.5,M,-47.6,M,,0000*7F
$GNGSA,A,3,32,18,10,28,26,16,27,31,40,08,04,02,1.10,0.60,0.92*1C
$GNGSA,A,3,85,72,75,86,65,87,76,66,,,,,1.10,0.60,0.92*18
$GPGSV,5,1,17,02,10,334,34,04,12,231,31,08,27,295,35,10,13,030,33*7B
$GPGSV,5,2,17,16,24,209,42,18,25,122,31,23,01,069,,26,29,179,29*7D
$GPGSV,5,3,17,27,56,258,43,28,60,090,36,31,60,158,38,32,28,010,34*79
$GPGSV,5,4,17,36,52,277,42,40,84,353,42,41,58,082,40,49,32,274,*78
$GPGSV,5,5,17,50,10,089,*4A
$GLGSV,3,1,09,65,26,285,38,66,08,239,41,72,20,345,32,74,15,100,12*69
$GLGSV,3,2,09,75,23,152,17,76,05,207,07,85,32,146,27,86,75,045,37*6B
$GLGSV,3,3,09,87,34,347,33*54
$GNGLL,0419.72122,S,05539.73789,E,133626.00,A,D*6C
$GNRMC,133627.00,A,0419.72123,S,05539.73794,E,0.004,,200525,,,D*7D
$GNVTG,,T,,M,0.004,N,0.008,K,D*34
$GNGGA,133627.00,0419.72123,S,05539.73794,E,2,12,0.60,8.3,M,-47.6,M,,0000*75
$GNGSA,A,3,32,18,10,28,26,16,27,31,40,08,04,02,1.10,0.60,0.92*1C
$GNGSA,A,3,85,72,75,86,65,87,76,66,,,,,1.10,0.60,0.92*18
$GPGSV,5,1,17,02,10,334,36,04,12,231,30,08,27,295,38,10,13,030,34*72
$GPGSV,5,2,17,16,24,209,41,18,25,122,31,23,01,069,,26,29,179,29*7E
$GPGSV,5,3,17,27,56,258,42,28,60,090,36,31,60,158,38,32,28,010,34*78
$GPGSV,5,4,17,36,52,277,42,40,84,353,42,41,58,082,41,49,32,274,*79
$GPGSV,5,5,17,50,10,089,*4A
$GLGSV,3,1,09,65,26,285,39,66,08,239,40,72,20,345,31,74,15,100,10*68
$GLGSV,3,2,09,75,23,152,17,76,05,207,13,85,32,146,29,86,75,045,36*61
$GLGSV,3,3,09,87,34,347,32*55
$GNGLL,0419.72123,S,05539.73794,E,133627.00,A,D*60
$GNRMC,133628.00,A,0419.72121,S,05539.73799,E,0.042,,200525,,,D*7F
$GNVTG,,T,,M,0.042,N,0.078,K,D*31
$GNGGA,133628.00,0419.72121,S,05539.73799,E,2,12,0.60,8.3,M,-47.6,M,,0000*75
$GNGSA,A,3,32,18,10,28,26,16,27,31,40,08,04,02,1.10,0.60,0.92*1C
$GNGSA,A,3,85,72,75,86,65,87,76,66,,,,,1.10,0.60,0.92*18
$GPGSV,5,1,17,02,10,334,37,04,12,231,30,08,27,295,36,10,13,030,34*7D
$GPGSV,5,2,17,16,24,209,41,18,25,122,30,23,01,069,,26,29,179,29*7F
$GPGSV,5,3,17,27,56,258,43,28,60,090,36,31,60,158,40,32,28,010,33*71
$GPGSV,5,4,17,36,52,277,42,40,84,353,43,41,58,082,40,49,32,274,*79
$GPGSV,5,5,17,50,10,089,*4A
$GLGSV,3,1,09,65,26,285,37,66,08,239,39,72,20,345,30,74,15,100,09*61
$GLGSV,3,2,09,75,23,152,17,76,05,207,09,85,32,146,28,86,75,045,38*65
$GLGSV,3,3,09,87,34,347,31*56
$GNGLL,0419.72121,S,05539.73799,E,133628.00,A,D*60
$GNRMC,133629.00,A,0419.72122,S,05539.73803,E,0.046,,200525,,,D*75
$GNVTG,,T,,M,0.046,N,0.085,K,D*37
$GNGGA,133629.00,0419.72122,S,05539.73803,E,2,12,0.59,8.2,M,-47.6,M,,0000*70
$GNGSA,A,3,32,18,10,28,26,16,27,31,40,08,04,02,1.06,0.59,0.88*1A
$GNGSA,A,3,85,72,75,86,65,87,76,66,,,,,1.06,0.59,0.88*1E
$GPGSV,5,1,17,02,10,334,38,04,12,231,29,08,27,295,36,10,13,030,33*7D
$GPGSV,5,2,17,16,24,209,42,18,25,122,31,23,01,069,,26,29,179,28*7C
$GPGSV,5,3,17,27,56,258,43,28,60,090,35,31,60,158,37,32,28,010,31*70
$GPGSV,5,4,17,36,52,277,41,40,84,353,43,41,58,082,40,49,32,274,*7A
$GPGSV,5,5,17,50,10,089,*4A
$GLGSV,3,1,09,65,26,285,37,66,08,239,39,72,20,345,30,74,15,100,08*60
$GLGSV,3,2,09,75,23,152,16,76,05,207,12,85,32,146,27,86,75,045,37*6E
$GLGSV,3,3,09,87,34,347,31*56
$GNGLL,0419.72122,S,05539.73803,E,133629.00,A,D*6E
$GNRMC,133630.00,A,0419.72121,S,05539.73807,E,0.033,,200525,,,D*78
$GNVTG,,T,,M,0.033,N,0.061,K,D*3F
$GNGGA,133630.00,0419.72121,S,05539.73807,E,2,12,0.60,8.1,M,-47.6,M,,0000*76
$GNGSA,A,3,32,18,10,28,26,16,27,31,40,08,04,02,1.10,0.60,0.92*1C
$GNGSA,A,3,85,72,75,86,65,87,76,66,,,,,1.10,0.60,0.92*18
$GPGSV,5,1,17,02,10,334,36,04,12,231,30,08,27,295,36,10,13,030,34*7C
$GPGSV,5,2,17,16,24,209,45,18,25,122,30,23,01,069,,26,29,179,28*7A
$GPGSV,5,3,17,27,56,258,43,28,60,090,35,31,60,158,38,32,28,010,35*7B
$GPGSV,5,4,17,36,52,277,41,40,84,353,42,41,58,082,40,49,32,274,*7B
$GPGSV,5,5,17,50,10,089,*4A
$GLGSV,3,1,09,65,26,285,38,66,08,239,40,72,20,345,29,74,15,100,09*68
$GLGSV,3,2,09,75,23,152,17,76,05,207,08,85,32,146,28,86,75,045,37*6B
$GLGSV,3,3,09,87,34,347,32*55
$GNGLL,0419.72121,S,05539.73807,E,133630.00,A,D*61
$GNRMC,133631.00,A,0419.72121,S,05539.73810,E,0.032,,200525,,,D*7E
$GNVTG,,T,,M,0.032,N,0.060,K,D*3F
$GNGGA,133631.00,0419.72121,S,05539.73810,E,2,12,0.60,8.0,M,-47.6,M,,0000*70
$GNGSA,A,3,32,18,10,28,26,16,27,31,40,08,04,02,1.10,0.60,0.92*1C
$GNGSA,A,3,85,72,75,86,65,87,76,66,,,,,1.10,0.60,0.92*18
$GPGSV,5,1,17,02,10,334,35,04,12,231,30,08,27,295,33,10,13,030,34*7A
$GPGSV,5,2,17,16,24,209,42,18,25,122,29,23,01,069,,26,29,179,28*75
$GPGSV,5,3,17,27,56,258,42,28,60,090,34,31,60,158,37,32,28,010,34*75
$GPGSV,5,4,17,36,52,277,41,40,84,353,42,41,58,082,40,49,32,274,*7B
$GPGSV,5,5,17,50,10,089,*4A
$GLGSV,3,1,09,65,26,285,38,66,08,239,38,72,20,345,29,74,15,100,10*6F
$GLGSV,3,2,09,75,23,152,17,76,05,207,14,85,32,146,28,86,75,045,38*69
$GLGSV,3,3,09,87,34,347,32*55
$GNGLL,0419.72121,S,05539.73810,E,133631.00,A,D*66
$GNRMC,133632.00,A,0419.72120,S,05539.73814,E,0.049,,200525,,,D*74
$GNVTG,,T,,M,0.049,N,0.091,K,D*3D
$GNGGA,133632.00,0419.72120,S,05539.73814,E,2,12,0.60,7.9,M,-47.6,M,,0000*70
$GNGSA,A,3,32,18,10,28,26,16,27,31,40,08,04,02,1.10,0.60,0.92*1C
$GNGSA,A,3,85,72,75,86,65,87,76,66,,,,,1.10,0.60,0.92*18
$GPGSV,5,1,17,02,10,334,37,04,12,231,29,08,27,295,36,10,13,031,34*74
$GPGSV,5,2,17,16,24,209,44,18,25,122,29,23,01,069,,26,29,179,29*72
$GPGSV,5,3,17,27,56,258,43,28,60,090,35,31,60,158,39,32,28,010,34*7B
$GPGSV,5,4,17,36,52,277,40,40,84,353,42,41,58,082,40,49,32,274,*7A
$GPGSV,5,5,17,50,10,089,*4A
$GLGSV,3,1,09,65,26,285,38,66,08,239,38,72,20,345,29,74,15,100,10*6F
$GLGSV,3,2,09,75,23,152,17,76,05,207,11,85,32,146,28,86,75,045,38*6C
$GLGSV,3,3,09,87,34,347,34*53
$GNGLL,0419.72120,S,05539.73814,E,133632.00,A,D*60
$GNRMC,133633.00,A,0419.72119,S,05539.73818,E,0.027,,200525,,,D*7B
$GNVTG,,T,,M,0.027,N,0.050,K,D*38
$GNGGA,133633.00,0419.72119,S,05539.73818,E,2,12,0.60,7.8,M,-47.6,M,,0000*76
$GNGSA,A,3,32,18,10,28,26,16,27,31,40,08,04,02,1.10,0.60,0.92*1C
$GNGSA,A,3,85,72,75,86,65,87,76,66,,,,,1.10,0.60,0.92*18
$GPGSV,5,1,17,02,10,334,36,04,12,231,29,08,27,295,35,10,13,031,33*71
$GPGSV,5,2,17,16,24,209,44,18,25,122,30,23,01,069,,26,29,179,31*73
$GPGSV,5,3,17,27,56,258,43,28,60,090,35,31,60,158,38,32,28,010,35*7B
$GPGSV,5,4,17,36,52,277,41,40,84,353,42,41,58,082,40,49,32,274,*7B
$GPGSV,5,5,17,50,10,089,*4A
$GLGSV,3,1,09,65,26,285,38,66,08,239,39,72,20,345,30,74,15,100,09*6E
$GLGSV,3,2,09,75,23,152,17,76,05,207,14,85,32,146,27,86,75,045,38*66
$GLGSV,3,3,09,87,34,347,34*53
$GNGLL,0419.72119,S,05539.73818,E,133633.00,A,D*67
$GNRMC,133634.00,A,0419.72119,S,05539.73823,E,0.032,,200525,,,D*70
$GNVTG,,T,,M,0.032,N,0.060,K,D*3F
$GNGGA,133634.00,0419.72119,S,05539.73823,E,2,12,0.60,7.7,M,-47.6,M,,0000*76
$GNGSA,A,3,32,18,10,28,26,16,27,31,40,08,04,02,1.10,0.60,0.92*1C
$GNGSA,A,3,85,72,75,86,65,87,76,66,,,,,1.10,0.60,0.92*18
$GPGSV,5,1,17,02,10,334,36,04,12,231,29,08,27,295,36,10,13,031,34*75
$GPGSV,5,2,17,16,24,209,43,18,25,122,31,23,01,069,,26,29,179,21*74
$GPGSV,5,3,17,27,56,258,44,28,60,090,36,31,60,158,42,32,28,010,36*71
$GPGSV,5,4,17,36,52,277,42,40,84,353,44,41,58,082,42,49,32,274,*7C
$GPGSV,5,5,17,50,10,089,*4A
$GLGSV,3,1,09,65,26,285,38,66,08,239,40,72,20,345,29,74,15,100,12*62
$GLGSV,3,2,09,75,23,152,18,76,05,207,11,85,32,146,30,86,75,045,38*6A
$GLGSV,3,3,09,87,34,347,34*53
$GNGLL,0419.72119,S,05539.73823,E,133634.00,A,D*68
$GNRMC,133635.00,A,0419.72119,S,05539.73827,E,0.083,,200525,,,D*7F
$GNVTG,,T,,M,0.083,N,0.153,K,D*34
$GNGGA,133635.00,0419.72119,S,05539.73827,E,2,12,0.60,7.6,M,-47.6,M,,0000*72
$GNGSA,A,3,32,18,10,28,26,16,27,31,40,08,04,02,1.10,0.60,0.92*1C
$GNGSA,A,3,85,72,75,86,65,87,76,66,,,,,1.10,0.60,0.92*18
$GPGSV,5,1,17,02,10,334,40,04,12,231,29,08,27,295,37,10,13,031,34*75
$GPGSV,5,2,17,16,24,209,45,18,25,122,31,23,01,069,,26,29,179,23*70
$GPGSV,5,3,17,27,56,258,46,28,60,090,37,31,60,158,44,32,28,010,37*75
$GPGSV,5,4,17,36,52,277,44,40,84,353,44,41,58,082,44,49,32,274,*7C
$GPGSV,5,5,17,50,10,089,*4A
$GLGSV,3,1,09,65,26,285,39,66,08,239,38,72,20,345,29,74,15,100,11*6F
$GLGSV,3,2,09,75,23,152,17,76,05,207,12,85,32,146,29,86,75,045,39*6F
$GLGSV,3,3,09,87,34,347,32*55
$GNGLL,0419.72119,S,05539.73827,E,133635.00,A,D*6D
$GNRMC,133636.00,A,0419.72121,S,05539.73831,E,0.086,,200525,,,D*75
$GNVTG,,T,,M,0.086,N,0.159,K,D*3B
$GNGGA,133636.00,0419.72121,S,05539.73831,E,2,12,0.60,7.5,M,-47.6,M,,0000*7E
$GNGSA,A,3,32,18,10,28,26,16,27,31,40,08,04,02,1.10,0.60,0.92*1C
$GNGSA,A,3,85,72,75,86,65,87,76,66,,,,,1.10,0.60,0.92*18
$GPGSV,5,1,17,02,10,334,39,04,12,231,29,08,27,295,39,10,13,031,35*74
$GPGSV,5,2,17,16,24,209,44,18,25,122,32,23,01,069,,26,29,179,32*72
$GPGSV,5,3,17,27,56,258,46,28,60,090,37,31,60,158,38,32,28,010,37*7E
$GPGSV,5,4,17,36,52,277,44,40,84,353,46,41,58,082,43,49,32,274,*79
$GPGSV,5,5,17,50,10,089,*4A
$GLGSV,3,1,09,65,26,285,39,66,08,239,38,72,20,345,29,74,15,100,11*6F
$GLGSV,3,2,09,75,23,152,14,76,05,207,15,85,32,146,28,86,75,045,38*6B
$GLGSV,3,3,09,87,34,347,31*56
$GNGLL,0419.72121,S,05539.73831,E,133636.00,A,D*62
$GNRMC,133637.00,A,0419.72120,S,05539.73837,E,0.015,,200525,,,D*79
$GNVTG,,T,,M,0.015,N,0.028,K,D*36
$GNGGA,133637.00,0419.72120,S,05539.73837,E,2,12,0.60,7.3,M,-47.6,M,,0000*7E
$GNGSA,A,3,32,18,10,28,26,16,27,31,40,08,04,02,1.10,0.60,0.92*1C
$GNGSA,A,3,85,72,75,86,65,87,76,66,,,,,1.10,0.60,0.92*18
$GPGSV,5,1,17,02,10,334,35,04,12,231,27,08,27,295,34,10,13,031,38*76
$GPGSV,5,2,17,16,24,209,45,18,25,122,32,23,01,069,,26,29,179,32*73
$GPGSV,5,3,17,27,56,258,44,28,60,090,37,31,60,158,40,32,28,010,36*72
$GPGSV,5,4,17,36,52,277,44,40,84,353,43,41,58,082,41,49,32,274,*7E
$GPGSV,5,5,17,50,10,089,*4A
$GLGSV,3,1,09,65,26,285,38,66,08,239,38,72,20,345,29,74,15,100,13*6C
$GLGSV,3,2,09,75,23,152,15,76,05,207,16,85,32,146,29,86,75,045,37*67
$GLGSV,3,3,09,87,34,347,31*56
$GNGLL,0419.72120,S,05539.73837,E,133637.00,A,D*64
$GNRMC,133638.00,A,0419.72120,S,05539.73840,E,0.039,,200525,,,D*78
$GNVTG,,T,,M,0.039,N,0.072,K,D*37
$GNGGA,133638.00,0419.72120,S,05539.73840,E,2,12,0.59,7.2,M,-47.6,M,,0000*7A
$GNGSA,A,3,32,18,10,28,26,16,27,31,40,08,04,02,1.06,0.59,0.88*1A
$GNGSA,A,3,85,72,75,86,65,87,76,66,,,,,1.06,0.59,0.88*1E
$GPGSV,5,1,17,02,10,334,36,04,12,231,28,08,27,295,35,10,13,031,36*75
$GPGSV,5,2,17,16,24,209,44,18,25,122,31,23,01,069,,26,29,179,34*77
$GPGSV,5,3,17,27,56,258,45,28,60,090,38,31,60,158,40,32,28,010,36*7C
$GPGSV,5,4,17,36,52,277,44,40,84,353,44,41,58,082,42,49,32,274,*7A
$GPGSV,5,5,17,50,10,089,*4A
$GLGSV,3,1,09,65,26,285,38,66,08,239,39,72,20,345,29,74,15,100,11*6F
$GLGSV,3,2,09,75,23,152,14,76,05,207,14,85,32,146,28,86,75,045,37*65
$GLGSV,3,3,09,87,34,347,30*57
$GNGLL,0419.72120,S,05539.73840,E,133638.00,A,D*6B
$GNRMC,133639.00,A,0419.72119,S,05539.73841,E,0.075,,200525,,,D*7A
$GNVTG,,T,,M,0.075,N,0.140,K,D*3F
$GNGGA,133639.00,0419.72119,S,05539.73841,E,2,12,0.60,7.2,M,-47.6,M,,0000*7A
$GNGSA,A,3,32,18,10,28,26,16,27,31,40,08,04,02,1.10,0.60,0.92*1C
$GNGSA,A,3,85,72,75,86,65,87,76,66,,,,,1.10,0.60,0.92*18
$GPGSV,5,1,17,02,10,334,35,04,12,231,29,08,27,295,36,10,13,031,36*74
$GPGSV,5,2,17,16,24,209,44,18,25,122,31,23,01,069,,26,29,179,35*76
$GPGSV,5,3,17,27,56,258,39,28,60,090,38,31,60,158,35,32,28,010,39*7A
$GPGSV,5,4,17,36,52,277,40,40,84,353,41,41,58,082,39,49,32,274,*77
$GPGSV,5,5,17,50,10,089,*4A
$GLGSV,3,1,09,65,26,285,38,66,08,239,39,72,20,345,29,74,15,100,11*6F
$GLGSV,3,2,09,75,23,152,13,76,05,207,13,85,32,146,27,86,75,045,31*6C
$GLGSV,3,3,09,87,34,347,28*5E
$GNGLL,0419.72119,S,05539.73841,E,133639.00,A,D*61
$GNRMC,133640.00,A,0419.72119,S,05539.73835,E,0.380,,200525,,,A*7B
$GNVTG,,T,,M,0.380,N,0.704,K,A*35
$GNGGA,133640.00,0419.72119,S,05539.73835,E,1,12,0.60,7.2,M,-47.6,M,,*74
$GNGSA,A,3,32,18,10,28,26,16,27,31,40,08,04,02,1.10,0.60,0.92*1C
$GNGSA,A,3,85,72,75,86,65,87,76,66,,,,,1.10,0.60,0.92*18
$GPGSV,5,1,17,02,10,334,33,04,12,231,30,08,27,295,39,10,13,031,34*77
$GPGSV,5,2,17,16,24,209,43,18,25,122,31,23,01,069,,26,29,179,40*73
$GPGSV,5,3,17,27,56,258,43,28,60,090,35,31,60,158,37,32,28,010,39*78
$GPGSV,5,4,17,36,52,277,42,40,84,353,42,41,58,082,38,49,32,274,*77
$GPGSV,5,5,17,50,10,089,*4A
$GLGSV,3,1,09,65,26,285,40,66,08,239,41,72,20,345,28,74,15,100,12*6D
$GLGSV,3,2,09,75,23,152,16,76,05,207,13,85,32,146,26,86,75,045,36*6F
$GLGSV,3,3,09,87,34,347,24*52
$GNGLL,0419.72119,S,05539.73835,E,133640.00,A,A*69
$GNRMC,133641.00,A,0419.72121,S,05539.73832,E,0.044,,200525,,,A*7D
$GNVTG,,T,,M,0.044,N,0.081,K,A*34
$GNGGA,133641.00,0419.72121,S,05539.73832,E,1,12,0.59,7.3,M,-47.6,M,,*72
$GNGSA,A,3,32,18,10,28,26,16,27,31,40,08,04,02,1.06,0.59,0.88*1A
$GNGSA,A,3,85,72,75,86,65,87,76,66,,,,,1.06,0.59,0.88*1E
$GPGSV,5,1,17,02,10,334,34,04,12,231,33,08,27,295,36,10,13,031,34*7C
$GPGSV,5,2,17,16,24,209,44,18,25,122,29,23,01,069,,26,29,179,40*7D
$GPGSV,5,3,17,27,56,258,41,28,60,090,35,31,60,158,41,32,28,010,33*71
$GPGSV,5,4,17,36,52,277,42,40,84,353,40,41,58,082,35,49,32,274,*78
$GPGSV,5,5,17,50,10,089,*4A
$GLGSV,3,1,09,65,26,285,39,66,08,239,41,72,20,345,26,74,15,100,14*6B
$GLGSV,3,2,09,75,23,152,17,76,05,207,15,85,32,146,27,86,75,045,38*67
$GLGSV,3,3,09,87,34,347,19*5C
$GNGLL,0419.72121,S,05539.73832,E,133641.00,A,A*64
$GNRMC,133642.00,A,0419.72124,S,05539.73830,E,0.132,,200525,,,A*79
$GNVTG,,T,,M,0.132,N,0.244,K,A*3F
$GNGGA,133642.00,0419.72124,S,05539.73830,E,1,12,0.60,7.2,M,-47.6,M,,*7D
$GNGSA,A,3,32,18,10,28,26,16,27,31,40,08,04,02,1.10,0.60,0.92*1C
$GNGSA,A,3,85,72,75,86,65,87,76,66,,,,,1.10,0.60,0.92*18
$GPGSV,5,1,17,02,10,334,32,04,12,231,34,08,27,295,35,10,13,031,32*78
$GPGSV,5,2,17,16,24,209,44,18,25,122,28,23,01,069,,26,29,179,41*7D
$GPGSV,5,3,17,27,56,258,42,28,60,090,36,31,60,158,40,32,28,010,31*72
$GPGSV,5,4,17,36,52,277,42,40,84,353,40,41,58,082,36,49,32,274,*7B
$GPGSV,5,5,17,50,10,089,*4A
$GLGSV,3,1,09,65,26,285,39,66,08,239,42,72,20,345,23,74,15,100,12*6B
$GLGSV,3,2,09,75,23,152,16,76,05,207,16,85,32,146,28,86,75,045,39*6B
$GLGSV,3,3,09,87,34,347,18*5D
$GNGLL,0419.72124,S,05539.73830,E,133642.00,A,A*60
$GNRMC,133643.00,A,0419.72125,S,05539.73829,E,0.053,,200525,,,A*77
$GNVTG,,T,,M,0.053,N,0.099,K,A*3B
$GNGGA,133643.00,0419.72125,S,05539.73829,E,1,12,0.60,7.2,M,-47.6,M,,*75
$GNGSA,A,3,32,18,10,28,26,16,27,31,40,08,04,02,1.10,0.60,0.92*1C
$GNGSA,A,3,85,72,75,86,65,87,66,,,,,,1.10,0.60,0.92*19
$GPGSV,5,1,17,02,10,334,33,04,12,231,34,08,27,295,35,10,13,031,22*78
$GPGSV,5,2,17,16,24,209,42,18,25,122,29,23,01,069,,26,29,179,41*7A
$GPGSV,5,3,17,27,56,258,42,28,60,090,34,31,60,158,40,32,28,010,31*70
$GPGSV,5,4,17,36,52,277,39,40,84,353,40,41,58,082,35,49,32,274,*74
$GPGSV,5,5,17,50,10,089,*4A
$GLGSV,3,1,09,65,26,285,39,66,08,239,42,72,20,345,21,74,15,100,11*6A
$GLGSV,3,2,09,75,23,152,21,76,05,207,10,85,32,146,28,86,75,045,37*67
$GLGSV,3,3,09,87,34,347,21*57
$GNGLL,0419.72125,S,05539.73829,E,133643.00,A,A*68
$GNRMC,133644.00,A,0419.72123,S,05539.73828,E,0.046,,200525,,,A*73
$GNVTG,,T,,M,0.046,N,0.085,K,A*32
$GNGGA,133644.00,0419.72123,S,05539.73828,E,1,12,0.63,7.2,M,-47.6,M,,*76
$GNGSA,A,3,32,18,10,28,26,16,27,31,40,08,04,02,1.13,0.63,0.94*1A
$GNGSA,A,3,85,72,86,65,87,76,66,,,,,,1.13,0.63,0.94*1C
$GPGSV,5,1,17,02,10,334,33,04,12,231,33,08,27,295,30,10,13,031,25*7D
$GPGSV,5,2,17,16,24,209,43,18,25,122,25,23,01,069,,26,29,179,40*76
$GPGSV,5,3,17,27,56,258,41,28,60,090,34,31,60,158,39,32,28,010,31*7D
$GPGSV,5,4,17,36,52,277,40,40,84,353,39,41,58,082,35,49,32,274,*74
$GPGSV,5,5,17,50,10,089,*4A
$GLGSV,3,1,09,65,26,285,39,66,08,239,41,72,20,345,21,74,15,100,11*69
$GLGSV,3,2,09,75,23,152,12,76,05,207,16,85,32,146,27,86,75,045,37*6E
$GLGSV,3,3,09,87,34,347,22*54
$GNGLL,0419.72123,S,05539.73828,E,133644.00,A,A*68
$GNRMC,133645.00,A,0419.72123,S,05539.73828,E,0.019,,200525,,,A*78
$GNVTG,,T,,M,0.019,N,0.035,K,A*33
$GNGGA,133645.00,0419.72123,S,05539.73828,E,1,12,0.60,7.1,M,-47.6,M,,*77
$GNGSA,A,3,32,18,10,28,26,16,27,31,40,08,04,02,1.10,0.60,0.92*1C
$GNGSA,A,3,85,72,75,86,65,87,76,66,,,,,1.10,0.60,0.92*18
$GPGSV,5,1,17,02,10,334,40,04,12,231,32,08,27,295,32,10,13,031,34*7A
$GPGSV,5,2,17,16,24,209,41,18,25,122,25,23,01,069,,26,29,179,39*7A
$GPGSV,5,3,17,27,56,258,40,28,60,090,34,31,60,158,38,32,28,010,30*7C
$GPGSV,5,4,17,36,52,277,39,40,84,353,36,41,58,082,36,49,32,274,*76
$GPGSV,5,5,17,50,10,089,*4A
$GLGSV,3,1,09,65,26,285,38,66,08,239,41,72,20,345,24,74,15,100,12*6E
$GLGSV,3,2,09,75,23,152,17,76,05,207,13,85,32,146,27,86,75,045,37*6E
$GLGSV,3,3,09,87,34,347,22*54
$GNGLL,0419.72123,S,05539.73828,E,133645.00,A,A*69
$GNRMC,133646.00,A,0419.72123,S,05539.73826,E,0.030,,200525,,,A*7E
$GNVTG,,T,,M,0.030,N,0.056,K,A*3D
$GNGGA,133646.00,0419.72123,S,05539.73826,E,1,12,0.60,7.2,M,-47.6,M,,*79
$GNGSA,A,3,32,18,10,28,26,16,27,31,40,08,04,02,1.10,0.60,0.92*1C
$GNGSA,A,3,85,72,75,86,65,87,76,66,,,,,1.10,0.60,0.92*18
$GPGSV,5,1,17,02,10,334,42,04,12,231,32,08,27,295,26,10,13,031,34*7D
$GPGSV,5,2,17,16,24,209,41,18,25,122,29,23,01,069,,26,29,179,39*76
$GPGSV,5,3,17,27,56,258,38,28,60,090,33,31,60,158,34,32,28,010,38*70
$GPGSV,5,4,17,36,52,277,39,40,84,353,31,41,58,082,35,49,32,274,*72
$GPGSV,5,5,17,50,10,089,*4A
$GLGSV,3,1,09,65,26,285,38,66,08,239,40,72,20,345,32,74,15,100,11*6B
$GLGSV,3,2,09,75,23,152,20,76,05,207,16,85,32,146,26,86,75,045,36*6F
$GLGSV,3,3,09,87,34,347,21*57
$GNGLL,0419.72123,S,05539.73826,E,133646.00,A,A*64
$GNRMC,133647.00,A,0419.72124,S,05539.73825,E,0.087,,200525,,,A*77
$GNVTG,,T,,M,0.087,N,0.161,K,A*34
$GNGGA,133647.00,0419.72124,S,05539.73825,E,1,12,0.60,7.2,M,-47.6,M,,*7C
$GNGSA,A,3,32,18,10,28,26,16,27,31,40,08,04,02,1.10,0.60,0.92*1C
$GNGSA,A,3,85,72,75,86,65,87,76,66,,,,,1.10,0.60,0.92*18
$GPGSV,5,1,17,02,10,334,39,04,12,231,34,08,27,295,26,10,13,031,33*70
$GPGSV,5,2,17,16,24,209,44,18,25,122,28,23,01,069,,26,29,178,41*7C
$GPGSV,5,3,17,27,56,258,39,28,60,090,33,31,60,158,38,32,28,010,35*70
$GPGSV,5,4,17,36,52,277,41,40,84,353,37,41,58,082,35,49,32,274,*7B
$GPGSV,5,5,17,50,10,089,*4A
$GLGSV,3,1,09,65,26,285,38,66,08,239,41,72,20,345,25,74,15,100,12*6F
$GLGSV,3,2,09,75,23,152,20,76,05,207,18,85,32,146,24,86,75,045,36*63
$GLGSV,3,3,09,87,34,347,19*5C
$GNGLL,0419.72124,S,05539.73825,E,133647.00,A,A*61
$GNRMC,133648.00,A,0419.72126,S,05539.73826,E,0.009,,200525,,,A*7F
$GNVTG,,T,,M,0.009,N,0.017,K,A*32
$GNGGA,133648.00,0419.72126,S,05539.73826,E,1,12,0.60,7.1,M,-47.6,M,,*71
$GNGSA,A,3,32,18,10,28,26,16,27,31,40,08,04,02,1.10,0.60,0.92*1C
$GNGSA,A,3,85,72,75,86,65,87,76,66,,,,,1.10,0.60,0.92*18
$GPGSV,5,1,17,02,10,334,39,04,12,231,34,08,27,295,29,10,13,031,33*7F
$GPGSV,5,2,17,16,24,209,44,18,25,122,27,23,01,069,,26,29,178,41*73
$GPGSV,5,3,17,27,55,257,40,28,60,090,33,31,60,158,39,32,28,010,34*72
$GPGSV,5,4,17,36,52,277,41,40,84,353,39,41,58,082,35,49,32,274,*75
$GPGSV,5,5,17,50,10,089,*4A
$GLGSV,3,1,09,65,26,285,38,66,08,239,40,72,20,345,26,74,15,100,13*6C
$GLGSV,3,2,09,75,23,152,19,76,05,207,13,85,32,146,24,86,75,045,36*62
$GLGSV,3,3,09,87,34,347,18*5D
$GNGLL,0419.72126,S,05539.73826,E,133648.00,A,A*6F
$GNRMC,133649.00,A,0419.72125,S,05539.73824,E,0.052,,200525,,,A*71
$GNVTG,,T,,M,0.052,N,0.095,K,A*36
$GNGGA,133649.00,0419.72125,S,05539.73824,E,1,12,0.60,7.2,M,-47.6,M,,*72
$GNGSA,A,3,32,18,10,28,26,16,27,31,40,08,04,02,1.10,0.60,0.92*1C
$GNGSA,A,3,85,72,75,86,65,87,76,66,,,,,1.10,0.60,0.92*18
$GPGSV,5,1,17,02,10,334,37,04,12,231,34,08,27,295,34,10,13,031,32*7C
$GPGSV,5,2,17,16,24,209,44,18,25,122,25,23,01,069,,26,29,178,41*71
$GPGSV,5,3,17,27,55,257,40,28,60,089,33,31,60,158,40,32,28,010,34*74
$GPGSV,5,4,17,36,52,277,41,40,84,353,42,41,58,082,36,49,32,274,*7A
$GPGSV,5,5,17,50,10,089,*4A
$GLGSV,3,1,09,65,26,285,38,66,08,239,41,72,20,345,25,74,15,100,10*6D
$GLGSV,3,2,09,75,23,152,19,76,05,207,14,85,32,146,23,86,75,045,36*62
$GLGSV,3,3,09,87,34,347,21*57
$GNGLL,0419.72125,S,05539.73824,E,133649.00,A,A*6F
$GNRMC,133650.00,A,0419.72125,S,05539.73826,E,0.059,,200525,,,A*70
$GNVTG,,T,,M,0.059,N,0.109,K,A*39
$GNGGA,133650.00,0419.72125,S,05539.73826,E,1,12,0.60,7.1,M,-47.6,M,,*7B
$GNGSA,A,3,32,18,10,28,26,16,27,31,40,08,04,02,1.19,0.60,1.03*1C
$GNGSA,A,3,85,72,75,86,65,87,76,66,,,,,1.19,0.60,1.03*18
$GPGSV,5,1,17,02,10,334,37,04,12,231,35,08,27,295,34,10,13,031,25*7B
$GPGSV,5,2,17,16,24,209,44,18,25,122,22,23,01,069,,26,29,178,41*76
$GPGSV,5,3,17,27,55,257,40,28,60,089,33,31,60,158,39,32,28,010,35*7B
$GPGSV,5,4,17,36,52,277,40,40,84,353,42,41,58,082,38,49,32,274,*75
$GPGSV,5,5,17,50,10,089,*4A
$GLGSV,3,1,09,65,26,285,38,66,08,239,41,72,20,345,23,74,15,100,12*69
$GLGSV,3,2,09,75,23,152,18,76,05,207,13,85,32,146,25,86,75,045,35*61
$GLGSV,3,3,09,87,34,347,26*50
$GNGLL,0419.72125,S,05539.73826,E,133650.00,A,A*65
$GNRMC,133651.00,A,0419.72124,S,05539.73828,E,0.049,,200525,,,A*7F
$GNVTG,,T,,M,0.049,N,0.090,K,A*39
$GNGGA,133651.00,0419.72124,S,05539.73828,E,1,12,0.65,7.0,M,-47.6,M,,*71
$GNGSA,A,3,32,10,28,26,16,27,31,40,08,04,02,,1.15,0.65,0.95*12
$GNGSA,A,3,85,72,75,86,65,87,76,66,,,,,1.15,0.65,0.95*1F
$GPGSV,5,1,17,02,10,334,36,04,12,231,34,08,27,295,35,10,13,031,28*77
$GPGSV,5,2,17,16,24,209,43,18,25,122,,23,01,069,,26,29,178,41*71
$GPGSV,5,3,17,27,55,257,41,28,60,089,33,31,60,158,40,32,28,010,34*75
$GPGSV,5,4,17,36,52,277,39,40,84,353,41,41,58,082,37,49,32,274,*77
$GPGSV,5,5,17,50,10,089,*4A
$GLGSV,3,1,09,65,26,285,38,66,08,239,41,72,20,345,22,74,15,100,13*69
$GLGSV,3,2,09,75,23,152,17,76,05,207,15,85,32,146,27,86,75,045,36*69
$GLGSV,3,3,09,87,34,347,26*50
$GNGLL,0419.72124,S,05539.73828,E,133651.00,A,A*6B
$GNRMC,133652.00,A,0419.72124,S,05539.73830,E,0.046,,200525,,,A*7A
$GNVTG,,T,,M,0.046,N,0.084,K,A*33
$GNGGA,133652.00,0419.72124,S,05539.73830,E,1,12,0.65,6.9,M,-47.6,M,,*73
$GNGSA,A,3,32,10,28,26,16,27,31,40,08,04,02,,1.15,0.65,0.95*12
$GNGSA,A,3,85,72,75,86,65,87,76,66,,,,,1.15,0.65,0.95*1F
$GPGSV,5,1,17,02,10,334,34,04,12,231,34,08,27,295,35,10,13,031,30*7C
$GPGSV,5,2,17,16,24,209,43,18,25,122,25,23,01,069,,26,29,178,39*79
$GPGSV,5,3,17,27,55,257,41,28,60,089,34,31,61,157,40,32,28,010,33*7B
$GPGSV,5,4,17,36,52,277,40,40,84,353,41,41,58,082,37,49,32,274,*79
$GPGSV,5,5,17,50,10,089,*4A
$GLGSV,3,1,09,65,26,285,38,66,08,239,42,72,20,345,21,74,15,100,12*68
$GLGSV,3,2,09,75,23,152,17,76,05,207,14,85,32,146,28,86,75,045,37*66
$GLGSV,3,3,09,87,34,347,25*53
$GNGLL,0419.72124,S,05539.73830,E,133652.00,A,A*61
$GNRMC,133653.00,A,0419.72125,S,05539.73832,E,0.055,,200525,,,A*7A
$GNVTG,,T,,M,0.055,N,0.102,K,A*3E
$GNGGA,133653.00,0419.72125,S,05539.73832,E,1,12,0.65,6.8,M,-47.6,M,,*70
$GNGSA,A,3,32,10,28,26,16,27,31,40,08,04,02,,1.15,0.65,0.95*12
$GNGSA,A,3,85,72,75,86,65,87,76,66,,,,,1.15,0.65,0.95*1F
$GPGSV,5,1,17,02,10,334,35,04,12,231,34,08,27,295,36,10,13,031,29*76
$GPGSV,5,2,17,16,24,209,43,18,25,122,24,23,01,069,,26,29,178,40*76
$GPGSV,5,3,17,27,55,257,41,28,60,089,33,31,61,157,40,32,27,010,34*74
$GPGSV,5,4,17,36,52,277,40,40,84,353,41,41,58,082,37,49,32,274,*79
$GPGSV,5,5,17,50,10,089,*4A
$GLGSV,3,1,09,65,26,285,38,66,08,239,41,72,20,345,21,74,15,100,10*69
$GLGSV,3,2,09,75,23,152,17,76,05,207,16,85,32,146,28,86,75,045,36*65
$GLGSV,3,3,09,87,34,347,26*50
$GNGLL,0419.72125,S,05539.73832,E,133653.00,A,A*63
$GNRMC,133654.00,A,0419.72125,S,05539.73832,E,0.042,,200525,,,A*7B
$GNVTG,,T,,M,0.042,N,0.078,K,A*34
$GNGGA,133654.00,0419.72125,S,05539.73832,E,1,12,0.65,6.8,M,-47.6,M,,*77
$GNGSA,A,3,32,10,28,26,16,27,31,40,08,04,02,,1.15,0.65,0.95*12
$GNGSA,A,3,85,72,75,86,65,87,76,66,,,,,1.15,0.65,0.95*1F
$GPGSV,5,1,17,02,10,334,41,04,12,231,34,08,27,295,36,10,13,031,34*79
$GPGSV,5,2,17,16,24,209,41,18,25,122,23,23,01,069,,26,29,178,40*73
$GPGSV,5,3,17,27,55,257,39,28,60,089,32,31,61,157,39,32,27,010,34*74
$GPGSV,5,4,17,36,52,277,40,40,84,353,41,41,58,082,37,49,32,274,*79
$GPGSV,5,5,17,50,10,089,*4A
$GLGSV,3,1,09,65,26,285,38,66,08,239,41,72,20,345,23,74,15,100,13*68
$GLGSV,3,2,09,75,23,152,14,76,05,207,12,85,32,146,27,86,75,045,36*6D
$GLGSV,3,3,09,87,34,347,25*53
$GNGLL,0419.72125,S,05539.73832,E,133654.00,A,A*64
$GNRMC,133655.00,A,0419.72126,S,05539.73835,E,0.051,,200525,,,A*7C
$GNVTG,,T,,M,0.051,N,0.094,K,A*34
$GNGGA,133655.00,0419.72126,S,05539.73835,E,1,12,0.60,6.8,M,-47.6,M,,*77
$GNGSA,A,3,32,18,10,28,26,16,27,31,40,08,04,02,1.10,0.60,0.92*1C
$GNGSA,A,3,85,72,75,86,65,87,76,66,,,,,1.10,0.60,0.92*18
$GPGSV,5,1,17,02,10,334,38,04,12,231,34,08,27,295,36,10,13,031,34*77
$GPGSV,5,2,17,16,24,209,42,18,25,122,24,23,01,069,,26,29,178,40*77
$GPGSV,5,3,17,27,55,257,41,28,60,089,32,31,61,157,39,32,27,010,33*7C
$GPGSV,5,4,17,36,52,277,40,40,84,353,40,41,58,082,36,49,32,274,*79
$GPGSV,5,5,17,50,10,089,*4A
$GLGSV,3,1,09,65,26,285,38,66,08,239,41,72,20,345,25,74,15,100,12*6F
$GLGSV,3,2,09,75,23,152,16,76,05,207,16,85,32,146,28,86,75,045,36*64
$GLGSV,3,3,09,87,34,347,23*55
$GNGLL,0419.72126,S,05539.73835,E,133655.00,A,A*61
$GNRMC,133656.00,A,0419.72127,S,05539.73838,E,0.074,,200525,,,A*74
$GNVTG,,T,,M,0.074,N,0.138,K,A*34
$GNGGA,133656.00,0419.72127,S,05539.73838,E,1,12,0.60,6.8,M,-47.6,M,,*78
$GNGSA,A,3,32,18,10,28,26,16,27,31,40,08,04,02,1.10,0.60,0.92*1C
$GNGSA,A,3,85,72,75,86,65,87,76,66,,,,,1.10,0.60,0.92*18
$GPGSV,5,1,17,02,10,334,38,04,12,231,33,08,27,295,36,10,13,031,34*70
$GPGSV,5,2,17,16,24,209,41,18,25,122,24,23,01,069,,26,29,178,40*74
$GPGSV,5,3,17,27,55,257,39,28,60,089,30,31,61,157,39,32,27,010,33*71
$GPGSV,5,4,17,36,52,277,40,40,84,353,40,41,58,082,35,49,32,274,*7A
$GPGSV,5,5,17,50,10,089,*4A
$GLGSV,3,1,09,65,26,285,38,66,08,239,40,72,20,345,27,74,15,100,11*6F
$GLGSV,3,2,09,75,23,152,16,76,05,207,13,85,32,146,28,86,75,045,36*61
$GLGSV,3,3,09,87,34,347,20*56
$GNGLL,0419.72127,S,05539.73838,E,133656.00,A,A*6E
$GNRMC,133657.00,A,0419.72128,S,05539.73841,E,0.004,,200525,,,A*73
$GNVTG,,T,,M,0.004,N,0.008,K,A*31
$GNGGA,133657.00,0419.72128,S,05539.73841,E,1,12,0.60,6.7,M,-47.6,M,,*77
$GNGSA,A,3,32,18,10,28,26,16,27,31,40,08,04,02,1.10,0.60,0.92*1C
$GNGSA,A,3,85,72,75,86,65,87,76,66,,,,,1.10,0.60,0.92*18
$GPGSV,5,1,17,02,10,334,35,04,12,231,32,08,27,295,37,10,13,031,36*7F
$GPGSV,5,2,17,16,24,209,42,18,25,122,24,23,01,069,,26,29,178,39*79
$GPGSV,5,3,17,27,55,257,41,28,60,089,31,31,61,157,39,32,27,010,34*78
$GPGSV,5,4,17,36,52,277,40,40,84,353,40,41,58,082,36,49,32,274,*79
$GPGSV,5,5,17,50,10,089,*4A
$GLGSV,3,1,09,65,26,285,38,66,08,239,41,72,20,345,27,74,15,100,10*6F
$GLGSV,3,2,09,75,23,152,15,76,05,207,16,85,32,146,28,86,75,045,36*67
$GLGSV,3,3,09,87,34,347,22*54
$GNGLL,0419.72128,S,05539.73841,E,133657.00,A,A*6E
$GNRMC,133658.00,A,0419.72129,S,05539.73841,E,0.039,,200525,,,A*73
$GNVTG,,T,,M,0.039,N,0.073,K,A*33
$GNGGA,133658.00,0419.72129,S,05539.73841,E,1,12,0.60,6.7,M,-47.6,M,,*79
$GNGSA,A,3,32,18,10,28,26,16,27,31,40,08,04,02,1.10,0.60,0.92*1C
$GNGSA,A,3,85,72,75,86,65,87,76,66,,,,,1.10,0.60,0.92*18
$GPGSV,5,1,17,02,10,334,35,04,12,231,31,08,27,295,39,10,13,031,37*73
$GPGSV,5,2,17,16,24,209,42,18,25,122,33,23,01,069,,26,29,178,37*71
$GPGSV,5,3,17,27,55,257,41,28,60,089,36,31,61,157,38,32,27,010,38*72
$GPGSV,5,4,17,36,52,277,40,40,84,353,40,41,58,082,38,49,32,274,*77
$GPGSV,5,5,17,50,10,089,*4A
$GLGSV,3,1,09,65,26,285,38,66,08,239,41,72,20,345,28,74,15,100,12*62
$GLGSV,3,2,09,75,23,152,12,76,05,207,13,85,32,146,29,86,75,045,38*6A
$GLGSV,3,3,09,87,34,347,24*52
$GNGLL,0419.72129,S,05539.73841,E,133658.00,A,A*60
$GNRMC,133659.00,A,0419.72131,S,05539.73841,E,0.043,,200525,,,A*76
$GNVTG,,T,,M,0.043,N,0.079,K,A*34
$GNGGA,133659.00,0419.72131,S,05539.73841,E,1,12,0.61,6.7,M,-47.6,M,,*70
$GNGSA,A,3,32,18,10,28,26,16,27,31,40,08,04,02,1.11,0.61,0.93*1D
$GNGSA,A,3,85,72,75,86,65,87,76,66,,,,,1.11,0.61,0.93*19
$GPGSV,5,1,17,02,10,334,36,04,12,231,31,08,27,295,39,10,13,031,37*70
$GPGSV,5,2,17,16,24,209,43,18,25,122,31,23,01,069,,26,29,178,37*72
$GPGSV,5,3,17,27,55,257,41,28,60,089,35,31,61,157,38,32,27,010,38*71
$GPGSV,5,4,17,36,52,277,40,40,84,353,40,41,58,082,38,49,32,274,*77
$GPGSV,5,5,17,50,10,089,*4A
$GLGSV,3,1,09,65,26,285,38,66,08,239,41,72,20,345,28,74,15,100,14*64
$GLGSV,3,2,09,75,23,152,19,76,05,207,18,85,32,146,28,86,75,045,38*6B
$GLGSV,3,3,09,87,34,347,25*53
$GNGLL,0419.72131,S,05539.73841,E,133659.00,A,A*68
$GNRMC,133700.00,A,0419.72133,S,05539.73846,E,0.038,,200525,,,A*72
$GNVTG,,T,,M,0.038,N,0.071,K,A*30
$GNGGA,133700.00,0419.72133,S,05539.73846,E,1,12,0.60,6.6,M,-47.6,M,,*78
$GNGSA,A,3,32,18,10,28,26,16,27,31,40,08,04,02,1.10,0.60,0.92*1C
$GNGSA,A,3,85,72,75,86,65,87,76,66,,,,,1.10,0.60,0.92*18
$GPGSV,5,1,17,02,10,334,35,04,12,231,31,08,27,295,39,10,13,031,38*7C
$GPGSV,5,2,17,16,24,209,42,18,25,122,30,23,01,069,,26,29,178,37*72
$GPGSV,5,3,17,27,55,257,42,28,60,089,34,31,61,157,39,32,27,010,37*7D
$GPGSV,5,4,17,36,52,277,40,40,84,353,40,41,58,082,37,49,32,274,*78
$GPGSV,5,5,17,50,10,089,*4A
$GLGSV,3,1,09,65,26,285,37,66,08,239,42,72,20,345,27,74,15,100,08*6A
$GLGSV,3,2,09,75,23,152,12,76,05,207,13,85,32,146,29,86,75,045,38*6A
$GLGSV,3,3,09,87,34,347,26*50
$GNGLL,0419.72133,S,05539.73846,E,133700.00,A,A*60
$GNRMC,133701.00,A,0419.72134,S,05539.73850,E,0.053,,200525,,,A*7E
$GNVTG,,T,,M,0.053,N,0.097,K,A*35
$GNGGA,133701.00,0419.72134,S,05539.73850,E,1,12,0.60,6.6,M,-47.6,M,,*79
$GNGSA,A,3,32,18,10,28,26,16,27,31,40,08,04,02,1.10,0.60,0.92*1C
$GNGSA,A,3,85,72,75,86,65,87,76,66,,,,,1.10,0.60,0.92*18
$GPGSV,5,1,17,02,10,334,38,04,12,231,31,08,27,295,39,10,13,031,38*71
$GPGSV,5,2,17,16,24,209,42,18,25,122,28,23,01,069,,26,29,178,37*7B
$GPGSV,5,3,17,27,55,257,41,28,60,089,34,31,61,157,39,32,27,010,36*7F
$GPGSV,5,4,17,36,52,277,40,40,84,353,41,41,58,082,37,49,32,274,*79
$GPGSV,5,5,17,50,10,089,*4A
$GLGSV,3,1,09,65,26,285,38,66,08,239,42,72,20,345,28,74,15,100,14*67
$GLGSV,3,2,09,75,23,152,13,76,05,207,16,85,32,146,29,86,75,045,37*61
$GLGSV,3,3,09,87,34,347,26*50
$GNGLL,0419.72134,S,05539.73850,E,133701.00,A,A*61
$GNRMC,133702.00,A,0419.72136,S,05539.73855,E,0.133,,200525,,,A*7D
$GNVTG,,T,,M,0.133,N,0.246,K,A*3C
$GNGGA,133702.00,0419.72136,S,05539.73855,E,1,12,0.59,6.5,M,-47.6,M,,*74
$GNGSA,A,3,32,18,10,28,26,16,27,31,40,08,04,02,1.06,0.59,0.88*1A
$GNGSA,A,3,85,72,75,86,65,87,76,66,,,,,1.06,0.59,0.88*1E
$GPGSV,5,1,17,02,10,334,34,04,12,231,30,08,27,295,38,10,13,031,38*7D
$GPGSV,5,2,17,16,24,209,42,18,25,122,26,23,01,069,,26,29,178,37*75
$GPGSV,5,3,17,27,55,257,41,28,60,089,35,31,61,157,39,32,27,010,37*7F
$GPGSV,5,4,17,36,52,277,40,40,84,353,41,41,58,082,37,49,32,274,*79
$GPGSV,5,5,17,50,10,089,*4A
$GLGSV,3,1,09,65,26,285,38,66,08,239,42,72,20,345,28,74,15,100,12*61
$GLGSV,3,2,09,75,23,152,15,76,05,207,14,85,32,146,29,86,75,045,38*6A
$GLGSV,3,3,09,87,34,347,26*50
$GNGLL,0419.72136,S,05539.73855,E,133702.00,A,A*65
$GNRMC,133703.00,A,0419.72137,S,05539.73858,E,0.012,,200525,,,A*72
$GNVTG,,T,,M,0.012,N,0.022,K,A*3E
$GNGGA,133703.00,0419.72137,S,05539.73858,E,1,12,0.60,6.4,M,-47.6,M,,*72
$GNGSA,A,3,32,18,10,28,26,16,27,31,40,08,04,02,1.10,0.60,0.92*1C
$GNGSA,A,3,85,72,75,86,65,87,76,66,,,,,1.10,0.60,0.92*18
$GPGSV,5,1,17,02,10,334,36,04,12,231,30,08,27,295,38,10,13,031,37*70
$GPGSV,5,2,17,16,24,209,43,18,25,122,26,23,01,069,,26,29,178,37*74
$GPGSV,5,3,17,27,55,257,41,28,60,089,36,31,61,157,39,32,27,010,37*7C
$GPGSV,5,4,17,36,52,277,40,40,84,353,40,41,58,082,38,49,32,274,*77
$GPGSV,5,5,17,50,10,089,*4A
$GLGSV,3,1,09,65,26,285,38,66,08,239,41,72,20,345,27,74,15,100,11*6E
$GLGSV,3,2,09,75,23,152,16,76,05,207,13,85,32,146,29,86,75,045,38*6E
$GLGSV,3,3,09,87,34,347,26*50
$GNGLL,0419.72137,S,05539.73858,E,133703.00,A,A*68
$GNRMC,133704.00,A,0419.72138,S,05539.73858,E,0.029,,200525,,,A*72
$GNVTG,,T,,M,0.029,N,0.054,K,A*37
$GNGGA,133704.00,0419.72138,S,05539.73858,E,1,12,0.60,6.4,M,-47.6,M,,*7A
$GNGSA,A,3,32,18,10,28,26,16,27,31,40,08,04,02,1.10,0.60,0.92*1C
$GNGSA,A,3,85,72,75,86,65,87,76,66,,,,,1.10,0.60,0.92*18
$GPGSV,5,1,17,02,10,334,37,04,12,231,29,08,27,295,38,10,13,031,38*76
$GPGSV,5,2,17,16,24,209,42,18,25,122,28,23,01,069,,26,29,178,37*7B
$GPGSV,5,3,17,27,55,257,41,28,60,089,35,31,61,157,39,32,27,010,38*70
$GPGSV,5,4,17,36,52,277,40,40,84,353,40,41,58,082,37,49,32,274,*78
$GPGSV,5,5,17,50,10,089,*4A
$GLGSV,3,1,09,65,26,285,38,66,08,239,41,72,20,345,27,74,15,100,11*6E
$GLGSV,3,2,09,75,23,152,16,76,05,207,13,85,32,146,30,86,75,045,38*66
$GLGSV,3,3,09,87,34,347,26*50
$GNGLL,0419.72138,S,05539.73858,E,133704.00,A,A*60
$GNRMC,133705.00,A,0419.72139,S,05539.73858,E,0.023,,200525,,,A*78
$GNVTG,,T,,M,0.023,N,0.042,K,A*3A
$GNGGA,133705.00,0419.72139,S,05539.73858,E,1,12,0.63,6.4,M,-47.6,M,,*79
$GNGSA,A,3,32,18,10,28,26,16,27,31,40,08,04,02,1.13,0.63,0.94*1A
$GNGSA,A,3,85,72,75,86,65,87,76,66,,,,,1.13,0.63,0.94*1E
$GPGSV,5,1,17,02,10,334,36,04,12,231,29,08,27,295,39,10,13,031,38*76
$GPGSV,5,2,17,16,24,209,42,18,25,122,28,23,01,069,,26,29,178,37*7B
$GPGSV,5,3,17,27,55,257,41,28,60,089,36,31,61,157,39,32,27,010,38*73
$GPGSV,5,4,17,36,52,277,40,40,84,353,41,41,58,082,38,49,32,274,*76
$GPGSV,5,5,17,50,10,089,*4A
$GLGSV,3,1,09,65,26,285,38,66,08,239,42,72,20,345,28,74,15,100,11*62
$GLGSV,3,2,09,75,23,152,15,76,05,207,15,85,32,146,30,86,75,045,38*63
$GLGSV,3,3,09,87,34,347,27*51
$GNGLL,0419.72139,S,05539.73858,E,133705.00,A,A*60
$GNRMC,133706.00,A,0419.72140,S,05539.73859,E,0.037,,200525,,,A*71
$GNVTG,,T,,M,0.037,N,0.069,K,A*36
$GNGGA,133706.00,0419.72140,S,05539.73859,E,1,12,0.60,6.4,M,-47.6,M,,*76
$GNGSA,A,3,32,18,10,28,26,16,27,31,40,08,04,02,1.10,0.60,0.92*1C
$GNGSA,A,3,85,72,75,86,65,87,76,66,,,,,1.10,0.60,0.92*18
$GPGSV,5,1,17,02,10,334,37,04,12,231,29,08,27,295,39,10,13,031,38*77
$GPGSV,5,2,17,16,24,209,42,18,25,122,26,23,01,069,,26,29,178,37*75
$GPGSV,5,3,17,27,55,257,41,28,60,089,35,31,61,157,40,32,27,010,38*7E
$GPGSV,5,4,17,36,52,277,40,40,84,353,40,41,58,082,38,49,32,274,*77
$GPGSV,5,5,17,50,10,089,*4A
$GLGSV,3,1,09,65,26,285,38,66,08,239,42,72,20,345,28,74,15,100,12*61
$GLGSV,3,2,09,75,23,152,13,76,05,207,11,85,32,146,30,86,75,045,39*60
$GLGSV,3,3,09,87,34,347,27*51
$GNGLL,0419.72140,S,05539.73859,E,133706.00,A,A*6C
$GNRMC,133707.00,A,0419.72141,S,05539.73858,E,0.035,,200525,,,A*72
$GNVTG,,T,,M,0.035,N,0.065,K,A*38
$GNGGA,133707.00,0419.72141,S,05539.73858,E,1,12,0.60,6.4,M,-47.6,M,,*77
$GNGSA,A,3,32,18,10,28,26,16,27,31,40,08,04,02,1.10,0.60,0.92*1C
$GNGSA,A,3,85,72,75,86,65,87,76,66,,,,,1.10,0.60,0.92*18
$GPGSV,5,1,17,02,10,334,37,04,12,231,30,08,27,295,38,10,13,031,38*7E
$GPGSV,5,2,17,16,24,209,42,18,25,122,25,23,01,069,,26,29,178,38*79
$GPGSV,5,3,17,27,55,257,40,28,60,089,34,31,61,157,40,32,27,010,37*71
$GPGSV,5,4,17,36,52,277,40,40,84,353,39,41,58,082,38,49,32,274,*79
$GPGSV,5,5,17,50,10,089,*4A
$GLGSV,3,1,09,65,26,285,38,66,08,239,42,72,20,345,29,74,15,100,12*60
$GLGSV,3,2,09,75,23,152,14,76,05,207,13,85,32,146,30,86,75,045,38*64
$GLGSV,3,3,09,87,34,347,26*50
$GNGLL,0419.72141,S,05539.73858,E,133707.00,A,A*6D
$GNRMC,133708.00,A,0419.72142,S,05539.73857,E,0.022,,200525,,,A*77
$GNVTG,,T,,M,0.022,N,0.040,K,A*39
$GNGGA,133708.00,0419.72142,S,05539.73857,E,1,12,0.60,6.4,M,-47.6,M,,*74
$GNGSA,A,3,32,18,10,28,26,16,27,31,40,08,04,02,1.10,0.60,0.92*1C
$GNGSA,A,3,85,72,75,86,65,87,76,66,,,,,1.10,0.60,0.92*18
$GPGSV,5,1,17,02,10,334,36,04,12,231,29,08,27,295,36,10,13,031,38*79
$GPGSV,5,2,17,16,24,209,42,18,25,122,25,23,01,069,,26,29,178,37*76
$GPGSV,5,3,17,27,55,257,40,28,60,089,35,31,61,157,40,32,27,010,37*70
$GPGSV,5,4,17,36,52,277,40,40,84,353,39,41,58,082,38,49,32,274,*79
$GPGSV,5,5,17,50,10,089,*4A
$GLGSV,3,1,09,65,26,285,38,66,08,239,42,72,20,345,29,74,15,100,13*61
$GLGSV,3,2,09,75,23,152,13,76,05,207,12,85,32,146,29,86,75,045,38*6A
$GLGSV,3,3,09,87,34,347,26*50
$GNGLL,0419.72142,S,05539.73857,E,133708.00,A,A*6E
$GNRMC,133709.00,A,0419.72142,S,05539.73856,E,0.054,,200525,,,A*76
$GNVTG,,T,,M,0.054,N,0.100,K,A*3D
$GNGGA,133709.00,0419.72142,S,05539.73856,E,1,12,0.60,6.5,M,-47.6,M,,*75
$GNGSA,A,3,32,18,10,28,26,16,27,31,40,08,04,02,1.10,0.60,0.92*1C
$GNGSA,A,3,85,72,75,86,65,87,76,66,,,,,1.10,0.60,0.92*18
$GPGSV,5,1,17,02,10,334,37,04,12,231,29,08,27,295,35,10,13,031,38*7B
$GPGSV,5,2,17,16,24,209,42,18,25,122,24,23,01,069,,26,29,178,37*77
$GPGSV,5,3,17,27,55,257,40,28,60,089,35,31,61,157,40,32,27,010,38*7F
$GPGSV,5,4,17,36,52,277,40,40,84,353,39,41,58,082,39,49,32,274,*78
$GPGSV,5,5,17,50,10,089,*4A
$GLGSV,3,1,09,65,26,285,38,66,08,239,42,72,20,345,28,74,15,100,12*61
$GLGSV,3,2,09,75,23,152,14,76,05,207,12,85,32,146,29,86,75,045,38*6D
$GLGSV,3,3,09,87,34,347,26*50
$GNGLL,0419.72142,S,05539.73856,E,133709.00,A,A*6E
$GNRMC,133710.00,A,0419.72143,S,05539.73855,E,0.056,,200525,,,A*7E
$GNVTG,,T,,M,0.056,N,0.104,K,A*3B
$GNGGA,133710.00,0419.72143,S,05539.73855,E,1,12,0.60,6.5,M,-47.6,M,,*7F
$GNGSA,A,3,32,18,10,28,26,16,27,31,40,08,04,02,1.10,0.60,0.92*1C
$GNGSA,A,3,85,72,75,86,65,87,76,66,,,,,1.10,0.60,0.92*18
$GPGSV,5,1,17,02,10,334,37,04,12,231,29,08,27,295,35,10,13,031,38*7B
$GPGSV,5,2,17,16,24,209,43,18,25,122,25,23,01,069,,26,29,178,36*76
$GPGSV,5,3,17,27,55,257,40,28,60,089,36,31,61,157,40,32,27,010,38*7C
$GPGSV,5,4,17,36,52,277,40,40,84,353,39,41,58,082,39,49,32,274,*78
$GPGSV,5,5,17,50,10,089,*4A
$GLGSV,3,1,09,65,26,285,39,66,08,239,42,72,20,345,28,74,15,100,10*62
$GLGSV,3,2,09,75,23,152,15,76,05,207,13,85,32,146,29,86,75,045,38*6D
$GLGSV,3,3,09,87,34,347,27*51
$GNGLL,0419.72143,S,05539.73855,E,133710.00,A,A*64
$GNRMC,133711.00,A,0419.72145,S,05539.73852,E,0.024,,200525,,,A*7B
$GNVTG,,T,,M,0.024,N,0.045,K,A*3A
$GNGGA,133711.00,0419.72145,S,05539.73852,E,1,12,0.59,6.6,M,-47.6,M,,*76
$GNGSA,A,3,32,18,10,28,26,16,27,31,40,08,04,02,1.06,0.59,0.88*1A
$GNGSA,A,3,85,72,75,86,65,87,76,66,,,,,1.06,0.59,0.88*1E
$GPGSV,5,1,17,02,10,334,36,04,12,231,28,08,27,295,30,10,13,031,39*7F
$GPGSV,5,2,17,16,24,209,41,18,25,122,26,23,01,069,,26,29,178,37*76
$GPGSV,5,3,17,27,55,257,36,28,60,089,34,31,61,157,37,32,27,010,36*71
$GPGSV,5,4,17,36,52,277,40,40,84,353,36,41,58,082,38,49,32,274,*76
$GPGSV,5,5,17,50,10,089,*4A
$GLGSV,3,1,09,65,26,285,38,66,08,239,42,72,20,345,33,74,15,100,12*6B
$GLGSV,3,2,09,75,23,152,19,76,05,207,12,85,32,146,28,86,75,045,37*6E
$GLGSV,3,3,09,87,34,347,26*50
$GNGLL,0419.72145,S,05539.73852,E,133711.00,A,A*64
$GNRMC,133712.00,A,0419.72146,S,05539.73852,E,0.033,,200525,,,A*7D
$GNVTG,,T,,M,0.033,N,0.061,K,A*3A
$GNGGA,133712.00,0419.72146,S,05539.73852,E,1,12,0.60,6.5,M,-47.6,M,,*7F
$GNGSA,A,3,32,18,10,28,26,16,27,31,40,08,04,02,1.10,0.60,0.92*1C
$GNGSA,A,3,85,72,75,86,65,87,76,66,,,,,1.10,0.60,0.92*18
$GPGSV,5,1,17,02,10,334,35,04,12,231,27,08,27,295,31,10,13,031,39*72
$GPGSV,5,2,17,16,24,209,41,18,25,122,26,23,01,069,,26,29,178,38*79
$GPGSV,5,3,17,27,55,257,39,28,60,089,33,31,61,157,37,32,27,010,38*77
$GPGSV,5,4,17,36,52,277,40,40,84,353,39,41,58,082,37,49,32,274,*76
$GPGSV,5,5,17,50,10,089,*4A
$GLGSV,3,1,09,65,26,285,38,66,08,239,42,72,20,345,33,74,15,100,13*6A
$GLGSV,3,2,09,75,23,152,21,76,05,207,12,85,32,146,28,86,75,045,36*64
$GLGSV,3,3,09,87,34,347,26*50
$GNGLL,0419.72146,S,05539.73852,E,133712.00,A,A*64
$GNRMC,133713.00,A,0419.72147,S,05539.73850,E,0.069,,200525,,,A*70
$GNVTG,,T,,M,0.069,N,0.128,K,A*39
$GNGGA,133713.00,0419.72147,S,05539.73850,E,1,12,0.60,6.5,M,-47.6,M,,*7D
$GNGSA,A,3,32,18,10,28,26,16,27,31,40,08,04,02,1.19,0.60,1.03*1C
$GNGSA,A,3,85,72,75,86,65,87,76,66,,,,,1.19,0.60,1.03*18
$GPGSV,5,1,17,02,10,334,39,04,12,231,27,08,27,295,31,10,13,031,41*71
$GPGSV,5,2,17,16,24,209,40,18,25,122,26,23,01,069,,26,29,178,38*78
$GPGSV,5,3,17,27,55,257,39,28,60,089,32,31,61,157,38,32,27,010,38*79
$GPGSV,5,4,17,36,52,277,40,40,84,353,35,41,58,082,32,49,32,274,*7F
$GPGSV,5,5,17,50,10,089,*4A
$GLGSV,3,1,09,65,26,285,38,66,08,239,42,72,20,345,32,74,15,100,10*68
$GLGSV,3,2,09,75,23,152,18,76,05,207,13,85,32,146,28,86,75,045,36*6F
$GLGSV,3,3,09,87,34,347,24*52
$GNGLL,0419.72147,S,05539.73850,E,133713.00,A,A*66
$GNRMC,133714.00,A,0419.72145,S,05539.73847,E,0.059,,200525,,,A*70
$GNVTG,,T,,M,0.059,N,0.110,K,A*31
$GNGGA,133714.00,0419.72145,S,05539.73847,E,1,12,0.64,6.6,M,-47.6,M,,*79
$GNGSA,A,3,32,18,10,28,26,16,27,31,40,08,04,02,1.15,0.64,0.95*1A
$GNGSA,A,3,85,72,86,65,87,76,66,,,,,,1.15,0.64,0.95*1C
$GPGSV,5,1,17,02,10,334,39,04,12,231,27,08,27,295,35,10,13,031,39*7A
$GPGSV,5,2,17,16,24,209,40,18,25,122,24,23,01,069,,26,29,178,38*7A
$GPGSV,5,3,17,27,55,257,39,28,60,089,31,31,61,157,38,32,27,010,38*7A
$GPGSV,5,4,17,36,52,277,40,40,84,353,35,41,58,082,31,49,32,274,*7C
$GPGSV,5,5,17,50,10,089,*4A
$GLGSV,3,1,09,65,26,285,35,66,08,239,41,72,20,345,31,74,15,100,09*6D
$GLGSV,3,2,09,75,23,152,09,76,05,207,12,85,32,146,28,86,75,045,36*6E
$GLGSV,3,3,09,87,34,347,25*53
$GNGLL,0419.72145,S,05539.73847,E,133714.00,A,A*65
$GNRMC,133715.00,A,0419.72148,S,05539.73847,E,0.084,,200525,,,A*7C
$GNVTG,,T,,M,0.084,N,0.155,K,A*30
$GNGGA,133715.00,0419.72148,S,05539.73847,E,1,12,0.63,6.6,M,-47.6,M,,*72
$GNGSA,A,3,32,18,10,28,26,16,27,31,40,08,04,02,1.13,0.63,0.94*1A
$GNGSA,A,3,85,72,86,65,87,76,66,,,,,,1.13,0.63,0.94*1C
$GPGSV,5,1,17,02,10,334,40,04,12,231,28,08,27,295,37,10,13,031,39*79
$GPGSV,5,2,17,16,24,209,36,18,25,122,23,23,01,069,,26,29,178,36*72
$GPGSV,5,3,17,27,55,257,36,28,60,089,25,31,61,157,33,32,27,010,37*74
$GPGSV,5,4,17,36,52,277,38,40,84,353,35,41,58,082,30,49,32,274,*72
$GPGSV,5,5,17,50,10,089,*4A
$GLGSV,3,1,09,65,26,285,36,66,08,240,42,72,20,345,36,74,15,100,14*68
$GLGSV,3,2,09,75,23,152,12,76,05,207,15,85,32,146,30,86,75,045,37*6B
$GLGSV,3,3,09,87,34,347,29*5F
$GNGLL,0419.72148,S,05539.73847,E,133715.00,A,A*69
$GNRMC,133716.00,A,0419.72146,S,05539.73846,E,0.237,,200525,,,A*7A
$GNVTG,,T,,M,0.237,N,0.438,K,A*34
$GNGGA,133716.00,0419.72146,S,05539.73846,E,1,12,0.60,6.6,M,-47.6,M,,*7D
$GNGSA,A,3,32,18,10,28,26,16,27,31,40,08,04,02,1.10,0.60,0.92*1C
$GNGSA,A,3,85,72,75,86,65,87,66,,,,,,1.10,0.60,0.92*19
$GPGSV,5,1,17,02,10,334,33,04,12,231,26,08,27,295,37,10,13,031,31*7B
$GPGSV,5,2,17,16,24,209,36,18,25,122,25,23,01,069,,26,29,178,32*70
$GPGSV,5,3,17,27,55,257,38,28,60,089,33,31,61,157,34,32,27,010,33*7E
$GPGSV,5,4,17,36,52,277,34,40,84,353,32,41,58,082,,49,32,274,*7A
$GPGSV,5,5,17,50,10,089,*4A
$GLGSV,3,1,09,65,26,285,24,66,08,240,39,72,20,345,28,74,15,100,13*6F
$GLGSV,3,2,09,75,23,152,17,76,05,207,10,85,32,146,28,86,75,045,37*62
$GLGSV,3,3,09,87,34,347,30*57
$GNGLL,0419.72146,S,05539.73846,E,133716.00,A,A*65
$GNRMC,133717.00,A,0419.72145,S,05539.73844,E,0.161,,200525,,,A*7A
$GNVTG,,T,,M,0.161,N,0.297,K,A*37
$GNGGA,133717.00,0419.72145,S,05539.73844,E,1,12,0.63,6.8,M,-47.6,M,,*70
$GNGSA,A,3,32,18,10,28,26,16,27,31,40,08,04,02,1.13,0.63,0.94*1A
$GNGSA,A,3,85,72,86,65,87,76,66,,,,,,1.13,0.63,0.94*1C
$GPGSV,5,1,17,02,10,334,30,04,12,231,22,08,27,295,34,10,13,031,18*74
$GPGSV,5,2,17,16,24,209,32,18,25,122,25,23,01,069,,26,29,178,29*7E
$GPGSV,5,3,17,27,55,257,32,28,60,089,29,31,61,157,31,32,27,010,33*7A
$GPGSV,5,4,17,36,52,277,28,40,84,353,27,41,58,082,,49,32,274,*73
$GPGSV,5,5,17,50,10,089,*4A
$GLGSV,3,1,09,65,26,285,22,66,08,240,34,72,20,345,21,74,15,100,09*66
$GLGSV,3,2,09,75,23,152,10,76,05,207,11,85,32,146,22,86,75,045,35*6C
$GLGSV,3,3,09,87,34,347,33*54
$GNGLL,0419.72145,S,05539.73844,E,133717.00,A,A*65
$GNRMC,133718.00,A,0419.72138,S,05539.73845,E,0.315,,200525,,,A*7F
$GNVTG,,T,,M,0.315,N,0.583,K,A*34
$GNGGA,133718.00,0419.72138,S,05539.73845,E,1,12,0.60,6.9,M,-47.6,M,,*76
$GNGSA,A,3,32,18,10,28,26,16,27,31,08,04,02,,1.19,0.60,1.03*18
$GNGSA,A,3,85,72,75,86,65,87,76,66,,,,,1.19,0.60,1.03*18
$GPGSV,5,1,17,02,10,334,30,04,12,231,20,08,27,295,29,10,13,031,21*70
$GPGSV,5,2,17,16,24,209,32,18,25,122,25,23,01,069,,26,29,178,27*70
$GPGSV,5,3,17,27,55,257,24,28,60,089,31,31,61,157,23,32,27,010,29*7C
$GPGSV,5,4,17,36,52,277,,40,84,353,,41,58,082,,49,32,274,*7C
$GPGSV,5,5,17,50,10,089,*4A
$GLGSV,3,1,09,65,26,285,30,66,08,240,35,72,20,345,19,74,15,100,11*66
$GLGSV,3,2,09,75,23,152,11,76,05,207,10,85,32,146,21,86,75,045,31*6B
$GLGSV,3,3,09,87,34,347,31*56
$GNGLL,0419.72138,S,05539.73845,E,133718.00,A,A*61
$GNRMC,133719.00,A,0419.72134,S,05539.73846,E,0.112,,200525,,,A*74
$GNVTG,,T,,M,0.112,N,0.208,K,A*35
$GNGGA,133719.00,0419.72134,S,05539.73846,E,1,12,0.63,7.2,M,-47.6,M,,*71
$GNGSA,A,3,32,18,10,28,26,16,27,31,08,04,02,,1.23,0.63,1.05*14
$GNGSA,A,3,85,72,86,65,87,76,66,,,,,,1.23,0.63,1.05*16
$GPGSV,5,1,17,02,10,334,29,04,12,231,21,08,27,295,29,10,13,031,34*7D
$GPGSV,5,2,17,16,24,209,40,18,25,122,23,23,01,069,,26,29,178,23*77
$GPGSV,5,3,17,27,55,257,40,28,60,089,35,31,61,157,30,32,27,010,36*76
$GPGSV,5,4,17,36,52,277,,40,84,353,,41,58,082,,49,32,274,*7C
$GPGSV,5,5,17,50,10,089,*4A
$GLGSV,3,1,09,65,26,285,33,66,08,240,42,72,20,345,18,74,15,100,08*6C
$GLGSV,3,2,09,75,23,152,08,76,05,207,09,85,32,146,21,86,75,045,35*6F
$GLGSV,3,3,09,87,34,347,31*56
$GNGLL,0419.72134,S,05539.73846,E,133719.00,A,A*6F
$GNRMC,133720.00,A,0419.72132,S,05539.73849,E,0.023,,200525,,,A*74
$GNVTG,,T,,M,0.023,N,0.042,K,A*3A
$GNGGA,133720.00,0419.72132,S,05539.73849,E,1,12,0.70,7.2,M,-47.6,M,,*70
$GNGSA,A,3,32,10,28,26,16,27,31,40,08,04,02,,1.31,0.70,1.11*1D
$GNGSA,A,3,85,72,86,65,87,76,66,,,,,,1.31,0.70,1.11*12
$GPGSV,5,1,17,02,10,334,29,04,12,231,22,08,27,295,34,10,13,031,35*73
$GPGSV,5,2,17,16,24,209,41,18,25,122,,23,01,069,,26,29,178,32*77
$GPGSV,5,3,17,27,55,257,42,28,60,089,36,31,61,157,35,32,27,010,32*76
$GPGSV,5,4,17,36,52,277,,40,84,353,42,41,58,082,,49,32,274,*7A
$GPGSV,5,5,17,50,10,089,*4A
$GLGSV,3,1,09,65,26,285,36,66,08,240,40,72,20,345,22,74,15,100,11*6A
$GLGSV,3,2,09,75,23,152,07,76,05,207,08,85,32,146,24,86,75,045,34*65
$GLGSV,3,3,09,87,34,347,31*56
$GNGLL,0419.72132,S,05539.73849,E,133720.00,A,A*6C
$GNRMC,133721.00,A,0419.72129,S,05539.73851,E,0.056,,200525,,,A*74
$GNVTG,,T,,M,0.056,N,0.104,K,A*3B
$GNGGA,133721.00,0419.72129,S,05539.73851,E,1,12,0.66,7.5,M,-47.6,M,,*72
$GNGSA,A,3,32,10,28,26,16,27,31,40,08,04,02,,1.26,0.66,1.07*1B
$GNGSA,A,3,85,72,75,86,65,87,76,66,,,,,1.26,0.66,1.07*16
$GPGSV,5,1,17,02,10,334,33,04,12,231,22,08,27,295,34,10,13,031,35*78
$GPGSV,5,2,17,16,24,209,35,18,25,122,19,23,01,069,,26,29,178,27*78
$GPGSV,5,3,17,27,55,257,39,28,60,089,38,31,61,157,31,32,27,010,38*7A
$GPGSV,5,4,17,36,52,277,,40,84,353,43,41,58,082,38,49,32,274,*70
$GPGSV,5,5,17,50,10,089,*4A
$GLGSV,3,1,09,65,26,285,29,66,08,240,39,72,20,345,25,74,15,100,10*6C
$GLGSV,3,2,09,75,23,152,14,76,05,207,10,85,32,146,25,86,75,045,35*6E
$GLGSV,3,3,09,87,34,347,34*53
$GNGLL,0419.72129,S,05539.73851,E,133721.00,A,A*6E
$GNRMC,133722.00,A,0419.72124,S,05539.73852,E,0.154,,200525,,,A*7A
$GNVTG,,T,,M,0.154,N,0.285,K,A*32
$GNGGA,133722.00,0419.72124,S,05539.73852,E,1,12,0.66,7.5,M,-47.6,M,,*7F
$GNGSA,A,3,32,10,28,26,16,27,31,40,08,04,02,,1.26,0.66,1.07*1B
$GNGSA,A,3,85,72,75,86,65,87,66,,,,,,1.26,0.66,1.07*17
$GPGSV,5,1,17,02,10,334,30,04,12,231,21,08,27,295,34,10,13,031,31*7C
$GPGSV,5,2,17,16,24,209,32,18,25,122,,23,01,069,,26,29,178,27*77
$GPGSV,5,3,17,27,55,257,35,28,60,089,35,31,61,157,25,32,27,010,40*71
$GPGSV,5,4,17,36,52,277,,40,84,353,29,41,58,082,32,49,32,274,*76
$GPGSV,5,5,17,50,10,089,*4A
$GLGSV,3,1,09,65,26,285,33,66,08,240,34,72,20,345,23,74,15,100,10*6C
$GLGSV,3,2,09,75,23,152,08,76,05,207,07,85,32,146,23,86,75,045,29*6E
$GLGSV,3,3,09,87,34,347,33*54
$GNGLL,0419.72124,S,05539.73852,E,133722.00,A,A*63
$GNRMC,133723.00,A,0419.72123,S,05539.73856,E,0.050,,200525,,,A*7D
$GNVTG,,T,,M,0.050,N,0.092,K,A*33
$GNGGA,133723.00,0419.72123,S,05539.73856,E,1,12,0.72,7.5,M,-47.6,M,,*78
$GNGSA,A,3,32,10,28,26,16,27,31,40,08,04,02,,1.32,0.72,1.11*1C
$GNGSA,A,3,85,72,86,65,87,76,66,,,,,,1.32,0.72,1.11*13
$GPGSV,5,1,17,02,10,334,30,04,12,231,18,08,27,295,35,10,13,031,32*74
$GPGSV,5,2,17,16,24,209,32,18,25,122,,23,01,069,,26,29,178,28*78
$GPGSV,5,3,17,27,55,257,35,28,60,089,35,31,61,157,26,32,27,010,40*72
$GPGSV,5,4,17,36,52,277,,40,84,353,27,41,58,082,32,49,32,274,*78
$GPGSV,5,5,17,50,10,089,*4A
$GLGSV,3,1,09,65,26,285,32,66,08,240,35,72,20,345,22,74,15,100,08*64
$GLGSV,3,2,09,75,23,152,06,76,05,207,08,85,32,146,22,86,75,045,28*6F
$GLGSV,3,3,09,87,34,347,32*55
$GNGLL,0419.72123,S,05539.73856,E,133723.00,A,A*61
$GNRMC,133724.00,A,0419.72122,S,05539.73858,E,0.046,,200525,,,A*72
$GNVTG,,T,,M,0.046,N,0.086,K,A*31
$GNGGA,133724.00,0419.72122,S,05539.73858,E,1,12,0.66,7.5,M,-47.6,M,,*75
$GNGSA,A,3,32,10,28,26,16,27,31,08,04,02,,,1.26,0.66,1.07*1F
$GNGSA,A,3,85,72,75,86,65,87,76,66,,,,,1.26,0.66,1.07*16
$GPGSV,5,1,17,02,10,334,29,04,12,231,13,08,27,295,35,10,13,031,31*74
$GPGSV,5,2,17,16,24,209,32,18,25,122,,23,01,069,,26,29,178,28*78
$GPGSV,5,3,17,27,55,257,35,28,60,089,35,31,61,157,26,32,27,010,40*72
$GPGSV,5,4,17,36,52,277,,40,84,353,,41,58,082,32,49,32,274,*7D
$GPGSV,5,5,17,50,10,089,*4A
$GLGSV,3,1,09,65,26,285,32,66,08,240,35,72,20,345,20,74,15,100,06*68
$GLGSV,3,2,09,75,24,151,11,76,05,207,11,85,32,146,20,86,75,045,28*67
$GLGSV,3,3,09,87,34,347,33*54
$GNGLL,0419.72122,S,05539.73858,E,133724.00,A,A*69
$GNRMC,133725.00,A,0419.72124,S,05539.73861,E,0.084,,200525,,,A*71
$GNVTG,,T,,M,0.084,N,0.156,K,A*33
$GNGGA,133725.00,0419.72124,S,05539.73861,E,1,12,0.66,7.5,M,-47.6,M,,*78
$GNGSA,A,3,32,10,28,26,16,27,31,40,08,04,02,,1.26,0.66,1.07*1B
$GNGSA,A,3,85,72,75,86,65,87,76,66,,,,,1.26,0.66,1.07*16
$GPGSV,5,1,17,02,10,334,29,04,12,231,17,08,27,295,32,10,13,031,30*76
$GPGSV,5,2,17,16,24,209,37,18,25,122,20,23,01,069,,26,29,178,27*70
$GPGSV,5,3,17,27,55,257,32,28,60,089,36,31,61,157,27,32,27,010,33*73
$GPGSV,5,4,17,36,52,277,,40,84,353,37,41,58,082,37,49,32,274,*7C
$GPGSV,5,5,17,50,10,089,*4A
$GLGSV,3,1,09,65,26,285,33,66,08,240,40,72,20,345,21,74,15,100,09*65
$GLGSV,3,2,09,75,24,151,12,76,06,206,09,85,32,146,21,86,75,045,28*6E
$GLGSV,3,3,09,87,34,347,32*55
$GNGLL,0419.72124,S,05539.73861,E,133725.00,A,A*64
$GNRMC,133726.00,A,0419.72124,S,05539.73861,E,0.062,,200525,,,A*7A
$GNVTG,,T,,M,0.062,N,0.114,K,A*3D
$GNGGA,133726.00,0419.72124,S,05539.73861,E,1,12,0.66,7.5,M,-47.6,M,,*7B
$GNGSA,A,3,32,10,28,26,16,27,31,40,08,04,02,,1.26,0.66,1.07*1B
