b0Lp=IN"5 1!#+
T1VB{4V^5":R 
Y
mAGb<HJKJ;L(TiVaW3X
bprCg$GNRMC,054556.00,A,0420.03897,S,05539.72605,E,0.082,,230525,,,A*72
$GNVTG,,T,,M,0.082,N,0.152,K,A*31
$GNGNS,054556.00,0420.03897,S,05539.72605,E,AA,13,0.77,17.5,-47.6,,*64
$GNGGA,054556.00,0420.03897,S,05539.72605,E,1,12,0.77,17.5,M,-47.6,M,,*4F
$GNGSA,A,3,24,20,05,15,12,18,40,,,,,,1.43,0.77,1.20*12
$GNGSA,A,3,86,75,87,71,72,76,,,,,,,1.43,0.77,1.20*18
$GPGSV,5,1,17,05,61,073,28,11,04,027,,12,53,019,34,13,15,134,*7C
$GPGSV,5,2,17,15,32,168,22,18,33,256,13,20,30,043,35,22,05,134,07*7C
$GPGSV,5,3,17,23,20,207,,24,49,203,29,25,30,342,28,29,09,322,*74
$GPGSV,5,4,17,36,52,277,,40,86,350,28,41,58,082,34,49,32,274,*70
$GPGSV,5,5,17,50,10,089,*4A
$GLGSV,3,1,09,65,06,202,,71,18,098,13,72,26,150,09,74,21,152,07*6A
$GLGSV,3,2,09,75,74,135,20,76,40,340,19,86,15,353,11,87,26,307,12*60
$GLGSV,3,3,09,88,08,249,*5B
$GNGLL,0420.03897,S,05539.72605,E,054556.00,A,A*62
$GNGRS,054556.00,1,4.9,-0.3,3.3,0.5,-3.0,9.6,137,,,,,*65
$GNGRS,054556.00,1,3.9,-2.0,6.6,10.8,4.5,-1.5,,,,,,*63
$GNGST,054556.00,4668257,,,,5.1,8.1,11*51
$GNZDA,054556.00,23,05,2025,00,00*7E
$GNGBS,054556.00,5.1,8.1,11.0,,,,*65
$GNTXT,01,01,01,More than 100 frame errors, UART RX was disabled*70
b0LX=I5 
!"+
^1VB{4V^<1:R 
Y
mAGb HJKJ7L(TVaW3XbXrFg$GNRMC,054557.00,A,0420.03903,S,05539.72610,E,0.044,,230525,,,A*71
$GNVTG,,T,,M,0.044,N,0.082,K,A*37
$GNGNS,054557.00,0420.03903,S,05539.72610,E,AA,11,0.99,17.6,-47.6,,*6C
$GNGGA,054557.00,0420.03903,S,05539.72610,E,1,11,0.99,17.6,M,-47.6,M,,*46
$GNGSA,A,3,24,20,05,15,12,18,40,,,,,,2.05,0.99,1.80*19
$GNGSA,A,3,86,75,87,76,,,,,,,,,2.05,0.99,1.80*10
$GPGSV,5,1,17,05,61,073,27,11,04,027,,12,53,019,31,13,15,134,*76
$GPGSV,5,2,17,15,32,168,22,18,33,256,10,20,30,043,34,22,05,134,08*71
$GPGSV,5,3,17,23,20,207,,24,49,203,28,25,30,342,26,29,09,322,*7B
$GPGSV,5,4,17,36,52,277,,40,86,350,26,41,58,082,30,49,32,274,*7A
$GPGSV,5,5,17,50,10,089,*4A
$GLGSV,3,1,09,65,06,202,,71,18,098,07,72,26,150,06,74,21,152,08*6F
$GLGSV,3,2,09,75,74,135,19,76,40,340,17,86,15,353,07,87,26,307,09*69
$GLGSV,3,3,09,88,08,249,*5B
$GNGLL,0420.03903,S,05539.72610,E,054557.00,A,A*6B
$GNGRS,054557.00,1,4.1,-0.2,7.4,0.3,-3.5,9.5,126,,,,,*6E
$GNGRS,054557.00,1,3.9,0.5,6.6,-2.5,,,,,,,,*73
$GNGST,054557.00,5322807,,,,5.1,8.1,11*55
$GNZDA,054557.00,23,05,2025,00,00*7F
$GNGBS,054557.00,5.1,8.1,11.1,40,,-126.1,5332.2*7D
$GNTXT,01,01,01,More than 100 frame errors, UART RX was disabled*70
b0L@=I5 !R"+
(1VB{4V^:R 
Y
mAG
bH:J
KJCL(TVajW
3}Xb@rJg`$GNRMC,054558.00,A,0420.03912,S,05539.72622,E,0.187,,230525,,,A*71
$GNVTG,,T,,M,0.187,N,0.346,K,A*32
$GNGNS,054558.00,0420.03912,S,05539.72622,E,AA,11,1.11,17.7,-47.6,,*62
$GNGGA,054558.00,0420.03912,S,05539.72622,E,1,11,1.11,17.7,M,-47.6,M,,*48
$GNGSA,A,3,24,20,05,15,12,18,,,,,,,2.50,1.11,2.24*11
$GNGSA,A,3,75,87,71,72,76,,,,,,,,2.50,1.11,2.24*11
$GPGSV,5,1,17,05,61,073,27,11,04,027,,12,53,019,31,13,15,134,*76
$GPGSV,5,2,17,15,32,168,22,18,33,256,15,20,30,043,34,22,05,134,08*74
$GPGSV,5,3,17,23,20,207,,24,49,203,28,25,30,342,25,29,09,322,*78
$GPGSV,5,4,17,36,52,277,,40,86,350,,41,58,082,30,49,32,274,*7E
$GPGSV,5,5,17,50,10,089,*4A
$GLGSV,3,1,09,65,06,202,,71,18,098,10,72,26,150,08,74,21,152,10*6E
$GLGSV,3,2,09,75,74,135,19,76,40,340,18,86,15,353,06,87,26,307,10*6F
$GLGSV,3,3,09,88,08,249,*5B
$GNGLL,0420.03912,S,05539.72622,E,054558.00,A,A*65
$GNGRS,054558.00,1,1.5,-0.2,6.5,1.6,-3.4,0.8,,,,,,*54
$GNGRS,054558.00,1,0.7,39.6,-57.1,151,0.0,,,,,,,*49
$GNGST,054558.00,47,,,,5.2,8.2,11*60
$GNZDA,054558.00,23,05,2025,00,00*70
$GNGBS,054558.00,5.2,8.2,11.2,,,,*69
$GNTXT,01,01,01,More than 100 frame errors, UART RX was disabled*70
b0L(=I!5 !#+
P1sVB{4V^:R 
Y
mAGbIHJKJL(T~VaW3XMb(rNg$GNRMC,054559.00,A,0420.03920,S,05539.72630,E,0.202,,230525,,,A*7C
$GNVTG,,T,,M,0.202,N,0.373,K,A*3A
$GNGNS,054559.00,0420.03920,S,05539.72630,E,AA,11,0.80,17.7,-47.6,,*68
$GNGGA,054559.00,0420.03920,S,05539.72630,E,1,11,0.80,17.7,M,-47.6,M,,*42
$GNGSA,A,3,24,20,05,15,12,18,,,,,,,1.73,0.80,1.53*19
$GNGSA,A,3,75,87,71,72,76,,,,,,,,1.73,0.80,1.53*19
$GPGSV,5,1,17,05,61,073,27,11,04,027,,12,53,019,33,13,15,134,*74
$GPGSV,5,2,17,15,32,168,22,18,33,256,11,20,30,043,35,22,05,134,08*71
$GPGSV,5,3,17,23,20,207,,24,49,203,29,25,30,342,25,29,09,322,*79
$GPGSV,5,4,17,36,52,277,,40,86,350,,41,58,082,31,49,32,274,*7F
$GPGSV,5,5,17,50,10,089,*4A
$GLGSV,3,1,09,65,06,202,,71,18,098,14,72,26,150,12,74,21,152,12*63
$GLGSV,3,2,09,75,74,135,20,76,40,340,19,86,15,353,11,87,26,307,16*64
$GLGSV,3,3,09,88,08,249,*5B
$GNGLL,0420.03920,S,05539.72630,E,054559.00,A,A*66
$GNGRS,054559.00,1,1.2,-0.2,4.4,2.8,-2.3,9.7,,,,,,*5C
$GNGRS,054559.00,1,1.3,7.0,11.0,4.4,1.3,,,,,,,*41
$GNGST,054559.00,5073532,,,,5.2,8.3,11*56
$GNZDA,054559.00,23,05,2025,00,00*71
$GNGBS,054559.00,5.2,8.3,11.2,,,,*69
$GNTXT,01,01,01,More than 100 frame errors, UART RX was disabled*70
b0L=I"5 !"+

l1VB{4V^ :R3 
Y
mAGb[HJKJL(TV
auW3XpbrRg|0$GNRMC,054600.00,A,0420.03918,S,05539.72624,E,0.062,,230525,,,A*79
$GNVTG,,T,,M,0.062,N,0.114,K,A*3D
$GNGNS,054600.00,0420.03918,S,05539.72624,E,AA,12,0.79,17.8,-47.6,,*63
$GNGGA,054600.00,0420.03918,S,05539.72624,E,1,12,0.79,17.8,M,-47.6,M,,*49
$GNGSA,A,3,24,20,05,15,12,18,41,,,,,,1.65,0.79,1.45*1A
$GNGSA,A,3,75,87,71,72,76,,,,,,,,1.65,0.79,1.45*1F
$GPGSV,5,1,17,05,61,073,27,11,04,027,,12,53,019,34,13,15,134,*73
$GPGSV,5,2,17,15,32,168,23,18,33,256,13,20,30,043,34,22,05,134,10*7A
$GPGSV,5,3,17,23,20,207,,24,49,203,29,25,30,342,26,29,09,322,*7A
$GPGSV,5,4,17,36,52,277,,40,86,350,,41,58,082,32,49,32,274,*7C
$GPGSV,5,5,17,50,10,089,*4A
$GLGSV,3,1,09,65,06,202,,71,18,098,14,72,26,150,16,74,21,152,09*6D
$GLGSV,3,2,09,75,74,135,20,76,40,340,20,86,15,353,10,87,26,307,17*6E
$GLGSV,3,3,09,88,08,249,*5B
$GNGLL,0420.03918,S,05539.72624,E,054600.00,A,A*67
$GNGRS,054600.00,1,0.0,-0.1,5.4,2.3,-0.3,9.4,133,,,,,*69
$GNGRS,054600.00,1,2.1,6.9,11.2,4.4,1.6,,,,,,,*40
$GNGST,054600.00,4863370,,,,5.2,8.3,11*51
$GNZDA,054600.00,23,05,2025,00,00*7E
$GNGBS,054600.00,5.2,8.3,11.3,,,,*67
$GNTXT,01,01,01,More than 100 frame errors, UART RX was disabled*70
b0L=I"5 !A"+

l1 VhB{4V^!:R3 
Y
mAGb8HtJ1:KJL(T5V
ahW3XhbrVgS$GNRMC,054601.00,A,0420.03920,S,05539.72628,E,0.093,,230525,,,A*71
$GNVTG,,T,,M,0.093,N,0.172,K,A*33
$GNGNS,054601.00,0420.03920,S,05539.72628,E,AA,15,0.81,17.8,-47.6,,*65
$GNGGA,054601.00,0420.03920,S,05539.72628,E,1,12,0.81,17.8,M,-47.6,M,,*48
$GNGSA,A,3,24,20,05,15,12,18,25,41,,,,,1.73,0.81,1.53*1A
$GNGSA,A,3,86,74,75,87,71,72,76,,,,,,1.73,0.81,1.53*15
$GPGSV,5,1,17,05,61,073,27,11,04,027,,12,53,019,34,13,15,134,*73
$GPGSV,5,2,17,15,32,168,23,18,33,256,12,20,30,043,34,22,05,134,10*7B
$GPGSV,5,3,17,23,20,207,,24,49,203,29,25,30,342,27,29,09,322,*7B
$GPGSV,5,4,17,36,52,277,,40,86,350,,41,58,082,33,49,32,274,*7D
$GPGSV,5,5,17,50,10,089,*4A
$GLGSV,3,1,09,65,06,202,,71,18,098,11,72,26,150,12,74,21,152,09*6C
$GLGSV,3,2,09,75,74,135,22,76,40,340,19,86,15,353,10,87,26,307,11*60
$GLGSV,3,3,09,88,08,249,*5B
$GNGLL,0420.03920,S,05539.72628,E,054601.00,A,A*61
$GNGRS,054601.00,1,-4.8,0.1,1.7,2.5,0.2,0.7,-1.5,133,,,,*44
$GNGRS,054601.00,1,-114,149,1.3,10.2,39.0,-11.6,0.5,,,,,*48
$GNGST,054601.00,204837,,,,5.1,8.1,11*66
$GNZDA,054601.00,23,05,2025,00,00*7F
$GNGBS,054601.00,5.1,8.1,11.3,,,,*67
$GNTXT,01,01,01,More than 100 frame errors, UART RX was disabled*70
b0L=I#5 !"+

X1*VB{4V^7!:R3 
Y
nAGb;HJKJIL(TV
aW
3XvbrqZg+$GNRMC,054602.00,A,0420.03924,S,05539.72640,E,0.082,,230525,,,A*78
$GNVTG,,T,,M,0.082,N,0.152,K,A*31
$GNGNS,054602.00,0420.03924,S,05539.72640,E,AA,16,0.71,17.9,-47.6,,*61
$GNGGA,054602.00,0420.03924,S,05539.72640,E,1,12,0.71,17.9,M,-47.6,M,,*4F
$GNGSA,A,3,24,20,05,15,12,18,25,41,40,,,,1.30,0.71,1.09*19
$GNGSA,A,3,86,74,75,87,71,72,76,,,,,,1.30,0.71,1.09*12
$GPGSV,5,1,17,05,61,073,27,11,04,027,,12,53,019,35,13,15,134,*72
$GPGSV,5,2,17,15,32,168,24,18,33,256,16,20,30,043,34,22,05,134,12*7A
$GPGSV,5,3,17,23,20,207,,24,49,203,29,25,30,342,28,29,09,322,*74
$GPGSV,5,4,17,36,52,277,,40,86,350,30,41,58,082,33,49,32,274,*7E
$GPGSV,5,5,17,50,10,089,*4A
$GLGSV,3,1,09,65,06,202,,71,18,098,12,72,26,150,09,74,21,152,08*64
$GLGSV,3,2,09,75,74,135,22,76,40,340,19,86,15,353,10,87,26,307,10*61
$GLGSV,3,3,09,88,08,249,*5B
$GNGLL,0420.03924,S,05539.72640,E,054602.00,A,A*68
$GNGRS,054602.00,1,-2.1,0.1,2.3,3.9,-3.0,10.0,-3.1,133,143,,,*68
$GNGRS,054602.00,1,4.2,2.1,0.7,7.1,10.8,4.3,1.5,,,,,*45
$GNGST,054602.00,4213978,,,,5.0,8.0,11*5D
$GNZDA,054602.00,23,05,2025,00,00*7C
$GNGBS,054602.00,5.0,8.0,11.3,,,,*64
$GNTXT,01,01,01,More than 100 frame errors, UART RX was disabled*70
b0L=I$5Q !"+

<1VqB{4V^3":R3 
Y
nAGbHJKJ_L(TTV
aW3XbrY^gY$GNRMC,054603.00,A,0420.03927,S,05539.72641,E,0.042,,230525,,,A*77
$GNVTG,,T,,M,0.042,N,0.078,K,A*34
$GNGNS,054603.00,0420.03927,S,05539.72641,E,AA,16,0.71,17.6,-47.6,,*6D
$GNGGA,054603.00,0420.03927,S,05539.72641,E,1,12,0.71,17.6,M,-47.6,M,,*43
$GNGSA,A,3,24,20,05,15,12,18,25,41,40,,,,1.30,0.71,1.09*19
$GNGSA,A,3,86,74,75,87,71,72,76,,,,,,1.30,0.71,1.09*12
$GPGSV,5,1,17,05,61,073,27,11,04,027,,12,53,019,36,13,15,134,*71
$GPGSV,5,2,17,15,32,168,24,18,33,256,15,20,30,043,34,22,05,134,10*7B
$GPGSV,5,3,17,23,20,207,,24,49,203,29,25,30,342,29,29,09,322,*75
$GPGSV,5,4,17,36,52,277,,40,86,350,29,41,58,082,34,49,32,274,*71
$GPGSV,5,5,17,50,10,089,*4A
$GLGSV,3,1,09,65,06,202,,71,18,098,12,72,26,150,09,74,21,152,07*6B
$GLGSV,3,2,09,75,74,135,24,76,40,340,18,86,15,353,10,87,26,307,09*6E
$GLGSV,3,3,09,88,08,249,*5B
$GNGLL,0420.03927,S,05539.72641,E,054603.00,A,A*6B
$GNGRS,054603.00,1,-3.2,-0.2,2.2,2.4,-1.7,9.7,-1.4,133,132,,,*73
$GNGRS,054603.00,1,4.1,1.8,-1.6,6.9,10.4,3.9,0.8,,,,,*64
$GNGST,054603.00,5154632,,,,5.0,7.8,11*5B
$GNZDA,054603.00,23,05,2025,00,00*7D
$GNGBS,054603.00,5.0,7.8,11.3,,,,*62
$GNTXT,01,01,01,More than 100 frame errors, UART RX was disabled*70
b0L=I=$5h A!m"+

O1V]B{4V^5":R3 
Y
nAGbHFJHKJ~L(TVa=W3XnbrAbg$GNRMC,054604.00,A,0420.03931,S,05539.72637,E,0.070,,230525,,,A*77
$GNVTG,,T,,M,0.070,N,0.129,K,A*30
$GNGNS,054604.00,0420.03931,S,05539.72637,E,AA,15,0.86,17.5,-47.6,,*64
$GNGGA,054604.00,0420.03931,S,05539.72637,E,1,12,0.86,17.5,M,-47.6,M,,*49
$GNGSA,A,3,24,20,05,15,12,18,25,41,40,,,,1.64,0.86,1.40*1D
$GNGSA,A,3,74,75,87,71,72,76,,,,,,,1.64,0.86,1.40*18
$GPGSV,5,1,17,05,61,073,28,11,04,027,,12,53,019,36,13,15,134,*7E
$GPGSV,5,2,17,15,32,168,25,18,33,256,21,20,30,043,34,22,05,134,10*7D
$GPGSV,5,3,17,23,20,207,,24,49,203,28,25,30,342,29,29,09,322,*74
$GPGSV,5,4,17,36,52,277,,40,86,350,29,41,58,082,34,49,32,274,*71
$GPGSV,5,5,17,50,10,089,*4A
$GLGSV,3,1,09,65,06,202,,71,18,098,11,72,26,150,09,74,21,152,11*6F
$GLGSV,3,2,09,75,74,135,25,76,40,340,18,86,15,353,09,87,26,307,09*67
$GLGSV,3,3,09,88,08,249,*5B
$GNGLL,0420.03931,S,05539.72637,E,054604.00,A,A*6A
$GNGRS,054604.00,1,4.7,0.0,3.2,-1.9,-1.5,8.8,-1.6,132,138,,,*53
$GNGRS,054604.00,1,-145,-1.3,30.4,7.0,80.1,1.8,,,,,,*4F
$GNGST,054604.00,215804,,,,4.9,7.7,11*63
$GNZDA,054604.00,23,05,2025,00,00*7A
$GNGBS,054604.00,4.9,7.7,11.3,,,,*62
$GNTXT,01,01,01,More than 100 frame errors, UART RX was disabled*70
b0L=I$5_ !>"+
Y1VB{4V^H7":R3 
Y
nAGbWH
JKJL(TVaW3XPbr)fg)$GNRMC,054605.00,A,0420.03933,S,05539.72631,E,0.100,,230525,,,A*74
$GNVTG,,T,,M,0.100,N,0.185,K,A*30
$GNGNS,054605.00,0420.03933,S,05539.72631,E,AA,15,0.73,17.3,-47.6,,*6D
$GNGGA,054605.00,0420.03933,S,05539.72631,E,1,12,0.73,17.3,M,-47.6,M,,*40
$GNGSA,A,3,24,20,05,15,12,18,25,41,40,,,,1.41,0.73,1.20*16
$GNGSA,A,3,74,75,87,71,72,76,,,,,,,1.41,0.73,1.20*13
$GPGSV,5,1,17,05,61,073,27,11,04,027,,12,53,019,36,13,15,134,*71
$GPGSV,5,2,17,15,32,168,25,18,33,256,22,20,30,043,34,22,05,134,06*79
$GPGSV,5,3,17,23,20,207,,24,49,203,28,25,30,342,29,29,09,322,*74
$GPGSV,5,4,17,36,52,277,,40,86,350,30,41,58,082,34,49,32,274,*79
$GPGSV,5,5,17,50,10,089,*4A
$GLGSV,3,1,09,65,06,202,,71,18,098,12,72,26,150,10,74,21,152,08*6C
$GLGSV,3,2,09,75,74,135,23,76,40,340,17,86,15,353,09,87,26,307,13*65
$GLGSV,3,3,09,88,08,249,*5B
$GNGLL,0420.03933,S,05539.72631,E,054605.00,A,A*6F
$GNGRS,054605.00,1,2.9,-0.1,4.1,-2.6,-1.6,5.7,1.3,132,142,,,*5A
$GNGRS,054605.00,1,2.1,-2.7,6.7,11.1,4.5,1.7,,,,,,*4E
$GNGST,054605.00,3077914,,,,4.8,7.5,11*54
$GNZDA,054605.00,23,05,2025,00,00*7B
$GNGBS,054605.00,4.8,7.5,11.2,,,,*61
$GNTXT,01,01,01,More than 100 frame errors, UART RX was disabled*70
b0L=I#5i !#+
Y1V.B{4V^5!:R3 
Y
nAG
bZHJKJPL(TVaW3X;brjg$GNRMC,054606.00,A,0420.03934,S,05539.72627,E,0.069,,230525,,,A*79
$GNVTG,,T,,M,0.069,N,0.128,K,A*39
$GNGNS,054606.00,0420.03934,S,05539.72627,E,AA,15,0.73,17.3,-47.6,,*6E
$GNGGA,054606.00,0420.03934,S,05539.72627,E,1,12,0.73,17.3,M,-47.6,M,,*43
$GNGSA,A,3,24,20,05,15,12,18,25,41,40,,,,1.41,0.73,1.20*16
$GNGSA,A,3,74,75,87,71,72,76,,,,,,,1.41,0.73,1.20*13
$GPGSV,5,1,17,05,61,073,28,11,04,027,,12,53,019,35,13,15,134,*7D
$GPGSV,5,2,17,15,32,168,25,18,33,256,22,20,30,043,35,22,05,134,07*79
$GPGSV,5,3,17,23,20,207,,24,49,203,28,25,30,342,28,29,09,322,*75
$GPGSV,5,4,17,36,52,277,,40,86,350,30,41,58,082,33,49,32,274,*7E
$GPGSV,5,5,17,50,10,089,*4A
$GLGSV,3,1,09,65,06,202,,71,18,098,10,72,26,150,11,74,21,152,08*6F
$GLGSV,3,2,09,75,74,135,23,76,40,340,16,86,15,353,09,87,26,307,08*6E
$GLGSV,3,3,09,88,08,249,*5B
$GNGLL,0420.03934,S,05539.72627,E,054606.00,A,A*6C
$GNGRS,054606.00,1,-0.2,-0.2,4.9,-3.4,-1.5,7.0,0.5,132,138,,,*79
$GNGRS,054606.00,1,1.9,-1.8,6.7,11.1,4.5,2.3,,,,,,*4D
$GNGST,054606.00,3078246,,,,4.8,7.4,11*55
$GNZDA,054606.00,23,05,2025,00,00*78
$GNGBS,054606.00,4.8,7.4,11.2,,,,*63
$GNTXT,01,01,01,More than 100 frame errors, UART RX was disabled*70
b0Lh=I$5f !#+
G1VQB{4V^6":R3 
Y
nAGbHJ4KJ5L(T8Va0W3hX'bhrmgb$GNRMC,054607.00,A,0420.03933,S,05539.72622,E,0.061,,230525,,,A*72
$GNVTG,,T,,M,0.061,N,0.114,K,A*3E
$GNGNS,054607.00,0420.03933,S,05539.72622,E,AA,15,0.80,17.2,-47.6,,*60
$GNGGA,054607.00,0420.03933,S,05539.72622,E,1,12,0.80,17.2,M,-47.6,M,,*4D
$GNGSA,A,3,24,20,05,15,12,18,25,41,40,,,,1.55,0.80,1.33*1D
$GNGSA,A,3,86,75,87,71,72,76,,,,,,,1.55,0.80,1.33*15
$GPGSV,5,1,17,05,61,073,27,11,04,027,,12,53,019,36,13,15,134,*71
$GPGSV,5,2,17,15,32,168,25,18,33,256,21,20,30,043,35,22,05,134,09*74
$GPGSV,5,3,17,23,20,207,,24,49,203,30,25,30,342,29,29,09,322,*7D
$GPGSV,5,4,17,36,52,277,,40,86,350,29,41,58,082,34,49,32,274,*71
$GPGSV,5,5,17,50,10,089,*4A
$GLGSV,3,1,09,65,06,202,,71,18,098,11,72,26,150,12,74,21,152,07*62
$GLGSV,3,2,09,75,74,135,23,76,40,340,18,86,15,353,09,87,26,307,11*68
$GLGSV,3,3,09,88,08,249,*5B
$GNGLL,0420.03933,S,05539.72622,E,054607.00,A,A*6F
$GNGRS,054607.00,1,-2.6,-0.2,2.7,-3.8,-1.5,7.5,0.8,133,141,,,*7D
$GNGRS,054607.00,1,-143,-2.0,6.2,19.8,-66.7,0.6,,,,,,*62
$GNGST,054607.00,207338,,,,4.7,7.3,11*6D
$GNZDA,054607.00,23,05,2025,00,00*79
$GNGBS,054607.00,4.7,7.3,11.2,,,,*6A
$GNTXT,01,01,01,More than 100 frame errors, UART RX was disabled*70
b0LP=I$5] !#+
l1VB{4V^`6#:R3 
Y
nAGbRHJKJL(T}VaW3XbPrqg:^$GNRMC,054608.00,A,0420.03935,S,05539.72617,E,0.049,,230525,,,A*77
$GNVTG,,T,,M,0.049,N,0.090,K,A*39
$GNGNS,054608.00,0420.03935,S,05539.72617,E,AA,16,0.71,17.2,-47.6,,*62
$GNGGA,054608.00,0420.03935,S,05539.72617,E,1,12,0.71,17.2,M,-47.6,M,,*4C
$GNGSA,A,3,24,20,05,15,12,18,25,41,40,,,,1.30,0.71,1.09*19
$GNGSA,A,3,86,74,75,87,71,72,76,,,,,,1.30,0.71,1.09*12
$GPGSV,5,1,17,05,61,073,26,11,04,027,,12,53,019,36,13,15,134,*70
$GPGSV,5,2,17,15,32,168,25,18,33,256,21,20,30,043,35,22,05,134,08*75
$GPGSV,5,3,17,23,20,207,,24,49,203,31,25,30,342,30,29,09,322,*74
$GPGSV,5,4,17,36,52,277,,40,86,350,30,41,58,082,35,49,32,274,*78
$GPGSV,5,5,17,50,10,089,*4A
$GLGSV,3,1,09,65,06,202,,71,18,098,08,72,26,150,11,74,21,152,09*67
$GLGSV,3,2,09,75,74,135,23,76,40,340,20,86,15,353,11,87,26,307,07*6D
$GLGSV,3,3,09,88,08,249,*5B
$GNGLL,0420.03935,S,05539.72617,E,054608.00,A,A*60
$GNGRS,054608.00,1,0.0,-0.3,4.8,-3.7,-1.6,6.9,0.3,133,139,,,*56
$GNGRS,054608.00,1,3.9,2.1,-0.9,6.6,11.1,4.5,1.2,,,,,*6F
$GNGST,054608.00,4210995,,,,4.6,7.1,11*5E
$GNZDA,054608.00,23,05,2025,00,00*76
$GNGBS,054608.00,4.6,7.1,11.2,,,,*66
$GNTXT,01,01,01,More than 100 frame errors, UART RX was disabled*70
b0L8=I$5G !f#+

l1VB{4V^6":R3 
Y
nAGbLHJKJL(TVacW3XLb8rug$GNRMC,054609.00,A,0420.03935,S,05539.72616,E,0.080,,230525,,,A*72
$GNVTG,,T,,M,0.080,N,0.148,K,A*38
$GNGNS,054609.00,0420.03935,S,05539.72616,E,AA,16,0.71,17.2,-47.6,,*62
$GNGGA,054609.00,0420.03935,S,05539.72616,E,1,12,0.71,17.2,M,-47.6,M,,*4C
$GNGSA,A,3,24,20,05,15,12,18,25,41,40,,,,1.30,0.71,1.09*19
$GNGSA,A,3,86,74,75,87,71,72,76,,,,,,1.30,0.71,1.09*12
$GPGSV,5,1,17,05,61,073,26,11,04,027,,12,53,019,36,13,15,134,*70
$GPGSV,5,2,17,15,32,168,24,18,33,256,21,20,30,043,35,22,05,134,10*7D
$GPGSV,5,3,17,23,20,207,,24,49,203,31,25,30,342,30,29,09,322,*74
$GPGSV,5,4,17,36,52,277,,40,86,350,30,41,58,082,34,49,32,274,*79
$GPGSV,5,5,17,50,10,089,*4A
$GLGSV,3,1,09,65,06,202,,71,18,098,11,72,26,150,15,74,21,152,08*6A
$GLGSV,3,2,09,75,74,135,23,76,40,340,20,86,15,353,07,87,26,307,08*65
$GLGSV,3,3,09,88,08,249,*5B
$GNGLL,0420.03935,S,05539.72616,E,054609.00,A,A*60
$GNGRS,054609.00,1,-5.0,-0.4,4.8,-3.5,-1.8,6.1,-1.1,133,140,,,*5C
$GNGRS,054609.00,1,3.6,2.0,-2.5,6.5,11.0,4.4,2.6,,,,,*6A
$GNGST,054609.00,4212009,,,,4.6,7.0,11*50
$GNZDA,054609.00,23,05,2025,00,00*77
$GNGBS,054609.00,4.6,7.0,11.2,,,,*66
$GNTXT,01,01,01,More than 100 frame errors, UART RX was disabled*70
b0L =I$5R !#+
?1nVB{4V^6":R3 
Y
nAGbSHJKJL(TVa"W3;Xb ryg.$GNRMC,054610.00,A,0420.03937,S,05539.72612,E,0.106,,230525,,,A*73
$GNVTG,,T,,M,0.106,N,0.196,K,A*34
$GNGNS,054610.00,0420.03937,S,05539.72612,E,AA,15,0.90,17.1,-47.6,,*63
$GNGGA,054610.00,0420.03937,S,05539.72612,E,1,12,0.90,17.1,M,-47.6,M,,*4E
$GNGSA,A,3,24,20,05,15,12,18,25,41,40,,,,1.79,0.90,1.55*12
$GNGSA,A,3,86,75,87,71,72,76,,,,,,,1.79,0.90,1.55*1A
$GPGSV,5,1,17,05,61,073,27,11,04,027,,12,53,019,36,13,15,134,*71
$GPGSV,5,2,17,15,32,168,25,18,33,256,21,20,30,043,35,22,05,134,08*75
$GPGSV,5,3,17,23,20,207,,24,49,203,31,25,30,342,30,29,09,322,*74
$GPGSV,5,4,17,36,52,277,,40,86,350,30,41,58,082,34,49,32,274,*79
$GPGSV,5,5,17,50,10,089,*4A
$GLGSV,3,1,09,65,06,202,,71,18,098,11,72,26,150,08,74,21,152,07*69
$GLGSV,3,2,09,75,74,135,24,76,40,340,22,86,15,353,07,87,26,307,08*60
$GLGSV,3,3,09,88,08,249,*5B
$GNGLL,0420.03937,S,05539.72612,E,054610.00,A,A*6E
$GNGRS,054610.00,1,-1.5,-0.3,4.4,-3.0,-1.7,5.1,-0.1,133,140,,,*56
$GNGRS,054610.00,1,88.3,-3.3,153,23.9,-8.1,2.4,,,,,,*4B
$GNGST,054610.00,215804,,,,4.5,6.9,11*65
$GNZDA,054610.00,23,05,2025,00,00*7F
$GNGBS,054610.00,4.5,6.9,11.1,,,,*66
$GNTXT,01,01,01,More than 100 frame errors, UART RX was disabled*70
b0L=I2$5? !K#+
s1VB{4V^6":R3 
Y
nAG
aOHJKJL(TV
aW
3XTbr}g$GNRMC,054611.00,A,0420.03933,S,05539.72607,E,0.116,,230525,,,A*73
$GNVTG,,T,,M,0.116,N,0.214,K,A*3C
$GNGNS,054611.00,0420.03933,S,05539.72607,E,AA,15,0.73,17.0,-47.6,,*6E
$GNGGA,054611.00,0420.03933,S,05539.72607,E,1,12,0.73,17.0,M,-47.6,M,,*43
$GNGSA,A,3,24,20,05,15,12,18,25,41,40,,,,1.37,0.73,1.15*11
$GNGSA,A,3,86,75,87,71,72,76,,,,,,,1.37,0.73,1.15*19
$GPGSV,5,1,17,05,61,073,27,11,04,027,,12,53,019,36,13,15,134,*71
$GPGSV,5,2,17,15,32,168,26,18,33,256,20,20,30,043,35,22,05,134,08*77
$GPGSV,5,3,17,23,20,207,,24,49,203,30,25,30,342,30,29,09,322,*75
$GPGSV,5,4,17,36,52,277,,40,86,350,30,41,58,082,34,49,32,274,*79
$GPGSV,5,5,17,50,10,089,*4A
$GLGSV,3,1,09,65,06,202,,71,18,097,10,72,26,150,13,74,21,152,09*63
$GLGSV,3,2,09,75,74,135,25,76,40,340,22,86,15,353,10,87,26,307,10*6E
$GLGSV,3,3,09,88,08,249,*5B
$GNGLL,0420.03933,S,05539.72607,E,054611.00,A,A*6F
$GNGRS,054611.00,1,-2.8,-0.2,3.1,-2.3,-1.9,5.9,-0.4,133,141,,,*5A
$GNGRS,054611.00,1,3.9,-3.7,6.7,11.0,4.6,2.0,,,,,,*45
$GNGST,054611.00,296777,,,,4.5,6.8,11*65
$GNZDA,054611.00,23,05,2025,00,00*7E
$GNGBS,054611.00,4.5,6.8,11.1,,,,*66
$GNTXT,01,01,01,More than 100 frame errors, UART RX was disabled*70
b0L=IO$5' '!"#+
r1VZB{4V^6":R3 
Y
nAGaFHJKJL(TVajW3Xbrg$GNRMC,054612.00,A,0420.03930,S,05539.72602,E,0.048,,230525,,,A*7C
$GNVTG,,T,,M,0.048,N,0.088,K,A*31
$GNGNS,054612.00,0420.03930,S,05539.72602,E,AA,15,0.73,16.8,-47.6,,*62
$GNGGA,054612.00,0420.03930,S,05539.72602,E,1,12,0.73,16.8,M,-47.6,M,,*4F
$GNGSA,A,3,24,20,05,15,12,18,25,41,40,,,,1.37,0.73,1.15*11
$GNGSA,A,3,86,75,87,71,72,76,,,,,,,1.37,0.73,1.15*19
$GPGSV,5,1,17,05,61,073,27,11,04,027,,12,53,019,36,13,15,134,*71
$GPGSV,5,2,17,15,32,168,26,18,33,256,20,20,30,043,35,22,05,134,11*7F
$GPGSV,5,3,17,23,20,207,,24,49,203,30,25,30,342,30,29,09,322,*75
$GPGSV,5,4,17,36,52,277,,40,86,350,31,41,58,082,34,49,32,274,*78
$GPGSV,5,5,17,50,10,089,*4A
$GLGSV,3,1,09,65,06,202,,71,18,097,14,72,26,150,13,74,21,152,08*66
$GLGSV,3,2,09,75,74,135,26,76,40,340,23,86,15,353,07,87,26,307,08*63
$GLGSV,3,3,09,88,08,249,*5B
$GNGLL,0420.03930,S,05539.72602,E,054612.00,A,A*6A
$GNGRS,054612.00,1,-6.0,-0.5,3.4,-2.2,-2.2,8.0,0.9,133,141,,,*7A
$GNGRS,054612.00,1,3.6,-3.8,6.6,10.9,4.5,2.1,,,,,,*4D
$GNGST,054612.00,4347693,,,,4.4,6.7,11*5A
$GNZDA,054612.00,23,05,2025,00,00*7D
$GNGBS,054612.00,4.4,6.7,11.1,,,,*6B
$GNTXT,01,01,01,More than 100 frame errors, UART RX was disabled*70
b0L
=I$5  !#+
1GVSB{4V^6":R3 
Y
nAGaHJ
<KJL(T_VaW3X:b
rigre$GNRMC,054613.00,A,0420.03928,S,05539.72596,E,0.043,,230525,,,A*71
$GNVTG,,T,,M,0.043,N,0.080,K,A*32
$GNGNS,054613.00,0420.03928,S,05539.72596,E,AA,15,0.81,16.7,-47.6,,*66
$GNGGA,054613.00,0420.03928,S,05539.72596,E,1,12,0.81,16.7,M,-47.6,M,,*4B
$GNGSA,A,3,24,20,05,15,12,18,25,41,40,,,,1.57,0.81,1.34*19
$GNGSA,A,3,86,75,87,71,72,76,,,,,,,1.57,0.81,1.34*11
$GPGSV,5,1,17,05,61,073,27,11,04,027,,12,53,019,36,13,15,134,*71
$GPGSV,5,2,17,15,32,168,26,18,33,256,20,20,30,043,35,22,05,134,09*76
$GPGSV,5,3,17,23,20,207,,24,49,203,31,25,30,342,30,29,09,322,*74
$GPGSV,5,4,17,36,52,277,,40,86,350,31,41,58,082,34,49,32,274,*78
$GPGSV,5,5,17,50,10,089,*4A
$GLGSV,3,1,09,65,06,202,,71,18,097,11,72,26,150,11,74,21,152,10*68
$GLGSV,3,2,09,75,74,135,25,76,40,340,22,86,15,353,11,87,26,307,08*66
$GLGSV,3,3,09,88,08,249,*5B
$GNGLL,0420.03928,S,05539.72596,E,054613.00,A,A*6C
$GNGRS,054613.00,1,-4.4,-0.5,2.2,-2.4,-2.2,7.2,0.8,133,140,,,*71
$GNGRS,054613.00,1,-143,-5.1,71.0,-1.0,-1.2,0.9,,,,,,*74
$GNGST,054613.00,2358,,,,4.4,6.6,11*6E
$GNZDA,054613.00,23,05,2025,00,00*7C
$GNGBS,054613.00,4.4,6.6,11.1,,,,*6B
$GNTXT,01,01,01,More than 100 frame errors, UART RX was disabled*70
b0L=IZ$5: !#+

y1VB{4V^6":R4 
Y
nAGaJHJKJL(TVaW3XbrQgJ$GNRMC,054614.00,A,0420.03925,S,05539.72594,E,0.044,,230525,,,A*7E
$GNVTG,,T,,M,0.044,N,0.082,K,A*37
$GNGNS,054614.00,0420.03925,S,05539.72594,E,AA,15,0.73,16.6,-47.6,,*62
$GNGGA,054614.00,0420.03925,S,05539.72594,E,1,12,0.73,16.6,M,-47.6,M,,*4F
$GNGSA,A,3,24,20,05,15,12,18,25,41,40,,,,1.37,0.73,1.15*11
$GNGSA,A,3,86,75,87,71,72,76,,,,,,,1.37,0.73,1.15*19
$GPGSV,5,1,17,05,61,073,27,11,04,027,,12,53,019,36,13,15,134,*71
$GPGSV,5,2,17,15,32,168,25,18,33,256,19,20,30,043,35,22,05,134,10*77
$GPGSV,5,3,17,23,20,207,,24,49,203,31,25,30,342,30,29,09,322,*74
$GPGSV,5,4,17,36,52,277,,40,86,350,31,41,58,082,34,49,32,274,*78
$GPGSV,5,5,17,50,10,089,*4A
$GLGSV,3,1,09,65,06,202,,71,18,097,11,72,26,150,11,74,21,152,08*61
$GLGSV,3,2,09,75,74,135,25,76,40,340,22,86,15,353,07,87,26,307,11*69
$GLGSV,3,3,09,88,08,249,*5B
$GNGLL,0420.03925,S,05539.72594,E,054614.00,A,A*64
$GNGRS,054614.00,1,-6.3,-0.6,3.5,-3.4,-2.0,7.5,-0.4,133,140,,,*53
$GNGRS,054614.00,1,4.2,-5.4,6.8,11.0,4.5,1.8,,,,,,*4E
$GNGST,054614.00,3074534,,,,4.3,6.5,11*53
$GNZDA,054614.00,23,05,2025,00,00*7B
$GNGBS,054614.00,4.3,6.5,11.0,,,,*69
$GNTXT,01,01,01,More than 100 frame errors, UART RX was disabled*70
b0L=I$5E m!%#+
v1VB{4V^6":R4 
Y
nAGa<HJKJ(L(T,VaW3Xbr9g"5$GNRMC,054615.00,A,0420.03927,S,05539.72589,E,0.064,,230525,,,A*73
$GNVTG,,T,,M,0.064,N,0.119,K,A*36
$GNGNS,054615.00,0420.03927,S,05539.72589,E,AA,15,0.73,16.4,-47.6,,*6F
$GNGGA,054615.00,0420.03927,S,05539.72589,E,1,12,0.73,16.4,M,-47.6,M,,*42
$GNGSA,A,3,24,20,05,15,12,18,25,41,40,,,,1.37,0.73,1.15*11
$GNGSA,A,3,86,75,87,71,72,76,,,,,,,1.37,0.73,1.15*19
$GPGSV,5,1,17,05,61,073,27,11,04,027,,12,53,019,36,13,15,134,*71
$GPGSV,5,2,17,15,32,168,25,18,33,256,20,20,30,043,35,22,05,134,09*75
$GPGSV,5,3,17,23,20,207,,24,49,203,31,25,30,342,30,29,09,322,*74
$GPGSV,5,4,17,36,52,277,,40,86,350,31,41,58,082,34,49,32,274,*78
$GPGSV,5,5,17,50,10,089,*4A
$GLGSV,3,1,09,65,06,202,,71,18,097,11,72,26,150,16,74,21,152,09*67
$GLGSV,3,2,09,75,74,137,26,76,40,340,22,86,15,353,12,87,26,307,11*6C
$GLGSV,3,3,09,88,08,249,*5B
$GNGLL,0420.03927,S,05539.72589,E,054615.00,A,A*6B
$GNGRS,054615.00,1,2.2,-0.6,1.6,-1.5,-1.9,8.1,-0.3,133,140,,,*7E
$GNGRS,054615.00,1,4.3,-4.7,6.8,10.8,4.3,0.4,,,,,,*4E
$GNGST,054615.00,3078312,,,,4.3,6.4,11*5D
$GNZDA,054615.00,23,05,2025,00,00*7A
$GNGBS,054615.00,4.3,6.4,11.0,,,,*69
$GNTXT,01,01,01,More than 100 frame errors, UART RX was disabled*70
b0L=Il$5X !#+

 1V=B{4V^6":R4 
Y
nAG
aH
J#KJ{L)T<Va;W3Xbr!g$GNRMC,054616.00,A,0420.03928,S,05539.72586,E,0.041,,230525,,,A*77
$GNVTG,,T,,M,0.041,N,0.075,K,A*3A
$GNGNS,054616.00,0420.03928,S,05539.72586,E,AA,15,0.90,16.3,-47.6,,*66
$GNGGA,054616.00,0420.03928,S,05539.72586,E,1,12,0.90,16.3,M,-47.6,M,,*4B
$GNGSA,A,3,24,20,05,15,12,18,25,41,40,,,,1.79,0.90,1.55*12
$GNGSA,A,3,86,75,87,71,72,76,,,,,,,1.79,0.90,1.55*1A
$GPGSV,5,1,17,05,61,073,27,11,04,027,,12,53,019,36,13,15,134,*71
$GPGSV,5,2,17,15,32,168,25,18,33,256,20,20,30,043,35,22,05,134,10*7D
$GPGSV,5,3,17,23,20,207,,24,49,203,32,25,30,342,30,29,09,322,*77
$GPGSV,5,4,17,36,52,277,,40,86,350,30,41,58,082,34,49,32,274,*79
$GPGSV,5,5,17,50,10,089,*4A
$GLGSV,3,1,09,65,06,202,,71,18,097,10,72,26,150,10,74,21,152,09*60
$GLGSV,3,2,09,75,74,137,26,76,41,340,22,86,15,353,12,87,26,307,11*6D
$GLGSV,3,3,09,88,08,249,*5B
$GNGLL,0420.03928,S,05539.72586,E,054616.00,A,A*68
$GNGRS,054616.00,1,-1.1,-0.3,1.1,-0.7,-1.7,7.1,-1.9,133,140,,,*5B
$GNGRS,054616.00,1,151,-3.9,-23.4,20.3,-8.2,0.6,,,,,,*64
$GNGST,054616.00,2436,,,,4.3,6.4,11*61
$GNZDA,054616.00,23,05,2025,00,00*79
$GNGBS,054616.00,4.3,6.4,11.0,,,,*6A
$GNTXT,01,01,01,More than 100 frame errors, UART RX was disabled*70
b0Lx=I$5Y t!U#+
1VB{4V^6":R3 
Y
nAGaFHJKJqL)T.V
aW
3Xbxrg$GNRMC,054617.00,A,0420.03930,S,05539.72589,E,0.075,,230525,,,A*77
$GNVTG,,T,,M,0.075,N,0.140,K,A*3A
$GNGNS,054617.00,0420.03930,S,05539.72589,E,AA,15,0.73,16.3,-47.6,,*6C
$GNGGA,054617.00,0420.03930,S,05539.72589,E,1,12,0.73,16.3,M,-47.6,M,,*41
$GNGSA,A,3,24,20,05,15,12,18,25,41,40,,,,1.48,0.73,1.29*16
$GNGSA,A,3,86,75,87,71,72,76,,,,,,,1.48,0.73,1.29*1E
$GPGSV,5,1,17,05,61,073,28,11,04,027,,12,53,019,36,13,15,134,*7E
$GPGSV,5,2,17,15,32,168,26,18,33,256,21,20,30,043,35,22,05,134,11*7E
$GPGSV,5,3,17,23,20,207,,24,49,203,31,25,30,342,30,29,09,322,*74
$GPGSV,5,4,17,36,52,277,,40,86,350,30,41,58,082,34,49,32,274,*79
$GPGSV,5,5,17,50,10,089,*4A
$GLGSV,3,1,09,65,06,202,,71,18,097,09,72,26,150,11,74,21,152,08*68
$GLGSV,3,2,09,75,74,137,26,76,41,340,22,86,15,353,10,87,26,307,10*6E
$GLGSV,3,3,09,88,08,249,*5B
$GNGLL,0420.03930,S,05539.72589,E,054617.00,A,A*6F
$GNGRS,054617.00,1,-4.9,-0.4,2.4,-1.4,-1.7,6.0,-5.8,133,141,,,*50
$GNGRS,054617.00,1,4.3,-4.0,7.0,10.9,4.5,0.5,,,,,,*44
$GNGST,054617.00,3183779,,,,4.2,6.3,11*55
$GNZDA,054617.00,23,05,2025,00,00*78
$GNGBS,054617.00,4.2,6.3,11.0,,,,*6D
$GNTXT,01,01,01,More than 100 frame errors, UART RX was disabled*70
b0L`=I8$5 !3$+

 1VB{4V^6":R3 
Y
nAGa9HJ
KJL)TVaW3Xb`rgj$GNRMC,054618.00,A,0420.03931,S,05539.72593,E,0.106,,230525,,,A*77
$GNVTG,,T,,M,0.106,N,0.196,K,A*34
$GNGNS,054618.00,0420.03931,S,05539.72593,E,AA,15,0.73,16.3,-47.6,,*69
$GNGGA,054618.00,0420.03931,S,05539.72593,E,1,12,0.73,16.3,M,-47.6,M,,*44
$GNGSA,A,3,24,20,05,15,12,18,25,41,40,,,,1.37,0.73,1.15*11
$GNGSA,A,3,86,75,87,71,72,76,,,,,,,1.37,0.73,1.15*19
$GPGSV,5,1,17,05,61,073,28,11,04,027,,12,53,019,36,13,15,134,*7E
$GPGSV,5,2,17,15,32,168,26,18,33,256,21,20,30,043,36,22,05,134,10*7C
$GPGSV,5,3,17,23,20,207,,24,49,203,32,25,30,342,30,29,09,322,*77
$GPGSV,5,4,17,36,52,277,,40,86,350,30,41,58,082,34,49,32,274,*79
$GPGSV,5,5,17,50,10,089,*4A
$GLGSV,3,1,09,65,06,202,,71,18,097,11,72,26,150,13,74,21,152,10*6A
$GLGSV,3,2,09,75,74,137,26,76,41,340,23,86,15,353,11,87,26,307,11*6F
$GLGSV,3,3,09,88,08,249,*5B
$GNGLL,0420.03931,S,05539.72593,E,054618.00,A,A*6A
$GNGRS,054618.00,1,-2.6,-0.6,3.1,-0.1,-1.2,5.6,-1.2,133,141,,,*5A
$GNGRS,054618.00,1,4.2,-4.9,7.1,10.8,4.4,-3.2,,,,,,*6B
$GNGST,054618.00,4346264,,,,4.2,6.2,11*5E
$GNZDA,054618.00,23,05,2025,00,00*77
$GNGBS,054618.00,4.2,6.2,10.9,,,,*6B
$GNTXT,01,01,01,More than 100 frame errors, UART RX was disabled*70
b0LH"=I$5 -!$+
 1VB{4V^6":R4 
Y
nAGaHJ@KJ=L)T V
a|W3s(XbH"rg$GNRMC,054619.00,A,0420.03930,S,05539.72592,E,0.064,,230525,,,A*73
$GNVTG,,T,,M,0.064,N,0.118,K,A*37
$GNGNS,054619.00,0420.03930,S,05539.72592,E,AA,15,0.90,16.2,-47.6,,*64
$GNGGA,054619.00,0420.03930,S,05539.72592,E,1,12,0.90,16.2,M,-47.6,M,,*49
$GNGSA,A,3,24,20,05,15,12,18,25,41,40,,,,1.79,0.90,1.55*12
$GNGSA,A,3,86,75,87,71,72,76,,,,,,,1.79,0.90,1.55*1A
$GPGSV,5,1,17,05,61,073,28,11,04,027,,12,53,019,36,13,15,134,*7E
$GPGSV,5,2,17,15,32,168,26,18,33,256,21,20,30,043,36,22,05,134,09*74
$GPGSV,5,3,17,23,20,207,,24,49,203,32,25,30,342,30,29,09,322,*77
$GPGSV,5,4,17,36,52,277,,40,86,350,31,41,58,082,34,49,32,274,*78
$GPGSV,5,5,17,50,10,089,*4A
$GLGSV,3,1,09,65,06,202,,71,18,097,09,72,26,150,13,74,21,152,08*6A
$GLGSV,3,2,09,75,74,137,26,76,41,340,22,86,15,353,10,87,26,307,11*6F
$GLGSV,3,3,09,88,08,249,*5B
$GNGLL,0420.03930,S,05539.72592,E,054619.00,A,A*6B
$GNGRS,054619.00,1,-5.7,-0.5,2.6,0.5,-1.1,6.8,-2.6,133,141,,,*78
$GNGRS,054619.00,1,70.4,-4.5,104,71.2,-3.3,-2.2,,,,,,*6F
$GNGST,054619.00,2454,,,,4.2,6.2,11*6D
$GNZDA,054619.00,23,05,2025,00,00*76
$GNGBS,054619.00,4.2,6.2,10.9,,,,*6A
$GNTXT,01,01,01,More than 100 frame errors, UART RX was disabled*70
b0L0&=I$5 !R#+

 1VB{4V^6":R3 
Y
nAGaKHJ
KJPL)TVaW3XNb0&rgY:$GNRMC,054620.00,A,0420.03929,S,05539.72591,E,0.087,,230525,,,A*7F
$GNVTG,,T,,M,0.087,N,0.162,K,A*37
$GNGNS,054620.00,0420.03929,S,05539.72591,E,AA,15,0.73,16.2,-47.6,,*68
$GNGGA,054620.00,0420.03929,S,05539.72591,E,1,12,0.73,16.2,M,-47.6,M,,*45
$GNGSA,A,3,24,20,05,15,12,18,25,41,40,,,,1.37,0.73,1.15*11
$GNGSA,A,3,86,75,87,71,72,76,,,,,,,1.37,0.73,1.15*19
$GPGSV,5,1,17,05,61,073,28,11,04,027,,12,53,019,36,13,15,134,*7E
$GPGSV,5,2,17,15,32,168,26,18,33,256,20,20,30,043,35,22,05,134,10*7E
$GPGSV,5,3,17,23,20,207,,24,49,203,32,25,30,342,30,29,09,322,*77
$GPGSV,5,4,17,36,52,277,,40,86,350,30,41,58,082,34,49,32,274,*79
$GPGSV,5,5,17,50,10,089,*4A
$GLGSV,3,1,09,65,06,202,,71,18,097,09,72,26,150,13,74,21,152,10*63
$GLGSV,3,2,09,75,74,137,26,76,41,340,22,86,15,353,11,87,26,307,13*6C
$GLGSV,3,3,09,88,08,249,*5B
$GNGLL,0420.03929,S,05539.72591,E,054620.00,A,A*6A
$GNGRS,054620.00,1,-5.8,-0.6,2.2,1.6,-0.9,5.9,-3.0,133,141,,,*74
$GNGRS,054620.00,1,4.0,-4.3,6.8,11.0,4.5,-0.7,,,,,,*6E
$GNGST,054620.00,5320557,,,,4.1,6.1,11*53
$GNZDA,054620.00,23,05,2025,00,00*7C
$GNGBS,054620.00,4.1,6.1,10.8,,,,*61
$GNTXT,01,01,01,More than 100 frame errors, UART RX was disabled*70
b0L*=I$5 F!#+
 1*VB{4V^6":R3 
Y
nAGaCHJKJ4L)TVaW
3Xlb*rg1$GNRMC,054621.00,A,0420.03929,S,05539.72591,E,0.085,,230525,,,A*7C
$GNVTG,,T,,M,0.085,N,0.158,K,A*3C
$GNGNS,054621.00,0420.03929,S,05539.72591,E,AA,15,0.73,16.1,-47.6,,*6A
$GNGGA,054621.00,0420.03929,S,05539.72591,E,1,12,0.73,16.1,M,-47.6,M,,*47
$GNGSA,A,3,24,20,05,15,12,18,25,41,40,,,,1.37,0.73,1.15*11
$GNGSA,A,3,86,75,87,71,72,76,,,,,,,1.37,0.73,1.15*19
$GPGSV,5,1,17,05,61,073,28,11,04,027,,12,53,019,36,13,15,134,*7E
$GPGSV,5,2,17,15,32,168,26,18,33,256,20,20,30,043,35,22,05,134,11*7F
$GPGSV,5,3,17,23,20,207,,24,49,203,32,25,30,342,30,29,09,322,*77
$GPGSV,5,4,17,36,52,277,,40,86,350,31,41,58,082,34,49,32,274,*78
$GPGSV,5,5,17,50,10,089,*4A
$GLGSV,3,1,09,65,06,202,,71,18,097,11,72,26,150,11,74,21,152,09*60
$GLGSV,3,2,09,75,74,137,26,76,41,340,21,86,15,353,09,87,26,307,10*65
$GLGSV,3,3,09,88,08,249,*5B
$GNGLL,0420.03929,S,05539.72591,E,054621.00,A,A*6B
$GNGRS,054621.00,1,-4.7,-0.6,0.1,3.3,-1.0,6.9,-3.4,133,141,,,*72
$GNGRS,054621.00,1,3.9,-4.6,6.8,10.9,4.4,-0.7,,,,,,*6D
$GNGST,054621.00,5321249,,,,4.1,6.0,11*5A
$GNZDA,054621.00,23,05,2025,00,00*7D
$GNGBS,054621.00,4.1,6.0,10.8,,,,*61
$GNTXT,01,01,01,More than 100 frame errors, UART RX was disabled*70
b0L.=IJ$5 }!#+
? 1mV=B{4V^6":R3 
Y
nAGaHJKJL)T]V
a:W3
Xb.rg
$GNRMC,054622.00,A,0420.03928,S,05539.72586,E,0.114,,230525,,,A*71
$GNVTG,,T,,M,0.114,N,0.211,K,A*3B
$GNGNS,054622.00,0420.03928,S,05539.72586,E,AA,15,0.84,16.0,-47.6,,*67
$GNGGA,054622.00,0420.03928,S,05539.72586,E,1,12,0.84,16.0,M,-47.6,M,,*4A
$GNGSA,A,3,24,20,05,15,12,18,25,41,40,,,,1.71,0.84,1.49*12
$GNGSA,A,3,86,75,87,71,72,76,,,,,,,1.71,0.84,1.49*1A
$GPGSV,5,1,17,05,61,073,28,11,04,027,,12,53,019,36,13,15,134,*7E
$GPGSV,5,2,17,15,32,168,26,18,33,256,20,20,30,043,35,22,05,134,11*7F
$GPGSV,5,3,17,23,20,207,,24,49,203,32,25,30,342,29,29,09,322,*7F
$GPGSV,5,4,17,36,52,277,,40,86,350,30,41,58,082,34,49,32,274,*79
$GPGSV,5,5,17,50,10,089,*4A
$GLGSV,3,1,09,65,06,202,,71,18,097,09,72,26,150,11,74,21,152,08*68
$GLGSV,3,2,09,75,74,137,26,76,41,340,21,86,15,353,10,87,26,307,09*65
$GLGSV,3,3,09,88,08,249,*5B
$GNGLL,0420.03928,S,05539.72586,E,054622.00,A,A*6F
$GNGRS,054622.00,1,-4.0,-0.6,0.7,1.3,-1.3,6.9,-4.5,133,141,,,*77
$GNGRS,054622.00,1,150,-5.9,2.7,43.0,-15.7,0.9,,,,,,*49
$GNGST,054622.00,2340,,,,4.0,6.0,11*67
$GNZDA,054622.00,23,05,2025,00,00*7E
$GNGBS,054622.00,4.0,6.0,10.8,,,,*63
$GNTXT,01,01,01,More than 100 frame errors, UART RX was disabled*70
b0L1=Iv$5 !$+
w 1yVB{4V^7":R3 
Y
nAGaCHJKJL)TV
aW3XOb1rygc$GNRMC,054623.00,A,0420.03927,S,05539.72585,E,0.038,,230525,,,A*73
$GNVTG,,T,,M,0.038,N,0.071,K,A*30
$GNGNS,054623.00,0420.03927,S,05539.72585,E,AA,15,0.73,15.9,-47.6,,*68
$GNGGA,054623.00,0420.03927,S,05539.72585,E,1,12,0.73,15.9,M,-47.6,M,,*45
$GNGSA,A,3,24,20,05,15,12,18,25,41,40,,,,1.48,0.73,1.29*16
$GNGSA,A,3,86,75,87,71,72,76,,,,,,,1.48,0.73,1.29*1E
$GPGSV,5,1,17,05,61,073,27,11,04,027,,12,53,019,36,13,15,134,*71
$GPGSV,5,2,17,15,32,168,26,18,33,256,19,20,30,043,36,22,05,134,11*76
$GPGSV,5,3,17,23,20,207,,24,49,203,32,25,30,342,29,29,09,322,*7F
$GPGSV,5,4,17,36,52,277,,40,86,350,31,41,58,082,34,49,32,274,*78
$GPGSV,5,5,17,50,10,089,*4A
$GLGSV,3,1,09,65,06,202,,71,18,097,11,72,26,150,12,74,21,152,11*6A
$GLGSV,3,2,09,75,74,137,27,76,41,340,20,86,15,353,10,87,26,307,09*65
$GLGSV,3,3,09,88,08,249,*5B
$GNGLL,0420.03927,S,05539.72585,E,054623.00,A,A*62
$GNGRS,054623.00,1,-6.5,-0.6,1.2,2.2,-1.1,7.0,-3.8,133,141,,,*77
$GNGRS,054623.00,1,4.0,-4.9,6.8,10.9,4.4,1.8,,,,,,*4D
$GNGST,054623.00,4496371,,,,4.0,6.0,11*59
$GNZDA,054623.00,23,05,2025,00,00*7F
$GNGBS,054623.00,4.0,6.0,10.7,,,,*6D
$GNTXT,01,01,01,More than 100 frame errors, UART RX was disabled*70
b0L5=IH%5> P!$+
O 1VB{4 V^7#:R3 
Y
nAGa&HJKJL)TVaW3X)b5rag$GNRMC,054624.00,A,0420.03927,S,05539.72590,E,0.183,,230525,,,A*71
$GNVTG,,T,,M,0.183,N,0.339,K,A*3E
$GNGNS,054624.00,0420.03927,S,05539.72590,E,AA,15,0.73,15.8,-47.6,,*6A
$GNGGA,054624.00,0420.03927,S,05539.72590,E,1,12,0.73,15.8,M,-47.6,M,,*47
$GNGSA,A,3,24,20,05,15,12,18,25,41,40,,,,1.37,0.73,1.15*11
$GNGSA,A,3,86,75,87,71,72,76,,,,,,,1.37,0.73,1.15*19
$GPGSV,5,1,17,05,61,073,27,11,04,027,,12,53,019,37,13,15,134,15*74
$GPGSV,5,2,17,15,32,168,27,18,33,256,21,20,30,043,36,22,05,134,08*74
$GPGSV,5,3,17,23,20,207,,24,49,203,32,25,30,342,30,29,09,322,*77
$GPGSV,5,4,17,36,52,277,,40,86,350,32,41,58,082,35,49,32,274,*7A
$GPGSV,5,5,17,50,10,089,*4A
$GLGSV,3,1,09,65,06,202,,71,18,097,07,72,26,150,15,74,21,152,11*6A
$GLGSV,3,2,09,75,74,137,27,76,41,340,19,86,15,353,11,87,26,307,11*67
$GLGSV,3,3,09,88,08,249,*5B
$GNGLL,0420.03927,S,05539.72590,E,054624.00,A,A*61
$GNGRS,054624.00,1,-6.2,-0.7,3.3,0.8,-1.0,5.2,-0.6,133,141,,,*71
$GNGRS,054624.00,1,4.0,-6.0,7.0,10.6,4.2,2.7,,,,,,*4D
$GNGST,054624.00,4344120,,,,4.0,5.9,11*5A
$GNZDA,054624.00,23,05,2025,00,00*78
$GNGBS,054624.00,4.0,5.9,10.7,,,,*60
$GNTXT,01,01,01,More than 100 frame errors, UART RX was disabled*70
b0L9=I%5 !h%+

7 1V7B{4!V^R7#:R3 
Y
nAG
aHJ
KJL)T]V
aW3X7b9rIg3$GNRMC,054625.00,A,0420.03924,S,05539.72585,E,0.036,,230525,,,A*78
$GNVTG,,T,,M,0.036,N,0.066,K,A*38
$GNGNS,054625.00,0420.03924,S,05539.72585,E,AA,15,1.00,15.7,-47.6,,*66
$GNGGA,054625.00,0420.03924,S,05539.72585,E,1,12,1.00,15.7,M,-47.6,M,,*4B
$GNGSA,A,3,24,20,05,15,12,18,25,41,40,,,,2.04,1.00,1.77*13
$GNGSA,A,3,86,75,87,71,72,76,,,,,,,2.04,1.00,1.77*1B
$GPGSV,5,1,17,05,61,073,28,11,04,027,,12,53,019,37,13,15,134,15*7B
$GPGSV,5,2,17,15,32,168,27,18,33,256,22,20,30,043,37,22,05,134,10*7F
$GPGSV,5,3,17,23,20,207,,24,49,203,32,25,30,342,30,29,09,322,*77
$GPGSV,5,4,17,36,52,277,,40,86,350,33,41,58,082,35,49,32,274,*7B
$GPGSV,5,5,17,50,10,089,*4A
$GLGSV,3,1,09,65,06,202,,71,18,097,10,72,26,150,13,74,21,152,10*6B
$GLGSV,3,2,09,75,74,137,27,76,41,340,20,86,15,353,10,87,26,307,08*64
$GLGSV,3,3,09,88,08,249,*5B
$GNGLL,0420.03924,S,05539.72585,E,054625.00,A,A*67
$GNGRS,054625.00,1,-4.8,-0.5,-0.1,-0.5,-0.5,6.2,0.6,133,142,,,*5F
$GNGRS,054625.00,1,-1.1,-5.4,-53.8,81.5,-28.4,3.5,,,,,,*6B
$GNGST,054625.00,1869,,,,3.9,5.9,11*67
$GNZDA,054625.00,23,05,2025,00,00*79
$GNGBS,054625.00,3.9,5.9,10.6,,,,*6E
$GNTXT,01,01,01,More than 100 frame errors, UART RX was disabled*70
b0L==Ip%56 !j$+

 1sVB{4 V^T7":R3 
Y
nAGaQH
J
KJyL)TVbW3Xb=r1gh$GNRMC,054626.00,A,0420.03922,S,05539.72581,E,0.074,,230525,,,A*7F
$GNVTG,,T,,M,0.074,N,0.136,K,A*3A
$GNGNS,054626.00,0420.03922,S,05539.72581,E,AA,15,0.73,15.5,-47.6,,*60
$GNGGA,054626.00,0420.03922,S,05539.72581,E,1,12,0.73,15.5,M,-47.6,M,,*4D
$GNGSA,A,3,24,20,05,15,12,18,25,41,40,,,,1.48,0.73,1.29*16
$GNGSA,A,3,86,75,87,71,72,76,,,,,,,1.48,0.73,1.29*1E
$GPGSV,5,1,17,05,61,073,28,11,04,027,,12,53,019,37,13,15,134,14*7A
$GPGSV,5,2,17,15,32,168,27,18,33,256,22,20,30,043,36,22,05,134,10*7E
$GPGSV,5,3,17,23,20,207,12,24,49,203,32,25,30,342,30,29,09,322,*74
$GPGSV,5,4,17,36,52,277,,40,86,350,32,41,58,082,34,49,32,274,*7B
$GPGSV,5,5,17,50,10,089,*4A
$GLGSV,3,1,09,65,06,202,,71,18,097,11,72,26,150,10,74,21,152,10*69
$GLGSV,3,2,09,75,74,137,27,76,41,340,21,86,15,354,08,87,26,307,09*6A
$GLGSV,3,3,09,88,08,249,*5B
$GNGLL,0420.03922,S,05539.72581,E,054626.00,A,A*66
$GNGRS,054626.00,1,-6.5,-0.5,1.1,-0.6,-0.4,6.2,-1.3,133,142,,,*54
$GNGRS,054626.00,1,4.0,-3.9,6.6,11.0,4.6,4.2,,,,,,*44
$GNGST,054626.00,5506908,,,,3.9,5.8,11*54
$GNZDA,054626.00,23,05,2025,00,00*7A
$GNGBS,054626.00,3.9,5.8,10.6,,,,*6C
$GNTXT,01,01,01,More than 100 frame errors, UART RX was disabled*70
b0LA=I2$5 !#+

H1VB{4V^[7":R4 
Y
nAGaSHJKJL)TVb{W4oXIbArg@$GNRMC,054627.00,A,0420.03918,S,05539.72575,E,0.118,,230525,,,A*77
$GNVTG,,T,,M,0.118,N,0.218,K,A*3E
$GNGNS,054627.00,0420.03918,S,05539.72575,E,AA,16,0.68,15.4,-47.6,,*6B
$GNGGA,054627.00,0420.03918,S,05539.72575,E,1,12,0.68,15.4,M,-47.6,M,,*45
$GNGSA,A,3,24,20,05,15,12,18,25,23,41,40,,,1.29,0.68,1.10*10
$GNGSA,A,3,86,75,87,71,72,76,,,,,,,1.29,0.68,1.10*19
$GPGSV,5,1,17,05,61,073,29,11,04,027,,12,53,019,36,13,15,134,16*78
$GPGSV,5,2,17,15,32,168,26,18,33,256,21,20,30,043,35,22,05,134,10*7F
$GPGSV,5,3,17,23,20,207,09,24,49,203,31,25,30,342,29,29,09,322,*75
$GPGSV,5,4,17,36,52,277,,40,86,350,31,41,58,082,34,49,32,274,*78
$GPGSV,5,5,17,50,10,089,*4A
$GLGSV,3,1,09,65,06,202,,71,18,097,11,72,26,150,16,74,21,152,08*66
$GLGSV,3,2,09,75,74,137,27,76,41,340,21,86,15,354,11,87,25,308,08*6F
$GLGSV,3,3,09,88,08,249,*5B
$GNGLL,0420.03918,S,05539.72575,E,054627.00,A,A*65
$GNGRS,054627.00,1,-6.4,-0.8,0.5,-0.2,-0.4,5.3,0.3,11.0,133,142,,*68
$GNGRS,054627.00,1,3.8,-3.6,6.2,11.1,4.6,2.8,,,,,,*4C
$GNGST,054627.00,5151520,,,,3.9,5.8,11*55
$GNZDA,054627.00,23,05,2025,00,00*7B
$GNGBS,054627.00,3.9,5.8,10.5,,,,*6E
$GNTXT,01,01,01,More than 100 frame errors, UART RX was disabled*70
b0LpE=Iv%5R I!3$+
h 1JVB{4V^7#:R!4 
Y
nAGa=H
JKJ/L)TV
b6W4XYbpErgk$GNRMC,054628.00,A,0420.03914,S,05539.72569,E,0.140,,230525,,,A*74
$GNVTG,,T,,M,0.140,N,0.259,K,A*36
$GNGNS,054628.00,0420.03914,S,05539.72569,E,AA,16,0.84,15.4,-47.6,,*67
$GNGGA,054628.00,0420.03914,S,05539.72569,E,1,12,0.84,15.4,M,-47.6,M,,*49
$GNGSA,A,3,24,20,05,13,15,12,18,25,41,40,,,1.57,0.84,1.33*19
$GNGSA,A,3,86,75,87,71,72,76,,,,,,,1.57,0.84,1.33*13
$GPGSV,5,1,17,05,61,073,30,11,04,027,,12,53,019,37,13,15,134,15*72
$GPGSV,5,2,17,15,32,168,26,18,33,256,21,20,30,043,36,22,05,134,11*7D
$GPGSV,5,3,17,23,20,207,,24,49,203,32,25,30,342,30,29,09,322,*77
$GPGSV,5,4,17,36,52,277,,40,86,350,31,41,58,082,35,49,32,274,*79
$GPGSV,5,5,17,50,10,089,*4A
$GLGSV,3,1,09,65,06,202,,71,18,097,08,72,26,150,10,74,21,152,07*67
$GLGSV,3,2,09,75,74,137,27,76,41,340,21,86,15,354,10,87,25,308,12*65
$GLGSV,3,3,09,88,09,250,*52
$GNGLL,0420.03914,S,05539.72569,E,054628.00,A,A*6B
$GNGRS,054628.00,1,-6.9,-0.5,-1.4,-9.4,0.7,-0.4,5.6,-2.3,133,142,,*58
$GNGRS,054628.00,1,-22.5,-2.1,48.4,158,5.4,2.3,,,,,,*41
$GNGST,054628.00,2372,,,,3.8,5.7,10*66
$GNZDA,054628.00,23,05,2025,00,00*74
$GNGBS,054628.00,3.8,5.7,10.5,,,,*6F
$GNTXT,01,01,01,More than 100 frame errors, UART RX was disabled*70
b0LXI=I%5R !&$+

 1$VB{4 V^x7#:R44 
Y
nAGaPHJ
KJL)TVbW4XbXIrg$GNRMC,054629.00,A,0420.03910,S,05539.72562,E,0.137,,230525,,,A*7A
$GNVTG,,T,,M,0.137,N,0.254,K,A*3B
$GNGNS,054629.00,0420.03910,S,05539.72562,E,AA,16,0.71,15.3,-47.6,,*64
$GNGGA,054629.00,0420.03910,S,05539.72562,E,1,12,0.71,15.3,M,-47.6,M,,*4A
$GNGSA,A,3,24,20,05,13,15,12,18,25,41,40,,,1.28,0.71,1.06*1D
$GNGSA,A,3,86,75,87,71,72,76,,,,,,,1.28,0.71,1.06*17
$GPGSV,5,1,17,05,61,073,29,11,04,027,,12,53,019,37,13,15,134,15*7A
$GPGSV,5,2,17,15,32,168,26,18,33,256,20,20,30,043,36,22,05,134,10*7D
$GPGSV,5,3,17,23,20,207,,24,49,203,32,25,30,342,30,29,09,322,*77
$GPGSV,5,4,17,36,52,277,,40,86,350,32,41,58,082,35,49,32,274,*7A
$GPGSV,5,5,17,50,10,089,*4A
$GLGSV,3,1,09,65,06,202,,71,18,097,11,72,26,150,15,74,21,152,10*6C
$GLGSV,3,2,09,75,74,137,27,76,41,340,20,86,15,354,09,87,25,308,09*66
$GLGSV,3,3,09,88,09,250,*52
$GNGLL,0420.03910,S,05539.72562,E,054629.00,A,A*65
$GNGRS,054629.00,1,-7.3,-0.6,-0.5,-4.3,0.0,-0.7,5.5,-0.6,134,142,,*5C
$GNGRS,054629.00,1,4.0,-2.6,6.7,11.0,4.5,4.0,,,,,,*45
$GNGST,054629.00,4205794,,,,3.8,5.7,10*5A
$GNZDA,054629.00,23,05,2025,00,00*75
$GNGBS,054629.00,3.8,5.7,10.4,,,,*6F
$GNTXT,01,01,01,More than 100 frame errors, UART RX was disabled*70
b0L@M=In%50 T!o$+
 1LVB{4V^[7#:R$4 
Y
nAGaMHJKJL)TV
bW4Xb@Mrg8$GNRMC,054630.00,A,0420.03905,S,05539.72561,E,0.014,,230525,,,A*75
$GNVTG,,T,,M,0.014,N,0.026,K,A*3C
$GNGNS,054630.00,0420.03905,S,05539.72561,E,AA,16,0.71,15.3,-47.6,,*6B
$GNGGA,054630.00,0420.03905,S,05539.72561,E,1,12,0.71,15.3,M,-47.6,M,,*45
$GNGSA,A,3,24,20,05,13,15,12,18,25,41,40,,,1.28,0.71,1.06*1D
$GNGSA,A,3,86,75,87,71,72,76,,,,,,,1.28,0.71,1.06*17
$GPGSV,5,1,17,05,61,073,30,11,04,027,,12,53,019,37,13,15,134,16*71
$GPGSV,5,2,17,15,32,168,27,18,33,256,21,20,30,043,36,22,05,134,12*7F
$GPGSV,5,3,17,23,20,207,,24,49,203,32,25,30,342,30,29,09,322,*77
$GPGSV,5,4,17,36,52,277,,40,86,350,31,41,58,082,35,49,32,274,*79
$GPGSV,5,5,17,50,10,089,*4A
$GLGSV,3,1,09,65,06,202,,71,18,097,09,72,26,150,11,74,21,152,09*69
$GLGSV,3,2,09,75,74,137,28,76,41,340,20,86,15,354,10,87,25,308,09*61
$GLGSV,3,3,09,88,09,250,*52
$GNGLL,0420.03905,S,05539.72561,E,054630.00,A,A*6A
$GNGRS,054630.00,1,-6.9,-0.5,3.7,-4.6,-1.7,-0.8,3.7,0.0,133,142,,*79
$GNGRS,054630.00,1,4.0,-4.8,6.6,11.0,4.6,4.5,,,,,,*42
$GNGST,054630.00,4205801,,,,3.8,5.6,10*50
$GNZDA,054630.00,23,05,2025,00,00*7D
$GNGBS,054630.00,3.8,5.6,10.3,,,,*61
$GNTXT,01,01,01,More than 100 frame errors, UART RX was disabled*70
b0L(Q=I%5 R!}$+

8 1XVB{4V^e7#:R4 
Y
nAGaH?J
KJL)T\V
bBW4XGb(Qrg$GNRMC,054631.00,A,0420.03901,S,05539.72561,E,0.026,,230525,,,A*71
$GNVTG,,T,,M,0.026,N,0.049,K,A*34
$GNGNS,054631.00,0420.03901,S,05539.72561,E,AA,17,0.87,15.4,-47.6,,*61
$GNGGA,054631.00,0420.03901,S,05539.72561,E,1,12,0.87,15.4,M,-47.6,M,,*4E
$GNGSA,A,3,24,20,05,13,15,12,18,25,41,40,,,1.62,0.87,1.36*19
$GNGSA,A,3,86,74,75,87,71,72,76,,,,,,1.62,0.87,1.36*10
$GPGSV,5,1,17,05,61,073,30,11,04,027,,12,53,019,37,13,15,134,15*72
$GPGSV,5,2,17,15,32,168,27,18,33,256,21,20,30,043,36,22,05,134,10*7D
$GPGSV,5,3,17,23,20,207,,24,49,203,32,25,30,342,30,29,09,322,*77
$GPGSV,5,4,17,36,52,277,,40,86,350,31,41,58,082,35,49,32,274,*79
$GPGSV,5,5,17,50,10,089,*4A
$GLGSV,3,1,09,65,06,202,,71,18,097,09,72,26,150,09,74,21,152,10*68
$GLGSV,3,2,09,75,74,137,27,76,41,340,21,86,15,354,10,87,25,308,08*6E
$GLGSV,3,3,09,88,09,250,*52
$GNGLL,0420.03901,S,05539.72561,E,054631.00,A,A*6F
$GNGRS,054631.00,1,-6.8,-0.3,1.8,-6.1,-1.7,-0.7,3.8,-2.8,133,142,,*50
$GNGRS,054631.00,1,-143,-144,-4.8,-29.2,71.1,-35.2,3.5,,,,,*61
$GNGST,054631.00,2468,,,,3.7,5.6,10*6C
$GNZDA,054631.00,23,05,2025,00,00*7C
$GNGBS,054631.00,3.7,5.6,10.3,,,,*6F
$GNTXT,01,01,01,More than 100 frame errors, UART RX was disabled*70
b0LU=Ic%5 Z!$+
 1vVB{4V^l7#:R$4 
Y
nAGaXH
JKJL)T(VbW4XbUrgw$GNRMC,054632.00,A,0420.03895,S,05539.72554,E,0.094,,230525,,,A*71
$GNVTG,,T,,M,0.094,N,0.175,K,A*33
$GNGNS,054632.00,0420.03895,S,05539.72554,E,AA,17,0.69,15.4,-47.6,,*68
$GNGGA,054632.00,0420.03895,S,05539.72554,E,1,12,0.69,15.4,M,-47.6,M,,*47
$GNGSA,A,3,24,20,05,13,15,12,18,25,41,40,,,1.24,0.69,1.03*1D
$GNGSA,A,3,86,74,75,87,71,72,76,,,,,,1.24,0.69,1.03*14
$GPGSV,5,1,17,05,61,073,30,11,04,027,,12,53,019,37,13,15,134,15*72
$GPGSV,5,2,17,15,32,168,27,18,33,256,20,20,30,043,36,22,05,134,12*7E
$GPGSV,5,3,17,23,20,207,,24,49,203,32,25,30,342,30,29,09,322,*77
$GPGSV,5,4,17,36,52,277,,40,86,350,31,41,58,082,35,49,32,274,*79
$GPGSV,5,5,17,50,10,089,*4A
$GLGSV,3,1,09,65,06,202,,71,18,097,11,72,26,150,10,74,21,152,09*61
$GLGSV,3,2,09,75,74,137,28,76,41,340,21,86,15,354,07,87,25,308,07*68
$GLGSV,3,3,09,88,09,250,*52
$GNGLL,0420.03895,S,05539.72554,E,054632.00,A,A*66
$GNGRS,054632.00,1,-6.5,0.0,1.0,-10.9,-1.7,-0.3,5.2,1.8,133,142,,*61
$GNGRS,054632.00,1,4.1,2.5,-2.9,6.6,11.1,4.6,3.0,,,,,*6C
$GNGST,054632.00,4997223,,,,3.7,5.6,10*57
$GNZDA,054632.00,23,05,2025,00,00*7F
$GNGBS,054632.00,3.7,5.6,10.2,,,,*6D
$GNTXT,01,01,01,More than 100 frame errors, UART RX was disabled*70
b0LX=H%5 z!T$+
 1V1B{4V^W7#:R>4 
Y
nPAG
aKH
JKJNL)TVbW4X.bXrgNa$GNRMC,054633.00,A,0420.03893,S,05539.72555,E,0.103,,230525,,,A*78
$GNVTG,,T,,M,0.103,N,0.191,K,A*36
$GNGNS,054633.00,0420.03893,S,05539.72555,E,AA,16,0.72,15.4,-47.6,,*65
$GNGGA,054633.00,0420.03893,S,05539.72555,E,1,12,0.72,15.4,M,-47.6,M,,*4B
$GNGSA,A,3,24,20,05,13,15,12,18,25,41,40,,,1.45,0.72,1.26*17
$GNGSA,A,3,74,75,87,71,72,76,,,,,,,1.45,0.72,1.26*10
$GPGSV,5,1,17,05,61,072,30,11,04,027,,12,53,019,37,13,15,134,16*70
$GPGSV,5,2,17,15,32,168,27,18,33,256,20,20,30,043,36,22,05,134,08*75
$GPGSV,5,3,17,23,20,207,,24,49,203,32,25,30,342,30,29,09,322,*77
$GPGSV,5,4,17,36,52,277,,40,86,350,31,41,58,082,35,49,32,274,*79
$GPGSV,5,5,17,50,10,089,*4A
$GLGSV,3,1,09,65,06,202,,71,18,097,10,72,26,150,10,74,21,152,08*61
$GLGSV,3,2,09,75,74,137,28,76,41,340,20,86,15,354,07,87,25,308,11*6E
$GLGSV,3,3,09,88,09,250,*52
$GNGLL,0420.03893,S,05539.72555,E,054633.00,A,A*60
$GNGRS,054633.00,1,-6.4,-0.5,-1.0,-8.2,-3.9,-0.1,6.0,-4.6,134,142,,*78
$GNGRS,054633.00,1,2.6,-1.8,6.4,11.0,4.5,1.8,,,,,,*4D
$GNGST,054633.00,5319950,,,,3.7,5.5,10*57
$GNZDA,054633.00,23,05,2025,00,00*7E
$GNGBS,054633.00,3.7,5.5,10.1,,,,*6C
$GNTXT,01,01,01,More than 100 frame errors, UART RX was disabled*70
b0L\=H%5 !$+
/ 1VYB{4V^N7#:R,4 
Y
nTAGaHJKJL)TVbUW4?XMb\rqg&$GNRMC,054634.00,A,0420.03891,S,05539.72557,E,0.123,,230525,,,A*7D
$GNVTG,,T,,M,0.123,N,0.228,K,A*35
$GNGNS,054634.00,0420.03891,S,05539.72557,E,AA,16,0.80,15.4,-47.6,,*6F
$GNGGA,054634.00,0420.03891,S,05539.72557,E,1,12,0.80,15.4,M,-47.6,M,,*41
$GNGSA,A,3,24,20,05,13,15,12,18,25,41,40,,,1.47,0.80,1.24*1A
$GNGSA,A,3,86,75,87,71,72,76,,,,,,,1.47,0.80,1.24*10
$GPGSV,5,1,17,05,61,072,29,11,04,027,,12,53,019,37,13,15,134,16*78
$GPGSV,5,2,17,15,32,168,27,18,33,256,20,20,30,043,36,22,05,134,08*75
$GPGSV,5,3,17,23,20,207,,24,49,203,32,25,30,342,31,29,09,322,*76
$GPGSV,5,4,17,36,52,277,,40,86,350,31,41,58,082,35,49,32,274,*79
$GPGSV,5,5,17,50,10,089,*4A
$GLGSV,3,1,09,65,06,202,,71,18,097,11,72,26,150,11,74,21,152,07*6E
$GLGSV,3,2,09,75,74,137,27,76,41,340,21,86,15,354,11,87,25,308,11*67
$GLGSV,3,3,09,88,09,250,*52
$GNGLL,0420.03891,S,05539.72557,E,054634.00,A,A*67
$GNGRS,054634.00,1,-5.9,-0.4,1.5,-7.6,-3.2,-0.3,5.0,-1.7,134,142,,*5D
$GNGRS,054634.00,1,-143,-1.2,51.8,13.1,1.5,2.0,,,,,,*42
$GNGST,054634.00,2286,,,,3.6,5.5,10*6D
$GNZDA,054634.00,23,05,2025,00,00*79
$GNGBS,054634.00,3.6,5.5,10.1,,,,*6A
$GNTXT,01,01,01,More than 100 frame errors, UART RX was disabled*70
b0L`=H%5 !
$+

1VB{4V^17":R.4 
Y
noAGafH
JKJ@L)TVbW4Xb`rYg1$GNRMC,054635.00,A,0420.03888,S,05539.72555,E,0.057,,230525,,,A*74
$GNVTG,,T,,M,0.057,N,0.106,K,A*38
$GNGNS,054635.00,0420.03888,S,05539.72555,E,AA,16,0.69,15.6,-47.6,,*61
$GNGGA,054635.00,0420.03888,S,05539.72555,E,1,12,0.69,15.6,M,-47.6,M,,*4F
$GNGSA,A,3,24,20,05,13,15,12,18,25,41,40,,,1.29,0.69,1.09*1A
$GNGSA,A,3,86,75,87,71,72,76,,,,,,,1.29,0.69,1.09*10
$GPGSV,5,1,17,05,61,072,29,11,04,027,,12,53,019,37,13,15,134,16*78
$GPGSV,5,2,17,15,32,168,26,18,33,256,19,20,30,043,36,22,05,134,10*77
$GPGSV,5,3,17,23,20,207,,24,49,203,31,25,30,342,30,29,09,322,*74
$GPGSV,5,4,17,36,52,277,,40,86,350,31,41,58,082,34,49,32,274,*78
$GPGSV,5,5,17,50,10,089,*4A
$GLGSV,3,1,09,65,06,202,,71,18,097,11,72,26,150,10,74,21,152,07*6F
$GLGSV,3,2,09,75,74,137,27,76,41,340,21,86,15,354,08,87,25,308,12*6C
$GLGSV,3,3,09,88,09,250,*52
$GNGLL,0420.03888,S,05539.72555,E,054635.00,A,A*6C
$GNGRS,054635.00,1,-5.3,-0.4,1.7,-6.1,-2.8,-0.5,2.7,0.2,134,141,,*75
$GNGRS,054635.00,1,4.1,0.6,6.9,11.3,4.5,2.4,,,,,,*69
$GNGST,054635.00,2974168,,,,3.6,5.4,10*54
$GNZDA,054635.00,23,05,2025,00,00*78
$GNGBS,054635.00,3.6,5.4,10.0,,,,*6B
$GNTXT,01,01,01,More than 100 frame errors, UART RX was disabled*70
b0Ld=Hl$5 Q!#+
1VB{4V^<7":R34 
Y
nAG
awHJKJ L)TVbW4XbdrAg$GNRMC,054636.00,A,0420.03885,S,05539.72555,E,0.042,,230525,,,A*7E
$GNVTG,,T,,M,0.042,N,0.077,K,A*3B
$GNGNS,054636.00,0420.03885,S,05539.72555,E,AA,16,0.69,15.7,-47.6,,*6E
$GNGGA,054636.00,0420.03885,S,05539.72555,E,1,12,0.69,15.7,M,-47.6,M,,*40
$GNGSA,A,3,24,20,05,13,15,12,18,25,41,40,,,1.21,0.69,0.99*1A
$GNGSA,A,3,86,75,87,71,72,76,,,,,,,1.21,0.69,0.99*10
$GPGSV,5,1,17,05,61,072,29,11,04,027,,12,53,019,36,13,15,134,16*79
$GPGSV,5,2,17,15,32,168,26,18,33,256,19,20,30,043,35,22,05,134,08*7D
$GPGSV,5,3,17,23,20,207,,24,49,203,31,25,30,342,29,29,09,322,*7C
$GPGSV,5,4,17,36,52,277,,40,86,350,31,41,58,082,34,49,32,274,*78
$GPGSV,5,5,17,50,10,089,*4A
$GLGSV,3,1,09,65,06,202,,71,18,097,10,72,26,150,09,74,21,152,09*68
$GLGSV,3,2,09,75,74,137,27,76,41,340,20,86,15,354,12,87,25,308,09*6C
$GLGSV,3,3,09,88,09,250,*52
$GNGLL,0420.03885,S,05539.72555,E,054636.00,A,A*62
$GNGRS,054636.00,1,-4.9,-0.4,-1.5,-5.9,-1.7,-0.8,2.7,-3.5,134,141,,*71
$GNGRS,054636.00,1,3.9,0.3,6.8,11.4,4.4,2.3,,,,,,*60
$GNGST,054636.00,2885642,,,,3.6,5.4,10*57
$GNZDA,054636.00,23,05,2025,00,00*7B
$GNGBS,054636.00,3.6,5.4,10.0,,,,*68
$GNTXT,01,01,01,More than 100 frame errors, UART RX was disabled*70
b0Lh=H$5 N!d#+
,1VJB{4V^C7!:R"4 
Y
nAGa(Hr
JmKJLL)TVb-W4`Xbhr)g$GNRMC,054637.00,A,0420.03882,S,05539.72555,E,0.073,,230525,,,A*7A
$GNVTG,,T,,M,0.073,N,0.136,K,A*3D
$GNGNS,054637.00,0420.03882,S,05539.72555,E,AA,17,0.87,15.7,-47.6,,*69
$GNGGA,054637.00,0420.03882,S,05539.72555,E,1,12,0.87,15.7,M,-47.6,M,,*46
$GNGSA,A,3,24,20,05,13,15,12,18,25,41,40,,,1.62,0.87,1.36*19
$GNGSA,A,3,86,74,75,87,71,72,76,,,,,,1.62,0.87,1.36*10
$GPGSV,5,1,17,05,61,072,29,11,04,027,,12,53,019,36,13,15,134,15*7A
$GPGSV,5,2,17,15,32,168,26,18,33,256,18,20,30,043,35,22,05,134,09*7D
$GPGSV,5,3,17,23,20,207,,24,49,203,31,25,30,342,29,29,09,322,*7C
$GPGSV,5,4,17,36,52,277,,40,86,350,31,41,58,082,33,49,32,274,*7F
$GPGSV,5,5,17,50,10,089,*4A
$GLGSV,3,1,09,65,06,202,,71,18,097,11,72,26,150,11,74,21,152,08*61
$GLGSV,3,2,09,75,74,137,27,76,41,340,20,86,15,354,12,87,25,308,12*66
$GLGSV,3,3,09,88,09,250,*52
$GNGLL,0420.03882,S,05539.72555,E,054637.00,A,A*64
$GNGRS,054637.00,1,-4.9,-0.5,-0.8,-5.4,0.8,-0.7,3.6,0.7,133,141,,*77
$GNGRS,054637.00,1,54.2,-104,0.8,-140,104,26.7,1.3,,,,,*6C
$GNGST,054637.00,2439,,,,3.5,5.4,10*6E
$GNZDA,054637.00,23,05,2025,00,00*7A
$GNGBS,054637.00,3.5,5.4,9.9,,,,*5B
$GNTXT,01,01,01,More than 100 frame errors, UART RX was disabled*70
b0Ll=H1$5 !{#+
10VB{4V^J7!:R4 
Y
nAGaVHJKJL)TVbW4Xt`blrgi$GNRMC,054638.00,A,0420.03881,S,05539.72557,E,0.093,,230525,,,A*7A
$GNVTG,,T,,M,0.093,N,0.172,K,A*33
$GNGNS,054638.00,0420.03881,S,05539.72557,E,AA,17,0.69,15.6,-47.6,,*66
$GNGGA,054638.00,0420.03881,S,05539.72557,E,1,12,0.69,15.6,M,-47.6,M,,*49
$GNGSA,A,3,24,20,05,13,15,12,18,25,41,40,,,1.24,0.69,1.03*1D
$GNGSA,A,3,86,74,75,87,71,72,76,,,,,,1.24,0.69,1.03*14
$GPGSV,5,1,17,05,61,072,29,11,04,027,,12,53,019,36,13,15,134,15*7A
$GPGSV,5,2,17,15,32,168,25,18,33,256,18,20,30,043,35,22,05,134,06*71
$GPGSV,5,3,17,23,20,207,,24,49,203,31,25,30,342,29,29,09,322,*7C
$GPGSV,5,4,17,36,52,277,,40,86,350,30,41,58,082,33,49,32,274,*7E
$GPGSV,5,5,17,50,10,089,*4A
$GLGSV,3,1,09,65,06,202,,71,18,097,11,72,26,150,09,74,21,152,11*60
$GLGSV,3,2,09,75,74,137,27,76,41,340,20,86,15,354,09,87,25,308,11*6F
$GLGSV,3,3,09,88,09,250,*52
$GNGLL,0420.03881,S,05539.72557,E,054638.00,A,A*6A
$GNGRS,054638.00,1,-4.6,-0.3,0.5,-5.5,2.6,-1.0,3.8,-0.7,133,142,,*7A
$GNGRS,054638.00,1,4.1,2.3,0.1,6.7,11.1,4.4,1.6,,,,,*40
$GNGST,054638.00,5770295,,,,3.5,5.4,9.9*79
$GNZDA,054638.00,23,05,2025,00,00*75
$GNGBS,054638.00,3.5,5.4,9.9,,,,*54
$GNTXT,01,01,01,More than 100 frame errors, UART RX was disabled*70
b0Lhp=H$5W !$+
1,V#B{4V^S7":R4 
Y
n/AGaMHJKJL)TVbW4XIbhprg]$GNRMC,054639.00,A,0420.03881,S,05539.72556,E,0.040,,230525,,,A*74
$GNVTG,,T,,M,0.040,N,0.074,K,A*3A
$GNGNS,054639.00,0420.03881,S,05539.72556,E,AA,17,0.69,15.5,-47.6,,*65
$GNGGA,054639.00,0420.03881,S,05539.72556,E,1,12,0.69,15.5,M,-47.6,M,,*4A
$GNGSA,A,3,24,20,05,13,15,12,18,25,41,40,,,1.24,0.69,1.03*1D
$GNGSA,A,3,86,74,75,87,71,72,76,,,,,,1.24,0.69,1.03*14
$GPGSV,5,1,17,05,61,072,30,11,03,028,,12,53,019,36,13,15,134,15*7A
$GPGSV,5,2,17,15,32,168,26,18,33,256,19,20,30,043,36,22,05,134,05*73
$GPGSV,5,3,17,23,20,207,,24,49,203,31,25,30,342,30,29,09,322,*74
$GPGSV,5,4,17,36,52,277,,40,86,350,31,41,58,082,34,49,32,274,*78
$GPGSV,5,5,17,50,10,089,*4A
$GLGSV,3,1,09,65,06,202,,71,18,097,11,72,26,150,11,74,21,152,08*61
$GLGSV,3,2,09,75,74,137,28,76,41,340,20,86,15,354,09,87,25,308,11*60
$GLGSV,3,3,09,88,09,250,*52
$GNGLL,0420.03881,S,05539.72556,E,054639.00,A,A*6A
$GNGRS,054639.00,1,-4.7,-0.3,2.8,-4.2,2.6,-1.1,4.7,0.3,133,142,,*53
$GNGRS,054639.00,1,4.0,2.2,-1.0,6.5,11.0,4.2,2.7,,,,,*6B
$GNGST,054639.00,5770296,,,,3.5,5.3,9.9*7C
$GNZDA,054639.00,23,05,2025,00,00*74
$GNGBS,054639.00,3.5,5.3,9.9,,,,*52
$GNTXT,01,01,01,More than 100 frame errors, UART RX was disabled*70
b0LPt=Hl$6 e!K$+
1'VB{4V^Q7":R4 
Y

n>AGaTHFJUKJUL)TVbrW45"XbPtrg56$GNRMC,054640.00,A,0420.03882,S,05539.72555,E,0.029,,230525,,,A*75
$GNVTG,,T,,M,0.029,N,0.054,K,A*37
$GNGNS,054640.00,0420.03882,S,05539.72555,E,AA,17,0.83,15.5,-47.6,,*6F
$GNGGA,054640.00,0420.03882,S,05539.72555,E,1,12,0.83,15.5,M,-47.6,M,,*40
$GNGSA,A,3,24,20,05,13,15,12,18,25,41,40,,,1.52,0.83,1.28*11
$GNGSA,A,3,86,74,75,87,71,72,76,,,,,,1.52,0.83,1.28*18
$GPGSV,5,1,17,05,61,072,29,11,03,028,,12,54,020,36,13,15,134,15*7F
$GPGSV,5,2,17,15,32,168,26,18,33,256,19,20,30,043,36,22,05,134,08*7E
$GPGSV,5,3,17,23,20,207,,24,49,203,31,25,30,342,30,29,09,322,*74
$GPGSV,5,4,17,36,52,277,,40,86,350,31,41,58,082,34,49,32,274,*78
$GPGSV,5,5,17,50,10,089,*4A
$GLGSV,3,1,09,65,06,202,,71,18,097,09,72,26,150,11,74,21,152,08*68
$GLGSV,3,2,09,75,74,137,27,76,41,340,21,86,15,354,12,87,25,308,09*6D
$GLGSV,3,3,09,88,09,250,*52
$GNGLL,0420.03882,S,05539.72555,E,054640.00,A,A*64
$GNGRS,054640.00,1,-4.7,-0.3,3.6,-3.8,3.6,-0.8,5.9,0.2,133,142,,*58
$GNGRS,054640.00,1,62.6,-1.7,0.8,87.6,34.1,0.7,1.5,,,,,*60
$GNGST,054640.00,2272,,,,3.5,5.3,9.8*4E
$GNZDA,054640.00,23,05,2025,00,00*7A
$GNGBS,054640.00,3.5,5.3,9.8,,,,*5D
$GNTXT,01,01,01,More than 100 frame errors, UART RX was disabled*70
b0L8x=H$6 !$+
1VB{4V^Y7":R3 
Y
n(AGaIHJ
KJL)TV
bW4XP=b8xrg$GNRMC,054641.00,A,0420.03883,S,05539.72559,E,0.101,,230525,,,A*72
$GNVTG,,T,,M,0.101,N,0.186,K,A*32
$GNGNS,054641.00,0420.03883,S,05539.72559,E,AA,16,0.74,15.5,-47.6,,*6A
$GNGGA,054641.00,0420.03883,S,05539.72559,E,1,12,0.74,15.5,M,-47.6,M,,*44
$GNGSA,A,3,24,20,05,13,15,12,18,25,41,40,,,1.39,0.74,1.17*18
$GNGSA,A,3,86,74,75,71,72,76,,,,,,,1.39,0.74,1.17*1E
$GPGSV,5,1,17,05,61,072,30,11,03,028,,12,54,020,36,13,15,134,16*74
$GPGSV,5,2,17,15,32,168,26,18,33,256,17,20,30,043,36,22,05,134,09*71
$GPGSV,5,3,17,23,20,207,,24,49,203,31,25,30,342,30,29,09,322,*74
$GPGSV,5,4,17,36,52,277,,40,86,350,31,41,58,082,34,49,32,274,*78
$GPGSV,5,5,17,50,10,089,*4A
$GLGSV,3,1,09,65,06,202,,71,18,097,13,72,26,150,08,74,21,152,10*62
$GLGSV,3,2,09,75,74,137,27,76,41,340,20,86,15,354,10,87,25,308,06*61
$GLGSV,3,3,09,88,09,250,*52
$GNGLL,0420.03883,S,05539.72559,E,054641.00,A,A*68
$GNGRS,054641.00,1,-4.9,-0.5,2.5,-3.7,3.9,-0.3,4.1,-1.0,133,142,,*7F
$GNGRS,054641.00,1,4.3,2.3,1.5,11.0,4.5,-0.2,,,,,,*4E
$GNGST,054641.00,4344040,,,,3.5,5.3,9.8*79
$GNZDA,054641.00,23,05,2025,00,00*7B
$GNGBS,054641.00,3.5,5.3,9.8,,,,*5C
$GNTXT,01,01,01,More than 100 frame errors, UART RX was disabled*70
b0L |=H%6. !$+

1VAB{4V^j7#:R3 
Y
nCAGaFHJKJ,L)TV
bW4Xb |rg$GNRMC,054642.00,A,0420.03882,S,05539.72559,E,0.042,,230525,,,A*76
$GNVTG,,T,,M,0.042,N,0.078,K,A*34
$GNGNS,054642.00,0420.03882,S,05539.72559,E,AA,17,0.69,15.7,-47.6,,*67
$GNGGA,054642.00,0420.03882,S,05539.72559,E,1,12,0.69,15.7,M,-47.6,M,,*48
$GNGSA,A,3,24,20,05,13,15,12,18,25,41,40,,,1.24,0.69,1.03*1D
$GNGSA,A,3,86,74,75,87,71,72,76,,,,,,1.24,0.69,1.03*14
$GPGSV,5,1,17,05,61,072,30,11,03,028,,12,54,020,37,13,15,134,16*75
$GPGSV,5,2,17,15,32,168,26,18,33,256,18,20,30,043,36,22,05,134,10*76
$GPGSV,5,3,17,23,20,207,,24,49,203,31,25,30,342,30,29,09,322,*74
$GPGSV,5,4,17,36,52,277,,40,86,350,31,41,58,082,35,49,32,274,*79
$GPGSV,5,5,17,50,10,089,*4A
$GLGSV,3,1,09,65,06,202,,71,18,097,09,72,26,150,11,74,21,152,09*69
$GLGSV,3,2,09,75,74,137,27,76,41,340,20,86,15,354,10,87,25,308,11*67
$GLGSV,3,3,09,88,09,250,*52
$GNGLL,0420.03882,S,05539.72559,E,054642.00,A,A*6A
$GNGRS,054642.00,1,-4.9,-0.8,1.6,-4.7,3.9,-0.2,1.8,-1.9,133,142,,*72
$GNGRS,054642.00,1,4.3,2.3,0.4,6.8,10.9,4.6,1.5,,,,,*4D
$GNGST,054642.00,4082681,,,,3.4,5.3,9.7*76
$GNZDA,054642.00,23,05,2025,00,00*78
$GNGBS,054642.00,3.4,5.3,9.7,,,,*51
$GNTXT,01,01,01,More than 100 frame errors, UART RX was disabled*70
b0L=H%6n H!$+
 1!!VB{4V^e7#:R3 
Y
nAGaHwJ
.KJL)TV
bW4TXpbrgn$GNRMC,054643.00,A,0420.03882,S,05539.72562,E,0.019,,230525,,,A*71
$GNVTG,,T,,M,0.019,N,0.035,K,A*33
$GNGNS,054643.00,0420.03882,S,05539.72562,E,AA,17,0.82,15.7,-47.6,,*6B
$GNGGA,054643.00,0420.03882,S,05539.72562,E,1,12,0.82,15.7,M,-47.6,M,,*44
$GNGSA,A,3,24,20,05,13,15,12,18,25,41,40,,,1.61,0.82,1.39*10
$GNGSA,A,3,86,74,75,87,71,72,76,,,,,,1.61,0.82,1.39*19
