$GNTXT,01,01,01,More than 100 frame errors, UART RX was disabled*70
b0L>O3E
T
  ,#!3,V@
{4V^:R 
Y
mAGdHJKLL&UuV`W1;Xbr!,c'5$GNRMC,054128.00,A,0420.02934,S,05539.72187,E,0.391,,230525,,,A*7A
$GNVTG,,T,,M,0.391,N,0.724,K,A*37
$GNGNS,054128.00,0420.02934,S,05539.72187,E,AA,15,0.67,15.7,-47.6,,*6A
$GNGGA,054128.00,0420.02934,S,05539.72187,E,1,12,0.67,15.7,M,-47.6,M,,*47
$GNGSA,A,3,24,20,05,13,15,22,12,18,23,,,,1.30,0.67,1.11*12
$GNGSA,A,3,86,75,87,71,72,76,,,,,,,1.30,0.67,1.11*1F
$GPGSV,5,1,17,05,62,079,25,11,05,026,,12,51,017,22,13,16,137,10*72
$GPGSV,5,2,17,15,31,170,22,18,32,253,10,20,32,044,24,22,06,133,09*7E
$GPGSV,5,3,17,23,18,207,09,24,51,206,33,25,28,342,16,29,09,320,*77
$GPGSV,5,4,17,36,52,277,,40,86,350,27,41,58,082,,49,32,274,*78
$GPGSV,5,5,17,50,10,089,*4A
$GLGSV,3,1,09,65,05,204,,71,17,100,11,72,25,152,17,74,23,151,07*6D
$GLGSV,3,2,09,75,76,128,22,76,38,341,11,86,17,352,07,87,27,305,11*6E
$GLGSV,3,3,09,88,08,248,*5A
$GNGLL,0420.02934,S,05539.72187,E,054128.00,A,A*6B
$GNGRS,054128.00,1,0.4,0.1,2.5,6.0,1.3,-91.8,3.2,17.2,-22.9,,,*4E
$GNGRS,054128.00,1,-33.7,-0.8,151,61.2,-8.4,-34.7,,,,,,*77
$GNGST,054128.00,100,,,,7.7,10,18*7A
$GNZDA,054128.00,23,05,2025,00,00*73
$GNGBS,054128.00,7.7,10.3,17.9,,,,*58
$GNTXT,01,01,01,More than 100 frame errors, UART RX was disabled*70
b0Lx>O>3A  ,D
#3AV@
{4V^:R 
Y
mAGdHJhKLL
&UV`)W1X>bxr0c$GNRMC,054129.00,A,0420.02931,S,05539.72208,E,0.702,,230525,,,A*74
$GNVTG,,T,,M,0.702,N,1.299,K,A*3B
$GNGNS,054129.00,0420.02931,S,05539.72208,E,AA,16,0.66,16.4,-47.6,,*68
$GNGGA,054129.00,0420.02931,S,05539.72208,E,1,12,0.66,16.4,M,-47.6,M,,*46
$GNGSA,A,3,24,20,05,13,15,22,12,18,23,,,,1.29,0.66,1.11*1B
$GNGSA,A,3,86,74,75,87,71,72,76,,,,,,1.29,0.66,1.11*15
$GPGSV,5,1,17,05,62,079,23,11,05,026,,12,51,017,23,13,16,137,08*7C
$GPGSV,5,2,17,15,31,170,22,18,32,253,08,20,32,044,24,22,06,133,09*77
$GPGSV,5,3,17,23,18,207,10,24,51,206,35,25,28,342,15,29,09,320,*7A
$GPGSV,5,4,17,36,52,277,,40,86,350,31,41,58,082,,49,32,274,*7F
$GPGSV,5,5,17,50,10,089,*4A
$GLGSV,3,1,09,65,05,204,,71,17,100,14,72,25,152,15,74,23,151,12*6E
$GLGSV,3,2,09,75,76,128,21,76,38,341,10,86,17,352,08,87,27,305,07*64
$GLGSV,3,3,09,88,08,248,*5A
$GNGLL,0420.02931,S,05539.72208,E,054129.00,A,A*6B
$GNGRS,054129.00,1,-1.9,-0.2,0.6,16.7,0.7,31.4,2.9,10.2,14.5,,,*70
$GNGRS,054129.00,1,3.0,1.0,0.1,6.7,10.5,-8.0,-3.3,,,,,*4B
$GNGST,054129.00,7869415,,,,7.8,11,18*74
$GNZDA,054129.00,23,05,2025,00,00*72
$GNGBS,054129.00,7.8,10.5,18.2,,,,*54
$GNTXT,01,01,01,More than 100 frame errors, UART RX was disabled*70
b0L`>O3
O
  ,$3YV@
{4V^:R 
Y
mAGdH^J5KLL&UsV`W1sXb`r3c$GNRMC,054130.00,A,0420.02912,S,05539.72211,E,0.572,,230525,,,A*70
$GNVTG,,T,,M,0.572,N,1.060,K,A*3A
$GNGNS,054130.00,0420.02912,S,05539.72211,E,AA,15,0.72,15.8,-47.6,,*60
$GNGGA,054130.00,0420.02912,S,05539.72211,E,1,12,0.72,15.8,M,-47.6,M,,*4D
$GNGSA,A,3,24,20,05,13,15,22,12,18,23,,,,1.43,0.72,1.23*13
$GNGSA,A,3,74,75,87,71,72,76,,,,,,,1.43,0.72,1.23*13
$GPGSV,5,1,17,05,62,079,22,11,05,026,,12,51,017,25,13,16,137,10*72
$GPGSV,5,2,17,15,31,170,21,18,32,253,10,20,32,044,23,22,06,133,11*73
$GPGSV,5,3,17,23,18,207,13,24,51,206,36,25,28,342,14,29,09,320,*7B
$GPGSV,5,4,17,36,52,277,,40,86,350,31,41,58,082,,49,32,274,*7F
$GPGSV,5,5,17,50,10,089,*4A
$GLGSV,3,1,09,65,05,204,,71,17,100,14,72,25,152,16,74,23,151,11*6E
$GLGSV,3,2,09,75,76,128,21,76,38,341,11,86,17,352,06,87,27,305,08*64
$GLGSV,3,3,09,88,08,248,*5A
$GNGLL,0420.02912,S,05539.72211,E,054130.00,A,A*6A
$GNGRS,054130.00,1,-1.7,1.5,-3.0,16.2,-0.7,30.6,2.6,10.1,14.5,,,*52
$GNGRS,054130.00,1,0.5,-1.0,6.3,9.5,-6.7,-4.0,,,,,,*76
$GNGST,054130.00,8126356,,,,7.9,11,19*71
$GNZDA,054130.00,23,05,2025,00,00*7A
$GNGBS,054130.00,7.9,10.8,18.6,,,,*54
$GNTXT,01,01,01,More than 100 frame errors, UART RX was disabled*70
b0LH>O3%
  ,U%3V@
{4 V^:R 
Y
mAGdHJEKLBL&UV`W1XkbHr7cj$GNRMC,054131.00,A,0420.02930,S,05539.72245,E,0.470,,230525,,,A*73
$GNVTG,,T,,M,0.470,N,0.871,K,A*30
$GNGNS,054131.00,0420.02930,S,05539.72245,E,AA,14,0.73,15.6,-47.6,,*6E
$GNGGA,054131.00,0420.02930,S,05539.72245,E,1,12,0.73,15.6,M,-47.6,M,,*42
$GNGSA,A,3,24,20,05,13,15,22,12,18,23,,,,1.43,0.73,1.23*12
$GNGSA,A,3,75,87,71,72,76,,,,,,,,1.43,0.73,1.23*11
$GPGSV,5,1,17,05,62,079,21,11,05,026,,12,51,017,25,13,16,137,18*79
$GPGSV,5,2,17,15,31,170,19,18,32,253,10,20,32,044,23,22,06,133,09*71
$GPGSV,5,3,17,23,18,207,14,24,51,206,37,25,28,342,17,29,09,320,*7E
$GPGSV,5,4,17,36,52,277,,40,86,350,32,41,58,082,,49,32,274,*7C
$GPGSV,5,5,17,50,10,089,*4A
$GLGSV,3,1,09,65,05,204,,71,17,100,11,72,25,152,17,74,23,151,07*6D
$GLGSV,3,2,09,75,76,128,22,76,38,341,12,86,17,352,05,87,27,305,12*6C
$GLGSV,3,3,09,88,08,248,*5A
$GNGLL,0420.02930,S,05539.72245,E,054131.00,A,A*6A
$GNGRS,054131.00,1,0.0,0.8,-5.2,5.5,0.1,38.6,2.1,-136,-10.2,,,*48
$GNGRS,054131.00,1,-1.9,-17.9,-4.9,-8.2,-5.8,,,,,,,*6C
$GNGST,054131.00,91,,,,7.8,11,19*44
$GNZDA,054131.00,23,05,2025,00,00*7B
$GNGBS,054131.00,7.8,10.7,18.6,,,,*5B
$GNTXT,01,01,01,More than 100 frame errors, UART RX was disabled*70
b0L0>O3U  ,
j&3V@
{4"V^:R 
Y
m
AGdHYJKLL&UV`W1<X\b0r;c$GNRMC,054132.00,A,0420.02918,S,05539.72218,E,0.710,,230525,,,A*77
$GNVTG,,T,,M,0.710,N,1.315,K,A*3D
$GNGNS,054132.00,0420.02918,S,05539.72218,E,AA,16,0.66,15.7,-47.6,,*68
$GNGGA,054132.00,0420.02918,S,05539.72218,E,1,12,0.66,15.7,M,-47.6,M,,*46
$GNGSA,A,3,24,20,05,13,15,22,12,18,23,,,,1.29,0.66,1.11*1B
$GNGSA,A,3,86,74,75,87,71,72,76,,,,,,1.29,0.66,1.11*15
$GPGSV,5,1,17,05,62,079,19,11,05,026,,12,51,017,24,13,16,137,20*78
$GPGSV,5,2,17,15,31,170,19,18,32,253,11,20,32,044,22,22,06,133,07*7F
$GPGSV,5,3,17,23,18,207,10,24,51,206,38,25,28,342,18,29,09,320,*7A
$GPGSV,5,4,17,36,52,277,,40,86,350,34,41,58,082,,49,32,274,*7A
$GPGSV,5,5,17,50,10,089,*4A
$GLGSV,3,1,09,65,05,204,,71,17,100,11,72,25,152,17,74,23,151,08*62
$GLGSV,3,2,09,75,76,128,21,76,38,341,14,86,17,352,12,87,27,305,11*6C
$GLGSV,3,3,09,88,08,248,*5A
$GNGLL,0420.02918,S,05539.72218,E,054132.00,A,A*6B
$GNGRS,054132.00,1,-0.4,0.1,-5.9,17.6,0.2,32.5,3.4,9.3,13.9,,,*46
$GNGRS,054132.00,1,2.5,1.9,-0.9,5.7,11.8,-6.8,-3.5,,,,,*66
$GNGST,054132.00,5963288,,,,7.9,11,19*75
$GNZDA,054132.00,23,05,2025,00,00*78
$GNGBS,054132.00,7.9,10.9,19.0,,,,*50
$GNTXT,01,01,01,More than 100 frame errors, UART RX was disabled*70
b0L>M3`c  ,o?&3V@
{4!V^:R 
Y
m1AGdHJ
KLjL&UV
`W1$XDbr?c^:$GNRMC,054133.00,A,0420.02920,S,05539.72225,E,0.272,,230525,,,A*72
$GNVTG,,T,,M,0.272,N,0.504,K,A*3B
$GNGNS,054133.00,0420.02920,S,05539.72225,E,AA,16,0.66,15.4,-47.6,,*6F
$GNGGA,054133.00,0420.02920,S,05539.72225,E,1,12,0.66,15.4,M,-47.6,M,,*41
$GNGSA,A,3,24,20,05,13,15,22,12,18,23,,,,1.29,0.66,1.11*1B
$GNGSA,A,3,86,74,75,87,71,72,76,,,,,,1.29,0.66,1.11*15
$GPGSV,5,1,17,05,62,077,20,11,05,026,,12,51,017,24,13,16,137,17*78
$GPGSV,5,2,17,15,31,170,19,18,32,253,13,20,32,044,21,22,06,133,08*71
$GPGSV,5,3,17,23,18,207,11,24,51,206,38,25,28,342,18,29,09,320,*7B
$GPGSV,5,4,17,36,52,277,,40,86,350,33,41,58,082,,49,32,274,*7D
$GPGSV,5,5,17,50,10,089,*4A
$GLGSV,3,1,09,65,05,204,,71,17,100,11,72,25,152,19,74,23,151,10*65
$GLGSV,3,2,09,75,76,128,20,76,38,341,15,86,17,352,10,87,27,305,13*6C
$GLGSV,3,3,09,88,08,248,*5A
$GNGLL,0420.02920,S,05539.72225,E,054133.00,A,A*6F
$GNGRS,054133.00,1,-0.2,1.1,-7.5,13.8,-1.1,32.4,3.5,9.0,13.4,,,*65
$GNGRS,054133.00,1,2.3,2.1,-1.5,5.5,11.9,-7.5,-3.8,,,,,*65
$GNGST,054133.00,6662626,,,,7.9,11,19*79
$GNZDA,054133.00,23,05,2025,00,00*79
$GNGBS,054133.00,7.9,11.0,19.3,,,,*5A
$GNTXT,01,01,01,More than 100 frame errors, UART RX was disabled*70
b0L>M3R  ,%t$3V@
{4"V^:R 
Y
mAGdHJKLL&USV`W1XFbrCc6$GNRMC,054134.00,A,0420.02977,S,05539.72288,E,0.844,,230525,,,A*7F
$GNVTG,,T,,M,0.844,N,1.564,K,A*33
$GNGNS,054134.00,0420.02977,S,05539.72288,E,AA,16,0.66,14.6,-47.6,,*6E
$GNGGA,054134.00,0420.02977,S,05539.72288,E,1,12,0.66,14.6,M,-47.6,M,,*40
$GNGSA,A,3,24,20,05,13,15,22,12,18,23,,,,1.29,0.66,1.11*1B
$GNGSA,A,3,86,74,75,87,71,72,76,,,,,,1.29,0.66,1.11*15
$GPGSV,5,1,17,05,62,077,24,11,05,026,,12,51,017,24,13,16,137,17*7C
$GPGSV,5,2,17,15,31,170,20,18,32,253,16,20,32,044,20,22,06,133,09*7E
$GPGSV,5,3,17,23,18,207,11,24,51,206,36,25,28,342,18,29,09,320,*75
$GPGSV,5,4,17,36,52,277,,40,86,350,34,41,58,082,,49,32,274,*7A
$GPGSV,5,5,17,50,10,089,*4A
$GLGSV,3,1,09,65,05,204,,71,17,100,12,72,25,152,18,74,23,151,11*66
$GLGSV,3,2,09,75,76,128,17,76,38,341,11,86,17,352,08,87,27,305,08*6F
$GLGSV,3,3,09,88,08,248,*5A
$GNGLL,0420.02977,S,05539.72288,E,054134.00,A,A*6D
$GNGRS,054134.00,1,-0.2,1.3,-8.8,12.0,-2.8,61.8,3.4,0.3,-11.6,,,*4D
$GNGRS,054134.00,1,-74.0,35.0,-3.1,-78.1,13.0,-6.2,-24.8,,,,,*65
$GNGST,054134.00,91,,,,7.8,11,19*41
$GNZDA,054134.00,23,05,2025,00,00*7E
$GNGBS,054134.00,7.8,10.8,19.2,,,,*54
$GNTXT,01,01,01,More than 100 frame errors, UART RX was disabled*70
b0L>ME3*  ,=dR%3V@
{4"V^:R 
Y
mAGdYHJ
KLQL&UV`W1.XmbryGc$GNRMC,054135.00,A,0420.02979,S,05539.72279,E,0.487,,230525,,,A*7D
$GNVTG,,T,,M,0.487,N,0.901,K,A*3E
$GNGNS,054135.00,0420.02979,S,05539.72279,E,AA,16,0.66,13.7,-47.6,,*69
$GNGGA,054135.00,0420.02979,S,05539.72279,E,1,12,0.66,13.7,M,-47.6,M,,*47
$GNGSA,A,3,24,20,05,13,15,22,12,18,23,,,,1.29,0.66,1.11*1B
$GNGSA,A,3,86,74,75,87,71,72,76,,,,,,1.29,0.66,1.11*15
$GPGSV,5,1,17,05,62,077,24,11,05,026,,12,51,017,24,13,16,137,16*7D
$GPGSV,5,2,17,15,31,170,21,18,32,253,16,20,32,044,19,22,06,133,11*7C
$GPGSV,5,3,17,23,18,207,16,24,51,206,37,25,28,342,18,29,09,320,*73
$GPGSV,5,4,17,36,52,277,,40,86,350,34,41,58,082,,49,32,274,*7A
$GPGSV,5,5,17,50,10,089,*4A
$GLGSV,3,1,09,65,05,204,,71,17,100,11,72,25,152,18,74,23,151,10*64
$GLGSV,3,2,09,75,76,128,14,76,38,341,11,86,17,352,07,87,27,305,11*6B
$GLGSV,3,3,09,88,08,248,*5A
$GNGLL,0420.02979,S,05539.72279,E,054135.00,A,A*6C
$GNGRS,054135.00,1,-0.2,3.2,-7.0,11.6,-2.9,31.7,3.0,9.3,13.6,,,*64
$GNGRS,054135.00,1,2.1,1.5,-9.4,5.6,11.1,-8.1,-3.8,,,,,*6F
$GNGST,054135.00,5950040,,,,7.9,11,20*7E
$GNZDA,054135.00,23,05,2025,00,00*7F
$GNGBS,054135.00,7.9,10.9,19.6,,,,*51
$GNTXT,01,01,01,More than 100 frame errors, UART RX was disabled*70
b0L>M3EQ r ,e%3V@
{4!V^:R 
Y
mAG
dHJKLL&UBV`W
1X*braKcc$GNRMC,054136.00,A,0420.02979,S,05539.72265,E,0.384,,230525,,,A*77
$GNVTG,,T,,M,0.384,N,0.711,K,A*35
$GNGNS,054136.00,0420.02979,S,05539.72265,E,AA,16,0.66,14.1,-47.6,,*66
$GNGGA,054136.00,0420.02979,S,05539.72265,E,1,12,0.66,14.1,M,-47.6,M,,*48
$GNGSA,A,3,24,20,05,13,15,22,12,18,23,,,,1.29,0.66,1.11*1B
$GNGSA,A,3,86,74,75,87,71,72,76,,,,,,1.29,0.66,1.11*15
$GPGSV,5,1,17,05,62,077,25,11,05,026,,12,51,017,24,13,16,137,15*7F
$GPGSV,5,2,17,15,31,170,21,18,32,253,09,20,32,044,20,22,06,133,09*71
$GPGSV,5,3,17,23,18,207,15,24,51,206,37,25,28,342,19,29,09,320,*71
$GPGSV,5,4,17,36,52,277,,40,86,350,33,41,58,082,,49,32,274,*7D
$GPGSV,5,5,17,50,10,089,*4A
$GLGSV,3,1,09,65,05,204,,71,17,100,10,72,25,152,19,74,23,151,11*65
$GLGSV,3,2,09,75,76,128,13,76,38,341,11,86,17,352,09,87,27,305,10*63
$GLGSV,3,3,09,88,08,248,*5A
$GNGLL,0420.02979,S,05539.72265,E,054136.00,A,A*62
$GNGRS,054136.00,1,0.0,2.3,-5.9,11.1,-2.7,32.7,3.2,8.8,13.8,,,*4F
$GNGRS,054136.00,1,1.7,2.3,-5.5,5.0,11.9,-8.3,-4.5,,,,,*67
$GNGST,054136.00,5952736,,,,7.9,11,20*79
$GNZDA,054136.00,23,05,2025,00,00*7C
$GNGBS,054136.00,7.9,11.0,19.9,,,,*55
$GNTXT,01,01,01,More than 100 frame errors, UART RX was disabled*70
b0L>M3  ,@h-%3V@
{4"V^:R 
Y
mAGdiHJ KL/L&UV`W1X"brIOc$GNRMC,054137.00,A,0420.03010,S,05539.72296,E,0.587,,230525,,,A*78
$GNVTG,,T,,M,0.587,N,1.087,K,A*39
$GNGNS,054137.00,0420.03010,S,05539.72296,E,AA,16,0.66,13.2,-47.6,,*68
$GNGGA,054137.00,0420.03010,S,05539.72296,E,1,12,0.66,13.2,M,-47.6,M,,*46
$GNGSA,A,3,24,20,05,13,15,22,12,18,23,,,,1.29,0.66,1.11*1B
$GNGSA,A,3,86,74,75,87,71,72,76,,,,,,1.29,0.66,1.11*15
$GPGSV,5,1,17,05,62,077,26,11,05,026,,12,51,017,22,13,16,137,16*79
$GPGSV,5,2,17,15,31,170,21,18,32,253,16,20,32,044,19,22,06,133,08*74
$GPGSV,5,3,17,23,18,207,11,24,51,206,37,25,28,342,20,29,09,320,*7F
$GPGSV,5,4,17,36,52,277,,40,86,350,34,41,58,082,,49,32,274,*7A
$GPGSV,5,5,17,50,10,089,*4A
$GLGSV,3,1,09,65,05,204,,71,17,100,15,72,25,152,20,74,23,151,09*63
$GLGSV,3,2,09,75,76,128,17,76,38,341,11,86,17,352,09,87,27,305,14*63
$GLGSV,3,3,09,88,08,248,*5A
$GNGLL,0420.03010,S,05539.72296,E,054137.00,A,A*68
$GNGRS,054137.00,1,0.1,0.6,-7.8,9.8,-1.2,116,1.9,-20.8,13.0,,,*45
$GNGRS,054137.00,1,74.0,83.5,-4.7,1.8,16.4,-8.3,-6.2,,,,,*6C
$GNGST,054137.00,92,,,,7.8,11,19*41
$GNZDA,054137.00,23,05,2025,00,00*7D
$GNGBS,054137.00,7.8,10.7,19.5,,,,*5F
$GNTXT,01,01,01,More than 100 frame errors, UART RX was disabled*70
b0L>Ms3=
  ,F%3V@
{4"V^:R 
Y
mAGdHH2J
KLL
&UuV
`W1Xbr1Sc3$GNRMC,054138.00,A,0420.02993,S,05539.72276,E,0.053,,230525,,,A*76
$GNVTG,,T,,M,0.053,N,0.097,K,A*35
$GNGNS,054138.00,0420.02993,S,05539.72276,E,AA,16,0.66,12.7,-47.6,,*6E
$GNGGA,054138.00,0420.02993,S,05539.72276,E,1,12,0.66,12.7,M,-47.6,M,,*40
$GNGSA,A,3,24,20,05,13,15,22,12,18,23,,,,1.29,0.66,1.11*1B
$GNGSA,A,3,86,74,75,87,71,72,76,,,,,,1.29,0.66,1.11*15
$GPGSV,5,1,17,05,62,077,26,11,05,026,,12,51,017,22,13,16,137,16*79
$GPGSV,5,2,17,15,31,170,21,18,32,253,10,20,32,044,19,22,06,133,09*73
$GPGSV,5,3,17,23,18,207,11,24,51,206,37,25,28,342,20,29,09,320,*7F
$GPGSV,5,4,17,36,52,277,,40,86,350,34,41,58,082,,49,32,274,*7A
$GPGSV,5,5,17,50,10,089,*4A
$GLGSV,3,1,09,65,05,204,,71,17,100,12,72,25,152,20,74,23,151,10*6C
$GLGSV,3,2,09,75,76,128,19,76,38,341,10,86,17,352,10,87,27,305,12*62
$GLGSV,3,3,09,88,08,248,*5A
$GNGLL,0420.02993,S,05539.72276,E,054138.00,A,A*6A
$GNGRS,054138.00,1,0.1,3.3,-6.5,10.8,0.2,32.0,1.9,9.2,10.3,,,*61
$GNGRS,054138.00,1,2.0,1.7,-3.8,5.3,11.0,-9.7,-4.0,,,,,*6B
$GNGST,054138.00,4208633,,,,7.9,11,20*76
$GNZDA,054138.00,23,05,2025,00,00*72
$GNGBS,054138.00,7.9,10.7,19.7,,,,*53
$GNTXT,01,01,01,More than 100 frame errors, UART RX was disabled*70
b0L>M35 Q ,
di&3V@
{4"V^:R 
Y
mAGdHJ
KLL&UV`:W1XdbrWcm$GNRMC,054139.00,A,0420.02976,S,05539.72259,E,0.146,,230525,,,A*74
$GNVTG,,T,,M,0.146,N,0.270,K,A*3B
$GNGNS,054139.00,0420.02976,S,05539.72259,E,AA,16,0.66,11.4,-47.6,,*69
$GNGGA,054139.00,0420.02976,S,05539.72259,E,1,12,0.66,11.4,M,-47.6,M,,*47
$GNGSA,A,3,24,20,05,13,15,22,12,18,23,,,,1.29,0.66,1.11*1B
$GNGSA,A,3,86,74,75,87,71,72,76,,,,,,1.29,0.66,1.11*15
$GPGSV,5,1,17,05,62,077,26,11,05,027,,12,51,017,22,13,16,137,17*79
$GPGSV,5,2,17,15,31,170,18,18,32,253,14,20,32,044,20,22,06,133,10*7F
$GPGSV,5,3,17,23,18,207,14,24,51,206,38,25,28,342,20,29,09,320,*75
$GPGSV,5,4,17,36,52,277,,40,86,350,34,41,58,082,,49,32,274,*7A
$GPGSV,5,5,17,50,10,089,*4A
$GLGSV,3,1,09,65,05,204,,71,17,100,12,72,25,152,20,74,23,151,10*6C
$GLGSV,3,2,09,75,76,128,19,76,38,341,11,86,17,352,09,87,27,305,14*6D
$GLGSV,3,3,09,88,08,248,*5A
$GNGLL,0420.02976,S,05539.72259,E,054139.00,A,A*6D
$GNGRS,054139.00,1,0.2,3.8,-5.6,9.8,-0.2,31.7,0.5,8.5,8.7,,,*4F
$GNGRS,054139.00,1,0.6,1.7,-3.1,3.9,10.4,-11.2,-4.9,,,,,*5B
$GNGST,054139.00,4212020,,,,8.0,11,20*7E
$GNZDA,054139.00,23,05,2025,00,00*73
$GNGBS,054139.00,8.0,10.7,19.8,,,,*5B
$GNTXT,01,01,01,More than 100 frame errors, UART RX was disabled*70
b0Lp>MN4Ix  ,
&3V@
{4"V^:R 
Y
mAGdxH*J1KLL&UV`r!W1@XLbpr[cE$GNRMC,054140.00,A,0420.02918,S,05539.72178,E,1.178,,230525,,,A*7E
$GNVTG,,T,,M,1.178,N,2.182,K,A*3B
$GNGNS,054140.00,0420.02918,S,05539.72178,E,AA,16,0.66,11.0,-47.6,,*6B
$GNGGA,054140.00,0420.02918,S,05539.72178,E,1,12,0.66,11.0,M,-47.6,M,,*45
$GNGSA,A,3,24,20,05,13,15,22,12,18,23,,,,1.29,0.66,1.11*1B
$GNGSA,A,3,86,74,75,87,71,72,76,,,,,,1.29,0.66,1.11*15
$GPGSV,5,1,17,05,62,077,25,11,05,027,,12,52,017,21,13,16,137,16*7B
$GPGSV,5,2,17,15,31,170,16,18,32,253,11,20,32,044,20,22,06,133,10*74
$GPGSV,5,3,17,23,18,207,15,24,51,206,38,25,28,342,19,29,09,320,*7E
$GPGSV,5,4,17,36,52,277,,40,86,350,34,41,58,082,,49,32,274,*7A
$GPGSV,5,5,17,50,10,089,*4A
$GLGSV,3,1,09,65,05,204,,71,17,100,14,72,25,152,19,74,23,151,11*61
$GLGSV,3,2,09,75,76,128,20,76,38,341,08,86,17,352,09,87,27,305,14*6F
$GLGSV,3,3,09,88,08,248,*5A
$GNGLL,0420.02918,S,05539.72178,E,054140.00,A,A*6B
$GNGRS,054140.00,1,0.2,4.6,-6.9,8.4,1.2,10.2,-2.8,-8.5,7.7,,,*63
$GNGRS,054140.00,1,85.6,3.0,-3.3,23.7,1.2,-9.8,-28.7,,,,,*66
$GNGST,054140.00,91,,,,7.9,11,20*49
$GNZDA,054140.00,23,05,2025,00,00*7D
$GNGBS,054140.00,7.9,10.6,19.6,,,,*5C
$GNTXT,01,01,01,More than 100 frame errors, UART RX was disabled*70
b0LX>M4
  ,\p&3V@
{4"V^:R 
Y
mAGdH8J
4KLSL&UV`dW1XbXr^ch$GNRMC,054141.00,A,0420.02924,S,05539.72182,E,0.466,,230525,,,A*7E
$GNVTG,,T,,M,0.466,N,0.864,K,A*33
$GNGNS,054141.00,0420.02924,S,05539.72182,E,AA,16,0.66,10.7,-47.6,,*66
$GNGGA,054141.00,0420.02924,S,05539.72182,E,1,12,0.66,10.7,M,-47.6,M,,*48
$GNGSA,A,3,24,20,05,13,15,22,12,18,23,,,,1.29,0.66,1.11*1B
$GNGSA,A,3,86,74,75,87,71,72,76,,,,,,1.29,0.66,1.11*15
$GPGSV,5,1,17,05,62,077,25,11,05,027,,12,52,017,21,13,16,136,15*79
$GPGSV,5,2,17,15,31,170,12,18,32,253,10,20,32,044,20,22,06,133,11*70
$GPGSV,5,3,17,23,18,207,15,24,51,206,38,25,28,342,19,29,09,320,*7E
$GPGSV,5,4,17,36,52,277,,40,86,350,34,41,58,082,,49,32,274,*7A
$GPGSV,5,5,17,50,10,089,*4A
$GLGSV,3,1,09,65,05,204,,71,17,100,15,72,25,152,19,74,23,151,10*61
$GLGSV,3,2,09,75,76,128,19,76,38,341,13,86,17,352,08,87,27,305,12*68
$GLGSV,3,3,09,88,08,248,*5A
$GNGLL,0420.02924,S,05539.72182,E,054141.00,A,A*60
$GNGRS,054141.00,1,0.1,3.5,-5.9,10.2,-0.4,30.8,-5.5,10.2,6.2,,,*66
$GNGRS,054141.00,1,3.6,0.5,-1.7,7.1,10.2,-9.7,-2.7,,,,,*6E
$GNGST,054141.00,5156577,,,,8.1,11,20*75
$GNZDA,054141.00,23,05,2025,00,00*7C
$GNGBS,054141.00,8.1,10.7,19.8,,,,*55
$GNTXT,01,01,01,More than 100 frame errors, UART RX was disabled*70
b0L@>M44  ,;`&3V@
{4"V^:R 
Y
mAGdHDJKLL&UV
`QW1X]b@rbc$GNRMC,054142.00,A,0420.02911,S,05539.72151,E,0.511,,230525,,,A*74
$GNVTG,,T,,M,0.511,N,0.947,K,A*32
$GNGNS,054142.00,0420.02911,S,05539.72151,E,AA,16,0.66,9.3,-47.6,,*51
$GNGGA,054142.00,0420.02911,S,05539.72151,E,1,12,0.66,9.3,M,-47.6,M,,*7F
$GNGSA,A,3,24,20,05,13,15,22,12,18,23,,,,1.29,0.66,1.11*1B
$GNGSA,A,3,86,74,75,87,71,72,76,,,,,,1.29,0.66,1.11*15
$GPGSV,5,1,17,05,62,077,25,11,05,027,,12,52,017,23,13,16,136,16*78
$GPGSV,5,2,17,15,31,170,19,18,32,253,12,20,32,044,18,22,06,133,15*76
$GPGSV,5,3,17,23,18,207,14,24,51,206,38,25,28,342,19,29,09,320,*7F
$GPGSV,5,4,17,36,52,277,,40,86,350,34,41,58,082,,49,32,274,*7A
$GPGSV,5,5,17,50,10,089,*4A
$GLGSV,3,1,09,65,05,204,,71,17,100,15,72,25,152,21,74,23,151,11*6B
$GLGSV,3,2,09,75,76,128,17,76,38,341,09,86,17,352,10,87,27,305,11*67
$GLGSV,3,3,09,88,08,248,*5A
$GNGLL,0420.02911,S,05539.72151,E,054142.00,A,A*6B
$GNGRS,054142.00,1,0.0,3.1,-5.9,11.6,-0.8,29.6,-4.6,9.8,6.1,,,*5C
$GNGRS,054142.00,1,3.4,-0.4,-5.2,7.1,9.4,-9.6,-2.9,,,,,*73
$GNGST,054142.00,6651624,,,,8.2,11,20*73
$GNZDA,054142.00,23,05,2025,00,00*7F
$GNGBS,054142.00,8.2,10.8,20.0,,,,*58
$GNTXT,01,01,01,More than 100 frame errors, UART RX was disabled*70
b0L(>Mm4]1  ,%%3V@
{4!V^:R 
Y
mAGdCH{J
#KLL&UY'V
`EW1$XCb(rfc8$GNRMC,054143.00,A,0420.02853,S,05539.72082,E,0.947,,230525,,,A*72
$GNVTG,,T,,M,0.947,N,1.755,K,A*31
$GNGNS,054143.00,0420.02853,S,05539.72082,E,AA,16,0.66,7.8,-47.6,,*5D
$GNGGA,054143.00,0420.02853,S,05539.72082,E,1,12,0.66,7.8,M,-47.6,M,,*73
$GNGSA,A,3,24,20,05,13,15,22,12,18,23,,,,1.29,0.66,1.11*1B
$GNGSA,A,3,86,74,75,87,71,72,76,,,,,,1.29,0.66,1.11*15
$GPGSV,5,1,17,05,62,077,24,11,05,027,,12,52,017,24,13,16,136,16*7E
$GPGSV,5,2,17,15,31,170,21,18,32,253,16,20,32,044,16,22,06,133,11*73
$GPGSV,5,3,17,23,18,207,14,24,51,206,37,25,28,342,19,29,09,320,*70
$GPGSV,5,4,17,36,52,277,,40,86,350,33,41,58,082,,49,32,274,*7D
$GPGSV,5,5,17,50,10,089,*4A
$GLGSV,3,1,09,65,05,204,,71,17,100,15,72,25,152,21,74,23,151,10*6A
$GLGSV,3,2,09,75,76,128,18,76,38,341,07,86,17,352,10,87,27,305,08*6E
$GLGSV,3,3,09,88,08,248,*5A
$GNGLL,0420.02853,S,05539.72082,E,054143.00,A,A*62
$GNGRS,054143.00,1,0.1,4.2,-6.6,12.4,0.5,18.3,-4.2,-6.3,1.6,,,*5F
$GNGRS,054143.00,1,-1.9,-40.6,-6.0,93.9,18.6,-9.0,101,,,,,*5E
$GNGST,054143.00,93,,,,8.1,11,20*4F
$GNZDA,054143.00,23,05,2025,00,00*7E
$GNGBS,054143.00,8.1,10.6,19.8,,,,*56
$GNTXT,01,01,01,More than 100 frame errors, UART RX was disabled*70
b0L>M4x_  ,M%3V@
{4"V^:R 
Y
mAGdHyJHKLL&UV`+W1Xwbrjc$GNRMC,054144.00,A,0420.02862,S,05539.72078,E,0.426,,230525,,,A*78
$GNVTG,,T,,M,0.426,N,0.789,K,A*3B
$GNGNS,054144.00,0420.02862,S,05539.72078,E,AA,16,0.66,6.6,-47.6,,*52
$GNGGA,054144.00,0420.02862,S,05539.72078,E,1,12,0.66,6.6,M,-47.6,M,,*7C
$GNGSA,A,3,24,20,05,13,15,22,12,18,23,,,,1.29,0.66,1.11*1B
$GNGSA,A,3,86,74,75,87,71,72,76,,,,,,1.29,0.66,1.11*15
$GPGSV,5,1,17,05,62,077,23,11,05,027,,12,52,017,24,13,16,136,16*79
$GPGSV,5,2,17,15,31,170,20,18,32,253,12,20,32,044,20,22,06,133,13*71
$GPGSV,5,3,17,23,18,207,13,24,51,206,37,25,28,342,20,29,09,320,*7D
$GPGSV,5,4,17,36,52,277,,40,86,350,34,41,58,082,,49,32,274,*7A
$GPGSV,5,5,17,50,10,089,*4A
$GLGSV,3,1,09,65,05,204,,71,17,100,12,72,25,152,20,74,23,151,08*65
$GLGSV,3,2,09,75,76,128,18,76,38,341,13,86,17,352,11,87,27,305,11*62
$GLGSV,3,3,09,88,08,248,*5A
$GNGLL,0420.02862,S,05539.72078,E,054144.00,A,A*62
$GNGRS,054144.00,1,0.0,11.0,-8.0,13.1,-1.6,30.9,-3.9,9.9,0.0,,,*6F
$GNGRS,054144.00,1,3.0,0.7,-4.9,6.7,10.3,-9.0,-2.7,,,,,*65
$GNGST,054144.00,4214695,,,,8.2,11,20*78
$GNZDA,054144.00,23,05,2025,00,00*79
$GNGBS,054144.00,8.2,10.7,20.1,,,,*50
$GNTXT,01,01,01,More than 100 frame errors, UART RX was disabled*70
b0L>M4  ,;&3V@
{4"V^:R 
Y
mAGdHJ+KLL&UV`XW1X!brnc{$GNRMC,054145.00,A,0420.02863,S,05539.72096,E,0.218,,230525,,,A*73
$GNVTG,,T,,M,0.218,N,0.403,K,A*31
$GNGNS,054145.00,0420.02863,S,05539.72096,E,AA,16,0.66,7.1,-47.6,,*54
$GNGGA,054145.00,0420.02863,S,05539.72096,E,1,12,0.66,7.1,M,-47.6,M,,*7A
$GNGSA,A,3,24,20,05,13,15,22,12,18,23,,,,1.29,0.66,1.11*1B
$GNGSA,A,3,86,74,75,87,71,72,76,,,,,,1.29,0.66,1.11*15
$GPGSV,5,1,17,05,62,077,25,11,05,027,,12,52,017,24,13,16,136,14*7D
$GPGSV,5,2,17,15,31,170,19,18,32,253,14,20,32,044,17,22,06,133,13*79
$GPGSV,5,3,17,23,18,207,14,24,51,206,38,25,28,342,21,29,09,320,*74
$GPGSV,5,4,17,36,52,277,,40,86,350,34,41,58,082,,49,32,274,*7A
$GPGSV,5,5,17,50,10,089,*4A
$GLGSV,3,1,09,65,05,204,,71,17,100,13,72,25,152,20,74,23,151,09*65
$GLGSV,3,2,09,75,76,128,16,76,38,341,13,86,17,352,11,87,27,305,13*6E
$GLGSV,3,3,09,88,08,248,*5A
$GNGLL,0420.02863,S,05539.72096,E,054145.00,A,A*62
$GNGRS,054145.00,1,0.0,10.4,-8.4,14.6,-3.5,30.5,-5.7,10.5,0.6,,,*58
$GNGRS,054145.00,1,3.4,0.4,-2.6,7.4,9.8,-7.9,-2.3,,,,,*58
$GNGST,054145.00,5952158,,,,8.3,11,20*76
$GNZDA,054145.00,23,05,2025,00,00*78
$GNGBS,054145.00,8.3,10.9,20.3,,,,*5C
$GNTXT,01,01,01,More than 100 frame errors, UART RX was disabled*70
b0L>M4.Y5  ,C&3V@
{4"V^:R 
Y
mAGdHJ
KLlL&UV`q:W1XtbrqrcSa$GNRMC,054146.00,A,0420.02857,S,05539.72085,E,0.102,,230525,,,A*7D
$GNVTG,,T,,M,0.102,N,0.189,K,A*3E
$GNGNS,054146.00,0420.02857,S,05539.72085,E,AA,15,0.67,5.9,-47.6,,*5A
$GNGGA,054146.00,0420.02857,S,05539.72085,E,1,12,0.67,5.9,M,-47.6,M,,*77
$GNGSA,A,3,24,20,05,13,15,22,12,18,23,,,,1.47,0.67,1.32*13
$GNGSA,A,3,86,74,87,71,72,76,,,,,,,1.47,0.67,1.32*1F
$GPGSV,5,1,17,05,62,077,25,11,05,027,,12,52,017,25,13,16,136,15*7D
$GPGSV,5,2,17,15,31,170,17,18,32,254,13,20,32,044,17,22,06,133,12*76
$GPGSV,5,3,17,23,18,207,14,24,51,206,38,25,28,342,21,29,09,320,*74
$GPGSV,5,4,17,36,52,277,,40,86,350,34,41,58,082,,49,32,274,*7A
$GPGSV,5,5,17,50,10,089,*4A
$GLGSV,3,1,09,65,05,204,,71,17,100,14,72,25,152,20,74,23,151,10*6A
$GLGSV,3,2,09,75,76,128,14,76,38,341,12,86,17,352,09,87,27,305,11*66
$GLGSV,3,3,09,88,08,248,*5A
$GNGLL,0420.02857,S,05539.72085,E,054146.00,A,A*64
$GNGRS,054146.00,1,0.0,10.9,-7.8,13.7,-4.6,2.0,-4.7,9.8,2.4,,,*57
$GNGRS,054146.00,1,150,30.4,-6.4,11.6,-7.4,-5.7,,,,,,*67
$GNGST,054146.00,99,,,,8.2,11,20*43
$GNZDA,054146.00,23,05,2025,00,00*7B
$GNGBS,054146.00,8.2,10.7,20.2,75,,-8.4,90.9*42
$GNTXT,01,01,01,More than 100 frame errors, UART RX was disabled*70
b0L>M4# ] ,u&3V@
{4"V^:R 
Y
mAGd-HJKLL
&UV`W
1aXbrYvc+$GNRMC,054147.00,A,0420.02850,S,05539.72089,E,0.257,,230525,,,A*74
$GNVTG,,T,,M,0.257,N,0.476,K,A*38
$GNGNS,054147.00,0420.02850,S,05539.72089,E,AA,16,0.66,5.4,-47.6,,*5F
$GNGGA,054147.00,0420.02850,S,05539.72089,E,1,12,0.66,5.4,M,-47.6,M,,*71
$GNGSA,A,3,24,20,05,13,15,22,12,18,23,,,,1.29,0.66,1.11*1B
$GNGSA,A,3,86,74,75,87,71,72,76,,,,,,1.29,0.66,1.11*15
$GPGSV,5,1,17,05,62,077,25,11,05,027,,12,52,017,24,13,16,136,14*7D
$GPGSV,5,2,17,15,31,170,15,18,32,254,16,20,32,044,18,22,06,133,13*7F
$GPGSV,5,3,17,23,18,207,16,24,51,206,38,25,28,342,21,29,09,320,*76
$GPGSV,5,4,17,36,52,277,,40,86,350,34,41,58,082,,49,32,274,*7A
$GPGSV,5,5,17,50,10,089,*4A
$GLGSV,3,1,09,65,05,204,,71,17,100,17,72,25,152,21,74,23,151,11*69
$GLGSV,3,2,09,75,76,128,11,76,38,341,10,86,17,352,14,87,27,305,10*6C
$GLGSV,3,3,09,88,08,248,*5A
$GNGLL,0420.02850,S,05539.72089,E,054147.00,A,A*6E
$GNGRS,054147.00,1,0.0,10.5,-7.5,14.4,-3.6,31.9,-4.8,8.6,4.1,,,*6E
$GNGRS,054147.00,1,2.5,1.3,25.0,6.1,10.7,-7.6,-3.4,,,,,*78
$GNGST,054147.00,4208472,,,,8.2,11,20*7D
$GNZDA,054147.00,23,05,2025,00,00*7A
$GNGBS,054147.00,8.2,10.7,20.2,,,,*50
$GNTXT,01,01,01,More than 100 frame errors, UART RX was disabled*70
b0L>M4ca ,&3V@
{4"V^:R 
Y
mAG
d=HKJKLL&U]V`W1XZbrAzc1$GNRMC,054148.00,A,0420.02830,S,05539.72062,E,0.199,,230525,,,A*79
$GNVTG,,T,,M,0.199,N,0.369,K,A*30
$GNGNS,054148.00,0420.02830,S,05539.72062,E,AA,15,0.67,4.6,-47.6,,*52
$GNGGA,054148.00,0420.02830,S,05539.72062,E,1,12,0.67,4.6,M,-47.6,M,,*7F
$GNGSA,A,3,24,20,05,13,15,22,12,18,23,,,,1.47,0.67,1.31*10
$GNGSA,A,3,86,74,87,71,72,76,,,,,,,1.47,0.67,1.31*1C
$GPGSV,5,1,17,05,62,077,25,11,05,027,,12,52,017,24,13,16,136,14*7D
$GPGSV,5,2,17,15,31,170,12,18,32,254,17,20,31,044,18,22,06,133,13*7A
$GPGSV,5,3,17,23,18,207,16,24,51,206,38,25,28,342,20,29,09,320,*77
$GPGSV,5,4,17,36,52,277,,40,86,350,34,41,58,082,,49,32,274,*7A
$GPGSV,5,5,17,50,10,089,*4A
$GLGSV,3,1,09,65,05,204,,71,17,100,10,72,25,152,20,74,23,151,07*68
$GLGSV,3,2,09,75,76,128,08,76,38,341,08,86,17,352,11,87,27,305,11*69
$GLGSV,3,3,09,88,08,248,*5A
$GNGLL,0420.02830,S,05539.72062,E,054148.00,A,A*62
$GNGRS,054148.00,1,0.2,11.7,-5.5,14.6,-4.1,32.3,-4.1,5.0,1.6,,,*69
$GNGRS,054148.00,1,1.6,1.7,5.0,10.8,-9.5,-4.2,,,,,,*6B
$GNGST,054148.00,5320372,,,,8.2,11,20*7F
$GNZDA,054148.00,23,05,2025,00,00*75
$GNGBS,054148.00,8.2,10.7,20.2,,,,*5F
$GNTXT,01,01,01,More than 100 frame errors, UART RX was disabled*70
b0L>M4
 ,&3V@{4"V^:R 
Y
m
AGd^HJ.KLL
&UV`W
1X}br)~c$GNRMC,054149.00,A,0420.02820,S,05539.72055,E,0.088,,230525,,,A*7C
$GNVTG,,T,,M,0.088,N,0.162,K,A*38
$GNGNS,054149.00,0420.02820,S,05539.72055,E,AA,15,0.67,3.6,-47.6,,*51
$GNGGA,054149.00,0420.02820,S,05539.72055,E,1,12,0.67,3.6,M,-47.6,M,,*7C
$GNGSA,A,3,24,20,05,13,15,22,12,18,23,,,,1.47,0.67,1.31*10
$GNGSA,A,3,86,74,87,71,72,76,,,,,,,1.47,0.67,1.31*1C
$GPGSV,5,1,17,05,62,077,25,11,05,027,,12,52,017,23,13,16,136,14*7A
$GPGSV,5,2,17,15,31,170,09,18,32,254,17,20,31,044,18,22,06,133,13*70
$GPGSV,5,3,17,23,18,207,17,24,51,206,38,25,28,342,21,29,09,320,*77
$GPGSV,5,4,17,36,52,277,,40,86,350,34,41,58,082,,49,32,274,*7A
$GPGSV,5,5,17,50,10,089,*4A
$GLGSV,3,1,09,65,05,204,,71,17,100,18,72,25,152,20,74,23,151,11*67
$GLGSV,3,2,09,75,76,128,08,76,38,341,10,86,17,352,09,87,27,305,10*68
$GLGSV,3,3,09,88,08,248,*5A
$GNGLL,0420.02820,S,05539.72055,E,054149.00,A,A*66
$GNGRS,054149.00,1,0.1,11.5,-2.6,12.9,-3.6,-60.0,-2.9,6.6,-0.3,,,*6F
$GNGRS,054149.00,1,66.7,119,-15.8,3.5,-8.6,-36.9,,,,,,*58
$GNGST,054149.00,98,,,,8.1,11,20*4E
$GNZDA,054149.00,23,05,2025,00,00*74
$GNGBS,054149.00,8.1,10.5,19.9,,,,*5E
$GNTXT,01,01,01,More than 100 frame errors, UART RX was disabled*70
b0L>M4 *,w#&3V@{4"V^3:R 
Y
m
AGdyHJK
LL&U~V`W1 XRbbrc$GNRMC,054150.00,A,0420.02787,S,05539.72023,E,0.543,,230525,,,A*75
$GNVTG,,T,,M,0.543,N,1.005,K,A*3B
$GNGNS,054150.00,0420.02787,S,05539.72023,E,AA,17,0.66,3.6,-47.6,,*59
$GNGGA,054150.00,0420.02787,S,05539.72023,E,1,12,0.66,3.6,M,-47.6,M,,*76
$GNGSA,A,3,24,20,05,13,15,22,12,18,23,40,,,1.19,0.66,1.00*1C
$GNGSA,A,3,86,74,75,87,71,72,76,,,,,,1.19,0.66,1.00*16
$GPGSV,5,1,17,05,62,077,25,11,05,027,,12,52,017,22,13,16,136,14*7B
$GPGSV,5,2,17,15,31,170,09,18,32,254,18,20,31,044,18,22,06,133,14*78
$GPGSV,5,3,17,23,18,207,18,24,51,206,38,25,28,342,21,29,09,320,*78
$GPGSV,5,4,17,36,52,277,,40,86,350,34,41,58,082,,49,32,274,*7A
$GPGSV,5,5,17,50,10,089,*4A
$GLGSV,3,1,09,65,05,204,,71,17,100,12,72,25,152,19,74,23,151,08*6F
$GLGSV,3,2,09,75,76,128,10,76,38,341,11,86,17,352,11,87,27,305,11*68
$GLGSV,3,3,09,88,08,248,*5A
$GNGLL,0420.02787,S,05539.72023,E,054150.00,A,A*6D
$GNGRS,054150.00,1,0.0,11.4,-3.7,12.5,-3.4,32.7,-3.4,8.1,-2.2,131,,*71
$GNGRS,054150.00,1,2.3,2.1,63.6,5.4,11.4,-10.8,-3.9,,,,,*4C
$GNGST,054150.00,6452581,,,,8.2,11,20*7D
$GNZDA,054150.00,23,05,2025,00,00*7C
$GNGBS,054150.00,8.2,10.5,19.9,,,,*55
$GNTXT,01,01,01,More than 100 frame errors, UART RX was disabled*70
b0Lh>M4gr ,&2V@{4"V^3:R 
Y
mAGdWHJKLL&UV
`W1CXbhrct$GNRMC,054151.00,A,0420.02808,S,05539.72034,E,0.108,,230525,,,A*71
$GNVTG,,T,,M,0.108,N,0.201,K,A*37
$GNGNS,054151.00,0420.02808,S,05539.72034,E,AA,17,0.66,3.3,-47.6,,*53
$GNGGA,054151.00,0420.02808,S,05539.72034,E,1,12,0.66,3.3,M,-47.6,M,,*7C
$GNGSA,A,3,24,20,05,13,15,22,12,18,23,40,,,1.19,0.66,1.00*1C
$GNGSA,A,3,86,74,75,87,71,72,76,,,,,,1.19,0.66,1.00*16
$GPGSV,5,1,17,05,62,077,26,11,05,027,,12,52,017,22,13,16,136,15*79
$GPGSV,5,2,17,15,31,170,09,18,32,254,18,20,31,044,19,22,06,133,17*7A
$GPGSV,5,3,17,23,18,207,18,24,50,205,38,25,28,342,21,29,09,320,*7A
$GPGSV,5,4,17,36,52,277,,40,86,350,34,41,58,082,,49,32,274,*7A
$GPGSV,5,5,17,50,10,089,*4A
$GLGSV,3,1,09,65,05,204,,71,17,100,14,72,25,152,19,74,23,151,09*68
$GLGSV,3,2,09,75,76,128,13,76,38,341,13,86,17,352,10,87,27,305,15*6C
$GLGSV,3,3,09,88,08,248,*5A
$GNGLL,0420.02808,S,05539.72034,E,054151.00,A,A*62
$GNGRS,054151.00,1,0.2,9.2,-2.3,9.3,-4.0,32.2,-4.1,7.4,-3.2,131,,*7B
$GNGRS,054151.00,1,2.8,1.8,63.6,5.8,11.1,-10.7,-3.3,,,,,*40
$GNGST,054151.00,6453053,,,,8.2,11,20*77
$GNZDA,054151.00,23,05,2025,00,00*7D
$GNGBS,054151.00,8.2,10.5,19.9,,,,*54
$GNTXT,01,01,01,More than 100 frame errors, UART RX was disabled*70
b0LP>M4 t,&2V@{4"V^$3:R 
Y
m
AGd2H{JNKL_L&UV
`j:W1,XgbPrcc$GNRMC,054152.00,A,0420.02816,S,05539.72055,E,0.356,,230525,,,A*73
$GNVTG,,T,,M,0.356,N,0.659,K,A*37
$GNGNS,054152.00,0420.02816,S,05539.72055,E,AA,17,0.66,3.0,-47.6,,*5B
$GNGGA,054152.00,0420.02816,S,05539.72055,E,1,12,0.66,3.0,M,-47.6,M,,*74
$GNGSA,A,3,24,20,05,13,15,22,12,18,23,40,,,1.19,0.66,1.00*1C
$GNGSA,A,3,86,74,75,87,71,72,76,,,,,,1.19,0.66,1.00*16
$GPGSV,5,1,17,05,62,077,25,11,05,027,,12,52,017,23,13,16,136,16*78
$GPGSV,5,2,17,15,31,170,15,18,32,254,18,20,31,044,19,22,06,133,14*74
$GPGSV,5,3,17,23,18,207,18,24,50,205,38,25,28,342,21,29,09,320,*7A
$GPGSV,5,4,17,36,52,277,,40,86,350,34,41,58,082,,49,32,274,*7A
$GPGSV,5,5,17,50,10,089,*4A
$GLGSV,3,1,09,65,05,204,,71,17,100,13,72,25,152,20,74,23,151,09*65
$GLGSV,3,2,09,75,76,128,12,76,38,341,09,86,17,352,10,87,27,305,07*65
$GLGSV,3,3,09,88,08,248,*5A
$GNGLL,0420.02816,S,05539.72055,E,054152.00,A,A*69
$GNGRS,054152.00,1,0.3,9.0,-3.4,10.5,2.6,-5.7,-5.3,3.7,-5.0,131,,*72
$GNGRS,054152.00,1,150,69.9,34.2,-43.1,0.5,-11.6,-2.3,,,,,*49
$GNGST,054152.00,1489,,,,8.1,10,20*40
$GNZDA,054152.00,23,05,2025,00,00*7E
$GNGBS,054152.00,8.1,10.4,19.6,,,,*5A
$GNTXT,01,01,01,More than 100 frame errors, UART RX was disabled*70
b0L8>M84 ,~&2 V@{4"V^!3:R 
Y
m
AGdTHUJKLcL&UyV`W1:X>b8rc;D$GNRMC,054153.00,A,0420.02802,S,05539.72042,E,0.070,,230525,,,A*76
$GNVTG,,T,,M,0.070,N,0.130,K,A*38
$GNGNS,054153.00,0420.02802,S,05539.72042,E,AA,15,0.73,2.6,-47.6,,*58
$GNGGA,054153.00,0420.02802,S,05539.72042,E,1,12,0.73,2.6,M,-47.6,M,,*75
$GNGSA,A,3,24,20,05,13,15,22,12,18,23,40,,,1.32,0.73,1.11*11
$GNGSA,A,3,75,87,71,72,76,,,,,,,,1.32,0.73,1.11*16
$GPGSV,5,1,17,05,62,077,25,11,05,027,,12,52,017,24,13,16,136,17*7E
$GPGSV,5,2,17,15,31,170,15,18,32,254,19,20,31,044,20,22,06,133,14*7F
$GPGSV,5,3,17,23,18,207,18,24,50,205,38,25,28,342,21,29,09,320,*7A
$GPGSV,5,4,17,36,52,277,,40,86,350,34,41,58,082,,49,32,274,*7A
$GPGSV,5,5,17,50,10,089,*4A
$GLGSV,3,1,09,65,05,204,,71,17,100,11,72,25,152,20,74,23,151,06*68
$GLGSV,3,2,09,75,76,128,16,76,38,341,08,86,17,352,07,87,27,305,09*68
$GLGSV,3,3,09,88,08,248,*5A
$GNGLL,0420.02802,S,05539.72042,E,054153.00,A,A*6B
$GNGRS,054153.00,1,0.3,8.9,-2.0,9.4,10.2,32.2,-3.1,2.3,-5.4,131,,*69
$GNGRS,054153.00,1,-4.1,5.7,11.1,-12.0,-3.9,,,,,,,*5A
$GNGST,054153.00,5321560,,,,8.1,10,20*73
$GNZDA,054153.00,23,05,2025,00,00*7F
$GNGBS,054153.00,8.1,10.3,19.5,,,,*5F
$GNTXT,01,01,01,More than 100 frame errors, UART RX was disabled*70
b0L >M4
" j,C&2!V@{4"V^3:R 
Y
m
AGduHJ
KLiL&U.V
`W1Xb rc$GNRMC,054154.00,A,0420.02789,S,05539.72029,E,0.246,,230525,,,A*77
$GNVTG,,T,,M,0.246,N,0.456,K,A*3A
$GNGNS,054154.00,0420.02789,S,05539.72029,E,AA,17,0.66,2.8,-47.6,,*56
$GNGGA,054154.00,0420.02789,S,05539.72029,E,1,12,0.66,2.8,M,-47.6,M,,*79
$GNGSA,A,3,24,20,05,13,15,22,12,18,23,40,,,1.19,0.66,1.00*1C
$GNGSA,A,3,86,74,75,87,71,72,76,,,,,,1.19,0.66,1.00*16
$GPGSV,5,1,17,05,62,077,25,11,05,027,,12,52,017,23,13,16,136,17*79
$GPGSV,5,2,17,15,31,170,10,18,32,254,19,20,31,044,19,22,06,133,12*76
$GPGSV,5,3,17,23,18,207,18,24,50,205,38,25,28,342,21,29,09,320,*7A
$GPGSV,5,4,17,36,52,277,,40,86,350,34,41,58,082,,49,32,274,*7A
$GPGSV,5,5,17,50,10,089,*4A
$GLGSV,3,1,09,65,05,204,,71,17,100,16,72,25,152,20,74,23,151,10*68
$GLGSV,3,2,09,75,76,128,17,76,38,341,09,86,17,352,10,87,27,305,13*65
$GLGSV,3,3,09,88,08,248,*5A
$GNGLL,0420.02789,S,05539.72029,E,054154.00,A,A*6D
$GNGRS,054154.00,1,0.3,8.4,0.1,6.6,10.6,32.9,-3.3,1.1,-5.3,131,,*4B
$GNGRS,054154.00,1,1.6,2.0,-4.1,5.2,11.4,-10.5,-4.7,,,,,*56
$GNGST,054154.00,5773092,,,,8.2,10,19*76
$GNZDA,054154.00,23,05,2025,00,00*78
$GNGBS,054154.00,8.2,10.3,19.5,,,,*5B
$GNTXT,01,01,01,More than 100 frame errors, UART RX was disabled*70
b0L>M4 b,&2;V@{4"V^13:R 
Y
m
AGdH)JKLL&UV`[9W1X*&brc$GNRMC,054155.00,A,0420.02766,S,05539.71997,E,0.379,,230525,,,A*75
$GNVTG,,T,,M,0.379,N,0.702,K,A*35
$GNGNS,054155.00,0420.02766,S,05539.71997,E,AA,17,0.66,2.0,-47.6,,*51
$GNGGA,054155.00,0420.02766,S,05539.71997,E,1,12,0.66,2.0,M,-47.6,M,,*7E
$GNGSA,A,3,24,20,05,13,15,22,12,18,23,40,,,1.19,0.66,1.00*1C
$GNGSA,A,3,86,74,75,87,71,72,76,,,,,,1.19,0.66,1.00*16
$GPGSV,5,1,17,05,62,077,24,11,05,027,,12,52,017,23,13,16,136,18*77
$GPGSV,5,2,17,15,31,170,14,18,32,254,20,20,31,044,17,22,06,133,08*7D
$GPGSV,5,3,17,23,18,207,17,24,50,205,38,25,28,342,20,29,09,320,*74
$GPGSV,5,4,17,36,52,277,,40,86,350,34,41,58,082,,49,32,274,*7A
$GPGSV,5,5,17,50,10,089,*4A
$GLGSV,3,1,09,65,05,204,,71,17,100,14,72,25,152,19,74,23,151,07*66
$GLGSV,3,2,09,75,76,128,11,76,38,341,11,86,17,352,09,87,27,305,09*69
$GLGSV,3,3,09,88,08,248,*5A
$GNGLL,0420.02766,S,05539.71997,E,054155.00,A,A*62
$GNGRS,054155.00,1,0.6,9.0,0.2,6.9,12.1,-40.9,-3.7,1.0,-5.4,131,,*69
$GNGRS,054155.00,1,147,48.2,2.3,65.8,7.2,-9.8,-21.1,,,,,*50
$GNGST,054155.00,1489,,,,8.1,10,19*4D
$GNZDA,054155.00,23,05,2025,00,00*79
$GNGBS,054155.00,8.1,10.1,19.2,,,,*5C
$GNTXT,01,01,01,More than 100 frame errors, UART RX was disabled*70
b0L>M]4 3,N&2;VA{4"V^13:R 
Y
m
AG
d\HJK
L:L&UV`0W1Xtbrcm$GNRMC,054156.00,A,0420.02757,S,05539.71986,E,0.539,,230525,,,A*76
$GNVTG,,T,,M,0.539,N,0.999,K,A*3B
$GNGNS,054156.00,0420.02757,S,05539.71986,E,AA,17,0.67,2.4,-47.6,,*55
$GNGGA,054156.00,0420.02757,S,05539.71986,E,1,12,0.67,2.4,M,-47.6,M,,*7A
$GNGSA,A,3,24,20,05,13,15,22,12,18,23,40,,,1.26,0.67,1.07*16
$GNGSA,A,3,86,74,75,87,71,72,76,,,,,,1.26,0.67,1.07*1C
$GPGSV,5,1,17,05,62,077,24,11,05,027,,12,52,017,24,13,16,136,18*70
$GPGSV,5,2,17,15,31,170,09,18,32,254,20,20,31,044,17,22,06,133,08*71
$GPGSV,5,3,17,23,18,207,18,24,50,205,38,25,28,342,21,29,09,321,*7B
$GPGSV,5,4,17,36,52,277,,40,86,350,34,41,58,082,,49,32,274,*7A
$GPGSV,5,5,17,50,10,089,*4A
$GLGSV,3,1,09,65,05,204,,71,17,100,10,72,25,152,19,74,23,151,11*65
$GLGSV,3,2,09,75,76,128,10,76,38,341,08,86,17,352,11,87,27,305,11*60
$GLGSV,3,3,09,88,08,248,*5A
$GNGLL,0420.02757,S,05539.71986,E,054156.00,A,A*63
$GNGRS,054156.00,1,0.6,5.9,-1.6,9.3,10.0,32.3,-5.5,0.5,-5.8,131,,*6F
$GNGRS,054156.00,1,3.0,1.6,-4.5,6.5,11.2,-9.9,-3.2,,,,,*65
$GNGST,054156.00,4209398,,,,8.1,10,19*77
$GNZDA,054156.00,23,05,2025,00,00*7A
$GNGBS,054156.00,8.1,10.1,19.2,,,,*5F
$GNTXT,01,01,01,More than 100 frame errors, UART RX was disabled*70
b0L">My4s l,f&24VA{4"V^C3:R 
Y
m
AGdXHJ
KL$L&UV
`W1aXaTb"ric$GNRMC,054157.00,A,0420.02739,S,05539.71963,E,0.706,,230525,,,A*7A
$GNVTG,,T,,M,0.706,N,1.308,K,A*36
$GNGNS,054157.00,0420.02739,S,05539.71963,E,AA,17,0.67,2.0,-47.6,,*53
$GNGGA,054157.00,0420.02739,S,05539.71963,E,1,12,0.67,2.0,M,-47.6,M,,*7C
$GNGSA,A,3,24,20,05,13,15,22,12,18,23,40,,,1.26,0.67,1.07*16
$GNGSA,A,3,86,74,75,87,71,72,76,,,,,,1.26,0.67,1.07*1C
$GPGSV,5,1,17,05,62,077,24,11,05,027,,12,52,017,24,13,16,136,17*7F
$GPGSV,5,2,17,15,31,170,19,18,32,254,21,20,31,044,18,22,06,133,13*74
$GPGSV,5,3,17,23,18,207,18,24,50,205,38,25,28,342,21,29,09,321,*7B
$GPGSV,5,4,17,36,52,277,,40,86,350,34,41,58,082,,49,32,274,*7A
$GPGSV,5,5,17,50,10,089,*4A
$GLGSV,3,1,09,65,05,204,,71,17,100,15,72,25,152,21,74,23,151,10*6A
$GLGSV,3,2,09,75,76,128,17,76,38,341,11,86,17,352,10,87,27,305,14*6B
$GLGSV,3,3,09,88,08,248,*5A
$GNGLL,0420.02739,S,05539.71963,E,054157.00,A,A*61
$GNGRS,054157.00,1,0.5,6.1,-1.3,7.0,9.9,32.2,-6.5,-1.5,-5.8,131,,*71
$GNGRS,054157.00,1,2.6,1.8,-4.8,6.1,11.1,-10.1,-3.6,,,,,*53
$GNGST,054157.00,5152298,,,,8.1,10,19*7B
$GNZDA,054157.00,23,05,2025,00,00*7B
$GNGBS,054157.00,8.1,10.0,19.1,,,,*5C
$GNTXT,01,01,01,More than 100 frame errors, UART RX was disabled*70
b0L&>M\4.Z ,%2$VA{4#V^n3:R 
Y
m
AGdJH:J
|KLL&UV`[W1SXlb&rQcr=$GNRMC,054158.00,A,0420.02752,S,05539.71953,E,0.727,,230525,,,A*78
$GNVTG,,T,,M,0.727,N,1.347,K,A*3E
$GNGNS,054158.00,0420.02752,S,05539.71953,E,AA,17,0.77,1.8,-47.6,,*58
$GNGGA,054158.00,0420.02752,S,05539.71953,E,1,12,0.77,1.8,M,-47.6,M,,*77
$GNGSA,A,3,24,20,05,13,15,22,12,18,23,40,,,1.43,0.77,1.21*10
$GNGSA,A,3,86,74,75,87,71,72,76,,,,,,1.43,0.77,1.21*1A
$GPGSV,5,1,17,05,62,077,22,11,05,027,,12,52,017,23,13,16,136,18*71
$GPGSV,5,2,17,15,31,170,18,18,32,254,22,20,31,044,18,22,06,133,16*73
$GPGSV,5,3,17,23,18,207,19,24,50,205,37,25,28,342,21,29,09,321,*75
$GPGSV,5,4,17,36,52,277,,40,86,350,35,41,58,082,,49,32,274,*7B
$GPGSV,5,5,17,50,10,089,*4A
$GLGSV,3,1,09,65,05,204,,71,17,100,09,72,25,152,22,74,23,151,10*64
$GLGSV,3,2,09,75,76,128,13,76,38,341,12,86,17,352,08,87,27,305,12*63
$GLGSV,3,3,09,88,08,248,*5A
$GNGLL,0420.02752,S,05539.71953,E,054158.00,A,A*60
$GNGRS,054158.00,1,0.4,5.0,-1.6,6.0,10.4,-20.5,-7.2,-3.7,-7.6,132,,*6C
$GNGRS,054158.00,1,-47.7,21.7,17.5,3.4,8.4,-12.2,-35.7,,,,,*66
$GNGST,054158.00,1658,,,,8.0,9.9,19*60
$GNZDA,054158.00,23,05,2025,00,00*74
$GNGBS,054158.00,8.0,9.9,18.9,,,,*6A
$GNTXT,01,01,01,More than 100 frame errors, UART RX was disabled*70
b0L*>M,4 ,[&2"VA{4"V^3:R 
Y
mwAGd=HrJKLBL&U%V
`W1X}b*r9cJ$GNRMC,054159.00,A,0420.02783,S,05539.71971,E,0.453,,230525,,,A*75
$GNVTG,,T,,M,0.453,N,0.840,K,A*33
$GNGNS,054159.00,0420.02783,S,05539.71971,E,AA,16,0.67,2.8,-47.6,,*56
$GNGGA,054159.00,0420.02783,S,05539.71971,E,1,12,0.67,2.8,M,-47.6,M,,*78
$GNGSA,A,3,24,20,05,13,15,22,12,18,23,40,,,1.20,0.67,1.00*17
$GNGSA,A,3,86,75,87,71,72,76,,,,,,,1.20,0.67,1.00*1E
$GPGSV,5,1,17,05,62,077,20,11,05,027,,12,52,017,24,13,16,136,17*7B
$GPGSV,5,2,17,15,31,170,22,18,32,254,23,20,31,044,18,22,06,133,16*7B
$GPGSV,5,3,17,23,18,207,19,24,50,205,38,25,28,342,20,29,09,321,*7B
$GPGSV,5,4,17,36,52,277,,40,86,350,34,41,58,082,,49,32,274,*7A
$GPGSV,5,5,17,50,10,089,*4A
$GLGSV,3,1,09,65,05,204,,71,17,100,13,72,25,152,22,74,23,151,05*6B
$GLGSV,3,2,09,75,76,128,12,76,38,341,13,86,17,352,10,87,27,305,08*61
$GLGSV,3,3,09,88,08,248,*5A
$GNGLL,0420.02783,S,05539.71971,E,054159.00,A,A*6D
$GNGRS,054159.00,1,0.3,3.5,-2.1,4.8,11.9,32.1,-6.4,-5.2,-7.9,132,,*4A
$GNGRS,054159.00,1,4.4,-4.5,7.7,10.9,-11.7,-2.2,,,,,,*7F
$GNGST,054159.00,5948035,,,,8.0,9.8,19*5C
$GNZDA,054159.00,23,05,2025,00,00*75
$GNGBS,054159.00,8.0,9.8,18.8,,,,*6B
$GNTXT,01,01,01,More than 100 frame errors, UART RX was disabled*70
b0L.>M4 ,P%27VA{4"V^3:R 
Y
m
AGdHJGKL6L&UV
`W1
X!Ab.r!c"$GNRMC,054200.00,A,0420.02773,S,05539.71972,E,0.307,,230525,,,A*70
$GNVTG,,T,,M,0.307,N,0.569,K,A*33
$GNGNS,054200.00,0420.02773,S,05539.71972,E,AA,17,0.67,2.5,-47.6,,*59
$GNGGA,054200.00,0420.02773,S,05539.71972,E,1,12,0.67,2.5,M,-47.6,M,,*76
$GNGSA,A,3,24,20,05,13,15,22,12,18,23,40,,,1.26,0.67,1.07*16
$GNGSA,A,3,86,74,75,87,71,72,76,,,,,,1.26,0.67,1.07*1C
$GPGSV,5,1,17,05,62,077,18,11,05,027,,12,52,017,25,13,16,136,17*71
$GPGSV,5,2,17,15,31,170,25,18,32,254,23,20,31,044,17,22,06,133,13*76
$GPGSV,5,3,17,23,18,207,18,24,50,205,37,25,28,342,20,29,09,321,*75
$GPGSV,5,4,17,36,52,277,,40,86,350,34,41,58,082,,49,32,274,*7A
$GPGSV,5,5,17,50,10,089,*4A
$GLGSV,3,1,09,65,05,204,,71,17,100,11,72,25,152,21,74,23,151,07*68
$GLGSV,3,2,09,75,76,128,16,76,38,341,11,86,17,352,10,87,27,305,09*66
$GLGSV,3,3,09,88,08,248,*5A
$GNGLL,0420.02773,S,05539.71972,E,054200.00,A,A*6E
$GNGRS,054200.00,1,0.5,1.6,-1.2,2.6,9.9,31.5,-6.4,-7.8,-6.3,132,,*77
$GNGRS,054200.00,1,4.1,0.7,-4.6,7.8,10.1,-11.1,-2.4,,,,,*58
$GNGST,054200.00,5948214,,,,8.0,9.8,19*52
$GNZDA,054200.00,23,05,2025,00,00*7A
$GNGBS,054200.00,8.0,9.8,18.8,,,,*64
$GNTXT,01,01,01,More than 100 frame errors, UART RX was disabled*70
b0Lx2>M4D ,p%2!VA{4"V^3:R 
Y
m
AGdHJ
*KLL&U@V`4W1.Xybx2rcu$GNRMC,054201.00,A,0420.02774,S,05539.71985,E,0.230,,230525,,,A*7B
$GNVTG,,T,,M,0.230,N,0.425,K,A*3F
$GNGNS,054201.00,0420.02774,S,05539.71985,E,AA,16,0.94,3.5,-47.6,,*5B
$GNGGA,054201.00,0420.02774,S,05539.71985,E,1,12,0.94,3.5,M,-47.6,M,,*75
$GNGSA,A,3,24,20,05,13,15,12,18,23,40,,,,1.68,0.94,1.39*1D
$GNGSA,A,3,86,74,75,87,71,72,76,,,,,,1.68,0.94,1.39*17
$GPGSV,5,1,17,05,62,077,16,11,05,027,,12,52,017,25,13,16,136,18*70
$GPGSV,5,2,17,15,31,170,26,18,32,254,25,20,31,044,15,22,06,133,08*7B
$GPGSV,5,3,17,23,18,207,17,24,50,205,37,25,28,342,21,29,09,321,*7B
$GPGSV,5,4,17,36,52,277,,40,86,350,34,41,58,082,,49,32,274,*7A
$GPGSV,5,5,17,50,10,089,*4A
$GLGSV,3,1,09,65,05,204,,71,17,100,12,72,25,152,22,74,23,151,10*6E
$GLGSV,3,2,09,75,76,128,17,76,38,341,11,86,17,352,11,87,27,305,12*6C
$GLGSV,3,3,09,88,08,248,*5A
$GNGLL,0420.02774,S,05539.71985,E,054201.00,A,A*60
$GNGRS,054201.00,1,0.3,1.1,-2.3,2.4,8.4,-7.5,-10.1,-8.1,132,,,*51
$GNGRS,054201.00,1,21.0,-105,2.2,120,1.7,-11.0,39.0,,,,,*44
$GNGST,054201.00,1701,,,,7.9,9.7,19*6A
$GNZDA,054201.00,23,05,2025,00,00*7B
$GNGBS,054201.00,7.9,9.7,18.7,,,,*63
$GNTXT,01,01,01,More than 100 frame errors, UART RX was disabled*70
b0L`6>M
4_A ,fZ&2%VA{4"V^3:R 
Y
mAGdyHJ
KL}L&UV
`W
1Xb`6rc$GNRMC,054202.00,A,0420.02789,S,05539.71982,E,0.513,,230525,,,A*7B
$GNVTG,,T,,M,0.513,N,0.950,K,A*36
$GNGNS,054202.00,0420.02789,S,05539.71982,E,AA,16,0.67,4.2,-47.6,,*51
$GNGGA,054202.00,0420.02789,S,05539.71982,E,1,12,0.67,4.2,M,-47.6,M,,*7F
$GNGSA,A,3,24,20,05,13,15,12,18,23,40,,,,1.26,0.67,1.07*16
$GNGSA,A,3,86,74,75,87,71,72,76,,,,,,1.26,0.67,1.07*1C
$GPGSV,5,1,17,05,62,077,15,11,05,027,,12,52,017,24,13,16,136,18*72
$GPGSV,5,2,17,15,31,170,25,18,32,254,24,20,31,044,12,22,06,133,09*7F
$GPGSV,5,3,17,23,18,207,16,24,50,205,38,25,28,342,21,29,09,321,*75
$GPGSV,5,4,17,36,52,277,,40,86,350,34,41,58,082,,49,32,274,*7A
$GPGSV,5,5,17,50,10,089,*4A
$GLGSV,3,1,09,65,05,204,,71,17,100,11,72,25,152,22,74,23,151,10*6D
$GLGSV,3,2,09,75,76,128,14,76,38,341,11,86,17,352,10,87,27,305,10*6C
$GLGSV,3,3,09,88,08,248,*5A
$GNGLL,0420.02789,S,05539.71982,E,054202.00,A,A*66
$GNGRS,054202.00,1,0.4,3.6,-0.5,3.2,9.4,-6.7,-10.9,-8.0,132,,,*58
$GNGRS,054202.00,1,3.9,1.6,-3.9,7.0,11.5,-10.2,-2.6,,,,,*50
$GNGST,054202.00,5154933,,,,7.9,9.6,19*53
$GNZDA,054202.00,23,05,2025,00,00*78
$GNGBS,054202.00,7.9,9.6,18.6,,,,*60
$GNTXT,01,01,01,More than 100 frame errors, UART RX was disabled*70
b0LH:>M
4lH[ ,xZ&2=VA{4"V^3:R 
Y
mAG
duHJKLL
&UV
`uW1X
bH:rcB$GNRMC,054203.00,A,0420.02791,S,05539.71967,E,0.567,,230525,,,A*7B
$GNVTG,,T,,M,0.567,N,1.050,K,A*3D
$GNGNS,054203.00,0420.02791,S,05539.71967,E,AA,17,0.67,3.5,-47.6,,*53
$GNGGA,054203.00,0420.02791,S,05539.71967,E,1,12,0.67,3.5,M,-47.6,M,,*7C
$GNGSA,A,3,24,20,05,13,15,22,12,18,23,40,,,1.26,0.67,1.07*16
$GNGSA,A,3,86,74,75,87,71,72,76,,,,,,1.26,0.67,1.07*1C
$GPGSV,5,1,17,05,62,077,15,11,05,027,,12,52,017,24,13,16,136,17*7D
$GPGSV,5,2,17,15,31,170,24,18,32,254,24,20,31,044,16,22,06,133,12*70
$GPGSV,5,3,17,23,18,207,18,24,50,205,38,25,28,342,20,29,09,321,*7A
$GPGSV,5,4,17,36,52,277,,40,86,350,34,41,58,082,,49,32,274,*7A
$GPGSV,5,5,17,50,10,089,*4A
$GLGSV,3,1,09,65,05,204,,71,17,100,10,72,25,152,22,74,23,151,09*64
$GLGSV,3,2,09,75,76,128,19,76,38,341,10,86,17,352,10,87,27,305,12*62
$GLGSV,3,3,09,88,08,248,*5A
$GNGLL,0420.02791,S,05539.71967,E,054203.00,A,A*65
$GNGRS,054203.00,1,0.6,3.8,-0.7,3.3,8.6,23.9,-6.6,-8.9,-8.1,132,,*7A
$GNGRS,054203.00,1,3.7,1.5,-3.8,6.8,11.4,-10.8,-2.7,,,,,*5E
$GNGST,054203.00,5949564,,,,8.0,9.6,19*5E
$GNZDA,054203.00,23,05,2025,00,00*79
$GNGBS,054203.00,8.0,9.6,18.6,,,,*67
$GNTXT,01,01,01,More than 100 frame errors, UART RX was disabled*70
b0L0>>M
46` ,&21VA{4"V^3:R 
Y
mAGdHJKLL&UV`W1Xb0>rc$GNRMC,054204.00,A,0420.02817,S,05539.71977,E,0.481,,230525,,,A*75
$GNVTG,,T,,M,0.481,N,0.890,K,A*31
$GNGNS,054204.00,0420.02817,S,05539.71977,E,AA,16,0.65,3.5,-47.6,,*57
$GNGGA,054204.00,0420.02817,S,05539.71977,E,1,12,0.65,3.5,M,-47.6,M,,*79
$GNGSA,A,3,24,20,05,13,15,22,12,18,23,40,,,1.17,0.65,0.97*1E
$GNGSA,A,3,86,75,87,71,72,76,,,,,,,1.17,0.65,0.97*17
$GPGSV,5,1,17,05,62,077,17,11,05,027,,12,52,017,25,13,16,136,17*7E
$GPGSV,5,2,17,15,31,170,21,18,32,254,24,20,31,044,18,22,06,133,14*7D
$GPGSV,5,3,17,23,18,207,19,24,50,205,38,25,28,342,20,29,09,321,*7B
$GPGSV,5,4,17,36,52,277,,40,86,350,34,41,58,082,,49,32,274,*7A
$GPGSV,5,5,17,50,10,089,*4A
$GLGSV,3,1,09,65,05,204,,71,17,100,09,72,25,152,21,74,23,151,12*65
$GLGSV,3,2,09,75,76,128,21,76,38,341,11,86,17,352,09,87,27,305,09*6A
$GLGSV,3,3,09,88,08,248,*5A
$GNGLL,0420.02817,S,05539.71977,E,054204.00,A,A*62
$GNGRS,054204.00,1,0.5,-5.4,1.7,3.1,8.6,22.2,-6.4,-8.4,-8.0,133,,*72
$GNGRS,054204.00,1,-115,-3.5,-13.4,36.0,-10.7,-1.3,,,,,,*50
$GNGST,054204.00,1489,,,,7.8,9.4,18*6F
$GNZDA,054204.00,23,05,2025,00,00*7E
$GNGBS,054204.00,7.8,9.4,18.2,,,,*61
$GNTXT,01,01,01,More than 100 frame errors, UART RX was disabled*70
b0LB>M,4ai a,Ko&21VA{4"V^3:R 
Y
mAG
dHJXKLKL&UV`W1X~bBrcY$GNRMC,054205.00,A,0420.02839,S,05539.72018,E,0.113,,230525,,,A*75
$GNVTG,,T,,M,0.113,N,0.210,K,A*3D
$GNGNS,054205.00,0420.02839,S,05539.72018,E,AA,16,0.65,4.4,-47.6,,*5F
$GNGGA,054205.00,0420.02839,S,05539.72018,E,1,12,0.65,4.4,M,-47.6,M,,*71
$GNGSA,A,3,24,20,05,13,15,22,12,18,23,40,,,1.17,0.65,0.97*1E
$GNGSA,A,3,86,75,87,71,72,76,,,,,,,1.17,0.65,0.97*17
$GPGSV,5,1,17,05,62,077,20,11,05,027,,12,52,017,24,13,16,136,18*74
$GPGSV,5,2,17,15,31,170,21,18,32,254,24,20,31,044,17,22,06,133,15*73
$GPGSV,5,3,17,23,18,207,20,24,50,205,38,25,28,342,20,29,09,321,*71
$GPGSV,5,4,17,36,52,277,,40,86,350,34,41,58,082,,49,32,274,*7A
$GPGSV,5,5,17,50,10,089,*4A
$GLGSV,3,1,09,65,05,204,,71,17,100,10,72,25,152,21,74,23,151,08*66
$GLGSV,3,2,09,75,76,128,21,76,38,341,11,86,17,352,08,87,27,305,08*6A
$GLGSV,3,3,09,88,08,248,*5A
$GNGLL,0420.02839,S,05539.72018,E,054205.00,A,A*6C
$GNGRS,054205.00,1,0.5,11.0,3.0,2.7,6.2,22.0,-4.2,-9.3,-9.1,132,,*66
$GNGRS,054205.00,1,4.1,-4.4,7.6,10.4,-10.1,-2.5,,,,,,*7D
$GNGST,054205.00,4998203,,,,7.8,9.3,18*50
$GNZDA,054205.00,23,05,2025,00,00*7F
$GNGBS,054205.00,7.8,9.3,18.0,,,,*65
$GNTXT,01,01,01,More than 100 frame errors, UART RX was disabled*70
b0LF>M
4 ,_&2-VA{4"V^3:R 
Y
mAGdH\JKLPL&UV`W1/X%bFrc1z$GNRMC,054206.00,A,0420.02850,S,05539.72052,E,0.478,,230525,,,A*7F
$GNVTG,,T,,M,0.478,N,0.885,K,A*33
$GNGNS,054206.00,0420.02850,S,05539.72052,E,AA,16,0.65,4.1,-47.6,,*58
$GNGGA,054206.00,0420.02850,S,05539.72052,E,1,12,0.65,4.1,M,-47.6,M,,*76
$GNGSA,A,3,24,20,05,13,15,22,12,18,23,40,,,1.17,0.65,0.97*1E
$GNGSA,A,3,86,75,87,71,72,76,,,,,,,1.17,0.65,0.97*17
$GPGSV,5,1,17,05,62,077,21,11,05,027,,12,52,017,23,13,16,136,19*73
$GPGSV,5,2,17,15,31,170,19,18,32,254,24,20,31,044,15,22,06,133,16*79
$GPGSV,5,3,17,23,18,207,20,24,50,205,38,25,28,342,20,29,09,321,*71
$GPGSV,5,4,17,36,52,277,,40,86,350,34,41,58,082,,49,32,274,*7A
$GPGSV,5,5,17,50,10,089,*4A
$GLGSV,3,1,09,65,05,204,,71,17,100,12,72,25,152,21,74,23,151,09*65
$GLGSV,3,2,09,75,76,128,21,76,38,341,09,86,17,352,08,87,27,305,15*6F
$GLGSV,3,3,09,88,08,248,*5A
$GNGLL,0420.02850,S,05539.72052,E,054206.00,A,A*6E
$GNGRS,054206.00,1,0.5,10.5,1.9,0.0,7.7,19.4,-5.8,-8.8,-9.3,132,,*64
$GNGRS,054206.00,1,4.2,-4.3,8.2,9.1,-11.9,-2.3,,,,,,*43
$GNGST,054206.00,4999344,,,,7.9,9.2,18*50
$GNZDA,054206.00,23,05,2025,00,00*7C
$GNGBS,054206.00,7.9,9.2,17.8,,,,*61
$GNTXT,01,01,01,More than 100 frame errors, UART RX was disabled*70
b0LI>M'
4 ,=E&2 VA{4"V^{3:R 
Y
m/AG
dH[JKLL&U8V`
W
1XbIryc$GNRMC,054207.00,A,0420.02875,S,05539.72082,E,0.178,,230525,,,A*71
$GNVTG,,T,,M,0.178,N,0.330,K,A*33
$GNGNS,054207.00,0420.02875,S,05539.72082,E,AA,16,0.65,5.7,-47.6,,*54
$GNGGA,054207.00,0420.02875,S,05539.72082,E,1,12,0.65,5.7,M,-47.6,M,,*7A
$GNGSA,A,3,24,20,05,13,15,22,12,18,23,40,,,1.17,0.65,0.97*1E
$GNGSA,A,3,86,75,87,71,72,76,,,,,,,1.17,0.65,0.97*17
$GPGSV,5,1,17,05,62,077,19,11,05,027,,12,52,017,23,13,16,136,19*78
$GPGSV,5,2,17,15,31,170,22,18,32,254,25,20,31,044,09,22,06,133,17*7C
$GPGSV,5,3,17,23,18,207,19,24,50,205,38,25,28,342,20,29,09,321,*7B
$GPGSV,5,4,17,36,52,277,,40,86,350,34,41,58,082,,49,32,274,*7A
$GPGSV,5,5,17,50,10,089,*4A
$GLGSV,3,1,09,65,05,204,,71,17,100,10,72,25,152,20,74,23,151,07*68
$GLGSV,3,2,09,75,76,128,19,76,38,341,11,86,17,352,09,87,27,305,10*69
$GLGSV,3,3,09,88,08,248,*5A
$GNGLL,0420.02875,S,05539.72082,E,054207.00,A,A*65
$GNGRS,054207.00,1,0.3,-22.4,0.4,1.4,4.4,18.6,-5.4,-10.4,-8.6,132,,*79
$GNGRS,054207.00,1,-102,-2.7,-18.0,4.8,-11.9,145,,,,,,*5E
$GNGST,054207.00,1489,,,,7.8,9.1,17*66
$GNZDA,054207.00,23,05,2025,00,00*7D
$GNGBS,054207.00,7.8,9.1,17.5,,,,*6F
$GNTXT,01,01,01,More than 100 frame errors, UART RX was disabled*70
b0LM>M
4 ,X!&2"VA{4"V^3:R 
Y
mAG
d,HJ|KL"L
&UV`mW1X<bMrac;$GNRMC,054208.00,A,0420.02891,S,05539.72107,E,0.338,,230525,,,A*7E
$GNVTG,,T,,M,0.338,N,0.626,K,A*37
$GNGNS,054208.00,0420.02891,S,05539.72107,E,AA,16,0.65,5.8,-47.6,,*52
$GNGGA,054208.00,0420.02891,S,05539.72107,E,1,12,0.65,5.8,M,-47.6,M,,*7C
$GNGSA,A,3,24,20,05,13,15,22,12,18,23,40,,,1.17,0.65,0.97*1E
$GNGSA,A,3,86,75,87,71,72,76,,,,,,,1.17,0.65,0.97*17
$GPGSV,5,1,17,05,62,077,15,11,05,027,,12,52,017,24,13,16,136,18*72
$GPGSV,5,2,17,15,31,170,24,18,32,254,25,20,31,044,19,22,06,133,16*7A
$GPGSV,5,3,17,23,18,207,19,24,50,205,38,25,28,342,20,29,09,321,*7B
$GPGSV,5,4,17,36,52,277,,40,86,350,34,41,58,082,,49,32,274,*7A
$GPGSV,5,5,17,50,10,089,*4A
$GLGSV,3,1,09,65,05,204,,71,17,100,10,72,25,152,19,74,23,151,08*6D
$GLGSV,3,2,09,75,76,128,17,76,38,341,10,86,17,352,08,87,27,305,14*63
$GLGSV,3,3,09,88,08,248,*5A
$GNGLL,0420.02891,S,05539.72107,E,054208.00,A,A*6C
$GNGRS,054208.00,1,0.3,11.1,-0.2,0.2,4.2,15.7,-5.8,-10.7,-7.4,132,,*7A
$GNGRS,054208.00,1,3.6,-2.2,7.1,10.7,-13.1,-2.9,,,,,,*7B
$GNGST,054208.00,4997388,,,,7.9,9.0,17*5D
$GNZDA,054208.00,23,05,2025,00,00*72
$GNGBS,054208.00,7.9,9.0,17.3,,,,*66
$GNTXT,01,01,01,More than 100 frame errors, UART RX was disabled*70
b0LQ>M
4 ,$&2VA{4"V^3:R 
Y
m]AGdHJwKLL&UV`W1XGbQrIc$GNRMC,054209.00,A,0420.02904,S,05539.72133,E,0.404,,230525,,,A*7D
$GNVTG,,T,,M,0.404,N,0.748,K,A*36
$GNGNS,054209.00,0420.02904,S,05539.72133,E,AA,16,0.65,5.9,-47.6,,*58
$GNGGA,054209.00,0420.02904,S,05539.72133,E,1,12,0.65,5.9,M,-47.6,M,,*76
$GNGSA,A,3,24,20,05,13,15,22,12,18,23,40,,,1.17,0.65,0.97*1E
$GNGSA,A,3,86,75,87,71,72,76,,,,,,,1.17,0.65,0.97*17
$GPGSV,5,1,17,05,62,077,12,11,05,027,,12,52,017,24,13,16,136,17*7A
$GPGSV,5,2,17,15,31,170,25,18,32,254,26,20,31,044,18,22,06,133,17*78
$GPGSV,5,3,17,23,18,207,19,24,50,205,38,25,28,342,20,29,09,321,*7B
$GPGSV,5,4,17,36,52,277,,40,86,350,34,41,58,082,,49,32,274,*7A
$GPGSV,5,5,17,50,10,089,*4A
$GLGSV,3,1,09,65,05,204,,71,17,100,08,72,25,152,18,74,23,151,07*6A
$GLGSV,3,2,09,75,76,128,17,76,38,341,11,86,17,352,09,87,27,305,14*63
$GLGSV,3,3,09,88,08,248,*5A
$GNGLL,0420.02904,S,05539.72133,E,054209.00,A,A*67
$GNGRS,054209.00,1,0.2,9.0,-2.7,-0.4,4.0,15.4,-5.2,-11.2,-7.3,132,,*66
$GNGRS,054209.00,1,4.1,-2.4,7.6,10.4,-13.9,-2.7,,,,,,*7E
$GNGST,054209.00,4080673,,,,7.8,8.9,17*5B
$GNZDA,054209.00,23,05,2025,00,00*73
$GNGBS,054209.00,7.8,8.9,17.1,,,,*6C
$GNTXT,01,01,01,More than 100 frame errors, UART RX was disabled*70
b0LU>M4: 8,t&2VA{4"V^3:R 
Y
mAGdHJ9KLL&UV`W1X^DbUr1c$GNRMC,054210.00,A,0420.02914,S,05539.72153,E,0.305,,230525,,,A*74
$GNVTG,,T,,M,0.305,N,0.565,K,A*3D
$GNGNS,054210.00,0420.02914,S,05539.72153,E,AA,16,0.66,6.0,-47.6,,*5E
$GNGGA,054210.00,0420.02914,S,05539.72153,E,1,12,0.66,6.0,M,-47.6,M,,*70
$GNGSA,A,3,24,20,13,15,22,12,18,23,40,,,,1.23,0.66,1.04*14
$GNGSA,A,3,86,74,75,87,71,72,76,,,,,,1.23,0.66,1.04*1B
$GPGSV,5,1,17,05,62,077,09,11,05,027,,12,52,017,24,13,16,136,17*70
$GPGSV,5,2,17,15,31,170,25,18,32,254,26,20,31,044,20,22,06,133,15*71
$GPGSV,5,3,17,23,18,207,18,24,50,205,38,25,28,342,21,29,09,321,*7B
$GPGSV,5,4,17,36,52,277,,40,86,350,34,41,58,082,,49,32,274,*7A
$GPGSV,5,5,17,50,10,089,*4A
$GLGSV,3,1,09,65,05,204,,71,17,100,11,72,25,152,19,74,23,151,08*6C
$GLGSV,3,2,09,75,76,128,19,76,38,341,13,86,17,352,09,87,27,305,14*6F
$GLGSV,3,3,09,88,08,248,*5A
$GNGLL,0420.02914,S,05539.72153,E,054210.00,A,A*68
$GNGRS,054210.00,1,0.2,7.6,-1.0,2.1,14.0,-4.5,-12.2,-5.9,132,,,*6A
$GNGRS,054210.00,1,1.7,148,-3.5,5.3,4.7,-15.2,-2.7,,,,,*74
$GNGST,054210.00,1489,,,,7.7,8.8,17*67
$GNZDA,054210.00,23,05,2025,00,00*7B
$GNGBS,054210.00,7.7,8.8,16.8,,,,*62
$GNTXT,01,01,01,More than 100 frame errors, UART RX was disabled*70
b0LY>Mx
4* ,j&2VA{4"V^3:R 
Y
mVAGdHNJKLL&UV`W1X%bYrchs$GNRMC,054211.00,A,0420.02932,S,05539.72151,E,0.216,,230525,,,A*70
$GNVTG,,T,,M,0.216,N,0.400,K,A*3C
$GNGNS,054211.00,0420.02932,S,05539.72151,E,AA,17,0.64,6.7,-47.6,,*5D
$GNGGA,054211.00,0420.02932,S,05539.72151,E,1,12,0.64,6.7,M,-47.6,M,,*72
$GNGSA,A,3,24,20,05,13,15,22,12,18,23,40,,,1.16,0.64,0.97*1E
$GNGSA,A,3,86,74,75,87,71,72,76,,,,,,1.16,0.64,0.97*14
$GPGSV,5,1,17,05,62,077,09,11,05,027,,12,52,017,24,13,16,136,17*70
$GPGSV,5,2,17,15,31,170,26,18,32,254,26,20,31,044,21,22,06,133,15*73
$GPGSV,5,3,17,23,18,207,17,24,50,205,38,25,28,342,20,29,09,321,*75
$GPGSV,5,4,17,36,52,277,,40,86,350,34,41,58,082,,49,32,274,*7A
$GPGSV,5,5,17,50,10,089,*4A
$GLGSV,3,1,09,65,05,204,,71,17,100,12,72,25,152,20,74,23,151,11*6D
$GLGSV,3,2,09,75,76,128,20,76,38,341,13,86,17,352,08,87,27,305,14*64
$GLGSV,3,3,09,88,08,248,*5A
$GNGLL,0420.02932,S,05539.72151,E,054211.00,A,A*6F
$GNGRS,054211.00,1,0.2,6.6,-3.9,1.7,2.0,13.9,-4.7,-10.9,-5.9,133,,*4C
$GNGRS,054211.00,1,3.8,1.8,-3.4,6.7,11.7,-17.1,-2.7,,,,,*51
$GNGST,054211.00,95822,,,,7.6,8.7,17*58
$GNZDA,054211.00,23,05,2025,00,00*7A
$GNGBS,054211.00,7.6,8.7,16.6,,,,*63
$GNTXT,01,01,01,More than 100 frame errors, UART RX was disabled*70
b0Lp]
>Mh
4n4 ,&2VA{4"V^3:R 
Y
mAGdHJKL?L&UV`W1Xbp]rc@$GNRMC,054212.00,A,0420.02923,S,05539.72149,E,0.468,,230525,,,A*75
$GNVTG,,T,,M,0.468,N,0.867,K,A*3E
$GNGNS,054212.00,0420.02923,S,05539.72149,E,AA,17,0.64,7.7,-47.6,,*56
$GNGGA,054212.00,0420.02923,S,05539.72149,E,1,12,0.64,7.7,M,-47.6,M,,*79
$GNGSA,A,3,24,20,05,13,15,22,12,18,23,40,,,1.16,0.64,0.97*1E
$GNGSA,A,3,86,74,75,87,71,72,76,,,,,,1.16,0.64,0.97*14
$GPGSV,5,1,17,05,62,077,10,11,05,027,,12,52,017,24,13,16,136,16*79
$GPGSV,5,2,17,15,31,170,26,18,32,254,25,20,31,044,21,22,06,133,15*70
$GPGSV,5,3,17,23,18,207,18,24,50,205,38,25,28,342,20,29,09,321,*7A
$GPGSV,5,4,17,36,52,277,,40,86,350,34,41,58,082,,49,32,274,*7A
$GPGSV,5,5,17,50,10,089,*4A
$GLGSV,3,1,09,65,05,204,,71,17,100,13,72,25,152,21,74,23,151,12*6E
$GLGSV,3,2,09,75,76,128,21,76,38,341,13,86,17,352,08,87,27,305,15*64
$GLGSV,3,3,09,88,08,248,*5A
$GNGLL,0420.02923,S,05539.72149,E,054212.00,A,A*65
$GNGRS,054212.00,1,-0.2,6.7,-4.1,0.5,2.0,12.0,-6.6,-11.0,-6.1,132,,*66
$GNGRS,054212.00,1,3.9,2.3,-1.9,6.5,12.3,-15.6,-2.9,,,,,*5A
$GNGST,054212.00,119117,,,,7.6,8.6,17*60
$GNZDA,054212.00,23,05,2025,00,00*79
$GNGBS,054212.00,7.6,8.6,16.5,,,,*62
$GNTXT,01,01,01,More than 100 frame errors, UART RX was disabled*70
b0LXa>M
48 R,@&2VA{4"V^3:R 
Y
mAGdHcJKLsL
&U8V`W
1cXGbXarc@$GNRMC,054213.00,A,0420.02930,S,05539.72147,E,0.532,,230525,,,A*76
$GNVTG,,T,,M,0.532,N,0.986,K,A*3E
$GNGNS,054213.00,0420.02930,S,05539.72147,E,AA,16,0.69,8.7,-47.6,,*58
$GNGGA,054213.00,0420.02930,S,05539.72147,E,1,12,0.69,8.7,M,-47.6,M,,*76
$GNGSA,A,3,24,20,05,13,15,22,12,18,23,40,,,1.22,0.69,1.00*1B
$GNGSA,A,3,86,74,75,71,72,76,,,,,,,1.22,0.69,1.00*1E
$GPGSV,5,1,17,05,62,077,14,11,05,027,,12,52,017,24,13,16,136,16*7D
$GPGSV,5,2,17,15,31,170,26,18,32,254,25,20,31,044,20,22,06,133,13*77
$GPGSV,5,3,17,23,18,207,18,24,50,205,38,25,28,342,21,29,09,321,*7B
$GPGSV,5,4,17,36,52,277,,40,86,350,34,41,58,082,,49,32,274,*7A
$GPGSV,5,5,17,50,10,089,*4A
$GLGSV,3,1,09,65,05,204,,71,17,100,12,72,25,152,22,74,23,151,11*6F
$GLGSV,3,2,09,75,76,128,21,76,38,341,10,86,17,352,09,87,27,305,10*63
$GLGSV,3,3,09,88,08,248,*5A
$GNGLL,0420.02930,S,05539.72147,E,054213.00,A,A*68
$GNGRS,054213.00,1,-0.4,5.8,-15.1,1.6,0.6,7.4,-6.4,-9.4,-5.3,132,,*55
$GNGRS,054213.00,1,-94.6,-5.5,-4.0,14.4,-14.4,59.4,,,,,,*56
$GNGST,054213.00,1488,,,,7.5,8.5,16*6B
$GNZDA,054213.00,23,05,2025,00,00*78
$GNGBS,054213.00,7.5,8.5,16.3,,,,*65
$GNTXT,01,01,01,More than 100 frame errors, UART RX was disabled*70
b0L@e>Mi
4s ,&2VA{4"V^3:R 
Y
mAGd5HJ~KLTL&UV`jW1Xb@erc$GNRMC,054214.00,A,0420.02936,S,05539.72160,E,0.152,,230525,,,A*70
$GNVTG,,T,,M,0.152,N,0.281,K,A*30
$GNGNS,054214.00,0420.02936,S,05539.72160,E,AA,17,0.64,9.6,-47.6,,*50
$GNGGA,054214.00,0420.02936,S,05539.72160,E,1,12,0.64,9.6,M,-47.6,M,,*7F
$GNGSA,A,3,24,20,05,13,15,22,12,18,23,40,,,1.16,0.64,0.97*1E
$GNGSA,A,3,86,74,75,87,71,72,76,,,,,,1.16,0.64,0.97*14
$GPGSV,5,1,17,05,62,077,14,11,05,027,,12,52,017,23,13,16,136,16*7A
$GPGSV,5,2,17,15,31,170,26,18,32,254,25,20,31,044,20,22,06,133,14*70
$GPGSV,5,3,17,23,18,207,18,24,50,205,38,25,28,342,21,29,09,321,*7B
$GPGSV,5,4,17,36,52,277,,40,86,350,34,41,58,082,,49,32,274,*7A
$GPGSV,5,5,17,50,10,089,*4A
$GLGSV,3,1,09,65,05,204,,71,17,100,13,72,25,152,21,74,23,151,07*6A
$GLGSV,3,2,09,75,76,128,21,76,38,341,11,86,17,352,12,87,27,305,13*6B
$GLGSV,3,3,09,88,08,248,*5A
$GNGLL,0420.02936,S,05539.72160,E,054214.00,A,A*6C
$GNGRS,054214.00,1,-0.4,7.3,6.2,1.2,1.7,5.3,-5.0,-8.4,-5.0,132,,*43
$GNGRS,054214.00,1,3.6,1.3,-4.3,4.2,10.8,-12.8,-2.7,,,,,*54
$GNGST,054214.00,3967572,,,,7.4,8.4,16*52
$GNZDA,054214.00,23,05,2025,00,00*7F
$GNGBS,054214.00,7.4,8.4,16.2,,,,*63
$GNTXT,01,01,01,More than 100 frame errors, UART RX was disabled*70
b0L(i>M[
4*/ ,&2VA{4"V^3:R 
Y
mAGdHIJ
