$GNRMC,102756.00,A,0419.66478,S,05539.43206,E,0.887,237.53,220525,,,D*64
$GNVTG,237.53,T,,M,0.887,N,1.642,K,D*20
$GNGGA,102756.00,0419.66478,S,05539.43206,E,2,12,0.55,13.1,M,-47.6,M,,0000*4D
$GNGSA,A,3,29,10,32,26,23,25,18,24,28,16,31,41,1.08,0.55,0.93*13
$GNGSA,A,3,65,86,87,72,66,76,77,,,,,,1.08,0.55,0.93*19
$GPGSV,5,1,18,10,39,316,41,15,01,036,34,16,17,294,25,18,20,028,36*74
$GPGSV,5,2,18,23,23,003,38,24,09,088,25,25,22,158,36,26,30,266,30*7F
$GPGSV,5,3,18,27,01,328,32,28,22,199,37,29,53,112,37,31,09,223,27*73
$GPGSV,5,4,18,32,63,196,40,36,52,277,34,40,85,352,40,41,58,082,34*74
$GPGSV,5,5,18,49,32,274,,50,10,089,*78
$GLGSV,3,1,09,65,77,316,33,66,40,213,35,72,25,018,30,76,22,194,29*65
$GLGSV,3,2,09,77,20,243,24,85,02,125,23,86,24,074,19,87,22,026,31*6E
$GLGSV,3,3,09,,,,34*6B
$GNGLL,0419.66478,S,05539.43206,E,102756.00,A,D*66
$GNRMC,102757.00,A,0419.66491,S,05539.43184,E,0.924,237.75,220525,,,D*67
$GNVTG,237.75,T,,M,0.924,N,1.712,K,D*28
$GNGGA,102757.00,0419.66491,S,05539.43184,E,2,12,0.56,13.0,M,-47.6,M,,0000*40
$GNGSA,A,3,29,10,32,26,23,25,18,24,28,16,31,,1.15,0.56,1.01*13
$GNGSA,A,3,65,86,87,72,66,76,77,,,,,,1.15,0.56,1.01*1C
$GPGSV,5,1,18,10,39,316,37,15,01,036,28,16,17,294,23,18,20,028,29*70
$GPGSV,5,2,18,23,23,003,32,24,09,088,23,25,22,158,32,26,30,266,22*74
$GPGSV,5,3,18,27,01,328,25,28,22,199,30,29,53,112,27,31,09,223,25*71
$GPGSV,5,4,18,32,63,196,34,36,52,277,30,40,85,352,37,41,58,082,*74
$GPGSV,5,5,18,49,32,274,,50,10,089,*78
$GLGSV,3,1,09,65,77,316,27,66,40,213,27,72,25,018,25,76,22,194,27*69
$GLGSV,3,2,09,77,20,243,22,85,02,125,19,86,24,074,26,87,22,026,24*69
$GLGSV,3,3,09,,,,23*6D
$GNGLL,0419.66491,S,05539.43184,E,102757.00,A,D*69
$GNRMC,102758.00,A,0419.66509,S,05539.43168,E,0.908,228.17,220525,,,D*6E
$GNVTG,228.17,T,,M,0.908,N,1.682,K,D*24
$GNGGA,102758.00,0419.66509,S,05539.43168,E,2,12,0.56,13.0,M,-47.6,M,,0000*4D
$GNGSA,A,3,29,10,32,26,23,25,18,24,28,16,31,,1.15,0.56,1.01*13
$GNGSA,A,3,65,86,87,72,66,76,77,,,,,,1.15,0.56,1.01*1C
$GPGSV,5,1,18,10,39,316,38,15,01,036,26,16,17,294,24,18,20,028,29*76
$GPGSV,5,2,18,23,23,003,29,24,09,088,24,25,22,158,35,26,30,266,29*75
$GPGSV,5,3,18,27,01,328,24,28,22,199,34,29,53,112,32,31,09,223,24*71
$GPGSV,5,4,18,32,63,196,37,36,52,277,34,40,85,352,40,41,58,082,*73
$GPGSV,5,5,18,49,32,274,,50,10,089,*78
$GLGSV,3,1,09,65,77,316,30,66,40,213,29,72,25,018,26,76,22,194,24*61
$GLGSV,3,2,09,77,20,243,21,85,02,125,15,86,24,074,25,87,22,026,25*64
$GLGSV,3,3,09,,,,26*68
$GNGLL,0419.66509,S,05539.43168,E,102758.00,A,D*64
$GNRMC,102759.00,A,0419.66526,S,05539.43150,E,0.899,226.74,220525,,,D*6B
$GNVTG,226.74,T,,M,0.899,N,1.665,K,D*2F
$GNGGA,102759.00,0419.66526,S,05539.43150,E,2,12,0.56,12.9,M,-47.6,M,,0000*42
$GNGSA,A,3,29,10,32,26,23,25,18,24,28,16,31,41,1.15,0.56,1.01*16
$GNGSA,A,3,65,86,87,72,66,76,77,,,,,,1.15,0.56,1.01*1C
$GPGSV,5,1,18,10,39,316,42,15,01,036,25,16,17,294,26,18,20,028,35*77
$GPGSV,5,2,18,23,23,003,32,24,09,088,31,25,22,158,35,26,30,266,28*7A
$GPGSV,5,3,18,27,01,328,23,28,22,199,37,29,53,112,38,31,09,223,23*78
$GPGSV,5,4,18,32,63,196,39,36,52,277,36,40,85,352,41,41,58,082,34*79
$GPGSV,5,5,18,49,32,274,,50,10,089,*78
$GLGSV,3,1,09,65,77,316,35,66,40,213,40,72,25,018,28,76,22,194,27*66
$GLGSV,3,2,09,77,20,243,22,85,02,125,14,86,24,074,31,87,22,026,34*63
$GLGSV,3,3,09,,,,34*6B
$GNGLL,0419.66526,S,05539.43150,E,102759.00,A,D*63
$GNRMC,102800.00,A,0419.66542,S,05539.43133,E,0.840,225.33,220525,,,D*6B
$GNVTG,225.33,T,,M,0.840,N,1.555,K,D*2B
$GNGGA,102800.00,0419.66542,S,05539.43133,E,2,12,0.56,12.9,M,-47.6,M,,0000*46
$GNGSA,A,3,29,10,32,26,23,25,18,24,28,16,31,41,1.15,0.56,1.01*16
$GNGSA,A,3,65,86,87,72,66,76,77,,,,,,1.15,0.56,1.01*1C
$GPGSV,5,1,18,10,39,316,41,15,01,036,24,16,17,294,29,18,20,028,37*78
$GPGSV,5,2,18,23,23,003,34,24,09,088,34,25,22,158,36,26,30,266,29*7B
$GPGSV,5,3,18,27,01,328,23,28,22,199,37,29,53,112,36,31,09,223,24*71
$GPGSV,5,4,18,32,63,196,39,36,52,277,36,40,85,352,40,41,58,082,35*79
$GPGSV,5,5,18,49,32,274,,50,10,089,*78
$GLGSV,3,1,09,65,77,316,36,66,40,213,39,72,25,018,31,76,22,194,29*6D
$GLGSV,3,2,09,77,20,243,25,85,02,125,13,86,24,074,34,87,22,026,37*65
$GLGSV,3,3,09,,,,33*6C
$GNGLL,0419.66542,S,05539.43133,E,102800.00,A,D*67
$GNRMC,102801.00,A,0419.66548,S,05539.43121,E,0.361,,220525,,,D*70
$GNVTG,,T,,M,0.361,N,0.669,K,D*35
$GNGGA,102801.00,0419.66548,S,05539.43121,E,2,12,0.56,13.3,M,-47.6,M,,0000*45
$GNGSA,A,3,29,10,32,26,23,25,18,24,28,16,31,41,1.15,0.56,1.01*16
$GNGSA,A,3,65,86,87,72,66,76,77,,,,,,1.15,0.56,1.01*1C
$GPGSV,5,1,18,10,39,316,40,15,01,036,24,16,17,294,31,18,20,028,37*70
$GPGSV,5,2,18,23,23,003,35,24,09,088,33,25,22,158,36,26,30,266,31*74
$GPGSV,5,3,18,27,01,328,22,28,22,199,37,29,53,112,35,31,09,223,23*74
$GPGSV,5,4,18,32,63,196,41,36,52,277,36,40,85,352,41,41,58,082,35*77
$GPGSV,5,5,18,49,32,274,,50,10,089,*78
$GLGSV,3,1,09,65,77,316,38,66,40,213,38,72,25,018,31,76,22,194,30*6A
$GLGSV,3,2,09,77,20,243,24,85,02,125,12,86,24,074,35,87,22,026,35*66
$GLGSV,3,3,09,,,,33*6C
$GNGLL,0419.66548,S,05539.43121,E,102801.00,A,D*6F
$GNRMC,102802.00,A,0419.66547,S,05539.43115,E,0.247,,220525,,,D*7E
$GNVTG,,T,,M,0.247,N,0.457,K,D*3F
$GNGGA,102802.00,0419.66547,S,05539.43115,E,2,12,0.55,14.0,M,-47.6,M,,0000*49
$GNGSA,A,3,29,10,32,26,23,25,18,24,28,16,31,41,1.08,0.55,0.93*13
$GNGSA,A,3,65,86,87,72,66,76,77,,,,,,1.08,0.55,0.93*19
$GPGSV,5,1,18,10,39,316,40,15,01,036,24,16,17,294,30,18,20,028,35*73
$GPGSV,5,2,18,23,23,003,38,24,09,088,29,25,22,158,36,26,30,266,32*71
$GPGSV,5,3,18,27,01,328,23,28,22,199,38,29,53,112,36,31,09,223,22*78
$GPGSV,5,4,18,32,63,196,40,36,52,277,36,40,85,353,41,41,58,082,35*77
$GPGSV,5,5,18,49,32,274,,50,10,089,*78
$GLGSV,3,1,09,65,77,316,38,66,40,213,39,72,25,018,32,76,22,194,30*68
$GLGSV,3,2,09,77,20,243,26,85,02,125,12,86,24,074,31,87,22,026,36*63
$GLGSV,3,3,09,,,,35*6A
$GNGLL,0419.66547,S,05539.43115,E,102802.00,A,D*64
$GNRMC,102803.00,A,0419.66542,S,05539.43108,E,0.325,,220525,,,D*73
$GNVTG,,T,,M,0.325,N,0.602,K,D*38
$GNGGA,102803.00,0419.66542,S,05539.43108,E,2,12,0.55,14.1,M,-47.6,M,,0000*40
$GNGSA,A,3,29,10,32,26,23,25,18,24,28,16,31,41,1.08,0.55,0.93*13
$GNGSA,A,3,65,86,87,72,66,76,77,,,,,,1.08,0.55,0.93*19
$GPGSV,5,1,18,10,39,316,40,15,01,036,25,16,17,294,32,18,20,028,36*73
$GPGSV,5,2,18,23,23,003,34,24,09,088,30,25,22,158,36,26,30,266,31*76
$GPGSV,5,3,18,27,01,328,23,28,22,199,36,29,53,112,36,31,09,223,21*75
$GPGSV,5,4,18,32,63,196,41,36,52,277,38,40,85,353,41,41,58,082,35*78
$GPGSV,5,5,18,49,32,274,,50,10,089,*78
$GLGSV,3,1,09,65,77,316,32,66,40,213,39,72,25,018,28,76,22,194,29*61
$GLGSV,3,2,09,77,20,243,24,85,02,125,10,86,24,074,30,87,22,026,26*63
$GLGSV,3,3,09,,,,31*6E
$GNGLL,0419.66542,S,05539.43108,E,102803.00,A,D*6C
$GNRMC,102804.00,A,0419.66544,S,05539.43101,E,0.326,,220525,,,D*78
$GNVTG,,T,,M,0.326,N,0.604,K,D*3D
$GNGGA,102804.00,0419.66544,S,05539.43101,E,2,12,0.55,14.3,M,-47.6,M,,0000*4A
$GNGSA,A,3,29,10,32,26,23,25,18,24,28,16,31,41,1.08,0.55,0.93*13
$GNGSA,A,3,65,86,87,72,66,76,77,,,,,,1.08,0.55,0.93*19
$GPGSV,5,1,18,10,39,316,40,15,01,036,23,16,17,294,32,18,20,028,38*7B
$GPGSV,5,2,18,23,23,003,36,24,09,088,31,25,22,158,38,26,30,266,30*7A
$GPGSV,5,3,18,27,01,328,25,28,22,199,36,29,53,112,35,31,09,223,22*73
$GPGSV,5,4,18,32,63,196,41,36,52,277,36,40,85,353,42,41,58,082,35*75
$GPGSV,5,5,18,49,32,274,,50,10,089,*78
$GLGSV,3,1,09,65,77,316,35,66,40,213,39,72,25,018,32,76,22,194,31*64
$GLGSV,3,2,09,77,20,243,25,85,02,125,18,86,24,074,36,87,22,026,35*6E
$GLGSV,3,3,09,,,,37*68
$GNGLL,0419.66544,S,05539.43101,E,102804.00,A,D*64
$GNRMC,102805.00,A,0419.66551,S,05539.43087,E,0.619,236.47,220525,,,D*61
$GNVTG,236.47,T,,M,0.619,N,1.146,K,D*2E
$GNGGA,102805.00,0419.66551,S,05539.43087,E,2,12,0.55,14.1,M,-47.6,M,,0000*42
$GNGSA,A,3,29,10,32,26,23,25,18,24,28,16,31,41,1.08,0.55,0.93*13
$GNGSA,A,3,65,86,87,72,66,76,77,,,,,,1.08,0.55,0.93*19
$GPGSV,5,1,18,10,39,316,42,15,01,036,23,16,17,294,32,18,20,028,37*76
$GPGSV,5,2,18,23,23,003,37,24,09,088,26,25,22,158,38,26,30,266,30*7D
$GPGSV,5,3,18,27,01,328,28,28,22,199,34,29,53,112,40,31,09,223,25*79
$GPGSV,5,4,18,32,63,196,43,36,52,277,38,40,85,353,42,41,58,082,35*79
$GPGSV,5,5,18,49,32,274,,50,10,089,*78
$GLGSV,3,1,09,65,77,316,36,66,40,213,38,72,25,018,32,76,22,194,35*62
$GLGSV,3,2,09,77,20,243,24,85,02,125,17,86,24,074,27,87,22,026,32*67
$GLGSV,3,3,09,,,,32*6D
$GNGLL,0419.66551,S,05539.43087,E,102805.00,A,D*6E
$GNRMC,102806.00,A,0419.66559,S,05539.43065,E,0.878,243.38,220525,,,D*65
$GNVTG,243.38,T,,M,0.878,N,1.626,K,D*2C
$GNGGA,102806.00,0419.66559,S,05539.43065,E,2,12,0.55,14.1,M,-47.6,M,,0000*45
$GNGSA,A,3,29,10,32,26,23,25,18,24,28,16,31,41,1.08,0.55,0.93*13
$GNGSA,A,3,65,86,87,72,66,76,77,,,,,,1.08,0.55,0.93*19
$GPGSV,5,1,18,10,39,316,39,15,01,036,23,16,17,294,27,18,20,028,38*71
$GPGSV,5,2,18,23,23,003,37,24,09,088,32,25,22,158,35,26,30,266,30*75
$GPGSV,5,3,18,27,01,328,26,28,22,199,33,29,53,112,34,31,09,223,25*73
$GPGSV,5,4,18,32,63,196,40,36,52,277,38,40,85,353,41,41,58,082,34*78
$GPGSV,5,5,18,49,32,274,,50,10,089,*78
$GLGSV,3,1,09,65,77,316,36,66,40,213,37,72,25,018,31,76,22,194,35*6E
$GLGSV,3,2,09,77,20,243,21,85,02,125,,86,24,074,27,87,22,026,36*60
$GLGSV,3,3,09,,,,27*69
$GNGLL,0419.66559,S,05539.43065,E,102806.00,A,D*69
$GNRMC,102807.00,A,0419.66567,S,05539.43048,E,0.444,241.54,220525,,,D*6D
$GNVTG,241.54,T,,M,0.444,N,0.822,K,D*2C
$GNGGA,102807.00,0419.66567,S,05539.43048,E,2,12,0.55,14.3,M,-47.6,M,,0000*44
$GNGSA,A,3,29,10,32,26,23,25,18,24,28,16,31,41,1.08,0.55,0.93*13
$GNGSA,A,3,65,86,87,72,66,76,77,,,,,,1.08,0.55,0.93*19
$GPGSV,5,1,18,10,39,316,39,15,01,036,25,16,17,294,27,18,20,028,36*79
$GPGSV,5,2,18,23,23,003,37,24,09,088,33,25,22,158,35,26,30,266,30*74
$GPGSV,5,3,18,27,01,328,26,28,22,199,33,29,53,112,33,31,09,223,22*73
$GPGSV,5,4,18,32,63,196,40,36,52,277,37,40,85,353,41,41,58,082,34*77
$GPGSV,5,5,18,49,32,274,,50,10,089,*78
$GLGSV,3,1,09,65,77,316,36,66,40,213,37,72,25,018,33,76,22,194,34*6D
$GLGSV,3,2,09,77,20,243,19,85,02,125,,86,24,074,36,87,22,026,33*6E
$GLGSV,3,3,09,,,,33*6C
$GNGLL,0419.66567,S,05539.43048,E,102807.00,A,D*6A
$GNRMC,102808.00,A,0419.66567,S,05539.43036,E,0.474,264.22,220525,,,D*6E
$GNVTG,264.22,T,,M,0.474,N,0.877,K,D*29
$GNGGA,102808.00,0419.66567,S,05539.43036,E,2,12,0.55,14.4,M,-47.6,M,,0000*45
$GNGSA,A,3,29,10,32,26,23,25,18,24,28,16,31,41,1.08,0.55,0.93*13
$GNGSA,A,3,65,86,87,72,66,76,77,,,,,,1.08,0.55,0.93*19
$GPGSV,5,1,18,10,39,316,40,15,01,036,25,16,17,294,27,18,20,028,34*75
$GPGSV,5,2,18,23,23,003,37,24,09,088,27,25,22,158,34,26,30,266,28*79
$GPGSV,5,3,18,27,01,328,26,28,22,199,34,29,53,112,37,31,09,223,23*71
$GPGSV,5,4,18,32,63,196,39,36,52,277,35,40,85,353,40,41,58,082,33*7D
$GPGSV,5,5,18,49,32,274,,50,10,089,*78
$GLGSV,3,1,09,65,77,316,36,66,40,213,37,72,25,018,33,76,22,194,34*6D
$GLGSV,3,2,09,77,20,243,17,85,02,125,,86,24,074,32,87,22,026,30*67
$GLGSV,3,3,09,,,,27*69
$GNGLL,0419.66567,S,05539.43036,E,102808.00,A,D*6C
$GNRMC,102809.00,A,0419.66562,S,05539.43023,E,0.447,280.67,220525,,,D*65
$GNVTG,280.67,T,,M,0.447,N,0.828,K,D*28
$GNGGA,102809.00,0419.66562,S,05539.43023,E,2,12,0.55,14.4,M,-47.6,M,,0000*45
$GNGSA,A,3,29,10,32,26,23,25,18,24,28,16,31,41,1.08,0.55,0.93*13
$GNGSA,A,3,65,86,87,72,66,76,77,,,,,,1.08,0.55,0.93*19
$GPGSV,5,1,18,10,39,316,39,15,01,036,26,16,17,294,27,18,20,028,35*79
$GPGSV,5,2,18,23,23,003,34,24,09,088,30,25,22,158,33,26,30,266,27*74
$GPGSV,5,3,18,27,01,328,27,28,22,199,36,29,53,112,33,31,09,223,21*74
$GPGSV,5,4,18,32,63,196,41,36,52,277,37,40,85,353,40,41,58,082,33*70
$GPGSV,5,5,18,49,32,274,,50,10,089,*78
$GLGSV,3,1,09,65,77,316,34,66,40,213,38,72,25,018,32,76,22,194,34*61
$GLGSV,3,2,09,77,20,243,18,85,02,125,,86,24,074,32,87,22,026,33*6B
$GLGSV,3,3,09,,,,33*6C
$GNGLL,0419.66562,S,05539.43023,E,102809.00,A,D*6C
$GNRMC,102810.00,A,0419.66557,S,05539.43014,E,0.275,,220525,,,D*7D
$GNVTG,,T,,M,0.275,N,0.508,K,D*35
$GNGGA,102810.00,0419.66557,S,05539.43014,E,2,12,0.55,14.4,M,-47.6,M,,0000*4F
$GNGSA,A,3,29,10,32,26,23,25,18,24,28,16,31,41,1.08,0.55,0.93*13
$GNGSA,A,3,65,86,87,72,66,76,77,,,,,,1.08,0.55,0.93*19
$GPGSV,5,1,18,10,39,316,40,15,01,036,26,16,17,294,28,18,20,028,35*78
$GPGSV,5,2,18,23,23,003,35,24,09,088,30,25,22,158,35,26,30,266,26*72
$GPGSV,5,3,18,27,01,328,27,28,22,199,32,29,53,112,35,31,09,223,22*75
$GPGSV,5,4,18,32,63,196,40,36,52,277,36,40,85,353,41,41,58,082,33*71
$GPGSV,5,5,18,49,32,274,,50,10,089,*78
$GLGSV,3,1,09,65,77,316,34,66,40,213,38,72,25,018,30,76,22,194,35*62
$GLGSV,3,2,09,77,20,243,18,85,02,125,,86,24,074,31,87,22,026,35*6E
$GLGSV,3,3,09,,,,33*6C
$GNGLL,0419.66557,S,05539.43014,E,102810.00,A,D*66
$GNRMC,102811.00,A,0419.66557,S,05539.43001,E,0.506,269.94,220525,,,D*65
$GNVTG,269.94,T,,M,0.506,N,0.937,K,D*28
$GNGGA,102811.00,0419.66557,S,05539.43001,E,2,12,0.55,14.5,M,-47.6,M,,0000*4B
$GNGSA,A,3,29,10,32,26,23,25,18,24,28,16,31,41,1.08,0.55,0.93*13
$GNGSA,A,3,65,86,87,72,66,76,77,,,,,,1.08,0.55,0.93*19
$GPGSV,5,1,18,10,39,316,37,15,01,036,32,16,17,294,28,18,20,028,34*7C
$GPGSV,5,2,18,23,23,003,36,24,09,088,30,25,22,158,34,26,30,266,27*71
$GPGSV,5,3,18,27,01,328,27,28,22,199,32,29,53,112,35,31,09,223,21*76
$GPGSV,5,4,18,32,63,196,40,36,52,277,37,40,85,353,40,41,58,082,32*70
$GPGSV,5,5,18,49,32,274,,50,10,089,*78
$GLGSV,3,1,09,65,77,316,36,66,40,213,38,72,25,018,31,76,22,194,34*60
$GLGSV,3,2,09,77,20,243,19,85,02,125,,86,24,074,22,87,22,026,32*6A
$GLGSV,3,3,09,,,,29*67
$GNGLL,0419.66557,S,05539.43001,E,102811.00,A,D*63
$GNRMC,102812.00,A,0419.66561,S,05539.42986,E,0.485,261.61,220525,,,D*6C
$GNVTG,261.61,T,,M,0.485,N,0.899,K,D*25
$GNGGA,102812.00,0419.66561,S,05539.42986,E,2,12,0.55,14.5,M,-47.6,M,,0000*4A
$GNGSA,A,3,29,10,32,26,23,25,18,24,28,16,31,41,1.08,0.55,0.93*13
$GNGSA,A,3,65,86,87,72,66,76,77,,,,,,1.08,0.55,0.93*19
$GPGSV,5,1,18,10,39,316,37,15,01,036,32,16,17,294,28,18,20,028,35*7D
$GPGSV,5,2,18,23,23,003,37,24,09,088,32,25,22,158,33,26,30,266,28*7A
$GPGSV,5,3,18,27,01,328,27,28,22,199,34,29,53,112,35,31,09,223,20*71
$GPGSV,5,4,18,32,63,196,40,36,52,277,37,40,85,353,41,41,58,082,33*70
$GPGSV,5,5,18,49,32,274,,50,10,089,*78
$GLGSV,3,1,09,65,77,316,36,66,40,213,38,72,25,018,32,76,22,194,34*63
$GLGSV,3,2,09,77,20,243,19,85,02,125,,86,24,074,29,87,22,026,33*60
$GLGSV,3,3,09,,,,28*66
$GNGLL,0419.66561,S,05539.42986,E,102812.00,A,D*62
$GNRMC,102813.00,A,0419.66567,S,05539.42976,E,0.366,,220525,,,D*72
$GNVTG,,T,,M,0.366,N,0.678,K,D*32
$GNGGA,102813.00,0419.66567,S,05539.42976,E,2,12,0.55,14.5,M,-47.6,M,,0000*42
$GNGSA,A,3,29,10,32,26,23,25,18,24,28,16,31,41,1.08,0.55,0.93*13
$GNGSA,A,3,65,86,87,72,66,76,77,,,,,,1.08,0.55,0.93*19
$GPGSV,5,1,18,10,39,316,40,15,01,036,33,16,17,294,28,18,20,028,37*7E
$GPGSV,5,2,18,23,23,003,37,24,09,088,31,25,22,158,37,26,30,266,29*7C
$GPGSV,5,3,18,27,01,328,26,28,22,199,34,29,53,112,35,31,09,223,29*79
$GPGSV,5,4,18,32,63,196,42,36,52,277,38,40,85,353,41,41,58,082,34*7A
$GPGSV,5,5,18,49,32,274,,50,10,089,*78
$GLGSV,3,1,09,65,77,316,36,66,40,213,37,72,25,018,33,76,22,194,32*6B
$GLGSV,3,2,09,77,20,243,17,85,02,125,,86,24,074,34,87,22,026,33*62
$GLGSV,3,3,09,,,,29*67
$GNGLL,0419.66567,S,05539.42976,E,102813.00,A,D*6A
$GNRMC,102814.00,A,0419.66574,S,05539.42968,E,0.307,,220525,,,D*7F
$GNVTG,,T,,M,0.307,N,0.568,K,D*37
$GNGGA,102814.00,0419.66574,S,05539.42968,E,2,12,0.55,14.7,M,-47.6,M,,0000*4A
$GNGSA,A,3,29,10,32,26,23,25,18,24,28,16,31,41,1.08,0.55,0.93*13
$GNGSA,A,3,65,86,87,72,66,76,77,,,,,,1.08,0.55,0.93*19
$GPGSV,5,1,18,10,39,316,41,15,01,036,35,16,17,294,26,18,20,028,37*77
$GPGSV,5,2,18,23,23,003,39,24,09,088,32,25,22,158,36,26,30,266,29*70
$GPGSV,5,3,18,27,01,328,26,28,22,199,34,29,53,112,39,31,09,223,29*75
$GPGSV,5,4,18,32,63,196,40,36,52,277,37,40,85,353,42,41,58,082,33*73
$GPGSV,5,5,18,49,32,274,,50,10,089,*78
$GLGSV,3,1,09,65,77,316,36,66,40,213,35,72,25,018,35,76,22,194,32*6F
$GLGSV,3,2,09,77,20,243,15,85,02,125,,86,24,074,29,87,22,026,33*6C
$GLGSV,3,3,09,,,,34*6B
$GNGLL,0419.66574,S,05539.42968,E,102814.00,A,D*60
$GNRMC,102815.00,A,0419.66570,S,05539.42962,E,0.319,,220525,,,D*7F
$GNVTG,,T,,M,0.319,N,0.591,K,D*3E
$GNGGA,102815.00,0419.66570,S,05539.42962,E,2,12,0.55,14.6,M,-47.6,M,,0000*44
$GNGSA,A,3,29,10,32,26,23,25,18,24,28,16,31,41,1.08,0.55,0.93*13
$GNGSA,A,3,65,86,87,72,66,76,77,,,,,,1.08,0.55,0.93*19
$GPGSV,5,1,18,10,39,316,39,15,01,036,37,16,17,294,28,18,20,028,35*76
$GPGSV,5,2,18,23,23,003,38,24,09,088,32,25,22,158,35,26,30,266,28*73
$GPGSV,5,3,18,27,01,328,32,28,22,199,35,29,53,112,36,31,09,223,21*76
$GPGSV,5,4,18,32,63,196,40,36,52,277,37,40,85,353,41,41,58,082,35*76
$GPGSV,5,5,18,49,32,274,,50,10,089,*78
$GLGSV,3,1,09,65,77,316,36,66,40,213,34,72,25,018,35,76,22,194,32*6E
$GLGSV,3,2,09,77,20,243,14,85,02,125,,86,24,074,33,87,22,026,34*61
$GLGSV,3,3,09,,,,34*6B
$GNGLL,0419.66570,S,05539.42962,E,102815.00,A,D*6F
$GNRMC,102816.00,A,0419.66562,S,05539.42963,E,0.155,,220525,,,D*74
$GNVTG,,T,,M,0.155,N,0.287,K,D*34
$GNGGA,102816.00,0419.66562,S,05539.42963,E,2,12,0.56,14.6,M,-47.6,M,,0000*46
$GNGSA,A,3,29,10,32,26,23,25,18,24,28,16,31,41,1.15,0.56,1.01*16
$GNGSA,A,3,65,86,87,72,66,76,77,,,,,,1.15,0.56,1.01*1C
$GPGSV,5,1,18,10,39,316,41,15,01,036,34,16,17,294,27,18,20,028,39*79
$GPGSV,5,2,18,23,23,003,38,24,09,088,33,25,22,158,34,26,30,266,32*78
$GPGSV,5,3,18,27,01,328,28,28,22,199,40,29,53,112,36,31,09,223,33*7C
$GPGSV,5,4,18,32,63,196,41,36,52,277,39,40,85,353,44,41,58,082,33*7A
$GPGSV,5,5,18,49,32,274,,50,10,089,*78
$GLGSV,3,1,09,65,77,316,36,66,40,213,36,72,25,018,32,76,22,194,33*6A
$GLGSV,3,2,09,77,20,243,15,85,02,125,,86,24,074,26,87,22,026,33*63
$GLGSV,3,3,09,,,,31*6E
$GNGLL,0419.66562,S,05539.42963,E,102816.00,A,D*6E
$GNRMC,102817.00,A,0419.66565,S,05539.42957,E,0.311,,220525,,,D*77
$GNVTG,,T,,M,0.311,N,0.576,K,D*3F
$GNGGA,102817.00,0419.66565,S,05539.42957,E,2,12,0.56,14.4,M,-47.6,M,,0000*45
$GNGSA,A,3,29,10,32,26,23,25,18,24,28,16,31,41,1.15,0.56,1.01*16
$GNGSA,A,3,65,86,87,72,66,76,77,,,,,,1.15,0.56,1.01*1C
$GPGSV,5,1,18,10,39,316,41,15,01,036,30,16,17,294,27,18,20,028,38*7C
$GPGSV,5,2,18,23,23,003,40,24,09,088,32,25,22,158,31,26,30,266,25*75
$GPGSV,5,3,18,27,01,328,28,28,22,199,33,29,53,112,38,31,09,223,27*73
$GPGSV,5,4,18,32,63,196,40,36,52,277,37,40,85,353,42,41,58,082,33*73
$GPGSV,5,5,18,49,32,274,,50,10,089,*78
$GLGSV,3,1,09,65,77,316,35,66,40,213,36,72,25,018,32,76,22,194,33*69
$GLGSV,3,2,09,77,20,243,15,85,02,125,,86,24,074,26,87,22,026,32*62
$GLGSV,3,3,09,,,,31*6E
$GNGLL,0419.66565,S,05539.42957,E,102817.00,A,D*6F
$GNRMC,102818.00,A,0419.66567,S,05539.42942,E,0.570,261.84,220525,,,D*68
$GNVTG,261.84,T,,M,0.570,N,1.056,K,D*2F
$GNGGA,102818.00,0419.66567,S,05539.42942,E,2,12,0.55,14.3,M,-47.6,M,,0000*48
$GNGSA,A,3,29,10,32,26,23,25,18,24,28,16,31,41,1.08,0.55,0.93*13
$GNGSA,A,3,65,86,87,72,66,76,77,,,,,,1.08,0.55,0.93*19
$GPGSV,5,1,18,10,39,316,40,15,01,036,29,16,17,294,27,18,20,028,36*7B
$GPGSV,5,2,18,23,23,003,37,24,09,088,30,25,22,158,34,26,30,266,26*71
$GPGSV,5,3,18,27,01,328,30,28,22,199,33,29,53,112,37,31,09,223,27*75
$GPGSV,5,4,18,32,63,196,42,36,52,277,37,40,85,353,43,41,58,082,33*70
$GPGSV,5,5,18,49,32,274,,50,10,089,*78
$GLGSV,3,1,09,65,77,316,35,66,40,213,36,72,25,018,33,76,22,194,33*68
$GLGSV,3,2,09,77,20,243,15,85,02,125,,86,24,074,24,87,22,026,32*60
$GLGSV,3,3,09,,,,31*6E
$GNGLL,0419.66567,S,05539.42942,E,102818.00,A,D*66
$GNRMC,102819.00,A,0419.66564,S,05539.42931,E,0.321,,220525,,,D*7B
$GNVTG,,T,,M,0.321,N,0.594,K,D*30
$GNGGA,102819.00,0419.66564,S,05539.42931,E,2,12,0.55,14.4,M,-47.6,M,,0000*49
$GNGSA,A,3,29,10,32,26,23,25,18,24,28,16,31,41,1.08,0.55,0.93*13
$GNGSA,A,3,65,86,87,72,66,76,77,,,,,,1.08,0.55,0.93*19
$GPGSV,5,1,18,10,39,316,39,15,01,036,31,16,17,294,28,18,20,028,38*7D
$GPGSV,5,2,18,23,23,003,37,24,09,088,33,25,22,158,33,26,30,266,28*7B
$GPGSV,5,3,18,27,01,328,29,28,22,199,33,29,53,112,34,31,09,223,26*7F
$GPGSV,5,4,18,32,63,196,41,36,52,277,38,40,85,353,40,41,58,082,36*7A
$GPGSV,5,5,18,49,32,274,,50,10,089,*78
$GLGSV,3,1,09,65,77,316,35,66,40,213,37,72,25,018,33,76,22,194,32*68
$GLGSV,3,2,09,77,20,243,16,85,02,125,,86,24,074,34,87,22,026,35*65
$GLGSV,3,3,09,,,,33*6C
$GNGLL,0419.66564,S,05539.42931,E,102819.00,A,D*60
$GNRMC,102820.00,A,0419.66560,S,05539.42921,E,0.331,,220525,,,D*75
$GNVTG,,T,,M,0.331,N,0.614,K,D*3A
$GNGGA,102820.00,0419.66560,S,05539.42921,E,2,12,0.56,14.5,M,-47.6,M,,0000*44
$GNGSA,A,3,29,10,32,26,23,25,18,24,28,16,31,41,1.15,0.56,1.01*16
$GNGSA,A,3,65,86,87,72,66,76,77,,,,,,1.15,0.56,1.01*1C
$GPGSV,5,1,18,10,39,316,41,15,01,036,26,16,17,294,29,18,20,028,36*7B
$GPGSV,5,2,18,23,23,003,37,24,09,088,29,25,22,158,33,26,30,266,30*79
$GPGSV,5,3,18,27,01,328,30,28,22,199,33,29,53,112,39,31,09,223,28*74
$GPGSV,5,4,18,32,63,196,41,36,52,277,37,40,85,353,42,41,58,082,36*77
$GPGSV,5,5,18,49,32,274,,50,10,089,*78
$GLGSV,3,1,09,65,76,318,35,66,40,213,39,72,25,018,34,76,22,194,31*6D
$GLGSV,3,2,09,77,20,243,16,85,02,125,,86,24,074,29,87,22,026,32*6E
$GLGSV,3,3,09,,,,29*67
$GNGLL,0419.66560,S,05539.42921,E,102820.00,A,D*6F
$GNRMC,102821.00,A,0419.66560,S,05539.42913,E,0.223,,220525,,,D*77
$GNVTG,,T,,M,0.223,N,0.413,K,D*3D
$GNGGA,102821.00,0419.66560,S,05539.42913,E,2,12,0.55,14.3,M,-47.6,M,,0000*41
$GNGSA,A,3,29,10,32,26,23,25,18,24,28,16,31,41,1.08,0.55,0.93*13
$GNGSA,A,3,65,86,87,72,66,76,77,,,,,,1.08,0.55,0.93*19
$GPGSV,5,1,18,10,39,316,40,15,01,036,28,16,17,294,28,18,20,028,36*75
$GPGSV,5,2,18,23,23,003,35,24,09,088,29,25,22,158,31,26,30,266,30*79
$GPGSV,5,3,18,27,01,328,30,28,22,199,35,29,53,112,38,31,09,223,26*7D
$GPGSV,5,4,18,32,63,196,40,36,52,277,37,40,85,353,41,41,58,082,34*77
$GPGSV,5,5,18,49,32,274,,50,10,089,*78
$GLGSV,3,1,09,65,76,318,35,66,40,214,36,72,25,018,33,76,22,194,32*61
$GLGSV,3,2,09,77,20,243,17,85,02,125,,86,24,074,30,87,22,026,34*61
$GLGSV,3,3,09,,,,29*67
$GNGLL,0419.66560,S,05539.42913,E,102821.00,A,D*6F
$GNRMC,102822.00,A,0419.66560,S,05539.42903,E,0.501,262.86,220525,,,D*64
$GNVTG,262.86,T,,M,0.501,N,0.928,K,D*29
$GNGGA,102822.00,0419.66560,S,05539.42903,E,2,12,0.55,14.4,M,-47.6,M,,0000*44
$GNGSA,A,3,29,10,32,26,23,25,18,24,28,16,31,41,1.08,0.55,0.93*13
$GNGSA,A,3,65,86,87,72,66,76,77,,,,,,1.08,0.55,0.93*19
$GPGSV,5,1,18,10,39,316,41,15,01,036,27,16,17,294,30,18,20,028,36*72
$GPGSV,5,2,18,23,23,003,38,24,09,088,23,25,22,158,34,26,30,266,28*72
$GPGSV,5,3,18,27,01,328,32,28,22,199,36,29,53,112,38,31,09,223,24*7E
$GPGSV,5,4,18,32,63,196,41,36,52,277,38,40,85,353,42,41,58,082,36*78
$GPGSV,5,5,18,49,32,274,,50,10,089,*78
$GLGSV,3,1,09,65,76,318,34,66,40,214,38,72,25,018,32,76,22,194,33*6E
$GLGSV,3,2,09,77,20,243,18,85,02,125,,86,24,074,21,87,22,026,33*69
$GLGSV,3,3,09,,,,29*67
$GNGLL,0419.66560,S,05539.42903,E,102822.00,A,D*6D
$GNRMC,102823.00,A,0419.66552,S,05539.42890,E,0.571,288.35,220525,,,D*64
$GNVTG,288.35,T,,M,0.571,N,1.058,K,D*2D
$GNGGA,102823.00,0419.66552,S,05539.42890,E,2,12,0.55,14.5,M,-47.6,M,,0000*4E
$GNGSA,A,3,29,10,32,26,23,25,18,24,28,16,31,41,1.08,0.55,0.93*13
$GNGSA,A,3,65,86,87,72,66,76,77,,,,,,1.08,0.55,0.93*19
$GPGSV,5,1,18,10,39,316,38,15,01,036,26,16,17,294,30,18,20,028,38*73
$GPGSV,5,2,18,23,23,003,36,24,09,088,31,25,22,158,31,26,30,266,28*7A
$GPGSV,5,3,18,27,01,328,31,28,22,199,36,29,53,112,35,31,09,223,23*77
$GPGSV,5,4,18,32,63,196,39,36,52,277,37,40,85,353,41,41,58,082,35*78
$GPGSV,5,5,18,49,32,274,,50,10,089,*78
$GLGSV,3,1,09,65,76,318,35,66,40,214,38,72,25,018,31,76,22,194,33*6C
$GLGSV,3,2,09,77,20,243,18,85,02,125,,86,24,074,32,87,22,026,32*6A
$GLGSV,3,3,09,,,,30*6F
$GNGLL,0419.66552,S,05539.42890,E,102823.00,A,D*66
$GNRMC,102824.00,A,0419.66542,S,05539.42880,E,0.459,297.53,220525,,,D*66
$GNVTG,297.53,T,,M,0.459,N,0.850,K,D*29
$GNGGA,102824.00,0419.66542,S,05539.42880,E,2,12,0.55,14.4,M,-47.6,M,,0000*48
$GNGSA,A,3,29,10,32,26,23,25,18,24,28,16,31,41,1.08,0.55,0.93*13
$GNGSA,A,3,65,86,87,72,66,76,77,,,,,,1.08,0.55,0.93*19
$GPGSV,5,1,18,10,39,316,41,15,01,036,27,16,17,294,32,18,20,028,34*72
$GPGSV,5,2,18,23,23,003,34,24,09,088,30,25,22,158,33,26,30,266,28*7B
$GPGSV,5,3,18,27,01,328,30,28,22,199,35,29,53,112,32,31,09,223,30*70
$GPGSV,5,4,18,32,63,196,41,36,52,277,38,40,85,353,42,41,58,082,33*7D
$GPGSV,5,5,18,49,32,274,,50,10,089,*78
$GLGSV,3,1,09,65,76,318,35,66,40,214,37,72,25,018,31,76,22,194,27*66
$GLGSV,3,2,09,77,20,243,19,85,02,125,,86,24,074,26,87,22,026,28*65
$GLGSV,3,3,09,,,,28*66
$GNGLL,0419.66542,S,05539.42880,E,102824.00,A,D*61
$GNRMC,102825.00,A,0419.66532,S,05539.42874,E,0.325,,220525,,,D*73
$GNVTG,,T,,M,0.325,N,0.601,K,D*3B
$GNGGA,102825.00,0419.66532,S,05539.42874,E,2,12,0.55,14.4,M,-47.6,M,,0000*45
$GNGSA,A,3,29,10,32,26,23,25,18,24,28,16,31,41,1.08,0.55,0.93*13
$GNGSA,A,3,65,86,87,72,66,76,77,,,,,,1.08,0.55,0.93*19
$GPGSV,5,1,18,10,39,316,39,15,01,036,31,16,17,294,29,18,20,028,38*7C
$GPGSV,5,2,18,23,23,003,37,24,09,088,32,25,22,158,31,26,30,266,28*78
$GPGSV,5,3,18,27,01,328,27,28,22,199,37,29,53,112,36,31,09,223,21*70
$GPGSV,5,4,18,32,63,196,41,36,52,277,36,40,85,353,41,41,58,082,34*77
$GPGSV,5,5,18,49,32,274,,50,10,089,*78
$GLGSV,3,1,09,65,76,318,35,66,40,214,36,72,25,018,25,76,22,194,36*62
$GLGSV,3,2,09,77,20,243,18,85,02,125,,86,24,074,31,87,22,026,35*6E
$GLGSV,3,3,09,,,,36*69
$GNGLL,0419.66532,S,05539.42874,E,102825.00,A,D*6C
$GNRMC,102826.00,A,0419.66527,S,05539.42873,E,0.206,,220525,,,D*73
$GNVTG,,T,,M,0.206,N,0.382,K,D*35
$GNGGA,102826.00,0419.66527,S,05539.42873,E,2,12,0.55,14.4,M,-47.6,M,,0000*45
$GNGSA,A,3,29,10,32,26,23,25,18,24,28,16,31,41,1.08,0.55,0.93*13
$GNGSA,A,3,65,86,87,72,66,76,77,,,,,,1.08,0.55,0.93*19
$GPGSV,5,1,18,10,39,316,43,15,01,036,25,16,17,294,30,18,20,028,34*70
$GPGSV,5,2,18,23,23,003,38,24,09,088,17,25,22,158,35,26,30,266,29*75
$GPGSV,5,3,18,27,01,328,27,28,22,199,34,29,53,112,39,31,09,223,33*7F
$GPGSV,5,4,18,32,63,196,44,36,52,277,40,40,85,353,43,41,58,082,33*76
$GPGSV,5,5,18,49,32,274,,50,10,089,*78
$GLGSV,3,1,09,65,76,318,36,66,40,214,34,72,25,018,31,76,22,194,33*63
$GLGSV,3,2,09,77,20,243,16,85,02,125,,86,24,074,26,87,22,026,28*6A
$GLGSV,3,3,09,,,,30*6F
$GNGLL,0419.66527,S,05539.42873,E,102826.00,A,D*6C
$GNRMC,102827.00,A,0419.66517,S,05539.42869,E,0.454,,220525,,,D*7B
$GNVTG,,T,,M,0.454,N,0.840,K,D*31
$GNGGA,102827.00,0419.66517,S,05539.42869,E,2,12,0.55,14.3,M,-47.6,M,,0000*4B
$GNGSA,A,3,29,10,32,26,23,25,18,24,28,16,31,41,1.08,0.55,0.93*13
$GNGSA,A,3,65,86,87,72,66,76,77,,,,,,1.08,0.55,0.93*19
$GPGSV,5,1,18,10,39,316,39,15,01,036,27,16,17,294,27,18,20,028,33*7E
$GPGSV,5,2,18,23,23,003,37,24,09,088,33,25,22,158,32,26,30,266,30*73
$GPGSV,5,3,18,27,01,328,27,28,22,199,38,29,53,112,31,31,09,223,13*79
$GPGSV,5,4,18,32,63,196,41,36,52,277,36,40,85,353,40,41,58,082,33*71
$GPGSV,5,5,18,49,32,274,,50,10,089,*78
$GLGSV,3,1,09,65,76,318,33,66,40,214,33,72,25,018,26,76,22,194,34*60
$GLGSV,3,2,09,77,20,243,15,85,02,125,,86,24,074,27,87,22,026,32*63
$GLGSV,3,3,09,,,,31*6E
$GNGLL,0419.66517,S,05539.42869,E,102827.00,A,D*65
$GNRMC,102828.00,A,0419.66510,S,05539.42858,E,0.412,300.68,220525,,,D*60
$GNVTG,300.68,T,,M,0.412,N,0.762,K,D*2F
$GNGGA,102828.00,0419.66510,S,05539.42858,E,2,12,0.55,14.1,M,-47.6,M,,0000*43
$GNGSA,A,3,29,10,32,26,23,25,18,24,28,16,31,41,1.08,0.55,0.93*13
$GNGSA,A,3,65,86,87,72,66,76,77,,,,,,1.08,0.55,0.93*19
$GPGSV,5,1,18,10,39,316,38,15,01,036,27,16,17,294,26,18,20,028,27*7B
$GPGSV,5,2,18,23,23,003,39,24,09,088,28,25,22,158,28,26,30,266,29*74
$GPGSV,5,3,18,27,01,328,27,28,22,199,38,29,53,112,34,31,09,223,20*7C
$GPGSV,5,4,18,32,63,196,38,36,52,277,36,40,85,353,40,41,58,082,35*79
$GPGSV,5,5,18,49,32,274,,50,10,089,*78
$GLGSV,3,1,09,65,76,318,36,66,40,214,32,72,25,018,32,76,22,194,34*61
$GLGSV,3,2,09,77,20,243,14,85,02,125,,86,24,074,34,87,22,026,32*60
$GLGSV,3,3,09,,,,32*6D
$GNGLL,0419.66510,S,05539.42858,E,102828.00,A,D*6F
$GNRMC,102829.00,A,0419.66510,S,05539.42847,E,0.464,277.59,220525,,,D*6D
$GNVTG,277.59,T,,M,0.464,N,0.860,K,D*20
$GNGGA,102829.00,0419.66510,S,05539.42847,E,2,12,0.55,14.0,M,-47.6,M,,0000*4D
$GNGSA,A,3,29,10,32,26,23,25,18,24,28,16,31,41,1.08,0.55,0.93*13
$GNGSA,A,3,65,86,87,72,66,76,77,,,,,,1.08,0.55,0.93*19
$GPGSV,5,1,18,10,39,316,39,15,01,036,28,16,17,294,25,18,20,028,35*75
$GPGSV,5,2,18,23,23,003,38,24,09,088,32,25,22,158,31,26,30,266,28*77
$GPGSV,5,3,18,27,01,328,26,28,22,199,36,29,53,112,35,31,09,223,22*70
$GPGSV,5,4,18,32,63,196,40,36,52,277,36,40,85,353,41,41,58,082,32*70
$GPGSV,5,5,18,49,32,274,,50,10,089,*78
$GLGSV,3,1,09,65,76,318,35,66,40,214,31,72,25,018,30,76,22,194,34*63
$GLGSV,3,2,09,77,20,243,16,85,02,125,,86,24,074,26,87,22,026,30*63
$GLGSV,3,3,09,,,,29*67
$GNGLL,0419.66510,S,05539.42847,E,102829.00,A,D*60
$GNRMC,102830.00,A,0419.66515,S,05539.42833,E,0.546,263.39,220525,,,D*61
$GNVTG,263.39,T,,M,0.546,N,1.011,K,D*2D
$GNGGA,102830.00,0419.66515,S,05539.42833,E,2,12,0.55,14.0,M,-47.6,M,,0000*43
$GNGSA,A,3,29,10,32,26,23,25,18,24,28,16,31,41,1.08,0.55,0.93*13
$GNGSA,A,3,65,86,87,72,66,76,77,,,,,,1.08,0.55,0.93*19
$GPGSV,5,1,18,10,39,316,41,15,01,036,11,16,17,294,25,18,20,028,35*70
$GPGSV,5,2,18,23,23,003,33,24,09,088,27,25,22,158,36,26,30,266,27*70
$GPGSV,5,3,18,27,01,328,26,28,22,199,32,29,53,112,26,31,09,223,30*75
$GPGSV,5,4,18,32,63,196,36,36,52,277,37,40,85,353,39,41,58,082,29*75
$GPGSV,5,5,18,49,32,274,,50,10,089,*78
$GLGSV,3,1,09,65,76,318,35,66,40,214,32,72,25,018,29,76,22,194,33*6F
$GLGSV,3,2,09,77,20,243,15,85,02,125,,86,24,074,30,87,22,026,29*6F
$GLGSV,3,3,09,,,,29*67
$GNGLL,0419.66515,S,05539.42833,E,102830.00,A,D*6E
$GNRMC,102831.00,A,0419.66515,S,05539.42817,E,0.397,265.39,220525,,,D*6A
$GNVTG,265.39,T,,M,0.397,N,0.734,K,D*20
$GNGGA,102831.00,0419.66515,S,05539.42817,E,2,12,0.55,14.1,M,-47.6,M,,0000*45
$GNGSA,A,3,29,10,32,26,23,25,18,24,28,16,31,41,1.08,0.55,0.93*13
$GNGSA,A,3,65,86,87,72,66,76,77,,,,,,1.08,0.55,0.93*19
$GPGSV,5,1,18,10,39,316,39,15,01,036,,16,17,294,28,18,20,028,39*7E
$GPGSV,5,2,18,23,23,003,32,24,09,088,37,25,22,158,35,26,30,266,28*7C
$GPGSV,5,3,18,27,01,328,27,28,22,199,37,29,53,112,39,31,09,223,20*7E
$GPGSV,5,4,18,32,63,196,42,36,52,277,39,40,85,353,41,41,58,082,37*78
$GPGSV,5,5,18,49,32,274,,50,10,089,*78
$GLGSV,3,1,09,65,76,318,36,66,40,214,36,72,25,018,29,76,22,194,34*6F
$GLGSV,3,2,09,77,20,243,13,85,02,125,,86,24,074,38,87,22,026,36*6F
$GLGSV,3,3,09,,,,34*6B
$GNGLL,0419.66515,S,05539.42817,E,102831.00,A,D*69
$GNRMC,102832.00,A,0419.66519,S,05539.42807,E,0.334,,220525,,,D*78
$GNVTG,,T,,M,0.334,N,0.618,K,D*33
$GNGGA,102832.00,0419.66519,S,05539.42807,E,2,12,0.55,14.1,M,-47.6,M,,0000*4B
$GNGSA,A,3,29,10,32,26,23,25,18,24,28,16,31,41,1.08,0.55,0.93*13
$GNGSA,A,3,65,86,87,72,66,76,77,,,,,,1.08,0.55,0.93*19
$GPGSV,5,1,18,10,39,316,40,15,01,036,27,16,17,294,29,18,20,028,36*7B
$GPGSV,5,2,18,23,23,003,34,24,09,088,30,25,22,158,37,26,30,266,27*70
$GPGSV,5,3,18,27,01,328,31,28,22,199,35,29,53,112,39,31,09,223,29*72
$GPGSV,5,4,18,32,63,196,41,36,52,277,36,40,85,353,42,41,58,082,37*77
$GPGSV,5,5,18,49,32,274,,50,10,089,*78
$GLGSV,3,1,09,65,76,318,38,66,40,214,34,72,25,018,33,76,22,194,34*68
$GLGSV,3,2,09,77,20,243,16,85,02,125,,86,24,074,33,87,22,026,33*64
$GLGSV,3,3,09,,,,30*6F
$GNGLL,0419.66519,S,05539.42807,E,102832.00,A,D*67
$GNRMC,102833.00,A,0419.66520,S,05539.42793,E,0.559,267.14,220525,,,D*64
$GNVTG,267.14,T,,M,0.559,N,1.035,K,D*2E
$GNGGA,102833.00,0419.66520,S,05539.42793,E,2,12,0.55,13.8,M,-47.6,M,,0000*4C
$GNGSA,A,3,29,10,32,26,23,25,18,24,28,16,31,41,1.08,0.55,0.93*13
$GNGSA,A,3,65,86,87,72,66,76,77,,,,,,1.08,0.55,0.93*19
$GPGSV,5,1,18,10,39,316,43,15,01,036,27,16,17,294,28,18,20,028,36*79
$GPGSV,5,2,18,23,23,003,36,24,09,088,33,25,22,158,37,26,30,266,28*7E
$GPGSV,5,3,18,27,01,328,35,28,22,199,38,29,53,112,37,31,09,223,20*7C
$GPGSV,5,4,18,32,63,196,42,36,52,277,41,40,85,353,42,41,58,082,34*77
$GPGSV,5,5,18,49,32,274,,50,10,089,*78
$GLGSV,3,1,09,65,76,318,35,66,40,214,34,72,25,018,32,76,22,194,31*61
$GLGSV,3,2,09,77,20,243,18,85,02,125,,86,24,074,34,87,22,026,32*6C
$GLGSV,3,3,09,,,,30*6F
$GNGLL,0419.66520,S,05539.42793,E,102833.00,A,D*6E
$GNRMC,102834.00,A,0419.66524,S,05539.42780,E,0.393,260.57,220525,,,D*65
$GNVTG,260.57,T,,M,0.393,N,0.728,K,D*24
$GNGGA,102834.00,0419.66524,S,05539.42780,E,2,12,0.55,13.9,M,-47.6,M,,0000*4C
$GNGSA,A,3,29,10,32,26,23,25,18,24,28,16,31,41,1.08,0.55,0.93*13
$GNGSA,A,3,65,86,87,72,66,76,77,,,,,,1.08,0.55,0.93*19
$GPGSV,5,1,18,10,39,316,38,15,01,036,27,16,17,294,28,18,20,028,38*7B
$GPGSV,5,2,18,23,23,003,38,24,09,088,35,25,22,158,32,26,30,266,26*7D
$GPGSV,5,3,18,27,01,328,31,28,22,199,38,29,53,112,37,31,09,223,30*79
$GPGSV,5,4,18,32,63,196,39,36,52,277,37,40,85,353,41,41,58,082,35*78
$GPGSV,5,5,18,49,32,274,,50,10,089,*78
$GLGSV,3,1,09,65,76,318,36,66,40,214,35,72,25,018,32,76,22,194,37*65
$GLGSV,3,2,09,77,20,243,18,85,02,125,,86,24,074,37,87,22,026,34*69
$GLGSV,3,3,09,,,,31*6E
$GNGLL,0419.66524,S,05539.42780,E,102834.00,A,D*6F
$GNRMC,102835.00,A,0419.66522,S,05539.42772,E,0.345,,220525,,,D*7C
$GNVTG,,T,,M,0.345,N,0.640,K,D*38
$GNGGA,102835.00,0419.66522,S,05539.42772,E,2,12,0.55,13.9,M,-47.6,M,,0000*46
$GNGSA,A,3,29,10,32,26,23,25,18,24,28,16,31,41,1.08,0.55,0.93*13
$GNGSA,A,3,65,86,87,72,66,76,77,,,,,,1.08,0.55,0.93*19
$GPGSV,5,1,18,10,39,316,38,15,01,036,28,16,17,294,30,18,20,028,36*73
$GPGSV,5,2,18,23,23,003,37,24,09,088,32,25,22,158,36,26,30,266,24*73
$GPGSV,5,3,18,27,01,328,31,28,22,199,36,29,53,112,37,31,09,223,28*7E
$GPGSV,5,4,18,32,63,196,40,36,52,277,37,40,85,353,41,41,58,082,34*77
$GPGSV,5,5,18,49,32,274,,50,10,089,*78
$GLGSV,3,1,09,65,76,318,38,66,40,214,35,72,25,018,35,76,22,194,36*6D
$GLGSV,3,2,09,77,20,243,18,85,02,125,,86,24,074,32,87,22,026,32*6A
$GLGSV,3,3,09,,,,34*6B
$GNGLL,0419.66522,S,05539.42772,E,102835.00,A,D*65
$GNRMC,102836.00,A,0419.66514,S,05539.42763,E,0.474,287.95,220525,,,D*60
$GNVTG,287.95,T,,M,0.474,N,0.878,K,D*27
$GNGGA,102836.00,0419.66514,S,05539.42763,E,2,12,0.55,13.9,M,-47.6,M,,0000*40
$GNGSA,A,3,29,10,32,26,23,25,18,24,28,16,31,41,1.08,0.55,0.93*13
$GNGSA,A,3,65,86,87,72,66,76,77,,,,,,1.08,0.55,0.93*19
$GPGSV,5,1,18,10,39,316,41,15,01,036,27,16,17,294,28,18,20,028,35*78
$GPGSV,5,2,18,23,23,003,37,24,09,088,26,25,22,158,32,26,30,266,24*72
$GPGSV,5,3,18,27,01,328,31,28,22,199,33,29,53,112,36,31,09,223,28*7A
$GPGSV,5,4,18,32,63,196,38,36,52,277,37,40,85,353,40,41,58,082,34*79
$GPGSV,5,5,18,49,32,274,,50,10,089,*78
$GLGSV,3,1,09,65,76,318,35,66,40,214,32,72,25,018,31,76,22,194,32*67
$GLGSV,3,2,09,77,20,243,17,85,02,125,,86,24,074,32,87,22,026,32*65
$GLGSV,3,3,09,,,,29*67
$GNGLL,0419.66514,S,05539.42763,E,102836.00,A,D*63
$GNRMC,102837.00,A,0419.66506,S,05539.42753,E,0.460,301.49,220525,,,D*6A
$GNVTG,301.49,T,,M,0.460,N,0.852,K,D*24
$GNGGA,102837.00,0419.66506,S,05539.42753,E,2,12,0.55,13.9,M,-47.6,M,,0000*41
$GNGSA,A,3,29,10,32,26,23,25,18,24,28,16,31,41,1.08,0.55,0.93*13
$GNGSA,A,3,65,86,87,72,66,76,77,,,,,,1.08,0.55,0.93*19
$GPGSV,5,1,18,10,39,316,41,15,01,036,26,16,17,294,28,18,20,028,35*79
$GPGSV,5,2,18,23,23,003,35,24,09,088,29,25,22,158,31,26,30,266,23*7B
$GPGSV,5,3,18,27,01,328,31,28,22,199,33,29,53,112,35,31,09,223,25*74
$GPGSV,5,4,18,32,63,196,39,36,52,277,37,40,85,353,40,41,58,082,34*78
$GPGSV,5,5,18,49,32,274,,50,10,089,*78
$GLGSV,3,1,09,65,76,318,36,66,40,214,37,72,25,018,33,76,22,194,30*61
$GLGSV,3,2,09,77,20,243,18,85,02,125,,86,24,074,38,87,22,026,32*60
$GLGSV,3,3,09,,,,34*6B
$GNGLL,0419.66506,S,05539.42753,E,102837.00,A,D*62
$GNRMC,102838.00,A,0419.66498,S,05539.42743,E,0.483,312.18,220525,,,D*69
$GNVTG,312.18,T,,M,0.483,N,0.894,K,D*25
$GNGGA,102838.00,0419.66498,S,05539.42743,E,2,12,0.55,13.9,M,-47.6,M,,0000*49
$GNGSA,A,3,29,10,32,26,23,25,18,24,28,16,31,41,1.08,0.55,0.93*13
$GNGSA,A,3,65,86,87,72,66,76,77,,,,,,1.08,0.55,0.93*19
$GPGSV,5,1,18,10,39,316,42,15,01,036,27,16,17,294,31,18,20,028,35*73
$GPGSV,5,2,18,23,23,003,34,24,09,088,29,25,22,158,33,26,30,266,24*7F
$GPGSV,5,3,18,27,01,328,34,28,22,199,31,29,53,112,37,31,09,223,25*71
$GPGSV,5,4,18,32,63,196,40,36,52,277,38,40,85,353,40,41,58,082,34*79
$GPGSV,5,5,18,49,32,274,,50,10,089,*78
$GLGSV,3,1,09,65,76,318,36,66,40,214,38,72,25,018,32,76,22,194,31*6E
$GLGSV,3,2,09,77,20,243,18,85,02,125,,86,24,074,31,87,22,026,32*69
$GLGSV,3,3,09,,,,23*6D
$GNGLL,0419.66498,S,05539.42743,E,102838.00,A,D*6A
$GNRMC,102839.00,A,0419.66489,S,05539.42734,E,0.440,316.13,220525,,,D*68
$GNVTG,316.13,T,,M,0.440,N,0.815,K,D*2C
$GNGGA,102839.00,0419.66489,S,05539.42734,E,2,12,0.55,13.8,M,-47.6,M,,0000*49
$GNGSA,A,3,29,10,32,26,23,25,18,24,28,16,31,41,1.08,0.55,0.93*13
$GNGSA,A,3,65,86,87,72,66,76,77,,,,,,1.08,0.55,0.93*19
$GPGSV,5,1,18,10,39,316,40,15,01,036,26,16,17,294,31,18,20,028,37*72
$GPGSV,5,2,18,23,23,003,34,24,09,088,29,25,22,158,30,26,30,266,24*7C
$GPGSV,5,3,18,27,01,328,29,28,22,199,31,29,53,112,37,31,09,223,22*7A
$GPGSV,5,4,18,32,63,196,42,36,52,277,38,40,85,353,40,41,58,082,35*7A
$GPGSV,5,5,18,49,32,274,,50,10,089,*78
$GLGSV,3,1,09,65,76,318,34,66,40,214,37,72,25,018,31,76,22,194,30*61
$GLGSV,3,2,09,77,20,243,19,85,02,125,,86,24,074,35,87,22,026,31*6F
$GLGSV,3,3,09,,,,31*6E
$GNGLL,0419.66489,S,05539.42734,E,102839.00,A,D*6B
$GNRMC,102840.00,A,0419.66485,S,05539.42730,E,0.140,,220525,,,D*73
$GNVTG,,T,,M,0.140,N,0.260,K,D*39
$GNGGA,102840.00,0419.66485,S,05539.42730,E,2,12,0.55,13.9,M,-47.6,M,,0000*4E
$GNGSA,A,3,29,10,32,26,23,25,18,24,28,16,31,41,1.08,0.55,0.93*13
$GNGSA,A,3,65,86,87,72,66,76,77,,,,,,1.08,0.55,0.93*19
$GPGSV,5,1,18,10,39,316,40,15,01,036,25,16,17,294,31,18,20,028,33*75
$GPGSV,5,2,18,23,23,003,34,24,09,088,29,25,22,158,33,26,30,266,23*78
$GPGSV,5,3,18,27,01,328,28,28,22,199,31,29,53,112,37,31,09,223,30*78
$GPGSV,5,4,18,32,63,196,41,36,52,277,38,40,85,353,40,41,58,082,35*79
$GPGSV,5,5,18,49,32,274,,50,10,089,*78
$GLGSV,3,1,09,65,76,318,34,66,40,214,34,72,25,018,29,76,22,194,29*63
$GLGSV,3,2,09,77,20,243,20,85,02,126,,86,24,074,31,87,22,026,30*63
$GLGSV,3,3,09,,,,30*6F
$GNGLL,0419.66485,S,05539.42730,E,102840.00,A,D*6D
$GNRMC,102841.00,A,0419.66479,S,05539.42724,E,0.375,,220525,,,D*70
$GNVTG,,T,,M,0.375,N,0.695,K,D*33
$GNGGA,102841.00,0419.66479,S,05539.42724,E,2,12,0.56,13.8,M,-47.6,M,,0000*4B
$GNGSA,A,3,29,10,32,26,23,25,18,24,28,16,31,41,1.15,0.56,1.01*16
$GNGSA,A,3,65,86,87,72,66,76,77,,,,,,1.15,0.56,1.01*1C
$GPGSV,5,1,18,10,39,316,40,15,01,036,26,16,17,294,32,18,20,028,34*72
$GPGSV,5,2,18,23,23,003,35,24,09,088,30,25,22,158,33,26,30,266,25*77
$GPGSV,5,3,18,27,01,328,33,28,22,199,37,29,53,112,37,31,09,223,24*71
$GPGSV,5,4,18,32,63,196,42,36,52,277,38,40,85,353,41,41,58,082,34*7A
$GPGSV,5,5,18,49,32,274,,50,10,089,*78
$GLGSV,3,1,09,65,76,318,34,66,40,214,35,72,25,018,28,76,22,194,28*62
$GLGSV,3,2,09,77,20,243,18,85,02,126,,86,25,075,31,87,22,026,29*60
$GLGSV,3,3,09,,,,30*6F
$GNGLL,0419.66479,S,05539.42724,E,102841.00,A,D*6A
$GNRMC,102842.00,A,0419.66475,S,05539.42710,E,0.471,295.73,220525,,,D*6F
$GNVTG,295.73,T,,M,0.471,N,0.872,K,D*23
$GNGGA,102842.00,0419.66475,S,05539.42710,E,2,12,0.55,13.8,M,-47.6,M,,0000*40
$GNGSA,A,3,29,10,32,26,23,25,18,24,28,16,31,41,1.08,0.55,0.93*13
$GNGSA,A,3,65,86,87,72,66,76,77,,,,,,1.08,0.55,0.93*19
$GPGSV,5,1,18,10,39,316,41,15,01,036,26,16,17,294,32,18,20,028,32*75
$GPGSV,5,2,18,23,23,003,36,24,09,088,29,25,22,158,34,26,30,266,27*79
$GPGSV,5,3,18,27,01,328,32,28,22,199,31,29,53,112,37,31,09,223,25*77
$GPGSV,5,4,18,32,63,196,39,36,52,277,37,40,85,353,40,41,58,082,35*79
$GPGSV,5,5,18,49,32,274,,50,10,089,*78
$GLGSV,3,1,09,65,76,318,37,66,40,214,37,72,25,018,33,76,22,194,32*62
$GLGSV,3,2,09,77,20,243,17,85,02,126,,86,25,075,34,87,22,026,34*66
$GLGSV,3,3,09,,,,35*6A
$GNGLL,0419.66475,S,05539.42710,E,102842.00,A,D*62
$GNRMC,102843.00,A,0419.66477,S,05539.42699,E,0.405,279.47,220525,,,D*6A
$GNVTG,279.47,T,,M,0.405,N,0.750,K,D*2A
$GNGGA,102843.00,0419.66477,S,05539.42699,E,2,12,0.56,13.8,M,-47.6,M,,0000*40
$GNGSA,A,3,29,10,32,26,23,25,18,24,28,16,31,41,1.10,0.56,0.95*1F
$GNGSA,A,3,65,86,87,72,66,76,,,,,,,1.10,0.56,0.95*15
$GPGSV,5,1,18,10,39,316,40,15,01,036,26,16,17,294,32,18,20,028,34*72
$GPGSV,5,2,18,23,23,003,36,24,09,088,29,25,22,158,35,26,30,266,27*78
$GPGSV,5,3,18,27,01,328,31,28,22,199,35,29,53,112,37,31,09,223,26*73
$GPGSV,5,4,18,32,63,196,41,36,52,277,36,40,85,353,40,41,58,082,35*77
$GPGSV,5,5,18,49,32,274,,50,10,089,*78
$GLGSV,3,1,09,65,76,318,34,66,40,214,35,72,25,018,32,76,22,194,28*69
$GLGSV,3,2,09,77,20,243,23,85,02,126,,86,25,075,28,87,22,026,30*68
$GLGSV,3,3,09,,,,31*6E
$GNGLL,0419.66477,S,05539.42699,E,102843.00,A,D*61
$GNRMC,102844.00,A,0419.66481,S,05539.42685,E,0.547,267.63,220525,,,D*67
$GNVTG,267.63,T,,M,0.547,N,1.013,K,D*25
$GNGGA,102844.00,0419.66481,S,05539.42685,E,2,12,0.56,13.8,M,-47.6,M,,0000*43
$GNGSA,A,3,29,10,32,26,23,25,18,24,28,16,31,41,1.10,0.56,0.95*1F
$GNGSA,A,3,65,86,87,72,66,76,,,,,,,1.10,0.56,0.95*15
$GPGSV,5,1,18,10,39,316,40,15,01,036,26,16,17,294,31,18,20,028,34*71
$GPGSV,5,2,18,23,23,003,38,24,09,088,32,25,22,158,38,26,30,266,25*73
$GPGSV,5,3,18,27,01,328,31,28,22,199,38,29,53,112,36,31,09,223,26*7F
$GPGSV,5,4,18,32,63,196,41,36,52,277,36,40,85,353,41,41,58,082,33*70
$GPGSV,5,5,18,49,32,274,,50,10,089,*78
$GLGSV,3,1,09,65,76,318,35,66,40,214,35,72,25,018,31,76,22,194,32*60
$GLGSV,3,2,09,77,20,243,22,85,02,126,,86,25,075,31,87,22,026,35*64
$GLGSV,3,3,09,,,,35*6A
$GNGLL,0419.66481,S,05539.42685,E,102844.00,A,D*62
$GNRMC,102845.00,A,0419.66481,S,05539.42672,E,0.465,268.54,220525,,,D*64
$GNVTG,268.54,T,,M,0.465,N,0.861,K,D*23
$GNGGA,102845.00,0419.66481,S,05539.42672,E,2,12,0.59,14.0,M,-47.6,M,,0000*4A
$GNGSA,A,3,29,10,32,26,23,25,18,24,28,16,31,41,1.11,0.59,0.95*11
$GNGSA,A,3,65,86,87,72,66,76,,,,,,,1.11,0.59,0.95*1B
$GPGSV,5,1,18,10,39,316,42,15,01,036,25,16,17,294,31,18,20,028,37*73
$GPGSV,5,2,18,23,23,003,36,24,09,088,32,25,22,158,38,26,30,266,24*7C
$GPGSV,5,3,18,27,01,328,29,28,22,199,39,29,53,112,38,31,09,223,35*7B
$GPGSV,5,4,18,32,63,196,41,36,52,277,38,40,85,353,42,41,58,082,36*78
$GPGSV,5,5,18,49,32,274,,50,10,089,*78
$GLGSV,3,1,09,65,76,318,37,66,40,214,31,72,25,018,30,76,22,194,35*60
$GLGSV,3,2,09,77,20,243,19,85,02,126,,86,25,075,30,87,22,026,34*6C
$GLGSV,3,3,09,,,,30*6F
$GNGLL,0419.66481,S,05539.42672,E,102845.00,A,D*6B
$GNRMC,102846.00,A,0419.66483,S,05539.42660,E,0.323,,220525,,,D*70
$GNVTG,,T,,M,0.323,N,0.599,K,D*3F
$GNGGA,102846.00,0419.66483,S,05539.42660,E,2,12,0.56,13.9,M,-47.6,M,,0000*49
$GNGSA,A,3,29,10,32,26,23,25,18,24,28,16,31,41,1.10,0.56,0.95*1F
$GNGSA,A,3,65,86,87,72,66,76,,,,,,,1.10,0.56,0.95*15
$GPGSV,5,1,18,10,39,316,36,15,01,036,24,16,17,294,29,18,20,028,37*78
$GPGSV,5,2,18,23,23,003,35,24,09,088,33,25,22,158,35,26,30,266,31*77
$GPGSV,5,3,18,27,01,328,27,28,22,199,36,29,53,112,36,31,09,223,26*76
$GPGSV,5,4,18,32,63,196,41,36,52,277,38,40,85,353,41,41,58,082,36*7B
$GPGSV,5,5,18,49,32,274,,50,10,089,*78
$GLGSV,3,1,09,65,76,318,37,66,40,214,35,72,25,018,35,76,22,194,32*66
$GLGSV,3,2,09,77,20,243,17,85,02,126,,86,25,075,32,87,22,026,33*67
$GLGSV,3,3,09,,,,34*6B
$GNGLL,0419.66483,S,05539.42660,E,102846.00,A,D*69
$GNRMC,102847.00,A,0419.66489,S,05539.42646,E,0.547,257.42,220525,,,D*63
$GNVTG,257.42,T,,M,0.547,N,1.012,K,D*24
$GNGGA,102847.00,0419.66489,S,05539.42646,E,2,12,0.56,13.6,M,-47.6,M,,0000*49
$GNGSA,A,3,29,10,32,26,23,25,18,24,28,16,31,41,1.10,0.56,0.95*1F
$GNGSA,A,3,65,86,87,72,66,76,77,,,,,,1.10,0.56,0.95*15
$GPGSV,5,1,18,10,39,316,39,15,01,036,22,16,17,294,33,18,20,028,34*79
$GPGSV,5,2,18,23,23,003,34,24,09,088,29,25,22,158,32,26,30,266,31*7A
$GPGSV,5,3,18,27,01,328,25,28,22,199,34,29,53,112,34,31,09,223,29*7B
$GPGSV,5,4,18,32,63,196,42,36,52,277,37,40,85,353,40,41,58,082,32*72
$GPGSV,5,5,18,49,32,274,,50,10,089,*78
$GLGSV,3,1,09,65,76,318,36,66,40,214,37,72,25,018,32,76,22,194,33*63
$GLGSV,3,2,09,77,20,243,15,85,02,126,,86,25,075,32,87,22,026,31*67
$GLGSV,3,3,09,,,,33*6C
$GNGLL,0419.66489,S,05539.42646,E,102847.00,A,D*66
$GNRMC,102848.00,A,0419.66495,S,05539.42631,E,0.559,253.80,220525,,,D*64
$GNVTG,253.80,T,,M,0.559,N,1.036,K,D*27
$GNGGA,102848.00,0419.66495,S,05539.42631,E,2,12,0.55,13.7,M,-47.6,M,,0000*49
$GNGSA,A,3,29,10,32,26,23,25,18,24,28,16,31,41,1.08,0.55,0.93*13
$GNGSA,A,3,65,86,87,72,66,76,77,,,,,,1.08,0.55,0.93*19
$GPGSV,5,1,18,10,39,316,38,15,01,036,21,16,17,294,28,18,20,028,33*76
$GPGSV,5,2,18,23,23,003,35,24,09,088,31,25,22,158,34,26,30,266,30*75
$GPGSV,5,3,18,27,01,328,22,28,22,199,35,29,53,112,34,31,09,223,27*73
$GPGSV,5,4,18,32,63,196,40,36,52,277,34,40,85,353,39,41,58,082,35*7A
$GPGSV,5,5,18,49,32,274,,50,10,089,*78
$GLGSV,3,1,09,65,76,318,38,66,40,214,35,72,25,018,32,76,22,194,33*6F
$GLGSV,3,2,09,77,20,243,19,85,02,126,,86,25,075,34,87,22,026,35*69
$GLGSV,3,3,09,,,,33*6C
$GNGLL,0419.66495,S,05539.42631,E,102848.00,A,D*64
$GNRMC,102849.00,A,0419.66500,S,05539.42616,E,0.611,252.17,220525,,,D*6D
$GNVTG,252.17,T,,M,0.611,N,1.131,K,D*21
$GNGGA,102849.00,0419.66500,S,05539.42616,E,2,12,0.55,13.8,M,-47.6,M,,0000*4F
$GNGSA,A,3,29,10,32,26,23,25,18,24,28,16,31,41,1.08,0.55,0.93*13
$GNGSA,A,3,65,86,87,72,66,76,77,,,,,,1.08,0.55,0.93*19
$GPGSV,5,1,18,10,39,316,38,15,01,036,19,16,17,294,31,18,20,028,28*7F
$GPGSV,5,2,18,23,23,003,37,24,09,088,34,25,22,158,30,26,30,266,37*71
$GPGSV,5,3,18,27,01,328,20,28,22,199,37,29,53,112,34,31,09,223,26*72
$GPGSV,5,4,18,32,63,196,41,36,52,277,40,40,85,353,41,41,58,082,33*71
$GPGSV,5,5,18,49,32,274,,50,10,089,*78
$GLGSV,3,1,09,65,76,318,36,66,40,214,33,72,25,018,28,76,22,194,33*6C
$GLGSV,3,2,09,77,20,243,21,85,02,126,,86,25,075,34,87,22,026,31*66
$GLGSV,3,3,09,,,,35*6A
$GNGLL,0419.66500,S,05539.42616,E,102849.00,A,D*6D
$GNRMC,102850.00,A,0419.66517,S,05539.42599,E,0.956,228.91,220525,,,D*68
$GNVTG,228.91,T,,M,0.956,N,1.771,K,D*2C
$GNGGA,102850.00,0419.66517,S,05539.42599,E,2,12,0.55,13.7,M,-47.6,M,,0000*4A
$GNGSA,A,3,29,10,32,26,23,25,18,24,28,16,31,41,1.08,0.55,0.93*13
$GNGSA,A,3,65,86,87,72,66,76,77,,,,,,1.08,0.55,0.93*19
$GPGSV,5,1,18,10,39,316,40,15,01,036,22,16,17,294,35,18,20,028,39*7C
$GPGSV,5,2,18,23,23,003,37,24,09,088,33,25,22,158,41,26,30,266,39*7E
$GPGSV,5,3,18,27,01,328,19,28,22,199,34,29,53,112,37,31,09,223,23*7D
$GPGSV,5,4,18,32,63,196,42,36,52,277,42,40,85,353,44,41,58,082,36*70
$GPGSV,5,5,18,49,32,274,,50,10,089,*78
$GLGSV,3,1,09,65,76,318,35,66,40,214,32,72,25,018,32,76,22,194,27*60
$GLGSV,3,2,09,77,20,243,23,85,02,126,,86,25,075,29,87,22,026,31*68
$GLGSV,3,3,09,,,,34*6B
$GNGLL,0419.66517,S,05539.42599,E,102850.00,A,D*67
$GNRMC,102851.00,A,0419.66537,S,05539.42589,E,0.768,220.87,220525,,,D*66
$GNVTG,220.87,T,,M,0.768,N,1.421,K,D*26
$GNGGA,102851.00,0419.66537,S,05539.42589,E,2,12,0.55,13.6,M,-47.6,M,,0000*49
$GNGSA,A,3,29,10,32,26,23,25,18,24,28,16,31,41,1.08,0.55,0.93*13
$GNGSA,A,3,65,86,87,72,66,76,77,,,,,,1.08,0.55,0.93*19
$GPGSV,5,1,18,10,39,316,41,15,01,036,23,16,17,294,34,18,20,028,35*71
$GPGSV,5,2,18,23,23,003,38,24,09,088,33,25,22,158,39,26,30,266,37*70
$GPGSV,5,3,18,27,01,328,20,28,22,199,33,29,53,112,36,31,09,223,24*76
$GPGSV,5,4,18,32,63,196,41,36,52,277,40,40,85,353,42,41,58,082,35*74
$GPGSV,5,5,18,49,32,274,,50,10,089,*78
$GLGSV,3,1,09,65,76,318,34,66,40,214,31,72,25,018,32,76,22,194,29*6C
$GLGSV,3,2,09,77,20,243,23,85,02,126,,86,25,075,29,87,22,026,32*6B
$GLGSV,3,3,09,,,,33*6C
$GNGLL,0419.66537,S,05539.42589,E,102851.00,A,D*65
$GNRMC,102852.00,A,0419.66552,S,05539.42585,E,0.460,216.19,220525,,,D*63
$GNVTG,216.19,T,,M,0.460,N,0.851,K,D*25
$GNGGA,102852.00,0419.66552,S,05539.42585,E,2,12,0.55,13.8,M,-47.6,M,,0000*4B
$GNGSA,A,3,29,10,32,26,23,25,18,24,28,16,31,41,1.08,0.55,0.93*13
$GNGSA,A,3,65,86,87,72,66,76,77,,,,,,1.08,0.55,0.93*19
$GPGSV,5,1,18,10,39,316,40,15,01,036,29,16,17,294,34,18,20,028,31*7E
$GPGSV,5,2,18,23,23,003,38,24,09,088,32,25,22,158,39,26,30,266,37*71
$GPGSV,5,3,18,27,01,328,19,28,22,199,30,29,53,112,35,31,09,223,25*7D
$GPGSV,5,4,18,32,63,196,43,36,52,277,39,40,85,353,41,41,58,082,31*7F
$GPGSV,5,5,18,49,32,274,,50,10,089,*78
$GLGSV,3,1,09,65,76,318,33,66,40,214,32,72,25,018,29,76,22,194,25*6E
$GLGSV,3,2,09,77,20,243,23,85,02,126,,86,25,075,29,87,22,026,30*69
$GLGSV,3,3,09,,,,33*6C
$GNGLL,0419.66552,S,05539.42585,E,102852.00,A,D*69
$GNRMC,102853.00,A,0419.66561,S,05539.42576,E,0.498,233.61,220525,,,D*61
$GNVTG,233.61,T,,M,0.498,N,0.922,K,D*2F
$GNGGA,102853.00,0419.66561,S,05539.42576,E,2,12,0.55,13.7,M,-47.6,M,,0000*49
$GNGSA,A,3,29,10,32,26,23,25,18,24,28,16,31,41,1.08,0.55,0.93*13
$GNGSA,A,3,65,86,87,72,66,76,77,,,,,,1.08,0.55,0.93*19
$GPGSV,5,1,18,10,38,317,41,15,01,036,20,16,17,294,38,18,20,028,35*7E
$GPGSV,5,2,18,23,23,003,37,24,09,088,26,25,22,158,38,26,30,266,38*75
$GPGSV,5,3,18,27,01,328,,28,22,199,29,29,53,112,36,31,09,223,26*7D
$GPGSV,5,4,18,32,63,196,40,36,52,277,38,40,85,353,43,41,58,082,33*7D
$GPGSV,5,5,18,49,32,274,,50,10,089,*78
$GLGSV,3,1,09,65,76,318,35,66,40,214,33,72,25,018,34,76,22,194,26*66
$GLGSV,3,2,09,77,20,243,26,85,02,126,,86,25,075,28,87,22,026,29*65
$GLGSV,3,3,09,,,,35*6A
$GNGLL,0419.66561,S,05539.42576,E,102853.00,A,D*64
$GNRMC,102854.00,A,0419.66569,S,05539.42568,E,0.243,,220525,,,D*7A
$GNVTG,,T,,M,0.243,N,0.450,K,D*3C
$GNGGA,102854.00,0419.66569,S,05539.42568,E,2,12,0.55,13.5,M,-47.6,M,,0000*4B
$GNGSA,A,3,29,10,32,26,23,25,18,24,28,16,31,41,1.08,0.55,0.93*13
$GNGSA,A,3,65,86,87,72,66,76,77,,,,,,1.08,0.55,0.93*19
$GPGSV,5,1,18,10,38,317,42,15,01,036,20,16,17,294,36,18,20,028,30*76
$GPGSV,5,2,18,23,23,003,36,24,09,088,33,25,22,158,39,26,30,266,38*71
$GPGSV,5,3,18,27,01,328,,28,22,199,31,29,53,112,35,31,09,223,26*77
$GPGSV,5,4,18,32,63,196,39,36,52,277,39,40,85,353,42,41,58,082,36*76
$GPGSV,5,5,18,49,32,274,,50,10,089,*78
$GLGSV,3,1,09,65,76,318,37,66,40,214,34,72,25,018,34,76,22,194,31*65
$GLGSV,3,2,09,77,20,243,27,85,02,126,,86,25,075,36,87,22,026,28*6A
$GLGSV,3,3,09,,,,36*69
$GNGLL,0419.66569,S,05539.42568,E,102854.00,A,D*64
$GNRMC,102855.00,A,0419.66574,S,05539.42562,E,0.329,,220525,,,D*70
$GNVTG,,T,,M,0.329,N,0.610,K,D*37
$GNGGA,102855.00,0419.66574,S,05539.42562,E,2,12,0.55,13.5,M,-47.6,M,,0000*4C
$GNGSA,A,3,29,10,32,26,23,25,18,24,28,16,31,41,1.08,0.55,0.93*13
$GNGSA,A,3,65,86,87,72,66,76,77,,,,,,1.08,0.55,0.93*19
$GPGSV,5,1,18,10,38,317,40,15,01,036,20,16,17,294,38,18,20,028,33*79
$GPGSV,5,2,18,23,23,003,36,24,09,088,29,25,22,158,38,26,30,266,38*7B
$GPGSV,5,3,18,27,01,328,,28,22,199,29,29,53,112,35,31,09,223,25*7D
$GPGSV,5,4,18,32,63,196,41,36,52,277,39,40,85,353,42,41,58,082,33*7C
$GPGSV,5,5,18,49,32,274,,50,10,089,*78
$GLGSV,3,1,09,65,76,318,35,66,40,214,31,72,25,018,31,76,22,194,24*63
$GLGSV,3,2,09,77,20,243,27,85,02,126,,86,25,075,28,87,22,026,22*6F
$GLGSV,3,3,09,,,,32*6D
$GNGLL,0419.66574,S,05539.42562,E,102855.00,A,D*63
$GNRMC,102856.00,A,0419.66578,S,05539.42554,E,0.404,241.88,220525,,,D*6B
$GNVTG,241.88,T,,M,0.404,N,0.748,K,D*2A
$GNGGA,102856.00,0419.66578,S,05539.42554,E,2,12,0.55,13.5,M,-47.6,M,,0000*46
$GNGSA,A,3,29,10,32,26,23,25,18,24,28,16,31,41,1.08,0.55,0.93*13
$GNGSA,A,3,65,86,87,72,66,76,77,,,,,,1.08,0.55,0.93*19
$GPGSV,5,1,18,10,38,317,41,15,01,036,21,16,17,294,28,18,20,028,29*73
$GPGSV,5,2,18,23,23,003,36,24,09,088,20,25,22,158,39,26,30,266,36*7D
$GPGSV,5,3,18,27,01,328,,28,22,199,30,29,53,112,38,31,09,223,28*75
$GPGSV,5,4,18,32,63,196,42,36,52,277,35,40,85,353,41,41,58,082,34*77
$GPGSV,5,5,18,49,32,274,,50,10,089,*78
$GLGSV,3,1,09,65,76,318,37,66,40,214,33,72,25,018,30,76,22,194,25*63
$GLGSV,3,2,09,77,20,243,26,85,02,126,,86,25,075,32,87,22,026,31*67
$GLGSV,3,3,09,,,,35*6A
$GNGLL,0419.66578,S,05539.42554,E,102856.00,A,D*69
$GNRMC,102857.00,A,0419.66579,S,05539.42547,E,0.124,,220525,,,D*77
$GNVTG,,T,,M,0.124,N,0.229,K,D*36
$GNGGA,102857.00,0419.66579,S,05539.42547,E,2,12,0.55,13.4,M,-47.6,M,,0000*45
$GNGSA,A,3,29,10,32,26,23,25,18,24,28,16,31,41,1.08,0.55,0.93*13
$GNGSA,A,3,65,86,87,72,66,76,77,,,,,,1.08,0.55,0.93*19
$GPGSV,5,1,18,10,38,317,37,15,01,036,22,16,17,294,31,18,20,028,36*77
$GPGSV,5,2,18,23,23,003,38,24,09,088,34,25,22,158,32,26,30,266,32*79
$GPGSV,5,3,18,27,01,328,20,28,22,199,29,29,53,112,36,31,09,223,17*7D
$GPGSV,5,4,18,32,63,196,34,36,52,277,32,40,85,353,37,41,58,082,37*73
$GPGSV,5,5,18,49,32,274,,50,10,089,*78
$GLGSV,3,1,09,65,76,318,30,66,40,214,26,72,25,018,34,76,22,194,26*67
$GLGSV,3,2,09,77,20,243,24,85,02,126,,86,25,075,38,87,22,026,35*6B
$GLGSV,3,3,09,,,,33*6C
$GNGLL,0419.66579,S,05539.42547,E,102857.00,A,D*6B
$GNRMC,102858.00,A,0419.66586,S,05539.42544,E,0.298,,220525,,,D*7F
$GNVTG,,T,,M,0.298,N,0.552,K,D*39
$GNGGA,102858.00,0419.66586,S,05539.42544,E,2,12,0.55,13.5,M,-47.6,M,,0000*48
$GNGSA,A,3,29,10,32,26,23,25,18,24,28,16,31,41,1.08,0.55,0.93*13
$GNGSA,A,3,65,86,87,72,66,76,77,,,,,,1.08,0.55,0.93*19
$GPGSV,5,1,18,10,38,317,34,15,01,036,22,16,17,294,29,18,20,028,35*7E
$GPGSV,5,2,18,23,23,003,38,24,09,088,30,25,22,158,35,26,30,266,30*78
$GPGSV,5,3,18,27,01,328,21,28,22,199,29,29,53,112,37,31,09,223,22*7B
$GPGSV,5,4,18,32,63,196,38,36,52,277,31,40,85,353,37,41,58,082,37*7C
$GPGSV,5,5,18,49,32,274,,50,10,089,*78
$GLGSV,3,1,09,65,76,318,28,66,40,214,25,72,25,018,34,76,22,194,23*68
$GLGSV,3,2,09,77,20,243,20,85,02,126,,86,25,075,28,87,22,026,33*68
$GLGSV,3,3,09,,,,37*68
$GNGLL,0419.66586,S,05539.42544,E,102858.00,A,D*67
