$GNRMC,102151.00,A,0419.71864,S,05539.45851,E,1.286,282.96,220525,,,D*61
$GNVTG,282.96,T,,M,1.286,N,2.382,K,D*27
$GNGGA,102151.00,0419.71864,S,05539.45851,E,2,12,0.55,14.7,M,-47.6,M,,0000*44
$GNGSA,A,3,29,10,32,26,23,25,18,24,28,16,31,41,1.08,0.55,0.93*13
$GNGSA,A,3,65,86,87,72,66,76,77,,,,,,1.08,0.55,0.93*19
$GPGSV,5,1,17,10,40,313,35,15,04,037,33,16,16,297,23,18,20,025,39*76
$GPGSV,5,2,17,23,25,001,38,24,10,091,34,25,23,160,26,26,30,269,32*72
$GPGSV,5,3,17,28,21,201,33,29,54,107,38,31,09,225,28,32,60,195,40*7E
$GPGSV,5,4,17,36,52,277,34,40,85,352,42,41,58,082,34,49,32,274,*7A
$GPGSV,5,5,17,50,10,089,*4A
$GLGSV,3,1,10,65,79,301,35,66,37,211,32,72,28,019,38,75,00,147,10*65
$GLGSV,3,2,10,76,23,197,28,77,20,247,22,85,03,122,20,86,23,071,40*63
$GLGSV,3,3,10,87,20,023,36,,,,41*58
$GNGLL,0419.71864,S,05539.45851,E,102151.00,A,D*6E
$GNRMC,102152.00,A,0419.71857,S,05539.45819,E,1.119,282.32,220525,,,D*65
$GNVTG,282.32,T,,M,1.119,N,2.072,K,D*20
$GNGGA,102152.00,0419.71857,S,05539.45819,E,2,12,0.55,14.7,M,-47.6,M,,0000*4B
$GNGSA,A,3,29,10,32,26,23,25,18,24,28,16,31,41,1.08,0.55,0.93*13
$GNGSA,A,3,65,86,87,72,66,76,77,,,,,,1.08,0.55,0.93*19
$GPGSV,5,1,17,10,40,313,35,15,04,037,33,16,16,297,23,18,20,025,37*78
$GPGSV,5,2,17,23,25,001,42,24,10,091,33,25,23,160,24,26,30,269,30*78
$GPGSV,5,3,17,28,21,201,32,29,54,107,40,31,09,225,34,32,60,195,40*7D
$GPGSV,5,4,17,36,52,277,37,40,85,352,43,41,58,082,34,49,32,274,*78
$GPGSV,5,5,17,50,10,089,*4A
$GLGSV,3,1,10,65,79,301,34,66,37,211,33,72,28,019,36,75,00,147,10*6B
$GLGSV,3,2,10,76,23,197,29,77,20,247,26,85,03,122,20,86,23,071,39*68
$GLGSV,3,3,10,87,20,023,36,,,,39*57
$GNGLL,0419.71857,S,05539.45819,E,102152.00,A,D*61
$GNRMC,102153.00,A,0419.71848,S,05539.45790,E,0.990,284.33,220525,,,D*6B
$GNVTG,284.33,T,,M,0.990,N,1.833,K,D*21
$GNGGA,102153.00,0419.71848,S,05539.45790,E,2,12,0.55,14.7,M,-47.6,M,,0000*4A
$GNGSA,A,3,29,10,32,26,23,25,18,24,28,16,31,41,1.08,0.55,0.93*13
$GNGSA,A,3,65,86,87,72,66,76,77,,,,,,1.08,0.55,0.93*19
$GPGSV,5,1,17,10,40,313,36,15,04,037,37,16,16,297,20,18,20,025,40*7C
$GPGSV,5,2,17,23,25,001,42,24,10,091,36,25,23,160,31,26,30,269,32*7B
$GPGSV,5,3,17,28,21,201,35,29,54,107,41,31,09,225,33,32,60,195,41*7D
$GPGSV,5,4,17,36,52,277,38,40,85,352,45,41,58,082,40,49,32,274,*72
$GPGSV,5,5,17,50,10,089,*4A
$GLGSV,3,1,10,65,79,301,37,66,37,211,34,72,28,019,35,75,00,147,10*6C
$GLGSV,3,2,10,76,23,197,28,77,20,247,27,85,03,122,21,86,23,071,39*69
$GLGSV,3,3,10,87,20,023,32,,,,36*5C
$GNGLL,0419.71848,S,05539.45790,E,102153.00,A,D*60
$GNRMC,102154.00,A,0419.71839,S,05539.45765,E,0.896,284.50,220525,,,D*62
$GNVTG,284.50,T,,M,0.896,N,1.659,K,D*21
$GNGGA,102154.00,0419.71839,S,05539.45765,E,2,12,0.55,14.7,M,-47.6,M,,0000*41
$GNGSA,A,3,29,10,32,26,23,25,18,24,28,16,31,41,1.08,0.55,0.93*13
$GNGSA,A,3,65,86,87,72,66,76,77,,,,,,1.08,0.55,0.93*19
$GPGSV,5,1,17,10,40,313,36,15,04,037,36,16,16,297,22,18,20,025,40*7F
$GPGSV,5,2,17,23,25,001,43,24,10,091,35,25,23,160,31,26,30,269,34*7F
$GPGSV,5,3,17,28,21,201,34,29,54,107,41,31,09,225,33,32,60,195,43*7E
$GPGSV,5,4,17,36,52,277,37,40,85,352,43,41,58,082,39,49,32,274,*75
$GPGSV,5,5,17,50,10,089,*4A
$GLGSV,3,1,10,65,79,301,36,66,37,211,34,72,28,019,34,75,00,147,10*6C
$GLGSV,3,2,10,76,23,197,28,77,20,247,27,85,03,122,22,86,23,071,39*6A
$GLGSV,3,3,10,87,20,023,36,,,,41*58
$GNGLL,0419.71839,S,05539.45765,E,102154.00,A,D*6B
$GNRMC,102155.00,A,0419.71834,S,05539.45739,E,0.935,280.20,220525,,,D*6C
$GNVTG,280.20,T,,M,0.935,N,1.731,K,D*25
$GNGGA,102155.00,0419.71834,S,05539.45739,E,2,12,0.55,14.6,M,-47.6,M,,0000*45
$GNGSA,A,3,29,10,32,26,23,25,18,24,28,16,31,41,1.08,0.55,0.93*13
$GNGSA,A,3,65,86,87,72,66,76,77,,,,,,1.08,0.55,0.93*19
$GPGSV,5,1,17,10,40,313,37,15,04,037,35,16,16,297,24,18,20,025,40*7B
$GPGSV,5,2,17,23,25,001,40,24,10,091,36,25,23,160,31,26,30,269,35*7E
$GPGSV,5,3,17,28,21,201,28,29,54,107,42,31,09,225,32,32,60,195,43*71
$GPGSV,5,4,17,36,52,277,37,40,85,352,45,41,58,082,39,49,32,274,*73
$GPGSV,5,5,17,50,10,089,*4A
$GLGSV,3,1,10,65,79,301,35,66,37,211,34,72,28,019,33,75,00,147,11*69
$GLGSV,3,2,10,76,23,197,30,77,20,247,29,85,03,122,24,86,23,071,38*6A
$GLGSV,3,3,10,87,20,023,35,,,,37*5A
$GNGLL,0419.71834,S,05539.45739,E,102155.00,A,D*6E
$GNRMC,102156.00,A,0419.71831,S,05539.45714,E,0.816,277.03,220525,,,D*6C
$GNVTG,277.03,T,,M,0.816,N,1.512,K,D*2F
$GNGGA,102156.00,0419.71831,S,05539.45714,E,2,12,0.55,14.7,M,-47.6,M,,0000*4D
$GNGSA,A,3,29,10,32,26,23,25,18,24,28,16,31,41,1.08,0.55,0.93*13
$GNGSA,A,3,65,86,87,72,66,76,77,,,,,,1.08,0.55,0.93*19
$GPGSV,5,1,17,10,40,313,33,15,04,037,36,16,16,297,23,18,20,025,41*7A
$GPGSV,5,2,17,23,25,001,40,24,10,091,36,25,23,160,31,26,30,269,35*7E
$GPGSV,5,3,17,28,21,201,35,29,54,107,42,31,09,225,32,32,60,195,41*7F
$GPGSV,5,4,17,36,52,277,37,40,85,352,45,41,58,082,41,49,32,274,*7C
$GPGSV,5,5,17,50,10,089,*4A
$GLGSV,3,1,10,65,79,301,36,66,37,211,35,72,28,019,35,75,00,147,12*6E
$GLGSV,3,2,10,76,23,197,29,77,20,247,28,85,03,122,22,86,23,071,38*65
$GLGSV,3,3,10,87,20,023,36,,,,39*57
$GNGLL,0419.71831,S,05539.45714,E,102156.00,A,D*67
$GNRMC,102157.00,A,0419.71825,S,05539.45696,E,0.664,280.89,220525,,,D*62
$GNVTG,280.89,T,,M,0.664,N,1.230,K,D*29
$GNGGA,102157.00,0419.71825,S,05539.45696,E,2,12,0.55,14.6,M,-47.6,M,,0000*43
$GNGSA,A,3,29,10,32,26,23,25,18,24,28,16,31,41,1.08,0.55,0.93*13
$GNGSA,A,3,65,86,87,72,66,76,77,,,,,,1.08,0.55,0.93*19
$GPGSV,5,1,17,10,40,313,42,15,04,037,39,16,16,297,32,18,20,025,44*76
$GPGSV,5,2,17,23,25,001,42,24,10,091,32,25,23,160,36,26,30,269,35*7F
$GPGSV,5,3,17,28,21,201,39,29,54,107,42,31,09,225,36,32,60,195,40*76
$GPGSV,5,4,17,36,52,277,34,40,85,352,46,41,58,082,39,49,32,274,*73
$GPGSV,5,5,17,50,10,089,*4A
$GLGSV,3,1,10,65,79,301,35,66,37,211,38,72,28,019,36,75,00,147,16*67
$GLGSV,3,2,10,76,23,197,29,77,20,247,28,85,03,122,21,86,23,071,37*69
$GLGSV,3,3,10,87,20,023,41,,,,40*59
$GNGLL,0419.71825,S,05539.45696,E,102157.00,A,D*68
$GNRMC,102158.00,A,0419.71814,S,05539.45675,E,0.917,288.85,220525,,,D*6D
$GNVTG,288.85,T,,M,0.917,N,1.698,K,D*20
$GNGGA,102158.00,0419.71814,S,05539.45675,E,2,12,0.55,14.6,M,-47.6,M,,0000*43
$GNGSA,A,3,29,10,32,26,23,25,18,24,28,16,31,41,1.08,0.55,0.93*13
$GNGSA,A,3,65,86,87,72,66,76,77,,,,,,1.08,0.55,0.93*19
$GPGSV,5,1,17,10,40,313,36,15,04,037,39,16,16,297,23,18,20,025,43*72
$GPGSV,5,2,17,23,25,001,36,24,10,091,26,25,23,160,35,26,30,269,28*76
$GPGSV,5,3,17,28,21,201,41,29,54,107,43,31,09,225,30,32,60,195,42*7C
$GPGSV,5,4,17,36,52,277,33,40,85,352,45,41,58,082,39,49,32,274,*77
$GPGSV,5,5,17,50,10,089,*4A
$GLGSV,3,1,10,65,79,301,35,66,37,211,35,72,28,019,34,75,00,147,15*6B
$GLGSV,3,2,10,76,23,197,35,77,20,247,27,85,03,122,20,86,23,071,37*6A
$GLGSV,3,3,10,87,20,023,39,,,,41*57
$GNGLL,0419.71814,S,05539.45675,E,102158.00,A,D*68
$GNRMC,102159.00,A,0419.71805,S,05539.45651,E,0.863,284.99,220525,,,D*69
$GNVTG,284.99,T,,M,0.863,N,1.598,K,D*20
$GNGGA,102159.00,0419.71805,S,05539.45651,E,2,12,0.55,14.7,M,-47.6,M,,0000*45
$GNGSA,A,3,29,10,32,26,23,25,18,24,28,16,31,41,1.08,0.55,0.93*13
$GNGSA,A,3,65,86,87,72,66,76,77,,,,,,1.08,0.55,0.93*19
$GPGSV,5,1,17,10,40,313,31,15,04,037,36,16,16,297,24,18,20,025,43*7D
$GPGSV,5,2,17,23,25,001,40,24,10,091,33,25,23,160,30,26,30,269,34*7B
$GPGSV,5,3,17,28,21,201,38,29,54,107,41,31,09,225,29,32,60,195,40*7A
$GPGSV,5,4,17,36,52,277,35,40,85,352,45,41,58,082,39,49,32,274,*71
$GPGSV,5,5,17,50,10,089,*4A
$GLGSV,3,1,10,65,79,301,36,66,37,211,37,72,28,019,35,75,00,147,15*6B
$GLGSV,3,2,10,76,23,197,34,77,20,247,28,85,03,122,20,86,23,071,37*64
$GLGSV,3,3,10,87,20,023,39,,,,41*57
$GNGLL,0419.71805,S,05539.45651,E,102159.00,A,D*6F
$GNRMC,102200.00,A,0419.71799,S,05539.45624,E,1.011,282.05,220525,,,D*61
$GNVTG,282.05,T,,M,1.011,N,1.873,K,D*27
$GNGGA,102200.00,0419.71799,S,05539.45624,E,2,12,0.55,14.6,M,-47.6,M,,0000*43
$GNGSA,A,3,29,10,32,26,23,25,18,24,28,16,31,41,1.08,0.55,0.93*13
$GNGSA,A,3,65,86,87,72,66,76,77,,,,,,1.08,0.55,0.93*19
$GPGSV,5,1,17,10,40,313,35,15,04,037,36,16,16,297,22,18,20,025,43*7F
$GPGSV,5,2,17,23,25,001,41,24,10,091,34,25,23,160,35,26,30,269,32*7E
$GPGSV,5,3,17,28,21,201,40,29,54,107,41,31,09,225,27,32,60,195,37*7B
$GPGSV,5,4,17,36,52,277,33,40,85,352,46,41,58,082,39,49,32,274,*74
$GPGSV,5,5,17,50,10,089,*4A
$GLGSV,3,1,10,65,79,301,35,66,37,211,33,72,28,019,36,75,00,147,11*6B
$GLGSV,3,2,10,76,23,197,33,77,20,247,27,85,03,122,20,86,23,071,37*6C
$GLGSV,3,3,10,87,20,023,40,,,,43*5B
$GNGLL,0419.71799,S,05539.45624,E,102200.00,A,D*68
$GNRMC,102201.00,A,0419.71792,S,05539.45601,E,0.753,281.57,220525,,,D*68
$GNVTG,281.57,T,,M,0.753,N,1.395,K,D*20
$GNGGA,102201.00,0419.71792,S,05539.45601,E,2,12,0.55,14.8,M,-47.6,M,,0000*40
$GNGSA,A,3,29,10,32,26,23,25,18,24,28,16,31,41,1.08,0.55,0.93*13
$GNGSA,A,3,65,86,87,72,66,76,77,,,,,,1.08,0.55,0.93*19
$GPGSV,5,1,17,10,40,313,38,15,04,037,35,16,16,297,21,18,20,025,43*72
$GPGSV,5,2,17,23,25,001,41,24,10,091,35,25,23,160,28,26,30,269,32*73
$GPGSV,5,3,17,28,21,201,40,29,54,107,42,31,09,225,28,32,60,195,40*77
$GPGSV,5,4,17,36,52,277,34,40,85,352,46,41,58,082,40,49,32,274,*7D
$GPGSV,5,5,17,50,10,089,*4A
$GLGSV,3,1,10,65,79,301,36,66,37,211,34,72,28,019,35,75,00,147,14*69
$GLGSV,3,2,10,76,23,197,33,77,20,247,27,85,03,122,20,86,23,071,38*63
$GLGSV,3,3,10,87,20,023,39,,,,41*57
$GNGLL,0419.71792,S,05539.45601,E,102201.00,A,D*65
$GNRMC,102202.00,A,0419.71784,S,05539.45579,E,0.922,286.51,220525,,,D*69
$GNVTG,286.51,T,,M,0.922,N,1.707,K,D*26
$GNGGA,102202.00,0419.71784,S,05539.45579,E,2,12,0.56,14.7,M,-47.6,M,,0000*44
$GNGSA,A,3,29,10,32,26,23,25,18,24,28,16,31,41,1.08,0.56,0.93*10
$GNGSA,A,3,65,86,87,72,66,76,77,,,,,,1.08,0.56,0.93*1A
$GPGSV,5,1,17,10,40,313,42,15,04,037,34,16,16,297,32,18,20,025,44*7B
$GPGSV,5,2,17,23,25,001,41,24,10,091,29,25,23,160,30,26,30,269,33*76
$GPGSV,5,3,17,28,21,201,39,29,54,107,43,31,09,225,29,32,60,195,41*78
$GPGSV,5,4,17,36,52,277,35,40,85,352,45,41,58,082,40,49,32,274,*7F
$GPGSV,5,5,17,50,10,089,*4A
$GLGSV,3,1,10,65,79,301,35,66,37,211,36,72,28,019,35,75,00,147,15*69
$GLGSV,3,2,10,76,23,197,32,77,20,247,26,85,03,122,20,86,23,071,38*63
$GLGSV,3,3,10,87,20,023,36,,,,40*59
$GNGLL,0419.71784,S,05539.45579,E,102202.00,A,D*6D
$GNRMC,102203.00,A,0419.71770,S,05539.45557,E,0.873,294.35,220525,,,D*6B
$GNVTG,294.35,T,,M,0.873,N,1.617,K,D*22
$GNGGA,102203.00,0419.71770,S,05539.45557,E,2,12,0.55,14.5,M,-47.6,M,,0000*43
$GNGSA,A,3,29,10,32,26,23,25,18,24,28,16,31,41,1.08,0.55,0.93*13
$GNGSA,A,3,65,86,87,72,66,76,77,,,,,,1.08,0.55,0.93*19
$GPGSV,5,1,17,10,40,313,37,15,04,037,33,16,16,297,28,18,20,025,44*75
$GPGSV,5,2,17,23,25,001,41,24,10,091,31,25,23,160,26,26,30,269,32*79
$GPGSV,5,3,17,28,21,201,37,29,54,107,41,31,09,225,28,32,60,195,41*75
$GPGSV,5,4,17,36,52,277,34,40,85,352,44,41,58,082,39,49,32,274,*71
$GPGSV,5,5,17,50,10,089,*4A
$GLGSV,3,1,10,65,79,301,35,66,37,211,36,72,28,019,31,75,00,147,15*6D
$GLGSV,3,2,10,76,23,197,31,77,20,247,23,85,03,122,20,86,23,071,40*6A
$GLGSV,3,3,10,87,20,023,39,,,,39*58
$GNGLL,0419.71770,S,05539.45557,E,102203.00,A,D*6B
$GNRMC,102204.00,A,0419.71755,S,05539.45540,E,0.673,298.11,220525,,,D*69
$GNVTG,298.11,T,,M,0.673,N,1.246,K,D*26
$GNGGA,102204.00,0419.71755,S,05539.45540,E,2,12,0.55,14.6,M,-47.6,M,,0000*46
$GNGSA,A,3,29,10,32,26,23,25,18,24,28,16,31,41,1.08,0.55,0.93*13
$GNGSA,A,3,65,86,87,72,66,76,77,,,,,,1.08,0.55,0.93*19
$GPGSV,5,1,17,10,40,313,37,15,04,037,33,16,16,297,27,18,20,025,44*7A
$GPGSV,5,2,17,23,25,001,44,24,10,091,32,25,23,160,25,26,30,269,26*79
$GPGSV,5,3,17,28,21,201,36,29,54,107,41,31,09,225,27,32,60,195,42*78
$GPGSV,5,4,17,36,52,277,35,40,85,352,44,41,58,082,39,49,32,274,*70
$GPGSV,5,5,17,50,10,089,*4A
$GLGSV,3,1,10,65,79,301,35,66,37,211,36,72,28,019,34,75,00,147,15*68
$GLGSV,3,2,10,76,23,197,30,77,20,247,25,85,03,122,19,86,23,071,39*69
$GLGSV,3,3,10,87,20,023,39,,,,41*57
$GNGLL,0419.71755,S,05539.45540,E,102204.00,A,D*6D
$GNRMC,102205.00,A,0419.71743,S,05539.45525,E,0.649,301.69,220525,,,D*6B
$GNVTG,301.69,T,,M,0.649,N,1.201,K,D*22
$GNGGA,102205.00,0419.71743,S,05539.45525,E,2,12,0.55,14.5,M,-47.6,M,,0000*40
$GNGSA,A,3,29,10,32,26,23,25,18,24,28,16,31,41,1.08,0.55,0.93*13
$GNGSA,A,3,65,86,87,72,66,76,77,,,,,,1.08,0.55,0.93*19
$GPGSV,5,1,17,10,40,313,34,15,04,037,36,16,16,297,26,18,20,025,43*7A
$GPGSV,5,2,17,23,25,001,42,24,10,091,34,25,23,160,25,26,30,269,28*77
$GPGSV,5,3,17,28,21,201,37,29,54,107,41,31,09,225,29,32,60,195,40*75
$GPGSV,5,4,17,36,52,277,36,40,85,352,44,41,58,082,38,49,32,274,*72
$GPGSV,5,5,17,50,10,089,*4A
$GLGSV,3,1,10,65,79,305,35,66,37,211,35,72,28,019,34,75,00,147,15*6F
$GLGSV,3,2,10,76,23,197,30,77,20,247,26,85,03,122,19,86,23,071,37*64
$GLGSV,3,3,10,87,20,023,39,,,,40*56
$GNGLL,0419.71743,S,05539.45525,E,102205.00,A,D*68
$GNRMC,102206.00,A,0419.71733,S,05539.45511,E,0.605,300.65,220525,,,D*6D
$GNVTG,300.65,T,,M,0.605,N,1.120,K,D*27
$GNGGA,102206.00,0419.71733,S,05539.45511,E,2,12,0.55,14.6,M,-47.6,M,,0000*40
$GNGSA,A,3,29,10,32,26,23,25,18,24,28,16,31,41,1.08,0.55,0.93*13
$GNGSA,A,3,65,86,87,72,66,76,77,,,,,,1.08,0.55,0.93*19
$GPGSV,5,1,17,10,40,313,26,15,04,037,35,16,16,297,25,18,20,025,44*7E
$GPGSV,5,2,17,23,25,001,39,24,10,091,35,25,23,160,26,26,30,269,28*79
$GPGSV,5,3,17,28,21,201,37,29,54,107,41,31,09,225,28,32,60,195,39*7A
$GPGSV,5,4,17,36,52,277,36,40,85,352,44,41,58,082,39,49,32,274,*73
$GPGSV,5,5,17,50,10,089,*4A
$GLGSV,3,1,10,65,79,305,35,66,37,212,34,72,28,019,36,75,00,147,15*6F
$GLGSV,3,2,10,76,23,197,31,77,20,247,27,85,03,122,,86,23,071,37*6C
$GLGSV,3,3,10,87,20,023,39,,,,40*56
$GNGLL,0419.71733,S,05539.45511,E,102206.00,A,D*6B
$GNRMC,102207.00,A,0419.71720,S,05539.45497,E,0.645,306.36,220525,,,D*65
$GNVTG,306.36,T,,M,0.645,N,1.194,K,D*2C
$GNGGA,102207.00,0419.71720,S,05539.45497,E,2,12,0.55,14.6,M,-47.6,M,,0000*4C
$GNGSA,A,3,29,10,32,26,23,25,18,24,28,16,31,41,1.08,0.55,0.93*13
$GNGSA,A,3,65,86,87,72,66,76,77,,,,,,1.08,0.55,0.93*19
$GPGSV,5,1,17,10,40,313,34,15,04,037,32,16,16,297,24,18,20,025,42*7D
$GPGSV,5,2,17,23,25,001,43,24,10,091,37,25,23,160,27,26,30,269,35*7B
$GPGSV,5,3,17,28,21,201,41,29,54,107,40,31,09,225,29,32,60,195,41*74
$GPGSV,5,4,17,36,52,277,37,40,85,352,44,41,58,082,39,49,32,274,*72
$GPGSV,5,5,17,50,10,089,*4A
$GLGSV,3,1,10,65,79,305,35,66,37,212,34,72,28,019,35,75,00,147,10*69
$GLGSV,3,2,10,76,23,197,32,77,20,247,26,85,03,122,,86,23,071,38*61
$GLGSV,3,3,10,87,20,023,38,,,,40*57
$GNGLL,0419.71720,S,05539.45497,E,102207.00,A,D*67
$GNRMC,102208.00,A,0419.71708,S,05539.45482,E,0.717,306.94,220525,,,D*6A
$GNVTG,306.94,T,,M,0.717,N,1.328,K,D*27
$GNGGA,102208.00,0419.71708,S,05539.45482,E,2,12,0.55,14.6,M,-47.6,M,,0000*4D
$GNGSA,A,3,29,10,32,26,23,25,18,24,28,16,31,41,1.08,0.55,0.93*13
$GNGSA,A,3,65,86,87,72,66,76,77,,,,,,1.08,0.55,0.93*19
$GPGSV,5,1,17,10,40,313,28,15,04,037,32,16,16,297,25,18,20,025,40*73
$GPGSV,5,2,17,23,25,001,41,24,10,091,30,25,23,160,27,26,30,269,29*73
$GPGSV,5,3,17,28,21,201,39,29,54,107,40,31,09,225,28,32,60,195,38*74
$GPGSV,5,4,17,36,52,277,37,40,85,352,42,41,58,082,38,49,32,274,*75
$GPGSV,5,5,17,50,10,089,*4A
$GLGSV,3,1,10,65,79,305,34,66,37,212,33,72,28,019,34,75,00,147,10*6E
$GLGSV,3,2,10,76,23,197,32,77,20,247,26,85,03,122,,86,23,071,35*6C
$GLGSV,3,3,10,87,20,023,35,,,,40*5A
$GNGLL,0419.71708,S,05539.45482,E,102208.00,A,D*66
$GNRMC,102209.00,A,0419.71695,S,05539.45469,E,0.624,311.45,220525,,,D*60
$GNVTG,311.45,T,,M,0.624,N,1.156,K,D*27
$GNGGA,102209.00,0419.71695,S,05539.45469,E,2,12,0.55,14.6,M,-47.6,M,,0000*4C
$GNGSA,A,3,29,10,32,26,23,25,18,24,28,16,31,41,1.08,0.55,0.93*13
$GNGSA,A,3,65,86,87,72,66,76,77,,,,,,1.08,0.55,0.93*19
$GPGSV,5,1,17,10,40,313,35,15,04,037,31,16,16,297,25,18,20,025,43*7F
$GPGSV,5,2,17,23,25,001,41,24,10,091,30,25,23,160,25,26,30,269,27*7F
$GPGSV,5,3,17,28,21,201,41,29,54,107,38,31,09,225,24,32,60,195,40*77
$GPGSV,5,4,17,36,52,277,33,40,85,352,43,41,58,082,37,49,32,274,*7F
$GPGSV,5,5,17,50,10,089,*4A
$GLGSV,3,1,10,65,79,305,35,66,37,212,33,72,28,019,35,75,00,147,11*6F
$GLGSV,3,2,10,76,23,197,31,77,20,247,25,85,03,122,,86,23,071,37*6E
$GLGSV,3,3,10,87,20,023,37,,,,41*59
$GNGLL,0419.71695,S,05539.45469,E,102209.00,A,D*67
$GNRMC,102210.00,A,0419.71680,S,05539.45453,E,0.771,309.71,220525,,,D*6A
$GNVTG,309.71,T,,M,0.771,N,1.429,K,D*25
$GNGGA,102210.00,0419.71680,S,05539.45453,E,2,12,0.55,14.7,M,-47.6,M,,0000*48
$GNGSA,A,3,29,10,32,26,23,25,18,24,28,16,31,41,1.08,0.55,0.93*13
$GNGSA,A,3,65,86,87,72,66,76,77,,,,,,1.08,0.55,0.93*19
$GPGSV,5,1,17,10,40,313,35,15,04,037,38,16,16,297,26,18,20,025,43*75
$GPGSV,5,2,17,23,25,001,43,24,10,091,35,25,23,160,27,26,30,269,34*78
$GPGSV,5,3,17,28,21,201,40,29,54,107,39,31,09,225,24,32,60,195,36*76
$GPGSV,5,4,17,36,52,277,33,40,85,352,45,41,58,082,38,49,32,274,*76
$GPGSV,5,5,17,50,10,089,*4A
$GLGSV,3,1,10,65,79,305,35,66,37,212,31,72,28,019,34,75,00,147,11*6C
$GLGSV,3,2,10,76,23,197,32,77,20,247,24,85,03,122,,86,23,071,37*6C
$GLGSV,3,3,10,87,20,023,37,,,,39*56
$GNGLL,0419.71680,S,05539.45453,E,102210.00,A,D*62
$GNRMC,102211.00,A,0419.71663,S,05539.45439,E,0.777,318.20,220525,,,D*68
$GNVTG,318.20,T,,M,0.777,N,1.440,K,D*28
$GNGGA,102211.00,0419.71663,S,05539.45439,E,2,12,0.55,14.8,M,-47.6,M,,0000*47
$GNGSA,A,3,29,10,32,26,23,25,18,24,28,16,31,41,1.08,0.55,0.93*13
$GNGSA,A,3,65,86,87,72,66,76,77,,,,,,1.08,0.55,0.93*19
$GPGSV,5,1,17,10,40,313,33,15,04,037,39,16,16,297,25,18,20,025,43*71
$GPGSV,5,2,17,23,25,001,40,24,10,091,36,25,23,160,29,26,30,269,33*71
$GPGSV,5,3,17,28,21,201,41,29,54,107,38,31,09,225,22,32,60,195,37*71
$GPGSV,5,4,17,36,52,277,35,40,85,352,45,41,58,082,40,49,32,274,*7F
$GPGSV,5,5,17,50,10,089,*4A
$GLGSV,3,1,10,65,79,305,36,66,37,212,32,72,28,019,37,75,00,147,12*6C
$GLGSV,3,2,10,76,23,197,33,77,20,247,22,85,03,122,,86,23,071,39*65
$GLGSV,3,3,10,87,20,023,38,,,,41*56
$GNGLL,0419.71663,S,05539.45439,E,102211.00,A,D*62
$GNRMC,102212.00,A,0419.71644,S,05539.45429,E,0.695,324.96,220525,,,D*60
$GNVTG,324.96,T,,M,0.695,N,1.287,K,D*2A
$GNGGA,102212.00,0419.71644,S,05539.45429,E,2,12,0.55,14.7,M,-47.6,M,,0000*4F
$GNGSA,A,3,29,10,32,26,23,25,18,24,28,16,31,41,1.08,0.55,0.93*13
$GNGSA,A,3,65,86,87,72,66,76,77,,,,,,1.08,0.55,0.93*19
$GPGSV,5,1,17,10,40,313,33,15,04,037,39,16,16,297,27,18,20,025,38*7F
$GPGSV,5,2,17,23,25,001,40,24,10,091,34,25,23,160,27,26,30,269,35*7B
$GPGSV,5,3,17,28,21,201,40,29,54,107,39,31,09,225,32,32,60,195,38*7F
$GPGSV,5,4,17,36,52,277,35,40,85,352,44,41,58,082,40,49,32,274,*7E
$GPGSV,5,5,17,50,10,089,*4A
$GLGSV,3,1,10,65,79,305,36,66,37,212,32,72,28,019,33,75,00,147,13*69
$GLGSV,3,2,10,76,23,197,28,77,20,247,22,85,03,122,,86,23,071,37*61
$GLGSV,3,3,10,87,20,023,37,,,,40*58
$GNGLL,0419.71644,S,05539.45429,E,102212.00,A,D*65
$GNRMC,102213.00,A,0419.71628,S,05539.45413,E,0.916,313.22,220525,,,D*6D
$GNVTG,313.22,T,,M,0.916,N,1.696,K,D*21
$GNGGA,102213.00,0419.71628,S,05539.45413,E,2,12,0.56,14.6,M,-47.6,M,,0000*4F
$GNGSA,A,3,29,10,32,26,23,25,18,24,28,16,31,41,1.08,0.56,0.93*10
$GNGSA,A,3,65,86,87,72,66,76,77,,,,,,1.08,0.56,0.93*1A
$GPGSV,5,1,17,10,40,313,38,15,04,037,38,16,16,297,32,18,20,025,39*70
$GPGSV,5,2,17,23,25,001,40,24,10,091,28,25,23,160,28,26,30,269,35*79
$GPGSV,5,3,17,28,21,201,38,29,54,107,41,31,09,225,30,32,60,195,40*72
$GPGSV,5,4,17,36,52,277,32,40,85,352,44,41,58,082,39,49,32,274,*77
$GPGSV,5,5,17,50,10,089,*4A
$GLGSV,3,1,10,65,79,305,36,66,37,212,22,72,28,019,33,75,00,147,12*69
$GLGSV,3,2,10,76,23,197,32,77,20,247,22,85,03,122,,86,23,071,36*6B
$GLGSV,3,3,10,87,20,023,35,,,,39*54
$GNGLL,0419.71628,S,05539.45413,E,102213.00,A,D*67
$GNRMC,102214.00,A,0419.71609,S,05539.45393,E,1.045,316.26,220525,,,D*69
$GNVTG,316.26,T,,M,1.045,N,1.936,K,D*2B
$GNGGA,102214.00,0419.71609,S,05539.45393,E,2,12,0.55,14.4,M,-47.6,M,,0000*45
$GNGSA,A,3,29,10,32,26,23,25,18,24,28,16,31,41,1.08,0.55,0.93*13
$GNGSA,A,3,65,86,87,72,66,76,77,,,,,,1.08,0.55,0.93*19
$GPGSV,5,1,17,10,40,313,34,15,04,037,38,16,16,297,30,18,20,025,42*72
$GPGSV,5,2,17,23,25,001,38,24,10,091,34,25,23,160,29,26,30,269,39*76
$GPGSV,5,3,17,28,21,201,38,29,54,107,39,31,09,225,29,32,60,195,41*74
$GPGSV,5,4,17,36,52,277,37,40,85,352,44,41,58,082,41,49,32,274,*7D
$GPGSV,5,5,17,50,10,089,*4A
$GLGSV,3,1,10,65,79,305,35,66,37,212,24,72,28,019,39,75,00,147,11*65
$GLGSV,3,2,10,76,23,197,32,77,20,247,23,85,03,122,,86,23,071,39*65
$GLGSV,3,3,10,87,20,023,37,,,,42*5A
$GNGLL,0419.71609,S,05539.45393,E,102214.00,A,D*6C
$GNRMC,102215.00,A,0419.71592,S,05539.45369,E,1.066,309.00,220525,,,D*67
$GNVTG,309.00,T,,M,1.066,N,1.973,K,D*21
$GNGGA,102215.00,0419.71592,S,05539.45369,E,2,12,0.55,14.4,M,-47.6,M,,0000*40
$GNGSA,A,3,29,10,32,26,23,25,18,24,28,16,31,41,1.08,0.55,0.93*13
$GNGSA,A,3,65,86,87,72,66,76,77,,,,,,1.08,0.55,0.93*19
$GPGSV,5,1,17,10,40,313,37,15,04,037,37,16,16,297,28,18,20,025,38*7A
$GPGSV,5,2,17,23,25,001,41,24,10,091,34,25,23,160,29,26,30,269,38*79
$GPGSV,5,3,17,28,21,201,38,29,54,107,39,31,09,225,34,32,60,195,40*79
$GPGSV,5,4,17,36,52,277,33,40,85,352,44,41,58,082,39,49,32,274,*76
$GPGSV,5,5,17,50,10,089,*4A
$GLGSV,3,1,10,65,79,305,35,66,37,212,34,72,28,019,35,75,00,146,13*6B
$GLGSV,3,2,10,76,23,197,31,77,20,247,24,85,03,122,,86,23,071,36*6E
$GLGSV,3,3,10,87,20,023,33,,,,37*5C
$GNGLL,0419.71592,S,05539.45369,E,102215.00,A,D*69
$GNRMC,102216.00,A,0419.71576,S,05539.45346,E,0.874,306.99,220525,,,D*66
$GNVTG,306.99,T,,M,0.874,N,1.619,K,D*27
$GNGGA,102216.00,0419.71576,S,05539.45346,E,2,12,0.55,14.4,M,-47.6,M,,0000*44
$GNGSA,A,3,29,10,32,26,23,25,18,24,28,16,31,41,1.08,0.55,0.93*13
$GNGSA,A,3,65,86,87,72,66,76,77,,,,,,1.08,0.55,0.93*19
$GPGSV,5,1,17,10,40,313,36,15,04,037,38,16,16,297,26,18,20,025,41*74
$GPGSV,5,2,17,23,25,001,39,24,10,091,38,25,23,160,30,26,30,269,38*72
$GPGSV,5,3,17,28,21,201,35,29,54,107,40,31,09,225,29,32,60,195,41*77
$GPGSV,5,4,17,36,52,277,33,40,85,352,43,41,58,082,42,49,32,274,*7D
$GPGSV,5,5,17,50,10,089,*4A
$GLGSV,3,1,10,65,79,305,35,66,37,212,34,72,28,019,33,75,00,146,13*6D
$GLGSV,3,2,10,76,23,197,31,77,20,247,24,85,03,122,,86,23,071,41*6E
$GLGSV,3,3,10,87,20,023,36,,,,40*59
$GNGLL,0419.71576,S,05539.45346,E,102216.00,A,D*6D
$GNRMC,102217.00,A,0419.71559,S,05539.45330,E,0.825,314.27,220525,,,D*69
$GNVTG,314.27,T,,M,0.825,N,1.528,K,D*24
$GNGGA,102217.00,0419.71559,S,05539.45330,E,2,12,0.55,14.5,M,-47.6,M,,0000*48
$GNGSA,A,3,29,10,32,26,23,25,18,24,28,16,31,41,1.08,0.55,0.93*13
$GNGSA,A,3,65,86,87,72,66,76,77,,,,,,1.08,0.55,0.93*19
$GPGSV,5,1,17,10,40,313,38,15,04,037,39,16,16,297,29,18,20,025,41*74
$GPGSV,5,2,17,23,25,001,43,24,10,091,33,25,23,160,35,26,30,269,34*7D
$GPGSV,5,3,17,28,21,201,39,29,54,107,40,31,09,225,31,32,60,195,39*7D
$GPGSV,5,4,17,36,52,277,37,40,85,352,45,41,58,082,40,49,32,274,*7D
$GPGSV,5,5,17,50,10,089,*4A
$GLGSV,3,1,10,65,79,305,35,66,37,212,34,72,28,019,35,75,00,146,14*6C
$GLGSV,3,2,10,76,23,197,31,77,20,246,25,85,03,122,,86,23,071,38*60
$GLGSV,3,3,10,87,20,023,36,,,,42*5B
$GNGLL,0419.71559,S,05539.45330,E,102217.00,A,D*60
$GNRMC,102218.00,A,0419.71541,S,05539.45320,E,0.679,321.65,220525,,,D*69
$GNVTG,321.65,T,,M,0.679,N,1.258,K,D*23
$GNGGA,102218.00,0419.71541,S,05539.45320,E,2,12,0.55,14.6,M,-47.6,M,,0000*4C
$GNGSA,A,3,29,10,32,26,23,25,18,24,28,16,31,41,1.08,0.55,0.93*13
$GNGSA,A,3,65,86,87,72,66,76,77,,,,,,1.08,0.55,0.93*19
$GPGSV,5,1,17,10,40,313,35,15,04,037,38,16,16,297,30,18,20,025,38*7E
$GPGSV,5,2,17,23,25,001,41,24,10,091,32,25,23,160,38,26,30,269,39*7E
$GPGSV,5,3,17,28,21,201,38,29,54,107,38,31,09,225,31,32,60,195,40*7D
$GPGSV,5,4,17,36,52,277,33,40,85,352,43,41,58,082,40,49,32,274,*7F
$GPGSV,5,5,17,50,10,089,*4A
$GLGSV,3,1,10,65,79,305,36,66,37,212,35,72,28,019,34,75,00,146,12*69
$GLGSV,3,2,10,76,23,197,29,77,20,246,24,85,03,122,,86,23,071,38*68
$GLGSV,3,3,10,87,20,023,34,,,,39*55
$GNGLL,0419.71541,S,05539.45320,E,102218.00,A,D*67
$GNRMC,102219.00,A,0419.71528,S,05539.45319,E,0.405,331.15,220525,,,D*62
$GNVTG,331.15,T,,M,0.405,N,0.750,K,D*20
$GNGGA,102219.00,0419.71528,S,05539.45319,E,2,12,0.55,14.7,M,-47.6,M,,0000*49
$GNGSA,A,3,29,10,32,26,23,25,18,24,28,16,31,41,1.08,0.55,0.93*13
$GNGSA,A,3,65,86,87,72,66,76,77,,,,,,1.08,0.55,0.93*19
$GPGSV,5,1,17,10,40,313,39,15,04,037,39,16,16,297,34,18,20,025,41*79
$GPGSV,5,2,17,23,25,001,36,24,10,091,37,25,23,160,35,26,30,269,39*76
$GPGSV,5,3,17,28,21,201,38,29,54,107,38,31,09,225,32,32,60,195,40*7E
$GPGSV,5,4,17,36,52,277,37,40,85,352,44,41,58,082,41,49,32,274,*7D
$GPGSV,5,5,17,50,10,089,*4A
$GLGSV,3,1,10,65,79,305,34,66,37,212,35,72,28,019,37,75,00,146,11*6B
$GLGSV,3,2,10,76,23,197,30,77,20,246,24,85,03,122,,86,23,071,38*60
$GLGSV,3,3,10,87,20,023,38,,,,40*57
$GNGLL,0419.71528,S,05539.45319,E,102219.00,A,D*63
$GNRMC,102220.00,A,0419.71513,S,05539.45317,E,0.574,345.25,220525,,,D*69
$GNVTG,345.25,T,,M,0.574,N,1.062,K,D*20
$GNGGA,102220.00,0419.71513,S,05539.45317,E,2,12,0.55,14.7,M,-47.6,M,,0000*45
$GNGSA,A,3,29,10,32,26,23,25,18,24,28,16,31,41,1.08,0.55,0.93*13
$GNGSA,A,3,65,86,87,72,66,76,77,,,,,,1.08,0.55,0.93*19
$GPGSV,5,1,17,10,40,313,36,15,04,037,40,16,16,297,31,18,20,025,37*7C
$GPGSV,5,2,17,23,25,001,43,24,10,091,38,25,23,160,33,26,30,269,40*73
$GPGSV,5,3,17,28,21,201,40,29,54,107,38,31,09,225,34,32,60,195,39*79
$GPGSV,5,4,17,36,52,277,32,40,85,352,43,41,58,082,39,49,32,274,*70
$GPGSV,5,5,17,50,10,089,*4A
$GLGSV,3,1,10,65,79,305,34,66,37,212,35,72,28,019,36,75,00,146,14*6F
$GLGSV,3,2,10,76,23,197,31,77,20,246,23,85,03,122,,86,23,071,36*68
$GLGSV,3,3,10,87,20,023,35,,,,38*55
$GNGLL,0419.71513,S,05539.45317,E,102220.00,A,D*6F
$GNRMC,102221.00,A,0419.71497,S,05539.45310,E,0.663,335.97,220525,,,D*69
$GNVTG,335.97,T,,M,0.663,N,1.227,K,D*28
$GNGGA,102221.00,0419.71497,S,05539.45310,E,2,12,0.55,14.7,M,-47.6,M,,0000*4E
$GNGSA,A,3,29,10,32,26,23,25,18,24,28,16,31,41,1.08,0.55,0.93*13
$GNGSA,A,3,65,86,87,72,66,76,77,,,,,,1.08,0.55,0.93*19
$GPGSV,5,1,17,10,40,313,39,15,04,037,40,16,16,297,24,18,20,025,42*75
$GPGSV,5,2,17,23,25,001,40,24,10,091,38,25,23,160,29,26,30,269,37*7B
$GPGSV,5,3,17,28,21,201,37,29,54,107,35,31,09,225,30,32,60,195,40*7E
$GPGSV,5,4,17,36,52,277,36,40,85,352,45,41,58,082,41,49,32,274,*7D
$GPGSV,5,5,17,50,10,089,*4A
$GLGSV,3,1,10,65,79,305,34,66,37,212,35,72,28,019,37,75,00,146,12*68
$GLGSV,3,2,10,76,23,197,32,77,20,246,22,85,03,122,,86,23,071,32*6E
$GLGSV,3,3,10,87,20,023,40,,,,42*5A
$GNGLL,0419.71497,S,05539.45310,E,102221.00,A,D*64
$GNRMC,102222.00,A,0419.71474,S,05539.45307,E,0.927,346.85,220525,,,D*69
$GNVTG,346.85,T,,M,0.927,N,1.717,K,D*26
$GNGGA,102222.00,0419.71474,S,05539.45307,E,2,12,0.55,14.6,M,-47.6,M,,0000*47
$GNGSA,A,3,29,10,32,26,23,25,18,24,28,16,31,41,1.08,0.55,0.93*13
$GNGSA,A,3,65,86,87,72,66,76,77,,,,,,1.08,0.55,0.93*19
$GPGSV,5,1,17,10,40,313,36,15,04,037,40,16,16,297,23,18,20,025,40*7F
$GPGSV,5,2,17,23,25,001,42,24,10,091,38,25,23,160,36,26,30,269,40*77
$GPGSV,5,3,17,28,21,201,36,29,54,107,38,31,09,225,31,32,60,195,40*73
$GPGSV,5,4,17,36,52,277,40,40,85,352,44,41,58,082,38,49,32,274,*73
$GPGSV,5,5,17,50,10,089,*4A
$GLGSV,3,1,10,65,79,305,34,66,37,212,33,72,28,019,36,75,00,146,12*6F
$GLGSV,3,2,10,76,23,197,24,77,20,246,24,85,03,122,,86,23,071,35*68
$GLGSV,3,3,10,87,20,023,36,,,,40*59
$GNGLL,0419.71474,S,05539.45307,E,102222.00,A,D*6C
$GNRMC,102223.00,A,0419.71453,S,05539.45303,E,0.674,346.10,220525,,,D*6C
$GNVTG,346.10,T,,M,0.674,N,1.249,K,D*2D
$GNGGA,102223.00,0419.71453,S,05539.45303,E,2,12,0.55,14.6,M,-47.6,M,,0000*47
$GNGSA,A,3,29,10,32,26,23,25,18,24,28,16,31,41,1.08,0.55,0.93*13
$GNGSA,A,3,65,86,87,72,66,76,77,,,,,,1.08,0.55,0.93*19
$GPGSV,5,1,17,10,40,313,36,15,04,037,39,16,16,297,26,18,20,025,38*7B
$GPGSV,5,2,17,23,25,001,41,24,10,091,37,25,23,160,32,26,30,269,40*7F
$GPGSV,5,3,17,28,21,201,36,29,54,107,39,31,09,225,32,32,60,195,42*73
$GPGSV,5,4,17,36,52,277,38,40,85,352,44,41,58,082,39,49,32,274,*7D
$GPGSV,5,5,17,50,10,089,*4A
$GLGSV,3,1,10,65,79,305,35,66,37,212,33,72,28,019,35,75,00,146,12*6D
$GLGSV,3,2,10,76,23,197,25,77,20,246,26,85,03,122,,86,23,071,35*6B
$GLGSV,3,3,10,87,20,023,35,,,,39*54
$GNGLL,0419.71453,S,05539.45303,E,102223.00,A,D*6C
$GNRMC,102224.00,A,0419.71430,S,05539.45292,E,0.983,335.19,220525,,,D*6D
$GNVTG,335.19,T,,M,0.983,N,1.821,K,D*23
$GNGGA,102224.00,0419.71430,S,05539.45292,E,2,12,0.55,14.5,M,-47.6,M,,0000*4F
$GNGSA,A,3,29,10,32,26,23,25,18,24,28,16,31,41,1.08,0.55,0.93*13
$GNGSA,A,3,65,86,87,72,66,76,77,,,,,,1.08,0.55,0.93*19
$GPGSV,5,1,17,10,40,313,38,15,04,037,39,16,16,297,24,18,20,025,42*7A
$GPGSV,5,2,17,23,25,001,38,24,10,091,36,25,23,160,32,26,30,269,36*71
$GPGSV,5,3,17,28,21,201,40,29,54,107,36,31,09,225,32,32,60,195,39*71
$GPGSV,5,4,17,36,52,277,33,40,85,352,43,41,58,082,39,49,32,274,*71
$GPGSV,5,5,17,50,10,089,*4A
$GLGSV,3,1,10,65,79,305,33,66,37,212,33,72,28,019,37,75,00,146,12*69
$GLGSV,3,2,10,76,23,197,33,77,20,246,26,85,03,122,,86,23,071,36*6F
$GLGSV,3,3,10,87,20,023,39,,,,42*54
$GNGLL,0419.71430,S,05539.45292,E,102224.00,A,D*67
$GNRMC,102225.00,A,0419.71407,S,05539.45275,E,0.964,330.16,220525,,,D*62
$GNVTG,330.16,T,,M,0.964,N,1.785,K,D*21
$GNGGA,102225.00,0419.71407,S,05539.45275,E,2,12,0.55,14.3,M,-47.6,M,,0000*45
$GNGSA,A,3,29,10,32,26,23,25,18,24,28,16,31,41,1.08,0.55,0.93*13
$GNGSA,A,3,65,86,87,72,66,76,77,,,,,,1.08,0.55,0.93*19
$GPGSV,5,1,17,10,40,313,35,15,04,037,39,16,16,297,32,18,20,025,37*72
$GPGSV,5,2,17,23,25,001,41,24,10,091,36,25,23,160,24,26,30,269,32*7C
$GPGSV,5,3,17,28,21,201,37,29,54,107,33,31,09,225,33,32,60,195,38*74
$GPGSV,5,4,17,36,52,277,32,40,85,352,42,41,58,082,37,49,32,274,*7F
$GPGSV,5,5,17,50,10,089,*4A
$GLGSV,3,1,10,65,79,305,34,66,37,212,24,72,28,019,36,75,00,146,14*6F
$GLGSV,3,2,10,76,23,197,24,77,20,246,25,85,03,123,,86,23,071,39*64
$GLGSV,3,3,10,87,20,023,37,,,,42*5A
$GNGLL,0419.71407,S,05539.45275,E,102225.00,A,D*6B
$GNRMC,102226.00,A,0419.71386,S,05539.45260,E,0.948,329.79,220525,,,D*64
$GNVTG,329.79,T,,M,0.948,N,1.757,K,D*21
$GNGGA,102226.00,0419.71386,S,05539.45260,E,2,12,0.55,14.2,M,-47.6,M,,0000*4D
$GNGSA,A,3,29,10,32,26,23,25,18,24,28,16,31,41,1.08,0.55,0.93*13
$GNGSA,A,3,65,86,87,72,66,76,77,,,,,,1.08,0.55,0.93*19
$GPGSV,5,1,17,10,40,313,36,15,04,037,40,16,16,297,31,18,20,025,42*7E
$GPGSV,5,2,17,23,25,001,38,24,10,091,35,25,23,160,34,26,30,269,36*74
$GPGSV,5,3,17,28,21,201,34,29,54,107,35,31,09,225,33,32,60,195,40*7E
$GPGSV,5,4,17,36,52,277,33,40,85,352,42,41,58,082,37,49,32,274,*7E
$GPGSV,5,5,17,50,10,089,*4A
$GLGSV,3,1,10,65,79,305,34,66,37,212,36,72,28,019,35,75,00,146,15*6E
$GLGSV,3,2,10,76,23,197,34,77,20,246,24,85,03,123,10,86,24,071,40*6C
$GLGSV,3,3,10,87,20,023,39,,,,42*54
$GNGLL,0419.71386,S,05539.45260,E,102226.00,A,D*62
$GNRMC,102227.00,A,0419.71366,S,05539.45247,E,0.790,329.47,220525,,,D*68
$GNVTG,329.47,T,,M,0.790,N,1.464,K,D*24
$GNGGA,102227.00,0419.71366,S,05539.45247,E,2,12,0.55,14.1,M,-47.6,M,,0000*44
$GNGSA,A,3,29,10,32,26,23,25,18,24,28,16,31,41,1.08,0.55,0.93*13
$GNGSA,A,3,65,86,87,72,66,76,77,,,,,,1.08,0.55,0.93*19
$GPGSV,5,1,17,10,40,313,36,15,04,037,39,16,16,297,29,18,20,025,38*74
$GPGSV,5,2,17,23,25,001,36,24,10,091,34,25,23,160,32,26,30,269,37*7C
$GPGSV,5,3,17,28,21,201,35,29,54,107,39,31,09,225,32,32,60,195,40*72
$GPGSV,5,4,17,36,52,277,32,40,85,352,42,41,58,082,39,49,32,274,*71
$GPGSV,5,5,17,50,10,089,*4A
$GLGSV,3,1,10,65,79,305,35,66,37,212,31,72,28,019,33,75,00,146,15*6E
$GLGSV,3,2,10,76,23,197,32,77,20,246,23,85,03,123,,86,24,071,40*6C
$GLGSV,3,3,10,87,20,024,36,,,,38*51
$GNGLL,0419.71366,S,05539.45247,E,102227.00,A,D*68
$GNRMC,102228.00,A,0419.71346,S,05539.45234,E,0.896,327.28,220525,,,D*6F
$GNVTG,327.28,T,,M,0.896,N,1.659,K,D*26
$GNGGA,102228.00,0419.71346,S,05539.45234,E,2,12,0.55,14.1,M,-47.6,M,,0000*4D
$GNGSA,A,3,29,10,32,26,23,25,18,24,28,16,31,41,1.08,0.55,0.93*13
$GNGSA,A,3,65,86,87,72,66,76,77,,,,,,1.08,0.55,0.93*19
$GPGSV,5,1,17,10,40,313,36,15,04,037,38,16,16,297,28,18,20,025,43*78
$GPGSV,5,2,17,23,25,001,39,24,10,091,32,25,23,160,34,26,30,269,40*73
$GPGSV,5,3,17,28,21,201,37,29,54,107,36,31,09,225,33,32,60,195,36*7F
$GPGSV,5,4,17,36,52,277,33,40,85,352,43,41,58,082,37,49,32,274,*7F
$GPGSV,5,5,17,50,10,089,*4A
$GLGSV,3,1,10,65,79,305,33,66,37,212,34,72,28,019,34,75,00,146,14*6B
$GLGSV,3,2,10,76,23,197,32,77,20,246,24,85,03,123,,86,24,071,40*6B
$GLGSV,3,3,10,87,20,024,39,,,,42*53
$GNGLL,0419.71346,S,05539.45234,E,102228.00,A,D*61
$GNRMC,102229.00,A,0419.71330,S,05539.45223,E,0.648,324.85,220525,,,D*60
$GNVTG,324.85,T,,M,0.648,N,1.199,K,D*24
$GNGGA,102229.00,0419.71330,S,05539.45223,E,2,12,0.55,14.2,M,-47.6,M,,0000*48
$GNGSA,A,3,29,10,32,26,23,25,18,24,28,16,31,41,1.08,0.55,0.93*13
$GNGSA,A,3,65,86,87,72,66,76,77,,,,,,1.08,0.55,0.93*19
$GPGSV,5,1,17,10,40,313,36,15,04,037,41,16,16,297,29,18,20,025,41*75
$GPGSV,5,2,17,23,25,001,37,24,10,091,32,25,23,160,35,26,30,269,40*7C
$GPGSV,5,3,17,28,21,201,33,29,54,107,38,31,09,225,34,32,60,195,39*7D
$GPGSV,5,4,17,36,52,277,34,40,85,352,43,41,58,082,40,49,32,274,*78
$GPGSV,5,5,17,50,10,089,*4A
$GLGSV,3,1,10,65,79,305,35,66,37,212,34,72,28,019,34,75,00,146,14*6D
$GLGSV,3,2,10,76,23,197,31,77,20,246,25,85,03,123,,86,24,071,40*69
$GLGSV,3,3,10,87,20,024,37,,,,40*5F
$GNGLL,0419.71330,S,05539.45223,E,102229.00,A,D*67
$GNRMC,102230.00,A,0419.71313,S,05539.45219,E,0.585,331.04,220525,,,D*6F
$GNVTG,331.04,T,,M,0.585,N,1.083,K,D*21
$GNGGA,102230.00,0419.71313,S,05539.45219,E,2,12,0.55,14.4,M,-47.6,M,,0000*4E
$GNGSA,A,3,29,10,32,26,23,25,18,24,28,16,31,41,1.08,0.55,0.93*13
$GNGSA,A,3,65,86,87,72,66,76,77,,,,,,1.08,0.55,0.93*19
$GPGSV,5,1,17,10,40,313,35,15,04,037,42,16,16,297,29,18,20,025,41*75
$GPGSV,5,2,17,23,25,001,42,24,10,091,33,25,23,160,34,26,30,269,41*7F
$GPGSV,5,3,17,28,21,201,37,29,54,107,39,31,09,225,32,32,60,195,36*71
$GPGSV,5,4,17,36,52,277,37,40,85,352,45,41,58,082,35,49,32,274,*7F
$GPGSV,5,5,17,50,10,089,*4A
$GLGSV,3,1,10,65,79,305,34,66,37,212,34,72,28,019,34,75,00,146,12*6A
$GLGSV,3,2,10,76,23,197,32,77,20,246,26,85,03,123,,86,24,071,39*67
$GLGSV,3,3,10,87,20,024,37,,,,40*5F
$GNGLL,0419.71313,S,05539.45219,E,102230.00,A,D*67
$GNRMC,102231.00,A,0419.71294,S,05539.45219,E,0.786,349.24,220525,,,D*6C
$GNVTG,349.24,T,,M,0.786,N,1.457,K,D*20
$GNGGA,102231.00,0419.71294,S,05539.45219,E,2,12,0.55,14.5,M,-47.6,M,,0000*40
$GNGSA,A,3,29,10,32,26,23,25,18,24,28,16,31,41,1.08,0.55,0.93*13
$GNGSA,A,3,65,86,87,72,66,76,77,,,,,,1.08,0.55,0.93*19
$GPGSV,5,1,17,10,40,313,34,15,04,037,42,16,16,297,27,18,20,025,42*79
$GPGSV,5,2,17,23,25,001,36,24,10,091,33,25,23,160,34,26,30,269,41*7C
$GPGSV,5,3,17,28,21,201,40,29,54,107,36,31,09,225,19,32,60,195,37*76
$GPGSV,5,4,17,36,52,277,35,40,85,352,43,41,58,082,39,49,32,274,*77
$GPGSV,5,5,17,50,10,089,*4A
$GLGSV,3,1,10,65,79,305,34,66,37,212,34,72,28,019,37,75,00,146,15*6E
$GLGSV,3,2,10,76,23,197,30,77,20,246,26,85,03,123,,86,24,071,39*65
$GLGSV,3,3,10,87,20,024,38,,,,40*50
$GNGLL,0419.71294,S,05539.45219,E,102231.00,A,D*68
$GNRMC,102232.00,A,0419.71269,S,05539.45226,E,1.093,2.93,220525,,,D*63
$GNVTG,2.93,T,,M,1.093,N,2.024,K,D*21
$GNGGA,102232.00,0419.71269,S,05539.45226,E,2,12,0.55,14.8,M,-47.6,M,,0000*40
$GNGSA,A,3,29,10,32,26,23,25,18,24,28,16,31,41,1.08,0.55,0.93*13
$GNGSA,A,3,65,86,87,72,66,76,77,,,,,,1.08,0.55,0.93*19
$GPGSV,5,1,17,10,40,313,35,15,04,037,43,16,16,297,26,18,20,025,43*79
$GPGSV,5,2,17,23,25,001,37,24,10,091,31,25,23,160,37,26,30,269,42*7F
$GPGSV,5,3,17,28,21,201,39,29,54,107,39,31,09,225,21,32,60,195,36*7D
$GPGSV,5,4,17,36,52,277,39,40,85,352,44,41,58,082,36,49,32,274,*73
$GPGSV,5,5,17,50,10,089,*4A
$GLGSV,3,1,10,65,79,305,34,66,37,212,34,72,28,019,38,75,00,146,12*66
$GLGSV,3,2,10,76,23,197,32,77,20,246,25,85,03,123,,86,24,071,36*6B
$GLGSV,3,3,10,87,20,024,38,,,,39*5E
$GNGLL,0419.71269,S,05539.45226,E,102232.00,A,D*65
$GNRMC,102233.00,A,0419.71245,S,05539.45229,E,0.767,2.90,220525,,,D*6D
$GNVTG,2.90,T,,M,0.767,N,1.421,K,D*2D
$GNGGA,102233.00,0419.71245,S,05539.45229,E,2,12,0.55,14.6,M,-47.6,M,,0000*4E
$GNGSA,A,3,29,10,32,26,23,25,18,24,28,16,31,41,1.08,0.55,0.93*13
$GNGSA,A,3,65,86,87,72,66,76,77,,,,,,1.08,0.55,0.93*19
$GPGSV,5,1,17,10,40,313,36,15,04,037,40,16,16,297,28,18,20,025,37*74
$GPGSV,5,2,17,23,25,001,37,24,10,091,30,25,23,160,34,26,30,269,40*7F
$GPGSV,5,3,17,28,21,201,36,29,54,107,41,31,09,225,32,32,60,195,41*7F
$GPGSV,5,4,17,36,52,277,35,40,85,352,42,41,58,082,40,49,32,274,*78
$GPGSV,5,5,17,50,10,089,*4A
$GLGSV,3,1,10,65,79,305,35,66,37,212,35,72,28,019,35,75,00,146,12*6B
$GLGSV,3,2,10,76,23,197,31,77,20,246,23,85,03,123,,86,24,071,35*6D
$GLGSV,3,3,10,87,20,024,34,,,,36*5D
$GNGLL,0419.71245,S,05539.45229,E,102233.00,A,D*65
$GNRMC,102234.00,A,0419.71227,S,05539.45227,E,0.777,346.16,220525,,,D*6C
$GNVTG,346.16,T,,M,0.777,N,1.439,K,D*28
$GNGGA,102234.00,0419.71227,S,05539.45227,E,2,12,0.55,14.4,M,-47.6,M,,0000*41
$GNGSA,A,3,29,10,32,26,23,25,18,24,28,16,31,41,1.08,0.55,0.93*13
$GNGSA,A,3,65,86,87,72,66,76,77,,,,,,1.08,0.55,0.93*19
$GPGSV,5,1,17,10,40,313,33,15,04,037,40,16,16,297,26,18,20,025,43*7C
$GPGSV,5,2,17,23,25,001,38,24,10,091,25,25,23,160,35,26,30,269,41*74
$GPGSV,5,3,17,28,21,201,38,29,54,107,40,31,09,225,29,32,60,195,41*7A
$GPGSV,5,4,17,36,52,277,40,40,85,352,44,41,58,082,38,49,32,274,*73
$GPGSV,5,5,17,50,10,089,*4A
$GLGSV,3,1,10,65,79,305,34,66,37,212,35,72,28,019,38,75,00,146,09*6D
$GLGSV,3,2,10,76,23,197,33,77,20,246,23,85,03,123,,86,24,071,37*6D
$GLGSV,3,3,10,87,20,024,39,,,,41*50
$GNGLL,0419.71227,S,05539.45227,E,102234.00,A,D*68
$GNRMC,102235.00,A,0419.71206,S,05539.45220,E,0.792,340.62,220525,,,D*67
$GNVTG,340.62,T,,M,0.792,N,1.467,K,D*2D
$GNGGA,102235.00,0419.71206,S,05539.45220,E,2,12,0.55,14.3,M,-47.6,M,,0000*43
$GNGSA,A,3,29,10,32,26,23,25,18,24,28,16,31,41,1.08,0.55,0.93*13
$GNGSA,A,3,65,86,87,72,66,76,77,,,,,,1.08,0.55,0.93*19
$GPGSV,5,1,17,10,40,313,33,15,04,037,37,16,16,297,24,18,20,025,35*7F
$GPGSV,5,2,17,23,25,001,38,24,10,091,30,25,23,160,31,26,30,269,40*75
$GPGSV,5,3,17,28,21,201,35,29,54,107,38,31,09,225,32,32,60,195,39*7D
$GPGSV,5,4,17,36,52,277,37,40,85,352,41,41,58,082,39,49,32,274,*77
$GPGSV,5,5,17,50,10,089,*4A
$GLGSV,3,1,10,65,79,305,35,66,37,212,36,72,28,019,32,75,00,146,09*65
$GLGSV,3,2,10,76,23,197,27,77,20,246,23,85,03,123,,86,24,071,36*69
$GLGSV,3,3,10,87,20,024,35,,,,36*5C
$GNGLL,0419.71206,S,05539.45220,E,102235.00,A,D*6D
$GNRMC,102236.00,A,0419.71192,S,05539.45213,E,0.618,334.56,220525,,,D*6D
$GNVTG,334.56,T,,M,0.618,N,1.144,K,D*2E
$GNGGA,102236.00,0419.71192,S,05539.45213,E,2,12,0.55,14.3,M,-47.6,M,,0000*4E
$GNGSA,A,3,29,10,32,26,23,25,18,24,28,16,31,41,1.08,0.55,0.93*13
$GNGSA,A,3,65,86,87,72,66,76,77,,,,,,1.08,0.55,0.93*19
$GPGSV,5,1,17,10,40,313,36,15,04,037,37,16,16,297,25,18,20,025,41*78
$GPGSV,5,2,17,23,25,001,34,24,10,091,30,25,23,160,32,26,30,269,40*7A
$GPGSV,5,3,17,28,21,201,35,29,54,107,39,31,09,225,30,32,60,195,39*7E
$GPGSV,5,4,17,36,52,277,37,40,85,352,42,41,58,082,39,49,32,274,*74
$GPGSV,5,5,17,50,10,089,*4A
$GLGSV,3,1,10,65,79,305,34,66,37,212,36,72,28,019,36,75,00,146,09*60
$GLGSV,3,2,10,76,23,197,30,77,20,246,23,85,03,123,,86,24,071,38*61
$GLGSV,3,3,10,87,20,024,37,,,,39*51
$GNGLL,0419.71192,S,05539.45213,E,102236.00,A,D*60
$GNRMC,102237.00,A,0419.71173,S,05539.45210,E,0.837,345.47,220525,,,D*65
$GNVTG,345.47,T,,M,0.837,N,1.550,K,D*2A
$GNGGA,102237.00,0419.71173,S,05539.45210,E,2,12,0.55,14.4,M,-47.6,M,,0000*44
$GNGSA,A,3,29,10,32,26,23,25,18,24,28,16,31,41,1.08,0.55,0.93*13
$GNGSA,A,3,65,86,87,72,66,76,77,,,,,,1.08,0.55,0.93*19
$GPGSV,5,1,17,10,40,313,36,15,04,037,38,16,16,297,27,18,20,025,40*74
$GPGSV,5,2,17,23,25,001,39,24,10,091,32,25,23,160,35,26,30,269,39*7C
$GPGSV,5,3,17,28,21,201,36,29,54,107,37,31,09,225,29,32,60,195,36*74
$GPGSV,5,4,17,36,52,277,34,40,85,352,42,41,58,082,38,49,32,274,*76
$GPGSV,5,5,17,50,10,089,*4A
$GLGSV,3,1,10,65,79,305,33,66,37,212,35,72,28,019,35,75,00,146,14*6B
$GLGSV,3,2,10,76,23,197,31,77,20,246,25,85,03,123,,86,24,071,39*67
$GLGSV,3,3,10,87,20,024,37,,,,40*5F
$GNGLL,0419.71173,S,05539.45210,E,102237.00,A,D*6D
$GNRMC,102238.00,A,0419.71148,S,05539.45210,E,0.959,350.15,220525,,,D*68
$GNVTG,350.15,T,,M,0.959,N,1.776,K,D*26
$GNGGA,102238.00,0419.71148,S,05539.45210,E,2,12,0.55,14.5,M,-47.6,M,,0000*42
$GNGSA,A,3,29,10,32,26,23,25,18,24,28,16,31,41,1.08,0.55,0.93*13
$GNGSA,A,3,65,86,87,72,66,76,77,,,,,,1.08,0.55,0.93*19
$GPGSV,5,1,17,10,40,314,35,15,04,037,39,16,16,297,27,18,20,025,40*71
$GPGSV,5,2,17,23,25,001,35,24,10,091,34,25,23,160,34,26,30,269,39*77
$GPGSV,5,3,17,28,21,201,29,29,54,107,39,31,09,225,29,32,60,195,39*7B
$GPGSV,5,4,17,36,52,277,38,40,85,352,41,41,58,082,40,49,32,274,*76
$GPGSV,5,5,17,50,10,089,*4A
$GLGSV,3,1,10,65,79,305,32,66,37,212,34,72,28,019,35,75,00,146,14*6B
$GLGSV,3,2,10,76,23,197,25,77,20,246,26,85,03,123,,86,24,071,37*6F
$GLGSV,3,3,10,87,20,024,36,,,,40*5E
$GNGLL,0419.71148,S,05539.45210,E,102238.00,A,D*6A
$GNRMC,102239.00,A,0419.71125,S,05539.45207,E,0.906,346.00,220525,,,D*6D
$GNVTG,346.00,T,,M,0.906,N,1.678,K,D*20
$GNGGA,102239.00,0419.71125,S,05539.45207,E,2,12,0.55,14.5,M,-47.6,M,,0000*4E
$GNGSA,A,3,29,10,32,26,23,25,18,24,28,16,31,41,1.08,0.55,0.93*13
$GNGSA,A,3,65,86,87,72,66,76,77,,,,,,1.08,0.55,0.93*19
$GPGSV,5,1,17,10,40,314,37,15,04,037,40,16,16,297,32,18,20,025,37*79
$GPGSV,5,2,17,23,25,001,39,24,10,091,35,25,23,160,37,26,30,269,41*76
$GPGSV,5,3,17,28,21,201,37,29,54,107,39,31,09,225,34,32,60,195,36*77
$GPGSV,5,4,17,36,52,277,32,40,85,352,42,41,58,082,37,49,32,274,*7F
$GPGSV,5,5,17,50,10,089,*4A
$GLGSV,3,1,10,65,79,305,32,66,37,212,34,72,28,019,34,75,00,146,11*6F
$GLGSV,3,2,10,76,23,197,24,77,20,246,26,85,03,123,,86,24,071,38*61
$GLGSV,3,3,10,87,20,024,36,,,,38*51
$GNGLL,0419.71125,S,05539.45207,E,102239.00,A,D*66
$GNRMC,102240.00,A,0419.71099,S,05539.45206,E,0.916,351.94,220525,,,D*6E
$GNVTG,351.94,T,,M,0.916,N,1.697,K,D*2B
$GNGGA,102240.00,0419.71099,S,05539.45206,E,2,12,0.55,14.5,M,-47.6,M,,0000*47
$GNGSA,A,3,29,10,32,26,23,25,18,24,28,16,31,41,1.08,0.55,0.93*13
$GNGSA,A,3,65,86,87,72,66,76,77,,,,,,1.08,0.55,0.93*19
$GPGSV,5,1,17,10,40,314,34,15,04,037,40,16,16,297,30,18,20,025,40*78
$GPGSV,5,2,17,23,25,001,37,24,10,091,36,25,23,160,34,26,30,269,41*78
$GPGSV,5,3,17,28,21,201,30,29,54,107,38,31,09,225,39,32,60,195,41*7C
$GPGSV,5,4,17,36,52,277,38,40,85,352,40,41,58,082,42,49,32,274,*75
$GPGSV,5,5,17,50,10,089,*4A
$GLGSV,3,1,10,65,79,305,33,66,37,212,34,72,28,019,35,75,00,146,15*6B
$GLGSV,3,2,10,76,23,197,25,77,20,246,25,85,03,123,08,86,24,071,37*64
$GLGSV,3,3,10,87,20,024,38,,,,40*50
$GNGLL,0419.71099,S,05539.45206,E,102240.00,A,D*6F
$GNRMC,102241.00,A,0419.71085,S,05539.45207,E,0.473,351.31,220525,,,D*62
$GNVTG,351.31,T,,M,0.473,N,0.876,K,D*2A
$GNGGA,102241.00,0419.71085,S,05539.45207,E,2,12,0.55,14.4,M,-47.6,M,,0000*4B
$GNGSA,A,3,29,10,32,26,23,25,18,24,28,16,31,41,1.08,0.55,0.93*13
$GNGSA,A,3,65,86,87,72,66,76,77,,,,,,1.08,0.55,0.93*19
$GPGSV,5,1,17,10,40,314,37,15,04,037,40,16,16,297,32,18,20,025,37*79
$GPGSV,5,2,17,23,25,001,40,24,10,091,35,25,23,160,36,26,30,269,40*78
$GPGSV,5,3,17,28,21,201,34,29,54,107,40,31,09,225,24,32,60,195,38*75
$GPGSV,5,4,17,36,52,277,36,40,85,352,42,41,58,082,39,49,32,274,*75
$GPGSV,5,5,17,50,10,089,*4A
$GLGSV,3,1,10,65,79,305,33,66,37,212,34,72,28,019,37,75,00,146,15*69
$GLGSV,3,2,10,76,23,197,22,77,20,246,25,85,03,123,18,86,24,071,34*61
$GLGSV,3,3,10,87,20,024,33,,,,37*5B
$GNGLL,0419.71085,S,05539.45207,E,102241.00,A,D*62
$GNRMC,102242.00,A,0419.71071,S,05539.45205,E,0.704,349.08,220525,,,D*68
$GNVTG,349.08,T,,M,0.704,N,1.304,K,D*25
$GNGGA,102242.00,0419.71071,S,05539.45205,E,2,12,0.55,14.4,M,-47.6,M,,0000*41
$GNGSA,A,3,29,10,32,26,23,25,18,24,28,16,31,41,1.08,0.55,0.93*13
$GNGSA,A,3,65,86,87,72,66,76,77,,,,,,1.08,0.55,0.93*19
$GPGSV,5,1,17,10,40,314,36,15,04,037,41,16,16,297,32,18,20,025,41*78
$GPGSV,5,2,17,23,25,001,36,24,10,091,35,25,23,160,36,26,30,269,41*78
$GPGSV,5,3,17,28,21,201,37,29,54,107,39,31,09,225,31,32,60,195,38*7C
$GPGSV,5,4,17,36,52,277,34,40,85,352,44,41,58,082,41,49,32,274,*7E
$GPGSV,5,5,17,50,10,089,*4A
$GLGSV,3,1,10,65,79,305,33,66,37,212,33,72,28,019,38,75,00,146,12*66
$GLGSV,3,2,10,76,23,197,23,77,20,246,25,85,03,123,21,86,24,071,37*69
$GLGSV,3,3,10,87,20,024,38,,,,40*50
$GNGLL,0419.71071,S,05539.45205,E,102242.00,A,D*68
$GNRMC,102243.00,A,0419.71053,S,05539.45207,E,0.733,357.25,220525,,,D*6F
$GNVTG,357.25,T,,M,0.733,N,1.358,K,D*28
$GNGGA,102243.00,0419.71053,S,05539.45207,E,2,12,0.55,14.3,M,-47.6,M,,0000*45
$GNGSA,A,3,29,10,32,26,23,25,18,24,28,16,31,41,1.08,0.55,0.93*13
$GNGSA,A,3,65,86,87,72,66,76,77,,,,,,1.08,0.55,0.93*19
$GPGSV,5,1,17,10,40,314,36,15,03,037,42,16,16,297,35,18,20,025,40*7A
$GPGSV,5,2,17,23,25,001,38,24,10,091,35,25,23,160,35,26,30,269,41*75
$GPGSV,5,3,17,28,21,201,30,29,54,107,40,31,09,225,32,32,60,195,38*76
$GPGSV,5,4,17,36,52,277,35,40,85,352,41,41,58,082,42,49,32,274,*79
$GPGSV,5,5,17,50,10,089,*4A
$GLGSV,3,1,10,65,79,305,33,66,37,212,33,72,28,019,35,75,00,146,09*61
$GLGSV,3,2,10,76,23,197,29,77,20,246,25,85,03,123,22,86,24,071,38*6F
$GLGSV,3,3,10,87,20,024,36,,,,39*50
$GNGLL,0419.71053,S,05539.45207,E,102243.00,A,D*6B
$GNRMC,102244.00,A,0419.71030,S,05539.45208,E,1.095,359.46,220525,,,D*63
$GNVTG,359.46,T,,M,1.095,N,2.028,K,D*2E
$GNGGA,102244.00,0419.71030,S,05539.45208,E,2,12,0.55,14.2,M,-47.6,M,,0000*49
$GNGSA,A,3,29,10,32,26,23,25,18,24,28,16,31,41,1.08,0.55,0.93*13
$GNGSA,A,3,65,86,87,72,66,76,77,,,,,,1.08,0.55,0.93*19
$GPGSV,5,1,17,10,40,314,36,15,03,037,41,16,16,296,34,18,20,025,38*76
$GPGSV,5,2,17,23,25,001,40,24,10,091,30,25,23,160,38,26,30,269,41*72
$GPGSV,5,3,17,28,21,201,37,29,54,107,40,31,09,225,35,32,60,195,36*78
$GPGSV,5,4,17,36,52,277,35,40,85,352,43,41,58,082,39,49,32,274,*77
$GPGSV,5,5,17,50,10,089,*4A
$GLGSV,3,1,10,65,79,305,32,66,37,212,31,72,28,019,36,75,00,146,08*60
$GLGSV,3,2,10,76,23,197,33,77,20,246,24,85,03,123,21,86,24,071,36*68
$GLGSV,3,3,10,87,20,024,36,,,,37*5E
$GNGLL,0419.71030,S,05539.45208,E,102244.00,A,D*66
$GNRMC,102245.00,A,0419.71011,S,05539.45205,E,0.617,355.75,220525,,,D*6D
$GNVTG,355.75,T,,M,0.617,N,1.144,K,D*27
$GNGGA,102245.00,0419.71011,S,05539.45205,E,2,12,0.55,14.0,M,-47.6,M,,0000*44
$GNGSA,A,3,29,10,32,26,23,25,18,24,28,16,31,41,1.08,0.55,0.93*13
$GNGSA,A,3,65,86,87,72,66,76,77,,,,,,1.08,0.55,0.93*19
$GPGSV,5,1,17,10,40,314,33,15,03,037,38,16,16,296,35,18,20,025,27*72
$GPGSV,5,2,17,23,25,001,36,24,10,091,30,25,23,160,35,26,30,269,38*70
$GPGSV,5,3,17,28,21,201,29,29,54,107,39,31,09,225,38,32,60,195,39*7B
$GPGSV,5,4,17,36,52,277,39,40,85,352,41,41,58,082,41,49,32,274,*76
$GPGSV,5,5,17,50,10,089,*4A
$GLGSV,3,1,10,65,79,305,34,66,37,212,25,72,28,019,34,75,00,146,08*61
$GLGSV,3,2,10,76,23,197,30,77,20,246,24,85,03,123,22,86,24,071,37*69
$GLGSV,3,3,10,87,20,024,34,,,,34*5F
$GNGLL,0419.71011,S,05539.45205,E,102245.00,A,D*69
$GNRMC,102246.00,A,0419.70997,S,05539.45201,E,0.752,345.58,220525,,,D*62
$GNVTG,345.58,T,,M,0.752,N,1.393,K,D*21
$GNGGA,102246.00,0419.70997,S,05539.45201,E,2,12,0.55,14.0,M,-47.6,M,,0000*45
$GNGSA,A,3,29,10,32,26,23,25,18,24,28,16,31,41,1.08,0.55,0.93*13
$GNGSA,A,3,65,86,87,72,66,76,77,,,,,,1.08,0.55,0.93*19
$GPGSV,5,1,17,10,40,314,40,15,03,037,42,16,16,296,35,18,20,026,40*79
$GPGSV,5,2,17,23,25,001,37,24,10,091,24,25,23,160,38,26,30,269,39*78
$GPGSV,5,3,17,28,21,201,34,29,54,107,41,31,09,225,28,32,60,195,41*76
$GPGSV,5,4,17,36,52,277,37,40,85,352,43,41,58,082,41,49,32,274,*7A
$GPGSV,5,5,17,50,10,089,*4A
$GLGSV,3,1,10,65,79,305,33,66,37,212,25,72,28,019,39,75,00,146,09*6A
$GLGSV,3,2,10,76,23,197,34,77,20,246,23,85,03,123,20,86,24,071,39*66
$GLGSV,3,3,10,87,20,024,37,,,,40*5F
$GNGLL,0419.70997,S,05539.45201,E,102246.00,A,D*68
$GNRMC,102247.00,A,0419.70978,S,05539.45198,E,0.699,347.99,220525,,,D*68
$GNVTG,347.99,T,,M,0.699,N,1.294,K,D*2E
$GNGGA,102247.00,0419.70978,S,05539.45198,E,2,12,0.55,14.0,M,-47.6,M,,0000*46
$GNGSA,A,3,29,10,32,26,23,25,18,24,28,16,31,41,1.08,0.55,0.93*13
$GNGSA,A,3,65,86,87,72,66,76,77,,,,,,1.08,0.55,0.93*19
$GPGSV,5,1,17,10,40,314,35,15,03,037,45,16,16,296,33,18,20,026,38*75
$GPGSV,5,2,17,23,25,001,37,24,10,091,29,25,23,160,37,26,30,269,39*7A
$GPGSV,5,3,17,28,21,201,35,29,54,107,40,31,09,225,33,32,60,195,41*7C
$GPGSV,5,4,17,36,52,277,36,40,85,352,43,41,58,082,45,49,32,274,*7F
$GPGSV,5,5,17,50,10,089,*4A
$GLGSV,3,1,10,65,79,305,31,66,37,212,27,72,28,019,33,75,00,146,14*6C
$GLGSV,3,2,10,76,23,197,27,77,20,246,23,85,03,123,20,86,24,071,36*6B
$GLGSV,3,3,10,87,20,024,33,,,,32*5E
$GNGLL,0419.70978,S,05539.45198,E,102247.00,A,D*6B
$GNRMC,102248.00,A,0419.70958,S,05539.45198,E,0.778,352.48,220525,,,D*63
$GNVTG,352.48,T,,M,0.778,N,1.441,K,D*26
$GNGGA,102248.00,0419.70958,S,05539.45198,E,2,12,0.55,14.0,M,-47.6,M,,0000*4B
$GNGSA,A,3,29,10,32,26,23,25,18,24,28,16,31,41,1.08,0.55,0.93*13
$GNGSA,A,3,65,86,87,72,66,76,77,,,,,,1.08,0.55,0.93*19
$GPGSV,5,1,17,10,40,314,38,15,03,037,44,16,16,296,37,18,20,026,40*72
$GPGSV,5,2,17,23,25,001,34,24,10,091,29,25,23,160,37,26,30,269,39*79
$GPGSV,5,3,17,28,21,201,38,29,54,107,42,31,09,225,33,32,60,195,43*71
$GPGSV,5,4,17,36,52,277,40,40,85,352,44,41,58,082,43,49,32,274,*7F
$GPGSV,5,5,17,50,10,089,*4A
$GLGSV,3,1,10,65,79,305,33,66,37,212,28,72,28,019,37,75,00,146,11*60
$GLGSV,3,2,10,76,23,197,33,77,20,246,23,85,03,123,21,86,24,071,33*6A
$GLGSV,3,3,10,87,20,024,36,,,,39*50
$GNGLL,0419.70958,S,05539.45198,E,102248.00,A,D*66
$GNRMC,102249.00,A,0419.70932,S,05539.45202,E,1.056,2.35,220525,,,D*68
$GNVTG,2.35,T,,M,1.056,N,1.955,K,D*28
$GNGGA,102249.00,0419.70932,S,05539.45202,E,2,12,0.55,14.0,M,-47.6,M,,0000*46
$GNGSA,A,3,29,10,32,26,23,25,18,24,28,16,31,41,1.08,0.55,0.93*13
$GNGSA,A,3,65,86,87,72,66,76,77,,,,,,1.08,0.55,0.93*19
$GPGSV,5,1,17,10,40,314,37,15,03,037,44,16,16,296,36,18,20,026,35*7E
$GPGSV,5,2,17,23,25,001,38,24,10,091,30,25,23,160,37,26,30,269,42*71
$GPGSV,5,3,17,28,21,201,35,29,54,107,40,31,09,225,38,32,60,195,42*74
$GPGSV,5,4,17,36,52,277,42,40,85,352,45,41,58,082,46,49,32,274,*79
$GPGSV,5,5,17,50,10,089,*4A
$GLGSV,3,1,10,65,79,305,33,66,37,212,34,72,28,019,34,75,00,146,12*6D
$GLGSV,3,2,10,76,23,197,31,77,20,246,23,85,03,123,22,86,24,071,26*6F
$GLGSV,3,3,10,87,20,024,32,,,,30*5D
$GNGLL,0419.70932,S,05539.45202,E,102249.00,A,D*6B
$GNRMC,102250.00,A,0419.70911,S,05539.45208,E,0.711,5.51,220525,,,D*6B
$GNVTG,5.51,T,,M,0.711,N,1.317,K,D*24
$GNGGA,102250.00,0419.70911,S,05539.45208,E,2,12,0.55,14.0,M,-47.6,M,,0000*45
$GNGSA,A,3,29,10,32,26,23,25,18,24,28,16,31,41,1.08,0.55,0.93*13
$GNGSA,A,3,65,86,87,72,66,76,77,,,,,,1.08,0.55,0.93*19
$GPGSV,5,1,17,10,40,314,34,15,03,037,44,16,16,296,37,18,20,026,35*7C
$GPGSV,5,2,17,23,24,001,35,24,10,091,32,25,23,160,37,26,30,269,41*7C
$GPGSV,5,3,17,28,21,201,36,29,54,107,42,31,09,225,37,32,60,195,40*78
$GPGSV,5,4,17,36,52,277,42,40,85,352,45,41,58,082,46,49,32,274,*79
$GPGSV,5,5,17,50,10,089,*4A
$GLGSV,3,1,10,65,79,305,33,66,37,212,32,72,28,019,33,75,00,146,13*6D
$GLGSV,3,2,10,76,23,197,29,77,20,246,23,85,03,123,23,86,24,071,33*63
$GLGSV,3,3,10,87,20,024,31,,,,33*5D
$GNGLL,0419.70911,S,05539.45208,E,102250.00,A,D*68
$GNRMC,102251.00,A,0419.70888,S,05539.45215,E,0.965,8.57,220525,,,D*61
$GNVTG,8.57,T,,M,0.965,N,1.787,K,D*2F
$GNGGA,102251.00,0419.70888,S,05539.45215,E,2,12,0.55,13.8,M,-47.6,M,,0000*46
$GNGSA,A,3,29,10,32,26,23,25,18,24,28,16,31,41,1.08,0.55,0.93*13
$GNGSA,A,3,65,86,87,72,66,76,77,,,,,,1.08,0.55,0.93*19
$GPGSV,5,1,17,10,40,314,30,15,03,037,43,16,16,296,37,18,20,026,38*72
$GPGSV,5,2,17,23,24,001,34,24,10,090,32,25,23,160,39,26,30,269,41*72
$GPGSV,5,3,17,28,21,201,35,29,54,107,42,31,09,225,38,32,60,195,42*76
$GPGSV,5,4,17,36,52,277,41,40,85,352,44,41,58,082,47,49,32,274,*7A
$GPGSV,5,5,17,50,10,089,*4A
$GLGSV,3,1,10,65,79,305,33,66,37,212,31,72,28,019,34,75,00,146,12*68
$GLGSV,3,2,10,76,23,197,29,77,20,246,25,85,03,123,24,86,24,071,28*68
$GLGSV,3,3,10,87,20,024,33,,,,39*55
$GNGLL,0419.70888,S,05539.45215,E,102251.00,A,D*64
$GNRMC,102252.00,A,0419.70867,S,05539.45217,E,0.740,2.70,220525,,,D*67
$GNVTG,2.70,T,,M,0.740,N,1.371,K,D*24
$GNGGA,102252.00,0419.70867,S,05539.45217,E,2,12,0.55,13.8,M,-47.6,M,,0000*46
$GNGSA,A,3,29,10,32,26,23,25,18,24,28,16,31,41,1.08,0.55,0.93*13
$GNGSA,A,3,65,86,87,72,66,76,77,,,,,,1.08,0.55,0.93*19
$GPGSV,5,1,17,10,40,314,31,15,03,037,43,16,16,296,34,18,20,026,34*7C
$GPGSV,5,2,17,23,24,001,38,24,10,090,32,25,23,160,36,26,30,269,42*72
$GPGSV,5,3,17,28,21,201,34,29,54,107,42,31,09,225,40,32,60,195,42*78
$GPGSV,5,4,17,36,52,277,41,40,85,352,44,41,58,082,44,49,32,274,*79
$GPGSV,5,5,17,50,10,089,*4A
$GLGSV,3,1,10,65,79,305,34,66,37,212,33,72,28,019,33,75,00,146,12*6A
$GLGSV,3,2,10,76,23,197,27,77,20,246,23,85,03,123,26,86,24,071,36*6D
$GLGSV,3,3,10,87,20,024,31,,,,34*5A
$GNGLL,0419.70867,S,05539.45217,E,102252.00,A,D*64
$GNRMC,102253.00,A,0419.70852,S,05539.45218,E,0.556,0.87,220525,,,D*60
$GNVTG,0.87,T,,M,0.556,N,1.029,K,D*25
$GNGGA,102253.00,0419.70852,S,05539.45218,E,2,12,0.55,13.6,M,-47.6,M,,0000*40
$GNGSA,A,3,29,10,32,26,23,25,18,24,28,16,31,41,1.08,0.55,0.93*13
$GNGSA,A,3,65,86,87,72,66,76,77,,,,,,1.08,0.55,0.93*19
$GPGSV,5,1,17,10,40,314,35,15,03,037,42,16,16,296,34,18,20,026,34*79
$GPGSV,5,2,17,23,24,001,34,24,10,090,32,25,23,160,39,26,30,269,42*71
$GPGSV,5,3,17,28,21,201,34,29,54,107,44,31,09,225,36,32,60,195,40*7D
$GPGSV,5,4,17,36,52,277,42,40,85,352,46,41,58,082,45,49,32,274,*79
$GPGSV,5,5,17,50,10,089,*4A
$GLGSV,3,1,10,65,79,305,34,66,37,212,31,72,28,019,33,75,00,146,12*68
$GLGSV,3,2,10,76,23,197,33,77,20,246,24,85,03,123,26,86,24,071,29*61
$GLGSV,3,3,10,87,20,024,32,,,,37*5A
$GNGLL,0419.70852,S,05539.45218,E,102253.00,A,D*6C
$GNRMC,102254.00,A,0419.70837,S,05539.45219,E,0.558,0.37,220525,,,D*60
$GNVTG,0.37,T,,M,0.558,N,1.034,K,D*2C
$GNGGA,102254.00,0419.70837,S,05539.45219,E,2,12,0.55,13.6,M,-47.6,M,,0000*45
$GNGSA,A,3,29,10,32,26,23,25,18,24,28,16,31,41,1.08,0.55,0.93*13
$GNGSA,A,3,65,86,87,72,66,76,77,,,,,,1.08,0.55,0.93*19
$GPGSV,5,1,17,10,40,314,33,15,03,037,42,16,16,296,34,18,20,026,32*79
$GPGSV,5,2,17,23,24,001,36,24,10,090,35,25,23,160,35,26,30,269,42*78
$GPGSV,5,3,17,28,21,201,35,29,54,107,41,31,09,225,34,32,60,195,40*7B
$GPGSV,5,4,17,36,52,277,40,40,85,352,46,41,58,082,46,49,32,274,*78
$GPGSV,5,5,17,50,10,089,*4A
$GLGSV,3,1,10,65,79,305,34,66,37,212,33,72,28,019,34,75,00,146,10*6F
$GLGSV,3,2,10,76,23,197,27,77,20,246,24,85,03,123,26,86,24,071,36*6A
$GLGSV,3,3,10,87,20,024,20,,,,32*5C
$GNGLL,0419.70837,S,05539.45219,E,102254.00,A,D*69
$GNRMC,102255.00,A,0419.70820,S,05539.45221,E,0.777,1.31,220525,,,D*64
$GNVTG,1.31,T,,M,0.777,N,1.439,K,D*2D
$GNGGA,102255.00,0419.70820,S,05539.45221,E,2,12,0.57,13.7,M,-47.6,M,,0000*4A
$GNGSA,A,3,29,32,26,23,25,18,24,28,16,31,41,,1.10,0.57,0.94*1E
$GNGSA,A,3,65,86,87,72,66,76,77,,,,,,1.10,0.57,0.94*15
$GPGSV,5,1,17,10,40,314,,15,03,037,41,16,16,296,32,18,20,026,39*77
$GPGSV,5,2,17,23,24,001,29,24,10,090,32,25,23,160,35,26,30,269,39*7D
$GPGSV,5,3,17,28,21,201,36,29,54,107,39,31,09,225,34,32,60,195,39*79
$GPGSV,5,4,17,36,52,277,37,40,85,352,44,41,58,082,45,49,32,274,*79
$GPGSV,5,5,17,50,10,089,*4A
$GLGSV,3,1,10,65,79,305,34,66,37,212,33,72,28,019,37,75,00,146,10*6C
$GLGSV,3,2,10,76,23,197,35,77,20,246,24,85,03,123,25,86,24,071,28*65
$GLGSV,3,3,10,87,20,024,38,,,,40*50
$GNGLL,0419.70820,S,05539.45221,E,102255.00,A,D*65
$GNRMC,102256.00,A,0419.70800,S,05539.45221,E,0.767,359.23,220525,,,D*69
$GNVTG,359.23,T,,M,0.767,N,1.421,K,D*28
$GNGGA,102256.00,0419.70800,S,05539.45221,E,2,12,0.55,13.6,M,-47.6,M,,0000*48
$GNGSA,A,3,29,10,32,26,23,25,18,24,28,16,31,41,1.08,0.55,0.93*13
$GNGSA,A,3,65,86,87,72,66,76,77,,,,,,1.08,0.55,0.93*19
$GPGSV,5,1,17,10,40,314,29,15,03,037,40,16,16,296,32,18,20,026,29*7C
$GPGSV,5,2,17,23,24,001,32,24,10,090,34,25,23,160,30,26,30,269,39*74
$GPGSV,5,3,17,28,21,201,23,29,54,108,41,31,09,225,35,32,60,195,41*73
$GPGSV,5,4,17,36,52,277,40,40,85,352,43,41,58,082,40,49,32,274,*7B
$GPGSV,5,5,17,50,10,089,*4A
$GLGSV,3,1,10,65,79,305,34,66,37,212,30,72,28,019,36,75,00,146,10*6E
$GLGSV,3,2,10,76,23,197,31,77,20,246,24,85,03,123,26,86,24,071,36*6D
$GLGSV,3,3,10,87,20,024,31,,,,32*5C
$GNGLL,0419.70800,S,05539.45221,E,102256.00,A,D*64
$GNRMC,102257.00,A,0419.70784,S,05539.45215,E,0.583,352.26,220525,,,D*6A
$GNVTG,352.26,T,,M,0.583,N,1.080,K,D*21
$GNGGA,102257.00,0419.70784,S,05539.45215,E,2,12,0.55,13.6,M,-47.6,M,,0000*4D
$GNGSA,A,3,29,10,32,26,23,25,18,24,28,16,31,41,1.08,0.55,0.93*13
$GNGSA,A,3,65,86,87,72,66,76,77,,,,,,1.08,0.55,0.93*19
$GPGSV,5,1,17,10,40,314,32,15,03,037,39,16,16,296,32,18,20,026,28*79
$GPGSV,5,2,17,23,24,001,33,24,10,090,34,25,23,160,32,26,30,269,37*79
$GPGSV,5,3,17,28,21,201,33,29,54,108,38,31,09,225,25,32,60,195,39*72
$GPGSV,5,4,17,36,52,277,38,40,85,352,44,41,58,082,43,49,32,274,*70
$GPGSV,5,5,17,50,10,089,*4A
$GLGSV,3,1,10,65,79,305,33,66,37,212,27,72,28,019,34,75,00,146,10*6D
$GLGSV,3,2,10,76,23,197,33,77,20,246,23,85,03,123,25,86,24,071,36*6B
$GLGSV,3,3,10,87,20,024,34,,,,36*5D
$GNGLL,0419.70784,S,05539.45215,E,102257.00,A,D*61
$GNRMC,102258.00,A,0419.70765,S,05539.45212,E,0.787,354.76,220525,,,D*68
$GNVTG,354.76,T,,M,0.787,N,1.458,K,D*25
$GNGGA,102258.00,0419.70765,S,05539.45212,E,2,12,0.55,13.7,M,-47.6,M,,0000*4B
$GNGSA,A,3,29,10,32,26,23,25,18,24,28,16,31,41,1.08,0.55,0.93*13
$GNGSA,A,3,65,86,87,72,66,76,77,,,,,,1.08,0.55,0.93*19
$GPGSV,5,1,17,10,40,314,34,15,03,037,40,16,16,296,32,18,20,026,33*7B
$GPGSV,5,2,17,23,24,001,32,24,10,090,37,25,23,160,32,26,30,269,37*7B
$GPGSV,5,3,17,28,21,201,37,29,54,108,40,31,09,225,25,32,60,195,41*76
$GPGSV,5,4,17,36,52,277,38,40,85,352,43,41,58,082,40,49,32,274,*74
$GPGSV,5,5,17,50,10,089,*4A
$GLGSV,3,1,10,65,79,305,33,66,37,212,29,72,28,019,35,75,00,146,09*6A
$GLGSV,3,2,10,76,23,197,21,77,20,246,24,85,03,123,26,86,24,071,34*6E
$GLGSV,3,3,10,87,20,024,34,,,,37*5C
$GNGLL,0419.70765,S,05539.45212,E,102258.00,A,D*66
$GNRMC,102259.00,A,0419.70742,S,05539.45213,E,0.887,358.88,220525,,,D*6F
$GNVTG,358.88,T,,M,0.887,N,1.642,K,D*2E
$GNGGA,102259.00,0419.70742,S,05539.45213,E,2,12,0.55,13.9,M,-47.6,M,,0000*40
$GNGSA,A,3,29,10,32,26,23,25,18,24,28,16,31,41,1.08,0.55,0.93*13
$GNGSA,A,3,65,86,87,72,66,76,77,,,,,,1.08,0.55,0.93*19
$GPGSV,5,1,17,10,40,314,36,15,03,037,40,16,16,296,33,18,20,026,36*7D
$GPGSV,5,2,17,23,24,001,35,24,10,090,36,25,23,160,32,26,30,269,35*7F
$GPGSV,5,3,17,28,21,201,35,29,54,108,40,31,09,225,28,32,61,195,38*76
$GPGSV,5,4,17,36,52,277,40,40,85,352,44,41,58,082,44,49,32,274,*78
$GPGSV,5,5,17,50,10,089,*4A
$GLGSV,3,1,10,65,79,305,34,66,37,212,28,72,28,019,36,75,00,146,07*61
$GLGSV,3,2,10,76,23,197,37,77,20,246,24,85,03,123,26,86,24,071,28*64
$GLGSV,3,3,10,87,20,024,34,,,,39*52
$GNGLL,0419.70742,S,05539.45213,E,102259.00,A,D*63
$GNRMC,102300.00,A,0419.70717,S,05539.45214,E,0.984,2.53,220525,,,D*6D
$GNVTG,2.53,T,,M,0.984,N,1.822,K,D*2E
$GNGGA,102300.00,0419.70717,S,05539.45214,E,2,12,0.55,13.8,M,-47.6,M,,0000*4B
$GNGSA,A,3,29,10,32,26,23,25,18,24,28,16,31,41,1.08,0.55,0.93*13
$GNGSA,A,3,65,86,87,72,66,76,77,,,,,,1.08,0.55,0.93*19
$GPGSV,5,1,17,10,40,314,32,15,03,037,39,16,16,296,33,18,20,026,33*72
$GPGSV,5,2,17,23,24,001,32,24,10,090,36,25,23,160,34,26,30,269,38*73
$GPGSV,5,3,17,28,21,201,37,29,54,108,43,31,09,225,32,32,61,195,42*71
$GPGSV,5,4,17,36,52,277,40,40,85,352,42,41,58,082,39,49,32,274,*74
$GPGSV,5,5,17,50,10,089,*4A
$GLGSV,3,1,10,65,79,305,34,66,37,212,28,72,28,019,36,75,00,146,09*6F
$GLGSV,3,2,10,76,23,197,23,77,20,246,24,85,03,123,26,86,24,071,36*6E
$GLGSV,3,3,10,87,20,024,35,,,,36*5C
$GNGLL,0419.70717,S,05539.45214,E,102300.00,A,D*69
$GNRMC,102301.00,A,0419.70693,S,05539.45220,E,0.905,7.27,220525,,,D*69
$GNVTG,7.27,T,,M,0.905,N,1.676,K,D*2E
$GNGGA,102301.00,0419.70693,S,05539.45220,E,2,12,0.55,13.8,M,-47.6,M,,0000*40
$GNGSA,A,3,29,10,32,26,23,25,18,24,28,16,31,41,1.08,0.55,0.93*13
$GNGSA,A,3,65,86,87,72,66,76,77,,,,,,1.08,0.55,0.93*19
$GPGSV,5,1,17,10,40,314,38,15,03,037,39,16,16,296,33,18,20,026,33*78
$GPGSV,5,2,17,23,24,001,33,24,10,090,33,25,23,160,33,26,30,269,36*7E
