$GNRMC,101532.00,A,0419.78498,S,05539.47868,E,0.633,4.74,220525,,,D*66
$GNVTG,4.74,T,,M,0.633,N,1.172,K,D*22
$GNGGA,101532.00,0419.78498,S,05539.47868,E,2,12,0.54,13.8,M,-47.6,M,,0000*41
$GNGSA,A,3,29,10,32,26,23,25,18,24,15,28,16,31,1.03,0.54,0.88*12
$GNGSA,A,3,65,86,87,72,66,76,77,,,,,,1.03,0.54,0.88*19
$GPGSV,5,1,18,10,42,309,39,12,00,143,,15,06,038,23,16,15,299,36*7A
$GPGSV,5,2,18,18,19,022,41,23,27,359,36,24,10,093,29,25,25,162,31*7C
$GPGSV,5,3,18,26,29,273,36,28,20,204,32,29,55,102,37,31,08,228,30*78
$GPGSV,5,4,18,32,57,195,39,36,52,277,,40,85,352,42,41,58,082,37*78
$GPGSV,5,5,18,49,32,274,31,50,10,089,*7A
$GLGSV,3,1,10,65,81,280,30,66,34,209,36,72,32,020,29,75,01,149,25*69
$GLGSV,3,2,10,76,25,201,33,77,21,250,27,85,03,119,,86,23,067,28*62
$GLGSV,3,3,10,87,18,020,29,,,,29*50
$GNGLL,0419.78498,S,05539.47868,E,101532.00,A,D*62
$GNRMC,101533.00,A,0419.78480,S,05539.47870,E,0.622,4.36,220525,,,D*61
$GNVTG,4.36,T,,M,0.622,N,1.153,K,D*27
$GNGGA,101533.00,0419.78480,S,05539.47870,E,2,12,0.54,13.8,M,-47.6,M,,0000*40
$GNGSA,A,3,29,10,32,26,23,25,18,24,15,28,16,31,1.03,0.54,0.88*12
$GNGSA,A,3,65,86,87,72,66,76,77,,,,,,1.03,0.54,0.88*19
$GPGSV,5,1,18,10,42,309,37,12,00,143,,15,06,038,23,16,15,299,33*71
$GPGSV,5,2,18,18,19,022,43,23,27,359,30,24,10,093,28,25,25,162,32*7A
$GPGSV,5,3,18,26,29,273,32,28,20,204,37,29,55,102,31,31,08,228,30*7F
$GPGSV,5,4,18,32,57,195,41,36,52,277,,40,85,352,40,41,58,082,33*71
$GPGSV,5,5,18,49,32,274,32,50,10,089,*79
$GLGSV,3,1,10,65,81,280,31,66,34,209,34,72,32,020,25,75,01,149,22*61
$GLGSV,3,2,10,76,25,201,30,77,21,250,25,85,03,119,,86,23,067,32*68
$GLGSV,3,3,10,87,18,020,30,,,,33*53
$GNGLL,0419.78480,S,05539.47870,E,101533.00,A,D*63
$GNRMC,101534.00,A,0419.78460,S,05539.47876,E,0.795,15.44,220525,,,D*56
$GNVTG,15.44,T,,M,0.795,N,1.473,K,D*18
$GNGGA,101534.00,0419.78460,S,05539.47876,E,2,12,0.54,13.9,M,-47.6,M,,0000*4E
$GNGSA,A,3,29,10,32,26,23,25,18,24,15,28,16,31,1.03,0.54,0.88*12
$GNGSA,A,3,65,86,87,72,66,76,77,,,,,,1.03,0.54,0.88*19
$GPGSV,5,1,18,10,42,309,35,12,00,143,,15,06,038,23,16,15,299,34*74
$GPGSV,5,2,18,18,19,022,41,23,27,359,29,24,10,093,27,25,25,162,34*79
$GPGSV,5,3,18,26,29,273,35,28,20,204,35,29,55,102,40,31,08,228,23*7E
$GPGSV,5,4,18,32,57,195,42,36,52,277,,40,85,352,43,41,58,082,34*76
$GPGSV,5,5,18,49,32,274,32,50,10,089,*79
$GLGSV,3,1,10,65,81,280,36,66,34,209,42,72,32,020,32,75,01,149,22*61
$GLGSV,3,2,10,76,25,201,41,77,21,250,30,85,03,119,,86,23,067,32*6A
$GLGSV,3,3,10,87,18,020,31,,,,32*53
$GNGLL,0419.78460,S,05539.47876,E,101534.00,A,D*6C
$GNRMC,101535.00,A,0419.78433,S,05539.47885,E,1.157,19.04,220525,,,D*5C
$GNVTG,19.04,T,,M,1.157,N,2.144,K,D*1B
$GNGGA,101535.00,0419.78433,S,05539.47885,E,2,12,0.54,13.7,M,-47.6,M,,0000*4B
$GNGSA,A,3,29,10,32,26,23,25,18,24,15,28,16,31,1.03,0.54,0.88*12
$GNGSA,A,3,65,86,87,72,66,76,77,,,,,,1.03,0.54,0.88*19
$GPGSV,5,1,18,10,42,309,39,12,00,143,,15,06,038,21,16,15,299,35*7B
$GPGSV,5,2,18,18,19,022,45,23,27,359,28,24,10,093,32,25,25,162,37*7B
$GPGSV,5,3,18,26,29,273,32,28,20,204,39,29,55,102,33,31,08,228,31*72
$GPGSV,5,4,18,32,57,195,43,36,52,277,,40,85,352,43,41,58,082,37*74
$GPGSV,5,5,18,49,32,274,35,50,10,089,*7E
$GLGSV,3,1,10,65,81,280,35,66,34,209,40,72,32,020,32,75,01,149,23*61
$GLGSV,3,2,10,76,25,201,39,77,21,250,28,85,03,119,,86,23,067,36*68
$GLGSV,3,3,10,87,18,020,36,,,,37*51
$GNGLL,0419.78433,S,05539.47885,E,101535.00,A,D*67
$GNRMC,101536.00,A,0419.78397,S,05539.47888,E,1.403,9.36,220525,,,D*6F
$GNVTG,9.36,T,,M,1.403,N,2.598,K,D*2A
$GNGGA,101536.00,0419.78397,S,05539.47888,E,2,12,0.54,13.6,M,-47.6,M,,0000*4D
$GNGSA,A,3,29,10,32,26,23,25,18,24,15,28,16,31,1.03,0.54,0.88*12
$GNGSA,A,3,65,86,87,72,66,76,77,,,,,,1.03,0.54,0.88*19
$GPGSV,5,1,18,10,42,309,40,12,00,143,,15,06,038,21,16,15,299,31*71
$GPGSV,5,2,18,18,19,022,41,23,27,359,33,24,10,093,32,25,25,162,34*76
$GPGSV,5,3,18,26,29,273,29,28,20,204,41,29,55,102,33,31,08,228,31*77
$GPGSV,5,4,18,32,57,195,40,36,52,277,,40,85,352,45,41,58,082,37*71
$GPGSV,5,5,18,49,32,274,32,50,10,089,*79
$GLGSV,3,1,10,65,81,280,36,66,34,209,40,72,32,020,32,75,01,149,23*62
$GLGSV,3,2,10,76,25,201,39,77,21,250,28,85,03,119,,86,23,067,33*6D
$GLGSV,3,3,10,87,18,020,28,,,,37*5E
$GNGLL,0419.78397,S,05539.47888,E,101536.00,A,D*60
$GNRMC,101537.00,A,0419.78361,S,05539.47882,E,1.301,356.96,220525,,,D*6B
$GNVTG,356.96,T,,M,1.301,N,2.410,K,D*2D
$GNGGA,101537.00,0419.78361,S,05539.47882,E,2,12,0.55,13.5,M,-47.6,M,,0000*4D
$GNGSA,A,3,29,10,32,26,23,25,18,24,15,28,16,31,1.04,0.55,0.89*15
$GNGSA,A,3,65,86,87,72,66,76,77,,,,,,1.04,0.55,0.89*1E
$GPGSV,5,1,18,10,42,309,38,12,00,143,,15,06,038,30,16,15,299,32*7D
$GPGSV,5,2,18,18,19,022,39,23,27,359,28,24,10,093,33,25,25,162,34*72
$GPGSV,5,3,18,26,29,273,40,28,20,204,41,29,55,102,39,31,08,228,28*7A
$GPGSV,5,4,18,32,57,195,42,36,52,277,,40,85,352,42,41,58,082,39*7A
$GPGSV,5,5,18,49,32,274,35,50,10,089,*7E
$GLGSV,3,1,10,65,81,280,35,66,34,209,40,72,32,020,33,75,01,149,24*67
$GLGSV,3,2,10,76,25,201,39,77,21,250,29,85,03,119,,86,23,067,32*6D
$GLGSV,3,3,10,87,18,020,28,,,,34*5D
$GNGLL,0419.78361,S,05539.47882,E,101537.00,A,D*62
$GNRMC,101538.00,A,0419.78323,S,05539.47876,E,1.350,355.82,220525,,,D*6B
$GNVTG,355.82,T,,M,1.350,N,2.500,K,D*2F
$GNGGA,101538.00,0419.78323,S,05539.47876,E,2,12,0.54,13.5,M,-47.6,M,,0000*4E
$GNGSA,A,3,29,10,32,26,23,25,18,24,15,28,16,31,1.03,0.54,0.88*12
$GNGSA,A,3,65,86,87,72,66,76,77,,,,,,1.03,0.54,0.88*19
$GPGSV,5,1,18,10,42,309,36,12,00,143,,15,06,038,33,16,15,299,35*77
$GPGSV,5,2,18,18,19,022,36,23,27,359,39,24,10,093,33,25,25,162,30*79
$GPGSV,5,3,18,26,29,273,39,28,20,204,31,29,55,102,37,31,08,228,28*7D
$GPGSV,5,4,18,32,57,195,44,36,52,277,,40,85,352,43,41,58,082,41*72
$GPGSV,5,5,18,49,32,274,35,50,10,089,*7E
$GLGSV,3,1,10,65,81,280,35,66,34,209,42,72,32,020,26,75,01,149,23*66
$GLGSV,3,2,10,76,25,201,41,77,21,250,29,85,03,119,,86,23,067,30*60
$GLGSV,3,3,10,87,18,020,27,,,,29*5E
$GNGLL,0419.78323,S,05539.47876,E,101538.00,A,D*60
$GNRMC,101539.00,A,0419.78281,S,05539.47879,E,1.588,359.38,220525,,,D*62
$GNVTG,359.38,T,,M,1.588,N,2.942,K,D*2B
$GNGGA,101539.00,0419.78281,S,05539.47879,E,2,12,0.54,13.5,M,-47.6,M,,0000*49
$GNGSA,A,3,29,10,32,26,23,25,18,24,15,28,16,31,1.03,0.54,0.88*12
$GNGSA,A,3,65,86,87,72,66,76,77,,,,,,1.03,0.54,0.88*19
$GPGSV,5,1,18,10,42,309,35,12,00,143,,15,06,038,34,16,15,299,34*72
$GPGSV,5,2,18,18,19,022,34,23,27,359,32,24,10,093,27,25,25,162,32*77
$GPGSV,5,3,18,26,29,273,38,28,20,204,37,29,55,102,40,31,08,228,29*7B
$GPGSV,5,4,18,32,57,195,44,36,52,277,,40,85,352,41,41,58,082,37*71
$GPGSV,5,5,18,49,32,274,38,50,10,089,*73
$GLGSV,3,1,10,65,81,280,35,66,34,209,41,72,32,020,23,75,01,149,22*61
$GLGSV,3,2,10,76,25,201,38,77,21,250,29,85,03,119,,86,23,067,28*67
$GLGSV,3,3,10,87,18,020,26,,,,21*57
$GNGLL,0419.78281,S,05539.47879,E,101539.00,A,D*67
$GNRMC,101540.00,A,0419.78241,S,05539.47878,E,1.377,357.81,220525,,,D*6B
$GNVTG,357.81,T,,M,1.377,N,2.551,K,D*2F
$GNGGA,101540.00,0419.78241,S,05539.47878,E,2,12,0.54,13.5,M,-47.6,M,,0000*4A
$GNGSA,A,3,29,10,32,26,23,25,18,24,15,28,16,31,1.03,0.54,0.88*12
$GNGSA,A,3,65,86,87,72,66,76,77,,,,,,1.03,0.54,0.88*19
$GPGSV,5,1,18,10,42,309,34,12,00,143,,15,06,038,38,16,15,299,37*7C
$GPGSV,5,2,18,18,19,022,33,23,27,359,40,24,10,093,32,25,25,162,28*7A
$GPGSV,5,3,18,26,29,273,37,28,20,204,40,29,55,102,40,31,08,228,37*7B
$GPGSV,5,4,18,32,57,195,39,36,52,277,,40,85,352,43,41,58,082,38*76
$GPGSV,5,5,18,49,32,274,38,50,10,089,*73
$GLGSV,3,1,10,65,81,280,35,66,34,209,43,72,32,020,25,75,01,149,24*63
$GLGSV,3,2,10,76,25,201,38,77,21,250,30,85,03,119,,86,23,067,26*61
$GLGSV,3,3,10,87,18,020,23,,,,21*52
$GNGLL,0419.78241,S,05539.47878,E,101540.00,A,D*64
$GNRMC,101541.00,A,0419.78206,S,05539.47881,E,1.136,1.09,220525,,,D*68
$GNVTG,1.09,T,,M,1.136,N,2.104,K,D*2C
$GNGGA,101541.00,0419.78206,S,05539.47881,E,2,12,0.54,13.6,M,-47.6,M,,0000*4D
$GNGSA,A,3,29,10,32,26,23,25,18,24,15,28,16,31,1.03,0.54,0.88*12
$GNGSA,A,3,65,86,87,72,66,76,77,,,,,,1.03,0.54,0.88*19
$GPGSV,5,1,18,10,42,309,37,12,00,143,,15,06,038,35,16,15,299,34*71
$GPGSV,5,2,18,18,19,022,39,23,27,359,36,24,10,093,32,25,25,162,27*7E
$GPGSV,5,3,18,26,29,273,38,28,20,204,36,29,55,102,38,31,08,228,37*7A
$GPGSV,5,4,18,32,57,195,39,36,52,277,,40,85,352,41,41,58,082,40*7B
$GPGSV,5,5,18,49,32,274,35,50,10,089,*7E
$GLGSV,3,1,10,65,81,280,35,66,34,209,40,72,32,020,26,75,01,149,25*62
$GLGSV,3,2,10,76,25,201,36,77,21,250,30,85,03,119,,86,23,067,25*6C
$GLGSV,3,3,10,87,18,020,25,,,,21*54
$GNGLL,0419.78206,S,05539.47881,E,101541.00,A,D*60
$GNRMC,101542.00,A,0419.78172,S,05539.47889,E,1.298,9.76,220525,,,D*64
$GNVTG,9.76,T,,M,1.298,N,2.404,K,D*2E
$GNGGA,101542.00,0419.78172,S,05539.47889,E,2,12,0.54,13.8,M,-47.6,M,,0000*48
$GNGSA,A,3,29,10,32,26,23,25,18,24,15,28,16,31,1.03,0.54,0.88*12
$GNGSA,A,3,65,86,87,72,66,76,77,,,,,,1.03,0.54,0.88*19
$GPGSV,5,1,18,10,42,309,37,12,00,143,,15,06,038,35,16,15,299,31*74
$GPGSV,5,2,18,18,19,022,29,23,27,359,39,24,10,093,33,25,25,162,24*72
$GPGSV,5,3,18,26,29,273,37,28,20,204,35,29,55,102,37,31,08,228,36*78
$GPGSV,5,4,18,32,57,195,40,36,52,277,,40,85,352,43,41,58,082,41*76
$GPGSV,5,5,18,49,32,274,38,50,10,089,*73
$GLGSV,3,1,10,65,81,280,35,66,34,209,42,72,32,020,28,75,01,149,24*6F
$GLGSV,3,2,10,76,25,201,38,77,21,250,33,85,03,119,,86,23,067,25*61
$GLGSV,3,3,10,87,18,020,27,,,,30*56
$GNGLL,0419.78172,S,05539.47889,E,101542.00,A,D*6B
$GNRMC,101543.00,A,0419.78139,S,05539.47904,E,1.243,17.95,220525,,,D*5A
$GNVTG,17.95,T,,M,1.243,N,2.302,K,D*1B
$GNGGA,101543.00,0419.78139,S,05539.47904,E,2,12,0.56,13.9,M,-47.6,M,,0000*41
$GNGSA,A,3,29,10,32,26,23,25,18,24,15,28,16,31,1.08,0.56,0.93*11
$GNGSA,A,3,65,86,87,72,66,76,77,,,,,,1.08,0.56,0.93*1A
$GPGSV,5,1,18,10,42,309,37,12,00,143,,15,06,038,37,16,15,299,32*75
$GPGSV,5,2,18,18,19,022,36,23,27,359,35,24,10,093,34,25,25,162,31*73
$GPGSV,5,3,18,26,29,273,36,28,20,204,36,29,55,102,40,31,08,228,39*75
$GPGSV,5,4,18,32,57,195,39,36,52,277,,40,85,352,41,41,58,082,39*75
$GPGSV,5,5,18,49,32,274,39,50,10,089,*72
$GLGSV,3,1,10,65,81,280,35,66,34,209,41,72,32,020,31,75,01,149,22*62
$GLGSV,3,2,10,76,25,201,37,77,21,250,34,85,03,119,,86,23,067,23*6F
$GLGSV,3,3,10,87,18,020,32,,,,32*50
$GNGLL,0419.78139,S,05539.47904,E,101543.00,A,D*61
$GNRMC,101544.00,A,0419.78114,S,05539.47928,E,1.260,36.19,220525,,,D*5A
$GNVTG,36.19,T,,M,1.260,N,2.333,K,D*1F
$GNGGA,101544.00,0419.78114,S,05539.47928,E,2,12,0.54,14.2,M,-47.6,M,,0000*49
$GNGSA,A,3,29,10,32,26,23,25,18,24,15,28,16,31,1.03,0.54,0.88*12
$GNGSA,A,3,65,86,87,72,66,76,77,,,,,,1.03,0.54,0.88*19
$GPGSV,5,1,18,10,42,309,37,12,00,143,,15,06,038,32,16,15,299,30*72
$GPGSV,5,2,18,18,19,022,36,23,27,359,38,24,10,093,34,25,25,162,27*79
$GPGSV,5,3,18,26,29,273,34,28,20,204,30,29,55,102,42,31,08,228,39*73
$GPGSV,5,4,18,32,57,195,41,36,52,277,,40,85,352,41,41,58,082,38*7B
$GPGSV,5,5,18,49,32,274,37,50,10,089,*7C
$GLGSV,3,1,10,65,81,280,36,66,34,209,41,72,32,020,31,75,01,149,20*63
$GLGSV,3,2,10,76,25,201,39,77,21,250,33,85,03,119,,86,23,067,25*60
$GLGSV,3,3,10,87,18,020,32,,,,32*50
$GNGLL,0419.78114,S,05539.47928,E,101544.00,A,D*67
$GNRMC,101545.00,A,0419.78086,S,05539.47961,E,1.679,43.54,220525,,,D*5B
$GNVTG,43.54,T,,M,1.679,N,3.110,K,D*1A
$GNGGA,101545.00,0419.78086,S,05539.47961,E,2,12,0.54,14.4,M,-47.6,M,,0000*49
$GNGSA,A,3,29,10,32,26,23,25,18,24,15,28,16,31,1.03,0.54,0.88*12
$GNGSA,A,3,65,86,87,72,66,76,77,,,,,,1.03,0.54,0.88*19
$GPGSV,5,1,18,10,42,309,42,12,00,143,,15,06,038,36,16,15,299,32*76
$GPGSV,5,2,18,18,19,022,36,23,27,359,40,24,10,093,28,25,25,162,28*74
$GPGSV,5,3,18,26,29,273,35,28,20,204,38,29,55,102,42,31,08,228,37*74
$GPGSV,5,4,18,32,57,195,42,36,52,277,,40,85,352,43,41,58,082,37*75
$GPGSV,5,5,18,49,32,274,41,50,10,089,*7D
$GLGSV,3,1,10,65,81,280,36,66,34,209,37,72,32,020,31,75,01,149,29*6B
$GLGSV,3,2,10,76,25,201,34,77,21,250,35,85,03,119,,86,23,067,25*6B
$GLGSV,3,3,10,87,18,020,32,,,,32*50
$GNGLL,0419.78086,S,05539.47961,E,101545.00,A,D*61
$GNRMC,101546.00,A,0419.78060,S,05539.48001,E,1.754,49.85,220525,,,D*58
$GNVTG,49.85,T,,M,1.754,N,3.249,K,D*1D
$GNGGA,101546.00,0419.78060,S,05539.48001,E,2,12,0.54,14.4,M,-47.6,M,,0000*42
$GNGSA,A,3,29,10,32,26,23,25,18,24,15,28,16,31,1.03,0.54,0.88*12
$GNGSA,A,3,65,86,87,72,66,76,77,,,,,,1.03,0.54,0.88*19
$GPGSV,5,1,18,10,42,309,40,12,00,143,,15,06,038,19,16,15,299,32*79
$GPGSV,5,2,18,18,19,022,33,23,27,359,36,24,10,093,29,25,25,162,26*7F
$GPGSV,5,3,18,26,29,273,35,28,20,204,35,29,55,102,41,31,08,228,37*7A
$GPGSV,5,4,18,32,57,195,39,36,52,277,,40,85,352,41,41,58,082,39*75
$GPGSV,5,5,18,49,32,274,37,50,10,089,*7C
$GLGSV,3,1,10,65,81,280,36,66,34,209,34,72,32,020,34,75,01,149,21*65
$GLGSV,3,2,10,76,25,201,28,77,21,250,35,85,03,119,,86,23,067,26*65
$GLGSV,3,3,10,87,18,020,30,,,,32*52
$GNGLL,0419.78060,S,05539.48001,E,101546.00,A,D*6A
$GNRMC,101547.00,A,0419.78038,S,05539.48043,E,1.711,58.43,220525,,,D*59
$GNVTG,58.43,T,,M,1.711,N,3.169,K,D*17
$GNGGA,101547.00,0419.78038,S,05539.48043,E,2,12,0.54,14.6,M,-47.6,M,,0000*4A
$GNGSA,A,3,29,10,32,26,23,25,18,24,15,28,16,31,1.03,0.54,0.88*12
$GNGSA,A,3,65,86,87,72,66,76,77,,,,,,1.03,0.54,0.88*19
$GPGSV,5,1,18,10,42,309,38,12,00,143,,15,06,038,27,16,15,299,32*7B
$GPGSV,5,2,18,18,19,022,38,23,27,359,35,24,10,093,32,25,25,162,33*79
$GPGSV,5,3,18,26,29,273,40,28,20,204,35,29,55,102,37,31,08,228,35*7B
$GPGSV,5,4,18,32,57,195,37,36,52,277,,40,85,352,44,41,58,082,41*71
$GPGSV,5,5,18,49,32,274,43,50,10,089,*7F
$GLGSV,3,1,10,65,81,280,35,66,34,209,32,72,32,020,34,75,01,149,21*60
$GLGSV,3,2,10,76,25,201,27,77,21,250,36,85,03,119,,86,23,067,32*6C
$GLGSV,3,3,10,87,18,020,34,,,,36*52
$GNGLL,0419.78038,S,05539.48043,E,101547.00,A,D*60
$GNRMC,101548.00,A,0419.78019,S,05539.48086,E,1.729,61.28,220525,,,D*50
$GNVTG,61.28,T,,M,1.729,N,3.203,K,D*14
$GNGGA,101548.00,0419.78019,S,05539.48086,E,2,12,0.54,14.5,M,-47.6,M,,0000*4C
$GNGSA,A,3,29,10,32,26,23,25,18,24,15,28,16,31,1.03,0.54,0.88*12
$GNGSA,A,3,65,86,87,72,66,76,77,,,,,,1.03,0.54,0.88*19
$GPGSV,5,1,18,10,42,309,40,12,00,143,,15,06,038,25,16,15,299,32*76
$GPGSV,5,2,18,18,19,022,36,23,27,359,37,24,10,093,24,25,25,162,29*79
$GPGSV,5,3,18,26,29,273,41,28,20,204,30,29,55,102,37,31,08,228,35*7F
$GPGSV,5,4,18,32,57,195,41,36,52,277,,40,85,352,41,41,58,082,38*7B
$GPGSV,5,5,18,49,32,274,41,50,10,089,*7D
$GLGSV,3,1,10,65,81,280,37,66,34,209,31,72,32,020,35,75,01,149,20*61
$GLGSV,3,2,10,76,25,201,25,77,21,250,33,85,03,119,,86,23,067,31*68
$GLGSV,3,3,10,87,18,020,32,,,,35*57
$GNGLL,0419.78019,S,05539.48086,E,101548.00,A,D*65
$GNRMC,101549.00,A,0419.77996,S,05539.48131,E,1.721,63.15,220525,,,D*59
$GNVTG,63.15,T,,M,1.721,N,3.188,K,D*10
$GNGGA,101549.00,0419.77996,S,05539.48131,E,2,12,0.55,14.5,M,-47.6,M,,0000*40
$GNGSA,A,3,29,10,32,26,23,25,18,24,15,28,16,31,1.04,0.55,0.89*15
$GNGSA,A,3,65,86,87,72,66,76,77,,,,,,1.04,0.55,0.89*1E
$GPGSV,5,1,18,10,42,309,43,12,00,143,,15,06,038,24,16,15,299,32*74
$GPGSV,5,2,18,18,19,022,39,23,27,359,38,24,10,093,20,25,25,162,34*71
$GPGSV,5,3,18,26,29,273,39,28,20,204,30,29,55,102,38,31,08,228,31*7B
$GPGSV,5,4,18,32,57,195,42,36,52,277,,40,85,352,43,41,58,082,39*7B
$GPGSV,5,5,18,49,32,274,42,50,10,089,*7E
$GLGSV,3,1,10,65,81,280,36,66,34,209,31,72,32,020,37,75,01,149,22*60
$GLGSV,3,2,10,76,25,201,25,77,21,250,34,85,03,119,,86,23,067,31*6F
$GLGSV,3,3,10,87,18,020,33,,,,32*51
$GNGLL,0419.77996,S,05539.48131,E,101549.00,A,D*68
$GNRMC,101550.00,A,0419.77983,S,05539.48169,E,1.321,66.82,220525,,,D*57
$GNVTG,66.82,T,,M,1.321,N,2.446,K,D*19
$GNGGA,101550.00,0419.77983,S,05539.48169,E,2,12,0.54,14.4,M,-47.6,M,,0000*41
$GNGSA,A,3,29,10,32,26,23,25,18,24,15,28,16,31,1.03,0.54,0.88*12
$GNGSA,A,3,65,86,87,72,66,76,77,,,,,,1.03,0.54,0.88*19
$GPGSV,5,1,18,10,42,309,41,12,00,143,,15,06,038,22,16,15,299,31*73
$GPGSV,5,2,18,18,19,022,31,23,27,359,35,24,10,093,23,25,25,162,35*76
$GPGSV,5,3,18,26,29,273,38,28,20,204,20,29,55,102,39,31,08,228,31*7A
$GPGSV,5,4,18,32,57,195,42,36,52,277,,40,85,352,42,41,58,082,36*75
$GPGSV,5,5,18,49,32,274,40,50,10,089,*7C
$GLGSV,3,1,10,65,81,285,36,66,34,209,31,72,32,020,35,75,01,149,22*67
$GLGSV,3,2,10,76,25,201,24,77,21,250,34,85,03,119,,86,23,067,32*6D
$GLGSV,3,3,10,87,18,020,31,,,,34*55
$GNGLL,0419.77983,S,05539.48169,E,101550.00,A,D*69
$GNRMC,101551.00,A,0419.77970,S,05539.48202,E,1.219,67.69,220525,,,D*5A
$GNVTG,67.69,T,,M,1.219,N,2.258,K,D*1E
$GNGGA,101551.00,0419.77970,S,05539.48202,E,2,12,0.54,14.2,M,-47.6,M,,0000*44
$GNGSA,A,3,29,10,32,26,23,25,18,24,15,28,16,31,1.03,0.54,0.88*12
$GNGSA,A,3,65,86,87,72,66,76,77,,,,,,1.03,0.54,0.88*19
$GPGSV,5,1,18,10,42,309,41,12,00,143,,15,06,038,24,16,15,299,32*76
$GPGSV,5,2,18,18,19,022,34,23,27,359,34,24,10,093,24,25,25,162,31*71
$GPGSV,5,3,18,26,29,273,35,28,20,204,29,29,55,102,39,31,08,228,32*7D
$GPGSV,5,4,18,32,57,195,39,36,52,277,,40,85,352,43,41,58,082,38*76
$GPGSV,5,5,18,49,32,274,39,50,10,089,*72
$GLGSV,3,1,10,65,81,285,36,66,34,209,30,72,32,020,31,75,01,149,19*6A
$GLGSV,3,2,10,76,25,201,21,77,21,250,33,85,03,119,,86,23,067,32*6F
$GLGSV,3,3,10,87,18,020,35,,,,30*55
$GNGLL,0419.77970,S,05539.48202,E,101551.00,A,D*6A
$GNRMC,101552.00,A,0419.77961,S,05539.48230,E,0.927,69.90,220525,,,D*57
$GNVTG,69.90,T,,M,0.927,N,1.716,K,D*1D
$GNGGA,101552.00,0419.77961,S,05539.48230,E,2,12,0.54,14.2,M,-47.6,M,,0000*46
$GNGSA,A,3,29,10,32,26,23,25,18,24,15,28,16,31,1.03,0.54,0.88*12
$GNGSA,A,3,65,86,87,72,66,76,77,,,,,,1.03,0.54,0.88*19
$GPGSV,5,1,18,10,42,309,41,12,00,143,,15,06,038,21,16,15,299,30*71
$GPGSV,5,2,18,18,19,022,39,23,27,359,37,24,10,093,25,25,25,162,30*7F
$GPGSV,5,3,18,26,29,273,37,28,20,204,28,29,55,102,40,31,08,228,34*76
$GPGSV,5,4,18,32,57,195,41,36,52,277,,40,85,352,42,41,58,082,39*79
$GPGSV,5,5,18,49,32,274,40,50,10,089,*7C
$GLGSV,3,1,10,65,81,285,35,66,34,209,30,72,32,020,31,75,01,149,19*69
$GLGSV,3,2,10,76,25,201,20,77,21,250,34,85,03,119,,86,23,067,32*69
$GLGSV,3,3,10,87,18,020,31,,,,29*59
$GNGLL,0419.77961,S,05539.48230,E,101552.00,A,D*68
$GNRMC,101553.00,A,0419.77957,S,05539.48260,E,1.116,81.88,220525,,,D*52
$GNVTG,81.88,T,,M,1.116,N,2.066,K,D*1A
$GNGGA,101553.00,0419.77957,S,05539.48260,E,2,12,0.54,14.1,M,-47.6,M,,0000*44
$GNGSA,A,3,29,10,32,26,23,25,18,24,15,28,16,31,1.03,0.54,0.88*12
$GNGSA,A,3,65,86,87,72,66,76,77,,,,,,1.03,0.54,0.88*19
$GPGSV,5,1,18,10,42,309,40,12,00,143,,15,06,038,27,16,15,299,30*76
$GPGSV,5,2,18,18,19,022,36,23,27,359,29,24,10,093,27,25,25,162,30*7D
$GPGSV,5,3,18,26,29,273,26,28,20,204,29,29,55,102,39,31,08,228,32*7F
$GPGSV,5,4,18,32,57,195,41,36,52,277,,40,85,352,40,41,58,082,36*74
$GPGSV,5,5,18,49,32,274,35,50,10,089,*7E
$GLGSV,3,1,10,65,81,285,35,66,34,209,34,72,32,020,33,75,01,149,19*6F
$GLGSV,3,2,10,76,25,201,20,77,21,250,32,85,03,119,,86,23,067,29*65
$GLGSV,3,3,10,87,18,020,34,,,,32*56
$GNGLL,0419.77957,S,05539.48260,E,101553.00,A,D*69
$GNRMC,101554.00,A,0419.77953,S,05539.48297,E,1.468,83.07,220525,,,D*50
$GNVTG,83.07,T,,M,1.468,N,2.719,K,D*1C
$GNGGA,101554.00,0419.77953,S,05539.48297,E,2,12,0.54,14.2,M,-47.6,M,,0000*4C
$GNGSA,A,3,29,10,32,26,23,25,18,24,15,28,16,31,1.03,0.54,0.88*12
$GNGSA,A,3,65,86,87,72,66,76,77,,,,,,1.03,0.54,0.88*19
$GPGSV,5,1,18,10,42,309,42,12,00,143,,15,06,038,26,16,15,299,31*74
$GPGSV,5,2,18,18,19,022,38,23,27,359,39,24,10,093,29,25,25,162,30*7C
$GPGSV,5,3,18,26,29,273,32,28,20,204,29,29,55,102,38,31,08,228,36*7F
$GPGSV,5,4,18,32,57,195,41,36,52,277,,40,85,352,41,41,58,082,40*74
$GPGSV,5,5,18,49,32,274,40,50,10,089,*7C
$GLGSV,3,1,10,65,81,285,35,66,34,209,37,72,32,020,36,75,01,149,20*63
$GLGSV,3,2,10,76,25,201,29,77,21,250,36,85,03,119,,86,23,067,33*63
$GLGSV,3,3,10,87,18,020,34,,,,35*51
$GNGLL,0419.77953,S,05539.48297,E,101554.00,A,D*62
$GNRMC,101555.00,A,0419.77951,S,05539.48337,E,1.385,85.28,220525,,,D*57
$GNVTG,85.28,T,,M,1.385,N,2.566,K,D*19
$GNGGA,101555.00,0419.77951,S,05539.48337,E,2,12,0.54,14.3,M,-47.6,M,,0000*45
$GNGSA,A,3,29,10,32,26,23,25,18,24,15,28,16,31,1.03,0.54,0.88*12
$GNGSA,A,3,65,86,87,72,66,76,77,,,,,,1.03,0.54,0.88*19
$GPGSV,5,1,18,10,42,309,42,12,00,143,,15,06,038,26,16,15,299,31*74
$GPGSV,5,2,18,18,19,022,39,23,27,359,34,24,10,093,27,25,25,162,30*7E
$GPGSV,5,3,18,26,29,273,39,28,20,204,29,29,55,102,40,31,08,228,36*7B
$GPGSV,5,4,18,32,57,195,42,36,52,277,,40,85,352,41,41,58,082,38*78
$GPGSV,5,5,18,49,32,274,42,50,10,089,*7E
$GLGSV,3,1,10,65,81,285,36,66,34,209,33,72,32,020,34,75,01,149,21*67
$GLGSV,3,2,10,76,25,201,23,77,21,250,35,85,03,119,,86,23,067,31*68
$GLGSV,3,3,10,87,18,020,34,,,,34*50
$GNGLL,0419.77951,S,05539.48337,E,101555.00,A,D*6A
$GNRMC,101556.00,A,0419.77951,S,05539.48372,E,1.196,86.75,220525,,,D*5E
$GNVTG,86.75,T,,M,1.196,N,2.215,K,D*11
$GNGGA,101556.00,0419.77951,S,05539.48372,E,2,12,0.54,14.3,M,-47.6,M,,0000*47
$GNGSA,A,3,29,10,32,26,23,25,18,24,15,28,16,31,1.03,0.54,0.88*12
$GNGSA,A,3,65,86,87,72,66,76,77,,,,,,1.03,0.54,0.88*19
$GPGSV,5,1,18,10,42,309,40,12,00,143,,15,06,038,27,16,15,299,31*77
$GPGSV,5,2,18,18,19,022,40,23,27,359,33,24,10,093,29,25,25,162,29*71
$GPGSV,5,3,18,26,29,273,36,28,20,204,31,29,55,102,42,31,08,228,35*7C
$GPGSV,5,4,18,32,57,195,42,36,52,277,,40,85,352,42,41,58,082,39*7A
$GPGSV,5,5,18,49,32,274,42,50,10,089,*7E
$GLGSV,3,1,10,65,81,285,36,66,34,209,34,72,32,020,34,75,01,149,19*6B
$GLGSV,3,2,10,76,25,201,25,77,21,250,35,85,03,119,,86,23,067,31*6E
$GLGSV,3,3,10,87,18,020,35,,,,35*50
$GNGLL,0419.77951,S,05539.48372,E,101556.00,A,D*68
$GNRMC,101557.00,A,0419.77947,S,05539.48407,E,1.297,83.29,220525,,,D*53
$GNVTG,83.29,T,,M,1.297,N,2.402,K,D*1F
$GNGGA,101557.00,0419.77947,S,05539.48407,E,2,12,0.55,14.3,M,-47.6,M,,0000*45
$GNGSA,A,3,29,10,32,26,23,25,18,24,28,16,31,41,1.07,0.55,0.92*1D
$GNGSA,A,3,65,86,87,72,66,76,77,,,,,,1.07,0.55,0.92*17
$GPGSV,5,1,18,10,42,309,43,12,00,143,,15,06,038,,16,15,299,31*71
$GPGSV,5,2,18,18,19,022,39,23,27,359,36,24,10,093,29,25,25,162,31*73
$GPGSV,5,3,18,26,29,273,36,28,20,204,32,29,55,102,39,31,08,228,36*70
$GPGSV,5,4,18,32,57,195,41,36,52,277,,40,85,352,42,41,58,082,40*77
$GPGSV,5,5,18,49,32,274,41,50,10,089,*7D
$GLGSV,3,1,10,65,81,285,36,66,34,209,36,72,31,020,34,75,01,149,19*6A
$GLGSV,3,2,10,76,25,201,24,77,21,250,37,85,03,119,,86,23,067,31*6D
$GLGSV,3,3,10,87,18,020,33,,,,33*50
$GNGLL,0419.77947,S,05539.48407,E,101557.00,A,D*6B
$GNRMC,101558.00,A,0419.77942,S,05539.48442,E,1.248,81.52,220525,,,D*54
$GNVTG,81.52,T,,M,1.248,N,2.312,K,D*15
$GNGGA,101558.00,0419.77942,S,05539.48442,E,2,12,0.55,14.4,M,-47.6,M,,0000*49
$GNGSA,A,3,29,10,32,26,23,25,18,24,28,16,31,41,1.07,0.55,0.92*1D
$GNGSA,A,3,65,86,87,72,66,76,77,,,,,,1.07,0.55,0.92*17
$GPGSV,5,1,18,10,42,309,42,12,00,143,,15,06,038,,16,15,299,32*73
$GPGSV,5,2,18,18,19,022,38,23,27,359,34,24,10,093,28,25,25,162,31*71
$GPGSV,5,3,18,26,29,273,40,28,20,204,31,29,55,102,39,31,08,228,37*73
$GPGSV,5,4,18,32,57,195,41,36,52,277,,40,85,352,43,41,58,082,40*76
$GPGSV,5,5,18,49,32,274,42,50,10,089,*7E
$GLGSV,3,1,10,65,81,285,36,66,34,209,33,72,31,020,34,75,01,149,16*60
$GLGSV,3,2,10,76,25,201,22,77,21,250,34,85,03,119,,86,23,067,32*6B
$GLGSV,3,3,10,87,18,020,33,,,,32*51
$GNGLL,0419.77942,S,05539.48442,E,101558.00,A,D*60
$GNRMC,101559.00,A,0419.77936,S,05539.48478,E,1.393,79.24,220525,,,D*5E
$GNVTG,79.24,T,,M,1.393,N,2.579,K,D*1F
$GNGGA,101559.00,0419.77936,S,05539.48478,E,2,12,0.55,14.4,M,-47.6,M,,0000*42
$GNGSA,A,3,29,10,32,26,23,25,18,24,28,16,31,41,1.07,0.55,0.92*1D
$GNGSA,A,3,65,86,87,72,66,76,77,,,,,,1.07,0.55,0.92*17
$GPGSV,5,1,18,10,42,309,41,12,00,143,,15,06,038,,16,15,299,31*73
$GPGSV,5,2,18,18,19,022,38,23,27,359,34,24,10,093,32,25,25,162,32*79
$GPGSV,5,3,18,26,29,273,38,28,20,204,31,29,55,102,38,31,08,228,37*7D
$GPGSV,5,4,18,32,57,195,42,36,52,277,,40,85,352,43,41,58,082,39*7B
$GPGSV,5,5,18,49,32,274,40,50,10,089,*7C
$GLGSV,3,1,10,65,81,285,37,66,34,209,35,72,31,020,35,75,01,149,11*61
$GLGSV,3,2,10,76,25,201,22,77,21,250,33,85,03,119,,86,23,067,31*6F
$GLGSV,3,3,10,87,18,020,33,,,,28*5A
$GNGLL,0419.77936,S,05539.48478,E,101559.00,A,D*6B
$GNRMC,101600.00,A,0419.77926,S,05539.48515,E,1.433,73.66,220525,,,D*5B
$GNVTG,73.66,T,,M,1.433,N,2.654,K,D*12
$GNGGA,101600.00,0419.77926,S,05539.48515,E,2,12,0.55,14.4,M,-47.6,M,,0000*46
$GNGSA,A,3,29,10,32,26,23,25,18,24,28,16,31,41,1.07,0.55,0.92*1D
$GNGSA,A,3,65,86,87,72,66,76,77,,,,,,1.07,0.55,0.92*17
$GPGSV,5,1,18,10,42,309,41,12,00,143,,15,06,038,,16,15,299,33*71
$GPGSV,5,2,18,18,19,022,38,23,27,359,36,24,10,093,26,25,25,162,35*79
$GPGSV,5,3,18,26,29,273,40,28,20,204,34,29,55,102,40,31,08,228,35*7A
$GPGSV,5,4,18,32,57,195,42,36,52,277,,40,85,352,43,41,58,082,36*74
$GPGSV,5,5,18,49,32,274,42,50,10,089,*7E
$GLGSV,3,1,10,65,81,285,37,66,34,209,31,72,31,020,35,75,01,149,10*64
$GLGSV,3,2,10,76,25,201,26,77,21,250,36,85,03,119,,86,23,067,32*6D
$GLGSV,3,3,10,87,18,020,33,,,,33*50
$GNGLL,0419.77926,S,05539.48515,E,101600.00,A,D*6F
$GNRMC,101601.00,A,0419.77917,S,05539.48550,E,1.256,75.57,220525,,,D*58
$GNVTG,75.57,T,,M,1.256,N,2.326,K,D*13
$GNGGA,101601.00,0419.77917,S,05539.48550,E,2,12,0.55,14.6,M,-47.6,M,,0000*46
$GNGSA,A,3,29,10,32,26,23,25,18,24,28,16,31,41,1.07,0.55,0.92*1D
$GNGSA,A,3,65,86,87,72,66,76,77,,,,,,1.07,0.55,0.92*17
$GPGSV,5,1,18,10,42,309,40,12,00,143,,15,06,038,,16,15,299,32*71
$GPGSV,5,2,18,18,19,022,36,23,27,359,36,24,10,093,25,25,25,162,33*72
$GPGSV,5,3,18,26,29,273,39,28,20,204,28,29,55,102,38,31,08,228,35*76
$GPGSV,5,4,18,32,57,195,42,36,52,277,,40,85,352,43,41,58,082,38*7A
$GPGSV,5,5,18,49,32,274,41,50,10,089,*7D
$GLGSV,3,1,10,65,81,285,37,66,34,209,35,72,31,020,33,75,01,149,17*61
$GLGSV,3,2,10,76,24,200,31,77,21,250,32,85,03,119,,86,23,067,31*6C
$GLGSV,3,3,10,87,18,020,28,,,,30*59
$GNGLL,0419.77917,S,05539.48550,E,101601.00,A,D*6D
$GNRMC,101602.00,A,0419.77906,S,05539.48585,E,1.429,71.53,220525,,,D*5D
$GNVTG,71.53,T,,M,1.429,N,2.647,K,D*1F
$GNGGA,101602.00,0419.77906,S,05539.48585,E,2,12,0.55,14.4,M,-47.6,M,,0000*4F
$GNGSA,A,3,29,10,32,26,23,25,18,24,28,16,31,41,1.07,0.55,0.92*1D
$GNGSA,A,3,65,86,87,72,66,76,77,,,,,,1.07,0.55,0.92*17
$GPGSV,5,1,18,10,42,309,41,12,00,143,,15,06,038,28,16,15,299,33*7B
$GPGSV,5,2,18,18,19,022,38,23,27,359,37,24,10,093,26,25,25,162,33*7E
$GPGSV,5,3,18,26,29,273,33,28,20,204,33,29,55,102,37,31,08,228,33*7F
$GPGSV,5,4,18,32,57,195,42,36,52,277,,40,85,352,41,41,58,082,39*79
$GPGSV,5,5,18,49,32,274,39,50,10,089,*72
$GLGSV,3,1,10,65,81,285,36,66,34,209,35,72,31,020,33,75,01,149,20*64
$GLGSV,3,2,10,76,24,200,31,77,21,250,33,85,03,119,,86,23,067,32*6E
$GLGSV,3,3,10,87,18,020,34,,,,34*50
$GNGLL,0419.77906,S,05539.48585,E,101602.00,A,D*66
$GNRMC,101603.00,A,0419.77887,S,05539.48619,E,1.387,63.41,220525,,,D*51
$GNVTG,63.41,T,,M,1.387,N,2.568,K,D*12
$GNGGA,101603.00,0419.77887,S,05539.48619,E,2,12,0.55,14.6,M,-47.6,M,,0000*42
$GNGSA,A,3,29,10,32,26,23,25,18,24,15,28,16,31,1.04,0.55,0.89*15
$GNGSA,A,3,65,86,87,72,66,76,77,,,,,,1.04,0.55,0.89*1E
$GPGSV,5,1,18,10,42,309,42,12,00,143,,15,06,038,27,16,15,299,32*76
$GPGSV,5,2,18,18,19,022,33,23,27,359,39,24,10,093,26,25,25,162,36*7E
$GPGSV,5,3,18,26,29,273,38,28,20,204,34,29,55,102,39,31,08,228,34*7A
$GPGSV,5,4,18,32,57,195,42,36,52,277,,40,85,352,44,41,58,082,41*73
$GPGSV,5,5,18,49,32,274,42,50,10,089,*7E
$GLGSV,3,1,10,65,81,285,36,66,34,209,33,72,31,020,33,75,01,149,22*60
$GLGSV,3,2,10,76,24,200,30,77,21,250,33,85,03,119,,86,23,067,26*6A
$GLGSV,3,3,10,87,18,020,31,,,,30*51
$GNGLL,0419.77887,S,05539.48619,E,101603.00,A,D*69
$GNRMC,101604.00,A,0419.77875,S,05539.48644,E,0.849,64.91,220525,,,D*51
$GNVTG,64.91,T,,M,0.849,N,1.573,K,D*19
$GNGGA,101604.00,0419.77875,S,05539.48644,E,2,12,0.54,14.3,M,-47.6,M,,0000*44
$GNGSA,A,3,29,10,32,26,23,25,18,24,15,28,16,31,1.03,0.54,0.88*12
$GNGSA,A,3,65,86,87,72,66,76,77,,,,,,1.03,0.54,0.88*19
$GPGSV,5,1,18,10,42,309,41,12,00,143,,15,06,038,25,16,15,299,36*73
$GPGSV,5,2,18,18,19,022,36,23,27,359,37,24,10,093,28,25,25,162,32*7F
$GPGSV,5,3,18,26,29,273,36,28,20,204,34,29,55,102,43,31,08,228,34*79
$GPGSV,5,4,18,32,57,195,41,36,52,277,,40,85,352,39,41,58,082,39*75
$GPGSV,5,5,18,49,32,274,41,50,10,089,*7D
$GLGSV,3,1,10,65,81,285,36,66,34,209,28,72,31,020,32,75,01,149,20*69
$GLGSV,3,2,10,76,24,200,26,77,21,250,34,85,03,119,,86,23,067,27*6B
$GLGSV,3,3,10,87,18,020,34,,,,37*53
$GNGLL,0419.77875,S,05539.48644,E,101604.00,A,D*6B
$GNRMC,101605.00,A,0419.77861,S,05539.48661,E,0.755,53.90,220525,,,D*55
$GNVTG,53.90,T,,M,0.755,N,1.399,K,D*1C
$GNGGA,101605.00,0419.77861,S,05539.48661,E,2,12,0.54,14.3,M,-47.6,M,,0000*47
$GNGSA,A,3,29,10,32,26,23,25,18,24,15,28,16,31,1.03,0.54,0.88*12
$GNGSA,A,3,65,86,87,72,66,76,77,,,,,,1.03,0.54,0.88*19
$GPGSV,5,1,18,10,42,309,43,12,00,143,,15,06,038,31,16,15,299,36*74
$GPGSV,5,2,18,18,19,022,40,23,27,359,40,24,10,093,13,25,25,162,31*75
$GPGSV,5,3,18,26,29,273,39,28,20,204,36,29,55,102,40,31,08,228,37*74
$GPGSV,5,4,18,32,57,195,39,36,52,277,,40,85,352,45,41,58,082,41*7E
$GPGSV,5,5,18,49,32,274,42,50,10,089,*7E
$GLGSV,3,1,10,65,81,285,36,66,34,209,33,72,31,020,36,75,01,149,18*6C
$GLGSV,3,2,10,76,24,200,28,77,21,250,35,85,03,119,,86,23,067,32*60
$GLGSV,3,3,10,87,18,020,32,,,,39*5B
$GNGLL,0419.77861,S,05539.48661,E,101605.00,A,D*68
$GNRMC,101606.00,A,0419.77845,S,05539.48676,E,0.789,48.99,220525,,,D*54
$GNVTG,48.99,T,,M,0.789,N,1.460,K,D*1F
$GNGGA,101606.00,0419.77845,S,05539.48676,E,2,12,0.54,14.3,M,-47.6,M,,0000*44
$GNGSA,A,3,29,10,32,26,23,25,18,24,15,28,16,31,1.03,0.54,0.88*12
$GNGSA,A,3,65,86,87,72,66,76,77,,,,,,1.03,0.54,0.88*19
$GPGSV,5,1,18,10,42,309,42,12,00,143,,15,06,038,30,16,15,299,33*71
$GPGSV,5,2,18,18,19,022,36,23,27,359,34,24,10,093,23,25,25,162,32*77
$GPGSV,5,3,18,26,29,273,34,28,20,204,33,29,55,102,41,31,08,228,39*73
$GPGSV,5,4,18,32,57,195,44,36,52,277,,40,85,352,42,41,58,082,38*7D
$GPGSV,5,5,18,49,32,274,39,50,10,089,*72
$GLGSV,3,1,10,65,81,285,35,66,34,209,32,72,31,020,29,75,01,149,15*6D
$GLGSV,3,2,10,76,24,200,31,77,21,250,32,85,03,119,,86,23,067,29*65
$GLGSV,3,3,10,87,18,020,26,,,,31*56
$GNGLL,0419.77845,S,05539.48676,E,101606.00,A,D*6B
$GNRMC,101607.00,A,0419.77827,S,05539.48695,E,0.997,49.54,220525,,,D*5D
$GNVTG,49.54,T,,M,0.997,N,1.846,K,D*16
$GNGGA,101607.00,0419.77827,S,05539.48695,E,2,12,0.54,14.3,M,-47.6,M,,0000*4C
$GNGSA,A,3,29,10,32,26,23,25,18,24,15,28,16,31,1.03,0.54,0.88*12
$GNGSA,A,3,65,86,87,72,66,76,77,,,,,,1.03,0.54,0.88*19
$GPGSV,5,1,18,10,42,309,40,12,00,143,,15,06,038,29,16,15,299,32*7A
$GPGSV,5,2,18,18,19,022,39,23,27,359,35,24,10,093,25,25,25,162,32*7F
$GPGSV,5,3,18,26,29,273,30,28,20,204,36,29,55,102,44,31,08,228,35*7B
$GPGSV,5,4,18,32,57,195,43,36,52,277,,40,85,352,44,41,58,082,42*71
$GPGSV,5,5,18,49,32,274,43,50,10,089,*7F
$GLGSV,3,1,10,65,81,285,36,66,34,209,36,72,31,020,34,75,01,149,10*63
$GLGSV,3,2,10,76,24,200,31,77,21,250,33,85,03,119,,86,23,067,28*65
$GLGSV,3,3,10,87,18,020,32,,,,38*5A
$GNGLL,0419.77827,S,05539.48695,E,101607.00,A,D*63
$GNRMC,101608.00,A,0419.77806,S,05539.48714,E,0.988,43.07,220525,,,D*5B
$GNVTG,43.07,T,,M,0.988,N,1.829,K,D*1D
$GNGGA,101608.00,0419.77806,S,05539.48714,E,2,12,0.56,14.4,M,-47.6,M,,0000*4D
$GNGSA,A,3,29,10,32,26,23,25,18,24,15,28,16,31,1.08,0.56,0.93*11
$GNGSA,A,3,65,86,87,72,66,76,77,,,,,,1.08,0.56,0.93*1A
$GPGSV,5,1,18,10,42,309,41,12,00,143,,15,06,038,24,16,15,299,33*77
$GPGSV,5,2,18,18,19,022,37,23,27,359,33,24,10,093,25,25,25,162,27*73
$GPGSV,5,3,18,26,29,273,38,28,20,204,34,29,55,102,43,31,08,228,32*71
$GPGSV,5,4,18,32,57,195,43,36,52,277,,40,85,352,43,41,58,082,42*76
$GPGSV,5,5,18,49,32,274,41,50,10,089,*7D
$GLGSV,3,1,10,65,81,285,38,66,34,209,38,72,31,020,32,75,01,149,05*61
$GLGSV,3,2,10,76,24,200,33,77,21,250,35,85,03,119,,86,23,067,27*6E
$GLGSV,3,3,10,87,18,020,32,,,,34*56
$GNGLL,0419.77806,S,05539.48714,E,101608.00,A,D*67
$GNRMC,101609.00,A,0419.77787,S,05539.48733,E,0.891,41.18,220525,,,D*5C
$GNVTG,41.18,T,,M,0.891,N,1.649,K,D*10
$GNGGA,101609.00,0419.77787,S,05539.48733,E,2,12,0.56,14.4,M,-47.6,M,,0000*4F
$GNGSA,A,3,29,10,32,26,23,25,18,24,15,28,16,31,1.08,0.56,0.93*11
$GNGSA,A,3,65,86,87,72,66,76,77,,,,,,1.08,0.56,0.93*1A
$GPGSV,5,1,18,10,42,309,39,12,00,143,,15,06,038,31,16,15,299,32*7D
$GPGSV,5,2,18,18,19,022,37,23,27,359,36,24,10,093,27,25,25,162,31*73
$GPGSV,5,3,18,26,29,273,37,28,20,204,35,29,55,102,43,31,08,228,34*79
$GPGSV,5,4,18,32,57,195,41,36,52,277,,40,85,352,41,41,58,082,42*76
$GPGSV,5,5,18,49,32,274,42,50,10,089,*7E
$GLGSV,3,1,10,65,81,285,35,66,34,209,38,72,31,020,32,75,01,149,17*6F
$GLGSV,3,2,10,76,24,200,33,77,21,250,35,85,03,119,,86,23,067,25*6C
$GLGSV,3,3,10,87,18,020,33,,,,33*50
$GNGLL,0419.77787,S,05539.48733,E,101609.00,A,D*65
$GNRMC,101610.00,A,0419.77766,S,05539.48751,E,1.027,40.83,220525,,,D*58
$GNVTG,40.83,T,,M,1.027,N,1.901,K,D*14
$GNGGA,101610.00,0419.77766,S,05539.48751,E,2,12,0.56,14.4,M,-47.6,M,,0000*4C
$GNGSA,A,3,29,10,32,26,23,25,18,24,15,28,16,31,1.08,0.56,0.93*11
$GNGSA,A,3,65,86,87,72,66,76,77,,,,,,1.08,0.56,0.93*1A
$GPGSV,5,1,18,10,42,309,41,12,00,143,,15,06,038,30,16,15,299,32*73
$GPGSV,5,2,18,18,19,022,37,23,27,359,36,24,10,093,33,25,25,162,23*75
$GPGSV,5,3,18,26,29,273,36,28,20,204,34,29,55,102,40,31,08,228,35*7B
$GPGSV,5,4,18,32,57,195,40,36,52,277,,40,85,352,42,41,58,082,40*76
$GPGSV,5,5,18,49,32,274,38,50,10,089,*73
$GLGSV,3,1,10,65,81,285,36,66,34,209,39,72,31,020,33,75,01,149,24*6C
$GLGSV,3,2,10,76,24,200,27,77,21,250,34,85,03,120,,86,23,067,30*66
$GLGSV,3,3,10,87,18,020,33,,,,33*50
$GNGLL,0419.77766,S,05539.48751,E,101610.00,A,D*66
$GNRMC,101611.00,A,0419.77745,S,05539.48768,E,0.981,41.71,220525,,,D*5A
$GNVTG,41.71,T,,M,0.981,N,1.816,K,D*1B
$GNGGA,101611.00,0419.77745,S,05539.48768,E,2,12,0.54,14.5,M,-47.6,M,,0000*45
$GNGSA,A,3,29,10,32,26,23,25,18,24,15,28,16,31,1.03,0.54,0.88*12
$GNGSA,A,3,65,86,87,72,66,76,77,,,,,,1.03,0.54,0.88*19
$GPGSV,5,1,18,10,42,309,42,12,00,143,,15,06,038,31,16,15,299,33*70
$GPGSV,5,2,18,18,19,022,34,23,27,359,34,24,10,093,32,25,25,162,25*73
$GPGSV,5,3,18,26,29,273,36,28,20,204,31,29,55,102,40,31,08,228,36*7D
$GPGSV,5,4,18,32,57,195,40,36,52,277,,40,85,352,41,41,58,082,41*74
$GPGSV,5,5,18,49,32,274,39,50,10,089,*72
$GLGSV,3,1,10,65,81,285,35,66,34,209,39,72,31,020,28,75,01,149,25*64
$GLGSV,3,2,10,76,24,200,31,77,21,250,34,85,03,120,,86,23,068,28*67
$GLGSV,3,3,10,87,18,020,30,,,,28*59
$GNGLL,0419.77745,S,05539.48768,E,101611.00,A,D*6C
$GNRMC,101612.00,A,0419.77726,S,05539.48780,E,0.667,37.82,220525,,,D*50
$GNVTG,37.82,T,,M,0.667,N,1.235,K,D*1A
$GNGGA,101612.00,0419.77726,S,05539.48780,E,2,12,0.54,14.4,M,-47.6,M,,0000*44
$GNGSA,A,3,29,10,32,26,23,25,18,24,15,28,16,31,1.03,0.54,0.88*12
$GNGSA,A,3,65,86,87,72,66,76,77,,,,,,1.03,0.54,0.88*19
$GPGSV,5,1,18,10,42,309,40,12,00,143,,15,06,038,33,16,15,299,33*70
$GPGSV,5,2,18,18,19,022,34,23,27,359,30,24,10,093,36,25,25,162,31*76
$GPGSV,5,3,18,26,29,273,37,28,20,204,34,29,55,102,37,31,08,228,38*77
$GPGSV,5,4,18,32,57,195,38,36,52,277,,40,85,352,42,41,58,082,40*79
$GPGSV,5,5,18,49,32,274,39,50,10,089,*72
$GLGSV,3,1,10,65,81,285,35,66,34,209,39,72,31,020,27,75,01,149,22*6C
$GLGSV,3,2,10,76,24,200,31,77,21,250,33,85,03,120,,86,23,068,28*60
$GLGSV,3,3,10,87,19,021,28,,,,27*5F
$GNGLL,0419.77726,S,05539.48780,E,101612.00,A,D*6C
$GNRMC,101613.00,A,0419.77702,S,05539.48788,E,1.035,20.99,220525,,,D*53
$GNVTG,20.99,T,,M,1.035,N,1.917,K,D*1D
$GNGGA,101613.00,0419.77702,S,05539.48788,E,2,12,0.54,14.5,M,-47.6,M,,0000*4A
$GNGSA,A,3,29,10,32,26,23,25,18,24,15,28,16,31,1.03,0.54,0.88*12
$GNGSA,A,3,65,86,87,72,66,76,77,,,,,,1.03,0.54,0.88*19
$GPGSV,5,1,18,10,42,309,43,12,00,143,,15,06,038,29,16,15,299,32*79
$GPGSV,5,2,18,18,19,022,34,23,27,359,40,24,10,093,34,25,25,162,34*76
$GPGSV,5,3,18,26,29,273,37,28,20,204,30,29,55,102,37,31,08,228,33*78
$GPGSV,5,4,18,32,57,195,39,36,52,277,,40,85,352,44,41,58,082,38*71
$GPGSV,5,5,18,49,32,274,38,50,10,089,*73
$GLGSV,3,1,10,65,81,285,35,66,34,209,42,72,31,020,27,75,01,149,21*63
$GLGSV,3,2,10,76,24,200,35,77,21,250,34,85,03,120,,86,23,068,26*6D
$GLGSV,3,3,10,87,19,021,29,,,,36*5E
$GNGLL,0419.77702,S,05539.48788,E,101613.00,A,D*63
$GNRMC,101614.00,A,0419.77678,S,05539.48796,E,0.879,17.22,220525,,,D*52
$GNVTG,17.22,T,,M,0.879,N,1.628,K,D*1B
$GNGGA,101614.00,0419.77678,S,05539.48796,E,2,12,0.54,14.1,M,-47.6,M,,0000*4A
$GNGSA,A,3,29,10,32,26,23,25,18,24,15,28,16,31,1.03,0.54,0.88*12
$GNGSA,A,3,65,86,87,72,66,76,77,,,,,,1.03,0.54,0.88*19
$GPGSV,5,1,18,10,42,309,40,12,00,143,,15,06,038,38,16,15,299,34*7C
$GPGSV,5,2,18,18,19,022,35,23,27,359,32,24,10,093,34,25,25,162,31*77
$GPGSV,5,3,18,26,29,273,29,28,20,204,37,29,55,102,39,31,08,228,37*7A
$GPGSV,5,4,18,32,57,195,35,36,52,277,,40,85,352,40,41,58,082,38*79
$GPGSV,5,5,18,49,32,274,40,50,10,089,*7C
$GLGSV,3,1,10,65,81,285,35,66,34,209,40,72,31,020,27,75,01,149,18*6B
$GLGSV,3,2,10,76,24,200,38,77,21,250,29,85,03,120,,86,23,068,26*6C
$GLGSV,3,3,10,87,19,021,28,,,,29*51
$GNGLL,0419.77678,S,05539.48796,E,101614.00,A,D*67
$GNRMC,101615.00,A,0419.77653,S,05539.48797,E,0.773,10.45,220525,,,D*58
$GNVTG,10.45,T,,M,0.773,N,1.431,K,D*12
$GNGGA,101615.00,0419.77653,S,05539.48797,E,2,12,0.54,14.3,M,-47.6,M,,0000*41
$GNGSA,A,3,29,10,32,26,23,25,18,24,15,28,16,31,1.03,0.54,0.88*12
$GNGSA,A,3,65,86,87,72,66,76,77,,,,,,1.03,0.54,0.88*19
$GPGSV,5,1,18,10,42,309,43,12,00,143,,15,06,038,33,16,15,299,34*74
$GPGSV,5,2,18,18,19,022,25,23,27,359,37,24,10,093,34,25,25,162,23*70
$GPGSV,5,3,18,26,29,273,34,28,20,204,39,29,55,102,39,31,08,228,38*77
$GPGSV,5,4,18,32,57,195,37,36,52,277,,40,85,352,44,41,58,082,38*7F
$GPGSV,5,5,18,49,32,274,41,50,10,089,*7D
$GLGSV,3,1,10,65,81,285,36,66,34,209,42,72,31,020,27,75,01,149,15*67
$GLGSV,3,2,10,76,24,200,32,77,21,250,35,85,03,120,,86,23,068,26*6B
$GLGSV,3,3,10,87,19,021,21,,,,19*5B
$GNGLL,0419.77653,S,05539.48797,E,101615.00,A,D*6E
$GNRMC,101616.00,A,0419.77629,S,05539.48799,E,0.911,9.26,220525,,,D*6F
$GNVTG,9.26,T,,M,0.911,N,1.687,K,D*2A
$GNGGA,101616.00,0419.77629,S,05539.48799,E,2,12,0.54,14.4,M,-47.6,M,,0000*46
$GNGSA,A,3,29,10,32,26,23,25,18,24,15,28,16,31,1.03,0.54,0.88*12
$GNGSA,A,3,65,86,87,72,66,76,77,,,,,,1.03,0.54,0.88*19
$GPGSV,5,1,18,10,42,309,37,12,00,143,,15,06,038,30,16,15,299,29*78
$GPGSV,5,2,18,18,19,022,30,23,27,359,33,24,10,093,33,25,25,162,25*71
$GPGSV,5,3,18,26,29,273,33,28,20,204,35,29,55,102,40,31,08,228,37*7D
$GPGSV,5,4,18,32,57,195,38,36,52,277,,40,85,352,42,41,58,082,39*77
$GPGSV,5,5,18,49,32,274,39,50,10,089,*72
$GLGSV,3,1,10,65,81,285,36,66,34,209,42,72,31,020,27,75,01,149,15*67
$GLGSV,3,2,10,76,24,200,40,77,21,250,35,85,03,120,,86,23,068,24*6C
$GLGSV,3,3,10,87,19,021,22,,,,18*59
$GNGLL,0419.77629,S,05539.48799,E,101616.00,A,D*6E
$GNRMC,101617.00,A,0419.77602,S,05539.48806,E,1.025,14.22,220525,,,D*59
$GNVTG,14.22,T,,M,1.025,N,1.898,K,D*1D
$GNGGA,101617.00,0419.77602,S,05539.48806,E,2,12,0.54,14.5,M,-47.6,M,,0000*46
$GNGSA,A,3,29,10,32,26,23,25,18,24,15,28,16,31,1.03,0.54,0.88*12
$GNGSA,A,3,65,86,87,72,66,76,77,,,,,,1.03,0.54,0.88*19
$GPGSV,5,1,18,10,42,309,39,12,00,143,,15,06,038,33,16,15,299,29*75
$GPGSV,5,2,18,18,19,022,30,23,27,359,37,24,10,093,33,25,25,162,26*76
$GPGSV,5,3,18,26,29,273,37,28,20,204,38,29,55,102,38,31,08,228,37*7B
$GPGSV,5,4,18,32,57,195,37,36,52,277,,40,85,352,44,41,58,082,38*7F
$GPGSV,5,5,18,49,32,274,35,50,10,089,*7E
$GLGSV,3,1,10,65,81,285,37,66,34,209,42,72,31,020,26,75,01,149,21*60
$GLGSV,3,2,10,76,24,200,36,77,21,250,32,85,03,120,,86,23,068,22*6C
$GLGSV,3,3,10,87,19,021,22,,,,27*55
$GNGLL,0419.77602,S,05539.48806,E,101617.00,A,D*6F
$GNRMC,101618.00,A,0419.77578,S,05539.48817,E,0.913,21.67,220525,,,D*52
$GNVTG,21.67,T,,M,0.913,N,1.691,K,D*10
$GNGGA,101618.00,0419.77578,S,05539.48817,E,2,12,0.54,14.6,M,-47.6,M,,0000*44
$GNGSA,A,3,29,10,32,26,23,25,18,24,15,28,16,31,1.03,0.54,0.88*12
$GNGSA,A,3,65,86,87,72,66,76,77,,,,,,1.03,0.54,0.88*19
$GPGSV,5,1,18,10,42,309,34,12,00,143,,15,06,038,31,16,15,299,31*73
$GPGSV,5,2,18,18,19,022,35,23,27,359,39,24,10,093,32,25,25,162,26*7C
$GPGSV,5,3,18,26,29,273,37,28,20,204,36,29,55,102,40,31,08,228,40*7A
$GPGSV,5,4,18,32,57,195,41,36,52,277,,40,85,352,42,41,58,082,38*78
$GPGSV,5,5,18,49,32,274,36,50,10,089,*7D
$GLGSV,3,1,10,65,81,285,36,66,34,209,40,72,31,020,25,75,01,149,22*63
$GLGSV,3,2,10,76,24,200,40,77,21,250,28,85,03,120,,86,23,068,20*64
$GLGSV,3,3,10,87,19,021,26,,,,25*53
$GNGLL,0419.77578,S,05539.48817,E,101618.00,A,D*6E
$GNRMC,101619.00,A,0419.77545,S,05539.48834,E,1.497,24.06,220525,,,D*5E
$GNVTG,24.06,T,,M,1.497,N,2.772,K,D*1D
$GNGGA,101619.00,0419.77545,S,05539.48834,E,2,12,0.54,14.6,M,-47.6,M,,0000*4A
$GNGSA,A,3,29,10,32,26,23,25,18,24,15,28,16,31,1.03,0.54,0.88*12
$GNGSA,A,3,65,86,87,72,66,76,77,,,,,,1.03,0.54,0.88*19
$GPGSV,5,1,18,10,42,309,37,12,00,143,,15,06,038,29,16,15,299,35*7D
$GPGSV,5,2,18,18,19,022,35,23,27,359,35,24,10,093,32,25,25,162,25*73
$GPGSV,5,3,18,26,29,273,38,28,20,204,38,29,55,102,38,31,08,228,40*74
$GPGSV,5,4,18,32,57,195,37,36,52,277,,40,85,352,43,41,58,082,40*77
$GPGSV,5,5,18,49,32,274,35,50,10,089,*7E
$GLGSV,3,1,10,65,81,285,36,66,34,209,40,72,31,020,27,75,01,149,22*61
$GLGSV,3,2,10,76,24,200,38,77,21,250,28,85,03,120,,86,23,068,19*61
$GLGSV,3,3,10,87,19,021,31,,,,31*50
$GNGLL,0419.77545,S,05539.48834,E,101619.00,A,D*60
$GNRMC,101620.00,A,0419.77515,S,05539.48845,E,0.987,22.81,220525,,,D*53
$GNVTG,22.81,T,,M,0.987,N,1.827,K,D*15
$GNGGA,101620.00,0419.77515,S,05539.48845,E,2,12,0.54,14.7,M,-47.6,M,,0000*42
$GNGSA,A,3,29,10,32,26,23,25,18,24,15,28,16,31,1.03,0.54,0.88*12
$GNGSA,A,3,65,86,87,72,66,76,77,,,,,,1.03,0.54,0.88*19
$GPGSV,5,1,18,10,42,309,39,12,00,143,,15,06,038,35,16,15,299,33*78
$GPGSV,5,2,18,18,19,022,33,23,27,359,32,24,10,093,35,25,25,162,25*75
$GPGSV,5,3,18,26,29,273,34,28,20,204,38,29,55,102,40,31,08,228,35*75
$GPGSV,5,4,18,32,57,195,43,36,52,277,,40,85,352,42,41,58,082,40*75
$GPGSV,5,5,18,49,32,274,34,50,10,089,*7F
$GLGSV,3,1,10,65,81,285,35,66,34,209,41,72,31,020,26,75,01,149,24*64
$GLGSV,3,2,10,76,24,200,40,77,21,250,22,85,03,120,,86,23,068,29*67
$GLGSV,3,3,10,87,19,021,29,,,,25*5C
$GNGLL,0419.77515,S,05539.48845,E,101620.00,A,D*69
$GNRMC,101621.00,A,0419.77492,S,05539.48854,E,0.768,22.82,220525,,,D*50
$GNVTG,22.82,T,,M,0.768,N,1.422,K,D*10
$GNGGA,101621.00,0419.77492,S,05539.48854,E,2,12,0.54,14.5,M,-47.6,M,,0000*4F
$GNGSA,A,3,29,10,32,26,23,25,18,24,15,28,16,31,1.03,0.54,0.88*12
$GNGSA,A,3,65,86,87,72,66,76,77,,,,,,1.03,0.54,0.88*19
$GPGSV,5,1,18,10,42,309,38,12,00,143,,15,06,038,32,16,15,299,29*75
$GPGSV,5,2,18,18,19,022,42,23,27,359,33,24,10,093,31,25,25,162,30*72
$GPGSV,5,3,18,26,29,273,36,28,20,204,44,29,55,102,39,31,08,228,39*7E
$GPGSV,5,4,18,32,57,195,38,36,52,277,,40,85,352,43,41,58,082,39*76
$GPGSV,5,5,18,49,32,274,35,50,10,089,*7E
$GLGSV,3,1,10,65,81,285,34,66,34,209,38,72,31,020,27,75,01,149,24*6A
$GLGSV,3,2,10,76,24,200,35,77,21,250,25,85,03,120,,86,23,068,29*62
$GLGSV,3,3,10,87,19,021,31,,,,28*58
$GNGLL,0419.77492,S,05539.48854,E,101621.00,A,D*66
$GNRMC,101622.00,A,0419.77467,S,05539.48865,E,0.992,26.33,220525,,,D*5E
$GNVTG,26.33,T,,M,0.992,N,1.836,K,D*1C
$GNGGA,101622.00,0419.77467,S,05539.48865,E,2,12,0.54,14.6,M,-47.6,M,,0000*47
$GNGSA,A,3,29,10,32,26,23,25,18,24,15,28,16,31,1.03,0.54,0.88*12
$GNGSA,A,3,65,86,87,72,66,76,77,,,,,,1.03,0.54,0.88*19
$GPGSV,5,1,18,10,42,309,40,12,00,143,,15,06,038,36,16,15,299,29*7E
$GPGSV,5,2,18,18,19,022,37,23,27,359,41,24,10,093,30,25,25,162,31*75
$GPGSV,5,3,18,26,29,273,33,28,20,204,35,29,55,102,41,31,08,228,37*7C
$GPGSV,5,4,18,32,57,195,43,36,52,277,,40,85,352,46,41,58,082,42*73
$GPGSV,5,5,18,49,32,274,40,50,10,089,*7C
$GLGSV,3,1,10,65,81,285,35,66,34,209,41,72,31,020,25,75,01,149,23*60
$GLGSV,3,2,10,76,24,200,38,77,21,250,26,85,03,120,,86,23,068,30*64
$GLGSV,3,3,10,87,19,021,29,,,,29*50
$GNGLL,0419.77467,S,05539.48865,E,101622.00,A,D*6D
$GNRMC,101623.00,A,0419.77439,S,05539.48877,E,1.160,22.76,220525,,,D*56
$GNVTG,22.76,T,,M,1.160,N,2.149,K,D*1F
$GNGGA,101623.00,0419.77439,S,05539.48877,E,2,12,0.54,14.4,M,-47.6,M,,0000*4C
$GNGSA,A,3,29,10,32,26,23,25,18,24,15,28,16,31,1.03,0.54,0.88*12
$GNGSA,A,3,65,86,87,72,66,76,77,,,,,,1.03,0.54,0.88*19
$GPGSV,5,1,18,10,41,310,38,12,00,143,,15,06,038,37,16,15,299,35*76
$GPGSV,5,2,18,18,19,022,36,23,27,359,33,24,10,093,31,25,25,162,29*79
$GPGSV,5,3,18,26,29,273,37,28,20,204,41,29,55,102,39,31,08,228,37*74
$GPGSV,5,4,18,32,57,195,43,36,52,277,,40,85,352,40,41,58,082,41*76
$GPGSV,5,5,18,49,32,274,40,50,10,089,*7C
$GLGSV,3,1,10,65,81,285,35,66,34,209,40,72,31,020,25,75,01,149,21*63
$GLGSV,3,2,10,76,24,200,38,77,21,250,27,85,03,120,,86,23,068,31*64
$GLGSV,3,3,10,87,19,021,28,,,,31*58
$GNGLL,0419.77439,S,05539.48877,E,101623.00,A,D*64
$GNRMC,101624.00,A,0419.77419,S,05539.48879,E,0.533,17.47,220525,,,D*5A
$GNVTG,17.47,T,,M,0.533,N,0.987,K,D*10
$GNGGA,101624.00,0419.77419,S,05539.48879,E,2,12,0.54,14.4,M,-47.6,M,,0000*47
$GNGSA,A,3,29,10,32,26,23,25,18,24,15,28,16,31,1.03,0.54,0.88*12
$GNGSA,A,3,65,86,87,72,66,76,77,,,,,,1.03,0.54,0.88*19
$GPGSV,5,1,18,10,41,310,38,12,00,143,,15,06,038,37,16,15,299,35*76
$GPGSV,5,2,18,18,19,022,31,23,27,359,38,24,10,093,31,25,25,162,29*75
$GPGSV,5,3,18,26,29,273,37,28,20,204,41,29,55,102,39,31,08,228,33*70
$GPGSV,5,4,18,32,57,195,41,36,52,277,,40,85,352,46,41,58,082,41*72
$GPGSV,5,5,18,49,32,274,42,50,10,089,*7E
$GLGSV,3,1,10,65,81,285,35,66,34,209,40,72,31,020,24,75,01,149,18*68
$GLGSV,3,2,10,76,24,200,37,77,21,250,28,85,03,120,,86,23,068,31*64
$GLGSV,3,3,10,87,19,021,25,,,,31*55
$GNGLL,0419.77419,S,05539.48879,E,101624.00,A,D*6F
$GNRMC,101625.00,A,0419.77398,S,05539.48876,E,0.859,355.80,220525,,,D*65
$GNVTG,355.80,T,,M,0.859,N,1.590,K,D*24
$GNGGA,101625.00,0419.77398,S,05539.48876,E,2,12,0.54,14.4,M,-47.6,M,,0000*47
$GNGSA,A,3,29,10,32,26,23,25,18,24,15,28,16,31,1.03,0.54,0.88*12
$GNGSA,A,3,65,86,87,72,66,76,77,,,,,,1.03,0.54,0.88*19
$GPGSV,5,1,17,10,41,310,35,15,06,038,32,16,15,299,37,18,19,022,35*71
$GPGSV,5,2,17,23,27,359,38,24,10,093,30,25,25,162,28,26,29,273,40*74
$GPGSV,5,3,17,28,20,204,42,29,55,102,39,31,08,228,32,32,57,195,44*7E
$GPGSV,5,4,17,36,52,277,,40,85,352,42,41,58,082,41,49,32,274,39*75
$GPGSV,5,5,17,50,10,089,*4A
$GLGSV,3,1,10,65,81,285,35,66,34,209,39,72,31,020,24,75,01,149,18*66
$GLGSV,3,2,10,76,24,200,34,77,21,250,27,85,03,120,,86,23,068,31*68
$GLGSV,3,3,10,87,19,021,26,,,,22*54
$GNGLL,0419.77398,S,05539.48876,E,101625.00,A,D*6F
$GNRMC,101626.00,A,0419.77376,S,05539.48868,E,0.852,345.42,220525,,,D*6D
$GNVTG,345.42,T,,M,0.852,N,1.578,K,D*26
$GNGGA,101626.00,0419.77376,S,05539.48868,E,2,12,0.54,14.3,M,-47.6,M,,0000*4C
$GNGSA,A,3,29,10,32,26,23,25,18,24,15,28,16,31,1.03,0.54,0.88*12
$GNGSA,A,3,65,86,87,72,66,76,77,,,,,,1.03,0.54,0.88*19
$GPGSV,5,1,17,10,41,310,34,15,06,038,34,16,15,299,33,18,19,022,31*76
$GPGSV,5,2,17,23,27,359,35,24,10,093,30,25,25,162,27,26,29,273,41*77
$GPGSV,5,3,17,28,20,204,40,29,55,102,39,31,08,228,30,32,57,195,42*78
$GPGSV,5,4,17,36,52,277,,40,85,352,45,41,58,082,42,49,32,274,36*7E
$GPGSV,5,5,17,50,10,089,*4A
$GLGSV,3,1,10,65,81,285,35,66,34,209,37,72,31,020,26,75,01,149,18*6A
$GLGSV,3,2,10,76,24,200,38,77,21,250,28,85,03,120,,86,23,068,30*6A
$GLGSV,3,3,10,87,19,021,23,,,,24*57
$GNGLL,0419.77376,S,05539.48868,E,101626.00,A,D*63
$GNRMC,101627.00,A,0419.77354,S,05539.48861,E,0.819,344.02,220525,,,D*6F
$GNVTG,344.02,T,,M,0.819,N,1.517,K,D*25
$GNGGA,101627.00,0419.77354,S,05539.48861,E,2,12,0.54,14.3,M,-47.6,M,,0000*44
$GNGSA,A,3,29,10,32,26,23,25,18,24,15,28,16,31,1.03,0.54,0.88*12
$GNGSA,A,3,65,86,87,72,66,76,77,,,,,,1.03,0.54,0.88*19
$GPGSV,5,1,17,10,41,310,29,15,06,038,31,16,15,299,29,18,19,022,32*77
$GPGSV,5,2,17,23,27,359,28,24,10,093,31,25,25,162,29,26,29,273,39*7B
$GPGSV,5,3,17,28,20,204,42,29,55,102,36,31,08,228,24,32,57,195,40*72
$GPGSV,5,4,17,36,52,277,,40,85,352,42,41,58,082,39,49,32,274,36*75
$GPGSV,5,5,17,50,10,089,*4A
$GLGSV,3,1,10,65,81,285,35,66,34,209,38,72,31,020,22,75,01,149,15*6C
$GLGSV,3,2,10,76,24,200,37,77,21,250,27,85,03,120,,86,23,068,27*6C
$GLGSV,3,3,10,87,19,021,22,,,,30*53
$GNGLL,0419.77354,S,05539.48861,E,101627.00,A,D*6B
$GNRMC,101628.00,A,0419.77330,S,05539.48856,E,0.947,347.20,220525,,,D*6F
$GNVTG,347.20,T,,M,0.947,N,1.753,K,D*2E
$GNGGA,101628.00,0419.77330,S,05539.48856,E,2,12,0.56,14.4,M,-47.6,M,,0000*48
$GNGSA,A,3,29,10,32,26,25,18,24,15,28,16,31,41,1.04,0.56,0.88*13
$GNGSA,A,3,65,86,87,72,66,76,77,,,,,,1.04,0.56,0.88*1C
$GPGSV,5,1,17,10,41,310,33,15,06,037,29,16,15,299,33,18,19,022,32*71
$GPGSV,5,2,17,23,27,359,25,24,10,093,30,25,25,162,30,26,29,273,39*7F
$GPGSV,5,3,17,28,20,204,37,29,55,102,33,31,08,228,34,32,57,195,41*75
$GPGSV,5,4,17,36,52,277,,40,85,352,40,41,58,082,39,49,32,274,32*73
$GPGSV,5,5,17,50,10,089,*4A
$GLGSV,3,1,10,65,81,285,33,66,34,209,40,72,31,020,25,75,01,149,15*62
$GLGSV,3,2,10,76,24,200,39,77,21,250,28,85,03,120,,86,23,068,30*6B
$GLGSV,3,3,10,87,19,021,24,,,,24*50
$GNGLL,0419.77330,S,05539.48856,E,101628.00,A,D*62
$GNRMC,101629.00,A,0419.77302,S,05539.48857,E,1.083,357.10,220525,,,D*6C
$GNVTG,357.10,T,,M,1.083,N,2.006,K,D*28
$GNGGA,101629.00,0419.77302,S,05539.48857,E,2,12,0.54,14.4,M,-47.6,M,,0000*4B
$GNGSA,A,3,29,10,32,26,23,25,18,24,15,28,16,31,1.03,0.54,0.88*12
$GNGSA,A,3,65,86,87,72,66,76,77,,,,,,1.03,0.54,0.88*19
$GPGSV,5,1,17,10,41,310,36,15,06,037,33,16,15,299,36,18,19,022,35*7D
$GPGSV,5,2,17,23,27,359,34,24,10,093,29,25,25,162,36,26,29,273,40*7F
$GPGSV,5,3,17,28,20,204,41,29,55,102,32,31,08,228,31,32,57,195,44*75
$GPGSV,5,4,17,36,52,277,,40,85,352,42,41,58,082,37,49,32,274,33*7E
$GPGSV,5,5,17,50,10,089,*4A
$GLGSV,3,1,10,65,81,285,32,66,34,209,40,72,31,020,24,75,01,149,18*6F
$GLGSV,3,2,10,76,24,200,35,77,21,250,28,85,03,120,,86,23,068,30*67
$GLGSV,3,3,10,87,19,021,25,,,,24*51
$GNGLL,0419.77302,S,05539.48857,E,101629.00,A,D*63
$GNRMC,101630.00,A,0419.77274,S,05539.48859,E,1.019,358.68,220525,,,D*69
$GNVTG,358.68,T,,M,1.019,N,1.888,K,D*26
$GNGGA,101630.00,0419.77274,S,05539.48859,E,2,12,0.54,14.5,M,-47.6,M,,0000*4C
$GNGSA,A,3,29,10,32,26,23,25,18,24,15,28,16,31,1.03,0.54,0.88*12
$GNGSA,A,3,65,86,87,72,66,76,77,,,,,,1.03,0.54,0.88*19
$GPGSV,5,1,17,10,41,310,34,15,06,037,29,16,15,299,31,18,19,022,27*70
$GPGSV,5,2,17,23,27,359,31,24,10,093,29,25,25,162,32,26,29,273,37*7E
$GPGSV,5,3,17,28,20,204,36,29,55,102,34,31,08,228,29,32,57,195,42*7C
$GPGSV,5,4,17,36,52,277,,40,85,352,43,41,58,082,39,49,32,274,36*74
$GPGSV,5,5,17,50,10,089,*4A
$GLGSV,3,1,10,65,81,285,33,66,34,209,40,72,31,020,25,75,01,149,21*65
$GLGSV,3,2,10,76,24,200,37,77,21,250,29,85,03,120,,86,23,068,30*64
$GLGSV,3,3,10,87,19,021,24,,,,25*51
$GNGLL,0419.77274,S,05539.48859,E,101630.00,A,D*65
$GNRMC,101631.00,A,0419.77248,S,05539.48860,E,0.935,1.44,220525,,,D*6A
$GNVTG,1.44,T,,M,0.935,N,1.731,K,D*2C
$GNGGA,101631.00,0419.77248,S,05539.48860,E,2,12,0.54,14.5,M,-47.6,M,,0000*48
$GNGSA,A,3,29,10,32,26,23,25,18,24,15,28,16,31,1.03,0.54,0.88*12
$GNGSA,A,3,65,86,87,72,66,76,77,,,,,,1.03,0.54,0.88*19
$GPGSV,5,1,17,10,41,310,38,15,06,037,29,16,15,299,31,18,19,023,32*79
$GPGSV,5,2,17,23,27,359,33,24,10,093,29,25,25,162,33,26,29,273,36*7C
$GPGSV,5,3,17,28,20,204,40,29,55,102,38,31,08,228,34,32,57,195,43*7C
$GPGSV,5,4,17,36,52,277,,40,85,352,39,41,58,082,39,49,32,274,33*7C
$GPGSV,5,5,17,50,10,089,*4A
$GLGSV,3,1,10,65,81,285,33,66,34,209,40,72,31,020,25,75,01,149,25*61
$GLGSV,3,2,10,76,24,200,35,77,21,250,28,85,03,120,,86,23,068,29*6F
$GLGSV,3,3,10,87,19,021,25,,,,26*53
$GNGLL,0419.77248,S,05539.48860,E,101631.00,A,D*61
$GNRMC,101632.00,A,0419.77222,S,05539.48865,E,0.991,8.41,220525,,,D*62
$GNVTG,8.41,T,,M,0.991,N,1.836,K,D*26
$GNGGA,101632.00,0419.77222,S,05539.48865,E,2,12,0.54,14.6,M,-47.6,M,,0000*41
$GNGSA,A,3,29,10,32,26,23,25,18,24,15,28,16,31,1.03,0.54,0.88*12
$GNGSA,A,3,65,86,87,72,66,76,77,,,,,,1.03,0.54,0.88*19
$GPGSV,5,1,17,10,41,310,35,15,06,037,27,16,15,299,33,18,19,023,32*78
$GPGSV,5,2,17,23,27,359,33,24,10,093,30,25,25,162,34,26,29,273,37*72
$GPGSV,5,3,17,28,20,204,40,29,55,102,36,31,08,228,25,32,57,195,43*72
$GPGSV,5,4,17,36,52,277,,40,85,352,41,41,58,082,36,49,32,274,33*7C
$GPGSV,5,5,17,50,10,089,*4A
$GLGSV,3,1,10,65,81,285,34,66,34,209,42,72,31,020,25,75,01,149,25*64
$GLGSV,3,2,10,76,24,200,38,77,21,250,28,85,03,120,,86,23,068,31*6B
$GLGSV,3,3,10,87,19,021,24,,,,26*52
$GNGLL,0419.77222,S,05539.48865,E,101632.00,A,D*6B
$GNRMC,101633.00,A,0419.77193,S,05539.48877,E,1.224,17.53,220525,,,D*50
$GNVTG,17.53,T,,M,1.224,N,2.267,K,D*12
$GNGGA,101633.00,0419.77193,S,05539.48877,E,2,12,0.55,14.5,M,-47.6,M,,0000*48
$GNGSA,A,3,29,10,32,26,23,25,18,24,28,16,31,41,1.07,0.55,0.92*1D
$GNGSA,A,3,65,86,87,72,66,76,77,,,,,,1.07,0.55,0.92*17
$GPGSV,5,1,17,10,41,310,36,15,06,037,,16,15,299,32,18,19,023,31*7C
$GPGSV,5,2,17,23,27,359,30,24,10,093,29,25,25,162,33,26,29,273,37*7E
$GPGSV,5,3,17,28,20,204,38,29,55,102,36,31,08,228,31,32,57,195,43*78
$GPGSV,5,4,17,36,52,277,,40,85,352,39,41,58,082,39,49,32,274,31*7E
$GPGSV,5,5,17,50,10,089,*4A
$GLGSV,3,1,10,65,81,285,34,66,34,209,41,72,31,020,25,75,01,149,25*67
$GLGSV,3,2,10,76,24,200,38,77,21,250,28,85,03,120,,86,23,068,32*68
$GLGSV,3,3,10,87,19,021,23,,,,25*56
$GNGLL,0419.77193,S,05539.48877,E,101633.00,A,D*60
$GNRMC,101634.00,A,0419.77169,S,05539.48887,E,0.789,19.02,220525,,,D*54
$GNVTG,19.02,T,,M,0.789,N,1.462,K,D*1B
$GNGGA,101634.00,0419.77169,S,05539.48887,E,2,12,0.55,14.5,M,-47.6,M,,0000*45
$GNGSA,A,3,29,10,32,26,23,25,18,24,28,16,31,41,1.07,0.55,0.92*1D
$GNGSA,A,3,65,86,87,72,66,76,77,,,,,,1.07,0.55,0.92*17
$GPGSV,5,1,17,10,41,310,33,15,06,037,25,16,15,299,31,18,19,023,31*7D
$GPGSV,5,2,17,23,27,359,39,24,10,093,27,25,25,162,33,26,29,273,38*76
$GPGSV,5,3,17,28,20,204,40,29,55,102,34,31,08,228,34,32,57,195,44*77
$GPGSV,5,4,17,36,52,277,,40,85,352,43,41,58,082,38,49,32,274,37*74
$GPGSV,5,5,17,50,10,089,*4A
$GLGSV,3,1,10,65,81,285,34,66,34,209,40,72,31,020,25,75,01,149,25*66
$GLGSV,3,2,10,76,24,200,36,77,21,250,27,85,03,120,,86,23,068,31*6A
$GLGSV,3,3,10,87,19,021,25,,,,23*56
$GNGLL,0419.77169,S,05539.48887,E,101634.00,A,D*6D
$GNRMC,101635.00,A,0419.77149,S,05539.48894,E,0.710,17.59,220525,,,D*55
$GNVTG,17.59,T,,M,0.710,N,1.315,K,D*1C
$GNGGA,101635.00,0419.77149,S,05539.48894,E,2,12,0.54,14.5,M,-47.6,M,,0000*45
$GNGSA,A,3,29,10,32,26,23,25,18,24,15,28,16,31,1.03,0.54,0.88*12
$GNGSA,A,3,65,86,87,72,66,76,77,,,,,,1.03,0.54,0.88*19
$GPGSV,5,1,17,10,41,310,36,15,06,037,26,16,15,299,32,18,19,023,30*79
$GPGSV,5,2,17,23,26,359,37,24,10,093,27,25,25,162,36,26,29,273,35*71
$GPGSV,5,3,17,28,20,204,40,29,55,102,34,31,08,228,28,32,57,195,44*7A
$GPGSV,5,4,17,36,52,277,,40,85,352,42,41,58,082,38,49,32,274,35*77
$GPGSV,5,5,17,50,10,089,*4A
$GLGSV,3,1,10,65,81,285,33,66,34,209,40,72,31,020,27,75,01,149,25*63
$GLGSV,3,2,10,76,24,200,41,77,21,250,27,85,03,120,,86,23,068,31*6A
$GLGSV,3,3,10,87,19,021,23,,,,25*56
$GNGLL,0419.77149,S,05539.48894,E,101635.00,A,D*6C
$GNRMC,101636.00,A,0419.77130,S,05539.48898,E,0.735,13.96,220525,,,D*54
$GNVTG,13.96,T,,M,0.735,N,1.360,K,D*1E
$GNGGA,101636.00,0419.77130,S,05539.48898,E,2,12,0.54,14.3,M,-47.6,M,,0000*42
$GNGSA,A,3,29,10,32,26,23,25,18,24,15,28,16,31,1.03,0.54,0.88*12
$GNGSA,A,3,65,86,87,72,66,76,77,,,,,,1.03,0.54,0.88*19
$GPGSV,5,1,17,10,41,310,36,15,06,037,24,16,15,299,33,18,19,023,33*79
$GPGSV,5,2,17,23,26,359,35,24,10,093,27,25,25,162,35,26,29,273,37*72
$GPGSV,5,3,17,28,20,204,40,29,55,102,33,31,08,228,33,32,57,195,44*77
$GPGSV,5,4,17,36,52,277,,40,85,352,42,41,58,082,37,49,32,274,33*7E
$GPGSV,5,5,17,50,10,089,*4A
$GLGSV,3,1,10,65,81,285,34,66,34,209,40,72,31,020,26,75,01,149,24*64
$GLGSV,3,2,10,76,24,200,39,77,21,250,26,85,03,120,,86,23,068,31*64
$GLGSV,3,3,10,87,19,021,22,,,,26*54
$GNGLL,0419.77130,S,05539.48898,E,101636.00,A,D*6D
$GNRMC,101637.00,A,0419.77112,S,05539.48897,E,0.676,357.98,220525,,,D*61
$GNVTG,357.98,T,,M,0.676,N,1.252,K,D*25
$GNGGA,101637.00,0419.77112,S,05539.48897,E,2,12,0.54,14.3,M,-47.6,M,,0000*4C
$GNGSA,A,3,29,10,32,26,23,25,18,24,15,28,16,31,1.03,0.54,0.88*12
$GNGSA,A,3,65,86,87,72,66,76,77,,,,,,1.03,0.54,0.88*19
$GPGSV,5,1,17,10,41,310,38,15,06,037,23,16,15,299,34,18,19,023,31*75
$GPGSV,5,2,17,23,26,359,39,24,10,093,27,25,25,161,35,26,29,273,37*7D
$GPGSV,5,3,17,28,20,204,38,29,55,102,33,31,08,228,29,32,57,195,44*73
$GPGSV,5,4,17,36,52,277,,40,85,352,43,41,58,082,37,49,32,274,35*79
$GPGSV,5,5,17,50,10,089,*4A
$GLGSV,3,1,10,65,81,285,33,66,34,209,40,72,31,020,26,75,01,149,23*64
$GLGSV,3,2,10,76,24,200,41,77,21,250,26,85,03,120,,86,23,068,31*6B
$GLGSV,3,3,10,87,19,021,22,,,,30*53
$GNGLL,0419.77112,S,05539.48897,E,101637.00,A,D*63
$GNRMC,101638.00,A,0419.77089,S,05539.48891,E,1.007,347.69,220525,,,D*65
$GNVTG,347.69,T,,M,1.007,N,1.865,K,D*25
$GNGGA,101638.00,0419.77089,S,05539.48891,E,2,12,0.54,14.3,M,-47.6,M,,0000*46
$GNGSA,A,3,29,10,32,26,23,25,18,24,15,28,16,31,1.03,0.54,0.88*12
$GNGSA,A,3,65,86,87,72,66,76,77,,,,,,1.03,0.54,0.88*19
$GPGSV,5,1,17,10,41,310,36,15,06,037,20,16,15,299,36,18,19,023,35*7E
$GPGSV,5,2,17,23,26,359,37,24,10,093,28,25,25,161,34,26,29,272,37*7C
$GPGSV,5,3,17,28,20,204,39,29,55,102,34,31,08,228,27,32,57,195,44*7B
$GPGSV,5,4,17,36,52,277,,40,85,352,43,41,58,082,37,49,32,274,36*7A
$GPGSV,5,5,17,50,10,089,*4A
$GLGSV,3,1,10,65,81,285,35,66,34,209,40,72,31,020,25,75,01,149,22*60
$GLGSV,3,2,10,76,24,200,39,77,21,250,26,85,03,120,,86,23,068,32*67
$GLGSV,3,3,10,87,19,021,23,,,,28*5B
$GNGLL,0419.77089,S,05539.48891,E,101638.00,A,D*69
$GNRMC,101639.00,A,0419.77061,S,05539.48883,E,1.113,345.78,220525,,,D*67
$GNVTG,345.78,T,,M,1.113,N,2.061,K,D*2C
$GNGGA,101639.00,0419.77061,S,05539.48883,E,2,12,0.54,14.1,M,-47.6,M,,0000*40
$GNGSA,A,3,29,10,32,26,23,25,18,24,15,28,16,31,1.03,0.54,0.88*12
$GNGSA,A,3,65,86,87,72,66,76,77,,,,,,1.03,0.54,0.88*19
$GPGSV,5,1,17,10,41,310,37,15,06,037,17,16,15,299,36,18,19,023,30*7E
$GPGSV,5,2,17,23,26,359,34,24,10,093,30,25,25,161,33,26,29,272,36*70
$GPGSV,5,3,17,28,20,204,41,29,55,102,35,31,08,228,28,32,57,195,44*7A
$GPGSV,5,4,17,36,52,277,,40,85,352,41,41,58,082,38,49,32,274,33*72
$GPGSV,5,5,17,50,10,089,*4A
$GLGSV,3,1,10,65,81,285,33,66,34,209,41,72,31,020,25,75,01,149,23*66
$GLGSV,3,2,10,76,24,200,34,77,21,250,26,85,03,120,,86,23,068,32*6A
$GLGSV,3,3,10,87,19,021,25,,,,29*5C
$GNGLL,0419.77061,S,05539.48883,E,101639.00,A,D*6D
$GNRMC,101640.00,A,0419.77036,S,05539.48873,E,0.858,341.27,220525,,,D*6D
$GNVTG,341.27,T,,M,0.858,N,1.589,K,D*25
$GNGGA,101640.00,0419.77036,S,05539.48873,E,2,12,0.54,14.1,M,-47.6,M,,0000*43
$GNGSA,A,3,29,10,32,26,23,25,18,24,15,28,16,31,1.03,0.54,0.88*12
$GNGSA,A,3,65,86,87,72,66,76,77,,,,,,1.03,0.54,0.88*19
$GPGSV,5,1,17,10,41,310,34,15,06,037,18,16,15,299,35,18,19,023,35*74
$GPGSV,5,2,17,23,26,359,37,24,10,093,29,25,25,161,32,26,29,272,34*78
$GPGSV,5,3,17,28,20,203,41,29,55,102,34,31,08,228,30,32,57,195,44*75
$GPGSV,5,4,17,36,52,277,,40,85,352,43,41,58,082,32,49,32,274,34*7D
$GPGSV,5,5,17,50,10,089,*4A
$GLGSV,3,1,10,65,81,285,34,66,34,209,40,72,31,020,26,75,01,149,22*62
$GLGSV,3,2,10,76,24,200,36,77,21,250,25,85,03,120,,86,23,068,31*68
$GLGSV,3,3,10,87,19,021,24,,,,30*55
$GNGLL,0419.77036,S,05539.48873,E,101640.00,A,D*6E
$GNRMC,101641.00,A,0419.77015,S,05539.48866,E,0.818,342.81,220525,,,D*62
$GNVTG,342.81,T,,M,0.818,N,1.515,K,D*2B
$GNGGA,101641.00,0419.77015,S,05539.48866,E,2,12,0.54,14.1,M,-47.6,M,,0000*47
$GNGSA,A,3,29,10,32,26,23,25,18,24,15,28,16,31,1.03,0.54,0.88*12
$GNGSA,A,3,65,86,87,72,66,76,77,,,,,,1.03,0.54,0.88*19
$GPGSV,5,1,17,10,41,310,37,15,06,037,20,16,15,299,34,18,19,023,36*7E
$GPGSV,5,2,17,23,26,359,35,24,10,093,30,25,25,161,36,26,29,272,33*71
$GPGSV,5,3,17,28,20,203,40,29,55,103,36,31,08,228,30,32,57,195,43*70
$GPGSV,5,4,17,36,52,277,,40,85,352,41,41,58,082,37,49,32,274,33*7D
$GPGSV,5,5,17,50,10,089,*4A
$GLGSV,3,1,10,65,81,285,33,66,34,209,40,72,31,020,26,75,01,149,23*64
$GLGSV,3,2,10,76,24,200,40,77,21,250,25,85,03,120,,86,23,068,31*69
$GLGSV,3,3,10,87,19,021,24,,,,30*55
$GNGLL,0419.77015,S,05539.48866,E,101641.00,A,D*6A
