b0@1y>v$%!+;Zy;R
2C{%4V_:R 
YgDuE
IUO*6PDSWT#U\b1yU
E5$GNRMC,044600.00,A,0419.86394,S,05539.68768,E,0.118,,280525,,,A*74
$GNVTG,,T,,M,0.118,N,0.218,K,A*3E
$GNGNS,044600.00,0419.86394,S,05539.68768,E,AA,11,0.93,25.0,-47.6,,*67
$GNGGA,044600.00,0419.86394,S,05539.68768,E,1,11,0.93,25.0,M,-47.6,M,,*4D
$GNGSA,A,3,24,05,20,11,15,12,18,29,,,,,1.82,0.93,1.57*1A
$GNGSA,A,3,79,80,83,,,,,,,,,,1.82,0.93,1.57*13
$GPGSV,5,1,17,05,62,118,16,11,17,021,23,12,37,005,27,13,18,151,*78
$GPGSV,5,2,17,15,28,185,12,18,26,237,23,20,43,059,30,22,14,121,*7E
$GPGSV,5,3,17,23,05,211,,24,59,229,30,25,14,338,17,29,10,306,13*7E
$GPGSV,5,4,17,36,52,277,37,40,86,351,,41,58,082,,49,32,274,*78
$GPGSV,5,5,17,50,10,089,*4A
$GLGSV,2,1,08,68,14,117,,69,18,166,,73,18,341,,79,42,137,27*66
$GLGSV,2,2,08,80,68,026,23,83,27,343,30,84,35,277,,85,08,233,*68
$GNGLL,0419.86394,S,05539.68768,E,044600.00,A,A*6D
$GNGRS,044600.00,1,-5.1,-17.6,-4.2,-13.3,9.4,12.0,0.3,18.6,,,,*57
$GNGRS,044600.00,1,8.2,0.1,-0.1,,,,,,,,,*5F
$GNGST,044600.00,3586708,,,,4.1,4.6,14*54
$GNZDA,044600.00,28,05,2025,00,00*74
$GNGBS,044600.00,4.1,4.6,13.7,,,,*6B
$GNTXT,01,01,01,More than 100 frame errors, UART RX was disabled*70
b0@x5y>v%C+;y;R
2{"4V_:R 
YgDuE
IUO*iPDUSWBT#Ubx5yU
-K$GNRMC,044601.00,A,0419.86395,S,05539.68768,E,0.175,,280525,,,A*7F
$GNVTG,,T,,M,0.175,N,0.324,K,A*3B
$GNGNS,044601.00,0419.86395,S,05539.68768,E,AA,11,1.04,25.3,-47.6,,*6B
$GNGGA,044601.00,0419.86395,S,05539.68768,E,1,11,1.04,25.3,M,-47.6,M,,*41
$GNGSA,A,3,24,05,20,11,15,12,18,29,,,,,2.03,1.04,1.74*1E
$GNGSA,A,3,79,80,83,,,,,,,,,,2.03,1.04,1.74*17
$GPGSV,5,1,17,05,62,118,16,11,17,021,21,12,37,005,24,13,18,151,*79
$GPGSV,5,2,17,15,28,185,08,18,26,237,22,20,43,059,28,22,14,121,*7D
$GPGSV,5,3,17,23,05,211,,24,59,229,23,25,14,338,15,29,10,306,11*7C
$GPGSV,5,4,17,36,52,277,34,40,86,351,,41,58,082,,49,32,274,*7B
$GPGSV,5,5,17,50,10,089,*4A
$GLGSV,2,1,08,68,14,117,,69,18,166,,73,18,341,,79,42,137,25*64
$GLGSV,2,2,08,80,68,026,21,83,27,343,23,84,35,277,,85,08,233,*68
$GNGLL,0419.86395,S,05539.68768,E,044601.00,A,A*6D
$GNGRS,044601.00,1,-0.1,-18.3,-4.8,-12.8,43.5,10.9,0.0,16.9,,,,*6F
$GNGRS,044601.00,1,11.3,-1.7,0.7,,,,,,,,,*66
$GNGST,044601.00,48,,,,4.2,4.6,14*6D
$GNZDA,044601.00,28,05,2025,00,00*75
$GNGBS,044601.00,4.2,4.6,13.8,,,,*66
$GNTXT,01,01,01,More than 100 frame errors, UART RX was disabled*70
b0@`9y>vJ%+;y;ZR

2"{'4V_:R 
YgDuEIUO*PDSWT#Ub`9yU
$GNRMC,044602.00,A,0419.86404,S,05539.68766,E,0.103,,280525,,,A*7C
$GNVTG,,T,,M,0.103,N,0.191,K,A*36
$GNGNS,044602.00,0419.86404,S,05539.68766,E,AA,11,0.93,24.6,-47.6,,*62
$GNGGA,044602.00,0419.86404,S,05539.68766,E,1,11,0.93,24.6,M,-47.6,M,,*48
$GNGSA,A,3,24,05,20,11,15,12,18,29,,,,,1.82,0.93,1.57*1A
$GNGSA,A,3,79,80,83,,,,,,,,,,1.82,0.93,1.57*13
$GPGSV,5,1,17,05,62,118,18,11,17,021,22,12,37,005,26,13,18,151,*76
$GPGSV,5,2,17,15,28,185,08,18,26,237,23,20,43,059,29,22,14,121,*7D
$GPGSV,5,3,17,23,05,211,,24,59,229,31,25,14,338,15,29,10,306,10*7E
$GPGSV,5,4,17,36,52,277,39,40,86,351,,41,58,082,,49,32,274,*76
$GPGSV,5,5,17,50,10,089,*4A
$GLGSV,2,1,08,68,14,117,,69,18,166,,73,18,341,,79,42,137,25*64
$GLGSV,2,2,08,80,68,026,20,83,27,343,25,84,35,277,,85,08,233,*6F
$GNGLL,0419.86404,S,05539.68766,E,044602.00,A,A*6F
$GNGRS,044602.00,1,-4.2,-14.0,-5.1,-14.6,10.1,12.2,2.4,15.7,,,,*64
$GNGRS,044602.00,1,12.7,-2.3,1.9,,,,,,,,,*6A
$GNGST,044602.00,3586708,,,,4.4,4.7,14*52
$GNZDA,044602.00,28,05,2025,00,00*76
$GNGBS,044602.00,4.4,4.7,13.9,,,,*63
$GNTXT,01,01,01,More than 100 frame errors, UART RX was disabled*70
b0@H=y>v{%|+;y ;KR
2){%4V_:R 
YgDuE
IUO*gPDSWT#UbH=yU
$GNRMC,044603.00,A,0419.86431,S,05539.68756,E,0.474,,280525,,,A*7D
$GNVTG,,T,,M,0.474,N,0.878,K,A*3D
$GNGNS,044603.00,0419.86431,S,05539.68756,E,AA,11,0.92,22.5,-47.6,,*62
$GNGGA,044603.00,0419.86431,S,05539.68756,E,1,11,0.92,22.5,M,-47.6,M,,*48
$GNGSA,A,3,24,05,20,11,15,12,18,29,,,,,1.82,0.92,1.57*1B
$GNGSA,A,3,79,80,83,,,,,,,,,,1.82,0.92,1.57*12
$GPGSV,5,1,17,05,62,118,19,11,17,021,22,12,37,005,25,13,18,151,*74
$GPGSV,5,2,17,15,28,185,08,18,26,237,24,20,43,059,30,22,14,121,*72
$GPGSV,5,3,17,23,05,211,,24,59,229,32,25,14,338,15,29,10,306,13*7E
$GPGSV,5,4,17,36,52,277,37,40,86,351,,41,58,082,,49,32,274,*78
$GPGSV,5,5,17,50,10,089,*4A
$GLGSV,2,1,08,68,14,117,,69,18,166,,73,18,341,,79,42,137,26*67
$GLGSV,2,2,08,80,68,026,22,83,27,343,28,84,35,277,,85,08,233,*60
$GNGLL,0419.86431,S,05539.68756,E,044603.00,A,A*6B
$GNGRS,044603.00,1,-4.4,-11.0,-2.7,-19.3,8.9,15.1,2.2,13.2,,,,*5F
$GNGRS,044603.00,1,11.3,-3.2,2.5,,,,,,,,,*63
$GNGST,044603.00,3586708,,,,4.4,4.7,14*53
$GNZDA,044603.00,28,05,2025,00,00*77
$GNGBS,044603.00,4.4,4.7,13.9,,,,*62
$GNTXT,01,01,01,More than 100 frame errors, UART RX was disabled*70
b0@0Ay>vo%@+;ky;R
2{%4V_:R 
YgDuE
IUO*&PDSWgT#URb0AyU
$GNRMC,044604.00,A,0419.86433,S,05539.68747,E,0.086,,280525,,,A*71
$GNVTG,,T,,M,0.086,N,0.159,K,A*3E
$GNGNS,044604.00,0419.86433,S,05539.68747,E,AA,11,0.92,22.6,-47.6,,*64
$GNGGA,044604.00,0419.86433,S,05539.68747,E,1,11,0.92,22.6,M,-47.6,M,,*4E
$GNGSA,A,3,24,05,20,11,15,12,18,29,,,,,1.82,0.92,1.57*1B
$GNGSA,A,3,79,80,83,,,,,,,,,,1.82,0.92,1.57*12
$GPGSV,5,1,17,05,62,118,19,11,17,021,22,12,37,005,26,13,18,151,*77
$GPGSV,5,2,17,15,28,185,08,18,26,237,24,20,43,059,29,22,14,121,*7A
$GPGSV,5,3,17,23,05,211,,24,59,229,30,25,14,338,15,29,10,306,15*7A
$GPGSV,5,4,17,36,52,277,37,40,86,351,,41,58,082,,49,32,274,*78
$GPGSV,5,5,17,50,10,089,*4A
$GLGSV,2,1,08,68,14,117,,69,18,166,,73,18,341,,79,42,137,26*67
$GLGSV,2,2,08,80,68,026,23,83,27,343,28,84,35,277,,85,08,233,*61
$GNGLL,0419.86433,S,05539.68747,E,044604.00,A,A*6E
$GNGRS,044604.00,1,-0.4,-9.1,-6.6,-18.5,-13.9,13.0,3.2,12.8,,,,*7C
$GNGRS,044604.00,1,10.6,-3.4,1.0,,,,,,,,,*60
$GNGST,044604.00,46,,,,4.4,4.7,14*61
$GNZDA,044604.00,28,05,2025,00,00*70
$GNGBS,044604.00,4.4,4.7,13.9,,,,*65
$GNTXT,01,01,01,More than 100 frame errors, UART RX was disabled*70
b0@Ey>v%[+;ay;wR
2{%4V_:R 
YgDuE
IUO*PDmSWT#UbEyU
l$GNRMC,044605.00,A,0419.86435,S,05539.68743,E,0.106,,280525,,,A*7B
$GNVTG,,T,,M,0.106,N,0.196,K,A*34
$GNGNS,044605.00,0419.86435,S,05539.68743,E,AA,11,0.92,22.7,-47.6,,*66
$GNGGA,044605.00,0419.86435,S,05539.68743,E,1,11,0.92,22.7,M,-47.6,M,,*4C
$GNGSA,A,3,24,05,20,11,15,12,18,29,,,,,1.82,0.92,1.57*1B
$GNGSA,A,3,79,80,83,,,,,,,,,,1.82,0.92,1.57*12
$GPGSV,5,1,17,05,62,118,19,11,17,021,23,12,37,005,27,13,18,151,*77
$GPGSV,5,2,17,15,28,185,08,18,26,237,23,20,43,059,28,22,14,121,*7C
$GPGSV,5,3,17,23,05,211,,24,59,229,31,25,14,338,15,29,10,306,15*7B
$GPGSV,5,4,17,36,52,277,37,40,86,351,,41,58,082,,49,32,274,*78
$GPGSV,5,5,17,50,10,089,*4A
$GLGSV,2,1,08,68,14,117,,69,18,166,,73,18,341,,79,42,137,27*66
$GLGSV,2,2,08,80,68,026,25,83,27,343,29,84,35,277,,85,08,233,*66
$GNGLL,0419.86435,S,05539.68743,E,044605.00,A,A*6D
$GNGRS,044605.00,1,-1.4,-5.9,-9.3,-16.6,10.5,11.1,3.9,12.8,,,,*55
$GNGRS,044605.00,1,9.5,-4.0,4.8,,,,,,,,,*54
$GNGST,044605.00,3586708,,,,4.4,4.6,14*54
$GNZDA,044605.00,28,05,2025,00,00*71
$GNGBS,044605.00,4.4,4.6,13.8,,,,*64
$GNTXT,01,01,01,More than 100 frame errors, UART RX was disabled*70
b0@Iy>vWO%+;y;NR
2{%4V_:R 
YgDuEIUO*PD:S!WT#U:0bIyU
DP$GNRMC,044606.00,A,0419.86450,S,05539.68737,E,0.150,,280525,,,A*7B
$GNVTG,,T,,M,0.150,N,0.278,K,A*34
$GNGNS,044606.00,0419.86450,S,05539.68737,E,AA,11,0.92,22.2,-47.6,,*60
$GNGGA,044606.00,0419.86450,S,05539.68737,E,1,11,0.92,22.2,M,-47.6,M,,*4A
$GNGSA,A,3,24,05,20,11,15,12,18,29,,,,,1.82,0.92,1.57*1B
$GNGSA,A,3,79,80,83,,,,,,,,,,1.82,0.92,1.57*12
$GPGSV,5,1,17,05,62,118,20,11,17,021,22,12,37,005,27,13,18,151,*7C
$GPGSV,5,2,17,15,28,185,08,18,26,237,23,20,43,059,27,22,14,121,*73
$GPGSV,5,3,17,23,05,211,,24,59,229,30,25,14,338,14,29,10,306,15*7B
$GPGSV,5,4,17,36,52,277,37,40,86,351,,41,58,082,,49,32,274,*78
$GPGSV,5,5,17,50,10,089,*4A
$GLGSV,2,1,08,68,14,117,,69,18,166,,73,18,341,,79,42,137,27*66
$GLGSV,2,2,08,80,68,026,25,83,27,343,33,84,35,277,,85,08,233,*6D
$GNGLL,0419.86450,S,05539.68737,E,044606.00,A,A*6E
$GNGRS,044606.00,1,0.8,-4.2,-10.4,-14.6,10.2,9.2,5.3,14.3,,,,*7D
$GNGRS,044606.00,1,9.4,-4.5,-3.6,,,,,,,,,*77
$GNGST,044606.00,3586708,,,,4.4,4.6,14*57
$GNZDA,044606.00,28,05,2025,00,00*72
$GNGBS,044606.00,4.4,4.6,13.8,,,,*67
$GNTXT,01,01,01,More than 100 frame errors, UART RX was disabled*70
b0@Ly>v]%e+;y;R
2v{$4V_:R 
YgDuE
IUO*PDUSWT#UObLyU
$GNRMC,044607.00,A,0419.86458,S,05539.68732,E,0.045,,280525,,,A*72
$GNVTG,,T,,M,0.045,N,0.083,K,A*37
$GNGNS,044607.00,0419.86458,S,05539.68732,E,AA,11,1.04,21.5,-47.6,,*66
$GNGGA,044607.00,0419.86458,S,05539.68732,E,1,11,1.04,21.5,M,-47.6,M,,*4C
$GNGSA,A,3,24,05,20,11,15,12,18,29,,,,,2.02,1.04,1.74*1F
$GNGSA,A,3,79,80,83,,,,,,,,,,2.02,1.04,1.74*16
$GPGSV,5,1,17,05,62,118,19,11,17,021,23,12,37,005,27,13,18,151,*77
$GPGSV,5,2,17,15,28,185,11,18,26,237,23,20,43,059,27,22,14,121,*7B
$GPGSV,5,3,17,23,05,211,,24,59,229,30,25,14,338,15,29,10,306,15*7A
$GPGSV,5,4,17,36,52,277,36,40,86,351,,41,58,082,,49,32,274,*79
$GPGSV,5,5,17,50,10,089,*4A
$GLGSV,2,1,08,68,14,117,,69,18,166,,73,18,341,,79,42,137,27*66
$GLGSV,2,2,08,80,68,026,24,83,27,343,29,84,35,277,,85,08,233,*67
$GNGLL,0419.86458,S,05539.68732,E,044607.00,A,A*62
$GNGRS,044607.00,1,-5.3,-6.8,-10.9,-12.6,-23.7,8.7,5.0,14.0,,,,*70
$GNGRS,044607.00,1,5.1,-4.3,-0.4,,,,,,,,,*78
$GNGST,044607.00,41,,,,4.4,4.6,14*64
$GNZDA,044607.00,28,05,2025,00,00*73
$GNGBS,044607.00,4.4,4.6,13.8,,,,*66
$GNTXT,01,01,01,More than 100 frame errors, UART RX was disabled*70
b0@Py>v%@+;y;R
2{$4V_:R 
YgDuE
IUO*PDSWT#UG:bPyU
$GNRMC,044608.00,A,0419.86459,S,05539.68729,E,0.135,,280525,,,A*70
$GNVTG,,T,,M,0.135,N,0.250,K,A*3D
$GNGNS,044608.00,0419.86459,S,05539.68729,E,AA,11,0.92,21.4,-47.6,,*6D
$GNGGA,044608.00,0419.86459,S,05539.68729,E,1,11,0.92,21.4,M,-47.6,M,,*47
$GNGSA,A,3,24,05,20,11,15,12,18,29,,,,,1.82,0.92,1.57*1B
$GNGSA,A,3,79,80,83,,,,,,,,,,1.82,0.92,1.57*12
$GPGSV,5,1,17,05,62,118,18,11,17,021,23,12,37,005,27,13,18,151,*76
$GPGSV,5,2,17,15,28,185,09,18,26,237,23,20,43,059,29,22,14,121,*7C
$GPGSV,5,3,17,23,05,211,,24,59,229,29,25,14,338,16,29,10,306,14*70
$GPGSV,5,4,17,36,52,277,36,40,86,351,,41,58,082,,49,32,274,*79
$GPGSV,5,5,17,50,10,089,*4A
$GLGSV,2,1,08,68,14,117,,69,18,166,,73,18,341,,79,42,137,28*69
$GLGSV,2,2,08,80,68,026,23,83,27,343,29,84,35,277,,85,08,233,*60
$GNGLL,0419.86459,S,05539.68729,E,044608.00,A,A*66
$GNGRS,044608.00,1,-0.4,-5.2,-5.1,-14.0,10.3,5.8,4.1,14.2,,,,*61
$GNGRS,044608.00,1,4.7,-3.4,1.3,,,,,,,,,*5B
$GNGST,044608.00,3586708,,,,4.4,4.6,14*59
$GNZDA,044608.00,28,05,2025,00,00*7C
$GNGBS,044608.00,4.4,4.6,13.8,,,,*69
$GNTXT,01,01,01,More than 100 frame errors, UART RX was disabled*70
b0@Ty>v%1+;y;8R
2u{!4V_:R 
YgDuE
IUO*mPDSWT#U.bTyU
my$GNRMC,044609.00,A,0419.86463,S,05539.68723,E,0.190,,280525,,,A*7D
$GNVTG,,T,,M,0.190,N,0.352,K,A*31
$GNGNS,044609.00,0419.86463,S,05539.68723,E,AA,11,0.92,21.0,-47.6,,*6B
$GNGGA,044609.00,0419.86463,S,05539.68723,E,1,11,0.92,21.0,M,-47.6,M,,*41
$GNGSA,A,3,24,05,20,11,15,12,18,29,,,,,1.82,0.92,1.57*1B
$GNGSA,A,3,79,80,83,,,,,,,,,,1.82,0.92,1.57*12
$GPGSV,5,1,17,05,62,118,16,11,17,021,23,12,37,005,26,13,18,151,*79
$GPGSV,5,2,17,15,28,185,11,18,26,237,22,20,43,059,29,22,14,121,*74
$GPGSV,5,3,17,23,05,211,,24,59,229,28,25,14,338,16,29,10,306,15*70
$GPGSV,5,4,17,36,52,277,33,40,86,351,,41,58,082,,49,32,274,*7C
$GPGSV,5,5,17,50,10,089,*4A
$GLGSV,2,1,08,68,14,117,,69,18,166,,73,18,341,,79,42,137,27*66
$GLGSV,2,2,08,80,68,026,21,83,27,343,28,84,35,277,,85,08,233,*63
$GNGLL,0419.86463,S,05539.68723,E,044609.00,A,A*64
$GNGRS,044609.00,1,-4.6,-5.1,-4.9,-15.9,10.0,5.6,4.6,14.0,,,,*6C
$GNGRS,044609.00,1,-1.5,-2.6,5.3,,,,,,,,,*77
$GNGST,044609.00,3586708,,,,4.4,4.6,14*58
$GNZDA,044609.00,28,05,2025,00,00*7D
$GNGBS,044609.00,4.4,4.6,13.9,,,,*69
$GNTXT,01,01,01,More than 100 frame errors, UART RX was disabled*70
b0@Xy
>v4p%S+;iy;
R
2{!4V_:R 
YgDuE
IUO*PDSW;T#UbXyU
U$GNRMC,044610.00,A,0419.86473,S,05539.68721,E,0.452,,280525,,,A*7D
$GNVTG,,T,,M,0.452,N,0.837,K,A*32
$GNGNS,044610.00,0419.86473,S,05539.68721,E,AA,11,1.04,20.8,-47.6,,*67
$GNGGA,044610.00,0419.86473,S,05539.68721,E,1,11,1.04,20.8,M,-47.6,M,,*4D
$GNGSA,A,3,24,05,20,11,15,12,18,29,,,,,2.02,1.04,1.74*1F
$GNGSA,A,3,79,80,83,,,,,,,,,,2.02,1.04,1.74*16
$GPGSV,5,1,17,05,62,118,10,11,17,021,22,12,37,005,24,13,18,151,*7C
$GPGSV,5,2,17,15,28,185,08,18,26,237,21,20,43,059,28,22,14,121,*7E
$GPGSV,5,3,17,23,05,211,,24,59,229,27,25,14,338,15,29,10,306,13*7A
$GPGSV,5,4,17,36,52,277,33,40,86,351,,41,58,082,,49,32,274,*7C
$GPGSV,5,5,17,50,10,089,*4A
$GLGSV,2,1,08,68,14,117,,69,18,166,,73,18,341,,79,42,137,26*67
$GLGSV,2,2,08,80,68,026,21,83,27,343,26,84,35,277,,85,08,233,*6D
$GNGLL,0419.86473,S,05539.68721,E,044610.00,A,A*6F
$GNGRS,044610.00,1,-2.5,0.5,-1.5,-14.2,-62.1,6.0,6.7,10.0,,,,*65
$GNGRS,044610.00,1,-2.7,-3.2,5.7,,,,,,,,,*7F
$GNGST,044610.00,51,,,,4.5,4.7,14*63
$GNZDA,044610.00,28,05,2025,00,00*75
$GNGBS,044610.00,4.5,4.7,14.0,,,,*6F
$GNTXT,01,01,01,More than 100 frame errors, UART RX was disabled*70
b0@\y>v%G+;y;R
2<{!4V_:R 
Y
gDuE
IUO*PDgSWZT#Ub\yU
={I$GNRMC,044611.00,A,0419.86476,S,05539.68715,E,0.047,,280525,,,A*7E
$GNVTG,,T,,M,0.047,N,0.088,K,A*3E
$GNGNS,044611.00,0419.86476,S,05539.68715,E,AA,11,0.92,20.5,-47.6,,*67
$GNGGA,044611.00,0419.86476,S,05539.68715,E,1,11,0.92,20.5,M,-47.6,M,,*4D
$GNGSA,A,3,24,05,20,11,15,12,18,29,,,,,1.82,0.92,1.57*1B
$GNGSA,A,3,79,80,83,,,,,,,,,,1.82,0.92,1.57*12
$GPGSV,5,1,17,05,62,118,09,11,17,021,21,12,37,005,24,13,18,151,*77
$GPGSV,5,2,17,15,28,185,08,18,26,237,20,20,43,059,28,22,14,121,*7F
$GPGSV,5,3,17,23,05,211,,24,59,229,27,25,14,338,,29,10,306,12*7F
$GPGSV,5,4,17,36,52,277,33,40,86,351,,41,58,082,,49,32,274,*7C
$GPGSV,5,5,17,50,10,089,*4A
$GLGSV,2,1,08,68,14,117,,69,18,166,,73,18,341,,79,42,137,27*66
$GLGSV,2,2,08,80,68,026,21,83,27,343,26,84,35,277,,85,08,233,*6D
$GNGLL,0419.86476,S,05539.68715,E,044611.00,A,A*6C
$GNGRS,044611.00,1,-6.1,2.4,-8.2,-12.8,10.4,3.3,7.2,8.3,,,,*70
$GNGRS,044611.00,1,1.5,-1.5,6.0,,,,,,,,,*53
$GNGST,044611.00,3588985,,,,4.6,4.7,14*57
$GNZDA,044611.00,28,05,2025,00,00*74
$GNGBS,044611.00,4.6,4.7,14.2,,,,*6F
$GNTXT,01,01,01,More than 100 frame errors, UART RX was disabled*70
b0@p`y>v%}
9+;y;cR
2{#4V_:R 
YgDuE
IUO*PDSWT#USbp`yU
%S$GNRMC,044612.00,A,0419.86475,S,05539.68712,E,0.137,,280525,,,A*7F
$GNVTG,,T,,M,0.137,N,0.253,K,A*3C
$GNGNS,044612.00,0419.86475,S,05539.68712,E,AA,11,0.92,20.2,-47.6,,*67
$GNGGA,044612.00,0419.86475,S,05539.68712,E,1,11,0.92,20.2,M,-47.6,M,,*4D
$GNGSA,A,3,24,05,20,11,15,12,18,29,,,,,1.82,0.92,1.57*1B
$GNGSA,A,3,79,80,83,,,,,,,,,,1.82,0.92,1.57*12
$GPGSV,5,1,17,05,62,118,18,11,17,021,21,12,37,005,25,13,18,151,*76
$GPGSV,5,2,17,15,28,185,10,18,26,237,18,20,43,059,28,22,14,121,*7D
$GPGSV,5,3,17,23,05,211,,24,59,229,28,25,14,338,,29,10,306,15*77
$GPGSV,5,4,17,36,52,277,35,40,86,351,,41,58,082,,49,32,274,*7A
$GPGSV,5,5,17,50,10,089,*4A
$GLGSV,2,1,08,68,14,117,,69,18,166,,73,18,341,,79,42,137,26*67
$GLGSV,2,2,08,80,68,026,21,83,27,343,25,84,35,277,,85,08,233,*6E
$GNGLL,0419.86475,S,05539.68712,E,044612.00,A,A*6B
$GNGRS,044612.00,1,-6.7,2.5,-3.1,-10.9,10.4,1.2,8.3,7.9,,,,*77
$GNGRS,044612.00,1,-0.4,-0.7,2.7,,,,,,,,,*7D
$GNGST,044612.00,3588985,,,,4.6,4.7,14*54
$GNZDA,044612.00,28,05,2025,00,00*77
$GNGBS,044612.00,4.6,4.7,14.4,,,,*6A
$GNTXT,01,01,01,More than 100 frame errors, UART RX was disabled*70
b0@Xdy>v%*+;0y;R
2{"4V_:R 
YgDuE
IUO*RPD)SWT#UbXdyU
+$GNRMC,044613.00,A,0419.86482,S,05539.68706,E,0.098,,280525,,,A*77
$GNVTG,,T,,M,0.098,N,0.182,K,A*37
$GNGNS,044613.00,0419.86482,S,05539.68706,E,AA,11,0.92,19.8,-47.6,,*6B
$GNGGA,044613.00,0419.86482,S,05539.68706,E,1,11,0.92,19.8,M,-47.6,M,,*41
$GNGSA,A,3,24,05,20,11,15,12,18,29,,,,,1.82,0.92,1.56*1A
$GNGSA,A,3,79,80,83,,,,,,,,,,1.82,0.92,1.56*13
$GPGSV,5,1,17,05,62,118,17,11,17,021,21,12,37,005,25,13,18,151,*79
$GPGSV,5,2,17,15,28,185,12,18,26,237,18,20,43,059,27,22,14,121,*70
$GPGSV,5,3,17,23,05,211,,24,59,229,27,25,14,338,,29,10,306,13*7E
$GPGSV,5,4,17,36,52,277,34,40,86,351,,41,58,082,,49,32,274,*7B
$GPGSV,5,5,17,50,10,089,*4A
$GLGSV,2,1,08,68,14,117,,69,18,166,,73,18,341,,79,42,137,25*64
$GLGSV,2,2,08,80,68,026,20,83,27,343,24,84,35,277,,85,08,233,*6E
$GNGLL,0419.86482,S,05539.68706,E,044613.00,A,A*67
$GNGRS,044613.00,1,0.0,10.2,-4.6,-10.4,-0.4,0.4,7.6,1.9,,,,*74
$GNGRS,044613.00,1,0.8,0.4,2.5,,,,,,,,,*71
$GNGST,044613.00,50,,,,4.6,4.7,14*62
$GNZDA,044613.00,28,05,2025,00,00*76
$GNGBS,044613.00,4.6,4.7,14.5,,,,*6A
$GNTXT,01,01,01,More than 100 frame errors, UART RX was disabled*70
b0@@hy>vqJ%+;y;TR
2{"4V_:R 
YgDuE
IUO*PDSWT#U^7b@hyU
~$GNRMC,044614.00,A,0419.86488,S,05539.68696,E,0.197,,280525,,,A*7C
$GNVTG,,T,,M,0.197,N,0.365,K,A*32
$GNGNS,044614.00,0419.86488,S,05539.68696,E,AA,11,0.99,19.2,-47.6,,*6F
$GNGGA,044614.00,0419.86488,S,05539.68696,E,1,11,0.99,19.2,M,-47.6,M,,*45
$GNGSA,A,3,24,05,20,11,15,12,18,29,,,,,1.93,0.99,1.66*12
$GNGSA,A,3,79,80,83,,,,,,,,,,1.93,0.99,1.66*1B
$GPGSV,5,1,17,05,62,118,19,11,17,021,22,12,37,005,25,13,18,151,*74
$GPGSV,5,2,17,15,28,185,14,18,26,237,17,20,43,059,27,22,14,121,*79
$GPGSV,5,3,17,23,05,211,,24,59,229,27,25,14,338,,29,10,306,13*7E
$GPGSV,5,4,17,36,52,277,34,40,86,351,,41,58,082,,49,32,274,*7B
$GPGSV,5,5,17,50,10,089,*4A
$GLGSV,2,1,08,68,14,117,,69,18,166,,73,18,341,,79,42,137,26*67
$GLGSV,2,2,08,80,68,026,19,83,27,343,23,84,35,277,,85,08,233,*63
$GNGLL,0419.86488,S,05539.68696,E,044614.00,A,A*62
$GNGRS,044614.00,1,-4.3,6.2,-5.8,-9.5,9.9,1.9,9.1,22.8,,,,*44
$GNGRS,044614.00,1,1.6,1.3,3.9,,,,,,,,,*72
$GNGST,044614.00,168397,,,,4.6,4.8,15*6C
$GNZDA,044614.00,28,05,2025,00,00*71
$GNGBS,044614.00,4.6,4.8,14.7,,,,*60
$GNTXT,01,01,01,More than 100 frame errors, UART RX was disabled*70
b0@(ly>vN*%[+;y;R
2{"4V_:R 
YgDuE
IUO*PDSWT#U:b(lyU
$GNRMC,044615.00,A,0419.86488,S,05539.68693,E,0.069,,280525,,,A*78
$GNVTG,,T,,M,0.069,N,0.128,K,A*39
$GNGNS,044615.00,0419.86488,S,05539.68693,E,AA,11,0.99,19.6,-47.6,,*6F
$GNGGA,044615.00,0419.86488,S,05539.68693,E,1,11,0.99,19.6,M,-47.6,M,,*45
$GNGSA,A,3,24,05,20,11,15,12,18,29,,,,,1.93,0.99,1.66*12
$GNGSA,A,3,79,80,83,,,,,,,,,,1.93,0.99,1.66*1B
$GPGSV,5,1,17,05,62,118,18,11,17,021,22,12,37,005,25,13,18,151,*75
$GPGSV,5,2,17,15,28,185,14,18,26,237,16,20,43,059,27,22,14,121,*78
$GPGSV,5,3,17,23,05,211,,24,59,229,27,25,14,338,,29,10,306,12*7F
$GPGSV,5,4,17,36,52,277,34,40,86,351,,41,58,082,,49,32,274,*7B
$GPGSV,5,5,17,50,10,089,*4A
$GLGSV,2,1,08,68,14,117,,69,18,166,,73,18,341,,79,42,137,26*67
$GLGSV,2,2,08,80,68,026,20,83,27,343,23,84,35,277,,85,08,233,*69
$GNGLL,0419.86488,S,05539.68693,E,044615.00,A,A*66
$GNGRS,044615.00,1,-3.1,5.9,-6.4,-9.8,9.8,3.5,12.3,23.0,,,,*74
$GNGRS,044615.00,1,2.1,1.7,2.2,,,,,,,,,*79
$GNGST,044615.00,250394,,,,4.7,4.8,15*67
$GNZDA,044615.00,28,05,2025,00,00*70
$GNGBS,044615.00,4.7,4.8,14.9,,,,*6E
$GNTXT,01,01,01,More than 100 frame errors, UART RX was disabled*70
b0@py>v%+;y ;,R
2{%4V_:R 
YgDuE
IUO*PDSW<T#UbpyU
N$GNRMC,044616.00,A,0419.86490,S,05539.68687,E,0.130,,280525,,,A*7A
$GNVTG,,T,,M,0.130,N,0.241,K,A*38
$GNGNS,044616.00,0419.86490,S,05539.68687,E,AA,11,1.08,19.6,-47.6,,*69
$GNGGA,044616.00,0419.86490,S,05539.68687,E,1,11,1.08,19.6,M,-47.6,M,,*43
$GNGSA,A,3,24,05,20,11,15,12,18,29,,,,,2.16,1.08,1.87*1A
$GNGSA,A,3,79,80,83,,,,,,,,,,2.16,1.08,1.87*13
$GPGSV,5,1,17,05,62,118,17,11,17,021,29,12,37,005,27,13,18,151,*73
$GPGSV,5,2,17,15,28,185,16,18,26,237,15,20,43,059,29,22,14,121,*77
$GPGSV,5,3,17,23,05,211,,24,59,229,32,25,14,338,,29,10,306,13*7A
$GPGSV,5,4,17,36,52,277,37,40,86,351,,41,58,082,,49,32,274,*78
$GPGSV,5,5,17,50,10,089,*4A
$GLGSV,2,1,08,68,14,117,,69,18,166,,73,18,341,,79,42,137,28*69
$GLGSV,2,2,08,80,68,026,21,83,27,343,24,84,35,277,,85,08,233,*6F
$GNGLL,0419.86490,S,05539.68687,E,044616.00,A,A*69
$GNGRS,044616.00,1,-2.1,4.7,-3.0,-10.3,-30.6,4.1,12.8,-123,,,,*58
$GNGRS,044616.00,1,-7.4,2.8,0.6,,,,,,,,,*5D
$GNGST,044616.00,40,,,,4.7,4.8,15*69
$GNZDA,044616.00,28,05,2025,00,00*73
$GNGBS,044616.00,4.7,4.8,14.9,,,,*6D
$GNTXT,01,01,01,More than 100 frame errors, UART RX was disabled*70
b0@sy>v%O=+;!y;R
2;{ 4V_:R 
YgDuE
IUO*PDSWT#UbsyU
$GNRMC,044617.00,A,0419.86483,S,05539.68681,E,0.050,,280525,,,A*78
$GNVTG,,T,,M,0.050,N,0.092,K,A*33
$GNGNS,044617.00,0419.86483,S,05539.68681,E,AA,11,0.99,20.5,-47.6,,*6C
$GNGGA,044617.00,0419.86483,S,05539.68681,E,1,11,0.99,20.5,M,-47.6,M,,*46
$GNGSA,A,3,24,05,20,11,15,12,18,29,,,,,1.93,0.99,1.66*12
$GNGSA,A,3,79,80,83,,,,,,,,,,1.93,0.99,1.66*1B
$GPGSV,5,1,17,05,62,118,20,11,17,021,27,12,37,005,26,13,18,151,*78
$GPGSV,5,2,17,15,28,185,11,18,26,237,16,20,43,059,29,22,14,121,*73
$GPGSV,5,3,17,23,05,211,,24,59,229,26,25,14,338,22,29,10,306,09*74
$GPGSV,5,4,17,36,52,277,32,40,86,351,,41,58,082,,49,32,274,*7D
$GPGSV,5,5,17,50,10,089,*4A
$GLGSV,2,1,08,68,14,117,,69,18,166,,73,18,341,,79,42,137,27*66
$GLGSV,2,2,08,80,68,026,20,83,27,343,23,84,35,277,,85,08,233,*69
$GNGLL,0419.86483,S,05539.68681,E,044617.00,A,A*6C
$GNGRS,044617.00,1,-5.9,4.2,-4.8,-11.5,10.8,5.9,14.1,23.6,,,,*78
$GNGRS,044617.00,1,-6.2,2.1,1.9,,,,,,,,,*5C
$GNGST,044617.00,3761771,,,,4.7,4.9,15*5F
$GNZDA,044617.00,28,05,2025,00,00*72
$GNGBS,044617.00,4.7,4.9,15.0,,,,*65
$GNTXT,01,01,01,More than 100 frame errors, UART RX was disabled*70
b0@wy>vPg%7+;y;R
2%{$4V_:R 
YgDuE
IUO*'PDvSWT#UGbwyU
a$GNRMC,044618.00,A,0419.86484,S,05539.68675,E,0.133,,280525,,,A*7F
$GNVTG,,T,,M,0.133,N,0.246,K,A*3C
$GNGNS,044618.00,0419.86484,S,05539.68675,E,AA,11,0.99,20.2,-47.6,,*68
$GNGGA,044618.00,0419.86484,S,05539.68675,E,1,11,0.99,20.2,M,-47.6,M,,*42
$GNGSA,A,3,24,05,20,11,15,12,18,29,,,,,1.93,0.99,1.66*12
$GNGSA,A,3,79,80,83,,,,,,,,,,1.93,0.99,1.66*1B
$GPGSV,5,1,17,05,62,118,22,11,17,021,26,12,37,005,26,13,18,151,*7B
$GPGSV,5,2,17,15,28,185,16,18,26,237,15,20,43,059,29,22,14,121,*77
$GPGSV,5,3,17,23,05,211,,24,59,229,28,25,14,338,20,29,10,306,12*72
$GPGSV,5,4,17,36,52,277,36,40,86,351,,41,58,082,,49,32,274,*79
$GPGSV,5,5,17,50,10,089,*4A
$GLGSV,2,1,08,68,14,117,,69,18,166,,73,18,341,,79,42,137,26*67
$GLGSV,2,2,08,80,68,026,20,83,27,343,22,84,35,277,,85,08,233,*68
$GNGLL,0419.86484,S,05539.68675,E,044618.00,A,A*6F
$GNGRS,044618.00,1,-8.4,3.4,-2.6,-9.2,10.8,4.1,14.4,23.4,,,,*4E
$GNGRS,044618.00,1,-7.3,1.2,2.7,,,,,,,,,*5E
$GNGST,044618.00,3761771,,,,4.7,4.9,15*50
$GNZDA,044618.00,28,05,2025,00,00*7D
$GNGBS,044618.00,4.7,4.9,15.2,,,,*68
$GNTXT,01,01,01,More than 100 frame errors, UART RX was disabled*70
b0@{y>vu%,2+;y;:R

2{$4V_:R 
YgDuE
IUO*SPD.SWT#ULb{yU
}9w$GNRMC,044619.00,A,0419.86484,S,05539.68679,E,0.292,,280525,,,A*7A
$GNVTG,,T,,M,0.292,N,0.542,K,A*37
$GNGNS,044619.00,0419.86484,S,05539.68679,E,AA,11,0.99,20.6,-47.6,,*61
$GNGGA,044619.00,0419.86484,S,05539.68679,E,1,11,0.99,20.6,M,-47.6,M,,*4B
$GNGSA,A,3,24,05,20,11,15,12,18,29,,,,,1.93,0.99,1.66*12
$GNGSA,A,3,79,80,83,,,,,,,,,,1.93,0.99,1.66*1B
$GPGSV,5,1,17,05,62,118,22,11,17,021,26,12,37,005,25,13,18,151,*78
$GPGSV,5,2,17,15,28,185,11,18,26,237,13,20,43,059,29,22,14,121,*76
$GPGSV,5,3,17,23,05,211,,24,59,229,30,25,14,338,18,29,10,306,10*72
$GPGSV,5,4,17,36,52,277,36,40,86,351,,41,58,082,,49,32,274,*79
$GPGSV,5,5,17,50,10,089,*4A
$GLGSV,2,1,08,68,14,117,,69,18,166,,73,18,341,,79,42,137,26*67
$GLGSV,2,2,08,80,68,026,20,83,27,343,22,84,35,277,,85,08,233,*68
$GNGLL,0419.86484,S,05539.68679,E,044619.00,A,A*62
$GNGRS,044619.00,1,-7.1,2.4,-5.0,-6.5,10.7,3.0,15.3,35.3,,,,*42
$GNGRS,044619.00,1,-4.3,3.0,4.0,,,,,,,,,*5D
$GNGST,044619.00,51,,,,4.8,4.9,15*68
$GNZDA,044619.00,28,05,2025,00,00*7C
$GNGBS,044619.00,4.8,4.9,15.3,,,,*67
$GNTXT,01,01,01,More than 100 frame errors, UART RX was disabled*70
b0@y>vK%!+;y;R
2{'4V_:R 
YgDuE
IUO*PD]SWXT#USbyU
e$GNRMC,044620.00,A,0419.86488,S,05539.68668,E,0.029,,280525,,,A*7E
$GNVTG,,T,,M,0.029,N,0.054,K,A*37
$GNGNS,044620.00,0419.86488,S,05539.68668,E,AA,11,0.99,20.5,-47.6,,*64
$GNGGA,044620.00,0419.86488,S,05539.68668,E,1,11,0.99,20.5,M,-47.6,M,,*4E
$GNGSA,A,3,24,05,20,11,15,12,18,29,,,,,1.93,0.99,1.66*12
$GNGSA,A,3,79,80,83,,,,,,,,,,1.93,0.99,1.66*1B
$GPGSV,5,1,17,05,62,118,23,11,17,021,26,12,37,005,25,13,18,151,*79
$GPGSV,5,2,17,15,28,185,12,18,26,237,12,20,43,059,33,22,14,121,*7F
$GPGSV,5,3,17,23,05,211,,24,59,229,30,25,14,338,17,29,10,306,12*7F
$GPGSV,5,4,17,36,52,277,39,40,86,351,,41,58,082,,49,32,274,*76
$GPGSV,5,5,17,50,10,089,*4A
$GLGSV,2,1,08,68,14,117,,69,18,166,,73,18,341,,79,42,137,27*66
$GLGSV,2,2,08,80,68,026,21,83,27,343,23,84,35,277,,85,08,233,*68
$GNGLL,0419.86488,S,05539.68668,E,044620.00,A,A*64
$GNGRS,044620.00,1,-5.8,1.6,-8.5,-6.9,7.9,4.5,13.0,23.0,,,,*7D
$GNGRS,044620.00,1,2.3,6.1,3.4,,,,,,,,,*7B
$GNGST,044620.00,48,,,,4.8,4.9,15*6A
$GNZDA,044620.00,28,05,2025,00,00*76
$GNGBS,044620.00,4.8,4.9,15.3,,,,*6D
$GNTXT,01,01,01,More than 100 frame errors, UART RX was disabled*70
b0@y>vZ%Dj+;y;R
2{%4V_:R 
YgDuE
IUO*PD?SWT#UbyU
MG$GNRMC,044621.00,A,0419.86484,S,05539.68674,E,0.088,,280525,,,A*75
$GNVTG,,T,,M,0.088,N,0.164,K,A*3E
$GNGNS,044621.00,0419.86484,S,05539.68674,E,AA,11,0.99,20.8,-47.6,,*69
$GNGGA,044621.00,0419.86484,S,05539.68674,E,1,11,0.99,20.8,M,-47.6,M,,*43
$GNGSA,A,3,24,05,20,11,15,12,18,29,,,,,1.93,0.99,1.66*12
$GNGSA,A,3,79,80,83,,,,,,,,,,1.93,0.99,1.66*1B
$GPGSV,5,1,17,05,62,118,24,11,17,021,26,12,37,005,24,13,18,151,*7F
$GPGSV,5,2,17,15,28,185,14,18,26,237,12,20,43,059,28,22,14,121,*73
$GPGSV,5,3,17,23,05,211,,24,59,229,29,25,14,338,15,29,10,306,11*76
$GPGSV,5,4,17,36,52,277,37,40,86,351,,41,58,082,,49,32,274,*78
$GPGSV,5,5,17,50,10,089,*4A
$GLGSV,2,1,08,68,14,117,,69,18,166,,73,18,341,20,79,42,137,27*64
$GLGSV,2,2,08,80,68,026,20,83,27,343,22,84,35,277,,85,08,233,*68
$GNGLL,0419.86484,S,05539.68674,E,044621.00,A,A*64
$GNGRS,044621.00,1,-11.3,0.9,-4.8,-7.5,10.3,5.8,11.3,23.0,,,,*71
$GNGRS,044621.00,1,0.1,8.3,3.8,,,,,,,,,*7A
$GNGST,044621.00,47,,,,4.8,4.9,15*64
$GNZDA,044621.00,28,05,2025,00,00*77
$GNGBS,044621.00,4.8,4.9,15.4,,,,*6B
$GNTXT,01,01,01,More than 100 frame errors, UART RX was disabled*70
b0@y>v>&% +;y;gR

2{&4V_:R 
YgDuE
IUO*PDISW*T#UbyU
5$GNRMC,044622.00,A,0419.86481,S,05539.68677,E,0.108,,280525,,,A*79
$GNVTG,,T,,M,0.108,N,0.199,K,A*35
$GNGNS,044622.00,0419.86481,S,05539.68677,E,AA,11,0.99,21.3,-47.6,,*66
$GNGGA,044622.00,0419.86481,S,05539.68677,E,1,11,0.99,21.3,M,-47.6,M,,*4C
$GNGSA,A,3,24,05,20,11,15,12,18,29,,,,,1.93,0.99,1.66*12
$GNGSA,A,3,79,80,83,,,,,,,,,,1.93,0.99,1.66*1B
$GPGSV,5,1,17,05,62,118,25,11,17,021,27,12,37,005,26,13,18,151,*7D
$GPGSV,5,2,17,15,28,185,14,18,26,237,14,20,43,059,32,22,14,121,*7E
$GPGSV,5,3,17,23,05,211,,24,59,229,30,25,14,338,17,29,10,306,10*7D
$GPGSV,5,4,17,36,52,277,38,40,86,351,,41,58,082,,49,32,274,*77
$GPGSV,5,5,17,50,10,089,*4A
$GLGSV,2,1,08,68,14,117,,69,18,166,,73,18,341,20,79,42,137,28*6B
$GLGSV,2,2,08,80,68,026,21,83,27,343,24,84,35,277,,85,08,233,*6F
$GNGLL,0419.86481,S,05539.68677,E,044622.00,A,A*61
$GNGRS,044622.00,1,-9.2,3.2,-3.0,-9.9,6.6,3.9,12.7,42.4,,,,*7E
$GNGRS,044622.00,1,-2.8,8.4,5.5,,,,,,,,,*53
$GNGST,044622.00,42,,,,4.8,4.9,15*62
$GNZDA,044622.00,28,05,2025,00,00*74
$GNGBS,044622.00,4.8,4.9,15.2,,,,*6E
$GNTXT,01,01,01,More than 100 frame errors, UART RX was disabled*70
b0@hy>v%+;y;3R
2{&4V_:R 
YgDuE
IUO*EPDASWT#U{bhyU
$GNRMC,044623.00,A,0419.86483,S,05539.68665,E,0.081,,280525,,,A*79
$GNVTG,,T,,M,0.081,N,0.150,K,A*30
$GNGNS,044623.00,0419.86483,S,05539.68665,E,AA,11,0.99,20.9,-47.6,,*6D
$GNGGA,044623.00,0419.86483,S,05539.68665,E,1,11,0.99,20.9,M,-47.6,M,,*47
$GNGSA,A,3,24,05,20,11,15,12,18,29,,,,,1.93,0.99,1.66*12
$GNGSA,A,3,79,80,83,,,,,,,,,,1.93,0.99,1.66*1B
$GPGSV,5,1,17,05,62,118,26,11,17,021,27,12,37,005,27,13,18,151,*7F
$GPGSV,5,2,17,15,28,185,14,18,26,237,16,20,43,059,31,22,14,121,*7F
$GPGSV,5,3,17,23,05,211,,24,59,229,30,25,14,338,19,29,10,306,12*71
$GPGSV,5,4,17,36,52,277,38,40,86,351,,41,58,082,,49,32,274,*77
$GPGSV,5,5,17,50,10,089,*4A
$GLGSV,2,1,08,68,14,117,,69,18,166,,73,18,341,19,79,42,137,28*61
$GLGSV,2,2,08,80,68,026,23,83,27,343,24,84,35,277,,85,08,233,*6D
$GNGLL,0419.86483,S,05539.68665,E,044623.00,A,A*61
$GNGRS,044623.00,1,-7.2,-0.7,-6.2,-10.9,7.4,5.2,12.0,22.7,,,,*69
$GNGRS,044623.00,1,-1.9,8.3,7.9,,,,,,,,,*59
$GNGST,044623.00,40,,,,4.7,4.9,15*6E
$GNZDA,044623.00,28,05,2025,00,00*75
$GNGBS,044623.00,4.7,4.9,14.9,,,,*6A
$GNTXT,01,01,01,More than 100 frame errors, UART RX was disabled*70
b0@Py>v"%!S+;y;R
2{%4V_:R 
YgDuE
IUO *PD+SW(T#ULbPyU
q$GNRMC,044624.00,A,0419.86485,S,05539.68660,E,0.310,,280525,,,A*76
$GNVTG,,T,,M,0.310,N,0.574,K,A*39
$GNGNS,044624.00,0419.86485,S,05539.68660,E,AA,11,0.99,21.1,-47.6,,*60
$GNGGA,044624.00,0419.86485,S,05539.68660,E,1,11,0.99,21.1,M,-47.6,M,,*4A
$GNGSA,A,3,24,05,20,11,15,12,18,29,,,,,1.93,0.99,1.66*12
$GNGSA,A,3,79,80,83,,,,,,,,,,1.93,0.99,1.66*1B
$GPGSV,5,1,17,05,62,118,26,11,17,021,26,12,37,005,27,13,18,151,*7E
$GPGSV,5,2,17,15,28,185,13,18,26,237,16,20,43,059,26,22,14,121,*7E
$GPGSV,5,3,17,23,05,211,,24,59,229,29,25,14,338,19,29,10,306,11*7A
$GPGSV,5,4,17,36,52,277,37,40,86,351,,41,58,082,,49,32,274,*78
$GPGSV,5,5,17,50,10,089,*4A
$GLGSV,2,1,08,68,14,117,,69,18,166,,73,18,341,19,79,42,137,32*6A
$GLGSV,2,2,08,80,68,026,23,83,27,343,24,84,35,277,,85,08,233,*6D
$GNGLL,0419.86485,S,05539.68660,E,044624.00,A,A*65
$GNGRS,044624.00,1,-8.4,-0.3,-13.1,-9.9,10.6,6.4,13.6,22.5,,,,*58
$GNGRS,044624.00,1,-1.2,8.1,8.1,,,,,,,,,*50
$GNGST,044624.00,44,,,,4.7,5.0,15*65
$GNZDA,044624.00,28,05,2025,00,00*72
$GNGBS,044624.00,4.7,5.0,14.9,,,,*65
$GNTXT,01,01,01,More than 100 frame errors, UART RX was disabled*70
b0@8y>v9L%aq+;y;rR
2D{$4V_:R 
YgDuE
IUO*PDSWT#U-b8yU
H$GNRMC,044625.00,A,0419.86485,S,05539.68651,E,0.150,,280525,,,A*73
$GNVTG,,T,,M,0.150,N,0.278,K,A*34
$GNGNS,044625.00,0419.86485,S,05539.68651,E,AA,10,1.04,21.3,-47.6,,*65
$GNGGA,044625.00,0419.86485,S,05539.68651,E,1,10,1.04,21.3,M,-47.6,M,,*4F
$GNGSA,A,3,24,05,20,11,12,18,29,,,,,,2.02,1.04,1.74*1B
$GNGSA,A,3,79,80,83,,,,,,,,,,2.02,1.04,1.74*16
$GPGSV,5,1,17,05,62,118,25,11,17,021,25,12,37,005,26,13,18,151,*7F
$GPGSV,5,2,17,15,28,185,09,18,26,237,14,20,43,059,27,22,14,121,*76
$GPGSV,5,3,17,23,05,211,,24,59,229,28,25,14,338,18,29,10,306,11*7A
$GPGSV,5,4,17,36,52,277,36,40,86,351,,41,58,082,,49,32,274,*79
$GPGSV,5,5,17,50,10,089,*4A
$GLGSV,2,1,08,68,14,117,,69,18,166,,73,18,341,20,79,42,137,28*6B
$GLGSV,2,2,08,80,68,026,24,83,27,343,24,84,35,277,,85,08,233,*6A
$GNGLL,0419.86485,S,05539.68651,E,044625.00,A,A*66
$GNGRS,044625.00,1,-6.5,0.6,-13.2,-12.0,7.3,16.5,-17.2,,,,,*7B
$GNGRS,044625.00,1,-0.5,9.6,7.5,,,,,,,,,*5A
$GNGST,044625.00,48,,,,4.7,5.0,15*68
$GNZDA,044625.00,28,05,2025,00,00*73
$GNGBS,044625.00,4.7,5.0,14.9,,,,*64
$GNTXT,01,01,01,More than 100 frame errors, UART RX was disabled*70
b0@ y>vh%OE+;y;R
2{$4V_:R 
YgDtE
IUO*UPDSWT#UXb yU
 L$GNRMC,044626.00,A,0419.86483,S,05539.68641,E,0.067,,280525,,,A*72
$GNVTG,,T,,M,0.067,N,0.125,K,A*3A
$GNGNS,044626.00,0419.86483,S,05539.68641,E,AA,10,1.08,21.3,-47.6,,*6D
$GNGGA,044626.00,0419.86483,S,05539.68641,E,1,10,1.08,21.3,M,-47.6,M,,*47
$GNGSA,A,3,24,05,20,11,12,18,29,,,,,,2.15,1.08,1.86*1C
$GNGSA,A,3,79,80,83,,,,,,,,,,2.15,1.08,1.86*11
$GPGSV,5,1,17,05,62,118,25,11,17,021,25,12,37,005,26,13,18,151,*7F
$GPGSV,5,2,17,15,28,185,07,18,26,237,13,20,43,059,29,22,14,121,*71
$GPGSV,5,3,17,23,05,211,,24,59,229,28,25,14,338,18,29,10,306,15*7E
$GPGSV,5,4,17,36,52,277,36,40,86,351,,41,58,082,,49,32,274,*79
$GPGSV,5,5,17,50,10,089,*4A
$GLGSV,2,1,08,68,14,116,,69,18,166,,73,18,341,22,79,42,137,30*61
$GLGSV,2,2,08,80,68,026,25,83,27,343,24,84,35,277,,85,08,233,*6B
$GNGLL,0419.86483,S,05539.68641,E,044626.00,A,A*62
$GNGRS,044626.00,1,-8.5,1.0,-12.6,-8.8,8.5,18.6,23.2,,,,,*69
$GNGRS,044626.00,1,0.8,9.4,6.4,,,,,,,,,*7B
$GNGST,044626.00,39,,,,4.7,5.0,15*6D
$GNZDA,044626.00,28,05,2025,00,00*70
$GNGBS,044626.00,4.7,5.0,14.8,,,,*66
$GNTXT,01,01,01,More than 100 frame errors, UART RX was disabled*70
b0@y>vIz%}F+;y;R
2{%4V_:R 
YgDtE
IUO*DPDSWT#UBbyU
$GNRMC,044627.00,A,0419.86477,S,05539.68630,E,0.075,,280525,,,A*7D
$GNVTG,,T,,M,0.075,N,0.138,K,A*35
$GNGNS,044627.00,0419.86477,S,05539.68630,E,AA,11,0.99,21.6,-47.6,,*6C
$GNGGA,044627.00,0419.86477,S,05539.68630,E,1,11,0.99,21.6,M,-47.6,M,,*46
$GNGSA,A,3,24,05,20,11,15,12,18,29,,,,,1.93,0.99,1.66*12
$GNGSA,A,3,79,80,83,,,,,,,,,,1.93,0.99,1.66*1B
$GPGSV,5,1,17,05,62,118,25,11,17,021,26,12,37,005,26,13,18,151,*7C
$GPGSV,5,2,17,15,28,185,09,18,26,237,13,20,43,059,30,22,14,121,*77
$GPGSV,5,3,17,23,05,211,,24,59,229,29,25,14,338,18,29,10,306,14*7E
$GPGSV,5,4,17,36,52,277,37,40,86,351,,41,58,082,,49,32,274,*78
$GPGSV,5,5,17,50,10,089,*4A
$GLGSV,2,1,08,68,14,116,,69,19,166,,73,18,341,21,79,42,137,29*6B
$GLGSV,2,2,08,80,68,026,25,83,27,343,25,84,35,277,,85,08,233,*6A
$GNGLL,0419.86477,S,05539.68630,E,044627.00,A,A*6E
$GNGRS,044627.00,1,-5.2,0.7,-8.5,-9.0,3.8,7.9,16.1,23.3,,,,*7B
$GNGRS,044627.00,1,-1.9,10.3,6.6,,,,,,,,,*6A
$GNGST,044627.00,94803,,,,4.6,5.0,15*51
$GNZDA,044627.00,28,05,2025,00,00*71
$GNGBS,044627.00,4.6,5.0,14.8,,,,*66
$GNTXT,01,01,01,More than 100 frame errors, UART RX was disabled*70
b0@y>v%~'+;Sy;R
2{"4V_:R 
YgDtE
IUO*wPDZSWT#UobyU
$GNRMC,044628.00,A,0419.86473,S,05539.68618,E,0.161,,280525,,,A*78
$GNVTG,,T,,M,0.161,N,0.299,K,A*39
$GNGNS,044628.00,0419.86473,S,05539.68618,E,AA,10,1.04,21.5,-47.6,,*6A
$GNGGA,044628.00,0419.86473,S,05539.68618,E,1,10,1.04,21.5,M,-47.6,M,,*40
$GNGSA,A,3,24,05,20,11,12,18,29,,,,,,2.02,1.04,1.74*1B
$GNGSA,A,3,79,80,83,,,,,,,,,,2.02,1.04,1.74*16
$GPGSV,5,1,17,05,62,118,24,11,17,021,25,12,37,005,25,13,18,151,*7D
$GPGSV,5,2,17,15,28,185,07,18,26,237,13,20,43,059,28,22,14,121,*70
$GPGSV,5,3,17,23,05,211,,24,59,229,28,25,14,338,18,29,10,306,11*7A
$GPGSV,5,4,17,36,52,277,34,40,86,351,,41,58,082,,49,32,274,*7B
$GPGSV,5,5,17,50,10,089,*4A
$GLGSV,2,1,08,68,14,116,,69,19,166,,73,18,341,19,79,42,137,28*61
$GLGSV,2,2,08,80,68,026,24,83,27,343,23,84,35,277,,85,08,233,*6D
$GNGLL,0419.86473,S,05539.68618,E,044628.00,A,A*6F
$GNGRS,044628.00,1,-8.6,-1.2,-6.9,-8.8,8.9,20.1,6.9,,,,,*4D
$GNGRS,044628.00,1,-1.4,11.1,9.5,,,,,,,,,*67
$GNGST,044628.00,47,,,,4.7,5.0,15*6A
$GNZDA,044628.00,28,05,2025,00,00*7E
$GNGBS,044628.00,4.7,5.0,14.8,,,,*68
$GNTXT,01,01,01,More than 100 frame errors, UART RX was disabled*70
b0@y>vM%9d+;
y;R
2{$4V_:R 
YgDtE
IUO*PD6SWsT#UbyU
w$GNRMC,044629.00,A,0419.86476,S,05539.68616,E,0.574,,280525,,,A*72
$GNVTG,,T,,M,0.574,N,1.063,K,A*3F
$GNGNS,044629.00,0419.86476,S,05539.68616,E,AA,09,1.40,21.6,-47.6,,*6B
$GNGGA,044629.00,0419.86476,S,05539.68616,E,1,09,1.40,21.6,M,-47.6,M,,*41
$GNGSA,A,3,24,05,20,11,12,29,,,,,,,2.71,1.40,2.32*17
$GNGSA,A,3,79,80,83,,,,,,,,,,2.71,1.40,2.32*13
$GPGSV,5,1,17,05,62,118,24,11,17,021,25,12,37,005,24,13,18,151,*7C
$GPGSV,5,2,17,15,28,185,05,18,26,237,09,20,43,059,28,22,14,121,*79
$GPGSV,5,3,17,23,05,211,,24,59,229,28,25,14,338,18,29,10,306,14*7F
$GPGSV,5,4,17,36,52,277,36,40,86,351,,41,58,082,,49,32,274,*79
$GPGSV,5,5,17,50,10,089,*4A
$GLGSV,2,1,08,68,14,116,,69,19,166,,73,18,341,19,79,42,137,28*61
$GLGSV,2,2,08,80,68,026,25,83,27,343,25,84,35,277,,85,08,233,*6A
$GNGLL,0419.86476,S,05539.68616,E,044629.00,A,A*65
$GNGRS,044629.00,1,-8.9,-0.7,-10.1,-9.5,10.8,23.3,,,,,,*6C
$GNGRS,044629.00,1,-3.0,10.8,11.4,,,,,,,,,*50
$GNGST,044629.00,35,,,,4.7,5.0,15*6E
$GNZDA,044629.00,28,05,2025,00,00*7F
$GNGBS,044629.00,4.7,5.0,15.0,,,,*60
$GNTXT,01,01,01,More than 100 frame errors, UART RX was disabled*70
b0@y>v[%]x+;Iy;R
2%{%4V_:R 
YgDtE
IUO*PDRSWT#UdbyU
u$GNRMC,044630.00,A,0419.86465,S,05539.68607,E,0.156,,280525,,,A*7C
$GNVTG,,T,,M,0.156,N,0.289,K,A*3C
$GNGNS,044630.00,0419.86465,S,05539.68607,E,AA,11,1.16,22.3,-47.6,,*6D
$GNGGA,044630.00,0419.86465,S,05539.68607,E,1,11,1.16,22.3,M,-47.6,M,,*47
$GNGSA,A,3,24,05,20,11,15,12,18,29,,,,,2.09,1.16,1.73*10
$GNGSA,A,3,79,80,83,,,,,,,,,,2.09,1.16,1.73*19
$GPGSV,5,1,17,05,62,118,26,11,17,021,26,12,37,005,24,13,18,151,*7D
$GPGSV,5,2,17,15,28,185,09,18,26,237,16,20,43,059,29,22,14,121,*7A
$GPGSV,5,3,17,23,05,211,,24,59,229,29,25,14,338,20,29,10,306,18*79
$GPGSV,5,4,17,36,52,277,37,40,86,351,,41,58,082,,49,32,274,*78
$GPGSV,5,5,17,50,10,089,*4A
$GLGSV,2,1,08,68,14,116,,69,19,166,,73,18,341,20,79,42,137,30*62
$GLGSV,2,2,08,80,68,026,27,83,27,343,26,84,35,277,,85,08,233,*6B
$GNGLL,0419.86465,S,05539.68607,E,044630.00,A,A*6F
$GNGRS,044630.00,1,-3.2,0.3,-12.1,-9.3,10.4,11.2,24.2,23.4,,,,*44
$GNGRS,044630.00,1,-3.6,11.1,12.2,,,,,,,,,*53
$GNGST,044630.00,3965255,,,,4.7,5.1,15*5A
$GNZDA,044630.00,28,05,2025,00,00*77
$GNGBS,044630.00,4.7,5.1,14.9,,,,*61
$GNTXT,01,01,01,More than 100 frame errors, UART RX was disabled*70
b0@y!>v%+;y;R
2{'4V_:R 
YgDtE
IUO*PDSW;T#UjbyU
]XG$GNRMC,044631.00,A,0419.86452,S,05539.68590,E,0.092,,280525,,,A*7D
$GNVTG,,T,,M,0.092,N,0.170,K,A*30
$GNGNS,044631.00,0419.86452,S,05539.68590,E,AA,11,1.08,22.5,-47.6,,*6C
$GNGGA,044631.00,0419.86452,S,05539.68590,E,1,11,1.08,22.5,M,-47.6,M,,*46
$GNGSA,A,3,24,05,20,11,15,12,18,29,,,,,2.15,1.08,1.86*18
$GNGSA,A,3,79,80,83,,,,,,,,,,2.15,1.08,1.86*11
$GPGSV,5,1,17,05,62,118,33,11,17,021,26,12,37,005,25,13,18,151,*78
$GPGSV,5,2,17,15,28,185,12,18,26,237,17,20,43,059,29,22,14,121,*71
$GPGSV,5,3,17,23,05,211,,24,59,229,29,25,14,338,20,29,10,306,15*74
$GPGSV,5,4,17,36,52,277,39,40,86,351,,41,58,082,,49,32,274,*76
$GPGSV,5,5,17,50,10,089,*4A
$GLGSV,2,1,08,68,14,116,,69,19,166,,73,19,341,22,79,42,137,30*61
$GLGSV,2,2,08,80,68,026,25,83,27,343,27,84,35,277,,85,08,233,*68
$GNGLL,0419.86452,S,05539.68590,E,044631.00,A,A*67
$GNGRS,044631.00,1,-8.1,-2.4,-10.1,-7.6,-62.7,12.5,14.5,21.9,,,,*48
$GNGRS,044631.00,1,-6.2,12.7,10.8,,,,,,,,,*5E
$GNGST,044631.00,33,,,,4.7,5.0,15*61
$GNZDA,044631.00,28,05,2025,00,00*76
$GNGBS,044631.00,4.7,5.0,14.6,,,,*6E
$GNTXT,01,01,01,More than 100 frame errors, UART RX was disabled*70
b0@y >v{%(^+;y;R
2C{'4V_:R 
YgDtE
IUO*PDSWT#UbyU
E0$GNRMC,044632.00,A,0419.86436,S,05539.68567,E,0.129,,280525,,,A*75
$GNVTG,,T,,M,0.129,N,0.238,K,A*3E
$GNGNS,044632.00,0419.86436,S,05539.68567,E,AA,11,0.92,22.2,-47.6,,*60
$GNGGA,044632.00,0419.86436,S,05539.68567,E,1,11,0.92,22.2,M,-47.6,M,,*4A
$GNGSA,A,3,24,05,20,11,15,12,18,29,,,,,1.81,0.92,1.56*19
$GNGSA,A,3,79,80,83,,,,,,,,,,1.81,0.92,1.56*10
$GPGSV,5,1,17,05,62,118,32,11,17,021,25,12,37,005,26,13,18,151,*79
$GPGSV,5,2,17,15,28,185,09,18,26,237,13,20,43,059,29,22,14,121,*7F
$GPGSV,5,3,17,23,05,211,,24,59,229,30,25,14,338,19,29,10,306,19*7A
$GPGSV,5,4,17,36,52,277,39,40,86,351,,41,58,082,,49,32,274,*76
$GPGSV,5,5,17,50,10,089,*4A
$GLGSV,2,1,08,68,14,116,,69,19,166,,73,19,341,22,79,42,137,30*61
$GLGSV,2,2,08,80,68,026,25,83,27,343,27,84,35,277,,85,08,233,*68
$GNGLL,0419.86436,S,05539.68567,E,044632.00,A,A*6E
$GNGRS,044632.00,1,-10.5,-3.9,-13.4,-8.0,10.6,13.1,11.2,18.6,,,,*5E
$GNGRS,044632.00,1,-8.1,12.3,9.9,,,,,,,,,*6D
$GNGST,044632.00,3588814,,,,4.7,5.0,14*58
$GNZDA,044632.00,28,05,2025,00,00*75
$GNGBS,044632.00,4.7,5.0,14.3,,,,*68
$GNTXT,01,01,01,More than 100 frame errors, UART RX was disabled*70
b0@xy >v%%G+;gy;R
2n{'4V_:R 
YgDtE
IUO*xPDXSWT#UbxyU
-$GNRMC,044633.00,A,0419.86422,S,05539.68546,E,0.071,,280525,,,A*7E
$GNVTG,,T,,M,0.071,N,0.131,K,A*38
$GNGNS,044633.00,0419.86422,S,05539.68546,E,AA,11,0.92,22.3,-47.6,,*66
$GNGGA,044633.00,0419.86422,S,05539.68546,E,1,11,0.92,22.3,M,-47.6,M,,*4C
$GNGSA,A,3,24,05,20,11,15,12,18,29,,,,,1.81,0.92,1.56*19
$GNGSA,A,3,79,80,83,,,,,,,,,,1.81,0.92,1.56*10
$GPGSV,5,1,17,05,62,118,32,11,17,021,25,12,37,005,26,13,18,151,*79
$GPGSV,5,2,17,15,28,185,08,18,26,237,12,20,43,059,29,22,14,121,*7F
$GPGSV,5,3,17,23,05,211,,24,59,229,29,25,14,338,18,29,10,306,22*7B
$GPGSV,5,4,17,36,52,277,39,40,86,351,,41,58,082,,49,32,274,*76
$GPGSV,5,5,17,50,10,089,*4A
$GLGSV,2,1,08,68,14,116,,69,19,166,,73,19,341,23,79,42,137,30*60
$GLGSV,2,2,08,80,68,026,24,83,27,343,26,84,35,277,,85,08,233,*68
$GNGLL,0419.86422,S,05539.68546,E,044633.00,A,A*69
$GNGRS,044633.00,1,-5.3,1.3,-11.8,-8.6,10.6,15.4,11.0,13.9,,,,*45
$GNGRS,044633.00,1,-6.5,13.7,9.9,,,,,,,,,*63
$GNGST,044633.00,3591261,,,,4.6,5.0,14*58
$GNZDA,044633.00,28,05,2025,00,00*74
$GNGBS,044633.00,4.6,5.0,14.1,,,,*6A
$GNTXT,01,01,01,More than 100 frame errors, UART RX was disabled*70
b0@`y >v5%&
n=+;by;R
2{'4V_:R 
YgDtE
IUO*`PDSWyT#USVb`yU
$GNRMC,044634.00,A,0419.86407,S,05539.68526,E,0.060,,280525,,,A*78
$GNVTG,,T,,M,0.060,N,0.111,K,A*3A
$GNGNS,044634.00,0419.86407,S,05539.68526,E,AA,11,1.04,22.6,-47.6,,*6B
$GNGGA,044634.00,0419.86407,S,05539.68526,E,1,11,1.04,22.6,M,-47.6,M,,*41
$GNGSA,A,3,24,05,20,11,15,12,18,29,,,,,2.02,1.04,1.73*18
$GNGSA,A,3,79,80,83,,,,,,,,,,2.02,1.04,1.73*11
$GPGSV,5,1,17,05,62,118,32,11,17,021,24,12,37,005,25,13,18,151,*7B
$GPGSV,5,2,17,15,28,185,10,18,26,237,12,20,43,059,29,22,14,121,*76
$GPGSV,5,3,17,23,05,211,,24,59,229,29,25,14,338,17,29,10,306,21*77
$GPGSV,5,4,17,36,52,277,39,40,86,351,,41,58,082,,49,32,274,*76
$GPGSV,5,5,17,50,10,089,*4A
$GLGSV,2,1,08,68,14,116,,69,19,166,,73,19,341,22,79,42,137,31*60
$GLGSV,2,2,08,80,68,026,26,83,27,343,25,84,35,277,,85,08,233,*69
$GNGLL,0419.86407,S,05539.68526,E,044634.00,A,A*6F
$GNGRS,044634.00,1,-3.1,-0.2,-11.8,-9.7,157,13.2,7.3,10.4,,,,*7B
$GNGRS,044634.00,1,-6.7,12.8,8.9,,,,,,,,,*69
$GNGST,044634.00,38,,,,4.6,4.9,14*67
$GNZDA,044634.00,28,05,2025,00,00*73
$GNGBS,044634.00,4.6,4.9,14.0,,,,*64
$GNTXT,01,01,01,More than 100 frame errors, UART RX was disabled*70
b0@Hy>vg%!+R+;y;FR
2{%4V_:R 
YgDtE
IUO*PDSW?T#UyAbHyU
$GNRMC,044635.00,A,0419.86393,S,05539.68504,E,0.166,,280525,,,A*74
$GNVTG,,T,,M,0.166,N,0.308,K,A*37
$GNGNS,044635.00,0419.86393,S,05539.68504,E,AA,11,0.92,22.9,-47.6,,*61
$GNGGA,044635.00,0419.86393,S,05539.68504,E,1,11,0.92,22.9,M,-47.6,M,,*4B
$GNGSA,A,3,24,05,20,11,15,12,18,29,,,,,1.81,0.92,1.56*19
$GNGSA,A,3,79,80,83,,,,,,,,,,1.81,0.92,1.56*10
$GPGSV,5,1,17,05,62,118,27,11,17,021,25,12,37,005,25,13,18,151,*7E
$GPGSV,5,2,17,15,28,185,12,18,26,237,13,20,43,059,29,22,14,121,*75
$GPGSV,5,3,17,23,05,211,,24,59,229,29,25,14,338,18,29,10,306,21*78
$GPGSV,5,4,17,36,52,277,37,40,86,351,,41,58,082,,49,32,274,*78
$GPGSV,5,5,17,50,10,089,*4A
$GLGSV,2,1,08,68,14,116,,69,19,166,,73,19,341,22,79,42,137,30*61
$GLGSV,2,2,08,80,68,026,26,83,27,343,26,84,35,277,,85,08,233,*6A
$GNGLL,0419.86393,S,05539.68504,E,044635.00,A,A*64
$GNGRS,044635.00,1,-1.9,-4.1,-15.7,-10.0,10.7,13.1,11.1,7.4,,,,*68
$GNGRS,044635.00,1,-5.7,12.6,8.3,,,,,,,,,*6F
$GNGST,044635.00,464830,,,,4.6,4.9,14*60
$GNZDA,044635.00,28,05,2025,00,00*72
$GNGBS,044635.00,4.6,4.9,13.8,,,,*6A
$GNTXT,01,01,01,More than 100 frame errors, UART RX was disabled*70
b0@0y>vO%9-5+;y;R
2{4V_:R 
YgDtE
IUO*PDkSWT#U9b0yU
L$GNRMC,044636.00,A,0419.86391,S,05539.68491,E,0.310,,280525,,,A*7B
$GNVTG,,T,,M,0.310,N,0.575,K,A*38
$GNGNS,044636.00,0419.86391,S,05539.68491,E,AA,11,0.92,22.9,-47.6,,*6D
$GNGGA,044636.00,0419.86391,S,05539.68491,E,1,11,0.92,22.9,M,-47.6,M,,*47
$GNGSA,A,3,24,05,20,11,15,12,18,29,,,,,1.81,0.92,1.56*19
$GNGSA,A,3,79,80,83,,,,,,,,,,1.81,0.92,1.56*10
$GPGSV,5,1,17,05,62,118,26,11,17,021,24,12,37,005,22,13,18,151,*79
$GPGSV,5,2,17,15,28,185,11,18,26,237,12,20,43,059,28,22,14,121,*76
$GPGSV,5,3,17,23,05,211,,24,59,229,27,25,14,338,18,29,10,306,19*7D
$GPGSV,5,4,17,36,52,277,31,40,86,351,,41,58,082,,49,32,274,*7E
$GPGSV,5,5,17,50,10,089,*4A
$GLGSV,2,1,08,68,14,116,,69,19,166,,73,19,341,21,79,42,137,21*62
$GLGSV,2,2,08,80,68,026,25,83,27,343,26,84,35,277,,85,08,233,*69
$GNGLL,0419.86391,S,05539.68491,E,044636.00,A,A*68
$GNGRS,044636.00,1,-8.4,-2.7,-15.6,-9.5,10.7,15.9,10.8,7.8,,,,*59
$GNGRS,044636.00,1,-5.1,11.3,7.6,,,,,,,,,*66
$GNGST,044636.00,467355,,,,4.6,4.9,14*68
$GNZDA,044636.00,28,05,2025,00,00*71
$GNGBS,044636.00,4.6,4.9,13.9,,,,*68
$GNTXT,01,01,01,More than 100 frame errors, UART RX was disabled*70
b0@y>v\%vb+;y;R
20{!4V_:R 
YgDtE
IUO*PD2SWNT#UI}byU
 g$GNRMC,044637.00,A,0419.86373,S,05539.68484,E,0.412,,280525,,,A*77
$GNVTG,,T,,M,0.412,N,0.764,K,A*3F
$GNGNS,044637.00,0419.86373,S,05539.68484,E,AA,11,0.92,23.4,-47.6,,*68
$GNGGA,044637.00,0419.86373,S,05539.68484,E,1,11,0.92,23.4,M,-47.6,M,,*42
$GNGSA,A,3,24,05,20,11,15,12,18,29,,,,,1.81,0.92,1.56*19
$GNGSA,A,3,79,80,83,,,,,,,,,,1.81,0.92,1.56*10
$GPGSV,5,1,17,05,62,118,25,11,17,021,23,12,37,005,21,13,18,151,*7E
$GPGSV,5,2,17,15,28,185,09,18,26,237,12,20,43,059,26,22,14,121,*71
$GPGSV,5,3,17,23,05,211,,24,59,229,26,25,14,338,17,29,10,306,18*72
$GPGSV,5,4,17,36,52,277,33,40,86,351,,41,58,082,,49,32,274,*7C
$GPGSV,5,5,17,50,10,089,*4A
$GLGSV,2,1,08,68,14,116,,69,19,166,,73,19,341,19,79,42,137,23*6B
$GLGSV,2,2,08,80,68,026,25,83,27,343,25,84,35,277,,85,08,233,*6A
$GNGLL,0419.86373,S,05539.68484,E,044637.00,A,A*61
$GNGRS,044637.00,1,-8.4,-3.6,-13.6,-9.3,6.7,16.5,3.5,5.6,,,,*53
$GNGRS,044637.00,1,-8.5,10.7,8.5,,,,,,,,,*67
$GNGST,044637.00,48,,,,4.7,5.0,14*6A
$GNZDA,044637.00,28,05,2025,00,00*70
$GNGBS,044637.00,4.7,5.0,13.9,,,,*60
$GNTXT,01,01,01,More than 100 frame errors, UART RX was disabled*70
b0@y>vI%`+;y;XR
2{ 4V_:R 
YgDtE
IUO*PESWT#UbyU
$?$GNRMC,044638.00,A,0419.86363,S,05539.68480,E,0.069,,280525,,,A*75
$GNVTG,,T,,M,0.069,N,0.127,K,A*36
$GNGNS,044638.00,0419.86363,S,05539.68480,E,AA,11,0.92,23.6,-47.6,,*60
$GNGGA,044638.00,0419.86363,S,05539.68480,E,1,11,0.92,23.6,M,-47.6,M,,*4A
$GNGSA,A,3,24,05,20,11,15,12,18,29,,,,,1.81,0.92,1.56*19
$GNGSA,A,3,79,80,83,,,,,,,,,,1.81,0.92,1.56*10
$GPGSV,5,1,17,05,62,118,25,11,17,021,24,12,37,005,20,13,18,151,*78
$GPGSV,5,2,17,15,28,185,07,18,26,237,13,20,43,059,27,22,14,121,*7F
$GPGSV,5,3,17,23,05,211,,24,59,229,27,25,14,338,19,29,10,306,19*7C
$GPGSV,5,4,17,36,52,277,32,40,86,351,,41,58,082,,49,32,274,*7D
$GPGSV,5,5,17,50,10,089,*4A
$GLGSV,2,1,08,68,14,116,,69,19,166,,73,19,341,20,79,42,137,26*64
$GLGSV,2,2,08,80,69,027,26,83,27,343,26,84,35,277,,85,08,233,*6A
$GNGLL,0419.86363,S,05539.68480,E,044638.00,A,A*6B
$GNGRS,044638.00,1,-11.9,-0.7,-12.6,-9.5,10.4,17.2,11.2,4.9,,,,*64
$GNGRS,044638.00,1,-3.5,10.1,9.4,,,,,,,,,*65
$GNGST,044638.00,105413,,,,4.8,5.0,14*64
$GNZDA,044638.00,28,05,2025,00,00*7F
$GNGBS,044638.00,4.8,5.0,13.8,,,,*61
$GNTXT,01,01,01,More than 100 frame errors, UART RX was disabled*70
b0@y>vvV%j+;Qy;R
2{#4V_:R 
YgDtE
IUO*PESW<T#UbyU
(u$GNRMC,044639.00,A,0419.86345,S,05539.68487,E,0.710,,280525,,,A*7E
$GNVTG,,T,,M,0.710,N,1.315,K,A*3D
$GNGNS,044639.00,0419.86345,S,05539.68487,E,AA,11,0.92,24.1,-47.6,,*62
$GNGGA,044639.00,0419.86345,S,05539.68487,E,1,11,0.92,24.1,M,-47.6,M,,*48
$GNGSA,A,3,24,05,20,11,15,12,18,29,,,,,1.81,0.92,1.56*19
$GNGSA,A,3,79,80,83,,,,,,,,,,1.81,0.92,1.56*10
$GPGSV,5,1,17,05,62,118,24,11,17,021,24,12,37,005,21,13,18,151,*78
$GPGSV,5,2,17,15,28,185,09,18,26,237,14,20,43,059,26,22,14,121,*77
$GPGSV,5,3,17,23,05,211,,24,59,229,25,25,14,338,18,29,10,306,19*7F
$GPGSV,5,4,17,36,52,277,35,40,86,351,,41,58,082,,49,32,274,*7A
$GPGSV,5,5,17,50,10,089,*4A
$GLGSV,2,1,08,68,14,116,,69,19,166,,73,19,341,19,79,42,137,25*6D
$GLGSV,2,2,08,80,69,027,26,83,27,343,25,84,35,277,,85,08,233,*69
$GNGLL,0419.86345,S,05539.68487,E,044639.00,A,A*69
$GNGRS,044639.00,1,-12.7,1.2,-12.0,-11.9,10.2,17.1,11.3,2.0,,,,*79
$GNGRS,044639.00,1,7.4,10.0,8.3,,,,,,,,,*4B
$GNGST,044639.00,152544,,,,4.9,5.1,14*64
$GNZDA,044639.00,28,05,2025,00,00*7E
$GNGBS,044639.00,4.9,5.1,13.9,,,,*61
$GNTXT,01,01,01,More than 100 frame errors, UART RX was disabled*70
b0@y>v%

m+;Uy;R
2]{#4V_:R 
YgDtE
IUO*PESWT#UDbyU
,$GNRMC,044640.00,A,0419.86338,S,05539.68502,E,0.630,,280525,,,A*75
$GNVTG,,T,,M,0.630,N,1.166,K,A*38
$GNGNS,044640.00,0419.86338,S,05539.68502,E,AA,11,1.04,24.3,-47.6,,*66
$GNGGA,044640.00,0419.86338,S,05539.68502,E,1,11,1.04,24.3,M,-47.6,M,,*4C
$GNGSA,A,3,24,05,20,11,15,12,18,29,,,,,2.02,1.04,1.73*18
$GNGSA,A,3,79,80,83,,,,,,,,,,2.02,1.04,1.73*11
$GPGSV,5,1,17,05,62,118,23,11,17,021,24,12,37,005,21,13,18,151,*7F
$GPGSV,5,2,17,15,28,185,10,18,26,237,10,20,43,059,25,22,14,121,*78
$GPGSV,5,3,17,23,05,211,,24,59,229,25,25,14,338,19,29,10,306,20*74
$GPGSV,5,4,17,36,52,277,35,40,86,351,,41,58,082,,49,32,274,*7A
$GPGSV,5,5,17,50,10,089,*4A
$GLGSV,2,1,08,68,14,116,,69,19,166,,73,19,341,17,79,42,137,25*63
$GLGSV,2,2,08,80,69,027,25,83,27,343,25,84,35,277,,85,08,233,*6A
$GNGLL,0419.86338,S,05539.68502,E,044640.00,A,A*61
$GNGRS,044640.00,1,-13.6,4.6,-12.0,-10.9,-38.8,17.1,3.7,0.9,,,,*66
$GNGRS,044640.00,1,10.5,9.2,7.4,,,,,,,,,*40
$GNGST,044640.00,44,,,,4.9,5.2,14*6A
$GNZDA,044640.00,28,05,2025,00,00*70
$GNGBS,044640.00,4.9,5.2,13.8,,,,*6D
$GNTXT,01,01,01,More than 100 frame errors, UART RX was disabled*70
b0@y>v%.M+;y;_R
2E{#4V_:R 
YgDtE
IUO*PEYSWT#UbyU
m0E$GNRMC,044641.00,A,0419.86332,S,05539.68508,E,0.227,,280525,,,A*76
$GNVTG,,T,,M,0.227,N,0.421,K,A*3D
$GNGNS,044641.00,0419.86332,S,05539.68508,E,AA,11,0.92,24.6,-47.6,,*6C
$GNGGA,044641.00,0419.86332,S,05539.68508,E,1,11,0.92,24.6,M,-47.6,M,,*46
$GNGSA,A,3,24,05,20,11,15,12,18,29,,,,,1.81,0.92,1.56*19
$GNGSA,A,3,79,80,83,,,,,,,,,,1.81,0.92,1.56*10
$GPGSV,5,1,17,05,62,118,22,11,17,021,24,12,37,005,20,13,18,151,*7F
$GPGSV,5,2,17,15,28,185,11,18,26,237,15,20,43,059,24,22,14,121,*7D
$GPGSV,5,3,17,23,05,211,,24,59,229,26,25,14,338,19,29,10,306,20*77
$GPGSV,5,4,17,36,52,277,35,40,86,351,,41,58,082,,49,32,274,*7A
$GPGSV,5,5,17,50,10,089,*4A
$GLGSV,2,1,08,68,14,116,,69,19,166,,73,19,341,14,79,42,137,25*60
$GLGSV,2,2,08,80,69,027,24,83,26,343,23,84,35,277,,85,08,233,*6C
$GNGLL,0419.86332,S,05539.68508,E,044641.00,A,A*60
$GNGRS,044641.00,1,-14.4,7.2,-13.7,-8.7,10.5,18.4,11.0,0.7,,,,*4E
$GNGRS,044641.00,1,9.0,8.6,7.7,,,,,,,,,*7A
$GNGST,044641.00,3587940,,,,4.9,5.3,14*5E
$GNZDA,044641.00,28,05,2025,00,00*71
$GNGBS,044641.00,4.9,5.3,13.8,,,,*6D
$GNTXT,01,01,01,More than 100 frame errors, UART RX was disabled*70
b0@y>v"%+;y;R
2_{ 4V_:R 
YgDtE
IUO*jPESWCT"UbyU
U4$GNRMC,044642.00,A,0419.86333,S,05539.68473,E,1.621,,280525,,,A*7A
$GNVTG,,T,,M,1.621,N,3.002,K,A*38
$GNGNS,044642.00,0419.86333,S,05539.68473,E,AA,11,0.92,23.6,-47.6,,*64
$GNGGA,044642.00,0419.86333,S,05539.68473,E,1,11,0.92,23.6,M,-47.6,M,,*4E
$GNGSA,A,3,24,05,20,11,15,12,18,29,,,,,1.81,0.92,1.56*19
$GNGSA,A,3,79,80,83,,,,,,,,,,1.81,0.92,1.56*10
$GPGSV,5,1,17,05,62,118,21,11,17,021,24,12,37,005,18,13,18,151,*77
$GPGSV,5,2,17,15,28,185,12,18,26,237,13,20,43,059,23,22,14,121,*7F
$GPGSV,5,3,17,23,05,211,,24,59,229,26,25,14,338,18,29,10,306,20*76
$GPGSV,5,4,17,36,52,277,32,40,86,351,,41,58,082,,49,32,274,*7D
$GPGSV,5,5,17,50,10,089,*4A
$GLGSV,2,1,08,68,14,116,,69,19,166,,73,19,341,17,79,42,137,24*62
$GLGSV,2,2,08,80,69,027,24,83,26,343,23,84,34,278,,85,08,233,*62
$GNGLL,0419.86333,S,05539.68473,E,044642.00,A,A*6F
$GNGRS,044642.00,1,-12.7,6.9,-15.7,-7.3,10.1,19.3,9.8,0.9,,,,*72
$GNGRS,044642.00,1,8.7,7.4,5.8,,,,,,,,,*7F
$GNGST,044642.00,3589339,,,,5.1,5.3,14*5E
$GNZDA,044642.00,28,05,2025,00,00*72
$GNGBS,044642.00,5.1,5.3,14.0,,,,*68
$GNTXT,01,01,01,More than 100 frame errors, UART RX was disabled*70
b0@y>v%+;y;ZR
2q{%4V_:R 
YgDtE
IUO*PESWBT"UJbyU
=8v$GNRMC,044643.00,A,0419.86323,S,05539.68470,E,0.273,,280525,,,A*7B
$GNVTG,,T,,M,0.273,N,0.505,K,A*3B
$GNGNS,044643.00,0419.86323,S,05539.68470,E,AA,11,1.04,23.8,-47.6,,*67
$GNGGA,044643.00,0419.86323,S,05539.68470,E,1,11,1.04,23.8,M,-47.6,M,,*4D
$GNGSA,A,3,24,05,20,11,15,12,18,29,,,,,2.02,1.04,1.73*18
$GNGSA,A,3,79,80,83,,,,,,,,,,2.02,1.04,1.73*11
$GPGSV,5,1,17,05,62,118,21,11,17,021,25,12,37,005,19,13,18,151,*77
$GPGSV,5,2,17,15,28,185,15,18,26,237,17,20,43,059,23,22,14,121,*7C
$GPGSV,5,3,17,23,05,211,,24,59,229,27,25,14,338,20,29,10,306,21*7D
$GPGSV,5,4,17,36,52,277,37,40,86,351,,41,58,082,,49,32,274,*78
$GPGSV,5,5,17,50,10,089,*4A
$GLGSV,2,1,08,68,14,116,,69,19,166,,73,19,341,19,79,42,137,26*6E
$GLGSV,2,2,08,80,69,027,26,83,26,343,26,84,34,278,,85,08,233,*65
$GNGLL,0419.86323,S,05539.68470,E,044643.00,A,A*6C
$GNGRS,044643.00,1,-11.9,9.1,-13.7,-8.6,-31.8,22.3,5.4,1.1,,,,*53
$GNGRS,044643.00,1,9.0,7.3,3.2,,,,,,,,,*73
$GNGST,044643.00,42,,,,5.1,5.4,14*60
$GNZDA,044643.00,28,05,2025,00,00*73
$GNGBS,044643.00,5.1,5.4,13.9,,,,*60
$GNTXT,01,01,01,More than 100 frame errors, UART RX was disabled*70
b0@py>vl%+;y;R
2C{%4V_:R 
YgDtE
IUO*PE,SWT"UbpyU
%<N}$GNRMC,044644.00,A,0419.86317,S,05539.68479,E,0.135,,280525,,,A*73
$GNVTG,,T,,M,0.135,N,0.251,K,A*3C
$GNGNS,044644.00,0419.86317,S,05539.68479,E,AA,11,0.92,24.1,-47.6,,*6E
$GNGGA,044644.00,0419.86317,S,05539.68479,E,1,11,0.92,24.1,M,-47.6,M,,*44
$GNGSA,A,3,24,05,20,11,15,12,18,29,,,,,1.81,0.92,1.56*19
$GNGSA,A,3,79,80,83,,,,,,,,,,1.81,0.92,1.56*10
$GPGSV,5,1,17,05,62,118,23,11,17,021,26,12,37,005,20,13,18,151,*7C
$GPGSV,5,2,17,15,28,185,14,18,26,237,16,20,43,059,22,22,14,121,*7D
$GPGSV,5,3,17,23,05,211,,24,59,229,27,25,14,338,21,29,10,306,22*7F
$GPGSV,5,4,17,36,52,277,37,40,86,351,,41,58,082,,49,32,274,*78
$GPGSV,5,5,17,50,10,089,*4A
$GLGSV,2,1,08,68,14,116,,69,19,166,,73,19,341,21,79,42,137,27*64
$GLGSV,2,2,08,80,69,027,28,83,26,343,27,84,34,278,,85,08,233,*6A
$GNGLL,0419.86317,S,05539.68479,E,044644.00,A,A*65
$GNGRS,044644.00,1,-11.5,11.3,-13.7,-7.9,10.4,22.6,11.5,-1.9,,,,*55
$GNGRS,044644.00,1,7.2,5.6,2.0,,,,,,,,,*7C
$GNGST,044644.00,3587016,,,,5.2,5.5,14*5D
$GNZDA,044644.00,28,05,2025,00,00*74
$GNGBS,044644.00,5.2,5.5,13.8,,,,*64
$GNTXT,01,01,01,More than 100 frame errors, UART RX was disabled*70
b0@Xy>v%+;y;R
2{%4V_:R 
YgDtE
IUO*]PESWhT"U&bXyU
@&$GNRMC,044645.00,A,0419.86313,S,05539.68483,E,0.169,,280525,,,A*7A
$GNVTG,,T,,M,0.169,N,0.313,K,A*32
$GNGNS,044645.00,0419.86313,S,05539.68483,E,AA,11,0.92,24.5,-47.6,,*6A
$GNGGA,044645.00,0419.86313,S,05539.68483,E,1,11,0.92,24.5,M,-47.6,M,,*40
$GNGSA,A,3,24,05,20,11,15,12,18,29,,,,,1.81,0.92,1.56*19
$GNGSA,A,3,79,80,83,,,,,,,,,,1.81,0.92,1.56*10
$GPGSV,5,1,17,05,62,118,25,11,17,021,25,12,37,005,22,13,18,151,*7B
$GPGSV,5,2,17,15,28,185,12,18,26,237,12,20,43,059,23,22,14,121,*7E
$GPGSV,5,3,17,23,05,211,,24,59,229,27,25,14,338,20,29,10,306,22*7E
$GPGSV,5,4,17,36,52,277,37,40,86,351,,41,58,082,,49,32,274,*78
$GPGSV,5,5,17,50,10,089,*4A
$GLGSV,2,1,08,68,14,116,,69,19,166,,73,19,341,23,79,42,137,30*60
$GLGSV,2,2,08,80,69,027,29,83,26,343,26,84,34,278,,85,08,233,*6A
$GNGLL,0419.86313,S,05539.68483,E,044645.00,A,A*65
$GNGRS,044645.00,1,-10.9,12.6,-11.3,-7.5,10.2,20.7,11.7,-0.9,,,,*53
$GNGRS,044645.00,1,3.5,2.5,3.6,,,,,,,,,*7D
$GNGST,044645.00,3587366,,,,5.1,5.6,14*58
$GNZDA,044645.00,28,05,2025,00,00*75
$GNGBS,044645.00,5.1,5.6,13.5,,,,*68
$GNTXT,01,01,01,More than 100 frame errors, UART RX was disabled*70
b0@@y>v'[%+;.y;R
2{%4V_:R 
YgDtE
IUO*PESWT"Ub@yU
CJ$GNRMC,044646.00,A,0419.86308,S,05539.68494,E,0.212,,280525,,,A*7A
$GNVTG,,T,,M,0.212,N,0.393,K,A*35
$GNGNS,044646.00,0419.86308,S,05539.68494,E,AA,10,1.01,25.1,-47.6,,*6A
$GNGGA,044646.00,0419.86308,S,05539.68494,E,1,10,1.01,25.1,M,-47.6,M,,*40
$GNGSA,A,3,24,05,20,11,15,12,29,,,,,,1.86,1.01,1.57*1D
$GNGSA,A,3,79,80,83,,,,,,,,,,1.86,1.01,1.57*1D
$GPGSV,5,1,17,05,62,118,27,11,17,021,25,12,37,005,23,13,18,151,*78
$GPGSV,5,2,17,15,28,185,12,18,26,237,09,20,43,059,23,22,14,121,*74
$GPGSV,5,3,17,23,05,211,,24,59,229,27,25,14,338,20,29,10,306,22*7E
$GPGSV,5,4,17,36,52,277,37,40,86,351,,41,58,082,,49,32,274,*78
$GPGSV,5,5,17,50,10,089,*4A
$GLGSV,2,1,08,68,14,116,,69,19,166,,73,19,341,24,79,42,137,31*66
$GLGSV,2,2,08,80,69,027,30,83,26,343,25,84,34,278,,85,08,233,*61
$GNGLL,0419.86308,S,05539.68494,E,044646.00,A,A*6A
$GNGRS,044646.00,1,-9.9,13.2,-9.8,-6.8,-15.2,18.1,-3.1,,,,,*64
$GNGRS,044646.00,1,3.9,1.8,4.3,,,,,,,,,*7E
$GNGST,044646.00,42,,,,5.1,5.6,13*60
$GNZDA,044646.00,28,05,2025,00,00*76
$GNGBS,044646.00,5.1,5.6,13.3,,,,*6D
$GNTXT,01,01,01,More than 100 frame errors, UART RX was disabled*70
b0@(y>v% +;y;R
2{&4V_:R 
YgDtE
IUO*PESWT"UYb(yU
G$GNRMC,044647.00,A,0419.86310,S,05539.68499,E,0.021,,280525,,,A*7D
$GNVTG,,T,,M,0.021,N,0.040,K,A*3A
$GNGNS,044647.00,0419.86310,S,05539.68499,E,AA,11,0.92,25.2,-47.6,,*66
$GNGGA,044647.00,0419.86310,S,05539.68499,E,1,11,0.92,25.2,M,-47.6,M,,*4C
$GNGSA,A,3,24,05,20,11,15,12,18,29,,,,,1.81,0.92,1.56*19
$GNGSA,A,3,79,80,83,,,,,,,,,,1.81,0.92,1.56*10
$GPGSV,5,1,17,05,62,118,27,11,17,021,25,12,37,005,25,13,18,151,*7E
$GPGSV,5,2,17,15,28,185,15,18,26,237,13,20,43,059,24,22,14,121,*7F
$GPGSV,5,3,17,23,05,211,,24,59,229,26,25,14,338,20,29,10,306,23*7E
$GPGSV,5,4,17,36,52,277,38,40,86,351,,41,58,082,,49,32,274,*77
$GPGSV,5,5,17,50,10,089,*4A
$GLGSV,2,1,08,68,14,116,,69,19,166,,73,19,341,25,79,42,137,31*67
$GLGSV,2,2,08,80,69,027,30,83,26,343,26,84,34,278,,85,08,233,*62
$GNGLL,0419.86310,S,05539.68499,E,044647.00,A,A*6F
$GNGRS,044647.00,1,-10.4,12.0,-8.5,-6.2,10.6,13.0,12.4,-3.7,,,,*6C
$GNGRS,044647.00,1,2.6,-0.3,3.8,,,,,,,,,*5A
$GNGST,044647.00,3586708,,,,5.0,5.5,13*52
$GNZDA,044647.00,28,05,2025,00,00*77
$GNGBS,044647.00,5.0,5.5,13.1,,,,*6C
$GNTXT,01,01,01,More than 100 frame errors, UART RX was disabled*70
b0@y>vv%+;y;R
2{$4V_:R 
YgDtE
IUO*[PESWT"UbyU
K$GNRMC,044648.00,A,0419.86331,S,05539.68509,E,0.181,,280525,,,A*72
$GNVTG,,T,,M,0.181,N,0.335,K,A*30
$GNGNS,044648.00,0419.86331,S,05539.68509,E,AA,11,0.92,24.4,-47.6,,*65
$GNGGA,044648.00,0419.86331,S,05539.68509,E,1,11,0.92,24.4,M,-47.6,M,,*4F
$GNGSA,A,3,24,05,20,11,15,12,18,29,,,,,1.81,0.92,1.56*19
$GNGSA,A,3,79,80,83,,,,,,,,,,1.81,0.92,1.56*10
$GPGSV,5,1,17,05,62,118,27,11,17,021,26,12,37,005,23,13,18,151,*7B
$GPGSV,5,2,17,15,28,185,14,18,26,237,14,20,43,059,22,22,14,121,*7F
$GPGSV,5,3,17,23,05,211,,24,59,229,25,25,14,338,21,29,10,306,23*7C
$GPGSV,5,4,17,36,52,277,36,40,86,351,,41,58,082,,49,32,274,*79
$GPGSV,5,5,17,50,10,089,*4A
$GLGSV,2,1,08,68,14,116,,69,19,166,,73,19,341,24,79,42,137,31*66
$GLGSV,2,2,08,80,69,027,31,83,26,343,28,84,34,278,,85,08,233,*6D
$GNGLL,0419.86331,S,05539.68509,E,044648.00,A,A*6B
$GNGRS,044648.00,1,-10.7,12.5,-8.3,-6.5,10.0,12.9,14.1,-3.7,,,,*69
$GNGRS,044648.00,1,8.6,-5.0,2.7,,,,,,,,,*57
$GNGST,044648.00,3586708,,,,4.9,5.5,13*55
$GNZDA,044648.00,28,05,2025,00,00*78
$GNGBS,044648.00,4.9,5.5,12.8,,,,*63
$GNTXT,01,01,01,More than 100 frame errors, UART RX was disabled*70
b0@y>v%j+;y;R
2{%4V_:R 
YgDtE
IUO*PESWT"U4byU
Os$GNRMC,044649.00,A,0419.86342,S,05539.68517,E,0.084,,280525,,,A*7C
$GNVTG,,T,,M,0.084,N,0.155,K,A*30
$GNGNS,044649.00,0419.86342,S,05539.68517,E,AA,10,1.04,24.4,-47.6,,*60
$GNGGA,044649.00,0419.86342,S,05539.68517,E,1,10,1.04,24.4,M,-47.6,M,,*4A
$GNGSA,A,3,24,05,20,11,12,18,29,,,,,,2.02,1.04,1.73*1C
$GNGSA,A,3,79,80,83,,,,,,,,,,2.02,1.04,1.73*11
$GPGSV,5,1,17,05,62,118,31,11,17,021,25,12,37,005,23,13,18,151,*7F
$GPGSV,5,2,17,15,28,185,07,18,26,237,17,20,43,059,21,22,14,121,*7D
$GPGSV,5,3,17,23,05,211,,24,59,229,22,25,14,338,22,29,10,306,23*78
$GPGSV,5,4,17,36,52,277,37,40,86,351,,41,58,082,,49,32,274,*78
$GPGSV,5,5,17,50,10,089,*4A
$GLGSV,2,1,08,68,14,116,,69,19,166,,73,19,341,22,79,42,137,29*69
$GLGSV,2,2,08,80,69,027,31,83,26,343,30,84,34,278,,85,08,233,*64
$GNGLL,0419.86342,S,05539.68517,E,044649.00,A,A*61
$GNGRS,044649.00,1,-11.2,7.1,-7.9,-5.6,11.3,16.7,-2.4,,,,,*49
$GNGRS,044649.00,1,7.5,-1.0,-0.7,,,,,,,,,*71
$GNGST,044649.00,39,,,,4.9,5.5,13*69
$GNZDA,044649.00,28,05,2025,00,00*79
$GNGBS,044649.00,4.9,5.5,12.6,,,,*6C
$GNTXT,01,01,01,More than 100 frame errors, UART RX was disabled*70
b0@y>v<B%Lg+;ky;R
2{!4V_:R 
YgDtE
IUO*pPE@SWT"UbyU
