b0@k}>p'*9z;-R
3{{4V_:R 
Y
gDrE
IUgO(PGSYT"SUPbk}U
M$GNRMC,045037.00,A,0419.85703,S,05539.68465,E,0.440,,280525,,,A*78
$GNVTG,,T,,M,0.440,N,0.815,K,A*31
$GNGNS,045037.00,0419.85703,S,05539.68465,E,AA,11,1.25,28.2,-47.6,,*60
$GNGGA,045037.00,0419.85703,S,05539.68465,E,1,11,1.25,28.2,M,-47.6,M,,*4A
$GNGSA,A,3,24,05,20,11,12,18,25,,,,,,2.38,1.25,2.03*1E
$GNGSA,A,3,80,83,84,73,,,,,,,,,2.38,1.25,2.03*19
$GPGSV,5,1,17,05,62,112,27,11,16,022,08,12,39,006,30,13,18,149,*79
$GPGSV,5,2,17,15,28,184,08,18,26,238,24,20,42,057,22,22,14,122,*73
$GPGSV,5,3,17,23,06,210,,24,59,226,23,25,16,338,13,29,10,307,07*73
$GPGSV,5,4,17,36,52,277,,40,86,351,31,41,58,082,,49,32,274,*7E
$GPGSV,5,5,17,50,10,089,*4A
$GLGSV,2,1,08,68,14,114,,69,19,164,,73,21,341,20,79,40,139,*67
$GLGSV,2,2,08,80,71,030,27,83,25,345,17,84,34,281,11,85,09,235,*6D
$GNGLL,0419.85703,S,05539.68465,E,045037.00,A,A*69
$GNGRS,045037.00,1,-7.2,-0.5,-2.8,17.9,-1.2,2.1,17.0,,,,,*78
$GNGRS,045037.00,1,5.0,7.5,3.4,1.0,,,,,,,,*54
$GNGST,045037.00,6213137,,,,5.6,8.1,14*5E
$GNZDA,045037.00,28,05,2025,00,00*77
$GNGBS,045037.00,5.6,8.1,14.0,,,,*65
$GNTXT,01,01,01,More than 100 frame errors, UART RX was disabled*70
b0@o}>p
'U*9z;
R
3{4V_:R 
Y
gDrE
IUO(PGSYT"[Ubo}U
5?$GNRMC,045038.00,A,0419.85713,S,05539.68469,E,0.130,,280525,,,A*78
$GNVTG,,T,,M,0.130,N,0.241,K,A*38
$GNGNS,045038.00,0419.85713,S,05539.68469,E,AA,11,1.25,28.4,-47.6,,*64
$GNGGA,045038.00,0419.85713,S,05539.68469,E,1,11,1.25,28.4,M,-47.6,M,,*4E
$GNGSA,A,3,24,05,20,11,12,18,25,,,,,,2.38,1.25,2.03*1E
$GNGSA,A,3,80,83,84,73,,,,,,,,,2.38,1.25,2.03*19
$GPGSV,5,1,17,05,62,112,24,11,16,022,10,12,39,006,23,13,18,149,*71
$GPGSV,5,2,17,15,28,184,09,18,26,238,23,20,42,057,20,22,14,122,*77
$GPGSV,5,3,17,23,06,210,,24,59,226,21,25,16,338,10,29,10,307,08*7D
$GPGSV,5,4,17,36,52,277,,40,86,351,29,41,58,082,,49,32,274,*77
$GPGSV,5,5,17,50,10,089,*4A
$GLGSV,2,1,08,68,14,114,,69,19,164,,73,21,341,16,79,40,139,*62
$GLGSV,2,2,08,80,71,030,24,83,25,345,11,84,34,281,11,85,09,235,*68
$GNGLL,0419.85713,S,05539.68469,E,045038.00,A,A*6B
$GNGRS,045038.00,1,-7.8,-0.9,-0.7,17.5,-1.3,3.4,16.8,,,,,*7C
$GNGRS,045038.00,1,5.3,7.4,3.5,-0.6,,,,,,,,*72
$GNGST,045038.00,6214044,,,,5.9,8.4,14*59
$GNZDA,045038.00,28,05,2025,00,00*78
$GNGBS,045038.00,5.9,8.4,14.4,,,,*64
$GNTXT,01,01,01,More than 100 frame errors, UART RX was disabled*70
b0@hs}>pU'y*9z;^R
3{4V_:R 
Y
gDrE
IUO(PGSYtT"Ubhs}U
q$GNRMC,045039.00,A,0419.85699,S,05539.68458,E,0.134,,280525,,,A*7C
$GNVTG,,T,,M,0.134,N,0.248,K,A*35
$GNGNS,045039.00,0419.85699,S,05539.68458,E,AA,10,1.27,29.1,-47.6,,*63
$GNGGA,045039.00,0419.85699,S,05539.68458,E,1,10,1.27,29.1,M,-47.6,M,,*49
$GNGSA,A,3,24,05,20,11,12,18,,,,,,,2.41,1.27,2.05*13
$GNGSA,A,3,80,83,84,73,,,,,,,,,2.41,1.27,2.05*13
$GPGSV,5,1,17,05,62,112,25,11,16,022,09,12,39,006,25,13,18,149,*7E
$GPGSV,5,2,17,15,28,184,08,18,26,238,23,20,42,057,20,22,14,122,*76
$GPGSV,5,3,17,23,06,210,,24,59,226,21,25,16,338,06,29,10,307,12*71
$GPGSV,5,4,17,36,52,277,,40,86,351,30,41,58,082,,49,32,274,*7F
$GPGSV,5,5,17,50,10,089,*4A
$GLGSV,2,1,08,68,14,114,,69,19,164,,73,21,341,15,79,40,139,*61
$GLGSV,2,2,08,80,71,030,24,83,25,345,14,84,34,281,13,85,09,235,*6F
$GNGLL,0419.85699,S,05539.68458,E,045039.00,A,A*6B
$GNGRS,045039.00,1,-9.3,-2.6,2.3,-81.1,-3.8,1.6,,,,,,*60
$GNGRS,045039.00,1,4.1,3.7,1.5,-0.3,,,,,,,,*70
$GNGST,045039.00,71,,,,6.2,8.7,15*65
$GNZDA,045039.00,28,05,2025,00,00*79
$GNGBS,045039.00,6.2,8.7,14.9,,,,*63
$GNTXT,01,01,01,More than 100 frame errors, UART RX was disabled*70
b0@Pw}>p'l*9z;tR
3{4!V_:R 
Y
gDrE
IUkO(P GJSYT"YUbPw}U
I$GNRMC,045040.00,A,0419.85699,S,05539.68467,E,0.096,,280525,,,A*77
$GNVTG,,T,,M,0.096,N,0.178,K,A*3C
$GNGNS,045040.00,0419.85699,S,05539.68467,E,AA,11,1.25,28.9,-47.6,,*6B
$GNGGA,045040.00,0419.85699,S,05539.68467,E,1,11,1.25,28.9,M,-47.6,M,,*41
$GNGSA,A,3,24,05,20,11,12,18,25,,,,,,2.38,1.25,2.03*1E
$GNGSA,A,3,80,83,84,73,,,,,,,,,2.38,1.25,2.03*19
$GPGSV,5,1,17,05,62,112,28,11,16,022,14,12,39,006,27,13,18,149,*7D
$GPGSV,5,2,17,15,28,184,07,18,26,238,25,20,42,057,22,22,14,122,*7D
$GPGSV,5,3,17,23,06,210,,24,59,226,24,25,16,338,09,29,10,307,13*7A
$GPGSV,5,4,17,36,52,277,,40,86,351,33,41,58,082,,49,32,274,*7C
$GPGSV,5,5,17,50,10,089,*4A
$GLGSV,2,1,08,68,14,114,,69,19,164,,73,21,341,17,79,40,139,*63
$GLGSV,2,2,08,80,71,030,32,83,25,345,17,84,34,281,11,85,09,235,*69
$GNGLL,0419.85699,S,05539.68467,E,045040.00,A,A*69
$GNGRS,045040.00,1,-9.1,-5.2,6.7,17.9,-3.1,2.8,17.0,,,,,*59
$GNGRS,045040.00,1,5.9,7.6,3.5,-1.5,,,,,,,,*77
$GNGST,045040.00,5072672,,,,6.2,8.7,15*5E
$GNZDA,045040.00,28,05,2025,00,00*77
$GNGBS,045040.00,6.2,8.7,14.9,,,,*6D
$GNTXT,01,01,01,More than 100 frame errors, UART RX was disabled*70
b0@8{}>p'1*9z;.R
3{4!V_:R 
Y
gDrE
IUaO(mPGSYT"EUb8{}U
 t$GNRMC,045041.00,A,0419.85694,S,05539.68459,E,0.193,,280525,,,A*72
$GNVTG,,T,,M,0.193,N,0.358,K,A*38
$GNGNS,045041.00,0419.85694,S,05539.68459,E,AA,11,1.25,29.1,-47.6,,*63
$GNGGA,045041.00,0419.85694,S,05539.68459,E,1,11,1.25,29.1,M,-47.6,M,,*49
$GNGSA,A,3,24,05,20,11,12,18,25,,,,,,2.38,1.25,2.03*1E
$GNGSA,A,3,80,83,84,73,,,,,,,,,2.38,1.25,2.03*19
$GPGSV,5,1,17,05,62,112,30,11,16,022,15,12,39,006,28,13,18,149,*7A
$GPGSV,5,2,17,15,28,184,08,18,26,238,26,20,42,057,24,22,14,122,*77
$GPGSV,5,3,17,23,06,210,,24,59,226,25,25,16,338,09,29,10,307,14*7C
$GPGSV,5,4,17,36,52,277,,40,86,351,33,41,58,082,,49,32,274,*7C
$GPGSV,5,5,17,50,10,089,*4A
$GLGSV,2,1,08,68,14,114,,69,19,164,,73,21,341,19,79,40,139,20*6F
$GLGSV,2,2,08,80,71,030,30,83,25,345,19,84,34,281,11,85,09,235,*65
$GNGLL,0419.85694,S,05539.68459,E,045041.00,A,A*68
$GNGRS,045041.00,1,-9.8,-5.6,9.1,18.0,-6.2,2.3,16.8,,,,,*5E
$GNGRS,045041.00,1,1.9,7.7,3.2,-1.6,,,,,,,,*77
$GNGST,045041.00,5072557,,,,6.2,8.7,15*5B
$GNZDA,045041.00,28,05,2025,00,00*76
$GNGBS,045041.00,6.2,8.7,15.0,,,,*64
$GNTXT,01,01,01,More than 100 frame errors, UART RX was disabled*70
b0@ }>pU*'_*9*z;Rh1
3W{4!V_:R 
Y
gDrE
IUO(PGSYT"%U-b }U
$GNRMC,045042.00,A,0419.85690,S,05539.68483,E,0.391,,280525,,,A*72
$GNVTG,,T,,M,0.391,N,0.724,K,A*37
$GNGNS,045042.00,0419.85690,S,05539.68483,E,AA,12,1.25,29.3,-47.6,,*62
$GNGGA,045042.00,0419.85690,S,05539.68483,E,1,12,1.25,29.3,M,-47.6,M,,*48
$GNGSA,A,3,24,05,20,11,12,18,29,25,,,,,2.32,1.25,1.96*10
$GNGSA,A,3,80,83,84,73,,,,,,,,,2.32,1.25,1.96*1C
$GPGSV,5,1,17,05,62,112,30,11,16,022,14,12,39,006,28,13,18,149,*7B
$GPGSV,5,2,17,15,28,184,08,18,26,238,26,20,42,057,24,22,14,122,*77
$GPGSV,5,3,17,23,06,210,,24,59,226,26,25,16,338,09,29,10,307,15*7E
$GPGSV,5,4,17,36,52,277,,40,86,351,33,41,58,082,,49,32,274,*7C
$GPGSV,5,5,17,50,10,089,*4A
$GLGSV,2,1,08,68,14,114,,69,19,164,,73,21,341,20,79,40,139,19*6F
$GLGSV,2,2,08,80,71,030,29,83,25,345,19,84,34,281,13,85,09,235,*6F
$GNGLL,0419.85690,S,05539.68483,E,045042.00,A,A*68
$GNGRS,045042.00,1,-8.7,-4.3,13.2,13.2,-6.4,1.0,-17.0,126,,,,*71
$GNGRS,045042.00,1,5.3,7.4,5.5,-1.1,,,,,,,,*7F
$GNGST,045042.00,53,,,,6.2,8.6,15*68
$GNZDA,045042.00,28,05,2025,00,00*75
$GNGBS,045042.00,6.2,8.6,15.0,,,,*66
$GNTXT,01,01,01,More than 100 frame errors, UART RX was disabled*70
b0@}>p+'*9az;)R
3{4!V_:R 
Y
gDrE
IU9O(PGsSYPT
"AUb}U
D$GNRMC,045043.00,A,0419.85697,S,05539.68507,E,0.264,,280525,,,A*72
$GNVTG,,T,,M,0.264,N,0.489,K,A*38
$GNGNS,045043.00,0419.85697,S,05539.68507,E,AA,11,1.25,28.4,-47.6,,*6C
$GNGGA,045043.00,0419.85697,S,05539.68507,E,1,11,1.25,28.4,M,-47.6,M,,*46
$GNGSA,A,3,24,05,20,11,12,18,29,,,,,,2.32,1.25,1.96*17
$GNGSA,A,3,80,83,84,73,,,,,,,,,2.32,1.25,1.96*1C
$GPGSV,5,1,17,05,62,112,30,11,16,022,11,12,39,006,29,13,18,149,*7F
$GPGSV,5,2,17,15,28,184,08,18,26,238,26,20,42,057,23,22,14,122,*70
$GPGSV,5,3,17,23,06,210,,24,59,226,26,25,16,338,,29,10,307,16*74
$GPGSV,5,4,17,36,52,277,,40,86,351,33,41,58,082,,49,32,274,*7C
$GPGSV,5,5,17,50,10,089,*4A
$GLGSV,2,1,08,68,14,114,,69,19,164,,73,21,341,20,79,40,139,18*6E
$GLGSV,2,2,08,80,71,030,28,83,25,345,18,84,34,281,10,85,09,235,*6C
$GNGLL,0419.85697,S,05539.68507,E,045043.00,A,A*63
$GNGRS,045043.00,1,-7.3,-7.2,16.3,17.5,-5.5,1.4,-18.5,,,,,*47
$GNGRS,045043.00,1,3.7,8.5,3.2,-2.0,,,,,,,,*71
$GNGST,045043.00,63144,,,,6.1,8.6,15*58
$GNZDA,045043.00,28,05,2025,00,00*74
$GNGBS,045043.00,6.1,8.6,15.1,,,,*65
$GNTXT,01,01,01,More than 100 frame errors, UART RX was disabled*70
b0@}>p'*9oz;R
3{4!V_:R 
Y
gDrE
IUO(YPGSYT"
Ub}U
$GNRMC,045044.00,A,0419.85686,S,05539.68511,E,0.319,,280525,,,A*79
$GNVTG,,T,,M,0.319,N,0.590,K,A*3A
$GNGNS,045044.00,0419.85686,S,05539.68511,E,AA,13,0.95,28.1,-47.6,,*61
$GNGGA,045044.00,0419.85686,S,05539.68511,E,1,12,0.95,28.1,M,-47.6,M,,*4A
$GNGSA,A,3,24,05,20,11,15,12,18,29,,,,,1.87,0.95,1.61*1C
$GNGSA,A,3,79,80,83,84,73,,,,,,,,1.87,0.95,1.61*1D
$GPGSV,5,1,17,05,62,112,30,11,16,022,17,12,39,006,29,13,18,149,*79
$GPGSV,5,2,17,15,28,184,12,18,26,238,27,20,42,057,23,22,14,122,*7A
$GPGSV,5,3,17,23,06,210,,24,59,226,26,25,16,338,,29,10,307,15*77
$GPGSV,5,4,17,36,52,277,,40,86,351,33,41,58,082,,49,32,274,*7C
$GPGSV,5,5,17,50,10,089,*4A
$GLGSV,2,1,08,68,14,114,,69,19,164,,73,21,341,20,79,40,139,17*61
$GLGSV,2,2,08,80,71,030,28,83,25,345,18,84,34,281,13,85,09,235,*6F
$GNGLL,0419.85686,S,05539.68511,E,045044.00,A,A*63
$GNGRS,045044.00,1,-10.1,-3.3,13.9,16.8,-16.3,-3.3,2.7,-20.4,,,,*4F
$GNGRS,045044.00,1,-1.7,7.6,6.9,2.7,-1.1,,,,,,,*72
$GNGST,045044.00,94716,,,,6.0,8.5,15*54
$GNZDA,045044.00,28,05,2025,00,00*73
$GNGBS,045044.00,6.0,8.5,15.2,79,,1.6,61.4*59
$GNTXT,01,01,01,More than 100 frame errors, UART RX was disabled*70
b0@}>pn'Qd*9yz;RR
3k{4"V_:R 
Y
gDrE
IUO(1PGVSYT"UEb}U
$GNRMC,045045.00,A,0419.85676,S,05539.68523,E,0.320,,280525,,,A*7C
$GNVTG,,T,,M,0.320,N,0.593,K,A*33
$GNGNS,045045.00,0419.85676,S,05539.68523,E,AA,13,0.95,27.6,-47.6,,*66
$GNGGA,045045.00,0419.85676,S,05539.68523,E,1,12,0.95,27.6,M,-47.6,M,,*4D
$GNGSA,A,3,24,05,20,11,15,12,18,29,,,,,1.87,0.95,1.61*1C
$GNGSA,A,3,79,80,83,84,73,,,,,,,,1.87,0.95,1.61*1D
$GPGSV,5,1,17,05,62,112,30,11,16,022,13,12,39,006,29,13,18,149,*7D
$GPGSV,5,2,17,15,28,184,15,18,26,238,27,20,42,057,22,22,14,122,*7C
$GPGSV,5,3,17,23,06,210,,24,59,226,27,25,16,338,,29,10,307,16*75
$GPGSV,5,4,17,36,52,277,,40,86,351,34,41,58,082,,49,32,274,*7B
$GPGSV,5,5,17,50,10,089,*4A
$GLGSV,2,1,08,68,14,114,,69,19,164,,73,21,341,18,79,40,139,15*68
$GLGSV,2,2,08,80,71,030,27,83,25,345,18,84,34,281,16,85,09,235,*65
$GNGLL,0419.85676,S,05539.68523,E,045045.00,A,A*6C
$GNGRS,045045.00,1,-9.4,-4.0,16.6,9.1,-16.0,-4.3,1.0,-22.0,,,,*4C
$GNGRS,045045.00,1,-17.4,11.1,6.9,-7.5,0.3,,,,,,,*73
$GNGST,045045.00,54,,,,6.0,8.4,15*68
$GNZDA,045045.00,28,05,2025,00,00*72
$GNGBS,045045.00,6.0,8.4,15.1,79,,17.3,67.7*6D
$GNTXT,01,01,01,More than 100 frame errors, UART RX was disabled*70
b0@}>pL'*9 z;R
3f{4!V_:R 
Y
gDrE
IU7O(PGSYT"nUjb}U
uWm$GNRMC,045046.00,A,0419.85662,S,05539.68520,E,0.230,,280525,,,A*79
$GNVTG,,T,,M,0.230,N,0.426,K,A*3C
$GNGNS,045046.00,0419.85662,S,05539.68520,E,AA,13,0.93,28.0,-47.6,,*6C
$GNGGA,045046.00,0419.85662,S,05539.68520,E,1,12,0.93,28.0,M,-47.6,M,,*47
$GNGSA,A,3,24,05,20,11,15,12,18,29,,,,,1.79,0.93,1.53*1A
$GNGSA,A,3,79,80,83,84,73,,,,,,,,1.79,0.93,1.53*1B
$GPGSV,5,1,17,05,62,112,29,11,16,022,09,12,39,006,28,13,18,149,*7F
$GPGSV,5,2,17,15,29,183,16,18,26,238,27,20,42,057,22,22,14,122,*79
$GPGSV,5,3,17,23,06,210,,24,59,226,25,25,16,338,,29,10,307,15*74
$GPGSV,5,4,17,36,52,277,,40,86,351,33,41,58,082,,49,32,274,*7C
$GPGSV,5,5,17,50,10,089,*4A
$GLGSV,2,1,08,68,14,114,,69,19,164,,73,21,341,18,79,40,139,15*68
$GLGSV,2,2,08,80,71,030,26,83,25,345,19,84,34,281,13,85,09,235,*60
$GNGLL,0419.85662,S,05539.68520,E,045046.00,A,A*69
$GNGRS,045046.00,1,-8.1,-4.4,15.7,18.1,-18.2,-3.6,2.3,-19.5,,,,*7E
$GNGRS,045046.00,1,-33.1,9.1,6.6,3.7,0.5,,,,,,,*68
$GNGST,045046.00,138468,,,,5.9,8.4,15*60
$GNZDA,045046.00,28,05,2025,00,00*71
$GNGBS,045046.00,5.9,8.4,15.2,,,,*6A
$GNTXT,01,01,01,More than 100 frame errors, UART RX was disabled*70
b0@}>p
'h*9z;R
3{4 V_:R 
Y
gDrE
IUO(PGSYT"U?b}U
]/$GNRMC,045047.00,A,0419.85653,S,05539.68524,E,0.113,,280525,,,A*7C
$GNVTG,,T,,M,0.113,N,0.210,K,A*3D
$GNGNS,045047.00,0419.85653,S,05539.68524,E,AA,13,0.93,28.2,-47.6,,*69
$GNGGA,045047.00,0419.85653,S,05539.68524,E,1,12,0.93,28.2,M,-47.6,M,,*42
$GNGSA,A,3,24,05,20,11,15,12,18,29,,,,,1.79,0.93,1.53*1A
$GNGSA,A,3,79,80,83,84,73,,,,,,,,1.79,0.93,1.53*1B
$GPGSV,5,1,17,05,62,112,29,11,16,022,10,12,39,006,28,13,18,149,*77
$GPGSV,5,2,17,15,29,183,17,18,26,238,26,20,42,057,22,22,14,122,*79
$GPGSV,5,3,17,23,06,210,,24,59,226,24,25,16,338,,29,10,307,14*74
$GPGSV,5,4,17,36,52,277,,40,86,351,32,41,58,082,,49,32,274,*7D
$GPGSV,5,5,17,50,10,089,*4A
$GLGSV,2,1,08,68,14,114,,69,19,164,,73,21,341,20,79,40,139,17*61
$GLGSV,2,2,08,80,71,030,26,83,25,345,19,84,34,281,11,85,09,235,*62
$GNGLL,0419.85653,S,05539.68524,E,045047.00,A,A*6E
$GNGRS,045047.00,1,-7.5,-1.0,17.6,18.0,-20.8,-4.1,2.2,-15.1,,,,*7F
$GNGRS,045047.00,1,-31.8,5.1,7.5,4.1,1.6,,,,,,,*6F
$GNGST,045047.00,207702,,,,5.9,8.3,15*66
$GNZDA,045047.00,28,05,2025,00,00*70
$GNGBS,045047.00,5.9,8.3,15.2,,,,*6C
$GNTXT,01,01,01,More than 100 frame errors, UART RX was disabled*70
b0@}>p'~*9|z;ZR
3{4!V_:R 
Y
gDrE
IUO(BPG'SYT"Ub}U
E=$GNRMC,045048.00,A,0419.85659,S,05539.68537,E,0.368,,280525,,,A*75
$GNVTG,,T,,M,0.368,N,0.682,K,A*3C
$GNGNS,045048.00,0419.85659,S,05539.68537,E,AA,13,1.26,27.8,-47.6,,*64
$GNGGA,045048.00,0419.85659,S,05539.68537,E,1,12,1.26,27.8,M,-47.6,M,,*4F
$GNGSA,A,3,24,05,20,11,15,12,18,29,,,,,2.32,1.26,1.96*10
$GNGSA,A,3,79,80,83,84,73,,,,,,,,2.32,1.26,1.96*11
$GPGSV,5,1,17,05,62,112,28,11,16,022,15,12,39,006,28,13,18,149,*73
$GPGSV,5,2,17,15,29,183,17,18,26,238,26,20,42,057,21,22,14,122,*7A
$GPGSV,5,3,17,23,06,210,,24,59,226,24,25,16,338,,29,10,307,15*75
$GPGSV,5,4,17,36,52,277,,40,86,351,33,41,58,082,,49,32,274,*7C
$GPGSV,5,5,17,50,10,089,*4A
$GLGSV,2,1,08,68,14,114,,69,19,164,,73,21,341,20,79,40,139,17*61
$GLGSV,2,2,08,80,71,030,26,83,25,345,18,84,34,281,16,85,09,235,*64
$GNGLL,0419.85659,S,05539.68537,E,045048.00,A,A*69
$GNGRS,045048.00,1,-9.3,1.4,19.2,-92.9,-21.8,-10.5,4.1,-13.7,,,,*48
$GNGRS,045048.00,1,-32.6,5.5,7.3,2.8,1.6,,,,,,,*60
$GNGST,045048.00,63,,,,5.8,8.3,15*6D
$GNZDA,045048.00,28,05,2025,00,00*7F
$GNGBS,045048.00,5.8,8.3,15.3,,,,*63
$GNTXT,01,01,01,More than 100 frame errors, UART RX was disabled*70
b0@x}>p
'f*9Fz;R
3{4!V_:R 
Y
gDrE
IUO(3PG4SYJT"U|bx}U
-$GNRMC,045049.00,A,0419.85665,S,05539.68563,E,0.254,,280525,,,A*74
$GNVTG,,T,,M,0.254,N,0.470,K,A*3D
$GNGNS,045049.00,0419.85665,S,05539.68563,E,AA,13,1.26,27.5,-47.6,,*66
$GNGGA,045049.00,0419.85665,S,05539.68563,E,1,12,1.26,27.5,M,-47.6,M,,*4D
$GNGSA,A,3,24,05,20,11,15,12,18,29,,,,,2.32,1.26,1.96*10
$GNGSA,A,3,79,80,83,84,73,,,,,,,,2.32,1.26,1.96*11
$GPGSV,5,1,17,05,62,112,28,11,16,022,10,12,39,006,28,13,18,149,*76
$GPGSV,5,2,17,15,29,183,16,18,27,239,25,20,42,057,21,22,14,122,*78
$GPGSV,5,3,17,23,06,210,,24,59,226,25,25,16,338,,29,10,307,15*74
$GPGSV,5,4,17,36,52,277,,40,86,351,33,41,58,082,,49,32,274,*7C
$GPGSV,5,5,17,50,10,089,*4A
$GLGSV,2,1,08,68,14,114,,69,19,164,,73,21,341,20,79,40,139,16*60
$GLGSV,2,2,08,80,71,030,26,83,25,345,18,84,34,281,14,85,09,235,*66
$GNGLL,0419.85665,S,05539.68563,E,045049.00,A,A*66
$GNGRS,045049.00,1,-10.9,0.2,21.2,18.0,-24.6,-5.5,2.0,-16.3,,,,*68
$GNGRS,045049.00,1,-30.2,5.6,5.9,3.8,2.3,,,,,,,*6B
$GNGST,045049.00,3586774,,,,5.8,8.4,15*52
$GNZDA,045049.00,28,05,2025,00,00*7E
$GNGBS,045049.00,5.8,8.4,15.5,,,,*63
$GNTXT,01,01,01,More than 100 frame errors, UART RX was disabled*70
b0@`}>p'F*9z;R
3{4!V_:R 
Y
gDrE
IU^O(PGSYfT"Ub`}U
$GNRMC,045050.00,A,0419.85672,S,05539.68588,E,0.120,,280525,,,A*7F
$GNVTG,,T,,M,0.120,N,0.222,K,A*3C
$GNGNS,045050.00,0419.85672,S,05539.68588,E,AA,13,1.26,27.0,-47.6,,*68
$GNGGA,045050.00,0419.85672,S,05539.68588,E,1,12,1.26,27.0,M,-47.6,M,,*43
$GNGSA,A,3,24,05,20,11,15,12,18,29,,,,,2.32,1.26,1.96*10
$GNGSA,A,3,79,80,83,84,73,,,,,,,,2.32,1.26,1.96*11
$GPGSV,5,1,17,05,62,112,28,11,16,022,11,12,39,006,28,13,18,149,*77
$GPGSV,5,2,17,15,29,183,16,18,27,239,25,20,42,057,20,22,14,122,*79
$GPGSV,5,3,17,23,06,210,,24,59,226,25,25,16,338,,29,10,307,16*77
$GPGSV,5,4,17,36,52,277,,40,86,351,33,41,58,082,,49,32,274,*7C
$GPGSV,5,5,17,50,10,089,*4A
$GLGSV,2,1,08,68,14,114,,69,19,164,,73,21,341,20,79,40,139,15*63
$GLGSV,2,2,08,80,71,030,25,83,25,345,19,84,34,281,16,85,09,235,*66
$GNGLL,0419.85672,S,05539.68588,E,045050.00,A,A*6D
$GNGRS,045050.00,1,-11.3,-3.5,20.7,17.9,-25.4,-6.4,3.3,-15.6,,,,*45
$GNGRS,045050.00,1,-29.2,4.4,3.6,4.2,0.9,,,,,,,*64
$GNGST,045050.00,3586856,,,,5.8,8.4,16*56
$GNZDA,045050.00,28,05,2025,00,00*76
$GNGBS,045050.00,5.8,8.4,15.6,,,,*68
$GNTXT,01,01,01,More than 100 frame errors, UART RX was disabled*70
b0@H}>pT
'K+2*9z;tR
3G{4 V_:R 
Y
gDrE
IU/O(PGSYPT"UbH}U
 t$GNRMC,045051.00,A,0419.85677,S,05539.68605,E,0.178,,280525,,,A*70
$GNVTG,,T,,M,0.178,N,0.329,K,A*3B
$GNGNS,045051.00,0419.85677,S,05539.68605,E,AA,13,1.26,26.9,-47.6,,*62
$GNGGA,045051.00,0419.85677,S,05539.68605,E,1,12,1.26,26.9,M,-47.6,M,,*49
$GNGSA,A,3,24,05,20,11,15,12,18,29,,,,,2.32,1.26,1.96*10
$GNGSA,A,3,79,80,83,84,73,,,,,,,,2.32,1.26,1.96*11
$GPGSV,5,1,17,05,62,112,28,11,16,022,13,12,39,006,27,13,18,149,*7A
$GPGSV,5,2,17,15,29,183,14,18,27,239,25,20,42,057,19,22,14,122,*71
$GPGSV,5,3,17,23,06,210,,24,59,226,25,25,16,338,,29,10,307,16*77
$GPGSV,5,4,17,36,52,277,,40,86,351,32,41,58,082,,49,32,274,*7D
$GPGSV,5,5,17,50,10,089,*4A
$GLGSV,2,1,08,68,14,114,,69,19,164,,73,21,341,21,79,40,139,14*63
$GLGSV,2,2,08,80,71,030,26,83,25,345,20,84,34,281,14,85,09,235,*6D
$GNGLL,0419.85677,S,05539.68605,E,045051.00,A,A*6F
$GNGRS,045051.00,1,-9.1,0.8,20.2,27.6,-27.7,-4.4,3.1,-17.2,,,,*52
$GNGRS,045051.00,1,-26.8,4.5,3.4,6.5,0.5,,,,,,,*6A
$GNGST,045051.00,54,,,,5.8,8.4,16*65
$GNZDA,045051.00,28,05,2025,00,00*77
$GNGBS,045051.00,5.8,8.4,15.7,,,,*68
$GNTXT,01,01,01,More than 100 frame errors, UART RX was disabled*70
b0@0}>p1
'F*9{;(R
3{4V_:R 
Y
gDrE
IUO(PGySYT"sUb0}U
 g$GNRMC,045052.00,A,0419.85679,S,05539.68629,E,0.236,,280525,,,A*7A
$GNVTG,,T,,M,0.236,N,0.437,K,A*3A
$GNGNS,045052.00,0419.85679,S,05539.68629,E,AA,13,1.26,26.6,-47.6,,*6E
$GNGGA,045052.00,0419.85679,S,05539.68629,E,1,12,1.26,26.6,M,-47.6,M,,*45
$GNGSA,A,3,24,05,20,11,15,12,18,29,,,,,2.32,1.26,1.96*10
$GNGSA,A,3,79,80,83,84,73,,,,,,,,2.32,1.26,1.96*11
$GPGSV,5,1,17,05,62,112,28,11,16,022,10,12,39,006,27,13,18,149,*79
$GPGSV,5,2,17,15,29,183,11,18,27,239,24,20,42,057,18,22,13,123,*72
$GPGSV,5,3,17,23,06,210,,24,59,226,24,25,16,338,,29,10,307,15*75
$GPGSV,5,4,17,36,52,277,,40,86,351,31,41,58,082,,49,32,274,*7E
$GPGSV,5,5,17,50,10,089,*4A
$GLGSV,2,1,08,68,14,114,,69,19,164,,73,21,341,20,79,40,139,13*65
$GLGSV,2,2,08,80,71,030,26,83,25,345,19,84,34,281,18,85,09,235,*6B
$GNGLL,0419.85679,S,05539.68629,E,045052.00,A,A*6C
$GNGRS,045052.00,1,-9.8,0.5,22.1,17.8,-23.7,-1.9,1.7,-17.8,,,,*5B
$GNGRS,045052.00,1,-25.8,3.8,1.9,3.7,1.5,,,,,,,*69
$GNGST,045052.00,118436,,,,5.9,8.4,16*6F
$GNZDA,045052.00,28,05,2025,00,00*74
$GNGBS,045052.00,5.9,8.4,15.9,,,,*64
$GNTXT,01,01,01,More than 100 frame errors, UART RX was disabled*70
b0@}>p'*9h
{;R
34{4 V_:R 
Y
gDrE
IUaO(9PGaSYT"U?b}U
 ?D$GNRMC,045053.00,A,0419.85685,S,05539.68660,E,0.299,,280525,,,A*70
$GNVTG,,T,,M,0.299,N,0.553,K,A*3C
$GNGNS,045053.00,0419.85685,S,05539.68660,E,AA,13,1.26,26.2,-47.6,,*65
$GNGGA,045053.00,0419.85685,S,05539.68660,E,1,12,1.26,26.2,M,-47.6,M,,*4E
$GNGSA,A,3,24,05,20,11,15,12,18,29,,,,,2.32,1.26,1.96*10
$GNGSA,A,3,79,80,83,84,73,,,,,,,,2.32,1.26,1.96*11
$GPGSV,5,1,17,05,62,112,28,11,16,022,13,12,39,006,27,13,18,149,*7A
$GPGSV,5,2,17,15,29,183,13,18,27,239,25,20,42,057,18,22,13,123,*71
$GPGSV,5,3,17,23,07,210,,24,59,226,23,25,16,338,,29,10,307,15*73
$GPGSV,5,4,17,36,52,277,,40,86,351,32,41,58,082,,49,32,274,*7D
$GPGSV,5,5,17,50,10,089,*4A
$GLGSV,2,1,08,68,14,114,,69,19,164,,73,21,341,21,79,40,139,12*65
$GLGSV,2,2,08,80,71,030,26,83,25,345,18,84,34,281,12,85,09,235,*60
$GNGLL,0419.85685,S,05539.68660,E,045053.00,A,A*63
$GNGRS,045053.00,1,-10.4,0.2,26.6,17.2,-27.9,-3.1,2.0,-17.4,,,,*68
$GNGRS,045053.00,1,-25.0,3.5,-0.7,4.1,1.0,,,,,,,*4B
$GNGST,045053.00,177654,,,,5.9,8.5,16*60
$GNZDA,045053.00,28,05,2025,00,00*75
$GNGBS,045053.00,5.9,8.5,16.0,,,,*6E
$GNTXT,01,01,01,More than 100 frame errors, UART RX was disabled*70
b0@}>p4'*9{
{:[R
31{4!V_:R 
Y
gDrE
IU8O(PGSYT"U=;b}U
 $GNRMC,045054.00,A,0419.85691,S,05539.68698,E,0.094,,280525,,,A*7A
$GNVTG,,T,,M,0.094,N,0.175,K,A*33
$GNGNS,045054.00,0419.85691,S,05539.68698,E,AA,11,1.35,25.0,-47.6,,*61
$GNGGA,045054.00,0419.85691,S,05539.68698,E,1,11,1.35,25.0,M,-47.6,M,,*4B
$GNGSA,A,3,24,05,20,11,15,12,18,29,,,,,2.44,1.35,2.03*1C
$GNGSA,A,3,80,83,73,,,,,,,,,,2.44,1.35,2.03*1F
$GPGSV,5,1,17,05,62,112,28,11,16,022,09,12,39,006,27,13,18,149,*71
$GPGSV,5,2,17,15,29,183,15,18,27,239,25,20,42,057,19,22,13,123,*76
$GPGSV,5,3,17,23,07,210,,24,58,225,23,25,16,338,,29,10,307,14*70
$GPGSV,5,4,17,36,52,277,,40,86,351,33,41,58,082,,49,32,274,*7C
$GPGSV,5,5,17,50,10,089,*4A
$GLGSV,2,1,08,68,14,114,,69,19,164,,73,21,341,21,79,40,139,09*6F
$GLGSV,2,2,08,80,71,030,25,83,25,345,18,84,34,281,06,85,09,235,*66
$GNGLL,0419.85691,S,05539.68698,E,045054.00,A,A*66
$GNGRS,045054.00,1,-9.3,-2.0,26.8,71.9,-28.0,-3.2,2.7,-17.4,,,,*7A
$GNGRS,045054.00,1,4.1,-0.3,0.6,,,,,,,,,*53
$GNGST,045054.00,54,,,,5.9,8.6,16*63
$GNZDA,045054.00,28,05,2025,00,00*72
$GNGBS,045054.00,5.9,8.6,16.2,,,,*68
$GNTXT,01,01,01,More than 100 frame errors, UART RX was disabled*70
b0@}>p'4*9
{:R
3{4!V_:R 
Y
gDrE
IUO(PGSY|T
"EU~b}U
 $GNRMC,045055.00,A,0419.85694,S,05539.68721,E,0.114,,280525,,,A*74
$GNVTG,,T,,M,0.114,N,0.212,K,A*38
$GNGNS,045055.00,0419.85694,S,05539.68721,E,AA,12,1.26,24.6,-47.6,,*60
$GNGGA,045055.00,0419.85694,S,05539.68721,E,1,12,1.26,24.6,M,-47.6,M,,*4A
$GNGSA,A,3,24,05,20,11,15,12,18,29,,,,,2.32,1.26,1.96*10
$GNGSA,A,3,80,83,84,73,,,,,,,,,2.32,1.26,1.96*1F
$GPGSV,5,1,17,05,62,112,28,11,16,022,12,12,39,006,27,13,18,149,*7B
$GPGSV,5,2,17,15,29,183,17,18,27,239,24,20,42,057,21,22,13,123,*7E
$GPGSV,5,3,17,23,07,210,,24,58,225,22,25,16,338,,29,10,307,13*76
$GPGSV,5,4,17,36,52,277,,40,86,351,33,41,58,082,,49,32,274,*7C
$GPGSV,5,5,17,50,10,089,*4A
$GLGSV,2,1,08,68,14,114,,69,19,164,,73,21,341,22,79,40,139,08*6D
$GLGSV,2,2,08,80,71,030,25,83,25,345,17,84,34,281,10,85,09,235,*6E
$GNGLL,0419.85694,S,05539.68721,E,045055.00,A,A*61
$GNGRS,045055.00,1,-8.1,-0.3,27.4,17.9,-30.2,-2.7,2.8,-16.3,,,,*72
$GNGRS,045055.00,1,4.6,1.2,3.3,-1.0,,,,,,,,*7C
$GNGST,045055.00,3586708,,,,5.9,8.7,17*54
$GNZDA,045055.00,28,05,2025,00,00*73
$GNGBS,045055.00,5.9,8.7,16.5,,,,*6F
$GNTXT,01,01,01,More than 100 frame errors, UART RX was disabled*70
b0@}>p'*9
{:IR
3?{4!V_:R 
Y
gDrE
IU3O(PGSYkT"Ueb}U
 m$GNRMC,045056.00,A,0419.85704,S,05539.68732,E,0.441,,280525,,,A*78
$GNVTG,,T,,M,0.441,N,0.816,K,A*33
$GNGNS,045056.00,0419.85704,S,05539.68732,E,AA,12,1.26,24.1,-47.6,,*6E
$GNGGA,045056.00,0419.85704,S,05539.68732,E,1,12,1.26,24.1,M,-47.6,M,,*44
$GNGSA,A,3,24,05,20,11,15,12,18,29,,,,,2.33,1.26,1.96*11
$GNGSA,A,3,80,83,84,73,,,,,,,,,2.33,1.26,1.96*1E
$GPGSV,5,1,17,05,62,112,28,11,16,022,12,12,39,006,28,13,18,149,*74
$GPGSV,5,2,17,15,29,183,18,18,27,239,25,20,42,057,22,22,13,123,*73
$GPGSV,5,3,17,23,07,210,,24,58,225,23,25,16,338,,29,10,307,15*71
$GPGSV,5,4,17,36,52,277,,40,86,351,33,41,58,082,,49,32,274,*7C
$GPGSV,5,5,17,50,10,089,*4A
$GLGSV,2,1,08,68,14,114,,69,19,164,,73,21,341,22,79,40,139,08*6D
$GLGSV,2,2,08,80,71,030,26,83,25,345,18,84,34,281,16,85,09,235,*64
$GNGLL,0419.85704,S,05539.68732,E,045056.00,A,A*68
$GNGRS,045056.00,1,-6.9,-0.1,28.1,17.5,-30.9,-3.3,4.6,-14.7,,,,*73
$GNGRS,045056.00,1,5.1,1.1,1.4,-2.0,,,,,,,,*7C
$GNGST,045056.00,3586708,,,,6.0,8.8,17*52
$GNZDA,045056.00,28,05,2025,00,00*70
$GNGBS,045056.00,6.0,8.8,16.8,,,,*64
$GNTXT,01,01,01,More than 100 frame errors, UART RX was disabled*70
b0@}>p '*9
{:R
3{4"V_:R 
Y
gDrE
IUO(|PGQSYT"7Ub}U
m $GNRMC,045057.00,A,0419.85711,S,05539.68752,E,0.318,,280525,,,A*70
$GNVTG,,T,,M,0.318,N,0.589,K,A*33
$GNGNS,045057.00,0419.85711,S,05539.68752,E,AA,12,1.26,23.3,-47.6,,*68
$GNGGA,045057.00,0419.85711,S,05539.68752,E,1,12,1.26,23.3,M,-47.6,M,,*42
$GNGSA,A,3,24,05,20,11,15,12,18,29,,,,,2.33,1.26,1.96*11
$GNGSA,A,3,80,83,84,73,,,,,,,,,2.33,1.26,1.96*1E
$GPGSV,5,1,17,05,62,112,28,11,16,022,11,12,39,006,28,13,18,149,*77
$GPGSV,5,2,17,15,29,183,18,18,27,239,24,20,42,057,21,22,13,123,*71
$GPGSV,5,3,17,23,07,210,,24,58,225,22,25,16,338,,29,10,307,15*70
$GPGSV,5,4,17,36,52,277,,40,86,351,34,41,58,082,,49,32,274,*7B
$GPGSV,5,5,17,50,10,089,*4A
$GLGSV,2,1,08,68,14,114,,69,19,164,,73,21,341,23,79,40,139,08*6C
$GLGSV,2,2,08,80,71,030,26,83,25,345,18,84,34,281,17,85,09,235,*65
$GNGLL,0419.85711,S,05539.68752,E,045057.00,A,A*6B
$GNGRS,045057.00,1,-5.9,0.3,27.8,37.2,-31.7,-3.2,4.0,-12.9,,,,*5D
$GNGRS,045057.00,1,5.9,1.5,3.1,-3.4,,,,,,,,*73
$GNGST,045057.00,51,,,,6.0,8.8,17*60
$GNZDA,045057.00,28,05,2025,00,00*71
$GNGBS,045057.00,6.0,8.8,17.0,,,,*6C
$GNTXT,01,01,01,More than 100 frame errors, UART RX was disabled*70
b0@}>p's*9?{:MR
3{4"V_:R 
Y
gDrE
IUO(PGSY[T">Ub}U
U v=$GNRMC,045058.00,A,0419.85723,S,05539.68766,E,0.249,,280525,,,A*7C
$GNVTG,,T,,M,0.249,N,0.461,K,A*31
$GNGNS,045058.00,0419.85723,S,05539.68766,E,AA,12,1.26,22.9,-47.6,,*6A
$GNGGA,045058.00,0419.85723,S,05539.68766,E,1,12,1.26,22.9,M,-47.6,M,,*40
$GNGSA,A,3,24,05,20,11,15,12,18,29,,,,,2.33,1.26,1.96*11
$GNGSA,A,3,80,83,84,73,,,,,,,,,2.33,1.26,1.96*1E
$GPGSV,5,1,17,05,62,112,28,11,16,022,12,12,39,006,28,13,18,149,*74
$GPGSV,5,2,17,15,29,183,19,18,27,239,25,20,42,057,21,22,13,123,*71
$GPGSV,5,3,17,23,07,210,,24,58,225,22,25,16,338,,29,10,307,16*73
$GPGSV,5,4,17,36,52,277,,40,86,351,34,41,58,082,,49,32,274,*7B
$GPGSV,5,5,17,50,10,089,*4A
$GLGSV,2,1,08,68,14,114,,69,19,164,,73,21,341,22,79,40,139,08*6D
$GLGSV,2,2,08,80,71,030,25,83,25,345,19,84,34,281,18,85,09,235,*68
$GNGLL,0419.85723,S,05539.68766,E,045058.00,A,A*62
$GNGRS,045058.00,1,-4.3,0.3,28.8,18.0,-31.7,-4.0,4.7,-13.4,,,,*57
$GNGRS,045058.00,1,7.0,0.9,3.2,-6.0,,,,,,,,*78
$GNGST,045058.00,3586708,,,,6.0,8.9,17*5D
$GNZDA,045058.00,28,05,2025,00,00*7E
$GNGBS,045058.00,6.0,8.9,17.3,,,,*61
$GNTXT,01,01,01,More than 100 frame errors, UART RX was disabled*70
b0@}>pp'*9
{:GR
4l{4#V_:R 
Y
gDrE
IU>O(PGSYjT"Uqb}U
=  N$GNRMC,045059.00,A,0419.85735,S,05539.68831,E,0.899,,280525,,,A*70
$GNVTG,,T,,M,0.899,N,1.666,K,A*32
$GNGNS,045059.00,0419.85735,S,05539.68831,E,AA,12,1.26,21.3,-47.6,,*68
$GNGGA,045059.00,0419.85735,S,05539.68831,E,1,12,1.26,21.3,M,-47.6,M,,*42
$GNGSA,A,3,24,05,20,11,15,12,18,29,,,,,2.33,1.26,1.96*11
$GNGSA,A,3,80,83,84,73,,,,,,,,,2.33,1.26,1.96*1E
$GPGSV,5,1,17,05,62,112,29,11,16,022,14,12,39,006,28,13,18,149,*73
$GPGSV,5,2,17,15,29,183,19,18,27,239,25,20,42,057,22,22,13,123,*72
$GPGSV,5,3,17,23,07,210,,24,58,225,21,25,16,338,,29,10,308,17*7E
$GPGSV,5,4,17,36,52,277,,40,86,351,35,41,58,082,,49,32,274,*7A
$GPGSV,5,5,17,50,10,089,*4A
$GLGSV,2,1,08,68,14,114,,69,19,164,,73,21,341,21,79,40,139,*66
$GLGSV,2,2,08,80,71,030,24,83,25,345,19,84,34,281,18,85,09,235,*69
$GNGLL,0419.85735,S,05539.68831,E,045059.00,A,A*69
$GNGRS,045059.00,1,-4.4,-1.4,28.1,17.1,-33.1,-3.7,4.9,-14.3,,,,*77
$GNGRS,045059.00,1,6.9,3.6,4.8,-7.1,,,,,,,,*70
$GNGST,045059.00,3586708,,,,6.0,8.9,18*53
$GNZDA,045059.00,28,05,2025,00,00*7F
$GNGBS,045059.00,6.0,8.9,17.6,,,,*65
$GNTXT,01,01,01,More than 100 frame errors, UART RX was disabled*70
b0@p}>p]!'J.*9J
{:R
4{4#V_:R 
Y
gDrE
IUO(PGgSYT"U#bp}U
%$ &$GNRMC,045100.00,A,0419.85743,S,05539.68869,E,0.531,,280525,,,A*7E
$GNVTG,,T,,M,0.531,N,0.984,K,A*3F
$GNGNS,045100.00,0419.85743,S,05539.68869,E,AA,12,1.26,20.6,-47.6,,*6D
$GNGGA,045100.00,0419.85743,S,05539.68869,E,1,12,1.26,20.6,M,-47.6,M,,*47
$GNGSA,A,3,24,05,20,11,15,12,18,29,,,,,2.33,1.26,1.96*11
$GNGSA,A,3,80,83,84,73,,,,,,,,,2.33,1.26,1.96*1E
$GPGSV,5,1,17,05,62,112,29,11,16,022,11,12,39,006,28,13,18,149,*76
$GPGSV,5,2,17,15,29,183,20,18,27,239,25,20,42,057,23,22,13,123,*79
$GPGSV,5,3,17,23,07,210,,24,58,225,21,25,16,338,,29,10,308,16*7F
$GPGSV,5,4,17,36,52,277,,40,86,351,35,41,58,082,,49,32,274,*7A
$GPGSV,5,5,17,50,10,089,*4A
$GLGSV,2,1,08,68,14,114,,69,19,164,,73,21,341,21,79,40,139,*66
$GLGSV,2,2,08,80,71,030,24,83,25,345,19,84,34,281,18,85,09,235,*69
$GNGLL,0419.85743,S,05539.68869,E,045100.00,A,A*68
$GNGRS,045100.00,1,-3.4,0.9,26.3,86.1,-33.7,-4.4,5.6,-15.1,,,,*57
$GNGRS,045100.00,1,6.2,5.1,5.1,-6.0,,,,,,,,*7F
$GNGST,045100.00,55,,,,6.1,9.0,18*60
$GNZDA,045100.00,28,05,2025,00,00*72
$GNGBS,045100.00,6.1,9.0,17.8,,,,*6F
$GNTXT,01,01,01,More than 100 frame errors, UART RX was disabled*70
b0@X}>p'$*9{:4R
4~{4"V_:R 
Y
gDrE
IUQO(PGSY0T"dUbX}U
( u$GNRMC,045101.00,A,0419.85755,S,05539.68894,E,0.173,,280525,,,A*78
$GNVTG,,T,,M,0.173,N,0.320,K,A*39
$GNGNS,045101.00,0419.85755,S,05539.68894,E,AA,12,1.26,19.5,-47.6,,*60
$GNGGA,045101.00,0419.85755,S,05539.68894,E,1,12,1.26,19.5,M,-47.6,M,,*4A
$GNGSA,A,3,24,05,20,11,15,12,18,29,,,,,2.33,1.26,1.96*11
$GNGSA,A,3,80,83,84,73,,,,,,,,,2.33,1.26,1.96*1E
$GPGSV,5,1,17,05,62,112,28,11,16,022,11,12,39,006,28,13,18,149,*77
$GPGSV,5,2,17,15,29,183,19,18,27,239,24,20,42,057,24,22,13,123,*75
$GPGSV,5,3,17,23,07,210,,24,58,225,22,25,16,338,,29,10,308,16*7C
$GPGSV,5,4,17,36,52,277,,40,86,351,34,41,58,082,,49,32,274,*7B
$GPGSV,5,5,17,50,10,089,*4A
$GLGSV,2,1,08,68,14,114,,69,19,164,,73,21,341,21,79,40,139,*66
$GLGSV,2,2,08,80,71,030,24,83,25,345,19,84,34,281,19,85,09,235,*68
$GNGLL,0419.85755,S,05539.68894,E,045101.00,A,A*6C
$GNGRS,045101.00,1,-2.0,2.1,22.8,17.8,-37.0,-2.2,7.1,-14.1,,,,*50
$GNGRS,045101.00,1,5.1,3.0,3.6,-4.3,,,,,,,,*79
$GNGST,045101.00,3586708,,,,6.1,9.0,18*56
$GNZDA,045101.00,28,05,2025,00,00*73
$GNGBS,045101.00,6.1,9.0,18.1,,,,*68
$GNTXT,01,01,01,More than 100 frame errors, UART RX was disabled*70
b0@@}>p
'Dm*9*{:Rj
4{4"V_:R 
Y
gDrE
IUO(PGSYMT"?Ub@}U
+ $GNRMC,045102.00,A,0419.85769,S,05539.68887,E,0.617,,280525,,,A*73
$GNVTG,,T,,M,0.617,N,1.142,K,A*3B
$GNGNS,045102.00,0419.85769,S,05539.68887,E,AA,12,1.26,19.3,-47.6,,*68
$GNGGA,045102.00,0419.85769,S,05539.68887,E,1,12,1.26,19.3,M,-47.6,M,,*42
$GNGSA,A,3,24,05,20,11,15,12,18,29,,,,,2.33,1.26,1.96*11
$GNGSA,A,3,80,83,84,73,,,,,,,,,2.33,1.26,1.96*1E
$GPGSV,5,1,17,05,62,112,27,11,16,022,10,12,39,006,28,13,18,149,*79
$GPGSV,5,2,17,15,29,183,19,18,27,239,24,20,42,057,24,22,13,123,*75
$GPGSV,5,3,17,23,07,210,,24,58,225,22,25,16,338,14,29,10,308,15*7A
$GPGSV,5,4,17,36,52,277,,40,86,351,34,41,58,082,,49,32,274,*7B
$GPGSV,5,5,17,50,10,089,*4A
$GLGSV,2,1,08,68,14,114,,69,19,164,,73,21,341,21,79,40,139,*66
$GLGSV,2,2,08,80,71,030,24,83,25,345,19,84,34,281,19,85,09,235,*68
$GNGLL,0419.85769,S,05539.68887,E,045102.00,A,A*62
$GNGRS,045102.00,1,0.3,1.8,23.5,17.8,-37.7,-3.2,6.2,-14.1,,,,*7D
$GNGRS,045102.00,1,4.9,3.3,3.2,-3.3,,,,,,,,*73
$GNGST,045102.00,3586708,,,,6.1,9.0,18*55
$GNZDA,045102.00,28,05,2025,00,00*70
$GNGBS,045102.00,6.1,9.0,18.4,,,,*6E
$GNTXT,01,01,01,More than 100 frame errors, UART RX was disabled*70
b0@(}>p'*9/{:R
4{4"V_:R 
Y
gDrE
IUO(PGSYDT"UOb(}U
/ B$GNRMC,045103.00,A,0419.85782,S,05539.68945,E,0.594,,280525,,,A*70
$GNVTG,,T,,M,0.594,N,1.101,K,A*34
$GNGNS,045103.00,0419.85782,S,05539.68945,E,AA,12,1.26,17.7,-47.6,,*69
$GNGGA,045103.00,0419.85782,S,05539.68945,E,1,12,1.26,17.7,M,-47.6,M,,*43
$GNGSA,A,3,24,05,20,11,15,12,18,29,,,,,2.33,1.26,1.96*11
$GNGSA,A,3,80,83,84,73,,,,,,,,,2.33,1.26,1.96*1E
$GPGSV,5,1,17,05,62,112,28,11,16,022,12,12,39,006,27,13,18,149,*7B
$GPGSV,5,2,17,15,29,183,18,18,27,239,23,20,42,057,25,22,13,123,*72
$GPGSV,5,3,17,23,07,210,,24,58,225,23,25,16,338,12,29,10,308,14*7C
$GPGSV,5,4,17,36,52,277,,40,86,351,34,41,58,082,,49,32,274,*7B
$GPGSV,5,5,17,50,10,089,*4A
$GLGSV,2,1,08,68,14,114,,69,19,164,,73,21,341,20,79,40,139,*67
$GLGSV,2,2,08,80,71,030,24,83,25,345,20,84,34,281,17,85,09,235,*6C
$GNGLL,0419.85782,S,05539.68945,E,045103.00,A,A*69
$GNGRS,045103.00,1,0.2,3.9,20.9,81.7,-39.2,-3.7,4.5,-13.8,,,,*74
$GNGRS,045103.00,1,7.6,3.2,2.0,-3.6,,,,,,,,*79
$GNGST,045103.00,56,,,,6.2,9.0,19*62
$GNZDA,045103.00,28,05,2025,00,00*71
$GNGBS,045103.00,6.2,9.0,18.6,,,,*6E
$GNTXT,01,01,01,More than 100 frame errors, UART RX was disabled*70
b0@}>p'*9C{:h
R
4{4!V_:R 
Y
gDrE
IU7O(PGSYsT"3Ub}U
3 $GNRMC,045104.00,A,0419.85787,S,05539.68968,E,0.229,,280525,,,A*7C
$GNVTG,,T,,M,0.229,N,0.424,K,A*36
$GNGNS,045104.00,0419.85787,S,05539.68968,E,AA,12,1.26,17.1,-47.6,,*62
$GNGGA,045104.00,0419.85787,S,05539.68968,E,1,12,1.26,17.1,M,-47.6,M,,*48
$GNGSA,A,3,24,05,20,11,15,12,18,29,,,,,2.33,1.26,1.96*11
$GNGSA,A,3,80,83,84,73,,,,,,,,,2.33,1.26,1.96*1E
$GPGSV,5,1,17,05,62,112,28,11,16,022,13,12,39,006,28,13,18,149,*75
$GPGSV,5,2,17,15,29,183,17,18,27,239,22,20,42,057,25,22,13,123,*7C
$GPGSV,5,3,17,23,07,210,,24,58,225,24,25,16,338,10,29,10,308,12*7F
$GPGSV,5,4,17,36,52,277,,40,86,351,33,41,58,082,,49,32,274,*7C
$GPGSV,5,5,17,50,10,089,*4A
$GLGSV,2,1,08,68,14,114,,69,19,164,,73,21,341,20,79,40,139,*67
$GLGSV,2,2,08,80,71,030,24,83,25,345,20,84,34,281,15,85,09,235,*6E
$GNGLL,0419.85787,S,05539.68968,E,045104.00,A,A*64
$GNGRS,045104.00,1,1.0,-1.1,18.6,18.0,-41.2,-3.3,4.4,-16.3,,,,*50
$GNGRS,045104.00,1,10.5,3.7,3.1,-2.0,,,,,,,,*49
$GNGST,045104.00,3586708,,,,6.2,9.1,19*50
$GNZDA,045104.00,28,05,2025,00,00*76
$GNGBS,045104.00,6.2,9.1,18.9,,,,*67
$GNTXT,01,01,01,More than 100 frame errors, UART RX was disabled*70
b0@}>p{'*9^{:zR

4{4!V_:R 
Y
gDrE
IUO(PGSYT"UHb}U
7 ]$GNRMC,045105.00,A,0419.85802,S,05539.68990,E,0.230,,280525,,,A*70
$GNVTG,,T,,M,0.230,N,0.426,K,A*3C
$GNGNS,045105.00,0419.85802,S,05539.68990,E,AA,12,1.25,15.7,-47.6,,*61
$GNGGA,045105.00,0419.85802,S,05539.68990,E,1,12,1.25,15.7,M,-47.6,M,,*4B
$GNGSA,A,3,24,05,20,11,15,12,18,25,,,,,2.39,1.25,2.03*1B
$GNGSA,A,3,80,83,84,73,,,,,,,,,2.39,1.25,2.03*18
$GPGSV,5,1,17,05,62,112,29,11,16,022,11,12,39,006,28,13,18,149,*76
$GPGSV,5,2,17,15,29,183,16,18,27,239,22,20,42,057,26,22,13,123,*7E
$GPGSV,5,3,17,23,07,210,,24,58,225,25,25,16,338,08,29,10,308,10*75
$GPGSV,5,4,17,36,52,277,,40,86,351,33,41,58,082,,49,32,274,*7C
$GPGSV,5,5,17,50,10,089,*4A
$GLGSV,2,1,08,68,14,114,,69,19,164,,73,21,341,19,79,40,139,*6D
$GLGSV,2,2,08,80,71,030,23,83,25,345,20,84,34,281,16,85,09,235,*6A
$GNGLL,0419.85802,S,05539.68990,E,045105.00,A,A*60
$GNGRS,045105.00,1,1.2,1.2,16.3,17.6,-43.5,-3.1,4.1,-13.8,,,,*73
$GNGRS,045105.00,1,12.5,2.8,2.8,-0.8,,,,,,,,*46
$GNGST,045105.00,3586708,,,,6.3,9.1,19*50
$GNZDA,045105.00,28,05,2025,00,00*77
$GNGBS,045105.00,6.3,9.1,19.2,,,,*6D
$GNTXT,01,01,01,More than 100 frame errors, UART RX was disabled*70
b0@}>p'yB*9~{:WRP
4{4!V_:R 
Y
gDrE
IUnO(PGSYT"U;b}U
; 3g$GNRMC,045106.00,A,0419.85819,S,05539.68985,E,0.550,,280525,,,A*7C
$GNVTG,,T,,M,0.550,N,1.019,K,A*34
$GNGNS,045106.00,0419.85819,S,05539.68985,E,AA,12,1.25,15.3,-47.6,,*68
$GNGGA,045106.00,0419.85819,S,05539.68985,E,1,12,1.25,15.3,M,-47.6,M,,*42
$GNGSA,A,3,24,05,20,11,15,12,18,25,,,,,2.39,1.25,2.03*1B
$GNGSA,A,3,80,83,84,73,,,,,,,,,2.39,1.25,2.03*18
$GPGSV,5,1,17,05,62,112,29,11,16,022,13,12,39,006,29,13,18,149,*75
$GPGSV,5,2,17,15,29,183,16,18,27,239,22,20,42,057,26,22,13,123,*7E
$GPGSV,5,3,17,23,07,210,,24,58,225,26,25,16,338,08,29,10,308,08*7F
$GPGSV,5,4,17,36,52,277,,40,86,351,33,41,58,082,,49,32,274,*7C
$GPGSV,5,5,17,50,10,089,*4A
$GLGSV,2,1,08,68,14,114,,69,19,164,,73,21,341,20,79,40,139,*67
$GLGSV,2,2,08,80,71,030,24,83,25,345,19,84,34,281,15,85,09,235,*64
$GNGLL,0419.85819,S,05539.68985,E,045106.00,A,A*6D
$GNGRS,045106.00,1,0.9,1.9,14.1,17.7,-42.9,-3.9,4.9,-17.1,,,,*70
$GNGRS,045106.00,1,14.7,2.5,2.5,-1.5,,,,,,,,*4D
$GNGST,045106.00,3586708,,,,6.3,9.1,19*53
$GNZDA,045106.00,28,05,2025,00,00*74
$GNGBS,045106.00,6.3,9.1,19.4,,,,*68
$GNTXT,01,01,01,More than 100 frame errors, UART RX was disabled*70
b0@}>p'*9{:R

4{4"V_:R 
Y
gDrE
IU]O(PGSYhT"UWb}U
|? $GNRMC,045107.00,A,0419.85838,S,05539.68996,E,0.455,,280525,,,A*78
$GNVTG,,T,,M,0.455,N,0.843,K,A*36
$GNGNS,045107.00,0419.85838,S,05539.68996,E,AA,12,1.27,14.8,-47.6,,*60
$GNGGA,045107.00,0419.85838,S,05539.68996,E,1,12,1.27,14.8,M,-47.6,M,,*4A
$GNGSA,A,3,24,05,20,11,15,12,18,29,,,,,2.41,1.27,2.05*1C
$GNGSA,A,3,80,83,84,73,,,,,,,,,2.41,1.27,2.05*13
$GPGSV,5,1,17,05,62,112,29,11,16,022,13,12,39,006,29,13,18,149,*75
$GPGSV,5,2,17,15,29,183,16,18,27,239,22,20,42,057,27,22,13,123,*7F
$GPGSV,5,3,17,23,07,210,,24,58,225,25,25,16,338,08,29,10,308,10*75
$GPGSV,5,4,17,36,52,277,,40,86,351,34,41,58,082,,49,32,274,*7B
$GPGSV,5,5,17,50,10,089,*4A
$GLGSV,2,1,08,68,14,114,,69,19,164,,73,21,341,19,79,40,139,*6D
$GLGSV,2,2,08,80,71,030,25,83,25,345,19,84,34,281,16,85,09,235,*66
$GNGLL,0419.85838,S,05539.68996,E,045107.00,A,A*6D
$GNGRS,045107.00,1,-0.9,3.8,10.4,17.8,-43.9,-7.6,7.3,-21.4,,,,*52
$GNGRS,045107.00,1,14.7,3.6,-0.2,-1.6,,,,,,,,*65
$GNGST,045107.00,3761771,,,,6.4,8.9,20*53
$GNZDA,045107.00,28,05,2025,00,00*75
$GNGBS,045107.00,6.4,8.9,19.6,25,,9.1,87.4*51
$GNTXT,01,01,01,More than 100 frame errors, UART RX was disabled*70
b0@}>p+':^*9{:<R
4E{4!V_:R 
Y
gDrE
IU'O(PGSYqT"Ub}U
dC 7$GNRMC,045108.00,A,0419.85837,S,05539.69000,E,0.308,,280525,,,A*70
$GNVTG,,T,,M,0.308,N,0.570,K,A*34
$GNGNS,045108.00,0419.85837,S,05539.69000,E,AA,12,1.35,15.3,-47.6,,*6E
$GNGGA,045108.00,0419.85837,S,05539.69000,E,1,12,1.35,15.3,M,-47.6,M,,*44
$GNGSA,A,3,24,05,20,11,15,12,18,29,25,,,,2.48,1.35,2.08*1C
$GNGSA,A,3,80,83,73,,,,,,,,,,2.48,1.35,2.08*18
$GPGSV,5,1,17,05,62,112,29,11,16,022,12,12,39,006,29,13,18,149,*74
$GPGSV,5,2,17,15,29,183,15,18,27,239,22,20,42,057,27,22,13,123,*7C
$GPGSV,5,3,17,23,07,210,,24,58,225,26,25,16,338,08,29,10,308,11*77
$GPGSV,5,4,17,36,52,277,,40,86,351,33,41,58,082,,49,32,274,*7C
$GPGSV,5,5,17,50,10,089,*4A
$GLGSV,2,1,08,68,14,114,,69,19,164,,73,21,341,19,79,40,139,*6D
$GLGSV,2,2,08,80,71,030,25,83,25,345,20,84,34,281,16,85,09,235,*6C
$GNGLL,0419.85837,S,05539.69000,E,045108.00,A,A*6A
$GNGRS,045108.00,1,-2.0,-0.3,6.4,18.4,-45.5,-7.9,6.1,-19.8,2.0,,,*6A
$GNGRS,045108.00,1,14.8,3.7,-2.2,,,,,,,,,*62
$GNGST,045108.00,3761771,,,,6.4,8.8,20*5D
$GNZDA,045108.00,28,05,2025,00,00*7A
$GNGBS,045108.00,6.4,8.8,19.7,84,,-6.3,68.5*75
$GNTXT,01,01,01,More than 100 frame errors, UART RX was disabled*70
b0@}>p'R*9{:?R
4F{4"V_:R 
Y
gDrE
IUO(PG
SYT"Un&b}U
LG $GNRMC,045109.00,A,0419.85853,S,05539.68997,E,0.324,,280525,,,A*7B
$GNVTG,,T,,M,0.324,N,0.600,K,A*3E
$GNGNS,045109.00,0419.85853,S,05539.68997,E,AA,11,1.42,14.9,-47.6,,*63
$GNGGA,045109.00,0419.85853,S,05539.68997,E,1,11,1.42,14.9,M,-47.6,M,,*49
$GNGSA,A,3,24,05,20,15,12,18,29,,,,,,2.80,1.42,2.42*11
$GNGSA,A,3,80,83,84,73,,,,,,,,,2.80,1.42,2.42*1E
$GPGSV,5,1,17,05,62,112,29,11,16,022,,12,39,006,29,13,18,149,*77
$GPGSV,5,2,17,15,29,183,16,18,27,239,22,20,42,057,28,22,13,123,*70
$GPGSV,5,3,17,23,07,210,,24,58,225,26,25,16,338,09,29,10,308,11*76
$GPGSV,5,4,17,36,52,277,,40,86,351,34,41,58,082,,49,32,274,*7B
$GPGSV,5,5,17,50,10,089,*4A
$GLGSV,2,1,08,68,14,114,,69,19,164,,73,21,341,18,79,40,139,*6C
$GLGSV,2,2,08,80,71,030,26,83,25,345,20,84,34,281,16,85,09,235,*6F
$GNGLL,0419.85853,S,05539.68997,E,045109.00,A,A*6F
$GNGRS,045109.00,1,-1.9,1.4,4.7,-46.1,-9.4,6.8,-17.2,,,,,*7D
$GNGRS,045109.00,1,15.5,1.7,7.7,-1.1,,,,,,,,*43
$GNGST,045109.00,47,,,,6.4,8.7,20*62
$GNZDA,045109.00,28,05,2025,00,00*7B
$GNGBS,045109.00,6.4,8.7,19.7,,,,*64
$GNTXT,01,01,01,More than 100 frame errors, UART RX was disabled*70
b0@}>p'
*9f{:R
4{4!V_:R 
Y
gDrE
IUO(PGSYT"Ub}U
4K $GNRMC,045110.00,A,0419.85858,S,05539.68988,E,0.126,,280525,,,A*76
$GNVTG,,T,,M,0.126,N,0.234,K,A*3D
$GNGNS,045110.00,0419.85858,S,05539.68988,E,AA,11,1.42,15.0,-47.6,,*66
$GNGGA,045110.00,0419.85858,S,05539.68988,E,1,11,1.42,15.0,M,-47.6,M,,*4C
$GNGSA,A,3,24,05,20,15,12,18,25,,,,,,2.90,1.42,2.53*1C
$GNGSA,A,3,80,83,84,73,,,,,,,,,2.90,1.42,2.53*1F
$GPGSV,5,1,17,05,62,112,29,11,16,022,,12,39,006,30,13,18,149,*7F
$GPGSV,5,2,17,15,29,183,16,18,27,239,22,20,42,057,27,22,13,123,*7F
$GPGSV,5,3,17,23,07,210,,24,58,225,27,25,16,338,08,29,10,308,09*7F
$GPGSV,5,4,17,36,52,277,,40,86,351,33,41,58,082,,49,32,274,*7C
$GPGSV,5,5,17,50,10,089,*4A
$GLGSV,2,1,08,68,14,114,,69,19,164,,73,21,341,18,79,40,139,18*65
$GLGSV,2,2,08,80,71,030,27,83,25,345,20,84,34,281,15,85,09,235,*6D
$GNGLL,0419.85858,S,05539.68988,E,045110.00,A,A*62
$GNGRS,045110.00,1,-0.4,-0.2,6.1,-48.7,-10.1,6.7,1.4,,,,,*71
$GNGRS,045110.00,1,15.2,-1.1,9.8,1.5,,,,,,,,*4F
$GNGST,045110.00,3761771,,,,6.5,8.6,20*5B
$GNZDA,045110.00,28,05,2025,00,00*73
$GNGBS,045110.00,6.5,8.6,19.8,,,,*63
$GNTXT,01,01,01,More than 100 frame errors, UART RX was disabled*70
b0@h}>p`'*9{:R
4{4V_:R 
Y
gDrE
IUO(PG2SYT"USbh}U
O ko$GNRMC,045111.00,A,0419.85866,S,05539.68988,E,0.388,,280525,,,A*7C
$GNVTG,,T,,M,0.388,N,0.718,K,A*30
$GNGNS,045111.00,0419.85866,S,05539.68988,E,AA,11,1.42,15.0,-47.6,,*6A
$GNGGA,045111.00,0419.85866,S,05539.68988,E,1,11,1.42,15.0,M,-47.6,M,,*40
$GNGSA,A,3,24,05,20,15,12,18,25,,,,,,2.90,1.42,2.53*1C
$GNGSA,A,3,80,83,84,73,,,,,,,,,2.90,1.42,2.53*1F
$GPGSV,5,1,17,05,62,112,27,11,16,022,06,12,39,006,28,13,18,149,*7E
$GPGSV,5,2,17,15,29,183,15,18,27,239,21,20,42,057,26,22,13,123,*7E
$GPGSV,5,3,17,23,07,210,,24,58,225,26,25,16,338,09,29,10,308,09*7F
$GPGSV,5,4,17,36,52,277,,40,86,351,28,41,58,082,,49,32,274,*76
$GPGSV,5,5,17,50,10,089,*4A
$GLGSV,2,1,08,68,14,114,,69,19,164,,73,21,341,17,79,40,139,16*64
$GLGSV,2,2,08,80,71,030,26,83,25,345,19,84,34,281,16,85,09,235,*65
$GNGLL,0419.85866,S,05539.68988,E,045111.00,A,A*6E
$GNGRS,045111.00,1,-0.9,-1.6,5.3,-48.9,-12.6,7.6,1.6,,,,,*70
$GNGRS,045111.00,1,15.9,0.2,9.7,-0.3,,,,,,,,*4F
$GNGST,045111.00,3761771,,,,6.5,8.5,20*59
$GNZDA,045111.00,28,05,2025,00,00*72
$GNGBS,045111.00,6.5,8.5,19.7,,,,*6E
$GNTXT,01,01,01,More than 100 frame errors, UART RX was disabled*70
b0@P}>phN'*9"{:]
R
4{4 V_:R 
Y
gDrE
IUO(PGSYT"^U<bP}U
S C$GNRMC,045112.00,A,0419.85863,S,05539.69003,E,0.800,,280525,,,A*7A
$GNVTG,,T,,M,0.800,N,1.482,K,A*3A
$GNGNS,045112.00,0419.85863,S,05539.69003,E,AA,11,1.43,15.5,-47.6,,*63
$GNGGA,045112.00,0419.85863,S,05539.69003,E,1,11,1.43,15.5,M,-47.6,M,,*49
$GNGSA,A,3,24,05,20,15,12,18,25,,,,,,3.01,1.43,2.65*11
$GNGSA,A,3,80,83,84,73,,,,,,,,,3.01,1.43,2.65*12
$GPGSV,5,1,17,05,62,112,26,11,16,022,07,12,39,006,27,13,18,149,*71
$GPGSV,5,2,17,15,29,183,12,18,27,239,19,20,42,057,25,22,13,123,*71
$GPGSV,5,3,17,23,07,210,,24,58,225,26,25,16,338,10,29,10,308,08*76
$GPGSV,5,4,17,36,52,277,,40,86,351,32,41,58,082,,49,32,274,*7D
$GPGSV,5,5,17,50,10,089,*4A
$GLGSV,2,1,08,68,14,114,,69,19,164,,73,21,341,16,79,40,139,13*60
$GLGSV,2,2,08,80,71,030,26,83,25,345,17,84,34,281,12,85,09,235,*6F
$GNGLL,0419.85863,S,05539.69003,E,045112.00,A,A*63
$GNGRS,045112.00,1,-1.6,-1.5,5.5,-51.1,-13.0,6.6,-51.3,,,,,*63
$GNGRS,045112.00,1,14.1,1.5,0.9,0.2,,,,,,,,*68
$GNGST,045112.00,47,,,,6.5,8.5,20*6B
$GNZDA,045112.00,28,05,2025,00,00*71
$GNGBS,045112.00,6.5,8.5,19.7,,,,*6D
$GNTXT,01,01,01,More than 100 frame errors, UART RX was disabled*70
b0@8}>p['*9{:R

4{4V_:R 
Y
gDrE
IU/O
(*PGSY8T"Ub8}U
V <$GNRMC,045113.00,A,0419.85883,S,05539.69039,E,1.622,,280525,,,A*73
$GNVTG,,T,,M,1.622,N,3.004,K,A*3D
$GNGNS,045113.00,0419.85883,S,05539.69039,E,AA,13,1.42,15.3,-47.6,,*60
$GNGGA,045113.00,0419.85883,S,05539.69039,E,1,12,1.42,15.3,M,-47.6,M,,*4B
$GNGSA,A,3,24,05,20,11,15,12,18,29,25,,,,2.90,1.42,2.53*17
$GNGSA,A,3,80,83,84,73,,,,,,,,,2.90,1.42,2.53*1F
$GPGSV,5,1,17,05,62,112,25,11,16,022,09,12,39,006,25,13,18,149,*7E
$GPGSV,5,2,17,15,29,183,07,18,27,239,17,20,42,057,24,22,13,123,*7A
$GPGSV,5,3,17,23,07,210,,24,58,225,24,25,16,338,12,29,10,308,10*7F
$GPGSV,5,4,17,36,52,277,,40,86,351,29,41,58,082,,49,32,274,*77
$GPGSV,5,5,17,50,10,089,*4A
$GLGSV,2,1,08,68,14,114,,69,19,164,,73,21,341,15,79,40,139,10*60
$GLGSV,2,2,08,80,71,030,25,83,25,345,14,84,34,281,11,85,09,235,*6C
$GNGLL,0419.85883,S,05539.69039,E,045113.00,A,A*65
$GNGRS,045113.00,1,-2.3,-1.7,3.9,-114,-51.8,-16.0,5.0,-35.9,17.2,,,*6E
$GNGRS,045113.00,1,14.4,0.6,-2.4,0.5,,,,,,,,*4B
$GNGST,045113.00,3762966,,,,6.6,8.6,20*50
$GNZDA,045113.00,28,05,2025,00,00*70
$GNGBS,045113.00,6.6,8.6,19.9,,,,*62
$GNTXT,01,01,01,More than 100 frame errors, UART RX was disabled*70
b0@ }>p'*9{:$R
4{4V_:R 
Y
gDrE
IUO(PGSYT"U|b }U
Z $GNRMC,045114.00,A,0419.85892,S,05539.69024,E,0.330,,280525,,,A*7F
$GNVTG,,T,,M,0.330,N,0.611,K,A*3B
$GNGNS,045114.00,0419.85892,S,05539.69024,E,AA,12,1.43,15.6,-47.6,,*6E
$GNGGA,045114.00,0419.85892,S,05539.69024,E,1,12,1.43,15.6,M,-47.6,M,,*44
$GNGSA,A,3,24,05,20,15,12,18,29,25,,,,,2.90,1.43,2.53*16
$GNGSA,A,3,80,83,84,73,,,,,,,,,2.90,1.43,2.53*1E
$GPGSV,5,1,17,05,62,112,25,11,16,022,14,12,39,006,25,13,18,149,*72
$GPGSV,5,2,17,15,29,183,09,18,27,239,17,20,42,057,24,22,13,123,*74
$GPGSV,5,3,17,23,07,210,,24,58,225,25,25,16,338,12,29,10,308,13*7D
$GPGSV,5,4,17,36,52,277,,40,86,351,28,41,58,082,,49,32,274,*76
$GPGSV,5,5,17,50,10,089,*4A
$GLGSV,2,1,08,68,14,114,,69,19,164,,73,21,341,12,79,40,139,09*6F
$GLGSV,2,2,08,80,71,030,26,83,25,345,14,84,34,281,14,85,09,235,*6A
$GNGLL,0419.85892,S,05539.69024,E,045114.00,A,A*6E
$GNGRS,045114.00,1,-2.2,1.5,2.8,-52.3,-11.1,6.4,-36.6,16.9,,,,*51
$GNGRS,045114.00,1,14.5,-1.0,-3.6,1.8,,,,,,,,*68
$GNGST,045114.00,3762966,,,,6.7,8.8,20*58
$GNZDA,045114.00,28,05,2025,00,00*77
$GNGBS,045114.00,6.7,8.8,20.0,,,,*69
$GNTXT,01,01,01,More than 100 frame errors, UART RX was disabled*70
b0@~>p'*9{:R{

4{4V_:R 
Y
gDrE
I
UO
(PGSYT"(Ub~U
^ $GNRMC,045115.00,A,0419.85900,S,05539.69019,E,0.276,,280525,,,A*79
$GNVTG,,T,,M,0.276,N,0.510,K,A*3A
$GNGNS,045115.00,0419.85900,S,05539.69019,E,AA,11,1.43,15.6,-47.6,,*68
$GNGGA,045115.00,0419.85900,S,05539.69019,E,1,11,1.43,15.6,M,-47.6,M,,*42
$GNGSA,A,3,24,05,20,15,12,18,29,,,,,,3.01,1.43,2.65*1D
$GNGSA,A,3,80,83,84,73,,,,,,,,,3.01,1.43,2.65*12
$GPGSV,5,1,17,05,62,112,25,11,16,022,11,12,39,006,26,13,18,149,*74
$GPGSV,5,2,17,15,29,183,07,18,27,239,15,20,42,057,23,22,13,123,*7F
$GPGSV,5,3,17,23,07,210,,24,58,225,25,25,16,338,06,29,10,308,10*7B
$GPGSV,5,4,17,36,52,277,,40,86,351,29,41,58,082,,49,32,274,*77
$GPGSV,5,5,17,50,10,089,*4A
$GLGSV,2,1,08,68,14,114,,69,19,164,,73,21,341,10,79,40,139,10*65
$GLGSV,2,2,08,80,71,030,25,83,25,345,15,84,34,281,13,85,09,235,*6F
$GNGLL,0419.85900,S,05539.69019,E,045115.00,A,A*6B
$GNGRS,045115.00,1,-2.6,1.9,2.2,-129,-8.1,9.6,-38.5,,,,,*5A
$GNGRS,045115.00,1,14.5,-2.9,10.6,3.9,,,,,,,,*7F
$GNGST,045115.00,56,,,,6.8,8.9,20*6D
$GNZDA,045115.00,28,05,2025,00,00*76
$GNGBS,045115.00,6.8,8.9,20.2,,,,*64
$GNTXT,01,01,01,More than 100 frame errors, UART RX was disabled*70
b0@~>p+'*9{:R

4?{4V_:R 
Y
gDrE
IUO(PGGSYT"LUib~U
b s$GNRMC,045116.00,A,0419.85907,S,05539.69015,E,0.237,,280525,,,A*74
$GNVTG,,T,,M,0.237,N,0.440,K,A*3B
$GNGNS,045116.00,0419.85907,S,05539.69015,E,AA,14,0.94,15.6,-47.6,,*6E
$GNGGA,045116.00,0419.85907,S,05539.69015,E,1,12,0.94,15.6,M,-47.6,M,,*42
$GNGSA,A,3,24,05,20,11,15,12,18,29,25,,,,1.83,0.94,1.57*1B
$GNGSA,A,3,79,80,83,84,73,,,,,,,,1.83,0.94,1.57*1D
$GPGSV,5,1,17,05,62,112,26,11,16,022,17,12,39,006,26,13,18,149,*71
$GPGSV,5,2,17,15,29,183,11,18,27,239,17,20,42,057,25,22,13,123,*7C
$GPGSV,5,3,17,23,07,210,,24,58,225,26,25,16,338,15,29,10,308,10*7A
$GPGSV,5,4,17,36,52,277,,40,86,351,31,41,58,082,,49,32,274,*7E
$GPGSV,5,5,17,50,10,089,*4A
$GLGSV,2,1,08,68,14,114,,69,19,164,,73,21,341,09,79,40,139,11*6C
$GLGSV,2,2,08,80,71,030,25,83,25,345,17,84,34,281,09,85,09,235,*66
$GNGLL,0419.85907,S,05539.69015,E,045116.00,A,A*63
$GNGRS,045116.00,1,-3.2,1.3,-0.5,18.4,10.4,-3.1,9.4,23.7,17.0,,,*55
$GNGRS,045116.00,1,-75.0,13.5,-3.1,3.3,4.0,,,,,,,*7A
$GNGST,045116.00,3440499,,,,6.9,9.0,20*53
$GNZDA,045116.00,28,05,2025,00,00*75
$GNGBS,045116.00,6.9,9.0,20.3,,,,*6F
$GNTXT,01,01,01,More than 100 frame errors, UART RX was disabled*70
b0@~>p1'*9${:;
R
4?{4V_:R 
Y
gDrE
IUO(nPGSYT"TU$b~U
f z$GNRMC,045117.00,A,0419.85914,S,05539.69012,E,0.257,,280525,,,A*76
$GNVTG,,T,,M,0.257,N,0.476,K,A*38
$GNGNS,045117.00,0419.85914,S,05539.69012,E,AA,14,0.94,15.5,-47.6,,*69
$GNGGA,045117.00,0419.85914,S,05539.69012,E,1,12,0.94,15.5,M,-47.6,M,,*45
$GNGSA,A,3,24,05,20,11,15,12,18,29,25,,,,1.83,0.94,1.57*1B
$GNGSA,A,3,79,80,83,84,73,,,,,,,,1.83,0.94,1.57*1D
$GPGSV,5,1,17,05,62,112,28,11,16,022,17,12,39,006,27,13,18,149,*7E
$GPGSV,5,2,17,15,29,183,13,18,27,239,18,20,42,057,26,22,13,123,*72
$GPGSV,5,3,17,23,07,210,,24,58,225,27,25,16,338,10,29,10,308,14*7A
$GPGSV,5,4,17,36,52,277,,40,86,351,31,41,58,082,,49,32,274,*7E
$GPGSV,5,5,17,50,10,089,*4A
$GLGSV,2,1,08,68,14,114,,69,19,164,,73,21,341,08,79,40,139,14*68
$GLGSV,2,2,08,80,71,030,26,83,25,345,19,84,34,281,11,85,09,235,*62
$GNGLL,0419.85914,S,05539.69012,E,045117.00,A,A*67
$GNGRS,045117.00,1,-4.5,-1.0,-2.2,18.4,10.4,-3.4,12.2,23.7,17.1,,,*47
$GNGRS,045117.00,1,-70.6,12.2,-5.3,3.4,4.2,,,,,,,*7F
$GNGST,045117.00,4857699,,,,6.9,8.9,20*55
$GNZDA,045117.00,28,05,2025,00,00*74
$GNGBS,045117.00,6.9,8.9,20.4,,,,*61
$GNTXT,01,01,01,More than 100 frame errors, UART RX was disabled*70
b0@~>p'4~*9{:GR;
4t{4V_:R 
Y
gDrE
IUnO(4PGSY]T"eU'b~U
tj RC$GNRMC,045118.00,A,0419.85922,S,05539.69005,E,0.172,,280525,,,A*7E
$GNVTG,,T,,M,0.172,N,0.318,K,A*33
$GNGNS,045118.00,0419.85922,S,05539.69005,E,AA,13,1.02,15.3,-47.6,,*6A
$GNGGA,045118.00,0419.85922,S,05539.69005,E,1,12,1.02,15.3,M,-47.6,M,,*41
$GNGSA,A,3,24,05,20,15,12,18,29,25,,,,,2.00,1.02,1.72*1A
$GNGSA,A,3,79,80,83,84,73,,,,,,,,2.00,1.02,1.72*1C
$GPGSV,5,1,17,05,62,112,28,11,16,022,07,12,39,006,28,13,18,149,*70
$GPGSV,5,2,17,15,29,183,12,18,27,239,19,20,42,057,27,22,13,123,*73
$GPGSV,5,3,17,23,07,210,,24,58,225,28,25,16,338,12,29,10,308,12*71
$GPGSV,5,4,17,36,52,277,,40,86,351,31,41,58,082,,49,32,274,*7E
$GPGSV,5,5,17,50,10,089,*4A
$GLGSV,2,1,08,68,14,114,,69,19,164,,73,21,341,13,79,40,139,16*60
$GLGSV,2,2,08,80,71,030,28,83,25,345,20,84,34,281,11,85,09,235,*66
$GNGLL,0419.85922,S,05539.69005,E,045118.00,A,A*6B
$GNGRS,045118.00,1,-4.4,-3.8,-3.6,-3.4,-2.0,14.1,16.5,-12.2,,,,*65
$GNGRS,045118.00,1,-68.6,12.1,-4.2,-19.5,-37.3,,,,,,,*71
$GNGST,045118.00,58,,,,6.8,8.8,20*6F
$GNZDA,045118.00,28,05,2025,00,00*7B
$GNGBS,045118.00,6.8,8.8,20.1,,,,*6B
$GNTXT,01,01,01,More than 100 frame errors, UART RX was disabled*70
b0@~>p'*9K{:R
4<{4V_:R 
Y
gDrE
IUcO(PGSY9T"RUb~U
\n *$GNRMC,045119.00,A,0419.85926,S,05539.68998,E,0.051,,280525,,,A*77
$GNVTG,,T,,M,0.051,N,0.095,K,A*35
$GNGNS,045119.00,0419.85926,S,05539.68998,E,AA,13,1.02,15.1,-47.6,,*61
$GNGGA,045119.00,0419.85926,S,05539.68998,E,1,12,1.02,15.1,M,-47.6,M,,*4A
$GNGSA,A,3,24,05,20,15,12,18,29,25,,,,,2.08,1.02,1.81*1E
$GNGSA,A,3,79,80,83,84,73,,,,,,,,2.08,1.02,1.81*18
$GPGSV,5,1,17,05,62,112,28,11,16,022,09,12,39,006,28,13,18,149,*7E
$GPGSV,5,2,17,15,29,183,18,18,27,239,19,20,42,057,27,22,13,123,*79
$GPGSV,5,3,17,23,07,210,,24,58,225,28,25,16,338,14,29,10,308,11*74
$GPGSV,5,4,17,36,52,277,,40,86,351,31,41,58,082,,49,32,274,*7E
$GPGSV,5,5,17,50,10,089,*4A
$GLGSV,2,1,08,68,14,114,,69,19,164,,73,21,341,14,79,40,139,17*66
$GLGSV,2,2,08,80,71,030,29,83,25,345,21,84,34,281,13,85,09,235,*64
$GNGLL,0419.85926,S,05539.68998,E,045119.00,A,A*62
$GNGRS,045119.00,1,-5.7,-3.5,-4.4,10.3,-3.8,15.4,23.6,16.9,,,,*5C
$GNGRS,045119.00,1,-67.5,5.4,-4.6,3.4,1.0,,,,,,,*47
$GNGST,045119.00,6214784,,,,6.8,8.7,20*56
$GNZDA,045119.00,28,05,2025,00,00*7A
$GNGBS,045119.00,6.8,8.7,20.0,,,,*64
$GNTXT,01,01,01,More than 100 frame errors, UART RX was disabled*70
b0@~>p'y*9{:R
4/{4!V_:R 
Y
hDrE
I
UaO(+PG;SY=T"TUOb~U
Dr $GNRMC,045120.00,A,0419.85930,S,05539.68991,E,0.126,,280525,,,A*72
$GNVTG,,T,,M,0.126,N,0.233,K,A*3A
$GNGNS,045120.00,0419.85930,S,05539.68991,E,AA,14,0.94,14.9,-47.6,,*65
$GNGGA,045120.00,0419.85930,S,05539.68991,E,1,12,0.94,14.9,M,-47.6,M,,*49
$GNGSA,A,3,24,05,20,11,15,12,18,29,25,,,,1.83,0.94,1.57*1B
$GNGSA,A,3,79,80,83,84,73,,,,,,,,1.83,0.94,1.57*1D
$GPGSV,5,1,17,05,62,112,29,11,16,022,13,12,39,006,28,13,18,149,*74
$GPGSV,5,2,17,15,29,183,16,18,27,239,19,20,42,057,28,22,13,123,*78
$GPGSV,5,3,17,23,07,210,,24,58,225,28,25,16,338,14,29,10,308,08*7C
$GPGSV,5,4,17,36,52,277,,40,86,351,33,41,58,082,,49,32,274,*7C
$GPGSV,5,5,17,50,10,089,*4A
$GLGSV,2,1,08,68,14,114,,69,19,164,,73,21,341,10,79,40,139,18*6D
$GLGSV,2,2,08,80,71,030,30,83,25,345,21,84,34,281,12,85,09,235,*6D
$GNGLL,0419.85930,S,05539.68991,E,045120.00,A,A*66
$GNGRS,045120.00,1,-5.4,-6.3,-3.7,9.1,10.1,-3.9,17.7,23.5,16.8,,,*74
$GNGRS,045120.00,1,-68.7,5.7,-2.0,3.4,1.0,,,,,,,*43
$GNGST,045120.00,6868023,,,,6.8,8.7,20*57
$GNZDA,045120.00,28,05,2025,00,00*70
$GNGBS,045120.00,6.8,8.7,19.9,,,,*6D
$GNTXT,01,01,01,More than 100 frame errors, UART RX was disabled*70
b0@x~>p#w'*9`{:mR
4{4"V_:R 
Y
hDrE
IUO(PGSY'T"OU;bx~U
,v {$GNRMC,045121.00,A,0419.85924,S,05539.68968,E,0.067,,280525,,,A*74
$GNVTG,,T,,M,0.067,N,0.124,K,A*3B
$GNGNS,045121.00,0419.85924,S,05539.68968,E,AA,14,0.94,15.6,-47.6,,*69
$GNGGA,045121.00,0419.85924,S,05539.68968,E,1,12,0.94,15.6,M,-47.6,M,,*45
$GNGSA,A,3,24,05,20,11,15,12,18,29,25,,,,1.82,0.94,1.57*1A
$GNGSA,A,3,79,80,83,84,73,,,,,,,,1.82,0.94,1.57*1C
$GPGSV,5,1,17,05,62,112,31,11,16,022,16,12,39,006,28,13,18,149,*78
$GPGSV,5,2,17,15,29,183,16,18,27,239,20,20,42,057,29,22,13,123,*73
$GPGSV,5,3,17,23,07,210,,24,58,225,28,25,16,338,14,29,10,308,12*77
$GPGSV,5,4,17,36,52,277,,40,86,351,34,41,58,082,,49,32,274,*7B
$GPGSV,5,5,17,50,10,089,*4A
$GLGSV,2,1,08,68,14,114,,69,19,164,,73,21,341,14,79,40,139,18*69
$GLGSV,2,2,08,80,71,030,30,83,25,345,21,84,34,281,13,85,09,235,*6C
$GNGLL,0419.85924,S,05539.68968,E,045121.00,A,A*64
$GNGRS,045121.00,1,-4.0,-4.8,-4.2,1.2,-7.7,-2.6,19.8,-41.3,-13.6,,,*6B
$GNGRS,045121.00,1,-67.4,6.5,-2.2,11.0,-8.8,,,,,,,*56
$GNGST,045121.00,55,,,,6.7,8.5,19*60
$GNZDA,045121.00,28,05,2025,00,00*71
$GNGBS,045121.00,6.7,8.5,19.5,,,,*6D
$GNTXT,01,01,01,More than 100 frame errors, UART RX was disabled*70
b0@`~>py')*9u{:R
4{4"V_:R 
Y
hDrE
I
UHO(PG4SYT
"Ujb`~U
z $GNRMC,045122.00,A,0419.85931,S,05539.68950,E,0.069,,280525,,,A*76
$GNVTG,,T,,M,0.069,N,0.128,K,A*39
$GNGNS,045122.00,0419.85931,S,05539.68950,E,AA,14,0.94,15.1,-47.6,,*62
$GNGGA,045122.00,0419.85931,S,05539.68950,E,1,12,0.94,15.1,M,-47.6,M,,*4E
$GNGSA,A,3,24,05,20,11,15,12,18,29,25,,,,1.82,0.94,1.57*1A
$GNGSA,A,3,79,80,83,84,73,,,,,,,,1.82,0.94,1.57*1C
$GPGSV,5,1,17,05,62,112,31,11,16,022,17,12,39,006,28,13,18,149,17*7F
$GPGSV,5,2,17,15,29,183,16,18,27,239,21,20,42,057,30,22,13,123,*7A
$GPGSV,5,3,17,23,07,210,,24,58,225,28,25,16,338,12,29,10,308,18*7B
$GPGSV,5,4,17,36,52,277,,40,86,351,34,41,58,082,,49,32,274,*7B
$GPGSV,5,5,17,50,10,089,*4A
$GLGSV,2,1,08,68,14,114,,69,19,164,,73,21,341,10,79,40,139,18*6D
$GLGSV,2,2,08,80,71,030,29,83,25,345,20,84,34,281,10,85,09,235,*66
$GNGLL,0419.85931,S,05539.68950,E,045122.00,A,A*68
$GNGRS,045122.00,1,-2.9,-6.5,-9.1,4.4,10.1,-2.2,21.8,23.2,16.7,,,*76
$GNGRS,045122.00,1,-67.3,3.1,-1.0,2.8,0.7,,,,,,,*42
$GNGST,045122.00,3443901,,,,6.7,8.4,19*5A
$GNZDA,045122.00,28,05,2025,00,00*72
$GNGBS,045122.00,6.7,8.4,19.3,,,,*69
$GNTXT,01,01,01,More than 100 frame errors, UART RX was disabled*70
b0@H~>p'*9{:aRb
4{4!V_:R 
Y
hDrE
IU!O(IPGSYrT"UcbH~U
} H$GNRMC,045123.00,A,0419.85939,S,05539.68934,E,0.080,,280525,,,A*7A
$GNVTG,,T,,M,0.080,N,0.148,K,A*38
$GNGNS,045123.00,0419.85939,S,05539.68934,E,AA,14,0.94,14.6,-47.6,,*6F
$GNGGA,045123.00,0419.85939,S,05539.68934,E,1,12,0.94,14.6,M,-47.6,M,,*43
$GNGSA,A,3,24,05,20,11,15,12,18,29,25,,,,1.82,0.94,1.57*1A
$GNGSA,A,3,79,80,83,84,73,,,,,,,,1.82,0.94,1.57*1C
$GPGSV,5,1,17,05,62,112,30,11,16,022,17,12,39,006,28,13,18,149,14*7D
$GPGSV,5,2,17,15,29,183,16,18,27,239,21,20,42,057,28,22,13,123,*73
$GPGSV,5,3,17,23,07,210,,24,58,225,28,25,16,338,16,29,10,308,13*74
$GPGSV,5,4,17,36,52,277,,40,86,351,33,41,58,082,,49,32,274,*7C
$GPGSV,5,5,17,50,10,089,*4A
$GLGSV,2,1,08,68,14,114,,69,19,164,,73,21,341,11,79,40,139,18*6C
$GLGSV,2,2,08,80,71,030,29,83,25,345,19,84,34,281,13,85,09,235,*6F
$GNGLL,0419.85939,S,05539.68934,E,045123.00,A,A*63
$GNGRS,045123.00,1,-1.6,-7.7,-8.3,5.4,9.4,-3.2,20.7,22.5,16.3,,,*4A
$GNGRS,045123.00,1,-65.8,2.4,-1.4,2.1,0.3,,,,,,,*47
$GNGST,045123.00,4861289,,,,6.7,8.3,19*5C
$GNZDA,045123.00,28,05,2025,00,00*73
$GNGBS,045123.00,6.7,8.3,19.2,,,,*6E
$GNTXT,01,01,01,More than 100 frame errors, UART RX was disabled*70
b0@0#~>p'
/*9{:
R
4{4"V_:R 
Y
hDrE
IUMO(PGNSY#T"OURtb0#~U
 a$GNRMC,045124.00,A,0419.85941,S,05539.68919,E,0.080,,280525,,,A*7D
$GNVTG,,T,,M,0.080,N,0.148,K,A*38
$GNGNS,045124.00,0419.85941,S,05539.68919,E,AA,13,1.25,14.6,-47.6,,*64
$GNGGA,045124.00,0419.85941,S,05539.68919,E,1,12,1.25,14.6,M,-47.6,M,,*4F
$GNGSA,A,3,24,05,20,11,15,12,18,25,,,,,2.39,1.25,2.03*1B
$GNGSA,A,3,79,80,83,84,73,,,,,,,,2.39,1.25,2.03*16
$GPGSV,5,1,17,05,62,112,29,11,16,022,17,12,39,006,28,13,18,149,10*71
$GPGSV,5,2,17,15,29,183,16,18,27,239,20,20,42,057,28,22,13,123,*72
$GPGSV,5,3,17,23,07,210,,24,58,225,27,25,16,338,10,29,10,308,08*77
$GPGSV,5,4,17,36,52,277,,40,86,351,34,41,58,082,,49,32,274,*7B
$GPGSV,5,5,17,50,10,089,*4A
$GLGSV,2,1,08,68,14,114,,69,19,164,,73,21,341,14,79,40,139,18*69
$GLGSV,2,2,08,80,71,030,29,83,25,345,18,84,34,281,12,85,09,235,*6F
$GNGLL,0419.85941,S,05539.68919,E,045124.00,A,A*64
$GNGRS,045124.00,1,-0.8,-5.1,-4.9,5.0,-25.1,-3.7,20.2,-10.8,,,,*69
$GNGRS,045124.00,1,-66.8,3.3,-2.2,11.0,13.6,,,,,,,*44
$GNGST,045124.00,58,,,,6.7,8.2,19*6F
$GNZDA,045124.00,28,05,2025,00,00*74
$GNGBS,045124.00,6.7,8.2,19.0,,,,*6A
$GNTXT,01,01,01,More than 100 frame errors, UART RX was disabled*70
b0@'~>p'
*9j{:R
4{4"V_:R 
Y
hDrE
IU;O(PGSYNT"9Ub'~U
 9$GNRMC,045125.00,A,0419.85951,S,05539.68907,E,0.091,,280525,,,A*72
$GNVTG,,T,,M,0.091,N,0.168,K,A*3A
$GNGNS,045125.00,0419.85951,S,05539.68907,E,AA,14,0.94,14.1,-47.6,,*60
$GNGGA,045125.00,0419.85951,S,05539.68907,E,1,12,0.94,14.1,M,-47.6,M,,*4C
$GNGSA,A,3,24,05,20,11,15,12,18,29,25,,,,1.82,0.94,1.57*1A
$GNGSA,A,3,79,80,83,84,73,,,,,,,,1.82,0.94,1.57*1C
$GPGSV,5,1,17,05,62,112,29,11,16,022,16,12,39,006,28,13,18,149,10*70
$GPGSV,5,2,17,15,29,183,17,18,27,239,20,20,42,057,27,22,13,123,*7C
$GPGSV,5,3,17,23,07,210,,24,58,225,27,25,16,338,11,29,10,308,13*7C
$GPGSV,5,4,17,36,52,277,,40,86,351,34,41,58,082,,49,32,274,*7B
$GPGSV,5,5,17,50,10,089,*4A
$GLGSV,2,1,08,68,14,114,,69,19,164,,73,21,341,16,79,40,139,18*6B
$GLGSV,2,2,08,80,71,030,29,83,25,345,18,84,34,281,19,85,09,235,*64
$GNGLL,0419.85951,S,05539.68907,E,045125.00,A,A*6B
$GNGRS,045125.00,1,-0.8,-10.2,-4.1,2.6,10.1,-4.8,22.8,20.7,16.7,,,*42
$GNGRS,045125.00,1,-64.3,4.0,-1.8,3.1,0.6,,,,,,,*41
$GNGST,045125.00,4860298,,,,6.7,8.2,19*5A
$GNZDA,045125.00,28,05,2025,00,00*75
$GNGBS,045125.00,6.7,8.2,18.9,,,,*63
$GNTXT,01,01,01,More than 100 frame errors, UART RX was disabled*70
b0@+~>p+'Om*9{:RA
49{4#V_:R 
Y
hDqE
IUO(PGSY%T"Ub+~U
 $GNRMC,045126.00,A,0419.85966,S,05539.68897,E,0.063,,280525,,,A*70
$GNVTG,,T,,M,0.063,N,0.118,K,A*30
$GNGNS,045126.00,0419.85966,S,05539.68897,E,AA,14,0.92,12.8,-47.6,,*66
$GNGGA,045126.00,0419.85966,S,05539.68897,E,1,12,0.92,12.8,M,-47.6,M,,*4A
$GNGSA,A,3,24,05,20,11,15,12,18,29,25,,,,1.77,0.92,1.51*10
$GNGSA,A,3,79,80,83,84,73,,,,,,,,1.77,0.92,1.51*16
$GPGSV,5,1,17,05,62,112,29,11,16,022,16,12,39,006,27,13,18,149,09*77
$GPGSV,5,2,17,15,29,183,16,18,27,239,20,20,42,057,27,22,13,123,*7D
