b0L2)$?
INl'
 "!Z-!9U%Y{4V_=:R 
Yw3AGAH&ruK*LD,MFV
WPXb2r^?$GNRMC,064502.00,A,0419.91866,S,05539.82287,E,0.077,,230525,,,D*71
$GNVTG,,T,,M,0.077,N,0.143,K,D*3E
$GNGNS,064502.00,0419.91866,S,05539.82287,E,DA,16,0.74,24.4,-47.6,,0000*6A
$GNGGA,064502.00,0419.91866,S,05539.82287,E,2,12,0.74,24.4,M,-47.6,M,,0000*42
$GNGSA,A,3,24,20,05,13,15,12,18,25,23,40,,,1.31,0.74,1.08*1A
$GNGSA,A,3,75,87,71,72,76,65,,,,,,,1.31,0.74,1.08*19
$GPGSV,5,1,17,05,41,036,24,10,04,212,,12,73,078,19,13,13,108,13*77
$GPGSV,5,2,17,15,39,139,21,18,32,290,29,20,08,033,11,23,45,210,27*7A
$GPGSV,5,3,17,24,33,178,20,25,57,341,31,28,04,293,,29,14,345,22*78
$GPGSV,5,4,17,36,52,277,,40,86,351,30,41,58,082,,49,32,274,*7F
$GPGSV,5,5,17,50,10,089,*4A
$GLGSV,3,1,09,65,24,180,12,71,14,065,18,72,38,114,13,75,42,166,26*61
$GLGSV,3,2,09,76,68,300,29,77,23,326,,86,02,016,10,87,12,336,11*6C
$GLGSV,3,3,09,88,07,280,*51
$GNGLL,0419.91866,S,05539.82287,E,064502.00,A,D*6B
$GNGRS,064502.00,1,-18.4,31.6,-9.6,20.5,4.4,-9.0,-5.0,-0.6,-7.7,158,,*7C
$GNGRS,064502.00,1,2.3,17.4,0.1,3.7,4.7,5.2,,,,,,*67
$GNGST,064502.00,3071514,,,,4.3,5.6,12*50
$GNZDA,064502.00,23,05,2025,00,00*7C
$GNGBS,064502.00,4.3,5.6,11.6,,,,*68
$GNTXT,01,01,01,More than 100 frame errors, UART RX was disabled*70
b0L2)$
IN4
l')
 "z!V-!9UI%Y{4V_=:R 
Yww2AGAH&rwK*hLD,3MFVWPXi\b2rvb$GNRMC,064503.00,A,0419.91869,S,05539.82292,E,0.356,,230525,,,D*7B
$GNVTG,,T,,M,0.356,N,0.659,K,D*32
$GNGNS,064503.00,0419.91869,S,05539.82292,E,DA,16,0.74,24.2,-47.6,,0000*66
$GNGGA,064503.00,0419.91869,S,05539.82292,E,2,12,0.74,24.2,M,-47.6,M,,0000*4E
$GNGSA,A,3,24,20,05,13,15,12,18,25,23,40,,,1.31,0.74,1.08*1A
$GNGSA,A,3,75,87,71,72,76,65,,,,,,,1.31,0.74,1.08*19
$GPGSV,5,1,17,05,41,036,24,10,04,212,,12,73,078,18,13,13,108,10*75
$GPGSV,5,2,17,15,39,139,22,18,32,290,24,20,08,033,12,23,45,210,25*75
$GPGSV,5,3,17,24,33,178,21,25,57,341,30,28,04,293,,29,14,345,22*78
$GPGSV,5,4,17,36,52,277,,40,86,351,31,41,58,082,,49,32,274,*7E
$GPGSV,5,5,17,50,10,089,*4A
$GLGSV,3,1,09,65,24,180,11,71,14,065,18,72,38,114,12,75,42,166,24*61
$GLGSV,3,2,09,76,68,300,23,77,23,326,,86,02,016,09,87,12,336,11*6E
$GLGSV,3,3,09,88,07,280,*51
$GNGLL,0419.91869,S,05539.82292,E,064503.00,A,D*61
$GNGRS,064503.00,1,-15.4,31.6,-11.2,20.2,3.0,-4.6,-9.0,-1.8,-7.6,158,,*40
$GNGRS,064503.00,1,3.6,17.5,4.0,3.8,0.5,5.0,,,,,,*6D
$GNGST,064503.00,3071565,,,,4.3,5.6,12*57
$GNZDA,064503.00,23,05,2025,00,00*7D
$GNGBS,064503.00,4.3,5.6,11.7,,,,*68
b0L2)$
INl'
 "!-B!$9UR%Y{4!V_=:R 
YwN0A~GAH&rK*7LD,MFVWPXXb2r^f$GNRMC,064504.00,A,0419.91870,S,05539.82290,E,0.377,,230525,,,D*75
$GNVTG,,T,,M,0.377,N,0.699,K,D*3D
$GNGNS,064504.00,0419.91870,S,05539.82290,E,DA,16,0.81,25.1,-47.6,,0000*63
$GNGGA,064504.00,0419.91870,S,05539.82290,E,2,12,0.81,25.1,M,-47.6,M,,0000*4B
$GNGSA,A,3,24,20,05,13,15,12,18,25,23,40,,,1.44,0.81,1.18*13
$GNGSA,A,3,75,87,71,72,76,65,,,,,,,1.44,0.81,1.18*10
$GPGSV,5,1,17,05,41,036,22,10,04,212,,12,73,078,16,13,13,108,14*79
$GPGSV,5,2,17,15,39,139,25,18,32,290,31,20,08,033,11,23,45,210,25*75
$GPGSV,5,3,17,24,33,178,22,25,57,341,36,28,04,293,,29,14,345,24*7B
$GPGSV,5,4,17,36,52,277,,40,86,351,33,41,58,082,,49,32,274,*7C
$GPGSV,5,5,17,50,10,089,*4A
$GLGSV,3,1,09,65,24,180,12,71,14,065,19,72,38,114,14,75,42,166,25*64
$GLGSV,3,2,09,76,68,300,27,77,23,326,,86,02,016,09,87,12,336,12*69
$GLGSV,3,3,09,88,07,280,*51
$GNGLL,0419.91870,S,05539.82290,E,064504.00,A,D*6C
$GNGRS,064504.00,1,-16.3,-5.2,-10.8,22.3,1.6,-2.5,-5.9,0.8,-7.0,158,,*7B
$GNGRS,064504.00,1,5.7,81.5,3.8,1.8,9.5,19.2,,,,,,*59
$GNGST,064504.00,1097,,,,4.4,5.6,12*6B
$GNZDA,064504.00,23,05,2025,00,00*7A
$GNGBS,064504.00,4.4,5.6,11.7,,,,*68
$GNTXT,01,01,01,More than 100 frame errors, UART RX was disabled*70
b0L2)$
INtl'
 "!r-I!'9U%Y{4"V_=:R 
YwAGAIH&rK*LD,MFV
W
PX6;b2rFjgh$GNRMC,064505.00,A,0419.91876,S,05539.82290,E,0.350,,230525,,,D*77
$GNVTG,,T,,M,0.350,N,0.648,K,D*34
$GNGNS,064505.00,0419.91876,S,05539.82290,E,DA,16,0.74,25.8,-47.6,,0000*67
$GNGGA,064505.00,0419.91876,S,05539.82290,E,2,12,0.74,25.8,M,-47.6,M,,0000*4F
$GNGSA,A,3,24,20,05,13,15,12,18,25,23,40,,,1.31,0.74,1.08*1A
$GNGSA,A,3,75,87,71,72,76,65,,,,,,,1.31,0.74,1.08*19
$GPGSV,5,1,17,05,41,036,21,10,04,212,,12,73,078,16,13,13,108,15*7B
$GPGSV,5,2,17,15,39,139,25,18,32,290,31,20,08,033,13,23,45,210,25*77
$GPGSV,5,3,17,24,33,178,23,25,57,341,39,28,04,293,,29,14,345,25*74
$GPGSV,5,4,17,36,52,277,,40,86,351,34,41,58,082,,49,32,274,*7B
$GPGSV,5,5,17,50,10,089,*4A
$GLGSV,3,1,09,65,24,180,17,71,14,065,20,72,38,114,17,75,42,166,25*68
$GLGSV,3,2,09,76,68,300,28,77,23,326,,86,02,016,10,87,12,336,10*6C
$GLGSV,3,3,09,88,07,280,*51
$GNGLL,0419.91876,S,05539.82290,E,064505.00,A,D*6B
$GNGRS,064505.00,1,-16.4,31.9,-10.2,20.3,0.2,-1.4,-7.4,-0.9,-4.4,158,,*47
$GNGRS,064505.00,1,4.4,17.7,3.3,2.0,-0.5,5.1,,,,,,*4D
$GNGST,064505.00,3075106,,,,4.4,5.5,12*50
$GNZDA,064505.00,23,05,2025,00,00*7B
$GNGBS,064505.00,4.4,5.5,11.6,,,,*6B
b0L2)$
INl'
 "!u-!!'9U%Y{4"V_=:R 
YwAGAH&rK*LD,`MFVWPXPb2r.n?$GNRMC,064506.00,A,0419.91880,S,05539.82286,E,0.198,,230525,,,D*7C
$GNVTG,,T,,M,0.198,N,0.367,K,D*3A
$GNGNS,064506.00,0419.91880,S,05539.82286,E,DA,16,0.74,26.0,-47.6,,0000*61
$GNGGA,064506.00,0419.91880,S,05539.82286,E,2,12,0.74,26.0,M,-47.6,M,,0000*49
$GNGSA,A,3,24,20,05,13,15,12,18,25,23,40,,,1.31,0.74,1.08*1A
$GNGSA,A,3,75,87,71,72,76,65,,,,,,,1.31,0.74,1.08*19
$GPGSV,5,1,17,05,41,036,20,10,04,212,,12,73,078,17,13,13,108,14*7A
$GPGSV,5,2,17,15,39,139,25,18,32,290,31,20,08,033,12,23,45,210,26*75
$GPGSV,5,3,17,24,33,178,21,25,57,341,39,28,04,293,,29,14,345,25*76
$GPGSV,5,4,17,36,52,277,,40,86,351,34,41,58,082,27,49,32,274,*7E
$GPGSV,5,5,17,50,10,089,*4A
$GLGSV,3,1,09,65,24,180,12,71,14,065,20,72,38,114,19,75,42,166,25*63
$GLGSV,3,2,09,76,68,300,27,77,23,326,,86,02,016,07,87,12,336,11*64
$GLGSV,3,3,09,88,07,280,*51
$GNGLL,0419.91880,S,05539.82286,E,064506.00,A,D*66
$GNGRS,064506.00,1,-15.1,31.9,-10.0,20.1,0.0,1.3,-1.3,-0.8,-4.8,158,,*66
$GNGRS,064506.00,1,4.6,18.0,2.8,-0.3,-1.6,5.0,,,,,,*61
$GNGST,064506.00,4343781,,,,4.4,5.5,12*5B
$GNZDA,064506.00,23,05,2025,00,00*78
$GNGBS,064506.00,4.4,5.5,11.6,,,,*68
b0L2)$d
IN
l'
 "!X-!%9U%Y{4"V_=:R 
YwtA4GAH&reK*LD,MFVWPRX$Lb2rr8$GNRMC,064507.00,A,0419.91882,S,05539.82291,E,0.175,,230525,,,D*7A
$GNVTG,,T,,M,0.175,N,0.324,K,D*3E
$GNGNS,064507.00,0419.91882,S,05539.82291,E,DA,16,0.74,26.1,-47.6,,0000*65
$GNGGA,064507.00,0419.91882,S,05539.82291,E,2,12,0.74,26.1,M,-47.6,M,,0000*4D
$GNGSA,A,3,24,20,05,13,15,12,18,25,23,40,,,1.31,0.74,1.08*1A
$GNGSA,A,3,75,87,71,72,76,65,,,,,,,1.31,0.74,1.08*19
$GPGSV,5,1,17,05,41,036,19,10,04,212,,12,73,078,17,13,13,108,10*74
$GPGSV,5,2,17,15,39,139,23,18,32,290,26,20,08,033,09,23,45,210,26*7F
$GPGSV,5,3,17,24,33,178,19,25,57,341,37,28,04,293,,29,14,345,23*75
$GPGSV,5,4,17,36,52,277,,40,86,351,34,41,58,082,,49,32,274,*7B
$GPGSV,5,5,17,50,10,089,*4A
$GLGSV,3,1,09,65,24,180,09,71,14,065,19,72,38,114,19,75,42,166,24*62
$GLGSV,3,2,09,76,68,300,27,77,23,326,,86,02,016,12,87,12,336,11*60
$GLGSV,3,3,09,88,07,280,*51
$GNGLL,0419.91882,S,05539.82291,E,064507.00,A,D*63
$GNGRS,064507.00,1,-13.4,34.2,-9.2,15.1,0.2,2.0,-7.6,-2.3,-7.5,158,,*50
$GNGRS,064507.00,1,5.2,-19.7,3.9,-1.5,-0.4,10.8,,,,,,*76
$GNGST,064507.00,1060,,,,4.4,5.5,12*63
$GNZDA,064507.00,23,05,2025,00,00*79
$GNGBS,064507.00,4.4,5.5,11.7,,,,*68
$GNTXT,01,01,01,More than 100 frame errors, UART RX was disabled*70
b0Lp2)$r
INl'
 "!'-!$9U%Y{4V_}=:R 
YwA
GAAH&rbK*LD,MFVWPXbp2ru$GNRMC,064508.00,A,0419.91883,S,05539.82300,E,0.252,,230525,,,D*7B
$GNVTG,,T,,M,0.252,N,0.466,K,D*39
$GNGNS,064508.00,0419.91883,S,05539.82300,E,DA,16,0.74,26.1,-47.6,,0000*62
$GNGGA,064508.00,0419.91883,S,05539.82300,E,2,12,0.74,26.1,M,-47.6,M,,0000*4A
$GNGSA,A,3,24,20,05,13,15,12,18,25,23,40,,,1.31,0.74,1.08*1A
$GNGSA,A,3,75,87,71,72,76,65,,,,,,,1.31,0.74,1.08*19
$GPGSV,5,1,17,05,41,036,18,10,04,212,,12,73,078,19,13,13,108,15*7E
$GPGSV,5,2,17,15,39,139,22,18,32,290,28,20,08,033,12,23,45,210,24*78
$GPGSV,5,3,17,24,33,178,15,25,57,341,36,28,04,293,,29,14,345,22*79
$GPGSV,5,4,17,36,52,277,,40,86,351,29,41,58,082,,49,32,274,*77
$GPGSV,5,5,17,50,10,089,*4A
$GLGSV,3,1,09,65,24,180,10,71,14,065,17,72,38,114,18,75,42,166,23*62
$GLGSV,3,2,09,76,68,300,26,77,23,326,,86,02,016,11,87,12,336,09*6B
$GLGSV,3,3,09,88,07,280,*51
$GNGLL,0419.91883,S,05539.82300,E,064508.00,A,D*64
$GNGRS,064508.00,1,-10.7,31.1,-9.1,19.6,0.1,1.6,-3.3,0.3,-8.1,157,,*7D
$GNGRS,064508.00,1,4.9,17.2,3.2,-1.6,-0.5,4.6,,,,,,*67
$GNGST,064508.00,3072425,,,,4.4,5.5,12*5E
$GNZDA,064508.00,23,05,2025,00,00*76
$GNGBS,064508.00,4.4,5.5,11.7,,,,*67
b0L(3)$a
INl'
 "!G-z!#9U%Y{4V_:R 
YwUAGAH&rK*LD,MFVWPXb(3rw$GNRMC,064511.00,A,0419.91880,S,05539.82331,E,0.145,,230525,,,D*77
$GNVTG,,T,,M,0.145,N,0.269,K,D*35
$GNGNS,064511.00,0419.91880,S,05539.82331,E,DA,15,0.74,26.3,-47.6,,0000*6A
$GNGGA,064511.00,0419.91880,S,05539.82331,E,2,12,0.74,26.3,M,-47.6,M,,0000*41
$GNGSA,A,3,24,20,05,13,15,12,18,25,23,,,,1.40,0.74,1.19*18
$GNGSA,A,3,75,87,71,72,76,65,,,,,,,1.40,0.74,1.19*1F
$GPGSV,5,1,17,05,41,036,14,10,04,212,,12,73,078,20,13,13,108,07*7B
$GPGSV,5,2,17,15,39,139,20,18,32,290,29,20,08,033,11,23,45,210,23*7F
$GPGSV,5,3,17,24,33,178,09,25,57,341,35,28,04,293,,29,14,345,22*77
$GPGSV,5,4,17,36,52,277,,40,86,351,,41,58,082,,49,32,274,*7C
$GPGSV,5,5,17,50,10,089,*4A
$GLGSV,3,1,09,65,24,180,08,71,14,065,18,72,38,114,15,75,42,166,26*6C
$GLGSV,3,2,09,76,68,300,26,77,23,326,,86,02,017,11,87,12,336,14*66
$GLGSV,3,3,09,88,07,280,*51
$GNGLL,0419.91880,S,05539.82331,E,064511.00,A,D*6D
$GNGRS,064511.00,1,-5.6,31.4,-11.8,19.6,-3.6,1.4,-2.4,-0.7,-6.5,,,*48
$GNGRS,064511.00,1,6.4,17.1,3.9,-3.0,2.1,4.8,,,,,,*49
$GNGST,064511.00,3181271,,,,4.6,5.6,12*5D
$GNZDA,064511.00,23,05,2025,00,00*7E
$GNGBS,064511.00,4.6,5.6,12.0,,,,*6A
$GNTXT,01,01,01,More than 100 frame errors, UART RX was disabled*70
$GPGSV,5,2,17,15,39,139,19,18,32,290,28,20,08,033,11,23,45,210,23*74
$GPGSV,5,3,17,24,33,178,10,25,57,341,32,28,04,293,,29,14,345,22*78
$GPGSV,5,4,17,36,52,277,,40,86,351,,41,58,082,,49,32,274,*7C
$GPGSV,5,5,17,50,10,089,*4A
$GLGSV,3,1,09,65,24,180,10,71,14,065,17,72,38,114,13,75,42,166,24*6E
$GLGSV,3,2,09,76,68,300,24,77,23,326,,86,02,017,11,87,12,336,08*69
$GLGSV,3,3,09,88,07,280,*51
$GNGLL,0419.91888,S,05539.82333,E,064512.00,A,D*64
$GNGRS,064512.00,1,-6.0,31.7,-12.9,19.4,-3.4,-0.5,-0.5,-0.8,-6.1,,,*6A
$GNGRS,064512.00,1,6.3,17.1,4.0,-2.6,3.0,4.4,,,,,,*48
$GNGST,064512.00,3182420,,,,4.7,5.6,12*5E
$GNZDA,064512.00,23,05,2025,00,00*7D
$GNGBS,064512.00,4.7,5.6,12.2,,,,*6A
$GNTXT,01,01,01,More than 100 frame errors, UART RX was disabled*70
$GPGSV,5,4,17,36,52,277,,40,86,351,,41,58,082,,49,32,274,*7C
$GPGSV,5,5,17,50,10,089,*4A
$GLGSV,3,1,09,65,24,180,08,71,14,065,15,72,38,114,15,75,42,166,24*63
$GLGSV,3,2,09,76,68,300,24,77,23,326,,86,02,017,09,87,12,336,11*68
$GLGSV,3,3,09,88,07,280,*51
$GNGLL,0419.91890,S,05539.82330,E,064513.00,A,D*6F
$GNGRS,064513.00,1,-49.1,-4.5,-11.3,-36.9,-2.9,0.7,-1.5,-0.6,-6.2,,,*43
$GNGRS,064513.00,1,7.0,9.6,4.1,-2.6,3.1,-142,,,,,,*47
$GNGST,064513.00,85,,,,4.8,5.7,12*62
$GNZDA,064513.00,23,05,2025,00,00*7C
$GNGBS,064513.00,4.8,5.7,12.3,,,,*64
$GNTXT,01,01,01,More than 100 frame errors, UART RX was disabled*70
$GPGSV,5,3,17,24,33,178,11,25,57,341,34,28,04,293,,29,14,345,22*7F
$GPGSV,5,4,17,36,52,277,,40,86,351,,41,58,082,,49,32,274,*7C
$GPGSV,5,5,17,50,10,089,*4A
$GLGSV,3,1,09,65,24,180,12,71,14,065,15,72,38,114,14,75,42,166,24*69
$GLGSV,3,2,09,76,68,300,25,77,23,326,,86,02,017,07,87,12,336,08*6F
$GLGSV,3,3,09,88,07,280,*51
$GNGLL,0419.91878,S,05539.82326,E,064514.00,A,D*69
$GNGRS,064514.00,1,11.0,31.2,19.9,-5.3,0.3,2.6,-0.5,-8.3,,,,*41
$GNGRS,064514.00,1,6.4,17.0,6.4,-5.3,3.7,5.2,,,,,,*4C
$GNGST,064514.00,4666705,,,,4.9,5.7,12*59
$GNZDA,064514.00,23,05,2025,00,00*7B
$GNGBS,064514.00,4.9,5.7,12.5,,,,*64
b0L3)$
INl'i
 "!4-
!c 9U%Y{4V_:R 
Yw|AGABH
&r^K*LD,MFVWPXb3rVt$GNRMC,064515.00,A,0419.91875,S,05539.82324,E,0.200,,230525,,,D*7F
$GNVTG,,T,,M,0.200,N,0.371,K,D*3F
$GNGNS,064515.00,0419.91875,S,05539.82324,E,DA,15,0.74,26.5,-47.6,,0000*66
$GNGGA,064515.00,0419.91875,S,05539.82324,E,2,12,0.74,26.5,M,-47.6,M,,0000*4D
$GNGSA,A,3,24,20,05,13,15,12,18,25,23,,,,1.40,0.74,1.19*18
$GNGSA,A,3,75,87,71,72,76,65,,,,,,,1.40,0.74,1.19*1F
$GPGSV,5,1,17,05,41,036,16,10,04,212,,12,73,078,17,13,13,108,13*78
$GNGSA,A,3,75,87,71,76,65,,,,,,,,1.75,0.90,1.50*1B
$GPGSV,5,1,17,05,41,036,12,10,04,212,,12,73,078,13,13,13,108,11*7A
$GPGSV,5,2,17,15,39,139,20,18,32,290,27,20,08,033,11,23,45,210,25*77
$GPGSV,5,3,17,24,33,178,12,25,57,341,32,28,04,293,,29,14,345,24*7C
$GPGSV,5,4,17,36,52,277,,40,86,351,,41,58,082,,49,32,274,*7C
$GPGSV,5,5,17,50,10,089,*4A
$GLGSV,3,1,09,65,24,180,13,71,14,065,16,72,38,114,09,75,42,166,24*67
$GLGSV,3,2,09,76,68,300,24,77,23,326,,86,02,017,10,87,12,336,11*60
$GLGSV,3,3,09,88,07,280,*51
$GNGLL,0419.91874,S,05539.82328,E,064516.00,A,D*69
$GNGRS,064516.00,1,-66.4,36.6,7.6,16.2,-5.4,4.3,-1.7,0.4,-9.8,,,*48
$GNGRS,064516.00,1,4.4,-130,3.8,4.4,13.8,,,,,,,*7E
$GNGST,064516.00,61,,,,5.1,5.8,13*6B
$GNZDA,064516.00,23,05,2025,00,00*79
$GNGBS,064516.00,5.1,5.8,12.8,,,,*6D
b0L3
)$
INl'
 ",!_-!0#9U?%Y{4V_:R 
YwAGAMH&rK*LD,MFVWPXb3r&D$GNRMC,064517.00,A,0419.91874,S,05539.82328,E,0.210,,230525,,,D*71
$GNVTG,,T,,M,0.210,N,0.389,K,D*39
$GNGNS,064517.00,0419.91874,S,05539.82328,E,DA,13,0.88,27.0,-47.6,,0000*68
$GNGGA,064517.00,0419.91874,S,05539.82328,E,2,12,0.88,27.0,M,-47.6,M,,0000*45
$GNGSA,A,3,24,20,05,13,15,12,18,25,23,,,,1.73,0.88,1.50*16
$GNGSA,A,3,75,71,76,65,,,,,,,,,1.73,0.88,1.50*1B
$GPGSV,5,1,17,05,41,036,10,10,04,212,,12,73,078,16,13,13,108,09*74
$GPGSV,5,2,17,15,39,139,19,18,32,290,27,20,08,033,09,23,45,210,25*74
$GPGSV,5,3,17,24,33,178,13,25,57,341,35,28,04,293,,29,14,345,23*7D
$GPGSV,5,4,17,36,52,277,,40,86,351,,41,58,082,,49,32,274,*7C
$GPGSV,5,5,17,50,10,089,*4A
$GLGSV,3,1,09,65,24,180,13,71,14,065,15,72,38,114,08,75,42,166,23*62
$GLGSV,3,2,09,76,68,300,24,77,23,326,,86,02,017,08,87,12,336,07*6E
$GLGSV,3,3,09,88,07,280,*51
$GNGLL,0419.91874,S,05539.82328,E,064517.00,A,D*68
$GNGRS,064517.00,1,10.7,31.7,9.6,19.8,-8.0,4.1,-2.1,0.6,-10.1,,,*56
$GNGRS,064517.00,1,5.0,3.3,4.6,5.0,,,,,,,,*53
$GNGST,064517.00,246706,,,,5.1,5.9,13*6D
$GNZDA,064517.00,23,05,2025,00,00*78
$GNGBS,064517.00,5.1,5.9,13.0,,,,*64
b0L"3($
IN.l}'0
 "C!/-
!1$9UJ%Y{4!V_9:R 
YwAGA2H&rK*LD,MFVWPXdBb"3r^$GNRMC,064518.00,A,0419.91863,S,05539.82335,E,0.117,,230525,,,D*70
$GNVTG,,T,,M,0.117,N,0.217,K,D*3B
$GNGNS,064518.00,0419.91863,S,05539.82335,E,DA,15,0.76,26.7,-47.6,,0000*6C
$GNGGA,064518.00,0419.91863,S,05539.82335,E,2,12,0.76,26.7,M,-47.6,M,,0000*47
$GNGSA,A,3,24,20,05,13,15,12,18,25,23,40,,,1.33,0.76,1.09*1B
$GNGSA,A,3,75,87,71,76,65,,,,,,,,1.33,0.76,1.09*1D
$GPGSV,5,1,17,05,40,036,15,10,04,212,,12,73,078,18,13,13,108,11*77
$GPGSV,5,2,17,15,39,139,20,18,32,290,28,20,08,033,09,23,45,210,25*71
$GPGSV,5,3,17,24,33,178,10,25,57,341,36,28,04,293,,29,14,345,24*7A
$GPGSV,5,4,17,36,52,277,,40,86,351,33,41,58,082,,49,32,274,*7C
$GPGSV,5,5,17,50,10,089,*4A
$GLGSV,3,1,09,65,24,180,12,71,14,065,12,72,38,114,08,75,42,166,23*64
$GLGSV,3,2,09,76,68,300,22,77,23,326,,86,02,017,11,87,12,336,09*6E
$GLGSV,3,3,09,88,07,280,*51
$GNGLL,0419.91863,S,05539.82335,E,064518.00,A,D*6D
$GNGRS,064518.00,1,10.7,31.2,9.2,19.2,-7.2,3.0,0.7,0.7,-8.6,148,,*72
$GNGRS,064518.00,1,3.8,16.7,5.6,4.8,4.9,,,,,,,*49
$GNGST,064518.00,3183492,,,,5.2,6.0,13*5C
$GNZDA,064518.00,23,05,2025,00,00*77
$GNGBS,064518.00,5.2,6.0,13.3,,,,*61
$GNTXT,01,01,01,More than 100 frame errors, UART RX was disabled*70
b0Lh&3($i
INrli'
 "!-!$9Uq%Y{4 V_q;:R 
YwA
GAH&rK*LD,XMFVWP"Xbh&3r5$GNRMC,064519.00,A,0419.91856,S,05539.82335,E,0.119,,230525,,,D*79
$GNVTG,,T,,M,0.119,N,0.221,K,D*30
$GNGNS,064519.00,0419.91856,S,05539.82335,E,DA,15,0.90,26.9,-47.6,,0000*6D
$GNGGA,064519.00,0419.91856,S,05539.82335,E,2,12,0.90,26.9,M,-47.6,M,,0000*46
$GNGSA,A,3,24,20,05,13,15,12,18,25,23,40,,,1.63,0.90,1.36*1A
$GNGSA,A,3,75,87,71,76,65,,,,,,,,1.63,0.90,1.36*1C
$GPGSV,5,1,17,05,40,036,09,10,04,212,,12,73,078,21,13,13,108,11*70
$GPGSV,5,2,17,15,39,139,20,18,32,290,29,20,08,033,11,23,45,210,25*79
$GPGSV,5,3,17,24,33,178,14,25,57,341,36,28,04,293,,29,14,345,24*7E
$GPGSV,5,4,17,36,52,277,,40,86,351,32,41,58,082,,49,32,274,*7D
$GPGSV,5,5,17,50,10,089,*4A
$GLGSV,3,1,09,65,24,180,10,71,14,065,11,72,38,114,,75,42,166,23*6D
$GLGSV,3,2,09,76,68,300,24,77,23,326,,86,02,017,09,87,12,336,09*61
$GLGSV,3,3,09,88,07,280,*51
$GNGLL,0419.91856,S,05539.82335,E,064519.00,A,D*6A
$GNGRS,064519.00,1,-36.8,60.3,6.2,11.3,-8.6,-1.4,-0.4,1.1,-8.9,152,,*5B
$GNGRS,064519.00,1,4.3,-130,4.0,6.0,-31.0,,,,,,,*5A
$GNGST,064519.00,1185,,,,5.3,6.1,13*66
$GNZDA,064519.00,23,05,2025,00,00*76
$GNGBS,064519.00,5.3,6.1,13.4,,,,*67
b0LP*3($
INl'
 "!--g
!@$9Uz%Y{4 V_;:R 
YwAGAH&rK*~LD,MFVW
PXbP*3ry$GNRMC,064520.00,A,0419.91839,S,05539.82345,E,0.136,,230525,,,D*70
$GNVTG,,T,,M,0.136,N,0.252,K,D*39
$GNGNS,064520.00,0419.91839,S,05539.82345,E,DA,15,0.76,26.6,-47.6,,0000*6E
$GNGGA,064520.00,0419.91839,S,05539.82345,E,2,12,0.76,26.6,M,-47.6,M,,0000*45
$GNGSA,A,3,24,20,05,13,15,12,18,25,23,40,,,1.33,0.76,1.09*1B
$GNGSA,A,3,75,87,71,76,65,,,,,,,,1.33,0.76,1.09*1D
$GPGSV,5,1,17,05,40,036,19,10,04,212,,12,73,078,22,13,13,108,13*70
$GPGSV,5,2,17,15,39,139,19,18,32,290,30,20,08,033,13,23,45,210,25*79
$GPGSV,5,3,17,24,33,178,10,25,57,341,36,28,04,293,,29,14,345,24*7A
$GPGSV,5,4,17,36,52,277,,40,86,351,32,41,58,082,,49,32,274,*7D
$GPGSV,5,5,17,50,10,089,*4A
$GLGSV,3,1,09,65,24,180,15,71,14,065,14,72,38,114,,75,42,166,24*6A
$GLGSV,3,2,09,76,68,300,25,77,23,326,,86,02,017,12,87,12,336,10*62
$GLGSV,3,3,09,88,07,280,*51
$GNGLL,0419.91839,S,05539.82345,E,064520.00,A,D*6E
$GNGRS,064520.00,1,10.9,31.2,9.5,19.6,-6.1,-3.7,-2.3,1.2,-11.8,153,,*4F
$GNGRS,064520.00,1,6.4,16.9,5.1,6.7,5.2,,,,,,,*45
$GNGST,064520.00,4497103,,,,5.4,6.1,14*5D
$GNZDA,064520.00,23,05,2025,00,00*7C
$GNGBS,064520.00,5.4,6.1,13.6,,,,*68
$GNTXT,01,01,01,More than 100 frame errors, UART RX was disabled*70
b0L63($
INl_'
 "O!-!,9U%Y{4V_:R 
YwAGAH&rK*LD,MFVWPX[gb63r$GNRMC,064523.00,A,0419.91788,S,05539.82394,E,0.229,,230525,,,D*77
$GNVTG,,T,,M,0.229,N,0.425,K,D*32
$GNGNS,064523.00,0419.91788,S,05539.82394,E,DA,14,0.77,25.0,-47.6,,0000*61
$GNGGA,064523.00,0419.91788,S,05539.82394,E,2,12,0.77,25.0,M,-47.6,M,,0000*4B
$GNGSA,A,3,24,20,05,13,15,12,18,25,23,,,,1.42,0.77,1.20*13
$GNGSA,A,3,75,87,71,76,65,,,,,,,,1.42,0.77,1.20*11
$GPGSV,5,1,17,05,40,036,16,10,05,213,,12,73,078,22,13,13,108,12*7E
$GPGSV,5,2,17,15,39,139,17,18,32,290,25,20,08,033,11,23,45,210,25*71
$GPGSV,5,3,17,24,33,178,14,25,57,341,31,28,04,293,,29,14,345,20*7D
$GPGSV,5,4,17,36,52,277,,40,86,351,,41,58,082,,49,32,274,*7C
$GPGSV,5,5,17,50,10,089,*4A
$GLGSV,3,1,09,65,24,180,07,71,14,065,15,72,38,114,,75,42,166,17*68
$GLGSV,3,2,09,76,68,300,20,77,23,326,,86,02,017,06,87,12,336,08*6B
$GLGSV,3,3,09,88,07,280,*51
$GNGLL,0419.91788,S,05539.82394,E,064523.00,A,D*64
$GNGRS,064523.00,1,10.7,30.6,10.1,18.9,-0.8,-5.5,-1.8,3.8,-15.4,,,*41
$GNGRS,064523.00,1,4.1,16.7,2.5,7.5,4.9,,,,,,,*45
$GNGST,064523.00,300511,,,,5.4,6.2,14*67
$GNZDA,064523.00,23,05,2025,00,00*7F
$GNGBS,064523.00,5.4,6.2,13.9,,,,*67
$GNTXT,01,01,01,More than 100 frame errors, UART RX was disabled*70
b0L93($
INlf'
 "'!-c!B"9U%Y{4V_:R 
YwAGAH&rK*ZLD,MFV
WPyX=fb93r~l
$GNRMC,064524.00,A,0419.91774,S,05539.82387,E,0.251,,230525,,,D*7E
$GNVTG,,T,,M,0.251,N,0.465,K,D*39
$GNGNS,064524.00,0419.91774,S,05539.82387,E,DA,14,0.77,25.2,-47.6,,0000*65
$GNGGA,064524.00,0419.91774,S,05539.82387,E,2,12,0.77,25.2,M,-47.6,M,,0000*4F
$GNGSA,A,3,24,20,05,13,15,12,18,25,23,,,,1.42,0.77,1.20*13
$GNGSA,A,3,75,87,71,76,65,,,,,,,,1.42,0.77,1.20*11
$GPGSV,5,1,17,05,40,036,13,10,05,213,,12,73,078,22,13,13,108,09*71
$GPGSV,5,2,17,15,39,139,15,18,32,290,26,20,08,033,09,23,45,210,23*7F
$GPGSV,5,3,17,24,33,178,12,25,57,341,34,28,04,293,,29,14,345,18*75
$GPGSV,5,4,17,36,52,277,,40,86,351,,41,58,082,,49,32,274,*7C
$GPGSV,5,5,17,50,10,089,*4A
$GLGSV,3,1,09,65,24,180,08,71,14,065,12,72,38,114,,75,42,166,16*61
$GLGSV,3,2,09,76,68,300,18,77,23,326,,86,02,017,10,87,12,336,08*67
$GLGSV,3,3,09,88,07,280,*51
$GNGLL,0419.91774,S,05539.82387,E,064524.00,A,D*62
$GNGRS,064524.00,1,10.9,30.5,8.0,18.9,-3.5,-5.2,0.4,1.6,-16.9,,,*58
$GNGRS,064524.00,1,6.0,16.6,2.2,9.1,5.1,,,,,,,*44
$GNGST,064524.00,5717157,,,,5.5,6.3,14*51
$GNZDA,064524.00,23,05,2025,00,00*78
$GNGBS,064524.00,5.5,6.3,14.1,,,,*6F
b0L=3($
IPlZ'
 "!g-!$9U%Y{4!V_=:R 
YwA.GAH&rK*]LD,MFVWPSXYtb=3rfB\$GNRMC,064525.00,A,0419.91745,S,05539.82395,E,0.324,,230525,,,A*78
$GNVTG,,T,,M,0.324,N,0.601,K,A*3F
$GNGNS,064525.00,0419.91745,S,05539.82395,E,AA,15,0.87,24.6,-47.6,,*6B
$GNGGA,064525.00,0419.91745,S,05539.82395,E,1,12,0.87,24.6,M,-47.6,M,,*46
$GNGSA,A,3,24,20,05,13,15,12,18,25,23,40,,,1.61,0.87,1.35*1D
$GNGSA,A,3,75,87,71,76,65,,,,,,,,1.61,0.87,1.35*1B
$GPGSV,5,1,17,05,40,036,11,10,05,213,,12,73,080,20,13,13,108,11*7F
$GPGSV,5,2,17,15,39,139,18,18,32,290,26,20,08,033,12,23,45,210,24*7F
$GPGSV,5,3,17,24,33,178,13,25,57,341,36,28,04,293,,29,14,345,20*7D
$GPGSV,5,4,17,36,52,277,,40,86,351,33,41,58,082,,49,32,274,*7C
$GPGSV,5,5,17,50,10,089,*4A
$GLGSV,3,1,09,65,24,180,09,71,14,065,12,72,38,114,,75,42,166,16*60
$GLGSV,3,2,09,76,68,300,22,77,23,326,,86,02,017,11,87,12,336,09*6E
$GLGSV,3,3,09,88,07,280,*51
$GNGLL,0419.91745,S,05539.82395,E,064525.00,A,A*67
$GNGRS,064525.00,1,-0.9,57.4,5.4,29.1,-0.5,-10.1,7.7,2.8,-16.0,158,,*4E
$GNGRS,064525.00,1,3.5,-70.8,-0.1,10.1,-99.4,,,,,,,*6F
$GNGST,064525.00,1139,,,,5.6,6.4,14*69
$GNZDA,064525.00,23,05,2025,00,00*79
$GNGBS,064525.00,5.6,6.4,14.3,,,,*68
b0LA3($
IP,lQ':
 "
!d-!Q#9U%Y{4 V_;:R 
YwA
GAH&rK*LD,'MFVWPXMbA3rN$GNRMC,064526.00,A,0419.91720,S,05539.82389,E,0.408,,230525,,,A*7C
$GNVTG,,T,,M,0.408,N,0.755,K,A*36
$GNGNS,064526.00,0419.91720,S,05539.82389,E,AA,15,0.76,24.3,-47.6,,*6D
$GNGGA,064526.00,0419.91720,S,05539.82389,E,1,12,0.76,24.3,M,-47.6,M,,*40
$GNGSA,A,3,24,20,05,13,15,12,18,25,23,40,,,1.33,0.76,1.09*1B
$GNGSA,A,3,75,87,71,76,65,,,,,,,,1.33,0.76,1.09*1D
$GPGSV,5,1,17,05,40,036,16,10,05,213,,12,73,080,20,13,13,108,12*7B
$GPGSV,5,2,17,15,39,139,20,18,32,290,28,20,08,033,09,23,45,210,25*71
$GPGSV,5,3,17,24,33,178,14,25,57,341,35,28,04,293,,29,14,345,22*7B
$GPGSV,5,4,17,36,52,277,,40,86,351,32,41,58,082,,49,32,274,*7D
$GPGSV,5,5,17,50,10,089,*4A
$GLGSV,3,1,09,65,24,180,10,71,14,065,12,72,38,114,,75,42,166,17*69
$GLGSV,3,2,09,76,68,300,24,77,23,326,,86,02,017,09,87,12,336,09*61
$GLGSV,3,3,09,88,07,280,*51
$GNGLL,0419.91720,S,05539.82389,E,064526.00,A,A*6A
$GNGRS,064526.00,1,11.1,31.7,5.2,21.3,3.1,-12.4,5.2,1.4,-16.2,154,,*7C
$GNGRS,064526.00,1,1.9,16.8,-0.5,10.6,5.3,,,,,,,*53
$GNGST,064526.00,3189641,,,,5.7,6.6,15*52
$GNZDA,064526.00,23,05,2025,00,00*7A
$GNGBS,064526.00,5.7,6.6,14.7,,,,*6C
$GNTXT,01,01,01,More than 100 frame errors, UART RX was disabled*70
b0LI3($(
IPVl(
 "!?-!9U%Y{4V_p<:R 
YwA
GAtH&rK*(LD,MFVWPJXkbI3r$GNRMC,064528.00,A,0419.91698,S,05539.82405,E,0.278,,230525,,,A*72
$GNVTG,,T,,M,0.278,N,0.515,K,A*31
$GNGNS,064528.00,0419.91698,S,05539.82405,E,AA,15,0.81,23.7,-47.6,,*69
$GNGGA,064528.00,0419.91698,S,05539.82405,E,1,12,0.81,23.7,M,-47.6,M,,*44
$GNGSA,A,3,24,20,05,13,15,12,18,25,23,40,,,1.41,0.81,1.15*1B
$GNGSA,A,3,75,87,71,76,65,,,,,,,,1.41,0.81,1.15*1D
$GPGSV,5,1,17,05,40,036,18,10,05,213,,12,73,080,24,13,13,108,11*72
$GPGSV,5,2,17,15,40,138,15,18,32,290,28,20,08,033,09,23,45,210,26*7B
$GPGSV,5,3,17,24,33,178,14,25,57,341,31,28,04,293,,29,14,345,21*7C
$GPGSV,5,4,17,36,52,277,,40,86,351,27,41,58,082,,49,32,274,*79
$GPGSV,5,5,17,50,10,089,*4A
$GLGSV,3,1,09,65,24,180,10,71,14,065,11,72,38,114,,75,42,166,13*6E
$GLGSV,3,2,09,76,68,300,21,77,23,326,,86,02,017,06,87,12,336,08*6A
$GLGSV,3,3,09,88,07,280,*51
$GNGLL,0419.91698,S,05539.82405,E,064528.00,A,A*65
$GNGRS,064528.00,1,-13.5,-25.0,3.0,-93.1,9.5,-14.5,-2.5,1.9,-11.5,155,,*7C
$GNGRS,064528.00,1,0.4,-1.8,-1.4,11.8,30.9,,,,,,,*79
$GNGST,064528.00,1139,,,,5.7,6.8,15*68
$GNZDA,064528.00,23,05,2025,00,00*74
$GNGBS,064528.00,5.7,6.8,15.1,,,,*6B
$GNTXT,01,01,01,More than 100 frame errors, UART RX was disabled*70
b0LxM3($I
IPlP(-
 "
!-!<9U%Y{4V_~;:R 
YwAGAH&rK*LD,MFVWPX2bxM3r$GNRMC,064529.00,A,0419.91697,S,05539.82401,E,0.279,,230525,,,A*79
$GNVTG,,T,,M,0.279,N,0.516,K,A*33
$GNGNS,064529.00,0419.91697,S,05539.82401,E,AA,14,0.84,23.8,-47.6,,*68
$GNGGA,064529.00,0419.91697,S,05539.82401,E,1,12,0.84,23.8,M,-47.6,M,,*44
$GNGSA,A,3,24,20,05,13,15,12,18,25,23,40,,,1.41,0.84,1.14*1F
$GNGSA,A,3,75,87,76,65,,,,,,,,,1.41,0.84,1.14*1F
$GPGSV,5,1,17,05,40,036,19,10,05,213,,12,73,080,24,13,13,108,09*7A
$GPGSV,5,2,17,15,40,138,14,18,32,290,28,20,08,033,10,23,45,210,24*70
$GPGSV,5,3,17,24,33,178,17,25,57,341,31,28,04,293,,29,14,345,18*75
$GPGSV,5,4,17,36,52,277,,40,86,351,27,41,58,082,,49,32,274,*79
$GPGSV,5,5,17,50,10,089,*4A
$GLGSV,3,1,09,65,24,180,09,71,14,065,05,72,38,114,,75,42,166,09*68
$GLGSV,3,2,09,76,68,300,19,77,23,326,,86,02,017,06,87,12,336,07*6E
$GLGSV,3,3,09,88,07,280,*51
$GNGLL,0419.91697,S,05539.82401,E,064529.00,A,A*6F
$GNGRS,064529.00,1,10.8,32.1,0.7,21.3,10.7,-13.6,-2.4,2.1,-11.1,152,,*61
$GNGRS,064529.00,1,-0.1,17.2,10.4,5.0,,,,,,,,*74
$GNGST,064529.00,5718864,,,,5.7,6.9,15*53
$GNZDA,064529.00,23,05,2025,00,00*75
$GNGBS,064529.00,5.7,6.9,15.4,,,,*6E
$GNTXT,01,01,01,More than 100 frame errors, UART RX was disabled*70
$GNGNS,064531.00,0419.91674,S,05539.82411,E,AA,14,0.84,23.6,-47.6,,*63
$GNGGA,064531.00,0419.91674,S,05539.82411,E,1,12,0.84,23.6,M,-47.6,M,,*4F
$GNGSA,A,3,24,20,05,13,15,12,18,25,23,,,,1.51,0.84,1.25*18
$GNGSA,A,3,75,87,71,76,65,,,,,,,,1.51,0.84,1.25*1A
$GPGSV,5,1,17,05,40,036,20,10,05,213,,12,73,080,24,13,13,108,11*79
$GPGSV,5,2,17,15,40,138,12,18,32,290,29,20,08,033,10,23,45,210,25*76
$GPGSV,5,3,17,24,33,178,14,25,57,341,33,28,04,293,,29,14,345,17*7B
$GPGSV,5,4,17,36,52,277,,40,86,351,,41,58,082,,49,32,274,*7C
$GPGSV,5,5,17,50,10,089,*4A
$GLGSV,3,1,09,65,24,180,11,71,14,065,10,72,38,114,,75,42,166,12*6F
$GLGSV,3,2,09,76,68,300,20,77,23,326,,86,02,017,07,87,12,336,09*6B
$GLGSV,3,3,09,88,07,280,*51
$GNGLL,0419.91674,S,05539.82411,E,064531.00,A,A*6A
$GNGRS,064531.00,1,8.8,37.6,0.4,-53.2,12.4,-15.2,-4.8,3.1,-8.6,,,*78
$GNGRS,064531.00,1,-25.7,11.2,22.3,13.1,-142,,,,,,,*60
$GNGST,064531.00,87,,,,5.9,7.1,16*60
$GNZDA,064531.00,23,05,2025,00,00*7C
$GNGBS,064531.00,5.9,7.1,16.0,,,,*67
b0L0Y3($
IP~l(
  "!]-A!%9U%Y{4#V_;:R 
YwAGAH&rK*LD,MFVWPXqb0Y3r)1$GNRMC,064532.00,A,0419.91668,S,05539.82432,E,0.334,,230525,,,A*7B
$GNVTG,,T,,M,0.334,N,0.618,K,A*36
$GNGNS,064532.00,0419.91668,S,05539.82432,E,AA,15,0.76,23.7,-47.6,,*61
$GNGGA,064532.00,0419.91668,S,05539.82432,E,1,12,0.76,23.7,M,-47.6,M,,*4C
$GNGSA,A,3,24,20,05,13,15,12,18,25,23,40,,,1.33,0.76,1.09*1B
$GNGSA,A,3,75,87,71,76,65,,,,,,,,1.33,0.76,1.09*1D
$GPGSV,5,1,17,05,40,036,21,10,05,213,,12,73,080,23,13,13,108,12*7C
$GNGSA,A,3,75,87,71,76,65,,,,,,,,1.41,0.81,1.15*1D
$GPGSV,5,1,17,05,40,036,28,10,05,213,,12,73,080,28,13,13,108,*7D
$GPGSV,5,2,17,15,40,138,22,18,32,290,31,20,07,033,15,23,45,210,22*71
$GPGSV,5,3,17,24,33,177,18,25,57,341,37,28,04,293,,29,14,345,26*7E
$GPGSV,5,4,17,36,52,277,,40,86,351,33,41,58,082,,49,32,274,*7C
$GPGSV,5,5,17,50,10,089,*4A
$GLGSV,3,1,09,65,24,180,09,71,14,065,13,72,38,114,14,75,42,166,15*67
$GLGSV,3,2,09,76,68,300,27,77,23,326,,86,02,017,11,87,12,336,10*63
$GLGSV,3,3,09,88,07,280,*51
$GNGLL,0419.91685,S,05539.82372,E,064536.00,A,A*61
$GNGRS,064536.00,1,4.9,33.9,-16.8,11.9,-19.5,-5.3,2.6,-12.7,159,,,*56
$GNGRS,064536.00,1,-0.6,18.0,17.6,10.4,5.0,,,,,,,*6E
$GNGST,064536.00,5714541,,,,5.9,6.6,15*5A
$GNZDA,064536.00,23,05,2025,00,00*7B
$GNGBS,064536.00,5.9,6.6,15.3,,,,*66
$GNTXT,01,01,01,More than 100 frame errors, UART RX was disabled*70
$GNTXT,01,01,01,More than 100 frame errors, UART RX was disabled*70
b0Lp3($
IPls$(
 "!-'!#:U%Y{4#V_<:R 
YwXA7G
A[H&rK*LD,MFVWPXSbp3r.8$GNRMC,064538.00,A,0419.91698,S,05539.82338,E,0.153,,230525,,,A*70
$GNVTG,,T,,M,0.153,N,0.283,K,A*33
$GNGNS,064538.00,0419.91698,S,05539.82338,E,AA,15,0.81,28.6,-47.6,,*6B
$GNGGA,064538.00,0419.91698,S,05539.82338,E,1,12,0.81,28.6,M,-47.6,M,,*46
$GNGSA,A,3,24,20,05,15,12,18,25,23,40,,,,1.41,0.81,1.15*19
$GNGSA,A,3,75,87,71,72,76,65,,,,,,,1.41,0.81,1.15*18
$GPGSV,5,1,17,05,40,036,26,10,05,213,,12,73,080,25,13,13,108,06*78
$GPGSV,5,2,17,15,40,138,23,18,32,290,31,20,07,033,14,23,45,210,25*76
$GPGSV,5,3,17,24,33,177,17,25,58,341,35,28,04,293,,29,14,345,25*7F
$GPGSV,5,4,17,36,52,277,,40,86,351,35,41,58,082,,49,32,274,*7A
$GPGSV,5,5,17,50,10,089,*4A
$GLGSV,3,1,09,65,24,180,14,71,14,065,10,72,38,114,12,75,42,166,12*69
$GLGSV,3,2,09,76,68,300,26,77,23,326,,86,02,017,08,87,12,336,11*6B
$GLGSV,3,3,09,88,07,280,*51
$GNGLL,0419.91698,S,05539.82338,E,064538.00,A,A*6D
$GNGRS,064538.00,1,4.4,32.5,-18.9,12.3,-24.2,-6.4,2.5,-15.0,156,,,*5F
$GNGRS,064538.00,1,-0.3,17.5,16.3,-51.8,10.5,5.7,,,,,,*52
$GNGST,064538.00,5714658,,,,5.8,6.4,15*5C
$GNZDA,064538.00,23,05,2025,00,00*75
$GNGBS,064538.00,5.8,6.4,14.9,,,,*60
b0Lt3($
IPMl2&(
 "e!-!#:U%Y{4"V_q<:R 
YwWAzGAHbX|3r$GNRMC,064541.00,A,0419.91684,S,05539.82291,E,0.218,,230525,,,A*7D
$GNVTG,,T,,M,0.218,N,0.404,K,A*36
$GNGNS,064541.00,0419.91684,S,05539.82291,E,AA,15,0.81,31.0,-47.6,,*64
$GNGGA,064541.00,0419.91684,S,05539.82291,E,1,12,0.81,31.0,M,-47.6,M,,*49
$GNGSA,A,3,24,20,05,13,15,12,18,25,23,40,,,1.41,0.81,1.15*1B
$GNGSA,A,3,75,87,71,76,65,,,,,,,,1.41,0.81,1.15*1D
$GPGSV,5,1,17,05,40,036,25,10,05,213,,12,73,080,24,13,13,108,08*74
$GPGSV,5,2,17,15,40,138,22,18,32,290,30,20,07,033,13,23,45,210,20*74
$GPGSV,5,3,17,24,33,177,15,25,58,341,37,28,04,292,,29,14,346,25*7D
$GPGSV,5,4,17,36,52,277,,40,86,351,32,41,58,082,,49,32,274,*7D
$GPGSV,5,5,17,50,10,089,*4A
$GLGSV,3,1,09,65,24,180,10,71,14,065,08,72,38,114,08,75,42,166,18*65
$GLGSV,3,2,09,76,68,300,25,77,23,326,,86,02,017,10,87,12,336,10*60
$GLGSV,3,3,09,88,07,280,*51
$GNGLL,0419.91684,S,05539.82291,E,064541.00,A,A*6C
$GNGRS,064541.00,1,3.4,33.0,-17.8,98.6,12.2,-16.1,-6.0,1.7,-16.3,154,,*41
$GNGRS,064541.00,1,-1.0,17.8,16.6,11.1,4.8,,,,,,,*62
$GNGST,064541.00,5715660,,,,6.0,6.5,15*52
$GNZDA,064541.00,23,05,2025,00,00*7B
$GNGBS,064541.00,6.0,6.5,15.0,,,,*6C
b0L(3($
IPul(
 "!-!o%:Uf$Z{4"V_#<:R 
YwAGAMH&reK*FLD,MFVW
PX
b(3rq$GNRMC,064543.00,A,0419.91698,S,05539.82260,E,0.159,,230525,,,D*7F
$GNVTG,,T,,M,0.159,N,0.294,K,D*3A
$GNGNS,064543.00,0419.91698,S,05539.82260,E,DA,13,1.00,32.6,-47.6,,0000*6B
$GNGGA,064543.00,0419.91698,S,05539.82260,E,2,12,1.00,32.6,M,-47.6,M,,0000*46
$GNGSA,A,3,24,20,05,13,15,12,18,25,23,40,,,1.67,1.00,1.34*14
$GNGSA,A,3,87,71,76,,,,,,,,,,1.67,1.00,1.34*13
$GPGSV,5,1,17,05,40,036,26,10,05,213,,12,73,080,22,13,13,108,11*79
$GPGSV,5,2,17,15,40,138,21,18,32,290,30,20,07,033,12,23,45,210,20*76
$GPGSV,5,3,17,24,33,177,16,25,58,341,37,28,04,292,,29,14,346,27*7C
$GPGSV,5,4,17,36,52,277,,40,86,351,34,41,58,082,27,49,32,274,*7E
$GPGSV,5,5,17,50,10,089,*4A
$GLGSV,3,1,09,65,24,180,07,71,14,065,09,72,38,114,08,75,42,166,09*62
$GLGSV,3,2,09,76,68,300,25,77,23,326,,86,02,017,08,87,12,336,10*69
$GLGSV,3,3,09,88,07,280,*51
$GNGLL,0419.91698,S,05539.82260,E,064543.00,A,D*68
$GNGRS,064543.00,1,6.2,19.6,-19.0,-46.4,14.1,-16.8,0.0,1.0,-15.2,154,,*46
$GNGRS,064543.00,1,-79.6,54.5,10.2,,,,,,,,,*6C
$GNGST,064543.00,1297,,,,6.1,6.5,15*6A
$GNZDA,064543.00,23,05,2025,00,00*79
$GNGBS,064543.00,6.1,6.5,15.0,,,,*6F
$GNTXT,01,01,01,More than 100 frame errors, UART RX was disabled*70
b0L3($
IPpl(%
 "!-!w':Uj$Z{4V_<:R 
YwqA
GA-H&rFK*rLD,sMFVW
PXrb3r!p$GNRMC,064545.00,A,0419.91719,S,05539.82253,E,0.381,,230525,,,D*76
$GNVTG,,T,,M,0.381,N,0.706,K,D*33
$GNGNS,064545.00,0419.91719,S,05539.82253,E,DA,14,0.77,32.9,-47.6,,0000*6C
$GNGGA,064545.00,0419.91719,S,05539.82253,E,2,12,0.77,32.9,M,-47.6,M,,0000*46
$GNGSA,A,3,24,20,05,15,12,18,25,23,40,,,,1.31,0.77,1.06*15
$GNGSA,A,3,75,87,71,76,65,,,,,,,,1.31,0.77,1.06*11
$GPGSV,5,1,17,05,40,036,26,10,05,213,,12,73,080,23,13,13,108,*78
$GPGSV,5,2,17,15,40,138,20,18,32,290,31,20,07,033,12,23,45,210,19*7C
$GPGSV,5,3,17,24,33,177,15,25,58,341,39,28,04,292,,29,14,346,25*73
$GPGSV,5,4,17,36,52,277,,40,86,351,31,41,58,082,27,49,32,274,*7B
$GPGSV,5,5,17,50,10,089,*4A
$GLGSV,3,1,09,65,24,180,10,71,14,065,09,72,38,114,08,75,42,166,15*69
$GLGSV,3,2,09,76,68,300,25,77,23,326,,86,02,017,11,87,12,336,10*61
$GLGSV,3,3,09,88,07,280,*51
$GNGLL,0419.91719,S,05539.82253,E,064545.00,A,D*66
$GNGRS,064545.00,1,6.3,32.2,-17.9,10.6,-14.2,-3.4,1.1,-15.1,154,,,*5D
$GNGRS,064545.00,1,-1.4,17.4,15.8,13.9,4.2,,,,,,,*63
$GNGST,064545.00,4500018,,,,6.2,6.3,15*5C
$GNZDA,064545.00,23,05,2025,00,00*7F
$GNGBS,064545.00,6.2,6.3,14.7,,,,*6A
$GNTXT,01,01,01,More than 100 frame errors, UART RX was disabled*70
$GNGRS,064550.00,1,6.6,32.7,-12.8,5.4,-4.7,-4.3,0.2,-15.6,153,,,*5D
$GNGRS,064550.00,1,-0.4,17.5,16.3,7.5,5.2,,,,,,,*57
$GNGST,064550.00,5715750,,,,6.5,6.3,15*53
$GNZDA,064550.00,23,05,2025,00,00*7B
$GNGBS,064550.00,6.5,6.3,14.6,,,,*68
$GNTXT,01,01,01,More than 100 frame errors, UART RX was disabled*70
b0L3($x
IP
l()
 "!-2
!3$:U$Z{4 V_;:R 
YwAG
AH&rK*LD,/MFV
WPXAb3r~1g$GNRMC,064556.00,A,0419.91881,S,05539.82217,E,0.445,,230525,,,D*75
$GNVTG,,T,,M,0.445,N,0.825,K,D*32
$GNGNS,064556.00,0419.91881,S,05539.82217,E,DA,15,0.81,36.1,-47.6,,0000*64
$GNGGA,064556.00,0419.91881,S,05539.82217,E,2,12,0.81,36.1,M,-47.6,M,,0000*4F
$GNGSA,A,3,24,20,05,15,12,18,25,23,40,,,,1.41,0.81,1.15*19
$GNGSA,A,3,75,87,71,72,76,65,,,,,,,1.41,0.81,1.15*18
$GPGSV,5,1,17,05,40,036,26,10,05,213,,12,73,080,22,13,13,108,10*78
$GPGSV,5,2,17,15,40,138,14,18,32,290,27,20,07,033,13,23,45,210,13*77
$GPGSV,5,3,17,24,33,177,10,25,58,341,36,28,04,292,,29,14,346,27*7B
$GPGSV,5,4,17,36,52,277,,40,86,351,32,41,58,082,,49,32,274,*7D
$GPGSV,5,5,17,50,10,089,*4A
$GLGSV,3,1,09,65,24,180,11,71,14,065,10,72,38,114,15,75,42,166,20*6A
$GLGSV,3,2,09,76,68,300,29,77,23,326,,86,02,017,10,87,12,336,11*6D
$GLGSV,3,3,09,88,07,280,*51
$GNGLL,0419.91881,S,05539.82217,E,064556.00,A,D*6A
$GNGRS,064556.00,1,10.7,32.2,-6.5,5.5,2.4,5.4,-0.5,-4.6,153,,,*48
$GNGRS,064556.00,1,-0.3,17.2,15.6,-101,3.0,4.9,,,,,,*41
$GNGST,064556.00,4669908,,,,6.8,6.5,15*56
$GNZDA,064556.00,23,05,2025,00,00*7D
$GNGBS,064556.00,6.8,6.5,14.6,72,,101.2,71.1*55
b0L3($
IPl(
 "!-m!S$:U$Z{4 V_;:R 
YwAGA=H&riK*LD,MFVWPXb3rf5?>$GNRMC,064557.00,A,0419.91888,S,05539.82188,E,0.758,,230525,,,D*77
$GNVTG,,T,,M,0.758,N,1.403,K,D*34
$GNGNS,064557.00,0419.91888,S,05539.82188,E,DA,15,0.81,36.2,-47.6,,0000*6A
$GNGGA,064557.00,0419.91888,S,05539.82188,E,2,12,0.81,36.2,M,-47.6,M,,0000*41
$GNGSA,A,3,24,20,05,15,12,18,25,23,40,,,,1.41,0.81,1.15*19
$GNGSA,A,3,75,87,71,72,76,65,,,,,,,1.41,0.81,1.15*18
$GPGSV,5,1,17,05,40,036,26,10,05,213,,12,73,080,21,13,13,108,08*72
$GPGSV,5,2,17,15,40,138,13,18,32,290,26,20,07,033,13,23,45,210,16*74
$GPGSV,5,3,17,24,33,177,13,25,58,341,36,28,04,292,,29,14,346,28*77
$GPGSV,5,4,17,36,52,277,,40,86,351,32,41,58,082,,49,32,274,*7D
$GPGSV,5,5,17,50,10,089,*4A
$GLGSV,3,1,09,65,24,180,15,71,14,065,11,72,38,114,16,75,42,166,18*67
$GLGSV,3,2,09,76,68,300,29,77,23,326,,86,02,017,08,87,12,336,14*61
$GLGSV,3,3,09,88,07,280,*51
$GNGLL,0419.91888,S,05539.82188,E,064557.00,A,D*67
$GNGRS,064557.00,1,11.1,32.3,-5.3,5.3,3.8,5.4,-0.5,-4.0,153,,,*47
$GNGRS,064557.00,1,-0.5,17.0,16.0,-98.8,1.6,5.2,,,,,,*68
$GNGST,064557.00,5714576,,,,6.8,6.6,15*5B
$GNZDA,064557.00,23,05,2025,00,00*7C
$GNGBS,064557.00,6.8,6.6,14.7,,,,*66
b0L3($
IPl(
 "X!-
!&:U$Z{4"V_;:R 
YwoAvGA&H&rK*LD,MFVWPXb3rAv$GNRMC,064600.00,A,0419.91878,S,05539.82176,E,0.135,,230525,,,D*75
$GNVTG,,T,,M,0.135,N,0.249,K,D*30
$GNGNS,064600.00,0419.91878,S,05539.82176,E,DA,15,0.81,36.4,-47.6,,0000*63
$GNGGA,064600.00,0419.91878,S,05539.82176,E,2,12,0.81,36.4,M,-47.6,M,,0000*48
$GNGSA,A,3,24,20,05,15,12,18,25,23,40,,,,1.41,0.81,1.15*19
$GNGSA,A,3,75,87,71,72,76,65,,,,,,,1.41,0.81,1.15*18
$GPGSV,5,1,17,05,40,036,25,10,05,213,,12,73,080,19,13,13,108,07*75
$GPGSV,5,2,17,15,40,138,18,18,32,290,26,20,07,033,11,23,45,210,11*7A
$GPGSV,5,3,17,24,33,177,10,25,58,341,38,28,04,292,,29,14,346,27*75
$GPGSV,5,4,17,36,52,277,,40,86,351,34,41,58,082,,49,32,274,*7B
$GPGSV,5,5,17,50,10,089,*4A
$GLGSV,3,1,09,65,24,180,09,71,14,065,07,72,38,114,11,75,42,166,18*6A
$GLGSV,3,2,09,76,68,300,31,77,23,326,,86,02,017,11,87,12,336,15*61
$GLGSV,3,3,09,88,07,280,*51
$GNGLL,0419.91878,S,05539.82176,E,064600.00,A,D*68
$GNGRS,064600.00,1,9.9,32.7,-2.7,4.5,7.0,3.4,-0.7,-6.2,153,,,*7F
$GNGRS,064600.00,1,-3.1,17.9,15.7,-93.4,-0.8,3.7,,,,,,*45
$GNGST,064600.00,5715532,,,,6.9,6.7,15*5B
$GNZDA,064600.00,23,05,2025,00,00*7D
$GNGBS,064600.00,6.9,6.7,14.8,,,,*68
$GNTXT,01,01,01,More than 100 frame errors, UART RX was disabled*70
b0Lx3($
IP.l(#
 "f!-
!&:U$Z{{4 V_;:R 
YwAGAB H&rK*AL D,MFVWPZXbx3rE$GNRMC,064601.00,A,0419.91873,S,05539.82180,E,0.093,,230525,,,D*7B
$GNVTG,,T,,M,0.093,N,0.173,K,D*37
$GNGNS,064601.00,0419.91873,S,05539.82180,E,DA,16,0.84,35.7,-47.6,,0000*66
$GNGGA,064601.00,0419.91873,S,05539.82180,E,2,12,0.84,35.7,M,-47.6,M,,0000*4E
$GNGSA,A,3,24,20,05,15,12,29,18,25,23,40,,,1.34,0.84,1.04*15
$GNGSA,A,3,75,87,71,72,76,65,,,,,,,1.34,0.84,1.04*1F
$GPGSV,5,1,17,05,40,036,26,10,05,213,,12,73,080,20,13,13,108,*7B
$GPGSV,5,2,17,15,40,138,20,18,32,290,27,20,07,033,15,23,45,210,12*77
$GPGSV,5,3,17,24,33,177,10,25,58,341,38,28,04,292,,29,14,346,28*7A
$GPGSV,5,4,17,36,52,277,,40,86,351,32,41,58,082,,49,32,274,*7D
$GPGSV,5,5,17,50,10,089,*4A
$GLGSV,3,1,09,65,24,180,12,71,14,065,11,72,38,114,13,75,42,166,21*6F
$GLGSV,3,2,09,76,68,300,32,77,23,326,,86,02,017,09,87,12,336,14*6A
$GLGSV,3,3,09,88,07,280,*51
$GNGLL,0419.91873,S,05539.82180,E,064601.00,A,D*6B
$GNGRS,064601.00,1,-2.6,-6.1,-3.4,2.9,8.1,6.3,3.6,-0.8,-5.6,153,,*6C
$GNGRS,064601.00,1,-4.5,-9.3,82.6,-94.8,-1.3,14.9,,,,,,*69
$GNGST,064601.00,1098,,,,6.7,6.7,14*67
$GNZDA,064601.00,23,05,2025,00,00*7C
$GNGBS,064601.00,6.7,6.7,13.9,,,,*61
$GNTXT,01,01,01,More than 100 frame errors, UART RX was disabled*70
b0L`3($0
IPl(
 "!c-!'%:U$Z{4V_;:R 
Y
w`AG
AH&rK*/LD,MFVWPXFb`3rHvC$GNRMC,064602.00,A,0419.91868,S,05539.82188,E,0.207,,230525,,,D*75
$GNVTG,,T,,M,0.207,N,0.384,K,D*32
$GNGNS,064602.00,0419.91868,S,05539.82188,E,DA,16,0.79,34.8,-47.6,,0000*6B
$GNGGA,064602.00,0419.91868,S,05539.82188,E,2,12,0.79,34.8,M,-47.6,M,,0000*43
$GNGSA,A,3,24,20,05,15,12,29,18,25,23,40,,,1.33,0.79,1.07*13
$GNGSA,A,3,75,87,71,72,76,65,,,,,,,1.33,0.79,1.07*19
$GPGSV,5,1,17,05,40,036,26,10,05,213,,12,73,080,20,13,13,108,*7B
$GPGSV,5,2,17,15,40,138,21,18,32,290,27,20,07,033,15,23,45,210,17*73
$GPGSV,5,3,17,24,33,177,18,25,58,341,37,28,04,292,,29,14,346,27*72
$GPGSV,5,4,17,36,52,277,,40,86,351,31,41,58,082,,49,32,274,*7E
$GPGSV,5,5,17,50,10,089,*4A
$GLGSV,3,1,09,65,24,180,11,71,14,065,10,72,38,114,12,75,42,166,22*6F
$GLGSV,3,2,09,76,68,300,31,77,23,326,,86,02,017,11,87,12,336,11*65
$GLGSV,3,3,09,88,07,280,*51
$GNGLL,0419.91868,S,05539.82188,E,064602.00,A,D*6A
$GNGRS,064602.00,1,10.6,31.7,-4.6,2.0,7.0,7.1,2.5,-1.0,-5.1,153,,*63
$GNGRS,064602.00,1,-4.6,16.9,14.9,-95.0,-3.5,4.6,,,,,,*43
$GNGST,064602.00,4500018,,,,6.6,6.6,14*5C
$GNZDA,064602.00,23,05,2025,00,00*7F
$GNGBS,064602.00,6.6,6.6,13.5,,,,*6E
b0LH3($
IPl(
 "!-
!%:U$ZI{4 V_;:R 
YwA^GAXH&rK*LD,MFVWPVX}bH3rLN$GNRMC,064603.00,A,0419.91879,S,05539.82209,E,0.206,,230525,,,D*7F
$GNVTG,,T,,M,0.206,N,0.381,K,D*36
$GNGNS,064603.00,0419.91879,S,05539.82209,E,DA,16,0.75,33.4,-47.6,,0000*67
$GNGGA,064603.00,0419.91879,S,05539.82209,E,2,12,0.75,33.4,M,-47.6,M,,0000*4F
$GNGSA,A,3,24,20,05,15,12,29,18,25,23,40,,,1.24,0.75,0.99*1F
$GNGSA,A,3,75,87,71,72,76,65,,,,,,,1.24,0.75,0.99*15
$GPGSV,5,1,17,05,40,036,25,10,05,213,,12,73,080,21,13,13,108,*79
$GPGSV,5,2,17,15,40,138,20,18,32,290,27,20,07,033,14,23,45,210,18*7C
$GPGSV,5,3,17,24,33,177,10,25,58,341,37,28,04,292,,29,14,346,26*7B
$GPGSV,5,4,17,36,52,277,,40,86,351,32,41,58,082,,49,32,274,*7D
b0L3($
IPl(
 "I!g-1!A&:U$Z{4 V_;:R 
Y
wAGAH&r$K*GLD,MFV
WPX8b3rX$GNRMC,064606.00,A,0419.91904,S,05539.82211,E,0.119,,230525,,,D*75
b0L3($
IP|l(
 "
!-v!^&:U$Z{4V_;:R 
Yw*AGAH&r(K*LD,>MFVWPX8b3r.h5t$GNRMC,064610.00,A,0419.91916,S,05539.82168,E,0.155,,230525,,,D*74
$GNVTG,,T,,M,0.155,N,0.287,K,D*34
$GNGNS,064610.00,0419.91916,S,05539.82168,E,DA,16,0.79,30.7,-47.6,,0000*65
$GNGGA,064610.00,0419.91916,S,05539.82168,E,2,12,0.79,30.7,M,-47.6,M,,0000*4D
$GNGSA,A,3,24,20,05,15,12,29,18,25,23,40,,,1.30,0.79,1.04*13
$GNGSA,A,3,75,87,71,72,76,65,,,,,,,1.30,0.79,1.04*19
$GPGSV,5,1,17,05,40,036,25,10,05,213,,12,73,080,25,13,13,108,*7D
b0LX3($
IPl(
 "!-O!_':U$Z>{4!V_<:R 
Yw
AG@<H&qK*\LD,
MFVWPCXebX3rs$GNRMC,064613.00,A,0419.91908,S,05539.82144,E,0.098,,230525,,,D*76
$GNVTG,,T,,M,0.098,N,0.181,K,D*31
$GNGNS,064613.00,0419.91908,S,05539.82144,E,DA,14,0.87,30.0,-47.6,,0000*63
$GNGGA,064613.00,0419.91908,S,05539.82144,E,2,12,0.87,30.0,M,-47.6,M,,0000*49
$GNGSA,A,3,20,05,15,12,29,18,25,23,40,,,,1.51,0.87,1.23*16
$GNGSA,A,3,75,87,71,72,76,,,,,,,,1.51,0.87,1.23*19
$GPGSV,5,1,17,05,40,036,27,10,05,213,,12,73,080,29,13,13,108,*73
$GPGSV,5,2,17,15,40,138,24,18,32,290,27,20,07,033,11,23,45,210,20*76
$GPGSV,5,3,17,24,33,177,09,25,58,341,39,28,04,292,,29,14,346,27*7C
$GPGSV,5,4,17,36,52,277,,40,86,351,33,41,58,082,26,49,32,274,*78
$GPGSV,5,5,17,50,10,089,*4A
$GLGSV,3,1,09,65,25,180,09,71,14,064,14,72,38,113,16,75,42,166,17*67
$GLGSV,3,2,09,76,68,300,31,77,23,326,,86,02,017,12,87,12,336,13*64
$GLGSV,3,3,09,88,07,280,*51
$GNGLL,0419.91908,S,05539.82144,E,064613.00,A,D*6D
$GNGRS,064613.00,1,10.0,-3.5,-6.1,-0.2,5.7,0.2,-0.6,0.8,154,,,*5A
$GNGRS,064613.00,1,-9.3,-130,10.8,6.9,5.2,,,,,,,*5F
$GNGST,064613.00,1138,,,,6.1,6.3,11*68
$GNZDA,064613.00,23,05,2025,00,00*7F
$GNGBS,064613.00,6.1,6.3,11.5,,,,*6E
b0L@3($
 IPll(
 "!-!':U$ZD{4#V_<:R 
YwUAG@LH&q9K*xL!D,MFVWPXb@3rw$GNRMC,064614.00,A,0419.91897,S,05539.82132,E,0.123,,230525,,,D*76
$GNVTG,,T,,M,0.123,N,0.228,K,D*30
$GNGNS,064614.00,0419.91897,S,05539.82132,E,DA,15,0.78,30.3,-47.6,,0000*60
$GNGGA,064614.00,0419.91897,S,05539.82132,E,2,12,0.78,30.3,M,-47.6,M,,0000*4B
$GNGSA,A,3,20,05,15,12,29,18,25,23,40,,,,1.34,0.78,1.09*1D
$GNGSA,A,3,75,87,71,72,76,65,,,,,,,1.34,0.78,1.09*11
$GPGSV,5,1,17,05,40,036,26,10,05,213,,12,73,080,32,13,13,108,*78
$GPGSV,5,2,17,15,40,138,25,18,32,290,27,20,07,033,12,23,45,210,19*7E
$GPGSV,5,3,17,24,33,177,08,25,58,341,39,28,04,292,,29,14,346,28*72
$GPGSV,5,4,17,36,52,277,,40,86,351,35,41,58,082,,49,32,274,*7A
$GPGSV,5,5,17,50,10,089,*4A
$GLGSV,3,1,09,65,25,180,12,71,14,064,16,72,38,113,20,75,42,166,19*64
$GLGSV,3,2,09,76,68,300,33,77,23,326,,86,02,017,11,87,12,336,16*60
$GLGSV,3,3,09,88,07,280,*51
$GNGLL,0419.91897,S,05539.82132,E,064614.00,A,D*6C
$GNGRS,064614.00,1,33.0,-5.2,-5.7,1.1,5.8,-0.4,-1.0,0.1,154,,,*5D
$GNGRS,064614.00,1,-9.0,17.6,16.1,3.1,4.1,4.7,,,,,,*77
$GNGST,064614.00,75170,,,,6.0,6.2,11*50
$GNZDA,064614.00,23,05,2025,00,00*78
$GNGBS,064614.00,6.0,6.2,11.2,,,,*6E
$GNTXT,01,01,01,More than 100 frame errors, UART RX was disabled*70
$GNTXT,01,01,01,More than 100 frame errors, UART RX was disabled*70
b0L4($u
IPl(
 "!-!:':Ut$Z{4$V_g<:R 
YwdA6G@H&qK)LL E*MEVWPXb4rn$GNRMC,064618.00,A,0419.91900,S,05539.82094,E,0.078,,230525,,,D*77
$GNVTG,,T,,M,0.078,N,0.145,K,D*37
$GNGNS,064618.00,0419.91900,S,05539.82094,E,DA,16,0.75,29.0,-47.6,,0000*6B
$GNGGA,064618.00,0419.91900,S,05539.82094,E,2,12,0.75,29.0,M,-47.6,M,,0000*43
$GNGSA,A,3,24,20,05,15,12,29,18,25,23,40,,,1.31,0.75,1.07*1D
$GNGSA,A,3,75,87,71,72,76,65,,,,,,,1.31,0.75,1.07*17
$GPGSV,5,1,17,05,40,036,27,10,05,213,,12,73,080,30,13,13,108,*7B
$GPGSV,5,2,17,15,40,138,24,18,32,290,28,20,07,033,12,23,45,210,24*7E
$GPGSV,5,3,17,24,33,177,15,25,58,341,39,28,04,292,,29,14,346,26*70
$GPGSV,5,4,17,36,52,277,,40,86,351,36,41,58,082,27,49,32,274,*7C
$GPGSV,5,5,17,50,10,089,*4A
$GLGSV,3,1,09,65,25,180,17,71,14,064,13,72,38,113,19,75,41,166,17*63
$GLGSV,3,2,09,76,69,298,32,77,23,325,,86,02,017,08,87,12,336,09*65
$GLGSV,3,3,09,88,07,280,*51
$GNGLL,0419.91900,S,05539.82094,E,064618.00,A,D*62
$GNGRS,064618.00,1,13.4,32.0,-4.0,-0.6,-5.7,6.9,-3.7,-1.4,-0.9,155,,*42
$GNGRS,064618.00,1,-4.4,16.7,16.7,1.8,2.6,3.1,,,,,,*7F
$GNGST,064618.00,3071473,,,,5.4,5.8,10*52
$GNZDA,064618.00,23,05,2025,00,00*74
$GNGBS,064618.00,5.4,5.8,10.3,,,,*6C
b0L4($P
IPl](
 "W
!0-K!U':U|$Z
{4$V_l<:R 
YwASG@H&qK)nL E*:MEVW
PX7mb4rV$GNRMC,064619.00,A,0419.91890,S,05539.82090,E,0.179,,230525,,,D*7A
$GNVTG,,T,,M,0.179,N,0.331,K,D*36
$GNGNS,064619.00,0419.91890,S,05539.82090,E,DA,16,0.75,28.7,-47.6,,0000*60
$GNGGA,064619.00,0419.91890,S,05539.82090,E,2,12,0.75,28.7,M,-47.6,M,,0000*48
$GNGSA,A,3,24,20,05,15,12,29,18,25,23,40,,,1.31,0.75,1.07*1D
$GNGSA,A,3,75,87,71,72,76,65,,,,,,,1.31,0.75,1.07*17
$GPGSV,5,1,17,05,40,036,28,10,05,213,,12,73,080,30,13,13,108,18*7D
$GPGSV,5,2,17,15,40,138,26,18,32,290,29,20,07,033,10,23,45,210,25*7E
$GPGSV,5,3,17,24,33,177,14,25,58,341,39,28,04,292,,29,14,346,27*70
$GPGSV,5,4,17,36,52,277,,40,86,351,36,41,58,082,27,49,32,274,*7C
$GPGSV,5,5,17,50,10,089,*4A
$GLGSV,3,1,09,65,25,180,16,71,14,064,15,72,38,113,19,75,41,166,16*65
$GLGSV,3,2,09,76,69,298,32,77,23,325,,86,02,017,11,87,12,336,10*65
$GLGSV,3,3,09,88,07,280,*51
$GNGLL,0419.91890,S,05539.82090,E,064619.00,A,D*6F
$GNGRS,064619.00,1,11.1,-22.6,-1.8,-0.3,-10.0,7.8,-4.2,-1.3,0.8,155,,*7C
$GNGRS,064619.00,1,-4.0,7.1,15.2,1.7,3.1,3.4,,,,,,*46
$GNGST,064619.00,1060,,,,5.3,5.6,10*68
$GNZDA,064619.00,23,05,2025,00,00*75
$GNGBS,064619.00,5.3,5.6,10.0,,,,*67
$GNTXT,01,01,01,More than 100 frame errors, UART RX was disabled*70
b0L4($N
IP(l(
 "!-!x':Uw$Z{4#V_<:R 
Yw2AG@UH&qK)L E*]MEVW
PXwRb4r>$GNRMC,064620.00,A,0419.91892,S,05539.82095,E,0.088,,230525,,,D*78
$GNVTG,,T,,M,0.088,N,0.163,K,D*3C
$GNGNS,064620.00,0419.91892,S,05539.82095,E,DA,16,0.75,28.1,-47.6,,0000*6B
$GNGGA,064620.00,0419.91892,S,05539.82095,E,2,12,0.75,28.1,M,-47.6,M,,0000*43
$GNGSA,A,3,24,20,05,15,12,29,18,25,23,40,,,1.31,0.75,1.07*1D
$GNGSA,A,3,75,87,71,72,76,65,,,,,,,1.31,0.75,1.07*17
$GPGSV,5,1,17,05,40,036,28,10,05,213,,12,73,080,31,13,13,108,17*73
$GPGSV,5,2,17,15,40,138,26,18,32,290,29,20,07,033,11,23,45,210,25*7F
$GPGSV,5,3,17,24,33,177,13,25,58,341,39,28,04,292,,29,14,346,27*77
$GPGSV,5,4,17,36,52,277,,40,86,351,35,41,58,082,,49,32,274,*7A
$GPGSV,5,5,17,50,10,089,*4A
$GLGSV,3,1,09,65,25,180,15,71,14,064,15,72,38,113,19,75,41,166,17*67
$GLGSV,3,2,09,76,69,298,32,77,23,325,,86,02,017,08,87,12,336,10*6D
$GLGSV,3,3,09,88,07,280,*51
$GNGLL,0419.91892,S,05539.82095,E,064620.00,A,D*62
$GNGRS,064620.00,1,6.3,32.3,0.8,2.4,-7.3,6.9,-5.8,-1.4,1.6,155,,*59
$GNGRS,064620.00,1,-4.9,17.2,16.2,2.8,3.5,2.9,,,,,,*70
$GNGST,064620.00,95989,,,,5.2,5.5,9.8*7D
$GNZDA,064620.00,23,05,2025,00,00*7F
$GNGBS,064620.00,5.2,5.5,9.8,,,,*5F
$GNTXT,01,01,01,More than 100 frame errors, UART RX was disabled*70
b0L4($
IPl"(
 "p!-!':U$Z{4#V_<:R 
Y
wBAG@H&qK)L E*uMEVWPX|b4r&|$GNRMC,064621.00,A,0419.91891,S,05539.82100,E,0.036,,230525,,,D*72
$GNVTG,,T,,M,0.036,N,0.066,K,D*3D
$GNGNS,064621.00,0419.91891,S,05539.82100,E,DA,16,0.75,27.7,-47.6,,0000*6D
$GNGGA,064621.00,0419.91891,S,05539.82100,E,2,12,0.75,27.7,M,-47.6,M,,0000*45
$GNGSA,A,3,24,20,05,15,12,29,18,25,23,40,,,1.31,0.75,1.07*1D
$GNGSA,A,3,75,87,71,72,76,65,,,,,,,1.31,0.75,1.07*17
$GPGSV,5,1,17,05,40,036,28,10,05,213,,12,73,080,31,13,13,108,17*73
$GPGSV,5,2,17,15,40,138,26,18,32,290,29,20,07,033,09,23,45,210,25*76
$GPGSV,5,3,17,24,33,177,17,25,58,341,39,28,04,292,,29,14,346,26*72
$GPGSV,5,4,17,36,52,277,,40,86,351,35,41,58,082,,49,32,274,*7A
$GPGSV,5,5,17,50,10,089,*4A
$GLGSV,3,1,09,65,25,180,15,71,14,064,15,72,38,113,19,75,41,166,18*68
$GLGSV,3,2,09,76,69,298,32,77,23,325,,86,02,017,09,87,12,336,09*64
$GLGSV,3,3,09,88,07,280,*51
$GNGLL,0419.91891,S,05539.82100,E,064621.00,A,D*6D
$GNGRS,064621.00,1,7.6,32.2,2.5,-0.2,-6.0,4.6,-6.6,-1.2,1.7,155,,*7E
$GNGRS,064621.00,1,-5.1,17.1,17.6,2.7,3.7,2.4,,,,,,*7E
$GNGST,064621.00,142431,,,,5.1,5.4,9.7*44
$GNZDA,064621.00,23,05,2025,00,00*7E
$GNGBS,064621.00,5.1,5.4,9.7,,,,*53
$GNTXT,01,01,01,More than 100 frame errors, UART RX was disabled*70
b0L4($
IPml(8
 "!-!':U$Z{4#V_<:R 
YwAG@H&qK)/L E*ZMEVW
PIX!Bb4rTP$GNRMC,064622.00,A,0419.91891,S,05539.82099,E,0.140,,230525,,,D*70
$GNVTG,,T,,M,0.140,N,0.259,K,D*33
$GNGNS,064622.00,0419.91891,S,05539.82099,E,DA,16,0.78,27.3,-47.6,,0000*66
$GNGGA,064622.00,0419.91891,S,05539.82099,E,2,12,0.78,27.3,M,-47.6,M,,0000*4E
$GNGSA,A,3,24,20,05,15,12,29,18,25,23,40,,,1.41,0.78,1.18*19
$GNGSA,A,3,75,87,71,72,76,65,,,,,,,1.41,0.78,1.18*13
$GPGSV,5,1,17,05,40,036,27,10,05,213,,12,73,080,31,13,13,108,17*7C
$GPGSV,5,2,17,15,40,138,26,18,32,290,28,20,07,033,11,23,45,210,26*7D
$GPGSV,5,3,17,24,33,177,18,25,58,341,39,28,04,292,,29,14,346,27*7C
$GPGSV,5,4,17,36,52,277,,40,86,351,35,41,58,082,,49,32,274,*7A
$GPGSV,5,5,17,50,10,089,*4A
$GLGSV,3,1,09,65,25,180,14,71,14,064,14,72,38,113,18,75,41,166,19*68
$GLGSV,3,2,09,76,69,298,32,77,23,325,,86,02,017,11,87,12,336,10*65
$GLGSV,3,3,09,88,07,280,*51
$GNGLL,0419.91891,S,05539.82099,E,064622.00,A,D*6F
$GNGRS,064622.00,1,9.0,-30.6,-1.2,0.6,-9.1,5.2,-4.8,-1.2,2.3,155,,*5E
$GNGRS,064622.00,1,-4.6,21.2,17.0,2.9,3.5,2.3,,,,,,*70
$GNGST,064622.00,1096,,,,5.0,5.3,9.5*4C
$GNZDA,064622.00,23,05,2025,00,00*7D
$GNGBS,064622.00,5.0,5.3,9.5,,,,*54
$GNTXT,01,01,01,More than 100 frame errors, UART RX was disabled*70
$GNTXT,01,01,01,More than 100 frame errors, UART RX was disabled*70
b0LP$4($
IPl@(
 "!-N!':U$Z0{4$V_<:R 
Yw,A
G@H&qK)L!E*QMEV
W
PX]tbP$4r$GNRMC,064624.00,A,0419.91904,S,05539.82099,E,0.021,,230525,,,D*7D
$GNVTG,,T,,M,0.021,N,0.040,K,D*3F
$GNGNS,064624.00,0419.91904,S,05539.82099,E,DA,17,0.71,26.7,-47.6,,0000*60
$GNGGA,064624.00,0419.91904,S,05539.82099,E,2,12,0.71,26.7,M,-47.6,M,,0000*49
$GNGSA,A,3,24,20,05,13,15,12,29,18,25,23,40,,1.24,0.71,1.02*1A
$GNGSA,A,3,75,87,71,72,76,65,,,,,,,1.24,0.71,1.02*12
$GPGSV,5,1,17,05,40,036,27,10,05,213,,12,73,080,30,13,13,108,16*7C
$GPGSV,5,2,17,15,40,138,25,18,32,290,26,20,07,033,14,23,45,210,25*76
$GPGSV,5,3,17,24,33,177,21,25,58,341,39,28,04,292,,29,14,346,25*74
$GPGSV,5,4,17,36,52,277,,40,86,351,36,41,58,082,,49,32,274,*79
$GPGSV,5,5,17,50,10,089,*4A
$GLGSV,3,1,09,65,25,180,10,71,14,064,12,72,38,113,20,75,41,166,20*6B
$GLGSV,3,2,09,76,69,298,33,77,23,325,,86,02,017,10,87,12,336,10*65
$GLGSV,3,3,09,88,07,280,*51
$GNGLL,0419.91904,S,05539.82099,E,064624.00,A,D*64
$GNGRS,064624.00,1,5.4,32.6,1.5,5.8,1.4,-8.0,3.0,-2.6,-1.3,3.3,155,*79
$GNGRS,064624.00,1,-2.7,16.9,14.7,1.5,3.4,6.8,,,,,,*7B
$GNGST,064624.00,62965,,,,4.7,5.2,9.2*7A
$GNZDA,064624.00,23,05,2025,00,00*7B
$GNGBS,064624.00,4.7,5.2,9.2,,,,*52
$GNTXT,01,01,01,More than 100 frame errors, UART RX was disabled*70
b0L8(4($'
IPlz(e
 "i!0-!v':U$Z{4$V_<:R 
YwABG@MH&qxK)L E*gMEV
WP?Xb8(4r$GNRMC,064625.00,A,0419.91914,S,05539.82099,E,0.069,,230525,,,D*71
$GNVTG,,T,,M,0.069,N,0.128,K,D*3C
$GNGNS,064625.00,0419.91914,S,05539.82099,E,DA,17,0.73,26.3,-47.6,,0000*66
$GNGGA,064625.00,0419.91914,S,05539.82099,E,2,12,0.73,26.3,M,-47.6,M,,0000*4F
$GNGSA,A,3,24,20,05,13,15,12,29,18,25,23,40,,1.27,0.73,1.04*1D
$GNGSA,A,3,75,87,71,72,76,65,,,,,,,1.27,0.73,1.04*15
$GPGSV,5,1,17,05,40,036,28,10,05,213,,12,73,080,29,13,13,108,14*79
$GPGSV,5,2,17,15,40,138,25,18,32,290,26,20,07,033,13,23,45,210,24*70
$GPGSV,5,3,17,24,33,177,22,25,58,341,39,28,04,292,,29,14,346,25*77
$GPGSV,5,4,17,36,52,277,,40,86,351,36,41,58,082,,49,32,274,*79
$GPGSV,5,5,17,50,10,089,*4A
$GLGSV,3,1,09,65,25,180,11,71,14,064,14,72,38,113,20,75,41,166,19*66
$GLGSV,3,2,09,76,69,298,32,77,23,325,,86,02,017,10,87,12,336,08*6D
$GLGSV,3,3,09,88,07,280,*51
$GNGLL,0419.91914,S,05539.82099,E,064625.00,A,D*64
$GNGRS,064625.00,1,6.3,-12.3,0.4,3.8,1.0,-7.8,2.7,-4.1,-1.2,4.8,155,*59
$GNGRS,064625.00,1,-1.0,163,13.6,1.2,3.6,8.3,,,,,,*5C
$GNGST,064625.00,1026,,,,4.6,5.1,9.1*41
$GNZDA,064625.00,23,05,2025,00,00*7A
$GNGBS,064625.00,4.6,5.1,9.1,,,,*52
$GNTXT,01,01,01,More than 100 frame errors, UART RX was disabled*70
b0L ,4($#
IP:l(,
 "!-]!':U$Zo{4#V_<:R 
YwASG@OH&qK)L E*xMEVWPXb ,4r$GNRMC,064626.00,A,0419.91920,S,05539.82094,E,0.118,,230525,,,D*7F
$GNVTG,,T,,M,0.118,N,0.219,K,D*3A
$GNGNS,064626.00,0419.91920,S,05539.82094,E,DA,17,0.71,26.0,-47.6,,0000*6E
$GNGGA,064626.00,0419.91920,S,05539.82094,E,2,12,0.71,26.0,M,-47.6,M,,0000*47
$GNGSA,A,3,24,20,05,13,15,12,29,18,25,23,40,,1.24,0.71,1.02*1A
$GNGSA,A,3,75,87,71,72,76,65,,,,,,,1.24,0.71,1.02*12
$GPGSV,5,1,17,05,40,036,28,10,05,213,,12,73,080,30,13,13,108,13*76
$GPGSV,5,2,17,15,40,138,26,18,32,290,27,20,07,033,12,23,45,210,22*75
$GPGSV,5,3,17,24,33,177,21,25,58,341,39,28,04,292,,29,14,346,26*77
$GPGSV,5,4,17,36,52,277,,40,86,351,35,41,58,082,,49,32,274,*7A
$GPGSV,5,5,17,50,10,089,*4A
$GLGSV,3,1,09,65,25,180,11,71,14,064,12,72,38,113,21,75,41,166,18*60
$GLGSV,3,2,09,76,69,298,32,77,23,325,,86,02,017,08,87,12,336,08*64
$GLGSV,3,3,09,88,07,280,*51
$GNGLL,0419.91920,S,05539.82094,E,064626.00,A,D*6D
$GNGRS,064626.00,1,4.8,32.7,0.3,5.3,3.0,-12.2,1.1,-7.8,-1.1,3.5,156,*4B
$GNGRS,064626.00,1,0.2,17.3,13.6,0.0,3.8,6.0,,,,,,*5E
$GNGST,064626.00,75015,,,,4.5,5.0,9.0*72
$GNZDA,064626.00,23,05,2025,00,00*79
$GNGBS,064626.00,4.5,5.0,9.0,,,,*52
$GNTXT,01,01,01,More than 100 frame errors, UART RX was disabled*70
b0L04($
IPld(
 "i!-F!o':U$Z{4#V_<:R 
YwKAG@cH&qK)L E*wMEVWQXb04rU$GNRMC,064627.00,A,0419.91920,S,05539.82093,E,0.119,,230525,,,D*78
$GNVTG,,T,,M,0.119,N,0.221,K,D*30
$GNGNS,064627.00,0419.91920,S,05539.82093,E,DA,17,0.71,26.0,-47.6,,0000*68
$GNGGA,064627.00,0419.91920,S,05539.82093,E,2,12,0.71,26.0,M,-47.6,M,,0000*41
$GNGSA,A,3,24,20,05,13,15,12,29,18,25,23,40,,1.24,0.71,1.02*1A
$GNGSA,A,3,75,87,71,72,76,65,,,,,,,1.24,0.71,1.02*12
$GPGSV,5,1,17,05,40,036,26,10,05,213,,12,73,080,30,13,13,108,15*7E
$GPGSV,5,2,17,15,40,138,26,18,32,290,26,20,07,033,12,23,45,210,22*74
$GPGSV,5,3,17,24,33,177,19,25,58,341,39,28,04,292,,29,14,346,27*7D
$GPGSV,5,4,17,36,52,277,,40,86,351,35,41,58,082,29,49,32,274,*71
$GPGSV,5,5,17,50,10,089,*4A
$GLGSV,3,1,09,65,25,180,13,71,14,064,12,72,38,113,21,75,41,166,18*62
$GLGSV,3,2,09,76,69,298,32,77,23,325,,86,02,017,07,87,12,337,11*62
$GLGSV,3,3,09,88,07,280,*51
$GNGLL,0419.91920,S,05539.82093,E,064627.00,A,D*6B
$GNGRS,064627.00,1,1.1,32.5,2.8,3.6,2.5,-10.8,-0.8,-9.2,-1.2,5.8,155,*68
$GNGRS,064627.00,1,-0.2,17.2,13.8,-0.4,3.8,-0.2,,,,,,*7D
$GNGST,064627.00,75090,,,,4.5,5.0,8.8*77
$GNZDA,064627.00,23,05,2025,00,00*78
$GNGBS,064627.00,4.5,5.0,8.8,,,,*5A
$GNTXT,01,01,01,More than 100 frame errors, UART RX was disabled*70
b0L34($
IPlc(
 "v!-#!':U$Z_{4"V_<:R 
YwAG
@lH&qK)eL E*gMEVWQXZBb34r~b$GNRMC,064628.00,A,0419.91921,S,05539.82094,E,0.117,,230525,,,D*7F
$GNVTG,,T,,M,0.117,N,0.216,K,D*3A
$GNGNS,064628.00,0419.91921,S,05539.82094,E,DA,17,0.74,26.0,-47.6,,0000*64
$GNGGA,064628.00,0419.91921,S,05539.82094,E,2,12,0.74,26.0,M,-47.6,M,,0000*4D
$GNGSA,A,3,24,20,05,13,15,12,29,18,25,23,40,,1.29,0.74,1.06*16
$GNGSA,A,3,75,87,71,72,76,65,,,,,,,1.29,0.74,1.06*1E
$GPGSV,5,1,17,05,40,036,26,10,05,213,,12,73,080,30,13,13,108,16*7D
$GPGSV,5,2,17,15,40,138,26,18,32,290,26,20,07,033,11,23,45,210,22*77
$GPGSV,5,3,17,24,33,177,20,25,58,341,39,28,04,292,,29,14,346,26*76
$GPGSV,5,4,17,36,52,277,,40,86,351,34,41,58,082,29,49,32,274,*70
$GPGSV,5,5,17,50,10,089,*4A
$GLGSV,3,1,09,65,25,180,15,71,14,064,10,72,38,113,21,75,41,166,17*69
$GLGSV,3,2,09,76,69,298,32,77,23,325,,86,02,017,07,87,12,337,12*61
$GLGSV,3,3,09,88,06,281,*51
$GNGLL,0419.91921,S,05539.82094,E,064628.00,A,D*62
$GNGRS,064628.00,1,1.7,-57.1,2.7,3.5,4.4,-8.2,-1.6,-9.1,-1.0,8.0,155,*78
$GNGRS,064628.00,1,-1.5,-82.7,6.2,-0.3,3.6,-2.6,,,,,,*61
$GNGST,064628.00,1026,,,,4.4,5.0,8.7*48
$GNZDA,064628.00,23,05,2025,00,00*77
$GNGBS,064628.00,4.4,5.0,8.7,,,,*5B
$GNTXT,01,01,01,More than 100 frame errors, UART RX was disabled*70
b0LC4($
IPl(
 "!-!u(:U$Z{4$V_<:R 
YwAG
@H&qPK)L E*:MEVWQXRbC4rN$GNRMC,064632.00,A,0419.91954,S,05539.82110,E,0.136,,230525,,,D*78
$GNVTG,,T,,M,0.136,N,0.252,K,D*39
$GNGNS,064632.00,0419.91954,S,05539.82110,E,DA,15,0.75,25.5,-47.6,,0000*65
$GNGGA,064632.00,0419.91954,S,05539.82110,E,2,12,0.75,25.5,M,-47.6,M,,0000*4E
$GNGSA,A,3,24,05,15,12,29,18,25,23,40,,,,1.31,0.75,1.07*1F
$GNGSA,A,3,75,87,71,72,76,65,,,,,,,1.31,0.75,1.07*17
$GPGSV,5,1,17,05,40,036,25,10,05,213,,12,73,080,30,13,13,108,09*70
$GPGSV,5,2,17,15,40,138,28,18,32,290,27,20,07,033,07,23,45,210,25*78
$GPGSV,5,3,17,24,33,177,21,25,58,341,40,28,04,292,,29,14,346,27*78
$GPGSV,5,4,17,36,52,277,,40,86,351,36,41,58,082,29,49,32,274,*72
$GPGSV,5,5,17,50,10,089,*4A
$GLGSV,3,1,09,65,25,180,11,71,14,064,10,72,38,113,20,75,41,166,16*6D
$GLGSV,3,2,09,76,69,298,32,77,23,325,,86,02,017,07,87,12,337,11*62
$GLGSV,3,3,09,88,06,281,*51
$GNGLL,0419.91954,S,05539.82110,E,064632.00,A,D*66
$GNGRS,064632.00,1,-1.4,6.6,4.9,-3.4,-1.2,-5.7,-1.1,10.0,155,,,*76
$GNGRS,064632.00,1,4.6,17.5,15.5,-1.8,3.1,-7.8,,,,,,*51
$GNGST,064632.00,3073726,,,,4.2,4.8,8.4*7E
$GNZDA,064632.00,23,05,2025,00,00*7C
$GNGBS,064632.00,4.2,4.8,8.4,,,,*5C
$GNTXT,01,01,01,More than 100 frame errors, UART RX was disabled*70
b0LxG4($0
IPl($
 "z
!-!(:U$Zt{4$V_<:R 
Y
w]A1G@H&qK))L E*)MEV
W
QX8IbxG4r$GNRMC,064633.00,A,0419.91961,S,05539.82115,E,0.056,,230525,,,D*7D
$GNVTG,,T,,M,0.056,N,0.104,K,D*3E
$GNGNS,064633.00,0419.91961,S,05539.82115,E,DA,17,0.71,25.5,-47.6,,0000*61
$GNGGA,064633.00,0419.91961,S,05539.82115,E,2,12,0.71,25.5,M,-47.6,M,,0000*48
$GNGSA,A,3,24,20,05,13,15,12,29,18,25,23,40,,1.24,0.71,1.02*1A
$GNGSA,A,3,75,87,71,72,76,65,,,,,,,1.24,0.71,1.02*12
$GPGSV,5,1,17,05,40,036,25,10,05,213,,12,73,080,29,13,13,108,13*73
$GPGSV,5,2,17,15,40,138,27,18,32,290,27,20,07,033,10,23,45,210,25*71
$GPGSV,5,3,17,24,33,177,23,25,58,341,40,28,04,292,,29,14,346,26*7B
$GPGSV,5,4,17,36,52,277,,40,86,351,36,41,58,082,28,49,32,274,*73
$GPGSV,5,5,17,50,10,089,*4A
$GLGSV,3,1,09,65,25,180,11,71,14,064,11,72,38,113,20,75,41,166,17*6D
$GLGSV,3,2,09,76,69,298,32,77,23,325,,86,02,017,10,87,12,337,10*65
$GLGSV,3,3,09,88,06,281,*51
$GNGLL,0419.91961,S,05539.82115,E,064633.00,A,D*64
$GNGRS,064633.00,1,-4.9,40.4,5.6,10.0,5.5,-3.3,-1.4,-6.5,-0.9,10.0,155,*79
$GNGRS,064633.00,1,5.5,17.3,15.3,-0.9,3.0,-7.2,,,,,,*59
$GNGST,064633.00,2979619,,,,4.1,4.8,8.3*74
$GNZDA,064633.00,23,05,2025,00,00*7D
$GNGBS,064633.00,4.1,4.8,8.3,,,,*59
b0L`K4($
IPP
l(
 "Z!-|!(:U$Z/{4#V_<:R 
Yw6AG
@H&q^K)LE*MEVWQXlb`K4rq$GNRMC,064634.00,A,0419.91967,S,05539.82119,E,0.054,,230525,,,D*72
$GNVTG,,T,,M,0.054,N,0.101,K,D*39
$GNGNS,064634.00,0419.91967,S,05539.82119,E,DA,17,0.69,25.6,-47.6,,0000*66
$GNGGA,064634.00,0419.91967,S,05539.82119,E,2,12,0.69,25.6,M,-47.6,M,,0000*4F
$GNGSA,A,3,24,20,05,13,15,12,29,18,25,23,40,,1.20,0.69,0.98*15
$GNGSA,A,3,75,87,71,72,76,65,,,,,,,1.20,0.69,0.98*1D
$GPGSV,5,1,17,05,40,036,23,10,05,213,,12,73,080,29,13,13,108,10*76
$GPGSV,5,2,17,15,40,138,27,18,32,290,27,20,07,033,11,23,45,210,24*71
$GPGSV,5,3,17,24,33,177,22,25,58,341,40,28,04,292,,29,14,346,26*7A
$GPGSV,5,4,17,36,52,277,,40,86,351,35,41,58,082,28,49,32,274,*70
$GPGSV,5,5,17,50,10,089,*4A
$GLGSV,3,1,09,65,25,180,12,71,14,064,10,72,38,113,20,75,41,166,17*6F
