b0Lx;6'#2
IU`j]((
 $!/ {;U#[{4V_S7:R 
YwAG?6H&pK(LE(GMEVWRXUbx;6r$GNRMC,064841.00,A,0419.92235,S,05539.82566,E,0.562,,230525,,,A*78
$GNVTG,,T,,M,0.562,N,1.042,K,A*3B
$GNGNS,064841.00,0419.92235,S,05539.82566,E,AA,16,0.75,27.0,-47.6,,*64
$GNGGA,064841.00,0419.92235,S,05539.82566,E,1,12,0.75,27.0,M,-47.6,M,,*4A
$GNGSA,A,3,24,20,05,13,15,12,29,18,25,23,40,,1.35,0.75,1.12*1F
$GNGSA,A,3,75,71,72,76,65,,,,,,,,1.35,0.75,1.12*18
$GPGSV,5,1,17,05,39,035,24,10,06,213,,12,73,085,21,13,13,106,19*75
$GPGSV,5,2,17,15,40,137,30,18,32,292,22,20,07,033,13,23,47,211,25*7F
$GPGSV,5,3,17,24,32,176,25,25,59,341,23,28,05,291,,29,14,347,18*77
$GPGSV,5,4,17,36,52,277,,40,86,351,30,41,58,082,28,49,32,274,*75
$GPGSV,5,5,17,50,10,089,*4A
$GLGSV,3,1,09,65,25,179,12,71,14,063,09,72,38,112,09,75,40,166,14*6E
$GLGSV,3,2,09,76,69,296,23,77,24,325,,86,02,018,11,87,12,338,*6C
$GLGSV,3,3,09,88,06,282,*52
$GNGLL,0419.92235,S,05539.82566,E,064841.00,A,A*63
$GNGRS,064841.00,1,1.2,42.6,0.5,-6.7,3.0,8.6,-2.7,1.5,1.9,5.0,142,*5E
$GNGRS,064841.00,1,-0.7,15.9,2.5,8.4,4.4,,,,,,,*6D
$GNGST,064841.00,4343759,,,,4.7,5.9,12*5F
$GNZDA,064841.00,23,05,2025,00,00*76
$GNGBS,064841.00,4.7,5.9,12.2,,,,*6E
$GNTXT,01,01,01,More than 100 frame errors, UART RX was disabled*70
b0L`?6'#
IU%j(
 $J!/T c;U#[{4V_Q7:R 
YwAG?BH&pK(LE(MEVWRX=b`?6r[M$GNRMC,064842.00,A,0419.92255,S,05539.82575,E,0.544,,230525,,,A*7B
$GNVTG,,T,,M,0.544,N,1.007,K,A*3E
$GNGNS,064842.00,0419.92255,S,05539.82575,E,AA,16,0.75,27.5,-47.6,,*66
$GNGGA,064842.00,0419.92255,S,05539.82575,E,1,12,0.75,27.5,M,-47.6,M,,*48
$GNGSA,A,3,24,20,05,13,15,12,29,18,25,23,40,,1.35,0.75,1.12*1F
$GNGSA,A,3,75,71,72,76,65,,,,,,,,1.35,0.75,1.12*18
$GPGSV,5,1,17,05,39,035,22,10,06,213,,12,73,085,21,13,13,106,19*73
$GPGSV,5,2,17,15,40,137,30,18,32,292,22,20,07,033,09,23,47,211,25*74
$GPGSV,5,3,17,24,32,176,24,25,59,341,23,28,05,291,,29,14,347,16*78
$GPGSV,5,4,17,36,52,277,,40,86,351,29,41,58,082,27,49,32,274,*72
$GPGSV,5,5,17,50,10,089,*4A
$GLGSV,3,1,09,65,25,179,13,71,14,063,09,72,38,112,09,75,40,166,18*63
$GLGSV,3,2,09,76,69,296,23,77,24,325,,86,02,018,08,87,12,338,*64
$GLGSV,3,3,09,88,06,282,*52
$GNGLL,0419.92255,S,05539.82575,E,064842.00,A,A*64
$GNGRS,064842.00,1,1.0,42.8,1.5,-5.3,2.8,10.6,-2.7,0.7,1.6,3.4,142,*69
$GNGRS,064842.00,1,-0.7,16.0,2.2,6.6,7.3,,,,,,,*6B
$GNGST,064842.00,4343809,,,,4.7,5.9,12*56
$GNZDA,064842.00,23,05,2025,00,00*75
$GNGBS,064842.00,4.7,5.9,12.5,,,,*6A
$GNTXT,01,01,01,More than 100 frame errors, UART RX was disabled*70
b0LHC6'#
IUj(
 $!J/ ;U#[m{4V_a7:R 
YwAG?m6H&pdK(LE(MEVWRXbHC6r5$GNRMC,064843.00,A,0419.92252,S,05539.82589,E,0.370,,230525,,,D*7A
$GNVTG,,T,,M,0.370,N,0.686,K,D*34
$GNGNS,064843.00,0419.92252,S,05539.82589,E,DA,16,0.85,27.6,-47.6,,0000*6A
$GNGGA,064843.00,0419.92252,S,05539.82589,E,2,12,0.85,27.6,M,-47.6,M,,0000*42
$GNGSA,A,3,24,20,05,13,15,12,29,18,25,23,40,,1.45,0.85,1.17*12
$GNGSA,A,3,75,71,72,76,65,,,,,,,,1.45,0.85,1.17*15
$GPGSV,5,1,17,05,39,035,23,10,06,213,,12,73,085,21,13,13,106,18*73
$GPGSV,5,2,17,15,40,137,31,18,32,292,22,20,07,033,13,23,47,211,26*7D
$GPGSV,5,3,17,24,32,176,25,25,59,341,23,28,05,291,,29,14,347,15*7A
$GPGSV,5,4,17,36,52,277,,40,86,351,30,41,58,082,28,49,32,274,*75
$GPGSV,5,5,17,50,10,089,*4A
$GLGSV,3,1,09,65,25,179,17,71,14,063,08,72,38,112,12,75,40,166,13*67
$GLGSV,3,2,09,76,69,296,25,77,24,325,,86,02,018,12,87,12,338,*69
$GLGSV,3,3,09,88,06,282,*52
$GNGLL,0419.92252,S,05539.82589,E,064843.00,A,D*64
$GNGRS,064843.00,1,2.4,-24.9,2.7,-3.7,7.7,13.0,-4.0,-1.1,1.7,2.6,142,*66
$GNGRS,064843.00,1,-2.8,139,-145,7.7,7.5,,,,,,,*70
$GNGST,064843.00,1138,,,,4.8,5.9,13*63
$GNZDA,064843.00,23,05,2025,00,00*74
$GNGBS,064843.00,4.8,5.9,12.7,,,,*66
$GNTXT,01,01,01,More than 100 frame errors, UART RX was disabled*70
b0L0G6'#
IUj{(
 $!/+ Q;U#[{4V_7:R 
YwAG?H&pK
(LE(MEVWRXb0G6r3$GNRMC,064844.00,A,0419.92280,S,05539.82595,E,0.429,,230525,,,D*74
$GNVTG,,T,,M,0.429,N,0.794,K,D*3D
$GNGNS,064844.00,0419.92280,S,05539.82595,E,DA,16,0.75,28.4,-47.6,,0000*6D
$GNGGA,064844.00,0419.92280,S,05539.82595,E,2,12,0.75,28.4,M,-47.6,M,,0000*45
$GNGSA,A,3,24,20,05,13,15,12,29,18,25,23,40,,1.35,0.75,1.12*1F
$GNGSA,A,3,75,71,72,76,65,,,,,,,,1.35,0.75,1.12*18
$GPGSV,5,1,17,05,39,035,22,10,06,213,,12,73,085,21,13,13,106,18*72
$GPGSV,5,2,17,15,40,137,29,18,32,292,21,20,07,033,13,23,47,211,26*77
$GPGSV,5,3,17,24,32,176,25,25,59,341,22,28,05,291,,29,14,347,14*7A
$GPGSV,5,4,17,36,52,277,,40,86,351,30,41,58,082,29,49,32,274,*74
$GPGSV,5,5,17,50,10,089,*4A
$GLGSV,3,1,09,65,25,179,21,71,14,063,12,72,38,112,12,75,40,166,10*6A
$GLGSV,3,2,09,76,69,296,26,77,24,325,,86,02,018,11,87,12,338,*69
$GLGSV,3,3,09,88,06,282,*52
$GNGLL,0419.92280,S,05539.82595,E,064844.00,A,D*61
$GNGRS,064844.00,1,3.4,45.5,5.1,-1.3,9.3,17.4,-6.2,-0.6,5.3,5.6,143,*4B
$GNGRS,064844.00,1,-1.2,16.7,2.4,9.0,7.2,,,,,,,*60
$GNGST,064844.00,3071552,,,,5.4,6.3,13*5C
$GNZDA,064844.00,23,05,2025,00,00*73
$GNGBS,064844.00,5.4,6.3,13.4,,,,*67
b0LO6'#
IUj(z
 $!/ ;Us#[{4 V_7:R 
Yw*AG?:H
&p.K(LE&:MEV
WRX@bO6r$GNRMC,064846.00,A,0419.92309,S,05539.82620,E,0.056,,230525,,,D*77
$GNVTG,,T,,M,0.056,N,0.103,K,D*39
$GNGNS,064846.00,0419.92309,S,05539.82620,E,DA,16,0.77,30.5,-47.6,,0000*68
$GNGGA,064846.00,0419.92309,S,05539.82620,E,2,12,0.77,30.5,M,-47.6,M,,0000*40
$GNGSA,A,3,24,20,05,13,15,12,29,18,25,23,40,,1.31,0.77,1.06*1C
$GNGSA,A,3,75,71,72,76,65,,,,,,,,1.31,0.77,1.06*1B
$GPGSV,5,1,17,05,39,035,25,10,06,213,,12,73,085,23,13,13,106,19*76
$GPGSV,5,2,17,15,40,137,29,18,32,292,20,20,07,033,12,23,47,211,29*78
$GPGSV,5,3,17,24,32,176,25,25,59,341,22,28,05,291,,29,14,347,14*7A
$GPGSV,5,4,17,36,52,277,,40,86,351,32,41,58,082,30,49,32,274,*7E
$GPGSV,5,5,17,50,10,089,*4A
$GLGSV,3,1,09,65,25,179,22,71,14,063,15,72,38,112,10,75,40,166,09*64
$GLGSV,3,2,09,76,69,294,26,77,24,325,,86,02,018,10,87,12,338,*6A
$GLGSV,3,3,09,88,06,282,*52
$GNGLL,0419.92309,S,05539.82620,E,064846.00,A,D*6E
$GNGRS,064846.00,1,4.2,-2.6,2.4,-2.7,11.5,17.2,-13.7,-0.3,6.3,5.0,142,*59
$GNGRS,064846.00,1,-149,-4.5,119,10.8,9.1,,,,,,,*43
$GNGST,064846.00,1061,,,,5.3,6.3,14*6F
$GNZDA,064846.00,23,05,2025,00,00*71
$GNGBS,064846.00,5.3,6.3,13.6,,,,*60
b0LR6'#
IU_j (
 $!/ ";U#[{4!V_f7:R 
YwAG?OH&pK(LE&MEVWRXbR6rv\$GNRMC,064847.00,A,0419.92328,S,05539.82648,E,0.283,,230525,,,D*71
$GNVTG,,T,,M,0.283,N,0.524,K,D*32
$GNGNS,064847.00,0419.92328,S,05539.82648,E,DA,16,0.75,32.0,-47.6,,0000*61
$GNGGA,064847.00,0419.92328,S,05539.82648,E,2,12,0.75,32.0,M,-47.6,M,,0000*49
$GNGSA,A,3,24,20,05,13,15,12,29,18,25,23,40,,1.35,0.75,1.12*1F
$GNGSA,A,3,75,71,72,76,65,,,,,,,,1.35,0.75,1.12*18
$GPGSV,5,1,17,05,39,035,26,10,06,213,,12,73,085,23,13,13,106,20*7F
$GPGSV,5,2,17,15,40,137,32,18,32,292,19,20,07,033,11,23,47,211,29*7B
$GPGSV,5,3,17,24,32,176,25,25,59,341,26,28,05,291,,29,14,347,11*7B
$GPGSV,5,4,17,36,52,277,,40,86,351,33,41,58,082,30,49,32,274,*7F
$GPGSV,5,5,17,50,10,089,*4A
$GLGSV,3,1,09,65,25,179,21,71,14,063,11,72,38,112,13,75,40,166,11*69
$GLGSV,3,2,09,76,69,294,25,77,24,325,,86,02,018,08,87,12,338,*60
$GLGSV,3,3,09,88,06,282,*52
$GNGLL,0419.92328,S,05539.82648,E,064847.00,A,D*62
$GNGRS,064847.00,1,2.9,42.5,2.1,-2.7,11.6,18.9,-13.0,-2.3,2.6,5.1,142,*48
$GNGRS,064847.00,1,-1.2,16.2,2.1,9.6,10.2,,,,,,,*53
$GNGST,064847.00,4344410,,,,5.2,6.2,14*5A
$GNZDA,064847.00,23,05,2025,00,00*70
$GNGBS,064847.00,5.2,6.2,13.7,,,,*60
$GNTXT,01,01,01,More than 100 frame errors, UART RX was disabled*70
$GNTXT,01,01,01,More than 100 frame errors, UART RX was disabled*70
$GLGSV,3,3,09,88,06,282,*52
$GNGLL,0419.92352,S,05539.82675,E,064849.00,A,D*6F
$GNGRS,064849.00,1,2.9,-23.0,3.6,-4.7,6.9,19.9,29.6,-2.4,-1.2,0.1,141,*58
$GNGRS,064849.00,1,-107,-45.8,-38.5,9.0,9.3,,,,,,,*48
$GNGST,064849.00,1297,,,,5.1,6.1,14*6B
$GNZDA,064849.00,23,05,2025,00,00*7E
$GNGBS,064849.00,5.1,6.1,14.2,,,,*6C
$GNTXT,01,01,01,More than 100 frame errors, UART RX was disabled*70
$GNGSA,A,3,75,71,72,76,65,,,,,,,,1.56,0.84,1.32*11
$GPGSV,5,1,17,05,39,035,24,10,06,213,,12,73,085,24,13,13,106,19*70
$GPGSV,5,2,17,15,40,137,31,18,32,292,17,20,07,033,09,23,47,211,31*76
$GPGSV,5,3,17,24,32,176,25,25,59,341,27,28,05,291,,29,14,347,10*7B
$GPGSV,5,4,17,36,52,277,,40,86,351,33,41,58,082,29,49,32,274,*77
$GPGSV,5,5,17,50,10,089,*4A
$GLGSV,3,1,09,65,25,179,21,71,14,063,11,72,38,112,12,75,40,166,11*68
$GLGSV,3,2,09,76,69,294,25,77,24,325,,86,02,018,10,87,12,338,*69
$GLGSV,3,3,09,88,06,282,*52
$GNGLL,0419.92369,S,05539.82703,E,064850.00,A,D*6F
$GNGRS,064850.00,1,6.3,42.2,4.4,-4.1,7.4,16.2,21.2,-5.4,-1.7,1.3,140,*71
$GNGRS,064850.00,1,-1.0,16.2,2.4,9.1,9.0,,,,,,,*6F
$GNGST,064850.00,5506669,,,,5.0,6.1,14*50
$GNZDA,064850.00,23,05,2025,00,00*76
$GNGBS,064850.00,5.0,6.1,14.4,,,,*63
$GNTXT,01,01,01,More than 100 frame errors, UART RX was disabled*70
$GNTXT,01,01,01,More than 100 frame errors, UART RX was disabled*70
$GNTXT,01,01,01,More than 100 frame errors, UART RX was disabled*70
$GNTXT,01,01,01,More than 100 frame errors, UART RX was disabled*70
b0L(r6'#
IUcjE(y
 $!?/ i;U#
[+{4V_6:R 
Y
wAG?H&p+K(FLE&;MEVW
RXHb(r6rS$GNRMC,064855.00,A,0419.92383,S,05539.82719,E,0.141,,230525,,,D*7B
$GNVTG,,T,,M,0.141,N,0.261,K,D*39
$GNGNS,064855.00,0419.92383,S,05539.82719,E,DA,15,0.85,35.1,-47.6,,0000*6C
$GNGGA,064855.00,0419.92383,S,05539.82719,E,2,12,0.85,35.1,M,-47.6,M,,0000*47
$GNGSA,A,3,24,20,05,13,15,12,18,25,23,40,,,1.44,0.85,1.16*19
$GNGSA,A,3,75,71,72,76,65,,,,,,,,1.44,0.85,1.16*15
$GPGSV,5,1,17,05,39,035,22,10,06,213,,12,73,085,31,13,13,106,18*73
$GPGSV,5,2,17,15,40,137,31,18,32,292,25,20,07,033,12,23,47,211,26*7B
$GPGSV,5,3,17,24,32,176,17,25,59,341,30,28,05,291,,29,14,347,10*7C
$GPGSV,5,4,17,36,52,277,,40,86,351,31,41,58,082,27,49,32,274,*7B
$GPGSV,5,5,17,50,10,089,*4A
$GLGSV,3,1,09,65,25,179,15,71,14,063,12,72,38,112,13,75,40,166,17*6B
$GLGSV,3,2,09,76,69,294,26,77,24,325,,86,02,018,08,87,12,338,10*62
$GLGSV,3,3,09,88,06,282,*52
$GNGLL,0419.92383,S,05539.82719,E,064855.00,A,D*65
$GNGRS,064855.00,1,1.1,-1.9,1.3,-4.4,1.2,-6.7,-3.7,-3.4,-1.2,140,,*49
$GNGRS,064855.00,1,-30.0,10.4,-99.4,3.1,4.6,,,,,,,*46
$GNGST,064855.00,1138,,,,5.1,5.8,14*6A
$GNZDA,064855.00,23,05,2025,00,00*73
$GNGBS,064855.00,5.1,5.8,13.9,,,,*67
b0Lv6'#
IU^jl(
 $.!/4 ;U##[{4 V_6:R 
Yw<AG?H&pK(LE&>MEVWRXlbv6r+$GNRMC,064856.00,A,0419.92376,S,05539.82708,E,0.159,,230525,,,D*7B
$GNVTG,,T,,M,0.159,N,0.294,K,D*3A
$GNGNS,064856.00,0419.92376,S,05539.82708,E,DA,17,0.75,33.9,-47.6,,0000*66
$GNGGA,064856.00,0419.92376,S,05539.82708,E,2,12,0.75,33.9,M,-47.6,M,,0000*4F
$GNGSA,A,3,24,20,05,13,15,12,29,18,25,23,40,,1.35,0.75,1.12*1F
$GNGSA,A,3,75,87,71,72,76,65,,,,,,,1.35,0.75,1.12*17
$GPGSV,5,1,17,05,39,035,21,10,06,213,,12,73,085,31,13,13,106,18*70
$GPGSV,5,2,17,15,40,137,31,18,32,292,23,20,07,033,09,23,47,211,28*79
$GPGSV,5,3,17,24,32,176,20,25,59,341,29,28,05,291,,29,14,347,11*71
$GPGSV,5,4,17,36,52,277,,40,86,351,32,41,58,082,28,49,32,274,*77
$GPGSV,5,5,17,50,10,089,*4A
$GLGSV,3,1,09,65,25,179,13,71,14,063,15,72,38,112,19,75,40,166,16*61
$GLGSV,3,2,09,76,69,294,25,77,24,325,,86,01,019,11,87,12,338,13*68
$GLGSV,3,3,09,88,06,282,*52
$GNGLL,0419.92376,S,05539.82708,E,064856.00,A,D*6C
$GNGRS,064856.00,1,2.2,41.1,-1.0,-4.0,1.6,-9.3,19.3,-4.7,2.9,0.5,141,*67
$GNGRS,064856.00,1,-0.7,58.5,15.6,2.6,3.2,8.9,,,,,,*7D
$GNGST,064856.00,4344077,,,,5.1,5.8,14*55
$GNZDA,064856.00,23,05,2025,00,00*70
$GNGBS,064856.00,5.1,5.8,13.8,,,,*65
$GNTXT,01,01,01,More than 100 frame errors, UART RX was disabled*70
$GNTXT,01,01,01,More than 100 frame errors, UART RX was disabled*70
b0L}6'##
 IU j(E
 $!/1 
;U#[[{4 V_6:R 
YwGA2G??H&pK(LE& MEVWRkX5b}6rn$GNRMC,064858.00,A,0419.92381,S,05539.82689,E,0.085,,230525,,,D*75
$GNVTG,,T,,M,0.085,N,0.158,K,D*39
$GNGNS,064858.00,0419.92381,S,05539.82689,E,DA,17,0.74,32.4,-47.6,,0000*65
$GNGGA,064858.00,0419.92381,S,05539.82689,E,2,12,0.74,32.4,M,-47.6,M,,0000*4C
$GNGSA,A,3,24,20,05,13,15,12,29,18,25,23,40,,1.28,0.74,1.04*15
$GNGSA,A,3,75,87,71,72,76,65,,,,,,,1.28,0.74,1.04*1D
$GPGSV,5,1,17,05,39,035,22,10,06,213,,12,73,085,32,13,13,106,17*7F
$GPGSV,5,2,17,15,40,137,31,18,32,292,24,20,07,033,17,23,47,211,30*78
$GPGSV,5,3,17,24,32,176,22,25,59,341,28,28,05,291,,29,14,347,16*75
$GPGSV,5,4,17,36,52,277,,40,86,351,32,41,58,082,28,49,32,274,*77
$GPGSV,5,5,17,50,10,089,*4A
$GLGSV,3,1,09,65,25,179,16,71,14,063,13,72,38,112,11,75,40,166,12*6E
$GLGSV,3,2,09,76,69,294,25,77,24,325,,86,01,019,08,87,12,338,15*66
$GLGSV,3,3,09,88,06,282,*52
$GNGLL,0419.92381,S,05539.82689,E,064858.00,A,D*62
$GNGRS,064858.00,1,5.2,-8.3,-4.8,-5.0,3.2,-12.5,16.3,-4.9,6.5,0.5,141,*43
$GNGRS,064858.00,1,1.8,52.3,-4.5,-7.7,2.9,8.2,,,,,,*6A
$GNGST,064858.00,1027,,,,5.0,5.7,13*61
$GNZDA,064858.00,23,05,2025,00,00*7E
$GNGBS,064858.00,5.0,5.7,13.5,,,,*68
b0L6'#=
IU=jQ(
 $O!/ ;U#[x{4 V_57:R 
YwsAG?H&pK(LE&MEVWRX>b6rV*$GNRMC,064859.00,A,0419.92376,S,05539.82686,E,0.280,,230525,,,D*74
$GNVTG,,T,,M,0.280,N,0.518,K,D*3E
$GNGNS,064859.00,0419.92376,S,05539.82686,E,DA,17,0.75,31.3,-47.6,,0000*66
$GNGGA,064859.00,0419.92376,S,05539.82686,E,2,12,0.75,31.3,M,-47.6,M,,0000*4F
$GNGSA,A,3,24,20,05,13,15,12,29,18,25,23,40,,1.35,0.75,1.12*1F
$GNGSA,A,3,75,87,71,72,76,65,,,,,,,1.35,0.75,1.12*17
$GPGSV,5,1,17,05,39,035,19,10,06,213,,12,73,085,31,13,13,106,17*74
$GPGSV,5,2,17,15,40,137,30,18,32,292,26,20,07,033,12,23,47,211,28*77
$GPGSV,5,3,17,24,32,176,20,25,59,341,27,28,05,291,,29,14,347,16*78
$GPGSV,5,4,17,36,52,277,,40,86,351,32,41,58,082,27,49,32,274,*78
$GPGSV,5,5,17,50,10,089,*4A
$GLGSV,3,1,09,65,25,179,15,71,14,063,15,72,38,112,15,75,40,166,18*65
$GLGSV,3,2,09,76,69,294,26,77,24,325,,86,01,019,09,87,12,338,15*64
$GLGSV,3,3,09,88,06,282,*52
$GNGLL,0419.92376,S,05539.82686,E,064859.00,A,D*64
$GNGRS,064859.00,1,4.7,41.2,-4.5,-4.3,4.1,-12.2,14.0,-4.3,2.6,-3.8,141,*74
$GNGRS,064859.00,1,-0.5,51.5,15.7,2.8,0.2,10.5,,,,,,*40
$GNGST,064859.00,3073433,,,,5.0,5.6,13*56
$GNZDA,064859.00,23,05,2025,00,00*7F
$GNGBS,064859.00,5.0,5.6,13.3,,,,*6E
$GNTXT,01,01,01,More than 100 frame errors, UART RX was disabled*70
b0L6'#
IUnj(
 $!/m (;UT#[{4V_@7:R 
YwAuG?"H&p+K(LE&FMEVWR1X;b6r>$GNRMC,064900.00,A,0419.92377,S,05539.82673,E,0.188,,230525,,,D*79
$GNVTG,,T,,M,0.188,N,0.349,K,D*37
$GNGNS,064900.00,0419.92377,S,05539.82673,E,DA,17,0.75,30.8,-47.6,,0000*6A
$GNGGA,064900.00,0419.92377,S,05539.82673,E,2,12,0.75,30.8,M,-47.6,M,,0000*43
$GNGSA,A,3,24,20,05,13,15,12,29,18,25,23,40,,1.35,0.75,1.12*1F
$GNGSA,A,3,75,87,71,72,76,65,,,,,,,1.35,0.75,1.12*17
$GPGSV,5,1,17,05,39,035,19,10,06,213,,12,73,085,30,13,13,106,15*77
$GPGSV,5,2,17,15,40,137,30,18,32,292,27,20,07,033,11,23,47,211,25*78
$GPGSV,5,3,17,24,32,176,18,25,59,341,28,28,05,291,,29,14,347,16*7C
$GPGSV,5,4,17,36,52,277,,40,86,351,31,41,58,082,27,49,32,274,*7B
$GPGSV,5,5,17,50,10,089,*4A
$GLGSV,3,1,09,65,25,179,14,71,14,063,14,72,38,112,12,75,40,166,14*6E
$GLGSV,3,2,09,76,69,294,26,77,24,325,,86,01,019,09,87,12,338,14*65
$GLGSV,3,3,09,88,06,282,*52
$GNGLL,0419.92377,S,05539.82673,E,064900.00,A,D*62
$GNGRS,064900.00,1,3.0,41.0,-5.1,-5.9,1.3,-11.7,14.8,-0.6,0.8,-4.0,141,*7E
$GNGRS,064900.00,1,-0.3,51.7,15.7,3.0,0.7,11.4,,,,,,*45
$GNGST,064900.00,3075723,,,,5.0,5.6,13*5F
$GNZDA,064900.00,23,05,2025,00,00*72
$GNGBS,064900.00,5.0,5.6,13.2,,,,*62
$GNTXT,01,01,01,More than 100 frame errors, UART RX was disabled*70
b0L6'#
IUj(
 $T!/\ ;U#[{4 V_e7:R 
YwANG?H&pK(LE&MEVWRXb6r&c$GNRMC,064901.00,A,0419.92366,S,05539.82663,E,0.274,,230525,,,D*79
$GNVTG,,T,,M,0.274,N,0.507,K,D*3B
$GNGNS,064901.00,0419.92366,S,05539.82663,E,DA,17,0.75,29.8,-47.6,,0000*62
$GNGGA,064901.00,0419.92366,S,05539.82663,E,2,12,0.75,29.8,M,-47.6,M,,0000*4B
$GNGSA,A,3,24,20,05,13,15,12,29,18,25,23,40,,1.35,0.75,1.12*1F
$GNGSA,A,3,75,87,71,72,76,65,,,,,,,1.35,0.75,1.12*17
$GPGSV,5,1,17,05,39,035,19,10,06,213,,12,73,085,30,13,13,106,15*77
$GPGSV,5,2,17,15,40,137,31,18,32,292,26,20,07,033,12,23,47,211,23*7D
$GPGSV,5,3,17,24,32,176,16,25,59,341,28,28,05,291,,29,14,347,14*70
$GPGSV,5,4,17,36,52,277,,40,86,351,32,41,58,082,27,49,32,274,*78
$GPGSV,5,5,17,50,10,089,*4A
$GLGSV,3,1,09,65,25,179,12,71,14,063,09,72,38,112,13,75,40,166,18*69
$GLGSV,3,2,09,76,69,294,27,77,24,325,,86,01,019,12,87,12,338,14*6E
$GLGSV,3,3,09,88,06,282,*52
$GNGLL,0419.92366,S,05539.82663,E,064901.00,A,D*62
$GNGRS,064901.00,1,2.6,-26.4,-5.7,-7.4,1.6,-10.5,15.1,0.8,2.7,-1.6,142,*79
$GNGRS,064901.00,1,-15.4,51.1,6.7,-17.6,-0.7,13.6,,,,,,*70
$GNGST,064901.00,1060,,,,5.0,5.5,13*6D
$GNZDA,064901.00,23,05,2025,00,00*73
$GNGBS,064901.00,5.0,5.5,13.0,,,,*62
$GNTXT,01,01,01,More than 100 frame errors, UART RX was disabled*70
$GNGGA,064903.00,0419.92362,S,05539.82651,E,2,12,0.80,28.7,M,-47.6,M,,0000*48
$GNGSA,A,3,24,20,05,13,15,12,29,18,25,23,40,,1.42,0.80,1.17*10
$GNGSA,A,3,75,87,71,72,76,,,,,,,,1.42,0.80,1.17*1B
$GPGSV,5,1,17,05,39,035,17,10,06,213,,12,73,085,32,13,13,106,11*7F
$GPGSV,5,2,17,15,40,137,29,18,32,292,27,20,07,033,11,23,47,211,22*77
$GPGSV,5,3,17,24,32,176,13,25,59,341,30,28,05,291,,29,14,347,16*7E
$GPGSV,5,4,17,36,52,277,,40,86,351,31,41,58,082,27,49,32,274,*7B
$GPGSV,5,5,17,50,10,089,*4A
$GLGSV,3,1,09,65,25,179,09,71,14,063,10,72,38,112,13,75,40,166,15*66
$GLGSV,3,2,09,76,69,294,25,77,24,325,,86,01,019,05,87,12,338,11*6F
$GLGSV,3,3,09,88,06,282,*52
$GNGLL,0419.92362,S,05539.82651,E,064903.00,A,D*65
$GNGRS,064903.00,1,-2.6,41.6,-10.8,-11.7,3.0,-8.1,14.3,1.8,-2.7,-9.6,142,*69
$GNGRS,064903.00,1,-0.6,49.9,16.2,2.7,-0.7,,,,,,,*73
$GNGST,064903.00,4498388,,,,5.2,5.5,13*58
$GNZDA,064903.00,23,05,2025,00,00*71
$GNGBS,064903.00,5.2,5.5,12.7,,,,*64
$GNTXT,01,01,01,More than 100 frame errors, UART RX was disabled*70
b0L 6'#{
IUTj:(
 $[!/ ;U#[{4V_7:R 
YwD$A
vG?H
&pK(LE&6MEV
WR?X
zb 6r$GNRMC,064906.00,A,0419.92324,S,05539.82654,E,0.629,,230525,,,D*70
$GNVTG,,T,,M,0.629,N,1.164,K,D*37
$GNGNS,064906.00,0419.92324,S,05539.82654,E,DA,15,0.78,25.4,-47.6,,0000*68
$GNGGA,064906.00,0419.92324,S,05539.82654,E,2,12,0.78,25.4,M,-47.6,M,,0000*43
$GNGSA,A,3,24,20,05,15,12,29,18,25,23,40,,,1.42,0.78,1.18*1A
$GNGSA,A,3,75,71,72,76,65,,,,,,,,1.42,0.78,1.18*1F
$GPGSV,5,1,17,05,39,035,12,10,06,213,,12,73,085,30,13,13,106,09*71
$GPGSV,5,2,17,15,40,137,28,18,32,292,25,20,07,033,08,23,47,211,21*7F
$GPGSV,5,3,17,24,32,176,15,25,59,341,29,28,05,291,,29,14,347,16*70
$GPGSV,5,4,17,36,52,277,,40,86,351,30,41,58,082,,49,32,274,*7F
$GPGSV,5,5,17,50,10,089,*4A
$GLGSV,3,1,09,65,25,179,10,71,14,063,11,72,38,112,10,75,40,166,11*68
$GLGSV,3,2,09,76,69,294,25,77,24,325,,86,01,019,10,87,12,338,09*62
$GLGSV,3,3,09,88,06,282,*52
$GNGLL,0419.92324,S,05539.82654,E,064906.00,A,D*67
$GNGRS,064906.00,1,-5.1,40.4,-14.1,1.7,-9.4,12.3,0.9,-5.1,-7.6,143,,*5F
$GNGRS,064906.00,1,-0.3,14.9,2.6,0.5,31.9,,,,,,,*5B
$GNGST,064906.00,3181231,,,,5.4,5.6,12*50
$GNZDA,064906.00,23,05,2025,00,00*74
$GNGBS,064906.00,5.4,5.6,12.5,,,,*66
&p`K(cLE&1MEVWRkX$:b6rri$GNRMC,064907.00,A,0419.92324,S,05539.82647,E,0.116,,230525,,,D*78
$GNVTG,,T,,M,0.116,N,0.215,K,D*38
$GNGNS,064907.00,0419.92324,S,05539.82647,E,DA,16,0.79,25.1,-47.6,,0000*6C
$GNGGA,064907.00,0419.92324,S,05539.82647,E,2,12,0.79,25.1,M,-47.6,M,,0000*44
$GNGSA,A,3,24,20,13,15,12,29,18,25,23,40,,,1.38,0.79,1.13*1A
$GNGSA,A,3,75,87,71,72,76,65,,,,,,,1.38,0.79,1.13*17
$GPGSV,5,1,17,05,39,035,09,10,06,213,,12,73,085,30,13,13,106,08*7A
$GPGSV,5,2,17,15,40,137,28,18,32,292,25,20,07,033,10,23,47,211,23*74
$GPGSV,5,3,17,24,32,176,15,25,59,341,29,28,05,291,,29,14,347,16*70
$GPGSV,5,4,17,36,52,277,,40,86,351,30,41,58,082,,49,32,274,*7F
$GPGSV,5,5,17,50,10,089,*4A
$GLGSV,3,1,09,65,25,179,10,71,14,063,14,72,38,112,14,75,40,166,14*6C
$GLGSV,3,2,09,76,69,294,25,77,24,325,,86,01,019,09,87,12,338,11*63
$GLGSV,3,3,09,88,06,282,*52
$GNGLL,0419.92324,S,05539.82647,E,064907.00,A,D*64
$GNGRS,064907.00,1,-4.9,39.2,-17.4,0.9,-6.8,14.2,0.9,-5.6,-9.6,143,,*5B
$GNGRS,064907.00,1,-9.2,44.6,-0.6,-1.6,0.5,4.7,,,,,,*4B
$GNGST,064907.00,1097,,,,5.4,5.6,12*65
$GNZDA,064907.00,23,05,2025,00,00*75
$GNGBS,064907.00,5.4,5.6,12.4,,,,*66
$GNTXT,01,01,01,More than 100 frame errors, UART RX was disabled*70
b0L6
'#]
IWjj(
 $!k/ -;U#[{4V_:R 
Yw'AG
?H&pK(aLE&MEV
WRXb6rN'$GNRMC,064910.00,A,0419.92308,S,05539.82642,E,0.087,,230525,,,D*7C
$GNVTG,,T,,M,0.087,N,0.160,K,D*30
$GNGNS,064910.00,0419.92308,S,05539.82642,E,DA,15,0.81,23.4,-47.6,,0000*66
$GNGGA,064910.00,0419.92308,S,05539.82642,E,2,12,0.81,23.4,M,-47.6,M,,0000*4D
$GNGSA,A,3,24,20,05,13,15,12,29,18,25,23,,,1.53,0.81,1.30*10
$GNGSA,A,3,75,87,71,72,76,,,,,,,,1.53,0.81,1.30*1F
$GPGSV,5,1,17,05,39,035,10,10,06,213,,12,73,087,30,13,13,106,09*71
$GPGSV,5,2,17,15,40,137,29,18,32,292,27,20,07,033,07,23,47,211,27*75
$GPGSV,5,3,17,24,32,176,15,25,59,341,31,28,05,291,,29,14,347,19*76
$GPGSV,5,4,17,36,52,277,,40,86,351,,41,58,082,28,49,32,274,*76
$GPGSV,5,5,17,50,10,089,*4A
$GLGSV,3,1,09,65,25,179,07,71,14,063,10,72,38,112,15,75,40,166,18*63
$GLGSV,3,2,09,76,69,294,25,77,24,325,,86,01,019,10,87,12,338,14*6E
$GLGSV,3,3,09,88,06,282,*52
$GNGLL,0419.92308,S,05539.82642,E,064910.00,A,D*69
$GNGRS,064910.00,1,-4.7,-39.9,-4.2,-4.1,-2.8,-5.1,10.4,1.5,-5.4,-6.2,,*53
$GNGRS,064910.00,1,-1.6,48.2,-18.6,-10.9,-0.6,,,,,,,*4C
$GNGST,064910.00,63,,,,5.4,5.5,12*6A
$GNZDA,064910.00,23,05,2025,00,00*73
$GNGBS,064910.00,5.4,5.5,12.1,,,,*66
b0L6'#l
IWYj(*
 $o!f/ ;U#[f{4V_b5:R 
Yw(AlG
?/H&p7K(]LE&MEVWRXb6r6+$GNRMC,064911.00,A,0419.92308,S,05539.82638,E,0.381,,230525,,,D*75
$GNVTG,,T,,M,0.381,N,0.706,K,D*33
$GNGNS,064911.00,0419.92308,S,05539.82638,E,DA,15,0.81,22.9,-47.6,,0000*66
$GNGGA,064911.00,0419.92308,S,05539.82638,E,2,12,0.81,22.9,M,-47.6,M,,0000*4D
$GNGSA,A,3,24,20,05,13,15,12,29,18,25,23,,,1.53,0.81,1.30*10
$GNGSA,A,3,75,87,71,72,76,,,,,,,,1.53,0.81,1.30*1F
$GPGSV,5,1,17,05,39,035,11,10,06,213,,12,73,087,31,13,13,106,13*7A
$GPGSV,5,2,17,15,40,137,28,18,32,292,26,20,07,033,12,23,47,211,26*70
$GPGSV,5,3,17,24,32,176,14,25,59,341,31,28,05,291,,29,14,347,19*77
$GPGSV,5,4,17,36,52,277,,40,86,351,28,41,58,082,28,49,32,274,*7C
$GPGSV,5,5,17,50,10,089,*4A
$GLGSV,3,1,09,65,25,179,08,71,14,063,10,72,38,112,14,75,40,166,17*62
$GLGSV,3,2,09,76,69,294,25,77,24,325,,86,01,019,07,87,12,338,14*68
$GLGSV,3,3,09,88,06,282,*52
$GNGLL,0419.92308,S,05539.82638,E,064911.00,A,D*65
$GNGRS,064911.00,1,-3.8,42.0,8.8,19.6,0.4,-4.2,11.3,1.1,-0.8,-5.4,,*60
$GNGRS,064911.00,1,3.5,45.5,15.8,3.1,-0.3,,,,,,,*57
$GNGST,064911.00,3303969,,,,5.4,5.5,12*5B
$GNZDA,064911.00,23,05,2025,00,00*72
$GNGBS,064911.00,5.4,5.5,12.1,,,,*67
b0Lx6'#
IW"j^(?
 $/!/ ;Ub#[6{4V_8:R 
YwAgG?H&p<K(LE&1MEVW
RzXbx6r3$GNRMC,064913.00,A,0419.92287,S,05539.82645,E,0.308,,230525,,,D*7A
$GNVTG,,T,,M,0.308,N,0.570,K,D*31
$GNGNS,064913.00,0419.92287,S,05539.82645,E,DA,17,0.79,21.6,-47.6,,0000*61
$GNGGA,064913.00,0419.92287,S,05539.82645,E,2,12,0.79,21.6,M,-47.6,M,,0000*48
$GNGSA,A,3,24,20,05,13,15,12,29,18,25,23,40,,1.38,0.79,1.13*1F
$GNGSA,A,3,75,87,71,72,76,65,,,,,,,1.38,0.79,1.13*17
$GPGSV,5,1,17,05,39,035,19,10,06,213,,12,73,087,29,13,13,106,09*70
$GPGSV,5,2,17,15,40,136,27,18,32,292,25,20,07,033,12,23,47,211,26*7D
$GPGSV,5,3,17,24,32,176,14,25,59,341,30,28,05,291,,29,14,347,20*7C
$GPGSV,5,4,17,36,52,277,,40,86,351,30,41,58,082,27,49,32,274,*7A
$GPGSV,5,5,17,50,10,089,*4A
$GLGSV,3,1,09,65,25,179,12,71,14,063,16,72,38,112,17,75,40,166,17*6C
$GLGSV,3,2,09,76,69,294,24,77,24,325,,86,01,019,06,87,12,338,10*6C
$GLGSV,3,3,09,88,06,282,*52
$GNGLL,0419.92287,S,05539.82645,E,064913.00,A,D*6B
$GNGRS,064913.00,1,-6.3,-23.1,-23.0,-9.3,3.2,-2.2,10.8,3.0,-1.6,-3.1,143,*72
$GNGRS,064913.00,1,-0.3,57.5,1.6,0.6,-2.1,3.6,,,,,,*6A
$GNGST,064913.00,1097,,,,5.3,5.5,12*64
$GNZDA,064913.00,23,05,2025,00,00*70
$GNGBS,064913.00,5.3,5.5,12.0,,,,*63
$GNTXT,01,01,01,More than 100 frame errors, UART RX was disabled*70
$GNTXT,01,01,01,More than 100 frame errors, UART RX was disabled*70
b0L6'#
IWj{(
 %!/ ;U#[{4V_/7:R 
YwAG?6H&pRK(LE&MEVWRpXwb6rBg$GNRMC,064917.00,A,0419.92293,S,05539.82617,E,0.606,,230525,,,D*77
$GNVTG,,T,,M,0.606,N,1.121,K,D*3B
$GNGNS,064917.00,0419.92293,S,05539.82617,E,DA,17,0.75,20.4,-47.6,,0000*68
$GNGGA,064917.00,0419.92293,S,05539.82617,E,2,12,0.75,20.4,M,-47.6,M,,0000*41
$GNGSA,A,3,24,20,05,13,15,12,29,18,25,23,40,,1.35,0.75,1.12*1F
$GNGSA,A,3,75,87,71,72,76,65,,,,,,,1.35,0.75,1.12*17
$GPGSV,5,1,17,05,39,035,11,10,06,213,,12,73,087,29,13,13,106,12*72
$GPGSV,5,2,17,15,40,136,24,18,32,293,26,20,07,033,11,23,47,211,23*7A
$GPGSV,5,3,17,24,32,176,13,25,59,341,31,28,05,291,,29,14,347,22*78
$GPGSV,5,4,17,36,52,277,,40,86,351,31,41,58,082,,49,32,274,*7E
$GPGSV,5,5,17,50,10,089,*4A
$GLGSV,3,1,09,65,25,179,16,71,14,063,16,72,38,112,18,75,40,166,16*66
$GLGSV,3,2,09,76,69,294,19,77,24,325,,86,01,019,07,87,12,338,14*67
$GLGSV,3,3,09,88,06,282,*52
$GNGLL,0419.92293,S,05539.82617,E,064917.00,A,D*6D
$GNGRS,064917.00,1,-3.6,42.3,1.8,19.1,-0.1,-7.7,6.8,0.0,-7.7,-2.5,141,*4C
$GNGRS,064917.00,1,-0.6,49.8,15.9,-4.3,-0.6,10.1,,,,,,*4F
$GNGST,064917.00,3076364,,,,5.3,5.7,12*5E
$GNZDA,064917.00,23,05,2025,00,00*74
$GNGBS,064917.00,5.3,5.7,12.0,,,,*65
b0L6'#
IWjj*(
 %!
!O/F G;UN#[{4V_8:R 
YwAiG?H&p
K(mLE&_MEVWRXb6rF$GNRMC,064918.00,A,0419.92285,S,05539.82629,E,0.651,,230525,,,D*70
$GNVTG,,T,,M,0.651,N,1.205,K,D*3C
$GNGNS,064918.00,0419.92285,S,05539.82629,E,DA,17,0.75,20.2,-47.6,,0000*6B
$GNGGA,064918.00,0419.92285,S,05539.82629,E,2,12,0.75,20.2,M,-47.6,M,,0000*42
$GNGSA,A,3,24,20,05,13,15,12,29,18,25,23,40,,1.35,0.75,1.12*1F
$GNGSA,A,3,75,87,71,72,76,65,,,,,,,1.35,0.75,1.12*17
$GPGSV,5,1,17,05,39,035,13,10,06,213,,12,73,087,28,13,13,106,12*71
$GPGSV,5,2,17,15,40,136,26,18,32,293,24,20,06,033,10,23,47,211,25*7C
$GPGSV,5,3,17,24,32,176,12,25,59,341,30,28,05,291,,29,14,347,23*79
$GPGSV,5,4,17,36,52,277,,40,86,351,30,41,58,082,,49,32,274,*7F
$GPGSV,5,5,17,50,10,089,*4A
$GLGSV,3,1,09,65,25,179,15,71,14,063,13,72,38,112,16,75,40,166,13*6B
$GLGSV,3,2,09,76,69,294,18,77,24,325,,86,01,019,06,87,12,338,12*61
$GLGSV,3,3,09,88,06,282,*52
$GNGLL,0419.92285,S,05539.82629,E,064918.00,A,D*68
$GNGRS,064918.00,1,-4.4,41.7,2.5,18.3,2.3,-4.1,4.4,0.3,-4.3,-1.9,144,*64
$GNGRS,064918.00,1,-1.5,47.4,15.2,-5.0,1.0,8.7,,,,,,*5C
$GNGST,064918.00,4343719,,,,5.4,5.7,12*5A
$GNZDA,064918.00,23,05,2025,00,00*7B
$GNGBS,064918.00,5.4,5.7,12.0,,,,*6D
b0L6'#.
IWj(
 %!/ ;U#[{4V_58:R 
YwA2G?H&pK(LE&bMEVWR'Xb6rvJ($GNRMC,064919.00,A,0419.92279,S,05539.82630,E,0.112,,230525,,,D*7A
$GNVTG,,T,,M,0.112,N,0.207,K,D*3F
$GNGNS,064919.00,0419.92279,S,05539.82630,E,DA,17,0.88,19.7,-47.6,,0000*6C
$GNGGA,064919.00,0419.92279,S,05539.82630,E,2,12,0.88,19.7,M,-47.6,M,,0000*45
$GNGSA,A,3,24,20,05,13,15,12,29,18,25,23,40,,1.58,0.88,1.31*17
$GNGSA,A,3,75,87,71,72,76,65,,,,,,,1.58,0.88,1.31*1F
$GPGSV,5,1,17,05,39,035,16,10,06,213,,12,73,087,27,13,13,106,16*7F
$GPGSV,5,2,17,15,40,136,28,18,32,293,22,20,06,033,13,23,47,211,25*77
$GPGSV,5,3,17,24,32,176,12,25,59,341,30,28,05,291,,29,14,347,24*7E
$GPGSV,5,4,17,36,52,277,,40,86,351,30,41,58,082,27,49,32,274,*7A
$GPGSV,5,5,17,50,10,089,*4A
$GLGSV,3,1,09,65,25,179,16,71,14,063,17,72,38,112,16,75,40,166,11*6E
$GLGSV,3,2,09,76,69,294,19,77,24,325,,86,01,019,11,87,12,338,14*60
$GLGSV,3,3,09,88,06,282,*52
$GNGLL,0419.92279,S,05539.82630,E,064919.00,A,D*62
$GNGRS,064919.00,1,-6.1,-38.8,3.0,-30.7,5.1,-5.3,4.8,1.5,-0.8,-0.9,144,*6A
$GNGRS,064919.00,1,-4.8,49.0,-20.3,-7.9,1.0,8.2,,,,,,*7B
$GNGST,064919.00,1138,,,,5.3,5.8,12*67
$GNZDA,064919.00,23,05,2025,00,00*7A
$GNGBS,064919.00,5.3,5.8,11.9,,,,*6E
b0L6'#
IWj(
 %!/ ~;U#[{4V_L8:R 
YwAG?EH&pK
(LE&MEVWR&Xb6r^Ng$GNRMC,064920.00,A,0419.92281,S,05539.82621,E,0.316,,230525,,,D*71
$GNVTG,,T,,M,0.316,N,0.586,K,D*37
$GNGNS,064920.00,0419.92281,S,05539.82621,E,DA,17,0.78,19.3,-47.6,,0000*6A
$GNGGA,064920.00,0419.92281,S,05539.82621,E,2,12,0.78,19.3,M,-47.6,M,,0000*43
$GNGSA,A,3,24,20,05,13,15,12,29,18,25,23,40,,1.42,0.78,1.18*18
$GNGSA,A,3,75,87,71,72,76,65,,,,,,,1.42,0.78,1.18*10
$GPGSV,5,1,17,05,39,035,18,10,06,213,,12,73,087,28,13,13,106,12*7A
$GPGSV,5,2,17,15,40,136,28,18,32,293,23,20,06,033,09,23,47,211,25*7D
$GPGSV,5,3,17,24,32,176,14,25,59,341,31,28,05,291,,29,14,347,24*79
$GPGSV,5,4,17,36,52,277,,40,86,351,29,41,58,082,28,49,32,274,*7D
$GPGSV,5,5,17,50,10,089,*4A
$GLGSV,3,1,09,65,25,179,15,71,14,063,08,72,38,112,18,75,40,166,10*6C
$GLGSV,3,2,09,76,69,294,20,77,24,325,,86,01,019,08,87,12,338,13*65
$GLGSV,3,3,09,88,06,282,*52
$GNGLL,0419.92281,S,05539.82621,E,064920.00,A,D*6F
$GNGRS,064920.00,1,-6.4,42.3,1.3,20.0,4.7,-6.2,4.6,0.0,-1.1,2.4,144,*41
$GNGRS,064920.00,1,-5.4,49.0,16.0,-10.4,2.8,9.4,,,,,,*60
$GNGST,064920.00,3180286,,,,5.3,5.8,12*50
$GNZDA,064920.00,23,05,2025,00,00*70
$GNGBS,064920.00,5.3,5.8,11.9,,,,*64
b0L6'#
IWj(
 %!/X O;U#[{4V_T8:R 
YwAG
?[H&pK(LE&MEVWRJXZb6rFR?$GNRMC,064921.00,A,0419.92294,S,05539.82609,E,0.269,,230525,,,D*77
$GNVTG,,T,,M,0.269,N,0.498,K,D*30
$GNGNS,064921.00,0419.92294,S,05539.82609,E,DA,17,0.78,19.2,-47.6,,0000*64
$GNGGA,064921.00,0419.92294,S,05539.82609,E,2,12,0.78,19.2,M,-47.6,M,,0000*4D
$GNGSA,A,3,24,20,05,13,15,12,29,18,25,23,40,,1.42,0.78,1.18*18
$GNGSA,A,3,75,87,71,72,76,65,,,,,,,1.42,0.78,1.18*10
$GPGSV,5,1,17,05,39,035,17,10,06,213,,12,73,087,28,13,13,106,13*74
$GPGSV,5,2,17,15,40,136,29,18,32,293,24,20,06,033,16,23,47,211,28*78
$GPGSV,5,3,17,24,32,176,13,25,59,341,31,28,05,291,,29,14,347,23*79
$GPGSV,5,4,17,36,52,277,,40,86,351,31,41,58,082,29,49,32,274,*75
$GPGSV,5,5,17,50,10,089,*4A
$GLGSV,3,1,09,65,25,179,15,71,14,063,10,72,38,112,19,75,40,166,11*65
$GLGSV,3,2,09,76,69,294,18,77,24,325,,86,01,019,08,87,12,338,17*6A
b0L6'#
IWk
j(1
 %!./8 O<T\#[q{ 4 V_~8:R 
YwAG?EH&pYK
(LE&MEVWRXb6r.V`$GNRMC,064922.00,A,0419.92298,S,05539.82605,E,0.177,,230525,,,D*78
$GNVTG,,T,,M,0.177,N,0.328,K,D*30
$GNGNS,064922.00,0419.92298,S,05539.82605,E,DA,17,0.78,19.0,-47.6,,0000*65
$GNGGA,064922.00,0419.92298,S,05539.82605,E,2,12,0.78,19.0,M,-47.6,M,,0000*4C
b0Lp6'#
IWjw(
 %N!?/ *<T#[{4 V_8:R 
Yw#AG?H&pK(LE&UMEVWRX0bp6r]-$GNRMC,064924.00,A,0419.92295,S,05539.82618,E,0.178,,230525,,,D*70
$GNVTG,,T,,M,0.178,N,0.329,K,D*3E
$GNGNS,064924.00,0419.92295,S,05539.82618,E,DA,17,0.75,18.3,-47.6,,0000*6D
$GNGGA,064924.00,0419.92295,S,05539.82618,E,2,12,0.75,18.3,M,-47.6,M,,0000*44
$GNGSA,A,3,24,20,05,13,15,12,29,18,25,23,40,,1.35,0.75,1.12*1F
$GNGSA,A,3,75,87,71,72,76,65,,,,,,,1.35,0.75,1.12*17
$GPGSV,5,1,17,05,39,035,24,10,06,213,,12,73,087,29,13,13,106,13*75
$GPGSV,5,2,17,15,40,136,28,18,32,293,22,20,06,033,14,23,47,211,30*74
$GPGSV,5,3,17,24,32,176,22,25,60,340,31,28,05,291,,29,14,347,22*71
$GPGSV,5,4,17,36,52,277,31,40,86,351,32,41,58,082,29,49,32,274,*74
$GPGSV,5,5,17,50,10,089,*4A
$GLGSV,3,1,09,65,25,179,16,71,14,063,17,72,38,112,18,75,40,166,15*64
$GLGSV,3,2,09,76,69,294,22,77,24,325,,86,01,019,07,87,12,338,17*6C
$GLGSV,3,3,09,88,06,282,*52
$GNGLL,0419.92295,S,05539.82618,E,064924.00,A,D*64
$GNGRS,064924.00,1,-9.8,41.6,6.7,19.1,10.1,-2.9,4.7,0.8,-1.1,1.7,145,*7C
$GNGRS,064924.00,1,-0.7,45.7,15.2,-13.5,0.8,6.8,,,,,,*6B
$GNGST,064924.00,5319948,,,,5.0,5.6,12*54
$GNZDA,064924.00,23,05,2025,00,00*74
$GNGBS,064924.00,5.0,5.6,11.8,,,,*6C
$GNTXT,01,01,01,More than 100 frame errors, UART RX was disabled*70
$GNTXT,01,01,01,More than 100 frame errors, UART RX was disabled*70
b0L@6'#
IWj(D
 %z!t/ #!<T8#[7{4V_8:R 
YwNApG?H&pK(LE&sMEVWRrX0b@6rev$GNRMC,064926.00,A,0419.92286,S,05539.82628,E,0.130,,230525,,,D*7F
$GNVTG,,T,,M,0.130,N,0.242,K,D*3E
$GNGNS,064926.00,0419.92286,S,05539.82628,E,DA,17,0.75,17.5,-47.6,,0000*67
$GNGGA,064926.00,0419.92286,S,05539.82628,E,2,12,0.75,17.5,M,-47.6,M,,0000*4E
$GNGSA,A,3,24,20,05,13,15,12,29,18,25,23,40,,1.35,0.75,1.12*1F
$GNGSA,A,3,75,87,71,72,76,65,,,,,,,1.35,0.75,1.12*17
$GPGSV,5,1,17,05,39,035,23,10,06,213,,12,73,087,29,13,13,106,14*75
$GPGSV,5,2,17,15,40,136,28,18,32,293,20,20,06,033,15,23,47,211,30*77
$GPGSV,5,3,17,24,32,176,21,25,60,340,33,28,05,291,,29,15,347,23*70
$GPGSV,5,4,17,36,52,277,31,40,86,351,31,41,58,082,28,49,32,274,*76
$GPGSV,5,5,17,50,10,089,*4A
$GLGSV,3,1,09,65,25,179,17,71,14,063,12,72,38,112,19,75,40,166,12*66
$GLGSV,3,2,09,76,69,294,20,77,24,325,,86,01,019,09,87,12,338,17*60
$GLGSV,3,3,09,88,06,282,*52
$GNGLL,0419.92286,S,05539.82628,E,064926.00,A,D*67
$GNGRS,064926.00,1,-7.3,42.1,6.7,17.8,5.8,-7.4,5.7,-1.3,-2.0,1.5,145,*6B
$GNGRS,064926.00,1,-0.6,39.5,12.2,-15.3,1.2,3.7,,,,,,*67
$GNGST,064926.00,71221,,,,4.8,5.6,12*53
$GNZDA,064926.00,23,05,2025,00,00*76
$GNGBS,064926.00,4.8,5.6,11.7,,,,*68
$GNTXT,01,01,01,More than 100 frame errors, UART RX was disabled*70
b0L(6'#
IWj(|
 %L
!/1 !<T#[{ 4V_8:R 
YwxAG?H&pdK(LE&MEV
WRXsb(6riNe$GNRMC,064927.00,A,0419.92274,S,05539.82643,E,0.234,,230525,,,D*79
$GNVTG,,T,,M,0.234,N,0.433,K,D*39
$GNGNS,064927.00,0419.92274,S,05539.82643,E,DA,16,0.80,16.6,-47.6,,0000*6F
$GNGGA,064927.00,0419.92274,S,05539.82643,E,2,12,0.80,16.6,M,-47.6,M,,0000*47
$GNGSA,A,3,24,20,05,13,15,12,29,18,25,23,40,,1.42,0.80,1.17*10
$GNGSA,A,3,75,87,71,72,76,,,,,,,,1.42,0.80,1.17*1B
$GPGSV,5,1,17,05,39,035,21,10,06,213,,12,73,087,29,13,13,106,15*76
$GPGSV,5,2,17,15,40,136,29,18,32,293,20,20,06,033,10,23,47,211,29*7B
$GPGSV,5,3,17,24,32,176,20,25,60,340,33,28,05,291,,29,15,347,24*76
$GPGSV,5,4,17,36,52,277,32,40,86,351,31,41,58,082,28,49,32,274,*75
$GPGSV,5,5,17,50,10,089,*4A
$GLGSV,3,1,09,65,25,179,,71,14,063,15,72,38,112,19,75,40,166,14*61
$GLGSV,3,2,09,76,69,294,20,77,24,325,,86,01,019,10,87,12,338,16*69
$GLGSV,3,3,09,88,06,282,*52
$GNGLL,0419.92274,S,05539.82643,E,064927.00,A,D*66
$GNGRS,064927.00,1,-10.3,41.2,6.8,17.2,8.9,3.8,4.8,-1.8,-0.9,3.1,145,*78
$GNGRS,064927.00,1,-0.7,35.8,9.6,-16.9,1.4,,,,,,,*7D
$GNGST,064927.00,108973,,,,4.8,5.5,12*62
$GNZDA,064927.00,23,05,2025,00,00*77
$GNGBS,064927.00,4.8,5.5,11.6,,,,*6B
b0L6'#W
IWj;(
 %K!/ V!<T#[{ 4 V_8:R 
YwAG??H&pK(=LE&/MEVWRHXb6rm&$GNRMC,064928.00,A,0419.92268,S,05539.82653,E,0.056,,230525,,,D*7C
$GNVTG,,T,,M,0.056,N,0.104,K,D*3E
$GNGNS,064928.00,0419.92268,S,05539.82653,E,DA,15,0.80,16.1,-47.6,,0000*68
$GNGGA,064928.00,0419.92268,S,05539.82653,E,2,12,0.80,16.1,M,-47.6,M,,0000*43
$GNGSA,A,3,24,05,13,15,12,29,18,25,23,40,,,1.42,0.80,1.17*12
$GNGSA,A,3,75,87,71,72,76,,,,,,,,1.42,0.80,1.17*1B
$GPGSV,5,1,17,05,39,035,20,10,06,213,,12,73,087,29,13,13,106,16*74
$GPGSV,5,2,17,15,40,136,29,18,32,293,18,20,06,033,07,23,47,211,30*7E
$GPGSV,5,3,17,24,32,176,19,25,60,340,33,28,05,291,,29,15,347,25*7D
$GPGSV,5,4,17,36,52,277,32,40,86,351,32,41,58,082,27,49,32,274,*79
$GPGSV,5,5,17,50,10,089,*4A
$GLGSV,3,1,09,65,25,179,,71,14,063,16,72,38,112,18,75,40,166,13*64
$GLGSV,3,2,09,76,69,294,21,77,24,325,,86,01,019,09,87,12,338,17*61
$GLGSV,3,3,09,88,06,282,*52
$GNGLL,0419.92268,S,05539.82653,E,064928.00,A,D*65
$GNGRS,064928.00,1,-9.4,8.5,15.9,9.1,-2.6,4.0,-1.8,-2.8,-0.5,146,,*52
$GNGRS,064928.00,1,-27.6,34.0,8.3,-17.6,3.0,,,,,,,*43
$GNGST,064928.00,1097,,,,4.7,5.5,11*6A
$GNZDA,064928.00,23,05,2025,00,00*78
$GNGBS,064928.00,4.7,5.5,11.4,,,,*69
b0L6'#
IWQj(1
 %{!/ X!<TV#[{ 4 V_8:R 
YwAG?H&pK(LE&MEVWRXb6rq&$GNRMC,064929.00,A,0419.92275,S,05539.82656,E,0.152,,230525,,,D*71
$GNVTG,,T,,M,0.152,N,0.282,K,D*36
$GNGNS,064929.00,0419.92275,S,05539.82656,E,DA,16,0.80,15.8,-47.6,,0000*69
$GNGGA,064929.00,0419.92275,S,05539.82656,E,2,12,0.80,15.8,M,-47.6,M,,0000*41
$GNGSA,A,3,24,20,05,13,15,12,29,18,25,23,40,,1.42,0.80,1.17*10
$GNGSA,A,3,75,87,71,72,76,,,,,,,,1.42,0.80,1.17*1B
$GPGSV,5,1,17,05,39,035,19,10,06,213,,12,73,087,28,13,13,106,17*7E
$GPGSV,5,2,17,15,40,136,29,18,32,293,18,20,06,033,11,23,47,211,30*79
$GPGSV,5,3,17,24,32,176,20,25,60,340,33,28,05,291,,29,15,347,25*77
$GPGSV,5,4,17,36,52,277,32,40,86,351,32,41,58,082,27,49,32,274,*79
$GPGSV,5,5,17,50,10,089,*4A
$GLGSV,3,1,09,65,25,179,,71,14,063,16,72,38,112,17,75,40,166,18*60
$GLGSV,3,2,09,76,69,294,22,77,24,325,,86,01,019,11,87,12,338,17*6B
$GLGSV,3,3,09,88,06,282,*52
$GNGLL,0419.92275,S,05539.82656,E,064929.00,A,D*6D
$GNGRS,064929.00,1,-9.4,42.3,9.7,11.9,10.7,-4.3,4.5,-1.3,-4.3,4.1,146,*5C
$GNGRS,064929.00,1,-0.8,34.9,4.6,-17.8,1.4,,,,,,,*71
$GNGST,064929.00,3179277,,,,4.6,5.4,11*5A
$GNZDA,064929.00,23,05,2025,00,00*79
$GNGBS,064929.00,4.6,5.4,11.3,,,,*6F
$GNTXT,01,01,01,More than 100 frame errors, UART RX was disabled*70
b0L6'#
IWj~(
 %[!\/  <T#[_{ 4 V_8:R 
YwAG?H&pK(LE&MEVWR Xb6rnu$GNRMC,064930.00,A,0419.92272,S,05539.82657,E,0.121,,230525,,,D*7B
$GNVTG,,T,,M,0.121,N,0.224,K,D*3E
$GNGNS,064930.00,0419.92272,S,05539.82657,E,DA,16,0.80,15.2,-47.6,,0000*6D
$GNGGA,064930.00,0419.92272,S,05539.82657,E,2,12,0.80,15.2,M,-47.6,M,,0000*45
$GNGSA,A,3,24,20,05,13,15,12,29,18,25,23,40,,1.42,0.80,1.17*10
$GNGSA,A,3,75,87,71,72,76,,,,,,,,1.42,0.80,1.17*1B
$GPGSV,5,1,17,05,39,035,19,10,06,213,,12,73,087,28,13,13,106,17*7E
$GPGSV,5,2,17,15,40,136,28,18,32,293,18,20,06,033,08,23,47,211,29*78
$GPGSV,5,3,17,24,32,176,19,25,60,340,32,28,05,291,,29,15,347,26*7F
$GPGSV,5,4,17,36,52,277,32,40,86,351,32,41,58,082,27,49,32,274,*79
$GPGSV,5,5,17,50,10,089,*4A
$GLGSV,3,1,09,65,25,179,,71,14,063,14,72,38,112,17,75,40,166,17*6D
$GLGSV,3,2,09,76,69,294,22,77,24,325,,86,01,019,12,87,12,338,17*68
$GLGSV,3,3,09,88,06,282,*52
$GNGLL,0419.92272,S,05539.82657,E,064930.00,A,D*63
$GNGRS,064930.00,1,-10.3,41.9,9.8,6.4,2.5,-2.7,3.5,0.9,-3.4,3.9,145,*48
$GNGRS,064930.00,1,-0.8,33.6,5.2,-16.4,1.9,,,,,,,*74
$GNGST,064930.00,3179277,,,,4.6,5.4,11*52
$GNZDA,064930.00,23,05,2025,00,00*71
$GNGBS,064930.00,4.6,5.4,11.2,,,,*66
b0L6'#
IWSj(A
 %u!/ %<T#[{4 V_8:R 
YwAG?H&p;K(LE&_MEVWRVX?b6rVy$GNRMC,064931.00,A,0419.92270,S,05539.82663,E,0.044,,230525,,,D*7D
$GNVTG,,T,,M,0.044,N,0.082,K,D*32
$GNGNS,064931.00,0419.92270,S,05539.82663,E,DA,15,0.84,14.8,-47.6,,0000*65
$GNGGA,064931.00,0419.92270,S,05539.82663,E,2,12,0.84,14.8,M,-47.6,M,,0000*4E
$GNGSA,A,3,24,20,05,13,15,12,29,18,25,23,40,,1.45,0.84,1.18*1C
$GNGSA,A,3,87,71,72,76,,,,,,,,,1.45,0.84,1.18*15
$GPGSV,5,1,17,05,39,035,19,10,06,213,,12,73,087,27,13,13,106,17*71
$GPGSV,5,2,17,15,40,136,29,18,32,293,18,20,06,033,09,23,47,211,28*79
$GPGSV,5,3,17,24,32,176,19,25,60,340,31,28,05,291,,29,15,347,26*7C
$GPGSV,5,4,17,36,52,277,31,40,86,351,32,41,58,082,28,49,32,274,*75
$GPGSV,5,5,17,50,10,089,*4A
$GLGSV,3,1,09,65,25,179,,71,14,063,14,72,38,112,18,75,40,166,07*63
$GLGSV,3,2,09,76,69,294,23,77,24,325,,86,01,019,09,87,12,338,18*6C
$GLGSV,3,3,09,88,06,282,*52
$GNGLL,0419.92270,S,05539.82663,E,064931.00,A,D*67
$GNGRS,064931.00,1,-9.9,-57.5,9.4,4.9,5.8,0.8,1.6,1.2,-2.8,1.4,145,*7D
$GNGRS,064931.00,1,31.6,1.9,-14.8,1.0,,,,,,,,*74
$GNGST,064931.00,1138,,,,4.5,5.4,11*65
$GNZDA,064931.00,23,05,2025,00,00*70
$GNGBS,064931.00,4.5,5.4,11.1,,,,*67
$GNTXT,01,01,01,More than 100 frame errors, UART RX was disabled*70
$GNTXT,01,01,01,More than 100 frame errors, UART RX was disabled*70
b0L7'#
IWjw(
 %!/ <T#[6{4 V_8:R 
YwAG?"H&pK(LE&MEV
WRXb7r&^$GNRMC,064933.00,A,0419.92274,S,05539.82667,E,0.165,,230525,,,D*7D
$GNVTG,,T,,M,0.165,N,0.306,K,D*3F
$GNGNS,064933.00,0419.92274,S,05539.82667,E,DA,16,0.80,14.8,-47.6,,0000*60
$GNGGA,064933.00,0419.92274,S,05539.82667,E,2,12,0.80,14.8,M,-47.6,M,,0000*48
$GNGSA,A,3,24,20,05,13,15,12,29,18,25,23,40,,1.42,0.80,1.17*10
$GNGSA,A,3,75,87,71,72,76,,,,,,,,1.42,0.80,1.17*1B
$GPGSV,5,1,17,05,39,035,17,10,06,213,,12,73,087,25,13,13,106,18*72
$GPGSV,5,2,17,15,40,136,28,18,32,293,16,20,06,033,13,23,47,211,28*7D
$GPGSV,5,3,17,24,32,176,17,25,60,340,31,28,05,291,,29,15,347,25*71
$GPGSV,5,4,17,36,52,277,31,40,86,351,32,41,58,082,27,49,32,274,*7A
$GPGSV,5,5,17,50,10,089,*4A
$GLGSV,3,1,09,65,25,179,,71,14,063,15,72,38,112,16,75,40,166,19*63
$GLGSV,3,2,09,76,69,294,22,77,24,325,,86,01,019,10,87,12,338,17*6A
$GLGSV,3,3,09,88,06,282,*52
$GNGLL,0419.92274,S,05539.82667,E,064933.00,A,D*65
$GNGRS,064933.00,1,-10.5,43.1,6.9,3.8,4.4,5.0,3.1,-0.6,-2.5,4.4,145,*46
$GNGRS,064933.00,1,-3.2,30.5,2.9,-11.0,1.7,,,,,,,*7F
$GNGST,064933.00,1096,,,,4.5,5.3,11*65
$GNZDA,064933.00,23,05,2025,00,00*72
$GNGBS,064933.00,4.5,5.3,11.0,,,,*63
b0L
7'#.
IWj(
 %!/A <T#[H{4 V_8:R 
YwAG?XH&pcK([LE&EMEV
WRXjb
7r6<$GNRMC,064934.00,A,0419.92275,S,05539.82671,E,0.036,,230525,,,D*7B
$GNVTG,,T,,M,0.036,N,0.066,K,D*3D
$GNGNS,064934.00,0419.92275,S,05539.82671,E,DA,15,0.79,14.8,-47.6,,0000*64
$GNGGA,064934.00,0419.92275,S,05539.82671,E,2,12,0.79,14.8,M,-47.6,M,,0000*4F
$GNGSA,A,3,24,20,05,13,15,12,29,18,25,23,40,,1.36,0.79,1.10*12
$GNGSA,A,3,75,71,72,76,,,,,,,,,1.36,0.79,1.10*16
$GPGSV,5,1,17,05,39,035,19,10,06,213,,12,73,087,25,13,13,106,18*7C
$GPGSV,5,2,17,15,40,136,27,18,32,293,18,20,06,033,13,23,47,211,29*7D
$GPGSV,5,3,17,24,32,176,18,25,60,340,31,28,05,291,,29,15,347,25*7E
$GPGSV,5,4,17,36,52,277,31,40,86,351,32,41,58,082,,49,32,274,*7F
$GPGSV,5,5,17,50,10,089,*4A
$GLGSV,3,1,09,65,25,179,,71,14,063,17,72,38,112,15,75,40,166,18*63
$GLGSV,3,2,09,76,69,294,23,77,24,325,,86,01,019,10,87,12,338,*6D
$GLGSV,3,3,09,88,06,282,*52
$GNGLL,0419.92275,S,05539.82671,E,064934.00,A,D*64
$GNGRS,064934.00,1,-10.7,12.1,8.1,1.3,4.1,7.1,0.7,-5.6,-2.3,3.2,145,*49
$GNGRS,064934.00,1,-4.2,0.9,-11.8,3.3,,,,,,,,*6B
$GNGST,064934.00,1060,,,,4.4,5.4,11*6D
$GNZDA,064934.00,23,05,2025,00,00*75
$GNGBS,064934.00,4.4,5.4,10.9,,,,*6A
$GNTXT,01,01,01,More than 100 frame errors, UART RX was disabled*70
b0Lh7'#
IWj(
 %!/ <T#[{4 V_8:R 
YwAG?^H&pK(LE&MEVWRXbh7r$GNRMC,064935.00,A,0419.92270,S,05539.82681,E,0.198,,230525,,,D*75
$GNVTG,,T,,M,0.198,N,0.366,K,D*3B
$GNGNS,064935.00,0419.92270,S,05539.82681,E,DA,15,0.80,14.9,-47.6,,0000*68
$GNGGA,064935.00,0419.92270,S,05539.82681,E,2,12,0.80,14.9,M,-47.6,M,,0000*43
$GNGSA,A,3,24,20,05,13,15,12,29,18,25,23,40,,1.42,0.80,1.17*10
$GNGSA,A,3,75,71,72,76,,,,,,,,,1.42,0.80,1.17*14
$GPGSV,5,1,17,05,39,035,21,10,06,213,,12,73,087,25,13,13,106,18*77
$GPGSV,5,2,17,15,40,136,26,18,32,293,18,20,06,033,13,23,47,211,29*7C
$GPGSV,5,3,17,24,32,176,20,25,60,340,31,28,05,291,,29,15,347,25*75
$GPGSV,5,4,17,36,52,277,31,40,86,351,32,41,58,082,,49,32,274,*7F
$GPGSV,5,5,17,50,10,089,*4A
$GLGSV,3,1,09,65,25,179,,71,14,063,16,72,38,112,15,75,40,166,16*6C
$GLGSV,3,2,09,76,69,294,24,77,24,325,,86,01,019,11,87,12,338,*6B
$GLGSV,3,3,09,88,06,282,*52
$GNGLL,0419.92270,S,05539.82681,E,064935.00,A,D*6F
$GNGRS,064935.00,1,-13.1,42.7,9.2,-0.9,6.4,7.3,-0.4,-5.4,-2.5,2.1,145,*47
$GNGRS,064935.00,1,-8.2,3.5,-10.2,2.0,,,,,,,,*60
$GNGST,064935.00,1096,,,,4.4,5.4,11*65
$GNZDA,064935.00,23,05,2025,00,00*74
$GNGBS,064935.00,4.4,5.4,10.9,,,,*6B
$GNTXT,01,01,01,More than 100 frame errors, UART RX was disabled*70
$GNTXT,01,01,01,More than 100 frame errors, UART RX was disabled*70
b0L87'#;
IWj(
 %A!/ <T#[{ 4!V_8:R 
YwAG?(H&pK(LE&MEVWRXcb87rq$GNRMC,064937.00,A,0419.92265,S,05539.82715,E,0.150,,230525,,,D*7B
$GNVTG,,T,,M,0.150,N,0.277,K,D*3E
$GNGNS,064937.00,0419.92265,S,05539.82715,E,DA,14,0.82,15.5,-47.6,,0000*6C
$GNGGA,064937.00,0419.92265,S,05539.82715,E,2,12,0.82,15.5,M,-47.6,M,,0000*46
$GNGSA,A,3,24,20,05,13,15,12,29,18,25,23,40,,1.38,0.82,1.11*19
$GNGSA,A,3,71,72,76,,,,,,,,,,1.38,0.82,1.11*1F
$GPGSV,5,1,17,05,39,035,23,10,06,213,,12,73,087,25,13,13,106,18*75
$GPGSV,5,2,17,15,40,136,27,18,32,293,18,20,06,033,11,23,47,211,28*7E
$GPGSV,5,3,17,24,32,176,20,25,60,340,30,28,05,291,,29,15,347,25*74
$GPGSV,5,4,17,36,52,277,32,40,86,351,33,41,58,082,,49,32,274,*7D
$GPGSV,5,5,17,50,10,089,*4A
$GLGSV,3,1,09,65,25,179,,71,14,063,16,72,38,112,15,75,40,166,*6B
$GLGSV,3,2,09,76,69,294,24,77,24,325,,86,01,019,12,87,12,338,*68
$GLGSV,3,3,09,88,06,282,*52
$GNGLL,0419.92265,S,05539.82715,E,064937.00,A,D*65
$GNGRS,064937.00,1,-13.7,-8.4,10.8,-3.5,9.1,9.0,-1.0,-9.6,-2.3,4.3,145,*60
$GNGRS,064937.00,1,3.0,-8.8,2.8,,,,,,,,,*55
$GNGST,064937.00,1097,,,,4.3,5.4,11*61
$GNZDA,064937.00,23,05,2025,00,00*76
$GNGBS,064937.00,4.3,5.4,10.9,,,,*6E
b0L 7'#
IWjH(
 %Z!// <T#[{ 4 V_8:R 
YwAG?qH&pFK(LE&MEVWRXwb 7r$GNRMC,064938.00,A,0419.92261,S,05539.82719,E,0.122,,230525,,,D*79
$GNVTG,,T,,M,0.122,N,0.226,K,D*3F
$GNGNS,064938.00,0419.92261,S,05539.82719,E,DA,14,0.84,15.6,-47.6,,0000*6E
$GNGGA,064938.00,0419.92261,S,05539.82719,E,2,12,0.84,15.6,M,-47.6,M,,0000*44
$GNGSA,A,3,24,20,05,13,15,12,29,18,25,23,40,,1.45,0.84,1.18*1C
$GNGSA,A,3,71,72,76,,,,,,,,,,1.45,0.84,1.18*1A
$GPGSV,5,1,17,05,39,035,24,10,06,213,,12,73,087,24,13,13,106,18*73
$GPGSV,5,2,17,15,40,136,26,18,32,293,17,20,06,033,15,23,47,211,27*7B
$GPGSV,5,3,17,24,32,176,21,25,60,340,31,28,05,291,,29,15,347,25*74
$GPGSV,5,4,17,36,52,277,32,40,86,351,32,41,58,082,,49,32,274,*7C
$GPGSV,5,5,17,50,10,089,*4A
$GLGSV,3,1,09,65,25,179,,71,14,063,16,72,38,112,13,75,40,166,19*65
$GLGSV,3,2,09,76,69,294,23,77,24,325,,86,01,019,06,87,12,338,*6A
$GLGSV,3,3,09,88,06,282,*52
$GNGLL,0419.92261,S,05539.82719,E,064938.00,A,D*62
$GNGRS,064938.00,1,-13.6,42.5,10.5,-4.4,9.8,8.0,-2.8,-6.8,1.9,5.6,145,*55
$GNGRS,064938.00,1,1.1,-7.0,2.2,,,,,,,,,*54
$GNGST,064938.00,1138,,,,4.3,5.4,11*6A
$GNZDA,064938.00,23,05,2025,00,00*79
$GNGBS,064938.00,4.3,5.4,10.9,,,,*61
$GNTXT,01,01,01,More than 100 frame errors, UART RX was disabled*70
b0L!7'#
IWj3(
 %
!/ 7<T#[}{ 4 V_b8:R 
YwAG?H&pK(0LE&MEVWRX\b!7r~D$GNRMC,064940.00,A,0419.92257,S,05539.82744,E,0.357,,230525,,,D*7B
$GNVTG,,T,,M,0.357,N,0.662,K,D*3B
$GNGNS,064940.00,0419.92257,S,05539.82744,E,DA,14,0.84,16.4,-47.6,,0000*6D
$GNGGA,064940.00,0419.92257,S,05539.82744,E,2,12,0.84,16.4,M,-47.6,M,,0000*47
$GNGSA,A,3,24,20,05,13,15,12,29,18,25,23,40,,1.45,0.84,1.18*1C
$GNGSA,A,3,71,72,76,,,,,,,,,,1.45,0.84,1.18*1A
$GPGSV,5,1,17,05,39,035,24,10,06,213,,12,73,087,22,13,13,106,18*75
$GPGSV,5,2,17,15,40,136,25,18,32,293,17,20,06,033,10,23,47,211,28*72
$GPGSV,5,3,17,24,32,176,23,25,60,340,30,28,05,291,,29,15,347,25*77
$GPGSV,5,4,17,36,52,277,32,40,86,351,32,41,58,082,,49,32,274,*7C
$GPGSV,5,5,17,50,10,089,*4A
$GLGSV,3,1,09,65,25,179,,71,14,063,15,72,38,112,15,75,40,166,18*61
$GLGSV,3,2,09,76,69,294,25,77,24,325,,86,01,019,08,87,12,338,*62
$GLGSV,3,3,09,88,06,282,*52
$GNGLL,0419.92257,S,05539.82744,E,064940.00,A,D*60
$GNGRS,064940.00,1,-14.8,-36.4,10.0,-7.2,14.1,7.9,-3.9,-8.5,1.4,5.0,144,*46
$GNGRS,064940.00,1,-1.2,-7.8,2.6,,,,,,,,,*79
$GNGST,064940.00,1138,,,,4.3,5.4,11*65
$GNZDA,064940.00,23,05,2025,00,00*76
$GNGBS,064940.00,4.3,5.4,10.9,,,,*6E
b0L%7'#
IW3j(
 %
!|/ x<T#[h{ 4 V_^8:R 
YwAG?H&pBK(LE&MEVWRXb%7rf$GNRMC,064941.00,A,0419.92252,S,05539.82758,E,0.630,,230525,,,D*76
$GNVTG,,T,,M,0.630,N,1.166,K,D*3D
$GNGNS,064941.00,0419.92252,S,05539.82758,E,DA,15,0.84,15.8,-47.6,,0000*6A
$GNGGA,064941.00,0419.92252,S,05539.82758,E,2,12,0.84,15.8,M,-47.6,M,,0000*41
$GNGSA,A,3,24,20,05,13,15,12,29,18,25,23,40,,1.45,0.84,1.18*1C
$GNGSA,A,3,75,71,72,76,,,,,,,,,1.45,0.84,1.18*18
$GPGSV,5,1,17,05,39,035,23,10,06,213,,12,73,087,21,13,13,106,16*7F
$GPGSV,5,2,17,15,40,136,26,18,32,293,16,20,06,033,10,23,47,211,29*71
$GPGSV,5,3,17,24,32,176,23,25,60,340,29,28,05,291,,29,15,347,25*7F
$GPGSV,5,4,17,36,52,277,32,40,86,351,32,41,58,082,,49,32,274,*7C
$GPGSV,5,5,17,50,10,089,*4A
$GLGSV,3,1,09,65,25,179,,71,14,063,15,72,38,112,17,75,40,166,18*63
$GLGSV,3,2,09,76,69,294,25,77,24,325,,86,01,019,09,87,12,338,*63
$GLGSV,3,3,09,88,06,282,*52
$GNGLL,0419.92252,S,05539.82758,E,064941.00,A,D*69
$GNGRS,064941.00,1,-16.7,42.2,9.6,-6.4,12.5,8.2,-4.1,-10.4,6.5,7.1,144,*6F
$GNGRS,064941.00,1,-41.2,-0.6,-9.6,1.5,,,,,,,,*49
$GNGST,064941.00,1138,,,,4.2,5.4,11*65
$GNZDA,064941.00,23,05,2025,00,00*77
$GNGBS,064941.00,4.2,5.4,11.0,,,,*66
$GNTXT,01,01,01,More than 100 frame errors, UART RX was disabled*70
b0L)7'#
IWjl(
 %c!/C <Tb#["{ 4!V_I8:R 
YwAG?iH&pK(=LE&MEVWRXcb)7rNj$GNRMC,064942.00,A,0419.92253,S,05539.82760,E,0.163,,230525,,,D*7E
$GNVTG,,T,,M,0.163,N,0.302,K,D*3D
$GNGNS,064942.00,0419.92253,S,05539.82760,E,DA,15,0.84,16.1,-47.6,,0000*69
$GNGGA,064942.00,0419.92253,S,05539.82760,E,2,12,0.84,16.1,M,-47.6,M,,0000*42
$GNGSA,A,3,24,20,05,13,15,12,29,18,25,23,40,,1.45,0.84,1.18*1C
$GNGSA,A,3,75,71,72,76,,,,,,,,,1.45,0.84,1.18*18
$GPGSV,5,1,17,05,39,035,22,10,06,213,,12,73,087,20,13,13,106,16*7F
$GPGSV,5,2,17,15,40,136,27,18,32,293,16,20,06,033,09,23,47,211,29*78
$GPGSV,5,3,17,24,32,176,23,25,60,340,29,28,05,291,,29,15,347,25*7F
$GPGSV,5,4,17,36,52,277,32,40,86,351,33,41,58,082,27,49,32,274,*78
$GPGSV,5,5,17,50,10,089,*4A
$GLGSV,3,1,09,65,25,179,,71,14,063,15,72,38,112,17,75,40,166,17*6C
$GLGSV,3,2,09,76,69,294,25,77,24,325,,86,01,019,08,87,12,338,*62
$GLGSV,3,3,09,88,06,282,*52
$GNGLL,0419.92253,S,05539.82760,E,064942.00,A,D*60
$GNGRS,064942.00,1,-16.6,42.5,9.9,-9.2,11.8,9.8,-2.2,-6.7,3.5,8.4,144,*57
$GNGRS,064942.00,1,-40.3,-1.5,-10.2,1.7,,,,,,,,*76
$GNGST,064942.00,1138,,,,4.2,5.5,11*67
$GNZDA,064942.00,23,05,2025,00,00*74
$GNGBS,064942.00,4.2,5.5,11.0,,,,*64
$GNTXT,01,01,01,More than 100 frame errors, UART RX was disabled*70
b0L-7'#
IWj(
 %!/r &<T#[6{ 4 V_!8:R 
Yw_AG?H&pK(LE&CMEVWRXb-7r6$GNRMC,064943.00,A,0419.92256,S,05539.82761,E,0.066,,230525,,,D*7F
$GNVTG,,T,,M,0.066,N,0.123,K,D*38
$GNGNS,064943.00,0419.92256,S,05539.82761,E,DA,15,0.84,16.3,-47.6,,0000*6E
$GNGGA,064943.00,0419.92256,S,05539.82761,E,2,12,0.84,16.3,M,-47.6,M,,0000*45
$GNGSA,A,3,24,20,05,13,15,12,29,18,25,23,40,,1.45,0.84,1.18*1C
$GNGSA,A,3,75,71,72,76,,,,,,,,,1.45,0.84,1.18*18
$GPGSV,5,1,17,05,39,035,22,10,06,213,,12,73,087,19,13,13,106,18*7B
$GPGSV,5,2,17,15,40,136,26,18,32,293,17,20,06,033,08,23,47,211,29*79
$GPGSV,5,3,17,24,32,176,23,25,60,340,29,28,05,291,,29,15,347,26*7C
$GPGSV,5,4,17,36,52,277,32,40,86,351,32,41,58,082,28,49,32,274,*76
$GPGSV,5,5,17,50,10,089,*4A
$GLGSV,3,1,09,65,25,179,,71,14,063,14,72,38,112,16,75,40,166,18*63
$GLGSV,3,2,09,76,69,294,24,77,24,325,,86,01,019,09,87,12,338,*62
$GLGSV,3,3,09,88,06,282,*52
$GNGLL,0419.92256,S,05539.82761,E,064943.00,A,D*65
$GNGRS,064943.00,1,-15.0,-77.8,9.1,-8.8,9.8,9.9,-2.0,-6.0,-1.2,8.8,144,*6F
$GNGRS,064943.00,1,-35.6,-3.1,-7.9,0.7,,,,,,,,*4A
$GNGST,064943.00,1138,,,,4.2,5.5,11*66
$GNZDA,064943.00,23,05,2025,00,00*75
$GNGBS,064943.00,4.2,5.5,11.0,,,,*65
b0Lx57'#F
IWDj(
 %@!/ K<T#[Z{4V_7:R 
YwAG?H&pK(\LE&MEVWRX:bx57r|$GNRMC,064945.00,A,0419.92260,S,05539.82767,E,0.198,,230525,,,D*7A
$GNVTG,,T,,M,0.198,N,0.366,K,D*3B
$GNGNS,064945.00,0419.92260,S,05539.82767,E,DA,15,0.84,17.2,-47.6,,0000*6B
$GNGGA,064945.00,0419.92260,S,05539.82767,E,2,12,0.84,17.2,M,-47.6,M,,0000*40
$GNGSA,A,3,24,20,05,13,15,12,29,18,25,23,40,,1.45,0.84,1.18*1C
$GNGSA,A,3,75,71,72,76,,,,,,,,,1.45,0.84,1.18*18
$GPGSV,5,1,17,05,39,035,24,10,06,213,,12,73,087,19,13,13,106,18*7D
$GPGSV,5,2,17,15,40,136,28,18,32,293,18,20,06,033,11,23,47,211,29*70
$GPGSV,5,3,17,24,32,176,23,25,60,340,28,28,05,291,,29,15,347,26*7D
$GPGSV,5,4,17,36,52,277,31,40,86,351,31,41,58,082,27,49,32,274,*79
$GPGSV,5,5,17,50,10,089,*4A
$GLGSV,3,1,09,65,25,179,,71,14,063,14,72,38,112,16,75,40,166,16*6D
$GLGSV,3,2,09,76,69,294,25,77,24,325,,86,01,019,06,87,12,338,*6C
$GLGSV,3,3,09,88,06,282,*52
$GNGLL,0419.92260,S,05539.82767,E,064945.00,A,D*60
$GNGRS,064945.00,1,-14.6,42.7,8.4,-8.2,9.9,8.4,-1.7,-9.6,2.4,6.4,143,*69
$GNGRS,064945.00,1,-29.8,-5.4,-7.8,-0.4,,,,,,,,*63
$GNGST,064945.00,1138,,,,4.2,5.5,11*60
$GNZDA,064945.00,23,05,2025,00,00*73
$GNGBS,064945.00,4.2,5.5,11.1,,,,*62
$GNTXT,01,01,01,More than 100 frame errors, UART RX was disabled*70
b0L0A7'#1
IWsj(
 %f!/ <T#[{ 4 V_7:R 
YxAG?H&pK(LE&MEVWRXkb0A7r$GNRMC,064948.00,A,0419.92274,S,05539.82777,E,0.158,,230525,,,D*7F
$GNVTG,,T,,M,0.158,N,0.292,K,D*3D
$GNGNS,064948.00,0419.92274,S,05539.82777,E,DA,15,0.82,18.2,-47.6,,0000*6B
$GNGGA,064948.00,0419.92274,S,05539.82777,E,2,12,0.82,18.2,M,-47.6,M,,0000*40
$GNGSA,A,3,24,20,05,13,15,12,29,18,25,23,40,,1.37,0.82,1.10*17
$GNGSA,A,3,75,71,72,76,,,,,,,,,1.37,0.82,1.10*13
$GPGSV,5,1,17,05,39,035,25,10,06,213,,12,73,087,20,13,13,106,16*78
$GPGSV,5,2,17,15,40,136,29,18,32,293,20,20,06,033,09,23,47,211,30*7B
$GPGSV,5,3,17,24,32,176,24,25,60,340,28,28,05,291,,29,15,347,26*7A
$GPGSV,5,4,17,36,52,277,32,40,86,351,32,41,58,082,28,49,32,274,*76
$GPGSV,5,5,17,50,10,089,*4A
$GLGSV,3,1,09,65,25,179,,71,14,063,14,72,38,112,14,75,40,166,16*6F
$GLGSV,3,2,09,76,69,294,26,77,24,325,,86,01,019,11,87,12,338,*69
$GLGSV,3,3,09,88,06,282,*52
$GNGLL,0419.92274,S,05539.82777,E,064948.00,A,D*69
$GNGRS,064948.00,1,-12.9,42.8,3.1,-8.1,5.4,-1.4,-6.1,-6.7,2.1,4.8,143,*4E
$GNGRS,064948.00,1,-24.3,-7.4,-5.4,-0.7,,,,,,,,*67
$GNGST,064948.00,1097,,,,4.1,5.4,11*6B
$GNZDA,064948.00,23,05,2025,00,00*7E
$GNGBS,064948.00,4.1,5.4,11.2,,,,*6E
$GNTXT,01,01,01,More than 100 frame errors, UART RX was disabled*70
b0LE7'#
IW{j(
 %!/T )<T#[{ 4 V_7:R 
YxAG?H&pK(LE&QMEVWRX;bE7r?$GNRMC,064949.00,A,0419.92279,S,05539.82773,E,0.175,,230525,,,D*78
$GNVTG,,T,,M,0.175,N,0.324,K,D*3E
$GNGNS,064949.00,0419.92279,S,05539.82773,E,DA,15,0.82,18.8,-47.6,,0000*69
$GNGGA,064949.00,0419.92279,S,05539.82773,E,2,12,0.82,18.8,M,-47.6,M,,0000*42
$GNGSA,A,3,24,20,05,13,15,12,29,18,25,23,40,,1.37,0.82,1.10*17
$GNGSA,A,3,75,71,72,76,,,,,,,,,1.37,0.82,1.10*13
$GPGSV,5,1,17,05,39,035,25,10,06,213,,12,73,087,19,13,13,106,17*73
$GPGSV,5,2,17,15,40,136,29,18,32,293,21,20,06,033,13,23,47,211,30*71
$GPGSV,5,3,17,24,32,176,23,25,60,340,28,28,05,291,,29,15,347,26*7D
$GPGSV,5,4,17,36,52,277,32,40,86,351,32,41,58,082,27,49,32,274,*79
$GPGSV,5,5,17,50,10,089,*4A
$GLGSV,3,1,09,65,25,179,,71,14,063,16,72,38,112,14,75,40,166,16*6D
$GLGSV,3,2,09,76,69,294,26,77,24,325,,86,01,019,07,87,12,338,*6E
$GLGSV,3,3,09,88,06,282,*52
$GNGLL,0419.92279,S,05539.82773,E,064949.00,A,D*61
$GNGRS,064949.00,1,-9.8,-62.6,2.4,-7.9,4.4,-1.3,-3.7,-8.5,2.1,6.0,143,*55
$GNGRS,064949.00,1,-23.7,-3.8,-5.6,0.8,,,,,,,,*4D
$GNGST,064949.00,1096,,,,4.1,5.4,11*6B
$GNZDA,064949.00,23,05,2025,00,00*7F
$GNGBS,064949.00,4.1,5.4,11.2,,,,*6F
$GNTXT,01,01,01,More than 100 frame errors, UART RX was disabled*70
b0LI7'#
IWj(
 %!/ <T4#[{ 4 V_7:R 
Yx}AG?H&pK(oLE&MEVWRX4bI7r$GNRMC,064950.00,A,0419.92279,S,05539.82779,E,0.117,,230525,,,D*7E
$GNVTG,,T,,M,0.117,N,0.217,K,D*3B
$GNGNS,064950.00,0419.92279,S,05539.82779,E,DA,15,0.82,19.6,-47.6,,0000*64
$GNGGA,064950.00,0419.92279,S,05539.82779,E,2,12,0.82,19.6,M,-47.6,M,,0000*4F
$GNGSA,A,3,24,20,05,13,15,12,29,18,25,23,40,,1.37,0.82,1.10*17
$GNGSA,A,3,75,71,72,76,,,,,,,,,1.37,0.82,1.10*13
$GPGSV,5,1,17,05,39,035,26,10,06,213,,12,73,087,19,13,13,106,16*71
$GPGSV,5,2,17,15,40,136,29,18,32,293,21,20,06,033,14,23,47,211,29*7E
$GPGSV,5,3,17,24,32,176,22,25,60,340,28,28,05,291,,29,15,347,25*7F
$GPGSV,5,4,17,36,52,277,32,40,86,351,32,41,58,082,28,49,32,274,*76
$GPGSV,5,5,17,50,10,089,*4A
$GLGSV,3,1,09,65,26,178,,71,14,063,17,72,38,112,15,75,40,166,16*6F
$GLGSV,3,2,09,76,69,294,26,77,24,325,,86,01,019,08,87,12,338,*61
$GLGSV,3,3,09,88,06,282,*52
$GNGLL,0419.92279,S,05539.82779,E,064950.00,A,D*63
$GNGRS,064950.00,1,-8.7,42.7,-0.9,-8.4,2.5,-3.5,-3.0,-10.3,3.1,-0.8,143,*44
$GNGRS,064950.00,1,-21.9,-6.3,-4.8,0.1,,,,,,,,*41
$GNGST,064950.00,1096,,,,4.1,5.4,11*63
$GNZDA,064950.00,23,05,2025,00,00*77
$GNGBS,064950.00,4.1,5.4,11.2,,,,*67
$GNTXT,01,01,01,More than 100 frame errors, UART RX was disabled*70
b0LL7'#
IWj?(
 %m!/ <T#[C{4V_7:R 
YxPAG?H&pK(LE&zMEVWRXh=bL7rv$GNRMC,064951.00,A,0419.92280,S,05539.82779,E,0.153,,230525,,,D*79
$GNVTG,,T,,M,0.153,N,0.283,K,D*36
$GNGNS,064951.00,0419.92280,S,05539.82779,E,DA,15,0.82,20.1,-47.6,,0000*6E
$GNGGA,064951.00,0419.92280,S,05539.82779,E,2,12,0.82,20.1,M,-47.6,M,,0000*45
$GNGSA,A,3,24,20,05,13,15,12,29,18,25,23,40,,1.37,0.82,1.10*17
$GNGSA,A,3,75,71,72,76,,,,,,,,,1.37,0.82,1.10*13
$GPGSV,5,1,17,05,39,035,26,10,06,213,,12,73,087,20,13,13,106,15*78
$GPGSV,5,2,17,15,40,136,29,18,32,293,22,20,06,033,09,23,47,211,30*79
$GPGSV,5,3,17,24,32,176,22,25,60,340,28,28,05,291,,29,15,347,25*7F
$GPGSV,5,4,17,36,52,277,31,40,86,351,31,41,58,082,28,49,32,274,*76
$GPGSV,5,5,17,50,10,089,*4A
$GLGSV,3,1,09,65,26,178,,71,14,063,15,72,38,112,16,75,40,166,16*6E
$GLGSV,3,2,09,76,69,294,26,77,24,325,,86,01,019,08,87,12,338,*61
$GLGSV,3,3,09,88,06,282,*52
$GNGLL,0419.92280,S,05539.82779,E,064951.00,A,D*64
$GNGRS,064951.00,1,-8.2,42.9,-0.4,-9.6,1.3,-7.6,-1.9,-11.7,1.5,4.8,143,*63
$GNGRS,064951.00,1,-21.1,-5.4,-3.8,1.2,,,,,,,,*49
$GNGST,064951.00,1096,,,,4.0,5.4,11*63
$GNZDA,064951.00,23,05,2025,00,00*76
$GNGBS,064951.00,4.0,5.4,11.2,,,,*67
$GNTXT,01,01,01,More than 100 frame errors, UART RX was disabled*70
b0LP7'#
IWj(
 %!/ <TK#[{4V_7:R 
YxAG?H&pK(sLE&jMEV
WRXk<bP7r^bh$GNRMC,064952.00,A,0419.92279,S,05539.82784,E,0.188,,230525,,,D*78
$GNVTG,,T,,M,0.188,N,0.348,K,D*36
$GNGNS,064952.00,0419.92279,S,05539.82784,E,DA,15,0.82,20.9,-47.6,,0000*61
$GNGGA,064952.00,0419.92279,S,05539.82784,E,2,12,0.82,20.9,M,-47.6,M,,0000*4A
$GNGSA,A,3,24,20,05,13,15,12,29,18,25,23,40,,1.37,0.82,1.10*17
$GNGSA,A,3,75,71,72,76,,,,,,,,,1.37,0.82,1.10*13
$GPGSV,5,1,17,05,39,035,26,10,06,213,,12,73,087,20,13,13,106,12*7F
$GPGSV,5,2,17,15,40,136,29,18,32,293,23,20,06,033,14,23,47,211,31*75
$GPGSV,5,3,17,24,32,176,23,25,60,340,28,28,05,291,,29,15,347,25*7E
$GPGSV,5,4,17,36,52,277,31,40,86,351,31,41,58,082,28,49,32,274,*76
$GPGSV,5,5,17,50,10,089,*4A
$GLGSV,3,1,09,65,26,178,,71,14,063,15,72,38,112,14,75,40,166,17*6D
$GLGSV,3,2,09,76,69,294,27,77,24,325,,86,01,019,10,87,12,338,*69
$GLGSV,3,3,09,88,06,282,*52
$GNGLL,0419.92279,S,05539.82784,E,064952.00,A,D*63
$GNGRS,064952.00,1,-7.6,-21.4,-0.1,-11.5,-1.3,-11.2,0.1,-11.2,0.7,2.5,143,*46
$GNGRS,064952.00,1,-21.9,-3.1,1.3,3.6,,,,,,,,*63
$GNGST,064952.00,1097,,,,4.0,5.3,11*66
$GNZDA,064952.00,23,05,2025,00,00*75
$GNGBS,064952.00,4.0,5.3,11.2,,,,*63
b0LT7'#+
IWj(
 %j! / H<T#[{4 V_7:R 
Yx4AG?H&pK(/LE&MEVWRX=bT7rF:$GNRMC,064953.00,A,0419.92274,S,05539.82791,E,0.153,,230525,,,D*76
$GNVTG,,T,,M,0.153,N,0.284,K,D*31
$GNGNS,064953.00,0419.92274,S,05539.82791,E,DA,15,0.82,21.5,-47.6,,0000*64
$GNGGA,064953.00,0419.92274,S,05539.82791,E,2,12,0.82,21.5,M,-47.6,M,,0000*4F
$GNGSA,A,3,24,20,05,13,15,12,29,18,25,23,40,,1.37,0.82,1.10*17
$GNGSA,A,3,75,71,72,76,,,,,,,,,1.37,0.82,1.10*13
$GPGSV,5,1,17,05,39,035,27,10,06,213,,12,73,087,17,13,13,106,12*7A
$GPGSV,5,2,17,15,40,136,30,18,32,293,23,20,06,033,12,23,47,211,32*78
$GPGSV,5,3,17,24,32,176,25,25,60,340,27,28,05,291,,29,15,347,25*77
$GPGSV,5,4,17,36,52,277,31,40,86,351,32,41,58,082,27,49,32,274,*7A
$GPGSV,5,5,17,50,10,089,*4A
$GLGSV,3,1,09,65,26,178,,71,14,063,15,72,38,112,16,75,40,166,17*6F
$GLGSV,3,2,09,76,69,294,27,77,24,325,,86,01,019,07,87,12,338,*6F
$GLGSV,3,3,09,88,06,282,*52
$GNGLL,0419.92274,S,05539.82791,E,064953.00,A,D*6B
$GNGRS,064953.00,1,-9.5,42.6,-2.1,-11.5,-3.5,-10.2,0.2,-9.2,-0.9,-0.9,143,*5D
$GNGRS,064953.00,1,-20.0,-2.6,4.7,2.7,,,,,,,,*6D
$GNGST,064953.00,80130,,,,3.9,5.3,11*5C
$GNZDA,064953.00,23,05,2025,00,00*74
$GNGBS,064953.00,3.9,5.3,11.2,,,,*6C
$GNTXT,01,01,01,More than 100 frame errors, UART RX was disabled*70
$GNTXT,01,01,01,More than 100 frame errors, UART RX was disabled*70
$GNTXT,01,01,01,More than 100 frame errors, UART RX was disabled*70
b0L(l7'#'
IW
j(_
 %$
!!/ <T]#[{4 V_t7:R 
YxAG>!H'oK(LE&MEVWRX9b(l7rI=$GNRMC,064959.00,A,0419.92302,S,05539.82771,E,0.082,,230525,,,D*7F
$GNVTG,,T,,M,0.082,N,0.152,K,D*34
$GNGNS,064959.00,0419.92302,S,05539.82771,E,DA,15,0.83,23.1,-47.6,,0000*67
$GNGGA,064959.00,0419.92302,S,05539.82771,E,2,12,0.83,23.1,M,-47.6,M,,0000*4C
$GNGSA,A,3,24,20,05,13,15,12,29,18,25,23,40,,1.51,0.83,1.26*13
$GNGSA,A,3,75,71,72,76,,,,,,,,,1.51,0.83,1.26*17
$GPGSV,5,1,17,05,39,035,30,10,06,213,,12,73,087,14,13,13,106,10*7D
$GPGSV,5,2,17,15,40,136,27,18,32,293,25,20,06,033,10,23,47,211,33*7B
$GPGSV,5,3,17,24,32,176,28,25,60,340,27,28,05,291,,29,15,347,24*7B
$GPGSV,5,4,17,36,52,277,31,40,86,351,32,41,58,082,27,49,32,274,*7A
$GPGSV,5,5,17,50,10,089,*4A
