b0@u
_#B
$A(6h J^{4Tb:R 
YeyF%_G 7HIJKS~<T-AUbuC$GNRMC,112627.00,A,0419.75212,S,05539.87535,E,0.356,,270525,,,A*7C
$GNVTG,,T,,M,0.356,N,0.659,K,A*37
$GNGNS,112627.00,0419.75212,S,05539.87535,E,AA,11,0.82,18.6,-47.6,,*60
$GNGGA,112627.00,0419.75212,S,05539.87535,E,1,11,0.82,18.6,M,-47.6,M,,*4A
$GNGSA,A,3,32,28,18,29,27,16,10,31,,,,,1.85,0.82,1.66*13
$GNGSA,A,3,71,83,84,,,,,,,,,,1.85,0.82,1.66*1A
$GPGSV,4,1,16,10,21,351,22,16,25,257,16,18,31,066,35,23,06,028,*79
$GPGSV,4,2,16,25,04,134,,26,30,225,,27,31,321,36,28,40,167,18*7A
$GPGSV,4,3,16,29,26,145,22,31,25,196,18,32,74,350,28,36,52,277,*7A
$GPGSV,4,4,16,40,84,354,,41,58,082,,49,32,274,,50,10,089,*7E
$GLGSV,3,1,09,70,37,351,,71,55,280,32,72,22,226,20,73,14,158,*6B
$GLGSV,3,2,09,74,15,204,,75,00,248,,83,20,126,14,84,45,065,14*62
$GLGSV,3,3,09,85,25,004,21*51
$GNGLL,0419.75212,S,05539.87535,E,112627.00,A,A*62
$GNGRS,112627.00,1,1.3,-5.7,1.8,-4.6,7.2,-5.3,1.4,-1.5,,,,*58
$GNGRS,112627.00,1,7.0,8.3,-33.9,,,,,,,,,*67
$GNGST,112627.00,51,,,,5.6,4.9,12*6F
$GNZDA,112627.00,27,05,2025,00,00*7C
$GNGBS,112627.00,5.6,4.9,11.6,,,,*66
b0@x
_"B
!!A( J^D{4Tb:R 
YeF%_G7HIJKS~/T-AUbx
$GNRMC,112628.00,A,0419.75208,S,05539.87524,E,0.041,,270525,,,A*7D
$GNVTG,,T,,M,0.041,N,0.076,K,A*39
$GNGNS,112628.00,0419.75208,S,05539.87524,E,AA,11,0.77,18.2,-47.6,,*6A
$GNGGA,112628.00,0419.75208,S,05539.87524,E,1,11,0.77,18.2,M,-47.6,M,,*40
$GNGSA,A,3,32,28,18,29,27,16,10,31,,,,,1.78,0.77,1.60*1D
$GNGSA,A,3,71,83,84,,,,,,,,,,1.78,0.77,1.60*14
$GPGSV,4,1,16,10,21,351,19,16,25,257,14,18,31,066,34,23,06,028,*72
$GPGSV,4,2,16,25,04,134,,26,30,225,14,27,31,321,33,28,40,167,16*74
$GPGSV,4,3,16,29,26,145,20,31,25,196,20,32,74,350,26,36,52,277,*7D
$GPGSV,4,4,16,40,84,354,,41,58,082,,49,32,274,,50,10,089,*7E
$GLGSV,3,1,09,70,37,351,,71,55,280,26,72,22,226,20,73,14,158,*6E
$GLGSV,3,2,09,74,15,204,,75,00,248,,83,20,126,08,84,45,065,08*62
$GLGSV,3,3,09,85,25,004,21*51
$GNGLL,0419.75208,S,05539.87524,E,112628.00,A,A*66
$GNGRS,112628.00,1,5.8,-7.7,-0.3,-5.4,7.9,-5.5,1.7,-0.1,,,,*75
$GNGRS,112628.00,1,2.2,13.3,5.0,,,,,,,,,*44
$GNGST,112628.00,3587590,,,,5.7,4.9,12*50
$GNZDA,112628.00,27,05,2025,00,00*73
$GNGBS,112628.00,5.7,4.9,11.6,,,,*68
b0@|
_>"B
!A(M J^{4Tb:R 
YejF%_G7HIJKS~T-AUJb|$GNRMC,112629.00,A,0419.75199,S,05539.87522,E,0.197,,270525,,,A*7B
$GNVTG,,T,,M,0.197,N,0.364,K,A*33
$GNGNS,112629.00,0419.75199,S,05539.87522,E,AA,11,0.77,17.9,-47.6,,*62
$GNGGA,112629.00,0419.75199,S,05539.87522,E,1,11,0.77,17.9,M,-47.6,M,,*48
$GNGSA,A,3,32,28,18,29,27,16,10,31,,,,,1.78,0.77,1.60*1D
$GNGSA,A,3,71,83,84,,,,,,,,,,1.78,0.77,1.60*14
$GPGSV,4,1,16,10,21,351,17,16,25,257,16,18,31,066,34,23,06,028,*7E
$GPGSV,4,2,16,25,04,134,,26,30,225,15,27,31,321,33,28,40,167,15*76
$GPGSV,4,3,16,29,26,145,15,31,25,196,20,32,74,350,25,36,52,277,*78
$GPGSV,4,4,16,40,84,354,,41,58,082,,49,32,274,,50,10,089,*7E
$GLGSV,3,1,09,70,37,351,,71,55,280,25,72,22,226,21,73,14,158,*6C
$GLGSV,3,2,09,74,15,204,,75,00,248,,83,20,126,19,84,45,065,13*68
$GLGSV,3,3,09,85,25,004,22*52
$GNGLL,0419.75199,S,05539.87522,E,112629.00,A,A*6A
$GNGRS,112629.00,1,14.7,-5.4,4.2,3.3,9.5,-3.4,0.6,-0.2,,,,*48
$GNGRS,112629.00,1,1.4,12.8,4.9,,,,,,,,,*42
$GNGST,112629.00,3588574,,,,5.7,4.8,12*55
$GNZDA,112629.00,27,05,2025,00,00*72
$GNGBS,112629.00,5.7,4.8,11.7,,,,*69
b0@
_}BB8
z A(+2Z "J^{4Tb:R 
YeF%_G79HIJKS~0T-AUbl$GNRMC,112630.00,A,0419.75222,S,05539.87524,E,0.689,,270525,,,A*7E
$GNVTG,,T,,M,0.689,N,1.276,K,A*38
$GNGNS,112630.00,0419.75222,S,05539.87524,E,AA,11,0.77,17.9,-47.6,,*6F
$GNGGA,112630.00,0419.75222,S,05539.87524,E,1,11,0.77,17.9,M,-47.6,M,,*45
$GNGSA,A,3,32,28,18,29,27,16,10,31,,,,,1.78,0.77,1.60*1D
$GNGSA,A,3,71,83,84,,,,,,,,,,1.78,0.77,1.60*14
$GPGSV,4,1,16,10,21,351,18,16,25,257,17,18,31,066,29,23,06,028,*7C
$GPGSV,4,2,16,25,04,134,17,26,30,225,17,27,31,321,32,28,40,167,13*75
$GPGSV,4,3,16,29,26,145,12,31,25,196,22,32,74,350,34,36,52,277,*7D
$GPGSV,4,4,16,40,84,354,,41,58,082,,49,32,274,,50,10,089,*7E
$GLGSV,3,1,09,70,37,351,,71,55,280,25,72,22,226,20,73,14,158,*6D
$GLGSV,3,2,09,74,15,204,,75,00,248,,83,20,126,19,84,45,065,11*6A
$GLGSV,3,3,09,85,25,004,22*52
$GNGLL,0419.75222,S,05539.87524,E,112630.00,A,A*67
$GNGRS,112630.00,1,14.5,-2.1,4.5,8.2,12.4,-4.5,1.3,-1.7,,,,*70
$GNGRS,112630.00,1,3.1,13.3,-62.0,,,,,,,,,*53
$GNGST,112630.00,66,,,,5.7,4.8,12*6D
$GNZDA,112630.00,27,05,2025,00,00*7A
$GNGBS,112630.00,5.7,4.8,11.6,,,,*60
b0@
_=By
 A(  J^G{4Tb:R 
YeF%_G7HIJKS~T-AUybp$GNRMC,112631.00,A,0419.75212,S,05539.87518,E,0.169,,270525,,,A*7A
$GNVTG,,T,,M,0.169,N,0.314,K,A*35
$GNGNS,112631.00,0419.75212,S,05539.87518,E,AA,12,0.70,17.2,-47.6,,*6D
$GNGGA,112631.00,0419.75212,S,05539.87518,E,1,12,0.70,17.2,M,-47.6,M,,*47
$GNGSA,A,3,32,28,18,26,29,27,16,10,31,,,,1.62,0.70,1.46*11
$GNGSA,A,3,71,83,84,,,,,,,,,,1.62,0.70,1.46*1C
$GPGSV,4,1,16,10,21,351,21,16,25,257,19,18,31,066,20,23,06,028,*71
$GPGSV,4,2,16,25,04,134,28,26,30,225,19,27,31,321,32,28,40,167,20*77
$GPGSV,4,3,16,29,26,145,27,31,25,196,21,32,74,350,32,36,52,277,*7E
$GPGSV,4,4,16,40,84,354,,41,58,082,,49,32,274,,50,10,089,*7E
$GLGSV,3,1,09,70,37,351,,71,55,280,26,72,22,226,21,73,14,158,*6F
$GLGSV,3,2,09,74,15,204,,75,00,248,,83,20,126,20,84,45,065,11*60
$GLGSV,3,3,09,85,25,004,25*55
$GNGLL,0419.75212,S,05539.87518,E,112631.00,A,A*6A
$GNGRS,112631.00,1,0.7,-1.0,8.0,11.8,4.5,12.3,-6.0,0.6,-1.0,,,*53
$GNGRS,112631.00,1,-0.6,12.1,5.0,,,,,,,,,*64
$GNGST,112631.00,3299292,,,,5.7,4.8,12*54
$GNZDA,112631.00,27,05,2025,00,00*7B
$GNGBS,112631.00,5.7,4.8,11.5,,,,*62
b0@
_U!B
A3(: 'J^U{4Tb:R 
YeYF%_G"7HIJKS~T-ANUObH<$GNRMC,112632.00,A,0419.75156,S,05539.87506,E,0.183,,270525,,,A*71
$GNVTG,,T,,M,0.183,N,0.339,K,A*3E
$GNGNS,112632.00,0419.75156,S,05539.87506,E,AA,12,0.70,14.9,-47.6,,*6A
$GNGGA,112632.00,0419.75156,S,05539.87506,E,1,12,0.70,14.9,M,-47.6,M,,*40
$GNGSA,A,3,32,28,18,26,29,27,16,10,31,,,,1.62,0.70,1.46*11
$GNGSA,A,3,71,83,84,,,,,,,,,,1.62,0.70,1.46*1C
$GPGSV,4,1,16,10,21,351,22,16,25,257,20,18,31,066,33,23,06,028,20*78
$GPGSV,4,2,16,25,04,134,27,26,30,225,19,27,31,321,29,28,40,167,29*7B
$GPGSV,4,3,16,29,26,145,25,31,25,196,21,32,74,350,39,36,52,277,*77
$GPGSV,4,4,16,40,84,354,,41,58,082,,49,32,274,,50,10,089,*7E
$GLGSV,3,1,09,70,37,351,,71,55,280,34,72,22,226,22,73,14,158,*6F
$GLGSV,3,2,09,74,15,204,,75,00,248,,83,20,126,20,84,45,065,11*60
$GLGSV,3,3,09,85,25,004,25*55
$GNGLL,0419.75156,S,05539.87506,E,112632.00,A,A*65
$GNGRS,112632.00,1,0.8,0.6,1.9,9.1,2.5,5.6,-3.1,-1.7,-1.3,,,*5A
$GNGRS,112632.00,1,-2.6,13.0,5.9,,,,,,,,,*6C
$GNGST,112632.00,3299292,,,,5.6,4.7,11*5A
$GNZDA,112632.00,27,05,2025,00,00*78
$GNGBS,112632.00,5.6,4.7,11.3,,,,*69
b0@x
_!B@
7$AU(Q J^R{4#Tb:R 
Ye,F%_G79HIJKS~T-AU _bxl $GNRMC,112633.00,A,0419.75162,S,05539.87506,E,0.160,,270525,,,A*7A
$GNVTG,,T,,M,0.160,N,0.296,K,A*37
$GNGNS,112633.00,0419.75162,S,05539.87506,E,AA,12,0.70,14.3,-47.6,,*66
$GNGGA,112633.00,0419.75162,S,05539.87506,E,1,12,0.70,14.3,M,-47.6,M,,*4C
$GNGSA,A,3,32,28,18,26,29,27,16,10,31,,,,1.62,0.70,1.46*11
$GNGSA,A,3,71,83,84,,,,,,,,,,1.62,0.70,1.46*1C
$GPGSV,4,1,16,10,21,351,22,16,25,257,20,18,31,066,33,23,06,028,19*72
$GPGSV,4,2,16,25,04,134,18,26,30,225,20,27,31,321,36,28,40,167,22*78
$GPGSV,4,3,16,29,26,145,24,31,25,196,25,32,74,350,29,36,52,277,*73
$GPGSV,4,4,16,40,84,354,35,41,58,082,,49,32,274,,50,10,089,*78
$GLGSV,3,1,09,70,37,351,,71,55,280,30,72,22,226,22,73,14,158,*6B
$GLGSV,3,2,09,74,15,204,,75,00,248,,83,20,126,18,84,45,065,11*6B
$GLGSV,3,3,09,85,25,004,32*53
$GNGLL,0419.75162,S,05539.87506,E,112633.00,A,A*63
$GNGRS,112633.00,1,5.9,-4.3,2.3,3.1,4.4,3.4,-3.3,-3.8,-3.0,,,*7D
$GNGRS,112633.00,1,-4.5,14.3,15.2,,,,,,,,,*56
$GNGST,112633.00,55,,,,5.5,4.7,11*60
$GNZDA,112633.00,27,05,2025,00,00*79
$GNGBS,112633.00,5.5,4.7,11.2,,,,*6A
b0@`
_D BW
#A(/ #J^{4#Tb:R 
YexF%_G7dHIJKS~T-AUxb`T"$GNRMC,112634.00,A,0419.75167,S,05539.87506,E,0.104,,270525,,,A*7A
$GNVTG,,T,,M,0.104,N,0.193,K,A*33
$GNGNS,112634.00,0419.75167,S,05539.87506,E,AA,12,0.70,14.1,-47.6,,*66
$GNGGA,112634.00,0419.75167,S,05539.87506,E,1,12,0.70,14.1,M,-47.6,M,,*4C
$GNGSA,A,3,32,28,18,26,29,27,16,10,31,,,,1.62,0.70,1.46*11
$GNGSA,A,3,71,83,84,,,,,,,,,,1.62,0.70,1.46*1C
$GPGSV,4,1,16,10,21,351,22,16,25,257,25,18,31,066,32,23,06,028,18*77
$GPGSV,4,2,16,25,04,134,17,26,30,225,20,27,31,321,35,28,40,167,22*74
$GPGSV,4,3,16,29,26,145,22,31,25,196,26,32,74,350,35,36,52,277,*7B
$GPGSV,4,4,16,40,84,354,35,41,58,082,,49,32,274,,50,10,089,*78
$GLGSV,3,1,09,70,37,351,,71,55,280,30,72,22,226,23,73,14,158,*6A
$GLGSV,3,2,09,74,15,204,,75,00,248,,83,20,126,16,84,45,065,11*65
$GLGSV,3,3,09,85,25,004,31*50
$GNGLL,0419.75167,S,05539.87506,E,112634.00,A,A*61
$GNGRS,112634.00,1,-2.8,-14.0,3.4,2.5,5.1,5.4,-2.8,-4.4,-2.1,,,*63
$GNGRS,112634.00,1,-6.7,9.6,4.6,,,,,,,,,*5C
$GNGST,112634.00,103103,,,,5.4,4.6,11*67
$GNZDA,112634.00,27,05,2025,00,00*7E
$GNGBS,112634.00,5.4,4.6,11.1,,,,*6E
b0@H
_kBC
u%A(h  J^9{4#Tb:R 
YeF%_G7sHIJKS~MT-AUbH<&t$GNRMC,112635.00,A,0419.75163,S,05539.87505,E,0.244,,270525,,,A*7B
$GNVTG,,T,,M,0.244,N,0.453,K,A*3D
$GNGNS,112635.00,0419.75163,S,05539.87505,E,AA,12,0.70,14.0,-47.6,,*61
$GNGGA,112635.00,0419.75163,S,05539.87505,E,1,12,0.70,14.0,M,-47.6,M,,*4B
$GNGSA,A,3,32,28,18,26,29,27,16,10,31,,,,1.62,0.70,1.46*11
$GNGSA,A,3,71,83,84,,,,,,,,,,1.62,0.70,1.46*1C
$GPGSV,4,1,16,10,21,351,22,16,25,257,26,18,31,066,31,23,06,028,18*77
$GPGSV,4,2,16,25,04,134,18,26,30,225,20,27,31,321,37,28,40,167,21*7A
$GPGSV,4,3,16,29,26,145,22,31,25,196,25,32,74,350,31,36,52,277,*7C
$GPGSV,4,4,16,40,84,354,35,41,58,082,,49,32,274,,50,10,089,*78
$GLGSV,3,1,09,70,37,351,,71,55,280,31,72,22,226,23,73,14,158,*6B
$GLGSV,3,2,09,74,15,204,,75,00,248,,83,20,126,16,84,45,065,14*60
$GLGSV,3,3,09,85,25,004,31*50
$GNGLL,0419.75163,S,05539.87505,E,112635.00,A,A*67
$GNGRS,112635.00,1,-7.1,-9.2,-4.4,1.2,5.4,1.6,-4.0,-6.0,-3.2,,,*77
$GNGRS,112635.00,1,-6.5,5.9,3.9,,,,,,,,,*54
$GNGST,112635.00,152991,,,,5.3,4.5,11*65
$GNZDA,112635.00,27,05,2025,00,00*7F
$GNGBS,112635.00,5.3,4.5,10.9,,,,*62
b0@0
_vB&
A(S] J^{4"Tb:R 
YeF%_G 7HIJKS~T-AUKb0$*$GNRMC,112636.00,A,0419.75165,S,05539.87512,E,0.100,,270525,,,A*7B
$GNVTG,,T,,M,0.100,N,0.185,K,A*30
$GNGNS,112636.00,0419.75165,S,05539.87512,E,AA,12,0.70,13.9,-47.6,,*6C
$GNGGA,112636.00,0419.75165,S,05539.87512,E,1,12,0.70,13.9,M,-47.6,M,,*46
$GNGSA,A,3,32,28,18,26,29,27,16,10,31,,,,1.62,0.70,1.46*11
$GNGSA,A,3,71,83,84,,,,,,,,,,1.62,0.70,1.46*1C
$GPGSV,4,1,16,10,21,351,24,16,25,257,29,18,31,066,30,23,06,028,20*74
$GPGSV,4,2,16,25,04,134,17,26,30,225,20,27,31,321,31,28,40,167,19*78
$GPGSV,4,3,16,29,26,145,23,31,25,196,24,32,74,350,30,36,52,277,*7D
$GPGSV,4,4,16,40,84,354,34,41,58,082,,49,32,274,,50,10,089,*79
$GLGSV,3,1,09,70,37,351,,71,55,280,32,72,22,226,22,73,14,158,*69
$GLGSV,3,2,09,74,15,204,,75,00,248,,83,20,126,18,84,45,065,14*6E
$GLGSV,3,3,09,85,25,004,24*54
$GNGLL,0419.75165,S,05539.87512,E,112636.00,A,A*64
$GNGRS,112636.00,1,-10.4,-14.5,5.5,-1.2,4.5,1.9,-5.2,-9.1,-1.6,,,*78
$GNGRS,112636.00,1,-6.0,7.6,18.2,,,,,,,,,*6E
$GNGST,112636.00,55,,,,5.3,4.5,11*61
$GNZDA,112636.00,27,05,2025,00,00*7C
$GNGBS,112636.00,5.3,4.5,10.9,,,,*61
b0@
_ B]
eA(=p J^I{4!Tb:R 
YeF%_G!7HIJKS~T-AUb.D$GNRMC,112637.00,A,0419.75166,S,05539.87517,E,0.125,,270525,,,A*7B
$GNVTG,,T,,M,0.125,N,0.231,K,A*3B
$GNGNS,112637.00,0419.75166,S,05539.87517,E,AA,12,0.70,13.6,-47.6,,*64
$GNGGA,112637.00,0419.75166,S,05539.87517,E,1,12,0.70,13.6,M,-47.6,M,,*4E
$GNGSA,A,3,32,28,18,26,29,27,16,10,31,,,,1.62,0.70,1.46*11
$GNGSA,A,3,71,83,84,,,,,,,,,,1.62,0.70,1.46*1C
$GPGSV,4,1,16,10,21,351,25,16,25,257,29,18,31,066,28,23,06,028,19*76
$GPGSV,4,2,16,25,04,134,18,26,30,225,18,27,31,321,30,28,40,167,17*73
$GPGSV,4,3,16,29,26,145,25,31,25,196,22,32,74,350,31,36,52,277,*7C
$GPGSV,4,4,16,40,84,354,33,41,58,082,,49,32,274,,50,10,089,*7E
$GLGSV,3,1,09,70,37,351,,71,55,280,33,72,22,226,21,73,14,158,*6B
$GLGSV,3,2,09,74,15,204,,75,00,248,,83,20,126,18,84,45,065,14*6E
$GLGSV,3,3,09,85,25,004,24*54
$GNGLL,0419.75166,S,05539.87517,E,112637.00,A,A*63
$GNGRS,112637.00,1,-4.4,-10.6,8.6,1.0,5.7,5.4,-2.2,-8.3,1.1,,,*4E
$GNGRS,112637.00,1,-2.6,5.1,4.8,,,,,,,,,*5F
$GNGST,112637.00,172947,,,,5.3,4.5,11*6E
$GNZDA,112637.00,27,05,2025,00,00*7D
$GNGBS,112637.00,5.3,4.5,10.8,,,,*61
b0@
_B%
|A(f7 !J^{4Tb:R 
Ye'F%_G7tHIJKS~3T-AU>b1W$GNRMC,112638.00,A,0419.75174,S,05539.87525,E,0.234,,270525,,,A*75
$GNVTG,,T,,M,0.234,N,0.433,K,A*3C
$GNGNS,112638.00,0419.75174,S,05539.87525,E,AA,12,0.70,13.1,-47.6,,*6E
$GNGGA,112638.00,0419.75174,S,05539.87525,E,1,12,0.70,13.1,M,-47.6,M,,*44
$GNGSA,A,3,32,28,18,26,29,27,16,10,31,,,,1.62,0.70,1.46*11
$GNGSA,A,3,71,83,84,,,,,,,,,,1.62,0.70,1.46*1C
$GPGSV,4,1,16,10,21,351,26,16,25,257,28,18,31,066,29,23,06,028,18*74
$GPGSV,4,2,16,25,04,134,19,26,30,225,17,27,31,321,30,28,40,167,17*7D
$GPGSV,4,3,16,29,26,145,25,31,25,196,23,32,74,350,33,36,52,277,*7F
$GPGSV,4,4,16,40,84,354,31,41,58,082,,49,32,274,,50,10,089,*7C
$GLGSV,3,1,09,70,37,351,,71,55,280,31,72,22,226,20,73,14,158,*68
$GLGSV,3,2,09,74,15,204,,75,00,248,,83,20,126,18,84,45,065,14*6E
$GLGSV,3,3,09,85,25,004,25*55
$GNGLL,0419.75174,S,05539.87525,E,112638.00,A,A*6E
$GNGRS,112638.00,1,-7.6,-6.7,2.9,3.8,4.9,4.3,-0.2,-8.1,0.5,,,*75
$GNGRS,112638.00,1,-4.0,8.2,4.7,,,,,,,,,*51
$GNGST,112638.00,3299292,,,,5.2,4.4,11*57
$GNZDA,112638.00,27,05,2025,00,00*72
$GNGBS,112638.00,5.2,4.4,10.7,,,,*61
b0@
_8B
A(6J J^{4Tb:R 
YeF%_G7HIJKS~T-A;ULJb5.$GNRMC,112639.00,A,0419.75186,S,05539.87540,E,0.543,,270525,,,A*7D
$GNVTG,,T,,M,0.543,N,1.006,K,A*38
$GNGNS,112639.00,0419.75186,S,05539.87540,E,AA,11,0.73,12.4,-47.6,,*65
$GNGGA,112639.00,0419.75186,S,05539.87540,E,1,11,0.73,12.4,M,-47.6,M,,*4F
$GNGSA,A,3,32,28,18,26,29,27,16,10,31,,,,1.71,0.73,1.54*13
$GNGSA,A,3,71,83,,,,,,,,,,,1.71,0.73,1.54*12
$GPGSV,4,1,16,10,21,351,25,16,25,257,27,18,31,066,29,23,05,029,18*7A
$GPGSV,4,2,16,25,04,134,20,26,30,225,16,27,31,321,31,28,40,167,18*78
$GPGSV,4,3,16,29,26,145,21,31,25,196,26,32,74,350,31,36,52,277,*7C
$GPGSV,4,4,16,40,84,354,31,41,58,082,,49,32,274,,50,10,089,*7C
$GLGSV,3,1,09,70,37,351,,71,55,280,30,72,22,226,21,73,14,158,*68
$GLGSV,3,2,09,74,15,204,,75,00,248,,83,20,126,17,84,45,065,08*6C
$GLGSV,3,3,09,85,25,004,25*55
$GNGLL,0419.75186,S,05539.87540,E,112639.00,A,A*61
$GNGRS,112639.00,1,-8.6,-10.3,1.5,4.5,3.1,1.8,5.7,-8.3,0.7,,,*61
$GNGRS,112639.00,1,-6.2,9.8,,,,,,,,,,*76
$GNGST,112639.00,49,,,,5.2,4.4,11*63
$GNZDA,112639.00,27,05,2025,00,00*73
$GNGBS,112639.00,5.2,4.4,10.7,,,,*60
b0@
_6Bpm
!AF($/J  J^{4 Tb:R 
YehF%_G7nHIJKS~BT-AUpb9j$GNRMC,112640.00,A,0419.75182,S,05539.87549,E,0.326,,270525,,,A*7B
$GNVTG,,T,,M,0.326,N,0.603,K,A*3F
$GNGNS,112640.00,0419.75182,S,05539.87549,E,AA,11,0.73,11.9,-47.6,,*68
$GNGGA,112640.00,0419.75182,S,05539.87549,E,1,11,0.73,11.9,M,-47.6,M,,*42
$GNGSA,A,3,32,28,18,26,29,27,16,10,31,,,,1.71,0.73,1.54*13
$GNGSA,A,3,71,83,,,,,,,,,,,1.71,0.73,1.54*12
$GPGSV,4,1,16,10,21,351,23,16,25,257,27,18,31,066,30,23,05,029,19*75
$GPGSV,4,2,16,25,04,134,20,26,30,225,16,27,31,321,33,28,40,167,17*75
$GPGSV,4,3,16,29,26,145,21,31,25,196,27,32,74,350,32,36,52,277,*7E
$GPGSV,4,4,16,40,84,354,32,41,58,082,,49,32,274,,50,10,089,*7F
$GLGSV,3,1,09,70,37,351,,71,55,280,31,72,22,226,23,73,14,158,*6B
$GLGSV,3,2,09,74,15,204,,75,00,248,,83,20,126,15,84,45,065,08*6E
$GLGSV,3,3,09,85,25,004,25*55
$GNGLL,0419.75182,S,05539.87549,E,112640.00,A,A*62
$GNGRS,112640.00,1,-5.9,-12.4,6.2,2.7,3.0,5.8,1.8,-7.1,-1.8,,,*4C
$GNGRS,112640.00,1,-9.1,10.9,,,,,,,,,,*4D
$GNGST,112640.00,48,,,,5.1,4.4,11*6F
$GNZDA,112640.00,27,05,2025,00,00*7D
$GNGBS,112640.00,5.1,4.4,10.6,,,,*6C
b0@
_ BkP
I!A( J^!{4Tb:R 
YeF%_G7}HIJKS
~T-A(Ub=$GNRMC,112641.00,A,0419.75176,S,05539.87548,E,0.076,,270525,,,A*76
$GNVTG,,T,,M,0.076,N,0.141,K,A*38
$GNGNS,112641.00,0419.75176,S,05539.87548,E,AA,11,0.73,11.8,-47.6,,*62
$GNGGA,112641.00,0419.75176,S,05539.87548,E,1,11,0.73,11.8,M,-47.6,M,,*48
$GNGSA,A,3,32,28,18,26,29,27,16,10,31,,,,1.71,0.73,1.54*13
$GNGSA,A,3,71,83,,,,,,,,,,,1.71,0.73,1.54*12
$GPGSV,4,1,16,10,21,351,26,16,25,257,27,18,31,066,32,23,05,029,19*72
$GPGSV,4,2,16,25,04,134,19,26,30,225,17,27,31,321,33,28,40,167,16*7F
$GPGSV,4,3,16,29,26,145,19,31,25,196,26,32,74,350,31,36,52,277,*77
$GPGSV,4,4,16,40,84,354,31,41,58,082,,49,32,274,,50,10,089,*7C
$GLGSV,3,1,09,70,37,351,,71,55,280,30,72,22,226,23,73,14,158,*6A
$GLGSV,3,2,09,74,15,204,,75,00,248,,83,20,126,10,84,45,065,09*6A
$GLGSV,3,3,09,85,25,004,25*55
$GNGLL,0419.75176,S,05539.87548,E,112641.00,A,A*69
$GNGRS,112641.00,1,-4.8,-14.1,1.1,3.3,-1.3,4.1,-1.1,-6.3,-2.8,,,*4F
$GNGRS,112641.00,1,-9.0,14.6,,,,,,,,,,*46
$GNGST,112641.00,52,,,,5.1,4.4,11*65
$GNZDA,112641.00,27,05,2025,00,00*7C
$GNGBS,112641.00,5.1,4.4,10.5,,,,*6E
b0@
_9BD
U A(V: J^{4Tb:R 
Ye$F%_G7HIJKS~T-AyU4bA:$GNRMC,112642.00,A,0419.75173,S,05539.87550,E,0.008,,270525,,,A*70
$GNVTG,,T,,M,0.008,N,0.015,K,A*31
$GNGNS,112642.00,0419.75173,S,05539.87550,E,AA,11,0.73,11.5,-47.6,,*60
$GNGGA,112642.00,0419.75173,S,05539.87550,E,1,11,0.73,11.5,M,-47.6,M,,*4A
$GNGSA,A,3,32,28,18,26,29,27,16,10,31,,,,1.71,0.73,1.54*13
$GNGSA,A,3,71,83,,,,,,,,,,,1.71,0.73,1.54*12
$GPGSV,4,1,16,10,21,351,27,16,25,257,27,18,31,066,31,23,05,029,19*70
$GPGSV,4,2,16,25,04,134,18,26,30,225,17,27,31,321,32,28,40,167,18*71
$GPGSV,4,3,16,29,26,145,18,31,25,196,26,32,74,350,29,36,52,277,*7F
$GPGSV,4,4,16,40,84,354,30,41,58,082,,49,32,274,,50,10,089,*7D
$GLGSV,3,1,09,70,37,351,,71,55,280,31,72,22,226,23,73,14,158,*6B
$GLGSV,3,2,09,74,15,204,,75,00,248,,83,20,126,08,84,45,065,09*63
$GLGSV,3,3,09,85,25,004,26*56
$GNGLL,0419.75173,S,05539.87550,E,112642.00,A,A*66
$GNGRS,112642.00,1,-3.1,-12.6,3.9,3.4,-1.7,4.0,5.7,-8.8,-2.0,,,*69
$GNGRS,112642.00,1,-8.0,17.4,,,,,,,,,,*45
$GNGST,112642.00,54,,,,5.0,4.4,10*60
$GNZDA,112642.00,27,05,2025,00,00*7F
$GNGBS,112642.00,5.0,4.4,10.5,,,,*6C
b0@
_!B
! @(? J^{4Tb :R 
YeF%_G7HIJKS~T-AUKb|E$GNRMC,112643.00,A,0419.75171,S,05539.87546,E,0.078,,270525,,,A*73
$GNVTG,,T,,M,0.078,N,0.145,K,A*32
$GNGNS,112643.00,0419.75171,S,05539.87546,E,AA,11,0.73,11.1,-47.6,,*60
$GNGGA,112643.00,0419.75171,S,05539.87546,E,1,11,0.73,11.1,M,-47.6,M,,*4A
$GNGSA,A,3,32,28,18,26,29,27,16,10,31,,,,1.71,0.73,1.54*13
$GNGSA,A,3,71,83,,,,,,,,,,,1.71,0.73,1.54*12
$GPGSV,4,1,16,10,21,351,25,16,25,257,27,18,31,066,33,23,05,029,18*71
$GPGSV,4,2,16,25,04,134,18,26,30,225,17,27,32,320,33,28,40,167,19*73
$GPGSV,4,3,16,29,26,145,18,31,25,196,25,32,74,350,30,36,52,277,*74
$GPGSV,4,4,16,40,84,354,31,41,58,082,32,49,32,274,,50,10,089,*7D
$GLGSV,3,1,09,70,37,351,,71,55,280,31,72,22,226,22,73,14,158,*6A
$GLGSV,3,2,09,74,15,204,,75,00,248,,83,20,126,08,84,45,065,08*62
$GLGSV,3,3,09,85,25,004,27*57
$GNGLL,0419.75171,S,05539.87546,E,112643.00,A,A*62
$GNGRS,112643.00,1,-5.3,-12.2,-1.2,4.2,-0.6,3.9,4.5,-8.5,-2.8,,,*45
$GNGRS,112643.00,1,-8.2,17.5,,,,,,,,,,*47
$GNGST,112643.00,86543,,,,4.9,4.3,10*53
$GNZDA,112643.00,27,05,2025,00,00*7E
$GNGBS,112643.00,4.9,4.3,10.4,,,,*63
b0@p
_ B>
$! @(& J^{4Tb:R 
YeF%_G7HIJKS~T-AUbpdIf
$GNRMC,112644.00,A,0419.75169,S,05539.87547,E,0.024,,270525,,,A*75
$GNVTG,,T,,M,0.024,N,0.044,K,A*3B
$GNGNS,112644.00,0419.75169,S,05539.87547,E,AA,11,0.73,10.7,-47.6,,*68
$GNGGA,112644.00,0419.75169,S,05539.87547,E,1,11,0.73,10.7,M,-47.6,M,,*42
$GNGSA,A,3,32,28,18,26,29,27,16,10,31,,,,1.71,0.73,1.54*13
$GNGSA,A,3,71,83,,,,,,,,,,,1.71,0.73,1.54*12
$GPGSV,4,1,16,10,21,351,25,16,25,257,27,18,31,066,32,23,05,029,16*7E
$GPGSV,4,2,16,25,04,134,18,26,30,225,18,27,32,320,33,28,40,166,20*77
$GPGSV,4,3,16,29,26,145,17,31,25,196,25,32,74,350,30,36,52,277,*7B
$GPGSV,4,4,16,40,84,354,31,41,58,082,31,49,32,274,,50,10,089,*7E
$GLGSV,3,1,09,70,37,351,,71,55,280,31,72,22,226,20,73,14,158,*68
$GLGSV,3,2,09,74,15,204,,75,00,248,,83,20,126,12,84,45,065,06*67
$GLGSV,3,3,09,85,25,004,27*57
$GNGLL,0419.75169,S,05539.87547,E,112644.00,A,A*6D
$GNGRS,112644.00,1,-6.0,-13.9,1.4,2.9,0.4,4.2,3.9,-10.5,-3.0,,,*76
$GNGRS,112644.00,1,-8.7,17.4,,,,,,,,,,*44
$GNGST,112644.00,86543,,,,4.9,4.3,10*54
$GNZDA,112644.00,27,05,2025,00,00*79
$GNGBS,112644.00,4.9,4.3,10.4,,,,*64
b0@X
_B
  @(7q J^{4Tb :R 
YerF%_G7HIJKS~=T-A:UCbXLM>r$GNRMC,112645.00,A,0419.75179,S,05539.87549,E,0.313,,270525,,,A*7C
$GNVTG,,T,,M,0.313,N,0.580,K,A*31
$GNGNS,112645.00,0419.75179,S,05539.87549,E,AA,12,0.73,10.3,-47.6,,*61
$GNGGA,112645.00,0419.75179,S,05539.87549,E,1,12,0.73,10.3,M,-47.6,M,,*4B
$GNGSA,A,3,32,28,18,26,29,27,16,10,31,,,,1.71,0.73,1.54*13
$GNGSA,A,3,71,83,84,,,,,,,,,,1.71,0.73,1.54*1E
$GPGSV,4,1,16,10,21,351,26,16,25,257,26,18,31,066,31,23,05,029,15*7C
$GPGSV,4,2,16,25,04,134,19,26,30,225,17,27,32,320,32,28,40,166,21*79
$GPGSV,4,3,16,29,25,145,16,31,25,196,26,32,74,350,20,36,52,277,*7B
$GPGSV,4,4,16,40,84,354,31,41,58,082,32,49,32,274,,50,10,089,*7D
$GLGSV,3,1,09,70,37,351,,71,55,280,29,72,22,226,20,73,14,158,*61
$GLGSV,3,2,09,74,15,204,,75,00,248,,83,20,126,12,84,45,065,09*68
$GLGSV,3,3,09,85,25,004,27*57
$GNGLL,0419.75179,S,05539.87549,E,112645.00,A,A*63
$GNGRS,112645.00,1,-7.9,-14.8,2.9,4.3,7.4,2.7,4.7,-10.5,-1.4,,,*70
$GNGRS,112645.00,1,-7.6,10.9,151,,,,,,,,,*74
$GNGST,112645.00,50,,,,4.9,4.2,10*6D
$GNZDA,112645.00,27,05,2025,00,00*78
$GNGBS,112645.00,4.9,4.2,10.4,,,,*64
b0@@
_BEo
 @0(Pq J^{4!Tb :R 
YeF%_G7HIJKS~=T
-AUMb@4Q$GNRMC,112646.00,A,0419.75184,S,05539.87550,E,0.254,,270525,,,A*77
$GNVTG,,T,,M,0.254,N,0.470,K,A*3D
$GNGNS,112646.00,0419.75184,S,05539.87550,E,AA,12,0.70,10.0,-47.6,,*68
$GNGGA,112646.00,0419.75184,S,05539.87550,E,1,12,0.70,10.0,M,-47.6,M,,*42
$GNGSA,A,3,32,28,18,26,29,27,16,10,31,,,,1.62,0.70,1.46*11
$GNGSA,A,3,71,83,84,,,,,,,,,,1.62,0.70,1.46*1C
$GPGSV,4,1,16,10,21,351,24,16,25,257,27,18,31,066,30,23,05,029,15*7E
$GPGSV,4,2,16,25,04,134,21,26,30,225,15,27,32,320,31,28,40,166,20*72
$GPGSV,4,3,16,29,25,145,17,31,25,196,26,32,74,350,20,36,52,277,*7A
$GPGSV,4,4,16,40,84,354,33,41,58,082,32,49,32,274,,50,10,089,*7F
$GLGSV,3,1,09,70,37,351,,71,55,280,29,72,22,226,21,73,14,158,*60
$GLGSV,3,2,09,74,15,204,,75,00,248,,83,20,126,09,84,45,065,10*6A
$GLGSV,3,3,09,85,25,004,26*56
$GNGLL,0419.75184,S,05539.87550,E,112646.00,A,A*6A
$GNGRS,112646.00,1,-5.2,-14.6,5.8,4.2,6.9,3.0,1.9,-8.9,1.1,,,*6F
$GNGRS,112646.00,1,-7.6,13.4,4.8,,,,,,,,,*6E
$GNGST,112646.00,69923,,,,4.9,4.2,10*5C
$GNZDA,112646.00,27,05,2025,00,00*7B
$GNGBS,112646.00,4.9,4.2,10.4,,,,*67
b0@(
_B
  @"(M& J^+{4 Tb :R 
YeF%_G7HIJKS~ET-AUb(UB$GNRMC,112647.00,A,0419.75179,S,05539.87551,E,0.082,,270525,,,A*7C
$GNVTG,,T,,M,0.082,N,0.151,K,A*32
$GNGNS,112647.00,0419.75179,S,05539.87551,E,AA,12,0.70,9.8,-47.6,,*5A
$GNGGA,112647.00,0419.75179,S,05539.87551,E,1,12,0.70,9.8,M,-47.6,M,,*70
$GNGSA,A,3,32,28,18,26,29,27,16,10,31,,,,1.62,0.70,1.46*11
$GNGSA,A,3,71,83,84,,,,,,,,,,1.62,0.70,1.46*1C
$GPGSV,4,1,16,10,21,351,24,16,25,257,27,18,31,066,30,23,05,029,13*78
$GPGSV,4,2,16,25,04,134,20,26,30,225,15,27,32,320,32,28,40,166,18*7B
$GPGSV,4,3,16,29,25,145,17,31,25,196,28,32,74,350,21,36,52,277,*75
$GPGSV,4,4,16,40,84,354,32,41,58,082,32,49,32,274,,50,10,089,*7E
$GLGSV,3,1,09,70,37,351,,71,55,280,29,72,22,226,21,73,14,158,*60
$GLGSV,3,2,09,74,15,204,,75,00,248,,83,20,126,16,84,45,065,09*6C
$GLGSV,3,3,09,85,25,004,25*55
$GNGLL,0419.75179,S,05539.87551,E,112647.00,A,A*68
$GNGRS,112647.00,1,3.0,-18.4,7.7,2.3,5.9,2.9,-0.5,-10.7,0.4,,,*5B
$GNGRS,112647.00,1,-5.5,13.5,4.6,,,,,,,,,*61
$GNGST,112647.00,103223,,,,4.8,4.2,10*6A
$GNZDA,112647.00,27,05,2025,00,00*7A
$GNGBS,112647.00,4.8,4.2,10.4,,,,*67
b0@
_B
-  @#( I^{4Tb:R 
YeF%_G7HIJKS~`T-AfU}bY$GNRMC,112648.00,A,0419.75177,S,05539.87555,E,0.019,,270525,,,A*7B
$GNVTG,,T,,M,0.019,N,0.035,K,A*33
$GNGNS,112648.00,0419.75177,S,05539.87555,E,AA,12,0.73,9.6,-47.6,,*52
$GNGGA,112648.00,0419.75177,S,05539.87555,E,1,12,0.73,9.6,M,-47.6,M,,*78
$GNGSA,A,3,32,28,18,26,29,27,16,10,31,,,,1.71,0.73,1.54*13
$GNGSA,A,3,71,83,84,,,,,,,,,,1.71,0.73,1.54*1E
$GPGSV,4,1,16,10,21,351,23,16,25,257,27,18,31,066,31,23,05,029,11*7C
$GPGSV,4,2,16,25,04,134,21,26,30,225,17,27,32,320,32,28,40,166,19*79
$GPGSV,4,3,16,29,25,145,19,31,25,196,28,32,73,350,26,36,52,277,*7B
$GPGSV,4,4,16,40,84,354,31,41,58,082,31,49,32,274,,50,10,089,*7E
$GLGSV,3,1,09,70,37,351,,71,55,280,31,72,22,226,21,73,14,158,*69
$GLGSV,3,2,09,74,15,204,,75,00,248,,83,20,126,14,84,45,065,09*6E
$GLGSV,3,3,09,85,25,004,27*57
$GNGLL,0419.75177,S,05539.87555,E,112648.00,A,A*6D
$GNGRS,112648.00,1,0.3,-15.6,2.8,3.0,4.3,2.9,-1.2,-7.9,-2.9,,,*44
$GNGRS,112648.00,1,-6.3,13.8,-142,,,,,,,,,*50
$GNGST,112648.00,49,,,,4.8,4.2,10*69
$GNZDA,112648.00,27,05,2025,00,00*75
$GNGBS,112648.00,4.8,4.2,10.4,,,,*68
b0@
_ B
:! @(=. I^{4Tb:R 
YeQF%_G7+HIJKS~1T-AU}b\$GNRMC,112649.00,A,0419.75172,S,05539.87556,E,0.109,,270525,,,A*7C
$GNVTG,,T,,M,0.109,N,0.201,K,A*36
$GNGNS,112649.00,0419.75172,S,05539.87556,E,AA,12,0.70,9.5,-47.6,,*55
$GNGGA,112649.00,0419.75172,S,05539.87556,E,1,12,0.70,9.5,M,-47.6,M,,*7F
$GNGSA,A,3,32,28,18,26,29,27,16,10,31,,,,1.62,0.70,1.46*11
$GNGSA,A,3,71,83,84,,,,,,,,,,1.62,0.70,1.46*1C
$GPGSV,4,1,16,10,21,351,23,16,25,257,26,18,31,066,32,23,05,029,*7E
$GPGSV,4,2,16,25,04,134,20,26,30,225,18,27,32,320,33,28,40,166,20*7C
$GPGSV,4,3,16,29,25,145,22,31,25,196,26,32,73,350,27,36,52,277,*7C
$GPGSV,4,4,16,40,84,354,29,41,58,082,31,49,32,274,,50,10,089,*77
$GLGSV,3,1,09,70,37,351,,71,55,280,31,72,22,226,22,73,14,158,*6A
$GLGSV,3,2,09,74,15,204,,75,00,248,,83,20,126,18,84,45,065,09*62
$GLGSV,3,3,09,85,25,004,26*56
$GNGLL,0419.75172,S,05539.87556,E,112649.00,A,A*6A
$GNGRS,112649.00,1,-2.8,-14.8,1.5,3.1,3.0,2.7,2.0,-6.0,-0.9,,,*4D
$GNGRS,112649.00,1,-2.1,13.3,4.9,,,,,,,,,*65
$GNGST,112649.00,3326,,,,4.7,4.1,10*6D
$GNZDA,112649.00,27,05,2025,00,00*74
$GNGBS,112649.00,4.7,4.1,10.3,,,,*62
b0@
_;BH
! @(w I^{4Tb:R 
YecF%_G7HIJKS~T-AUb`th$GNRMC,112650.00,A,0419.75170,S,05539.87556,E,0.025,,270525,,,A*79
$GNVTG,,T,,M,0.025,N,0.047,K,A*39
$GNGNS,112650.00,0419.75170,S,05539.87556,E,AA,12,0.70,9.2,-47.6,,*58
$GNGGA,112650.00,0419.75170,S,05539.87556,E,1,12,0.70,9.2,M,-47.6,M,,*72
$GNGSA,A,3,32,28,18,26,29,27,16,10,31,,,,1.62,0.70,1.46*11
$GNGSA,A,3,71,83,84,,,,,,,,,,1.62,0.70,1.46*1C
$GPGSV,4,1,16,10,21,351,22,16,25,257,26,18,31,066,31,23,05,029,*7C
$GPGSV,4,2,16,25,04,134,21,26,30,225,19,27,32,320,33,28,40,166,19*76
$GPGSV,4,3,16,29,25,145,22,31,25,196,26,32,73,350,25,36,52,277,*7E
$GPGSV,4,4,16,40,84,354,31,41,58,082,31,49,32,274,,50,10,089,*7E
$GLGSV,3,1,09,70,37,351,,71,55,280,30,72,22,226,22,73,14,158,*6B
$GLGSV,3,2,09,74,15,204,,75,00,248,,83,20,126,19,84,45,065,12*69
$GLGSV,3,3,09,85,25,004,25*55
$GNGLL,0419.75170,S,05539.87556,E,112650.00,A,A*60
$GNGRS,112650.00,1,-2.7,-12.7,3.3,1.4,-1.0,2.8,1.7,-7.1,1.2,,,*43
$GNGRS,112650.00,1,-2.3,9.6,4.9,,,,,,,,,*51
$GNGST,112650.00,4989,,,,4.7,4.1,10*6D
$GNZDA,112650.00,27,05,2025,00,00*7C
$GNGBS,112650.00,4.7,4.1,10.3,,,,*6A
b0@
_9B
G! @(wf I^&{4 Tb:R 
YeF%_G7HIJKS~T
-AUbdL$GNRMC,112651.00,A,0419.75171,S,05539.87561,E,0.233,,270525,,,A*78
$GNVTG,,T,,M,0.233,N,0.431,K,A*39
$GNGNS,112651.00,0419.75171,S,05539.87561,E,AA,12,0.73,8.8,-47.6,,*54
$GNGGA,112651.00,0419.75171,S,05539.87561,E,1,12,0.73,8.8,M,-47.6,M,,*7E
$GNGSA,A,3,32,28,18,26,29,27,16,10,31,,,,1.71,0.73,1.54*13
$GNGSA,A,3,71,83,84,,,,,,,,,,1.71,0.73,1.54*1E
$GPGSV,4,1,16,10,21,351,22,16,25,257,26,18,31,066,31,23,05,029,*7C
$GPGSV,4,2,16,25,04,134,21,26,30,225,17,27,32,320,33,28,40,166,18*79
$GPGSV,4,3,16,29,25,145,22,31,25,196,26,32,73,350,22,36,52,277,*79
$GPGSV,4,4,16,40,84,354,32,41,58,082,30,49,32,274,,50,10,089,*7C
$GLGSV,3,1,09,70,37,351,,71,55,280,31,72,22,226,22,73,14,158,*6A
$GLGSV,3,2,09,74,15,204,,75,00,248,,83,20,126,19,84,45,065,10*6B
$GLGSV,3,3,09,85,25,004,26*56
$GNGLL,0419.75171,S,05539.87561,E,112651.00,A,A*64
$GNGRS,112651.00,1,-2.2,-11.6,6.8,3.3,-1.5,2.7,2.7,-7.1,-0.2,,,*6B
$GNGRS,112651.00,1,-3.6,7.5,-67.0,,,,,,,,,*48
$GNGST,112651.00,43,,,,4.6,4.0,10*67
$GNZDA,112651.00,27,05,2025,00,00*7D
$GNGBS,112651.00,4.6,4.0,10.3,,,,*6B
b0@
__UBa
0! @(M I^{4Tb:R 
YeF%_G7HIJKS~tT-AUbh$8$GNRMC,112652.00,A,0419.75168,S,05539.87571,E,0.179,,270525,,,A*7F
$GNVTG,,T,,M,0.179,N,0.331,K,A*33
$GNGNS,112652.00,0419.75168,S,05539.87571,E,AA,12,0.70,8.3,-47.6,,*56
$GNGGA,112652.00,0419.75168,S,05539.87571,E,1,12,0.70,8.3,M,-47.6,M,,*7C
$GNGSA,A,3,32,28,18,26,29,27,16,10,31,,,,1.62,0.70,1.46*11
$GNGSA,A,3,71,83,84,,,,,,,,,,1.62,0.70,1.46*1C
$GPGSV,4,1,16,10,21,351,21,16,25,257,25,18,31,066,31,23,05,029,*7C
$GPGSV,4,2,16,25,04,134,20,26,30,225,15,27,32,320,33,28,40,166,17*75
$GPGSV,4,3,16,29,25,145,20,31,25,196,27,32,73,350,20,36,52,277,*78
$GPGSV,4,4,16,40,84,354,31,41,58,082,31,49,32,274,,50,10,089,*7E
$GLGSV,3,1,09,70,37,351,,71,55,280,31,72,22,226,21,73,14,158,*69
$GLGSV,3,2,09,74,15,204,,75,00,248,,83,20,126,19,84,45,065,09*63
$GLGSV,3,3,09,85,25,004,26*56
$GNGLL,0419.75168,S,05539.87571,E,112652.00,A,A*6E
$GNGRS,112652.00,1,-0.6,-11.2,10.0,5.6,-0.5,2.6,3.4,-6.7,-1.8,,,*58
$GNGRS,112652.00,1,-7.8,6.3,4.8,,,,,,,,,*56
$GNGST,112652.00,3299292,,,,4.6,4.0,10*5B
$GNZDA,112652.00,27,05,2025,00,00*7E
$GNGBS,112652.00,4.6,4.0,10.3,,,,*68
b0@
_;uBg
'  @(- I^{4 Tb:R 
YeF%_G7HIJKS~T-AU_jbl$GNRMC,112653.00,A,0419.75169,S,05539.87575,E,0.151,,270525,,,A*71
$GNVTG,,T,,M,0.151,N,0.279,K,A*34
$GNGNS,112653.00,0419.75169,S,05539.87575,E,AA,12,0.70,8.1,-47.6,,*50
$GNGGA,112653.00,0419.75169,S,05539.87575,E,1,12,0.70,8.1,M,-47.6,M,,*7A
$GNGSA,A,3,32,28,18,26,29,27,16,10,31,,,,1.62,0.70,1.46*11
$GNGSA,A,3,71,83,84,,,,,,,,,,1.62,0.70,1.46*1C
$GPGSV,4,1,16,10,21,351,21,16,25,257,26,18,31,066,31,23,05,029,*7F
$GPGSV,4,2,16,25,04,134,21,26,30,225,15,27,32,320,32,28,40,166,17*75
$GPGSV,4,3,16,29,25,145,16,31,25,196,27,32,73,350,23,36,52,277,*7E
$GPGSV,4,4,16,40,84,354,32,41,58,082,31,49,32,274,,50,10,089,*7D
$GLGSV,3,1,09,70,37,351,,71,55,280,29,72,22,226,21,73,14,158,*60
$GLGSV,3,2,09,74,15,204,,75,00,248,,83,20,126,20,84,45,065,09*69
$GLGSV,3,3,09,85,25,004,26*56
$GNGLL,0419.75169,S,05539.87575,E,112653.00,A,A*6A
$GNGRS,112653.00,1,-0.1,-9.8,3.6,5.5,4.3,2.4,1.2,-7.1,-3.0,,,*7E
$GNGRS,112653.00,1,-5.0,5.2,4.6,,,,,,,,,*51
$GNGST,112653.00,3299292,,,,4.5,3.9,10*57
$GNZDA,112653.00,27,05,2025,00,00*7F
$GNGBS,112653.00,4.5,3.9,10.2,,,,*65
b0@
_!Bi
  @(, I^{4 Tb:R 
YeF%_G7FHIJKS~T-A}Ubtp$GNRMC,112654.00,A,0419.75167,S,05539.87578,E,0.051,,270525,,,A*74
$GNVTG,,T,,M,0.051,N,0.094,K,A*34
$GNGNS,112654.00,0419.75167,S,05539.87578,E,AA,12,0.73,7.8,-47.6,,*51
$GNGGA,112654.00,0419.75167,S,05539.87578,E,1,12,0.73,7.8,M,-47.6,M,,*7B
$GNGSA,A,3,32,28,18,26,29,27,16,10,31,,,,1.71,0.73,1.54*13
$GNGSA,A,3,71,83,84,,,,,,,,,,1.71,0.73,1.54*1E
$GPGSV,4,1,16,10,21,351,24,16,25,257,26,18,31,066,31,23,05,029,*7A
$GPGSV,4,2,16,25,04,134,21,26,30,225,15,27,32,320,32,28,40,166,19*7B
$GPGSV,4,3,16,29,25,145,15,31,25,196,26,32,73,350,26,36,52,277,*79
$GPGSV,4,4,16,40,84,354,32,41,58,082,30,49,32,274,,50,10,089,*7C
$GLGSV,3,1,09,70,37,351,,71,55,280,29,72,22,226,22,73,14,158,*63
$GLGSV,3,2,09,74,15,204,,75,00,248,,83,20,126,20,84,45,065,09*69
$GLGSV,3,3,09,85,25,004,26*56
$GNGLL,0419.75167,S,05539.87578,E,112654.00,A,A*6E
$GNGRS,112654.00,1,-1.3,-8.9,1.1,4.4,5.2,2.7,-0.1,-9.9,-4.7,,,*55
$GNGRS,112654.00,1,-7.0,6.6,-104,,,,,,,,,*67
$GNGST,112654.00,44,,,,4.5,3.9,10*68
$GNZDA,112654.00,27,05,2025,00,00*78
$GNGBS,112654.00,4.5,3.9,10.2,,,,*62
b0@h
_B
6! @6(+x I^{4Tb:R 
YeF%_G73HIJKS~RT
-AU+bh\tp$GNRMC,112655.00,A,0419.75159,S,05539.87582,E,0.169,,270525,,,A*77
$GNVTG,,T,,M,0.169,N,0.312,K,A*33
$GNGNS,112655.00,0419.75159,S,05539.87582,E,AA,12,0.70,7.5,-47.6,,*56
$GNGGA,112655.00,0419.75159,S,05539.87582,E,1,12,0.70,7.5,M,-47.6,M,,*7C
$GNGSA,A,3,32,28,18,26,29,27,16,10,31,,,,1.62,0.70,1.46*11
$GNGSA,A,3,71,83,84,,,,,,,,,,1.62,0.70,1.46*1C
$GPGSV,4,1,16,10,21,351,24,16,25,257,26,18,31,066,31,23,05,029,*7A
$GPGSV,4,2,16,25,04,134,21,26,30,225,15,27,32,320,33,28,40,166,23*73
$GPGSV,4,3,16,29,25,145,14,31,25,196,24,32,73,350,30,36,52,277,*7D
$GPGSV,4,4,16,40,84,354,31,41,58,082,28,49,32,274,,50,10,089,*76
$GLGSV,3,1,09,70,37,351,,71,55,280,30,72,22,226,22,73,14,158,*6B
$GLGSV,3,2,09,74,15,204,,75,00,248,,83,20,126,18,84,45,065,10*6A
$GLGSV,3,3,09,85,25,004,26*56
$GNGLL,0419.75159,S,05539.87582,E,112655.00,A,A*67
$GNGRS,112655.00,1,-2.4,-9.8,1.5,3.1,4.2,3.1,1.5,-9.0,-3.9,,,*78
$GNGRS,112655.00,1,-9.7,5.9,4.9,,,,,,,,,*58
$GNGST,112655.00,3299292,,,,4.4,3.9,10*50
$GNZDA,112655.00,27,05,2025,00,00*79
$GNGBS,112655.00,4.4,3.9,10.1,,,,*61
b0@P
_9Bw
" @E(^ I^{4Tb:R 
YeF%_G7THIJKS~T-AUHbPDx$GNRMC,112656.00,A,0419.75147,S,05539.87584,E,0.120,,270525,,,A*70
$GNVTG,,T,,M,0.120,N,0.221,K,A*3F
$GNGNS,112656.00,0419.75147,S,05539.87584,E,AA,12,0.70,7.1,-47.6,,*58
$GNGGA,112656.00,0419.75147,S,05539.87584,E,1,12,0.70,7.1,M,-47.6,M,,*72
$GNGSA,A,3,32,28,18,26,29,27,16,10,31,,,,1.62,0.70,1.46*11
$GNGSA,A,3,71,83,84,,,,,,,,,,1.62,0.70,1.46*1C
$GPGSV,4,1,16,10,21,351,24,16,25,257,26,18,31,066,31,23,05,029,*7A
$GPGSV,4,2,16,25,04,134,21,26,30,225,16,27,32,320,34,28,40,166,21*75
$GPGSV,4,3,16,29,25,145,13,31,25,196,26,32,73,350,25,36,52,277,*7C
$GPGSV,4,4,16,40,84,354,30,41,58,082,29,49,32,274,,50,10,089,*76
$GLGSV,3,1,09,70,37,351,,71,55,280,30,72,22,226,23,73,14,158,*6A
$GLGSV,3,2,09,74,15,204,,75,00,248,,83,20,126,15,84,45,065,09*6F
$GLGSV,3,3,09,85,25,004,27*57
$GNGLL,0419.75147,S,05539.87584,E,112656.00,A,A*6D
$GNGRS,112656.00,1,-6.2,-8.7,3.8,3.9,-3.7,3.3,2.0,-7.1,-6.7,,,*5F
$GNGRS,112656.00,1,-6.8,12.0,4.8,,,,,,,,,*65
$GNGST,112656.00,3299292,,,,4.4,3.8,10*52
$GNZDA,112656.00,27,05,2025,00,00*7A
$GNGBS,112656.00,4.4,3.8,10.1,,,,*63
b0@8
_BQ
  @C([ I^{4Tb:R 
YeqF%_G7HIJKS~T-A!U]"b8,|\@$GNRMC,112657.00,A,0419.75145,S,05539.87587,E,0.188,,270525,,,A*72
$GNVTG,,T,,M,0.188,N,0.348,K,A*33
$GNGNS,112657.00,0419.75145,S,05539.87587,E,AA,12,0.73,6.8,-47.6,,*53
$GNGGA,112657.00,0419.75145,S,05539.87587,E,1,12,0.73,6.8,M,-47.6,M,,*79
$GNGSA,A,3,32,28,18,26,29,27,16,10,31,,,,1.71,0.73,1.55*12
$GNGSA,A,3,71,83,84,,,,,,,,,,1.71,0.73,1.55*1F
$GPGSV,4,1,16,10,21,351,23,16,25,257,26,18,31,066,31,23,05,029,*7D
$GPGSV,4,2,16,25,04,134,21,26,30,225,15,27,32,320,32,28,40,166,20*71
$GPGSV,4,3,16,29,25,145,16,31,25,196,27,32,73,350,23,36,52,277,*7E
$GPGSV,4,4,16,40,84,354,31,41,58,082,30,49,32,274,,50,10,089,*7F
$GLGSV,3,1,09,70,37,351,,71,55,280,30,72,22,226,22,73,14,158,*6B
$GLGSV,3,2,09,74,15,204,,75,00,248,,83,20,126,11,84,45,065,15*66
$GLGSV,3,3,09,85,25,004,25*55
$GNGLL,0419.75145,S,05539.87587,E,112657.00,A,A*6D
$GNGRS,112657.00,1,-8.6,-9.3,1.5,4.7,-5.1,3.2,2.0,-7.5,-6.2,,,*57
$GNGRS,112657.00,1,-3.0,18.2,-99.5,,,,,,,,,*75
$GNGST,112657.00,47,,,,4.4,3.8,10*68
$GNZDA,112657.00,27,05,2025,00,00*7B
$GNGBS,112657.00,4.4,3.8,10.0,,,,*63
b0@ 
_ B
! @(@K I^8{4Tb:R 
YerF%_G7>HIJKS
~T-AUb 4$GNRMC,112658.00,A,0419.75144,S,05539.87588,E,0.122,,270525,,,A*73
$GNVTG,,T,,M,0.122,N,0.225,K,A*39
$GNGNS,112658.00,0419.75144,S,05539.87588,E,AA,12,0.70,6.7,-47.6,,*5E
$GNGGA,112658.00,0419.75144,S,05539.87588,E,1,12,0.70,6.7,M,-47.6,M,,*74
$GNGSA,A,3,32,28,18,26,29,27,16,10,31,,,,1.62,0.70,1.46*11
$GNGSA,A,3,71,83,84,,,,,,,,,,1.62,0.70,1.46*1C
$GPGSV,4,1,16,10,21,351,20,16,25,257,25,18,31,066,32,23,05,029,*7E
$GPGSV,4,2,16,25,04,134,20,26,30,225,12,27,32,320,33,28,40,166,20*76
$GPGSV,4,3,16,29,25,145,17,31,25,196,26,32,73,350,20,36,52,277,*7D
$GPGSV,4,4,16,40,84,354,30,41,58,082,30,49,32,274,,50,10,089,*7E
$GLGSV,3,1,09,70,37,351,,71,55,280,28,72,22,226,22,73,14,158,*62
$GLGSV,3,2,09,74,15,204,,75,00,248,,83,20,126,10,84,45,065,11*63
$GLGSV,3,3,09,85,25,004,25*55
$GNGLL,0419.75144,S,05539.87588,E,112658.00,A,A*6C
$GNGRS,112658.00,1,-2.0,-7.0,0.2,5.2,-1.8,1.5,3.8,-8.5,-5.5,,,*51
$GNGRS,112658.00,1,-1.9,18.0,5.0,,,,,,,,,*6E
$GNGST,112658.00,3300339,,,,4.3,3.7,10*55
$GNZDA,112658.00,27,05,2025,00,00*74
$GNGBS,112658.00,4.3,3.7,10.1,,,,*65
b0@
_(D!B
A" @G(C= I^{4Tb:R 
Ye`F%_G7HIJKS~T-AUb$GNRMC,112659.00,A,0419.75138,S,05539.87588,E,0.124,,270525,,,A*7F
$GNVTG,,T,,M,0.124,N,0.231,K,A*3A
$GNGNS,112659.00,0419.75138,S,05539.87588,E,AA,12,0.70,6.7,-47.6,,*54
$GNGGA,112659.00,0419.75138,S,05539.87588,E,1,12,0.70,6.7,M,-47.6,M,,*7E
$GNGSA,A,3,32,28,18,26,29,27,16,10,31,,,,1.62,0.70,1.46*11
$GNGSA,A,3,71,83,84,,,,,,,,,,1.62,0.70,1.46*1C
$GPGSV,4,1,16,10,21,351,21,16,25,257,24,18,31,066,33,23,05,029,17*79
$GPGSV,4,2,16,25,04,134,18,26,30,225,13,27,32,320,34,28,40,166,21*7A
$GPGSV,4,3,16,29,25,145,16,31,25,196,25,32,73,350,19,36,52,277,*75
$GPGSV,4,4,16,40,84,354,30,41,58,082,31,49,32,274,,50,10,089,*7F
$GLGSV,3,1,09,70,37,351,,71,55,280,29,72,22,226,21,73,14,158,*60
$GLGSV,3,2,09,74,15,204,,75,00,248,,83,20,126,16,84,45,065,12*66
$GLGSV,3,3,09,85,25,004,25*55
$GNGLL,0419.75138,S,05539.87588,E,112659.00,A,A*66
$GNGRS,112659.00,1,0.3,-5.7,2.9,5.8,-4.5,3.3,5.8,-9.8,-2.0,,,*7E
$GNGRS,112659.00,1,-1.2,18.0,5.0,,,,,,,,,*64
$GNGST,112659.00,3300339,,,,4.3,3.7,10*54
$GNZDA,112659.00,27,05,2025,00,00*75
$GNGBS,112659.00,4.3,3.7,10.1,,,,*64
b0@
_I!BaJ
+! @8(y. I^{4!Tb:R 
YeF%_G7bHIJKS~[T-AhUDbf$GNRMC,112700.00,A,0419.75134,S,05539.87586,E,0.072,,270525,,,A*72
$GNVTG,,T,,M,0.072,N,0.133,K,A*39
$GNGNS,112700.00,0419.75134,S,05539.87586,E,AA,12,0.73,6.3,-47.6,,*5C
$GNGGA,112700.00,0419.75134,S,05539.87586,E,1,12,0.73,6.3,M,-47.6,M,,*76
$GNGSA,A,3,32,28,18,26,29,27,16,10,31,,,,1.71,0.73,1.55*12
$GNGSA,A,3,71,83,84,,,,,,,,,,1.71,0.73,1.55*1F
$GPGSV,4,1,16,10,21,351,20,16,25,257,24,18,31,066,33,23,05,029,15*7A
$GPGSV,4,2,16,25,04,134,18,26,30,225,16,27,32,320,33,28,40,166,21*78
$GPGSV,4,3,16,29,25,145,18,31,25,196,23,32,73,350,22,36,52,277,*75
$GPGSV,4,4,16,40,84,354,33,41,58,082,31,49,32,274,,50,10,089,*7C
$GLGSV,3,1,09,70,37,351,,71,55,280,28,72,22,226,21,73,14,158,*61
$GLGSV,3,2,09,74,15,204,,75,00,248,,83,20,126,09,84,45,065,11*6B
$GLGSV,3,3,09,85,25,004,26*56
$GNGLL,0419.75134,S,05539.87586,E,112700.00,A,A*69
$GNGRS,112700.00,1,-1.2,-3.9,1.0,3.0,-3.7,3.1,4.9,-9.5,-2.1,,,*59
$GNGRS,112700.00,1,-6.7,8.6,77.8,,,,,,,,,*61
$GNGST,112700.00,51,,,,4.3,3.7,10*64
$GNZDA,112700.00,27,05,2025,00,00*78
$GNGBS,112700.00,4.3,3.7,10.2,,,,*6A
b0@
_9 B`
! @\(kL I^[{4 Tb:R 
YeF%_G7MHIJKS~8T-AU<b$GNRMC,112701.00,A,0419.75132,S,05539.87584,E,0.154,,270525,,,A*72
$GNVTG,,T,,M,0.154,N,0.286,K,A*31
$GNGNS,112701.00,0419.75132,S,05539.87584,E,AA,12,0.70,5.8,-47.6,,*52
$GNGGA,112701.00,0419.75132,S,05539.87584,E,1,12,0.70,5.8,M,-47.6,M,,*78
$GNGSA,A,3,32,28,18,26,29,27,16,10,31,,,,1.62,0.70,1.46*11
$GNGSA,A,3,71,83,84,,,,,,,,,,1.62,0.70,1.46*1C
$GPGSV,4,1,16,10,21,351,19,16,25,257,25,18,31,066,32,23,05,029,13*76
$GPGSV,4,2,16,25,04,134,18,26,30,225,15,27,32,320,33,28,40,166,21*7B
$GPGSV,4,3,16,29,25,145,20,31,25,196,22,32,73,350,25,36,52,277,*78
$GPGSV,4,4,16,40,84,354,32,41,58,082,30,49,32,274,,50,10,089,*7C
$GLGSV,3,1,09,70,37,351,,71,55,280,27,72,22,226,20,73,14,158,*6F
$GLGSV,3,2,09,74,15,204,,75,00,248,,83,20,126,09,84,45,065,11*6B
$GLGSV,3,3,09,85,25,004,26*56
$GNGLL,0419.75132,S,05539.87584,E,112701.00,A,A*6C
$GNGRS,112701.00,1,-6.8,-4.1,4.1,2.5,-2.4,6.0,4.0,-9.7,-1.8,,,*5D
$GNGRS,112701.00,1,-4.4,13.4,4.9,,,,,,,,,*6C
$GNGST,112701.00,3301008,,,,4.3,3.6,10*59
$GNZDA,112701.00,27,05,2025,00,00*79
$GNGBS,112701.00,4.3,3.6,10.3,,,,*6B
b0@
_c< B
&  @<(8f I^{4Tb:R 
Ye:F%_G7HIJKS~&T-AUeb6$GNRMC,112702.00,A,0419.75129,S,05539.87585,E,0.103,,270525,,,A*78
$GNVTG,,T,,M,0.103,N,0.191,K,A*36
$GNGNS,112702.00,0419.75129,S,05539.87585,E,AA,12,0.70,5.5,-47.6,,*57
$GNGGA,112702.00,0419.75129,S,05539.87585,E,1,12,0.70,5.5,M,-47.6,M,,*7D
$GNGSA,A,3,32,28,18,26,29,27,16,10,31,,,,1.62,0.70,1.46*11
$GNGSA,A,3,71,83,84,,,,,,,,,,1.62,0.70,1.46*1C
$GPGSV,4,1,16,10,21,351,19,16,25,257,25,18,31,066,32,23,05,029,13*76
$GPGSV,4,2,16,25,04,134,19,26,30,225,14,27,32,320,32,28,40,166,22*79
$GPGSV,4,3,16,29,25,145,22,31,25,196,22,32,73,350,22,36,52,277,*7D
$GPGSV,4,4,16,40,84,354,31,41,58,082,29,49,32,274,,50,10,089,*77
$GLGSV,3,1,09,70,37,351,,71,55,280,26,72,22,226,22,73,14,158,*6C
$GLGSV,3,2,09,74,15,204,,75,00,248,,83,20,126,09,84,45,065,11*6B
$GLGSV,3,3,09,85,25,004,26*56
$GNGLL,0419.75129,S,05539.87585,E,112702.00,A,A*64
$GNGRS,112702.00,1,-10.2,-2.0,5.1,2.9,-4.1,5.7,3.2,-9.3,-2.4,,,*60
$GNGRS,112702.00,1,-6.4,13.2,4.7,,,,,,,,,*65
$GNGST,112702.00,3303152,,,,4.3,3.6,10*56
$GNZDA,112702.00,27,05,2025,00,00*7A
$GNGBS,112702.00,4.3,3.6,10.4,,,,*6F
b0@
_!BP
?  @(% I^{4Tb:R 
YeF%_G7HIJKS~$T-ASUp3bk$GNRMC,112703.00,A,0419.75134,S,05539.87584,E,0.320,,270525,,,A*77
$GNVTG,,T,,M,0.320,N,0.593,K,A*33
$GNGNS,112703.00,0419.75134,S,05539.87584,E,AA,12,0.73,5.0,-47.6,,*5D
$GNGGA,112703.00,0419.75134,S,05539.87584,E,1,12,0.73,5.0,M,-47.6,M,,*77
$GNGSA,A,3,32,28,18,26,29,27,16,10,31,,,,1.71,0.73,1.55*12
$GNGSA,A,3,71,83,84,,,,,,,,,,1.71,0.73,1.55*1F
$GPGSV,4,1,16,10,21,351,17,16,25,257,24,18,31,066,33,23,05,029,13*78
$GPGSV,4,2,16,25,04,134,19,26,30,225,15,27,32,320,32,28,40,166,21*7B
$GPGSV,4,3,16,29,25,145,21,31,25,196,23,32,73,350,21,36,52,277,*7C
$GPGSV,4,4,16,40,84,354,31,41,58,082,30,49,32,274,,50,10,089,*7F
$GLGSV,3,1,09,70,37,351,,71,55,280,26,72,22,226,24,73,14,158,*6A
$GLGSV,3,2,09,74,15,204,,75,00,248,,83,20,126,15,84,45,065,13*64
$GLGSV,3,3,09,85,25,004,27*57
$GNGLL,0419.75134,S,05539.87584,E,112703.00,A,A*68
$GNGRS,112703.00,1,-11.3,-2.6,0.8,0.6,-5.1,5.3,2.3,-8.9,-2.2,,,*6E
$GNGRS,112703.00,1,-5.4,13.2,-109,,,,,,,,,*5F
$GNGST,112703.00,48,,,,4.3,3.6,10*6E
$GNZDA,112703.00,27,05,2025,00,00*7B
$GNGBS,112703.00,4.3,3.6,10.5,,,,*6F
b0@
_-!B

  @(> I^{4Tb:R 
YeF%_G7HIJKS~gT-AU'bC$GNRMC,112704.00,A,0419.75135,S,05539.87585,E,0.216,,270525,,,A*74
$GNVTG,,T,,M,0.216,N,0.399,K,A*3B
$GNGNS,112704.00,0419.75135,S,05539.87585,E,AA,12,0.70,4.6,-47.6,,*5E
$GNGGA,112704.00,0419.75135,S,05539.87585,E,1,12,0.70,4.6,M,-47.6,M,,*74
$GNGSA,A,3,32,28,18,26,29,27,16,10,31,,,,1.62,0.70,1.46*11
$GNGSA,A,3,71,83,84,,,,,,,,,,1.62,0.70,1.46*1C
$GPGSV,4,1,16,10,21,351,14,16,25,257,23,18,31,066,33,23,05,029,10*7F
$GPGSV,4,2,16,25,04,134,19,26,30,225,16,27,32,320,32,28,40,166,18*72
$GPGSV,4,3,16,29,25,145,19,31,25,196,23,32,73,350,24,36,52,277,*72
$GPGSV,4,4,16,40,84,354,31,41,58,082,31,49,32,274,,50,10,089,*7E
$GLGSV,3,1,09,70,37,351,,71,55,280,27,72,22,226,25,73,14,158,*6A
$GLGSV,3,2,09,74,15,204,,75,00,248,,83,20,126,19,84,45,065,13*68
$GLGSV,3,3,09,85,25,004,27*57
$GNGLL,0419.75135,S,05539.87585,E,112704.00,A,A*6F
$GNGRS,112704.00,1,-11.0,-1.1,1.3,-1.3,-4.5,3.8,3.0,-10.9,-2.6,,,*7A
$GNGRS,112704.00,1,-5.0,11.3,4.9,,,,,,,,,*69
$GNGST,112704.00,3299292,,,,4.3,3.6,11*5C
$GNZDA,112704.00,27,05,2025,00,00*7C
$GNGBS,112704.00,4.3,3.6,10.6,,,,*6B
b0@x
_ Be
 @(Sv I^{4 Tb:R 
Ye/F%_G7MHIJKS~T-AUtbxl|$GNRMC,112705.00,A,0419.75133,S,05539.87580,E,0.112,,270525,,,A*71
$GNVTG,,T,,M,0.112,N,0.208,K,A*35
$GNGNS,112705.00,0419.75133,S,05539.87580,E,AA,11,0.85,4.3,-47.6,,*50
$GNGGA,112705.00,0419.75133,S,05539.87580,E,1,11,0.85,4.3,M,-47.6,M,,*7A
$GNGSA,A,3,32,28,18,26,29,27,16,31,,,,,2.09,0.85,1.91*1E
$GNGSA,A,3,71,83,84,,,,,,,,,,2.09,0.85,1.91*12
$GPGSV,4,1,16,10,21,351,09,16,25,257,23,18,31,066,32,23,05,029,09*7A
$GPGSV,4,2,16,25,04,134,18,26,30,225,15,27,32,320,31,28,40,166,17*7C
$GPGSV,4,3,16,29,25,145,18,31,25,196,22,32,73,350,24,36,52,277,*72
$GPGSV,4,4,16,40,84,354,32,41,58,082,28,49,32,274,,50,10,089,*75
$GLGSV,3,1,09,70,37,351,,71,55,280,26,72,22,226,25,73,14,158,*6B
$GLGSV,3,2,09,74,15,204,,75,00,248,,83,20,126,20,84,45,065,11*60
$GLGSV,3,3,09,85,25,004,27*57
$GNGLL,0419.75133,S,05539.87580,E,112705.00,A,A*6D
$GNGRS,112705.00,1,-7.8,-2.9,-2.7,-3.0,-6.8,4.9,4.5,-1.4,,,,*55
$GNGRS,112705.00,1,-4.3,10.1,4.9,,,,,,,,,*69
$GNGST,112705.00,3586708,,,,4.4,3.6,11*55
$GNZDA,112705.00,27,05,2025,00,00*7D
$GNGBS,112705.00,4.4,3.6,10.7,,,,*6C
b0@`
_ Bt:
2 @(t I^J{4 Tb:R 
YeiF%_G7HIJKS~}T-AUcb`T$GNRMC,112706.00,A,0419.75127,S,05539.87577,E,0.076,,270525,,,A*7C
$GNVTG,,T,,M,0.076,N,0.140,K,A*39
$GNGNS,112706.00,0419.75127,S,05539.87577,E,AA,11,0.81,4.0,-47.6,,*59
$GNGGA,112706.00,0419.75127,S,05539.87577,E,1,11,0.81,4.0,M,-47.6,M,,*73
$GNGSA,A,3,32,28,18,26,29,27,16,31,,,,,1.85,0.81,1.66*15
$GNGSA,A,3,71,83,84,,,,,,,,,,1.85,0.81,1.66*19
$GPGSV,4,1,16,10,21,351,08,16,25,257,23,18,31,066,32,23,05,029,08*7A
$GPGSV,4,2,16,25,04,134,19,26,30,225,11,27,32,320,31,28,40,166,18*76
$GPGSV,4,3,16,29,25,145,18,31,25,196,22,32,73,350,22,36,52,277,*74
$GPGSV,4,4,16,40,84,354,32,41,58,082,30,49,32,274,,50,10,089,*7C
$GLGSV,3,1,09,70,37,351,,71,55,280,25,72,22,226,25,73,14,158,*68
$GLGSV,3,2,09,74,15,204,,75,00,248,,83,20,126,19,84,45,065,11*6A
$GLGSV,3,3,09,85,25,004,27*57
$GNGLL,0419.75127,S,05539.87577,E,112706.00,A,A*63
$GNGRS,112706.00,1,-6.9,-3.8,-1.4,-4.6,-8.0,4.4,5.3,-1.4,,,,*5B
$GNGRS,112706.00,1,-3.1,8.9,7.4,,,,,,,,,*50
$GNGST,112706.00,60,,,,4.5,3.6,11*66
$GNZDA,112706.00,27,05,2025,00,00*7E
$GNGBS,112706.00,4.5,3.6,11.0,,,,*68
b0@H

_ B
 @(HC I^{4 Tb :R 
YenF%_G7HIJKS~T-AUGbH<L$GNRMC,112707.00,A,0419.75128,S,05539.87575,E,0.188,,270525,,,A*70
$GNVTG,,T,,M,0.188,N,0.348,K,A*33
$GNGNS,112707.00,0419.75128,S,05539.87575,E,AA,12,0.73,4.2,-47.6,,*59
$GNGGA,112707.00,0419.75128,S,05539.87575,E,1,12,0.73,4.2,M,-47.6,M,,*73
$GNGSA,A,3,32,28,18,26,29,27,16,10,31,,,,1.76,0.73,1.60*13
$GNGSA,A,3,71,83,84,,,,,,,,,,1.76,0.73,1.60*1E
$GPGSV,4,1,16,10,21,351,10,16,25,257,23,18,31,066,32,23,05,029,09*72
$GPGSV,4,2,16,25,04,134,19,26,30,225,11,27,32,320,31,28,40,166,20*7D
$GPGSV,4,3,16,29,25,145,19,31,25,196,25,32,73,350,20,36,52,277,*70
$GPGSV,4,4,16,40,84,354,32,41,58,082,32,49,32,274,,50,10,089,*7E
$GLGSV,3,1,09,70,37,351,,71,55,280,27,72,22,226,25,73,14,158,*6A
$GLGSV,3,2,09,74,15,204,,75,00,248,,83,20,126,17,84,45,065,11*64
$GLGSV,3,3,09,85,25,004,27*57
$GNGLL,0419.75128,S,05539.87575,E,112707.00,A,A*6F
$GNGRS,112707.00,1,-5.9,-4.4,-0.7,-4.9,-7.6,0.1,1.9,-13.8,-1.9,,,*6D
$GNGRS,112707.00,1,-3.8,7.1,4.8,,,,,,,,,*50
$GNGST,112707.00,3435214,,,,4.5,3.6,11*57
$GNZDA,112707.00,27,05,2025,00,00*7F
$GNGBS,112707.00,4.5,3.6,11.2,,,,*6B
b0@0
_B,
  @((q I^{4Tb :R 
YeQF%_G7pHIJKS~rT-AU?b0$$GNRMC,112708.00,A,0419.75128,S,05539.87575,E,0.132,,270525,,,A*7E
$GNVTG,,T,,M,0.132,N,0.245,K,A*3E
$GNGNS,112708.00,0419.75128,S,05539.87575,E,AA,12,0.73,4.2,-47.6,,*56
$GNGGA,112708.00,0419.75128,S,05539.87575,E,1,12,0.73,4.2,M,-47.6,M,,*7C
$GNGSA,A,3,32,28,18,26,29,27,16,10,31,,,,1.76,0.73,1.60*13
$GNGSA,A,3,71,83,84,,,,,,,,,,1.76,0.73,1.60*1E
$GPGSV,4,1,16,10,21,351,13,16,25,257,23,18,31,066,31,23,05,029,12*78
$GPGSV,4,2,16,25,04,134,20,26,30,225,18,27,32,320,32,28,40,166,20*7D
$GPGSV,4,3,16,29,25,145,19,31,25,196,24,32,73,350,17,36,52,277,*75
$GPGSV,4,4,16,40,84,354,31,41,58,082,32,49,32,274,,50,10,089,*7D
$GLGSV,3,1,09,70,37,351,,71,55,280,28,72,22,226,25,73,14,158,*65
$GLGSV,3,2,09,74,15,204,,75,00,248,,83,20,126,14,84,45,065,11*67
$GLGSV,3,3,09,85,25,004,26*56
$GNGLL,0419.75128,S,05539.87575,E,112708.00,A,A*60
$GNGRS,112708.00,1,-8.1,-2.2,0.4,-5.2,-8.7,-0.8,0.2,-13.7,-1.4,,,*61
$GNGRS,112708.00,1,-4.0,3.7,4.7,,,,,,,,,*5D
$GNGST,112708.00,3435353,,,,4.5,3.6,11*5A
$GNZDA,112708.00,27,05,2025,00,00*70
$GNGBS,112708.00,4.5,3.6,11.4,,,,*62
b0@
_B
  @(f I^{4 Tb:R 
YeF%_G7HIJKS~lT-A;U%b{$GNRMC,112709.00,A,0419.75126,S,05539.87574,E,0.093,,270525,,,A*7A
$GNVTG,,T,,M,0.093,N,0.172,K,A*33
$GNGNS,112709.00,0419.75126,S,05539.87574,E,AA,13,0.77,3.3,-47.6,,*5B
$GNGGA,112709.00,0419.75126,S,05539.87574,E,1,12,0.77,3.3,M,-47.6,M,,*70
$GNGSA,A,3,32,28,18,26,29,27,16,10,31,,,,1.81,0.77,1.63*1C
$GNGSA,A,3,71,83,84,85,,,,,,,,,1.81,0.77,1.63*1C
$GPGSV,4,1,16,10,21,351,13,16,25,257,25,18,31,066,30,23,05,029,16*7B
$GPGSV,4,2,16,25,04,134,20,26,30,225,18,27,32,320,32,28,40,166,18*76
$GPGSV,4,3,16,29,25,145,18,31,25,196,23,32,73,350,16,36,52,277,*72
$GPGSV,4,4,16,40,84,354,32,41,58,082,31,49,32,274,,50,10,089,*7D
$GLGSV,3,1,09,70,37,351,,71,55,280,28,72,22,226,24,73,14,158,*64
$GLGSV,3,2,09,74,15,204,,75,00,248,,83,20,126,14,84,45,065,12*64
$GLGSV,3,3,09,85,25,004,24*54
$GNGLL,0419.75126,S,05539.87574,E,112709.00,A,A*6E
$GNGRS,112709.00,1,-7.6,-0.6,4.5,-20.8,-9.2,4.1,-1.0,43.8,-3.2,,,*7F
$GNGRS,112709.00,1,-5.6,3.6,151,-7.5,,,,,,,,*43
$GNGST,112709.00,51,,,,4.6,3.6,12*6B
$GNZDA,112709.00,27,05,2025,00,00*71
$GNGBS,112709.00,4.6,3.6,11.6,,,,*62
b0@
_B
 @( I^{4Tb:R 
YeF%_G7HIJKS~YT-AUmXbR$GNRMC,112710.00,A,0419.75119,S,05539.87575,E,0.080,,270525,,,A*7D
$GNVTG,,T,,M,0.080,N,0.148,K,A*38
$GNGNS,112710.00,0419.75119,S,05539.87575,E,AA,13,0.69,3.2,-47.6,,*50
$GNGGA,112710.00,0419.75119,S,05539.87575,E,1,12,0.69,3.2,M,-47.6,M,,*7B
$GNGSA,A,3,32,28,18,26,29,27,16,10,31,,,,1.69,0.69,1.55*10
$GNGSA,A,3,71,83,84,85,,,,,,,,,1.69,0.69,1.55*10
$GPGSV,4,1,16,10,21,351,13,16,25,257,25,18,31,066,31,23,05,029,16*7A
$GPGSV,4,2,16,25,04,134,20,26,30,225,18,27,32,320,31,28,40,166,19*74
$GPGSV,4,3,16,29,25,145,18,31,25,196,22,32,73,350,14,36,52,277,*71
$GPGSV,4,4,16,40,84,354,31,41,58,082,30,49,32,274,,50,10,089,*7F
$GLGSV,3,1,09,70,37,351,,71,55,280,28,72,22,226,24,73,14,158,*64
$GLGSV,3,2,09,74,15,204,,75,00,248,,83,20,126,17,84,45,065,12*67
$GLGSV,3,3,09,85,25,004,24*54
$GNGLL,0419.75119,S,05539.87575,E,112710.00,A,A*6B
$GNGRS,112710.00,1,-4.9,-3.6,2.1,15.2,-8.0,5.2,-0.8,19.8,-2.8,,,*57
$GNGRS,112710.00,1,-5.9,3.4,5.0,-9.1,,,,,,,,*52
$GNGST,112710.00,3303823,,,,4.6,3.6,12*5D
$GNZDA,112710.00,27,05,2025,00,00*79
$GNGBS,112710.00,4.6,3.6,11.7,,,,*6B
b0@ 
_ B
8 @(_ I^{4Tb:R 
YePF%_G7HIJKS~T
-AUzb )$GNRMC,112711.00,A,0419.75093,S,05539.87576,E,0.434,,270525,,,A*77
$GNVTG,,T,,M,0.434,N,0.804,K,A*32
$GNGNS,112711.00,0419.75093,S,05539.87576,E,AA,13,0.69,3.7,-47.6,,*54
$GNGGA,112711.00,0419.75093,S,05539.87576,E,1,12,0.69,3.7,M,-47.6,M,,*7F
$GNGSA,A,3,32,28,18,26,29,27,16,10,31,,,,1.69,0.69,1.55*10
$GNGSA,A,3,71,83,84,85,,,,,,,,,1.69,0.69,1.55*10
$GPGSV,4,1,16,10,21,351,13,16,25,257,26,18,31,066,32,23,05,029,16*7A
$GPGSV,4,2,16,25,04,134,18,26,30,225,18,27,32,320,30,28,40,166,22*76
$GPGSV,4,3,16,29,25,145,15,31,25,196,23,32,73,350,13,36,52,277,*7A
$GPGSV,4,4,16,40,84,354,31,41,58,082,31,49,32,274,,50,10,089,*7E
$GLGSV,3,1,09,70,37,351,,71,55,280,28,72,22,226,24,73,14,158,*64
$GLGSV,3,2,09,74,15,204,,75,00,248,,83,20,126,17,84,45,065,10*65
$GLGSV,3,3,09,85,25,004,24*54
$GNGLL,0419.75093,S,05539.87576,E,112711.00,A,A*6A
$GNGRS,112711.00,1,-7.9,-4.2,-0.8,15.9,-8.6,4.6,-3.8,19.6,-4.9,,,*72
$GNGRS,112711.00,1,-7.6,2.3,5.1,-7.6,,,,,,,,*50
$GNGST,112711.00,4665906,,,,4.6,3.6,12*58
$GNZDA,112711.00,27,05,2025,00,00*78
$GNGBS,112711.00,4.6,3.6,11.9,,,,*64
b0@$
_D B6
9 @(e I^){4Tb:R 
YeF%_G7KHIJKS~(T-A>Up'b$B$GNRMC,112712.00,A,0419.75061,S,05539.87574,E,0.658,,270525,,,A*73
$GNVTG,,T,,M,0.658,N,1.218,K,A*3C
$GNGNS,112712.00,0419.75061,S,05539.87574,E,AA,13,0.77,3.8,-47.6,,*58
$GNGGA,112712.00,0419.75061,S,05539.87574,E,1,12,0.77,3.8,M,-47.6,M,,*73
$GNGSA,A,3,32,28,18,26,29,27,16,10,31,,,,1.92,0.77,1.76*1A
$GNGSA,A,3,71,83,84,85,,,,,,,,,1.92,0.77,1.76*1A
$GPGSV,4,1,16,10,21,351,12,16,25,257,26,18,31,066,32,23,05,029,14*79
$GPGSV,4,2,16,25,04,134,17,26,30,225,18,27,32,320,30,28,40,166,21*7A
$GPGSV,4,3,16,29,25,145,12,31,25,196,24,32,73,350,19,36,52,277,*70
$GPGSV,4,4,16,40,84,354,31,41,58,082,31,49,32,274,,50,10,089,*7E
$GLGSV,3,1,09,70,37,351,,71,55,280,29,72,22,226,22,73,14,158,*63
$GLGSV,3,2,09,74,15,204,,75,00,248,,83,20,126,16,84,45,065,11*65
$GLGSV,3,3,09,85,25,004,24*54
$GNGLL,0419.75061,S,05539.87574,E,112712.00,A,A*66
$GNGRS,112712.00,1,-9.8,-2.7,-2.0,-7.1,-11.8,4.8,-3.8,-22.4,-5.9,,,*7F
$GNGRS,112712.00,1,-1.8,-2.2,-22.4,-6.6,,,,,,,,*6B
$GNGST,112712.00,48,,,,4.6,3.5,12*6A
$GNZDA,112712.00,27,05,2025,00,00*7B
$GNGBS,112712.00,4.6,3.5,12.1,,,,*6F
b0@(
_B^
 @(: I^{4Tb:R 
YeF%_G7HIJKS~GT-AU2b($GNRMC,112713.00,A,0419.75057,S,05539.87568,E,0.143,,270525,,,A*77
$GNVTG,,T,,M,0.143,N,0.264,K,A*3B
$GNGNS,112713.00,0419.75057,S,05539.87568,E,AA,13,0.66,3.5,-47.6,,*5C
$GNGGA,112713.00,0419.75057,S,05539.87568,E,1,12,0.66,3.5,M,-47.6,M,,*77
$GNGSA,A,3,32,28,18,26,29,27,16,10,31,,,,1.57,0.66,1.43*15
$GNGSA,A,3,71,83,84,85,,,,,,,,,1.57,0.66,1.43*15
$GPGSV,4,1,16,10,21,351,17,16,25,257,27,18,31,066,30,23,05,029,13*78
$GPGSV,4,2,16,25,04,134,15,26,30,225,27,27,32,320,31,28,40,166,19*7E
$GPGSV,4,3,16,29,25,145,18,31,25,196,24,32,73,350,22,36,52,277,*72
$GPGSV,4,4,16,40,84,354,31,41,58,082,30,49,32,274,,50,10,089,*7F
$GLGSV,3,1,09,70,37,351,,71,55,280,30,72,22,226,21,73,14,158,*68
$GLGSV,3,2,09,74,15,204,,75,00,248,,83,20,126,17,84,45,065,09*6D
$GLGSV,3,3,09,85,25,004,23*53
$GNGLL,0419.75057,S,05539.87568,E,112713.00,A,A*6F
$GNGRS,112713.00,1,-10.6,-2.5,2.0,12.0,-12.2,7.0,-5.6,20.0,-3.7,,,*56
$GNGRS,112713.00,1,-2.7,-1.8,4.9,-7.9,,,,,,,,*75
$GNGST,112713.00,4496890,,,,4.6,3.5,12*59
$GNZDA,112713.00,27,05,2025,00,00*7A
$GNGBS,112713.00,4.6,3.5,12.1,,,,*6E
b0@,
_B'
 @( I^C{4Tb:R 
YeF$_G7HIJKS~T-AUb,$GNRMC,112714.00,A,0419.75057,S,05539.87569,E,0.131,,270525,,,A*74
$GNVTG,,T,,M,0.131,N,0.243,K,A*3B
$GNGNS,112714.00,0419.75057,S,05539.87569,E,AA,13,0.71,3.3,-47.6,,*5A
$GNGGA,112714.00,0419.75057,S,05539.87569,E,1,12,0.71,3.3,M,-47.6,M,,*71
$GNGSA,A,3,32,28,18,26,29,27,16,10,31,,,,1.69,0.71,1.54*18
$GNGSA,A,3,71,83,84,85,,,,,,,,,1.69,0.71,1.54*18
$GPGSV,4,1,16,10,21,351,17,16,25,257,28,18,31,066,30,23,05,029,13*77
$GPGSV,4,2,16,25,04,134,16,26,30,225,27,27,32,320,31,28,40,166,17*73
$GPGSV,4,3,16,29,25,145,15,31,25,196,25,32,73,350,23,36,52,277,*7F
$GPGSV,4,4,16,40,84,354,31,41,58,082,31,49,32,274,,50,10,089,*7E
$GLGSV,3,1,09,70,36,351,,71,55,280,28,72,22,226,21,73,14,158,*60
$GLGSV,3,2,09,74,15,204,,75,00,248,,83,20,126,17,84,45,065,14*61
$GLGSV,3,3,09,85,25,004,24*54
$GNGLL,0419.75057,S,05539.87569,E,112714.00,A,A*69
$GNGRS,112714.00,1,-12.1,-0.6,1.4,7.5,-13.1,7.5,-8.2,20.0,-4.9,,,*64
$GNGRS,112714.00,1,-10.3,-3.5,4.6,-7.4,,,,,,,,*48
$GNGST,112714.00,3300339,,,,4.6,3.5,12*59
$GNZDA,112714.00,27,05,2025,00,00*7D
$GNGBS,112714.00,4.6,3.5,12.1,,,,*69
b0@0
_dBF
 @E(: I^{4Tb :R 
Ye!F$_G7MHIJKS~T
-A*Ub0|z$GNRMC,112715.00,A,0419.75049,S,05539.87565,E,0.109,,270525,,,A*7D
$GNVTG,,T,,M,0.109,N,0.201,K,A*36
$GNGNS,112715.00,0419.75049,S,05539.87565,E,AA,13,0.77,3.2,-47.6,,*5F
$GNGGA,112715.00,0419.75049,S,05539.87565,E,1,12,0.77,3.2,M,-47.6,M,,*74
$GNGSA,A,3,32,28,18,26,29,27,16,10,31,,,,1.80,0.77,1.63*1D
$GNGSA,A,3,71,83,84,85,,,,,,,,,1.80,0.77,1.63*1D
$GPGSV,4,1,16,10,21,351,17,16,25,257,28,18,31,066,29,23,05,029,12*7E
$GPGSV,4,2,16,25,04,134,15,26,30,225,25,27,32,320,31,28,40,166,14*71
$GPGSV,4,3,16,29,25,145,13,31,25,196,24,32,73,350,22,36,52,277,*79
$GPGSV,4,4,16,40,84,354,31,41,58,082,32,49,32,274,,50,10,089,*7D
$GLGSV,3,1,09,70,36,351,,71,55,281,28,72,22,226,22,73,14,158,*62
$GLGSV,3,2,09,74,15,204,,75,00,248,,83,20,126,18,84,45,065,10*6A
$GLGSV,3,3,09,85,25,004,25*55
$GNGLL,0419.75049,S,05539.87565,E,112715.00,A,A*6B
$GNGRS,112715.00,1,-15.9,3.1,-1.9,5.3,-30.5,8.4,-6.7,-38.4,-6.4,,,*48
$GNGRS,112715.00,1,-6.9,-5.4,110,-7.5,,,,,,,,*6E
$GNGST,112715.00,44,,,,4.5,3.5,12*62
$GNZDA,112715.00,27,05,2025,00,00*7C
$GNGBS,112715.00,4.5,3.5,12.1,,,,*6B
b0@p4
_B
| @ (7
Z I^{4!Tb :R 
YeF$_G7SHIJKS~@T-AUM:bp4da$GNRMC,112716.00,A,0419.75034,S,05539.87561,E,0.184,,270525,,,A*75
$GNVTG,,T,,M,0.184,N,0.340,K,A*37
$GNGNS,112716.00,0419.75034,S,05539.87561,E,AA,13,0.66,2.8,-47.6,,*59
$GNGGA,112716.00,0419.75034,S,05539.87561,E,1,12,0.66,2.8,M,-47.6,M,,*72
$GNGSA,A,3,32,28,18,26,29,27,16,10,31,,,,1.57,0.66,1.43*15
$GNGSA,A,3,71,83,84,85,,,,,,,,,1.57,0.66,1.43*15
$GPGSV,4,1,16,10,21,351,17,16,25,257,28,18,31,066,29,23,05,029,11*7D
$GPGSV,4,2,16,25,04,134,16,26,30,225,24,27,32,320,31,28,40,166,16*71
$GPGSV,4,3,16,29,25,145,10,31,25,196,25,32,73,350,23,36,52,277,*7A
$GPGSV,4,4,16,40,84,354,33,41,58,082,32,49,32,274,,50,10,089,*7F
$GLGSV,3,1,09,70,36,351,,71,55,281,30,72,22,226,22,73,14,158,*6B
$GLGSV,3,2,09,74,15,204,,75,00,248,,83,20,126,16,84,45,065,09*6C
$GLGSV,3,3,09,85,25,004,25*55
$GNGLL,0419.75034,S,05539.87561,E,112716.00,A,A*66
$GNGRS,112716.00,1,-15.4,3.1,-2.8,3.8,16.3,10.6,-6.1,19.8,-6.3,,,*7E
$GNGRS,112716.00,1,-12.0,-4.5,5.1,-7.7,,,,,,,,*49
$GNGST,112716.00,4499757,,,,4.5,3.5,12*54
$GNZDA,112716.00,27,05,2025,00,00*7F
$GNGBS,112716.00,4.5,3.5,12.0,,,,*69
b0@X8
_)BA@
 @(F I^{4!Tb :R 
YeF$_G7HIJKS~T
-AU9nbX8L9J$GNRMC,112717.00,A,0419.75023,S,05539.87555,E,0.029,,270525,,,A*73
$GNVTG,,T,,M,0.029,N,0.053,K,A*30
$GNGNS,112717.00,0419.75023,S,05539.87555,E,AA,13,0.66,2.2,-47.6,,*53
$GNGGA,112717.00,0419.75023,S,05539.87555,E,1,12,0.66,2.2,M,-47.6,M,,*78
$GNGSA,A,3,32,28,18,26,29,27,16,10,31,,,,1.57,0.66,1.43*15
$GNGSA,A,3,71,83,84,85,,,,,,,,,1.57,0.66,1.43*15
$GPGSV,4,1,16,10,21,351,17,16,25,257,27,18,31,066,30,23,05,029,09*73
$GPGSV,4,2,16,25,04,134,16,26,30,225,26,27,32,320,31,28,40,166,20*76
$GPGSV,4,3,16,29,25,145,14,31,25,196,26,32,73,350,25,36,52,277,*7B
$GPGSV,4,4,16,40,84,354,33,41,58,082,32,49,32,274,,50,10,089,*7F
$GLGSV,3,1,09,70,36,351,,71,55,281,30,72,22,226,22,73,14,157,*64
$GLGSV,3,2,09,74,15,204,,75,00,248,,83,20,126,15,84,45,065,10*67
$GLGSV,3,3,09,85,25,004,25*55
$GNGLL,0419.75023,S,05539.87555,E,112717.00,A,A*66
$GNGRS,112717.00,1,-10.0,4.6,-4.5,2.0,16.7,9.4,-4.7,19.4,-9.5,,,*43
$GNGRS,112717.00,1,-10.0,-5.1,5.3,-7.1,,,,,,,,*4B
$GNGST,112717.00,5506669,,,,4.5,3.5,12*5F
$GNZDA,112717.00,27,05,2025,00,00*7E
$GNGBS,112717.00,4.5,3.5,12.0,,,,*68
b0@@<
_dB
I @(j I^X{4!Ta:R 
YeF$_G7HIJKS~T-Ag,Ueb@<4$GNRMC,112718.00,A,0419.75019,S,05539.87550,E,0.098,,270525,,,A*7A
$GNVTG,,T,,M,0.098,N,0.182,K,A*37
$GNGNS,112718.00,0419.75019,S,05539.87550,E,AA,13,0.77,1.8,-47.6,,*59
$GNGGA,112718.00,0419.75019,S,05539.87550,E,1,12,0.77,1.8,M,-47.6,M,,*72
$GNGSA,A,3,32,28,18,26,29,27,16,10,31,,,,1.80,0.77,1.63*1D
$GNGSA,A,3,71,83,84,85,,,,,,,,,1.80,0.77,1.63*1D
$GPGSV,4,1,16,10,21,351,17,16,25,257,26,18,31,066,31,23,05,029,08*72
$GPGSV,4,2,16,25,04,134,15,26,30,225,29,27,32,320,30,28,40,166,22*79
$GPGSV,4,3,16,29,25,145,20,31,25,196,25,32,73,350,26,36,52,277,*7C
$GPGSV,4,4,16,40,84,353,33,41,58,082,31,49,32,274,,50,10,089,*7B
$GLGSV,3,1,09,70,36,351,,71,55,281,29,72,22,226,20,73,14,157,*6E
$GLGSV,3,2,09,74,15,203,,75,00,248,,83,20,126,15,84,45,065,09*68
$GLGSV,3,3,09,85,25,004,25*55
$GNGLL,0419.75019,S,05539.87550,E,112718.00,A,A*65
$GNGRS,112718.00,1,-9.4,6.2,-3.3,3.3,-20.5,6.7,-2.6,-42.5,-8.2,,,*70
$GNGRS,112718.00,1,-8.3,-5.9,114,-8.1,,,,,,,,*65
$GNGST,112718.00,42,,,,4.4,3.4,12*69
$GNZDA,112718.00,27,05,2025,00,00*71
$GNGBS,112718.00,4.4,3.4,11.9,,,,*6D
b0@(@
_7BC
 @_( I^t{4!Ta :R 
YeUF$_G7HIJKS~fT-AUUnb(@$GNRMC,112719.00,A,0419.75023,S,05539.87550,E,0.089,,270525,,,A*72
$GNVTG,,T,,M,0.089,N,0.164,K,A*3F
$GNGNS,112719.00,0419.75023,S,05539.87550,E,AA,13,0.66,1.6,-47.6,,*5F
$GNGGA,112719.00,0419.75023,S,05539.87550,E,1,12,0.66,1.6,M,-47.6,M,,*74
$GNGSA,A,3,32,28,18,26,29,27,16,10,31,,,,1.57,0.66,1.43*15
$GNGSA,A,3,71,83,84,85,,,,,,,,,1.57,0.66,1.43*15
$GPGSV,4,1,16,10,21,351,22,16,25,257,26,18,31,066,30,23,05,029,*7D
$GPGSV,4,2,16,25,04,134,13,26,30,225,29,27,32,320,30,28,40,166,22*7F
$GPGSV,4,3,16,29,25,145,18,31,25,196,25,32,73,350,25,36,52,277,*74
$GPGSV,4,4,16,40,84,353,33,41,58,082,32,49,32,274,,50,10,089,*78
$GLGSV,3,1,09,70,36,351,,71,55,281,28,72,22,226,17,73,14,157,*6B
