b0@
] @B' L\]{4Tb:R 
Y
diF'^G8{HIJKS|
T,>QU=btp$GNRMC,112233.00,A,0419.75687,S,05539.87327,E,0.057,,270525,,,A*72
$GNVTG,,T,,M,0.057,N,0.106,K,A*38
$GNGNS,112233.00,0419.75687,S,05539.87327,E,AA,09,0.88,17.8,-47.6,,*6E
$GNGGA,112233.00,0419.75687,S,05539.87327,E,1,09,0.88,17.8,M,-47.6,M,,*44
$GNGSA,A,3,32,28,18,29,16,10,,,,,,,1.89,0.88,1.68*1C
$GNGSA,A,3,71,83,84,,,,,,,,,,1.89,0.88,1.68*12
$GPGSV,4,1,16,10,22,349,19,16,25,259,32,18,30,064,26,23,06,027,08*75
$GPGSV,4,2,16,25,05,136,21,26,30,227,28,27,30,322,13,28,39,168,19*77
$GPGSV,4,3,16,29,27,144,24,31,24,197,26,32,76,348,30,36,52,277,*73
$GPGSV,4,4,16,40,84,354,,41,58,082,,49,32,274,,50,10,089,*7E
$GLGSV,3,1,09,70,39,350,,71,56,276,31,72,21,224,22,73,15,160,15*60
$GLGSV,3,2,09,74,15,205,,75,00,250,,83,21,124,17,84,44,062,20*6B
$GLGSV,3,3,09,85,23,003,19*5B
$GNGLL,0419.75687,S,05539.87327,E,112233.00,A,A*6E
$GNGRS,112233.00,1,3.5,-1.2,2.0,2.2,2.8,4.2,,,,,,*76
$GNGRS,112233.00,1,3.8,10.0,8.5,,,,,,,,,*49
$GNGST,112233.00,46,,,,8.3,4.8,13*60
$GNZDA,112233.00,27,05,2025,00,00*7D
$GNGBS,112233.00,8.3,4.8,12.8,,,,*63
b0@
]!@iB'g L\{4Tb:R 
Y
dF'^G8:HIJKS|
T,>U^'bx$GNRMC,112234.00,A,0419.75664,S,05539.87323,E,0.408,,270525,,,A*72
$GNVTG,,T,,M,0.408,N,0.755,K,A*36
$GNGNS,112234.00,0419.75664,S,05539.87323,E,AA,09,0.88,17.8,-47.6,,*60
$GNGGA,112234.00,0419.75664,S,05539.87323,E,1,09,0.88,17.8,M,-47.6,M,,*4A
$GNGSA,A,3,32,28,18,29,16,10,,,,,,,1.89,0.88,1.68*1C
$GNGSA,A,3,71,83,84,,,,,,,,,,1.89,0.88,1.68*12
$GPGSV,4,1,16,10,22,349,18,16,25,259,33,18,30,064,27,23,06,027,08*74
$GPGSV,4,2,16,25,05,136,22,26,30,227,26,27,30,322,17,28,39,168,21*75
$GPGSV,4,3,16,29,27,144,24,31,24,197,26,32,76,348,25,36,52,277,*77
$GPGSV,4,4,16,40,84,354,,41,58,082,,49,32,274,,50,10,089,*7E
$GLGSV,3,1,09,70,39,350,,71,56,276,29,72,21,224,22,73,15,160,17*6B
$GLGSV,3,2,09,74,15,205,,75,00,250,,83,21,124,18,84,44,062,21*65
$GLGSV,3,3,09,85,23,003,20*51
$GNGLL,0419.75664,S,05539.87323,E,112234.00,A,A*60
$GNGRS,112234.00,1,12.7,-3.3,-1.5,3.6,2.5,5.0,,,,,,*60
$GNGRS,112234.00,1,8.3,9.4,7.5,,,,,,,,,*7D
$GNGST,112234.00,47,,,,8.2,4.7,13*68
$GNZDA,112234.00,27,05,2025,00,00*7A
$GNGBS,112234.00,8.2,4.7,12.7,,,,*65
b0@
]!@=B' L\H{4Tb:R 
YdF'^G8HIJKS|B
T,>DUb|t@$GNRMC,112235.00,A,0419.75675,S,05539.87329,E,0.062,,270525,,,A*71
$GNVTG,,T,,M,0.062,N,0.114,K,A*3D
$GNGNS,112235.00,0419.75675,S,05539.87329,E,AA,09,0.86,17.9,-47.6,,*64
$GNGGA,112235.00,0419.75675,S,05539.87329,E,1,09,0.86,17.9,M,-47.6,M,,*4E
$GNGSA,A,3,32,28,18,29,16,10,,,,,,,1.74,0.86,1.52*19
$GNGSA,A,3,71,83,84,,,,,,,,,,1.74,0.86,1.52*17
$GPGSV,4,1,16,10,22,349,18,16,25,259,33,18,30,064,29,23,06,027,08*7A
$GPGSV,4,2,16,25,05,136,22,26,30,227,24,27,30,322,17,28,39,168,22*74
$GPGSV,4,3,16,29,27,144,22,31,24,197,25,32,76,348,25,36,52,277,*72
$GPGSV,4,4,16,40,84,354,,41,58,082,,49,32,274,,50,10,089,*7E
$GLGSV,3,1,09,70,39,350,,71,56,276,29,72,21,224,23,73,15,160,18*65
$GLGSV,3,2,09,74,15,205,,75,00,250,,83,21,124,22,84,44,062,19*67
$GLGSV,3,3,09,85,23,003,19*5B
$GNGLL,0419.75675,S,05539.87329,E,112235.00,A,A*6B
$GNGRS,112235.00,1,11.0,-0.5,-2.8,6.5,1.8,4.0,,,,,,*67
$GNGRS,112235.00,1,7.3,8.3,5.8,,,,,,,,,*7A
$GNGST,112235.00,49,,,,8.2,4.7,13*67
$GNZDA,112235.00,27,05,2025,00,00*7B
$GNGBS,112235.00,8.2,4.7,12.6,,,,*65
b0@
], @,B' L\`{4Tb:R 
YdF'^G8HIJKS|
T,>{U^b$GNRMC,112247.00,A,0419.75667,S,05539.87378,E,0.181,,270525,,,A*7F
$GNVTG,,T,,M,0.181,N,0.336,K,A*33
$GNGNS,112247.00,0419.75667,S,05539.87378,E,AA,09,0.88,16.4,-47.6,,*64
$GNGGA,112247.00,0419.75667,S,05539.87378,E,1,09,0.88,16.4,M,-47.6,M,,*4E
$GNGSA,A,3,32,28,18,29,16,10,,,,,,,1.89,0.88,1.68*1C
$GNGSA,A,3,71,83,84,,,,,,,,,,1.89,0.88,1.68*12
$GPGSV,4,1,16,10,21,349,26,16,25,259,32,18,30,064,26,23,06,027,*72
$GPGSV,4,2,16,25,05,136,24,26,30,227,20,27,30,322,21,28,39,168,24*75
$GPGSV,4,3,16,29,27,144,23,31,24,197,20,32,76,348,27,36,52,277,31*76
$GPGSV,4,4,16,40,84,354,,41,58,082,,49,32,274,,50,10,089,*7E
$GLGSV,3,1,09,70,39,350,,71,56,276,28,72,21,224,23,73,15,160,19*65
$GLGSV,3,2,09,74,15,205,,75,00,250,,83,21,124,23,84,44,062,19*66
$GLGSV,3,3,09,85,23,003,17*55
$GNGLL,0419.75667,S,05539.87378,E,112247.00,A,A*69
$GNGRS,112247.00,1,-4.2,2.4,8.1,-2.3,1.3,0.4,,,,,,*5D
$GNGRS,112247.00,1,-7.8,-7.8,3.8,,,,,,,,,*76
$GNGST,112247.00,37,,,,6.9,4.0,11*6B
$GNZDA,112247.00,27,05,2025,00,00*7E
$GNGBS,112247.00,6.9,4.0,11.2,,,,*65
b0@`%
] @PB' L\{ 4Tb:R 
Yd6
F'^G8HIJKS|
T,>U&b`%TT$GNRMC,112250.00,A,0419.75649,S,05539.87377,E,0.109,,270525,,,A*7A
$GNVTG,,T,,M,0.109,N,0.202,K,A*35
$GNGNS,112250.00,0419.75649,S,05539.87377,E,AA,09,0.88,15.9,-47.6,,*6F
$GNGGA,112250.00,0419.75649,S,05539.87377,E,1,09,0.88,15.9,M,-47.6,M,,*45
$GNGSA,A,3,32,28,18,29,16,10,,,,,,,1.89,0.88,1.68*1C
$GNGSA,A,3,71,83,84,,,,,,,,,,1.89,0.88,1.68*12
$GPGSV,4,1,16,10,21,349,24,16,25,258,32,18,30,064,24,23,06,027,*73
$GPGSV,4,2,16,25,05,136,25,26,30,227,20,27,30,322,16,28,39,168,27*73
$GPGSV,4,3,16,29,27,144,27,31,24,197,20,32,76,348,26,36,52,277,32*70
$GPGSV,4,4,16,40,84,354,,41,58,082,,49,32,274,,50,10,089,*7E
$GLGSV,3,1,09,70,39,350,,71,56,276,30,72,21,224,20,73,15,160,15*63
$GLGSV,3,2,09,74,15,205,,75,00,250,,83,21,124,17,84,44,062,19*61
$GLGSV,3,3,09,85,23,003,18*5A
$GNGLL,0419.75649,S,05539.87377,E,112250.00,A,A*6C
$GNGRS,112250.00,1,4.4,6.8,10.3,-2.7,1.6,4.3,,,,,,*41
$GNGRS,112250.00,1,-15.1,-10.8,5.4,,,,,,,,,*76
$GNGST,112250.00,39,,,,6.4,3.9,11*60
$GNZDA,112250.00,27,05,2025,00,00*78
$GNGBS,112250.00,6.4,3.9,10.9,,,,*6A
b0@1
]u @lB'2o L\{4Tb:R 
YdF'^G8HIJKS|s
T,>U3b1$GNRMC,112253.00,A,0419.75629,S,05539.87382,E,0.028,,270525,,,A*77
$GNVTG,,T,,M,0.028,N,0.052,K,A*30
$GNGNS,112253.00,0419.75629,S,05539.87382,E,AA,09,0.88,15.8,-47.6,,*61
$GNGGA,112253.00,0419.75629,S,05539.87382,E,1,09,0.88,15.8,M,-47.6,M,,*4B
$GNGSA,A,3,32,28,18,29,16,10,,,,,,,1.89,0.88,1.68*1C
$GNGSA,A,3,71,83,84,,,,,,,,,,1.89,0.88,1.68*12
$GPGSV,4,1,16,10,21,349,24,16,25,258,32,18,30,064,23,23,06,027,15*70
$GPGSV,4,2,16,25,05,136,23,26,30,227,17,27,30,322,18,28,39,168,29*71
$GPGSV,4,3,16,29,27,144,24,31,24,197,18,32,76,348,27,36,52,277,31*7A
$GPGSV,4,4,16,40,84,354,,41,58,082,,49,32,274,,50,10,089,*7E
$GLGSV,3,1,09,70,39,350,,71,56,276,28,72,21,224,21,73,15,160,17*69
$GLGSV,3,2,09,74,15,205,,75,00,250,,83,21,124,18,84,44,062,18*6F
$GLGSV,3,3,09,85,23,003,*53
$GNGLL,0419.75629,S,05539.87382,E,112253.00,A,A*63
$GNGRS,112253.00,1,9.4,0.5,8.8,-1.5,5.3,1.2,,,,,,*72
$GNGRS,112253.00,1,2.3,-11.7,5.0,,,,,,,,,*66
$GNGST,112253.00,40,,,,6.1,4.0,11*66
$GNZDA,112253.00,27,05,2025,00,00*7B
$GNGBS,112253.00,6.1,4.0,10.8,,,,*63
b0@5
]*@aB'o L\R{4Tb:R 
Yd
F'^G8HIJKS|>
T,>>Upb5z$GNRMC,112254.00,A,0419.75623,S,05539.87381,E,0.100,,270525,,,A*72
$GNVTG,,T,,M,0.100,N,0.185,K,A*30
$GNGNS,112254.00,0419.75623,S,05539.87381,E,AA,09,0.88,15.9,-47.6,,*6E
$GNGGA,112254.00,0419.75623,S,05539.87381,E,1,09,0.88,15.9,M,-47.6,M,,*44
$GNGSA,A,3,32,28,18,29,16,10,,,,,,,1.89,0.88,1.67*13
$GNGSA,A,3,71,83,84,,,,,,,,,,1.89,0.88,1.67*1D
$GPGSV,4,1,16,10,21,349,25,16,25,258,31,18,30,064,24,23,06,027,14*74
$GPGSV,4,2,16,25,05,136,23,26,30,227,15,27,30,322,18,28,39,168,28*72
$GPGSV,4,3,16,29,27,144,25,31,24,197,16,32,76,348,27,36,52,277,31*75
$GPGSV,4,4,16,40,84,354,,41,58,082,,49,32,274,,50,10,089,*7E
$GLGSV,3,1,09,70,39,350,,71,56,276,29,72,21,224,20,73,15,160,17*69
$GLGSV,3,2,09,74,15,205,,75,00,250,,83,21,124,20,84,44,062,18*64
$GLGSV,3,3,09,85,23,003,*53
$GNGLL,0419.75623,S,05539.87381,E,112254.00,A,A*6D
$GNGRS,112254.00,1,11.1,3.7,9.7,-3.2,4.9,3.0,,,,,,*48
$GNGRS,112254.00,1,-2.5,-9.6,5.7,,,,,,,,,*75
$GNGST,112254.00,38,,,,6.0,4.0,11*6F
$GNZDA,112254.00,27,05,2025,00,00*7C
$GNGBS,112254.00,6.0,4.0,10.8,,,,*65
$GNGRS,112255.00,1,-3.7,-9.2,3.6,,,,,,,,,*74
$GNGST,112255.00,38,,,,5.9,4.0,11*64
$GNZDA,112255.00,27,05,2025,00,00*7D
$GNGBS,112255.00,5.9,4.0,10.7,,,,*61
b0@D
]e @A'2 L\G{!4Tb:R 
YdF'^G8HIJKS|"
T,>UbD$GNRMC,112258.00,A,0419.75571,S,05539.87377,E,0.064,,270525,,,A*70
$GNVTG,,T,,M,0.064,N,0.118,K,A*37
$GNGNS,112258.00,0419.75571,S,05539.87377,E,AA,09,0.88,16.6,-47.6,,*63
$GNGGA,112258.00,0419.75571,S,05539.87377,E,1,09,0.88,16.6,M,-47.6,M,,*49
$GNGSA,A,3,32,28,18,29,16,10,,,,,,,1.89,0.88,1.67*13
$GNGSA,A,3,71,83,84,,,,,,,,,,1.89,0.88,1.67*1D
$GPGSV,4,1,16,10,21,349,26,16,25,258,32,18,30,064,25,23,06,027,13*72
$GPGSV,4,2,16,25,05,135,21,26,30,227,,27,30,321,15,28,39,168,27*76
$GPGSV,4,3,16,29,27,144,27,31,24,197,20,32,76,348,27,36,52,277,33*70
$GPGSV,4,4,16,40,84,354,,41,58,082,,49,32,274,,50,10,089,*7E
$GLGSV,3,1,09,70,39,350,,71,56,276,27,72,21,224,23,73,15,160,*62
$GLGSV,3,2,09,74,15,205,,75,00,250,,83,21,124,15,84,44,062,19*63
$GLGSV,3,3,09,85,23,003,*53
$GNGLL,0419.75571,S,05539.87377,E,112258.00,A,A*6C
$GNGRS,112258.00,1,13.5,1.5,12.3,-7.2,3.8,3.6,,,,,,*78
$GNGRS,112258.00,1,4.7,-9.9,3.9,,,,,,,,,*57
$GNGST,112258.00,42,,,,5.6,4.0,11*6B
$GNZDA,112258.00,27,05,2025,00,00*70
$GNGBS,112258.00,5.6,4.0,10.6,,,,*62
b0@@T
]C@&A '  L\
{!4Tb:R 
YdF'^G8EHIJKS|
T,>U0b@T49"$GNRMC,112302.00,A,0419.75548,S,05539.87374,E,0.116,,270525,,,A*73
$GNVTG,,T,,M,0.116,N,0.214,K,A*3C
$GNGNS,112302.00,0419.75548,S,05539.87374,E,AA,09,0.88,17.6,-47.6,,*65
$GNGGA,112302.00,0419.75548,S,05539.87374,E,1,09,0.88,17.6,M,-47.6,M,,*4F
$GNGSA,A,3,32,28,18,29,16,10,,,,,,,1.89,0.88,1.67*13
$GNGSA,A,3,71,83,84,,,,,,,,,,1.89,0.88,1.67*1D
$GPGSV,4,1,16,10,21,349,26,16,25,258,31,18,30,064,26,23,06,027,12*73
$GPGSV,4,2,16,25,05,135,22,26,30,227,,27,30,321,15,28,39,168,32*71
$GPGSV,4,3,16,29,27,145,26,31,24,197,11,32,76,348,28,36,52,277,33*7D
$GPGSV,4,4,16,40,84,354,,41,58,082,,49,32,274,,50,10,089,*7E
$GLGSV,3,1,09,70,39,350,,71,56,276,25,72,21,224,21,73,15,160,*62
$GLGSV,3,2,09,74,15,205,,75,00,250,,83,21,124,15,84,44,062,17*6D
$GLGSV,3,3,09,85,23,003,18*5A
$GNGLL,0419.75548,S,05539.87374,E,112302.00,A,A*6B
$GNGRS,112302.00,1,7.8,8.0,10.6,-5.0,5.8,0.3,,,,,,*45
$GNGRS,112302.00,1,10.9,-7.6,4.5,,,,,,,,,*68
$GNGST,112302.00,39,,,,5.3,3.9,10*63
$GNZDA,112302.00,27,05,2025,00,00*7E
$GNGBS,112302.00,5.3,3.9,10.3,,,,*62
b0@_
]^@G
A' K\<{"4Tb:R 
YdF'^G8HIJKS|
T,>U1b_H$GNRMC,112305.00,A,0419.75543,S,05539.87361,E,0.190,,270525,,,A*75
$GNVTG,,T,,M,0.190,N,0.352,K,A*31
$GNGNS,112305.00,0419.75543,S,05539.87361,E,AA,09,0.88,18.5,-47.6,,*61
$GNGGA,112305.00,0419.75543,S,05539.87361,E,1,09,0.88,18.5,M,-47.6,M,,*4B
$GNGSA,A,3,32,28,18,29,16,10,,,,,,,1.89,0.88,1.67*13
$GNGSA,A,3,71,83,84,,,,,,,,,,1.89,0.88,1.67*1D
$GPGSV,4,1,16,10,21,349,26,16,25,258,31,18,30,064,26,23,06,027,10*71
$GPGSV,4,2,16,25,05,135,19,26,30,227,,27,30,321,,28,39,168,28*76
$GPGSV,4,3,16,29,27,145,28,31,24,197,21,32,75,348,30,36,52,277,34*7D
$GPGSV,4,4,16,40,84,354,,41,58,082,,49,32,274,,50,10,089,*7E
$GLGSV,3,1,09,70,39,350,,71,56,276,27,72,21,224,18,73,15,160,*6A
$GLGSV,3,2,09,74,15,205,,75,00,250,,83,21,124,17,84,44,062,17*6F
$GLGSV,3,3,09,85,23,003,21*50
$GNGLL,0419.75543,S,05539.87361,E,112305.00,A,A*63
$GNGRS,112305.00,1,3.2,1.3,3.3,-8.6,6.1,-0.7,,,,,,*59
$GNGRS,112305.00,1,7.8,-5.0,2.4,,,,,,,,,*5B
$GNGST,112305.00,38,,,,5.0,3.8,10*67
$GNZDA,112305.00,27,05,2025,00,00*79
$GNGBS,112305.00,5.0,3.8,10.0,,,,*64
b0@c
]@A' K\{!4Tb:R 
YdVF'^G8JHIJKS|
T,>[Ubc$GNRMC,112306.00,A,0419.75539,S,05539.87354,E,0.074,,270525,,,A*76
$GNVTG,,T,,M,0.074,N,0.137,K,A*3B
$GNGNS,112306.00,0419.75539,S,05539.87354,E,AA,09,0.88,18.7,-47.6,,*6B
$GNGGA,112306.00,0419.75539,S,05539.87354,E,1,09,0.88,18.7,M,-47.6,M,,*41
$GNGSA,A,3,32,28,18,29,16,10,,,,,,,1.89,0.88,1.67*13
$GNGSA,A,3,71,83,84,,,,,,,,,,1.89,0.88,1.67*1D
$GPGSV,4,1,16,10,21,349,27,16,25,258,31,18,30,064,24,23,06,027,11*73
$GPGSV,4,2,16,25,05,135,20,26,30,227,,27,30,321,,28,39,168,28*7C
$GPGSV,4,3,16,29,27,145,28,31,24,197,19,32,75,348,31,36,52,277,33*70
$GPGSV,4,4,16,40,84,354,,41,58,082,,49,32,274,,50,10,089,*7E
$GLGSV,3,1,09,70,39,350,,71,56,276,27,72,21,224,17,73,15,160,*65
$GLGSV,3,2,09,74,15,205,,75,00,250,,83,21,124,18,84,44,062,16*61
$GLGSV,3,3,09,85,23,003,21*50
$GNGLL,0419.75539,S,05539.87354,E,112306.00,A,A*6B
$GNGRS,112306.00,1,-0.6,-0.8,5.1,-8.7,1.6,-2.6,,,,,,*51
$GNGRS,112306.00,1,8.4,-6.2,3.5,,,,,,,,,*5A
$GNGST,112306.00,38,,,,4.9,3.8,10*6C
$GNZDA,112306.00,27,05,2025,00,00*7A
$GNGBS,112306.00,4.9,3.8,9.9,,,,*5E
$GNGGA,112307.00,0419.75542,S,05539.87354,E,1,09,0.88,19.0,M,-47.6,M,,*4A
$GNGSA,A,3,32,28,18,29,16,10,,,,,,,1.89,0.88,1.67*13
$GNGSA,A,3,71,83,84,,,,,,,,,,1.89,0.88,1.67*1D
$GPGSV,4,1,16,10,21,349,28,16,25,258,30,18,30,064,25,23,06,027,09*75
$GPGSV,4,2,16,25,05,135,20,26,30,227,,27,30,321,,28,39,168,28*7C
$GPGSV,4,3,16,29,27,145,27,31,24,197,19,32,75,348,31,36,52,277,32*7E
$GPGSV,4,4,16,40,84,354,,41,58,082,,49,32,274,,50,10,089,*7E
$GLGSV,3,1,09,70,39,350,,71,56,276,26,72,21,224,16,73,15,160,*65
$GLGSV,3,2,09,74,15,205,,75,00,250,,83,21,124,20,84,44,062,16*6A
$GLGSV,3,3,09,85,23,003,20*51
$GNGLL,0419.75542,S,05539.87354,E,112307.00,A,A*66
$GNGRS,112307.00,1,-0.3,5.7,4.4,-7.4,-0.5,-3.9,,,,,,*5B
$GNGRS,112307.00,1,8.5,-4.6,3.5,,,,,,,,,*5C
$GNGST,112307.00,37,,,,4.8,3.8,9.8*4D
$GNZDA,112307.00,27,05,2025,00,00*7B
$GNGBS,112307.00,4.8,3.8,9.8,,,,*5F
JKS|
T,>_UWb8,$GNRMC,112313.00,A,0419.75574,S,05539.87338,E,0.018,,270525,,,A*7B
$GNVTG,,T,,M,0.018,N,0.033,K,A*34
$GNGNS,112313.00,0419.75574,S,05539.87338,E,AA,09,0.86,19.0,-47.6,,*64
$GNGGA,112313.00,0419.75574,S,05539.87338,E,1,09,0.86,19.0,M,-47.6,M,,*4E
$GNGSA,A,3,32,28,18,29,16,10,,,,,,,1.74,0.86,1.52*19
$GNGSA,A,3,71,83,84,,,,,,,,,,1.74,0.86,1.52*17
$GPGSV,4,1,16,10,21,349,27,16,25,258,30,18,30,064,25,23,06,027,12*70
$GPGSV,4,2,16,25,05,135,21,26,30,227,,27,30,321,21,28,39,168,28*7E
$GPGSV,4,3,16,29,27,145,28,31,24,197,22,32,75,348,33,36,52,277,32*7B
$GPGSV,4,4,16,40,84,354,,41,58,082,,49,32,274,,50,10,089,*7E
$GLGSV,3,1,09,70,39,350,,71,56,276,26,72,21,224,12,73,15,160,*61
$GLGSV,3,2,09,74,15,205,,75,00,250,,83,21,124,17,84,44,062,12*6A
$GLGSV,3,3,09,85,23,003,12*50
$GNGLL,0419.75574,S,05539.87338,E,112313.00,A,A*6C
$GNGRS,112313.00,1,-6.0,12.0,3.6,-8.1,4.7,-6.0,,,,,,*42
$GNGRS,112313.00,1,8.2,-5.0,11.2,,,,,,,,,*6D
$GNGST,112313.00,44,,,,4.5,3.7,9.2*44
$GNZDA,112313.00,27,05,2025,00,00*7E
$GNGBS,112313.00,4.5,3.7,9.2,,,,*52
$GNGGA,112314.00,0419.75579,S,05539.87332,E,1,08,0.94,18.9,M,-47.6,M,,*44
$GNGSA,A,3,32,28,18,29,16,10,,,,,,,1.97,0.94,1.73*14
$GNGSA,A,3,71,83,,,,,,,,,,,1.97,0.94,1.73*16
$GPGSV,4,1,16,10,21,349,27,16,25,258,30,18,30,064,27,23,06,027,12*72
$GPGSV,4,2,16,25,05,135,20,26,30,227,,27,30,321,21,28,39,168,29*7E
$GPGSV,4,3,16,29,27,145,29,31,24,197,23,32,75,348,33,36,52,277,31*78
$GPGSV,4,4,16,40,84,354,,41,58,082,,49,32,274,,50,10,089,*7E
$GLGSV,3,1,09,70,39,350,,71,56,276,26,72,21,224,14,73,15,160,*67
$GLGSV,3,2,09,74,15,205,,75,00,250,,83,21,124,16,84,44,062,09*61
$GLGSV,3,3,09,85,23,003,14*56
$GNGLL,0419.75579,S,05539.87332,E,112314.00,A,A*6C
$GNGRS,112314.00,1,-4.8,7.2,2.2,-9.8,2.3,-4.6,,,,,,*72
$GNGRS,112314.00,1,6.4,-4.9,,,,,,,,,,*76
$GNGST,112314.00,34,,,,4.5,3.7,9.2*44
$GNZDA,112314.00,27,05,2025,00,00*79
$GNGBS,112314.00,4.5,3.7,9.2,,,,*55
JKS|A
T,>zUb/W$GNRMC,112315.00,A,0419.75589,S,05539.87325,E,0.074,,270525,,,A*79
$GNVTG,,T,,M,0.074,N,0.137,K,A*3B
$GNGNS,112315.00,0419.75589,S,05539.87325,E,AA,08,0.94,18.2,-47.6,,*6D
$GNGGA,112315.00,0419.75589,S,05539.87325,E,1,08,0.94,18.2,M,-47.6,M,,*47
$GNGSA,A,3,32,28,18,29,16,10,,,,,,,1.97,0.94,1.73*14
$GNGSA,A,3,71,83,,,,,,,,,,,1.97,0.94,1.73*16
$GPGSV,4,1,16,10,21,349,26,16,25,258,30,18,30,064,27,23,06,027,13*72
$GPGSV,4,2,16,25,05,135,20,26,30,227,,27,30,321,23,28,39,168,29*7C
$GPGSV,4,3,16,29,27,145,29,31,24,197,23,32,75,348,35,36,52,277,31*7E
$GPGSV,4,4,16,40,84,354,,41,58,082,,49,32,274,,50,10,089,*7E
$GLGSV,3,1,09,70,38,350,,71,56,276,27,72,21,224,15,73,15,160,*66
$GLGSV,3,2,09,74,15,205,,75,00,250,,83,21,124,14,84,44,062,09*63
$GLGSV,3,3,09,85,23,003,16*54
$GNGLL,0419.75589,S,05539.87325,E,112315.00,A,A*64
$GNGRS,112315.00,1,-7.5,8.4,0.1,-8.9,4.1,-3.4,,,,,,*74
$GNGRS,112315.00,1,3.4,-1.9,,,,,,,,,,*77
$GNGST,112315.00,36,,,,4.4,3.7,9.0*44
$GNZDA,112315.00,27,05,2025,00,00*78
$GNGBS,112315.00,4.4,3.7,9.0,,,,*57
b0@
]@@A'11 #K\4{ 4Tb:R 
YdF&^G8HIJKS|
T,>U'b$GNRMC,112316.00,A,0419.75599,S,05539.87316,E,0.073,,270525,,,A*7C
$GNVTG,,T,,M,0.073,N,0.135,K,A*3E
$GNGNS,112316.00,0419.75599,S,05539.87316,E,AA,08,0.94,18.0,-47.6,,*6D
$GNGGA,112316.00,0419.75599,S,05539.87316,E,1,08,0.94,18.0,M,-47.6,M,,*47
$GNGSA,A,3,32,28,18,29,16,10,,,,,,,1.97,0.94,1.73*14
$GNGSA,A,3,71,83,,,,,,,,,,,1.97,0.94,1.73*16
$GPGSV,4,1,16,10,21,349,26,16,25,258,30,18,30,064,26,23,06,027,*71
$GPGSV,4,2,16,25,05,135,19,26,30,227,,27,30,321,23,28,39,168,29*76
$GPGSV,4,3,16,29,27,145,29,31,24,197,22,32,75,348,35,36,52,277,32*7C
$GPGSV,4,4,16,40,84,354,,41,58,082,,49,32,274,,50,10,089,*7E
$GLGSV,3,1,09,70,38,350,,71,56,276,28,72,21,224,14,73,15,160,*68
$GLGSV,3,2,09,74,15,205,,75,00,250,,83,21,124,16,84,44,062,08*60
$GLGSV,3,3,09,85,23,003,15*57
$GNGLL,0419.75599,S,05539.87316,E,112316.00,A,A*66
$GNGRS,112316.00,1,-4.6,8.2,-2.9,-7.2,4.9,-3.5,,,,,,*5B
$GNGRS,112316.00,1,4.2,-3.2,,,,,,,,,,*7C
$GNGST,112316.00,34,,,,4.4,3.7,8.8*4C
$GNZDA,112316.00,27,05,2025,00,00*7B
$GNGBS,112316.00,4.4,3.7,8.8,,,,*5D
b0@
]F@A'! "K\{!4Tb:R 
YdyF&^G8NHIJKS|,
T
,>Ukb0@
]~@A'] "K\{ 4Tb:R 
Yd*F&^G8(HIJKS|
T,>WU"b,fP$GNRMC,112320.00,A,0419.75650,S,05539.87275,E,0.060,,270525,,,A*79
$GNVTG,,T,,M,0.060,N,0.110,K,A*3B
$GNGNS,112320.00,0419.75650,S,05539.87275,E,AA,08,0.91,17.1,-47.6,,*61
$GNGGA,112320.00,0419.75650,S,05539.87275,E,1,08,0.91,17.1,M,-47.6,M,,*4B
$GNGSA,A,3,32,28,18,29,16,10,,,,,,,1.85,0.91,1.61*11
$GNGSA,A,3,71,83,,,,,,,,,,,1.85,0.91,1.61*13
$GPGSV,4,1,16,10,21,349,26,16,25,258,29,18,30,064,28,23,06,027,*77
$GPGSV,4,2,16,25,05,135,18,26,30,227,,27,30,321,20,28,39,168,30*7C
$GPGSV,4,3,16,29,27,145,28,31,24,197,23,32,75,348,34,36,52,277,32*7D
$GPGSV,4,4,16,40,84,354,,41,58,082,,49,32,274,,50,10,089,*7E
$GLGSV,3,1,09,70,38,350,,71,56,277,31,72,21,224,,73,15,160,*64
$GLGSV,3,2,09,74,15,205,,75,00,250,,83,21,124,20,84,44,062,07*6A
$GLGSV,3,3,09,85,23,003,*53
$GNGLL,0419.75650,S,05539.87275,E,112320.00,A,A*61
$GNGRS,112320.00,1,-6.1,9.4,-11.1,0.9,4.9,-3.9,,,,,,*4B
$GNGRS,112320.00,1,0.4,-3.7,,,,,,,,,,*7E
$GNGST,112320.00,37,,,,4.2,3.6,8.5*40
$GNZDA,112320.00,27,05,2025,00,00*7E
$GNGBS,112320.00,4.2,3.6,8.5,,,,*52
b0@x
]*@TA'E "K\{!4Tb:R 
YdLF&^G8HIJKS|
T,>:U`bxl0>$GNRMC,112321.00,A,0419.75664,S,05539.87265,E,0.067,,270525,,,A*79
$GNVTG,,T,,M,0.067,N,0.124,K,A*3B
$GNGNS,112321.00,0419.75664,S,05539.87265,E,AA,08,0.91,17.0,-47.6,,*67
$GNGGA,112321.00,0419.75664,S,05539.87265,E,1,08,0.91,17.0,M,-47.6,M,,*4D
$GNGSA,A,3,32,28,18,29,16,10,,,,,,,1.85,0.91,1.61*11
$GNGSA,A,3,71,83,,,,,,,,,,,1.85,0.91,1.61*13
$GPGSV,4,1,16,10,21,349,26,16,25,258,28,18,30,064,26,23,06,027,*78
$GPGSV,4,2,16,25,05,135,20,26,30,227,,27,30,321,21,28,39,168,30*76
$GPGSV,4,3,16,29,27,145,27,31,24,197,23,32,75,348,34,36,52,277,33*73
$GPGSV,4,4,16,40,84,354,,41,58,082,,49,32,274,,50,10,089,*7E
$GLGSV,3,1,09,70,38,350,,71,56,277,31,72,21,224,,73,15,160,*64
$GLGSV,3,2,09,74,15,205,,75,00,250,,83,21,124,22,84,44,062,12*6C
$GLGSV,3,3,09,85,23,003,*53
$GNGLL,0419.75664,S,05539.87265,E,112321.00,A,A*66
$GNGRS,112321.00,1,-5.9,6.9,-12.0,3.2,4.9,-4.7,,,,,,*40
$GNGRS,112321.00,1,2.1,-3.3,,,,,,,,,,*7C
$GNGST,112321.00,38,,,,4.1,3.6,8.4*4C
$GNZDA,112321.00,27,05,2025,00,00*7F
$GNGBS,112321.00,4.1,3.6,8.4,84,,-149.6,169.8*7C
b0@`
]]a@PA' !K\{"4Tb:R 
Ye^F&^G8HIJKS|
T,>UMb`T4 $GNRMC,112322.00,A,0419.75674,S,05539.87260,E,0.013,,270525,,,A*7D
$GNVTG,,T,,M,0.013,N,0.023,K,A*3E
$GNGNS,112322.00,0419.75674,S,05539.87260,E,AA,09,0.86,16.8,-47.6,,*6E
$GNGGA,112322.00,0419.75674,S,05539.87260,E,1,09,0.86,16.8,M,-47.6,M,,*44
$GNGSA,A,3,32,28,18,29,16,10,,,,,,,1.74,0.86,1.52*19
$GNGSA,A,3,71,83,84,,,,,,,,,,1.74,0.86,1.52*17
$GPGSV,4,1,16,10,21,349,24,16,25,258,28,18,30,064,25,23,06,027,*79
$GPGSV,4,2,16,25,05,135,20,26,30,227,,27,30,321,21,28,39,168,30*76
$GPGSV,4,3,16,29,27,145,27,31,24,197,22,32,75,348,33,36,52,277,34*72
$GPGSV,4,4,16,40,84,354,,41,58,082,,49,32,274,,50,10,089,*7E
$GLGSV,3,1,09,70,38,350,,71,56,277,31,72,21,224,,73,15,160,*64
$GLGSV,3,2,09,74,15,205,,75,00,250,,83,21,124,22,84,44,062,12*6C
$GLGSV,3,3,09,85,23,003,*53
$GNGLL,0419.75674,S,05539.87260,E,112322.00,A,A*61
$GNGRS,112322.00,1,-5.3,4.7,-12.0,1.6,6.1,-4.2,,,,,,*4C
$GNGRS,112322.00,1,-5.4,-4.8,5.3,,,,,,,,,*74
$GNGST,112322.00,3792,,,,4.1,3.6,8.4*4B
$GNZDA,112322.00,27,05,2025,00,00*7C
$GNGBS,112322.00,4.1,3.6,8.4,,,,*52
$GNGSA,A,3,32,28,18,29,16,10,,,,,,,1.85,0.91,1.61*11
$GNGSA,A,3,71,83,84,,,,,,,,,,1.85,0.91,1.61*1F
$GPGSV,4,1,16,10,21,349,24,16,25,258,27,18,30,064,26,23,06,027,*75
$GPGSV,4,2,16,25,05,135,19,26,30,227,,27,30,321,22,28,39,168,31*7E
$GPGSV,4,3,16,29,27,145,27,31,24,197,20,32,75,348,34,36,52,277,32*71
$GPGSV,4,4,16,40,84,354,,41,58,082,,49,32,274,,50,10,089,*7E
$GLGSV,3,1,09,70,38,350,,71,56,277,32,72,21,224,,73,15,160,*67
$GLGSV,3,2,09,74,15,205,,75,00,250,,83,21,124,21,84,44,062,09*65
$GLGSV,3,3,09,85,23,003,21*50
$GNGLL,0419.75695,S,05539.87251,E,112324.00,A,A*6A
$GNGRS,112324.00,1,-3.9,5.9,-9.4,-2.7,4.4,-3.0,,,,,,*5A
$GNGRS,112324.00,1,-11.1,-5.2,-38.0,,,,,,,,,*59
$GNGST,112324.00,44,,,,4.1,3.6,8.3*45
$GNZDA,112324.00,27,05,2025,00,00*7A
$GNGBS,112324.00,4.1,3.6,8.3,,,,*53
b0@
]'H@A' !K\{ 4Tb:R 
YeF&^G8qHIJKS|
T,>Ub@X$GNRMC,112325.00,A,0419.75705,S,05539.87250,E,0.078,,270525,,,A*73
$GNVTG,,T,,M,0.078,N,0.145,K,A*32
$GNGNS,112325.00,0419.75705,S,05539.87250,E,AA,09,0.88,16.3,-47.6,,*68
$GNGGA,112325.00,0419.75705,S,05539.87250,E,1,09,0.88,16.3,M,-47.6,M,,*42
$GNGSA,A,3,32,28,18,29,16,10,,,,,,,1.89,0.88,1.67*13
$GNGSA,A,3,71,83,84,,,,,,,,,,1.89,0.88,1.67*1D
$GPGSV,4,1,16,10,21,349,25,16,25,258,28,18,30,064,26,23,06,027,*7B
$GPGSV,4,2,16,25,05,135,19,26,30,227,,27,30,321,23,28,39,168,31*7F
$GPGSV,4,3,16,29,27,145,27,31,24,197,18,32,75,348,33,36,52,277,32*7D
$GPGSV,4,4,16,40,84,354,,41,58,082,,49,32,274,,50,10,089,*7E
$GLGSV,3,1,09,70,38,350,,71,56,277,31,72,21,224,,73,15,160,*64
$GLGSV,3,2,09,74,15,205,,75,00,250,,83,21,124,20,84,44,062,09*64
$GLGSV,3,3,09,85,23,003,21*50
$GNGLL,0419.75705,S,05539.87250,E,112325.00,A,A*62
$GNGRS,112325.00,1,-0.3,7.1,-8.0,-2.7,3.3,-4.7,,,,,,*5D
$GNGRS,112325.00,1,-6.6,-6.1,5.1,,,,,,,,,*7B
$GNGST,112325.00,3965255,,,,4.1,3.6,8.3*7F
$GNZDA,112325.00,27,05,2025,00,00*7B
$GNGBS,112325.00,4.1,3.6,8.3,,,,*52
b0@
]@`A'M !K\{ 4Tb:R 
Y
eIF&^G8HIJKS|"
T,>Ux6bCu$GNRMC,112326.00,A,0419.75712,S,05539.87249,E,0.049,,270525,,,A*7C
$GNVTG,,T,,M,0.049,N,0.092,K,A*3B
$GNGNS,112326.00,0419.75712,S,05539.87249,E,AA,09,0.88,16.2,-47.6,,*64
$GNGGA,112326.00,0419.75712,S,05539.87249,E,1,09,0.88,16.2,M,-47.6,M,,*4E
$GNGSA,A,3,32,28,18,29,16,10,,,,,,,1.89,0.88,1.67*13
$GNGSA,A,3,71,83,84,,,,,,,,,,1.89,0.88,1.67*1D
$GPGSV,4,1,16,10,21,349,25,16,25,258,27,18,30,064,27,23,06,027,*75
$GPGSV,4,2,16,25,05,135,20,26,30,227,,27,30,321,23,28,39,168,31*75
$GPGSV,4,3,16,29,27,145,27,31,24,197,15,32,75,348,33,36,52,277,32*70
$GPGSV,4,4,16,40,84,354,,41,58,082,,49,32,274,,50,10,089,*7E
$GLGSV,3,1,09,70,38,350,,71,56,277,31,72,21,224,,73,15,160,*64
$GLGSV,3,2,09,74,15,205,,75,00,250,,83,21,124,19,84,44,062,09*6E
$GLGSV,3,3,09,85,23,003,20*51
$GNGLL,0419.75712,S,05539.87249,E,112326.00,A,A*6F
$GNGRS,112326.00,1,-0.9,5.9,-7.7,-5.0,4.7,-3.5,,,,,,*50
$GNGRS,112326.00,1,-9.0,-4.8,5.1,,,,,,,,,*7A
$GNGST,112326.00,3965255,,,,4.1,3.6,8.3*7C
$GNZDA,112326.00,27,05,2025,00,00*78
$GNGBS,112326.00,4.1,3.6,8.3,,,,*51
b0@
]@|'A'  K\{!4Tb:R 
YeF&^G 8HIJKS|.
T,>+U)bO$GNRMC,112329.00,A,0419.75727,S,05539.87232,E,0.113,,270525,,,A*77
$GNVTG,,T,,M,0.113,N,0.209,K,A*35
$GNGNS,112329.00,0419.75727,S,05539.87232,E,AA,09,0.86,16.4,-47.6,,*69
$GNGGA,112329.00,0419.75727,S,05539.87232,E,1,09,0.86,16.4,M,-47.6,M,,*43
$GNGSA,A,3,32,28,18,29,16,10,,,,,,,1.74,0.86,1.52*19
$GNGSA,A,3,71,83,84,,,,,,,,,,1.74,0.86,1.52*17
$GPGSV,4,1,16,10,21,349,20,16,25,258,28,18,30,064,26,23,06,027,*7E
$GPGSV,4,2,16,25,05,135,23,26,30,227,,27,30,321,23,28,39,168,30*77
$GPGSV,4,3,16,29,27,145,28,31,24,197,17,32,75,348,32,36,52,277,33*7D
$GPGSV,4,4,16,40,84,354,,41,58,082,,49,32,274,,50,10,089,*7E
$GLGSV,3,1,09,70,38,350,,71,56,277,32,72,21,224,,73,15,160,*67
$GLGSV,3,2,09,74,15,205,,75,00,250,,83,21,124,21,84,44,062,12*6F
$GLGSV,3,3,09,85,23,003,22*53
$GNGLL,0419.75727,S,05539.87232,E,112329.00,A,A*6A
$GNGRS,112329.00,1,-0.1,6.9,-9.0,-7.9,0.1,-0.7,,,,,,*55
$GNGRS,112329.00,1,-4.8,-2.1,5.6,,,,,,,,,*78
$GNGST,112329.00,136516,,,,4.1,3.6,8.3*4E
$GNZDA,112329.00,27,05,2025,00,00*77
$GNGBS,112329.00,4.1,3.6,8.3,,,,*5E
b0@
]=@A')  K\{ 4Tb:R 
Ye4F&^G7HIJKS|
T,>UbSN$GNRMC,112330.00,A,0419.75736,S,05539.87231,E,0.167,,270525,,,A*7F
$GNVTG,,T,,M,0.167,N,0.309,K,A*37
$GNGNS,112330.00,0419.75736,S,05539.87231,E,AA,09,0.86,16.6,-47.6,,*60
$GNGGA,112330.00,0419.75736,S,05539.87231,E,1,09,0.86,16.6,M,-47.6,M,,*4A
$GNGSA,A,3,32,28,18,29,16,10,,,,,,,1.74,0.86,1.52*19
$GNGSA,A,3,71,83,84,,,,,,,,,,1.74,0.86,1.52*17
$GPGSV,4,1,16,10,21,349,20,16,25,258,28,18,30,064,24,23,06,027,*7C
$GPGSV,4,2,16,25,05,135,22,26,30,227,,27,30,321,24,28,39,168,30*71
$GPGSV,4,3,16,29,27,145,27,31,24,197,19,32,75,348,32,36,52,277,32*7D
$GPGSV,4,4,16,40,84,354,,41,58,082,,49,32,274,,50,10,089,*7E
$GLGSV,3,1,09,70,38,350,,71,55,277,31,72,21,224,,73,15,160,*67
$GLGSV,3,2,09,74,15,205,,75,00,250,,83,21,124,20,84,44,062,12*6E
b0@@
]r@A' $K\{!4Tb:R 
YeF&^G7HIJKS|
T,>Ub@4c4$GNRMC,112334.00,A,0419.75752,S,05539.87217,E,0.074,,270525,,,A*7E
$GNVTG,,T,,M,0.074,N,0.137,K,A*3B
$GNGNS,112334.00,0419.75752,S,05539.87217,E,AA,09,0.88,17.4,-47.6,,*6F
$GNGGA,112334.00,0419.75752,S,05539.87217,E,1,09,0.88,17.4,M,-47.6,M,,*45
$GNGSA,A,3,32,28,18,29,16,10,,,,,,,1.89,0.88,1.67*13
$GNGSA,A,3,71,83,84,,,,,,,,,,1.89,0.88,1.67*1D
$GPGSV,4,1,16,10,21,349,22,16,25,258,29,18,30,064,22,23,06,027,*79
$GPGSV,4,2,16,25,05,135,23,26,30,227,,27,30,321,27,28,39,168,31*72
$GPGSV,4,3,16,29,27,145,26,31,24,197,17,32,75,348,36,36,52,277,33*77
$GPGSV,4,4,16,40,84,354,,41,58,082,,49,32,274,,50,10,089,*7E
$GLGSV,3,1,09,70,38,350,,71,55,277,29,72,21,224,,73,15,159,*64
$GLGSV,3,2,09,74,15,205,,75,00,250,,83,21,124,19,84,44,062,13*65
$GLGSV,3,3,09,85,23,003,20*51
$GNGLL,0419.75752,S,05539.87217,E,112334.00,A,A*63
$GNGRS,112334.00,1,-1.1,-0.1,-18.0,-7.9,-1.4,1.4,,,,,,*4D
$GNGRS,112334.00,1,-6.4,1.3,5.1,,,,,,,,,*51
$GNGST,112334.00,3965255,,,,4.4,3.7,8.5*7D
$GNZDA,112334.00,27,05,2025,00,00*7B
$GNGBS,112334.00,4.4,3.7,8.5,,,,*50
b0@(
]c@A'; #K\v{"4Tb:R 
YeQF&^G7aHIJKS|,
T,>U|7b(gV$GNRMC,112335.00,A,0419.75763,S,05539.87210,E,0.035,,270525,,,A*7F
$GNVTG,,T,,M,0.035,N,0.065,K,A*38
$GNGNS,112335.00,0419.75763,S,05539.87210,E,AA,09,0.88,17.6,-47.6,,*69
$GNGGA,112335.00,0419.75763,S,05539.87210,E,1,09,0.88,17.6,M,-47.6,M,,*43
$GNGSA,A,3,32,28,18,29,16,10,,,,,,,1.89,0.88,1.67*13
$GNGSA,A,3,71,83,84,,,,,,,,,,1.89,0.88,1.67*1D
$GPGSV,4,1,16,10,21,349,22,16,25,258,29,18,30,064,25,23,06,027,*7E
$GPGSV,4,2,16,25,05,135,25,26,30,227,21,27,30,321,28,28,39,168,31*78
$GPGSV,4,3,16,29,27,145,25,31,24,197,20,32,75,348,35,36,52,277,34*74
$GPGSV,4,4,16,40,84,354,,41,58,082,,49,32,274,,50,10,089,*7E
$GLGSV,3,1,09,70,38,350,,71,55,277,28,72,21,224,,73,15,159,*65
$GLGSV,3,2,09,74,15,205,,75,00,250,,83,21,124,19,84,44,062,11*67
$GLGSV,3,3,09,85,23,003,19*5B
$GNGLL,0419.75763,S,05539.87210,E,112335.00,A,A*67
$GNGRS,112335.00,1,-1.4,5.4,-20.8,-9.6,1.0,-0.9,,,,,,*6E
$GNGRS,112335.00,1,-6.7,3.0,5.1,,,,,,,,,*52
$GNGST,112335.00,3965255,,,,4.4,3.7,8.5*7C
$GNZDA,112335.00,27,05,2025,00,00*7A
$GNGBS,112335.00,4.4,3.7,8.5,,,,*51
b0@
]@^A' !K\x{"4Tb:R 
YeF&^G7HIJKS|T,>Ubk$GNRMC,112336.00,A,0419.75784,S,05539.87200,E,0.282,,270525,,,A*7A
$GNVTG,,T,,M,0.282,N,0.521,K,A*33
$GNGNS,112336.00,0419.75784,S,05539.87200,E,AA,08,0.94,18.3,-47.6,,*64
$GNGGA,112336.00,0419.75784,S,05539.87200,E,1,08,0.94,18.3,M,-47.6,M,,*4E
$GNGSA,A,3,32,28,18,29,16,10,,,,,,,1.97,0.94,1.73*14
$GNGSA,A,3,71,83,,,,,,,,,,,1.97,0.94,1.73*16
$GPGSV,4,1,16,10,21,349,21,16,25,258,30,18,30,064,26,23,06,027,*76
$GPGSV,4,2,16,25,05,135,25,26,30,227,22,27,30,321,28,28,39,168,31*7B
$GPGSV,4,3,16,29,27,145,25,31,24,197,21,32,75,348,33,36,52,277,34*73
$GPGSV,4,4,16,40,84,354,,41,58,082,,49,32,274,,50,10,089,*7E
$GLGSV,3,1,09,70,38,350,,71,55,277,27,72,21,224,,73,15,159,*6A
$GLGSV,3,2,09,74,15,205,,75,00,250,,83,21,124,17,84,44,062,*69
$GLGSV,3,3,09,85,23,003,19*5B
$GNGLL,0419.75784,S,05539.87200,E,112336.00,A,A*6C
$GNGRS,112336.00,1,1.2,4.3,-22.1,-10.4,-3.4,-1.0,,,,,,*52
$GNGRS,112336.00,1,-3.4,4.0,,,,,,,,,,*7A
$GNGST,112336.00,37,,,,4.4,3.7,8.6*43
$GNZDA,112336.00,27,05,2025,00,00*79
$GNGBS,112336.00,4.4,3.7,8.6,,,,*51
b0@
]`@A'-n "K\{!4Tb:R 
Ye\F&^G7HIJKS| 
T,>Uzbn$GNRMC,112337.00,A,0419.75796,S,05539.87189,E,0.130,,270525,,,A*70
$GNVTG,,T,,M,0.130,N,0.240,K,A*39
$GNGNS,112337.00,0419.75796,S,05539.87189,E,AA,08,0.94,18.6,-47.6,,*61
$GNGGA,112337.00,0419.75796,S,05539.87189,E,1,08,0.94,18.6,M,-47.6,M,,*4B
$GNGSA,A,3,32,28,18,29,16,10,,,,,,,1.97,0.94,1.73*14
$GNGSA,A,3,71,83,,,,,,,,,,,1.97,0.94,1.73*16
$GPGSV,4,1,16,10,21,349,20,16,25,258,30,18,30,064,28,23,06,027,*79
$GPGSV,4,2,16,25,05,135,25,26,30,227,23,27,30,321,27,28,39,168,30*74
$GPGSV,4,3,16,29,27,145,26,31,24,197,23,32,75,348,34,36,52,277,33*72
$GPGSV,4,4,16,40,84,354,,41,58,082,,49,32,274,,50,10,089,*7E
$GLGSV,3,1,09,70,38,350,,71,55,277,26,72,21,224,,73,15,159,*6B
$GLGSV,3,2,09,74,15,205,,75,00,250,,83,21,124,17,84,44,062,*69
$GLGSV,3,3,09,85,23,003,19*5B
$GNGLL,0419.75796,S,05539.87189,E,112337.00,A,A*6C
$GNGRS,112337.00,1,1.3,5.6,-18.6,-11.7,1.0,-1.2,,,,,,*73
$GNGRS,112337.00,1,-1.0,5.4,,,,,,,,,,*78
$GNGST,112337.00,36,,,,4.4,3.7,8.6*43
$GNZDA,112337.00,27,05,2025,00,00*78
$GNGBS,112337.00,4.4,3.7,8.6,,,,*50
b0@
]fl@RA' $K\{!4Tb:R 
YecF&^G7HIJKS|
T,>UTbr|$GNRMC,112338.00,A,0419.75803,S,05539.87182,E,0.106,,270525,,,A*72
$GNVTG,,T,,M,0.106,N,0.196,K,A*34
$GNGNS,112338.00,0419.75803,S,05539.87182,E,AA,08,0.91,19.1,-47.6,,*65
$GNGGA,112338.00,0419.75803,S,05539.87182,E,1,08,0.91,19.1,M,-47.6,M,,*4F
$GNGSA,A,3,32,28,18,29,16,10,,,,,,,1.85,0.91,1.61*11
$GNGSA,A,3,71,83,,,,,,,,,,,1.85,0.91,1.61*13
$GPGSV,4,1,16,10,21,349,19,16,25,258,29,18,30,064,29,23,06,027,*7A
$GPGSV,4,2,16,25,05,135,24,26,30,227,25,27,30,321,27,28,39,168,29*7B
$GPGSV,4,3,16,29,27,145,25,31,24,197,24,32,75,348,36,36,52,277,33*74
$GPGSV,4,4,16,40,84,354,,41,58,082,,49,32,274,,50,10,089,*7E
$GLGSV,3,1,09,70,38,350,,71,55,277,25,72,21,224,,73,15,159,*68
$GLGSV,3,2,09,74,15,205,,75,00,250,,83,21,124,18,84,44,062,*66
$GLGSV,3,3,09,85,23,003,19*5B
$GNGLL,0419.75803,S,05539.87182,E,112338.00,A,A*6B
$GNGRS,112338.00,1,1.4,2.4,-16.4,-13.7,-4.0,1.0,,,,,,*77
$GNGRS,112338.00,1,-0.7,7.3,,,,,,,,,,*74
$GNGST,112338.00,46,,,,4.4,3.6,8.5*49
$GNZDA,112338.00,27,05,2025,00,00*77
$GNGBS,112338.00,4.4,3.6,8.5,,,,*5D
b0@
]@UA'^ $K\u{ 4Tb:R 
YeF&^G7HIJKS|
T,>U[bvj$GNRMC,112339.00,A,0419.75814,S,05539.87173,E,0.101,,270525,,,A*7C
$GNVTG,,T,,M,0.101,N,0.186,K,A*32
$GNGNS,112339.00,0419.75814,S,05539.87173,E,AA,08,0.91,19.4,-47.6,,*69
$GNGGA,112339.00,0419.75814,S,05539.87173,E,1,08,0.91,19.4,M,-47.6,M,,*43
$GNGSA,A,3,32,28,18,29,16,10,,,,,,,1.85,0.91,1.61*11
$GNGSA,A,3,71,83,,,,,,,,,,,1.85,0.91,1.61*13
$GPGSV,4,1,16,10,21,349,18,16,25,258,29,18,30,064,30,23,06,027,*73
$GPGSV,4,2,16,25,05,135,25,26,30,227,25,27,30,321,27,28,39,168,29*7A
$GPGSV,4,3,16,29,27,145,25,31,24,197,22,32,75,348,36,36,52,277,32*73
$GPGSV,4,4,16,40,84,354,,41,58,082,,49,32,274,,50,10,089,*7E
$GLGSV,3,1,09,70,38,350,,71,55,277,25,72,21,224,,73,15,159,*68
$GLGSV,3,2,09,74,15,205,,75,00,250,,83,21,124,19,84,44,062,*67
$GLGSV,3,3,09,85,23,003,20*51
$GNGLL,0419.75814,S,05539.87173,E,112339.00,A,A*62
$GNGRS,112339.00,1,1.2,7.5,-13.4,-14.4,-0.1,2.2,,,,,,*71
$GNGRS,112339.00,1,-0.5,9.1,,,,,,,,,,*7B
$GNGST,112339.00,46,,,,4.4,3.6,8.4*49
$GNZDA,112339.00,27,05,2025,00,00*76
$GNGBS,112339.00,4.4,3.6,8.4,,,,*5D
b0@
]@dA'OW #K\{4Tb:R 
YeyF&^G7#HIJKS|O
T,>U'bzBL$GNRMC,112340.00,A,0419.75828,S,05539.87162,E,0.166,,270525,,,A*7C
$GNVTG,,T,,M,0.166,N,0.307,K,A*38
$GNGNS,112340.00,0419.75828,S,05539.87162,E,AA,08,0.91,19.9,-47.6,,*65
$GNGGA,112340.00,0419.75828,S,05539.87162,E,1,08,0.91,19.9,M,-47.6,M,,*4F
$GNGSA,A,3,32,28,18,29,16,10,,,,,,,1.85,0.91,1.61*11
$GNGSA,A,3,71,83,,,,,,,,,,,1.85,0.91,1.61*13
$GPGSV,4,1,16,10,21,349,17,16,25,258,30,18,30,064,31,23,06,027,*75
$GPGSV,4,2,16,25,05,135,26,26,30,227,26,27,30,321,25,28,39,168,31*71
$GPGSV,4,3,16,29,27,145,24,31,24,197,22,32,75,348,35,36,52,277,31*72
$GPGSV,4,4,16,40,84,354,,41,58,082,,49,32,274,,50,10,089,*7E
$GLGSV,3,1,09,70,38,350,,71,55,277,24,72,21,224,,73,15,159,*69
$GLGSV,3,2,09,74,15,205,,75,00,250,,83,21,124,16,84,44,062,*68
$GLGSV,3,3,09,85,23,003,21*50
$GNGLL,0419.75828,S,05539.87162,E,112340.00,A,A*63
$GNGRS,112340.00,1,1.3,0.8,-16.9,-11.9,-2.7,2.0,,,,,,*72
$GNGRS,112340.00,1,0.3,16.1,,,,,,,,,,*60
$GNGST,112340.00,50,,,,4.3,3.6,8.4*47
$GNZDA,112340.00,27,05,2025,00,00*78
$GNGBS,112340.00,4.3,3.6,8.4,,,,*54
b0@
]@A'Ah !K\{4Tb:R 
Ye'F&^G7HIJKS|
T,>Upb~$GNRMC,112341.00,A,0419.75832,S,05539.87162,E,0.161,,270525,,,A*71
$GNVTG,,T,,M,0.161,N,0.298,K,A*38
$GNGNS,112341.00,0419.75832,S,05539.87162,E,AA,08,0.91,20.0,-47.6,,*6C
$GNGGA,112341.00,0419.75832,S,05539.87162,E,1,08,0.91,20.0,M,-47.6,M,,*46
$GNGSA,A,3,32,28,18,29,16,10,,,,,,,1.85,0.91,1.61*11
$GNGSA,A,3,71,83,,,,,,,,,,,1.85,0.91,1.61*13
$GPGSV,4,1,16,10,21,349,15,16,25,258,30,18,30,064,29,23,06,027,*7E
$GPGSV,4,2,16,25,05,135,24,26,30,227,26,27,30,321,24,28,39,168,29*7B
$GPGSV,4,3,16,29,27,145,24,31,24,197,19,32,75,348,33,36,52,277,30*7D
$GPGSV,4,4,16,40,84,354,,41,58,082,,49,32,274,,50,10,089,*7E
$GLGSV,3,1,09,70,38,350,,71,55,277,24,72,21,224,,73,15,159,*69
$GLGSV,3,2,09,74,15,205,,75,00,250,,83,21,124,14,84,44,062,*6A
$GLGSV,3,3,09,85,23,003,20*51
$GNGLL,0419.75832,S,05539.87162,E,112341.00,A,A*69
$GNGRS,112341.00,1,1.7,3.2,-12.5,-9.2,-2.7,1.3,,,,,,*44
$GNGRS,112341.00,1,-0.7,19.6,,,,,,,,,,*40
$GNGST,112341.00,49,,,,4.4,3.6,8.4*49
$GNZDA,112341.00,27,05,2025,00,00*79
$GNGBS,112341.00,4.4,3.6,8.4,,,,*52
b0@
]@UA'!T !K\{ 4Tb:R 
YeF&^G7CH
IJKS}T,>Uy;bt$GNRMC,112342.00,A,0419.75844,S,05539.87160,E,0.058,,270525,,,A*7A
$GNVTG,,T,,M,0.058,N,0.107,K,A*36
$GNGNS,112342.00,0419.75844,S,05539.87160,E,AA,08,0.91,20.3,-47.6,,*6F
$GNGGA,112342.00,0419.75844,S,05539.87160,E,1,08,0.91,20.3,M,-47.6,M,,*45
$GNGSA,A,3,32,28,18,29,16,10,,,,,,,1.85,0.91,1.61*11
$GNGSA,A,3,71,83,,,,,,,,,,,1.85,0.91,1.61*13
$GPGSV,4,1,16,10,21,349,16,16,25,258,29,18,30,064,28,23,06,027,*74
$GPGSV,4,2,16,25,05,135,24,26,30,227,27,27,30,321,24,28,39,168,27*74
$GPGSV,4,3,16,29,27,145,25,31,24,197,16,32,75,348,33,36,52,277,32*71
$GPGSV,4,4,16,40,84,354,,41,58,082,,49,32,274,,50,10,089,*7E
$GLGSV,3,1,09,70,38,350,,71,55,277,25,72,21,224,,73,15,159,*68
$GLGSV,3,2,09,74,15,205,,75,00,250,,83,20,125,17,84,44,062,*69
$GLGSV,3,3,09,85,23,003,21*50
$GNGLL,0419.75844,S,05539.87160,E,112342.00,A,A*69
$GNGRS,112342.00,1,-0.1,10.6,-11.5,-6.8,-2.8,-0.3,,,,,,*7E
$GNGRS,112342.00,1,0.7,19.6,,,,,,,,,,*6E
$GNGST,112342.00,48,,,,4.4,3.6,8.4*4B
$GNZDA,112342.00,27,05,2025,00,00*7A
$GNGBS,112342.00,4.4,3.6,8.4,,,,*51
b0@h
]g@LA'  K\H{ 4Tb:R 
YeF&^G7\H
IJKS}T,?Ubh\$GNRMC,112343.00,A,0419.75854,S,05539.87157,E,0.038,,270525,,,A*78
$GNVTG,,T,,M,0.038,N,0.070,K,A*31
$GNGNS,112343.00,0419.75854,S,05539.87157,E,AA,08,0.91,20.7,-47.6,,*6F
$GNGGA,112343.00,0419.75854,S,05539.87157,E,1,08,0.91,20.7,M,-47.6,M,,*45
$GNGSA,A,3,32,28,18,29,16,10,,,,,,,1.85,0.91,1.61*11
$GNGSA,A,3,71,83,,,,,,,,,,,1.85,0.91,1.61*13
$GPGSV,4,1,16,10,21,349,19,16,25,258,29,18,30,064,26,23,06,027,*75
$GPGSV,4,2,16,25,05,135,24,26,30,227,27,27,30,321,22,28,39,168,27*72
$GPGSV,4,3,16,29,27,145,25,31,24,197,15,32,75,348,32,36,52,277,32*73
$GPGSV,4,4,16,40,84,354,,41,58,082,,49,32,274,,50,10,089,*7E
$GLGSV,3,1,09,70,38,350,,71,55,277,26,72,21,224,,73,15,159,*6B
$GLGSV,3,2,09,74,15,205,,75,00,250,,83,20,125,20,84,44,063,*6C
$GLGSV,3,3,09,85,23,003,25*54
$GNGLL,0419.75854,S,05539.87157,E,112343.00,A,A*6D
$GNGRS,112343.00,1,0.7,6.6,-17.9,-7.6,-6.6,-1.1,,,,,,*6F
$GNGRS,112343.00,1,0.9,17.6,,,,,,,,,,*6F
$GNGST,112343.00,45,,,,4.4,3.6,8.4*47
$GNZDA,112343.00,27,05,2025,00,00*7B
$GNGBS,112343.00,4.4,3.6,8.4,,,,*50
$GNVTG,,T,,M,0.213,N,0.394,K,A*33
$GNGNS,112344.00,0419.75853,S,05539.87157,E,AA,08,0.91,20.8,-47.6,,*60
$GNGGA,112344.00,0419.75853,S,05539.87157,E,1,08,0.91,20.8,M,-47.6,M,,*4A
$GNGSA,A,3,32,28,18,29,16,10,,,,,,,1.85,0.91,1.61*11
$GNGSA,A,3,71,83,,,,,,,,,,,1.85,0.91,1.61*13
$GPGSV,4,1,16,10,21,349,17,16,25,258,29,18,30,064,25,23,06,027,*78
$GPGSV,4,2,16,25,05,135,23,26,30,227,26,27,30,321,21,28,39,168,32*73
$GPGSV,4,3,16,29,27,145,23,31,24,197,14,32,75,348,32,36,52,277,31*77
$GPGSV,4,4,16,40,84,354,,41,58,082,,49,32,274,,50,10,089,*7E
$GLGSV,3,1,09,70,38,350,,71,55,277,25,72,21,224,,73,15,159,*68
$GLGSV,3,2,09,74,15,205,,75,00,250,,83,20,125,21,84,44,063,*6D
$GLGSV,3,3,09,85,24,003,22*54
$GNGLL,0419.75853,S,05539.87157,E,112344.00,A,A*6D
$GNGRS,112344.00,1,2.1,-3.3,-20.9,-6.2,-2.7,-1.0,,,,,,*44
$GNGRS,112344.00,1,5.0,18.9,,,,,,,,,,*64
$GNGST,112344.00,47,,,,4.4,3.6,8.5*43
$GNZDA,112344.00,27,05,2025,00,00*7C
$GNGBS,112344.00,4.4,3.6,8.5,,,,*56
b0@8
]@A '"  K\{4Tb:R 
YeQF&^G7,H
IJKS}T,?U}mb8,zT$GNRMC,112345.00,A,0419.75856,S,05539.87160,E,0.221,,270525,,,A*72
$GNVTG,,T,,M,0.221,N,0.410,K,A*39
$GNGNS,112345.00,0419.75856,S,05539.87160,E,AA,08,0.91,20.9,-47.6,,*61
$GNGGA,112345.00,0419.75856,S,05539.87160,E,1,08,0.91,20.9,M,-47.6,M,,*4B
$GNGSA,A,3,32,28,18,29,16,10,,,,,,,1.85,0.91,1.61*11
$GNGSA,A,3,71,83,,,,,,,,,,,1.85,0.91,1.61*13
$GPGSV,4,1,16,10,21,349,16,16,25,258,28,18,30,064,25,23,06,027,*78
$GPGSV,4,2,16,25,05,135,23,26,30,227,25,27,30,321,21,28,39,168,32*70
$GPGSV,4,3,16,29,27,145,21,31,24,197,15,32,75,348,32,36,52,277,30*75
$GPGSV,4,4,16,40,84,354,,41,58,082,,49,32,274,,50,10,089,*7E
$GLGSV,3,1,09,70,38,350,,71,55,277,24,72,21,224,,73,15,159,*69
$GLGSV,3,2,09,74,15,205,,75,00,250,,83,20,125,21,84,44,063,*6D
$GLGSV,3,3,09,85,24,003,19*5C
$GNGLL,0419.75856,S,05539.87160,E,112345.00,A,A*6D
$GNGRS,112345.00,1,1.7,0.3,-18.3,-2.9,-4.8,-0.6,,,,,,*6E
$GNGRS,112345.00,1,5.6,17.7,,,,,,,,,,*62
$GNGST,112345.00,99931,,,,4.4,3.6,8.6*79
$GNZDA,112345.00,27,05,2025,00,00*7D
$GNGBS,112345.00,4.4,3.6,8.6,,,,*54
b0@ 
]@<DA'S !K\@{4Tb:R 
YeF&^G7
H
IJKS}T,?U?b S$GNRMC,112346.00,A,0419.75864,S,05539.87163,E,0.133,,270525,,,A*73
$GNVTG,,T,,M,0.133,N,0.246,K,A*3C
$GNGNS,112346.00,0419.75864,S,05539.87163,E,AA,08,0.91,21.0,-47.6,,*68
$GNGGA,112346.00,0419.75864,S,05539.87163,E,1,08,0.91,21.0,M,-47.6,M,,*42
$GNGSA,A,3,32,28,18,29,16,10,,,,,,,1.85,0.91,1.61*11
$GNGSA,A,3,71,83,,,,,,,,,,,1.85,0.91,1.61*13
$GPGSV,4,1,16,10,21,349,14,16,25,258,28,18,30,064,26,23,06,027,*79
$GPGSV,4,2,16,25,05,135,23,26,30,227,25,27,30,321,23,28,39,168,31*71
$GPGSV,4,3,16,29,27,145,19,31,24,197,19,32,75,348,33,36,52,277,31*72
$GPGSV,4,4,16,40,84,354,,41,58,082,,49,32,274,,50,10,089,*7E
$GLGSV,3,1,09,70,38,350,,71,55,277,24,72,21,224,,73,15,159,*69
$GLGSV,3,2,09,74,15,205,,75,00,250,,83,20,125,22,84,44,063,*6E
$GLGSV,3,3,09,85,24,003,16*53
$GNGLL,0419.75864,S,05539.87163,E,112346.00,A,A*6C
$GNGRS,112346.00,1,0.6,0.8,-14.8,-0.9,-8.7,-0.1,,,,,,*67
$GNGRS,112346.00,1,5.2,17.5,,,,,,,,,,*67
$GNGST,112346.00,99931,,,,4.5,3.7,8.7*7B
$GNZDA,112346.00,27,05,2025,00,00*7E
$GNGBS,112346.00,4.5,3.7,8.7,,,,*56
b0@
]?@XA'! "K\{ 4Tb:R 
YeF&^G7H
IJKS}7T,?Ub*/$GNRMC,112347.00,A,0419.75874,S,05539.87159,E,0.047,,270525,,,A*78
$GNVTG,,T,,M,0.047,N,0.088,K,A*3E
$GNGNS,112347.00,0419.75874,S,05539.87159,E,AA,08,0.91,21.4,-47.6,,*65
$GNGGA,112347.00,0419.75874,S,05539.87159,E,1,08,0.91,21.4,M,-47.6,M,,*4F
$GNGSA,A,3,32,28,18,29,16,10,,,,,,,1.85,0.91,1.61*11
$GNGSA,A,3,71,83,,,,,,,,,,,1.85,0.91,1.61*13
$GPGSV,4,1,16,10,21,349,14,16,25,258,28,18,30,064,25,23,06,027,*7A
$GPGSV,4,2,16,25,05,135,22,26,30,227,24,27,30,321,25,28,39,168,31*77
$GPGSV,4,3,16,29,27,145,24,31,24,197,20,32,75,348,34,36,52,277,32*72
$GPGSV,4,4,16,40,84,354,,41,58,082,,49,32,274,,50,10,089,*7E
$GLGSV,3,1,09,70,38,350,,71,55,277,25,72,21,224,,73,15,159,*68
$GLGSV,3,2,09,74,15,205,,75,00,250,,83,20,125,22,84,44,063,*6E
$GLGSV,3,3,09,85,24,003,14*51
$GNGLL,0419.75874,S,05539.87159,E,112347.00,A,A*65
$GNGRS,112347.00,1,1.9,-0.8,-13.1,-2.2,0.2,-27.5,,,,,,*53
$GNGRS,112347.00,1,4.8,18.5,,,,,,,,,,*62
$GNGST,112347.00,43,,,,4.5,3.7,8.7*46
$GNZDA,112347.00,27,05,2025,00,00*7F
$GNGBS,112347.00,4.5,3.7,8.7,,,,*57
b0@
]@A' "K\{ 4Tb:R 
YeF&^G7EH
IJKS}PT,?Uwb$GNRMC,112348.00,A,0419.75873,S,05539.87162,E,0.247,,270525,,,A*7A
$GNVTG,,T,,M,0.247,N,0.457,K,A*3A
$GNGNS,112348.00,0419.75873,S,05539.87162,E,AA,08,0.91,21.3,-47.6,,*62
$GNGGA,112348.00,0419.75873,S,05539.87162,E,1,08,0.91,21.3,M,-47.6,M,,*48
$GNGSA,A,3,32,28,18,29,16,10,,,,,,,1.85,0.91,1.61*11
$GNGSA,A,3,71,83,,,,,,,,,,,1.85,0.91,1.61*13
$GPGSV,4,1,16,10,21,349,13,16,25,258,28,18,30,064,24,23,06,027,*7C
$GPGSV,4,2,16,25,05,135,22,26,30,227,24,27,30,321,24,28,39,168,30*77
$GPGSV,4,3,16,29,27,145,25,31,24,197,21,32,75,348,34,36,52,277,32*72
$GPGSV,4,4,16,40,84,354,,41,58,082,,49,32,274,,50,10,089,*7E
$GLGSV,3,1,09,70,38,350,,71,55,277,25,72,21,224,,73,15,159,*68
$GLGSV,3,2,09,74,15,205,,75,00,250,,83,20,125,21,84,44,063,*6D
$GLGSV,3,3,09,85,24,003,13*56
$GNGLL,0419.75873,S,05539.87162,E,112348.00,A,A*65
$GNGRS,112348.00,1,2.3,2.1,-13.1,-2.4,0.2,19.6,,,,,,*56
$GNGRS,112348.00,1,5.8,18.7,,,,,,,,,,*6E
$GNGST,112348.00,3965255,,,,4.6,3.7,8.8*79
$GNZDA,112348.00,27,05,2025,00,00*70
$GNGBS,112348.00,4.6,3.7,8.8,,,,*54
b0@
]@TA ' "K\{4Tb:R 
YeAF&^G7NH
IJKS}T,?Umb$GNRMC,112349.00,A,0419.75881,S,05539.87155,E,0.260,,270525,,,A*77
$GNVTG,,T,,M,0.260,N,0.482,K,A*37
$GNGNS,112349.00,0419.75881,S,05539.87155,E,AA,08,0.91,21.7,-47.6,,*6E
$GNGGA,112349.00,0419.75881,S,05539.87155,E,1,08,0.91,21.7,M,-47.6,M,,*44
$GNGSA,A,3,32,28,18,29,16,10,,,,,,,1.85,0.91,1.61*11
$GNGSA,A,3,71,83,,,,,,,,,,,1.85,0.91,1.61*13
$GPGSV,4,1,16,10,21,349,22,16,25,258,27,18,30,064,23,23,06,027,*76
$GPGSV,4,2,16,25,05,135,21,26,30,227,25,27,30,321,22,28,39,168,32*71
$GPGSV,4,3,16,29,27,145,23,31,24,197,21,32,75,348,34,36,52,277,31*77
$GPGSV,4,4,16,40,84,354,,41,58,082,,49,32,274,,50,10,089,*7E
$GLGSV,3,1,09,70,38,350,,71,55,277,25,72,21,224,,73,15,159,*68
$GLGSV,3,2,09,74,15,205,,75,00,250,,83,20,125,19,84,44,063,*66
$GLGSV,3,3,09,85,24,003,16*53
$GNGLL,0419.75881,S,05539.87155,E,112349.00,A,A*6D
$GNGRS,112349.00,1,2.0,3.9,-12.0,-1.1,-0.2,19.7,,,,,,*77
$GNGRS,112349.00,1,5.9,20.0,,,,,,,,,,*62
$GNGST,112349.00,3965255,,,,4.6,3.8,8.9*76
$GNZDA,112349.00,27,05,2025,00,00*71
$GNGBS,112349.00,4.6,3.8,8.9,,,,*5B
$GPGSV,4,3,16,29,27,145,23,31,24,197,20,32,75,348,32,36,52,277,31*70
$GPGSV,4,4,16,40,84,354,,41,58,082,,49,32,274,,50,10,089,*7E
$GLGSV,3,1,09,70,38,350,,71,55,277,24,72,21,224,,73,15,159,*69
$GLGSV,3,2,09,74,15,205,,75,00,250,,83,20,125,17,84,44,063,*68
$GLGSV,3,3,09,85,24,003,18*5D
$GNGLL,0419.75884,S,05539.87148,E,112350.00,A,A*6C
$GNGRS,112350.00,1,1.5,0.6,-13.0,-1.1,-0.8,20.6,,,,,,*75
$GNGRS,112350.00,1,4.8,19.6,,,,,,,,,,*66
$GNGST,112350.00,46,,,,4.6,3.8,9.0*4F
$GNZDA,112350.00,27,05,2025,00,00*79
$GNGBS,112350.00,4.6,3.8,9.0,,,,*5B
$GNGSA,A,3,71,83,,,,,,,,,,,1.85,0.91,1.61*13
$GPGSV,4,1,16,10,21,349,13,16,25,258,26,18,30,064,22,23,06,027,*74
$GPGSV,4,2,16,25,05,135,20,26,30,227,25,27,30,321,21,28,39,168,32*73
$GPGSV,4,3,16,29,27,145,25,31,24,197,20,32,75,348,33,36,52,277,32*74
$GPGSV,4,4,16,40,84,354,,41,58,082,,49,32,274,,50,10,089,*7E
$GLGSV,3,1,09,70,38,350,,71,55,277,23,72,21,224,,73,15,159,21*6D
$GLGSV,3,2,09,74,15,205,,75,00,250,,83,20,125,14,84,44,063,*6B
$GLGSV,3,3,09,85,24,003,19*5C
$GNGLL,0419.75895,S,05539.87138,E,112351.00,A,A*6A
$GNGRS,112351.00,1,1.5,2.2,-10.9,-0.1,-1.9,20.1,,,,,,*7E
$GNGRS,112351.00,1,4.5,19.0,,,,,,,,,,*6C
$GNGST,112351.00,99931,,,,4.7,3.9,9.2*75
$GNZDA,112351.00,27,05,2025,00,00*78
$GNGBS,112351.00,4.7,3.9,9.2,,,,*58
JKS}nT,?Ubba($GNRMC,112352.00,A,0419.75890,S,05539.87147,E,0.424,,270525,,,A*78
$GNVTG,,T,,M,0.424,N,0.786,K,A*36
$GNGNS,112352.00,0419.75890,S,05539.87147,E,AA,08,0.91,22.1,-47.6,,*62
$GNGGA,112352.00,0419.75890,S,05539.87147,E,1,08,0.91,22.1,M,-47.6,M,,*48
$GNGSA,A,3,32,28,18,29,16,10,,,,,,,1.85,0.91,1.61*11
$GNGSA,A,3,71,83,,,,,,,,,,,1.85,0.91,1.61*13
$GPGSV,4,1,16,10,21,349,12,16,25,258,25,18,30,064,20,23,06,027,*74
$GPGSV,4,2,16,25,05,135,19,26,30,227,24,27,30,321,22,28,39,168,32*7B
$GPGSV,4,3,16,29,27,145,25,31,24,197,19,32,75,348,31,36,52,277,31*7F
$GPGSV,4,4,16,40,84,354,,41,58,082,,49,32,274,,50,10,089,*7E
$GLGSV,3,1,09,70,38,350,,71,55,277,23,72,21,224,,73,15,159,19*66
$GLGSV,3,2,09,74,15,205,,75,00,250,,83,20,125,18,84,44,063,*67
$GLGSV,3,3,09,85,24,003,20*56
$GNGLL,0419.75890,S,05539.87147,E,112352.00,A,A*64
$GNGRS,112352.00,1,0.9,-0.4,-9.7,-2.5,0.0,19.9,,,,,,*4E
$GNGRS,112352.00,1,2.3,19.0,,,,,,,,,,*6F
$GNGST,112352.00,99931,,,,4.8,4.1,9.3*77
$GNZDA,112352.00,27,05,2025,00,00*7B
$GNGBS,112352.00,4.8,4.1,9.3,,,,*5A
b0@x
]@-NA '  K\{4Tb:R 
Y
ehF&^G7%H
IJKS}T,?Uvubxl9$GNRMC,112353.00,A,0419.75896,S,05539.87143,E,0.017,,270525,,,A*7F
$GNVTG,,T,,M,0.017,N,0.032,K,A*3A
$GNGNS,112353.00,0419.75896,S,05539.87143,E,AA,07,1.16,22.1,-47.6,,*60
$GNGGA,112353.00,0419.75896,S,05539.87143,E,1,07,1.16,22.1,M,-47.6,M,,*4A
$GNGSA,A,3,32,28,18,29,16,,,,,,,,2.21,1.16,1.88*14
$GNGSA,A,3,71,83,,,,,,,,,,,2.21,1.16,1.88*17
$GPGSV,4,1,16,10,21,349,05,16,25,258,26,18,30,064,22,23,06,027,*73
$GPGSV,4,2,16,25,05,135,19,26,30,227,26,27,30,321,22,28,39,168,32*79
$GPGSV,4,3,16,29,27,145,24,31,24,197,21,32,75,348,32,36,52,277,30*77
$GPGSV,4,4,16,40,84,354,,41,58,082,,49,32,274,,50,10,089,*7E
$GLGSV,3,1,09,70,38,350,,71,55,277,23,72,21,224,,73,15,159,18*67
$GLGSV,3,2,09,74,15,205,,75,00,250,,83,20,125,18,84,44,063,*67
$GLGSV,3,3,09,85,24,003,21*57
$GNGLL,0419.75896,S,05539.87143,E,112353.00,A,A*67
$GNGRS,112353.00,1,-4.8,-0.6,-9.8,-3.8,2.4,,,,,,,*7F
$GNGRS,112353.00,1,0.4,16.8,,,,,,,,,,*6C
$GNGST,112353.00,45,,,,4.9,4.3,9.5*49
$GNZDA,112353.00,27,05,2025,00,00*7A
$GNGBS,112353.00,4.9,4.3,9.5,,,,*5E
b0@`
]F@;A!' "K\{4Tb:R 
YeF&^G7H
IJKS}"T,?UBb`T$GNRMC,112354.00,A,0419.75909,S,05539.87128,E,0.322,,270525,,,A*77
$GNVTG,,T,,M,0.322,N,0.597,K,A*35
$GNGNS,112354.00,0419.75909,S,05539.87128,E,AA,08,0.94,21.9,-47.6,,*62
$GNGGA,112354.00,0419.75909,S,05539.87128,E,1,08,0.94,21.9,M,-47.6,M,,*48
$GNGSA,A,3,32,28,18,29,16,10,,,,,,,1.97,0.94,1.73*14
$GNGSA,A,3,71,83,,,,,,,,,,,1.97,0.94,1.73*16
$GPGSV,4,1,16,10,21,349,15,16,25,258,26,18,30,064,23,23,06,027,*73
$GPGSV,4,2,16,25,05,135,19,26,30,227,26,27,30,321,21,28,39,168,33*7B
$GPGSV,4,3,16,29,27,145,22,31,24,197,22,32,75,348,34,36,52,277,30*74
$GPGSV,4,4,16,40,84,354,,41,58,082,,49,32,274,,50,10,089,*7E
$GLGSV,3,1,09,70,38,350,,71,55,277,23,72,21,224,,73,15,159,18*67
$GLGSV,3,2,09,74,15,205,,75,00,250,,83,20,125,17,84,44,063,*68
$GLGSV,3,3,09,85,24,003,20*56
$GNGLL,0419.75909,S,05539.87128,E,112354.00,A,A*6A
$GNGRS,112354.00,1,-8.4,0.3,-9.6,-3.3,3.3,19.9,,,,,,*4C
$GNGRS,112354.00,1,1.8,15.7,,,,,,,,,,*6A
$GNGST,112354.00,4205788,,,,4.9,4.4,9.7*7E
$GNZDA,112354.00,27,05,2025,00,00*7D
$GNGBS,112354.00,4.9,4.4,9.7,,,,*5C
b0@H#
]@qA!'5 K\{4Tb:R 
YeF&^G7&H
IJKS}T,?UTbH#<`$GNRMC,112355.00,A,0419.75905,S,05539.87131,E,0.237,,270525,,,A*77
$GNVTG,,T,,M,0.237,N,0.439,K,A*35
$GNGNS,112355.00,0419.75905,S,05539.87131,E,AA,08,0.94,21.7,-47.6,,*69
$GNGGA,112355.00,0419.75905,S,05539.87131,E,1,08,0.94,21.7,M,-47.6,M,,*43
$GNGSA,A,3,32,28,18,29,16,10,,,,,,,1.97,0.94,1.73*14
$GNGSA,A,3,71,83,,,,,,,,,,,1.97,0.94,1.73*16
$GPGSV,4,1,16,10,21,349,12,16,25,258,26,18,30,064,22,23,06,027,*75
$GPGSV,4,2,16,25,05,135,21,26,30,227,26,27,30,321,21,28,39,168,33*70
$GPGSV,4,3,16,29,27,145,23,31,24,197,21,32,75,348,31,36,52,277,31*72
$GPGSV,4,4,16,40,84,354,,41,58,082,,49,32,274,,50,10,089,*7E
$GLGSV,3,1,09,70,38,350,,71,55,277,24,72,21,224,,73,15,159,19*61
$GLGSV,3,2,09,74,15,205,,75,00,250,,83,20,125,17,84,44,063,*68
$GLGSV,3,3,09,85,24,003,18*5D
$GNGLL,0419.75905,S,05539.87131,E,112355.00,A,A*6F
$GNGRS,112355.00,1,-2.3,0.5,-9.1,-2.9,4.4,19.5,,,,,,*46
$GNGRS,112355.00,1,2.9,17.8,,,,,,,,,,*64
$GNGST,112355.00,4205788,,,,5.0,4.6,10*54
$GNZDA,112355.00,27,05,2025,00,00*7C
$GNGBS,112355.00,5.0,4.6,10.0,,,,*68
b0@0'
]0@A!' ( K\B{ 4Tb:R 
YeF&^G7aH
IJKS}T,?Ub0'$$GNRMC,112356.00,A,0419.75903,S,05539.87125,E,0.160,,270525,,,A*76
$GNVTG,,T,,M,0.160,N,0.297,K,A*36
$GNGNS,112356.00,0419.75903,S,05539.87125,E,AA,08,0.94,21.5,-47.6,,*6B
$GNGGA,112356.00,0419.75903,S,05539.87125,E,1,08,0.94,21.5,M,-47.6,M,,*41
$GNGSA,A,3,32,28,18,29,16,10,,,,,,,1.97,0.94,1.73*14
$GNGSA,A,3,71,83,,,,,,,,,,,1.97,0.94,1.73*16
$GPGSV,4,1,16,10,21,349,11,16,25,258,25,18,30,064,21,23,06,027,*76
$GPGSV,4,2,16,25,05,135,21,26,30,227,26,27,30,321,23,28,39,168,33*72
$GPGSV,4,3,16,29,27,145,23,31,24,197,20,32,75,348,31,36,52,277,32*70
$GPGSV,4,4,16,40,84,354,,41,58,082,,49,32,274,,50,10,089,*7E
$GLGSV,3,1,09,70,38,350,,71,55,277,26,72,21,224,21,73,15,159,19*60
$GLGSV,3,2,09,74,15,205,,75,00,250,,83,20,125,18,84,44,063,*67
$GLGSV,3,3,09,85,24,003,16*53
$GNGLL,0419.75903,S,05539.87125,E,112356.00,A,A*6F
$GNGRS,112356.00,1,0.7,0.3,-8.2,-2.2,5.1,38.9,,,,,,*6A
$GNGRS,112356.00,1,3.5,18.1,,,,,,,,,,*6C
$GNGST,112356.00,46,,,,5.0,4.7,10*60
$GNZDA,112356.00,27,05,2025,00,00*7F
$GNGBS,112356.00,5.0,4.7,10.2,,,,*68
b0@+
^@@A!'~  K\>{ 4Tb:R 
YeF&^G7H
IJKS}T,?Ub+0$GNRMC,112357.00,A,0419.75922,S,05539.87119,E,0.022,,270525,,,A*7C
$GNVTG,,T,,M,0.022,N,0.041,K,A*38
$GNGNS,112357.00,0419.75922,S,05539.87119,E,AA,08,0.94,22.0,-47.6,,*60
$GNGGA,112357.00,0419.75922,S,05539.87119,E,1,08,0.94,22.0,M,-47.6,M,,*4A
$GNGSA,A,3,32,28,18,29,16,10,,,,,,,1.97,0.94,1.73*14
$GNGSA,A,3,71,83,,,,,,,,,,,1.97,0.94,1.73*16
$GPGSV,4,1,16,10,21,350,15,16,25,258,24,18,30,064,19,23,06,027,*70
$GPGSV,4,2,16,25,05,135,20,26,30,227,26,27,30,321,24,28,39,168,33*74
$GPGSV,4,3,16,29,27,145,24,31,24,197,20,32,75,348,32,36,52,277,32*74
$GPGSV,4,4,16,40,84,354,,41,58,082,,49,32,274,,50,10,089,*7E
$GLGSV,3,1,09,70,38,350,,71,55,277,27,72,21,224,20,73,15,159,19*60
$GLGSV,3,2,09,74,15,205,,75,00,250,,83,20,125,19,84,44,063,*66
$GLGSV,3,3,09,85,24,003,18*5D
$GNGLL,0419.75922,S,05539.87119,E,112357.00,A,A*62
$GNGRS,112357.00,1,-4.5,2.2,-7.0,-3.9,4.6,20.3,,,,,,*41
$GNGRS,112357.00,1,4.0,17.6,,,,,,,,,,*67
$GNGST,112357.00,4205788,,,,5.1,4.8,10*59
$GNZDA,112357.00,27,05,2025,00,00*7E
$GNGBS,112357.00,5.1,4.8,10.5,,,,*60
b0@/
^@A!',Q $K\j{ 4Tb:R 
YeF&^G7H
IJKS}:T,?U5b/p$GNRMC,112358.00,A,0419.75925,S,05539.87117,E,0.106,,270525,,,A*7D
$GNVTG,,T,,M,0.106,N,0.197,K,A*35
$GNGNS,112358.00,0419.75925,S,05539.87117,E,AA,08,0.94,21.2,-47.6,,*67
$GNGGA,112358.00,0419.75925,S,05539.87117,E,1,08,0.94,21.2,M,-47.6,M,,*4D
$GNGSA,A,3,32,28,18,29,16,10,,,,,,,1.97,0.94,1.73*14
$GNGSA,A,3,71,83,,,,,,,,,,,1.97,0.94,1.73*16
$GPGSV,4,1,16,10,21,350,11,16,25,258,23,18,30,064,23,23,06,027,*7A
$GPGSV,4,2,16,25,05,135,20,26,30,227,27,27,30,321,25,28,39,168,33*74
$GPGSV,4,3,16,29,27,145,23,31,24,197,22,32,75,348,36,36,52,277,32*75
$GPGSV,4,4,16,40,84,354,,41,58,082,,49,32,274,,50,10,089,*7E
$GLGSV,3,1,09,70,38,350,,71,55,277,25,72,21,224,20,73,15,159,19*62
$GLGSV,3,2,09,74,15,205,,75,00,250,,83,20,125,20,84,44,063,*6C
$GLGSV,3,3,09,85,24,003,20*56
$GNGLL,0419.75925,S,05539.87117,E,112358.00,A,A*64
$GNGRS,112358.00,1,-6.6,0.4,-4.9,-4.3,5.1,20.2,,,,,,*4B
$GNGRS,112358.00,1,4.4,18.5,,,,,,,,,,*60
$GNGST,112358.00,4205788,,,,5.2,4.9,11*55
$GNZDA,112358.00,27,05,2025,00,00*71
$GNGBS,112358.00,5.2,4.9,10.7,,,,*6F
b0@2
^@A!' $K\4{ 4Tb:R 
YeF&^G7>H
IJKS}3T,?U:b2G$GNRMC,112359.00,A,0419.75938,S,05539.87108,E,0.214,,270525,,,A*7E
$GNVTG,,T,,M,0.214,N,0.397,K,A*37
$GNGNS,112359.00,0419.75938,S,05539.87108,E,AA,08,0.94,21.0,-47.6,,*66
$GNGGA,112359.00,0419.75938,S,05539.87108,E,1,08,0.94,21.0,M,-47.6,M,,*4C
$GNGSA,A,3,32,28,18,29,16,10,,,,,,,1.97,0.94,1.73*14
$GNGSA,A,3,71,83,,,,,,,,,,,1.97,0.94,1.73*16
$GPGSV,4,1,16,10,21,350,18,16,25,258,25,18,30,064,26,23,06,027,*70
$GPGSV,4,2,16,25,05,135,20,26,30,227,27,27,30,321,23,28,39,168,33*72
$GPGSV,4,3,16,29,27,145,23,31,24,197,22,32,75,348,36,36,52,277,32*75
$GPGSV,4,4,16,40,84,354,,41,58,082,,49,32,274,,50,10,089,*7E
$GLGSV,3,1,09,70,38,350,,71,55,277,25,72,21,224,20,73,15,159,20*68
$GLGSV,3,2,09,74,15,205,,75,00,250,,83,20,125,21,84,44,063,*6D
$GLGSV,3,3,09,85,24,003,19*5C
$GNGLL,0419.75938,S,05539.87108,E,112359.00,A,A*67
$GNGRS,112359.00,1,-4.6,2.1,-2.6,-5.1,4.9,-13.0,,,,,,*63
$GNGRS,112359.00,1,3.2,18.4,,,,,,,,,,*61
$GNGST,112359.00,41,,,,5.2,4.9,11*65
$GNZDA,112359.00,27,05,2025,00,00*70
$GNGBS,112359.00,5.2,4.9,10.7,,,,*6E
b0@6
^R@ A!' !K\E{!4Tb:R 
YeF&^G7H
IJKS}T,?Uab6V$GNRMC,112400.00,A,0419.75933,S,05539.87111,E,0.136,,270525,,,A*75
$GNVTG,,T,,M,0.136,N,0.251,K,A*3F
$GNGNS,112400.00,0419.75933,S,05539.87111,E,AA,08,0.94,20.3,-47.6,,*6C
$GNGGA,112400.00,0419.75933,S,05539.87111,E,1,08,0.94,20.3,M,-47.6,M,,*46
$GNGSA,A,3,32,28,18,29,16,10,,,,,,,1.97,0.94,1.73*14
$GNGSA,A,3,71,83,,,,,,,,,,,1.97,0.94,1.73*16
$GPGSV,4,1,16,10,21,350,16,16,25,258,25,18,30,064,25,23,06,027,*7D
$GPGSV,4,2,16,25,05,135,20,26,30,227,27,27,30,321,23,28,39,168,33*72
$GPGSV,4,3,16,29,27,145,23,31,24,197,21,32,75,348,33,36,52,277,33*72
$GPGSV,4,4,16,40,84,354,,41,58,082,,49,32,274,,50,10,089,*7E
$GLGSV,3,1,09,70,38,350,,71,55,277,26,72,21,224,20,73,15,159,20*6B
$GLGSV,3,2,09,74,15,205,,75,00,250,,83,20,125,21,84,44,063,*6D
$GLGSV,3,3,09,85,24,003,19*5C
$GNGLL,0419.75933,S,05539.87111,E,112400.00,A,A*6F
$GNGRS,112400.00,1,-4.4,4.0,-3.0,-5.3,4.6,21.3,,,,,,*48
$GNGRS,112400.00,1,2.2,19.3,,,,,,,,,,*6D
$GNGST,112400.00,41,,,,5.2,5.0,11*66
$GNZDA,112400.00,27,05,2025,00,00*7B
$GNGBS,112400.00,5.2,5.0,10.9,,,,*63
$GNRMC,112401.00,A,0419.75932,S,05539.87110,E,0.121,,270525,,,A*72
$GNVTG,,T,,M,0.121,N,0.224,K,A*3B
$GNGNS,112401.00,0419.75932,S,05539.87110,E,AA,08,0.94,19.8,-47.6,,*6C
$GNGGA,112401.00,0419.75932,S,05539.87110,E,1,08,0.94,19.8,M,-47.6,M,,*46
$GNGSA,A,3,32,28,18,29,16,10,,,,,,,1.97,0.94,1.73*14
$GNGSA,A,3,71,83,,,,,,,,,,,1.97,0.94,1.73*16
$GPGSV,4,1,16,10,21,350,15,16,25,258,25,18,30,064,23,23,06,027,*78
$GPGSV,4,2,16,25,05,135,19,26,30,227,26,27,30,321,22,28,39,168,32*79
$GPGSV,4,3,16,29,27,145,22,31,24,197,22,32,75,348,32,36,52,277,32*70
$GPGSV,4,4,16,40,84,354,,41,58,082,,49,32,274,,50,10,089,*7E
$GLGSV,3,1,09,70,38,350,,71,55,277,27,72,21,224,21,73,15,159,21*6A
$GLGSV,3,2,09,74,15,205,,75,00,250,,83,20,125,22,84,44,063,*6E
$GLGSV,3,3,09,85,24,003,19*5C
$GNGLL,0419.75932,S,05539.87110,E,112401.00,A,A*6E
$GNGRS,112401.00,1,-7.1,2.2,-0.4,-4.7,5.2,20.6,,,,,,*48
$GNGRS,112401.00,1,0.4,17.1,,,,,,,,,,*64
$GNGST,112401.00,41,,,,5.2,5.1,11*66
$GNZDA,112401.00,27,05,2025,00,00*7A
$GNGBS,112401.00,5.2,5.1,11.0,,,,*6B
$GNRMC,112402.00,A,0419.75926,S,05539.87116,E,0.290,,270525,,,A*7B
$GNVTG,,T,,M,0.290,N,0.538,K,A*38
$GNGNS,112402.00,0419.75926,S,05539.87116,E,AA,08,0.94,19.4,-47.6,,*60
$GNGGA,112402.00,0419.75926,S,05539.87116,E,1,08,0.94,19.4,M,-47.6,M,,*4A
$GNGSA,A,3,32,28,18,29,16,10,,,,,,,1.97,0.94,1.73*14
$GNGSA,A,3,71,83,,,,,,,,,,,1.97,0.94,1.73*16
$GPGSV,4,1,16,10,21,350,15,16,25,258,23,18,30,064,21,23,06,027,*7C
$GPGSV,4,2,16,25,05,135,17,26,30,227,25,27,30,321,23,28,39,168,33*74
$GPGSV,4,3,16,29,27,145,23,31,24,197,24,32,75,348,31,36,52,277,32*74
$GPGSV,4,4,16,40,84,354,,41,58,082,,49,32,274,,50,10,089,*7E
$GLGSV,3,1,09,70,38,350,,71,55,277,27,72,21,224,21,73,15,159,22*69
$GLGSV,3,2,09,74,15,205,,75,00,250,,83,20,125,21,84,44,063,*6D
$GLGSV,3,3,09,85,24,003,20*56
$GNGLL,0419.75926,S,05539.87116,E,112402.00,A,A*6E
$GNGRS,112402.00,1,-8.1,3.2,1.2,-0.7,5.1,24.1,,,,,,*6B
$GNGRS,112402.00,1,0.2,17.6,,,,,,,,,,*66
$GNGST,112402.00,43,,,,5.2,5.1,11*67
$GNZDA,112402.00,27,05,2025,00,00*79
$GNGBS,112402.00,5.2,5.1,11.2,,,,*6A
b0@B
^@NA#':Z !K\q{4Tb:R 
YeF&^G7H
IJKS}T,?U
bB|$GNRMC,112403.00,A,0419.75909,S,05539.87123,E,0.237,,270525,,,A*7C
$GNVTG,,T,,M,0.237,N,0.439,K,A*35
$GNGNS,112403.00,0419.75909,S,05539.87123,E,AA,08,0.94,18.1,-47.6,,*6E
$GNGGA,112403.00,0419.75909,S,05539.87123,E,1,08,0.94,18.1,M,-47.6,M,,*44
$GNGSA,A,3,32,28,18,29,16,10,,,,,,,1.97,0.94,1.73*14
$GNGSA,A,3,71,83,,,,,,,,,,,1.97,0.94,1.73*16
$GPGSV,4,1,16,10,21,350,16,16,25,258,23,18,30,064,22,23,06,027,*7C
$GPGSV,4,2,16,25,05,135,17,26,30,227,25,27,30,321,23,28,39,168,35*72
$GPGSV,4,3,16,29,27,145,24,31,24,197,24,32,75,348,33,36,52,277,31*72
$GPGSV,4,4,16,40,84,354,,41,58,082,,49,32,274,,50,10,089,*7E
$GLGSV,3,1,09,70,38,350,,71,55,277,26,72,21,224,21,73,15,159,21*6B
$GLGSV,3,2,09,74,15,205,,75,00,250,,83,20,125,21,84,44,063,*6D
$GLGSV,3,3,09,85,24,003,20*56
$GNGLL,0419.75909,S,05539.87123,E,112403.00,A,A*64
$GNGRS,112403.00,1,-6.5,0.6,3.3,-1.7,6.6,20.6,,,,,,*62
$GNGRS,112403.00,1,1.4,15.3,,,,,,,,,,*67
$GNGST,112403.00,41,,,,5.2,5.1,11*64
$GNZDA,112403.00,27,05,2025,00,00*78
$GNGBS,112403.00,5.2,5.1,11.3,,,,*6A
b0@pF
^@QA"'1 "K\{4Tb:R 
YeF&^G7.H
IJKS}T,?UbpFd$GNRMC,112404.00,A,0419.75908,S,05539.87122,E,0.073,,270525,,,A*79
$GNVTG,,T,,M,0.073,N,0.135,K,A*3E
$GNGNS,112404.00,0419.75908,S,05539.87122,E,AA,08,0.94,17.3,-47.6,,*64
$GNGGA,112404.00,0419.75908,S,05539.87122,E,1,08,0.94,17.3,M,-47.6,M,,*4E
$GNGSA,A,3,32,28,18,29,16,10,,,,,,,1.97,0.94,1.73*14
$GNGSA,A,3,71,83,,,,,,,,,,,1.97,0.94,1.73*16
$GPGSV,4,1,16,10,21,350,17,16,25,258,23,18,30,064,21,23,06,027,*7E
$GPGSV,4,2,16,25,05,135,18,26,30,227,24,27,30,321,23,28,39,168,34*7D
$GPGSV,4,3,16,29,27,145,24,31,24,197,23,32,75,348,34,36,52,277,30*73
$GPGSV,4,4,16,40,84,354,,41,58,082,,49,32,274,,50,10,089,*7E
$GLGSV,3,1,09,70,38,350,,71,55,277,26,72,21,224,19,73,15,159,21*60
$GLGSV,3,2,09,74,15,205,,75,00,250,,83,20,125,21,84,44,063,*6D
$GLGSV,3,3,09,85,24,003,21*57
$GNGLL,0419.75908,S,05539.87122,E,112404.00,A,A*63
$GNGRS,112404.00,1,-7.6,1.4,3.4,-4.6,6.5,16.9,,,,,,*6E
$GNGRS,112404.00,1,0.5,14.8,,,,,,,,,,*6A
$GNGST,112404.00,41,,,,5.2,5.2,11*60
$GNZDA,112404.00,27,05,2025,00,00*7F
$GLGSV,3,1,09,70,38,350,,71,55,277,26,72,21,224,19,73,15,159,21*60
$GLGSV,3,2,09,74,15,205,,75,00,250,,83,20,125,21,84,44,063,*6D
$GLGSV,3,3,09,85,24,003,21*57
$GNGLL,0419.75905,S,05539.87120,E,112405.00,A,A*6D
$GNGRS,112405.00,1,-9.0,0.1,7.5,-5.0,5.3,12.3,,,,,,*6A
$GNGRS,112405.00,1,-1.6,13.3,,,,,,,,,,*48
$GNGST,112405.00,41,,,,5.2,5.4,12*64
$GNZDA,112405.00,27,05,2025,00,00*7E
$GNGBS,112405.00,5.2,5.4,11.6,,,,*6C
b0@@N
^AA$'  K\{4Tb:R 
YeCF&^G7H
IJKS}T,?UzOb@N4/$GNRMC,112406.00,A,0419.75892,S,05539.87124,E,0.139,,270525,,,A*70
$GNVTG,,T,,M,0.139,N,0.257,K,A*36
$GNGNS,112406.00,0419.75892,S,05539.87124,E,AA,08,0.94,15.5,-47.6,,*66
$GNGGA,112406.00,0419.75892,S,05539.87124,E,1,08,0.94,15.5,M,-47.6,M,,*4C
$GNGSA,A,3,32,28,18,29,16,10,,,,,,,1.97,0.94,1.73*14
$GNGSA,A,3,71,83,,,,,,,,,,,1.97,0.94,1.73*16
$GPGSV,4,1,16,10,21,350,16,16,25,258,23,18,30,065,23,23,06,027,*7C
$GPGSV,4,2,16,25,05,135,19,26,30,227,25,27,30,321,24,28,39,168,36*78
$GPGSV,4,3,16,29,27,145,25,31,24,197,23,32,75,348,32,36,52,277,31*75
$GPGSV,4,4,16,40,84,354,,41,58,082,,49,32,274,,50,10,089,*7E
$GLGSV,3,1,09,70,38,350,,71,55,277,27,72,21,224,19,73,15,159,21*61
$GLGSV,3,2,09,74,15,205,,75,00,250,,83,20,125,21,84,44,063,*6D
$GLGSV,3,3,09,85,24,003,22*54
