$GNTXT,01,01,01,More than 100 frame errors, UART RX was disabled*70
b0X.:7/E]
q>N
*{4V^:R 
YdE{FI:JXOP0~ST"NU"Vgb.O1$GNRMC,045800.00,A,0419.78248,S,05539.81026,E,1.286,,210525,,,A*7C
$GNVTG,,T,,M,1.286,N,2.381,K,A*38
$GNGNS,045800.00,0419.78248,S,05539.81026,E,AA,11,0.85,36.6,-47.6,,*60
$GNGGA,045800.00,0419.78248,S,05539.81026,E,1,11,0.85,36.6,M,-47.6,M,,*4A
$GNGSA,A,3,24,20,05,13,15,22,12,,,,,,1.80,0.85,1.59*11
$GNGSA,A,3,84,80,73,85,,,,,,,,,1.80,0.85,1.59*18
$GPGSV,5,1,17,05,58,134,25,11,24,020,11,12,31,000,19,13,20,158,20*71
$GPGSV,5,2,17,14,03,128,11,15,27,193,18,18,21,230,18,20,47,069,28*70
$GPGSV,5,3,17,22,18,113,18,24,62,247,27,25,08,334,,29,10,298,17*78
$GPGSV,5,4,17,36,52,277,,40,86,350,,41,58,082,,49,32,274,*7D
$GPGSV,5,5,17,50,10,089,*4A
$GLGSV,3,1,10,69,12,123,,70,15,186,,73,58,011,24,74,17,344,*6F
$GLGSV,3,2,10,79,01,149,,80,48,126,16,83,01,017,,84,34,334,20*61
$GLGSV,3,3,10,85,34,269,26,86,02,223,*68
$GNGLL,0419.78248,S,05539.81026,E,045800.00,A,A*69
$GNGRS,045800.00,1,6.8,3.5,-2.8,-8.2,0.2,-7.7,1.3,,,,,*52
$GNGRS,045800.00,1,2.0,1.9,-0.4,2.5,,,,,,,,*7D
$GNGST,045800.00,48,,,,4.7,5.6,13*60
$GNZDA,045800.00,21,05,2025,00,00*72
$GNGBS,045800.00,4.7,5.6,13.4,,,,*60
$GNTXT,01,01,01,More than 100 frame errors, UART RX was disabled*70
b0X1:m_/E
r>`N
*{4V^:R 
YdE{FI:JXOP0~ST"NU"^V~b1O1n$GNRMC,045801.00,A,0419.78231,S,05539.81042,E,1.133,,210525,,,A*7C
$GNVTG,,T,,M,1.133,N,2.098,K,A*3E
$GNGNS,045801.00,0419.78231,S,05539.81042,E,AA,11,0.85,36.4,-47.6,,*6F
$GNGGA,045801.00,0419.78231,S,05539.81042,E,1,11,0.85,36.4,M,-47.6,M,,*45
$GNGSA,A,3,24,20,05,13,15,22,12,,,,,,1.80,0.85,1.59*11
$GNGSA,A,3,84,80,73,85,,,,,,,,,1.80,0.85,1.59*18
$GPGSV,5,1,17,05,58,134,23,11,24,020,14,12,31,000,14,13,20,158,19*75
$GPGSV,5,2,17,14,03,128,,15,27,193,14,18,21,230,16,20,47,069,21*7B
$GPGSV,5,3,17,22,17,114,16,24,62,247,26,25,08,334,,29,10,298,11*79
$GPGSV,5,4,17,36,52,277,,40,86,350,,41,58,082,,49,32,274,*7D
$GPGSV,5,5,17,50,10,089,*4A
$GLGSV,3,1,10,69,12,123,,70,15,186,,73,58,011,27,74,17,344,*6C
$GLGSV,3,2,10,79,01,149,,80,48,126,19,83,01,017,,84,34,334,19*64
$GLGSV,3,3,10,85,34,269,24,86,02,223,*6A
$GNGLL,0419.78231,S,05539.81042,E,045801.00,A,A*64
$GNGRS,045801.00,1,6.1,1.6,-2.6,-5.8,1.0,-5.1,7.5,,,,,*55
$GNGRS,045801.00,1,2.6,1.4,0.0,0.9,,,,,,,,*50
$GNGST,045801.00,50,,,,4.8,5.6,14*60
$GNZDA,045801.00,21,05,2025,00,00*73
$GNGBS,045801.00,4.8,5.6,13.6,,,,*6C
$GNTXT,01,01,01,More than 100 frame errors, UART RX was disabled*70
b0d5:/E2
rm>&N
*{4V^:R 
YdE{FI%:JXOP0~ST"NU"Vb5Om1FD$GNRMC,045802.00,A,0419.78231,S,05539.81026,E,0.537,,210525,,,A*7C
$GNVTG,,T,,M,0.537,N,0.994,K,A*38
$GNGNS,045802.00,0419.78231,S,05539.81026,E,AA,11,0.85,36.5,-47.6,,*6F
$GNGGA,045802.00,0419.78231,S,05539.81026,E,1,11,0.85,36.5,M,-47.6,M,,*45
$GNGSA,A,3,24,20,05,13,15,22,12,,,,,,1.80,0.85,1.59*11
$GNGSA,A,3,84,80,73,85,,,,,,,,,1.80,0.85,1.59*18
$GPGSV,5,1,18,05,58,134,22,11,24,020,14,12,31,000,18,13,20,158,19*77
$GPGSV,5,2,18,14,03,128,,15,27,193,28,18,21,230,14,20,47,069,21*79
$GPGSV,5,3,18,22,17,114,16,23,00,214,,24,62,247,24,25,08,334,*7B
$GPGSV,5,4,18,29,10,298,09,36,52,277,,40,86,350,,41,58,082,*7F
$GPGSV,5,5,18,49,32,274,,50,10,089,*78
$GLGSV,3,1,10,69,12,123,,70,15,186,,73,58,011,37,74,17,344,*6D
$GLGSV,3,2,10,79,01,149,,80,48,126,22,83,01,017,,84,34,334,21*67
$GLGSV,3,3,10,85,34,269,25,86,02,223,*6B
$GNGLL,0419.78231,S,05539.81026,E,045802.00,A,A*65
$GNGRS,045802.00,1,10.6,10.7,-0.3,-7.7,3.8,-4.0,7.1,,,,,*53
$GNGRS,045802.00,1,1.3,2.7,-0.3,0.1,,,,,,,,*73
$GNGST,045802.00,45,,,,4.9,5.7,14*67
$GNZDA,045802.00,21,05,2025,00,00*70
$GNGBS,045802.00,4.9,5.7,13.6,,,,*6F
$GNTXT,01,01,01,More than 100 frame errors, UART RX was disabled*70
b0d9:Xz/ER
r>N
*{4V^:R 
Yd3E{FI#:_JXOP0~ST"N4U"PVb9OU1$GNRMC,045803.00,A,0419.78250,S,05539.81033,E,0.603,,210525,,,A*7A
$GNVTG,,T,,M,0.603,N,1.117,K,A*3E
$GNGNS,045803.00,0419.78250,S,05539.81033,E,AA,12,0.85,37.0,-47.6,,*6A
$GNGGA,045803.00,0419.78250,S,05539.81033,E,1,12,0.85,37.0,M,-47.6,M,,*40
$GNGSA,A,3,24,20,11,05,13,15,22,12,,,,,1.80,0.85,1.59*11
$GNGSA,A,3,84,80,73,85,,,,,,,,,1.80,0.85,1.59*18
$GPGSV,5,1,18,05,58,134,22,11,24,020,14,12,31,000,19,13,20,158,18*77
$GPGSV,5,2,18,14,03,128,,15,27,193,28,18,21,230,14,20,47,069,22*7A
$GPGSV,5,3,18,22,17,114,17,23,00,214,,24,62,245,24,25,08,334,*78
$GPGSV,5,4,18,29,10,298,08,36,52,277,,40,86,350,,41,58,082,*7E
$GPGSV,5,5,18,49,32,274,,50,10,089,*78
$GLGSV,3,1,10,69,12,123,,70,15,186,,73,58,011,35,74,17,344,*6F
$GLGSV,3,2,10,79,01,149,,80,48,126,23,83,01,017,,84,34,334,22*65
$GLGSV,3,3,10,85,34,269,25,86,02,223,*6B
$GNGLL,0419.78250,S,05539.81033,E,045803.00,A,A*67
$GNGRS,045803.00,1,12.1,8.5,37.6,1.8,-5.7,3.8,-2.4,8.6,,,,*5F
$GNGRS,045803.00,1,0.5,2.6,-1.6,-1.8,,,,,,,,*55
$GNGST,045803.00,45,,,,4.8,5.8,14*68
$GNZDA,045803.00,21,05,2025,00,00*71
$GNGBS,045803.00,4.8,5.8,13.8,,,,*6E
$GNTXT,01,01,01,More than 100 frame errors, UART RX was disabled*70
b0d=:/E
rA>O
*{4V^:R 
YdE{FI':JXOP0~YST"NU"&VSb=O=1$GNRMC,045804.00,A,0419.78302,S,05539.81047,E,0.486,,210525,,,A*77
$GNVTG,,T,,M,0.486,N,0.901,K,A*3F
$GNGNS,045804.00,0419.78302,S,05539.81047,E,AA,12,0.85,35.3,-47.6,,*69
$GNGGA,045804.00,0419.78302,S,05539.81047,E,1,12,0.85,35.3,M,-47.6,M,,*43
$GNGSA,A,3,24,20,11,05,13,15,22,12,,,,,1.80,0.85,1.59*11
$GNGSA,A,3,84,80,73,85,,,,,,,,,1.80,0.85,1.59*18
$GPGSV,5,1,18,05,58,134,25,11,24,020,18,12,31,000,24,13,20,158,16*7C
$GPGSV,5,2,18,14,03,128,,15,27,193,29,18,21,230,17,20,47,069,22*78
$GPGSV,5,3,18,22,17,114,16,23,00,214,,24,62,245,24,25,08,335,*78
$GPGSV,5,4,18,29,10,298,08,36,52,277,,40,86,350,,41,58,082,*7E
$GPGSV,5,5,18,49,32,274,,50,10,089,*78
$GLGSV,3,1,10,69,12,123,,70,15,186,,73,58,011,39,74,17,344,*63
$GLGSV,3,2,10,79,01,149,,80,48,126,22,83,01,017,,84,34,334,22*64
$GLGSV,3,3,10,85,34,269,27,86,02,223,*69
$GNGLL,0419.78302,S,05539.81047,E,045804.00,A,A*65
$GNGRS,045804.00,1,13.0,12.6,24.4,4.0,-7.9,4.5,-4.5,9.2,,,,*69
$GNGRS,045804.00,1,-0.1,3.4,-5.5,-2.2,,,,,,,,*76
$GNGST,045804.00,49,,,,4.7,5.8,14*6C
$GNZDA,045804.00,21,05,2025,00,00*76
$GNGBS,045804.00,4.7,5.8,13.8,,,,*66
$GNTXT,01,01,01,More than 100 frame errors, UART RX was disabled*70
b0dA:\/Ec
r>iO
*{4V^:R 
YdE{FI':JXOP0~ST"NU"DVbAO%1|$GNRMC,045805.00,A,0419.78322,S,05539.81047,E,0.084,,210525,,,A*72
$GNVTG,,T,,M,0.084,N,0.156,K,A*33
$GNGNS,045805.00,0419.78322,S,05539.81047,E,AA,12,0.76,33.3,-47.6,,*60
$GNGGA,045805.00,0419.78322,S,05539.81047,E,1,12,0.76,33.3,M,-47.6,M,,*4A
$GNGSA,A,3,24,20,11,05,13,15,22,12,,,,,1.53,0.76,1.33*1F
$GNGSA,A,3,84,80,73,85,,,,,,,,,1.53,0.76,1.33*16
$GPGSV,5,1,18,05,58,134,27,11,24,020,22,12,31,000,27,13,20,158,14*76
$GPGSV,5,2,18,14,03,128,,15,27,193,29,18,21,230,18,20,47,069,30*74
$GPGSV,5,3,18,22,17,114,15,23,00,214,,24,62,245,22,25,08,335,*7D
$GPGSV,5,4,18,29,10,298,08,36,52,277,,40,86,350,,41,58,082,*7E
$GPGSV,5,5,18,49,32,274,,50,10,089,*78
$GLGSV,3,1,10,69,12,123,,70,15,186,,73,58,011,39,74,17,344,*63
$GLGSV,3,2,10,79,01,149,,80,48,126,21,83,01,017,,84,34,334,22*67
$GLGSV,3,3,10,85,34,269,28,86,02,223,*66
$GNGLL,0419.78322,S,05539.81047,E,045805.00,A,A*66
$GNGRS,045805.00,1,13.8,-6.7,18.1,5.0,-9.3,4.6,0.0,7.3,,,,*56
$GNGRS,045805.00,1,2.4,4.9,-3.8,-1.9,,,,,,,,*54
$GNGST,045805.00,54,,,,4.6,5.7,14*6F
$GNZDA,045805.00,21,05,2025,00,00*77
$GNGBS,045805.00,4.6,5.7,13.5,,,,*64
$GNTXT,01,01,01,More than 100 frame errors, UART RX was disabled*70
b0dE:e_|5/E
rS>O
*{4V^:R 
YdmE{FI":JXOP0~#ST"NU"VbEO1$GNRMC,045806.00,A,0419.78336,S,05539.81020,E,0.405,,210525,,,A*78
$GNVTG,,T,,M,0.405,N,0.751,K,A*3F
$GNGNS,045806.00,0419.78336,S,05539.81020,E,AA,12,0.76,33.5,-47.6,,*61
$GNGGA,045806.00,0419.78336,S,05539.81020,E,1,12,0.76,33.5,M,-47.6,M,,*4B
$GNGSA,A,3,24,20,11,05,13,15,22,12,,,,,1.53,0.76,1.33*1F
$GNGSA,A,3,84,80,73,85,,,,,,,,,1.53,0.76,1.33*16
$GPGSV,5,1,18,05,58,134,27,11,24,020,24,12,31,000,28,13,20,158,13*78
$GPGSV,5,2,18,14,03,128,,15,27,193,29,18,21,230,21,20,47,069,30*7E
$GPGSV,5,3,18,22,17,114,15,23,00,214,,24,62,245,29,25,08,335,*76
$GPGSV,5,4,18,29,10,298,09,36,52,277,,40,86,350,,41,58,082,*7F
$GPGSV,5,5,18,49,32,274,,50,10,089,*78
$GLGSV,3,1,10,69,12,123,,70,15,186,,73,58,011,34,74,17,344,*6E
$GLGSV,3,2,10,79,01,149,,80,48,126,22,83,01,017,,84,34,334,22*64
$GLGSV,3,3,10,85,34,269,27,86,02,223,*69
$GNGLL,0419.78336,S,05539.81020,E,045806.00,A,A*61
$GNGRS,045806.00,1,9.8,-12.8,11.2,4.0,-11.6,5.7,0.8,-1.6,,,,*45
$GNGRS,045806.00,1,2.2,2.9,-5.3,-2.8,,,,,,,,*58
$GNGST,045806.00,44,,,,4.5,5.6,13*68
$GNZDA,045806.00,21,05,2025,00,00*74
$GNGBS,045806.00,4.5,5.6,13.2,,,,*62
$GNTXT,01,01,01,More than 100 frame errors, UART RX was disabled*70
b0dhI:k/E
rp>"O

*{4V^:R 
YdrE{FI:JXOP0~ST"NlU"VYbhIO1}I$GNRMC,045807.00,A,0419.78346,S,05539.81000,E,0.874,,210525,,,A*76
$GNVTG,,T,,M,0.874,N,1.619,K,A*39
$GNGNS,045807.00,0419.78346,S,05539.81000,E,AA,12,0.76,33.4,-47.6,,*64
$GNGGA,045807.00,0419.78346,S,05539.81000,E,1,12,0.76,33.4,M,-47.6,M,,*4E
$GNGSA,A,3,24,20,11,05,13,15,22,12,,,,,1.53,0.76,1.33*1F
$GNGSA,A,3,84,80,73,85,,,,,,,,,1.53,0.76,1.33*16
$GPGSV,5,1,18,05,58,134,24,11,24,020,24,12,31,000,27,13,20,158,16*71
$GPGSV,5,2,18,14,03,128,,15,27,193,26,18,21,230,22,20,47,069,23*70
$GPGSV,5,3,18,22,17,114,14,23,00,214,,24,62,245,29,25,08,335,*77
$GPGSV,5,4,18,29,10,298,10,36,52,277,,40,86,350,,41,58,082,*77
$GPGSV,5,5,18,49,32,274,,50,10,089,*78
$GLGSV,3,1,10,69,12,123,,70,15,186,,73,58,011,31,74,17,344,*6B
$GLGSV,3,2,10,79,01,149,,80,48,126,23,83,01,017,,84,34,334,21*66
$GLGSV,3,3,10,85,34,269,19,86,02,223,*64
$GNGLL,0419.78346,S,05539.81000,E,045807.00,A,A*65
$GNGRS,045807.00,1,0.3,-2.7,5.1,4.2,-11.1,6.2,1.1,-3.6,,,,*47
$GNGRS,045807.00,1,1.1,0.2,-5.3,-3.7,,,,,,,,*5E
$GNGST,045807.00,48,,,,4.5,5.5,13*66
$GNZDA,045807.00,21,05,2025,00,00*75
$GNGBS,045807.00,4.5,5.5,13.1,,,,*63
$GNTXT,01,01,01,More than 100 frame errors, UART RX was disabled*70
b0dPM:*ct/E<
r">O
+{4V^:R 
YdE{FI:JXOP0~ST"NU"VObPMO1U$GNRMC,045808.00,A,0419.78341,S,05539.81025,E,0.284,,210525,,,A*7C
$GNVTG,,T,,M,0.284,N,0.525,K,A*31
$GNGNS,045808.00,0419.78341,S,05539.81025,E,AA,11,0.83,32.6,-47.6,,*61
$GNGGA,045808.00,0419.78341,S,05539.81025,E,1,11,0.83,32.6,M,-47.6,M,,*4B
$GNGSA,A,3,24,20,11,05,13,15,22,12,,,,,1.72,0.83,1.50*13
$GNGSA,A,3,80,73,85,,,,,,,,,,1.72,0.83,1.50*16
$GPGSV,5,1,18,05,58,134,26,11,24,020,24,12,31,000,25,13,20,158,15*72
$GPGSV,5,2,18,14,03,128,,15,27,193,26,18,21,230,21,20,47,069,24*74
$GPGSV,5,3,18,22,17,114,15,23,00,214,,24,62,245,34,25,08,335,*7A
$GPGSV,5,4,18,29,10,299,09,36,52,277,,40,86,350,,41,58,082,*7E
$GPGSV,5,5,18,49,32,274,,50,10,089,*78
$GLGSV,3,1,10,69,12,123,,70,15,186,,73,58,011,29,74,17,344,*62
$GLGSV,3,2,10,79,01,149,,80,48,126,23,83,01,017,,84,34,334,*65
$GLGSV,3,3,10,85,34,269,20,86,02,223,*6E
$GNGLL,0419.78341,S,05539.81025,E,045808.00,A,A*6A
$GNGRS,045808.00,1,-10.0,-2.0,4.0,0.4,-7.8,11.4,-0.6,6.1,,,,*58
$GNGRS,045808.00,1,1.3,-6.2,-5.2,,,,,,,,,*7E
$GNGST,045808.00,44,,,,4.5,5.5,13*65
$GNZDA,045808.00,21,05,2025,00,00*7A
$GNGBS,045808.00,4.5,5.5,13.0,,,,*6D
$GNTXT,01,01,01,More than 100 frame errors, UART RX was disabled*70
b0d8Q:x3/E9
r>O
+{4V^:R 
YdE{FI:JXOP0~ST"NU"Vb8QO1-$GNRMC,045809.00,A,0419.78324,S,05539.81014,E,0.897,,210525,,,A*74
$GNVTG,,T,,M,0.897,N,1.661,K,A*3B
$GNGNS,045809.00,0419.78324,S,05539.81014,E,AA,11,0.81,31.4,-47.6,,*62
$GNGGA,045809.00,0419.78324,S,05539.81014,E,1,11,0.81,31.4,M,-47.6,M,,*48
$GNGSA,A,3,24,20,11,05,13,15,22,12,,,,,1.57,0.81,1.35*15
$GNGSA,A,3,80,73,85,,,,,,,,,,1.57,0.81,1.35*10
$GPGSV,5,1,18,05,58,134,27,11,24,020,23,12,31,000,21,13,20,158,16*73
$GPGSV,5,2,18,14,03,128,,15,27,193,26,18,21,230,22,20,47,069,31*73
$GPGSV,5,3,18,22,17,114,16,23,00,214,,24,62,245,28,25,08,335,*74
$GPGSV,5,4,18,29,10,299,12,36,52,277,,40,86,350,,41,58,082,*74
$GPGSV,5,5,18,49,32,274,,50,10,089,*78
$GLGSV,3,1,10,69,12,123,,70,15,186,,73,58,011,24,74,17,344,*6F
$GLGSV,3,2,10,79,01,149,,80,48,126,24,83,01,017,,84,34,334,*62
$GLGSV,3,3,10,85,34,269,21,86,02,223,*6F
$GNGLL,0419.78324,S,05539.81014,E,045809.00,A,A*6A
$GNGRS,045809.00,1,-5.0,0.6,4.7,1.9,-6.5,13.3,0.3,12.1,,,,*5B
$GNGRS,045809.00,1,1.7,-7.5,-5.2,,,,,,,,,*7D
$GNGST,045809.00,46,,,,4.5,5.5,13*66
$GNZDA,045809.00,21,05,2025,00,00*7B
$GNGBS,045809.00,4.5,5.5,12.9,,,,*64
$GNTXT,01,01,01,More than 100 frame errors, UART RX was disabled*70
b0d U:/E
r>O
+{4V^:R 
YdE{FI:JXOP0~ST"NU"V<b UO1$GNRMC,045810.00,A,0419.78332,S,05539.80998,E,0.577,,210525,,,A*74
$GNVTG,,T,,M,0.577,N,1.069,K,A*36
$GNGNS,045810.00,0419.78332,S,05539.80998,E,AA,11,0.81,30.3,-47.6,,*67
$GNGGA,045810.00,0419.78332,S,05539.80998,E,1,11,0.81,30.3,M,-47.6,M,,*4D
$GNGSA,A,3,24,20,11,05,13,15,22,12,,,,,1.57,0.81,1.35*15
$GNGSA,A,3,80,73,85,,,,,,,,,,1.57,0.81,1.35*10
$GPGSV,5,1,18,05,58,134,25,11,24,020,22,12,31,000,29,13,20,158,18*76
$GPGSV,5,2,18,14,03,128,,15,27,193,26,18,21,230,25,20,47,069,26*72
$GPGSV,5,3,18,22,17,114,16,23,00,214,,24,62,245,27,25,08,335,*7B
$GPGSV,5,4,18,29,10,299,14,36,52,277,,40,86,350,,41,58,082,*72
$GPGSV,5,5,18,49,32,274,,50,10,089,*78
$GLGSV,3,1,10,69,12,123,,70,15,186,,73,58,011,27,74,17,344,*6C
$GLGSV,3,2,10,79,01,149,,80,48,126,30,83,01,017,,84,34,334,*67
$GLGSV,3,3,10,85,34,269,22,86,02,223,*6C
$GNGLL,0419.78332,S,05539.80998,E,045810.00,A,A*69
$GNGRS,045810.00,1,2.2,-3.6,4.3,-0.3,-5.0,7.6,-0.6,4.4,,,,*5B
$GNGRS,045810.00,1,0.2,-2.8,-5.0,,,,,,,,,*7B
$GNGST,045810.00,43,,,,4.5,5.5,13*6B
$GNZDA,045810.00,21,05,2025,00,00*73
$GNGBS,045810.00,4.5,5.5,12.9,,,,*6C
$GNTXT,01,01,01,More than 100 frame errors, UART RX was disabled*70
b0dY:]/E
rj>O
+{4V^:R 
YdE{FI:9JXOP%0~ST"NU"VLbYO1$GNRMC,045811.00,A,0419.78352,S,05539.80971,E,0.952,,210525,,,A*7F
$GNVTG,,T,,M,0.952,N,1.762,K,A*31
$GNGNS,045811.00,0419.78352,S,05539.80971,E,AA,11,0.81,29.6,-47.6,,*6A
$GNGGA,045811.00,0419.78352,S,05539.80971,E,1,11,0.81,29.6,M,-47.6,M,,*40
$GNGSA,A,3,24,20,11,05,13,15,22,12,,,,,1.57,0.81,1.35*15
$GNGSA,A,3,80,73,85,,,,,,,,,,1.57,0.81,1.35*10
$GPGSV,5,1,18,05,58,134,24,11,24,020,24,12,31,000,27,13,20,158,20*74
$GPGSV,5,2,18,14,03,128,,15,27,193,24,18,21,230,25,20,47,069,24*72
$GPGSV,5,3,18,22,17,114,14,23,00,214,,24,62,245,25,25,08,335,*7B
$GPGSV,5,4,18,29,10,299,17,36,52,277,,40,86,350,,41,58,082,*71
$GPGSV,5,5,18,49,32,274,,50,10,089,*78
$GLGSV,3,1,10,69,12,123,,70,15,186,,73,58,011,29,74,17,344,*62
$GLGSV,3,2,10,79,01,149,,80,48,126,37,83,01,017,,84,34,334,*60
$GLGSV,3,3,10,85,34,269,21,86,02,223,*6F
$GNGLL,0419.78352,S,05539.80971,E,045811.00,A,A*69
$GNGRS,045811.00,1,12.0,-8.4,7.2,1.6,-4.2,12.6,-1.5,-1.1,,,,*53
$GNGRS,045811.00,1,2.5,-2.0,-6.2,,,,,,,,,*76
$GNGST,045811.00,47,,,,4.4,5.5,13*6F
$GNZDA,045811.00,21,05,2025,00,00*72
$GNGBS,045811.00,4.4,5.5,12.7,,,,*62
$GNTXT,01,01,01,More than 100 frame errors, UART RX was disabled*70
b0d\:F^*/E
r>O
+{4V^:R 
YdE{FI:JXOP&0~ST"NU"Vb\O}1B$GNRMC,045812.00,A,0419.78392,S,05539.80993,E,0.327,,210525,,,A*74
$GNVTG,,T,,M,0.327,N,0.605,K,A*38
$GNGNS,045812.00,0419.78392,S,05539.80993,E,AA,11,0.81,31.0,-47.6,,*66
$GNGGA,045812.00,0419.78392,S,05539.80993,E,1,11,0.81,31.0,M,-47.6,M,,*4C
$GNGSA,A,3,24,20,11,05,13,15,22,12,,,,,1.57,0.81,1.35*15
$GNGSA,A,3,80,73,85,,,,,,,,,,1.57,0.81,1.35*10
$GPGSV,5,1,18,05,58,134,23,11,24,020,25,12,31,000,26,13,20,158,19*79
$GPGSV,5,2,18,14,03,128,06,15,27,193,20,18,21,230,23,20,47,069,21*73
$GPGSV,5,3,18,22,17,114,14,23,00,214,,24,62,245,23,25,08,335,20*7F
$GPGSV,5,4,18,29,10,299,16,36,52,277,,40,86,350,,41,58,082,*70
$GPGSV,5,5,18,49,32,274,,50,10,089,*78
$GLGSV,3,1,10,69,12,123,,70,15,186,,73,58,011,30,74,17,344,*6A
$GLGSV,3,2,10,79,01,149,,80,48,126,38,83,01,017,,84,34,334,*6F
$GLGSV,3,3,10,85,34,269,23,86,02,223,*6D
$GNGLL,0419.78392,S,05539.80993,E,045812.00,A,A*6A
$GNGRS,045812.00,1,13.0,-8.2,6.8,4.5,-4.4,8.1,-5.1,-3.5,,,,*66
$GNGRS,045812.00,1,5.4,-0.2,-8.2,,,,,,,,,*7D
$GNGST,045812.00,49,,,,4.3,5.4,13*64
$GNZDA,045812.00,21,05,2025,00,00*71
$GNGBS,045812.00,4.3,5.4,12.6,,,,*66
$GNTXT,01,01,01,More than 100 frame errors, UART RX was disabled*70
b0d`:~Eu/Ee
r>!O
+{4V^:R 
YdE{FI:.JXOP&0~ST"NU"tVb`Oe1$GNRMC,045813.00,A,0419.78426,S,05539.81015,E,0.443,,210525,,,A*7E
$GNVTG,,T,,M,0.443,N,0.821,K,A*35
$GNGNS,045813.00,0419.78426,S,05539.81015,E,AA,11,0.81,31.1,-47.6,,*68
$GNGGA,045813.00,0419.78426,S,05539.81015,E,1,11,0.81,31.1,M,-47.6,M,,*42
$GNGSA,A,3,24,20,11,05,13,15,22,12,,,,,1.57,0.81,1.35*15
$GNGSA,A,3,80,73,85,,,,,,,,,,1.57,0.81,1.35*10
$GPGSV,5,1,18,05,58,134,22,11,24,020,25,12,31,000,24,13,20,158,18*7B
$GPGSV,5,2,18,14,03,128,06,15,27,193,14,18,21,230,19,20,47,069,20*7C
$GPGSV,5,3,18,22,17,114,16,23,00,214,,24,62,245,21,25,08,335,18*74
$GPGSV,5,4,18,29,10,299,16,36,52,277,,40,86,350,,41,58,082,*70
$GPGSV,5,5,18,49,32,274,,50,10,089,*78
$GLGSV,3,1,10,69,12,123,,70,15,186,,73,58,011,30,74,17,344,*6A
$GLGSV,3,2,10,79,01,149,,80,48,126,38,83,01,017,,84,34,334,*6F
$GLGSV,3,3,10,85,34,269,23,86,02,223,*6D
$GNGLL,0419.78426,S,05539.81015,E,045813.00,A,A*65
$GNGRS,045813.00,1,8.0,-9.2,5.4,6.4,-2.3,6.3,-7.7,-1.0,,,,*5E
$GNGRS,045813.00,1,5.0,-4.7,-9.1,,,,,,,,,*7B
$GNGST,045813.00,51,,,,4.2,5.4,13*6D
$GNZDA,045813.00,21,05,2025,00,00*70
$GNGBS,045813.00,4.2,5.4,12.5,,,,*65
$GNTXT,01,01,01,More than 100 frame errors, UART RX was disabled*70
b0dd:/E
r>KO
+{4V^:R 
YdE{FI:BJXOP'0~CST"NU"HVbdOM1d$GNRMC,045814.00,A,0419.78457,S,05539.81079,E,0.661,,210525,,,A*77
$GNVTG,,T,,M,0.661,N,1.223,K,A*3E
$GNGNS,045814.00,0419.78457,S,05539.81079,E,AA,11,0.81,31.4,-47.6,,*66
$GNGGA,045814.00,0419.78457,S,05539.81079,E,1,11,0.81,31.4,M,-47.6,M,,*4C
$GNGSA,A,3,24,20,11,05,13,15,22,12,,,,,1.57,0.81,1.35*15
$GNGSA,A,3,80,73,85,,,,,,,,,,1.57,0.81,1.35*10
$GPGSV,5,1,18,05,58,134,23,11,24,020,22,12,31,000,21,13,20,158,19*79
$GPGSV,5,2,18,14,03,128,,15,27,193,14,18,21,230,17,20,47,069,30*75
$GPGSV,5,3,18,22,17,114,18,23,00,214,,24,62,245,18,25,08,335,18*70
$GPGSV,5,4,18,29,10,299,14,36,52,277,,40,86,350,,41,58,082,*72
$GPGSV,5,5,18,49,32,274,,50,10,089,*78
$GLGSV,3,1,10,69,12,123,,70,15,186,,73,58,011,30,74,17,344,*6A
$GLGSV,3,2,10,79,01,149,,80,48,126,39,83,01,017,,84,34,334,*6E
$GLGSV,3,3,10,85,34,269,22,86,02,223,*6C
$GNGLL,0419.78457,S,05539.81079,E,045814.00,A,A*6E
$GNGRS,045814.00,1,3.3,0.0,7.1,12.9,0.2,1.6,-7.4,-1.0,,,,*67
$GNGRS,045814.00,1,5.8,-4.5,-7.0,,,,,,,,,*79
$GNGST,045814.00,52,,,,4.1,5.4,13*6A
$GNZDA,045814.00,21,05,2025,00,00*77
$GNGBS,045814.00,4.1,5.4,12.5,,,,*61
$GNTXT,01,01,01,More than 100 frame errors, UART RX was disabled*70
b0dh:c</E
r4>BO
+{4V^:R 
YdE{FI:JXOP'0~~ST"NU"(VubhO51<z$GNRMC,045815.00,A,0419.78474,S,05539.81117,E,0.425,,210525,,,A*7C
$GNVTG,,T,,M,0.425,N,0.788,K,A*39
$GNGNS,045815.00,0419.78474,S,05539.81117,E,AA,11,0.81,31.4,-47.6,,*6F
$GNGGA,045815.00,0419.78474,S,05539.81117,E,1,11,0.81,31.4,M,-47.6,M,,*45
$GNGSA,A,3,24,20,11,05,13,15,22,12,,,,,1.57,0.81,1.35*15
$GNGSA,A,3,80,73,85,,,,,,,,,,1.57,0.81,1.35*10
$GPGSV,5,1,18,05,58,134,26,11,24,020,20,12,31,000,20,13,20,158,19*7F
$GPGSV,5,2,18,14,03,128,,15,27,193,14,18,21,230,17,20,47,069,29*7D
$GPGSV,5,3,18,22,17,114,20,23,00,214,,24,62,245,18,25,08,335,19*7A
$GPGSV,5,4,18,29,10,299,12,36,52,277,,40,86,350,,41,58,082,*74
$GPGSV,5,5,18,49,32,274,,50,10,089,*78
$GLGSV,3,1,10,69,12,123,,70,15,186,,73,58,011,28,74,17,344,*63
$GLGSV,3,2,10,79,01,149,,80,48,126,39,83,01,017,,84,34,334,*6E
$GLGSV,3,3,10,85,34,269,21,86,02,223,*6F
$GNGLL,0419.78474,S,05539.81117,E,045815.00,A,A*67
$GNGRS,045815.00,1,-4.5,5.4,8.7,12.7,0.6,1.4,-7.2,-0.5,,,,*48
$GNGRS,045815.00,1,3.8,-5.9,-7.3,,,,,,,,,*70
$GNGST,045815.00,51,,,,4.1,5.4,13*68
$GNZDA,045815.00,21,05,2025,00,00*76
$GNGBS,045815.00,4.1,5.4,12.5,,,,*60
$GNTXT,01,01,01,More than 100 frame errors, UART RX was disabled*70
b0dl :%3/Em
r>O
+{4V^:R 
YdE{FI!:JXOP'0~DST"NU"zV?blO1$GNRMC,045816.00,A,0419.78487,S,05539.81137,E,0.294,,210525,,,A*7D
$GNVTG,,T,,M,0.294,N,0.545,K,A*36
$GNGNS,045816.00,0419.78487,S,05539.81137,E,AA,11,0.81,31.6,-47.6,,*60
$GNGGA,045816.00,0419.78487,S,05539.81137,E,1,11,0.81,31.6,M,-47.6,M,,*4A
$GNGSA,A,3,24,20,11,05,13,15,22,12,,,,,1.57,0.81,1.35*15
$GNGSA,A,3,80,73,85,,,,,,,,,,1.57,0.81,1.35*10
$GPGSV,5,1,18,05,58,134,32,11,24,020,20,12,31,000,18,13,20,158,18*70
$GPGSV,5,2,18,14,03,128,,15,27,193,22,18,21,230,21,20,47,069,26*72
$GPGSV,5,3,18,22,17,114,20,23,00,214,,24,62,245,17,25,08,335,17*7B
$GPGSV,5,4,18,29,10,299,11,36,52,277,,40,86,350,,41,58,082,*77
$GPGSV,5,5,18,49,32,274,,50,10,089,*78
$GLGSV,3,1,10,69,12,123,22,70,15,186,,73,58,011,33,74,17,344,*69
$GLGSV,3,2,10,79,01,149,,80,48,126,39,83,01,017,,84,34,334,*6E
$GLGSV,3,3,10,85,34,269,21,86,02,223,*6F
$GNGLL,0419.78487,S,05539.81137,E,045816.00,A,A*6A
$GNGRS,045816.00,1,-0.8,-1.5,6.5,3.9,-2.2,-2.1,-5.9,-3.4,,,,*53
$GNGRS,045816.00,1,3.2,-2.2,-9.0,,,,,,,,,*78
$GNGST,045816.00,47,,,,4.0,5.5,12*6D
$GNZDA,045816.00,21,05,2025,00,00*75
$GNGBS,045816.00,4.0,5.5,12.5,,,,*63
$GNTXT,01,01,01,More than 100 frame errors, UART RX was disabled*70
b0dxp:t/EX
r>LO
+{4V^:R 
YdE{FI:JXOP(0~(ST"NU"VbxpO1J$GNRMC,045817.00,A,0419.78489,S,05539.81181,E,1.114,,210525,,,A*75
$GNVTG,,T,,M,1.114,N,2.063,K,A*3F
$GNGNS,045817.00,0419.78489,S,05539.81181,E,AA,11,0.81,31.1,-47.6,,*65
$GNGGA,045817.00,0419.78489,S,05539.81181,E,1,11,0.81,31.1,M,-47.6,M,,*4F
$GNGSA,A,3,24,20,11,05,13,15,22,12,,,,,1.57,0.81,1.35*15
$GNGSA,A,3,80,73,85,,,,,,,,,,1.57,0.81,1.35*10
$GPGSV,5,1,18,05,58,134,31,11,24,020,19,12,31,000,17,13,20,158,17*79
$GPGSV,5,2,18,14,03,128,,15,27,193,23,18,21,230,23,20,47,069,22*75
$GPGSV,5,3,18,22,17,114,18,23,00,214,,24,62,245,19,25,08,335,17*7E
$GPGSV,5,4,18,29,10,299,14,36,52,277,,40,86,350,,41,58,082,*72
$GPGSV,5,5,18,49,32,274,,50,10,089,*78
$GLGSV,3,1,10,69,12,123,22,70,15,186,,73,58,011,29,74,17,344,*62
$GLGSV,3,2,10,79,01,149,,80,48,126,40,83,01,017,,84,34,334,*60
$GLGSV,3,3,10,85,34,269,20,86,02,223,*6E
$GNGLL,0419.78489,S,05539.81181,E,045817.00,A,A*68
$GNGRS,045817.00,1,3.3,0.9,3.7,7.7,-2.5,-3.2,-1.0,-3.0,,,,*56
$GNGRS,045817.00,1,3.0,-0.7,-10.1,,,,,,,,,*45
$GNGST,045817.00,56,,,,4.0,5.5,13*6D
$GNZDA,045817.00,21,05,2025,00,00*74
$GNGBS,045817.00,4.0,5.5,12.6,,,,*61
$GNTXT,01,01,01,More than 100 frame errors, UART RX was disabled*70
b0d`t:KR/E]
rn>=O
+{4V^:R 
YdE{FI:JXOP(0~ST"NU"V~b`tO1$GNRMC,045818.00,A,0419.78505,S,05539.81175,E,0.303,,210525,,,A*71
$GNVTG,,T,,M,0.303,N,0.562,K,A*3C
$GNGNS,045818.00,0419.78505,S,05539.81175,E,AA,11,0.81,31.3,-47.6,,*66
$GNGGA,045818.00,0419.78505,S,05539.81175,E,1,11,0.81,31.3,M,-47.6,M,,*4C
$GNGSA,A,3,24,20,11,05,13,15,22,12,,,,,1.57,0.81,1.35*15
$GNGSA,A,3,80,73,85,,,,,,,,,,1.57,0.81,1.35*10
$GPGSV,5,1,18,05,58,134,29,11,24,020,17,12,31,000,16,13,20,158,17*7F
$GPGSV,5,2,18,14,03,128,,15,27,193,20,18,21,230,23,20,47,069,18*7F
$GPGSV,5,3,18,22,17,114,16,23,00,214,,24,62,245,29,25,08,335,16*72
$GPGSV,5,4,18,29,10,299,14,36,52,277,,40,86,350,,41,58,082,*72
$GPGSV,5,5,18,49,32,274,,50,10,089,*78
$GLGSV,3,1,10,69,12,123,21,70,15,186,,73,58,011,28,74,17,344,*60
$GLGSV,3,2,10,79,01,149,,80,48,126,40,83,01,017,,84,34,334,*60
$GLGSV,3,3,10,85,34,269,23,86,02,223,*6D
$GNGLL,0419.78505,S,05539.81175,E,045818.00,A,A*69
$GNGRS,045818.00,1,5.7,-4.2,5.9,7.8,-4.3,-2.3,1.1,-5.5,,,,*51
$GNGRS,045818.00,1,1.8,-1.0,-8.1,,,,,,,,,*7F
$GNGST,045818.00,58,,,,4.1,5.5,13*6D
$GNZDA,045818.00,21,05,2025,00,00*7B
$GNGBS,045818.00,4.1,5.5,12.6,,,,*6F
$GNTXT,01,01,01,More than 100 frame errors, UART RX was disabled*70
b0dHx:/E
rx>O
+{4V^:R 
YdE{FI:JXOP(0~ST"NU"PV{RbHxO1$GNRMC,045819.00,A,0419.78508,S,05539.81181,E,0.263,,210525,,,A*71
$GNVTG,,T,,M,0.263,N,0.488,K,A*3E
$GNGNS,045819.00,0419.78508,S,05539.81181,E,AA,11,0.81,32.0,-47.6,,*61
$GNGGA,045819.00,0419.78508,S,05539.81181,E,1,11,0.81,32.0,M,-47.6,M,,*4B
$GNGSA,A,3,24,20,11,05,13,15,22,12,,,,,1.57,0.81,1.35*15
$GNGSA,A,3,80,73,85,,,,,,,,,,1.57,0.81,1.35*10
$GPGSV,5,1,18,05,58,134,29,11,24,020,18,12,31,000,19,13,20,158,17*7F
$GPGSV,5,2,18,14,03,128,,15,27,193,21,18,21,230,21,20,47,069,12*76
$GPGSV,5,3,18,22,17,114,15,23,00,214,,24,62,245,28,25,08,335,15*73
$GPGSV,5,4,18,29,10,299,15,36,52,277,,40,86,350,,41,58,082,*73
$GPGSV,5,5,18,49,32,274,,50,10,089,*78
$GLGSV,3,1,10,69,12,123,20,70,15,186,,73,58,011,27,74,17,344,*6E
$GLGSV,3,2,10,79,01,149,,80,48,126,40,83,01,017,,84,34,334,*60
$GLGSV,3,3,10,85,34,269,27,86,02,223,*69
$GNGLL,0419.78508,S,05539.81181,E,045819.00,A,A*6E
$GNGRS,045819.00,1,10.0,-6.3,7.3,5.0,-2.9,-2.3,1.2,-4.9,,,,*60
$GNGRS,045819.00,1,1.3,-1.0,-4.3,,,,,,,,,*7B
$GNGST,045819.00,86543,,,,4.1,5.4,13*5C
$GNZDA,045819.00,21,05,2025,00,00*7A
$GNGBS,045819.00,4.1,5.4,12.6,,,,*6F
$GNTXT,01,01,01,More than 100 frame errors, UART RX was disabled*70
b0d0|:n]d/E+
r>`O
+{4V^:R 
YdE{FI:JXOP(0~ST"NU"Vb0|O1s$GNRMC,045820.00,A,0419.78510,S,05539.81186,E,0.214,,210525,,,A*75
$GNVTG,,T,,M,0.214,N,0.397,K,A*37
$GNGNS,045820.00,0419.78510,S,05539.81186,E,AA,11,0.81,32.1,-47.6,,*64
$GNGGA,045820.00,0419.78510,S,05539.81186,E,1,11,0.81,32.1,M,-47.6,M,,*4E
$GNGSA,A,3,24,20,11,05,13,15,22,12,,,,,1.57,0.81,1.35*15
$GNGSA,A,3,80,73,85,,,,,,,,,,1.57,0.81,1.35*10
$GPGSV,5,1,18,05,58,134,28,11,24,020,20,12,31,000,21,13,20,158,19*70
$GPGSV,5,2,18,14,03,128,,15,27,193,24,18,21,230,21,20,47,069,12*73
$GPGSV,5,3,18,22,17,114,17,23,00,214,,24,62,245,26,25,08,335,17*7D
$GPGSV,5,4,18,29,10,299,15,36,52,277,,40,86,350,,41,58,082,*73
$GPGSV,5,5,18,49,32,274,,50,10,089,*78
$GLGSV,3,1,10,69,12,123,18,70,15,186,,73,58,011,27,74,17,344,*65
$GLGSV,3,2,10,79,01,149,,80,48,126,40,83,01,017,,84,34,334,*60
$GLGSV,3,3,10,85,34,269,26,86,02,223,*68
$GNGLL,0419.78510,S,05539.81186,E,045820.00,A,A*6A
$GNGRS,045820.00,1,11.2,-7.3,5.4,3.7,-1.6,-4.1,3.9,-5.8,,,,*6D
$GNGRS,045820.00,1,1.4,-2.7,-5.3,,,,,,,,,*73
$GNGST,045820.00,86543,,,,4.1,5.3,13*51
$GNZDA,045820.00,21,05,2025,00,00*70
$GNGBS,045820.00,4.1,5.3,12.6,,,,*62
$GNTXT,01,01,01,More than 100 frame errors, UART RX was disabled*70
b0d:a/E
r>O
+{4V^:R 
YdE{FI:-JXOP(0~ST"NU""VbO1K$GNRMC,045821.00,A,0419.78518,S,05539.81182,E,0.256,,210525,,,A*7E
$GNVTG,,T,,M,0.256,N,0.474,K,A*3B
$GNGNS,045821.00,0419.78518,S,05539.81182,E,AA,11,0.81,32.1,-47.6,,*69
$GNGGA,045821.00,0419.78518,S,05539.81182,E,1,11,0.81,32.1,M,-47.6,M,,*43
$GNGSA,A,3,24,20,11,05,13,15,22,12,,,,,1.57,0.81,1.35*15
$GNGSA,A,3,80,73,85,,,,,,,,,,1.57,0.81,1.35*10
$GPGSV,5,1,18,05,58,134,27,11,24,020,20,12,31,000,20,13,20,158,22*76
$GPGSV,5,2,18,14,03,128,,15,27,193,22,18,21,230,20,20,47,069,13*75
$GPGSV,5,3,18,22,17,114,17,23,00,214,,24,62,245,27,25,08,335,17*7C
$GPGSV,5,4,18,29,10,299,15,36,52,277,,40,86,350,,41,58,082,*73
$GPGSV,5,5,18,49,32,274,,50,10,089,*78
$GLGSV,3,1,10,69,12,123,17,70,15,186,,73,58,011,28,74,17,344,*65
$GLGSV,3,2,10,79,01,149,,80,48,126,40,83,01,017,,84,34,334,*60
$GLGSV,3,3,10,85,34,269,23,86,02,223,*6D
$GNGLL,0419.78518,S,05539.81182,E,045821.00,A,A*67
$GNGRS,045821.00,1,9.7,-12.9,6.1,6.6,-0.3,-8.2,4.8,-7.6,,,,*6D
$GNGRS,045821.00,1,1.3,-2.1,-4.8,,,,,,,,,*79
$GNGST,045821.00,56,,,,4.1,5.2,13*6E
$GNZDA,045821.00,21,05,2025,00,00*71
$GNGBS,045821.00,4.1,5.2,12.6,,,,*62
$GNTXT,01,01,01,More than 100 frame errors, UART RX was disabled*70
b0d:a0/E
r>!O
+{4V^:R 
YdE{FI:_JXOP'0~eST"NU"VGbO1#O$GNRMC,045822.00,A,0419.78517,S,05539.81188,E,0.231,,210525,,,A*79
$GNVTG,,T,,M,0.231,N,0.427,K,A*3C
$GNGNS,045822.00,0419.78517,S,05539.81188,E,AA,11,0.83,32.3,-47.6,,*6F
$GNGGA,045822.00,0419.78517,S,05539.81188,E,1,11,0.83,32.3,M,-47.6,M,,*45
$GNGSA,A,3,24,20,11,05,13,15,22,12,,,,,1.71,0.83,1.50*10
$GNGSA,A,3,80,73,85,,,,,,,,,,1.71,0.83,1.50*15
$GPGSV,5,1,18,05,58,134,26,11,24,020,20,12,31,000,18,13,20,158,23*7D
$GPGSV,5,2,18,14,03,128,06,15,27,193,22,18,21,230,20,20,47,069,08*79
$GPGSV,5,3,18,22,17,114,18,23,00,214,,24,62,245,26,25,08,335,16*73
$GPGSV,5,4,18,29,10,299,15,36,52,277,,40,86,350,,41,58,082,*73
$GPGSV,5,5,18,49,32,274,,50,10,089,*78
$GLGSV,3,1,10,69,12,123,14,70,15,186,,73,58,011,27,74,17,344,*69
$GLGSV,3,2,10,79,01,149,,80,48,126,39,83,01,017,,84,34,334,*6E
$GLGSV,3,3,10,85,34,269,21,86,02,223,*6F
$GNGLL,0419.78517,S,05539.81188,E,045822.00,A,A*61
$GNGRS,045822.00,1,8.0,7.0,4.8,6.1,2.8,-9.8,2.1,-6.2,,,,*51
$GNGRS,045822.00,1,1.0,-1.6,-8.3,,,,,,,,,*7A
$GNGST,045822.00,54235,,,,4.1,5.2,13*5B
$GNZDA,045822.00,21,05,2025,00,00*72
$GNGBS,045822.00,4.1,5.2,12.7,,,,*60
$GNTXT,01,01,01,More than 100 frame errors, UART RX was disabled*70
b0d:YMw/E
r^>O
+{4V^:R 
YdE{FI:}JXOP)0~\ST"NU"iV#bOu1$GNRMC,045823.00,A,0419.78520,S,05539.81189,E,0.075,,210525,,,A*7F
$GNVTG,,T,,M,0.075,N,0.139,K,A*34
$GNGNS,045823.00,0419.78520,S,05539.81189,E,AA,11,0.83,32.1,-47.6,,*69
$GNGGA,045823.00,0419.78520,S,05539.81189,E,1,11,0.83,32.1,M,-47.6,M,,*43
$GNGSA,A,3,24,20,11,05,13,15,22,12,,,,,1.71,0.83,1.50*10
$GNGSA,A,3,80,73,85,,,,,,,,,,1.71,0.83,1.50*15
$GPGSV,5,1,18,05,58,134,25,11,24,020,22,12,31,000,20,13,20,158,21*75
$GPGSV,5,2,18,14,03,128,07,15,27,193,20,18,21,230,20,20,47,069,17*74
$GPGSV,5,3,18,22,17,114,17,23,00,214,,24,62,245,26,25,08,335,14*7E
$GPGSV,5,4,18,29,10,299,14,36,52,277,,40,86,350,,41,58,082,*72
$GPGSV,5,5,18,49,32,274,,50,10,089,*78
$GLGSV,3,1,10,69,12,123,13,70,15,186,,73,58,011,25,74,17,344,*6C
$GLGSV,3,2,10,79,01,149,,80,48,126,41,83,01,017,,84,34,334,*61
$GLGSV,3,3,10,85,34,269,19,86,02,223,*64
$GNGLL,0419.78520,S,05539.81189,E,045823.00,A,A*65
$GNGRS,045823.00,1,9.0,4.5,3.5,5.0,5.1,-10.2,0.9,-6.9,,,,*62
$GNGRS,045823.00,1,0.9,-1.3,-9.2,,,,,,,,,*76
$GNGST,045823.00,52,,,,4.2,5.2,13*6B
$GNZDA,045823.00,21,05,2025,00,00*73
$GNGBS,045823.00,4.2,5.2,12.8,,,,*6D
$GNTXT,01,01,01,More than 100 frame errors, UART RX was disabled*70
b0d:Kn/E

r>6O
+{4V^:R 
YdE{FI:JXOP(0~MST"NU"VfbO]2$GNRMC,045824.00,A,0419.78525,S,05539.81186,E,0.099,,210525,,,A*70
$GNVTG,,T,,M,0.099,N,0.183,K,A*37
$GNGNS,045824.00,0419.78525,S,05539.81186,E,AA,11,0.83,31.7,-47.6,,*61
$GNGGA,045824.00,0419.78525,S,05539.81186,E,1,11,0.83,31.7,M,-47.6,M,,*4B
$GNGSA,A,3,24,20,11,05,13,15,22,12,,,,,1.71,0.83,1.50*10
$GNGSA,A,3,80,73,85,,,,,,,,,,1.71,0.83,1.50*15
$GPGSV,5,1,18,05,58,134,26,11,24,020,22,12,31,000,22,13,20,158,21*74
$GPGSV,5,2,18,14,03,128,11,15,27,193,22,18,21,230,18,20,47,069,18*75
$GPGSV,5,3,18,22,17,114,18,23,00,214,,24,62,245,28,25,08,335,*7A
$GPGSV,5,4,18,29,10,299,13,36,52,277,,40,86,350,,41,58,082,*75
$GPGSV,5,5,18,49,32,274,,50,10,089,*78
$GLGSV,3,1,10,69,12,123,15,70,15,186,,73,58,011,25,74,17,344,*6A
$GLGSV,3,2,10,79,01,149,,80,48,126,40,83,01,017,,84,34,334,*60
$GLGSV,3,3,10,85,34,269,18,86,02,223,*65
$GNGLL,0419.78525,S,05539.81186,E,045824.00,A,A*68
$GNGRS,045824.00,1,8.2,2.7,3.7,3.3,4.9,-10.2,-2.4,-5.1,,,,*45
$GNGRS,045824.00,1,0.8,-2.3,-7.5,,,,,,,,,*7A
$GNGST,045824.00,46,,,,4.3,5.2,13*68
$GNZDA,045824.00,21,05,2025,00,00*74
$GNGBS,045824.00,4.3,5.2,12.8,,,,*6B
$GNTXT,01,01,01,More than 100 frame errors, UART RX was disabled*70
b0d:{
/E
r>:O
+{4V^:R 
YdE{FI:JXOP(0~OST"NU"V`bOE2z$GNRMC,045825.00,A,0419.78520,S,05539.81196,E,0.129,,210525,,,A*7F
$GNVTG,,T,,M,0.129,N,0.238,K,A*3E
$GNGNS,045825.00,0419.78520,S,05539.81196,E,AA,11,0.83,31.6,-47.6,,*65
$GNGGA,045825.00,0419.78520,S,05539.81196,E,1,11,0.83,31.6,M,-47.6,M,,*4F
$GNGSA,A,3,24,20,11,05,13,15,22,12,,,,,1.71,0.83,1.50*10
$GNGSA,A,3,80,73,85,,,,,,,,,,1.71,0.83,1.50*15
$GPGSV,5,1,18,05,58,134,30,11,24,020,22,12,31,000,21,13,20,158,21*70
$GPGSV,5,2,18,14,03,128,10,15,27,193,22,18,21,230,19,20,47,069,21*7F
$GPGSV,5,3,18,22,17,114,16,23,00,214,,24,62,245,30,25,08,335,*7D
$GPGSV,5,4,18,29,10,299,12,36,52,277,,40,86,350,,41,58,082,*74
$GPGSV,5,5,18,49,32,274,,50,10,089,*78
$GLGSV,3,1,10,69,12,123,15,70,15,186,,73,58,011,23,74,17,344,*6C
$GLGSV,3,2,10,79,01,149,,80,48,126,40,83,01,017,,84,34,334,*60
$GLGSV,3,3,10,85,34,269,19,86,02,223,*64
$GNGLL,0419.78520,S,05539.81196,E,045825.00,A,A*6D
$GNGRS,045825.00,1,0.6,-0.6,2.7,-6.2,1.4,-10.0,-2.5,-3.9,,,,*4B
$GNGRS,045825.00,1,0.8,-2.8,-8.9,,,,,,,,,*73
$GNGST,045825.00,47,,,,4.4,5.1,13*6C
$GNZDA,045825.00,21,05,2025,00,00*75
$GNGBS,045825.00,4.4,5.1,12.9,,,,*6F
$GNTXT,01,01,01,More than 100 frame errors, UART RX was disabled*70
b0d: /E8
re>O
+{4V^:R 
YdE{FI:JXOP(0~RST"NU"ViIbO-
2$GNRMC,045826.00,A,0419.78502,S,05539.81209,E,0.613,,210525,,,A*77
$GNVTG,,T,,M,0.613,N,1.135,K,A*3F
$GNGNS,045826.00,0419.78502,S,05539.81209,E,AA,11,0.83,31.9,-47.6,,*6C
$GNGGA,045826.00,0419.78502,S,05539.81209,E,1,11,0.83,31.9,M,-47.6,M,,*46
$GNGSA,A,3,24,20,11,05,13,15,22,12,,,,,1.71,0.83,1.50*10
$GNGSA,A,3,80,73,85,,,,,,,,,,1.71,0.83,1.50*15
$GPGSV,5,1,18,05,58,134,29,11,24,020,20,12,31,000,22,13,20,158,21*79
$GPGSV,5,2,18,14,03,128,15,15,27,193,25,18,21,230,19,20,47,069,20*7C
$GPGSV,5,3,18,22,17,114,16,23,00,214,,24,62,245,30,25,08,335,*7D
$GPGSV,5,4,18,29,10,299,09,36,52,277,,40,86,350,,41,58,082,*7E
$GPGSV,5,5,18,49,32,274,,50,10,089,*78
$GLGSV,3,1,10,69,12,123,15,70,15,186,,73,58,011,24,74,17,344,*6B
$GLGSV,3,2,10,79,01,149,,80,48,126,40,83,01,017,,84,34,334,*60
$GLGSV,3,3,10,85,34,269,19,86,02,223,*64
$GNGLL,0419.78502,S,05539.81209,E,045826.00,A,A*6B
$GNGRS,045826.00,1,2.2,0.6,4.7,4.1,5.0,-9.9,-4.1,-3.4,,,,*77
$GNGRS,045826.00,1,0.8,-3.0,-7.7,,,,,,,,,*78
$GNGST,045826.00,47,,,,4.4,5.1,13*6F
$GNZDA,045826.00,21,05,2025,00,00*76
$GNGBS,045826.00,4.4,5.1,12.9,,,,*6C
$GNTXT,01,01,01,More than 100 frame errors, UART RX was disabled*70
b0d:ub/EF
r>7O
+{4V^:R 
Yd9E{FI:JXOP(0~LST"NU"QVbO2[J$GNRMC,045827.00,A,0419.78497,S,05539.81215,E,0.203,,210525,,,A*73
$GNVTG,,T,,M,0.203,N,0.377,K,A*3F
$GNGNS,045827.00,0419.78497,S,05539.81215,E,AA,11,0.83,32.3,-47.6,,*64
$GNGGA,045827.00,0419.78497,S,05539.81215,E,1,11,0.83,32.3,M,-47.6,M,,*4E
$GNGSA,A,3,24,20,11,05,13,15,22,12,,,,,1.71,0.83,1.50*10
$GNGSA,A,3,80,73,85,,,,,,,,,,1.71,0.83,1.50*15
$GPGSV,5,1,18,05,58,134,27,11,24,020,20,12,31,000,20,13,20,158,23*77
$GPGSV,5,2,18,14,03,128,07,15,27,193,27,18,21,230,20,20,47,069,19*7D
$GPGSV,5,3,18,22,17,114,18,23,00,214,,24,62,245,30,25,08,335,*73
$GPGSV,5,4,18,29,10,299,,36,52,277,,40,86,350,,41,58,082,*77
$GPGSV,5,5,18,49,32,274,,50,10,089,*78
$GLGSV,3,1,10,69,12,123,15,70,15,186,,73,58,011,27,74,17,344,*68
$GLGSV,3,2,10,79,01,149,,80,48,126,40,83,01,017,,84,34,334,*60
$GLGSV,3,3,10,85,34,269,21,86,02,223,*6F
$GNGLL,0419.78497,S,05539.81215,E,045827.00,A,A*6A
$GNGRS,045827.00,1,3.1,0.7,4.6,14.0,5.4,-7.9,-5.2,-5.2,,,,*4C
$GNGRS,045827.00,1,0.8,-2.3,-6.9,,,,,,,,,*74
$GNGST,045827.00,43,,,,4.5,5.0,13*6A
$GNZDA,045827.00,21,05,2025,00,00*77
$GNGBS,045827.00,4.5,5.0,12.8,,,,*6C
$GNTXT,01,01,01,More than 100 frame errors, UART RX was disabled*70
b0dp:5@lJl/E
r>O
+{4V^:R 
YdE{FI:tJXOP'0~kST"NU"VbpO22$GNRMC,045828.00,A,0419.78486,S,05539.81219,E,0.350,,210525,,,A*77
$GNVTG,,T,,M,0.350,N,0.649,K,A*30
$GNGNS,045828.00,0419.78486,S,05539.81219,E,AA,11,0.83,31.8,-47.6,,*6F
$GNGGA,045828.00,0419.78486,S,05539.81219,E,1,11,0.83,31.8,M,-47.6,M,,*45
$GNGSA,A,3,24,20,11,05,13,15,22,12,,,,,1.71,0.83,1.50*10
$GNGSA,A,3,80,73,85,,,,,,,,,,1.71,0.83,1.50*15
$GPGSV,5,1,18,05,58,134,26,11,24,020,20,12,31,000,19,13,20,158,23*7C
$GPGSV,5,2,18,14,03,128,07,15,27,193,26,18,21,230,21,20,47,069,19*7D
$GPGSV,5,3,18,22,17,114,18,23,00,214,,24,62,245,30,25,08,335,*73
$GPGSV,5,4,18,29,10,299,,36,52,277,,40,86,350,,41,58,082,*77
$GPGSV,5,5,18,49,32,274,,50,10,089,*78
$GLGSV,3,1,10,69,12,123,17,70,15,186,,73,58,011,28,74,17,344,*65
$GLGSV,3,2,10,79,01,149,,80,48,126,39,83,01,017,,84,34,334,*6E
$GLGSV,3,3,10,85,34,269,19,86,02,223,*64
$GNGLL,0419.78486,S,05539.81219,E,045828.00,A,A*69
$GNGRS,045828.00,1,2.2,-3.3,0.6,13.3,4.5,-9.2,-5.4,-4.0,,,,*6B
$GNGRS,045828.00,1,1.1,1.2,-5.5,,,,,,,,,*53
$GNGST,045828.00,43,,,,4.4,4.9,13*6C
$GNZDA,045828.00,21,05,2025,00,00*78
$GNGBS,045828.00,4.4,4.9,12.8,,,,*6A
$GNTXT,01,01,01,More than 100 frame errors, UART RX was disabled*70
b0dX:t8/E
r|>O
+{4V^:R 
YdE{FI:eJXOP(0~bST"NU"fV|bXO2
$GNRMC,045829.00,A,0419.78484,S,05539.81220,E,0.082,,210525,,,A*72
$GNVTG,,T,,M,0.082,N,0.152,K,A*31
$GNGNS,045829.00,0419.78484,S,05539.81220,E,AA,11,0.83,32.2,-47.6,,*6F
$GNGGA,045829.00,0419.78484,S,05539.81220,E,1,11,0.83,32.2,M,-47.6,M,,*45
$GNGSA,A,3,24,20,11,05,13,15,22,12,,,,,1.71,0.83,1.50*10
$GNGSA,A,3,80,73,85,,,,,,,,,,1.71,0.83,1.50*15
$GPGSV,5,1,18,05,58,134,23,11,24,020,22,12,31,000,22,13,20,158,23*73
$GPGSV,5,2,18,14,03,128,09,15,27,193,25,18,21,230,22,20,47,069,19*73
$GPGSV,5,3,18,22,17,114,18,23,00,214,,24,62,245,31,25,08,335,*72
$GPGSV,5,4,18,29,10,299,,36,52,277,,40,86,350,,41,58,082,*77
$GPGSV,5,5,18,49,32,274,,50,10,089,*78
$GLGSV,3,1,10,69,12,123,17,70,15,186,,73,58,011,27,74,17,344,*6A
$GLGSV,3,2,10,79,01,149,,80,48,126,40,83,01,017,,84,34,334,*60
$GLGSV,3,3,10,85,34,269,17,86,02,223,*6A
$GNGLL,0419.78484,S,05539.81220,E,045829.00,A,A*60
$GNGRS,045829.00,1,2.7,-6.3,1.5,7.2,3.7,-8.4,-6.4,-2.9,,,,*52
$GNGRS,045829.00,1,1.0,3.6,-4.1,,,,,,,,,*50
$GNGST,045829.00,48,,,,4.4,4.9,13*66
$GNZDA,045829.00,21,05,2025,00,00*79
$GNGBS,045829.00,4.4,4.9,12.8,,,,*6B
$GNTXT,01,01,01,More than 100 frame errors, UART RX was disabled*70
b0d@:ye+/E
r >O
+{4V^:R 
YdE{FI:)JXOP'0~yST"NU"V(b@O2$GNRMC,045830.00,A,0419.78485,S,05539.81233,E,0.116,,210525,,,A*75
$GNVTG,,T,,M,0.116,N,0.215,K,A*3D
$GNGNS,045830.00,0419.78485,S,05539.81233,E,AA,11,0.83,32.6,-47.6,,*60
$GNGGA,045830.00,0419.78485,S,05539.81233,E,1,11,0.83,32.6,M,-47.6,M,,*4A
$GNGSA,A,3,24,20,11,05,13,15,22,12,,,,,1.71,0.83,1.50*10
$GNGSA,A,3,80,73,85,,,,,,,,,,1.71,0.83,1.50*15
$GPGSV,5,1,18,05,58,134,24,11,24,020,25,12,31,000,24,13,20,158,23*75
$GPGSV,5,2,18,14,03,128,08,15,27,193,25,18,21,230,19,20,47,069,20*70
$GPGSV,5,3,18,22,17,114,19,23,00,214,,24,62,245,32,25,08,335,*70
$GPGSV,5,4,18,29,10,299,,36,52,277,,40,86,350,,41,58,082,*77
$GPGSV,5,5,18,49,32,274,,50,10,089,*78
$GLGSV,3,1,10,69,12,123,17,70,15,186,,73,58,011,11,74,17,344,*6F
$GLGSV,3,2,10,79,01,149,,80,48,126,39,83,01,017,,84,34,334,*6E
$GLGSV,3,3,10,85,34,269,18,86,02,223,*65
$GNGLL,0419.78485,S,05539.81233,E,045830.00,A,A*6B
$GNGRS,045830.00,1,-2.7,-6.0,-0.2,7.5,3.8,-7.3,-6.0,-2.5,,,,*57
$GNGRS,045830.00,1,1.2,-2.2,-3.2,,,,,,,,,*76
$GNGST,045830.00,50,,,,4.4,4.8,13*66
$GNZDA,045830.00,21,05,2025,00,00*71
$GNGBS,045830.00,4.4,4.8,12.7,,,,*6D
$GNTXT,01,01,01,More than 100 frame errors, UART RX was disabled*70
b0d(:pW/E4
r{ >O
+{4V^:R 
YdE{FI:FJXOP(0~nST"NU"V1b(O2$GNRMC,045831.00,A,0419.78492,S,05539.81244,E,0.128,,210525,,,A*7F
$GNVTG,,T,,M,0.128,N,0.238,K,A*3F
$GNGNS,045831.00,0419.78492,S,05539.81244,E,AA,11,0.83,33.1,-47.6,,*61
$GNGGA,045831.00,0419.78492,S,05539.81244,E,1,11,0.83,33.1,M,-47.6,M,,*4B
$GNGSA,A,3,24,20,11,05,13,15,22,12,,,,,1.71,0.83,1.50*10
$GNGSA,A,3,80,73,85,,,,,,,,,,1.71,0.83,1.50*15
$GPGSV,5,1,18,05,58,134,26,11,24,020,26,12,31,000,26,13,20,158,22*77
$GPGSV,5,2,18,14,03,128,09,15,27,193,24,18,21,230,18,20,47,069,21*70
$GPGSV,5,3,18,22,17,114,19,23,00,214,,24,62,245,32,25,08,335,20*72
$GPGSV,5,4,18,29,10,299,,36,52,277,,40,86,350,,41,58,082,*77
$GPGSV,5,5,18,49,32,274,,50,10,089,*78
$GLGSV,3,1,10,69,12,123,18,70,15,186,,73,58,011,13,74,17,344,*62
$GLGSV,3,2,10,79,01,149,,80,48,126,40,83,01,017,,84,34,334,*60
$GLGSV,3,3,10,85,34,269,19,86,02,223,*64
$GNGLL,0419.78492,S,05539.81244,E,045831.00,A,A*6C
$GNGRS,045831.00,1,-3.3,-7.2,-1.7,6.2,1.5,-5.3,-6.5,-2.7,,,,*58
$GNGRS,045831.00,1,1.1,-1.9,-3.2,,,,,,,,,*7C
$GNGST,045831.00,47,,,,4.4,4.7,13*6E
$GNZDA,045831.00,21,05,2025,00,00*70
$GNGBS,045831.00,4.4,4.7,12.7,,,,*63
$GNTXT,01,01,01,More than 100 frame errors, UART RX was disabled*70
b0d:PF/E
r
">O
+{4V^:R 
YdE{FI:JXOP(0~^ST"NU"RVbO!2O$GNRMC,045832.00,A,0419.78499,S,05539.81244,E,0.094,,210525,,,A*71
$GNVTG,,T,,M,0.094,N,0.174,K,A*32
$GNGNS,045832.00,0419.78499,S,05539.81244,E,AA,11,0.83,32.9,-47.6,,*60
$GNGGA,045832.00,0419.78499,S,05539.81244,E,1,11,0.83,32.9,M,-47.6,M,,*4A
$GNGSA,A,3,24,20,11,05,13,15,22,12,,,,,1.71,0.83,1.50*10
$GNGSA,A,3,80,73,85,,,,,,,,,,1.71,0.83,1.50*15
$GPGSV,5,1,18,05,58,134,25,11,24,020,25,12,31,000,27,13,20,158,20*74
$GPGSV,5,2,18,14,03,128,09,15,27,193,23,18,21,230,19,20,47,069,23*74
$GPGSV,5,3,18,22,17,114,20,23,00,214,,24,62,245,34,25,08,335,18*75
$GPGSV,5,4,18,29,10,299,,36,52,277,,40,86,350,,41,58,082,*77
$GPGSV,5,5,18,49,32,274,,50,10,089,*78
$GLGSV,3,1,10,69,12,123,20,70,15,186,,73,58,011,15,74,17,344,*6F
$GLGSV,3,2,10,79,01,149,,80,48,126,40,83,01,017,,84,34,334,*60
$GLGSV,3,3,10,85,34,269,18,86,02,223,*65
$GNGLL,0419.78499,S,05539.81244,E,045832.00,A,A*64
$GNGRS,045832.00,1,-0.4,-10.1,0.8,4.5,1.8,-2.5,-7.6,-2.7,,,,*42
$GNGRS,045832.00,1,0.9,0.1,-4.3,,,,,,,,,*54
$GNGST,045832.00,46,,,,4.3,4.7,13*6B
$GNZDA,045832.00,21,05,2025,00,00*73
$GNGBS,045832.00,4.3,4.7,12.6,,,,*66
$GNTXT,01,01,01,More than 100 frame errors, UART RX was disabled*70
b0d:yq/E
r#>OO
+{4V^:R 
YdE{FI:JXOP(0~YST"NU"bV2bO%2i$GNRMC,045833.00,A,0419.78503,S,05539.81253,E,0.113,,210525,,,A*7A
$GNVTG,,T,,M,0.113,N,0.209,K,A*35
$GNGNS,045833.00,0419.78503,S,05539.81253,E,AA,11,0.83,33.2,-47.6,,*6F
$GNGGA,045833.00,0419.78503,S,05539.81253,E,1,11,0.83,33.2,M,-47.6,M,,*45
$GNGSA,A,3,24,20,11,05,13,15,22,12,,,,,1.71,0.83,1.50*10
$GNGSA,A,3,80,73,85,,,,,,,,,,1.71,0.83,1.50*15
$GPGSV,5,1,18,05,58,134,25,11,24,020,25,12,31,000,26,13,20,158,21*74
$GPGSV,5,2,18,14,03,128,09,15,27,193,24,18,21,230,21,20,47,069,24*7F
$GPGSV,5,3,18,22,17,114,21,23,00,214,,24,62,245,35,25,08,335,17*7A
$GPGSV,5,4,18,29,10,299,,36,52,277,,40,86,350,,41,58,082,*77
$GPGSV,5,5,18,49,32,274,,50,10,089,*78
$GLGSV,3,1,10,69,12,123,22,70,15,186,,73,58,011,20,74,17,344,*6B
$GLGSV,3,2,10,79,01,149,,80,48,126,40,83,01,017,,84,34,334,*60
$GLGSV,3,3,10,85,34,269,18,86,02,223,*65
$GNGLL,0419.78503,S,05539.81253,E,045833.00,A,A*61
$GNGRS,045833.00,1,-1.8,-13.9,-0.7,2.7,-1.3,-3.3,-7.5,-1.0,,,,*45
$GNGRS,045833.00,1,0.9,1.5,-4.1,,,,,,,,,*52
$GNGST,045833.00,41,,,,4.2,4.5,13*6E
$GNZDA,045833.00,21,05,2025,00,00*72
$GNGBS,045833.00,4.2,4.5,12.5,,,,*67
$GNTXT,01,01,01,More than 100 frame errors, UART RX was disabled*70
b0d:;Z/E
r">O
+{4V^:R 
YdE{FI:JXOP'0~zST"NU"^V1bOm)2A$GNRMC,045834.00,A,0419.78508,S,05539.81263,E,0.093,,210525,,,A*7C
$GNVTG,,T,,M,0.093,N,0.172,K,A*33
$GNGNS,045834.00,0419.78508,S,05539.81263,E,AA,11,0.83,33.5,-47.6,,*67
$GNGGA,045834.00,0419.78508,S,05539.81263,E,1,11,0.83,33.5,M,-47.6,M,,*4D
$GNGSA,A,3,24,20,11,05,13,15,22,12,,,,,1.71,0.83,1.50*10
$GNGSA,A,3,80,73,85,,,,,,,,,,1.71,0.83,1.50*15
$GPGSV,5,1,18,05,58,134,24,11,24,020,26,12,31,000,25,13,20,158,22*76
$GPGSV,5,2,18,14,03,128,09,15,27,193,23,18,21,230,18,20,47,069,23*75
$GPGSV,5,3,18,22,17,114,19,23,00,214,,24,62,245,34,25,08,335,18*7F
$GPGSV,5,4,18,29,10,299,,36,52,277,,40,86,350,,41,58,082,*77
$GPGSV,5,5,18,49,32,274,,50,10,089,*78
$GLGSV,3,1,10,69,12,123,20,70,15,186,,73,58,011,25,74,17,344,*6C
$GLGSV,3,2,10,79,01,149,,80,48,126,39,83,01,017,,84,34,334,*6E
$GLGSV,3,3,10,85,34,269,17,86,02,223,*6A
$GNGLL,0419.78508,S,05539.81263,E,045834.00,A,A*6E
$GNGRS,045834.00,1,-3.4,-13.2,-3.7,5.7,-0.5,-1.7,-6.0,-0.9,,,,*4E
$GNGRS,045834.00,1,1.2,2.8,-4.2,,,,,,,,,*52
$GNGST,045834.00,42,,,,4.2,4.5,12*6B
$GNZDA,045834.00,21,05,2025,00,00*75
$GNGBS,045834.00,4.2,4.5,12.5,,,,*60
$GNTXT,01,01,01,More than 100 frame errors, UART RX was disabled*70
b0d:,>/E
r">O
+{4V^:R 
YdE{FI:JXOP'0~ST"NU"!VbOU-2x$GNRMC,045835.00,A,0419.78508,S,05539.81273,E,0.079,,210525,,,A*78
$GNVTG,,T,,M,0.079,N,0.146,K,A*30
$GNGNS,045835.00,0419.78508,S,05539.81273,E,AA,11,0.83,34.1,-47.6,,*64
$GNGGA,045835.00,0419.78508,S,05539.81273,E,1,11,0.83,34.1,M,-47.6,M,,*4E
$GNGSA,A,3,24,20,11,05,13,15,22,12,,,,,1.71,0.83,1.50*10
$GNGSA,A,3,80,73,85,,,,,,,,,,1.71,0.83,1.50*15
$GPGSV,5,1,18,05,58,134,23,11,24,020,26,12,31,000,24,13,20,158,24*76
$GPGSV,5,2,18,14,03,128,09,15,27,193,23,18,21,230,15,20,47,069,19*71
$GPGSV,5,3,18,22,17,114,20,23,00,214,,24,62,245,34,25,08,335,20*7E
$GPGSV,5,4,18,29,10,299,,36,52,277,,40,86,350,,41,58,082,*77
$GPGSV,5,5,18,49,32,274,,50,10,089,*78
$GLGSV,3,1,10,69,12,123,19,70,15,186,,73,58,011,27,74,17,344,*64
$GLGSV,3,2,10,79,01,149,,80,48,126,39,83,01,017,,84,34,334,*6E
$GLGSV,3,3,10,85,34,269,18,86,02,223,*65
$GNGLL,0419.78508,S,05539.81273,E,045835.00,A,A*6E
$GNGRS,045835.00,1,-2.9,-15.5,-5.0,5.6,-3.5,-1.0,-7.8,0.6,,,,*6D
$GNGRS,045835.00,1,1.3,2.8,-4.8,,,,,,,,,*58
$GNGST,045835.00,41,,,,4.2,4.4,12*68
$GNZDA,045835.00,21,05,2025,00,00*74
$GNGBS,045835.00,4.2,4.4,12.3,,,,*66
$GNTXT,01,01,01,More than 100 frame errors, UART RX was disabled*70
b0d:`4+y/E
r>iO
+{4V^:R 
Yd$EzFI:JXOP(0~ST"NU"SVbO=12$GNRMC,045836.00,A,0419.78513,S,05539.81274,E,0.120,,210525,,,A*7B
$GNVTG,,T,,M,0.120,N,0.222,K,A*3C
$GNGNS,045836.00,0419.78513,S,05539.81274,E,AA,11,0.81,34.5,-47.6,,*6C
$GNGGA,045836.00,0419.78513,S,05539.81274,E,1,11,0.81,34.5,M,-47.6,M,,*46
$GNGSA,A,3,24,20,11,05,13,15,22,12,,,,,1.57,0.81,1.35*15
$GNGSA,A,3,80,73,85,,,,,,,,,,1.57,0.81,1.35*10
$GPGSV,5,1,18,05,58,134,24,11,24,020,26,12,31,000,25,13,20,158,24*70
$GPGSV,5,2,18,14,03,128,09,15,27,193,23,18,21,230,,20,47,069,17*7B
$GPGSV,5,3,18,22,17,114,20,23,00,214,,24,62,245,31,25,08,335,18*70
$GPGSV,5,4,18,29,10,299,,36,52,277,,40,86,350,,41,58,082,*77
$GPGSV,5,5,18,49,32,274,,50,10,089,*78
$GLGSV,3,1,10,69,12,122,18,70,15,186,,73,58,011,25,74,17,344,*66
$GLGSV,3,2,10,79,01,149,,80,48,126,40,83,01,017,,84,34,334,*60
$GLGSV,3,3,10,85,34,269,17,86,02,223,*6A
$GNGLL,0419.78513,S,05539.81274,E,045836.00,A,A*60
$GNGRS,045836.00,1,-1.5,-13.8,-5.4,1.0,-4.7,2.3,-8.6,0.5,,,,*46
$GNGRS,045836.00,1,1.5,2.1,-4.3,,,,,,,,,*5F
$GNGST,045836.00,52,,,,4.1,4.4,12*6A
$GNZDA,045836.00,21,05,2025,00,00*77
$GNGBS,045836.00,4.1,4.4,12.3,,,,*66
$GNTXT,01,01,01,More than 100 frame errors, UART RX was disabled*70
b0d:X 9/E
r>O
+{4V^:R 
Yd.EzFI:JXOP(0~ST"NU"VbO%52H$GNRMC,045837.00,A,0419.78516,S,05539.81276,E,0.165,,210525,,,A*7C
$GNVTG,,T,,M,0.165,N,0.305,K,A*39
$GNGNS,045837.00,0419.78516,S,05539.81276,E,AA,11,0.81,35.4,-47.6,,*6A
$GNGGA,045837.00,0419.78516,S,05539.81276,E,1,11,0.81,35.4,M,-47.6,M,,*40
$GNGSA,A,3,24,20,11,05,13,15,22,12,,,,,1.57,0.81,1.35*15
$GNGSA,A,3,80,73,85,,,,,,,,,,1.57,0.81,1.35*10
$GPGSV,5,1,18,05,58,134,24,11,24,020,27,12,31,000,23,13,20,158,25*76
$GPGSV,5,2,18,14,03,128,08,15,27,193,23,18,21,230,,20,47,069,16*7B
$GPGSV,5,3,18,22,17,114,18,23,00,214,,24,62,245,30,25,08,335,16*74
$GPGSV,5,4,18,29,10,299,,36,52,277,,40,86,350,,41,58,082,*77
$GPGSV,5,5,18,49,32,274,,50,10,089,*78
$GLGSV,3,1,10,69,12,122,18,70,15,185,,73,58,011,24,74,17,344,*64
$GLGSV,3,2,10,79,01,149,,80,48,126,40,83,01,017,,84,34,334,*60
$GLGSV,3,3,10,85,34,269,18,86,02,223,*65
$GNGLL,0419.78516,S,05539.81276,E,045837.00,A,A*66
$GNGRS,045837.00,1,-0.9,-12.5,-4.8,0.9,-5.6,4.2,-7.9,-2.0,,,,*6E
$GNGRS,045837.00,1,1.4,4.9,-5.6,,,,,,,,,*55
$GNGST,045837.00,50,,,,4.1,4.4,12*69
$GNZDA,045837.00,21,05,2025,00,00*76
$GNGBS,045837.00,4.1,4.4,12.2,,,,*66
$GNTXT,01,01,01,More than 100 frame errors, UART RX was disabled*70
b0d: N/E<
r >O
+{4V^:R 
YdREzFI:JXOP(0~ST"NU"@VbO92$GNRMC,045838.00,A,0419.78517,S,05539.81281,E,0.114,,210525,,,A*7C
$GNVTG,,T,,M,0.114,N,0.210,K,A*3A
$GNGNS,045838.00,0419.78517,S,05539.81281,E,AA,11,0.81,35.8,-47.6,,*60
$GNGGA,045838.00,0419.78517,S,05539.81281,E,1,11,0.81,35.8,M,-47.6,M,,*4A
$GNGSA,A,3,24,20,11,05,13,15,22,12,,,,,1.57,0.81,1.35*15
$GNGSA,A,3,80,73,85,,,,,,,,,,1.57,0.81,1.35*10
$GPGSV,5,1,18,05,58,134,23,11,24,020,26,12,31,000,25,13,20,158,23*70
$GPGSV,5,2,18,14,03,128,09,15,27,193,26,18,21,230,,20,47,069,20*7A
$GPGSV,5,3,18,22,17,114,17,23,00,214,,24,62,245,32,25,08,335,15*7A
$GPGSV,5,4,18,29,10,299,,36,52,277,,40,86,350,,41,58,082,*77
$GPGSV,5,5,18,49,32,274,,50,10,089,*78
$GLGSV,3,1,10,69,12,122,17,70,15,185,,73,58,011,27,74,17,344,*68
$GLGSV,3,2,10,79,01,149,,80,48,126,40,83,01,017,,84,34,334,*60
$GLGSV,3,3,10,85,34,269,18,86,02,223,*65
$GNGLL,0419.78517,S,05539.81281,E,045838.00,A,A*60
$GNGRS,045838.00,1,-5.6,-14.8,-3.6,3.9,-5.4,8.5,-7.5,-1.1,,,,*6D
$GNGRS,045838.00,1,1.6,4.3,-4.5,,,,,,,,,*50
$GNGST,045838.00,48,,,,4.1,4.4,12*6F
$GNZDA,045838.00,21,05,2025,00,00*79
$GNGBS,045838.00,4.1,4.4,12.1,,,,*6A
$GNTXT,01,01,01,More than 100 frame errors, UART RX was disabled*70
b0dh:IsR:/E

r#>O
+{4V^:R 
YdEzFI:JXOP(0~ST"NU"VbhO<2x$GNRMC,045839.00,A,0419.78525,S,05539.81285,E,0.044,,210525,,,A*7C
$GNVTG,,T,,M,0.044,N,0.081,K,A*34
$GNGNS,045839.00,0419.78525,S,05539.81285,E,AA,11,0.81,35.8,-47.6,,*64
$GNGGA,045839.00,0419.78525,S,05539.81285,E,1,11,0.81,35.8,M,-47.6,M,,*4E
$GNGSA,A,3,24,20,11,05,13,15,22,12,,,,,1.57,0.81,1.35*15
$GNGSA,A,3,80,73,85,,,,,,,,,,1.57,0.81,1.35*10
$GPGSV,5,1,18,05,58,134,24,11,24,020,25,12,31,000,26,13,20,158,22*76
$GPGSV,5,2,18,14,03,128,09,15,27,193,26,18,21,230,21,20,47,069,22*7B
$GPGSV,5,3,18,22,17,114,18,23,00,214,,24,62,245,35,25,08,335,16*71
$GPGSV,5,4,18,29,10,299,,36,52,277,,40,86,350,,41,58,082,*77
$GPGSV,5,5,18,49,32,274,,50,10,089,*78
$GLGSV,3,1,10,69,12,122,17,70,15,185,,73,58,011,26,74,17,344,*69
$GLGSV,3,2,10,79,01,149,,80,48,126,40,83,01,017,,84,34,334,*60
$GLGSV,3,3,10,85,34,269,20,86,02,223,*6E
$GNGLL,0419.78525,S,05539.81285,E,045839.00,A,A*64
$GNGRS,045839.00,1,-2.5,-17.8,-3.8,3.3,-5.8,10.8,-6.3,-1.4,,,,*55
$GNGRS,045839.00,1,1.5,5.2,-3.8,,,,,,,,,*58
$GNGST,045839.00,45,,,,4.0,4.3,12*65
$GNZDA,045839.00,21,05,2025,00,00*78
$GNGBS,045839.00,4.0,4.3,11.8,,,,*67
$GNTXT,01,01,01,More than 100 frame errors, UART RX was disabled*70
b0dP:Cz**/E<
r">O
+{4V^:R 
YdEzFI;'JXOP(0~ST"NU"VbPO@2P}$GNRMC,045840.00,A,0419.78534,S,05539.81283,E,0.054,,210525,,,A*75
$GNVTG,,T,,M,0.054,N,0.101,K,A*3C
$GNGNS,045840.00,0419.78534,S,05539.81283,E,AA,11,0.85,35.7,-47.6,,*67
$GNGGA,045840.00,0419.78534,S,05539.81283,E,1,11,0.85,35.7,M,-47.6,M,,*4D
$GNGSA,A,3,24,20,11,05,13,15,22,12,,,,,1.66,0.85,1.43*12
$GNGSA,A,3,80,73,85,,,,,,,,,,1.66,0.85,1.43*17
$GPGSV,5,1,18,05,58,134,25,11,24,020,26,12,31,000,27,13,20,158,24*73
$GPGSV,5,2,18,14,03,128,09,15,27,193,26,18,21,230,19,20,47,069,19*78
$GPGSV,5,3,18,22,17,114,21,23,00,214,,24,62,245,34,25,08,335,15*79
$GPGSV,5,4,18,29,10,299,,36,52,277,,40,86,350,,41,58,082,*77
$GPGSV,5,5,18,49,32,274,,50,10,089,*78
$GLGSV,3,1,10,69,12,122,16,70,15,185,,73,59,011,26,74,17,344,*69
$GLGSV,3,2,10,79,01,149,,80,48,126,40,83,01,017,,84,34,334,*60
$GLGSV,3,3,10,85,34,269,20,86,02,223,*6E
$GNGLL,0419.78534,S,05539.81283,E,045840.00,A,A*6C
$GNGRS,045840.00,1,-0.9,-22.4,-3.8,3.2,-6.5,10.7,-7.9,0.0,,,,*7C
$GNGRS,045840.00,1,1.5,5.5,-3.7,,,,,,,,,*5E
$GNGST,045840.00,42,,,,4.0,4.2,12*6D
$GNZDA,045840.00,21,05,2025,00,00*76
$GNGBS,045840.00,4.0,4.2,11.6,,,,*66
$GNTXT,01,01,01,More than 100 frame errors, UART RX was disabled*70
b0d8:'e(o/E
r">*O
+{4V^:R 
YdEzFI;JXOP(0~pST"NU"VEb8OD2($GNRMC,045841.00,A,0419.78535,S,05539.81294,E,0.152,,210525,,,A*74
$GNVTG,,T,,M,0.152,N,0.281,K,A*30
$GNGNS,045841.00,0419.78535,S,05539.81294,E,AA,11,0.85,35.6,-47.6,,*60
$GNGGA,045841.00,0419.78535,S,05539.81294,E,1,11,0.85,35.6,M,-47.6,M,,*4A
$GNGSA,A,3,24,20,11,05,13,15,22,12,,,,,1.66,0.85,1.43*12
$GNGSA,A,3,80,73,85,,,,,,,,,,1.66,0.85,1.43*17
$GPGSV,5,1,18,05,58,134,26,11,24,020,25,12,31,000,28,13,20,158,24*7C
$GPGSV,5,2,18,14,03,128,09,15,27,193,25,18,21,230,16,20,47,069,17*7A
$GPGSV,5,3,18,22,17,114,22,23,00,214,,24,62,245,34,25,08,335,15*7A
$GPGSV,5,4,18,29,10,299,,36,52,277,,40,86,350,,41,58,082,*77
$GPGSV,5,5,18,49,32,274,,50,10,089,*78
$GLGSV,3,1,10,69,12,122,16,70,15,185,,73,59,011,26,74,17,344,*69
$GLGSV,3,2,10,79,01,149,,80,48,126,40,83,01,017,,84,34,334,*60
$GLGSV,3,3,10,85,34,269,21,86,02,223,*6F
$GNGLL,0419.78535,S,05539.81294,E,045841.00,A,A*6A
$GNGRS,045841.00,1,-4.7,-22.8,-0.4,2.9,-5.0,11.4,-7.8,1.0,,,,*7A
$GNGRS,045841.00,1,1.1,4.4,-3.2,,,,,,,,,*5E
$GNGST,045841.00,41,,,,3.9,4.1,11*61
$GNZDA,045841.00,21,05,2025,00,00*77
$GNGBS,045841.00,3.9,4.1,11.4,,,,*68
$GNTXT,01,01,01,More than 100 frame errors, UART RX was disabled*70
b0d :'B/ED
rk">NO
+{4V^:R 
YdLEzFI;JXOP(0~gST"NU"Vjb OH2M$GNRMC,045842.00,A,0419.78538,S,05539.81295,E,0.130,,210525,,,A*7F
$GNVTG,,T,,M,0.130,N,0.241,K,A*38
$GNGNS,045842.00,0419.78538,S,05539.81295,E,AA,11,0.81,35.9,-47.6,,*64
$GNGGA,045842.00,0419.78538,S,05539.81295,E,1,11,0.81,35.9,M,-47.6,M,,*4E
$GNGSA,A,3,24,20,11,05,13,15,22,12,,,,,1.57,0.81,1.35*15
$GNGSA,A,3,80,73,85,,,,,,,,,,1.57,0.81,1.35*10
$GPGSV,5,1,18,05,58,134,25,11,24,020,24,12,31,000,29,13,20,158,23*78
$GPGSV,5,2,18,14,03,128,09,15,27,193,24,18,21,230,12,20,47,069,17*7F
$GPGSV,5,3,18,22,17,114,21,23,00,214,,24,62,245,34,25,08,335,16*7A
$GPGSV,5,4,18,29,10,299,,36,52,277,,40,86,350,,41,58,082,*77
$GPGSV,5,5,18,49,32,274,,50,10,089,*78
$GLGSV,3,1,10,69,12,122,16,70,15,185,,73,59,011,24,74,17,344,*6B
$GLGSV,3,2,10,79,01,149,,80,48,126,40,83,01,017,,84,34,334,*60
$GLGSV,3,3,10,85,34,269,19,86,02,223,*64
$GNGLL,0419.78538,S,05539.81295,E,045842.00,A,A*65
$GNGRS,045842.00,1,-1.8,-22.4,-2.2,2.1,-8.1,11.7,-9.2,0.7,,,,*7E
$GNGRS,045842.00,1,1.0,6.4,-3.0,,,,,,,,,*5C
$GNGST,045842.00,48,,,,3.9,4.1,11*6B
$GNZDA,045842.00,21,05,2025,00,00*74
$GNGBS,045842.00,3.9,4.1,11.3,,,,*6C
$GNTXT,01,01,01,More than 100 frame errors, UART RX was disabled*70
b0d:e\M /E
r!>O
+{4V^:R 
YdEzFI; JXOP'0~sST"NU"VbOL2$GNRMC,045843.00,A,0419.78542,S,05539.81295,E,0.044,,210525,,,A*71
$GNVTG,,T,,M,0.044,N,0.082,K,A*37
$GNGNS,045843.00,0419.78542,S,05539.81295,E,AA,11,0.81,36.1,-47.6,,*63
$GNGGA,045843.00,0419.78542,S,05539.81295,E,1,11,0.81,36.1,M,-47.6,M,,*49
$GNGSA,A,3,24,20,11,05,13,15,22,12,,,,,1.57,0.81,1.35*15
$GNGSA,A,3,80,73,85,,,,,,,,,,1.57,0.81,1.35*10
$GPGSV,5,1,18,05,58,134,25,11,24,020,23,12,31,000,30,13,20,158,23*77
$GPGSV,5,2,18,14,03,128,12,15,27,193,25,18,21,230,09,20,47,069,16*7F
$GPGSV,5,3,18,22,17,114,20,23,00,214,,24,62,245,33,25,08,335,16*7C
$GPGSV,5,4,18,29,10,299,,36,52,277,,40,86,350,,41,58,082,*77
$GPGSV,5,5,18,49,32,274,,50,10,089,*78
$GLGSV,3,1,10,69,12,122,19,70,15,185,,73,59,011,25,74,17,344,*65
$GLGSV,3,2,10,79,01,149,,80,48,126,39,83,01,017,,84,34,334,*6E
$GLGSV,3,3,10,85,34,269,16,86,02,223,*6B
$GNGLL,0419.78542,S,05539.81295,E,045843.00,A,A*69
$GNGRS,045843.00,1,-2.4,-18.4,-1.6,3.6,-9.5,13.1,-8.7,-2.3,,,,*56
$GNGRS,045843.00,1,1.1,8.0,-0.9,,,,,,,,,*5C
$GNGST,045843.00,52,,,,3.9,4.1,11*61
$GNZDA,045843.00,21,05,2025,00,00*75
$GNGBS,045843.00,3.9,4.1,11.2,,,,*6C
$GNTXT,01,01,01,More than 100 frame errors, UART RX was disabled*70
b0d:[@8P/E
r!>O
+{4V^:R 
YdEzFI;JXOP)0~ST"NU"pV;&bO}P2$GNRMC,045844.00,A,0419.78545,S,05539.81297,E,0.081,,210525,,,A*7A
$GNVTG,,T,,M,0.081,N,0.150,K,A*30
$GNGNS,045844.00,0419.78545,S,05539.81297,E,AA,11,0.81,36.4,-47.6,,*64
$GNGGA,045844.00,0419.78545,S,05539.81297,E,1,11,0.81,36.4,M,-47.6,M,,*4E
$GNGSA,A,3,24,20,11,05,13,15,22,12,,,,,1.57,0.81,1.35*15
$GNGSA,A,3,80,73,85,,,,,,,,,,1.57,0.81,1.35*10
$GPGSV,5,1,18,05,58,134,25,11,24,020,24,12,31,000,31,13,20,158,24*76
$GPGSV,5,2,18,14,03,128,13,15,27,193,23,18,21,230,11,20,47,069,16*71
$GPGSV,5,3,18,22,17,114,20,23,00,214,,24,62,245,33,25,08,335,17*7D
$GPGSV,5,4,18,29,10,299,,36,52,277,,40,86,350,,41,58,082,*77
$GPGSV,5,5,18,49,32,274,,50,10,089,*78
$GLGSV,3,1,10,69,12,122,19,70,15,185,,73,59,011,23,74,17,344,*63
$GLGSV,3,2,10,79,01,149,,80,48,126,41,83,01,017,,84,34,334,*61
$GLGSV,3,3,10,85,34,269,16,86,02,223,*6B
$GNGLL,0419.78545,S,05539.81297,E,045844.00,A,A*6B
$GNGRS,045844.00,1,-2.4,-16.5,-0.3,3.5,-9.7,14.1,-8.7,-1.9,,,,*55
$GNGRS,045844.00,1,1.4,10.1,1.1,,,,,,,,,*42
$GNGST,045844.00,51,,,,3.8,4.0,11*65
$GNZDA,045844.00,21,05,2025,00,00*72
$GNGBS,045844.00,3.8,4.0,11.2,,,,*6B
$GNTXT,01,01,01,More than 100 frame errors, UART RX was disabled*70
b0d:(
/E
r!>]O
+{4V^:R 
YdbEzFI;JXOP(0~zST"NU"bVosbOeT2v$GNRMC,045845.00,A,0419.78546,S,05539.81296,E,0.081,,210525,,,A*79
$GNVTG,,T,,M,0.081,N,0.150,K,A*30
$GNGNS,045845.00,0419.78546,S,05539.81296,E,AA,11,0.81,36.5,-47.6,,*66
$GNGGA,045845.00,0419.78546,S,05539.81296,E,1,11,0.81,36.5,M,-47.6,M,,*4C
$GNGSA,A,3,24,20,11,05,13,15,22,12,,,,,1.57,0.81,1.35*15
$GNGSA,A,3,80,73,85,,,,,,,,,,1.57,0.81,1.35*10
$GPGSV,5,1,18,05,58,134,26,11,24,020,24,12,31,000,31,13,20,158,23*72
$GPGSV,5,2,18,14,03,128,10,15,27,193,23,18,21,230,16,20,47,069,16*75
$GPGSV,5,3,18,22,17,114,21,23,00,214,,24,62,245,33,25,08,335,18*73
$GPGSV,5,4,18,29,10,299,,36,52,277,,40,86,350,,41,58,082,*77
$GPGSV,5,5,18,49,32,274,,50,10,089,*78
$GLGSV,3,1,10,69,12,122,17,70,15,185,,73,59,011,23,74,17,344,*6D
$GLGSV,3,2,10,79,01,149,,80,48,126,40,83,01,017,,84,34,334,*60
$GLGSV,3,3,10,85,34,269,21,86,02,223,*6F
$GNGLL,0419.78546,S,05539.81296,E,045845.00,A,A*68
$GNGRS,045845.00,1,-1.6,-16.6,1.4,2.2,-7.3,17.1,-8.6,-0.7,,,,*7C
$GNGRS,045845.00,1,1.2,12.2,1.0,,,,,,,,,*45
$GNGST,045845.00,45,,,,3.8,4.0,11*61
$GNZDA,045845.00,21,05,2025,00,00*73
$GNGBS,045845.00,3.8,4.0,11.2,,,,*6A
$GNTXT,01,01,01,More than 100 frame errors, UART RX was disabled*70
b0d:bH
/E
r >[O
+{4V^:R 
Yd8EzFI;JXOP(0~|ST"NU"V~bOMX2_$GNRMC,045846.00,A,0419.78540,S,05539.81300,E,0.145,,210525,,,A*7B
$GNVTG,,T,,M,0.145,N,0.269,K,A*30
$GNGNS,045846.00,0419.78540,S,05539.81300,E,AA,11,0.85,36.8,-47.6,,*64
$GNGGA,045846.00,0419.78540,S,05539.81300,E,1,11,0.85,36.8,M,-47.6,M,,*4E
$GNGSA,A,3,24,20,11,05,13,15,22,12,,,,,1.66,0.85,1.43*12
$GNGSA,A,3,80,73,85,,,,,,,,,,1.66,0.85,1.43*17
$GPGSV,5,1,18,05,58,134,29,11,24,020,25,12,31,000,30,13,20,158,24*7A
$GPGSV,5,2,18,14,03,128,10,15,27,193,21,18,21,230,17,20,47,069,14*74
$GPGSV,5,3,18,22,17,114,20,23,00,214,,24,62,245,32,25,08,335,17*7C
$GPGSV,5,4,18,29,10,299,,36,52,277,,40,86,350,,41,58,082,*77
$GPGSV,5,5,18,49,32,274,,50,10,089,*78
$GLGSV,3,1,10,69,12,122,15,70,15,185,,73,59,011,26,74,17,344,*6A
$GLGSV,3,2,10,79,01,150,,80,48,126,40,83,01,017,,84,34,334,*68
$GLGSV,3,3,10,85,34,269,19,86,02,223,*64
$GNGLL,0419.78540,S,05539.81300,E,045846.00,A,A*63
$GNGRS,045846.00,1,-1.6,-21.0,-0.7,-3.2,-4.4,19.4,-7.7,1.0,,,,*54
$GNGRS,045846.00,1,1.2,9.8,2.6,,,,,,,,,*73
$GNGST,045846.00,40,,,,3.8,4.0,11*67
$GNZDA,045846.00,21,05,2025,00,00*70
$GNGBS,045846.00,3.8,4.0,11.1,,,,*6A
$GNTXT,01,01,01,More than 100 frame errors, UART RX was disabled*70
b0d:7fY/E'
r >FO
+{4V^:R 
YdEzFI;jJXOP(0_ST"NU"VTbO5\27F$GNRMC,045847.00,A,0419.78534,S,05539.81307,E,0.034,,210525,,,A*79
$GNVTG,,T,,M,0.034,N,0.064,K,A*38
$GNGNS,045847.00,0419.78534,S,05539.81307,E,AA,11,0.94,37.3,-47.6,,*6B
$GNGGA,045847.00,0419.78534,S,05539.81307,E,1,11,0.94,37.3,M,-47.6,M,,*41
$GNGSA,A,3,24,20,11,05,13,15,22,12,,,,,1.75,0.94,1.48*1B
$GNGSA,A,3,80,73,85,,,,,,,,,,1.75,0.94,1.48*1E
$GPGSV,5,1,18,05,58,134,30,11,24,020,25,12,31,000,29,13,20,158,25*7B
$GPGSV,5,2,18,14,03,128,13,15,27,193,18,18,21,230,15,20,47,069,17*7C
$GPGSV,5,3,18,22,17,114,21,23,00,214,,24,62,245,32,25,08,335,*7B
$GPGSV,5,4,18,29,10,299,,36,52,277,,40,86,350,,41,58,082,*77
$GPGSV,5,5,18,49,32,274,,50,10,089,*78
$GLGSV,3,1,10,69,12,122,14,70,15,185,,73,59,011,27,74,17,344,*6A
$GLGSV,3,2,10,79,01,150,,80,48,127,40,83,01,017,,84,34,334,*69
$GLGSV,3,3,10,85,34,269,18,86,02,223,*65
$GNGLL,0419.78534,S,05539.81307,E,045847.00,A,A*66
$GNGRS,045847.00,1,-1.9,-20.1,-2.0,-3.8,-6.2,21.4,-10.0,-1.5,,,,*43
$GNGRS,045847.00,1,0.9,8.7,1.6,,,,,,,,,*75
$GNGST,045847.00,43,,,,3.8,4.0,11*65
$GNZDA,045847.00,21,05,2025,00,00*71
$GNGBS,045847.00,3.8,4.0,11.1,,,,*6B
