b0X9Ug
b0IpC?eN
({4V^
:R 
YctE}FI7
JXOP2zST$LU#
V(bO-y$GNRMC,045333.00,A,0419.78294,S,05539.80514,E,0.314,,210525,,,A*78
$GNVTG,,T,,M,0.314,N,0.582,K,A*34
$GNGNS,045333.00,0419.78294,S,05539.80514,E,AA,10,0.91,24.3,-47.6,,*6D
$GNGGA,045333.00,0419.78294,S,05539.80514,E,1,10,0.91,24.3,M,-47.6,M,,*47
$GNGSA,A,3,24,20,11,05,15,22,12,,,,,,1.94,0.91,1.71*19
$GNGSA,A,3,80,73,85,,,,,,,,,,1.94,0.91,1.71*1E
$GPGSV,5,1,17,05,57,138,28,11,26,020,15,12,29,359,23,13,21,160,08*76
$GPGSV,5,2,17,14,04,127,08,15,27,195,19,18,20,229,14,20,48,073,27*79
$GPGSV,5,3,17,22,18,112,14,24,63,251,30,25,07,334,,29,10,296,*72
$GPGSV,5,4,17,36,52,277,,40,86,350,28,41,58,082,,49,32,274,*77
$GPGSV,5,5,17,50,10,089,*4A
$GLGSV,3,1,10,69,12,125,,70,14,188,,73,55,010,16,74,14,344,*68
$GLGSV,3,2,10,79,03,148,,80,50,122,18,83,03,015,,84,36,332,06*61
$GLGSV,3,3,10,85,35,266,16,86,00,221,*65
$GNGLL,0419.78294,S,05539.80514,E,045333.00,A,A*66
$GNGRS,045333.00,1,1.0,9.1,0.8,7.7,-0.5,-14.7,5.2,,,,,*4D
$GNGRS,045333.00,1,19.9,-3.4,11.9,,,,,,,,,*5E
$GNGST,045333.00,99931,,,,5.9,6.3,17*51
$GNZDA,045333.00,21,05,2025,00,00*79
$GNGBS,045333.00,5.9,6.3,16.8,,,,*6B
$GNTXT,01,01,01,More than 100 frame errors, UART RX was disabled*70
b0X9/g0Ips?3N
({4V^
:R 
YcRE}FI7
JXOP2zST$LU#
VDbbO-Q$GNRMC,045334.00,A,0419.78293,S,05539.80518,E,0.240,,210525,,,A*74
$GNVTG,,T,,M,0.240,N,0.445,K,A*3E
$GNGNS,045334.00,0419.78293,S,05539.80518,E,AA,10,0.88,23.5,-47.6,,*68
$GNGGA,045334.00,0419.78293,S,05539.80518,E,1,10,0.88,23.5,M,-47.6,M,,*42
$GNGSA,A,3,24,20,11,05,13,15,22,,,,,,1.67,0.88,1.42*1C
$GNGSA,A,3,80,73,85,,,,,,,,,,1.67,0.88,1.42*1A
$GPGSV,5,1,17,05,57,138,28,11,26,020,15,12,29,359,,13,21,160,12*7C
$GPGSV,5,2,17,14,04,127,12,15,27,195,18,18,20,229,14,20,48,073,28*7C
$GPGSV,5,3,17,22,18,112,15,24,63,251,29,25,07,334,,29,10,296,*7B
$GPGSV,5,4,17,36,52,277,,40,86,350,27,41,58,082,,49,32,274,*78
$GPGSV,5,5,17,50,10,089,*4A
$GLGSV,3,1,10,69,12,125,,70,14,188,,73,55,010,12,74,14,344,*6C
$GLGSV,3,2,10,79,03,148,,80,50,122,17,83,03,015,,84,36,332,06*6E
$GLGSV,3,3,10,85,35,266,13,86,00,221,*60
$GNGLL,0419.78293,S,05539.80518,E,045334.00,A,A*6A
$GNGRS,045334.00,1,-4.6,5.2,2.0,5.6,9.0,1.8,-16.8,,,,,*40
$GNGRS,045334.00,1,17.9,-0.8,12.1,,,,,,,,,*53
$GNGST,045334.00,127832,,,,6.0,6.3,17*6A
$GNZDA,045334.00,21,05,2025,00,00*7E
$GNGBS,045334.00,6.0,6.3,16.9,,,,*67
$GNTXT,01,01,01,More than 100 frame errors, UART RX was disabled*70
b0X"9/g@g0Ihp?hN
({4V^
:R 
YcE}FI7
KJXOP2zST$LU#
QVGb"Ou-(N$GNRMC,045335.00,A,0419.78274,S,05539.80512,E,0.799,,210525,,,A*77
$GNVTG,,T,,M,0.799,N,1.481,K,A*36
$GNGNS,045335.00,0419.78274,S,05539.80512,E,AA,10,0.88,24.0,-47.6,,*68
$GNGGA,045335.00,0419.78274,S,05539.80512,E,1,10,0.88,24.0,M,-47.6,M,,*42
$GNGSA,A,3,24,20,11,05,13,15,22,,,,,,1.67,0.88,1.42*1C
$GNGSA,A,3,80,73,85,,,,,,,,,,1.67,0.88,1.42*1A
$GPGSV,5,1,17,05,57,138,29,11,26,020,19,12,29,359,,13,21,160,14*77
$GPGSV,5,2,17,14,04,127,09,15,27,195,17,18,20,229,12,20,48,073,25*72
$GPGSV,5,3,17,22,18,112,14,24,63,251,28,25,07,334,,29,10,296,*7B
$GPGSV,5,4,17,36,52,277,,40,86,350,,41,58,082,,49,32,274,*7D
$GPGSV,5,5,17,50,10,089,*4A
$GLGSV,3,1,10,69,12,125,,70,14,188,,73,55,010,18,74,14,344,*66
$GLGSV,3,2,10,79,03,148,,80,50,122,19,83,03,015,,84,36,332,08*6E
$GLGSV,3,3,10,85,35,266,17,86,00,221,*64
$GNGLL,0419.78274,S,05539.80512,E,045335.00,A,A*68
$GNGRS,045335.00,1,-1.5,3.6,2.5,5.6,0.6,1.3,-18.9,,,,,*4B
$GNGRS,045335.00,1,14.8,-1.8,23.8,,,,,,,,,*5A
$GNGST,045335.00,57,,,,6.1,6.3,17*65
$GNZDA,045335.00,21,05,2025,00,00*7F
$GNGBS,045335.00,6.1,6.3,17.0,,,,*6F
$GNTXT,01,01,01,More than 100 frame errors, UART RX was disabled*70
b0X&9.
gW8
0Ip<?<N
({4V^
:R 
Y
cE}FI7
JXOP2zST$LU#
*V^6b&O]-$GNRMC,045336.00,A,0419.78259,S,05539.80525,E,0.527,,210525,,,A*78
$GNVTG,,T,,M,0.527,N,0.976,K,A*35
$GNGNS,045336.00,0419.78259,S,05539.80525,E,AA,10,0.90,24.2,-47.6,,*6B
$GNGGA,045336.00,0419.78259,S,05539.80525,E,1,10,0.90,24.2,M,-47.6,M,,*41
$GNGSA,A,3,24,20,11,05,13,15,22,,,,,,1.85,0.90,1.61*18
$GNGSA,A,3,80,73,85,,,,,,,,,,1.85,0.90,1.61*1E
$GPGSV,5,1,17,05,57,138,29,11,26,020,18,12,29,359,10,13,21,160,15*76
$GPGSV,5,2,17,14,04,127,09,15,27,195,19,18,20,229,10,20,48,073,25*7E
$GPGSV,5,3,17,22,18,112,13,24,63,251,28,25,07,334,,29,10,296,*7C
$GPGSV,5,4,17,36,52,277,,40,86,350,,41,58,082,,49,32,274,*7D
$GPGSV,5,5,17,50,10,089,*4A
$GLGSV,3,1,10,69,12,125,,70,14,188,,73,55,010,21,74,14,344,*6C
$GLGSV,3,2,10,79,03,148,,80,50,122,21,83,03,015,,84,36,332,08*65
$GLGSV,3,3,10,85,35,266,12,86,00,221,*61
$GNGLL,0419.78259,S,05539.80525,E,045336.00,A,A*60
$GNGRS,045336.00,1,-2.0,4.0,4.2,3.0,12.4,0.6,-17.3,,,,,*7E
$GNGRS,045336.00,1,12.2,-2.7,3.0,,,,,,,,,*63
$GNGST,045336.00,189605,,,,6.2,6.3,17*64
$GNZDA,045336.00,21,05,2025,00,00*7C
$GNGBS,045336.00,6.2,6.3,17.2,,,,*6D
$GNTXT,01,01,01,More than 100 frame errors, UART RX was disabled*70
b0X*9>g
0I%p?RN
({4V^
:R 
YcE}FI7
JXOP2zST$LU#
Vlb*OE-$GNRMC,045337.00,A,0419.78256,S,05539.80536,E,0.043,,210525,,,A*73
$GNVTG,,T,,M,0.043,N,0.080,K,A*32
$GNGNS,045337.00,0419.78256,S,05539.80536,E,AA,10,0.90,25.5,-47.6,,*61
$GNGGA,045337.00,0419.78256,S,05539.80536,E,1,10,0.90,25.5,M,-47.6,M,,*4B
$GNGSA,A,3,24,20,11,05,13,15,22,,,,,,1.85,0.90,1.61*18
$GNGSA,A,3,80,73,85,,,,,,,,,,1.85,0.90,1.61*1E
$GPGSV,5,1,17,05,57,138,29,11,26,020,19,12,29,359,17,13,21,160,13*76
$GPGSV,5,2,17,14,04,127,09,15,27,195,19,18,20,229,10,20,48,073,26*7D
$GPGSV,5,3,17,22,18,112,13,24,63,251,28,25,07,334,,29,10,296,*7C
$GPGSV,5,4,17,36,52,277,,40,86,350,27,41,58,082,,49,32,274,*78
$GPGSV,5,5,17,50,10,089,*4A
$GLGSV,3,1,10,69,12,125,,70,15,187,,73,55,010,21,74,14,344,*62
$GLGSV,3,2,10,79,03,148,,80,50,122,22,83,03,015,,84,36,332,13*6C
$GLGSV,3,3,10,85,35,266,19,86,00,221,*6A
$GNGLL,0419.78256,S,05539.80536,E,045337.00,A,A*6C
$GNGRS,045337.00,1,3.4,15.7,0.6,7.8,12.5,-0.2,-16.0,,,,,*46
$GNGRS,045337.00,1,10.4,-1.1,2.7,,,,,,,,,*65
$GNGST,045337.00,282149,,,,6.3,6.3,17*63
$GNZDA,045337.00,21,05,2025,00,00*7D
$GNGBS,045337.00,6.3,6.3,17.4,,,,*6B
$GNTXT,01,01,01,More than 100 frame errors, UART RX was disabled*70
b0X.!9^gG3
B#0Ip?N
({4!V^
:R 
YcE}FI7
JXOP2z=ST$LU#
Vb.O--$GNRMC,045338.00,A,0419.78274,S,05539.80544,E,0.077,,210525,,,A*7E
$GNVTG,,T,,M,0.077,N,0.142,K,A*3A
$GNGNS,045338.00,0419.78274,S,05539.80544,E,AA,11,0.82,25.6,-47.6,,*6A
$GNGGA,045338.00,0419.78274,S,05539.80544,E,1,11,0.82,25.6,M,-47.6,M,,*40
$GNGSA,A,3,24,20,11,05,15,22,12,,,,,,1.84,0.82,1.64*1E
$GNGSA,A,3,84,80,73,85,,,,,,,,,1.84,0.82,1.64*15
$GPGSV,5,1,17,05,57,138,33,11,26,020,17,12,29,359,22,13,21,160,19*7F
$GPGSV,5,2,17,14,04,127,10,15,27,195,19,18,20,229,12,20,48,073,25*74
$GPGSV,5,3,17,22,18,112,14,24,63,251,28,25,07,334,,29,10,296,*7B
$GPGSV,5,4,17,36,52,277,,40,86,350,33,41,58,082,,49,32,274,*7D
$GPGSV,5,5,17,50,10,089,*4A
$GLGSV,3,1,10,69,12,125,,70,15,187,,73,55,010,30,74,14,344,*62
$GLGSV,3,2,10,79,03,148,,80,50,122,21,83,03,015,,84,36,332,13*6F
$GLGSV,3,3,10,85,35,266,17,86,00,221,*64
$GNGLL,0419.78274,S,05539.80544,E,045338.00,A,A*66
$GNGRS,045338.00,1,4.5,22.7,-3.0,0.9,-0.7,-13.0,0.7,,,,,*54
$GNGRS,045338.00,1,-144,8.3,-6.1,4.1,,,,,,,,*4F
$GNGST,045338.00,72,,,,6.3,6.2,17*6C
$GNZDA,045338.00,21,05,2025,00,00*72
$GNGBS,045338.00,6.3,6.2,17.5,,,,*64
$GNTXT,01,01,01,More than 100 frame errors, UART RX was disabled*70
b0X29+g
0Ip?N
({4"V^
:R 
Yc*E}FI7
JXOP2zST$LU#
 Vb2O-$GNRMC,045339.00,A,0419.78268,S,05539.80547,E,0.127,,210525,,,A*75
$GNVTG,,T,,M,0.127,N,0.235,K,A*3D
$GNGNS,045339.00,0419.78268,S,05539.80547,E,AA,11,0.82,23.4,-47.6,,*61
$GNGGA,045339.00,0419.78268,S,05539.80547,E,1,11,0.82,23.4,M,-47.6,M,,*4B
$GNGSA,A,3,24,20,11,05,15,22,12,,,,,,1.84,0.82,1.64*1E
$GNGSA,A,3,84,80,73,85,,,,,,,,,1.84,0.82,1.64*15
$GPGSV,5,1,17,05,57,138,31,11,26,020,15,12,29,359,23,13,21,160,18*7F
$GPGSV,5,2,17,14,04,127,10,15,27,195,17,18,20,229,15,20,48,073,31*78
$GPGSV,5,3,17,22,18,112,14,24,63,251,28,25,07,334,,29,10,296,*7B
$GPGSV,5,4,17,36,52,277,,40,86,350,34,41,58,082,,49,32,274,*7A
$GPGSV,5,5,17,50,10,089,*4A
$GLGSV,3,1,10,69,12,125,,70,15,187,,73,55,010,28,74,14,344,*6B
$GLGSV,3,2,10,79,03,148,,80,50,122,20,83,03,015,,84,36,332,13*6E
$GLGSV,3,3,10,85,35,266,19,86,00,221,*6A
$GNGLL,0419.78268,S,05539.80547,E,045339.00,A,A*69
$GNGRS,045339.00,1,2.5,12.0,-5.8,3.0,-0.2,-13.1,17.4,,,,,*62
$GNGRS,045339.00,1,1.6,7.6,-8.1,5.4,,,,,,,,*7B
$GNGST,045339.00,3616,,,,6.2,6.2,18*64
$GNZDA,045339.00,21,05,2025,00,00*73
$GNGBS,045339.00,6.2,6.2,17.6,,,,*67
$GNTXT,01,01,01,More than 100 frame errors, UART RX was disabled*70
b0Xp69Jgo
}0Ip?N
({4"V^
:R 
Y
ckE}FI8
JXOP2zKST$LoU#
dVbp6O-_S$GNRMC,045340.00,A,0419.78271,S,05539.80541,E,0.523,,210525,,,A*75
$GNVTG,,T,,M,0.523,N,0.969,K,A*3F
$GNGNS,045340.00,0419.78271,S,05539.80541,E,AA,11,0.80,23.3,-47.6,,*64
$GNGGA,045340.00,0419.78271,S,05539.80541,E,1,11,0.80,23.3,M,-47.6,M,,*4E
$GNGSA,A,3,24,20,11,05,15,22,12,,,,,,1.61,0.80,1.40*11
$GNGSA,A,3,84,80,73,85,,,,,,,,,1.61,0.80,1.40*1A
$GPGSV,5,1,17,05,57,138,29,11,26,020,15,12,29,359,24,13,21,160,18*71
$GPGSV,5,2,17,14,04,127,10,15,27,195,15,18,20,229,17,20,48,073,31*78
$GPGSV,5,3,17,22,18,112,17,24,63,251,28,25,07,334,,29,10,296,*78
$GPGSV,5,4,17,36,52,277,,40,86,350,34,41,58,082,,49,32,274,*7A
$GPGSV,5,5,17,50,10,089,*4A
$GLGSV,3,1,10,69,12,125,,70,15,187,,73,56,010,26,74,14,344,*66
$GLGSV,3,2,10,79,03,148,,80,50,122,18,83,03,015,,84,36,332,13*65
$GLGSV,3,3,10,85,35,266,17,86,00,221,*64
$GNGLL,0419.78271,S,05539.80541,E,045340.00,A,A*69
$GNGRS,045340.00,1,0.0,5.0,-6.9,5.2,5.2,-14.0,14.5,,,,,*77
$GNGRS,045340.00,1,1.1,8.4,-4.9,3.6,,,,,,,,*7F
$GNGST,045340.00,5193,,,,6.2,6.1,18*65
$GNZDA,045340.00,21,05,2025,00,00*7D
$GNGBS,045340.00,6.2,6.1,17.6,,,,*6A
$GNTXT,01,01,01,More than 100 frame errors, UART RX was disabled*70
b0XX:9g`
0Ip?N
({4V^
:R 
YcE}FI8
JXOP2zST$LU#
V6fbX:O-7$GNRMC,045341.00,A,0419.78277,S,05539.80533,E,0.105,,210525,,,A*77
$GNVTG,,T,,M,0.105,N,0.194,K,A*35
$GNGNS,045341.00,0419.78277,S,05539.80533,E,AA,11,0.82,23.0,-47.6,,*67
$GNGGA,045341.00,0419.78277,S,05539.80533,E,1,11,0.82,23.0,M,-47.6,M,,*4D
$GNGSA,A,3,24,20,11,05,15,22,12,,,,,,1.84,0.82,1.64*1E
$GNGSA,A,3,84,80,73,85,,,,,,,,,1.84,0.82,1.64*15
$GPGSV,5,1,17,05,57,138,28,11,26,020,17,12,29,359,26,13,21,160,18*70
$GPGSV,5,2,17,14,04,127,10,15,27,195,17,18,20,229,20,20,48,073,30*7F
$GPGSV,5,3,17,22,18,112,18,24,63,251,28,25,07,334,,29,10,296,*77
$GPGSV,5,4,17,36,52,277,,40,86,350,31,41,58,082,,49,32,274,*7F
$GPGSV,5,5,17,50,10,089,*4A
$GLGSV,3,1,10,69,12,125,,70,15,187,,73,56,010,25,74,15,344,*64
$GLGSV,3,2,10,79,03,148,,80,50,122,21,83,03,015,,84,36,332,11*6D
$GLGSV,3,3,10,85,35,266,17,86,00,221,*64
$GNGLL,0419.78277,S,05539.80533,E,045341.00,A,A*6B
$GNGRS,045341.00,1,0.1,0.0,-8.5,7.5,4.8,-16.1,9.2,,,,,*46
$GNGRS,045341.00,1,2.1,7.7,-10.1,1.3,,,,,,,,*4B
$GNGST,045341.00,52,,,,6.1,6.0,18*6F
$GNZDA,045341.00,21,05,2025,00,00*7C
$GNGBS,045341.00,6.1,6.0,17.6,,,,*69
$GNTXT,01,01,01,More than 100 frame errors, UART RX was disabled*70
b0X@>9|:g
 0Ip?iN
({4V^
:R 
YcE}FI8
2JXOP2zJST$LU#
vV:b@>O-#$GNRMC,045342.00,A,0419.78267,S,05539.80520,E,0.446,,210525,,,A*75
$GNVTG,,T,,M,0.446,N,0.825,K,A*34
$GNGNS,045342.00,0419.78267,S,05539.80520,E,AA,12,0.79,24.1,-47.6,,*66
$GNGGA,045342.00,0419.78267,S,05539.80520,E,1,12,0.79,24.1,M,-47.6,M,,*4C
$GNGSA,A,3,24,20,11,05,13,15,22,12,,,,,1.71,0.79,1.52*17
$GNGSA,A,3,84,80,73,85,,,,,,,,,1.71,0.79,1.52*1E
$GPGSV,5,1,17,05,57,138,29,11,26,020,21,12,29,359,27,13,21,160,16*7B
$GPGSV,5,2,17,14,04,127,10,15,27,195,18,18,20,229,20,20,48,073,32*72
$GPGSV,5,3,17,22,18,112,20,24,63,251,28,25,07,334,,29,10,296,*7C
$GPGSV,5,4,17,36,52,277,,40,86,350,31,41,58,082,,49,32,274,*7F
$GPGSV,5,5,17,50,10,089,*4A
$GLGSV,3,1,10,69,12,125,,70,15,187,,73,56,010,25,74,15,344,*64
$GLGSV,3,2,10,79,03,148,,80,50,122,22,83,03,015,,84,36,332,09*67
$GLGSV,3,3,10,85,35,266,19,86,00,221,*6A
$GNGLL,0419.78267,S,05539.80520,E,045342.00,A,A*6B
$GNGRS,045342.00,1,-1.5,-2.7,-9.7,-1.3,-23.8,8.0,-17.7,6.7,,,,*58
$GNGRS,045342.00,1,2.5,8.4,-14.9,1.2,,,,,,,,*4D
$GNGST,045342.00,17309,,,,6.0,5.9,17*53
$GNZDA,045342.00,21,05,2025,00,00*7F
$GNGBS,045342.00,6.0,5.9,17.4,,,,*63
$GNTXT,01,01,01,More than 100 frame errors, UART RX was disabled*70
b0X(B9Dg,} 0Ipv!?N
({4V^
:R 
Yc4E}FI8
aJXOP2zST$LU#
V.b(BO-$GNRMC,045343.00,A,0419.78285,S,05539.80528,E,0.168,,210525,,,A*79
$GNVTG,,T,,M,0.168,N,0.311,K,A*31
$GNGNS,045343.00,0419.78285,S,05539.80528,E,AA,12,0.79,22.6,-47.6,,*62
$GNGGA,045343.00,0419.78285,S,05539.80528,E,1,12,0.79,22.6,M,-47.6,M,,*48
$GNGSA,A,3,24,20,11,05,13,15,22,12,,,,,1.71,0.79,1.52*17
$GNGSA,A,3,84,80,73,85,,,,,,,,,1.71,0.79,1.52*1E
$GPGSV,5,1,17,05,57,138,30,11,26,020,21,12,29,359,27,13,21,160,16*73
$GPGSV,5,2,17,14,04,127,07,15,27,195,19,18,20,229,19,20,48,073,32*7F
$GPGSV,5,3,17,22,18,112,19,24,63,251,33,25,07,334,,29,10,296,*7C
$GPGSV,5,4,17,36,52,277,,40,86,350,31,41,58,082,,49,32,274,*7F
$GPGSV,5,5,17,50,10,089,*4A
$GLGSV,3,1,10,69,12,125,,70,15,187,,73,56,010,25,74,15,344,*64
$GLGSV,3,2,10,79,03,148,,80,50,122,29,83,03,015,,84,36,332,11*65
$GLGSV,3,3,10,85,35,266,22,86,00,221,*62
$GNGLL,0419.78285,S,05539.80528,E,045343.00,A,A*6E
$GNGRS,045343.00,1,-5.7,-1.0,-10.5,3.2,-27.7,6.4,-16.7,3.9,,,,*44
$GNGRS,045343.00,1,2.8,6.7,-14.4,1.5,,,,,,,,*46
$GNGST,045343.00,25963,,,,5.9,5.8,17*5E
$GNZDA,045343.00,21,05,2025,00,00*7E
$GNGBS,045343.00,5.9,5.8,17.1,,,,*6C
$GNTXT,01,01,01,More than 100 frame errors, UART RX was disabled*70
b0XF9gcB0Ip5?xN
({4V^
:R 
Yc$E}FI8
JXOP2zST
$L]U#
VUUbFO-$GNRMC,045344.00,A,0419.78298,S,05539.80533,E,0.299,,210525,,,A*75
$GNVTG,,T,,M,0.299,N,0.554,K,A*3B
$GNGNS,045344.00,0419.78298,S,05539.80533,E,AA,12,0.83,23.4,-47.6,,*65
$GNGGA,045344.00,0419.78298,S,05539.80533,E,1,12,0.83,23.4,M,-47.6,M,,*4F
$GNGSA,A,3,24,20,11,05,13,15,22,12,,,,,1.74,0.83,1.53*16
$GNGSA,A,3,84,80,73,85,,,,,,,,,1.74,0.83,1.53*1F
$GPGSV,5,1,17,05,57,138,29,11,26,020,20,12,29,359,26,13,21,160,19*74
$GPGSV,5,2,17,14,04,127,11,15,27,195,19,18,20,229,17,20,48,073,27*72
$GPGSV,5,3,17,22,18,112,18,24,63,251,28,25,07,334,,29,10,296,19*7F
$GPGSV,5,4,17,36,52,277,,40,86,350,31,41,58,082,,49,32,274,*7F
$GPGSV,5,5,17,50,10,089,*4A
$GLGSV,3,1,10,69,12,125,,70,15,187,,73,56,010,26,74,15,344,*67
$GLGSV,3,2,10,79,03,148,,80,50,122,29,83,03,015,,84,36,332,10*64
$GLGSV,3,3,10,85,35,266,23,86,00,221,*63
$GNGLL,0419.78298,S,05539.80533,E,045344.00,A,A*6F
$GNGRS,045344.00,1,-3.9,1.9,-13.3,7.9,-14.4,5.8,-17.4,2.2,,,,*61
$GNGRS,045344.00,1,-88.7,4.7,-10.5,-1.3,,,,,,,,*7D
$GNGST,045344.00,45,,,,5.9,5.7,17*6C
$GNZDA,045344.00,21,05,2025,00,00*79
$GNGBS,045344.00,5.9,5.7,17.0,,,,*65
$GNTXT,01,01,01,More than 100 frame errors, UART RX was disabled*70
b0XI9;g
0I8p?N
({4V^
:R 
YcEE}FI8
;JXOP2z/ST$LU#
%VKobIO-L$GNRMC,045345.00,A,0419.78302,S,05539.80540,E,0.147,,210525,,,A*72
$GNVTG,,T,,M,0.147,N,0.273,K,A*39
$GNGNS,045345.00,0419.78302,S,05539.80540,E,AA,12,0.79,24.2,-47.6,,*66
$GNGGA,045345.00,0419.78302,S,05539.80540,E,1,12,0.79,24.2,M,-47.6,M,,*4C
$GNGSA,A,3,24,20,11,05,13,15,22,12,,,,,1.71,0.79,1.52*17
$GNGSA,A,3,84,80,73,85,,,,,,,,,1.71,0.79,1.52*1E
$GPGSV,5,1,17,05,57,138,28,11,26,020,19,12,29,359,25,13,21,160,18*7D
$GPGSV,5,2,17,14,04,127,10,15,27,195,17,18,20,229,19,20,48,073,28*7C
$GPGSV,5,3,17,22,18,112,16,24,63,251,28,25,07,334,,29,10,296,15*7D
$GPGSV,5,4,17,36,52,277,,40,86,350,30,41,58,082,,49,32,274,*7E
$GPGSV,5,5,17,50,10,089,*4A
$GLGSV,3,1,10,69,12,125,,70,15,187,,73,56,010,25,74,15,344,*64
$GLGSV,3,2,10,79,03,148,,80,50,122,28,83,03,015,,84,36,332,17*62
$GLGSV,3,3,10,85,35,266,25,86,00,221,*65
$GNGLL,0419.78302,S,05539.80540,E,045345.00,A,A*68
$GNGRS,045345.00,1,-2.3,5.7,-17.3,10.0,-12.5,5.3,-17.7,2.3,,,,*54
$GNGRS,045345.00,1,2.6,3.0,-7.1,0.4,,,,,,,,*7B
$GNGST,045345.00,3434011,,,,5.8,5.6,17*5C
$GNZDA,045345.00,21,05,2025,00,00*78
$GNGBS,045345.00,5.8,5.6,16.9,,,,*6C
$GNTXT,01,01,01,More than 100 frame errors, UART RX was disabled*70
b0XM9gTw.0Ip?lN
({4V^
:R 
YcvE}FI8
JXOP2zST
$LU#
nVEbMOm-n$GNRMC,045346.00,A,0419.78310,S,05539.80541,E,0.132,,210525,,,A*71
$GNVTG,,T,,M,0.132,N,0.245,K,A*3E
$GNGNS,045346.00,0419.78310,S,05539.80541,E,AA,12,0.79,24.2,-47.6,,*67
$GNGGA,045346.00,0419.78310,S,05539.80541,E,1,12,0.79,24.2,M,-47.6,M,,*4D
$GNGSA,A,3,24,20,11,05,13,15,22,12,,,,,1.71,0.79,1.52*17
$GNGSA,A,3,84,80,73,85,,,,,,,,,1.71,0.79,1.52*1E
$GPGSV,5,1,17,05,57,138,28,11,26,020,17,12,29,359,25,13,21,160,17*7C
$GPGSV,5,2,17,14,04,127,12,15,27,195,18,18,20,229,16,20,48,073,28*7E
$GPGSV,5,3,17,22,18,112,15,24,63,251,28,25,07,334,,29,10,296,12*79
$GPGSV,5,4,17,36,52,277,,40,86,350,29,41,58,082,,49,32,274,*76
$GPGSV,5,5,17,50,10,089,*4A
$GLGSV,3,1,10,69,12,125,,70,15,187,,73,56,010,25,74,15,344,*64
$GLGSV,3,2,10,79,03,149,,80,50,122,27,83,03,015,,84,36,332,10*6B
$GLGSV,3,3,10,85,35,266,26,86,00,221,*66
$GNGLL,0419.78310,S,05539.80541,E,045346.00,A,A*69
$GNGRS,045346.00,1,-4.0,-3.1,-18.0,10.3,-10.8,3.0,-17.9,3.4,,,,*72
$GNGRS,045346.00,1,2.7,0.2,-7.5,1.1,,,,,,,,*78
$GNGST,045346.00,3434011,,,,5.8,5.5,17*5C
$GNZDA,045346.00,21,05,2025,00,00*7B
$GNGBS,045346.00,5.8,5.5,16.6,,,,*63
$GNTXT,01,01,01,More than 100 frame errors, UART RX was disabled*70
b0XQ9=g0Ip?oN
({4V^
:R 
Yc#E}FI8
jJXOP1{GST
$LU#
fVbQOU-F$GNRMC,045347.00,A,0419.78310,S,05539.80535,E,0.250,,210525,,,A*74
$GNVTG,,T,,M,0.250,N,0.463,K,A*3B
$GNGNS,045347.00,0419.78310,S,05539.80535,E,AA,12,0.79,24.2,-47.6,,*65
$GNGGA,045347.00,0419.78310,S,05539.80535,E,1,12,0.79,24.2,M,-47.6,M,,*4F
$GNGSA,A,3,24,20,11,05,13,15,22,12,,,,,1.71,0.79,1.52*17
$GNGSA,A,3,84,80,73,85,,,,,,,,,1.71,0.79,1.52*1E
$GPGSV,5,1,17,05,57,138,26,11,26,020,16,12,29,359,26,13,21,160,17*70
$GPGSV,5,2,17,14,04,127,14,15,27,195,19,18,20,229,17,20,48,073,27*77
$GPGSV,5,3,17,22,18,112,16,24,63,251,28,25,07,334,,29,10,296,14*7C
$GPGSV,5,4,17,36,52,277,,40,86,350,31,41,58,082,,49,32,274,*7F
$GPGSV,5,5,17,50,10,089,*4A
$GLGSV,3,1,10,69,12,125,,70,15,187,,73,56,010,25,74,15,344,*64
$GLGSV,3,2,10,79,03,149,,80,49,123,25,83,03,015,,84,36,332,10*60
$GLGSV,3,3,10,85,35,266,25,86,00,221,*65
$GNGLL,0419.78310,S,05539.80535,E,045347.00,A,A*6B
$GNGRS,045347.00,1,1.1,-2.4,-18.5,13.4,-5.5,5.3,-16.1,6.9,,,,*62
$GNGRS,045347.00,1,11.9,-1.8,-6.6,1.0,,,,,,,,*60
$GNGST,045347.00,55,,,,5.7,5.5,17*62
$GNZDA,045347.00,21,05,2025,00,00*7A
$GNGBS,045347.00,5.7,5.5,16.5,,,,*6E
$GNTXT,01,01,01,More than 100 frame errors, UART RX was disabled*70
b0XU9g
0Igp?N
({4"V^
:R 
YcE}FI8
JXOP1{gST$LU#
ZVgbUO=-$GNRMC,045348.00,A,0419.78283,S,05539.80517,E,1.182,,210525,,,A*7D
$GNVTG,,T,,M,1.182,N,2.189,K,A*35
$GNGNS,045348.00,0419.78283,S,05539.80517,E,AA,12,0.79,25.3,-47.6,,*61
$GNGGA,045348.00,0419.78283,S,05539.80517,E,1,12,0.79,25.3,M,-47.6,M,,*4B
$GNGSA,A,3,24,20,11,05,13,15,22,12,,,,,1.71,0.79,1.52*17
$GNGSA,A,3,84,80,73,85,,,,,,,,,1.71,0.79,1.52*1E
$GPGSV,5,1,17,05,57,138,25,11,26,020,18,12,29,359,22,13,21,160,18*76
$GPGSV,5,2,17,14,04,127,10,15,27,195,17,18,20,229,14,20,48,073,30*78
$GPGSV,5,3,17,22,18,112,14,24,63,251,28,25,07,334,,29,10,296,15*7F
$GPGSV,5,4,17,36,52,277,,40,86,350,34,41,58,082,,49,32,274,*7A
$GPGSV,5,5,17,50,10,089,*4A
$GLGSV,3,1,10,69,12,125,,70,15,187,,73,56,010,23,74,15,344,*62
$GLGSV,3,2,10,79,03,149,,80,49,123,26,83,03,015,,84,36,332,08*6A
$GLGSV,3,3,10,85,35,266,26,86,00,221,*66
$GNGLL,0419.78283,S,05539.80517,E,045348.00,A,A*6F
$GNGRS,045348.00,1,4.9,-1.5,-17.8,12.7,-5.4,7.9,-17.9,7.6,,,,*6C
$GNGRS,045348.00,1,2.1,-4.1,-5.3,0.9,,,,,,,,*57
$GNGST,045348.00,110775,,,,5.8,5.4,17*66
$GNZDA,045348.00,21,05,2025,00,00*75
$GNGBS,045348.00,5.8,5.4,16.5,,,,*6F
$GNTXT,01,01,01,More than 100 frame errors, UART RX was disabled*70
b0XY9*4g.0Ip?N
({4!V^
:R 
YcE}FI8
JXOP1{ST
$LU#
tV(bYO%-$GNRMC,045349.00,A,0419.78272,S,05539.80512,E,0.407,,210525,,,A*7E
$GNVTG,,T,,M,0.407,N,0.753,K,A*3F
$GNGNS,045349.00,0419.78272,S,05539.80512,E,AA,12,0.79,26.1,-47.6,,*6A
$GNGGA,045349.00,0419.78272,S,05539.80512,E,1,12,0.79,26.1,M,-47.6,M,,*40
$GNGSA,A,3,24,20,11,05,13,15,22,12,,,,,1.71,0.79,1.52*17
$GNGSA,A,3,84,80,73,85,,,,,,,,,1.71,0.79,1.52*1E
$GPGSV,5,1,17,05,57,138,31,11,26,020,19,12,29,359,22,13,21,160,16*7C
$GPGSV,5,2,17,14,04,127,11,15,27,195,16,18,20,229,14,20,48,073,30*78
$GPGSV,5,3,17,22,18,112,12,24,63,251,26,25,07,334,,29,10,296,13*71
$GPGSV,5,4,17,36,52,277,,40,86,350,33,41,58,082,,49,32,274,*7D
$GPGSV,5,5,17,50,10,089,*4A
$GLGSV,3,1,10,69,12,125,,70,15,187,,73,56,010,25,74,15,344,*64
$GLGSV,3,2,10,79,03,149,,80,49,123,27,83,03,015,,84,36,332,10*62
$GLGSV,3,3,10,85,35,266,23,86,00,221,*63
$GNGLL,0419.78272,S,05539.80512,E,045349.00,A,A*65
$GNGRS,045349.00,1,6.7,-0.4,-14.8,3.0,-6.4,7.0,-19.0,7.1,,,,*5F
$GNGRS,045349.00,1,2.2,-5.3,-3.5,-1.4,,,,,,,,*77
$GNGST,045349.00,166162,,,,5.8,5.4,17*66
$GNZDA,045349.00,21,05,2025,00,00*74
$GNGBS,045349.00,5.8,5.4,16.5,,,,*6E
$GNTXT,01,01,01,More than 100 frame errors, UART RX was disabled*70
b0X]9xg
)0I}
p?N
({4V^
:R 
Yc@E}FI8
NJXOP1{ST$LU#
LVb]O-T$GNRMC,045350.00,A,0419.78267,S,05539.80518,E,0.314,,210525,,,A*7D
$GNVTG,,T,,M,0.314,N,0.581,K,A*37
$GNGNS,045350.00,0419.78267,S,05539.80518,E,AA,11,0.78,27.3,-47.6,,*6D
$GNGGA,045350.00,0419.78267,S,05539.80518,E,1,11,0.78,27.3,M,-47.6,M,,*47
$GNGSA,A,3,24,20,11,05,13,15,12,,,,,,1.59,0.78,1.39*11
$GNGSA,A,3,84,80,73,85,,,,,,,,,1.59,0.78,1.39*18
$GPGSV,5,1,17,05,57,138,31,11,26,020,18,12,29,359,20,13,21,160,16*7F
$GPGSV,5,2,17,14,04,127,10,15,27,195,17,18,20,229,17,20,48,073,28*72
$GPGSV,5,3,17,22,18,112,10,24,63,251,25,25,07,334,,29,10,296,12*71
$GPGSV,5,4,17,36,52,277,,40,86,350,31,41,58,082,,49,32,274,*7F
$GPGSV,5,5,17,50,10,089,*4A
$GLGSV,3,1,10,69,12,125,,70,15,187,,73,56,010,25,74,15,344,*64
$GLGSV,3,2,10,79,03,149,,80,49,123,25,83,02,016,,84,36,332,11*63
$GLGSV,3,3,10,85,35,266,25,86,00,221,*65
$GNGLL,0419.78267,S,05539.80518,E,045350.00,A,A*63
$GNGRS,045350.00,1,5.3,3.8,-11.6,2.0,-5.1,5.0,6.5,,,,,*42
$GNGRS,045350.00,1,-5.3,-5.7,-4.3,-4.4,,,,,,,,*54
$GNGST,045350.00,54,,,,5.8,5.4,16*6A
$GNZDA,045350.00,21,05,2025,00,00*7C
$GNGBS,045350.00,5.8,5.4,16.5,,,,*66
$GNTXT,01,01,01,More than 100 frame errors, UART RX was disabled*70
b0Xha9g
!0I5p?N
({4 V^
:R 
YcrE}FI8
eJXOP1{ST$LU#
VbhaO-$GNRMC,045351.00,A,0419.78261,S,05539.80509,E,0.101,,210525,,,A*7C
$GNVTG,,T,,M,0.101,N,0.187,K,A*33
$GNGNS,045351.00,0419.78261,S,05539.80509,E,AA,12,0.79,28.3,-47.6,,*67
$GNGGA,045351.00,0419.78261,S,05539.80509,E,1,12,0.79,28.3,M,-47.6,M,,*4D
$GNGSA,A,3,24,20,11,05,13,15,22,12,,,,,1.71,0.79,1.52*17
$GNGSA,A,3,84,80,73,85,,,,,,,,,1.71,0.79,1.52*1E
$GPGSV,5,1,17,05,57,138,31,11,26,020,17,12,29,359,23,13,21,160,14*71
$GPGSV,5,2,17,14,04,127,10,15,27,195,19,18,20,229,18,20,48,073,33*79
$GPGSV,5,3,17,22,18,112,15,24,63,251,21,25,07,334,,29,10,296,14*76
$GPGSV,5,4,17,36,52,277,,40,86,350,32,41,58,082,,49,32,274,*7C
$GPGSV,5,5,17,50,10,089,*4A
$GLGSV,3,1,10,69,12,125,,70,15,187,,73,56,010,25,74,15,344,*64
$GLGSV,3,2,10,79,03,149,,80,49,123,23,83,02,016,,84,36,332,15*61
$GLGSV,3,3,10,85,35,266,26,86,00,221,*66
$GNGLL,0419.78261,S,05539.80509,E,045351.00,A,A*64
$GNGRS,045351.00,1,6.6,-2.0,-10.9,1.8,-5.3,5.2,-18.9,7.8,,,,*5B
$GNGRS,045351.00,1,2.4,-7.5,-4.1,-3.3,,,,,,,,*7A
$GNGST,045351.00,93466,,,,5.8,5.4,16*54
$GNZDA,045351.00,21,05,2025,00,00*7D
$GNGBS,045351.00,5.8,5.4,16.4,,,,*66
$GNTXT,01,01,01,More than 100 frame errors, UART RX was disabled*70
b0XPe9hg
"0Ip?N
({4"V^
:R 
YcE}FI8
:JXOP1{ST$LU"
PVbPeO-7$GNRMC,045352.00,A,0419.78256,S,05539.80493,E,0.358,,210525,,,D*72
$GNVTG,,T,,M,0.358,N,0.663,K,D*35
$GNGNS,045352.00,0419.78256,S,05539.80493,E,DA,12,0.79,28.2,-47.6,,0000*66
$GNGGA,045352.00,0419.78256,S,05539.80493,E,2,12,0.79,28.2,M,-47.6,M,,0000*4A
$GNGSA,A,3,24,20,11,05,13,15,22,12,,,,,1.71,0.79,1.52*17
$GNGSA,A,3,84,80,73,85,,,,,,,,,1.71,0.79,1.52*1E
$GPGSV,5,1,17,05,57,138,31,11,26,020,16,12,29,359,22,13,21,160,14*71
$GPGSV,5,2,17,14,04,127,10,15,27,195,18,18,20,229,20,20,48,073,34*74
$GPGSV,5,3,17,22,18,112,17,24,63,251,22,25,07,334,,29,10,296,15*76
$GPGSV,5,4,17,36,52,277,,40,86,350,34,41,58,082,,49,32,274,*7A
$GPGSV,5,5,17,50,10,089,*4A
$GLGSV,3,1,10,69,12,125,,70,15,187,,73,56,010,26,74,15,344,*67
$GLGSV,3,2,10,79,03,149,,80,49,123,22,83,02,016,,84,36,332,13*66
$GLGSV,3,3,10,85,34,266,26,86,00,221,*67
$GNGLL,0419.78256,S,05539.80493,E,045352.00,A,D*64
$GNGRS,045352.00,1,7.0,-4.9,-9.2,-1.2,-5.6,6.4,-18.3,10.5,,,,*75
$GNGRS,045352.00,1,2.2,-8.5,-2.0,-4.3,,,,,,,,*70
$GNGST,045352.00,138468,,,,5.7,5.3,16*61
$GNZDA,045352.00,21,05,2025,00,00*7E
$GNGBS,045352.00,5.7,5.3,16.4,,,,*6D
$GNTXT,01,01,01,More than 100 frame errors, UART RX was disabled*70
b0X8i9Pg*0Ip(?N
({4"V^
:R 
YcE}FI8
JXOP1{ST$LU"
 Vb8iO-W$GNRMC,045353.00,A,0419.78246,S,05539.80486,E,0.129,,210525,,,D*72
$GNVTG,,T,,M,0.129,N,0.239,K,D*3A
$GNGNS,045353.00,0419.78246,S,05539.80486,E,DA,11,0.83,28.0,-47.6,,0000*66
$GNGGA,045353.00,0419.78246,S,05539.80486,E,2,11,0.83,28.0,M,-47.6,M,,0000*4A
$GNGSA,A,3,24,20,11,05,13,15,22,12,,,,,1.74,0.83,1.53*16
$GNGSA,A,3,80,73,85,,,,,,,,,,1.74,0.83,1.53*13
$GPGSV,5,1,17,05,57,138,31,11,26,020,16,12,29,359,20,13,21,160,13*74
$GPGSV,5,2,17,14,04,127,13,15,27,195,19,18,20,229,21,20,48,073,29*7B
$GPGSV,5,3,17,22,18,112,16,24,63,251,25,25,07,334,,29,10,296,13*76
$GPGSV,5,4,17,36,52,277,,40,86,350,34,41,58,082,,49,32,274,*7A
$GPGSV,5,5,17,50,10,089,*4A
$GLGSV,3,1,10,69,12,125,,70,15,187,,73,56,010,24,74,15,344,*65
$GLGSV,3,2,10,79,03,149,,80,49,123,25,83,02,016,,84,36,332,09*6A
$GLGSV,3,3,10,85,34,266,26,86,01,221,*66
$GNGLL,0419.78246,S,05539.80486,E,045353.00,A,D*60
$GNGRS,045353.00,1,4.9,-1.2,-6.9,-3.8,-4.7,10.0,-17.5,12.3,,,,*42
$GNGRS,045353.00,1,-7.6,-0.9,-4.8,,,,,,,,,*53
$GNGST,045353.00,46,,,,5.7,5.2,16*63
$GNZDA,045353.00,21,05,2025,00,00*7F
$GNGBS,045353.00,5.7,5.2,16.4,,,,*6D
$GNTXT,01,01,01,More than 100 frame errors, UART RX was disabled*70
b0X m9gjT.0Ip9?YN
({4"V^
:R 
YcE}FI8
JXOP1{^ST$LU"
Vb mO-/$GNRMC,045354.00,A,0419.78239,S,05539.80479,E,0.118,,210525,,,D*7F
$GNVTG,,T,,M,0.118,N,0.218,K,D*3B
$GNGNS,045354.00,0419.78239,S,05539.80479,E,DA,12,0.79,27.5,-47.6,,0000*65
$GNGGA,045354.00,0419.78239,S,05539.80479,E,2,12,0.79,27.5,M,-47.6,M,,0000*49
$GNGSA,A,3,24,20,11,05,13,15,22,12,,,,,1.71,0.79,1.52*17
$GNGSA,A,3,84,80,73,85,,,,,,,,,1.71,0.79,1.52*1E
$GPGSV,5,1,17,05,57,138,31,11,26,020,16,12,29,359,18,13,21,160,13*7F
$GPGSV,5,2,17,14,04,127,09,15,27,195,20,18,20,229,20,20,48,073,28*7A
$GPGSV,5,3,17,22,18,112,15,24,63,251,26,25,07,334,,29,10,296,12*77
$GPGSV,5,4,17,36,52,277,,40,86,350,34,41,58,082,,49,32,274,*7A
$GPGSV,5,5,17,50,10,089,*4A
$GLGSV,3,1,10,69,12,125,,70,15,187,,73,56,010,22,74,15,344,*63
$GLGSV,3,2,10,79,03,149,,80,49,123,28,83,02,016,,84,36,332,11*6E
$GLGSV,3,3,10,85,34,266,25,86,01,221,*65
$GNGLL,0419.78239,S,05539.80479,E,045354.00,A,D*6F
$GNGRS,045354.00,1,6.0,4.4,-5.8,-2.5,-4.1,10.7,-14.8,10.3,,,,*63
$GNGRS,045354.00,1,2.5,-9.3,-0.5,-7.4,,,,,,,,*75
$GNGST,045354.00,53,,,,5.7,5.2,16*60
$GNZDA,045354.00,21,05,2025,00,00*78
$GNGBS,045354.00,5.7,5.2,16.3,,,,*6D
$GNTXT,01,01,01,More than 100 frame errors, UART RX was disabled*70
b0Xq 9!gc
&#0INpI?N

({4!V^:R 
YcE}FI8
JXOP1{TST$LU"
QVR\bqO-o$GNRMC,045355.00,A,0419.78238,S,05539.80476,E,0.251,,210525,,,D*7E
$GNVTG,,T,,M,0.251,N,0.464,K,D*38
$GNGNS,045355.00,0419.78238,S,05539.80476,E,DA,12,0.79,27.0,-47.6,,0000*6F
$GNGGA,045355.00,0419.78238,S,05539.80476,E,2,12,0.79,27.0,M,-47.6,M,,0000*43
$GNGSA,A,3,24,20,11,05,13,15,22,12,,,,,1.71,0.79,1.52*17
$GNGSA,A,3,84,80,73,85,,,,,,,,,1.71,0.79,1.52*1E
$GPGSV,5,1,17,05,57,138,32,11,26,020,17,12,29,359,18,13,21,160,13*7D
$GPGSV,5,2,17,14,04,127,10,15,27,195,21,18,20,229,18,20,48,073,28*78
$GPGSV,5,3,17,22,18,112,16,24,63,251,25,25,07,334,,29,10,296,10*75
$GPGSV,5,4,17,36,52,277,,40,86,350,33,41,58,082,,49,32,274,*7D
$GPGSV,5,5,17,50,10,089,*4A
$GLGSV,3,1,10,69,12,125,,70,15,187,,73,56,010,21,74,15,344,*60
$GLGSV,3,2,10,79,03,149,,80,49,123,28,83,02,016,,84,36,332,13*6C
$GLGSV,3,3,10,85,34,266,25,86,01,221,*65
$GNGLL,0419.78238,S,05539.80476,E,045355.00,A,D*60
$GNGRS,045355.00,1,6.4,5.9,-2.2,-1.3,-3.2,8.0,-12.1,11.2,,,,*57
$GNGRS,045355.00,1,4.2,-9.4,-1.3,-6.9,,,,,,,,*79
$GNGST,045355.00,49,,,,5.7,5.1,16*69
$GNZDA,045355.00,21,05,2025,00,00*79
$GNGBS,045355.00,5.7,5.1,16.2,,,,*6E
$GNTXT,01,01,01,More than 100 frame errors, UART RX was disabled*70
b0Xt9@gFq0Ip?N
({4"V^
:R 
YcE}FI8
JXOP1{@ST$LU"
VbtO}-$GNRMC,045356.00,A,0419.78232,S,05539.80475,E,0.093,,210525,,,D*78
$GNVTG,,T,,M,0.093,N,0.173,K,D*37
$GNGNS,045356.00,0419.78232,S,05539.80475,E,DA,12,0.79,27.5,-47.6,,0000*60
$GNGGA,045356.00,0419.78232,S,05539.80475,E,2,12,0.79,27.5,M,-47.6,M,,0000*4C
$GNGSA,A,3,24,20,11,05,13,15,22,12,,,,,1.71,0.79,1.52*17
$GNGSA,A,3,84,80,73,85,,,,,,,,,1.71,0.79,1.52*1E
$GPGSV,5,1,17,05,57,138,30,11,26,020,18,12,29,359,15,13,21,160,13*7D
$GPGSV,5,2,17,14,04,127,09,15,27,195,21,18,20,229,17,20,48,073,29*7E
$GPGSV,5,3,17,22,18,112,17,24,63,251,24,25,07,334,,29,10,296,12*77
$GPGSV,5,4,17,36,52,277,,40,86,350,34,41,58,082,,49,32,274,*7A
$GPGSV,5,5,17,50,10,089,*4A
$GLGSV,3,1,10,69,12,125,,70,15,187,,73,56,010,19,74,15,344,*6B
$GLGSV,3,2,10,79,03,149,,80,49,123,27,83,02,016,,84,36,332,14*64
$GLGSV,3,3,10,85,34,266,26,86,01,221,*66
$GNGLL,0419.78232,S,05539.80475,E,045356.00,A,D*6A
$GNGRS,045356.00,1,5.0,4.3,0.3,3.2,-1.9,8.0,-12.7,7.2,,,,*60
$GNGRS,045356.00,1,2.7,-14.7,-0.5,-8.3,,,,,,,,*45
$GNGST,045356.00,53,,,,5.7,5.1,16*61
$GNZDA,045356.00,21,05,2025,00,00*7A
$GNGBS,045356.00,5.7,5.1,16.3,,,,*6C
$GNTXT,01,01,01,More than 100 frame errors, UART RX was disabled*70
b0Xx9g9Nr0IEp?N
({4#V^
:R 
YcE}FI8
+JXOP1{ST$LU"
jV2.bxOe-0$GNRMC,045357.00,A,0419.78242,S,05539.80478,E,0.487,,210525,,,D*72
$GNVTG,,T,,M,0.487,N,0.902,K,D*38
$GNGNS,045357.00,0419.78242,S,05539.80478,E,DA,12,0.79,26.8,-47.6,,0000*67
$GNGGA,045357.00,0419.78242,S,05539.80478,E,2,12,0.79,26.8,M,-47.6,M,,0000*4B
$GNGSA,A,3,24,20,11,05,13,15,22,12,,,,,1.71,0.79,1.52*17
$GNGSA,A,3,84,80,73,85,,,,,,,,,1.71,0.79,1.52*1E
$GPGSV,5,1,17,05,57,138,30,11,26,020,17,12,29,359,13,13,21,160,13*74
$GPGSV,5,2,17,14,04,127,13,15,27,195,20,18,20,229,20,20,48,073,29*70
$GPGSV,5,3,17,22,18,112,18,24,63,251,26,25,07,334,,29,10,296,15*7D
$GPGSV,5,4,17,36,52,277,,40,86,350,35,41,58,082,,49,32,274,*7B
$GPGSV,5,5,17,50,10,089,*4A
$GLGSV,3,1,10,69,12,125,,70,15,187,,73,56,010,23,74,15,344,*62
$GLGSV,3,2,10,79,03,149,,80,49,123,25,83,02,016,,84,36,332,15*67
$GLGSV,3,3,10,85,34,266,26,86,01,221,*66
$GNGLL,0419.78242,S,05539.80478,E,045357.00,A,D*61
$GNGRS,045357.00,1,2.4,0.7,2.3,0.1,3.1,8.8,-13.0,1.6,,,,*4B
$GNGRS,045357.00,1,2.2,-11.1,0.4,-6.6,,,,,,,,*65
$GNGST,045357.00,50,,,,5.7,5.1,16*63
$GNZDA,045357.00,21,05,2025,00,00*7B
$GNGBS,045357.00,5.7,5.1,16.2,,,,*6C
$GNTXT,01,01,01,More than 100 frame errors, UART RX was disabled*70
b0X|9RgG(0Ip?N
({4"V^
:R 
YcE}FI8
JXOP1{gST$LU"
V%b|OM-$GNRMC,045358.00,A,0419.78254,S,05539.80482,E,0.512,,210525,,,D*72
$GNVTG,,T,,M,0.512,N,0.947,K,D*34
$GNGNS,045358.00,0419.78254,S,05539.80482,E,DA,12,0.79,26.2,-47.6,,0000*60
$GNGGA,045358.00,0419.78254,S,05539.80482,E,2,12,0.79,26.2,M,-47.6,M,,0000*4C
$GNGSA,A,3,24,20,11,05,13,15,22,12,,,,,1.71,0.79,1.52*17
$GNGSA,A,3,84,80,73,85,,,,,,,,,1.71,0.79,1.52*1E
$GPGSV,5,1,17,05,57,138,30,11,26,020,16,12,29,359,18,13,21,160,11*7C
$GPGSV,5,2,17,14,04,127,13,15,27,195,19,18,20,229,20,20,48,073,30*72
$GPGSV,5,3,17,22,18,112,18,24,63,251,27,25,07,334,,29,10,296,14*7D
$GPGSV,5,4,17,36,52,277,,40,86,350,34,41,58,082,,49,32,274,*7A
$GPGSV,5,5,17,50,10,089,*4A
$GLGSV,3,1,10,69,12,125,,70,15,187,,73,56,010,23,74,15,344,*62
$GLGSV,3,2,10,79,03,149,,80,49,123,26,83,02,016,,84,36,332,15*64
$GLGSV,3,3,10,85,34,266,25,86,01,221,*65
$GNGLL,0419.78254,S,05539.80482,E,045358.00,A,D*6C
$GNGRS,045358.00,1,1.7,4.3,0.8,-2.3,11.9,9.8,-13.2,0.7,,,,*58
$GNGRS,045358.00,1,-0.9,-6.7,-1.3,-6.3,,,,,,,,*50
$GNGST,045358.00,48,,,,5.7,5.0,16*64
$GNZDA,045358.00,21,05,2025,00,00*74
$GNGBS,045358.00,5.7,5.0,16.1,,,,*61
$GNTXT,01,01,01,More than 100 frame errors, UART RX was disabled*70
b0X9>gd0Igp?N
({4"V^
:R 
YcE}FI8
JXOP1{ST$LTU"
WV\bO5-f$GNRMC,045359.00,A,0419.78256,S,05539.80485,E,0.085,,210525,,,D*7D
$GNVTG,,T,,M,0.085,N,0.157,K,D*36
$GNGNS,045359.00,0419.78256,S,05539.80485,E,DA,12,0.79,26.2,-47.6,,0000*64
$GNGGA,045359.00,0419.78256,S,05539.80485,E,2,12,0.79,26.2,M,-47.6,M,,0000*48
$GNGSA,A,3,24,20,11,05,13,15,22,12,,,,,1.71,0.79,1.52*17
$GNGSA,A,3,84,80,73,85,,,,,,,,,1.71,0.79,1.52*1E
$GPGSV,5,1,17,05,57,138,30,11,26,020,13,12,29,359,18,13,21,160,12*7A
$GPGSV,5,2,17,14,04,127,11,15,27,195,21,18,20,229,18,20,48,073,31*71
$GPGSV,5,3,17,22,18,112,16,24,63,251,27,25,07,334,,29,10,296,14*73
$GPGSV,5,4,17,36,52,277,,40,86,350,34,41,58,082,,49,32,274,*7A
$GPGSV,5,5,17,50,10,089,*4A
$GLGSV,3,1,10,69,12,125,,70,15,187,,73,56,010,22,74,15,344,*63
$GLGSV,3,2,10,79,03,149,,80,49,123,27,83,02,016,,84,36,332,14*64
$GLGSV,3,3,10,85,34,266,26,86,01,221,*66
$GNGLL,0419.78256,S,05539.80485,E,045359.00,A,D*68
$GNGRS,045359.00,1,2.1,6.1,1.4,0.6,13.8,11.8,-14.0,-0.3,,,,*6D
$GNGRS,045359.00,1,0.8,-8.7,-2.8,-4.2,,,,,,,,*78
$GNGST,045359.00,49,,,,5.7,4.9,16*6C
$GNZDA,045359.00,21,05,2025,00,00*75
$GNGBS,045359.00,5.7,4.9,15.9,,,,*63
$GNTXT,01,01,01,More than 100 frame errors, UART RX was disabled*70
b0X"9"OgX
h!0Iwp?N
({4V^
:R 
YcE}FI8
JXOP1{ST$LU"
VjbO->h$GNRMC,045400.00,A,0419.78265,S,05539.80481,E,0.336,,210525,,,D*79
$GNVTG,,T,,M,0.336,N,0.622,K,D*38
$GNGNS,045400.00,0419.78265,S,05539.80481,E,DA,12,0.79,25.8,-47.6,,0000*62
$GNGGA,045400.00,0419.78265,S,05539.80481,E,2,12,0.79,25.8,M,-47.6,M,,0000*4E
$GNGSA,A,3,24,20,11,05,13,15,22,12,,,,,1.71,0.79,1.52*17
$GNGSA,A,3,84,80,73,85,,,,,,,,,1.71,0.79,1.52*1E
$GPGSV,5,1,17,05,57,137,34,11,26,020,15,12,29,359,20,13,21,160,14*7A
$GPGSV,5,2,17,14,04,127,10,15,27,195,22,18,20,229,16,20,48,073,30*7C
$GPGSV,5,3,17,22,18,112,15,24,63,251,26,25,07,334,,29,10,296,12*77
$GPGSV,5,4,17,36,52,277,,40,86,350,29,41,58,082,,49,32,274,*76
$GPGSV,5,5,17,50,10,089,*4A
$GLGSV,3,1,10,69,12,125,,70,15,187,,73,56,010,21,74,15,344,*60
$GLGSV,3,2,10,79,03,149,,80,49,123,26,83,02,016,,84,36,332,13*62
$GLGSV,3,3,10,85,34,266,25,86,01,221,*65
$GNGLL,0419.78265,S,05539.80481,E,045400.00,A,D*67
$GNGRS,045400.00,1,3.8,3.7,-1.8,-2.2,14.6,13.1,-13.9,0.9,,,,*4C
$GNGRS,045400.00,1,-0.6,-8.7,-3.3,-3.2,,,,,,,,*5D
$GNGST,045400.00,48,,,,5.6,4.9,16*67
$GNZDA,045400.00,21,05,2025,00,00*7E
$GNGBS,045400.00,5.6,4.9,15.8,,,,*68
$GNTXT,01,01,01,More than 100 frame errors, UART RX was disabled*70
b0Xx#9gG
h0Ip?N
({4V^
:R 
YcE}FI8
JXOP1{ST$LyU"
/VgDbxO-$GNRMC,045401.00,A,0419.78286,S,05539.80482,E,0.324,,210525,,,D*75
$GNVTG,,T,,M,0.324,N,0.600,K,D*3B
$GNGNS,045401.00,0419.78286,S,05539.80482,E,DA,12,0.79,26.1,-47.6,,0000*67
$GNGGA,045401.00,0419.78286,S,05539.80482,E,2,12,0.79,26.1,M,-47.6,M,,0000*4B
$GNGSA,A,3,24,20,11,05,13,15,22,12,,,,,1.71,0.79,1.52*17
$GNGSA,A,3,84,80,73,85,,,,,,,,,1.71,0.79,1.52*1E
$GPGSV,5,1,17,05,57,137,35,11,26,020,18,12,29,359,22,13,21,160,17*77
$GPGSV,5,2,17,14,04,127,10,15,27,195,23,18,20,229,16,20,48,073,24*78
$GPGSV,5,3,17,22,18,112,14,24,63,251,26,25,07,334,,29,10,296,11*75
$GPGSV,5,4,17,36,52,277,,40,86,350,28,41,58,082,,49,32,274,*77
$GPGSV,5,5,17,50,10,089,*4A
$GLGSV,3,1,10,69,12,125,,70,15,187,,73,56,010,21,74,15,344,*60
$GLGSV,3,2,10,79,03,149,,80,49,123,27,83,02,016,,84,36,332,14*64
$GLGSV,3,3,10,85,34,266,25,86,01,221,*65
$GNGLL,0419.78286,S,05539.80482,E,045401.00,A,D*68
$GNGRS,045401.00,1,1.8,10.4,0.2,4.2,13.5,10.3,-12.8,1.4,,,,*7A
$GNGRS,045401.00,1,-1.4,-8.1,-4.8,-2.1,,,,,,,,*57
$GNGST,045401.00,47,,,,5.6,4.8,16*68
$GNZDA,045401.00,21,05,2025,00,00*7F
$GNGBS,045401.00,5.6,4.8,15.6,,,,*66
$GNTXT,01,01,01,More than 100 frame errors, UART RX was disabled*70
b0X`9g&z
H0Ip?N

({4V^
:R 
YcE}FI8
JXOP1{ST$LU"
VYb`O.7$GNRMC,045402.00,A,0419.78288,S,05539.80482,E,0.177,,210525,,,D*7C
$GNVTG,,T,,M,0.177,N,0.327,K,D*3F
$GNGNS,045402.00,0419.78288,S,05539.80482,E,DA,12,0.79,26.3,-47.6,,0000*68
$GNGGA,045402.00,0419.78288,S,05539.80482,E,2,12,0.79,26.3,M,-47.6,M,,0000*44
$GNGSA,A,3,24,20,11,05,13,15,22,12,,,,,1.71,0.79,1.52*17
$GNGSA,A,3,84,80,73,85,,,,,,,,,1.71,0.79,1.52*1E
$GPGSV,5,1,17,05,57,137,31,11,26,020,21,12,29,359,25,13,21,160,17*7E
$GPGSV,5,2,17,14,04,127,10,15,27,195,21,18,20,229,15,20,48,073,23*7E
$GPGSV,5,3,17,22,18,112,16,24,63,251,26,25,07,334,,29,10,296,10*76
$GPGSV,5,4,17,36,52,277,,40,86,350,29,41,58,082,,49,32,274,*76
$GPGSV,5,5,17,50,10,089,*4A
$GLGSV,3,1,10,69,12,125,,70,15,187,,73,56,010,25,74,15,344,*64
$GLGSV,3,2,10,79,03,149,,80,49,123,26,83,02,016,,84,36,332,13*62
$GLGSV,3,3,10,85,34,266,25,86,01,221,*65
$GNGLL,0419.78288,S,05539.80482,E,045402.00,A,D*65
$GNGRS,045402.00,1,2.2,12.3,-2.2,2.3,11.5,10.4,-10.4,2.9,,,,*58
$GNGRS,045402.00,1,1.7,-7.6,-5.5,-3.6,,,,,,,,*78
$GNGST,045402.00,46,,,,5.5,4.8,16*69
$GNZDA,045402.00,21,05,2025,00,00*7C
$GNGBS,045402.00,5.5,4.8,15.5,,,,*65
$GNTXT,01,01,01,More than 100 frame errors, UART RX was disabled*70
b0XH9gr[
U+0I|p9?N
({4V^
:R 
YcE}FI8
JXOP1{ST$LcU"
V"PbHO.$GNRMC,045403.00,A,0419.78297,S,05539.80483,E,0.059,,210525,,,D*7F
$GNVTG,,T,,M,0.059,N,0.109,K,D*3C
$GNGNS,045403.00,0419.78297,S,05539.80483,E,DA,12,0.79,25.9,-47.6,,0000*6F
$GNGGA,045403.00,0419.78297,S,05539.80483,E,2,12,0.79,25.9,M,-47.6,M,,0000*43
$GNGSA,A,3,24,20,11,05,13,15,22,12,,,,,1.71,0.79,1.52*17
$GNGSA,A,3,84,80,73,85,,,,,,,,,1.71,0.79,1.52*1E
$GPGSV,5,1,17,05,57,137,30,11,26,020,21,12,29,359,24,13,21,160,17*7E
$GPGSV,5,2,17,14,04,127,10,15,27,195,21,18,20,229,12,20,48,073,20*7A
$GPGSV,5,3,17,22,18,112,19,24,63,251,26,25,07,334,,29,10,296,11*78
$GPGSV,5,4,17,36,52,277,,40,86,350,30,41,58,082,,49,32,274,*7E
$GPGSV,5,5,17,50,10,089,*4A
$GLGSV,3,1,10,69,12,125,,70,15,187,,73,56,010,26,74,15,344,*67
$GLGSV,3,2,10,79,03,149,,80,49,123,26,83,02,016,,84,36,332,13*62
$GLGSV,3,3,10,85,34,266,24,86,01,221,*64
$GNGLL,0419.78297,S,05539.80483,E,045403.00,A,D*6B
$GNGRS,045403.00,1,2.6,11.5,-0.9,10.0,11.2,10.7,-9.7,3.7,,,,*51
$GNGRS,045403.00,1,3.5,-8.7,-3.8,-4.8,,,,,,,,*75
$GNGST,045403.00,47,,,,5.5,4.8,15*6A
$GNZDA,045403.00,21,05,2025,00,00*7D
$GNGBS,045403.00,5.5,4.8,15.4,,,,*65
$GNTXT,01,01,01,More than 100 frame errors, UART RX was disabled*70
b0X09og0Y0Ip?kN
({4V^
:R 
YcE}FI8
JXOP1{ST$LU"
Vb0O
.$GNRMC,045404.00,A,0419.78311,S,05539.80475,E,0.370,,210525,,,D*76
$GNVTG,,T,,M,0.370,N,0.686,K,D*34
$GNGNS,045404.00,0419.78311,S,05539.80475,E,DA,12,0.79,25.5,-47.6,,0000*62
$GNGGA,045404.00,0419.78311,S,05539.80475,E,2,12,0.79,25.5,M,-47.6,M,,0000*4E
$GNGSA,A,3,24,20,11,05,13,15,22,12,,,,,1.71,0.79,1.52*17
$GNGSA,A,3,84,80,73,85,,,,,,,,,1.71,0.79,1.52*1E
$GPGSV,5,1,17,05,57,137,28,11,26,020,19,12,29,359,20,13,21,160,16*79
$GPGSV,5,2,17,14,04,127,09,15,27,195,23,18,20,229,11,20,48,073,18*78
$GPGSV,5,3,17,22,18,112,19,24,63,251,27,25,07,334,,29,10,296,09*70
$GPGSV,5,4,17,36,52,277,,40,86,350,29,41,58,082,,49,32,274,*76
$GPGSV,5,5,17,50,10,089,*4A
$GLGSV,3,1,10,69,12,125,,70,15,187,,73,56,010,26,74,15,344,*67
$GLGSV,3,2,10,79,03,149,,80,49,123,25,83,02,016,,84,36,332,14*66
$GLGSV,3,3,10,85,34,266,22,86,01,221,*62
$GNGLL,0419.78311,S,05539.80475,E,045404.00,A,D*6A
$GNGRS,045404.00,1,-1.5,16.7,-1.4,6.8,10.4,13.7,-10.2,5.0,,,,*75
$GNGRS,045404.00,1,4.6,-8.6,-5.8,-2.8,,,,,,,,*77
$GNGST,045404.00,49,,,,5.4,4.8,15*62
$GNZDA,045404.00,21,05,2025,00,00*7A
$GNGBS,045404.00,5.4,4.8,15.3,,,,*64
$GNTXT,01,01,01,More than 100 frame errors, UART RX was disabled*70
b0X9bg!a0Ip?N
({4V^
:R 
YcE}FI8
JXOP1{]ST$L?U"
VHbO.vo$GNRMC,045405.00,A,0419.78315,S,05539.80468,E,0.316,,210525,,,D*7F
$GNVTG,,T,,M,0.316,N,0.584,K,D*35
$GNGNS,045405.00,0419.78315,S,05539.80468,E,DA,12,0.79,25.2,-47.6,,0000*6C
$GNGGA,045405.00,0419.78315,S,05539.80468,E,2,12,0.79,25.2,M,-47.6,M,,0000*40
$GNGSA,A,3,24,20,11,05,13,15,22,12,,,,,1.71,0.79,1.52*17
$GNGSA,A,3,84,80,73,85,,,,,,,,,1.71,0.79,1.52*1E
$GPGSV,5,1,17,05,57,137,28,11,26,020,16,12,29,359,19,13,21,160,14*7E
$GPGSV,5,2,17,14,04,127,09,15,27,195,23,18,20,229,13,20,48,073,19*7B
$GPGSV,5,3,17,22,18,112,16,24,63,251,29,25,07,334,,29,10,296,08*70
$GPGSV,5,4,17,36,52,277,,40,86,350,30,41,58,082,,49,32,274,*7E
$GPGSV,5,5,17,50,10,089,*4A
$GLGSV,3,1,10,69,12,125,,70,15,187,,73,56,010,25,74,15,344,*64
$GLGSV,3,2,10,79,03,149,,80,49,123,21,83,02,016,,84,36,332,12*64
$GLGSV,3,3,10,85,34,266,21,86,01,221,*61
$GNGLL,0419.78315,S,05539.80468,E,045405.00,A,D*63
$GNGRS,045405.00,1,0.0,14.8,1.0,7.9,9.6,13.8,-10.7,2.9,,,,*47
$GNGRS,045405.00,1,3.2,-9.3,-5.4,-1.2,,,,,,,,*74
$GNGST,045405.00,52,,,,5.4,4.9,15*68
$GNZDA,045405.00,21,05,2025,00,00*7B
$GNGBS,045405.00,5.4,4.9,15.3,,,,*64
$GNTXT,01,01,01,More than 100 frame errors, UART RX was disabled*70
b0X9
g
50Ip"?N
({4V^
:R 
YcE}FI8
JXOP1{ST$LU"
VbO.N$GNRMC,045406.00,A,0419.78326,S,05539.80469,E,0.271,,210525,,,D*7D
$GNVTG,,T,,M,0.271,N,0.502,K,D*3B
$GNGNS,045406.00,0419.78326,S,05539.80469,E,DA,12,0.79,24.3,-47.6,,0000*6E
$GNGGA,045406.00,0419.78326,S,05539.80469,E,2,12,0.79,24.3,M,-47.6,M,,0000*42
$GNGSA,A,3,24,20,11,05,13,15,22,12,,,,,1.71,0.79,1.52*17
$GNGSA,A,3,84,80,73,85,,,,,,,,,1.71,0.79,1.52*1E
$GPGSV,5,1,17,05,57,137,29,11,26,020,10,12,29,359,16,13,21,160,16*74
$GPGSV,5,2,17,14,04,127,10,15,27,195,22,18,20,229,13,20,48,073,25*7D
$GPGSV,5,3,17,22,18,112,14,24,63,251,27,25,07,334,,29,10,296,*74
$GPGSV,5,4,17,36,52,277,,40,86,350,31,41,58,082,,49,32,274,*7F
$GPGSV,5,5,17,50,10,089,*4A
$GLGSV,3,1,10,69,12,125,,70,15,187,,73,56,010,23,74,15,344,*62
$GLGSV,3,2,10,79,03,149,,80,49,123,16,83,02,016,,84,36,332,13*61
$GLGSV,3,3,10,85,34,266,21,86,01,221,*61
$GNGLL,0419.78326,S,05539.80469,E,045406.00,A,D*61
$GNGRS,045406.00,1,1.4,11.6,1.4,-0.6,7.9,14.1,-9.9,1.6,,,,*5E
$GNGRS,045406.00,1,2.7,-10.4,-8.3,-1.0,,,,,,,,*44
$GNGST,045406.00,86543,,,,5.4,4.9,15*50
$GNZDA,045406.00,21,05,2025,00,00*78
$GNGBS,045406.00,5.4,4.9,15.4,,,,*60
$GNTXT,01,01,01,More than 100 frame errors, UART RX was disabled*70
b0X9gF0I@p?N
({4 V^
:R 
YcE}FI8
JXOP1{AST$LU"
VbOu.%0$GNRMC,045407.00,A,0419.78335,S,05539.80480,E,0.460,,210525,,,D*7F
$GNVTG,,T,,M,0.460,N,0.852,K,D*35
$GNGNS,045407.00,0419.78335,S,05539.80480,E,DA,12,0.79,23.7,-47.6,,0000*69
$GNGGA,045407.00,0419.78335,S,05539.80480,E,2,12,0.79,23.7,M,-47.6,M,,0000*45
$GNGSA,A,3,24,20,11,05,13,15,22,12,,,,,1.71,0.79,1.52*17
$GNGSA,A,3,84,80,73,85,,,,,,,,,1.71,0.79,1.52*1E
$GPGSV,5,1,17,05,57,137,30,11,26,020,09,12,30,359,17,13,21,160,16*7D
$GPGSV,5,2,17,14,04,127,15,15,27,195,21,18,20,229,11,20,48,073,26*7A
$GPGSV,5,3,17,22,18,112,13,24,63,251,27,25,07,334,,29,10,296,*73
$GPGSV,5,4,17,36,52,277,,40,86,350,32,41,58,082,,49,32,274,*7C
$GPGSV,5,5,17,50,10,089,*4A
$GLGSV,3,1,10,69,12,125,,70,15,187,,73,56,010,26,74,15,344,*67
$GLGSV,3,2,10,79,03,149,,80,49,123,14,83,02,016,,84,36,332,11*61
$GLGSV,3,3,10,85,34,266,22,86,01,221,*62
$GNGLL,0419.78335,S,05539.80480,E,045407.00,A,D*65
$GNGRS,045407.00,1,0.2,10.9,1.7,-0.5,8.4,14.7,-8.7,-0.9,,,,*7E
$GNGRS,045407.00,1,-0.9,-9.6,-7.9,-0.3,,,,,,,,*59
$GNGST,045407.00,86543,,,,5.4,4.9,15*51
$GNZDA,045407.00,21,05,2025,00,00*79
$GNGBS,045407.00,5.4,4.9,15.4,,,,*61
$GNTXT,01,01,01,More than 100 frame errors, UART RX was disabled*70
b0X9gJ*;0I_py?_N
({4!V^
:R 
YcE}FI8
JXOP1{ST$LHU"
PV bO].$GNRMC,045408.00,A,0419.78346,S,05539.80479,E,0.164,,210525,,,D*73
$GNVTG,,T,,M,0.164,N,0.303,K,D*3B
$GNGNS,045408.00,0419.78346,S,05539.80479,E,DA,12,0.79,22.6,-47.6,,0000*64
$GNGGA,045408.00,0419.78346,S,05539.80479,E,2,12,0.79,22.6,M,-47.6,M,,0000*48
$GNGSA,A,3,24,20,11,05,13,15,22,12,,,,,1.71,0.79,1.52*17
$GNGSA,A,3,84,80,73,85,,,,,,,,,1.71,0.79,1.52*1E
$GPGSV,5,1,17,05,57,137,30,11,26,020,16,12,30,359,16,13,21,159,17*79
$GPGSV,5,2,17,14,04,127,17,15,27,195,22,18,20,229,09,20,48,073,25*71
$GPGSV,5,3,17,22,18,112,15,24,63,251,26,25,07,334,,29,10,296,*74
$GPGSV,5,4,17,36,52,277,,40,86,350,33,41,58,082,,49,32,274,*7D
$GPGSV,5,5,17,50,10,089,*4A
$GLGSV,3,1,10,69,12,125,,70,15,187,,73,56,010,26,74,15,344,*67
$GLGSV,3,2,10,79,03,149,,80,49,123,16,83,02,016,,84,36,332,12*60
$GLGSV,3,3,10,85,34,266,20,86,01,221,*60
$GNGLL,0419.78346,S,05539.80479,E,045408.00,A,D*68
$GNGRS,045408.00,1,-1.6,11.2,7.0,1.3,8.1,13.4,-11.6,0.7,,,,*63
$GNGRS,045408.00,1,0.7,-8.5,-10.3,0.8,,,,,,,,*6D
$GNGST,045408.00,52,,,,5.4,5.0,15*6D
$GNZDA,045408.00,21,05,2025,00,00*76
$GNGBS,045408.00,5.4,5.0,15.4,,,,*66
$GNTXT,01,01,01,More than 100 frame errors, UART RX was disabled*70
b0X9zg$&0Ipm?<N
({4"V^
:R 
YcE}FI8
JXOP1{]ST$LjU"
VgbOE.$GNRMC,045409.00,A,0419.78350,S,05539.80470,E,0.102,,210525,,,D*7C
$GNVTG,,T,,M,0.102,N,0.188,K,D*3A
$GNGNS,045409.00,0419.78350,S,05539.80470,E,DA,12,0.76,23.6,-47.6,,0000*65
$GNGGA,045409.00,0419.78350,S,05539.80470,E,2,12,0.76,23.6,M,-47.6,M,,0000*49
$GNGSA,A,3,24,20,11,05,13,15,22,12,,,,,1.55,0.76,1.35*1F
$GNGSA,A,3,84,80,73,85,,,,,,,,,1.55,0.76,1.35*16
$GPGSV,5,1,17,05,57,137,31,11,26,020,18,12,30,359,16,13,21,159,18*79
$GPGSV,5,2,17,14,04,127,12,15,27,195,22,18,20,229,,20,48,073,29*71
$GPGSV,5,3,17,22,18,112,17,24,63,251,26,25,07,334,,29,10,296,18*7F
$GPGSV,5,4,17,36,52,277,,40,86,350,34,41,58,082,,49,32,274,*7A
$GPGSV,5,5,17,50,10,089,*4A
$GLGSV,3,1,10,69,12,125,,70,15,187,,73,56,010,23,74,15,344,*62
$GLGSV,3,2,10,79,03,149,,80,49,123,18,83,02,016,,84,36,332,13*6F
$GLGSV,3,3,10,85,34,266,17,86,01,221,*64
$GNGLL,0419.78350,S,05539.80470,E,045409.00,A,D*67
$GNGRS,045409.00,1,10.8,7.4,11.5,-0.3,8.1,12.5,-11.7,0.4,,,,*5C
$GNGRS,045409.00,1,-1.5,-9.3,-8.7,1.3,,,,,,,,*72
$GNGST,045409.00,56540,,,,5.4,5.1,15*58
$GNZDA,045409.00,21,05,2025,00,00*77
$GNGBS,045409.00,5.4,5.1,15.4,,,,*66
$GNTXT,01,01,01,More than 100 frame errors, UART RX was disabled*70
b0X 9
wg"0Icp?N
({4"V^
:R 
YcE}FI8
PJXOP1{ST$LU"
DV~bO-".h$GNRMC,045410.00,A,0419.78354,S,05539.80478,E,0.180,,210525,,,D*72
$GNVTG,,T,,M,0.180,N,0.333,K,D*32
$GNGNS,045410.00,0419.78354,S,05539.80478,E,DA,12,0.76,23.7,-47.6,,0000*60
$GNGGA,045410.00,0419.78354,S,05539.80478,E,2,12,0.76,23.7,M,-47.6,M,,0000*4C
$GNGSA,A,3,24,20,11,05,13,15,22,12,,,,,1.55,0.76,1.35*1F
$GNGSA,A,3,84,80,73,85,,,,,,,,,1.55,0.76,1.35*16
$GPGSV,5,1,17,05,57,137,32,11,26,020,10,12,30,359,14,13,21,159,15*7D
$GPGSV,5,2,17,14,04,127,12,15,27,194,22,18,20,229,,20,48,073,30*78
$GPGSV,5,3,17,22,18,112,17,24,63,251,24,25,07,334,,29,10,296,18*7D
$GPGSV,5,4,17,36,52,277,,40,86,350,34,41,58,082,,49,32,274,*7A
$GPGSV,5,5,17,50,10,089,*4A
$GLGSV,3,1,10,69,12,125,,70,15,187,,73,56,010,22,74,15,344,*63
$GLGSV,3,2,10,79,03,149,,80,49,123,21,83,02,016,,84,36,332,14*62
$GLGSV,3,3,10,85,34,266,15,86,01,221,*66
$GNGLL,0419.78354,S,05539.80478,E,045410.00,A,D*63
$GNGRS,045410.00,1,7.9,11.2,11.4,2.0,4.7,14.1,-12.5,-2.2,,,,*5F
$GNGRS,045410.00,1,-0.6,-8.0,-9.4,0.7,,,,,,,,*7D
$GNGST,045410.00,83147,,,,5.4,5.1,15*5B
$GNZDA,045410.00,21,05,2025,00,00*7F
$GNGBS,045410.00,5.4,5.1,15.3,,,,*69
$GNTXT,01,01,01,More than 100 frame errors, UART RX was disabled*70
b0X 9g~L>0Ipt?N
({4"V^
:R 
YcE}FI8
6JXOP1{HST$LU"
rVbO&.$GNRMC,045411.00,A,0419.78348,S,05539.80459,E,0.294,,210525,,,D*7B
$GNVTG,,T,,M,0.294,N,0.545,K,D*33
$GNGNS,045411.00,0419.78348,S,05539.80459,E,DA,12,0.76,24.3,-47.6,,0000*6C
$GNGGA,045411.00,0419.78348,S,05539.80459,E,2,12,0.76,24.3,M,-47.6,M,,0000*40
$GNGSA,A,3,24,20,11,05,13,15,22,12,,,,,1.55,0.76,1.35*1F
$GNGSA,A,3,84,80,73,85,,,,,,,,,1.55,0.76,1.35*16
$GPGSV,5,1,17,05,57,137,32,11,26,020,11,12,30,359,14,13,21,159,13*7A
$GPGSV,5,2,17,14,04,127,14,15,27,194,22,18,20,229,,20,48,073,30*7E
$GPGSV,5,3,17,22,18,112,16,24,63,251,24,25,07,334,,29,10,296,17*73
$GPGSV,5,4,17,36,52,277,,40,86,350,34,41,58,082,,49,32,274,*7A
$GPGSV,5,5,17,50,10,089,*4A
$GLGSV,3,1,10,69,12,125,,70,15,187,,73,56,010,21,74,15,344,*60
$GLGSV,3,2,10,79,03,149,,80,49,123,24,83,02,016,,84,36,332,17*64
$GLGSV,3,3,10,85,34,266,19,86,01,221,*6A
$GNGLL,0419.78348,S,05539.80459,E,045411.00,A,D*6C
$GNGRS,045411.00,1,9.1,4.6,10.2,-0.9,1.3,16.0,-14.2,-3.4,,,,*4D
$GNGRS,045411.00,1,-2.5,-7.0,-9.7,1.1,,,,,,,,*76
$GNGST,045411.00,54,,,,5.5,5.2,15*60
$GNZDA,045411.00,21,05,2025,00,00*7E
$GNGBS,045411.00,5.5,5.2,15.3,,,,*6A
$GNTXT,01,01,01,More than 100 frame errors, UART RX was disabled*70
b0Xp!9ZgpH0Ip?rN
({4!V^
:R 
YcE}FI8
JXOP1{ST$LU"
VCbpO).\5$GNRMC,045412.00,A,0419.78361,S,05539.80459,E,0.197,,210525,,,D*73
$GNVTG,,T,,M,0.197,N,0.365,K,D*37
$GNGNS,045412.00,0419.78361,S,05539.80459,E,DA,12,0.79,23.6,-47.6,,0000*69
$GNGGA,045412.00,0419.78361,S,05539.80459,E,2,12,0.79,23.6,M,-47.6,M,,0000*45
$GNGSA,A,3,24,20,11,05,13,15,22,12,,,,,1.71,0.79,1.52*17
$GNGSA,A,3,84,80,73,85,,,,,,,,,1.71,0.79,1.52*1E
$GPGSV,5,1,17,05,57,137,33,11,26,020,08,12,30,359,16,13,21,159,12*70
$GPGSV,5,2,17,14,04,127,13,15,27,194,23,18,20,229,,20,48,073,30*78
$GPGSV,5,3,17,22,18,112,16,24,63,251,24,25,07,334,,29,10,296,15*71
$GPGSV,5,4,17,36,52,277,,40,86,350,33,41,58,082,,49,32,274,*7D
$GPGSV,5,5,17,50,10,089,*4A
$GLGSV,3,1,10,69,12,125,,70,15,187,,73,56,010,22,74,15,344,*63
$GLGSV,3,2,10,79,03,149,,80,49,123,24,83,02,016,,84,36,332,16*65
$GLGSV,3,3,10,85,34,266,19,86,01,221,*6A
$GNGLL,0419.78361,S,05539.80459,E,045412.00,A,D*64
$GNGRS,045412.00,1,8.8,5.1,11.1,0.0,4.7,15.5,-14.0,-1.4,,,,*61
$GNGRS,045412.00,1,-3.8,-8.8,-8.9,2.3,,,,,,,,*70
$GNGST,045412.00,10385,,,,5.5,5.3,15*5C
$GNZDA,045412.00,21,05,2025,00,00*7D
$GNGBS,045412.00,5.5,5.3,15.4,,,,*6F
$GNTXT,01,01,01,More than 100 frame errors, UART RX was disabled*70
b0XX 9[Hg4i0Ip?N
({4!V^
:R 
YcE}FI8
JXOP1{ST$L!U"
SVbXO-.4$GNRMC,045413.00,A,0419.78354,S,05539.80442,E,0.410,,210525,,,D*74
$GNVTG,,T,,M,0.410,N,0.759,K,D*36
$GNGNS,045413.00,0419.78354,S,05539.80442,E,DA,12,0.79,23.3,-47.6,,0000*61
$GNGGA,045413.00,0419.78354,S,05539.80442,E,2,12,0.79,23.3,M,-47.6,M,,0000*4D
$GNGSA,A,3,24,20,11,05,13,15,22,12,,,,,1.71,0.79,1.52*17
$GNGSA,A,3,84,80,73,85,,,,,,,,,1.71,0.79,1.52*1E
$GPGSV,5,1,17,05,57,137,32,11,26,020,16,12,30,359,16,13,21,159,13*7F
$GPGSV,5,2,17,14,04,127,09,15,27,194,23,18,20,229,,20,48,073,29*7B
$GPGSV,5,3,17,22,18,112,18,24,63,251,20,25,07,334,,29,10,296,12*7C
$GPGSV,5,4,17,36,52,277,,40,86,350,33,41,58,082,,49,32,274,*7D
$GPGSV,5,5,17,50,10,089,*4A
$GLGSV,3,1,10,69,12,125,,70,15,187,,73,56,010,22,74,15,344,*63
$GLGSV,3,2,10,79,03,149,,80,49,123,25,83,02,016,,84,36,332,15*67
$GLGSV,3,3,10,85,34,266,16,86,01,221,*65
$GNGLL,0419.78354,S,05539.80442,E,045413.00,A,D*69
$GNGRS,045413.00,1,10.3,2.5,11.0,-4.2,7.3,13.9,-13.9,2.2,,,,*50
$GNGRS,045413.00,1,-4.8,-8.5,-7.9,-4.3,,,,,,,,*5F
$GNGST,045413.00,15578,,,,5.5,5.5,15*5A
$GNZDA,045413.00,21,05,2025,00,00*7C
$GNGBS,045413.00,5.5,5.5,15.5,,,,*69
$GNTXT,01,01,01,More than 100 frame errors, UART RX was disabled*70
b0X@ 9bjg)p0Ip?N
({4!V^
:R 
YcE}FI8
JXOP1{9ST$LU"
V5}b@O1.$GNRMC,045414.00,A,0419.78360,S,05539.80444,E,0.247,,210525,,,D*76
$GNVTG,,T,,M,0.247,N,0.457,K,D*3F
$GNGNS,045414.00,0419.78360,S,05539.80444,E,DA,11,0.92,22.4,-47.6,,0000*67
$GNGGA,045414.00,0419.78360,S,05539.80444,E,2,11,0.92,22.4,M,-47.6,M,,0000*4B
$GNGSA,A,3,24,20,11,05,13,15,22,12,,,,,1.80,0.92,1.54*1A
$GNGSA,A,3,84,80,73,,,,,,,,,,1.80,0.92,1.54*1E
$GPGSV,5,1,17,05,57,137,32,11,26,020,09,12,30,359,18,13,21,159,15*79
$GPGSV,5,2,17,14,04,127,12,15,27,194,22,18,20,229,,20,48,073,31*79
$GPGSV,5,3,17,22,18,112,18,24,63,251,18,25,07,334,,29,10,296,12*77
$GPGSV,5,4,17,36,52,277,,40,86,350,33,41,58,082,,49,32,274,*7D
$GPGSV,5,5,17,50,10,089,*4A
$GLGSV,3,1,10,69,12,125,,70,15,187,,73,56,010,19,74,15,344,*6B
$GLGSV,3,2,10,79,03,149,,80,49,123,26,83,02,016,,84,36,332,15*64
$GLGSV,3,3,10,85,34,266,12,86,01,221,*61
$GNGLL,0419.78360,S,05539.80444,E,045414.00,A,D*6F
$GNGRS,045414.00,1,9.4,2.0,3.6,-4.1,7.3,13.9,-16.1,5.5,,,,*56
$GNGRS,045414.00,1,-5.4,-9.7,-8.2,,,,,,,,,*56
$GNGST,045414.00,54,,,,5.5,5.7,16*63
$GNZDA,045414.00,21,05,2025,00,00*7B
$GNGBS,045414.00,5.5,5.7,15.5,,,,*6C
$GNTXT,01,01,01,More than 100 frame errors, UART RX was disabled*70
b0X(99Vgz_!0Hp?N
(
S{4!V^
:R 
YcE}FI8
JXOP1{ST$LU"
Vb(O5.m$GNRMC,045415.00,A,0419.78361,S,05539.80420,E,0.189,,210525,,,D*75
$GNVTG,,T,,M,0.189,N,0.349,K,D*36
$GNGNS,045415.00,0419.78361,S,05539.80420,E,DA,12,0.76,22.6,-47.6,,0000*6E
$GNGGA,045415.00,0419.78361,S,05539.80420,E,2,12,0.76,22.6,M,-47.6,M,,0000*42
$GNGSA,A,3,24,20,11,05,13,15,22,12,,,,,1.55,0.76,1.35*1F
$GNGSA,A,3,84,80,73,85,,,,,,,,,1.55,0.76,1.35*16
$GPGSV,5,1,17,05,57,137,31,11,26,020,17,12,30,359,18,13,21,159,19*79
$GPGSV,5,2,17,14,04,127,15,15,27,194,23,18,20,229,,20,48,072,33*7C
$GPGSV,5,3,17,22,18,112,19,24,63,251,23,25,07,334,,29,10,296,12*7E
$GPGSV,5,4,17,36,52,277,,40,86,350,33,41,58,082,,49,32,274,*7D
$GPGSV,5,5,17,50,10,089,*4A
$GLGSV,3,1,10,69,12,125,24,70,15,187,,73,56,010,17,74,15,344,*63
$GLGSV,3,2,10,79,03,149,,80,49,123,26,83,02,016,,84,36,332,16*67
$GLGSV,3,3,10,85,34,266,15,86,01,221,*66
$GNGLL,0419.78361,S,05539.80420,E,045415.00,A,D*6D
$GNGRS,045415.00,1,10.2,1.9,11.1,-4.5,7.8,13.7,-17.6,3.8,,,,*5B
$GNGRS,045415.00,1,-6.0,-10.0,-13.7,-8.3,,,,,,,,*58
$GNGST,045415.00,117588,,,,5.5,5.8,15*6D
$GNZDA,045415.00,21,05,2025,00,00*7A
$GNGBS,045415.00,5.5,5.8,15.4,,,,*63
$GNTXT,01,01,01,More than 100 frame errors, UART RX was disabled*70
b0X9
XgPb"0Hp%?N
(;T{4!V^
:R 
Yc$E}FI8
=JXOP1{ST$LU"
VbO9.$GNRMC,045416.00,A,0419.78367,S,05539.80406,E,0.274,,210525,,,D*75
$GNVTG,,T,,M,0.274,N,0.507,K,D*3B
$GNGNS,045416.00,0419.78367,S,05539.80406,E,DA,12,0.76,23.2,-47.6,,0000*6A
$GNGGA,045416.00,0419.78367,S,05539.80406,E,2,12,0.76,23.2,M,-47.6,M,,0000*46
$GNGSA,A,3,24,20,11,05,13,15,22,12,,,,,1.55,0.76,1.35*1F
$GNGSA,A,3,84,80,73,85,,,,,,,,,1.55,0.76,1.35*16
$GPGSV,5,1,17,05,57,137,30,11,26,020,10,12,30,359,18,13,21,159,19*7F
$GPGSV,5,2,17,14,04,127,14,15,27,194,25,18,20,229,,20,48,072,34*7C
$GPGSV,5,3,17,22,18,112,18,24,63,251,26,25,07,334,,29,10,296,11*79
$GPGSV,5,4,17,36,52,277,,40,86,350,33,41,58,082,,49,32,274,*7D
$GPGSV,5,5,17,50,10,089,*4A
$GLGSV,3,1,10,69,12,125,23,70,15,187,,73,56,010,16,74,15,344,*65
$GLGSV,3,2,10,79,03,149,,80,49,123,26,83,02,016,,84,36,332,17*66
$GLGSV,3,3,10,85,34,266,16,86,01,221,*65
$GNGLL,0419.78367,S,05539.80406,E,045416.00,A,D*6C
$GNGRS,045416.00,1,9.4,1.8,11.1,-2.5,4.6,7.6,-17.5,0.8,,,,*58
$GNGRS,045416.00,1,-5.3,-10.8,-14.7,-8.4,,,,,,,,*53
$GNGST,045416.00,145772,,,,5.5,5.7,15*61
$GNZDA,045416.00,21,05,2025,00,00*79
$GNGBS,045416.00,5.5,5.7,15.3,,,,*68
$GNTXT,01,01,01,More than 100 frame errors, UART RX was disabled*70
b0X93
Pg g"0Hp?N

(S{4 V^
:R 
YczE}FI8
>JXOP1{uST$LzU"
V0bO=..$GNRMC,045417.00,A,0419.78362,S,05539.80393,E,0.369,,210525,,,D*77
$GNVTG,,T,,M,0.369,N,0.684,K,D*3E
$GNGNS,045417.00,0419.78362,S,05539.80393,E,DA,12,0.76,23.0,-47.6,,0000*67
$GNGGA,045417.00,0419.78362,S,05539.80393,E,2,12,0.76,23.0,M,-47.6,M,,0000*4B
$GNGSA,A,3,24,20,11,05,13,15,22,12,,,,,1.55,0.76,1.35*1F
$GNGSA,A,3,84,80,73,85,,,,,,,,,1.55,0.76,1.35*16
$GPGSV,5,1,17,05,57,137,30,11,26,020,10,12,30,359,17,13,21,159,20*7A
$GPGSV,5,2,17,14,04,127,16,15,27,194,25,18,20,229,,20,48,072,34*7E
$GPGSV,5,3,17,22,18,112,18,24,63,251,25,25,07,334,,29,10,296,10*7B
$GPGSV,5,4,17,36,52,277,,40,86,350,32,41,58,082,,49,32,274,*7C
$GPGSV,5,5,17,50,10,089,*4A
$GLGSV,3,1,10,69,12,125,22,70,15,187,,73,56,010,18,74,15,344,*6A
$GLGSV,3,2,10,79,03,149,,80,49,123,25,83,02,016,,84,36,332,16*64
$GLGSV,3,3,10,85,34,266,09,86,01,221,*6B
$GNGLL,0419.78362,S,05539.80393,E,045417.00,A,D*63
$GNGRS,045417.00,1,11.6,4.0,-58.1,0.5,2.0,6.2,-18.3,0.2,,,,*66
$GNGRS,045417.00,1,-3.9,-11.6,-14.7,-15.8,,,,,,,,*61
$GNGST,045417.00,62,,,,5.4,5.7,15*67
$GNZDA,045417.00,21,05,2025,00,00*78
$GNGBS,045417.00,5.4,5.7,15.2,,,,*69
$GNTXT,01,01,01,More than 100 frame errors, UART RX was disabled*70
b0X9
lg!0Hp?[N
(JT{4!V^
:R 
YcE}FI8
=JXOP1{ST$LU"
3V8bOmA.k$GNRMC,045418.00,A,0419.78361,S,05539.80379,E,0.139,,210525,,,D*78
$GNVTG,,T,,M,0.139,N,0.257,K,D*33
$GNGNS,045418.00,0419.78361,S,05539.80379,E,DA,12,0.76,23.4,-47.6,,0000*6B
$GNGGA,045418.00,0419.78361,S,05539.80379,E,2,12,0.76,23.4,M,-47.6,M,,0000*47
$GNGSA,A,3,24,20,11,05,13,15,22,12,,,,,1.55,0.76,1.35*1F
$GNGSA,A,3,84,80,73,85,,,,,,,,,1.55,0.76,1.35*16
$GPGSV,5,1,17,05,57,137,30,11,26,020,10,12,30,359,15,13,21,159,21*79
$GPGSV,5,2,17,14,04,127,13,15,27,194,23,18,20,229,,20,48,072,33*7A
$GPGSV,5,3,17,22,18,112,18,24,63,249,25,25,07,334,,29,10,296,09*7A
$GPGSV,5,4,17,36,52,277,,40,86,350,33,41,58,082,,49,32,274,*7D
$GPGSV,5,5,17,50,10,089,*4A
$GLGSV,3,1,10,69,12,125,22,70,15,187,,73,56,010,21,74,15,344,*60
$GLGSV,3,2,10,79,03,149,,80,49,123,25,83,02,016,,84,36,332,15*67
$GLGSV,3,3,10,85,34,266,08,86,01,221,*6A
$GNGLL,0419.78361,S,05539.80379,E,045418.00,A,D*6B
$GNGRS,045418.00,1,11.2,1.4,11.3,1.5,-0.5,5.3,-18.0,-1.0,,,,*4A
$GNGRS,045418.00,1,-3.1,-11.1,-14.7,3.1,,,,,,,,*72
$GNGST,045418.00,3300178,,,,5.4,5.7,15*52
$GNZDA,045418.00,21,05,2025,00,00*77
$GNGBS,045418.00,5.4,5.7,15.1,,,,*65
$GNTXT,01,01,01,More than 100 frame errors, UART RX was disabled*70
b0X9*g`"0Hop?PN
(T{4"V^
:R 
YcE}FI8
JXOP1{ST$LU"
(VbOUE.C$GNRMC,045419.00,A,0419.78364,S,05539.80366,E,0.214,,210525,,,D*7E
$GNVTG,,T,,M,0.214,N,0.397,K,D*32
$GNGNS,045419.00,0419.78364,S,05539.80366,E,DA,12,0.76,24.0,-47.6,,0000*62
$GNGGA,045419.00,0419.78364,S,05539.80366,E,2,12,0.76,24.0,M,-47.6,M,,0000*4E
$GNGSA,A,3,24,20,11,05,13,15,22,12,,,,,1.55,0.76,1.35*1F
$GNGSA,A,3,84,80,73,85,,,,,,,,,1.55,0.76,1.35*16
$GPGSV,5,1,17,05,57,137,31,11,26,020,13,12,30,359,15,13,21,159,20*7A
$GPGSV,5,2,17,14,04,127,13,15,27,194,21,18,20,229,,20,48,072,34*7F
$GPGSV,5,3,17,22,18,112,17,24,63,249,26,25,07,334,,29,10,296,08*77
$GPGSV,5,4,17,36,52,277,,40,86,350,34,41,58,082,,49,32,274,*7A
$GPGSV,5,5,17,50,10,089,*4A
$GLGSV,3,1,10,69,12,125,22,70,15,187,,73,56,010,22,74,15,344,*63
$GLGSV,3,2,10,79,03,149,,80,49,123,26,83,02,016,,84,36,332,14*65
$GLGSV,3,3,10,85,34,266,18,86,01,221,*6B
$GNGLL,0419.78364,S,05539.80366,E,045419.00,A,D*61
$GNGRS,045419.00,1,8.5,1.1,11.6,5.5,-2.4,3.5,-19.1,-2.5,,,,*75
$GNGRS,045419.00,1,-3.8,-11.5,-16.0,3.0,,,,,,,,*7A
$GNGST,045419.00,3301229,,,,5.4,5.7,15*55
$GNZDA,045419.00,21,05,2025,00,00*76
$GNGBS,045419.00,5.4,5.7,15.1,,,,*64
$GNTXT,01,01,01,More than 100 frame errors, UART RX was disabled*70
b0X9]fg+l#0Hp?ON
(S{4"V^
:R 
Yc.E}FI8
YJXOP1{ST$LrU"
V`bO=I.f$GNRMC,045420.00,A,0419.78364,S,05539.80357,E,0.084,,210525,,,D*7D
$GNVTG,,T,,M,0.084,N,0.156,K,D*36
$GNGNS,045420.00,0419.78364,S,05539.80357,E,DA,12,0.76,24.2,-47.6,,0000*68
$GNGGA,045420.00,0419.78364,S,05539.80357,E,2,12,0.76,24.2,M,-47.6,M,,0000*44
$GNGSA,A,3,24,20,11,05,13,15,22,12,,,,,1.55,0.76,1.35*1F
$GNGSA,A,3,84,80,73,85,,,,,,,,,1.55,0.76,1.35*16
$GPGSV,5,1,17,05,57,137,30,11,26,020,11,12,30,359,19,13,21,159,20*75
$GPGSV,5,2,17,14,04,127,15,15,27,194,21,18,20,229,24,20,48,072,35*7E
$GPGSV,5,3,17,22,18,112,15,24,63,249,27,25,07,334,,29,10,296,12*7F
$GPGSV,5,4,17,36,52,277,,40,86,350,34,41,58,082,,49,32,274,*7A
$GPGSV,5,5,17,50,10,089,*4A
$GLGSV,3,1,10,69,12,125,22,70,15,187,,73,56,010,19,74,15,344,*6B
$GLGSV,3,2,10,79,03,149,,80,49,123,27,83,02,016,,84,36,332,14*64
$GLGSV,3,3,10,85,34,266,14,86,01,221,*67
$GNGLL,0419.78364,S,05539.80357,E,045420.00,A,D*69
$GNGRS,045420.00,1,5.9,1.6,6.1,8.6,-2.4,1.1,-19.0,-0.5,,,,*43
