$GNRMC,132957.00,A,0419.74669,S,05539.72021,E,0.219,,200525,,,A*78
$GNVTG,,T,,M,0.219,N,0.406,K,A*35
$GNGGA,132957.00,0419.74669,S,05539.72021,E,1,12,0.65,12.7,M,-47.6,M,,*42
$GNGSA,A,3,32,18,10,28,16,27,31,08,02,,,,1.25,0.65,1.07*16
$GNGSA,A,3,85,72,75,86,65,87,66,,,,,,1.25,0.65,1.07*17
$GPGSV,5,1,17,02,07,333,28,04,10,229,,08,26,298,22,10,13,028,31*7F
$GPGSV,5,2,17,16,24,212,16,18,27,119,15,23,01,066,,26,29,181,08*71
$GPGSV,5,3,17,27,56,264,27,28,60,097,24,31,58,161,29,32,30,009,27*72
$GPGSV,5,4,17,36,52,277,,40,84,353,31,41,58,082,36,49,32,274,*7B
$GPGSV,5,5,17,50,10,089,*4A
$GLGSV,3,1,09,65,27,281,13,66,07,236,10,72,23,342,22,74,14,104,09*6B
$GLGSV,3,2,09,75,22,155,13,76,04,209,11,85,35,143,19,86,71,035,31*6B
$GLGSV,3,3,09,87,30,347,12*53
$GNGLL,0419.74669,S,05539.72021,E,132957.00,A,A*6B
$GNRMC,132958.00,A,0419.74676,S,05539.72025,E,0.169,,200525,,,A*79
$GNVTG,,T,,M,0.169,N,0.313,K,A*32
$GNGGA,132958.00,0419.74676,S,05539.72025,E,1,12,0.63,12.7,M,-47.6,M,,*41
$GNGSA,A,3,32,18,10,28,26,16,27,31,08,02,,,1.24,0.63,1.07*15
$GNGSA,A,3,85,72,75,86,65,87,66,,,,,,1.24,0.63,1.07*10
$GPGSV,5,1,17,02,07,333,27,04,10,229,,08,26,298,21,10,13,028,30*72
$GPGSV,5,2,17,16,24,212,13,18,27,119,13,23,01,066,,26,29,181,08*72
$GPGSV,5,3,17,27,56,264,28,28,60,097,22,31,58,161,30,32,30,009,27*73
$GPGSV,5,4,17,36,52,277,,40,84,353,31,41,58,082,37,49,32,274,*7A
$GPGSV,5,5,17,50,10,089,*4A
$GLGSV,3,1,09,65,27,281,10,66,07,236,13,72,23,342,18,74,14,104,05*6E
$GLGSV,3,2,09,75,22,155,11,76,04,209,09,85,35,143,17,86,71,035,31*6E
$GLGSV,3,3,09,87,30,347,10*51
$GNGLL,0419.74676,S,05539.72025,E,132958.00,A,A*6E
$GNRMC,132959.00,A,0419.74690,S,05539.72057,E,1.186,,200525,,,A*75
$GNVTG,,T,,M,1.186,N,2.197,K,A*3E
$GNGGA,132959.00,0419.74690,S,05539.72057,E,1,12,0.63,12.0,M,-47.6,M,,*4A
$GNGSA,A,3,32,18,10,28,26,16,27,31,08,02,,,1.24,0.63,1.07*15
$GNGSA,A,3,85,72,75,86,65,87,66,,,,,,1.24,0.63,1.07*10
$GPGSV,5,1,17,02,07,333,32,04,10,229,,08,26,298,29,10,13,028,30*7E
$GPGSV,5,2,17,16,24,212,10,18,27,119,11,23,01,066,,26,29,181,07*7C
$GPGSV,5,3,17,27,56,264,29,28,60,097,23,31,58,161,18,32,30,009,26*78
$GPGSV,5,4,17,36,52,277,,40,84,353,38,41,58,082,34,49,32,274,*70
$GPGSV,5,5,17,50,10,089,*4A
$GLGSV,3,1,09,65,27,281,09,66,07,236,10,72,23,342,17,74,14,104,11*6F
$GLGSV,3,2,09,75,22,155,11,76,04,209,09,85,35,143,16,86,71,035,34*6A
$GLGSV,3,3,09,87,30,347,12*53
$GNGLL,0419.74690,S,05539.72057,E,132959.00,A,A*62
$GNRMC,133000.00,A,0419.74703,S,05539.72070,E,0.893,,200525,,,A*73
$GNVTG,,T,,M,0.893,N,1.654,K,A*39
$GNGGA,133000.00,0419.74703,S,05539.72070,E,1,12,0.68,12.0,M,-47.6,M,,*4B
$GNGSA,A,3,32,10,28,26,16,27,31,08,02,,,,1.29,0.68,1.10*1C
$GNGSA,A,3,85,72,75,86,65,87,66,,,,,,1.29,0.68,1.10*10
$GPGSV,5,1,17,02,07,333,31,04,10,229,,08,26,298,29,10,13,028,32*7F
$GPGSV,5,2,17,16,24,212,20,18,27,119,,23,01,066,,26,29,181,19*70
$GPGSV,5,3,17,27,56,264,26,28,60,097,23,31,58,161,17,32,30,009,25*7B
$GPGSV,5,4,17,36,52,277,,40,84,353,36,41,58,082,33,49,32,274,*79
$GPGSV,5,5,17,50,10,089,*4A
$GLGSV,3,1,09,65,27,281,10,66,07,236,11,72,23,342,17,74,14,104,08*6E
$GLGSV,3,2,09,75,22,155,10,76,04,209,09,85,35,143,16,86,71,035,36*69
$GLGSV,3,3,09,87,30,347,15*54
$GNGLL,0419.74703,S,05539.72070,E,133000.00,A,A*68
$GNRMC,133001.00,A,0419.74692,S,05539.72065,E,0.438,,200525,,,A*72
$GNVTG,,T,,M,0.438,N,0.812,K,A*39
$GNGGA,133001.00,0419.74692,S,05539.72065,E,1,12,0.68,11.9,M,-47.6,M,,*4D
$GNGSA,A,3,32,10,28,26,16,27,31,08,02,,,,1.29,0.68,1.10*1C
$GNGSA,A,3,85,72,75,86,65,87,66,,,,,,1.29,0.68,1.10*10
$GPGSV,5,1,17,02,07,333,26,04,10,229,,08,26,298,29,10,13,028,32*79
$GPGSV,5,2,17,16,24,212,15,18,27,119,16,23,01,066,,26,29,181,15*7D
$GPGSV,5,3,17,27,56,264,25,28,60,097,23,31,58,161,20,32,30,009,23*7A
$GPGSV,5,4,17,36,52,277,,40,84,353,32,41,58,082,36,49,32,274,*78
$GPGSV,5,5,17,50,10,089,*4A
$GLGSV,3,1,09,65,27,281,09,66,07,236,13,72,23,342,19,74,14,104,08*6A
$GLGSV,3,2,09,75,22,155,09,76,04,209,09,85,35,143,15,86,71,035,31*65
$GLGSV,3,3,09,87,30,347,12*53
$GNGLL,0419.74692,S,05539.72065,E,133001.00,A,A*64
$GNRMC,133002.00,A,0419.74698,S,05539.72063,E,0.200,,200525,,,A*70
$GNVTG,,T,,M,0.200,N,0.371,K,A*3A
$GNGGA,133002.00,0419.74698,S,05539.72063,E,1,12,0.68,11.5,M,-47.6,M,,*4E
$GNGSA,A,3,32,10,28,26,16,27,31,08,02,,,,1.29,0.68,1.10*1C
$GNGSA,A,3,85,72,75,86,65,87,66,,,,,,1.29,0.68,1.10*10
$GPGSV,5,1,17,02,07,333,34,04,10,229,,08,26,298,33,10,13,028,31*72
$GPGSV,5,2,17,16,24,212,12,18,27,119,16,23,01,066,,26,29,181,17*78
$GPGSV,5,3,17,27,56,264,22,28,60,097,22,31,58,161,18,32,30,009,24*70
$GPGSV,5,4,17,36,52,277,,40,84,353,29,41,58,082,30,49,32,274,*74
$GPGSV,5,5,17,50,10,089,*4A
$GLGSV,3,1,09,65,27,281,14,66,07,236,10,72,23,342,20,74,14,104,09*6E
$GLGSV,3,2,09,75,22,155,10,76,04,209,10,85,35,143,15,86,71,035,24*61
$GLGSV,3,3,09,87,30,347,18*59
$GNGLL,0419.74698,S,05539.72063,E,133002.00,A,A*6B
$GNRMC,133003.00,A,0419.74707,S,05539.72068,E,0.009,,200525,,,A*76
$GNVTG,,T,,M,0.009,N,0.016,K,A*33
$GNGGA,133003.00,0419.74707,S,05539.72068,E,1,12,0.74,11.3,M,-47.6,M,,*48
$GNGSA,A,3,32,10,28,26,16,27,31,08,02,,,,1.38,0.74,1.16*17
$GNGSA,A,3,85,72,86,65,87,66,,,,,,,1.38,0.74,1.16*19
$GPGSV,5,1,17,02,07,333,30,04,10,229,,08,26,298,32,10,13,028,31*77
$GPGSV,5,2,17,16,24,212,09,18,27,119,14,23,01,066,,26,29,181,16*71
$GPGSV,5,3,17,27,56,264,20,28,60,097,21,31,58,161,15,32,30,009,22*7A
$GPGSV,5,4,17,36,52,277,,40,84,353,,41,58,082,27,49,32,274,*79
$GPGSV,5,5,17,50,10,089,*4A
$GLGSV,3,1,09,65,27,281,12,66,07,236,10,72,23,342,20,74,14,104,09*68
$GLGSV,3,2,09,75,22,155,07,76,04,209,08,85,35,143,14,86,71,035,22*69
$GLGSV,3,3,09,87,30,347,14*55
$GNGLL,0419.74707,S,05539.72068,E,133003.00,A,A*66
$GNRMC,133004.00,A,0419.74726,S,05539.72077,E,0.130,,200525,,,A*77
$GNVTG,,T,,M,0.130,N,0.241,K,A*38
$GNGGA,133004.00,0419.74726,S,05539.72077,E,1,12,0.68,11.0,M,-47.6,M,,*4C
$GNGSA,A,3,32,10,28,26,16,27,31,08,02,,,,1.29,0.68,1.10*1C
$GNGSA,A,3,85,72,75,86,65,87,66,,,,,,1.29,0.68,1.10*10
$GPGSV,5,1,17,02,07,333,23,04,10,229,,08,26,298,32,10,13,028,30*74
$GPGSV,5,2,17,16,24,212,09,18,27,119,10,23,01,066,,26,29,181,13*70
$GPGSV,5,3,17,27,56,264,20,28,60,097,20,31,58,161,13,32,30,009,18*74
$GPGSV,5,4,17,36,52,277,,40,84,353,,41,58,082,,49,32,274,*7C
$GPGSV,5,5,17,50,10,089,*4A
$GLGSV,3,1,09,65,27,281,12,66,07,236,10,72,23,342,21,74,14,104,09*69
$GLGSV,3,2,09,75,22,155,09,76,04,209,09,85,35,144,13,86,71,035,21*65
$GLGSV,3,3,09,87,30,347,13*52
$GNGLL,0419.74726,S,05539.72077,E,133004.00,A,A*6C
$GNRMC,133005.00,A,0419.74708,S,05539.72078,E,0.207,,200525,,,A*72
$GNVTG,,T,,M,0.207,N,0.383,K,A*30
$GNGGA,133005.00,0419.74708,S,05539.72078,E,1,12,0.74,11.3,M,-47.6,M,,*40
$GNGSA,A,3,32,10,28,26,16,27,31,08,02,,,,1.38,0.74,1.16*17
$GNGSA,A,3,85,72,75,86,65,87,66,,,,,,1.38,0.74,1.16*1B
$GPGSV,5,1,17,02,07,333,26,04,10,229,,08,26,298,31,10,13,028,33*71
$GPGSV,5,2,17,16,24,212,12,18,27,119,09,23,01,066,,26,29,181,07*77
$GPGSV,5,3,17,27,56,264,18,28,60,097,19,31,58,161,12,32,30,009,12*7E
$GPGSV,5,4,17,36,52,277,,40,84,353,,41,58,082,,49,32,274,*7C
$GPGSV,5,5,17,50,10,089,*4A
$GLGSV,3,1,09,65,27,281,13,66,07,236,11,72,23,342,22,74,14,104,07*64
$GLGSV,3,2,09,75,22,155,12,76,04,209,10,85,35,144,13,86,71,036,20*65
$GLGSV,3,3,09,87,30,347,18*59
$GNGLL,0419.74708,S,05539.72078,E,133005.00,A,A*6E
$GNRMC,133006.00,A,0419.74672,S,05539.72071,E,0.707,,200525,,,A*71
$GNVTG,,T,,M,0.707,N,1.310,K,A*3E
$GNGGA,133006.00,0419.74672,S,05539.72071,E,1,12,0.71,11.2,M,-47.6,M,,*42
$GNGSA,A,3,32,10,28,16,27,08,02,,,,,,1.35,0.71,1.15*1A
$GNGSA,A,3,85,72,75,86,65,87,66,,,,,,1.35,0.71,1.15*10
$GPGSV,5,1,17,02,07,333,26,04,10,229,,08,26,298,31,10,13,028,30*72
$GPGSV,5,2,17,16,24,212,09,18,27,119,08,23,01,066,,26,29,181,06*7D
$GPGSV,5,3,17,27,56,264,19,28,60,097,17,31,58,161,10,32,30,009,11*70
$GPGSV,5,4,17,36,52,277,,40,84,353,35,41,58,082,,49,32,274,*7A
$GPGSV,5,5,17,50,10,089,*4A
$GLGSV,3,1,09,65,27,281,11,66,07,236,07,72,23,342,24,74,14,104,11*60
$GLGSV,3,2,09,75,22,155,11,76,04,209,14,85,35,144,11,86,71,036,24*64
$GLGSV,3,3,09,87,31,347,17*57
$GNGLL,0419.74672,S,05539.72071,E,133006.00,A,A*68
$GNRMC,133007.00,A,0419.74654,S,05539.72074,E,0.535,,200525,,,A*72
$GNVTG,,T,,M,0.535,N,0.991,K,A*3F
$GNGGA,133007.00,0419.74654,S,05539.72074,E,1,12,0.68,11.6,M,-47.6,M,,*4E
$GNGSA,A,3,32,10,28,26,16,27,31,08,02,,,,1.29,0.68,1.10*1C
$GNGSA,A,3,85,72,75,86,65,87,66,,,,,,1.29,0.68,1.10*10
$GPGSV,5,1,17,02,07,333,26,04,10,229,,08,26,298,30,10,13,028,30*73
$GPGSV,5,2,17,16,24,212,11,18,27,119,08,23,01,066,,26,29,181,10*73
$GPGSV,5,3,17,27,56,264,16,28,60,097,16,31,58,161,10,32,30,009,12*7D
$GPGSV,5,4,17,36,52,277,,40,84,353,35,41,58,082,,49,32,274,*7A
$GPGSV,5,5,17,50,10,089,*4A
$GLGSV,3,1,09,65,27,281,11,66,07,236,10,72,23,342,24,74,14,104,10*67
$GLGSV,3,2,09,75,22,155,10,76,04,209,11,85,35,144,11,86,71,036,26*62
$GLGSV,3,3,09,87,31,347,18*58
$GNGLL,0419.74654,S,05539.72074,E,133007.00,A,A*68
$GNRMC,133008.00,A,0419.74680,S,05539.72083,E,0.086,,200525,,,A*71
$GNVTG,,T,,M,0.086,N,0.159,K,A*3E
$GNGGA,133008.00,0419.74680,S,05539.72083,E,1,12,0.74,11.3,M,-47.6,M,,*48
$GNGSA,A,3,32,10,28,26,16,27,31,08,02,,,,1.38,0.74,1.16*17
$GNGSA,A,3,85,72,75,86,65,87,66,,,,,,1.38,0.74,1.16*1B
$GPGSV,5,1,17,02,07,333,26,04,10,229,,08,26,298,31,10,13,028,29*7A
$GPGSV,5,2,17,16,24,212,13,18,27,119,08,23,01,066,,26,29,181,10*71
$GPGSV,5,3,17,27,56,264,16,28,60,097,14,31,58,161,10,32,30,009,11*7C
$GPGSV,5,4,17,36,52,277,,40,84,353,36,41,58,082,,49,32,274,*79
$GPGSV,5,5,17,50,10,089,*4A
$GLGSV,3,1,09,65,27,281,10,66,07,236,10,72,23,342,24,74,14,104,08*6F
$GLGSV,3,2,09,75,22,155,09,76,04,209,09,85,35,144,13,86,71,036,27*60
$GLGSV,3,3,09,87,31,347,18*58
$GNGLL,0419.74680,S,05539.72083,E,133008.00,A,A*66
$GNRMC,133009.00,A,0419.74666,S,05539.72080,E,0.417,,200525,,,A*77
$GNVTG,,T,,M,0.417,N,0.773,K,A*3C
$GNGGA,133009.00,0419.74666,S,05539.72080,E,1,12,0.68,11.8,M,-47.6,M,,*44
$GNGSA,A,3,32,10,28,26,16,27,31,08,02,,,,1.29,0.68,1.10*1C
$GNGSA,A,3,85,72,75,86,65,87,66,,,,,,1.29,0.68,1.10*10
$GPGSV,5,1,17,02,07,333,25,04,10,229,,08,26,298,31,10,13,028,29*79
$GPGSV,5,2,17,16,24,212,11,18,27,119,09,23,01,066,,26,29,181,11*73
$GPGSV,5,3,17,27,56,264,15,28,60,097,12,31,58,161,07,32,30,009,16*78
$GPGSV,5,4,17,36,52,277,,40,84,353,36,41,58,082,,49,32,274,*79
$GPGSV,5,5,17,50,10,089,*4A
$GLGSV,3,1,09,65,27,281,14,66,07,236,11,72,23,342,25,74,14,104,05*66
$GLGSV,3,2,09,75,22,155,10,76,04,209,10,85,35,144,10,86,71,036,27*63
$GLGSV,3,3,09,87,31,347,17*57
$GNGLL,0419.74666,S,05539.72080,E,133009.00,A,A*6C
$GNRMC,133010.00,A,0419.74664,S,05539.72084,E,0.350,,200525,,,A*7D
$GNVTG,,T,,M,0.350,N,0.648,K,A*31
$GNGGA,133010.00,0419.74664,S,05539.72084,E,1,12,0.71,11.8,M,-47.6,M,,*42
$GNGSA,A,3,32,10,28,26,27,31,08,02,,,,,1.31,0.71,1.10*1A
$GNGSA,A,3,85,72,75,86,65,87,66,,,,,,1.31,0.71,1.10*11
$GPGSV,5,1,17,02,07,333,23,04,10,229,,08,26,298,31,10,13,028,29*7F
$GPGSV,5,2,17,16,24,212,06,18,27,119,08,23,01,066,,26,29,181,09*7D
$GPGSV,5,3,17,27,56,264,15,28,60,097,12,31,58,161,10,32,30,009,10*78
$GPGSV,5,4,17,36,52,277,,40,84,353,36,41,58,082,,49,32,274,*79
$GPGSV,5,5,17,50,10,089,*4A
$GLGSV,3,1,09,65,27,281,12,66,07,236,10,72,23,342,25,74,14,104,10*65
$GLGSV,3,2,09,75,22,155,12,76,04,209,11,85,35,144,11,86,71,036,27*61
$GLGSV,3,3,09,87,31,347,17*57
$GNGLL,0419.74664,S,05539.72084,E,133010.00,A,A*62
$GNRMC,133011.00,A,0419.74652,S,05539.72085,E,0.389,,200525,,,A*7C
$GNVTG,,T,,M,0.389,N,0.721,K,A*3B
$GNGGA,133011.00,0419.74652,S,05539.72085,E,1,12,0.71,12.1,M,-47.6,M,,*4D
$GNGSA,A,3,32,10,28,26,16,27,31,08,02,,,,1.31,0.71,1.10*1D
$GNGSA,A,3,85,72,75,86,65,87,66,,,,,,1.31,0.71,1.10*11
$GPGSV,5,1,17,02,07,333,22,04,11,229,,08,26,298,31,10,13,028,30*77
$GPGSV,5,2,17,16,24,212,09,18,27,119,08,23,01,066,,26,29,181,10*7A
$GPGSV,5,3,17,27,56,264,16,28,60,097,13,31,58,161,10,32,30,009,15*7F
$GPGSV,5,4,17,36,52,277,,40,84,353,36,41,58,082,,49,32,274,*79
$GPGSV,5,5,17,50,10,089,*4A
$GLGSV,3,1,09,65,27,281,12,66,07,236,09,72,23,342,25,74,14,104,07*6B
$GLGSV,3,2,09,75,22,155,08,76,04,209,10,85,35,144,11,86,71,036,27*6B
$GLGSV,3,3,09,87,31,347,17*57
$GNGLL,0419.74652,S,05539.72085,E,133011.00,A,A*67
$GNRMC,133012.00,A,0419.74661,S,05539.72088,E,0.164,,200525,,,A*73
$GNVTG,,T,,M,0.164,N,0.305,K,A*38
$GNGGA,133012.00,0419.74661,S,05539.72088,E,1,12,0.68,12.0,M,-47.6,M,,*4A
$GNGSA,A,3,32,10,28,26,16,27,31,08,02,,,,1.29,0.68,1.10*1C
$GNGSA,A,3,85,72,75,86,65,87,66,,,,,,1.29,0.68,1.10*10
$GPGSV,5,1,17,02,07,333,23,04,11,229,,08,26,298,31,10,13,028,31*77
$GPGSV,5,2,17,16,24,212,09,18,27,119,,23,01,066,,26,29,181,11*73
$GPGSV,5,3,17,27,56,264,17,28,60,097,14,31,58,161,09,32,30,009,15*71
$GPGSV,5,4,17,36,52,277,,40,84,353,35,41,58,082,,49,32,274,*7A
$GPGSV,5,5,17,50,10,089,*4A
$GLGSV,3,1,09,65,27,281,08,66,07,236,09,72,23,342,24,74,14,104,10*67
$GLGSV,3,2,09,75,22,155,11,76,04,209,12,85,35,144,12,86,71,036,27*62
$GLGSV,3,3,09,87,31,347,19*59
$GNGLL,0419.74661,S,05539.72088,E,133012.00,A,A*69
$GNRMC,133013.00,A,0419.74680,S,05539.72096,E,0.087,,200525,,,A*7E
$GNVTG,,T,,M,0.087,N,0.161,K,A*34
$GNGGA,133013.00,0419.74680,S,05539.72096,E,1,12,0.68,11.8,M,-47.6,M,,*40
$GNGSA,A,3,32,10,28,26,16,27,31,08,02,,,,1.29,0.68,1.10*1C
$GNGSA,A,3,85,72,75,86,65,87,66,,,,,,1.29,0.68,1.10*10
$GPGSV,5,1,17,02,07,333,23,04,11,229,,08,26,298,31,10,13,028,30*76
$GPGSV,5,2,17,16,24,212,09,18,27,119,,23,01,066,,26,29,181,07*74
$GPGSV,5,3,17,27,56,264,18,28,60,097,13,31,58,161,09,32,30,009,15*79
$GPGSV,5,4,17,36,52,277,,40,84,353,35,41,58,082,,49,32,274,*7A
$GPGSV,5,5,17,50,10,089,*4A
$GLGSV,3,1,09,65,27,281,12,66,07,236,10,72,23,342,24,74,14,104,11*65
$GLGSV,3,2,09,75,22,155,11,76,04,209,10,85,35,144,12,86,71,036,27*60
$GLGSV,3,3,09,87,31,347,19*59
$GNGLL,0419.74680,S,05539.72096,E,133013.00,A,A*68
$GNRMC,133014.00,A,0419.74682,S,05539.72102,E,0.028,,200525,,,A*72
$GNVTG,,T,,M,0.028,N,0.051,K,A*33
$GNGGA,133014.00,0419.74682,S,05539.72102,E,1,12,0.73,12.0,M,-47.6,M,,*48
$GNGSA,A,3,32,10,28,16,27,31,08,02,,,,,1.33,0.73,1.11*18
$GNGSA,A,3,85,72,75,86,65,87,66,,,,,,1.33,0.73,1.11*10
$GPGSV,5,1,17,02,07,333,25,04,11,229,,08,26,298,31,10,13,028,30*70
$GPGSV,5,2,17,16,24,212,12,18,27,119,,23,01,066,,26,29,181,07*7E
$GPGSV,5,3,17,27,56,264,20,28,60,097,14,31,58,161,09,32,30,009,14*74
$GPGSV,5,4,17,36,52,277,,40,84,353,36,41,58,082,,49,32,274,*79
$GPGSV,5,5,17,50,10,089,*4A
$GLGSV,3,1,09,65,27,281,12,66,07,236,10,72,23,342,24,74,14,104,07*62
$GLGSV,3,2,09,75,22,155,11,76,04,209,12,85,35,144,15,86,71,036,27*65
$GLGSV,3,3,09,87,31,347,18*58
$GNGLL,0419.74682,S,05539.72102,E,133014.00,A,A*61
$GNRMC,133015.00,A,0419.74695,S,05539.72108,E,0.045,,200525,,,A*74
$GNVTG,,T,,M,0.045,N,0.083,K,A*37
$GNGGA,133015.00,0419.74695,S,05539.72108,E,1,12,0.68,11.9,M,-47.6,M,,*45
$GNGSA,A,3,32,10,28,26,16,27,31,08,02,,,,1.29,0.68,1.10*1C
$GNGSA,A,3,85,72,75,86,65,87,66,,,,,,1.29,0.68,1.10*10
$GPGSV,5,1,17,02,07,333,25,04,11,229,,08,26,297,31,10,13,028,30*7F
$GPGSV,5,2,17,16,24,212,12,18,27,119,,23,01,066,,26,29,181,07*7E
$GPGSV,5,3,17,27,56,264,20,28,60,097,13,31,58,161,14,32,30,009,12*79
$GPGSV,5,4,17,36,52,277,,40,84,353,35,41,58,082,,49,32,274,*7A
$GPGSV,5,5,17,50,10,089,*4A
$GLGSV,3,1,09,65,27,281,08,66,07,236,12,72,23,342,24,74,14,104,11*6C
$GLGSV,3,2,09,75,22,155,10,76,04,209,09,85,35,144,12,86,71,036,27*69
$GLGSV,3,3,09,87,31,347,19*59
$GNGLL,0419.74695,S,05539.72108,E,133015.00,A,A*6C
$GNRMC,133016.00,A,0419.74692,S,05539.72112,E,0.126,,200525,,,A*7F
$GNVTG,,T,,M,0.126,N,0.233,K,A*3A
$GNGGA,133016.00,0419.74692,S,05539.72112,E,1,12,0.68,12.0,M,-47.6,M,,*40
$GNGSA,A,3,32,10,28,26,16,27,31,08,02,,,,1.29,0.68,1.10*1C
$GNGSA,A,3,85,72,75,86,65,87,66,,,,,,1.29,0.68,1.10*10
$GPGSV,5,1,17,02,07,333,25,04,11,229,,08,26,297,31,10,13,028,30*7F
$GPGSV,5,2,17,16,24,212,10,18,27,119,,23,01,066,,26,29,181,10*7A
$GPGSV,5,3,17,27,56,264,19,28,60,097,14,31,58,161,08,32,30,009,18*73
$GPGSV,5,4,17,36,52,277,,40,84,353,36,41,58,082,,49,32,274,*79
$GPGSV,5,5,17,50,10,089,*4A
$GLGSV,3,1,09,65,27,281,09,66,07,236,11,72,23,342,24,74,14,104,08*66
$GLGSV,3,2,09,75,22,155,09,76,04,209,09,85,35,144,12,86,71,036,27*61
$GLGSV,3,3,09,87,31,347,18*58
$GNGLL,0419.74692,S,05539.72112,E,133016.00,A,A*63
$GNRMC,133017.00,A,0419.74709,S,05539.72117,E,0.082,,200525,,,A*77
$GNVTG,,T,,M,0.082,N,0.152,K,A*31
$GNGGA,133017.00,0419.74709,S,05539.72117,E,1,12,0.76,11.8,M,-47.6,M,,*43
$GNGSA,A,3,32,10,28,26,16,27,31,08,02,,,,1.39,0.76,1.16*14
$GNGSA,A,3,85,72,75,86,65,87,66,,,,,,1.39,0.76,1.16*18
$GPGSV,5,1,17,02,07,333,25,04,11,229,,08,26,297,31,10,13,028,30*7F
$GPGSV,5,2,17,16,24,212,11,18,27,119,,23,01,066,,26,29,181,08*72
$GPGSV,5,3,17,27,56,264,19,28,60,097,14,31,58,161,08,32,30,009,11*7A
$GPGSV,5,4,17,36,52,277,,40,84,353,36,41,58,082,,49,32,274,*79
$GPGSV,5,5,17,50,10,089,*4A
$GLGSV,3,1,09,65,27,281,11,66,07,236,10,72,23,342,24,74,14,104,07*61
$GLGSV,3,2,09,75,22,155,09,76,04,209,08,85,35,144,11,86,71,036,26*62
$GLGSV,3,3,09,87,31,347,18*58
$GNGLL,0419.74709,S,05539.72117,E,133017.00,A,A*64
$GNRMC,133018.00,A,0419.74723,S,05539.72124,E,0.166,,200525,,,A*7B
$GNVTG,,T,,M,0.166,N,0.308,K,A*37
$GNGGA,133018.00,0419.74723,S,05539.72124,E,1,12,0.72,11.7,M,-47.6,M,,*4F
$GNGSA,A,3,32,10,28,26,16,27,31,08,02,,,,1.39,0.72,1.18*1E
$GNGSA,A,3,85,72,75,86,65,87,,,,,,,1.39,0.72,1.18*12
$GPGSV,5,1,17,02,07,333,25,04,11,229,,08,26,297,31,10,13,028,30*7F
$GPGSV,5,2,17,16,24,212,09,18,27,119,,23,01,066,,26,29,181,10*72
$GPGSV,5,3,17,27,56,264,20,28,60,097,14,31,58,161,12,32,30,009,08*73
$GPGSV,5,4,17,36,52,277,,40,84,353,35,41,58,082,,49,32,274,*7A
$GPGSV,5,5,17,50,10,089,*4A
$GLGSV,3,1,09,65,27,281,12,66,07,236,06,72,23,342,23,74,14,104,12*66
$GLGSV,3,2,09,75,22,155,11,76,04,209,08,85,35,144,11,86,71,036,26*6B
$GLGSV,3,3,09,87,31,347,17*57
$GNGLL,0419.74723,S,05539.72124,E,133018.00,A,A*63
$GNRMC,133019.00,A,0419.74771,S,05539.72140,E,0.217,,200525,,,A*7A
$GNVTG,,T,,M,0.217,N,0.401,K,A*3C
$GNGGA,133019.00,0419.74771,S,05539.72140,E,1,12,0.72,11.2,M,-47.6,M,,*4E
$GNGSA,A,3,32,10,28,26,16,27,31,08,02,,,,1.39,0.72,1.18*1E
$GNGSA,A,3,85,72,75,86,65,87,,,,,,,1.39,0.72,1.18*12
$GPGSV,5,1,17,02,07,333,25,04,11,229,,08,26,297,31,10,13,028,30*7F
$GPGSV,5,2,17,16,24,212,09,18,27,119,,23,01,066,,26,29,181,12*70
$GPGSV,5,3,17,27,56,264,20,28,60,097,14,31,58,161,10,32,30,009,14*7C
$GPGSV,5,4,17,36,52,277,,40,84,353,35,41,58,082,,49,32,274,*7A
$GPGSV,5,5,17,50,10,089,*4A
$GLGSV,3,1,09,65,27,281,10,66,07,236,06,72,23,342,23,74,14,104,09*6E
$GLGSV,3,2,09,75,22,155,09,76,04,209,10,85,35,144,10,86,71,036,26*6A
$GLGSV,3,3,09,87,31,347,18*58
$GNGLL,0419.74771,S,05539.72140,E,133019.00,A,A*67
$GNRMC,133020.00,A,0419.74796,S,05539.72147,E,0.388,,200525,,,A*79
$GNVTG,,T,,M,0.388,N,0.718,K,A*30
$GNGGA,133020.00,0419.74796,S,05539.72147,E,1,12,0.87,11.3,M,-47.6,M,,*41
$GNGSA,A,3,32,10,28,26,16,27,31,08,02,,,,1.50,0.87,1.22*12
$GNGSA,A,3,85,72,75,86,65,87,66,,,,,,1.50,0.87,1.22*1E
$GPGSV,5,1,17,02,07,333,25,04,11,229,,08,26,297,29,10,13,028,30*76
$GPGSV,5,2,17,16,24,212,09,18,27,119,,23,01,066,,26,29,181,09*7A
$GPGSV,5,3,17,27,56,264,20,28,60,097,14,31,58,161,08,32,30,009,17*76
$GPGSV,5,4,17,36,52,277,,40,84,353,30,41,58,082,,49,32,274,*7F
$GPGSV,5,5,17,50,10,089,*4A
$GLGSV,3,1,09,65,27,281,10,66,07,236,09,72,23,342,22,74,14,104,07*6E
$GLGSV,3,2,09,75,22,155,08,76,04,209,10,85,35,144,08,86,71,036,23*67
$GLGSV,3,3,09,87,31,347,17*57
$GNGLL,0419.74796,S,05539.72147,E,133020.00,A,A*63
$GNRMC,133021.00,A,0419.74826,S,05539.72153,E,0.136,,200525,,,A*7E
$GNVTG,,T,,M,0.136,N,0.252,K,A*3C
$GNGGA,133021.00,0419.74826,S,05539.72153,E,1,12,0.71,10.9,M,-47.6,M,,*43
$GNGSA,A,3,32,10,28,26,27,31,08,02,,,,,1.31,0.71,1.10*1A
$GNGSA,A,3,85,72,75,86,65,87,66,,,,,,1.31,0.71,1.10*11
$GPGSV,5,1,17,02,07,333,25,04,11,229,,08,26,297,19,10,13,028,22*76
$GPGSV,5,2,17,16,24,212,,18,27,119,,23,01,066,,26,29,181,10*7B
$GPGSV,5,3,17,27,56,264,25,28,60,097,13,31,58,161,13,32,30,009,21*7B
$GPGSV,5,4,17,36,52,277,,40,84,353,30,41,58,082,,49,32,274,*7F
$GPGSV,5,5,17,50,10,089,*4A
$GLGSV,3,1,09,65,27,281,08,66,07,236,09,72,23,342,19,74,14,104,06*6E
$GLGSV,3,2,09,75,22,155,10,76,04,209,09,85,35,144,09,86,71,036,23*67
$GLGSV,3,3,09,87,31,347,17*57
$GNGLL,0419.74826,S,05539.72153,E,133021.00,A,A*63
$GNRMC,133022.00,A,0419.74811,S,05539.72153,E,0.413,,200525,,,A*7B
$GNVTG,,T,,M,0.413,N,0.766,K,A*3C
$GNGGA,133022.00,0419.74811,S,05539.72153,E,1,12,0.71,11.0,M,-47.6,M,,*4C
$GNGSA,A,3,32,10,28,26,27,31,08,02,,,,,1.31,0.71,1.10*1A
$GNGSA,A,3,85,72,75,86,65,87,66,,,,,,1.31,0.71,1.10*11
$GPGSV,5,1,17,02,07,333,22,04,11,229,,08,26,297,24,10,13,028,24*79
$GPGSV,5,2,17,16,24,212,,18,27,119,,23,01,066,,26,29,181,09*73
$GPGSV,5,3,17,27,56,264,26,28,60,097,13,31,58,161,10,32,30,009,24*7E
$GPGSV,5,4,17,36,52,277,,40,84,353,35,41,58,082,,49,32,274,*7A
$GPGSV,5,5,17,50,10,089,*4A
$GLGSV,3,1,09,65,27,281,12,66,07,236,10,72,23,342,22,74,14,104,08*6B
$GLGSV,3,2,09,75,22,155,09,76,04,209,10,85,35,144,18,86,71,036,34*61
$GLGSV,3,3,09,87,31,347,18*58
$GNGLL,0419.74811,S,05539.72153,E,133022.00,A,A*64
$GNRMC,133023.00,A,0419.74869,S,05539.72169,E,0.200,,200525,,,A*78
$GNVTG,,T,,M,0.200,N,0.371,K,A*3A
$GNGGA,133023.00,0419.74869,S,05539.72169,E,1,12,0.87,10.0,M,-47.6,M,,*43
$GNGSA,A,3,32,10,28,26,27,08,02,,,,,,1.54,0.87,1.27*16
$GNGSA,A,3,85,72,75,86,65,87,66,,,,,,1.54,0.87,1.27*1F
$GPGSV,5,1,17,02,07,333,30,04,11,229,,08,26,297,25,10,13,028,24*7B
$GPGSV,5,2,17,16,24,211,,18,27,119,,23,01,066,,26,29,181,11*79
$GPGSV,5,3,17,27,56,264,36,28,60,097,16,31,58,161,,32,30,009,26*79
$GPGSV,5,4,17,36,52,277,,40,84,353,41,41,58,082,,49,32,274,*79
$GPGSV,5,5,17,50,10,089,*4A
$GLGSV,3,1,09,65,27,281,15,66,07,236,12,72,23,342,30,74,14,104,09*6C
$GLGSV,3,2,09,75,22,155,13,76,04,209,11,85,35,144,17,86,71,036,38*68
$GLGSV,3,3,09,87,31,347,22*51
$GNGLL,0419.74869,S,05539.72169,E,133023.00,A,A*63
$GNRMC,133024.00,A,0419.74880,S,05539.72182,E,0.463,,200525,,,A*7E
$GNVTG,,T,,M,0.463,N,0.857,K,A*36
$GNGGA,133024.00,0419.74880,S,05539.72182,E,1,12,0.71,9.9,M,-47.6,M,,*7E
$GNGSA,A,3,32,10,28,26,27,08,02,,,,,,1.36,0.71,1.16*19
$GNGSA,A,3,85,72,75,86,65,87,66,,,,,,1.36,0.71,1.16*10
$GPGSV,5,1,17,02,07,333,30,04,11,229,,08,26,297,23,10,13,028,31*79
$GPGSV,5,2,17,16,24,211,18,18,27,119,,23,01,066,,26,29,181,12*73
$GPGSV,5,3,17,27,56,264,33,28,60,097,17,31,58,161,20,32,30,009,27*7E
$GPGSV,5,4,17,36,52,277,,40,84,353,39,41,58,082,,49,32,274,*76
$GPGSV,5,5,17,50,10,089,*4A
$GLGSV,3,1,09,65,27,281,13,66,07,236,10,72,23,342,30,74,14,104,08*69
$GLGSV,3,2,09,75,22,155,11,76,04,209,10,85,35,144,19,86,71,036,36*6B
$GLGSV,3,3,09,87,31,347,25*56
$GNGLL,0419.74880,S,05539.72182,E,133024.00,A,A*66
$GNRMC,133025.00,A,0419.74904,S,05539.72204,E,0.738,,200525,,,A*72
$GNVTG,,T,,M,0.738,N,1.367,K,A*32
$GNGGA,133025.00,0419.74904,S,05539.72204,E,1,12,0.71,9.1,M,-47.6,M,,*77
$GNGSA,A,3,32,10,28,26,27,08,02,,,,,,1.36,0.71,1.16*19
$GNGSA,A,3,85,72,75,86,65,87,66,,,,,,1.36,0.71,1.16*10
$GPGSV,5,1,17,02,07,333,21,04,11,229,,08,26,297,25,10,13,028,26*79
$GPGSV,5,2,17,16,24,211,15,18,26,119,,23,01,066,,26,29,181,17*7A
$GPGSV,5,3,17,27,56,264,31,28,60,097,19,31,58,161,21,32,30,009,14*73
$GPGSV,5,4,17,36,52,277,,40,84,353,37,41,58,082,,49,32,274,*78
$GPGSV,5,5,17,50,10,089,*4A
$GLGSV,3,1,09,65,27,281,16,66,07,236,10,72,23,342,28,74,14,104,05*68
$GLGSV,3,2,09,75,22,155,11,76,04,209,11,85,35,144,18,86,71,036,34*69
$GLGSV,3,3,09,87,31,347,23*50
$GNGLL,0419.74904,S,05539.72204,E,133025.00,A,A*67
$GNRMC,133026.00,A,0419.74826,S,05539.72180,E,0.369,,200525,,,A*7F
$GNVTG,,T,,M,0.369,N,0.683,K,A*3C
$GNGGA,133026.00,0419.74826,S,05539.72180,E,1,12,0.71,10.7,M,-47.6,M,,*44
$GNGSA,A,3,32,10,28,26,27,08,02,,,,,,1.36,0.71,1.16*19
$GNGSA,A,3,85,72,75,86,65,87,66,,,,,,1.36,0.71,1.16*10
$GPGSV,5,1,17,02,07,333,19,04,11,229,,08,26,297,25,10,13,028,25*71
$GPGSV,5,2,17,16,24,211,14,18,26,119,05,23,01,066,,26,29,181,11*78
$GPGSV,5,3,17,27,56,264,30,28,60,097,17,31,58,161,18,32,30,009,19*7B
$GPGSV,5,4,17,36,52,277,,40,84,353,35,41,58,082,,49,32,274,*7A
$GPGSV,5,5,17,50,10,089,*4A
$GLGSV,3,1,09,65,27,281,15,66,07,236,11,72,23,342,25,74,14,104,05*67
$GLGSV,3,2,09,75,22,155,09,76,04,209,10,85,35,144,15,86,71,036,34*6C
$GLGSV,3,3,09,87,31,347,21*52
$GNGLL,0419.74826,S,05539.72180,E,133026.00,A,A*6A
$GNRMC,133027.00,A,0419.74826,S,05539.72183,E,0.757,,200525,,,A*74
$GNVTG,,T,,M,0.757,N,1.401,K,A*3C
$GNGGA,133027.00,0419.74826,S,05539.72183,E,1,12,0.71,11.0,M,-47.6,M,,*40
$GNGSA,A,3,32,10,28,26,27,08,02,,,,,,1.36,0.71,1.16*19
$GNGSA,A,3,85,72,75,86,65,87,66,,,,,,1.36,0.71,1.16*10
$GPGSV,5,1,17,02,07,333,19,04,11,229,,08,26,297,24,10,13,028,25*70
$GPGSV,5,2,17,16,24,211,11,18,26,119,07,23,01,066,,26,29,181,09*76
$GPGSV,5,3,17,27,56,264,30,28,60,097,16,31,58,161,16,32,30,009,21*7F
$GPGSV,5,4,17,36,52,277,,40,84,353,36,41,58,082,,49,32,274,*79
$GPGSV,5,5,17,50,10,089,*4A
$GLGSV,3,1,09,65,27,281,13,66,07,236,09,72,23,342,23,74,14,104,09*62
$GLGSV,3,2,09,75,22,155,13,76,04,209,09,85,35,144,16,86,71,036,34*6C
$GLGSV,3,3,09,87,31,347,22*51
$GNGLL,0419.74826,S,05539.72183,E,133027.00,A,A*68
$GNRMC,133028.00,A,0419.74823,S,05539.72181,E,0.269,,200525,,,A*74
$GNVTG,,T,,M,0.269,N,0.499,K,A*34
$GNGGA,133028.00,0419.74823,S,05539.72181,E,1,12,0.72,11.3,M,-47.6,M,,*48
$GNGSA,A,3,32,10,26,27,31,08,02,,,,,,1.36,0.72,1.15*11
$GNGSA,A,3,85,72,75,86,65,87,66,,,,,,1.36,0.72,1.15*10
$GPGSV,5,1,17,02,07,333,20,04,11,229,,08,26,297,23,10,13,028,26*7E
$GPGSV,5,2,17,16,24,211,11,18,26,119,09,23,01,066,,26,29,181,11*71
$GPGSV,5,3,17,27,56,264,30,28,60,097,,31,58,161,17,32,30,009,22*7A
$GPGSV,5,4,17,36,52,277,,40,84,353,37,41,58,082,,49,32,274,*78
$GPGSV,5,5,17,50,10,089,*4A
$GLGSV,3,1,09,65,27,281,10,66,07,236,09,72,23,342,20,74,14,104,05*6E
$GLGSV,3,2,09,75,22,155,08,76,04,209,06,85,35,144,17,86,71,036,34*68
$GLGSV,3,3,09,87,31,347,22*51
$GNGLL,0419.74823,S,05539.72181,E,133028.00,A,A*60
$GNRMC,133029.00,A,0419.74820,S,05539.72173,E,0.132,,200525,,,A*76
$GNVTG,,T,,M,0.132,N,0.244,K,A*3F
$GNGGA,133029.00,0419.74820,S,05539.72173,E,1,12,0.81,11.5,M,-47.6,M,,*4D
$GNGSA,A,3,32,10,26,16,27,31,08,02,,,,,1.45,0.81,1.21*19
$GNGSA,A,3,85,72,75,86,87,66,,,,,,,1.45,0.81,1.21*1C
$GPGSV,5,1,17,02,07,333,24,04,11,229,,08,26,297,21,10,13,028,26*78
$GPGSV,5,2,17,16,24,211,11,18,26,119,,23,01,067,,26,29,181,10*78
$GPGSV,5,3,17,27,56,264,30,28,60,097,16,31,58,161,17,32,30,009,22*7D
$GPGSV,5,4,17,36,52,277,,40,84,353,37,41,58,082,,49,32,274,*78
$GPGSV,5,5,17,50,10,089,*4A
$GLGSV,3,1,09,65,27,281,09,66,07,236,10,72,23,342,20,74,14,104,09*62
$GLGSV,3,2,09,75,22,155,12,76,04,209,10,85,35,144,18,86,71,036,35*6A
$GLGSV,3,3,09,87,31,347,23*50
$GNGLL,0419.74820,S,05539.72173,E,133029.00,A,A*6F
$GNRMC,133030.00,A,0419.74896,S,05539.72213,E,1.029,,200525,,,A*7C
$GNVTG,,T,,M,1.029,N,1.905,K,A*3A
$GNGGA,133030.00,0419.74896,S,05539.72213,E,1,12,0.70,10.3,M,-47.6,M,,*44
$GNGSA,A,3,32,10,26,16,27,31,08,02,,,,,1.34,0.70,1.15*16
$GNGSA,A,3,85,72,75,86,65,87,66,,,,,,1.34,0.70,1.15*10
$GPGSV,5,1,17,02,07,333,24,04,11,229,,08,26,297,20,10,13,028,27*78
$GPGSV,5,2,17,16,24,211,10,18,26,119,,23,01,067,,26,29,181,09*71
$GPGSV,5,3,17,27,56,264,29,28,60,097,16,31,58,161,17,32,30,009,21*76
$GPGSV,5,4,17,36,52,277,,40,84,353,37,41,58,082,,49,32,274,*78
$GPGSV,5,5,17,50,10,089,*4A
$GLGSV,3,1,09,65,27,281,11,66,07,236,11,72,23,342,20,74,14,104,10*62
$GLGSV,3,2,09,75,22,155,07,76,04,209,10,85,35,144,17,86,71,036,36*62
$GLGSV,3,3,09,87,31,347,23*50
$GNGLL,0419.74896,S,05539.72213,E,133030.00,A,A*6F
$GNRMC,133031.00,A,0419.74867,S,05539.72196,E,0.749,,200525,,,A*7D
$GNVTG,,T,,M,0.749,N,1.387,K,A*3A
$GNGGA,133031.00,0419.74867,S,05539.72196,E,1,12,0.72,10.8,M,-47.6,M,,*4C
$GNGSA,A,3,32,10,26,27,31,08,02,,,,,,1.36,0.72,1.15*11
$GNGSA,A,3,85,72,75,86,65,87,66,,,,,,1.36,0.72,1.15*10
$GPGSV,5,1,17,02,07,333,22,04,11,229,,08,26,297,20,10,13,028,28*71
$GPGSV,5,2,17,16,24,211,08,18,26,119,,23,01,067,,26,29,181,09*78
$GPGSV,5,3,17,27,56,264,29,28,60,097,16,31,58,161,16,32,30,009,21*77
$GPGSV,5,4,17,36,52,277,,40,84,353,37,41,58,082,,49,32,274,*78
$GPGSV,5,5,17,50,10,089,*4A
$GLGSV,3,1,09,65,27,281,11,66,07,236,08,72,23,342,20,74,14,104,07*6C
$GLGSV,3,2,09,75,22,155,09,76,04,209,09,85,35,144,16,86,71,036,36*65
$GLGSV,3,3,09,87,31,347,24*57
$GNGLL,0419.74867,S,05539.72196,E,133031.00,A,A*6E
$GNRMC,133032.00,A,0419.74913,S,05539.72210,E,0.700,,200525,,,A*7C
$GNVTG,,T,,M,0.700,N,1.297,K,A*37
$GNGGA,133032.00,0419.74913,S,05539.72210,E,1,12,0.84,10.1,M,-47.6,M,,*40
$GNGSA,A,3,32,10,26,27,31,08,02,,,,,,1.48,0.84,1.22*15
$GNGSA,A,3,85,72,75,86,87,66,,,,,,,1.48,0.84,1.22*17
$GPGSV,5,1,17,02,07,333,21,04,11,229,,08,26,297,21,10,13,028,29*72
$GPGSV,5,2,17,16,24,211,09,18,26,119,,23,01,067,,26,29,181,12*73
$GPGSV,5,3,17,27,56,264,29,28,60,097,16,31,58,161,17,32,30,009,22*75
$GPGSV,5,4,17,36,52,277,,40,84,353,37,41,58,082,,49,32,274,*78
$GPGSV,5,5,17,50,10,089,*4A
$GLGSV,3,1,09,65,27,281,09,66,07,236,10,72,23,342,20,74,14,104,07*6C
$GLGSV,3,2,09,75,22,155,11,76,04,209,09,85,35,144,15,86,71,036,36*6F
$GLGSV,3,3,09,87,31,347,24*57
$GNGLL,0419.74913,S,05539.72210,E,133032.00,A,A*62
$GNRMC,133033.00,A,0419.74887,S,05539.72199,E,0.139,,200525,,,A*7F
$GNVTG,,T,,M,0.139,N,0.258,K,A*39
$GNGGA,133033.00,0419.74887,S,05539.72199,E,1,12,0.76,10.8,M,-47.6,M,,*4B
$GNGSA,A,3,32,10,28,26,27,31,08,02,,,,,1.40,0.76,1.18*13
$GNGSA,A,3,85,72,86,65,87,66,,,,,,,1.40,0.76,1.18*1A
$GPGSV,5,1,17,02,07,333,19,04,11,229,,08,26,297,20,10,13,028,28*79
$GPGSV,5,2,17,16,24,211,09,18,26,119,,23,01,067,,26,29,181,11*70
$GPGSV,5,3,17,27,56,262,28,28,60,097,15,31,58,161,19,32,30,009,23*7E
$GPGSV,5,4,17,36,52,277,,40,84,353,37,41,58,082,,49,32,274,*78
$GPGSV,5,5,17,50,10,089,*4A
$GLGSV,3,1,09,65,27,281,08,66,07,236,10,72,23,342,20,74,14,104,08*62
$GLGSV,3,2,09,75,22,155,07,76,04,209,09,85,35,144,15,86,71,036,35*6B
$GLGSV,3,3,09,87,31,347,24*57
$GNGLL,0419.74887,S,05539.72199,E,133033.00,A,A*6D
$GNRMC,133034.00,A,0419.74878,S,05539.72194,E,0.217,,200525,,,A*7A
$GNVTG,,T,,M,0.217,N,0.403,K,A*3E
$GNGGA,133034.00,0419.74878,S,05539.72194,E,1,12,0.71,11.0,M,-47.6,M,,*4F
$GNGSA,A,3,32,10,28,26,27,31,08,02,,,,,1.31,0.71,1.10*1A
$GNGSA,A,3,85,72,75,86,65,87,66,,,,,,1.31,0.71,1.10*11
$GPGSV,5,1,17,02,07,333,18,04,11,229,,08,26,297,20,10,13,028,28*78
$GPGSV,5,2,17,16,24,211,10,18,26,119,12,23,01,067,,26,29,181,11*7B
$GPGSV,5,3,17,27,56,262,28,28,60,095,14,31,58,161,20,32,30,009,24*70
$GPGSV,5,4,17,36,52,277,,40,84,353,37,41,58,082,,49,32,274,*78
$GPGSV,5,5,17,50,10,089,*4A
$GLGSV,3,1,09,65,27,281,09,66,07,236,09,72,23,342,19,74,14,104,11*69
$GLGSV,3,2,09,75,22,155,10,76,04,209,09,85,35,144,15,86,71,036,35*6D
$GLGSV,3,3,09,87,31,347,24*57
$GNGLL,0419.74878,S,05539.72194,E,133034.00,A,A*67
$GNRMC,133035.00,A,0419.74891,S,05539.72200,E,0.775,,200525,,,A*73
$GNVTG,,T,,M,0.775,N,1.435,K,A*3B
$GNGGA,133035.00,0419.74891,S,05539.72200,E,1,12,0.74,11.0,M,-47.6,M,,*42
$GNGSA,A,3,32,10,28,26,16,27,31,08,02,,,,1.38,0.74,1.16*17
$GNGSA,A,3,85,72,75,86,65,87,66,,,,,,1.38,0.74,1.16*1B
$GPGSV,5,1,17,02,07,333,18,04,11,229,,08,26,297,19,10,13,028,28*72
$GPGSV,5,2,17,16,24,211,11,18,26,119,10,23,01,067,,26,29,181,09*71
$GPGSV,5,3,17,27,56,262,29,28,60,095,14,31,58,161,19,32,30,009,23*7C
$GPGSV,5,4,17,36,52,277,,40,84,353,37,41,58,082,,49,32,274,*78
$GPGSV,5,5,17,50,10,089,*4A
$GLGSV,3,1,09,65,27,281,10,66,07,236,12,72,23,342,19,74,14,104,09*62
$GLGSV,3,2,09,75,22,155,11,76,04,209,10,85,35,144,15,86,71,036,35*64
$GLGSV,3,3,09,87,31,347,23*50
$GNGLL,0419.74891,S,05539.72200,E,133035.00,A,A*6F
$GNRMC,133036.00,A,0419.74842,S,05539.72168,E,0.642,,200525,,,A*76
$GNVTG,,T,,M,0.642,N,1.189,K,A*3C
$GNGGA,133036.00,0419.74842,S,05539.72168,E,1,12,0.71,11.8,M,-47.6,M,,*4F
$GNGSA,A,3,32,10,28,26,27,31,08,02,,,,,1.31,0.71,1.10*1A
$GNGSA,A,3,85,72,75,86,65,87,66,,,,,,1.31,0.71,1.10*11
$GPGSV,5,1,17,02,07,333,18,04,11,229,,08,26,297,20,10,13,028,29*79
$GPGSV,5,2,17,16,24,211,10,18,26,119,08,23,01,067,,26,29,181,13*72
$GPGSV,5,3,17,27,56,262,28,28,60,095,13,31,58,161,19,32,30,009,22*7B
$GPGSV,5,4,17,36,52,277,,40,84,353,37,41,58,082,,49,32,274,*78
$GPGSV,5,5,17,50,10,089,*4A
$GLGSV,3,1,09,65,27,281,10,66,07,236,09,72,23,342,19,74,14,104,07*66
$GLGSV,3,2,09,75,22,155,08,76,04,209,10,85,35,144,16,86,71,036,35*6F
$GLGSV,3,3,09,87,31,347,23*50
$GNGLL,0419.74842,S,05539.72168,E,133036.00,A,A*6F
$GNRMC,133037.00,A,0419.74836,S,05539.72167,E,0.392,,200525,,,A*73
$GNVTG,,T,,M,0.392,N,0.726,K,A*36
$GNGGA,133037.00,0419.74836,S,05539.72167,E,1,12,0.68,12.1,M,-47.6,M,,*40
$GNGSA,A,3,32,10,28,26,16,27,31,08,02,,,,1.29,0.68,1.10*1C
$GNGSA,A,3,85,72,75,86,65,87,66,,,,,,1.29,0.68,1.10*10
$GPGSV,5,1,17,02,07,333,20,04,11,229,,08,26,297,22,10,13,028,27*7E
$GPGSV,5,2,17,16,24,211,11,18,26,119,11,23,01,067,,26,29,181,08*71
$GPGSV,5,3,17,27,56,262,30,28,60,095,12,31,58,161,18,32,30,009,22*72
$GPGSV,5,4,17,36,52,277,,40,84,353,36,41,58,082,,49,32,274,*79
$GPGSV,5,5,17,50,10,089,*4A
$GLGSV,3,1,09,65,27,281,14,66,07,236,12,72,23,342,19,74,14,104,12*6C
$GLGSV,3,2,09,75,22,155,12,76,04,209,09,85,35,144,15,86,71,036,32*68
$GLGSV,3,3,09,87,31,347,20*53
$GNGLL,0419.74836,S,05539.72167,E,133037.00,A,A*62
$GNRMC,133038.00,A,0419.74864,S,05539.72169,E,0.212,,200525,,,A*7C
$GNVTG,,T,,M,0.212,N,0.392,K,A*34
$GNGGA,133038.00,0419.74864,S,05539.72169,E,1,12,0.74,11.6,M,-47.6,M,,*4F
$GNGSA,A,3,32,18,10,28,26,16,27,31,08,02,,,1.38,0.74,1.16*1E
$GNGSA,A,3,85,72,86,65,87,66,,,,,,,1.38,0.74,1.16*19
$GPGSV,5,1,17,02,07,333,21,04,11,229,,08,26,297,23,10,13,028,25*7C
$GPGSV,5,2,17,16,24,211,12,18,26,119,07,23,01,067,,26,29,181,10*7C
$GPGSV,5,3,17,27,56,262,31,28,60,095,13,31,58,161,19,32,29,009,22*7B
$GPGSV,5,4,17,36,52,277,,40,84,353,36,41,58,082,,49,32,274,*79
$GPGSV,5,5,17,50,10,089,*4A
$GLGSV,3,1,09,65,27,281,09,66,07,236,11,72,23,342,18,74,14,104,07*66
$GLGSV,3,2,09,75,22,155,06,76,04,209,08,85,35,144,15,86,71,036,32*6C
$GLGSV,3,3,09,87,31,347,19*59
$GNGLL,0419.74864,S,05539.72169,E,133038.00,A,A*64
$GNRMC,133039.00,A,0419.74839,S,05539.72164,E,1.186,,200525,,,A*77
$GNVTG,,T,,M,1.186,N,2.196,K,A*3F
$GNGGA,133039.00,0419.74839,S,05539.72164,E,1,12,0.63,11.4,M,-47.6,M,,*4F
$GNGSA,A,3,32,18,10,28,26,16,27,31,08,02,,,1.24,0.63,1.07*15
$GNGSA,A,3,85,72,75,86,65,87,66,,,,,,1.24,0.63,1.07*10
$GPGSV,5,1,17,02,07,333,22,04,11,229,07,08,26,297,24,10,13,028,23*79
$GPGSV,5,2,17,16,24,211,12,18,26,119,12,23,01,067,,26,29,181,11*79
$GPGSV,5,3,17,27,56,262,31,28,60,095,15,31,58,161,19,32,29,009,21*7E
$GPGSV,5,4,17,36,52,277,,40,84,353,36,41,58,082,,49,32,274,*79
$GPGSV,5,5,17,50,10,089,*4A
$GLGSV,3,1,09,65,27,281,08,66,07,236,08,72,23,342,18,74,14,104,07*6F
$GLGSV,3,2,09,75,22,155,07,76,04,209,03,85,35,144,13,86,71,036,32*60
$GLGSV,3,3,09,87,31,347,17*57
$GNGLL,0419.74839,S,05539.72164,E,133039.00,A,A*60
$GNRMC,133040.00,A,0419.74838,S,05539.72159,E,0.129,,200525,,,A*72
$GNVTG,,T,,M,0.129,N,0.238,K,A*3E
$GNGGA,133040.00,0419.74838,S,05539.72159,E,1,12,0.63,11.7,M,-47.6,M,,*4D
$GNGSA,A,3,32,18,10,28,26,16,27,31,08,02,,,1.24,0.63,1.07*15
$GNGSA,A,3,85,72,75,86,65,87,66,,,,,,1.24,0.63,1.07*10
$GPGSV,5,1,17,02,07,333,25,04,11,229,07,08,26,297,24,10,13,028,23*7E
$GPGSV,5,2,17,16,24,211,12,18,26,119,11,23,01,067,,26,29,181,10*7B
$GPGSV,5,3,17,27,56,262,31,28,60,095,16,31,58,161,18,32,29,009,21*7C
$GPGSV,5,4,17,36,52,277,,40,84,353,36,41,58,082,,49,32,274,*79
$GPGSV,5,5,17,50,10,089,*4A
$GLGSV,3,1,09,65,27,281,12,66,07,236,08,72,23,342,17,74,14,104,06*6A
$GLGSV,3,2,09,75,22,155,09,76,04,209,12,85,35,144,14,86,71,036,31*6A
$GLGSV,3,3,09,87,31,347,16*56
$GNGLL,0419.74838,S,05539.72159,E,133040.00,A,A*61
$GNRMC,133041.00,A,0419.74851,S,05539.72159,E,0.332,,200525,,,A*74
$GNVTG,,T,,M,0.332,N,0.615,K,A*3D
$GNGGA,133041.00,0419.74851,S,05539.72159,E,1,12,0.74,11.5,M,-47.6,M,,*47
$GNGSA,A,3,32,18,10,28,26,16,27,31,08,02,,,1.37,0.74,1.16*11
$GNGSA,A,3,85,72,86,65,87,66,,,,,,,1.37,0.74,1.16*16
$GPGSV,5,1,17,02,07,333,25,04,11,229,10,08,26,297,24,10,13,028,23*78
$GPGSV,5,2,17,16,24,211,13,18,26,119,08,23,01,067,,26,29,181,09*7A
$GPGSV,5,3,17,27,56,262,31,28,60,095,18,31,58,161,18,32,29,009,20*73
$GPGSV,5,4,17,36,52,277,,40,84,353,36,41,58,082,,49,32,274,*79
$GPGSV,5,5,17,50,10,089,*4A
$GLGSV,3,1,09,65,27,281,12,66,07,236,07,72,23,342,18,74,14,104,10*6D
$GLGSV,3,2,09,75,22,155,06,76,04,209,07,85,35,144,14,86,71,036,32*62
$GLGSV,3,3,09,87,31,347,15*55
$GNGLL,0419.74851,S,05539.72159,E,133041.00,A,A*6F
$GNRMC,133042.00,A,0419.74870,S,05539.72160,E,0.209,,200525,,,A*77
$GNVTG,,T,,M,0.209,N,0.387,K,A*3A
$GNGGA,133042.00,0419.74870,S,05539.72160,E,1,12,0.63,11.3,M,-47.6,M,,*4D
$GNGSA,A,3,32,18,10,28,26,16,27,31,08,02,,,1.24,0.63,1.07*15
$GNGSA,A,3,85,72,75,86,65,87,66,,,,,,1.24,0.63,1.07*10
$GPGSV,5,1,17,02,07,333,25,04,11,229,11,08,26,297,25,10,13,028,22*79
$GPGSV,5,2,17,16,24,211,12,18,26,119,11,23,01,067,,26,29,181,09*73
$GPGSV,5,3,17,27,56,262,30,28,60,095,17,31,58,161,18,32,29,009,21*7C
$GPGSV,5,4,17,36,52,277,,40,84,353,36,41,58,082,,49,32,274,*79
$GPGSV,5,5,17,50,10,089,*4A
$GLGSV,3,1,09,65,27,281,08,66,07,236,12,72,23,342,17,74,14,104,10*6D
$GLGSV,3,2,09,75,22,155,08,76,04,209,05,85,35,144,17,86,71,036,32*6D
$GLGSV,3,3,09,87,31,347,13*53
$GNGLL,0419.74870,S,05539.72160,E,133042.00,A,A*65
$GNRMC,133043.00,A,0419.74851,S,05539.72148,E,0.349,,200525,,,A*7A
$GNVTG,,T,,M,0.349,N,0.647,K,A*36
$GNGGA,133043.00,0419.74851,S,05539.72148,E,1,12,0.66,11.8,M,-47.6,M,,*4B
$GNGSA,A,3,32,18,10,28,26,16,27,31,08,02,,,1.28,0.66,1.10*1A
$GNGSA,A,3,85,72,86,65,87,66,,,,,,,1.28,0.66,1.10*1D
$GPGSV,5,1,17,02,07,333,25,04,11,229,13,08,26,297,25,10,13,028,20*79
$GPGSV,5,2,17,16,24,211,10,18,26,119,10,23,01,067,,26,29,181,10*78
$GPGSV,5,3,17,27,56,262,31,28,60,095,18,31,58,161,18,32,29,009,20*73
$GPGSV,5,4,17,36,52,277,,40,84,353,36,41,58,082,,49,32,274,*79
$GPGSV,5,5,17,50,10,089,*4A
$GLGSV,3,1,09,65,27,281,08,66,07,236,08,72,23,342,17,74,14,104,09*6E
$GLGSV,3,2,09,75,22,155,06,76,04,209,07,85,35,144,14,86,71,036,32*62
$GLGSV,3,3,09,87,31,347,12*52
$GNGLL,0419.74851,S,05539.72148,E,133043.00,A,A*6D
$GNRMC,133044.00,A,0419.74854,S,05539.72149,E,0.363,,200525,,,A*71
$GNVTG,,T,,M,0.363,N,0.672,K,A*38
$GNGGA,133044.00,0419.74854,S,05539.72149,E,1,12,0.80,11.9,M,-47.6,M,,*41
$GNGSA,A,3,32,18,10,28,26,16,27,31,08,04,02,,1.39,0.80,1.14*12
$GNGSA,A,3,72,75,86,65,87,66,,,,,,,1.39,0.80,1.14*1E
$GPGSV,5,1,17,02,07,333,26,04,11,229,12,08,26,297,25,10,13,028,20*7B
$GPGSV,5,2,17,16,24,211,11,18,26,119,11,23,01,067,,26,29,181,10*78
$GPGSV,5,3,17,27,56,262,31,28,60,095,17,31,58,161,19,32,29,009,21*7C
$GPGSV,5,4,17,36,52,277,,40,84,353,35,41,58,082,,49,32,274,*7A
$GPGSV,5,5,17,50,10,089,*4A
$GLGSV,3,1,09,65,27,281,13,66,07,236,08,72,23,342,18,74,14,104,07*65
$GLGSV,3,2,09,75,22,155,10,76,04,209,11,85,35,144,07,86,71,036,32*60
$GLGSV,3,3,09,87,31,347,12*52
$GNGLL,0419.74854,S,05539.72149,E,133044.00,A,A*6E
$GNRMC,133045.00,A,0419.74883,S,05539.72160,E,0.545,,200525,,,A*73
$GNVTG,,T,,M,0.545,N,1.009,K,A*31
$GNGGA,133045.00,0419.74883,S,05539.72160,E,1,12,0.63,11.7,M,-47.6,M,,*42
$GNGSA,A,3,32,18,10,28,26,16,27,31,08,04,02,,1.21,0.63,1.04*17
$GNGSA,A,3,72,75,86,65,87,66,,,,,,,1.21,0.63,1.04*1B
$GPGSV,5,1,17,02,07,333,26,04,11,229,12,08,26,297,25,10,13,028,21*7A
$GPGSV,5,2,17,16,24,211,12,18,26,119,11,23,01,067,,26,29,181,13*78
$GPGSV,5,3,17,27,56,262,31,28,60,095,17,31,58,161,19,32,29,009,20*7D
$GPGSV,5,4,17,36,52,277,,40,84,353,36,41,58,082,,49,32,274,*79
$GPGSV,5,5,17,50,10,089,*4A
$GLGSV,3,1,09,65,27,281,10,66,07,236,11,72,23,342,19,74,14,104,10*69
$GLGSV,3,2,09,75,22,155,10,76,04,209,11,85,35,144,07,86,71,036,32*60
$GLGSV,3,3,09,87,31,347,12*52
$GNGLL,0419.74883,S,05539.72160,E,133045.00,A,A*6E
$GNRMC,133046.00,A,0419.74913,S,05539.72176,E,0.392,,200525,,,A*73
$GNVTG,,T,,M,0.392,N,0.727,K,A*37
$GNGGA,133046.00,0419.74913,S,05539.72176,E,1,12,0.63,11.4,M,-47.6,M,,*4D
$GNGSA,A,3,32,18,10,28,26,27,31,08,04,02,,,1.21,0.63,1.04*10
$GNGSA,A,3,85,72,75,86,65,87,66,,,,,,1.21,0.63,1.04*16
$GPGSV,5,1,17,02,07,333,25,04,11,229,10,08,26,297,24,10,13,028,23*78
$GPGSV,5,2,17,16,24,211,10,18,26,119,11,23,01,067,,26,29,181,11*78
$GPGSV,5,3,17,27,56,262,31,28,60,095,17,31,58,161,19,32,29,009,19*77
$GPGSV,5,4,17,36,52,277,,40,84,353,36,41,58,082,,49,32,274,*79
$GPGSV,5,5,17,50,10,089,*4A
$GLGSV,3,1,09,65,27,281,09,66,07,236,09,72,23,342,20,74,14,104,09*6A
$GLGSV,3,2,09,75,22,155,08,76,04,209,09,85,35,144,11,86,71,036,32*67
$GLGSV,3,3,09,87,31,347,16*56
$GNGLL,0419.74913,S,05539.72176,E,133046.00,A,A*62
$GNRMC,133047.00,A,0419.74854,S,05539.72145,E,1.070,,200525,,,A*7E
$GNVTG,,T,,M,1.070,N,1.981,K,A*3A
$GNGGA,133047.00,0419.74854,S,05539.72145,E,1,12,0.64,12.3,M,-47.6,M,,*4D
$GNGSA,A,3,32,18,10,28,26,16,27,31,08,04,02,,1.24,0.64,1.06*17
$GNGSA,A,3,85,72,86,65,87,66,,,,,,,1.24,0.64,1.06*14
$GPGSV,5,1,17,02,07,333,22,04,11,229,12,08,26,297,23,10,13,028,22*7B
$GPGSV,5,2,17,16,24,211,11,18,26,119,11,23,01,067,,26,29,181,10*78
$GPGSV,5,3,17,27,56,262,31,28,60,095,16,31,58,161,19,32,29,009,18*77
$GPGSV,5,4,17,36,52,277,,40,84,353,35,41,58,082,,49,32,274,*7A
$GPGSV,5,5,17,50,10,089,*4A
$GLGSV,3,1,09,65,27,281,13,66,07,236,11,72,23,342,20,74,14,104,09*68
$GLGSV,3,2,09,75,22,155,07,76,04,209,08,85,35,144,13,86,71,036,32*6B
$GLGSV,3,3,09,87,31,347,17*57
$GNGLL,0419.74854,S,05539.72145,E,133047.00,A,A*61
$GNRMC,133048.00,A,0419.74820,S,05539.72107,E,0.560,,200525,,,A*71
$GNVTG,,T,,M,0.560,N,1.038,K,A*34
$GNGGA,133048.00,0419.74820,S,05539.72107,E,1,12,0.64,13.4,M,-47.6,M,,*41
$GNGSA,A,3,32,18,10,28,26,16,27,31,08,04,02,,1.24,0.64,1.06*17
$GNGSA,A,3,85,72,86,65,87,66,,,,,,,1.24,0.64,1.06*14
$GPGSV,5,1,17,02,07,333,20,04,11,229,12,08,26,297,23,10,13,028,22*79
$GPGSV,5,2,17,16,24,211,12,18,26,119,09,23,01,067,,26,29,181,13*71
$GPGSV,5,3,17,27,56,262,31,28,60,095,14,31,58,161,19,32,29,009,17*7A
$GPGSV,5,4,17,36,52,277,,40,84,353,36,41,58,082,,49,32,274,*79
$GPGSV,5,5,17,50,10,089,*4A
$GLGSV,3,1,09,65,27,281,12,66,07,236,10,72,23,342,20,74,14,104,08*69
$GLGSV,3,2,09,75,22,155,13,76,04,209,12,85,35,144,13,86,71,036,33*64
$GLGSV,3,3,09,87,31,347,17*57
$GNGLL,0419.74820,S,05539.72107,E,133048.00,A,A*6B
$GNRMC,133049.00,A,0419.74801,S,05539.72093,E,0.480,,200525,,,A*70
$GNVTG,,T,,M,0.480,N,0.889,K,A*38
$GNGGA,133049.00,0419.74801,S,05539.72093,E,1,12,0.64,13.9,M,-47.6,M,,*42
$GNGSA,A,3,32,18,10,28,26,16,27,31,08,04,02,,1.24,0.64,1.06*17
$GNGSA,A,3,85,72,86,65,87,66,,,,,,,1.24,0.64,1.06*14
$GPGSV,5,1,17,02,07,333,20,04,11,229,13,08,26,297,22,10,13,028,29*72
$GPGSV,5,2,17,16,24,211,11,18,26,119,12,23,01,067,,26,29,181,10*7B
$GPGSV,5,3,17,27,56,262,31,28,60,095,14,31,58,161,19,32,29,009,17*7A
$GPGSV,5,4,17,36,52,277,,40,84,353,38,41,58,082,,49,32,274,*77
$GPGSV,5,5,17,50,10,089,*4A
$GLGSV,3,1,09,65,27,281,14,66,07,236,10,72,23,342,19,74,14,104,04*69
$GLGSV,3,2,09,75,22,155,10,76,04,209,09,85,35,144,10,86,71,036,33*6E
$GLGSV,3,3,09,87,31,347,18*58
$GNGLL,0419.74801,S,05539.72093,E,133049.00,A,A*65
$GNRMC,133050.00,A,0419.74765,S,05539.72073,E,0.905,,200525,,,A*7B
$GNVTG,,T,,M,0.905,N,1.676,K,A*37
$GNGGA,133050.00,0419.74765,S,05539.72073,E,1,12,0.65,14.7,M,-47.6,M,,*41
$GNGSA,A,3,32,18,10,28,26,27,31,08,04,02,,,1.22,0.65,1.04*15
$GNGSA,A,3,72,75,86,65,87,66,,,,,,,1.22,0.65,1.04*1E
$GPGSV,5,1,17,02,07,333,23,04,11,229,12,08,26,297,22,10,13,028,28*71
$GPGSV,5,2,17,16,24,211,09,18,26,119,11,23,01,067,,26,29,181,10*71
$GPGSV,5,3,17,27,56,262,32,28,60,095,13,31,58,161,20,32,29,009,19*7A
$GPGSV,5,4,17,36,52,277,,40,84,353,38,41,58,082,,49,32,274,*77
$GPGSV,5,5,17,50,10,089,*4A
$GLGSV,3,1,09,65,27,281,08,66,07,236,11,72,23,342,19,74,14,104,07*66
$GLGSV,3,2,09,75,22,155,10,76,04,209,07,85,35,144,08,86,71,036,33*69
$GLGSV,3,3,09,87,31,347,19*59
$GNGLL,0419.74765,S,05539.72073,E,133050.00,A,A*6E
$GNRMC,133051.00,A,0419.74748,S,05539.72064,E,0.565,,200525,,,A*79
$GNVTG,,T,,M,0.565,N,1.046,K,A*38
$GNGGA,133051.00,0419.74748,S,05539.72064,E,1,12,0.63,15.2,M,-47.6,M,,*4B
$GNGSA,A,3,32,18,10,28,26,16,27,31,08,04,02,,1.21,0.63,1.04*17
$GNGSA,A,3,72,75,86,65,87,66,,,,,,,1.21,0.63,1.04*1B
$GPGSV,5,1,17,02,07,333,24,04,11,229,12,08,26,297,22,10,13,028,28*76
$GPGSV,5,2,17,16,24,211,11,18,26,119,11,23,01,067,,26,29,181,11*79
$GPGSV,5,3,17,27,56,262,32,28,60,095,13,31,58,161,20,32,29,009,20*70
$GPGSV,5,4,17,36,52,277,,40,84,353,37,41,58,082,,49,32,274,*78
$GPGSV,5,5,17,50,10,089,*4A
$GLGSV,3,1,09,65,27,281,12,66,07,236,08,72,23,342,19,74,14,104,09*6B
$GLGSV,3,2,09,75,22,155,11,76,04,209,11,85,35,144,06,86,71,036,33*61
$GLGSV,3,3,09,87,31,347,19*59
$GNGLL,0419.74748,S,05539.72064,E,133051.00,A,A*66
$GNRMC,133052.00,A,0419.74721,S,05539.72045,E,0.992,,200525,,,A*72
$GNVTG,,T,,M,0.992,N,1.836,K,A*33
$GNGGA,133052.00,0419.74721,S,05539.72045,E,1,12,0.64,15.6,M,-47.6,M,,*47
$GNGSA,A,3,32,18,10,28,26,16,27,31,08,04,02,,1.24,0.64,1.06*17
$GNGSA,A,3,85,72,86,65,87,66,,,,,,,1.24,0.64,1.06*14
$GPGSV,5,1,17,02,07,333,24,04,11,229,11,08,26,297,21,10,13,028,28*76
$GPGSV,5,2,17,16,24,211,10,18,26,119,09,23,01,067,,26,29,181,11*71
$GPGSV,5,3,17,27,56,262,32,28,60,095,13,31,58,161,20,32,29,009,20*70
$GPGSV,5,4,17,36,52,277,,40,84,353,37,41,58,082,,49,32,274,*78
$GPGSV,5,5,17,50,10,089,*4A
$GLGSV,3,1,09,65,27,281,09,66,07,236,12,72,23,342,20,74,14,104,11*69
$GLGSV,3,2,09,75,22,155,06,76,04,209,09,85,35,144,10,86,71,036,32*68
$GLGSV,3,3,09,87,31,347,19*59
$GNGLL,0419.74721,S,05539.72045,E,133052.00,A,A*69
$GNRMC,133053.00,A,0419.74693,S,05539.72022,E,0.861,,200525,,,A*77
$GNVTG,,T,,M,0.861,N,1.595,K,A*3A
$GNGGA,133053.00,0419.74693,S,05539.72022,E,1,12,0.80,16.1,M,-47.6,M,,*41
$GNGSA,A,3,32,18,10,28,26,16,27,31,08,04,02,,1.39,0.80,1.14*12
$GNGSA,A,3,85,72,75,86,65,87,66,,,,,,1.39,0.80,1.14*13
$GPGSV,5,1,17,02,07,333,23,04,11,229,13,08,26,297,22,10,13,028,27*7F
$GPGSV,5,2,17,16,24,211,10,18,26,119,10,23,01,067,,26,29,181,10*78
$GPGSV,5,3,17,27,56,262,32,28,60,095,13,31,58,161,19,32,29,009,20*7A
$GPGSV,5,4,17,36,52,277,,40,84,353,38,41,58,082,,49,32,274,*77
$GPGSV,5,5,17,50,10,089,*4A
$GLGSV,3,1,09,65,27,281,12,66,07,236,12,72,23,342,20,74,14,104,07*64
$GLGSV,3,2,09,75,22,155,09,76,04,209,10,85,35,144,11,86,71,036,33*6F
$GLGSV,3,3,09,87,31,347,18*58
$GNGLL,0419.74693,S,05539.72022,E,133053.00,A,A*61
$GNRMC,133054.00,A,0419.74680,S,05539.72019,E,0.393,,200525,,,A*7C
$GNVTG,,T,,M,0.393,N,0.728,K,A*39
$GNGGA,133054.00,0419.74680,S,05539.72019,E,1,12,0.62,16.4,M,-47.6,M,,*45
$GNGSA,A,3,32,18,10,26,16,27,31,08,04,02,,,1.25,0.62,1.09*15
$GNGSA,A,3,85,72,75,86,65,87,66,,,,,,1.25,0.62,1.09*1E
$GPGSV,5,1,17,02,07,333,25,04,11,229,12,08,26,297,22,10,13,028,28*77
$GPGSV,5,2,17,16,24,211,11,18,26,119,09,23,01,067,,26,29,181,11*70
$GPGSV,5,3,17,27,56,262,31,28,60,095,,31,58,161,17,32,29,009,19*7F
$GPGSV,5,4,17,36,52,277,,40,84,353,38,41,58,082,,49,32,274,*77
$GPGSV,5,5,17,50,10,089,*4A
$GLGSV,3,1,09,65,27,281,14,66,07,236,08,72,23,342,19,74,14,104,08*6C
$GLGSV,3,2,09,75,22,155,08,76,04,209,08,85,35,144,08,86,71,036,33*6F
$GLGSV,3,3,09,87,31,347,17*57
$GNGLL,0419.74680,S,05539.72019,E,133054.00,A,A*6C
$GNRMC,133055.00,A,0419.74673,S,05539.72007,E,0.671,,200525,,,A*77
$GNVTG,,T,,M,0.671,N,1.242,K,A*38
$GNGGA,133055.00,0419.74673,S,05539.72007,E,1,12,0.63,16.6,M,-47.6,M,,*44
$GNGSA,A,3,32,18,10,26,27,31,08,04,02,,,,1.26,0.63,1.09*10
$GNGSA,A,3,85,72,75,86,65,87,66,,,,,,1.26,0.63,1.09*1C
$GPGSV,5,1,17,02,07,333,26,04,11,229,11,08,26,297,22,10,13,028,28*77
$GPGSV,5,2,17,16,24,211,09,18,26,119,16,23,01,067,,26,29,181,16*70
$GPGSV,5,3,17,27,56,262,32,28,60,095,,31,58,161,17,32,29,009,19*7C
$GPGSV,5,4,17,36,52,277,,40,84,353,37,41,58,082,,49,32,274,*78
$GPGSV,5,5,17,50,10,089,*4A
$GLGSV,3,1,09,65,27,281,09,66,07,236,11,72,23,342,18,74,14,104,10*60
$GLGSV,3,2,09,75,22,155,09,76,04,209,09,85,35,144,09,86,71,036,33*6E
$GLGSV,3,3,09,87,31,347,16*56
$GNGLL,0419.74673,S,05539.72007,E,133055.00,A,A*6E
$GNRMC,133056.00,A,0419.74644,S,05539.71994,E,0.630,,200525,,,A*75
$GNVTG,,T,,M,0.630,N,1.167,K,A*39
$GNGGA,133056.00,0419.74644,S,05539.71994,E,1,12,0.70,17.3,M,-47.6,M,,*45
$GNGSA,A,3,32,18,10,26,27,31,08,04,02,,,,1.32,0.70,1.12*1D
$GNGSA,A,3,85,72,86,65,87,66,,,,,,,1.32,0.70,1.12*13
$GPGSV,5,1,17,02,07,333,26,04,11,229,13,08,26,297,22,10,13,028,28*75
$GPGSV,5,2,17,16,24,211,08,18,26,119,11,23,01,067,,26,29,181,09*78
$GPGSV,5,3,17,27,56,262,31,28,60,095,15,31,58,161,19,32,29,009,21*7E
$GPGSV,5,4,17,36,52,277,,40,84,353,37,41,58,082,,49,32,274,*78
$GPGSV,5,5,17,50,10,089,*4A
$GLGSV,3,1,09,65,27,281,09,66,07,236,09,72,23,342,17,74,14,104,09*6E
$GLGSV,3,2,09,75,22,155,09,76,04,209,13,85,35,144,08,86,71,036,32*65
$GLGSV,3,3,09,87,31,347,12*52
$GNGLL,0419.74644,S,05539.71994,E,133056.00,A,A*69
$GNRMC,133057.00,A,0419.74662,S,05539.71996,E,0.262,,200525,,,A*71
$GNVTG,,T,,M,0.262,N,0.484,K,A*33
$GNGGA,133057.00,0419.74662,S,05539.71996,E,1,12,0.68,17.2,M,-47.6,M,,*4A
$GNGSA,A,3,32,18,10,26,27,31,08,04,02,,,,1.31,0.68,1.12*17
$GNGSA,A,3,85,72,86,65,66,,,,,,,,1.31,0.68,1.12*16
$GPGSV,5,1,17,02,07,333,27,04,11,229,11,08,26,297,22,10,13,028,28*76
$GPGSV,5,2,17,16,24,211,08,18,26,119,14,23,01,067,,26,29,181,13*76
$GPGSV,5,3,17,27,56,262,31,28,60,095,14,31,58,161,19,32,29,009,21*7F
$GPGSV,5,4,17,36,52,277,,40,84,353,38,41,58,082,,49,32,274,*77
$GPGSV,5,5,17,50,10,089,*4A
$GLGSV,3,1,09,65,27,281,11,66,07,236,11,72,23,342,15,74,14,104,06*63
$GLGSV,3,2,09,75,22,155,10,76,04,209,05,85,35,144,10,86,71,036,33*62
$GLGSV,3,3,09,87,31,347,08*59
$GNGLL,0419.74662,S,05539.71996,E,133057.00,A,A*6E
$GNRMC,133058.00,A,0419.74683,S,05539.71998,E,0.083,,200525,,,A*72
$GNVTG,,T,,M,0.083,N,0.155,K,A*37
$GNGGA,133058.00,0419.74683,S,05539.71998,E,1,12,0.65,17.0,M,-47.6,M,,*4B
$GNGSA,A,3,32,18,10,26,16,27,31,08,04,02,,,1.29,0.65,1.11*17
$GNGSA,A,3,85,72,86,65,87,66,,,,,,,1.29,0.65,1.11*1E
$GPGSV,5,1,17,02,07,333,27,04,11,229,09,08,26,297,23,10,13,028,28*7E
$GPGSV,5,2,17,16,24,211,08,18,26,119,11,23,01,067,,26,29,181,15*75
$GPGSV,5,3,17,27,56,262,31,28,60,095,13,31,58,161,18,32,29,009,17*7C
$GPGSV,5,4,17,36,52,277,,40,84,353,38,41,58,082,,49,32,274,*77
$GPGSV,5,5,17,50,10,089,*4A
$GLGSV,3,1,09,65,27,281,10,66,07,236,07,72,23,342,15,74,14,104,10*62
$GLGSV,3,2,09,75,22,155,11,76,04,209,09,85,35,144,10,86,71,036,33*6F
$GLGSV,3,3,09,87,31,347,16*56
$GNGLL,0419.74683,S,05539.71998,E,133058.00,A,A*60
$GNRMC,133059.00,A,0419.74708,S,05539.72002,E,0.126,,200525,,,A*76
$GNVTG,,T,,M,0.126,N,0.234,K,A*3D
$GNGGA,133059.00,0419.74708,S,05539.72002,E,1,12,0.86,16.5,M,-47.6,M,,*48
$GNGSA,A,3,32,18,10,26,27,31,08,04,02,,,,1.45,0.86,1.17*11
$GNGSA,A,3,85,72,75,86,65,87,66,,,,,,1.45,0.86,1.17*1D
$GPGSV,5,1,17,02,07,333,28,04,11,229,10,08,26,297,22,10,13,028,27*77
$GPGSV,5,2,17,16,24,211,07,18,26,119,11,23,01,067,,26,29,181,10*7F
$GPGSV,5,3,17,27,56,262,31,28,60,095,13,31,58,161,18,32,29,009,14*7F
$GPGSV,5,4,17,36,52,277,,40,84,353,38,41,58,082,,49,32,274,*77
$GPGSV,5,5,17,50,10,089,*4A
$GLGSV,3,1,09,65,26,282,15,66,07,236,10,72,23,342,14,74,14,104,07*64
$GLGSV,3,2,09,75,22,155,09,76,04,209,05,85,35,144,09,86,71,036,33*62
$GLGSV,3,3,09,87,31,347,14*54
$GNGLL,0419.74708,S,05539.72002,E,133059.00,A,A*6A
$GNRMC,133100.00,A,0419.74710,S,05539.71998,E,0.151,,200525,,,A*7B
$GNVTG,,T,,M,0.151,N,0.280,K,A*32
$GNGGA,133100.00,0419.74710,S,05539.71998,E,1,12,0.64,16.6,M,-47.6,M,,*4A
$GNGSA,A,3,32,18,10,26,16,27,31,08,04,02,,,1.32,0.64,1.15*18
$GNGSA,A,3,85,72,75,86,65,87,,,,,,,1.32,0.64,1.15*13
$GPGSV,5,1,17,02,07,333,27,04,11,229,16,08,26,297,21,10,13,028,28*72
$GPGSV,5,2,17,16,24,211,13,18,26,119,12,23,01,067,,26,29,181,16*7F
$GPGSV,5,3,17,27,56,262,31,28,60,095,13,31,58,161,19,32,29,009,17*7D
$GPGSV,5,4,17,36,52,277,,40,84,353,38,41,58,082,,49,32,274,*77
$GPGSV,5,5,17,50,10,089,*4A
$GLGSV,3,1,09,65,26,282,15,66,07,237,06,72,23,342,15,74,14,104,10*65
$GLGSV,3,2,09,75,22,155,10,76,04,209,10,85,35,144,09,86,71,036,33*6E
$GLGSV,3,3,09,87,31,347,12*52
$GNGLL,0419.74710,S,05539.71998,E,133100.00,A,A*67
$GNRMC,133101.00,A,0419.74726,S,05539.72002,E,0.014,,200525,,,A*76
$GNVTG,,T,,M,0.014,N,0.026,K,A*3C
$GNGGA,133101.00,0419.74726,S,05539.72002,E,1,12,0.63,16.6,M,-47.6,M,,*40
$GNGSA,A,3,32,18,10,28,26,27,31,08,04,02,,,1.21,0.63,1.04*10
$GNGSA,A,3,85,72,75,86,65,87,66,,,,,,1.21,0.63,1.04*16
$GPGSV,5,1,17,02,07,333,28,04,11,229,14,08,26,297,20,10,13,028,28*7E
$GPGSV,5,2,17,16,24,211,09,18,26,119,09,23,01,067,,26,29,181,12*7A
$GPGSV,5,3,17,27,56,262,31,28,60,095,13,31,58,161,19,32,29,009,20*79
$GPGSV,5,4,17,36,52,277,,40,84,353,38,41,58,082,,49,32,274,*77
$GPGSV,5,5,17,50,10,089,*4A
$GLGSV,3,1,09,65,26,282,12,66,07,237,10,72,23,342,16,74,14,104,09*6E
$GLGSV,3,2,09,75,22,155,09,76,04,209,08,85,35,144,09,86,71,036,33*6F
$GLGSV,3,3,09,87,31,347,08*59
$GNGLL,0419.74726,S,05539.72002,E,133101.00,A,A*6A
$GNRMC,133102.00,A,0419.74743,S,05539.72003,E,0.041,,200525,,,A*77
$GNVTG,,T,,M,0.041,N,0.075,K,A*3A
$GNGGA,133102.00,0419.74743,S,05539.72003,E,1,12,0.65,16.5,M,-47.6,M,,*44
$GNGSA,A,3,32,18,10,28,26,16,27,31,08,04,02,,1.22,0.65,1.04*12
$GNGSA,A,3,85,72,75,86,65,87,66,,,,,,1.22,0.65,1.04*13
$GPGSV,5,1,17,02,07,333,29,04,11,229,12,08,26,297,19,10,13,028,28*73
$GPGSV,5,2,17,16,24,211,10,18,26,119,08,23,01,067,,26,29,181,12*73
$GPGSV,5,3,17,27,56,262,32,28,60,095,14,31,58,161,19,32,29,009,20*7D
$GPGSV,5,4,17,36,52,277,,40,84,353,38,41,58,082,,49,32,274,*77
$GPGSV,5,5,17,50,10,089,*4A
$GLGSV,3,1,09,65,26,282,11,66,07,237,09,72,23,342,16,74,14,104,05*69
$GLGSV,3,2,09,75,22,155,09,76,04,209,08,85,35,144,10,86,71,036,33*67
$GLGSV,3,3,09,87,31,347,09*58
$GNGLL,0419.74743,S,05539.72003,E,133102.00,A,A*6B
$GNRMC,133103.00,A,0419.74767,S,05539.72009,E,0.303,,200525,,,A*7F
$GNVTG,,T,,M,0.303,N,0.560,K,A*3E
$GNGGA,133103.00,0419.74767,S,05539.72009,E,1,12,0.64,16.2,M,-47.6,M,,*4F
$GNGSA,A,3,32,18,10,28,26,16,27,31,08,04,02,,1.25,0.64,1.07*17
$GNGSA,A,3,85,72,75,86,65,66,,,,,,,1.25,0.64,1.07*19
$GPGSV,5,1,17,02,07,333,30,04,11,229,13,08,26,297,19,10,13,028,28*7A
$GPGSV,5,2,17,16,24,211,09,18,26,119,09,23,01,067,,26,29,181,11*79
$GPGSV,5,3,17,27,56,262,32,28,60,095,12,31,58,161,18,32,29,009,20*7A
$GPGSV,5,4,17,36,52,277,,40,84,353,38,41,58,082,,49,32,274,*77
$GPGSV,5,5,17,50,10,089,*4A
$GLGSV,3,1,09,65,26,282,11,66,07,237,13,72,23,342,16,74,14,104,11*67
$GLGSV,3,2,09,75,22,155,12,76,04,209,08,85,35,144,11,86,71,036,33*6C
$GLGSV,3,3,09,87,31,347,05*54
$GNGLL,0419.74767,S,05539.72009,E,133103.00,A,A*66
$GNRMC,133104.00,A,0419.74787,S,05539.72017,E,0.306,,200525,,,A*7C
$GNVTG,,T,,M,0.306,N,0.567,K,A*3C
$GNGGA,133104.00,0419.74787,S,05539.72017,E,1,12,0.63,16.1,M,-47.6,M,,*4D
$GNGSA,A,3,32,18,10,28,26,16,27,31,08,04,02,,1.24,0.63,1.07*11
$GNGSA,A,3,85,72,75,86,65,87,66,,,,,,1.24,0.63,1.07*10
$GPGSV,5,1,17,02,07,333,29,04,11,229,15,08,26,297,19,10,13,028,28*74
$GPGSV,5,2,17,16,24,211,09,18,26,119,08,23,01,067,,26,29,181,11*78
$GPGSV,5,3,17,27,56,262,32,28,60,095,12,31,58,161,18,32,29,009,21*7B
$GPGSV,5,4,17,36,52,277,,40,84,353,38,41,58,082,,49,32,274,*77
$GPGSV,5,5,17,50,10,089,*4A
$GLGSV,3,1,09,65,26,282,09,66,07,237,09,72,23,342,16,74,14,104,08*6D
$GLGSV,3,2,09,75,22,155,11,76,04,209,10,85,35,144,10,86,71,036,33*67
$GLGSV,3,3,09,87,31,347,10*50
$GNGLL,0419.74787,S,05539.72017,E,133104.00,A,A*60
$GNRMC,133105.00,A,0419.74789,S,05539.72019,E,0.231,,200525,,,A*78
$GNVTG,,T,,M,0.231,N,0.428,K,A*33
$GNGGA,133105.00,0419.74789,S,05539.72019,E,1,12,0.85,16.2,M,-47.6,M,,*47
$GNGSA,A,3,32,18,10,28,26,16,27,31,08,04,02,,1.48,0.85,1.22*14
$GNGSA,A,3,85,72,75,86,65,87,66,,,,,,1.48,0.85,1.22*15
$GPGSV,5,1,17,02,07,333,29,04,11,229,15,08,26,297,18,10,13,028,28*75
$GPGSV,5,2,17,16,24,211,12,18,26,119,12,23,01,067,,26,29,181,14*7C
$GPGSV,5,3,17,27,56,262,31,28,60,095,14,31,58,161,18,32,29,009,21*7E
$GPGSV,5,4,17,36,52,277,,40,84,353,38,41,58,082,,49,32,274,*77
$GPGSV,5,5,17,50,10,089,*4A
$GLGSV,3,1,09,65,26,282,14,66,07,237,11,72,23,342,16,74,14,104,07*67
$GLGSV,3,2,09,75,22,155,11,76,04,209,13,85,35,144,09,86,71,036,33*6C
$GLGSV,3,3,09,87,31,347,08*59
$GNGLL,0419.74789,S,05539.72019,E,133105.00,A,A*61
$GNRMC,133106.00,A,0419.74803,S,05539.72022,E,0.169,,200525,,,A*70
$GNVTG,,T,,M,0.169,N,0.314,K,A*35
$GNGGA,133106.00,0419.74803,S,05539.72022,E,1,12,0.63,16.2,M,-47.6,M,,*49
$GNGSA,A,3,32,18,10,28,26,16,27,31,08,04,02,,1.24,0.63,1.07*11
$GNGSA,A,3,85,72,75,86,65,87,66,,,,,,1.24,0.63,1.07*10
$GPGSV,5,1,17,02,07,333,28,04,11,229,11,08,26,297,17,10,13,028,28*7F
$GPGSV,5,2,17,16,24,211,08,18,26,119,15,23,01,067,,26,29,181,12*76
$GPGSV,5,3,17,27,56,262,32,28,60,095,15,31,58,161,18,32,29,009,21*7C
$GPGSV,5,4,17,36,52,277,,40,84,353,38,41,58,082,,49,32,274,*77
$GPGSV,5,5,17,50,10,089,*4A
$GLGSV,3,1,09,65,26,282,09,66,07,237,09,72,22,343,17,74,14,104,07*63
$GLGSV,3,2,09,75,22,155,09,76,04,209,12,85,35,144,08,86,71,036,33*65
$GLGSV,3,3,09,87,31,347,09*58
$GNGLL,0419.74803,S,05539.72022,E,133106.00,A,A*67
$GNRMC,133107.00,A,0419.74802,S,05539.72019,E,0.039,,200525,,,A*7C
$GNVTG,,T,,M,0.039,N,0.073,K,A*33
$GNGGA,133107.00,0419.74802,S,05539.72019,E,1,12,0.63,16.3,M,-47.6,M,,*40
$GNGSA,A,3,32,18,10,28,26,16,27,31,08,04,02,,1.24,0.63,1.07*11
$GNGSA,A,3,85,72,75,86,65,87,66,,,,,,1.24,0.63,1.07*10
$GPGSV,5,1,17,02,07,333,27,04,11,229,12,08,26,297,17,10,13,028,28*73
$GPGSV,5,2,17,16,24,211,11,18,26,119,10,23,01,067,,26,29,181,14*7D
$GPGSV,5,3,17,27,56,262,31,28,60,095,14,31,58,161,17,32,29,009,20*70
$GPGSV,5,4,17,36,52,277,,40,84,353,38,41,58,082,,49,32,274,*77
$GPGSV,5,5,17,50,10,089,*4A
$GLGSV,3,1,09,65,26,282,10,66,07,237,08,72,22,343,16,74,14,104,09*65
$GLGSV,3,2,09,75,22,155,08,76,04,209,10,85,35,144,09,86,72,037,33*65
$GLGSV,3,3,09,87,31,347,11*51
$GNGLL,0419.74802,S,05539.72019,E,133107.00,A,A*6F
$GNRMC,133108.00,A,0419.74800,S,05539.72016,E,0.057,,200525,,,A*76
$GNVTG,,T,,M,0.057,N,0.106,K,A*38
$GNGGA,133108.00,0419.74800,S,05539.72016,E,1,12,0.85,16.4,M,-47.6,M,,*4D
$GNGSA,A,3,32,18,10,28,26,16,27,31,08,04,02,,1.48,0.85,1.22*14
$GNGSA,A,3,85,72,75,86,65,87,66,,,,,,1.48,0.85,1.22*15
$GPGSV,5,1,17,02,07,333,28,04,11,229,12,08,26,297,17,10,13,028,28*7C
$GPGSV,5,2,17,16,24,211,10,18,26,119,10,23,01,067,,26,29,181,10*78
$GPGSV,5,3,17,27,56,262,32,28,60,095,11,31,58,161,18,32,29,009,19*73
$GPGSV,5,4,17,36,52,277,,40,84,353,38,41,58,082,,49,32,274,*77
$GPGSV,5,5,17,50,10,089,*4A
$GLGSV,3,1,09,65,26,282,11,66,07,237,12,72,22,343,17,74,14,103,10*61
$GLGSV,3,2,09,75,22,155,12,76,04,209,09,85,35,144,10,86,72,037,33*6E
$GLGSV,3,3,09,87,31,347,11*51
$GNGLL,0419.74800,S,05539.72016,E,133108.00,A,A*6D
$GNRMC,133109.00,A,0419.74811,S,05539.72018,E,0.018,,200525,,,A*72
$GNVTG,,T,,M,0.018,N,0.033,K,A*34
$GNGGA,133109.00,0419.74811,S,05539.72018,E,1,12,0.63,16.2,M,-47.6,M,,*4C
$GNGSA,A,3,32,18,10,28,26,16,27,31,08,04,02,,1.24,0.63,1.07*11
$GNGSA,A,3,85,72,75,86,65,87,66,,,,,,1.24,0.63,1.07*10
$GPGSV,5,1,17,02,07,333,28,04,11,229,11,08,26,297,17,10,13,028,27*70
$GPGSV,5,2,17,16,24,211,11,18,26,119,08,23,01,067,,26,29,181,14*74
$GPGSV,5,3,17,27,56,262,32,28,60,095,13,31,58,161,19,32,29,009,20*7A
$GPGSV,5,4,17,36,52,277,,40,84,353,38,41,58,082,,49,32,274,*77
$GPGSV,5,5,17,50,10,089,*4A
$GLGSV,3,1,09,65,26,282,11,66,07,237,11,72,22,343,17,74,14,103,08*6B
$GLGSV,3,2,09,75,23,155,08,76,04,209,09,85,35,144,11,86,72,037,33*65
$GLGSV,3,3,09,87,31,347,09*58
$GNGLL,0419.74811,S,05539.72018,E,133109.00,A,A*62
$GNRMC,133110.00,A,0419.74806,S,05539.72015,E,0.235,,200525,,,A*7C
$GNVTG,,T,,M,0.235,N,0.436,K,A*38
$GNGGA,133110.00,0419.74806,S,05539.72015,E,1,12,0.66,16.3,M,-47.6,M,,*4B
$GNGSA,A,3,32,18,10,28,26,27,31,08,04,02,,,1.26,0.66,1.07*11
$GNGSA,A,3,85,72,75,86,65,87,66,,,,,,1.26,0.66,1.07*17
$GPGSV,5,1,17,02,07,333,30,04,11,229,10,08,26,297,19,10,13,028,28*79
