$GNRMC,132609.00,A,0419.74085,S,05539.71111,E,0.355,,200525,,,A*70
$GNVTG,,T,,M,0.355,N,0.657,K,A*3A
$GNGGA,132609.00,0419.74085,S,05539.71111,E,1,12,0.63,8.4,M,-47.6,M,,*7D
$GNGSA,A,3,32,18,10,28,26,16,27,31,40,08,04,02,1.22,0.63,1.04*10
$GNGSA,A,3,85,72,75,86,65,87,66,,,,,,1.22,0.63,1.04*15
$GPGSV,5,1,17,02,06,333,26,04,09,228,23,08,25,299,31,10,13,026,29*7F
$GPGSV,5,2,17,16,24,214,21,18,27,117,09,23,01,065,,26,29,183,22*79
$GPGSV,5,3,17,27,55,267,30,28,60,101,23,31,56,163,28,32,31,008,26*71
$GPGSV,5,4,17,36,52,277,29,40,84,353,28,41,58,082,28,49,32,274,*77
$GPGSV,5,5,17,50,10,089,*4A
$GLGSV,3,1,09,65,27,279,23,66,06,234,33,72,24,341,34,74,14,106,09*6C
$GLGSV,3,2,09,75,22,157,21,76,04,211,10,85,37,141,16,86,69,031,35*66
$GLGSV,3,3,09,87,28,348,30*55
$GNGLL,0419.74085,S,05539.71111,E,132609.00,A,A*6A
$GNRMC,132610.00,A,0419.74088,S,05539.71112,E,0.075,,200525,,,A*77
$GNVTG,,T,,M,0.075,N,0.139,K,A*34
$GNGGA,132610.00,0419.74088,S,05539.71112,E,1,12,0.61,8.3,M,-47.6,M,,*7E
$GNGSA,A,3,32,18,10,28,26,16,27,31,40,08,04,02,1.20,0.61,1.04*10
$GNGSA,A,3,85,72,75,86,65,87,66,,,,,,1.20,0.61,1.04*15
$GPGSV,5,1,17,02,06,333,35,04,09,228,25,08,25,299,34,10,13,026,35*73
$GPGSV,5,2,17,16,24,214,19,18,27,117,12,23,01,065,,26,29,183,23*79
$GPGSV,5,3,17,27,55,267,33,28,60,101,23,31,56,163,30,32,31,008,33*7F
$GPGSV,5,4,17,36,52,277,28,40,84,353,29,41,58,082,32,49,32,274,*7C
$GPGSV,5,5,17,50,10,089,*4A
$GLGSV,3,1,09,65,27,279,21,66,06,234,38,72,24,341,37,74,14,106,09*66
$GLGSV,3,2,09,75,22,157,19,76,04,211,09,85,37,141,15,86,69,031,36*65
$GLGSV,3,3,09,87,28,348,34*51
$GNGLL,0419.74088,S,05539.71112,E,132610.00,A,A*6C
$GNRMC,132611.00,A,0419.74090,S,05539.71120,E,0.141,,200525,,,A*78
$GNVTG,,T,,M,0.141,N,0.261,K,A*3C
$GNGGA,132611.00,0419.74090,S,05539.71120,E,1,12,0.61,8.4,M,-47.6,M,,*70
$GNGSA,A,3,32,18,10,28,26,16,27,31,40,08,04,02,1.11,0.61,0.93*1D
$GNGSA,A,3,85,72,75,86,65,87,66,,,,,,1.11,0.61,0.93*18
$GPGSV,5,1,17,02,06,333,39,04,09,228,32,08,25,299,42,10,13,026,37*7A
$GPGSV,5,2,17,16,24,214,18,18,27,117,15,23,01,065,,26,29,183,24*78
$GPGSV,5,3,17,27,55,267,41,28,60,101,31,31,56,163,37,32,31,008,34*79
$GPGSV,5,4,17,36,52,277,36,40,84,353,36,41,58,082,39,49,32,274,*76
$GPGSV,5,5,17,50,10,089,*4A
$GLGSV,3,1,09,65,27,279,21,66,06,234,38,72,24,341,37,74,14,106,07*68
$GLGSV,3,2,09,75,22,157,18,76,04,211,12,85,37,141,22,86,69,031,41*6A
$GLGSV,3,3,09,87,28,348,37*52
$GNGLL,0419.74090,S,05539.71120,E,132611.00,A,A*65
$GNRMC,132612.00,A,0419.74090,S,05539.71123,E,0.030,,200525,,,A*7F
$GNVTG,,T,,M,0.030,N,0.056,K,A*3D
$GNGGA,132612.00,0419.74090,S,05539.71123,E,1,12,0.67,8.4,M,-47.6,M,,*76
$GNGSA,A,3,32,10,28,26,16,27,31,40,08,04,02,,1.17,0.67,0.96*11
$GNGSA,A,3,85,72,75,86,65,87,66,,,,,,1.17,0.67,0.96*1D
$GPGSV,5,1,17,02,06,333,38,04,09,228,31,08,25,299,40,10,13,026,38*75
$GPGSV,5,2,17,16,24,214,18,18,27,117,20,23,01,065,,26,29,183,26*7C
$GPGSV,5,3,17,27,55,267,41,28,60,101,36,31,56,163,36,32,31,008,38*73
$GPGSV,5,4,17,36,52,277,37,40,84,353,33,41,58,082,38,49,32,274,*73
$GPGSV,5,5,17,50,10,089,*4A
$GLGSV,3,1,09,65,27,279,34,66,06,234,40,72,24,341,37,74,14,106,09*6D
$GLGSV,3,2,09,75,22,157,19,76,04,211,07,85,37,141,25,86,69,031,38*66
$GLGSV,3,3,09,87,28,348,38*5D
$GNGLL,0419.74090,S,05539.71123,E,132612.00,A,A*65
$GNRMC,132613.00,A,0419.74090,S,05539.71121,E,0.084,,200525,,,A*73
$GNVTG,,T,,M,0.084,N,0.155,K,A*30
$GNGGA,132613.00,0419.74090,S,05539.71121,E,1,12,0.68,8.5,M,-47.6,M,,*7B
$GNGSA,A,3,32,10,28,26,27,31,40,08,04,02,,,1.18,0.68,0.96*16
$GNGSA,A,3,85,72,75,86,65,87,66,,,,,,1.18,0.68,0.96*1D
$GPGSV,5,1,17,02,06,333,38,04,09,228,31,08,25,299,40,10,13,026,40*7A
$GPGSV,5,2,17,16,24,214,24,18,27,117,20,23,01,065,,26,29,183,32*76
$GPGSV,5,3,17,27,55,267,36,28,60,101,27,31,56,163,36,32,31,008,40*7C
$GPGSV,5,4,17,36,52,277,33,40,84,353,38,41,58,082,39,49,32,274,*7D
$GPGSV,5,5,17,50,10,089,*4A
$GLGSV,3,1,09,65,27,279,21,66,06,234,40,72,24,341,37,74,14,106,10*61
$GLGSV,3,2,09,75,22,157,21,76,04,211,12,85,37,141,27,86,69,031,38*6B
$GLGSV,3,3,09,87,28,348,36*53
$GNGLL,0419.74090,S,05539.71121,E,132613.00,A,A*66
$GNRMC,132614.00,A,0419.74088,S,05539.71122,E,0.115,,200525,,,A*77
$GNVTG,,T,,M,0.115,N,0.212,K,A*39
$GNGGA,132614.00,0419.74088,S,05539.71122,E,1,12,0.67,8.6,M,-47.6,M,,*7A
$GNGSA,A,3,32,10,28,26,16,27,31,40,08,04,02,,1.17,0.67,0.96*11
$GNGSA,A,3,85,72,75,86,65,87,66,,,,,,1.17,0.67,0.96*1D
$GPGSV,5,1,17,02,06,333,39,04,09,228,30,08,25,299,36,10,13,026,45*7E
$GPGSV,5,2,17,16,24,214,25,18,27,117,21,23,01,065,,26,29,183,32*76
$GPGSV,5,3,17,27,55,267,38,28,60,101,25,31,56,163,36,32,31,008,41*71
$GPGSV,5,4,17,36,52,277,31,40,84,353,31,41,58,082,41,49,32,274,*79
$GPGSV,5,5,17,50,10,089,*4A
$GLGSV,3,1,09,65,27,279,22,66,06,234,40,72,24,341,36,74,14,106,13*60
$GLGSV,3,2,09,75,22,157,22,76,04,211,11,85,37,141,28,86,69,031,39*65
$GLGSV,3,3,09,87,28,348,38*5D
$GNGLL,0419.74088,S,05539.71122,E,132614.00,A,A*6B
$GNRMC,132615.00,A,0419.74083,S,05539.71125,E,0.050,,200525,,,A*7A
$GNVTG,,T,,M,0.050,N,0.093,K,A*32
$GNGGA,132615.00,0419.74083,S,05539.71125,E,1,12,0.61,8.6,M,-47.6,M,,*71
$GNGSA,A,3,32,18,10,28,26,16,27,31,40,08,04,02,1.20,0.61,1.04*10
$GNGSA,A,3,85,72,75,86,65,87,66,,,,,,1.20,0.61,1.04*15
$GPGSV,5,1,17,02,06,333,37,04,09,228,31,08,25,299,42,10,13,026,38*78
$GPGSV,5,2,17,16,24,214,24,18,27,117,22,23,01,065,,26,29,183,35*73
$GPGSV,5,3,17,27,55,267,34,28,60,101,35,31,56,163,34,32,31,008,40*7F
$GPGSV,5,4,17,36,52,277,31,40,84,353,34,41,58,082,38,49,32,274,*72
$GPGSV,5,5,17,50,10,089,*4A
$GLGSV,3,1,09,65,27,279,29,66,06,234,39,72,24,341,34,74,14,106,06*63
$GLGSV,3,2,09,75,22,157,23,76,04,211,12,85,37,141,28,86,69,031,39*67
$GLGSV,3,3,09,87,28,348,35*50
$GNGLL,0419.74083,S,05539.71125,E,132615.00,A,A*66
$GNRMC,132616.00,A,0419.74082,S,05539.71128,E,0.088,,200525,,,A*70
$GNVTG,,T,,M,0.088,N,0.163,K,A*39
$GNGGA,132616.00,0419.74082,S,05539.71128,E,1,12,0.61,8.7,M,-47.6,M,,*7F
$GNGSA,A,3,32,18,10,28,26,16,27,31,40,08,04,02,1.11,0.61,0.93*1D
$GNGSA,A,3,85,72,75,86,65,87,66,,,,,,1.11,0.61,0.93*18
$GPGSV,5,1,17,02,06,333,40,04,09,228,31,08,25,299,39,10,13,026,39*75
$GPGSV,5,2,17,16,24,214,25,18,27,117,21,23,01,065,,26,29,183,31*75
$GPGSV,5,3,17,27,55,267,39,28,60,101,32,31,56,163,37,32,31,008,40*76
$GPGSV,5,4,17,36,52,277,33,40,84,353,36,41,58,082,39,49,32,274,*73
$GPGSV,5,5,17,50,10,089,*4A
$GLGSV,3,1,09,65,27,279,28,66,06,234,38,72,24,341,38,74,14,106,08*61
$GLGSV,3,2,09,75,22,157,23,76,04,211,11,85,37,141,29,86,69,031,40*6B
$GLGSV,3,3,09,87,28,348,38*5D
$GNGLL,0419.74082,S,05539.71128,E,132616.00,A,A*69
$GNRMC,132617.00,A,0419.74085,S,05539.71131,E,0.118,,200525,,,A*76
$GNVTG,,T,,M,0.118,N,0.219,K,A*3F
$GNGGA,132617.00,0419.74085,S,05539.71131,E,1,12,0.61,8.8,M,-47.6,M,,*7E
$GNGSA,A,3,32,18,10,28,26,16,27,31,40,08,04,02,1.20,0.61,1.04*10
$GNGSA,A,3,85,72,75,86,65,87,66,,,,,,1.20,0.61,1.04*15
$GPGSV,5,1,17,02,06,333,36,04,09,228,25,08,25,299,37,10,13,026,37*71
$GPGSV,5,2,17,16,24,214,24,18,27,117,20,23,01,065,,26,29,183,27*72
$GPGSV,5,3,17,27,55,267,34,28,60,101,26,31,56,163,32,32,31,008,40*7B
$GPGSV,5,4,17,36,52,277,30,40,84,353,29,41,58,082,37,49,32,274,*70
$GPGSV,5,5,17,50,10,089,*4A
$GLGSV,3,1,09,65,27,279,26,66,06,234,36,72,24,341,37,74,14,106,07*61
$GLGSV,3,2,09,75,22,157,22,76,04,211,08,85,37,141,24,86,69,031,40*6F
$GLGSV,3,3,09,87,28,348,35*50
$GNGLL,0419.74085,S,05539.71131,E,132617.00,A,A*67
$GNRMC,132618.00,A,0419.74085,S,05539.71134,E,0.053,,200525,,,A*72
$GNVTG,,T,,M,0.053,N,0.099,K,A*3B
$GNGGA,132618.00,0419.74085,S,05539.71134,E,1,12,0.61,8.8,M,-47.6,M,,*74
$GNGSA,A,3,32,18,10,28,26,16,27,31,40,08,04,02,1.20,0.61,1.04*10
$GNGSA,A,3,85,72,75,86,65,87,66,,,,,,1.20,0.61,1.04*15
$GPGSV,5,1,17,02,06,333,37,04,09,228,28,08,25,299,40,10,13,026,37*7D
$GPGSV,5,2,17,16,24,214,22,18,27,117,18,23,01,065,,26,29,183,32*7B
$GPGSV,5,3,17,27,55,267,36,28,60,101,32,31,56,163,32,32,31,008,40*7C
$GPGSV,5,4,17,36,52,277,31,40,84,353,30,41,58,082,38,49,32,274,*76
$GPGSV,5,5,17,50,10,089,*4A
$GLGSV,3,1,09,65,27,279,28,66,06,234,37,72,24,341,37,74,14,106,08*61
$GLGSV,3,2,09,75,22,157,21,76,04,211,08,85,37,141,27,86,69,031,40*6F
$GLGSV,3,3,09,87,28,348,36*53
$GNGLL,0419.74085,S,05539.71134,E,132618.00,A,A*6D
$GNRMC,132619.00,A,0419.74086,S,05539.71138,E,0.066,,200525,,,A*7A
$GNVTG,,T,,M,0.066,N,0.122,K,A*3C
$GNGGA,132619.00,0419.74086,S,05539.71138,E,1,12,0.61,8.9,M,-47.6,M,,*7B
$GNGSA,A,3,32,18,10,28,26,16,27,31,40,08,04,02,1.20,0.61,1.04*10
$GNGSA,A,3,85,72,75,86,65,87,66,,,,,,1.20,0.61,1.04*15
$GPGSV,5,1,17,02,06,333,35,04,09,228,20,08,25,299,40,10,13,026,37*77
$GPGSV,5,2,17,16,24,214,22,18,27,117,18,23,01,065,,26,29,183,28*70
$GPGSV,5,3,17,27,55,267,37,28,60,101,26,31,56,163,28,32,31,008,40*73
$GPGSV,5,4,17,36,52,277,32,40,84,353,30,41,58,082,37,49,32,274,*7A
$GPGSV,5,5,17,50,10,089,*4A
$GLGSV,3,1,09,65,27,279,28,66,06,234,37,72,24,341,37,74,14,106,09*60
$GLGSV,3,2,09,75,22,157,20,76,04,211,10,85,36,142,27,86,69,031,42*67
$GLGSV,3,3,09,87,28,348,38*5D
$GNGLL,0419.74086,S,05539.71138,E,132619.00,A,A*63
$GNRMC,132620.00,A,0419.74089,S,05539.71144,E,0.056,,200525,,,A*77
$GNVTG,,T,,M,0.056,N,0.104,K,A*3B
$GNGGA,132620.00,0419.74089,S,05539.71144,E,1,12,0.63,8.9,M,-47.6,M,,*77
$GNGSA,A,3,32,18,10,28,26,16,27,31,40,08,04,02,1.22,0.63,1.04*10
$GNGSA,A,3,85,72,75,86,65,87,66,,,,,,1.22,0.63,1.04*15
$GPGSV,5,1,17,02,06,333,37,04,09,228,28,08,25,299,40,10,13,026,38*72
$GPGSV,5,2,17,16,24,214,21,18,27,117,18,23,01,065,,26,29,183,32*78
$GPGSV,5,3,17,27,55,267,36,28,60,101,25,31,56,163,32,32,31,008,40*7A
$GPGSV,5,4,17,36,52,277,31,40,84,353,34,41,58,082,37,49,32,274,*7D
$GPGSV,5,5,17,50,10,089,*4A
$GLGSV,3,1,09,65,27,279,26,66,06,234,38,72,24,341,38,74,14,106,09*6E
$GLGSV,3,2,09,75,22,157,21,76,04,211,07,85,36,142,27,86,69,032,42*63
$GLGSV,3,3,09,87,28,348,38*5D
$GNGLL,0419.74089,S,05539.71144,E,132620.00,A,A*6D
$GNRMC,132621.00,A,0419.74088,S,05539.71152,E,0.474,,200525,,,A*74
$GNVTG,,T,,M,0.474,N,0.878,K,A*3D
$GNGGA,132621.00,0419.74088,S,05539.71152,E,1,12,0.61,9.1,M,-47.6,M,,*7B
$GNGSA,A,3,32,18,10,28,26,16,27,31,40,08,04,02,1.20,0.61,1.04*10
$GNGSA,A,3,85,72,75,86,65,87,66,,,,,,1.20,0.61,1.04*15
$GPGSV,5,1,17,02,06,333,37,04,09,228,27,08,25,299,33,10,13,026,37*76
$GPGSV,5,2,17,16,24,214,21,18,27,117,18,23,01,065,,26,29,183,26*7D
$GPGSV,5,3,17,27,55,267,32,28,60,101,25,31,56,163,32,32,31,008,36*7F
$GPGSV,5,4,17,36,52,277,29,40,84,353,36,41,58,082,33,49,32,274,*72
$GPGSV,5,5,17,50,10,089,*4A
$GLGSV,3,1,09,65,27,279,24,66,06,234,33,72,24,341,29,74,14,106,08*66
$GLGSV,3,2,09,75,22,157,19,76,04,211,04,85,36,142,13,86,69,032,24*6C
$GLGSV,3,3,09,87,29,348,32*56
$GNGLL,0419.74088,S,05539.71152,E,132621.00,A,A*6A
$GNRMC,132622.00,A,0419.74089,S,05539.71154,E,0.015,,200525,,,A*73
$GNVTG,,T,,M,0.015,N,0.028,K,A*33
$GNGGA,132622.00,0419.74089,S,05539.71154,E,1,12,0.61,9.2,M,-47.6,M,,*7C
$GNGSA,A,3,32,18,10,28,26,16,27,31,40,08,04,02,1.11,0.61,0.93*1D
$GNGSA,A,3,85,72,75,86,65,87,66,,,,,,1.11,0.61,0.93*18
$GPGSV,5,1,17,02,06,333,35,04,09,228,32,08,25,299,38,10,13,026,39*75
$GPGSV,5,2,17,16,24,214,23,18,27,117,19,23,01,065,,26,29,183,32*7B
$GPGSV,5,3,17,27,55,267,36,28,60,101,27,31,56,163,36,32,31,008,39*72
$GPGSV,5,4,17,36,52,277,31,40,84,353,39,41,58,082,39,49,32,274,*7E
$GPGSV,5,5,17,50,10,089,*4A
$GLGSV,3,1,09,65,27,279,25,66,06,234,39,72,24,341,38,74,14,106,10*64
$GLGSV,3,2,09,75,22,157,21,76,04,211,12,85,36,142,21,86,69,032,31*65
$GLGSV,3,3,09,87,29,348,37*53
$GNGLL,0419.74089,S,05539.71154,E,132622.00,A,A*6E
$GNRMC,132623.00,A,0419.74089,S,05539.71149,E,0.024,,200525,,,A*7C
$GNVTG,,T,,M,0.024,N,0.045,K,A*3A
$GNGGA,132623.00,0419.74089,S,05539.71149,E,1,12,0.61,9.4,M,-47.6,M,,*77
$GNGSA,A,3,32,18,10,28,26,16,27,31,40,08,04,02,1.11,0.61,0.93*1D
$GNGSA,A,3,85,72,75,86,65,87,66,,,,,,1.11,0.61,0.93*18
$GPGSV,5,1,17,02,06,333,32,04,09,228,31,08,25,299,36,10,13,026,39*7F
$GPGSV,5,2,17,16,24,214,25,18,27,117,19,23,01,065,,26,29,183,30*7F
$GPGSV,5,3,17,27,55,267,39,28,60,101,27,31,56,163,33,32,31,008,37*76
$GPGSV,5,4,17,36,52,277,32,40,84,353,40,41,58,082,37,49,32,274,*7D
$GPGSV,5,5,17,50,10,089,*4A
$GLGSV,3,1,09,65,27,279,32,66,06,234,39,72,24,341,35,74,14,106,08*66
$GLGSV,3,2,09,75,22,157,22,76,04,211,13,85,36,142,26,86,69,032,38*69
$GLGSV,3,3,09,87,29,348,37*53
$GNGLL,0419.74089,S,05539.71149,E,132623.00,A,A*63
$GNRMC,132624.00,A,0419.74089,S,05539.71147,E,0.054,,200525,,,A*72
$GNVTG,,T,,M,0.054,N,0.100,K,A*3D
$GNGGA,132624.00,0419.74089,S,05539.71147,E,1,12,0.61,9.4,M,-47.6,M,,*7E
$GNGSA,A,3,32,18,10,28,26,16,27,31,40,08,04,02,1.11,0.61,0.93*1D
$GNGSA,A,3,85,72,75,86,65,87,66,,,,,,1.11,0.61,0.93*18
$GPGSV,5,1,17,02,06,333,27,04,09,228,25,08,25,299,33,10,13,026,34*76
$GPGSV,5,2,17,16,24,214,24,18,27,117,18,23,01,065,,26,29,183,24*7A
$GPGSV,5,3,17,27,55,267,32,28,60,101,25,31,56,163,29,32,31,008,31*72
$GPGSV,5,4,17,36,52,277,27,40,84,353,35,41,58,082,30,49,32,274,*7C
$GPGSV,5,5,17,50,10,089,*4A
$GLGSV,3,1,09,65,27,279,34,66,06,234,35,72,24,341,32,74,14,106,08*6B
$GLGSV,3,2,09,75,22,157,20,76,04,211,08,85,36,142,25,86,69,032,34*6E
$GLGSV,3,3,09,87,29,348,25*50
$GNGLL,0419.74089,S,05539.71147,E,132624.00,A,A*6A
$GNRMC,132625.00,A,0419.74090,S,05539.71154,E,0.190,,200525,,,A*70
$GNVTG,,T,,M,0.190,N,0.351,K,A*32
$GNGGA,132625.00,0419.74090,S,05539.71154,E,1,12,0.61,9.3,M,-47.6,M,,*72
$GNGSA,A,3,32,18,10,28,26,16,27,31,40,08,04,02,1.11,0.61,0.93*1D
$GNGSA,A,3,85,72,75,86,65,87,66,,,,,,1.11,0.61,0.93*18
$GPGSV,5,1,17,02,06,333,35,04,09,228,25,08,25,299,40,10,13,026,41*73
$GPGSV,5,2,17,16,24,214,22,18,27,117,16,23,01,065,,26,29,183,25*73
$GPGSV,5,3,17,27,55,267,35,28,60,101,34,31,56,163,32,32,31,008,39*77
$GPGSV,5,4,17,36,52,277,33,40,84,353,39,41,58,082,28,49,32,274,*7C
$GPGSV,5,5,17,50,10,089,*4A
$GLGSV,3,1,09,65,27,279,29,66,06,234,34,72,24,341,33,74,14,106,08*67
$GLGSV,3,2,09,75,22,157,17,76,04,211,10,85,36,142,24,86,69,032,30*66
$GLGSV,3,3,09,87,29,348,33*57
$GNGLL,0419.74090,S,05539.71154,E,132625.00,A,A*61
$GNRMC,132626.00,A,0419.74088,S,05539.71157,E,0.047,,200525,,,A*72
$GNVTG,,T,,M,0.047,N,0.087,K,A*31
$GNGGA,132626.00,0419.74088,S,05539.71157,E,1,12,0.63,9.4,M,-47.6,M,,*7E
$GNGSA,A,3,32,18,10,28,26,27,31,40,08,04,02,,1.12,0.63,0.93*1B
$GNGSA,A,3,85,72,75,86,65,87,66,,,,,,1.12,0.63,0.93*19
$GPGSV,5,1,17,02,06,333,33,04,10,228,26,08,25,299,37,10,13,026,37*7F
$GPGSV,5,2,17,16,24,214,,18,27,117,17,23,01,065,,26,29,183,25*72
$GPGSV,5,3,17,27,55,267,34,28,60,101,32,31,56,163,28,32,31,008,37*75
$GPGSV,5,4,17,36,52,277,34,40,84,353,33,41,58,082,28,49,32,274,*71
$GPGSV,5,5,17,50,10,089,*4A
$GLGSV,3,1,09,65,27,279,28,66,06,234,33,72,24,341,34,74,14,106,09*67
$GLGSV,3,2,09,75,22,157,18,76,04,211,09,85,36,142,25,86,69,032,40*67
$GLGSV,3,3,09,87,29,348,35*51
$GNGLL,0419.74088,S,05539.71157,E,132626.00,A,A*68
$GNRMC,132627.00,A,0419.74086,S,05539.71161,E,0.114,,200525,,,A*7F
$GNVTG,,T,,M,0.114,N,0.211,K,A*3B
$GNGGA,132627.00,0419.74086,S,05539.71161,E,1,12,0.63,9.4,M,-47.6,M,,*74
$GNGSA,A,3,32,18,10,28,26,27,31,40,08,04,02,,1.21,0.63,1.04*14
$GNGSA,A,3,85,72,75,86,65,87,66,,,,,,1.21,0.63,1.04*16
$GPGSV,5,1,17,02,06,333,36,04,10,228,25,08,25,299,39,10,13,026,37*77
$GPGSV,5,2,17,16,24,214,19,18,27,117,16,23,01,065,,26,29,183,26*78
$GPGSV,5,3,17,27,55,267,40,28,60,101,37,31,56,163,26,32,31,008,40*7D
$GPGSV,5,4,17,36,52,277,39,40,84,353,34,41,58,082,36,49,32,274,*74
$GPGSV,5,5,17,50,10,089,*4A
$GLGSV,3,1,09,65,27,279,26,66,06,234,31,72,24,341,37,74,14,106,09*68
$GLGSV,3,2,09,75,22,157,19,76,04,211,11,85,36,142,26,86,69,032,43*6F
$GLGSV,3,3,09,87,29,348,35*51
$GNGLL,0419.74086,S,05539.71161,E,132627.00,A,A*62
$GNRMC,132628.00,A,0419.74086,S,05539.71163,E,0.066,,200525,,,A*76
$GNVTG,,T,,M,0.066,N,0.122,K,A*3C
$GNGGA,132628.00,0419.74086,S,05539.71163,E,1,12,0.63,9.4,M,-47.6,M,,*79
$GNGSA,A,3,32,18,10,28,26,27,31,40,08,04,02,,1.21,0.63,1.04*14
$GNGSA,A,3,85,72,75,86,65,87,66,,,,,,1.21,0.63,1.04*16
$GPGSV,5,1,17,02,06,333,32,04,10,228,23,08,25,299,35,10,13,026,33*7D
$GPGSV,5,2,17,16,24,214,20,18,27,117,16,23,01,065,,26,29,183,29*7D
$GPGSV,5,3,17,27,55,267,34,28,60,101,30,31,56,163,27,32,31,008,34*7B
$GPGSV,5,4,17,36,52,277,35,40,84,353,30,41,58,082,33,49,32,274,*79
$GPGSV,5,5,17,50,10,089,*4A
$GLGSV,3,1,09,65,27,279,27,66,06,234,34,72,24,341,34,74,14,106,11*66
$GLGSV,3,2,09,75,22,157,21,76,04,211,09,85,36,142,26,86,69,032,37*6E
$GLGSV,3,3,09,87,29,348,35*51
$GNGLL,0419.74086,S,05539.71163,E,132628.00,A,A*6F
$GNRMC,132629.00,A,0419.74088,S,05539.71173,E,0.063,,200525,,,A*7D
$GNVTG,,T,,M,0.063,N,0.118,K,A*30
$GNGGA,132629.00,0419.74088,S,05539.71173,E,1,12,0.67,9.2,M,-47.6,M,,*75
$GNGSA,A,3,32,10,28,26,16,27,31,40,08,04,02,,1.17,0.67,0.96*11
$GNGSA,A,3,85,72,75,86,65,87,66,,,,,,1.17,0.67,0.96*1D
$GPGSV,5,1,17,02,06,333,39,04,10,228,25,08,25,299,41,10,13,026,39*79
$GPGSV,5,2,17,16,24,214,22,18,27,117,,23,01,065,,26,29,183,33*73
$GPGSV,5,3,17,27,55,267,42,28,60,101,25,31,56,163,35,32,31,008,43*7D
$GPGSV,5,4,17,36,52,277,39,40,84,353,40,41,58,082,36,49,32,274,*77
$GPGSV,5,5,17,50,10,089,*4A
$GLGSV,3,1,09,65,27,279,28,66,06,234,35,72,24,341,37,74,14,106,06*6D
$GLGSV,3,2,09,75,22,157,21,76,04,211,10,85,36,142,25,86,69,032,39*6B
$GLGSV,3,3,09,87,29,348,35*51
$GNGLL,0419.74088,S,05539.71173,E,132629.00,A,A*61
$GNRMC,132630.00,A,0419.74090,S,05539.71175,E,0.053,,200525,,,A*79
$GNVTG,,T,,M,0.053,N,0.098,K,A*3A
$GNGGA,132630.00,0419.74090,S,05539.71175,E,1,12,0.67,9.1,M,-47.6,M,,*71
$GNGSA,A,3,32,10,28,26,16,27,31,40,08,04,02,,1.17,0.67,0.96*11
$GNGSA,A,3,85,72,75,86,65,87,66,,,,,,1.17,0.67,0.96*1D
$GPGSV,5,1,17,02,06,333,39,04,10,228,28,08,25,299,40,10,13,026,39*75
$GPGSV,5,2,17,16,24,214,26,18,27,117,16,23,01,065,,26,29,183,30*73
$GPGSV,5,3,17,27,55,267,40,28,60,101,31,31,56,163,32,32,31,008,41*7F
$GPGSV,5,4,17,36,52,277,41,40,84,353,39,41,58,082,39,49,32,274,*79
$GPGSV,5,5,17,50,10,089,*4A
$GLGSV,3,1,09,65,27,279,28,66,06,234,38,72,24,341,37,74,14,106,07*61
$GLGSV,3,2,09,75,22,157,22,76,04,211,16,85,36,142,25,86,69,032,42*62
$GLGSV,3,3,09,87,29,348,38*5C
$GNGLL,0419.74090,S,05539.71175,E,132630.00,A,A*66
$GNRMC,132631.00,A,0419.74089,S,05539.71177,E,0.016,,200525,,,A*73
$GNVTG,,T,,M,0.016,N,0.029,K,A*31
$GNGGA,132631.00,0419.74089,S,05539.71177,E,1,12,0.67,9.1,M,-47.6,M,,*7A
$GNGSA,A,3,32,10,28,26,16,27,31,40,08,04,02,,1.26,0.67,1.07*1A
$GNGSA,A,3,85,72,75,86,65,87,66,,,,,,1.26,0.67,1.07*16
$GPGSV,5,1,17,02,06,333,36,04,10,228,27,08,25,299,36,10,13,026,35*78
$GPGSV,5,2,17,16,24,214,25,18,27,117,15,23,01,065,,26,29,183,29*7B
$GPGSV,5,3,17,27,55,267,36,28,60,101,25,31,56,163,28,32,31,008,38*7E
$GPGSV,5,4,17,36,52,277,35,40,84,353,30,41,58,082,30,49,32,274,*7A
$GPGSV,5,5,17,50,10,089,*4A
$GLGSV,3,1,09,65,27,279,28,66,06,234,33,72,24,341,34,74,14,106,10*6F
$GLGSV,3,2,09,75,22,157,22,76,04,211,11,85,36,142,23,86,69,032,39*6F
$GLGSV,3,3,09,87,29,348,33*57
$GNGLL,0419.74089,S,05539.71177,E,132631.00,A,A*6D
$GNRMC,132632.00,A,0419.74089,S,05539.71183,E,0.075,,200525,,,A*7E
$GNVTG,,T,,M,0.075,N,0.139,K,A*34
$GNGGA,132632.00,0419.74089,S,05539.71183,E,1,12,0.67,9.0,M,-47.6,M,,*73
$GNGSA,A,3,32,10,28,26,16,27,31,40,08,04,02,,1.26,0.67,1.07*1A
$GNGSA,A,3,85,72,75,86,65,87,66,,,,,,1.26,0.67,1.07*16
$GPGSV,5,1,17,02,06,333,39,04,10,228,27,08,25,299,39,10,13,027,38*74
$GPGSV,5,2,17,16,24,214,24,18,27,117,13,23,01,065,,26,29,183,30*74
$GPGSV,5,3,17,27,55,267,41,28,60,101,35,31,56,163,33,32,31,008,41*7B
$GPGSV,5,4,17,36,52,277,39,40,84,353,28,41,58,082,36,49,32,274,*79
$GPGSV,5,5,17,50,10,089,*4A
$GLGSV,3,1,09,65,27,279,27,66,06,234,37,72,24,341,37,74,14,106,07*61
$GLGSV,3,2,09,75,22,157,21,76,04,211,12,85,36,142,24,86,69,032,42*64
$GLGSV,3,3,09,87,29,348,37*53
$GNGLL,0419.74089,S,05539.71183,E,132632.00,A,A*65
$GNRMC,132633.00,A,0419.74092,S,05539.71188,E,0.031,,200525,,,A*7E
$GNVTG,,T,,M,0.031,N,0.058,K,A*32
$GNGGA,132633.00,0419.74092,S,05539.71188,E,1,12,0.67,8.8,M,-47.6,M,,*7A
$GNGSA,A,3,32,10,28,26,16,27,31,40,08,04,02,,1.26,0.67,1.07*1A
$GNGSA,A,3,85,72,75,86,65,87,66,,,,,,1.26,0.67,1.07*16
$GPGSV,5,1,17,02,06,333,39,04,10,228,29,08,25,299,39,10,13,027,39*7B
$GPGSV,5,2,17,16,24,214,25,18,27,117,14,23,01,065,,26,29,183,31*73
$GPGSV,5,3,17,27,55,267,42,28,60,101,30,31,56,163,33,32,31,008,41*7D
$GPGSV,5,4,17,36,52,277,39,40,84,353,34,41,58,082,37,49,32,274,*75
$GPGSV,5,5,17,50,10,089,*4A
$GLGSV,3,1,09,65,27,279,27,66,06,234,38,72,24,341,39,74,14,106,09*6E
$GLGSV,3,2,09,75,22,157,21,76,04,211,15,85,36,142,25,86,69,032,43*63
$GLGSV,3,3,09,87,29,348,37*53
$GNGLL,0419.74092,S,05539.71188,E,132633.00,A,A*65
$GNRMC,132634.00,A,0419.74095,S,05539.71188,E,0.018,,200525,,,A*75
$GNVTG,,T,,M,0.018,N,0.033,K,A*34
$GNGGA,132634.00,0419.74095,S,05539.71188,E,1,12,0.61,8.8,M,-47.6,M,,*7C
$GNGSA,A,3,32,18,10,28,26,16,27,31,40,08,04,02,1.11,0.61,0.93*1D
$GNGSA,A,3,85,72,75,86,65,87,66,,,,,,1.11,0.61,0.93*18
$GPGSV,5,1,17,02,06,333,33,04,10,228,28,08,25,299,34,10,13,027,34*70
$GPGSV,5,2,17,16,24,214,24,18,27,117,14,23,01,065,,26,29,183,30*73
$GPGSV,5,3,17,27,55,267,36,28,60,101,24,31,56,163,27,32,31,008,35*7D
$GPGSV,5,4,17,36,52,277,34,40,84,353,30,41,58,082,31,49,32,274,*7A
$GPGSV,5,5,17,50,10,089,*4A
$GLGSV,3,1,09,65,27,279,26,66,06,234,36,72,24,341,36,74,14,106,11*67
$GLGSV,3,2,09,75,22,157,20,76,04,211,12,85,36,142,26,86,69,032,40*65
$GLGSV,3,3,09,87,29,348,35*51
$GNGLL,0419.74095,S,05539.71188,E,132634.00,A,A*65
$GNRMC,132635.00,A,0419.74095,S,05539.71191,E,0.062,,200525,,,A*71
$GNVTG,,T,,M,0.062,N,0.114,K,A*3D
$GNGGA,132635.00,0419.74095,S,05539.71191,E,1,12,0.61,8.8,M,-47.6,M,,*75
$GNGSA,A,3,32,18,10,28,26,16,27,31,40,08,04,02,1.20,0.61,1.04*10
$GNGSA,A,3,85,72,75,86,65,87,66,,,,,,1.20,0.61,1.04*15
$GPGSV,5,1,17,02,06,333,34,04,10,228,27,08,25,299,34,10,13,027,34*78
$GPGSV,5,2,17,16,24,214,23,18,27,117,14,23,01,065,,26,29,183,29*7C
$GPGSV,5,3,17,27,55,267,36,28,60,101,23,31,56,163,28,32,31,008,35*75
$GPGSV,5,4,17,36,52,277,34,40,84,353,28,41,58,082,32,49,32,274,*70
$GPGSV,5,5,17,50,10,089,*4A
$GLGSV,3,1,09,65,27,279,26,66,06,234,33,72,24,341,35,74,14,106,08*69
$GLGSV,3,2,09,75,22,157,20,76,04,211,11,85,36,142,25,86,69,032,40*65
$GLGSV,3,3,09,87,29,348,35*51
$GNGLL,0419.74095,S,05539.71191,E,132635.00,A,A*6C
$GNRMC,132636.00,A,0419.74096,S,05539.71196,E,0.037,,200525,,,A*76
$GNVTG,,T,,M,0.037,N,0.068,K,A*37
$GNGGA,132636.00,0419.74096,S,05539.71196,E,1,12,0.61,8.7,M,-47.6,M,,*7D
$GNGSA,A,3,32,18,10,28,26,16,27,31,40,08,04,02,1.20,0.61,1.04*10
$GNGSA,A,3,85,72,75,86,65,87,66,,,,,,1.20,0.61,1.04*15
$GPGSV,5,1,17,02,06,333,36,04,10,228,26,08,25,299,41,10,13,027,37*7A
$GPGSV,5,2,17,16,24,214,23,18,27,117,13,23,01,065,,26,29,183,32*71
$GPGSV,5,3,17,27,55,267,42,28,60,101,25,31,56,163,32,32,31,008,40*79
$GPGSV,5,4,17,36,52,277,40,40,84,353,28,41,58,082,38,49,32,274,*79
$GPGSV,5,5,17,50,10,089,*4A
$GLGSV,3,1,09,65,27,279,26,66,06,234,36,72,24,341,38,74,14,106,08*61
$GLGSV,3,2,09,75,22,157,20,76,04,211,07,85,36,142,24,86,69,032,43*60
$GLGSV,3,3,09,87,29,348,40*53
$GNGLL,0419.74096,S,05539.71196,E,132636.00,A,A*6B
$GNRMC,132637.00,A,0419.74093,S,05539.71199,E,0.132,,200525,,,A*79
$GNVTG,,T,,M,0.132,N,0.244,K,A*3F
$GNGGA,132637.00,0419.74093,S,05539.71199,E,1,12,0.61,8.7,M,-47.6,M,,*76
$GNGSA,A,3,32,18,10,28,26,16,27,31,40,08,04,02,1.20,0.61,1.04*10
$GNGSA,A,3,85,72,75,86,65,87,66,,,,,,1.20,0.61,1.04*15
$GPGSV,5,1,17,02,06,333,33,04,10,228,26,08,25,299,39,10,13,027,34*73
$GPGSV,5,2,17,16,24,214,22,18,27,117,15,23,01,065,,26,29,183,26*73
$GPGSV,5,3,17,27,55,267,35,28,60,101,25,31,56,163,28,32,31,008,40*72
$GPGSV,5,4,17,36,52,277,38,40,84,353,32,41,58,082,36,49,32,274,*73
$GPGSV,5,5,17,50,10,089,*4A
$GLGSV,3,1,09,65,27,279,24,66,06,234,29,72,24,341,34,74,14,106,09*60
$GLGSV,3,2,09,75,22,157,18,76,04,211,10,85,36,142,23,86,69,032,36*68
$GLGSV,3,3,09,87,29,348,33*57
$GNGLL,0419.74093,S,05539.71199,E,132637.00,A,A*60
$GNRMC,132638.00,A,0419.74092,S,05539.71205,E,0.032,,200525,,,A*70
$GNVTG,,T,,M,0.032,N,0.059,K,A*30
$GNGGA,132638.00,0419.74092,S,05539.71205,E,1,12,0.63,8.6,M,-47.6,M,,*7D
$GNGSA,A,3,32,18,10,28,26,27,31,40,08,04,02,,1.21,0.63,1.04*14
$GNGSA,A,3,85,72,75,86,65,87,66,,,,,,1.21,0.63,1.04*16
$GPGSV,5,1,17,02,06,333,34,04,10,228,26,08,25,299,42,10,13,027,35*79
$GPGSV,5,2,17,16,24,213,25,18,27,117,16,23,01,065,,26,29,183,31*76
$GPGSV,5,3,17,27,55,267,40,28,60,101,32,31,56,163,32,32,31,008,40*7D
$GPGSV,5,4,17,36,52,277,42,40,84,353,27,41,58,082,39,49,32,274,*75
$GPGSV,5,5,17,50,10,089,*4A
$GLGSV,3,1,09,65,27,279,23,66,06,234,33,72,24,341,36,74,14,106,08*6F
$GLGSV,3,2,09,75,22,157,17,76,04,211,08,85,36,142,22,86,69,032,40*6E
$GLGSV,3,3,09,87,29,348,35*51
$GNGLL,0419.74092,S,05539.71205,E,132638.00,A,A*68
$GNRMC,132639.00,A,0419.74090,S,05539.71208,E,0.009,,200525,,,A*76
$GNVTG,,T,,M,0.009,N,0.017,K,A*32
$GNGGA,132639.00,0419.74090,S,05539.71208,E,1,12,0.63,8.5,M,-47.6,M,,*70
$GNGSA,A,3,32,18,10,28,26,27,31,40,08,04,02,,1.21,0.63,1.04*14
$GNGSA,A,3,85,72,75,86,65,87,66,,,,,,1.21,0.63,1.04*16
$GPGSV,5,1,17,02,06,333,36,04,10,228,30,08,25,299,41,10,13,027,39*73
$GPGSV,5,2,17,16,24,213,24,18,27,117,18,23,01,065,,26,29,183,34*7C
$GPGSV,5,3,17,27,55,267,41,28,60,101,34,31,56,163,32,32,31,008,42*78
$GPGSV,5,4,17,36,52,277,39,40,84,353,32,41,58,082,37,49,32,274,*73
$GPGSV,5,5,17,50,10,089,*4A
$GLGSV,3,1,09,65,27,279,34,66,06,234,36,72,24,341,38,74,14,106,06*6C
$GLGSV,3,2,09,75,22,157,16,76,04,211,08,85,36,142,26,86,69,032,42*69
$GLGSV,3,3,09,87,29,348,37*53
$GNGLL,0419.74090,S,05539.71208,E,132639.00,A,A*66
$GNRMC,132640.00,A,0419.74092,S,05539.71210,E,0.085,,200525,,,A*77
$GNVTG,,T,,M,0.085,N,0.158,K,A*3C
$GNGGA,132640.00,0419.74092,S,05539.71210,E,1,12,0.61,8.5,M,-47.6,M,,*77
$GNGSA,A,3,32,18,10,28,26,16,27,31,40,08,04,02,1.20,0.61,1.04*10
$GNGSA,A,3,85,72,75,86,65,87,66,,,,,,1.20,0.61,1.04*15
$GPGSV,5,1,17,02,06,333,36,04,10,228,29,08,25,299,39,10,13,027,36*7B
$GPGSV,5,2,17,16,24,213,22,18,27,118,18,23,01,065,,26,29,183,30*71
$GPGSV,5,3,17,27,55,267,37,28,60,101,34,31,56,163,27,32,31,008,40*7F
$GPGSV,5,4,17,36,52,277,39,40,84,353,26,41,58,082,37,49,32,274,*76
$GPGSV,5,5,17,50,10,089,*4A
$GLGSV,3,1,09,65,27,279,34,66,06,234,36,72,24,341,36,74,14,106,10*65
$GLGSV,3,2,09,75,22,157,16,76,04,211,11,85,36,142,27,86,69,032,40*62
$GLGSV,3,3,09,87,29,348,34*50
$GNGLL,0419.74092,S,05539.71210,E,132640.00,A,A*63
$GNRMC,132641.00,A,0419.74093,S,05539.71210,E,0.044,,200525,,,A*7A
$GNVTG,,T,,M,0.044,N,0.081,K,A*34
$GNGGA,132641.00,0419.74093,S,05539.71210,E,1,12,0.61,8.4,M,-47.6,M,,*76
$GNGSA,A,3,32,18,10,28,26,16,27,31,40,08,04,02,1.20,0.61,1.04*10
$GNGSA,A,3,85,72,75,86,65,87,66,,,,,,1.20,0.61,1.04*15
$GPGSV,5,1,17,02,06,333,38,04,10,228,30,08,25,299,42,10,13,027,39*7E
$GPGSV,5,2,17,16,24,213,24,18,27,118,18,23,01,065,,26,29,183,33*74
$GPGSV,5,3,17,27,55,267,42,28,60,101,35,31,56,163,35,32,31,008,41*7E
$GPGSV,5,4,17,36,52,277,37,40,84,353,33,41,58,082,36,49,32,274,*7D
$GPGSV,5,5,17,50,10,089,*4A
$GLGSV,3,1,09,65,27,279,34,66,06,234,36,72,24,341,36,74,14,106,09*6D
$GLGSV,3,2,09,75,22,157,16,76,04,211,08,85,36,142,27,86,69,032,40*6A
$GLGSV,3,3,09,87,29,348,37*53
$GNGLL,0419.74093,S,05539.71210,E,132641.00,A,A*63
$GNRMC,132642.00,A,0419.74095,S,05539.71211,E,0.067,,200525,,,A*7F
$GNVTG,,T,,M,0.067,N,0.124,K,A*3B
$GNGGA,132642.00,0419.74095,S,05539.71211,E,1,12,0.61,8.3,M,-47.6,M,,*75
$GNGSA,A,3,32,18,10,28,26,16,27,31,40,08,04,02,1.11,0.61,0.93*1D
$GNGSA,A,3,85,72,75,86,65,87,66,,,,,,1.11,0.61,0.93*18
$GPGSV,5,1,17,02,06,333,40,04,10,228,30,08,25,299,42,10,13,027,38*70
$GPGSV,5,2,17,16,24,213,25,18,27,118,17,23,01,065,,26,29,183,33*7A
$GPGSV,5,3,17,27,55,267,40,28,60,101,38,31,56,163,30,32,31,008,41*74
$GPGSV,5,4,17,36,52,277,39,40,84,353,38,41,58,082,35,49,32,274,*7B
$GPGSV,5,5,17,50,10,089,*4A
$GLGSV,3,1,09,65,27,279,34,66,06,234,39,72,24,341,37,74,14,106,09*63
$GLGSV,3,2,09,75,22,157,18,76,04,211,10,85,36,142,26,86,69,032,38*63
$GLGSV,3,3,09,87,29,348,37*53
$GNGLL,0419.74095,S,05539.71211,E,132642.00,A,A*67
$GNRMC,132643.00,A,0419.74098,S,05539.71209,E,0.341,,200525,,,A*7D
$GNVTG,,T,,M,0.341,N,0.632,K,A*3C
$GNGGA,132643.00,0419.74098,S,05539.71209,E,1,12,0.61,8.2,M,-47.6,M,,*71
$GNGSA,A,3,32,18,10,28,26,16,27,31,40,08,04,02,1.11,0.61,0.93*1D
$GNGSA,A,3,85,72,75,86,65,87,66,,,,,,1.11,0.61,0.93*18
$GPGSV,5,1,17,02,06,333,37,04,10,228,32,08,25,299,42,10,13,027,40*7D
$GPGSV,5,2,17,16,24,213,23,18,27,118,17,23,01,065,,26,29,183,37*78
$GPGSV,5,3,17,27,55,267,40,28,60,101,26,31,56,163,36,32,31,008,38*73
$GPGSV,5,4,17,36,52,277,40,40,84,353,31,41,58,082,39,49,32,274,*70
$GPGSV,5,5,17,50,10,089,*4A
$GLGSV,3,1,09,65,27,279,33,66,06,234,38,72,24,341,35,74,14,106,07*69
$GLGSV,3,2,09,75,22,157,20,76,04,211,10,85,36,142,26,86,69,032,44*63
$GLGSV,3,3,09,87,29,348,37*53
$GNGLL,0419.74098,S,05539.71209,E,132643.00,A,A*62
$GNRMC,132644.00,A,0419.74095,S,05539.71209,E,0.284,,200525,,,A*7F
$GNVTG,,T,,M,0.284,N,0.525,K,A*31
$GNGGA,132644.00,0419.74095,S,05539.71209,E,1,12,0.61,8.2,M,-47.6,M,,*7B
$GNGSA,A,3,32,18,10,28,26,16,27,31,40,08,04,02,1.11,0.61,0.93*1D
$GNGSA,A,3,85,72,75,86,65,87,66,,,,,,1.11,0.61,0.93*18
$GPGSV,5,1,17,02,06,333,39,04,10,228,31,08,25,299,41,10,13,027,43*70
$GPGSV,5,2,17,16,24,213,23,18,27,118,16,23,01,065,,26,29,183,36*78
$GPGSV,5,3,17,27,55,267,32,28,60,101,35,31,56,163,38,32,31,008,30*72
$GPGSV,5,4,17,36,52,277,38,40,84,353,36,41,58,082,35,49,32,274,*74
$GPGSV,5,5,17,50,10,089,*4A
$GLGSV,3,1,09,65,27,279,34,66,06,234,39,72,24,341,34,74,14,106,12*6A
$GLGSV,3,2,09,75,22,157,23,76,04,211,08,85,36,142,24,86,69,032,37*6F
$GLGSV,3,3,09,87,29,348,36*52
$GNGLL,0419.74095,S,05539.71209,E,132644.00,A,A*68
$GNRMC,132645.00,A,0419.74095,S,05539.71210,E,0.028,,200525,,,A*72
$GNVTG,,T,,M,0.028,N,0.053,K,A*31
$GNGGA,132645.00,0419.74095,S,05539.71210,E,1,12,0.61,8.2,M,-47.6,M,,*72
$GNGSA,A,3,32,18,10,28,26,16,27,31,40,08,04,02,1.11,0.61,0.93*1D
$GNGSA,A,3,85,72,75,86,65,87,66,,,,,,1.11,0.61,0.93*18
$GPGSV,5,1,17,02,06,333,40,04,10,228,31,08,25,299,42,10,13,027,45*7B
$GPGSV,5,2,17,16,24,213,24,18,27,118,18,23,01,065,,26,29,183,37*70
$GPGSV,5,3,17,27,55,267,33,28,60,101,32,31,56,163,36,32,31,008,27*7C
$GPGSV,5,4,17,36,52,277,40,40,84,353,35,41,58,082,36,49,32,274,*7B
$GPGSV,5,5,17,50,10,089,*4A
$GLGSV,3,1,09,65,27,279,23,66,06,234,38,72,24,341,37,74,14,106,06*6B
$GLGSV,3,2,09,75,22,157,22,76,04,211,12,85,36,142,25,86,69,032,41*65
$GLGSV,3,3,09,87,29,348,38*5C
$GNGLL,0419.74095,S,05539.71210,E,132645.00,A,A*61
$GNRMC,132646.00,A,0419.74096,S,05539.71215,E,0.031,,200525,,,A*7F
$GNVTG,,T,,M,0.031,N,0.058,K,A*32
$GNGGA,132646.00,0419.74096,S,05539.71215,E,1,12,0.61,8.2,M,-47.6,M,,*77
$GNGSA,A,3,32,18,10,28,26,16,27,31,40,08,04,02,1.11,0.61,0.93*1D
$GNGSA,A,3,85,72,75,86,65,87,66,,,,,,1.11,0.61,0.93*18
$GPGSV,5,1,17,02,06,333,37,04,10,228,32,08,25,299,42,10,13,027,45*78
$GPGSV,5,2,17,16,24,213,31,18,27,118,18,23,01,065,,26,29,183,33*70
$GPGSV,5,3,17,27,55,267,38,28,60,101,33,31,56,163,39,32,31,008,33*7C
$GPGSV,5,4,17,36,52,277,37,40,84,353,42,41,58,082,36,49,32,274,*7B
$GPGSV,5,5,17,50,10,089,*4A
$GLGSV,3,1,09,65,27,279,30,66,06,234,38,72,24,341,36,74,14,106,08*66
$GLGSV,3,2,09,75,22,157,20,76,04,211,13,85,36,142,24,86,69,032,40*66
$GLGSV,3,3,09,87,29,348,39*5D
$GNGLL,0419.74096,S,05539.71215,E,132646.00,A,A*64
$GNRMC,132647.00,A,0419.74091,S,05539.71212,E,0.088,,200525,,,A*7C
$GNVTG,,T,,M,0.088,N,0.164,K,A*3E
$GNGGA,132647.00,0419.74091,S,05539.71212,E,1,12,0.56,8.4,M,-47.6,M,,*74
$GNGSA,A,3,32,18,10,28,26,16,27,31,40,08,04,02,1.03,0.56,0.86*1E
$GNGSA,A,3,85,72,75,86,65,87,66,,,,,,1.03,0.56,0.86*1B
$GPGSV,5,1,17,02,06,333,40,04,10,228,33,08,25,299,42,10,13,027,42*7E
$GPGSV,5,2,17,16,24,213,26,18,27,118,18,23,01,065,,26,29,183,39*7C
$GPGSV,5,3,17,27,55,267,39,28,60,101,35,31,56,163,34,32,31,008,38*7D
$GPGSV,5,4,17,36,52,277,42,40,84,353,41,41,58,082,36,49,32,274,*7A
$GPGSV,5,5,17,50,10,089,*4A
$GLGSV,3,1,09,65,27,279,29,66,06,234,35,72,24,341,34,74,14,106,12*6A
$GLGSV,3,2,09,75,22,157,20,76,04,211,09,85,36,142,25,86,69,032,41*6D
$GLGSV,3,3,09,87,29,348,35*51
$GNGLL,0419.74091,S,05539.71212,E,132647.00,A,A*65
$GNRMC,132648.00,A,0419.74087,S,05539.71211,E,0.080,,200525,,,A*7F
$GNVTG,,T,,M,0.080,N,0.148,K,A*38
$GNGGA,132648.00,0419.74087,S,05539.71211,E,1,12,0.56,8.4,M,-47.6,M,,*7F
$GNGSA,A,3,32,18,10,28,26,16,27,31,40,08,04,02,1.03,0.56,0.86*1E
$GNGSA,A,3,85,72,75,86,65,87,66,,,,,,1.03,0.56,0.86*1B
$GPGSV,5,1,17,02,06,333,36,04,10,228,32,08,25,299,43,10,13,027,39*73
$GPGSV,5,2,17,16,24,213,24,18,27,118,16,23,01,065,,26,29,183,37*7E
$GPGSV,5,3,17,27,56,266,41,28,60,101,34,31,56,163,33,32,31,008,38*76
$GPGSV,5,4,17,36,52,277,41,40,84,353,41,41,58,082,28,49,32,274,*76
$GPGSV,5,5,17,50,10,089,*4A
$GLGSV,3,1,09,65,27,279,31,66,06,234,35,72,24,341,31,74,14,106,10*64
$GLGSV,3,2,09,75,22,157,20,76,04,211,07,85,36,142,25,86,69,032,35*60
$GLGSV,3,3,09,87,29,348,38*5C
$GNGLL,0419.74087,S,05539.71211,E,132648.00,A,A*6E
$GNRMC,132649.00,A,0419.74079,S,05539.71221,E,0.558,3.44,200525,,,A*61
$GNVTG,3.44,T,,M,0.558,N,1.033,K,A*29
$GNGGA,132649.00,0419.74079,S,05539.71221,E,1,12,0.58,8.4,M,-47.6,M,,*72
$GNGSA,A,3,32,18,10,28,26,27,31,40,08,04,02,,1.04,0.58,0.86*10
$GNGSA,A,3,85,72,75,86,65,87,66,,,,,,1.04,0.58,0.86*12
$GPGSV,5,1,17,02,06,333,40,04,10,228,32,08,25,299,39,10,13,027,41*70
$GPGSV,5,2,17,16,24,213,,18,27,118,16,23,01,065,,26,29,183,30*7F
$GPGSV,5,3,17,27,56,266,38,28,60,099,36,31,56,163,35,32,31,008,43*70
$GPGSV,5,4,17,36,52,277,36,40,84,353,39,41,58,082,33,49,32,274,*73
$GPGSV,5,5,17,50,10,089,*4A
$GLGSV,3,1,09,65,27,279,28,66,06,234,34,72,24,341,35,74,14,106,07*6F
$GLGSV,3,2,09,75,22,157,19,76,04,211,10,85,36,142,26,86,69,032,38*62
$GLGSV,3,3,09,87,29,348,37*53
$GNGLL,0419.74079,S,05539.71221,E,132649.00,A,A*6D
$GNRMC,132650.00,A,0419.74077,S,05539.71223,E,0.228,,200525,,,A*78
$GNVTG,,T,,M,0.228,N,0.422,K,A*31
$GNGGA,132650.00,0419.74077,S,05539.71223,E,1,12,0.58,8.3,M,-47.6,M,,*71
$GNGSA,A,3,32,18,10,28,26,27,31,40,08,04,02,,1.04,0.58,0.86*10
$GNGSA,A,3,85,72,75,86,65,87,66,,,,,,1.04,0.58,0.86*12
$GPGSV,5,1,17,02,06,333,39,04,10,228,31,08,25,299,37,10,13,027,43*71
$GPGSV,5,2,17,16,24,213,22,18,27,118,14,23,01,065,,26,29,183,29*75
$GPGSV,5,3,17,27,56,266,38,28,60,099,38,31,56,163,32,32,31,008,42*78
$GPGSV,5,4,17,36,52,277,34,40,84,353,37,41,58,082,36,49,32,274,*7A
$GPGSV,5,5,17,50,10,089,*4A
$GLGSV,3,1,09,65,27,279,32,66,06,234,37,72,24,341,36,74,14,106,08*6B
$GLGSV,3,2,09,75,22,157,17,76,04,211,10,85,36,142,24,86,69,032,39*6F
$GLGSV,3,3,09,87,29,348,36*52
$GNGLL,0419.74077,S,05539.71223,E,132650.00,A,A*69
$GNRMC,132651.00,A,0419.74076,S,05539.71223,E,0.093,,200525,,,A*7A
$GNVTG,,T,,M,0.093,N,0.172,K,A*33
$GNGGA,132651.00,0419.74076,S,05539.71223,E,1,12,0.58,8.2,M,-47.6,M,,*70
$GNGSA,A,3,32,18,10,28,26,27,31,40,08,04,02,,1.04,0.58,0.86*10
$GNGSA,A,3,85,72,75,86,65,87,66,,,,,,1.04,0.58,0.86*12
$GPGSV,5,1,17,02,06,333,37,04,10,228,31,08,25,299,40,10,13,027,36*7D
$GPGSV,5,2,17,16,24,213,,18,27,118,13,23,01,065,,26,29,183,33*79
$GPGSV,5,3,17,27,56,266,37,28,60,099,36,31,56,163,34,32,31,008,39*73
$GPGSV,5,4,17,36,52,277,38,40,84,353,33,41,58,082,36,49,32,274,*72
$GPGSV,5,5,17,50,10,089,*4A
$GLGSV,3,1,09,65,27,279,32,66,06,234,34,72,24,341,34,74,14,106,06*64
$GLGSV,3,2,09,75,22,157,12,76,04,211,09,85,36,142,27,86,69,032,39*61
$GLGSV,3,3,09,87,29,348,36*52
$GNGLL,0419.74076,S,05539.71223,E,132651.00,A,A*69
$GNRMC,132652.00,A,0419.74079,S,05539.71222,E,0.266,,200525,,,A*7F
$GNVTG,,T,,M,0.266,N,0.493,K,A*31
$GNGGA,132652.00,0419.74079,S,05539.71222,E,1,12,0.58,8.2,M,-47.6,M,,*7D
$GNGSA,A,3,32,18,10,28,26,27,31,40,08,04,02,,1.12,0.58,0.95*15
$GNGSA,A,3,85,72,75,86,65,87,66,,,,,,1.12,0.58,0.95*17
$GPGSV,5,1,17,02,06,333,34,04,10,228,32,08,25,299,41,10,13,027,38*72
$GPGSV,5,2,17,16,24,213,18,18,27,118,14,23,01,065,,26,29,183,36*72
$GPGSV,5,3,17,27,56,266,39,28,60,099,34,31,57,163,34,32,31,008,37*70
$GPGSV,5,4,17,36,52,277,40,40,84,353,33,41,58,082,38,49,32,274,*73
$GPGSV,5,5,17,50,10,089,*4A
$GLGSV,3,1,09,65,27,279,26,66,06,234,35,72,24,341,35,74,14,106,08*6F
$GLGSV,3,2,09,75,22,157,12,76,04,211,10,85,36,142,29,86,69,032,40*69
$GLGSV,3,3,09,87,29,348,36*52
$GNGLL,0419.74079,S,05539.71222,E,132652.00,A,A*64
$GNRMC,132653.00,A,0419.74077,S,05539.71218,E,0.058,,200525,,,A*76
$GNVTG,,T,,M,0.058,N,0.107,K,A*36
$GNGGA,132653.00,0419.74077,S,05539.71218,E,1,12,0.58,8.2,M,-47.6,M,,*7B
$GNGSA,A,3,32,18,10,28,26,27,31,40,08,04,02,,1.04,0.58,0.86*10
$GNGSA,A,3,85,72,75,86,65,87,66,,,,,,1.04,0.58,0.86*12
$GPGSV,5,1,17,02,06,333,37,04,10,228,32,08,25,299,40,10,13,027,38*70
$GPGSV,5,2,17,16,24,213,20,18,27,118,15,23,01,065,,26,29,183,39*77
$GPGSV,5,3,17,27,56,266,37,28,60,099,30,31,57,163,34,32,31,008,37*7A
$GPGSV,5,4,17,36,52,277,40,40,84,353,33,41,58,082,36,49,32,274,*7D
$GPGSV,5,5,17,50,10,089,*4A
$GLGSV,3,1,09,65,27,279,25,66,06,234,36,72,24,341,33,74,14,106,06*67
$GLGSV,3,2,09,75,22,157,15,76,04,211,11,85,36,142,29,86,69,032,40*6F
$GLGSV,3,3,09,87,29,348,36*52
$GNGLL,0419.74077,S,05539.71218,E,132653.00,A,A*62
$GNRMC,132654.00,A,0419.74075,S,05539.71217,E,0.044,,200525,,,A*71
$GNVTG,,T,,M,0.044,N,0.082,K,A*37
$GNGGA,132654.00,0419.74075,S,05539.71217,E,1,12,0.63,8.3,M,-47.6,M,,*78
$GNGSA,A,3,32,18,10,28,26,27,31,40,08,04,02,,1.12,0.63,0.93*1B
$GNGSA,A,3,85,72,75,86,65,87,66,,,,,,1.12,0.63,0.93*19
$GPGSV,5,1,17,02,06,333,39,04,10,228,31,08,25,299,39,10,13,027,43*7F
$GPGSV,5,2,17,16,24,213,,18,27,118,17,23,01,065,,26,29,183,38*76
$GPGSV,5,3,17,27,56,266,37,28,60,099,21,31,57,163,35,32,31,008,42*79
$GPGSV,5,4,17,36,52,277,38,40,84,353,33,41,58,082,36,49,32,274,*72
$GPGSV,5,5,17,50,10,089,*4A
$GLGSV,3,1,09,65,27,279,26,66,06,234,36,72,24,341,35,74,14,106,07*63
$GLGSV,3,2,09,75,22,157,18,76,04,211,09,85,36,142,30,86,69,032,42*61
$GLGSV,3,3,09,87,29,348,37*53
$GNGLL,0419.74075,S,05539.71217,E,132654.00,A,A*68
$GNRMC,132655.00,A,0419.74073,S,05539.71216,E,0.044,,200525,,,A*77
$GNVTG,,T,,M,0.044,N,0.082,K,A*37
$GNGGA,132655.00,0419.74073,S,05539.71216,E,1,12,0.58,8.3,M,-47.6,M,,*76
$GNGSA,A,3,32,18,10,28,26,27,31,40,08,04,02,,1.12,0.58,0.95*15
$GNGSA,A,3,85,72,75,86,65,87,66,,,,,,1.12,0.58,0.95*17
$GPGSV,5,1,17,02,06,333,42,04,10,228,35,08,25,299,43,10,13,027,45*7C
$GPGSV,5,2,17,16,24,213,28,18,27,118,22,23,01,065,,26,29,183,41*74
$GPGSV,5,3,17,27,56,266,39,28,60,099,26,31,57,163,40,32,31,008,43*73
$GPGSV,5,4,17,36,52,277,40,40,84,353,35,41,58,082,38,49,32,274,*75
$GPGSV,5,5,17,50,10,089,*4A
$GLGSV,3,1,09,65,27,279,26,66,06,234,35,72,24,341,36,74,14,106,12*67
$GLGSV,3,2,09,75,22,157,20,76,04,211,11,85,36,142,28,86,69,032,38*67
$GLGSV,3,3,09,87,29,348,38*5C
$GNGLL,0419.74073,S,05539.71216,E,132655.00,A,A*6E
$GNRMC,132656.00,A,0419.74071,S,05539.71215,E,0.102,,200525,,,A*76
$GNVTG,,T,,M,0.102,N,0.188,K,A*3F
$GNGGA,132656.00,0419.74071,S,05539.71215,E,1,12,0.61,8.4,M,-47.6,M,,*79
$GNGSA,A,3,32,18,10,28,26,16,27,31,40,08,04,02,1.20,0.61,1.04*10
$GNGSA,A,3,85,72,75,86,65,87,66,,,,,,1.20,0.61,1.04*15
$GPGSV,5,1,18,02,06,333,40,04,10,228,30,08,25,299,42,10,13,027,45*75
$GPGSV,5,2,18,16,24,213,29,18,27,118,22,21,,,26,23,01,065,*4D
$GPGSV,5,3,18,26,29,183,40,27,56,266,39,28,60,099,30,31,57,163,41*77
$GPGSV,5,4,18,32,31,008,43,36,52,277,39,40,84,353,39,41,58,082,34*75
$GPGSV,5,5,18,49,32,274,,50,10,089,*78
$GLGSV,3,1,09,65,27,279,25,66,06,234,34,72,24,341,35,74,14,106,12*66
$GLGSV,3,2,09,75,22,157,20,76,04,211,13,85,36,142,29,86,69,032,38*64
$GLGSV,3,3,09,87,29,348,31*55
$GNGLL,0419.74071,S,05539.71215,E,132656.00,A,A*6C
$GNRMC,132657.00,A,0419.74070,S,05539.71214,E,0.097,,200525,,,A*7A
$GNVTG,,T,,M,0.097,N,0.179,K,A*3C
$GNGGA,132657.00,0419.74070,S,05539.71214,E,1,12,0.56,8.4,M,-47.6,M,,*7C
$GNGSA,A,3,32,18,10,28,26,16,27,31,40,08,04,02,1.03,0.56,0.86*1E
$GNGSA,A,3,85,72,75,86,65,87,66,,,,,,1.03,0.56,0.86*1B
$GPGSV,5,1,17,02,06,333,39,04,10,228,31,08,25,299,44,10,13,027,44*72
$GPGSV,5,2,17,16,24,213,29,18,27,118,21,23,01,065,,26,29,183,40*77
$GPGSV,5,3,17,27,56,266,38,28,60,099,33,31,57,163,42,32,31,008,42*75
$GPGSV,5,4,17,36,52,277,39,40,84,353,42,41,58,082,40,49,32,274,*74
$GPGSV,5,5,17,50,10,089,*4A
$GLGSV,3,1,09,65,27,279,26,66,06,234,33,72,24,341,34,74,14,106,12*63
$GLGSV,3,2,09,75,22,157,18,76,04,211,11,85,36,142,28,86,69,032,35*61
$GLGSV,3,3,09,87,29,348,32*56
$GNGLL,0419.74070,S,05539.71214,E,132657.00,A,A*6D
$GNRMC,132658.00,A,0419.74068,S,05539.71216,E,0.078,,200525,,,A*7F
$GNVTG,,T,,M,0.078,N,0.145,K,A*32
$GNGGA,132658.00,0419.74068,S,05539.71216,E,1,12,0.56,8.4,M,-47.6,M,,*78
$GNGSA,A,3,32,18,10,28,26,16,27,31,40,08,04,02,1.03,0.56,0.86*1E
$GNGSA,A,3,85,72,75,86,65,87,66,,,,,,1.03,0.56,0.86*1B
$GPGSV,5,1,17,02,06,333,35,04,10,228,30,08,25,299,41,10,13,027,42*7C
$GPGSV,5,2,17,16,24,213,28,18,27,118,18,23,01,065,19,26,29,183,38*7B
$GPGSV,5,3,17,27,56,266,37,28,60,099,33,31,57,163,39,32,31,008,40*74
$GPGSV,5,4,17,36,52,277,35,40,84,353,40,41,58,082,36,49,32,274,*7B
$GPGSV,5,5,17,50,10,089,*4A
$GLGSV,3,1,09,65,27,279,27,66,06,234,32,72,24,341,33,74,14,106,09*6E
$GLGSV,3,2,09,75,22,157,15,76,04,211,11,85,36,142,26,86,69,032,34*63
$GLGSV,3,3,09,87,29,348,33*57
$GNGLL,0419.74068,S,05539.71216,E,132658.00,A,A*69
$GNRMC,132659.00,A,0419.74071,S,05539.71216,E,0.121,,200525,,,A*7B
$GNVTG,,T,,M,0.121,N,0.225,K,A*3A
$GNGGA,132659.00,0419.74071,S,05539.71216,E,1,12,0.56,8.4,M,-47.6,M,,*71
$GNGSA,A,3,32,18,10,28,26,16,27,31,40,08,04,02,1.03,0.56,0.86*1E
$GNGSA,A,3,85,72,75,86,65,87,66,,,,,,1.03,0.56,0.86*1B
$GPGSV,5,1,17,02,06,333,36,04,10,228,30,08,25,299,41,10,13,027,43*7E
$GPGSV,5,2,17,16,24,213,26,18,27,118,20,23,01,065,,26,29,183,34*7A
$GPGSV,5,3,17,27,56,266,39,28,60,099,32,31,57,163,39,32,31,008,42*79
$GPGSV,5,4,17,36,52,277,36,40,84,353,40,41,58,082,40,49,32,274,*79
$GPGSV,5,5,17,50,10,089,*4A
$GLGSV,3,1,09,65,27,279,27,66,06,234,34,72,24,341,35,74,14,106,10*66
$GLGSV,3,2,09,75,22,157,16,76,04,211,15,85,36,142,25,86,69,032,34*67
$GLGSV,3,3,09,87,29,348,34*50
$GNGLL,0419.74071,S,05539.71216,E,132659.00,A,A*60
$GNRMC,132700.00,A,0419.74079,S,05539.71207,E,0.382,,200525,,,A*75
$GNVTG,,T,,M,0.382,N,0.707,K,A*34
$GNGGA,132700.00,0419.74079,S,05539.71207,E,1,12,0.56,8.3,M,-47.6,M,,*73
$GNGSA,A,3,32,18,10,28,26,16,27,31,40,08,04,02,1.03,0.56,0.86*1E
$GNGSA,A,3,85,72,75,86,65,87,66,,,,,,1.03,0.56,0.86*1B
$GPGSV,5,1,17,02,06,333,37,04,10,228,26,08,25,299,32,10,13,027,45*7A
$GPGSV,5,2,17,16,24,213,22,18,27,118,15,23,01,065,,26,29,183,35*79
$GPGSV,5,3,17,27,56,266,35,28,60,099,31,31,57,163,36,32,31,008,32*7E
$GPGSV,5,4,17,36,52,277,34,40,84,353,39,41,58,082,27,49,32,274,*74
$GPGSV,5,5,17,50,10,089,*4A
$GLGSV,3,1,09,65,27,279,37,66,06,234,35,72,24,341,38,74,14,106,08*62
$GLGSV,3,2,09,75,22,157,18,76,04,211,07,85,36,142,24,86,69,032,33*6C
$GLGSV,3,3,09,87,29,348,41*52
$GNGLL,0419.74079,S,05539.71207,E,132700.00,A,A*65
$GNRMC,132701.00,A,0419.74080,S,05539.71199,E,0.100,,200525,,,A*7E
$GNVTG,,T,,M,0.100,N,0.186,K,A*33
$GNGGA,132701.00,0419.74080,S,05539.71199,E,1,12,0.56,8.4,M,-47.6,M,,*77
$GNGSA,A,3,32,18,10,28,26,16,27,31,40,08,04,02,1.03,0.56,0.86*1E
$GNGSA,A,3,85,72,75,86,65,87,66,,,,,,1.03,0.56,0.86*1B
$GPGSV,5,1,17,02,06,333,37,04,10,228,26,08,25,299,32,10,13,027,42*7D
$GPGSV,5,2,17,16,24,213,22,18,27,118,11,23,01,065,,26,29,183,37*7F
$GPGSV,5,3,17,27,56,266,39,28,60,099,30,31,57,163,38,32,31,008,35*7A
$GPGSV,5,4,17,36,52,277,31,40,84,353,41,41,58,082,,49,32,274,*7B
$GPGSV,5,5,17,50,10,089,*4A
$GLGSV,3,1,09,65,27,279,35,66,06,234,35,72,24,341,35,74,14,106,09*6C
$GLGSV,3,2,09,75,22,157,19,76,04,211,11,85,36,142,26,86,69,032,20*6A
$GLGSV,3,3,09,87,29,348,36*52
$GNGLL,0419.74080,S,05539.71199,E,132701.00,A,A*66
$GNRMC,132702.00,A,0419.74077,S,05539.71197,E,0.051,,200525,,,A*7E
$GNVTG,,T,,M,0.051,N,0.095,K,A*35
$GNGGA,132702.00,0419.74077,S,05539.71197,E,1,12,0.56,8.4,M,-47.6,M,,*72
$GNGSA,A,3,32,18,10,28,26,16,27,31,40,08,04,02,1.03,0.56,0.86*1E
$GNGSA,A,3,85,72,75,86,65,87,66,,,,,,1.03,0.56,0.86*1B
$GPGSV,5,1,17,02,06,333,37,04,10,228,25,08,25,299,38,10,13,027,43*75
$GPGSV,5,2,17,16,24,213,25,18,27,118,10,23,01,065,,26,29,183,37*79
$GPGSV,5,3,17,27,56,266,38,28,60,099,29,31,57,163,37,32,31,008,39*70
$GPGSV,5,4,17,36,52,277,34,40,84,353,39,41,58,082,,49,32,274,*71
$GPGSV,5,5,17,50,10,089,*4A
$GLGSV,3,1,09,65,27,279,31,66,06,234,38,72,24,341,35,74,14,106,09*65
$GLGSV,3,2,09,75,22,157,21,76,04,211,08,85,36,142,24,86,69,032,33*69
$GLGSV,3,3,09,87,29,348,39*5D
$GNGLL,0419.74077,S,05539.71197,E,132702.00,A,A*63
$GNRMC,132703.00,A,0419.74075,S,05539.71194,E,0.054,,200525,,,A*7B
$GNVTG,,T,,M,0.054,N,0.101,K,A*3C
$GNGGA,132703.00,0419.74075,S,05539.71194,E,1,12,0.59,8.4,M,-47.6,M,,*7D
$GNGSA,A,3,32,10,28,26,16,27,31,40,08,04,02,,1.05,0.59,0.86*1E
$GNGSA,A,3,85,72,75,86,65,87,66,,,,,,1.05,0.59,0.86*12
$GPGSV,5,1,17,02,06,333,37,04,10,228,26,08,25,299,36,10,13,027,43*78
$GPGSV,5,2,17,16,24,213,27,18,27,118,06,23,01,065,,26,29,183,37*7C
$GPGSV,5,3,17,27,56,266,39,28,60,099,31,31,57,163,37,32,31,008,37*76
$GPGSV,5,4,17,36,52,277,31,40,84,353,40,41,58,082,,49,32,274,*7A
$GPGSV,5,5,17,50,10,089,*4A
$GLGSV,3,1,09,65,27,279,35,66,06,234,37,72,24,341,35,74,14,106,08*6F
$GLGSV,3,2,09,75,22,157,24,76,04,211,11,85,36,142,24,86,69,032,28*6E
$GLGSV,3,3,09,87,29,348,39*5D
$GNGLL,0419.74075,S,05539.71194,E,132703.00,A,A*63
$GNRMC,132704.00,A,0419.74073,S,05539.71188,E,0.124,,200525,,,A*71
$GNVTG,,T,,M,0.124,N,0.229,K,A*33
$GNGGA,132704.00,0419.74073,S,05539.71188,E,1,12,0.56,8.4,M,-47.6,M,,*7E
$GNGSA,A,3,32,18,10,28,26,16,27,31,40,08,04,02,1.03,0.56,0.86*1E
$GNGSA,A,3,85,72,75,86,65,87,66,,,,,,1.03,0.56,0.86*1B
$GPGSV,5,1,17,02,06,333,37,04,10,228,27,08,25,299,36,10,13,027,42*78
$GPGSV,5,2,17,16,24,213,27,18,27,118,13,23,01,065,,26,29,183,38*77
$GPGSV,5,3,17,27,56,266,38,28,60,099,32,31,57,163,38,32,31,008,37*7B
$GPGSV,5,4,17,36,52,277,31,40,84,353,39,41,58,082,,49,32,274,*74
$GPGSV,5,5,17,50,10,089,*4A
$GLGSV,3,1,09,65,27,279,31,66,06,234,35,72,24,341,34,74,14,106,07*67
$GLGSV,3,2,09,75,22,157,24,76,04,211,13,85,36,142,23,86,69,032,30*62
$GLGSV,3,3,09,87,29,348,37*53
$GNGLL,0419.74073,S,05539.71188,E,132704.00,A,A*6F
$GNRMC,132705.00,A,0419.74071,S,05539.71185,E,0.026,,200525,,,A*7C
$GNVTG,,T,,M,0.026,N,0.048,K,A*35
$GNGGA,132705.00,0419.74071,S,05539.71185,E,1,12,0.59,8.4,M,-47.6,M,,*7F
$GNGSA,A,3,32,18,10,28,26,16,27,31,40,08,04,02,1.05,0.59,0.86*17
$GNGSA,A,3,85,72,75,86,65,87,66,,,,,,1.05,0.59,0.86*12
$GPGSV,5,1,17,02,06,333,41,04,10,228,25,08,25,299,34,10,13,027,46*7D
$GPGSV,5,2,17,16,24,213,26,18,27,118,11,23,01,065,,26,29,183,35*79
$GPGSV,5,3,17,27,56,266,39,28,60,099,35,31,57,163,36,32,31,008,40*73
$GPGSV,5,4,17,36,52,277,36,40,84,353,41,41,58,082,,49,32,274,*7C
$GPGSV,5,5,17,50,10,089,*4A
$GLGSV,3,1,09,65,27,279,36,66,06,234,34,72,24,341,35,74,14,106,07*60
$GLGSV,3,2,09,75,22,157,23,76,04,211,07,85,36,142,22,86,69,032,24*64
$GLGSV,3,3,09,87,29,348,40*53
$GNGLL,0419.74071,S,05539.71185,E,132705.00,A,A*61
$GNRMC,132706.00,A,0419.74069,S,05539.71183,E,0.055,,200525,,,A*74
$GNVTG,,T,,M,0.055,N,0.103,K,A*3F
$GNGGA,132706.00,0419.74069,S,05539.71183,E,1,12,0.61,8.3,M,-47.6,M,,*7F
$GNGSA,A,3,32,18,10,28,26,16,27,31,40,08,04,02,1.11,0.61,0.93*1D
$GNGSA,A,3,85,72,75,86,65,87,66,,,,,,1.11,0.61,0.93*18
$GPGSV,5,1,17,02,06,333,40,04,10,228,25,08,25,299,34,10,13,027,45*7F
$GPGSV,5,2,17,16,24,213,27,18,27,118,10,23,01,065,,26,29,183,36*7A
$GPGSV,5,3,17,27,56,266,37,28,60,099,32,31,57,163,38,32,31,008,41*75
$GPGSV,5,4,17,36,52,277,36,40,84,353,39,41,58,082,,49,32,274,*73
$GPGSV,5,5,17,50,10,089,*4A
$GLGSV,3,1,09,65,27,279,32,66,06,234,35,72,24,341,35,74,14,106,11*62
$GLGSV,3,2,09,75,22,157,23,76,04,211,09,85,36,142,21,86,69,032,31*6D
$GLGSV,3,3,09,87,29,348,38*5C
$GNGLL,0419.74069,S,05539.71183,E,132706.00,A,A*6D
$GNRMC,132707.00,A,0419.74066,S,05539.71180,E,0.077,,200525,,,A*79
$GNVTG,,T,,M,0.077,N,0.142,K,A*3A
$GNGGA,132707.00,0419.74066,S,05539.71180,E,1,12,0.61,8.3,M,-47.6,M,,*72
$GNGSA,A,3,32,18,10,28,26,16,27,31,40,08,04,02,1.11,0.61,0.93*1D
$GNGSA,A,3,85,72,75,86,65,87,66,,,,,,1.11,0.61,0.93*18
$GPGSV,5,1,17,02,06,333,33,04,10,228,27,08,25,299,39,10,13,027,41*70
$GPGSV,5,2,17,16,24,213,28,18,27,118,16,23,01,065,,26,29,183,36*73
$GPGSV,5,3,17,27,56,266,37,28,60,099,32,31,57,163,37,32,31,008,39*75
$GPGSV,5,4,17,36,52,277,32,40,84,353,38,41,58,082,,49,32,274,*76
$GPGSV,5,5,17,50,10,089,*4A
$GLGSV,3,1,09,65,27,279,31,66,06,234,35,72,24,341,33,74,14,106,06*61
$GLGSV,3,2,09,75,22,157,25,76,04,211,10,85,36,142,19,86,69,032,31*68
$GLGSV,3,3,09,87,29,348,37*53
$GNGLL,0419.74066,S,05539.71180,E,132707.00,A,A*60
$GNRMC,132708.00,A,0419.74065,S,05539.71180,E,0.059,,200525,,,A*79
$GNVTG,,T,,M,0.059,N,0.110,K,A*31
$GNGGA,132708.00,0419.74065,S,05539.71180,E,1,12,0.67,8.3,M,-47.6,M,,*78
$GNGSA,A,3,32,10,28,26,16,27,31,40,08,04,02,,1.17,0.67,0.96*11
$GNGSA,A,3,85,72,75,86,65,87,66,,,,,,1.17,0.67,0.96*1D
$GPGSV,5,1,17,02,06,333,32,04,10,228,26,08,25,299,38,10,13,027,40*70
$GPGSV,5,2,17,16,24,213,28,18,27,118,06,23,01,065,,26,29,183,36*72
$GPGSV,5,3,17,27,56,266,36,28,60,099,30,31,57,163,36,32,31,008,39*77
$GPGSV,5,4,17,36,52,277,32,40,84,353,37,41,58,082,,49,32,274,*79
$GPGSV,5,5,17,50,10,089,*4A
$GLGSV,3,1,09,65,27,279,30,66,06,234,35,72,24,341,33,74,14,106,07*61
$GLGSV,3,2,09,75,22,157,25,76,04,211,08,85,36,142,21,86,69,032,36*6D
$GLGSV,3,3,09,87,29,348,36*52
$GNGLL,0419.74065,S,05539.71180,E,132708.00,A,A*6C
$GNRMC,132709.00,A,0419.74064,S,05539.71180,E,0.043,,200525,,,A*72
$GNVTG,,T,,M,0.043,N,0.079,K,A*34
$GNGGA,132709.00,0419.74064,S,05539.71180,E,1,12,0.67,8.3,M,-47.6,M,,*78
$GNGSA,A,3,32,10,28,26,16,27,31,40,08,04,02,,1.17,0.67,0.96*11
$GNGSA,A,3,85,72,75,86,65,87,66,,,,,,1.17,0.67,0.96*1D
$GPGSV,5,1,17,02,06,333,36,04,10,228,27,08,25,299,38,10,13,027,41*74
$GPGSV,5,2,17,16,24,213,27,18,27,118,07,23,01,065,,26,29,183,36*7C
$GPGSV,5,3,17,27,56,266,36,28,60,099,30,31,57,163,37,32,31,008,37*78
$GPGSV,5,4,17,36,52,277,33,40,84,353,38,41,58,082,,49,32,274,*77
$GPGSV,5,5,17,50,10,089,*4A
$GLGSV,3,1,09,65,27,279,35,66,06,234,35,72,24,341,33,74,14,106,07*64
$GLGSV,3,2,09,75,22,157,26,76,04,211,08,85,36,142,21,86,69,032,33*6B
$GLGSV,3,3,09,87,29,348,36*52
$GNGLL,0419.74064,S,05539.71180,E,132709.00,A,A*6C
$GNRMC,132710.00,A,0419.74063,S,05539.71180,E,0.019,,200525,,,A*72
$GNVTG,,T,,M,0.019,N,0.036,K,A*30
$GNGGA,132710.00,0419.74063,S,05539.71180,E,1,12,0.61,8.2,M,-47.6,M,,*70
$GNGSA,A,3,32,18,10,28,26,16,27,31,40,08,04,02,1.11,0.61,0.93*1D
$GNGSA,A,3,85,72,75,86,65,87,66,,,,,,1.11,0.61,0.93*18
$GPGSV,5,1,17,02,06,333,37,04,10,228,26,08,25,299,37,10,13,027,41*7B
$GPGSV,5,2,17,16,24,213,27,18,27,118,10,23,01,065,,26,29,183,36*7A
$GPGSV,5,3,17,27,56,266,36,28,60,099,31,31,57,163,37,32,31,008,37*79
$GPGSV,5,4,17,36,52,277,33,40,84,353,37,41,58,082,,49,32,274,*78
$GPGSV,5,5,17,50,10,089,*4A
$GLGSV,3,1,09,65,27,279,33,66,06,234,35,72,24,341,34,74,14,106,07*65
$GLGSV,3,2,09,75,22,157,25,76,04,211,09,85,36,142,19,86,69,032,34*65
$GLGSV,3,3,09,87,29,348,37*53
$GNGLL,0419.74063,S,05539.71180,E,132710.00,A,A*63
$GNRMC,132711.00,A,0419.74062,S,05539.71178,E,0.040,,200525,,,A*79
$GNVTG,,T,,M,0.040,N,0.074,K,A*3A
$GNGGA,132711.00,0419.74062,S,05539.71178,E,1,12,0.61,8.2,M,-47.6,M,,*77
$GNGSA,A,3,32,18,10,28,26,16,27,31,40,08,04,02,1.11,0.61,0.93*1D
$GNGSA,A,3,85,72,75,86,65,87,66,,,,,,1.11,0.61,0.93*18
$GPGSV,5,1,17,02,06,333,37,04,10,228,26,08,25,299,37,10,13,027,41*7B
$GPGSV,5,2,17,16,24,213,27,18,27,118,13,23,01,065,,26,29,183,37*78
$GPGSV,5,3,17,27,56,266,36,28,60,099,31,31,57,163,38,32,31,008,37*76
$GPGSV,5,4,17,36,52,277,33,40,84,353,39,41,58,082,,49,32,274,*76
$GPGSV,5,5,17,50,10,089,*4A
$GLGSV,3,1,09,65,27,279,26,66,06,234,35,72,24,341,32,74,14,106,06*66
$GLGSV,3,2,09,75,22,157,25,76,04,211,10,85,36,142,20,86,69,032,30*63
$GLGSV,3,3,09,87,29,348,36*52
$GNGLL,0419.74062,S,05539.71178,E,132711.00,A,A*64
$GNRMC,132712.00,A,0419.74060,S,05539.71177,E,0.010,,200525,,,A*72
$GNVTG,,T,,M,0.010,N,0.019,K,A*34
$GNGGA,132712.00,0419.74060,S,05539.71177,E,1,12,0.61,8.2,M,-47.6,M,,*79
$GNGSA,A,3,32,18,10,28,26,16,27,31,40,08,04,02,1.11,0.61,0.93*1D
$GNGSA,A,3,85,72,75,86,65,87,66,,,,,,1.11,0.61,0.93*18
$GPGSV,5,1,17,02,06,333,37,04,10,228,27,08,25,299,37,10,13,027,41*7A
$GPGSV,5,2,17,16,24,213,28,18,27,118,13,23,01,065,,26,29,183,37*77
$GPGSV,5,3,17,27,56,266,36,28,60,099,31,31,57,163,39,32,31,008,36*76
$GPGSV,5,4,17,36,52,277,33,40,84,353,38,41,58,082,,49,32,274,*77
$GPGSV,5,5,17,50,10,089,*4A
$GLGSV,3,1,09,65,27,279,32,66,06,234,37,72,24,341,31,74,14,106,10*65
$GLGSV,3,2,09,75,22,157,24,76,04,211,08,85,36,142,19,86,69,032,30*61
$GLGSV,3,3,09,87,29,348,36*52
$GNGLL,0419.74060,S,05539.71177,E,132712.00,A,A*6A
$GNRMC,132713.00,A,0419.74060,S,05539.71176,E,0.105,,200525,,,A*77
$GNVTG,,T,,M,0.105,N,0.194,K,A*35
$GNGGA,132713.00,0419.74060,S,05539.71176,E,1,12,0.61,8.2,M,-47.6,M,,*79
$GNGSA,A,3,32,18,10,28,26,16,27,31,40,08,04,02,1.11,0.61,0.93*1D
$GNGSA,A,3,85,72,75,86,65,87,66,,,,,,1.11,0.61,0.93*18
$GPGSV,5,1,17,02,06,333,37,04,10,228,27,08,25,299,36,10,13,027,42*78
$GPGSV,5,2,17,16,24,213,26,18,27,118,15,23,01,065,,26,29,183,37*7F
$GPGSV,5,3,17,27,56,266,36,28,60,099,30,31,57,163,38,32,31,008,36*76
$GPGSV,5,4,17,36,52,277,33,40,84,353,38,41,58,082,,49,32,274,*77
$GPGSV,5,5,17,50,10,089,*4A
$GLGSV,3,1,09,65,27,279,32,66,06,234,37,72,24,341,31,74,14,106,10*65
$GLGSV,3,2,09,75,22,157,24,76,04,211,14,85,36,142,17,86,69,032,34*66
$GLGSV,3,3,09,87,29,348,35*51
$GNGLL,0419.74060,S,05539.71176,E,132713.00,A,A*6A
$GNRMC,132714.00,A,0419.74063,S,05539.71174,E,0.095,,200525,,,A*79
$GNVTG,,T,,M,0.095,N,0.175,K,A*32
$GNGGA,132714.00,0419.74063,S,05539.71174,E,1,12,0.61,8.1,M,-47.6,M,,*7C
$GNGSA,A,3,32,18,10,28,26,16,27,31,40,08,04,02,1.11,0.61,0.93*1D
$GNGSA,A,3,85,72,75,86,65,87,66,,,,,,1.11,0.61,0.93*18
$GPGSV,5,1,17,02,06,333,39,04,10,228,26,08,25,299,32,10,13,027,41*70
$GPGSV,5,2,17,16,24,213,27,18,27,118,18,23,01,065,,26,29,183,38*7C
$GPGSV,5,3,17,27,56,266,38,28,60,099,31,31,57,163,37,32,31,008,26*77
$GPGSV,5,4,17,36,52,277,32,40,84,353,39,41,58,082,,49,32,274,*77
$GPGSV,5,5,17,50,10,089,*4A
$GLGSV,3,1,09,65,27,279,32,66,06,234,37,72,24,341,32,74,14,106,11*67
$GLGSV,3,2,09,75,22,157,24,76,04,211,09,85,36,142,16,86,69,032,34*6B
$GLGSV,3,3,09,87,29,348,32*56
$GNGLL,0419.74063,S,05539.71174,E,132714.00,A,A*6C
$GNRMC,132715.00,A,0419.74059,S,05539.71172,E,0.146,,200525,,,A*78
$GNVTG,,T,,M,0.146,N,0.271,K,A*3A
$GNGGA,132715.00,0419.74059,S,05539.71172,E,1,12,0.61,8.1,M,-47.6,M,,*72
$GNGSA,A,3,32,18,10,28,26,16,27,31,40,08,04,02,1.11,0.61,0.93*1D
$GNGSA,A,3,85,72,75,86,65,87,66,,,,,,1.11,0.61,0.93*18
$GPGSV,5,1,17,02,06,333,39,04,10,228,25,08,25,299,31,10,13,027,40*71
$GPGSV,5,2,17,16,24,213,28,18,27,118,20,23,01,065,,26,29,183,39*79
$GPGSV,5,3,17,27,56,266,39,28,60,099,34,31,57,163,40,32,31,008,32*76
$GPGSV,5,4,17,36,52,277,32,40,84,353,39,41,58,082,,49,32,274,*77
$GPGSV,5,5,17,50,10,089,*4A
$GLGSV,3,1,09,65,27,279,33,66,07,235,36,72,24,341,32,74,14,106,11*67
$GLGSV,3,2,09,75,22,157,27,76,04,211,12,85,36,142,21,86,69,032,34*66
$GLGSV,3,3,09,87,29,348,32*56
$GNGLL,0419.74059,S,05539.71172,E,132715.00,A,A*62
$GNRMC,132716.00,A,0419.74056,S,05539.71170,E,0.031,,200525,,,A*77
$GNVTG,,T,,M,0.031,N,0.058,K,A*32
$GNGGA,132716.00,0419.74056,S,05539.71170,E,1,12,0.61,8.1,M,-47.6,M,,*7C
$GNGSA,A,3,32,18,10,28,26,16,27,31,40,08,04,02,1.11,0.61,0.93*1D
$GNGSA,A,3,85,72,75,86,65,87,66,,,,,,1.11,0.61,0.93*18
$GPGSV,5,1,17,02,06,333,41,04,10,228,23,08,25,299,32,10,13,027,43*78
$GPGSV,5,2,17,16,24,213,29,18,27,118,20,23,01,065,,26,29,183,39*78
$GPGSV,5,3,17,27,56,266,40,28,60,099,32,31,57,163,41,32,31,008,33*7E
$GPGSV,5,4,17,36,52,277,33,40,84,353,41,41,58,082,,49,32,274,*79
$GPGSV,5,5,17,50,10,089,*4A
$GLGSV,3,1,09,65,27,279,33,66,07,235,35,72,24,341,31,74,14,106,10*66
$GLGSV,3,2,09,75,22,157,28,76,04,211,13,85,36,142,23,86,69,032,30*6E
$GLGSV,3,3,09,87,29,348,36*52
$GNGLL,0419.74056,S,05539.71170,E,132716.00,A,A*6C
$GNRMC,132717.00,A,0419.74056,S,05539.71168,E,0.079,,200525,,,A*73
$GNVTG,,T,,M,0.079,N,0.146,K,A*30
$GNGGA,132717.00,0419.74056,S,05539.71168,E,1,12,0.61,8.1,M,-47.6,M,,*74
$GNGSA,A,3,32,18,10,28,26,16,27,31,40,08,04,02,1.11,0.61,0.93*1D
$GNGSA,A,3,85,72,75,86,65,87,66,,,,,,1.11,0.61,0.93*18
$GPGSV,5,1,17,02,06,333,37,04,10,228,22,08,25,299,32,10,13,027,40*7B
$GPGSV,5,2,17,16,24,213,28,18,27,118,19,23,01,065,,26,29,183,39*73
$GPGSV,5,3,17,27,56,266,40,28,60,099,35,31,57,163,39,32,31,008,27*73
$GPGSV,5,4,17,36,52,277,33,40,84,353,41,41,58,082,,49,32,274,*79
$GPGSV,5,5,17,50,10,089,*4A
$GLGSV,3,1,09,65,27,279,32,66,07,235,36,72,24,341,30,74,14,106,04*60
$GLGSV,3,2,09,75,22,157,27,76,04,211,10,85,36,142,22,86,69,032,29*6B
$GLGSV,3,3,09,87,29,348,32*56
$GNGLL,0419.74056,S,05539.71168,E,132717.00,A,A*64
$GNRMC,132718.00,A,0419.74054,S,05539.71166,E,0.129,,200525,,,A*74
$GNVTG,,T,,M,0.129,N,0.239,K,A*3F
$GNGGA,132718.00,0419.74054,S,05539.71166,E,1,12,0.61,8.1,M,-47.6,M,,*77
$GNGSA,A,3,32,18,10,28,26,16,27,31,40,08,04,02,1.11,0.61,0.93*1D
$GNGSA,A,3,85,72,75,86,65,87,66,,,,,,1.11,0.61,0.93*18
$GPGSV,5,1,17,02,06,333,41,04,10,228,22,08,25,299,32,10,13,027,42*78
$GPGSV,5,2,17,16,24,213,30,18,27,118,21,23,01,065,,26,29,183,40*7F
$GPGSV,5,3,17,27,56,266,41,28,60,099,34,31,57,163,41,32,31,008,33*79
$GPGSV,5,4,17,36,52,277,35,40,84,353,41,41,58,082,,49,32,274,*7F
$GPGSV,5,5,17,50,10,089,*4A
$GLGSV,3,1,09,65,27,279,32,66,07,235,36,72,24,341,31,74,14,106,08*6D
$GLGSV,3,2,09,75,22,157,26,76,04,211,14,85,36,142,21,86,69,032,28*6C
$GLGSV,3,3,09,87,29,348,30*54
$GNGLL,0419.74054,S,05539.71166,E,132718.00,A,A*67
$GNRMC,132719.00,A,0419.74053,S,05539.71166,E,0.124,,200525,,,A*7F
$GNVTG,,T,,M,0.124,N,0.230,K,A*3B
$GNGGA,132719.00,0419.74053,S,05539.71166,E,1,12,0.61,8.2,M,-47.6,M,,*72
$GNGSA,A,3,32,18,10,28,26,16,27,31,40,08,04,02,1.11,0.61,0.93*1D
$GNGSA,A,3,85,72,75,86,65,87,66,,,,,,1.11,0.61,0.93*18
$GPGSV,5,1,17,02,06,333,42,04,10,228,21,08,25,299,34,10,13,027,43*7F
$GPGSV,5,2,17,16,24,213,30,18,27,118,21,23,01,065,,26,29,183,39*71
$GPGSV,5,3,17,27,56,266,39,28,60,099,31,31,57,163,39,32,31,008,33*7C
$GPGSV,5,4,17,36,52,277,35,40,84,353,42,41,58,082,,49,32,274,*7C
$GPGSV,5,5,17,50,10,089,*4A
$GLGSV,3,1,09,65,27,279,33,66,07,235,36,72,24,341,33,74,14,106,10*67
$GLGSV,3,2,09,75,22,157,26,76,04,211,13,85,36,142,20,86,69,032,27*65
$GLGSV,3,3,09,87,29,348,31*55
$GNGLL,0419.74053,S,05539.71166,E,132719.00,A,A*61
$GNRMC,132720.00,A,0419.74054,S,05539.71166,E,0.023,,200525,,,A*74
$GNVTG,,T,,M,0.023,N,0.042,K,A*3A
$GNGGA,132720.00,0419.74054,S,05539.71166,E,1,12,0.61,8.2,M,-47.6,M,,*7F
$GNGSA,A,3,32,18,10,28,26,16,27,31,40,08,04,02,1.11,0.61,0.93*1D
$GNGSA,A,3,85,72,75,86,65,87,66,,,,,,1.11,0.61,0.93*18
$GPGSV,5,1,17,02,06,333,42,04,10,228,20,08,25,299,34,10,13,027,40*7D
$GPGSV,5,2,17,16,24,213,29,18,27,118,20,23,01,065,,26,29,183,37*76
$GPGSV,5,3,17,27,56,266,38,28,60,099,33,31,57,163,41,32,31,008,34*77
$GPGSV,5,4,17,36,52,277,32,40,84,353,40,41,58,082,,49,32,274,*79
$GPGSV,5,5,17,50,10,089,*4A
$GLGSV,3,1,09,65,27,279,33,66,07,235,35,72,24,341,33,74,14,106,10*64
$GLGSV,3,2,09,75,22,157,25,76,04,211,11,85,36,142,23,86,69,032,28*68
$GLGSV,3,3,09,87,29,348,31*55
$GNGLL,0419.74054,S,05539.71166,E,132720.00,A,A*6C
$GNRMC,132721.00,A,0419.74054,S,05539.71167,E,0.039,,200525,,,A*7F
$GNVTG,,T,,M,0.039,N,0.073,K,A*33
$GNGGA,132721.00,0419.74054,S,05539.71167,E,1,12,0.61,8.2,M,-47.6,M,,*7F
$GNGSA,A,3,32,18,10,28,26,16,27,31,40,08,04,02,1.11,0.61,0.93*1D
$GNGSA,A,3,85,72,75,86,65,87,66,,,,,,1.11,0.61,0.93*18
$GPGSV,5,1,17,02,06,333,41,04,10,228,21,08,25,299,35,10,13,027,42*7C
$GPGSV,5,2,17,16,24,213,30,18,27,118,21,23,01,065,,26,29,183,38*70
$GPGSV,5,3,17,27,56,266,41,28,60,099,32,31,57,163,40,32,31,008,33*7E
