$GNRMC,130718.00,A,0419.76964,S,05539.67108,E,0.047,,200525,,,D*7D
$GNVTG,,T,,M,0.047,N,0.087,K,D*34
$GNGGA,130718.00,0419.76964,S,05539.67108,E,2,12,0.75,6.1,M,-47.6,M,,0000*7A
$GNGSA,A,3,32,10,28,26,16,27,31,40,08,,,,1.40,0.75,1.18*11
$GNGSA,A,3,85,72,75,86,65,87,,,,,,,1.40,0.75,1.18*1B
$GPGSV,5,1,17,02,00,330,32,04,04,223,29,08,20,307,16,10,13,019,33*72
$GPGSV,5,2,17,16,24,222,35,18,30,107,,23,01,057,,26,28,192,28*7D
$GPGSV,5,3,17,27,54,283,36,28,59,120,34,31,49,172,27,32,39,005,39*79
$GPGSV,5,4,17,36,52,277,34,40,84,353,38,41,58,082,,49,32,274,31*72
$GPGSV,5,5,17,50,10,089,*4A
$GLGSV,3,1,10,65,28,267,27,66,03,226,24,71,03,013,26,72,31,332,20*6E
$GLGSV,3,2,10,74,14,116,09,75,19,167,11,76,01,220,08,85,44,131,17*66
$GLGSV,3,3,10,86,58,020,32,87,19,347,18*6A
$GNGLL,0419.76964,S,05539.67108,E,130718.00,A,D*67
$GNRMC,130719.00,A,0419.76963,S,05539.67110,E,0.009,,200525,,,D*78
$GNVTG,,T,,M,0.009,N,0.017,K,D*37
$GNGGA,130719.00,0419.76963,S,05539.67110,E,2,12,0.75,6.2,M,-47.6,M,,0000*76
$GNGSA,A,3,32,10,28,26,16,27,31,40,08,,,,1.40,0.75,1.18*11
$GNGSA,A,3,85,72,75,86,65,87,,,,,,,1.40,0.75,1.18*1B
$GPGSV,5,1,17,02,00,330,33,04,04,223,28,08,20,307,29,10,13,019,36*7B
$GPGSV,5,2,17,16,24,222,37,18,30,107,,23,01,057,,26,28,192,28*7F
$GPGSV,5,3,17,27,54,283,38,28,59,120,35,31,49,172,29,32,39,005,42*74
$GPGSV,5,4,17,36,52,277,36,40,84,353,41,41,58,082,,49,32,274,35*7A
$GPGSV,5,5,17,50,10,089,*4A
$GLGSV,3,1,10,65,28,267,33,66,03,226,22,71,03,013,26,72,31,332,16*68
$GLGSV,3,2,10,74,14,116,06,75,19,167,09,76,01,220,06,85,44,131,09*61
$GLGSV,3,3,10,86,58,020,37,87,19,347,13*64
$GNGLL,0419.76963,S,05539.67110,E,130719.00,A,D*68
$GNRMC,130720.00,A,0419.76961,S,05539.67108,E,0.025,,200525,,,D*77
$GNVTG,,T,,M,0.025,N,0.046,K,D*3D
$GNGGA,130720.00,0419.76961,S,05539.67108,E,2,12,0.81,6.3,M,-47.6,M,,0000*7D
$GNGSA,A,3,32,10,28,26,16,27,31,40,08,,,,1.56,0.81,1.33*14
$GNGSA,A,3,85,72,75,86,65,87,,,,,,,1.56,0.81,1.33*1E
$GPGSV,5,1,17,02,00,330,34,04,04,223,29,08,20,307,31,10,13,019,38*7A
$GPGSV,5,2,17,16,24,222,39,18,30,107,,23,01,057,,26,28,192,31*79
$GPGSV,5,3,17,27,54,283,39,28,59,120,35,31,49,172,34,32,39,005,43*78
$GPGSV,5,4,17,36,52,277,37,40,84,353,42,41,58,082,,49,32,274,35*78
$GPGSV,5,5,17,50,10,089,*4A
$GLGSV,3,1,10,65,28,267,36,66,03,226,24,71,03,014,33,72,31,332,17*69
$GLGSV,3,2,10,74,14,116,08,75,19,167,11,76,01,220,12,85,44,131,17*6C
$GLGSV,3,3,10,86,58,020,38,87,19,347,17*6F
$GNGLL,0419.76961,S,05539.67108,E,130720.00,A,D*69
$GNRMC,130721.00,A,0419.76963,S,05539.67113,E,0.020,,200525,,,D*7B
$GNVTG,,T,,M,0.020,N,0.038,K,D*31
$GNGGA,130721.00,0419.76963,S,05539.67113,E,2,12,0.75,6.5,M,-47.6,M,,0000*79
$GNGSA,A,3,32,10,28,26,16,27,31,40,08,,,,1.40,0.75,1.18*11
$GNGSA,A,3,85,72,75,86,65,87,,,,,,,1.40,0.75,1.18*1B
$GPGSV,5,1,17,02,00,330,35,04,04,223,30,08,20,307,34,10,13,019,40*79
$GPGSV,5,2,17,16,24,222,40,18,30,107,,23,01,057,,26,28,192,33*75
$GPGSV,5,3,17,27,54,283,40,28,59,120,37,31,49,172,34,32,39,005,44*73
$GPGSV,5,4,17,36,52,277,39,40,84,353,44,41,58,082,,49,32,274,36*73
$GPGSV,5,5,17,50,10,089,*4A
$GLGSV,3,1,10,65,28,267,34,66,03,226,26,71,03,014,33,72,31,333,14*6B
$GLGSV,3,2,10,74,14,116,08,75,19,167,09,76,01,220,10,85,44,131,20*63
$GLGSV,3,3,10,86,58,020,37,87,19,347,18*6F
$GNGLL,0419.76963,S,05539.67113,E,130721.00,A,D*60
$GNRMC,130722.00,A,0419.76961,S,05539.67114,E,0.183,,200525,,,D*75
$GNVTG,,T,,M,0.183,N,0.339,K,D*3B
$GNGGA,130722.00,0419.76961,S,05539.67114,E,2,12,0.75,6.8,M,-47.6,M,,0000*72
$GNGSA,A,3,32,10,28,26,16,27,31,40,08,,,,1.40,0.75,1.18*11
$GNGSA,A,3,85,72,75,86,65,87,,,,,,,1.40,0.75,1.18*1B
$GPGSV,5,1,17,02,00,330,32,04,04,223,25,08,20,307,35,10,13,019,38*74
$GPGSV,5,2,17,16,24,222,38,18,30,107,,23,01,057,,26,28,192,32*7B
$GPGSV,5,3,17,27,54,283,38,28,59,120,35,31,49,172,33,32,39,005,43*7E
$GPGSV,5,4,17,36,52,277,37,40,84,353,42,41,58,082,,49,32,274,34*79
$GPGSV,5,5,17,50,10,089,*4A
$GLGSV,3,1,10,65,28,267,34,66,03,226,26,71,03,014,34,72,31,333,18*60
$GLGSV,3,2,10,74,14,116,09,75,19,167,10,76,01,220,11,85,44,131,18*60
$GLGSV,3,3,10,86,58,020,37,87,19,347,17*60
$GNGLL,0419.76961,S,05539.67114,E,130722.00,A,D*66
$GNRMC,130723.00,A,0419.76961,S,05539.67117,E,0.027,,200525,,,D*78
$GNVTG,,T,,M,0.027,N,0.049,K,D*30
$GNGGA,130723.00,0419.76961,S,05539.67117,E,2,12,0.75,6.9,M,-47.6,M,,0000*71
$GNGSA,A,3,32,10,28,26,16,27,31,40,08,,,,1.40,0.75,1.18*11
$GNGSA,A,3,85,72,75,86,65,87,,,,,,,1.40,0.75,1.18*1B
$GPGSV,5,1,17,02,00,330,33,04,04,223,28,08,20,307,35,10,13,019,38*78
$GPGSV,5,2,17,16,24,222,39,18,30,107,,23,01,057,,26,28,192,32*7A
$GPGSV,5,3,17,27,54,283,39,28,59,120,36,31,49,172,34,32,39,005,42*7A
$GPGSV,5,4,17,36,52,277,37,40,84,353,42,41,58,082,,49,32,274,35*78
$GPGSV,5,5,17,50,10,089,*4A
$GLGSV,3,1,10,65,28,267,32,66,03,226,25,71,03,014,34,72,31,333,19*64
$GLGSV,3,2,10,74,14,116,07,75,19,167,11,76,01,220,12,85,44,131,19*6D
$GLGSV,3,3,10,86,58,020,34,87,19,347,18*6C
$GNGLL,0419.76961,S,05539.67117,E,130723.00,A,D*64
$GNRMC,130724.00,A,0419.76960,S,05539.67116,E,0.018,,200525,,,D*73
$GNVTG,,T,,M,0.018,N,0.034,K,D*36
$GNGGA,130724.00,0419.76960,S,05539.67116,E,2,12,0.75,7.0,M,-47.6,M,,0000*7E
$GNGSA,A,3,32,10,28,26,16,27,31,40,08,,,,1.40,0.75,1.18*11
$GNGSA,A,3,85,72,75,86,65,87,,,,,,,1.40,0.75,1.18*1B
$GPGSV,5,1,17,02,00,330,33,04,04,223,29,08,20,307,31,10,13,019,37*72
$GPGSV,5,2,17,16,24,222,37,18,30,107,,23,01,057,,26,28,192,31*77
$GPGSV,5,3,17,27,54,283,40,28,59,120,33,31,49,172,28,32,39,005,43*7D
$GPGSV,5,4,17,36,52,277,39,40,84,353,41,41,58,082,,49,32,274,35*75
$GPGSV,5,5,17,50,10,089,*4A
$GLGSV,3,1,10,65,28,267,34,66,03,226,26,71,03,014,32,72,31,333,20*6D
$GLGSV,3,2,10,74,14,116,11,75,19,167,10,76,01,220,09,85,44,131,20*6B
$GLGSV,3,3,10,86,58,020,34,87,19,347,21*66
$GNGLL,0419.76960,S,05539.67116,E,130724.00,A,D*63
$GNRMC,130725.00,A,0419.76959,S,05539.67115,E,0.038,,200525,,,D*79
$GNVTG,,T,,M,0.038,N,0.071,K,D*35
$GNGGA,130725.00,0419.76959,S,05539.67115,E,2,12,0.75,7.2,M,-47.6,M,,0000*74
$GNGSA,A,3,32,10,28,26,16,27,31,40,08,,,,1.40,0.75,1.18*11
$GNGSA,A,3,85,72,75,86,65,87,,,,,,,1.40,0.75,1.18*1B
$GPGSV,5,1,17,02,00,330,33,04,04,223,30,08,20,307,34,10,13,019,37*7F
$GPGSV,5,2,17,16,24,222,39,18,30,107,,23,01,057,,26,28,192,30*78
$GPGSV,5,3,17,27,54,283,42,28,59,120,36,31,49,172,29,32,39,005,44*7C
$GPGSV,5,4,17,36,52,277,41,40,84,353,44,41,58,082,,49,32,274,35*7F
$GPGSV,5,5,17,50,10,089,*4A
$GLGSV,3,1,10,65,28,267,37,66,03,226,25,71,03,014,35,72,31,333,18*61
$GLGSV,3,2,10,74,14,116,11,75,19,167,09,76,01,219,07,85,44,131,22*65
$GLGSV,3,3,10,86,58,020,38,87,19,347,22*69
$GNGLL,0419.76959,S,05539.67115,E,130725.00,A,D*6B
$GNRMC,130726.00,A,0419.76959,S,05539.67116,E,0.036,,200525,,,D*77
$GNVTG,,T,,M,0.036,N,0.066,K,D*3D
$GNGGA,130726.00,0419.76959,S,05539.67116,E,2,12,0.81,7.2,M,-47.6,M,,0000*7F
$GNGSA,A,3,32,10,28,26,16,27,31,40,08,,,,1.56,0.81,1.33*14
$GNGSA,A,3,85,72,75,86,65,87,,,,,,,1.56,0.81,1.33*1E
$GPGSV,5,1,17,02,00,330,33,04,04,223,30,08,20,307,34,10,13,019,34*7C
$GPGSV,5,2,17,16,24,222,37,18,30,107,,23,01,057,,26,28,192,30*76
$GPGSV,5,3,17,27,54,283,41,28,59,120,35,31,49,172,30,32,39,005,43*73
$GPGSV,5,4,17,36,52,277,39,40,84,353,42,41,58,082,,49,32,274,35*76
$GPGSV,5,5,17,50,10,089,*4A
$GLGSV,3,1,10,65,28,267,33,66,03,226,25,71,03,014,31,72,31,333,17*6E
$GLGSV,3,2,10,74,14,116,10,75,19,167,10,76,01,219,12,85,44,131,24*6E
$GLGSV,3,3,10,86,58,020,33,87,19,347,23*63
$GNGLL,0419.76959,S,05539.67116,E,130726.00,A,D*6B
$GNRMC,130727.00,A,0419.76958,S,05539.67117,E,0.022,,200525,,,D*73
$GNVTG,,T,,M,0.022,N,0.040,K,D*3C
$GNGGA,130727.00,0419.76958,S,05539.67117,E,2,12,0.75,7.1,M,-47.6,M,,0000*76
$GNGSA,A,3,32,10,28,26,16,27,31,40,08,,,,1.40,0.75,1.18*11
$GNGSA,A,3,85,72,75,86,65,87,,,,,,,1.40,0.75,1.18*1B
$GPGSV,5,1,17,02,00,330,34,04,04,223,30,08,20,307,34,10,13,019,35*7A
$GPGSV,5,2,17,16,24,222,38,18,30,107,,23,01,057,,26,28,192,30*79
$GPGSV,5,3,17,27,54,283,41,28,59,120,34,31,49,172,30,32,39,005,43*72
$GPGSV,5,4,17,36,52,277,38,40,84,353,42,41,58,082,,49,32,274,34*76
$GPGSV,5,5,17,50,10,089,*4A
$GLGSV,3,1,10,65,28,267,36,66,03,226,25,71,03,014,34,72,31,333,16*6F
$GLGSV,3,2,10,74,14,116,07,75,19,167,15,76,01,219,09,85,44,131,24*67
$GLGSV,3,3,10,86,58,020,37,87,19,347,22*66
$GNGLL,0419.76958,S,05539.67117,E,130727.00,A,D*6A
$GNRMC,130728.00,A,0419.76958,S,05539.67119,E,0.064,,200525,,,D*70
$GNVTG,,T,,M,0.064,N,0.118,K,D*32
$GNGGA,130728.00,0419.76958,S,05539.67119,E,2,12,0.75,7.2,M,-47.6,M,,0000*74
$GNGSA,A,3,32,10,28,26,16,27,31,40,08,,,,1.40,0.75,1.18*11
$GNGSA,A,3,85,72,75,86,65,87,,,,,,,1.40,0.75,1.18*1B
$GPGSV,5,1,17,02,00,330,34,04,04,223,30,08,20,307,35,10,13,019,35*7B
$GPGSV,5,2,17,16,24,222,38,18,30,107,,23,01,057,,26,28,192,31*78
$GPGSV,5,3,17,27,54,283,39,28,59,120,35,31,49,172,31,32,39,005,42*7C
$GPGSV,5,4,17,36,52,277,39,40,84,353,42,41,58,082,,49,32,274,35*76
$GPGSV,5,5,17,50,10,089,*4A
$GLGSV,3,1,10,65,28,267,38,66,03,226,26,71,03,014,34,72,31,333,17*63
$GLGSV,3,2,10,74,14,116,11,75,19,167,10,76,01,219,11,85,44,131,26*6E
$GLGSV,3,3,10,86,58,020,37,87,19,347,24*60
$GNGLL,0419.76958,S,05539.67119,E,130728.00,A,D*6B
$GNRMC,130729.00,A,0419.76959,S,05539.67121,E,0.035,,200525,,,D*7F
$GNVTG,,T,,M,0.035,N,0.064,K,D*3C
$GNGGA,130729.00,0419.76959,S,05539.67121,E,2,12,0.75,7.2,M,-47.6,M,,0000*7F
$GNGSA,A,3,32,10,28,26,16,27,31,40,08,,,,1.40,0.75,1.18*11
$GNGSA,A,3,85,72,75,86,65,87,,,,,,,1.40,0.75,1.18*1B
$GPGSV,5,1,17,02,00,330,31,04,04,223,29,08,20,307,36,10,13,019,36*76
$GPGSV,5,2,17,16,24,222,37,18,30,107,,23,01,057,,26,28,192,31*77
$GPGSV,5,3,17,27,54,283,40,28,59,120,35,31,49,172,31,32,39,005,41*71
$GPGSV,5,4,17,36,52,277,37,40,84,353,41,41,58,082,,49,32,274,33*7D
$GPGSV,5,5,17,50,10,089,*4A
$GLGSV,3,1,10,65,28,267,35,66,03,226,24,71,03,014,34,72,31,333,17*6C
$GLGSV,3,2,10,74,14,116,07,75,19,167,11,76,01,219,07,85,44,131,25*6C
$GLGSV,3,3,10,86,58,020,38,87,19,347,24*6F
$GNGLL,0419.76959,S,05539.67121,E,130729.00,A,D*60
$GNRMC,130730.00,A,0419.76959,S,05539.67125,E,0.049,,200525,,,D*78
$GNVTG,,T,,M,0.049,N,0.091,K,D*3D
$GNGGA,130730.00,0419.76959,S,05539.67125,E,2,12,0.77,7.3,M,-47.6,M,,0000*70
$GNGSA,A,3,32,10,28,26,16,27,31,40,08,,,,1.45,0.77,1.23*1E
$GNGSA,A,3,85,72,75,86,65,87,,,,,,,1.45,0.77,1.23*14
$GPGSV,5,1,17,02,00,330,32,04,04,223,28,08,20,307,35,10,13,019,37*76
$GPGSV,5,2,17,16,24,222,39,18,30,107,,23,01,057,,26,28,192,31*79
$GPGSV,5,3,17,27,54,283,40,28,59,120,36,31,49,172,33,32,39,005,42*73
$GPGSV,5,4,17,36,52,277,39,40,84,353,41,41,58,082,,49,32,274,33*73
$GPGSV,5,5,17,50,10,089,*4A
$GLGSV,3,1,10,65,28,267,33,66,03,226,23,71,03,014,31,72,31,333,16*69
$GLGSV,3,2,10,74,14,116,07,75,19,167,11,76,01,219,10,85,44,131,22*6D
$GLGSV,3,3,10,86,58,020,36,87,19,347,25*60
$GNGLL,0419.76959,S,05539.67125,E,130730.00,A,D*6C
$GNRMC,130731.00,A,0419.76960,S,05539.67128,E,0.035,,200525,,,D*75
$GNVTG,,T,,M,0.035,N,0.064,K,D*3C
$GNGGA,130731.00,0419.76960,S,05539.67128,E,2,12,0.75,7.3,M,-47.6,M,,0000*74
$GNGSA,A,3,32,10,28,26,16,27,31,40,08,,,,1.40,0.75,1.18*11
$GNGSA,A,3,85,72,75,86,65,87,,,,,,,1.40,0.75,1.18*1B
$GPGSV,5,1,17,02,00,330,36,04,04,223,31,08,20,307,35,10,13,019,39*74
$GPGSV,5,2,17,16,24,222,38,18,30,107,,23,01,057,,26,28,192,32*7B
$GPGSV,5,3,17,27,54,283,42,28,59,120,37,31,49,172,33,32,39,005,44*76
$GPGSV,5,4,17,36,52,277,39,40,84,353,43,41,58,082,,49,32,274,37*75
$GPGSV,5,5,17,50,10,089,*4A
$GLGSV,3,1,10,65,28,267,34,66,03,226,23,71,03,014,31,72,31,333,17*6F
$GLGSV,3,2,10,74,14,116,07,75,19,167,16,76,01,219,09,85,44,131,22*62
$GLGSV,3,3,10,86,58,020,36,87,19,347,26*63
$GNGLL,0419.76960,S,05539.67128,E,130731.00,A,D*6A
$GNRMC,130732.00,A,0419.76958,S,05539.67129,E,0.082,,200525,,,D*70
$GNVTG,,T,,M,0.082,N,0.152,K,D*34
$GNGGA,130732.00,0419.76958,S,05539.67129,E,2,12,0.75,7.3,M,-47.6,M,,0000*7D
$GNGSA,A,3,32,10,28,26,16,27,31,40,08,,,,1.40,0.75,1.18*11
$GNGSA,A,3,85,72,75,86,65,87,,,,,,,1.40,0.75,1.18*1B
$GPGSV,5,1,17,02,00,330,35,04,04,223,30,08,20,307,36,10,13,019,39*75
$GPGSV,5,2,17,16,24,222,39,18,30,107,,23,01,057,,26,28,192,33*7B
$GPGSV,5,3,17,27,54,283,41,28,59,120,38,31,49,172,34,32,39,005,44*7D
$GPGSV,5,4,17,36,52,277,39,40,84,353,43,41,58,082,,49,32,274,34*76
$GPGSV,5,5,17,50,10,089,*4A
$GLGSV,3,1,10,65,28,267,35,66,03,226,23,71,03,014,32,72,31,333,18*62
$GLGSV,3,2,10,74,14,116,07,75,19,167,11,76,01,219,08,85,44,131,21*67
$GLGSV,3,3,10,86,58,020,37,87,19,347,26*62
$GNGLL,0419.76958,S,05539.67129,E,130732.00,A,D*63
$GNRMC,130733.00,A,0419.76957,S,05539.67131,E,0.016,,200525,,,D*7A
$GNVTG,,T,,M,0.016,N,0.029,K,D*34
$GNGGA,130733.00,0419.76957,S,05539.67131,E,2,12,0.75,7.3,M,-47.6,M,,0000*7A
$GNGSA,A,3,32,10,28,26,16,27,31,40,08,,,,1.40,0.75,1.18*11
$GNGSA,A,3,85,72,75,86,65,87,,,,,,,1.40,0.75,1.18*1B
$GPGSV,5,1,17,02,00,330,34,04,04,223,29,08,20,307,36,10,13,019,37*72
$GPGSV,5,2,17,16,24,222,38,18,30,107,,23,01,057,,26,28,192,32*7B
$GPGSV,5,3,17,27,54,283,40,28,59,120,37,31,49,172,34,32,39,005,43*74
$GPGSV,5,4,17,36,52,277,37,40,84,353,41,41,58,082,,49,32,274,34*7A
$GPGSV,5,5,17,50,10,089,*4A
$GLGSV,3,1,10,65,28,267,34,66,03,226,23,71,03,014,32,72,31,333,18*63
$GLGSV,3,2,10,74,14,116,10,75,19,167,10,76,01,219,11,85,44,131,21*68
$GLGSV,3,3,10,86,58,020,37,87,19,347,25*61
$GNGLL,0419.76957,S,05539.67131,E,130733.00,A,D*64
$GNRMC,130734.00,A,0419.76956,S,05539.67131,E,0.022,,200525,,,D*7B
$GNVTG,,T,,M,0.022,N,0.040,K,D*3C
$GNGGA,130734.00,0419.76956,S,05539.67131,E,2,12,0.75,7.2,M,-47.6,M,,0000*7D
$GNGSA,A,3,32,10,28,26,16,27,31,40,08,,,,1.40,0.75,1.18*11
$GNGSA,A,3,85,72,75,86,65,87,,,,,,,1.40,0.75,1.18*1B
$GPGSV,5,1,17,02,00,330,33,04,04,223,28,08,20,307,33,10,13,019,36*70
$GPGSV,5,2,17,16,24,222,38,18,30,107,,23,01,057,,26,28,192,31*78
$GPGSV,5,3,17,27,54,283,40,28,59,120,37,31,49,172,34,32,39,005,41*76
$GPGSV,5,4,17,36,52,277,37,40,84,353,41,41,58,082,,49,32,274,34*7A
$GPGSV,5,5,17,50,10,089,*4A
$GLGSV,3,1,10,65,28,267,35,66,03,226,22,71,03,014,32,72,31,333,17*6C
$GLGSV,3,2,10,74,14,116,06,75,19,167,12,76,01,219,11,85,44,132,21*6E
$GLGSV,3,3,10,86,58,020,37,87,19,347,24*60
$GNGLL,0419.76956,S,05539.67131,E,130734.00,A,D*62
$GNRMC,130735.00,A,0419.76956,S,05539.67134,E,0.016,,200525,,,D*78
$GNVTG,,T,,M,0.016,N,0.030,K,D*3C
$GNGGA,130735.00,0419.76956,S,05539.67134,E,2,12,0.81,7.2,M,-47.6,M,,0000*72
$GNGSA,A,3,32,10,28,26,16,27,31,40,08,,,,1.55,0.81,1.33*17
$GNGSA,A,3,85,72,75,86,65,87,,,,,,,1.55,0.81,1.33*1D
$GPGSV,5,1,17,02,00,330,32,04,04,223,27,08,20,307,34,10,13,019,37*78
$GPGSV,5,2,17,16,24,222,37,18,30,107,,23,01,057,,26,28,192,31*77
$GPGSV,5,3,17,27,54,283,40,28,59,120,36,31,49,172,34,32,39,005,42*74
$GPGSV,5,4,17,36,52,277,37,40,84,353,41,41,58,082,,49,32,274,33*7D
$GPGSV,5,5,17,50,10,089,*4A
$GLGSV,3,1,10,65,28,267,32,66,03,226,19,71,03,014,30,72,31,333,15*63
$GLGSV,3,2,10,74,14,116,06,75,19,167,08,76,01,219,07,85,44,132,20*63
$GLGSV,3,3,10,86,59,021,35,87,19,347,25*63
$GNGLL,0419.76956,S,05539.67134,E,130735.00,A,D*66
$GNRMC,130736.00,A,0419.76955,S,05539.67135,E,0.034,,200525,,,D*79
$GNVTG,,T,,M,0.034,N,0.064,K,D*3D
$GNGGA,130736.00,0419.76955,S,05539.67135,E,2,12,0.76,7.1,M,-47.6,M,,0000*78
$GNGSA,A,3,32,10,28,26,16,27,31,40,08,,,,1.41,0.76,1.18*13
$GNGSA,A,3,85,72,75,86,65,87,,,,,,,1.41,0.76,1.18*19
$GPGSV,5,1,17,02,00,330,31,04,04,223,27,08,20,307,34,10,13,019,37*7B
$GPGSV,5,2,17,16,24,222,38,18,30,107,,23,01,057,,26,28,192,31*78
$GPGSV,5,3,17,27,54,283,40,28,59,120,37,31,49,172,34,32,39,005,42*75
$GPGSV,5,4,17,36,52,277,37,40,84,353,42,41,58,082,,49,32,274,34*79
$GPGSV,5,5,17,50,10,089,*4A
$GLGSV,3,1,10,65,28,267,32,66,03,226,18,71,03,014,30,72,31,333,11*66
$GLGSV,3,2,10,74,14,116,07,75,19,167,09,76,01,219,08,85,44,132,20*6C
$GLGSV,3,3,10,86,59,021,36,87,19,347,23*66
$GNGLL,0419.76955,S,05539.67135,E,130736.00,A,D*67
$GNRMC,130737.00,A,0419.76953,S,05539.67135,E,0.058,,200525,,,D*74
$GNVTG,,T,,M,0.058,N,0.108,K,D*3C
$GNGGA,130737.00,0419.76953,S,05539.67135,E,2,12,0.76,7.0,M,-47.6,M,,0000*7E
$GNGSA,A,3,32,10,28,26,16,27,31,40,08,,,,1.41,0.76,1.18*13
$GNGSA,A,3,85,72,75,86,65,87,,,,,,,1.41,0.76,1.18*19
$GPGSV,5,1,17,02,00,330,30,04,04,223,27,08,20,307,30,10,13,019,37*7E
$GPGSV,5,2,17,16,24,222,37,18,30,107,,23,01,057,,26,28,192,30*76
$GPGSV,5,3,17,27,54,283,38,28,59,120,34,31,49,172,33,32,39,005,40*7C
$GPGSV,5,4,17,36,52,277,35,40,84,353,41,41,58,082,,49,32,274,34*78
$GPGSV,5,5,17,50,10,089,*4A
$GLGSV,3,1,10,65,28,267,32,66,03,226,19,71,03,014,30,72,31,333,15*63
$GLGSV,3,2,10,74,14,116,10,75,19,167,07,76,01,219,09,85,44,132,19*6F
$GLGSV,3,3,10,86,59,021,35,87,19,347,21*67
$GNGLL,0419.76953,S,05539.67135,E,130737.00,A,D*60
$GNRMC,130738.00,A,0419.76953,S,05539.67138,E,0.070,,200525,,,D*7C
$GNVTG,,T,,M,0.070,N,0.129,K,D*35
$GNGGA,130738.00,0419.76953,S,05539.67138,E,2,12,0.75,7.0,M,-47.6,M,,0000*7F
$GNGSA,A,3,32,10,28,26,16,27,31,40,08,,,,1.40,0.75,1.18*11
$GNGSA,A,3,85,72,75,86,65,87,,,,,,,1.40,0.75,1.18*1B
$GPGSV,5,1,17,02,00,330,30,04,04,223,27,08,20,307,31,10,13,019,34*7C
$GPGSV,5,2,17,16,24,222,35,18,30,107,,23,01,057,,26,28,192,28*7D
$GPGSV,5,3,17,27,54,283,38,28,59,120,33,31,49,172,28,32,39,005,39*7F
$GPGSV,5,4,17,36,52,277,36,40,84,353,39,41,58,082,,49,32,274,34*74
$GPGSV,5,5,17,50,10,089,*4A
$GLGSV,3,1,10,65,28,267,31,66,03,226,20,71,03,014,25,72,31,333,19*62
$GLGSV,3,2,10,74,14,116,08,75,19,167,07,76,01,219,09,85,44,132,19*66
$GLGSV,3,3,10,86,59,021,32,87,19,347,20*61
$GNGLL,0419.76953,S,05539.67138,E,130738.00,A,D*62
$GNRMC,130739.00,A,0419.76952,S,05539.67139,E,0.066,,200525,,,D*7A
$GNVTG,,T,,M,0.066,N,0.121,K,D*3A
$GNGGA,130739.00,0419.76952,S,05539.67139,E,2,12,0.76,6.9,M,-47.6,M,,0000*75
$GNGSA,A,3,32,10,28,26,16,27,31,40,08,,,,1.41,0.76,1.18*13
$GNGSA,A,3,85,72,75,86,65,87,,,,,,,1.41,0.76,1.18*19
$GPGSV,5,1,17,02,00,330,31,04,04,223,31,08,20,307,34,10,13,019,37*7C
$GPGSV,5,2,17,16,24,222,40,18,30,107,,23,01,057,,26,28,192,31*77
$GPGSV,5,3,17,27,54,283,42,28,59,120,38,31,49,172,36,32,39,005,42*7A
$GPGSV,5,4,17,36,52,277,38,40,84,353,43,41,58,082,,49,32,274,35*76
$GPGSV,5,5,17,50,10,089,*4A
$GLGSV,3,1,10,65,28,267,36,66,03,226,22,71,03,014,32,72,31,333,19*61
$GLGSV,3,2,10,74,14,116,09,75,19,167,07,76,01,219,09,85,44,132,20*6D
$GLGSV,3,3,10,86,59,021,37,87,19,347,18*6F
$GNGLL,0419.76952,S,05539.67139,E,130739.00,A,D*63
$GNRMC,130740.00,A,0419.76951,S,05539.67141,E,0.022,,200525,,,D*78
$GNVTG,,T,,M,0.022,N,0.041,K,D*3D
$GNGGA,130740.00,0419.76951,S,05539.67141,E,2,12,0.76,6.9,M,-47.6,M,,0000*77
$GNGSA,A,3,32,10,28,26,16,27,31,40,08,,,,1.41,0.76,1.18*13
$GNGSA,A,3,85,72,75,86,65,87,,,,,,,1.41,0.76,1.18*19
$GPGSV,5,1,17,02,00,330,30,04,04,223,30,08,20,307,32,10,13,019,38*75
$GPGSV,5,2,17,16,24,222,38,18,30,107,,23,01,057,,26,28,192,31*78
$GPGSV,5,3,17,27,54,283,40,28,59,120,36,31,49,172,34,32,39,005,41*77
$GPGSV,5,4,17,36,52,277,38,40,84,353,42,41,58,082,,49,32,274,36*74
$GPGSV,5,5,17,50,10,089,*4A
$GLGSV,3,1,10,65,28,267,33,66,03,226,23,71,03,014,28,72,31,333,18*6F
$GLGSV,3,2,10,74,14,116,08,75,19,167,07,76,01,219,06,85,44,132,19*69
$GLGSV,3,3,10,86,59,021,37,87,19,347,20*64
$GNGLL,0419.76951,S,05539.67141,E,130740.00,A,D*61
$GNRMC,130741.00,A,0419.76950,S,05539.67143,E,0.025,,200525,,,D*7D
$GNVTG,,T,,M,0.025,N,0.046,K,D*3D
$GNGGA,130741.00,0419.76950,S,05539.67143,E,2,12,0.83,6.9,M,-47.6,M,,0000*7F
$GNGSA,A,3,32,10,28,26,16,27,31,40,08,,,,1.56,0.83,1.33*16
$GNGSA,A,3,85,72,75,86,65,87,,,,,,,1.56,0.83,1.33*1C
$GPGSV,5,1,17,02,00,330,30,04,04,223,30,08,20,307,33,10,13,019,36*7A
$GPGSV,5,2,17,16,24,222,38,18,30,107,,23,01,057,,26,28,192,31*78
$GPGSV,5,3,17,27,54,283,40,28,59,120,36,31,49,172,34,32,39,005,39*78
$GPGSV,5,4,17,36,52,277,38,40,84,353,42,41,58,082,,49,32,274,36*74
$GPGSV,5,5,17,50,10,089,*4A
$GLGSV,3,1,10,65,28,267,31,66,03,226,24,71,03,014,27,72,31,333,20*6E
$GLGSV,3,2,10,74,14,116,08,75,19,167,10,76,01,219,15,85,44,132,20*67
$GLGSV,3,3,10,86,59,021,34,87,19,347,22*65
$GNGLL,0419.76950,S,05539.67143,E,130741.00,A,D*63
$GNRMC,130742.00,A,0419.76949,S,05539.67144,E,0.015,,200525,,,D*72
$GNVTG,,T,,M,0.015,N,0.028,K,D*36
$GNGGA,130742.00,0419.76949,S,05539.67144,E,2,12,0.75,6.8,M,-47.6,M,,0000*7B
$GNGSA,A,3,32,10,28,26,16,27,31,40,08,,,,1.40,0.75,1.18*11
$GNGSA,A,3,85,72,75,86,65,87,,,,,,,1.40,0.75,1.18*1B
$GPGSV,5,1,17,02,00,330,30,04,04,223,29,08,20,307,33,10,13,019,36*72
$GPGSV,5,2,17,16,24,222,38,18,30,107,,23,01,057,,26,28,192,31*78
$GPGSV,5,3,17,27,54,283,40,28,59,120,37,31,49,172,35,32,39,005,41*77
$GPGSV,5,4,17,36,52,277,38,40,84,353,43,41,58,082,,49,32,274,36*75
$GPGSV,5,5,17,50,10,089,*4A
$GLGSV,3,1,10,65,28,267,38,66,03,226,25,71,03,014,29,72,31,333,20*68
$GLGSV,3,2,10,74,14,116,08,75,19,167,08,76,01,219,10,85,44,132,19*61
$GLGSV,3,3,10,86,59,021,39,87,19,347,21*6B
$GNGLL,0419.76949,S,05539.67144,E,130742.00,A,D*6F
$GNRMC,130743.00,A,0419.76950,S,05539.67148,E,0.024,,200525,,,D*75
$GNVTG,,T,,M,0.024,N,0.044,K,D*3E
$GNGGA,130743.00,0419.76950,S,05539.67148,E,2,12,0.81,6.7,M,-47.6,M,,0000*7A
$GNGSA,A,3,32,10,28,26,16,27,31,40,08,,,,1.55,0.81,1.33*17
$GNGSA,A,3,85,72,86,65,87,,,,,,,,1.55,0.81,1.33*1F
$GPGSV,5,1,17,02,00,330,30,04,04,223,29,08,20,307,34,10,13,019,36*75
$GPGSV,5,2,17,16,24,222,37,18,30,107,,23,01,057,,26,28,192,30*76
$GPGSV,5,3,17,27,54,283,39,28,59,120,35,31,49,172,34,32,39,005,39*75
$GPGSV,5,4,17,36,52,277,36,40,84,353,41,41,58,082,,49,32,274,32*7D
$GPGSV,5,5,17,50,10,089,*4A
$GLGSV,3,1,10,65,28,267,32,66,03,226,23,71,03,014,28,72,31,333,20*65
$GLGSV,3,2,10,74,14,116,10,75,19,167,06,76,01,219,10,85,44,132,16*69
$GLGSV,3,3,10,86,59,021,30,87,19,347,19*69
$GNGLL,0419.76950,S,05539.67148,E,130743.00,A,D*6A
$GNRMC,130744.00,A,0419.76951,S,05539.67152,E,0.043,,200525,,,D*79
$GNVTG,,T,,M,0.043,N,0.079,K,D*31
$GNGGA,130744.00,0419.76951,S,05539.67152,E,2,12,0.81,6.7,M,-47.6,M,,0000*77
$GNGSA,A,3,32,10,28,26,16,27,31,40,08,,,,1.55,0.81,1.33*17
$GNGSA,A,3,85,72,75,86,65,87,,,,,,,1.55,0.81,1.33*1D
$GPGSV,5,1,17,02,00,330,31,04,04,223,29,08,20,307,33,10,13,019,36*73
$GPGSV,5,2,17,16,24,222,37,18,30,107,,23,01,057,,26,28,192,29*7E
$GPGSV,5,3,17,27,54,283,39,28,59,120,35,31,49,172,34,32,39,005,39*75
$GPGSV,5,4,17,36,52,277,36,40,84,353,41,41,58,082,,49,32,274,35*7A
$GPGSV,5,5,17,50,10,089,*4A
$GLGSV,3,1,10,65,28,267,32,66,03,226,23,71,03,014,27,72,31,333,18*61
$GLGSV,3,2,10,74,14,116,10,75,19,167,10,76,01,219,10,85,44,132,14*6C
$GLGSV,3,3,10,86,59,021,33,87,19,347,18*6B
$GNGLL,0419.76951,S,05539.67152,E,130744.00,A,D*67
$GNRMC,130745.00,A,0419.76950,S,05539.67155,E,0.017,,200525,,,D*7F
$GNVTG,,T,,M,0.017,N,0.032,K,D*3F
$GNGGA,130745.00,0419.76950,S,05539.67155,E,2,12,0.66,6.7,M,-47.6,M,,0000*79
$GNGSA,A,3,32,10,28,26,16,27,31,40,08,,,,1.24,0.66,1.05*1D
$GNGSA,A,3,85,72,75,86,65,87,,,,,,,1.24,0.66,1.05*17
$GPGSV,5,1,17,02,00,330,30,04,04,223,28,08,20,306,33,10,13,019,37*73
$GPGSV,5,2,17,16,24,222,38,18,30,107,,23,01,057,,26,28,192,30*79
$GPGSV,5,3,17,27,54,283,39,28,59,120,34,31,49,172,34,32,39,005,41*7B
$GPGSV,5,4,17,36,52,277,36,40,84,353,42,41,58,082,,49,32,274,35*79
$GPGSV,5,5,17,50,10,089,*4A
$GLGSV,3,1,10,65,28,267,33,66,03,226,23,71,03,014,28,72,31,333,15*62
$GLGSV,3,2,10,74,14,116,08,75,19,167,09,76,01,219,11,85,44,132,13*6B
$GLGSV,3,3,10,86,59,021,36,87,19,347,19*6F
$GNGLL,0419.76950,S,05539.67155,E,130745.00,A,D*60
$GNRMC,130746.00,A,0419.76950,S,05539.67155,E,0.008,,200525,,,D*72
$GNVTG,,T,,M,0.008,N,0.015,K,D*34
$GNGGA,130746.00,0419.76950,S,05539.67155,E,2,12,0.66,6.7,M,-47.6,M,,0000*7A
$GNGSA,A,3,32,10,28,26,16,27,31,40,08,,,,1.24,0.66,1.05*1D
$GNGSA,A,3,85,72,75,86,65,87,,,,,,,1.24,0.66,1.05*17
$GPGSV,5,1,17,02,00,330,32,04,04,223,29,08,20,306,34,10,13,019,40*77
$GPGSV,5,2,17,16,24,222,40,18,30,107,,23,01,057,,26,28,192,31*77
$GPGSV,5,3,17,27,54,283,40,28,59,120,33,31,49,172,34,32,39,005,43*70
$GPGSV,5,4,17,36,52,277,37,40,84,353,44,41,58,082,,49,32,274,37*7C
$GPGSV,5,5,17,50,10,089,*4A
$GLGSV,3,1,10,65,28,267,36,66,03,226,26,71,03,014,31,72,31,333,15*6A
$GLGSV,3,2,10,74,14,116,11,75,19,167,11,76,01,219,14,85,44,132,16*6A
$GLGSV,3,3,10,86,59,021,38,87,19,347,28*63
$GNGLL,0419.76950,S,05539.67155,E,130746.00,A,D*63
$GNRMC,130747.00,A,0419.76949,S,05539.67157,E,0.031,,200525,,,D*73
$GNVTG,,T,,M,0.031,N,0.057,K,D*38
$GNGGA,130747.00,0419.76949,S,05539.67157,E,2,12,0.66,6.7,M,-47.6,M,,0000*71
$GNGSA,A,3,32,10,28,26,16,27,31,40,08,,,,1.24,0.66,1.05*1D
$GNGSA,A,3,85,72,75,86,65,87,,,,,,,1.24,0.66,1.05*17
$GPGSV,5,1,17,02,00,330,31,04,04,223,30,08,20,306,35,10,13,019,39*73
$GPGSV,5,2,17,16,24,222,39,18,30,107,,23,01,057,,26,28,192,32*7A
$GPGSV,5,3,17,27,54,283,41,28,59,120,35,31,49,172,35,32,39,005,42*77
$GPGSV,5,4,17,36,52,277,37,40,84,353,44,41,58,082,,49,32,274,36*7D
$GPGSV,5,5,17,50,10,089,*4A
$GLGSV,3,1,10,65,28,267,36,66,03,226,27,71,03,014,30,72,31,333,17*68
$GLGSV,3,2,10,74,14,116,08,75,19,167,17,76,01,219,14,85,44,132,18*6A
$GLGSV,3,3,10,86,59,021,37,87,19,347,28*6C
$GNGLL,0419.76949,S,05539.67157,E,130747.00,A,D*68
$GNRMC,130748.00,A,0419.76948,S,05539.67156,E,0.034,,200525,,,D*79
$GNVTG,,T,,M,0.034,N,0.062,K,D*3B
$GNGGA,130748.00,0419.76948,S,05539.67156,E,2,12,0.66,6.6,M,-47.6,M,,0000*7F
$GNGSA,A,3,32,10,28,26,16,27,31,40,08,,,,1.24,0.66,1.05*1D
$GNGSA,A,3,85,72,75,86,65,87,,,,,,,1.24,0.66,1.05*17
$GPGSV,5,1,17,02,00,330,31,04,04,223,31,08,20,306,35,10,13,019,38*73
$GPGSV,5,2,17,16,24,222,39,18,30,107,,23,01,057,,26,28,192,32*7A
$GPGSV,5,3,17,27,54,283,40,28,59,120,35,31,49,172,34,32,39,005,44*71
$GPGSV,5,4,17,36,52,277,38,40,84,353,44,41,58,082,,49,32,274,38*7C
$GPGSV,5,5,17,50,10,089,*4A
$GLGSV,3,1,10,65,28,267,37,66,03,226,27,71,03,014,32,72,31,333,18*64
$GLGSV,3,2,10,74,14,116,09,75,19,167,10,76,01,219,13,85,44,132,21*61
$GLGSV,3,3,10,86,59,021,34,87,19,347,27*60
$GNGLL,0419.76948,S,05539.67156,E,130748.00,A,D*67
$GNRMC,130749.00,A,0419.76947,S,05539.67154,E,0.017,,200525,,,D*74
$GNVTG,,T,,M,0.017,N,0.031,K,D*3C
$GNGGA,130749.00,0419.76947,S,05539.67154,E,2,12,0.66,6.6,M,-47.6,M,,0000*73
$GNGSA,A,3,32,10,28,26,16,27,31,40,08,,,,1.24,0.66,1.05*1D
$GNGSA,A,3,85,72,75,86,65,87,,,,,,,1.24,0.66,1.05*17
$GPGSV,5,1,17,02,00,330,31,04,04,223,31,08,20,306,34,10,13,019,38*72
$GPGSV,5,2,17,16,24,222,40,18,30,107,,23,01,057,,26,28,192,32*74
$GPGSV,5,3,17,27,54,283,40,28,59,120,36,31,49,172,35,32,39,005,44*73
$GPGSV,5,4,17,36,52,277,37,40,84,353,43,41,58,082,,49,32,274,37*7B
$GPGSV,5,5,17,50,10,089,*4A
$GLGSV,3,1,10,65,28,267,36,66,03,226,27,71,03,014,32,72,31,333,18*65
$GLGSV,3,2,10,74,14,116,05,75,19,167,13,76,01,219,16,85,44,132,22*68
$GLGSV,3,3,10,86,59,021,35,87,19,347,27*61
$GNGLL,0419.76947,S,05539.67154,E,130749.00,A,D*6B
$GNRMC,130750.00,A,0419.76946,S,05539.67154,E,0.059,,200525,,,D*77
$GNVTG,,T,,M,0.059,N,0.109,K,D*3C
$GNGGA,130750.00,0419.76946,S,05539.67154,E,2,12,0.69,6.6,M,-47.6,M,,0000*75
$GNGSA,A,3,32,10,28,26,16,27,31,40,08,,,,1.29,0.69,1.10*1B
$GNGSA,A,3,85,72,75,86,65,87,,,,,,,1.29,0.69,1.10*11
$GPGSV,5,1,17,02,00,330,35,04,04,223,30,08,20,306,34,10,13,019,37*78
$GPGSV,5,2,17,16,24,222,39,18,30,107,,23,01,057,,26,28,192,33*7B
$GPGSV,5,3,17,27,54,283,41,28,59,120,36,31,49,172,34,32,39,005,44*73
$GPGSV,5,4,17,36,52,277,39,40,84,353,43,41,58,082,,49,32,274,35*77
$GPGSV,5,5,17,50,10,089,*4A
$GLGSV,3,1,10,65,28,267,36,66,03,226,27,71,03,014,31,72,31,333,16*68
$GLGSV,3,2,10,74,14,116,11,75,19,167,12,76,01,219,12,85,44,132,19*60
$GLGSV,3,3,10,86,59,021,36,87,19,347,28*6D
$GNGLL,0419.76946,S,05539.67154,E,130750.00,A,D*62
$GNRMC,130751.00,A,0419.76946,S,05539.67154,E,0.023,,200525,,,D*7B
$GNVTG,,T,,M,0.023,N,0.043,K,D*3E
$GNGGA,130751.00,0419.76946,S,05539.67154,E,2,12,0.66,6.6,M,-47.6,M,,0000*7B
$GNGSA,A,3,32,10,28,26,16,27,31,40,08,,,,1.24,0.66,1.05*1D
$GNGSA,A,3,85,72,75,86,65,87,,,,,,,1.24,0.66,1.05*17
$GPGSV,5,1,17,02,00,330,36,04,04,223,30,08,20,306,35,10,13,019,37*7A
$GPGSV,5,2,17,16,24,222,39,18,30,107,,23,01,057,,26,28,192,33*7B
$GPGSV,5,3,17,27,54,283,42,28,59,120,37,31,49,172,35,32,39,005,45*71
$GPGSV,5,4,17,36,52,277,39,40,84,353,43,41,58,082,,49,32,274,35*77
$GPGSV,5,5,17,50,10,089,*4A
$GLGSV,3,1,10,65,28,267,36,66,03,226,27,71,03,014,31,72,31,333,16*68
$GLGSV,3,2,10,74,14,116,09,75,19,167,13,76,01,219,13,85,44,132,14*64
$GLGSV,3,3,10,86,59,021,36,87,19,347,27*62
$GNGLL,0419.76946,S,05539.67154,E,130751.00,A,D*63
$GNRMC,130752.00,A,0419.76944,S,05539.67154,E,0.025,,200525,,,D*7C
$GNVTG,,T,,M,0.025,N,0.045,K,D*3E
$GNGGA,130752.00,0419.76944,S,05539.67154,E,2,12,0.66,6.5,M,-47.6,M,,0000*79
$GNGSA,A,3,32,10,28,26,16,27,31,40,08,,,,1.24,0.66,1.05*1D
$GNGSA,A,3,85,72,75,86,65,87,,,,,,,1.24,0.66,1.05*17
$GPGSV,5,1,17,02,00,330,37,04,04,223,30,08,20,306,35,10,13,019,37*7B
$GPGSV,5,2,17,16,24,222,39,18,30,107,,23,01,057,,26,28,192,32*7A
$GPGSV,5,3,17,27,54,283,42,28,59,120,36,31,49,172,35,32,39,005,44*71
$GPGSV,5,4,17,36,52,277,39,40,84,353,43,41,58,082,,49,32,274,35*77
$GPGSV,5,5,17,50,10,089,*4A
$GLGSV,3,1,10,65,28,267,36,66,03,226,27,71,03,014,32,72,31,333,15*68
$GLGSV,3,2,10,74,14,116,08,75,19,167,12,76,01,219,10,85,44,132,12*61
$GLGSV,3,3,10,86,59,021,36,87,19,347,26*63
$GNGLL,0419.76944,S,05539.67154,E,130752.00,A,D*62
$GNRMC,130753.00,A,0419.76943,S,05539.67154,E,0.017,,200525,,,D*7B
$GNVTG,,T,,M,0.017,N,0.031,K,D*3C
$GNGGA,130753.00,0419.76943,S,05539.67154,E,2,12,0.69,6.5,M,-47.6,M,,0000*70
$GNGSA,A,3,32,10,28,26,16,27,31,40,08,,,,1.29,0.69,1.10*1B
$GNGSA,A,3,85,72,75,86,65,87,,,,,,,1.29,0.69,1.10*11
$GPGSV,5,1,17,02,00,330,37,04,04,223,30,08,20,306,33,10,13,019,37*7D
$GPGSV,5,2,17,16,24,221,39,18,30,107,,23,01,057,,26,28,192,33*78
$GPGSV,5,3,17,27,54,283,42,28,59,120,36,31,49,172,35,32,39,005,44*71
$GPGSV,5,4,17,36,52,277,39,40,84,353,44,41,58,082,,49,32,274,35*70
$GPGSV,5,5,17,50,10,089,*4A
$GLGSV,3,1,10,65,28,267,36,66,03,226,26,71,03,014,31,72,31,333,18*67
$GLGSV,3,2,10,74,14,116,06,75,19,167,12,76,01,219,11,85,44,132,11*6D
$GLGSV,3,3,10,86,59,021,37,87,19,347,25*61
$GNGLL,0419.76943,S,05539.67154,E,130753.00,A,D*64
$GNRMC,130754.00,A,0419.76942,S,05539.67155,E,0.047,,200525,,,D*79
$GNVTG,,T,,M,0.047,N,0.087,K,D*34
$GNGGA,130754.00,0419.76942,S,05539.67155,E,2,12,0.66,6.5,M,-47.6,M,,0000*78
$GNGSA,A,3,32,10,28,26,16,27,31,40,08,,,,1.24,0.66,1.05*1D
$GNGSA,A,3,85,72,75,86,65,87,,,,,,,1.24,0.66,1.05*17
$GPGSV,5,1,17,02,00,330,37,04,04,223,31,08,20,306,32,10,13,019,39*73
$GPGSV,5,2,17,16,24,221,39,18,30,107,,23,01,057,,26,28,192,33*78
$GPGSV,5,3,17,27,54,283,41,28,59,120,37,31,49,172,36,32,39,005,44*70
$GPGSV,5,4,17,36,52,277,37,40,84,353,44,41,58,082,,49,32,274,35*7E
$GPGSV,5,5,17,50,10,089,*4A
$GLGSV,3,1,10,65,28,267,36,66,03,226,27,71,03,014,32,72,31,333,18*65
$GLGSV,3,2,10,74,14,116,12,75,19,167,11,76,01,219,13,85,44,132,10*68
$GLGSV,3,3,10,86,59,021,38,87,19,347,22*69
$GNGLL,0419.76942,S,05539.67155,E,130754.00,A,D*63
$GNRMC,130755.00,A,0419.76940,S,05539.67154,E,0.018,,200525,,,D*71
$GNVTG,,T,,M,0.018,N,0.034,K,D*36
$GNGGA,130755.00,0419.76940,S,05539.67154,E,2,12,0.66,6.5,M,-47.6,M,,0000*7A
$GNGSA,A,3,32,10,28,26,16,27,31,40,08,,,,1.24,0.66,1.05*1D
$GNGSA,A,3,85,72,75,86,65,87,,,,,,,1.24,0.66,1.05*17
$GPGSV,5,1,17,02,00,330,37,04,04,223,30,08,20,306,31,10,13,019,39*71
$GPGSV,5,2,17,16,24,221,39,18,30,108,,23,01,057,,26,28,192,33*77
$GPGSV,5,3,17,27,54,283,40,28,59,120,36,31,49,172,37,32,39,005,43*76
$GPGSV,5,4,17,36,52,277,37,40,84,353,44,41,58,082,,49,32,274,36*7D
$GPGSV,5,5,17,50,10,089,*4A
$GLGSV,3,1,10,65,28,267,37,66,03,226,28,71,03,014,33,72,31,333,19*6B
$GLGSV,3,2,10,74,14,116,09,75,19,167,10,76,01,219,15,85,44,132,14*61
$GLGSV,3,3,10,86,59,021,38,87,19,347,20*6B
$GNGLL,0419.76940,S,05539.67154,E,130755.00,A,D*61
$GNRMC,130756.00,A,0419.76939,S,05539.67155,E,0.011,,200525,,,D*74
$GNVTG,,T,,M,0.011,N,0.021,K,D*3B
$GNGGA,130756.00,0419.76939,S,05539.67155,E,2,12,0.81,6.5,M,-47.6,M,,0000*7F
$GNGSA,A,3,32,10,28,26,16,27,31,40,08,,,,1.55,0.81,1.33*17
$GNGSA,A,3,85,72,86,65,87,,,,,,,,1.55,0.81,1.33*1F
$GPGSV,5,1,17,02,00,330,36,04,04,223,29,08,20,306,30,10,13,019,37*77
$GPGSV,5,2,17,16,24,221,37,18,30,108,,23,01,057,,26,28,192,31*7B
$GPGSV,5,3,17,27,54,283,38,28,59,120,35,31,49,172,36,32,39,005,41*79
$GPGSV,5,4,17,36,52,277,36,40,84,353,42,41,58,082,,49,32,274,32*7E
$GPGSV,5,5,17,50,10,089,*4A
$GLGSV,3,1,10,65,28,267,33,66,03,226,26,71,03,014,29,72,31,333,19*6A
$GLGSV,3,2,10,74,14,116,07,75,19,167,07,76,01,219,09,85,44,132,10*60
$GLGSV,3,3,10,86,59,021,35,87,19,347,18*6D
$GNGLL,0419.76939,S,05539.67155,E,130756.00,A,D*6D
$GNRMC,130757.00,A,0419.76937,S,05539.67154,E,0.012,,200525,,,D*79
$GNVTG,,T,,M,0.012,N,0.022,K,D*3B
$GNGGA,130757.00,0419.76937,S,05539.67154,E,2,12,0.75,6.5,M,-47.6,M,,0000*7A
$GNGSA,A,3,32,10,28,26,16,27,31,40,08,,,,1.40,0.75,1.18*11
$GNGSA,A,3,85,72,75,86,65,87,,,,,,,1.40,0.75,1.18*1B
$GPGSV,5,1,17,02,00,330,38,04,04,223,30,08,20,306,33,10,13,019,39*7C
$GPGSV,5,2,17,16,24,221,39,18,30,108,,23,01,057,,26,28,192,32*76
$GPGSV,5,3,17,27,54,283,42,28,59,120,38,31,49,172,38,32,39,005,44*72
$GPGSV,5,4,17,36,52,277,40,40,84,353,45,41,58,082,,49,32,274,36*7C
$GPGSV,5,5,17,50,10,089,*4A
$GLGSV,3,1,10,65,28,267,36,66,03,226,27,71,03,014,31,72,31,333,18*66
$GLGSV,3,2,10,74,14,116,07,75,19,167,10,76,01,219,12,85,44,132,18*64
$GLGSV,3,3,10,86,59,021,38,87,19,347,21*6A
$GNGLL,0419.76937,S,05539.67154,E,130757.00,A,D*63
$GNRMC,130758.00,A,0419.76936,S,05539.67155,E,0.020,,200525,,,D*77
$GNVTG,,T,,M,0.020,N,0.037,K,D*3E
$GNGGA,130758.00,0419.76936,S,05539.67155,E,2,12,0.75,6.5,M,-47.6,M,,0000*75
$GNGSA,A,3,32,10,28,26,16,27,31,40,08,,,,1.40,0.75,1.18*11
$GNGSA,A,3,85,72,75,86,65,87,,,,,,,1.40,0.75,1.18*1B
$GPGSV,5,1,17,02,00,330,37,04,04,223,31,08,20,306,34,10,13,019,39*75
$GPGSV,5,2,17,16,24,221,40,18,30,108,,23,01,057,,26,28,192,33*79
$GPGSV,5,3,17,27,54,283,42,28,59,120,37,31,49,172,37,32,39,005,46*70
$GPGSV,5,4,17,36,52,277,40,40,84,353,45,41,58,082,,49,32,274,37*7D
$GPGSV,5,5,17,50,10,089,*4A
$GLGSV,3,1,10,65,28,267,36,66,03,226,27,71,03,014,31,72,31,333,18*66
$GLGSV,3,2,10,74,14,116,10,75,19,167,14,76,01,219,09,85,44,132,14*60
$GLGSV,3,3,10,86,59,021,38,87,19,347,23*68
$GNGLL,0419.76936,S,05539.67155,E,130758.00,A,D*6C
$GNRMC,130759.00,A,0419.76935,S,05539.67154,E,0.018,,200525,,,D*7F
$GNVTG,,T,,M,0.018,N,0.033,K,D*31
$GNGGA,130759.00,0419.76935,S,05539.67154,E,2,12,0.81,6.5,M,-47.6,M,,0000*7D
$GNGSA,A,3,32,10,28,26,16,27,31,40,08,,,,1.55,0.81,1.33*17
$GNGSA,A,3,85,72,75,86,65,87,,,,,,,1.55,0.81,1.33*1D
$GPGSV,5,1,17,02,00,330,35,04,04,223,30,08,20,306,35,10,13,019,39*77
$GPGSV,5,2,17,16,24,221,39,18,30,108,,23,01,057,,26,28,192,32*76
$GPGSV,5,3,17,27,54,283,40,28,59,120,36,31,49,172,36,32,39,005,44*70
$GPGSV,5,4,17,36,52,277,39,40,84,353,44,41,58,082,,49,32,274,37*72
$GPGSV,5,5,17,50,10,089,*4A
$GLGSV,3,1,10,65,28,267,36,66,03,226,26,71,03,014,31,72,31,333,20*6C
$GLGSV,3,2,10,74,14,116,08,75,19,167,10,76,01,219,11,85,44,132,15*65
$GLGSV,3,3,10,86,59,021,37,87,19,347,23*67
$GNGLL,0419.76935,S,05539.67154,E,130759.00,A,D*6F
$GNRMC,130800.00,A,0419.76934,S,05539.67153,E,0.005,,200525,,,D*76
$GNVTG,,T,,M,0.005,N,0.008,K,D*35
$GNGGA,130800.00,0419.76934,S,05539.67153,E,2,12,0.75,6.6,M,-47.6,M,,0000*70
$GNGSA,A,3,32,10,28,26,16,27,31,40,08,,,,1.40,0.75,1.18*11
$GNGSA,A,3,85,72,75,86,65,87,,,,,,,1.40,0.75,1.18*1B
$GPGSV,5,1,17,02,00,330,34,04,04,223,29,08,20,306,34,10,13,019,39*7F
$GPGSV,5,2,17,16,24,221,39,18,30,108,,23,01,057,,26,28,192,31*75
$GPGSV,5,3,17,27,54,283,41,28,59,120,36,31,49,172,35,32,39,005,44*72
$GPGSV,5,4,17,36,52,277,39,40,84,353,44,41,58,082,,49,32,274,36*73
$GPGSV,5,5,17,50,10,089,*4A
$GLGSV,3,1,10,65,28,267,36,66,03,226,26,71,03,014,30,72,31,333,20*6D
$GLGSV,3,2,10,74,14,116,10,75,19,167,12,76,01,219,09,85,44,132,16*64
$GLGSV,3,3,10,86,59,021,37,87,19,347,22*66
$GNGLL,0419.76934,S,05539.67153,E,130800.00,A,D*6A
$GNRMC,130801.00,A,0419.76933,S,05539.67152,E,0.027,,200525,,,D*71
$GNVTG,,T,,M,0.027,N,0.051,K,D*39
$GNGGA,130801.00,0419.76933,S,05539.67152,E,2,12,0.75,6.6,M,-47.6,M,,0000*77
$GNGSA,A,3,32,10,28,26,16,27,31,40,08,,,,1.40,0.75,1.18*11
$GNGSA,A,3,85,72,75,86,65,87,,,,,,,1.40,0.75,1.18*1B
$GPGSV,5,1,17,02,00,330,33,04,04,223,29,08,20,306,34,10,13,019,37*76
$GPGSV,5,2,17,16,24,221,39,18,30,108,,23,01,057,,26,28,192,32*76
$GPGSV,5,3,17,27,54,283,40,28,59,120,36,31,49,172,36,32,39,005,44*70
$GPGSV,5,4,17,36,52,277,39,40,84,353,44,41,58,082,,49,32,274,36*73
$GPGSV,5,5,17,50,10,089,*4A
$GLGSV,3,1,10,65,28,267,36,66,03,226,25,71,03,014,30,72,31,333,21*6F
$GLGSV,3,2,10,74,14,116,11,75,19,167,10,76,01,219,12,85,44,132,16*6D
$GLGSV,3,3,10,86,59,021,36,87,19,347,22*67
$GNGLL,0419.76933,S,05539.67152,E,130801.00,A,D*6D
$GNRMC,130802.00,A,0419.76931,S,05539.67149,E,0.016,,200525,,,D*78
$GNVTG,,T,,M,0.016,N,0.029,K,D*34
$GNGGA,130802.00,0419.76931,S,05539.67149,E,2,12,0.75,6.7,M,-47.6,M,,0000*7D
$GNGSA,A,3,32,10,28,26,16,27,31,40,08,,,,1.40,0.75,1.18*11
$GNGSA,A,3,85,72,75,86,65,87,,,,,,,1.40,0.75,1.18*1B
$GPGSV,5,1,17,02,00,330,32,04,04,223,29,08,20,306,34,10,13,019,38*78
$GPGSV,5,2,17,16,24,221,39,18,30,108,,23,01,057,,26,28,191,32*75
$GPGSV,5,3,17,27,54,283,40,28,59,120,36,31,49,172,36,32,39,005,44*70
$GPGSV,5,4,17,36,52,277,39,40,84,353,44,41,58,082,,49,32,274,36*73
$GPGSV,5,5,17,50,10,089,*4A
$GLGSV,3,1,10,65,28,267,37,66,03,226,25,71,03,014,30,72,31,333,20*6F
$GLGSV,3,2,10,74,14,116,10,75,19,167,13,76,01,219,12,85,44,132,16*6F
$GLGSV,3,3,10,86,59,021,37,87,19,347,23*67
$GNGLL,0419.76931,S,05539.67149,E,130802.00,A,D*66
$GNRMC,130803.00,A,0419.76929,S,05539.67148,E,0.007,,200525,,,D*71
$GNVTG,,T,,M,0.007,N,0.012,K,D*3C
$GNGGA,130803.00,0419.76929,S,05539.67148,E,2,12,0.75,6.8,M,-47.6,M,,0000*7B
$GNGSA,A,3,32,10,28,26,16,27,31,40,08,,,,1.40,0.75,1.18*11
$GNGSA,A,3,85,72,75,86,65,87,,,,,,,1.40,0.75,1.18*1B
$GPGSV,5,1,17,02,00,330,31,04,04,223,29,08,20,306,36,10,13,019,36*77
$GPGSV,5,2,17,16,24,221,39,18,30,108,,23,01,057,,26,28,191,32*75
$GPGSV,5,3,17,27,54,282,40,28,59,120,36,31,49,172,36,32,39,005,44*71
$GPGSV,5,4,17,36,52,277,39,40,84,353,44,41,58,082,,49,32,274,35*70
$GPGSV,5,5,17,50,10,089,*4A
$GLGSV,3,1,10,65,28,267,37,66,03,226,24,71,03,014,30,72,31,333,22*6C
$GLGSV,3,2,10,74,14,116,10,75,19,167,10,76,01,219,16,85,44,132,18*66
$GLGSV,3,3,10,86,59,021,37,87,19,347,24*60
$GNGLL,0419.76929,S,05539.67148,E,130803.00,A,D*6F
$GNRMC,130804.00,A,0419.76928,S,05539.67148,E,0.025,,200525,,,D*77
$GNVTG,,T,,M,0.025,N,0.046,K,D*3D
$GNGGA,130804.00,0419.76928,S,05539.67148,E,2,12,0.75,6.9,M,-47.6,M,,0000*7C
$GNGSA,A,3,32,10,28,26,16,27,31,40,08,,,,1.40,0.75,1.18*11
$GNGSA,A,3,85,72,75,86,65,87,,,,,,,1.40,0.75,1.18*1B
$GPGSV,5,1,17,02,00,330,30,04,04,223,29,08,20,306,37,10,13,019,37*76
$GPGSV,5,2,17,16,24,221,39,18,30,108,,23,01,057,,26,28,191,32*75
$GPGSV,5,3,17,27,54,282,40,28,59,118,36,31,49,172,35,32,39,005,44*79
$GPGSV,5,4,17,36,52,277,38,40,84,353,44,41,58,082,,49,32,274,35*71
$GPGSV,5,5,17,50,10,089,*4A
$GLGSV,3,1,10,65,28,267,37,66,03,226,24,71,03,014,31,72,31,333,21*6E
$GLGSV,3,2,10,74,14,116,11,75,19,167,12,76,01,219,12,85,44,132,17*6E
$GLGSV,3,3,10,86,59,021,38,87,19,347,23*68
$GNGLL,0419.76928,S,05539.67148,E,130804.00,A,D*69
$GNRMC,130805.00,A,0419.76927,S,05539.67147,E,0.013,,200525,,,D*73
$GNVTG,,T,,M,0.013,N,0.024,K,D*3C
$GNGGA,130805.00,0419.76927,S,05539.67147,E,2,12,0.75,7.0,M,-47.6,M,,0000*75
$GNGSA,A,3,32,10,28,26,16,27,31,40,08,,,,1.40,0.75,1.18*11
$GNGSA,A,3,85,72,75,86,65,87,,,,,,,1.40,0.75,1.18*1B
$GPGSV,5,1,17,02,00,330,28,04,04,223,28,08,20,306,36,10,13,019,37*7F
$GPGSV,5,2,17,16,24,221,39,18,30,108,,23,01,057,,26,28,191,32*75
$GPGSV,5,3,17,27,54,282,40,28,59,118,36,31,49,172,35,32,39,005,44*79
$GPGSV,5,4,17,36,52,277,39,40,84,353,44,41,58,082,,49,32,274,36*73
$GPGSV,5,5,17,50,10,089,*4A
$GLGSV,3,1,10,65,28,267,37,66,03,226,25,71,03,014,31,72,31,333,20*6E
$GLGSV,3,2,10,74,14,116,09,75,19,167,16,76,01,219,12,85,44,132,17*63
$GLGSV,3,3,10,86,59,021,38,87,19,347,23*68
$GNGLL,0419.76927,S,05539.67147,E,130805.00,A,D*68
$GNRMC,130806.00,A,0419.76926,S,05539.67145,E,0.057,,200525,,,D*73
$GNVTG,,T,,M,0.057,N,0.106,K,D*3D
$GNGGA,130806.00,0419.76926,S,05539.67145,E,2,12,0.75,7.1,M,-47.6,M,,0000*74
$GNGSA,A,3,32,10,28,26,16,27,31,40,08,,,,1.40,0.75,1.18*11
$GNGSA,A,3,85,72,75,86,65,87,,,,,,,1.40,0.75,1.18*1B
$GPGSV,5,1,17,02,00,330,27,04,04,223,29,08,20,306,35,10,13,019,37*72
$GPGSV,5,2,17,16,24,221,39,18,30,108,,23,01,057,,26,28,191,32*75
$GPGSV,5,3,17,27,54,282,41,28,59,118,36,31,49,172,35,32,39,005,44*78
$GPGSV,5,4,17,36,52,277,39,40,84,353,44,41,58,082,,49,32,274,35*70
$GPGSV,5,5,17,50,10,089,*4A
$GLGSV,3,1,10,65,28,267,37,66,03,226,24,71,03,014,31,72,31,333,20*6F
$GLGSV,3,2,10,74,14,116,09,75,19,167,09,76,01,219,10,85,44,132,17*6F
$GLGSV,3,3,10,86,59,021,37,87,19,347,23*67
$GNGLL,0419.76926,S,05539.67145,E,130806.00,A,D*68
$GNRMC,130807.00,A,0419.76924,S,05539.67145,E,0.032,,200525,,,D*73
$GNVTG,,T,,M,0.032,N,0.059,K,D*35
$GNGGA,130807.00,0419.76924,S,05539.67145,E,2,12,0.75,7.2,M,-47.6,M,,0000*74
$GNGSA,A,3,32,10,28,26,16,27,31,40,08,,,,1.40,0.75,1.18*11
$GNGSA,A,3,85,72,75,86,65,87,,,,,,,1.40,0.75,1.18*1B
$GPGSV,5,1,17,02,00,330,27,04,04,223,28,08,20,306,34,10,13,019,38*7D
$GPGSV,5,2,17,16,24,221,39,18,30,108,,23,01,057,,26,28,191,32*75
$GPGSV,5,3,17,27,54,282,40,28,59,118,35,31,49,171,35,32,39,005,44*79
$GPGSV,5,4,17,36,52,277,39,40,84,353,44,41,58,082,,49,32,274,35*70
$GPGSV,5,5,17,50,10,089,*4A
$GLGSV,3,1,10,65,28,267,36,66,03,226,24,71,03,014,31,72,31,333,18*65
$GLGSV,3,2,10,74,14,116,09,75,19,167,11,76,01,219,15,85,44,132,17*63
$GLGSV,3,3,10,86,59,021,38,87,19,347,24*6F
$GNGLL,0419.76924,S,05539.67145,E,130807.00,A,D*6B
$GNRMC,130808.00,A,0419.76923,S,05539.67145,E,0.010,,200525,,,D*7B
$GNVTG,,T,,M,0.010,N,0.019,K,D*31
$GNGGA,130808.00,0419.76923,S,05539.67145,E,2,12,0.81,7.2,M,-47.6,M,,0000*77
$GNGSA,A,3,32,10,28,26,16,27,31,40,08,,,,1.55,0.81,1.33*17
$GNGSA,A,3,85,72,75,86,65,87,,,,,,,1.55,0.81,1.33*1D
$GPGSV,5,1,17,02,00,330,27,04,04,223,29,08,20,306,34,10,13,019,38*7C
$GPGSV,5,2,17,16,24,221,39,18,30,108,,23,01,057,,26,28,191,32*75
$GPGSV,5,3,17,27,54,282,40,28,59,118,36,31,49,171,36,32,39,005,44*79
$GPGSV,5,4,17,36,52,277,39,40,84,353,44,41,58,082,,49,32,274,35*70
$GPGSV,5,5,17,50,10,089,*4A
$GLGSV,3,1,10,65,28,267,36,66,03,226,24,71,03,014,31,72,31,333,17*6A
$GLGSV,3,2,10,74,14,116,11,75,19,167,10,76,01,219,11,85,44,132,17*6F
$GLGSV,3,3,10,86,59,021,38,87,19,347,24*6F
$GNGLL,0419.76923,S,05539.67145,E,130808.00,A,D*63
$GNRMC,130809.00,A,0419.76922,S,05539.67144,E,0.017,,200525,,,D*7D
$GNVTG,,T,,M,0.017,N,0.031,K,D*3C
$GNGGA,130809.00,0419.76922,S,05539.67144,E,2,12,0.75,7.2,M,-47.6,M,,0000*7D
$GNGSA,A,3,32,10,28,26,16,27,31,40,08,,,,1.40,0.75,1.18*11
$GNGSA,A,3,85,72,75,86,65,87,,,,,,,1.40,0.75,1.18*1B
$GPGSV,5,1,17,02,00,330,28,04,04,223,28,08,20,306,34,10,13,019,37*7D
$GPGSV,5,2,17,16,24,221,39,18,30,108,,23,01,057,,26,28,191,31*76
$GPGSV,5,3,17,27,54,282,40,28,59,118,36,31,49,171,36,32,39,005,44*79
$GPGSV,5,4,17,36,52,277,38,40,84,353,44,41,58,082,,49,32,274,35*71
$GPGSV,5,5,17,50,10,089,*4A
$GLGSV,3,1,10,65,28,267,36,66,03,226,24,71,03,014,30,72,31,333,18*64
$GLGSV,3,2,10,74,14,116,09,75,19,167,15,76,01,219,14,85,44,132,15*64
$GLGSV,3,3,10,86,59,021,38,87,19,347,24*6F
$GNGLL,0419.76922,S,05539.67144,E,130809.00,A,D*62
$GNRMC,130810.00,A,0419.76922,S,05539.67146,E,0.032,,200525,,,D*70
$GNVTG,,T,,M,0.032,N,0.059,K,D*35
$GNGGA,130810.00,0419.76922,S,05539.67146,E,2,12,0.80,7.2,M,-47.6,M,,0000*7D
$GNGSA,A,3,32,10,28,26,16,27,31,40,08,,,,1.43,0.80,1.18*18
$GNGSA,A,3,72,75,86,65,87,,,,,,,,1.43,0.80,1.18*1F
$GPGSV,5,1,17,02,00,330,30,04,04,223,28,08,20,306,34,10,13,019,36*75
$GPGSV,5,2,17,16,24,221,38,18,30,108,,23,01,057,,26,28,191,31*77
$GPGSV,5,3,17,27,54,282,40,28,59,118,36,31,49,171,36,32,39,005,44*79
$GPGSV,5,4,17,36,52,277,38,40,84,353,44,41,58,082,,49,32,274,34*70
$GPGSV,5,5,17,50,10,089,*4A
$GLGSV,3,1,10,65,28,267,35,66,03,226,25,71,03,014,30,72,31,333,17*69
$GLGSV,3,2,10,74,14,116,09,75,19,167,16,76,01,219,10,85,44,132,*67
$GLGSV,3,3,10,86,59,021,37,87,19,347,22*66
$GNGLL,0419.76922,S,05539.67146,E,130810.00,A,D*68
$GNRMC,130811.00,A,0419.76921,S,05539.67146,E,0.019,,200525,,,D*7B
$GNVTG,,T,,M,0.019,N,0.035,K,D*36
$GNGGA,130811.00,0419.76921,S,05539.67146,E,2,12,0.80,7.3,M,-47.6,M,,0000*7E
$GNGSA,A,3,32,10,28,26,16,27,31,40,08,,,,1.43,0.80,1.18*18
$GNGSA,A,3,72,75,86,65,87,,,,,,,,1.43,0.80,1.18*1F
$GPGSV,5,1,17,02,00,330,32,04,04,223,28,08,20,306,33,10,13,019,38*7E
$GPGSV,5,2,17,16,24,221,38,18,30,108,,23,01,057,,26,28,191,31*77
$GPGSV,5,3,17,27,54,282,40,28,59,118,36,31,49,171,36,32,39,005,44*79
$GPGSV,5,4,17,36,52,277,38,40,84,353,44,41,58,082,,49,32,274,34*70
$GPGSV,5,5,17,50,10,089,*4A
$GLGSV,3,1,10,65,28,267,36,66,03,226,26,71,03,014,31,72,31,333,20*6C
$GLGSV,3,2,10,74,14,116,09,75,19,167,16,76,01,219,12,85,44,132,*65
$GLGSV,3,3,10,86,59,021,39,87,19,347,22*68
$GNGLL,0419.76921,S,05539.67146,E,130811.00,A,D*6A
$GNRMC,130812.00,A,0419.76921,S,05539.67146,E,0.024,,200525,,,D*76
$GNVTG,,T,,M,0.024,N,0.045,K,D*3F
$GNGGA,130812.00,0419.76921,S,05539.67146,E,2,12,0.80,7.3,M,-47.6,M,,0000*7D
$GNGSA,A,3,32,10,28,26,16,27,31,40,08,,,,1.43,0.80,1.18*18
$GNGSA,A,3,72,75,86,65,87,,,,,,,,1.43,0.80,1.18*1F
$GPGSV,5,1,17,02,00,330,34,04,04,223,28,08,20,306,33,10,13,019,38*78
$GPGSV,5,2,17,16,24,221,38,18,30,108,,23,01,057,,26,28,191,31*77
$GPGSV,5,3,17,27,54,282,40,28,59,118,35,31,49,171,36,32,39,005,44*7A
$GPGSV,5,4,17,36,52,277,38,40,84,353,44,41,58,082,,49,32,274,35*71
$GPGSV,5,5,17,50,10,089,*4A
$GLGSV,3,1,10,65,28,267,36,66,03,226,25,71,03,014,30,72,31,333,19*64
$GLGSV,3,2,10,74,14,116,09,75,19,167,12,76,01,219,10,85,44,132,21*60
$GLGSV,3,3,10,86,59,021,38,87,19,347,21*6A
$GNGLL,0419.76921,S,05539.67146,E,130812.00,A,D*69
$GNRMC,130813.00,A,0419.76920,S,05539.67145,E,0.031,,200525,,,D*71
$GNVTG,,T,,M,0.031,N,0.058,K,D*37
$GNGGA,130813.00,0419.76920,S,05539.67145,E,2,12,0.80,7.4,M,-47.6,M,,0000*79
$GNGSA,A,3,32,10,28,26,16,27,31,40,08,,,,1.43,0.80,1.18*18
$GNGSA,A,3,72,75,86,65,87,,,,,,,,1.43,0.80,1.18*1F
$GPGSV,5,1,17,02,00,330,34,04,04,223,28,08,20,306,32,10,13,019,38*79
$GPGSV,5,2,17,16,24,221,38,18,30,108,,23,01,057,,26,28,191,31*77
$GPGSV,5,3,17,27,54,282,40,28,59,118,35,31,49,171,36,32,39,005,44*7A
$GPGSV,5,4,17,36,52,277,38,40,84,353,44,41,58,082,,49,32,274,35*71
$GPGSV,5,5,17,50,10,089,*4A
$GLGSV,3,1,10,65,28,267,36,66,03,226,25,71,03,014,29,72,31,333,21*67
$GLGSV,3,2,10,74,14,116,10,75,19,167,13,76,01,219,11,85,44,132,21*68
$GLGSV,3,3,10,86,59,021,38,87,19,347,22*69
$GNGLL,0419.76920,S,05539.67145,E,130813.00,A,D*6A
$GNRMC,130814.00,A,0419.76920,S,05539.67145,E,0.010,,200525,,,D*75
$GNVTG,,T,,M,0.010,N,0.018,K,D*30
$GNGGA,130814.00,0419.76920,S,05539.67145,E,2,12,0.80,7.4,M,-47.6,M,,0000*7E
$GNGSA,A,3,32,10,28,26,16,27,31,40,08,,,,1.43,0.80,1.18*18
$GNGSA,A,3,72,75,86,65,87,,,,,,,,1.43,0.80,1.18*1F
$GPGSV,5,1,17,02,00,330,35,04,04,223,28,08,20,306,36,10,13,019,36*72
$GPGSV,5,2,17,16,24,221,38,18,30,108,,23,01,057,,26,28,191,31*77
$GPGSV,5,3,17,27,54,282,39,28,59,118,35,31,49,171,36,32,39,005,44*74
$GPGSV,5,4,17,36,52,277,38,40,84,353,44,41,58,082,,49,32,274,35*71
$GPGSV,5,5,17,50,10,089,*4A
$GLGSV,3,1,10,65,28,267,36,66,03,226,25,71,03,014,29,72,31,333,20*66
$GLGSV,3,2,10,74,14,116,10,75,19,167,19,76,01,219,12,85,44,132,20*60
$GLGSV,3,3,10,86,59,021,38,87,19,347,21*6A
$GNGLL,0419.76920,S,05539.67145,E,130814.00,A,D*6D
$GNRMC,130815.00,A,0419.76919,S,05539.67144,E,0.014,,200525,,,D*7B
$GNVTG,,T,,M,0.014,N,0.025,K,D*3A
$GNGGA,130815.00,0419.76919,S,05539.67144,E,2,12,0.80,7.5,M,-47.6,M,,0000*75
$GNGSA,A,3,32,10,28,26,16,27,31,40,08,,,,1.43,0.80,1.18*18
$GNGSA,A,3,72,75,86,65,87,,,,,,,,1.43,0.80,1.18*1F
$GPGSV,5,1,17,02,00,330,36,04,04,223,29,08,20,306,33,10,13,019,38*7B
$GPGSV,5,2,17,16,24,221,38,18,30,108,,23,01,057,,26,28,191,31*77
$GPGSV,5,3,17,27,54,282,39,28,59,118,35,31,49,171,36,32,39,005,44*74
$GPGSV,5,4,17,36,52,277,38,40,84,353,44,41,58,082,,49,32,274,35*71
$GPGSV,5,5,17,50,10,089,*4A
$GLGSV,3,1,10,65,28,267,35,66,03,226,25,71,03,014,30,72,31,333,19*67
$GLGSV,3,2,10,74,14,116,06,75,19,167,15,76,01,219,14,85,44,132,17*69
$GLGSV,3,3,10,86,59,021,38,87,19,347,20*6B
$GNGLL,0419.76919,S,05539.67144,E,130815.00,A,D*67
$GNRMC,130816.00,A,0419.76919,S,05539.67143,E,0.035,,200525,,,D*7C
$GNVTG,,T,,M,0.035,N,0.064,K,D*3C
$GNGGA,130816.00,0419.76919,S,05539.67143,E,2,12,0.75,7.6,M,-47.6,M,,0000*78
$GNGSA,A,3,32,10,28,26,16,27,31,40,08,,,,1.40,0.75,1.18*11
$GNGSA,A,3,85,72,75,86,65,87,,,,,,,1.40,0.75,1.18*1B
$GPGSV,5,1,17,02,00,330,36,04,04,223,29,08,20,306,34,10,13,019,36*72
$GPGSV,5,2,17,16,24,221,38,18,30,108,,23,01,057,,26,28,191,31*77
$GPGSV,5,3,17,27,54,282,39,28,59,118,35,31,49,171,36,32,39,005,44*74
$GPGSV,5,4,17,36,52,277,38,40,84,353,44,41,58,082,,49,32,274,35*71
$GPGSV,5,5,17,50,10,089,*4A
$GLGSV,3,1,10,65,28,267,36,66,03,226,25,71,03,014,31,72,31,333,21*6E
$GLGSV,3,2,10,74,14,116,07,75,19,167,14,76,01,219,10,85,44,132,16*6C
$GLGSV,3,3,10,86,59,021,38,87,19,347,20*6B
$GNGLL,0419.76919,S,05539.67143,E,130816.00,A,D*63
$GNRMC,130817.00,A,0419.76918,S,05539.67142,E,0.021,,200525,,,D*78
$GNVTG,,T,,M,0.021,N,0.038,K,D*30
$GNGGA,130817.00,0419.76918,S,05539.67142,E,2,12,0.75,7.6,M,-47.6,M,,0000*79
$GNGSA,A,3,32,10,28,26,16,27,31,40,08,,,,1.40,0.75,1.18*11
$GNGSA,A,3,85,72,75,86,65,87,,,,,,,1.40,0.75,1.18*1B
$GPGSV,5,1,17,02,00,330,37,04,04,223,29,08,20,306,34,10,13,019,38*7D
$GPGSV,5,2,17,16,24,221,38,18,30,108,,23,01,057,,26,28,191,31*77
$GPGSV,5,3,17,27,54,282,39,28,59,118,36,31,49,171,36,32,39,005,44*77
$GPGSV,5,4,17,36,52,277,38,40,84,353,44,41,58,082,,49,32,274,37*73
$GPGSV,5,5,17,50,10,089,*4A
$GLGSV,3,1,10,65,28,267,36,66,03,226,25,71,03,014,30,72,31,333,22*6C
$GLGSV,3,2,10,74,14,116,09,75,19,167,12,76,01,219,10,85,44,132,17*65
$GLGSV,3,3,10,86,59,021,38,87,19,347,19*61
$GNGLL,0419.76918,S,05539.67142,E,130817.00,A,D*62
$GNRMC,130818.00,A,0419.76917,S,05539.67142,E,0.041,,200525,,,D*7E
$GNVTG,,T,,M,0.041,N,0.076,K,D*3C
$GNGGA,130818.00,0419.76917,S,05539.67142,E,2,12,0.75,7.6,M,-47.6,M,,0000*79
$GNGSA,A,3,32,10,28,26,16,27,31,40,08,,,,1.40,0.75,1.18*11
$GNGSA,A,3,85,72,75,86,65,87,,,,,,,1.40,0.75,1.18*1B
$GPGSV,5,1,17,02,00,330,36,04,04,223,30,08,20,306,33,10,13,019,36*7D
$GPGSV,5,2,17,16,24,221,38,18,30,108,,23,01,057,,26,28,191,31*77
$GPGSV,5,3,17,27,54,282,39,28,59,118,35,31,49,171,36,32,39,005,44*74
$GPGSV,5,4,17,36,52,277,38,40,84,353,44,41,58,082,,49,32,274,35*71
$GPGSV,5,5,17,50,10,089,*4A
$GLGSV,3,1,10,65,28,267,35,66,03,226,25,71,03,014,31,72,31,333,21*6D
$GLGSV,3,2,10,74,14,116,11,75,19,167,11,76,01,219,16,85,44,132,18*66
$GLGSV,3,3,10,86,59,021,38,87,19,347,18*60
$GNGLL,0419.76917,S,05539.67142,E,130818.00,A,D*62
$GNRMC,130819.00,A,0419.76917,S,05539.67141,E,0.005,,200525,,,D*7C
$GNVTG,,T,,M,0.005,N,0.010,K,D*3C
$GNGGA,130819.00,0419.76917,S,05539.67141,E,2,12,0.75,7.7,M,-47.6,M,,0000*7A
$GNGSA,A,3,32,10,28,26,16,27,31,40,08,,,,1.40,0.75,1.18*11
$GNGSA,A,3,85,72,75,86,65,87,,,,,,,1.40,0.75,1.18*1B
$GPGSV,5,1,17,02,00,330,37,04,04,223,30,08,20,306,32,10,13,019,37*7C
$GPGSV,5,2,17,16,24,221,38,18,30,108,,23,01,057,,26,28,191,31*77
$GPGSV,5,3,17,27,54,282,39,28,59,118,35,31,49,171,36,32,39,005,44*74
$GPGSV,5,4,17,36,52,277,38,40,84,353,44,41,58,082,,49,32,274,35*71
$GPGSV,5,5,17,50,10,089,*4A
$GLGSV,3,1,10,65,28,267,35,66,03,226,25,71,03,014,30,72,31,333,22*6F
$GLGSV,3,2,10,74,14,116,07,75,19,167,12,76,01,219,10,85,44,132,18*64
$GLGSV,3,3,10,86,59,021,38,87,19,347,17*6F
$GNGLL,0419.76917,S,05539.67141,E,130819.00,A,D*60
$GNRMC,130820.00,A,0419.76916,S,05539.67139,E,0.039,,200525,,,D*77
$GNVTG,,T,,M,0.039,N,0.073,K,D*36
$GNGGA,130820.00,0419.76916,S,05539.67139,E,2,12,0.75,7.8,M,-47.6,M,,0000*71
$GNGSA,A,3,32,10,28,26,16,27,31,40,08,,,,1.40,0.75,1.18*11
$GNGSA,A,3,85,72,75,86,65,87,,,,,,,1.40,0.75,1.18*1B
$GPGSV,5,1,17,02,00,330,38,04,04,223,31,08,20,306,26,10,13,019,37*77
$GPGSV,5,2,17,16,24,221,38,18,30,108,,23,01,057,,26,28,191,31*77
$GPGSV,5,3,17,27,54,282,39,28,59,118,35,31,49,171,36,32,39,005,44*74
$GPGSV,5,4,17,36,52,277,38,40,84,353,44,41,58,082,,49,32,274,35*71
$GPGSV,5,5,17,50,10,089,*4A
$GLGSV,3,1,10,65,28,267,36,66,03,226,26,71,03,014,30,72,31,333,21*6C
$GLGSV,3,2,10,74,14,116,11,75,19,167,14,76,01,219,15,85,44,132,19*61
$GLGSV,3,3,10,86,59,021,38,87,19,347,17*6F
$GNGLL,0419.76916,S,05539.67139,E,130820.00,A,D*64
$GNRMC,130821.00,A,0419.76915,S,05539.67137,E,0.006,,200525,,,D*77
$GNVTG,,T,,M,0.006,N,0.011,K,D*3E
$GNGGA,130821.00,0419.76915,S,05539.67137,E,2,12,0.75,7.8,M,-47.6,M,,0000*7D
$GNGSA,A,3,32,10,28,26,16,27,31,40,08,,,,1.40,0.75,1.18*11
$GNGSA,A,3,85,72,75,86,65,87,,,,,,,1.40,0.75,1.18*1B
$GPGSV,5,1,17,02,00,330,38,04,04,223,31,08,20,306,25,10,13,019,37*74
$GPGSV,5,2,17,16,24,221,39,18,30,108,,23,01,057,,26,28,191,31*76
$GPGSV,5,3,17,27,54,282,40,28,59,118,35,31,49,171,37,32,39,005,43*7C
$GPGSV,5,4,17,36,52,277,38,40,84,353,44,41,58,082,,49,32,274,35*71
$GPGSV,5,5,17,50,10,089,*4A
$GLGSV,3,1,10,65,28,267,36,66,03,226,28,71,03,014,31,72,31,333,20*62
$GLGSV,3,2,10,74,14,116,09,75,19,167,14,76,01,219,16,85,44,132,20*61
$GLGSV,3,3,10,86,59,021,39,87,19,347,20*6A
$GNGLL,0419.76915,S,05539.67137,E,130821.00,A,D*68
$GNRMC,130822.00,A,0419.76916,S,05539.67137,E,0.107,,200525,,,D*77
$GNVTG,,T,,M,0.107,N,0.198,K,D*3E
$GNGGA,130822.00,0419.76916,S,05539.67137,E,2,12,0.75,7.9,M,-47.6,M,,0000*7C
$GNGSA,A,3,32,10,28,26,16,27,31,40,08,,,,1.40,0.75,1.18*11
$GNGSA,A,3,85,72,75,86,65,87,,,,,,,1.40,0.75,1.18*1B
$GPGSV,5,1,17,02,00,330,38,04,04,223,31,08,20,306,31,10,13,019,37*71
$GPGSV,5,2,17,16,24,221,39,18,30,108,,23,01,057,,26,28,191,31*76
$GPGSV,5,3,17,27,54,282,40,28,59,118,35,31,49,171,36,32,39,005,43*7D
$GPGSV,5,4,17,36,52,277,39,40,84,353,44,41,58,082,,49,32,274,35*70
$GPGSV,5,5,17,50,10,089,*4A
$GLGSV,3,1,10,65,28,267,36,66,03,226,28,71,03,014,30,72,31,333,21*62
$GLGSV,3,2,10,74,14,116,08,75,19,167,13,76,01,219,12,85,44,132,18*68
$GLGSV,3,3,10,86,59,021,37,87,19,347,19*6E
$GNGLL,0419.76916,S,05539.67137,E,130822.00,A,D*68
$GNRMC,130823.00,A,0419.76917,S,05539.67136,E,0.019,,200525,,,D*78
$GNVTG,,T,,M,0.019,N,0.036,K,D*35
$GNGGA,130823.00,0419.76917,S,05539.67136,E,2,12,0.75,7.9,M,-47.6,M,,0000*7D
$GNGSA,A,3,32,10,28,26,16,27,31,40,08,,,,1.40,0.75,1.18*11
$GNGSA,A,3,85,72,75,86,65,87,,,,,,,1.40,0.75,1.18*1B
$GPGSV,5,1,17,02,00,330,38,04,04,223,31,08,20,306,31,10,13,019,38*7E
$GPGSV,5,2,17,16,24,221,39,18,30,108,,23,01,057,,26,28,191,31*76
$GPGSV,5,3,17,27,54,282,39,28,59,118,35,31,49,171,36,32,39,005,43*73
$GPGSV,5,4,17,36,52,277,38,40,84,353,44,41,58,082,,49,32,274,34*70
$GPGSV,5,5,17,50,10,089,*4A
$GLGSV,3,1,10,65,28,267,36,66,03,226,28,71,03,014,31,72,31,333,22*60
$GLGSV,3,2,10,74,14,116,08,75,19,167,14,76,01,219,12,85,44,132,19*6E
$GLGSV,3,3,10,86,59,021,38,87,19,347,19*61
$GNGLL,0419.76917,S,05539.67136,E,130823.00,A,D*69
$GNRMC,130824.00,A,0419.76918,S,05539.67133,E,0.041,,200525,,,D*78
$GNVTG,,T,,M,0.041,N,0.076,K,D*3C
$GNGGA,130824.00,0419.76918,S,05539.67133,E,2,12,0.75,7.9,M,-47.6,M,,0000*70
$GNGSA,A,3,32,10,28,26,16,27,31,40,08,,,,1.40,0.75,1.18*11
$GNGSA,A,3,85,72,75,86,65,87,,,,,,,1.40,0.75,1.18*1B
$GPGSV,5,1,17,02,00,330,37,04,04,223,31,08,20,306,31,10,13,019,37*7E
$GPGSV,5,2,17,16,24,221,38,18,30,108,,23,01,057,,26,28,191,31*77
$GPGSV,5,3,17,27,54,282,39,28,59,118,35,31,49,171,35,32,39,005,44*77
$GPGSV,5,4,17,36,52,277,38,40,84,353,44,41,58,082,,49,32,274,35*71
$GPGSV,5,5,17,50,10,089,*4A
$GLGSV,3,1,10,65,28,267,36,66,03,226,28,71,03,014,31,72,31,333,21*63
$GLGSV,3,2,10,74,14,116,08,75,19,167,14,76,01,219,08,85,44,132,19*65
$GLGSV,3,3,10,86,59,021,37,87,19,347,19*6E
$GNGLL,0419.76918,S,05539.67133,E,130824.00,A,D*64
$GNRMC,130825.00,A,0419.76919,S,05539.67131,E,0.053,,200525,,,D*79
$GNVTG,,T,,M,0.053,N,0.098,K,D*3F
$GNGGA,130825.00,0419.76919,S,05539.67131,E,2,12,0.75,7.9,M,-47.6,M,,0000*72
$GNGSA,A,3,32,10,28,26,16,27,31,40,08,,,,1.40,0.75,1.18*11
$GNGSA,A,3,85,72,75,86,65,87,,,,,,,1.40,0.75,1.18*1B
$GPGSV,5,1,17,02,00,330,37,04,04,223,31,08,20,306,31,10,13,019,37*7E
$GPGSV,5,2,17,16,24,221,39,18,30,108,,23,01,057,,26,28,191,31*76
$GPGSV,5,3,17,27,54,282,39,28,59,118,35,31,49,171,35,32,39,005,44*77
$GPGSV,5,4,17,36,52,277,38,40,84,353,44,41,58,082,,49,32,274,35*71
$GPGSV,5,5,17,50,10,089,*4A
$GLGSV,3,1,10,65,28,267,36,66,03,226,28,71,03,014,31,72,31,333,21*63
$GLGSV,3,2,10,74,14,116,07,75,19,167,14,76,01,219,13,85,44,132,19*60
$GLGSV,3,3,10,86,59,021,37,87,19,347,21*65
$GNGLL,0419.76919,S,05539.67131,E,130825.00,A,D*66
$GNRMC,130826.00,A,0419.76920,S,05539.67128,E,0.009,,200525,,,D*77
$GNVTG,,T,,M,0.009,N,0.016,K,D*36
$GNGGA,130826.00,0419.76920,S,05539.67128,E,2,12,0.75,7.9,M,-47.6,M,,0000*73
$GNGSA,A,3,32,10,28,26,16,27,31,40,08,,,,1.40,0.75,1.18*11
$GNGSA,A,3,85,72,75,86,65,87,,,,,,,1.40,0.75,1.18*1B
$GPGSV,5,1,17,02,00,330,36,04,04,223,30,08,20,306,33,10,13,019,37*7C
$GPGSV,5,2,17,16,24,221,39,18,30,108,,23,01,057,,26,28,191,31*76
$GPGSV,5,3,17,27,54,282,39,28,59,118,35,31,49,171,35,32,39,005,44*77
$GPGSV,5,4,17,36,52,277,38,40,84,353,43,41,58,082,,49,32,274,35*76
$GPGSV,5,5,17,50,10,089,*4A
$GLGSV,3,1,10,65,28,267,36,66,03,226,28,71,03,014,30,72,31,333,21*62
$GLGSV,3,2,10,74,14,116,10,75,19,167,15,76,01,219,10,85,44,132,18*65
$GLGSV,3,3,10,86,59,021,37,87,19,347,22*66
$GNGLL,0419.76920,S,05539.67128,E,130826.00,A,D*67
$GNRMC,130827.00,A,0419.76920,S,05539.67125,E,0.018,,200525,,,D*7B
$GNVTG,,T,,M,0.018,N,0.033,K,D*31
$GNGGA,130827.00,0419.76920,S,05539.67125,E,2,12,0.75,8.0,M,-47.6,M,,0000*79
$GNGSA,A,3,32,10,28,26,16,27,31,40,08,,,,1.40,0.75,1.18*11
$GNGSA,A,3,85,72,75,86,65,87,,,,,,,1.40,0.75,1.18*1B
$GPGSV,5,1,17,02,00,330,34,04,04,223,30,08,20,306,31,10,13,019,37*7C
$GPGSV,5,2,17,16,24,221,39,18,30,108,,23,01,057,,26,28,191,30*77
$GPGSV,5,3,17,27,54,282,39,28,59,118,35,31,49,171,35,32,39,005,44*77
$GPGSV,5,4,17,36,52,277,38,40,84,353,43,41,58,082,,49,32,274,35*76
$GPGSV,5,5,17,50,10,089,*4A
$GLGSV,3,1,10,65,28,267,36,66,03,226,27,71,03,014,30,72,31,333,22*6E
$GLGSV,3,2,10,74,14,116,10,75,19,167,15,76,01,219,13,85,44,132,19*67
$GLGSV,3,3,10,86,59,021,38,87,19,347,24*6F
$GNGLL,0419.76920,S,05539.67125,E,130827.00,A,D*6B
$GNRMC,130828.00,A,0419.76921,S,05539.67122,E,0.032,,200525,,,D*7A
$GNVTG,,T,,M,0.032,N,0.060,K,D*3F
$GNGGA,130828.00,0419.76921,S,05539.67122,E,2,12,0.75,8.0,M,-47.6,M,,0000*70
$GNGSA,A,3,32,10,28,26,16,27,31,40,08,,,,1.40,0.75,1.18*11
$GNGSA,A,3,85,72,75,86,65,87,,,,,,,1.40,0.75,1.18*1B
$GPGSV,5,1,17,02,00,330,31,04,04,223,30,08,20,306,30,10,13,019,37*78
$GPGSV,5,2,17,16,24,221,39,18,30,108,,23,01,057,,26,28,191,30*77
$GPGSV,5,3,17,27,54,282,39,28,59,118,35,31,49,171,35,32,39,005,44*77
$GPGSV,5,4,17,36,52,277,38,40,84,353,43,41,58,082,,49,32,274,35*76
$GPGSV,5,5,17,50,10,089,*4A
$GLGSV,3,1,10,65,28,267,36,66,03,226,27,71,03,014,30,72,31,333,23*6F
$GLGSV,3,2,10,74,14,116,10,75,19,167,13,76,01,219,12,85,44,132,21*6B
$GLGSV,3,3,10,86,59,021,38,87,19,347,26*6D
$GNGLL,0419.76921,S,05539.67122,E,130828.00,A,D*62
$GNRMC,130829.00,A,0419.76921,S,05539.67121,E,0.006,,200525,,,D*7F
$GNVTG,,T,,M,0.006,N,0.011,K,D*3E
$GNGGA,130829.00,0419.76921,S,05539.67121,E,2,12,0.75,8.1,M,-47.6,M,,0000*73
$GNGSA,A,3,32,10,28,26,16,27,31,40,08,,,,1.40,0.75,1.18*11
$GNGSA,A,3,85,72,75,86,65,87,,,,,,,1.40,0.75,1.18*1B
$GPGSV,5,1,17,02,00,330,30,04,04,223,30,08,20,306,32,10,13,019,38*74
$GPGSV,5,2,17,16,24,221,39,18,30,108,22,23,01,057,,26,28,191,30*77
$GPGSV,5,3,17,27,54,282,40,28,59,118,35,31,49,171,36,32,39,005,44*7A
$GPGSV,5,4,17,36,52,277,38,40,84,353,43,41,58,082,,49,32,274,35*76
$GPGSV,5,5,17,50,10,089,*4A
$GLGSV,3,1,10,65,28,268,35,66,03,226,27,71,03,014,31,72,31,333,23*62
$GLGSV,3,2,10,74,14,116,10,75,19,167,12,76,01,219,10,85,44,132,22*6B
$GLGSV,3,3,10,86,59,021,38,87,19,347,27*6C
