$GNRMC,131106.00,A,0419.77342,S,05539.67794,E,0.075,,200525,,,A*7D
$GNVTG,,T,,M,0.075,N,0.140,K,A*3A
$GNGGA,131106.00,0419.77342,S,05539.67794,E,1,12,0.68,11.5,M,-47.6,M,,*43
$GNGSA,A,3,32,18,10,28,26,16,27,31,08,04,,,1.49,0.68,1.33*14
$GNGSA,A,3,85,72,75,86,65,87,,,,,,,1.49,0.68,1.33*17
$GPGSV,5,1,17,02,01,331,21,04,05,224,13,08,21,305,40,10,13,020,34*72
$GPGSV,5,2,17,16,24,220,27,18,30,109,12,23,01,058,,26,28,190,17*70
$GPGSV,5,3,17,27,54,280,23,28,59,116,30,31,50,170,23,32,38,006,41*7C
$GPGSV,5,4,17,36,52,277,,40,84,353,,41,58,082,,49,32,274,*7C
$GPGSV,5,5,17,50,10,089,*4A
$GLGSV,3,1,10,65,28,269,21,66,04,227,,71,02,015,20,72,29,335,26*6F
$GLGSV,3,2,10,74,14,114,07,75,19,165,12,76,02,218,10,85,43,133,34*6E
$GLGSV,3,3,10,86,60,022,33,87,21,347,25*67
$GNGLL,0419.77342,S,05539.67794,E,131106.00,A,A*66
$GNRMC,131107.00,A,0419.77340,S,05539.67795,E,0.035,,200525,,,A*7B
$GNVTG,,T,,M,0.035,N,0.065,K,A*38
$GNGGA,131107.00,0419.77340,S,05539.67795,E,1,12,0.68,11.7,M,-47.6,M,,*43
$GNGSA,A,3,32,18,10,28,26,16,27,31,08,04,,,1.49,0.68,1.33*14
$GNGSA,A,3,85,72,75,86,65,87,,,,,,,1.49,0.68,1.33*17
$GPGSV,5,1,17,02,01,331,19,04,05,224,15,08,21,305,38,10,13,020,34*70
$GPGSV,5,2,17,16,24,220,26,18,30,109,13,23,01,058,,26,28,190,16*71
$GPGSV,5,3,17,27,54,280,22,28,59,116,28,31,50,170,23,32,38,006,39*7B
$GPGSV,5,4,17,36,52,277,,40,84,353,,41,58,082,,49,32,274,*7C
$GPGSV,5,5,17,50,10,089,*4A
$GLGSV,3,1,10,65,28,269,19,66,04,227,,71,02,015,19,72,29,335,23*6B
$GLGSV,3,2,10,74,14,114,06,75,19,165,08,76,02,218,07,85,43,133,30*66
$GLGSV,3,3,10,86,60,022,31,87,21,347,23*63
$GNGLL,0419.77340,S,05539.67795,E,131107.00,A,A*64
$GNRMC,131108.00,A,0419.77339,S,05539.67797,E,0.037,,200525,,,A*7A
$GNVTG,,T,,M,0.037,N,0.068,K,A*37
$GNGGA,131108.00,0419.77339,S,05539.67797,E,1,12,0.68,11.8,M,-47.6,M,,*4F
$GNGSA,A,3,32,18,10,28,26,16,27,31,08,04,,,1.49,0.68,1.33*14
$GNGSA,A,3,85,72,75,86,65,87,,,,,,,1.49,0.68,1.33*17
$GPGSV,5,1,17,02,01,331,17,04,05,224,14,08,21,305,38,10,13,020,34*7F
$GPGSV,5,2,17,16,24,220,26,18,30,109,12,23,01,058,,26,28,190,15*73
$GPGSV,5,3,17,27,54,280,23,28,59,116,27,31,50,170,22,32,38,006,39*74
$GPGSV,5,4,17,36,52,277,,40,84,353,,41,58,082,,49,32,274,*7C
$GPGSV,5,5,17,50,10,089,*4A
$GLGSV,3,1,10,65,28,269,18,66,04,227,,71,02,015,19,72,29,335,22*6B
$GLGSV,3,2,10,74,14,114,07,75,19,165,13,76,02,218,09,85,43,133,31*62
$GLGSV,3,3,10,86,60,022,29,87,21,347,21*68
$GNGLL,0419.77339,S,05539.67797,E,131108.00,A,A*67
$GNRMC,131109.00,A,0419.77335,S,05539.67799,E,0.021,,200525,,,A*7E
$GNVTG,,T,,M,0.021,N,0.039,K,A*34
$GNGGA,131109.00,0419.77335,S,05539.67799,E,1,12,0.68,11.8,M,-47.6,M,,*4C
$GNGSA,A,3,32,18,10,28,26,16,27,31,08,04,,,1.49,0.68,1.33*14
$GNGSA,A,3,85,72,75,86,65,87,,,,,,,1.49,0.68,1.33*17
$GPGSV,5,1,17,02,01,331,19,04,05,224,11,08,21,305,40,10,13,020,35*7A
$GPGSV,5,2,17,16,24,220,27,18,30,109,10,23,01,058,,26,28,190,15*70
$GPGSV,5,3,17,27,54,280,24,28,59,116,27,31,50,170,21,32,38,006,39*70
$GPGSV,5,4,17,36,52,277,,40,84,353,,41,58,082,,49,32,274,*7C
$GPGSV,5,5,17,50,10,089,*4A
$GLGSV,3,1,10,65,28,269,18,66,04,227,,71,02,015,18,72,29,335,24*6C
$GLGSV,3,2,10,74,14,114,08,75,19,165,11,76,02,218,06,85,43,133,32*63
$GLGSV,3,3,10,86,60,022,27,87,21,347,20*67
$GNGLL,0419.77335,S,05539.67799,E,131109.00,A,A*64
$GNRMC,131110.00,A,0419.77329,S,05539.67800,E,0.020,,200525,,,A*75
$GNVTG,,T,,M,0.020,N,0.037,K,A*3B
$GNGGA,131110.00,0419.77329,S,05539.67800,E,1,12,0.68,12.0,M,-47.6,M,,*4D
$GNGSA,A,3,32,18,10,28,26,16,27,31,08,04,,,1.49,0.68,1.33*14
$GNGSA,A,3,85,72,75,86,65,87,,,,,,,1.49,0.68,1.33*17
$GPGSV,5,1,17,02,01,331,21,04,05,224,09,08,21,305,40,10,13,020,34*79
$GPGSV,5,2,17,16,24,220,27,18,30,109,11,23,01,058,,26,28,190,14*70
$GPGSV,5,3,17,27,54,280,25,28,59,116,28,31,50,170,20,32,38,006,40*71
$GPGSV,5,4,17,36,52,277,,40,84,353,,41,58,082,,49,32,274,*7C
$GPGSV,5,5,17,50,10,089,*4A
$GLGSV,3,1,10,65,28,269,19,66,04,227,,71,02,015,19,72,29,335,26*6E
$GLGSV,3,2,10,74,14,114,08,75,19,165,17,76,02,217,11,85,43,133,33*6D
$GLGSV,3,3,10,86,60,022,29,87,21,347,21*68
$GNGLL,0419.77329,S,05539.67800,E,131110.00,A,A*6E
$GNRMC,131111.00,A,0419.77324,S,05539.67801,E,0.032,,200525,,,A*7B
$GNVTG,,T,,M,0.032,N,0.059,K,A*30
$GNGGA,131111.00,0419.77324,S,05539.67801,E,1,12,0.68,12.2,M,-47.6,M,,*42
$GNGSA,A,3,32,18,10,28,26,16,27,31,08,04,,,1.49,0.68,1.33*14
$GNGSA,A,3,85,72,75,86,65,87,,,,,,,1.49,0.68,1.33*17
$GPGSV,5,1,17,02,01,331,21,04,05,224,08,08,21,305,40,10,13,020,33*7F
$GPGSV,5,2,17,16,24,220,28,18,30,109,09,23,01,058,,26,28,190,13*71
$GPGSV,5,3,17,27,54,280,26,28,59,116,27,31,50,170,20,32,38,006,39*73
$GPGSV,5,4,17,36,52,277,,40,84,353,,41,58,082,,49,32,274,*7C
$GPGSV,5,5,17,50,10,089,*4A
$GLGSV,3,1,10,65,28,269,19,66,04,227,,71,02,015,21,72,29,335,26*65
$GLGSV,3,2,10,74,14,114,08,75,19,165,15,76,02,217,10,85,43,133,33*6E
$GLGSV,3,3,10,86,60,022,31,87,21,347,21*61
$GNGLL,0419.77324,S,05539.67801,E,131111.00,A,A*63
$GNRMC,131112.00,A,0419.77321,S,05539.67804,E,0.047,,200525,,,A*7A
$GNVTG,,T,,M,0.047,N,0.087,K,A*31
$GNGGA,131112.00,0419.77321,S,05539.67804,E,1,12,0.68,12.3,M,-47.6,M,,*40
$GNGSA,A,3,32,18,10,28,26,16,27,31,08,04,,,1.49,0.68,1.33*14
$GNGSA,A,3,85,72,75,86,65,87,,,,,,,1.49,0.68,1.33*17
$GPGSV,5,1,17,02,01,331,22,04,05,224,11,08,21,305,39,10,13,020,31*78
$GPGSV,5,2,17,16,24,220,27,18,30,109,10,23,01,058,,26,28,190,14*71
$GPGSV,5,3,17,27,54,280,26,28,59,116,27,31,50,170,20,32,38,006,38*72
$GPGSV,5,4,17,36,52,277,,40,84,353,,41,58,082,,49,32,274,*7C
$GPGSV,5,5,17,50,10,089,*4A
$GLGSV,3,1,10,65,28,269,20,66,04,227,,71,02,015,21,72,29,335,25*6C
$GLGSV,3,2,10,74,14,114,05,75,19,165,08,76,02,217,07,85,43,133,32*68
$GLGSV,3,3,10,86,60,022,30,87,21,347,21*60
$GNGLL,0419.77321,S,05539.67804,E,131112.00,A,A*60
$GNRMC,131113.00,A,0419.77318,S,05539.67805,E,0.044,,200525,,,A*73
$GNVTG,,T,,M,0.044,N,0.082,K,A*37
$GNGGA,131113.00,0419.77318,S,05539.67805,E,1,12,0.68,12.4,M,-47.6,M,,*4D
$GNGSA,A,3,32,18,10,28,26,16,27,31,08,04,,,1.49,0.68,1.33*14
$GNGSA,A,3,85,72,75,86,65,87,,,,,,,1.49,0.68,1.33*17
$GPGSV,5,1,17,02,01,331,22,04,05,224,11,08,21,305,40,10,13,020,32*75
$GPGSV,5,2,17,16,24,220,26,18,30,109,13,23,01,058,,26,28,190,14*73
$GPGSV,5,3,17,27,54,280,26,28,59,116,27,31,50,170,19,32,38,006,40*77
$GPGSV,5,4,17,36,52,277,,40,84,353,,41,58,082,,49,32,274,*7C
$GPGSV,5,5,17,50,10,089,*4A
$GLGSV,3,1,10,65,28,269,20,66,04,227,,71,02,015,21,72,29,335,26*6F
$GLGSV,3,2,10,74,14,114,09,75,19,165,09,76,02,217,10,85,43,133,32*63
$GLGSV,3,3,10,86,60,022,31,87,21,347,21*61
$GNGLL,0419.77318,S,05539.67805,E,131113.00,A,A*6A
$GNRMC,131114.00,A,0419.77316,S,05539.67806,E,0.042,,200525,,,A*7F
$GNVTG,,T,,M,0.042,N,0.077,K,A*3B
$GNGGA,131114.00,0419.77316,S,05539.67806,E,1,12,0.69,12.5,M,-47.6,M,,*47
$GNGSA,A,3,32,18,10,28,26,16,27,08,04,,,,1.54,0.69,1.38*10
$GNGSA,A,3,85,72,75,86,65,87,,,,,,,1.54,0.69,1.38*11
$GPGSV,5,1,17,02,01,331,21,04,05,224,14,08,21,305,41,10,13,020,35*75
$GPGSV,5,2,17,16,24,220,26,18,30,109,14,23,01,058,,26,28,190,15*75
$GPGSV,5,3,17,27,54,280,25,28,59,116,27,31,50,170,,32,38,006,42*7E
$GPGSV,5,4,17,36,52,277,,40,84,353,,41,58,082,,49,32,274,*7C
$GPGSV,5,5,17,50,10,089,*4A
$GLGSV,3,1,10,65,28,269,20,66,04,227,,71,02,015,21,72,29,335,26*6F
$GLGSV,3,2,10,74,14,114,09,75,19,165,13,76,02,217,10,85,43,133,31*6B
$GLGSV,3,3,10,86,60,022,31,87,21,347,22*62
$GNGLL,0419.77316,S,05539.67806,E,131114.00,A,A*60
$GNRMC,131115.00,A,0419.77313,S,05539.67808,E,0.009,,200525,,,A*7A
$GNVTG,,T,,M,0.009,N,0.016,K,A*33
$GNGGA,131115.00,0419.77313,S,05539.67808,E,1,12,0.69,12.6,M,-47.6,M,,*4E
$GNGSA,A,3,32,18,10,28,26,16,27,08,04,,,,1.54,0.69,1.38*10
$GNGSA,A,3,85,72,75,86,65,87,,,,,,,1.54,0.69,1.38*11
$GPGSV,5,1,17,02,01,331,21,04,05,224,12,08,21,305,41,10,13,020,35*73
$GPGSV,5,2,17,16,24,220,26,18,30,109,15,23,01,058,,26,28,190,15*74
$GPGSV,5,3,17,27,54,280,26,28,59,116,28,31,50,170,23,32,38,006,42*73
$GPGSV,5,4,17,36,52,277,,40,84,353,,41,58,082,,49,32,274,*7C
$GPGSV,5,5,17,50,10,089,*4A
$GLGSV,3,1,10,65,28,269,20,66,04,227,,71,02,015,21,72,29,335,27*6E
$GLGSV,3,2,10,74,14,114,11,75,19,165,11,76,02,217,12,85,43,133,33*60
$GLGSV,3,3,10,86,60,022,33,87,21,347,23*61
$GNGLL,0419.77313,S,05539.67808,E,131115.00,A,A*6A
$GNRMC,131116.00,A,0419.77312,S,05539.67812,E,0.019,,200525,,,A*72
$GNVTG,,T,,M,0.019,N,0.034,K,A*32
$GNGGA,131116.00,0419.77312,S,05539.67812,E,1,12,0.69,12.5,M,-47.6,M,,*44
$GNGSA,A,3,32,18,10,28,26,16,27,08,04,,,,1.54,0.69,1.38*10
$GNGSA,A,3,85,72,75,86,65,87,,,,,,,1.54,0.69,1.38*11
$GPGSV,5,1,17,02,01,331,22,04,05,224,15,08,21,305,42,10,13,020,34*75
$GPGSV,5,2,17,16,24,220,26,18,30,109,13,23,01,058,,26,28,190,16*71
$GPGSV,5,3,17,27,54,280,25,28,59,116,29,31,50,170,22,32,38,006,40*72
$GPGSV,5,4,17,36,52,277,,40,84,353,,41,58,082,,49,32,274,*7C
$GPGSV,5,5,17,50,10,089,*4A
$GLGSV,3,1,10,65,28,269,19,66,04,227,,71,02,015,21,72,29,335,27*64
$GLGSV,3,2,10,74,14,114,11,75,19,165,10,76,02,217,09,85,43,133,32*6A
$GLGSV,3,3,10,86,60,022,32,87,21,347,22*61
$GNGLL,0419.77312,S,05539.67812,E,131116.00,A,A*63
$GNRMC,131117.00,A,0419.77311,S,05539.67815,E,0.069,,200525,,,A*70
$GNVTG,,T,,M,0.069,N,0.127,K,A*36
$GNGGA,131117.00,0419.77311,S,05539.67815,E,1,12,0.68,12.5,M,-47.6,M,,*40
$GNGSA,A,3,32,18,10,28,26,16,27,31,08,04,,,1.49,0.68,1.33*14
$GNGSA,A,3,85,72,75,86,65,87,,,,,,,1.49,0.68,1.33*17
$GPGSV,5,1,17,02,01,331,24,04,05,224,11,08,21,305,42,10,13,020,34*77
$GPGSV,5,2,17,16,24,220,26,18,30,109,17,23,01,058,,26,28,190,19*7A
$GPGSV,5,3,17,27,54,280,23,28,59,116,30,31,50,170,24,32,38,006,42*78
$GPGSV,5,4,17,36,52,277,,40,84,353,,41,58,082,,49,32,274,*7C
$GPGSV,5,5,17,50,10,089,*4A
$GLGSV,3,1,10,65,28,269,20,66,04,227,,71,02,015,23,72,29,335,28*63
$GLGSV,3,2,10,74,14,114,08,75,19,165,12,76,02,217,08,85,43,133,31*62
$GLGSV,3,3,10,86,60,022,29,87,21,347,26*6F
$GNGLL,0419.77311,S,05539.67815,E,131117.00,A,A*66
$GNRMC,131118.00,A,0419.77313,S,05539.67818,E,0.042,,200525,,,A*79
$GNVTG,,T,,M,0.042,N,0.077,K,A*3B
$GNGGA,131118.00,0419.77313,S,05539.67818,E,1,12,0.68,12.5,M,-47.6,M,,*40
$GNGSA,A,3,32,18,10,28,26,16,27,31,08,04,,,1.49,0.68,1.33*14
$GNGSA,A,3,85,72,75,86,65,87,,,,,,,1.49,0.68,1.33*17
$GPGSV,5,1,17,02,01,331,23,04,05,224,10,08,21,305,41,10,13,020,34*72
$GPGSV,5,2,17,16,24,220,25,18,30,109,20,23,01,058,,26,28,190,21*76
$GPGSV,5,3,17,27,54,280,21,28,59,116,30,31,50,170,25,32,38,006,39*77
$GPGSV,5,4,17,36,52,277,,40,84,353,,41,58,082,,49,32,274,*7C
$GPGSV,5,5,17,50,10,089,*4A
$GLGSV,3,1,10,65,28,269,19,66,04,227,17,71,02,015,22,72,29,335,29*6F
$GLGSV,3,2,10,74,14,114,08,75,19,165,11,76,02,217,09,85,43,133,30*61
$GLGSV,3,3,10,86,60,022,31,87,21,347,24*64
$GNGLL,0419.77313,S,05539.67818,E,131118.00,A,A*66
$GNRMC,131119.00,A,0419.77312,S,05539.67824,E,0.113,,200525,,,A*73
$GNVTG,,T,,M,0.113,N,0.210,K,A*3D
$GNGGA,131119.00,0419.77312,S,05539.67824,E,1,12,0.68,12.5,M,-47.6,M,,*4F
$GNGSA,A,3,32,18,10,28,26,16,27,31,08,04,,,1.49,0.68,1.33*14
$GNGSA,A,3,85,72,75,86,65,87,,,,,,,1.49,0.68,1.33*17
$GPGSV,5,1,17,02,01,331,23,04,05,224,10,08,21,305,42,10,13,020,35*70
$GPGSV,5,2,17,16,24,220,23,18,30,109,20,23,01,058,,26,28,190,22*73
$GPGSV,5,3,17,27,54,280,18,28,59,116,28,31,50,170,23,32,38,006,41*7D
$GPGSV,5,4,17,36,52,277,,40,84,353,,41,58,082,,49,32,274,*7C
$GPGSV,5,5,17,50,10,089,*4A
$GLGSV,3,1,10,65,28,269,16,66,04,227,,71,02,015,22,72,29,335,28*67
$GLGSV,3,2,10,74,14,114,07,75,19,165,12,76,02,217,12,85,42,134,29*69
$GLGSV,3,3,10,86,60,022,30,87,21,347,23*62
$GNGLL,0419.77312,S,05539.67824,E,131119.00,A,A*69
$GNRMC,131120.00,A,0419.77313,S,05539.67828,E,0.052,,200525,,,A*70
$GNVTG,,T,,M,0.052,N,0.095,K,A*36
$GNGGA,131120.00,0419.77313,S,05539.67828,E,1,12,0.64,12.6,M,-47.6,M,,*47
$GNGSA,A,3,32,18,10,28,26,16,27,31,08,04,,,1.35,0.64,1.19*1B
$GNGSA,A,3,85,72,75,86,65,87,,,,,,,1.35,0.64,1.19*18
$GPGSV,5,1,17,02,01,331,22,04,05,224,11,08,21,305,42,10,13,020,35*70
$GPGSV,5,2,17,16,24,220,24,18,30,109,20,23,01,058,,26,28,190,21*77
$GPGSV,5,3,17,27,54,280,17,28,59,116,28,31,50,170,20,32,38,006,41*71
$GPGSV,5,4,17,36,52,277,,40,84,353,,41,58,082,,49,32,274,*7C
$GPGSV,5,5,17,50,10,089,*4A
$GLGSV,3,1,10,65,28,269,16,66,04,227,,71,02,015,22,72,29,335,27*68
$GLGSV,3,2,10,74,14,114,08,75,19,165,10,76,02,217,08,85,42,134,29*6F
$GLGSV,3,3,10,86,61,022,30,87,21,347,21*61
$GNGLL,0419.77313,S,05539.67828,E,131120.00,A,A*6E
$GNRMC,131121.00,A,0419.77313,S,05539.67830,E,0.039,,200525,,,A*75
$GNVTG,,T,,M,0.039,N,0.072,K,A*32
$GNGGA,131121.00,0419.77313,S,05539.67830,E,1,12,0.69,12.6,M,-47.6,M,,*42
$GNGSA,A,3,32,18,10,28,26,16,27,08,04,,,,1.54,0.69,1.38*10
$GNGSA,A,3,85,72,75,86,65,87,,,,,,,1.54,0.69,1.38*11
$GPGSV,5,1,17,02,01,331,21,04,05,224,08,08,21,305,41,10,13,020,35*78
$GPGSV,5,2,17,16,24,220,25,18,30,109,19,23,01,058,,26,28,190,22*7F
$GPGSV,5,3,17,27,54,280,17,28,59,116,28,31,50,170,19,32,38,006,40*7A
$GPGSV,5,4,17,36,52,277,,40,84,353,,41,58,082,,49,32,274,*7C
$GPGSV,5,5,17,50,10,089,*4A
$GLGSV,3,1,10,65,28,269,17,66,04,227,,71,02,015,24,72,29,335,28*60
$GLGSV,3,2,10,74,14,114,10,75,19,165,14,76,02,217,10,85,42,134,29*6B
$GLGSV,3,3,10,86,61,022,32,87,21,347,21*63
$GNGLL,0419.77313,S,05539.67830,E,131121.00,A,A*66
$GNRMC,131122.00,A,0419.77318,S,05539.67834,E,0.085,,200525,,,A*7E
$GNVTG,,T,,M,0.085,N,0.158,K,A*3C
$GNGGA,131122.00,0419.77318,S,05539.67834,E,1,12,0.69,12.5,M,-47.6,M,,*4D
$GNGSA,A,3,32,18,10,28,26,16,27,08,04,,,,1.54,0.69,1.38*10
$GNGSA,A,3,85,72,75,86,65,87,,,,,,,1.54,0.69,1.38*11
$GPGSV,5,1,17,02,01,331,20,04,05,224,08,08,21,305,40,10,13,020,34*79
$GPGSV,5,2,17,16,24,220,24,18,30,109,19,23,01,058,,26,28,190,22*7E
$GPGSV,5,3,17,27,54,280,18,28,59,116,28,31,50,170,19,32,38,006,39*7B
$GPGSV,5,4,17,36,52,277,,40,84,353,,41,58,082,,49,32,274,*7C
$GPGSV,5,5,17,50,10,089,*4A
$GLGSV,3,1,10,65,28,269,18,66,04,227,,71,02,015,24,72,29,335,27*60
$GLGSV,3,2,10,74,14,114,08,75,19,165,10,76,02,217,09,85,42,134,28*6F
$GLGSV,3,3,10,86,61,022,31,87,21,347,23*62
$GNGLL,0419.77318,S,05539.67834,E,131122.00,A,A*6A
$GNRMC,131123.00,A,0419.77323,S,05539.67837,E,0.068,,200525,,,A*77
$GNVTG,,T,,M,0.068,N,0.125,K,A*35
$GNGGA,131123.00,0419.77323,S,05539.67837,E,1,12,0.69,12.4,M,-47.6,M,,*46
$GNGSA,A,3,32,18,10,28,26,16,27,08,04,,,,1.54,0.69,1.38*10
$GNGSA,A,3,85,72,75,86,65,87,,,,,,,1.54,0.69,1.38*11
$GPGSV,5,1,17,02,01,331,19,04,05,224,10,08,21,305,40,10,13,020,33*7D
$GPGSV,5,2,17,16,24,220,25,18,30,109,18,23,01,058,,26,28,190,21*7D
$GPGSV,5,3,17,27,54,280,17,28,59,116,28,31,50,170,19,32,38,006,39*74
$GPGSV,5,4,17,36,52,277,,40,84,353,,41,58,082,,49,32,274,*7C
$GPGSV,5,5,17,50,10,089,*4A
$GLGSV,3,1,10,65,28,269,17,66,04,227,,71,02,015,24,72,29,335,28*60
$GLGSV,3,2,10,74,14,114,11,75,19,165,14,76,02,217,12,85,42,134,28*69
$GLGSV,3,3,10,86,61,022,32,87,21,347,23*61
$GNGLL,0419.77323,S,05539.67837,E,131123.00,A,A*60
$GNRMC,131124.00,A,0419.77322,S,05539.67840,E,0.122,,200525,,,A*7E
$GNVTG,,T,,M,0.122,N,0.225,K,A*39
$GNGGA,131124.00,0419.77322,S,05539.67840,E,1,12,0.69,12.2,M,-47.6,M,,*46
$GNGSA,A,3,32,18,10,28,26,16,27,08,04,,,,1.54,0.69,1.38*10
$GNGSA,A,3,85,72,75,86,65,87,,,,,,,1.54,0.69,1.38*11
$GPGSV,5,1,17,02,01,331,19,04,05,224,09,08,21,305,40,10,13,020,34*72
$GPGSV,5,2,17,16,24,220,25,18,30,109,19,23,01,058,,26,28,190,22*7F
$GPGSV,5,3,17,27,54,280,20,28,59,116,28,31,50,170,,32,38,006,39*78
$GPGSV,5,4,17,36,52,277,,40,84,353,,41,58,082,,49,32,274,*7C
$GPGSV,5,5,17,50,10,089,*4A
$GLGSV,3,1,10,65,28,269,17,66,04,227,,71,02,015,23,72,29,335,28*67
$GLGSV,3,2,10,74,14,114,11,75,19,165,15,76,02,217,08,85,42,134,29*62
$GLGSV,3,3,10,86,61,022,32,87,21,347,24*66
$GNGLL,0419.77322,S,05539.67840,E,131124.00,A,A*66
$GNRMC,131125.00,A,0419.77327,S,05539.67840,E,0.168,,200525,,,A*74
$GNVTG,,T,,M,0.168,N,0.311,K,A*31
$GNGGA,131125.00,0419.77327,S,05539.67840,E,1,12,0.64,12.0,M,-47.6,M,,*4D
$GNGSA,A,3,32,18,10,28,26,16,27,08,04,,,,1.40,0.64,1.25*14
$GNGSA,A,3,85,72,75,86,65,87,,,,,,,1.40,0.64,1.25*15
$GPGSV,5,1,17,02,01,331,19,04,05,224,09,08,21,305,38,10,13,020,29*71
$GPGSV,5,2,17,16,24,220,25,18,30,109,19,23,01,058,,26,28,190,19*77
$GPGSV,5,3,17,27,54,280,19,28,59,116,27,31,50,170,20,32,38,006,36*70
$GPGSV,5,4,17,36,52,277,,40,84,353,,41,58,082,,49,32,274,*7C
$GPGSV,5,5,17,50,10,089,*4A
$GLGSV,3,1,10,65,28,269,19,66,04,227,,71,02,015,24,72,29,335,27*61
$GLGSV,3,2,10,74,14,114,11,75,19,165,15,76,02,217,11,85,42,134,29*6A
$GLGSV,3,3,10,86,61,022,30,87,21,347,23*63
$GNGLL,0419.77327,S,05539.67840,E,131125.00,A,A*62
$GNRMC,131126.00,A,0419.77330,S,05539.67840,E,0.111,,200525,,,A*7F
$GNVTG,,T,,M,0.111,N,0.205,K,A*3B
$GNGGA,131126.00,0419.77330,S,05539.67840,E,1,12,0.66,12.0,M,-47.6,M,,*4A
$GNGSA,A,3,32,18,10,28,26,16,27,08,04,,,,1.41,0.66,1.24*16
$GNGSA,A,3,85,72,75,86,65,87,,,,,,,1.41,0.66,1.24*17
$GPGSV,5,1,17,02,01,331,18,04,05,224,11,08,21,305,40,10,13,020,31*7F
$GPGSV,5,2,17,16,24,220,24,18,30,109,18,23,01,058,,26,28,190,18*76
$GPGSV,5,3,17,27,54,280,17,28,59,116,27,31,50,170,21,32,38,006,38*71
$GPGSV,5,4,17,36,52,277,,40,84,353,,41,58,082,,49,32,274,*7C
$GPGSV,5,5,17,50,10,089,*4A
$GLGSV,3,1,10,65,28,269,19,66,04,227,,71,02,015,23,72,29,335,27*66
$GLGSV,3,2,10,74,14,114,07,75,19,165,11,76,02,217,09,85,42,134,29*60
$GLGSV,3,3,10,86,61,022,30,87,21,347,23*63
$GNGLL,0419.77330,S,05539.67840,E,131126.00,A,A*67
$GNRMC,131127.00,A,0419.77331,S,05539.67840,E,0.040,,200525,,,A*7A
$GNVTG,,T,,M,0.040,N,0.074,K,A*3A
$GNGGA,131127.00,0419.77331,S,05539.67840,E,1,12,0.68,11.9,M,-47.6,M,,*4E
$GNGSA,A,3,32,18,10,28,26,16,27,31,08,04,,,1.49,0.68,1.33*14
$GNGSA,A,3,85,72,75,86,65,87,,,,,,,1.49,0.68,1.33*17
$GPGSV,5,1,17,02,01,331,19,04,05,224,09,08,21,305,42,10,13,020,35*71
$GPGSV,5,2,17,16,24,220,25,18,30,109,20,23,01,058,,26,28,190,18*7C
$GPGSV,5,3,17,27,54,280,17,28,59,116,29,31,50,170,21,32,38,006,40*70
$GPGSV,5,4,17,36,52,277,,40,84,353,,41,58,082,,49,32,274,*7C
$GPGSV,5,5,17,50,10,089,*4A
$GLGSV,3,1,10,65,28,269,19,66,04,227,,71,02,015,23,72,29,335,28*69
$GLGSV,3,2,10,74,14,114,10,75,19,165,16,76,02,217,08,85,42,134,29*60
$GLGSV,3,3,10,86,61,022,30,87,21,347,23*63
$GNGLL,0419.77331,S,05539.67840,E,131127.00,A,A*67
$GNRMC,131128.00,A,0419.77328,S,05539.67841,E,0.078,,200525,,,A*77
$GNVTG,,T,,M,0.078,N,0.144,K,A*33
$GNGGA,131128.00,0419.77328,S,05539.67841,E,1,12,0.68,11.9,M,-47.6,M,,*48
$GNGSA,A,3,32,18,10,28,26,16,27,31,08,04,,,1.49,0.68,1.33*14
$GNGSA,A,3,85,72,75,86,65,87,,,,,,,1.49,0.68,1.33*17
$GPGSV,5,1,17,02,01,331,18,04,05,224,08,08,21,305,39,10,13,020,31*79
$GPGSV,5,2,17,16,24,220,25,18,30,109,20,23,01,058,,26,28,190,18*7C
$GPGSV,5,3,17,27,54,280,18,28,59,116,28,31,50,170,20,32,38,006,37*7F
$GPGSV,5,4,17,36,52,277,,40,84,353,,41,58,082,,49,32,274,*7C
$GPGSV,5,5,17,50,10,089,*4A
$GLGSV,3,1,10,65,28,269,19,66,04,227,,71,02,015,22,72,29,335,28*68
$GLGSV,3,2,10,74,14,114,07,75,19,165,09,76,02,217,10,85,42,134,28*60
$GLGSV,3,3,10,86,61,022,29,87,21,347,23*6B
$GNGLL,0419.77328,S,05539.67841,E,131128.00,A,A*61
$GNRMC,131129.00,A,0419.77327,S,05539.67846,E,0.096,,200525,,,A*7E
$GNVTG,,T,,M,0.096,N,0.177,K,A*33
$GNGGA,131129.00,0419.77327,S,05539.67846,E,1,12,0.68,11.7,M,-47.6,M,,*4F
$GNGSA,A,3,32,18,10,28,26,16,27,31,08,04,,,1.49,0.68,1.33*14
$GNGSA,A,3,85,72,75,86,65,87,,,,,,,1.49,0.68,1.33*17
$GPGSV,5,1,17,02,01,331,19,04,05,224,11,08,21,305,39,10,13,020,32*73
$GPGSV,5,2,17,16,24,220,25,18,30,109,20,23,01,058,,26,28,190,19*7D
$GPGSV,5,3,17,27,54,280,19,28,59,116,27,31,50,170,19,32,38,006,36*7A
$GPGSV,5,4,17,36,52,277,,40,84,353,,41,58,082,,49,32,274,*7C
$GPGSV,5,5,17,50,10,089,*4A
$GLGSV,3,1,10,65,28,269,20,66,04,227,,71,02,015,24,72,29,335,28*64
$GLGSV,3,2,10,74,14,114,09,75,19,165,13,76,02,217,11,85,42,134,28*64
$GLGSV,3,3,10,86,61,022,29,87,21,347,23*6B
$GNGLL,0419.77327,S,05539.67846,E,131129.00,A,A*68
$GNRMC,131130.00,A,0419.77327,S,05539.67846,E,0.075,,200525,,,A*7B
$GNVTG,,T,,M,0.075,N,0.138,K,A*35
$GNGGA,131130.00,0419.77327,S,05539.67846,E,1,12,0.68,11.7,M,-47.6,M,,*47
$GNGSA,A,3,32,18,10,28,26,16,27,31,08,04,,,1.49,0.68,1.33*14
$GNGSA,A,3,85,72,75,86,65,87,,,,,,,1.49,0.68,1.33*17
$GPGSV,5,1,17,02,01,331,20,04,05,224,11,08,21,305,40,10,13,020,33*76
$GPGSV,5,2,17,16,24,220,25,18,30,109,20,23,01,058,,26,28,190,20*77
$GPGSV,5,3,17,27,54,280,19,28,59,116,27,31,50,170,18,32,38,006,38*75
$GPGSV,5,4,17,36,52,277,,40,84,353,,41,58,082,,49,32,274,*7C
$GPGSV,5,5,17,50,10,089,*4A
$GLGSV,3,1,10,65,28,269,21,66,04,227,,71,02,015,24,72,29,335,29*64
$GLGSV,3,2,10,74,14,114,08,75,19,165,16,76,02,217,09,85,42,134,28*69
$GLGSV,3,3,10,86,61,022,31,87,21,347,23*62
$GNGLL,0419.77327,S,05539.67846,E,131130.00,A,A*60
$GNRMC,131131.00,A,0419.77328,S,05539.67846,E,0.056,,200525,,,A*74
$GNVTG,,T,,M,0.056,N,0.104,K,A*3B
$GNGGA,131131.00,0419.77328,S,05539.67846,E,1,12,0.69,11.7,M,-47.6,M,,*48
$GNGSA,A,3,32,18,10,28,26,16,27,08,04,,,,1.54,0.69,1.38*10
$GNGSA,A,3,85,72,75,86,65,87,,,,,,,1.54,0.69,1.38*11
$GPGSV,5,1,17,02,01,331,21,04,05,224,16,08,21,305,41,10,13,020,33*71
$GPGSV,5,2,17,16,24,220,25,18,30,109,20,23,01,058,,26,28,190,20*77
$GPGSV,5,3,17,27,54,280,18,28,59,116,27,31,50,170,,32,38,006,38*7D
$GPGSV,5,4,17,36,52,277,,40,84,353,,41,58,082,,49,32,274,*7C
$GPGSV,5,5,17,50,10,089,*4A
$GLGSV,3,1,10,65,28,269,20,66,04,227,,71,02,015,24,72,29,335,29*65
$GLGSV,3,2,10,74,14,114,11,75,19,165,15,76,02,217,09,85,42,134,30*6B
$GLGSV,3,3,10,86,61,022,31,87,21,347,24*65
$GNGLL,0419.77328,S,05539.67846,E,131131.00,A,A*6E
$GNRMC,131132.00,A,0419.77330,S,05539.67848,E,0.119,,200525,,,A*7A
$GNVTG,,T,,M,0.119,N,0.220,K,A*34
$GNGGA,131132.00,0419.77330,S,05539.67848,E,1,12,0.69,11.6,M,-47.6,M,,*4D
$GNGSA,A,3,32,18,10,28,26,16,27,08,04,,,,1.54,0.69,1.38*10
$GNGSA,A,3,85,72,75,86,65,87,,,,,,,1.54,0.69,1.38*11
$GPGSV,5,1,17,02,01,331,22,04,05,224,10,08,21,305,37,10,13,021,32*75
$GPGSV,5,2,17,16,24,220,25,18,30,109,21,23,01,058,,26,28,190,20*76
$GPGSV,5,3,17,27,54,280,17,28,59,116,26,31,50,170,18,32,38,006,37*75
$GPGSV,5,4,17,36,52,277,,40,84,353,,41,58,082,,49,32,274,*7C
$GPGSV,5,5,17,50,10,089,*4A
$GLGSV,3,1,10,65,28,269,21,66,04,227,,71,02,015,23,72,29,335,28*62
$GLGSV,3,2,10,74,14,114,09,75,19,165,14,76,02,217,08,85,42,134,29*6A
$GLGSV,3,3,10,86,61,022,31,87,21,347,23*62
$GNGLL,0419.77330,S,05539.67848,E,131132.00,A,A*6A
$GNRMC,131133.00,A,0419.77328,S,05539.67847,E,0.032,,200525,,,A*75
$GNVTG,,T,,M,0.032,N,0.060,K,A*3A
$GNGGA,131133.00,0419.77328,S,05539.67847,E,1,12,0.69,11.8,M,-47.6,M,,*44
$GNGSA,A,3,32,18,10,28,26,16,27,08,04,,,,1.54,0.69,1.38*10
$GNGSA,A,3,85,72,75,86,65,87,,,,,,,1.54,0.69,1.38*11
$GPGSV,5,1,17,02,01,331,22,04,05,224,10,08,21,305,42,10,13,021,36*73
$GPGSV,5,2,17,16,24,220,26,18,30,109,23,23,01,058,,26,28,190,21*76
$GPGSV,5,3,17,27,54,280,18,28,59,116,27,31,50,170,22,32,38,006,40*72
$GPGSV,5,4,17,36,52,277,,40,84,353,,41,58,082,,49,32,274,*7C
$GPGSV,5,5,17,50,10,089,*4A
$GLGSV,3,1,10,65,28,269,20,66,04,227,,71,02,015,22,72,29,335,28*62
$GLGSV,3,2,10,74,14,114,10,75,19,165,14,76,02,217,07,85,42,134,30*65
$GLGSV,3,3,10,86,61,022,32,87,21,347,21*63
$GNGLL,0419.77328,S,05539.67847,E,131133.00,A,A*6D
$GNRMC,131134.00,A,0419.77330,S,05539.67851,E,0.026,,200525,,,A*79
$GNVTG,,T,,M,0.026,N,0.049,K,A*34
$GNGGA,131134.00,0419.77330,S,05539.67851,E,1,12,0.69,11.7,M,-47.6,M,,*42
$GNGSA,A,3,32,18,10,28,26,16,27,08,04,,,,1.54,0.69,1.38*10
$GNGSA,A,3,85,72,75,86,65,87,,,,,,,1.54,0.69,1.38*11
$GPGSV,5,1,17,02,01,331,20,04,05,224,11,08,21,305,41,10,13,021,35*70
$GPGSV,5,2,17,16,24,220,26,18,30,109,22,23,01,058,,26,28,190,19*7C
$GPGSV,5,3,17,27,54,280,20,28,59,116,27,31,50,170,21,32,38,006,38*75
$GPGSV,5,4,17,36,52,277,,40,84,353,,41,58,082,,49,32,274,*7C
$GPGSV,5,5,17,50,10,089,*4A
$GLGSV,3,1,10,65,28,269,21,66,04,227,,71,02,015,19,72,29,335,29*6A
$GLGSV,3,2,10,74,14,114,10,75,19,165,12,76,02,217,09,85,42,134,31*6C
$GLGSV,3,3,10,86,61,022,32,87,21,347,25*67
$GNGLL,0419.77330,S,05539.67851,E,131134.00,A,A*64
$GNRMC,131135.00,A,0419.77327,S,05539.67853,E,0.027,,200525,,,A*7D
$GNVTG,,T,,M,0.027,N,0.050,K,A*3D
$GNGGA,131135.00,0419.77327,S,05539.67853,E,1,12,0.69,11.7,M,-47.6,M,,*47
$GNGSA,A,3,32,18,10,28,26,16,27,08,04,,,,1.54,0.69,1.38*10
$GNGSA,A,3,85,72,75,86,65,87,,,,,,,1.54,0.69,1.38*11
$GPGSV,5,1,17,02,01,331,18,04,05,224,12,08,21,305,42,10,13,021,35*7B
$GPGSV,5,2,17,16,24,220,27,18,30,109,20,23,01,058,,26,28,190,20*75
$GPGSV,5,3,17,27,54,280,25,28,59,116,28,31,50,170,20,32,38,006,39*7F
$GPGSV,5,4,17,36,52,277,,40,84,353,,41,58,082,,49,32,274,*7C
$GPGSV,5,5,17,50,10,089,*4A
$GLGSV,3,1,10,65,28,269,23,66,04,227,17,71,02,015,17,72,29,335,29*60
$GLGSV,3,2,10,74,14,114,06,75,19,165,12,76,02,217,11,85,42,134,32*61
$GLGSV,3,3,10,86,61,022,34,87,21,347,25*61
$GNGLL,0419.77327,S,05539.67853,E,131135.00,A,A*61
$GNRMC,131136.00,A,0419.77323,S,05539.67854,E,0.039,,200525,,,A*72
$GNVTG,,T,,M,0.039,N,0.071,K,A*31
$GNGGA,131136.00,0419.77323,S,05539.67854,E,1,12,0.68,11.7,M,-47.6,M,,*46
$GNGSA,A,3,32,18,10,28,26,16,27,31,08,04,,,1.49,0.68,1.33*14
$GNGSA,A,3,85,72,75,86,65,87,,,,,,,1.49,0.68,1.33*17
$GPGSV,5,1,17,02,01,331,15,04,05,224,14,08,21,305,42,10,13,021,35*70
$GPGSV,5,2,17,16,24,220,27,18,30,109,20,23,01,058,,26,28,190,21*74
$GPGSV,5,3,17,27,54,280,27,28,59,116,30,31,50,170,22,32,38,006,41*79
$GPGSV,5,4,17,36,52,277,,40,84,353,,41,58,082,,49,32,274,*7C
$GPGSV,5,5,17,50,10,089,*4A
$GLGSV,3,1,10,65,28,269,24,66,04,227,17,71,02,015,17,72,29,335,29*67
$GLGSV,3,2,10,74,14,114,09,75,19,165,15,76,02,217,09,85,42,134,33*61
$GLGSV,3,3,10,86,61,022,36,87,21,347,27*61
$GNGLL,0419.77323,S,05539.67854,E,131136.00,A,A*61
$GNRMC,131137.00,A,0419.77322,S,05539.67855,E,0.064,,200525,,,A*7B
$GNVTG,,T,,M,0.064,N,0.119,K,A*36
$GNGGA,131137.00,0419.77322,S,05539.67855,E,1,12,0.68,11.8,M,-47.6,M,,*48
$GNGSA,A,3,32,18,10,28,26,16,27,31,08,04,,,1.49,0.68,1.33*14
$GNGSA,A,3,85,72,75,86,65,87,,,,,,,1.49,0.68,1.33*17
$GPGSV,5,1,17,02,01,331,15,04,05,224,12,08,21,305,42,10,13,021,34*77
$GPGSV,5,2,17,16,24,220,27,18,30,109,19,23,01,058,,26,28,190,22*7D
$GPGSV,5,3,17,27,54,280,30,28,59,116,30,31,50,170,24,32,38,006,40*78
$GPGSV,5,4,17,36,52,277,,40,84,353,30,41,58,082,,49,32,274,*7F
$GPGSV,5,5,17,50,10,089,*4A
$GLGSV,3,1,10,65,28,269,26,66,04,227,16,71,02,015,17,72,29,335,30*6C
$GLGSV,3,2,10,74,14,114,10,75,19,165,18,76,02,217,11,85,42,134,33*6D
$GLGSV,3,3,10,86,61,022,36,87,21,347,26*60
$GNGLL,0419.77322,S,05539.67855,E,131137.00,A,A*60
$GNRMC,131138.00,A,0419.77324,S,05539.67856,E,0.067,,200525,,,A*72
$GNVTG,,T,,M,0.067,N,0.124,K,A*3B
$GNGGA,131138.00,0419.77324,S,05539.67856,E,1,12,0.68,11.7,M,-47.6,M,,*4D
$GNGSA,A,3,32,18,10,28,26,16,27,31,40,08,04,,1.49,0.68,1.33*10
$GNGSA,A,3,85,72,75,86,65,87,,,,,,,1.49,0.68,1.33*17
$GPGSV,5,1,17,02,01,331,16,04,05,224,09,08,21,305,42,10,13,021,34*7E
$GPGSV,5,2,17,16,24,220,27,18,30,109,19,23,01,058,,26,28,190,21*7E
$GPGSV,5,3,17,27,54,280,31,28,59,116,31,31,50,170,25,32,38,006,40*79
$GPGSV,5,4,17,36,52,277,,40,84,353,32,41,58,082,,49,32,274,*7D
$GPGSV,5,5,17,50,10,089,*4A
$GLGSV,3,1,10,65,28,269,27,66,04,227,15,71,02,015,17,72,29,335,30*6E
$GLGSV,3,2,10,74,14,114,10,75,19,165,15,76,02,217,08,85,42,134,32*69
$GLGSV,3,3,10,86,61,022,36,87,21,347,26*60
$GNGLL,0419.77324,S,05539.67856,E,131138.00,A,A*6A
$GNRMC,131139.00,A,0419.77321,S,05539.67855,E,0.023,,200525,,,A*75
$GNVTG,,T,,M,0.023,N,0.043,K,A*3B
$GNGGA,131139.00,0419.77321,S,05539.67855,E,1,12,0.68,11.7,M,-47.6,M,,*4A
$GNGSA,A,3,32,18,10,28,26,16,27,31,40,08,,,1.49,0.68,1.33*14
$GNGSA,A,3,85,72,75,86,65,87,,,,,,,1.49,0.68,1.33*17
$GPGSV,5,1,17,02,01,331,18,04,05,224,07,08,21,305,42,10,13,021,35*7F
$GPGSV,5,2,17,16,24,220,28,18,30,109,20,23,01,058,,26,28,190,23*79
$GPGSV,5,3,17,27,54,280,30,28,59,116,31,31,50,170,25,32,38,006,40*78
$GPGSV,5,4,17,36,52,277,,40,84,353,32,41,58,082,,49,32,274,*7D
$GPGSV,5,5,17,50,10,089,*4A
$GLGSV,3,1,10,65,28,269,26,66,04,227,17,71,02,015,17,72,29,335,29*65
$GLGSV,3,2,10,74,14,114,07,75,19,165,18,76,02,217,10,85,42,134,32*6B
$GLGSV,3,3,10,86,61,022,36,87,21,347,26*60
$GNGLL,0419.77321,S,05539.67855,E,131139.00,A,A*6D
$GNRMC,131140.00,A,0419.77319,S,05539.67855,E,0.026,,200525,,,A*75
$GNVTG,,T,,M,0.026,N,0.048,K,A*35
$GNGGA,131140.00,0419.77319,S,05539.67855,E,1,12,0.71,11.7,M,-47.6,M,,*47
$GNGSA,A,3,32,18,10,28,26,16,27,31,40,08,,,1.44,0.71,1.25*16
$GNGSA,A,3,85,72,86,65,87,,,,,,,,1.44,0.71,1.25*17
$GPGSV,5,1,17,02,01,331,18,04,05,224,06,08,21,305,42,10,13,021,35*7E
$GPGSV,5,2,17,16,24,220,28,18,30,110,22,23,01,058,,26,28,190,23*73
$GPGSV,5,3,17,27,54,280,30,28,59,116,31,31,50,170,25,32,38,006,40*78
$GPGSV,5,4,17,36,52,277,,40,84,353,31,41,58,082,,49,32,274,*7E
$GPGSV,5,5,17,50,10,089,*4A
$GLGSV,3,1,10,65,28,269,27,66,04,227,17,71,02,015,18,72,29,335,29*6B
$GLGSV,3,2,10,74,14,114,07,75,19,165,,76,02,217,13,85,42,134,33*60
$GLGSV,3,3,10,86,61,022,35,87,21,347,25*60
$GNGLL,0419.77319,S,05539.67855,E,131140.00,A,A*68
$GNRMC,131141.00,A,0419.77315,S,05539.67852,E,0.047,,200525,,,A*78
$GNVTG,,T,,M,0.047,N,0.086,K,A*30
$GNGGA,131141.00,0419.77315,S,05539.67852,E,1,12,0.71,11.7,M,-47.6,M,,*4D
$GNGSA,A,3,32,18,10,28,26,16,27,31,40,08,,,1.44,0.71,1.25*16
$GNGSA,A,3,85,72,86,65,87,,,,,,,,1.44,0.71,1.25*17
$GPGSV,5,1,17,02,01,331,18,04,05,224,07,08,21,305,42,10,13,021,35*7F
$GPGSV,5,2,17,16,24,220,28,18,30,110,23,23,01,058,,26,28,190,22*73
$GPGSV,5,3,17,27,54,280,30,28,59,116,31,31,50,170,24,32,38,006,39*77
$GPGSV,5,4,17,36,52,277,,40,84,353,32,41,58,082,,49,32,274,*7D
$GPGSV,5,5,17,50,10,089,*4A
$GLGSV,3,1,10,65,28,269,28,66,04,227,17,71,02,015,19,72,29,335,29*65
$GLGSV,3,2,10,74,14,114,12,75,19,165,18,76,02,217,09,85,42,134,33*66
$GLGSV,3,3,10,86,61,022,35,87,21,347,24*61
$GNGLL,0419.77315,S,05539.67852,E,131141.00,A,A*62
$GNRMC,131142.00,A,0419.77310,S,05539.67850,E,0.006,,200525,,,A*79
$GNVTG,,T,,M,0.006,N,0.010,K,A*3A
$GNGGA,131142.00,0419.77310,S,05539.67850,E,1,12,0.71,11.6,M,-47.6,M,,*48
$GNGSA,A,3,32,18,10,28,26,16,27,31,40,08,04,,1.44,0.71,1.25*12
$GNGSA,A,3,85,72,86,65,87,,,,,,,,1.44,0.71,1.25*17
$GPGSV,5,1,17,02,01,331,19,04,05,224,09,08,21,305,42,10,13,021,36*73
$GPGSV,5,2,17,16,24,220,28,18,30,110,22,23,01,058,,26,28,190,23*73
$GPGSV,5,3,17,27,54,280,30,28,59,116,31,31,50,170,23,32,38,006,39*70
$GPGSV,5,4,17,36,52,277,,40,84,353,31,41,58,082,,49,32,274,*7E
$GPGSV,5,5,17,50,10,089,*4A
$GLGSV,3,1,10,65,28,269,28,66,04,227,19,71,02,015,21,72,29,335,30*68
$GLGSV,3,2,10,74,14,114,09,75,19,165,18,76,02,217,10,85,42,134,33*64
$GLGSV,3,3,10,86,61,022,35,87,21,347,22*67
$GNGLL,0419.77310,S,05539.67850,E,131142.00,A,A*66
$GNRMC,131143.00,A,0419.77306,S,05539.67849,E,0.020,,200525,,,A*73
$GNVTG,,T,,M,0.020,N,0.038,K,A*34
$GNGGA,131143.00,0419.77306,S,05539.67849,E,1,12,0.72,11.6,M,-47.6,M,,*45
$GNGSA,A,3,32,18,10,28,26,16,27,31,40,08,04,,1.62,0.72,1.45*13
$GNGSA,A,3,85,72,86,65,87,,,,,,,,1.62,0.72,1.45*16
$GPGSV,5,1,17,02,01,331,19,04,05,224,07,08,21,305,42,10,13,021,36*7D
$GPGSV,5,2,17,16,24,220,28,18,30,110,22,23,01,058,,26,28,190,23*73
$GPGSV,5,3,17,27,54,280,30,28,59,116,30,31,50,170,23,32,38,006,39*71
$GPGSV,5,4,17,36,52,277,,40,84,353,32,41,58,082,,49,32,274,*7D
$GPGSV,5,5,17,50,10,089,*4A
$GLGSV,3,1,10,65,28,269,27,66,04,227,19,71,02,015,20,72,29,335,29*6E
$GLGSV,3,2,10,74,14,114,08,75,19,165,19,76,02,217,12,85,42,134,33*66
$GLGSV,3,3,10,86,61,022,34,87,21,347,23*67
$GNGLL,0419.77306,S,05539.67849,E,131143.00,A,A*68
$GNRMC,131144.00,A,0419.77301,S,05539.67848,E,0.017,,200525,,,A*76
$GNVTG,,T,,M,0.017,N,0.031,K,A*39
$GNGGA,131144.00,0419.77301,S,05539.67848,E,1,12,0.68,11.6,M,-47.6,M,,*4F
$GNGSA,A,3,32,18,10,28,26,16,27,31,40,08,04,,1.29,0.68,1.10*17
$GNGSA,A,3,85,72,86,65,87,,,,,,,,1.29,0.68,1.10*12
$GPGSV,5,1,17,02,01,331,19,04,05,224,09,08,21,305,42,10,13,021,36*73
$GPGSV,5,2,17,16,24,220,28,18,30,110,21,23,01,059,,26,28,190,24*76
$GPGSV,5,3,17,27,54,280,31,28,59,116,30,31,50,170,23,32,38,006,39*70
$GPGSV,5,4,17,36,52,277,,40,84,353,31,41,58,082,,49,32,274,*7E
$GPGSV,5,5,17,50,10,089,*4A
$GLGSV,3,1,10,65,28,269,28,66,04,227,20,71,02,015,19,72,29,335,29*61
$GLGSV,3,2,10,74,14,114,10,75,19,165,16,76,02,217,11,85,42,134,32*62
$GLGSV,3,3,10,86,61,022,34,87,21,347,22*66
$GNGLL,0419.77301,S,05539.67848,E,131144.00,A,A*69
$GNRMC,131145.00,A,0419.77297,S,05539.67848,E,0.011,,200525,,,A*7F
$GNVTG,,T,,M,0.011,N,0.020,K,A*3F
$GNGGA,131145.00,0419.77297,S,05539.67848,E,1,12,0.71,11.6,M,-47.6,M,,*48
$GNGSA,A,3,32,18,10,28,26,16,27,31,40,08,04,,1.44,0.71,1.25*12
$GNGSA,A,3,85,72,86,65,87,,,,,,,,1.44,0.71,1.25*17
$GPGSV,5,1,17,02,01,331,21,04,05,224,09,08,21,305,42,10,13,021,36*78
$GPGSV,5,2,17,16,24,220,28,18,30,110,20,23,01,059,,26,28,190,25*76
$GPGSV,5,3,17,27,54,280,31,28,59,116,30,31,50,170,23,32,38,006,39*70
$GPGSV,5,4,17,36,52,277,,40,84,353,31,41,58,082,,49,32,274,*7E
$GPGSV,5,5,17,50,10,089,*4A
$GLGSV,3,1,10,65,28,269,28,66,04,227,19,71,02,015,18,72,29,335,28*6B
$GLGSV,3,2,10,74,14,114,10,75,19,165,12,76,02,217,06,85,42,134,31*63
$GLGSV,3,3,10,86,61,022,33,87,21,347,22*61
$GNGLL,0419.77297,S,05539.67848,E,131145.00,A,A*66
$GNRMC,131146.00,A,0419.77295,S,05539.67848,E,0.073,,200525,,,A*7A
$GNVTG,,T,,M,0.073,N,0.135,K,A*3E
$GNGGA,131146.00,0419.77295,S,05539.67848,E,1,12,0.71,11.5,M,-47.6,M,,*4A
$GNGSA,A,3,32,18,10,28,26,16,27,31,40,08,04,,1.44,0.71,1.25*12
$GNGSA,A,3,85,72,86,65,87,,,,,,,,1.44,0.71,1.25*17
$GPGSV,5,1,17,02,01,331,23,04,05,224,09,08,21,305,42,10,13,021,35*79
$GPGSV,5,2,17,16,24,220,27,18,30,110,20,23,01,059,,26,28,190,25*79
$GPGSV,5,3,17,27,54,280,31,28,59,116,30,31,50,170,23,32,38,006,39*70
$GPGSV,5,4,17,36,52,277,,40,84,353,31,41,58,082,,49,32,274,*7E
$GPGSV,5,5,17,50,10,089,*4A
$GLGSV,3,1,10,65,28,269,27,66,04,227,18,71,02,015,18,72,29,335,28*65
$GLGSV,3,2,10,74,14,114,10,75,19,165,09,76,02,217,09,85,42,134,31*66
$GLGSV,3,3,10,86,61,022,33,87,21,347,23*60
$GNGLL,0419.77295,S,05539.67848,E,131146.00,A,A*67
$GNRMC,131147.00,A,0419.77294,S,05539.67850,E,0.053,,200525,,,A*71
$GNVTG,,T,,M,0.053,N,0.098,K,A*3A
$GNGGA,131147.00,0419.77294,S,05539.67850,E,1,12,0.71,11.4,M,-47.6,M,,*42
$GNGSA,A,3,32,18,10,28,26,16,27,31,40,08,,,1.44,0.71,1.25*16
$GNGSA,A,3,85,72,86,65,87,,,,,,,,1.44,0.71,1.25*17
$GPGSV,5,1,17,02,01,331,25,04,05,224,05,08,21,305,42,10,13,021,35*73
$GPGSV,5,2,17,16,24,220,28,18,30,110,18,23,01,059,,26,28,189,25*75
$GPGSV,5,3,17,27,54,280,30,28,59,116,30,31,50,170,22,32,38,006,39*70
$GPGSV,5,4,17,36,52,277,,40,84,353,32,41,58,082,,49,32,274,*7D
$GPGSV,5,5,17,50,10,089,*4A
$GLGSV,3,1,10,65,28,269,26,66,04,227,16,71,02,015,17,72,29,335,28*65
$GLGSV,3,2,10,74,14,114,07,75,19,165,08,76,02,217,09,85,42,134,30*60
$GLGSV,3,3,10,86,61,022,33,87,21,347,22*61
$GNGLL,0419.77294,S,05539.67850,E,131147.00,A,A*6E
$GNRMC,131148.00,A,0419.77293,S,05539.67849,E,0.033,,200525,,,D*72
$GNVTG,,T,,M,0.033,N,0.060,K,D*3E
$GNGGA,131148.00,0419.77293,S,05539.67849,E,2,12,0.71,11.4,M,-47.6,M,,0000*41
$GNGSA,A,3,32,18,10,28,26,16,27,31,40,08,04,,1.43,0.71,1.25*15
$GNGSA,A,3,85,72,75,86,65,87,,,,,,,1.43,0.71,1.25*12
$GPGSV,5,1,17,02,01,331,25,04,05,224,08,08,21,305,41,10,13,021,35*7D
$GPGSV,5,2,17,16,24,220,28,18,30,110,17,23,01,059,,26,28,189,24*7B
$GPGSV,5,3,17,27,54,279,31,28,59,116,29,31,50,170,21,32,38,006,39*7C
$GPGSV,5,4,17,36,52,277,,40,84,353,31,41,58,082,,49,32,274,*7E
$GPGSV,5,5,17,50,10,089,*4A
$GLGSV,3,1,10,65,28,269,27,66,04,227,17,71,02,015,16,72,29,335,28*64
$GLGSV,3,2,10,74,14,114,08,75,19,165,10,76,02,217,10,85,42,134,29*66
$GLGSV,3,3,10,86,61,022,32,87,21,347,22*60
$GNGLL,0419.77293,S,05539.67849,E,131148.00,A,D*6B
$GNRMC,131149.00,A,0419.77291,S,05539.67848,E,0.018,,200525,,,D*79
$GNVTG,,T,,M,0.018,N,0.034,K,D*36
$GNGGA,131149.00,0419.77291,S,05539.67848,E,2,12,0.71,11.4,M,-47.6,M,,0000*43
$GNGSA,A,3,32,18,10,28,26,16,27,31,40,08,04,,1.43,0.71,1.25*15
$GNGSA,A,3,85,72,75,86,65,87,,,,,,,1.43,0.71,1.25*12
$GPGSV,5,1,17,02,01,331,25,04,05,224,08,08,21,305,42,10,13,021,35*7E
$GPGSV,5,2,17,16,24,220,28,18,30,110,16,23,01,059,,26,28,189,24*7A
$GPGSV,5,3,17,27,54,279,31,28,59,115,29,31,50,170,22,32,38,006,38*7D
$GPGSV,5,4,17,36,52,277,,40,84,353,32,41,58,082,,49,32,274,*7D
$GPGSV,5,5,17,50,10,089,*4A
$GLGSV,3,1,10,65,28,269,27,66,04,227,18,71,02,015,16,72,29,335,28*6B
$GLGSV,3,2,10,74,14,114,06,75,19,165,15,76,02,217,11,85,42,134,29*6C
$GLGSV,3,3,10,86,61,022,33,87,21,347,22*61
$GNGLL,0419.77291,S,05539.67848,E,131149.00,A,D*69
$GNRMC,131150.00,A,0419.77289,S,05539.67847,E,0.026,,200525,,,D*7A
$GNVTG,,T,,M,0.026,N,0.049,K,D*31
$GNGGA,131150.00,0419.77289,S,05539.67847,E,2,12,0.71,11.4,M,-47.6,M,,0000*4D
$GNGSA,A,3,32,18,10,28,26,16,27,31,40,08,04,,1.43,0.71,1.25*15
$GNGSA,A,3,85,72,75,86,65,87,,,,,,,1.43,0.71,1.25*12
$GPGSV,5,1,17,02,01,331,25,04,05,224,09,08,21,305,42,10,13,021,35*7F
$GPGSV,5,2,17,16,24,220,29,18,30,110,14,23,01,059,,26,28,189,24*79
$GPGSV,5,3,17,27,54,279,30,28,59,115,28,31,50,170,21,32,38,006,38*7E
$GPGSV,5,4,17,36,52,277,,40,84,353,31,41,58,082,,49,32,274,*7E
$GPGSV,5,5,17,50,10,089,*4A
$GLGSV,3,1,10,65,28,269,27,66,04,227,18,71,02,015,17,72,29,335,28*6A
$GLGSV,3,2,10,74,14,114,11,75,19,165,17,76,02,217,09,85,42,134,30*69
$GLGSV,3,3,10,86,61,022,33,87,21,347,23*60
$GNGLL,0419.77289,S,05539.67847,E,131150.00,A,D*67
$GNRMC,131151.00,A,0419.77288,S,05539.67847,E,0.063,,200525,,,D*7B
$GNVTG,,T,,M,0.063,N,0.117,K,D*3A
$GNGGA,131151.00,0419.77288,S,05539.67847,E,2,12,0.71,11.4,M,-47.6,M,,0000*4D
$GNGSA,A,3,32,18,10,28,26,16,27,31,40,08,04,,1.43,0.71,1.25*15
$GNGSA,A,3,85,72,75,86,65,87,,,,,,,1.43,0.71,1.25*12
$GPGSV,5,1,17,02,01,331,26,04,05,224,11,08,21,305,42,10,13,021,36*76
$GPGSV,5,2,17,16,24,220,28,18,30,110,13,23,01,059,,26,28,189,25*7E
$GPGSV,5,3,17,27,54,279,31,28,59,115,27,31,50,170,22,32,38,006,39*72
$GPGSV,5,4,17,36,52,277,,40,84,353,32,41,58,082,,49,32,274,*7D
$GPGSV,5,5,17,50,10,089,*4A
$GLGSV,3,1,10,65,28,269,27,66,04,227,18,71,02,015,17,72,29,335,29*6B
$GLGSV,3,2,10,74,14,114,06,75,19,165,17,76,02,217,13,85,42,134,31*65
$GLGSV,3,3,10,86,61,022,32,87,21,347,21*63
$GNGLL,0419.77288,S,05539.67847,E,131151.00,A,D*67
$GNRMC,131152.00,A,0419.77288,S,05539.67846,E,0.037,,200525,,,D*78
$GNVTG,,T,,M,0.037,N,0.069,K,D*33
$GNGGA,131152.00,0419.77288,S,05539.67846,E,2,12,0.71,11.4,M,-47.6,M,,0000*4F
$GNGSA,A,3,32,18,10,28,26,16,27,31,40,08,04,,1.43,0.71,1.25*15
$GNGSA,A,3,85,72,75,86,65,87,,,,,,,1.43,0.71,1.25*12
$GPGSV,5,1,17,02,01,331,27,04,05,224,09,08,21,305,42,10,13,021,36*7E
$GPGSV,5,2,17,16,24,220,29,18,30,110,14,23,01,059,,26,28,189,25*78
$GPGSV,5,3,17,27,54,279,30,28,59,115,27,31,51,170,22,32,38,006,39*72
$GPGSV,5,4,17,36,52,277,,40,84,353,32,41,58,082,,49,32,274,*7D
$GPGSV,5,5,17,50,10,089,*4A
$GLGSV,3,1,10,65,28,269,28,66,04,227,19,71,02,015,16,72,29,335,29*64
$GLGSV,3,2,10,74,14,114,10,75,19,165,17,76,02,217,11,85,42,134,31*60
$GLGSV,3,3,10,86,61,022,32,87,21,347,20*62
$GNGLL,0419.77288,S,05539.67846,E,131152.00,A,D*65
$GNRMC,131153.00,A,0419.77288,S,05539.67845,E,0.026,,200525,,,D*7A
$GNVTG,,T,,M,0.026,N,0.048,K,D*30
$GNGGA,131153.00,0419.77288,S,05539.67845,E,2,12,0.71,11.4,M,-47.6,M,,0000*4D
$GNGSA,A,3,32,18,10,28,26,16,27,31,40,08,04,,1.43,0.71,1.25*15
$GNGSA,A,3,85,72,75,86,65,87,,,,,,,1.43,0.71,1.25*12
$GPGSV,5,1,17,02,01,331,27,04,05,224,11,08,21,305,41,10,13,021,36*74
$GPGSV,5,2,17,16,24,220,29,18,30,110,15,23,01,059,,26,28,189,25*79
$GPGSV,5,3,17,27,54,279,31,28,59,115,27,31,51,170,23,32,37,006,39*7D
$GPGSV,5,4,17,36,52,277,,40,84,353,32,41,58,082,,49,32,274,*7D
$GPGSV,5,5,17,50,10,089,*4A
$GLGSV,3,1,10,65,28,269,28,66,04,227,20,71,02,015,15,72,29,335,28*6C
$GLGSV,3,2,10,74,14,114,09,75,19,165,17,76,02,217,11,85,42,134,30*69
$GLGSV,3,3,10,86,61,022,33,87,21,347,20*63
$GNGLL,0419.77288,S,05539.67845,E,131153.00,A,D*67
$GNRMC,131154.00,A,0419.77286,S,05539.67844,E,0.016,,200525,,,D*71
$GNVTG,,T,,M,0.016,N,0.030,K,D*3C
$GNGGA,131154.00,0419.77286,S,05539.67844,E,2,12,0.71,11.4,M,-47.6,M,,0000*45
$GNGSA,A,3,32,18,10,28,26,16,27,31,40,08,04,,1.43,0.71,1.25*15
$GNGSA,A,3,85,72,75,86,65,87,,,,,,,1.43,0.71,1.25*12
$GPGSV,5,1,17,02,01,331,27,04,05,224,08,08,21,305,41,10,13,021,36*7C
$GPGSV,5,2,17,16,24,220,29,18,30,110,16,23,01,059,,26,28,189,25*7A
$GPGSV,5,3,17,27,54,279,32,28,59,115,26,31,51,170,23,32,37,006,38*7E
$GPGSV,5,4,17,36,52,277,,40,84,353,33,41,58,082,,49,32,274,*7C
$GPGSV,5,5,17,50,10,089,*4A
$GLGSV,3,1,10,65,28,269,28,66,04,227,20,71,02,015,15,72,29,335,27*63
$GLGSV,3,2,10,74,14,114,08,75,19,165,18,76,02,217,10,85,42,134,30*66
$GLGSV,3,3,10,86,61,022,33,87,21,347,22*61
$GNGLL,0419.77286,S,05539.67844,E,131154.00,A,D*6F
$GNRMC,131155.00,A,0419.77283,S,05539.67844,E,0.027,,200525,,,D*77
$GNVTG,,T,,M,0.027,N,0.049,K,D*30
$GNGGA,131155.00,0419.77283,S,05539.67844,E,2,12,0.71,11.4,M,-47.6,M,,0000*41
$GNGSA,A,3,32,18,10,28,26,16,27,31,40,08,04,,1.43,0.71,1.25*15
$GNGSA,A,3,85,72,75,86,65,87,,,,,,,1.43,0.71,1.25*12
$GPGSV,5,1,17,02,01,331,26,04,05,224,12,08,21,305,41,10,13,021,35*75
$GPGSV,5,2,17,16,24,220,29,18,30,110,17,23,01,059,,26,28,189,26*78
$GPGSV,5,3,17,27,54,279,31,28,59,115,26,31,51,170,25,32,37,006,38*7B
$GPGSV,5,4,17,36,52,277,,40,84,353,32,41,58,082,,49,32,274,*7D
$GPGSV,5,5,17,50,10,089,*4A
$GLGSV,3,1,10,65,28,269,28,66,04,227,20,71,02,015,13,72,29,335,28*6A
$GLGSV,3,2,10,74,14,114,07,75,19,165,19,76,02,217,10,85,42,134,31*69
$GLGSV,3,3,10,86,61,022,32,87,21,347,23*61
$GNGLL,0419.77283,S,05539.67844,E,131155.00,A,D*6B
$GNRMC,131156.00,A,0419.77281,S,05539.67843,E,0.074,,200525,,,D*77
$GNVTG,,T,,M,0.074,N,0.137,K,D*3E
$GNGGA,131156.00,0419.77281,S,05539.67843,E,2,12,0.71,11.4,M,-47.6,M,,0000*47
$GNGSA,A,3,32,18,10,28,26,16,27,31,40,08,04,,1.43,0.71,1.25*15
$GNGSA,A,3,85,72,75,86,65,87,,,,,,,1.43,0.71,1.25*12
$GPGSV,5,1,17,02,01,331,26,04,05,224,13,08,21,305,42,10,13,021,36*74
$GPGSV,5,2,17,16,24,220,29,18,30,110,17,23,01,059,,26,28,189,26*78
$GPGSV,5,3,17,27,54,279,33,28,59,115,26,31,51,170,26,32,37,006,38*7A
$GPGSV,5,4,17,36,52,277,,40,84,353,31,41,58,082,,49,32,274,*7E
$GPGSV,5,5,17,50,10,089,*4A
$GLGSV,3,1,10,65,28,269,27,66,04,227,21,71,02,015,10,72,29,335,28*67
$GLGSV,3,2,10,74,14,114,06,75,19,165,18,76,02,217,13,85,42,134,32*69
$GLGSV,3,3,10,86,61,022,32,87,21,347,22*60
$GNGLL,0419.77281,S,05539.67843,E,131156.00,A,D*6D
$GNRMC,131157.00,A,0419.77280,S,05539.67843,E,0.033,,200525,,,D*74
$GNVTG,,T,,M,0.033,N,0.061,K,D*3F
$GNGGA,131157.00,0419.77280,S,05539.67843,E,2,12,0.71,11.5,M,-47.6,M,,0000*46
$GNGSA,A,3,32,18,10,28,26,16,27,31,40,08,04,,1.43,0.71,1.25*15
$GNGSA,A,3,85,72,75,86,65,87,,,,,,,1.43,0.71,1.25*12
$GPGSV,5,1,17,02,01,331,26,04,05,224,09,08,21,305,42,10,13,021,36*7F
$GPGSV,5,2,17,16,24,220,29,18,30,110,17,23,01,059,,26,28,189,26*78
$GPGSV,5,3,17,27,54,279,33,28,59,115,27,31,51,170,25,32,37,006,38*78
$GPGSV,5,4,17,36,52,277,,40,84,353,31,41,58,082,,49,32,274,*7E
$GPGSV,5,5,17,50,10,089,*4A
$GLGSV,3,1,10,65,28,269,27,66,04,227,21,71,02,015,17,72,29,335,28*60
$GLGSV,3,2,10,74,14,114,07,75,19,165,17,76,02,217,10,85,42,134,31*67
$GLGSV,3,3,10,86,61,022,33,87,21,347,21*62
$GNGLL,0419.77280,S,05539.67843,E,131157.00,A,D*6D
$GNRMC,131158.00,A,0419.77280,S,05539.67844,E,0.038,,200525,,,D*77
$GNVTG,,T,,M,0.038,N,0.071,K,D*35
$GNGGA,131158.00,0419.77280,S,05539.67844,E,2,12,0.66,11.4,M,-47.6,M,,0000*49
$GNGSA,A,3,32,18,10,28,26,16,27,31,40,08,04,,1.27,0.66,1.09*1F
$GNGSA,A,3,85,72,75,86,65,87,,,,,,,1.27,0.66,1.09*18
$GPGSV,5,1,17,02,01,331,26,04,05,224,09,08,21,305,42,10,13,021,36*7F
$GPGSV,5,2,17,16,24,220,29,18,30,110,16,23,01,059,,26,28,189,26*79
$GPGSV,5,3,17,27,54,279,32,28,59,115,26,31,51,170,25,32,37,006,38*78
$GPGSV,5,4,17,36,52,277,,40,84,353,31,41,58,082,,49,32,274,*7E
$GPGSV,5,5,17,50,10,089,*4A
$GLGSV,3,1,10,65,28,269,28,66,04,227,20,71,02,015,16,72,29,335,29*6E
$GLGSV,3,2,10,74,14,114,07,75,19,165,16,76,02,217,10,85,42,134,31*66
$GLGSV,3,3,10,86,61,022,32,87,21,347,21*63
$GNGLL,0419.77280,S,05539.67844,E,131158.00,A,D*65
$GNRMC,131159.00,A,0419.77279,S,05539.67846,E,0.022,,200525,,,D*79
$GNVTG,,T,,M,0.022,N,0.040,K,D*3C
$GNGGA,131159.00,0419.77279,S,05539.67846,E,2,12,0.66,11.4,M,-47.6,M,,0000*4C
$GNGSA,A,3,32,18,10,28,26,16,27,31,40,08,,,1.27,0.66,1.09*1B
$GNGSA,A,3,85,72,75,86,65,87,,,,,,,1.27,0.66,1.09*18
$GPGSV,5,1,17,02,01,331,25,04,05,224,06,08,21,305,42,10,13,021,36*73
$GPGSV,5,2,17,16,24,220,29,18,30,110,17,23,01,059,,26,28,189,25*7B
$GPGSV,5,3,17,27,54,279,33,28,59,115,25,31,51,170,26,32,37,006,38*79
$GPGSV,5,4,17,36,52,277,,40,84,353,31,41,58,082,,49,32,274,*7E
$GPGSV,5,5,17,50,10,089,*4A
$GLGSV,3,1,10,65,28,269,28,66,04,227,20,71,02,015,12,72,29,335,28*6B
$GLGSV,3,2,10,74,14,114,07,75,19,165,16,76,02,217,09,85,42,134,31*6E
$GLGSV,3,3,10,86,61,022,32,87,21,347,21*63
$GNGLL,0419.77279,S,05539.67846,E,131159.00,A,D*60
$GNRMC,131200.00,A,0419.77277,S,05539.67846,E,0.031,,200525,,,D*7A
$GNVTG,,T,,M,0.031,N,0.057,K,D*38
$GNGGA,131200.00,0419.77277,S,05539.67846,E,2,12,0.66,11.6,M,-47.6,M,,0000*4F
$GNGSA,A,3,32,18,10,28,26,16,27,31,40,08,04,,1.27,0.66,1.09*1F
$GNGSA,A,3,85,72,75,86,65,87,,,,,,,1.27,0.66,1.09*18
$GPGSV,5,1,17,02,01,331,25,04,05,224,09,08,21,305,42,10,13,021,37*7D
$GPGSV,5,2,17,16,24,220,30,18,30,110,15,23,01,059,,26,28,189,25*71
$GPGSV,5,3,17,27,54,279,32,28,59,115,26,31,51,170,25,32,37,006,38*78
$GPGSV,5,4,17,36,52,277,,40,84,353,31,41,58,082,,49,32,274,*7E
$GPGSV,5,5,17,50,10,089,*4A
$GLGSV,3,1,10,65,28,269,29,66,04,227,20,71,02,015,16,72,29,335,28*6E
$GLGSV,3,2,10,74,14,114,09,75,19,165,14,76,02,217,09,85,42,134,32*61
$GLGSV,3,3,10,86,61,022,33,87,21,347,21*62
$GNGLL,0419.77277,S,05539.67846,E,131200.00,A,D*61
$GNRMC,131201.00,A,0419.77278,S,05539.67846,E,0.023,,200525,,,D*77
$GNVTG,,T,,M,0.023,N,0.043,K,D*3E
$GNGGA,131201.00,0419.77278,S,05539.67846,E,2,12,0.66,11.7,M,-47.6,M,,0000*40
$GNGSA,A,3,32,18,10,28,26,16,27,31,40,08,04,,1.27,0.66,1.09*1F
$GNGSA,A,3,85,72,75,86,65,87,,,,,,,1.27,0.66,1.09*18
$GPGSV,5,1,17,02,01,331,25,04,05,224,09,08,21,305,42,10,13,021,37*7D
$GPGSV,5,2,17,16,24,220,30,18,30,110,15,23,01,059,,26,28,189,26*72
$GPGSV,5,3,17,27,54,279,32,28,59,115,25,31,51,170,24,32,37,006,38*7A
$GPGSV,5,4,17,36,52,277,,40,84,353,30,41,58,082,,49,32,274,*7F
$GPGSV,5,5,17,50,10,089,*4A
$GLGSV,3,1,10,65,28,269,28,66,04,227,21,71,02,015,17,72,29,335,29*6E
$GLGSV,3,2,10,74,14,114,10,75,19,165,13,76,02,217,11,85,42,134,32*67
$GLGSV,3,3,10,86,61,022,33,87,21,347,22*61
$GNGLL,0419.77278,S,05539.67846,E,131201.00,A,D*6F
$GNRMC,131202.00,A,0419.77278,S,05539.67848,E,0.049,,200525,,,D*76
$GNVTG,,T,,M,0.049,N,0.091,K,D*3D
$GNGGA,131202.00,0419.77278,S,05539.67848,E,2,12,0.72,11.8,M,-47.6,M,,0000*47
$GNGSA,A,3,32,18,10,28,26,16,27,31,40,08,04,,1.62,0.72,1.45*13
$GNGSA,A,3,85,72,75,86,65,87,,,,,,,1.62,0.72,1.45*14
$GPGSV,5,1,17,02,01,331,24,04,05,224,10,08,21,305,42,10,13,021,37*74
$GPGSV,5,2,17,16,24,220,30,18,30,110,15,23,01,059,,26,28,189,27*73
$GPGSV,5,3,17,27,54,279,31,28,59,115,26,31,51,170,23,32,37,006,39*7C
$GPGSV,5,4,17,36,52,277,,40,84,353,29,41,58,082,,49,32,274,*77
$GPGSV,5,5,17,50,10,089,*4A
$GLGSV,3,1,10,65,28,269,28,66,04,227,20,71,02,015,18,72,29,335,29*60
$GLGSV,3,2,10,74,14,114,09,75,19,165,15,76,02,217,09,85,42,134,33*61
$GLGSV,3,3,10,86,61,022,34,87,21,347,25*61
$GNGLL,0419.77278,S,05539.67848,E,131202.00,A,D*62
$GNRMC,131203.00,A,0419.77277,S,05539.67848,E,0.017,,200525,,,D*73
$GNVTG,,T,,M,0.017,N,0.031,K,D*3C
$GNGGA,131203.00,0419.77277,S,05539.67848,E,2,12,0.72,11.8,M,-47.6,M,,0000*49
$GNGSA,A,3,32,18,10,28,26,16,27,31,40,08,04,,1.62,0.72,1.45*13
$GNGSA,A,3,85,72,75,86,65,87,,,,,,,1.62,0.72,1.45*14
$GPGSV,5,1,17,02,01,331,25,04,05,224,11,08,21,305,42,10,13,021,37*74
$GPGSV,5,2,17,16,24,220,30,18,30,110,16,23,01,059,,26,28,189,27*70
$GPGSV,5,3,17,27,54,279,32,28,59,115,26,31,51,170,23,32,37,006,38*7E
$GPGSV,5,4,17,36,52,277,,40,84,353,30,41,58,082,,49,32,274,*7F
$GPGSV,5,5,17,50,10,089,*4A
$GLGSV,3,1,10,65,28,269,28,66,04,227,20,71,02,015,16,72,29,335,29*6E
$GLGSV,3,2,10,74,14,114,11,75,19,165,12,76,02,217,08,85,42,134,33*6E
$GLGSV,3,3,10,86,61,022,34,87,21,347,26*62
$GNGLL,0419.77277,S,05539.67848,E,131203.00,A,D*6C
$GNRMC,131204.00,A,0419.77279,S,05539.67847,E,0.040,,200525,,,D*77
$GNVTG,,T,,M,0.040,N,0.074,K,D*3F
$GNGGA,131204.00,0419.77279,S,05539.67847,E,2,12,0.72,11.9,M,-47.6,M,,0000*4E
$GNGSA,A,3,32,18,10,28,26,16,27,31,40,08,04,,1.62,0.72,1.45*13
$GNGSA,A,3,85,72,75,86,65,87,,,,,,,1.62,0.72,1.45*14
$GPGSV,5,1,17,02,01,331,26,04,05,224,08,08,21,305,43,10,13,021,37*7E
$GPGSV,5,2,17,16,24,220,30,18,30,110,17,23,01,059,,26,28,189,27*71
$GPGSV,5,3,17,27,54,279,32,28,59,115,25,31,51,170,23,32,37,006,38*7D
$GPGSV,5,4,17,36,52,277,,40,84,353,30,41,58,082,,49,32,274,*7F
$GPGSV,5,5,17,50,10,089,*4A
$GLGSV,3,1,10,65,28,269,29,66,04,227,20,71,02,015,15,72,29,335,29*6C
$GLGSV,3,2,10,74,14,114,07,75,19,165,11,76,02,217,10,85,42,134,34*64
$GLGSV,3,3,10,86,61,022,34,87,21,347,26*62
$GNGLL,0419.77279,S,05539.67847,E,131204.00,A,D*6A
$GNRMC,131205.00,A,0419.77277,S,05539.67845,E,0.019,,200525,,,D*76
$GNVTG,,T,,M,0.019,N,0.036,K,D*35
$GNGGA,131205.00,0419.77277,S,05539.67845,E,2,12,0.68,12.0,M,-47.6,M,,0000*42
$GNGSA,A,3,32,18,10,28,26,16,27,31,40,08,04,,1.34,0.68,1.15*1E
$GNGSA,A,3,85,72,75,86,65,87,,,,,,,1.34,0.68,1.15*19
$GPGSV,5,1,17,02,01,331,27,04,05,224,08,08,21,305,43,10,13,021,37*7F
$GPGSV,5,2,17,16,24,220,29,18,30,110,17,23,01,059,,26,28,189,27*79
$GPGSV,5,3,17,27,54,279,32,28,59,115,25,31,51,170,22,32,37,006,38*7C
$GPGSV,5,4,17,36,52,277,,40,84,353,29,41,58,082,,49,32,274,*77
$GPGSV,5,5,17,50,10,089,*4A
$GLGSV,3,1,10,65,28,269,29,66,04,227,21,71,02,015,13,72,29,335,29*6B
$GLGSV,3,2,10,74,14,114,09,75,19,165,13,76,02,217,11,85,42,134,34*69
$GLGSV,3,3,10,86,61,022,34,87,21,347,26*62
$GNGLL,0419.77277,S,05539.67845,E,131205.00,A,D*67
$GNRMC,131206.00,A,0419.77277,S,05539.67842,E,0.029,,200525,,,D*71
$GNVTG,,T,,M,0.029,N,0.054,K,D*32
$GNGGA,131206.00,0419.77277,S,05539.67842,E,2,12,0.68,12.0,M,-47.6,M,,0000*46
$GNGSA,A,3,32,18,10,28,26,16,27,31,40,08,04,,1.49,0.68,1.33*10
$GNGSA,A,3,85,72,75,86,65,87,,,,,,,1.49,0.68,1.33*17
$GPGSV,5,1,17,02,01,331,28,04,05,224,09,08,21,305,42,10,13,021,37*70
$GPGSV,5,2,17,16,24,220,29,18,30,110,17,23,01,059,,26,28,189,26*78
$GPGSV,5,3,17,27,54,279,31,28,59,115,25,31,51,170,24,32,37,006,38*79
$GPGSV,5,4,17,36,52,277,,40,84,353,31,41,58,082,,49,32,274,*7E
$GPGSV,5,5,17,50,10,089,*4A
$GLGSV,3,1,10,65,28,269,29,66,04,227,22,71,02,015,13,72,29,335,29*68
$GLGSV,3,2,10,74,14,114,09,75,19,165,12,76,02,217,07,85,42,134,34*6F
$GLGSV,3,3,10,86,61,022,34,87,21,347,27*63
$GNGLL,0419.77277,S,05539.67842,E,131206.00,A,D*63
$GNRMC,131207.00,A,0419.77277,S,05539.67840,E,0.022,,200525,,,D*79
$GNVTG,,T,,M,0.022,N,0.040,K,D*3C
$GNGGA,131207.00,0419.77277,S,05539.67840,E,2,12,0.68,12.1,M,-47.6,M,,0000*44
$GNGSA,A,3,32,18,10,28,26,16,27,31,40,08,04,,1.49,0.68,1.33*10
$GNGSA,A,3,85,72,75,86,65,87,,,,,,,1.49,0.68,1.33*17
$GPGSV,5,1,17,02,01,331,28,04,05,224,08,08,21,305,42,10,13,021,37*71
$GPGSV,5,2,17,16,24,220,29,18,30,110,19,23,01,059,,26,28,189,26*76
$GPGSV,5,3,17,27,54,279,32,28,59,115,25,31,51,170,25,32,37,006,38*7B
$GPGSV,5,4,17,36,52,277,,40,84,353,30,41,58,082,,49,32,274,*7F
$GPGSV,5,5,17,50,10,089,*4A
$GLGSV,3,1,10,65,28,269,29,66,04,227,22,71,02,015,15,72,29,335,30*66
$GLGSV,3,2,10,74,14,114,09,75,19,165,11,76,02,217,08,85,42,134,34*63
$GLGSV,3,3,10,86,61,022,35,87,21,347,26*63
$GNGLL,0419.77277,S,05539.67840,E,131207.00,A,D*60
$GNRMC,131208.00,A,0419.77277,S,05539.67839,E,0.012,,200525,,,D*7B
$GNVTG,,T,,M,0.012,N,0.022,K,D*3B
$GNGGA,131208.00,0419.77277,S,05539.67839,E,2,12,0.68,12.1,M,-47.6,M,,0000*45
$GNGSA,A,3,32,18,10,28,26,16,27,31,40,08,04,,1.34,0.68,1.15*1E
$GNGSA,A,3,85,72,75,86,65,87,,,,,,,1.34,0.68,1.15*19
$GPGSV,5,1,17,02,01,331,28,04,05,224,13,08,21,305,42,10,13,021,37*7B
$GPGSV,5,2,17,16,24,220,29,18,30,110,19,23,01,059,,26,28,189,26*76
$GPGSV,5,3,17,27,54,279,32,28,59,115,25,31,51,170,25,32,37,006,38*7B
$GPGSV,5,4,17,36,52,277,,40,84,353,30,41,58,082,,49,32,274,*7F
$GPGSV,5,5,17,50,10,089,*4A
$GLGSV,3,1,10,65,28,269,29,66,04,227,21,71,02,015,17,72,29,335,31*66
$GLGSV,3,2,10,74,14,114,09,75,19,165,13,76,02,217,09,85,42,134,34*60
$GLGSV,3,3,10,86,61,022,35,87,21,347,27*62
$GNGLL,0419.77277,S,05539.67839,E,131208.00,A,D*61
$GNRMC,131209.00,A,0419.77275,S,05539.67837,E,0.030,,200525,,,D*76
$GNVTG,,T,,M,0.030,N,0.055,K,D*3B
$GNGGA,131209.00,0419.77275,S,05539.67837,E,2,12,0.68,12.2,M,-47.6,M,,0000*4B
$GNGSA,A,3,32,18,10,28,26,16,27,31,40,08,04,,1.34,0.68,1.15*1E
$GNGSA,A,3,85,72,75,86,65,87,,,,,,,1.34,0.68,1.15*19
$GPGSV,5,1,17,02,01,331,28,04,05,224,10,08,21,305,42,10,13,021,37*78
$GPGSV,5,2,17,16,24,220,29,18,30,110,19,23,01,059,,26,28,189,25*75
$GPGSV,5,3,17,27,54,279,32,28,59,115,25,31,51,170,26,32,37,006,39*79
$GPGSV,5,4,17,36,52,277,,40,84,353,30,41,58,082,,49,32,274,*7F
$GPGSV,5,5,17,50,10,089,*4A
$GLGSV,3,1,10,65,28,269,30,66,04,227,21,71,02,015,17,72,29,335,30*6F
$GLGSV,3,2,10,74,14,114,08,75,19,165,17,76,02,217,11,85,42,134,35*6D
$GLGSV,3,3,10,86,61,022,35,87,21,347,27*62
$GNGLL,0419.77275,S,05539.67837,E,131209.00,A,D*6C
$GNRMC,131210.00,A,0419.77273,S,05539.67834,E,0.059,,200525,,,D*74
$GNVTG,,T,,M,0.059,N,0.110,K,D*34
$GNGGA,131210.00,0419.77273,S,05539.67834,E,2,12,0.68,12.2,M,-47.6,M,,0000*46
$GNGSA,A,3,32,18,10,28,26,16,27,31,40,08,04,,1.49,0.68,1.33*10
$GNGSA,A,3,85,72,75,86,65,87,,,,,,,1.49,0.68,1.33*17
$GPGSV,5,1,17,02,01,331,28,04,05,224,13,08,21,305,42,10,13,021,36*7A
$GPGSV,5,2,17,16,24,220,29,18,30,110,20,23,01,059,,26,28,189,25*7F
$GPGSV,5,3,17,27,54,279,32,28,59,115,25,31,51,170,27,32,37,006,37*76
$GPGSV,5,4,17,36,52,277,,40,84,353,29,41,58,082,,49,32,274,*77
$GPGSV,5,5,17,50,10,089,*4A
$GLGSV,3,1,10,65,28,269,30,66,04,227,21,71,02,015,18,72,29,335,30*60
$GLGSV,3,2,10,74,14,114,08,75,19,165,15,76,02,217,07,85,42,134,34*69
$GLGSV,3,3,10,86,61,022,35,87,21,347,28*6D
$GNGLL,0419.77273,S,05539.67834,E,131210.00,A,D*61
$GNRMC,131211.00,A,0419.77274,S,05539.67831,E,0.011,,200525,,,D*7B
$GNVTG,,T,,M,0.011,N,0.020,K,D*3A
$GNGGA,131211.00,0419.77274,S,05539.67831,E,2,12,0.68,12.2,M,-47.6,M,,0000*45
$GNGSA,A,3,32,18,10,28,26,16,27,31,40,08,04,,1.49,0.68,1.33*10
$GNGSA,A,3,85,72,75,86,65,87,,,,,,,1.49,0.68,1.33*17
$GPGSV,5,1,17,02,01,331,29,04,05,224,12,08,21,305,42,10,13,021,36*7A
$GPGSV,5,2,17,16,24,220,30,18,30,110,20,23,01,059,,26,28,189,25*77
$GPGSV,5,3,17,27,54,279,32,28,59,115,26,31,51,170,27,32,37,006,37*75
$GPGSV,5,4,17,36,52,277,,40,84,353,30,41,58,082,,49,32,274,*7F
$GPGSV,5,5,17,50,10,089,*4A
$GLGSV,3,1,10,65,28,269,30,66,04,227,21,71,02,015,18,72,29,335,30*60
$GLGSV,3,2,10,74,14,114,10,75,19,165,13,76,02,217,10,85,42,134,34*60
$GLGSV,3,3,10,86,61,022,34,87,21,347,29*6D
$GNGLL,0419.77274,S,05539.67831,E,131211.00,A,D*62
$GNRMC,131212.00,A,0419.77274,S,05539.67830,E,0.021,,200525,,,D*7A
$GNVTG,,T,,M,0.021,N,0.039,K,D*31
$GNGGA,131212.00,0419.77274,S,05539.67830,E,2,12,0.68,12.2,M,-47.6,M,,0000*47
$GNGSA,A,3,32,18,10,28,26,16,27,31,40,08,04,,1.49,0.68,1.33*10
$GNGSA,A,3,85,72,75,86,65,87,,,,,,,1.49,0.68,1.33*17
$GPGSV,5,1,17,02,01,331,30,04,05,224,09,08,21,305,42,10,13,021,37*79
$GPGSV,5,2,17,16,24,220,29,18,30,110,20,23,01,059,,26,28,189,24*7E
$GPGSV,5,3,17,27,54,279,32,28,59,115,26,31,51,170,26,32,37,006,37*74
$GPGSV,5,4,17,36,52,277,,40,84,353,31,41,58,082,,49,32,274,*7E
$GPGSV,5,5,17,50,10,089,*4A
$GLGSV,3,1,10,65,28,269,30,66,04,227,21,71,02,015,18,72,29,335,30*60
$GLGSV,3,2,10,74,14,114,11,75,19,165,15,76,02,217,13,85,42,134,34*64
$GLGSV,3,3,10,86,61,022,34,87,21,347,29*6D
$GNGLL,0419.77274,S,05539.67830,E,131212.00,A,D*60
$GNRMC,131213.00,A,0419.77273,S,05539.67827,E,0.010,,200525,,,D*78
$GNVTG,,T,,M,0.010,N,0.018,K,D*30
$GNGGA,131213.00,0419.77273,S,05539.67827,E,2,12,0.68,12.3,M,-47.6,M,,0000*46
$GNGSA,A,3,32,18,10,28,26,16,27,31,40,08,04,,1.34,0.68,1.15*1E
$GNGSA,A,3,85,72,75,86,65,87,,,,,,,1.34,0.68,1.15*19
$GPGSV,5,1,17,02,01,331,30,04,05,224,08,08,21,305,42,10,13,021,37*78
$GPGSV,5,2,17,16,24,220,29,18,30,110,19,23,01,059,,26,28,189,24*74
$GPGSV,5,3,17,27,54,279,32,28,59,115,26,31,51,170,26,32,37,006,36*75
$GPGSV,5,4,17,36,52,277,,40,84,353,31,41,58,082,,49,32,274,*7E
$GPGSV,5,5,17,50,10,089,*4A
$GLGSV,3,1,10,65,28,269,30,66,04,227,20,71,02,015,18,72,29,335,30*61
$GLGSV,3,2,10,74,14,114,08,75,19,165,19,76,02,217,10,85,42,134,33*64
$GLGSV,3,3,10,86,61,022,30,87,21,347,29*69
$GNGLL,0419.77273,S,05539.67827,E,131213.00,A,D*60
$GNRMC,131214.00,A,0419.77273,S,05539.67824,E,0.055,,200525,,,D*7D
$GNVTG,,T,,M,0.055,N,0.102,K,D*3B
$GNGGA,131214.00,0419.77273,S,05539.67824,E,2,12,0.66,12.4,M,-47.6,M,,0000*4B
$GNGSA,A,3,32,18,10,28,26,16,27,31,40,08,04,,1.36,0.66,1.19*1E
$GNGSA,A,3,85,72,75,86,65,87,,,,,,,1.36,0.66,1.19*19
$GPGSV,5,1,17,02,01,331,31,04,05,224,10,08,21,305,42,10,13,021,37*70
$GPGSV,5,2,17,16,24,220,29,18,30,110,20,23,01,059,,26,28,189,25*7F
$GPGSV,5,3,17,27,54,279,33,28,59,115,26,31,51,170,26,32,37,006,35*77
$GPGSV,5,4,17,36,52,277,,40,84,353,30,41,58,082,,49,32,274,*7F
$GPGSV,5,5,17,50,10,089,*4A
$GLGSV,3,1,10,65,28,270,30,66,04,227,20,71,02,015,17,72,29,335,29*6E
$GLGSV,3,2,10,74,14,114,07,75,19,165,11,76,02,217,09,85,42,134,33*6B
$GLGSV,3,3,10,86,61,022,32,87,21,347,28*6A
$GNGLL,0419.77273,S,05539.67824,E,131214.00,A,D*64
$GNRMC,131215.00,A,0419.77270,S,05539.67821,E,0.022,,200525,,,D*7A
$GNVTG,,T,,M,0.022,N,0.040,K,D*3C
$GNGGA,131215.00,0419.77270,S,05539.67821,E,2,12,0.72,12.5,M,-47.6,M,,0000*48
$GNGSA,A,3,32,18,10,28,26,16,27,31,40,08,04,,1.62,0.72,1.45*13
$GNGSA,A,3,85,72,86,65,87,,,,,,,,1.62,0.72,1.45*16
$GPGSV,5,1,17,02,01,331,31,04,05,224,08,08,21,305,42,10,13,021,38*76
$GPGSV,5,2,17,16,24,220,28,18,30,110,22,23,01,059,,26,28,189,25*7C
$GPGSV,5,3,17,27,54,279,33,28,59,115,26,31,51,170,26,32,37,006,36*74
$GPGSV,5,4,17,36,52,277,,40,84,353,30,41,58,082,,49,32,274,*7F
$GPGSV,5,5,17,50,10,089,*4A
$GLGSV,3,1,10,65,28,270,29,66,04,228,20,71,02,015,16,72,29,335,29*68
$GLGSV,3,2,10,74,14,114,07,75,19,165,09,76,02,217,10,85,42,134,33*6A
$GLGSV,3,3,10,86,61,022,31,87,21,347,26*67
$GNGLL,0419.77270,S,05539.67821,E,131215.00,A,D*63
$GNRMC,131216.00,A,0419.77268,S,05539.67818,E,0.019,,200525,,,D*72
$GNVTG,,T,,M,0.019,N,0.035,K,D*36
$GNGGA,131216.00,0419.77268,S,05539.67818,E,2,12,0.72,12.6,M,-47.6,M,,0000*4B
$GNGSA,A,3,32,18,10,28,26,16,27,31,40,08,04,,1.62,0.72,1.45*13
$GNGSA,A,3,85,72,86,65,87,,,,,,,,1.62,0.72,1.45*16
$GPGSV,5,1,17,02,01,331,30,04,05,224,09,08,21,305,42,10,13,021,38*76
$GPGSV,5,2,17,16,24,220,28,18,30,110,24,23,01,059,,26,28,189,25*7A
$GPGSV,5,3,17,27,54,279,33,28,59,115,26,31,51,170,26,32,37,006,37*75
$GPGSV,5,4,17,36,52,277,,40,84,353,30,41,58,082,,49,32,274,*7F
$GPGSV,5,5,17,50,10,089,*4A
$GLGSV,3,1,10,65,28,270,28,66,04,228,22,71,02,015,17,72,29,335,29*6A
$GLGSV,3,2,10,74,14,114,07,75,19,165,09,76,02,217,11,85,42,134,33*6B
$GLGSV,3,3,10,86,61,022,32,87,21,347,25*67
$GNGLL,0419.77268,S,05539.67818,E,131216.00,A,D*63
$GNRMC,131217.00,A,0419.77266,S,05539.67814,E,0.014,,200525,,,D*7C
$GNVTG,,T,,M,0.014,N,0.026,K,D*39
$GNGGA,131217.00,0419.77266,S,05539.67814,E,2,12,0.69,12.7,M,-47.6,M,,0000*43
$GNGSA,A,3,32,18,10,28,26,16,27,31,40,08,04,,1.42,0.69,1.24*1C
$GNGSA,A,3,85,72,86,65,87,,,,,,,,1.42,0.69,1.24*19
$GPGSV,5,1,17,02,01,331,29,04,05,224,10,08,21,305,42,10,13,021,38*76
$GPGSV,5,2,17,16,24,220,27,18,30,110,24,23,01,059,,26,28,189,25*75
$GPGSV,5,3,17,27,54,279,33,28,59,115,25,31,51,170,26,32,37,006,37*76
$GPGSV,5,4,17,36,52,277,,40,84,353,29,41,58,082,,49,32,274,*77
$GPGSV,5,5,17,50,10,089,*4A
$GLGSV,3,1,10,65,28,270,27,66,04,228,24,71,02,015,20,72,29,335,29*67
$GLGSV,3,2,10,74,14,114,09,75,19,165,,76,02,217,10,85,42,134,32*6C
$GLGSV,3,3,10,86,61,022,33,87,21,347,23*60
$GNGLL,0419.77266,S,05539.67814,E,131217.00,A,D*60
$GNRMC,131218.00,A,0419.77264,S,05539.67811,E,0.035,,200525,,,D*77
$GNVTG,,T,,M,0.035,N,0.065,K,D*3D
