$GNTXT,01,01,01,More than 100 frame errors, UART RX was disabled*70
b0L<C#8C 
!)X/ W

D{4V_:R 
Y
nD\EFI)O<OCPNXSgT1U#bU
KDC-$GNRMC,053109.00,A,0419.89934,S,05539.63040,E,0.159,,280525,,,D*75
$GNVTG,,T,,M,0.159,N,0.295,K,D*3B
$GNGNS,053109.00,0419.89934,S,05539.63040,E,DA,15,0.72,35.9,-47.6,,0000*60
$GNGGA,053109.00,0419.89934,S,05539.63040,E,2,12,0.72,35.9,M,-47.6,M,,0000*4B
$GNGSA,A,3,24,05,20,15,12,18,29,25,23,,,,1.42,0.72,1.22*1D
$GNGSA,A,3,79,80,83,69,73,85,,,,,,,1.42,0.72,1.22*14
$GPGSV,5,1,17,05,60,067,25,11,02,028,12,12,56,022,15,13,15,132,*77
$GPGSV,5,2,17,15,32,165,17,18,33,259,21,20,28,041,21,22,03,136,*74
$GPGSV,5,3,17,23,22,206,20,24,47,200,27,25,32,343,23,29,10,324,10*71
$GPGSV,5,4,17,36,52,277,,40,86,351,29,41,58,082,,49,32,274,*77
$GPGSV,5,5,17,50,10,089,*4A
$GLGSV,3,1,09,68,16,092,,69,26,143,15,70,05,203,,73,41,335,23*63
$GLGSV,3,2,09,79,22,152,09,80,78,136,27,83,12,359,11,84,26,305,*63
$GLGSV,3,3,09,85,12,256,20*51
$GNGLL,0419.89934,S,05539.63040,E,053109.00,A,D*69
$GNGRS,053109.00,1,-5.2,-2.2,3.4,2.6,-14.7,7.4,25.1,-3.4,2.3,,,*75
$GNGRS,053109.00,1,3.2,-1.7,17.8,-11.1,-4.5,-5.3,,,,,,*51
$GNGST,053109.00,4533,,,,4.8,8.1,15*69
$GNZDA,053109.00,28,05,2025,00,00*7C
$GNGBS,053109.00,4.8,8.1,14.6,,,,*67
$GNTXT,01,01,01,More than 100 frame errors, UART RX was disabled*70
b0L<C}
8^ F
!)/ W
D{4V_:R 
Y
nD\EFI)OeOPNLSgT1UbU
3D$GNRMC,053110.00,A,0419.89947,S,05539.63083,E,0.873,,280525,,,D*77
$GNVTG,,T,,M,0.873,N,1.617,K,D*35
$GNGNS,053110.00,0419.89947,S,05539.63083,E,DA,13,0.82,34.6,-47.6,,0000*64
$GNGGA,053110.00,0419.89947,S,05539.63083,E,2,12,0.82,34.6,M,-47.6,M,,0000*49
$GNGSA,A,3,24,05,20,15,12,18,29,25,23,,,,1.74,0.82,1.54*16
$GNGSA,A,3,80,69,73,85,,,,,,,,,1.74,0.82,1.54*1A
$GPGSV,5,1,17,05,60,067,25,11,02,028,10,12,56,022,14,13,15,132,*74
$GPGSV,5,2,17,15,32,165,16,18,33,259,20,20,28,041,20,22,03,136,*75
$GPGSV,5,3,17,23,22,206,18,24,47,200,27,25,32,343,22,29,10,324,11*7A
$GPGSV,5,4,17,36,52,277,,40,86,351,28,41,58,082,,49,32,274,*76
$GPGSV,5,5,17,50,10,089,*4A
$GLGSV,3,1,09,68,16,092,,69,26,143,12,70,05,203,,73,41,335,20*67
$GLGSV,3,2,09,79,22,152,04,80,78,136,24,83,12,359,05,84,26,305,*68
$GLGSV,3,3,09,85,12,256,18*5A
$GNGLL,0419.89947,S,05539.63083,E,053110.00,A,D*6A
$GNGRS,053110.00,1,-3.1,-1.3,4.3,3.3,-14.4,7.2,24.6,-2.9,1.7,,,*76
$GNGRS,053110.00,1,-1.8,-10.6,-4.1,-5.2,,,,,,,,*6A
$GNGST,053110.00,53,,,,4.9,8.1,15*67
$GNZDA,053110.00,28,05,2025,00,00*74
$GNGBS,053110.00,4.9,8.1,14.7,,,,*6F
$GNTXT,01,01,01,More than 100 frame errors, UART RX was disabled*70
b0Lh<Cf*8A 
!)/ W

D{4V_:R 
Y
nD\EFI)OO PNS
gT1U1WbbhU
D$GNRMC,053111.00,A,0419.89921,S,05539.63106,E,1.375,,280525,,,D*76
$GNVTG,,T,,M,1.375,N,2.547,K,D*3C
$GNGNS,053111.00,0419.89921,S,05539.63106,E,DA,13,0.77,34.2,-47.6,,0000*67
$GNGGA,053111.00,0419.89921,S,05539.63106,E,2,12,0.77,34.2,M,-47.6,M,,0000*4A
$GNGSA,A,3,24,05,20,15,18,29,25,23,,,,,1.50,0.77,1.29*13
$GNGSA,A,3,80,83,69,73,85,,,,,,,,1.50,0.77,1.29*17
$GPGSV,5,1,17,05,60,067,23,11,02,028,07,12,56,022,08,13,15,132,*79
$GPGSV,5,2,17,15,32,165,18,18,33,259,17,20,28,041,18,22,03,136,*74
$GPGSV,5,3,17,23,22,206,20,24,47,200,19,25,32,343,21,29,10,324,10*7E
$GPGSV,5,4,17,36,52,277,,40,86,351,29,41,58,082,,49,32,274,*77
$GPGSV,5,5,17,50,10,089,*4A
$GLGSV,3,1,09,68,16,092,,69,26,143,12,70,05,203,,73,41,335,20*67
$GLGSV,3,2,09,79,22,152,07,80,78,136,24,83,12,359,10,84,26,305,*6F
$GLGSV,3,3,09,85,12,256,22*53
$GNGLL,0419.89921,S,05539.63106,E,053111.00,A,D*67
$GNGRS,053111.00,1,-5.6,-1.5,4.7,2.0,9.3,-13.0,-2.8,0.0,,,,*63
$GNGRS,053111.00,1,1.7,25.6,-8.4,-5.1,-4.6,,,,,,,*69
$GNGST,053111.00,61,,,,5.0,8.2,15*6C
$GNZDA,053111.00,28,05,2025,00,00*75
$GNGBS,053111.00,5.0,8.2,14.8,,,,*6A
$GNTXT,01,01,01,More than 100 frame errors, UART RX was disabled*70
b0LP<Cy8 
!)/ W
D
{4V_:R 
Y
nD\E
FI)OOMPN@SgCT1UbPU
De$GNRMC,053112.00,A,0419.89915,S,05539.63133,E,0.573,,280525,,,D*75
$GNVTG,,T,,M,0.573,N,1.062,K,D*3C
$GNGNS,053112.00,0419.89915,S,05539.63133,E,DA,15,0.72,33.6,-47.6,,0000*65
$GNGGA,053112.00,0419.89915,S,05539.63133,E,2,12,0.72,33.6,M,-47.6,M,,0000*4E
$GNGSA,A,3,24,05,20,15,12,18,29,25,23,,,,1.42,0.72,1.22*1D
$GNGSA,A,3,79,80,83,69,73,85,,,,,,,1.42,0.72,1.22*14
$GPGSV,5,1,17,05,60,067,23,11,02,028,08,12,56,022,16,13,15,132,*79
$GPGSV,5,2,17,15,32,165,17,18,33,259,16,20,28,041,20,22,03,136,*71
$GPGSV,5,3,17,23,22,206,29,24,47,200,19,25,32,343,23,29,10,324,11*74
$GPGSV,5,4,17,36,52,277,,40,86,351,30,41,58,082,,49,32,274,*7F
$GPGSV,5,5,17,50,10,089,*4A
$GLGSV,3,1,09,68,16,092,,69,26,143,10,70,05,203,,73,41,335,22*67
$GLGSV,3,2,09,79,22,152,09,80,78,136,25,83,12,359,13,84,26,305,*63
$GLGSV,3,3,09,85,12,256,26*57
$GNGLL,0419.89915,S,05539.63133,E,053112.00,A,D*65
$GNGRS,053112.00,1,-0.2,-2.6,4.9,4.4,-20.3,6.7,25.7,-2.5,-0.2,,,*59
$GNGRS,053112.00,1,3.3,3.2,18.6,-8.4,-5.7,-3.7,,,,,,*4D
$GNGST,053112.00,165045,,,,5.1,8.3,15*6B
$GNZDA,053112.00,28,05,2025,00,00*76
$GNGBS,053112.00,5.1,8.3,15.0,,,,*60
$GNTXT,01,01,01,More than 100 frame errors, UART RX was disabled*70
b0L8<C
8s 
!)U/ W
DC
{4V_:R 
Y
nD\EFI)OO[PN(SgT1U~pb8U
D$GNRMC,053113.00,A,0419.89909,S,05539.63129,E,0.198,,280525,,,D*73
$GNVTG,,T,,M,0.198,N,0.366,K,D*3B
$GNGNS,053113.00,0419.89909,S,05539.63129,E,DA,15,0.72,34.1,-47.6,,0000*62
$GNGGA,053113.00,0419.89909,S,05539.63129,E,2,12,0.72,34.1,M,-47.6,M,,0000*49
$GNGSA,A,3,24,05,20,15,12,18,29,25,23,,,,1.42,0.72,1.22*1D
$GNGSA,A,3,79,80,83,69,73,85,,,,,,,1.42,0.72,1.22*14
$GPGSV,5,1,17,05,60,067,21,11,02,028,10,12,56,022,21,13,15,132,*76
$GPGSV,5,2,17,15,32,165,18,18,33,259,16,20,28,041,22,22,03,136,*7C
$GPGSV,5,3,17,23,22,206,26,24,47,200,21,25,32,343,23,29,10,324,08*78
$GPGSV,5,4,17,36,52,277,,40,86,351,31,41,58,082,,49,32,274,*7E
$GPGSV,5,5,17,50,10,089,*4A
$GLGSV,3,1,09,68,16,092,,69,26,143,13,70,05,203,,73,41,335,24*62
$GLGSV,3,2,09,79,22,152,09,80,78,136,25,83,12,359,08,84,26,305,*69
$GLGSV,3,3,09,85,12,256,26*57
$GNGLL,0419.89909,S,05539.63129,E,053113.00,A,D*62
$GNGRS,053113.00,1,4.3,-3.0,4.9,4.9,-19.3,7.2,26.3,-1.3,-1.7,,,*72
$GNGRS,053113.00,1,3.5,3.0,19.7,-8.0,-5.5,-6.4,,,,,,*48
$GNGST,053113.00,210819,,,,5.2,8.4,15*6E
$GNZDA,053113.00,28,05,2025,00,00*77
$GNGBS,053113.00,5.2,8.4,15.1,,,,*64
$GNTXT,01,01,01,More than 100 frame errors, UART RX was disabled*70
b0L <C48w 
!)Q/ WW
DX{4 V_:R 
Y
nD\EFI)OO.-PNS
gT1UQNb U
Dz2$GNRMC,053114.00,A,0419.89899,S,05539.63107,E,0.473,,280525,,,D*70
$GNVTG,,T,,M,0.473,N,0.876,K,D*31
$GNGNS,053114.00,0419.89899,S,05539.63107,E,DA,15,0.82,34.9,-47.6,,0000*66
$GNGGA,053114.00,0419.89899,S,05539.63107,E,2,12,0.82,34.9,M,-47.6,M,,0000*4D
$GNGSA,A,3,24,05,20,15,12,18,29,25,23,,,,1.74,0.82,1.54*16
$GNGSA,A,3,79,80,83,69,73,85,,,,,,,1.74,0.82,1.54*1F
$GPGSV,5,1,17,05,60,067,20,11,02,028,11,12,56,022,17,13,15,132,*73
$GPGSV,5,2,17,15,32,165,19,18,33,259,15,20,28,041,20,22,03,136,*7C
$GPGSV,5,3,17,23,22,206,25,24,47,200,23,25,32,343,24,29,10,324,11*76
$GPGSV,5,4,17,36,52,277,,40,86,351,32,41,58,082,,49,32,274,*7D
$GPGSV,5,5,17,50,10,089,*4A
$GLGSV,3,1,09,68,16,092,,69,26,143,11,70,05,203,,73,41,335,24*60
$GLGSV,3,2,09,79,22,152,09,80,78,136,26,83,12,359,10,84,26,305,*63
$GLGSV,3,3,09,85,12,256,27*56
$GNGLL,0419.89899,S,05539.63107,E,053114.00,A,D*61
$GNGRS,053114.00,1,4.6,-3.0,4.0,5.4,-16.7,4.0,-119,-1.7,-1.8,,,*79
$GNGRS,053114.00,1,116,2.4,48.5,-15.1,-5.6,-4.3,,,,,,*69
$GNGST,053114.00,50,,,,5.2,8.4,15*6F
$GNZDA,053114.00,28,05,2025,00,00*70
$GNGBS,053114.00,5.2,8.4,15.1,,,,*63
$GNTXT,01,01,01,More than 100 frame errors, UART RX was disabled*70
b0L<C8b 
!) /g W
D,
{4V_:R 
Y
nD\E
FI)O1OPNSguT1U9bU
DR$GNRMC,053115.00,A,0419.89906,S,05539.63095,E,0.232,,280525,,,D*7F
$GNVTG,,T,,M,0.232,N,0.430,K,D*3C
$GNGNS,053115.00,0419.89906,S,05539.63095,E,DA,15,0.72,35.4,-47.6,,0000*69
$GNGGA,053115.00,0419.89906,S,05539.63095,E,2,12,0.72,35.4,M,-47.6,M,,0000*42
$GNGSA,A,3,24,05,20,15,12,18,29,25,23,,,,1.42,0.72,1.22*1D
$GNGSA,A,3,79,80,83,69,73,85,,,,,,,1.42,0.72,1.22*14
$GPGSV,5,1,17,05,60,067,20,11,02,028,09,12,56,022,19,13,15,132,*74
$GPGSV,5,2,17,15,32,165,19,18,33,259,15,20,28,041,21,22,03,136,*7D
$GPGSV,5,3,17,23,22,206,25,24,47,200,26,25,32,343,24,29,10,324,15*77
$GPGSV,5,4,17,36,52,277,,40,86,351,31,41,58,082,,49,32,274,*7E
$GPGSV,5,5,17,50,10,089,*4A
$GLGSV,3,1,09,68,16,092,,69,26,143,10,70,05,203,,73,41,335,23*66
$GLGSV,3,2,09,79,22,152,11,80,78,136,27,83,12,359,09,84,26,305,*63
$GLGSV,3,3,09,85,12,256,27*56
$GNGLL,0419.89906,S,05539.63095,E,053115.00,A,D*6D
$GNGRS,053115.00,1,1.0,-0.8,2.9,5.2,-16.9,5.2,26.0,-1.0,-0.2,,,*76
$GNGRS,053115.00,1,3.9,2.5,19.1,4.1,-4.6,-1.2,,,,,,*63
$GNGST,053115.00,4496949,,,,5.2,8.4,15*50
$GNZDA,053115.00,28,05,2025,00,00*71
$GNGBS,053115.00,5.2,8.4,15.1,,,,*62
$GNTXT,01,01,01,More than 100 frame errors, UART RX was disabled*70
b0L<C$8V 
!3)Q/P W
DO
{4 V_:R 
Y
nD\E
oFI)OAOPNSgT1UAbU
E*$GNRMC,053116.00,A,0419.89926,S,05539.63090,E,0.581,,280525,,,D*74
$GNVTG,,T,,M,0.581,N,1.075,K,D*37
$GNGNS,053116.00,0419.89926,S,05539.63090,E,DA,14,0.78,35.5,-47.6,,0000*67
$GNGGA,053116.00,0419.89926,S,05539.63090,E,2,12,0.78,35.5,M,-47.6,M,,0000*4D
$GNGSA,A,3,24,05,20,15,12,18,29,25,23,,,,1.51,0.78,1.29*1E
$GNGSA,A,3,80,83,69,73,85,,,,,,,,1.51,0.78,1.29*19
$GPGSV,5,1,17,05,60,067,19,11,02,028,09,12,56,022,21,13,15,132,*75
$GPGSV,5,2,17,15,32,165,19,18,33,259,17,20,28,041,21,22,03,136,*7F
$GPGSV,5,3,17,23,22,206,25,24,47,200,25,25,32,343,24,29,10,324,14*75
$GPGSV,5,4,17,36,52,277,,40,86,351,32,41,58,082,,49,32,274,*7D
$GPGSV,5,5,17,50,10,089,*4A
$GLGSV,3,1,09,68,16,092,,69,26,143,10,70,05,203,,73,41,335,24*61
$GLGSV,3,2,09,79,22,152,05,80,78,136,27,83,12,359,09,84,26,305,*66
$GLGSV,3,3,09,85,12,256,26*57
$GNGLL,0419.89926,S,05539.63090,E,053116.00,A,D*69
$GNGRS,053116.00,1,-1.8,-1.3,4.1,2.4,-14.5,5.6,26.4,-0.9,0.8,,,*74
$GNGRS,053116.00,1,2.3,19.8,3.7,-4.5,-0.4,,,,,,,*4E
$GNGST,053116.00,3301711,,,,5.2,8.5,15*5F
$GNZDA,053116.00,28,05,2025,00,00*72
$GNGBS,053116.00,5.2,8.5,15.1,,,,*60
$GNTXT,01,01,01,More than 100 frame errors, UART RX was disabled*70
b0L<Cy/8 
!) / W
D{4 V_:R 
Y
nD\E
-FI)OOPNSg@T1U[bU
E]$GNRMC,053117.00,A,0419.89932,S,05539.63141,E,0.624,,280525,,,D*71
$GNVTG,,T,,M,0.624,N,1.156,K,D*3B
$GNGNS,053117.00,0419.89932,S,05539.63141,E,DA,14,0.72,34.1,-47.6,,0000*61
$GNGGA,053117.00,0419.89932,S,05539.63141,E,2,12,0.72,34.1,M,-47.6,M,,0000*4B
$GNGSA,A,3,24,05,20,15,12,18,25,23,,,,,1.42,0.72,1.22*16
$GNGSA,A,3,79,80,83,69,73,85,,,,,,,1.42,0.72,1.22*14
$GPGSV,5,1,17,05,60,067,20,11,02,028,09,12,56,022,22,13,15,132,*7C
$GPGSV,5,2,17,15,32,165,20,18,33,259,16,20,28,041,23,22,03,136,*76
$GPGSV,5,3,17,23,22,206,23,24,47,200,32,25,32,343,24,29,10,324,*70
$GPGSV,5,4,17,36,52,277,,40,86,351,32,41,58,082,,49,32,274,*7D
$GPGSV,5,5,17,50,10,089,*4A
$GLGSV,3,1,09,68,16,092,,69,26,143,10,70,05,203,,73,41,335,24*61
$GLGSV,3,2,09,79,22,152,09,80,78,136,28,83,12,359,12,84,26,305,*6F
$GLGSV,3,3,09,85,12,256,25*54
$GNGLL,0419.89932,S,05539.63141,E,053117.00,A,D*60
$GNGRS,053117.00,1,-2.5,-1.4,4.0,2.0,-13.4,1.3,2.3,-0.8,,,,*68
$GNGRS,053117.00,1,-36.3,2.5,166,51.7,-3.2,-1.2,,,,,,*63
$GNGST,053117.00,75,,,,5.2,8.4,15*6B
$GNZDA,053117.00,28,05,2025,00,00*73
$GNGBS,053117.00,5.2,8.4,14.9,,,,*69
$GNTXT,01,01,01,More than 100 frame errors, UART RX was disabled*70
b0L<C3
C8{ ;
!)K/z W
D{4 V_:R 
Y
nD\E^FI)OOOPNSgT1UObU
sE$GNRMC,053118.00,A,0419.89935,S,05539.63188,E,0.660,,280525,,,D*7C
$GNVTG,,T,,M,0.660,N,1.223,K,D*3A
$GNGNS,053118.00,0419.89935,S,05539.63188,E,DA,14,0.72,32.9,-47.6,,0000*62
$GNGGA,053118.00,0419.89935,S,05539.63188,E,2,12,0.72,32.9,M,-47.6,M,,0000*48
$GNGSA,A,3,24,05,20,15,12,18,25,23,,,,,1.42,0.72,1.22*16
$GNGSA,A,3,79,80,83,69,73,85,,,,,,,1.42,0.72,1.22*14
$GPGSV,5,1,17,05,60,067,20,11,02,028,10,12,56,022,22,13,15,132,*74
$GPGSV,5,2,17,15,32,165,20,18,33,259,14,20,28,041,22,22,03,136,*75
$GPGSV,5,3,17,23,22,206,21,24,47,200,31,25,32,343,22,29,10,324,*77
$GPGSV,5,4,17,36,52,277,,40,86,351,32,41,58,082,,49,32,274,*7D
$GPGSV,5,5,17,50,10,089,*4A
$GLGSV,3,1,09,68,16,092,,69,26,143,16,70,05,203,,73,41,335,23*60
$GLGSV,3,2,09,79,22,152,12,80,78,136,29,83,12,359,13,84,26,305,*65
$GLGSV,3,3,09,85,12,256,26*57
$GNGLL,0419.89935,S,05539.63188,E,053118.00,A,D*6D
$GNGRS,053118.00,1,-3.9,-2.0,3.8,3.1,-14.1,0.0,2.7,-4.4,,,,*6E
$GNGRS,053118.00,1,3.3,0.1,17.7,3.5,-3.4,-1.8,,,,,,*66
$GNGST,053118.00,4496178,,,,5.2,8.5,15*56
$GNZDA,053118.00,28,05,2025,00,00*7C
$GNGBS,053118.00,5.2,8.5,14.9,,,,*67
$GNTXT,01,01,01,More than 100 frame errors, UART RX was disabled*70
b0L<C8 S
!)9/ W'
D&{4 V_:R 
Y
nD\EOFI)OxOYPNS
gT1U'bU
[E-$GNRMC,053119.00,A,0419.89933,S,05539.63202,E,0.215,,280525,,,D*7C
$GNVTG,,T,,M,0.215,N,0.398,K,D*3C
$GNGNS,053119.00,0419.89933,S,05539.63202,E,DA,13,0.79,32.4,-47.6,,0000*65
$GNGGA,053119.00,0419.89933,S,05539.63202,E,2,12,0.79,32.4,M,-47.6,M,,0000*48
$GNGSA,A,3,24,05,20,15,12,25,23,,,,,,1.47,0.79,1.24*17
$GNGSA,A,3,79,80,83,69,73,85,,,,,,,1.47,0.79,1.24*1C
$GPGSV,5,1,17,05,60,067,21,11,02,028,12,12,56,022,21,13,15,132,*74
$GPGSV,5,2,17,15,32,165,20,18,33,259,,20,28,041,22,22,03,136,*70
$GPGSV,5,3,17,23,22,206,19,24,47,200,29,25,32,343,21,29,10,324,14*73
$GPGSV,5,4,17,36,52,277,,40,86,351,32,41,58,082,,49,32,274,*7D
$GPGSV,5,5,17,50,10,089,*4A
$GLGSV,3,1,09,68,16,092,,69,26,143,12,70,05,203,,73,41,335,22*65
$GLGSV,3,2,09,79,22,152,16,80,78,136,29,83,12,359,10,84,26,305,19*6A
$GLGSV,3,3,09,85,12,256,26*57
$GNGLL,0419.89933,S,05539.63202,E,053119.00,A,D*6B
$GNGRS,053119.00,1,-0.2,-3.6,5.7,3.4,-12.6,3.0,-6.0,,,,,*43
$GNGRS,053119.00,1,3.4,-2.9,17.0,3.3,-3.9,-0.6,,,,,,*44
$GNGST,053119.00,4665906,,,,5.2,8.6,15*5B
$GNZDA,053119.00,28,05,2025,00,00*7D
$GNGBS,053119.00,5.2,8.6,14.9,,,,*65
$GNTXT,01,01,01,More than 100 frame errors, UART RX was disabled*70
b0L<CC8 
!L)/L W
D#{4!V_:R 
Y
oD\EFI)OO
0PNS
g=T1UYbU
CE$GNRMC,053120.00,A,0419.89949,S,05539.63209,E,0.466,,280525,,,D*72
$GNVTG,,T,,M,0.466,N,0.863,K,D*31
$GNGNS,053120.00,0419.89949,S,05539.63209,E,DA,13,0.79,31.4,-47.6,,0000*6A
$GNGGA,053120.00,0419.89949,S,05539.63209,E,2,12,0.79,31.4,M,-47.6,M,,0000*47
$GNGSA,A,3,24,05,20,15,12,25,23,,,,,,1.47,0.79,1.24*17
$GNGSA,A,3,79,80,83,69,73,85,,,,,,,1.47,0.79,1.24*1C
$GPGSV,5,1,17,05,60,067,21,11,02,028,09,12,56,022,20,13,15,132,*7F
$GPGSV,5,2,17,15,32,165,19,18,33,259,16,20,28,041,20,22,03,136,*7F
$GPGSV,5,3,17,23,22,206,22,24,47,200,20,25,32,343,23,29,10,324,12*76
$GPGSV,5,4,17,36,52,277,,40,86,351,33,41,58,082,,49,32,274,*7C
$GPGSV,5,5,17,50,10,089,*4A
$GLGSV,3,1,09,68,16,092,,69,26,143,11,70,05,203,,73,41,335,23*67
$GLGSV,3,2,09,79,22,152,10,80,78,136,28,83,12,359,10,84,26,305,18*6C
$GLGSV,3,3,09,85,12,256,23*52
$GNGLL,0419.89949,S,05539.63209,E,053120.00,A,D*67
$GNGRS,053120.00,1,-9.5,-7.8,2.5,-0.8,-13.8,-1.2,-8.5,,,,,*43
$GNGRS,053120.00,1,8.2,-10.9,158,-0.6,-10.3,-5.9,,,,,,*4D
$GNGST,053120.00,76,,,,5.8,9.2,15*61
$GNZDA,053120.00,28,05,2025,00,00*77
$GNGBS,053120.00,5.8,9.2,15.2,,,,*6A
$GNTXT,01,01,01,More than 100 frame errors, UART RX was disabled*70
b0Lx<C8h T
!)f/q W
D"{4!V_:R 
Y
oD\EFI)OOO
PNSgT1YUhbxU
+Eb$GNRMC,053121.00,A,0419.89941,S,05539.63221,E,0.497,,280525,,,D*7F
$GNVTG,,T,,M,0.497,N,0.920,K,D*39
$GNGNS,053121.00,0419.89941,S,05539.63221,E,DA,13,0.79,31.0,-47.6,,0000*6D
$GNGGA,053121.00,0419.89941,S,05539.63221,E,2,12,0.79,31.0,M,-47.6,M,,0000*40
$GNGSA,A,3,24,05,20,15,12,25,23,,,,,,1.47,0.79,1.24*17
$GNGSA,A,3,79,80,83,69,73,85,,,,,,,1.47,0.79,1.24*1C
$GPGSV,5,1,17,05,60,067,21,11,02,028,11,12,56,022,20,13,15,132,*76
$GPGSV,5,2,17,15,32,165,19,18,33,259,15,20,28,041,20,22,03,136,*7C
$GPGSV,5,3,17,23,22,206,23,24,47,200,20,25,32,343,25,29,10,324,12*71
$GPGSV,5,4,17,36,52,277,,40,86,351,33,41,58,082,,49,32,274,*7C
$GPGSV,5,5,17,50,10,089,*4A
$GLGSV,3,1,09,68,16,092,,69,26,143,11,70,05,203,,73,41,335,23*67
$GLGSV,3,2,09,79,22,152,10,80,78,136,27,83,12,359,14,84,26,305,16*69
$GLGSV,3,3,09,85,12,256,24*55
$GNGLL,0419.89941,S,05539.63221,E,053121.00,A,D*64
$GNGRS,053121.00,1,-14.2,-8.0,3.9,0.8,-14.3,0.1,-6.7,,,,,*71
$GNGRS,053121.00,1,4.1,-8.0,18.1,4.2,-9.4,-6.6,,,,,,*47
$GNGST,053121.00,114345,,,,5.8,9.3,15*66
$GNZDA,053121.00,28,05,2025,00,00*76
$GNGBS,053121.00,5.8,9.3,15.3,,,,*6B
$GNTXT,01,01,01,More than 100 frame errors, UART RX was disabled*70
b0L`<C
8G 
!)/ W

D{4 V_:R 
Y
oD\E
FI)OOPNS
gET1Ub`U
E:e$GNRMC,053122.00,A,0419.89963,S,05539.63225,E,0.959,,280525,,,D*77
$GNVTG,,T,,M,0.959,N,1.776,K,D*3A
$GNGNS,053122.00,0419.89963,S,05539.63225,E,DA,13,0.79,30.9,-47.6,,0000*62
$GNGGA,053122.00,0419.89963,S,05539.63225,E,2,12,0.79,30.9,M,-47.6,M,,0000*4F
$GNGSA,A,3,24,05,20,15,12,25,23,,,,,,1.47,0.79,1.24*17
$GNGSA,A,3,79,80,83,69,73,85,,,,,,,1.47,0.79,1.24*1C
$GPGSV,5,1,17,05,60,067,18,11,02,028,10,12,56,022,18,13,15,132,*76
$GPGSV,5,2,17,15,32,165,20,18,33,259,14,20,28,041,19,22,03,136,*7D
$GPGSV,5,3,17,23,22,206,25,24,47,200,19,25,32,343,26,29,10,324,10*7C
$GPGSV,5,4,17,36,52,277,,40,86,351,32,41,58,082,,49,32,274,*7D
$GPGSV,5,5,17,50,10,089,*4A
$GLGSV,3,1,09,68,16,092,,69,26,143,10,70,05,203,,73,41,335,23*66
$GLGSV,3,2,09,79,22,152,12,80,78,136,27,83,12,359,10,84,26,305,14*6D
$GLGSV,3,3,09,85,12,256,25*54
$GNGLL,0419.89963,S,05539.63225,E,053122.00,A,D*63
$GNGRS,053122.00,1,-10.9,-5.6,4.4,-0.3,-17.2,1.3,-6.2,,,,,*5E
$GNGRS,053122.00,1,4.2,-13.9,18.6,4.3,-10.2,-6.0,,,,,,*4A
$GNGST,053122.00,174808,,,,5.8,9.4,15*66
$GNZDA,053122.00,28,05,2025,00,00*75
$GNGBS,053122.00,5.8,9.4,15.3,,,,*6F
$GNTXT,01,01,01,More than 100 frame errors, UART RX was disabled*70
b0LH<C
8 :
!)X/ W
D{4 V_:R 
Y
oD\E_FI)OO~PNfSgT1UbHU
E$GNRMC,053123.00,A,0419.89956,S,05539.63237,E,0.261,,280525,,,D*73
$GNVTG,,T,,M,0.261,N,0.483,K,D*32
$GNGNS,053123.00,0419.89956,S,05539.63237,E,DA,14,0.74,29.7,-47.6,,0000*6A
$GNGGA,053123.00,0419.89956,S,05539.63237,E,2,12,0.74,29.7,M,-47.6,M,,0000*40
$GNGSA,A,3,24,05,20,15,12,25,23,,,,,,1.44,0.74,1.24*19
$GNGSA,A,3,79,80,83,84,69,73,85,,,,,,1.44,0.74,1.24*1E
$GPGSV,5,1,17,05,60,067,19,11,02,028,10,12,56,022,17,13,15,132,*78
$GPGSV,5,2,17,15,32,165,21,18,33,259,13,20,28,041,17,22,03,136,*75
$GPGSV,5,3,17,23,22,206,24,24,47,200,22,25,32,343,25,29,10,324,08*7F
$GPGSV,5,4,17,36,52,277,,40,86,351,32,41,58,082,,49,32,274,*7D
$GPGSV,5,5,17,50,10,089,*4A
$GLGSV,3,1,09,68,16,092,,69,26,143,11,70,05,203,,73,41,335,23*67
$GLGSV,3,2,09,79,22,152,11,80,78,136,27,83,12,359,11,84,26,305,15*6E
$GLGSV,3,3,09,85,12,256,25*54
$GNGLL,0419.89956,S,05539.63237,E,053123.00,A,D*67
$GNGRS,053123.00,1,-8.3,-8.2,6.0,-2.0,-19.1,4.5,-8.0,,,,,*60
$GNGRS,053123.00,1,8.9,-24.6,10.3,-13.5,-142,-10.2,-2.6,,,,,*4F
$GNGST,053123.00,75,,,,5.7,9.5,15*69
$GNZDA,053123.00,28,05,2025,00,00*74
$GNGBS,053123.00,5.7,9.5,15.2,,,,*61
$GNTXT,01,01,01,More than 100 frame errors, UART RX was disabled*70
b0L0<C8A 
!)y%/ Wt

D{4 V_:R 
Y
oD\EyFI)OgORPN#S
g!T1U;%qb0U
 E2$GNRMC,053124.00,A,0419.89952,S,05539.63268,E,0.665,,280525,,,D*7A
$GNVTG,,T,,M,0.665,N,1.231,K,D*3C
$GNGNS,053124.00,0419.89952,S,05539.63268,E,DA,14,0.74,28.4,-47.6,,0000*61
$GNGGA,053124.00,0419.89952,S,05539.63268,E,2,12,0.74,28.4,M,-47.6,M,,0000*4B
$GNGSA,A,3,24,05,20,15,12,25,23,,,,,,1.44,0.74,1.24*19
$GNGSA,A,3,79,80,83,84,69,73,85,,,,,,1.44,0.74,1.24*1E
$GPGSV,5,1,17,05,60,067,21,11,02,028,09,12,56,022,16,13,15,132,*7A
$GPGSV,5,2,17,15,32,165,22,18,33,259,13,20,28,041,16,22,03,136,*77
$GPGSV,5,3,17,23,22,206,22,24,47,200,24,25,32,343,25,29,10,324,10*76
$GPGSV,5,4,17,36,52,277,,40,86,351,32,41,58,082,,49,32,274,*7D
$GPGSV,5,5,17,50,10,089,*4A
$GLGSV,3,1,09,68,16,092,,69,26,143,08,70,05,203,,73,41,335,22*6E
$GLGSV,3,2,09,79,22,152,11,80,78,136,27,83,12,359,10,84,26,305,13*69
$GLGSV,3,3,09,85,12,256,24*55
$GNGLL,0419.89952,S,05539.63268,E,053124.00,A,D*6E
$GNGRS,053124.00,1,-7.6,-6.1,3.8,-2.8,-19.8,3.7,-7.3,,,,,*65
$GNGRS,053124.00,1,3.4,-22.7,18.2,-13.6,3.8,-11.8,-2.0,,,,,*71
$GNGST,053124.00,97894,,,,5.7,9.6,15*54
$GNZDA,053124.00,28,05,2025,00,00*73
$GNGBS,053124.00,5.7,9.6,15.3,,,,*64
$GNTXT,01,01,01,More than 100 frame errors, UART RX was disabled*70
b0L<C
84 
!)N/' W

Dz!{4 V_:R 
Y
oD\EFI)OOyPNSg/T1uUbU
$E$GNRMC,053125.00,A,0419.89939,S,05539.63227,E,1.052,,280525,,,D*7E
$GNVTG,,T,,M,1.052,N,1.948,K,D*3A
$GNGNS,053125.00,0419.89939,S,05539.63227,E,DA,15,0.69,28.4,-47.6,,0000*6B
$GNGGA,053125.00,0419.89939,S,05539.63227,E,2,12,0.69,28.4,M,-47.6,M,,0000*40
$GNGSA,A,3,24,05,20,15,12,18,25,23,,,,,1.40,0.69,1.22*1E
$GNGSA,A,3,79,80,83,84,69,73,85,,,,,,1.40,0.69,1.22*10
$GPGSV,5,1,17,05,60,067,22,11,02,028,10,12,56,022,15,13,15,132,*72
$GPGSV,5,2,17,15,32,165,21,18,33,259,13,20,28,041,18,22,03,136,*7A
$GPGSV,5,3,17,23,22,206,21,24,47,200,27,25,32,343,24,29,10,324,10*77
$GPGSV,5,4,17,36,52,277,,40,86,351,32,41,58,082,,49,32,274,*7D
$GPGSV,5,5,17,50,10,089,*4A
$GLGSV,3,1,09,68,16,092,,69,26,143,09,70,05,203,,73,41,335,21*6C
$GLGSV,3,2,09,79,22,152,11,80,78,136,27,83,12,359,09,84,26,305,13*61
$GLGSV,3,3,09,85,12,256,24*55
$GNGLL,0419.89939,S,05539.63227,E,053125.00,A,D*69
$GNGRS,053125.00,1,-7.3,-5.6,3.3,-3.6,-20.0,13.0,7.2,-8.2,,,,*70
$GNGRS,053125.00,1,3.8,-17.9,18.4,-19.3,4.4,-13.3,-3.0,,,,,*7E
$GNGST,053125.00,139236,,,,5.7,9.7,15*63
$GNZDA,053125.00,28,05,2025,00,00*72
$GNGBS,053125.00,5.7,9.7,15.4,,,,*63
$GNTXT,01,01,01,More than 100 frame errors, UART RX was disabled*70
b0L<C
8 
!)L@/ Wf
D!{4V_:R 
Y
oD[E:FI)OlOPNqSgxT1nUibU
(E$GNRMC,053126.00,A,0419.89934,S,05539.63226,E,0.672,,280525,,,D*74
$GNVTG,,T,,M,0.672,N,1.245,K,D*39
$GNGNS,053126.00,0419.89934,S,05539.63226,E,DA,16,0.70,26.5,-47.6,,0000*60
$GNGGA,053126.00,0419.89934,S,05539.63226,E,2,12,0.70,26.5,M,-47.6,M,,0000*48
$GNGSA,A,3,24,05,20,15,12,18,29,25,23,,,,1.35,0.70,1.15*1B
$GNGSA,A,3,79,80,83,84,69,73,85,,,,,,1.35,0.70,1.15*1E
$GPGSV,5,1,17,05,60,067,21,11,02,028,10,12,56,022,17,13,15,132,*73
$GPGSV,5,2,17,15,32,165,21,18,33,259,14,20,28,041,18,22,03,136,*7D
$GPGSV,5,3,17,23,22,206,20,24,47,200,28,25,32,343,22,29,10,324,11*7E
$GPGSV,5,4,17,36,52,277,,40,86,351,31,41,58,082,,49,32,274,*7E
$GPGSV,5,5,17,50,10,089,*4A
$GLGSV,3,1,09,68,16,091,,69,26,143,13,70,05,203,,73,41,335,20*65
$GLGSV,3,2,09,79,22,152,11,80,78,136,26,83,12,359,09,84,26,305,12*61
$GLGSV,3,3,09,85,12,256,22*53
$GNGLL,0419.89934,S,05539.63226,E,053126.00,A,D*66
$GNGRS,053126.00,1,-2.8,-6.2,3.3,-3.5,-21.0,4.7,86.3,8.7,-9.6,,,*55
$GNGRS,053126.00,1,33.0,-16.8,44.7,-6.6,151,-14.3,-2.8,,,,,*62
$GNGST,053126.00,77,,,,5.7,9.7,15*6C
$GNZDA,053126.00,28,05,2025,00,00*71
$GNGBS,053126.00,5.7,9.7,15.4,84,,6.7,71.0*5B
$GNTXT,01,01,01,More than 100 frame errors, UART RX was disabled*70
b0L<C8 [
!K)|D/ W

D!{4 V_:R 
Y
oD[EFI)OOPNSgT1UpbU
,Ep[$GNRMC,053127.00,A,0419.89919,S,05539.63204,E,0.191,,280525,,,D*70
$GNVTG,,T,,M,0.191,N,0.354,K,D*33
$GNGNS,053127.00,0419.89919,S,05539.63204,E,DA,15,0.70,25.7,-47.6,,0000*6C
$GNGGA,053127.00,0419.89919,S,05539.63204,E,2,12,0.70,25.7,M,-47.6,M,,0000*47
$GNGSA,A,3,24,05,20,15,12,18,29,25,23,,,,1.35,0.70,1.15*1B
$GNGSA,A,3,79,80,83,69,73,85,,,,,,,1.35,0.70,1.15*12
$GPGSV,5,1,17,05,60,067,20,11,02,028,09,12,56,022,22,13,15,132,*7C
$GPGSV,5,2,17,15,32,165,21,18,33,259,15,20,28,041,18,22,03,136,*7C
$GPGSV,5,3,17,23,22,206,21,24,47,200,26,25,32,343,22,29,10,324,10*70
$GPGSV,5,4,17,36,52,277,,40,86,351,32,41,58,082,,49,32,274,*7D
$GPGSV,5,5,17,50,10,089,*4A
$GLGSV,3,1,09,68,16,091,,69,27,142,11,70,05,203,,73,41,335,20*67
$GLGSV,3,2,09,79,22,152,08,80,78,136,27,83,12,359,08,84,26,305,*6A
$GLGSV,3,3,09,85,12,256,22*53
$GNGLL,0419.89919,S,05539.63204,E,053127.00,A,D*68
$GNGRS,053127.00,1,-0.8,-6.2,3.8,-4.2,-22.9,3.3,87.0,6.9,-9.6,,,*56
$GNGRS,053127.00,1,4.1,-15.1,17.7,4.3,-13.7,-1.2,,,,,,*4F
$GNGST,053127.00,4343720,,,,5.7,9.8,15*57
$GNZDA,053127.00,28,05,2025,00,00*70
$GNGBS,053127.00,5.7,9.8,15.4,,,,*6E
$GNTXT,01,01,01,More than 100 frame errors, UART RX was disabled*70
b0L<C8[ c
!)(4/ W&
D{4 V_:R 
Y
oD[EFI)OeOPNSgT1UB\bU
0EH$GNRMC,053128.00,A,0419.89909,S,05539.63172,E,0.395,,280525,,,D*7A
$GNVTG,,T,,M,0.395,N,0.732,K,D*31
$GNGNS,053128.00,0419.89909,S,05539.63172,E,DA,15,0.70,25.1,-47.6,,0000*66
$GNGGA,053128.00,0419.89909,S,05539.63172,E,2,12,0.70,25.1,M,-47.6,M,,0000*4D
$GNGSA,A,3,24,05,20,15,12,18,29,25,23,,,,1.35,0.70,1.15*1B
$GNGSA,A,3,79,80,83,69,73,85,,,,,,,1.35,0.70,1.15*12
$GPGSV,5,1,17,05,60,067,20,11,02,028,09,12,56,022,24,13,15,132,*7A
$GPGSV,5,2,17,15,32,165,23,18,33,259,15,20,28,041,19,22,03,136,*7F
$GPGSV,5,3,17,23,22,206,20,24,47,200,27,25,32,343,22,29,10,324,11*71
$GPGSV,5,4,17,36,52,277,,40,86,351,32,41,58,082,,49,32,274,*7D
$GPGSV,5,5,17,50,10,089,*4A
$GLGSV,3,1,09,68,16,091,,69,27,142,09,70,05,203,,73,41,335,20*6E
$GLGSV,3,2,09,79,22,152,13,80,78,136,27,83,12,359,09,84,26,305,*61
$GLGSV,3,3,09,85,12,256,23*52
$GNGLL,0419.89909,S,05539.63172,E,053128.00,A,D*64
$GNGRS,053128.00,1,2.5,-3.3,5.5,-6.7,-22.1,4.2,81.3,5.5,-9.7,,,*76
$GNGRS,053128.00,1,4.4,-11.2,17.0,4.4,-14.3,0.7,,,,,,*68
$GNGST,053128.00,4343722,,,,5.6,9.8,15*5B
$GNZDA,053128.00,28,05,2025,00,00*7F
$GNGBS,053128.00,5.6,9.8,15.4,,,,*60
$GNTXT,01,01,01,More than 100 frame errors, UART RX was disabled*70
b0L<CcK8d 
!I)G^/ Wn
Dr{4 V_:R 
Y
oD[E)FI)OxOPNSg~T1UfbU
k4E +$GNRMC,053129.00,A,0419.89897,S,05539.63166,E,0.326,,280525,,,D*70
$GNVTG,,T,,M,0.326,N,0.603,K,D*3A
$GNGNS,053129.00,0419.89897,S,05539.63166,E,DA,15,0.70,24.2,-47.6,,0000*66
$GNGGA,053129.00,0419.89897,S,05539.63166,E,2,12,0.70,24.2,M,-47.6,M,,0000*4D
$GNGSA,A,3,24,05,20,15,12,18,29,25,23,,,,1.35,0.70,1.15*1B
$GNGSA,A,3,79,80,83,69,73,85,,,,,,,1.35,0.70,1.15*12
$GPGSV,5,1,17,05,60,067,20,11,02,028,09,12,56,022,25,13,15,132,*7B
$GPGSV,5,2,17,15,32,165,24,18,33,259,21,20,28,041,18,22,03,136,*7E
$GPGSV,5,3,17,23,22,206,19,24,47,200,26,25,32,343,23,29,10,324,12*78
$GPGSV,5,4,17,36,52,277,,40,86,351,32,41,58,082,,49,32,274,*7D
$GPGSV,5,5,17,50,10,089,*4A
$GLGSV,3,1,09,68,16,091,,69,27,142,12,70,05,203,,73,41,335,18*6F
$GLGSV,3,2,09,79,22,152,15,80,78,136,28,83,12,359,09,84,26,305,*68
$GLGSV,3,3,09,85,12,256,24*55
$GNGLL,0419.89897,S,05539.63166,E,053129.00,A,D*66
$GNGRS,053129.00,1,-0.2,-1.6,5.8,-5.6,-22.0,5.8,75.4,3.7,-9.3,,,*51
$GNGRS,053129.00,1,-4.8,-8.1,-11.5,-27.8,-14.2,-0.2,,,,,,*64
$GNGST,053129.00,64,,,,5.6,9.7,15*60
$GNZDA,053129.00,28,05,2025,00,00*7E
$GNGBS,053129.00,5.6,9.7,15.2,,,,*68
$GNTXT,01,01,01,More than 100 frame errors, UART RX was disabled*70
b0L<CG287 3
!){/ W
Ds{4!V_:R 
Y
oD[E
FI)OyO
PNS
gWT1U(;bU
S8E$GNRMC,053130.00,A,0419.89905,S,05539.63155,E,0.438,,280525,,,D*7A
$GNVTG,,T,,M,0.438,N,0.811,K,D*3F
$GNGNS,053130.00,0419.89905,S,05539.63155,E,DA,15,0.70,24.3,-47.6,,0000*65
$GNGGA,053130.00,0419.89905,S,05539.63155,E,2,12,0.70,24.3,M,-47.6,M,,0000*4E
$GNGSA,A,3,24,05,20,15,12,18,29,25,23,,,,1.35,0.70,1.15*1B
$GNGSA,A,3,79,80,83,69,73,85,,,,,,,1.35,0.70,1.15*12
$GPGSV,5,1,17,05,60,067,18,11,02,028,09,12,56,022,23,13,15,132,*76
$GPGSV,5,2,17,15,32,165,26,18,33,259,21,20,28,041,20,22,03,136,*77
$GPGSV,5,3,17,23,22,206,18,24,47,200,26,25,32,343,23,29,10,324,13*78
$GPGSV,5,4,17,36,52,277,,40,86,351,33,41,58,082,,49,32,274,*7C
$GPGSV,5,5,17,50,10,089,*4A
$GLGSV,3,1,09,68,16,091,,69,27,142,10,70,05,203,,73,41,335,21*67
$GLGSV,3,2,09,79,22,152,10,80,78,136,30,83,12,359,10,84,26,305,*6C
$GLGSV,3,3,09,85,12,256,27*56
$GNGLL,0419.89905,S,05539.63155,E,053130.00,A,D*64
$GNGRS,053130.00,1,-2.7,0.7,2.8,-7.2,-22.5,2.7,75.4,4.2,-9.0,,,*7E
$GNGRS,053130.00,1,4.5,-5.5,18.8,4.6,-14.1,0.4,,,,,,*56
$GNGST,053130.00,4345469,,,,5.6,9.6,15*56
$GNZDA,053130.00,28,05,2025,00,00*76
$GNGBS,053130.00,5.6,9.6,15.1,,,,*62
$GNTXT,01,01,01,More than 100 frame errors, UART RX was disabled*70
b0L<CJ8 M
!B)9/ W
DS{4!V_:R 
Y
oD[E
FI)OOPNSgYT1U#|bU
;<E$GNRMC,053131.00,A,0419.89907,S,05539.63150,E,0.031,,280525,,,D*71
$GNVTG,,T,,M,0.031,N,0.057,K,D*38
$GNGNS,053131.00,0419.89907,S,05539.63150,E,DA,15,0.70,24.4,-47.6,,0000*64
$GNGGA,053131.00,0419.89907,S,05539.63150,E,2,12,0.70,24.4,M,-47.6,M,,0000*4F
$GNGSA,A,3,24,05,20,15,12,18,29,25,23,,,,1.35,0.70,1.15*1B
$GNGSA,A,3,79,80,83,69,73,85,,,,,,,1.35,0.70,1.15*12
$GPGSV,5,1,17,05,60,067,19,11,02,028,11,12,56,022,22,13,15,132,*7F
$GPGSV,5,2,17,15,32,165,25,18,33,259,21,20,28,041,22,22,03,136,*76
$GPGSV,5,3,17,23,22,206,17,24,47,200,23,25,32,343,21,29,10,324,09*7B
$GPGSV,5,4,17,36,52,277,,40,86,351,33,41,58,082,,49,32,274,*7C
$GPGSV,5,5,17,50,10,089,*4A
$GLGSV,3,1,09,68,16,091,,69,27,142,10,70,05,203,,73,41,335,23*65
$GLGSV,3,2,09,79,22,152,12,80,78,136,31,83,12,359,11,84,26,305,*6E
$GLGSV,3,3,09,85,12,256,27*56
$GNGLL,0419.89907,S,05539.63150,E,053131.00,A,D*62
$GNGRS,053131.00,1,-7.5,-1.1,3.1,-6.9,-21.5,0.7,75.1,4.9,-8.8,,,*56
$GNGRS,053131.00,1,5.1,-2.8,18.8,5.1,-13.2,-2.3,,,,,,*72
$GNGST,053131.00,4346743,,,,5.6,9.4,15*5D
$GNZDA,053131.00,28,05,2025,00,00*77
$GNGBS,053131.00,5.6,9.4,14.8,,,,*69
$GNTXT,01,01,01,More than 100 frame errors, UART RX was disabled*70
b0Lp<Cf728| N
!/)/ W
D{4!V_:R 
Y
oD[E
2FI)OOPN~Sg5T1UbpU
#@Ec$GNRMC,053132.00,A,0419.89904,S,05539.63162,E,0.137,,280525,,,D*77
$GNVTG,,T,,M,0.137,N,0.253,K,D*39
$GNGNS,053132.00,0419.89904,S,05539.63162,E,DA,15,0.70,23.8,-47.6,,0000*6E
$GNGGA,053132.00,0419.89904,S,05539.63162,E,2,12,0.70,23.8,M,-47.6,M,,0000*45
$GNGSA,A,3,24,05,20,15,12,18,29,25,23,,,,1.35,0.70,1.15*1B
$GNGSA,A,3,79,80,83,69,73,85,,,,,,,1.35,0.70,1.15*12
$GPGSV,5,1,17,05,60,067,21,11,02,028,09,12,56,022,23,13,15,132,*7C
$GPGSV,5,2,17,15,32,165,26,18,33,259,21,20,28,041,23,22,03,136,*74
$GPGSV,5,3,17,23,22,206,15,24,47,200,21,25,32,343,20,29,10,324,14*76
$GPGSV,5,4,17,36,52,277,,40,86,351,33,41,58,082,,49,32,274,*7C
$GPGSV,5,5,17,50,10,089,*4A
$GLGSV,3,1,09,68,16,091,,69,27,142,10,70,05,203,,73,41,335,23*65
$GLGSV,3,2,09,79,22,152,11,80,78,136,30,83,12,359,11,84,26,305,*6C
$GLGSV,3,3,09,85,12,256,29*58
$GNGLL,0419.89904,S,05539.63162,E,053132.00,A,D*63
$GNGRS,053132.00,1,-5.2,-1.5,1.7,-6.9,-21.8,-2.1,-41.1,4.9,-8.3,,,*55
$GNGRS,053132.00,1,28.3,-3.9,138,-20.0,-12.6,-1.2,,,,,,*75
$GNGST,053132.00,77,,,,5.5,9.1,14*6C
$GNZDA,053132.00,28,05,2025,00,00*74
$GNGBS,053132.00,5.5,9.1,14.5,,,,*61
$GNTXT,01,01,01,More than 100 frame errors, UART RX was disabled*70
b0LX<Ca8u `
!)T/ W

D{4"V_:R 
Y
oD[E
FI)OOPNSgwT1UbbXU
DE$GNRMC,053133.00,A,0419.89914,S,05539.63156,E,0.120,,280525,,,D*76
$GNVTG,,T,,M,0.120,N,0.222,K,D*39
$GNGNS,053133.00,0419.89914,S,05539.63156,E,DA,15,0.70,23.8,-47.6,,0000*69
$GNGGA,053133.00,0419.89914,S,05539.63156,E,2,12,0.70,23.8,M,-47.6,M,,0000*42
$GNGSA,A,3,24,05,20,15,12,18,29,25,23,,,,1.35,0.70,1.15*1B
$GNGSA,A,3,79,80,83,69,73,85,,,,,,,1.35,0.70,1.15*12
$GPGSV,5,1,17,05,60,067,21,11,02,028,11,12,56,022,24,13,15,132,*72
$GPGSV,5,2,17,15,32,165,25,18,33,259,22,20,28,041,23,22,03,136,*74
$GPGSV,5,3,17,23,22,206,14,24,47,200,20,25,32,343,20,29,10,324,10*72
$GPGSV,5,4,17,36,52,277,,40,86,351,34,41,58,082,,49,32,274,*7B
$GPGSV,5,5,17,50,10,089,*4A
$GLGSV,3,1,09,68,16,091,,69,27,142,10,70,05,203,,73,41,335,24*62
$GLGSV,3,2,09,79,22,152,08,80,78,136,29,83,12,359,08,84,26,305,*64
$GLGSV,3,3,09,85,12,256,29*58
$GNGLL,0419.89914,S,05539.63156,E,053133.00,A,D*64
$GNGRS,053133.00,1,-2.9,-0.5,0.8,-6.7,-19.3,-5.9,35.3,4.7,-7.8,,,*70
$GNGRS,053133.00,1,4.2,-3.4,19.1,4.3,-13.0,-0.1,,,,,,*76
$GNGST,053133.00,6142946,,,,5.5,8.9,14*5E
$GNZDA,053133.00,28,05,2025,00,00*75
$GNGBS,053133.00,5.5,8.9,14.3,,,,*6F
$GNTXT,01,01,01,More than 100 frame errors, UART RX was disabled*70
b0L@<C-38Q 
!)// W
D{4"V_:R 
Y
oD[E
FI)OOPNKSgOT1Ub@U
GEW0$GNRMC,053134.00,A,0419.89906,S,05539.63175,E,0.575,,280525,,,D*77
$GNVTG,,T,,M,0.575,N,1.066,K,D*3E
$GNGNS,053134.00,0419.89906,S,05539.63175,E,DA,15,0.70,23.2,-47.6,,0000*66
$GNGGA,053134.00,0419.89906,S,05539.63175,E,2,12,0.70,23.2,M,-47.6,M,,0000*4D
$GNGSA,A,3,24,05,20,15,12,18,29,25,23,,,,1.35,0.70,1.15*1B
$GNGSA,A,3,79,80,83,69,73,85,,,,,,,1.35,0.70,1.15*12
$GPGSV,5,1,17,05,60,067,19,11,02,028,09,12,56,022,24,13,15,132,*70
$GPGSV,5,2,17,15,32,165,24,18,33,259,19,20,28,041,23,22,03,136,*7D
$GPGSV,5,3,17,23,22,206,17,24,47,200,21,25,32,343,17,29,10,324,09*7C
$GPGSV,5,4,17,36,52,277,,40,86,351,34,41,58,082,,49,32,274,*7B
$GPGSV,5,5,17,50,10,089,*4A
$GLGSV,3,1,09,68,16,091,,69,27,142,10,70,05,203,,73,41,335,23*65
$GLGSV,3,2,09,79,22,152,14,80,78,136,30,83,12,359,09,84,26,305,*60
$GLGSV,3,3,09,85,12,256,29*58
$GNGLL,0419.89906,S,05539.63175,E,053134.00,A,D*61
$GNGRS,053134.00,1,1.7,0.5,0.5,-5.4,-19.7,-8.5,35.0,4.9,-5.9,,,*7C
$GNGRS,053134.00,1,4.0,-1.8,18.7,3.9,-11.1,-1.0,,,,,,*74
$GNGST,053134.00,6142946,,,,5.5,8.8,14*58
$GNZDA,053134.00,28,05,2025,00,00*72
$GNGBS,053134.00,5.5,8.8,14.2,,,,*68
$GNTXT,01,01,01,More than 100 frame errors, UART RX was disabled*70
b0L(<Cr0F8 1
!)/ W
D{4"V_:R 
Y
oD[EFI)OOPNcS
g@T1UQb(U
KE/$GNRMC,053135.00,A,0419.89941,S,05539.63197,E,1.076,,280525,,,D*7E
$GNVTG,,T,,M,1.076,N,1.993,K,D*3A
$GNGNS,053135.00,0419.89941,S,05539.63197,E,DA,15,0.70,22.9,-47.6,,0000*62
$GNGGA,053135.00,0419.89941,S,05539.63197,E,2,12,0.70,22.9,M,-47.6,M,,0000*49
$GNGSA,A,3,24,05,20,15,12,18,29,25,23,,,,1.35,0.70,1.15*1B
$GNGSA,A,3,79,80,83,69,73,85,,,,,,,1.35,0.70,1.15*12
$GPGSV,5,1,17,05,60,067,18,11,02,028,07,12,56,022,23,13,15,132,*78
$GPGSV,5,2,17,15,32,165,24,18,33,259,21,20,28,041,22,22,03,136,*77
$GPGSV,5,3,17,23,22,206,19,24,47,200,21,25,32,343,17,29,10,324,16*7C
$GPGSV,5,4,17,36,52,277,,40,86,351,34,41,58,082,,49,32,274,*7B
$GPGSV,5,5,17,50,10,089,*4A
$GLGSV,3,1,09,68,16,091,,69,27,142,17,70,05,203,,73,41,335,20*61
$GLGSV,3,2,09,79,22,152,12,80,78,136,29,83,12,359,10,84,26,305,*66
$GLGSV,3,3,09,85,12,256,28*59
$GNGLL,0419.89941,S,05539.63197,E,053135.00,A,D*6F
$GNGRS,053135.00,1,2.2,-1.4,-0.1,-4.6,-18.2,-10.6,-67.0,4.4,-6.3,,,*6C
$GNGRS,053135.00,1,45.3,1.0,166,-28.2,-12.7,-6.9,,,,,,*53
$GNGST,053135.00,79,,,,5.5,8.7,14*62
$GNZDA,053135.00,28,05,2025,00,00*73
$GNGBS,053135.00,5.5,8.7,14.0,,,,*64
$GNTXT,01,01,01,More than 100 frame errors, UART RX was disabled*70
b0L<C=
#8 r
!)x/j W&
D{4!V_:R 
Y
oD[EFI)OIOPNjSg5T1U|bU
OE$GNRMC,053136.00,A,0419.89952,S,05539.63210,E,0.245,,280525,,,D*70
$GNVTG,,T,,M,0.245,N,0.454,K,D*3E
$GNGNS,053136.00,0419.89952,S,05539.63210,E,DA,15,0.70,23.0,-47.6,,0000*67
$GNGGA,053136.00,0419.89952,S,05539.63210,E,2,12,0.70,23.0,M,-47.6,M,,0000*4C
$GNGSA,A,3,24,05,20,15,12,18,29,25,23,,,,1.35,0.70,1.15*1B
$GNGSA,A,3,79,80,83,69,73,85,,,,,,,1.35,0.70,1.15*12
$GPGSV,5,1,17,05,60,067,17,11,02,028,10,12,56,022,23,13,15,132,*71
$GPGSV,5,2,17,15,32,165,25,18,33,259,23,20,28,041,22,22,03,136,*74
$GPGSV,5,3,17,23,22,206,21,24,47,200,18,25,32,343,15,29,10,324,13*7A
$GPGSV,5,4,17,36,52,277,,40,86,351,33,41,58,082,,49,32,274,*7C
$GPGSV,5,5,17,50,10,089,*4A
$GLGSV,3,1,09,68,16,091,,69,27,142,17,70,05,203,,73,41,335,18*6A
$GLGSV,3,2,09,79,22,152,08,80,78,136,30,83,12,359,13,84,26,305,*66
$GLGSV,3,3,09,85,12,256,29*58
$GNGLL,0419.89952,S,05539.63210,E,053136.00,A,D*62
$GNGRS,053136.00,1,3.6,-2.0,-1.2,-6.5,-15.9,-11.5,34.8,5.5,-6.5,,,*4F
$GNGRS,053136.00,1,4.5,1.1,18.4,4.5,-14.6,-6.3,,,,,,*59
$GNGST,053136.00,5319949,,,,5.6,8.6,14*57
$GNZDA,053136.00,28,05,2025,00,00*70
$GNGBS,053136.00,5.6,8.6,13.9,,,,*6B
$GNTXT,01,01,01,More than 100 frame errors, UART RX was disabled*70
b0L<C"8 
!)X/T W
Dn{4"V_:R 
Y
oD[EFI)OkOPNSgT1URbU
SEY$GNRMC,053137.00,A,0419.89969,S,05539.63251,E,0.838,,280525,,,D*7C
$GNVTG,,T,,M,0.838,N,1.552,K,D*38
$GNGNS,053137.00,0419.89969,S,05539.63251,E,DA,15,0.70,22.4,-47.6,,0000*6E
$GNGGA,053137.00,0419.89969,S,05539.63251,E,2,12,0.70,22.4,M,-47.6,M,,0000*45
$GNGSA,A,3,24,05,20,15,12,18,29,25,23,,,,1.35,0.70,1.15*1B
$GNGSA,A,3,79,80,83,69,73,85,,,,,,,1.35,0.70,1.15*12
$GPGSV,5,1,17,05,60,067,18,11,02,028,11,12,56,022,23,13,15,132,*7F
$GPGSV,5,2,17,15,32,165,25,18,33,259,21,20,28,041,22,22,03,136,*76
$GPGSV,5,3,17,23,22,206,20,24,47,200,16,25,32,343,16,29,10,324,18*7D
$GPGSV,5,4,17,36,52,277,,40,86,351,34,41,58,082,,49,32,274,*7B
$GPGSV,5,5,17,50,10,089,*4A
$GLGSV,3,1,09,68,16,091,,69,27,142,12,70,05,203,,73,41,335,16*61
$GLGSV,3,2,09,79,22,152,08,80,78,136,30,83,12,359,13,84,26,305,*66
$GLGSV,3,3,09,85,12,256,30*50
$GNGLL,0419.89969,S,05539.63251,E,053137.00,A,D*6E
$GNGRS,053137.00,1,0.8,-2.2,-2.9,-5.8,-16.2,-16.2,34.4,7.8,-4.2,,,*49
$GNGRS,053137.00,1,4.4,4.2,17.8,4.2,-16.9,-3.6,,,,,,*56
$GNGST,053137.00,5319950,,,,5.7,8.5,14*5C
$GNZDA,053137.00,28,05,2025,00,00*71
$GNGBS,053137.00,5.7,8.5,13.8,,,,*69
$GNTXT,01,01,01,More than 100 frame errors, UART RX was disabled*70
b0L<CV=8# 
!)// W}
Dg{4#V_:R 
Y
oD[E0FI)OO
PMSgT1UbU
WE$GNRMC,053138.00,A,0419.89966,S,05539.63261,E,0.361,,280525,,,D*78
$GNVTG,,T,,M,0.361,N,0.669,K,D*35
$GNGNS,053138.00,0419.89966,S,05539.63261,E,DA,15,0.95,22.5,-47.6,,0000*67
$GNGGA,053138.00,0419.89966,S,05539.63261,E,2,12,0.95,22.5,M,-47.6,M,,0000*4C
$GNGSA,A,3,24,05,20,15,12,18,29,25,23,,,,1.93,0.95,1.67*19
$GNGSA,A,3,79,80,83,69,73,85,,,,,,,1.93,0.95,1.67*10
$GPGSV,5,1,17,05,60,067,19,11,02,028,08,12,56,022,20,13,15,132,*75
$GPGSV,5,2,17,15,32,165,24,18,33,259,21,20,28,041,23,22,03,136,*76
$GPGSV,5,3,17,23,22,206,18,24,47,200,17,25,32,343,16,29,10,324,11*7E
$GPGSV,5,4,17,36,52,277,,40,86,351,35,41,58,082,,49,32,274,*7A
$GPGSV,5,5,17,50,10,089,*4A
$GLGSV,3,1,09,68,16,091,,69,27,142,12,70,05,203,,73,41,335,14*63
$GLGSV,3,2,09,79,22,152,10,80,77,139,29,83,12,359,09,84,26,305,*6C
$GLGSV,3,3,09,85,12,256,31*51
$GNGLL,0419.89966,S,05539.63261,E,053138.00,A,D*6D
$GNGRS,053138.00,1,1.3,-2.4,-2.5,-5.3,-15.0,-17.7,-42.5,6.4,-4.6,,,*6C
$GNGRS,053138.00,1,-69.6,5.2,20.2,123,-18.9,-2.3,,,,,,*50
$GNGST,053138.00,48,,,,5.8,8.5,14*62
$GNZDA,053138.00,28,05,2025,00,00*7E
$GNGBS,053138.00,5.8,8.5,13.8,,,,*69
$GNTXT,01,01,01,More than 100 frame errors, UART RX was disabled*70
b0L<C:8 D
!)/ W
D{4!V_:R 
Y
oD[EFI)OUO
XPMSgT1UbU
{[E)$GNRMC,053139.00,A,0419.90008,S,05539.63266,E,1.343,,280525,,,D*76
$GNVTG,,T,,M,1.343,N,2.488,K,D*3B
$GNGNS,053139.00,0419.90008,S,05539.63266,E,DA,15,0.72,22.9,-47.6,,0000*6D
$GNGGA,053139.00,0419.90008,S,05539.63266,E,2,12,0.72,22.9,M,-47.6,M,,0000*46
$GNGSA,A,3,24,05,20,15,12,18,29,25,23,,,,1.42,0.72,1.22*1D
$GNGSA,A,3,79,80,83,69,73,85,,,,,,,1.42,0.72,1.22*14
$GPGSV,5,1,17,05,60,067,21,11,02,028,07,12,56,022,20,13,15,132,*71
$GPGSV,5,2,17,15,32,165,25,18,33,259,22,20,28,041,23,22,03,136,*74
$GPGSV,5,3,17,23,22,206,15,24,47,200,17,25,32,343,15,29,10,324,13*72
$GPGSV,5,4,17,36,52,277,,40,86,351,33,41,58,082,,49,32,274,*7C
$GPGSV,5,5,17,50,10,089,*4A
$GLGSV,3,1,09,68,16,091,,69,27,142,12,70,05,203,,73,41,335,13*64
$GLGSV,3,2,09,79,22,152,10,80,77,139,29,83,12,359,08,84,26,305,*6D
$GLGSV,3,3,09,85,12,256,30*50
$GNGLL,0419.90008,S,05539.63266,E,053139.00,A,D*62
$GNGRS,053139.00,1,5.0,-2.0,-2.8,-7.0,-13.7,-20.7,36.0,3.8,-2.9,,,*4C
$GNGRS,053139.00,1,3.4,4.5,20.1,3.8,-17.1,-3.6,,,,,,*51
$GNGST,053139.00,3179513,,,,5.9,8.4,14*54
$GNZDA,053139.00,28,05,2025,00,00*7F
$GNGBS,053139.00,5.9,8.4,13.7,,,,*67
$GNTXT,01,01,01,More than 100 frame errors, UART RX was disabled*70
b0L<CJ8 
!)/ W
DI{4"V_:R 
Y
oD[E}FI)OOAPMSg=T1UbU
c_Eg$GNRMC,053140.00,A,0419.90017,S,05539.63255,E,0.210,,280525,,,D*70
$GNVTG,,T,,M,0.210,N,0.389,K,D*39
$GNGNS,053140.00,0419.90017,S,05539.63255,E,DA,15,0.84,23.2,-47.6,,0000*6E
$GNGGA,053140.00,0419.90017,S,05539.63255,E,2,12,0.84,23.2,M,-47.6,M,,0000*45
$GNGSA,A,3,24,05,20,15,12,18,29,25,23,,,,1.69,0.84,1.47*1E
$GNGSA,A,3,79,80,83,69,73,85,,,,,,,1.69,0.84,1.47*17
$GPGSV,5,1,17,05,60,067,23,11,02,028,11,12,56,022,19,13,15,132,*7E
$GPGSV,5,2,17,15,32,165,24,18,33,259,22,20,28,041,23,22,03,136,*75
$GPGSV,5,3,17,23,22,206,14,24,47,200,21,25,32,343,15,29,10,324,15*70
$GPGSV,5,4,17,36,52,277,,40,86,351,34,41,58,082,,49,32,274,*7B
$GPGSV,5,5,17,50,10,089,*4A
$GLGSV,3,1,09,68,16,091,,69,27,142,12,70,05,203,,73,41,335,12*65
$GLGSV,3,2,09,79,22,152,11,80,77,139,29,83,12,359,09,84,26,305,*6D
$GLGSV,3,3,09,85,12,256,30*50
$GNGLL,0419.90017,S,05539.63255,E,053140.00,A,D*62
$GNGRS,053140.00,1,5.1,-2.4,-3.2,-7.7,-10.7,-21.2,36.6,4.9,-3.1,,,*45
$GNGRS,053140.00,1,3.2,1.6,21.1,3.8,-17.8,-1.2,,,,,,*51
$GNGST,053140.00,3434110,,,,6.0,8.3,14*5C
$GNZDA,053140.00,28,05,2025,00,00*71
$GNGBS,053140.00,6.0,8.3,13.7,,,,*64
$GNTXT,01,01,01,More than 100 frame errors, UART RX was disabled*70
b0L<C>
8 +
!)/ W
D>{4"V_:R 
Y
oD[EFI)OOPMS
hIT1URJbU
KcE?$GNRMC,053141.00,A,0419.90010,S,05539.63250,E,0.235,,280525,,,D*74
$GNVTG,,T,,M,0.235,N,0.436,K,D*3D
$GNGNS,053141.00,0419.90010,S,05539.63250,E,DA,15,0.84,23.7,-47.6,,0000*68
$GNGGA,053141.00,0419.90010,S,05539.63250,E,2,12,0.84,23.7,M,-47.6,M,,0000*43
$GNGSA,A,3,24,05,20,15,12,18,29,25,23,,,,1.69,0.84,1.47*1E
$GNGSA,A,3,79,80,83,69,73,85,,,,,,,1.69,0.84,1.47*17
$GPGSV,5,1,17,05,60,067,24,11,02,028,10,12,56,022,21,13,15,132,*73
$GPGSV,5,2,17,15,32,165,24,18,33,259,22,20,28,041,23,22,03,136,*75
$GPGSV,5,3,17,23,22,206,17,24,47,200,29,25,32,343,17,29,10,324,14*78
$GPGSV,5,4,17,36,52,277,,40,86,351,34,41,58,082,,49,32,274,*7B
$GPGSV,5,5,17,50,10,089,*4A
$GLGSV,3,1,09,68,16,091,,69,27,142,17,70,05,203,,73,41,335,13*61
$GLGSV,3,2,09,79,22,152,12,80,77,139,29,83,11,360,10,84,26,305,*6F
$GLGSV,3,3,09,85,12,256,30*50
$GNGLL,0419.90010,S,05539.63250,E,053141.00,A,D*61
$GNGRS,053141.00,1,4.3,-1.9,-2.3,-7.3,-8.5,-24.2,-32.7,4.4,-3.0,,,*57
$GNGRS,053141.00,1,-10.4,3.9,-125,-8.3,-15.2,-4.3,,,,,,*62
$GNGST,053141.00,57,,,,6.0,8.3,14*6F
$GNZDA,053141.00,28,05,2025,00,00*70
$GNGBS,053141.00,6.0,8.3,13.5,,,,*67
$GNTXT,01,01,01,More than 100 frame errors, UART RX was disabled*70
b0L<Cw8 
!)1t/q Wo
D{4 V_:R 
Y
oD[EFI)OOkPM>S
htT2UT<bU
3gEo$GNRMC,053142.00,A,0419.90025,S,05539.63267,E,0.477,,280525,,,D*75
$GNVTG,,T,,M,0.477,N,0.883,K,D*3F
$GNGNS,053142.00,0419.90025,S,05539.63267,E,DA,15,0.79,23.8,-47.6,,0000*64
$GNGGA,053142.00,0419.90025,S,05539.63267,E,2,12,0.79,23.8,M,-47.6,M,,0000*4F
$GNGSA,A,3,24,05,20,15,12,18,29,25,23,,,,1.47,0.79,1.23*12
$GNGSA,A,3,79,80,83,69,73,85,,,,,,,1.47,0.79,1.23*1B
$GPGSV,5,1,17,05,60,067,23,11,02,028,09,12,56,022,23,13,15,132,*7E
$GPGSV,5,2,17,15,32,165,23,18,33,259,22,20,28,041,22,22,03,136,*73
$GPGSV,5,3,17,23,22,206,17,24,47,200,30,25,32,343,18,29,10,324,11*7A
$GPGSV,5,4,17,36,52,277,,40,86,351,32,41,58,082,,49,32,274,*7D
$GPGSV,5,5,17,50,10,089,*4A
$GLGSV,3,1,09,68,16,091,,69,27,142,12,70,05,203,,73,41,335,14*63
$GLGSV,3,2,09,79,22,152,12,80,77,139,30,83,11,360,10,84,26,306,*64
$GLGSV,3,3,09,85,12,256,31*51
$GNGLL,0419.90025,S,05539.63267,E,053142.00,A,D*60
$GNGRS,053142.00,1,3.7,-0.9,-2.1,-7.5,-5.8,-21.3,35.3,6.2,-4.0,,,*7B
$GNGRS,053142.00,1,3.6,3.2,19.1,3.9,-18.7,-6.8,,,,,,*56
$GNGST,053142.00,207196,,,,6.0,8.3,14*65
$GNZDA,053142.00,28,05,2025,00,00*73
$GNGBS,053142.00,6.0,8.3,13.5,,,,*64
$GNTXT,01,01,01,More than 100 frame errors, UART RX was disabled*70
b0Lh<Ck8 %
!)`#/ Wo
D{4!V_:R 
Y
oD[EFI)OOiPMShzT2UpbhU
kE$GNRMC,053143.00,A,0419.90015,S,05539.63283,E,0.526,,280525,,,D*78
$GNVTG,,T,,M,0.526,N,0.974,K,D*33
$GNGNS,053143.00,0419.90015,S,05539.63283,E,DA,15,0.72,24.3,-47.6,,0000*6B
$GNGGA,053143.00,0419.90015,S,05539.63283,E,2,12,0.72,24.3,M,-47.6,M,,0000*40
$GNGSA,A,3,24,05,20,15,12,18,29,25,23,,,,1.42,0.72,1.22*1D
$GNGSA,A,3,79,80,83,69,73,85,,,,,,,1.42,0.72,1.22*14
$GPGSV,5,1,17,05,60,067,20,11,02,028,12,12,56,022,22,13,15,132,*76
$GPGSV,5,2,17,15,32,165,25,18,33,259,22,20,28,041,21,22,03,136,*76
$GPGSV,5,3,17,23,22,206,15,24,47,200,35,25,32,343,20,29,10,324,13*74
$GPGSV,5,4,17,36,52,277,,40,86,351,33,41,58,082,,49,32,274,*7C
$GPGSV,5,5,17,50,10,089,*4A
$GLGSV,3,1,09,68,16,091,,69,27,142,15,70,05,203,,73,41,335,13*63
$GLGSV,3,2,09,79,22,152,20,80,77,139,30,83,11,360,09,84,26,306,*6D
$GLGSV,3,3,09,85,12,256,30*50
$GNGLL,0419.90015,S,05539.63283,E,053143.00,A,D*68
$GNGRS,053143.00,1,1.5,-1.5,-1.6,-7.3,-5.4,-18.6,35.6,6.2,-5.4,,,*76
$GNGRS,053143.00,1,3.6,4.5,19.1,3.8,-15.6,-11.5,,,,,,*61
$GNGST,053143.00,3185484,,,,5.9,8.2,13*54
$GNZDA,053143.00,28,05,2025,00,00*72
$GNGBS,053143.00,5.9,8.2,13.4,,,,*6F
$GNTXT,01,01,01,More than 100 frame errors, UART RX was disabled*70
b0LP<CP8 
!) / W
Dy{4V_:R 
Y
oD[EGFI)OUOPMShT2UXbPU
oE?$GNRMC,053144.00,A,0419.89993,S,05539.63257,E,0.663,,280525,,,D*7B
$GNVTG,,T,,M,0.663,N,1.229,K,D*33
$GNGNS,053144.00,0419.89993,S,05539.63257,E,DA,14,0.85,25.4,-47.6,,0000*65
$GNGGA,053144.00,0419.89993,S,05539.63257,E,2,12,0.85,25.4,M,-47.6,M,,0000*4F
$GNGSA,A,3,24,05,20,15,12,18,29,25,23,,,,1.56,0.85,1.31*12
$GNGSA,A,3,80,83,69,73,85,,,,,,,,1.56,0.85,1.31*15
$GPGSV,5,1,17,05,60,067,21,11,02,028,11,12,56,022,22,13,15,132,*74
$GPGSV,5,2,17,15,32,165,25,18,33,259,20,20,28,041,22,22,03,136,*77
$GPGSV,5,3,17,23,22,206,13,24,47,200,32,25,32,343,19,29,10,324,11*7D
$GPGSV,5,4,17,36,52,277,,40,86,351,31,41,58,082,,49,32,274,*7E
$GPGSV,5,5,17,50,10,089,*4A
$GLGSV,3,1,09,68,16,091,,69,27,142,13,70,05,203,,73,41,335,11*67
$GLGSV,3,2,09,79,22,152,,80,77,139,29,83,11,360,11,84,26,306,*6E
$GLGSV,3,3,09,85,12,256,28*59
$GNGLL,0419.89993,S,05539.63257,E,053144.00,A,D*69
$GNGRS,053144.00,1,0.0,-0.5,-3.3,-8.3,-3.1,-20.5,-42.3,6.9,-3.6,,,*50
$GNGRS,053144.00,1,-0.6,17.3,-1.8,-17.1,-13.8,,,,,,,*4E
$GNGST,053144.00,62,,,,5.9,8.2,13*60
$GNZDA,053144.00,28,05,2025,00,00*75
$GNGBS,053144.00,5.9,8.2,13.4,,,,*68
$GNTXT,01,01,01,More than 100 frame errors, UART RX was disabled*70
b0L8<C
T8 L
!) / W
D{4V_:R 
Y
oD[EFI)OOPMShAT2UXb8U
rE$GNRMC,053145.00,A,0419.89969,S,05539.63263,E,0.399,,280525,,,D*78
$GNVTG,,T,,M,0.399,N,0.738,K,D*37
$GNGNS,053145.00,0419.89969,S,05539.63263,E,DA,13,0.81,25.4,-47.6,,0000*65
$GNGGA,053145.00,0419.89969,S,05539.63263,E,2,12,0.81,25.4,M,-47.6,M,,0000*48
$GNGSA,A,3,24,05,20,15,12,18,29,25,23,,,,1.55,0.81,1.32*16
$GNGSA,A,3,80,83,69,85,,,,,,,,,1.55,0.81,1.32*15
$GPGSV,5,1,17,05,60,067,21,11,02,028,10,12,56,022,21,13,15,132,*76
$GPGSV,5,2,17,15,32,165,25,18,33,259,18,20,28,041,21,22,03,136,*7F
$GPGSV,5,3,17,23,22,206,14,24,47,200,32,25,32,343,18,29,10,324,12*78
$GPGSV,5,4,17,36,52,277,,40,86,351,31,41,58,082,27,49,32,274,*7B
$GPGSV,5,5,17,50,10,089,*4A
$GLGSV,3,1,09,68,16,091,,69,27,142,12,70,05,203,,73,41,335,08*6E
$GLGSV,3,2,09,79,22,152,,80,77,139,28,83,11,360,13,84,26,306,*6D
$GLGSV,3,3,09,85,12,256,27*56
$GNGLL,0419.89969,S,05539.63263,E,053145.00,A,D*6A
$GNGRS,053145.00,1,-3.8,1.7,-4.8,-9.5,-3.6,-18.0,34.7,7.6,-3.5,,,*7E
$GNGRS,053145.00,1,-3.7,18.6,4.1,-11.9,,,,,,,,*51
$GNGST,053145.00,79920,,,,5.8,8.2,13*51
$GNZDA,053145.00,28,05,2025,00,00*74
$GNGBS,053145.00,5.8,8.2,13.4,,,,*68
$GNTXT,01,01,01,More than 100 frame errors, UART RX was disabled*70
b0L <C86 a
!)#/| W
D{4!V_:R 
Y
oD[EFI)OOPMShT2U3 b U
vEv$GNRMC,053146.00,A,0419.89967,S,05539.63249,E,0.065,,280525,,,D*7D
$GNVTG,,T,,M,0.065,N,0.121,K,D*39
$GNGNS,053146.00,0419.89967,S,05539.63249,E,DA,11,0.94,26.0,-47.6,,0000*61
$GNGGA,053146.00,0419.89967,S,05539.63249,E,2,11,0.94,26.0,M,-47.6,M,,0000*4D
$GNGSA,A,3,24,05,20,15,12,29,25,,,,,,1.66,0.94,1.37*1F
$GNGSA,A,3,80,83,69,85,,,,,,,,,1.66,0.94,1.37*14
$GPGSV,5,1,17,05,60,067,21,11,02,028,09,12,56,022,21,13,15,132,*7E
$GPGSV,5,2,17,15,32,165,25,18,33,259,13,20,28,041,19,22,03,136,*7F
$GPGSV,5,3,17,23,22,206,11,24,47,200,35,25,32,343,19,29,10,324,14*7D
$GPGSV,5,4,17,36,52,277,,40,86,351,33,41,58,082,,49,32,274,*7C
$GPGSV,5,5,17,50,10,089,*4A
$GLGSV,3,1,09,68,16,091,,69,27,142,14,70,05,203,,73,41,335,06*66
$GLGSV,3,2,09,79,22,152,,80,77,139,28,83,11,360,11,84,26,306,*6F
$GLGSV,3,3,09,85,12,256,27*56
$GNGLL,0419.89967,S,05539.63249,E,053146.00,A,D*6F
$GNGRS,053146.00,1,1.2,1.6,-5.2,-9.3,-2.0,35.3,9.9,,,,,*68
$GNGRS,053146.00,1,-0.5,19.2,3.9,-10.7,,,,,,,,*56
$GNGST,053146.00,127713,,,,5.8,8.2,13*66
$GNZDA,053146.00,28,05,2025,00,00*77
$GNGBS,053146.00,5.8,8.2,13.4,,,,*6B
$GNTXT,01,01,01,More than 100 frame errors, UART RX was disabled*70
b0L<C-8 
!)/ W

D;{4V_:R 
Y
oD[EFI)O!OPM3ShT2Uz,bU
zENt$GNRMC,053147.00,A,0419.89982,S,05539.63240,E,0.505,,280525,,,D*7D
$GNVTG,,T,,M,0.505,N,0.936,K,D*34
$GNGNS,053147.00,0419.89982,S,05539.63240,E,DA,13,0.90,26.7,-47.6,,0000*63
$GNGGA,053147.00,0419.89982,S,05539.63240,E,2,12,0.90,26.7,M,-47.6,M,,0000*4E
$GNGSA,A,3,24,05,20,15,12,29,25,23,,,,,1.63,0.90,1.35*1D
$GNGSA,A,3,80,83,69,73,85,,,,,,,,1.63,0.90,1.35*13
$GPGSV,5,1,17,05,60,067,21,11,02,028,09,12,56,022,21,13,15,132,*7E
$GPGSV,5,2,17,15,32,165,26,18,33,259,11,20,28,041,19,22,03,136,*7E
$GPGSV,5,3,17,23,22,206,09,24,47,200,31,25,32,343,18,29,10,324,10*75
$GPGSV,5,4,17,36,52,277,,40,86,351,31,41,58,082,,49,32,274,*7E
$GPGSV,5,5,17,50,10,089,*4A
$GLGSV,3,1,09,68,16,091,,69,27,142,08,70,05,203,,73,41,335,07*6A
$GLGSV,3,2,09,79,22,152,,80,77,139,27,83,11,360,07,84,26,306,*67
$GLGSV,3,3,09,85,12,256,26*57
$GNGLL,0419.89982,S,05539.63240,E,053147.00,A,D*6C
$GNGRS,053147.00,1,4.0,1.5,-4.9,-8.2,-2.8,-19.9,7.9,7.1,,,,*60
$GNGRS,053147.00,1,0.5,-6.2,10.2,-38.1,-15.6,,,,,,,*6D
$GNGST,053147.00,68,,,,5.8,8.2,13*68
$GNZDA,053147.00,28,05,2025,00,00*76
$GNGBS,053147.00,5.8,8.2,13.4,18,,1.0,75.3*53
$GNTXT,01,01,01,More than 100 frame errors, UART RX was disabled*70
b0L<C8 
!)+/A W
Dt{4V_:R 
Y
oD[EFI)OOPMShCT2U@bU
~E%$GNRMC,053148.00,A,0419.89982,S,05539.63223,E,0.273,,280525,,,D*71
$GNVTG,,T,,M,0.273,N,0.506,K,D*3D
$GNGNS,053148.00,0419.89982,S,05539.63223,E,DA,13,0.85,27.3,-47.6,,0000*68
$GNGGA,053148.00,0419.89982,S,05539.63223,E,2,12,0.85,27.3,M,-47.6,M,,0000*45
$GNGSA,A,3,24,05,20,15,12,29,25,23,,,,,1.56,0.85,1.31*1B
$GNGSA,A,3,80,83,69,73,85,,,,,,,,1.56,0.85,1.31*15
$GPGSV,5,1,17,05,60,067,20,11,02,028,08,12,56,022,20,13,15,132,*7F
$GPGSV,5,2,17,15,32,165,25,18,33,259,08,20,28,041,17,22,03,136,*7B
$GPGSV,5,3,17,23,22,206,07,24,47,200,30,25,32,343,19,29,10,324,14*7F
$GPGSV,5,4,17,36,52,277,,40,86,351,29,41,58,082,,49,32,274,*77
$GPGSV,5,5,17,50,10,089,*4A
$GLGSV,3,1,09,68,16,091,,69,27,142,12,70,05,203,,73,41,335,11*66
$GLGSV,3,2,09,79,22,152,,80,77,139,26,83,11,360,09,84,26,306,*68
$GLGSV,3,3,09,85,12,256,26*57
$GNGLL,0419.89982,S,05539.63223,E,053148.00,A,D*66
$GNGRS,053148.00,1,0.7,1.3,-7.2,-8.5,-2.3,34.4,7.9,7.5,,,,*45
$GNGRS,053148.00,1,-3.1,18.6,4.7,-38.7,-7.0,,,,,,,*5D
$GNGST,053148.00,3437114,,,,5.8,8.3,13*5F
$GNZDA,053148.00,28,05,2025,00,00*79
$GNGBS,053148.00,5.8,8.3,13.5,,,,*65
$GNTXT,01,01,01,More than 100 frame errors, UART RX was disabled*70
b0L#<CgN8 

!)/ W
D{4V_:R 
Y
oD[EFI
)OzOPMShT2UGb#U
E5$GNRMC,053149.00,A,0419.89972,S,05539.63223,E,0.227,,280525,,,D*7E
$GNVTG,,T,,M,0.227,N,0.421,K,D*38
$GNGNS,053149.00,0419.89972,S,05539.63223,E,DA,14,0.77,27.2,-47.6,,0000*6D
$GNGGA,053149.00,0419.89972,S,05539.63223,E,2,12,0.77,27.2,M,-47.6,M,,0000*47
$GNGSA,A,3,24,05,20,15,12,18,29,25,23,,,,1.50,0.77,1.29*10
$GNGSA,A,3,80,83,69,73,85,,,,,,,,1.50,0.77,1.29*17
$GPGSV,5,1,17,05,60,067,19,11,02,028,08,12,56,022,20,13,15,132,*75
$GPGSV,5,2,17,15,32,165,23,18,33,259,10,20,28,041,17,22,03,136,*74
$GPGSV,5,3,17,23,22,206,08,24,47,200,30,25,32,343,19,29,10,324,11*75
$GPGSV,5,4,17,36,52,277,,40,86,351,29,41,58,082,,49,32,274,*77
$GPGSV,5,5,17,50,10,089,*4A
$GLGSV,3,1,09,68,16,091,,69,27,142,14,70,05,203,,73,41,335,10*61
$GLGSV,3,2,09,79,22,152,,80,77,139,26,83,11,360,09,84,26,306,*68
$GLGSV,3,3,09,85,12,256,26*57
$GNGLL,0419.89972,S,05539.63223,E,053149.00,A,D*68
$GNGRS,053149.00,1,2.4,1.0,-7.7,-8.8,-3.2,6.6,33.3,7.6,7.8,,,*62
$GNGRS,053149.00,1,-5.0,17.5,4.9,-39.7,-5.5,,,,,,,*5F
$GNGST,053149.00,3304369,,,,5.9,8.5,14*51
$GNZDA,053149.00,28,05,2025,00,00*78
$GNGBS,053149.00,5.9,8.5,13.6,,,,*60
$GNTXT,01,01,01,More than 100 frame errors, UART RX was disabled*70
b0L'<CJ8; 
!)/s W
D6{4V_:R 
Y
oD[EzFI
)O OPMShT2U&b'U
sE$GNRMC,053150.00,A,0419.89980,S,05539.63183,E,0.635,,280525,,,D*75
$GNVTG,,T,,M,0.635,N,1.176,K,D*39
$GNGNS,053150.00,0419.89980,S,05539.63183,E,DA,13,0.82,28.0,-47.6,,0000*61
$GNGGA,053150.00,0419.89980,S,05539.63183,E,2,12,0.82,28.0,M,-47.6,M,,0000*4C
$GNGSA,A,3,24,05,20,15,12,18,29,25,23,,,,1.60,0.82,1.38*19
$GNGSA,A,3,80,69,73,85,,,,,,,,,1.60,0.82,1.38*15
$GPGSV,5,1,17,05,60,067,17,11,02,028,06,12,56,022,19,13,15,132,*7F
$GPGSV,5,2,17,15,32,165,23,18,33,259,16,20,28,041,18,22,03,136,*7D
$GPGSV,5,3,17,23,22,206,08,24,47,200,29,25,32,343,19,29,10,324,13*7F
$GPGSV,5,4,17,36,52,277,,40,86,351,28,41,58,082,,49,32,274,*76
$GPGSV,5,5,17,50,10,089,*4A
$GLGSV,3,1,09,68,16,091,,69,27,142,09,70,05,203,,73,41,335,10*6D
$GLGSV,3,2,09,79,22,152,,80,77,139,26,83,11,360,07,84,26,306,*66
$GLGSV,3,3,09,85,12,256,26*57
$GNGLL,0419.89980,S,05539.63183,E,053150.00,A,D*64
$GNGRS,053150.00,1,6.3,0.2,-5.2,-9.9,-2.0,4.8,0.5,7.1,68.0,,,*62
$GNGRS,053150.00,1,-7.6,8.9,8.0,-5.2,,,,,,,,*5D
$GNGST,053150.00,65,,,,5.9,8.6,14*61
$GNZDA,053150.00,28,05,2025,00,00*70
$GNGBS,053150.00,5.9,8.6,13.7,,,,*6A
$GNTXT,01,01,01,More than 100 frame errors, UART RX was disabled*70
b0L+;BR8F -
!)7/ WB
DM{4V_:R 
Y
oD[EFI)OGOPMgShT2U$b+U
[E$GNRMC,053151.00,A,0419.89964,S,05539.63174,E,0.359,,280525,,,D*79
$GNVTG,,T,,M,0.359,N,0.664,K,D*33
$GNGNS,053151.00,0419.89964,S,05539.63174,E,DA,14,0.77,28.1,-47.6,,0000*6E
$GNGGA,053151.00,0419.89964,S,05539.63174,E,2,12,0.77,28.1,M,-47.6,M,,0000*44
$GNGSA,A,3,24,05,20,15,12,18,29,25,23,,,,1.50,0.77,1.29*10
$GNGSA,A,3,80,83,69,73,85,,,,,,,,1.50,0.77,1.29*17
$GPGSV,5,1,17,05,59,066,19,11,02,028,09,12,56,022,20,13,15,132,*7F
$GPGSV,5,2,17,15,32,165,24,18,33,259,16,20,28,041,19,22,03,136,*7B
$GPGSV,5,3,17,23,22,206,08,24,47,200,30,25,32,343,20,29,10,324,12*7C
$GPGSV,5,4,17,36,52,277,,40,86,351,28,41,58,082,,49,32,274,*76
$GPGSV,5,5,17,50,10,089,*4A
$GLGSV,3,1,09,68,16,091,,69,27,142,08,70,05,203,,73,41,335,13*6F
$GLGSV,3,2,09,79,22,152,,80,77,139,27,83,11,360,11,84,26,306,*60
$GLGSV,3,3,09,85,12,256,28*59
$GNGLL,0419.89964,S,05539.63174,E,053151.00,A,D*67
$GNGRS,053151.00,1,1.8,0.2,-2.8,-9.8,-1.9,7.3,34.1,5.8,13.3,,,*56
$GNGRS,053151.00,1,-1.5,18.0,4.3,-4.4,-2.5,,,,,,,*6D
$GNGST,053151.00,4667246,,,,5.9,8.6,14*50
$GNZDA,053151.00,28,05,2025,00,00*71
$GNGBS,053151.00,5.9,8.6,13.7,,,,*6B
$GNTXT,01,01,01,More than 100 frame errors, UART RX was disabled*70
b0L/;B,
8$ 
!)
U/ W]
D!{4V_:R 
Y
oD[E
FI)OOPMShT2U!b/U
CEm$GNRMC,053152.00,A,0419.89943,S,05539.63169,E,0.524,,280525,,,D*7F
$GNVTG,,T,,M,0.524,N,0.970,K,D*35
$GNGNS,053152.00,0419.89943,S,05539.63169,E,DA,14,0.77,28.5,-47.6,,0000*60
$GNGGA,053152.00,0419.89943,S,05539.63169,E,2,12,0.77,28.5,M,-47.6,M,,0000*4A
$GNGSA,A,3,24,05,20,15,12,18,29,25,23,,,,1.50,0.77,1.29*10
$GNGSA,A,3,80,83,69,73,85,,,,,,,,1.50,0.77,1.29*17
$GPGSV,5,1,17,05,59,066,19,11,02,028,10,12,56,022,21,13,15,132,*76
$GPGSV,5,2,17,15,32,165,25,18,33,259,11,20,28,041,21,22,03,136,*76
$GPGSV,5,3,17,23,22,206,10,24,47,200,31,25,32,343,22,29,10,324,09*7C
$GPGSV,5,4,17,36,52,277,,40,86,351,29,41,58,082,,49,32,274,*77
$GPGSV,5,5,17,50,10,089,*4A
$GLGSV,3,1,09,68,16,091,,69,27,142,10,70,05,203,,73,41,335,13*66
$GLGSV,3,2,09,79,22,152,,80,77,139,27,83,11,360,08,84,26,306,*68
$GLGSV,3,3,09,85,12,256,28*59
$GNGLL,0419.89943,S,05539.63169,E,053152.00,A,D*6D
$GNGRS,053152.00,1,2.3,3.0,-3.3,-8.4,-2.2,7.4,33.6,3.5,13.6,,,*5A
$GNGRS,053152.00,1,-0.6,17.3,4.3,-4.9,-4.8,,,,,,,*66
$GNGST,053152.00,4668924,,,,5.9,8.7,14*52
$GNZDA,053152.00,28,05,2025,00,00*72
$GNGBS,053152.00,5.9,8.7,13.8,,,,*66
$GNTXT,01,01,01,More than 100 frame errors, UART RX was disabled*70
b0Lx3;B([8l 
!)~ / W
D{4V_:R 
Y
oD[EFI)OwOP!MDShgT2U\bx3U
+E]$GNRMC,053153.00,A,0419.89941,S,05539.63162,E,0.200,,280525,,,D*76
$GNVTG,,T,,M,0.200,N,0.369,K,D*36
$GNGNS,053153.00,0419.89941,S,05539.63162,E,DA,14,0.90,28.6,-47.6,,0000*62
$GNGGA,053153.00,0419.89941,S,05539.63162,E,2,12,0.90,28.6,M,-47.6,M,,0000*48
$GNGSA,A,3,24,05,20,15,12,18,29,25,23,,,,1.80,0.90,1.56*1C
$GNGSA,A,3,80,83,69,73,85,,,,,,,,1.80,0.90,1.56*1B
$GPGSV,5,1,17,05,59,066,21,11,02,028,12,12,56,022,22,13,15,132,*7C
$GPGSV,5,2,17,15,32,165,27,18,33,259,08,20,28,041,22,22,03,136,*7F
$GPGSV,5,3,17,23,22,206,09,24,47,200,32,25,32,343,23,29,10,324,13*7D
$GPGSV,5,4,17,36,52,277,,40,86,351,31,41,58,082,,49,32,274,*7E
$GPGSV,5,5,17,50,10,089,*4A
$GLGSV,3,1,09,68,16,091,,69,27,142,11,70,05,203,,73,41,335,14*60
$GLGSV,3,2,09,79,22,152,,80,77,139,33,83,11,360,11,84,26,306,*65
$GLGSV,3,3,09,85,12,256,30*50
$GNGLL,0419.89941,S,05539.63162,E,053153.00,A,D*65
$GNGRS,053153.00,1,2.6,3.0,-5.3,-8.6,-1.5,-139,-21.3,1.5,14.1,,,*4C
$GNGRS,053153.00,1,-4.4,-68.1,8.0,-6.5,-3.7,,,,,,,*4F
$GNGST,053153.00,58,,,,5.8,8.6,14*6D
$GNZDA,053153.00,28,05,2025,00,00*73
$GNGBS,053153.00,5.8,8.6,13.7,,,,*68
$GNTXT,01,01,01,More than 100 frame errors, UART RX was disabled*70
b0L`7;B
8 
!)/Z W8
D{{4V_:R 
Y
oD[EFI)OUOPMShNT2U[b`7U
E5=$GNRMC,053154.00,A,0419.89928,S,05539.63152,E,0.284,,280525,,,D*71
$GNVTG,,T,,M,0.284,N,0.526,K,D*37
$GNGNS,053154.00,0419.89928,S,05539.63152,E,DA,14,0.77,29.1,-47.6,,0000*66
$GNGGA,053154.00,0419.89928,S,05539.63152,E,2,12,0.77,29.1,M,-47.6,M,,0000*4C
$GNGSA,A,3,24,05,20,15,12,18,29,25,23,,,,1.50,0.77,1.29*10
$GNGSA,A,3,80,83,69,73,85,,,,,,,,1.50,0.77,1.29*17
$GPGSV,5,1,17,05,59,066,22,11,02,028,10,12,56,022,21,13,15,132,*7E
$GPGSV,5,2,17,15,32,165,26,18,33,259,12,20,28,041,22,22,03,136,*75
$GPGSV,5,3,17,23,22,206,11,24,47,200,31,25,32,343,23,29,10,324,15*71
$GPGSV,5,4,17,36,52,277,,40,86,351,29,41,58,082,,49,32,274,*77
$GPGSV,5,5,17,50,10,089,*4A
$GLGSV,3,1,09,68,16,091,,69,27,142,11,70,05,203,,73,41,335,12*66
$GLGSV,3,2,09,79,22,152,,80,77,139,27,83,11,360,09,84,26,306,*69
$GLGSV,3,3,09,85,12,256,28*59
$GNGLL,0419.89928,S,05539.63152,E,053154.00,A,D*6E
$GNGRS,053154.00,1,3.5,4.0,-5.2,-8.2,-0.8,7.1,34.5,0.6,13.0,,,*52
$GNGRS,053154.00,1,-0.1,18.7,4.4,-4.3,0.1,,,,,,,*41
$GNGST,053154.00,448553,,,,5.8,8.5,14*6F
$GNZDA,053154.00,28,05,2025,00,00*74
$GNGBS,053154.00,5.8,8.5,13.7,,,,*6C
$GNTXT,01,01,01,More than 100 frame errors, UART RX was disabled*70
b0LH;;BY
8 
!)"/6 W:
Ds{4V_:R 
Y
oD[EFI)O[OPMShT2U.bH;U
E$GNRMC,053155.00,A,0419.89936,S,05539.63138,E,0.047,,280525,,,D*7E
$GNVTG,,T,,M,0.047,N,0.087,K,D*34
$GNGNS,053155.00,0419.89936,S,05539.63138,E,DA,14,0.77,29.6,-47.6,,0000*63
$GNGGA,053155.00,0419.89936,S,05539.63138,E,2,12,0.77,29.6,M,-47.6,M,,0000*49
$GNGSA,A,3,24,05,20,15,12,18,29,25,23,,,,1.50,0.77,1.29*10
$GNGSA,A,3,80,83,69,73,85,,,,,,,,1.50,0.77,1.29*17
$GPGSV,5,1,17,05,59,066,22,11,02,028,10,12,56,022,22,13,15,132,*7D
$GPGSV,5,2,17,15,32,165,25,18,33,259,12,20,28,041,21,22,03,136,*75
$GPGSV,5,3,17,23,22,206,12,24,47,200,34,25,32,343,23,29,10,324,15*77
$GPGSV,5,4,17,36,52,277,,40,86,351,31,41,58,082,,49,32,274,*7E
$GPGSV,5,5,17,50,10,089,*4A
$GLGSV,3,1,09,68,16,091,,69,27,142,15,70,05,203,,73,41,335,09*68
$GLGSV,3,2,09,79,22,152,,80,77,139,27,83,11,360,08,84,26,306,*68
$GLGSV,3,3,09,85,12,256,28*59
$GNGLL,0419.89936,S,05539.63138,E,053155.00,A,D*6C
$GNGRS,053155.00,1,5.7,6.0,-5.9,-8.1,-0.7,6.5,34.4,0.6,12.5,,,*52
$GNGRS,053155.00,1,0.1,19.3,4.3,-4.2,-2.1,,,,,,,*41
$GNGST,053155.00,475337,,,,5.7,8.5,14*6B
$GNZDA,053155.00,28,05,2025,00,00*75
$GNGBS,053155.00,5.7,8.5,13.7,,,,*62
$GNTXT,01,01,01,More than 100 frame errors, UART RX was disabled*70
b0L0?;B7'8 
!)/ W
D{4V_:R 
Y
oD[EFI
)OOPMSh2T2UEb0?U
E
$GNRMC,053156.00,A,0419.89935,S,05539.63135,E,0.091,,280525,,,D*78
$GNVTG,,T,,M,0.091,N,0.169,K,D*3E
$GNGNS,053156.00,0419.89935,S,05539.63135,E,DA,14,0.82,29.9,-47.6,,0000*6B
$GNGGA,053156.00,0419.89935,S,05539.63135,E,2,12,0.82,29.9,M,-47.6,M,,0000*41
$GNGSA,A,3,24,05,20,15,12,18,29,25,23,,,,1.74,0.82,1.54*16
$GNGSA,A,3,80,83,69,73,85,,,,,,,,1.74,0.82,1.54*11
$GPGSV,5,1,17,05,59,066,22,11,02,028,08,12,56,022,19,13,15,132,*7C
