b0X8;@9!)
!(.."W
F{4V_:R 
Y
oDYEFI+NJOOPKS
T4{Ub8U
HxD$GNRMC,053529.00,A,0419.89462,S,05539.63425,E,0.955,,280525,,,A*7B
$GNVTG,,T,,M,0.955,N,1.768,K,A*3C
$GNGNS,053529.00,0419.89462,S,05539.63425,E,AA,15,0.91,29.1,-47.6,,*62
$GNGGA,053529.00,0419.89462,S,05539.63425,E,1,12,0.91,29.1,M,-47.6,M,,*4F
$GNGSA,A,3,24,05,20,15,12,18,29,25,23,,,,1.74,0.91,1.49*18
$GNGSA,A,3,80,83,84,69,73,85,,,,,,,1.74,0.91,1.49*13
$GPGSV,5,1,17,05,59,064,21,11,01,029,,12,57,024,16,13,15,130,*7D
$GPGSV,5,2,17,15,33,163,23,18,33,261,19,20,27,040,15,22,02,137,*7D
$GPGSV,5,3,17,23,23,206,20,24,46,198,17,25,34,343,21,29,10,326,11*77
$GPGSV,5,4,17,36,52,277,,40,86,351,,41,58,082,,49,32,274,*7C
$GPGSV,5,5,17,50,10,089,*4A
$GLGSV,3,1,10,68,16,089,,69,27,140,12,70,06,201,,73,43,334,31*65
$GLGSV,3,2,10,74,00,335,,79,20,153,,80,75,145,17,83,10,001,14*6A
$GLGSV,3,3,10,84,25,308,12,85,12,258,15*62
$GNGLL,0419.89462,S,05539.63425,E,053529.00,A,A*63
$GNGRS,053529.00,1,-13.0,5.1,5.6,0.4,-7.5,7.2,2.5,4.8,-14.1,,,*52
$GNGRS,053529.00,1,1.3,20.3,29.4,50.3,1.4,-13.1,,,,,,*79
$GNGST,053529.00,61,,,,4.7,7.4,16*6F
$GNZDA,053529.00,28,05,2025,00,00*7A
$GNGBS,053529.00,4.7,7.4,16.4,,,,*64
$GNTXT,01,01,01,More than 100 frame errors, UART RX was disabled*70
b0X ;@9!
![(+."W
F
{4V_:R 
Y
oDYETFI+NNJOOPKS
T4U;.b U
HP$GNRMC,053530.00,A,0419.89471,S,05539.63455,E,0.732,,280525,,,A*79
$GNVTG,,T,,M,0.732,N,1.355,K,A*39
$GNGNS,053530.00,0419.89471,S,05539.63455,E,AA,14,0.81,29.4,-47.6,,*6A
$GNGGA,053530.00,0419.89471,S,05539.63455,E,1,12,0.81,29.4,M,-47.6,M,,*46
$GNGSA,A,3,24,05,20,15,12,18,29,25,23,,,,1.84,0.81,1.66*1B
$GNGSA,A,3,80,83,84,69,73,,,,,,,,1.84,0.81,1.66*1D
$GPGSV,5,1,17,05,59,064,22,11,01,029,,12,57,024,16,13,15,130,*7E
$GPGSV,5,2,17,15,33,163,23,18,33,261,17,20,27,040,15,22,02,137,*73
$GPGSV,5,3,17,23,23,206,19,24,46,198,18,25,34,343,20,29,10,326,11*73
$GPGSV,5,4,17,36,52,277,,40,86,351,,41,58,082,,49,32,274,*7C
$GPGSV,5,5,17,50,10,089,*4A
$GLGSV,3,1,10,68,16,089,,69,27,140,09,70,06,201,,73,43,334,30*6E
$GLGSV,3,2,10,74,00,335,,79,20,153,,80,75,145,14,83,10,001,08*64
$GLGSV,3,3,10,84,25,308,07,85,12,258,06*64
$GNGLL,0419.89471,S,05539.63455,E,053530.00,A,A*6E
$GNGRS,053530.00,1,-16.0,4.9,5.6,-1.0,-13.4,6.0,25.8,4.7,-14.0,,,*7F
$GNGRS,053530.00,1,2.5,20.6,7.3,3.4,0.8,,,,,,,*46
$GNGST,053530.00,4856426,,,,4.9,7.7,17*53
$GNZDA,053530.00,28,05,2025,00,00*72
$GNGBS,053530.00,4.9,7.7,17.0,,,,*64
$GNTXT,01,01,01,More than 100 frame errors, UART RX was disabled*70
b0X;@9U!
!o(."W
F{4V_:R 
Y
oDYE
4FI"+NJOOP
KS
T4UbU
H($GNRMC,053531.00,A,0419.89466,S,05539.63482,E,0.624,,280525,,,A*72
$GNVTG,,T,,M,0.624,N,1.155,K,A*3D
$GNGNS,053531.00,0419.89466,S,05539.63482,E,AA,15,0.78,28.9,-47.6,,*6C
$GNGGA,053531.00,0419.89466,S,05539.63482,E,1,12,0.78,28.9,M,-47.6,M,,*41
$GNGSA,A,3,24,05,20,15,12,18,29,25,23,,,,1.71,0.78,1.52*10
$GNGSA,A,3,80,83,84,69,73,85,,,,,,,1.71,0.78,1.52*1B
$GPGSV,5,1,17,05,59,064,23,11,01,029,,12,57,024,16,13,15,130,*7F
$GPGSV,5,2,17,15,33,163,23,18,33,261,18,20,27,040,15,22,02,137,*7C
$GPGSV,5,3,17,23,23,206,16,24,46,198,28,25,34,343,21,29,10,326,13*7C
$GPGSV,5,4,17,36,52,277,,40,86,351,,41,58,082,,49,32,274,*7C
$GPGSV,5,5,17,50,10,089,*4A
$GLGSV,3,1,10,68,16,089,,69,27,140,10,70,06,201,,73,43,334,34*62
$GLGSV,3,2,10,74,00,335,,79,20,153,,80,75,145,10,83,10,001,09*61
$GLGSV,3,3,10,84,25,308,09,85,12,258,13*6E
$GNGLL,0419.89466,S,05539.63482,E,053531.00,A,A*63
$GNGRS,053531.00,1,-12.6,4.1,2.2,-0.7,-6.8,6.2,25.4,4.2,-12.8,,,*4C
$GNGRS,053531.00,1,2.9,20.7,7.1,3.1,-2.4,14.8,,,,,,*7D
$GNGST,053531.00,5714540,,,,4.9,7.9,17*55
$GNZDA,053531.00,28,05,2025,00,00*73
$GNGBS,053531.00,4.9,7.9,17.5,,,,*6E
$GNTXT,01,01,01,More than 100 frame errors, UART RX was disabled*70
b0X;@9!
!(."W
F{4V_:R 
Y
oDYE
FI"+NJOOPKoS
T4UbU
Hm$GNRMC,053532.00,A,0419.89450,S,05539.63503,E,0.585,,280525,,,A*74
$GNVTG,,T,,M,0.585,N,1.084,K,A*38
$GNGNS,053532.00,0419.89450,S,05539.63503,E,AA,15,0.75,29.2,-47.6,,*65
$GNGGA,053532.00,0419.89450,S,05539.63503,E,1,12,0.75,29.2,M,-47.6,M,,*48
$GNGSA,A,3,24,05,20,15,12,18,29,25,23,,,,1.42,0.75,1.21*19
$GNGSA,A,3,80,83,84,69,73,85,,,,,,,1.42,0.75,1.21*12
$GPGSV,5,1,17,05,59,064,22,11,01,029,,12,57,024,14,13,15,130,*7C
$GPGSV,5,2,17,15,33,163,25,18,33,261,19,20,27,040,14,22,02,137,*7A
$GPGSV,5,3,17,23,23,206,16,24,46,198,28,25,34,343,22,29,10,326,16*7A
$GPGSV,5,4,17,36,52,277,,40,86,351,,41,58,082,,49,32,274,*7C
$GPGSV,5,5,17,50,10,089,*4A
$GLGSV,3,1,10,68,16,089,,69,27,140,10,70,06,201,,73,43,334,34*62
$GLGSV,3,2,10,74,00,335,,79,20,153,,80,75,145,08,83,10,001,15*65
$GLGSV,3,3,10,84,25,308,09,85,12,258,11*6C
$GNGLL,0419.89450,S,05539.63503,E,053532.00,A,A*6D
$GNGRS,053532.00,1,-10.8,4.0,2.0,0.0,-6.4,4.1,-2.8,1.5,-13.6,,,*7E
$GNGRS,053532.00,1,3.7,-0.3,39.8,-3.8,-1.0,-10.6,,,,,,*5A
$GNGST,053532.00,71,,,,4.8,8.0,18*6E
$GNZDA,053532.00,28,05,2025,00,00*70
$GNGBS,053532.00,4.8,8.0,17.6,,,,*69
$GNTXT,01,01,01,More than 100 frame errors, UART RX was disabled*70
b0X;@`9!
!(y."W^
F
{4V_:R 
Y
oDYE
FI"+NJOOPKdS
T4U'6bU
H$GNRMC,053533.00,A,0419.89439,S,05539.63507,E,0.054,,280525,,,A*77
$GNVTG,,T,,M,0.054,N,0.099,K,A*3C
$GNGNS,053533.00,0419.89439,S,05539.63507,E,AA,15,0.78,29.5,-47.6,,*65
$GNGGA,053533.00,0419.89439,S,05539.63507,E,1,12,0.78,29.5,M,-47.6,M,,*48
$GNGSA,A,3,24,05,20,15,12,18,29,25,23,,,,1.71,0.78,1.52*10
$GNGSA,A,3,80,83,84,69,73,85,,,,,,,1.71,0.78,1.52*1B
$GPGSV,5,1,17,05,59,064,22,11,01,029,,12,57,024,15,13,15,130,*7D
$GPGSV,5,2,17,15,33,163,27,18,33,261,18,20,27,040,14,22,02,137,*79
$GPGSV,5,3,17,23,23,206,18,24,46,198,28,25,34,343,22,29,10,326,18*7A
$GPGSV,5,4,17,36,52,277,,40,86,351,,41,58,082,,49,32,274,*7C
$GPGSV,5,5,17,50,10,089,*4A
$GLGSV,3,1,10,68,16,089,,69,27,140,10,70,06,201,,73,43,334,34*62
$GLGSV,3,2,10,74,00,335,,79,20,153,,80,75,145,09,83,10,001,13*62
$GLGSV,3,3,10,84,25,308,11,85,12,258,15*61
$GNGLL,0419.89439,S,05539.63507,E,053533.00,A,A*67
$GNGRS,053533.00,1,-8.9,6.1,-1.0,-0.1,-8.1,6.4,25.6,0.9,-11.6,,,*53
$GNGRS,053533.00,1,3.6,20.4,7.3,4.3,-0.8,15.8,,,,,,*7A
$GNGST,053533.00,4667326,,,,4.7,8.0,18*52
$GNZDA,053533.00,28,05,2025,00,00*71
$GNGBS,053533.00,4.7,8.0,17.9,,,,*68
$GNTXT,01,01,01,More than 100 frame errors, UART RX was disabled*70
b0X;@9!
!"(B."W
F{4V_:R 
Y
oDYE
FI#+NJOOPKJS

T4UV_bU
sH=$GNRMC,053534.00,A,0419.89425,S,05539.63534,E,0.561,,280525,,,A*7E
$GNVTG,,T,,M,0.561,N,1.038,K,A*35
$GNGNS,053534.00,0419.89425,S,05539.63534,E,AA,15,0.78,29.8,-47.6,,*62
$GNGGA,053534.00,0419.89425,S,05539.63534,E,1,12,0.78,29.8,M,-47.6,M,,*4F
$GNGSA,A,3,24,05,20,15,12,18,29,25,23,,,,1.71,0.78,1.52*10
$GNGSA,A,3,80,83,84,69,73,85,,,,,,,1.71,0.78,1.52*1B
$GPGSV,5,1,17,05,59,064,23,11,01,029,,12,57,024,16,13,15,130,*7F
$GPGSV,5,2,17,15,33,163,27,18,33,261,19,20,27,040,16,22,02,137,*7A
$GPGSV,5,3,17,23,23,206,21,24,46,198,30,25,34,343,23,29,10,326,12*72
$GPGSV,5,4,17,36,52,277,,40,86,351,,41,58,082,,49,32,274,*7C
$GPGSV,5,5,17,50,10,089,*4A
$GLGSV,3,1,10,68,16,089,,69,27,140,10,70,06,201,,73,43,334,35*63
$GLGSV,3,2,10,74,00,335,,79,20,153,,80,75,145,12,83,10,001,10*6B
$GLGSV,3,3,10,84,25,308,11,85,12,258,14*60
$GNGLL,0419.89425,S,05539.63534,E,053534.00,A,A*6D
$GNGRS,053534.00,1,-7.7,5.0,0.7,-0.1,-5.9,5.5,25.6,-1.3,-10.1,,,*5B
$GNGRS,053534.00,1,3.3,20.2,7.4,4.3,-1.0,16.2,,,,,,*79
$GNGST,053534.00,4668179,,,,4.6,8.0,18*53
$GNZDA,053534.00,28,05,2025,00,00*76
$GNGBS,053534.00,4.6,8.0,18.2,,,,*6A
$GNTXT,01,01,01,More than 100 frame errors, UART RX was disabled*70
b0X;@+9!D
!(6.E"W
F{4V_:R 
Y
oDYEFI$,NJOOPKS
dT4UbU
[H$GNRMC,053535.00,A,0419.89423,S,05539.63533,E,0.105,,280525,,,A*78
$GNVTG,,T,,M,0.105,N,0.195,K,A*34
$GNGNS,053535.00,0419.89423,S,05539.63533,E,AA,15,0.89,29.4,-47.6,,*60
$GNGGA,053535.00,0419.89423,S,05539.63533,E,1,12,0.89,29.4,M,-47.6,M,,*4D
$GNGSA,A,3,24,05,20,15,12,18,29,25,23,,,,1.88,0.89,1.66*1F
$GNGSA,A,3,80,83,84,69,73,85,,,,,,,1.88,0.89,1.66*14
$GPGSV,5,1,17,05,59,064,23,11,01,029,,12,57,024,18,13,15,130,*71
$GPGSV,5,2,17,15,33,163,28,18,33,261,22,20,27,040,16,22,02,137,*7D
$GPGSV,5,3,17,23,23,206,23,24,46,198,31,25,34,343,25,29,10,326,13*76
$GPGSV,5,4,17,36,52,277,,40,86,351,,41,58,082,,49,32,274,*7C
$GPGSV,5,5,17,50,10,089,*4A
$GLGSV,3,1,10,68,16,089,,69,27,140,15,70,06,201,,73,44,334,36*62
$GLGSV,3,2,10,74,00,335,,79,20,153,,80,75,145,18,83,10,001,13*62
$GLGSV,3,3,10,84,25,308,12,85,12,258,15*62
$GNGLL,0419.89423,S,05539.63533,E,053535.00,A,A*6D
$GNGRS,053535.00,1,-1.9,5.6,-0.1,0.7,-5.9,4.1,24.9,0.1,-7.1,,,*47
$GNGRS,053535.00,1,11.7,31.7,9.0,-29.4,-0.5,14.7,,,,,,*56
$GNGST,053535.00,59,,,,4.5,7.9,18*68
$GNZDA,053535.00,28,05,2025,00,00*77
$GNGBS,053535.00,4.5,7.9,18.1,,,,*6D
$GNTXT,01,01,01,More than 100 frame errors, UART RX was disabled*70
b0X;?&9/!y
!(&D."W
F{4V_:R 
Y
oDYEFI$,NJOOPKS
T4U]zbU
CH_$GNRMC,053536.00,A,0419.89423,S,05539.63541,E,0.425,,280525,,,A*79
$GNVTG,,T,,M,0.425,N,0.788,K,A*39
$GNGNS,053536.00,0419.89423,S,05539.63541,E,AA,15,0.78,29.1,-47.6,,*6D
$GNGGA,053536.00,0419.89423,S,05539.63541,E,1,12,0.78,29.1,M,-47.6,M,,*40
$GNGSA,A,3,24,05,20,15,12,18,29,25,23,,,,1.71,0.78,1.52*10
$GNGSA,A,3,80,83,84,69,73,85,,,,,,,1.71,0.78,1.52*1B
$GPGSV,5,1,17,05,59,063,22,11,01,029,,12,57,024,20,13,15,130,*7C
$GPGSV,5,2,17,15,33,163,27,18,33,261,23,20,27,040,18,22,02,137,*7D
$GPGSV,5,3,17,23,23,206,23,24,46,198,30,25,34,343,23,29,10,326,17*75
$GPGSV,5,4,17,36,52,277,,40,86,351,,41,58,082,,49,32,274,*7C
$GPGSV,5,5,17,50,10,089,*4A
$GLGSV,3,1,10,68,16,089,,69,27,140,15,70,06,201,,73,44,334,36*62
$GLGSV,3,2,10,74,00,335,,79,20,153,,80,75,145,18,83,10,001,15*64
$GLGSV,3,3,10,84,25,308,13,85,12,258,16*60
$GNGLL,0419.89423,S,05539.63541,E,053536.00,A,A*6B
$GNGRS,053536.00,1,0.0,5.5,0.4,1.2,-7.2,4.2,22.0,0.1,-4.4,,,*4D
$GNGRS,053536.00,1,-6.3,20.1,7.3,3.9,-1.2,12.3,,,,,,*5D
$GNGST,053536.00,3299352,,,,4.4,7.8,18*52
$GNZDA,053536.00,28,05,2025,00,00*74
$GNGBS,053536.00,4.4,7.8,18.2,,,,*6D
$GNTXT,01,01,01,More than 100 frame errors, UART RX was disabled*70
b0Xx;?o9!
!(."W
F'{4V_:R 
Y
oDYEXFI$,NJOOPKS
T4U>bxU
+H7u$GNRMC,053537.00,A,0419.89430,S,05539.63526,E,0.546,,280525,,,A*7F
$GNVTG,,T,,M,0.546,N,1.011,K,A*3B
$GNGNS,053537.00,0419.89430,S,05539.63526,E,AA,15,0.72,27.3,-47.6,,*69
$GNGGA,053537.00,0419.89430,S,05539.63526,E,1,12,0.72,27.3,M,-47.6,M,,*44
$GNGSA,A,3,24,05,20,15,12,18,29,25,23,,,,1.41,0.72,1.21*1D
$GNGSA,A,3,80,83,84,69,73,85,,,,,,,1.41,0.72,1.21*16
$GPGSV,5,1,17,05,59,063,23,11,01,029,,12,57,024,20,13,15,130,*7D
$GPGSV,5,2,17,15,33,163,28,18,33,261,24,20,27,040,20,22,02,137,*7E
$GPGSV,5,3,17,23,23,206,23,24,46,198,30,25,34,343,21,29,10,326,20*73
$GPGSV,5,4,17,36,52,277,,40,86,351,,41,58,082,,49,32,274,*7C
$GPGSV,5,5,17,50,10,089,*4A
$GLGSV,3,1,10,68,16,089,,69,27,140,15,70,06,201,,73,44,334,36*62
$GLGSV,3,2,10,74,00,335,,79,20,153,,80,75,145,19,83,10,001,08*69
$GLGSV,3,3,10,84,25,308,13,85,12,258,16*60
$GNGLL,0419.89430,S,05539.63526,E,053537.00,A,A*69
$GNGRS,053537.00,1,4.6,3.7,-1.3,1.9,-7.6,2.5,18.3,0.0,-5.4,,,*65
$GNGRS,053537.00,1,-6.3,19.2,6.7,3.4,-3.7,12.7,,,,,,*5E
$GNGST,053537.00,3077212,,,,4.3,7.7,18*5C
$GNZDA,053537.00,28,05,2025,00,00*75
$GNGBS,053537.00,4.3,7.7,17.9,,,,*60
$GNTXT,01,01,01,More than 100 frame errors, UART RX was disabled*70
b0X`;?9!
!(.R"W
F{4V_:R 
Y
oDYEFI#,NJOOPKeS
T4Ub`U
I$GNRMC,053538.00,A,0419.89429,S,05539.63528,E,0.220,,280525,,,A*71
$GNVTG,,T,,M,0.220,N,0.408,K,A*31
$GNGNS,053538.00,0419.89429,S,05539.63528,E,AA,15,0.75,27.1,-47.6,,*65
$GNGGA,053538.00,0419.89429,S,05539.63528,E,1,12,0.75,27.1,M,-47.6,M,,*48
$GNGSA,A,3,24,05,20,15,12,18,29,25,23,,,,1.42,0.75,1.21*19
$GNGSA,A,3,80,83,84,69,73,85,,,,,,,1.42,0.75,1.21*12
$GPGSV,5,1,17,05,59,063,22,11,01,029,,12,57,024,22,13,15,130,*7E
$GPGSV,5,2,17,15,33,163,27,18,33,261,26,20,27,040,19,22,02,137,*79
$GPGSV,5,3,17,23,23,206,25,24,46,198,30,25,34,343,20,29,10,326,21*75
$GPGSV,5,4,17,36,52,277,,40,86,351,,41,58,082,,49,32,274,*7C
$GPGSV,5,5,17,50,10,089,*4A
$GLGSV,3,1,10,68,16,089,,69,27,140,15,70,06,201,,73,44,334,35*61
$GLGSV,3,2,10,74,00,335,,79,20,153,,80,75,145,20,83,10,001,12*68
$GLGSV,3,3,10,84,25,308,09,85,12,258,14*69
$GNGLL,0419.89429,S,05539.63528,E,053538.00,A,A*60
$GNGRS,053538.00,1,-1.7,4.5,-3.4,2.4,-5.0,1.7,14.8,0.2,-3.5,,,*4A
$GNGRS,053538.00,1,-6.7,15.4,-23.0,-0.9,-2.9,14.3,,,,,,*6C
$GNGST,053538.00,58,,,,4.2,7.6,17*63
$GNZDA,053538.00,28,05,2025,00,00*7A
$GNGBS,053538.00,4.2,7.6,17.4,,,,*62
$GNTXT,01,01,01,More than 100 frame errors, UART RX was disabled*70
b0XH;?9 !w
!(
."Wv
F{4V_:R 
Y
oDYEFI#,NJOOPKS
T4U
bHU
ID$GNRMC,053539.00,A,0419.89427,S,05539.63531,E,0.087,,280525,,,A*79
$GNVTG,,T,,M,0.087,N,0.162,K,A*37
$GNGNS,053539.00,0419.89427,S,05539.63531,E,AA,15,0.76,26.3,-47.6,,*62
$GNGGA,053539.00,0419.89427,S,05539.63531,E,1,12,0.76,26.3,M,-47.6,M,,*4F
$GNGSA,A,3,24,05,20,15,12,18,29,25,23,,,,1.55,0.76,1.35*19
$GNGSA,A,3,80,83,84,69,73,85,,,,,,,1.55,0.76,1.35*12
$GPGSV,5,1,17,05,59,063,22,11,01,029,15,12,57,024,22,13,15,130,*7A
$GPGSV,5,2,17,15,33,163,27,18,33,261,24,20,27,040,18,22,02,137,*7A
$GPGSV,5,3,17,23,23,206,24,24,46,198,30,25,34,343,20,29,10,326,21*74
$GPGSV,5,4,17,36,52,277,,40,86,351,,41,58,082,,49,32,274,*7C
$GPGSV,5,5,17,50,10,089,*4A
$GLGSV,3,1,10,68,16,089,,69,27,140,15,70,06,201,,73,44,334,35*61
$GLGSV,3,2,10,74,00,335,,79,20,153,,80,75,145,19,83,10,001,15*65
$GLGSV,3,3,10,84,25,308,12,85,12,258,15*62
$GNGLL,0419.89427,S,05539.63531,E,053539.00,A,A*67
$GNGRS,053539.00,1,-3.4,2.7,-2.5,3.8,-2.2,2.6,12.3,1.2,0.0,,,*63
$GNGRS,053539.00,1,-5.4,19.9,7.0,3.9,-2.8,14.9,,,,,,*52
$GNGST,053539.00,3179594,,,,4.1,7.5,17*5B
$GNZDA,053539.00,28,05,2025,00,00*7B
$GNGBS,053539.00,4.1,7.5,17.2,,,,*65
$GNTXT,01,01,01,More than 100 frame errors, UART RX was disabled*70
b0X0;?X9!.
!(5Y."W
F\{4V_:R 
Y
oDYEbFI#,NJOOPKS

T
4U7b0U
I$GNRMC,053540.00,A,0419.89421,S,05539.63554,E,0.868,,280525,,,A*7B
$GNVTG,,T,,M,0.868,N,1.608,K,A*34
$GNGNS,053540.00,0419.89421,S,05539.63554,E,AA,15,0.72,25.7,-47.6,,*6A
$GNGGA,053540.00,0419.89421,S,05539.63554,E,1,12,0.72,25.7,M,-47.6,M,,*47
$GNGSA,A,3,24,05,20,15,12,18,29,25,23,,,,1.40,0.72,1.21*1C
$GNGSA,A,3,80,83,84,69,73,85,,,,,,,1.40,0.72,1.21*17
$GPGSV,5,1,17,05,59,063,23,11,01,029,12,12,57,024,19,13,15,130,*74
$GPGSV,5,2,17,15,33,163,26,18,33,261,20,20,27,040,16,22,02,137,*71
$GPGSV,5,3,17,23,23,206,25,24,46,198,29,25,34,343,20,29,10,326,19*76
$GPGSV,5,4,17,36,52,277,,40,86,351,,41,58,082,,49,32,274,*7C
$GPGSV,5,5,17,50,10,089,*4A
$GLGSV,3,1,10,68,16,089,,69,27,140,15,70,06,201,,73,44,334,35*61
$GLGSV,3,2,10,74,00,335,,79,20,153,,80,75,145,19,83,10,001,10*60
$GLGSV,3,3,10,84,25,308,10,85,12,258,15*60
$GNGLL,0419.89421,S,05539.63554,E,053540.00,A,A*6C
$GNGRS,053540.00,1,-2.7,1.3,0.5,3.0,-0.9,1.6,8.6,1.6,0.9,,,*76
$GNGRS,053540.00,1,-6.1,19.4,6.9,3.5,-2.9,13.4,,,,,,*58
$GNGST,053540.00,3072667,,,,4.1,7.5,17*50
$GNZDA,053540.00,28,05,2025,00,00*75
$GNGBS,053540.00,4.1,7.5,17.0,,,,*69
$GNTXT,01,01,01,More than 100 frame errors, UART RX was disabled*70
b0X;?h9!
!(T."W"
Fv{4V_:R 
Y
oDYEFI#,NJOOPKS
XT4UQbU
I$GNRMC,053541.00,A,0419.89419,S,05539.63572,E,0.617,,280525,,,A*73
$GNVTG,,T,,M,0.617,N,1.143,K,A*3A
$GNGNS,053541.00,0419.89419,S,05539.63572,E,AA,15,0.76,26.3,-47.6,,*67
$GNGGA,053541.00,0419.89419,S,05539.63572,E,1,12,0.76,26.3,M,-47.6,M,,*4A
$GNGSA,A,3,24,05,20,15,12,18,29,25,23,,,,1.55,0.76,1.35*19
$GNGSA,A,3,80,83,84,69,73,85,,,,,,,1.55,0.76,1.35*12
$GPGSV,5,1,17,05,59,063,23,11,01,029,09,12,57,024,18,13,15,130,*7F
$GPGSV,5,2,17,15,33,163,27,18,33,261,19,20,27,040,14,22,02,137,*78
$GPGSV,5,3,17,23,23,206,22,24,46,198,30,25,34,343,22,29,10,326,17*75
$GPGSV,5,4,17,36,52,277,,40,86,351,,41,58,082,,49,32,274,*7C
$GPGSV,5,5,17,50,10,089,*4A
$GLGSV,3,1,10,68,16,089,,69,27,140,11,70,06,201,,73,44,334,35*65
$GLGSV,3,2,10,74,00,335,,79,20,153,,80,75,145,19,83,10,001,08*69
$GLGSV,3,3,10,84,25,308,13,85,12,258,14*62
$GNGLL,0419.89419,S,05539.63572,E,053541.00,A,A*62
$GNGRS,053541.00,1,-5.0,1.0,0.8,1.3,-0.3,5.1,6.3,2.9,2.6,,,*7B
$GNGRS,053541.00,1,-5.5,-127,-19.0,-0.1,-2.7,11.1,,,,,,*6C
$GNGST,053541.00,63,,,,4.0,7.5,17*64
$GNZDA,053541.00,28,05,2025,00,00*74
$GNGBS,053541.00,4.0,7.5,16.9,,,,*61
$GNTXT,01,01,01,More than 100 frame errors, UART RX was disabled*70
b0X;?<9)!
!y(.;"W
F{4V_:R 
Y
oDYE~FI#,NJOOPKKS

T4UlbU
Io|$GNRMC,053542.00,A,0419.89418,S,05539.63588,E,0.526,,280525,,,A*75
$GNVTG,,T,,M,0.526,N,0.974,K,A*36
$GNGNS,053542.00,0419.89418,S,05539.63588,E,AA,15,0.76,26.2,-47.6,,*61
$GNGGA,053542.00,0419.89418,S,05539.63588,E,1,12,0.76,26.2,M,-47.6,M,,*4C
$GNGSA,A,3,24,05,20,15,12,18,29,25,23,,,,1.55,0.76,1.35*19
$GNGSA,A,3,80,83,84,69,73,85,,,,,,,1.55,0.76,1.35*12
$GPGSV,5,1,17,05,59,063,20,11,01,030,08,12,57,024,21,13,15,130,*7F
$GPGSV,5,2,17,15,33,163,27,18,33,261,21,20,27,040,13,22,02,137,*74
$GPGSV,5,3,17,23,23,206,18,24,46,198,30,25,34,343,22,29,10,326,15*7E
$GPGSV,5,4,17,36,52,277,,40,86,351,,41,58,082,,49,32,274,*7C
$GPGSV,5,5,17,50,10,089,*4A
$GLGSV,3,1,10,68,16,089,,69,27,140,07,70,06,201,,73,44,334,35*62
$GLGSV,3,2,10,74,00,335,,79,20,153,,80,75,145,20,83,10,001,10*6A
$GLGSV,3,3,10,84,25,308,13,85,12,258,12*64
$GNGLL,0419.89418,S,05539.63588,E,053542.00,A,A*65
$GNGRS,053542.00,1,0.6,0.6,1.4,1.5,0.4,3.8,5.2,4.5,2.4,,,*75
$GNGRS,053542.00,1,-6.9,20.2,7.1,3.8,-2.4,5.2,,,,,,*66
$GNGST,053542.00,3179509,,,,4.0,7.5,17*52
$GNZDA,053542.00,28,05,2025,00,00*77
$GNGBS,053542.00,4.0,7.5,17.0,,,,*6A
$GNTXT,01,01,01,More than 100 frame errors, UART RX was disabled*70
b0X;?H:$!
!(' .+"W
F{4V_:R 
Y
oDYEuFI#,NJOOPKYS
T4U
MbU
IF$GNRMC,053543.00,A,0419.89418,S,05539.63598,E,0.385,,280525,,,A*7A
$GNVTG,,T,,M,0.385,N,0.714,K,A*31
$GNGNS,053543.00,0419.89418,S,05539.63598,E,AA,15,0.72,26.8,-47.6,,*6F
$GNGGA,053543.00,0419.89418,S,05539.63598,E,1,12,0.72,26.8,M,-47.6,M,,*42
$GNGSA,A,3,24,05,20,15,12,18,29,25,23,,,,1.40,0.72,1.21*1C
$GNGSA,A,3,80,83,84,69,73,85,,,,,,,1.40,0.72,1.21*17
$GPGSV,5,1,17,05,59,063,18,11,01,030,08,12,58,024,20,13,15,130,*7A
$GPGSV,5,2,17,15,33,163,27,18,33,261,21,20,27,040,12,22,02,137,*75
$GPGSV,5,3,17,23,23,206,14,24,46,198,32,25,34,343,20,29,10,326,16*71
$GPGSV,5,4,17,36,52,277,,40,86,351,,41,58,082,,49,32,274,*7C
$GPGSV,5,5,17,50,10,089,*4A
$GLGSV,3,1,10,68,16,089,,69,27,140,09,70,06,201,,73,44,334,35*6C
$GLGSV,3,2,10,74,00,335,,79,20,153,,80,75,145,20,83,10,001,12*68
$GLGSV,3,3,10,84,25,308,13,85,12,258,10*66
$GNGLL,0419.89418,S,05539.63598,E,053543.00,A,A*65
$GNGRS,053543.00,1,0.4,0.7,-2.2,0.1,2.9,1.9,7.7,2.7,5.1,,,*57
$GNGRS,053543.00,1,-6.8,20.3,7.0,3.7,-2.4,-2.5,,,,,,*44
$GNGST,053543.00,3071982,,,,3.9,7.5,17*5B
$GNZDA,053543.00,28,05,2025,00,00*76
$GNGBS,053543.00,3.9,7.5,17.0,,,,*65
$GNTXT,01,01,01,More than 100 frame errors, UART RX was disabled*70
b0X;?/:Z!4
!2(j."W
F?{4V_:R 
Y
oDYE
)FI$,N;JOOPKS
T4UbU
I=$GNRMC,053544.00,A,0419.89418,S,05539.63611,E,0.493,,280525,,,A*7F
$GNVTG,,T,,M,0.493,N,0.913,K,A*38
$GNGNS,053544.00,0419.89418,S,05539.63611,E,AA,14,0.95,26.6,-47.6,,*6C
$GNGGA,053544.00,0419.89418,S,05539.63611,E,1,12,0.95,26.6,M,-47.6,M,,*40
$GNGSA,A,3,24,05,15,12,18,29,25,23,,,,,1.70,0.95,1.41*12
$GNGSA,A,3,80,83,84,69,73,85,,,,,,,1.70,0.95,1.41*1B
$GPGSV,5,1,17,05,59,063,20,11,01,030,08,12,58,024,19,13,15,130,*7B
$GPGSV,5,2,17,15,33,163,26,18,33,261,21,20,27,040,,22,02,137,*77
$GPGSV,5,3,17,23,23,206,13,24,46,198,31,25,34,343,16,29,10,326,16*70
$GPGSV,5,4,17,36,52,277,,40,86,351,,41,58,082,,49,32,274,*7C
$GPGSV,5,5,17,50,10,089,*4A
$GLGSV,3,1,10,68,16,089,,69,27,140,10,70,06,201,,73,44,334,36*67
$GLGSV,3,2,10,74,00,335,,79,20,153,,80,75,145,20,83,10,001,17*6D
$GLGSV,3,3,10,84,25,308,15,85,12,258,11*61
$GNGLL,0419.89418,S,05539.63611,E,053544.00,A,A*60
$GNGRS,053544.00,1,1.7,-0.7,0.5,3.5,3.1,5.8,4.1,3.6,,,,*73
$GNGRS,053544.00,1,-8.6,4.6,-0.1,107,-2.0,-2.4,,,,,,*42
$GNGST,053544.00,66,,,,3.9,7.6,17*69
$GNZDA,053544.00,28,05,2025,00,00*71
$GNGBS,053544.00,3.9,7.6,16.9,,,,*69
$GNTXT,01,01,01,More than 100 frame errors, UART RX was disabled*70
b0X;?]:!
!*(."W
F{4V_:R 
Y
oDYEFI$,NSJOOPKS
T4UbU
kI$GNRMC,053545.00,A,0419.89418,S,05539.63609,E,0.082,,280525,,,A*73
$GNVTG,,T,,M,0.082,N,0.152,K,A*31
$GNGNS,053545.00,0419.89418,S,05539.63609,E,AA,14,0.91,26.3,-47.6,,*65
$GNGGA,053545.00,0419.89418,S,05539.63609,E,1,12,0.91,26.3,M,-47.6,M,,*49
$GNGSA,A,3,24,05,15,12,18,29,25,23,,,,,1.76,0.91,1.51*11
$GNGSA,A,3,80,83,84,69,73,85,,,,,,,1.76,0.91,1.51*18
$GPGSV,5,1,17,05,59,063,21,11,01,030,09,12,58,024,19,13,15,130,*7B
$GPGSV,5,2,17,15,33,163,26,18,33,261,22,20,27,040,,22,02,137,*74
$GPGSV,5,3,17,23,23,206,11,24,46,198,30,25,34,343,17,29,10,326,16*72
$GPGSV,5,4,17,36,52,277,,40,86,351,,41,58,082,,49,32,274,*7C
$GPGSV,5,5,17,50,10,089,*4A
$GLGSV,3,1,10,68,16,089,,69,27,140,13,70,06,201,,73,44,334,36*64
$GLGSV,3,2,10,74,00,335,,79,20,153,,80,75,145,19,83,10,001,15*65
$GLGSV,3,3,10,84,25,308,16,85,12,258,13*60
$GNGLL,0419.89418,S,05539.63609,E,053545.00,A,A*68
$GNGRS,053545.00,1,0.0,-3.5,-0.2,4.2,3.0,4.9,5.1,2.5,,,,*5D
$GNGRS,053545.00,1,-7.6,20.2,7.0,4.0,-1.7,-2.8,,,,,,*41
$GNGST,053545.00,3302272,,,,3.9,7.8,17*53
$GNZDA,053545.00,28,05,2025,00,00*70
$GNGBS,053545.00,3.9,7.8,17.1,,,,*6F
$GNTXT,01,01,01,More than 100 frame errors, UART RX was disabled*70
b0X;?L6:9!'
!(N.A"W
F{4V_:R 
Y
oDYEFI$,N]JOOPKS
T4UbU
S I$GNRMC,053546.00,A,0419.89416,S,05539.63616,E,0.319,,280525,,,A*71
$GNVTG,,T,,M,0.319,N,0.590,K,A*3A
$GNGNS,053546.00,0419.89416,S,05539.63616,E,AA,14,0.91,26.0,-47.6,,*65
$GNGGA,053546.00,0419.89416,S,05539.63616,E,1,12,0.91,26.0,M,-47.6,M,,*49
$GNGSA,A,3,24,05,15,12,18,29,25,23,,,,,1.76,0.91,1.51*11
$GNGSA,A,3,80,83,84,69,73,85,,,,,,,1.76,0.91,1.51*18
$GPGSV,5,1,17,05,59,063,21,11,01,030,09,12,58,024,18,13,15,130,*7A
$GPGSV,5,2,17,15,33,163,25,18,33,261,23,20,27,040,14,22,02,137,*73
$GPGSV,5,3,17,23,23,206,18,24,46,198,31,25,34,343,18,29,10,326,17*74
$GPGSV,5,4,17,36,52,277,,40,86,351,,41,58,082,,49,32,274,*7C
$GPGSV,5,5,17,50,10,089,*4A
$GLGSV,3,1,10,68,16,089,,69,27,140,12,70,06,201,,73,44,334,36*65
$GLGSV,3,2,10,74,00,335,,79,20,153,,80,75,145,18,83,10,001,14*65
$GLGSV,3,3,10,84,25,308,11,85,12,258,13*67
$GNGLL,0419.89416,S,05539.63616,E,053546.00,A,A*6B
$GNGRS,053546.00,1,-1.9,-4.4,3.0,5.7,2.2,2.4,4.4,2.3,,,,*5F
$GNGRS,053546.00,1,-10.5,19.9,6.8,3.9,-1.6,-3.2,,,,,,*7B
$GNGST,053546.00,3303322,,,,3.8,8.0,17*53
$GNZDA,053546.00,28,05,2025,00,00*73
$GNGBS,053546.00,3.8,8.0,17.3,,,,*68
$GNTXT,01,01,01,More than 100 frame errors, UART RX was disabled*70
b0X;?:!
!n(."W
F;{4V_:R 
Y
oDYEFI$,NyJOOPKS
/T4]U^bU
;$Iu$GNRMC,053547.00,A,0419.89420,S,05539.63620,E,0.395,,280525,,,A*74
$GNVTG,,T,,M,0.395,N,0.731,K,A*37
$GNGNS,053547.00,0419.89420,S,05539.63620,E,AA,13,0.94,25.7,-47.6,,*62
$GNGGA,053547.00,0419.89420,S,05539.63620,E,1,12,0.94,25.7,M,-47.6,M,,*49
$GNGSA,A,3,24,05,15,12,18,29,25,23,,,,,1.70,0.94,1.41*13
$GNGSA,A,3,80,83,84,73,85,,,,,,,,1.70,0.94,1.41*15
$GPGSV,5,1,17,05,59,063,22,11,01,030,08,12,58,024,17,13,15,130,*77
$GPGSV,5,2,17,15,33,163,25,18,33,261,24,20,27,040,12,22,02,137,*72
$GPGSV,5,3,17,23,23,206,14,24,46,198,31,25,34,343,19,29,10,326,17*79
$GPGSV,5,4,17,36,52,277,,40,86,351,,41,58,082,,49,32,274,*7C
$GPGSV,5,5,17,50,10,089,*4A
$GLGSV,3,1,10,68,16,089,,69,27,140,07,70,06,201,,73,44,334,36*61
$GLGSV,3,2,10,74,00,335,,79,20,153,,80,75,145,17,83,10,001,13*6D
$GLGSV,3,3,10,84,25,308,15,85,12,258,13*63
$GNGLL,0419.89420,S,05539.63620,E,053547.00,A,A*6A
$GNGRS,053547.00,1,0.2,-3.8,2.7,6.6,3.7,0.6,6.7,25.3,,,,*46
$GNGRS,053547.00,1,-12.8,-12.3,0.9,-1.4,4.1,,,,,,,*51
$GNGST,053547.00,66,,,,3.8,8.2,17*60
$GNZDA,053547.00,28,05,2025,00,00*72
$GNGBS,053547.00,3.8,8.2,17.3,,,,*6B
$GNTXT,01,01,01,More than 100 frame errors, UART RX was disabled*70
b0Xp;?-:!m
!(."WL
F9{4V_:R 
Y
oDYEFI$,NJOOPKS
T4UJbpU
#(I~$GNRMC,053548.00,A,0419.89418,S,05539.63642,E,0.948,,280525,,,A*7E
$GNVTG,,T,,M,0.948,N,1.755,K,A*3E
$GNGNS,053548.00,0419.89418,S,05539.63642,E,AA,14,0.91,26.3,-47.6,,*67
$GNGGA,053548.00,0419.89418,S,05539.63642,E,1,12,0.91,26.3,M,-47.6,M,,*4B
$GNGSA,A,3,24,05,15,12,18,29,25,23,,,,,1.76,0.91,1.51*11
$GNGSA,A,3,80,83,84,69,73,85,,,,,,,1.76,0.91,1.51*18
$GPGSV,5,1,17,05,59,063,23,11,01,030,08,12,58,024,17,13,15,130,*76
$GPGSV,5,2,17,15,33,163,27,18,33,261,23,20,27,040,11,22,02,137,*74
$GPGSV,5,3,17,23,23,206,18,24,46,198,30,25,34,343,20,29,10,326,17*7E
$GPGSV,5,4,17,36,52,277,,40,86,351,,41,58,082,,49,32,274,*7C
$GPGSV,5,5,17,50,10,089,*4A
$GLGSV,3,1,10,68,16,089,,69,27,140,09,70,06,201,,73,44,334,36*6F
$GLGSV,3,2,10,74,00,335,,79,20,153,,80,75,145,15,83,10,001,16*6A
$GLGSV,3,3,10,84,25,308,15,85,12,258,11*61
$GNGLL,0419.89418,S,05539.63642,E,053548.00,A,A*6A
$GNGRS,053548.00,1,1.3,-4.7,1.1,7.5,4.5,3.1,5.9,12.6,,,,*4B
$GNGRS,053548.00,1,-13.3,20.6,7.4,4.0,-1.0,16.1,,,,,,*6A
$GNGST,053548.00,4667195,,,,3.8,8.3,17*50
$GNZDA,053548.00,28,05,2025,00,00*7D
$GNGBS,053548.00,3.8,8.3,17.5,,,,*63
$GNTXT,01,01,01,More than 100 frame errors, UART RX was disabled*70
b0XX;?H}:!
!T(."W
F`{4V_:R 
Y
oDYE
FI$,NJOOPKS
T4U3PbXU
,IVE$GNRMC,053549.00,A,0419.89423,S,05539.63633,E,0.021,,280525,,,A*77
$GNVTG,,T,,M,0.021,N,0.038,K,A*35
$GNGNS,053549.00,0419.89423,S,05539.63633,E,AA,14,0.91,26.2,-47.6,,*69
$GNGGA,053549.00,0419.89423,S,05539.63633,E,1,12,0.91,26.2,M,-47.6,M,,*45
$GNGSA,A,3,24,05,15,12,18,29,25,23,,,,,1.76,0.91,1.51*11
$GNGSA,A,3,80,83,84,69,73,85,,,,,,,1.76,0.91,1.51*18
$GPGSV,5,1,17,05,59,063,22,11,01,030,08,12,58,024,17,13,15,130,*77
$GPGSV,5,2,17,15,33,163,26,18,33,262,22,20,27,040,14,22,02,137,*72
$GPGSV,5,3,17,23,23,206,17,24,46,198,31,25,34,343,21,29,10,326,17*71
$GPGSV,5,4,17,36,52,277,,40,86,351,,41,58,082,,49,32,274,*7C
$GPGSV,5,5,17,50,10,089,*4A
$GLGSV,3,1,10,68,16,089,,69,27,140,10,70,06,201,,73,44,334,36*67
$GLGSV,3,2,10,74,00,335,,79,20,153,,80,75,145,13,83,10,001,15*6F
$GLGSV,3,3,10,84,25,308,14,85,12,258,17*66
$GNGLL,0419.89423,S,05539.63633,E,053549.00,A,A*65
$GNGRS,053549.00,1,2.6,-1.8,1.8,7.7,3.4,3.5,5.2,11.6,,,,*47
$GNGRS,053549.00,1,-18.7,20.6,7.0,4.1,-1.0,15.6,,,,,,*65
$GNGST,053549.00,3303286,,,,3.8,8.3,18*5F
$GNZDA,053549.00,28,05,2025,00,00*7C
$GNGBS,053549.00,3.8,8.3,17.6,,,,*61
$GNTXT,01,01,01,More than 100 frame errors, UART RX was disabled*70
b0X@;?:!{
!(I.5"W&
FG{4V_:R 
Y
oDYE
FI$,NJOOPKS
T4:U:b@U
/I-$GNRMC,053550.00,A,0419.89429,S,05539.63616,E,0.492,,280525,,,A*7E
$GNVTG,,T,,M,0.492,N,0.911,K,A*3B
$GNGNS,053550.00,0419.89429,S,05539.63616,E,AA,14,0.92,25.7,-47.6,,*69
$GNGGA,053550.00,0419.89429,S,05539.63616,E,1,12,0.92,25.7,M,-47.6,M,,*45
$GNGSA,A,3,24,05,20,15,12,18,29,25,23,,,,1.96,0.92,1.73*1E
$GNGSA,A,3,80,84,69,73,85,,,,,,,,1.96,0.92,1.73*1E
$GPGSV,5,1,17,05,59,063,22,11,01,030,,12,58,024,17,13,15,130,*7F
$GPGSV,5,2,17,15,33,163,25,18,33,262,22,20,27,040,15,22,02,137,*70
$GPGSV,5,3,17,23,23,206,19,24,46,198,31,25,34,343,21,29,10,326,16*7E
$GPGSV,5,4,17,36,52,277,,40,86,351,,41,58,082,,49,32,274,*7C
$GPGSV,5,5,17,50,10,089,*4A
$GLGSV,3,1,10,68,16,089,,69,27,140,10,70,06,201,,73,44,334,36*67
$GLGSV,3,2,10,74,00,335,,79,20,153,,80,75,145,13,83,10,001,08*63
$GLGSV,3,3,10,84,25,308,17,85,12,258,14*66
$GNGLL,0419.89429,S,05539.63616,E,053550.00,A,A*60
$GNGRS,053550.00,1,0.5,-3.1,36.6,1.2,5.2,2.5,3.3,2.9,10.0,,,*58
$GNGRS,053550.00,1,-20.5,-2.0,7.3,-0.9,-10.8,,,,,,,*79
$GNGST,053550.00,64,,,,3.7,8.3,18*65
$GNZDA,053550.00,28,05,2025,00,00*74
$GNGBS,053550.00,3.7,8.3,17.6,,,,*66
$GNTXT,01,01,01,More than 100 frame errors, UART RX was disabled*70
b0X(;?$:d!
!h(."W/
FU{4V_:R 
Y
oDYE
}FI$,NJOOPKCS
(T4U'(b(U
3I$GNRMC,053551.00,A,0419.89433,S,05539.63606,E,0.240,,280525,,,A*7C
$GNVTG,,T,,M,0.240,N,0.444,K,A*3F
$GNGNS,053551.00,0419.89433,S,05539.63606,E,AA,15,0.91,25.6,-47.6,,*61
$GNGGA,053551.00,0419.89433,S,05539.63606,E,1,12,0.91,25.6,M,-47.6,M,,*4C
$GNGSA,A,3,24,05,20,15,12,18,29,25,23,,,,1.76,0.91,1.51*13
$GNGSA,A,3,80,83,84,69,73,85,,,,,,,1.76,0.91,1.51*18
$GPGSV,5,1,17,05,59,063,22,11,01,030,,12,58,024,19,13,15,130,*71
$GPGSV,5,2,17,15,33,163,26,18,33,262,23,20,26,040,14,22,02,137,*72
$GPGSV,5,3,17,23,23,206,20,24,46,198,31,25,34,343,23,29,10,326,16*76
$GPGSV,5,4,17,36,52,277,,40,86,351,,41,58,082,,49,32,274,*7C
$GPGSV,5,5,17,50,10,089,*4A
$GLGSV,3,1,10,68,16,089,,69,27,140,10,70,06,201,,73,44,334,36*67
$GLGSV,3,2,10,74,00,335,,79,20,153,,80,75,145,16,83,10,001,12*6D
$GLGSV,3,3,10,84,25,308,16,85,12,258,13*60
$GNGLL,0419.89433,S,05539.63606,E,053551.00,A,A*6B
$GNGRS,053551.00,1,-0.9,-2.2,41.1,-0.5,3.6,1.0,0.8,3.0,9.3,,,*69
$GNGRS,053551.00,1,-19.8,20.9,7.3,3.8,-0.9,15.8,,,,,,*66
$GNGST,053551.00,3300904,,,,3.7,8.3,18*5B
$GNZDA,053551.00,28,05,2025,00,00*75
$GNGBS,053551.00,3.7,8.3,17.7,,,,*66
$GNTXT,01,01,01,More than 100 frame errors, UART RX was disabled*70
b0X;?:"!
!g(W."W
F{4V_:R 
Y
oDYEOFI$,NJOOPKfS
=T4U1;fbU
7Iz$GNRMC,053552.00,A,0419.89433,S,05539.63602,E,0.258,,280525,,,A*72
$GNVTG,,T,,M,0.258,N,0.478,K,A*39
$GNGNS,053552.00,0419.89433,S,05539.63602,E,AA,15,0.80,25.2,-47.6,,*62
$GNGGA,053552.00,0419.89433,S,05539.63602,E,1,12,0.80,25.2,M,-47.6,M,,*4F
$GNGSA,A,3,24,05,20,15,12,18,29,25,23,,,,1.61,0.80,1.40*15
$GNGSA,A,3,80,83,84,69,73,85,,,,,,,1.61,0.80,1.40*1E
$GPGSV,5,1,17,05,59,063,23,11,01,030,,12,58,024,20,13,15,130,*7A
$GPGSV,5,2,17,15,33,163,25,18,33,262,21,20,26,040,15,22,02,137,*72
$GPGSV,5,3,17,23,23,206,21,24,46,198,31,25,34,343,24,29,10,326,17*71
$GPGSV,5,4,17,36,52,277,,40,86,351,,41,58,082,,49,32,274,*7C
$GPGSV,5,5,17,50,10,089,*4A
$GLGSV,3,1,10,68,16,089,,69,27,140,09,70,06,201,,73,44,334,36*6F
$GLGSV,3,2,10,74,00,335,,79,20,153,,80,75,145,16,83,10,001,14*6B
$GLGSV,3,3,10,84,25,308,17,85,12,258,13*61
$GNGLL,0419.89433,S,05539.63602,E,053552.00,A,A*6C
$GNGRS,053552.00,1,-2.2,-3.7,41.8,-0.3,2.9,1.0,-0.6,2.8,7.2,,,*43
$GNGRS,053552.00,1,-22.0,18.5,7.2,3.3,-0.9,15.8,,,,,,*68
$GNGST,053552.00,3302676,,,,3.7,8.3,18*50
$GNZDA,053552.00,28,05,2025,00,00*76
$GNGBS,053552.00,3.7,8.3,17.6,,,,*64
$GNTXT,01,01,01,More than 100 frame errors, UART RX was disabled*70
b0X;?:!
!(D ."W%
F{4V_:R 
Y
oDYE
.FI$,NJOOPKS
T4U
0bU
;I$GNRMC,053553.00,A,0419.89427,S,05539.63626,E,0.445,,280525,,,A*7A
$GNVTG,,T,,M,0.445,N,0.825,K,A*37
$GNGNS,053553.00,0419.89427,S,05539.63626,E,AA,14,0.99,25.5,-47.6,,*6E
$GNGGA,053553.00,0419.89427,S,05539.63626,E,1,12,0.99,25.5,M,-47.6,M,,*42
$GNGSA,A,3,24,05,20,15,12,18,29,25,23,,,,1.83,0.99,1.54*14
$GNGSA,A,3,80,83,69,73,85,,,,,,,,1.83,0.99,1.54*13
$GPGSV,5,1,17,05,59,063,23,11,01,030,,12,58,024,22,13,15,130,*78
$GPGSV,5,2,17,15,33,163,24,18,33,262,20,20,26,040,15,22,02,137,*72
$GPGSV,5,3,17,23,24,206,21,24,46,198,32,25,34,343,25,29,10,326,16*75
$GPGSV,5,4,17,36,52,277,,40,86,351,,41,58,082,,49,32,274,*7C
$GPGSV,5,5,17,50,10,089,*4A
$GLGSV,3,1,10,68,16,089,,69,27,140,10,70,06,201,,73,44,334,36*67
$GLGSV,3,2,10,74,00,335,,79,20,153,,80,75,145,16,83,10,001,15*6A
$GLGSV,3,3,10,84,25,308,08,85,12,258,10*6C
$GNGLL,0419.89427,S,05539.63626,E,053553.00,A,A*6E
$GNGRS,053553.00,1,-3.7,-2.8,41.6,2.2,-0.1,-0.7,-2.9,2.9,9.8,,,*6C
$GNGRS,053553.00,1,-21.2,17.6,33.7,-1.0,-20.0,,,,,,,*53
$GNGST,053553.00,55,,,,3.6,8.3,18*65
$GNZDA,053553.00,28,05,2025,00,00*77
$GNGBS,053553.00,3.6,8.3,17.6,,,,*64
$GNTXT,01,01,01,More than 100 frame errors, UART RX was disabled*70
b0X;?:F!g
!(X ."W
Fl{4V_:R 
Y
oDYEgFI#,NfJOOPK=S
T4<U.bU
?I;$GNRMC,053554.00,A,0419.89421,S,05539.63639,E,0.371,,280525,,,A*75
$GNVTG,,T,,M,0.371,N,0.687,K,A*31
$GNGNS,053554.00,0419.89421,S,05539.63639,E,AA,15,0.80,24.1,-47.6,,*6D
$GNGGA,053554.00,0419.89421,S,05539.63639,E,1,12,0.80,24.1,M,-47.6,M,,*40
$GNGSA,A,3,24,05,20,15,12,18,29,25,23,,,,1.49,0.80,1.25*1C
$GNGSA,A,3,80,83,84,69,73,85,,,,,,,1.49,0.80,1.25*17
$GPGSV,5,1,17,05,59,063,23,11,01,030,,12,58,024,22,13,15,130,*78
$GPGSV,5,2,17,15,33,163,25,18,33,262,21,20,26,040,15,22,02,137,*72
$GPGSV,5,3,17,23,24,206,20,24,46,198,32,25,34,343,25,29,10,326,16*74
$GPGSV,5,4,17,36,52,277,,40,86,351,,41,58,082,,49,32,274,*7C
$GPGSV,5,5,17,50,10,089,*4A
$GLGSV,3,1,10,68,16,089,,69,27,140,13,70,06,201,,73,44,334,35*67
$GLGSV,3,2,10,74,00,335,,79,20,153,,80,75,145,16,83,10,001,15*6A
$GLGSV,3,3,10,84,25,308,12,85,12,258,12*65
$GNGLL,0419.89421,S,05539.63639,E,053554.00,A,A*61
$GNGRS,053554.00,1,-2.5,-3.8,34.2,1.0,-1.9,0.3,-4.0,2.7,10.2,,,*7D
$GNGRS,053554.00,1,-22.4,16.8,8.3,3.6,-1.5,14.9,,,,,,*6F
$GNGST,053554.00,4496177,,,,3.6,8.4,18*5B
$GNZDA,053554.00,28,05,2025,00,00*70
$GNGBS,053554.00,3.6,8.4,17.5,,,,*67
$GNTXT,01,01,01,More than 100 frame errors, UART RX was disabled*70
b0X;?:{!
!R( .x#W
F/{4V_:R 
Y
oDYEnFI#,NmJOOPKS
T4Uyk)bU
{CId$GNRMC,053555.00,A,0419.89421,S,05539.63625,E,0.194,,280525,,,A*70
$GNVTG,,T,,M,0.194,N,0.360,K,A*34
$GNGNS,053555.00,0419.89421,S,05539.63625,E,AA,15,0.80,23.9,-47.6,,*6E
$GNGGA,053555.00,0419.89421,S,05539.63625,E,1,12,0.80,23.9,M,-47.6,M,,*43
$GNGSA,A,3,24,05,20,15,12,18,29,25,23,,,,1.61,0.80,1.40*15
$GNGSA,A,3,80,83,84,69,73,85,,,,,,,1.61,0.80,1.40*1E
$GPGSV,5,1,17,05,59,063,25,11,01,030,,12,58,024,22,13,15,130,*7E
$GPGSV,5,2,17,15,33,163,25,18,33,262,22,20,26,040,15,22,02,137,*71
$GPGSV,5,3,17,23,24,206,20,24,46,198,32,25,35,343,25,29,10,326,16*75
$GPGSV,5,4,17,36,52,277,,40,86,351,,41,58,082,,49,32,274,*7C
$GPGSV,5,5,17,50,10,089,*4A
$GLGSV,3,1,10,68,16,089,,69,27,140,08,70,06,201,,73,44,334,35*6D
$GLGSV,3,2,10,74,00,335,,79,20,153,,80,75,145,16,83,10,001,15*6A
$GLGSV,3,3,10,84,25,308,15,85,12,258,13*63
$GNGLL,0419.89421,S,05539.63625,E,053555.00,A,A*6D
$GNGRS,053555.00,1,-1.4,-5.0,35.1,2.4,-1.3,0.8,-4.7,4.2,10.1,,,*73
$GNGRS,053555.00,1,-24.0,14.5,9.9,3.7,-1.5,14.0,,,,,,*60
$GNGST,053555.00,4665903,,,,3.5,8.4,17*53
$GNZDA,053555.00,28,05,2025,00,00*71
$GNGBS,053555.00,3.5,8.4,17.5,,,,*65
$GNTXT,01,01,01,More than 100 frame errors, UART RX was disabled*70
b0X;?:!
!(? .#W
Fz{4V_:R 
Y
oDYEFI#,NsJOOPKTS
kT4U0bU
cGI<$GNRMC,053556.00,A,0419.89417,S,05539.63668,E,1.333,83.32,280525,,,A*55
$GNVTG,83.32,T,,M,1.333,N,2.468,K,A*13
$GNGNS,053556.00,0419.89417,S,05539.63668,E,AA,15,0.94,22.9,-47.6,,*65
$GNGGA,053556.00,0419.89417,S,05539.63668,E,1,12,0.94,22.9,M,-47.6,M,,*48
$GNGSA,A,3,24,05,20,15,12,18,29,25,23,,,,1.70,0.94,1.41*11
$GNGSA,A,3,80,83,84,69,73,85,,,,,,,1.70,0.94,1.41*1A
$GPGSV,5,1,17,05,59,063,24,11,01,030,,12,58,024,22,13,15,130,*7F
$GPGSV,5,2,17,15,33,163,22,18,33,262,21,20,26,040,15,22,02,137,*75
$GPGSV,5,3,17,23,24,206,21,24,46,198,32,25,35,343,25,29,10,326,16*74
$GPGSV,5,4,17,36,52,277,,40,86,351,,41,58,082,,49,32,274,*7C
$GPGSV,5,5,17,50,10,089,*4A
$GLGSV,3,1,10,68,16,089,,69,27,140,11,70,06,201,,73,44,334,35*65
$GLGSV,3,2,10,74,00,335,,79,20,153,,80,75,145,15,83,10,001,16*6A
$GLGSV,3,3,10,84,25,308,16,85,12,258,14*67
$GNGLL,0419.89417,S,05539.63668,E,053556.00,A,A*62
$GNGRS,053556.00,1,0.0,-5.7,35.4,4.9,-0.8,2.0,-6.5,4.9,8.3,,,*61
$GNGRS,053556.00,1,-24.8,13.9,9.3,-121,-1.4,7.4,,,,,,*68
$GNGST,053556.00,53,,,,3.5,8.4,17*6D
$GNZDA,053556.00,28,05,2025,00,00*72
$GNGBS,053556.00,3.5,8.4,17.4,,,,*67
$GNTXT,01,01,01,More than 100 frame errors, UART RX was disabled*70
b0X;?:!J
!(} ./#W
F{4V_:R 
Y
oDYE
}FI#,NJOOPKS
T4UbU
KKIs$GNRMC,053557.00,A,0419.89418,S,05539.63683,E,0.607,,280525,,,A*79
$GNVTG,,T,,M,0.607,N,1.124,K,A*3A
$GNGNS,053557.00,0419.89418,S,05539.63683,E,AA,15,0.80,21.3,-47.6,,*62
$GNGGA,053557.00,0419.89418,S,05539.63683,E,1,12,0.80,21.3,M,-47.6,M,,*4F
$GNGSA,A,3,24,05,20,15,12,18,29,25,23,,,,1.49,0.80,1.25*1C
$GNGSA,A,3,80,83,84,69,73,85,,,,,,,1.49,0.80,1.25*17
$GPGSV,5,1,17,05,59,063,23,11,01,030,,12,58,024,21,13,15,130,*7B
$GPGSV,5,2,17,15,33,163,23,18,33,262,21,20,26,040,14,22,02,137,*75
$GPGSV,5,3,17,23,24,206,21,24,46,198,32,25,35,343,24,29,10,326,15*76
$GPGSV,5,4,17,36,52,277,,40,86,351,,41,58,082,,49,32,274,*7C
$GPGSV,5,5,17,50,10,089,*4A
$GLGSV,3,1,10,68,16,089,,69,27,140,10,70,06,201,,73,44,334,35*64
$GLGSV,3,2,10,74,00,335,,79,20,153,,80,75,145,11,83,10,001,17*6F
$GLGSV,3,3,10,84,25,308,16,85,12,258,12*61
$GNGLL,0419.89418,S,05539.63683,E,053557.00,A,A*69
$GNGRS,053557.00,1,0.5,-6.1,34.5,5.9,-2.6,0.2,-3.7,2.0,9.3,,,*64
$GNGRS,053557.00,1,-23.4,12.9,9.9,3.8,-1.2,14.4,,,,,,*67
$GNGST,053557.00,3180932,,,,3.5,8.5,17*59
$GNZDA,053557.00,28,05,2025,00,00*73
$GNGBS,053557.00,3.5,8.5,17.4,,,,*67
$GNTXT,01,01,01,More than 100 frame errors, UART RX was disabled*70
b0X;?:!
!)(Y.#W
F{4V_:R 
Y
oDYE
FI#,NJOOP
K8S
T4U.bU
3OI$GNRMC,053558.00,A,0419.89423,S,05539.63672,E,0.144,,280525,,,A*70
$GNVTG,,T,,M,0.144,N,0.266,K,A*3E
$GNGNS,053558.00,0419.89423,S,05539.63672,E,AA,15,0.80,21.0,-47.6,,*68
$GNGGA,053558.00,0419.89423,S,05539.63672,E,1,12,0.80,21.0,M,-47.6,M,,*45
$GNGSA,A,3,24,05,20,15,12,18,29,25,23,,,,1.49,0.80,1.25*1C
$GNGSA,A,3,80,83,84,69,73,85,,,,,,,1.49,0.80,1.25*17
$GPGSV,5,1,17,05,59,063,24,11,01,030,,12,58,024,21,13,15,130,*7C
$GPGSV,5,2,17,15,33,163,25,18,33,262,21,20,26,040,14,22,02,137,*73
$GPGSV,5,3,17,23,24,206,22,24,46,198,31,25,35,343,24,29,10,326,15*76
$GPGSV,5,4,17,36,52,277,,40,86,351,,41,58,082,,49,32,274,*7C
$GPGSV,5,5,17,50,10,089,*4A
$GLGSV,3,1,10,68,16,089,,69,27,140,10,70,06,201,,73,44,334,35*64
$GLGSV,3,2,10,74,00,335,,79,20,153,,80,75,145,10,83,10,001,16*6F
$GLGSV,3,3,10,84,25,308,17,85,12,258,13*61
$GNGLL,0419.89423,S,05539.63672,E,053558.00,A,A*60
$GNGRS,053558.00,1,-2.5,-7.4,32.5,9.0,-3.4,0.4,-2.6,2.7,8.6,,,*45
$GNGRS,053558.00,1,-22.5,10.0,10.2,4.2,-1.3,13.3,,,,,,*5C
$GNGST,053558.00,3181739,,,,3.5,8.5,17*52
$GNZDA,053558.00,28,05,2025,00,00*7C
$GNGBS,053558.00,3.5,8.5,17.4,,,,*68
$GNTXT,01,01,01,More than 100 frame errors, UART RX was disabled*70
b0Xh;?:!`
!(X.#W
F{4V_:R 
Y
oDYEFI$,N{JOOPKCS
T41UuzbhU
SIC$GNRMC,053559.00,A,0419.89427,S,05539.63669,E,0.200,,280525,,,A*7C
$GNVTG,,T,,M,0.200,N,0.370,K,A*3B
$GNGNS,053559.00,0419.89427,S,05539.63669,E,AA,15,0.94,20.0,-47.6,,*63
$GNGGA,053559.00,0419.89427,S,05539.63669,E,1,12,0.94,20.0,M,-47.6,M,,*4E
$GNGSA,A,3,24,05,20,15,12,18,29,25,23,,,,1.70,0.94,1.41*11
$GNGSA,A,3,80,83,84,69,73,85,,,,,,,1.70,0.94,1.41*1A
$GPGSV,5,1,17,05,59,063,24,11,01,030,,12,58,024,20,13,15,130,*7D
$GPGSV,5,2,17,15,33,163,26,18,33,262,21,20,26,040,14,22,02,137,*70
$GPGSV,5,3,17,23,24,206,21,24,46,198,31,25,35,343,22,29,10,326,15*73
$GPGSV,5,4,17,36,52,277,,40,86,351,,41,58,082,,49,32,274,*7C
$GPGSV,5,5,17,50,10,089,*4A
$GLGSV,3,1,10,68,16,089,,69,27,140,09,70,06,201,,73,44,334,36*6F
$GLGSV,3,2,10,74,00,335,,79,20,153,,80,75,145,12,83,10,001,16*6D
$GLGSV,3,3,10,84,25,308,18,85,12,258,16*6B
$GNGLL,0419.89427,S,05539.63669,E,053559.00,A,A*6F
$GNGRS,053559.00,1,-2.4,-6.3,33.1,8.6,-2.3,0.1,-2.4,2.0,8.6,,,*47
$GNGRS,053559.00,1,-50.5,7.9,8.2,-114,-1.3,10.1,,,,,,*6E
$GNGST,053559.00,56,,,,3.4,8.5,17*67
$GNZDA,053559.00,28,05,2025,00,00*7D
$GNGBS,053559.00,3.4,8.5,17.3,,,,*6F
$GNTXT,01,01,01,More than 100 frame errors, UART RX was disabled*70
b0XP;?!:!
!(.#W6
F{4V_:R 
Y
oDYEqFI#,NlJOOPKS
T4U|bPU
WI$GNRMC,053600.00,A,0419.89426,S,05539.63678,E,0.108,,280525,,,A*79
$GNVTG,,T,,M,0.108,N,0.201,K,A*37
$GNGNS,053600.00,0419.89426,S,05539.63678,E,AA,14,0.94,19.2,-47.6,,*64
$GNGGA,053600.00,0419.89426,S,05539.63678,E,1,12,0.94,19.2,M,-47.6,M,,*48
$GNGSA,A,3,24,05,20,15,12,18,29,25,23,,,,1.69,0.94,1.41*19
$GNGSA,A,3,80,83,84,73,85,,,,,,,,1.69,0.94,1.41*1D
$GPGSV,5,1,17,05,59,063,23,11,01,030,,12,58,024,21,13,15,130,*7B
$GPGSV,5,2,17,15,33,163,25,18,33,262,21,20,26,040,15,22,02,137,*72
$GPGSV,5,3,17,23,24,206,20,24,46,198,31,25,35,343,20,29,10,326,16*73
$GPGSV,5,4,17,36,52,277,,40,86,351,,41,58,082,,49,32,274,*7C
$GPGSV,5,5,17,50,10,089,*4A
$GLGSV,3,1,10,68,16,089,,69,27,140,06,70,06,201,,73,44,334,35*63
$GLGSV,3,2,10,74,00,335,,79,20,153,,80,75,145,12,83,10,001,17*6C
$GLGSV,3,3,10,84,25,308,17,85,12,258,09*6A
$GNGLL,0419.89426,S,05539.63678,E,053600.00,A,A*61
$GNGRS,053600.00,1,-2.7,-4.8,32.5,9.0,-1.2,-0.8,-2.8,3.1,7.8,,,*6B
$GNGRS,053600.00,1,-5.4,6.7,9.9,-1.5,15.4,,,,,,,*4A
$GNGST,053600.00,3299352,,,,3.4,8.6,17*5D
$GNZDA,053600.00,28,05,2025,00,00*72
$GNGBS,053600.00,3.4,8.6,17.2,,,,*62
$GNTXT,01,01,01,More than 100 frame errors, UART RX was disabled*70
b0X8;?:!
!(p.*#W.
F{4V_:R 
Y
oDYE/FI%,NjJOOPKS
T4Umb8U
ZIs$GNRMC,053601.00,A,0419.89428,S,05539.63689,E,0.143,,280525,,,A*77
$GNVTG,,T,,M,0.143,N,0.265,K,A*3A
$GNGNS,053601.00,0419.89428,S,05539.63689,E,AA,14,0.94,18.0,-47.6,,*66
$GNGGA,053601.00,0419.89428,S,05539.63689,E,1,12,0.94,18.0,M,-47.6,M,,*4A
$GNGSA,A,3,24,05,20,15,12,18,29,25,23,,,,1.69,0.94,1.41*19
$GNGSA,A,3,80,83,84,73,85,,,,,,,,1.69,0.94,1.41*1D
$GPGSV,5,1,17,05,59,063,21,11,01,030,,12,58,024,22,13,15,130,*7A
$GPGSV,5,2,17,15,33,163,26,18,33,262,21,20,26,040,17,22,02,137,*73
$GPGSV,5,3,17,23,24,206,20,24,46,198,31,25,35,343,19,29,10,326,17*78
$GPGSV,5,4,17,36,52,277,,40,86,351,,41,58,082,,49,32,274,*7C
$GPGSV,5,5,17,50,10,089,*4A
$GLGSV,3,1,10,68,16,089,,69,27,140,06,70,06,201,,73,44,334,37*61
$GLGSV,3,2,10,74,00,335,,79,20,153,,80,75,145,12,83,10,001,17*6C
$GLGSV,3,3,10,84,25,308,16,85,12,258,15*66
$GNGLL,0419.89428,S,05539.63689,E,053601.00,A,A*60
$GNGRS,053601.00,1,-2.1,-2.3,30.7,10.5,-0.9,-0.3,-3.2,3.0,6.2,,,*5C
$GNGRS,053601.00,1,-5.3,3.8,10.2,-1.5,14.9,,,,,,,*79
$GNGST,053601.00,3299427,,,,3.4,8.7,17*58
$GNZDA,053601.00,28,05,2025,00,00*73
$GNGBS,053601.00,3.4,8.7,17.2,,,,*62
$GNTXT,01,01,01,More than 100 frame errors, UART RX was disabled*70
b0X ;?:!
!4(K .%#W
F{4V_:R 
Y
oDYEFI#,NHJOOPK^S
T4Uyb U
^IL$GNRMC,053602.00,A,0419.89427,S,05539.63710,E,0.070,,280525,,,A*7B
$GNVTG,,T,,M,0.070,N,0.130,K,A*38
$GNGNS,053602.00,0419.89427,S,05539.63710,E,AA,14,0.94,17.4,-47.6,,*60
$GNGGA,053602.00,0419.89427,S,05539.63710,E,1,12,0.94,17.4,M,-47.6,M,,*4C
$GNGSA,A,3,24,05,20,15,12,18,29,25,23,,,,1.69,0.94,1.41*19
$GNGSA,A,3,80,83,84,73,85,,,,,,,,1.69,0.94,1.41*1D
$GPGSV,5,1,17,05,59,063,20,11,01,030,,12,58,024,20,13,15,130,*79
$GPGSV,5,2,17,15,33,163,25,18,33,262,22,20,26,040,18,22,02,137,*7C
$GPGSV,5,3,17,23,24,206,21,24,46,198,32,25,35,343,19,29,10,326,17*7A
$GPGSV,5,4,17,36,52,277,,40,86,351,,41,58,082,,49,32,274,*7C
$GPGSV,5,5,17,50,10,089,*4A
$GLGSV,3,1,10,68,16,089,,69,27,140,06,70,06,201,,73,44,334,35*63
$GLGSV,3,2,10,74,00,335,,79,20,153,,80,75,145,12,83,10,001,17*6C
$GLGSV,3,3,10,84,25,308,16,85,12,258,13*60
$GNGLL,0419.89427,S,05539.63710,E,053602.00,A,A*6D
$GNGRS,053602.00,1,-2.2,-0.1,28.9,7.7,-0.4,-2.0,-6.1,4.9,4.1,,,*6A
$GNGRS,053602.00,1,41.9,1.8,12.2,-1.8,-0.7,,,,,,,*76
$GNGST,053602.00,61,,,,3.4,8.7,17*6C
$GNZDA,053602.00,28,05,2025,00,00*70
$GNGBS,053602.00,3.4,8.7,17.1,,,,*62
$GNTXT,01,01,01,More than 100 frame errors, UART RX was disabled*70
b0X;?:!
!v('.(#W
F{4V_:R 
Y
oDYEqFI ,NLJOOPKS
xT4XU
8bU
bI$$GNRMC,053603.00,A,0419.89428,S,05539.63729,E,0.432,,280525,,,A*7D
$GNVTG,,T,,M,0.432,N,0.800,K,A*30
$GNGNS,053603.00,0419.89428,S,05539.63729,E,AA,14,0.94,17.2,-47.6,,*62
$GNGGA,053603.00,0419.89428,S,05539.63729,E,1,12,0.94,17.2,M,-47.6,M,,*4E
$GNGSA,A,3,24,05,20,15,12,18,29,25,23,,,,1.69,0.94,1.41*19
$GNGSA,A,3,80,83,84,73,85,,,,,,,,1.69,0.94,1.41*1D
$GPGSV,5,1,17,05,59,063,21,11,01,030,,12,58,024,20,13,15,130,*78
$GPGSV,5,2,17,15,33,163,25,18,33,262,21,20,26,040,19,22,02,137,*7E
$GPGSV,5,3,17,23,24,206,21,24,46,198,31,25,35,343,19,29,10,326,16*78
$GPGSV,5,4,17,36,52,277,,40,86,351,,41,58,082,,49,32,274,*7C
$GPGSV,5,5,17,50,10,089,*4A
$GLGSV,3,1,10,68,16,089,,69,27,140,06,70,06,201,,73,44,334,32*64
$GLGSV,3,2,10,74,00,335,,79,20,153,,80,75,145,15,83,10,001,17*6B
$GLGSV,3,3,10,84,25,308,13,85,12,258,10*66
$GNGLL,0419.89428,S,05539.63729,E,053603.00,A,A*69
$GNGRS,053603.00,1,-2.2,1.5,28.5,7.5,2.6,-1.4,-6.0,2.3,4.6,,,*6D
$GNGRS,053603.00,1,-5.8,1.2,11.1,-1.8,15.9,,,,,,,*76
$GNGST,053603.00,3304176,,,,3.4,8.8,17*51
$GNZDA,053603.00,28,05,2025,00,00*71
$GNGBS,053603.00,3.4,8.8,17.1,,,,*6C
$GNTXT,01,01,01,More than 100 frame errors, UART RX was disabled*70
b0X;?:!
!(I).#W|
F{4V_:R 
Y
oDYEZFI!,NUJOOPKS
T4
UbU
fIG$GNRMC,053604.00,A,0419.89434,S,05539.63723,E,0.463,,280525,,,A*79
$GNVTG,,T,,M,0.463,N,0.858,K,A*39
$GNGNS,053604.00,0419.89434,S,05539.63723,E,AA,14,0.94,16.4,-47.6,,*65
$GNGGA,053604.00,0419.89434,S,05539.63723,E,1,12,0.94,16.4,M,-47.6,M,,*49
$GNGSA,A,3,24,05,20,15,12,18,29,25,23,,,,1.69,0.94,1.41*19
$GNGSA,A,3,80,83,84,73,85,,,,,,,,1.69,0.94,1.41*1D
$GPGSV,5,1,17,05,59,063,21,11,01,030,,12,58,024,18,13,15,130,*73
$GPGSV,5,2,17,15,33,163,25,18,33,262,21,20,26,040,18,22,02,137,*7F
$GPGSV,5,3,17,23,24,206,22,24,46,198,31,25,35,343,20,29,10,326,17*70
$GPGSV,5,4,17,36,52,277,,40,86,351,,41,58,082,,49,32,274,*7C
$GPGSV,5,5,17,50,10,089,*4A
$GLGSV,3,1,10,68,16,089,,69,27,140,06,70,06,201,,73,44,334,33*65
$GLGSV,3,2,10,74,00,335,,79,20,153,,80,75,145,16,83,10,001,16*69
$GLGSV,3,3,10,84,25,308,12,85,12,258,07*61
$GNGLL,0419.89434,S,05539.63723,E,053604.00,A,A*69
$GNGRS,053604.00,1,-2.4,2.0,28.9,7.3,2.5,-2.8,-5.7,3.8,3.0,,,*63
$GNGRS,053604.00,1,-5.6,-0.7,7.8,-1.7,15.6,,,,,,,*68
$GNGST,053604.00,4665903,,,,3.4,8.9,17*58
$GNZDA,053604.00,28,05,2025,00,00*76
$GNGBS,053604.00,3.4,8.9,17.1,,,,*6A
$GNTXT,01,01,01,More than 100 frame errors, UART RX was disabled*70
b0X;?C:!D
!L( .#W
F{4V_:R 
Y
oDYEJFI$,NYJOOPKS
T4UVbU
jI$GNRMC,053605.00,A,0419.89442,S,05539.63715,E,0.422,,280525,,,A*79
$GNVTG,,T,,M,0.422,N,0.782,K,A*34
$GNGNS,053605.00,0419.89442,S,05539.63715,E,AA,15,0.94,17.1,-47.6,,*65
$GNGGA,053605.00,0419.89442,S,05539.63715,E,1,12,0.94,17.1,M,-47.6,M,,*48
$GNGSA,A,3,24,05,20,15,12,18,29,25,23,,,,1.69,0.94,1.41*19
$GNGSA,A,3,80,83,84,69,73,85,,,,,,,1.69,0.94,1.41*12
$GPGSV,5,1,17,05,59,063,23,11,01,030,,12,58,024,15,13,15,130,*7C
$GPGSV,5,2,17,15,33,163,25,18,33,262,20,20,26,040,17,22,02,137,*71
$GPGSV,5,3,17,23,24,206,22,24,46,198,32,25,35,343,21,29,10,326,14*71
$GPGSV,5,4,17,36,52,277,,40,86,351,,41,58,082,,49,32,274,*7C
$GPGSV,5,5,17,50,10,089,*4A
$GLGSV,3,1,10,68,16,089,,69,27,140,11,70,06,201,,73,44,334,36*66
$GLGSV,3,2,10,74,00,335,,79,20,153,,80,75,145,15,83,10,001,18*64
$GLGSV,3,3,10,84,25,308,13,85,12,258,14*62
$GNGLL,0419.89442,S,05539.63715,E,053605.00,A,A*6C
$GNGRS,053605.00,1,1.7,3.2,29.7,5.8,2.2,-1.8,-5.3,3.9,3.9,,,*42
$GNGRS,053605.00,1,-6.0,0.3,7.4,31.5,-1.7,-29.0,,,,,,*74
$GNGST,053605.00,63,,,,3.3,8.9,17*60
$GNZDA,053605.00,28,05,2025,00,00*77
$GNGBS,053605.00,3.3,8.9,17.1,,,,*6C
$GNTXT,01,01,01,More than 100 frame errors, UART RX was disabled*70
b0X;?8:K!
!(
I.#W
FM{4V_:R 
Y
oDYEjFI%,NgJOOPKfS
T4U(bU
snI$GNRMC,053606.00,A,0419.89447,S,05539.63720,E,0.160,,280525,,,A*7A
$GNVTG,,T,,M,0.160,N,0.296,K,A*37
$GNGNS,053606.00,0419.89447,S,05539.63720,E,AA,15,0.80,16.4,-47.6,,*64
$GNGGA,053606.00,0419.89447,S,05539.63720,E,1,12,0.80,16.4,M,-47.6,M,,*49
$GNGSA,A,3,24,05,20,15,12,18,29,25,23,,,,1.48,0.80,1.25*1D
$GNGSA,A,3,80,83,84,69,73,85,,,,,,,1.48,0.80,1.25*16
$GPGSV,5,1,17,05,59,063,23,11,01,030,,12,58,024,14,13,15,130,*7D
$GPGSV,5,2,17,15,33,163,26,18,33,262,21,20,26,040,15,22,02,137,*71
$GPGSV,5,3,17,23,24,206,24,24,46,198,31,25,35,343,21,29,10,326,14*74
$GPGSV,5,4,17,36,52,277,,40,86,351,,41,58,082,,49,32,274,*7C
$GPGSV,5,5,17,50,10,089,*4A
$GLGSV,3,1,10,68,16,089,,69,27,140,11,70,06,201,,73,44,334,37*67
$GLGSV,3,2,10,74,00,335,,79,20,153,,80,75,145,18,83,10,001,16*67
$GLGSV,3,3,10,84,25,308,11,85,12,258,11*65
$GNGLL,0419.89447,S,05539.63720,E,053606.00,A,A*6C
$GNGRS,053606.00,1,-0.2,3.1,27.2,4.8,0.7,-2.9,-6.9,3.9,3.3,,,*67
$GNGRS,053606.00,1,-6.7,-1.3,7.8,3.6,-1.5,15.6,,,,,,*44
$GNGST,053606.00,4496890,,,,3.3,9.0,17*50
$GNZDA,053606.00,28,05,2025,00,00*74
$GNGBS,053606.00,3.3,9.0,17.1,,,,*67
$GNTXT,01,01,01,More than 100 frame errors, UART RX was disabled*70
b0X;?:l!
!(
.#WC
F{4V_:R 
Y
oDYE8FI$,NsJOOPKS
T4?U<ObU
[rI$GNRMC,053607.00,A,0419.89445,S,05539.63736,E,0.239,,280525,,,A*71
$GNVTG,,T,,M,0.239,N,0.442,K,A*37
$GNGNS,053607.00,0419.89445,S,05539.63736,E,AA,15,0.80,16.4,-47.6,,*60
$GNGGA,053607.00,0419.89445,S,05539.63736,E,1,12,0.80,16.4,M,-47.6,M,,*4D
$GNGSA,A,3,24,05,20,15,12,18,29,25,23,,,,1.48,0.80,1.25*1D
$GNGSA,A,3,80,83,84,69,73,85,,,,,,,1.48,0.80,1.25*16
$GPGSV,5,1,17,05,59,063,22,11,01,030,,12,58,024,15,13,15,130,*7D
$GPGSV,5,2,17,15,33,163,26,18,33,262,22,20,26,040,12,22,02,137,*75
$GPGSV,5,3,17,23,24,206,23,24,46,198,30,25,35,343,22,29,10,326,16*73
$GPGSV,5,4,17,36,52,277,,40,86,351,,41,58,082,,49,32,274,*7C
$GPGSV,5,5,17,50,10,089,*4A
$GLGSV,3,1,10,68,16,089,,69,27,140,15,70,06,201,,73,44,334,36*62
$GLGSV,3,2,10,74,00,335,,79,20,153,,80,75,145,19,83,10,001,16*66
$GLGSV,3,3,10,84,25,308,16,85,12,258,14*67
$GNGLL,0419.89445,S,05539.63736,E,053607.00,A,A*68
$GNGRS,053607.00,1,1.9,2.0,27.2,2.0,3.6,-3.8,-6.1,5.8,4.5,,,*43
$GNGRS,053607.00,1,-6.2,-3.3,8.3,3.1,-1.4,16.0,,,,,,*45
$GNGST,053607.00,4496890,,,,3.3,8.9,17*59
$GNZDA,053607.00,28,05,2025,00,00*75
$GNGBS,053607.00,3.3,8.9,17.1,,,,*6E
$GNTXT,01,01,01,More than 100 frame errors, UART RX was disabled*70
b0X;?:!
!(
 .#W
F{4V_:R 
Y
oDYE`FI$,NRJOOPKS
XT4U
bU
CvI[$GNRMC,053608.00,A,0419.89443,S,05539.63744,E,0.122,,280525,,,A*74
$GNVTG,,T,,M,0.122,N,0.225,K,A*39
$GNGNS,053608.00,0419.89443,S,05539.63744,E,AA,15,0.80,16.7,-47.6,,*6F
$GNGGA,053608.00,0419.89443,S,05539.63744,E,1,12,0.80,16.7,M,-47.6,M,,*42
$GNGSA,A,3,24,05,20,15,12,18,29,25,23,,,,1.48,0.80,1.25*1D
$GNGSA,A,3,80,83,84,69,73,85,,,,,,,1.48,0.80,1.25*16
$GPGSV,5,1,17,05,59,063,20,11,01,030,,12,58,024,15,13,15,130,*7F
$GPGSV,5,2,17,15,33,163,25,18,33,262,23,20,26,040,11,22,02,137,*74
$GPGSV,5,3,17,23,24,206,22,24,46,198,32,25,35,343,22,29,10,326,16*70
$GPGSV,5,4,17,36,52,277,,40,86,351,,41,58,082,,49,32,274,*7C
$GPGSV,5,5,17,50,10,089,*4A
$GLGSV,3,1,10,68,16,089,,69,27,140,15,70,06,201,,73,44,334,36*62
$GLGSV,3,2,10,74,00,335,,79,20,153,,80,75,145,18,83,10,001,15*64
$GLGSV,3,3,10,84,25,308,12,85,12,258,10*67
$GNGLL,0419.89443,S,05539.63744,E,053608.00,A,A*64
$GNGRS,053608.00,1,-0.2,2.4,27.3,1.4,5.1,-3.4,-5.1,4.5,2.2,,,*6A
$GNGRS,053608.00,1,-6.4,-4.2,11.7,-6.7,-1.7,-23.0,,,,,,*70
$GNGST,053608.00,66,,,,3.3,8.9,17*68
$GNZDA,053608.00,28,05,2025,00,00*7A
$GNGBS,053608.00,3.3,8.9,17.1,,,,*61
$GNTXT,01,01,01,More than 100 frame errors, UART RX was disabled*70
b0Xx;?:!
!~(6
2 .r#Wr
F{4V_:R 
Y
oDYEFI$,NQJOOPKS
xT4UP`bxU
+zI3O$GNRMC,053609.00,A,0419.89445,S,05539.63746,E,0.107,,280525,,,A*76
$GNVTG,,T,,M,0.107,N,0.198,K,A*3B
$GNGNS,053609.00,0419.89445,S,05539.63746,E,AA,15,0.80,17.5,-47.6,,*69
$GNGGA,053609.00,0419.89445,S,05539.63746,E,1,12,0.80,17.5,M,-47.6,M,,*44
$GNGSA,A,3,24,05,20,15,12,18,29,25,23,,,,1.48,0.80,1.25*1D
$GNGSA,A,3,80,83,84,69,73,85,,,,,,,1.48,0.80,1.25*16
$GPGSV,5,1,17,05,59,063,21,11,01,030,,12,58,024,13,13,15,130,*78
$GPGSV,5,2,17,15,33,163,25,18,33,262,24,20,26,040,13,22,02,137,*71
$GPGSV,5,3,17,23,24,206,22,24,46,198,32,25,35,343,23,29,10,326,17*70
$GPGSV,5,4,17,36,52,277,,40,86,351,,41,58,082,,49,32,274,*7C
$GPGSV,5,5,17,50,10,089,*4A
$GLGSV,3,1,10,68,16,089,,69,27,140,15,70,06,201,,73,44,334,36*62
$GLGSV,3,2,10,74,00,335,,79,20,153,,80,75,145,17,83,10,001,15*6B
$GLGSV,3,3,10,84,25,308,15,85,12,258,11*61
$GNGLL,0419.89445,S,05539.63746,E,053609.00,A,A*61
$GNGRS,053609.00,1,-1.4,2.5,26.1,1.8,2.1,-1.3,-5.6,3.7,0.5,,,*67
$GNGRS,053609.00,1,-3.7,-3.9,7.6,4.0,-1.8,16.2,,,,,,*43
$GNGST,053609.00,3181092,,,,3.3,8.8,17*58
$GNZDA,053609.00,28,05,2025,00,00*7B
$GNGBS,053609.00,3.3,8.8,17.0,,,,*60
$GNTXT,01,01,01,More than 100 frame errors, UART RX was disabled*70
b0X`;?:!U
!e( .I#WZ
F{4V_:R 
Y
oDYEpFI$,N/JOOPKIS
}T4Uyb`U
~I$GNRMC,053610.00,A,0419.89445,S,05539.63763,E,0.456,,280525,,,A*78
$GNVTG,,T,,M,0.456,N,0.844,K,A*32
$GNGNS,053610.00,0419.89445,S,05539.63763,E,AA,15,0.80,18.0,-47.6,,*6C
$GNGGA,053610.00,0419.89445,S,05539.63763,E,1,12,0.80,18.0,M,-47.6,M,,*41
$GNGSA,A,3,24,05,20,15,12,18,29,25,23,,,,1.48,0.80,1.25*1D
$GNGSA,A,3,80,83,84,69,73,85,,,,,,,1.48,0.80,1.25*16
$GPGSV,5,1,17,05,59,063,23,11,01,030,,12,58,024,15,13,15,130,*7C
$GPGSV,5,2,17,15,33,163,25,18,33,262,24,20,26,040,15,22,02,137,*77
$GPGSV,5,3,17,23,24,206,25,24,46,198,32,25,35,343,25,29,10,326,17*71
$GPGSV,5,4,17,36,52,277,,40,86,351,,41,58,082,,49,32,274,*7C
$GPGSV,5,5,17,50,10,089,*4A
$GLGSV,3,1,10,68,16,089,,69,27,140,15,70,06,201,,73,44,334,36*62
$GLGSV,3,2,10,74,00,335,,79,20,153,,80,75,145,17,83,10,001,16*68
$GLGSV,3,3,10,84,25,308,16,85,12,258,12*61
$GNGLL,0419.89445,S,05539.63763,E,053610.00,A,A*6E
$GNGRS,053610.00,1,0.7,2.5,24.3,0.8,1.5,1.0,-5.5,0.9,-0.9,,,*47
$GNGRS,053610.00,1,-1.8,-1.3,7.7,3.7,-2.1,16.6,,,,,,*41
$GNGST,053610.00,3183360,,,,3.2,8.7,17*52
$GNZDA,053610.00,28,05,2025,00,00*73
$GNGBS,053610.00,3.2,8.7,16.9,,,,*6E
$GNTXT,01,01,01,More than 100 frame errors, UART RX was disabled*70
b0XH#;?:!
!=(_E.#W
F{4V_:R 
Y
oDYESFI%,N)JOOPKS
uT4)U5rbH#U
I$GNRMC,053611.00,A,0419.89446,S,05539.63770,E,0.160,,280525,,,A*78
$GNVTG,,T,,M,0.160,N,0.296,K,A*37
$GNGNS,053611.00,0419.89446,S,05539.63770,E,AA,15,0.80,18.1,-47.6,,*6D
$GNGGA,053611.00,0419.89446,S,05539.63770,E,1,12,0.80,18.1,M,-47.6,M,,*40
$GNGSA,A,3,24,05,20,15,12,18,29,25,23,,,,1.48,0.80,1.25*1D
$GNGSA,A,3,80,83,84,69,73,85,,,,,,,1.48,0.80,1.25*16
$GPGSV,5,1,17,05,59,063,22,11,01,030,,12,58,024,17,13,15,130,*7F
$GPGSV,5,2,17,15,33,163,24,18,33,262,23,20,26,040,14,22,02,137,*70
$GPGSV,5,3,17,23,24,206,26,24,46,198,31,25,35,343,27,29,10,326,17*73
$GPGSV,5,4,17,36,52,277,,40,86,351,,41,58,082,,49,32,274,*7C
$GPGSV,5,5,17,50,10,089,*4A
$GLGSV,3,1,10,68,16,089,,69,27,140,13,70,06,201,,73,44,334,37*65
$GLGSV,3,2,10,74,00,335,,79,20,153,,80,75,145,14,83,10,001,18*65
$GLGSV,3,3,10,84,25,308,12,85,12,258,11*66
$GNGLL,0419.89446,S,05539.63770,E,053611.00,A,A*6E
$GNGRS,053611.00,1,-3.1,2.4,24.0,1.3,-0.2,0.6,-5.7,1.3,-1.9,,,*42
$GNGRS,053611.00,1,-0.4,-1.4,8.1,-6.9,-2.1,3.1,,,,,,*56
$GNGST,053611.00,67,,,,3.2,8.7,17*6E
$GNZDA,053611.00,28,05,2025,00,00*72
$GNGBS,053611.00,3.2,8.7,16.7,,,,*61
$GNTXT,01,01,01,More than 100 frame errors, UART RX was disabled*70
b0X0';?Q:!
!(".#WJ
F*{4V_:R 
Y
oDYEFI%,N-JOOPK&S
dT4Ub0'U
I$GNRMC,053612.00,A,0419.89448,S,05539.63759,E,0.502,,280525,,,A*7E
$GNVTG,,T,,M,0.502,N,0.929,K,A*38
$GNGNS,053612.00,0419.89448,S,05539.63759,E,AA,15,0.80,18.1,-47.6,,*6B
$GNGGA,053612.00,0419.89448,S,05539.63759,E,1,12,0.80,18.1,M,-47.6,M,,*46
$GNGSA,A,3,24,05,20,15,12,18,29,25,23,,,,1.48,0.80,1.25*1D
$GNGSA,A,3,80,83,84,69,73,85,,,,,,,1.48,0.80,1.25*16
$GPGSV,5,1,17,05,59,063,23,11,01,030,,12,58,024,17,13,15,130,*7E
$GPGSV,5,2,17,15,33,163,26,18,33,262,23,20,26,040,13,22,02,137,*75
$GPGSV,5,3,17,23,24,206,25,24,46,198,30,25,35,343,28,29,10,326,15*7C
$GPGSV,5,4,17,36,52,277,,40,86,351,,41,58,082,,49,32,274,*7C
$GPGSV,5,5,17,50,10,089,*4A
$GLGSV,3,1,10,68,16,089,,69,27,140,13,70,06,201,,73,44,334,37*65
$GLGSV,3,2,10,74,00,335,,79,20,153,,80,75,145,12,83,10,001,18*63
$GLGSV,3,3,10,84,25,308,11,85,12,258,07*62
$GNGLL,0419.89448,S,05539.63759,E,053612.00,A,A*68
$GNGRS,053612.00,1,0.1,3.4,23.4,-0.4,-0.1,2.1,-7.3,3.3,-2.5,,,*4B
$GNGRS,053612.00,1,-7.3,1.0,7.3,4.1,-2.1,15.5,,,,,,*65
$GNGST,053612.00,187234,,,,3.2,8.7,17*67
$GNZDA,053612.00,28,05,2025,00,00*71
$GNGBS,053612.00,3.2,8.7,16.7,,,,*62
$GNTXT,01,01,01,More than 100 frame errors, UART RX was disabled*70
b0X+;?:!
! ( ._#W
F{4V_:R 
Y
oDYEFI$,N7JOOPKwS
T4UCb+U
I$GNRMC,053613.00,A,0419.89447,S,05539.63765,E,0.147,,280525,,,A*7A
$GNVTG,,T,,M,0.147,N,0.272,K,A*38
$GNGNS,053613.00,0419.89447,S,05539.63765,E,AA,15,0.80,17.9,-47.6,,*6D
$GNGGA,053613.00,0419.89447,S,05539.63765,E,1,12,0.80,17.9,M,-47.6,M,,*40
$GNGSA,A,3,24,05,20,15,12,18,29,25,23,,,,1.48,0.80,1.25*1D
$GNGSA,A,3,80,83,84,69,73,85,,,,,,,1.48,0.80,1.25*16
$GPGSV,5,1,17,05,59,063,23,11,01,030,,12,58,024,18,13,15,130,*71
$GPGSV,5,2,17,15,33,163,26,18,33,262,24,20,26,040,12,22,02,137,*73
$GPGSV,5,3,17,23,24,206,25,24,46,198,32,25,35,343,27,29,10,326,15*71
$GPGSV,5,4,17,36,52,277,,40,86,351,,41,58,082,,49,32,274,*7C
$GPGSV,5,5,17,50,10,089,*4A
$GLGSV,3,1,10,68,16,089,,69,27,140,12,70,06,201,,73,44,334,36*65
$GLGSV,3,2,10,74,00,335,,79,20,153,,80,75,145,17,83,10,001,18*66
$GLGSV,3,3,10,84,25,308,15,85,12,258,11*61
$GNGLL,0419.89447,S,05539.63765,E,053613.00,A,A*69
$GNGRS,053613.00,1,-1.6,2.2,25.2,-2.5,-0.8,2.9,-4.9,-1.2,-2.5,,,*43
$GNGRS,053613.00,1,-6.5,-0.3,7.3,3.8,-2.0,15.4,,,,,,*42
$GNGST,053613.00,3183987,,,,3.2,8.7,17*52
$GNZDA,053613.00,28,05,2025,00,00*70
$GNGBS,053613.00,3.2,8.7,16.6,,,,*62
$GNTXT,01,01,01,More than 100 frame errors, UART RX was disabled*70
b0X/;?:!
!k
(!.#W_
F{4V_:R 
Y
oDYEpFI%,N2JOOPKS
T4U;b/U
IjT$GNRMC,053614.00,A,0419.89448,S,05539.63764,E,0.187,,280525,,,A*7F
$GNVTG,,T,,M,0.187,N,0.346,K,A*32
$GNGNS,053614.00,0419.89448,S,05539.63764,E,AA,15,0.80,17.8,-47.6,,*65
$GNGGA,053614.00,0419.89448,S,05539.63764,E,1,12,0.80,17.8,M,-47.6,M,,*48
$GNGSA,A,3,24,05,20,15,12,18,29,25,23,,,,1.48,0.80,1.25*1D
$GNGSA,A,3,80,83,84,69,73,85,,,,,,,1.48,0.80,1.25*16
$GPGSV,5,1,17,05,59,063,23,11,01,030,,12,58,024,19,13,15,130,*70
$GPGSV,5,2,17,15,33,163,26,18,33,262,25,20,26,040,10,22,02,137,*70
$GPGSV,5,3,17,23,24,206,24,24,46,198,33,25,35,343,26,29,10,326,12*77
$GPGSV,5,4,17,36,52,277,,40,86,351,,41,58,082,,49,32,274,*7C
$GPGSV,5,5,17,50,10,089,*4A
$GLGSV,3,1,10,68,16,089,,69,27,140,11,70,06,201,,73,44,334,37*67
$GLGSV,3,2,10,74,00,335,,79,20,153,,80,75,145,20,83,10,001,16*6C
$GLGSV,3,3,10,84,25,308,13,85,12,258,11*67
$GNGLL,0419.89448,S,05539.63764,E,053614.00,A,A*60
$GNGRS,053614.00,1,-0.4,1.7,25.0,-1.2,-1.1,3.6,-7.8,-1.6,-2.4,,,*46
$GNGRS,053614.00,1,-6.0,2.0,-0.5,-4.0,-2.1,47.7,,,,,,*67
$GNGST,053614.00,67,,,,3.1,8.7,17*68
$GNZDA,053614.00,28,05,2025,00,00*77
$GNGBS,053614.00,3.1,8.7,16.6,,,,*66
$GNTXT,01,01,01,More than 100 frame errors, UART RX was disabled*70
b0X2;?:{!
!(-e!.#W
F{4V_:R 
Y
oDYEzFI%,N;JOOPKiS
T4U }b2U
IA$GNRMC,053615.00,A,0419.89451,S,05539.63775,E,0.431,,280525,,,A*7E
$GNVTG,,T,,M,0.431,N,0.799,K,A*3C
$GNGNS,053615.00,0419.89451,S,05539.63775,E,AA,14,0.80,17.9,-47.6,,*6C
$GNGGA,053615.00,0419.89451,S,05539.63775,E,1,12,0.80,17.9,M,-47.6,M,,*40
$GNGSA,A,3,24,05,15,12,18,29,25,23,,,,,1.48,0.80,1.25*1F
$GNGSA,A,3,80,83,84,69,73,85,,,,,,,1.48,0.80,1.25*16
$GPGSV,5,1,17,05,59,063,24,11,01,030,,12,58,024,20,13,15,130,*7D
$GPGSV,5,2,17,15,33,163,26,18,33,262,23,20,26,040,09,22,02,137,*7E
$GPGSV,5,3,17,23,24,206,24,24,46,198,33,25,35,343,26,29,10,326,12*77
$GPGSV,5,4,17,36,52,277,,40,86,351,,41,58,082,,49,32,274,*7C
$GPGSV,5,5,17,50,10,089,*4A
$GLGSV,3,1,10,68,16,089,,69,27,140,13,70,06,201,,73,44,334,37*65
$GLGSV,3,2,10,74,00,335,,79,20,153,,80,75,145,21,83,10,001,13*68
$GLGSV,3,3,10,84,25,308,14,85,12,258,11*60
$GNGLL,0419.89451,S,05539.63775,E,053615.00,A,A*69
$GNGRS,053615.00,1,1.8,1.7,-0.5,-1.3,4.7,-11.4,-1.1,1.0,,,,*6A
$GNGRS,053615.00,1,-4.1,4.1,7.4,3.8,-2.0,15.7,,,,,,*6D
$GNGST,053615.00,3181546,,,,3.1,8.7,17*54
$GNZDA,053615.00,28,05,2025,00,00*76
$GNGBS,053615.00,3.1,8.7,16.6,,,,*67
$GNTXT,01,01,01,More than 100 frame errors, UART RX was disabled*70
b0X6;?:!/
!
(&!.#W
F<{4V_:R 
Y
oDYEiFI%,NXJOOPKS
OT4U#b6U
I$GNRMC,053616.00,A,0419.89453,S,05539.63781,E,0.334,,280525,,,A*76
$GNVTG,,T,,M,0.334,N,0.618,K,A*36
$GNGNS,053616.00,0419.89453,S,05539.63781,E,AA,14,0.80,18.1,-47.6,,*61
