b0XP] H'
!/0
)?q!#-?+%3BJ*S"E x#{&$$'AFG#4H oLM
 N
*'OOSVCW"8X& "bP]ao,|#$GNRMC,112832.00,A,4357.34083,N,00501.68174,E,0.025,,130525,,,D*66
$GNVTG,,T,,M,0.025,N,0.046,K,D*3D
$GNGNS,112832.00,4357.34083,N,00501.68174,E,DA,13,0.89,61.0,47.7,,0000*57
$GNGGA,112832.00,4357.34083,N,00501.68174,E,2,12,0.89,61.0,M,47.7,M,,0000*7A
$GNGSA,A,3,27,16,23,26,10,18,08,02,,,,,1.60,0.89,1.33*1E
$GNGSA,A,3,87,78,86,71,72,,,,,,,,1.60,0.89,1.33*16
$GPGSV,4,1,15,01,04,246,23,02,32,260,29,07,08,295,,08,47,304,33*7D
$GPGSV,4,2,15,10,63,113,41,15,05,033,,16,45,187,35,18,11,063,22*7A
$GPGSV,4,3,15,23,37,051,43,26,19,176,27,27,83,027,42,30,02,325,*7D
$GPGSV,4,4,15,32,04,133,,36,36,154,38,49,39,180,36*49
$GLGSV,3,1,12,65,03,159,,70,04,013,,71,29,052,35,72,30,111,32*62
$GLGSV,3,2,12,76,00,185,,77,32,216,10,78,42,295,10,79,09,339,*67
$GLGSV,3,3,12,86,19,067,31,87,56,029,34,88,38,288,,,,,34*5D
$GNGLL,4357.34083,N,00501.68174,E,112832.00,A,D*78
$GNGRS,112832.00,1,-2.2,2.5,-1.9,3.3,2.0,-10.1,-1.2,-1.8,,,,*41
$GNGRS,112832.00,1,7.0,49.4,2.8,-3.5,-13.6,,,,,,,*73
$GNGST,112832.00,24,,,,2.0,2.1,3.8*4E
$GNZDA,112832.00,13,05,2025,00,00*71
$GNGBS,112832.00,2.0,2.1,3.8,,,,*5E
b0X8a O'
00
"?q!-?"%3l"SE x#{"$'AFG4IHoLM N*'?OSVCoW8X& !b8aao#$GNRMC,112833.00,A,4357.34083,N,00501.68173,E,0.076,,130525,,,D*66
$GNVTG,,T,,M,0.076,N,0.141,K,D*3D
$GNGNS,112833.00,4357.34083,N,00501.68173,E,DA,13,0.81,61.0,47.7,,0000*59
$GNGGA,112833.00,4357.34083,N,00501.68173,E,2,12,0.81,61.0,M,47.7,M,,0000*74
$GNGSA,A,3,27,16,23,26,10,18,08,02,,,,,1.55,0.81,1.32*11
$GNGSA,A,3,87,78,86,71,72,,,,,,,,1.55,0.81,1.32*19
$GPGSV,4,1,15,01,04,246,21,02,32,260,29,07,08,295,,08,48,304,28*7A
$GPGSV,4,2,15,10,63,113,34,15,05,033,,16,45,187,29,18,11,063,21*76
$GPGSV,4,3,15,23,37,051,34,26,19,176,25,27,83,027,34,30,02,325,*7E
$GPGSV,4,4,15,32,04,133,,36,36,154,34,49,39,180,30*43
$GLGSV,3,1,12,65,03,159,,70,04,013,,71,29,052,31,72,30,111,24*61
$GLGSV,3,2,12,76,00,185,,77,32,216,11,78,42,295,20,79,09,339,*65
$GLGSV,3,3,12,86,19,067,23,87,56,029,30,88,38,288,19,,,,33*55
$GNGLL,4357.34083,N,00501.68173,E,112833.00,A,D*7E
$GNGRS,112833.00,1,-2.4,4.2,-0.6,1.1,1.7,-7.4,-0.9,3.4,,,,*57
$GNGRS,112833.00,1,1.4,-1.9,1.1,-4.4,-18.0,,,,,,,*6D
$GNGST,112833.00,3299292,,,,2.0,2.1,3.9*70
$GNZDA,112833.00,13,05,2025,00,00*70
$GNGBS,112833.00,2.0,2.1,3.9,,,,*5E
b0X e '
00-
&?q!"-"?"%3=!SE x#{%$'AFG4Ho
LM N*'OSVCW8}X& db eao#u$GNRMC,112834.00,A,4357.34079,N,00501.68174,E,0.023,,130525,,,D*63
$GNVTG,,T,,M,0.023,N,0.044,K,D*39
$GNGNS,112834.00,4357.34079,N,00501.68174,E,DA,13,0.86,61.0,47.7,,0000*5B
$GNGGA,112834.00,4357.34079,N,00501.68174,E,2,12,0.86,61.0,M,47.7,M,,0000*76
$GNGSA,A,3,27,16,23,26,10,18,08,02,,,,,1.58,0.86,1.32*1B
$GNGSA,A,3,87,78,86,71,72,,,,,,,,1.58,0.86,1.32*13
$GPGSV,4,1,15,01,04,246,20,02,32,260,28,07,08,295,,08,48,304,28*7A
$GPGSV,4,2,15,10,63,113,38,15,05,033,,16,45,187,34,18,11,063,19*7D
$GPGSV,4,3,15,23,37,051,34,26,19,176,23,27,83,027,33,30,02,325,*7F
$GPGSV,4,4,15,32,04,133,,36,36,154,37,49,39,180,29*48
$GLGSV,3,1,12,65,03,159,,70,04,013,,71,29,052,31,72,30,111,25*60
$GLGSV,3,2,12,76,00,185,,77,32,216,21,78,42,295,18,79,09,339,*6D
$GLGSV,3,3,12,86,19,067,23,87,56,029,25,88,38,288,19,,,,29*5A
$GNGLL,4357.34079,N,00501.68174,E,112834.00,A,D*7B
$GNGRS,112834.00,1,-2.3,5.5,4.9,0.6,1.4,-5.6,-2.1,1.4,,,,*7A
$GNGRS,112834.00,1,8.9,-2.3,1.3,-7.9,-20.4,,,,,,,*64
$GNGST,112834.00,3434011,,,,2.0,2.1,3.9*7F
$GNZDA,112834.00,13,05,2025,00,00*77
$GNGBS,112834.00,2.0,2.1,3.9,,,,*59
b0Xi 9'
00
%?p!"- ?#%3CG!S-E x#{$$'AFG4HosLM N*'OSVCW8X& biao#$GNRMC,112835.00,A,4357.34077,N,00501.68174,E,0.094,,130525,,,D*60
$GNVTG,,T,,M,0.094,N,0.174,K,D*37
$GNGNS,112835.00,4357.34077,N,00501.68174,E,DA,13,0.86,61.2,47.7,,0000*56
$GNGGA,112835.00,4357.34077,N,00501.68174,E,2,12,0.86,61.2,M,47.7,M,,0000*7B
$GNGSA,A,3,27,16,23,26,10,18,08,02,,,,,1.58,0.86,1.32*1B
$GNGSA,A,3,87,78,86,71,72,,,,,,,,1.58,0.86,1.32*13
$GPGSV,4,1,15,01,04,246,18,02,32,260,27,07,08,295,,08,48,304,28*7E
$GPGSV,4,2,15,10,63,112,37,15,05,033,,16,45,187,34,18,11,063,19*73
$GPGSV,4,3,15,23,37,051,35,26,19,176,22,27,83,027,33,30,02,325,*7F
$GPGSV,4,4,15,32,04,133,,36,36,154,36,49,39,180,28*48
$GLGSV,3,1,12,65,03,159,,70,04,013,,71,29,052,31,72,30,111,25*60
$GLGSV,3,2,12,76,00,185,,77,32,216,25,78,42,295,11,79,09,339,*60
$GLGSV,3,3,12,86,19,067,23,87,56,029,27,88,38,288,17,,,,29*56
$GNGLL,4357.34077,N,00501.68174,E,112835.00,A,D*74
$GNGRS,112835.00,1,-2.1,5.4,0.7,3.3,1.3,-7.6,-3.3,-2.0,,,,*58
$GNGRS,112835.00,1,9.0,-5.2,1.6,-6.4,-21.9,,,,,,,*6E
$GNGST,112835.00,42,,,,2.1,2.1,4.0*47
$GNZDA,112835.00,13,05,2025,00,00*76
$GNGBS,112835.00,2.1,2.1,4.0,,,,*57
b0Xl d'
$00
+?p!$-?&%3*SE x#{'$$'AFG 4Ho_LM N*'ZOSVC=W!8X& "wblao#t6$GNRMC,112836.00,A,4357.34077,N,00501.68173,E,0.309,,130525,,,D*63
$GNVTG,,T,,M,0.309,N,0.571,K,D*31
$GNGNS,112836.00,4357.34077,N,00501.68173,E,DA,13,0.81,61.5,47.7,,0000*52
$GNGGA,112836.00,4357.34077,N,00501.68173,E,2,12,0.81,61.5,M,47.7,M,,0000*7F
$GNGSA,A,3,27,16,23,26,10,18,08,02,,,,,1.55,0.81,1.32*11
$GNGSA,A,3,87,78,86,71,72,,,,,,,,1.55,0.81,1.32*19
$GPGSV,4,1,15,01,04,246,18,02,32,260,28,07,08,295,,08,48,304,36*7E
$GPGSV,4,2,15,10,63,112,43,15,05,033,,16,45,187,36,18,11,063,19*72
$GPGSV,4,3,15,23,37,051,38,26,19,176,22,27,83,027,42,30,02,325,*74
$GPGSV,4,4,15,32,04,133,,36,36,154,39,49,39,180,36*48
$GLGSV,3,1,12,65,03,159,,70,04,013,,71,29,052,32,72,30,111,25*63
$GLGSV,3,2,12,76,00,185,,77,32,216,25,78,42,295,12,79,09,339,*63
$GLGSV,3,3,12,86,19,067,23,87,56,029,33,88,38,288,16,,,,34*5E
$GNGLL,4357.34077,N,00501.68173,E,112836.00,A,D*70
$GNGRS,112836.00,1,-1.1,5.0,-1.0,4.0,1.3,-11.0,-2.4,3.6,,,,*6E
$GNGRS,112836.00,1,10.2,-1.7,3.2,-8.5,-17.0,,,,,,,*53
$GNGST,112836.00,26607,,,,2.1,2.1,4.0*77
$GNZDA,112836.00,13,05,2025,00,00*75
$GNGBS,112836.00,2.1,2.1,4.0,,,,*54
b0Xp  '
#00
+?pv!$-?i*%3*SE x#{%$$'AFG$4%HoLM N*'eOSV!C,W'8JX& &bpao#L$GNRMC,112837.00,A,4357.34084,N,00501.68175,E,0.050,,130525,,,D*67
$GNVTG,,T,,M,0.050,N,0.094,K,D*30
$GNGNS,112837.00,4357.34084,N,00501.68175,E,DA,13,0.81,61.7,47.7,,0000*5B
$GNGGA,112837.00,4357.34084,N,00501.68175,E,2,12,0.81,61.7,M,47.7,M,,0000*76
$GNGSA,A,3,27,16,23,26,10,18,08,02,,,,,1.55,0.81,1.32*11
$GNGSA,A,3,87,78,86,71,72,,,,,,,,1.55,0.81,1.32*19
$GPGSV,4,1,15,01,04,246,18,02,32,260,32,07,08,295,,08,48,304,35*76
$GPGSV,4,2,15,10,63,112,43,15,05,033,,16,45,187,36,18,11,063,23*7B
$GPGSV,4,3,15,23,37,051,42,26,19,176,22,27,83,027,42,30,02,325,*79
$GPGSV,4,4,15,32,04,133,,36,36,154,37,49,39,180,36*46
$GLGSV,3,1,12,65,03,159,,70,04,013,,71,29,052,36,72,30,111,29*6B
$GLGSV,3,2,12,76,00,185,,77,32,216,21,78,42,295,15,79,09,339,*60
$GLGSV,3,3,12,86,19,067,33,87,56,029,39,88,38,288,16,,,,38*59
$GNGLL,4357.34084,N,00501.68175,E,112837.00,A,D*7B
$GNGRS,112837.00,1,-0.8,-0.8,1.5,2.5,1.2,-11.7,-3.4,5.0,,,,*6B
$GNGRS,112837.00,1,5.9,-1.5,5.6,-4.7,-10.9,,,,,,,*6D
$GNGST,112837.00,39911,,,,2.1,2.1,4.0*70
$GNZDA,112837.00,13,05,2025,00,00*74
$GNGBS,112837.00,2.1,2.1,4.0,,,,*55
b0Xt  '
#00i
)?p!-?&%3G)SE x#{$$ 'AFG&4KHocLM N*'pOSVCW'8X& "90btao#$$GNRMC,112838.00,A,4357.34080,N,00501.68179,E,0.078,,130525,,,D*6A
$GNVTG,,T,,M,0.078,N,0.145,K,D*37
$GNGNS,112838.00,4357.34080,N,00501.68179,E,DA,13,0.81,61.7,47.7,,0000*5C
$GNGGA,112838.00,4357.34080,N,00501.68179,E,2,12,0.81,61.7,M,47.7,M,,0000*71
$GNGSA,A,3,27,16,23,26,10,18,08,02,,,,,1.55,0.81,1.32*11
$GNGSA,A,3,87,78,86,71,72,,,,,,,,1.55,0.81,1.32*19
$GPGSV,4,1,15,01,04,246,20,02,32,260,32,07,08,295,18,08,48,304,35*74
$GPGSV,4,2,15,10,63,112,41,15,05,033,,16,45,187,28,18,11,063,27*72
$GPGSV,4,3,15,23,37,051,38,26,19,176,22,27,83,027,41,30,02,325,*77
$GPGSV,4,4,15,32,04,133,,36,36,154,36,49,39,180,32*43
$GLGSV,3,1,12,65,03,159,,70,04,013,,71,29,052,38,72,30,111,30*6D
$GLGSV,3,2,12,76,00,185,,77,32,216,18,78,42,295,11,79,09,339,*6E
$GLGSV,3,3,12,86,19,067,30,87,56,029,39,88,38,288,16,,,,34*56
$GNGLL,4357.34080,N,00501.68179,E,112838.00,A,D*7C
$GNGRS,112838.00,1,-2.4,0.0,0.7,2.6,1.5,-11.5,-1.5,2.6,,,,*48
$GNGRS,112838.00,1,2.4,1.1,9.4,-4.4,-9.2,,,,,,,*7F
$GNGST,112838.00,37,,,,2.1,2.1,4.0*48
$GNZDA,112838.00,13,05,2025,00,00*7B
$GNGBS,112838.00,2.1,2.1,4.0,,,,*5A
b0Xx /'
$00
?p>!-{?+%30,SE x#{$'AFG)4YHoLM N*'[OSVCRW(8X& 1pbxao#n$GNRMC,112839.00,A,4357.34087,N,00501.68178,E,0.255,,130525,,,D*60
$GNVTG,,T,,M,0.255,N,0.472,K,D*3B
$GNGNS,112839.00,4357.34087,N,00501.68178,E,DA,13,0.81,62.4,47.7,,0000*5B
$GNGGA,112839.00,4357.34087,N,00501.68178,E,2,12,0.81,62.4,M,47.7,M,,0000*76
$GNGSA,A,3,27,16,23,26,10,18,08,02,,,,,1.55,0.81,1.32*11
$GNGSA,A,3,87,78,86,71,72,,,,,,,,1.55,0.81,1.32*19
$GPGSV,4,1,15,01,04,246,21,02,32,260,27,07,08,295,16,08,48,304,36*7C
$GPGSV,4,2,15,10,63,112,25,15,05,033,,16,45,187,22,18,11,063,25*78
$GPGSV,4,3,15,23,37,051,43,26,19,176,22,27,83,027,44,30,02,325,*7E
$GPGSV,4,4,15,32,04,133,,36,36,154,27,49,39,180,29*49
$GLGSV,3,1,12,65,03,159,,70,04,013,,71,29,052,41,72,30,111,27*65
$GLGSV,3,2,12,76,00,185,,77,32,216,20,78,42,295,17,79,09,339,*63
$GLGSV,3,3,12,86,19,067,31,87,56,029,40,88,38,288,16,,,,28*54
$GNGLL,4357.34087,N,00501.68178,E,112839.00,A,D*7B
$GNGRS,112839.00,1,-0.5,6.4,0.5,1.6,0.6,-10.7,-2.2,5.6,,,,*4B
$GNGRS,112839.00,1,6.5,-1.6,8.5,-6.8,-8.3,,,,,,,*5F
$GNGST,112839.00,23281,,,,2.1,2.1,4.0*77
$GNZDA,112839.00,13,05,2025,00,00*7A
$GNGBS,112839.00,2.1,2.1,4.0,,,,*5B
b0X| ~'
$00a
?p= -&?(%3%I*SE x#{$'AFG)4Ho~LM N*'@OSVCW(8X& b|aol#$GNRMC,112840.00,A,4357.34088,N,00501.68168,E,0.191,,130525,,,D*6B
$GNVTG,,T,,M,0.191,N,0.354,K,D*33
$GNGNS,112840.00,4357.34088,N,00501.68168,E,DA,13,0.81,62.7,47.7,,0000*58
$GNGGA,112840.00,4357.34088,N,00501.68168,E,2,12,0.81,62.7,M,47.7,M,,0000*75
$GNGSA,A,3,27,16,23,26,10,18,08,02,,,,,1.55,0.81,1.32*11
$GNGSA,A,3,87,78,86,71,72,,,,,,,,1.55,0.81,1.32*19
$GPGSV,4,1,15,01,04,246,19,02,32,260,28,07,08,295,15,08,48,304,36*7B
$GPGSV,4,2,15,10,63,112,27,15,04,032,,16,45,187,30,18,11,063,24*78
$GPGSV,4,3,15,23,37,051,40,26,19,176,25,27,83,027,42,30,02,325,*7C
$GPGSV,4,4,15,32,04,133,,36,36,154,28,49,39,180,*4D
$GLGSV,3,1,12,65,03,159,,70,04,013,,71,29,052,41,72,30,111,27*65
$GLGSV,3,2,12,76,00,185,,77,32,216,23,78,42,295,08,79,09,339,*6E
$GLGSV,3,3,12,86,19,067,31,87,56,029,40,88,38,288,16,,,,27*5B
$GNGLL,4357.34088,N,00501.68168,E,112840.00,A,D*7B
$GNGRS,112840.00,1,-1.3,5.5,2.9,3.3,3.2,-10.5,-1.6,6.4,,,,*4A
$GNGRS,112840.00,1,5.0,-1.9,5.1,-5.8,-6.4,,,,,,,*5B
$GNGST,112840.00,34922,,,,2.1,2.1,3.9*73
$GNZDA,112840.00,13,05,2025,00,00*74
$GNGBS,112840.00,2.1,2.1,3.9,,,,*5B
b0Xx '
$00
?p -?(%3FL&SAE x#{$'AFG%4HoLM N*',OSVC W'8&X& "xbxaoT#>$GNRMC,112841.00,A,4357.34091,N,00501.68167,E,0.120,,130525,,,D*67
$GNVTG,,T,,M,0.120,N,0.223,K,D*38
$GNGNS,112841.00,4357.34091,N,00501.68167,E,DA,13,0.81,62.8,47.7,,0000*51
$GNGGA,112841.00,4357.34091,N,00501.68167,E,2,12,0.81,62.8,M,47.7,M,,0000*7C
$GNGSA,A,3,27,16,23,26,10,18,08,02,,,,,1.55,0.81,1.32*11
$GNGSA,A,3,87,78,86,71,72,,,,,,,,1.55,0.81,1.32*19
$GPGSV,4,1,15,01,04,246,20,02,32,260,31,07,08,295,15,08,48,304,36*79
$GPGSV,4,2,15,10,63,112,31,15,04,032,,16,45,187,24,18,11,063,22*7C
$GPGSV,4,3,15,23,37,051,40,26,19,176,25,27,83,027,38,30,02,325,*71
$GPGSV,4,4,15,32,04,133,,36,36,154,28,49,39,180,*4D
$GLGSV,3,1,12,65,03,159,,70,04,013,,71,29,052,37,72,30,111,27*64
$GLGSV,3,2,12,76,00,185,,77,32,216,24,78,42,295,12,79,09,339,*62
$GLGSV,3,3,12,86,19,067,30,87,56,029,39,88,38,288,22,,,,34*51
$GNGLL,4357.34091,N,00501.68167,E,112841.00,A,D*7D
$GNGRS,112841.00,1,-1.9,4.0,3.3,3.3,4.6,-8.4,-3.0,2.0,,,,*71
$GNGRS,112841.00,1,2.9,15.8,5.4,-5.6,-8.2,,,,,,,*4E
$GNGST,112841.00,40,,,,2.1,2.1,3.9*48
$GNZDA,112841.00,13,05,2025,00,00*75
$GNGBS,112841.00,2.1,2.1,3.9,,,,*5A
b0X`  '
"00V
?pj -?V(%3{*SE x#{$'AFG'4HoLM N*'IOSVC[W(8X& !b`ao<#$GNRMC,112842.00,A,4357.34096,N,00501.68162,E,0.244,,130525,,,D*67
$GNVTG,,T,,M,0.244,N,0.451,K,D*3A
$GNGNS,112842.00,4357.34096,N,00501.68162,E,DA,13,0.81,63.0,47.7,,0000*59
$GNGGA,112842.00,4357.34096,N,00501.68162,E,2,12,0.81,63.0,M,47.7,M,,0000*74
$GNGSA,A,3,27,16,23,26,10,18,08,02,,,,,1.55,0.81,1.32*11
$GNGSA,A,3,87,78,86,71,72,,,,,,,,1.55,0.81,1.32*19
$GPGSV,4,1,15,01,04,246,22,02,32,260,32,07,08,295,18,08,48,304,34*77
$GPGSV,4,2,15,10,63,112,25,15,04,032,,16,45,187,24,18,11,063,23*78
$GPGSV,4,3,15,23,37,051,40,26,19,176,22,27,83,027,42,30,02,325,*7B
$GPGSV,4,4,15,32,04,133,,36,36,154,28,49,39,180,*4D
$GLGSV,3,1,12,65,03,159,,70,04,013,,71,29,052,39,72,30,111,26*6B
$GLGSV,3,2,12,76,00,185,,77,32,216,23,78,42,295,09,79,09,339,*6F
$GLGSV,3,3,12,86,19,067,28,87,56,029,40,88,38,288,23,,,,33*50
$GNGLL,4357.34096,N,00501.68162,E,112842.00,A,D*7C
$GNGRS,112842.00,1,-3.1,2.2,1.2,4.3,6.2,-6.8,-1.7,1.8,,,,*72
$GNGRS,112842.00,1,4.4,-1.8,6.0,-5.4,-8.4,,,,,,,*5D
$GNGST,112842.00,206206,,,,2.2,2.1,3.9*4C
$GNZDA,112842.00,13,05,2025,00,00*76
$GNGBS,112842.00,2.2,2.1,3.9,,,,*5A
b0XH  '
#00
?pH -B?b(%3>+SE x#{$'AFG'4HoLM N*'+OSVC)W(8>X& "ObHao$#\$GNRMC,112843.00,A,4357.34096,N,00501.68157,E,0.056,,130525,,,D*61
$GNVTG,,T,,M,0.056,N,0.104,K,D*3E
$GNGNS,112843.00,4357.34096,N,00501.68157,E,DA,13,0.81,63.0,47.7,,0000*5E
$GNGGA,112843.00,4357.34096,N,00501.68157,E,2,12,0.81,63.0,M,47.7,M,,0000*73
$GNGSA,A,3,27,16,23,26,10,18,08,02,,,,,1.55,0.81,1.32*11
$GNGSA,A,3,87,78,86,71,72,,,,,,,,1.55,0.81,1.32*19
$GPGSV,4,1,15,01,04,246,23,02,32,260,32,07,08,295,18,08,48,304,35*77
$GPGSV,4,2,15,10,63,112,27,15,04,032,,16,45,187,22,18,11,063,25*7A
$GPGSV,4,3,15,23,37,051,40,26,19,176,20,27,83,027,43,30,02,325,*78
$GPGSV,4,4,15,32,04,133,,36,36,154,29,49,39,180,*4C
$GLGSV,3,1,12,65,03,159,,70,04,013,,71,29,052,39,72,30,111,26*6B
$GLGSV,3,2,12,76,00,185,,77,32,216,24,78,42,295,08,79,09,339,*69
$GLGSV,3,3,12,86,19,067,28,87,56,029,40,88,38,288,24,,,,34*50
$GNGLL,4357.34096,N,00501.68157,E,112843.00,A,D*7B
$GNGRS,112843.00,1,-2.3,5.8,2.3,5.7,8.4,-6.7,-1.0,4.9,,,,*7E
$GNGRS,112843.00,1,3.2,-2.1,5.5,-5.3,-8.4,,,,,,,*56
$GNGST,112843.00,3299292,,,,2.2,2.1,3.9*75
$GNZDA,112843.00,13,05,2025,00,00*77
$GNGBS,112843.00,2.2,2.1,3.9,,,,*5B
b0X0 '
#00
 ?pr -?(%3$+SHE x#{$'AFG)4Ho*LM N*'OSVCW(8X& "n5b0ao#4v$GNRMC,112844.00,A,4357.34094,N,00501.68152,E,0.117,,130525,,,D*65
$GNVTG,,T,,M,0.117,N,0.217,K,D*3B
$GNGNS,112844.00,4357.34094,N,00501.68152,E,DA,13,0.89,63.6,47.7,,0000*50
$GNGGA,112844.00,4357.34094,N,00501.68152,E,2,12,0.89,63.6,M,47.7,M,,0000*7D
$GNGSA,A,3,27,16,23,26,10,18,08,02,,,,,1.60,0.89,1.33*1E
$GNGSA,A,3,87,78,86,71,72,,,,,,,,1.60,0.89,1.33*16
$GPGSV,4,1,15,01,04,246,24,02,32,260,31,07,08,295,17,08,48,304,35*7C
$GPGSV,4,2,15,10,63,112,32,15,04,032,,16,45,187,25,18,11,063,25*79
$GPGSV,4,3,15,23,37,051,40,26,19,176,20,27,83,027,43,30,02,325,*78
$GPGSV,4,4,15,32,04,133,,36,36,154,31,49,39,180,*45
$GLGSV,3,1,12,65,03,159,,70,04,013,,71,29,052,41,72,30,111,26*64
$GLGSV,3,2,12,76,00,185,,77,32,216,24,78,42,295,07,79,09,339,*66
$GLGSV,3,3,12,86,19,067,28,87,56,029,40,88,38,288,24,,,,34*50
$GNGLL,4357.34094,N,00501.68152,E,112844.00,A,D*7B
$GNGRS,112844.00,1,-1.8,5.4,2.9,4.1,3.7,-5.2,-1.2,2.5,,,,*76
$GNGRS,112844.00,1,4.4,32.3,7.5,-5.3,-9.8,,,,,,,*43
$GNGST,112844.00,31,,,,2.3,2.1,3.9*49
$GNZDA,112844.00,13,05,2025,00,00*70
$GNGBS,112844.00,2.3,2.1,3.9,,,,*5D
b0X '
%00
&?p !-?z&%3:*SnE x#{$'AFG+4HoLM N*'WOSV CPW(8X& bao#$GNRMC,112845.00,A,4357.34096,N,00501.68156,E,0.185,,130525,,,D*69
$GNVTG,,T,,M,0.185,N,0.342,K,D*31
$GNGNS,112845.00,4357.34096,N,00501.68156,E,DA,13,0.81,63.9,47.7,,0000*50
$GNGGA,112845.00,4357.34096,N,00501.68156,E,2,12,0.81,63.9,M,47.7,M,,0000*7D
$GNGSA,A,3,27,16,23,26,10,18,08,02,,,,,1.55,0.81,1.32*11
$GNGSA,A,3,87,78,86,71,72,,,,,,,,1.55,0.81,1.32*19
$GPGSV,4,1,15,01,04,246,22,02,32,260,26,07,08,295,15,08,48,304,37*7C
$GPGSV,4,2,15,10,63,112,38,15,04,032,,16,45,187,33,18,11,063,23*72
$GPGSV,4,3,15,23,37,051,38,26,19,176,22,27,83,027,42,30,02,325,*74
$GPGSV,4,4,15,32,04,133,,36,36,154,30,49,39,180,*44
$GLGSV,3,1,12,65,03,159,,70,04,013,,71,29,052,43,72,30,111,26*66
$GLGSV,3,2,12,76,00,185,,77,32,216,26,78,42,295,22,79,09,339,19*6B
$GLGSV,3,3,12,86,19,067,32,87,56,029,40,88,38,288,24,,,,29*57
$GNGLL,4357.34096,N,00501.68156,E,112845.00,A,D*7C
$GNGRS,112845.00,1,-1.5,1.7,3.1,4.2,-0.6,-6.5,-1.1,-0.2,,,,*77
$GNGRS,112845.00,1,4.5,-1.7,3.4,-4.9,-8.9,,,,,,,*54
$GNGST,112845.00,3299292,,,,2.3,2.0,3.9*73
$GNZDA,112845.00,13,05,2025,00,00*71
$GNGBS,112845.00,2.3,2.0,3.9,,,,*5D
b0X '
00
 ?p -U?:+%3L-SE x#{$'AFG+4;HoLM N*'OSV CW(8X& 6bao#C$GNRMC,112846.00,A,4357.34083,N,00501.68149,E,0.760,,130525,,,D*6D
$GNVTG,,T,,M,0.760,N,1.407,K,D*3B
$GNGNS,112846.00,4357.34083,N,00501.68149,E,DA,13,0.81,64.2,47.7,,0000*55
$GNGGA,112846.00,4357.34083,N,00501.68149,E,2,12,0.81,64.2,M,47.7,M,,0000*78
$GNGSA,A,3,27,16,23,26,10,18,08,02,,,,,1.55,0.81,1.32*11
$GNGSA,A,3,87,78,86,71,72,,,,,,,,1.55,0.81,1.32*19
$GPGSV,4,1,15,01,04,246,23,02,32,260,31,07,08,295,17,08,48,304,30*7E
$GPGSV,4,2,15,10,63,112,32,15,04,032,,16,45,187,28,18,11,063,23*72
$GPGSV,4,3,15,23,37,051,43,26,19,176,26,27,83,027,45,30,02,325,*7B
$GPGSV,4,4,15,32,04,133,,36,36,154,27,49,39,180,*42
$GLGSV,3,1,12,65,03,159,,70,04,013,,71,29,052,43,72,30,111,28*68
$GLGSV,3,2,12,76,00,185,,77,32,216,24,78,42,295,19,79,09,339,19*61
$GLGSV,3,3,12,86,19,067,32,87,56,029,40,88,38,288,23,,,,22*5B
$GNGLL,4357.34083,N,00501.68149,E,112846.00,A,D*75
$GNGRS,112846.00,1,-1.3,-4.3,2.5,3.3,2.5,-7.1,-1.1,2.5,,,,*5C
$GNGRS,112846.00,1,4.4,-2.3,9.1,-4.5,-13.8,,,,,,,*69
$GNGST,112846.00,36,,,,2.3,2.1,3.9*4C
$GNZDA,112846.00,13,05,2025,00,00*72
$GNGBS,112846.00,2.3,2.1,3.9,,,,*5F
b0X '
00
%?p $-e?.$3\)SE x#{ $'AFG)48Ho
LM N*'gOSV CW(8X& %bao#$GNRMC,112847.00,A,4357.34062,N,00501.68134,E,0.730,,130525,,,D*6C
$GNVTG,,T,,M,0.730,N,1.352,K,D*39
$GNGNS,112847.00,4357.34062,N,00501.68134,E,DA,13,0.81,64.1,47.7,,0000*52
$GNGGA,112847.00,4357.34062,N,00501.68134,E,2,12,0.81,64.1,M,47.7,M,,0000*7F
$GNGSA,A,3,27,16,23,26,10,18,08,02,,,,,1.55,0.81,1.32*11
$GNGSA,A,3,87,78,86,71,72,,,,,,,,1.55,0.81,1.32*19
$GPGSV,4,1,15,01,04,246,20,02,32,260,24,07,08,295,16,08,48,304,31*79
$GPGSV,4,2,15,10,63,112,37,15,04,032,,16,45,187,36,18,11,063,24*7F
$GPGSV,4,3,15,23,36,051,46,26,19,176,31,27,83,027,41,30,02,325,*7D
$GPGSV,4,4,15,32,04,133,,36,36,154,32,49,39,180,*46
$GLGSV,3,1,12,65,03,159,,70,04,013,,71,29,052,41,72,30,111,27*65
$GLGSV,3,2,12,76,00,185,,77,32,216,21,78,42,295,22,79,09,339,17*62
$GLGSV,3,3,12,86,19,067,32,87,56,029,40,88,38,288,24,,,,22*5C
$GNGLL,4357.34062,N,00501.68134,E,112847.00,A,D*71
$GNGRS,112847.00,1,-0.7,3.6,2.0,3.5,-0.1,-8.4,4.3,1.6,,,,*7F
$GNGRS,112847.00,1,4.6,-1.5,11.8,-4.6,-12.7,,,,,,,*52
$GNGST,112847.00,32,,,,2.2,2.1,3.8*49
$GNZDA,112847.00,13,05,2025,00,00*73
$GNGBS,112847.00,2.2,2.1,3.8,,,,*5E
b0X '
&00
%?p "-f?K*$3z'SE x#{$'AFG+4?HoLM N*'OSV%CW(8X& a9bao#$GNRMC,112848.00,A,4357.34042,N,00501.68146,E,0.384,,130525,,,D*6F
$GNVTG,,T,,M,0.384,N,0.712,K,D*33
$GNGNS,112848.00,4357.34042,N,00501.68146,E,DA,13,0.81,64.0,47.7,,0000*5B
$GNGGA,112848.00,4357.34042,N,00501.68146,E,2,12,0.81,64.0,M,47.7,M,,0000*76
$GNGSA,A,3,27,16,23,26,10,18,08,02,,,,,1.55,0.81,1.32*11
$GNGSA,A,3,87,78,86,71,72,,,,,,,,1.55,0.81,1.32*19
$GPGSV,4,1,15,01,04,246,20,02,32,260,30,07,08,295,18,08,48,304,38*7B
$GPGSV,4,2,15,10,63,112,37,15,04,032,,16,45,187,34,18,11,063,23*7A
$GPGSV,4,3,15,23,36,051,42,26,19,176,26,27,83,027,39,30,02,325,*70
$GPGSV,4,4,15,32,04,133,,36,36,154,,49,39,180,*47
$GLGSV,3,1,12,65,03,159,,70,04,013,,71,29,052,43,72,30,111,26*66
$GLGSV,3,2,12,76,00,185,,77,32,216,23,78,42,295,22,79,09,339,15*62
$GLGSV,3,3,12,86,19,067,37,87,56,029,40,88,38,288,25,,,,24*5E
$GNGLL,4357.34042,N,00501.68146,E,112848.00,A,D*79
$GNGRS,112848.00,1,-1.1,1.0,1.8,3.8,4.4,-9.5,-0.8,-6.1,,,,*56
$GNGRS,112848.00,1,4.1,-0.3,9.5,-4.5,-13.1,,,,,,,*6D
$GNGST,112848.00,26,,,,2.2,2.1,3.8*43
$GNZDA,112848.00,13,05,2025,00,00*7C
$GNGBS,112848.00,2.2,2.1,3.8,,,,*51
b0X '
&00
"?p '-?*$3Y*SE x#{$'AFG!4ZHoLM N*'OSVCW8$X#& 3bao#jl$GNRMC,112849.00,A,4357.34040,N,00501.68135,E,0.379,,130525,,,D*6A
$GNVTG,,T,,M,0.379,N,0.702,K,D*30
$GNGNS,112849.00,4357.34040,N,00501.68135,E,DA,13,0.81,63.6,47.7,,0000*5D
$GNGGA,112849.00,4357.34040,N,00501.68135,E,2,12,0.81,63.6,M,47.7,M,,0000*70
$GNGSA,A,3,27,16,23,26,10,18,08,02,,,,,1.55,0.81,1.32*11
$GNGSA,A,3,87,78,86,71,72,,,,,,,,1.55,0.81,1.32*19
$GPGSV,4,1,15,01,04,246,20,02,32,260,22,07,08,295,,08,48,304,38*71
$GPGSV,4,2,15,10,63,112,34,15,04,032,,16,45,187,39,18,11,063,21*76
$GPGSV,4,3,15,23,36,051,29,26,19,176,24,27,83,027,42,30,02,325,*73
$GPGSV,4,4,15,32,04,133,,36,36,154,,49,39,180,*47
$GLGSV,3,1,12,65,03,159,,70,04,013,,71,29,052,33,72,30,111,26*61
$GLGSV,3,2,12,76,00,185,,77,32,216,23,78,42,295,30,79,09,339,14*60
$GLGSV,3,3,12,86,19,067,30,87,56,029,28,88,38,288,35,,,,24*56
$GNGLL,4357.34040,N,00501.68135,E,112849.00,A,D*7E
$GNGRS,112849.00,1,-0.8,2.9,1.8,-6.8,1.8,-9.8,2.1,-0.6,,,,*5E
$GNGRS,112849.00,1,5.5,0.2,7.5,-4.2,-10.1,,,,,,,*4F
$GNGST,112849.00,31,,,,2.2,2.0,3.8*45
$GNZDA,112849.00,13,05,2025,00,00*7D
$GNGBS,112849.00,2.2,2.0,3.8,,,,*51
b0X '
)00
+?p $-?]!$3T(SE x#{$'AFG 4CHoLM N*'[OSVC:W#8bX$& {bao|#B$GNRMC,112850.00,A,4357.34053,N,00501.68114,E,0.975,252.20,130525,,,D*7C
$GNVTG,252.20,T,,M,0.975,N,1.806,K,D*25
$GNGNS,112850.00,4357.34053,N,00501.68114,E,DA,13,0.81,63.7,47.7,,0000*55
$GNGGA,112850.00,4357.34053,N,00501.68114,E,2,12,0.81,63.7,M,47.7,M,,0000*78
$GNGSA,A,3,27,16,23,26,10,18,08,02,,,,,1.55,0.81,1.32*11
$GNGSA,A,3,87,78,86,71,72,,,,,,,,1.55,0.81,1.32*19
$GPGSV,4,1,15,01,04,246,21,02,32,260,25,07,08,295,,08,48,304,41*79
$GPGSV,4,2,15,10,63,112,43,15,04,032,,16,45,187,36,18,11,063,21*79
$GPGSV,4,3,15,23,36,051,33,26,18,176,31,27,83,027,40,30,02,325,*7F
$GPGSV,4,4,15,32,04,133,27,36,36,154,,49,39,180,*42
$GLGSV,3,1,12,65,03,159,,70,04,013,,71,29,052,32,72,30,111,26*60
$GLGSV,3,2,12,76,00,185,,77,32,216,26,78,42,295,22,79,09,339,19*6B
$GLGSV,3,3,12,86,19,067,30,87,56,029,35,88,38,288,36,,,,22*5F
$GNGLL,4357.34053,N,00501.68114,E,112850.00,A,D*77
$GNGRS,112850.00,1,-0.7,4.1,-2.4,0.8,0.1,-9.3,-0.1,-5.3,,,,*72
$GNGRS,112850.00,1,3.5,0.9,0.6,-4.4,-13.0,,,,,,,*4A
$GNGST,112850.00,29,,,,2.2,2.0,3.8*44
$GNZDA,112850.00,13,05,2025,00,00*75
$GNGBS,112850.00,2.2,2.0,3.8,,,,*59
b0X '
$00
&?p '-=?2$3`4(S E x#{$'AFG!4HoLM N*'#OSVCW"8X$& baod#<$GNRMC,112851.00,A,4357.34057,N,00501.68104,E,0.253,,130525,,,D*6E
$GNVTG,,T,,M,0.253,N,0.469,K,D*37
$GNGNS,112851.00,4357.34057,N,00501.68104,E,DA,13,0.81,63.7,47.7,,0000*51
$GNGGA,112851.00,4357.34057,N,00501.68104,E,2,12,0.81,63.7,M,47.7,M,,0000*7C
$GNGSA,A,3,27,16,23,26,10,18,08,02,,,,,1.55,0.81,1.32*11
$GNGSA,A,3,87,78,86,71,72,,,,,,,,1.55,0.81,1.32*19
$GPGSV,4,1,15,01,04,246,22,02,32,260,30,07,08,295,,08,48,304,36*7E
$GPGSV,4,2,15,10,63,112,38,15,04,032,,16,45,187,39,18,11,063,21*7A
$GPGSV,4,3,15,23,36,051,26,26,18,176,23,27,83,032,40,30,02,325,*7C
$GPGSV,4,4,15,32,04,133,25,36,36,154,,49,39,180,*40
$GLGSV,3,1,12,65,03,159,,70,04,013,,71,29,052,33,72,30,111,26*61
$GLGSV,3,2,12,76,00,185,,77,32,216,28,78,42,295,24,79,09,339,22*6B
$GLGSV,3,3,12,86,19,067,24,87,56,029,34,88,38,288,36,,,,22*5B
$GNGLL,4357.34057,N,00501.68104,E,112851.00,A,D*73
$GNGRS,112851.00,1,-0.2,3.2,-4.2,10.8,-1.0,-9.7,0.3,-0.4,,,,*47
$GNGRS,112851.00,1,6.7,0.3,1.7,-6.0,-13.2,,,,,,,*42
$GNGST,112851.00,30,,,,2.1,2.0,3.8*4E
$GNZDA,112851.00,13,05,2025,00,00*74
$GNGBS,112851.00,2.1,2.0,3.8,,,,*5B
b0Xp '
)00
%?p$ &-?b$3n&S E x#{$'AFG4MHoLM N*'8OSVCW$8X & bpaoL#$GNRMC,112852.00,A,4357.34057,N,00501.68107,E,0.117,,130525,,,D*6D
$GNVTG,,T,,M,0.117,N,0.218,K,D*34
$GNGNS,112852.00,4357.34057,N,00501.68107,E,DA,13,0.81,63.7,47.7,,0000*51
$GNGGA,112852.00,4357.34057,N,00501.68107,E,2,12,0.81,63.7,M,47.7,M,,0000*7C
$GNGSA,A,3,27,16,23,26,10,18,08,02,,,,,1.55,0.81,1.32*11
$GNGSA,A,3,87,78,86,71,72,,,,,,,,1.55,0.81,1.32*19
$GPGSV,4,1,15,01,04,246,21,02,32,260,29,07,08,295,,08,48,304,41*75
$GPGSV,4,2,15,10,63,112,37,15,04,032,,16,45,187,38,18,11,063,23*76
$GPGSV,4,3,15,23,36,051,27,26,18,176,29,27,83,032,38,30,02,325,*78
$GPGSV,4,4,15,32,04,133,23,36,36,154,,49,39,180,*46
$GLGSV,3,1,12,65,03,159,,70,04,013,,71,29,052,27,72,30,111,31*62
$GLGSV,3,2,12,76,00,185,,77,32,216,27,78,42,295,25,79,09,339,19*6D
$GLGSV,3,3,12,86,19,067,29,87,56,029,36,88,38,288,32,,,,25*57
$GNGLL,4357.34057,N,00501.68107,E,112852.00,A,D*73
$GNGRS,112852.00,1,-0.2,2.0,-0.4,6.2,2.9,-9.3,0.0,-5.1,,,,*58
$GNGRS,112852.00,1,4.0,0.6,1.7,-4.3,-13.9,,,,,,,*4B
$GNGST,112852.00,29,,,,2.1,2.0,3.9*44
$GNZDA,112852.00,13,05,2025,00,00*77
$GNGBS,112852.00,2.1,2.0,3.9,,,,*59
b0XX e'
'00
#?p@ &-M?h$3'S E x#{#$'AFG#4HoZLM N*'~OSVCW$8MX!& bXao4#$GNRMC,112853.00,A,4357.34055,N,00501.68095,E,0.131,,130525,,,D*60
$GNVTG,,T,,M,0.131,N,0.242,K,D*3F
$GNGNS,112853.00,4357.34055,N,00501.68095,E,DA,13,0.81,63.6,47.7,,0000*59
$GNGGA,112853.00,4357.34055,N,00501.68095,E,2,12,0.81,63.6,M,47.7,M,,0000*74
$GNGSA,A,3,27,16,23,26,10,18,08,02,,,,,1.55,0.81,1.32*11
$GNGSA,A,3,87,78,86,71,72,,,,,,,,1.55,0.81,1.32*19
$GPGSV,4,1,15,01,04,246,20,02,32,260,29,07,08,295,21,08,48,304,39*78
$GPGSV,4,2,15,10,63,112,35,15,04,032,,16,45,187,38,18,11,063,20*77
$GPGSV,4,3,15,23,36,051,28,26,18,176,30,27,83,032,39,30,02,325,*7E
$GPGSV,4,4,15,32,04,133,22,36,36,154,35,49,39,180,*41
$GLGSV,3,1,12,65,03,159,,70,04,013,,71,29,052,35,72,30,111,24*65
$GLGSV,3,2,12,76,00,185,,77,32,216,26,78,42,295,24,79,09,339,18*6C
$GLGSV,3,3,12,86,19,067,29,87,56,029,36,88,38,288,33,,,,25*56
$GNGLL,4357.34055,N,00501.68095,E,112853.00,A,D*7A
$GNGRS,112853.00,1,-0.2,3.3,-1.0,-3.6,3.2,-9.2,1.3,6.1,,,,*55
$GNGRS,112853.00,1,5.9,1.3,1.4,-6.0,-11.9,,,,,,,*46
$GNGST,112853.00,28,,,,2.1,1.9,3.8*4F
$GNZDA,112853.00,13,05,2025,00,00*76
$GNGBS,112853.00,2.1,1.9,3.8,,,,*53
b0X@ '
(00
 ?pK %-4?u $3<%S D x#{#$%'AFG"4HoLM N*'OSVCZW!8{X & \-b@ao#t$GNRMC,112854.00,A,4357.34049,N,00501.68097,E,0.107,,130525,,,D*6D
$GNVTG,,T,,M,0.107,N,0.198,K,D*3E
$GNGNS,112854.00,4357.34049,N,00501.68097,E,DA,13,0.81,63.7,47.7,,0000*50
$GNGGA,112854.00,4357.34049,N,00501.68097,E,2,12,0.81,63.7,M,47.7,M,,0000*7D
$GNGSA,A,3,27,16,23,26,10,18,08,02,,,,,1.55,0.81,1.32*11
$GNGSA,A,3,87,78,86,71,72,,,,,,,,1.55,0.81,1.32*19
$GPGSV,4,1,15,01,04,246,20,02,32,260,29,07,08,295,21,08,48,304,40*76
$GPGSV,4,2,15,10,63,112,32,15,04,032,,16,45,187,37,18,11,063,19*75
$GPGSV,4,3,15,23,36,051,32,26,18,176,31,27,83,032,37,30,02,324,*7B
$GPGSV,4,4,15,32,04,133,22,36,36,154,35,49,39,180,37*45
$GLGSV,3,1,12,65,03,159,,70,04,013,,71,29,052,34,72,30,111,20*60
$GLGSV,3,2,12,76,00,185,,77,32,216,23,78,42,295,22,79,09,339,16*61
$GLGSV,3,3,12,86,19,067,29,87,56,029,33,88,38,288,32,,,,26*51
$GNGLL,4357.34049,N,00501.68097,E,112854.00,A,D*72
$GNGRS,112854.00,1,0.2,3.1,-7.1,-2.9,0.7,-14.2,-1.0,2.0,,,,*65
$GNGRS,112854.00,1,3.8,2.8,-4.2,-3.1,-5.9,,,,,,,*51
$GNGST,112854.00,31,,,,2.0,1.9,3.9*40
$GNZDA,112854.00,13,05,2025,00,00*71
$GNGBS,112854.00,2.0,1.9,3.9,,,,*54
b0X( '
(00
 ?p $-?V$3 #S D x#{$$%'AFG!4HoLM N*'OSVCW#8JX$& +b(ao#z$GNRMC,112855.00,A,4357.34047,N,00501.68093,E,0.067,,130525,,,D*61
$GNVTG,,T,,M,0.067,N,0.125,K,D*3F
$GNGNS,112855.00,4357.34047,N,00501.68093,E,DA,13,0.81,63.8,47.7,,0000*54
$GNGGA,112855.00,4357.34047,N,00501.68093,E,2,12,0.81,63.8,M,47.7,M,,0000*79
$GNGSA,A,3,27,16,23,26,10,18,08,02,,,,,1.55,0.81,1.32*11
$GNGSA,A,3,87,78,86,71,72,,,,,,,,1.55,0.81,1.32*19
$GPGSV,4,1,15,01,04,246,21,02,32,260,27,07,08,295,,08,48,304,40*7A
$GPGSV,4,2,15,10,63,112,32,15,04,032,,16,45,187,36,18,11,063,16*7B
$GPGSV,4,3,15,23,36,051,26,26,18,176,32,27,83,032,35,30,02,324,*7F
$GPGSV,4,4,15,32,04,133,21,36,36,154,36,49,39,180,37*45
$GLGSV,3,1,12,65,03,159,,70,04,013,,71,29,052,33,72,30,111,16*62
$GLGSV,3,2,12,76,00,185,,77,32,216,23,78,42,295,21,79,09,339,17*63
$GLGSV,3,3,12,86,19,067,18,87,56,029,35,88,38,288,36,,,,23*54
$GNGLL,4357.34047,N,00501.68093,E,112855.00,A,D*79
$GNGRS,112855.00,1,-0.1,1.7,-8.5,-2.9,2.3,-14.5,0.1,7.2,,,,*6E
$GNGRS,112855.00,1,0.7,1.8,-3.1,-7.5,-6.1,,,,,,,*50
$GNGST,112855.00,43,,,,2.0,1.9,3.9*44
$GNZDA,112855.00,13,05,2025,00,00*70
$GNGBS,112855.00,2.0,1.9,3.9,,,,*55
b0X '
(00J
"?p $-?$3
!Q#S D x#{&$$'AFG4)HoLM N*'OSVCW#8X#& bao#QA$GNRMC,112856.00,A,4357.34044,N,00501.68087,E,0.061,,130525,,,D*62
$GNVTG,,T,,M,0.061,N,0.112,K,D*3D
$GNGNS,112856.00,4357.34044,N,00501.68087,E,DA,13,0.83,63.9,47.7,,0000*52
$GNGGA,112856.00,4357.34044,N,00501.68087,E,2,12,0.83,63.9,M,47.7,M,,0000*7F
$GNGSA,A,3,27,16,23,26,10,18,08,02,,,,,1.72,0.83,1.50*12
$GNGSA,A,3,87,78,86,71,72,,,,,,,,1.72,0.83,1.50*1A
$GPGSV,4,1,15,01,04,246,22,02,32,260,27,07,08,295,,08,48,304,40*79
$GPGSV,4,2,15,10,63,112,34,15,04,032,,16,45,187,36,18,11,063,14*7F
$GPGSV,4,3,15,23,36,051,27,26,18,176,33,27,83,032,35,30,02,324,*7F
$GPGSV,4,4,15,32,04,133,20,36,36,154,38,49,39,180,36*4B
$GLGSV,3,1,12,65,03,159,,70,04,013,,71,29,052,31,72,30,111,18*6E
$GLGSV,3,2,12,76,00,185,,77,32,216,22,78,42,295,21,79,09,339,17*62
$GLGSV,3,3,12,86,19,067,17,87,56,029,35,88,38,288,35,,,,21*5A
$GNGLL,4357.34044,N,00501.68087,E,112856.00,A,D*7C
$GNGRS,112856.00,1,-0.1,4.7,-5.0,-4.3,1.6,-20.7,0.7,4.0,,,,*68
$GNGRS,112856.00,1,2.2,2.0,2.2,-7.3,-6.2,,,,,,,*75
$GNGST,112856.00,37,,,,2.0,1.9,4.0*4A
$GNZDA,112856.00,13,05,2025,00,00*73
$GNGBS,112856.00,2.0,1.9,4.0,,,,*58
b0X {'
(00S
$?pq $-?$35 "S D x#{&$$'AFG4HoLM N*''OSVCW#8X#& Ybao#($GNRMC,112857.00,A,4357.34041,N,00501.68083,E,0.043,,130525,,,D*62
$GNVTG,,T,,M,0.043,N,0.079,K,D*31
$GNGNS,112857.00,4357.34041,N,00501.68083,E,DA,12,0.83,63.9,47.7,,0000*53
$GNGGA,112857.00,4357.34041,N,00501.68083,E,2,12,0.83,63.9,M,47.7,M,,0000*7F
$GNGSA,A,3,27,16,23,26,10,08,02,,,,,,1.72,0.83,1.50*1B
$GNGSA,A,3,87,78,86,71,72,,,,,,,,1.72,0.83,1.50*1A
$GPGSV,4,1,15,01,04,246,23,02,32,260,27,07,08,295,18,08,48,304,40*71
$GPGSV,4,2,15,10,63,112,36,15,04,032,,16,45,187,36,18,11,063,09*71
$GPGSV,4,3,15,23,36,051,30,26,18,176,32,27,83,032,34,30,02,324,*79
$GPGSV,4,4,15,32,04,133,19,36,36,154,38,49,39,180,36*41
$GLGSV,3,1,12,65,03,159,,70,04,013,,71,29,052,31,72,30,111,21*64
$GLGSV,3,2,12,76,00,185,,77,32,216,22,78,42,295,21,79,09,339,16*63
$GLGSV,3,3,12,86,19,067,16,87,56,029,35,88,38,288,35,,,,19*50
$GNGLL,4357.34041,N,00501.68083,E,112857.00,A,D*7C
$GNGRS,112857.00,1,-0.2,4.0,-4.6,-3.0,1.1,0.8,6.4,,,,,*56
$GNGRS,112857.00,1,2.1,0.4,2.3,-3.2,-8.1,,,,,,,*78
$GNGST,112857.00,36,,,,2.0,1.9,4.0*4A
$GNZDA,112857.00,13,05,2025,00,00*72
$GNGBS,112857.00,2.0,1.9,4.0,,,,*59
b0X '
)002
"?p+ #-?$3 #S D x#{&$#'AFG 4HoLM N*'OSVCW#8X%& Bbao#$GNRMC,112858.00,A,4357.34038,N,00501.68079,E,0.069,,130525,,,D*6E
$GNVTG,,T,,M,0.069,N,0.128,K,D*3C
$GNGNS,112858.00,4357.34038,N,00501.68079,E,DA,12,0.83,63.8,47.7,,0000*56
$GNGGA,112858.00,4357.34038,N,00501.68079,E,2,12,0.83,63.8,M,47.7,M,,0000*7A
$GNGSA,A,3,27,16,23,26,10,08,02,,,,,,1.72,0.83,1.50*1B
$GNGSA,A,3,87,78,86,71,72,,,,,,,,1.72,0.83,1.50*1A
$GPGSV,4,1,15,01,04,246,24,02,32,260,28,07,08,295,,08,48,304,41*71
$GPGSV,4,2,15,10,63,112,34,15,04,032,,16,45,187,35,18,11,063,07*7E
$GPGSV,4,3,15,23,36,051,30,26,18,176,32,27,83,032,35,30,02,324,*78
$GPGSV,4,4,15,32,04,133,17,36,36,154,38,49,39,180,35*4C
$GLGSV,3,1,12,65,03,159,,70,04,013,,71,29,052,32,72,30,111,23*65
$GLGSV,3,2,12,76,00,185,,77,32,216,25,78,42,295,22,79,09,339,17*66
$GLGSV,3,3,12,86,19,067,14,87,56,029,35,88,38,288,37,,,,19*50
$GNGLL,4357.34038,N,00501.68079,E,112858.00,A,D*78
$GNGRS,112858.00,1,-0.3,4.8,-0.4,-0.5,0.4,0.5,9.4,,,,,*56
$GNGRS,112858.00,1,2.1,0.1,6.5,-3.4,-7.4,,,,,,,*7C
$GNGST,112858.00,36,,,,2.0,1.9,4.0*45
$GNZDA,112858.00,13,05,2025,00,00*7D
$GNGBS,112858.00,2.0,1.9,4.0,,,,*56
b0X '
'00E
$?p$ $-?e$3 "S D x#{%$&'AFG 4Ho_LM N*'\OSV
CW$8X%& bao#j$GNRMC,112859.00,A,4357.34034,N,00501.68075,E,0.044,,130525,,,D*60
$GNVTG,,T,,M,0.044,N,0.082,K,D*32
$GNGNS,112859.00,4357.34034,N,00501.68075,E,DA,11,0.87,63.8,47.7,,0000*50
$GNGGA,112859.00,4357.34034,N,00501.68075,E,2,11,0.87,63.8,M,47.7,M,,0000*7C
$GNGSA,A,3,27,16,23,26,10,08,02,,,,,,1.90,0.87,1.69*19
$GNGSA,A,3,87,78,71,72,,,,,,,,,1.90,0.87,1.69*16
$GPGSV,4,1,15,01,04,246,24,02,32,260,28,07,08,295,,08,48,304,39*7E
$GPGSV,4,2,15,10,63,112,36,15,04,032,,16,45,187,36,18,11,063,06*7E
$GPGSV,4,3,15,23,36,051,25,26,18,176,32,27,83,032,34,30,02,324,*7D
$GPGSV,4,4,15,32,04,133,16,36,36,154,37,49,39,180,38*4F
$GLGSV,3,1,12,65,03,159,,70,04,013,,71,29,052,32,72,30,111,26*60
$GLGSV,3,2,12,76,00,185,,77,32,216,25,78,42,295,21,79,09,339,18*6A
$GLGSV,3,3,12,86,19,067,10,87,56,029,36,88,38,288,37,,,,21*5C
$GNGLL,4357.34034,N,00501.68075,E,112859.00,A,D*79
$GNGRS,112859.00,1,-0.2,4.3,-7.8,0.2,0.4,0.7,9.3,,,,,*79
$GNGRS,112859.00,1,2.2,0.9,-3.8,-6.7,,,,,,,,*55
$GNGST,112859.00,26,,,,2.0,1.8,4.1*45
$GNZDA,112859.00,13,05,2025,00,00*7C
$GNGBS,112859.00,2.0,1.8,4.1,,,,*57
b0X h'
&00[
%?p %-?$30 <!S D x#{%$$'AFG 4HoLM N*'"OSV
CW$8X$& bao#$GNRMC,112900.00,A,4357.34029,N,00501.68069,E,0.031,,130525,,,D*6E
$GNVTG,,T,,M,0.031,N,0.057,K,D*38
$GNGNS,112900.00,4357.34029,N,00501.68069,E,DA,11,0.87,63.7,47.7,,0000*53
$GNGGA,112900.00,4357.34029,N,00501.68069,E,2,11,0.87,63.7,M,47.7,M,,0000*7F
$GNGSA,A,3,27,16,23,26,10,08,02,,,,,,1.90,0.87,1.69*19
$GNGSA,A,3,87,78,71,72,,,,,,,,,1.90,0.87,1.69*16
$GPGSV,4,1,15,01,04,246,24,02,32,260,29,07,08,295,,08,48,304,38*7E
$GPGSV,4,2,15,10,63,112,37,15,04,032,,16,45,187,37,18,11,063,05*7D
$GPGSV,4,3,15,23,36,051,25,26,18,176,32,27,83,032,33,30,02,324,*7A
$GPGSV,4,4,15,32,04,133,16,36,36,154,37,49,39,180,36*41
$GLGSV,3,1,12,65,03,159,,70,04,013,,71,29,052,32,72,30,111,26*60
$GLGSV,3,2,12,76,00,185,,77,32,216,24,78,42,295,21,79,09,339,19*6A
$GLGSV,3,3,12,86,19,067,10,87,56,029,36,88,38,288,36,,,,22*5E
$GNGLL,4357.34029,N,00501.68069,E,112900.00,A,D*75
$GNGRS,112900.00,1,-0.2,4.0,-7.2,0.6,0.1,0.9,11.3,,,,,*4B
$GNGRS,112900.00,1,2.5,0.3,-3.6,-8.0,,,,,,,,*52
$GNGST,112900.00,25,,,,2.0,1.8,4.1*4B
$GNZDA,112900.00,13,05,2025,00,00*71
$GNGBS,112900.00,2.0,1.8,4.1,,,,*5A
b0X ;'
&00p
%?p $-?7$3y "S D x#{$$$'AFG4HoLM N*'OSVC,W$8X#& baot#:$GNRMC,112901.00,A,4357.34027,N,00501.68063,E,0.040,,130525,,,D*6D
$GNVTG,,T,,M,0.040,N,0.074,K,D*3F
$GNGNS,112901.00,4357.34027,N,00501.68063,E,DA,13,0.87,63.7,47.7,,0000*54
$GNGGA,112901.00,4357.34027,N,00501.68063,E,2,12,0.87,63.7,M,47.7,M,,0000*79
$GNGSA,A,3,27,16,23,26,10,18,08,02,,,,,1.90,0.87,1.69*10
$GNGSA,A,3,87,78,86,71,72,,,,,,,,1.90,0.87,1.69*18
$GPGSV,4,1,15,01,04,246,23,02,32,260,29,07,08,295,20,08,48,304,38*7B
$GPGSV,4,2,15,10,63,112,37,15,04,032,,16,45,187,36,18,11,063,12*7A
$GPGSV,4,3,15,23,36,051,25,26,18,176,32,27,83,032,34,30,02,324,*7D
$GPGSV,4,4,15,32,04,133,16,36,36,154,36,49,39,180,36*40
$GLGSV,3,1,12,65,03,159,,70,04,013,,71,29,052,31,72,30,111,26*63
$GLGSV,3,2,12,76,00,185,,77,32,216,23,78,42,295,20,79,09,339,17*62
$GLGSV,3,3,12,86,19,067,12,87,56,029,36,88,38,288,35,,,,24*59
$GNGLL,4357.34027,N,00501.68063,E,112901.00,A,D*70
$GNGRS,112901.00,1,0.0,3.9,3.8,0.2,-0.1,23.6,1.1,8.3,,,,*49
$GNGRS,112901.00,1,2.6,-0.4,23.5,-3.3,-7.7,,,,,,,*6D
$GNGST,112901.00,28,,,,2.0,1.9,4.2*45
$GNZDA,112901.00,13,05,2025,00,00*70
$GNGBS,112901.00,2.0,1.9,4.2,,,,*59
b0X '
&00]
%?p $-|?$3 !S D x#{$$$'AFG 4HokLM N*'OSVCW%8X$& bao\#`$GNRMC,112902.00,A,4357.34026,N,00501.68058,E,0.017,,130525,,,D*65
$GNVTG,,T,,M,0.017,N,0.031,K,D*3C
$GNGNS,112902.00,4357.34026,N,00501.68058,E,DA,13,0.83,63.7,47.7,,0000*5A
$GNGGA,112902.00,4357.34026,N,00501.68058,E,2,12,0.83,63.7,M,47.7,M,,0000*77
$GNGSA,A,3,27,16,23,26,10,18,08,02,,,,,1.60,0.83,1.37*10
$GNGSA,A,3,87,78,86,71,72,,,,,,,,1.60,0.83,1.37*18
$GPGSV,4,1,15,01,04,246,23,02,32,260,29,07,08,295,19,08,48,304,38*71
$GPGSV,4,2,15,10,63,112,37,15,04,032,,16,45,187,36,18,11,063,11*79
$GPGSV,4,3,15,23,36,051,24,26,18,176,32,27,83,032,33,30,02,324,*7B
$GPGSV,4,4,15,32,04,133,17,36,36,154,36,49,39,180,36*41
$GLGSV,3,1,12,65,03,159,,70,04,013,,71,29,052,32,72,30,111,27*61
$GLGSV,3,2,12,76,00,185,,77,32,216,24,78,42,295,19,79,09,339,17*6F
$GLGSV,3,3,12,86,19,067,14,87,56,029,37,88,38,288,36,,,,25*5C
$GNGLL,4357.34026,N,00501.68058,E,112902.00,A,D*7A
$GNGRS,112902.00,1,-0.2,3.8,4.6,-0.3,-0.2,14.7,0.9,7.9,,,,*4B
$GNGRS,112902.00,1,2.6,-0.4,22.2,-3.2,-6.6,,,,,,,*69
$GNGST,112902.00,39,,,,2.0,1.9,4.2*46
$GNZDA,112902.00,13,05,2025,00,00*73
$GNGBS,112902.00,2.0,1.9,4.2,,,,*5A
b0Xh '
'00\
%?p $-f?N$3"S D x#{$$#'AFG 4HofLM N*'[OSVCW&8X&& bhaoD#8
$GNRMC,112903.00,A,4357.34027,N,00501.68053,E,0.060,,130525,,,D*6E
$GNVTG,,T,,M,0.060,N,0.111,K,D*3F
$GNGNS,112903.00,4357.34027,N,00501.68053,E,DA,13,0.87,63.7,47.7,,0000*55
$GNGGA,112903.00,4357.34027,N,00501.68053,E,2,12,0.87,63.7,M,47.7,M,,0000*78
$GNGSA,A,3,27,16,23,26,10,18,08,02,,,,,1.90,0.87,1.69*10
$GNGSA,A,3,87,78,86,71,72,,,,,,,,1.90,0.87,1.69*18
$GPGSV,4,1,15,01,04,246,23,02,32,260,29,07,08,295,19,08,48,304,39*70
$GPGSV,4,2,15,10,63,112,37,15,04,032,,16,45,187,36,18,11,063,11*79
$GPGSV,4,3,15,23,36,051,21,26,18,176,31,27,83,032,34,30,02,324,*7A
$GPGSV,4,4,15,32,04,133,17,36,36,154,36,49,39,180,35*42
$GLGSV,3,1,12,65,03,159,,70,04,013,,71,29,052,32,72,30,111,26*60
$GLGSV,3,2,12,76,00,185,,77,32,216,24,78,42,295,20,79,09,339,18*6A
$GLGSV,3,3,12,86,19,067,16,87,56,029,38,88,38,288,38,,,,25*5F
$GNGLL,4357.34027,N,00501.68053,E,112903.00,A,D*71
$GNGRS,112903.00,1,-0.1,3.6,4.9,-0.3,-0.2,23.8,0.9,2.3,,,,*4C
$GNGRS,112903.00,1,2.6,-1.7,20.5,-3.3,-6.7,,,,,,,*6F
$GNGST,112903.00,29,,,,2.0,1.9,4.3*47
$GNZDA,112903.00,13,05,2025,00,00*72
$GNGBS,112903.00,2.0,1.9,4.3,,,,*5A
b0LP '
'00Z
%?p $-^
?9$3 "S D {%$%'AFG!4HoALM N*'`OSVCW%8X%& "bPao,#r$GNRMC,112904.00,A,4357.34026,N,00501.68048,E,0.019,,130525,,,D*6C
$GNVTG,,T,,M,0.019,N,0.034,K,D*37
$GNGNS,112904.00,4357.34026,N,00501.68048,E,DA,13,0.83,63.6,47.7,,0000*5C
$GNGGA,112904.00,4357.34026,N,00501.68048,E,2,12,0.83,63.6,M,47.7,M,,0000*71
$GNGSA,A,3,27,16,23,26,10,18,08,02,,,,,1.72,0.83,1.50*12
$GNGSA,A,3,87,78,86,71,72,,,,,,,,1.72,0.83,1.50*1A
$GPGSV,4,1,15,01,04,246,23,02,32,260,29,07,08,295,19,08,48,304,39*70
$GPGSV,4,2,15,10,63,112,37,15,04,032,,16,45,187,36,18,11,063,10*78
$GPGSV,4,3,15,23,36,051,22,26,18,176,32,27,83,032,34,30,02,324,*7A
$GPGSV,4,4,15,32,04,133,17,36,36,154,37,49,39,180,37*41
$GLGSV,3,1,12,65,03,159,,70,04,013,,71,29,052,33,72,30,111,27*60
$GLGSV,3,2,12,76,00,185,,77,32,216,25,78,42,295,22,79,09,339,19*68
$GLGSV,3,3,12,86,19,067,19,87,56,029,37,88,38,288,37,,,,26*53
$GNGLL,4357.34026,N,00501.68048,E,112904.00,A,D*7D
$GNGRS,112904.00,1,-0.1,3.5,2.5,-0.3,-0.2,23.6,0.9,6.8,,,,*43
$GNGRS,112904.00,1,2.5,-1.6,19.7,-3.0,-7.0,,,,,,,*67
$GNGST,112904.00,29,,,,1.9,1.8,4.3*4B
$GNZDA,112904.00,13,05,2025,00,00*75
$GNGBS,112904.00,1.9,1.8,4.3,,,,*56
b0X8 '
'00f
%?p %-Z
?$3F !S D x#{#$&'AFG"4Ho.LM N*'iOSVCW%8X%& bb8ao#$GNRMC,112905.00,A,4357.34025,N,00501.68044,E,0.012,,130525,,,D*69
$GNVTG,,T,,M,0.012,N,0.023,K,D*3A
$GNGNS,112905.00,4357.34025,N,00501.68044,E,DA,13,0.81,63.6,47.7,,0000*50
$GNGGA,112905.00,4357.34025,N,00501.68044,E,2,12,0.81,63.6,M,47.7,M,,0000*7D
$GNGSA,A,3,27,16,23,26,10,18,08,02,,,,,1.55,0.81,1.31*12
$GNGSA,A,3,87,78,86,71,72,,,,,,,,1.55,0.81,1.31*1A
$GPGSV,4,1,15,01,04,246,23,02,32,260,29,07,08,295,19,08,48,304,39*70
$GPGSV,4,2,15,10,63,112,37,15,04,032,,16,45,187,37,18,11,063,10*79
$GPGSV,4,3,15,23,36,051,30,26,18,176,32,27,83,032,33,30,02,324,*7E
$GPGSV,4,4,15,32,04,133,16,36,36,154,35,49,39,180,38*4D
$GLGSV,3,1,12,65,03,159,,70,04,013,,71,29,052,34,72,30,111,25*65
$GLGSV,3,2,12,76,00,185,,77,32,216,23,78,42,295,23,79,09,339,20*65
$GLGSV,3,3,12,86,19,067,20,87,56,029,37,88,38,288,37,,,,24*5B
$GNGLL,4357.34025,N,00501.68044,E,112905.00,A,D*73
$GNGRS,112905.00,1,0.1,3.5,0.7,-0.4,-0.2,-13.0,1.0,2.5,,,,*41
$GNGRS,112905.00,1,2.4,-1.5,17.4,-2.9,-7.2,,,,,,,*63
$GNGST,112905.00,39,,,,1.9,1.8,4.4*4C
$GNZDA,112905.00,13,05,2025,00,00*74
$GNGBS,112905.00,1.9,1.8,4.4,,,,*50
b0X  ]'
'00c
%?p #-u?X$3  S  D x#{"$%'AFG"4HoLM N*'OSVCW#8X$& b ao$A$GNRMC,112906.00,A,4357.34024,N,00501.68040,E,0.005,,130525,,,D*69
$GNVTG,,T,,M,0.005,N,0.010,K,D*3C
$GNGNS,112906.00,4357.34024,N,00501.68040,E,DA,13,0.83,63.7,47.7,,0000*55
$GNGGA,112906.00,4357.34024,N,00501.68040,E,2,12,0.83,63.7,M,47.7,M,,0000*78
$GNGSA,A,3,27,16,23,26,10,18,08,02,,,,,1.72,0.83,1.50*12
$GNGSA,A,3,87,78,86,71,72,,,,,,,,1.72,0.83,1.50*1A
$GPGSV,4,1,15,01,04,246,22,02,32,260,29,07,08,295,19,08,48,304,39*71
$GPGSV,4,2,15,10,63,112,37,15,04,032,,16,45,187,35,18,11,063,14*7F
$GPGSV,4,3,15,23,36,051,29,26,18,176,32,27,83,032,32,30,02,324,*77
$GPGSV,4,4,15,32,04,133,17,36,36,154,34,49,39,180,37*42
$GLGSV,3,1,12,65,03,159,,70,04,013,,71,29,052,34,72,30,111,23*63
$GLGSV,3,2,12,76,00,185,,77,32,216,22,78,42,295,23,79,09,339,20*64
$GLGSV,3,3,12,86,19,067,20,87,56,029,35,88,38,288,36,,,,22*5E
$GNGLL,4357.34024,N,00501.68040,E,112906.00,A,D*75
$GNGRS,112906.00,1,0.3,3.7,-0.5,-0.5,0.1,23.9,1.0,3.5,,,,*64
$GNGRS,112906.00,1,2.4,-0.8,17.1,-2.8,-5.7,,,,,,,*6F
$GNGST,112906.00,28,,,,1.9,1.8,4.4*4F
$GNZDA,112906.00,13,05,2025,00,00*77
$GNGBS,112906.00,1.9,1.8,4.4,,,,*53
b0X g'
'00K
%?p #-r?P$3!S "D x#{#$&'AFG!4iHoLM N*'OSVCW$8X#& bao$$GNRMC,112907.00,A,4357.34024,N,00501.68038,E,0.017,,130525,,,D*64
$GNVTG,,T,,M,0.017,N,0.031,K,D*3C
$GNGNS,112907.00,4357.34024,N,00501.68038,E,DA,13,0.83,63.6,47.7,,0000*5A
$GNGGA,112907.00,4357.34024,N,00501.68038,E,2,12,0.83,63.6,M,47.7,M,,0000*77
$GNGSA,A,3,27,16,23,26,10,18,08,02,,,,,1.72,0.83,1.50*12
$GNGSA,A,3,87,78,86,71,72,,,,,,,,1.72,0.83,1.50*1A
$GPGSV,4,1,15,01,04,246,21,02,32,260,30,07,08,295,20,08,48,304,39*70
$GPGSV,4,2,15,10,63,112,37,15,04,032,,16,45,187,35,18,11,063,18*73
$GPGSV,4,3,15,23,36,051,28,26,18,176,31,27,83,032,33,30,02,324,*74
$GPGSV,4,4,15,32,04,133,17,36,36,154,35,49,39,180,38*4C
$GLGSV,3,1,12,65,03,159,,70,04,013,,71,29,052,33,72,30,111,20*67
$GLGSV,3,2,12,76,00,185,,77,32,216,22,78,42,295,23,79,09,339,20*64
$GLGSV,3,3,12,86,19,067,21,87,56,029,36,88,38,288,35,,,,20*5D
$GNGLL,4357.34024,N,00501.68038,E,112907.00,A,D*7B
$GNGRS,112907.00,1,0.3,3.7,0.2,-0.5,0.1,23.8,0.7,6.1,,,,*49
$GNGRS,112907.00,1,2.3,-0.9,17.5,-1.5,-5.3,,,,,,,*66
$GNGST,112907.00,29,,,,1.9,1.8,4.4*4F
$GNZDA,112907.00,13,05,2025,00,00*76
$GNGBS,112907.00,1.9,1.8,4.4,,,,*52
b0X '
'00N
%?p #-b?$3E!S D x#{#$&'AFG 4Ho3LM N*'OSVCeW$8X#& gbao$o$GNRMC,112908.00,A,4357.34024,N,00501.68036,E,0.036,,130525,,,D*66
$GNVTG,,T,,M,0.036,N,0.066,K,D*3D
$GNGNS,112908.00,4357.34024,N,00501.68036,E,DA,13,0.83,63.6,47.7,,0000*5B
$GNGGA,112908.00,4357.34024,N,00501.68036,E,2,12,0.83,63.6,M,47.7,M,,0000*76
$GNGSA,A,3,27,16,23,26,10,18,08,02,,,,,1.72,0.83,1.50*12
$GNGSA,A,3,87,78,86,71,72,,,,,,,,1.72,0.83,1.50*1A
$GPGSV,4,1,15,01,04,246,21,02,32,260,29,07,08,295,20,08,48,304,39*78
$GPGSV,4,2,15,10,63,112,37,15,04,032,,16,45,187,35,18,11,063,13*78
$GPGSV,4,3,15,23,36,051,28,26,18,176,31,27,83,032,33,30,02,324,*74
$GPGSV,4,4,15,32,04,133,17,36,36,154,35,49,39,180,38*4C
$GLGSV,3,1,12,65,03,159,,70,04,013,,71,29,052,32,72,30,111,19*6C
$GLGSV,3,2,12,76,00,185,,77,32,216,22,78,42,295,22,79,09,339,18*6E
$GLGSV,3,3,12,86,19,067,20,87,56,029,36,88,38,288,35,,,,21*5D
$GNGLL,4357.34024,N,00501.68036,E,112908.00,A,D*7A
$GNGRS,112908.00,1,1.4,3.5,-4.4,-0.5,0.2,24.4,0.8,1.5,,,,*69
$GNGRS,112908.00,1,2.5,0.1,16.4,-2.8,-4.6,,,,,,,*40
$GNGST,112908.00,30,,,,1.9,1.8,4.5*49
$GNZDA,112908.00,13,05,2025,00,00*79
$GNGBS,112908.00,1.9,1.8,4.5,,,,*5C
b0X h'
(00.
$?p: $-;?`$3k !S D x#{$$%'AFG 42HoLM N*'OSVC~W$8X#&!*bao$Gj$GNRMC,112909.00,A,4357.34023,N,00501.68037,E,0.043,,130525,,,D*63
$GNVTG,,T,,M,0.043,N,0.079,K,D*31
$GNGNS,112909.00,4357.34023,N,00501.68037,E,DA,14,0.79,63.6,47.7,,0000*5E
$GNGGA,112909.00,4357.34023,N,00501.68037,E,2,12,0.79,63.6,M,47.7,M,,0000*74
$GNGSA,A,3,27,16,23,26,10,18,08,02,,,,,1.68,0.79,1.48*15
$GNGSA,A,3,87,78,86,71,88,72,,,,,,,1.68,0.79,1.48*1D
$GPGSV,4,1,15,01,04,246,22,02,32,260,30,07,08,295,21,08,48,304,40*7C
$GPGSV,4,2,15,10,63,112,36,15,04,032,,16,45,187,36,18,11,063,15*7C
$GPGSV,4,3,15,23,36,051,26,26,18,176,32,27,83,032,33,30,02,324,*79
$GPGSV,4,4,15,32,04,133,18,36,36,154,36,49,39,180,37*4F
$GLGSV,3,1,12,65,03,159,,70,04,013,,71,29,052,32,72,30,111,20*66
$GLGSV,3,2,12,76,00,185,,77,32,216,21,78,42,295,23,79,09,339,19*6D
$GLGSV,3,3,12,86,19,067,19,87,56,029,36,88,38,289,35,,,,21*56
$GNGLL,4357.34023,N,00501.68037,E,112909.00,A,D*7D
$GNGRS,112909.00,1,1.4,3.2,1.1,-0.6,0.6,21.4,0.5,3.6,,,,*4C
$GNGRS,112909.00,1,2.6,-0.1,16.6,3.1,-1.2,-3.1,,,,,,*48
$GNGST,112909.00,29,,,,1.9,1.8,4.5*40
$GNZDA,112909.00,13,05,2025,00,00*78
$GNGBS,112909.00,1.9,1.8,4.5,,,,*5D
b0X '
(00"
#?p7 %-6?W$3 !S :D x#{$$%'AFG4=HoLM N*'OSVCW%8X#&!.bao$$GNRMC,112910.00,A,4357.34020,N,00501.68037,E,0.049,,130525,,,D*62
$GNVTG,,T,,M,0.049,N,0.091,K,D*3D
$GNGNS,112910.00,4357.34020,N,00501.68037,E,DA,14,0.77,63.6,47.7,,0000*5B
$GNGGA,112910.00,4357.34020,N,00501.68037,E,2,12,0.77,63.6,M,47.7,M,,0000*71
$GNGSA,A,3,27,16,23,26,10,18,08,02,,,,,1.51,0.77,1.30*1E
$GNGSA,A,3,87,78,86,71,88,72,,,,,,,1.51,0.77,1.30*16
$GPGSV,4,1,15,01,04,246,22,02,32,260,29,07,08,295,22,08,48,304,40*77
$GPGSV,4,2,15,10,63,112,35,15,04,032,,16,45,187,37,18,11,063,15*7E
$GPGSV,4,3,15,23,36,051,23,26,18,176,32,27,83,032,33,30,02,324,*7C
$GPGSV,4,4,15,32,04,133,19,36,36,154,36,49,39,180,37*4E
$GLGSV,3,1,12,65,03,159,,70,04,013,,71,29,052,31,72,30,111,20*65
$GLGSV,3,2,12,76,00,185,,77,32,216,21,78,42,295,23,79,09,339,19*6D
$GLGSV,3,3,12,86,19,067,19,87,56,029,37,88,38,289,35,,,,21*57
$GNGLL,4357.34020,N,00501.68037,E,112910.00,A,D*76
$GNGRS,112910.00,1,3.1,3.1,9.2,-0.7,0.6,18.8,0.3,6.9,,,,*40
$GNGRS,112910.00,1,2.4,-1.0,16.9,3.2,-1.3,-3.0,,,,,,*4E
$GNGST,112910.00,38,,,,1.9,1.8,4.5*48
$GNZDA,112910.00,13,05,2025,00,00*70
$GNGBS,112910.00,1.9,1.8,4.5,,,,*55
b0X '
'00
"?pX %-$?
$3$!S D x#{$$%'AFG4SHoLM N*'OSVCW%8X#&!xubao$:$GNRMC,112911.00,A,4357.34018,N,00501.68037,E,0.036,,130525,,,D*60
$GNVTG,,T,,M,0.036,N,0.067,K,D*3C
$GNGNS,112911.00,4357.34018,N,00501.68037,E,DA,14,0.77,63.6,47.7,,0000*51
$GNGGA,112911.00,4357.34018,N,00501.68037,E,2,12,0.77,63.6,M,47.7,M,,0000*7B
$GNGSA,A,3,27,16,23,26,10,18,08,02,,,,,1.51,0.77,1.30*1E
$GNGSA,A,3,87,78,86,71,88,72,,,,,,,1.51,0.77,1.30*16
$GPGSV,4,1,15,01,04,246,23,02,32,260,29,07,08,295,22,08,48,304,39*78
$GPGSV,4,2,15,10,63,112,34,15,04,032,,16,45,187,37,18,11,063,13*79
$GPGSV,4,3,15,23,36,051,20,26,18,176,31,27,83,032,33,30,02,324,*7C
$GPGSV,4,4,15,32,04,133,20,36,36,154,36,49,39,180,37*44
$GLGSV,3,1,12,65,03,159,,70,04,013,,71,29,052,31,72,30,111,21*64
$GLGSV,3,2,12,76,00,185,,77,32,216,20,78,42,295,23,79,09,339,19*6C
$GLGSV,3,3,12,86,19,067,19,87,56,029,37,88,38,289,35,,,,20*56
$GNGLL,4357.34018,N,00501.68037,E,112911.00,A,D*7C
$GNGRS,112911.00,1,2.3,2.9,3.9,0.4,0.9,15.5,0.2,6.9,,,,*6A
$GNGRS,112911.00,1,2.5,-0.7,15.0,0.8,-1.4,-2.5,,,,,,*48
$GNGST,112911.00,40,,,,1.9,1.8,4.6*45
$GNZDA,112911.00,13,05,2025,00,00*71
$GNGBS,112911.00,1.9,1.8,4.6,,,,*57
b0X '
'00
#?pz %-
?p$3!S D x#{$$%'AFG4EHoLM N*'OSVCW%8X#&!Ubaol$$GNRMC,112912.00,A,4357.34015,N,00501.68036,E,0.090,,130525,,,D*63
$GNVTG,,T,,M,0.090,N,0.167,K,D*31
$GNGNS,112912.00,4357.34015,N,00501.68036,E,DA,13,0.79,63.7,47.7,,0000*56
$GNGGA,112912.00,4357.34015,N,00501.68036,E,2,12,0.79,63.7,M,47.7,M,,0000*7B
$GNGSA,A,3,27,16,23,26,10,08,02,,,,,,1.68,0.79,1.48*1C
$GNGSA,A,3,87,78,86,71,88,72,,,,,,,1.68,0.79,1.48*1D
$GPGSV,4,1,15,01,04,246,23,02,32,260,29,07,08,295,23,08,48,304,39*79
$GPGSV,4,2,15,10,63,112,35,15,04,032,,16,45,187,37,18,11,063,10*7B
$GPGSV,4,3,15,23,36,051,17,26,18,176,31,27,83,032,33,30,02,324,*78
$GPGSV,4,4,15,32,04,133,20,36,36,154,36,49,39,180,37*44
$GLGSV,3,1,12,65,03,159,,70,04,013,,71,29,052,31,72,30,111,22*67
$GLGSV,3,2,12,76,00,185,,77,32,216,20,78,42,295,23,79,09,339,19*6C
$GLGSV,3,3,12,86,19,067,20,87,56,029,37,88,38,289,35,,,,21*5D
$GNGLL,4357.34015,N,00501.68036,E,112912.00,A,D*73
$GNGRS,112912.00,1,0.2,2.7,1.8,1.7,1.2,0.3,1.7,,,,,*78
$GNGRS,112912.00,1,2.2,-0.6,15.2,-1.9,-1.2,-3.1,,,,,,*61
$GNGST,112912.00,33,,,,1.9,1.8,4.6*42
$GNZDA,112912.00,13,05,2025,00,00*72
$GNGBS,112912.00,1.9,1.8,4.6,,,,*54
b0Xx \'
'004
#?p~ %-?.$3+!S D x#{$$%'AFG4PHo_LM N*'OSVCgW%8X#&!bxaoT$
$GNRMC,112913.00,A,4357.34013,N,00501.68035,E,0.059,,130525,,,D*62
$GNVTG,,T,,M,0.059,N,0.110,K,D*34
$GNGNS,112913.00,4357.34013,N,00501.68035,E,DA,14,0.77,63.8,47.7,,0000*54
$GNGGA,112913.00,4357.34013,N,00501.68035,E,2,12,0.77,63.8,M,47.7,M,,0000*7E
$GNGSA,A,3,27,16,23,26,10,18,08,02,,,,,1.51,0.77,1.30*1E
$GNGSA,A,3,87,78,86,71,88,72,,,,,,,1.51,0.77,1.30*16
$GPGSV,4,1,15,01,04,246,23,02,32,260,29,07,08,295,23,08,48,304,39*79
$GPGSV,4,2,15,10,63,112,35,15,04,032,,16,45,187,37,18,11,063,11*7A
$GPGSV,4,3,15,23,36,051,16,26,18,176,31,27,83,032,33,30,02,324,*79
$GPGSV,4,4,15,32,04,133,19,36,36,154,36,49,39,180,37*4E
$GLGSV,3,1,12,65,03,158,,70,04,013,,71,29,052,31,72,30,111,23*67
$GLGSV,3,2,12,76,00,185,,77,32,216,20,78,42,295,25,79,09,339,20*60
$GLGSV,3,3,12,86,19,067,21,87,56,029,37,88,38,289,35,,,,22*5F
$GNGLL,4357.34013,N,00501.68035,E,112913.00,A,D*77
$GNGRS,112913.00,1,1.9,2.5,-0.9,0.4,1.3,10.7,0.5,0.9,,,,*4E
$GNGRS,112913.00,1,2.2,0.1,13.8,-1.8,-0.7,-1.6,,,,,,*46
$GNGST,112913.00,42,,,,1.9,1.8,4.7*44
$GNZDA,112913.00,13,05,2025,00,00*73
$GNGBS,112913.00,1.9,1.8,4.7,,,,*54
b0X` '
'00(
#?p %-?A$3T@"S D x#{$$%'AFG4HogLM N*'OSVCW%8X#&!^b`ao< $$GNRMC,112914.00,A,4357.34011,N,00501.68037,E,0.053,,130525,,,D*6F
$GNVTG,,T,,M,0.053,N,0.099,K,D*3E
$GNGNS,112914.00,4357.34011,N,00501.68037,E,DA,14,0.77,63.8,47.7,,0000*53
$GNGGA,112914.00,4357.34011,N,00501.68037,E,2,12,0.77,63.8,M,47.7,M,,0000*79
$GNGSA,A,3,27,16,23,26,10,18,08,02,,,,,1.51,0.77,1.30*1E
$GNGSA,A,3,87,78,86,71,88,72,,,,,,,1.51,0.77,1.30*16
$GPGSV,4,1,15,01,04,246,23,02,32,260,30,07,08,295,24,08,48,304,39*76
$GPGSV,4,2,15,10,63,112,35,15,04,032,,16,45,187,37,18,11,063,13*78
$GPGSV,4,3,15,23,36,051,14,26,18,176,31,27,83,032,34,30,02,324,*7C
$GPGSV,4,4,15,32,04,133,17,36,36,154,36,49,39,180,37*40
$GLGSV,3,1,12,65,03,158,,70,04,013,,71,29,052,31,72,30,111,23*67
$GLGSV,3,2,12,76,00,185,,77,32,216,20,78,42,295,25,79,09,339,20*60
$GLGSV,3,3,12,86,19,067,22,87,56,029,37,88,38,289,35,,,,22*5C
$GNGLL,4357.34011,N,00501.68037,E,112914.00,A,D*70
$GNGRS,112914.00,1,-1.2,2.3,0.8,3.2,1.6,13.4,0.4,-0.1,,,,*61
$GNGRS,112914.00,1,1.7,-0.1,16.6,-0.8,-0.6,-1.5,,,,,,*62
$GNGST,112914.00,41,,,,1.9,1.8,4.7*40
$GNZDA,112914.00,13,05,2025,00,00*74
$GNGBS,112914.00,1.9,1.8,4.7,,,,*53
b0XH q'
'00
#?p %-?$3"S }D x#{$$%'AFG4]HoLM N*'FOSVCW%8X#&!bHao$$$X$GNRMC,112915.00,A,4357.34008,N,00501.68040,E,0.037,,130525,,,D*64
$GNVTG,,T,,M,0.037,N,0.069,K,D*33
$GNGNS,112915.00,4357.34008,N,00501.68040,E,DA,13,0.79,63.7,47.7,,0000*5C
$GNGGA,112915.00,4357.34008,N,00501.68040,E,2,12,0.79,63.7,M,47.7,M,,0000*71
$GNGSA,A,3,27,16,26,10,18,08,02,,,,,,1.52,0.79,1.30*12
$GNGSA,A,3,87,78,86,71,88,72,,,,,,,1.52,0.79,1.30*1B
$GPGSV,4,1,15,01,04,246,22,02,32,260,29,07,08,295,24,08,48,304,39*7F
$GPGSV,4,2,15,10,63,112,35,15,04,032,,16,45,187,37,18,11,063,15*7E
$GPGSV,4,3,15,23,36,051,,26,18,176,31,27,83,032,34,30,02,324,*79
$GPGSV,4,4,15,32,04,133,17,36,36,154,36,49,39,180,37*40
$GLGSV,3,1,12,65,03,158,,70,04,013,,71,29,052,31,72,30,111,24*60
$GLGSV,3,2,12,76,00,185,,77,32,216,20,78,42,295,25,79,09,339,21*61
$GLGSV,3,3,12,86,19,067,22,87,56,029,37,88,38,289,35,,,,22*5C
$GNGLL,4357.34008,N,00501.68040,E,112915.00,A,D*79
$GNGRS,112915.00,1,-1.3,2.0,2.3,1.8,15.0,0.3,1.1,,,,,*63
$GNGRS,112915.00,1,1.5,0.7,14.3,-1.6,-0.7,-2.3,,,,,,*46
$GNGST,112915.00,33,,,,1.9,1.8,4.7*44
$GNZDA,112915.00,13,05,2025,00,00*75
$GNGBS,112915.00,1.9,1.8,4.7,,,,*52
b0X0 '
'00
$?p %-?k$3`"S iD x#{$$%'AFG4HoLM N*'4OSVCW%8X#&!pb0ao($0P$GNRMC,112916.00,A,4357.34007,N,00501.68043,E,0.012,,130525,,,D*6C
$GNVTG,,T,,M,0.012,N,0.021,K,D*38
$GNGNS,112916.00,4357.34007,N,00501.68043,E,DA,13,0.79,63.7,47.7,,0000*53
$GNGGA,112916.00,4357.34007,N,00501.68043,E,2,12,0.79,63.7,M,47.7,M,,0000*7E
$GNGSA,A,3,27,16,26,10,18,08,02,,,,,,1.52,0.79,1.30*12
$GNGSA,A,3,87,78,86,71,88,72,,,,,,,1.52,0.79,1.30*1B
$GPGSV,4,1,15,01,04,246,23,02,32,260,30,07,08,295,25,08,48,304,39*77
$GPGSV,4,2,15,10,63,112,36,15,04,032,,16,45,187,37,18,11,063,15*7D
$GPGSV,4,3,15,23,36,051,,26,18,176,30,27,83,032,34,30,02,324,*78
$GPGSV,4,4,15,32,04,133,18,36,36,154,36,49,39,180,37*4F
$GLGSV,3,1,12,65,03,158,,70,04,013,,71,29,052,31,72,30,111,24*60
$GLGSV,3,2,12,76,00,185,,77,32,216,20,78,42,295,25,79,09,339,21*61
$GLGSV,3,3,12,86,19,067,23,87,56,029,37,88,38,289,35,,,,23*5C
$GNGLL,4357.34007,N,00501.68043,E,112916.00,A,D*76
$GNGRS,112916.00,1,-1.5,1.7,-1.6,2.1,11.3,0.3,-2.9,,,,,*62
$GNGRS,112916.00,1,1.5,0.5,12.1,-3.5,-0.4,-2.5,,,,,,*47
$GNGST,112916.00,33,,,,1.9,1.8,4.8*48
$GNZDA,112916.00,13,05,2025,00,00*76
$GNGBS,112916.00,1.9,1.8,4.8,,,,*5E
b0X '
'00
$?p %-?$3#S TD x#{#$%'AFG4HorLM N*'WOSVCW%8X#&!bao+$$GNRMC,112917.00,A,4357.34006,N,00501.68044,E,0.037,,130525,,,D*6C
$GNVTG,,T,,M,0.037,N,0.068,K,D*32
$GNGNS,112917.00,4357.34006,N,00501.68044,E,DA,13,0.79,63.8,47.7,,0000*5B
$GNGGA,112917.00,4357.34006,N,00501.68044,E,2,12,0.79,63.8,M,47.7,M,,0000*76
$GNGSA,A,3,27,16,26,10,18,08,02,,,,,,1.52,0.79,1.30*12
$GNGSA,A,3,87,78,86,71,88,72,,,,,,,1.52,0.79,1.30*1B
$GPGSV,4,1,15,01,04,246,22,02,32,260,30,07,08,295,25,08,48,304,39*76
$GPGSV,4,2,15,10,63,112,36,15,04,032,,16,45,187,37,18,11,063,15*7D
$GPGSV,4,3,15,23,36,051,,26,18,176,30,27,83,032,35,30,02,324,*79
$GPGSV,4,4,15,32,04,133,18,36,36,154,35,49,39,180,37*4C
$GLGSV,3,1,12,65,03,158,,70,04,013,,71,29,052,31,72,30,111,24*60
$GLGSV,3,2,12,76,00,185,,77,32,216,21,78,42,295,25,79,09,339,21*60
$GLGSV,3,3,12,86,19,067,23,87,56,029,37,88,38,289,35,,,,23*5C
$GNGLL,4357.34006,N,00501.68044,E,112917.00,A,D*71
$GNGRS,112917.00,1,-1.7,1.5,-1.1,2.2,10.2,0.2,1.8,,,,,*49
$GNGRS,112917.00,1,1.4,0.9,12.4,-2.7,-0.7,-1.4,,,,,,*4C
$GNGST,112917.00,33,,,,1.9,1.8,4.8*49
$GNZDA,112917.00,13,05,2025,00,00*77
$GNGBS,112917.00,1.9,1.8,4.8,,,,*5F
b0X '
&00
$?p %-?j$3#S UD x#{#$%'AFG4HodLM N*'OSVC
W$8X#&!Zbao/$$GNRMC,112918.00,A,4357.34000,N,00501.68046,E,0.116,,130525,,,D*65
$GNVTG,,T,,M,0.116,N,0.215,K,D*38
$GNGNS,112918.00,4357.34000,N,00501.68046,E,DA,13,0.79,63.8,47.7,,0000*50
$GNGGA,112918.00,4357.34000,N,00501.68046,E,2,12,0.79,63.8,M,47.7,M,,0000*7D
$GNGSA,A,3,27,16,26,10,18,08,02,,,,,,1.52,0.79,1.30*12
$GNGSA,A,3,87,78,86,71,88,72,,,,,,,1.52,0.79,1.30*1B
$GPGSV,4,1,15,01,04,246,22,02,32,260,30,07,08,295,25,08,48,304,38*77
$GPGSV,4,2,15,10,63,112,36,15,04,032,,16,45,187,37,18,11,063,14*7C
$GPGSV,4,3,15,23,36,051,13,26,18,176,30,27,83,032,35,30,02,324,*7B
$GPGSV,4,4,15,32,04,133,18,36,36,154,35,49,39,180,37*4C
$GLGSV,3,1,12,65,03,158,,70,03,013,,71,29,052,31,72,30,111,24*67
$GLGSV,3,2,12,76,00,185,,77,32,216,20,78,42,295,24,79,09,339,21*60
$GLGSV,3,3,12,86,19,067,24,87,56,029,36,88,38,289,35,,,,22*5B
$GNGLL,4357.34000,N,00501.68046,E,112918.00,A,D*7A
$GNGRS,112918.00,1,-1.7,1.7,-0.7,1.8,11.3,0.2,0.1,,,,,*42
$GNGRS,112918.00,1,2.5,1.5,12.9,-1.2,0.9,1.0,,,,,,*4D
$GNGST,112918.00,36,,,,2.7,2.6,5.0*4A
$GNZDA,112918.00,13,05,2025,00,00*78
$GNGBS,112918.00,2.7,2.6,5.0,,,,*59
b0X 'd
&00
%?p %-?$$3o$S @D vx#{#$%'AFG3mHoLM N*'OSVCW$8X"&!\bao3$v$GNRMC,112919.00,A,4357.33995,N,00501.68051,E,0.031,,130525,,,D*64
$GNVTG,,T,,M,0.031,N,0.058,K,D*37
$GNGNS,112919.00,4357.33995,N,00501.68051,E,DA,13,0.79,63.7,47.7,,0000*5A
$GNGGA,112919.00,4357.33995,N,00501.68051,E,2,12,0.79,63.7,M,47.7,M,,0000*77
$GNGSA,A,3,27,16,26,10,18,08,02,,,,,,1.52,0.79,1.30*12
$GNGSA,A,3,87,78,86,71,88,72,,,,,,,1.52,0.79,1.30*1B
$GPGSV,4,1,15,01,04,246,22,02,32,260,30,07,08,295,25,08,48,304,38*77
$GPGSV,4,2,15,10,63,112,37,15,04,032,,16,45,187,37,18,11,063,14*7D
$GPGSV,4,3,15,23,36,051,13,26,18,176,29,27,83,032,36,30,02,324,*70
$GPGSV,4,4,15,32,04,133,17,36,36,154,35,49,39,180,37*43
$GLGSV,3,1,12,65,03,158,,70,03,013,,71,29,051,31,72,30,111,25*65
$GLGSV,3,2,12,76,00,185,,77,32,216,20,78,42,295,24,79,09,339,21*60
$GLGSV,3,3,12,86,19,067,25,87,56,029,36,88,38,289,34,,,,21*58
$GNGLL,4357.33995,N,00501.68051,E,112919.00,A,D*7F
$GNGRS,112919.00,1,-1.9,1.7,1.5,1.6,10.6,0.1,1.7,,,,,*6D
$GNGRS,112919.00,1,2.5,1.5,12.4,-1.5,0.9,-0.3,,,,,,*69
$GNGST,112919.00,35,,,,2.6,2.6,5.0*49
$GNZDA,112919.00,13,05,2025,00,00*79
$GNGBS,112919.00,2.6,2.6,5.0,,,,*59
b0X H'
&00
%?p %-?$3$S  D x#{ $$'AFG3OHnLM N*'OSVCW$8X"&!zbao7$$GNRMC,112920.00,A,4357.33992,N,00501.68056,E,0.046,,130525,,,D*6E
$GNVTG,,T,,M,0.046,N,0.084,K,D*36
$GNGNS,112920.00,4357.33992,N,00501.68056,E,DA,13,0.79,63.6,47.7,,0000*51
$GNGGA,112920.00,4357.33992,N,00501.68056,E,2,12,0.79,63.6,M,47.7,M,,0000*7C
$GNGSA,A,3,27,16,26,10,18,08,02,,,,,,1.52,0.79,1.30*12
$GNGSA,A,3,87,78,86,71,88,72,,,,,,,1.52,0.79,1.30*1B
$GPGSV,4,1,15,01,04,246,22,02,32,260,30,07,08,295,25,08,48,304,38*77
$GPGSV,4,2,15,10,63,112,37,15,04,032,,16,45,187,37,18,11,063,15*7C
$GPGSV,4,3,15,23,36,051,16,26,18,176,29,27,83,032,36,30,02,324,*75
$GPGSV,4,4,15,32,04,133,16,36,36,154,32,49,39,180,36*44
$GLGSV,3,1,12,65,03,158,,70,03,013,,71,29,051,31,72,31,110,26*66
$GLGSV,3,2,12,76,00,185,,77,32,216,20,78,42,295,23,79,09,339,21*67
$GLGSV,3,3,12,86,19,067,25,87,56,029,36,88,38,289,34,,,,22*5B
$GNGLL,4357.33992,N,00501.68056,E,112920.00,A,D*75
$GNGRS,112920.00,1,-2.2,1.4,1.8,1.5,7.8,0.3,-4.4,,,,,*73
$GNGRS,112920.00,1,1.6,-0.8,9.7,-1.8,0.2,-0.4,,,,,,*7A
$GNGST,112920.00,33,,,,2.6,2.5,5.0*46
$GNZDA,112920.00,13,05,2025,00,00*73
$GNGBS,112920.00,2.6,2.5,5.0,,,,*50
b0X 8'
&00D
%?p %-q?$3W$S D ?x#{ $$'AFG3HnLM N*'OSVCW%8X"&!bao;$fF$GNRMC,112921.00,A,4357.33991,N,00501.68062,E,0.025,,130525,,,D*6E
$GNVTG,,T,,M,0.025,N,0.047,K,D*3C
$GNGNS,112921.00,4357.33991,N,00501.68062,E,DA,14,0.77,63.4,47.7,,0000*5F
$GNGGA,112921.00,4357.33991,N,00501.68062,E,2,12,0.77,63.4,M,47.7,M,,0000*75
$GNGSA,A,3,27,16,23,26,10,18,08,02,,,,,1.51,0.77,1.30*1E
$GNGSA,A,3,87,78,86,71,88,72,,,,,,,1.51,0.77,1.30*16
$GPGSV,4,1,15,01,04,246,21,02,32,260,30,07,08,295,25,08,48,304,38*74
$GPGSV,4,2,15,10,63,112,37,15,04,032,,16,45,187,37,18,11,063,17*7E
$GPGSV,4,3,15,23,36,051,20,26,18,176,28,27,83,032,36,30,02,324,*71
$GPGSV,4,4,15,32,04,133,15,36,36,154,32,49,39,180,36*47
$GLGSV,3,1,12,65,03,158,,70,03,013,,71,29,051,30,72,31,110,25*64
$GLGSV,3,2,12,76,00,185,,77,32,216,20,78,42,295,23,79,09,339,21*67
$GLGSV,3,3,12,86,19,067,25,87,56,029,37,88,38,289,34,,,,22*5A
$GNGLL,4357.33991,N,00501.68062,E,112921.00,A,D*70
$GNGRS,112921.00,1,-2.3,1.1,8.6,4.5,1.4,6.8,0.7,-2.0,,,,*58
$GNGRS,112921.00,1,1.8,0.2,7.9,2.7,0.2,-0.7,,,,,,*70
$GNGST,112921.00,32,,,,2.5,2.5,5.0*45
$GNZDA,112921.00,13,05,2025,00,00*72
$GNGBS,112921.00,2.5,2.5,5.0,,,,*52
b0X 0 '0
&00I
%?p %-]?U$3$S D /x#{ $$'AFG3HnLM N*'OSVCW%8X"&!kGb ao|?$>$GNRMC,112922.00,A,4357.33991,N,00501.68068,E,0.003,,130525,,,D*63
$GNVTG,,T,,M,0.003,N,0.006,K,D*3D
$GNGNS,112922.00,4357.33991,N,00501.68068,E,DA,14,0.77,63.3,47.7,,0000*51
$GNGGA,112922.00,4357.33991,N,00501.68068,E,2,12,0.77,63.3,M,47.7,M,,0000*7B
$GNGSA,A,3,27,16,23,26,10,18,08,02,,,,,1.51,0.77,1.30*1E
$GNGSA,A,3,87,78,86,71,88,72,,,,,,,1.51,0.77,1.30*16
$GPGSV,4,1,15,01,04,246,21,02,32,260,30,07,08,295,24,08,48,304,38*75
$GPGSV,4,2,15,10,63,112,37,15,04,032,,16,45,187,37,18,11,063,19*70
$GPGSV,4,3,15,23,36,051,22,26,18,176,28,27,83,032,36,30,02,324,*73
