b0@#!%
 21
'@k)*@#2`(S3B x#{'$*'AFG0H!!lM!N*"OQVEW 6!X(#0bao($GNRMC,113417.00,A,4357.34746,N,00501.68467,E,0.042,,130525,,,D*64
$GNVTG,,T,,M,0.042,N,0.077,K,D*3E
$GNGNS,113417.00,4357.34746,N,00501.68467,E,DA,14,0.76,56.9,47.7,,0000*5E
$GNGGA,113417.00,4357.34746,N,00501.68467,E,2,12,0.76,56.9,M,47.7,M,,0000*74
$GNGSA,A,3,27,16,23,26,10,08,02,,,,,,1.62,0.76,1.43*12
$GNGSA,A,3,87,77,78,86,71,88,72,,,,,,1.62,0.76,1.43*13
$GPGSV,4,1,15,01,06,248,15,02,33,262,35,07,08,293,,08,50,305,32*7A
$GPGSV,4,2,15,10,64,107,39,15,04,030,,16,42,186,41,18,09,064,*7E
$GPGSV,4,3,15,23,35,050,30,26,16,176,31,27,83,051,40,30,02,322,*76
$GPGSV,4,4,15,32,06,131,,36,36,154,39,49,39,180,42*4B
$GLGSV,3,1,10,65,05,158,,70,02,011,,71,28,048,15,72,33,108,33*61
$GLGSV,3,2,10,77,29,215,33,78,42,290,20,79,11,337,,86,17,069,09*6F
$GLGSV,3,3,10,87,54,033,32,88,40,291,27*60
$GNGLL,4357.34746,N,00501.68467,E,113417.00,A,D*7B
$GNGRS,113417.00,1,0.0,-0.1,2.4,-1.6,-0.4,-3.1,-2.6,,,,,*50
$GNGRS,113417.00,1,2.1,1.5,4.4,7.0,-2.3,0.2,-18.8,,,,,*4D
$GNGST,113417.00,3179277,,,,1.4,1.3,3.4*76
$GNZDA,113417.00,13,05,2025,00,00*7B
$GNGBS,113417.00,1.4,1.3,3.4,,,,*5E
b0@ !s%
21
$@k-&*@#2s&S3B x#{'$%'AFG0H!lMTN*"5OQVEW6!X(#ybao(6$GNRMC,113418.00,A,4357.34745,N,00501.68470,E,0.136,,130525,,,D*6C
$GNVTG,,T,,M,0.136,N,0.252,K,D*39
$GNGNS,113418.00,4357.34745,N,00501.68470,E,DA,13,0.80,57.0,47.7,,0000*52
$GNGGA,113418.00,4357.34745,N,00501.68470,E,2,12,0.80,57.0,M,47.7,M,,0000*7F
$GNGSA,A,3,27,16,23,26,10,08,02,,,,,,1.69,0.80,1.49*1A
$GNGSA,A,3,87,77,78,86,88,72,,,,,,,1.69,0.80,1.49*1D
$GPGSV,4,1,15,01,06,248,13,02,33,262,32,07,08,293,,08,50,305,25*7D
$GPGSV,4,2,15,10,64,107,36,15,04,030,,16,42,186,38,18,09,064,17*79
$GPGSV,4,3,15,23,35,050,24,26,16,176,25,27,83,051,38,30,02,322,*79
$GPGSV,4,4,15,32,06,131,,36,36,154,39,49,39,180,37*49
$GLGSV,3,1,10,65,05,158,,70,02,011,,71,28,048,,72,33,108,27*60
$GLGSV,3,2,10,77,29,215,27,78,42,290,17,79,11,337,,86,17,069,11*67
$GLGSV,3,3,10,87,54,033,26,88,40,291,24*66
$GNGLL,4357.34745,N,00501.68470,E,113418.00,A,D*71
$GNGRS,113418.00,1,0.2,0.1,7.5,-1.4,3.0,-6.3,-1.4,,,,,*5A
$GNGRS,113418.00,1,1.6,3.4,3.1,7.2,-1.4,-17.7,,,,,,*6D
$GNGST,113418.00,3299292,,,,1.5,1.3,3.5*7F
$GNZDA,113418.00,13,05,2025,00,00*74
$GNGBS,113418.00,1.5,1.3,3.5,,,,*51
b0@&!%
 21S
+@k+*)@%#2%,S3&B x#{-$+'AFG0H!lMN*"OQVEW6"
X(#jebao($GNRMC,113419.00,A,4357.34743,N,00501.68477,E,0.102,,130525,,,D*6B
$GNVTG,,T,,M,0.102,N,0.190,K,D*33
$GNGNS,113419.00,4357.34743,N,00501.68477,E,DA,13,0.89,56.9,47.7,,0000*53
$GNGGA,113419.00,4357.34743,N,00501.68477,E,2,12,0.89,56.9,M,47.7,M,,0000*7E
$GNGSA,A,3,27,16,23,26,10,08,02,,,,,,2.06,0.89,1.85*19
$GNGSA,A,3,87,77,78,86,88,72,,,,,,,2.06,0.89,1.85*1E
$GPGSV,4,1,15,01,06,248,12,02,33,262,38,07,08,293,,08,50,305,32*70
$GPGSV,4,2,15,10,64,107,43,15,04,030,,16,42,186,43,18,09,064,*71
$GPGSV,4,3,15,23,35,050,37,26,16,176,37,27,83,051,44,30,02,322,*73
$GPGSV,4,4,15,32,06,131,,36,36,154,45,49,39,180,43*41
$GLGSV,3,1,10,65,05,158,,70,02,011,,71,28,048,21,72,33,108,27*63
$GLGSV,3,2,10,77,29,215,27,78,42,290,14,79,11,337,,86,17,069,09*6D
$GLGSV,3,3,10,87,54,034,26,88,40,291,23*66
$GNGLL,4357.34743,N,00501.68477,E,113419.00,A,D*71
$GNGRS,113419.00,1,0.4,0.4,6.9,-0.5,-1.3,-4.3,-5.1,,,,,*7A
$GNGRS,113419.00,1,0.1,0.2,2.6,56.2,-1.5,-19.0,,,,,,*55
$GNGST,113419.00,35,,,,1.4,1.3,3.3*47
$GNZDA,113419.00,13,05,2025,00,00*75
$GNGBS,113419.00,1.4,1.3,3.3,,,,*57
b0@
#!n%
21M
'@k'*&@"#2#)S3#B x#{*$('AFG0H"!lM!N*"OQVEW 6"eX(#RWbao(~$GNRMC,113420.00,A,4357.34740,N,00501.68469,E,0.014,,130525,,,D*6B
$GNVTG,,T,,M,0.014,N,0.026,K,D*39
$GNGNS,113420.00,4357.34740,N,00501.68469,E,DA,13,0.80,57.2,47.7,,0000*56
$GNGGA,113420.00,4357.34740,N,00501.68469,E,2,12,0.80,57.2,M,47.7,M,,0000*7B
$GNGSA,A,3,27,16,23,26,10,08,02,,,,,,1.69,0.80,1.49*1A
$GNGSA,A,3,87,77,78,86,88,72,,,,,,,1.69,0.80,1.49*1D
$GPGSV,4,1,15,01,06,248,10,02,33,262,35,07,08,293,,08,50,305,30*7D
$GPGSV,4,2,15,10,64,107,39,15,04,030,,16,42,186,39,18,09,064,*71
$GPGSV,4,3,15,23,35,050,34,26,16,176,35,27,83,051,41,30,02,322,*77
$GPGSV,4,4,15,32,06,131,,36,36,154,42,49,39,180,40*45
$GLGSV,3,1,10,65,05,158,,70,02,011,,71,28,048,26,72,33,108,34*66
$GLGSV,3,2,10,77,29,215,33,78,42,290,16,79,11,337,,86,17,069,11*63
$GLGSV,3,3,10,87,54,034,32,88,40,291,25*65
$GNGLL,4357.34740,N,00501.68469,E,113420.00,A,D*77
$GNGRS,113420.00,1,0.3,0.4,3.9,-0.5,-0.7,-1.8,-4.0,,,,,*79
$GNGRS,113420.00,1,-1.6,1.3,2.0,7.0,-0.1,-17.8,,,,,,*47
$GNGST,113420.00,3300339,,,,1.5,1.3,3.3*73
$GNZDA,113420.00,13,05,2025,00,00*7F
$GNGBS,113420.00,1.5,1.3,3.3,,,,*5C
b0@&!%
 21>
*@k+*'@&#2%+S3B x#{,$+'AFG0H!!lM"WN*"OQV
EW!6"X(#baot(Vn$GNRMC,113421.00,A,4357.34742,N,00501.68495,E,0.034,,130525,,,D*69
$GNVTG,,T,,M,0.034,N,0.062,K,D*3B
$GNGNS,113421.00,4357.34742,N,00501.68495,E,DA,14,0.76,57.2,47.7,,0000*58
$GNGGA,113421.00,4357.34742,N,00501.68495,E,2,12,0.76,57.2,M,47.7,M,,0000*72
$GNGSA,A,3,27,16,23,26,10,08,02,,,,,,1.62,0.76,1.43*12
$GNGSA,A,3,87,77,78,86,71,88,72,,,,,,1.62,0.76,1.43*13
$GPGSV,4,1,15,01,06,248,,02,33,262,38,07,08,293,,08,50,305,32*73
$GPGSV,4,2,15,10,64,107,42,15,04,030,,16,42,186,43,18,09,064,*70
$GPGSV,4,3,15,23,35,050,38,26,16,176,37,27,83,051,43,30,02,322,*7B
$GPGSV,4,4,15,32,06,131,,36,36,154,44,49,39,180,43*40
$GLGSV,3,1,10,65,05,158,,70,02,011,,71,28,048,28,72,33,108,33*6F
$GLGSV,3,2,10,77,29,215,34,78,42,290,17,79,11,337,,86,17,069,10*64
$GLGSV,3,3,10,87,54,034,33,88,40,291,28*69
$GNGLL,4357.34742,N,00501.68495,E,113421.00,A,D*77
$GNGRS,113421.00,1,0.1,0.4,2.6,-2.4,1.8,3.2,-0.7,,,,,*72
$GNGRS,113421.00,1,5.0,-1.7,1.9,6.5,-10.3,-0.4,-15.8,,,,,*78
$GNGST,113421.00,3180286,,,,1.4,1.3,3.1*7E
$GNZDA,113421.00,13,05,2025,00,00*7E
$GNGBS,113421.00,1.4,1.3,3.1,,,,*5E
b0@%"3%
 21
)@k**@$#2$)S3B x#{*$*'AFG0H !lM!vN*"OQVE+W 6"X(#bao\(.$GNRMC,113422.00,A,4357.34737,N,00501.68503,E,0.053,,130525,,,D*67
$GNVTG,,T,,M,0.053,N,0.098,K,D*3F
$GNGNS,113422.00,4357.34737,N,00501.68503,E,DA,14,0.80,57.3,47.7,,0000*5F
$GNGGA,113422.00,4357.34737,N,00501.68503,E,2,12,0.80,57.3,M,47.7,M,,0000*75
$GNGSA,A,3,27,16,23,26,10,08,02,,,,,,1.82,0.80,1.63*17
$GNGSA,A,3,87,77,78,86,71,88,72,,,,,,1.82,0.80,1.63*16
$GPGSV,4,1,15,01,06,248,,02,34,262,37,07,08,293,,08,50,305,32*7B
$GPGSV,4,2,15,10,64,107,41,15,04,030,,16,42,186,42,18,09,064,*72
$GPGSV,4,3,15,23,35,050,36,26,16,176,36,27,83,051,41,30,02,322,*76
$GPGSV,4,4,15,32,06,131,,36,36,154,42,49,39,180,42*47
$GLGSV,3,1,10,65,05,158,,70,02,011,,71,28,048,28,72,33,108,32*6E
$GLGSV,3,2,10,77,29,215,33,78,42,290,19,79,11,337,,86,17,069,12*6F
$GLGSV,3,3,10,87,54,034,32,88,40,291,28*68
$GNGLL,4357.34737,N,00501.68503,E,113422.00,A,D*78
$GNGRS,113422.00,1,0.0,0.3,2.3,0.1,0.2,0.2,-4.6,,,,,*55
$GNGRS,113422.00,1,5.4,3.7,2.0,-30.3,1.4,5.4,-13.4,,,,,*7C
$GNGST,113422.00,27,,,,1.4,1.2,3.1*4F
$GNZDA,113422.00,13,05,2025,00,00*7D
$GNGBS,113422.00,1.4,1.2,3.1,,,,*5C
b0@h$"8%
21Q
(@k'*@##2#Q)S3B x#{*$)'AFG00H!l2M N*"oOQVEW 6"X(#CXbhaoD(>$GNRMC,113423.00,A,4357.34739,N,00501.68491,E,0.070,,130525,,,D*63
$GNVTG,,T,,M,0.070,N,0.130,K,D*3D
$GNGNS,113423.00,4357.34739,N,00501.68491,E,DA,14,0.76,57.2,47.7,,0000*52
$GNGGA,113423.00,4357.34739,N,00501.68491,E,2,12,0.76,57.2,M,47.7,M,,0000*78
$GNGSA,A,3,27,16,23,26,10,08,02,,,,,,1.62,0.76,1.43*12
$GNGSA,A,3,87,77,78,86,71,88,72,,,,,,1.62,0.76,1.43*13
$GPGSV,4,1,15,01,06,248,,02,34,262,36,07,08,293,,08,50,305,31*79
$GPGSV,4,2,15,10,64,107,40,15,04,030,,16,42,186,39,18,09,064,*7F
$GPGSV,4,3,15,23,35,050,35,26,16,176,35,27,83,051,41,30,02,322,*76
$GPGSV,4,4,15,32,06,131,,36,36,154,42,49,39,180,41*44
$GLGSV,3,1,10,65,05,158,,70,02,011,,71,28,048,28,72,33,108,31*6D
$GLGSV,3,2,10,77,29,215,32,78,42,290,18,79,11,337,,86,17,069,07*6B
$GLGSV,3,3,10,87,54,034,32,88,40,291,28*68
$GNGLL,4357.34739,N,00501.68491,E,113423.00,A,D*7D
$GNGRS,113423.00,1,-0.1,0.2,3.9,3.4,-1.2,3.4,-4.6,,,,,*5D
$GNGRS,113423.00,1,4.2,4.9,1.1,6.6,-2.1,2.2,-14.9,,,,,*4C
$GNGST,113423.00,3179277,,,,1.4,1.2,3.1*75
$GNZDA,113423.00,13,05,2025,00,00*7C
$GNGBS,113423.00,1.4,1.2,3.1,,,,*5D
b0@P$"C%
21o
(@kZ(*@##2!M(S3B x#{)$('AFG0PH !lgM!_N*";OQV
EW 6"X(#0%bPao,($GNRMC,113424.00,A,4357.34741,N,00501.68471,E,0.034,,130525,,,D*65
$GNVTG,,T,,M,0.034,N,0.063,K,D*3A
$GNGNS,113424.00,4357.34741,N,00501.68471,E,DA,14,0.76,57.2,47.7,,0000*54
$GNGGA,113424.00,4357.34741,N,00501.68471,E,2,12,0.76,57.2,M,47.7,M,,0000*7E
$GNGSA,A,3,27,16,23,26,10,08,02,,,,,,1.62,0.76,1.43*12
$GNGSA,A,3,87,77,78,86,71,88,72,,,,,,1.62,0.76,1.43*13
$GPGSV,4,1,15,01,06,248,,02,34,262,36,07,08,293,,08,50,305,30*78
$GPGSV,4,2,15,10,64,107,40,15,04,030,,16,42,186,40,18,09,064,*71
$GPGSV,4,3,15,23,35,050,35,26,16,176,33,27,83,051,40,30,02,322,*71
$GPGSV,4,4,15,32,06,131,,36,36,154,41,49,39,180,40*46
$GLGSV,3,1,10,65,05,158,,70,02,011,,71,28,048,28,72,33,108,32*6E
$GLGSV,3,2,10,77,29,215,33,78,42,290,16,79,11,337,,86,17,069,10*62
$GLGSV,3,3,10,87,54,034,32,88,40,291,27*67
$GNGLL,4357.34741,N,00501.68471,E,113424.00,A,D*7B
$GNGRS,113424.00,1,0.1,0.2,4.2,0.8,-1.7,1.1,-4.5,,,,,*75
$GNGRS,113424.00,1,1.3,3.5,0.6,6.5,-1.8,1.3,-16.9,,,,,*4B
$GNGST,113424.00,3179277,,,,1.3,1.2,3.1*75
$GNZDA,113424.00,13,05,2025,00,00*7B
$GNGBS,113424.00,1.3,1.2,3.1,,,,*5D
b0@8#"%
21
(@k)* @ #2")S3B x#{)$('AFG0H !lM#N*"LOQVE)W 6"AX(#x9{b8ao($GNRMC,113425.00,A,4357.34739,N,00501.68454,E,0.006,,130525,,,D*6D
$GNVTG,,T,,M,0.006,N,0.011,K,D*3E
$GNGNS,113425.00,4357.34739,N,00501.68454,E,DA,14,0.80,57.2,47.7,,0000*54
$GNGGA,113425.00,4357.34739,N,00501.68454,E,2,12,0.80,57.2,M,47.7,M,,0000*7E
$GNGSA,A,3,27,16,23,26,10,08,02,,,,,,1.82,0.80,1.63*17
$GNGSA,A,3,87,77,78,86,71,88,72,,,,,,1.82,0.80,1.63*16
$GPGSV,4,1,15,01,06,248,,02,34,262,35,07,08,293,,08,50,305,30*7B
$GPGSV,4,2,15,10,64,107,40,15,04,030,,16,42,186,41,18,09,064,*70
$GPGSV,4,3,15,23,35,050,32,26,16,176,34,27,83,051,41,30,02,322,*70
$GPGSV,4,4,15,32,06,131,,36,36,154,41,49,39,180,40*46
$GLGSV,3,1,10,65,05,158,,70,02,011,,71,28,048,28,72,33,108,32*6E
$GLGSV,3,2,10,77,29,215,35,78,42,290,17,79,11,337,,86,17,069,08*6C
$GLGSV,3,3,10,87,54,034,32,88,40,291,28*68
$GNGLL,4357.34739,N,00501.68454,E,113425.00,A,D*72
$GNGRS,113425.00,1,-0.1,0.3,4.2,-0.3,-1.2,0.3,-3.0,,,,,*7A
$GNGRS,113425.00,1,5.8,2.5,0.8,105,-3.6,-3.9,-20.4,,,,,*72
$GNGST,113425.00,28,,,,1.3,1.2,3.1*40
$GNZDA,113425.00,13,05,2025,00,00*7A
$GNGBS,113425.00,1.3,1.2,3.1,,,,*5C
b0@ &"%
#21
&@k**@#2"N*S3B x#{+$+'AFG0!H"!lM AN*"OQVEW"6"_X(#6b ao(s$GNRMC,113426.00,A,4357.34728,N,00501.68461,E,0.082,,130525,,,D*64
$GNVTG,,T,,M,0.082,N,0.151,K,D*37
$GNGNS,113426.00,4357.34728,N,00501.68461,E,DA,14,0.76,57.5,47.7,,0000*5F
$GNGGA,113426.00,4357.34728,N,00501.68461,E,2,12,0.76,57.5,M,47.7,M,,0000*75
$GNGSA,A,3,27,16,23,26,10,08,02,,,,,,1.62,0.76,1.43*12
$GNGSA,A,3,87,77,78,86,71,88,72,,,,,,1.62,0.76,1.43*13
$GPGSV,4,1,15,01,06,248,,02,34,262,38,07,08,293,,08,50,305,35*73
$GPGSV,4,2,15,10,64,107,38,15,04,030,,16,42,186,42,18,09,064,*7C
$GPGSV,4,3,15,23,35,050,25,26,16,176,34,27,83,051,42,30,02,322,*75
$GPGSV,4,4,15,32,06,131,22,36,36,154,43,49,39,180,43*47
$GLGSV,3,1,10,65,05,158,,70,02,011,,71,28,048,25,72,33,108,34*65
$GLGSV,3,2,10,77,29,215,32,78,42,290,17,79,11,337,,86,17,069,17*65
$GLGSV,3,3,10,87,54,034,34,88,40,291,29*6F
$GNGLL,4357.34728,N,00501.68461,E,113426.00,A,D*77
$GNGRS,113426.00,1,-0.2,0.3,5.1,0.8,-1.2,1.4,-3.8,,,,,*50
$GNGRS,113426.00,1,6.1,3.2,-0.4,6.9,-9.9,0.5,-16.4,,,,,*6B
$GNGST,113426.00,3179277,,,,1.3,1.2,3.1*77
$GNZDA,113426.00,13,05,2025,00,00*79
$GNGBS,113426.00,1.3,1.2,3.1,,,,*5F
b0@%"$
#21
)@k**@"#2gZ*S3B x#{*$+'AFG0H!l-M!N*"9OQVEW6"X(#ibao(e$GNRMC,113427.00,A,4357.34726,N,00501.68450,E,0.036,,130525,,,D*66
$GNVTG,,T,,M,0.036,N,0.067,K,D*3C
$GNGNS,113427.00,4357.34726,N,00501.68450,E,DA,14,0.76,57.5,47.7,,0000*52
$GNGGA,113427.00,4357.34726,N,00501.68450,E,2,12,0.76,57.5,M,47.7,M,,0000*78
$GNGSA,A,3,27,16,23,26,10,08,02,,,,,,1.62,0.76,1.43*12
$GNGSA,A,3,87,77,78,86,71,88,72,,,,,,1.62,0.76,1.43*13
$GPGSV,4,1,15,01,06,248,,02,34,262,37,07,08,292,,08,50,305,35*7D
$GPGSV,4,2,15,10,64,107,41,15,04,030,,16,42,186,42,18,09,064,*72
$GPGSV,4,3,15,23,35,050,34,26,16,176,31,27,83,051,42,30,02,322,*70
$GPGSV,4,4,15,32,06,131,,36,36,154,42,49,39,180,43*46
$GLGSV,3,1,10,65,05,158,,70,02,011,,71,28,048,25,72,33,108,31*60
$GLGSV,3,2,10,77,29,215,33,78,42,290,19,79,11,337,,86,17,069,09*65
$GLGSV,3,3,10,87,54,034,31,88,40,291,29*6A
$GNGLL,4357.34726,N,00501.68450,E,113427.00,A,D*7A
$GNGRS,113427.00,1,0.0,0.2,8.7,0.9,-1.1,-0.3,-3.6,,,,,*53
$GNGRS,113427.00,1,4.8,2.8,0.6,7.0,-10.1,-2.8,-14.9,,,,,*50
$GNGST,113427.00,3179277,,,,1.3,1.2,3.1*76
$GNZDA,113427.00,13,05,2025,00,00*78
$GNGBS,113427.00,1.3,1.2,3.1,,,,*5E
b0@&"$
"21
)@k**"@!#2n+S3B x#{)$*'AFG0*H !lM!0N*"COQVE
W6"X(#5*Ebao(<4$GNRMC,113428.00,A,4357.34720,N,00501.68448,E,0.011,,130525,,,D*63
$GNVTG,,T,,M,0.011,N,0.021,K,D*3B
$GNGNS,113428.00,4357.34720,N,00501.68448,E,DA,14,0.80,57.8,47.7,,0000*56
$GNGGA,113428.00,4357.34720,N,00501.68448,E,2,12,0.80,57.8,M,47.7,M,,0000*7C
$GNGSA,A,3,27,16,23,26,10,08,02,,,,,,1.82,0.80,1.63*17
$GNGSA,A,3,87,77,78,86,71,88,72,,,,,,1.82,0.80,1.63*16
$GPGSV,4,1,15,01,06,248,,02,34,262,38,07,08,292,,08,50,305,34*73
$GPGSV,4,2,15,10,64,107,41,15,04,030,,16,42,186,42,18,09,064,*72
$GPGSV,4,3,15,23,35,050,33,26,16,176,31,27,83,051,43,30,02,322,*76
$GPGSV,4,4,15,32,06,131,,36,36,154,41,49,39,180,42*44
$GLGSV,3,1,10,65,05,158,,70,02,011,,71,28,048,22,72,33,108,32*64
$GLGSV,3,2,10,77,29,215,33,78,42,290,21,79,11,337,,86,17,069,15*63
$GLGSV,3,3,10,87,54,034,31,88,40,291,29*6A
$GNGLL,4357.34720,N,00501.68448,E,113428.00,A,D*7A
$GNGRS,113428.00,1,0.1,0.3,10.1,1.1,-0.7,-0.4,-3.2,,,,,*6E
$GNGRS,113428.00,1,1.4,3.0,0.7,27.8,-9.8,0.5,-15.5,,,,,*7A
$GNGST,113428.00,25,,,,1.3,1.2,3.0*41
$GNZDA,113428.00,13,05,2025,00,00*77
$GNGBS,113428.00,1.3,1.2,3.0,,,,*50
b0@%"$
!21[
(@k)*-@"#2 m+S3B x#{)$)'AFG0AH!lM!JN*"OQVEW 6"X(#
bao($GNRMC,113429.00,A,4357.34716,N,00501.68444,E,0.100,,130525,,,D*6A
$GNVTG,,T,,M,0.100,N,0.185,K,D*35
$GNGNS,113429.00,4357.34716,N,00501.68444,E,DA,14,0.76,57.8,47.7,,0000*57
$GNGGA,113429.00,4357.34716,N,00501.68444,E,2,12,0.76,57.8,M,47.7,M,,0000*7D
$GNGSA,A,3,27,16,23,26,10,08,02,,,,,,1.62,0.76,1.43*12
$GNGSA,A,3,87,77,78,86,71,88,72,,,,,,1.62,0.76,1.43*13
$GPGSV,4,1,15,01,06,248,,02,34,262,37,07,08,292,,08,50,305,33*7B
$GPGSV,4,2,15,10,64,107,40,15,04,030,,16,42,186,41,18,09,064,*70
$GPGSV,4,3,15,23,35,050,34,26,16,176,32,27,83,051,43,30,02,322,*72
$GPGSV,4,4,15,32,06,131,,36,36,154,41,49,39,180,41*47
$GLGSV,3,1,10,65,05,158,,70,02,011,,71,28,048,23,72,33,108,31*66
$GLGSV,3,2,10,77,29,215,33,78,42,290,20,79,11,337,,86,17,069,08*6E
$GLGSV,3,3,10,87,54,034,32,88,40,291,28*68
$GNGLL,4357.34716,N,00501.68444,E,113429.00,A,D*72
$GNGRS,113429.00,1,0.0,0.4,6.9,1.1,-0.5,0.9,-3.2,,,,,*74
$GNGRS,113429.00,1,1.9,3.3,1.5,6.7,-7.0,-0.4,-14.0,,,,,*64
$GNGST,113429.00,3179277,,,,1.3,1.1,3.0*7A
$GNZDA,113429.00,13,05,2025,00,00*76
$GNGBS,113429.00,1.3,1.1,3.0,,,,*52
b0@$"$
 21
)@i)*#@##2!z+S3B x#{*$)'AFG0H !l"M!)N*"OQVEW!6"X(#Jbao($GNRMC,113430.00,A,4357.34714,N,00501.68438,E,0.048,,130525,,,D*66
$GNVTG,,T,,M,0.048,N,0.089,K,D*35
$GNGNS,113430.00,4357.34714,N,00501.68438,E,DA,14,0.76,57.7,47.7,,0000*59
$GNGGA,113430.00,4357.34714,N,00501.68438,E,2,12,0.76,57.7,M,47.7,M,,0000*73
$GNGSA,A,3,27,16,23,26,10,08,02,,,,,,1.62,0.76,1.43*12
$GNGSA,A,3,87,77,78,86,71,88,72,,,,,,1.62,0.76,1.43*13
$GPGSV,4,1,15,01,06,248,,02,34,262,36,07,08,292,,08,50,305,32*7B
$GPGSV,4,2,15,10,64,105,41,15,04,030,,16,42,186,41,18,09,064,*73
$GPGSV,4,3,15,23,35,050,35,26,16,176,33,27,83,051,43,30,02,322,*72
$GPGSV,4,4,15,32,06,131,,36,36,154,42,49,39,180,41*44
$GLGSV,3,1,10,65,05,158,,70,02,011,,71,28,048,25,72,33,108,32*63
$GLGSV,3,2,10,77,29,215,33,78,42,290,19,79,11,337,,86,17,069,12*6F
$GLGSV,3,3,10,87,54,034,33,88,40,291,28*69
$GNGLL,4357.34714,N,00501.68438,E,113430.00,A,D*73
$GNGRS,113430.00,1,-0.3,0.4,4.6,1.2,-0.7,-1.1,-3.4,,,,,*7C
$GNGRS,113430.00,1,1.9,3.0,1.4,6.6,-4.8,4.7,-15.0,,,,,*4F
$GNGST,113430.00,3179277,,,,1.3,1.1,3.0*72
$GNZDA,113430.00,13,05,2025,00,00*7E
$GNGBS,113430.00,1.3,1.1,3.0,,,,*5A
b0@$"$
!21%
)@i(*@%#2 *S3B x#{*$('AFG0H!lM /N*"OQVE-W"6"X(#Krbao(l$GNRMC,113431.00,A,4357.34717,N,00501.68434,E,0.047,,130525,,,D*67
$GNVTG,,T,,M,0.047,N,0.087,K,D*34
$GNGNS,113431.00,4357.34717,N,00501.68434,E,DA,14,0.76,57.4,47.7,,0000*54
$GNGGA,113431.00,4357.34717,N,00501.68434,E,2,12,0.76,57.4,M,47.7,M,,0000*7E
$GNGSA,A,3,27,16,23,26,10,08,02,,,,,,1.62,0.76,1.43*12
$GNGSA,A,3,87,77,78,86,71,88,72,,,,,,1.62,0.76,1.43*13
$GPGSV,4,1,15,01,06,248,,02,34,262,36,07,08,292,,08,50,305,33*7A
$GPGSV,4,2,15,10,64,105,41,15,04,030,,16,42,186,40,18,09,064,*72
$GPGSV,4,3,15,23,35,050,37,26,16,176,32,27,83,051,42,30,02,322,*70
$GPGSV,4,4,15,32,06,131,,36,36,154,42,49,39,180,40*45
$GLGSV,3,1,10,65,05,158,,70,02,011,,71,28,048,26,72,33,108,31*63
$GLGSV,3,2,10,77,29,215,32,78,42,290,18,79,11,337,,86,17,069,11*6C
$GLGSV,3,3,10,87,54,034,34,88,40,291,27*61
$GNGLL,4357.34717,N,00501.68434,E,113431.00,A,D*7D
$GNGRS,113431.00,1,-0.3,0.2,4.9,1.3,-0.7,0.4,-3.4,,,,,*5C
$GNGRS,113431.00,1,1.9,3.0,1.9,-20.0,-3.0,5.9,-13.2,,,,,*58
$GNGST,113431.00,43,,,,1.3,1.1,3.0*4A
$GNZDA,113431.00,13,05,2025,00,00*7F
$GNGBS,113431.00,1.3,1.1,3.0,,,,*5B
b0@&"$
!21
+@i+*@&#2#,S3B x#{,$,'AFG0~H !lM"8N*"=OQVEW#6"X(#'Qbaol($GNRMC,113432.00,A,4357.34725,N,00501.68441,E,0.032,,130525,,,D*65
$GNVTG,,T,,M,0.032,N,0.059,K,D*35
$GNGNS,113432.00,4357.34725,N,00501.68441,E,DA,14,0.76,56.9,47.7,,0000*58
$GNGGA,113432.00,4357.34725,N,00501.68441,E,2,12,0.76,56.9,M,47.7,M,,0000*72
$GNGSA,A,3,27,16,23,26,10,08,02,,,,,,1.62,0.76,1.43*12
$GNGSA,A,3,87,77,78,86,71,88,72,,,,,,1.62,0.76,1.43*13
$GPGSV,4,1,15,01,06,248,,02,34,262,38,07,08,292,,08,50,305,33*74
$GPGSV,4,2,15,10,64,105,43,15,04,030,,16,42,186,43,18,09,064,*73
$GPGSV,4,3,15,23,35,050,38,26,16,176,35,27,83,051,44,30,02,322,*7E
$GPGSV,4,4,15,32,06,131,,36,36,154,44,49,39,180,44*47
$GLGSV,3,1,10,65,05,158,,70,02,011,,71,28,048,27,72,33,108,32*61
$GLGSV,3,2,10,77,29,215,34,78,42,290,18,79,11,337,,86,17,069,13*68
$GLGSV,3,3,10,87,54,034,35,88,40,291,27*60
$GNGLL,4357.34725,N,00501.68441,E,113432.00,A,D*7D
$GNGRS,113432.00,1,-0.1,0.1,4.5,1.4,-0.6,-0.8,-3.3,,,,,*72
$GNGRS,113432.00,1,2.0,3.1,3.2,6.4,-3.9,6.5,-12.6,,,,,*47
$GNGST,113432.00,3179277,,,,1.2,1.1,2.9*79
$GNZDA,113432.00,13,05,2025,00,00*7C
$GNGBS,113432.00,1.2,1.1,2.9,,,,*51
b0@x&"$
!21
)@i**@!#2 +S3B x#{*$*'AFG0H!lM!N*"`OQVEW6"X(#bxaoT(t<$GNRMC,113433.00,A,4357.34721,N,00501.68445,E,0.022,,130525,,,D*65
$GNVTG,,T,,M,0.022,N,0.041,K,D*3D
$GNGNS,113433.00,4357.34721,N,00501.68445,E,DA,14,0.76,56.9,47.7,,0000*59
$GNGGA,113433.00,4357.34721,N,00501.68445,E,2,12,0.76,56.9,M,47.7,M,,0000*73
$GNGSA,A,3,27,16,23,26,10,08,02,,,,,,1.62,0.76,1.43*12
$GNGSA,A,3,87,77,78,86,71,88,72,,,,,,1.62,0.76,1.43*13
$GPGSV,4,1,15,01,06,248,,02,34,262,38,07,08,292,,08,50,305,33*74
$GPGSV,4,2,15,10,64,105,41,15,04,030,,16,42,186,42,18,09,064,*70
$GPGSV,4,3,15,23,35,050,33,26,16,176,32,27,83,051,43,30,02,322,*75
$GPGSV,4,4,15,32,06,131,,36,36,154,42,49,39,180,42*47
$GLGSV,3,1,10,65,05,158,,70,02,011,,71,28,048,25,72,33,108,31*60
$GLGSV,3,2,10,77,29,215,33,78,42,290,20,79,11,337,,86,17,069,16*61
$GLGSV,3,3,10,87,54,034,31,88,40,291,27*64
$GNGLL,4357.34721,N,00501.68445,E,113433.00,A,D*7C
$GNGRS,113433.00,1,0.0,0.1,6.9,1.8,-0.4,-3.2,-3.1,,,,,*54
$GNGRS,113433.00,1,1.9,2.8,3.5,6.5,-2.6,2.5,-5.7,,,,,*7F
$GNGST,113433.00,3179277,,,,1.2,1.1,2.9*78
$GNZDA,113433.00,13,05,2025,00,00*7D
$GNGBS,113433.00,1.2,1.1,2.9,,,,*50
b0@`&"$
"21w
)@i**@ #2 +S3B x#{*$*'AFG0H!lM N*"OQVEW6"X(#H$b`ao<)M$GNRMC,113434.00,A,4357.34716,N,00501.68449,E,0.021,,130525,,,D*69
$GNVTG,,T,,M,0.021,N,0.039,K,D*31
$GNGNS,113434.00,4357.34716,N,00501.68449,E,DA,14,0.76,57.1,47.7,,0000*5F
$GNGGA,113434.00,4357.34716,N,00501.68449,E,2,12,0.76,57.1,M,47.7,M,,0000*75
$GNGSA,A,3,27,16,23,26,10,08,02,,,,,,1.62,0.76,1.43*12
$GNGSA,A,3,87,77,78,86,71,88,72,,,,,,1.62,0.76,1.43*13
$GPGSV,4,1,15,01,06,248,,02,34,262,38,07,08,292,,08,50,305,34*73
$GPGSV,4,2,15,10,64,105,41,15,04,030,,16,42,186,42,18,09,064,*70
$GPGSV,4,3,15,23,35,050,32,26,16,176,32,27,83,051,43,30,02,322,*74
$GPGSV,4,4,15,32,06,131,,36,36,154,42,49,39,180,42*47
$GLGSV,3,1,10,65,05,158,,70,02,011,,71,28,048,22,72,33,108,31*67
$GLGSV,3,2,10,77,29,215,32,78,42,290,21,79,11,337,,86,17,069,20*64
$GLGSV,3,3,10,87,54,034,31,88,40,291,27*64
$GNGLL,4357.34716,N,00501.68449,E,113434.00,A,D*73
$GNGRS,113434.00,1,0.0,0.1,7.7,1.5,-0.2,-1.4,-3.1,,,,,*53
$GNGRS,113434.00,1,2.1,2.7,4.3,-3.7,0.2,2.2,-8.3,,,,,*72
$GNGST,113434.00,37,,,,1.2,1.1,2.9*45
$GNZDA,113434.00,13,05,2025,00,00*7A
$GNGBS,113434.00,1.2,1.1,2.9,,,,*57
b0@H'"$
"21
*@i+*@!#2 -S3B x#{*$+'AFG0AH!lGM 'N*"OQVEW6"X(#-GbHao$)%$GNRMC,113435.00,A,4357.34702,N,00501.68471,E,0.029,,130525,,,D*6E
$GNVTG,,T,,M,0.029,N,0.054,K,D*32
$GNGNS,113435.00,4357.34702,N,00501.68471,E,DA,13,0.80,57.6,47.7,,0000*59
$GNGGA,113435.00,4357.34702,N,00501.68471,E,2,12,0.80,57.6,M,47.7,M,,0000*74
$GNGSA,A,3,27,16,23,26,10,08,02,,,,,,1.82,0.80,1.63*17
$GNGSA,A,3,87,77,78,71,88,72,,,,,,,1.82,0.80,1.63*18
$GPGSV,4,1,15,01,06,248,,02,34,262,39,07,08,292,,08,50,305,34*72
$GPGSV,4,2,15,10,64,105,42,15,03,030,,16,42,186,43,18,09,064,*75
$GPGSV,4,3,15,23,35,050,33,26,16,176,32,27,83,051,45,30,02,322,*73
$GPGSV,4,4,15,32,06,131,,36,36,154,42,49,39,180,43*46
$GLGSV,3,1,10,65,05,158,,70,02,011,,71,28,048,19,72,33,108,31*6F
$GLGSV,3,2,10,77,29,215,32,78,42,290,22,79,11,337,,86,17,069,09*6C
$GLGSV,3,3,10,87,54,034,31,88,40,291,27*64
$GNGLL,4357.34702,N,00501.68471,E,113435.00,A,D*7C
$GNGRS,113435.00,1,0.0,0.1,7.7,2.1,-0.1,-2.3,-2.8,,,,,*5A
$GNGRS,113435.00,1,-1.1,3.0,5.1,0.7,0.4,-7.0,,,,,,*52
$GNGST,113435.00,33,,,,1.2,1.1,2.8*41
$GNZDA,113435.00,13,05,2025,00,00*7B
$GNGBS,113435.00,1.2,1.1,2.8,,,,*57
b0@0'"$
#21
)@i+*@"#2!,S3B x#{+$+'AFG0sH!lGM >N*"5OQVEW6"]X(#pCb0ao
)v$GNRMC,113436.00,A,4357.34690,N,00501.68491,E,0.063,,130525,,,D*67
$GNVTG,,T,,M,0.063,N,0.116,K,D*3B
$GNGNS,113436.00,4357.34690,N,00501.68491,E,DA,14,0.76,57.8,47.7,,0000*5E
$GNGGA,113436.00,4357.34690,N,00501.68491,E,2,12,0.76,57.8,M,47.7,M,,0000*74
$GNGSA,A,3,27,16,23,26,10,08,02,,,,,,1.62,0.76,1.43*12
$GNGSA,A,3,87,77,78,86,71,88,72,,,,,,1.62,0.76,1.43*13
$GPGSV,4,1,15,01,06,248,,02,34,262,39,07,08,292,,08,50,305,35*73
$GPGSV,4,2,15,10,64,105,41,15,03,030,,16,42,186,43,18,09,064,*76
$GPGSV,4,3,15,23,35,050,34,26,16,176,33,27,83,051,44,30,02,322,*74
$GPGSV,4,4,15,32,06,131,,36,36,154,43,49,39,180,43*47
$GLGSV,3,1,10,65,05,158,,70,02,011,,71,28,048,21,72,33,108,31*64
$GLGSV,3,2,10,77,29,215,32,78,42,290,22,79,11,337,,86,17,069,15*61
$GLGSV,3,3,10,87,54,034,31,88,40,291,27*64
$GNGLL,4357.34690,N,00501.68491,E,113436.00,A,D*7B
$GNGRS,113436.00,1,-0.3,0.3,7.8,2.3,0.1,-3.4,-2.4,,,,,*5F
$GNGRS,113436.00,1,0.9,3.2,5.7,4.7,1.1,-0.2,-9.5,,,,,*7B
$GNGST,113436.00,39,,,,1.2,1.0,2.8*49
$GNZDA,113436.00,13,05,2025,00,00*78
$GNGBS,113436.00,1.2,1.0,2.8,,,,*55
b0@'"+$
$21
+@i+*@%#2!-S3B x#{-$+'AFG0H!lM [N*"OQVEUW 6"KX(#bao)$GNRMC,113437.00,A,4357.34688,N,00501.68507,E,0.036,,130525,,,D*61
$GNVTG,,T,,M,0.036,N,0.067,K,D*3C
$GNGNS,113437.00,4357.34688,N,00501.68507,E,DA,14,0.76,57.7,47.7,,0000*57
$GNGGA,113437.00,4357.34688,N,00501.68507,E,2,12,0.76,57.7,M,47.7,M,,0000*7D
$GNGSA,A,3,27,16,23,26,10,08,02,,,,,,1.62,0.76,1.43*12
$GNGSA,A,3,87,77,78,86,71,88,72,,,,,,1.62,0.76,1.43*13
$GPGSV,4,1,15,01,06,248,,02,34,262,39,07,08,292,,08,50,305,36*70
$GPGSV,4,2,15,10,64,105,43,15,03,030,,16,42,186,43,18,09,064,*74
$GPGSV,4,3,15,23,35,050,37,26,16,176,33,27,83,051,45,30,02,322,*76
$GPGSV,4,4,15,32,06,131,,36,36,154,45,49,39,180,43*41
$GLGSV,3,1,10,65,05,158,,70,02,011,,71,28,048,24,72,33,108,31*61
$GLGSV,3,2,10,77,29,215,32,78,42,290,22,79,11,337,,86,17,069,16*62
$GLGSV,3,3,10,87,54,034,32,88,40,291,26*66
$GNGLL,4357.34688,N,00501.68507,E,113437.00,A,D*7D
$GNGRS,113437.00,1,-0.1,0.3,7.4,2.5,-0.1,0.0,-2.1,,,,,*54
$GNGRS,113437.00,1,5.9,3.5,6.6,0.9,-1.2,0.2,-10.0,,,,,*4E
$GNGST,113437.00,36,,,,1.1,1.0,2.7*4B
$GNZDA,113437.00,13,05,2025,00,00*79
$GNGBS,113437.00,1.1,1.0,2.7,,,,*58
b0@%"+$
!21.
(@i**@$#2!,S3B x#{*$*'AFG0H !lM UN*"OQVEW!6"#X(#bao)C$GNRMC,113438.00,A,4357.34691,N,00501.68512,E,0.050,,130525,,,D*62
$GNVTG,,T,,M,0.050,N,0.093,K,D*37
$GNGNS,113438.00,4357.34691,N,00501.68512,E,DA,14,0.76,57.5,47.7,,0000*56
$GNGGA,113438.00,4357.34691,N,00501.68512,E,2,12,0.76,57.5,M,47.7,M,,0000*7C
$GNGSA,A,3,27,16,23,26,10,08,02,,,,,,1.62,0.76,1.43*12
$GNGSA,A,3,87,77,78,86,71,88,72,,,,,,1.62,0.76,1.43*13
$GPGSV,4,1,15,01,06,248,,02,34,262,37,07,08,292,,08,50,305,33*7B
$GPGSV,4,2,15,10,64,105,40,15,03,030,,16,42,186,42,18,09,064,*76
$GPGSV,4,3,15,23,35,050,36,26,16,176,33,27,83,051,44,30,02,322,*76
$GPGSV,4,4,15,32,06,131,,36,36,154,42,49,39,180,42*47
$GLGSV,3,1,10,65,05,158,,70,02,011,,71,28,048,27,72,33,108,32*61
$GLGSV,3,2,10,77,29,215,32,78,42,290,21,79,11,337,,86,17,069,17*60
$GLGSV,3,3,10,87,54,034,33,88,40,291,27*66
$GNGLL,4357.34691,N,00501.68512,E,113438.00,A,D*7E
$GNGRS,113438.00,1,0.0,0.1,7.0,3.8,0.0,0.5,-2.1,,,,,*54
$GNGRS,113438.00,1,5.5,3.4,6.7,-1.0,-0.4,-0.3,-10.0,,,,,*43
$GNGST,113438.00,34,,,,1.1,1.0,2.7*46
$GNZDA,113438.00,13,05,2025,00,00*76
$GNGBS,113438.00,1.1,1.0,2.7,,,,*57
b0@%"-$
"21
)@i)*@$#2 0,S3
B x#{)$*'AFG0gH !lM NN*"gOQVETW!6"X(#0sbao)$GNRMC,113439.00,A,4357.34696,N,00501.68516,E,0.069,,130525,,,D*6A
$GNVTG,,T,,M,0.069,N,0.127,K,D*33
$GNGNS,113439.00,4357.34696,N,00501.68516,E,DA,14,0.76,57.4,47.7,,0000*55
$GNGGA,113439.00,4357.34696,N,00501.68516,E,2,12,0.76,57.4,M,47.7,M,,0000*7F
$GNGSA,A,3,27,16,23,26,10,08,02,,,,,,1.62,0.76,1.43*12
$GNGSA,A,3,87,77,78,86,71,88,72,,,,,,1.62,0.76,1.43*13
$GPGSV,4,1,15,01,06,248,,02,34,262,37,07,08,292,,08,50,305,34*7C
$GPGSV,4,2,15,10,64,105,41,15,03,030,,16,42,186,41,18,09,064,*74
$GPGSV,4,3,15,23,35,050,36,26,16,176,32,27,83,051,44,30,02,322,*77
$GPGSV,4,4,15,32,06,131,,36,36,154,41,49,39,180,42*44
$GLGSV,3,1,10,65,05,158,,70,02,011,,71,28,048,28,72,33,108,32*6E
$GLGSV,3,2,10,77,29,215,32,78,42,290,20,79,11,337,,86,17,069,17*61
$GLGSV,3,3,10,87,54,034,33,88,40,291,27*66
$GNGLL,4357.34696,N,00501.68516,E,113439.00,A,D*7C
$GNGRS,113439.00,1,0.1,0.0,6.7,3.0,0.0,0.1,-2.1,,,,,*5F
$GNGRS,113439.00,1,9.8,3.3,6.1,-1.7,1.0,0.5,-11.3,,,,,*44
$GNGST,113439.00,34,,,,1.1,1.0,2.7*47
$GNZDA,113439.00,13,05,2025,00,00*77
$GNGBS,113439.00,1.1,1.0,2.7,,,,*56
b0@%"T$
"21
)@i**@$#2h ^,S3B x#{*$*'AFG0\H !lM =N*"jOQVE*W!6"X(#
%bao)[$GNRMC,113440.00,A,4357.34698,N,00501.68519,E,0.051,,130525,,,D*6E
$GNVTG,,T,,M,0.051,N,0.095,K,D*30
$GNGNS,113440.00,4357.34698,N,00501.68519,E,DA,14,0.76,57.3,47.7,,0000*5D
$GNGGA,113440.00,4357.34698,N,00501.68519,E,2,12,0.76,57.3,M,47.7,M,,0000*77
$GNGSA,A,3,27,16,23,26,10,08,02,,,,,,1.62,0.76,1.43*12
$GNGSA,A,3,87,77,78,86,71,88,72,,,,,,1.62,0.76,1.43*13
$GPGSV,4,1,15,01,06,248,,02,34,262,37,07,08,292,,08,50,305,34*7C
$GPGSV,4,2,15,10,64,105,41,15,03,030,,16,42,186,42,18,09,064,*77
$GPGSV,4,3,15,23,35,050,36,26,16,176,32,27,83,051,44,30,02,322,*77
$GPGSV,4,4,15,32,06,131,,36,36,154,42,49,39,180,42*47
$GLGSV,3,1,10,65,05,158,,70,02,011,,71,28,048,28,72,33,108,32*6E
$GLGSV,3,2,10,77,29,215,32,78,42,290,20,79,11,337,,86,17,069,17*61
$GLGSV,3,3,10,87,54,034,33,88,40,291,27*66
$GNGLL,4357.34698,N,00501.68519,E,113440.00,A,D*73
$GNGRS,113440.00,1,0.1,0.1,6.2,6.1,0.1,-0.4,-1.7,,,,,*7D
$GNGRS,113440.00,1,7.7,3.2,6.2,-4.7,-1.6,-0.7,-10.7,,,,,*4D
$GNGST,113440.00,33,,,,1.1,1.0,2.7*4E
$GNZDA,113440.00,13,05,2025,00,00*79
$GNGBS,113440.00,1.1,1.0,2.7,,,,*58
b0@%"S$
"21
(@i**@$#2= ,S3B x#{*$*'AFG0H!!lM )N*"OQVEW!6"X(#`ebao)3l$GNRMC,113441.00,A,4357.34699,N,00501.68518,E,0.011,,130525,,,D*6B
$GNVTG,,T,,M,0.011,N,0.021,K,D*3B
$GNGNS,113441.00,4357.34699,N,00501.68518,E,DA,14,0.76,57.3,47.7,,0000*5C
$GNGGA,113441.00,4357.34699,N,00501.68518,E,2,12,0.76,57.3,M,47.7,M,,0000*76
$GNGSA,A,3,27,16,23,26,10,08,02,,,,,,1.62,0.76,1.43*12
$GNGSA,A,3,87,77,78,86,71,88,72,,,,,,1.62,0.76,1.43*13
$GPGSV,4,1,15,01,06,248,,02,34,262,37,07,08,292,,08,50,305,34*7C
$GPGSV,4,2,15,10,64,105,40,15,03,030,,16,42,186,42,18,09,064,*76
$GPGSV,4,3,15,23,35,050,36,26,16,176,32,27,83,051,44,30,02,322,*77
$GPGSV,4,4,15,32,06,131,,36,36,154,42,49,39,180,42*47
$GLGSV,3,1,10,65,05,158,,70,02,011,,71,28,048,28,72,33,108,33*6F
$GLGSV,3,2,10,77,29,215,32,78,42,290,21,79,11,337,,86,17,069,17*60
$GLGSV,3,3,10,87,54,034,33,88,40,291,27*66
$GNGLL,4357.34699,N,00501.68518,E,113441.00,A,D*72
$GNGRS,113441.00,1,0.3,0.2,5.7,5.1,-0.1,-0.2,-1.7,,,,,*53
$GNGRS,113441.00,1,10.0,3.0,6.5,-5.7,-0.7,1.0,-15.1,,,,,*51
$GNGST,113441.00,33,,,,1.1,1.0,2.7*4F
$GNZDA,113441.00,13,05,2025,00,00*78
$GNGBS,113441.00,1.1,1.0,2.7,,,,*59
b0@%"C$
"21
(@i**@$"1# ,S3B x#{*$*'AFG0H !l5M &N*"nOQVE<W!6"X(#4bao|!)$GNRMC,113442.00,A,4357.34700,N,00501.68520,E,0.017,,130525,,,D*64
$GNVTG,,T,,M,0.017,N,0.032,K,D*3F
$GNGNS,113442.00,4357.34700,N,00501.68520,E,DA,14,0.76,57.2,47.7,,0000*54
$GNGGA,113442.00,4357.34700,N,00501.68520,E,2,12,0.76,57.2,M,47.7,M,,0000*7E
$GNGSA,A,3,27,16,23,26,10,08,02,,,,,,1.62,0.76,1.43*12
$GNGSA,A,3,87,77,78,86,71,88,72,,,,,,1.62,0.76,1.43*13
$GPGSV,4,1,15,01,06,248,,02,34,262,37,07,08,292,,08,50,305,34*7C
$GPGSV,4,2,15,10,64,105,40,15,03,030,,16,42,186,42,18,09,064,*76
$GPGSV,4,3,15,23,34,049,36,26,16,176,32,27,83,051,44,30,02,322,*7E
$GPGSV,4,4,15,32,06,131,,36,36,154,42,49,39,180,42*47
$GLGSV,3,1,10,65,05,158,,70,02,011,,71,28,048,28,72,33,108,32*6E
$GLGSV,3,2,10,77,29,215,32,78,42,290,21,79,11,337,,86,17,069,18*6F
$GLGSV,3,3,10,87,54,034,33,88,40,291,26*67
$GNGLL,4357.34700,N,00501.68520,E,113442.00,A,D*7B
$GNGRS,113442.00,1,0.0,0.3,5.5,3.9,-0.1,-0.3,-1.9,,,,,*51
$GNGRS,113442.00,1,7.6,2.9,6.2,-7.1,-1.0,1.8,-12.3,,,,,*62
$GNGST,113442.00,33,,,,1.1,1.0,2.7*4C
$GNZDA,113442.00,13,05,2025,00,00*7B
$GNGBS,113442.00,1.1,1.0,2.7,,,,*5A
b0@%"a$
"21
(@i**@$"1 ,S3B x#{*$*'AFG0jH!!l|M IN*"KOQVEtW 6"X(#Sbaod%)J$GNRMC,113443.00,A,4357.34702,N,00501.68521,E,0.027,,130525,,,D*65
$GNVTG,,T,,M,0.027,N,0.050,K,D*38
$GNGNS,113443.00,4357.34702,N,00501.68521,E,DA,14,0.76,57.0,47.7,,0000*54
$GNGGA,113443.00,4357.34702,N,00501.68521,E,2,12,0.76,57.0,M,47.7,M,,0000*7E
$GNGSA,A,3,27,16,23,26,10,08,02,,,,,,1.62,0.76,1.43*12
$GNGSA,A,3,87,77,78,86,71,88,72,,,,,,1.62,0.76,1.43*13
$GPGSV,4,1,15,01,06,248,,02,34,262,37,07,08,292,,08,50,305,34*7C
$GPGSV,4,2,15,10,64,105,40,15,03,030,,16,42,186,42,18,09,064,*76
$GPGSV,4,3,15,23,34,049,36,26,16,176,32,27,83,051,44,30,02,322,*7E
$GPGSV,4,4,15,32,06,131,,36,36,154,42,49,39,180,42*47
$GLGSV,3,1,10,65,05,158,,70,02,011,,71,28,048,28,72,33,108,33*6F
$GLGSV,3,2,10,77,29,215,32,78,42,290,21,79,11,337,,86,17,069,19*6E
$GLGSV,3,3,10,87,54,034,32,88,40,291,26*66
$GNGLL,4357.34702,N,00501.68521,E,113443.00,A,D*79
$GNGRS,113443.00,1,-0.3,0.1,5.3,4.7,-0.1,-0.4,-1.6,,,,,*7B
$GNGRS,113443.00,1,9.5,3.3,5.9,-9.1,-1.5,4.2,-14.1,,,,,*6D
$GNGST,113443.00,33,,,,1.1,1.0,2.7*4D
$GNZDA,113443.00,13,05,2025,00,00*7A
$GNGBS,113443.00,1.1,1.0,2.7,,,,*5B
b0@p
$"h$
!21
(@i**@#"1 +S3B x#{)$*'AFG0fH !lM!ON*"OQVEMW6"X(#<ebp
aoL))$GNRMC,113444.00,A,4357.34704,N,00501.68521,E,0.037,,130525,,,D*65
$GNVTG,,T,,M,0.037,N,0.069,K,D*33
$GNGNS,113444.00,4357.34704,N,00501.68521,E,DA,14,0.76,56.8,47.7,,0000*5C
$GNGGA,113444.00,4357.34704,N,00501.68521,E,2,12,0.76,56.8,M,47.7,M,,0000*76
$GNGSA,A,3,27,16,23,26,10,08,02,,,,,,1.62,0.76,1.43*12
$GNGSA,A,3,87,77,78,86,71,88,72,,,,,,1.62,0.76,1.43*13
$GPGSV,4,1,15,01,06,248,,02,34,262,36,07,08,292,,08,50,305,33*7A
$GPGSV,4,2,15,10,64,105,40,15,03,030,,16,42,186,42,18,09,064,*76
$GPGSV,4,3,15,23,34,049,35,26,16,176,32,27,83,051,43,30,02,322,*7A
$GPGSV,4,4,15,32,06,131,,36,36,154,41,49,39,180,42*44
$GLGSV,3,1,10,65,05,158,,70,02,011,,71,28,048,28,72,33,108,32*6E
$GLGSV,3,2,10,77,29,215,33,78,42,290,22,79,11,337,,86,17,069,20*66
$GLGSV,3,3,10,87,54,034,31,88,40,291,26*65
$GNGLL,4357.34704,N,00501.68521,E,113444.00,A,D*78
$GNGRS,113444.00,1,-0.4,-0.3,4.9,4.1,-0.2,-0.5,-1.5,,,,,*58
$GNGRS,113444.00,1,6.5,3.4,3.9,-9.5,1.0,3.2,-17.8,,,,,*45
$GNGST,113444.00,29,,,,1.1,1.0,2.7*41
$GNZDA,113444.00,13,05,2025,00,00*7D
$GNGBS,113444.00,1.1,1.0,2.7,,,,*5C
b0@X$"o$
 21
'@i**@""1 t+S3B x#{)$*'AFG0jH !lM!RN*"=OQVEW6"X(#MQ@bXao4-)$GNRMC,113445.00,A,4357.34706,N,00501.68521,E,0.035,,130525,,,D*64
$GNVTG,,T,,M,0.035,N,0.065,K,D*3D
$GNGNS,113445.00,4357.34706,N,00501.68521,E,DA,14,0.76,56.8,47.7,,0000*5F
$GNGGA,113445.00,4357.34706,N,00501.68521,E,2,12,0.76,56.8,M,47.7,M,,0000*75
$GNGSA,A,3,27,16,23,26,10,08,02,,,,,,1.62,0.76,1.43*12
$GNGSA,A,3,87,77,78,86,71,88,72,,,,,,1.62,0.76,1.43*13
$GPGSV,4,1,15,01,06,248,,02,34,262,36,07,08,292,,08,50,305,32*7B
$GPGSV,4,2,15,10,64,105,39,15,03,030,,16,42,186,42,18,09,064,*78
$GPGSV,4,3,15,23,34,049,34,26,16,176,32,27,83,051,43,30,02,322,*7B
$GPGSV,4,4,15,32,06,131,,36,36,154,41,49,39,180,42*44
$GLGSV,3,1,10,65,05,158,,70,02,011,,71,28,048,27,72,33,108,32*61
$GLGSV,3,2,10,77,29,215,33,78,42,290,23,79,11,337,,86,17,069,20*67
$GLGSV,3,3,10,87,54,034,29,88,40,291,26*6C
$GNGLL,4357.34706,N,00501.68521,E,113445.00,A,D*7B
$GNGRS,113445.00,1,-0.1,-0.2,4.8,3.7,0.1,0.1,-1.5,,,,,*5A
$GNGRS,113445.00,1,7.3,3.4,3.2,-10.5,1.1,3.3,-18.1,,,,,*76
$GNGST,113445.00,30,,,,1.1,1.1,2.7*49
$GNZDA,113445.00,13,05,2025,00,00*7C
$GNGBS,113445.00,1.1,1.1,2.7,,,,*5C
b0@@#"s$
 21:
'@i!**@""1 r+S8B x#{)$*'AFG0H !lM!mN*"OQVExW6"X(#b@ao1)l$GNRMC,113446.00,A,4357.34707,N,00501.68522,E,0.063,,130525,,,D*66
$GNVTG,,T,,M,0.063,N,0.116,K,D*3B
$GNGNS,113446.00,4357.34707,N,00501.68522,E,DA,14,0.76,56.8,47.7,,0000*5E
$GNGGA,113446.00,4357.34707,N,00501.68522,E,2,12,0.76,56.8,M,47.7,M,,0000*74
$GNGSA,A,3,27,16,23,26,10,08,02,,,,,,1.62,0.76,1.43*12
$GNGSA,A,3,87,77,78,86,71,88,72,,,,,,1.62,0.76,1.43*13
$GPGSV,4,1,15,01,06,248,,02,34,262,35,07,08,292,,08,50,305,32*78
$GPGSV,4,2,15,10,64,105,39,15,03,030,,16,42,186,42,18,09,064,*78
$GPGSV,4,3,15,23,34,049,34,26,16,176,32,27,83,056,43,30,02,322,*7C
$GPGSV,4,4,15,32,06,131,,36,36,154,41,49,39,180,42*44
$GLGSV,3,1,10,65,05,158,,70,02,011,,71,28,048,27,72,33,108,32*61
$GLGSV,3,2,10,77,29,215,33,78,42,290,24,79,11,337,,86,17,069,19*6A
$GLGSV,3,3,10,87,54,034,29,88,40,291,27*6D
$GNGLL,4357.34707,N,00501.68522,E,113446.00,A,D*7A
$GNGRS,113446.00,1,-0.1,-0.3,4.6,3.7,0.3,-2.0,-1.4,,,,,*7B
$GNGRS,113446.00,1,6.5,3.6,2.6,-9.0,-0.2,2.6,-17.7,,,,,*6A
$GNGST,113446.00,29,,,,1.1,1.1,2.7*42
$GNZDA,113446.00,13,05,2025,00,00*7F
$GNGBS,113446.00,1.1,1.1,2.7,,,,*5F
b0@(#"$
 21t
'@i)**@""1+S8B x#{)$*'AFG0\H !lM!rN*"%OQVEW6"qX(#b(ao5)D$GNRMC,113447.00,A,4357.34709,N,00501.68523,E,0.055,,130525,,,D*6D
$GNVTG,,T,,M,0.055,N,0.101,K,D*38
$GNGNS,113447.00,4357.34709,N,00501.68523,E,DA,14,0.76,56.7,47.7,,0000*5F
$GNGGA,113447.00,4357.34709,N,00501.68523,E,2,12,0.76,56.7,M,47.7,M,,0000*75
$GNGSA,A,3,27,16,23,26,10,08,02,,,,,,1.62,0.76,1.43*12
$GNGSA,A,3,87,77,78,86,71,88,72,,,,,,1.62,0.76,1.43*13
$GPGSV,4,1,15,01,06,248,,02,34,262,35,07,08,292,,08,50,305,32*78
$GPGSV,4,2,15,10,64,105,39,15,03,030,,16,42,186,42,18,09,064,*78
$GPGSV,4,3,15,23,34,049,34,26,16,176,31,27,83,056,43,30,02,322,*7F
$GPGSV,4,4,15,32,06,131,24,36,36,154,41,49,39,180,42*42
$GLGSV,3,1,10,65,05,158,,70,02,011,,71,28,048,27,72,33,108,32*61
$GLGSV,3,2,10,77,29,215,33,78,42,290,25,79,11,337,,86,17,069,18*6A
$GLGSV,3,3,10,87,54,034,28,88,40,291,27*6C
$GNGLL,4357.34709,N,00501.68523,E,113447.00,A,D*74
$GNGRS,113447.00,1,-0.4,-0.3,4.4,3.9,0.4,1.2,-1.2,,,,,*5E
$GNGRS,113447.00,1,11.4,3.7,2.9,-8.5,-1.6,2.7,-16.2,,,,,*56
$GNGST,113447.00,30,,,,1.2,1.1,2.7*48
$GNZDA,113447.00,13,05,2025,00,00*7E
$GNGBS,113447.00,1.2,1.1,2.7,,,,*5D
b0@#"$
21
'@i+**@""1+S8B x#{)$*'AFG0wH !lM!N*"IOQVEaW6"X(#xbao8)O$GNRMC,113448.00,A,4357.34710,N,00501.68524,E,0.060,,130525,,,D*6B
$GNVTG,,T,,M,0.060,N,0.111,K,D*3F
$GNGNS,113448.00,4357.34710,N,00501.68524,E,DA,14,0.76,56.7,47.7,,0000*5F
$GNGGA,113448.00,4357.34710,N,00501.68524,E,2,12,0.76,56.7,M,47.7,M,,0000*75
$GNGSA,A,3,27,16,23,26,10,08,02,,,,,,1.62,0.76,1.43*12
$GNGSA,A,3,87,77,78,86,71,88,72,,,,,,1.62,0.76,1.43*13
$GPGSV,4,1,15,01,06,248,,02,34,262,35,07,08,292,,08,50,305,31*7B
$GPGSV,4,2,15,10,64,105,39,15,03,030,,16,42,186,42,18,09,064,*78
$GPGSV,4,3,15,23,34,049,34,26,16,176,31,27,83,056,43,30,02,322,*7F
$GPGSV,4,4,15,32,06,131,23,36,36,154,41,49,39,180,42*45
$GLGSV,3,1,10,65,05,158,,70,02,011,,71,28,048,27,72,33,108,32*61
$GLGSV,3,2,10,77,29,215,33,78,42,290,24,79,11,337,,86,17,069,18*6B
$GLGSV,3,3,10,87,54,034,28,88,40,291,27*6C
$GNGLL,4357.34710,N,00501.68524,E,113448.00,A,D*74
$GNGRS,113448.00,1,-0.3,-0.2,4.2,-0.6,0.4,-0.8,-1.1,,,,,*55
$GNGRS,113448.00,1,9.6,3.9,3.3,-9.3,-3.9,3.8,-17.8,,,,,*68
$GNGST,113448.00,30,,,,1.2,1.1,2.7*47
$GNZDA,113448.00,13,05,2025,00,00*71
$GNGBS,113448.00,1.2,1.1,2.7,,,,*52
b0@&"$
!21
)@iH,*@$"1 ,S8B x#{+$,'AFG0[H!!lM"{N*"VOQVEHW6"X(#Kbao<)$GNRMC,113449.00,A,4357.34709,N,00501.68535,E,0.075,,130525,,,D*66
$GNVTG,,T,,M,0.075,N,0.139,K,D*31
$GNGNS,113449.00,4357.34709,N,00501.68535,E,DA,14,0.76,56.6,47.7,,0000*57
$GNGGA,113449.00,4357.34709,N,00501.68535,E,2,12,0.76,56.6,M,47.7,M,,0000*7D
$GNGSA,A,3,27,16,23,26,10,08,02,,,,,,1.62,0.76,1.43*12
$GNGSA,A,3,87,77,78,86,71,88,72,,,,,,1.62,0.76,1.43*13
$GPGSV,4,1,15,01,06,248,,02,34,262,38,07,08,292,,08,50,305,33*74
$GPGSV,4,2,15,10,64,105,41,15,03,030,,16,42,186,44,18,09,064,*71
$GPGSV,4,3,15,23,34,049,36,26,16,176,32,27,83,056,44,30,02,322,*79
$GPGSV,4,4,15,32,06,131,,36,36,154,43,49,39,180,44*40
$GLGSV,3,1,10,65,05,158,,70,02,011,,71,28,048,29,72,33,108,33*6E
$GLGSV,3,2,10,77,29,215,34,78,42,290,25,79,11,337,,86,17,069,19*6C
$GLGSV,3,3,10,87,54,034,29,88,40,291,28*62
$GNGLL,4357.34709,N,00501.68535,E,113449.00,A,D*7D
$GNGRS,113449.00,1,-0.5,-0.2,4.0,4.6,0.7,-2.4,-0.9,,,,,*7D
$GNGRS,113449.00,1,10.2,3.8,3.4,-9.5,-6.8,2.2,-22.8,,,,,*5C
$GNGST,113449.00,28,,,,1.2,1.1,2.7*4F
$GNZDA,113449.00,13,05,2025,00,00*70
$GNGBS,113449.00,1.2,1.1,2.7,,,,*53
b0@!#"$
21
%@i")*@ "1O*S8B x#{($)'AFG0H"!lMN*"OQVE2W6"+X(#|}b!ao@)$GNRMC,113450.00,A,4357.34709,N,00501.68538,E,0.080,,130525,,,D*69
$GNVTG,,T,,M,0.080,N,0.147,K,D*32
$GNGNS,113450.00,4357.34709,N,00501.68538,E,DA,14,0.80,56.5,47.7,,0000*58
$GNGGA,113450.00,4357.34709,N,00501.68538,E,2,12,0.80,56.5,M,47.7,M,,0000*72
$GNGSA,A,3,27,16,23,26,10,08,02,,,,,,1.64,0.80,1.43*1D
$GNGSA,A,3,87,77,78,86,71,88,72,,,,,,1.64,0.80,1.43*1C
$GPGSV,4,1,15,01,06,248,,02,34,262,35,07,08,292,,08,50,305,31*7B
$GPGSV,4,2,15,10,64,105,37,15,03,030,,16,42,186,41,18,09,064,*75
$GPGSV,4,3,15,23,34,049,32,26,16,176,28,27,83,056,42,30,02,322,*70
$GPGSV,4,4,15,32,06,131,,36,36,154,40,49,39,180,41*46
$GLGSV,3,1,10,65,05,158,,70,02,011,,71,28,048,27,72,33,108,34*67
$GLGSV,3,2,10,77,29,215,31,78,42,290,25,79,11,337,,86,17,069,19*69
$GLGSV,3,3,10,87,54,034,28,88,40,291,28*63
$GNGLL,4357.34709,N,00501.68538,E,113450.00,A,D*78
$GNGRS,113450.00,1,-0.8,-0.1,0.8,4.7,2.9,0.2,-0.6,,,,,*5C
$GNGRS,113450.00,1,15.8,2.1,2.9,-9.7,-11.2,8.9,-22.8,,,,,*60
$GNGST,113450.00,30,,,,1.2,1.1,2.7*4E
$GNZDA,113450.00,13,05,2025,00,00*78
$GNGBS,113450.00,1.2,1.1,2.7,72,,22.6,14.2*5F
b0@%#"$
21(
&@i)*@""1r)S8B x#{($)'AFG0H!!lM#N*"OQVEpW6"AX(#Kb%aoD)x$GNRMC,113451.00,A,4357.34708,N,00501.68539,E,0.040,,130525,,,D*64
$GNVTG,,T,,M,0.040,N,0.075,K,D*3E
$GNGNS,113451.00,4357.34708,N,00501.68539,E,DA,14,0.76,56.4,47.7,,0000*51
$GNGGA,113451.00,4357.34708,N,00501.68539,E,2,12,0.76,56.4,M,47.7,M,,0000*7B
$GNGSA,A,3,27,16,23,26,10,08,02,,,,,,1.62,0.76,1.43*12
$GNGSA,A,3,87,77,78,86,71,88,72,,,,,,1.62,0.76,1.43*13
$GPGSV,4,1,15,01,06,248,,02,34,262,35,07,08,292,,08,50,305,31*7B
$GPGSV,4,2,15,10,64,105,38,15,03,030,,16,42,186,41,18,09,064,*7A
$GPGSV,4,3,15,23,34,049,34,26,16,176,30,27,83,056,41,30,02,322,*7C
$GPGSV,4,4,15,32,06,131,22,36,36,154,40,49,39,180,41*46
$GLGSV,3,1,10,65,05,158,,70,02,011,,71,28,048,28,72,33,108,33*6F
$GLGSV,3,2,10,77,29,215,35,78,42,290,25,79,11,337,,86,17,069,19*6D
$GLGSV,3,3,10,87,54,034,28,88,40,291,28*63
$GNGLL,4357.34708,N,00501.68539,E,113451.00,A,D*79
$GNGRS,113451.00,1,-0.5,0.0,1.5,6.3,1.4,-2.2,-0.4,,,,,*55
$GNGRS,113451.00,1,16.0,2.1,2.8,-9.1,-13.9,4.7,-22.8,,,,,*66
$GNGST,113451.00,28,,,,1.2,1.2,2.8*4A
$GNZDA,113451.00,13,05,2025,00,00*79
$GNGBS,113451.00,1.2,1.2,2.8,,,,*56
b0@)$"$
 21
'@it**@#"1*S8B x#{)$)'AFG0JH!lM!ON*"fOQVEW6"hX(#!'b)aoH)z$GNRMC,113452.00,A,4357.34707,N,00501.68542,E,0.031,,130525,,,D*62
$GNVTG,,T,,M,0.031,N,0.057,K,D*38
$GNGNS,113452.00,4357.34707,N,00501.68542,E,DA,14,0.76,56.2,47.7,,0000*57
$GNGGA,113452.00,4357.34707,N,00501.68542,E,2,12,0.76,56.2,M,47.7,M,,0000*7D
$GNGSA,A,3,27,16,23,26,10,08,02,,,,,,1.62,0.76,1.43*12
$GNGSA,A,3,87,77,78,86,71,88,72,,,,,,1.62,0.76,1.43*13
$GPGSV,4,1,15,01,06,248,,02,34,262,36,07,08,292,,08,50,305,32*7B
$GPGSV,4,2,15,10,64,105,39,15,03,030,,16,42,186,42,18,09,064,*78
$GPGSV,4,3,15,23,34,049,35,26,16,176,31,27,83,056,42,30,02,322,*7F
$GPGSV,4,4,15,32,06,131,21,36,36,154,41,49,39,180,41*44
$GLGSV,3,1,10,65,05,158,,70,02,011,,71,28,048,28,72,33,108,31*6D
$GLGSV,3,2,10,77,29,215,33,78,42,290,25,79,11,337,,86,17,069,18*6A
$GLGSV,3,3,10,87,54,034,28,88,40,291,28*63
$GNGLL,4357.34707,N,00501.68542,E,113452.00,A,D*79
$GNGRS,113452.00,1,-0.6,-0.3,0.0,7.2,1.2,-2.6,-0.3,,,,,*7A
$GNGRS,113452.00,1,16.4,3.3,3.6,-8.5,-12.1,10.6,-20.9,,,,,*56
$GNGST,113452.00,31,,,,1.2,1.2,2.8*41
$GNZDA,113452.00,13,05,2025,00,00*7A
$GNGBS,113452.00,1.2,1.2,2.8,,,,*55
b0@-#"$
 21
'@i**@$"1*S8B x#{)$)'AFG0H !lMM"N*"IOQVEUW6"FX(#C#b-aotL)RH$GNRMC,113453.00,A,4357.34710,N,00501.68547,E,0.044,,130525,,,D*62
$GNVTG,,T,,M,0.044,N,0.082,K,D*32
$GNGNS,113453.00,4357.34710,N,00501.68547,E,DA,14,0.76,56.2,47.7,,0000*55
$GNGGA,113453.00,4357.34710,N,00501.68547,E,2,12,0.76,56.2,M,47.7,M,,0000*7F
$GNGSA,A,3,27,16,23,26,10,08,02,,,,,,1.62,0.76,1.43*12
$GNGSA,A,3,87,77,78,86,71,88,72,,,,,,1.62,0.76,1.43*13
$GPGSV,4,1,15,01,06,248,,02,34,262,35,07,08,292,,08,50,305,32*78
$GPGSV,4,2,15,10,64,105,39,15,03,030,,16,42,186,42,18,09,064,*78
$GPGSV,4,3,15,23,34,049,36,26,16,176,31,27,83,056,42,30,02,322,*7C
$GPGSV,4,4,15,32,06,131,23,36,36,154,41,49,39,180,41*46
$GLGSV,3,1,10,65,05,158,,70,02,011,,71,28,048,28,72,33,108,32*6E
$GLGSV,3,2,10,77,29,215,34,78,42,290,25,79,11,337,,86,17,069,18*6D
$GLGSV,3,3,10,87,54,034,29,88,40,291,27*6D
$GNGLL,4357.34710,N,00501.68547,E,113453.00,A,D*7B
$GNGRS,113453.00,1,-0.4,-0.5,0.2,2.5,1.7,1.7,-0.2,,,,,*54
$GNGRS,113453.00,1,16.1,5.3,3.3,-9.4,-7.9,8.4,-22.3,,,,,*5E
$GNGST,113453.00,30,,,,1.2,1.2,2.8*41
$GNZDA,113453.00,13,05,2025,00,00*7B
$GNGBS,113453.00,1.2,1.2,2.8,,,,*54
b0@1$"$
 21
(@iv**@$"1u *S8B {x#{)$)'AFG0;H"!lkM#9N*"OQVEW6"X(#&[Gb1ao\P)*$GNRMC,113454.00,A,4357.34711,N,00501.68557,E,0.015,,130525,,,D*61
$GNVTG,,T,,M,0.015,N,0.027,K,D*39
$GNGNS,113454.00,4357.34711,N,00501.68557,E,DA,14,0.76,56.2,47.7,,0000*52
$GNGGA,113454.00,4357.34711,N,00501.68557,E,2,12,0.76,56.2,M,47.7,M,,0000*78
$GNGSA,A,3,27,16,23,26,10,08,02,,,,,,1.62,0.76,1.43*12
$GNGSA,A,3,87,77,78,86,71,88,72,,,,,,1.62,0.76,1.43*13
$GPGSV,4,1,15,01,06,248,,02,34,262,36,07,08,292,,08,50,305,32*7B
$GPGSV,4,2,15,10,64,105,40,15,03,030,,16,42,186,42,18,09,064,*76
$GPGSV,4,3,15,23,34,049,36,26,16,176,32,27,83,056,42,30,02,322,*7F
$GPGSV,4,4,15,32,06,131,23,36,36,154,41,49,39,180,41*46
$GLGSV,3,1,10,65,05,158,,70,02,011,,71,28,048,30,72,33,108,34*61
$GLGSV,3,2,10,77,29,215,35,78,42,290,25,79,11,337,,86,17,069,18*6C
$GLGSV,3,3,10,87,54,034,29,88,40,291,28*62
$GNGLL,4357.34711,N,00501.68557,E,113454.00,A,D*7C
$GNGRS,113454.00,1,-0.2,-0.4,-1.4,5.1,1.2,1.8,-0.3,,,,,*76
$GNGRS,113454.00,1,14.6,3.1,4.6,-12.7,-7.1,10.6,-16.8,,,,,*5C
$GNGST,113454.00,29,,,,1.2,1.2,2.8*4E
$GNZDA,113454.00,13,05,2025,00,00*7C
$GNGBS,113454.00,1.2,1.2,2.8,,,,*53
b0@h5S&"$
 21
)@i+*@%"1,S8B x#{)$*'AFG0H"!lkM"N*"OQVEVW6"4X(#6|{bh5aoDT)$GNRMC,113455.00,A,4357.34714,N,00501.68569,E,0.052,,130525,,,D*6B
$GNVTG,,T,,M,0.052,N,0.097,K,D*31
$GNGNS,113455.00,4357.34714,N,00501.68569,E,DA,14,0.76,56.3,47.7,,0000*5A
$GNGGA,113455.00,4357.34714,N,00501.68569,E,2,12,0.76,56.3,M,47.7,M,,0000*70
$GNGSA,A,3,27,16,23,26,10,08,02,,,,,,1.62,0.76,1.43*12
$GNGSA,A,3,87,77,78,86,71,88,72,,,,,,1.62,0.76,1.43*13
$GPGSV,4,1,15,01,06,248,21,02,34,262,38,07,08,292,,08,50,305,32*76
$GPGSV,4,2,15,10,64,105,41,15,03,030,,16,42,186,43,18,09,064,*76
$GPGSV,4,3,15,23,34,049,37,26,16,176,31,27,83,056,44,30,02,322,*7B
$GPGSV,4,4,15,32,06,131,,36,36,154,41,49,39,180,42*44
$GLGSV,3,1,10,65,05,158,,70,02,011,,71,28,048,22,72,33,108,34*62
$GLGSV,3,2,10,77,29,215,34,78,42,290,26,79,11,337,,86,17,069,18*6E
$GLGSV,3,3,10,87,54,034,30,88,40,291,28*6A
$GNGLL,4357.34714,N,00501.68569,E,113455.00,A,D*75
$GNGRS,113455.00,1,-0.2,-0.6,-0.4,2.4,1.4,-0.1,0.0,,,,,*7B
$GNGRS,113455.00,1,15.9,4.2,4.0,-11.9,-10.0,5.7,-19.4,,,,,*5D
$GNGST,113455.00,30,,,,1.2,1.2,2.7*48
$GNZDA,113455.00,13,05,2025,00,00*7D
$GNGBS,113455.00,1.2,1.2,2.7,,,,*5D
b0@P9&"#$
!217
)@i)*@$"1;*S8B x#{)$*'AFG0zH"!lWM"_N*":OQVEW6"X(#{bP9ao,X)$GNRMC,113456.00,A,4357.34718,N,00501.68584,E,0.018,,130525,,,D*69
$GNVTG,,T,,M,0.018,N,0.034,K,D*36
$GNGNS,113456.00,4357.34718,N,00501.68584,E,DA,14,0.80,56.2,47.7,,0000*5E
$GNGGA,113456.00,4357.34718,N,00501.68584,E,2,12,0.80,56.2,M,47.7,M,,0000*74
$GNGSA,A,3,27,16,23,26,10,08,02,,,,,,1.64,0.80,1.43*1D
$GNGSA,A,3,87,77,78,86,71,88,72,,,,,,1.64,0.80,1.43*1C
$GPGSV,4,1,15,01,06,248,21,02,34,262,38,07,08,292,,08,50,305,33*77
$GPGSV,4,2,15,10,64,105,41,15,03,030,,16,42,186,41,18,09,064,*74
$GPGSV,4,3,15,23,34,049,36,26,16,176,31,27,83,056,42,30,02,322,*7C
$GPGSV,4,4,15,32,06,131,,36,36,154,41,49,39,180,42*44
$GLGSV,3,1,10,65,05,158,,70,02,011,,71,28,048,23,72,33,108,34*63
$GLGSV,3,2,10,77,29,215,34,78,42,290,25,79,11,337,,86,17,069,18*6D
$GLGSV,3,3,10,87,54,034,26,88,40,291,28*6D
$GNGLL,4357.34718,N,00501.68584,E,113456.00,A,D*79
$GNGRS,113456.00,1,-0.4,-0.8,-0.8,5.7,1.3,-2.0,0.4,,,,,*78
$GNGRS,113456.00,1,10.1,3.5,3.1,-12.6,-14.1,6.5,-24.7,,,,,*50
$GNGST,113456.00,31,,,,1.2,1.2,2.7*4A
$GNZDA,113456.00,13,05,2025,00,00*7E
$GNGBS,113456.00,1.2,1.2,2.7,72,,24.5,14.2*5F
b0@8=&"7$
!21
*@i+*@&"1#,S8B x#{*$+'AFG0H$!lM"N*"MOQVEW6"TX(#wb8=ao\)$GNRMC,113457.00,A,4357.34718,N,00501.68582,E,0.023,,130525,,,D*66
$GNVTG,,T,,M,0.023,N,0.042,K,D*3F
$GNGNS,113457.00,4357.34718,N,00501.68582,E,DA,14,0.76,56.3,47.7,,0000*51
$GNGGA,113457.00,4357.34718,N,00501.68582,E,2,12,0.76,56.3,M,47.7,M,,0000*7B
$GNGSA,A,3,27,16,23,26,10,08,02,,,,,,1.62,0.76,1.43*12
$GNGSA,A,3,87,77,78,86,71,88,72,,,,,,1.62,0.76,1.43*13
$GPGSV,4,1,15,01,06,248,21,02,34,262,38,07,08,292,,08,50,305,33*77
$GPGSV,4,2,15,10,64,105,42,15,03,030,,16,42,186,43,18,09,064,*75
$GPGSV,4,3,15,23,34,049,38,26,16,176,31,27,83,056,44,30,02,322,*74
$GPGSV,4,4,15,32,06,131,25,36,36,154,42,49,39,180,43*41
$GLGSV,3,1,10,65,05,158,,70,02,011,,71,28,048,24,72,33,108,36*66
$GLGSV,3,2,10,77,29,215,34,78,42,290,25,79,11,337,,86,17,069,18*6D
$GLGSV,3,3,10,87,54,034,31,88,40,291,27*64
$GNGLL,4357.34718,N,00501.68582,E,113457.00,A,D*7E
$GNGRS,113457.00,1,-0.4,-0.7,-2.2,6.8,0.2,-0.2,0.5,,,,,*73
$GNGRS,113457.00,1,13.6,3.9,3.3,-15.5,-7.8,6.3,-23.0,,,,,*62
$GNGST,113457.00,33,,,,1.1,1.1,2.7*49
$GNZDA,113457.00,13,05,2025,00,00*7F
$GNGBS,113457.00,1.1,1.1,2.7,,,,*5F
b0@ A&"6$
!21;
*@i(*@#"1+S8B x#{($)'AFG0kH$!lcMYN*"OQVEvW6"X(#:Jb Aao_)M$GNRMC,113458.00,A,4357.34722,N,00501.68578,E,0.089,,130525,,,D*65
$GNVTG,,T,,M,0.089,N,0.164,K,D*3A
$GNGNS,113458.00,4357.34722,N,00501.68578,E,DA,14,0.76,56.2,47.7,,0000*53
$GNGGA,113458.00,4357.34722,N,00501.68578,E,2,12,0.76,56.2,M,47.7,M,,0000*79
$GNGSA,A,3,27,16,23,26,10,08,02,,,,,,1.62,0.76,1.43*12
$GNGSA,A,3,87,77,78,86,71,88,72,,,,,,1.62,0.76,1.43*13
$GPGSV,4,1,15,01,06,248,19,02,34,262,38,07,08,292,,08,50,305,33*7C
$GPGSV,4,2,15,10,64,105,42,15,03,030,,16,42,186,40,18,09,064,*76
$GPGSV,4,3,15,23,34,049,35,26,16,176,29,27,83,056,43,30,02,322,*77
$GPGSV,4,4,15,32,06,131,25,36,36,154,40,49,39,180,41*41
$GLGSV,3,1,10,65,05,158,,70,02,011,,71,28,048,23,72,33,108,36*61
$GLGSV,3,2,10,77,29,215,30,78,42,290,25,79,11,337,,86,17,069,19*68
$GLGSV,3,3,10,87,54,034,26,88,40,291,27*62
$GNGLL,4357.34722,N,00501.68578,E,113458.00,A,D*7D
$GNGRS,113458.00,1,-0.5,-0.6,-2.5,12.4,0.0,3.2,0.5,,,,,*6E
$GNGRS,113458.00,1,18.2,3.5,3.9,-14.2,-6.6,5.7,-22.1,,,,,*6A
$GNGST,113458.00,33,,,,1.1,1.1,2.7*46
$GNZDA,113458.00,13,05,2025,00,00*70
$GNGBS,113458.00,1.1,1.1,2.7,,,,*50
b0@E&"D$
!21
*@i(*@D#"1*S8B x#{($)'AFG0H"!l,MN*"nOQVEXW6"X(#bEaoc)a$GNRMC,113459.00,A,4357.34726,N,00501.68575,E,0.031,,130525,,,D*6E
$GNVTG,,T,,M,0.031,N,0.057,K,D*38
$GNGNS,113459.00,4357.34726,N,00501.68575,E,DA,14,0.76,56.1,47.7,,0000*58
$GNGGA,113459.00,4357.34726,N,00501.68575,E,2,12,0.76,56.1,M,47.7,M,,0000*72
$GNGSA,A,3,27,16,23,26,10,08,02,,,,,,1.62,0.76,1.43*12
$GNGSA,A,3,87,77,78,86,71,88,72,,,,,,1.62,0.76,1.43*13
$GPGSV,4,1,15,01,06,248,18,02,34,262,38,07,08,292,,08,50,305,33*7D
$GPGSV,4,2,15,10,64,105,42,15,03,030,,16,42,186,40,18,09,064,20*74
$GPGSV,4,3,15,23,34,049,35,26,16,176,28,27,83,056,42,30,02,322,*77
$GPGSV,4,4,15,32,06,131,25,36,36,154,40,49,39,180,41*41
$GLGSV,3,1,10,65,05,158,,70,02,011,,71,28,048,22,72,33,108,34*62
$GLGSV,3,2,10,77,29,215,31,78,42,290,26,79,11,337,,86,17,069,19*6A
$GLGSV,3,3,10,87,54,034,31,88,40,291,27*64
$GNGLL,4357.34726,N,00501.68575,E,113459.00,A,D*75
$GNGRS,113459.00,1,-0.5,-0.6,-2.8,15.5,-0.1,1.8,0.7,,,,,*42
$GNGRS,113459.00,1,16.9,2.6,3.7,-14.5,-5.9,4.8,-22.6,,,,,*60
$GNGST,113459.00,31,,,,1.2,1.1,2.7*46
$GNZDA,113459.00,13,05,2025,00,00*71
$GNGBS,113459.00,1.2,1.1,2.7,,,,*52
b0@Hj&"G$
!21
*@i(*@%"1+S8B x#{($*'AFG0H"!l>M"<N*"OQVEdW6"X(#bHaog)8$GNRMC,113500.00,A,4357.34728,N,00501.68572,E,0.053,,130525,,,D*6E
$GNVTG,,T,,M,0.053,N,0.098,K,D*3F
$GNGNS,113500.00,4357.34728,N,00501.68572,E,DA,14,0.76,56.2,47.7,,0000*5F
$GNGGA,113500.00,4357.34728,N,00501.68572,E,2,12,0.76,56.2,M,47.7,M,,0000*75
$GNGSA,A,3,27,16,23,26,10,08,02,,,,,,1.62,0.76,1.43*12
$GNGSA,A,3,87,77,78,86,71,88,72,,,,,,1.62,0.76,1.43*13
$GPGSV,4,1,15,01,06,248,18,02,34,262,38,07,08,292,,08,50,305,33*7D
$GPGSV,4,2,15,10,64,105,42,15,03,030,,16,42,186,40,18,09,064,*76
$GPGSV,4,3,15,23,34,049,37,26,16,176,29,27,83,056,43,30,02,322,*75
$GPGSV,4,4,15,32,06,131,26,36,36,154,40,49,39,180,42*41
$GLGSV,3,1,10,65,05,158,,70,02,011,,71,28,048,22,72,33,108,34*62
$GLGSV,3,2,10,77,29,215,34,78,42,290,26,79,11,337,,86,17,069,19*6F
$GLGSV,3,3,10,87,54,034,30,88,40,291,27*65
$GNGLL,4357.34728,N,00501.68572,E,113500.00,A,D*71
$GNGRS,113500.00,1,-0.2,-0.6,-2.8,7.1,0.3,4.3,0.7,,,,,*5E
$GNGRS,113500.00,1,12.5,3.2,4.7,-14.4,-8.6,4.6,-22.4,,,,,*68
$GNGST,113500.00,30,,,,1.1,1.1,2.7*49
$GNZDA,113500.00,13,05,2025,00,00*7C
$GNGBS,113500.00,1.1,1.1,2.7,,,,*5C
b0@L$$"4$
 21
)@i+*@#"1,S8B x#{*$*'AFG0]H%!lZM"N*"OQVEW 6"X(#bLaok)v$GNRMC,113501.00,A,4357.34729,N,00501.68573,E,0.069,,130525,,,D*66
$GNVTG,,T,,M,0.069,N,0.129,K,D*3D
$GNGNS,113501.00,4357.34729,N,00501.68573,E,DA,14,0.80,56.3,47.7,,0000*56
$GNGGA,113501.00,4357.34729,N,00501.68573,E,2,12,0.80,56.3,M,47.7,M,,0000*7C
$GNGSA,A,3,27,16,23,26,10,08,02,,,,,,1.64,0.80,1.43*1D
$GNGSA,A,3,87,77,78,86,71,88,72,,,,,,1.64,0.80,1.43*1C
$GPGSV,4,1,15,01,06,248,19,02,34,262,36,07,08,292,,08,50,305,32*73
$GPGSV,4,2,15,10,64,105,41,15,03,030,,16,42,186,43,18,09,064,*76
$GPGSV,4,3,15,23,34,049,35,26,16,176,31,27,83,056,44,30,02,322,*79
$GPGSV,4,4,15,32,06,131,25,36,36,154,42,49,39,180,42*40
$GLGSV,3,1,10,65,05,158,,70,02,011,,71,28,048,23,72,33,108,37*60
$GLGSV,3,2,10,77,29,215,34,78,42,290,26,79,11,337,,86,17,069,17*61
$GLGSV,3,3,10,87,54,034,32,88,40,291,28*68
$GNGLL,4357.34729,N,00501.68573,E,113501.00,A,D*70
$GNGRS,113501.00,1,0.0,-0.3,-3.1,4.3,0.3,2.4,0.5,,,,,*7F
$GNGRS,113501.00,1,7.3,1.4,4.8,-15.6,-9.3,5.1,-22.1,,,,,*54
$GNGST,113501.00,31,,,,1.2,1.1,2.7*4A
$GNZDA,113501.00,13,05,2025,00,00*7D
$GNGBS,113501.00,1.2,1.1,2.7,72,,22.0,13.3*5A
b0@P#">$
21K
'@i**@#"1E*S8B Fx#{($)'AFG0H"!lIM"0N*"OQVE9W6"X(#&bPaoo)$GNRMC,113502.00,A,4357.34731,N,00501.68572,E,0.002,,130525,,,D*60
$GNVTG,,T,,M,0.002,N,0.003,K,D*39
$GNGNS,113502.00,4357.34731,N,00501.68572,E,DA,14,0.76,56.3,47.7,,0000*54
$GNGGA,113502.00,4357.34731,N,00501.68572,E,2,12,0.76,56.3,M,47.7,M,,0000*7E
$GNGSA,A,3,27,16,23,26,10,08,02,,,,,,1.62,0.76,1.43*12
$GNGSA,A,3,87,77,78,86,71,88,72,,,,,,1.62,0.76,1.43*13
$GPGSV,4,1,15,01,06,248,19,02,34,262,35,07,08,292,,08,50,305,31*73
$GPGSV,4,2,15,10,64,105,39,15,03,030,,16,42,186,42,18,09,064,*78
$GPGSV,4,3,15,23,34,049,35,26,16,176,31,27,83,056,42,30,02,322,*7F
$GPGSV,4,4,15,32,06,131,24,36,36,154,40,49,39,180,41*40
$GLGSV,3,1,10,65,05,158,,70,02,011,,71,28,048,24,72,33,108,34*64
$GLGSV,3,2,10,77,29,215,34,78,42,290,25,79,11,337,,86,17,069,15*60
$GLGSV,3,3,10,87,54,034,30,88,40,291,28*6A
$GNGLL,4357.34731,N,00501.68572,E,113502.00,A,D*7B
$GNGRS,113502.00,1,0.0,-0.4,-3.0,5.8,0.3,5.9,0.6,,,,,*79
$GNGRS,113502.00,1,3.8,5.6,3.8,-12.2,-7.8,2.9,-22.3,,,,,*52
$GNGST,113502.00,35,,,,1.2,1.1,2.8*42
$GNZDA,113502.00,13,05,2025,00,00*7E
$GNGBS,113502.00,1.2,1.1,2.8,,,,*52
b0@T$"X$
 21
'@i)*@""1*S8B )x#{($)'AFG0JH!!l2M!N*"OQVEW6"X(#/bTaos)F$GNRMC,113503.00,A,4357.34732,N,00501.68570,E,0.012,,130525,,,D*61
$GNVTG,,T,,M,0.012,N,0.022,K,D*3B
$GNGNS,113503.00,4357.34732,N,00501.68570,E,DA,14,0.76,56.3,47.7,,0000*54
$GNGGA,113503.00,4357.34732,N,00501.68570,E,2,12,0.76,56.3,M,47.7,M,,0000*7E
$GNGSA,A,3,27,16,23,26,10,08,02,,,,,,1.62,0.76,1.43*12
$GNGSA,A,3,87,77,78,86,71,88,72,,,,,,1.62,0.76,1.43*13
$GPGSV,4,1,15,01,06,248,19,02,34,262,36,07,08,292,,08,50,305,32*73
$GPGSV,4,2,15,10,64,105,39,15,03,030,,16,42,186,41,18,09,064,*7B
$GPGSV,4,3,15,23,34,049,34,26,16,176,31,27,83,056,42,30,02,322,*7E
$GPGSV,4,4,15,32,06,131,23,36,36,154,40,49,39,180,41*47
$GLGSV,3,1,10,65,05,158,,70,02,011,,71,28,048,25,72,33,108,33*62
$GLGSV,3,2,10,77,29,215,33,78,42,290,25,79,11,337,,86,17,069,12*60
$GLGSV,3,3,10,87,54,034,30,88,40,291,28*6A
$GNGLL,4357.34732,N,00501.68570,E,113503.00,A,D*7B
$GNGRS,113503.00,1,0.1,-0.2,-2.8,6.5,0.2,2.8,0.9,,,,,*70
$GNGRS,113503.00,1,4.3,2.6,4.3,-10.1,-9.5,2.8,-22.5,,,,,*51
$GNGST,113503.00,35,,,,1.2,1.2,2.8*40
$GNZDA,113503.00,13,05,2025,00,00*7F
$GNGBS,113503.00,1.2,1.2,2.8,,,,*50
b0@X=%"d$
 21
(@i)*@#"1*S8B x#{($)'AFG0H!!lGM!N*"rOQVEW6"X(#abXaolw)$GNRMC,113504.00,A,4357.34734,N,00501.68568,E,0.082,,130525,,,D*60
$GNVTG,,T,,M,0.082,N,0.151,K,D*37
$GNGNS,113504.00,4357.34734,N,00501.68568,E,DA,13,0.80,56.4,47.7,,0000*55
$GNGGA,113504.00,4357.34734,N,00501.68568,E,2,12,0.80,56.4,M,47.7,M,,0000*78
$GNGSA,A,3,27,16,23,26,10,08,02,,,,,,1.81,0.80,1.63*14
$GNGSA,A,3,87,77,78,71,88,72,,,,,,,1.81,0.80,1.63*1B
$GPGSV,4,1,15,01,06,248,19,02,34,262,37,07,08,292,,08,50,305,32*72
$GPGSV,4,2,15,10,64,105,40,15,03,030,,16,42,186,41,18,09,064,*75
$GPGSV,4,3,15,23,34,049,35,26,16,176,30,27,83,056,42,30,02,322,*7E
$GPGSV,4,4,15,32,06,131,22,36,36,154,40,49,39,180,41*46
$GLGSV,3,1,10,65,05,158,,70,02,011,,71,28,048,26,72,33,108,33*61
$GLGSV,3,2,10,77,29,215,33,78,42,290,24,79,11,337,,86,17,069,09*6B
$GLGSV,3,3,10,87,54,034,30,88,40,291,27*65
$GNGLL,4357.34734,N,00501.68568,E,113504.00,A,D*73
$GNGRS,113504.00,1,0.0,-0.3,-2.5,2.6,0.1,2.5,1.0,,,,,*7B
$GNGRS,113504.00,1,4.8,2.4,6.3,-8.6,3.5,-22.3,,,,,,*66
$GNGST,113504.00,23,,,,1.2,1.1,2.8*43
$GNZDA,113504.00,13,05,2025,00,00*78
$GNGBS,113504.00,1.2,1.1,2.8,,,,*54
b0@x\%"P$
 21
(@i**@#"1n*S8B x#{($)'AFG0H !lNM!N*"OQVEW6"bX(#bx\aoT{)p$GNRMC,113505.00,A,4357.34735,N,00501.68563,E,0.054,,130525,,,D*60
$GNVTG,,T,,M,0.054,N,0.100,K,D*38
$GNGNS,113505.00,4357.34735,N,00501.68563,E,DA,13,0.80,56.5,47.7,,0000*5F
$GNGGA,113505.00,4357.34735,N,00501.68563,E,2,12,0.80,56.5,M,47.7,M,,0000*72
$GNGSA,A,3,27,16,23,26,10,08,02,,,,,,1.81,0.80,1.63*14
$GNGSA,A,3,87,77,78,71,88,72,,,,,,,1.81,0.80,1.63*1B
$GPGSV,4,1,15,01,06,248,19,02,34,262,37,07,08,292,,08,50,305,32*72
$GPGSV,4,2,15,10,64,105,40,15,03,030,,16,42,186,42,18,09,064,*76
$GPGSV,4,3,15,23,34,049,35,26,16,176,30,27,83,056,42,30,02,322,*7E
$GPGSV,4,4,15,32,06,131,22,36,36,154,40,49,39,180,41*46
$GLGSV,3,1,10,65,05,158,,70,02,011,,71,28,048,25,72,33,108,32*63
$GLGSV,3,2,10,77,29,215,33,78,42,290,24,79,11,337,,86,17,069,08*6A
$GLGSV,3,3,10,87,54,034,30,88,40,291,27*65
$GNGLL,4357.34735,N,00501.68563,E,113505.00,A,D*78
$GNGRS,113505.00,1,0.2,-0.2,-2.2,3.7,0.0,4.4,0.8,,,,,*71
$GNGRS,113505.00,1,6.1,4.1,7.3,-8.6,5.0,-22.3,,,,,,*6D
$GNGST,113505.00,23,,,,1.2,1.1,2.8*42
$GNZDA,113505.00,13,05,2025,00,00*79
$GNGBS,113505.00,1.2,1.1,2.8,,,,*55
b0@``%"L$
!21
(@i)*@#"1.&*S8B 5x#{($)'AFG0H#!lEM"zN*"OQVE!W6"X(#~b``ao<)H~$GNRMC,113506.00,A,4357.34739,N,00501.68557,E,0.052,,130525,,,D*6E
$GNVTG,,T,,M,0.052,N,0.096,K,D*30
$GNGNS,113506.00,4357.34739,N,00501.68557,E,DA,14,0.80,56.6,47.7,,0000*53
$GNGGA,113506.00,4357.34739,N,00501.68557,E,2,12,0.80,56.6,M,47.7,M,,0000*79
$GNGSA,A,3,27,16,23,26,10,08,02,,,,,,1.64,0.80,1.43*1D
$GNGSA,A,3,87,77,78,86,71,88,72,,,,,,1.64,0.80,1.43*1C
$GPGSV,4,1,15,01,06,248,20,02,34,262,37,07,08,292,,08,50,305,33*79
$GPGSV,4,2,15,10,64,105,40,15,03,030,,16,42,186,41,18,09,064,*75
$GPGSV,4,3,15,23,34,049,35,26,16,176,30,27,83,056,42,30,02,322,*7E
$GPGSV,4,4,15,32,06,131,22,36,36,154,40,49,39,180,41*46
$GLGSV,3,1,10,65,05,158,,70,02,011,,71,28,048,26,72,33,108,35*67
$GLGSV,3,2,10,77,29,215,34,78,42,290,25,79,11,337,,86,17,069,14*61
$GLGSV,3,3,10,87,54,034,31,88,40,291,28*6B
$GNGLL,4357.34739,N,00501.68557,E,113506.00,A,D*70
$GNGRS,113506.00,1,0.3,-0.4,-2.1,2.9,-0.1,4.0,0.8,,,,,*51
$GNGRS,113506.00,1,4.5,3.8,6.5,-12.5,-8.4,3.8,-22.4,,,,,*5F
$GNGST,113506.00,83147,,,,1.2,1.1,2.8*79
$GNZDA,113506.00,13,05,2025,00,00*7A
$GNGBS,113506.00,1.2,1.1,2.8,72,,22.4,15.5*56
b0@HdQ%">$
!21&
(@i)*@#"1?/*S8B x#{($)'AFG0QH!!lZM"N*"?OQVEDW6"X(#bHdao$) $GNRMC,113507.00,A,4357.34741,N,00501.68554,E,0.063,,130525,,,D*61
$GNVTG,,T,,M,0.063,N,0.117,K,D*3A
$GNGNS,113507.00,4357.34741,N,00501.68554,E,DA,14,0.80,56.7,47.7,,0000*5F
$GNGGA,113507.00,4357.34741,N,00501.68554,E,2,12,0.80,56.7,M,47.7,M,,0000*75
$GNGSA,A,3,27,16,23,26,10,08,02,,,,,,1.81,0.80,1.63*14
$GNGSA,A,3,87,77,78,86,71,88,72,,,,,,1.81,0.80,1.63*15
$GPGSV,4,1,15,01,06,248,20,02,34,262,37,07,08,292,,08,50,305,33*79
$GPGSV,4,2,15,10,64,105,40,15,03,030,,16,42,186,41,18,09,064,*75
$GPGSV,4,3,15,23,34,049,35,26,16,176,30,27,83,056,42,30,02,322,*7E
$GPGSV,4,4,15,32,06,131,22,36,36,154,40,49,39,180,41*46
$GLGSV,3,1,10,65,05,158,,70,02,011,,71,28,048,26,72,33,108,33*61
$GLGSV,3,2,10,77,29,215,34,78,42,290,26,79,11,337,,86,17,069,09*6E
$GLGSV,3,3,10,87,54,034,31,88,40,291,28*6B
$GNGLL,4357.34741,N,00501.68554,E,113507.00,A,D*7D
$GNGRS,113507.00,1,0.0,-0.3,-1.9,5.6,0.1,2.9,0.6,,,,,*7B
$GNGRS,113507.00,1,1.5,3.8,5.8,-32.6,-9.4,4.8,-17.0,,,,,*50
$GNGST,113507.00,24,,,,1.2,1.1,2.9*46
$GNZDA,113507.00,13,05,2025,00,00*7B
$GNGBS,113507.00,1.2,1.1,2.9,,,,*56
b0@0h&"&$
!21C
(@i**@#"1KL+S8B x#{*$*'AFG0H !loM"N*"OQV
EW6">X(##b0hao)N$GNRMC,113508.00,A,4357.34742,N,00501.68551,E,0.060,,130525,,,D*6B
$GNVTG,,T,,M,0.060,N,0.112,K,D*3C
$GNGNS,113508.00,4357.34742,N,00501.68551,E,DA,14,0.76,56.7,47.7,,0000*5F
$GNGGA,113508.00,4357.34742,N,00501.68551,E,2,12,0.76,56.7,M,47.7,M,,0000*75
$GNGSA,A,3,27,16,23,26,10,08,02,,,,,,1.62,0.76,1.43*12
$GNGSA,A,3,87,77,78,86,71,88,72,,,,,,1.62,0.76,1.43*13
$GPGSV,4,1,15,01,06,248,20,02,34,262,38,07,08,292,,08,50,305,33*76
