b0@*$#
42
@d(A!0oRI@ x#{$'AF
G-H#i^MN*O
OzVGW4'X*'Cb*aoI.>$GNRMC,114020.00,A,4357.34560,N,00501.66388,E,1.264,,130525,,,D*6A
$GNVTG,,T,,M,1.264,N,2.342,K,D*3E
$GNGNS,114020.00,4357.34560,N,00501.66388,E,DA,16,0.69,60.3,47.7,,0000*54
$GNGGA,114020.00,4357.34560,N,00501.66388,E,2,12,0.69,60.3,M,47.7,M,,0000*7C
$GNGSA,A,3,27,16,23,26,10,18,08,02,07,,,,1.29,0.69,1.09*13
$GNGSA,A,3,87,77,78,86,71,88,72,,,,,,1.29,0.69,1.09*1C
$GPGSV,4,1,15,01,08,249,,02,36,264,24,07,07,291,11,08,52,306,27*7A
$GPGSV,4,2,15,10,64,100,24,15,03,028,,16,40,185,15,18,07,065,12*77
$GPGSV,4,3,15,23,33,048,23,26,14,176,14,27,82,073,22,30,02,320,*79
$GPGSV,4,4,15,32,08,130,18,36,36,154,,49,39,180,*41
$GLGSV,3,1,10,65,08,157,,70,00,010,,71,28,045,19,72,35,105,21*69
$GLGSV,3,2,10,77,26,214,17,78,42,286,21,79,13,335,10,86,15,071,26*66
$GLGSV,3,3,10,87,52,039,25,88,42,295,17*6F
$GNGLL,4357.34560,N,00501.66388,E,114020.00,A,D*72
$GNGRS,114020.00,1,7.3,1.3,-3.3,-4.0,7.7,33.3,-0.6,1.4,1.6,,,*60
$GNGRS,114020.00,1,-0.3,14.2,4.6,4.3,-3.5,5.4,-17.0,,,,,*55
$GNGST,114020.00,77406,,,,4.2,2.7,5.8*73
$GNZDA,114020.00,13,05,2025,00,00*7C
$GNGBS,114020.00,4.2,2.7,5.8,,,,*57
b0@.$#p
!42
@d'(AUF!03RI@ x#{$'AF
G-=H#iMoN*OOVGW4'X*'`b.aoM.$GNRMC,114021.00,A,4357.34555,N,00501.66362,E,0.725,,130525,,,D*68
$GNVTG,,T,,M,0.725,N,1.343,K,D*3D
$GNGNS,114021.00,4357.34555,N,00501.66362,E,DA,16,0.77,60.2,47.7,,0000*59
$GNGGA,114021.00,4357.34555,N,00501.66362,E,2,12,0.77,60.2,M,47.7,M,,0000*71
$GNGSA,A,3,27,16,23,26,10,18,08,02,07,,,,1.57,0.77,1.37*18
$GNGSA,A,3,87,77,78,86,71,88,72,,,,,,1.57,0.77,1.37*17
$GPGSV,4,1,15,01,08,249,,02,36,264,24,07,07,291,12,08,52,306,33*7C
$GPGSV,4,2,15,10,64,100,25,15,03,028,16,16,40,185,15,18,07,065,09*7B
$GPGSV,4,3,15,23,33,048,22,26,14,176,15,27,82,073,23,30,02,320,*78
$GPGSV,4,4,15,32,08,130,17,36,36,154,,49,39,180,*4E
$GLGSV,3,1,10,65,08,157,,70,00,010,,71,28,045,18,72,35,105,19*63
$GLGSV,3,2,10,77,26,214,15,78,42,286,19,79,13,335,08,86,15,071,26*66
$GLGSV,3,3,10,87,52,039,23,88,42,295,16*68
$GNGLL,4357.34555,N,00501.66362,E,114021.00,A,D*71
$GNGRS,114021.00,1,2.3,-0.1,-4.6,-6.3,8.1,180,-0.6,-2.6,-24.5,,,*51
$GNGRS,114021.00,1,1.6,13.9,5.3,4.4,-2.0,5.3,-17.6,,,,,*77
$GNGST,114021.00,49,,,,4.5,2.9,6.0*4F
$GNZDA,114021.00,13,05,2025,00,00*7D
$GNGBS,114021.00,4.5,2.9,6.0,,,,*54
b0@2$"
%42
"@d(A!0m"RI@ x#{$'AF
G-H#i8MN*IOOVG#W4'KX*'[nb2aoQ.$GNRMC,114022.00,A,4357.34539,N,00501.66363,E,0.363,,130525,,,D*66
$GNVTG,,T,,M,0.363,N,0.672,K,D*3D
$GNGNS,114022.00,4357.34539,N,00501.66363,E,DA,16,0.77,59.9,47.7,,0000*50
$GNGGA,114022.00,4357.34539,N,00501.66363,E,2,12,0.77,59.9,M,47.7,M,,0000*78
$GNGSA,A,3,27,16,23,26,10,18,08,02,07,,,,1.57,0.77,1.37*18
$GNGSA,A,3,87,77,78,86,71,88,72,,,,,,1.57,0.77,1.37*17
$GPGSV,4,1,15,01,08,249,,02,36,264,29,07,07,290,15,08,52,306,37*73
$GPGSV,4,2,15,10,64,100,34,15,03,028,14,16,40,185,15,18,07,065,11*70
$GPGSV,4,3,15,23,33,048,25,26,14,176,17,27,82,073,34,30,02,320,*7B
$GPGSV,4,4,15,32,08,130,20,36,36,154,,49,39,180,*4A
$GLGSV,3,1,10,65,08,157,,70,00,010,,71,28,045,17,72,35,105,20*66
$GLGSV,3,2,10,77,26,214,15,78,42,286,18,79,13,335,07,86,15,071,27*69
$GLGSV,3,3,10,87,52,039,24,88,42,295,18*61
$GNGLL,4357.34539,N,00501.66363,E,114022.00,A,D*79
$GNGRS,114022.00,1,-2.5,0.3,1.1,-7.9,2.2,33.0,-2.7,-5.3,34.9,,,*7D
$GNGRS,114022.00,1,3.3,13.0,5.9,5.5,-2.6,4.0,-17.4,,,,,*76
$GNGST,114022.00,46,,,,4.6,2.9,6.1*41
$GNZDA,114022.00,13,05,2025,00,00*7E
$GNGBS,114022.00,4.6,2.9,6.1,,,,*55
b0@6$"
#52
!@d(KA!0!RI@ x#{$'AF
G-H#iMgN*OO]V GW4'X*'b6aoU.v$GNRMC,114023.00,A,4357.34538,N,00501.66367,E,0.052,,130525,,,D*63
$GNVTG,,T,,M,0.052,N,0.095,K,D*33
$GNGNS,114023.00,4357.34538,N,00501.66367,E,DA,16,0.77,59.9,47.7,,0000*54
$GNGGA,114023.00,4357.34538,N,00501.66367,E,2,12,0.77,59.9,M,47.7,M,,0000*7C
$GNGSA,A,3,27,16,23,26,10,18,08,02,07,,,,1.57,0.77,1.37*18
$GNGSA,A,3,87,77,78,86,71,88,72,,,,,,1.57,0.77,1.37*17
$GPGSV,4,1,15,01,08,249,,02,36,264,29,07,07,290,14,08,53,306,35*71
$GPGSV,4,2,15,10,64,100,33,15,03,028,11,16,40,185,18,18,07,065,09*76
$GPGSV,4,3,15,23,33,048,26,26,14,176,18,27,82,073,33,30,02,320,*70
$GPGSV,4,4,15,32,08,130,22,36,36,154,,49,39,180,*48
$GLGSV,3,1,10,65,08,157,,70,00,010,,71,28,045,19,72,35,105,24*6C
$GLGSV,3,2,10,77,26,214,16,78,42,286,20,79,13,335,08,86,15,071,32*6A
$GLGSV,3,3,10,87,52,039,26,88,42,295,20*68
$GNGLL,4357.34538,N,00501.66367,E,114023.00,A,D*7D
$GNGRS,114023.00,1,-2.8,0.8,-0.8,-7.6,2.2,32.6,-2.9,-5.5,35.2,,,*55
$GNGRS,114023.00,1,4.8,13.8,5.3,5.1,-3.6,4.7,-17.7,,,,,*78
$GNGST,114023.00,40,,,,4.6,2.9,6.1*46
$GNZDA,114023.00,13,05,2025,00,00*7F
$GNGBS,114023.00,4.6,2.9,6.1,,,,*54
b0@:$6"
&52
%@dR(
A8!0X RIY@ x#{$'AF
G-H#iMN*fOOWV#GW4'X*''b:aokY.e$GNRMC,114024.00,A,4357.34521,N,00501.66394,E,0.185,,130525,,,D*6B
$GNVTG,,T,,M,0.185,N,0.342,K,D*31
$GNGNS,114024.00,4357.34521,N,00501.66394,E,DA,16,0.77,59.6,47.7,,0000*58
$GNGGA,114024.00,4357.34521,N,00501.66394,E,2,12,0.77,59.6,M,47.7,M,,0000*70
$GNGSA,A,3,27,16,23,26,10,18,08,02,07,,,,1.57,0.77,1.37*18
$GNGSA,A,3,87,77,78,86,71,88,72,,,,,,1.57,0.77,1.37*17
$GPGSV,4,1,15,01,08,249,,02,36,264,29,07,07,290,17,08,53,306,38*7F
$GPGSV,4,2,15,10,64,100,37,15,03,028,09,16,40,185,19,18,07,065,10*72
$GPGSV,4,3,15,23,33,048,25,26,14,176,20,27,82,073,32,30,02,320,*79
$GPGSV,4,4,15,32,08,130,23,36,36,154,,49,39,180,*49
$GLGSV,3,1,10,65,08,157,,70,00,010,,71,28,045,20,72,35,105,25*67
$GLGSV,3,2,10,77,26,214,19,78,42,286,21,79,13,335,08,86,15,071,35*63
$GLGSV,3,3,10,87,52,039,26,88,42,295,19*62
$GNGLL,4357.34521,N,00501.66394,E,114024.00,A,D*7E
$GNGRS,114024.00,1,-4.2,1.9,0.2,-6.8,0.8,-115,-2.6,-4.6,35.6,,,*76
$GNGRS,114024.00,1,5.1,14.5,6.1,5.4,-3.5,3.9,-17.7,,,,,*73
$GNGST,114024.00,39,,,,4.6,2.7,5.9*4A
$GNZDA,114024.00,13,05,2025,00,00*78
$GNGBS,114024.00,4.6,2.7,5.9,,,,*56
b0@x>$"q
#52b
&@c@(!A!0o RIc@ x#{$'AF
G-H#iMN*1OOVGW4'\X*']?bx>aoS].=F$GNRMC,114025.00,A,4357.34537,N,00501.66400,E,0.663,,130525,,,D*68
$GNVTG,,T,,M,0.663,N,1.228,K,D*32
$GNGNS,114025.00,4357.34537,N,00501.66400,E,DA,16,0.77,60.0,47.7,,0000*58
$GNGGA,114025.00,4357.34537,N,00501.66400,E,2,12,0.77,60.0,M,47.7,M,,0000*70
$GNGSA,A,3,27,16,23,26,10,18,08,02,07,,,,1.57,0.77,1.37*18
$GNGSA,A,3,87,77,78,86,71,88,72,,,,,,1.57,0.77,1.37*17
$GPGSV,4,1,15,01,08,249,,02,36,264,30,07,07,290,20,08,53,306,35*7E
$GPGSV,4,2,15,10,64,099,38,15,03,028,08,16,40,185,21,18,07,065,08*7F
$GPGSV,4,3,15,23,33,048,26,26,14,176,19,27,82,073,32,30,02,320,*70
$GPGSV,4,4,15,32,08,130,23,36,36,154,,49,39,180,*49
$GLGSV,3,1,10,65,08,157,,70,00,010,,71,28,045,17,72,35,105,25*63
$GLGSV,3,2,10,77,26,214,20,78,42,286,21,79,13,335,,86,15,071,31*65
$GLGSV,3,3,10,87,52,039,25,88,42,295,18*60
$GNGLL,4357.34537,N,00501.66400,E,114025.00,A,D*72
$GNGRS,114025.00,1,-6.7,2.9,-4.0,-8.4,0.6,33.4,-1.6,-0.5,29.3,,,*5A
$GNGRS,114025.00,1,6.0,15.0,5.6,1.5,-2.9,3.5,-18.0,,,,,*7C
$GNGST,114025.00,41,,,,4.5,2.7,5.8*46
$GNZDA,114025.00,13,05,2025,00,00*79
$GNGBS,114025.00,4.5,2.7,5.8,,,,*55
b0@`B$"
52)
@cO(A"!0B RI@ x#{$'AF
G-=H#iM8N*JOOVGW4'eX*'0b`Bao;a.$GNRMC,114026.00,A,4357.34547,N,00501.66392,E,0.144,,130525,,,D*62
$GNVTG,,T,,M,0.144,N,0.267,K,D*3A
$GNGNS,114026.00,4357.34547,N,00501.66392,E,DA,13,0.88,59.7,47.7,,0000*58
$GNGGA,114026.00,4357.34547,N,00501.66392,E,2,12,0.88,59.7,M,47.7,M,,0000*75
$GNGSA,A,3,27,16,23,10,18,08,02,,,,,,1.74,0.88,1.50*1B
$GNGSA,A,3,87,77,78,86,71,72,,,,,,,1.74,0.88,1.50*17
$GPGSV,4,1,15,01,08,249,,02,36,264,20,07,07,290,19,08,53,306,31*71
$GPGSV,4,2,15,10,64,099,23,15,03,028,09,16,40,185,20,18,07,065,08*75
$GPGSV,4,3,15,23,33,048,34,26,14,176,,27,82,073,32,30,02,320,*7B
$GPGSV,4,4,15,32,08,130,22,36,36,154,,49,39,180,*48
$GLGSV,3,1,10,65,08,157,,70,00,010,,71,28,045,16,72,35,105,26*61
$GLGSV,3,2,10,77,26,214,19,78,42,286,20,79,13,335,,86,15,071,24*6A
$GLGSV,3,3,10,87,52,039,24,88,42,295,*68
$GNGLL,4357.34547,N,00501.66392,E,114026.00,A,D*7A
$GNGRS,114026.00,1,-7.9,2.1,3.2,-1.8,33.3,-2.2,-1.0,,,,,*49
$GNGRS,114026.00,1,6.1,15.9,5.9,-0.2,-1.9,-18.0,,,,,,*78
$GNGST,114026.00,45,,,,4.6,2.7,6.0*49
$GNZDA,114026.00,13,05,2025,00,00*7A
$GNGBS,114026.00,4.6,2.7,6.0,07,,-35.8,65.8*71
b0@HF$"
"52
@ci(ZA#!0#RI@ x#{$'AF
G-uH#iMBN*OOyVGW4'X*'3JbHFao#e.$GNRMC,114027.00,A,4357.34555,N,00501.66392,E,0.076,,130525,,,D*60
$GNVTG,,T,,M,0.076,N,0.141,K,D*3D
$GNGNS,114027.00,4357.34555,N,00501.66392,E,DA,12,0.88,59.8,47.7,,0000*54
$GNGGA,114027.00,4357.34555,N,00501.66392,E,2,12,0.88,59.8,M,47.7,M,,0000*78
$GNGSA,A,3,27,16,23,10,08,02,,,,,,,1.74,0.88,1.50*12
$GNGSA,A,3,87,77,78,86,71,72,,,,,,,1.74,0.88,1.50*17
$GPGSV,4,1,15,01,08,249,,02,36,264,23,07,07,290,15,08,53,306,34*7B
$GPGSV,4,2,15,10,64,099,22,15,03,028,08,16,40,185,23,18,07,065,08*76
$GPGSV,4,3,15,23,33,048,35,26,14,176,,27,82,073,35,30,02,320,*7D
$GPGSV,4,4,15,32,08,130,22,36,36,154,,49,39,180,*48
$GLGSV,3,1,10,65,08,157,,70,00,010,,71,28,045,17,72,35,105,27*61
$GLGSV,3,2,10,77,26,214,16,78,42,286,19,79,13,335,17,86,15,071,24*69
$GLGSV,3,3,10,87,52,039,22,88,42,295,*6E
$GNGLL,4357.34555,N,00501.66392,E,114027.00,A,D*78
$GNGRS,114027.00,1,-2.6,3.5,1.4,-1.5,-3.5,2.3,,,,,,*78
$GNGRS,114027.00,1,9.2,10.9,6.8,0.3,-4.0,-17.9,,,,,,*54
$GNGST,114027.00,43,,,,4.6,2.7,6.0*4E
$GNZDA,114027.00,13,05,2025,00,00*7B
$GNGBS,114027.00,4.6,2.7,6.0,07,,-45.5,74.0*72
b0@0J"$"
%52*
@c(A5&!0%RI"@ x#{$'AF
G-H##iMN*OOVGW4'X*'b0Jaoi.~$GNRMC,114028.00,A,4357.34578,N,00501.66362,E,0.072,,130525,,,D*6B
$GNVTG,,T,,M,0.072,N,0.133,K,D*3C
$GNGNS,114028.00,4357.34578,N,00501.66362,E,DA,13,0.88,59.7,47.7,,0000*55
$GNGGA,114028.00,4357.34578,N,00501.66362,E,2,12,0.88,59.7,M,47.7,M,,0000*78
$GNGSA,A,3,27,16,23,10,08,02,07,,,,,,1.74,0.88,1.50*15
$GNGSA,A,3,87,77,78,86,71,72,,,,,,,1.74,0.88,1.50*17
$GPGSV,4,1,15,01,08,249,18,02,36,264,34,07,07,290,12,08,53,306,37*70
$GPGSV,4,2,15,10,64,099,23,15,03,028,08,16,40,185,21,18,07,065,08*75
$GPGSV,4,3,15,23,33,048,38,26,14,176,,27,82,073,37,30,02,320,*72
$GPGSV,4,4,15,32,08,130,21,36,36,154,,49,39,180,*4B
$GLGSV,3,1,10,65,08,157,,70,00,010,,71,28,045,21,72,35,105,35*67
$GLGSV,3,2,10,77,26,214,13,78,42,286,28,79,13,335,,86,15,071,31*6C
$GLGSV,3,3,10,87,52,039,23,88,42,295,*6F
$GNGLL,4357.34578,N,00501.66362,E,114028.00,A,D*77
$GNGRS,114028.00,1,-2.2,4.5,-1.0,-1.0,-2.1,0.0,45.7,,,,,*44
$GNGRS,114028.00,1,10.0,9.8,7.1,4.2,-5.2,-17.7,,,,,,*58
$GNGST,114028.00,86543,,,,4.4,2.6,6.0*79
$GNZDA,114028.00,13,05,2025,00,00*74
$GNGBS,114028.00,4.4,2.6,6.0,,,,*53
b0@N$"t
'52
@c(A'!0(RI@ x#{$'AF
G-H #iMN*~OOVGW4'X*'\BbNaol.$GNRMC,114029.00,A,4357.34579,N,00501.66358,E,0.109,,130525,,,D*6F
$GNVTG,,T,,M,0.109,N,0.202,K,D*30
$GNGNS,114029.00,4357.34579,N,00501.66358,E,DA,13,0.88,58.8,47.7,,0000*52
$GNGGA,114029.00,4357.34579,N,00501.66358,E,2,12,0.88,58.8,M,47.7,M,,0000*7F
$GNGSA,A,3,27,16,23,10,08,02,07,,,,,,1.74,0.88,1.50*15
$GNGSA,A,3,87,77,78,86,71,72,,,,,,,1.74,0.88,1.50*17
$GPGSV,4,1,15,01,08,249,19,02,36,264,30,07,07,290,11,08,53,306,39*78
$GPGSV,4,2,15,10,64,099,26,15,03,028,08,16,40,185,23,18,07,065,08*72
$GPGSV,4,3,15,23,33,048,39,26,14,176,,27,82,073,40,30,02,320,*73
$GPGSV,4,4,15,32,08,130,24,36,36,154,,49,39,180,*4E
$GLGSV,3,1,10,65,08,157,,70,00,010,,71,28,045,23,72,35,105,32*62
$GLGSV,3,2,10,77,26,214,19,78,42,286,27,79,13,335,,86,15,071,28*61
$GLGSV,3,3,10,87,52,039,23,88,42,295,*6F
$GNGLL,4357.34579,N,00501.66358,E,114029.00,A,D*7E
$GNGRS,114029.00,1,-0.7,4.7,0.1,0.3,-1.2,2.7,44.7,,,,,*46
$GNGRS,114029.00,1,14.5,9.9,8.9,7.9,-5.1,-15.5,,,,,,*55
$GNGST,114029.00,86543,,,,4.1,2.4,5.4*78
$GNZDA,114029.00,13,05,2025,00,00*75
$GNGBS,114029.00,4.1,2.4,5.4,,,,*52
b0@R$$"T
"52
@c(A,5!!0"RI@ x#{$'AF
G-lH#i
MN*NOOVGW4'X*'kbRaop.tK$GNRMC,114030.00,A,4357.34573,N,00501.66355,E,0.289,,130525,,,D*6B
$GNVTG,,T,,M,0.289,N,0.535,K,D*38
$GNGNS,114030.00,4357.34573,N,00501.66355,E,DA,13,0.88,58.7,47.7,,0000*52
$GNGGA,114030.00,4357.34573,N,00501.66355,E,2,12,0.88,58.7,M,47.7,M,,0000*7F
$GNGSA,A,3,27,16,23,10,08,02,07,,,,,,1.74,0.88,1.50*15
$GNGSA,A,3,87,77,78,86,71,72,,,,,,,1.74,0.88,1.50*17
$GPGSV,4,1,15,01,08,249,18,02,36,264,25,07,07,290,14,08,53,306,34*75
$GPGSV,4,2,15,10,64,099,26,15,02,028,08,16,40,185,21,18,07,065,08*71
$GPGSV,4,3,15,23,33,048,33,26,14,176,,27,82,073,34,30,02,320,*7A
$GPGSV,4,4,15,32,08,130,23,36,36,154,,49,39,180,*49
$GLGSV,3,1,10,65,08,157,,70,00,010,,71,28,045,23,72,35,105,26*67
$GLGSV,3,2,10,77,26,214,09,78,42,286,23,79,13,335,,86,15,071,26*6A
$GLGSV,3,3,10,87,52,039,23,88,42,295,*6F
$GNGLL,4357.34573,N,00501.66355,E,114030.00,A,D*71
$GNGRS,114030.00,1,1.6,5.0,2.2,-0.5,-0.6,0.4,-32.4,,,,,*64
$GNGRS,114030.00,1,14.4,7.2,8.5,6.7,-6.6,-12.7,,,,,,*5B
$GNGST,114030.00,42,,,,4.2,2.4,5.5*48
$GNZDA,114030.00,13,05,2025,00,00*7D
$GNGBS,114030.00,4.2,2.4,5.5,,,,*58
b0@U$4"
"52
@c'A"!0"RI@ x#{$'AF
G-wH#iLMN*OOVGW4'X*'bUaot.K$GNRMC,114031.00,A,4357.34575,N,00501.66347,E,0.069,,130525,,,D*63
$GNVTG,,T,,M,0.069,N,0.127,K,D*33
$GNGNS,114031.00,4357.34575,N,00501.66347,E,DA,13,0.88,58.7,47.7,,0000*56
$GNGGA,114031.00,4357.34575,N,00501.66347,E,2,12,0.88,58.7,M,47.7,M,,0000*7B
$GNGSA,A,3,27,16,23,10,08,02,07,,,,,,1.74,0.88,1.50*15
$GNGSA,A,3,87,77,78,86,71,72,,,,,,,1.74,0.88,1.50*17
$GPGSV,4,1,15,01,08,249,17,02,36,264,27,07,07,290,18,08,53,306,34*74
$GPGSV,4,2,15,10,64,099,25,15,02,028,07,16,39,185,20,18,07,065,09*73
$GPGSV,4,3,15,23,33,048,34,26,14,176,,27,82,073,34,30,02,320,*7D
$GPGSV,4,4,15,32,08,130,22,36,36,154,,49,39,180,*48
$GLGSV,3,1,10,65,08,157,,70,00,010,,71,28,045,23,72,35,105,29*68
$GLGSV,3,2,10,77,26,214,17,78,42,286,23,79,13,335,,86,15,071,27*64
$GLGSV,3,3,10,87,52,039,23,88,42,295,*6F
$GNGLL,4357.34575,N,00501.66347,E,114031.00,A,D*75
$GNGRS,114031.00,1,-0.4,4.6,-0.9,-3.7,-0.8,3.1,34.6,,,,,*48
$GNGRS,114031.00,1,14.7,4.0,9.2,8.0,-6.5,-17.2,,,,,,*54
$GNGST,114031.00,31155,,,,4.2,2.5,5.6*7E
$GNZDA,114031.00,13,05,2025,00,00*7C
$GNGBS,114031.00,4.2,2.5,5.6,,,,*5B
b0@Y $"
&52`
@c'nA$!0%RI@ x#{$'AF
G-_H!#ioMN*OO[VGAW4'X*')bYaox.#$GNRMC,114032.00,A,4357.34580,N,00501.66344,E,0.093,,130525,,,D*6C
$GNVTG,,T,,M,0.093,N,0.172,K,D*36
$GNGNS,114032.00,4357.34580,N,00501.66344,E,DA,13,0.88,58.9,47.7,,0000*52
$GNGGA,114032.00,4357.34580,N,00501.66344,E,2,12,0.88,58.9,M,47.7,M,,0000*7F
$GNGSA,A,3,27,16,23,10,08,02,07,,,,,,1.74,0.88,1.50*15
$GNGSA,A,3,87,77,78,86,71,72,,,,,,,1.74,0.88,1.50*17
$GPGSV,4,1,15,01,08,249,18,02,36,264,32,07,07,290,14,08,53,306,38*7F
$GPGSV,4,2,15,10,64,099,24,15,02,028,08,16,39,185,21,18,07,065,09*7C
$GPGSV,4,3,15,23,33,048,36,26,14,176,,27,82,073,37,30,02,320,*7C
$GPGSV,4,4,15,32,08,130,24,36,36,154,,49,39,180,*4E
$GLGSV,3,1,10,65,08,157,,70,00,010,,71,28,045,23,72,35,105,33*63
$GLGSV,3,2,10,77,26,214,09,78,42,286,23,79,13,335,07,86,15,071,27*6C
$GLGSV,3,3,10,87,52,039,24,88,42,295,*68
$GNGLL,4357.34580,N,00501.66344,E,114032.00,A,D*7F
$GNGRS,114032.00,1,1.7,3.7,-1.1,-1.3,-1.6,2.0,34.8,,,,,*6C
$GNGRS,114032.00,1,12.8,4.4,9.8,5.8,-9.3,-16.8,,,,,,*57
$GNGST,114032.00,46733,,,,4.2,2.4,5.6*7A
$GNZDA,114032.00,13,05,2025,00,00*7F
$GNGBS,114032.00,4.2,2.4,5.6,,,,*59
b0@] $
"
$52k
@cW'BB("!0H;%RIT@ x#{$'AF
G-H#iMN*OOVGW4'kX*'mb]ao|.t$GNRMC,114033.00,A,4357.34585,N,00501.66344,E,0.134,,130525,,,D*64
$GNVTG,,T,,M,0.134,N,0.248,K,D*30
$GNGNS,114033.00,4357.34585,N,00501.66344,E,DA,14,0.88,59.1,47.7,,0000*58
$GNGGA,114033.00,4357.34585,N,00501.66344,E,2,12,0.88,59.1,M,47.7,M,,0000*72
$GNGSA,A,3,27,16,23,10,18,08,02,07,,,,,1.74,0.88,1.50*1C
$GNGSA,A,3,87,77,78,86,71,72,,,,,,,1.74,0.88,1.50*17
$GPGSV,4,1,15,01,08,249,17,02,36,264,32,07,07,290,10,08,53,306,36*7A
$GPGSV,4,2,15,10,64,099,23,15,02,028,,16,39,185,22,18,07,066,09*73
$GPGSV,4,3,15,23,33,048,34,26,14,176,17,27,82,073,37,30,02,320,*78
$GPGSV,4,4,15,32,08,130,24,36,36,154,,49,39,180,*4E
$GLGSV,3,1,10,65,08,157,,70,00,010,,71,28,045,22,72,35,105,30*61
$GLGSV,3,2,10,77,26,214,15,78,42,286,23,79,13,335,12,86,15,071,28*6A
$GLGSV,3,3,10,87,52,039,25,88,42,295,*69
$GNGLL,4357.34585,N,00501.66344,E,114033.00,A,D*7B
$GNGRS,114033.00,1,0.8,2.5,0.7,0.9,103,-1.5,0.3,35.3,,,,*56
$GNGRS,114033.00,1,13.9,4.2,9.5,6.9,-6.2,-13.8,,,,,,*54
$GNGST,114033.00,37,,,,4.2,2.4,5.6*4A
$GNZDA,114033.00,13,05,2025,00,00*7E
$GNGBS,114033.00,4.2,2.4,5.6,,,,*58
b0@a $_
"z
$52
@c'LB"!0&#RI@ x#{$'AF
G-H#ihM>N*dOOVGW4'X*'&baao{.$GNRMC,114034.00,A,4357.34584,N,00501.66341,E,0.103,,130525,,,D*63
$GNVTG,,T,,M,0.103,N,0.190,K,D*32
$GNGNS,114034.00,4357.34584,N,00501.66341,E,DA,14,0.88,59.1,47.7,,0000*5B
$GNGGA,114034.00,4357.34584,N,00501.66341,E,2,12,0.88,59.1,M,47.7,M,,0000*71
$GNGSA,A,3,27,16,23,10,18,08,02,07,,,,,1.74,0.88,1.50*1C
$GNGSA,A,3,87,77,78,86,71,72,,,,,,,1.74,0.88,1.50*17
$GPGSV,4,1,15,01,08,249,17,02,36,264,32,07,07,290,10,08,53,306,36*7A
$GPGSV,4,2,15,10,64,099,24,15,02,028,,16,39,185,22,18,07,066,11*7D
$GPGSV,4,3,15,23,33,048,34,26,14,176,18,27,82,073,35,30,02,320,*75
$GPGSV,4,4,15,32,08,130,24,36,36,154,,49,39,180,*4E
$GLGSV,3,1,10,65,08,157,,70,00,010,,71,28,045,23,72,35,105,31*61
$GLGSV,3,2,10,77,26,214,18,78,42,286,23,79,13,335,14,86,15,071,28*61
$GLGSV,3,3,10,87,52,039,26,88,42,295,*6A
$GNGLL,4357.34584,N,00501.66341,E,114034.00,A,D*78
$GNGRS,114034.00,1,1.5,5.9,0.1,1.6,33.4,-2.3,0.9,31.9,,,,*77
$GNGRS,114034.00,1,13.0,3.2,8.7,4.4,-6.2,-14.3,,,,,,*5D
$GNGST,114034.00,34,,,,4.2,2.4,5.6*4E
$GNZDA,114034.00,13,05,2025,00,00*79
$GNGBS,114034.00,4.2,2.4,5.6,,,,*5F
b0@e $
"
$52,
@c'
B!0u#RI@ x#{$'AF
G-H#iaMN*nOOVGwW4'X*'vbeaoc.D$GNRMC,114035.00,A,4357.34582,N,00501.66337,E,0.024,,130525,,,D*61
$GNVTG,,T,,M,0.024,N,0.044,K,D*3E
$GNGNS,114035.00,4357.34582,N,00501.66337,E,DA,13,0.88,59.0,47.7,,0000*5B
$GNGGA,114035.00,4357.34582,N,00501.66337,E,2,12,0.88,59.0,M,47.7,M,,0000*76
$GNGSA,A,3,27,16,23,10,18,08,02,,,,,,1.74,0.88,1.50*1B
$GNGSA,A,3,87,77,78,86,71,72,,,,,,,1.74,0.88,1.50*17
$GPGSV,4,1,15,01,08,249,16,02,36,264,32,07,07,290,10,08,53,306,36*7B
$GPGSV,4,2,15,10,64,099,25,15,02,028,,16,39,185,21,18,07,066,10*7E
$GPGSV,4,3,15,23,33,048,30,26,14,176,17,27,82,073,35,30,02,320,*7E
$GPGSV,4,4,15,32,08,130,22,36,36,154,,49,39,180,*48
$GLGSV,3,1,10,65,08,157,,70,00,010,,71,28,045,24,72,35,105,31*66
$GLGSV,3,2,10,77,26,214,20,78,42,286,24,79,13,335,15,86,15,071,30*65
$GLGSV,3,3,10,87,52,039,27,88,42,295,*6B
$GNGLL,4357.34582,N,00501.66337,E,114035.00,A,D*7E
$GNGRS,114035.00,1,-0.4,5.1,-3.5,1.8,33.3,-2.1,1.7,,,,,*68
$GNGRS,114035.00,1,12.4,4.6,8.8,6.3,-5.8,-11.8,,,,,,*57
$GNGST,114035.00,32,,,,4.2,2.4,5.6*49
$GNZDA,114035.00,13,05,2025,00,00*78
$GNGBS,114035.00,4.2,2.4,5.6,,,,*5E
b0@pi!$T"j

$52?
@cN'B !0#RIP@ x#{$'AF
G-H#iM>N*OOtVGyW4'JX*'bpiaoK.$GNRMC,114036.00,A,4357.34581,N,00501.66333,E,0.001,,130525,,,D*62
$GNVTG,,T,,M,0.001,N,0.001,K,D*38
$GNGNS,114036.00,4357.34581,N,00501.66333,E,DA,16,0.80,58.9,47.7,,0000*5A
$GNGGA,114036.00,4357.34581,N,00501.66333,E,2,12,0.80,58.9,M,47.7,M,,0000*72
$GNGSA,A,3,27,16,23,26,10,18,08,02,07,,,,1.44,0.80,1.20*14
$GNGSA,A,3,87,77,78,86,71,72,79,,,,,,1.44,0.80,1.20*15
$GPGSV,4,1,15,01,08,249,16,02,36,264,33,07,07,290,13,08,53,306,36*79
$GPGSV,4,2,15,10,64,099,31,15,02,028,,16,39,185,21,18,07,066,08*72
$GPGSV,4,3,15,23,33,048,32,26,14,176,17,27,82,073,35,30,02,320,*7C
$GPGSV,4,4,15,32,08,130,22,36,36,154,,49,39,180,*48
$GLGSV,3,1,10,65,08,157,,70,00,010,,71,28,045,24,72,35,105,31*66
$GLGSV,3,2,10,77,26,214,20,78,42,286,25,79,13,335,15,86,15,071,30*64
$GLGSV,3,3,10,87,52,039,27,88,42,295,*6B
$GNGLL,4357.34581,N,00501.66333,E,114036.00,A,D*7A
$GNGRS,114036.00,1,0.8,7.6,1.9,-5.1,3.3,-12.6,-1.9,3.4,26.7,,,*5E
$GNGRS,114036.00,1,11.0,5.7,6.9,1.2,-5.3,-11.1,80.5,,,,,*4B
$GNGST,114036.00,50,,,,4.2,2.3,5.6*49
$GNZDA,114036.00,13,05,2025,00,00*7B
$GNGBS,114036.00,4.2,2.3,5.6,,,,*5A
b0@Xm!$".

%52g
@c,'
B# 08$RI@ x#{$'AF
G-,H #i
MN*qOO]VGoW4'X*'bXmao3.[$GNRMC,114037.00,A,4357.34586,N,00501.66328,E,0.038,,130525,,,D*64
$GNVTG,,T,,M,0.038,N,0.070,K,D*34
$GNGNS,114037.00,4357.34586,N,00501.66328,E,DA,16,0.82,58.9,47.7,,0000*54
$GNGGA,114037.00,4357.34586,N,00501.66328,E,2,12,0.82,58.9,M,47.7,M,,0000*7C
$GNGSA,A,3,27,16,23,26,10,18,08,02,07,,,,1.60,0.82,1.38*19
$GNGSA,A,3,87,77,78,86,71,72,79,,,,,,1.60,0.82,1.38*18
$GPGSV,4,1,15,01,08,249,17,02,36,264,33,07,07,290,15,08,53,306,37*7F
$GPGSV,4,2,15,10,64,099,27,15,02,028,,16,39,185,22,18,07,066,10*7F
$GPGSV,4,3,15,23,32,048,35,26,14,176,18,27,82,073,36,30,02,320,*76
$GPGSV,4,4,15,32,08,130,22,36,36,154,,49,39,180,*48
$GLGSV,3,1,10,65,08,157,,70,00,010,,71,28,045,25,72,35,105,32*64
$GLGSV,3,2,10,77,26,214,20,78,42,286,25,79,13,335,16,86,15,071,30*67
$GLGSV,3,3,10,87,52,039,27,88,42,295,*6B
$GNGLL,4357.34586,N,00501.66328,E,114037.00,A,D*76
$GNGRS,114037.00,1,-0.7,7.9,1.5,0.6,3.0,33.3,-1.5,1.4,26.1,,,*71
$GNGRS,114037.00,1,9.4,5.1,6.2,1.1,-4.7,-12.7,70.1,,,,,*72
$GNGST,114037.00,36,,,,4.1,2.3,5.6*4B
$GNZDA,114037.00,13,05,2025,00,00*7A
$GNGBS,114037.00,4.1,2.3,5.6,,,,*58
b0@@q $"Y
%52|
@c^'B# 0#RIq@ x#{$'AF
G-H#iMN*qOOVGbW4'KX*';b@qao.3|$GNRMC,114038.00,A,4357.34589,N,00501.66329,E,0.068,,130525,,,D*60
$GNVTG,,T,,M,0.068,N,0.126,K,D*33
$GNGNS,114038.00,4357.34589,N,00501.66329,E,DA,16,0.82,58.9,47.7,,0000*55
$GNGGA,114038.00,4357.34589,N,00501.66329,E,2,12,0.82,58.9,M,47.7,M,,0000*7D
$GNGSA,A,3,27,16,23,26,10,18,08,02,07,,,,1.60,0.82,1.38*19
$GNGSA,A,3,87,77,78,86,71,72,79,,,,,,1.60,0.82,1.38*18
$GPGSV,4,1,15,01,08,249,18,02,36,264,32,07,07,290,16,08,53,306,37*72
$GPGSV,4,2,15,10,64,099,26,15,02,028,,16,39,185,23,18,07,066,09*77
$GPGSV,4,3,15,23,32,048,35,26,14,176,18,27,82,073,35,30,02,320,*75
$GPGSV,4,4,15,32,08,130,22,36,36,154,,49,39,180,*48
$GLGSV,3,1,10,65,08,157,,70,00,010,,71,28,045,25,72,35,105,28*6F
$GLGSV,3,2,10,77,26,214,19,78,42,286,25,79,13,335,14,86,15,071,26*68
$GLGSV,3,3,10,87,52,039,26,88,42,295,*6A
$GNGLL,4357.34589,N,00501.66329,E,114038.00,A,D*77
$GNGRS,114038.00,1,-1.4,7.8,1.5,1.4,6.1,33.2,-1.3,-1.1,23.9,,,*58
$GNGRS,114038.00,1,11.0,6.5,6.2,-1.6,-3.7,-12.6,71.1,,,,,*6A
$GNGST,114038.00,38,,,,4.1,2.3,5.6*4A
$GNZDA,114038.00,13,05,2025,00,00*75
$GNGBS,114038.00,4.1,2.3,5.6,,,,*57
b0@(u$"j
"52
@c'3B& 0m$RIn@ x#{$'AF
G-H#iMN*`OOVGW4'X*'Ab(uao.$GNRMC,114039.00,A,4357.34588,N,00501.66325,E,0.059,,130525,,,D*6E
$GNVTG,,T,,M,0.059,N,0.110,K,D*34
$GNGNS,114039.00,4357.34588,N,00501.66325,E,DA,16,0.80,59.0,47.7,,0000*53
$GNGGA,114039.00,4357.34588,N,00501.66325,E,2,12,0.80,59.0,M,47.7,M,,0000*7B
$GNGSA,A,3,27,16,23,26,10,18,08,02,07,,,,1.44,0.80,1.19*1E
$GNGSA,A,3,87,77,78,86,71,72,79,,,,,,1.44,0.80,1.19*1F
$GPGSV,4,1,15,01,08,249,17,02,36,264,29,07,07,290,15,08,53,306,34*77
$GPGSV,4,2,15,10,64,099,23,15,02,028,,16,39,185,24,18,07,066,13*7E
$GPGSV,4,3,15,23,32,048,38,26,14,176,19,27,82,073,36,30,02,320,*7A
$GPGSV,4,4,15,32,08,130,22,36,36,154,,49,39,180,*48
$GLGSV,3,1,10,65,08,157,,70,00,010,,71,28,045,26,72,35,105,28*6C
$GLGSV,3,2,10,77,26,214,20,78,42,286,26,79,13,335,12,86,15,071,27*66
$GLGSV,3,3,10,87,52,039,25,88,42,295,*69
$GNGLL,4357.34588,N,00501.66325,E,114039.00,A,D*7B
$GNGRS,114039.00,1,1.1,8.2,0.2,1.1,5.0,-1.2,-1.1,2.1,21.5,,,*4B
$GNGRS,114039.00,1,9.6,7.9,6.1,2.4,-2.4,-16.2,68.1,,,,,*7C
$GNGST,114039.00,48,,,,4.0,2.3,5.6*4D
$GNZDA,114039.00,13,05,2025,00,00*74
$GNGBS,114039.00,4.0,2.3,5.6,,,,*57
b0@y $3"
#52
@cB'B$ 0$RI@ x#{$'AF
G-H#iOMN*OOVGW4'?X*'8byao.I$GNRMC,114040.00,A,4357.34590,N,00501.66324,E,0.048,,130525,,,D*68
$GNVTG,,T,,M,0.048,N,0.090,K,D*3D
$GNGNS,114040.00,4357.34590,N,00501.66324,E,DA,16,0.82,58.8,47.7,,0000*5E
$GNGGA,114040.00,4357.34590,N,00501.66324,E,2,12,0.82,58.8,M,47.7,M,,0000*76
$GNGSA,A,3,27,16,23,26,10,18,08,02,07,,,,1.60,0.82,1.37*16
$GNGSA,A,3,87,77,78,86,71,72,79,,,,,,1.60,0.82,1.37*17
$GPGSV,4,1,15,01,08,249,18,02,36,264,32,07,07,290,16,08,53,306,35*70
$GPGSV,4,2,15,10,64,099,22,15,02,028,,16,39,185,25,18,07,066,08*74
$GPGSV,4,3,15,23,32,048,36,26,13,175,19,27,82,073,36,30,02,320,*70
$GPGSV,4,4,15,32,08,130,21,36,36,154,,49,39,180,*4B
$GLGSV,3,1,10,65,08,157,,70,00,010,,71,28,045,26,72,35,105,29*6D
$GLGSV,3,2,10,77,26,214,21,78,42,286,26,79,13,335,13,86,15,071,28*69
$GLGSV,3,3,10,87,52,039,26,88,42,295,*6A
$GNGLL,4357.34590,N,00501.66324,E,114040.00,A,D*7D
$GNGRS,114040.00,1,-0.4,9.2,1.7,2.8,3.2,33.3,-0.9,0.5,21.8,,,*78
$GNGRS,114040.00,1,8.3,7.9,6.6,1.8,-3.4,-12.0,63.5,,,,,*76
$GNGST,114040.00,36,,,,4.0,2.3,5.6*4A
$GNZDA,114040.00,13,05,2025,00,00*7A
$GNGBS,114040.00,4.0,2.3,5.6,,,,*59
b0@|"$"
%52
@cg'B' 0&RL4@ x#{$'AF
G-H#i{MN*qOOVGW4'X*'b|ao.$GNRMC,114041.00,A,4357.34625,N,00501.66332,E,0.081,,130525,,,D*66
$GNVTG,,T,,M,0.081,N,0.149,K,D*3D
$GNGNS,114041.00,4357.34625,N,00501.66332,E,DA,16,0.82,58.3,47.7,,0000*5E
$GNGGA,114041.00,4357.34625,N,00501.66332,E,2,12,0.82,58.3,M,47.7,M,,0000*76
$GNGSA,A,3,27,16,23,26,10,18,08,02,07,,,,1.60,0.82,1.37*16
$GNGSA,A,3,87,77,78,86,71,72,79,,,,,,1.60,0.82,1.37*17
$GPGSV,4,1,15,01,08,249,18,02,36,264,34,07,07,290,15,08,53,306,37*77
$GPGSV,4,2,15,10,64,099,19,15,02,028,,16,39,185,26,18,07,066,11*77
$GPGSV,4,3,15,23,32,048,39,26,13,175,20,27,82,076,38,30,02,320,*7E
$GPGSV,4,4,15,32,08,130,21,36,36,154,,49,39,180,*4B
$GLGSV,3,1,10,65,08,157,,70,00,010,,71,28,045,27,72,35,105,31*65
$GLGSV,3,2,10,77,26,214,22,78,42,286,27,79,13,335,14,86,15,071,29*6D
$GLGSV,3,3,10,87,52,039,26,88,42,295,*6A
$GNGLL,4357.34625,N,00501.66332,E,114041.00,A,D*76
$GNGRS,114041.00,1,-2.0,7.3,2.0,1.9,6.2,32.6,-1.2,-1.2,21.9,,,*57
$GNGRS,114041.00,1,6.8,8.0,6.2,2.1,-6.1,-14.1,58.6,,,,,*76
$GNGST,114041.00,36,,,,3.9,2.2,5.5*47
$GNZDA,114041.00,13,05,2025,00,00*7B
$GNGBS,114041.00,3.9,2.2,5.5,,,,*54
b0@ $"
"52
@c'B% 0 {$RLq@ x#{$'AF
G-$H#i^MN*7OOVGW4'AX*'Tbao.
$GNRMC,114042.00,A,4357.34630,N,00501.66326,E,0.040,,130525,,,D*69
$GNVTG,,T,,M,0.040,N,0.074,K,D*3F
$GNGNS,114042.00,4357.34630,N,00501.66326,E,DA,15,0.71,58.2,47.7,,0000*52
$GNGGA,114042.00,4357.34630,N,00501.66326,E,2,12,0.71,58.2,M,47.7,M,,0000*79
$GNGSA,A,3,27,16,23,26,10,08,02,07,,,,,1.31,0.71,1.10*12
$GNGSA,A,3,87,77,78,86,71,72,79,,,,,,1.31,0.71,1.10*1A
$GPGSV,4,1,15,01,08,249,16,02,36,264,32,07,07,290,13,08,53,306,34*7A
$GPGSV,4,2,15,10,64,099,17,15,02,028,,16,39,185,25,18,07,066,07*7D
$GPGSV,4,3,15,23,32,048,37,26,13,175,19,27,82,076,36,30,02,320,*74
$GPGSV,4,4,15,32,08,130,21,36,36,154,,49,39,180,*4B
$GLGSV,3,1,10,65,08,157,,70,00,010,,71,28,045,27,72,35,105,29*6C
$GLGSV,3,2,10,77,26,214,21,78,42,286,27,79,13,335,13,86,15,071,29*69
$GLGSV,3,3,10,87,52,039,26,88,42,295,*6A
$GNGLL,4357.34630,N,00501.66326,E,114042.00,A,D*74
$GNGRS,114042.00,1,-1.4,6.7,0.3,1.2,1.7,-1.0,-0.9,19.2,,,,*4F
$GNGRS,114042.00,1,5.8,7.3,5.7,4.4,-2.2,-17.0,55.9,,,,,*78
$GNGST,114042.00,44,,,,3.8,2.2,5.4*41
$GNZDA,114042.00,13,05,2025,00,00*78
$GNGBS,114042.00,3.8,2.2,5.4,,,,*57
b0@!$
"
#52
@c'B& 0 g$RL@ x#{$'AF
G-H#iMN*7OOVGW4'X*':bao.ir$GNRMC,114043.00,A,4357.34634,N,00501.66321,E,0.035,,130525,,,D*69
$GNVTG,,T,,M,0.035,N,0.066,K,D*3E
$GNGNS,114043.00,4357.34634,N,00501.66321,E,DA,15,0.82,58.1,47.7,,0000*5F
$GNGGA,114043.00,4357.34634,N,00501.66321,E,2,12,0.82,58.1,M,47.7,M,,0000*74
$GNGSA,A,3,27,16,23,26,10,18,08,02,,,,,1.60,0.82,1.37*11
$GNGSA,A,3,87,77,78,86,71,72,79,,,,,,1.60,0.82,1.37*17
$GPGSV,4,1,15,01,08,249,16,02,36,264,33,07,07,290,10,08,53,306,35*79
$GPGSV,4,2,15,10,64,099,20,15,02,028,,16,39,185,25,18,07,066,13*7C
$GPGSV,4,3,15,23,32,048,38,26,13,175,20,27,82,076,36,30,02,320,*71
$GPGSV,4,4,15,32,08,130,21,36,36,154,,49,39,180,*4B
$GLGSV,3,1,10,65,08,157,,70,00,010,,71,28,045,29,72,35,105,30*6A
$GLGSV,3,2,10,77,26,214,22,78,42,286,28,79,13,335,13,86,15,071,29*65
$GLGSV,3,3,10,87,52,039,27,88,42,295,*6B
$GNGLL,4357.34634,N,00501.66321,E,114043.00,A,D*76
$GNGRS,114043.00,1,0.2,4.4,0.3,1.0,-0.4,33.5,-0.9,-0.2,,,,*44
$GNGRS,114043.00,1,4.9,7.9,5.7,4.3,-3.4,-15.2,53.2,,,,,*7E
$GNGST,114043.00,35,,,,3.8,2.2,5.4*46
$GNZDA,114043.00,13,05,2025,00,00*79
$GNGBS,114043.00,3.8,2.2,5.4,,,,*56
b0@"$"
$52
@c='B$ 05$RL"@ x#{$'AF
G-H#iMN*OOVGW4'AX*':/rbao.A$GNRMC,114044.00,A,4357.34638,N,00501.66319,E,0.074,,130525,,,D*6C
$GNVTG,,T,,M,0.074,N,0.136,K,D*3F
$GNGNS,114044.00,4357.34638,N,00501.66319,E,DA,16,0.71,58.1,47.7,,0000*50
$GNGGA,114044.00,4357.34638,N,00501.66319,E,2,12,0.71,58.1,M,47.7,M,,0000*78
$GNGSA,A,3,27,16,23,26,10,18,08,02,07,,,,1.31,0.71,1.10*1B
$GNGSA,A,3,87,77,78,86,71,72,79,,,,,,1.31,0.71,1.10*1A
$GPGSV,4,1,15,01,08,249,16,02,36,264,34,07,07,290,12,08,53,306,36*7F
$GPGSV,4,2,15,10,64,099,18,15,02,028,,16,39,185,26,18,07,066,09*7F
$GPGSV,4,3,15,23,32,048,36,26,13,175,20,27,82,076,36,30,02,320,*7F
$GPGSV,4,4,15,32,08,130,21,36,36,154,,49,39,180,*4B
$GLGSV,3,1,10,65,08,157,,70,00,010,,71,28,045,29,72,35,105,30*6A
$GLGSV,3,2,10,77,26,214,21,78,42,286,28,79,13,335,14,86,15,071,29*61
$GLGSV,3,3,10,87,52,039,26,88,42,295,20*68
$GNGLL,4357.34638,N,00501.66319,E,114044.00,A,D*76
$GNGRS,114044.00,1,0.3,2.2,0.5,2.3,-2.0,33.4,-1.1,-0.6,19.3,,,*5B
$GNGRS,114044.00,1,5.8,7.3,5.0,2.0,-5.8,-13.5,51.0,,,,,*7A
$GNGST,114044.00,80123,,,,3.7,2.1,5.4*73
$GNZDA,114044.00,13,05,2025,00,00*7E
$GNGBS,114044.00,3.7,2.1,5.4,,,,*5D
b0@"$u"3
$52
@c'B=F$ 0E$RL*@ x#{$'AF
G-H#iMbN*OOVG5W4'X*'Tbaos.B$GNRMC,114045.00,A,4357.34640,N,00501.66319,E,0.052,,130525,,,D*66
$GNVTG,,T,,M,0.052,N,0.097,K,D*31
$GNGNS,114045.00,4357.34640,N,00501.66319,E,DA,15,0.82,58.1,47.7,,0000*51
$GNGGA,114045.00,4357.34640,N,00501.66319,E,2,12,0.82,58.1,M,47.7,M,,0000*7A
$GNGSA,A,3,27,16,23,26,10,08,02,07,,,,,1.60,0.82,1.37*1F
$GNGSA,A,3,87,77,78,86,71,72,79,,,,,,1.60,0.82,1.37*17
$GPGSV,4,1,15,01,08,249,18,02,36,264,34,07,07,290,13,08,53,306,36*70
$GPGSV,4,2,15,10,64,099,17,15,02,028,,16,39,185,26,18,07,066,07*7E
$GPGSV,4,3,15,23,32,048,36,26,13,175,20,27,82,076,36,30,02,320,*7F
$GPGSV,4,4,15,32,08,130,21,36,36,154,,49,39,180,*4B
$GLGSV,3,1,10,65,08,157,,70,00,010,,71,28,045,29,72,35,105,31*6B
$GLGSV,3,2,10,77,26,214,22,78,42,286,29,79,13,335,15,86,15,071,30*6A
$GLGSV,3,3,10,87,52,039,26,88,42,295,20*68
$GNGLL,4357.34640,N,00501.66319,E,114045.00,A,D*78
$GNGRS,114045.00,1,0.4,1.6,0.7,2.8,-2.6,-1.3,-1.4,28.7,,,,*48
$GNGRS,114045.00,1,7.5,8.7,5.1,0.5,0.1,-7.5,50.1,,,,,*6D
$GNGST,114045.00,32,,,,3.7,2.1,5.4*4B
$GNZDA,114045.00,13,05,2025,00,00*7F
$GNGBS,114045.00,3.7,2.1,5.4,,,,*5C
b0@!$
"
$52p
@c_'B*$ 0E$RL%@ x#{$'AF
G-H#i,M N*kOO-VGW4'eX*'bao[.$GNRMC,114046.00,A,4357.34642,N,00501.66316,E,0.032,,130525,,,D*6E
$GNVTG,,T,,M,0.032,N,0.060,K,D*3F
$GNGNS,114046.00,4357.34642,N,00501.66316,E,DA,16,0.82,58.2,47.7,,0000*5F
$GNGGA,114046.00,4357.34642,N,00501.66316,E,2,12,0.82,58.2,M,47.7,M,,0000*77
$GNGSA,A,3,27,16,23,26,10,18,08,02,07,,,,1.60,0.82,1.37*16
$GNGSA,A,3,87,77,78,86,71,72,79,,,,,,1.60,0.82,1.37*17
$GPGSV,4,1,15,01,08,249,17,02,36,264,33,07,07,290,10,08,53,306,36*7B
$GPGSV,4,2,15,10,64,099,14,15,02,028,,16,39,185,26,18,07,066,07*7D
$GPGSV,4,3,15,23,32,048,36,26,13,175,20,27,82,076,36,30,02,320,*7F
$GPGSV,4,4,15,32,08,129,21,36,36,154,,49,39,180,*43
$GLGSV,3,1,10,65,08,157,,70,00,010,,71,28,045,29,72,35,105,31*6B
$GLGSV,3,2,10,77,26,214,22,78,42,286,28,79,13,335,14,86,15,071,30*6A
$GLGSV,3,3,10,87,52,039,25,88,42,295,20*6B
$GNGLL,4357.34642,N,00501.66316,E,114046.00,A,D*76
$GNGRS,114046.00,1,0.4,2.2,0.7,2.4,-6.7,33.7,-1.4,-1.0,34.8,,,*5D
$GNGRS,114046.00,1,8.7,8.0,6.2,-3.6,-5.7,-9.8,46.5,,,,,*67
$GNGST,114046.00,34,,,,3.6,2.1,5.3*48
$GNZDA,114046.00,13,05,2025,00,00*7C
$GNGBS,114046.00,3.6,2.1,5.3,,,,*59
b0@h!$|"
$52
@c'<B,% 0.f$RL5@ x#{$'AF
G-H#iMN*gOOVGW4'wX*'{vbhaoC.$GNRMC,114047.00,A,4357.34645,N,00501.66313,E,0.050,,130525,,,D*69
$GNVTG,,T,,M,0.050,N,0.092,K,D*36
$GNGNS,114047.00,4357.34645,N,00501.66313,E,DA,17,0.77,58.2,47.7,,0000*57
$GNGGA,114047.00,4357.34645,N,00501.66313,E,2,12,0.77,58.2,M,47.7,M,,0000*7E
$GNGSA,A,3,27,16,23,26,10,18,08,02,07,,,,1.57,0.77,1.37*18
$GNGSA,A,3,87,77,78,86,71,88,72,79,,,,,1.57,0.77,1.37*19
$GPGSV,4,1,15,01,08,249,17,02,36,264,33,07,07,290,08,08,53,306,36*72
$GPGSV,4,2,15,10,64,099,28,15,02,028,,16,39,185,26,18,07,066,08*7D
$GPGSV,4,3,15,23,32,048,37,26,13,175,20,27,82,076,36,30,02,320,*7E
$GPGSV,4,4,15,32,08,129,21,36,36,154,,49,39,180,*43
$GLGSV,3,1,10,65,08,157,,70,00,010,,71,28,045,28,72,35,105,29*63
$GLGSV,3,2,10,77,26,214,22,78,42,286,28,79,13,335,14,86,15,071,29*62
$GLGSV,3,3,10,87,52,039,25,88,42,295,21*6A
$GNGLL,4357.34645,N,00501.66313,E,114047.00,A,D*75
$GNGRS,114047.00,1,0.5,3.2,0.5,3.6,-6.0,33.7,-1.2,-1.3,34.7,,,*50
$GNGRS,114047.00,1,8.9,7.5,6.1,-7.5,-11.2,3.8,-10.1,45.6,,,,*42
$GNGST,114047.00,31,,,,3.6,2.1,5.3*4C
$GNZDA,114047.00,13,05,2025,00,00*7D
$GNGBS,114047.00,3.6,2.1,5.3,,,,*58
b0@P $O"
$52
@c'&
B^% 0&$RL,@ x#{$'AF
G-H#ipMN*OO>VGW4'\X*'ibPao+.z$GNRMC,114048.00,A,4357.34645,N,00501.66311,E,0.021,,130525,,,D*62
$GNVTG,,T,,M,0.021,N,0.039,K,D*31
$GNGNS,114048.00,4357.34645,N,00501.66311,E,DA,17,0.69,58.3,47.7,,0000*54
$GNGGA,114048.00,4357.34645,N,00501.66311,E,2,12,0.69,58.3,M,47.7,M,,0000*7D
$GNGSA,A,3,27,16,23,26,10,18,08,02,07,,,,1.29,0.69,1.09*13
$GNGSA,A,3,87,77,78,86,71,88,72,79,,,,,1.29,0.69,1.09*12
$GPGSV,4,1,15,01,08,249,16,02,36,264,32,07,07,290,16,08,53,306,36*7D
$GPGSV,4,2,15,10,64,099,30,15,02,028,,16,39,185,25,18,07,066,10*7E
$GPGSV,4,3,15,23,32,048,37,26,13,175,20,27,82,076,36,30,02,320,*7E
$GPGSV,4,4,15,32,08,129,21,36,36,154,,49,39,180,*43
$GLGSV,3,1,10,65,08,157,,70,00,010,,71,28,045,29,72,35,105,29*62
$GLGSV,3,2,10,77,26,214,23,78,42,286,27,79,13,335,14,86,15,071,29*6C
$GLGSV,3,3,10,87,52,039,25,88,42,295,23*68
$GNGLL,4357.34645,N,00501.66311,E,114048.00,A,D*78
$GNGRS,114048.00,1,0.4,2.9,0.4,5.2,-0.2,34.2,-1.3,-4.3,-3.3,,,*48
$GNGRS,114048.00,1,6.0,10.5,7.3,-7.6,-15.2,4.9,-14.2,44.1,,,,*7F
$GNGST,114048.00,35,,,,3.5,2.1,5.3*44
$GNZDA,114048.00,13,05,2025,00,00*72
$GNGBS,114048.00,3.5,2.1,5.3,,,,*54
b0@8!$"
$52
@cu'B$ 03$RL@ x#{$'AF
G-H#iM~N*OOHVGWW4'X*'rb8ao.y$GNRMC,114049.00,A,4357.34648,N,00501.66308,E,0.051,,130525,,,D*61
$GNVTG,,T,,M,0.051,N,0.094,K,D*31
$GNGNS,114049.00,4357.34648,N,00501.66308,E,DA,16,0.77,58.4,47.7,,0000*59
$GNGGA,114049.00,4357.34648,N,00501.66308,E,2,12,0.77,58.4,M,47.7,M,,0000*71
$GNGSA,A,3,27,16,23,26,10,08,02,07,,,,,1.57,0.77,1.37*11
$GNGSA,A,3,87,77,78,86,71,88,72,79,,,,,1.57,0.77,1.37*19
$GPGSV,4,1,15,01,08,249,16,02,36,264,33,07,07,290,12,08,53,306,36*78
$GPGSV,4,2,15,10,64,099,30,15,02,028,,16,39,185,25,18,07,066,*7F
$GPGSV,4,3,15,23,32,048,36,26,13,175,19,27,82,076,36,30,02,320,*75
$GPGSV,4,4,15,32,08,129,22,36,36,154,,49,39,180,*40
$GLGSV,3,1,10,65,08,157,,70,00,010,,71,28,045,29,72,35,105,30*6A
$GLGSV,3,2,10,77,26,214,25,78,42,286,27,79,13,335,15,86,15,071,30*63
$GLGSV,3,3,10,87,52,039,26,88,42,295,24*6C
$GNGLL,4357.34648,N,00501.66308,E,114049.00,A,D*7C
$GNGRS,114049.00,1,0.3,4.2,0.5,4.6,-6.5,-1.1,-3.5,34.9,,,,*4D
$GNGRS,114049.00,1,7.4,11.5,7.0,-4.3,-10.1,3.7,-13.3,44.2,,,,*75
$GNGST,114049.00,29,,,,3.5,2.1,5.3*48
$GNZDA,114049.00,13,05,2025,00,00*73
$GNGBS,114049.00,3.5,2.1,5.3,,,,*55
b0@ %$"
&52
@cd'B# 0J&RL@ x#{$'AF
G-hH#iMN*$OOVGUW4'aX*'Sb ao.PG$GNRMC,114050.00,A,4357.34652,N,00501.66316,E,0.064,,130525,,,D*6B
$GNVTG,,T,,M,0.064,N,0.118,K,D*32
$GNGNS,114050.00,4357.34652,N,00501.66316,E,DA,16,0.77,58.6,47.7,,0000*57
$GNGGA,114050.00,4357.34652,N,00501.66316,E,2,12,0.77,58.6,M,47.7,M,,0000*7F
$GNGSA,A,3,27,16,23,26,10,08,02,07,,,,,1.57,0.77,1.37*11
$GNGSA,A,3,87,77,78,86,71,88,72,79,,,,,1.57,0.77,1.37*19
$GPGSV,4,1,15,01,08,249,18,02,36,264,37,07,07,290,15,08,53,306,38*7B
$GPGSV,4,2,15,10,64,099,27,15,02,028,,16,39,185,26,18,07,066,*7A
$GPGSV,4,3,15,23,32,048,35,26,13,175,19,27,82,076,38,30,02,320,*78
$GPGSV,4,4,15,32,08,129,23,36,36,154,,49,39,180,*41
$GLGSV,3,1,10,65,08,157,,70,00,010,,71,28,045,28,72,35,105,31*6A
$GLGSV,3,2,10,77,26,214,25,78,42,286,27,79,13,335,16,86,15,071,30*60
$GLGSV,3,3,10,87,52,039,27,88,42,295,24*6D
$GNGLL,4357.34652,N,00501.66316,E,114050.00,A,D*70
$GNGRS,114050.00,1,0.0,2.8,0.7,4.9,-9.2,-1.2,-3.1,35.4,,,,*44
$GNGRS,114050.00,1,6.1,11.9,8.0,-4.3,-9.2,4.7,-11.1,43.7,,,,*44
$GNGST,114050.00,29,,,,3.4,2.0,5.1*42
$GNZDA,114050.00,13,05,2025,00,00*7B
$GNGBS,114050.00,3.4,2.0,5.1,,,,*5F
b0@&$A"
'52
@ce'cBz& 0WY&RL@ x#{$'AF
G-wH#iMKN*OOsVG%W4'X*'bao.($GNRMC,114051.00,A,4357.34656,N,00501.66336,E,0.064,,130525,,,D*6C
$GNVTG,,T,,M,0.064,N,0.118,K,D*32
$GNGNS,114051.00,4357.34656,N,00501.66336,E,DA,16,0.69,58.9,47.7,,0000*50
$GNGGA,114051.00,4357.34656,N,00501.66336,E,2,12,0.69,58.9,M,47.7,M,,0000*78
$GNGSA,A,3,27,16,23,26,10,08,02,07,,,,,1.29,0.69,1.09*1A
$GNGSA,A,3,87,77,78,86,71,88,72,79,,,,,1.29,0.69,1.09*12
$GPGSV,4,1,15,01,08,249,19,02,36,264,38,07,07,290,15,08,53,306,39*74
$GPGSV,4,2,15,10,64,099,25,15,02,028,,16,39,185,26,18,07,066,12*7B
$GPGSV,4,3,15,23,32,048,38,26,13,175,19,27,82,076,38,30,02,320,*75
$GPGSV,4,4,15,32,08,129,24,36,36,154,,49,39,180,*46
$GLGSV,3,1,10,65,08,157,,70,00,010,,71,28,045,28,72,35,105,31*6A
$GLGSV,3,2,10,77,26,214,23,78,42,286,26,79,13,335,16,86,15,071,30*67
$GLGSV,3,3,10,87,52,039,27,88,42,295,21*68
$GNGLL,4357.34656,N,00501.66336,E,114051.00,A,D*77
$GNGRS,114051.00,1,0.1,1.0,0.9,3.5,-1.6,-1.3,-1.9,-12.5,,,,*64
$GNGRS,114051.00,1,5.3,11.0,8.0,0.4,-6.5,1.3,-11.1,42.1,,,,*6D
$GNGST,114051.00,39,,,,3.3,1.9,4.9*46
$GNZDA,114051.00,13,05,2025,00,00*7A
$GNGBS,114051.00,3.3,1.9,4.9,,,,*5A
b0@$$`"
%52{
@c'Be% 0H-$RL@ x#{$'AF
G-H#inM N*;OOVGW4'X*'Hqbao.$GNRMC,114052.00,A,4357.34657,N,00501.66337,E,0.036,,130525,,,D*68
$GNVTG,,T,,M,0.036,N,0.068,K,D*33
$GNGNS,114052.00,4357.34657,N,00501.66337,E,DA,16,0.77,58.9,47.7,,0000*5C
$GNGGA,114052.00,4357.34657,N,00501.66337,E,2,12,0.77,58.9,M,47.7,M,,0000*74
$GNGSA,A,3,27,16,23,26,10,08,02,07,,,,,1.57,0.77,1.37*11
$GNGSA,A,3,87,77,78,86,71,88,72,79,,,,,1.57,0.77,1.37*19
$GPGSV,4,1,15,01,08,249,20,02,36,264,36,07,07,290,18,08,53,306,37*73
$GPGSV,4,2,15,10,64,099,31,15,02,028,,16,39,185,27,18,07,066,09*75
$GPGSV,4,3,15,23,32,048,37,26,13,175,19,27,82,076,36,30,02,320,*74
$GPGSV,4,4,15,32,08,129,23,36,36,154,,49,39,180,*41
$GLGSV,3,1,10,65,08,157,,70,00,010,,71,28,045,28,72,35,105,30*6B
$GLGSV,3,2,10,77,26,214,23,78,42,286,27,79,13,335,14,86,15,071,30*64
$GLGSV,3,3,10,87,52,039,27,88,42,295,20*69
$GNGLL,4357.34657,N,00501.66337,E,114052.00,A,D*74
$GNGRS,114052.00,1,0.2,4.0,0.7,3.0,-3.7,-1.3,-1.6,34.9,,,,*43
$GNGRS,114052.00,1,5.0,10.6,8.3,0.3,-5.7,-1.8,-11.7,42.4,,,,*4A
$GNGST,114052.00,31,,,,3.3,1.8,4.9*4C
$GNZDA,114052.00,13,05,2025,00,00*79
$GNGBS,114052.00,3.3,1.8,4.9,,,,*58
b0@ $2"
!52
@c'B3! 0Up!RL@ x#{$'AF
G-H#i+MsN*OOVGW4'X*'Plbao.p$GNRMC,114053.00,A,4357.34659,N,00501.66331,E,0.077,,130525,,,D*64
$GNVTG,,T,,M,0.077,N,0.142,K,D*3F
$GNGNS,114053.00,4357.34659,N,00501.66331,E,DA,15,0.77,58.9,47.7,,0000*56
$GNGGA,114053.00,4357.34659,N,00501.66331,E,2,12,0.77,58.9,M,47.7,M,,0000*7D
$GNGSA,A,3,27,16,23,26,10,08,02,,,,,,1.57,0.77,1.37*16
$GNGSA,A,3,87,77,78,86,71,88,72,79,,,,,1.57,0.77,1.37*19
$GPGSV,4,1,15,01,08,249,20,02,36,264,32,07,07,290,05,08,53,306,33*7F
$GPGSV,4,2,15,10,64,099,29,15,02,028,,16,39,185,26,18,07,066,08*7C
$GPGSV,4,3,15,23,32,048,33,26,13,175,18,27,82,076,33,30,02,320,*74
$GPGSV,4,4,15,32,08,129,21,36,36,154,,49,39,180,*43
$GLGSV,3,1,10,65,08,157,,70,00,010,,71,28,045,28,72,35,105,31*6A
$GLGSV,3,2,10,77,26,214,22,78,42,286,28,79,13,335,13,86,15,071,30*6D
$GLGSV,3,3,10,87,52,039,25,88,42,295,18*60
$GNGLL,4357.34659,N,00501.66331,E,114053.00,A,D*7D
$GNGRS,114053.00,1,0.1,4.1,0.9,1.1,0.0,-0.8,-2.1,,,,,*7A
$GNGRS,114053.00,1,4.6,8.8,9.2,1.6,-3.6,-1.8,-12.4,43.0,,,,*7D
$GNGST,114053.00,33,,,,3.3,1.8,4.9*4F
$GNZDA,114053.00,13,05,2025,00,00*78
$GNGBS,114053.00,3.3,1.8,4.9,,,,*59
b0@ $e
"

"52
@cn'B$ 0"RL@ x#{$'AF
G-H#i>MN*OOVG-W4'X*'Wbao.$GNRMC,114054.00,A,4357.34663,N,00501.66330,E,0.054,,130525,,,D*6A
$GNVTG,,T,,M,0.054,N,0.100,K,D*38
$GNGNS,114054.00,4357.34663,N,00501.66330,E,DA,16,0.77,58.8,47.7,,0000*5B
$GNGGA,114054.00,4357.34663,N,00501.66330,E,2,12,0.77,58.8,M,47.7,M,,0000*73
$GNGSA,A,3,27,16,23,26,10,08,02,07,,,,,1.57,0.77,1.37*11
$GNGSA,A,3,87,77,78,86,71,88,72,79,,,,,1.57,0.77,1.37*19
$GPGSV,4,1,15,01,08,249,19,02,36,264,32,07,07,290,10,08,53,306,34*76
$GPGSV,4,2,15,10,64,099,29,15,02,028,,16,39,185,25,18,07,066,07*70
$GPGSV,4,3,15,23,32,048,36,26,13,175,17,27,82,076,34,30,02,320,*79
$GPGSV,4,4,15,32,08,129,20,36,36,154,,49,39,180,*42
$GLGSV,3,1,10,65,08,157,,70,00,010,,71,28,045,27,72,35,105,30*64
$GLGSV,3,2,10,77,26,214,22,78,42,286,28,79,13,335,15,86,15,071,30*6B
$GLGSV,3,3,10,87,52,039,24,88,42,295,17*6E
$GNGLL,4357.34663,N,00501.66330,E,114054.00,A,D*72
$GNGRS,114054.00,1,0.2,2.6,2.8,2.4,3.7,0.3,-1.5,-25.5,,,,*6E
$GNGRS,114054.00,1,4.4,6.9,9.2,0.5,-5.6,-3.6,-12.2,42.2,,,,*7A
$GNGST,114054.00,34,,,,3.3,1.9,4.9*4E
$GNZDA,114054.00,13,05,2025,00,00*7F
$GNGBS,114054.00,3.3,1.9,4.9,,,,*5F
b0@#$W"
'52
@cA'B& 0,$RL$@ x#{$'AF
G-H#iMON*OODVGW4'X*'}bao.@$GNRMC,114055.00,A,4357.34667,N,00501.66341,E,0.047,,130525,,,D*6B
$GNVTG,,T,,M,0.047,N,0.087,K,D*34
$GNGNS,114055.00,4357.34667,N,00501.66341,E,DA,17,0.75,58.7,47.7,,0000*54
$GNGGA,114055.00,4357.34667,N,00501.66341,E,2,12,0.75,58.7,M,47.7,M,,0000*7D
$GNGSA,A,3,27,16,23,26,10,18,08,02,07,,,,1.40,0.75,1.19*10
$GNGSA,A,3,87,77,78,86,71,88,72,79,,,,,1.40,0.75,1.19*11
$GPGSV,4,1,15,01,08,249,20,02,36,264,35,07,07,290,13,08,53,306,39*75
$GPGSV,4,2,15,10,64,099,27,15,02,028,,16,39,185,27,18,07,066,08*73
$GPGSV,4,3,15,23,32,048,38,26,13,175,19,27,82,076,36,30,02,320,*7B
$GPGSV,4,4,15,32,08,129,20,36,36,154,,49,39,180,*42
$GLGSV,3,1,10,65,08,157,,70,00,010,,71,28,045,27,72,35,105,30*64
$GLGSV,3,2,10,77,26,214,22,78,42,286,28,79,13,335,17,86,15,071,30*69
$GLGSV,3,3,10,87,52,039,24,88,42,295,18*61
$GNGLL,4357.34667,N,00501.66341,E,114055.00,A,D*71
$GNGRS,114055.00,1,0.4,2.7,2.2,3.0,3.2,4.5,-1.2,-1.7,35.0,,,*4B
$GNGRS,114055.00,1,4.2,8.5,10.4,2.2,-3.5,-3.2,-11.4,39.1,,,,*4F
$GNGST,114055.00,77406,,,,3.2,1.8,4.9*7A
$GNZDA,114055.00,13,05,2025,00,00*7E
$GNGBS,114055.00,3.2,1.8,4.9,,,,*5E
b0@$Q"
%52
@c'
B$ 0#RL/@ x#{$'AF
G-H#iM"N*OOVGW4'X*'5
baok._$GNRMC,114056.00,A,4357.34669,N,00501.66342,E,0.103,,130525,,,D*64
$GNVTG,,T,,M,0.103,N,0.191,K,D*33
$GNGNS,114056.00,4357.34669,N,00501.66342,E,DA,17,0.75,58.8,47.7,,0000*55
$GNGGA,114056.00,4357.34669,N,00501.66342,E,2,12,0.75,58.8,M,47.7,M,,0000*7C
$GNGSA,A,3,27,16,23,26,10,18,08,02,07,,,,1.40,0.75,1.19*10
$GNGSA,A,3,87,77,78,86,71,88,72,79,,,,,1.40,0.75,1.19*11
$GPGSV,4,1,15,01,08,249,20,02,36,264,31,07,07,290,12,08,53,306,37*7E
$GPGSV,4,2,15,10,64,099,24,15,02,028,,16,39,185,28,18,07,066,10*76
$GPGSV,4,3,15,23,32,048,36,26,13,175,20,27,82,076,35,30,02,320,*7C
$GPGSV,4,4,15,32,08,129,21,36,36,154,,49,39,180,*43
$GLGSV,3,1,10,65,08,157,,70,00,010,,71,28,045,27,72,35,105,31*65
$GLGSV,3,2,10,77,26,214,21,78,42,286,27,79,13,335,17,86,15,071,30*65
$GLGSV,3,3,10,87,52,039,25,88,42,295,18*60
$GNGLL,4357.34669,N,00501.66342,E,114056.00,A,D*7F
$GNGRS,114056.00,1,0.5,2.1,2.2,2.8,4.2,4.4,-0.4,-1.7,34.9,,,*4F
$GNGRS,114056.00,1,5.1,10.6,7.6,5.0,-3.2,-4.6,-11.3,38.1,,,,*47
$GNGST,114056.00,77406,,,,3.2,1.8,4.9*79
$GNZDA,114056.00,13,05,2025,00,00*7D
$GNGBS,114056.00,3.2,1.8,4.9,,,,*5D
b0@x $ "t
%52
@c'?
B# 0X#RLQ@ x#{$'AF
G-H#iMN*OOVGW4'X*'@bxaoS.7$GNRMC,114057.00,A,4357.34668,N,00501.66341,E,0.043,,130525,,,D*62
$GNVTG,,T,,M,0.043,N,0.080,K,D*37
$GNGNS,114057.00,4357.34668,N,00501.66341,E,DA,17,0.69,58.7,47.7,,0000*54
$GNGGA,114057.00,4357.34668,N,00501.66341,E,2,12,0.69,58.7,M,47.7,M,,0000*7D
$GNGSA,A,3,27,16,23,26,10,18,08,02,07,,,,1.29,0.69,1.09*13
$GNGSA,A,3,87,77,78,86,71,88,72,79,,,,,1.29,0.69,1.09*12
$GPGSV,4,1,15,01,08,249,20,02,36,264,32,07,07,290,13,08,53,306,37*7C
$GPGSV,4,2,15,10,64,099,30,15,02,028,,16,39,185,28,18,07,066,10*73
$GPGSV,4,3,15,23,32,048,35,26,13,175,21,27,82,076,35,30,02,320,*7E
$GPGSV,4,4,15,32,08,129,21,36,36,154,,49,39,180,*43
$GLGSV,3,1,10,65,08,157,,70,00,010,,71,28,045,28,72,35,105,30*6B
$GLGSV,3,2,10,77,26,214,22,78,42,286,27,79,13,335,16,86,15,071,30*67
$GLGSV,3,3,10,87,52,039,24,88,42,295,16*6F
$GNGLL,4357.34668,N,00501.66341,E,114057.00,A,D*7C
$GNGRS,114057.00,1,0.8,5.7,0.9,4.1,2.8,-51.5,0.0,-2.2,3.7,,,*41
$GNGRS,114057.00,1,5.1,9.8,5.4,1.8,-2.5,-4.5,-13.1,40.1,,,,*76
$GNGST,114057.00,40,,,,3.1,1.8,5.0*45
$GNZDA,114057.00,13,05,2025,00,00*7C
$GNGBS,114057.00,3.1,1.8,5.0,,,,*57
b0@` $"
$52
@c'
B'# 0#RLp@ x#{$'AF
G-H#iWMzN*!OOVGW4'qX*'0ob`ao;.x$GNRMC,114058.00,A,4357.34669,N,00501.66338,E,0.028,,130525,,,D*6F
$GNVTG,,T,,M,0.028,N,0.052,K,D*35
$GNGNS,114058.00,4357.34669,N,00501.66338,E,DA,17,0.77,58.7,47.7,,0000*5B
$GNGGA,114058.00,4357.34669,N,00501.66338,E,2,12,0.77,58.7,M,47.7,M,,0000*72
$GNGSA,A,3,27,16,23,26,10,18,08,02,07,,,,1.57,0.77,1.37*18
$GNGSA,A,3,87,77,78,86,71,88,72,79,,,,,1.57,0.77,1.37*19
$GPGSV,4,1,15,01,08,249,18,02,36,264,32,07,07,290,13,08,53,306,36*76
$GPGSV,4,2,15,10,64,099,29,15,02,028,,16,39,185,28,18,07,066,10*7B
$GPGSV,4,3,15,23,32,048,35,26,13,175,21,27,82,076,35,30,02,320,*7E
$GPGSV,4,4,15,32,08,129,21,36,36,154,,49,39,180,*43
$GLGSV,3,1,10,65,08,157,,70,00,010,,71,28,045,28,72,35,105,31*6A
$GLGSV,3,2,10,77,26,214,23,78,42,286,28,79,13,335,14,86,15,071,30*6B
$GLGSV,3,3,10,87,52,039,22,88,42,295,14*6B
$GNGLL,4357.34669,N,00501.66338,E,114058.00,A,D*7C
$GNGRS,114058.00,1,1.1,5.4,1.8,5.0,1.8,33.7,-1.1,0.1,35.0,,,*5E
$GNGRS,114058.00,1,3.7,8.9,0.3,2.9,-5.9,-4.6,-17.0,45.4,,,,*74
$GNGST,114058.00,34,,,,3.1,1.8,5.0*49
$GNZDA,114058.00,13,05,2025,00,00*73
$GNGBS,114058.00,3.1,1.8,5.0,,,,*58
b0@H $"
%52h
@c'V
B"# 0#RL~@ x#{$'AF
G-H#iMWN*JOOVGW4'X*'B bHao#.$GNRMC,114059.00,A,4357.34671,N,00501.66337,E,0.057,,130525,,,D*60
$GNVTG,,T,,M,0.057,N,0.105,K,D*3E
$GNGNS,114059.00,4357.34671,N,00501.66337,E,DA,17,0.77,58.8,47.7,,0000*53
$GNGGA,114059.00,4357.34671,N,00501.66337,E,2,12,0.77,58.8,M,47.7,M,,0000*7A
$GNGSA,A,3,27,16,23,26,10,18,08,02,07,,,,1.57,0.77,1.37*18
$GNGSA,A,3,87,77,78,86,71,88,72,79,,,,,1.57,0.77,1.37*19
$GPGSV,4,1,15,01,08,249,18,02,36,264,32,07,07,290,13,08,53,306,37*77
$GPGSV,4,2,15,10,64,099,27,15,02,028,,16,39,185,27,18,07,066,10*7A
$GPGSV,4,3,15,23,32,048,35,26,13,175,22,27,82,076,35,30,02,320,*7D
$GPGSV,4,4,15,32,08,129,20,36,36,154,,49,39,180,*42
$GLGSV,3,1,10,65,08,157,,70,00,010,,71,28,045,28,72,35,105,30*6B
$GLGSV,3,2,10,77,26,214,22,78,42,286,27,79,13,335,12,86,15,071,30*63
$GLGSV,3,3,10,87,52,039,21,88,42,295,13*6F
$GNGLL,4357.34671,N,00501.66337,E,114059.00,A,D*7B
$GNGRS,114059.00,1,1.3,3.4,2.4,6.7,4.1,33.6,-1.5,-0.8,35.1,,,*7C
$GNGRS,114059.00,1,5.3,8.6,3.3,-0.5,-6.1,-1.9,-19.0,42.6,,,,*52
$GNGST,114059.00,38,,,,3.1,1.8,5.0*44
$GNZDA,114059.00,13,05,2025,00,00*72
$GNGBS,114059.00,3.1,1.8,5.0,,,,*59
b0@0$"
%52
@c'
B# 0@"RL@ x#{$'AF
G-<H#iM%N*vOOiVGW4'X*'vb0ao.H$GNRMC,114100.00,A,4357.34671,N,00501.66334,E,0.087,,130525,,,D*63
$GNVTG,,T,,M,0.087,N,0.161,K,D*31
$GNGNS,114100.00,4357.34671,N,00501.66334,E,DA,16,0.77,58.8,47.7,,0000*5C
$GNGGA,114100.00,4357.34671,N,00501.66334,E,2,12,0.77,58.8,M,47.7,M,,0000*74
$GNGSA,A,3,27,16,23,26,10,08,02,07,,,,,1.57,0.77,1.37*11
$GNGSA,A,3,87,77,78,86,71,88,72,79,,,,,1.57,0.77,1.37*19
$GPGSV,4,1,15,01,08,249,16,02,36,264,31,07,07,290,12,08,53,306,37*7B
$GPGSV,4,2,15,10,64,099,25,15,02,028,,16,39,185,26,18,07,066,10*79
$GPGSV,4,3,15,23,32,048,35,26,13,175,21,27,82,076,34,30,02,320,*7F
$GPGSV,4,4,15,32,08,129,22,36,36,154,,49,39,180,*40
$GLGSV,3,1,10,65,08,157,,70,00,010,,71,28,045,27,72,35,105,31*65
$GLGSV,3,2,10,77,26,214,21,78,42,286,27,79,13,335,11,86,15,071,31*62
$GLGSV,3,3,10,87,52,039,23,88,42,295,14*6A
$GNGLL,4357.34671,N,00501.66334,E,114100.00,A,D*75
$GNGRS,114100.00,1,1.5,7.9,1.9,8.3,2.0,-0.9,0.2,-21.6,,,,*60
$GNGRS,114100.00,1,6.9,8.0,3.7,-0.6,-7.1,-0.6,-15.8,42.0,,,,*5A
$GNGST,114100.00,38,,,,3.1,1.8,5.0*49
$GNZDA,114100.00,13,05,2025,00,00*7F
$GNGBS,114100.00,3.1,1.8,5.0,,,,*54
b0@ $@"
'52
@c'M
B,% 0m"RL@ x#{$'AF
G-H#iMN*OOVGW4'EX*'Ubao.$GNRMC,114101.00,A,4357.34663,N,00501.66340,E,0.029,,130525,,,D*66
$GNVTG,,T,,M,0.029,N,0.054,K,D*32
$GNGNS,114101.00,4357.34663,N,00501.66340,E,DA,16,0.77,58.7,47.7,,0000*52
$GNGGA,114101.00,4357.34663,N,00501.66340,E,2,12,0.77,58.7,M,47.7,M,,0000*7A
$GNGSA,A,3,27,16,23,26,10,08,02,07,,,,,1.57,0.77,1.37*11
$GNGSA,A,3,87,77,78,86,71,88,72,79,,,,,1.57,0.77,1.37*19
$GPGSV,4,1,15,01,08,249,17,02,36,264,32,07,07,290,12,08,53,306,39*77
$GPGSV,4,2,15,10,64,099,23,15,02,028,,16,39,185,26,18,07,066,10*7F
$GPGSV,4,3,15,23,32,048,37,26,13,175,22,27,82,076,34,30,02,320,*7E
$GPGSV,4,4,15,32,08,129,21,36,36,154,,49,39,180,*43
$GLGSV,3,1,10,65,08,157,,70,00,010,,71,28,045,27,72,35,105,29*6C
$GLGSV,3,2,10,77,26,214,18,78,42,286,26,79,13,335,12,86,15,071,29*63
$GLGSV,3,3,10,87,52,039,23,88,42,295,19*67
$GNGLL,4357.34663,N,00501.66340,E,114101.00,A,D*74
$GNGRS,114101.00,1,2.1,8.5,1.5,8.8,1.4,-1.0,5.8,34.9,,,,*44
$GNGRS,114101.00,1,5.8,7.4,3.9,1.5,-7.8,-0.7,-10.1,43.2,,,,*74
$GNGST,114101.00,36,,,,3.1,1.8,5.0*46
$GNZDA,114101.00,13,05,2025,00,00*7E
$GNGBS,114101.00,3.1,1.8,5.0,,,,*55
b0@ $"
%52
@ck'
B# 0;"RL@ x#{$'AF
G-H#iMN*OOVGrW4'X*'bao.n$GNRMC,114102.00,A,4357.34658,N,00501.66339,E,0.077,,130525,,,D*68
$GNVTG,,T,,M,0.077,N,0.142,K,D*3F
$GNGNS,114102.00,4357.34658,N,00501.66339,E,DA,16,0.77,58.7,47.7,,0000*57
$GNGGA,114102.00,4357.34658,N,00501.66339,E,2,12,0.77,58.7,M,47.7,M,,0000*7F
$GNGSA,A,3,27,16,23,26,10,08,02,07,,,,,1.57,0.77,1.37*11
$GNGSA,A,3,87,77,78,86,71,88,72,79,,,,,1.57,0.77,1.37*19
$GPGSV,4,1,15,01,08,249,16,02,36,264,32,07,07,290,12,08,53,306,37*78
$GPGSV,4,2,15,10,64,099,22,15,02,028,,16,39,185,26,18,07,066,10*7E
$GPGSV,4,3,15,23,32,048,35,26,13,175,23,27,82,076,34,30,02,320,*7D
$GPGSV,4,4,15,32,08,129,21,36,36,154,,49,39,180,*43
$GLGSV,3,1,10,65,08,157,,70,00,010,,71,28,045,28,72,35,105,30*6B
$GLGSV,3,2,10,77,26,214,18,78,42,286,27,79,13,335,15,86,15,071,30*6D
$GLGSV,3,3,10,87,52,039,24,88,42,295,21*6B
$GNGLL,4357.34658,N,00501.66339,E,114102.00,A,D*71
$GNGRS,114102.00,1,2.1,7.8,1.6,8.3,3.6,-1.2,2.7,34.6,,,,*48
$GNGRS,114102.00,1,6.9,7.2,4.3,3.7,-8.6,-0.9,-7.7,42.3,,,,*41
$GNGST,114102.00,34,,,,3.1,1.8,5.1*46
$GNZDA,114102.00,13,05,2025,00,00*7D
$GNGBS,114102.00,3.1,1.8,5.1,,,,*57
b0@!$"
$52~
@c]'
B#?" 0"RL@ x#{$'AF
G-H#iMN*OOVGW4'X*'kbao.En$GNRMC,114103.00,A,4357.34659,N,00501.66339,E,0.061,,130525,,,D*6F
$GNVTG,,T,,M,0.061,N,0.112,K,D*3D
$GNGNS,114103.00,4357.34659,N,00501.66339,E,DA,17,0.77,58.7,47.7,,0000*56
$GNGGA,114103.00,4357.34659,N,00501.66339,E,2,12,0.77,58.7,M,47.7,M,,0000*7F
$GNGSA,A,3,27,16,23,26,10,18,08,02,07,,,,1.57,0.77,1.37*18
$GNGSA,A,3,87,77,78,86,71,88,72,79,,,,,1.57,0.77,1.37*19
$GPGSV,4,1,15,01,08,249,15,02,36,264,33,07,07,290,12,08,53,306,36*7B
$GPGSV,4,2,15,10,64,099,20,15,02,028,,16,39,185,25,18,07,066,10*7F
$GPGSV,4,3,15,23,32,048,34,26,13,175,22,27,82,076,34,30,02,320,*7D
$GPGSV,4,4,15,32,08,129,20,36,36,154,,49,39,180,*42
$GLGSV,3,1,10,65,09,156,,70,00,010,,71,28,045,27,72,35,105,30*64
$GLGSV,3,2,10,77,26,214,20,78,42,286,27,79,13,335,15,86,15,071,30*66
$GLGSV,3,3,10,87,52,039,24,88,42,295,19*60
$GNGLL,4357.34659,N,00501.66339,E,114103.00,A,D*71
$GNGRS,114103.00,1,2.2,5.2,1.7,7.8,6.1,162,-1.3,-2.8,-59.3,,,*70
$GNGRS,114103.00,1,7.7,6.8,4.1,-0.5,-10.0,0.0,-10.5,43.5,,,,*42
$GNGST,114103.00,34,,,,3.1,1.8,5.1*47
$GNZDA,114103.00,13,05,2025,00,00*7C
$GNGBS,114103.00,3.1,1.8,5.1,,,,*56
b0@!$"
$52r
@c'$
BA  0 "RL@ x#{$'AF
G-oH#iMN*OOVGW4'X*'3bao.$GNRMC,114104.00,A,4357.34658,N,00501.66336,E,0.051,,130525,,,D*65
$GNVTG,,T,,M,0.051,N,0.094,K,D*31
$GNGNS,114104.00,4357.34658,N,00501.66336,E,DA,17,0.77,58.7,47.7,,0000*5F
$GNGGA,114104.00,4357.34658,N,00501.66336,E,2,12,0.77,58.7,M,47.7,M,,0000*76
$GNGSA,A,3,27,16,23,26,10,18,08,02,07,,,,1.57,0.77,1.36*19
$GNGSA,A,3,87,77,78,86,71,88,72,79,,,,,1.57,0.77,1.36*18
$GPGSV,4,1,15,01,08,249,14,02,36,264,33,07,07,290,12,08,53,306,36*7A
$GPGSV,4,2,15,10,64,099,17,15,02,028,,16,39,185,26,18,07,066,10*78
$GPGSV,4,3,15,23,32,048,32,26,13,175,22,27,82,076,34,30,02,320,*7B
$GPGSV,4,4,15,32,08,129,20,36,36,154,,49,39,180,*42
$GLGSV,3,1,10,65,09,156,,70,00,010,,71,28,045,27,72,35,105,31*65
$GLGSV,3,2,10,77,26,214,21,78,42,286,27,79,13,335,14,86,15,071,30*66
$GLGSV,3,3,10,87,52,039,25,88,42,295,17*6F
$GNGLL,4357.34658,N,00501.66336,E,114104.00,A,D*78
$GNGRS,114104.00,1,2.1,2.9,2.0,5.4,9.5,33.9,-1.4,2.2,35.0,,,*5F
$GNGRS,114104.00,1,6.9,7.5,4.2,-1.2,-11.7,-1.0,-12.6,37.4,,,,*6A
$GNGST,114104.00,36,,,,3.1,1.8,5.2*41
$GNZDA,114104.00,13,05,2025,00,00*7B
$GNGBS,114104.00,3.1,1.8,5.2,,,,*52
b0@ $"
$52
@c'&
B<! 0*"RL@ x#{$'AF
G-H#iMN*zOOzVGW4'X*'?Cbao.>$GNRMC,114105.00,A,4357.34659,N,00501.66336,E,0.091,,130525,,,D*69
$GNVTG,,T,,M,0.091,N,0.169,K,D*3E
$GNGNS,114105.00,4357.34659,N,00501.66336,E,DA,17,0.77,58.8,47.7,,0000*50
$GNGGA,114105.00,4357.34659,N,00501.66336,E,2,12,0.77,58.8,M,47.7,M,,0000*79
$GNGSA,A,3,27,16,23,26,10,18,08,02,07,,,,1.57,0.77,1.36*19
$GNGSA,A,3,87,77,78,86,71,88,72,79,,,,,1.57,0.77,1.36*18
$GPGSV,4,1,15,01,08,249,14,02,36,264,32,07,07,290,12,08,53,306,36*7B
$GPGSV,4,2,15,10,64,099,15,15,02,028,,16,39,185,25,18,07,066,10*79
$GPGSV,4,3,15,23,32,048,33,26,13,175,21,27,82,076,34,30,02,320,*79
$GPGSV,4,4,15,32,08,129,20,36,36,154,,49,39,180,*42
$GLGSV,3,1,10,65,09,156,,70,00,010,,71,28,045,28,72,35,105,30*6B
$GLGSV,3,2,10,77,26,214,21,78,42,286,27,79,13,335,13,86,15,071,31*60
$GLGSV,3,3,10,87,52,039,24,88,42,295,16*6F
$GNGLL,4357.34659,N,00501.66336,E,114105.00,A,D*78
$GNGRS,114105.00,1,2.2,0.4,2.2,5.5,10.1,33.9,-1.2,2.9,35.1,,,*61
$GNGRS,114105.00,1,7.3,7.4,3.8,2.0,-10.2,-1.9,-10.7,34.5,,,,*4C
$GNGST,114105.00,37,,,,3.2,1.8,5.2*42
$GNZDA,114105.00,13,05,2025,00,00*7A
$GNGBS,114105.00,3.2,1.8,5.2,,,,*50
b0@ $"
$52
@c9'
B  0"RL@ x#{$'AF
G- H#i6MN*OO1VG W4'pX*'bao{.$GNRMC,114106.00,A,4357.34662,N,00501.66334,E,0.046,,130525,,,D*6A
$GNVTG,,T,,M,0.046,N,0.085,K,D*37
$GNGNS,114106.00,4357.34662,N,00501.66334,E,DA,16,0.69,58.8,47.7,,0000*57
$GNGGA,114106.00,4357.34662,N,00501.66334,E,2,12,0.69,58.8,M,47.7,M,,0000*7F
$GNGSA,A,3,27,16,23,26,10,08,02,07,,,,,1.29,0.69,1.09*1A
$GNGSA,A,3,87,77,78,86,71,88,72,79,,,,,1.29,0.69,1.09*12
$GPGSV,4,1,15,01,08,249,15,02,36,264,32,07,07,290,12,08,53,306,36*7A
$GPGSV,4,2,15,10,64,099,15,15,02,028,,16,39,185,25,18,07,066,10*79
$GPGSV,4,3,15,23,32,048,32,26,13,175,22,27,82,076,34,30,02,320,*7B
$GPGSV,4,4,15,32,08,129,20,36,36,154,,49,39,180,*42
$GLGSV,3,1,10,65,09,156,,70,00,010,,71,28,045,28,72,35,105,31*6A
$GLGSV,3,2,10,77,26,214,21,78,42,286,28,79,13,335,12,86,15,071,31*6E
$GLGSV,3,3,10,87,52,039,24,88,42,295,14*6D
$GNGLL,4357.34662,N,00501.66334,E,114106.00,A,D*71
$GNGRS,114106.00,1,2.1,-0.8,2.1,5.4,10.8,-1.2,1.7,-6.1,,,,*4C
$GNGRS,114106.00,1,8.8,7.6,2.9,0.3,-9.9,-3.1,-9.7,31.2,,,,*4B
$GNGST,114106.00,47,,,,3.2,1.9,5.2*47
$GNZDA,114106.00,13,05,2025,00,00*79
$GNGBS,114106.00,3.2,1.9,5.2,,,,*52
b0@ $"
$52
@c'BN  0"RL@ x#{$'AF
G-7H#iMN*UOO%VG.W4'aX*'baoc/$GNRMC,114107.00,A,4357.34667,N,00501.66332,E,0.089,,130525,,,D*6B
$GNVTG,,T,,M,0.089,N,0.165,K,D*3B
$GNGNS,114107.00,4357.34667,N,00501.66332,E,DA,16,0.77,58.9,47.7,,0000*5B
$GNGGA,114107.00,4357.34667,N,00501.66332,E,2,12,0.77,58.9,M,47.7,M,,0000*73
$GNGSA,A,3,27,16,23,26,10,08,02,07,,,,,1.57,0.77,1.36*10
$GNGSA,A,3,87,77,78,86,71,88,72,79,,,,,1.57,0.77,1.36*18
$GPGSV,4,1,15,01,08,249,17,02,36,264,32,07,07,290,08,08,53,306,36*73
$GPGSV,4,2,15,10,64,099,19,15,02,028,,16,39,185,25,18,07,066,09*7D
$GPGSV,4,3,15,23,32,048,32,26,13,175,22,27,82,076,34,30,02,320,*7B
$GPGSV,4,4,15,32,08,129,19,36,36,154,,49,39,180,*48
$GLGSV,3,1,10,65,09,156,,70,00,010,,71,28,045,28,72,35,105,31*6A
$GLGSV,3,2,10,77,26,214,21,78,42,286,28,79,13,335,13,86,15,071,31*6F
$GLGSV,3,3,10,87,52,039,25,88,42,295,15*6D
$GNGLL,4357.34667,N,00501.66332,E,114107.00,A,D*73
$GNGRS,114107.00,1,2.2,-1.1,2.0,6.9,9.7,-1.1,1.4,35.0,,,,*62
$GNGRS,114107.00,1,8.7,5.2,3.4,-2.1,-9.7,-4.9,-13.3,31.1,,,,*5F
$GNGST,114107.00,36,,,,3.2,1.9,5.2*40
$GNZDA,114107.00,13,05,2025,00,00*78
$GNGBS,114107.00,3.2,1.9,5.2,,,,*53
b0@p $
"
#52
@c\'3B]  06"RL@ x#{$'AF
G-fH#iMPN*OOVGW4'uX*'-vbpaoK/~x$GNRMC,114108.00,A,4357.34670,N,00501.66328,E,0.036,,130525,,,D*6D
$GNVTG,,T,,M,0.036,N,0.066,K,D*3D
$GNGNS,114108.00,4357.34670,N,00501.66328,E,DA,16,0.77,58.9,47.7,,0000*59
$GNGGA,114108.00,4357.34670,N,00501.66328,E,2,12,0.77,58.9,M,47.7,M,,0000*71
$GNGSA,A,3,27,16,23,26,10,08,02,07,,,,,1.57,0.77,1.36*10
$GNGSA,A,3,87,77,78,86,71,88,72,79,,,,,1.57,0.77,1.36*18
$GPGSV,4,1,15,01,08,249,18,02,36,264,32,07,07,290,10,08,53,306,35*76
$GPGSV,4,2,15,10,64,099,22,15,02,028,,16,39,185,25,18,07,066,11*7C
$GPGSV,4,3,15,23,32,048,32,26,13,175,23,27,82,076,34,30,02,320,*7A
$GPGSV,4,4,15,32,08,129,19,36,36,154,,49,39,180,*48
$GLGSV,3,1,09,65,09,156,,71,28,045,28,72,35,105,31,77,26,214,20*65
$GLGSV,3,2,09,78,42,286,28,79,13,335,13,86,15,071,31,87,52,039,25*62
$GLGSV,3,3,09,88,42,295,18*5D
$GNGLL,4357.34670,N,00501.66328,E,114108.00,A,D*71
$GNGRS,114108.00,1,2.2,-2.0,2.0,5.7,8.6,-0.9,4.0,34.9,,,,*62
$GNGRS,114108.00,1,8.8,3.4,2.4,-0.3,-9.2,-4.7,-13.5,32.4,,,,*55
$GNGST,114108.00,33,,,,3.2,1.9,5.3*4B
$GNZDA,114108.00,13,05,2025,00,00*77
$GNGBS,114108.00,3.2,1.9,5.3,,,,*5D
b04X!$"W
$52
@c'B 0J#RL@ x#{$'AG,H#ixMN*OOVGDW4'dX*'jbXao3/V$GNRMC,114109.00,A,4357.34659,N,00501.66327,E,0.389,,130525,,,D*6F
$GNVTG,,T,,M,0.389,N,0.720,K,D*3F
$GNGNS,114109.00,4357.34659,N,00501.66327,E,DA,17,0.69,58.9,47.7,,0000*52
$GNGGA,114109.00,4357.34659,N,00501.66327,E,2,12,0.69,58.9,M,47.7,M,,0000*7B
$GNGSA,A,3,27,16,23,26,10,18,08,02,07,,,,1.29,0.69,1.09*13
$GNGSA,A,3,87,77,78,86,71,88,72,79,,,,,1.29,0.69,1.09*12
$GPGSV,4,1,15,01,08,249,18,02,36,264,33,07,07,290,15,08,53,306,36*71
$GPGSV,4,2,15,10,64,099,30,15,02,028,,16,39,185,25,18,07,066,11*7F
$GPGSV,4,3,15,23,32,048,26,26,13,175,22,27,82,076,35,30,02,320,*7F
$GPGSV,4,4,15,32,08,129,19,36,36,154,,49,39,180,*48
$GLGSV,3,1,09,65,09,156,,71,27,044,27,72,35,105,27,77,26,214,19*69
$GLGSV,3,2,09,78,42,286,27,79,13,335,11,86,15,071,30,87,52,039,23*68
$GLGSV,3,3,09,88,42,295,18*5D
$GNGLL,4357.34659,N,00501.66327,E,114109.00,A,D*74
$GNGRS,114109.00,1,1.9,-1.0,2.1,5.9,9.7,-27.9,-0.7,1.9,8.5,,,*69
$GNGRS,114109.00,1,8.7,4.6,1.7,-1.9,-10.2,-5.7,-14.2,33.6,,,,*6F
$GNGST,114109.00,41,,,,3.2,1.9,5.3*4F
$GNZDA,114109.00,13,05,2025,00,00*76
$GNGBS,114109.00,3.2,1.9,5.3,,,,*5C
b04@!$f"
$52
@c'BI 0Z#RL@ x#{$'AG,hH#hMN*cOOVGqW4'X*'Vb@ao/.H$GNRMC,114110.00,A,4357.34656,N,00501.66325,E,0.117,,130525,,,D*6F
$GNVTG,,T,,M,0.117,N,0.216,K,D*3A
$GNGNS,114110.00,4357.34656,N,00501.66325,E,DA,15,0.77,58.8,47.7,,0000*5B
$GNGGA,114110.00,4357.34656,N,00501.66325,E,2,12,0.77,58.8,M,47.7,M,,0000*70
$GNGSA,A,3,27,16,23,26,10,08,02,07,,,,,1.57,0.77,1.36*10
$GNGSA,A,3,87,77,78,86,71,88,72,,,,,,1.57,0.77,1.36*16
$GPGSV,4,1,15,01,08,249,19,02,36,264,33,07,07,290,12,08,53,306,36*77
$GPGSV,4,2,15,10,64,099,23,15,02,028,,16,39,185,26,18,07,066,07*79
$GPGSV,4,3,15,23,32,048,31,26,13,175,22,27,82,076,35,30,02,320,*79
$GPGSV,4,4,15,32,08,129,18,36,36,154,,49,39,180,*49
$GLGSV,3,1,09,65,09,156,,71,27,044,27,72,35,104,30,77,26,214,18*6F
$GLGSV,3,2,09,78,42,286,27,79,13,335,08,86,15,071,30,87,52,039,23*60
$GLGSV,3,3,09,88,42,295,19*5C
