$GNTXT,01,01,01,More than 100 frame errors, UART RX was disabled*70
b0|`i#3$#a
wp%! 3X!fo?wI{4$V^#:R Z 
Y_EF
dMG$HSI"J3mdK!10LUU
V-=W$yb`ir&$GNRMC,042442.00,A,0419.93844,S,05539.90997,E,0.045,,230525,,,D*7A
$GNVTG,,T,,M,0.045,N,0.083,K,D*32
$GNGNS,042442.00,0419.93844,S,05539.90997,E,DA,17,0.61,12.6,-47.6,,0000*62
$GNGGA,042442.00,0419.93844,S,05539.90997,E,2,12,0.61,12.6,M,-47.6,M,,0000*4B
$GNGSA,A,3,24,20,05,13,15,22,12,14,18,,,,1.16,0.61,0.99*15
$GNGSA,A,3,86,74,75,87,85,73,71,72,,,,,1.16,0.61,0.99*17
$GPGSV,5,1,19,05,51,152,35,06,04,028,31,11,35,019,,12,22,353,31*74
$GPGSV,5,2,19,13,24,168,29,14,08,119,31,15,27,204,37,18,14,223,33*7C
$GPGSV,5,3,19,20,51,088,32,22,20,102,33,24,63,273,26,25,01,329,*7E
$GPGSV,5,4,19,29,11,287,,36,52,277,,40,86,350,36,41,58,082,35*7B
$GPGSV,5,5,19,42,,,32,49,32,274,,50,10,089,*7E
$GLGSV,3,1,11,70,00,100,10,71,13,141,36,72,14,190,30,73,13,142,34*68
$GLGSV,3,2,11,74,51,109,26,75,49,016,33,76,01,341,,85,10,009,24*62
$GLGSV,3,3,11,86,45,317,31,87,36,253,31,,,,31*63
$GNGLL,0419.93844,S,05539.90997,E,042442.00,A,D*61
$GNGRS,042442.00,1,3.7,-0.4,-0.4,4.4,-0.4,1.1,-1.3,3.7,0.1,,,*7D
$GNGRS,042442.00,1,2.3,13.8,3.0,2.7,12.9,-5.6,-1.0,-12.0,,,,*4F
$GNGST,042442.00,23,,,,1.2,1.1,2.5*48
$GNZDA,042442.00,23,05,2025,00,00*7D
$GNGBS,042442.00,1.2,1.1,2.5,,,,*5F
$GNTXT,01,01,01,More than 100 frame errors, UART RX was disabled*70
b0|Hm&3=##a
w.($
"3X$fZ?I{4%V^$:R!Z 
Y _FdG&HI%J3mMK"1LUU
V!-=W$\!bHmr$GNRMC,042443.00,A,0419.93842,S,05539.90997,E,0.046,,230525,,,D*7E
$GNVTG,,T,,M,0.046,N,0.086,K,D*34
$GNGNS,042443.00,0419.93842,S,05539.90997,E,DA,17,0.63,12.7,-47.6,,0000*66
$GNGGA,042443.00,0419.93842,S,05539.90997,E,2,12,0.63,12.7,M,-47.6,M,,0000*4F
$GNGSA,A,3,24,20,05,13,15,22,12,14,18,,,,1.19,0.63,1.01*18
$GNGSA,A,3,86,74,75,87,85,73,71,72,,,,,1.19,0.63,1.01*1A
$GPGSV,5,1,19,05,51,152,38,06,04,028,28,11,35,019,,12,22,353,35*75
$GPGSV,5,2,19,13,24,168,30,14,08,119,30,15,27,204,40,18,14,223,36*70
$GPGSV,5,3,19,20,51,088,34,22,20,102,36,24,63,273,29,25,01,329,*72
$GPGSV,5,4,19,29,11,287,,36,52,277,,40,86,350,37,41,58,082,36*79
$GPGSV,5,5,19,42,,,33,49,32,274,,50,10,089,*7F
$GLGSV,3,1,11,70,00,100,05,71,13,141,38,72,14,190,31,73,13,142,37*60
$GLGSV,3,2,11,74,51,109,27,75,49,016,34,76,01,341,,85,10,009,23*63
$GLGSV,3,3,11,86,45,317,33,87,36,253,31,,,,33*63
$GNGLL,0419.93842,S,05539.90997,E,042443.00,A,D*66
$GNGRS,042443.00,1,0.2,-0.4,-0.9,2.5,-0.4,0.9,-3.4,5.6,0.1,,,*7B
$GNGRS,042443.00,1,2.6,11.0,1.8,3.5,11.6,-5.7,-0.7,-11.1,,,,*41
$GNGST,042443.00,20,,,,1.2,1.1,2.5*4A
$GNZDA,042443.00,23,05,2025,00,00*7C
$GNGBS,042443.00,1.2,1.1,2.5,,,,*5E
$GNTXT,01,01,01,More than 100 frame errors, UART RX was disabled*70
b0|0q(3S#&a#
w+&&'3X&f[?I{4(V^(:R%Z 
Y _FdG+H%I*J 3mK)1)LUU
{V'-=W#$'b0qr_$GNRMC,042444.00,A,0419.93839,S,05539.90996,E,0.019,,230525,,,D*7E
$GNVTG,,T,,M,0.019,N,0.035,K,D*36
$GNGNS,042444.00,0419.93839,S,05539.90996,E,DA,17,0.61,12.8,-47.6,,0000*61
$GNGGA,042444.00,0419.93839,S,05539.90996,E,2,12,0.61,12.8,M,-47.6,M,,0000*48
$GNGSA,A,3,24,20,05,13,15,22,12,14,18,,,,1.16,0.61,0.99*15
$GNGSA,A,3,86,74,75,87,85,73,71,72,,,,,1.16,0.61,0.99*17
$GPGSV,5,1,19,05,51,152,40,06,04,028,30,11,35,019,,12,22,353,38*7E
$GPGSV,5,2,19,13,24,168,35,14,08,119,31,15,27,204,43,18,14,223,38*79
$GPGSV,5,3,19,20,51,088,39,22,20,102,38,24,63,273,31,25,01,329,*78
$GPGSV,5,4,19,29,11,287,,36,52,277,,40,86,350,40,41,58,082,40*78
$GPGSV,5,5,19,42,,,37,49,32,274,,50,10,089,*7B
$GLGSV,3,1,11,70,00,100,09,71,13,141,43,72,14,190,37,73,13,142,42*64
$GLGSV,3,2,11,74,51,109,32,75,49,016,41,76,01,341,,85,10,009,23*65
$GLGSV,3,3,11,86,45,317,39,87,36,253,35,,,,39*67
$GNGLL,0419.93839,S,05539.90996,E,042444.00,A,D*6C
$GNGRS,042444.00,1,-0.9,-0.5,-0.4,2.4,-0.2,0.9,-2.6,7.8,0.4,,,*5B
$GNGRS,042444.00,1,2.8,9.9,0.4,4.8,8.9,-5.3,-0.5,-10.7,,,,*49
$GNGST,042444.00,16,,,,1.2,1.1,2.4*49
$GNZDA,042444.00,23,05,2025,00,00*7B
$GNGBS,042444.00,1.2,1.1,2.4,,,,*58
$GNTXT,01,01,01,More than 100 frame errors, UART RX was disabled*70
b0|u$3#%as
w&%#<)3X&fh#?I{4'V^(:R'Z 
Y!_sFdG(H"I(J3mK'1LUU
V%-=W!$T"zbur7^$GNRMC,042445.00,A,0419.93835,S,05539.90995,E,0.047,,230525,,,D*7B
$GNVTG,,T,,M,0.047,N,0.087,K,D*34
$GNGNS,042445.00,0419.93835,S,05539.90995,E,DA,17,0.61,12.8,-47.6,,0000*6F
$GNGGA,042445.00,0419.93835,S,05539.90995,E,2,12,0.61,12.8,M,-47.6,M,,0000*46
$GNGSA,A,3,24,20,05,13,15,22,12,14,18,,,,1.16,0.61,0.99*15
$GNGSA,A,3,86,74,75,87,85,73,71,72,,,,,1.16,0.61,0.99*17
$GPGSV,5,1,19,05,51,152,36,06,04,028,31,11,35,019,,12,22,353,37*71
$GPGSV,5,2,19,13,24,168,31,14,08,119,30,15,27,204,37,18,14,223,35*72
$GPGSV,5,3,19,20,51,088,41,22,20,102,38,24,63,273,35,25,01,329,*73
$GPGSV,5,4,19,29,11,287,,36,52,277,,40,86,350,39,41,58,082,40*76
$GPGSV,5,5,19,42,,,39,49,32,274,,50,10,089,*75
$GLGSV,3,1,11,70,00,100,08,71,13,141,40,72,14,190,34,73,13,142,40*67
$GLGSV,3,2,11,74,51,109,31,75,49,016,39,76,01,341,,85,10,009,27*6D
$GLGSV,3,3,11,86,45,317,37,87,36,253,33,,,,34*62
$GNGLL,0419.93835,S,05539.90995,E,042445.00,A,D*62
$GNGRS,042445.00,1,1.4,-0.6,-0.4,0.1,-0.3,1.0,-1.4,8.1,0.6,,,*73
$GNGRS,042445.00,1,2.9,12.5,0.0,6.0,6.6,-4.9,0.2,-13.7,,,,*52
$GNGST,042445.00,15,,,,1.1,1.1,2.4*48
$GNZDA,042445.00,23,05,2025,00,00*7A
$GNGBS,042445.00,1.1,1.1,2.4,,,,*5A
$GNTXT,01,01,01,More than 100 frame errors, UART RX was disabled*70
b0|y 3#%aM
w^%"Q*3X"fb%?I{4(V^(:R(Z 
Y!_{FdG%HI%J3mK)1LUU
V%-=BW$w!byr$GNRMC,042446.00,A,0419.93834,S,05539.90993,E,0.027,,230525,,,D*79
$GNVTG,,T,,M,0.027,N,0.049,K,D*30
$GNGNS,042446.00,0419.93834,S,05539.90993,E,DA,17,0.61,12.7,-47.6,,0000*64
$GNGGA,042446.00,0419.93834,S,05539.90993,E,2,12,0.61,12.7,M,-47.6,M,,0000*4D
$GNGSA,A,3,24,20,05,13,15,22,12,14,18,,,,1.16,0.61,0.99*15
$GNGSA,A,3,86,74,75,87,85,73,71,72,,,,,1.16,0.61,0.99*17
$GPGSV,5,1,19,05,51,152,32,06,04,028,29,11,35,019,,12,22,353,37*7C
$GPGSV,5,2,19,13,24,168,26,14,08,119,28,15,27,204,37,18,14,223,34*7C
$GPGSV,5,3,19,20,51,088,42,22,20,102,34,24,63,273,37,25,01,329,*7E
$GPGSV,5,4,19,29,11,287,,36,52,277,,40,86,350,40,41,58,082,40*78
$GPGSV,5,5,19,42,,,40,49,32,274,,50,10,089,*7B
$GLGSV,3,1,11,70,00,100,09,71,13,141,37,72,14,190,29,73,13,142,37*6A
$GLGSV,3,2,11,74,51,109,30,75,49,016,41,76,01,341,,85,10,009,28*6C
$GLGSV,3,3,11,86,45,317,37,87,36,253,29,,,,33*6E
$GNGLL,0419.93834,S,05539.90993,E,042446.00,A,D*66
$GNGRS,042446.00,1,-0.9,-0.8,-0.2,-4.4,-0.3,1.0,-1.3,8.6,0.8,,,*7B
$GNGRS,042446.00,1,3.2,11.6,-0.1,3.7,2.3,-5.0,-0.2,-10.4,,,,*51
$GNGST,042446.00,20,,,,1.1,1.1,2.4*4D
$GNZDA,042446.00,23,05,2025,00,00*79
$GNGBS,042446.00,1.1,1.1,2.4,,,,*59
$GNTXT,01,01,01,More than 100 frame errors, UART RX was disabled*70
b0||%3#$a
w&!](3X$fQ%?I{4(V^):R(Z 
Y"_FdG%H(I&J3m{K%1LUU
CV"-="W$b|r}$GNRMC,042447.00,A,0419.93833,S,05539.90993,E,0.044,,230525,,,D*7A
$GNVTG,,T,,M,0.044,N,0.081,K,D*31
$GNGNS,042447.00,0419.93833,S,05539.90993,E,DA,17,0.63,12.7,-47.6,,0000*60
$GNGGA,042447.00,0419.93833,S,05539.90993,E,2,12,0.63,12.7,M,-47.6,M,,0000*49
$GNGSA,A,3,24,20,05,13,15,22,12,14,18,,,,1.19,0.63,1.01*18
$GNGSA,A,3,86,74,75,87,85,73,71,72,,,,,1.19,0.63,1.01*1A
$GPGSV,5,1,19,05,51,152,37,06,04,028,28,11,35,019,,12,22,353,36*79
$GPGSV,5,2,19,13,24,168,26,14,08,119,29,15,27,204,38,18,14,223,33*75
$GPGSV,5,3,19,20,51,088,40,22,20,102,36,24,63,273,37,25,01,329,*7E
$GPGSV,5,4,19,29,11,287,,36,52,277,,40,86,350,40,41,58,082,41*79
$GPGSV,5,5,19,42,,,40,49,32,274,,50,10,089,*7B
$GLGSV,3,1,11,70,00,100,08,71,13,141,37,72,14,190,28,73,13,142,38*65
$GLGSV,3,2,11,74,51,109,29,75,49,016,37,76,01,341,,85,10,009,28*65
$GLGSV,3,3,11,86,45,317,34,87,36,253,28,,,,30*6F
$GNGLL,0419.93833,S,05539.90993,E,042447.00,A,D*60
$GNGRS,042447.00,1,-0.5,-0.5,-0.2,-5.5,0.0,0.8,-1.1,3.8,0.9,,,*5A
$GNGRS,042447.00,1,2.9,11.5,0.1,2.5,0.7,-5.0,-0.3,-17.5,,,,*76
$GNGST,042447.00,19,,,,1.1,1.1,2.4*46
$GNZDA,042447.00,23,05,2025,00,00*78
$GNGBS,042447.00,1.1,1.1,2.4,,,,*58
$GNTXT,01,01,01,More than 100 frame errors, UART RX was disabled*70
b0|(3C#$a$
!w*$)3X%fK$?I{4'V^):R'Z 
Y"_F
dSG(H!'I&#J3mK&1LUU
V$-=W$e&bre$GNRMC,042448.00,A,0419.93832,S,05539.90991,E,0.037,,230525,,,D*72
$GNVTG,,T,,M,0.037,N,0.069,K,D*33
$GNGNS,042448.00,0419.93832,S,05539.90991,E,DA,17,0.63,12.6,-47.6,,0000*6D
$GNGGA,042448.00,0419.93832,S,05539.90991,E,2,12,0.63,12.6,M,-47.6,M,,0000*44
$GNGSA,A,3,24,20,05,13,15,22,12,14,18,,,,1.19,0.63,1.01*18
$GNGSA,A,3,86,74,75,87,85,73,71,72,,,,,1.19,0.63,1.01*1A
$GPGSV,5,1,19,05,51,152,40,06,04,028,27,11,35,019,,12,22,353,36*76
$GPGSV,5,2,19,13,24,168,36,14,08,119,33,15,27,204,42,18,14,223,36*77
$GPGSV,5,3,19,20,51,088,41,22,20,102,37,24,63,273,36,25,01,329,*7F
$GPGSV,5,4,19,29,11,287,,36,52,277,,40,86,350,39,41,58,082,41*77
$GPGSV,5,5,19,42,,,39,49,32,274,,50,10,089,*75
$GLGSV,3,1,11,70,00,100,10,71,13,141,40,72,14,190,33,73,13,142,38*66
$GLGSV,3,2,11,74,51,109,30,75,49,016,38,76,01,341,,85,10,009,27*6D
$GLGSV,3,3,11,86,45,317,36,87,36,253,28,,,,38*65
$GNGLL,0419.93832,S,05539.90991,E,042448.00,A,D*6C
$GNGRS,042448.00,1,-2.3,-0.7,-0.3,-0.9,0.2,0.8,-1.3,2.7,1.4,,,*59
$GNGRS,042448.00,1,2.8,11.5,0.1,1.0,-0.3,-4.8,-0.2,-12.4,,,,*5B
$GNGST,042448.00,15,,,,1.1,1.0,2.3*43
$GNZDA,042448.00,23,05,2025,00,00*77
$GNGBS,042448.00,1.1,1.0,2.3,,,,*51
$GNTXT,01,01,01,More than 100 frame errors, UART RX was disabled*70
b0|(3#%a!]
 w)"%(3X%f$?oI{4'V^(:R'Z 
Y!_FdG'H!'I((J3mK(1LUU
XV!-=W$u&(brM$GNRMC,042449.00,A,0419.93833,S,05539.90989,E,0.017,,230525,,,D*79
$GNVTG,,T,,M,0.017,N,0.032,K,D*3F
$GNGNS,042449.00,0419.93833,S,05539.90989,E,DA,17,0.63,12.5,-47.6,,0000*67
$GNGGA,042449.00,0419.93833,S,05539.90989,E,2,12,0.63,12.5,M,-47.6,M,,0000*4E
$GNGSA,A,3,24,20,05,13,15,22,12,14,18,,,,1.19,0.63,1.01*18
$GNGSA,A,3,86,74,75,87,85,73,71,72,,,,,1.19,0.63,1.01*1A
$GPGSV,5,1,19,05,51,152,40,06,04,028,26,11,35,019,,12,22,353,37*76
$GPGSV,5,2,19,13,24,168,33,14,08,119,32,15,27,204,41,18,14,223,37*71
$GPGSV,5,3,19,20,51,088,40,22,20,102,37,24,63,273,36,25,01,329,*7E
$GPGSV,5,4,19,29,11,287,,36,52,277,,40,86,350,39,41,58,082,40*76
$GPGSV,5,5,19,42,,,39,49,32,274,,50,10,089,*75
$GLGSV,3,1,11,70,00,100,09,71,13,141,39,72,14,190,33,73,13,142,40*6F
$GLGSV,3,2,11,74,51,109,30,75,49,016,40,76,01,341,,85,10,009,26*63
$GLGSV,3,3,11,86,45,317,33,87,36,253,28,,,,38*60
$GNGLL,0419.93833,S,05539.90989,E,042449.00,A,D*65
$GNGRS,042449.00,1,-1.5,-0.9,-0.1,3.5,0.3,0.2,-1.2,1.7,1.3,,,*7D
$GNGRS,042449.00,1,2.3,14.1,0.1,3.7,-1.7,-4.7,0.0,-12.4,,,,*70
$GNGST,042449.00,16,,,,1.1,1.0,2.3*41
$GNZDA,042449.00,23,05,2025,00,00*76
$GNGBS,042449.00,1.1,1.0,2.3,,,,*50
$GNTXT,01,01,01,More than 100 frame errors, UART RX was disabled*70
b0|"3=#!a~!
w%:"%3X#f?I{4$V^%:R#Z 
Y!_FdG#HI#*J3mK!1LUU
V-=W$H"^br5oY$GNRMC,042450.00,A,0419.93833,S,05539.90989,E,0.007,,230525,,,D*70
$GNVTG,,T,,M,0.007,N,0.012,K,D*3C
$GNGNS,042450.00,0419.93833,S,05539.90989,E,DA,17,0.61,12.6,-47.6,,0000*6E
$GNGGA,042450.00,0419.93833,S,05539.90989,E,2,12,0.61,12.6,M,-47.6,M,,0000*47
$GNGSA,A,3,24,20,05,13,15,22,12,14,18,,,,1.16,0.61,0.99*15
$GNGSA,A,3,86,74,75,87,85,73,71,72,,,,,1.16,0.61,0.99*17
$GPGSV,5,1,19,05,51,152,34,06,04,028,26,11,35,019,,12,22,353,33*71
$GPGSV,5,2,19,13,24,168,33,14,08,119,28,15,27,204,37,18,14,223,34*78
$GPGSV,5,3,19,20,51,088,37,22,20,102,35,24,63,273,31,25,01,329,*7B
$GPGSV,5,4,19,29,11,287,,36,52,277,,40,86,350,36,41,58,082,37*79
$GPGSV,5,5,19,42,,,35,49,32,274,,50,10,089,*79
$GLGSV,3,1,11,70,00,100,11,71,13,141,35,72,14,190,29,73,13,142,35*63
$GLGSV,3,2,11,74,51,109,29,75,49,016,33,76,01,341,,85,10,009,24*6D
$GLGSV,3,3,11,86,45,317,29,87,36,253,27,,,,34*68
$GNGLL,0419.93833,S,05539.90989,E,042450.00,A,D*6D
$GNGRS,042450.00,1,0.0,-0.9,0.1,1.6,0.6,0.1,-1.3,-4.8,1.5,,,*56
$GNGRS,042450.00,1,2.0,14.2,0.0,5.8,-3.1,-4.7,0.1,-10.0,,,,*73
$GNGST,042450.00,22,,,,1.1,1.0,2.3*4E
$GNZDA,042450.00,23,05,2025,00,00*7E
$GNGBS,042450.00,1.1,1.0,2.3,,,,*58
$GNTXT,01,01,01,More than 100 frame errors, UART RX was disabled*70
b0|%3#!a$
wB'6!&3X#f ?I{4$V^&:R$Z 
Y!_FdG&HI%PJ3mK$1LUU
nV -=W$=$MbrG$GNRMC,042451.00,A,0419.93835,S,05539.90988,E,0.037,,230525,,,D*75
$GNVTG,,T,,M,0.037,N,0.068,K,D*32
$GNGNS,042451.00,0419.93835,S,05539.90988,E,DA,17,0.61,12.6,-47.6,,0000*68
$GNGGA,042451.00,0419.93835,S,05539.90988,E,2,12,0.61,12.6,M,-47.6,M,,0000*41
$GNGSA,A,3,24,20,05,13,15,22,12,14,18,,,,1.16,0.61,0.99*15
$GNGSA,A,3,86,74,75,87,85,73,71,72,,,,,1.16,0.61,0.99*17
$GPGSV,5,1,19,05,51,152,37,06,04,028,26,11,35,019,,12,22,353,33*72
$GPGSV,5,2,19,13,24,168,36,14,08,119,29,15,27,204,39,18,14,223,33*75
$GPGSV,5,3,19,20,51,088,38,22,20,102,35,24,63,273,32,25,01,329,*77
$GPGSV,5,4,19,29,11,287,,36,52,277,,40,86,350,36,41,58,082,38*76
$GPGSV,5,5,19,42,,,36,49,32,274,,50,10,089,*7A
$GLGSV,3,1,11,70,00,100,08,71,13,141,38,72,14,190,29,73,13,142,37*64
$GLGSV,3,2,11,74,51,109,28,75,49,016,36,76,01,341,,85,10,009,22*6F
$GLGSV,3,3,11,86,45,317,32,87,36,253,24,,,,36*63
$GNGLL,0419.93835,S,05539.90988,E,042451.00,A,D*6B
$GNGRS,042451.00,1,0.0,-0.9,0.1,1.8,0.5,0.2,-1.0,-1.9,1.4,,,*5F
$GNGRS,042451.00,1,1.8,14.7,-0.1,5.7,-4.0,-4.3,0.3,-10.2,,,,*5D
$GNGST,042451.00,22,,,,1.1,1.1,2.4*49
$GNZDA,042451.00,23,05,2025,00,00*7F
$GNGBS,042451.00,1.1,1.1,2.4,,,,*5F
$GNTXT,01,01,01,More than 100 frame errors, UART RX was disabled*70
b0|p'3
Z#"a$S
 wd(?"'3X$f!?I{4&V^':R%Z 
Y"_FdG&HI%GJ3mK%1LUU
V-=W$$$pbpr)$GNRMC,042452.00,A,0419.93836,S,05539.90985,E,0.015,,230525,,,D*78
$GNVTG,,T,,M,0.015,N,0.028,K,D*36
$GNGNS,042452.00,0419.93836,S,05539.90985,E,DA,17,0.61,12.6,-47.6,,0000*65
$GNGGA,042452.00,0419.93836,S,05539.90985,E,2,12,0.61,12.6,M,-47.6,M,,0000*4C
$GNGSA,A,3,24,20,05,13,15,22,12,14,18,,,,1.16,0.61,0.99*15
$GNGSA,A,3,86,74,75,87,85,73,71,72,,,,,1.16,0.61,0.99*17
$GPGSV,5,1,19,05,51,152,39,06,04,028,27,11,35,019,,12,22,353,34*7A
$GPGSV,5,2,19,13,24,168,36,14,08,119,32,15,27,204,40,18,14,223,34*76
$GPGSV,5,3,19,20,51,088,39,22,20,102,36,24,63,273,33,25,01,329,*74
$GPGSV,5,4,19,29,11,287,,36,52,277,,40,86,350,38,41,58,082,39*79
$GPGSV,5,5,19,42,,,37,49,32,274,,50,10,089,*7B
$GLGSV,3,1,11,70,00,100,06,71,13,141,38,72,14,190,30,73,13,142,37*62
$GLGSV,3,2,11,74,51,109,28,75,49,016,37,76,01,341,,85,10,009,21*6D
$GLGSV,3,3,11,86,45,317,31,87,36,253,23,,,,36*67
$GNGLL,0419.93836,S,05539.90985,E,042452.00,A,D*66
$GNGRS,042452.00,1,-0.6,-0.8,0.1,3.4,0.6,0.3,0.0,-1.6,1.3,,,*5E
$GNGRS,042452.00,1,-0.9,10.5,0.0,5.5,-3.5,-4.4,0.3,-12.7,,,,*59
$GNGST,042452.00,21,,,,1.1,1.1,2.3*4E
$GNZDA,042452.00,23,05,2025,00,00*7C
$GNGBS,042452.00,1.1,1.1,2.3,,,,*5B
$GNTXT,01,01,01,More than 100 frame errors, UART RX was disabled*70
b0|X&3C#"a"
 wc((#&3X$f;!?I{4&V^':R%Z 
Y!_F
dG(HKI(@J3mK&1LUU
V -=W$&bXr$GNRMC,042453.00,A,0419.93835,S,05539.90984,E,0.018,,230525,,,D*76
$GNVTG,,T,,M,0.018,N,0.034,K,D*36
$GNGNS,042453.00,0419.93835,S,05539.90984,E,DA,17,0.61,12.6,-47.6,,0000*66
$GNGGA,042453.00,0419.93835,S,05539.90984,E,2,12,0.61,12.6,M,-47.6,M,,0000*4F
$GNGSA,A,3,24,20,05,13,15,22,12,14,18,,,,1.16,0.61,0.99*15
$GNGSA,A,3,86,74,75,87,85,73,71,72,,,,,1.16,0.61,0.99*17
$GPGSV,5,1,19,05,51,152,38,06,04,028,27,11,35,019,,12,22,353,34*7B
$GPGSV,5,2,19,13,24,168,34,14,08,119,32,15,27,204,40,18,14,223,35*75
$GPGSV,5,3,19,20,51,088,38,22,20,102,36,24,63,273,33,25,01,329,*75
$GPGSV,5,4,19,29,11,287,,36,52,277,,40,86,350,38,41,58,082,39*79
$GPGSV,5,5,19,42,,,37,49,32,274,,50,10,089,*7B
$GLGSV,3,1,11,70,00,100,10,71,13,141,40,72,14,190,31,73,13,142,40*6B
$GLGSV,3,2,11,74,51,109,29,75,49,016,38,76,01,341,,85,10,009,22*60
$GLGSV,3,3,11,86,45,317,32,87,36,253,24,,,,38*6D
$GNGLL,0419.93835,S,05539.90984,E,042453.00,A,D*65
$GNGRS,042453.00,1,-0.6,-0.8,0.7,4.2,0.4,0.6,0.1,1.0,1.4,,,*72
$GNGRS,042453.00,1,-0.3,9.6,0.1,4.9,-3.0,-4.5,0.0,-12.0,,,,*65
$GNGST,042453.00,22,,,,1.1,1.1,2.4*4B
$GNZDA,042453.00,23,05,2025,00,00*7D
$GNGBS,042453.00,1.1,1.1,2.4,,,,*5D
$GNTXT,01,01,01,More than 100 frame errors, UART RX was disabled*70
b0|@%3T#"a#Z
w(0#o'3X$fE"?I{4&V^':R%Z 
Y"_FdZG'H!EI%cJ 3mK'1LUU
V!-=W$$gb@r$GNRMC,042454.00,A,0419.93835,S,05539.90983,E,0.020,,230525,,,D*7D
$GNVTG,,T,,M,0.020,N,0.037,K,D*3E
$GNGNS,042454.00,0419.93835,S,05539.90983,E,DA,17,0.61,12.7,-47.6,,0000*67
$GNGGA,042454.00,0419.93835,S,05539.90983,E,2,12,0.61,12.7,M,-47.6,M,,0000*4E
$GNGSA,A,3,24,20,05,13,15,22,12,14,18,,,,1.16,0.61,0.99*15
$GNGSA,A,3,86,74,75,87,85,73,71,72,,,,,1.16,0.61,0.99*17
$GPGSV,5,1,19,05,51,152,37,06,04,028,29,11,35,019,,12,22,353,34*7A
$GPGSV,5,2,19,13,24,168,35,14,08,119,31,15,27,204,40,18,14,223,35*77
$GPGSV,5,3,19,20,51,088,39,22,20,102,36,24,63,273,34,25,01,329,*73
$GPGSV,5,4,19,29,11,287,,36,52,277,,40,86,350,38,41,58,082,39*79
$GPGSV,5,5,19,42,,,37,49,32,274,,50,10,089,*7B
$GLGSV,3,1,11,70,00,100,12,71,13,141,39,72,14,190,33,73,13,142,37*65
$GLGSV,3,2,11,74,51,109,32,75,49,016,39,76,01,341,,85,10,009,23*6A
$GLGSV,3,3,11,86,45,317,33,87,36,253,25,,,,36*63
$GNGLL,0419.93835,S,05539.90983,E,042454.00,A,D*65
$GNGRS,042454.00,1,-0.8,-0.8,0.8,3.5,0.5,0.7,-0.7,-1.2,1.1,,,*75
$GNGRS,042454.00,1,1.7,12.3,-0.3,6.9,-2.6,-4.1,0.0,-14.7,,,,*5A
$GNGST,042454.00,20,,,,1.1,1.1,2.4*4E
$GNZDA,042454.00,23,05,2025,00,00*7A
$GNGBS,042454.00,1.1,1.1,2.4,,,,*5A
$GNTXT,01,01,01,More than 100 frame errors, UART RX was disabled*70
b0|('3W#"a-"{
w(&"'3X%fz#?I{4'V^):R%Z 
Y"_F
dG( HI'UJ3mHK)1LUU
bV$-=OW$%b(r^$GNRMC,042455.00,A,0419.93837,S,05539.90983,E,0.033,,230525,,,D*7C
$GNVTG,,T,,M,0.033,N,0.061,K,D*3F
$GNGNS,042455.00,0419.93837,S,05539.90983,E,DA,17,0.61,12.8,-47.6,,0000*6B
$GNGGA,042455.00,0419.93837,S,05539.90983,E,2,12,0.61,12.8,M,-47.6,M,,0000*42
$GNGSA,A,3,24,20,05,13,15,22,12,14,18,,,,1.16,0.61,0.99*15
$GNGSA,A,3,86,74,75,87,85,73,71,72,,,,,1.16,0.61,0.99*17
$GPGSV,5,1,19,05,51,152,39,06,04,028,31,11,35,019,,12,22,353,34*7D
$GPGSV,5,2,19,13,24,168,34,14,08,119,31,15,27,204,40,18,14,223,34*77
$GPGSV,5,3,19,20,51,088,39,22,20,102,37,24,63,273,35,25,01,329,*73
$GPGSV,5,4,19,29,11,287,,36,52,277,,40,86,350,39,41,58,082,41*77
$GPGSV,5,5,19,42,,,37,49,32,274,,50,10,089,*7B
$GLGSV,3,1,11,70,00,100,10,71,13,141,40,72,14,190,30,73,13,142,39*64
$GLGSV,3,2,11,74,51,109,31,75,49,016,41,76,01,341,,85,10,009,25*60
$GLGSV,3,3,11,86,45,317,36,87,36,253,27,,,,37*65
$GNGLL,0419.93837,S,05539.90983,E,042455.00,A,D*66
$GNGRS,042455.00,1,-0.5,-0.3,0.9,3.8,0.4,1.2,0.5,-3.4,1.4,,,*55
$GNGRS,042455.00,1,0.8,11.0,-0.3,6.5,-4.1,-4.3,0.3,-13.9,,,,*50
$GNGST,042455.00,18,,,,1.1,1.1,2.4*44
$GNZDA,042455.00,23,05,2025,00,00*7B
$GNGBS,042455.00,1.1,1.1,2.4,,,,*5B
$GNTXT,01,01,01,More than 100 frame errors, UART RX was disabled*70
b0|$3O##a
w&!&3X#fw#?I{4'V^':R$Z 
Y!_FdG$HI$JJ3mVK'1LUU
V!-=RW$;br~$GNRMC,042456.00,A,0419.93839,S,05539.90984,E,0.025,,230525,,,D*71
$GNVTG,,T,,M,0.025,N,0.047,K,D*3C
$GNGNS,042456.00,0419.93839,S,05539.90984,E,DA,17,0.61,12.9,-47.6,,0000*60
$GNGGA,042456.00,0419.93839,S,05539.90984,E,2,12,0.61,12.9,M,-47.6,M,,0000*49
$GNGSA,A,3,24,20,05,13,15,22,12,14,18,,,,1.16,0.61,0.99*15
$GNGSA,A,3,86,74,75,87,85,73,71,72,,,,,1.16,0.61,0.99*17
$GPGSV,5,1,19,05,51,152,36,06,04,028,31,11,35,019,,12,22,353,35*73
$GPGSV,5,2,19,13,24,168,28,14,08,119,30,15,27,204,38,18,14,223,33*73
$GPGSV,5,3,19,20,51,088,38,22,20,102,35,24,63,273,35,25,01,329,*70
$GPGSV,5,4,19,29,11,287,,36,52,277,,40,86,350,39,41,58,082,39*78
$GPGSV,5,5,19,42,,,36,49,32,274,,50,10,089,*7A
$GLGSV,3,1,11,70,00,100,11,71,13,141,36,72,14,190,29,73,13,142,36*63
$GLGSV,3,2,11,74,51,109,30,75,49,016,39,76,01,341,,85,10,009,25*6E
$GLGSV,3,3,11,86,45,317,33,87,36,253,28,,,,31*69
$GNGLL,0419.93839,S,05539.90984,E,042456.00,A,D*6C
$GNGRS,042456.00,1,-0.2,0.0,0.8,5.1,0.2,1.2,-2.3,-1.3,1.6,,,*59
$GNGRS,042456.00,1,-1.7,11.1,-0.1,3.1,-6.3,-4.4,0.3,-13.0,,,,*7C
$GNGST,042456.00,20,,,,1.1,1.1,2.4*4C
$GNZDA,042456.00,23,05,2025,00,00*78
$GNGBS,042456.00,1.1,1.1,2.4,,,,*58
$GNTXT,01,01,01,More than 100 frame errors, UART RX was disabled*70
b0|#34#&a=T
wP&!&3X"f(?I{4'V^):R%Z 
Y"_F
d?G'*HI&VJ3mK'1LUU
V%-=W!$Y *brU$GNRMC,042457.00,A,0419.93842,S,05539.90986,E,0.018,,230525,,,D*70
$GNVTG,,T,,M,0.018,N,0.033,K,D*31
$GNGNS,042457.00,0419.93842,S,05539.90986,E,DA,17,0.61,13.0,-47.6,,0000*67
$GNGGA,042457.00,0419.93842,S,05539.90986,E,2,12,0.61,13.0,M,-47.6,M,,0000*4E
$GNGSA,A,3,24,20,05,13,15,22,12,14,18,,,,1.16,0.61,0.99*15
$GNGSA,A,3,86,74,75,87,85,73,71,72,,,,,1.16,0.61,0.99*17
$GPGSV,5,1,19,05,51,152,35,06,04,028,31,11,35,019,,12,22,353,38*7D
$GPGSV,5,2,19,13,24,168,17,14,08,119,30,15,27,204,38,18,14,223,33*7F
$GPGSV,5,3,19,20,51,088,38,22,20,102,34,24,63,273,40,25,01,329,*73
$GPGSV,5,4,19,29,11,287,,36,52,277,,40,86,350,39,41,58,082,41*77
$GPGSV,5,5,19,42,,,37,49,32,274,,50,10,089,*7B
$GLGSV,3,1,11,70,00,100,10,71,13,141,39,72,14,190,28,73,13,142,38*62
$GLGSV,3,2,11,74,51,109,29,75,49,016,39,76,01,341,,85,10,009,25*66
$GLGSV,3,3,11,86,45,317,37,87,36,253,33,,,,32*64
$GNGLL,0419.93842,S,05539.90986,E,042457.00,A,D*63
$GNGRS,042457.00,1,-0.1,0.1,0.5,6.0,0.2,1.4,-1.9,0.8,1.6,,,*7D
$GNGRS,042457.00,1,-0.9,12.1,-0.1,6.0,-6.0,-4.3,0.4,-3.5,,,,*42
$GNGST,042457.00,26,,,,1.1,1.1,2.3*4C
$GNZDA,042457.00,23,05,2025,00,00*79
$GNGBS,042457.00,1.1,1.1,2.3,,,,*5E
$GNTXT,01,01,01,More than 100 frame errors, UART RX was disabled*70
b0|#3, #'a[
#w&&3X"f)?I{4(V^*:R%Z 
Y$_F
dG(HI'QJ3mK'1LUU
1V$-=W $bru"-$GNRMC,042458.00,A,0419.93844,S,05539.90988,E,0.018,,230525,,,D*77
$GNVTG,,T,,M,0.018,N,0.034,K,D*36
$GNGNS,042458.00,0419.93844,S,05539.90988,E,DA,17,0.61,13.0,-47.6,,0000*60
$GNGGA,042458.00,0419.93844,S,05539.90988,E,2,12,0.61,13.0,M,-47.6,M,,0000*49
$GNGSA,A,3,24,20,05,13,15,22,12,14,18,,,,1.16,0.61,0.99*15
$GNGSA,A,3,86,74,75,87,85,73,71,72,,,,,1.16,0.61,0.99*17
$GPGSV,5,1,19,05,51,152,35,06,04,028,32,11,35,019,,12,22,353,39*7F
$GPGSV,5,2,19,13,24,168,22,14,08,119,35,15,27,204,38,18,14,223,31*7E
$GPGSV,5,3,19,20,51,088,38,22,20,102,34,24,63,273,41,25,01,329,*72
$GPGSV,5,4,19,29,11,287,,36,52,277,,40,86,350,40,41,58,082,42*7A
$GPGSV,5,5,19,42,,,37,49,32,274,,50,10,089,*7B
$GLGSV,3,1,11,70,00,100,10,71,13,141,40,72,14,190,27,73,13,142,39*62
$GLGSV,3,2,11,74,51,109,28,75,49,016,39,76,01,341,,85,10,009,26*64
$GLGSV,3,3,11,86,45,317,36,87,36,253,32,,,,31*67
$GNGLL,0419.93844,S,05539.90988,E,042458.00,A,D*64
$GNGRS,042458.00,1,-0.4,0.2,0.4,6.0,-0.1,1.7,-0.8,-0.5,1.9,,,*77
$GNGRS,042458.00,1,-0.7,11.6,0.0,10.4,-4.6,-4.3,0.3,-6.2,,,,*59
$GNGST,042458.00,20,,,,1.1,1.0,2.3*44
$GNZDA,042458.00,23,05,2025,00,00*76
$GNGBS,042458.00,1.1,1.0,2.3,,,,*50
$GNTXT,01,01,01,More than 100 frame errors, UART RX was disabled*70
b0|%3 d#$aO
!wN$"'3X,%f&?I{4)V^):R&Z 
Y$_FdG%HI$PJ3oEK)1LUU
V$-=SW $( 2br]&$GNRMC,042459.00,A,0419.93845,S,05539.90989,E,0.029,,230525,,,D*74
$GNVTG,,T,,M,0.029,N,0.054,K,D*32
$GNGNS,042459.00,0419.93845,S,05539.90989,E,DA,17,0.61,13.1,-47.6,,0000*60
$GNGGA,042459.00,0419.93845,S,05539.90989,E,2,12,0.61,13.1,M,-47.6,M,,0000*49
$GNGSA,A,3,24,20,05,13,15,22,12,14,18,,,,1.16,0.61,0.99*15
$GNGSA,A,3,86,74,75,87,85,73,71,72,,,,,1.16,0.61,0.99*17
$GPGSV,5,1,19,05,51,152,37,06,04,028,32,11,35,019,,12,22,353,36*72
$GPGSV,5,2,19,13,24,168,24,14,08,119,33,15,27,204,36,18,14,223,31*70
$GPGSV,5,3,19,20,51,088,39,22,20,102,37,24,63,273,38,25,01,329,*7E
$GPGSV,5,4,19,29,11,287,,36,52,277,,40,86,350,41,41,58,082,41*78
$GPGSV,5,5,19,42,,,38,49,32,274,,50,10,089,*74
$GLGSV,3,1,11,70,00,100,08,71,13,141,37,72,14,190,27,73,13,142,36*64
$GLGSV,3,2,11,74,51,111,28,75,49,016,41,76,01,341,,85,10,009,26*62
$GLGSV,3,3,11,86,45,317,36,87,36,253,32,,,,32*64
$GNGLL,0419.93845,S,05539.90989,E,042459.00,A,D*65
$GNGRS,042459.00,1,-0.6,0.4,0.0,5.9,-0.4,1.5,-0.8,-1.8,2.9,,,*74
$GNGRS,042459.00,1,-1.7,10.9,-0.1,8.1,-4.8,-4.3,0.3,-8.9,,,,*4C
$GNGST,042459.00,19,,,,1.1,1.0,2.3*4F
$GNZDA,042459.00,23,05,2025,00,00*77
$GNGBS,042459.00,1.1,1.0,2.3,,,,*51
$GNTXT,01,01,01,More than 100 frame errors, UART RX was disabled*70
b0|%3!#$a
!w$ '3X %f&?I{4)V^):R&Z 
Y%_FdMG%HI%MJ3oxK)1LUU
IV#-=W $!brE*W$GNRMC,042500.00,A,0419.93845,S,05539.90990,E,0.009,,230525,,,D*73
$GNVTG,,T,,M,0.009,N,0.017,K,D*37
$GNGNS,042500.00,0419.93845,S,05539.90990,E,DA,17,0.61,13.1,-47.6,,0000*65
$GNGGA,042500.00,0419.93845,S,05539.90990,E,2,12,0.61,13.1,M,-47.6,M,,0000*4C
$GNGSA,A,3,24,20,05,13,15,22,12,14,18,,,,1.16,0.61,0.99*15
$GNGSA,A,3,86,74,75,87,85,73,71,72,,,,,1.16,0.61,0.99*17
$GPGSV,5,1,19,05,51,152,37,06,04,028,33,11,35,019,,12,22,353,36*73
$GPGSV,5,2,19,13,24,168,31,14,08,119,33,15,27,204,36,18,14,223,32*77
$GPGSV,5,3,19,20,51,088,39,22,20,102,37,24,63,273,38,25,01,329,*7E
$GPGSV,5,4,19,29,11,287,,36,52,277,,40,86,350,41,41,58,082,41*78
$GPGSV,5,5,19,42,,,38,49,32,274,,50,10,089,*74
$GLGSV,3,1,11,70,00,100,07,71,13,141,37,72,14,190,26,73,13,142,37*6B
$GLGSV,3,2,11,74,51,111,28,75,49,016,41,76,01,341,,85,10,009,26*62
$GLGSV,3,3,11,86,45,317,35,87,36,253,32,,,,33*66
$GNGLL,0419.93845,S,05539.90990,E,042500.00,A,D*60
$GNGRS,042500.00,1,-0.7,0.3,-0.4,2.6,-0.7,1.3,-0.6,1.9,2.3,,,*73
$GNGRS,042500.00,1,-0.4,11.4,0.0,9.2,-4.4,-4.4,0.2,-5.9,,,,*66
$GNGST,042500.00,18,,,,1.1,1.0,2.3*43
$GNZDA,042500.00,23,05,2025,00,00*7A
$GNGBS,042500.00,1.1,1.0,2.3,,,,*5C
$GNTXT,01,01,01,More than 100 frame errors, UART RX was disabled*70
b0|#3 #"a
 w%%3X$fb$?I{4'V^':R$Z 
Y$_F
dG#H;I#jJ3oK'1
LUU
V!-=W$Ybr-.$GNRMC,042501.00,A,0419.93845,S,05539.90991,E,0.002,,230525,,,D*78
$GNVTG,,T,,M,0.002,N,0.004,K,D*3E
$GNGNS,042501.00,0419.93845,S,05539.90991,E,DA,17,0.61,13.1,-47.6,,0000*65
$GNGGA,042501.00,0419.93845,S,05539.90991,E,2,12,0.61,13.1,M,-47.6,M,,0000*4C
$GNGSA,A,3,24,20,05,13,15,22,12,14,18,,,,1.16,0.61,0.99*15
$GNGSA,A,3,86,74,75,87,85,73,71,72,,,,,1.16,0.61,0.99*17
$GPGSV,5,1,19,05,51,152,35,06,04,028,32,11,35,019,,12,22,353,34*72
$GPGSV,5,2,19,13,24,168,25,14,08,119,32,15,27,204,37,18,14,223,31*71
$GPGSV,5,3,19,20,51,088,37,22,20,102,36,24,63,273,36,25,01,329,*7F
$GPGSV,5,4,19,29,11,287,,36,52,277,,40,86,350,39,41,58,082,39*78
$GPGSV,5,5,19,42,,,36,49,32,274,,50,10,089,*7A
$GLGSV,3,1,11,70,00,100,10,71,13,141,35,72,14,190,25,73,13,142,35*6E
$GLGSV,3,2,11,74,51,111,28,75,49,016,39,76,02,341,,85,10,009,26*6E
$GLGSV,3,3,11,86,45,317,33,87,36,253,31,,,,31*61
$GNGLL,0419.93845,S,05539.90991,E,042501.00,A,D*60
$GNGRS,042501.00,1,-1.1,0.1,-0.5,7.6,-1.2,1.0,-0.9,-0.8,0.0,,,*57
$GNGRS,042501.00,1,-0.4,10.4,0.1,7.5,-3.1,-4.1,0.2,-12.2,,,,*54
$GNGST,042501.00,20,,,,1.1,1.0,2.3*49
$GNZDA,042501.00,23,05,2025,00,00*7B
$GNGBS,042501.00,1.1,1.0,2.3,,,,*5D
$GNTXT,01,01,01,More than 100 frame errors, UART RX was disabled*70
b0|$3 ##a
 w#&3X$fc%?I{4(V^):R%Z 
Y$_FdwG'HI%J3oK)1LUU
V$-=W $ br2'$GNRMC,042502.00,A,0419.93844,S,05539.90991,E,0.022,,230525,,,D*78
$GNVTG,,T,,M,0.022,N,0.040,K,D*3C
$GNGNS,042502.00,0419.93844,S,05539.90991,E,DA,17,0.61,13.1,-47.6,,0000*67
$GNGGA,042502.00,0419.93844,S,05539.90991,E,2,12,0.61,13.1,M,-47.6,M,,0000*4E
$GNGSA,A,3,24,20,05,13,15,22,12,14,18,,,,1.16,0.61,0.99*15
$GNGSA,A,3,86,74,75,87,85,73,71,72,,,,,1.16,0.61,0.99*17
$GPGSV,5,1,19,05,51,152,36,06,04,028,32,11,35,019,,12,22,353,35*70
$GPGSV,5,2,19,13,24,168,29,14,08,119,32,15,27,204,35,18,14,223,31*7F
$GPGSV,5,3,19,20,51,088,38,22,20,102,36,24,63,273,37,25,01,329,*71
$GPGSV,5,4,19,29,11,287,,36,52,277,,40,86,350,40,41,58,082,41*79
$GPGSV,5,5,19,42,,,37,49,32,274,,50,10,089,*7B
$GLGSV,3,1,11,70,00,100,07,71,13,141,39,72,14,190,26,73,13,142,37*65
$GLGSV,3,2,11,74,51,111,29,75,49,016,41,76,02,341,,85,10,009,26*60
$GLGSV,3,3,11,86,45,317,36,87,36,253,32,,,,32*64
$GNGLL,0419.93844,S,05539.90991,E,042502.00,A,D*62
$GNGRS,042502.00,1,-1.0,0.2,-0.5,4.8,-1.1,1.0,-1.3,-0.5,2.4,,,*58
$GNGRS,042502.00,1,-0.5,9.0,0.2,9.7,-5.5,-3.7,0.2,-10.6,,,,*60
$GNGST,042502.00,18,,,,1.1,1.1,2.3*40
$GNZDA,042502.00,23,05,2025,00,00*78
$GNGBS,042502.00,1.1,1.1,2.3,,,,*5F
$GNTXT,01,01,01,More than 100 frame errors, UART RX was disabled*70
b0|h$3##a
 w#'3X$fJ%?~I{4'V^':R%Z 
Y#_F
d*$G$
H-I#J3oK'1LUU
V"-=W$  }bhr5d$GNRMC,042503.00,A,0419.93844,S,05539.90993,E,0.025,,230525,,,D*7C
$GNVTG,,T,,M,0.025,N,0.047,K,D*3C
$GNGNS,042503.00,0419.93844,S,05539.90993,E,DA,17,0.61,13.2,-47.6,,0000*67
$GNGGA,042503.00,0419.93844,S,05539.90993,E,2,12,0.61,13.2,M,-47.6,M,,0000*4E
$GNGSA,A,3,24,20,05,13,15,22,12,14,18,,,,1.16,0.61,0.99*15
$GNGSA,A,3,86,74,75,87,85,73,71,72,,,,,1.16,0.61,0.99*17
$GPGSV,5,1,19,05,51,152,36,06,04,028,31,11,35,019,,12,22,353,35*73
$GPGSV,5,2,19,13,24,168,28,14,08,119,32,15,27,204,35,18,14,223,30*7F
$GPGSV,5,3,19,20,51,088,39,22,20,102,36,24,63,273,37,25,01,329,*70
$GPGSV,5,4,19,29,11,287,,36,52,277,,40,86,350,39,41,58,082,39*78
$GPGSV,5,5,19,42,,,37,49,32,274,,50,10,089,*7B
$GLGSV,3,1,11,70,00,100,10,71,13,141,36,72,14,190,25,73,13,142,35*6D
$GLGSV,3,2,11,74,51,111,29,75,49,016,39,76,02,341,,85,10,009,26*6F
$GLGSV,3,3,11,86,45,317,34,87,36,253,31,,,,32*65
$GNGLL,0419.93844,S,05539.90993,E,042503.00,A,D*61
$GNGRS,042503.00,1,-1.3,0.1,-0.7,4.0,-1.2,0.7,-1.1,-0.4,2.8,,,*59
$GNGRS,042503.00,1,-0.4,14.5,-0.1,2.9,-5.6,-3.5,0.1,-9.8,,,,*46
$GNGST,042503.00,19,,,,1.1,1.1,2.4*47
$GNZDA,042503.00,23,05,2025,00,00*79
$GNGBS,042503.00,1.1,1.1,2.4,,,,*59
$GNTXT,01,01,01,More than 100 frame errors, UART RX was disabled*70
b0|P$3 #$a
 w# P'3X%f2%?yI{4(V^):R&Z 
Y"_FdG$HI#J3oK(1LUU
V#-=W $ $bPr9<$GNRMC,042504.00,A,0419.93845,S,05539.90995,E,0.023,,230525,,,D*7A
$GNVTG,,T,,M,0.023,N,0.043,K,D*3E
$GNGNS,042504.00,0419.93845,S,05539.90995,E,DA,17,0.61,13.2,-47.6,,0000*67
$GNGGA,042504.00,0419.93845,S,05539.90995,E,2,12,0.61,13.2,M,-47.6,M,,0000*4E
$GNGSA,A,3,24,20,05,13,15,22,12,14,18,,,,1.16,0.61,0.99*15
$GNGSA,A,3,86,74,75,87,85,73,71,72,,,,,1.16,0.61,0.99*17
$GPGSV,5,1,19,05,51,152,36,06,04,028,32,11,35,019,,12,22,353,36*73
$GPGSV,5,2,19,13,24,168,28,14,08,119,32,15,27,204,35,18,14,223,32*7D
$GPGSV,5,3,19,20,51,088,39,22,20,102,37,24,63,273,37,25,01,329,*71
$GPGSV,5,4,19,29,11,287,,36,52,277,,40,86,350,40,41,58,082,41*79
$GPGSV,5,5,19,42,,,38,49,32,274,,50,10,089,*74
$GLGSV,3,1,11,70,00,100,09,71,13,141,36,72,14,190,25,73,13,142,35*65
$GLGSV,3,2,11,74,51,111,28,75,49,016,40,76,02,341,,85,10,009,26*60
$GLGSV,3,3,11,86,45,317,35,87,36,253,32,,,,32*67
$GNGLL,0419.93845,S,05539.90995,E,042504.00,A,D*61
$GNGRS,042504.00,1,-1.4,0.3,-0.8,4.7,-1.1,0.5,-1.1,-0.3,0.8,,,*57
$GNGRS,042504.00,1,-0.5,11.9,-0.2,4.5,-6.1,-3.6,0.1,-10.2,,,,*75
$GNGST,042504.00,19,,,,1.1,1.1,2.4*40
$GNZDA,042504.00,23,05,2025,00,00*7E
$GNGBS,042504.00,1.1,1.1,2.4,,,,*5E
$GNTXT,01,01,01,More than 100 frame errors, UART RX was disabled*70
b0|8$3##a1
wY#&3X%f#&?uI{4(V^':R%Z 
Y#_FdG&HI%J3o-K)1LUU
V$-=W $@!`b8r=\$GNRMC,042505.00,A,0419.93844,S,05539.90998,E,0.026,,230525,,,D*72
$GNVTG,,T,,M,0.026,N,0.048,K,D*30
$GNGNS,042505.00,0419.93844,S,05539.90998,E,DA,17,0.61,13.2,-47.6,,0000*6A
$GNGGA,042505.00,0419.93844,S,05539.90998,E,2,12,0.61,13.2,M,-47.6,M,,0000*43
$GNGSA,A,3,24,20,05,13,15,22,12,14,18,,,,1.16,0.61,0.99*15
$GNGSA,A,3,86,74,75,87,85,73,71,72,,,,,1.16,0.61,0.99*17
$GPGSV,5,1,19,05,51,152,36,06,04,028,31,11,35,019,,12,22,353,35*73
$GPGSV,5,2,19,13,24,168,27,14,08,119,31,15,27,204,35,18,14,223,31*72
$GPGSV,5,3,19,20,51,088,38,22,20,102,37,24,63,273,38,25,01,329,*7F
$GPGSV,5,4,19,29,11,287,,36,52,277,,40,86,350,40,41,58,082,39*76
$GPGSV,5,5,19,42,,,37,49,32,274,,50,10,089,*7B
$GLGSV,3,1,11,70,00,100,09,71,13,141,38,72,14,190,25,73,13,142,37*69
$GLGSV,3,2,11,74,51,111,29,75,49,016,41,76,02,341,,85,10,009,27*61
$GLGSV,3,3,11,86,45,317,36,87,36,253,32,,,,33*65
$GNGLL,0419.93844,S,05539.90998,E,042505.00,A,D*6C
$GNGRS,042505.00,1,-1.4,0.1,-0.5,8.2,-1.3,0.4,-1.1,-1.7,1.6,,,*59
$GNGRS,042505.00,1,-0.1,13.2,0.0,0.6,-5.1,-3.6,0.2,-8.6,,,,*6C
$GNGST,042505.00,19,,,,1.1,1.1,2.4*41
$GNZDA,042505.00,23,05,2025,00,00*7F
$GNGBS,042505.00,1.1,1.1,2.4,,,,*5F
$GNTXT,01,01,01,More than 100 frame errors, UART RX was disabled*70
b0|  3o#a
w }$3X f*#?]I{4&V^$:R#Z 
Y!_F
d"G#HI!J3oK%1LUU
rV-=W$H}b rA$GNRMC,042506.00,A,0419.93845,S,05539.90997,E,0.067,,230525,,,D*7A
$GNVTG,,T,,M,0.067,N,0.125,K,D*3F
$GNGNS,042506.00,0419.93845,S,05539.90997,E,DA,17,0.61,13.1,-47.6,,0000*64
$GNGGA,042506.00,0419.93845,S,05539.90997,E,2,12,0.61,13.1,M,-47.6,M,,0000*4D
$GNGSA,A,3,24,20,05,13,15,22,12,14,18,,,,1.16,0.61,0.99*15
$GNGSA,A,3,86,74,75,87,85,73,71,72,,,,,1.16,0.61,0.99*17
$GPGSV,5,1,19,05,51,152,32,06,04,028,29,11,35,019,,12,22,353,31*7A
$GPGSV,5,2,19,13,24,168,25,14,08,119,26,15,27,204,32,18,14,223,25*74
$GPGSV,5,3,19,20,51,088,36,22,20,102,32,24,63,273,35,25,01,329,*79
$GPGSV,5,4,19,29,11,287,,36,52,277,,40,86,350,38,41,58,082,36*76
$GPGSV,5,5,19,42,,,35,49,32,274,,50,10,089,*79
$GLGSV,3,1,11,70,00,100,10,71,13,141,35,72,14,190,23,73,13,142,33*6E
$GLGSV,3,2,11,74,51,111,28,75,49,016,37,76,02,341,,85,10,009,26*60
$GLGSV,3,3,11,86,45,317,31,87,36,253,30,,,,31*62
$GNGLL,0419.93845,S,05539.90997,E,042506.00,A,D*61
$GNGRS,042506.00,1,-1.6,-0.1,-0.8,6.8,-1.2,0.4,-0.9,4.2,3.8,,,*55
$GNGRS,042506.00,1,3.9,9.6,0.0,3.3,-4.0,-3.5,0.2,-8.7,,,,*72
$GNGST,042506.00,25,,,,1.1,1.1,2.4*4D
$GNZDA,042506.00,23,05,2025,00,00*7C
$GNGBS,042506.00,1.1,1.1,2.4,,,,*5C
$GNTXT,01,01,01,More than 100 frame errors, UART RX was disabled*70
b0|#3##a
w"&3X%f#?OI{4&V^(:R%Z 
Y"_FdG#HI#J3oK&1LUU
V!-=uW$brE,$GNRMC,042507.00,A,0419.93846,S,05539.90998,E,0.042,,230525,,,D*70
$GNVTG,,T,,M,0.042,N,0.078,K,D*31
$GNGNS,042507.00,0419.93846,S,05539.90998,E,DA,17,0.61,13.1,-47.6,,0000*69
$GNGGA,042507.00,0419.93846,S,05539.90998,E,2,12,0.61,13.1,M,-47.6,M,,0000*40
$GNGSA,A,3,24,20,05,13,15,22,12,14,18,,,,1.16,0.61,0.99*15
$GNGSA,A,3,86,74,75,87,85,73,71,72,,,,,1.16,0.61,0.99*17
$GPGSV,5,1,19,05,51,152,35,06,04,028,29,11,35,019,,12,22,353,35*79
$GPGSV,5,2,19,13,24,168,25,14,08,119,27,15,27,204,34,18,14,223,28*7E
$GPGSV,5,3,19,20,51,088,38,22,20,102,37,24,63,273,35,25,01,329,*72
$GPGSV,5,4,19,29,11,287,,36,52,277,,40,86,350,38,41,58,082,40*77
$GPGSV,5,5,19,42,,,37,49,32,274,,50,10,089,*7B
$GLGSV,3,1,11,70,00,100,09,71,13,141,35,72,14,190,23,73,13,142,35*60
$GLGSV,3,2,11,74,51,111,27,75,49,016,38,76,02,341,,85,10,009,26*60
$GLGSV,3,3,11,86,45,317,33,87,36,253,29,,,,30*69
$GNGLL,0419.93846,S,05539.90998,E,042507.00,A,D*6C
$GNGRS,042507.00,1,-1.8,-0.4,-1.0,10.1,-1.3,0.3,-0.9,2.6,4.3,,,*60
$GNGRS,042507.00,1,1.2,10.3,0.0,1.6,-3.6,-3.4,0.2,-8.9,,,,*4E
$GNGST,042507.00,23,,,,1.1,1.1,2.4*4A
$GNZDA,042507.00,23,05,2025,00,00*7D
$GNGBS,042507.00,1.1,1.1,2.4,,,,*5D
$GNTXT,01,01,01,More than 100 frame errors, UART RX was disabled*70
b0|#3##aT
w; w&$3X$f($?5I{4%V^':R#Z 
Y"_FdsG%HI#J3oqK&1LUU
V!-=W$p4brI$GNRMC,042508.00,A,0419.93846,S,05539.90998,E,0.013,,230525,,,D*7B
$GNVTG,,T,,M,0.013,N,0.025,K,D*3D
$GNGNS,042508.00,0419.93846,S,05539.90998,E,DA,17,0.61,13.1,-47.6,,0000*66
$GNGGA,042508.00,0419.93846,S,05539.90998,E,2,12,0.61,13.1,M,-47.6,M,,0000*4F
$GNGSA,A,3,24,20,05,13,15,22,12,14,18,,,,1.16,0.61,0.99*15
$GNGSA,A,3,86,74,75,87,85,73,71,72,,,,,1.16,0.61,0.99*17
$GPGSV,5,1,19,05,51,152,35,06,04,028,28,11,35,019,,12,22,353,35*78
$GPGSV,5,2,19,13,24,168,26,14,08,119,28,15,27,204,32,18,14,223,29*75
$GPGSV,5,3,19,20,51,088,36,22,20,102,36,24,63,273,36,25,01,329,*7E
$GPGSV,5,4,19,29,11,287,,36,52,277,,40,86,350,37,41,58,082,39*76
$GPGSV,5,5,19,42,,,35,49,32,274,,50,10,089,*79
$GLGSV,3,1,11,70,00,100,09,71,13,141,37,72,14,190,22,73,13,142,35*63
$GLGSV,3,2,11,74,51,111,27,75,49,016,38,76,02,341,,85,10,009,25*63
$GLGSV,3,3,11,86,45,317,33,87,36,253,29,,,,29*61
$GNGLL,0419.93846,S,05539.90998,E,042508.00,A,D*63
$GNGRS,042508.00,1,-2.0,-0.2,-1.1,13.6,-1.4,0.4,-0.9,5.7,5.5,,,*66
$GNGRS,042508.00,1,1.3,8.8,0.1,5.2,-6.0,-3.4,0.2,-10.4,,,,*44
$GNGST,042508.00,23,,,,1.1,1.1,2.5*44
$GNZDA,042508.00,23,05,2025,00,00*72
$GNGBS,042508.00,1.1,1.1,2.5,,,,*53
$GNTXT,01,01,01,More than 100 frame errors, UART RX was disabled*70
b0|"3wr# a
w!g$3X#f$?*I{4%V^':R"Z 
Y"_FdG#HaI"J3owK#1LUU
V -=8W$(]brmMs$GNRMC,042509.00,A,0419.93847,S,05539.90999,E,0.051,,230525,,,D*7C
$GNVTG,,T,,M,0.051,N,0.094,K,D*31
$GNGNS,042509.00,0419.93847,S,05539.90999,E,DA,17,0.61,13.1,-47.6,,0000*67
$GNGGA,042509.00,0419.93847,S,05539.90999,E,2,12,0.61,13.1,M,-47.6,M,,0000*4E
$GNGSA,A,3,24,20,05,13,15,22,12,14,18,,,,1.16,0.61,0.99*15
$GNGSA,A,3,86,74,75,87,85,73,71,72,,,,,1.16,0.61,0.99*17
$GPGSV,5,1,19,05,51,152,34,06,04,028,27,11,35,019,,12,22,353,32*71
$GPGSV,5,2,19,13,24,168,26,14,08,119,28,15,27,204,33,18,14,223,28*75
$GPGSV,5,3,19,20,51,088,36,22,20,102,35,24,63,273,36,25,01,329,*7D
$GPGSV,5,4,19,29,11,287,,36,52,277,,40,86,350,37,41,58,082,39*76
$GPGSV,5,5,19,42,,,34,49,32,274,,50,10,089,*78
$GLGSV,3,1,11,70,00,100,11,71,13,141,35,72,14,190,21,73,13,142,34*6A
$GLGSV,3,2,11,74,51,111,27,75,49,016,35,76,02,341,,85,10,009,24*6F
$GLGSV,3,3,11,86,45,317,32,87,36,253,28,,,,28*60
$GNGLL,0419.93847,S,05539.90999,E,042509.00,A,D*62
$GNGRS,042509.00,1,-2.1,-0.2,-1.4,14.1,-1.2,0.1,-1.0,1.3,-1.5,,,*41
$GNGRS,042509.00,1,0.6,6.3,0.0,6.7,-5.9,-3.1,-0.1,-9.3,,,,*5D
$GNGST,042509.00,24,,,,1.2,1.1,2.5*41
$GNZDA,042509.00,23,05,2025,00,00*73
$GNGBS,042509.00,1.2,1.1,2.5,,,,*51
$GNTXT,01,01,01,More than 100 frame errors, UART RX was disabled*70
b0|%3a#"a
 w"F&3X$f$?I{4&V^':R%Z 
Y#_FdG(HI%J3oK(1LUU
V%-=W!$"brUQKU$GNRMC,042510.00,A,0419.93846,S,05539.90998,E,0.011,,230525,,,D*70
$GNVTG,,T,,M,0.011,N,0.021,K,D*3B
$GNGNS,042510.00,0419.93846,S,05539.90998,E,DA,17,0.61,13.0,-47.6,,0000*6E
$GNGGA,042510.00,0419.93846,S,05539.90998,E,2,12,0.61,13.0,M,-47.6,M,,0000*47
$GNGSA,A,3,24,20,05,13,15,22,12,14,18,,,,1.16,0.61,0.99*15
$GNGSA,A,3,86,74,75,87,85,73,71,72,,,,,1.16,0.61,0.99*17
$GPGSV,5,1,19,05,51,152,37,06,04,028,27,11,35,019,,12,22,353,34*74
$GPGSV,5,2,19,13,24,168,26,14,08,119,32,15,27,204,34,18,14,223,29*78
$GPGSV,5,3,19,20,51,088,38,22,20,102,36,24,63,273,36,25,01,329,*70
$GPGSV,5,4,19,29,11,287,,36,52,277,,40,86,350,38,41,58,082,39*79
$GPGSV,5,5,19,42,,,37,49,32,274,,50,10,089,*7B
$GLGSV,3,1,11,70,00,100,06,71,13,141,40,72,14,190,24,73,13,142,37*68
$GLGSV,3,2,11,74,51,111,27,75,49,016,40,76,02,341,,85,10,009,25*6C
$GLGSV,3,3,11,86,45,317,37,87,36,253,33,,,,34*62
$GNGLL,0419.93846,S,05539.90998,E,042510.00,A,D*6A
$GNGRS,042510.00,1,-2.3,-0.3,-1.6,14.9,-1.1,0.0,-1.0,2.1,-1.9,,,*4F
$GNGRS,042510.00,1,1.9,7.2,-0.4,7.2,-5.6,-3.2,-0.1,-8.6,,,,*7E
$GNGST,042510.00,21,,,,1.2,1.1,2.5*4C
$GNZDA,042510.00,23,05,2025,00,00*7B
$GNGBS,042510.00,1.2,1.1,2.5,,,,*59
$GNTXT,01,01,01,More than 100 frame errors, UART RX was disabled*70
b0|$3A##a
!wF#'3X$f$?I{4'V^):R%Z 
Y$_yF
dG'HRI%J3oK'1LUU
\V#->#W $!9br=U#$GNRMC,042511.00,A,0419.93847,S,05539.90998,E,0.013,,230525,,,D*72
$GNVTG,,T,,M,0.013,N,0.024,K,D*3C
$GNGNS,042511.00,0419.93847,S,05539.90998,E,DA,17,0.61,13.0,-47.6,,0000*6E
$GNGGA,042511.00,0419.93847,S,05539.90998,E,2,12,0.61,13.0,M,-47.6,M,,0000*47
$GNGSA,A,3,24,20,05,13,15,22,12,14,18,,,,1.16,0.61,0.99*15
$GNGSA,A,3,86,74,75,87,85,73,71,72,,,,,1.16,0.61,0.99*17
$GPGSV,5,1,19,05,51,152,36,06,04,028,28,11,35,019,,12,22,353,35*7B
$GPGSV,5,2,19,13,24,168,24,14,08,119,33,15,27,204,35,18,14,223,31*73
$GPGSV,5,3,19,20,51,088,39,22,20,102,36,24,63,273,36,25,01,329,*71
$GPGSV,5,4,19,29,11,287,,36,52,277,,40,86,350,39,41,58,082,41*77
$GPGSV,5,5,19,42,,,37,49,32,274,,50,10,089,*7B
$GLGSV,3,1,11,70,00,100,10,71,13,141,39,72,14,190,26,73,13,142,37*63
$GLGSV,3,2,11,74,51,111,28,75,49,016,39,76,02,341,,85,10,009,26*6E
$GLGSV,3,3,11,86,45,318,35,87,36,253,32,,,,33*69
$GNGLL,0419.93847,S,05539.90998,E,042511.00,A,D*6A
$GNGRS,042511.00,1,-2.3,-0.4,-1.9,14.7,-0.9,0.0,-0.8,3.3,1.5,,,*6A
$GNGRS,042511.00,1,0.4,10.0,-0.5,9.1,-6.8,-2.9,-0.1,-9.4,,,,*4F
$GNGST,042511.00,20,,,,1.2,1.1,2.5*4C
$GNZDA,042511.00,23,05,2025,00,00*7A
$GNGBS,042511.00,1.2,1.1,2.5,,,,*58
$GNTXT,01,01,01,More than 100 frame errors, UART RX was disabled*70
b0|&3A##a%
!w#&3X%f$?EI{4'V^(:R%Z 
Y%_{Fd\G%HI#J3oK'1LUU
V#->W$!'%br%Y%$GNRMC,042512.00,A,0419.93845,S,05539.90997,E,0.024,,230525,,,D*78
$GNVTG,,T,,M,0.024,N,0.044,K,D*3E
$GNGNS,042512.00,0419.93845,S,05539.90997,E,DA,17,0.61,12.9,-47.6,,0000*68
$GNGGA,042512.00,0419.93845,S,05539.90997,E,2,12,0.61,12.9,M,-47.6,M,,0000*41
$GNGSA,A,3,24,20,05,13,15,22,12,14,18,,,,1.16,0.61,0.99*15
$GNGSA,A,3,86,74,75,87,85,73,71,72,,,,,1.16,0.61,0.99*17
$GPGSV,5,1,19,05,51,152,38,06,04,028,28,11,35,019,,12,22,353,35*75
$GPGSV,5,2,19,13,24,168,23,14,08,119,33,15,27,204,35,18,14,223,31*74
$GPGSV,5,3,19,20,51,088,38,22,20,102,37,24,63,273,36,25,01,329,*71
$GPGSV,5,4,19,29,11,287,,36,52,277,,40,86,350,39,41,58,082,40*76
$GPGSV,5,5,19,42,,,37,49,32,274,,50,10,089,*7B
$GLGSV,3,1,11,70,00,100,07,71,13,141,37,72,14,190,26,73,13,142,35*69
$GLGSV,3,2,11,74,51,111,28,75,49,016,39,76,02,341,,85,10,009,26*6E
$GLGSV,3,3,11,86,45,318,35,87,36,254,30,,,,33*6C
$GNGLL,0419.93845,S,05539.90997,E,042512.00,A,D*64
$GNGRS,042512.00,1,-1.9,-0.7,-1.9,15.7,-1.0,0.3,-0.7,4.7,2.6,,,*65
$GNGRS,042512.00,1,1.5,9.8,-0.5,6.9,-7.8,-2.6,-0.3,-8.9,,,,*7B
$GNGST,042512.00,20,,,,1.2,1.1,2.5*4F
$GNZDA,042512.00,23,05,2025,00,00*79
$GNGBS,042512.00,1.2,1.1,2.5,,,,*5B
$GNTXT,01,01,01,More than 100 frame errors, UART RX was disabled*70
b0|x#3P##a
!w"k&3X%f&%?gI{4(V^(:R%Z 
Y%_rFdG)HPI'J3oK)1LUU
V%->W$ }bxr]$GNRMC,042513.00,A,0419.93844,S,05539.90996,E,0.011,,230525,,,D*7F
$GNVTG,,T,,M,0.011,N,0.021,K,D*3B
$GNGNS,042513.00,0419.93844,S,05539.90996,E,DA,17,0.61,12.8,-47.6,,0000*68
$GNGGA,042513.00,0419.93844,S,05539.90996,E,2,12,0.61,12.8,M,-47.6,M,,0000*41
$GNGSA,A,3,24,20,05,13,15,22,12,14,18,,,,1.16,0.61,0.99*15
$GNGSA,A,3,86,74,75,87,85,73,71,72,,,,,1.16,0.61,0.99*17
$GPGSV,5,1,19,05,51,152,35,06,04,028,28,11,35,019,,12,22,353,35*78
$GPGSV,5,2,19,13,24,168,25,14,08,119,33,15,27,204,34,18,14,223,30*72
$GPGSV,5,3,19,20,51,088,38,22,20,102,37,24,63,273,37,25,01,329,*70
$GPGSV,5,4,19,29,11,287,,36,52,277,,40,86,350,40,41,58,082,40*78
$GPGSV,5,5,19,42,,,37,49,32,274,,50,10,089,*7B
$GLGSV,3,1,11,70,00,100,11,71,13,141,41,72,14,190,25,73,13,142,39*60
$GLGSV,3,2,11,74,51,111,28,75,49,016,41,76,02,341,,85,10,009,26*61
$GLGSV,3,3,11,86,45,318,37,87,36,254,30,,,,32*6F
$GNGLL,0419.93844,S,05539.90996,E,042513.00,A,D*65
$GNGRS,042513.00,1,-1.5,-0.8,-1.8,13.0,-1.2,0.4,-1.0,2.0,3.6,,,*64
$GNGRS,042513.00,1,4.5,9.3,-0.9,2.0,-10.3,-2.6,-0.1,-9.4,,,,*46
$GNGST,042513.00,20,,,,1.2,1.1,2.5*4E
$GNZDA,042513.00,23,05,2025,00,00*78
$GNGBS,042513.00,1.2,1.1,2.5,,,,*5A
$GNTXT,01,01,01,More than 100 frame errors, UART RX was disabled*70
b0|`%3Az#$a
"w$#(3X%f%%?I{4(V^*:R'Z 
Y&_rFdG(HI'#J3o$K(1LUU
V$->W$y!_b`r`$GNRMC,042514.00,A,0419.93843,S,05539.90995,E,0.024,,230525,,,D*7A
$GNVTG,,T,,M,0.024,N,0.044,K,D*3E
$GNGNS,042514.00,0419.93843,S,05539.90995,E,DA,17,0.61,12.7,-47.6,,0000*64
$GNGGA,042514.00,0419.93843,S,05539.90995,E,2,12,0.61,12.7,M,-47.6,M,,0000*4D
$GNGSA,A,3,24,20,05,13,15,22,12,14,18,,,,1.16,0.61,0.99*15
$GNGSA,A,3,86,74,75,87,85,73,71,72,,,,,1.16,0.61,0.99*17
$GPGSV,5,1,19,05,51,152,37,06,04,028,29,11,35,019,,12,22,353,36*78
$GPGSV,5,2,19,13,24,168,24,14,08,119,34,15,27,204,36,18,14,223,31*77
$GPGSV,5,3,19,20,51,088,40,22,20,102,37,24,63,273,37,25,01,329,*7F
$GPGSV,5,4,19,29,11,287,,36,52,277,,40,86,350,40,41,58,082,42*7A
$GPGSV,5,5,19,42,,,39,49,32,274,,50,10,089,*75
$GLGSV,3,1,11,70,00,100,11,71,13,141,40,72,14,190,26,73,13,142,39*62
$GLGSV,3,2,11,74,51,111,29,75,49,016,40,76,02,341,,85,10,009,27*60
$GLGSV,3,3,11,86,45,318,36,87,36,254,31,,,,33*6E
$GNGLL,0419.93843,S,05539.90995,E,042514.00,A,D*66
$GNGRS,042514.00,1,-1.2,-0.7,-1.9,9.8,-1.3,0.4,-0.9,6.9,5.5,,,*58
$GNGRS,042514.00,1,-0.8,10.6,-0.7,8.9,-8.6,-2.2,-0.2,-8.6,,,,*6D
$GNGST,042514.00,19,,,,1.2,1.1,2.5*43
$GNZDA,042514.00,23,05,2025,00,00*7F
$GNGBS,042514.00,1.2,1.1,2.5,,,,*5D
$GNTXT,01,01,01,More than 100 frame errors, UART RX was disabled*70
b0|H&3#$a
#wf$ {(3X%f)%?I{4(V^*:R'Z 
Y&_~Fd4G&HI%J3oK(1LUU
V$->W$(#PbHrdZ$GNRMC,042515.00,A,0419.93843,S,05539.90995,E,0.005,,230525,,,D*78
$GNVTG,,T,,M,0.005,N,0.008,K,D*35
$GNGNS,042515.00,0419.93843,S,05539.90995,E,DA,17,0.61,12.6,-47.6,,0000*64
$GNGGA,042515.00,0419.93843,S,05539.90995,E,2,12,0.61,12.6,M,-47.6,M,,0000*4D
$GNGSA,A,3,24,20,05,13,15,22,12,14,18,,,,1.16,0.61,0.99*15
$GNGSA,A,3,86,74,75,87,85,73,71,72,,,,,1.16,0.61,0.99*17
$GPGSV,5,1,19,05,51,152,38,06,04,028,29,11,35,019,,12,22,353,36*77
$GPGSV,5,2,19,13,24,168,23,14,08,119,35,15,27,204,36,18,14,223,32*72
$GPGSV,5,3,19,20,51,088,40,22,20,102,37,24,63,273,37,25,01,329,*7F
$GPGSV,5,4,19,29,11,287,,36,52,277,,40,86,350,40,41,58,082,42*7A
$GPGSV,5,5,19,42,,,39,49,32,274,,50,10,089,*75
$GLGSV,3,1,11,70,00,100,09,71,13,141,38,72,14,190,27,73,13,142,37*6B
$GLGSV,3,2,11,74,51,111,29,75,49,016,40,76,02,341,,85,10,009,27*60
$GLGSV,3,3,11,86,45,318,36,87,36,254,31,,,,35*68
$GNGLL,0419.93843,S,05539.90995,E,042515.00,A,D*67
$GNGRS,042515.00,1,-1.3,-0.5,-1.2,2.8,-1.2,0.4,-0.9,3.6,3.8,,,*5A
$GNGRS,042515.00,1,-0.4,6.9,-0.9,5.5,-8.7,-2.3,-0.1,-8.8,,,,*5A
$GNGST,042515.00,19,,,,1.2,1.1,2.4*43
$GNZDA,042515.00,23,05,2025,00,00*7E
$GNGBS,042515.00,1.2,1.1,2.4,,,,*5D
$GNTXT,01,01,01,More than 100 frame errors, UART RX was disabled*70
b0|0%3#$a(
#w"h B'3X%fG%?I{4(V^):R&Z 
Y&_iF
dG&H8I#J3oK&1LUU
V!->W$b0rhZ$GNRMC,042516.00,A,0419.93843,S,05539.90995,E,0.008,,230525,,,D*76
$GNVTG,,T,,M,0.008,N,0.015,K,D*34
$GNGNS,042516.00,0419.93843,S,05539.90995,E,DA,17,0.61,12.5,-47.6,,0000*64
$GNGGA,042516.00,0419.93843,S,05539.90995,E,2,12,0.61,12.5,M,-47.6,M,,0000*4D
$GNGSA,A,3,24,20,05,13,15,22,12,14,18,,,,1.16,0.61,0.99*15
$GNGSA,A,3,86,74,75,87,85,73,71,72,,,,,1.16,0.61,0.99*17
$GPGSV,5,1,19,05,51,152,37,06,04,028,29,11,35,019,,12,22,353,36*78
$GPGSV,5,2,19,13,24,168,25,14,08,119,35,15,27,204,34,18,14,223,32*76
$GPGSV,5,3,19,20,51,088,39,22,20,102,37,24,63,273,37,25,01,329,*71
$GPGSV,5,4,19,29,11,287,,36,52,277,,40,86,350,40,41,58,082,41*79
$GPGSV,5,5,19,42,,,38,49,32,274,,50,10,089,*74
$GLGSV,3,1,11,70,00,100,10,71,13,141,38,72,14,190,27,73,13,142,35*61
$GLGSV,3,2,11,74,51,111,28,75,49,016,38,76,02,341,,85,10,009,27*6E
$GLGSV,3,3,11,86,45,318,33,87,36,254,30,,,,31*68
$GNGLL,0419.93843,S,05539.90995,E,042516.00,A,D*64
$GNGRS,042516.00,1,-0.8,-0.2,-1.2,5.5,-1.5,0.7,-0.6,2.8,5.8,,,*5C
$GNGRS,042516.00,1,-0.7,7.7,-0.8,4.6,-8.5,-2.3,-0.1,-7.1,,,,*52
$GNGST,042516.00,19,,,,1.2,1.1,2.4*40
$GNZDA,042516.00,23,05,2025,00,00*7D
$GNGBS,042516.00,1.2,1.1,2.4,,,,*5E
$GNTXT,01,01,01,More than 100 frame errors, UART RX was disabled*70
b0|"3#!a%
"w#e$&3X%fG%?I{4'V^(:R$Z 
Y&_FdG&HI#DJ3o@K&1LUU
V!->W$Xbrl2*$GNRMC,042517.00,A,0419.93844,S,05539.90996,E,0.011,,230525,,,D*7B
$GNVTG,,T,,M,0.011,N,0.020,K,D*3A
$GNGNS,042517.00,0419.93844,S,05539.90996,E,DA,17,0.61,12.5,-47.6,,0000*61
$GNGGA,042517.00,0419.93844,S,05539.90996,E,2,12,0.61,12.5,M,-47.6,M,,0000*48
$GNGSA,A,3,24,20,05,13,15,22,12,14,18,,,,1.16,0.61,0.99*15
$GNGSA,A,3,86,74,75,87,85,73,71,72,,,,,1.16,0.61,0.99*17
$GPGSV,5,1,19,05,51,152,34,06,04,028,28,11,35,019,,12,22,353,33*7F
$GPGSV,5,2,19,13,24,168,26,14,08,119,34,15,27,204,35,18,14,223,31*76
$GPGSV,5,3,19,20,51,088,38,22,20,102,37,24,63,273,37,25,01,329,*70
$GPGSV,5,4,19,29,11,287,,36,52,277,,40,86,350,39,41,58,082,40*76
$GPGSV,5,5,19,42,,,36,49,32,274,,50,10,089,*7A
$GLGSV,3,1,11,70,00,100,09,71,13,141,38,72,14,190,26,73,13,142,35*68
$GLGSV,3,2,11,74,51,111,28,75,49,016,38,76,02,341,,85,10,009,26*6F
$GLGSV,3,3,11,86,45,318,33,87,36,254,29,,,,31*60
$GNGLL,0419.93844,S,05539.90996,E,042517.00,A,D*61
$GNGRS,042517.00,1,-0.5,-0.3,-1.2,5.5,-1.6,0.7,-0.5,2.3,0.4,,,*53
$GNGRS,042517.00,1,-0.6,10.9,-0.6,4.6,-8.4,-1.9,-0.2,-5.8,,,,*64
$GNGST,042517.00,20,,,,1.2,1.1,2.4*4B
$GNZDA,042517.00,23,05,2025,00,00*7C
$GNGBS,042517.00,1.2,1.1,2.4,,,,*5F
$GNTXT,01,01,01,More than 100 frame errors, UART RX was disabled*70
b0|$3R##a;
"w"Pi&3X$fQ$?I{4&V^):R%Z 
Y%_bFd:6G(HI&?J3oK(1LUU
V$->5W$E".brp
$GNRMC,042518.00,A,0419.93843,S,05539.90997,E,0.023,,230525,,,D*73
$GNVTG,,T,,M,0.023,N,0.042,K,D*3F
$GNGNS,042518.00,0419.93843,S,05539.90997,E,DA,17,0.61,12.5,-47.6,,0000*68
$GNGGA,042518.00,0419.93843,S,05539.90997,E,2,12,0.61,12.5,M,-47.6,M,,0000*41
$GNGSA,A,3,24,20,05,13,15,22,12,14,18,,,,1.16,0.61,0.99*15
$GNGSA,A,3,86,74,75,87,85,73,71,72,,,,,1.16,0.61,0.99*17
$GPGSV,5,1,19,05,51,151,36,06,04,028,27,11,35,019,,12,22,353,35*77
$GPGSV,5,2,19,13,24,168,29,14,08,119,34,15,27,204,34,18,14,223,31*78
$GPGSV,5,3,19,20,51,088,38,22,20,102,36,24,63,273,36,25,01,329,*70
$GPGSV,5,4,19,29,11,287,,36,52,277,,40,86,350,38,41,58,082,41*76
$GPGSV,5,5,19,42,,,37,49,32,274,,50,10,089,*7B
$GLGSV,3,1,11,70,00,100,08,71,13,141,40,72,14,190,27,73,13,142,38*6A
$GLGSV,3,2,11,74,51,111,29,75,49,016,40,76,02,341,,85,10,009,27*60
$GLGSV,3,3,11,86,45,318,36,87,36,254,30,,,,34*68
$GNGLL,0419.93843,S,05539.90997,E,042518.00,A,D*68
$GNGRS,042518.00,1,-0.3,-0.4,-1.2,3.2,-1.8,0.8,-0.4,2.3,1.0,,,*59
$GNGRS,042518.00,1,0.5,9.6,-0.5,5.8,-8.4,-1.9,-0.4,-5.5,,,,*75
$GNGST,042518.00,18,,,,1.2,1.1,2.4*4F
$GNZDA,042518.00,23,05,2025,00,00*73
$GNGBS,042518.00,1.2,1.1,2.4,,,,*50
$GNTXT,01,01,01,More than 100 frame errors, UART RX was disabled*70
b0|"3##a
"w"70&3X$fg%?I{4(V^(:R%Z 
Y%_KFdG*H
I(BJ3oK*1LUU
V&->mW$# br}t$GNRMC,042519.00,A,0419.93843,S,05539.90996,E,0.020,,230525,,,D*70
$GNVTG,,T,,M,0.020,N,0.036,K,D*3F
$GNGNS,042519.00,0419.93843,S,05539.90996,E,DA,17,0.61,12.5,-47.6,,0000*68
$GNGGA,042519.00,0419.93843,S,05539.90996,E,2,12,0.61,12.5,M,-47.6,M,,0000*41
$GNGSA,A,3,24,20,05,13,15,22,12,14,18,,,,1.16,0.61,0.99*15
$GNGSA,A,3,86,74,75,87,85,73,71,72,,,,,1.16,0.61,0.99*17
$GPGSV,5,1,19,05,51,151,34,06,03,028,26,11,35,019,,12,22,353,35*73
$GPGSV,5,2,19,13,24,168,27,14,08,119,34,15,27,204,34,18,14,223,30*77
$GPGSV,5,3,19,20,51,088,38,22,20,102,36,24,63,273,37,25,01,329,*71
$GPGSV,5,4,19,29,11,287,,36,52,277,,40,86,350,40,41,58,082,40*78
$GPGSV,5,5,19,42,,,37,49,32,274,,50,10,089,*7B
$GLGSV,3,1,11,70,00,100,09,71,13,141,42,72,14,190,27,73,13,142,40*66
$GLGSV,3,2,11,74,51,111,29,75,49,016,42,76,02,341,,85,10,009,27*62
$GLGSV,3,3,11,86,45,318,38,87,36,254,29,,,,32*68
$GNGLL,0419.93843,S,05539.90996,E,042519.00,A,D*68
$GNGRS,042519.00,1,-0.4,-0.6,-1.1,7.7,-2.0,1.0,-0.4,2.3,3.0,,,*5F
$GNGRS,042519.00,1,1.1,7.6,-0.5,8.0,-8.1,-1.9,-0.3,-5.0,,,,*7D
$GNGST,042519.00,19,,,,1.2,1.1,2.4*4F
$GNZDA,042519.00,23,05,2025,00,00*72
$GNGBS,042519.00,1.2,1.1,2.4,,,,*51
$GNTXT,01,01,01,More than 100 frame errors, UART RX was disabled*70
b0|#3#"ac
"w"L&3X$fz$?I{4'V^(:R%Z 
Y%_BF
dG(HI&=J3o?K'1LUU
V#->|W$1 brexS$GNRMC,042520.00,A,0419.93842,S,05539.90996,E,0.035,,230525,,,D*7F
$GNVTG,,T,,M,0.035,N,0.064,K,D*3C
$GNGNS,042520.00,0419.93842,S,05539.90996,E,DA,17,0.61,12.5,-47.6,,0000*63
$GNGGA,042520.00,0419.93842,S,05539.90996,E,2,12,0.61,12.5,M,-47.6,M,,0000*4A
$GNGSA,A,3,24,20,05,13,15,22,12,14,18,,,,1.16,0.61,0.99*15
$GNGSA,A,3,86,74,75,87,85,73,71,72,,,,,1.16,0.61,0.99*17
$GPGSV,5,1,19,05,51,151,35,06,03,028,25,11,35,019,,12,22,353,34*70
$GPGSV,5,2,19,13,24,168,27,14,08,119,34,15,27,204,34,18,14,223,30*77
$GPGSV,5,3,19,20,51,088,38,22,20,102,36,24,63,273,36,25,01,329,*70
$GPGSV,5,4,19,29,11,287,,36,52,277,,40,86,350,39,41,58,082,40*76
$GPGSV,5,5,19,42,,,37,49,32,274,,50,10,089,*7B
$GLGSV,3,1,11,70,00,100,10,71,13,141,40,72,14,190,27,73,13,142,38*63
$GLGSV,3,2,11,74,51,111,29,75,49,016,39,76,02,341,,85,10,009,27*6E
$GLGSV,3,3,11,86,45,318,35,87,36,254,30,,,,32*6D
$GNGLL,0419.93842,S,05539.90996,E,042520.00,A,D*63
$GNGRS,042520.00,1,-0.2,-0.7,-1.0,3.6,-1.8,1.2,-0.6,2.3,2.6,,,*5A
$GNGRS,042520.00,1,1.2,8.3,-0.4,3.0,-5.8,-2.0,-0.5,-5.1,,,,*7D
$GNGST,042520.00,19,,,,1.2,1.1,2.5*44
$GNZDA,042520.00,23,05,2025,00,00*78
$GNGBS,042520.00,1.2,1.1,2.5,,,,*5A
$GNTXT,01,01,01,More than 100 frame errors, UART RX was disabled*70
b0|#3f#%a
$w$M(3X&f&?I{4(V^):R&Z 
Y&__FdRG(HI&=J3o@K)1LUU
V$->kW$  brM|$GNRMC,042521.00,A,0419.93842,S,05539.90995,E,0.013,,230525,,,D*79
$GNVTG,,T,,M,0.013,N,0.024,K,D*3C
$GNGNS,042521.00,0419.93842,S,05539.90995,E,DA,17,0.61,12.4,-47.6,,0000*60
$GNGGA,042521.00,0419.93842,S,05539.90995,E,2,12,0.61,12.4,M,-47.6,M,,0000*49
$GNGSA,A,3,24,20,05,13,15,22,12,14,18,,,,1.16,0.61,0.99*15
$GNGSA,A,3,86,74,75,87,85,73,71,72,,,,,1.16,0.61,0.99*17
$GPGSV,5,1,19,05,51,151,35,06,03,028,25,11,35,019,,12,22,353,37*73
$GPGSV,5,2,19,13,24,168,27,14,08,119,36,15,27,204,36,18,14,223,31*76
$GPGSV,5,3,19,20,51,088,40,22,20,102,38,24,63,273,38,25,01,329,*7F
$GPGSV,5,4,19,29,11,287,,36,52,277,,40,86,350,40,41,58,082,41*79
$GPGSV,5,5,19,42,,,38,49,32,274,,50,10,089,*74
$GLGSV,3,1,11,70,00,100,08,71,13,141,40,72,14,190,26,73,13,142,38*6B
$GLGSV,3,2,11,74,51,111,29,75,49,016,41,76,02,341,,85,10,009,27*61
$GLGSV,3,3,11,86,45,318,36,87,36,254,29,,,,32*66
$GNGLL,0419.93842,S,05539.90995,E,042521.00,A,D*61
$GNGRS,042521.00,1,0.0,-0.6,-0.6,6.8,-1.8,1.4,-0.6,2.2,1.3,,,*78
$GNGRS,042521.00,1,1.1,8.3,-0.5,9.0,-5.0,-1.9,-0.6,-3.6,,,,*74
$GNGST,042521.00,18,,,,1.2,1.1,2.4*45
$GNZDA,042521.00,23,05,2025,00,00*79
$GNGBS,042521.00,1.2,1.1,2.4,,,,*5A
$GNTXT,01,01,01,More than 100 frame errors, UART RX was disabled*70
b0|$3x#$a
#w#>.'3X$f&?I{4(V^):R&Z 
Y&_hFdG'HI&AJ3oK(1LUU
V#->iW$Rbr5j1$GNRMC,042522.00,A,0419.93841,S,05539.90995,E,0.032,,230525,,,D*7A
$GNVTG,,T,,M,0.032,N,0.060,K,D*3F
$GNGNS,042522.00,0419.93841,S,05539.90995,E,DA,17,0.61,12.4,-47.6,,0000*60
$GNGGA,042522.00,0419.93841,S,05539.90995,E,2,12,0.61,12.4,M,-47.6,M,,0000*49
$GNGSA,A,3,24,20,05,13,15,22,12,14,18,,,,1.16,0.61,0.99*15
$GNGSA,A,3,86,74,75,87,85,73,71,72,,,,,1.16,0.61,0.99*17
$GPGSV,5,1,19,05,51,151,36,06,03,028,24,11,35,019,,12,22,353,36*70
$GPGSV,5,2,19,13,24,168,29,14,08,119,35,15,27,204,35,18,14,223,31*78
$GPGSV,5,3,19,20,51,088,39,22,20,102,36,24,63,273,38,25,01,329,*7F
$GPGSV,5,4,19,29,11,287,,36,52,277,,40,86,350,40,41,58,082,41*79
$GPGSV,5,5,19,42,,,38,49,32,274,,50,10,089,*74
$GLGSV,3,1,11,70,00,100,11,71,13,141,39,72,14,190,26,73,13,142,38*6D
$GLGSV,3,2,11,74,51,111,29,75,49,016,40,76,02,341,,85,10,009,26*61
$GLGSV,3,3,11,86,45,318,35,87,36,254,29,,,,31*66
$GNGLL,0419.93841,S,05539.90995,E,042522.00,A,D*61
$GNGRS,042522.00,1,0.0,-0.6,-0.6,-3.1,-1.9,1.5,-0.5,2.0,3.0,,,*5A
$GNGRS,042522.00,1,1.1,9.8,-0.6,10.4,-7.6,-1.9,-0.4,-2.7,,,,*44
$GNGST,042522.00,18,,,,1.2,1.1,2.4*46
$GNZDA,042522.00,23,05,2025,00,00*7A
$GNGBS,042522.00,1.2,1.1,2.4,,,,*59
$GNTXT,01,01,01,More than 100 frame errors, UART RX was disabled*70
b0|$3#$aS
"w#R '3X%f%?I{4(V^*:R&Z 
Y&_PFdG(HI(-J3oK*1LUU
V$->>W$ "brB$GNRMC,042523.00,A,0419.93841,S,05539.90995,E,0.019,,230525,,,D*72
$GNVTG,,T,,M,0.019,N,0.035,K,D*36
$GNGNS,042523.00,0419.93841,S,05539.90995,E,DA,17,0.61,12.4,-47.6,,0000*61
$GNGGA,042523.00,0419.93841,S,05539.90995,E,2,12,0.61,12.4,M,-47.6,M,,0000*48
$GNGSA,A,3,24,20,05,13,15,22,12,14,18,,,,1.16,0.61,0.99*15
$GNGSA,A,3,86,74,75,87,85,73,71,72,,,,,1.16,0.61,0.99*17
$GPGSV,5,1,19,05,51,151,36,06,03,028,24,11,35,019,,12,22,353,36*70
$GPGSV,5,2,19,13,24,168,28,14,08,119,34,15,27,204,35,18,14,223,32*7B
$GPGSV,5,3,19,20,51,088,39,22,20,102,37,24,63,273,37,25,01,329,*71
$GPGSV,5,4,19,29,11,287,,36,52,277,,40,86,350,40,41,58,082,42*7A
$GPGSV,5,5,19,42,,,38,49,32,274,,50,10,089,*74
$GLGSV,3,1,11,70,00,100,07,71,13,141,40,72,14,190,26,73,13,142,40*6B
$GLGSV,3,2,11,74,51,111,29,75,49,016,42,76,02,341,,85,10,009,27*62
$GLGSV,3,3,11,86,45,318,36,87,36,254,30,,,,32*6E
$GNGLL,0419.93841,S,05539.90995,E,042523.00,A,D*60
$GNGRS,042523.00,1,-0.1,-0.2,-0.4,3.4,-1.7,1.6,-0.3,1.8,-0.3,,,*74
$GNGRS,042523.00,1,0.6,10.4,-0.7,12.4,-8.5,-2.1,-0.7,-1.2,,,,*76
$GNGST,042523.00,18,,,,1.2,1.1,2.4*47
$GNZDA,042523.00,23,05,2025,00,00*7B
$GNGBS,042523.00,1.2,1.1,2.4,,,,*58
$GNTXT,01,01,01,More than 100 frame errors, UART RX was disabled*70
b0|p#3"#a
"w"l &3X%f%?I{4(V^):R&Z 
Y&_CFduG)HI&"J3oK(1LUU
V$->AW$bpr$GNRMC,042524.00,A,0419.93841,S,05539.90996,E,0.017,,230525,,,D*78
$GNVTG,,T,,M,0.017,N,0.032,K,D*3F
$GNGNS,042524.00,0419.93841,S,05539.90996,E,DA,17,0.61,12.4,-47.6,,0000*65
$GNGGA,042524.00,0419.93841,S,05539.90996,E,2,12,0.61,12.4,M,-47.6,M,,0000*4C
$GNGSA,A,3,24,20,05,13,15,22,12,14,18,,,,1.16,0.61,0.99*15
$GNGSA,A,3,86,74,75,87,85,73,71,72,,,,,1.16,0.61,0.99*17
$GPGSV,5,1,19,05,51,151,35,06,03,028,24,11,34,019,,12,22,353,35*71
$GPGSV,5,2,19,13,24,168,28,14,08,119,34,15,27,204,34,18,14,223,32*7A
$GPGSV,5,3,19,20,51,088,38,22,20,102,37,24,63,273,37,25,01,329,*70
$GPGSV,5,4,19,29,11,287,,36,52,277,,40,86,350,40,41,58,082,41*79
$GPGSV,5,5,19,42,,,38,49,32,274,,50,10,089,*74
$GLGSV,3,1,11,70,00,100,13,71,13,141,41,72,14,190,25,73,13,142,38*63
$GLGSV,3,2,11,74,51,111,29,75,49,016,40,76,02,341,,85,10,009,27*60
$GLGSV,3,3,11,86,45,318,36,87,36,254,30,,,,31*6D
$GNGLL,0419.93841,S,05539.90996,E,042524.00,A,D*64
$GNGRS,042524.00,1,-0.2,0.2,-0.3,2.1,-1.5,1.8,-0.3,1.9,-3.1,,,*52
$GNGRS,042524.00,1,0.6,14.9,-0.6,14.8,-4.9,-2.2,-0.6,0.2,,,,*5D
$GNGST,042524.00,18,,,,1.2,1.1,2.4*40
$GNZDA,042524.00,23,05,2025,00,00*7C
$GNGBS,042524.00,1.2,1.1,2.4,,,,*5F
$GNTXT,01,01,01,More than 100 frame errors, UART RX was disabled*70
b0|X#3"#a
#w# m'3X%f&?I{4(V^):R&Z 
Y&_AFdG)HI'J3oOK*1LUU
V&->1W$C!AbXrf$GNRMC,042525.00,A,0419.93842,S,05539.90997,E,0.011,,230525,,,D*7D
$GNVTG,,T,,M,0.011,N,0.021,K,D*3B
$GNGNS,042525.00,0419.93842,S,05539.90997,E,DA,17,0.61,12.5,-47.6,,0000*67
$GNGGA,042525.00,0419.93842,S,05539.90997,E,2,12,0.61,12.5,M,-47.6,M,,0000*4E
$GNGSA,A,3,24,20,05,13,15,22,12,14,18,,,,1.16,0.61,0.99*15
$GNGSA,A,3,86,74,75,87,85,73,71,72,,,,,1.16,0.61,0.99*17
$GPGSV,5,1,19,05,51,151,35,06,03,028,25,11,34,019,,12,23,353,35*71
$GPGSV,5,2,19,13,24,168,29,14,08,119,35,15,27,204,35,18,14,223,32*7B
$GPGSV,5,3,19,20,51,088,39,22,20,102,37,24,63,273,38,25,01,329,*7E
$GPGSV,5,4,19,29,11,287,,36,52,277,,40,86,350,40,41,58,082,41*79
$GPGSV,5,5,19,42,,,38,49,32,274,,50,10,089,*74
$GLGSV,3,1,11,70,00,100,12,71,13,141,41,72,14,190,26,73,13,142,39*60
$GLGSV,3,2,11,74,51,111,29,75,49,016,42,76,02,341,,85,10,009,27*62
$GLGSV,3,3,11,86,45,318,38,87,36,254,30,,,,33*61
$GNGLL,0419.93842,S,05539.90997,E,042525.00,A,D*67
$GNGRS,042525.00,1,-0.3,0.0,4.0,-5.5,-1.1,1.8,-0.2,2.0,-1.5,,,*5D
$GNGRS,042525.00,1,0.5,16.1,-0.8,5.8,-5.6,-2.3,-0.6,-0.2,,,,*49
$GNGST,042525.00,18,,,,1.2,1.1,2.4*41
$GNZDA,042525.00,23,05,2025,00,00*7D
$GNGBS,042525.00,1.2,1.1,2.4,,,,*5E
$GNTXT,01,01,01,More than 100 frame errors, UART RX was disabled*70
b0|@#39"$a
"w" ^'3X%f&?I{4(V^):R&Z 
Y%_AF
dG%HI$-J3oK'1LUU
V"->"W$10b@r$GNRMC,042526.00,A,0419.93843,S,05539.90998,E,0.012,,230525,,,D*73
$GNVTG,,T,,M,0.012,N,0.022,K,D*3B
$GNGNS,042526.00,0419.93843,S,05539.90998,E,DA,17,0.61,12.5,-47.6,,0000*6A
$GNGGA,042526.00,0419.93843,S,05539.90998,E,2,12,0.61,12.5,M,-47.6,M,,0000*43
$GNGSA,A,3,24,20,05,13,15,22,12,14,18,,,,1.16,0.61,0.99*15
$GNGSA,A,3,86,74,75,87,85,73,71,72,,,,,1.16,0.61,0.99*17
$GPGSV,5,1,19,05,51,151,35,06,03,028,24,11,34,019,,12,23,353,36*73
$GPGSV,5,2,19,13,24,167,30,14,08,119,34,15,27,204,34,18,14,223,32*7C
$GPGSV,5,3,19,20,51,088,39,22,20,102,37,24,63,273,38,25,01,329,*7E
$GPGSV,5,4,19,29,11,287,,36,52,277,,40,86,350,40,41,58,082,41*79
$GPGSV,5,5,19,42,,,38,49,32,274,,50,10,089,*74
$GLGSV,3,1,11,70,00,100,10,71,13,141,37,72,14,190,25,73,13,142,36*6F
$GLGSV,3,2,11,74,51,111,28,75,49,016,39,76,02,341,,85,10,009,27*6F
$GLGSV,3,3,11,86,45,318,34,87,36,254,30,,,,28*67
$GNGLL,0419.93843,S,05539.90998,E,042526.00,A,D*6A
$GNGRS,042526.00,1,-0.6,0.0,4.0,-5.0,-0.8,1.9,-0.2,2.0,-1.6,,,*54
