$GNTXT,01,01,01,More than 100 frame errors, UART RX was disabled*70
b0p %5c#
{EM2Qj~"?K#{4 V^:R 
YaF`G[HI
iJ1utK5{LVUV*BuW%|b r%$GNRMC,043338.00,A,0419.92821,S,05539.89708,E,0.156,,230525,,,D*70
$GNVTG,,T,,M,0.156,N,0.289,K,D*39
$GNGNS,043338.00,0419.92821,S,05539.89708,E,DA,15,0.83,16.2,-47.6,,0000*65
$GNGGA,043338.00,0419.92821,S,05539.89708,E,2,12,0.83,16.2,M,-47.6,M,,0000*4E
$GNGSA,A,3,24,20,05,13,15,22,14,18,,,,,1.52,0.83,1.27*1E
$GNGSA,A,3,86,74,75,87,73,71,72,,,,,,1.52,0.83,1.27*12
$GPGSV,5,1,18,05,53,146,37,06,00,029,,11,31,019,,12,25,355,*70
$GPGSV,5,2,18,13,23,164,35,14,07,123,29,15,27,200,23,18,16,225,18*78
$GPGSV,5,3,18,20,50,081,26,22,19,106,28,24,63,264,34,25,03,331,*78
$GPGSV,5,4,18,29,11,291,,36,52,277,29,40,86,350,32,41,58,082,*74
$GPGSV,5,5,18,49,32,274,,50,10,089,*78
$GLGSV,3,1,11,70,00,096,,71,13,137,31,72,15,186,17,73,10,145,30*62
$GLGSV,3,2,11,74,49,117,28,75,53,019,27,76,05,342,,85,07,011,*65
$GLGSV,3,3,11,86,42,322,22,87,37,260,23,,,,24*66
$GNGLL,0419.92821,S,05539.89708,E,043338.00,A,D*68
$GNGRS,043338.00,1,-2.5,5.0,-1.0,1.6,3.3,3.8,-1.9,-3.8,,,,*53
$GNGRS,043338.00,1,-3.9,6.3,1.2,10.0,1.0,-1.6,-13.7,,,,,*52
$GNGST,043338.00,35,,,,2.8,2.6,4.3*49
$GNZDA,043338.00,23,05,2025,00,00*76
$GNGBS,043338.00,2.8,2.6,4.3,,,,*59
$GNTXT,01,01,01,More than 100 frame errors, UART RX was disabled*70
b0p(5c$
{2QjJ%?K#{!4#V^:R 
YaF`G ZHpI
J1uK5LVUV*BW%br%sH$GNRMC,043339.00,A,0419.92819,S,05539.89712,E,0.038,,230525,,,D*78
$GNVTG,,T,,M,0.038,N,0.069,K,D*3C
$GNGNS,043339.00,0419.92819,S,05539.89712,E,DA,15,0.83,16.0,-47.6,,0000*66
$GNGGA,043339.00,0419.92819,S,05539.89712,E,2,12,0.83,16.0,M,-47.6,M,,0000*4D
$GNGSA,A,3,24,20,05,13,15,22,14,18,,,,,1.52,0.83,1.27*1E
$GNGSA,A,3,86,74,75,87,73,71,72,,,,,,1.52,0.83,1.27*12
$GPGSV,5,1,18,05,53,146,40,06,00,029,,11,31,019,,12,25,355,*70
$GPGSV,5,2,18,13,23,164,36,14,07,123,25,15,27,200,23,18,16,225,19*76
$GPGSV,5,3,18,20,50,081,27,22,19,106,29,24,63,264,37,25,03,331,*7B
$GPGSV,5,4,18,29,11,291,,36,52,277,33,40,86,350,35,41,58,082,*78
$GPGSV,5,5,18,49,32,274,,50,10,089,*78
$GLGSV,3,1,11,70,00,096,,71,13,137,32,72,15,186,18,73,10,145,31*6F
$GLGSV,3,2,11,74,49,117,27,75,53,019,25,76,05,342,,85,07,011,*68
$GLGSV,3,3,11,86,42,322,23,87,37,260,21,,,,24*65
$GNGLL,0419.92819,S,05539.89712,E,043339.00,A,D*69
$GNGRS,043339.00,1,-2.8,4.2,-0.7,1.7,2.7,3.3,4.3,-3.4,,,,*7B
$GNGRS,043339.00,1,-2.6,7.6,2.2,10.3,-3.1,-1.7,-14.2,,,,,*74
$GNGST,043339.00,36,,,,2.8,2.5,4.3*48
$GNZDA,043339.00,23,05,2025,00,00*77
$GNGBS,043339.00,2.8,2.5,4.3,,,,*5B
$GNTXT,01,01,01,More than 100 frame errors, UART RX was disabled*70
b0p&5c"
{]K 2QHj^%?K#{ 4&V^:R 
YaF_G%MHI"
WJ1uK5LVUV*B#W%%br%J$GNRMC,043340.00,A,0419.92816,S,05539.89711,E,0.052,,230525,,,D*76
$GNVTG,,T,,M,0.052,N,0.095,K,D*33
$GNGNS,043340.00,0419.92816,S,05539.89711,E,DA,15,0.83,16.0,-47.6,,0000*64
$GNGGA,043340.00,0419.92816,S,05539.89711,E,2,12,0.83,16.0,M,-47.6,M,,0000*4F
$GNGSA,A,3,24,20,05,13,15,22,14,18,,,,,1.52,0.83,1.27*1E
$GNGSA,A,3,86,74,75,87,73,71,72,,,,,,1.52,0.83,1.27*12
$GPGSV,5,1,18,05,53,146,38,06,00,029,,11,31,019,,12,25,355,17*79
$GPGSV,5,2,18,13,23,164,34,14,07,123,28,15,27,200,22,18,16,225,17*76
$GPGSV,5,3,18,20,50,081,32,22,19,106,28,24,63,264,37,25,03,331,*7E
$GPGSV,5,4,18,29,11,291,,36,52,277,32,40,86,350,38,41,58,082,*74
$GPGSV,5,5,18,49,32,274,,50,10,089,*78
$GLGSV,3,1,11,70,00,095,,71,13,137,37,72,15,186,18,73,10,145,34*6C
$GLGSV,3,2,11,74,49,117,28,75,53,019,31,76,05,342,,85,07,011,*62
$GLGSV,3,3,11,86,42,322,26,87,37,260,22,,,,24*63
$GNGLL,0419.92816,S,05539.89711,E,043340.00,A,D*6B
$GNGRS,043340.00,1,-0.1,3.3,-0.5,1.8,2.9,8.6,0.9,-1.8,,,,*75
$GNGRS,043340.00,1,-2.2,7.5,1.8,9.8,-1.7,-1.8,-13.8,,,,,*41
$GNGST,043340.00,33,,,,2.8,2.5,4.3*43
$GNZDA,043340.00,23,05,2025,00,00*79
$GNGBS,043340.00,2.8,2.5,4.3,,,,*55
$GNTXT,01,01,01,More than 100 frame errors, UART RX was disabled*70
b0p&5c5!
{p!2QZj&?,K#{ 4'V^:R 
Ya6F_G&AHRI!
VJ1uK5LVUV*BW%brl%"$GNRMC,043341.00,A,0419.92813,S,05539.89708,E,0.046,,230525,,,D*7F
$GNVTG,,T,,M,0.046,N,0.085,K,D*37
$GNGNS,043341.00,0419.92813,S,05539.89708,E,DA,15,0.83,16.0,-47.6,,0000*68
$GNGGA,043341.00,0419.92813,S,05539.89708,E,2,12,0.83,16.0,M,-47.6,M,,0000*43
$GNGSA,A,3,24,20,05,13,15,22,14,18,,,,,1.52,0.83,1.27*1E
$GNGSA,A,3,86,74,75,87,73,71,72,,,,,,1.52,0.83,1.27*12
$GPGSV,5,1,18,05,53,146,38,06,00,029,,11,31,019,,12,25,355,17*79
$GPGSV,5,2,18,13,23,164,33,14,07,123,29,15,27,200,21,18,16,225,16*72
$GPGSV,5,3,18,20,50,081,33,22,19,106,28,24,63,264,38,25,03,331,*70
$GPGSV,5,4,18,29,11,291,,36,52,277,32,40,86,350,39,41,58,082,*75
$GPGSV,5,5,18,49,32,274,,50,10,089,*78
$GLGSV,3,1,11,70,00,095,,71,14,136,38,72,15,186,19,73,10,145,33*63
$GLGSV,3,2,11,74,49,117,28,75,53,019,31,76,05,342,,85,07,011,*62
$GLGSV,3,3,11,86,42,322,25,87,37,260,23,,,,24*61
$GNGLL,0419.92813,S,05539.89708,E,043341.00,A,D*67
$GNGRS,043341.00,1,0.4,-4.2,-0.5,2.0,2.0,9.3,1.1,-2.7,,,,*74
$GNGRS,043341.00,1,-2.3,7.6,7.2,7.3,-1.7,-1.9,-17.1,,,,,*47
$GNGST,043341.00,33,,,,2.8,2.5,4.2*43
$GNZDA,043341.00,23,05,2025,00,00*78
$GNGBS,043341.00,2.8,2.5,4.2,,,,*55
$GNTXT,01,01,01,More than 100 frame errors, UART RX was disabled*70
b0p(5c"
{ 2Q]jb%?K#{4$V^:R 
YaiF_G#RHI#
J1uK5BLVUV*BW%brT!%q$GNRMC,043342.00,A,0419.92810,S,05539.89709,E,0.096,,230525,,,D*73
$GNVTG,,T,,M,0.096,N,0.177,K,D*36
$GNGNS,043342.00,0419.92810,S,05539.89709,E,DA,15,0.83,16.0,-47.6,,0000*69
$GNGGA,043342.00,0419.92810,S,05539.89709,E,2,12,0.83,16.0,M,-47.6,M,,0000*42
$GNGSA,A,3,24,20,05,13,15,22,14,18,,,,,1.52,0.83,1.27*1E
$GNGSA,A,3,86,74,75,87,73,71,72,,,,,,1.52,0.83,1.27*12
$GPGSV,5,1,18,05,53,146,40,06,00,029,,11,31,019,,12,25,355,*70
$GPGSV,5,2,18,13,23,164,34,14,07,123,30,15,27,200,23,18,16,225,18*71
$GPGSV,5,3,18,20,50,081,32,22,19,106,27,24,63,264,37,25,03,331,*71
$GPGSV,5,4,18,29,11,291,,36,52,277,31,40,86,350,36,41,58,082,*79
$GPGSV,5,5,18,49,32,274,,50,10,089,*78
$GLGSV,3,1,11,70,00,095,,71,14,136,35,72,15,186,20,73,10,145,35*62
$GLGSV,3,2,11,74,49,117,28,75,53,019,30,76,05,342,,85,07,011,*63
$GLGSV,3,3,11,86,42,322,24,87,37,260,23,,,,25*61
$GNGLL,0419.92810,S,05539.89709,E,043342.00,A,D*66
$GNGRS,043342.00,1,0.0,-1.6,-0.6,2.2,2.6,6.1,-5.7,-2.5,,,,*55
$GNGRS,043342.00,1,-2.6,7.0,5.8,7.2,-5.2,-1.7,-18.3,,,,,*4C
$GNGST,043342.00,32,,,,2.7,2.5,4.2*4E
$GNZDA,043342.00,23,05,2025,00,00*7B
$GNGBS,043342.00,2.7,2.5,4.2,,,,*59
$GNTXT,01,01,01,More than 100 frame errors, UART RX was disabled*70
b0p(5c'
{T#2Qj%?K#{4$V^:R 
Ya]F_G$8H]I!
J1uK5LVUV*BW%_qbr<%%$GNRMC,043343.00,A,0419.92811,S,05539.89701,E,0.048,,230525,,,D*78
$GNVTG,,T,,M,0.048,N,0.088,K,D*34
$GNGNS,043343.00,0419.92811,S,05539.89701,E,DA,15,0.83,15.8,-47.6,,0000*6A
$GNGGA,043343.00,0419.92811,S,05539.89701,E,2,12,0.83,15.8,M,-47.6,M,,0000*41
$GNGSA,A,3,24,20,05,13,15,22,14,18,,,,,1.52,0.83,1.27*1E
$GNGSA,A,3,86,74,75,87,73,71,72,,,,,,1.52,0.83,1.27*12
$GPGSV,5,1,18,05,53,146,40,06,00,029,,11,31,019,,12,25,355,*70
$GPGSV,5,2,18,13,23,164,39,14,07,123,30,15,27,200,25,18,16,225,19*7B
$GPGSV,5,3,18,20,50,081,35,22,19,106,28,24,63,264,37,25,03,331,*79
$GPGSV,5,4,18,29,11,291,,36,52,277,30,40,86,350,36,41,58,082,*78
$GPGSV,5,5,18,49,32,274,,50,10,089,*78
$GLGSV,3,1,11,70,00,095,,71,14,136,36,72,15,186,21,73,10,145,33*66
$GLGSV,3,2,11,74,49,117,28,75,53,019,31,76,05,342,,85,07,011,*62
$GLGSV,3,3,11,86,42,322,24,87,37,260,24,,,,28*6B
$GNGLL,0419.92811,S,05539.89701,E,043343.00,A,D*6E
$GNGRS,043343.00,1,0.0,-3.1,-0.6,2.1,2.2,10.4,-2.4,-1.7,,,,*61
$GNGRS,043343.00,1,-3.5,7.9,4.0,6.1,-2.5,-2.0,-19.6,,,,,*4D
$GNGST,043343.00,31,,,,2.7,2.4,4.1*4E
$GNZDA,043343.00,23,05,2025,00,00*7A
$GNGBS,043343.00,2.7,2.4,4.1,,,,*5A
$GNTXT,01,01,01,More than 100 frame errors, UART RX was disabled*70
b0p(5c&
{k#2Qj%?K#{4$V^:R 
Ya<F_G$2HI!
J1vK5LVUV*BTW%br$)%A$GNRMC,043344.00,A,0419.92809,S,05539.89698,E,0.016,,230525,,,D*7C
$GNVTG,,T,,M,0.016,N,0.030,K,D*3C
$GNGNS,043344.00,0419.92809,S,05539.89698,E,DA,15,0.83,15.7,-47.6,,0000*6A
$GNGGA,043344.00,0419.92809,S,05539.89698,E,2,12,0.83,15.7,M,-47.6,M,,0000*41
$GNGSA,A,3,24,20,05,13,15,22,14,18,,,,,1.52,0.83,1.27*1E
$GNGSA,A,3,86,74,75,87,73,71,72,,,,,,1.52,0.83,1.27*12
$GPGSV,5,1,18,05,53,146,40,06,00,029,,11,31,019,,12,25,355,*70
$GPGSV,5,2,18,13,23,164,38,14,07,123,30,15,27,200,23,18,16,225,20*76
$GPGSV,5,3,18,20,50,081,35,22,19,106,30,24,63,264,37,25,03,331,*70
$GPGSV,5,4,18,29,11,291,,36,52,277,31,40,86,350,36,41,58,082,*79
$GPGSV,5,5,18,49,32,274,,50,10,089,*78
$GLGSV,3,1,11,70,00,095,,71,14,136,36,72,15,186,22,73,10,145,33*65
$GLGSV,3,2,11,74,49,118,28,75,53,019,31,76,05,342,,85,07,011,*6D
$GLGSV,3,3,11,86,42,322,22,87,37,260,24,,,,27*62
$GNGLL,0419.92809,S,05539.89698,E,043344.00,A,D*61
$GNGRS,043344.00,1,0.0,-1.2,-0.6,2.1,1.7,9.2,-3.6,-1.5,,,,*5E
$GNGRS,043344.00,1,-4.3,7.4,4.4,9.0,-3.5,-2.1,-19.1,,,,,*4B
$GNGST,043344.00,31,,,,2.7,2.4,4.0*48
$GNZDA,043344.00,23,05,2025,00,00*7D
$GNGBS,043344.00,2.7,2.4,4.0,,,,*5C
$GNTXT,01,01,01,More than 100 frame errors, UART RX was disabled*70
b0px)5c&
{XD?%2Qj&?K#{ 4$V^:R 
Ya|F_G$+H.I"
J1vK6LVUV*BzW%Lbxr-%$GNRMC,043345.00,A,0419.92806,S,05539.89691,E,0.035,,230525,,,D*7A
$GNVTG,,T,,M,0.035,N,0.065,K,D*3D
$GNGNS,043345.00,0419.92806,S,05539.89691,E,DA,15,0.83,15.5,-47.6,,0000*6F
$GNGGA,043345.00,0419.92806,S,05539.89691,E,2,12,0.83,15.5,M,-47.6,M,,0000*44
$GNGSA,A,3,24,20,05,13,15,22,14,18,,,,,1.52,0.83,1.27*1E
$GNGSA,A,3,86,74,75,87,73,71,72,,,,,,1.52,0.83,1.27*12
$GPGSV,5,1,18,05,53,146,41,06,00,029,,11,31,019,,12,25,355,*71
$GPGSV,5,2,18,13,23,164,38,14,07,123,30,15,27,200,23,18,16,225,20*76
$GPGSV,5,3,18,20,50,081,37,22,19,106,28,24,63,264,38,25,03,331,*74
$GPGSV,5,4,18,29,11,291,,36,52,277,32,40,86,350,36,41,58,082,*7A
$GPGSV,5,5,18,49,32,274,,50,10,089,*78
$GLGSV,3,1,11,70,00,095,,71,14,136,36,72,15,186,22,73,10,145,34*62
$GLGSV,3,2,11,74,49,118,29,75,54,020,31,76,05,342,,85,07,011,*61
$GLGSV,3,3,11,86,42,322,22,87,37,260,24,,,,24*61
$GNGLL,0419.92806,S,05539.89691,E,043345.00,A,D*66
$GNGRS,043345.00,1,-0.2,-1.3,-1.0,2.1,0.7,6.6,-4.2,-1.9,,,,*73
$GNGRS,043345.00,1,-3.9,6.9,2.6,9.5,-5.2,-2.1,-20.0,,,,,*40
$GNGST,043345.00,31,,,,2.6,2.3,3.9*41
$GNZDA,043345.00,23,05,2025,00,00*7C
$GNGBS,043345.00,2.6,2.3,3.9,,,,*55
$GNTXT,01,01,01,More than 100 frame errors, UART RX was disabled*70
b0p`(5c&
{n$2Q~ji%?K#{4$V^:R 
YaF_G$3HJI!
KJ1v8K6SLVUV*BMW%;Hb`r0%Y$GNRMC,043346.00,A,0419.92805,S,05539.89683,E,0.125,,230525,,,D*79
$GNVTG,,T,,M,0.125,N,0.232,K,D*3D
$GNGNS,043346.00,0419.92805,S,05539.89683,E,DA,15,0.83,15.3,-47.6,,0000*6A
$GNGGA,043346.00,0419.92805,S,05539.89683,E,2,12,0.83,15.3,M,-47.6,M,,0000*41
$GNGSA,A,3,24,20,05,13,15,22,14,18,,,,,1.52,0.83,1.27*1E
$GNGSA,A,3,86,74,75,87,73,71,72,,,,,,1.52,0.83,1.27*12
$GPGSV,5,1,18,05,53,146,40,06,00,029,,11,31,019,,12,25,355,*70
$GPGSV,5,2,18,13,23,164,38,14,07,123,30,15,27,200,24,18,16,225,21*70
$GPGSV,5,3,18,20,50,081,36,22,19,106,29,24,63,264,37,25,03,331,*7B
$GPGSV,5,4,18,29,11,291,,36,52,277,30,40,86,350,36,41,58,082,*78
$GPGSV,5,5,18,49,32,274,,50,10,089,*78
$GLGSV,3,1,11,70,00,095,,71,14,136,36,72,15,186,22,73,10,145,33*65
$GLGSV,3,2,11,74,49,118,29,75,54,020,31,76,05,342,,85,07,011,*61
$GLGSV,3,3,11,86,42,322,22,87,37,260,25,,,,23*67
$GNGLL,0419.92805,S,05539.89683,E,043346.00,A,D*65
$GNGRS,043346.00,1,-0.1,-1.3,-1.1,2.5,-0.8,1.0,1.1,-0.5,,,,*73
$GNGRS,043346.00,1,-1.8,8.2,-1.7,8.3,-4.4,-2.0,-19.7,,,,,*66
$GNGST,043346.00,30,,,,2.6,2.3,3.9*43
$GNZDA,043346.00,23,05,2025,00,00*7F
$GNGBS,043346.00,2.6,2.3,3.9,,,,*56
$GNTXT,01,01,01,More than 100 frame errors, UART RX was disabled*70
b0pH(5c&
{#2Qj%?K#{4$V^:R 
YaF_G$*HI!
.J1vK6LVUV*BmW%'wbHr4%1v$GNRMC,043347.00,A,0419.92810,S,05539.89678,E,0.091,,230525,,,D*76
$GNVTG,,T,,M,0.091,N,0.168,K,D*3F
$GNGNS,043347.00,0419.92810,S,05539.89678,E,DA,15,0.85,15.2,-47.6,,0000*6C
$GNGGA,043347.00,0419.92810,S,05539.89678,E,2,12,0.85,15.2,M,-47.6,M,,0000*47
$GNGSA,A,3,24,20,05,13,15,22,14,18,,,,,1.53,0.85,1.28*16
$GNGSA,A,3,86,74,75,87,73,71,72,,,,,,1.53,0.85,1.28*1A
$GPGSV,5,1,18,05,53,146,40,06,00,029,,11,31,019,,12,25,355,21*73
$GPGSV,5,2,18,13,23,164,38,14,07,123,30,15,27,200,26,18,16,225,20*73
$GPGSV,5,3,18,20,50,081,35,22,19,106,31,24,63,264,37,25,03,331,*71
$GPGSV,5,4,18,29,11,291,,36,52,277,31,40,86,350,36,41,58,082,*79
$GPGSV,5,5,18,49,32,274,,50,10,089,*78
$GLGSV,3,1,11,70,00,095,,71,14,136,36,72,15,186,20,73,10,145,33*67
$GLGSV,3,2,11,74,49,118,28,75,54,020,31,76,05,342,,85,07,011,*60
$GLGSV,3,3,11,86,42,322,23,87,37,260,24,,,,22*66
$GNGLL,0419.92810,S,05539.89678,E,043347.00,A,D*64
$GNGRS,043347.00,1,-0.1,-3.1,-1.1,2.7,-0.5,2.6,-2.8,-0.5,,,,*5F
$GNGRS,043347.00,1,-1.5,7.7,-3.1,5.5,-4.7,-2.1,-20.2,,,,,*62
$GNGST,043347.00,28,,,,2.6,2.3,3.8*4A
$GNZDA,043347.00,23,05,2025,00,00*7E
$GNGBS,043347.00,2.6,2.3,3.8,,,,*56
$GNTXT,01,01,01,More than 100 frame errors, UART RX was disabled*70
b0p0(5c&'
{m
"2Q j]%?K#{4$V^&:R 
YaF_G$)HI"
J1vK6GLVUV*BW%b0r8%$GNRMC,043348.00,A,0419.92808,S,05539.89670,E,0.144,,230525,,,D*71
$GNVTG,,T,,M,0.144,N,0.266,K,D*3B
$GNGNS,043348.00,0419.92808,S,05539.89670,E,DA,15,0.83,15.0,-47.6,,0000*66
$GNGGA,043348.00,0419.92808,S,05539.89670,E,2,12,0.83,15.0,M,-47.6,M,,0000*4D
$GNGSA,A,3,24,20,05,13,15,22,14,18,,,,,1.52,0.83,1.27*1E
$GNGSA,A,3,86,74,75,87,73,71,72,,,,,,1.52,0.83,1.27*12
$GPGSV,5,1,18,05,53,146,40,06,00,029,,11,31,019,,12,25,355,*70
$GPGSV,5,2,18,13,23,164,38,14,07,123,30,15,27,200,25,18,16,225,21*71
$GPGSV,5,3,18,20,50,081,34,22,19,106,32,24,63,264,37,25,03,331,*73
$GPGSV,5,4,18,29,11,291,,36,52,277,30,40,86,350,36,41,58,082,38*73
$GPGSV,5,5,18,49,32,274,,50,10,089,*78
$GLGSV,3,1,11,70,00,095,,71,14,136,36,72,15,186,19,73,10,145,34*6A
$GLGSV,3,2,11,74,49,118,29,75,54,020,31,76,05,342,,85,07,011,*61
$GLGSV,3,3,11,86,42,322,24,87,37,260,24,,,,30*62
$GNGLL,0419.92808,S,05539.89670,E,043348.00,A,D*6A
$GNGRS,043348.00,1,-0.3,-1.0,-0.9,2.9,-1.5,0.9,-6.0,0.1,,,,*7F
$GNGRS,043348.00,1,-2.4,7.4,5.8,5.0,-5.1,-2.2,-17.7,,,,,*4E
$GNGST,043348.00,30,,,,2.6,2.3,3.8*4C
$GNZDA,043348.00,23,05,2025,00,00*71
$GNGBS,043348.00,2.6,2.3,3.8,,,,*59
$GNTXT,01,01,01,More than 100 frame errors, UART RX was disabled*70
b0p(5c&J
{=!2Q jt$?K#{4$V^&:R 
YaHF_G$%H3I!
J1v<K6LVUV*B|W%Abr<%F$GNRMC,043349.00,A,0419.92811,S,05539.89667,E,0.038,,230525,,,D*74
$GNVTG,,T,,M,0.038,N,0.071,K,D*35
$GNGNS,043349.00,0419.92811,S,05539.89667,E,DA,15,0.83,14.9,-47.6,,0000*61
$GNGGA,043349.00,0419.92811,S,05539.89667,E,2,12,0.83,14.9,M,-47.6,M,,0000*4A
$GNGSA,A,3,24,20,05,13,15,22,14,18,,,,,1.52,0.83,1.27*1E
$GNGSA,A,3,86,74,75,87,73,71,72,,,,,,1.52,0.83,1.27*12
$GPGSV,5,1,18,05,53,146,40,06,00,029,,11,31,019,,12,25,355,*70
$GPGSV,5,2,18,13,23,164,38,14,07,123,30,15,27,200,24,18,16,225,20*71
$GPGSV,5,3,18,20,50,081,33,22,19,106,32,24,63,264,36,25,03,331,*75
$GPGSV,5,4,18,29,11,291,,36,52,277,30,40,86,350,36,41,58,082,38*73
$GPGSV,5,5,18,49,32,274,,50,10,089,*78
$GLGSV,3,1,11,70,00,095,,71,14,136,36,72,15,186,19,73,10,145,33*6D
$GLGSV,3,2,11,74,49,118,29,75,54,020,31,76,05,342,,85,07,011,*61
$GLGSV,3,3,11,86,42,322,26,87,37,260,24,,,,29*68
$GNGLL,0419.92811,S,05539.89667,E,043349.00,A,D*65
$GNGRS,043349.00,1,-0.4,-0.3,-1.1,3.3,-2.0,-1.4,-3.2,-2.7,,,,*70
$GNGRS,043349.00,1,-3.9,8.3,2.5,4.2,-5.4,-2.2,-17.4,,,,,*44
$GNGST,043349.00,30,,,,2.5,2.3,3.8*4E
$GNZDA,043349.00,23,05,2025,00,00*70
$GNGBS,043349.00,2.5,2.3,3.8,,,,*5B
$GNTXT,01,01,01,More than 100 frame errors, UART RX was disabled*70
b0p(5c'^
{R!2Q]!j$?K#{4#V^&:R 
YaF_G$HI!
J1vGK6LVUV*BW%V{br@%$GNRMC,043350.00,A,0419.92813,S,05539.89659,E,0.060,,230525,,,D*7E
$GNVTG,,T,,M,0.060,N,0.110,K,D*3E
$GNGNS,043350.00,0419.92813,S,05539.89659,E,DA,15,0.83,14.6,-47.6,,0000*69
$GNGGA,043350.00,0419.92813,S,05539.89659,E,2,12,0.83,14.6,M,-47.6,M,,0000*42
$GNGSA,A,3,24,20,05,13,15,22,14,18,,,,,1.52,0.83,1.27*1E
$GNGSA,A,3,86,74,75,87,73,71,72,,,,,,1.52,0.83,1.27*12
$GPGSV,5,1,18,05,53,146,40,06,00,029,,11,31,019,,12,25,355,*70
$GPGSV,5,2,18,13,23,164,39,14,07,123,30,15,27,200,24,18,16,225,20*70
$GPGSV,5,3,18,20,50,081,33,22,19,106,33,24,63,264,36,25,03,331,*74
$GPGSV,5,4,18,29,11,291,,36,52,277,30,40,86,350,35,41,58,082,38*70
$GPGSV,5,5,18,49,32,274,,50,10,089,*78
$GLGSV,3,1,11,70,00,095,,71,14,136,36,72,15,186,19,73,10,145,33*6D
$GLGSV,3,2,11,74,49,118,29,75,54,020,31,76,05,342,,85,07,011,*61
$GLGSV,3,3,11,86,42,322,27,87,37,260,24,,,,27*67
$GNGLL,0419.92813,S,05539.89659,E,043350.00,A,D*62
$GNGRS,043350.00,1,-0.5,0.9,-1.3,3.5,-1.0,-0.2,-0.8,-1.7,,,,*54
$GNGRS,043350.00,1,-3.4,8.4,1.9,3.4,-5.3,-2.3,-18.1,,,,,*44
$GNGST,043350.00,30,,,,2.5,2.3,3.7*49
$GNZDA,043350.00,23,05,2025,00,00*78
$GNGBS,043350.00,2.5,2.3,3.7,,,,*5C
$GNTXT,01,01,01,More than 100 frame errors, UART RX was disabled*70
b0p(5zc(=
{^!2QS j$?K#{4#V^%:R 
YalF_G$HI"
J1vK6LVUV*BW%gbr|D%$GNRMC,043351.00,A,0419.92814,S,05539.89649,E,0.079,,230525,,,D*71
$GNVTG,,T,,M,0.079,N,0.146,K,D*35
$GNGNS,043351.00,0419.92814,S,05539.89649,E,DA,15,0.85,14.3,-47.6,,0000*6D
$GNGGA,043351.00,0419.92814,S,05539.89649,E,2,12,0.85,14.3,M,-47.6,M,,0000*46
$GNGSA,A,3,24,20,05,13,15,22,14,18,,,,,1.53,0.85,1.28*16
$GNGSA,A,3,86,74,75,87,73,71,72,,,,,,1.53,0.85,1.28*1A
$GPGSV,5,1,18,05,53,146,40,06,00,029,,11,31,019,,12,25,355,*70
$GPGSV,5,2,18,13,23,164,40,14,07,123,30,15,27,200,23,18,16,225,21*78
$GPGSV,5,3,18,20,50,081,33,22,19,106,32,24,63,264,36,25,03,331,*75
$GPGSV,5,4,18,29,11,291,,36,52,277,29,40,86,350,35,41,58,082,37*77
$GPGSV,5,5,18,49,32,274,,50,10,089,*78
$GLGSV,3,1,11,70,00,095,,71,14,136,36,72,15,186,20,73,10,145,34*60
$GLGSV,3,2,11,74,49,118,29,75,54,020,31,76,05,342,,85,07,011,*61
$GLGSV,3,3,11,86,42,322,28,87,37,260,25,,,,26*68
$GNGLL,0419.92814,S,05539.89649,E,043351.00,A,D*65
$GNGRS,043351.00,1,-0.5,0.8,-1.3,3.2,2.2,2.4,-0.8,0.9,,,,*74
$GNGRS,043351.00,1,-3.1,9.6,4.4,3.6,-5.6,-2.5,-20.8,,,,,*48
$GNGST,043351.00,27,,,,2.5,2.3,3.7*4E
$GNZDA,043351.00,23,05,2025,00,00*79
$GNGBS,043351.00,2.5,2.3,3.7,,,,*5D
$GNTXT,01,01,01,More than 100 frame errors, UART RX was disabled*70
b0p(5c'*
{v!2Qz j$?K#{4$V^%:R 
YaF_G'H>I%
J1vYK 6LVUV*BeW%@brdH%ho$GNRMC,043352.00,A,0419.92818,S,05539.89642,E,0.050,,230525,,,D*7E
$GNVTG,,T,,M,0.050,N,0.092,K,D*36
$GNGNS,043352.00,0419.92818,S,05539.89642,E,DA,15,0.83,14.2,-47.6,,0000*6E
$GNGGA,043352.00,0419.92818,S,05539.89642,E,2,12,0.83,14.2,M,-47.6,M,,0000*45
$GNGSA,A,3,24,20,05,13,15,22,14,18,,,,,1.52,0.83,1.27*1E
$GNGSA,A,3,86,74,75,87,73,71,72,,,,,,1.52,0.83,1.27*12
$GPGSV,5,1,18,05,53,146,40,06,00,029,,11,31,019,,12,25,355,20*72
$GPGSV,5,2,18,13,23,164,39,14,07,123,29,15,27,200,23,18,16,225,22*7D
$GPGSV,5,3,18,20,50,081,33,22,19,106,32,24,63,264,36,25,03,331,*75
$GPGSV,5,4,18,29,11,291,,36,52,277,30,40,86,350,36,41,58,082,37*7C
$GPGSV,5,5,18,49,32,274,,50,10,089,*78
$GLGSV,3,1,11,70,00,095,,71,14,136,39,72,15,186,20,73,10,145,37*6C
$GLGSV,3,2,11,74,49,118,29,75,54,020,32,76,05,342,,85,07,011,*62
$GLGSV,3,3,11,86,42,322,28,87,37,260,25,,,,26*68
$GNGLL,0419.92818,S,05539.89642,E,043352.00,A,D*61
$GNGRS,043352.00,1,-0.6,1.2,-1.3,3.0,4.0,2.2,-5.1,1.2,,,,*79
$GNGRS,043352.00,1,-4.1,11.1,-1.1,5.8,-5.2,-2.4,-19.9,,,,,*59
$GNGST,043352.00,28,,,,2.5,2.2,3.6*42
$GNZDA,043352.00,23,05,2025,00,00*7A
$GNGBS,043352.00,2.5,2.2,3.6,,,,*5E
$GNTXT,01,01,01,More than 100 frame errors, UART RX was disabled*70
b0p(5c'
{"2Qi!j)%?K#{4#V^%:R 
YaF_G%+HwI#
J1vK6LVUV*BW%VbrLL%@$GNRMC,043353.00,A,0419.92818,S,05539.89637,E,0.049,,230525,,,D*75
$GNVTG,,T,,M,0.049,N,0.090,K,D*3C
$GNGNS,043353.00,0419.92818,S,05539.89637,E,DA,15,0.83,14.0,-47.6,,0000*6F
$GNGGA,043353.00,0419.92818,S,05539.89637,E,2,12,0.83,14.0,M,-47.6,M,,0000*44
$GNGSA,A,3,24,20,05,13,15,22,14,18,,,,,1.52,0.83,1.27*1E
$GNGSA,A,3,86,74,75,87,73,71,72,,,,,,1.52,0.83,1.27*12
$GPGSV,5,1,18,05,53,146,40,06,00,029,,11,31,019,,12,25,355,*70
$GPGSV,5,2,18,13,23,164,39,14,07,123,29,15,27,200,26,18,16,225,22*78
$GPGSV,5,3,18,20,50,081,34,22,19,106,33,24,63,264,37,25,03,331,*72
$GPGSV,5,4,18,29,11,291,,36,52,277,30,40,86,350,35,41,58,082,37*7F
$GPGSV,5,5,18,49,32,274,,50,10,089,*78
$GLGSV,3,1,11,70,00,095,,71,14,136,37,72,15,186,20,73,10,145,35*60
$GLGSV,3,2,11,74,49,118,29,75,54,020,31,76,05,342,,85,07,011,*61
$GLGSV,3,3,11,86,42,322,28,87,37,260,26,,,,27*6A
$GNGLL,0419.92818,S,05539.89637,E,043353.00,A,D*62
$GNGRS,043353.00,1,-0.8,1.1,-1.3,2.5,2.7,3.0,-3.4,2.8,,,,*79
$GNGRS,043353.00,1,-3.8,10.5,2.3,5.1,-5.1,-2.1,-19.3,,,,,*7A
$GNGST,043353.00,28,,,,2.4,2.2,3.6*42
$GNZDA,043353.00,23,05,2025,00,00*7B
$GNGBS,043353.00,2.4,2.2,3.6,,,,*5E
$GNTXT,01,01,01,More than 100 frame errors, UART RX was disabled*70
b0p(5cc&
{b!2Q!j%?K#{4#V^%:R 
YaF_G%;HI$
J1vK6LVUV*B-W%br4P%?$GNRMC,043354.00,A,0419.92813,S,05539.89634,E,0.044,,230525,,,D*77
$GNVTG,,T,,M,0.044,N,0.081,K,D*31
$GNGNS,043354.00,0419.92813,S,05539.89634,E,DA,15,0.83,13.8,-47.6,,0000*6F
$GNGGA,043354.00,0419.92813,S,05539.89634,E,2,12,0.83,13.8,M,-47.6,M,,0000*44
$GNGSA,A,3,24,20,05,13,15,22,14,18,,,,,1.52,0.83,1.27*1E
$GNGSA,A,3,86,74,75,87,73,71,72,,,,,,1.52,0.83,1.27*12
$GPGSV,5,1,18,05,53,146,40,06,00,029,,11,31,019,,12,25,355,19*78
$GPGSV,5,2,18,13,23,164,38,14,07,123,30,15,27,200,27,18,16,225,23*71
$GPGSV,5,3,18,20,50,081,33,22,19,106,33,24,63,264,37,25,03,331,*75
$GPGSV,5,4,18,29,11,291,,36,52,277,30,40,86,350,35,41,58,082,37*7F
$GPGSV,5,5,18,49,32,274,,50,10,089,*78
$GLGSV,3,1,11,70,00,095,,71,14,136,37,72,15,186,20,73,10,145,36*63
$GLGSV,3,2,11,74,49,118,29,75,54,020,30,76,05,342,,85,07,011,*60
$GLGSV,3,3,11,86,42,322,28,87,37,260,26,,,,26*6B
$GNGLL,0419.92813,S,05539.89634,E,043354.00,A,D*6D
$GNGRS,043354.00,1,-0.9,1.3,-1.6,2.7,-0.4,2.5,0.3,1.0,,,,*70
$GNGRS,043354.00,1,-4.7,15.2,4.7,4.5,-5.3,-2.0,-18.7,,,,,*76
$GNGST,043354.00,28,,,,2.4,2.2,3.5*46
$GNZDA,043354.00,23,05,2025,00,00*7C
$GNGBS,043354.00,2.4,2.2,3.5,,,,*5A
$GNTXT,01,01,01,More than 100 frame errors, UART RX was disabled*70
b0p(5Nc'
{Nf!2Q!j%?K#{4$V^%:R 
YaF_G#,HI!
J1vMK6KLVUV*B8W%pJbrT%$GNRMC,043355.00,A,0419.92810,S,05539.89631,E,0.036,,230525,,,D*75
$GNVTG,,T,,M,0.036,N,0.067,K,D*3C
$GNGNS,043355.00,0419.92810,S,05539.89631,E,DA,15,0.83,13.5,-47.6,,0000*65
$GNGGA,043355.00,0419.92810,S,05539.89631,E,2,12,0.83,13.5,M,-47.6,M,,0000*4E
$GNGSA,A,3,24,20,05,13,15,22,14,18,,,,,1.52,0.83,1.27*1E
$GNGSA,A,3,86,74,75,87,73,71,72,,,,,,1.52,0.83,1.27*12
$GPGSV,5,1,18,05,53,146,40,06,00,029,,11,31,019,,12,25,355,*70
$GPGSV,5,2,18,13,23,164,39,14,07,123,30,15,27,200,27,18,16,225,22*71
$GPGSV,5,3,18,20,50,081,33,22,19,106,33,24,63,264,37,25,03,331,*75
$GPGSV,5,4,18,29,11,291,,36,52,277,30,40,86,350,36,41,58,082,37*7C
$GPGSV,5,5,18,49,32,274,,50,10,089,*78
$GLGSV,3,1,11,70,00,095,,71,14,136,35,72,15,186,19,73,10,145,33*6E
$GLGSV,3,2,11,74,49,118,27,75,54,020,29,76,05,342,,85,06,011,*67
$GLGSV,3,3,11,86,42,322,27,87,37,260,26,,,,26*64
$GNGLL,0419.92810,S,05539.89631,E,043355.00,A,D*6A
$GNGRS,043355.00,1,-0.8,1.6,-1.8,2.7,-0.5,2.4,3.3,1.0,,,,*78
$GNGRS,043355.00,1,-4.6,13.6,3.3,3.7,-5.5,-2.1,-16.5,,,,,*79
$GNGST,043355.00,29,,,,2.4,2.2,3.5*46
$GNZDA,043355.00,23,05,2025,00,00*7D
$GNGBS,043355.00,2.4,2.2,3.5,,,,*5B
$GNTXT,01,01,01,More than 100 frame errors, UART RX was disabled*70
b0pp(5Tc'
{l 2Q"j%?K#{4$V^&:R 
YaF_G%H7I!
J1vK6LVUV*C
W%IabprX%$GNRMC,043356.00,A,0419.92807,S,05539.89624,E,0.077,,230525,,,D*71
$GNVTG,,T,,M,0.077,N,0.143,K,D*3E
$GNGNS,043356.00,0419.92807,S,05539.89624,E,DA,15,0.83,13.2,-47.6,,0000*63
$GNGGA,043356.00,0419.92807,S,05539.89624,E,2,12,0.83,13.2,M,-47.6,M,,0000*48
$GNGSA,A,3,24,20,05,13,15,22,14,18,,,,,1.52,0.83,1.27*1E
$GNGSA,A,3,86,74,75,87,73,71,72,,,,,,1.52,0.83,1.27*12
$GPGSV,5,1,18,05,53,146,40,06,00,029,,11,31,019,,12,25,355,*70
$GPGSV,5,2,18,13,23,164,39,14,07,123,30,15,27,200,26,18,16,225,21*73
$GPGSV,5,3,18,20,50,081,32,22,19,106,34,24,63,264,37,25,03,331,*73
$GPGSV,5,4,18,29,11,291,,36,52,277,31,40,86,350,36,41,58,082,38*72
$GPGSV,5,5,18,49,32,274,,50,10,089,*78
$GLGSV,3,1,11,70,00,095,,71,14,136,37,72,15,186,17,73,10,145,33*62
$GLGSV,3,2,11,74,49,118,28,75,54,020,30,76,05,342,,85,06,011,*60
$GLGSV,3,3,11,86,42,323,27,87,37,260,25,,,,25*65
$GNGLL,0419.92807,S,05539.89624,E,043356.00,A,D*6B
$GNGRS,043356.00,1,-0.8,1.6,-1.7,2.5,-2.5,2.2,-0.4,1.1,,,,*5A
$GNGRS,043356.00,1,-5.0,9.6,1.7,5.9,-5.2,-2.4,-14.8,,,,,*45
$GNGST,043356.00,32,,,,2.4,2.2,3.5*4F
$GNZDA,043356.00,23,05,2025,00,00*7E
$GNGBS,043356.00,2.4,2.2,3.5,,,,*58
$GNTXT,01,01,01,More than 100 frame errors, UART RX was disabled*70
b0pX*5]c$
{!2Q!j%?K#{4$V^&:R 
Ya5F_G$HI 
J1vK6LVUV*CW%J*bXr[%t$GNRMC,043357.00,A,0419.92802,S,05539.89623,E,0.079,,230525,,,D*7C
$GNVTG,,T,,M,0.079,N,0.146,K,D*35
$GNGNS,043357.00,0419.92802,S,05539.89623,E,DA,15,0.83,13.1,-47.6,,0000*63
$GNGGA,043357.00,0419.92802,S,05539.89623,E,2,12,0.83,13.1,M,-47.6,M,,0000*48
$GNGSA,A,3,24,20,05,13,15,22,14,18,,,,,1.52,0.83,1.27*1E
$GNGSA,A,3,86,74,75,87,73,71,72,,,,,,1.52,0.83,1.27*12
$GPGSV,5,1,18,05,53,146,42,06,00,029,,11,31,019,,12,25,355,*72
$GPGSV,5,2,18,13,23,164,36,14,07,123,31,15,27,200,26,18,16,225,20*7C
$GPGSV,5,3,18,20,50,081,33,22,19,106,33,24,63,264,37,25,03,331,*75
$GPGSV,5,4,18,29,11,291,,36,52,277,30,40,86,350,36,41,58,082,38*73
$GPGSV,5,5,18,49,32,274,,50,10,089,*78
$GLGSV,3,1,11,70,00,095,,71,14,136,36,72,15,186,15,73,10,145,32*60
$GLGSV,3,2,11,74,49,118,29,75,54,020,30,76,05,342,,85,06,011,*61
$GLGSV,3,3,11,86,42,323,28,87,37,261,25,,,,26*68
$GNGLL,0419.92802,S,05539.89623,E,043357.00,A,D*68
$GNGRS,043357.00,1,-0.9,1.6,-1.6,2.5,-3.5,2.3,-2.5,2.4,,,,*5E
$GNGRS,043357.00,1,-5.0,8.0,5.4,3.3,-5.3,-2.7,-15.8,,,,,*4B
$GNGST,043357.00,34,,,,2.4,2.1,3.5*4B
$GNZDA,043357.00,23,05,2025,00,00*7F
$GNGBS,043357.00,2.4,2.1,3.5,,,,*5A
$GNTXT,01,01,01,More than 100 frame errors, UART RX was disabled*70
b0p@)5c'
 {Z!2Q j$?|K#{4"V^(:R 
YaF_G$HI 
J1vgK6LVUV*CW%{b@r_%w$GNRMC,043358.00,A,0419.92800,S,05539.89620,E,0.053,,230525,,,D*7A
$GNVTG,,T,,M,0.053,N,0.099,K,D*3E
$GNGNS,043358.00,0419.92800,S,05539.89620,E,DA,15,0.83,13.0,-47.6,,0000*6C
$GNGGA,043358.00,0419.92800,S,05539.89620,E,2,12,0.83,13.0,M,-47.6,M,,0000*47
$GNGSA,A,3,24,20,05,13,15,22,14,18,,,,,1.52,0.83,1.27*1E
$GNGSA,A,3,86,74,75,87,73,71,72,,,,,,1.52,0.83,1.27*12
$GPGSV,5,1,18,05,53,146,41,06,00,029,,11,31,019,,12,25,355,22*71
$GPGSV,5,2,18,13,23,164,39,14,07,123,32,15,27,200,27,18,16,225,20*71
$GPGSV,5,3,18,20,50,081,33,22,19,106,32,24,63,264,36,25,03,331,*75
$GPGSV,5,4,18,29,11,291,,36,52,277,30,40,86,350,34,41,58,082,40*7E
$GPGSV,5,5,18,49,32,274,,50,10,089,*78
$GLGSV,3,1,11,70,00,095,,71,14,136,36,72,15,186,17,73,10,145,32*62
$GLGSV,3,2,11,74,49,118,31,75,54,020,30,76,05,342,,85,06,011,*68
$GLGSV,3,3,11,86,42,323,28,87,37,261,25,,,,24*6A
$GNGLL,0419.92800,S,05539.89620,E,043358.00,A,D*66
$GNGRS,043358.00,1,-1.3,1.5,-1.2,2.2,-4.2,1.8,-2.7,1.3,,,,*54
$GNGRS,043358.00,1,-2.7,8.7,5.1,4.3,-5.3,-2.8,-15.9,,,,,*4F
$GNGST,043358.00,32,,,,2.4,2.1,3.4*43
$GNZDA,043358.00,23,05,2025,00,00*70
$GNGBS,043358.00,2.4,2.1,3.4,,,,*54
$GNTXT,01,01,01,More than 100 frame errors, UART RX was disabled*70
b0p()5c'
 {"2Q j"?K#{4!V^':R 
YaF_G$HcI
J1vK6LVUV*CW%b(rc%OD$GNRMC,043359.00,A,0419.92798,S,05539.89617,E,0.056,,230525,,,D*74
$GNVTG,,T,,M,0.056,N,0.104,K,D*3E
$GNGNS,043359.00,0419.92798,S,05539.89617,E,DA,15,0.83,12.8,-47.6,,0000*6E
$GNGGA,043359.00,0419.92798,S,05539.89617,E,2,12,0.83,12.8,M,-47.6,M,,0000*45
$GNGSA,A,3,24,20,05,13,15,22,14,18,,,,,1.52,0.83,1.27*1E
$GNGSA,A,3,86,74,75,87,73,71,72,,,,,,1.52,0.83,1.27*12
$GPGSV,5,1,18,05,53,146,41,06,00,029,,11,31,019,,12,25,355,*71
$GPGSV,5,2,18,13,23,164,39,14,07,123,32,15,27,200,27,18,16,225,21*70
$GPGSV,5,3,18,20,50,081,34,22,19,106,32,24,63,264,34,25,03,331,*70
$GPGSV,5,4,18,29,11,291,,36,52,277,29,40,86,350,33,41,58,082,39*7F
$GPGSV,5,5,18,49,32,274,,50,10,089,*78
$GLGSV,3,1,11,70,00,095,,71,14,136,36,72,15,186,18,73,10,145,31*6E
$GLGSV,3,2,11,74,49,118,31,75,54,020,29,76,05,342,,85,06,011,*60
$GLGSV,3,3,11,86,42,323,26,87,37,261,25,,,,26*66
$GNGLL,0419.92798,S,05539.89617,E,043359.00,A,D*6D
$GNGRS,043359.00,1,-1.2,1.6,-1.1,1.9,-2.8,2.0,-2.4,1.9,,,,*52
$GNGRS,043359.00,1,-2.4,9.0,5.2,2.7,-5.1,-3.0,-16.9,,,,,*42
$GNGST,043359.00,32,,,,2.4,2.1,3.4*42
$GNZDA,043359.00,23,05,2025,00,00*71
$GNGBS,043359.00,2.4,2.1,3.4,,,,*55
$GNTXT,01,01,01,More than 100 frame errors, UART RX was disabled*70
b0p(5c'
{DY 2Q j#?K#{4%V^&:R 
YaF_G$H+I 
J1vKK69LVUV*C^W% wbrg%'$GNRMC,043400.00,A,0419.92794,S,05539.89611,E,0.165,,230525,,,D*74
$GNVTG,,T,,M,0.165,N,0.306,K,D*3F
$GNGNS,043400.00,0419.92794,S,05539.89611,E,DA,15,0.83,12.6,-47.6,,0000*61
$GNGGA,043400.00,0419.92794,S,05539.89611,E,2,12,0.83,12.6,M,-47.6,M,,0000*4A
$GNGSA,A,3,24,20,05,13,15,22,14,18,,,,,1.52,0.83,1.27*1E
$GNGSA,A,3,86,74,75,87,73,71,72,,,,,,1.52,0.83,1.27*12
$GPGSV,5,1,18,05,53,146,40,06,00,029,,11,31,019,,12,25,355,*70
$GPGSV,5,2,18,13,23,164,39,14,07,123,30,15,27,200,27,18,16,225,21*72
$GPGSV,5,3,18,20,50,081,32,22,19,106,32,24,63,264,35,25,03,331,*77
$GPGSV,5,4,18,29,11,291,,36,52,277,29,40,86,350,37,41,58,082,38*7A
$GPGSV,5,5,18,49,32,274,,50,10,089,*78
$GLGSV,3,1,11,70,00,095,,71,14,136,36,72,15,186,17,73,10,145,32*62
$GLGSV,3,2,11,74,49,118,30,75,54,020,28,76,05,342,,85,06,011,*60
$GLGSV,3,3,11,86,42,323,27,87,37,261,24,,,,26*66
$GNGLL,0419.92794,S,05539.89611,E,043400.00,A,D*6C
$GNGRS,043400.00,1,-1.0,1.8,-1.0,2.0,-1.7,1.9,3.2,2.0,,,,*78
$GNGRS,043400.00,1,-1.6,11.0,8.2,2.9,-2.6,-3.6,-17.5,,,,,*79
$GNGST,043400.00,33,,,,2.4,2.1,3.4*48
$GNZDA,043400.00,23,05,2025,00,00*7A
$GNGBS,043400.00,2.4,2.1,3.4,,,,*5E
$GNTXT,01,01,01,More than 100 frame errors, UART RX was disabled*70
b0p%5c%
{8F4 2Qj%?K#{"4&V^&:R 
Ya(F_G%H!I"
J1vK6(LVUV*CZW%%brk%$GNRMC,043401.00,A,0419.92790,S,05539.89610,E,0.125,,230525,,,D*74
$GNVTG,,T,,M,0.125,N,0.232,K,D*3D
$GNGNS,043401.00,0419.92790,S,05539.89610,E,DA,15,0.83,12.7,-47.6,,0000*64
$GNGGA,043401.00,0419.92790,S,05539.89610,E,2,12,0.83,12.7,M,-47.6,M,,0000*4F
$GNGSA,A,3,24,20,05,13,15,22,14,18,,,,,1.52,0.83,1.27*1E
$GNGSA,A,3,86,74,75,87,73,71,72,,,,,,1.52,0.83,1.27*12
$GPGSV,5,1,18,05,53,146,37,06,00,029,,11,31,019,,12,25,355,*70
$GPGSV,5,2,18,13,23,164,37,14,07,123,31,15,27,200,27,18,16,225,19*76
$GPGSV,5,3,18,20,50,081,32,22,19,106,30,24,63,264,37,25,03,331,*77
$GPGSV,5,4,18,29,11,291,,36,52,277,34,40,86,350,38,41,58,082,38*79
$GPGSV,5,5,18,49,32,274,,50,10,089,*78
$GLGSV,3,1,11,70,00,095,,71,14,136,37,72,15,186,17,73,10,145,34*65
$GLGSV,3,2,11,74,49,118,29,75,54,020,27,76,05,342,,85,06,011,*67
$GLGSV,3,3,11,86,42,323,27,87,37,261,24,,,,27*67
$GNGLL,0419.92790,S,05539.89610,E,043401.00,A,D*68
$GNGRS,043401.00,1,-0.9,2.0,-0.9,2.1,-1.9,1.9,0.6,3.1,,,,*7A
$GNGRS,043401.00,1,-4.2,10.2,5.5,2.9,-2.5,-3.4,-17.6,,,,,*72
$GNGST,043401.00,31,,,,2.4,2.1,3.5*4A
$GNZDA,043401.00,23,05,2025,00,00*7B
$GNGBS,043401.00,2.4,2.1,3.5,,,,*5E
$GNTXT,01,01,01,More than 100 frame errors, UART RX was disabled*70
b0p$5xc#
{2QDjX&?K#{"4%V^#:R 
YaF_G%HI"
J1vK6LVUV*C.W%brto%m$GNRMC,043402.00,A,0419.92789,S,05539.89614,E,0.081,,230525,,,D*74
$GNVTG,,T,,M,0.081,N,0.150,K,D*35
$GNGNS,043402.00,0419.92789,S,05539.89614,E,DA,15,0.83,12.8,-47.6,,0000*64
$GNGGA,043402.00,0419.92789,S,05539.89614,E,2,12,0.83,12.8,M,-47.6,M,,0000*4F
$GNGSA,A,3,24,20,05,13,15,22,14,18,,,,,1.52,0.83,1.27*1E
$GNGSA,A,3,86,74,75,87,73,71,72,,,,,,1.52,0.83,1.27*12
$GPGSV,5,1,18,05,53,146,36,06,00,029,,11,31,019,,12,25,355,*71
$GPGSV,5,2,18,13,23,164,35,14,07,123,30,15,27,200,17,18,16,225,20*7C
$GPGSV,5,3,18,20,50,081,27,22,19,106,29,24,63,264,38,25,03,331,*74
$GPGSV,5,4,18,29,11,291,,36,52,277,34,40,86,350,37,41,58,082,35*7B
$GPGSV,5,5,18,49,32,274,,50,10,089,*78
$GLGSV,3,1,11,70,00,095,,71,14,136,37,72,15,186,14,73,10,145,34*66
$GLGSV,3,2,11,74,49,118,30,75,54,020,26,76,05,342,,85,06,011,*6E
$GLGSV,3,3,11,86,42,323,24,87,37,261,27,,,,26*66
$GNGLL,0419.92789,S,05539.89614,E,043402.00,A,D*67
$GNGRS,043402.00,1,-0.5,3.2,-1.4,2.1,-1.3,0.9,4.0,1.4,,,,*74
$GNGRS,043402.00,1,-4.7,15.4,7.0,2.4,-0.1,-3.4,-18.6,,,,,*74
$GNGST,043402.00,37,,,,2.4,2.1,3.5*4F
$GNZDA,043402.00,23,05,2025,00,00*78
$GNGBS,043402.00,2.4,2.1,3.5,,,,*5D
$GNTXT,01,01,01,More than 100 frame errors, UART RX was disabled*70
b0p6c 
{ 2QPj&?K#{%4%V^':R 
YaF_GHlI"
J1v)K6LVUV*CW%c8br\s%$GNRMC,043403.00,A,0419.92791,S,05539.89615,E,0.068,,230525,,,D*7A
$GNVTG,,T,,M,0.068,N,0.126,K,D*33
$GNGNS,043403.00,0419.92791,S,05539.89615,E,DA,15,0.83,12.9,-47.6,,0000*6C
$GNGGA,043403.00,0419.92791,S,05539.89615,E,2,12,0.83,12.9,M,-47.6,M,,0000*47
$GNGSA,A,3,24,20,05,13,15,22,14,18,,,,,1.52,0.83,1.27*1E
$GNGSA,A,3,86,74,75,87,73,71,72,,,,,,1.52,0.83,1.27*12
$GPGSV,5,1,18,05,54,145,29,06,00,029,,11,31,019,,12,25,355,22*7B
$GPGSV,5,2,18,13,23,164,32,14,07,123,20,15,27,200,21,18,16,225,18*74
$GPGSV,5,3,18,20,50,081,32,22,19,106,28,24,63,264,38,25,03,331,*71
$GPGSV,5,4,18,29,11,291,,36,52,277,37,40,86,350,37,41,58,082,39*74
$GPGSV,5,5,18,49,32,274,,50,10,089,*78
$GLGSV,3,1,11,70,00,095,,71,14,136,31,72,15,186,14,73,10,145,34*60
$GLGSV,3,2,11,74,49,118,19,75,54,020,26,76,05,342,,85,06,011,*65
$GLGSV,3,3,11,86,42,323,25,87,37,261,27,,,,24*65
$GNGLL,0419.92791,S,05539.89615,E,043403.00,A,D*6E
$GNGRS,043403.00,1,-0.2,0.8,-0.8,2.1,-3.6,-0.4,1.7,4.1,,,,*53
$GNGRS,043403.00,1,-5.2,15.8,6.9,2.4,-3.0,-3.5,-19.4,,,,,*75
$GNGST,043403.00,42,,,,2.4,2.1,3.6*4F
$GNZDA,043403.00,23,05,2025,00,00*79
$GNGBS,043403.00,2.4,2.1,3.6,,,,*5F
$GNTXT,01,01,01,More than 100 frame errors, UART RX was disabled*70
b0p6cI!
{2Qj'?K#{%4(V^':R 
YaF_G"HI!
LJ1vK6DLVUV *C,W%XulbrDw%=$GNRMC,043404.00,A,0419.92798,S,05539.89615,E,0.262,,230525,,,D*7C
$GNVTG,,T,,M,0.262,N,0.485,K,D*37
$GNGNS,043404.00,0419.92798,S,05539.89615,E,DA,15,0.83,13.0,-47.6,,0000*6A
$GNGGA,043404.00,0419.92798,S,05539.89615,E,2,12,0.83,13.0,M,-47.6,M,,0000*41
$GNGSA,A,3,24,20,05,13,15,22,14,18,,,,,1.52,0.83,1.27*1E
$GNGSA,A,3,86,74,75,87,73,71,72,,,,,,1.52,0.83,1.27*12
$GPGSV,5,1,18,05,54,145,30,06,00,029,,11,31,019,,12,25,355,23*72
$GPGSV,5,2,18,13,23,164,33,14,07,123,20,15,27,200,23,18,16,225,16*79
$GPGSV,5,3,18,20,50,081,29,22,19,106,28,24,63,264,39,25,03,331,*7A
$GPGSV,5,4,18,29,11,291,,36,52,277,37,40,86,350,40,41,58,082,39*74
$GPGSV,5,5,18,49,32,274,,50,10,089,*78
$GLGSV,3,1,11,70,00,095,,71,14,136,34,72,15,186,17,73,10,145,33*61
$GLGSV,3,2,11,74,49,118,20,75,54,020,24,76,05,342,,85,06,011,*6D
$GLGSV,3,3,11,86,42,323,32,87,37,261,24,,,,24*60
$GNGLL,0419.92798,S,05539.89615,E,043404.00,A,D*60
$GNGRS,043404.00,1,-0.3,1.4,-0.1,1.8,-5.8,-0.8,-7.9,1.7,,,,*79
$GNGRS,043404.00,1,-4.7,17.6,5.8,3.4,-4.4,-3.5,-18.5,,,,,*7A
$GNGST,043404.00,40,,,,2.5,2.1,3.7*4A
$GNZDA,043404.00,23,05,2025,00,00*7E
$GNGBS,043404.00,2.5,2.1,3.7,,,,*58
$GNTXT,01,01,01,More than 100 frame errors, UART RX was disabled*70
b0p%6Gc'
{~2Qj'?K#{#4#V^:R 
YaF_G&HtI
J1vK6LVUV"*CW%DUbr,{%_$GNRMC,043405.00,A,0419.92806,S,05539.89614,E,0.377,,230525,,,D*71
$GNVTG,,T,,M,0.377,N,0.698,K,D*3C
$GNGNS,043405.00,0419.92806,S,05539.89614,E,DA,16,0.69,13.0,-47.6,,0000*65
$GNGGA,043405.00,0419.92806,S,05539.89614,E,2,12,0.69,13.0,M,-47.6,M,,0000*4D
$GNGSA,A,3,24,20,05,13,15,22,12,14,18,,,,1.33,0.69,1.13*19
$GNGSA,A,3,86,74,75,87,73,71,72,,,,,,1.33,0.69,1.13*16
$GPGSV,5,1,18,05,54,145,37,06,00,029,,11,31,019,,12,25,355,24*72
$GPGSV,5,2,18,13,23,164,39,14,07,123,30,15,27,200,23,18,16,225,17*73
$GPGSV,5,3,18,20,50,081,29,22,19,106,28,24,63,264,39,25,03,331,*7A
$GPGSV,5,4,18,29,11,291,,36,52,277,35,40,86,350,35,41,58,082,29*75
$GPGSV,5,5,18,49,32,274,,50,10,089,*78
$GLGSV,3,1,11,70,00,095,,71,14,136,38,72,15,186,21,73,10,145,29*63
$GLGSV,3,2,11,74,49,118,21,75,54,020,25,76,05,342,,85,06,011,*6D
$GLGSV,3,3,11,86,42,323,34,87,37,261,25,,,,25*66
$GNGLL,0419.92806,S,05539.89614,E,043405.00,A,D*68
$GNGRS,043405.00,1,1.3,0.0,0.7,1.6,-6.3,2.0,5.2,-1.3,1.9,,,*70
$GNGRS,043405.00,1,-1.0,17.7,7.3,2.6,-5.1,-3.6,-19.3,,,,,*72
$GNGST,043405.00,35,,,,2.4,2.1,3.8*47
$GNZDA,043405.00,23,05,2025,00,00*7F
$GNGBS,043405.00,2.4,2.1,3.8,,,,*57
$GNTXT,01,01,01,More than 100 frame errors, UART RX was disabled*70
b0p6ec!
{2QVj!?K#{4#V^&:R 
YaF_G"H|I
%J1vK6LVUV*CW%V/br%7$GNRMC,043406.00,A,0419.92804,S,05539.89617,E,0.264,,230525,,,D*70
$GNVTG,,T,,M,0.264,N,0.489,K,D*3D
$GNGNS,043406.00,0419.92804,S,05539.89617,E,DA,16,0.71,12.9,-47.6,,0000*66
$GNGGA,043406.00,0419.92804,S,05539.89617,E,2,12,0.71,12.9,M,-47.6,M,,0000*4E
$GNGSA,A,3,24,20,05,13,15,22,12,14,18,,,,1.43,0.71,1.24*13
$GNGSA,A,3,86,74,75,87,73,71,72,,,,,,1.43,0.71,1.24*1C
$GPGSV,5,1,18,05,54,145,27,06,00,029,,11,31,019,,12,25,355,21*76
$GPGSV,5,2,18,13,23,164,33,14,07,123,26,15,27,200,23,18,16,225,17*7E
$GPGSV,5,3,18,20,50,081,28,22,19,106,29,24,63,264,33,25,03,331,*70
$GPGSV,5,4,18,29,11,291,,36,52,277,27,40,86,350,35,41,58,082,38*76
$GPGSV,5,5,18,49,32,274,,50,10,089,*78
$GLGSV,3,1,11,70,00,095,,71,14,136,34,72,15,186,20,73,10,145,29*6E
$GLGSV,3,2,11,74,49,118,21,75,54,020,30,76,05,342,,85,06,011,*69
$GLGSV,3,3,11,86,42,323,30,87,37,261,22,,,,24*64
$GNGLL,0419.92804,S,05539.89617,E,043406.00,A,D*6A
$GNGRS,043406.00,1,0.0,0.9,3.6,1.4,-5.4,-0.9,4.3,-3.4,1.5,,,*53
$GNGRS,043406.00,1,1.9,20.2,7.8,3.4,-4.8,-3.5,-16.7,,,,,*5C
$GNGST,043406.00,36,,,,2.5,2.1,3.9*47
$GNZDA,043406.00,23,05,2025,00,00*7C
$GNGBS,043406.00,2.5,2.1,3.9,,,,*54
$GNTXT,01,01,01,More than 100 frame errors, UART RX was disabled*70
b0ph#6_c%
#{A"2Qj* ?K#{4 V^':R 
YaF_G&HI 
eJ1vK6LVUV*CtW%{bhr%$GNRMC,043407.00,A,0419.92810,S,05539.89618,E,0.165,,230525,,,D*79
$GNVTG,,T,,M,0.165,N,0.306,K,D*3F
$GNGNS,043407.00,0419.92810,S,05539.89618,E,DA,16,0.71,13.0,-47.6,,0000*65
$GNGGA,043407.00,0419.92810,S,05539.89618,E,2,12,0.71,13.0,M,-47.6,M,,0000*4D
$GNGSA,A,3,24,20,05,13,15,22,12,14,18,,,,1.43,0.71,1.24*13
$GNGSA,A,3,86,74,75,87,73,71,72,,,,,,1.43,0.71,1.24*1C
$GPGSV,5,1,18,05,54,145,35,06,00,029,,11,31,019,,12,25,355,19*7E
$GPGSV,5,2,18,13,23,164,37,14,07,123,35,15,27,200,22,18,16,225,18*76
$GPGSV,5,3,18,20,50,081,34,22,19,106,31,24,63,264,32,25,03,331,*75
$GPGSV,5,4,18,29,11,291,,36,52,277,31,40,86,350,32,41,58,082,39*77
$GPGSV,5,5,18,49,32,274,,50,10,089,*78
$GLGSV,3,1,11,70,00,095,,71,14,136,38,72,15,186,19,73,10,145,32*62
$GLGSV,3,2,11,74,49,118,25,75,54,020,23,76,05,342,,85,06,011,*6F
$GLGSV,3,3,11,86,42,323,30,87,37,261,20,,,,24*66
$GNGLL,0419.92810,S,05539.89618,E,043407.00,A,D*61
$GNGRS,043407.00,1,-3.2,-1.0,1.0,1.3,-2.9,0.4,-4.8,0.6,2.1,,,*7F
$GNGRS,043407.00,1,1.2,19.8,6.5,2.3,3.6,-3.1,-15.6,,,,,*7E
$GNGST,043407.00,34,,,,2.5,2.2,3.9*47
$GNZDA,043407.00,23,05,2025,00,00*7D
$GNGBS,043407.00,2.5,2.2,3.9,,,,*56
$GNTXT,01,01,01,More than 100 frame errors, UART RX was disabled*70
b0pP6c&
{|2Qjs ?K#{4%V^:R 
Ya@F_G$HI
%J1v_K6+LVUV*CW%bPr%$GNRMC,043408.00,A,0419.92813,S,05539.89621,E,0.147,,230525,,,D*7F
$GNVTG,,T,,M,0.147,N,0.272,K,D*3D
$GNGNS,043408.00,0419.92813,S,05539.89621,E,DA,16,0.69,13.0,-47.6,,0000*6A
$GNGGA,043408.00,0419.92813,S,05539.89621,E,2,12,0.69,13.0,M,-47.6,M,,0000*42
$GNGSA,A,3,24,20,05,13,15,22,12,14,18,,,,1.33,0.69,1.13*19
$GNGSA,A,3,86,74,75,87,73,71,72,,,,,,1.33,0.69,1.13*16
$GPGSV,5,1,18,05,54,145,29,06,00,029,,11,31,019,,12,25,355,18*72
$GPGSV,5,2,18,13,23,164,38,14,07,123,27,15,27,200,19,18,16,225,19*73
$GPGSV,5,3,18,20,50,081,28,22,19,106,30,24,63,264,32,25,03,331,*79
$GPGSV,5,4,18,29,11,291,,36,52,277,30,40,86,350,37,41,58,082,29*72
$GPGSV,5,5,18,49,32,274,,50,10,089,*78
$GLGSV,3,1,11,70,00,095,,71,14,136,36,72,15,186,21,73,10,145,27*63
$GLGSV,3,2,11,74,49,118,26,75,54,020,23,76,05,342,,85,06,011,*6C
$GLGSV,3,3,11,86,42,323,29,87,37,261,22,,,,22*6A
$GNGLL,0419.92813,S,05539.89621,E,043408.00,A,D*67
$GNGRS,043408.00,1,-5.7,1.9,3.9,1.3,-3.2,6.3,-13.4,6.4,2.6,,,*6E
$GNGRS,043408.00,1,4.6,18.9,8.1,2.7,2.9,-3.0,-16.3,,,,,*77
$GNGST,043408.00,37,,,,2.5,2.2,4.0*45
$GNZDA,043408.00,23,05,2025,00,00*72
$GNGBS,043408.00,2.5,2.2,4.0,,,,*57
$GNTXT,01,01,01,More than 100 frame errors, UART RX was disabled*70
b0p8)6c&
!{yS5$2Q|j&?K#{4"V^&:R 
YaF_G'HI
=J1vOK68LVUV*CW%b8r%P$GNRMC,043409.00,A,0419.92798,S,05539.89611,E,0.021,,230525,,,D*70
$GNVTG,,T,,M,0.021,N,0.039,K,D*31
$GNGNS,043409.00,0419.92798,S,05539.89611,E,DA,15,0.83,12.3,-47.6,,0000*61
$GNGGA,043409.00,0419.92798,S,05539.89611,E,2,12,0.83,12.3,M,-47.6,M,,0000*4A
$GNGSA,A,3,24,20,05,13,15,22,14,18,,,,,1.52,0.83,1.27*1E
$GNGSA,A,3,86,74,75,87,73,71,72,,,,,,1.52,0.83,1.27*12
$GPGSV,5,1,18,05,54,145,41,06,00,029,,11,31,019,,12,25,355,*75
$GPGSV,5,2,18,13,23,164,38,14,07,123,33,15,27,200,20,18,16,225,17*72
$GPGSV,5,3,18,20,50,081,36,22,19,106,31,24,63,264,38,25,03,331,*7D
$GPGSV,5,4,18,29,11,291,,36,52,277,30,40,86,350,34,41,58,082,38*71
$GPGSV,5,5,18,49,32,274,,50,10,089,*78
$GLGSV,3,1,11,70,00,095,,71,14,136,39,72,15,186,21,73,10,145,31*6B
$GLGSV,3,2,11,74,49,118,25,75,54,020,24,76,05,342,,85,06,011,*68
$GLGSV,3,3,11,86,42,323,29,87,37,261,22,,,,21*69
$GNGLL,0419.92798,S,05539.89611,E,043409.00,A,D*69
$GNGRS,043409.00,1,-0.2,1.2,-2.6,1.5,-4.3,4.0,3.8,3.1,,,,*7C
$GNGRS,043409.00,1,4.7,18.7,8.2,4.4,3.2,-3.0,-18.1,,,,,*79
$GNGST,043409.00,36,,,,2.5,2.2,3.9*4B
$GNZDA,043409.00,23,05,2025,00,00*73
$GNGBS,043409.00,2.5,2.2,3.9,,,,*58
$GNTXT,01,01,01,More than 100 frame errors, UART RX was disabled*70
b0p )6d&
!{!2Q_j&?K#{4"V^!:R 
YaF_G&HI
J1vtK6LVUV*CbW% b r%$GNRMC,043410.00,A,0419.92795,S,05539.89610,E,0.046,,230525,,,D*75
$GNVTG,,T,,M,0.046,N,0.084,K,D*36
$GNGNS,043410.00,0419.92795,S,05539.89610,E,DA,15,0.83,12.2,-47.6,,0000*64
$GNGGA,043410.00,0419.92795,S,05539.89610,E,2,12,0.83,12.2,M,-47.6,M,,0000*4F
$GNGSA,A,3,24,20,05,13,15,22,14,18,,,,,1.52,0.83,1.27*1E
$GNGSA,A,3,86,74,75,87,73,71,72,,,,,,1.52,0.83,1.27*12
$GPGSV,5,1,18,05,54,145,41,06,00,029,,11,31,019,,12,25,356,*76
$GPGSV,5,2,18,13,23,164,38,14,07,123,33,15,27,200,21,18,16,225,15*71
$GPGSV,5,3,18,20,50,081,33,22,19,106,31,24,63,264,38,25,03,331,*78
$GPGSV,5,4,18,29,11,291,,36,52,277,30,40,86,350,34,41,58,082,33*7A
$GPGSV,5,5,18,49,32,274,,50,10,089,*78
$GLGSV,3,1,11,70,00,095,,71,14,136,38,72,15,186,19,73,10,145,31*61
$GLGSV,3,2,11,74,49,118,27,75,54,020,27,76,05,342,,85,06,011,*69
$GLGSV,3,3,11,86,42,323,28,87,37,261,22,,,,20*69
$GNGLL,0419.92795,S,05539.89610,E,043410.00,A,D*6D
$GNGRS,043410.00,1,-1.0,1.0,-0.8,1.3,-5.9,2.6,4.9,2.7,,,,*75
$GNGRS,043410.00,1,1.0,19.1,1.5,7.7,4.0,-3.2,-17.9,,,,,*7A
$GNGST,043410.00,36,,,,2.4,2.1,3.8*40
$GNZDA,043410.00,23,05,2025,00,00*7B
$GNGBS,043410.00,2.4,2.1,3.8,,,,*53
$GNTXT,01,01,01,More than 100 frame errors, UART RX was disabled*70
b0p)6_d&
{
q"2QL j&?TK#{4!V^":R 
YaSF_G&HCI
J1vK6LVUV*CW%$bbr%n $GNRMC,043411.00,A,0419.92789,S,05539.89605,E,0.045,,230525,,,D*7E
$GNVTG,,T,,M,0.045,N,0.084,K,D*35
$GNGNS,043411.00,0419.92789,S,05539.89605,E,DA,15,0.83,11.9,-47.6,,0000*64
$GNGGA,043411.00,0419.92789,S,05539.89605,E,2,12,0.83,11.9,M,-47.6,M,,0000*4F
$GNGSA,A,3,24,20,05,13,15,22,14,18,,,,,1.52,0.83,1.27*1E
$GNGSA,A,3,86,74,75,87,73,71,72,,,,,,1.52,0.83,1.27*12
$GPGSV,5,1,18,05,54,145,41,06,00,029,,11,31,019,,12,25,356,*76
$GPGSV,5,2,18,13,22,164,38,14,07,123,31,15,27,200,24,18,16,225,10*72
$GPGSV,5,3,18,20,50,081,34,22,19,106,32,24,63,264,38,25,03,331,*7C
$GPGSV,5,4,18,29,11,291,,36,52,277,31,40,86,350,33,41,58,082,34*7B
$GPGSV,5,5,18,49,32,274,,50,10,089,*78
$GLGSV,3,1,11,70,00,095,,71,14,136,38,72,15,186,17,73,10,145,30*6E
$GLGSV,3,2,11,74,49,118,28,75,54,020,28,76,05,342,,85,06,011,*69
$GLGSV,3,3,11,86,42,323,27,87,37,261,20,,,,19*6E
$GNGLL,0419.92789,S,05539.89605,E,043411.00,A,D*65
$GNGRS,043411.00,1,0.8,0.8,-1.6,1.3,-7.5,-0.5,9.3,3.7,,,,*72
$GNGRS,043411.00,1,-2.8,19.7,-0.2,5.5,7.1,-2.9,-17.2,,,,,*73
$GNGST,043411.00,42,,,,2.4,2.1,3.7*4D
$GNZDA,043411.00,23,05,2025,00,00*7A
$GNGBS,043411.00,2.4,2.1,3.7,,,,*5D
$GNTXT,01,01,01,More than 100 frame errors, UART RX was disabled*70
b0p*6d&
 {o!2Q!j&?|K#{ 4 V^":R 
YaAF_G%HI
J1vK6ELVUV*CW%j1ebr%Ey$GNRMC,043412.00,A,0419.92791,S,05539.89603,E,0.097,,230525,,,D*7D
$GNVTG,,T,,M,0.097,N,0.180,K,D*3F
$GNGNS,043412.00,0419.92791,S,05539.89603,E,DA,14,0.87,11.9,-47.6,,0000*6D
$GNGGA,043412.00,0419.92791,S,05539.89603,E,2,12,0.87,11.9,M,-47.6,M,,0000*47
$GNGSA,A,3,24,20,05,13,15,22,14,,,,,,1.59,0.87,1.33*1D
$GNGSA,A,3,86,74,75,87,73,71,72,,,,,,1.59,0.87,1.33*18
$GPGSV,5,1,18,05,54,145,42,06,00,029,,11,31,019,,12,25,356,*75
$GPGSV,5,2,18,13,22,164,38,14,06,123,32,15,27,200,22,18,16,225,09*7E
$GPGSV,5,3,18,20,50,081,33,22,19,106,33,24,63,264,38,25,03,331,*7A
$GPGSV,5,4,18,29,11,291,,36,52,277,32,40,86,350,32,41,58,082,34*79
$GPGSV,5,5,18,49,32,274,,50,10,089,*78
$GLGSV,3,1,11,70,00,095,,71,14,136,37,72,15,186,15,73,10,145,29*6B
$GLGSV,3,2,11,74,49,118,29,75,54,020,28,76,05,342,,85,06,011,*68
$GLGSV,3,3,11,86,42,323,27,87,37,261,19,,,,19*64
$GNGLL,0419.92791,S,05539.89603,E,043412.00,A,D*69
$GNGRS,043412.00,1,1.2,-0.2,0.3,1.5,-7.5,1.7,2.5,,,,,*7B
$GNGRS,043412.00,1,-0.9,18.1,3.2,3.6,14.7,-2.8,-16.6,,,,,*6F
$GNGST,043412.00,39,,,,2.4,2.1,3.7*42
$GNZDA,043412.00,23,05,2025,00,00*79
$GNGBS,043412.00,2.4,2.1,3.7,,,,*5E
$GNTXT,01,01,01,More than 100 frame errors, UART RX was disabled*70
b0p*6d&
 {,d~!2Q$j&?9K#{ 4 V^#:R 
YaF_G$HI
J1vK6KLVUV*C}W%&brl%$GNRMC,043413.00,A,0419.92793,S,05539.89603,E,0.053,,230525,,,D*76
$GNVTG,,T,,M,0.053,N,0.098,K,D*3F
$GNGNS,043413.00,0419.92793,S,05539.89603,E,DA,14,0.87,12.0,-47.6,,0000*64
$GNGGA,043413.00,0419.92793,S,05539.89603,E,2,12,0.87,12.0,M,-47.6,M,,0000*4E
$GNGSA,A,3,24,20,05,13,15,22,14,,,,,,1.59,0.87,1.33*1D
$GNGSA,A,3,86,74,75,87,73,71,72,,,,,,1.59,0.87,1.33*18
$GPGSV,5,1,18,05,54,145,42,06,00,029,,11,31,019,,12,25,356,*75
$GPGSV,5,2,18,13,22,164,38,14,06,123,32,15,27,199,22,18,16,225,08*7C
$GPGSV,5,3,18,20,50,081,33,22,19,106,36,24,63,264,38,25,03,331,*7F
$GPGSV,5,4,18,29,11,291,,36,52,277,32,40,86,350,32,41,58,082,35*78
$GPGSV,5,5,18,49,32,274,,50,10,089,*78
$GLGSV,3,1,11,70,00,095,,71,14,136,36,72,15,186,14,73,10,145,28*6A
$GLGSV,3,2,11,74,49,118,30,75,54,020,29,76,05,342,,85,06,011,*61
$GLGSV,3,3,11,86,42,323,27,87,37,261,18,,,,21*6E
$GNGLL,0419.92793,S,05539.89603,E,043413.00,A,D*6A
$GNGRS,043413.00,1,0.6,2.3,0.3,1.5,-6.7,-1.1,3.0,,,,,*7D
$GNGRS,043413.00,1,3.8,17.5,0.8,2.9,9.9,-2.9,-16.5,,,,,*7D
$GNGST,043413.00,38,,,,2.4,2.1,3.6*43
$GNZDA,043413.00,23,05,2025,00,00*78
$GNGBS,043413.00,2.4,2.1,3.6,,,,*5E
$GNTXT,01,01,01,More than 100 frame errors, UART RX was disabled*70
b0p#*6d&
{b
!2Q"j1'?K#{!4 V^#:R 
Ya9F_G#HRI
J1vK6ALVUV*CW%Ab#rT%I$GNRMC,043414.00,A,0419.92796,S,05539.89608,E,0.042,,230525,,,D*7F
$GNVTG,,T,,M,0.042,N,0.077,K,D*3E
$GNGNS,043414.00,0419.92796,S,05539.89608,E,DA,15,0.83,12.0,-47.6,,0000*68
$GNGGA,043414.00,0419.92796,S,05539.89608,E,2,12,0.83,12.0,M,-47.6,M,,0000*43
$GNGSA,A,3,24,20,05,13,15,22,14,18,,,,,1.51,0.83,1.27*1D
$GNGSA,A,3,86,74,75,87,73,71,72,,,,,,1.51,0.83,1.27*11
$GPGSV,5,1,18,05,54,145,42,06,00,029,,11,31,019,,12,25,356,*75
$GPGSV,5,2,18,13,22,164,38,14,06,123,30,15,27,199,21,18,16,225,10*74
$GPGSV,5,3,18,20,50,081,33,22,19,106,34,24,63,264,39,25,03,331,*7C
$GPGSV,5,4,18,29,11,291,,36,52,277,33,40,86,350,32,41,58,082,35*79
$GPGSV,5,5,18,49,32,274,,50,10,089,*78
$GLGSV,3,1,11,70,00,095,,71,14,136,35,72,15,186,15,73,10,145,29*69
$GLGSV,3,2,11,74,49,118,30,75,54,020,29,76,05,342,,85,06,011,*61
$GLGSV,3,3,11,86,42,323,26,87,37,261,18,,,,22*6C
$GNGLL,0419.92796,S,05539.89608,E,043414.00,A,D*63
$GNGRS,043414.00,1,-1.1,-0.3,0.0,1.4,-6.7,-2.1,7.3,-0.9,,,,*72
$GNGRS,043414.00,1,2.8,12.9,3.2,5.3,6.8,-3.0,-14.5,,,,,*72
$GNGST,043414.00,74948,,,,2.4,2.1,3.6*79
$GNZDA,043414.00,23,05,2025,00,00*7F
$GNGBS,043414.00,2.4,2.1,3.6,,,,*59
$GNTXT,01,01,01,More than 100 frame errors, UART RX was disabled*70
b0p')6d&
{"2Q!j>'?K#{!4 V^#:R 
YaF_G%HI!
J1vK6"LVUV*CW%Zb'r<%$GNRMC,043415.00,A,0419.92798,S,05539.89608,E,0.090,,230525,,,D*7F
$GNVTG,,T,,M,0.090,N,0.166,K,D*30
$GNGNS,043415.00,0419.92798,S,05539.89608,E,DA,15,0.83,12.0,-47.6,,0000*67
$GNGGA,043415.00,0419.92798,S,05539.89608,E,2,12,0.83,12.0,M,-47.6,M,,0000*4C
$GNGSA,A,3,24,20,05,13,15,22,14,18,,,,,1.51,0.83,1.27*1D
$GNGSA,A,3,86,74,75,87,73,71,72,,,,,,1.51,0.83,1.27*11
$GPGSV,5,1,18,05,54,145,41,06,00,029,,11,31,019,,12,25,356,*76
$GPGSV,5,2,18,13,22,164,38,14,06,123,30,15,27,199,21,18,16,225,18*7C
$GPGSV,5,3,18,20,50,081,34,22,19,106,33,24,63,264,39,25,03,331,*7C
$GPGSV,5,4,18,29,11,291,,36,52,277,33,40,86,350,32,41,58,082,35*79
$GPGSV,5,5,18,49,32,274,,50,10,089,*78
$GLGSV,3,1,11,70,00,095,,71,14,136,37,72,15,186,15,73,10,145,33*60
$GLGSV,3,2,11,74,49,118,29,75,54,020,28,76,05,342,,85,06,011,*68
$GLGSV,3,3,11,86,42,323,26,87,37,261,19,,,,23*6C
$GNGLL,0419.92798,S,05539.89608,E,043415.00,A,D*6C
$GNGRS,043415.00,1,-0.4,-0.2,-0.2,1.3,-2.3,-1.9,5.0,0.1,,,,*71
$GNGRS,043415.00,1,2.9,9.2,5.5,7.3,2.5,-3.1,-13.5,,,,,*4F
$GNGST,043415.00,40,,,,2.4,2.0,3.6*4B
$GNZDA,043415.00,23,05,2025,00,00*7E
$GNGBS,043415.00,2.4,2.0,3.6,,,,*59
$GNTXT,01,01,01,More than 100 frame errors, UART RX was disabled*70
b0p+)6d&
{/#2Q j(?K#{!4 V^$:R 
YaF_G$HI
J1v3K6LVUV*CW%]b+r$%$GNRMC,043416.00,A,0419.92799,S,05539.89609,E,0.133,,230525,,,D*74
$GNVTG,,T,,M,0.133,N,0.246,K,D*39
$GNGNS,043416.00,0419.92799,S,05539.89609,E,DA,15,0.83,12.0,-47.6,,0000*64
$GNGGA,043416.00,0419.92799,S,05539.89609,E,2,12,0.83,12.0,M,-47.6,M,,0000*4F
$GNGSA,A,3,24,20,05,13,15,22,14,18,,,,,1.51,0.83,1.27*1D
$GNGSA,A,3,86,74,75,87,73,71,72,,,,,,1.51,0.83,1.27*11
$GPGSV,5,1,18,05,54,145,41,06,00,029,,11,31,019,,12,25,356,*76
$GPGSV,5,2,18,13,22,164,38,14,06,123,31,15,27,199,21,18,17,225,09*7C
$GPGSV,5,3,18,20,50,081,35,22,19,106,32,24,63,264,40,25,03,331,*72
$GPGSV,5,4,18,29,11,291,,36,52,277,33,40,86,350,32,41,58,082,36*7A
$GPGSV,5,5,18,49,32,274,,50,10,089,*78
$GLGSV,3,1,11,70,00,095,,71,14,136,36,72,15,186,16,73,10,145,31*60
$GLGSV,3,2,11,74,49,118,28,75,54,020,28,76,05,342,,85,06,011,*69
$GLGSV,3,3,11,86,42,323,26,87,37,261,18,,,,24*6A
$GNGLL,0419.92799,S,05539.89609,E,043416.00,A,D*6F
$GNGRS,043416.00,1,-0.4,-0.1,-0.5,1.3,-0.7,-0.6,2.3,13.3,,,,*4A
$GNGRS,043416.00,1,1.5,10.8,4.9,7.8,-0.5,-3.1,-13.5,,,,,*58
$GNGST,043416.00,2998,,,,2.4,2.0,3.5*45
$GNZDA,043416.00,23,05,2025,00,00*7D
$GNGBS,043416.00,2.4,2.0,3.5,,,,*59
$GNTXT,01,01,01,More than 100 frame errors, UART RX was disabled*70
b0px/*6d&|
!{
2Q$j%?K#{!4!V^!:R 
YaF_G$HvI
J1vK6LVUV*CW%H9bx/r%}$GNRMC,043417.00,A,0419.92798,S,05539.89608,E,0.069,,230525,,,D*7B
$GNVTG,,T,,M,0.069,N,0.128,K,D*3C
$GNGNS,043417.00,0419.92798,S,05539.89608,E,DA,15,0.83,12.0,-47.6,,0000*65
$GNGGA,043417.00,0419.92798,S,05539.89608,E,2,12,0.83,12.0,M,-47.6,M,,0000*4E
$GNGSA,A,3,24,20,05,13,15,22,14,18,,,,,1.51,0.83,1.27*1D
$GNGSA,A,3,86,74,75,87,73,71,72,,,,,,1.51,0.83,1.27*11
$GPGSV,5,1,18,05,54,145,42,06,00,029,,11,31,019,,12,25,356,*75
$GPGSV,5,2,18,13,22,164,38,14,06,123,33,15,27,199,21,18,17,225,10*76
$GPGSV,5,3,18,20,50,081,31,22,19,106,36,24,63,264,37,25,03,331,*72
$GPGSV,5,4,18,29,11,291,,36,52,277,33,40,86,350,33,41,58,082,33*7E
$GPGSV,5,5,18,49,32,274,,50,10,089,*78
$GLGSV,3,1,11,70,00,095,,71,14,136,36,72,15,186,17,73,10,145,31*61
$GLGSV,3,2,11,74,49,118,29,75,54,020,28,76,05,342,,85,06,011,*68
$GLGSV,3,3,11,86,42,323,27,87,37,261,19,,,,25*6B
$GNGLL,0419.92798,S,05539.89608,E,043417.00,A,D*6E
$GNGRS,043417.00,1,-0.2,0.0,-0.6,1.2,-1.1,-0.5,-1.1,13.1,,,,*49
$GNGRS,043417.00,1,1.6,12.4,4.2,5.8,-3.5,-2.9,-14.2,,,,,*57
$GNGST,043417.00,4497,,,,2.4,2.0,3.5*40
$GNZDA,043417.00,23,05,2025,00,00*7C
$GNGBS,043417.00,2.4,2.0,3.5,,,,*58
$GNTXT,01,01,01,More than 100 frame errors, UART RX was disabled*70
b0p`3)6d$
"{t 2P$j%?K#{!4$V^":R 
Ya;F_G#HI
CJ1v2K6LVUV*CW%!4b`3r%T$GNRMC,043418.00,A,0419.92795,S,05539.89605,E,0.163,,230525,,,D*7F
$GNVTG,,T,,M,0.163,N,0.302,K,D*3D
$GNGNS,043418.00,0419.92795,S,05539.89605,E,DA,15,0.87,11.9,-47.6,,0000*64
$GNGGA,043418.00,0419.92795,S,05539.89605,E,2,12,0.87,11.9,M,-47.6,M,,0000*4F
$GNGSA,A,3,24,20,05,13,15,22,14,18,,,,,1.59,0.87,1.33*14
$GNGSA,A,3,86,74,75,87,73,71,72,,,,,,1.59,0.87,1.33*18
$GPGSV,5,1,18,05,54,145,41,06,00,029,,11,31,019,,12,25,356,*76
$GPGSV,5,2,18,13,22,164,36,14,06,123,34,15,27,199,20,18,17,225,11*7F
$GPGSV,5,3,18,20,50,080,32,22,19,106,36,24,63,264,37,25,03,331,*70
$GPGSV,5,4,18,29,11,291,,36,52,277,33,40,86,350,36,41,58,082,34*7C
$GPGSV,5,5,18,49,32,274,,50,10,089,*78
$GLGSV,3,1,11,70,00,095,,71,14,136,35,72,15,186,21,73,10,145,31*67
$GLGSV,3,2,11,74,49,118,31,75,54,020,28,76,05,342,,85,06,011,*61
$GLGSV,3,3,11,86,42,323,29,87,37,261,19,,,,26*66
$GNGLL,0419.92795,S,05539.89605,E,043418.00,A,D*61
$GNGRS,043418.00,1,-0.2,-0.1,-0.5,1.4,1.2,-0.1,2.2,50.6,,,,*68
$GNGRS,043418.00,1,-0.9,13.3,5.0,8.0,-4.5,-2.5,-13.6,,,,,*73
$GNGST,043418.00,31,,,,2.4,2.0,3.5*43
$GNZDA,043418.00,23,05,2025,00,00*73
$GNGBS,043418.00,2.4,2.0,3.5,,,,*57
$GNTXT,01,01,01,More than 100 frame errors, UART RX was disabled*70
b0pH7&6d%
"{89#2P"k"?K#{ 4%V^%:R 
YaF_G"H_I
sJ1vK6LVUV*CUW%bH7r%,N$GNRMC,043419.00,A,0419.92793,S,05539.89605,E,0.060,,230525,,,D*7A
$GNVTG,,T,,M,0.060,N,0.111,K,D*3F
$GNGNS,043419.00,0419.92793,S,05539.89605,E,DA,15,0.83,12.0,-47.6,,0000*6D
$GNGGA,043419.00,0419.92793,S,05539.89605,E,2,12,0.83,12.0,M,-47.6,M,,0000*46
$GNGSA,A,3,24,20,05,13,15,22,14,18,,,,,1.51,0.83,1.27*1D
$GNGSA,A,3,86,74,75,87,73,71,72,,,,,,1.51,0.83,1.27*11
$GPGSV,5,1,18,05,54,145,38,06,00,029,,11,31,019,,12,25,356,*78
$GPGSV,5,2,18,13,22,164,37,14,06,123,34,15,27,199,22,18,17,225,16*7B
$GPGSV,5,3,18,20,50,080,35,22,19,107,34,24,63,264,34,25,03,331,*77
$GPGSV,5,4,18,29,11,291,,36,52,277,32,40,86,350,37,41,58,082,37*7F
$GPGSV,5,5,18,49,32,274,,50,10,089,*78
$GLGSV,3,1,11,70,00,095,,71,14,136,34,72,15,186,24,73,10,145,30*62
$GLGSV,3,2,11,74,49,118,31,75,54,020,27,76,05,342,,85,06,011,*6E
$GLGSV,3,3,11,86,42,323,31,87,37,261,16,,,,26*60
$GNGLL,0419.92793,S,05539.89605,E,043419.00,A,D*66
$GNGRS,043419.00,1,-0.6,-0.1,-0.5,1.5,2.1,0.1,-2.0,13.4,,,,*6B
$GNGRS,043419.00,1,3.4,14.7,2.7,9.3,-1.4,-2.5,-14.4,,,,,*51
$GNGST,043419.00,2973941,,,,2.3,2.0,3.5*74
$GNZDA,043419.00,23,05,2025,00,00*72
$GNGBS,043419.00,2.3,2.0,3.5,,,,*51
$GNTXT,01,01,01,More than 100 frame errors, UART RX was disabled*70
b0p0;)6d&
!{22P"k3&?K#{#4%V^#:R 
Ya2F_G"HiI
mJ1vK6LVUV*C$W%b0;r%$GNRMC,043420.00,A,0419.92791,S,05539.89606,E,0.089,,230525,,,D*76
$GNVTG,,T,,M,0.089,N,0.164,K,D*3A
$GNGNS,043420.00,0419.92791,S,05539.89606,E,DA,15,0.83,11.9,-47.6,,0000*6C
$GNGGA,043420.00,0419.92791,S,05539.89606,E,2,12,0.83,11.9,M,-47.6,M,,0000*47
$GNGSA,A,3,24,20,05,13,15,22,14,18,,,,,1.51,0.83,1.27*1D
$GNGSA,A,3,86,74,75,87,73,71,72,,,,,,1.51,0.83,1.27*11
$GPGSV,5,1,18,05,54,145,41,06,00,029,,11,31,019,25,12,25,356,*71
$GPGSV,5,2,18,13,22,164,38,14,06,123,33,15,27,199,22,18,17,225,13*76
$GPGSV,5,3,18,20,50,080,31,22,19,107,34,24,63,264,38,25,03,331,*7F
$GPGSV,5,4,18,29,11,291,,36,52,277,35,40,86,350,37,41,58,082,35*7A
$GPGSV,5,5,18,49,32,274,,50,10,089,*78
$GLGSV,3,1,11,70,00,095,,71,14,136,34,72,15,186,23,73,10,145,30*65
$GLGSV,3,2,11,74,49,118,30,75,54,020,26,76,05,342,,85,06,011,*6E
$GLGSV,3,3,11,86,42,323,30,87,37,261,15,,,,25*61
$GNGLL,0419.92791,S,05539.89606,E,043420.00,A,D*6D
$GNGRS,043420.00,1,-0.7,-0.3,-0.7,1.3,4.2,0.5,-0.9,13.3,,,,*6B
$GNGRS,043420.00,1,2.9,17.8,2.1,9.4,1.1,-2.5,-14.3,,,,,*75
$GNGST,043420.00,2973941,,,,2.3,2.0,3.5*7E
$GNZDA,043420.00,23,05,2025,00,00*78
$GNGBS,043420.00,2.3,2.0,3.5,,,,*5B
$GNTXT,01,01,01,More than 100 frame errors, UART RX was disabled*70
b0p?'6d'a
!{!2PkG'?K#{"4#V^":R 
YaF_G%
HI!
qJ1vK6LVUV!*CW%b?r%$GNRMC,043421.00,A,0419.92789,S,05539.89604,E,0.136,,230525,,,D*79
$GNVTG,,T,,M,0.136,N,0.253,K,D*38
$GNGNS,043421.00,0419.92789,S,05539.89604,E,DA,14,0.87,11.7,-47.6,,0000*6D
$GNGGA,043421.00,0419.92789,S,05539.89604,E,2,12,0.87,11.7,M,-47.6,M,,0000*47
$GNGSA,A,3,24,20,05,13,15,22,14,,,,,,1.59,0.87,1.33*1D
$GNGSA,A,3,86,74,75,87,73,71,72,,,,,,1.59,0.87,1.33*18
$GPGSV,5,1,18,05,54,145,39,06,00,029,,11,31,019,26,12,25,356,*7D
$GPGSV,5,2,18,13,22,164,39,14,06,123,33,15,27,199,21,18,17,225,06*70
$GPGSV,5,3,18,20,50,080,33,22,19,107,31,24,63,262,39,25,03,331,*7F
$GPGSV,5,4,18,29,11,291,,36,52,277,34,40,86,350,35,41,58,082,34*78
$GPGSV,5,5,18,49,32,274,,50,10,089,*78
$GLGSV,3,1,11,70,00,095,,71,14,136,37,72,15,186,21,73,10,145,33*67
$GLGSV,3,2,11,74,49,118,29,75,54,020,25,76,05,342,,85,06,011,*65
$GLGSV,3,3,11,86,42,323,33,87,37,261,16,,,,26*62
$GNGLL,0419.92789,S,05539.89604,E,043421.00,A,D*67
$GNGRS,043421.00,1,-0.4,-0.4,-1.0,1.0,4.2,0.7,-0.1,,,,,*7E
$GNGRS,043421.00,1,4.1,19.3,2.8,11.6,-1.4,-2.5,-16.2,,,,,*66
$GNGST,043421.00,34,,,,2.3,2.0,3.4*4A
$GNZDA,043421.00,23,05,2025,00,00*79
$GNGBS,043421.00,2.3,2.0,3.4,,,,*5B
$GNTXT,01,01,01,More than 100 frame errors, UART RX was disabled*70
b0pC(6d'a
"{&q"2Pk%&?L#{"4"V^#:R 
YaF_G&HqI!
J1vK65LVUV!*CW%bCr%$GNRMC,043422.00,A,0419.92789,S,05539.89601,E,0.021,,230525,,,D*78
$GNVTG,,T,,M,0.021,N,0.040,K,D*3F
$GNGNS,043422.00,0419.92789,S,05539.89601,E,DA,14,0.87,11.7,-47.6,,0000*6B
$GNGGA,043422.00,0419.92789,S,05539.89601,E,2,12,0.87,11.7,M,-47.6,M,,0000*41
$GNGSA,A,3,24,20,05,13,15,22,14,,,,,,1.59,0.87,1.33*1D
$GNGSA,A,3,86,74,75,87,73,71,72,,,,,,1.59,0.87,1.33*18
$GPGSV,5,1,18,05,54,145,40,06,00,029,,11,31,019,25,12,25,356,*70
$GPGSV,5,2,18,13,22,164,39,14,06,123,34,15,27,199,21,18,17,225,09*78
$GPGSV,5,3,18,20,50,080,34,22,19,107,31,24,63,262,38,25,04,332,*7D
$GPGSV,5,4,18,29,11,291,,36,52,277,34,40,86,350,34,41,58,082,35*78
$GPGSV,5,5,18,49,32,274,,50,10,089,*78
$GLGSV,3,1,11,70,00,095,,71,14,136,38,72,15,186,21,73,10,145,33*68
$GLGSV,3,2,11,74,49,118,29,75,54,020,23,76,05,342,,85,06,011,*63
$GLGSV,3,3,11,86,42,323,33,87,37,261,15,,,,26*61
$GNGLL,0419.92789,S,05539.89601,E,043422.00,A,D*61
$GNGRS,043422.00,1,-0.5,-0.9,-0.9,1.0,5.0,0.4,0.4,,,,,*51
$GNGRS,043422.00,1,-0.1,16.6,3.1,12.1,-3.3,-2.3,-16.8,,,,,*43
$GNGST,043422.00,35,,,,2.3,2.0,3.4*48
$GNZDA,043422.00,23,05,2025,00,00*7A
$GNGBS,043422.00,2.3,2.0,3.4,,,,*58
$GNTXT,01,01,01,More than 100 frame errors, UART RX was disabled*70
b0pF'6d'T
"{J0#2Pk:&?L#{"4"V^#:R 
YaF_G&HI 
yJ1vK6LVUV!*CW%_nbFr|%$GNRMC,043423.00,A,0419.92792,S,05539.89601,E,0.065,,230525,,,D*73
$GNVTG,,T,,M,0.065,N,0.121,K,D*39
$GNGNS,043423.00,0419.92792,S,05539.89601,E,DA,15,0.83,11.7,-47.6,,0000*65
$GNGGA,043423.00,0419.92792,S,05539.89601,E,2,12,0.83,11.7,M,-47.6,M,,0000*4E
$GNGSA,A,3,24,20,05,13,15,22,14,18,,,,,1.51,0.83,1.27*1D
$GNGSA,A,3,86,74,75,87,73,71,72,,,,,,1.51,0.83,1.27*11
$GPGSV,5,1,18,05,54,145,39,06,00,029,,11,31,019,25,12,25,356,16*79
$GPGSV,5,2,18,13,22,164,39,14,06,123,34,15,27,199,25,18,17,225,13*77
$GPGSV,5,3,18,20,50,080,35,22,19,107,31,24,63,262,38,25,04,332,*7C
$GPGSV,5,4,18,29,11,291,,36,52,277,34,40,86,350,34,41,58,082,35*78
$GPGSV,5,5,18,49,32,274,,50,10,089,*78
$GLGSV,3,1,11,70,00,095,,71,14,136,38,72,15,186,22,73,10,145,32*6A
$GLGSV,3,2,11,74,49,118,29,75,54,020,22,76,05,342,,85,06,011,*62
$GLGSV,3,3,11,86,42,323,33,87,37,261,13,,,,27*66
$GNGLL,0419.92792,S,05539.89601,E,043423.00,A,D*6A
$GNGRS,043423.00,1,-0.7,-0.7,-0.8,0.8,4.4,0.6,0.7,13.3,,,,*4F
$GNGRS,043423.00,1,-0.3,14.2,2.7,11.2,-1.3,-2.5,-18.2,,,,,*41
$GNGST,043423.00,74948,,,,2.3,1.9,3.4*73
$GNZDA,043423.00,23,05,2025,00,00*7B
$GNGBS,043423.00,2.3,1.9,3.4,,,,*53
$GNTXT,01,01,01,More than 100 frame errors, UART RX was disabled*70
b0pJ'6d8'F
"{I6#2PkQ&?L#{"4$V^#:R 
YaF_G&HI 
