b0p=4!bw&
y'K&3U7(h1!?yJ!{4%V^:R% 
Y!`FbG%0H&I#2J2rK#3fLUU
V,@W!$)b=rm P$GNRMC,042853.00,A,0419.93228,S,05539.90197,E,0.048,,230525,,,D*73
$GNVTG,,T,,M,0.048,N,0.088,K,D*34
$GNGNS,042853.00,0419.93228,S,05539.90197,E,DA,17,0.61,14.4,-47.6,,0000*62
$GNGGA,042853.00,0419.93228,S,05539.90197,E,2,12,0.61,14.4,M,-47.6,M,,0000*4B
$GNGSA,A,3,24,20,05,13,15,22,12,14,18,,,,1.16,0.61,0.98*14
$GNGSA,A,3,86,74,75,87,85,73,71,72,,,,,1.16,0.61,0.98*16
$GPGSV,5,1,18,05,52,149,27,06,02,029,,11,33,019,,12,23,354,23*79
$GPGSV,5,2,18,13,23,166,38,14,08,121,26,15,27,202,28,18,15,224,39*7D
$GPGSV,5,3,18,20,51,085,38,22,20,104,40,24,63,269,33,25,02,330,*7E
$GPGSV,5,4,18,29,11,289,,36,52,277,,40,86,350,37,41,58,082,*73
$GPGSV,5,5,18,49,32,274,37,50,10,089,*7C
$GLGSV,3,1,11,70,00,098,08,71,13,139,37,72,14,188,38,73,11,144,35*6B
$GLGSV,3,2,11,74,50,114,24,75,51,018,35,76,03,341,,85,09,010,08*60
$GLGSV,3,3,11,86,44,320,20,87,36,256,33,,,,41*66
$GNGLL,0419.93228,S,05539.90197,E,042853.00,A,D*65
$GNGRS,042853.00,1,1.2,0.5,17.1,2.5,0.3,0.5,-1.4,14.9,0.8,,,*5A
$GNGRS,042853.00,1,-0.5,12.8,-1.5,7.7,19.7,-2.1,-2.1,-12.8,,,,*4B
$GNGST,042853.00,2803859,,,,1.9,1.1,3.5*72
$GNZDA,042853.00,23,05,2025,00,00*71
$GNGBS,042853.00,1.9,1.1,3.5,,,,*59
$GNTXT,01,01,01,More than 100 frame errors, UART RX was disabled*70
b0pA4!b`%
yP'@%3UJ'h7!?J!{4%V^:R$ 
Y`JFbx1G'H'I%$J2r'K%3uLUU
V,@*W"$)AbArU ($GNRMC,042854.00,A,0419.93230,S,05539.90196,E,0.029,,230525,,,D*7B
$GNVTG,,T,,M,0.029,N,0.054,K,D*32
$GNGNS,042854.00,0419.93230,S,05539.90196,E,DA,17,0.61,14.5,-47.6,,0000*6C
$GNGGA,042854.00,0419.93230,S,05539.90196,E,2,12,0.61,14.5,M,-47.6,M,,0000*45
$GNGSA,A,3,24,20,05,13,15,22,12,14,18,,,,1.16,0.61,0.98*14
$GNGSA,A,3,86,74,75,87,85,73,71,72,,,,,1.16,0.61,0.98*16
$GPGSV,5,1,18,05,52,149,25,06,02,029,,11,33,019,,12,23,354,21*79
$GPGSV,5,2,18,13,23,166,37,14,08,121,24,15,27,202,26,18,15,224,39*7E
$GPGSV,5,3,18,20,51,085,37,22,20,104,39,24,63,269,33,25,02,330,*7F
$GPGSV,5,4,18,29,11,289,,36,52,277,,40,86,350,37,41,58,082,*73
$GPGSV,5,5,18,49,32,274,36,50,10,089,*7D
$GLGSV,3,1,11,70,00,098,08,71,13,139,39,72,14,188,39,73,11,144,37*66
$GLGSV,3,2,11,74,50,114,23,75,51,018,37,76,03,341,,85,09,010,14*68
$GLGSV,3,3,11,86,44,320,21,87,36,256,34,,,,41*60
$GNGLL,0419.93230,S,05539.90196,E,042854.00,A,D*6A
$GNGRS,042854.00,1,-2.5,0.7,17.7,2.5,0.8,0.5,-1.6,14.2,0.6,,,*7C
$GNGRS,042854.00,1,0.4,13.2,-1.4,7.7,16.9,-2.2,-2.4,-12.6,,,,*63
$GNGST,042854.00,38,,,,1.9,1.1,3.5*43
$GNZDA,042854.00,23,05,2025,00,00*76
$GNGBS,042854.00,1.9,1.1,3.5,,,,*5E
$GNTXT,01,01,01,More than 100 frame errors, UART RX was disabled*70
b0pE4V!b&
y<(=&3U_'h!?)J!{4&V^:R% 
Y!`wF
bG(H'I%*J2rK%3PLUU
V,@|W#$*bEr= $GNRMC,042855.00,A,0419.93226,S,05539.90193,E,0.142,,230525,,,D*74
$GNVTG,,T,,M,0.142,N,0.263,K,D*38
$GNGNS,042855.00,0419.93226,S,05539.90193,E,DA,17,0.61,14.4,-47.6,,0000*6E
$GNGGA,042855.00,0419.93226,S,05539.90193,E,2,12,0.61,14.4,M,-47.6,M,,0000*47
$GNGSA,A,3,24,20,05,13,15,22,12,14,18,,,,1.16,0.61,0.98*14
$GNGSA,A,3,86,74,75,87,85,73,71,72,,,,,1.16,0.61,0.98*16
$GPGSV,5,1,18,05,52,149,25,06,02,029,,11,33,019,,12,23,354,20*78
$GPGSV,5,2,18,13,23,166,38,14,08,121,22,15,27,202,31,18,15,224,40*7F
$GPGSV,5,3,18,20,51,085,38,22,20,104,39,24,63,269,33,25,02,330,*70
$GPGSV,5,4,18,29,11,289,,36,52,277,,40,86,350,38,41,58,082,*7C
$GPGSV,5,5,18,49,32,274,37,50,10,089,*7C
$GLGSV,3,1,11,70,00,098,10,71,13,139,40,72,14,188,39,73,11,144,37*61
$GLGSV,3,2,11,74,50,114,24,75,51,018,37,76,03,341,,85,08,010,08*63
$GLGSV,3,3,11,86,44,320,21,87,36,256,35,,,,42*62
$GNGLL,0419.93226,S,05539.90193,E,042855.00,A,D*69
$GNGRS,042855.00,1,-2.2,1.0,13.7,2.4,4.4,0.2,-1.3,16.0,0.6,,,*73
$GNGRS,042855.00,1,1.2,12.7,-1.8,6.5,19.9,-2.1,-2.5,-12.6,,,,*63
$GNGST,042855.00,25438,,,,1.9,1.1,3.5*71
$GNZDA,042855.00,23,05,2025,00,00*77
$GNGBS,042855.00,1.9,1.1,3.5,,,,*5F
$GNTXT,01,01,01,More than 100 frame errors, UART RX was disabled*70
b0pI4!b(
y!*#(3UV)h!?J!{4'V^:R& 
Y$`FbG'H'I&J2rK$3ALUU
V,@W#$})CSbIr% $GNRMC,042856.00,A,0419.93227,S,05539.90192,E,0.096,,230525,,,D*7F
$GNVTG,,T,,M,0.096,N,0.178,K,D*39
$GNGNS,042856.00,0419.93227,S,05539.90192,E,DA,17,0.61,14.6,-47.6,,0000*6F
$GNGGA,042856.00,0419.93227,S,05539.90192,E,2,12,0.61,14.6,M,-47.6,M,,0000*46
$GNGSA,A,3,24,20,05,13,15,22,12,14,18,,,,1.16,0.61,0.98*14
$GNGSA,A,3,86,74,75,87,85,73,71,72,,,,,1.16,0.61,0.98*16
$GPGSV,5,1,18,05,52,149,25,06,02,029,,11,33,019,,12,23,354,20*78
$GPGSV,5,2,18,13,23,166,40,14,08,121,25,15,27,202,33,18,15,224,42*77
$GPGSV,5,3,18,20,51,085,40,22,20,104,41,24,63,269,33,25,02,330,*70
$GPGSV,5,4,18,29,11,289,,36,52,277,,40,86,350,39,41,58,082,*7D
$GPGSV,5,5,18,49,32,274,38,50,10,089,*73
$GLGSV,3,1,11,70,00,098,09,71,13,139,39,72,14,188,39,73,11,144,38*68
$GLGSV,3,2,11,74,50,114,24,75,51,018,36,76,03,341,,85,08,010,09*63
$GLGSV,3,3,11,86,44,320,22,87,36,256,35,,,,41*62
$GNGLL,0419.93227,S,05539.90192,E,042856.00,A,D*6A
$GNGRS,042856.00,1,-1.0,0.9,10.5,2.3,2.6,0.2,-3.2,14.8,0.4,,,*70
$GNGRS,042856.00,1,2.6,11.8,-1.9,6.4,19.9,-2.4,-2.5,-12.6,,,,*6E
$GNGST,042856.00,38157,,,,1.9,1.1,3.5*72
$GNZDA,042856.00,23,05,2025,00,00*74
$GNGBS,042856.00,1.9,1.1,3.5,,,,*5C
$GNTXT,01,01,01,More than 100 frame errors, UART RX was disabled*70
b0pxM4!b(
yp#B*(3UE)h!?J!{4'V^:R& 
Y#`Fb#3G&H'I'J2rK#3:LUU
V,@AW#$)3bxMr Q$GNRMC,042857.00,A,0419.93227,S,05539.90193,E,0.045,,230525,,,D*71
$GNVTG,,T,,M,0.045,N,0.084,K,D*35
$GNGNS,042857.00,0419.93227,S,05539.90193,E,DA,17,0.68,14.8,-47.6,,0000*68
$GNGGA,042857.00,0419.93227,S,05539.90193,E,2,12,0.68,14.8,M,-47.6,M,,0000*41
$GNGSA,A,3,24,20,05,13,15,22,12,14,18,,,,1.32,0.68,1.13*19
$GNGSA,A,3,86,74,75,87,85,73,71,72,,,,,1.32,0.68,1.13*1B
$GPGSV,5,1,18,05,52,149,26,06,02,029,,11,33,019,,12,23,354,22*79
$GPGSV,5,2,18,13,23,166,40,14,08,121,26,15,27,202,35,18,15,224,42*72
$GPGSV,5,3,18,20,51,085,40,22,20,104,41,24,63,269,33,25,02,330,*70
$GPGSV,5,4,18,29,11,289,,36,52,277,,40,86,350,39,41,58,082,*7D
$GPGSV,5,5,18,49,32,274,38,50,10,089,*73
$GLGSV,3,1,11,70,00,098,09,71,13,139,38,72,14,188,39,73,11,144,39*68
$GLGSV,3,2,11,74,50,114,23,75,51,018,35,76,03,341,,85,08,010,09*67
$GLGSV,3,3,11,86,44,320,22,87,36,257,35,,,,41*63
$GNGLL,0419.93227,S,05539.90193,E,042857.00,A,D*6A
$GNGRS,042857.00,1,-0.8,0.7,7.6,2.3,3.2,0.1,-3.6,16.5,0.2,,,*48
$GNGRS,042857.00,1,3.2,11.7,-2.0,6.4,20.3,-2.5,-2.7,-12.7,,,,*6D
$GNGST,042857.00,25,,,,1.9,1.1,3.5*4C
$GNZDA,042857.00,23,05,2025,00,00*75
$GNGBS,042857.00,1.9,1.1,3.5,,,,*5D
$GNTXT,01,01,01,More than 100 frame errors, UART RX was disabled*70
b0p`Q4!b)
y#*(3U)h."?GJ!{4(V^:R& 
Y"`/FbG&H'I'J2rK#3;LUU

V,@W#$t)b`Qr $GNRMC,042858.00,A,0419.93230,S,05539.90192,E,0.015,,230525,,,D*7C
$GNVTG,,T,,M,0.015,N,0.027,K,D*39
$GNGNS,042858.00,0419.93230,S,05539.90192,E,DA,17,0.63,14.9,-47.6,,0000*6A
$GNGGA,042858.00,0419.93230,S,05539.90192,E,2,12,0.63,14.9,M,-47.6,M,,0000*43
$GNGSA,A,3,24,20,05,13,15,22,12,14,18,,,,1.18,0.63,1.00*18
$GNGSA,A,3,86,74,75,87,85,73,71,72,,,,,1.18,0.63,1.00*1A
$GPGSV,5,1,18,05,52,149,27,06,02,029,,11,33,019,,12,23,354,23*79
$GPGSV,5,2,18,13,23,166,41,14,08,121,27,15,27,202,35,18,15,224,42*72
$GPGSV,5,3,18,20,51,085,40,22,20,104,41,24,63,269,34,25,02,330,*77
$GPGSV,5,4,18,29,11,289,,36,52,277,,40,86,350,40,41,58,082,*73
$GPGSV,5,5,18,49,32,274,38,50,10,089,*73
$GLGSV,3,1,11,70,00,098,08,71,13,139,38,72,14,188,39,73,11,144,39*69
$GLGSV,3,2,11,74,50,114,24,75,51,018,35,76,03,341,,85,08,010,10*68
$GLGSV,3,3,11,86,44,320,22,87,36,257,35,,,,41*63
$GNGLL,0419.93230,S,05539.90192,E,042858.00,A,D*62
$GNGRS,042858.00,1,0.7,0.1,4.3,2.2,1.4,0.5,-2.4,14.8,0.0,,,*6A
$GNGRS,042858.00,1,4.0,12.4,-2.0,6.3,20.1,-2.5,-2.8,-13.0,,,,*6B
$GNGST,042858.00,728,,,,1.9,1.1,3.4*78
$GNZDA,042858.00,23,05,2025,00,00*7A
$GNGBS,042858.00,1.9,1.1,3.4,72,,13.0,7.4*67
$GNTXT,01,01,01,More than 100 frame errors, UART RX was disabled*70
b0pHU4!b(
y#*(3U)h;#?J!{4'V^:R% 
Y"`FbG&H&I&J2rK#3ULUU
V,@W#$[)bHUr _$GNRMC,042859.00,A,0419.93232,S,05539.90190,E,0.035,,230525,,,D*7F
$GNVTG,,T,,M,0.035,N,0.064,K,D*3C
$GNGNS,042859.00,0419.93232,S,05539.90190,E,DA,17,0.61,15.0,-47.6,,0000*61
$GNGGA,042859.00,0419.93232,S,05539.90190,E,2,12,0.61,15.0,M,-47.6,M,,0000*48
$GNGSA,A,3,24,20,05,13,15,22,12,14,18,,,,1.16,0.61,0.98*14
$GNGSA,A,3,86,74,75,87,85,73,71,72,,,,,1.16,0.61,0.98*16
$GPGSV,5,1,18,05,52,149,27,06,02,029,,11,33,019,,12,23,354,24*7E
$GPGSV,5,2,18,13,23,166,40,14,08,121,28,15,27,202,35,18,15,224,42*7C
$GPGSV,5,3,18,20,51,085,40,22,20,104,41,24,63,269,35,25,02,330,*76
$GPGSV,5,4,18,29,11,289,,36,52,277,,40,86,350,39,41,58,082,*7D
$GPGSV,5,5,18,49,32,274,37,50,10,089,*7C
$GLGSV,3,1,11,70,00,098,07,71,13,139,38,72,14,188,38,73,11,144,38*66
$GLGSV,3,2,11,74,50,114,24,75,51,018,35,76,03,341,,85,08,010,11*69
$GLGSV,3,3,11,86,44,320,21,87,36,257,35,,,,41*60
$GNGLL,0419.93232,S,05539.90190,E,042859.00,A,D*63
$GNGRS,042859.00,1,0.2,-0.2,2.1,1.9,0.1,0.6,-3.3,12.9,0.1,,,*4B
$GNGRS,042859.00,1,5.1,13.0,-1.7,6.0,20.0,-2.5,-2.8,-13.0,,,,*69
$GNGST,042859.00,708,,,,1.9,1.0,3.4*7A
$GNZDA,042859.00,23,05,2025,00,00*7B
$GNGBS,042859.00,1.9,1.0,3.4,,,,*53
$GNTXT,01,01,01,More than 100 frame errors, UART RX was disabled*70
b0p0Y4u!bN*
y#d*(3U)hE#?J!{4'V^:R& 
Y#`SFbhG&H&I&J2rSK$3ZLUU

DV,@7W#$7)b0Yr 7$GNRMC,042900.00,A,0419.93234,S,05539.90189,E,0.016,,230525,,,D*7D
$GNVTG,,T,,M,0.016,N,0.029,K,D*34
$GNGNS,042900.00,0419.93234,S,05539.90189,E,DA,17,0.68,15.0,-47.6,,0000*6B
$GNGGA,042900.00,0419.93234,S,05539.90189,E,2,12,0.68,15.0,M,-47.6,M,,0000*42
$GNGSA,A,3,24,20,05,13,15,22,12,14,18,,,,1.32,0.68,1.13*19
$GNGSA,A,3,86,74,75,87,85,73,71,72,,,,,1.32,0.68,1.13*1B
$GPGSV,5,1,18,05,52,149,27,06,02,029,,11,33,019,,12,23,354,24*7E
$GPGSV,5,2,18,13,23,166,42,14,08,121,28,15,27,202,35,18,15,224,42*7E
$GPGSV,5,3,18,20,51,085,40,22,20,104,41,24,63,269,35,25,02,330,*76
$GPGSV,5,4,18,29,11,289,,36,52,277,,40,86,350,39,41,58,082,*7D
$GPGSV,5,5,18,49,32,274,38,50,10,089,*73
$GLGSV,3,1,11,70,00,098,09,71,13,139,38,72,14,188,38,73,11,144,38*68
$GLGSV,3,2,11,74,50,114,24,75,51,018,36,76,03,341,,85,08,010,10*6B
$GLGSV,3,3,11,86,44,320,19,87,36,257,35,,,,41*6B
$GNGLL,0419.93234,S,05539.90189,E,042900.00,A,D*60
$GNGRS,042900.00,1,-0.1,-0.2,-1.4,1.8,1.0,0.7,-4.3,10.4,0.0,,,*4A
$GNGRS,042900.00,1,3.1,13.6,-1.7,5.7,-107,-2.5,-2.7,-12.9,,,,*60
$GNGST,042900.00,28,,,,1.9,1.0,3.4*42
$GNZDA,042900.00,23,05,2025,00,00*76
$GNGBS,042900.00,1.9,1.0,3.4,,,,*5E
$GNTXT,01,01,01,More than 100 frame errors, UART RX was disabled*70
b0p]4!bG)
y%+)3U*hK$?J!{4(V^:R& 
Y#`wFbG&H&I&J2r5K$37LUU
V,@W#$3)b]r $GNRMC,042901.00,A,0419.93233,S,05539.90188,E,0.015,,230525,,,D*79
$GNVTG,,T,,M,0.015,N,0.028,K,D*36
$GNGNS,042901.00,0419.93233,S,05539.90188,E,DA,16,0.68,15.0,-47.6,,0000*6D
$GNGGA,042901.00,0419.93233,S,05539.90188,E,2,12,0.68,15.0,M,-47.6,M,,0000*45
$GNGSA,A,3,24,20,05,13,15,22,12,14,18,,,,1.32,0.68,1.13*19
$GNGSA,A,3,86,74,75,87,73,71,72,,,,,,1.32,0.68,1.13*16
$GPGSV,5,1,18,05,52,149,28,06,02,029,,11,33,019,,12,23,354,24*71
$GPGSV,5,2,18,13,23,166,41,14,08,121,30,15,27,202,37,18,15,224,43*77
$GPGSV,5,3,18,20,51,085,41,22,20,104,42,24,63,269,36,25,02,330,*77
$GPGSV,5,4,18,29,11,289,,36,52,277,,40,86,350,40,41,58,082,*73
$GPGSV,5,5,18,49,32,274,38,50,10,089,*73
$GLGSV,3,1,11,70,00,098,07,71,13,139,38,72,14,188,38,73,11,144,38*66
$GLGSV,3,2,11,74,50,114,24,75,51,018,36,76,03,341,,85,08,010,06*6C
$GLGSV,3,3,11,86,44,320,18,87,36,257,35,,,,41*6A
$GNGLL,0419.93233,S,05539.90188,E,042901.00,A,D*67
$GNGRS,042901.00,1,-0.5,-0.1,-0.1,1.7,-0.6,0.8,-4.4,9.4,0.0,,,*5D
$GNGRS,042901.00,1,4.1,13.3,-2.0,5.6,-2.6,-2.8,-12.8,,,,,*70
$GNGST,042901.00,28,,,,1.9,1.0,3.3*44
$GNZDA,042901.00,23,05,2025,00,00*77
$GNGBS,042901.00,1.9,1.0,3.3,,,,*58
$GNTXT,01,01,01,More than 100 frame errors, UART RX was disabled*70
b0pa4!b)
y%z+)3U*h]#?J!{4(V^:R& 
Y$`oFbG&H&I&J2r
K#3LUU
V,@8W#$<)J>bar V$GNRMC,042902.00,A,0419.93234,S,05539.90189,E,0.019,,230525,,,D*70
$GNVTG,,T,,M,0.019,N,0.035,K,D*36
$GNGNS,042902.00,0419.93234,S,05539.90189,E,DA,17,0.61,15.1,-47.6,,0000*61
$GNGGA,042902.00,0419.93234,S,05539.90189,E,2,12,0.61,15.1,M,-47.6,M,,0000*48
$GNGSA,A,3,24,20,05,13,15,22,12,14,18,,,,1.16,0.61,0.98*14
$GNGSA,A,3,86,74,75,87,85,73,71,72,,,,,1.16,0.61,0.98*16
$GPGSV,5,1,18,05,52,149,28,06,02,029,,11,33,019,,12,23,354,25*70
$GPGSV,5,2,18,13,23,166,41,14,08,121,29,15,27,202,37,18,15,224,43*7F
$GPGSV,5,3,18,20,51,085,41,22,20,104,42,24,63,269,35,25,02,330,*74
$GPGSV,5,4,18,29,11,289,,36,52,277,,40,86,350,40,41,58,082,*73
$GPGSV,5,5,18,49,32,274,38,50,10,089,*73
$GLGSV,3,1,11,70,00,098,07,71,13,139,38,72,14,188,38,73,11,144,38*66
$GLGSV,3,2,11,74,50,114,24,75,51,018,35,76,03,341,,85,08,010,08*61
$GLGSV,3,3,11,86,44,320,18,87,36,257,35,,,,41*6A
$GNGLL,0419.93234,S,05539.90189,E,042902.00,A,D*62
$GNGRS,042902.00,1,-0.3,0.0,-0.4,1.7,-1.3,0.9,-5.9,10.1,-0.2,,,*6A
$GNGRS,042902.00,1,3.1,12.9,-2.3,5.7,19.6,-2.8,-3.0,-12.8,,,,*6A
$GNGST,042902.00,2803859,,,,1.9,1.0,3.3*70
$GNZDA,042902.00,23,05,2025,00,00*74
$GNGBS,042902.00,1.9,1.0,3.3,,,,*5B
$GNTXT,01,01,01,More than 100 frame errors, UART RX was disabled*70
b0pd4!b|(
yp$*(3U)h^"?J!{4'V^:R% 
Y$`}FbG$H%
I$J2raK"3 LUU
zV,@W"$:(#bdr} $GNRMC,042903.00,A,0419.93232,S,05539.90190,E,0.042,,230525,,,D*71
$GNVTG,,T,,M,0.042,N,0.077,K,D*3E
$GNGNS,042903.00,0419.93232,S,05539.90190,E,DA,17,0.68,15.1,-47.6,,0000*67
$GNGGA,042903.00,0419.93232,S,05539.90190,E,2,12,0.68,15.1,M,-47.6,M,,0000*4E
$GNGSA,A,3,24,20,05,13,15,22,12,14,18,,,,1.32,0.68,1.13*19
$GNGSA,A,3,86,74,75,87,85,73,71,72,,,,,1.32,0.68,1.13*1B
$GPGSV,5,1,18,05,52,149,29,06,02,029,,11,33,019,,12,23,354,26*72
$GPGSV,5,2,18,13,23,166,40,14,08,121,28,15,27,202,36,18,15,224,42*7F
$GPGSV,5,3,18,20,51,085,40,22,20,104,41,24,63,269,34,25,02,330,*77
$GPGSV,5,4,18,29,11,289,,36,52,277,,40,86,350,39,41,58,082,*7D
$GPGSV,5,5,18,49,32,274,37,50,10,089,*7C
$GLGSV,3,1,11,70,00,098,13,71,13,139,36,72,14,188,37,73,11,144,36*6C
$GLGSV,3,2,11,74,50,114,24,75,51,018,34,76,03,341,,85,08,010,12*6B
$GLGSV,3,3,11,86,44,320,20,87,36,257,34,,,,40*61
$GNGLL,0419.93232,S,05539.90190,E,042903.00,A,D*6D
$GNGRS,042903.00,1,-0.3,0.1,0.2,1.7,-0.9,0.9,-6.4,3.7,-0.3,,,*71
$GNGRS,042903.00,1,1.6,13.8,-2.2,5.7,-57.7,-2.9,-2.6,-12.7,,,,*40
$GNGST,042903.00,28,,,,2.0,1.0,3.3*4C
$GNZDA,042903.00,23,05,2025,00,00*75
$GNGBS,042903.00,2.0,1.0,3.3,,,,*50
$GNTXT,01,01,01,More than 100 frame errors, UART RX was disabled*70
b0ph4:!b*
y',,3U+hA$?J!{4+V^):R( 
Y$`FbG%H%I%J2rK&3(LUU
V,@W"$(Jbhre ;$GNRMC,042904.00,A,0419.93234,S,05539.90192,E,0.097,,230525,,,D*7A
$GNVTG,,T,,M,0.097,N,0.179,K,D*39
$GNGNS,042904.00,0419.93234,S,05539.90192,E,DA,17,0.68,15.2,-47.6,,0000*67
$GNGGA,042904.00,0419.93234,S,05539.90192,E,2,12,0.68,15.2,M,-47.6,M,,0000*4E
$GNGSA,A,3,24,20,05,13,15,22,12,14,18,,,,1.32,0.68,1.13*19
$GNGSA,A,3,86,74,75,87,85,73,71,72,,,,,1.32,0.68,1.13*1B
$GPGSV,5,1,18,05,52,149,30,06,02,029,,11,33,019,,12,23,354,24*78
$GPGSV,5,2,18,13,23,166,42,14,08,121,29,15,27,202,39,18,15,224,44*75
$GPGSV,5,3,18,20,51,085,44,22,20,104,43,24,63,269,36,25,02,330,*73
$GPGSV,5,4,18,29,11,289,,36,52,277,,40,86,350,43,41,58,082,41*75
$GPGSV,5,5,18,49,32,274,40,50,10,089,*7C
$GLGSV,3,1,11,70,00,098,11,71,13,139,37,72,14,188,37,73,11,144,37*6E
$GLGSV,3,2,11,74,50,114,25,75,51,018,38,76,03,341,,85,08,010,14*60
$GLGSV,3,3,11,86,44,320,19,87,36,257,34,,,,40*6B
$GNGLL,0419.93234,S,05539.90192,E,042904.00,A,D*6E
$GNGRS,042904.00,1,-0.7,0.0,0.6,1.6,-1.1,0.7,-3.5,1.6,-0.3,,,*76
$GNGRS,042904.00,1,1.3,15.2,-2.2,6.9,20.5,-3.1,-2.7,-12.8,,,,*6B
$GNGST,042904.00,30,,,,2.0,1.0,3.3*42
$GNZDA,042904.00,23,05,2025,00,00*72
$GNGBS,042904.00,2.0,1.0,3.3,,,,*57
$GNTXT,01,01,01,More than 100 frame errors, UART RX was disabled*70
b0pl4!b*
y',+3U+h)%?J!{4+V^):R( 
Y#`FbG%H&I%J2r(K&3+LUU
)V,@W"$_){blrM r$GNRMC,042905.00,A,0419.93233,S,05539.90192,E,0.099,,230525,,,D*72
$GNVTG,,T,,M,0.099,N,0.183,K,D*32
$GNGNS,042905.00,0419.93233,S,05539.90192,E,DA,17,0.68,15.2,-47.6,,0000*61
$GNGGA,042905.00,0419.93233,S,05539.90192,E,2,12,0.68,15.2,M,-47.6,M,,0000*48
$GNGSA,A,3,24,20,05,13,15,22,12,14,18,,,,1.32,0.68,1.13*19
$GNGSA,A,3,86,74,75,87,85,73,71,72,,,,,1.32,0.68,1.13*1B
$GPGSV,5,1,18,05,52,149,31,06,02,029,,11,33,019,,12,23,354,24*79
$GPGSV,5,2,18,13,23,166,42,14,08,121,29,15,27,202,39,18,15,224,44*75
$GPGSV,5,3,18,20,51,085,43,22,20,104,43,24,63,269,37,25,02,330,*75
$GPGSV,5,4,18,29,11,289,,36,52,277,,40,86,350,43,41,58,082,41*75
$GPGSV,5,5,18,49,32,274,40,50,10,089,*7C
$GLGSV,3,1,11,70,00,098,12,71,13,139,37,72,14,188,38,73,11,144,37*62
$GLGSV,3,2,11,74,50,114,24,75,51,018,38,76,03,341,,85,08,010,12*67
$GLGSV,3,3,11,86,44,320,19,87,36,257,34,,,,41*6A
$GNGLL,0419.93233,S,05539.90192,E,042905.00,A,D*68
$GNGRS,042905.00,1,-0.9,-0.3,0.1,1.5,-1.0,0.4,-3.3,4.4,0.0,,,*7E
$GNGRS,042905.00,1,1.6,15.8,-2.1,3.5,20.9,-3.1,-2.7,-12.8,,,,*63
$GNGST,042905.00,31,,,,2.0,1.0,3.3*42
$GNZDA,042905.00,23,05,2025,00,00*73
$GNGBS,042905.00,2.0,1.0,3.3,,,,*56
$GNTXT,01,01,01,More than 100 frame errors, UART RX was disabled*70
b0pp4!b*
y%&,,3U+h9%?J!{4*V^*:R( 
Y$`Fb_NG%H&I%J2rqK&3LUU
V,@'W"$)Fbpr5 J$GNRMC,042906.00,A,0419.93233,S,05539.90193,E,0.041,,230525,,,D*75
$GNVTG,,T,,M,0.041,N,0.077,K,D*3D
$GNGNS,042906.00,0419.93233,S,05539.90193,E,DA,17,0.68,15.2,-47.6,,0000*63
$GNGGA,042906.00,0419.93233,S,05539.90193,E,2,12,0.68,15.2,M,-47.6,M,,0000*4A
$GNGSA,A,3,24,20,05,13,15,22,12,14,18,,,,1.32,0.68,1.13*19
$GNGSA,A,3,86,74,75,87,85,73,71,72,,,,,1.32,0.68,1.13*1B
$GPGSV,5,1,18,05,52,149,31,06,02,029,,11,33,019,,12,23,354,25*78
$GPGSV,5,2,18,13,23,166,42,14,08,121,30,15,27,202,38,18,15,224,44*7C
$GPGSV,5,3,18,20,51,085,44,22,20,104,43,24,63,269,37,25,02,330,*72
$GPGSV,5,4,18,29,11,289,,36,52,277,,40,86,350,42,41,58,082,42*77
$GPGSV,5,5,18,49,32,274,40,50,10,089,*7C
$GLGSV,3,1,11,70,00,098,13,71,13,139,37,72,14,188,38,73,11,144,37*63
$GLGSV,3,2,11,74,50,114,24,75,51,018,38,76,03,341,,85,08,010,14*61
$GLGSV,3,3,11,86,44,320,17,87,36,257,34,,,,41*64
$GNGLL,0419.93233,S,05539.90193,E,042906.00,A,D*6A
$GNGRS,042906.00,1,-1.0,-0.1,1.6,1.8,-1.1,0.6,-2.8,5.5,0.2,,,*77
$GNGRS,042906.00,1,0.4,16.5,-2.3,7.8,-62.7,-3.1,-2.7,-12.6,,,,*4D
$GNGST,042906.00,31,,,,2.0,1.0,3.3*41
$GNZDA,042906.00,23,05,2025,00,00*70
$GNGBS,042906.00,2.0,1.0,3.3,,,,*55
$GNTXT,01,01,01,More than 100 frame errors, UART RX was disabled*70
b0pt4!be+
y&+,+3U+hO$?5J!{4*V^*:R( 
Y$`FbG%H&I$J2rK%3LUU
V,@W"$z*btr "s$GNRMC,042907.00,A,0419.93234,S,05539.90193,E,0.092,,230525,,,D*7D
$GNVTG,,T,,M,0.092,N,0.170,K,D*35
$GNGNS,042907.00,0419.93234,S,05539.90193,E,DA,17,0.68,15.3,-47.6,,0000*64
$GNGGA,042907.00,0419.93234,S,05539.90193,E,2,12,0.68,15.3,M,-47.6,M,,0000*4D
$GNGSA,A,3,24,20,05,13,15,22,12,14,18,,,,1.32,0.68,1.13*19
$GNGSA,A,3,86,74,75,87,85,73,71,72,,,,,1.32,0.68,1.13*1B
$GPGSV,5,1,18,05,52,149,31,06,02,029,,11,33,019,,12,23,354,25*78
$GPGSV,5,2,18,13,23,166,43,14,08,121,31,15,27,202,38,18,15,224,43*7B
$GPGSV,5,3,18,20,51,085,43,22,20,104,43,24,63,269,36,25,02,330,*74
$GPGSV,5,4,18,29,11,289,,36,52,277,,40,86,350,42,41,58,082,42*77
$GPGSV,5,5,18,49,32,274,40,50,10,089,*7C
$GLGSV,3,1,11,70,00,098,13,71,13,139,37,72,14,188,38,73,11,144,36*62
$GLGSV,3,2,11,74,50,114,23,75,51,018,37,76,03,341,,85,08,010,11*6C
$GLGSV,3,3,11,86,44,320,16,87,36,257,34,,,,42*66
$GNGLL,0419.93234,S,05539.90193,E,042907.00,A,D*6C
$GNGRS,042907.00,1,-2.0,-0.3,4.6,1.6,-1.2,0.8,-4.1,3.9,0.4,,,*72
$GNGRS,042907.00,1,-3.1,17.4,-2.5,8.9,20.1,-3.3,-2.7,-12.7,,,,*41
$GNGST,042907.00,32,,,,2.0,1.0,3.3*43
$GNZDA,042907.00,23,05,2025,00,00*71
$GNGBS,042907.00,2.0,1.0,3.3,,,,*54
$GNTXT,01,01,01,More than 100 frame errors, UART RX was disabled*70
b0ppx4!b+
y&o+(+3U+hS$?,J!{4*V^*:R( 
Y$`HFbG%H&I$J2r}K&3LUU
V,@(W"$*bpxr $GNRMC,042908.00,A,0419.93241,S,05539.90196,E,0.206,,230525,,,D*7A
$GNVTG,,T,,M,0.206,N,0.382,K,D*35
$GNGNS,042908.00,0419.93241,S,05539.90196,E,DA,17,0.61,15.4,-47.6,,0000*62
$GNGGA,042908.00,0419.93241,S,05539.90196,E,2,12,0.61,15.4,M,-47.6,M,,0000*4B
$GNGSA,A,3,24,20,05,13,15,22,12,14,18,,,,1.16,0.61,0.98*14
$GNGSA,A,3,86,74,75,87,85,73,71,72,,,,,1.16,0.61,0.98*16
$GPGSV,5,1,18,05,52,149,30,06,02,029,,11,33,019,,12,23,354,25*79
$GPGSV,5,2,18,13,23,166,43,14,08,121,31,15,27,202,38,18,15,224,43*7B
$GPGSV,5,3,18,20,51,085,43,22,20,104,43,24,63,269,36,25,02,330,*74
$GPGSV,5,4,18,29,11,289,,36,52,277,,40,86,350,42,41,58,082,42*77
$GPGSV,5,5,18,49,32,274,40,50,10,089,*7C
$GLGSV,3,1,11,70,00,098,16,71,13,139,37,72,14,188,38,73,11,144,36*67
$GLGSV,3,2,11,74,50,114,23,75,51,018,38,76,03,341,,85,08,010,13*61
$GLGSV,3,3,11,86,44,320,15,87,36,257,34,,,,42*65
$GNGLL,0419.93241,S,05539.90196,E,042908.00,A,D*64
$GNGRS,042908.00,1,-2.1,-0.4,4.6,1.9,-1.5,0.8,-7.8,4.0,0.4,,,*77
$GNGRS,042908.00,1,-7.3,16.6,-2.4,7.0,20.1,-3.4,-2.7,-12.8,,,,*44
$GNGST,042908.00,158282,,,,2.0,1.0,3.3*49
$GNZDA,042908.00,23,05,2025,00,00*7E
$GNGBS,042908.00,2.0,1.0,3.3,,,,*5B
$GNTXT,01,01,01,More than 100 frame errors, UART RX was disabled*70
b0pX|4!b*
y%++3U*hQ#?!J!{4*V^):R( 
Y#`^FbG%H&I$J2rqK&3$LUU
V,@8W"$*bX|r @$GNRMC,042909.00,A,0419.93243,S,05539.90196,E,0.089,,230525,,,D*7C
$GNVTG,,T,,M,0.089,N,0.165,K,D*3B
$GNGNS,042909.00,0419.93243,S,05539.90196,E,DA,17,0.68,15.5,-47.6,,0000*69
$GNGGA,042909.00,0419.93243,S,05539.90196,E,2,12,0.68,15.5,M,-47.6,M,,0000*40
$GNGSA,A,3,24,20,05,13,15,22,12,14,18,,,,1.32,0.68,1.13*19
$GNGSA,A,3,86,74,75,87,85,73,71,72,,,,,1.32,0.68,1.13*1B
$GPGSV,5,1,18,05,52,149,30,06,02,029,,11,33,019,,12,23,354,24*78
$GPGSV,5,2,18,13,23,166,42,14,08,121,30,15,27,202,37,18,15,224,43*74
$GPGSV,5,3,18,20,51,085,43,22,20,104,42,24,63,269,35,25,02,330,*76
$GPGSV,5,4,18,29,11,289,,36,52,277,,40,86,350,42,41,58,082,41*74
$GPGSV,5,5,18,49,32,274,40,50,10,089,*7C
$GLGSV,3,1,11,70,00,098,12,71,13,139,37,72,14,188,38,73,11,144,36*63
$GLGSV,3,2,11,74,50,114,23,75,51,018,38,76,03,341,,85,08,010,12*60
$GLGSV,3,3,11,86,44,320,16,87,36,257,34,,,,42*66
$GNGLL,0419.93243,S,05539.90196,E,042909.00,A,D*67
$GNGRS,042909.00,1,0.3,-0.3,6.6,2.2,-1.2,0.8,-7.5,4.1,0.3,,,*5A
$GNGRS,042909.00,1,-7.1,16.5,-2.2,9.7,-41.4,-3.5,-2.8,-12.9,,,,*6B
$GNGST,042909.00,32,,,,2.0,1.0,3.3*4D
$GNZDA,042909.00,23,05,2025,00,00*7F
$GNGBS,042909.00,2.0,1.0,3.3,,,,*5A
$GNTXT,01,01,01,More than 100 frame errors, UART RX was disabled*70
b0p@4!b)
y%++3U*ha#?J!{4)V^):R( 
Y#`FbG%H&I$J2rK%3=LUU

V,@W"$*wEb@r $GNRMC,042910.00,A,0419.93242,S,05539.90196,E,0.079,,230525,,,D*7A
$GNVTG,,T,,M,0.079,N,0.147,K,D*34
$GNGNS,042910.00,0419.93242,S,05539.90196,E,DA,17,0.68,15.4,-47.6,,0000*61
$GNGGA,042910.00,0419.93242,S,05539.90196,E,2,12,0.68,15.4,M,-47.6,M,,0000*48
$GNGSA,A,3,24,20,05,13,15,22,12,14,18,,,,1.32,0.68,1.13*19
$GNGSA,A,3,86,74,75,87,85,73,71,72,,,,,1.32,0.68,1.13*1B
$GPGSV,5,1,18,05,52,149,31,06,02,029,,11,33,019,,12,24,354,24*7E
$GPGSV,5,2,18,13,23,166,41,14,08,121,31,15,27,202,37,18,15,224,43*76
$GPGSV,5,3,18,20,51,085,43,22,20,104,42,24,63,269,35,25,02,330,*76
$GPGSV,5,4,18,29,11,289,,36,52,277,,40,86,350,41,41,58,082,41*77
$GPGSV,5,5,18,49,32,274,40,50,10,089,*7C
$GLGSV,3,1,11,70,00,098,15,71,13,139,37,72,14,188,38,73,11,144,36*64
$GLGSV,3,2,11,74,50,114,22,75,51,018,37,76,03,341,,85,08,010,10*6C
$GLGSV,3,3,11,86,44,320,15,87,36,257,34,,,,42*65
$GNGLL,0419.93242,S,05539.90196,E,042910.00,A,D*6E
$GNGRS,042910.00,1,-1.2,-0.6,4.2,2.5,-1.1,1.0,-5.9,4.5,0.1,,,*79
$GNGRS,042910.00,1,-5.8,17.7,-1.9,9.2,20.2,-3.4,-2.9,-12.9,,,,*4A
$GNGST,042910.00,33,,,,2.0,1.0,3.3*44
$GNZDA,042910.00,23,05,2025,00,00*77
$GNGBS,042910.00,2.0,1.0,3.3,,,,*52
$GNTXT,01,01,01,More than 100 frame errors, UART RX was disabled*70
b0p(43!b*
y%++3U+hj"?pJ!{4)V^):R( 
Y#`FbG%H&I%J2r(K%3RLUU
V,@W"$*b(r $GNRMC,042911.00,A,0419.93243,S,05539.90197,E,0.083,,230525,,,D*7E
$GNVTG,,T,,M,0.083,N,0.153,K,D*34
$GNGNS,042911.00,0419.93243,S,05539.90197,E,DA,17,0.68,15.4,-47.6,,0000*60
$GNGGA,042911.00,0419.93243,S,05539.90197,E,2,12,0.68,15.4,M,-47.6,M,,0000*49
$GNGSA,A,3,24,20,05,13,15,22,12,14,18,,,,1.32,0.68,1.13*19
$GNGSA,A,3,86,74,75,87,85,73,71,72,,,,,1.32,0.68,1.13*1B
$GPGSV,5,1,18,05,52,149,31,06,02,029,,11,33,019,,12,24,354,24*7E
$GPGSV,5,2,18,13,23,166,42,14,08,121,30,15,27,202,37,18,15,224,43*74
$GPGSV,5,3,18,20,51,085,43,22,20,104,43,24,63,269,34,25,02,330,*76
$GPGSV,5,4,18,29,11,289,,36,52,277,,40,86,350,41,41,58,082,41*77
$GPGSV,5,5,18,49,32,274,40,50,10,089,*7C
$GLGSV,3,1,11,70,00,098,12,71,13,139,37,72,14,188,38,73,11,144,37*62
$GLGSV,3,2,11,74,50,114,22,75,51,018,37,76,03,341,,85,08,010,16*6A
$GLGSV,3,3,11,86,44,320,15,87,36,257,34,,,,42*65
$GNGLL,0419.93243,S,05539.90197,E,042911.00,A,D*6F
$GNGRS,042911.00,1,-1.4,-0.6,5.6,2.4,-1.3,1.1,-4.9,4.9,0.0,,,*75
$GNGRS,042911.00,1,-5.9,18.3,-1.7,4.5,20.1,-3.3,-2.9,-13.0,,,,*49
$GNGST,042911.00,33,,,,2.0,1.0,3.3*45
$GNZDA,042911.00,23,05,2025,00,00*76
$GNGBS,042911.00,2.0,1.0,3.3,,,,*53
$GNTXT,01,01,01,More than 100 frame errors, UART RX was disabled*70
b0p 4!b*
yW&x,,3U,h<$?[J!{4+V^*:R* 
Y$`FbG%H&I%J2rK%3kLUU
V,@W"$z*<br!Zz$GNRMC,042912.00,A,0419.93244,S,05539.90198,E,0.049,,230525,,,D*73
$GNVTG,,T,,M,0.049,N,0.090,K,D*3C
$GNGNS,042912.00,0419.93244,S,05539.90198,E,DA,16,0.83,15.4,-47.6,,0000*6F
$GNGGA,042912.00,0419.93244,S,05539.90198,E,2,12,0.83,15.4,M,-47.6,M,,0000*47
$GNGSA,A,3,24,20,05,13,15,22,14,18,,,,,1.53,0.83,1.29*11
$GNGSA,A,3,86,74,75,87,85,73,71,72,,,,,1.53,0.83,1.29*10
$GPGSV,5,1,18,05,52,149,32,06,02,029,,11,33,019,,12,24,354,25*7C
$GPGSV,5,2,18,13,23,166,42,14,07,121,31,15,27,202,38,18,15,224,44*72
$GPGSV,5,3,18,20,51,085,44,22,20,104,44,24,63,269,36,25,02,330,*74
$GPGSV,5,4,18,29,11,289,,36,52,277,,40,86,350,43,41,58,082,42*76
$GPGSV,5,5,18,49,32,274,42,50,10,089,*7E
$GLGSV,3,1,11,70,00,098,14,71,13,139,37,72,14,188,38,73,11,144,37*64
$GLGSV,3,2,11,74,50,114,22,75,51,018,37,76,03,341,,85,08,010,12*6E
$GLGSV,3,3,11,86,44,320,16,87,36,257,34,,,,42*66
$GNGLL,0419.93244,S,05539.90198,E,042912.00,A,D*64
$GNGRS,042912.00,1,-1.7,-0.5,-0.5,2.5,-1.4,0.6,6.0,-0.2,,,,*77
$GNGRS,042912.00,1,-5.9,19.2,-1.5,1.2,-127,-3.2,-3.0,-12.9,,,,*4F
$GNGST,042912.00,30,,,,2.0,1.0,3.3*45
$GNZDA,042912.00,23,05,2025,00,00*75
$GNGBS,042912.00,2.0,1.0,3.3,,,,*50
$GNTXT,01,01,01,More than 100 frame errors, UART RX was disabled*70
b0p"4b!b,+
 y&s,,3U,h1$?IJ!{4+V^*:R) 
Y$`OFbG&H&I%J2rcK&3mLUU
V,@IW#$+:br!1$GNRMC,042913.00,A,0419.93244,S,05539.90198,E,0.070,,230525,,,D*78
$GNVTG,,T,,M,0.070,N,0.129,K,D*35
$GNGNS,042913.00,0419.93244,S,05539.90198,E,DA,17,0.68,15.4,-47.6,,0000*6A
$GNGGA,042913.00,0419.93244,S,05539.90198,E,2,12,0.68,15.4,M,-47.6,M,,0000*43
$GNGSA,A,3,24,20,05,13,15,22,12,14,18,,,,1.32,0.68,1.13*19
$GNGSA,A,3,86,74,75,87,85,73,71,72,,,,,1.32,0.68,1.13*1B
$GPGSV,5,1,18,05,52,149,34,06,02,029,,11,33,019,,12,24,354,26*79
$GPGSV,5,2,18,13,23,166,43,14,07,121,32,15,27,202,38,18,15,224,44*70
$GPGSV,5,3,18,20,51,085,44,22,20,104,44,24,63,269,36,25,02,330,*74
$GPGSV,5,4,18,29,11,289,24,36,52,277,,40,86,350,43,41,58,082,42*70
$GPGSV,5,5,18,49,32,274,41,50,10,089,*7D
$GLGSV,3,1,11,70,00,098,11,71,13,139,38,72,14,188,38,73,11,144,37*6E
$GLGSV,3,2,11,74,50,114,22,75,51,018,38,76,03,341,,85,08,010,15*66
$GLGSV,3,3,11,86,44,320,17,87,36,257,35,,,,43*67
$GNGLL,0419.93244,S,05539.90198,E,042913.00,A,D*65
$GNGRS,042913.00,1,0.7,-0.9,-1.6,2.5,-1.4,0.5,0.4,2.8,0.1,,,*5F
$GNGRS,042913.00,1,-4.4,18.9,-1.5,2.0,20.1,-3.2,-3.1,-13.3,,,,*47
$GNGST,042913.00,32,,,,2.0,1.0,3.3*46
$GNZDA,042913.00,23,05,2025,00,00*74
$GNGBS,042913.00,2.0,1.0,3.3,,,,*51
$GNTXT,01,01,01,More than 100 frame errors, UART RX was disabled*70
b0p!4!b*
 y&g,+3U+h6#?J!{4*V^):R) 
Y#`FbG&H'I%J2rK&3}LUU
V,@_W#$Y+!bru
!;$GNRMC,042914.00,A,0419.93240,S,05539.90198,E,0.036,,230525,,,D*79
$GNVTG,,T,,M,0.036,N,0.067,K,D*3C
$GNGNS,042914.00,0419.93240,S,05539.90198,E,DA,17,0.70,15.3,-47.6,,0000*67
$GNGGA,042914.00,0419.93240,S,05539.90198,E,2,12,0.70,15.3,M,-47.6,M,,0000*4E
$GNGSA,A,3,24,20,05,13,15,22,12,14,18,,,,1.42,0.70,1.23*14
$GNGSA,A,3,86,74,75,87,85,73,71,72,,,,,1.42,0.70,1.23*16
$GPGSV,5,1,18,05,52,149,33,06,02,029,,11,33,019,,12,24,354,26*7E
$GPGSV,5,2,18,13,23,166,42,14,07,121,32,15,27,202,38,18,15,224,44*71
$GPGSV,5,3,18,20,51,085,43,22,20,104,43,24,63,269,35,25,02,330,*77
$GPGSV,5,4,18,29,11,289,,36,52,277,,40,86,350,42,41,58,082,41*74
$GPGSV,5,5,18,49,32,274,41,50,10,089,*7D
$GLGSV,3,1,11,70,00,098,13,71,13,139,38,72,14,188,39,73,11,144,37*6D
$GLGSV,3,2,11,74,50,114,21,75,51,018,38,76,03,341,,85,08,010,14*64
$GLGSV,3,3,11,86,44,320,17,87,36,257,35,,,,43*67
$GNGLL,0419.93240,S,05539.90198,E,042914.00,A,D*66
$GNGRS,042914.00,1,1.5,-0.6,-5.2,2.6,-1.5,0.5,2.5,2.6,0.0,,,*5A
$GNGRS,042914.00,1,-9.3,20.2,-1.3,3.4,20.0,-3.3,-2.8,-13.1,,,,*43
$GNGST,042914.00,29,,,,2.0,1.0,3.3*4B
$GNZDA,042914.00,23,05,2025,00,00*73
$GNGBS,042914.00,2.0,1.0,3.3,,,,*56
$GNTXT,01,01,01,More than 100 frame errors, UART RX was disabled*70
b0p 4!b!*
!y%j,+3U+h2#?J!{4*V^*:R) 
Y$`FbG&H'I%J2rdK&3LUU
V,@W#$7+Cbr]!$GNRMC,042915.00,A,0419.93236,S,05539.90198,E,0.037,,230525,,,D*78
$GNVTG,,T,,M,0.037,N,0.069,K,D*33
$GNGNS,042915.00,0419.93236,S,05539.90198,E,DA,16,0.72,15.1,-47.6,,0000*66
$GNGGA,042915.00,0419.93236,S,05539.90198,E,2,12,0.72,15.1,M,-47.6,M,,0000*4E
$GNGSA,A,3,24,20,05,13,15,22,12,14,18,,,,1.34,0.72,1.13*14
$GNGSA,A,3,74,75,87,85,73,71,72,,,,,,1.34,0.72,1.13*18
$GPGSV,5,1,18,05,52,149,32,06,02,029,,11,33,019,,12,24,354,26*7F
$GPGSV,5,2,18,13,23,166,42,14,07,121,33,15,27,202,37,18,15,224,44*7F
$GPGSV,5,3,18,20,51,085,43,22,20,104,43,24,63,269,35,25,02,330,*77
$GPGSV,5,4,18,29,11,289,,36,52,277,,40,86,350,42,41,58,082,42*77
$GPGSV,5,5,18,49,32,274,41,50,10,089,*7D
$GLGSV,3,1,11,70,00,098,12,71,13,139,38,72,14,188,39,73,11,144,37*6C
$GLGSV,3,2,11,74,50,114,21,75,51,018,38,76,03,341,,85,08,010,14*64
$GLGSV,3,3,11,86,44,320,,87,36,257,35,,,,43*61
$GNGLL,0419.93236,S,05539.90198,E,042915.00,A,D*66
$GNGRS,042915.00,1,1.6,-0.9,-3.4,2.4,-1.5,0.5,2.9,4.5,-0.1,,,*70
$GNGRS,042915.00,1,18.9,-1.2,3.1,66.6,-3.3,-2.8,-13.1,,,,,*4B
$GNGST,042915.00,27,,,,2.0,1.0,3.3*44
$GNZDA,042915.00,23,05,2025,00,00*72
$GNGBS,042915.00,2.0,1.0,3.3,,,,*57
$GNTXT,01,01,01,More than 100 frame errors, UART RX was disabled*70
b0p 4E!bR*
 y %,+3U+h-#?J!{4*V^*:R( 
Y$`RFbG&H'I%J2r+K&3LUU
V,@W"$2*9brE!$GNRMC,042916.00,A,0419.93233,S,05539.90198,E,0.013,,230525,,,D*78
$GNVTG,,T,,M,0.013,N,0.024,K,D*3C
$GNGNS,042916.00,0419.93233,S,05539.90198,E,DA,16,0.72,15.1,-47.6,,0000*60
$GNGGA,042916.00,0419.93233,S,05539.90198,E,2,12,0.72,15.1,M,-47.6,M,,0000*48
$GNGSA,A,3,24,20,05,13,15,22,12,14,18,,,,1.34,0.72,1.13*14
$GNGSA,A,3,74,75,87,85,73,71,72,,,,,,1.34,0.72,1.13*18
$GPGSV,5,1,18,05,52,149,32,06,02,029,,11,33,019,,12,24,354,27*7E
$GPGSV,5,2,18,13,23,166,42,14,07,121,32,15,27,202,37,18,15,224,44*7E
$GPGSV,5,3,18,20,51,085,43,22,20,104,43,24,63,269,35,25,02,330,*77
$GPGSV,5,4,18,29,11,289,,36,52,277,,40,86,350,42,41,58,082,42*77
$GPGSV,5,5,18,49,32,274,40,50,10,089,*7C
$GLGSV,3,1,11,70,00,098,12,71,13,139,38,72,14,188,39,73,11,144,37*6C
$GLGSV,3,2,11,74,50,114,20,75,51,018,38,76,03,341,,85,08,010,12*63
$GLGSV,3,3,11,86,44,320,,87,36,257,34,,,,42*61
$GNGLL,0419.93233,S,05539.90198,E,042916.00,A,D*60
$GNGRS,042916.00,1,2.1,-0.4,0.7,2.6,-1.2,0.4,3.4,2.9,-0.1,,,*55
$GNGRS,042916.00,1,18.3,-1.3,5.6,20.2,-3.0,-2.9,-13.1,,,,,*46
$GNGST,042916.00,27,,,,2.0,1.0,3.3*47
$GNZDA,042916.00,23,05,2025,00,00*71
$GNGBS,042916.00,2.0,1.0,3.3,,,,*54
$GNTXT,01,01,01,More than 100 frame errors, UART RX was disabled*70
b0p4!b")
 y%,*3U*h!#?J!{4*V^):R' 
Y#`FbG&H&I%J2rfK&3WLUU
V,@W"$g*br-!s$GNRMC,042917.00,A,0419.93232,S,05539.90197,E,0.043,,230525,,,D*72
$GNVTG,,T,,M,0.043,N,0.079,K,D*31
$GNGNS,042917.00,0419.93232,S,05539.90197,E,DA,16,0.72,15.1,-47.6,,0000*6F
$GNGGA,042917.00,0419.93232,S,05539.90197,E,2,12,0.72,15.1,M,-47.6,M,,0000*47
$GNGSA,A,3,24,20,05,13,15,22,12,14,18,,,,1.34,0.72,1.13*14
$GNGSA,A,3,74,75,87,85,73,71,72,,,,,,1.34,0.72,1.13*18
$GPGSV,5,1,18,05,52,149,30,06,02,029,,11,33,019,,12,24,354,25*7E
$GPGSV,5,2,18,13,23,166,41,14,07,121,32,15,27,202,37,18,15,224,44*7D
$GPGSV,5,3,18,20,51,085,42,22,20,104,42,24,63,269,35,25,02,330,*77
$GPGSV,5,4,18,29,11,289,,36,52,277,,40,86,350,42,41,58,082,41*74
$GPGSV,5,5,18,49,32,274,39,50,10,089,*72
$GLGSV,3,1,11,70,00,098,14,71,13,139,38,72,14,188,38,73,11,144,37*6B
$GLGSV,3,2,11,74,50,114,21,75,51,018,38,76,03,341,,85,08,010,15*65
$GLGSV,3,3,11,86,44,320,,87,36,257,34,,,,42*61
$GNGLL,0419.93232,S,05539.90197,E,042917.00,A,D*6F
$GNGRS,042917.00,1,2.4,-0.2,2.1,2.5,-1.0,0.3,5.5,-0.1,-0.2,,,*76
$GNGRS,042917.00,1,18.9,-1.7,8.7,20.2,-2.6,-2.9,-13.1,,,,,*42
$GNGST,042917.00,28,,,,2.0,1.0,3.3*49
$GNZDA,042917.00,23,05,2025,00,00*70
$GNGBS,042917.00,2.0,1.0,3.3,,,,*55
$GNTXT,01,01,01,More than 100 frame errors, UART RX was disabled*70
b0p4!bg) 
!y%,*3T*h!#?J!{4*V^):R' 
Y#`Fb(G&H&I%J2r/K&3hLUU
V,@W#$+*gbr!i$GNRMC,042918.00,A,0419.93231,S,05539.90198,E,0.020,,230525,,,D*74
$GNVTG,,T,,M,0.020,N,0.037,K,D*3E
$GNGNS,042918.00,0419.93231,S,05539.90198,E,DA,16,0.72,15.1,-47.6,,0000*6C
$GNGGA,042918.00,0419.93231,S,05539.90198,E,2,12,0.72,15.1,M,-47.6,M,,0000*44
$GNGSA,A,3,24,20,05,13,15,22,12,14,18,,,,1.34,0.72,1.13*14
$GNGSA,A,3,74,75,87,85,73,71,72,,,,,,1.34,0.72,1.13*18
$GPGSV,5,1,18,05,52,149,30,06,02,029,,11,33,019,,12,24,354,24*7F
$GPGSV,5,2,18,13,23,166,41,14,07,121,33,15,27,202,37,18,15,224,44*7C
$GPGSV,5,3,18,20,51,084,42,22,20,104,42,24,63,269,35,25,02,330,*76
$GPGSV,5,4,18,29,11,289,,36,52,277,,40,86,350,42,41,58,082,41*74
$GPGSV,5,5,18,49,32,274,39,50,10,089,*72
$GLGSV,3,1,11,70,00,098,14,71,13,139,38,72,14,188,38,73,11,144,37*6B
$GLGSV,3,2,11,74,50,114,22,75,51,018,38,76,03,341,,85,08,010,14*67
$GLGSV,3,3,11,86,44,320,,87,36,257,35,,,,42*60
$GNGLL,0419.93231,S,05539.90198,E,042918.00,A,D*6C
$GNGRS,042918.00,1,2.8,0.1,2.5,2.9,-0.8,0.3,6.1,-2.3,-0.1,,,*5E
$GNGRS,042918.00,1,18.4,-1.5,0.4,-126,-2.5,-2.9,-13.4,,,,,*49
$GNGST,042918.00,25,,,,2.0,1.0,3.3*4B
$GNZDA,042918.00,23,05,2025,00,00*7F
$GNGBS,042918.00,2.0,1.0,3.3,,,,*5A
$GNTXT,01,01,01,More than 100 frame errors, UART RX was disabled*70
b0ph4S!b)
 y%+*3T#+i#?J!{4*V^):R' 
Y#`FbG&H&I%J2rK&3dLUU
V,@W#$*g,bhr!@@$GNRMC,042919.00,A,0419.93230,S,05539.90198,E,0.043,,230525,,,D*71
$GNVTG,,T,,M,0.043,N,0.079,K,D*31
$GNGNS,042919.00,0419.93230,S,05539.90198,E,DA,16,0.72,15.2,-47.6,,0000*6F
$GNGGA,042919.00,0419.93230,S,05539.90198,E,2,12,0.72,15.2,M,-47.6,M,,0000*47
$GNGSA,A,3,24,20,05,13,15,22,12,14,18,,,,1.34,0.72,1.13*14
$GNGSA,A,3,74,75,87,85,73,71,72,,,,,,1.34,0.72,1.13*18
$GPGSV,5,1,18,05,52,149,29,06,02,029,,11,33,019,,12,24,354,24*77
$GPGSV,5,2,18,13,23,166,41,14,07,121,32,15,27,202,37,18,15,224,43*7A
$GPGSV,5,3,18,20,51,084,42,22,20,105,43,24,63,269,35,25,02,330,*76
$GPGSV,5,4,18,29,11,289,,36,52,277,,40,86,350,42,41,58,082,41*74
$GPGSV,5,5,18,49,32,274,39,50,10,089,*72
$GLGSV,3,1,11,70,00,098,11,71,13,139,38,72,14,188,38,73,11,144,37*6E
$GLGSV,3,2,11,74,50,114,23,75,51,018,38,76,03,341,,85,08,010,15*67
$GLGSV,3,3,11,86,44,320,,87,36,257,35,,,,42*60
$GNGLL,0419.93230,S,05539.90198,E,042919.00,A,D*6C
$GNGRS,042919.00,1,-0.4,0.4,3.4,2.8,-1.1,0.2,4.4,-3.8,0.1,,,*51
$GNGRS,042919.00,1,16.9,-1.6,1.9,20.5,-2.3,-2.9,-13.3,,,,,*44
$GNGST,042919.00,26,,,,2.0,1.0,3.4*4E
$GNZDA,042919.00,23,05,2025,00,00*7E
$GNGBS,042919.00,2.0,1.0,3.4,,,,*5C
$GNTXT,01,01,01,More than 100 frame errors, UART RX was disabled*70
b0pP4!b,)!
 y%,*3TM+i'#?J!{4*V^):R' 
Y$`3FbG&H&I%J2rK&3PLUU
V,@W#$*UbPr!!$GNRMC,042920.00,A,0419.93229,S,05539.90199,E,0.015,,230525,,,D*71
$GNVTG,,T,,M,0.015,N,0.029,K,D*37
$GNGNS,042920.00,0419.93229,S,05539.90199,E,DA,16,0.72,15.3,-47.6,,0000*6D
$GNGGA,042920.00,0419.93229,S,05539.90199,E,2,12,0.72,15.3,M,-47.6,M,,0000*45
$GNGSA,A,3,24,20,05,13,15,22,12,14,18,,,,1.34,0.72,1.13*14
$GNGSA,A,3,74,75,87,85,73,71,72,,,,,,1.34,0.72,1.13*18
$GPGSV,5,1,18,05,52,149,29,06,02,029,,11,33,019,,12,24,354,24*77
$GPGSV,5,2,18,13,23,166,41,14,07,121,32,15,27,202,37,18,15,224,44*7D
$GPGSV,5,3,18,20,51,084,42,22,20,105,43,24,63,269,35,25,02,330,*76
$GPGSV,5,4,18,29,11,289,,36,52,277,,40,86,350,42,41,58,082,41*74
$GPGSV,5,5,18,49,32,274,39,50,10,089,*72
$GLGSV,3,1,11,70,00,098,12,71,13,139,38,72,14,188,38,73,11,144,37*6D
$GLGSV,3,2,11,74,50,114,23,75,51,018,38,76,03,341,,85,08,010,13*61
$GLGSV,3,3,11,86,44,320,,87,36,257,35,,,,42*60
$GNGLL,0419.93229,S,05539.90199,E,042920.00,A,D*6F
$GNGRS,042920.00,1,-0.2,0.8,2.5,2.9,-1.3,0.4,3.0,-3.1,0.2,,,*5D
$GNGRS,042920.00,1,15.5,-1.8,5.1,20.5,-2.3,-2.6,-13.0,,,,,*4F
$GNGST,042920.00,26,,,,2.1,1.0,3.4*45
$GNZDA,042920.00,23,05,2025,00,00*74
$GNGBS,042920.00,2.1,1.0,3.4,,,,*57
$GNTXT,01,01,01,More than 100 frame errors, UART RX was disabled*70
b0p84[!b)9
!y%,(3TV+i!#?J!{4*V^(:R' 
Y$`Fb70G%H&I%J2r<K#3-LUU
V,@W"$(b8r%!$GNRMC,042921.00,A,0419.93229,S,05539.90200,E,0.023,,230525,,,D*76
$GNVTG,,T,,M,0.023,N,0.043,K,D*3E
$GNGNS,042921.00,0419.93229,S,05539.90200,E,DA,16,0.72,15.3,-47.6,,0000*6F
$GNGGA,042921.00,0419.93229,S,05539.90200,E,2,12,0.72,15.3,M,-47.6,M,,0000*47
$GNGSA,A,3,24,20,05,13,15,22,12,14,18,,,,1.34,0.72,1.13*14
$GNGSA,A,3,74,75,87,85,73,71,72,,,,,,1.34,0.72,1.13*18
$GPGSV,5,1,18,05,52,149,29,06,02,029,,11,33,019,,12,24,354,24*77
$GPGSV,5,2,18,13,23,166,41,14,07,121,33,15,27,202,37,18,15,224,44*7C
$GPGSV,5,3,18,20,51,084,40,22,20,105,43,24,63,268,35,25,02,330,*75
$GPGSV,5,4,18,29,11,289,,36,52,277,,40,86,350,42,41,58,082,40*75
$GPGSV,5,5,18,49,32,274,39,50,10,089,*72
$GLGSV,3,1,11,70,00,098,11,71,13,139,37,72,14,188,38,73,11,144,37*61
$GLGSV,3,2,11,74,50,114,23,75,51,018,35,76,03,341,,85,08,010,14*6B
$GLGSV,3,3,11,86,44,320,,87,36,257,34,,,,40*63
$GNGLL,0419.93229,S,05539.90200,E,042921.00,A,D*6D
$GNGRS,042921.00,1,-2.3,0.9,3.5,3.1,-0.9,0.3,2.5,0.2,0.3,,,*72
$GNGRS,042921.00,1,13.4,-2.1,6.7,-126,-2.3,-3.0,-13.2,,,,,*42
$GNGST,042921.00,26,,,,2.1,1.0,3.4*44
$GNZDA,042921.00,23,05,2025,00,00*75
$GNGBS,042921.00,2.1,1.0,3.4,,,,*56
$GNTXT,01,01,01,More than 100 frame errors, UART RX was disabled*70
b0p 4!b*2
"yo%,5)3T+i"#?J!{4)V^(:R' 
Y&`FbG%H&I&$J2rK#3=LUU
V,@W"$)Eb r)!x$GNRMC,042922.00,A,0419.93227,S,05539.90199,E,0.015,,230525,,,D*7D
$GNVTG,,T,,M,0.015,N,0.028,K,D*36
$GNGNS,042922.00,0419.93227,S,05539.90199,E,DA,16,0.72,15.3,-47.6,,0000*61
$GNGGA,042922.00,0419.93227,S,05539.90199,E,2,12,0.72,15.3,M,-47.6,M,,0000*49
$GNGSA,A,3,24,20,05,13,15,22,12,14,18,,,,1.34,0.72,1.13*14
$GNGSA,A,3,74,75,87,85,73,71,72,,,,,,1.34,0.72,1.13*18
$GPGSV,5,1,18,05,52,149,29,06,02,029,,11,33,019,,12,24,354,24*77
$GPGSV,5,2,18,13,23,166,42,14,07,121,34,15,27,202,37,18,15,224,44*78
$GPGSV,5,3,18,20,51,084,41,22,20,105,43,24,63,268,35,25,02,330,*74
$GPGSV,5,4,18,29,11,289,,36,52,277,,40,86,350,41,41,58,082,40*76
$GPGSV,5,5,18,49,32,274,39,50,10,089,*72
$GLGSV,3,1,11,70,00,098,13,71,13,139,37,72,14,188,38,73,11,144,38*6C
$GLGSV,3,2,11,74,50,114,24,75,51,018,35,76,03,341,,85,08,010,13*6B
$GLGSV,3,3,11,86,44,320,,87,36,257,34,,,,41*62
$GNGLL,0419.93227,S,05539.90199,E,042922.00,A,D*63
$GNGRS,042922.00,1,-2.6,0.2,4.9,3.1,-1.2,0.3,5.2,-1.5,0.5,,,*53
$GNGRS,042922.00,1,12.8,-2.0,7.6,20.2,-2.2,-3.1,-13.3,,,,,*4A
$GNGST,042922.00,24,,,,2.1,1.0,3.4*45
$GNZDA,042922.00,23,05,2025,00,00*76
$GNGBS,042922.00,2.1,1.0,3.4,,,,*55
$GNTXT,01,01,01,More than 100 frame errors, UART RX was disabled*70
b0p4!b*"
!y&,)3T%+i4#?J!{4*V^):R' 
Y&`FbG&H&I&.J2r&K#3?LUU
V,@W"$)mbr-!$GNRMC,042923.00,A,0419.93224,S,05539.90199,E,0.019,,230525,,,D*73
$GNVTG,,T,,M,0.019,N,0.035,K,D*36
$GNGNS,042923.00,0419.93224,S,05539.90199,E,DA,16,0.63,15.3,-47.6,,0000*63
$GNGGA,042923.00,0419.93224,S,05539.90199,E,2,12,0.63,15.3,M,-47.6,M,,0000*4B
$GNGSA,A,3,24,20,05,13,15,22,12,14,18,,,,1.17,0.63,0.99*16
$GNGSA,A,3,74,75,87,85,73,71,72,,,,,,1.17,0.63,0.99*1A
$GPGSV,5,1,18,05,52,149,28,06,02,029,,11,33,019,,12,24,354,24*76
$GPGSV,5,2,18,13,23,166,42,14,07,121,33,15,27,202,38,18,15,224,44*70
$GPGSV,5,3,18,20,51,084,41,22,20,105,43,24,63,268,35,25,02,330,*74
$GPGSV,5,4,18,29,11,289,,36,52,277,,40,86,350,42,41,58,082,41*74
$GPGSV,5,5,18,49,32,274,39,50,10,089,*72
$GLGSV,3,1,11,70,00,098,15,71,13,139,38,72,14,188,38,73,11,144,38*65
$GLGSV,3,2,11,74,50,114,24,75,51,018,35,76,03,341,,85,08,010,14*6C
$GLGSV,3,3,11,86,44,320,22,87,36,257,34,,,,41*62
$GNGLL,0419.93224,S,05539.90199,E,042923.00,A,D*61
$GNGRS,042923.00,1,2.6,0.4,7.9,2.9,-1.2,0.5,5.4,-1.3,0.3,,,*73
$GNGRS,042923.00,1,13.2,-1.9,4.9,19.8,-2.1,-3.0,-13.3,,,,,*44
$GNGST,042923.00,4363,,,,2.1,1.0,3.4*40
$GNZDA,042923.00,23,05,2025,00,00*77
$GNGBS,042923.00,2.1,1.0,3.4,,,,*54
$GNTXT,01,01,01,More than 100 frame errors, UART RX was disabled*70
b0p4(!b'
 y%*''3T)i/"?J!{4(V^':R' 
Y%`FbG%H&I&?J2rK#3KLUU
<"V,@W#$)Ibr1!w9$GNRMC,042924.00,A,0419.93220,S,05539.90199,E,0.021,,230525,,,D*7B
$GNVTG,,T,,M,0.021,N,0.038,K,D*30
$GNGNS,042924.00,0419.93220,S,05539.90199,E,DA,16,0.72,15.3,-47.6,,0000*60
$GNGGA,042924.00,0419.93220,S,05539.90199,E,2,12,0.72,15.3,M,-47.6,M,,0000*48
$GNGSA,A,3,24,20,05,13,15,22,12,14,18,,,,1.34,0.72,1.13*14
$GNGSA,A,3,74,75,87,85,73,71,72,,,,,,1.34,0.72,1.13*18
$GPGSV,5,1,18,05,52,149,28,06,02,029,,11,33,019,,12,24,354,23*71
$GPGSV,5,2,18,13,23,166,39,14,07,121,32,15,27,202,37,18,15,224,42*74
$GPGSV,5,3,18,20,51,084,39,22,20,105,41,24,63,268,34,25,02,330,*78
$GPGSV,5,4,18,29,11,289,,36,52,277,,40,86,350,40,41,58,082,39*79
$GPGSV,5,5,18,49,32,274,39,50,10,089,*72
$GLGSV,3,1,11,70,00,098,12,71,13,139,37,72,14,188,38,73,11,144,38*6D
$GLGSV,3,2,11,74,50,114,23,75,51,018,35,76,03,341,,85,08,010,13*6C
$GLGSV,3,3,11,86,44,320,21,87,36,257,35,,,,41*60
$GNGLL,0419.93220,S,05539.90199,E,042924.00,A,D*62
$GNGRS,042924.00,1,1.9,0.0,10.6,2.8,-1.3,0.5,4.6,3.9,0.4,,,*64
$GNGRS,042924.00,1,12.8,-1.8,4.5,87.6,-1.9,-2.9,-13.4,,,,,*48
$GNGST,042924.00,25,,,,2.1,1.1,3.5*42
$GNZDA,042924.00,23,05,2025,00,00*70
$GNGBS,042924.00,2.1,1.1,3.5,,,,*53
$GNTXT,01,01,01,More than 100 frame errors, UART RX was disabled*70
b0p4!b>'%
 y%x*&(3T)i!?J!{4(V^':R& 
Y$`FbG%H&I&HJ2r]K#3HLUU
V,@W"$U*bbrm5!O$GNRMC,042925.00,A,0419.93219,S,05539.90199,E,0.040,,230525,,,D*77
$GNVTG,,T,,M,0.040,N,0.074,K,D*3F
$GNGNS,042925.00,0419.93219,S,05539.90199,E,DA,16,0.72,15.3,-47.6,,0000*6B
$GNGGA,042925.00,0419.93219,S,05539.90199,E,2,12,0.72,15.3,M,-47.6,M,,0000*43
$GNGSA,A,3,24,20,05,13,15,22,12,14,18,,,,1.34,0.72,1.13*14
$GNGSA,A,3,74,75,87,85,73,71,72,,,,,,1.34,0.72,1.13*18
$GPGSV,5,1,18,05,52,149,28,06,02,029,,11,33,019,,12,24,354,23*71
$GPGSV,5,2,18,13,23,166,39,14,07,121,32,15,27,202,37,18,15,224,42*74
$GPGSV,5,3,18,20,51,084,40,22,20,105,41,24,63,268,33,25,02,330,*71
$GPGSV,5,4,18,29,11,289,,36,52,277,,40,86,350,40,41,58,082,39*79
$GPGSV,5,5,18,49,32,274,38,50,10,089,*73
$GLGSV,3,1,11,70,00,098,13,71,13,139,37,72,14,188,38,73,11,144,38*6C
$GLGSV,3,2,11,74,50,114,23,75,51,018,35,76,03,341,,85,08,010,12*6D
$GLGSV,3,3,11,86,44,320,19,87,36,257,34,,,,42*69
$GNGLL,0419.93219,S,05539.90199,E,042925.00,A,D*69
$GNGRS,042925.00,1,2.4,-0.3,9.2,2.9,-1.4,0.2,3.2,1.4,0.4,,,*74
$GNGRS,042925.00,1,13.7,-1.8,0.9,20.4,-1.8,-2.8,-13.2,,,,,*46
$GNGST,042925.00,25,,,,2.1,1.1,3.5*43
$GNZDA,042925.00,23,05,2025,00,00*71
$GNGBS,042925.00,2.1,1.1,3.5,,,,*52
$GNTXT,01,01,01,More than 100 frame errors, UART RX was disabled*70
b0p4!b_(3
 y%e*(3T)i!?J"{4'V^(:R& 
Y$`FbG%H&I&<J2rK$3OLUU
V,@W#$*brU9!'$GNRMC,042926.00,A,0419.93216,S,05539.90198,E,0.037,,230525,,,D*7A
$GNVTG,,T,,M,0.037,N,0.069,K,D*33
$GNGNS,042926.00,0419.93216,S,05539.90198,E,DA,16,0.72,15.4,-47.6,,0000*61
$GNGGA,042926.00,0419.93216,S,05539.90198,E,2,12,0.72,15.4,M,-47.6,M,,0000*49
$GNGSA,A,3,24,20,05,13,15,22,12,14,18,,,,1.34,0.72,1.13*14
$GNGSA,A,3,74,75,87,85,73,71,72,,,,,,1.34,0.72,1.13*18
$GPGSV,5,1,18,05,52,149,27,06,02,029,,11,33,019,,12,24,354,22*7F
$GPGSV,5,2,18,13,23,166,40,14,07,121,32,15,27,202,37,18,15,224,42*7A
$GPGSV,5,3,18,20,51,084,40,22,20,105,41,24,63,268,33,25,02,330,*71
$GPGSV,5,4,18,29,11,290,,36,52,277,,40,86,350,39,41,58,082,40*71
$GPGSV,5,5,18,49,32,274,38,50,10,089,*73
$GLGSV,3,1,11,70,00,098,13,71,13,139,37,72,14,188,38,73,11,144,38*6C
$GLGSV,3,2,11,74,50,114,23,75,51,018,36,76,03,341,,85,08,010,13*6F
$GLGSV,3,3,11,86,44,320,18,87,36,257,35,,,,42*69
$GNGLL,0419.93216,S,05539.90198,E,042926.00,A,D*64
$GNGRS,042926.00,1,1.7,-0.7,9.5,3.1,-1.6,0.2,1.0,-0.4,0.2,,,*55
$GNGRS,042926.00,1,14.4,-1.8,6.5,20.3,-2.0,-2.6,-13.2,,,,,*49
$GNGST,042926.00,26,,,,2.1,1.1,3.5*43
$GNZDA,042926.00,23,05,2025,00,00*72
$GNGBS,042926.00,2.1,1.1,3.5,,,,*51
$GNTXT,01,01,01,More than 100 frame errors, UART RX was disabled*70
b0p41!b[''
 y%]+"(3T(i!?J"{4'V^':R& 
Y"`Fb'G%H&I&MJ2rK$3;LUU
0AV,@W#$*br==!q$GNRMC,042927.00,A,0419.93214,S,05539.90197,E,0.011,,230525,,,D*72
$GNVTG,,T,,M,0.011,N,0.020,K,D*3A
$GNGNS,042927.00,0419.93214,S,05539.90197,E,DA,17,0.72,15.4,-47.6,,0000*6C
$GNGGA,042927.00,0419.93214,S,05539.90197,E,2,12,0.72,15.4,M,-47.6,M,,0000*45
$GNGSA,A,3,24,20,05,13,15,22,12,14,18,,,,1.34,0.72,1.13*14
$GNGSA,A,3,86,74,75,87,85,73,71,72,,,,,1.34,0.72,1.13*16
$GPGSV,5,1,18,05,52,149,28,06,02,029,,11,33,019,,12,24,354,21*73
$GPGSV,5,2,18,13,23,166,39,14,07,121,32,15,27,202,37,18,15,224,43*75
$GPGSV,5,3,18,20,51,084,40,22,20,105,40,24,63,268,33,25,02,330,*70
$GPGSV,5,4,18,29,11,290,,36,52,277,,40,86,350,39,41,58,082,39*7F
$GPGSV,5,5,18,49,32,274,38,50,10,089,*73
$GLGSV,3,1,11,70,00,098,13,71,13,139,37,72,14,188,38,73,11,144,38*6C
$GLGSV,3,2,11,74,50,114,22,75,51,018,36,76,03,341,,85,08,010,12*6F
$GLGSV,3,3,11,86,44,320,17,87,36,257,35,,,,42*66
$GNGLL,0419.93214,S,05539.90197,E,042927.00,A,D*68
$GNGRS,042927.00,1,1.5,-0.8,8.2,2.9,-1.6,0.3,0.9,0.3,0.3,,,*74
$GNGRS,042927.00,1,51.1,14.6,-2.0,4.9,167,-1.8,-2.5,-13.0,,,,*71
$GNGST,042927.00,27,,,,2.2,1.1,3.6*43
$GNZDA,042927.00,23,05,2025,00,00*73
$GNGBS,042927.00,2.2,1.1,3.6,86,,-51.1,87.3*7A
$GNTXT,01,01,01,More than 100 frame errors, UART RX was disabled*70
b0p4!b(7
yi%S+3(3T(i!?eJ"{4(V^':R& 
Y"`FbG%H&I%JJ2rK$3JLUU
V,@W"$*8br%A!$GNRMC,042928.00,A,0419.93213,S,05539.90197,E,0.015,,230525,,,D*7E
$GNVTG,,T,,M,0.015,N,0.027,K,D*39
$GNGNS,042928.00,0419.93213,S,05539.90197,E,DA,16,0.72,15.4,-47.6,,0000*65
$GNGGA,042928.00,0419.93213,S,05539.90197,E,2,12,0.72,15.4,M,-47.6,M,,0000*4D
$GNGSA,A,3,24,20,05,13,15,22,12,14,18,,,,1.34,0.72,1.13*14
$GNGSA,A,3,74,75,87,85,73,71,72,,,,,,1.34,0.72,1.13*18
$GPGSV,5,1,18,05,52,149,29,06,02,029,,11,33,019,,12,24,354,22*71
$GPGSV,5,2,18,13,23,166,40,14,07,121,31,15,27,202,37,18,15,224,43*78
$GPGSV,5,3,18,20,51,084,40,22,20,105,40,24,63,268,33,25,02,330,*70
$GPGSV,5,4,18,29,11,290,,36,52,277,,40,86,350,40,41,58,082,39*71
$GPGSV,5,5,18,49,32,274,38,50,10,089,*73
$GLGSV,3,1,11,70,00,098,12,71,13,139,37,72,14,188,38,73,11,144,37*62
$GLGSV,3,2,11,74,50,114,22,75,51,018,36,76,03,341,,85,08,010,15*68
$GLGSV,3,3,11,86,44,320,,87,36,257,34,,,,42*61
$GNGLL,0419.93213,S,05539.90197,E,042928.00,A,D*60
$GNGRS,042928.00,1,1.0,-0.4,5.2,3.1,-1.7,-0.2,-0.5,1.1,0.5,,,*7F
$GNGRS,042928.00,1,14.6,-1.8,1.9,20.5,-1.8,-2.5,-13.2,,,,,*40
$GNGST,042928.00,26,,,,2.2,1.1,3.6*4D
$GNZDA,042928.00,23,05,2025,00,00*7C
$GNGBS,042928.00,2.2,1.1,3.6,,,,*5F
$GNTXT,01,01,01,More than 100 frame errors, UART RX was disabled*70
b0px4!b;(N
yF%M+1(3T)i!?#J"{4(V^':R& 
Y"`FbG%H&I&EJ2rK#35LUU
V,@W"$*bxrE!A$GNRMC,042929.00,A,0419.93210,S,05539.90196,E,0.052,,230525,,,D*7E
$GNVTG,,T,,M,0.052,N,0.096,K,D*30
$GNGNS,042929.00,0419.93210,S,05539.90196,E,DA,16,0.72,15.4,-47.6,,0000*66
$GNGGA,042929.00,0419.93210,S,05539.90196,E,2,12,0.72,15.4,M,-47.6,M,,0000*4E
$GNGSA,A,3,24,20,05,13,15,22,12,14,18,,,,1.34,0.72,1.13*14
$GNGSA,A,3,74,75,87,85,73,71,72,,,,,,1.34,0.72,1.13*18
$GPGSV,5,1,18,05,52,149,29,06,02,029,,11,33,019,,12,24,354,22*71
$GPGSV,5,2,18,13,23,166,40,14,07,121,31,15,27,202,37,18,15,224,43*78
$GPGSV,5,3,18,20,51,084,40,22,20,105,41,24,63,268,33,25,02,330,*71
$GPGSV,5,4,18,29,11,290,,36,52,277,,40,86,350,40,41,58,082,39*71
$GPGSV,5,5,18,49,32,274,38,50,10,089,*73
$GLGSV,3,1,11,70,00,098,11,71,13,139,37,72,14,188,38,73,11,144,38*6E
$GLGSV,3,2,11,74,50,114,22,75,51,018,35,76,03,341,,85,08,010,11*6F
$GLGSV,3,3,11,86,44,320,,87,36,257,34,,,,42*61
$GNGLL,0419.93210,S,05539.90196,E,042929.00,A,D*63
$GNGRS,042929.00,1,0.3,-0.4,4.1,3.3,-1.8,-0.4,0.6,0.7,0.5,,,*5C
$GNGRS,042929.00,1,15.5,0.5,4.6,20.5,-1.9,-2.5,-12.9,,,,,*63
$GNGST,042929.00,26,,,,2.2,1.1,3.7*4D
$GNZDA,042929.00,23,05,2025,00,00*7D
$GNGBS,042929.00,2.2,1.1,3.7,,,,*5F
$GNTXT,01,01,01,More than 100 frame errors, UART RX was disabled*70
b0p`4
!b'@
yS%O+A(3T(i!?&J"{4(V^':R' 
Y"`FbjG%H&I&/J2rK$3LUU
V,@W"$*b`rH!$GNRMC,042930.00,A,0419.93207,S,05539.90195,E,0.027,,230525,,,D*71
$GNVTG,,T,,M,0.027,N,0.050,K,D*38
$GNGNS,042930.00,0419.93207,S,05539.90195,E,DA,16,0.72,15.4,-47.6,,0000*6B
$GNGGA,042930.00,0419.93207,S,05539.90195,E,2,12,0.72,15.4,M,-47.6,M,,0000*43
$GNGSA,A,3,24,20,05,13,15,22,12,14,18,,,,1.34,0.72,1.13*14
$GNGSA,A,3,74,75,87,85,73,71,72,,,,,,1.34,0.72,1.13*18
$GPGSV,5,1,18,05,52,149,29,06,02,029,,11,33,019,,12,24,354,23*70
$GPGSV,5,2,18,13,23,166,39,14,07,121,31,15,27,202,37,18,15,224,43*76
$GPGSV,5,3,18,20,51,084,40,22,20,105,40,24,63,268,33,25,02,330,*70
$GPGSV,5,4,18,29,11,290,,36,52,277,,40,86,350,40,41,58,082,39*71
$GPGSV,5,5,18,49,32,274,39,50,10,089,*72
$GLGSV,3,1,11,70,00,098,11,71,13,139,37,72,14,188,38,73,11,144,38*6E
$GLGSV,3,2,11,74,50,114,22,75,51,018,36,76,03,341,,85,08,010,14*69
$GLGSV,3,3,11,86,44,320,,87,36,257,34,,,,42*61
$GNGLL,0419.93207,S,05539.90195,E,042930.00,A,D*6E
$GNGRS,042930.00,1,0.4,-0.7,2.7,3.2,-1.8,-0.5,0.3,-1.7,0.6,,,*7A
$GNGRS,042930.00,1,16.7,0.1,4.3,-126,-2.1,-2.3,-12.9,,,,,*67
$GNGST,042930.00,26,,,,2.2,1.1,3.7*45
$GNZDA,042930.00,23,05,2025,00,00*75
$GNGBS,042930.00,2.2,1.1,3.7,,,,*57
$GNTXT,01,01,01,More than 100 frame errors, UART RX was disabled*70
b0pH4!b~(S
y&J+%(3T)i!?J"{4(V^':R' 
Y"`oFbG%8H&I&<J2r|K#3?LUU
V,@W"$
*$bHrL!^$GNRMC,042931.00,A,0419.93204,S,05539.90194,E,0.011,,230525,,,D*77
$GNVTG,,T,,M,0.011,N,0.020,K,D*3A
$GNGNS,042931.00,0419.93204,S,05539.90194,E,DA,16,0.72,15.4,-47.6,,0000*68
$GNGGA,042931.00,0419.93204,S,05539.90194,E,2,12,0.72,15.4,M,-47.6,M,,0000*40
$GNGSA,A,3,24,20,05,13,15,22,12,14,18,,,,1.34,0.72,1.13*14
$GNGSA,A,3,74,75,87,85,73,71,72,,,,,,1.34,0.72,1.13*18
$GPGSV,5,1,18,05,52,149,28,06,02,029,,11,33,019,,12,24,354,22*70
$GPGSV,5,2,18,13,23,166,40,14,07,121,31,15,27,202,38,18,15,224,43*77
$GPGSV,5,3,18,20,51,084,40,22,20,105,41,24,63,268,33,25,02,330,*71
$GPGSV,5,4,18,29,11,290,,36,52,277,,40,86,350,40,41,58,082,39*71
$GPGSV,5,5,18,49,32,274,39,50,10,089,*72
$GLGSV,3,1,11,70,00,098,13,71,13,139,37,72,14,188,38,73,11,144,38*6C
$GLGSV,3,2,11,74,50,114,22,75,51,018,35,76,03,341,,85,08,010,15*6B
$GLGSV,3,3,11,86,44,320,,87,36,257,34,,,,42*61
$GNGLL,0419.93204,S,05539.90194,E,042931.00,A,D*6D
$GNGRS,042931.00,1,-2.3,-0.6,0.0,3.4,-1.8,-0.3,-1.3,-0.4,0.4,,,*7B
$GNGRS,042931.00,1,16.6,3.2,5.2,20.3,-2.0,-2.0,-12.9,,,,,*62
$GNGST,042931.00,27,,,,2.2,1.1,3.8*4A
$GNZDA,042931.00,23,05,2025,00,00*74
$GNGBS,042931.00,2.2,1.1,3.8,,,,*59
$GNTXT,01,01,01,More than 100 frame errors, UART RX was disabled*70
b0p04!br)R
y&A+$*3T*i!?J"{4(V^):R& 
Y"`FbG%<H%.I%%J2rK&3LUU
V,@W!$_*@b0rP!6v$GNRMC,042932.00,A,0419.93206,S,05539.90194,E,0.016,,230525,,,D*71
$GNVTG,,T,,M,0.016,N,0.030,K,D*3C
$GNGNS,042932.00,0419.93206,S,05539.90194,E,DA,16,0.72,15.4,-47.6,,0000*69
$GNGGA,042932.00,0419.93206,S,05539.90194,E,2,12,0.72,15.4,M,-47.6,M,,0000*41
$GNGSA,A,3,24,20,05,13,15,22,12,14,18,,,,1.34,0.72,1.13*14
$GNGSA,A,3,74,75,87,85,73,71,72,,,,,,1.34,0.72,1.13*18
$GPGSV,5,1,18,05,52,149,29,06,02,029,,11,33,019,,12,24,354,24*77
$GPGSV,5,2,18,13,23,166,41,14,07,121,31,15,27,202,38,18,15,224,43*76
$GPGSV,5,3,18,20,51,084,42,22,20,105,42,24,63,268,33,25,02,330,*70
$GPGSV,5,4,18,29,11,290,,36,52,277,,40,86,350,40,41,58,082,41*7E
$GPGSV,5,5,18,49,32,274,38,50,10,089,*73
$GLGSV,3,1,11,70,00,098,12,71,13,139,37,72,14,188,37,73,11,144,37*6D
$GLGSV,3,2,11,74,50,114,23,75,51,018,38,76,03,341,,85,08,010,17*65
$GLGSV,3,3,11,86,44,320,,87,36,257,33,,,,42*66
$GNGLL,0419.93206,S,05539.90194,E,042932.00,A,D*6C
$GNGRS,042932.00,1,1.4,-0.5,-1.2,3.4,-1.9,-0.3,-1.4,0.1,0.4,,,*52
$GNGRS,042932.00,1,15.6,-3.0,3.5,20.2,-2.2,-2.0,-12.3,,,,,*45
$GNGST,042932.00,25,,,,2.2,1.1,3.8*4B
$GNZDA,042932.00,23,05,2025,00,00*77
$GNGBS,042932.00,2.2,1.1,3.8,,,,*5A
$GNTXT,01,01,01,More than 100 frame errors, UART RX was disabled*70
b0p4!b*_
y&=++3T,i"?+J"{4(V^):R' 
Y$`FbUG%<H%)I%(J2rK%3GLUU
%V,@W $)abrT!$GNRMC,042933.00,A,0419.93207,S,05539.90192,E,0.060,,230525,,,D*76
$GNVTG,,T,,M,0.060,N,0.112,K,D*3C
$GNGNS,042933.00,0419.93207,S,05539.90192,E,DA,16,0.63,15.4,-47.6,,0000*6F
$GNGGA,042933.00,0419.93207,S,05539.90192,E,2,12,0.63,15.4,M,-47.6,M,,0000*47
$GNGSA,A,3,24,20,05,13,15,22,12,14,18,,,,1.17,0.63,0.98*17
$GNGSA,A,3,74,75,87,85,73,71,72,,,,,,1.17,0.63,0.98*1B
$GPGSV,5,1,18,05,52,149,30,06,02,029,,11,33,019,,12,24,354,24*7F
$GPGSV,5,2,18,13,23,166,42,14,07,121,31,15,27,202,38,18,15,224,43*75
$GPGSV,5,3,18,20,51,084,43,22,20,105,44,24,63,268,34,25,02,330,*70
$GPGSV,5,4,18,29,11,290,,36,52,277,,40,86,350,40,41,58,082,41*7E
$GPGSV,5,5,18,49,32,274,39,50,10,089,*72
$GLGSV,3,1,11,70,00,098,16,71,13,139,37,72,14,188,37,73,11,144,37*69
$GLGSV,3,2,11,74,50,114,23,75,51,018,37,76,03,341,,85,08,010,11*6C
$GLGSV,3,3,11,86,44,320,,87,36,257,32,,,,41*64
$GNGLL,0419.93207,S,05539.90192,E,042933.00,A,D*6A
$GNGRS,042933.00,1,0.4,-0.3,-2.8,3.5,-1.9,-0.2,0.3,2.5,0.2,,,*76
$GNGRS,042933.00,1,14.7,0.7,10.5,2.9,-2.2,-2.0,-12.4,,,,,*63
$GNGST,042933.00,40,,,,2.2,1.1,3.7*46
$GNZDA,042933.00,23,05,2025,00,00*76
$GNGBS,042933.00,2.2,1.1,3.7,,,,*54
$GNTXT,01,01,01,More than 100 frame errors, UART RX was disabled*70
b0p 4l!bf(S
y#(+#*3T+i"?J"{4'V^+:R( 
Y `#FbG&XH%II%*J2rK(3LUU
V,@W $J*QbrX!F$GNRMC,042934.00,A,0419.93199,S,05539.90190,E,0.031,,230525,,,D*73
$GNVTG,,T,,M,0.031,N,0.057,K,D*38
$GNGNS,042934.00,0419.93199,S,05539.90190,E,DA,16,0.72,15.2,-47.6,,0000*68
$GNGGA,042934.00,0419.93199,S,05539.90190,E,2,12,0.72,15.2,M,-47.6,M,,0000*40
$GNGSA,A,3,24,20,05,13,15,22,12,14,18,,,,1.34,0.72,1.13*14
$GNGSA,A,3,74,75,87,85,73,71,72,,,,,,1.34,0.72,1.13*18
$GPGSV,5,1,18,05,52,149,32,06,02,029,,11,33,019,,12,24,354,27*7E
$GPGSV,5,2,18,13,23,166,40,14,07,121,31,15,27,202,35,18,15,224,43*7A
$GPGSV,5,3,18,20,51,084,42,22,20,105,43,24,63,268,34,25,02,330,*76
$GPGSV,5,4,18,29,11,290,,36,52,277,,40,86,350,39,41,58,082,43*72
$GPGSV,5,5,18,49,32,274,40,50,10,089,*7C
$GLGSV,3,1,11,70,00,098,13,71,13,139,38,72,14,188,37,73,11,144,37*63
$GLGSV,3,2,11,74,50,114,23,75,51,018,40,76,03,341,,85,08,010,14*69
$GLGSV,3,3,11,86,44,320,,87,36,257,32,,,,42*67
$GNGLL,0419.93199,S,05539.90190,E,042934.00,A,D*6B
$GNGRS,042934.00,1,-0.3,-0.8,-6.6,3.4,-2.2,0.3,1.0,-0.7,0.4,,,*56
$GNGRS,042934.00,1,14.5,2.7,11.0,20.2,-2.1,-1.7,-12.1,,,,,*59
$GNGST,042934.00,24,,,,2.2,1.1,3.7*43
$GNZDA,042934.00,23,05,2025,00,00*71
$GNGBS,042934.00,2.2,1.1,3.7,,,,*53
$GNTXT,01,01,01,More than 100 frame errors, UART RX was disabled*70
b0p4!b)i
y-#z+)3T)i1 ?J"{4'V^':R( 
Y#`&FbG&GH&EI%9J2rK&3LUU
V,@W $<+bbr}\!$GNRMC,042935.00,A,0419.93197,S,05539.90191,E,0.068,,230525,,,D*71
$GNVTG,,T,,M,0.068,N,0.126,K,D*33
$GNGNS,042935.00,0419.93197,S,05539.90191,E,DA,16,0.72,15.3,-47.6,,0000*67
$GNGGA,042935.00,0419.93197,S,05539.90191,E,2,12,0.72,15.3,M,-47.6,M,,0000*4F
$GNGSA,A,3,24,20,05,13,15,22,12,14,18,,,,1.34,0.72,1.13*14
$GNGSA,A,3,74,75,87,85,73,71,72,,,,,,1.34,0.72,1.13*18
$GPGSV,5,1,18,05,52,149,31,06,02,029,,11,33,019,,12,24,354,28*72
$GPGSV,5,2,18,13,23,166,41,14,07,121,31,15,27,202,35,18,15,224,43*7B
$GPGSV,5,3,18,20,51,084,41,22,20,105,41,24,63,268,32,25,02,330,*71
$GPGSV,5,4,18,29,11,290,,36,52,277,,40,86,350,39,41,58,082,39*7F
$GPGSV,5,5,18,49,32,274,40,50,10,089,*7C
$GLGSV,3,1,11,70,00,098,13,71,13,139,38,72,14,188,38,73,11,144,37*6C
$GLGSV,3,2,11,74,50,114,24,75,51,018,38,76,03,341,,85,08,010,11*64
$GLGSV,3,3,11,86,44,320,,87,36,257,32,,,,43*66
$GNGLL,0419.93197,S,05539.90191,E,042935.00,A,D*65
$GNGRS,042935.00,1,-0.8,-0.7,-5.5,3.6,-3.9,0.5,-0.5,0.5,0.1,,,*5E
$GNGRS,042935.00,1,15.0,2.6,5.7,20.1,-2.0,-1.9,-12.1,,,,,*63
$GNGST,042935.00,23,,,,2.2,1.1,3.7*45
$GNZDA,042935.00,23,05,2025,00,00*70
$GNGBS,042935.00,2.2,1.1,3.7,,,,*52
$GNTXT,01,01,01,More than 100 frame errors, UART RX was disabled*70
b0p4!b(T
y"*)3T)i*?J"{4$V^(:R' 
Y#`'FbIG&RH&lI%FJ2rK&3LUU

V,@3W $+JCbre`!$GNRMC,042936.00,A,0419.93193,S,05539.90190,E,0.050,,230525,,,D*7C
$GNVTG,,T,,M,0.050,N,0.093,K,D*37
$GNGNS,042936.00,0419.93193,S,05539.90190,E,DA,16,0.72,15.2,-47.6,,0000*60
$GNGGA,042936.00,0419.93193,S,05539.90190,E,2,12,0.72,15.2,M,-47.6,M,,0000*48
$GNGSA,A,3,24,20,05,13,15,22,12,14,18,,,,1.34,0.72,1.13*14
$GNGSA,A,3,74,75,87,85,73,71,72,,,,,,1.34,0.72,1.13*18
$GPGSV,5,1,18,05,52,149,30,06,02,029,,11,33,019,,12,24,354,27*7C
$GPGSV,5,2,18,13,23,166,40,14,07,121,31,15,27,202,34,18,15,224,42*7A
$GPGSV,5,3,18,20,51,084,41,22,20,105,41,24,63,268,27,25,02,330,*75
$GPGSV,5,4,18,29,11,290,,36,52,277,,40,86,350,36,41,58,082,40*7E
$GPGSV,5,5,18,49,32,274,39,50,10,089,*72
$GLGSV,3,1,11,70,00,098,15,71,13,139,38,72,14,188,38,73,11,144,37*6A
$GLGSV,3,2,11,74,50,114,24,75,51,018,38,76,03,341,,85,08,010,12*67
$GLGSV,3,3,11,86,44,320,20,87,36,257,32,,,,43*64
$GNGLL,0419.93193,S,05539.90190,E,042936.00,A,D*63
$GNGRS,042936.00,1,4.0,-0.6,-5.2,3.4,-2.4,0.4,-0.9,-1.1,0.3,,,*53
$GNGRS,042936.00,1,15.0,2.5,10.1,48.7,-1.9,-1.7,-11.7,,,,,*58
$GNGST,042936.00,25,,,,2.2,1.1,3.8*4F
$GNZDA,042936.00,23,05,2025,00,00*73
$GNGBS,042936.00,2.2,1.1,3.8,,,,*5E
$GNTXT,01,01,01,More than 100 frame errors, UART RX was disabled*70
b0p4!b(X
y!n*")3T*i=?J"{4'V^(:R' 
Y#`8FbG'*H%I&LJ2rK&3wLUU
V,@W $*dbrMd!mo$GNRMC,042937.00,A,0419.93190,S,05539.90189,E,0.009,,230525,,,D*7A
$GNVTG,,T,,M,0.009,N,0.017,K,D*37
$GNGNS,042937.00,0419.93190,S,05539.90189,E,DA,16,0.72,15.2,-47.6,,0000*6A
$GNGGA,042937.00,0419.93190,S,05539.90189,E,2,12,0.72,15.2,M,-47.6,M,,0000*42
$GNGSA,A,3,24,20,05,13,15,22,12,14,18,,,,1.34,0.72,1.13*14
$GNGSA,A,3,74,75,87,85,73,71,72,,,,,,1.34,0.72,1.13*18
$GPGSV,5,1,18,05,52,149,30,06,02,029,,11,33,019,,12,24,354,28*73
$GPGSV,5,2,18,13,23,166,40,14,07,121,30,15,27,202,33,18,15,224,42*7C
$GPGSV,5,3,18,20,51,084,41,22,20,105,42,24,63,268,29,25,02,330,*78
$GPGSV,5,4,18,29,11,290,,36,52,277,,40,86,350,39,41,58,082,40*71
$GPGSV,5,5,18,49,32,274,39,50,10,089,*72
$GLGSV,3,1,11,70,00,098,11,71,13,139,39,72,14,188,37,73,11,144,38*6F
$GLGSV,3,2,11,74,50,114,24,75,51,018,38,76,03,341,,85,08,010,13*66
$GLGSV,3,3,11,86,44,320,21,87,36,257,32,,,,42*64
$GNGLL,0419.93190,S,05539.90189,E,042937.00,A,D*69
$GNGRS,042937.00,1,2.5,-0.6,-0.5,3.4,-4.0,0.6,0.3,0.0,0.3,,,*59
$GNGRS,042937.00,1,14.9,1.2,10.4,20.6,-1.8,-2.1,-11.5,,,,,*59
$GNGST,042937.00,24,,,,2.2,1.1,3.8*4F
$GNZDA,042937.00,23,05,2025,00,00*72
$GNGBS,042937.00,2.2,1.1,3.8,,,,*5F
$GNTXT,01,01,01,More than 100 frame errors, UART RX was disabled*70
b0p4!b*C
yu!,(3T+i5?J"{4(V^):R' 
Y%`*FbG'7H%I&4J2rK%3_LUU
V,@W $8*br5h!E$GNRMC,042938.00,A,0419.93193,S,05539.90189,E,0.007,,230525,,,D*78
$GNVTG,,T,,M,0.007,N,0.014,K,D*3A
$GNGNS,042938.00,0419.93193,S,05539.90189,E,DA,16,0.72,15.3,-47.6,,0000*67
