$GNTXT,01,01,01,More than 100 frame errors, UART RX was disabled*70
b0L?p(!)8a{:S4{4"V^
:R 
Y
hEoFGIH$JXP(TWU NVbOeF@D$GNRMC,052040.00,A,0419.73713,S,05539.75526,E,0.114,,210525,,,A*71
$GNVTG,,T,,M,0.114,N,0.212,K,A*38
$GNGNS,052040.00,0419.73713,S,05539.75526,E,AA,11,0.86,12.7,-47.6,,*60
$GNGGA,052040.00,0419.73713,S,05539.75526,E,1,11,0.86,12.7,M,-47.6,M,,*4A
$GNGSA,A,3,24,20,11,05,13,15,12,,,,,,1.63,0.86,1.38*18
$GNGSA,A,3,84,80,73,85,,,,,,,,,1.63,0.86,1.38*11
$GPGSV,5,1,17,05,63,112,20,11,15,022,27,12,40,007,28,13,18,148,11*76
$GPGSV,5,2,17,15,29,183,12,18,27,239,16,20,41,056,33,22,13,123,*7B
$GPGSV,5,3,17,23,07,210,,24,58,225,26,25,16,339,25,29,09,308,31*73
$GPGSV,5,4,17,36,52,277,29,40,86,350,34,41,58,082,31,49,32,274,*73
$GPGSV,5,5,17,50,10,089,*4A
$GLGSV,3,1,09,69,13,111,,70,19,175,,71,01,215,,73,72,020,28*66
$GLGSV,3,2,09,74,28,344,,80,40,140,19,84,25,343,20,85,32,284,15*6D
$GLGSV,3,3,09,86,06,232,*57
$GNGLL,0419.73713,S,05539.75526,E,052040.00,A,A*6D
$GNGRS,052040.00,1,2.7,-1.6,7.1,-13.9,14.2,9.6,-0.7,,,,,*50
$GNGRS,052040.00,1,-5.0,5.2,-4.8,5.9,,,,,,,,*51
$GNGST,052040.00,3592833,,,,6.1,5.0,11*53
$GNZDA,052040.00,21,05,2025,00,00*78
$GNGBS,052040.00,6.1,5.0,11.1,,,,*6F
$GNTXT,01,01,01,More than 100 frame errors, UART RX was disabled*70
b0Lx?p(6
^%)8h{:S 4{4'V^
":R 
Y
hEoFGIH@JXP(TWVU V!bxOiF$GNRMC,052041.00,A,0419.73713,S,05539.75527,E,0.311,,210525,,,A*76
$GNVTG,,T,,M,0.311,N,0.576,K,A*3A
$GNGNS,052041.00,0419.73713,S,05539.75527,E,AA,11,0.86,12.5,-47.6,,*62
$GNGGA,052041.00,0419.73713,S,05539.75527,E,1,11,0.86,12.5,M,-47.6,M,,*48
$GNGSA,A,3,24,20,11,05,13,15,12,,,,,,1.63,0.86,1.38*18
$GNGSA,A,3,84,80,73,85,,,,,,,,,1.63,0.86,1.38*11
$GPGSV,5,1,17,05,63,112,22,11,15,022,29,12,40,007,28,13,18,148,09*73
$GPGSV,5,2,17,15,29,183,10,18,27,239,17,20,41,056,37,22,13,123,*7C
$GPGSV,5,3,17,23,07,210,,24,58,225,27,25,16,339,26,29,09,308,32*72
$GPGSV,5,4,17,36,52,277,29,40,86,350,39,41,58,082,34,49,32,274,*7B
$GPGSV,5,5,17,50,10,089,*4A
$GLGSV,3,1,09,69,13,111,,70,19,175,,71,01,215,,73,72,020,29*67
$GLGSV,3,2,09,74,28,344,,80,40,140,16,84,25,343,20,85,32,284,13*64
$GLGSV,3,3,09,86,06,232,*57
$GNGLL,0419.73713,S,05539.75527,E,052041.00,A,A*6D
$GNGRS,052041.00,1,3.8,-1.5,6.9,-13.5,0.5,-19.5,-0.4,,,,,*77
$GNGRS,052041.00,1,-4.3,6.8,-1.9,1.7,,,,,,,,*55
$GNGST,052041.00,64,,,,6.1,5.0,11*65
$GNZDA,052041.00,21,05,2025,00,00*79
$GNGBS,052041.00,6.1,5.0,11.1,,,,*6E
$GNTXT,01,01,01,More than 100 frame errors, UART RX was disabled*70
b0L`?p(x%)8{:sS"4{4'V^
!:R 
Y
hEoFGI"HJXP(5TWU Vb`OlF$GNRMC,052042.00,A,0419.73720,S,05539.75525,E,0.064,,210525,,,A*76
$GNVTG,,T,,M,0.064,N,0.118,K,A*37
$GNGNS,052042.00,0419.73720,S,05539.75525,E,AA,11,0.86,12.3,-47.6,,*65
$GNGGA,052042.00,0419.73720,S,05539.75525,E,1,11,0.86,12.3,M,-47.6,M,,*4F
$GNGSA,A,3,24,20,11,05,13,15,12,,,,,,1.63,0.86,1.38*18
$GNGSA,A,3,84,80,73,85,,,,,,,,,1.63,0.86,1.38*11
$GPGSV,5,1,17,05,63,112,23,11,15,022,30,12,40,007,29,13,18,148,08*7A
$GPGSV,5,2,17,15,29,183,13,18,27,239,19,20,41,056,37,22,13,123,*71
$GPGSV,5,3,17,23,07,210,,24,58,225,27,25,16,339,27,29,09,308,34*75
$GPGSV,5,4,17,36,52,277,28,40,86,350,39,41,58,082,33,49,32,274,*7D
$GPGSV,5,5,17,50,10,089,*4A
$GLGSV,3,1,09,69,13,111,,70,19,175,,71,01,215,,73,72,020,34*6B
$GLGSV,3,2,09,74,28,344,,80,40,140,20,84,25,343,23,85,32,284,19*68
$GLGSV,3,3,09,86,06,232,*57
$GNGLL,0419.73720,S,05539.75525,E,052042.00,A,A*6C
$GNGRS,052042.00,1,6.3,-1.2,-1.2,-11.1,14.6,9.9,1.2,,,,,*56
$GNGRS,052042.00,1,-6.3,5.6,-1.2,-0.3,,,,,,,,*7A
$GNGST,052042.00,3590562,,,,6.1,4.9,11*52
$GNZDA,052042.00,21,05,2025,00,00*7A
$GNGBS,052042.00,6.1,4.9,10.9,,,,*6C
$GNTXT,01,01,01,More than 100 frame errors, UART RX was disabled*70
b0LH?pu(%)8{:7S"4{4)V^
":R 
Y
hEoFGI"HJXP(TWU VbHOpFy$GNRMC,052043.00,A,0419.73703,S,05539.75512,E,0.261,,210525,,,A*75
$GNVTG,,T,,M,0.261,N,0.483,K,A*37
$GNGNS,052043.00,0419.73703,S,05539.75512,E,AA,11,0.86,13.0,-47.6,,*63
$GNGGA,052043.00,0419.73703,S,05539.75512,E,1,11,0.86,13.0,M,-47.6,M,,*49
$GNGSA,A,3,24,20,11,05,13,15,12,,,,,,1.63,0.86,1.38*18
$GNGSA,A,3,84,80,73,85,,,,,,,,,1.63,0.86,1.38*11
$GPGSV,5,1,17,05,63,112,23,11,15,022,30,12,40,007,28,13,18,148,09*7A
$GPGSV,5,2,17,15,29,183,13,18,27,239,20,20,41,056,37,22,13,123,*7B
$GPGSV,5,3,17,23,07,210,,24,58,225,27,25,16,339,28,29,09,308,34*7A
$GPGSV,5,4,17,36,52,277,29,40,86,350,41,41,58,082,34,49,32,274,*74
$GPGSV,5,5,17,50,10,089,*4A
$GLGSV,3,1,09,69,13,111,,70,19,175,,71,01,215,,73,72,020,34*6B
$GLGSV,3,2,09,74,28,344,,80,40,140,21,84,25,343,24,85,32,284,21*65
$GLGSV,3,3,09,86,06,232,*57
$GNGLL,0419.73703,S,05539.75512,E,052043.00,A,A*68
$GNGRS,052043.00,1,8.2,-1.0,1.2,-12.7,15.2,10.3,4.4,,,,,*46
$GNGRS,052043.00,1,-6.2,4.1,5.1,-2.3,,,,,,,,*54
$GNGST,052043.00,5072371,,,,6.0,4.9,11*59
$GNZDA,052043.00,21,05,2025,00,00*7B
$GNGBS,052043.00,6.0,4.9,10.8,,,,*6D
$GNTXT,01,01,01,More than 100 frame errors, UART RX was disabled*70
b0L0?pQ(S%)8{:[S"4{4(V^
!:R 
Y
hEoFGI!HJXP(kTWWU V-Ib0OtF$GNRMC,052044.00,A,0419.73684,S,05539.75497,E,0.551,,210525,,,A*74
$GNVTG,,T,,M,0.551,N,1.021,K,A*3E
$GNGNS,052044.00,0419.73684,S,05539.75497,E,AA,11,1.11,13.4,-47.6,,*6D
$GNGGA,052044.00,0419.73684,S,05539.75497,E,1,11,1.11,13.4,M,-47.6,M,,*47
$GNGSA,A,3,24,20,11,05,13,15,12,,,,,,2.27,1.11,1.98*1E
$GNGSA,A,3,84,80,73,85,,,,,,,,,2.27,1.11,1.98*17
$GPGSV,5,1,17,05,63,112,23,11,15,022,30,12,40,007,28,13,18,148,09*7A
$GPGSV,5,2,17,15,29,183,08,18,27,239,20,20,41,056,37,22,13,123,*71
$GPGSV,5,3,17,23,07,210,,24,58,225,27,25,16,339,28,29,09,308,34*7A
$GPGSV,5,4,17,36,52,277,30,40,86,350,40,41,58,082,33,49,32,274,*7A
$GPGSV,5,5,17,50,10,089,*4A
$GLGSV,3,1,09,69,13,111,,70,19,175,,71,01,215,,73,72,020,33*6C
$GLGSV,3,2,09,74,28,344,,80,40,140,18,84,25,343,24,85,32,284,21*6F
$GLGSV,3,3,09,86,06,232,*57
$GNGLL,0419.73684,S,05539.75497,E,052044.00,A,A*6D
$GNGRS,052044.00,1,8.6,-0.8,0.3,-14.5,-21.1,-20.6,6.0,,,,,*4C
$GNGRS,052044.00,1,-6.8,-1.5,2.1,-3.4,,,,,,,,*74
$GNGST,052044.00,36,,,,6.0,4.8,11*6F
$GNZDA,052044.00,21,05,2025,00,00*7C
$GNGBS,052044.00,6.0,4.8,10.8,,,,*6B
$GNTXT,01,01,01,More than 100 frame errors, UART RX was disabled*70
b0L?pr(%$)8{:8S4{4&V^
:R 
Y
hEoFGIHpJXP(:TWU VbOxFxW$GNRMC,052045.00,A,0419.73676,S,05539.75488,E,0.201,,210525,,,A*74
$GNVTG,,T,,M,0.201,N,0.373,K,A*39
$GNGNS,052045.00,0419.73676,S,05539.75488,E,AA,11,0.86,13.6,-47.6,,*62
$GNGGA,052045.00,0419.73676,S,05539.75488,E,1,11,0.86,13.6,M,-47.6,M,,*48
$GNGSA,A,3,24,20,11,05,13,15,12,,,,,,1.63,0.86,1.38*18
$GNGSA,A,3,84,80,73,85,,,,,,,,,1.63,0.86,1.38*11
$GPGSV,5,1,17,05,63,112,22,11,15,022,28,12,40,007,27,13,18,148,12*77
$GPGSV,5,2,17,15,29,183,08,18,27,239,19,20,41,056,36,22,13,123,*7A
$GPGSV,5,3,17,23,07,210,,24,58,225,26,25,16,339,27,29,09,308,30*70
$GPGSV,5,4,17,36,52,277,30,40,86,350,38,41,58,082,30,49,32,274,*76
$GPGSV,5,5,17,50,10,089,*4A
$GLGSV,3,1,09,69,13,111,,70,19,175,,71,01,215,,73,72,020,30*6F
$GLGSV,3,2,09,74,28,344,,80,40,140,15,84,25,343,23,85,32,284,19*6E
$GLGSV,3,3,09,86,06,232,*57
$GNGLL,0419.73676,S,05539.75488,E,052045.00,A,A*6F
$GNGRS,052045.00,1,10.8,-1.0,1.1,-13.4,14.7,9.9,2.9,,,,,*4F
$GNGRS,052045.00,1,-8.0,-2.0,3.7,-5.1,,,,,,,,*71
$GNGST,052045.00,5072371,,,,6.0,4.8,11*5E
$GNZDA,052045.00,21,05,2025,00,00*7D
$GNGBS,052045.00,6.0,4.8,10.8,,,,*6A
$GNTXT,01,01,01,More than 100 frame errors, UART RX was disabled*70
b0L?pT(Z#)8{:lS!4{4(V^
 :R 
Y
hEoFGIHJXP(bTWU VbO|FP$GNRMC,052046.00,A,0419.73665,S,05539.75476,E,0.329,,210525,,,A*7F
$GNVTG,,T,,M,0.329,N,0.609,K,A*3A
$GNGNS,052046.00,0419.73665,S,05539.75476,E,AA,11,0.86,13.9,-47.6,,*6D
$GNGGA,052046.00,0419.73665,S,05539.75476,E,1,11,0.86,13.9,M,-47.6,M,,*47
$GNGSA,A,3,24,20,11,05,13,15,12,,,,,,1.63,0.86,1.38*18
$GNGSA,A,3,84,80,73,85,,,,,,,,,1.63,0.86,1.38*11
$GPGSV,5,1,17,05,63,112,21,11,15,022,29,12,40,007,29,13,18,148,08*70
$GPGSV,5,2,17,15,29,183,11,18,27,239,17,20,41,056,35,22,13,123,*7F
$GPGSV,5,3,17,23,07,210,,24,58,225,26,25,16,339,27,29,09,308,33*73
$GPGSV,5,4,17,36,52,277,30,40,86,350,40,41,58,082,32,49,32,274,*7B
$GPGSV,5,5,17,50,10,089,*4A
$GLGSV,3,1,09,69,13,111,,70,19,175,,71,01,215,,73,72,020,31*6E
$GLGSV,3,2,09,74,28,344,,80,40,140,16,84,25,343,23,85,32,284,20*67
$GLGSV,3,3,09,86,06,232,*57
$GNGLL,0419.73665,S,05539.75476,E,052046.00,A,A*6F
$GNGRS,052046.00,1,11.3,-1.1,0.8,-10.0,14.6,9.6,8.6,,,,,*43
$GNGRS,052046.00,1,-8.6,-1.6,4.5,-6.4,,,,,,,,*72
$GNGST,052046.00,5072371,,,,6.1,4.8,11*5C
$GNZDA,052046.00,21,05,2025,00,00*7E
$GNGBS,052046.00,6.1,4.8,10.8,,,,*68
$GNTXT,01,01,01,More than 100 frame errors, UART RX was disabled*70
b0L?p(
T$)8{:S!4{4'V^
 :R 
Y
hEoFGI HJXP(TWAU @VbOtF'$GNRMC,052047.00,A,0419.73658,S,05539.75472,E,0.255,,210525,,,A*7E
$GNVTG,,T,,M,0.255,N,0.473,K,A*3F
$GNGNS,052047.00,0419.73658,S,05539.75472,E,AA,11,0.93,14.2,-47.6,,*6E
$GNGGA,052047.00,0419.73658,S,05539.75472,E,1,11,0.93,14.2,M,-47.6,M,,*44
$GNGSA,A,3,24,20,11,05,13,15,12,,,,,,1.70,0.93,1.43*12
$GNGSA,A,3,84,80,73,85,,,,,,,,,1.70,0.93,1.43*1B
$GPGSV,5,1,17,05,63,112,21,11,15,022,29,12,40,007,28,13,18,148,18*70
$GPGSV,5,2,17,15,29,183,10,18,27,239,15,20,41,056,36,22,13,123,*7F
$GPGSV,5,3,17,23,07,210,,24,58,225,26,25,16,339,27,29,09,308,33*73
$GPGSV,5,4,17,36,52,277,31,40,86,350,39,41,58,082,32,49,32,274,*74
$GPGSV,5,5,17,50,10,089,*4A
$GLGSV,3,1,09,69,13,111,,70,19,175,,71,01,215,,73,72,020,32*6D
$GLGSV,3,2,09,74,28,344,,80,40,140,17,84,25,343,23,85,32,284,19*6C
$GLGSV,3,3,09,86,06,232,*57
$GNGLL,0419.73658,S,05539.75472,E,052047.00,A,A*64
$GNGRS,052047.00,1,12.1,-1.0,-0.4,-10.7,-16.6,-137,10.5,,,,,*48
$GNGRS,052047.00,1,-9.6,-0.7,2.4,-7.0,,,,,,,,*70
$GNGST,052047.00,49,,,,6.1,4.8,11*65
$GNZDA,052047.00,21,05,2025,00,00*7F
$GNGBS,052047.00,6.1,4.8,10.8,,,,*69
$GNTXT,01,01,01,More than 100 frame errors, UART RX was disabled*70
b0L?pCO($)8{:GS!4{!4'V^
!:R 
Y
hEoFGI!H@JXP(TWU V-bO\F$GNRMC,052048.00,A,0419.73661,S,05539.75457,E,0.490,,210525,,,A*73
$GNVTG,,T,,M,0.490,N,0.907,K,A*3E
$GNGNS,052048.00,0419.73661,S,05539.75457,E,AA,11,0.86,14.3,-47.6,,*69
$GNGGA,052048.00,0419.73661,S,05539.75457,E,1,11,0.86,14.3,M,-47.6,M,,*43
$GNGSA,A,3,24,20,11,05,13,15,12,,,,,,1.63,0.86,1.38*18
$GNGSA,A,3,84,80,73,85,,,,,,,,,1.63,0.86,1.38*11
$GPGSV,5,1,17,05,63,112,22,11,15,022,30,12,40,007,26,13,18,148,13*7E
$GPGSV,5,2,17,15,29,183,08,18,27,239,16,20,41,056,36,22,13,123,*75
$GPGSV,5,3,17,23,07,210,,24,58,225,25,25,16,339,27,29,09,308,33*70
$GPGSV,5,4,17,36,52,277,33,40,86,350,39,41,58,082,33,49,32,274,*77
$GPGSV,5,5,17,50,10,089,*4A
$GLGSV,3,1,09,69,13,111,,70,19,175,,71,01,215,,73,72,020,33*6C
$GLGSV,3,2,09,74,28,344,,80,40,140,17,84,25,343,24,85,32,284,18*6A
$GLGSV,3,3,09,86,06,232,*57
$GNGLL,0419.73661,S,05539.75457,E,052048.00,A,A*66
$GNGRS,052048.00,1,13.5,-0.9,-4.3,-9.6,14.8,9.7,5.4,,,,,*5C
$GNGRS,052048.00,1,-10.9,-3.4,3.2,-4.8,,,,,,,,*44
$GNGST,052048.00,3616443,,,,6.1,4.9,11*57
$GNZDA,052048.00,21,05,2025,00,00*70
$GNGBS,052048.00,6.1,4.9,10.7,,,,*68
$GNTXT,01,01,01,More than 100 frame errors, UART RX was disabled*70
b0L?p.($)8{:xS!4{"4(V^
":R 
Y
hEoFGI"H6JXP(TWHU V,bODF$GNRMC,052049.00,A,0419.73644,S,05539.75459,E,0.340,,210525,,,A*71
$GNVTG,,T,,M,0.340,N,0.630,K,A*3F
$GNGNS,052049.00,0419.73644,S,05539.75459,E,AA,11,0.86,14.9,-47.6,,*6B
$GNGGA,052049.00,0419.73644,S,05539.75459,E,1,11,0.86,14.9,M,-47.6,M,,*41
$GNGSA,A,3,24,20,11,05,13,15,12,,,,,,1.63,0.86,1.38*18
$GNGSA,A,3,84,80,73,85,,,,,,,,,1.63,0.86,1.38*11
$GPGSV,5,1,17,05,63,112,20,11,15,022,29,12,40,007,26,13,18,148,16*71
$GPGSV,5,2,17,15,29,183,08,18,27,239,17,20,41,056,36,22,13,123,*74
$GPGSV,5,3,17,23,07,210,,24,58,225,22,25,16,339,28,29,09,308,33*78
$GPGSV,5,4,17,36,52,277,34,40,86,350,40,41,58,082,34,49,32,274,*79
$GPGSV,5,5,17,50,10,089,*4A
$GLGSV,3,1,09,69,13,111,,70,19,175,,71,01,215,,73,72,020,34*6B
$GLGSV,3,2,09,74,28,344,,80,40,140,17,84,25,343,24,85,32,284,17*65
$GLGSV,3,3,09,86,06,232,*57
$GNGLL,0419.73644,S,05539.75459,E,052049.00,A,A*6E
$GNGRS,052049.00,1,11.4,-0.6,-3.8,-7.2,15.3,9.8,4.3,,,,,*54
$GNGRS,052049.00,1,-12.1,-5.5,0.5,-2.8,,,,,,,,*4A
$GNGST,052049.00,3616443,,,,6.2,4.9,11*55
$GNZDA,052049.00,21,05,2025,00,00*71
$GNGBS,052049.00,6.2,4.9,10.7,,,,*6A
$GNTXT,01,01,01,More than 100 frame errors, UART RX was disabled*70
b0L?pQ{(2q+#)8{:S!4{"4'V^
!:R 
Y
hEoFGIHJXP(TWYU $V{SbO,FP$GNRMC,052050.00,A,0419.73647,S,05539.75456,E,0.165,,210525,,,A*70
$GNVTG,,T,,M,0.165,N,0.305,K,A*39
$GNGNS,052050.00,0419.73647,S,05539.75456,E,AA,10,1.11,15.1,-47.6,,*68
$GNGGA,052050.00,0419.73647,S,05539.75456,E,1,10,1.11,15.1,M,-47.6,M,,*42
$GNGSA,A,3,24,20,11,05,15,12,,,,,,,2.27,1.11,1.98*1C
$GNGSA,A,3,84,80,73,85,,,,,,,,,2.27,1.11,1.98*17
$GPGSV,5,1,17,05,63,112,18,11,15,022,30,12,40,007,27,13,18,148,07*73
$GPGSV,5,2,17,15,29,183,08,18,27,239,19,20,41,056,35,22,13,123,*79
$GPGSV,5,3,17,23,07,210,,24,58,225,21,25,16,339,28,29,09,308,33*7B
$GPGSV,5,4,17,36,52,277,34,40,86,350,39,41,58,082,33,49,32,274,*70
$GPGSV,5,5,17,50,10,089,*4A
$GLGSV,3,1,09,69,13,111,,70,19,175,,71,01,215,,73,72,020,29*67
$GLGSV,3,2,09,74,28,344,,80,40,140,17,84,25,343,23,85,32,284,17*62
$GLGSV,3,3,09,86,06,232,*57
$GNGLL,0419.73647,S,05539.75456,E,052050.00,A,A*6A
$GNGRS,052050.00,1,12.2,-0.6,-1.3,-6.9,111,8.2,,,,,,*50
$GNGRS,052050.00,1,-11.9,-7.8,3.9,-2.2,,,,,,,,*43
$GNGST,052050.00,44,,,,6.3,4.9,11*6D
$GNZDA,052050.00,21,05,2025,00,00*79
$GNGBS,052050.00,6.3,4.9,10.8,,,,*6C
$GNTXT,01,01,01,More than 100 frame errors, UART RX was disabled*70
b0L?p($)8{:CS!4{!4(V^
!:R 
Y
hEoFGIHJXP(TWlU 8VbOF$GNRMC,052051.00,A,0419.73648,S,05539.75453,E,0.092,,210525,,,A*72
$GNVTG,,T,,M,0.092,N,0.171,K,A*31
$GNGNS,052051.00,0419.73648,S,05539.75453,E,AA,11,0.86,15.4,-47.6,,*68
$GNGGA,052051.00,0419.73648,S,05539.75453,E,1,11,0.86,15.4,M,-47.6,M,,*42
$GNGSA,A,3,24,20,11,05,13,15,12,,,,,,1.63,0.86,1.38*18
$GNGSA,A,3,84,80,73,85,,,,,,,,,1.63,0.86,1.38*11
$GPGSV,5,1,17,05,63,112,16,11,15,022,31,12,40,007,26,13,18,148,12*79
$GPGSV,5,2,17,15,29,183,12,18,27,239,19,20,41,056,36,22,13,123,*71
$GPGSV,5,3,17,23,07,210,,24,58,225,19,25,16,339,28,29,09,308,33*70
$GPGSV,5,4,17,36,52,277,33,40,86,350,40,41,58,082,33,49,32,274,*79
$GPGSV,5,5,17,50,10,089,*4A
$GLGSV,3,1,09,69,13,111,,70,19,175,,71,01,215,,73,72,020,30*6F
$GLGSV,3,2,09,74,28,344,,80,40,140,17,84,25,343,22,85,32,284,17*63
$GLGSV,3,3,09,86,06,232,*57
$GNGLL,0419.73648,S,05539.75453,E,052051.00,A,A*61
$GNGRS,052051.00,1,13.5,-0.1,-3.8,-8.7,14.8,10.1,14.7,,,,,*5D
$GNGRS,052051.00,1,-11.7,-8.5,-0.5,-2.0,,,,,,,,*6E
$GNGST,052051.00,5072371,,,,6.5,5.0,11*57
$GNZDA,052051.00,21,05,2025,00,00*78
$GNGBS,052051.00,6.5,5.0,10.8,,,,*63
$GNTXT,01,01,01,More than 100 frame errors, UART RX was disabled*70
b0Lp?pC($)8{:S!4{ 4'V^
!:R 
Y
hEoFGIHJXP(zTW
U +VbpOF^$GNRMC,052052.00,A,0419.73648,S,05539.75445,E,0.162,,210525,,,A*78
$GNVTG,,T,,M,0.162,N,0.300,K,A*3B
$GNGNS,052052.00,0419.73648,S,05539.75445,E,AA,11,0.86,15.6,-47.6,,*6E
$GNGGA,052052.00,0419.73648,S,05539.75445,E,1,11,0.86,15.6,M,-47.6,M,,*44
$GNGSA,A,3,24,20,11,05,13,15,12,,,,,,1.63,0.86,1.38*18
$GNGSA,A,3,84,80,73,85,,,,,,,,,1.63,0.86,1.38*11
$GPGSV,5,1,17,05,63,112,13,11,15,022,31,12,40,007,26,13,18,148,17*79
$GPGSV,5,2,17,15,29,183,16,18,27,239,18,20,41,056,36,22,13,123,*74
$GPGSV,5,3,17,23,07,210,,24,58,225,20,25,16,339,29,29,09,308,33*7B
$GPGSV,5,4,17,36,52,277,32,40,86,350,39,41,58,082,33,49,32,274,*76
$GPGSV,5,5,17,50,10,089,*4A
$GLGSV,3,1,09,69,13,111,,70,19,175,,71,01,215,,73,72,020,31*6E
$GLGSV,3,2,09,74,28,344,,80,40,140,19,84,25,343,22,85,32,284,19*63
$GLGSV,3,3,09,86,06,232,*57
$GNGLL,0419.73648,S,05539.75445,E,052052.00,A,A*65
$GNGRS,052052.00,1,14.1,0.0,-5.2,-7.0,14.9,10.1,16.9,,,,,*78
$GNGRS,052052.00,1,-12.7,-6.5,-0.1,-2.1,,,,,,,,*65
$GNGST,052052.00,5072371,,,,6.6,5.0,11*57
$GNZDA,052052.00,21,05,2025,00,00*7B
$GNGBS,052052.00,6.6,5.0,10.8,,,,*63
$GNTXT,01,01,01,More than 100 frame errors, UART RX was disabled*70
b0LX!?pG(+$!)8{:S 4{4(V^
:R 
Y
hEoFGIHJXP(TWU aVbX!OF6$GNRMC,052053.00,A,0419.73624,S,05539.75455,E,0.312,,210525,,,A*77
$GNVTG,,T,,M,0.312,N,0.578,K,A*37
$GNGNS,052053.00,0419.73624,S,05539.75455,E,AA,10,0.94,16.3,-47.6,,*60
$GNGGA,052053.00,0419.73624,S,05539.75455,E,1,10,0.94,16.3,M,-47.6,M,,*4A
$GNGSA,A,3,24,20,11,05,15,12,,,,,,,1.88,0.94,1.63*12
$GNGSA,A,3,84,80,73,85,,,,,,,,,1.88,0.94,1.63*19
$GPGSV,5,1,17,05,63,112,13,11,15,022,30,12,40,007,27,13,18,148,09*76
$GPGSV,5,2,17,15,29,183,13,18,27,239,15,20,41,056,33,22,13,123,*79
$GPGSV,5,3,17,23,07,210,,24,58,225,22,25,16,339,29,29,09,308,32*78
$GPGSV,5,4,17,36,52,277,29,40,86,350,40,41,58,082,30,49,32,274,*71
$GPGSV,5,5,17,50,10,089,*4A
$GLGSV,3,1,09,69,13,111,,70,19,175,,71,01,215,,73,72,020,30*6F
$GLGSV,3,2,09,74,28,344,,80,40,140,19,84,25,343,21,85,32,284,16*6F
$GLGSV,3,3,09,86,06,232,*57
$GNGLL,0419.73624,S,05539.75455,E,052053.00,A,A*6F
$GNGRS,052053.00,1,12.5,0.0,-4.4,-8.5,10.6,17.5,,,,,,*6E
$GNGRS,052053.00,1,-12.7,-5.4,-3.6,-4.2,,,,,,,,*67
$GNGST,052053.00,62,,,,6.7,5.1,11*67
$GNZDA,052053.00,21,05,2025,00,00*7A
$GNGBS,052053.00,6.7,5.1,10.9,,,,*63
$GNTXT,01,01,01,More than 100 frame errors, UART RX was disabled*70
b0L@%?p(q
!)8{:S 4{4%V^
:R 
Y
hEoFGIHJXP(TTWU Vmb@%OF$GNRMC,052054.00,A,0419.73608,S,05539.75455,E,0.345,,210525,,,A*7C
$GNVTG,,T,,M,0.345,N,0.638,K,A*32
$GNGNS,052054.00,0419.73608,S,05539.75455,E,AA,09,0.96,16.8,-47.6,,*68
$GNGGA,052054.00,0419.73608,S,05539.75455,E,1,09,0.96,16.8,M,-47.6,M,,*42
$GNGSA,A,3,24,20,11,15,12,,,,,,,,1.99,0.96,1.74*13
$GNGSA,A,3,84,80,73,85,,,,,,,,,1.99,0.96,1.74*1D
$GPGSV,5,1,17,05,63,112,,11,15,022,30,12,40,007,28,13,18,148,10*73
$GPGSV,5,2,17,15,29,183,16,18,27,239,13,20,41,056,33,22,13,123,*7A
$GPGSV,5,3,17,23,07,210,,24,58,225,22,25,16,339,28,29,09,308,32*79
$GPGSV,5,4,17,36,52,277,27,40,86,350,37,41,58,082,31,49,32,274,*7E
$GPGSV,5,5,17,50,10,089,*4A
$GLGSV,3,1,09,69,13,111,,70,19,175,,71,01,215,,73,72,020,29*67
$GLGSV,3,2,09,74,28,344,,80,40,140,19,84,25,343,21,85,32,284,17*6E
$GLGSV,3,3,09,86,06,232,*57
$GNGLL,0419.73608,S,05539.75455,E,052054.00,A,A*66
$GNGRS,052054.00,1,13.0,0.1,-7.6,10.1,19.0,,,,,,,*6F
$GNGRS,052054.00,1,-12.9,-6.8,-3.2,-3.5,,,,,,,,*65
$GNGST,052054.00,48,,,,6.7,5.1,11*68
$GNZDA,052054.00,21,05,2025,00,00*7D
$GNGBS,052054.00,6.7,5.1,10.9,,,,*64
$GNTXT,01,01,01,More than 100 frame errors, UART RX was disabled*70
b0L()?pmY(]
!)8{:>S 4{4%V^
 :R 
Y
hEoFGIH"JXP(TWU Vlb()OFU$GNRMC,052055.00,A,0419.73610,S,05539.75443,E,0.379,,210525,,,A*7C
$GNVTG,,T,,M,0.379,N,0.702,K,A*35
$GNGNS,052055.00,0419.73610,S,05539.75443,E,AA,11,0.81,16.4,-47.6,,*64
$GNGGA,052055.00,0419.73610,S,05539.75443,E,1,11,0.81,16.4,M,-47.6,M,,*4E
$GNGSA,A,3,24,20,11,13,15,12,29,,,,,,1.55,0.81,1.33*1F
$GNGSA,A,3,84,80,73,85,,,,,,,,,1.55,0.81,1.33*18
$GPGSV,5,1,17,05,63,112,17,11,15,022,30,12,40,007,28,13,18,148,14*71
$GPGSV,5,2,17,15,29,183,17,18,27,239,10,20,41,056,33,22,13,123,*78
$GPGSV,5,3,17,23,07,210,,24,58,225,23,25,16,339,27,29,09,308,32*77
$GPGSV,5,4,17,36,52,277,,40,86,350,37,41,58,082,32,49,32,274,*78
$GPGSV,5,5,17,50,10,089,*4A
$GLGSV,3,1,09,69,13,111,,70,19,175,,71,01,215,,73,72,020,30*6F
$GLGSV,3,2,09,74,28,344,,80,40,140,21,84,25,343,22,85,32,284,18*69
$GLGSV,3,3,09,86,06,232,*57
$GNGLL,0419.73610,S,05539.75443,E,052055.00,A,A*69
$GNGRS,052055.00,1,10.9,0.0,-6.8,11.2,9.8,17.5,2.2,,,,,*62
$GNGRS,052055.00,1,-12.6,-7.6,-7.3,-3.1,,,,,,,,*65
$GNGST,052055.00,45,,,,6.5,4.9,10*6E
$GNZDA,052055.00,21,05,2025,00,00*7C
$GNGBS,052055.00,6.5,4.9,10.5,,,,*62
$GNTXT,01,01,01,More than 100 frame errors, UART RX was disabled*70
b0L-?pw( )8x{:S!4{4%V^
:R 
Y
hEoFGIHJXP(TWU Vb-OF$GNRMC,052056.00,A,0419.73610,S,05539.75442,E,0.230,,210525,,,A*72
$GNVTG,,T,,M,0.230,N,0.426,K,A*3C
$GNGNS,052056.00,0419.73610,S,05539.75442,E,AA,11,0.81,16.4,-47.6,,*66
$GNGGA,052056.00,0419.73610,S,05539.75442,E,1,11,0.81,16.4,M,-47.6,M,,*4C
$GNGSA,A,3,24,20,11,13,15,12,29,,,,,,1.55,0.81,1.32*1E
$GNGSA,A,3,84,80,73,85,,,,,,,,,1.55,0.81,1.32*19
$GPGSV,5,1,17,05,63,112,17,11,15,022,29,12,40,007,27,13,18,148,15*77
$GPGSV,5,2,17,15,29,183,15,18,27,239,,20,41,056,32,22,13,123,*7A
$GPGSV,5,3,17,23,07,210,,24,58,225,20,25,16,339,27,29,09,308,33*75
$GPGSV,5,4,17,36,52,277,,40,86,350,37,41,58,082,31,49,32,274,*7B
$GPGSV,5,5,17,50,10,089,*4A
$GLGSV,3,1,09,69,13,111,,70,19,175,,71,01,215,,73,72,020,29*67
$GLGSV,3,2,09,74,28,344,,80,40,140,21,84,25,343,21,85,32,284,19*6B
$GLGSV,3,3,09,86,06,232,*57
$GNGLL,0419.73610,S,05539.75442,E,052056.00,A,A*6B
$GNGRS,052056.00,1,11.6,1.2,-3.9,12.0,9.3,17.7,-0.5,,,,,*48
$GNGRS,052056.00,1,-12.5,-9.0,-2.9,-3.4,,,,,,,,*67
$GNGST,052056.00,44,,,,6.4,4.8,10*6C
$GNZDA,052056.00,21,05,2025,00,00*7F
$GNGBS,052056.00,6.4,4.8,10.1,,,,*65
$GNTXT,01,01,01,More than 100 frame errors, UART RX was disabled*70
b0L0?pEK(;_!)8
{:S#4{4'V^
:R 
Y
hEoFGIHJXP(TWU VDb0OF$GNRMC,052057.00,A,0419.73606,S,05539.75442,E,0.137,,210525,,,A*70
$GNVTG,,T,,M,0.137,N,0.253,K,A*3C
$GNGNS,052057.00,0419.73606,S,05539.75442,E,AA,12,0.80,16.7,-47.6,,*61
$GNGGA,052057.00,0419.73606,S,05539.75442,E,1,12,0.80,16.7,M,-47.6,M,,*4B
$GNGSA,A,3,24,20,11,05,13,15,12,29,,,,,1.47,0.80,1.24*1E
$GNGSA,A,3,84,80,73,85,,,,,,,,,1.47,0.80,1.24*1C
$GPGSV,5,1,17,05,63,112,22,11,15,022,30,12,40,007,28,13,18,148,14*77
$GPGSV,5,2,17,15,29,183,12,18,27,239,,20,41,056,33,22,13,123,*7C
$GPGSV,5,3,17,23,07,210,,24,58,225,20,25,16,339,28,29,09,308,35*7C
$GPGSV,5,4,17,36,52,277,,40,86,350,39,41,58,082,30,49,32,274,*74
$GPGSV,5,5,17,50,10,089,*4A
$GLGSV,3,1,09,69,13,111,,70,19,175,,71,01,215,,73,72,020,30*6F
$GLGSV,3,2,09,74,28,344,,80,40,140,19,84,25,343,22,85,32,284,18*62
$GLGSV,3,3,09,86,06,232,*57
$GNGLL,0419.73606,S,05539.75442,E,052057.00,A,A*6D
$GNGRS,052057.00,1,12.5,0.1,-1.8,10.9,8.9,8.6,18.5,-0.7,,,,*67
$GNGRS,052057.00,1,-13.5,-8.2,-2.8,-5.2,,,,,,,,*65
$GNGST,052057.00,49,,,,6.4,4.5,9.8*43
$GNZDA,052057.00,21,05,2025,00,00*7E
$GNGBS,052057.00,6.4,4.5,9.8,,,,*58
$GNTXT,01,01,01,More than 100 frame errors, UART RX was disabled*70
b0L4?pk(Y!)8^{:S"4{4$V^
:R 
Y
hEoFGIHqJXP(TWNU VRb4OlFm~$GNRMC,052058.00,A,0419.73604,S,05539.75438,E,0.071,,210525,,,A*73
$GNVTG,,T,,M,0.071,N,0.131,K,A*38
$GNGNS,052058.00,0419.73604,S,05539.75438,E,AA,12,0.80,17.1,-47.6,,*66
$GNGGA,052058.00,0419.73604,S,05539.75438,E,1,12,0.80,17.1,M,-47.6,M,,*4C
$GNGSA,A,3,24,20,11,05,13,15,12,29,,,,,1.47,0.80,1.24*1E
$GNGSA,A,3,84,80,73,85,,,,,,,,,1.47,0.80,1.24*1C
$GPGSV,5,1,17,05,63,112,23,11,15,022,29,12,40,007,28,13,18,148,13*79
$GPGSV,5,2,17,15,29,183,13,18,27,239,,20,41,056,33,22,13,123,*7D
$GPGSV,5,3,17,23,07,210,,24,58,225,18,25,16,339,27,29,09,308,34*79
$GPGSV,5,4,17,36,52,277,,40,86,350,36,41,58,082,31,49,32,274,*7A
$GPGSV,5,5,17,50,10,089,*4A
$GLGSV,3,1,09,69,13,111,,70,19,175,,71,01,215,,73,72,020,30*6F
$GLGSV,3,2,09,74,28,344,,80,40,140,18,84,25,343,22,85,32,284,19*62
$GLGSV,3,3,09,86,06,232,*57
$GNGLL,0419.73604,S,05539.75438,E,052058.00,A,A*6D
$GNGRS,052058.00,1,11.9,0.9,1.1,6.5,9.2,8.6,14.9,0.1,,,,*51
$GNGRS,052058.00,1,-14.6,-12.9,6.2,-7.5,,,,,,,,*78
$GNGST,052058.00,46,,,,6.3,4.4,9.6*4B
$GNZDA,052058.00,21,05,2025,00,00*71
$GNGBS,052058.00,6.3,4.4,9.6,,,,*5F
$GNTXT,01,01,01,More than 100 frame errors, UART RX was disabled*70
b0L8?p:(\`!)8\{:kS"4{4"V^
 :R 
Y
hEoFGIHJXP(TWU xV
3b8OTFE$GNRMC,052059.00,A,0419.73593,S,05539.75439,E,0.109,,210525,,,A*70
$GNVTG,,T,,M,0.109,N,0.202,K,A*35
$GNGNS,052059.00,0419.73593,S,05539.75439,E,AA,12,0.80,17.3,-47.6,,*69
$GNGGA,052059.00,0419.73593,S,05539.75439,E,1,12,0.80,17.3,M,-47.6,M,,*43
$GNGSA,A,3,24,20,11,05,13,15,12,29,,,,,1.47,0.80,1.24*1E
$GNGSA,A,3,84,80,73,85,,,,,,,,,1.47,0.80,1.24*1C
$GPGSV,5,1,17,05,63,112,25,11,15,022,28,12,40,007,29,13,18,148,14*78
$GPGSV,5,2,17,15,29,183,13,18,27,239,,20,41,056,33,22,13,123,*7D
$GPGSV,5,3,17,23,07,210,,24,58,225,20,25,16,339,27,29,09,308,34*72
$GPGSV,5,4,17,36,52,277,,40,86,350,34,41,58,082,32,49,32,274,*7B
$GPGSV,5,5,17,50,10,089,*4A
$GLGSV,3,1,09,69,13,111,,70,19,175,,71,01,215,,73,72,020,30*6F
$GLGSV,3,2,09,74,28,344,17,80,40,140,20,84,25,343,21,85,32,284,18*6D
$GLGSV,3,3,09,86,06,232,*57
$GNGLL,0419.73593,S,05539.75439,E,052059.00,A,A*60
$GNGRS,052059.00,1,8.8,3.5,4.0,5.7,8.6,10.3,16.3,0.0,,,,*53
$GNGRS,052059.00,1,-15.5,-14.0,-3.3,-9.0,,,,,,,,*56
$GNGST,052059.00,46,,,,6.3,4.3,9.4*4F
$GNZDA,052059.00,21,05,2025,00,00*70
$GNGBS,052059.00,6.3,4.3,9.4,,,,*5B
$GNTXT,01,01,01,More than 100 frame errors, UART RX was disabled*70
b0L<?pe(F$)8{:HS#4{4$V^
":R 
Y
hEoFGIHJXP(TWU VhGb<O<FN$GNRMC,052100.00,A,0419.73595,S,05539.75438,E,0.086,,210525,,,A*7C
$GNVTG,,T,,M,0.086,N,0.158,K,A*3F
$GNGNS,052100.00,0419.73595,S,05539.75438,E,AA,12,0.80,17.5,-47.6,,*65
$GNGGA,052100.00,0419.73595,S,05539.75438,E,1,12,0.80,17.5,M,-47.6,M,,*4F
$GNGSA,A,3,24,20,11,05,13,15,12,29,,,,,1.47,0.80,1.24*1E
$GNGSA,A,3,84,80,73,85,,,,,,,,,1.47,0.80,1.24*1C
$GPGSV,5,1,17,05,63,112,25,11,15,022,29,12,40,007,28,13,18,148,12*7E
$GPGSV,5,2,17,15,29,183,12,18,27,239,,20,41,056,36,22,13,123,*79
$GPGSV,5,3,17,23,07,210,,24,58,225,18,25,16,339,27,29,09,308,35*78
$GPGSV,5,4,17,36,52,277,,40,86,350,36,41,58,082,34,49,32,274,*7F
$GPGSV,5,5,17,50,10,089,*4A
$GLGSV,3,1,09,69,13,111,,70,19,175,,71,01,215,,73,72,020,31*6E
$GLGSV,3,2,09,74,28,344,17,80,40,140,20,84,25,343,22,85,32,284,19*6F
$GLGSV,3,3,09,86,06,232,*57
$GNGLL,0419.73595,S,05539.75438,E,052100.00,A,A*6A
$GNGRS,052100.00,1,11.0,0.2,-6.7,5.2,5.4,11.7,18.6,0.0,,,,*46
$GNGRS,052100.00,1,-13.3,-13.2,-3.0,-9.9,,,,,,,,*54
$GNGST,052100.00,50,,,,6.2,4.2,9.2*43
$GNZDA,052100.00,21,05,2025,00,00*7D
$GNGBS,052100.00,6.2,4.2,9.2,,,,*50
$GNTXT,01,01,01,More than 100 frame errors, UART RX was disabled*70
b0L@?p(
QN#)8{:S#4{4#V^
!:R 
Y
hEoFGIHWJXP(BTWU SVjb@O$F$GNRMC,052101.00,A,0419.73589,S,05539.75440,E,0.031,,210525,,,A*73
$GNVTG,,T,,M,0.031,N,0.057,K,A*3D
$GNGNS,052101.00,0419.73589,S,05539.75440,E,AA,11,0.89,17.8,-47.6,,*61
$GNGGA,052101.00,0419.73589,S,05539.75440,E,1,11,0.89,17.8,M,-47.6,M,,*4B
$GNGSA,A,3,24,20,11,05,15,12,29,,,,,,1.72,0.89,1.47*16
$GNGSA,A,3,84,80,73,85,,,,,,,,,1.72,0.89,1.47*16
$GPGSV,5,1,17,05,63,112,22,11,15,022,30,12,40,007,27,13,18,148,10*7C
$GPGSV,5,2,17,15,29,183,11,18,27,239,,20,41,056,35,22,13,123,*79
$GPGSV,5,3,17,23,07,210,,24,58,225,18,25,16,339,27,29,09,308,35*78
$GPGSV,5,4,17,36,52,277,,40,86,350,35,41,58,082,33,49,32,274,*7B
$GPGSV,5,5,17,50,10,089,*4A
$GLGSV,3,1,09,69,13,111,,70,19,175,,71,01,215,,73,72,020,30*6F
$GLGSV,3,2,09,74,28,344,19,80,40,140,21,84,25,343,22,85,32,284,21*6B
$GLGSV,3,3,09,86,06,232,*57
$GNGLL,0419.73589,S,05539.75440,E,052101.00,A,A*69
$GNGRS,052101.00,1,10.5,1.8,-8.1,5.1,11.0,17.0,-0.1,,,,,*4E
$GNGRS,052101.00,1,-13.8,-12.1,-1.7,-9.4,,,,,,,,*54
$GNGST,052101.00,90391,,,,6.3,4.1,9.1*74
$GNZDA,052101.00,21,05,2025,00,00*7C
$GNGBS,052101.00,6.3,4.1,9.1,,,,*50
$GNTXT,01,01,01,More than 100 frame errors, UART RX was disabled*70
b0LD?p(}i)8{:S 4{4!V^
!:R 
Y
hEoFGIHJXP(TWU VobDOF$GNRMC,052102.00,A,0419.73584,S,05539.75442,E,0.095,,210525,,,A*71
$GNVTG,,T,,M,0.095,N,0.175,K,A*32
$GNGNS,052102.00,0419.73584,S,05539.75442,E,AA,12,0.80,18.1,-47.6,,*61
$GNGGA,052102.00,0419.73584,S,05539.75442,E,1,12,0.80,18.1,M,-47.6,M,,*4B
$GNGSA,A,3,24,20,11,05,13,15,12,29,,,,,1.47,0.80,1.24*1E
$GNGSA,A,3,84,80,73,85,,,,,,,,,1.47,0.80,1.24*1C
$GPGSV,5,1,17,05,63,112,21,11,15,022,29,12,40,007,27,13,18,148,08*7E
$GPGSV,5,2,17,15,29,183,11,18,27,239,,20,41,056,31,22,13,123,*7D
$GPGSV,5,3,17,23,07,210,,24,58,225,16,25,16,339,26,29,09,308,32*70
$GPGSV,5,4,17,36,52,277,,40,86,350,33,41,58,082,33,49,32,274,*7D
$GPGSV,5,5,17,50,10,089,*4A
$GLGSV,3,1,09,69,13,111,,70,19,175,,71,01,215,,73,72,020,29*67
$GLGSV,3,2,09,74,28,344,19,80,40,140,21,84,25,343,21,85,32,284,21*68
$GLGSV,3,3,09,86,06,232,*57
$GNGLL,0419.73584,S,05539.75442,E,052102.00,A,A*65
$GNGRS,052102.00,1,10.1,4.4,-11.0,9.3,6.4,11.3,16.7,-0.2,,,,*5D
$GNGRS,052102.00,1,-15.4,-10.7,-3.2,-7.8,,,,,,,,*5C
$GNGST,052102.00,86543,,,,6.3,4.1,9.1*79
$GNZDA,052102.00,21,05,2025,00,00*7F
$GNGBS,052102.00,6.3,4.1,9.1,,,,*53
$GNTXT,01,01,01,More than 100 frame errors, UART RX was disabled*70
b0LhH?p(1#)8{:S$4{4&V^
":R 
Y
hEoFGIHrJXP(xTWU V$bhHOF$GNRMC,052103.00,A,0419.73586,S,05539.75445,E,0.122,,210525,,,A*78
$GNVTG,,T,,M,0.122,N,0.226,K,A*3A
$GNGNS,052103.00,0419.73586,S,05539.75445,E,AA,11,1.06,18.3,-47.6,,*6B
$GNGGA,052103.00,0419.73586,S,05539.75445,E,1,11,1.06,18.3,M,-47.6,M,,*41
$GNGSA,A,3,24,20,11,05,15,12,29,,,,,,2.01,1.06,1.71*12
$GNGSA,A,3,84,80,73,85,,,,,,,,,2.01,1.06,1.71*12
$GPGSV,5,1,17,05,63,112,24,11,15,022,29,12,40,007,27,13,18,148,08*7B
$GPGSV,5,2,17,15,29,183,11,18,27,239,,20,41,056,35,22,13,123,*79
$GPGSV,5,3,17,23,07,210,,24,58,225,18,25,16,339,27,29,09,308,36*7B
$GPGSV,5,4,17,36,52,277,,40,86,350,38,41,58,082,34,49,32,274,*71
$GPGSV,5,5,17,50,10,089,*4A
$GLGSV,3,1,09,69,13,111,,70,19,175,,71,01,215,,73,72,020,30*6F
$GLGSV,3,2,09,74,28,344,18,80,40,140,21,84,25,343,22,85,32,284,21*6A
$GLGSV,3,3,09,86,06,232,*57
$GNGLL,0419.73586,S,05539.75445,E,052103.00,A,A*61
$GNGRS,052103.00,1,7.9,1.8,-5.7,5.1,-23.0,14.4,-0.1,,,,,*56
$GNGRS,052103.00,1,-15.4,-9.0,-4.0,-6.3,,,,,,,,*6D
$GNGST,052103.00,39,,,,6.3,4.0,9.0*4E
$GNZDA,052103.00,21,05,2025,00,00*7E
$GNGBS,052103.00,6.3,4.0,9.0,,,,*52
$GNTXT,01,01,01,More than 100 frame errors, UART RX was disabled*70
b0LPL?p(<")8{:}S#4{4'V^
!:R 
Y
hEoFGIHJXP(TWU V`bPLOF|$GNRMC,052104.00,A,0419.73582,S,05539.75440,E,0.185,,210525,,,A*73
$GNVTG,,T,,M,0.185,N,0.342,K,A*34
$GNGNS,052104.00,0419.73582,S,05539.75440,E,AA,12,0.80,18.6,-47.6,,*64
$GNGGA,052104.00,0419.73582,S,05539.75440,E,1,12,0.80,18.6,M,-47.6,M,,*4E
$GNGSA,A,3,24,20,11,05,13,15,12,29,,,,,1.47,0.80,1.24*1E
$GNGSA,A,3,84,80,73,85,,,,,,,,,1.47,0.80,1.24*1C
$GPGSV,5,1,17,05,63,112,26,11,15,022,31,12,40,007,27,13,18,148,14*7D
$GPGSV,5,2,17,15,29,183,14,18,27,239,22,20,41,056,34,22,13,123,*7D
$GPGSV,5,3,17,23,07,210,,24,58,225,18,25,16,339,26,29,09,308,35*79
$GPGSV,5,4,17,36,52,277,,40,86,350,39,41,58,082,33,49,32,274,*77
$GPGSV,5,5,17,50,10,089,*4A
$GLGSV,3,1,09,69,13,111,,70,19,175,,71,01,215,,73,72,020,31*6E
$GLGSV,3,2,09,74,28,344,19,80,40,140,21,84,25,343,23,85,32,284,22*69
$GLGSV,3,3,09,86,06,232,*57
$GNGLL,0419.73582,S,05539.75440,E,052104.00,A,A*67
$GNGRS,052104.00,1,8.9,-1.2,-5.6,-0.2,5.7,10.2,15.4,-0.3,,,,*53
$GNGRS,052104.00,1,-15.6,-8.2,-2.4,-5.6,,,,,,,,*6F
$GNGST,052104.00,4856426,,,,6.3,3.9,8.9*7A
$GNZDA,052104.00,21,05,2025,00,00*79
$GNGBS,052104.00,6.3,3.9,8.9,,,,*53
$GNTXT,01,01,01,More than 100 frame errors, UART RX was disabled*70
b0L8P?p\!(:m
$")8
{:*S!4{4%V^
 :R 
Y
hEoFGIHJXP(TWMU jVcab8POFTS$GNRMC,052105.00,A,0419.73564,S,05539.75439,E,0.271,,210525,,,A*7C
$GNVTG,,T,,M,0.271,N,0.502,K,A*3E
$GNGNS,052105.00,0419.73564,S,05539.75439,E,AA,12,0.80,19.0,-47.6,,*64
$GNGGA,052105.00,0419.73564,S,05539.75439,E,1,12,0.80,19.0,M,-47.6,M,,*4E
$GNGSA,A,3,24,20,11,05,13,15,12,29,,,,,1.47,0.80,1.24*1E
$GNGSA,A,3,84,80,73,85,,,,,,,,,1.47,0.80,1.24*1C
$GPGSV,5,1,17,05,63,112,26,11,15,022,31,12,40,007,25,13,18,148,08*72
$GPGSV,5,2,17,15,29,183,10,18,27,239,20,20,41,056,34,22,13,123,*7B
$GPGSV,5,3,17,23,07,210,,24,58,225,17,25,16,339,26,29,09,308,33*70
$GPGSV,5,4,17,36,52,277,,40,86,350,37,41,58,082,32,49,32,274,*78
$GPGSV,5,5,17,50,10,089,*4A
$GLGSV,3,1,09,69,13,111,,70,19,175,,71,01,215,,73,72,020,30*6F
$GLGSV,3,2,09,74,28,344,18,80,40,140,19,84,25,343,22,85,32,284,21*61
$GLGSV,3,3,09,86,06,232,*57
$GNGLL,0419.73564,S,05539.75439,E,052105.00,A,A*60
$GNGRS,052105.00,1,8.1,0.1,-4.8,0.9,6.2,10.6,15.9,-0.2,,,,*52
$GNGRS,052105.00,1,-17.1,-8.4,-3.0,-6.6,,,,,,,,*6B
$GNGST,052105.00,4856426,,,,6.3,3.9,8.9*7B
$GNZDA,052105.00,21,05,2025,00,00*78
$GNGBS,052105.00,6.3,3.9,8.9,,,,*52
$GNTXT,01,01,01,More than 100 frame errors, UART RX was disabled*70
b0L T?p9. (1
#!)8y{:S"4{4'V^
 :R 
Y
hEnFGI!H6JXP(-TWU Vb TOF,$GNRMC,052106.00,A,0419.73558,S,05539.75440,E,0.095,,210525,,,A*76
$GNVTG,,T,,M,0.095,N,0.176,K,A*31
$GNGNS,052106.00,0419.73558,S,05539.75440,E,AA,12,0.86,19.1,-47.6,,*61
$GNGGA,052106.00,0419.73558,S,05539.75440,E,1,12,0.86,19.1,M,-47.6,M,,*4B
$GNGSA,A,3,24,20,11,05,13,15,12,29,,,,,1.53,0.86,1.26*1F
$GNGSA,A,3,84,80,73,85,,,,,,,,,1.53,0.86,1.26*1D
$GPGSV,5,1,17,05,63,112,26,11,15,022,31,12,40,007,32,13,18,148,08*74
$GPGSV,5,2,17,15,29,183,08,18,27,239,20,20,41,056,33,22,13,123,*75
$GPGSV,5,3,17,23,07,210,,24,58,225,16,25,16,339,27,29,09,308,34*77
$GPGSV,5,4,17,36,52,277,,40,86,350,39,41,58,082,32,49,32,274,*76
$GPGSV,5,5,17,50,10,089,*4A
$GLGSV,3,1,09,69,13,110,,70,19,175,,71,01,215,,73,72,020,33*6D
$GLGSV,3,2,09,74,28,344,19,80,40,140,19,84,25,343,23,85,32,284,21*61
$GLGSV,3,3,09,86,06,232,*57
$GNGLL,0419.73558,S,05539.75440,E,052106.00,A,A*62
$GNGRS,052106.00,1,7.7,1.2,-4.7,0.6,0.1,-20.1,10.7,0.2,,,,*50
$GNGRS,052106.00,1,-18.6,-7.2,-4.6,-6.1,,,,,,,,*6F
$GNGST,052106.00,45,,,,6.3,3.9,8.8*47
$GNZDA,052106.00,21,05,2025,00,00*7B
$GNGBS,052106.00,6.3,3.9,8.8,,,,*50
$GNTXT,01,01,01,More than 100 frame errors, UART RX was disabled*70
b0LX?py ( )8{:S!4%{4(V^
:R 
Y
hEnFGI!HJXP(TWU VbXOF#$GNRMC,052107.00,A,0419.73560,S,05539.75443,E,0.108,,210525,,,A*7A
$GNVTG,,T,,M,0.108,N,0.200,K,A*36
$GNGNS,052107.00,0419.73560,S,05539.75443,E,AA,12,0.80,19.0,-47.6,,*6F
$GNGGA,052107.00,0419.73560,S,05539.75443,E,1,12,0.80,19.0,M,-47.6,M,,*45
$GNGSA,A,3,24,20,11,05,13,15,12,29,,,,,1.47,0.80,1.24*1E
$GNGSA,A,3,84,80,73,85,,,,,,,,,1.47,0.80,1.24*1C
$GPGSV,5,1,17,05,63,112,26,11,15,022,32,12,40,007,31,13,18,148,13*7E
$GPGSV,5,2,17,15,29,183,11,18,27,239,21,20,41,056,32,22,13,123,*7D
$GPGSV,5,3,17,23,07,210,,24,58,225,19,25,16,339,27,29,09,308,33*7F
$GPGSV,5,4,17,36,52,277,,40,86,350,40,41,58,082,31,49,32,274,*7B
$GPGSV,5,5,17,50,10,089,*4A
$GLGSV,3,1,09,69,13,110,,70,19,175,,71,01,215,,73,72,020,33*6D
$GLGSV,3,2,09,74,28,344,20,80,40,140,23,84,25,343,23,85,32,284,21*62
$GLGSV,3,3,09,86,06,232,*57
$GNGLL,0419.73560,S,05539.75443,E,052107.00,A,A*6B
$GNGRS,052107.00,1,7.7,1.7,-2.6,1.2,14.6,9.9,3.9,0.4,,,,*40
$GNGRS,052107.00,1,-16.2,-7.8,-4.9,-4.9,,,,,,,,*6B
$GNGST,052107.00,3434856,,,,6.2,3.8,8.7*73
$GNZDA,052107.00,21,05,2025,00,00*7A
$GNGBS,052107.00,6.2,3.8,8.7,,,,*5E
$GNTXT,01,01,01,More than 100 frame errors, UART RX was disabled*70
b0L[?p C(
 )8{:S!4+{4)V^
 :R 
Y
hEnFGI H
JXP(TWU Vb[O|F|$GNRMC,052108.00,A,0419.73554,S,05539.75439,E,0.176,,210525,,,A*76
$GNVTG,,T,,M,0.176,N,0.326,K,A*3A
$GNGNS,052108.00,0419.73554,S,05539.75439,E,AA,12,0.80,19.3,-47.6,,*69
$GNGGA,052108.00,0419.73554,S,05539.75439,E,1,12,0.80,19.3,M,-47.6,M,,*43
$GNGSA,A,3,24,20,11,05,13,15,12,29,,,,,1.47,0.80,1.24*1E
$GNGSA,A,3,84,80,73,85,,,,,,,,,1.47,0.80,1.24*1C
$GPGSV,5,1,17,05,63,112,27,11,15,022,32,12,40,007,29,13,18,148,07*73
$GPGSV,5,2,17,15,29,183,10,18,27,239,20,20,41,056,32,22,13,123,*7D
$GPGSV,5,3,17,23,07,210,,24,58,225,21,25,16,339,27,29,09,308,33*74
$GPGSV,5,4,17,36,52,277,,40,86,350,41,41,58,082,32,49,32,274,*79
$GPGSV,5,5,17,50,10,089,*4A
$GLGSV,3,1,09,69,13,110,,70,19,175,,71,01,215,,73,72,020,32*6C
$GLGSV,3,2,09,74,28,344,21,80,40,140,24,84,25,343,23,85,32,284,21*64
$GLGSV,3,3,09,86,06,232,*57
$GNGLL,0419.73554,S,05539.75439,E,052108.00,A,A*6E
$GNGRS,052108.00,1,4.5,-0.4,-4.4,2.0,14.6,9.7,6.9,0.4,,,,*6F
$GNGRS,052108.00,1,-15.5,-7.5,-2.5,-5.0,,,,,,,,*6F
$GNGST,052108.00,3435798,,,,6.2,3.8,8.7*70
$GNZDA,052108.00,21,05,2025,00,00*75
$GNGBS,052108.00,6.2,3.8,8.7,,,,*51
$GNTXT,01,01,01,More than 100 frame errors, UART RX was disabled*70
b0L_?p (xb
!)8{:S"4:{4)V^
 :R 
Y
hEnFGI!HJXP(TWU VFb_OdF$GNRMC,052109.00,A,0419.73558,S,05539.75442,E,0.112,,210525,,,A*75
$GNVTG,,T,,M,0.112,N,0.208,K,A*35
$GNGNS,052109.00,0419.73558,S,05539.75442,E,AA,12,0.80,19.2,-47.6,,*69
$GNGGA,052109.00,0419.73558,S,05539.75442,E,1,12,0.80,19.2,M,-47.6,M,,*43
$GNGSA,A,3,24,20,11,05,13,15,12,29,,,,,1.47,0.80,1.24*1E
$GNGSA,A,3,84,80,73,85,,,,,,,,,1.47,0.80,1.24*1C
$GPGSV,5,1,17,05,63,112,28,11,15,022,32,12,40,007,27,13,18,148,11*75
$GPGSV,5,2,17,15,29,183,10,18,27,239,19,20,41,056,33,22,13,123,*76
$GPGSV,5,3,17,23,07,210,,24,58,225,20,25,16,339,26,29,09,308,34*73
$GPGSV,5,4,17,36,52,277,,40,86,350,41,41,58,082,32,49,32,274,*79
$GPGSV,5,5,17,50,10,089,*4A
$GLGSV,3,1,09,69,13,110,,70,19,175,,71,01,215,,73,72,020,33*6D
$GLGSV,3,2,09,74,28,344,20,80,40,140,21,84,25,343,22,85,32,284,22*62
$GLGSV,3,3,09,86,06,232,*57
$GNGLL,0419.73558,S,05539.75442,E,052109.00,A,A*6F
$GNGRS,052109.00,1,4.2,1.8,-2.7,2.2,3.5,-11.3,11.4,0.6,,,,*52
$GNGRS,052109.00,1,-15.2,-5.6,-5.1,-4.9,,,,,,,,*63
$GNGST,052109.00,49,,,,6.1,3.8,8.6*49
$GNZDA,052109.00,21,05,2025,00,00*74
$GNGBS,052109.00,6.1,3.8,8.6,,,,*52
$GNTXT,01,01,01,More than 100 frame errors, UART RX was disabled*70
b0Lc?p()8{:S!4C{4(V^
:R 
Y
hEnFGI HCJXP(TWU V%MbcOLFL$GNRMC,052110.00,A,0419.73577,S,05539.75450,E,0.336,,210525,,,A*77
$GNVTG,,T,,M,0.336,N,0.622,K,A*3D
$GNGNS,052110.00,0419.73577,S,05539.75450,E,AA,12,0.80,18.7,-47.6,,*6B
$GNGGA,052110.00,0419.73577,S,05539.75450,E,1,12,0.80,18.7,M,-47.6,M,,*41
$GNGSA,A,3,24,20,11,05,13,15,12,29,,,,,1.47,0.80,1.24*1E
$GNGSA,A,3,84,80,73,85,,,,,,,,,1.47,0.80,1.24*1C
$GPGSV,5,1,17,05,63,112,27,11,15,022,31,12,40,007,27,13,18,148,08*71
$GPGSV,5,2,17,15,29,183,15,18,27,239,20,20,41,056,31,22,13,123,*7B
$GPGSV,5,3,17,23,07,210,,24,58,225,18,25,16,339,26,29,09,308,33*7F
$GPGSV,5,4,17,36,52,277,,40,86,350,40,41,58,082,31,49,32,274,*7B
$GPGSV,5,5,17,50,10,089,*4A
$GLGSV,3,1,09,69,13,110,,70,19,175,,71,01,215,,73,72,021,32*6D
$GLGSV,3,2,09,74,28,344,21,80,40,140,20,84,25,343,22,85,32,284,21*61
$GLGSV,3,3,09,86,06,232,*57
$GNGLL,0419.73577,S,05539.75450,E,052110.00,A,A*69
$GNGRS,052110.00,1,4.3,4.2,1.4,2.0,14.1,9.5,9.2,0.7,,,,*65
$GNGRS,052110.00,1,-13.3,-5.4,-7.0,-5.2,,,,,,,,*67
$GNGST,052110.00,3436272,,,,6.1,3.8,8.5*7A
$GNZDA,052110.00,21,05,2025,00,00*7C
$GNGBS,052110.00,6.1,3.8,8.5,,,,*59
$GNTXT,01,01,01,More than 100 frame errors, UART RX was disabled*70
b0Lg?p(v)8n{:S!4I{4'V^
 :R 
Y
hEnFGIHJXP(TW.U V2bgO4Fc$GNRMC,052111.00,A,0419.73580,S,05539.75449,E,0.083,,210525,,,A*7B
$GNVTG,,T,,M,0.083,N,0.154,K,A*36
$GNGNS,052111.00,0419.73580,S,05539.75449,E,AA,12,0.80,18.7,-47.6,,*6A
$GNGGA,052111.00,0419.73580,S,05539.75449,E,1,12,0.80,18.7,M,-47.6,M,,*40
$GNGSA,A,3,24,20,11,05,13,15,12,29,,,,,1.47,0.80,1.24*1E
$GNGSA,A,3,84,80,73,85,,,,,,,,,1.47,0.80,1.24*1C
$GPGSV,5,1,17,05,63,112,28,11,15,022,31,12,40,007,28,13,18,148,11*79
$GPGSV,5,2,17,15,29,183,11,18,27,239,21,20,41,056,30,22,13,123,05*7A
$GPGSV,5,3,17,23,07,210,,24,58,225,18,25,16,339,26,29,09,308,33*7F
$GPGSV,5,4,17,36,52,277,,40,86,350,39,41,58,082,32,49,32,274,*76
$GPGSV,5,5,17,50,10,089,*4A
$GLGSV,3,1,09,69,13,110,,70,19,175,,71,01,215,,73,72,021,28*66
$GLGSV,3,2,09,74,28,344,21,80,40,140,19,84,25,343,21,85,32,284,18*62
$GLGSV,3,3,09,86,06,232,*57
$GNGLL,0419.73580,S,05539.75449,E,052111.00,A,A*68
$GNGRS,052111.00,1,1.3,3.7,-4.8,1.6,14.0,9.3,2.4,0.7,,,,*48
$GNGRS,052111.00,1,-12.3,-5.1,-5.5,-3.0,,,,,,,,*61
$GNGST,052111.00,3439096,,,,6.1,3.8,8.5*7C
$GNZDA,052111.00,21,05,2025,00,00*7D
$GNGBS,052111.00,6.1,3.8,8.5,,,,*58
$GNTXT,01,01,01,More than 100 frame errors, UART RX was disabled*70
b0Lk?pZ(
" )8{:S#4P{4'V^
!:R 
Y
hEnFGI!HJXP(TW/U VjbkOF;$GNRMC,052112.00,A,0419.73584,S,05539.75453,E,0.053,,210525,,,A*7A
$GNVTG,,T,,M,0.053,N,0.098,K,A*3A
$GNGNS,052112.00,0419.73584,S,05539.75453,E,AA,12,0.89,18.6,-47.6,,*6E
$GNGGA,052112.00,0419.73584,S,05539.75453,E,1,12,0.89,18.6,M,-47.6,M,,*44
$GNGSA,A,3,24,20,11,05,13,15,12,29,,,,,1.72,0.89,1.47*14
$GNGSA,A,3,84,80,73,85,,,,,,,,,1.72,0.89,1.47*16
$GPGSV,5,1,17,05,63,112,27,11,15,022,31,12,40,007,25,13,18,148,10*7A
$GPGSV,5,2,17,15,29,183,12,18,27,239,22,20,41,056,32,22,13,123,08*75
$GPGSV,5,3,17,23,07,210,,24,58,225,19,25,16,339,27,29,09,308,35*79
$GPGSV,5,4,17,36,52,277,,40,86,350,39,41,58,082,33,49,32,274,*77
$GPGSV,5,5,17,50,10,089,*4A
$GLGSV,3,1,09,69,13,110,,70,19,175,,71,01,215,,73,72,021,33*6C
$GLGSV,3,2,09,74,28,344,22,80,40,140,20,84,25,343,21,85,32,284,18*6B
$GLGSV,3,3,09,86,06,232,*57
$GNGLL,0419.73584,S,05539.75453,E,052112.00,A,A*64
$GNGRS,052112.00,1,-0.9,5.2,-9.3,2.1,-133,-8.6,2.0,0.8,,,,*49
$GNGRS,052112.00,1,-12.3,-3.4,-5.6,-4.8,,,,,,,,*6D
$GNGST,052112.00,46,,,,6.1,3.7,8.5*40
$GNZDA,052112.00,21,05,2025,00,00*7E
$GNGBS,052112.00,6.1,3.7,8.5,,,,*54
$GNTXT,01,01,01,More than 100 frame errors, UART RX was disabled*70
b0Lxo?pY(u )8Y
{,:S$4?{4'V^
:R 
Y
hEnFGI"HJXP(TWzU -V+bxoOF$GNRMC,052113.00,A,0419.73599,S,05539.75459,E,0.071,,210525,,,A*7D
$GNVTG,,T,,M,0.071,N,0.132,K,A*3B
$GNGNS,052113.00,0419.73599,S,05539.75459,E,AA,12,0.80,18.1,-47.6,,*67
$GNGGA,052113.00,0419.73599,S,05539.75459,E,1,12,0.80,18.1,M,-47.6,M,,*4D
$GNGSA,A,3,24,20,11,05,13,15,12,29,,,,,1.47,0.80,1.24*1E
$GNGSA,A,3,84,80,73,85,,,,,,,,,1.47,0.80,1.24*1C
$GPGSV,5,1,17,05,63,112,28,11,15,022,31,12,40,007,23,13,18,148,09*7B
$GPGSV,5,2,17,15,29,183,12,18,27,239,23,20,41,056,32,22,13,123,10*7D
$GPGSV,5,3,17,23,07,210,,24,58,225,20,25,16,339,28,29,09,308,36*7F
$GPGSV,5,4,17,36,52,277,,40,86,350,39,41,58,082,31,49,32,274,*75
$GPGSV,5,5,17,50,10,089,*4A
$GLGSV,3,1,09,69,13,110,,70,19,175,,71,01,215,,73,72,021,34*6B
$GLGSV,3,2,09,74,28,344,23,80,40,140,20,84,25,343,21,85,32,284,22*63
$GLGSV,3,3,09,86,06,232,*57
$GNGLL,0419.73599,S,05539.75459,E,052113.00,A,A*63
$GNGRS,052113.00,1,1.3,6.0,-6.0,0.9,14.3,9.5,1.2,0.6,,,,*4D
$GNGRS,052113.00,1,-16.7,-1.0,-5.9,-4.7,,,,,,,,*6A
$GNGST,052113.00,489363,,,,6.1,3.7,8.4*41
$GNZDA,052113.00,21,05,2025,00,00*7F
$GNGBS,052113.00,6.1,3.7,8.4,,,,*54
$GNTXT,01,01,01,More than 100 frame errors, UART RX was disabled*70
b0L`s?p(i)8{:S!4]{4!V^
:R 
Y
hEnFGIHJXP(TWU UVrb`sOF$GNRMC,052114.00,A,0419.73593,S,05539.75463,E,0.249,,210525,,,A*70
$GNVTG,,T,,M,0.249,N,0.462,K,A*32
$GNGNS,052114.00,0419.73593,S,05539.75463,E,AA,12,0.80,18.2,-47.6,,*60
$GNGGA,052114.00,0419.73593,S,05539.75463,E,1,12,0.80,18.2,M,-47.6,M,,*4A
$GNGSA,A,3,24,20,11,05,13,15,12,29,,,,,1.47,0.80,1.24*1E
$GNGSA,A,3,84,80,73,85,,,,,,,,,1.47,0.80,1.24*1C
$GPGSV,5,1,17,05,63,112,26,11,15,022,25,12,40,007,20,13,18,148,11*7A
$GPGSV,5,2,17,15,29,183,12,18,27,239,21,20,41,056,28,22,13,123,11*75
$GPGSV,5,3,17,23,07,210,,24,58,225,18,25,16,339,25,29,09,308,33*7C
$GPGSV,5,4,17,36,52,277,,40,86,350,33,41,58,082,28,49,32,274,*77
$GPGSV,5,5,17,50,10,089,*4A
$GLGSV,3,1,09,69,13,110,,70,19,175,,71,01,215,,73,72,021,28*66
$GLGSV,3,2,09,74,28,344,21,80,40,140,19,84,25,343,20,85,32,284,21*69
$GLGSV,3,3,09,86,06,232,*57
$GNGLL,0419.73593,S,05539.75463,E,052114.00,A,A*67
$GNGRS,052114.00,1,-0.6,6.8,-5.0,1.3,14.4,9.3,6.2,0.9,,,,*6A
$GNGRS,052114.00,1,-16.2,-0.2,-5.9,-6.8,,,,,,,,*66
$GNGST,052114.00,3462480,,,,6.2,3.7,8.5*78
$GNZDA,052114.00,21,05,2025,00,00*78
$GNGBS,052114.00,6.2,3.7,8.5,,,,*51
$GNTXT,01,01,01,More than 100 frame errors, UART RX was disabled*70
b0LHw?p(O)8l{>:aS4q{4!V^
:R 
Y
hEnFGIHJXP(TW>U !VbbHwOFQ$GNRMC,052115.00,A,0419.73589,S,05539.75467,E,0.144,,210525,,,A*70
$GNVTG,,T,,M,0.144,N,0.266,K,A*3E
$GNGNS,052115.00,0419.73589,S,05539.75467,E,AA,12,1.06,18.2,-47.6,,*61
$GNGGA,052115.00,0419.73589,S,05539.75467,E,1,12,1.06,18.2,M,-47.6,M,,*4B
$GNGSA,A,3,24,20,11,05,13,15,12,29,,,,,2.00,1.06,1.70*10
$GNGSA,A,3,84,80,73,85,,,,,,,,,2.00,1.06,1.70*12
$GPGSV,5,1,17,05,63,112,24,11,15,022,25,12,40,007,20,13,18,148,08*70
$GPGSV,5,2,17,15,29,183,07,18,27,239,20,20,41,056,28,22,13,123,09*79
$GPGSV,5,3,17,23,07,210,,24,58,225,15,25,16,339,24,29,09,308,31*72
$GPGSV,5,4,17,36,52,277,,40,86,350,33,41,58,082,27,49,32,274,*78
$GPGSV,5,5,17,50,10,089,*4A
$GLGSV,3,1,09,69,13,110,,70,19,175,,71,01,215,,73,72,021,27*69
$GLGSV,3,2,09,74,28,344,19,80,40,140,19,84,25,343,18,85,32,284,20*68
$GLGSV,3,3,09,86,06,232,*57
$GNGLL,0419.73589,S,05539.75467,E,052115.00,A,A*69
$GNGRS,052115.00,1,-1.6,3.6,-6.4,5.1,78.9,-81.1,4.4,1.1,,,,*75
$GNGRS,052115.00,1,-14.7,-1.3,-5.2,-4.8,,,,,,,,*69
$GNGST,052115.00,45,,,,6.3,3.8,8.6*4A
$GNZDA,052115.00,21,05,2025,00,00*79
$GNGBS,052115.00,6.3,3.8,8.6,,,,*5D
$GNTXT,01,01,01,More than 100 frame errors, UART RX was disabled*70
b0L0{?p( )8-{:US!4{4$V^
!:R 
Y
hEnFGIH5JXP(TWU Vb0{OF$GNRMC,052116.00,A,0419.73597,S,05539.75473,E,0.062,,210525,,,A*7C
$GNVTG,,T,,M,0.062,N,0.114,K,A*3D
$GNGNS,052116.00,0419.73597,S,05539.75473,E,AA,13,0.75,18.0,-47.6,,*6E
$GNGGA,052116.00,0419.73597,S,05539.75473,E,1,12,0.75,18.0,M,-47.6,M,,*45
$GNGSA,A,3,24,20,11,05,13,15,22,12,29,,,,1.34,0.75,1.11*16
$GNGSA,A,3,84,80,73,85,,,,,,,,,1.34,0.75,1.11*14
$GPGSV,5,1,17,05,63,112,25,11,15,022,26,12,40,007,19,13,18,148,11*70
$GPGSV,5,2,17,15,29,183,07,18,27,239,19,20,41,056,32,22,13,123,08*79
$GPGSV,5,3,17,23,07,210,,24,58,225,16,25,16,339,26,29,09,308,33*71
$GPGSV,5,4,17,36,52,277,,40,86,350,36,41,58,082,33,49,32,274,*78
$GPGSV,5,5,17,50,10,089,*4A
$GLGSV,3,1,09,69,13,110,,70,19,175,,71,01,215,,73,72,021,29*67
$GLGSV,3,2,09,74,28,344,20,80,40,140,19,84,25,343,19,85,32,284,20*63
$GLGSV,3,3,09,86,06,232,*57
$GNGLL,0419.73597,S,05539.75473,E,052116.00,A,A*60
$GNGRS,052116.00,1,-1.7,3.0,-3.5,2.3,14.4,9.8,-5.0,1.8,1.3,,,*6E
$GNGRS,052116.00,1,-14.0,-0.3,-2.0,-5.5,,,,,,,,*65
$GNGST,052116.00,3305972,,,,6.4,3.8,8.6*76
$GNZDA,052116.00,21,05,2025,00,00*7A
$GNGBS,052116.00,6.4,3.8,8.6,,,,*59
$GNTXT,01,01,01,More than 100 frame errors, UART RX was disabled*70
b0L?pb(
K!)8{:S"4{4$V^
":R 
Y
hEnFGIH5JXP(TW$U VNbOFr!$GNRMC,052117.00,A,0419.73615,S,05539.75477,E,0.116,,210525,,,A*72
$GNVTG,,T,,M,0.116,N,0.215,K,A*3D
$GNGNS,052117.00,0419.73615,S,05539.75477,E,AA,13,0.75,17.6,-47.6,,*6B
$GNGGA,052117.00,0419.73615,S,05539.75477,E,1,12,0.75,17.6,M,-47.6,M,,*40
$GNGSA,A,3,24,20,11,05,13,15,22,12,29,,,,1.34,0.75,1.11*16
$GNGSA,A,3,84,80,73,85,,,,,,,,,1.34,0.75,1.11*14
$GPGSV,5,1,17,05,63,112,26,11,15,022,27,12,40,007,20,13,18,148,10*79
$GPGSV,5,2,17,15,29,183,09,18,27,239,18,20,41,056,33,22,13,123,13*7D
$GPGSV,5,3,17,23,07,210,,24,58,225,17,25,16,339,28,29,09,308,34*79
$GPGSV,5,4,17,36,52,277,,40,86,350,36,41,58,082,34,49,32,274,*7F
$GPGSV,5,5,17,50,10,089,*4A
$GLGSV,3,1,09,69,13,110,,70,19,175,,71,01,215,,73,72,021,30*6F
$GLGSV,3,2,09,74,28,344,22,80,40,141,19,84,25,343,18,85,32,284,19*6B
$GLGSV,3,3,09,86,06,232,*57
$GNGLL,0419.73615,S,05539.75477,E,052117.00,A,A*6C
$GNGRS,052117.00,1,-2.6,-0.5,-1.6,4.8,13.6,9.1,-5.8,-0.2,1.4,,,*6F
$GNGRS,052117.00,1,-12.4,0.0,-2.0,-6.0,,,,,,,,*4E
$GNGST,052117.00,4666644,,,,6.6,3.8,8.7*79
$GNZDA,052117.00,21,05,2025,00,00*7B
$GNGBS,052117.00,6.6,3.8,8.7,,,,*5B
$GNTXT,01,01,01,More than 100 frame errors, UART RX was disabled*70
b0L?p(
 
!)8{:^S!4{4'V^
":R 
Y
hEnFGI HJXP(TWCU VbOFJ$GNRMC,052118.00,A,0419.73614,S,05539.75476,E,0.205,,210525,,,A*7C
$GNVTG,,T,,M,0.205,N,0.379,K,A*37
$GNGNS,052118.00,0419.73614,S,05539.75476,E,AA,13,0.81,17.7,-47.6,,*6E
$GNGGA,052118.00,0419.73614,S,05539.75476,E,1,12,0.81,17.7,M,-47.6,M,,*45
$GNGSA,A,3,24,20,11,05,13,15,22,12,29,,,,1.38,0.81,1.12*12
$GNGSA,A,3,84,80,73,85,,,,,,,,,1.38,0.81,1.12*10
$GPGSV,5,1,17,05,63,112,27,11,15,022,27,12,40,007,19,13,18,148,10*72
$GPGSV,5,2,17,15,29,183,10,18,27,239,20,20,41,056,33,22,13,123,14*79
$GPGSV,5,3,17,23,07,210,,24,58,225,22,25,16,339,27,29,09,308,33*77
$GPGSV,5,4,17,36,52,277,,40,86,350,39,41,58,082,34,49,32,274,*70
$GPGSV,5,5,17,50,10,089,*4A
$GLGSV,3,1,09,69,13,110,,70,19,175,,71,01,215,,73,72,021,32*6D
$GLGSV,3,2,09,74,28,344,22,80,40,141,20,84,25,343,18,85,32,284,19*61
$GLGSV,3,3,09,86,06,232,*57
$GNGLL,0419.73614,S,05539.75476,E,052118.00,A,A*63
$GNGRS,052118.00,1,-4.2,2.2,-1.2,6.9,-17.6,-30.7,-15.6,-3.0,1.5,,,*4A
$GNGRS,052118.00,1,-9.6,-0.9,-0.9,-6.0,,,,,,,,*56
$GNGST,052118.00,51,,,,6.5,3.8,8.6*44
$GNZDA,052118.00,21,05,2025,00,00*74
$GNGBS,052118.00,6.5,3.8,8.6,,,,*56
$GNTXT,01,01,01,More than 100 frame errors, UART RX was disabled*70
b0L?p( )8{6:S!4{4&V^
":R 
Y
hEnFGI HiJXP( TWU SV"bOtF!$GNRMC,052119.00,A,0419.73616,S,05539.75482,E,0.090,,210525,,,A*7A
$GNVTG,,T,,M,0.090,N,0.167,K,A*34
$GNGNS,052119.00,0419.73616,S,05539.75482,E,AA,13,0.75,17.6,-47.6,,*6C
$GNGGA,052119.00,0419.73616,S,05539.75482,E,1,12,0.75,17.6,M,-47.6,M,,*47
$GNGSA,A,3,24,20,11,05,13,15,22,12,29,,,,1.34,0.75,1.11*16
$GNGSA,A,3,84,80,73,85,,,,,,,,,1.34,0.75,1.11*14
$GPGSV,5,1,17,05,63,112,28,11,15,022,28,12,40,007,18,13,18,148,08*7A
$GPGSV,5,2,17,15,29,183,17,18,27,239,25,20,41,056,32,22,13,123,11*7F
$GPGSV,5,3,17,23,07,210,,24,58,225,22,25,16,339,26,29,09,308,33*76
$GPGSV,5,4,17,36,52,277,,40,86,350,38,41,58,082,34,49,32,274,*71
$GPGSV,5,5,17,50,10,089,*4A
$GLGSV,3,1,09,69,13,110,,70,19,175,,71,01,215,,73,72,021,32*6D
$GLGSV,3,2,09,74,28,344,22,80,40,141,23,84,25,343,19,85,32,284,17*6D
$GLGSV,3,3,09,86,06,232,*57
$GNGLL,0419.73616,S,05539.75482,E,052119.00,A,A*6B
$GNGRS,052119.00,1,-6.1,7.2,-2.9,7.9,14.8,10.2,18.5,-3.8,1.6,,,*64
$GNGRS,052119.00,1,-7.8,-2.2,-4.1,-6.8,,,,,,,,*5A
$GNGST,052119.00,4667116,,,,6.5,3.8,8.6*74
$GNZDA,052119.00,21,05,2025,00,00*75
$GNGBS,052119.00,6.5,3.8,8.6,,,,*57
$GNTXT,01,01,01,More than 100 frame errors, UART RX was disabled*70
b0L?pG()8C{:S 4{4&V^
#:R 
Y
hEnFGI HJXP(MTW*U V"=bO\GL$GNRMC,052120.00,A,0419.73634,S,05539.75491,E,0.159,,210525,,,A*76
$GNVTG,,T,,M,0.159,N,0.295,K,A*3E
$GNGNS,052120.00,0419.73634,S,05539.75491,E,AA,13,0.75,17.2,-47.6,,*60
$GNGGA,052120.00,0419.73634,S,05539.75491,E,1,12,0.75,17.2,M,-47.6,M,,*4B
$GNGSA,A,3,24,20,11,05,13,15,22,12,29,,,,1.34,0.75,1.11*16
$GNGSA,A,3,84,80,73,85,,,,,,,,,1.34,0.75,1.11*14
$GPGSV,5,1,17,05,63,112,29,11,15,022,30,12,40,007,21,13,18,148,08*78
$GPGSV,5,2,17,15,29,183,09,18,27,239,26,20,41,056,31,22,13,123,16*77
$GPGSV,5,3,17,23,07,210,,24,58,225,21,25,16,339,26,29,09,308,32*74
$GPGSV,5,4,17,36,52,277,,40,86,350,38,41,58,082,35,49,32,274,*70
$GPGSV,5,5,17,50,10,089,*4A
$GLGSV,3,1,09,69,13,110,,70,19,175,,71,01,215,,73,72,021,32*6D
$GLGSV,3,2,09,74,28,344,21,80,40,141,24,84,25,343,19,85,32,284,18*66
$GLGSV,3,3,09,86,06,232,*57
$GNGLL,0419.73634,S,05539.75491,E,052120.00,A,A*63
$GNGRS,052120.00,1,-8.2,5.8,-4.8,5.8,14.3,9.8,17.8,-3.1,1.9,,,*52
$GNGRS,052120.00,1,-9.8,-1.8,-5.1,-6.0,,,,,,,,*5E
$GNGST,052120.00,4668633,,,,6.5,3.8,8.6*71
$GNZDA,052120.00,21,05,2025,00,00*7F
$GNGBS,052120.00,6.5,3.8,8.6,,,,*5D
$GNTXT,01,01,01,More than 100 frame errors, UART RX was disabled*70
b0L?pT:(Y )8{9:S!4{4&V^
#:R 
Y
hEnFGIHJXP(TWU nVvbODG$GNRMC,052121.00,A,0419.73640,S,05539.75495,E,0.118,,210525,,,A*75
$GNVTG,,T,,M,0.118,N,0.218,K,A*3E
$GNGNS,052121.00,0419.73640,S,05539.75495,E,AA,13,0.89,17.1,-47.6,,*66
$GNGGA,052121.00,0419.73640,S,05539.75495,E,1,12,0.89,17.1,M,-47.6,M,,*4D
$GNGSA,A,3,24,20,11,05,13,15,22,12,29,,,,1.72,0.89,1.47*14
$GNGSA,A,3,84,80,73,85,,,,,,,,,1.72,0.89,1.47*16
$GPGSV,5,1,17,05,63,112,29,11,15,022,29,12,40,007,21,13,18,148,11*78
$GPGSV,5,2,17,15,29,183,17,18,27,239,25,20,41,056,32,22,13,123,12*7C
$GPGSV,5,3,17,23,07,210,,24,58,225,21,25,16,339,26,29,09,308,33*75
$GPGSV,5,4,17,36,52,277,,40,86,350,38,41,58,082,35,49,32,274,*70
$GPGSV,5,5,17,50,10,089,*4A
$GLGSV,3,1,09,69,13,110,,70,19,175,,71,01,215,,73,72,021,28*66
$GLGSV,3,2,09,74,28,344,21,80,40,141,25,84,24,343,20,85,32,284,20*67
$GLGSV,3,3,09,86,06,232,*57
$GNGLL,0419.73640,S,05539.75495,E,052121.00,A,A*65
$GNGRS,052121.00,1,-10.3,4.1,-4.5,6.0,-110,9.2,-27.6,-4.2,2.1,,,*45
$GNGRS,052121.00,1,-10.2,-3.2,-0.5,-6.6,,,,,,,,*62
$GNGST,052121.00,43,,,,6.4,3.8,8.6*4C
$GNZDA,052121.00,21,05,2025,00,00*7E
$GNGBS,052121.00,6.4,3.8,8.6,,,,*5D
$GNTXT,01,01,01,More than 100 frame errors, UART RX was disabled*70
b0L?p(!)8{<:S 4{4(V^
#:R 
Y
hEnFGIHJXP(TWU }VEbO,G$GNRMC,052122.00,A,0419.73642,S,05539.75500,E,0.056,,210525,,,A*72
$GNVTG,,T,,M,0.056,N,0.104,K,A*3B
$GNGNS,052122.00,0419.73642,S,05539.75500,E,AA,13,0.75,17.0,-47.6,,*68
$GNGGA,052122.00,0419.73642,S,05539.75500,E,1,12,0.75,17.0,M,-47.6,M,,*43
$GNGSA,A,3,24,20,11,05,13,15,22,12,29,,,,1.34,0.75,1.11*16
$GNGSA,A,3,84,80,73,85,,,,,,,,,1.34,0.75,1.11*14
$GPGSV,5,1,17,05,63,112,30,11,15,022,29,12,40,007,21,13,18,148,18*79
$GPGSV,5,2,17,15,29,183,22,18,27,239,24,20,41,056,33,22,13,123,11*79
$GPGSV,5,3,17,23,07,210,,24,58,225,25,25,16,339,26,29,09,308,32*70
$GPGSV,5,4,17,36,52,277,,40,86,350,40,41,58,082,35,49,32,274,*7F
$GPGSV,5,5,17,50,10,089,*4A
$GLGSV,3,1,09,69,13,110,,70,19,175,,71,01,215,,73,72,021,31*6E
$GLGSV,3,2,09,74,28,344,22,80,40,141,25,84,24,343,21,85,32,285,21*65
$GLGSV,3,3,09,86,06,232,*57
$GNGLL,0419.73642,S,05539.75500,E,052122.00,A,A*69
$GNGRS,052122.00,1,-8.1,3.9,-3.8,4.1,14.7,7.4,18.5,-0.7,2.1,,,*51
$GNGRS,052122.00,1,-10.2,-3.7,-1.2,-6.4,,,,,,,,*60
$GNGST,052122.00,4665903,,,,6.3,3.8,8.6*74
$GNZDA,052122.00,21,05,2025,00,00*7D
$GNGBS,052122.00,6.3,3.8,8.6,,,,*59
$GNTXT,01,01,01,More than 100 frame errors, UART RX was disabled*70
b0L?p( )8{+:S!4{4%V^
":R 
Y
hEnFGIHJXP(RTWU VWybOG$GNRMC,052123.00,A,0419.73642,S,05539.75506,E,0.084,,210525,,,A*7A
$GNVTG,,T,,M,0.084,N,0.156,K,A*33
$GNGNS,052123.00,0419.73642,S,05539.75506,E,AA,13,0.75,16.9,-47.6,,*67
$GNGGA,052123.00,0419.73642,S,05539.75506,E,1,12,0.75,16.9,M,-47.6,M,,*4C
$GNGSA,A,3,24,20,11,05,13,15,22,12,29,,,,1.34,0.75,1.11*16
$GNGSA,A,3,84,80,73,85,,,,,,,,,1.34,0.75,1.11*14
$GPGSV,5,1,17,05,63,112,29,11,15,022,28,12,40,007,22,13,18,148,08*72
$GPGSV,5,2,17,15,29,183,20,18,27,239,23,20,41,056,32,22,13,123,12*7E
$GPGSV,5,3,17,23,07,210,,24,58,225,26,25,16,339,26,29,09,308,33*72
$GPGSV,5,4,17,36,52,277,,40,86,350,37,41,58,082,34,49,32,274,*7E
$GPGSV,5,5,17,50,10,089,*4A
$GLGSV,3,1,09,69,13,110,,70,19,175,,71,01,215,,73,72,021,30*6F
$GLGSV,3,2,09,74,28,344,22,80,40,141,23,84,24,343,22,85,32,285,20*61
$GLGSV,3,3,09,86,06,233,*56
$GNGLL,0419.73642,S,05539.75506,E,052123.00,A,A*6E
$GNGRS,052123.00,1,-8.5,4.0,-0.5,4.0,14.5,6.4,18.4,-0.7,2.3,,,*55
$GNGRS,052123.00,1,-10.4,-4.3,0.1,-7.9,,,,,,,,*47
$GNGST,052123.00,4665903,,,,6.2,3.8,8.6*74
$GNZDA,052123.00,21,05,2025,00,00*7C
$GNGBS,052123.00,6.2,3.8,8.6,,,,*59
$GNTXT,01,01,01,More than 100 frame errors, UART RX was disabled*70
b0Lp?pf
(p!)8{J:YS!4{4%V^
!:R 
Y
hEnFGIH?JXP(nTW*U V)bpOGY$GNRMC,052124.00,A,0419.73635,S,05539.75510,E,0.172,,210525,,,A*72
$GNVTG,,T,,M,0.172,N,0.319,K,A*32
$GNGNS,052124.00,0419.73635,S,05539.75510,E,AA,13,0.75,16.9,-47.6,,*67
$GNGGA,052124.00,0419.73635,S,05539.75510,E,1,12,0.75,16.9,M,-47.6,M,,*4C
$GNGSA,A,3,24,20,11,05,13,15,22,12,29,,,,1.34,0.75,1.11*16
$GNGSA,A,3,84,80,73,85,,,,,,,,,1.34,0.75,1.11*14
$GPGSV,5,1,17,05,63,112,28,11,15,022,26,12,40,007,22,13,18,148,14*70
$GPGSV,5,2,17,15,29,183,18,18,27,239,20,20,41,056,33,22,13,123,15*70
$GPGSV,5,3,17,23,07,210,,24,58,225,24,25,16,339,26,29,09,308,33*70
$GPGSV,5,4,17,36,52,277,,40,86,350,37,41,58,082,33,49,32,274,*79
$GPGSV,5,5,17,50,10,089,*4A
$GLGSV,3,1,09,69,13,110,,70,19,175,,71,01,215,,73,72,021,31*6E
$GLGSV,3,2,09,74,28,344,21,80,40,141,25,84,24,343,21,85,32,285,21*66
$GLGSV,3,3,09,86,06,233,*56
$GNGLL,0419.73635,S,05539.75510,E,052124.00,A,A*6E
$GNGRS,052124.00,1,-9.4,4.2,-2.5,-1.5,8.8,6.9,3.3,-2.8,2.7,,,*76
$GNGRS,052124.00,1,-9.8,-4.0,0.6,-7.4,,,,,,,,*7D
$GNGST,052124.00,45,,,,6.0,3.7,8.5*47
$GNZDA,052124.00,21,05,2025,00,00*7B
$GNGBS,052124.00,6.0,3.7,8.5,,,,*50
$GNTXT,01,01,01,More than 100 frame errors, UART RX was disabled*70
b0LX?p0l(!)8{G:S 4C{4'V^
:R 
Y
hEnFGIHJXP(ATW1U VHbXOG1Q$GNRMC,052125.00,A,0419.73628,S,05539.75514,E,0.012,,210525,,,A*7C
$GNVTG,,T,,M,0.012,N,0.023,K,A*3F
$GNGNS,052125.00,0419.73628,S,05539.75514,E,AA,13,0.75,16.8,-47.6,,*6F
$GNGGA,052125.00,0419.73628,S,05539.75514,E,1,12,0.75,16.8,M,-47.6,M,,*44
$GNGSA,A,3,24,20,11,05,13,15,22,12,29,,,,1.34,0.75,1.11*16
$GNGSA,A,3,84,80,73,85,,,,,,,,,1.34,0.75,1.11*14
$GPGSV,5,1,17,05,63,112,30,11,15,022,27,12,40,007,29,13,18,148,12*75
$GPGSV,5,2,17,15,29,183,16,18,27,239,19,20,41,056,33,22,13,123,15*74
$GPGSV,5,3,17,23,07,210,,24,58,225,22,25,16,339,25,29,09,308,32*74
$GPGSV,5,4,17,36,52,277,,40,86,350,39,41,58,082,31,49,32,274,*75
$GPGSV,5,5,17,50,10,089,*4A
$GLGSV,3,1,09,69,13,110,,70,19,175,,71,01,215,,73,72,021,31*6E
$GLGSV,3,2,09,74,28,344,21,80,40,141,25,84,24,343,22,85,32,285,23*67
$GLGSV,3,3,09,86,06,233,*56
$GNGLL,0419.73628,S,05539.75514,E,052125.00,A,A*67
$GNGRS,052125.00,1,-10.8,4.1,-1.5,-2.1,14.8,7.0,18.6,-3.8,3.2,,,*4B
$GNGRS,052125.00,1,-9.8,-4.5,0.1,-7.9,,,,,,,,*73
$GNGST,052125.00,184130,,,,6.0,3.7,8.4*49
$GNZDA,052125.00,21,05,2025,00,00*7A
$GNGBS,052125.00,6.0,3.7,8.4,,,,*50
$GNTXT,01,01,01,More than 100 frame errors, UART RX was disabled*70
b0L@ ?p(
!)8{2:KS 4{4&V^
":R 
Y
hEnFGIHdJXP(BTWU Vb@OG$GNRMC,052126.00,A,0419.73627,S,05539.75514,E,0.077,,210525,,,A*73
$GNVTG,,T,,M,0.077,N,0.143,K,A*3B
$GNGNS,052126.00,0419.73627,S,05539.75514,E,AA,13,0.75,16.7,-47.6,,*6C
$GNGGA,052126.00,0419.73627,S,05539.75514,E,1,12,0.75,16.7,M,-47.6,M,,*47
$GNGSA,A,3,24,20,11,05,13,15,22,12,29,,,,1.34,0.75,1.11*16
$GNGSA,A,3,84,80,73,85,,,,,,,,,1.34,0.75,1.11*14
$GPGSV,5,1,17,05,63,112,32,11,15,022,27,12,40,007,19,13,18,148,10*76
$GPGSV,5,2,17,15,29,183,16,18,27,239,19,20,41,056,33,22,13,123,14*75
$GPGSV,5,3,17,23,07,210,,24,58,225,20,25,16,339,24,29,09,308,32*77
$GPGSV,5,4,17,36,52,277,,40,86,350,38,41,58,082,34,49,32,274,*71
$GPGSV,5,5,17,50,10,089,*4A
$GLGSV,3,1,09,69,13,110,,70,19,175,,71,01,215,,73,72,021,30*6F
$GLGSV,3,2,09,74,28,344,20,80,40,141,24,84,24,343,21,85,32,285,24*63
$GLGSV,3,3,09,86,06,233,*56
$GNGLL,0419.73627,S,05539.75514,E,052126.00,A,A*6B
$GNGRS,052126.00,1,-9.5,3.8,-5.4,-2.9,14.6,6.4,18.4,-7.5,5.0,,,*7A
$GNGRS,052126.00,1,-10.0,-7.0,1.0,-8.1,,,,,,,,*41
$GNGST,052126.00,3300605,,,,5.9,3.7,8.4*7C
$GNZDA,052126.00,21,05,2025,00,00*79
$GNGBS,052126.00,5.9,3.7,8.4,,,,*59
$GNTXT,01,01,01,More than 100 frame errors, UART RX was disabled*70
b0L( ?pq(%P")8c{!:S 4{4'V^
#:R 
Y
hEnFGIHJXP(TWU \V
b(OG!$GNRMC,052127.00,A,0419.73629,S,05539.75517,E,0.043,,210525,,,A*78
$GNVTG,,T,,M,0.043,N,0.080,K,A*32
$GNGNS,052127.00,0419.73629,S,05539.75517,E,AA,13,0.75,16.5,-47.6,,*62
$GNGGA,052127.00,0419.73629,S,05539.75517,E,1,12,0.75,16.5,M,-47.6,M,,*49
$GNGSA,A,3,24,20,11,05,13,15,22,12,29,,,,1.34,0.75,1.11*16
$GNGSA,A,3,84,80,73,85,,,,,,,,,1.34,0.75,1.11*14
$GPGSV,5,1,17,05,63,112,32,11,15,022,26,12,40,007,16,13,18,148,11*79
$GPGSV,5,2,17,15,29,183,15,18,27,239,20,20,41,056,34,22,13,123,11*7E
$GPGSV,5,3,17,23,07,210,,24,58,225,20,25,16,339,23,29,09,308,32*70
$GPGSV,5,4,17,36,52,277,,40,86,350,39,41,58,082,35,49,32,274,*71
$GPGSV,5,5,17,50,10,089,*4A
$GLGSV,3,1,09,69,13,110,,70,19,175,,71,01,215,,73,72,021,31*6E
$GLGSV,3,2,09,74,28,344,18,80,40,141,23,84,24,343,20,85,32,285,23*69
$GLGSV,3,3,09,86,06,233,*56
$GNGLL,0419.73629,S,05539.75517,E,052127.00,A,A*67
$GNGRS,052127.00,1,-10.0,3.6,-5.9,1.1,-9.9,5.9,0.3,-8.9,5.0,,,*4E
$GNGRS,052127.00,1,-11.0,-8.3,-1.2,-6.8,,,,,,,,*65
$GNGST,052127.00,55,,,,5.9,3.7,8.4*4E
$GNZDA,052127.00,21,05,2025,00,00*78
$GNGBS,052127.00,5.9,3.7,8.4,,,,*58
$GNTXT,01,01,01,More than 100 frame errors, UART RX was disabled*70
b0L ?pkz(!)8n{4:{S 4{4%V^
#:R 
Y
hEnFGIHpJXP(-TW:U aVGbO G$GNRMC,052128.00,A,0419.73631,S,05539.75521,E,0.049,,210525,,,A*71
$GNVTG,,T,,M,0.049,N,0.090,K,A*39
