b0L0i ?lKG)r!(6@
}{9S6{"4V^
:R 
Y
hEmFGIJJXP'\TXyU~Vb0iOI|$GNRMC,052428.00,A,0419.73182,S,05539.75392,E,0.083,,210525,,,A*73
$GNVTG,,T,,M,0.083,N,0.155,K,A*37
$GNGNS,052428.00,0419.73182,S,05539.75392,E,AA,12,0.78,19.4,-47.6,,*67
$GNGGA,052428.00,0419.73182,S,05539.75392,E,1,12,0.78,19.4,M,-47.6,M,,*4D
$GNGSA,A,3,24,20,11,05,15,22,12,29,,,,,1.40,0.78,1.16*1D
$GNGSA,A,3,84,80,73,85,,,,,,,,,1.40,0.78,1.16*1D
$GPGSV,5,1,17,05,63,108,32,11,14,023,21,12,41,008,27,13,17,147,*79
$GPGSV,5,2,17,15,29,181,14,18,28,241,17,20,40,054,33,22,12,125,10*7B
$GPGSV,5,3,17,23,08,210,,24,57,222,27,25,18,339,22,29,09,310,11*77
$GPGSV,5,4,17,36,52,277,34,40,86,350,,41,58,082,,49,32,274,*7A
$GPGSV,5,5,17,50,10,089,*4A
$GLGSV,3,1,09,69,13,109,,70,19,173,,71,01,214,,73,74,023,29*6C
$GLGSV,3,2,09,74,29,344,,80,39,142,26,84,24,344,09,85,31,287,19*6D
$GLGSV,3,3,09,86,07,234,*50
$GNGLL,0419.73182,S,05539.75392,E,052428.00,A,A*60
$GNGRS,052428.00,1,-5.2,-1.9,-1.9,-1.8,10.0,19.1,6.3,22.8,,,,*62
$GNGRS,052428.00,1,6.3,0.9,-6.0,-3.9,,,,,,,,*59
$GNGST,052428.00,4858402,,,,5.0,5.1,12*5B
$GNZDA,052428.00,21,05,2025,00,00*72
$GNGBS,052428.00,5.0,5.1,11.5,,,,*62
$GNTXT,01,01,01,More than 100 frame errors, UART RX was disabled*70
b0Lm?l)(6'
}9S6{4V^
:R 
Y
hEmFGIJYJXP'T
XqUVbmOIT$GNRMC,052429.00,A,0419.73175,S,05539.75390,E,0.396,,210525,,,A*7F
$GNVTG,,T,,M,0.396,N,0.734,K,A*31
$GNGNS,052429.00,0419.73175,S,05539.75390,E,AA,12,0.91,18.7,-47.6,,*69
$GNGGA,052429.00,0419.73175,S,05539.75390,E,1,12,0.91,18.7,M,-47.6,M,,*43
$GNGSA,A,3,24,20,11,05,15,22,12,29,,,,,1.70,0.91,1.43*19
$GNGSA,A,3,84,80,73,85,,,,,,,,,1.70,0.91,1.43*19
$GPGSV,5,1,17,05,63,108,30,11,14,023,20,12,41,008,26,13,17,147,*7B
$GPGSV,5,2,17,15,29,181,09,18,28,241,16,20,40,054,28,22,12,125,10*7C
$GPGSV,5,3,17,23,08,210,,24,57,222,26,25,18,339,20,29,09,310,13*76
$GPGSV,5,4,17,36,52,277,30,40,86,350,,41,58,082,,49,32,274,*7E
$GPGSV,5,5,17,50,10,089,*4A
$GLGSV,3,1,09,69,13,109,,70,19,173,,71,01,214,,73,74,023,27*62
$GLGSV,3,2,09,74,29,344,,80,39,142,24,84,24,344,10,85,31,287,18*66
$GLGSV,3,3,09,86,07,234,*50
$GNGLL,0419.73175,S,05539.75390,E,052429.00,A,A*6B
$GNGRS,052429.00,1,-5.5,0.4,-1.2,-1.1,-17.9,-128,7.9,22.5,,,,*63
$GNGRS,052429.00,1,-55.2,2.7,-4.2,-2.6,,,,,,,,*40
$GNGST,052429.00,48,,,,5.1,5.1,12*60
$GNZDA,052429.00,21,05,2025,00,00*73
$GNGBS,052429.00,5.1,5.1,11.6,,,,*61
$GNTXT,01,01,01,More than 100 frame errors, UART RX was disabled*70
b0Lq?l)K(6}w9S
6{4V^
:R 
Y
hEmFGI JJXP']TXUVbqOI,u$GNRMC,052430.00,A,0419.73174,S,05539.75388,E,0.122,,210525,,,A*72
$GNVTG,,T,,M,0.122,N,0.226,K,A*3A
$GNGNS,052430.00,0419.73174,S,05539.75388,E,AA,12,0.78,18.4,-47.6,,*6D
$GNGGA,052430.00,0419.73174,S,05539.75388,E,1,12,0.78,18.4,M,-47.6,M,,*47
$GNGSA,A,3,24,20,11,05,15,22,12,29,,,,,1.40,0.78,1.16*1D
$GNGSA,A,3,84,80,73,85,,,,,,,,,1.40,0.78,1.16*1D
$GPGSV,5,1,17,05,63,108,31,11,14,023,17,12,41,008,26,13,17,147,*7E
$GPGSV,5,2,17,15,29,181,07,18,28,241,13,20,40,054,29,22,12,125,09*7E
$GPGSV,5,3,17,23,08,210,,24,57,222,25,25,18,339,19,29,09,310,10*7C
$GPGSV,5,4,17,36,52,277,30,40,86,350,,41,58,082,,49,32,274,*7E
$GPGSV,5,5,17,50,10,089,*4A
$GLGSV,3,1,09,69,13,109,,70,19,173,,71,01,214,,73,74,023,32*66
$GLGSV,3,2,09,74,29,344,,80,39,142,31,84,24,344,09,85,31,287,19*6B
$GLGSV,3,3,09,86,07,234,*50
$GNGLL,0419.73174,S,05539.75388,E,052430.00,A,A*6B
$GNGRS,052430.00,1,-5.5,-1.1,-1.1,-3.7,9.7,19.1,8.4,22.9,,,,*56
$GNGRS,052430.00,1,6.5,3.5,-3.7,-0.2,,,,,,,,*53
$GNGST,052430.00,4876599,,,,5.0,5.2,12*5E
$GNZDA,052430.00,21,05,2025,00,00*7B
$GNGBS,052430.00,5.0,5.2,11.6,,,,*6B
$GNTXT,01,01,01,More than 100 frame errors, UART RX was disabled*70
b0Lt ?l )!(6
}h9$S6{"4V^
:R 
Y
hEmFGI!JJXP'TXzUcVbtOtI$GNRMC,052431.00,A,0419.73165,S,05539.75383,E,0.062,,210525,,,A*7D
$GNVTG,,T,,M,0.062,N,0.115,K,A*3C
$GNGNS,052431.00,0419.73165,S,05539.75383,E,AA,12,0.78,18.0,-47.6,,*63
$GNGGA,052431.00,0419.73165,S,05539.75383,E,1,12,0.78,18.0,M,-47.6,M,,*49
$GNGSA,A,3,24,20,11,05,15,22,12,29,,,,,1.40,0.78,1.16*1D
$GNGSA,A,3,84,80,73,85,,,,,,,,,1.40,0.78,1.16*1D
$GPGSV,5,1,17,05,63,108,32,11,14,023,16,12,41,008,32,13,17,147,*79
$GPGSV,5,2,17,15,29,181,14,18,28,241,15,20,40,054,33,22,12,125,10*79
$GPGSV,5,3,17,23,08,210,,24,57,222,26,25,18,339,20,29,09,310,11*74
$GPGSV,5,4,17,36,52,277,34,40,86,350,,41,58,082,,49,32,274,*7A
$GPGSV,5,5,17,50,10,089,*4A
$GLGSV,3,1,09,69,13,109,,70,19,173,,71,01,214,,73,74,023,33*67
$GLGSV,3,2,09,74,29,344,,80,39,142,30,84,24,344,09,85,31,287,21*61
$GLGSV,3,3,09,86,07,234,*50
$GNGLL,0419.73165,S,05539.75383,E,052431.00,A,A*61
$GNGRS,052431.00,1,-4.8,-0.2,-0.4,-0.6,9.4,19.0,5.0,22.5,,,,*58
$GNGRS,052431.00,1,6.3,-5.9,-6.3,-1.6,,,,,,,,*77
$GNGST,052431.00,4876601,,,,5.0,5.2,12*5D
$GNZDA,052431.00,21,05,2025,00,00*7A
$GNGBS,052431.00,5.0,5.2,11.6,,,,*6A
$GNTXT,01,01,01,More than 100 frame errors, UART RX was disabled*70
b0Lx!?l\ )O; (6}9S6M{"4V^
:R 
Y
hEmFGI"JJXP'^TXEUV5bxO\I6$GNRMC,052432.00,A,0419.73162,S,05539.75385,E,0.163,,210525,,,A*7F
$GNVTG,,T,,M,0.163,N,0.301,K,A*3B
$GNGNS,052432.00,0419.73162,S,05539.75385,E,AA,12,1.05,17.8,-47.6,,*6D
$GNGGA,052432.00,0419.73162,S,05539.75385,E,1,12,1.05,17.8,M,-47.6,M,,*47
$GNGSA,A,3,24,20,11,05,15,22,12,29,,,,,1.95,1.05,1.64*1B
$GNGSA,A,3,84,80,73,85,,,,,,,,,1.95,1.05,1.64*1B
$GPGSV,5,1,17,05,63,108,33,11,14,023,16,12,41,008,32,13,17,147,*78
$GPGSV,5,2,17,15,29,181,13,18,28,241,18,20,40,054,32,22,12,125,08*7B
$GPGSV,5,3,17,23,08,210,,24,57,222,26,25,18,339,21,29,09,310,16*72
$GPGSV,5,4,17,36,52,277,34,40,86,350,,41,58,082,,49,32,274,*7A
$GPGSV,5,5,17,50,10,089,*4A
$GLGSV,3,1,09,69,13,109,,70,19,173,,71,01,214,,73,74,023,34*60
$GLGSV,3,2,09,74,29,344,,80,39,142,30,84,24,344,09,85,31,287,22*62
$GLGSV,3,3,09,86,07,234,*50
$GNGLL,0419.73162,S,05539.75385,E,052432.00,A,A*63
$GNGRS,052432.00,1,-2.7,-0.2,-0.5,-1.6,-22.5,22.1,3.4,-4.3,,,,*53
$GNGRS,052432.00,1,-14.7,-1.6,-2.8,-3.1,,,,,,,,*6F
$GNGST,052432.00,53,,,,4.9,5.2,11*69
$GNZDA,052432.00,21,05,2025,00,00*79
$GNGBS,052432.00,4.9,5.2,11.4,,,,*63
$GNTXT,01,01,01,More than 100 frame errors, UART RX was disabled*70
b0L|!?l~) (6}9S6{$4V^M
:R 
Y
hEmFGI!JJXP'TXUqV{b|ODI$GNRMC,052433.00,A,0419.73159,S,05539.75391,E,0.151,,210525,,,A*72
$GNVTG,,T,,M,0.151,N,0.280,K,A*32
$GNGNS,052433.00,0419.73159,S,05539.75391,E,AA,12,0.78,17.6,-47.6,,*64
$GNGGA,052433.00,0419.73159,S,05539.75391,E,1,12,0.78,17.6,M,-47.6,M,,*4E
$GNGSA,A,3,24,20,11,05,15,22,12,29,,,,,1.40,0.78,1.16*1D
$GNGSA,A,3,84,80,73,85,,,,,,,,,1.40,0.78,1.16*1D
$GPGSV,5,1,17,05,63,108,33,11,14,023,15,12,41,008,31,13,17,147,*78
$GPGSV,5,2,17,15,29,181,12,18,28,241,19,20,40,054,32,22,12,125,11*73
$GPGSV,5,3,17,23,08,210,,24,57,222,27,25,18,339,20,29,09,310,17*73
$GPGSV,5,4,17,36,52,277,36,40,86,350,28,41,58,082,,49,32,274,*72
$GPGSV,5,5,17,50,10,089,*4A
$GLGSV,3,1,09,69,13,109,,70,19,173,,71,01,214,,73,74,023,33*67
$GLGSV,3,2,09,74,29,344,,80,39,142,28,84,24,344,09,85,31,287,23*6A
$GLGSV,3,3,09,86,07,234,*50
$GNGLL,0419.73159,S,05539.75391,E,052433.00,A,A*6F
$GNGRS,052433.00,1,-2.8,1.6,-1.3,-2.4,10.1,19.3,2.8,23.0,,,,*47
$GNGRS,052433.00,1,6.5,-0.7,-3.0,-4.0,,,,,,,,*7D
$GNGST,052433.00,5948004,,,,4.8,5.1,11*58
$GNZDA,052433.00,21,05,2025,00,00*78
$GNGBS,052433.00,4.8,5.1,11.3,,,,*67
$GNTXT,01,01,01,More than 100 frame errors, UART RX was disabled*70
b0L!?l )&!(6}97S6{!4V^O
:R 
Y
hEmFGI JJXP'OTX{UzVzNbO,I$GNRMC,052434.00,A,0419.73148,S,05539.75389,E,0.218,,210525,,,A*72
$GNVTG,,T,,M,0.218,N,0.404,K,A*36
$GNGNS,052434.00,0419.73148,S,05539.75389,E,AA,13,0.78,18.0,-47.6,,*62
$GNGGA,052434.00,0419.73148,S,05539.75389,E,1,12,0.78,18.0,M,-47.6,M,,*49
$GNGSA,A,3,24,20,11,05,15,22,12,29,40,,,,1.30,0.78,1.04*1D
$GNGSA,A,3,84,80,73,85,,,,,,,,,1.30,0.78,1.04*19
$GPGSV,5,1,17,05,63,108,33,11,14,023,15,12,41,008,32,13,17,147,*7B
$GPGSV,5,2,17,15,29,181,09,18,28,241,18,20,40,054,33,22,12,125,11*79
$GPGSV,5,3,17,23,08,210,,24,57,222,26,25,18,339,17,29,09,310,18*79
$GPGSV,5,4,17,36,52,277,33,40,86,350,29,41,58,082,,49,32,274,*76
$GPGSV,5,5,17,50,10,089,*4A
$GLGSV,3,1,09,69,13,109,,70,19,173,,71,01,214,,73,74,023,32*66
$GLGSV,3,2,09,74,29,344,,80,39,142,28,84,24,344,09,85,31,287,22*6B
$GLGSV,3,3,09,86,07,234,*50
$GNGLL,0419.73148,S,05539.75389,E,052434.00,A,A*61
$GNGRS,052434.00,1,-2.0,2.2,-1.2,-3.1,10.3,19.7,0.4,22.7,204,,,*72
$GNGRS,052434.00,1,6.4,-6.9,-0.5,-6.5,,,,,,,,*72
$GNGST,052434.00,5714789,,,,4.7,5.1,11*55
$GNZDA,052434.00,21,05,2025,00,00*7F
$GNGBS,052434.00,4.7,5.1,11.3,,,,*6F
$GNTXT,01,01,01,More than 100 frame errors, UART RX was disabled*70
b0L!?l!)!(6\}T95S6{"4V^ZP
:R 
Y
hEmFGI JJXP'TXU.VbOIcn$GNRMC,052435.00,A,0419.73145,S,05539.75393,E,0.011,,210525,,,A*7E
$GNVTG,,T,,M,0.011,N,0.020,K,A*3F
$GNGNS,052435.00,0419.73145,S,05539.75393,E,AA,13,0.94,17.9,-47.6,,*61
$GNGGA,052435.00,0419.73145,S,05539.75393,E,1,12,0.94,17.9,M,-47.6,M,,*4A
$GNGSA,A,3,24,20,11,05,15,22,12,29,40,,,,1.66,0.94,1.38*13
$GNGSA,A,3,84,80,73,85,,,,,,,,,1.66,0.94,1.38*17
$GPGSV,5,1,17,05,63,108,33,11,14,023,16,12,41,008,33,13,17,147,*79
$GPGSV,5,2,17,15,29,181,11,18,28,241,16,20,40,054,33,22,12,125,09*77
$GPGSV,5,3,17,23,08,210,,24,57,222,25,25,18,339,15,29,09,310,11*71
$GPGSV,5,4,17,36,52,277,34,40,86,350,29,41,58,082,,49,32,274,*71
$GPGSV,5,5,17,50,10,089,*4A
$GLGSV,3,1,09,69,13,109,,70,19,173,,71,01,214,,73,74,023,32*66
$GLGSV,3,2,09,74,29,344,,80,39,142,28,84,24,344,13,85,31,287,23*61
$GLGSV,3,3,09,86,07,234,*50
$GNGLL,0419.73145,S,05539.75393,E,052435.00,A,A*66
$GNGRS,052435.00,1,-2.0,0.9,-0.7,-2.9,-8.7,-86.2,-1.0,22.5,206,,,*61
$GNGRS,052435.00,1,9.6,-2.3,-2.7,-9.8,,,,,,,,*72
$GNGST,052435.00,1237,,,,4.7,5.1,11*62
$GNZDA,052435.00,21,05,2025,00,00*7E
$GNGBS,052435.00,4.7,5.1,11.2,,,,*6F
$GNTXT,01,01,01,More than 100 frame errors, UART RX was disabled*70
b0Lp!?l2!) (6}9(S6E{"4V^%N
:R 
Y
hEmFGIJJXP'PTX{UKV}bpOI:$GNRMC,052436.00,A,0419.73151,S,05539.75388,E,0.190,,210525,,,A*7A
$GNVTG,,T,,M,0.190,N,0.352,K,A*31
$GNGNS,052436.00,0419.73151,S,05539.75388,E,AA,13,0.78,17.4,-47.6,,*62
$GNGGA,052436.00,0419.73151,S,05539.75388,E,1,12,0.78,17.4,M,-47.6,M,,*49
$GNGSA,A,3,24,20,11,05,15,22,12,29,40,,,,1.30,0.78,1.04*1D
$GNGSA,A,3,84,80,73,85,,,,,,,,,1.30,0.78,1.04*19
$GPGSV,5,1,17,05,63,108,33,11,14,023,17,12,41,008,33,13,17,147,*78
$GPGSV,5,2,17,15,29,181,14,18,28,241,15,20,40,054,32,22,12,125,09*70
$GPGSV,5,3,17,23,08,210,,24,57,222,24,25,18,339,11,29,09,310,16*73
$GPGSV,5,4,17,36,52,277,34,40,86,350,29,41,58,082,,49,32,274,*71
$GPGSV,5,5,17,50,10,089,*4A
$GLGSV,3,1,09,69,13,109,,70,19,173,,71,01,214,,73,74,023,31*65
$GLGSV,3,2,09,74,29,344,,80,39,142,28,84,24,344,13,85,31,287,21*63
$GLGSV,3,3,09,86,07,234,*50
$GNGLL,0419.73151,S,05539.75388,E,052436.00,A,A*6A
$GNGRS,052436.00,1,-2.2,-0.7,-2.1,-2.4,9.8,19.3,-0.8,18.6,200,,,*46
$GNGRS,052436.00,1,6.3,0.8,-6.3,-12.1,,,,,,,,*6C
$GNGST,052436.00,4666047,,,,4.6,5.1,11*56
$GNZDA,052436.00,21,05,2025,00,00*7D
$GNGBS,052436.00,4.6,5.1,11.1,,,,*6E
$GNTXT,01,01,01,More than 100 frame errors, UART RX was disabled*70
b0LX!?lY!)!(6:}p9Y
S6{"4V^O
:R 
Y
hEmFGI JyJXP'!TXeU6VWZbXOJ=$GNRMC,052437.00,A,0419.73151,S,05539.75395,E,0.148,,210525,,,A*72
$GNVTG,,T,,M,0.148,N,0.274,K,A*31
$GNGNS,052437.00,0419.73151,S,05539.75395,E,AA,13,0.78,17.1,-47.6,,*6A
$GNGGA,052437.00,0419.73151,S,05539.75395,E,1,12,0.78,17.1,M,-47.6,M,,*41
$GNGSA,A,3,24,20,11,05,15,22,12,29,40,,,,1.30,0.78,1.04*1D
$GNGSA,A,3,84,80,73,85,,,,,,,,,1.30,0.78,1.04*19
$GPGSV,5,1,17,05,63,108,33,11,14,023,18,12,41,008,33,13,17,147,*77
$GPGSV,5,2,17,15,29,181,17,18,28,241,14,20,40,054,33,22,12,125,07*7D
$GPGSV,5,3,17,23,08,210,,24,57,222,23,25,18,339,10,29,09,310,19*7A
$GPGSV,5,4,17,36,52,277,34,40,86,350,30,41,58,082,,49,32,274,*79
$GPGSV,5,5,17,50,10,089,*4A
$GLGSV,3,1,09,69,13,109,,70,19,173,,71,01,214,,73,74,023,32*66
$GLGSV,3,2,09,74,29,344,,80,39,142,28,84,24,344,11,85,31,287,22*62
$GLGSV,3,3,09,86,07,234,*50
$GNGLL,0419.73151,S,05539.75395,E,052437.00,A,A*67
$GNGRS,052437.00,1,-4.2,0.6,-1.7,-2.6,9.7,19.0,2.1,15.3,202,,,*4A
$GNGRS,052437.00,1,6.1,2.9,-3.9,-9.7,,,,,,,,*5F
$GNGST,052437.00,4666207,,,,4.6,5.1,11*51
$GNZDA,052437.00,21,05,2025,00,00*7C
$GNGBS,052437.00,4.6,5.1,11.1,,,,*6F
$GNTXT,01,01,01,More than 100 frame errors, UART RX was disabled*70
b0L@!?lz!)!(6}9S6b{"4V^N
:R 
Y
hEmFGIJJXP'TXUVb@OJ$GNRMC,052438.00,A,0419.73146,S,05539.75403,E,0.179,,210525,,,A*71
$GNVTG,,T,,M,0.179,N,0.331,K,A*33
$GNGNS,052438.00,0419.73146,S,05539.75403,E,AA,13,0.88,17.0,-47.6,,*65
$GNGGA,052438.00,0419.73146,S,05539.75403,E,1,12,0.88,17.0,M,-47.6,M,,*4E
$GNGSA,A,3,24,20,11,05,15,22,12,29,40,,,,1.53,0.88,1.26*17
$GNGSA,A,3,84,80,73,85,,,,,,,,,1.53,0.88,1.26*13
$GPGSV,5,1,17,05,63,108,33,11,14,023,17,12,41,008,33,13,17,147,*78
$GPGSV,5,2,17,15,29,181,17,18,28,241,13,20,40,054,33,22,12,125,07*7A
$GPGSV,5,3,17,23,08,210,,24,57,222,22,25,18,339,08,29,09,310,18*73
$GPGSV,5,4,17,36,52,277,34,40,86,350,30,41,58,082,,49,32,274,*79
$GPGSV,5,5,17,50,10,089,*4A
$GLGSV,3,1,09,69,13,109,,70,19,173,,71,01,214,,73,74,023,31*65
$GLGSV,3,2,09,74,29,344,,80,39,142,28,84,24,344,11,85,31,287,21*61
$GLGSV,3,3,09,86,07,234,*50
$GNGLL,0419.73146,S,05539.75403,E,052438.00,A,A*66
$GNGRS,052438.00,1,-5.1,0.3,-3.9,-2.9,-8.3,-105,2.6,13.8,201,,,*6F
$GNGRS,052438.00,1,-2.8,1.7,-3.6,-10.8,,,,,,,,*45
$GNGST,052438.00,1184,,,,4.5,5.1,11*66
$GNZDA,052438.00,21,05,2025,00,00*73
$GNGBS,052438.00,4.5,5.1,11.0,,,,*62
$GNTXT,01,01,01,More than 100 frame errors, UART RX was disabled*70
b0L(!?l!)!(6H
}9kS6{"4V^N
:R 
Y
hEmFGIJJXP'TXUVb(O
J$GNRMC,052439.00,A,0419.73140,S,05539.75409,E,0.180,,210525,,,A*7A
$GNVTG,,T,,M,0.180,N,0.332,K,A*36
$GNGNS,052439.00,0419.73140,S,05539.75409,E,AA,13,0.78,16.9,-47.6,,*6F
$GNGGA,052439.00,0419.73140,S,05539.75409,E,1,12,0.78,16.9,M,-47.6,M,,*44
$GNGSA,A,3,24,20,11,05,15,22,12,29,40,,,,1.30,0.78,1.04*1D
$GNGSA,A,3,84,80,73,85,,,,,,,,,1.30,0.78,1.04*19
$GPGSV,5,1,17,05,63,108,33,11,14,023,17,12,41,008,33,13,17,147,*78
$GPGSV,5,2,17,15,29,181,14,18,28,241,14,20,40,054,33,22,12,125,10*78
$GPGSV,5,3,17,23,08,210,,24,57,222,23,25,18,339,,29,09,310,18*7A
$GPGSV,5,4,17,36,52,277,34,40,86,350,30,41,58,082,,49,32,274,*79
$GPGSV,5,5,17,50,10,089,*4A
$GLGSV,3,1,09,69,13,109,,70,19,173,,71,01,214,,73,74,023,31*65
$GLGSV,3,2,09,74,29,344,,80,39,142,28,84,24,344,11,85,31,287,21*61
$GLGSV,3,3,09,86,07,234,*50
$GNGLL,0419.73140,S,05539.75409,E,052439.00,A,A*6B
$GNGRS,052439.00,1,-6.6,0.7,-4.8,-2.8,10.0,19.6,2.3,10.4,202,,,*7E
$GNGRS,052439.00,1,6.4,1.4,0.2,-11.1,,,,,,,,*40
$GNGST,052439.00,3307235,,,,4.5,5.2,11*5B
$GNZDA,052439.00,21,05,2025,00,00*72
$GNGBS,052439.00,4.5,5.2,10.9,,,,*68
$GNTXT,01,01,01,More than 100 frame errors, UART RX was disabled*70
b0L!?l=!)!(6?}9S6{"4V^O
:R 
Y
hEmFGI JLJXP'-TXzU'VbOJu$GNRMC,052440.00,A,0419.73131,S,05539.75418,E,0.313,,210525,,,A*7A
$GNVTG,,T,,M,0.313,N,0.580,K,A*31
$GNGNS,052440.00,0419.73131,S,05539.75418,E,AA,13,0.78,17.2,-47.6,,*6D
$GNGGA,052440.00,0419.73131,S,05539.75418,E,1,12,0.78,17.2,M,-47.6,M,,*46
$GNGSA,A,3,24,20,11,05,15,22,12,29,40,,,,1.30,0.78,1.04*1D
$GNGSA,A,3,84,80,73,85,,,,,,,,,1.30,0.78,1.04*19
$GPGSV,5,1,17,05,63,108,33,11,14,023,15,12,41,008,33,13,17,147,*7A
$GPGSV,5,2,17,15,29,181,19,18,28,241,14,20,40,054,33,22,12,125,09*7D
$GPGSV,5,3,17,23,08,210,,24,57,222,23,25,18,339,,29,09,310,16*74
$GPGSV,5,4,17,36,52,277,34,40,86,350,30,41,58,082,,49,32,274,*79
$GPGSV,5,5,17,50,10,089,*4A
$GLGSV,3,1,09,69,13,109,,70,19,173,,71,01,214,,73,74,023,32*66
$GLGSV,3,2,09,74,29,344,,80,39,142,28,84,24,344,11,85,31,287,20*60
$GLGSV,3,3,09,86,07,234,*50
$GNGLL,0419.73131,S,05539.75418,E,052440.00,A,A*63
$GNGRS,052440.00,1,-5.2,0.6,-4.5,-2.5,10.0,19.8,1.9,9.6,202,,,*4B
$GNGRS,052440.00,1,6.3,0.5,3.3,-9.8,,,,,,,,*7B
$GNGST,052440.00,4668197,,,,4.4,5.2,11*54
$GNZDA,052440.00,21,05,2025,00,00*7C
$GNGBS,052440.00,4.4,5.2,10.9,,,,*67
$GNTXT,01,01,01,More than 100 frame errors, UART RX was disabled*70
b0L!?l
!)R (6R}@9
S6k{"4V^N
:R 
Y
hEmFGI JJXP'T
X;UV"bOJr$GNRMC,052441.00,A,0419.73133,S,05539.75415,E,0.146,,210525,,,A*76
$GNVTG,,T,,M,0.146,N,0.271,K,A*3A
$GNGNS,052441.00,0419.73133,S,05539.75415,E,AA,13,0.90,16.9,-47.6,,*6F
$GNGGA,052441.00,0419.73133,S,05539.75415,E,1,12,0.90,16.9,M,-47.6,M,,*44
$GNGSA,A,3,24,20,11,05,15,22,12,29,40,,,,1.55,0.90,1.26*18
$GNGSA,A,3,84,80,73,85,,,,,,,,,1.55,0.90,1.26*1C
$GPGSV,5,1,17,05,63,108,33,11,14,023,16,12,41,008,33,13,17,147,*79
$GPGSV,5,2,17,15,29,181,12,18,28,241,13,20,40,054,32,22,12,125,08*71
$GPGSV,5,3,17,23,08,210,,24,57,222,22,25,18,339,,29,09,310,15*76
$GPGSV,5,4,17,36,52,277,34,40,86,350,30,41,58,082,,49,32,274,*79
$GPGSV,5,5,17,50,10,089,*4A
$GLGSV,3,1,09,69,13,109,,70,19,173,,71,01,214,,73,74,023,32*66
$GLGSV,3,2,09,74,29,344,,80,39,142,27,84,24,344,10,85,31,287,20*6E
$GLGSV,3,3,09,86,07,234,*50
$GNGLL,0419.73133,S,05539.75415,E,052441.00,A,A*6D
$GNGRS,052441.00,1,-5.0,0.8,-5.0,-2.5,8.5,166,1.8,11.3,201,,,*6F
$GNGRS,052441.00,1,153,0.2,-3.0,-13.4,,,,,,,,*78
$GNGST,052441.00,1237,,,,4.4,5.2,11*61
$GNZDA,052441.00,21,05,2025,00,00*7D
$GNGBS,052441.00,4.4,5.2,10.8,,,,*67
$GNTXT,01,01,01,More than 100 frame errors, UART RX was disabled*70
b0L"?l") (6E}9S6P{"4V^N
:R 
Y
hEmFGI JJXP'TXUVbOlJJ6$GNRMC,052442.00,A,0419.73133,S,05539.75415,E,0.025,,210525,,,A*71
$GNVTG,,T,,M,0.025,N,0.047,K,A*39
$GNGNS,052442.00,0419.73133,S,05539.75415,E,AA,13,0.78,16.6,-47.6,,*65
$GNGGA,052442.00,0419.73133,S,05539.75415,E,1,12,0.78,16.6,M,-47.6,M,,*4E
$GNGSA,A,3,24,20,11,05,15,22,12,29,40,,,,1.30,0.78,1.04*1D
$GNGSA,A,3,84,80,73,85,,,,,,,,,1.30,0.78,1.04*19
$GPGSV,5,1,17,05,63,108,34,11,14,023,18,12,41,008,34,13,17,147,*77
$GPGSV,5,2,17,15,29,181,16,18,28,241,13,20,40,054,32,22,12,125,09*74
$GPGSV,5,3,17,23,08,210,,24,57,222,21,25,18,339,,29,09,310,15*75
$GPGSV,5,4,17,36,52,277,34,40,86,350,30,41,58,082,,49,32,274,*79
$GPGSV,5,5,17,50,10,089,*4A
$GLGSV,3,1,09,69,13,109,,70,19,173,,71,01,214,,73,74,023,32*66
$GLGSV,3,2,09,74,29,344,,80,39,142,28,84,24,344,09,85,31,287,21*68
$GLGSV,3,3,09,86,07,234,*50
$GNGLL,0419.73133,S,05539.75415,E,052442.00,A,A*6E
$GNGRS,052442.00,1,-5.2,0.7,-5.3,-2.5,7.5,19.2,1.5,13.6,201,,,*42
$GNGRS,052442.00,1,6.5,0.0,-3.5,-13.0,,,,,,,,*62
$GNGST,052442.00,425730,,,,4.3,5.2,11*65
$GNZDA,052442.00,21,05,2025,00,00*7E
$GNGBS,052442.00,4.3,5.2,10.7,,,,*6C
$GNTXT,01,01,01,More than 100 frame errors, UART RX was disabled*70
b0L"?lW") (64
}n9S6{"4V^N
:R 
Y
hEmFGI JPJXP'TXUVbOTJ"$GNRMC,052443.00,A,0419.73129,S,05539.75415,E,0.067,,210525,,,A*7D
$GNVTG,,T,,M,0.067,N,0.124,K,A*3B
$GNGNS,052443.00,0419.73129,S,05539.75415,E,AA,13,0.78,16.6,-47.6,,*6F
$GNGGA,052443.00,0419.73129,S,05539.75415,E,1,12,0.78,16.6,M,-47.6,M,,*44
$GNGSA,A,3,24,20,11,05,15,22,12,29,40,,,,1.30,0.78,1.04*1D
$GNGSA,A,3,84,80,73,85,,,,,,,,,1.30,0.78,1.04*19
$GPGSV,5,1,17,05,63,108,34,11,14,023,18,12,41,008,34,13,17,147,*77
$GPGSV,5,2,17,15,29,181,17,18,28,241,12,20,40,054,32,22,12,125,10*7C
$GPGSV,5,3,17,23,08,210,,24,57,222,21,25,18,339,,29,09,310,15*75
$GPGSV,5,4,17,36,52,277,34,40,86,350,30,41,58,082,,49,32,274,*79
$GPGSV,5,5,17,50,10,089,*4A
$GLGSV,3,1,09,69,13,109,,70,19,173,,71,01,214,,73,74,023,32*66
$GLGSV,3,2,09,74,29,344,,80,39,142,28,84,24,344,09,85,31,287,21*68
$GLGSV,3,3,09,86,07,234,*50
$GNGLL,0419.73129,S,05539.75415,E,052443.00,A,A*64
$GNGRS,052443.00,1,-2.8,0.5,-6.8,-2.5,7.3,19.0,1.7,14.7,201,,,*44
$GNGRS,052443.00,1,6.5,-1.2,0.8,-15.4,,,,,,,,*6C
$GNGST,052443.00,425746,,,,4.3,5.2,11*65
$GNZDA,052443.00,21,05,2025,00,00*7F
$GNGBS,052443.00,4.3,5.2,10.7,,,,*6D
$GNTXT,01,01,01,More than 100 frame errors, UART RX was disabled*70
b0L"?l")!(6
}.9ES6b{"4V^N
:R 
Y
hEmFGI JJXP'#T
XhUV'bO<J$GNRMC,052444.00,A,0419.73127,S,05539.75419,E,0.138,,210525,,,A*73
$GNVTG,,T,,M,0.138,N,0.256,K,A*36
$GNGNS,052444.00,0419.73127,S,05539.75419,E,AA,13,0.90,16.3,-47.6,,*69
$GNGGA,052444.00,0419.73127,S,05539.75419,E,1,12,0.90,16.3,M,-47.6,M,,*42
$GNGSA,A,3,24,20,11,05,15,22,12,29,40,,,,1.55,0.90,1.26*18
$GNGSA,A,3,84,80,73,85,,,,,,,,,1.55,0.90,1.26*1C
$GPGSV,5,1,17,05,63,108,34,11,14,023,18,12,41,008,34,13,17,147,*77
$GPGSV,5,2,17,15,29,181,17,18,28,241,11,20,40,054,33,22,12,125,10*7E
$GPGSV,5,3,17,23,08,210,,24,57,222,20,25,18,339,,29,09,310,16*77
$GPGSV,5,4,17,36,52,277,34,40,86,350,30,41,58,082,,49,32,274,*79
$GPGSV,5,5,17,50,10,089,*4A
$GLGSV,3,1,09,69,13,109,,70,19,173,,71,01,214,,73,74,023,32*66
$GLGSV,3,2,09,74,29,344,,80,39,142,27,84,24,344,10,85,31,287,21*6F
$GLGSV,3,3,09,86,07,234,*50
$GNGLL,0419.73127,S,05539.75419,E,052444.00,A,A*61
$GNGRS,052444.00,1,-1.9,0.3,-8.0,-2.6,9.6,31.2,1.4,13.8,201,,,*4A
$GNGRS,052444.00,1,-32.2,0.4,-1.0,-16.1,,,,,,,,*7E
$GNGST,052444.00,1236,,,,4.3,5.2,11*62
$GNZDA,052444.00,21,05,2025,00,00*78
$GNGBS,052444.00,4.3,5.2,10.6,,,,*6B
$GNTXT,01,01,01,More than 100 frame errors, UART RX was disabled*70
b0L"?l")!(6}9S6u{"4V^qN
:R 
Y
hEmFGI J+JXP'TXUQVNbO$"Jn$GNRMC,052445.00,A,0419.73124,S,05539.75426,E,0.223,,210525,,,A*74
$GNVTG,,T,,M,0.223,N,0.414,K,A*3F
$GNGNS,052445.00,0419.73124,S,05539.75426,E,AA,13,0.78,16.5,-47.6,,*67
$GNGGA,052445.00,0419.73124,S,05539.75426,E,1,12,0.78,16.5,M,-47.6,M,,*4C
$GNGSA,A,3,24,20,11,05,15,22,12,29,40,,,,1.30,0.78,1.04*1D
$GNGSA,A,3,84,80,73,85,,,,,,,,,1.30,0.78,1.04*19
$GPGSV,5,1,17,05,63,108,34,11,14,023,18,12,41,008,34,13,17,147,*77
$GPGSV,5,2,17,15,29,181,17,18,28,241,13,20,40,054,33,22,12,125,09*74
$GPGSV,5,3,17,23,08,210,,24,57,222,21,25,18,339,,29,09,310,17*77
$GPGSV,5,4,17,36,52,277,34,40,86,350,30,41,58,082,,49,32,274,*79
$GPGSV,5,5,17,50,10,089,*4A
$GLGSV,3,1,09,69,13,109,,70,19,173,,71,01,214,,73,74,023,32*66
$GLGSV,3,2,09,74,29,344,,80,39,142,28,84,24,344,08,85,31,287,21*69
$GLGSV,3,3,09,86,07,234,*50
$GNGLL,0419.73124,S,05539.75426,E,052445.00,A,A*6F
$GNGRS,052445.00,1,-3.4,0.1,-8.6,-2.5,9.2,19.5,1.5,11.4,201,,,*45
$GNGRS,052445.00,1,6.6,1.3,0.4,-17.1,,,,,,,,*4E
$GNGST,052445.00,3302248,,,,4.2,5.2,11*58
$GNZDA,052445.00,21,05,2025,00,00*79
$GNGBS,052445.00,4.2,5.2,10.5,,,,*68
$GNTXT,01,01,01,More than 100 frame errors, UART RX was disabled*70
b0L!?l_")q!(6}9S6{"4V^xN
:R 
Y
hEmFGI!JJXP'TXUHV<bO&J$GNRMC,052446.00,A,0419.73127,S,05539.75427,E,0.062,,210525,,,A*72
$GNVTG,,T,,M,0.062,N,0.115,K,A*3C
$GNGNS,052446.00,0419.73127,S,05539.75427,E,AA,13,0.78,16.3,-47.6,,*60
$GNGGA,052446.00,0419.73127,S,05539.75427,E,1,12,0.78,16.3,M,-47.6,M,,*4B
$GNGSA,A,3,24,20,11,05,15,22,12,29,40,,,,1.30,0.78,1.04*1D
$GNGSA,A,3,84,80,73,85,,,,,,,,,1.30,0.78,1.04*19
$GPGSV,5,1,17,05,63,108,33,11,14,023,19,12,41,008,34,13,17,147,*71
$GPGSV,5,2,17,15,29,181,19,18,28,241,15,20,40,054,33,22,12,125,08*7D
$GPGSV,5,3,17,23,08,210,,24,57,222,21,25,18,339,,29,09,310,18*78
$GPGSV,5,4,17,36,52,277,34,40,86,350,29,41,58,082,,49,32,274,*71
$GPGSV,5,5,17,50,10,089,*4A
$GLGSV,3,1,09,69,13,109,,70,19,173,,71,01,214,,73,74,023,33*67
$GLGSV,3,2,09,74,29,344,,80,39,142,28,84,24,344,12,85,31,287,22*61
$GLGSV,3,3,09,86,07,234,*50
$GNGLL,0419.73127,S,05539.75427,E,052446.00,A,A*6E
$GNGRS,052446.00,1,-3.0,0.0,-9.3,-2.4,9.3,19.2,1.1,9.7,201,,,*7E
$GNGRS,052446.00,1,6.4,2.0,-1.0,-17.2,,,,,,,,*64
$GNGST,052446.00,4665903,,,,4.2,5.2,10*5D
$GNZDA,052446.00,21,05,2025,00,00*7A
$GNGBS,052446.00,4.2,5.2,10.4,,,,*6A
$GNTXT,01,01,01,More than 100 frame errors, UART RX was disabled*70
b0Lh"?l
#)V"(6
}69S6{$4V^UN
:R 
Y
hEmFGI!JQJXP'CT
XUVbhO)J;$GNRMC,052447.00,A,0419.73132,S,05539.75431,E,0.218,,210525,,,A*7F
$GNVTG,,T,,M,0.218,N,0.404,K,A*36
$GNGNS,052447.00,0419.73132,S,05539.75431,E,AA,13,0.90,16.2,-47.6,,*65
$GNGGA,052447.00,0419.73132,S,05539.75431,E,1,12,0.90,16.2,M,-47.6,M,,*4E
$GNGSA,A,3,24,20,11,05,15,22,12,29,40,,,,1.55,0.90,1.26*18
$GNGSA,A,3,84,80,73,85,,,,,,,,,1.55,0.90,1.26*1C
$GPGSV,5,1,17,05,63,108,34,11,14,023,19,12,41,008,35,13,17,147,*77
$GPGSV,5,2,17,15,29,181,19,18,28,241,17,20,40,054,34,22,12,125,10*71
$GPGSV,5,3,17,23,08,210,,24,57,222,22,25,18,339,,29,09,310,17*74
$GPGSV,5,4,17,36,52,277,36,40,86,350,30,41,58,082,,49,32,274,*7B
$GPGSV,5,5,17,50,10,089,*4A
$GLGSV,3,1,09,69,13,109,,70,19,173,,71,01,214,,73,74,023,33*67
$GLGSV,3,2,09,74,29,344,,80,39,142,27,84,24,344,10,85,31,287,23*6D
$GLGSV,3,3,09,86,07,234,*50
$GNGLL,0419.73132,S,05539.75431,E,052447.00,A,A*6C
$GNGRS,052447.00,1,-3.7,0.0,-7.8,-2.5,9.4,-127,0.9,9.0,201,,,*78
$GNGRS,052447.00,1,-77.6,3.2,-1.8,-18.5,,,,,,,,*7F
$GNGST,052447.00,1236,,,,4.1,5.2,10*62
$GNZDA,052447.00,21,05,2025,00,00*7B
$GNGBS,052447.00,4.1,5.2,10.3,,,,*6F
$GNTXT,01,01,01,More than 100 frame errors, UART RX was disabled*70
b0LP"?l"$)="(6}9>S6{#4V^sN
:R 
Y
hEmFGI!JJXP'TXU7VbPO-JY$GNRMC,052448.00,A,0419.73135,S,05539.75440,E,0.115,,210525,,,A*7F
$GNVTG,,T,,M,0.115,N,0.213,K,A*38
$GNGNS,052448.00,0419.73135,S,05539.75440,E,AA,13,0.78,15.9,-47.6,,*65
$GNGGA,052448.00,0419.73135,S,05539.75440,E,1,12,0.78,15.9,M,-47.6,M,,*4E
$GNGSA,A,3,24,20,11,05,15,22,12,29,40,,,,1.30,0.78,1.04*1D
$GNGSA,A,3,84,80,73,85,,,,,,,,,1.30,0.78,1.04*19
$GPGSV,5,1,17,05,63,108,34,11,14,023,18,12,41,008,36,13,17,147,*75
$GPGSV,5,2,17,15,29,181,21,18,28,241,19,20,40,054,34,22,12,125,12*76
$GPGSV,5,3,17,23,08,210,,24,57,222,23,25,18,339,,29,09,310,19*7B
$GPGSV,5,4,17,36,52,277,35,40,86,350,31,41,58,082,,49,32,274,*79
$GPGSV,5,5,17,50,10,089,*4A
$GLGSV,3,1,09,69,13,109,,70,19,173,,71,01,214,,73,74,023,33*67
$GLGSV,3,2,09,74,29,344,,80,39,142,27,84,24,344,11,85,31,287,22*6D
$GLGSV,3,3,09,86,07,234,*50
$GNGLL,0419.73135,S,05539.75440,E,052448.00,A,A*62
$GNGRS,052448.00,1,-4.5,-0.1,-7.9,-2.2,9.3,19.2,0.6,6.5,201,,,*57
$GNGRS,052448.00,1,6.5,2.0,-3.8,-17.4,,,,,,,,*67
$GNGST,052448.00,442233,,,,4.1,5.2,10*6B
$GNZDA,052448.00,21,05,2025,00,00*74
$GNGBS,052448.00,4.1,5.2,10.2,,,,*61
$GNTXT,01,01,01,More than 100 frame errors, UART RX was disabled*70
b0L8"?lH$)#(6}j9S6{#4V^wN
:R 
Y
hEmFGI JkJXP'TXUVb8O1J1$GNRMC,052449.00,A,0419.73135,S,05539.75449,E,0.071,,210525,,,A*74
$GNVTG,,T,,M,0.071,N,0.132,K,A*3B
$GNGNS,052449.00,0419.73135,S,05539.75449,E,AA,12,0.85,15.6,-47.6,,*61
$GNGGA,052449.00,0419.73135,S,05539.75449,E,1,12,0.85,15.6,M,-47.6,M,,*4B
$GNGSA,A,3,24,20,05,15,22,12,29,40,,,,,1.39,0.85,1.11*12
$GNGSA,A,3,84,80,73,85,,,,,,,,,1.39,0.85,1.11*16
$GPGSV,5,1,17,05,63,108,34,11,14,023,,12,41,008,36,13,17,147,*7C
$GPGSV,5,2,17,15,29,181,21,18,28,241,20,20,40,054,35,22,12,125,12*7D
$GPGSV,5,3,17,23,08,210,,24,57,222,25,25,18,339,,29,09,310,19*7D
$GPGSV,5,4,17,36,52,277,35,40,86,350,31,41,58,082,,49,32,274,*79
$GPGSV,5,5,17,50,10,089,*4A
$GLGSV,3,1,09,69,13,109,,70,19,173,,71,01,214,,73,74,023,32*66
$GLGSV,3,2,09,74,29,344,,80,39,142,27,84,24,344,07,85,31,287,22*6A
$GLGSV,3,3,09,86,07,234,*50
$GNGLL,0419.73135,S,05539.75449,E,052449.00,A,A*6A
$GNGRS,052449.00,1,-5.0,-0.3,-1.8,7.8,19.0,0.3,6.5,201,,,,*56
$GNGRS,052449.00,1,6.4,2.7,-4.1,-15.7,,,,,,,,*6F
$GNGST,052449.00,480917,,,,4.0,5.1,10*6B
$GNZDA,052449.00,21,05,2025,00,00*75
$GNGBS,052449.00,4.0,5.1,10.2,,,,*62
$GNTXT,01,01,01,More than 100 frame errors, UART RX was disabled*70
b0L "?lU$)"(6}9S6I{#4V^N
:R 
Y
hEmFGI JdJXP'T
X'UEVXRb O5J$GNRMC,052450.00,A,0419.73135,S,05539.75457,E,0.093,,210525,,,D*7A
$GNVTG,,T,,M,0.093,N,0.173,K,D*37
$GNGNS,052450.00,0419.73135,S,05539.75457,E,DA,12,0.89,15.5,-47.6,,0000*6C
$GNGGA,052450.00,0419.73135,S,05539.75457,E,2,12,0.89,15.5,M,-47.6,M,,0000*40
$GNGSA,A,3,24,20,05,15,22,12,29,40,,,,,1.45,0.89,1.14*10
$GNGSA,A,3,84,80,73,85,,,,,,,,,1.45,0.89,1.14*14
$GPGSV,5,1,17,05,63,108,34,11,14,023,17,12,41,008,36,13,17,147,*7A
$GPGSV,5,2,17,15,29,181,20,18,28,241,19,20,40,054,34,22,12,125,09*7D
$GPGSV,5,3,17,23,08,210,,24,57,222,25,25,18,339,,29,09,310,19*7D
$GPGSV,5,4,17,36,52,277,35,40,86,350,31,41,58,082,,49,32,274,*79
$GPGSV,5,5,17,50,10,089,*4A
$GLGSV,3,1,09,69,13,109,,70,19,173,,71,01,214,,73,74,023,32*66
$GLGSV,3,2,09,74,29,344,,80,39,142,27,84,24,344,10,85,31,287,22*6C
$GLGSV,3,3,09,86,07,234,*50
$GNGLL,0419.73135,S,05539.75457,E,052450.00,A,D*68
$GNGRS,052450.00,1,-5.3,-0.4,-3.8,7.1,-13.8,-0.5,5.8,201,,,,*5B
$GNGRS,052450.00,1,-140,2.6,-4.1,-17.2,,,,,,,,*55
$GNGST,052450.00,1237,,,,3.9,5.1,10*69
$GNZDA,052450.00,21,05,2025,00,00*7D
$GNGBS,052450.00,3.9,5.1,10.1,,,,*67
$GNTXT,01,01,01,More than 100 frame errors, UART RX was disabled*70
b0L"?l$)T"(6}w9OS6w{#4V^N
:R 
Y
hElFGI!J_JXP'uT
XUVbO9J$GNRMC,052451.00,A,0419.73142,S,05539.75457,E,0.122,,210525,,,D*70
$GNVTG,,T,,M,0.122,N,0.226,K,D*3F
$GNGNS,052451.00,0419.73142,S,05539.75457,E,DA,11,0.97,14.9,-47.6,,0000*6C
$GNGGA,052451.00,0419.73142,S,05539.75457,E,2,11,0.97,14.9,M,-47.6,M,,0000*40
$GNGSA,A,3,24,20,05,15,12,29,40,,,,,,1.73,0.97,1.43*18
$GNGSA,A,3,84,80,73,85,,,,,,,,,1.73,0.97,1.43*1C
$GPGSV,5,1,17,05,63,108,34,11,14,023,15,12,41,008,36,13,17,147,*78
$GPGSV,5,2,17,15,29,181,21,18,28,241,17,20,40,054,34,22,12,125,06*7D
$GPGSV,5,3,17,23,08,210,,24,57,222,24,25,18,339,,29,09,310,19*7C
$GPGSV,5,4,17,36,52,277,35,40,86,350,31,41,58,082,,49,32,274,*79
$GPGSV,5,5,17,50,10,089,*4A
$GLGSV,3,1,09,69,14,108,,70,19,173,,71,01,214,,73,74,023,33*61
$GLGSV,3,2,09,74,29,344,,80,39,142,27,84,24,344,10,85,31,287,23*6D
$GLGSV,3,3,09,86,07,234,*50
$GNGLL,0419.73142,S,05539.75457,E,052451.00,A,D*69
$GNGRS,052451.00,1,-4.3,-0.7,-3.8,6.0,-0.7,3.7,201,,,,,*6A
$GNGRS,052451.00,1,6.6,3.7,-4.2,-13.0,,,,,,,,*67
$GNGST,052451.00,3821,,,,3.9,5.1,10*67
$GNZDA,052451.00,21,05,2025,00,00*7C
$GNGBS,052451.00,3.9,5.1,10.0,,,,*67
$GNTXT,01,01,01,More than 100 frame errors, UART RX was disabled*70
b0L"?l$)#(6}I9%S6T{#4V^N
:R 
Y
hElFGI!JpJXP'TX~UdV(qbO|=JJ$GNRMC,052452.00,A,0419.73153,S,05539.75448,E,0.396,,210525,,,D*70
$GNVTG,,T,,M,0.396,N,0.734,K,D*34
$GNGNS,052452.00,0419.73153,S,05539.75448,E,DA,12,0.85,14.3,-47.6,,0000*6B
$GNGGA,052452.00,0419.73153,S,05539.75448,E,2,12,0.85,14.3,M,-47.6,M,,0000*47
$GNGSA,A,3,24,20,05,15,22,12,29,40,,,,,1.39,0.85,1.11*12
$GNGSA,A,3,84,80,73,85,,,,,,,,,1.39,0.85,1.11*16
$GPGSV,5,1,17,05,63,108,34,11,14,023,16,12,41,008,36,13,17,147,*7B
$GPGSV,5,2,17,15,29,181,20,18,28,241,17,20,40,054,35,22,12,125,08*73
$GPGSV,5,3,17,23,08,210,,24,57,222,23,25,18,339,,29,09,310,20*71
$GPGSV,5,4,17,36,52,277,35,40,86,350,30,41,58,082,,49,32,274,*78
$GPGSV,5,5,17,50,10,089,*4A
$GLGSV,3,1,09,69,14,108,,70,20,173,,71,01,214,,73,74,023,33*6B
$GLGSV,3,2,09,74,29,344,,80,39,142,28,84,24,344,11,85,31,287,23*63
$GLGSV,3,3,09,86,07,234,*50
$GNGLL,0419.73153,S,05539.75448,E,052452.00,A,D*64
$GNGRS,052452.00,1,-2.2,-0.7,-3.6,6.5,18.6,-1.1,0.8,201,,,,*7F
$GNGRS,052452.00,1,6.4,2.4,-4.0,-14.4,,,,,,,,*65
$GNGST,052452.00,3434016,,,,3.8,5.0,10*5B
$GNZDA,052452.00,21,05,2025,00,00*7F
$GNGBS,052452.00,3.8,5.0,10.0,,,,*64
$GNTXT,01,01,01,More than 100 frame errors, UART RX was disabled*70
b0L"?l$)r#(6
}"9[S6{#4V^N
:R 
Y
hElFGI!JzJXP'bTXUQVhbOdAJ$GNRMC,052453.00,A,0419.73158,S,05539.75455,E,0.140,,210525,,,D*7F
$GNVTG,,T,,M,0.140,N,0.260,K,D*39
$GNGNS,052453.00,0419.73158,S,05539.75455,E,DA,12,1.00,14.1,-47.6,,0000*63
$GNGGA,052453.00,0419.73158,S,05539.75455,E,2,12,1.00,14.1,M,-47.6,M,,0000*4F
$GNGSA,A,3,24,20,05,15,22,12,29,40,,,,,1.79,1.00,1.48*16
$GNGSA,A,3,84,80,73,85,,,,,,,,,1.79,1.00,1.48*12
$GPGSV,5,1,17,05,63,108,34,11,14,023,16,12,41,008,36,13,17,147,*7B
$GPGSV,5,2,17,15,29,181,21,18,28,241,18,20,40,054,35,22,12,125,10*74
$GPGSV,5,3,17,23,08,210,,24,57,222,21,25,18,339,,29,09,310,20*73
$GPGSV,5,4,17,36,52,277,35,40,86,350,30,41,58,082,,49,32,274,*78
$GPGSV,5,5,17,50,10,089,*4A
$GLGSV,3,1,09,69,14,108,,70,20,173,,71,02,213,,73,74,023,33*6F
$GLGSV,3,2,09,74,29,344,,80,39,142,28,84,24,344,12,85,31,287,23*60
$GLGSV,3,3,09,86,07,234,*50
$GNGLL,0419.73158,S,05539.75455,E,052453.00,A,D*62
$GNGRS,052453.00,1,-1.6,-0.8,-3.2,5.3,79.7,-1.4,1.8,202,,,,*76
$GNGRS,052453.00,1,-26.4,1.0,-3.9,-14.5,,,,,,,,*73
$GNGST,052453.00,1297,,,,3.8,5.0,9.9*4F
$GNZDA,052453.00,21,05,2025,00,00*7E
$GNGBS,052453.00,3.8,5.0,9.9,,,,*54
$GNTXT,01,01,01,More than 100 frame errors, UART RX was disabled*70
b0L"?l$)b#(6}9S6{#4V^N
:R 
Y
hElFGI!JJXP'T
XU%V|bOLEJj$GNRMC,052454.00,A,0419.73159,S,05539.75467,E,0.071,,210525,,,D*7B
$GNVTG,,T,,M,0.071,N,0.132,K,D*3E
$GNGNS,052454.00,0419.73159,S,05539.75467,E,DA,13,0.78,14.1,-47.6,,0000*6B
$GNGGA,052454.00,0419.73159,S,05539.75467,E,2,12,0.78,14.1,M,-47.6,M,,0000*46
$GNGSA,A,3,24,20,11,05,15,22,12,29,40,,,,1.30,0.78,1.04*1D
$GNGSA,A,3,84,80,73,85,,,,,,,,,1.30,0.78,1.04*19
$GPGSV,5,1,17,05,63,108,34,11,14,023,17,12,41,008,36,13,17,147,*7A
$GPGSV,5,2,17,15,29,181,21,18,28,241,21,20,40,054,35,22,12,125,11*7F
$GPGSV,5,3,17,23,08,210,,24,57,222,22,25,18,339,,29,09,310,20*70
$GPGSV,5,4,17,36,52,277,35,40,86,350,31,41,58,082,,49,32,274,*79
$GPGSV,5,5,17,50,10,089,*4A
$GLGSV,3,1,09,69,14,108,,70,20,173,,71,02,213,,73,74,023,33*6F
$GLGSV,3,2,09,74,29,344,,80,39,142,28,84,24,344,10,85,31,287,22*63
$GLGSV,3,3,09,86,07,234,*50
$GNGLL,0419.73159,S,05539.75467,E,052454.00,A,D*65
$GNGRS,052454.00,1,-3.8,-1.1,2.5,-2.8,4.6,19.3,-1.6,-1.2,202,,,*74
$GNGRS,052454.00,1,6.8,-1.0,-3.7,-15.0,,,,,,,,*40
$GNGST,052454.00,4665903,,,,3.7,5.0,9.8*70
$GNZDA,052454.00,21,05,2025,00,00*79
$GNGBS,052454.00,3.7,5.0,9.8,,,,*5D
$GNTXT,01,01,01,More than 100 frame errors, UART RX was disabled*70
b0L"?l$)%#(6}9jS6{#4V^O
:R 
Y
hElFGI JJXP'TXUrV(bO4IJB$GNRMC,052455.00,A,0419.73160,S,05539.75476,E,0.253,,210525,,,D*72
$GNVTG,,T,,M,0.253,N,0.469,K,D*37
$GNGNS,052455.00,0419.73160,S,05539.75476,E,DA,13,0.88,14.0,-47.6,,0000*6E
$GNGGA,052455.00,0419.73160,S,05539.75476,E,2,12,0.88,14.0,M,-47.6,M,,0000*43
$GNGSA,A,3,24,20,11,05,15,22,12,29,40,,,,1.53,0.88,1.25*14
$GNGSA,A,3,84,80,73,85,,,,,,,,,1.53,0.88,1.25*10
$GPGSV,5,1,17,05,63,108,34,11,14,023,17,12,41,008,36,13,17,147,*7A
$GPGSV,5,2,17,15,29,181,21,18,28,241,22,20,40,054,35,22,12,125,11*7C
$GPGSV,5,3,17,23,08,210,,24,57,222,21,25,18,339,,29,09,310,19*79
$GPGSV,5,4,17,36,52,277,35,40,86,350,31,41,58,082,,49,32,274,*79
$GPGSV,5,5,17,50,10,089,*4A
$GLGSV,3,1,09,69,14,108,,70,20,173,,71,02,213,,73,74,024,32*69
$GLGSV,3,2,09,74,29,344,,80,39,142,28,84,24,344,07,85,31,287,22*65
$GLGSV,3,3,09,86,07,234,*50
$GNGLL,0419.73160,S,05539.75476,E,052455.00,A,D*6E
$GNGRS,052455.00,1,-1.5,-0.8,2.6,-1.0,4.4,19.8,0.4,-0.2,204,,,*5A
$GNGRS,052455.00,1,9.2,1.5,-1.0,-11.7,,,,,,,,*6A
$GNGST,052455.00,3434012,,,,4.2,5.4,10*51
$GNZDA,052455.00,21,05,2025,00,00*78
$GNGBS,052455.00,4.2,5.4,10.0,,,,*6A
$GNTXT,01,01,01,More than 100 frame errors, UART RX was disabled*70
b0L"?l$)#(6}@9.S6{#4V^O
:R 
Y
hElFGI JJXP'TXUVBbOMJ$GNRMC,052456.00,A,0419.73167,S,05539.75475,E,0.113,,210525,,,D*72
$GNVTG,,T,,M,0.113,N,0.209,K,D*30
$GNGNS,052456.00,0419.73167,S,05539.75475,E,DA,13,0.90,13.7,-47.6,,0000*60
$GNGGA,052456.00,0419.73167,S,05539.75475,E,2,12,0.90,13.7,M,-47.6,M,,0000*4D
$GNGSA,A,3,24,20,11,05,15,22,12,29,40,,,,1.55,0.90,1.26*18
$GNGSA,A,3,84,80,73,85,,,,,,,,,1.55,0.90,1.26*1C
$GPGSV,5,1,17,05,63,108,34,11,14,023,17,12,41,008,36,13,17,147,*7A
$GPGSV,5,2,17,15,29,181,21,18,28,241,22,20,40,054,35,22,12,125,13*7E
$GPGSV,5,3,17,23,08,210,,24,57,222,21,25,18,339,,29,09,310,18*78
$GPGSV,5,4,17,36,52,277,35,40,86,350,30,41,58,082,,49,32,274,*78
$GPGSV,5,5,17,50,10,089,*4A
$GLGSV,3,1,09,69,14,108,,70,20,173,,71,02,213,,73,74,024,32*69
$GLGSV,3,2,09,74,30,344,,80,39,142,28,84,24,344,11,85,31,287,22*6A
$GLGSV,3,3,09,86,07,234,*50
$GNGLL,0419.73167,S,05539.75475,E,052456.00,A,D*69
$GNGRS,052456.00,1,-2.1,-1.1,-0.5,-0.7,6.9,166,-0.4,-0.9,204,,,*7A
$GNGRS,052456.00,1,66.2,2.6,-0.8,-10.8,,,,,,,,*57
$GNGST,052456.00,1236,,,,4.1,5.4,10*64
$GNZDA,052456.00,21,05,2025,00,00*7B
$GNGBS,052456.00,4.1,5.4,9.9,,,,*5B
$GNTXT,01,01,01,More than 100 frame errors, UART RX was disabled*70
b0Lx"?l$)#(6
}9S6{#4V^rO
:R 
Y
hElFGI JJXP'T
XUVbxOQJR$GNRMC,052457.00,A,0419.73172,S,05539.75468,E,0.257,,210525,,,D*78
$GNVTG,,T,,M,0.257,N,0.476,K,D*3D
$GNGNS,052457.00,0419.73172,S,05539.75468,E,DA,13,0.78,13.3,-47.6,,0000*6B
$GNGGA,052457.00,0419.73172,S,05539.75468,E,2,12,0.78,13.3,M,-47.6,M,,0000*46
$GNGSA,A,3,24,20,11,05,15,22,12,29,40,,,,1.30,0.78,1.04*1D
$GNGSA,A,3,84,80,73,85,,,,,,,,,1.30,0.78,1.04*19
$GPGSV,5,1,17,05,63,108,34,11,14,023,16,12,41,008,36,13,17,147,*7B
$GPGSV,5,2,17,15,29,181,21,18,28,241,23,20,40,054,35,22,12,125,10*7C
$GPGSV,5,3,17,23,08,210,,24,57,222,21,25,18,339,,29,09,310,17*77
$GPGSV,5,4,17,36,52,277,35,40,86,350,30,41,58,082,,49,32,274,*78
$GPGSV,5,5,17,50,10,089,*4A
$GLGSV,3,1,09,69,14,108,,70,20,173,,71,02,213,,73,74,024,32*69
$GLGSV,3,2,09,74,30,344,,80,39,142,27,84,24,344,10,85,31,287,22*64
$GLGSV,3,3,09,86,07,234,*50
$GNGLL,0419.73172,S,05539.75468,E,052457.00,A,D*60
$GNGRS,052457.00,1,-1.2,-0.7,-0.9,-0.5,4.3,17.3,-0.5,2.6,203,,,*76
$GNGRS,052457.00,1,6.6,2.3,-0.9,-8.3,,,,,,,,*52
$GNGST,052457.00,3326644,,,,4.1,5.4,9.9*7E
$GNZDA,052457.00,21,05,2025,00,00*7A
$GNGBS,052457.00,4.1,5.4,9.9,,,,*5A
$GNTXT,01,01,01,More than 100 frame errors, UART RX was disabled*70
b0L`!?l$)#(6}9FS6t{#4V^eO
:R 
Y
hElFGI!JJXP'TXUVb`OTJ$GNRMC,052458.00,A,0419.73177,S,05539.75472,E,0.105,,210525,,,D*7D
$GNVTG,,T,,M,0.105,N,0.194,K,D*30
$GNGNS,052458.00,0419.73177,S,05539.75472,E,DA,13,0.78,13.4,-47.6,,0000*6D
$GNGGA,052458.00,0419.73177,S,05539.75472,E,2,12,0.78,13.4,M,-47.6,M,,0000*40
$GNGSA,A,3,24,20,11,05,15,22,12,29,40,,,,1.30,0.78,1.04*1D
$GNGSA,A,3,84,80,73,85,,,,,,,,,1.30,0.78,1.04*19
$GPGSV,5,1,17,05,63,108,33,11,14,023,18,12,41,008,36,13,17,147,*72
$GPGSV,5,2,17,15,29,181,21,18,28,241,24,20,40,054,35,22,12,125,09*73
$GPGSV,5,3,17,23,08,210,,24,57,222,21,25,18,339,,29,09,310,17*77
$GPGSV,5,4,17,36,52,277,35,40,86,350,30,41,58,082,,49,32,274,*78
$GPGSV,5,5,17,50,10,089,*4A
$GLGSV,3,1,09,69,14,108,,70,20,173,,71,02,213,,73,74,024,33*68
$GLGSV,3,2,09,74,30,344,,80,39,142,27,84,24,344,11,85,31,287,23*64
$GLGSV,3,3,09,86,07,234,*50
$GNGLL,0419.73177,S,05539.75472,E,052458.00,A,D*61
$GNGRS,052458.00,1,-1.9,-0.9,-5.6,-0.1,2.4,17.2,-0.9,3.7,203,,,*7E
$GNGRS,052458.00,1,6.7,5.1,-0.9,-10.3,,,,,,,,*60
$GNGST,052458.00,3326644,,,,4.0,5.3,9.8*76
$GNZDA,052458.00,21,05,2025,00,00*75
$GNGBS,052458.00,4.0,5.3,9.8,,,,*52
$GNTXT,01,01,01,More than 100 frame errors, UART RX was disabled*70
b0LH!?l$)#(6}9S6{#4V^\O
:R 
Y
hElFGI!JJXP'xTXUVbHOXJ$GNRMC,052459.00,A,0419.73184,S,05539.75468,E,0.319,,210525,,,D*74
$GNVTG,,T,,M,0.319,N,0.590,K,D*3F
$GNGNS,052459.00,0419.73184,S,05539.75468,E,DA,13,0.90,13.2,-47.6,,0000*6B
$GNGGA,052459.00,0419.73184,S,05539.75468,E,2,12,0.90,13.2,M,-47.6,M,,0000*46
$GNGSA,A,3,24,20,11,05,15,22,12,29,40,,,,1.55,0.90,1.26*18
$GNGSA,A,3,84,80,73,85,,,,,,,,,1.55,0.90,1.26*1C
$GPGSV,5,1,17,05,63,108,33,11,14,023,18,12,41,008,36,13,17,147,*72
$GPGSV,5,2,17,15,29,181,22,18,28,241,24,20,40,054,35,22,12,125,07*7E
$GPGSV,5,3,17,23,08,210,,24,57,222,22,25,18,339,,29,09,310,19*7A
$GPGSV,5,4,17,36,52,277,35,40,86,350,31,41,58,082,,49,32,274,*79
$GPGSV,5,5,17,50,10,089,*4A
$GLGSV,3,1,09,69,14,108,,70,20,173,,71,02,213,,73,74,024,33*68
$GLGSV,3,2,09,74,30,344,,80,39,142,27,84,24,344,08,85,31,287,23*6C
$GLGSV,3,3,09,86,07,234,*50
$GNGLL,0419.73184,S,05539.75468,E,052459.00,A,D*67
$GNGRS,052459.00,1,-3.3,-1.0,-11.5,0.1,2.4,50.6,-1.0,2.6,203,,,*6B
$GNGRS,052459.00,1,37.5,3.8,-1.0,-10.2,,,,,,,,*57
$GNGST,052459.00,1236,,,,4.0,5.3,9.8*43
$GNZDA,052459.00,21,05,2025,00,00*74
$GNGBS,052459.00,4.0,5.3,9.8,,,,*53
$GNTXT,01,01,01,More than 100 frame errors, UART RX was disabled*70
b0L0!?l:$)#(6}9S6${#4V^kO
:R 
Y
hElFGI JJXP'TXUVrAb0O\Jy$GNRMC,052500.00,A,0419.73195,S,05539.75459,E,0.297,,210525,,,D*7C
$GNVTG,,T,,M,0.297,N,0.549,K,D*3C
$GNGNS,052500.00,0419.73195,S,05539.75459,E,DA,13,0.78,12.7,-47.6,,0000*66
$GNGGA,052500.00,0419.73195,S,05539.75459,E,2,12,0.78,12.7,M,-47.6,M,,0000*4B
$GNGSA,A,3,24,20,11,05,15,22,12,29,40,,,,1.30,0.78,1.04*1D
$GNGSA,A,3,84,80,73,85,,,,,,,,,1.30,0.78,1.04*19
$GPGSV,5,1,17,05,63,108,33,11,14,023,18,12,41,008,36,13,17,147,*72
$GPGSV,5,2,17,15,29,181,22,18,28,241,24,20,40,054,35,22,12,125,11*79
$GPGSV,5,3,17,23,08,210,,24,57,222,21,25,18,339,,29,09,310,18*78
$GPGSV,5,4,17,36,52,277,35,40,86,350,30,41,58,082,,49,32,274,*78
$GPGSV,5,5,17,50,10,089,*4A
$GLGSV,3,1,09,69,14,108,,70,20,173,,71,02,213,,73,74,024,32*69
$GLGSV,3,2,09,74,30,344,,80,39,142,27,84,24,344,09,85,31,287,23*6D
$GLGSV,3,3,09,86,07,234,*50
$GNGLL,0419.73195,S,05539.75459,E,052500.00,A,D*68
$GNGRS,052500.00,1,-5.2,-1.2,-11.5,0.6,2.8,17.3,-0.9,5.5,203,,,*62
$GNGRS,052500.00,1,6.6,3.9,-0.9,-10.5,,,,,,,,*65
$GNGST,052500.00,4665903,,,,3.9,5.2,9.7*73
$GNZDA,052500.00,21,05,2025,00,00*79
$GNGBS,052500.00,3.9,5.2,9.7,,,,*5E
$GNTXT,01,01,01,More than 100 frame errors, UART RX was disabled*70
b0L!?lP$)w#(6}9S6/{#4V^O
:R 
Y
hElFGI JJXP'eTXU@V}bO`JQ$GNRMC,052501.00,A,0419.73198,S,05539.75468,E,0.107,,210525,,,D*78
$GNVTG,,T,,M,0.107,N,0.199,K,D*3F
$GNGNS,052501.00,0419.73198,S,05539.75468,E,DA,13,0.78,12.8,-47.6,,0000*67
$GNGGA,052501.00,0419.73198,S,05539.75468,E,2,12,0.78,12.8,M,-47.6,M,,0000*4A
$GNGSA,A,3,24,20,11,05,15,22,12,29,40,,,,1.30,0.78,1.04*1D
$GNGSA,A,3,84,80,73,85,,,,,,,,,1.30,0.78,1.04*19
$GPGSV,5,1,17,05,63,108,33,11,14,023,18,12,41,008,36,13,17,147,*72
$GPGSV,5,2,17,15,29,181,22,18,28,241,24,20,40,054,35,22,12,125,09*70
$GPGSV,5,3,17,23,08,210,,24,57,222,21,25,18,339,,29,09,310,18*78
$GPGSV,5,4,17,36,52,277,35,40,86,350,30,41,58,082,,49,32,274,*78
$GPGSV,5,5,17,50,10,089,*4A
$GLGSV,3,1,09,69,14,108,,70,20,173,,71,02,213,,73,74,024,32*69
$GLGSV,3,2,09,74,30,344,,80,39,142,27,84,24,344,09,85,31,287,22*6C
$GLGSV,3,3,09,86,07,234,*50
$GNGLL,0419.73198,S,05539.75468,E,052501.00,A,D*66
$GNGRS,052501.00,1,-6.2,-1.1,-8.1,0.8,2.5,17.0,-1.4,5.6,204,,,*57
$GNGRS,052501.00,1,6.6,3.6,-0.7,-9.6,,,,,,,,*5E
$GNGST,052501.00,4665903,,,,3.9,5.2,9.7*72
$GNZDA,052501.00,21,05,2025,00,00*78
$GNGBS,052501.00,3.9,5.2,9.7,,,,*5F
$GNTXT,01,01,01,More than 100 frame errors, UART RX was disabled*70
b0L!?lhs$) #(6}?9S6{#4V^O
:R 
Y
hElFGI JJXP&TXeUVC4bOdJ)W$GNRMC,052502.00,A,0419.73207,S,05539.75467,E,0.129,,210525,,,D*7D
$GNVTG,,T,,M,0.129,N,0.239,K,D*3A
$GNGNS,052502.00,0419.73207,S,05539.75467,E,DA,13,0.90,12.5,-47.6,,0000*65
$GNGGA,052502.00,0419.73207,S,05539.75467,E,2,12,0.90,12.5,M,-47.6,M,,0000*48
$GNGSA,A,3,24,20,11,05,15,22,12,29,40,,,,1.55,0.90,1.26*18
$GNGSA,A,3,84,80,73,85,,,,,,,,,1.55,0.90,1.26*1C
$GPGSV,5,1,17,05,63,108,33,11,14,023,17,12,41,008,36,13,17,147,*7D
$GPGSV,5,2,17,15,29,181,22,18,28,241,25,20,40,054,35,22,12,125,09*71
$GPGSV,5,3,17,23,08,210,,24,57,222,21,25,18,339,,29,09,310,17*77
$GPGSV,5,4,17,36,52,277,35,40,86,350,31,41,58,082,,49,32,274,*79
$GPGSV,5,5,17,50,10,089,*4A
$GLGSV,3,1,09,69,14,108,,70,20,173,,71,02,213,,73,74,024,32*69
$GLGSV,3,2,09,74,30,344,,80,38,142,28,84,24,344,09,85,31,287,22*62
$GLGSV,3,3,09,86,07,234,*50
$GNGLL,0419.73207,S,05539.75467,E,052502.00,A,D*6F
$GNGRS,052502.00,1,-7.5,-1.2,-9.1,1.0,2.9,163,-1.2,4.2,204,,,*7A
$GNGRS,052502.00,1,29.2,4.3,-0.8,-11.0,,,,,,,,*56
$GNGST,052502.00,1236,,,,3.8,5.2,9.6*4C
$GNZDA,052502.00,21,05,2025,00,00*7B
$GNGBS,052502.00,3.8,5.2,9.6,,,,*5C
$GNTXT,01,01,01,More than 100 frame errors, UART RX was disabled*70
b0L!?ldq$)#(6w
}90S6{#4V^O
:R 
Y
hElFGI!JJXP&TXU V9bOthJ$GNRMC,052503.00,A,0419.73211,S,05539.75471,E,0.060,,210525,,,D*70
$GNVTG,,T,,M,0.060,N,0.111,K,D*3F
$GNGNS,052503.00,0419.73211,S,05539.75471,E,DA,13,0.78,12.6,-47.6,,0000*61
$GNGGA,052503.00,0419.73211,S,05539.75471,E,2,12,0.78,12.6,M,-47.6,M,,0000*4C
$GNGSA,A,3,24,20,11,05,15,22,12,29,40,,,,1.30,0.78,1.04*1D
$GNGSA,A,3,84,80,73,85,,,,,,,,,1.30,0.78,1.04*19
$GPGSV,5,1,17,05,63,108,33,11,14,023,15,12,41,008,36,13,17,147,*7F
$GPGSV,5,2,17,15,29,181,23,18,28,241,25,20,40,054,35,22,12,125,10*78
$GPGSV,5,3,17,23,08,210,,24,57,222,20,25,18,339,,29,09,310,17*76
$GPGSV,5,4,17,36,52,277,35,40,86,350,31,41,58,082,,49,32,274,*79
$GPGSV,5,5,17,50,10,089,*4A
$GLGSV,3,1,09,69,14,108,,70,20,173,,71,02,213,,73,74,024,33*68
$GLGSV,3,2,09,74,30,344,,80,38,142,27,84,24,344,09,85,31,287,21*6E
$GLGSV,3,3,09,86,07,234,*50
$GNGLL,0419.73211,S,05539.75471,E,052503.00,A,D*6E
$GNGRS,052503.00,1,-7.2,-1.4,-9.1,1.0,1.3,17.4,-1.1,4.7,204,,,*5D
$GNGRS,052503.00,1,6.7,3.9,-0.6,-12.5,,,,,,,,*6A
$GNGST,052503.00,3326644,,,,3.8,5.1,9.6*7A
$GNZDA,052503.00,21,05,2025,00,00*7A
$GNGBS,052503.00,3.8,5.1,9.6,,,,*5E
$GNTXT,01,01,01,More than 100 frame errors, UART RX was disabled*70
b0L!?l$)n#(6}}9xS6{#4V^O
:R 
Y
hElFGI JJXP&VTXUVebO\lJ$GNRMC,052504.00,A,0419.73214,S,05539.75475,E,0.103,,210525,,,D*72
$GNVTG,,T,,M,0.103,N,0.190,K,D*32
$GNGNS,052504.00,0419.73214,S,05539.75475,E,DA,13,0.78,12.7,-47.6,,0000*66
$GNGGA,052504.00,0419.73214,S,05539.75475,E,2,12,0.78,12.7,M,-47.6,M,,0000*4B
$GNGSA,A,3,24,20,11,05,15,22,12,29,40,,,,1.30,0.78,1.04*1D
$GNGSA,A,3,84,80,73,85,,,,,,,,,1.30,0.78,1.04*19
$GPGSV,5,1,17,05,63,108,33,11,14,023,14,12,41,008,36,13,17,147,*7E
$GPGSV,5,2,17,15,29,181,25,18,28,241,26,20,40,054,35,22,12,125,09*75
$GPGSV,5,3,17,23,08,210,,24,57,222,20,25,18,339,,29,09,310,18*79
$GPGSV,5,4,17,36,52,277,35,40,86,350,30,41,58,082,,49,32,274,*78
$GPGSV,5,5,17,50,10,089,*4A
$GLGSV,3,1,09,69,14,108,,70,20,173,,71,02,213,,73,74,024,32*69
$GLGSV,3,2,09,74,30,344,,80,38,142,28,84,24,344,09,85,31,287,21*61
$GLGSV,3,3,09,86,07,234,*50
$GNGLL,0419.73214,S,05539.75475,E,052504.00,A,D*68
$GNGRS,052504.00,1,-6.5,-1.3,-8.8,1.3,1.1,17.3,-1.0,1.5,204,,,*53
$GNGRS,052504.00,1,6.7,3.4,-0.7,-11.4,,,,,,,,*63
$GNGST,052504.00,3326644,,,,3.7,5.1,9.6*72
$GNZDA,052504.00,21,05,2025,00,00*7D
$GNGBS,052504.00,3.7,5.1,9.6,,,,*56
$GNTXT,01,01,01,More than 100 frame errors, UART RX was disabled*70
b0L!?l$)#(6}$9/S6{#4V^O
:R 
Y
hElFGI JJXP&TXXUJVbODpJ$GNRMC,052505.00,A,0419.73219,S,05539.75475,E,0.153,,210525,,,D*7B
$GNVTG,,T,,M,0.153,N,0.284,K,D*31
$GNGNS,052505.00,0419.73219,S,05539.75475,E,DA,13,0.90,12.7,-47.6,,0000*6C
$GNGGA,052505.00,0419.73219,S,05539.75475,E,2,12,0.90,12.7,M,-47.6,M,,0000*41
$GNGSA,A,3,24,20,11,05,15,22,12,29,40,,,,1.55,0.90,1.26*18
$GNGSA,A,3,84,80,73,85,,,,,,,,,1.55,0.90,1.26*1C
$GPGSV,5,1,17,05,63,108,33,11,14,023,12,12,41,008,36,13,17,147,*78
$GPGSV,5,2,17,15,29,181,25,18,28,241,25,20,40,054,35,22,12,125,14*7A
$GPGSV,5,3,17,23,08,210,,24,57,222,19,25,18,339,,29,09,310,20*78
$GPGSV,5,4,17,36,52,277,35,40,86,350,31,41,58,082,,49,32,274,*79
$GPGSV,5,5,17,50,10,089,*4A
$GLGSV,3,1,09,69,14,108,,70,20,173,,71,02,213,,73,74,024,32*69
$GLGSV,3,2,09,74,30,344,,80,38,142,28,84,24,344,11,85,31,287,20*69
$GLGSV,3,3,09,86,07,234,*50
$GNGLL,0419.73219,S,05539.75475,E,052505.00,A,D*64
$GNGRS,052505.00,1,-4.6,-1.1,-10.6,1.4,-0.8,-86.7,-0.8,-1.1,204,,,*45
$GNGRS,052505.00,1,-83.6,2.2,-0.9,-12.1,,,,,,,,*7C
$GNGST,052505.00,1237,,,,3.7,5.1,9.5*45
$GNZDA,052505.00,21,05,2025,00,00*7C
$GNGBS,052505.00,3.7,5.1,9.5,,,,*54
$GNTXT,01,01,01,More than 100 frame errors, UART RX was disabled*70
b0L!?l$) #(6}9S6{#4V^O
:R 
Y
hElFGI!JJXP&bTYUV6bO,tJ$GNRMC,052506.00,A,0419.73222,S,05539.75483,E,0.053,,210525,,,D*78
$GNVTG,,T,,M,0.053,N,0.099,K,D*3E
$GNGNS,052506.00,0419.73222,S,05539.75483,E,DA,13,0.78,12.8,-47.6,,0000*67
$GNGGA,052506.00,0419.73222,S,05539.75483,E,2,12,0.78,12.8,M,-47.6,M,,0000*4A
$GNGSA,A,3,24,20,11,05,15,22,12,29,40,,,,1.30,0.78,1.04*1D
$GNGSA,A,3,84,80,73,85,,,,,,,,,1.30,0.78,1.04*19
$GPGSV,5,1,17,05,63,108,33,11,14,023,13,12,41,008,36,13,17,147,*79
$GPGSV,5,2,17,15,29,181,25,18,28,241,25,20,40,054,35,22,12,125,12*7C
$GPGSV,5,3,17,23,08,210,,24,57,222,19,25,18,339,,29,09,310,20*78
$GPGSV,5,4,17,36,52,277,35,40,86,350,31,41,58,082,,49,32,274,*79
$GPGSV,5,5,17,50,10,089,*4A
$GLGSV,3,1,09,69,14,108,,70,20,173,,71,02,213,,73,74,024,33*68
$GLGSV,3,2,09,74,30,344,,80,38,142,28,84,23,345,11,85,31,287,20*6F
$GLGSV,3,3,09,86,07,234,*50
$GNGLL,0419.73222,S,05539.75483,E,052506.00,A,D*66
$GNGRS,052506.00,1,-6.0,-1.0,-10.4,1.3,0.3,17.3,-0.7,0.0,204,,,*63
$GNGRS,052506.00,1,6.9,1.0,-1.2,-14.1,,,,,,,,*6D
$GNGST,052506.00,3305972,,,,3.6,5.1,9.5*79
$GNZDA,052506.00,21,05,2025,00,00*7F
$GNGBS,052506.00,3.6,5.1,9.5,,,,*56
$GNTXT,01,01,01,More than 100 frame errors, UART RX was disabled*70
b0L!?l$)9#(6}9=S6{#4V^O
:R 
Y
hElFGI!JJXP&TYUVbOxJa^$GNRMC,052507.00,A,0419.73224,S,05539.75491,E,0.089,,210525,,,D*7B
$GNVTG,,T,,M,0.089,N,0.164,K,D*3A
$GNGNS,052507.00,0419.73224,S,05539.75491,E,DA,13,0.78,13.0,-47.6,,0000*6A
$GNGGA,052507.00,0419.73224,S,05539.75491,E,2,12,0.78,13.0,M,-47.6,M,,0000*47
$GNGSA,A,3,24,20,11,05,15,22,12,29,40,,,,1.30,0.78,1.04*1D
$GNGSA,A,3,84,80,73,85,,,,,,,,,1.30,0.78,1.04*19
$GPGSV,5,1,17,05,63,108,33,11,14,023,14,12,41,008,36,13,17,147,*7E
$GPGSV,5,2,17,15,29,181,25,18,28,241,26,20,40,054,35,22,12,125,12*7F
$GPGSV,5,3,17,23,08,210,,24,57,222,20,25,18,339,,29,09,310,19*78
$GPGSV,5,4,17,36,52,277,35,40,86,350,30,41,58,082,,49,32,274,*78
$GPGSV,5,5,17,50,10,089,*4A
$GLGSV,3,1,09,69,14,108,,70,20,173,,71,02,213,,73,74,024,33*68
$GLGSV,3,2,09,74,30,344,,80,38,142,28,84,23,345,09,85,31,287,20*66
$GLGSV,3,3,09,86,07,234,*50
$GNGLL,0419.73224,S,05539.75491,E,052507.00,A,D*62
$GNGRS,052507.00,1,-4.5,-1.2,-10.3,1.4,0.6,17.6,-0.6,-0.1,204,,,*4A
$GNGRS,052507.00,1,7.2,0.0,-1.0,-11.0,,,,,,,,*61
$GNGST,052507.00,4666644,,,,3.6,5.0,9.4*75
$GNZDA,052507.00,21,05,2025,00,00*7E
$GNGBS,052507.00,3.6,5.0,9.4,,,,*57
$GNTXT,01,01,01,More than 100 frame errors, UART RX was disabled*70
b0Lp!?lY<$)#(6}19S6{#4V^O
:R 
Y
hElFGI!JJXP&TYUVbpO{J8$GNRMC,052508.00,A,0419.73222,S,05539.75499,E,0.195,,210525,,,D*76
$GNVTG,,T,,M,0.195,N,0.360,K,D*30
$GNGNS,052508.00,0419.73222,S,05539.75499,E,DA,13,0.90,13.0,-47.6,,0000*6D
$GNGGA,052508.00,0419.73222,S,05539.75499,E,2,12,0.90,13.0,M,-47.6,M,,0000*40
$GNGSA,A,3,24,20,11,05,15,22,12,29,40,,,,1.55,0.90,1.26*18
$GNGSA,A,3,84,80,73,85,,,,,,,,,1.55,0.90,1.26*1C
$GPGSV,5,1,17,05,63,108,33,11,14,023,16,12,41,008,36,13,17,147,*7C
$GPGSV,5,2,17,15,29,181,25,18,28,241,25,20,40,054,35,22,12,125,11*7F
$GPGSV,5,3,17,23,08,210,,24,57,222,19,25,18,339,,29,09,310,17*7C
$GPGSV,5,4,17,36,52,277,35,40,86,350,30,41,58,082,,49,32,274,*78
$GPGSV,5,5,17,50,10,089,*4A
$GLGSV,3,1,09,69,14,108,,70,20,173,,71,02,213,,73,74,024,33*68
$GLGSV,3,2,09,74,30,344,,80,38,142,28,84,23,345,09,85,31,287,20*66
$GLGSV,3,3,09,86,07,235,*51
$GNGLL,0419.73222,S,05539.75499,E,052508.00,A,D*63
$GNGRS,052508.00,1,-5.5,-1.1,3.2,0.9,-0.4,126,0.0,1.8,204,,,*5F
$GNGRS,052508.00,1,-39.2,-0.3,-1.2,-8.5,,,,,,,,*6F
$GNGST,052508.00,1236,,,,3.6,5.0,9.4*48
$GNZDA,052508.00,21,05,2025,00,00*71
$GNGBS,052508.00,3.6,5.0,9.4,,,,*58
$GNTXT,01,01,01,More than 100 frame errors, UART RX was disabled*70
b0LX ?lo$)|"(6}9S6{#4V^O
:R 
Y
hElFGI JJXP&=TYU}VbXOJ+$GNRMC,052509.00,A,0419.73220,S,05539.75510,E,0.212,,210525,,,D*79
$GNVTG,,T,,M,0.212,N,0.392,K,D*31
$GNGNS,052509.00,0419.73220,S,05539.75510,E,DA,13,0.78,13.1,-47.6,,0000*69
$GNGGA,052509.00,0419.73220,S,05539.75510,E,2,12,0.78,13.1,M,-47.6,M,,0000*44
$GNGSA,A,3,24,20,11,05,15,22,12,29,40,,,,1.30,0.78,1.04*1D
$GNGSA,A,3,84,80,73,85,,,,,,,,,1.30,0.78,1.04*19
$GPGSV,5,1,17,05,63,108,32,11,14,023,14,12,41,008,36,13,17,147,*7F
$GPGSV,5,2,17,15,29,181,26,18,28,241,25,20,40,054,34,22,12,125,09*74
$GPGSV,5,3,17,23,08,210,,24,57,222,19,25,18,339,,29,09,310,18*73
$GPGSV,5,4,17,36,52,277,35,40,86,350,31,41,58,082,,49,32,274,*79
$GPGSV,5,5,17,50,10,089,*4A
$GLGSV,3,1,09,69,14,108,,70,20,173,,71,02,213,,73,74,024,32*69
$GLGSV,3,2,09,74,30,344,,80,38,142,28,84,23,345,09,85,31,287,21*67
$GLGSV,3,3,09,86,07,235,*51
$GNGLL,0419.73220,S,05539.75510,E,052509.00,A,D*60
$GNGRS,052509.00,1,-5.3,-1.2,17.4,1.1,-1.3,17.8,0.2,0.0,204,,,*49
$GNGRS,052509.00,1,6.9,0.6,-1.2,-9.0,,,,,,,,*58
$GNGST,052509.00,4668411,,,,3.5,5.0,9.4*74
$GNZDA,052509.00,21,05,2025,00,00*70
$GNGBS,052509.00,3.5,5.0,9.4,,,,*5A
$GNTXT,01,01,01,More than 100 frame errors, UART RX was disabled*70
b0L@!?li$))W"(6}9?S6{"4V^O
:R 
Y
hElFGI JJXP&TYUVm!b@OJ$GNRMC,052510.00,A,0419.73218,S,05539.75516,E,0.055,,210525,,,D*7D
$GNVTG,,T,,M,0.055,N,0.101,K,D*38
$GNGNS,052510.00,0419.73218,S,05539.75516,E,DA,13,0.78,13.2,-47.6,,0000*6F
$GNGGA,052510.00,0419.73218,S,05539.75516,E,2,12,0.78,13.2,M,-47.6,M,,0000*42
$GNGSA,A,3,24,20,11,05,15,22,12,29,40,,,,1.30,0.78,1.04*1D
$GNGSA,A,3,84,80,73,85,,,,,,,,,1.30,0.78,1.04*19
$GPGSV,5,1,17,05,63,108,33,11,14,023,12,12,41,008,36,13,17,147,*78
$GPGSV,5,2,17,15,29,181,26,18,28,241,25,20,40,054,34,22,12,125,13*7F
$GPGSV,5,3,17,23,08,210,,24,57,222,20,25,18,339,,29,09,310,17*76
$GPGSV,5,4,17,36,52,277,34,40,86,350,31,41,58,082,,49,32,274,*78
$GPGSV,5,5,17,50,10,089,*4A
$GLGSV,3,1,09,69,14,108,,70,20,173,,71,02,213,,73,74,024,32*69
$GLGSV,3,2,09,74,30,344,,80,38,142,28,84,23,345,09,85,31,287,20*66
$GLGSV,3,3,09,86,07,235,*51
$GNGLL,0419.73218,S,05539.75516,E,052510.00,A,D*65
$GNGRS,052510.00,1,-7.1,-1.0,17.5,1.1,-1.7,18.0,0.4,2.2,204,,,*47
$GNGRS,052510.00,1,7.0,0.1,-0.9,-7.7,,,,,,,,*5C
$GNGST,052510.00,5714541,,,,3.5,5.0,9.3*74
$GNZDA,052510.00,21,05,2025,00,00*78
$GNGBS,052510.00,3.5,5.0,9.3,,,,*55
$GNTXT,01,01,01,More than 100 frame errors, UART RX was disabled*70
b0L(!?l#)?"(6
}9yS"~6{#4V^O
:R 
Y
hElFGI JJXP&TYvUVkb(OJ$GNRMC,052511.00,A,0419.73215,S,05539.75524,E,0.223,,210525,,,D*73
$GNVTG,,T,,M,0.223,N,0.412,K,D*3C
$GNGNS,052511.00,0419.73215,S,05539.75524,E,DA,13,0.80,13.4,-47.6,,0000*63
$GNGGA,052511.00,0419.73215,S,05539.75524,E,2,12,0.80,13.4,M,-47.6,M,,0000*4E
$GNGSA,A,3,24,20,11,05,15,22,12,29,40,,,,1.32,0.80,1.05*19
$GNGSA,A,3,84,80,73,85,,,,,,,,,1.32,0.80,1.05*1D
$GPGSV,5,1,17,05,63,108,33,11,14,023,12,12,41,008,35,13,17,147,*7B
$GPGSV,5,2,17,15,29,181,26,18,28,241,24,20,40,054,34,22,12,125,10*7D
$GPGSV,5,3,17,23,08,210,,24,57,222,20,25,18,339,20,29,09,310,17*74
$GPGSV,5,4,17,36,52,277,35,40,86,350,30,41,58,082,,49,32,274,*78
$GPGSV,5,5,17,50,10,089,*4A
$GLGSV,3,1,09,69,14,108,,70,20,173,,71,02,213,,73,74,024,32*69
$GLGSV,3,2,09,74,30,344,,80,38,142,28,84,23,345,07,85,31,287,21*69
$GLGSV,3,3,09,86,07,235,*51
$GNGLL,0419.73215,S,05539.75524,E,052511.00,A,D*68
$GNGRS,052511.00,1,-9.0,-0.7,-10.8,1.6,-0.5,-18.8,0.6,-0.9,204,,,*6F
$GNGRS,052511.00,1,-47.5,-0.2,-1.1,-7.8,,,,,,,,*69
$GNGST,052511.00,1185,,,,3.5,5.0,9.3*4F
$GNZDA,052511.00,21,05,2025,00,00*79
$GNGBS,052511.00,3.5,5.0,9.3,,,,*54
$GNTXT,01,01,01,More than 100 frame errors, UART RX was disabled*70
b0L!?l$)Yc"(6}9S~6{#4V^O
:R 
Y
hElFGI JJXP&TYU|VbOJc$GNRMC,052512.00,A,0419.73212,S,05539.75533,E,0.249,,210525,,,D*7D
$GNVTG,,T,,M,0.249,N,0.461,K,D*34
$GNGNS,052512.00,0419.73212,S,05539.75533,E,DA,13,0.78,13.6,-47.6,,0000*64
$GNGGA,052512.00,0419.73212,S,05539.75533,E,2,12,0.78,13.6,M,-47.6,M,,0000*49
$GNGSA,A,3,24,20,11,05,15,22,12,29,40,,,,1.30,0.78,1.04*1D
$GNGSA,A,3,84,80,73,85,,,,,,,,,1.30,0.78,1.04*19
$GPGSV,5,1,17,05,63,108,33,11,14,023,18,12,41,008,36,13,17,147,*72
$GPGSV,5,2,17,15,29,181,26,18,28,241,24,20,40,054,34,22,12,125,11*7C
$GPGSV,5,3,17,23,08,210,,24,57,222,19,25,18,339,21,29,09,310,17*7F
$GPGSV,5,4,17,36,52,277,35,40,86,350,30,41,58,082,,49,32,274,*78
$GPGSV,5,5,17,50,10,089,*4A
$GLGSV,3,1,09,69,14,108,,70,20,173,,71,02,213,,73,74,024,32*69
$GLGSV,3,2,09,74,30,344,,80,38,142,28,84,23,345,11,85,31,287,21*6E
$GLGSV,3,3,09,86,07,235,*51
$GNGLL,0419.73212,S,05539.75533,E,052512.00,A,D*6A
$GNGRS,052512.00,1,-7.5,-0.9,17.2,1.3,-1.6,17.7,0.9,-0.9,204,,,*6C
$GNGRS,052512.00,1,6.7,-0.6,-1.2,-6.4,,,,,,,,*7A
$GNGST,052512.00,5714541,,,,3.4,5.0,9.3*77
$GNZDA,052512.00,21,05,2025,00,00*7A
$GNGBS,052512.00,3.4,5.0,9.3,,,,*56
$GNTXT,01,01,01,More than 100 frame errors, UART RX was disabled*70
b0L!?lc$)V"(6}9S~6
{"4V^O
:R 
Y
hElFGI!JJXP&*TYUVbOJo$GNRMC,052513.00,A,0419.73211,S,05539.75535,E,0.061,,210525,,,D*71
$GNVTG,,T,,M,0.061,N,0.113,K,D*3C
$GNGNS,052513.00,0419.73211,S,05539.75535,E,DA,13,0.78,13.6,-47.6,,0000*60
$GNGGA,052513.00,0419.73211,S,05539.75535,E,2,12,0.78,13.6,M,-47.6,M,,0000*4D
$GNGSA,A,3,24,20,11,05,15,22,12,29,40,,,,1.30,0.78,1.04*1D
$GNGSA,A,3,84,80,73,85,,,,,,,,,1.30,0.78,1.04*19
$GPGSV,5,1,17,05,63,108,33,11,14,023,17,12,41,008,36,13,17,147,*7D
$GPGSV,5,2,17,15,29,181,26,18,28,241,25,20,40,054,34,22,12,125,11*7D
$GPGSV,5,3,17,23,08,210,,24,57,222,19,25,18,339,21,29,09,310,18*70
$GPGSV,5,4,17,36,52,277,34,40,86,350,31,41,58,082,,49,32,274,*78
$GPGSV,5,5,17,50,10,089,*4A
$GLGSV,3,1,09,69,14,108,,70,20,173,,71,02,213,,73,74,024,33*68
$GLGSV,3,2,09,74,30,344,,80,38,142,27,84,23,345,11,85,31,287,21*61
$GLGSV,3,3,09,86,07,235,*51
$GNGLL,0419.73211,S,05539.75535,E,052513.00,A,D*6E
$GNGRS,052513.00,1,-5.5,-0.6,17.1,1.0,-0.5,17.2,0.9,0.1,204,,,*42
$GNGRS,052513.00,1,6.6,0.4,-1.2,-8.0,,,,,,,,*5F
$GNGST,052513.00,5714541,,,,3.4,5.0,9.3*76
$GNZDA,052513.00,21,05,2025,00,00*7B
$GNGBS,052513.00,3.4,5.0,9.3,,,,*57
$GNTXT,01,01,01,More than 100 frame errors, UART RX was disabled*70
b0L"?l/$)d"(6}p9MSh}6{"4V^O
:R 
Y
hElFGI!JJXP&HT
YU5VbOlJG$$GNRMC,052514.00,A,0419.73210,S,05539.75536,E,0.034,,210525,,,D*74
$GNVTG,,T,,M,0.034,N,0.063,K,D*3A
$GNGNS,052514.00,0419.73210,S,05539.75536,E,DA,12,0.97,13.6,-47.6,,0000*65
$GNGGA,052514.00,0419.73210,S,05539.75536,E,2,12,0.97,13.6,M,-47.6,M,,0000*49
$GNGSA,A,3,24,20,05,15,22,12,29,40,,,,,1.72,0.97,1.43*19
$GNGSA,A,3,84,80,73,85,,,,,,,,,1.72,0.97,1.43*1D
$GPGSV,5,1,17,05,63,108,34,11,14,023,06,12,41,008,36,13,17,147,*7A
$GPGSV,5,2,17,15,29,181,26,18,28,241,26,20,40,054,34,22,12,125,09*77
$GPGSV,5,3,17,23,08,210,,24,57,222,20,25,18,339,22,29,09,310,17*76
$GPGSV,5,4,17,36,52,277,34,40,86,350,31,41,58,082,,49,32,274,*78
$GPGSV,5,5,17,50,10,089,*4A
$GLGSV,3,1,09,69,14,108,,70,20,173,,71,02,213,,73,74,024,33*68
$GLGSV,3,2,09,74,30,344,,80,38,142,26,84,23,345,10,85,31,287,21*61
$GLGSV,3,3,09,86,07,235,*51
$GNGLL,0419.73210,S,05539.75536,E,052514.00,A,D*6B
$GNGRS,052514.00,1,-4.3,-0.4,0.5,-0.6,-27.0,1.0,-0.6,204,,,,*50
$GNGRS,052514.00,1,-0.7,0.7,-1.3,-7.1,,,,,,,,*7E
$GNGST,052514.00,1237,,,,3.4,5.0,9.3*41
$GNZDA,052514.00,21,05,2025,00,00*7C
$GNGBS,052514.00,3.4,5.0,9.3,,,,*50
$GNTXT,01,01,01,More than 100 frame errors, UART RX was disabled*70
b0L "?j"$)z"(6}9S8z6S{#4V^O
:R 
Y
hElFGI JJXP&TYUVb OTJ$GNRMC,052515.00,A,0419.73207,S,05539.75540,E,0.175,,210525,,,D*76
$GNVTG,,T,,M,0.175,N,0.324,K,D*3E
$GNGNS,052515.00,0419.73207,S,05539.75540,E,DA,12,0.85,13.7,-47.6,,0000*61
$GNGGA,052515.00,0419.73207,S,05539.75540,E,2,12,0.85,13.7,M,-47.6,M,,0000*4D
$GNGSA,A,3,24,20,05,15,22,12,29,40,,,,,1.39,0.85,1.10*13
$GNGSA,A,3,84,80,73,85,,,,,,,,,1.39,0.85,1.10*17
$GPGSV,5,1,17,05,63,106,34,11,14,023,08,12,41,008,36,13,17,147,*7A
$GPGSV,5,2,17,15,29,181,26,18,28,241,26,20,40,054,34,22,12,125,11*7E
$GPGSV,5,3,17,23,08,210,,24,57,222,20,25,18,339,22,29,09,310,16*77
$GPGSV,5,4,17,36,52,277,35,40,86,350,31,41,58,082,,49,32,274,*79
$GPGSV,5,5,17,50,10,089,*4A
$GLGSV,3,1,09,69,14,108,,70,20,173,,71,02,213,,73,74,024,32*69
$GLGSV,3,2,09,74,30,344,,80,38,142,26,84,23,345,11,85,31,287,21*60
$GLGSV,3,3,09,86,07,235,*51
$GNGLL,0419.73207,S,05539.75540,E,052515.00,A,D*6D
$GNGRS,052515.00,1,-2.5,-0.6,0.3,0.2,17.3,1.2,0.8,204,,,,*70
$GNGRS,052515.00,1,6.5,2.2,-0.9,-7.5,,,,,,,,*5E
$GNGST,052515.00,3435102,,,,3.4,5.0,9.3*75
$GNZDA,052515.00,21,05,2025,00,00*7D
$GNGBS,052515.00,3.4,5.0,9.3,,,,*51
$GNTXT,01,01,01,More than 100 frame errors, UART RX was disabled*70
b0L$"?j#)"(6}9SSz6{#4V^O
:R 
Y
hElFGI JJXP&TYZUhV[b$O<J$GNRMC,052516.00,A,0419.73208,S,05539.75525,E,0.473,,210525,,,D*7A
$GNVTG,,T,,M,0.473,N,0.876,K,D*31
