$GNRMC,062358.00,A,0419.77845,S,05539.71825,E,0.065,,270525,,,A*7B
$GNVTG,,T,,M,0.065,N,0.121,K,A*3C
$GNGGA,062358.00,0419.77845,S,05539.71825,E,1,12,0.90,32.4,M,-47.6,M,,*44
$GNGSA,A,3,12,25,05,23,15,24,18,,,,,,1.78,0.90,1.54*10
$GNGSA,A,3,80,79,68,69,83,,,,,,,,1.78,0.90,1.54*17
$GPGSV,5,1,17,05,42,038,22,10,03,212,08,12,73,070,31,13,13,110,15*7E
$GPGSV,5,2,17,15,39,141,34,18,33,287,15,20,10,033,06,23,43,209,29*76
$GPGSV,5,3,17,24,34,179,20,25,56,342,31,28,04,294,,29,13,343,*7A
$GPGSV,5,4,17,36,52,277,27,40,86,351,34,41,58,082,,49,32,274,*7E
$GPGSV,5,5,17,50,10,089,*4A
$GLGSV,3,1,10,67,15,067,,68,36,117,31,69,25,175,20,73,13,327,*65
$GLGSV,3,2,10,78,01,155,,79,50,167,32,80,67,307,21,82,01,017,*63
$GLGSV,3,3,10,83,15,332,12,84,10,279,*6B
$GNGLL,0419.77845,S,05539.71825,E,062358.00,A,A*66
$GNRMC,062359.00,A,0419.77844,S,05539.71832,E,0.285,,270525,,,A*71
$GNVTG,,T,,M,0.285,N,0.527,K,A*32
$GNGGA,062359.00,0419.77844,S,05539.71832,E,1,11,1.00,32.5,M,-47.6,M,,*48
$GNGSA,A,3,12,25,05,23,15,24,18,,,,,,2.47,1.00,2.26*11
$GNGSA,A,3,80,79,68,69,,,,,,,,,2.47,1.00,2.26*1D
$GPGSV,5,1,17,05,42,038,21,10,03,212,08,12,73,070,26,13,13,110,14*7A
$GPGSV,5,2,17,15,39,141,30,18,33,287,14,20,10,033,06,23,43,209,21*7B
$GPGSV,5,3,17,24,34,179,15,25,56,342,26,28,04,294,,29,13,344,*7D
$GPGSV,5,4,17,36,52,277,27,40,86,351,34,41,58,082,,49,32,274,*7E
$GPGSV,5,5,17,50,10,089,*4A
$GLGSV,3,1,10,67,15,067,,68,36,117,25,69,25,175,20,73,13,327,*60
$GLGSV,3,2,10,78,01,155,,79,50,167,27,80,67,307,20,82,01,017,*66
$GLGSV,3,3,10,83,15,332,10,84,10,279,*69
$GNGLL,0419.77844,S,05539.71832,E,062359.00,A,A*60
$GNRMC,062400.00,A,0419.77849,S,05539.71824,E,0.080,,270525,,,A*77
$GNVTG,,T,,M,0.080,N,0.147,K,A*37
$GNGGA,062400.00,0419.77849,S,05539.71824,E,1,12,0.81,32.4,M,-47.6,M,,*43
$GNGSA,A,3,12,25,05,23,15,24,18,13,,,,,1.53,0.81,1.30*19
$GNGSA,A,3,80,79,68,69,83,,,,,,,,1.53,0.81,1.30*1C
$GPGSV,5,1,17,05,42,038,18,10,03,212,,12,73,070,31,13,13,110,15*7F
$GPGSV,5,2,17,15,39,141,31,18,33,287,15,20,10,033,06,23,43,209,22*78
$GPGSV,5,3,17,24,34,179,13,25,56,342,27,28,04,294,,29,13,344,*7A
$GPGSV,5,4,17,36,52,277,27,40,86,351,34,41,58,082,,49,32,274,*7E
$GPGSV,5,5,17,50,10,089,*4A
$GLGSV,3,1,10,67,15,067,,68,36,117,28,69,25,175,21,73,13,327,*6C
$GLGSV,3,2,10,78,01,155,,79,50,167,28,80,67,307,19,82,01,017,*63
$GLGSV,3,3,10,83,15,332,11,84,10,279,*68
$GNGLL,0419.77849,S,05539.71824,E,062400.00,A,A*61
$GNRMC,062401.00,A,0419.77851,S,05539.71821,E,0.163,,270525,,,A*76
$GNVTG,,T,,M,0.163,N,0.301,K,A*3B
$GNGGA,062401.00,0419.77851,S,05539.71821,E,1,12,0.81,32.3,M,-47.6,M,,*49
$GNGSA,A,3,12,25,05,23,15,24,18,13,,,,,1.53,0.81,1.30*19
$GNGSA,A,3,80,79,68,69,83,,,,,,,,1.53,0.81,1.30*1C
$GPGSV,5,1,17,05,42,038,30,10,03,212,,12,73,070,33,13,13,110,17*75
$GPGSV,5,2,17,15,39,141,35,18,33,287,17,20,10,033,06,23,43,209,22*7E
$GPGSV,5,3,17,24,34,179,25,25,56,342,29,28,04,294,,29,13,344,*71
$GPGSV,5,4,17,36,52,277,,40,86,351,33,41,58,082,,49,32,274,*7C
$GPGSV,5,5,17,50,10,089,*4A
$GLGSV,3,1,10,67,15,067,,68,36,117,28,69,25,175,20,73,13,327,*6D
$GLGSV,3,2,10,78,01,155,,79,50,167,27,80,67,307,21,82,01,017,*67
$GLGSV,3,3,10,83,15,332,09,84,10,279,*61
$GNGLL,0419.77851,S,05539.71821,E,062401.00,A,A*6C
$GNRMC,062402.00,A,0419.77855,S,05539.71804,E,0.317,,270525,,,A*77
$GNVTG,,T,,M,0.317,N,0.587,K,A*32
$GNGGA,062402.00,0419.77855,S,05539.71804,E,1,12,0.91,32.3,M,-47.6,M,,*48
$GNGSA,A,3,12,25,05,23,15,24,18,13,,,,,1.95,0.91,1.72*14
$GNGSA,A,3,80,79,68,69,,,,,,,,,1.95,0.91,1.72*1A
$GPGSV,5,1,17,05,42,038,22,10,03,212,,12,73,070,35,13,13,110,20*74
$GPGSV,5,2,17,15,39,141,36,18,33,287,18,20,10,033,06,23,43,209,19*7A
$GPGSV,5,3,17,24,34,179,28,25,56,342,30,28,04,294,,29,13,344,*74
$GPGSV,5,4,17,36,52,277,,40,86,351,34,41,58,082,,49,32,274,*7B
$GPGSV,5,5,17,50,10,089,*4A
$GLGSV,3,1,10,67,15,067,,68,36,117,25,69,25,175,18,73,13,327,*6B
$GLGSV,3,2,10,78,01,155,,79,50,167,26,80,67,307,29,82,01,017,*6E
$GLGSV,3,3,10,83,15,332,08,84,10,279,*60
$GNGLL,0419.77855,S,05539.71804,E,062402.00,A,A*6C
$GNRMC,062403.00,A,0419.77858,S,05539.71803,E,0.109,,270525,,,A*71
$GNVTG,,T,,M,0.109,N,0.202,K,A*35
$GNGGA,062403.00,0419.77858,S,05539.71803,E,1,12,0.81,32.3,M,-47.6,M,,*42
$GNGSA,A,3,12,25,05,23,15,24,18,13,,,,,1.53,0.81,1.30*19
$GNGSA,A,3,80,79,68,69,83,,,,,,,,1.53,0.81,1.30*1C
$GPGSV,5,1,17,05,42,038,21,10,03,212,,12,73,070,34,13,13,110,19*7C
$GPGSV,5,2,17,15,39,141,36,18,33,287,19,20,10,033,06,23,43,209,16*74
$GPGSV,5,3,17,24,34,179,20,25,56,342,25,28,04,294,,29,13,344,*78
$GPGSV,5,4,17,36,52,277,,40,86,351,34,41,58,082,,49,32,274,*7B
$GPGSV,5,5,17,50,10,089,*4A
$GLGSV,3,1,10,67,15,067,,68,36,117,21,69,25,175,15,73,13,327,*62
$GLGSV,3,2,10,78,01,155,,79,50,167,25,80,67,307,23,82,01,017,*67
$GLGSV,3,3,10,83,15,332,08,84,10,279,*60
$GNGLL,0419.77858,S,05539.71803,E,062403.00,A,A*67
$GNRMC,062404.00,A,0419.77852,S,05539.71819,E,0.387,,270525,,,A*73
$GNVTG,,T,,M,0.387,N,0.717,K,A*30
$GNGGA,062404.00,0419.77852,S,05539.71819,E,1,12,0.91,32.1,M,-47.6,M,,*47
$GNGSA,A,3,12,25,05,23,15,24,18,13,,,,,1.95,0.91,1.72*14
$GNGSA,A,3,80,79,68,69,83,,,,,,,,1.95,0.91,1.72*11
$GPGSV,5,1,17,05,42,038,21,10,03,212,,12,73,070,30,13,13,110,20*72
$GPGSV,5,2,17,15,39,141,33,18,33,287,20,20,10,033,06,23,43,209,16*7B
$GPGSV,5,3,17,24,34,179,23,25,56,342,26,28,04,294,,29,13,344,*78
$GPGSV,5,4,17,36,52,277,,40,86,351,31,41,58,082,,49,32,274,*7E
$GPGSV,5,5,17,50,10,089,*4A
$GLGSV,3,1,10,67,15,067,,68,36,117,17,69,25,175,15,73,13,327,*67
$GLGSV,3,2,10,78,01,155,,79,50,167,25,80,67,307,24,82,01,017,*60
$GLGSV,3,3,10,83,15,332,08,84,10,279,*60
$GNGLL,0419.77852,S,05539.71819,E,062404.00,A,A*61
$GNRMC,062405.00,A,0419.77851,S,05539.71825,E,0.257,,270525,,,A*72
$GNVTG,,T,,M,0.257,N,0.476,K,A*38
$GNGGA,062405.00,0419.77851,S,05539.71825,E,1,12,0.81,32.0,M,-47.6,M,,*4A
$GNGSA,A,3,12,25,05,23,15,24,18,13,,,,,1.53,0.81,1.30*19
$GNGSA,A,3,80,79,68,69,83,,,,,,,,1.53,0.81,1.30*1C
$GPGSV,5,1,17,05,42,038,20,10,03,212,,12,73,070,31,13,13,110,21*73
$GPGSV,5,2,17,15,39,141,35,18,33,287,19,20,10,033,06,23,43,209,18*79
$GPGSV,5,3,17,24,34,179,25,25,56,342,28,28,04,294,,29,13,344,*70
$GPGSV,5,4,17,36,52,277,,40,86,351,31,41,58,082,,49,32,274,*7E
$GPGSV,5,5,17,50,10,089,*4A
$GLGSV,3,1,10,67,15,067,,68,36,117,16,69,25,175,14,73,13,327,*67
$GLGSV,3,2,10,78,01,155,,79,50,167,24,80,67,307,25,82,01,017,*60
$GLGSV,3,3,10,83,15,332,08,84,10,279,*60
$GNGLL,0419.77851,S,05539.71825,E,062405.00,A,A*6C
$GNRMC,062406.00,A,0419.77860,S,05539.71820,E,0.166,,270525,,,A*77
$GNVTG,,T,,M,0.166,N,0.307,K,A*38
$GNGGA,062406.00,0419.77860,S,05539.71820,E,1,12,0.81,32.2,M,-47.6,M,,*4C
$GNGSA,A,3,12,25,05,23,15,24,18,13,,,,,1.53,0.81,1.30*19
$GNGSA,A,3,80,79,68,69,83,,,,,,,,1.53,0.81,1.30*1C
$GPGSV,5,1,17,05,42,038,20,10,03,212,,12,73,070,33,13,13,110,21*71
$GPGSV,5,2,17,15,39,141,34,18,33,287,21,20,10,033,06,23,43,209,19*72
$GPGSV,5,3,17,24,34,179,26,25,56,342,31,28,04,294,,29,13,344,*7B
$GPGSV,5,4,17,36,52,277,,40,86,351,33,41,58,082,,49,32,274,*7C
$GPGSV,5,5,17,50,10,089,*4A
$GLGSV,3,1,10,67,15,067,,68,36,117,14,69,25,175,14,73,13,327,*65
$GLGSV,3,2,10,78,01,155,,79,50,167,24,80,67,307,24,82,01,017,*61
$GLGSV,3,3,10,83,15,332,08,84,10,279,*60
$GNGLL,0419.77860,S,05539.71820,E,062406.00,A,A*68
$GNRMC,062407.00,A,0419.77858,S,05539.71817,E,0.176,,270525,,,A*78
$GNVTG,,T,,M,0.176,N,0.325,K,A*39
$GNGGA,062407.00,0419.77858,S,05539.71817,E,1,12,0.81,31.7,M,-47.6,M,,*44
$GNGSA,A,3,12,25,05,23,15,24,18,13,,,,,1.53,0.81,1.30*19
$GNGSA,A,3,80,79,68,69,83,,,,,,,,1.53,0.81,1.30*1C
$GPGSV,5,1,17,05,42,038,22,10,03,212,,12,73,070,33,13,13,110,21*73
$GPGSV,5,2,17,15,39,141,34,18,33,287,22,20,10,033,06,23,43,209,18*70
$GPGSV,5,3,17,24,34,179,27,25,56,342,30,28,04,294,,29,13,344,*7B
$GPGSV,5,4,17,36,52,277,,40,86,351,33,41,58,082,,49,32,274,*7C
$GPGSV,5,5,17,50,10,089,*4A
$GLGSV,3,1,10,67,15,067,,68,36,117,16,69,25,175,15,73,13,327,*66
$GLGSV,3,2,10,78,01,155,,79,50,167,26,80,67,307,23,82,01,017,*64
$GLGSV,3,3,10,83,15,332,10,84,10,279,*69
$GNGLL,0419.77858,S,05539.71817,E,062407.00,A,A*66
$GNRMC,062408.00,A,0419.77860,S,05539.71820,E,0.036,,270525,,,A*7D
$GNVTG,,T,,M,0.036,N,0.066,K,A*38
$GNGGA,062408.00,0419.77860,S,05539.71820,E,1,12,0.81,31.7,M,-47.6,M,,*44
$GNGSA,A,3,12,25,05,23,15,24,18,13,,,,,1.53,0.81,1.30*19
$GNGSA,A,3,80,79,68,69,83,,,,,,,,1.53,0.81,1.30*1C
$GPGSV,5,1,17,05,42,038,23,10,03,212,,12,73,070,29,13,13,110,20*78
$GPGSV,5,2,17,15,39,141,34,18,33,287,20,20,10,033,06,23,43,209,15*7F
$GPGSV,5,3,17,24,34,179,25,25,56,342,29,28,04,294,,29,13,344,*71
$GPGSV,5,4,17,36,52,277,,40,86,351,31,41,58,082,,49,32,274,*7E
$GPGSV,5,5,17,50,10,089,*4A
$GLGSV,3,1,10,67,15,067,,68,36,117,17,69,25,175,15,73,13,327,*67
$GLGSV,3,2,10,78,01,155,,79,50,167,26,80,67,307,21,82,01,017,*66
$GLGSV,3,3,10,83,15,332,10,84,10,279,*69
$GNGLL,0419.77860,S,05539.71820,E,062408.00,A,A*66
$GNRMC,062409.00,A,0419.77866,S,05539.71819,E,0.098,,270525,,,A*74
$GNVTG,,T,,M,0.098,N,0.182,K,A*37
$GNGGA,062409.00,0419.77866,S,05539.71819,E,1,12,0.81,31.9,M,-47.6,M,,*47
$GNGSA,A,3,12,25,05,23,15,24,18,13,,,,,1.53,0.81,1.30*19
$GNGSA,A,3,80,79,68,69,83,,,,,,,,1.53,0.81,1.30*1C
$GPGSV,5,1,17,05,42,038,21,10,03,212,,12,73,070,29,13,13,110,19*70
$GPGSV,5,2,17,15,39,141,32,18,33,287,19,20,10,033,06,23,43,209,14*72
$GPGSV,5,3,17,24,34,179,23,25,56,342,28,28,04,294,,29,13,344,*76
$GPGSV,5,4,17,36,52,277,,40,86,351,31,41,58,082,,49,32,274,*7E
$GPGSV,5,5,17,50,10,089,*4A
$GLGSV,3,1,10,67,15,067,,68,36,117,16,69,25,175,14,73,13,327,*67
$GLGSV,3,2,10,78,01,155,,79,50,167,26,80,67,307,19,82,01,017,*6D
$GLGSV,3,3,10,83,15,332,12,84,10,279,*6B
$GNGLL,0419.77866,S,05539.71819,E,062409.00,A,A*6B
$GNRMC,062410.00,A,0419.77854,S,05539.71828,E,0.250,,270525,,,A*79
$GNVTG,,T,,M,0.250,N,0.462,K,A*3A
$GNGGA,062410.00,0419.77854,S,05539.71828,E,1,12,0.81,31.4,M,-47.6,M,,*41
$GNGSA,A,3,12,25,05,23,15,24,18,13,,,,,1.53,0.81,1.30*19
$GNGSA,A,3,80,79,68,69,83,,,,,,,,1.53,0.81,1.30*1C
$GPGSV,5,1,17,05,42,038,19,10,03,212,,12,73,070,29,13,13,110,19*7B
$GPGSV,5,2,17,15,39,141,28,18,33,287,18,20,10,033,,23,43,209,12*78
$GPGSV,5,3,17,24,34,179,24,25,56,342,28,28,04,294,,29,13,344,*71
$GPGSV,5,4,17,36,52,277,,40,86,351,30,41,58,082,,49,32,274,*7F
$GPGSV,5,5,17,50,10,089,*4A
$GLGSV,3,1,10,67,15,067,,68,36,117,19,69,25,175,17,73,13,327,*6B
$GLGSV,3,2,10,78,01,155,,79,50,167,26,80,67,307,19,82,01,017,*6D
$GLGSV,3,3,10,83,15,332,12,84,10,279,*6B
$GNGLL,0419.77854,S,05539.71828,E,062410.00,A,A*60
$GNRMC,062411.00,A,0419.77850,S,05539.71854,E,0.467,,270525,,,A*75
$GNVTG,,T,,M,0.467,N,0.865,K,A*33
$GNGGA,062411.00,0419.77850,S,05539.71854,E,1,12,0.81,31.4,M,-47.6,M,,*4F
$GNGSA,A,3,12,25,05,23,15,24,18,13,,,,,1.53,0.81,1.30*19
$GNGSA,A,3,80,79,68,69,83,,,,,,,,1.53,0.81,1.30*1C
$GPGSV,5,1,17,05,42,038,18,10,03,212,,12,73,070,34,13,13,110,20*7C
$GPGSV,5,2,17,15,39,141,34,18,33,287,18,20,10,033,,23,43,209,14*73
$GPGSV,5,3,17,24,34,179,24,25,56,342,28,28,04,294,,29,13,344,*71
$GPGSV,5,4,17,36,52,277,,40,86,351,34,41,58,082,,49,32,274,*7B
$GPGSV,5,5,17,50,10,089,*4A
$GLGSV,3,1,10,67,15,067,,68,36,117,17,69,25,175,19,73,13,327,*6B
$GLGSV,3,2,10,78,01,155,,79,50,167,24,80,67,307,16,82,01,017,*60
$GLGSV,3,3,10,83,15,332,12,84,10,279,*6B
$GNGLL,0419.77850,S,05539.71854,E,062411.00,A,A*6E
$GNRMC,062412.00,A,0419.77852,S,05539.71853,E,0.206,,270525,,,A*72
$GNVTG,,T,,M,0.206,N,0.382,K,A*30
$GNGGA,062412.00,0419.77852,S,05539.71853,E,1,12,0.81,31.1,M,-47.6,M,,*4C
$GNGSA,A,3,12,25,05,23,15,24,18,13,,,,,1.53,0.81,1.30*19
$GNGSA,A,3,80,79,68,69,83,,,,,,,,1.53,0.81,1.30*1C
$GPGSV,5,1,17,05,42,038,16,10,03,212,,12,73,070,34,13,13,110,21*73
$GPGSV,5,2,17,15,39,141,34,18,33,287,20,20,10,033,,23,43,209,16*7A
$GPGSV,5,3,17,24,34,179,27,25,56,342,29,28,04,294,,29,13,344,*73
$GPGSV,5,4,17,36,52,277,,40,86,351,36,41,58,082,,49,32,274,*79
$GPGSV,5,5,17,50,10,089,*4A
$GLGSV,3,1,10,67,15,067,,68,36,117,18,69,25,175,20,73,13,327,*6E
$GLGSV,3,2,10,78,01,155,,79,50,167,24,80,67,307,16,82,01,017,*60
$GLGSV,3,3,10,83,15,332,12,84,10,279,*6B
$GNGLL,0419.77852,S,05539.71853,E,062412.00,A,A*68
$GNRMC,062413.00,A,0419.77836,S,05539.71862,E,0.645,,270525,,,A*70
$GNVTG,,T,,M,0.645,N,1.195,K,A*36
$GNGGA,062413.00,0419.77836,S,05539.71862,E,1,12,0.81,30.8,M,-47.6,M,,*45
$GNGSA,A,3,12,25,05,23,15,24,18,13,,,,,1.53,0.81,1.30*19
$GNGSA,A,3,80,79,68,69,83,,,,,,,,1.53,0.81,1.30*1C
$GPGSV,5,1,17,05,42,038,26,10,03,212,,12,73,070,28,13,13,110,20*7C
$GPGSV,5,2,17,15,39,141,26,18,33,287,19,20,10,033,,23,43,209,28*7E
$GPGSV,5,3,17,24,34,179,27,25,56,342,27,28,04,294,,29,13,344,*7D
$GPGSV,5,4,17,36,52,277,,40,86,351,29,41,58,082,,49,32,274,*77
$GPGSV,5,5,17,50,10,089,*4A
$GLGSV,3,1,10,67,15,067,,68,36,117,34,69,25,175,22,73,13,327,*62
$GLGSV,3,2,10,78,01,155,,79,50,167,30,80,67,307,27,82,01,017,*67
$GLGSV,3,3,10,83,15,332,12,84,10,279,*6B
$GNGLL,0419.77836,S,05539.71862,E,062413.00,A,A*69
$GNRMC,062414.00,A,0419.77829,S,05539.71854,E,0.249,,270525,,,A*74
$GNVTG,,T,,M,0.249,N,0.462,K,A*32
$GNGGA,062414.00,0419.77829,S,05539.71854,E,1,12,0.81,30.5,M,-47.6,M,,*44
$GNGSA,A,3,12,25,05,23,15,24,18,13,,,,,1.53,0.81,1.30*19
$GNGSA,A,3,80,79,68,69,83,,,,,,,,1.53,0.81,1.30*1C
$GPGSV,5,1,17,05,42,038,32,10,03,212,,12,73,070,33,13,13,110,19*79
$GPGSV,5,2,17,15,39,141,27,18,33,287,20,20,10,033,,23,43,209,17*79
$GPGSV,5,3,17,24,34,179,27,25,56,342,28,28,04,294,,29,13,344,*72
$GPGSV,5,4,17,36,52,277,,40,86,351,33,41,58,082,,49,32,274,*7C
$GPGSV,5,5,17,50,10,089,*4A
$GLGSV,3,1,10,67,15,067,,68,36,117,25,69,25,175,21,73,13,327,*61
$GLGSV,3,2,10,78,01,155,,79,50,167,29,80,67,307,28,82,01,017,*60
$GLGSV,3,3,10,83,15,332,14,84,10,279,*6D
$GNGLL,0419.77829,S,05539.71854,E,062414.00,A,A*65
$GNRMC,062415.00,A,0419.77827,S,05539.71851,E,0.124,,270525,,,A*76
$GNVTG,,T,,M,0.124,N,0.230,K,A*3B
$GNGGA,062415.00,0419.77827,S,05539.71851,E,1,12,0.81,30.0,M,-47.6,M,,*4B
$GNGSA,A,3,12,25,05,23,15,24,18,13,,,,,1.53,0.81,1.30*19
$GNGSA,A,3,80,79,68,69,83,,,,,,,,1.53,0.81,1.30*1C
$GPGSV,5,1,17,05,42,038,31,10,03,212,,12,73,070,34,13,13,110,18*7C
$GPGSV,5,2,17,15,39,141,33,18,33,287,19,20,10,033,,23,43,209,20*72
$GPGSV,5,3,17,24,34,179,25,25,56,342,29,28,04,294,,29,13,344,*71
$GPGSV,5,4,17,36,52,277,,40,86,351,35,41,58,082,,49,32,274,*7A
$GPGSV,5,5,17,50,10,089,*4A
$GLGSV,3,1,10,67,15,067,,68,36,117,27,69,25,175,18,73,13,327,*69
$GLGSV,3,2,10,78,01,155,,79,50,167,28,80,67,307,27,82,01,017,*6E
$GLGSV,3,3,10,83,15,332,13,84,10,279,*6A
$GNGLL,0419.77827,S,05539.71851,E,062415.00,A,A*6F
$GNRMC,062416.00,A,0419.77825,S,05539.71854,E,0.085,,270525,,,A*78
$GNVTG,,T,,M,0.085,N,0.157,K,A*33
$GNGGA,062416.00,0419.77825,S,05539.71854,E,1,12,0.91,29.7,M,-47.6,M,,*41
$GNGSA,A,3,12,25,05,23,15,24,18,13,,,,,1.95,0.91,1.72*14
$GNGSA,A,3,80,79,68,69,,,,,,,,,1.95,0.91,1.72*1A
$GPGSV,5,1,17,05,42,038,30,10,03,212,,12,73,070,35,13,13,110,17*73
$GPGSV,5,2,17,15,39,141,27,18,33,287,19,20,10,033,,23,43,209,22*75
$GPGSV,5,3,17,24,34,179,22,25,56,342,27,28,04,294,,29,13,344,*78
$GPGSV,5,4,17,36,52,277,,40,86,351,37,41,58,082,,49,32,274,*78
$GPGSV,5,5,17,50,10,089,*4A
$GLGSV,3,1,10,67,15,067,,68,36,117,28,69,25,175,18,73,13,327,*66
$GLGSV,3,2,10,78,01,155,,79,50,167,33,80,67,307,29,82,01,017,*6A
$GLGSV,3,3,10,83,15,332,10,84,10,279,*69
$GNGLL,0419.77825,S,05539.71854,E,062416.00,A,A*6B
$GNRMC,062417.00,A,0419.77826,S,05539.71852,E,0.100,,270525,,,A*70
$GNVTG,,T,,M,0.100,N,0.185,K,A*30
$GNGGA,062417.00,0419.77826,S,05539.71852,E,1,12,0.90,29.3,M,-47.6,M,,*40
$GNGSA,A,3,12,25,05,23,15,24,18,,,,,,1.78,0.90,1.54*10
$GNGSA,A,3,80,79,68,69,83,,,,,,,,1.78,0.90,1.54*17
$GPGSV,5,1,17,05,42,038,28,10,03,212,,12,73,070,36,13,13,110,*7F
$GPGSV,5,2,17,15,39,141,25,18,33,287,21,20,10,033,,23,43,209,21*7F
$GPGSV,5,3,17,24,34,179,21,25,56,342,28,28,04,294,,29,13,344,*74
$GPGSV,5,4,17,36,52,277,,40,86,351,37,41,58,082,,49,32,274,*78
$GPGSV,5,5,17,50,10,089,*4A
$GLGSV,3,1,10,67,15,067,,68,36,117,27,69,25,175,19,73,13,327,*68
$GLGSV,3,2,10,78,01,155,,79,50,167,30,80,67,307,30,82,01,017,*61
$GLGSV,3,3,10,83,15,332,11,84,10,279,*68
$GNGLL,0419.77826,S,05539.71852,E,062417.00,A,A*6F
$GNRMC,062418.00,A,0419.77825,S,05539.71852,E,0.080,,270525,,,A*75
$GNVTG,,T,,M,0.080,N,0.149,K,A*39
$GNGGA,062418.00,0419.77825,S,05539.71852,E,1,12,1.00,29.1,M,-47.6,M,,*46
$GNGSA,A,3,12,25,05,23,15,24,18,,,,,,2.47,1.00,2.25*12
$GNGSA,A,3,80,79,68,69,83,,,,,,,,2.47,1.00,2.25*15
$GPGSV,5,1,17,05,42,038,28,10,03,212,,12,73,070,37,13,13,110,18*77
$GPGSV,5,2,17,15,39,141,26,18,33,287,21,20,10,033,,23,43,209,20*7D
$GPGSV,5,3,17,24,34,179,23,25,56,342,28,28,04,294,,29,13,344,*76
$GPGSV,5,4,17,36,52,277,,40,86,351,37,41,58,082,,49,32,274,*78
$GPGSV,5,5,17,50,10,089,*4A
$GLGSV,3,1,10,67,15,067,,68,36,117,25,69,25,175,22,73,13,327,*62
$GLGSV,3,2,10,78,01,155,,79,50,167,29,80,67,307,28,82,01,017,*60
$GLGSV,3,3,10,83,15,332,11,84,10,279,*68
$GNGLL,0419.77825,S,05539.71852,E,062418.00,A,A*63
$GNRMC,062419.00,A,0419.77826,S,05539.71846,E,0.054,,270525,,,A*7B
$GNVTG,,T,,M,0.054,N,0.101,K,A*3C
$GNGGA,062419.00,0419.77826,S,05539.71846,E,1,12,0.90,28.8,M,-47.6,M,,*41
$GNGSA,A,3,12,25,05,23,15,24,18,,,,,,1.78,0.90,1.54*10
$GNGSA,A,3,80,79,68,69,83,,,,,,,,1.78,0.90,1.54*17
$GPGSV,5,1,17,05,42,038,28,10,03,212,,12,73,070,37,13,13,110,19*76
$GPGSV,5,2,17,15,39,141,25,18,33,287,23,20,10,033,,23,43,209,19*76
$GPGSV,5,3,17,24,34,179,22,25,56,342,28,28,04,294,,29,13,344,*77
$GPGSV,5,4,17,36,52,277,,40,86,351,36,41,58,082,,49,32,274,*79
$GPGSV,5,5,17,50,10,089,*4A
$GLGSV,3,1,10,67,15,067,,68,36,117,25,69,25,175,21,73,13,327,*61
$GLGSV,3,2,10,78,01,155,,79,50,167,31,80,67,307,27,82,01,017,*66
$GLGSV,3,3,10,83,15,332,11,84,10,279,*68
$GNGLL,0419.77826,S,05539.71846,E,062419.00,A,A*64
$GNRMC,062420.00,A,0419.77827,S,05539.71842,E,0.090,,270525,,,A*7C
$GNVTG,,T,,M,0.090,N,0.167,K,A*34
$GNGGA,062420.00,0419.77827,S,05539.71842,E,1,12,0.90,28.6,M,-47.6,M,,*40
$GNGSA,A,3,12,25,05,23,15,24,18,,,,,,1.78,0.90,1.54*10
$GNGSA,A,3,80,79,68,69,83,,,,,,,,1.78,0.90,1.54*17
$GPGSV,5,1,17,05,42,038,29,10,03,212,,12,73,070,36,13,13,110,19*76
$GPGSV,5,2,17,15,39,141,23,18,33,287,25,20,10,033,,23,43,209,18*77
$GPGSV,5,3,17,24,34,179,24,25,56,342,27,28,04,294,,29,13,344,*7E
$GPGSV,5,4,17,36,52,277,,40,86,351,36,41,58,082,,49,32,274,*79
$GPGSV,5,5,17,50,10,089,*4A
$GLGSV,3,1,10,67,15,067,,68,36,117,22,69,25,175,20,73,13,327,*67
$GLGSV,3,2,10,78,01,155,,79,50,167,31,80,67,307,26,82,01,017,*67
$GLGSV,3,3,10,83,15,332,11,84,10,279,*68
$GNGLL,0419.77827,S,05539.71842,E,062420.00,A,A*6B
$GNRMC,062421.00,A,0419.77823,S,05539.71843,E,0.041,,270525,,,A*74
$GNVTG,,T,,M,0.041,N,0.076,K,A*39
$GNGGA,062421.00,0419.77823,S,05539.71843,E,1,12,0.81,28.2,M,-47.6,M,,*40
$GNGSA,A,3,12,25,05,23,15,24,18,13,,,,,1.53,0.81,1.30*19
$GNGSA,A,3,80,79,68,69,83,,,,,,,,1.53,0.81,1.30*1C
$GPGSV,5,1,17,05,42,038,18,10,03,212,,12,73,070,36,13,13,110,17*7A
$GPGSV,5,2,17,15,39,141,30,18,33,287,25,20,10,033,,23,43,209,21*7F
$GPGSV,5,3,17,24,34,179,27,25,56,342,28,28,04,294,,29,13,344,17*74
$GPGSV,5,4,17,36,52,277,,40,86,351,37,41,58,082,,49,32,274,*78
$GPGSV,5,5,17,50,10,089,*4A
$GLGSV,3,1,10,67,15,067,,68,36,117,20,69,25,175,18,73,13,327,*6E
$GLGSV,3,2,10,78,01,155,,79,50,167,31,80,67,307,24,82,01,017,*65
$GLGSV,3,3,10,83,15,332,15,84,10,279,*6C
$GNGLL,0419.77823,S,05539.71843,E,062421.00,A,A*6F
$GNRMC,062422.00,A,0419.77820,S,05539.71839,E,0.043,,270525,,,A*7B
$GNVTG,,T,,M,0.043,N,0.080,K,A*32
$GNGGA,062422.00,0419.77820,S,05539.71839,E,1,12,0.81,28.0,M,-47.6,M,,*4F
$GNGSA,A,3,12,25,05,23,15,24,18,13,,,,,1.53,0.81,1.30*19
$GNGSA,A,3,80,79,68,69,83,,,,,,,,1.53,0.81,1.30*1C
$GPGSV,5,1,17,05,42,038,28,10,03,212,,12,73,070,38,13,13,110,17*77
$GPGSV,5,2,17,15,39,141,29,18,33,287,23,20,10,033,,23,43,209,19*7A
$GPGSV,5,3,17,24,34,179,29,25,56,342,30,28,04,294,,29,13,344,18*7C
$GPGSV,5,4,17,36,52,277,,40,86,351,37,41,58,082,,49,32,274,*78
$GPGSV,5,5,17,50,10,089,*4A
$GLGSV,3,1,10,67,15,067,,68,36,117,21,69,25,175,17,73,13,327,23*61
$GLGSV,3,2,10,78,01,155,,79,50,167,30,80,67,307,22,82,01,017,*62
$GLGSV,3,3,10,83,15,332,15,84,10,279,*6C
$GNGLL,0419.77820,S,05539.71839,E,062422.00,A,A*62
$GNRMC,062423.00,A,0419.77816,S,05539.71837,E,0.140,,270525,,,A*73
$GNVTG,,T,,M,0.140,N,0.259,K,A*36
$GNGGA,062423.00,0419.77816,S,05539.71837,E,1,12,0.81,28.0,M,-47.6,M,,*45
$GNGSA,A,3,12,25,05,23,15,24,18,13,,,,,1.53,0.81,1.30*19
$GNGSA,A,3,80,79,68,69,83,,,,,,,,1.53,0.81,1.30*1C
$GPGSV,5,1,17,05,42,038,29,10,03,212,,12,73,070,36,13,13,110,16*79
$GPGSV,5,2,17,15,39,141,27,18,33,287,19,20,10,033,,23,43,209,19*7D
$GPGSV,5,3,17,24,34,179,28,25,56,342,32,28,04,294,,29,13,344,17*70
$GPGSV,5,4,17,36,52,277,,40,86,351,34,41,58,082,,49,32,274,*7B
$GPGSV,5,5,17,50,10,089,*4A
$GLGSV,3,1,10,67,15,067,,68,36,117,23,69,25,175,16,73,13,327,22*63
$GLGSV,3,2,10,78,01,155,,79,50,167,27,80,67,307,21,82,01,017,*67
$GLGSV,3,3,10,83,15,332,17,84,10,279,*6E
$GNGLL,0419.77816,S,05539.71837,E,062423.00,A,A*68
$GNRMC,062424.00,A,0419.77815,S,05539.71839,E,0.245,,270525,,,A*7F
$GNVTG,,T,,M,0.245,N,0.454,K,A*3B
$GNGGA,062424.00,0419.77815,S,05539.71839,E,1,12,0.81,27.9,M,-47.6,M,,*49
$GNGSA,A,3,12,25,05,23,15,24,18,13,,,,,1.53,0.81,1.30*19
$GNGSA,A,3,80,79,68,69,83,,,,,,,,1.53,0.81,1.30*1C
$GPGSV,5,1,17,05,42,038,28,10,03,212,,12,73,070,39,13,13,110,17*76
$GPGSV,5,2,17,15,39,141,27,18,33,287,13,20,10,033,,23,43,209,18*76
$GPGSV,5,3,17,24,34,179,26,25,56,342,31,28,04,294,,29,13,344,20*79
$GPGSV,5,4,17,36,52,277,,40,86,351,34,41,58,082,,49,32,274,*7B
$GPGSV,5,5,17,50,10,089,*4A
$GLGSV,3,1,10,67,15,067,,68,36,117,26,69,25,175,15,73,13,327,19*6D
$GLGSV,3,2,10,78,01,155,,79,50,167,27,80,67,307,20,82,01,017,*66
$GLGSV,3,3,10,83,15,332,17,84,10,279,*6E
$GNGLL,0419.77815,S,05539.71839,E,062424.00,A,A*62
$GNRMC,062425.00,A,0419.77813,S,05539.71836,E,0.125,,270525,,,A*72
$GNVTG,,T,,M,0.125,N,0.231,K,A*3B
$GNGGA,062425.00,0419.77813,S,05539.71836,E,1,12,0.81,27.9,M,-47.6,M,,*41
$GNGSA,A,3,12,25,05,23,15,24,18,13,,,,,1.53,0.81,1.30*19
$GNGSA,A,3,80,79,68,69,83,,,,,,,,1.53,0.81,1.30*1C
$GPGSV,5,1,17,05,42,038,27,10,03,212,,12,73,070,39,13,13,110,19*77
$GPGSV,5,2,17,15,39,141,25,18,33,287,12,20,10,033,,23,43,209,18*75
$GPGSV,5,3,17,24,34,179,26,25,56,342,24,28,04,294,,29,13,344,19*77
$GPGSV,5,4,17,36,52,277,,40,86,351,38,41,58,082,,49,32,274,*77
$GPGSV,5,5,17,50,10,089,*4A
$GLGSV,3,1,10,67,15,067,,68,36,117,24,69,25,175,16,73,13,327,19*6C
$GLGSV,3,2,10,78,01,155,,79,50,167,33,80,67,307,29,82,01,017,*6A
$GLGSV,3,3,10,83,15,332,17,84,10,279,*6E
$GNGLL,0419.77813,S,05539.71836,E,062425.00,A,A*6A
$GNRMC,062426.00,A,0419.77814,S,05539.71830,E,0.083,,270525,,,A*7D
$GNVTG,,T,,M,0.083,N,0.154,K,A*36
$GNGGA,062426.00,0419.77814,S,05539.71830,E,1,12,0.81,28.0,M,-47.6,M,,*45
$GNGSA,A,3,12,25,05,23,15,24,18,13,,,,,1.53,0.81,1.30*19
$GNGSA,A,3,80,79,68,69,83,,,,,,,,1.53,0.81,1.30*1C
$GPGSV,5,1,17,05,42,038,26,10,03,212,,12,73,070,38,13,13,110,17*79
$GPGSV,5,2,17,15,39,141,23,18,33,287,14,20,10,033,,23,43,209,20*7E
$GPGSV,5,3,17,24,34,179,27,25,56,342,27,28,04,294,,29,13,344,19*75
$GPGSV,5,4,17,36,52,277,,40,86,351,38,41,58,082,,49,32,274,*77
$GPGSV,5,5,17,50,10,089,*4A
$GLGSV,3,1,10,67,15,067,,68,36,116,25,69,25,175,17,73,13,327,20*67
$GLGSV,3,2,10,78,01,155,,79,50,167,33,80,67,307,29,82,01,017,*6A
$GLGSV,3,3,10,83,15,332,17,84,10,279,*6E
$GNGLL,0419.77814,S,05539.71830,E,062426.00,A,A*68
$GNRMC,062427.00,A,0419.77810,S,05539.71824,E,0.067,,270525,,,A*77
$GNVTG,,T,,M,0.067,N,0.123,K,A*3C
$GNGGA,062427.00,0419.77810,S,05539.71824,E,1,12,0.81,27.8,M,-47.6,M,,*42
$GNGSA,A,3,12,25,05,23,15,24,18,13,,,,,1.53,0.81,1.30*19
$GNGSA,A,3,80,79,68,69,83,,,,,,,,1.53,0.81,1.30*1C
$GPGSV,5,1,17,05,42,038,25,10,03,212,,12,73,070,37,13,13,110,16*74
$GPGSV,5,2,17,15,39,141,20,18,33,287,14,20,10,033,,23,43,209,21*7C
$GPGSV,5,3,17,24,34,179,28,25,56,342,28,28,04,294,,29,13,344,19*75
$GPGSV,5,4,17,36,52,277,33,40,86,351,35,41,58,082,,49,32,274,*7A
$GPGSV,5,5,17,50,10,089,*4A
$GLGSV,3,1,10,67,15,067,,68,36,116,26,69,25,174,17,73,13,327,18*6E
$GLGSV,3,2,10,78,01,155,,79,50,167,33,80,67,307,28,82,01,017,*6B
$GLGSV,3,3,10,83,15,332,15,84,10,279,*6C
$GNGLL,0419.77810,S,05539.71824,E,062427.00,A,A*68
$GNRMC,062428.00,A,0419.77806,S,05539.71818,E,0.087,,270525,,,A*7E
$GNVTG,,T,,M,0.087,N,0.162,K,A*37
$GNGGA,062428.00,0419.77806,S,05539.71818,E,1,12,0.81,27.8,M,-47.6,M,,*45
$GNGSA,A,3,12,25,05,23,15,24,18,13,,,,,1.53,0.81,1.30*19
$GNGSA,A,3,80,79,68,69,83,,,,,,,,1.53,0.81,1.30*1C
$GPGSV,5,1,17,05,42,038,25,10,03,212,,12,73,070,37,13,13,110,16*74
$GPGSV,5,2,17,15,39,141,19,18,33,287,14,20,10,033,,23,43,209,20*77
$GPGSV,5,3,17,24,34,179,28,25,56,342,28,28,04,294,,29,13,344,20*7F
$GPGSV,5,4,17,36,52,277,31,40,86,351,35,41,58,082,,49,32,274,*78
$GPGSV,5,5,17,50,10,089,*4A
$GLGSV,3,1,10,67,15,067,,68,36,116,29,69,25,174,16,73,13,327,16*6E
$GLGSV,3,2,10,78,01,155,,79,50,167,26,80,67,307,26,82,01,017,*61
$GLGSV,3,3,10,83,15,332,18,84,10,279,*61
$GNGLL,0419.77806,S,05539.71818,E,062428.00,A,A*6F
$GNRMC,062429.00,A,0419.77795,S,05539.71805,E,0.134,,270525,,,A*7F
$GNVTG,,T,,M,0.134,N,0.249,K,A*34
$GNGGA,062429.00,0419.77795,S,05539.71805,E,1,12,0.81,27.2,M,-47.6,M,,*47
$GNGSA,A,3,12,25,05,23,15,24,18,13,,,,,1.53,0.81,1.30*19
$GNGSA,A,3,80,79,68,69,83,,,,,,,,1.53,0.81,1.30*1C
$GPGSV,5,1,17,05,42,038,23,10,03,212,,12,73,070,37,13,13,110,18*7C
$GPGSV,5,2,17,15,39,141,20,18,33,287,14,20,10,033,,23,43,209,18*76
$GPGSV,5,3,17,24,34,179,29,25,56,342,28,28,04,294,,29,13,344,22*7C
$GPGSV,5,4,17,36,52,277,31,40,86,351,35,41,58,082,,49,32,274,*78
$GPGSV,5,5,17,50,10,089,*4A
$GLGSV,3,1,10,67,15,067,,68,36,116,29,69,25,174,15,73,13,327,17*6C
$GLGSV,3,2,10,78,01,155,,79,50,167,26,80,67,307,26,82,01,017,*61
$GLGSV,3,3,10,83,15,332,18,84,10,279,*61
$GNGLL,0419.77795,S,05539.71805,E,062429.00,A,A*67
$GNRMC,062430.00,A,0419.77791,S,05539.71800,E,0.057,,270525,,,A*72
$GNVTG,,T,,M,0.057,N,0.106,K,A*38
$GNGGA,062430.00,0419.77791,S,05539.71800,E,1,12,0.81,27.0,M,-47.6,M,,*4C
$GNGSA,A,3,12,25,05,23,15,24,18,13,,,,,1.53,0.81,1.30*19
$GNGSA,A,3,80,79,68,69,83,,,,,,,,1.53,0.81,1.30*1C
$GPGSV,5,1,17,05,42,038,22,10,03,212,,12,73,070,37,13,13,110,19*7C
$GPGSV,5,2,17,15,39,141,22,18,33,287,14,20,10,033,,23,43,209,18*74
$GPGSV,5,3,17,24,34,179,30,25,56,342,28,28,04,294,,29,13,344,21*77
$GPGSV,5,4,17,36,52,277,30,40,86,351,35,41,58,082,,49,32,274,*79
$GPGSV,5,5,17,50,10,089,*4A
$GLGSV,3,1,10,67,15,067,,68,36,116,28,69,25,174,27,73,13,327,17*6C
$GLGSV,3,2,10,78,01,155,,79,50,167,26,80,67,307,27,82,01,017,*60
$GLGSV,3,3,10,83,15,332,17,84,10,279,*6E
$GNGLL,0419.77791,S,05539.71800,E,062430.00,A,A*6E
$GNRMC,062431.00,A,0419.77786,S,05539.71786,E,0.207,,270525,,,A*73
$GNVTG,,T,,M,0.207,N,0.384,K,A*37
$GNGGA,062431.00,0419.77786,S,05539.71786,E,1,12,0.81,26.7,M,-47.6,M,,*4C
$GNGSA,A,3,12,25,05,23,15,24,18,13,,,,,1.53,0.81,1.30*19
$GNGSA,A,3,80,79,68,69,83,,,,,,,,1.53,0.81,1.30*1C
$GPGSV,5,1,17,05,42,038,23,10,03,212,,12,73,070,37,13,13,110,17*73
$GPGSV,5,2,17,15,39,141,25,18,33,287,14,20,10,033,,23,43,209,17*7C
$GPGSV,5,3,17,24,34,179,32,25,56,342,27,28,04,294,,29,13,344,21*7A
$GPGSV,5,4,17,36,52,277,29,40,86,351,35,41,58,082,,49,32,274,*71
$GPGSV,5,5,17,50,10,089,*4A
$GLGSV,3,1,10,67,15,067,,68,36,116,27,69,25,174,21,73,13,327,18*6A
$GLGSV,3,2,10,78,01,155,,79,50,167,28,80,67,307,25,82,01,017,*6C
$GLGSV,3,3,10,83,15,332,17,84,10,279,*6E
$GNGLL,0419.77786,S,05539.71786,E,062431.00,A,A*68
$GNRMC,062432.00,A,0419.77781,S,05539.71767,E,0.280,,270525,,,A*77
$GNVTG,,T,,M,0.280,N,0.519,K,A*3A
$GNGGA,062432.00,0419.77781,S,05539.71767,E,1,12,0.81,26.4,M,-47.6,M,,*44
$GNGSA,A,3,12,25,05,23,15,24,18,13,,,,,1.53,0.81,1.30*19
$GNGSA,A,3,80,79,68,69,83,,,,,,,,1.53,0.81,1.30*1C
$GPGSV,5,1,17,05,42,038,26,10,03,212,,12,73,070,37,13,13,110,15*74
$GPGSV,5,2,17,15,39,141,22,18,33,287,18,20,10,033,,23,43,209,17*77
$GPGSV,5,3,17,24,34,179,31,25,56,342,28,28,04,294,,29,13,344,19*7D
$GPGSV,5,4,17,36,52,277,30,40,86,351,36,41,58,082,,49,32,274,*7A
$GPGSV,5,5,17,50,10,089,*4A
$GLGSV,3,1,10,67,15,067,,68,36,116,28,69,25,174,21,73,13,327,18*65
$GLGSV,3,2,10,78,01,155,,79,50,167,34,80,67,307,24,82,01,017,*60
$GLGSV,3,3,10,83,15,332,17,84,10,279,*6E
$GNGLL,0419.77781,S,05539.71767,E,062432.00,A,A*63
$GNRMC,062433.00,A,0419.77777,S,05539.71762,E,0.026,,270525,,,A*74
$GNVTG,,T,,M,0.026,N,0.049,K,A*34
$GNGGA,062433.00,0419.77777,S,05539.71762,E,1,12,0.81,26.3,M,-47.6,M,,*4E
$GNGSA,A,3,12,25,05,23,15,24,18,13,,,,,1.53,0.81,1.30*19
$GNGSA,A,3,80,79,68,69,83,,,,,,,,1.53,0.81,1.30*1C
$GPGSV,5,1,17,05,42,038,27,10,03,212,,12,73,070,35,13,13,110,12*70
$GPGSV,5,2,17,15,39,141,19,18,33,287,17,20,10,033,,23,43,209,19*7E
$GPGSV,5,3,17,24,34,179,30,25,56,342,30,28,04,294,,29,13,344,18*74
$GPGSV,5,4,17,36,52,277,30,40,86,351,36,41,58,082,,49,32,274,*7A
$GPGSV,5,5,17,50,10,089,*4A
$GLGSV,3,1,10,67,15,067,,68,36,116,28,69,25,174,19,73,13,327,19*6F
$GLGSV,3,2,10,78,01,155,,79,50,167,27,80,67,307,26,82,01,017,*60
$GLGSV,3,3,10,83,15,332,18,84,10,279,*61
$GNGLL,0419.77777,S,05539.71762,E,062433.00,A,A*6E
$GNRMC,062434.00,A,0419.77768,S,05539.71749,E,0.170,,270525,,,D*73
$GNVTG,,T,,M,0.170,N,0.314,K,D*38
$GNGGA,062434.00,0419.77768,S,05539.71749,E,2,12,0.90,25.8,M,-47.6,M,,0000*45
$GNGSA,A,3,12,25,05,23,15,24,18,13,,,,,1.78,0.90,1.53*15
$GNGSA,A,3,80,79,68,69,83,,,,,,,,1.78,0.90,1.53*10
$GPGSV,5,1,17,05,42,038,28,10,03,212,,12,73,070,35,13,13,110,10*7D
$GPGSV,5,2,17,15,39,141,21,18,33,287,16,20,10,033,17,23,43,209,21*79
$GPGSV,5,3,17,24,34,179,28,25,56,342,31,28,04,294,,29,13,344,18*7C
$GPGSV,5,4,17,36,52,277,30,40,86,351,37,41,58,082,,49,32,274,*7B
$GPGSV,5,5,17,50,10,089,*4A
$GLGSV,3,1,10,67,15,067,,68,36,116,28,69,25,174,19,73,13,327,19*6F
$GLGSV,3,2,10,78,01,155,,79,50,167,27,80,67,307,23,82,01,017,*65
$GLGSV,3,3,10,83,15,332,21,84,10,279,*6B
$GNGLL,0419.77768,S,05539.71749,E,062434.00,A,D*6B
$GNRMC,062435.00,A,0419.77764,S,05539.71740,E,0.075,,270525,,,D*73
$GNVTG,,T,,M,0.075,N,0.140,K,D*3F
$GNGGA,062435.00,0419.77764,S,05539.71740,E,2,12,0.90,25.5,M,-47.6,M,,0000*4C
$GNGSA,A,3,12,25,05,23,15,24,18,,,,,,1.78,0.90,1.53*17
$GNGSA,A,3,80,79,68,69,83,,,,,,,,1.78,0.90,1.53*10
$GPGSV,5,1,17,05,42,038,27,10,03,212,,12,73,070,36,13,13,110,10*71
$GPGSV,5,2,17,15,39,141,30,18,33,287,15,20,10,033,15,23,43,209,20*79
$GPGSV,5,3,17,24,34,179,29,25,56,342,30,28,04,294,,29,13,344,19*7D
$GPGSV,5,4,17,36,52,277,28,40,86,351,37,41,58,082,,49,32,274,*72
$GPGSV,5,5,17,50,10,089,*4A
$GLGSV,3,1,10,67,15,067,,68,36,116,29,69,25,174,19,73,13,327,18*6F
$GLGSV,3,2,10,78,01,155,,79,50,167,26,80,67,307,23,82,01,017,*64
$GLGSV,3,3,10,83,15,332,22,84,10,279,*68
$GNGLL,0419.77764,S,05539.71740,E,062435.00,A,D*6F
$GNRMC,062436.00,A,0419.77763,S,05539.71726,E,0.082,,270525,,,D*7F
$GNVTG,,T,,M,0.082,N,0.152,K,D*34
$GNGGA,062436.00,0419.77763,S,05539.71726,E,2,12,0.90,25.1,M,-47.6,M,,0000*4C
$GNGSA,A,3,12,25,05,23,15,24,18,,,,,,1.78,0.90,1.53*17
$GNGSA,A,3,80,79,68,69,83,,,,,,,,1.78,0.90,1.53*10
$GPGSV,5,1,17,05,42,038,26,10,03,212,,12,73,070,36,13,13,110,10*70
$GPGSV,5,2,17,15,39,141,29,18,33,287,14,20,10,033,13,23,43,209,24*72
$GPGSV,5,3,17,24,34,179,29,25,56,342,29,28,04,294,,29,13,344,21*7E
$GPGSV,5,4,17,36,52,277,27,40,86,351,35,41,58,082,,49,32,274,*7F
$GPGSV,5,5,17,50,10,089,*4A
$GLGSV,3,1,10,67,15,067,,68,36,116,30,69,25,174,19,73,13,327,19*66
$GLGSV,3,2,10,78,00,155,,79,50,167,27,80,67,307,26,82,01,017,*61
$GLGSV,3,3,10,83,15,332,22,84,10,279,*68
$GNGLL,0419.77763,S,05539.71726,E,062436.00,A,D*6B
$GNRMC,062437.00,A,0419.77757,S,05539.71715,E,0.106,,270525,,,D*74
$GNVTG,,T,,M,0.106,N,0.196,K,D*31
$GNGGA,062437.00,0419.77757,S,05539.71715,E,2,12,0.90,24.7,M,-47.6,M,,0000*4D
$GNGSA,A,3,12,25,05,23,15,24,18,,,,,,1.78,0.90,1.53*17
$GNGSA,A,3,80,79,68,69,83,,,,,,,,1.78,0.90,1.53*10
$GPGSV,5,1,17,05,42,038,25,10,03,212,,12,73,070,35,13,13,110,10*70
$GPGSV,5,2,17,15,39,141,20,18,33,287,16,20,10,033,11,23,43,209,28*77
$GPGSV,5,3,17,24,34,179,29,25,56,342,27,28,04,294,,29,13,344,20*71
$GPGSV,5,4,17,36,52,277,,40,86,351,33,41,58,082,,49,32,274,*7C
$GPGSV,5,5,17,50,10,089,*4A
$GLGSV,3,1,10,67,15,067,,68,36,116,30,69,25,174,18,73,13,327,19*67
$GLGSV,3,2,10,78,00,155,,79,49,167,27,80,67,307,27,82,01,017,*68
$GLGSV,3,3,10,83,15,332,21,84,10,279,*6B
$GNGLL,0419.77757,S,05539.71715,E,062437.00,A,D*6D
$GNRMC,062438.00,A,0419.77752,S,05539.71697,E,0.115,,270525,,,D*77
$GNVTG,,T,,M,0.115,N,0.214,K,D*3A
$GNGGA,062438.00,0419.77752,S,05539.71697,E,2,12,0.90,24.7,M,-47.6,M,,0000*4C
$GNGSA,A,3,12,25,05,23,15,24,18,13,20,,,,1.78,0.90,1.53*17
$GNGSA,A,3,80,79,68,69,83,,,,,,,,1.78,0.90,1.53*10
$GPGSV,5,1,17,05,42,038,22,10,03,212,,12,73,070,34,13,13,110,13*75
$GPGSV,5,2,17,15,39,141,22,18,33,287,17,20,10,033,12,23,43,209,28*77
$GPGSV,5,3,17,24,34,179,28,25,56,342,27,28,04,294,,29,13,344,19*7A
$GPGSV,5,4,17,36,52,277,,40,86,351,35,41,58,082,,49,32,274,*7A
$GPGSV,5,5,17,50,10,089,*4A
$GLGSV,3,1,10,67,15,067,,68,36,116,31,69,25,174,17,73,13,327,19*69
$GLGSV,3,2,10,78,00,155,,79,49,167,28,80,67,305,27,82,01,017,*65
$GLGSV,3,3,10,83,15,332,21,84,10,279,*6B
$GNGLL,0419.77752,S,05539.71697,E,062438.00,A,D*6C
$GNRMC,062439.00,A,0419.77750,S,05539.71692,E,0.088,,270525,,,D*74
$GNVTG,,T,,M,0.088,N,0.162,K,D*3D
$GNGGA,062439.00,0419.77750,S,05539.71692,E,2,12,0.81,24.8,M,-47.6,M,,0000*45
$GNGSA,A,3,12,25,05,23,15,24,18,13,20,,,,1.53,0.81,1.30*1B
$GNGSA,A,3,80,79,68,69,83,,,,,,,,1.53,0.81,1.30*1C
$GPGSV,5,1,17,05,42,038,19,10,03,212,,12,73,070,35,13,13,110,13*7C
$GPGSV,5,2,17,15,39,141,25,18,33,287,16,20,10,033,11,23,43,209,27*7D
$GPGSV,5,3,17,24,34,179,28,25,56,342,30,28,04,294,,29,13,344,20*76
$GPGSV,5,4,17,36,52,277,,40,86,351,34,41,58,082,,49,32,274,*7B
$GPGSV,5,5,17,50,10,089,*4A
$GLGSV,3,1,10,67,15,067,,68,36,116,30,69,25,174,17,73,13,327,19*68
$GLGSV,3,2,10,78,00,155,,79,49,167,30,80,67,305,27,82,01,017,*6C
$GLGSV,3,3,10,83,15,332,20,84,10,279,*6A
$GNGLL,0419.77750,S,05539.71692,E,062439.00,A,D*6A
$GNRMC,062440.00,A,0419.77747,S,05539.71688,E,0.115,,270525,,,D*72
$GNVTG,,T,,M,0.115,N,0.214,K,D*3A
$GNGGA,062440.00,0419.77747,S,05539.71688,E,2,12,0.90,24.5,M,-47.6,M,,0000*4B
$GNGSA,A,3,12,25,05,23,15,24,18,13,,,,,1.78,0.90,1.53*15
$GNGSA,A,3,80,79,68,69,83,,,,,,,,1.78,0.90,1.53*10
$GPGSV,5,1,17,05,42,038,18,10,03,212,,12,73,070,36,13,13,110,13*7E
$GPGSV,5,2,17,15,39,141,28,18,33,287,13,20,10,033,10,23,43,209,25*76
$GPGSV,5,3,17,24,34,179,27,25,56,342,31,28,04,294,,29,13,344,21*79
$GPGSV,5,4,17,36,52,277,,40,86,351,34,41,58,082,,49,32,274,*7B
$GPGSV,5,5,17,50,10,089,*4A
$GLGSV,3,1,10,67,15,067,,68,36,116,29,69,25,174,16,73,13,327,20*6B
$GLGSV,3,2,10,78,00,155,,79,49,167,29,80,67,305,25,82,01,018,*69
$GLGSV,3,3,10,83,15,332,19,84,10,279,*60
$GNGLL,0419.77747,S,05539.71688,E,062440.00,A,D*69
$GNRMC,062441.00,A,0419.77752,S,05539.71681,E,0.150,,270525,,,D*7F
$GNVTG,,T,,M,0.150,N,0.277,K,D*3E
$GNGGA,062441.00,0419.77752,S,05539.71681,E,2,12,0.90,24.5,M,-47.6,M,,0000*47
$GNGSA,A,3,12,25,05,23,15,24,18,13,,,,,1.78,0.90,1.53*15
$GNGSA,A,3,80,79,68,69,83,,,,,,,,1.78,0.90,1.53*10
$GPGSV,5,1,17,05,42,038,19,10,03,212,,12,73,070,35,13,13,110,13*7C
$GPGSV,5,2,17,15,39,141,26,18,33,287,16,20,10,033,08,23,43,209,25*74
$GPGSV,5,3,17,24,34,179,28,25,56,342,30,28,04,294,,29,13,344,23*75
$GPGSV,5,4,17,36,52,277,,40,86,351,34,41,58,082,,49,32,274,*7B
$GPGSV,5,5,17,50,10,089,*4A
$GLGSV,3,1,10,67,15,067,,68,36,116,29,69,25,174,17,73,13,327,18*61
$GLGSV,3,2,10,78,00,155,,79,49,167,28,80,67,305,26,82,01,018,*6B
$GLGSV,3,3,10,83,15,332,19,84,10,279,*60
$GNGLL,0419.77752,S,05539.71681,E,062441.00,A,D*65
$GNRMC,062442.00,A,0419.77751,S,05539.71676,E,0.146,,270525,,,D*70
$GNVTG,,T,,M,0.146,N,0.270,K,D*3E
$GNGGA,062442.00,0419.77751,S,05539.71676,E,2,12,0.90,24.4,M,-47.6,M,,0000*4E
$GNGSA,A,3,12,25,05,23,15,24,18,13,,,,,1.78,0.90,1.53*15
$GNGSA,A,3,80,79,68,69,83,,,,,,,,1.78,0.90,1.53*10
$GPGSV,5,1,17,05,42,038,20,10,03,212,,12,73,070,34,13,13,110,13*77
$GPGSV,5,2,17,15,39,141,23,18,33,287,18,20,10,033,07,23,43,209,26*73
$GPGSV,5,3,17,24,34,179,29,25,56,342,30,28,04,294,,29,13,344,22*75
$GPGSV,5,4,17,36,52,277,,40,86,351,35,41,58,082,,49,32,274,*7A
$GPGSV,5,5,17,50,10,089,*4A
$GLGSV,3,1,10,67,15,067,,68,36,116,29,69,25,174,17,73,13,327,16*6F
$GLGSV,3,2,10,78,00,155,,79,49,167,30,80,67,305,29,82,01,018,*6D
$GLGSV,3,3,10,83,15,332,19,84,10,280,*66
$GNGLL,0419.77751,S,05539.71676,E,062442.00,A,D*6D
$GNRMC,062443.00,A,0419.77748,S,05539.71682,E,0.078,,270525,,,D*7E
$GNVTG,,T,,M,0.078,N,0.145,K,D*37
$GNGGA,062443.00,0419.77748,S,05539.71682,E,2,12,0.90,24.3,M,-47.6,M,,0000*4B
$GNGSA,A,3,12,25,05,23,15,24,18,13,,,,,1.78,0.90,1.53*15
$GNGSA,A,3,80,79,68,69,83,,,,,,,,1.78,0.90,1.53*10
$GPGSV,5,1,17,05,42,038,18,10,03,212,,12,73,070,35,13,13,110,13*7D
$GPGSV,5,2,17,15,39,141,25,18,33,287,13,20,10,033,08,23,43,209,27*70
$GPGSV,5,3,17,24,34,179,29,25,56,342,31,28,04,294,,29,13,344,22*74
$GPGSV,5,4,17,36,52,277,,40,86,351,37,41,58,082,,49,32,274,*78
$GPGSV,5,5,17,50,10,089,*4A
$GLGSV,3,1,10,67,15,067,,68,36,116,29,69,25,174,17,73,13,327,16*6F
$GLGSV,3,2,10,78,00,155,,79,49,167,29,80,67,305,30,82,01,018,*6D
$GLGSV,3,3,10,83,15,332,19,84,10,280,*66
$GNGLL,0419.77748,S,05539.71682,E,062443.00,A,D*6F
$GNRMC,062444.00,A,0419.77743,S,05539.71681,E,0.064,,270525,,,D*7C
$GNVTG,,T,,M,0.064,N,0.119,K,D*33
$GNGGA,062444.00,0419.77743,S,05539.71681,E,2,12,0.90,24.1,M,-47.6,M,,0000*46
$GNGSA,A,3,12,25,05,23,15,24,18,,,,,,1.78,0.90,1.53*17
$GNGSA,A,3,80,79,68,69,83,,,,,,,,1.78,0.90,1.53*10
$GPGSV,5,1,17,05,42,038,17,10,03,212,,12,73,070,34,13,13,110,*71
$GPGSV,5,2,17,15,39,141,27,18,33,287,10,20,10,033,,23,43,209,27*79
$GPGSV,5,3,17,24,34,179,29,25,56,342,31,28,04,294,,29,13,344,22*74
$GPGSV,5,4,17,36,52,277,,40,86,351,37,41,58,082,,49,32,274,*78
$GPGSV,5,5,17,50,10,089,*4A
$GLGSV,3,1,10,67,15,067,,68,36,116,27,69,25,174,20,73,13,327,16*65
$GLGSV,3,2,10,78,00,155,,79,49,167,28,80,67,305,29,82,01,018,*64
$GLGSV,3,3,10,83,15,332,19,84,10,280,*66
$GNGLL,0419.77743,S,05539.71681,E,062444.00,A,D*60
$GNRMC,062445.00,A,0419.77734,S,05539.71685,E,0.479,,270525,,,D*71
$GNVTG,,T,,M,0.479,N,0.887,K,D*35
$GNGGA,062445.00,0419.77734,S,05539.71685,E,2,11,1.01,24.2,M,-47.6,M,,0000*4A
$GNGSA,A,3,12,25,05,23,15,24,,,,,,,1.84,1.01,1.54*13
$GNGSA,A,3,80,79,68,69,83,,,,,,,,1.84,1.01,1.54*1D
$GPGSV,5,1,17,05,42,038,17,10,03,212,,12,73,070,35,13,13,110,15*74
$GPGSV,5,2,17,15,39,141,26,18,33,287,,20,10,033,,23,43,209,25*7B
$GPGSV,5,3,17,24,34,179,33,25,56,342,30,28,04,294,,29,13,344,20*7C
$GPGSV,5,4,17,36,52,277,,40,86,351,34,41,58,082,,49,32,274,*7B
$GPGSV,5,5,17,50,10,089,*4A
$GLGSV,3,1,10,67,15,067,,68,36,116,27,69,25,174,21,73,13,327,17*65
$GLGSV,3,2,10,78,00,155,,79,49,167,28,80,67,305,26,82,01,018,*6B
$GLGSV,3,3,10,83,15,332,19,84,10,280,*66
$GNGLL,0419.77734,S,05539.71685,E,062445.00,A,D*65
$GNRMC,062446.00,A,0419.77732,S,05539.71684,E,0.177,,270525,,,D*7E
$GNVTG,,T,,M,0.177,N,0.329,K,D*31
$GNGGA,062446.00,0419.77732,S,05539.71684,E,2,11,1.01,24.2,M,-47.6,M,,0000*4E
$GNGSA,A,3,12,25,05,23,15,24,,,,,,,1.84,1.01,1.54*13
$GNGSA,A,3,80,79,68,69,83,,,,,,,,1.84,1.01,1.54*1D
$GPGSV,5,1,17,05,42,038,16,10,03,212,,12,73,070,35,13,13,110,13*73
$GPGSV,5,2,17,15,39,141,22,18,33,287,25,20,10,033,12,23,43,209,26*78
$GPGSV,5,3,17,24,34,179,31,25,56,342,32,28,04,294,,29,13,344,19*76
$GPGSV,5,4,17,36,52,277,,40,86,351,33,41,58,082,,49,32,274,*7C
$GPGSV,5,5,17,50,10,089,*4A
$GLGSV,3,1,10,67,15,067,,68,36,116,28,69,25,174,21,73,13,327,18*65
$GLGSV,3,2,10,78,00,155,,79,49,167,27,80,67,305,25,82,01,018,*67
$GLGSV,3,3,10,83,15,332,20,84,10,280,*6C
$GNGLL,0419.77732,S,05539.71684,E,062446.00,A,D*61
$GNRMC,062447.00,A,0419.77721,S,05539.71680,E,0.168,,270525,,,D*77
$GNVTG,,T,,M,0.168,N,0.312,K,D*37
$GNGGA,062447.00,0419.77721,S,05539.71680,E,2,12,0.90,24.0,M,-47.6,M,,0000*41
$GNGSA,A,3,12,25,05,23,15,24,18,,,,,,1.78,0.90,1.53*17
$GNGSA,A,3,80,79,68,69,83,,,,,,,,1.78,0.90,1.53*10
$GPGSV,5,1,17,05,42,038,16,10,03,212,,12,73,070,35,13,13,110,12*72
$GPGSV,5,2,17,15,39,141,20,18,33,287,24,20,10,033,10,23,43,209,26*79
$GPGSV,5,3,17,24,34,179,30,25,56,342,31,28,04,294,,29,13,344,18*75
$GPGSV,5,4,17,36,52,277,,40,86,351,34,41,58,082,,49,32,274,*7B
$GPGSV,5,5,17,50,10,089,*4A
$GLGSV,3,1,10,67,15,067,,68,36,116,28,69,25,174,21,73,13,327,15*68
$GLGSV,3,2,10,78,00,155,,79,49,167,27,80,67,305,24,82,01,018,*66
$GLGSV,3,3,10,83,15,332,20,84,10,280,*6C
$GNGLL,0419.77721,S,05539.71680,E,062447.00,A,D*66
$GNRMC,062448.00,A,0419.77714,S,05539.71679,E,0.185,,270525,,,D*7B
$GNVTG,,T,,M,0.185,N,0.342,K,D*31
$GNGGA,062448.00,0419.77714,S,05539.71679,E,2,12,0.90,24.1,M,-47.6,M,,0000*4F
$GNGSA,A,3,12,25,05,23,15,24,18,,,,,,1.77,0.90,1.53*18
$GNGSA,A,3,80,79,68,69,83,,,,,,,,1.77,0.90,1.53*1F
$GPGSV,5,1,17,05,42,038,16,10,03,212,,12,73,070,33,13,13,110,12*74
$GPGSV,5,2,17,15,39,141,25,18,33,287,21,20,10,033,09,23,43,209,27*70
$GPGSV,5,3,17,24,34,179,29,25,56,342,31,28,04,294,,29,13,344,19*7C
$GPGSV,5,4,17,36,52,277,,40,86,351,37,41,58,082,,49,32,274,*78
$GPGSV,5,5,17,50,10,089,*4A
$GLGSV,3,1,10,67,15,067,,68,36,116,28,69,25,174,21,73,13,327,*6C
$GLGSV,3,2,10,78,00,155,,79,49,167,27,80,67,305,27,82,01,018,*65
$GLGSV,3,3,10,83,15,332,20,84,10,280,*6C
$GNGLL,0419.77714,S,05539.71679,E,062448.00,A,D*69
$GNRMC,062449.00,A,0419.77706,S,05539.71673,E,0.193,,270525,,,D*74
$GNVTG,,T,,M,0.193,N,0.357,K,D*32
$GNGGA,062449.00,0419.77706,S,05539.71673,E,2,12,0.90,23.9,M,-47.6,M,,0000*48
$GNGSA,A,3,12,25,05,23,15,24,18,,,,,,1.77,0.90,1.53*18
$GNGSA,A,3,80,79,68,69,83,,,,,,,,1.77,0.90,1.53*1F
$GPGSV,5,1,17,05,42,038,17,10,03,212,,12,73,070,34,13,13,110,13*73
$GPGSV,5,2,17,15,39,141,27,18,33,287,19,20,10,033,09,23,43,209,26*78
$GPGSV,5,3,17,24,34,179,29,25,56,342,31,28,04,294,,29,13,344,18*7D
$GPGSV,5,4,17,36,52,277,,40,86,351,36,41,58,082,,49,32,274,*79
$GPGSV,5,5,17,50,10,089,*4A
$GLGSV,3,1,10,67,15,067,,68,36,116,27,69,25,174,19,73,13,327,*68
$GLGSV,3,2,10,78,00,155,,79,49,167,25,80,67,305,27,82,01,018,*67
$GLGSV,3,3,10,83,15,332,20,84,10,280,*6C
$GNGLL,0419.77706,S,05539.71673,E,062449.00,A,D*61
$GNRMC,062450.00,A,0419.77696,S,05539.71668,E,0.116,,270525,,,D*73
$GNVTG,,T,,M,0.116,N,0.215,K,D*38
$GNGGA,062450.00,0419.77696,S,05539.71668,E,2,12,0.81,23.7,M,-47.6,M,,0000*4C
$GNGSA,A,3,12,25,05,23,15,24,18,13,,,,,1.53,0.81,1.30*19
$GNGSA,A,3,80,79,68,69,83,,,,,,,,1.53,0.81,1.30*1C
$GPGSV,5,1,17,05,42,038,16,10,03,212,,12,73,070,35,13,13,110,12*72
$GPGSV,5,2,17,15,39,141,26,18,33,287,19,20,10,033,08,23,43,209,25*7B
$GPGSV,5,3,17,24,34,179,29,25,56,342,31,28,04,294,,29,13,344,18*7D
$GPGSV,5,4,17,36,52,277,,40,86,351,36,41,58,082,,49,32,274,*79
$GPGSV,5,5,17,50,10,089,*4A
$GLGSV,3,1,10,67,15,067,,68,36,116,27,69,25,174,19,73,13,327,*68
$GLGSV,3,2,10,78,00,155,,79,49,167,23,80,67,305,26,82,01,018,*60
$GLGSV,3,3,10,83,15,332,21,84,10,280,*6D
$GNGLL,0419.77696,S,05539.71668,E,062450.00,A,D*6B
$GNRMC,062451.00,A,0419.77684,S,05539.71661,E,0.104,,270525,,,D*7B
$GNVTG,,T,,M,0.104,N,0.193,K,D*36
$GNGGA,062451.00,0419.77684,S,05539.71661,E,2,12,0.81,23.3,M,-47.6,M,,0000*43
$GNGSA,A,3,12,25,05,23,15,24,18,13,,,,,1.53,0.81,1.30*19
$GNGSA,A,3,80,79,68,69,83,,,,,,,,1.53,0.81,1.30*1C
$GPGSV,5,1,17,05,42,037,16,10,03,212,,12,73,070,35,13,13,110,14*7B
$GPGSV,5,2,17,15,39,141,23,18,33,287,21,20,10,033,09,23,43,209,25*74
$GPGSV,5,3,17,24,34,179,29,25,56,342,31,28,04,294,,29,13,344,18*7D
$GPGSV,5,4,17,36,52,277,,40,86,351,35,41,58,082,,49,32,274,*7A
$GPGSV,5,5,17,50,10,089,*4A
$GLGSV,3,1,10,67,15,067,,68,36,116,28,69,25,174,18,73,13,327,*66
$GLGSV,3,2,10,78,00,155,,79,49,167,22,80,67,305,26,82,01,018,*61
$GLGSV,3,3,10,83,15,332,20,84,10,280,*6C
$GNGLL,0419.77684,S,05539.71661,E,062451.00,A,D*60
$GNRMC,062452.00,A,0419.77679,S,05539.71656,E,0.033,,270525,,,D*7B
$GNVTG,,T,,M,0.033,N,0.061,K,D*3F
$GNGGA,062452.00,0419.77679,S,05539.71656,E,2,12,0.81,23.0,M,-47.6,M,,0000*45
$GNGSA,A,3,12,25,05,23,15,24,18,13,,,,,1.53,0.81,1.30*19
$GNGSA,A,3,80,79,68,69,83,,,,,,,,1.53,0.81,1.30*1C
$GPGSV,5,1,17,05,42,037,19,10,03,212,,12,73,070,35,13,13,110,14*74
$GPGSV,5,2,17,15,39,141,20,18,33,287,24,20,10,033,08,23,43,209,25*73
$GPGSV,5,3,17,24,34,179,31,25,56,342,33,28,04,294,,29,13,344,19*77
$GPGSV,5,4,17,36,52,277,,40,86,351,35,41,58,082,,49,32,274,*7A
$GPGSV,5,5,17,50,10,089,*4A
$GLGSV,3,1,10,67,15,067,,68,36,116,27,69,25,174,17,73,13,327,*66
$GLGSV,3,2,10,78,00,155,,79,49,167,22,80,67,305,25,82,01,018,*62
$GLGSV,3,3,10,83,15,332,20,84,10,280,*6C
$GNGLL,0419.77679,S,05539.71656,E,062452.00,A,D*65
$GNRMC,062453.00,A,0419.77681,S,05539.71651,E,0.264,,270525,,,D*7A
$GNVTG,,T,,M,0.264,N,0.489,K,D*3D
$GNGGA,062453.00,0419.77681,S,05539.71651,E,2,12,0.81,23.4,M,-47.6,M,,0000*40
$GNGSA,A,3,12,25,05,23,15,24,18,13,,,,,1.53,0.81,1.30*19
$GNGSA,A,3,80,79,68,69,83,,,,,,,,1.53,0.81,1.30*1C
$GPGSV,5,1,17,05,42,037,20,10,03,212,,12,73,070,36,13,13,110,14*7D
$GPGSV,5,2,17,15,39,141,20,18,33,287,21,20,10,033,08,23,43,209,24*77
$GPGSV,5,3,17,24,34,179,29,25,56,342,33,28,04,294,,29,13,344,19*7E
$GPGSV,5,4,17,36,52,277,,40,86,351,35,41,58,082,,49,32,274,*7A
$GPGSV,5,5,17,50,10,089,*4A
$GLGSV,3,1,10,67,15,067,,68,36,116,28,69,25,174,19,73,13,327,*67
$GLGSV,3,2,10,78,00,155,,79,49,167,19,80,67,305,25,82,01,018,*6A
$GLGSV,3,3,10,83,15,332,20,84,10,280,*6C
$GNGLL,0419.77681,S,05539.71651,E,062453.00,A,D*64
$GNRMC,062454.00,A,0419.77679,S,05539.71643,E,0.132,,270525,,,D*79
$GNVTG,,T,,M,0.132,N,0.245,K,D*3B
$GNGGA,062454.00,0419.77679,S,05539.71643,E,2,12,0.81,23.6,M,-47.6,M,,0000*41
$GNGSA,A,3,12,25,05,23,15,24,18,13,,,,,1.53,0.81,1.30*19
$GNGSA,A,3,80,79,68,69,83,,,,,,,,1.53,0.81,1.30*1C
$GPGSV,5,1,17,05,42,037,19,10,03,212,,12,73,070,36,13,13,110,12*71
$GPGSV,5,2,17,15,39,141,22,18,33,287,19,20,10,033,08,23,43,209,25*7F
$GPGSV,5,3,17,24,34,179,28,25,56,342,33,28,04,294,,29,13,344,19*7F
$GPGSV,5,4,17,36,52,277,,40,86,351,34,41,58,082,,49,32,274,*7B
$GPGSV,5,5,17,50,10,089,*4A
$GLGSV,3,1,10,67,15,067,,68,36,116,29,69,25,174,19,73,13,327,*66
$GLGSV,3,2,10,78,00,155,,79,49,167,21,80,67,305,24,82,01,018,*60
$GLGSV,3,3,10,83,15,332,19,84,10,280,*66
$GNGLL,0419.77679,S,05539.71643,E,062454.00,A,D*67
$GNRMC,062455.00,A,0419.77684,S,05539.71640,E,0.118,,270525,,,D*71
$GNVTG,,T,,M,0.118,N,0.218,K,D*3B
$GNGGA,062455.00,0419.77684,S,05539.71640,E,2,12,0.81,24.1,M,-47.6,M,,0000*41
$GNGSA,A,3,12,25,05,23,15,24,18,13,,,,,1.53,0.81,1.30*19
$GNGSA,A,3,80,79,68,69,83,,,,,,,,1.53,0.81,1.30*1C
$GPGSV,5,1,17,05,42,037,21,10,03,212,,12,73,070,37,13,13,110,12*7B
$GPGSV,5,2,17,15,39,141,24,18,33,287,16,20,10,033,08,23,43,209,23*70
$GPGSV,5,3,17,24,34,179,29,25,56,342,33,28,04,294,,29,13,344,20*74
$GPGSV,5,4,17,36,52,277,,40,86,351,35,41,58,082,,49,32,274,*7A
$GPGSV,5,5,17,50,10,089,*4A
$GLGSV,3,1,10,67,15,067,,68,36,116,30,69,25,174,19,73,13,327,*6E
$GLGSV,3,2,10,78,00,155,,79,49,167,22,80,67,305,24,82,01,018,*63
$GLGSV,3,3,10,83,15,332,17,84,10,280,*68
$GNGLL,0419.77684,S,05539.71640,E,062455.00,A,D*67
$GNRMC,062456.00,A,0419.77689,S,05539.71630,E,0.043,,270525,,,D*77
$GNVTG,,T,,M,0.043,N,0.079,K,D*31
$GNGGA,062456.00,0419.77689,S,05539.71630,E,2,12,0.90,24.2,M,-47.6,M,,0000*4B
$GNGSA,A,3,12,25,05,23,15,24,18,,,,,,1.77,0.90,1.53*18
$GNGSA,A,3,80,79,68,69,83,,,,,,,,1.77,0.90,1.53*1F
$GPGSV,5,1,17,05,42,037,24,10,03,212,,12,73,070,34,13,13,110,09*77
$GPGSV,5,2,17,15,39,141,25,18,33,287,14,20,10,033,08,23,43,209,22*72
$GPGSV,5,3,17,24,34,179,29,25,56,342,32,28,04,294,,29,13,344,18*7E
$GPGSV,5,4,17,36,52,277,,40,86,351,35,41,58,082,,49,32,274,*7A
$GPGSV,5,5,17,50,10,089,*4A
$GLGSV,3,1,10,67,15,067,,68,36,116,30,69,25,174,21,73,13,327,*65
$GLGSV,3,2,10,78,00,155,,79,49,167,22,80,67,305,25,82,01,018,*62
$GLGSV,3,3,10,83,15,332,17,84,10,280,*68
$GNGLL,0419.77689,S,05539.71630,E,062456.00,A,D*6E
$GNRMC,062457.00,A,0419.77697,S,05539.71616,E,0.017,,270525,,,D*7C
$GNVTG,,T,,M,0.017,N,0.031,K,D*3C
$GNGGA,062457.00,0419.77697,S,05539.71616,E,2,12,0.90,24.8,M,-47.6,M,,0000*4B
$GNGSA,A,3,12,25,05,23,15,24,13,,,,,,1.60,0.90,1.33*13
$GNGSA,A,3,80,79,68,69,83,,,,,,,,1.60,0.90,1.33*1F
$GPGSV,5,1,17,05,42,037,31,10,03,212,,12,73,070,34,13,13,110,12*79
$GPGSV,5,2,17,15,39,141,26,18,33,287,,20,10,033,08,23,43,209,20*76
$GPGSV,5,3,17,24,34,179,29,25,56,342,31,28,04,294,,29,13,344,17*72
$GPGSV,5,4,17,36,52,277,,40,86,351,35,41,58,082,,49,32,274,*7A
$GPGSV,5,5,17,50,10,089,*4A
$GLGSV,3,1,10,67,15,067,,68,36,116,30,69,25,174,24,73,13,327,*60
$GLGSV,3,2,10,78,00,155,,79,49,167,20,80,67,305,25,82,01,018,*60
$GLGSV,3,3,10,83,15,332,16,84,10,280,*69
$GNGLL,0419.77697,S,05539.71616,E,062457.00,A,D*64
$GNRMC,062458.00,A,0419.77694,S,05539.71606,E,0.143,,270525,,,D*71
$GNVTG,,T,,M,0.143,N,0.265,K,D*3F
$GNGGA,062458.00,0419.77694,S,05539.71606,E,2,12,0.90,24.7,M,-47.6,M,,0000*49
$GNGSA,A,3,12,25,05,23,15,24,13,,,,,,1.60,0.90,1.33*13
$GNGSA,A,3,80,79,68,69,83,,,,,,,,1.60,0.90,1.33*1F
$GPGSV,5,1,17,05,42,037,29,10,03,212,,12,73,073,34,13,13,110,15*74
$GPGSV,5,2,17,15,39,141,26,18,33,287,,20,10,033,08,23,43,209,20*76
$GPGSV,5,3,17,24,34,179,28,25,56,342,31,28,04,294,,29,13,344,17*73
$GPGSV,5,4,17,36,52,277,,40,86,351,37,41,58,082,,49,32,274,*78
$GPGSV,5,5,17,50,10,089,*4A
$GLGSV,3,1,10,67,15,067,,68,36,116,30,69,25,174,26,73,13,327,*62
$GLGSV,3,2,10,78,00,155,,79,49,167,19,80,67,305,27,82,01,018,*68
$GLGSV,3,3,10,83,15,332,16,84,10,280,*69
$GNGLL,0419.77694,S,05539.71606,E,062458.00,A,D*69
$GNRMC,062459.00,A,0419.77699,S,05539.71599,E,0.302,,270525,,,D*7F
$GNVTG,,T,,M,0.302,N,0.560,K,D*3A
$GNGGA,062459.00,0419.77699,S,05539.71599,E,2,12,0.90,25.0,M,-47.6,M,,0000*46
$GNGSA,A,3,12,25,05,23,15,24,13,,,,,,1.60,0.90,1.33*13
$GNGSA,A,3,80,79,68,69,83,,,,,,,,1.60,0.90,1.33*1F
$GPGSV,5,1,17,05,42,037,26,10,03,212,,12,73,073,34,13,13,109,17*71
$GPGSV,5,2,17,15,39,141,26,18,33,287,13,20,10,033,08,23,43,209,20*74
$GPGSV,5,3,17,24,34,179,27,25,56,342,31,28,04,294,,29,13,344,17*7C
$GPGSV,5,4,17,36,52,277,,40,86,351,37,41,58,082,,49,32,274,*78
$GPGSV,5,5,17,50,10,089,*4A
$GLGSV,3,1,10,67,15,067,,68,36,116,31,69,25,174,25,73,13,327,*60
$GLGSV,3,2,10,78,00,155,,79,49,167,21,80,67,305,28,82,01,018,*6C
$GLGSV,3,3,10,83,15,332,17,84,10,280,*68
$GNGLL,0419.77699,S,05539.71599,E,062459.00,A,D*60
$GNRMC,062500.00,A,0419.77700,S,05539.71599,E,0.086,,270525,,,D*7C
$GNVTG,,T,,M,0.086,N,0.159,K,D*3B
$GNGGA,062500.00,0419.77700,S,05539.71599,E,2,12,0.90,25.4,M,-47.6,M,,0000*4E
$GNGSA,A,3,12,25,05,23,15,24,13,,,,,,1.60,0.90,1.33*13
$GNGSA,A,3,80,79,68,69,83,,,,,,,,1.60,0.90,1.33*1F
$GPGSV,5,1,17,05,42,037,22,10,03,212,,12,73,073,30,13,13,109,17*71
$GPGSV,5,2,17,15,39,141,25,18,33,287,17,20,10,033,,23,43,209,23*78
$GPGSV,5,3,17,24,34,179,27,25,56,342,30,28,04,294,,29,13,344,16*7C
$GPGSV,5,4,17,36,52,277,,40,86,351,37,41,58,082,,49,32,274,*78
$GPGSV,5,5,17,50,10,089,*4A
$GLGSV,3,1,10,67,15,067,,68,36,116,30,69,25,174,25,73,13,327,*61
$GLGSV,3,2,10,78,00,155,,79,49,167,25,80,67,305,28,82,01,018,*68
$GLGSV,3,3,10,83,15,332,17,84,10,280,*68
$GNGLL,0419.77700,S,05539.71599,E,062500.00,A,D*6C
$GNRMC,062501.00,A,0419.77701,S,05539.71601,E,0.202,,270525,,,D*70
$GNVTG,,T,,M,0.202,N,0.374,K,D*38
$GNGGA,062501.00,0419.77701,S,05539.71601,E,2,12,0.90,25.5,M,-47.6,M,,0000*4D
$GNGSA,A,3,12,25,05,23,15,24,13,,,,,,1.60,0.90,1.33*13
$GNGSA,A,3,80,79,68,69,83,,,,,,,,1.60,0.90,1.33*1F
$GPGSV,5,1,17,05,42,037,25,10,03,212,,12,73,073,32,13,13,109,17*74
$GPGSV,5,2,17,15,39,140,24,18,33,287,21,20,10,033,,23,43,209,23*7D
$GPGSV,5,3,17,24,34,179,26,25,56,342,30,28,04,294,,29,13,344,15*7E
$GPGSV,5,4,17,36,52,277,,40,86,351,37,41,58,082,,49,32,274,*78
$GPGSV,5,5,17,50,10,089,*4A
$GLGSV,3,1,10,67,15,067,,68,36,116,30,69,25,174,25,73,13,327,*61
$GLGSV,3,2,10,78,00,155,,79,49,167,28,80,67,305,27,82,01,018,*6A
$GLGSV,3,3,10,83,15,332,17,84,10,280,*68
$GNGLL,0419.77701,S,05539.71601,E,062501.00,A,D*6E
$GNRMC,062502.00,A,0419.77699,S,05539.71600,E,0.047,,270525,,,D*71
$GNVTG,,T,,M,0.047,N,0.087,K,D*34
$GNGGA,062502.00,0419.77699,S,05539.71600,E,2,12,0.81,25.3,M,-47.6,M,,0000*49
$GNGSA,A,3,12,25,05,23,15,24,18,13,,,,,1.53,0.81,1.30*19
$GNGSA,A,3,80,79,68,69,83,,,,,,,,1.53,0.81,1.30*1C
$GPGSV,5,1,17,05,42,037,26,10,03,212,,12,73,073,33,13,13,109,15*74
$GPGSV,5,2,17,15,39,140,25,18,33,287,20,20,10,033,,23,43,209,24*7A
$GPGSV,5,3,17,24,34,179,26,25,56,342,31,28,04,294,,29,13,344,15*7F
$GPGSV,5,4,17,36,52,277,,40,86,351,37,41,58,082,,49,32,274,*78
$GPGSV,5,5,17,50,10,089,*4A
$GLGSV,3,1,10,67,15,067,,68,36,116,31,69,25,174,23,73,13,327,*66
$GLGSV,3,2,10,78,00,155,,79,49,167,29,80,67,305,27,82,01,018,*6B
$GLGSV,3,3,10,83,15,332,17,84,10,280,*68
$GNGLL,0419.77699,S,05539.71600,E,062502.00,A,D*6C
$GNRMC,062503.00,A,0419.77705,S,05539.71598,E,0.098,,270525,,,D*74
$GNVTG,,T,,M,0.098,N,0.181,K,D*31
$GNGGA,062503.00,0419.77705,S,05539.71598,E,2,12,0.90,25.5,M,-47.6,M,,0000*48
$GNGSA,A,3,12,25,05,23,15,24,18,,,,,,1.77,0.90,1.53*18
$GNGSA,A,3,80,79,68,69,83,,,,,,,,1.77,0.90,1.53*1F
$GPGSV,5,1,17,05,42,037,25,10,03,212,,12,73,073,32,13,13,109,*72
$GPGSV,5,2,17,15,39,140,28,18,33,287,22,20,10,033,,23,43,209,24*75
$GPGSV,5,3,17,24,34,179,26,25,56,342,30,28,04,294,,29,13,344,14*7F
$GPGSV,5,4,17,36,52,277,,40,86,351,37,41,58,082,,49,32,274,*78
$GPGSV,5,5,17,50,10,089,*4A
$GLGSV,3,1,10,67,15,067,,68,36,116,32,69,25,174,23,73,13,327,*65
$GLGSV,3,2,10,78,00,155,,79,49,167,30,80,67,305,25,82,01,018,*61
$GLGSV,3,3,10,83,15,332,15,84,10,280,*6A
$GNGLL,0419.77705,S,05539.71598,E,062503.00,A,D*6B
$GNRMC,062504.00,A,0419.77706,S,05539.71595,E,0.198,,270525,,,D*7C
$GNVTG,,T,,M,0.198,N,0.367,K,D*3A
$GNGGA,062504.00,0419.77706,S,05539.71595,E,2,12,0.90,25.5,M,-47.6,M,,0000*41
$GNGSA,A,3,12,25,05,23,15,24,18,,,,,,1.77,0.90,1.53*18
$GNGSA,A,3,80,79,68,69,83,,,,,,,,1.77,0.90,1.53*1F
$GPGSV,5,1,17,05,42,037,23,10,03,212,,12,73,073,31,13,13,109,18*7E
$GPGSV,5,2,17,15,39,140,30,18,33,288,22,20,10,033,,23,43,209,25*72
$GPGSV,5,3,17,24,34,179,27,25,56,342,29,28,04,294,,29,13,344,15*77
$GPGSV,5,4,17,36,52,277,,40,86,351,36,41,58,082,,49,32,274,*79
$GPGSV,5,5,17,50,10,089,*4A
$GLGSV,3,1,10,67,15,067,,68,36,116,31,69,25,174,20,73,13,327,*65
$GLGSV,3,2,10,78,00,155,,79,49,167,30,80,67,305,27,82,01,018,*63
$GLGSV,3,3,10,83,15,332,15,84,10,280,*6A
$GNGLL,0419.77706,S,05539.71595,E,062504.00,A,D*62
$GNRMC,062505.00,A,0419.77707,S,05539.71606,E,0.142,,270525,,,D*72
$GNVTG,,T,,M,0.142,N,0.263,K,D*38
$GNGGA,062505.00,0419.77707,S,05539.71606,E,2,12,0.90,25.7,M,-47.6,M,,0000*4A
$GNGSA,A,3,12,25,05,23,15,24,18,,,,,,1.77,0.90,1.53*18
$GNGSA,A,3,80,79,68,69,83,,,,,,,,1.77,0.90,1.53*1F
$GPGSV,5,1,17,05,42,037,20,10,03,212,,12,73,073,32,13,13,109,16*70
$GPGSV,5,2,17,15,39,140,31,18,33,288,21,20,10,033,,23,43,209,31*75
$GPGSV,5,3,17,24,34,179,24,25,56,342,28,28,04,294,,29,13,344,14*74
$GPGSV,5,4,17,36,52,277,,40,86,351,37,41,58,082,,49,32,274,*78
$GPGSV,5,5,17,50,10,089,*4A
$GLGSV,3,1,10,67,15,067,,68,36,116,29,69,25,174,20,73,13,327,*6C
$GLGSV,3,2,10,78,00,155,,79,49,167,29,80,67,305,29,82,01,018,*65
$GLGSV,3,3,10,83,15,332,13,84,10,280,*6C
$GNGLL,0419.77707,S,05539.71606,E,062505.00,A,D*6B
$GNRMC,062506.00,A,0419.77707,S,05539.71613,E,0.043,,270525,,,D*75
$GNVTG,,T,,M,0.043,N,0.080,K,D*37
$GNGGA,062506.00,0419.77707,S,05539.71613,E,2,12,0.90,25.8,M,-47.6,M,,0000*42
$GNGSA,A,3,12,25,05,23,15,24,18,,,,,,1.77,0.90,1.53*18
$GNGSA,A,3,80,79,68,69,83,,,,,,,,1.77,0.90,1.53*1F
$GPGSV,5,1,17,05,42,037,18,10,03,212,,12,73,073,32,13,13,109,16*7B
$GPGSV,5,2,17,15,39,140,31,18,33,288,20,20,09,033,,23,43,209,31*7C
$GPGSV,5,3,17,24,34,179,24,25,56,342,31,28,04,294,,29,13,344,13*7B
$GPGSV,5,4,17,36,52,277,,40,86,351,37,41,58,082,,49,32,274,*78
$GPGSV,5,5,17,50,10,089,*4A
$GLGSV,3,1,10,67,15,067,,68,36,116,29,69,25,174,20,73,13,327,*6C
$GLGSV,3,2,10,78,00,155,,79,49,167,28,80,67,305,30,82,01,018,*6C
$GLGSV,3,3,10,83,15,332,15,84,10,280,*6A
$GNGLL,0419.77707,S,05539.71613,E,062506.00,A,D*6C
$GNRMC,062507.00,A,0419.77708,S,05539.71624,E,0.031,,270525,,,D*7A
$GNVTG,,T,,M,0.031,N,0.058,K,D*37
$GNGGA,062507.00,0419.77708,S,05539.71624,E,2,12,0.90,26.1,M,-47.6,M,,0000*42
$GNGSA,A,3,12,25,05,23,15,24,18,,,,,,1.77,0.90,1.53*18
$GNGSA,A,3,80,79,68,69,83,,,,,,,,1.77,0.90,1.53*1F
$GPGSV,5,1,17,05,42,037,20,10,03,212,,12,73,073,31,13,13,109,17*72
$GPGSV,5,2,17,15,39,140,23,18,33,288,19,20,09,033,,23,43,209,29*7C
$GPGSV,5,3,17,24,34,179,25,25,56,342,31,28,04,294,,29,13,344,16*7F
$GPGSV,5,4,17,36,52,277,,40,86,351,39,41,58,082,,49,32,274,*76
$GPGSV,5,5,17,50,10,089,*4A
$GLGSV,3,1,10,67,15,067,,68,36,116,27,69,25,174,21,73,13,327,20*61
$GLGSV,3,2,10,78,00,155,,79,49,167,27,80,67,305,29,82,01,018,*6B
$GLGSV,3,3,10,83,15,332,15,84,10,280,*6A
$GNGLL,0419.77708,S,05539.71624,E,062507.00,A,D*66
$GNRMC,062508.00,A,0419.77712,S,05539.71633,E,0.098,,270525,,,D*7B
$GNVTG,,T,,M,0.098,N,0.181,K,D*31
$GNGGA,062508.00,0419.77712,S,05539.71633,E,2,12,0.81,26.3,M,-47.6,M,,0000*42
$GNGSA,A,3,12,25,05,23,15,24,18,13,,,,,1.53,0.81,1.30*19
$GNGSA,A,3,80,79,68,69,83,,,,,,,,1.53,0.81,1.30*1C
$GPGSV,5,1,17,05,42,037,24,10,03,212,,12,73,073,32,13,13,109,17*75
$GPGSV,5,2,17,15,39,140,24,18,33,288,19,20,09,033,,23,44,209,26*73
$GPGSV,5,3,17,24,34,179,24,25,56,342,32,28,04,294,,29,13,344,17*7C
$GPGSV,5,4,17,36,52,277,,40,86,351,39,41,58,082,,49,32,274,*76
$GPGSV,5,5,17,50,10,089,*4A
$GLGSV,3,1,10,67,15,067,,68,36,116,27,69,25,174,20,73,13,327,18*6B
$GLGSV,3,2,10,78,00,155,,79,49,167,27,80,67,305,27,82,01,018,*65
$GLGSV,3,3,10,83,15,332,12,84,10,280,*6D
$GNGLL,0419.77712,S,05539.71633,E,062508.00,A,D*64
$GNRMC,062509.00,A,0419.77709,S,05539.71633,E,0.125,,270525,,,D*77
$GNVTG,,T,,M,0.125,N,0.232,K,D*3D
$GNGGA,062509.00,0419.77709,S,05539.71633,E,2,12,0.91,26.3,M,-47.6,M,,0000*48
$GNGSA,A,3,12,25,05,23,15,24,18,13,,,,,1.94,0.91,1.71*16
$GNGSA,A,3,80,79,68,69,,,,,,,,,1.94,0.91,1.71*18
$GPGSV,5,1,17,05,42,037,25,10,03,212,,12,73,073,31,13,13,109,17*77
$GPGSV,5,2,17,15,39,140,27,18,33,288,18,20,09,033,,23,44,209,24*73
$GPGSV,5,3,17,24,34,179,24,25,56,342,31,28,04,294,,29,13,344,18*70
$GPGSV,5,4,17,36,52,277,,40,86,351,39,41,58,082,,49,32,274,*76
$GPGSV,5,5,17,50,10,089,*4A
$GLGSV,3,1,10,67,15,067,,68,36,116,28,69,25,174,19,73,13,327,17*61
$GLGSV,3,2,10,78,00,155,,79,49,167,30,80,67,305,29,82,01,018,*6D
$GLGSV,3,3,10,83,15,332,09,84,10,280,*67
$GNGLL,0419.77709,S,05539.71633,E,062509.00,A,D*6F
$GNRMC,062510.00,A,0419.77710,S,05539.71641,E,0.070,,270525,,,D*73
$GNVTG,,T,,M,0.070,N,0.130,K,D*3D
$GNGGA,062510.00,0419.77710,S,05539.71641,E,2,12,0.91,26.6,M,-47.6,M,,0000*48
$GNGSA,A,3,12,25,05,23,15,24,18,13,,,,,1.94,0.91,1.71*16
$GNGSA,A,3,80,79,68,69,,,,,,,,,1.94,0.91,1.71*18
$GPGSV,5,1,17,05,42,037,24,10,03,212,,12,73,073,31,13,13,109,16*77
$GPGSV,5,2,17,15,39,140,28,18,33,288,18,20,09,033,14,23,44,209,31*7D
$GPGSV,5,3,17,24,34,179,25,25,56,342,29,28,04,294,,29,13,344,16*76
$GPGSV,5,4,17,36,52,277,,40,86,351,37,41,58,082,,49,32,274,*78
$GPGSV,5,5,17,50,10,089,*4A
$GLGSV,3,1,10,67,15,067,,68,36,116,30,69,25,174,17,73,13,327,19*68
$GLGSV,3,2,10,78,00,155,,79,49,167,31,80,67,305,30,82,01,018,*64
$GLGSV,3,3,10,83,15,332,08,84,10,280,*66
$GNGLL,0419.77710,S,05539.71641,E,062510.00,A,D*6A
$GNRMC,062511.00,A,0419.77702,S,05539.71645,E,0.115,,270525,,,D*77
$GNVTG,,T,,M,0.115,N,0.214,K,D*3A
$GNGGA,062511.00,0419.77702,S,05539.71645,E,2,12,0.81,26.3,M,-47.6,M,,0000*4A
$GNGSA,A,3,12,25,05,23,15,24,18,13,,,,,1.53,0.81,1.30*19
$GNGSA,A,3,80,79,68,69,83,,,,,,,,1.53,0.81,1.30*1C
$GPGSV,5,1,17,05,42,037,23,10,03,212,,12,73,073,31,13,13,109,15*73
$GPGSV,5,2,17,15,39,140,28,18,33,288,16,20,09,033,12,23,44,209,32*76
$GPGSV,5,3,17,24,34,179,25,25,56,342,28,28,04,294,,29,13,344,14*75
$GPGSV,5,4,17,36,52,277,,40,86,351,36,41,58,082,,49,32,274,*79
$GPGSV,5,5,17,50,10,089,*4A
