$GNRMC,062840.00,A,0419.76664,S,05539.71430,E,0.300,,270525,,,A*7D
$GNVTG,,T,,M,0.300,N,0.555,K,A*3B
$GNGGA,062840.00,0419.76664,S,05539.71430,E,1,12,0.83,9.8,M,-47.6,M,,*74
$GNGSA,A,3,12,25,05,23,15,24,18,13,20,,,,1.55,0.83,1.32*1D
$GNGSA,A,3,80,79,68,69,,,,,,,,,1.55,0.83,1.32*11
$GPGSV,5,1,17,05,40,036,24,10,04,212,,12,73,077,28,13,13,108,13*7B
$GPGSV,5,2,17,15,39,139,23,18,32,290,19,20,08,033,15,23,45,210,27*7F
$GPGSV,5,3,17,24,33,178,24,25,57,341,26,28,04,293,14,29,14,345,20*7D
$GPGSV,5,4,17,36,52,277,,40,86,351,,41,58,082,,49,32,274,*7C
$GPGSV,5,5,17,50,10,089,*4A
$GLGSV,3,1,09,67,14,065,,68,37,113,19,69,27,173,30,73,15,326,15*67
$GLGSV,3,2,09,79,47,167,18,80,68,300,19,82,00,019,20,83,14,334,*6E
$GLGSV,3,3,09,84,10,282,*59
$GNGLL,0419.76664,S,05539.71430,E,062840.00,A,A*60
$GNRMC,062841.00,A,0419.76647,S,05539.71419,E,0.662,,270525,,,A*77
$GNVTG,,T,,M,0.662,N,1.225,K,A*3B
$GNGGA,062841.00,0419.76647,S,05539.71419,E,1,12,0.83,9.3,M,-47.6,M,,*74
$GNGSA,A,3,12,25,05,23,15,24,18,13,20,,,,1.55,0.83,1.32*1D
$GNGSA,A,3,80,79,68,69,,,,,,,,,1.55,0.83,1.32*11
$GPGSV,5,1,17,05,40,036,22,10,05,212,,12,73,077,29,13,13,108,13*7D
$GPGSV,5,2,17,15,39,139,22,18,32,290,21,20,08,033,15,23,45,210,26*74
$GPGSV,5,3,17,24,33,178,25,25,57,341,25,28,04,293,11,29,14,345,20*7A
$GPGSV,5,4,17,36,52,277,,40,86,351,,41,58,082,,49,32,274,*7C
$GPGSV,5,5,17,50,10,089,*4A
$GLGSV,3,1,09,67,14,065,,68,37,113,17,69,27,173,33,73,15,326,11*6E
$GLGSV,3,2,09,79,47,167,16,80,68,300,18,82,00,019,16,83,14,334,*64
$GLGSV,3,3,09,84,10,282,*59
$GNGLL,0419.76647,S,05539.71419,E,062841.00,A,A*6B
$GNRMC,062842.00,A,0419.76637,S,05539.71407,E,0.486,,270525,,,A*74
$GNVTG,,T,,M,0.486,N,0.900,K,A*3E
$GNGGA,062842.00,0419.76637,S,05539.71407,E,1,12,0.83,9.4,M,-47.6,M,,*78
$GNGSA,A,3,12,25,05,23,15,24,18,13,20,,,,1.55,0.83,1.32*1D
$GNGSA,A,3,80,79,68,69,,,,,,,,,1.55,0.83,1.32*11
$GPGSV,5,1,17,05,40,036,23,10,05,212,,12,73,077,32,13,13,108,13*76
$GPGSV,5,2,17,15,39,139,21,18,32,290,22,20,08,033,16,23,45,210,27*76
$GPGSV,5,3,17,24,33,178,25,25,57,341,26,28,04,293,09,29,14,345,20*70
$GPGSV,5,4,17,36,52,277,,40,86,351,,41,58,082,,49,32,274,*7C
$GPGSV,5,5,17,50,10,089,*4A
$GLGSV,3,1,09,67,14,065,,68,37,113,18,69,27,173,34,73,15,326,15*62
$GLGSV,3,2,09,79,47,167,18,80,68,300,27,82,00,019,15,83,14,334,*65
$GLGSV,3,3,09,84,10,282,*59
$GNGLL,0419.76637,S,05539.71407,E,062842.00,A,A*60
$GNRMC,062843.00,A,0419.76631,S,05539.71408,E,0.046,,270525,,,A*74
$GNVTG,,T,,M,0.046,N,0.085,K,A*32
$GNGGA,062843.00,0419.76631,S,05539.71408,E,1,12,0.86,9.3,M,-47.6,M,,*72
$GNGSA,A,3,12,25,05,23,15,24,18,13,20,,,,1.64,0.86,1.40*1F
$GNGSA,A,3,80,79,68,69,,,,,,,,,1.64,0.86,1.40*13
$GPGSV,5,1,17,05,40,036,24,10,05,212,,12,73,079,31,13,13,108,13*7C
$GPGSV,5,2,17,15,39,139,20,18,32,290,23,20,08,033,16,23,45,210,28*79
$GPGSV,5,3,17,24,33,178,26,25,57,341,26,28,04,293,,29,14,345,23*79
$GPGSV,5,4,17,36,52,277,,40,86,351,,41,58,082,,49,32,274,*7C
$GPGSV,5,5,17,50,10,089,*4A
$GLGSV,3,1,09,67,14,065,,68,37,113,17,69,27,173,34,73,15,326,*69
$GLGSV,3,2,09,79,47,167,20,80,68,300,26,82,00,019,12,83,14,334,*68
$GLGSV,3,3,09,84,10,282,*59
$GNGLL,0419.76631,S,05539.71408,E,062843.00,A,A*68
$GNRMC,062844.00,A,0419.76624,S,05539.71407,E,0.063,,270525,,,A*7F
$GNVTG,,T,,M,0.063,N,0.116,K,A*3E
$GNGGA,062844.00,0419.76624,S,05539.71407,E,1,12,0.86,9.3,M,-47.6,M,,*7E
$GNGSA,A,3,12,25,05,23,15,24,18,13,20,,,,1.64,0.86,1.40*1F
$GNGSA,A,3,80,79,68,69,,,,,,,,,1.64,0.86,1.40*13
$GPGSV,5,1,17,05,40,036,28,10,05,212,,12,73,079,31,13,13,108,14*77
$GPGSV,5,2,17,15,39,139,20,18,32,290,30,20,08,033,17,23,45,210,30*73
$GPGSV,5,3,17,24,33,178,26,25,57,341,27,28,04,293,,29,14,345,23*78
$GPGSV,5,4,17,36,52,277,,40,86,351,,41,58,082,,49,32,274,*7C
$GPGSV,5,5,17,50,10,089,*4A
$GLGSV,3,1,09,67,14,065,,68,37,113,20,69,27,173,33,73,15,326,*6A
$GLGSV,3,2,09,79,47,167,21,80,68,300,27,82,00,019,13,83,14,334,*69
$GLGSV,3,3,09,84,10,282,*59
$GNGLL,0419.76624,S,05539.71407,E,062844.00,A,A*64
$GNRMC,062845.00,A,0419.76617,S,05539.71404,E,0.057,,270525,,,A*7A
$GNVTG,,T,,M,0.057,N,0.106,K,A*38
$GNGGA,062845.00,0419.76617,S,05539.71404,E,1,12,0.83,9.1,M,-47.6,M,,*7B
$GNGSA,A,3,12,25,05,23,15,24,18,13,20,,,,1.55,0.83,1.32*1D
$GNGSA,A,3,80,79,68,69,,,,,,,,,1.55,0.83,1.32*11
$GPGSV,5,1,17,05,40,036,27,10,05,212,,12,73,079,32,13,13,108,14*7B
$GPGSV,5,2,17,15,39,139,20,18,32,290,29,20,08,033,19,23,45,210,30*75
$GPGSV,5,3,17,24,33,178,25,25,57,341,28,28,04,293,,29,14,345,24*73
$GPGSV,5,4,17,36,52,277,,40,86,351,,41,58,082,,49,32,274,*7C
$GPGSV,5,5,17,50,10,089,*4A
$GLGSV,3,1,09,67,14,065,,68,37,113,22,69,27,173,33,73,15,326,*68
$GLGSV,3,2,09,79,47,167,19,80,68,300,28,82,00,019,16,83,14,334,*68
$GLGSV,3,3,09,84,10,282,*59
$GNGLL,0419.76617,S,05539.71404,E,062845.00,A,A*66
$GNRMC,062846.00,A,0419.76616,S,05539.71402,E,0.229,,270525,,,A*75
$GNVTG,,T,,M,0.229,N,0.424,K,A*36
$GNGGA,062846.00,0419.76616,S,05539.71402,E,1,12,0.86,9.1,M,-47.6,M,,*7A
$GNGSA,A,3,12,25,05,23,15,24,18,13,20,,,,1.64,0.86,1.40*1F
$GNGSA,A,3,80,79,68,69,,,,,,,,,1.64,0.86,1.40*13
$GPGSV,5,1,17,05,40,036,25,10,05,212,,12,73,079,32,13,13,108,14*79
$GPGSV,5,2,17,15,39,138,25,18,32,290,27,20,08,033,20,23,45,210,31*74
$GPGSV,5,3,17,24,33,178,26,25,57,341,27,28,04,293,,29,14,345,24*7F
$GPGSV,5,4,17,36,52,277,,40,86,351,,41,58,082,,49,32,274,*7C
$GPGSV,5,5,17,50,10,089,*4A
$GLGSV,3,1,09,67,14,065,,68,37,113,23,69,27,173,33,73,15,326,*69
$GLGSV,3,2,09,79,47,167,18,80,68,300,29,82,00,019,17,83,14,334,18*60
$GLGSV,3,3,09,84,10,282,*59
$GNGLL,0419.76616,S,05539.71402,E,062846.00,A,A*62
$GNRMC,062847.00,A,0419.76605,S,05539.71403,E,0.224,,270525,,,A*7A
$GNVTG,,T,,M,0.224,N,0.414,K,A*38
$GNGGA,062847.00,0419.76605,S,05539.71403,E,1,12,0.86,8.7,M,-47.6,M,,*7F
$GNGSA,A,3,12,25,05,23,15,24,18,13,20,,,,1.64,0.86,1.40*1F
$GNGSA,A,3,80,79,68,69,,,,,,,,,1.64,0.86,1.40*13
$GPGSV,5,1,17,05,40,036,24,10,05,212,,12,73,079,31,13,13,108,14*7B
$GPGSV,5,2,17,15,39,138,24,18,32,290,25,20,08,033,20,23,45,210,32*74
$GPGSV,5,3,17,24,33,178,32,25,57,341,29,28,04,293,,29,14,345,21*71
$GPGSV,5,4,17,36,52,277,,40,86,351,,41,58,082,,49,32,274,*7C
$GPGSV,5,5,17,50,10,089,*4A
$GLGSV,3,1,09,67,14,065,,68,37,113,20,69,27,173,34,73,15,326,*6D
$GLGSV,3,2,09,79,47,167,18,80,68,300,28,82,00,019,17,83,14,334,18*61
$GLGSV,3,3,09,84,10,282,*59
$GNGLL,0419.76605,S,05539.71403,E,062847.00,A,A*60
$GNRMC,062848.00,A,0419.76602,S,05539.71399,E,0.173,,270525,,,A*77
$GNVTG,,T,,M,0.173,N,0.321,K,A*38
$GNGGA,062848.00,0419.76602,S,05539.71399,E,1,12,0.83,8.5,M,-47.6,M,,*74
$GNGSA,A,3,12,25,05,23,15,24,18,13,20,,,,1.55,0.83,1.32*1D
$GNGSA,A,3,80,79,68,69,,,,,,,,,1.55,0.83,1.32*11
$GPGSV,5,1,17,05,40,036,25,10,05,212,,12,73,079,31,13,13,108,14*7A
$GPGSV,5,2,17,15,39,138,24,18,32,290,25,20,08,033,20,23,45,210,32*74
$GPGSV,5,3,17,24,33,178,25,25,57,341,31,28,04,293,,29,14,345,20*7F
$GPGSV,5,4,17,36,52,277,,40,86,351,,41,58,082,,49,32,274,*7C
$GPGSV,5,5,17,50,10,089,*4A
$GLGSV,3,1,09,67,14,065,,68,37,113,20,69,27,173,33,73,15,326,20*68
$GLGSV,3,2,09,79,47,167,17,80,68,300,29,82,00,019,15,83,14,334,16*63
$GLGSV,3,3,09,84,10,282,*59
$GNGLL,0419.76602,S,05539.71399,E,062848.00,A,A*6C
$GNRMC,062849.00,A,0419.76590,S,05539.71410,E,0.074,,270525,,,A*7E
$GNVTG,,T,,M,0.074,N,0.137,K,A*3B
$GNGGA,062849.00,0419.76590,S,05539.71410,E,1,12,0.86,7.6,M,-47.6,M,,*72
$GNGSA,A,3,12,25,05,23,15,24,18,13,20,,,,1.64,0.86,1.40*1F
$GNGSA,A,3,80,79,68,69,,,,,,,,,1.64,0.86,1.40*13
$GPGSV,5,1,17,05,40,036,23,10,05,212,,12,73,079,32,13,13,108,14*7F
$GPGSV,5,2,17,15,39,138,24,18,32,290,25,20,08,033,20,23,45,210,36*70
$GPGSV,5,3,17,24,33,178,30,25,57,341,29,28,04,293,,29,14,345,20*72
$GPGSV,5,4,17,36,52,277,,40,86,351,,41,58,082,,49,32,274,*7C
$GPGSV,5,5,17,50,10,089,*4A
$GLGSV,3,1,09,67,14,065,,68,37,113,23,69,27,173,34,73,15,326,20*6C
$GLGSV,3,2,09,79,47,167,20,80,68,300,29,82,00,019,14,83,14,334,13*63
$GLGSV,3,3,09,84,10,282,*59
$GNGLL,0419.76590,S,05539.71410,E,062849.00,A,A*63
$GNRMC,062850.00,A,0419.76578,S,05539.71426,E,0.087,,270525,,,A*79
$GNVTG,,T,,M,0.087,N,0.161,K,A*34
$GNGGA,062850.00,0419.76578,S,05539.71426,E,1,12,0.86,6.9,M,-47.6,M,,*77
$GNGSA,A,3,12,25,05,23,15,24,18,13,20,,,,1.64,0.86,1.40*1F
$GNGSA,A,3,80,79,68,69,,,,,,,,,1.64,0.86,1.40*13
$GPGSV,5,1,17,05,40,036,24,10,05,212,,12,73,079,31,13,13,108,11*7E
$GPGSV,5,2,17,15,39,138,22,18,32,290,24,20,08,033,19,23,45,210,36*7D
$GPGSV,5,3,17,24,33,178,30,25,57,341,29,28,04,293,,29,14,345,21*73
$GPGSV,5,4,17,36,52,277,,40,86,351,,41,58,082,,49,32,274,*7C
$GPGSV,5,5,17,50,10,089,*4A
$GLGSV,3,1,09,67,14,065,,68,37,113,24,69,27,173,34,73,15,326,20*6B
$GLGSV,3,2,09,79,47,167,21,80,68,300,29,82,00,019,12,83,14,334,10*67
$GLGSV,3,3,09,84,10,282,*59
$GNGLL,0419.76578,S,05539.71426,E,062850.00,A,A*68
$GNRMC,062851.00,A,0419.76566,S,05539.71433,E,0.063,,270525,,,A*79
$GNVTG,,T,,M,0.063,N,0.117,K,A*3F
$GNGGA,062851.00,0419.76566,S,05539.71433,E,1,12,0.86,6.4,M,-47.6,M,,*70
$GNGSA,A,3,12,25,05,23,15,24,18,20,,,,,1.64,0.86,1.40*1D
$GNGSA,A,3,80,79,68,69,,,,,,,,,1.64,0.86,1.40*13
$GPGSV,5,1,17,05,40,036,26,10,05,212,,12,73,079,32,13,13,108,*7F
$GPGSV,5,2,17,15,39,138,22,18,32,290,25,20,08,033,21,23,45,210,35*74
$GPGSV,5,3,17,24,33,178,22,25,57,341,29,28,04,293,,29,14,345,24*75
$GPGSV,5,4,17,36,52,277,,40,86,351,,41,58,082,,49,32,274,*7C
$GPGSV,5,5,17,50,10,089,*4A
$GLGSV,3,1,09,67,14,065,,68,37,113,26,69,27,173,31,73,15,326,19*66
$GLGSV,3,2,09,79,47,167,21,80,68,300,29,82,00,019,14,83,14,334,09*69
$GLGSV,3,3,09,84,10,282,*59
$GNGLL,0419.76566,S,05539.71433,E,062851.00,A,A*62
$GNRMC,062852.00,A,0419.76557,S,05539.71438,E,0.080,,270525,,,A*7E
$GNVTG,,T,,M,0.080,N,0.147,K,A*37
$GNGGA,062852.00,0419.76557,S,05539.71438,E,1,12,0.86,6.1,M,-47.6,M,,*7F
$GNGSA,A,3,12,25,05,23,15,24,18,20,,,,,1.64,0.86,1.40*1D
$GNGSA,A,3,80,79,68,69,83,,,,,,,,1.64,0.86,1.40*18
$GPGSV,5,1,17,05,40,036,26,10,05,212,,12,73,079,33,13,13,108,*7E
$GPGSV,5,2,17,15,39,138,20,18,32,290,26,20,08,033,21,23,45,210,34*74
$GPGSV,5,3,17,24,33,178,20,25,57,341,28,28,04,293,,29,14,345,23*71
$GPGSV,5,4,17,36,52,277,,40,86,351,,41,58,082,,49,32,274,*7C
$GPGSV,5,5,17,50,10,089,*4A
$GLGSV,3,1,09,67,14,065,,68,37,113,26,69,27,173,31,73,15,326,18*67
$GLGSV,3,2,09,79,47,167,19,80,68,300,30,82,00,019,18,83,14,334,10*6E
$GLGSV,3,3,09,84,10,282,*59
$GNGLL,0419.76557,S,05539.71438,E,062852.00,A,A*68
$GNRMC,062853.00,A,0419.76552,S,05539.71440,E,0.046,,270525,,,A*7F
$GNVTG,,T,,M,0.046,N,0.085,K,A*32
$GNGGA,062853.00,0419.76552,S,05539.71440,E,1,12,0.86,5.8,M,-47.6,M,,*7E
$GNGSA,A,3,12,25,05,23,15,24,18,20,,,,,1.64,0.86,1.40*1D
$GNGSA,A,3,80,79,68,69,83,,,,,,,,1.64,0.86,1.40*18
$GPGSV,5,1,17,05,40,036,25,10,05,212,,12,73,079,31,13,13,108,*7F
$GPGSV,5,2,17,15,39,138,23,18,32,290,25,20,08,033,22,23,45,210,33*70
$GPGSV,5,3,17,24,33,178,18,25,57,341,28,28,04,293,,29,14,345,22*7B
$GPGSV,5,4,17,36,52,277,,40,86,351,,41,58,082,,49,32,274,*7C
$GPGSV,5,5,17,50,10,089,*4A
$GLGSV,3,1,09,67,14,065,,68,37,113,26,69,27,173,31,73,15,326,17*68
$GLGSV,3,2,09,79,47,167,19,80,68,300,30,82,00,019,19,83,14,334,12*6D
$GLGSV,3,3,09,84,10,282,*59
$GNGLL,0419.76552,S,05539.71440,E,062853.00,A,A*63
$GNRMC,062854.00,A,0419.76547,S,05539.71444,E,0.052,,270525,,,A*7D
$GNVTG,,T,,M,0.052,N,0.096,K,A*35
$GNGGA,062854.00,0419.76547,S,05539.71444,E,1,12,0.86,5.6,M,-47.6,M,,*77
$GNGSA,A,3,12,25,05,23,15,24,18,20,,,,,1.64,0.86,1.40*1D
$GNGSA,A,3,80,79,68,69,83,,,,,,,,1.64,0.86,1.40*18
$GPGSV,5,1,17,05,40,036,25,10,05,212,,12,73,079,30,13,13,108,*7E
$GPGSV,5,2,17,15,39,138,26,18,32,290,26,20,08,033,22,23,45,210,33*76
$GPGSV,5,3,17,24,33,177,20,25,57,341,29,28,04,293,,29,14,345,21*7D
$GPGSV,5,4,17,36,52,277,,40,86,351,,41,58,082,,49,32,274,*7C
$GPGSV,5,5,17,50,10,089,*4A
$GLGSV,3,1,09,67,14,065,,68,37,113,26,69,27,173,31,73,15,326,15*6A
$GLGSV,3,2,09,79,47,167,21,80,68,300,29,82,00,019,18,83,14,334,14*69
$GLGSV,3,3,09,84,10,282,*59
$GNGLL,0419.76547,S,05539.71444,E,062854.00,A,A*64
$GNRMC,062855.00,A,0419.76540,S,05539.71467,E,0.638,,270525,,,A*70
$GNVTG,,T,,M,0.638,N,1.181,K,A*39
$GNGGA,062855.00,0419.76540,S,05539.71467,E,1,12,0.86,5.3,M,-47.6,M,,*75
$GNGSA,A,3,12,25,05,23,15,24,18,20,,,,,1.64,0.86,1.40*1D
$GNGSA,A,3,80,79,68,69,83,,,,,,,,1.64,0.86,1.40*18
$GPGSV,5,1,17,05,40,036,25,10,05,212,,12,73,079,30,13,13,108,*7E
$GPGSV,5,2,17,15,39,138,25,18,32,290,26,20,08,033,22,23,45,210,33*75
$GPGSV,5,3,17,24,33,177,21,25,58,341,29,28,04,293,,29,14,345,20*72
$GPGSV,5,4,17,36,52,277,,40,86,351,,41,58,082,,49,32,274,*7C
$GPGSV,5,5,17,50,10,089,*4A
$GLGSV,3,1,09,67,14,065,,68,37,113,23,69,27,173,32,73,15,326,16*6F
$GLGSV,3,2,09,79,47,167,19,80,68,300,29,82,00,019,15,83,14,334,12*69
$GLGSV,3,3,09,84,10,282,*59
$GNGLL,0419.76540,S,05539.71467,E,062855.00,A,A*63
$GNRMC,062856.00,A,0419.76537,S,05539.71485,E,0.305,,270525,,,A*74
$GNVTG,,T,,M,0.305,N,0.564,K,A*3C
$GNGGA,062856.00,0419.76537,S,05539.71485,E,1,12,0.86,5.1,M,-47.6,M,,*78
$GNGSA,A,3,12,25,05,23,15,24,18,20,,,,,1.64,0.86,1.40*1D
$GNGSA,A,3,80,79,68,69,83,,,,,,,,1.64,0.86,1.40*18
$GPGSV,5,1,17,05,40,036,22,10,05,212,,12,73,079,31,13,13,108,05*7D
$GPGSV,5,2,17,15,39,138,26,18,32,290,26,20,08,033,22,23,45,210,33*76
$GPGSV,5,3,17,24,33,177,20,25,58,341,29,28,04,293,,29,14,345,19*79
$GPGSV,5,4,17,36,52,277,,40,86,351,,41,58,082,,49,32,274,*7C
$GPGSV,5,5,17,50,10,089,*4A
$GLGSV,3,1,09,67,14,065,,68,37,113,19,69,27,173,32,73,15,326,17*67
$GLGSV,3,2,09,79,47,167,17,80,68,300,29,82,00,019,15,83,14,334,14*61
$GLGSV,3,3,09,84,10,282,*59
$GNGLL,0419.76537,S,05539.71485,E,062856.00,A,A*6C
$GNRMC,062857.00,A,0419.76534,S,05539.71494,E,0.090,,270525,,,A*79
$GNVTG,,T,,M,0.090,N,0.166,K,A*35
$GNGGA,062857.00,0419.76534,S,05539.71494,E,1,12,0.86,4.9,M,-47.6,M,,*73
$GNGSA,A,3,12,25,05,23,15,24,18,20,,,,,1.64,0.86,1.40*1D
$GNGSA,A,3,80,79,68,69,83,,,,,,,,1.64,0.86,1.40*18
$GPGSV,5,1,17,05,40,036,21,10,05,212,,12,73,079,31,13,13,108,06*7D
$GPGSV,5,2,17,15,39,138,26,18,32,290,27,20,08,033,22,23,45,210,34*70
$GPGSV,5,3,17,24,33,177,17,25,58,341,27,28,04,293,,29,14,345,18*72
$GPGSV,5,4,17,36,52,277,,40,86,351,,41,58,082,,49,32,274,*7C
$GPGSV,5,5,17,50,10,089,*4A
$GLGSV,3,1,09,67,14,065,,68,37,113,19,69,27,173,32,73,15,326,18*68
$GLGSV,3,2,09,79,47,167,19,80,68,300,29,82,00,019,17,83,14,334,15*6C
$GLGSV,3,3,09,84,10,282,*59
$GNGLL,0419.76534,S,05539.71494,E,062857.00,A,A*6E
$GNRMC,062858.00,A,0419.76531,S,05539.71500,E,0.018,,270525,,,A*7F
$GNVTG,,T,,M,0.018,N,0.033,K,A*34
$GNGGA,062858.00,0419.76531,S,05539.71500,E,1,12,0.86,5.0,M,-47.6,M,,*7D
$GNGSA,A,3,12,25,05,23,15,24,18,20,,,,,1.64,0.86,1.40*1D
$GNGSA,A,3,80,79,68,69,83,,,,,,,,1.64,0.86,1.40*18
$GPGSV,5,1,17,05,40,036,20,10,05,212,,12,73,079,33,13,13,108,06*7E
$GPGSV,5,2,17,15,39,138,25,18,32,290,26,20,08,033,23,23,45,210,33*74
$GPGSV,5,3,17,24,33,177,16,25,58,341,25,28,05,292,,29,14,345,15*7C
$GPGSV,5,4,17,36,52,277,,40,86,351,,41,58,082,,49,32,274,*7C
$GPGSV,5,5,17,50,10,089,*4A
$GLGSV,3,1,09,67,14,065,,68,37,113,22,69,27,173,34,73,15,326,17*69
$GLGSV,3,2,09,79,47,167,23,80,68,300,29,82,00,019,19,83,14,334,14*6A
$GLGSV,3,3,09,84,10,282,*59
$GNGLL,0419.76531,S,05539.71500,E,062858.00,A,A*68
$GNRMC,062859.00,A,0419.76526,S,05539.71499,E,0.215,,270525,,,A*76
$GNVTG,,T,,M,0.215,N,0.399,K,A*38
$GNGGA,062859.00,0419.76526,S,05539.71499,E,1,12,0.86,5.1,M,-47.6,M,,*7A
$GNGSA,A,3,12,25,05,23,15,24,18,20,,,,,1.64,0.86,1.40*1D
$GNGSA,A,3,80,79,68,69,83,,,,,,,,1.64,0.86,1.40*18
$GPGSV,5,1,17,05,40,036,20,10,05,212,,12,73,079,34,13,13,108,06*79
$GPGSV,5,2,17,15,39,138,23,18,32,290,26,20,08,033,22,23,45,210,33*73
$GPGSV,5,3,17,24,33,177,18,25,58,341,27,28,05,292,,29,14,346,17*71
$GPGSV,5,4,17,36,52,277,,40,86,351,,41,58,082,,49,32,274,*7C
$GPGSV,5,5,17,50,10,089,*4A
$GLGSV,3,1,09,67,14,065,,68,37,113,23,69,27,173,33,73,15,326,17*6F
$GLGSV,3,2,09,79,47,167,25,80,68,300,28,82,00,019,21,83,14,334,16*64
$GLGSV,3,3,09,84,10,282,*59
$GNGLL,0419.76526,S,05539.71499,E,062859.00,A,A*6E
$GNRMC,062900.00,A,0419.76524,S,05539.71503,E,0.197,,270525,,,A*72
$GNVTG,,T,,M,0.197,N,0.365,K,A*32
$GNGGA,062900.00,0419.76524,S,05539.71503,E,1,12,0.86,4.9,M,-47.6,M,,*7E
$GNGSA,A,3,12,25,05,23,15,24,18,20,,,,,1.64,0.86,1.40*1D
$GNGSA,A,3,80,79,68,69,83,,,,,,,,1.64,0.86,1.40*18
$GPGSV,5,1,17,05,40,036,23,10,05,212,,12,73,079,34,13,13,108,06*7A
$GPGSV,5,2,17,15,39,138,19,18,32,290,26,20,08,033,21,23,45,210,33*79
$GPGSV,5,3,17,24,33,177,20,25,58,341,28,28,05,292,,29,14,346,17*75
$GPGSV,5,4,17,36,52,277,,40,86,351,,41,58,082,,49,32,274,*7C
$GPGSV,5,5,17,50,10,089,*4A
$GLGSV,3,1,09,67,14,065,,68,37,113,24,69,27,173,33,73,15,326,17*68
$GLGSV,3,2,09,79,47,167,23,80,68,300,28,82,00,019,22,83,14,334,15*62
$GLGSV,3,3,09,84,10,282,*59
$GNGLL,0419.76524,S,05539.71503,E,062900.00,A,A*63
$GNRMC,062901.00,A,0419.76528,S,05539.71501,E,0.128,,270525,,,A*79
$GNVTG,,T,,M,0.128,N,0.237,K,A*30
$GNGGA,062901.00,0419.76528,S,05539.71501,E,1,12,0.86,5.2,M,-47.6,M,,*7B
$GNGSA,A,3,12,25,05,23,15,24,18,20,,,,,1.64,0.86,1.40*1D
$GNGSA,A,3,80,79,68,69,83,,,,,,,,1.64,0.86,1.40*18
$GPGSV,5,1,17,05,40,036,21,10,05,212,,12,73,079,34,13,13,108,06*78
$GPGSV,5,2,17,15,39,138,17,18,32,290,25,20,08,033,19,23,45,210,33*7F
$GPGSV,5,3,17,24,33,177,22,25,58,341,26,28,05,292,,29,14,346,18*76
$GPGSV,5,4,17,36,52,277,,40,86,351,,41,58,082,,49,32,274,*7C
$GPGSV,5,5,17,50,10,089,*4A
$GLGSV,3,1,09,67,14,065,,68,37,113,24,69,27,173,34,73,15,326,19*61
$GLGSV,3,2,09,79,47,167,23,80,68,300,28,82,00,019,22,83,14,334,14*63
$GLGSV,3,3,09,84,10,282,*59
$GNGLL,0419.76528,S,05539.71501,E,062901.00,A,A*6C
$GNRMC,062902.00,A,0419.76523,S,05539.71497,E,0.094,,270525,,,A*79
$GNVTG,,T,,M,0.094,N,0.175,K,A*33
$GNGGA,062902.00,0419.76523,S,05539.71497,E,1,12,0.86,4.8,M,-47.6,M,,*76
$GNGSA,A,3,12,25,05,23,15,24,18,20,,,,,1.64,0.86,1.40*1D
$GNGSA,A,3,80,79,68,69,83,,,,,,,,1.64,0.86,1.40*18
$GPGSV,5,1,17,05,40,036,20,10,05,212,,12,73,079,35,13,13,108,*7E
$GPGSV,5,2,17,15,39,138,20,18,32,290,25,20,08,033,19,23,45,210,32*7A
$GPGSV,5,3,17,24,33,177,20,25,58,341,26,28,05,292,,29,14,346,18*74
$GPGSV,5,4,17,36,52,277,,40,86,351,,41,58,082,,49,32,274,*7C
$GPGSV,5,5,17,50,10,089,*4A
$GLGSV,3,1,09,67,14,065,,68,37,113,20,69,27,173,34,73,15,326,18*64
$GLGSV,3,2,09,79,47,167,26,80,68,300,28,82,00,019,21,83,14,334,15*64
$GLGSV,3,3,09,84,10,282,*59
$GNGLL,0419.76523,S,05539.71497,E,062902.00,A,A*6A
$GNRMC,062903.00,A,0419.76526,S,05539.71495,E,0.083,,270525,,,A*79
$GNVTG,,T,,M,0.083,N,0.154,K,A*36
$GNGGA,062903.00,0419.76526,S,05539.71495,E,1,12,0.86,4.7,M,-47.6,M,,*7F
$GNGSA,A,3,12,25,05,23,15,24,18,20,,,,,1.64,0.86,1.40*1D
$GNGSA,A,3,80,79,68,69,83,,,,,,,,1.64,0.86,1.40*18
$GPGSV,5,1,17,05,40,036,21,10,05,212,,12,73,079,36,13,13,108,*7C
$GPGSV,5,2,17,15,39,138,23,18,32,290,27,20,08,033,19,23,45,210,32*7B
$GPGSV,5,3,17,24,33,177,23,25,58,341,24,28,05,292,,29,14,346,17*7A
$GPGSV,5,4,17,36,52,277,,40,86,351,,41,58,082,,49,32,274,*7C
$GPGSV,5,5,17,50,10,089,*4A
$GLGSV,3,1,09,67,14,065,,68,37,113,21,69,27,173,34,73,15,326,18*65
$GLGSV,3,2,09,79,47,167,26,80,68,300,28,82,00,019,19,83,14,334,17*6D
$GLGSV,3,3,09,84,10,282,*59
$GNGLL,0419.76526,S,05539.71495,E,062903.00,A,A*6C
$GNRMC,062904.00,A,0419.76530,S,05539.71492,E,0.106,,270525,,,A*72
$GNVTG,,T,,M,0.106,N,0.197,K,A*35
$GNGGA,062904.00,0419.76530,S,05539.71492,E,1,12,0.86,4.7,M,-47.6,M,,*78
$GNGSA,A,3,12,25,05,23,15,24,18,20,,,,,1.64,0.86,1.40*1D
$GNGSA,A,3,80,79,68,69,83,,,,,,,,1.64,0.86,1.40*18
$GPGSV,5,1,17,05,40,036,23,10,05,212,,12,73,079,36,13,13,108,*7E
$GPGSV,5,2,17,15,39,138,23,18,32,290,27,20,08,033,20,23,45,210,32*71
$GPGSV,5,3,17,24,33,177,23,25,58,341,23,28,05,292,19,29,14,346,17*75
$GPGSV,5,4,17,36,52,277,,40,86,351,,41,58,082,,49,32,274,*7C
$GPGSV,5,5,17,50,10,089,*4A
$GLGSV,3,1,09,67,14,065,,68,37,113,19,69,27,173,34,73,15,326,16*60
$GLGSV,3,2,09,79,47,167,26,80,68,300,30,82,00,019,15,83,14,334,17*68
$GLGSV,3,3,09,84,10,282,*59
$GNGLL,0419.76530,S,05539.71492,E,062904.00,A,A*6B
$GNRMC,062905.00,A,0419.76529,S,05539.71491,E,0.018,,270525,,,A*76
$GNVTG,,T,,M,0.018,N,0.033,K,A*34
$GNGGA,062905.00,0419.76529,S,05539.71491,E,1,12,0.86,4.6,M,-47.6,M,,*73
$GNGSA,A,3,12,25,05,23,15,24,18,20,,,,,1.64,0.86,1.40*1D
$GNGSA,A,3,80,79,68,69,83,,,,,,,,1.64,0.86,1.40*18
$GPGSV,5,1,17,05,40,036,24,10,05,212,,12,73,079,35,13,13,108,*7A
$GPGSV,5,2,17,15,39,138,23,18,32,290,28,20,08,033,21,23,45,210,33*7E
$GPGSV,5,3,17,24,33,177,25,25,58,341,23,28,05,292,19,29,14,346,16*72
$GPGSV,5,4,17,36,52,277,,40,86,351,,41,58,082,,49,32,274,*7C
$GPGSV,5,5,17,50,10,089,*4A
$GLGSV,3,1,09,67,14,065,,68,37,113,17,69,27,173,34,73,15,326,14*6C
$GLGSV,3,2,09,79,47,167,25,80,68,300,30,82,00,019,13,83,14,334,16*6C
$GLGSV,3,3,09,84,10,282,*59
$GNGLL,0419.76529,S,05539.71491,E,062905.00,A,A*61
$GNRMC,062906.00,A,0419.76531,S,05539.71488,E,0.101,,270525,,,A*7D
$GNVTG,,T,,M,0.101,N,0.188,K,A*3C
$GNGGA,062906.00,0419.76531,S,05539.71488,E,1,12,0.86,4.5,M,-47.6,M,,*72
$GNGSA,A,3,12,25,05,23,15,24,18,20,,,,,1.64,0.86,1.40*1D
$GNGSA,A,3,80,79,68,69,83,,,,,,,,1.64,0.86,1.40*18
$GPGSV,5,1,17,05,40,036,25,10,05,212,,12,73,079,35,13,13,108,*7B
$GPGSV,5,2,17,15,39,138,22,18,32,290,26,20,08,033,20,23,45,210,33*70
$GPGSV,5,3,17,24,33,177,27,25,58,341,24,28,05,292,17,29,14,346,14*7B
$GPGSV,5,4,17,36,52,277,,40,86,351,,41,58,082,,49,32,274,*7C
$GPGSV,5,5,17,50,10,089,*4A
$GLGSV,3,1,09,67,14,065,,68,37,113,20,69,27,173,34,73,15,326,13*6F
$GLGSV,3,2,09,79,47,167,26,80,68,300,28,82,00,019,09,83,14,334,14*6F
$GLGSV,3,3,09,84,10,282,*59
$GNGLL,0419.76531,S,05539.71488,E,062906.00,A,A*63
$GNRMC,062907.00,A,0419.76534,S,05539.71480,E,0.121,,270525,,,A*73
$GNVTG,,T,,M,0.121,N,0.225,K,A*3A
$GNGGA,062907.00,0419.76534,S,05539.71480,E,1,12,0.86,4.5,M,-47.6,M,,*7E
$GNGSA,A,3,12,25,05,23,15,24,18,20,,,,,1.64,0.86,1.40*1D
$GNGSA,A,3,80,79,68,69,83,,,,,,,,1.64,0.86,1.40*18
$GPGSV,5,1,17,05,40,036,23,10,05,212,,12,73,079,35,13,13,108,*7D
$GPGSV,5,2,17,15,39,138,22,18,32,290,25,20,08,033,20,23,45,210,33*73
$GPGSV,5,3,17,24,33,177,27,25,58,341,25,28,05,292,15,29,14,346,17*7B
$GPGSV,5,4,17,36,52,277,,40,86,351,,41,58,082,,49,32,274,*7C
$GPGSV,5,5,17,50,10,089,*4A
$GLGSV,3,1,09,67,14,065,,68,37,113,25,69,27,173,33,73,15,326,13*6D
$GLGSV,3,2,09,79,47,167,25,80,68,300,27,82,00,019,,83,14,334,12*6C
$GLGSV,3,3,09,84,10,282,*59
$GNGLL,0419.76534,S,05539.71480,E,062907.00,A,A*6F
$GNRMC,062908.00,A,0419.76537,S,05539.71477,E,0.092,,270525,,,A*7E
$GNVTG,,T,,M,0.092,N,0.170,K,A*30
$GNGGA,062908.00,0419.76537,S,05539.71477,E,1,12,0.86,4.5,M,-47.6,M,,*7A
$GNGSA,A,3,12,25,05,23,15,24,18,20,,,,,1.64,0.86,1.40*1D
$GNGSA,A,3,80,79,68,69,83,,,,,,,,1.64,0.86,1.40*18
$GPGSV,5,1,17,05,40,036,24,10,05,212,,12,73,079,35,13,13,108,*7A
$GPGSV,5,2,17,15,39,138,23,18,32,290,29,20,08,033,20,23,45,210,32*7F
$GPGSV,5,3,17,24,33,177,26,25,58,341,25,28,05,292,13,29,14,346,18*73
$GPGSV,5,4,17,36,52,277,,40,86,351,,41,58,082,,49,32,274,*7C
$GPGSV,5,5,17,50,10,089,*4A
$GLGSV,3,1,09,67,14,065,,68,37,113,25,69,27,173,34,73,15,326,13*6A
$GLGSV,3,2,09,79,47,167,22,80,68,300,27,82,00,019,,83,14,334,12*6B
$GLGSV,3,3,09,84,10,282,*59
$GNGLL,0419.76537,S,05539.71477,E,062908.00,A,A*6B
$GNRMC,062909.00,A,0419.76544,S,05539.71462,E,0.142,,270525,,,A*73
$GNVTG,,T,,M,0.142,N,0.262,K,A*3C
$GNGGA,062909.00,0419.76544,S,05539.71462,E,1,12,0.86,4.7,M,-47.6,M,,*79
$GNGSA,A,3,12,25,05,23,15,24,18,20,,,,,1.64,0.86,1.40*1D
$GNGSA,A,3,80,79,68,69,83,,,,,,,,1.64,0.86,1.40*18
$GPGSV,5,1,17,05,40,036,24,10,05,212,,12,73,079,37,13,13,108,15*7C
$GPGSV,5,2,17,15,39,138,22,18,32,290,29,20,08,033,20,23,45,210,31*7D
$GPGSV,5,3,17,24,33,177,27,25,58,341,25,28,05,292,13,29,14,346,20*79
$GPGSV,5,4,17,36,52,277,,40,86,351,,41,58,082,,49,32,274,*7C
$GPGSV,5,5,17,50,10,089,*4A
$GLGSV,3,1,09,67,14,065,,68,37,113,27,69,27,173,34,73,15,326,16*6D
$GLGSV,3,2,09,79,47,167,22,80,68,300,29,82,00,019,,83,14,334,14*63
$GLGSV,3,3,09,84,10,282,*59
$GNGLL,0419.76544,S,05539.71462,E,062909.00,A,A*6A
$GNRMC,062910.00,A,0419.76541,S,05539.71451,E,0.062,,270525,,,A*7D
$GNVTG,,T,,M,0.062,N,0.115,K,A*3C
$GNGGA,062910.00,0419.76541,S,05539.71451,E,1,12,0.86,4.5,M,-47.6,M,,*76
$GNGSA,A,3,12,25,05,23,15,24,18,20,,,,,1.64,0.86,1.40*1D
$GNGSA,A,3,80,79,68,69,83,,,,,,,,1.64,0.86,1.40*18
$GPGSV,5,1,17,05,40,036,23,10,05,212,,12,73,079,36,13,13,108,15*7A
$GPGSV,5,2,17,15,39,138,20,18,32,290,28,20,08,033,20,23,45,210,32*7D
$GPGSV,5,3,17,24,33,177,27,25,58,341,24,28,05,292,12,29,14,346,20*79
$GPGSV,5,4,17,36,52,277,,40,86,351,,41,58,082,,49,32,274,*7C
$GPGSV,5,5,17,50,10,089,*4A
$GLGSV,3,1,09,67,14,065,,68,37,113,27,69,27,173,33,73,15,326,16*6A
$GLGSV,3,2,09,79,47,167,30,80,68,300,29,82,00,019,,83,14,334,16*62
$GLGSV,3,3,09,84,10,282,*59
$GNGLL,0419.76541,S,05539.71451,E,062910.00,A,A*67
$GNRMC,062911.00,A,0419.76540,S,05539.71433,E,0.062,,270525,,,A*79
$GNVTG,,T,,M,0.062,N,0.115,K,A*3C
$GNGGA,062911.00,0419.76540,S,05539.71433,E,1,12,0.86,4.4,M,-47.6,M,,*73
$GNGSA,A,3,12,25,05,23,15,24,18,20,,,,,1.64,0.86,1.40*1D
$GNGSA,A,3,80,79,68,69,83,,,,,,,,1.64,0.86,1.40*18
$GPGSV,5,1,17,05,40,036,23,10,05,212,,12,73,079,36,13,13,108,13*7C
$GPGSV,5,2,17,15,39,138,16,18,32,290,27,20,08,033,20,23,45,210,32*77
$GPGSV,5,3,17,24,33,177,28,25,58,341,21,28,05,292,12,29,14,346,18*78
$GPGSV,5,4,17,36,52,277,,40,86,351,,41,58,082,,49,32,274,*7C
$GPGSV,5,5,17,50,10,089,*4A
$GLGSV,3,1,09,67,14,065,,68,37,113,27,69,27,173,34,73,15,326,16*6D
$GLGSV,3,2,09,79,47,167,30,80,68,300,30,82,00,019,,83,14,334,16*6A
$GLGSV,3,3,09,84,10,282,*59
$GNGLL,0419.76540,S,05539.71433,E,062911.00,A,A*63
$GNRMC,062912.00,A,0419.76546,S,05539.71422,E,0.251,,270525,,,A*7E
$GNVTG,,T,,M,0.251,N,0.464,K,A*3D
$GNGGA,062912.00,0419.76546,S,05539.71422,E,1,12,0.93,4.4,M,-47.6,M,,*72
$GNGSA,A,3,12,25,05,23,15,24,18,20,,,,,1.68,0.93,1.40*15
$GNGSA,A,3,80,79,68,69,83,,,,,,,,1.68,0.93,1.40*10
$GPGSV,5,1,17,05,40,036,24,10,05,212,,12,73,079,36,13,13,108,12*7A
$GPGSV,5,2,17,15,39,138,23,18,32,290,27,20,08,033,21,23,45,210,32*70
$GPGSV,5,3,17,24,33,177,26,25,58,341,23,28,05,292,11,29,14,346,17*78
$GPGSV,5,4,17,36,52,277,,40,86,351,,41,58,082,,49,32,274,*7C
$GPGSV,5,5,17,50,10,089,*4A
$GLGSV,3,1,09,67,14,065,,68,37,113,26,69,27,173,34,73,15,326,19*63
$GLGSV,3,2,09,79,47,167,29,80,68,300,28,82,00,019,,83,14,334,16*6B
$GLGSV,3,3,09,84,10,282,*59
$GNGLL,0419.76546,S,05539.71422,E,062912.00,A,A*66
$GNRMC,062913.00,A,0419.76549,S,05539.71407,E,0.108,,270525,,,A*78
$GNVTG,,T,,M,0.108,N,0.201,K,A*37
$GNGGA,062913.00,0419.76549,S,05539.71407,E,1,12,0.86,4.4,M,-47.6,M,,*7F
$GNGSA,A,3,12,25,05,23,15,24,18,20,,,,,1.64,0.86,1.40*1D
$GNGSA,A,3,80,79,68,69,83,,,,,,,,1.64,0.86,1.40*18
$GPGSV,5,1,17,05,40,036,25,10,05,212,,12,73,079,37,13,13,108,14*7C
$GPGSV,5,2,17,15,39,138,25,18,32,290,27,20,08,033,21,23,45,210,32*76
$GPGSV,5,3,17,24,33,177,24,25,58,341,20,28,05,292,13,29,14,346,14*78
$GPGSV,5,4,17,36,52,277,,40,86,351,,41,58,082,,49,32,274,*7C
$GPGSV,5,5,17,50,10,089,*4A
$GLGSV,3,1,09,67,14,065,,68,37,113,24,69,27,173,34,73,15,326,20*6B
$GLGSV,3,2,09,79,47,167,30,80,68,300,29,82,00,019,,83,14,334,13*67
$GLGSV,3,3,09,84,10,282,*59
$GNGLL,0419.76549,S,05539.71407,E,062913.00,A,A*6F
$GNRMC,062914.00,A,0419.76551,S,05539.71397,E,0.054,,270525,,,A*70
$GNVTG,,T,,M,0.054,N,0.101,K,A*3C
$GNGGA,062914.00,0419.76551,S,05539.71397,E,1,12,0.83,4.4,M,-47.6,M,,*7A
$GNGSA,A,3,12,25,05,23,15,24,18,13,20,,,,1.55,0.83,1.31*1E
$GNGSA,A,3,80,79,68,69,83,,,,,,,,1.55,0.83,1.31*19
$GPGSV,5,1,17,05,40,036,23,10,05,212,,12,73,079,34,13,13,108,13*7E
$GPGSV,5,2,17,15,39,138,25,18,32,290,27,20,08,033,21,23,45,210,32*76
$GPGSV,5,3,17,24,33,177,26,25,58,341,22,28,05,292,14,29,14,346,10*7B
$GPGSV,5,4,17,36,52,277,,40,86,351,,41,58,082,,49,32,274,*7C
$GPGSV,5,5,17,50,10,089,*4A
$GLGSV,3,1,09,67,14,065,,68,37,113,25,69,27,173,34,73,15,326,18*61
$GLGSV,3,2,09,79,47,167,31,80,68,300,30,82,00,019,22,83,14,334,13*6E
$GLGSV,3,3,09,84,10,282,*59
$GNGLL,0419.76551,S,05539.71397,E,062914.00,A,A*6F
$GNRMC,062915.00,A,0419.76563,S,05539.71389,E,0.143,,270525,,,A*78
$GNVTG,,T,,M,0.143,N,0.265,K,A*3A
$GNGGA,062915.00,0419.76563,S,05539.71389,E,1,12,0.87,4.9,M,-47.6,M,,*7C
$GNGSA,A,3,12,25,05,23,15,24,18,13,20,,,,1.59,0.87,1.33*14
$GNGSA,A,3,80,79,68,69,83,,,,,,,,1.59,0.87,1.33*13
$GPGSV,5,1,17,05,40,036,22,10,05,212,,12,73,079,33,13,13,108,11*7A
$GPGSV,5,2,17,15,39,138,26,18,32,290,31,20,08,033,22,23,45,210,31*72
$GPGSV,5,3,17,24,33,177,26,25,58,341,23,28,05,292,15,29,14,346,09*73
$GPGSV,5,4,17,36,52,277,,40,86,351,,41,58,082,,49,32,274,*7C
$GPGSV,5,5,17,50,10,089,*4A
$GLGSV,3,1,09,67,14,065,,68,37,113,25,69,27,173,34,73,15,326,15*6C
$GLGSV,3,2,09,79,47,167,32,80,68,300,29,82,00,019,22,83,14,334,08*6F
$GLGSV,3,3,09,84,10,282,*59
$GNGLL,0419.76563,S,05539.71389,E,062915.00,A,A*60
$GNRMC,062916.00,A,0419.76577,S,05539.71380,E,0.229,,270525,,,A*78
$GNVTG,,T,,M,0.229,N,0.423,K,A*31
$GNGGA,062916.00,0419.76577,S,05539.71380,E,1,12,0.80,5.3,M,-47.6,M,,*7F
$GNGSA,A,3,12,25,05,23,15,24,18,13,20,,,,1.42,0.80,1.17*1F
$GNGSA,A,3,80,79,68,69,83,,,,,,,,1.42,0.80,1.17*18
$GPGSV,5,1,17,05,40,036,19,10,05,212,,12,73,079,33,13,13,108,10*73
$GPGSV,5,2,17,15,39,138,27,18,32,290,30,20,08,033,22,23,45,210,30*73
$GPGSV,5,3,17,24,33,177,24,25,58,341,23,28,05,292,16,29,14,346,12*78
$GPGSV,5,4,17,36,52,277,,40,86,351,,41,58,082,,49,32,274,*7C
$GPGSV,5,5,17,50,10,089,*4A
$GLGSV,3,1,09,67,14,065,,68,37,113,26,69,27,173,34,73,15,326,16*6C
$GLGSV,3,2,09,79,47,167,32,80,68,300,28,82,00,019,21,83,14,334,08*6D
$GLGSV,3,3,09,84,10,282,*59
$GNGLL,0419.76577,S,05539.71380,E,062916.00,A,A*6F
$GNRMC,062917.00,A,0419.76586,S,05539.71367,E,0.186,,270525,,,A*78
$GNVTG,,T,,M,0.186,N,0.344,K,A*31
$GNGGA,062917.00,0419.76586,S,05539.71367,E,1,12,0.80,5.7,M,-47.6,M,,*7D
$GNGSA,A,3,12,25,05,23,15,24,18,13,20,,,,1.42,0.80,1.17*1F
$GNGSA,A,3,80,79,68,69,83,,,,,,,,1.42,0.80,1.17*18
$GPGSV,5,1,17,05,40,036,18,10,05,212,,12,73,079,34,13,13,108,13*76
$GPGSV,5,2,17,15,39,138,30,18,32,290,29,20,08,033,23,23,45,210,29*74
$GPGSV,5,3,17,24,33,177,24,25,58,341,21,28,05,292,17,29,14,346,13*7A
$GPGSV,5,4,17,36,52,277,,40,86,351,,41,58,082,,49,32,274,*7C
$GPGSV,5,5,17,50,10,089,*4A
$GLGSV,3,1,09,67,14,065,,68,37,113,26,69,27,173,34,73,15,326,*6B
$GLGSV,3,2,09,79,47,167,31,80,68,300,27,82,00,019,22,83,14,334,11*6A
$GLGSV,3,3,09,84,10,282,*59
$GNGLL,0419.76586,S,05539.71367,E,062917.00,A,A*69
$GNRMC,062918.00,A,0419.76586,S,05539.71363,E,0.192,,270525,,,A*76
$GNVTG,,T,,M,0.192,N,0.356,K,A*37
$GNGGA,062918.00,0419.76586,S,05539.71363,E,1,12,0.80,5.7,M,-47.6,M,,*76
$GNGSA,A,3,12,25,05,23,15,24,18,13,20,,,,1.42,0.80,1.17*1F
$GNGSA,A,3,80,79,68,69,83,,,,,,,,1.42,0.80,1.17*18
$GPGSV,5,1,17,05,40,036,21,10,05,212,,12,73,079,34,13,13,108,14*7B
$GPGSV,5,2,17,15,39,138,30,18,32,290,30,20,08,033,23,23,45,210,29*7C
$GPGSV,5,3,17,24,33,177,24,25,58,341,20,28,05,292,18,29,14,346,14*73
$GPGSV,5,4,17,36,52,277,,40,86,351,,41,58,082,,49,32,274,*7C
$GPGSV,5,5,17,50,10,089,*4A
$GLGSV,3,1,09,67,14,065,,68,37,113,26,69,27,173,34,73,15,326,*6B
$GLGSV,3,2,09,79,47,167,29,80,68,300,27,82,00,019,22,83,14,334,09*6A
$GLGSV,3,3,09,84,10,282,*59
$GNGLL,0419.76586,S,05539.71363,E,062918.00,A,A*62
$GNRMC,062919.00,A,0419.76597,S,05539.71351,E,0.064,,270525,,,A*7E
$GNVTG,,T,,M,0.064,N,0.118,K,A*37
$GNGGA,062919.00,0419.76597,S,05539.71351,E,1,12,0.76,6.2,M,-47.6,M,,*79
$GNGSA,A,3,12,25,05,23,15,24,18,13,20,,,,1.39,0.76,1.16*1B
$GNGSA,A,3,80,79,68,69,83,,,,,,,,1.39,0.76,1.16*1C
$GPGSV,5,1,17,05,40,036,22,10,05,212,,12,73,079,34,13,13,108,13*7F
$GPGSV,5,2,17,15,39,138,28,18,32,290,30,20,08,033,23,23,45,210,28*74
$GPGSV,5,3,17,24,33,177,25,25,58,341,17,28,05,292,17,29,14,346,16*7B
$GPGSV,5,4,17,36,52,277,,40,86,351,,41,58,082,,49,32,274,*7C
$GPGSV,5,5,17,50,10,089,*4A
$GLGSV,3,1,09,67,14,065,,68,37,113,26,69,27,173,35,73,15,326,*6A
$GLGSV,3,2,09,79,47,167,28,80,68,300,27,82,00,019,21,83,14,334,13*63
$GLGSV,3,3,09,84,10,282,*59
$GNGLL,0419.76597,S,05539.71351,E,062919.00,A,A*62
$GNRMC,062920.00,A,0419.76608,S,05539.71340,E,0.040,,270525,,,A*77
$GNVTG,,T,,M,0.040,N,0.074,K,A*3A
$GNGGA,062920.00,0419.76608,S,05539.71340,E,1,12,0.76,6.6,M,-47.6,M,,*72
$GNGSA,A,3,12,25,05,23,15,24,18,13,20,,,,1.39,0.76,1.16*1B
$GNGSA,A,3,80,79,68,69,83,,,,,,,,1.39,0.76,1.16*1C
$GPGSV,5,1,17,05,40,036,23,10,05,212,,12,73,079,33,13,13,108,11*7B
$GPGSV,5,2,17,15,39,138,26,18,32,290,30,20,08,033,22,23,45,210,28*7B
$GPGSV,5,3,17,24,33,177,27,25,58,341,15,28,05,292,15,29,14,346,15*7A
$GPGSV,5,4,17,36,52,277,,40,86,351,,41,58,082,,49,32,274,*7C
$GPGSV,5,5,17,50,10,089,*4A
$GLGSV,3,1,09,67,14,065,,68,37,113,26,69,27,173,35,73,15,326,*6A
$GLGSV,3,2,09,79,47,167,30,80,68,300,27,82,00,019,21,83,14,334,10*69
$GLGSV,3,3,09,84,10,282,*59
$GNGLL,0419.76608,S,05539.71340,E,062920.00,A,A*6D
$GNRMC,062921.00,A,0419.76607,S,05539.71328,E,0.065,,270525,,,A*70
$GNVTG,,T,,M,0.065,N,0.120,K,A*3D
$GNGGA,062921.00,0419.76607,S,05539.71328,E,1,12,0.76,6.6,M,-47.6,M,,*72
$GNGSA,A,3,12,25,05,23,15,24,18,13,20,,,,1.39,0.76,1.16*1B
$GNGSA,A,3,80,79,68,69,83,,,,,,,,1.39,0.76,1.16*1C
$GPGSV,5,1,17,05,40,036,24,10,05,212,,12,73,079,32,13,13,108,09*74
$GPGSV,5,2,17,15,39,138,28,18,32,290,29,20,08,033,22,23,45,210,30*74
$GPGSV,5,3,17,24,33,177,29,25,58,341,18,28,05,292,12,29,14,346,14*7F
$GPGSV,5,4,17,36,52,277,,40,86,351,,41,58,082,,49,32,274,*7C
$GPGSV,5,5,17,50,10,089,*4A
$GLGSV,3,1,09,67,14,065,,68,37,113,25,69,27,173,34,73,15,326,*68
$GLGSV,3,2,09,79,47,167,32,80,68,300,27,82,00,019,20,83,14,334,18*62
$GLGSV,3,3,09,84,10,282,*59
$GNGLL,0419.76607,S,05539.71328,E,062921.00,A,A*6D
$GNRMC,062922.00,A,0419.76608,S,05539.71309,E,0.076,,270525,,,A*7D
$GNVTG,,T,,M,0.076,N,0.141,K,A*38
$GNGGA,062922.00,0419.76608,S,05539.71309,E,1,12,0.81,6.7,M,-47.6,M,,*74
$GNGSA,A,3,12,25,05,23,15,24,18,20,,,,,1.48,0.81,1.24*16
$GNGSA,A,3,80,79,68,69,83,,,,,,,,1.48,0.81,1.24*13
$GPGSV,5,1,17,05,40,036,23,10,05,212,,12,73,079,32,13,13,108,08*72
$GPGSV,5,2,17,15,39,138,28,18,32,290,28,20,08,033,21,23,45,210,29*7E
$GPGSV,5,3,17,24,33,177,29,25,58,341,20,28,05,292,15,29,14,346,12*75
$GPGSV,5,4,17,36,52,277,,40,86,351,,41,58,082,,49,32,274,*7C
$GPGSV,5,5,17,50,10,089,*4A
$GLGSV,3,1,09,67,14,065,,68,37,113,26,69,27,173,34,73,15,326,*6B
$GLGSV,3,2,09,79,47,167,32,80,68,300,27,82,00,019,19,83,14,334,15*65
$GLGSV,3,3,09,84,10,282,*59
$GNGLL,0419.76608,S,05539.71309,E,062922.00,A,A*62
$GNRMC,062923.00,A,0419.76606,S,05539.71294,E,0.071,,270525,,,A*70
$GNVTG,,T,,M,0.071,N,0.131,K,A*38
$GNGGA,062923.00,0419.76606,S,05539.71294,E,1,12,0.76,6.7,M,-47.6,M,,*76
$GNGSA,A,3,12,25,05,23,15,24,18,13,20,,,,1.39,0.76,1.16*1B
$GNGSA,A,3,80,79,68,69,83,,,,,,,,1.39,0.76,1.16*1C
$GPGSV,5,1,17,05,40,036,22,10,05,212,,12,73,079,32,13,13,108,11*7B
$GPGSV,5,2,17,15,39,138,27,18,32,290,26,20,08,033,21,23,45,210,30*77
$GPGSV,5,3,17,24,33,177,28,25,58,341,21,28,05,292,,29,14,346,13*70
$GPGSV,5,4,17,36,52,277,,40,86,351,,41,58,082,,49,32,274,*7C
$GPGSV,5,5,17,50,10,089,*4A
$GLGSV,3,1,09,67,14,065,,68,37,113,25,69,27,173,34,73,15,326,*68
$GLGSV,3,2,09,79,47,167,31,80,68,300,27,82,00,019,19,83,14,334,14*67
$GLGSV,3,3,09,84,10,282,*59
$GNGLL,0419.76606,S,05539.71294,E,062923.00,A,A*68
$GNRMC,062924.00,A,0419.76608,S,05539.71277,E,0.109,,270525,,,A*7A
$GNVTG,,T,,M,0.109,N,0.202,K,A*35
$GNGGA,062924.00,0419.76608,S,05539.71277,E,1,12,0.76,6.8,M,-47.6,M,,*7D
$GNGSA,A,3,12,25,05,23,15,24,18,13,20,,,,1.39,0.76,1.16*1B
$GNGSA,A,3,80,79,68,69,83,,,,,,,,1.39,0.76,1.16*1C
$GPGSV,5,1,17,05,40,036,23,10,05,212,,12,73,079,32,13,13,108,13*78
$GPGSV,5,2,17,15,39,138,27,18,32,290,25,20,08,033,22,23,45,210,28*7E
$GPGSV,5,3,17,24,33,177,27,25,58,341,21,28,05,292,,29,14,346,12*7E
$GPGSV,5,4,17,36,52,277,,40,86,351,,41,58,082,,49,32,274,*7C
$GPGSV,5,5,17,50,10,089,*4A
$GLGSV,3,1,09,67,14,065,,68,37,113,26,69,27,173,34,73,15,326,*6B
$GLGSV,3,2,09,79,47,167,30,80,68,300,28,82,00,019,20,83,14,334,13*64
$GLGSV,3,3,09,84,10,282,*59
$GNGLL,0419.76608,S,05539.71277,E,062924.00,A,A*6C
$GNRMC,062925.00,A,0419.76612,S,05539.71268,E,0.086,,270525,,,A*78
$GNVTG,,T,,M,0.086,N,0.159,K,A*3E
$GNGGA,062925.00,0419.76612,S,05539.71268,E,1,12,0.87,7.0,M,-47.6,M,,*7E
$GNGSA,A,3,12,25,05,23,15,24,18,13,20,,,,1.51,0.87,1.24*1A
$GNGSA,A,3,80,79,68,69,83,,,,,,,,1.51,0.87,1.24*1D
$GPGSV,5,1,17,05,40,036,24,10,05,212,,12,73,079,33,13,13,108,14*79
$GPGSV,5,2,17,15,39,138,27,18,32,290,26,20,08,033,22,23,45,210,28*7D
$GPGSV,5,3,17,24,33,177,26,25,58,341,21,28,05,292,,29,14,346,14*79
$GPGSV,5,4,17,36,52,277,,40,86,351,,41,58,082,,49,32,274,*7C
$GPGSV,5,5,17,50,10,089,*4A
$GLGSV,3,1,09,67,14,064,,68,37,113,28,69,27,173,34,73,15,326,*64
$GLGSV,3,2,09,79,47,167,29,80,68,300,28,82,00,019,22,83,14,334,13*6E
$GLGSV,3,3,09,84,10,282,*59
$GNGLL,0419.76612,S,05539.71268,E,062925.00,A,A*68
$GNRMC,062926.00,A,0419.76617,S,05539.71250,E,0.170,,270525,,,A*7D
$GNVTG,,T,,M,0.170,N,0.315,K,A*3C
$GNGGA,062926.00,0419.76617,S,05539.71250,E,1,12,0.81,7.2,M,-47.6,M,,*77
$GNGSA,A,3,12,25,05,23,15,24,18,13,20,,,,1.48,0.81,1.24*14
$GNGSA,A,3,80,79,68,69,83,,,,,,,,1.48,0.81,1.24*13
$GPGSV,5,1,17,05,40,036,24,10,05,212,,12,73,079,32,13,13,108,14*78
$GPGSV,5,2,17,15,39,138,28,18,32,290,28,20,08,033,22,23,45,210,28*7C
$GPGSV,5,3,17,24,33,177,24,25,58,341,21,28,05,292,,29,14,346,*7E
$GPGSV,5,4,17,36,52,277,,40,86,351,,41,58,082,,49,32,274,*7C
$GPGSV,5,5,17,50,10,089,*4A
$GLGSV,3,1,09,67,14,064,,68,37,113,27,69,27,173,35,73,15,326,*6A
$GLGSV,3,2,09,79,47,167,27,80,68,300,28,82,00,019,22,83,14,334,11*62
$GLGSV,3,3,09,84,10,282,*59
$GNGLL,0419.76617,S,05539.71250,E,062926.00,A,A*65
$GNRMC,062927.00,A,0419.76615,S,05539.71239,E,0.074,,270525,,,A*74
$GNVTG,,T,,M,0.074,N,0.136,K,A*3A
$GNGGA,062927.00,0419.76615,S,05539.71239,E,1,12,0.86,7.2,M,-47.6,M,,*7C
$GNGSA,A,3,12,25,05,23,15,24,18,13,20,,,,1.64,0.86,1.39*11
$GNGSA,A,3,80,79,68,69,83,,,,,,,,1.64,0.86,1.39*16
$GPGSV,5,1,17,05,40,036,22,10,05,212,,12,73,079,31,13,13,108,15*7C
$GPGSV,5,2,17,15,39,138,27,18,32,290,28,20,08,033,21,23,45,210,30*79
$GPGSV,5,3,17,24,33,177,23,25,58,341,20,28,05,292,19,29,14,346,*70
$GPGSV,5,4,17,36,52,277,,40,86,351,,41,58,082,,49,32,274,*7C
$GPGSV,5,5,17,50,10,089,*4A
$GLGSV,3,1,09,67,14,064,,68,37,113,29,69,27,172,36,73,15,326,*66
$GLGSV,3,2,09,79,47,167,26,80,68,300,28,82,00,019,21,83,14,334,11*60
$GLGSV,3,3,09,84,10,282,*59
$GNGLL,0419.76615,S,05539.71239,E,062927.00,A,A*69
$GNRMC,062928.00,A,0419.76618,S,05539.71219,E,0.110,,270525,,,A*77
$GNVTG,,T,,M,0.110,N,0.204,K,A*3B
$GNGGA,062928.00,0419.76618,S,05539.71219,E,1,12,0.86,7.4,M,-47.6,M,,*7A
$GNGSA,A,3,12,25,05,23,15,24,18,20,,,,,1.64,0.86,1.39*13
$GNGSA,A,3,80,79,68,69,83,,,,,,,,1.64,0.86,1.39*16
$GPGSV,5,1,17,05,40,036,20,10,05,212,,12,73,079,30,13,13,108,15*7F
$GPGSV,5,2,17,15,39,138,25,18,32,290,29,20,08,033,20,23,45,210,29*73
$GPGSV,5,3,17,24,33,177,23,25,58,341,24,28,05,292,20,29,14,346,*7E
$GPGSV,5,4,17,36,52,277,,40,86,351,,41,58,082,,49,32,274,*7C
$GPGSV,5,5,17,50,10,089,*4A
$GLGSV,3,1,09,67,14,064,,68,37,113,30,69,27,172,35,73,15,326,*6D
$GLGSV,3,2,09,79,47,167,29,80,68,300,30,82,00,019,22,83,14,334,12*66
$GLGSV,3,3,09,84,10,282,*59
$GNGLL,0419.76618,S,05539.71219,E,062928.00,A,A*69
$GNRMC,062929.00,A,0419.76620,S,05539.71206,E,0.078,,270525,,,A*7C
$GNVTG,,T,,M,0.078,N,0.144,K,A*33
$GNGGA,062929.00,0419.76620,S,05539.71206,E,1,12,0.86,7.5,M,-47.6,M,,*7F
$GNGSA,A,3,12,25,05,23,15,24,18,20,,,,,1.64,0.86,1.39*13
$GNGSA,A,3,80,79,68,69,83,,,,,,,,1.64,0.86,1.39*16
$GPGSV,5,1,17,05,40,036,20,10,05,212,,12,73,079,29,13,13,108,15*77
$GPGSV,5,2,17,15,39,138,23,18,32,290,29,20,08,033,19,23,45,210,28*7E
$GPGSV,5,3,17,24,33,177,25,25,58,341,23,28,05,292,19,29,14,346,*75
$GPGSV,5,4,17,36,52,277,,40,86,351,,41,58,082,,49,32,274,*7C
$GPGSV,5,5,17,50,10,089,*4A
$GLGSV,3,1,09,67,14,064,,68,37,113,30,69,27,172,36,73,15,326,*6E
$GLGSV,3,2,09,79,47,167,30,80,68,300,29,82,00,019,22,83,14,334,11*65
$GLGSV,3,3,09,84,10,282,*59
$GNGLL,0419.76620,S,05539.71206,E,062929.00,A,A*6D
$GNRMC,062930.00,A,0419.76619,S,05539.71197,E,0.282,,270525,,,A*72
$GNVTG,,T,,M,0.282,N,0.523,K,A*31
$GNGGA,062930.00,0419.76619,S,05539.71197,E,1,12,0.86,7.7,M,-47.6,M,,*74
$GNGSA,A,3,12,25,05,23,15,24,18,20,,,,,1.64,0.86,1.39*13
$GNGSA,A,3,80,79,68,69,,,,,,,,,1.64,0.86,1.39*1D
$GPGSV,5,1,17,05,40,036,20,10,05,212,,12,73,079,30,13,13,108,15*7F
$GPGSV,5,2,17,15,39,138,19,18,32,290,29,20,08,033,19,23,45,210,29*76
$GPGSV,5,3,17,24,33,177,26,25,58,341,21,28,05,292,18,29,14,346,*75
$GPGSV,5,4,17,36,52,277,,40,86,351,,41,58,082,,49,32,274,*7C
$GPGSV,5,5,17,50,10,089,*4A
$GLGSV,3,1,09,67,14,064,,68,37,113,29,69,27,172,36,73,15,326,*66
$GLGSV,3,2,09,79,47,167,28,80,68,300,27,82,00,019,22,83,14,334,10*63
$GLGSV,3,3,09,84,10,282,*59
$GNGLL,0419.76619,S,05539.71197,E,062930.00,A,A*64
$GNRMC,062931.00,A,0419.76623,S,05539.71197,E,0.120,,270525,,,A*71
$GNVTG,,T,,M,0.120,N,0.222,K,A*3C
$GNGGA,062931.00,0419.76623,S,05539.71197,E,1,12,0.86,8.0,M,-47.6,M,,*74
$GNGSA,A,3,12,25,05,23,15,24,18,20,,,,,1.64,0.86,1.39*13
$GNGSA,A,3,80,79,68,69,83,,,,,,,,1.64,0.86,1.39*16
$GPGSV,5,1,17,05,40,036,22,10,05,212,,12,73,079,30,13,13,108,15*7D
$GPGSV,5,2,17,15,39,138,22,18,32,290,29,20,08,033,18,23,45,210,27*71
$GPGSV,5,3,17,24,33,177,26,25,58,341,21,28,05,292,19,29,14,346,*74
$GPGSV,5,4,17,36,52,277,,40,86,351,,41,58,082,,49,32,274,*7C
$GPGSV,5,5,17,50,10,089,*4A
$GLGSV,3,1,09,67,14,064,,68,37,113,27,69,27,172,35,73,15,326,*6B
$GLGSV,3,2,09,79,47,167,27,80,68,300,27,82,00,019,21,83,14,334,11*6E
$GLGSV,3,3,09,84,10,282,*59
$GNGLL,0419.76623,S,05539.71197,E,062931.00,A,A*6C
$GNRMC,062932.00,A,0419.76626,S,05539.71199,E,0.056,,270525,,,A*79
$GNVTG,,T,,M,0.056,N,0.103,K,A*3C
$GNGGA,062932.00,0419.76626,S,05539.71199,E,1,12,0.86,8.3,M,-47.6,M,,*7F
$GNGSA,A,3,12,25,05,23,15,24,18,20,,,,,1.64,0.86,1.39*13
$GNGSA,A,3,80,79,68,69,83,,,,,,,,1.64,0.86,1.39*16
$GPGSV,5,1,17,05,40,036,18,10,05,212,,12,73,079,30,13,13,108,15*74
$GPGSV,5,2,17,15,39,138,25,18,32,290,29,20,08,033,19,23,45,210,26*76
$GPGSV,5,3,17,24,33,177,26,25,58,341,21,28,05,292,19,29,14,346,21*77
$GPGSV,5,4,17,36,52,277,,40,86,351,,41,58,082,,49,32,274,*7C
$GPGSV,5,5,17,50,10,089,*4A
$GLGSV,3,1,09,67,14,064,,68,37,113,26,69,27,172,33,73,15,326,18*65
$GLGSV,3,2,09,79,47,167,29,80,68,300,28,82,00,019,21,83,14,334,12*6C
$GLGSV,3,3,09,84,10,282,*59
$GNGLL,0419.76626,S,05539.71199,E,062932.00,A,A*64
$GNRMC,062933.00,A,0419.76626,S,05539.71199,E,0.058,,270525,,,A*76
$GNVTG,,T,,M,0.058,N,0.107,K,A*36
$GNGGA,062933.00,0419.76626,S,05539.71199,E,1,12,0.86,8.5,M,-47.6,M,,*78
$GNGSA,A,3,12,25,05,23,15,24,18,20,,,,,1.64,0.86,1.39*13
$GNGSA,A,3,80,79,68,69,83,,,,,,,,1.64,0.86,1.39*16
$GPGSV,5,1,17,05,40,036,19,10,05,212,,12,73,079,30,13,13,108,15*75
$GPGSV,5,2,17,15,39,138,26,18,32,290,28,20,08,033,21,23,45,210,26*7F
$GPGSV,5,3,17,24,33,177,25,25,58,341,24,28,05,292,19,29,14,346,20*70
$GPGSV,5,4,17,36,52,277,,40,86,351,,41,58,082,,49,32,274,*7C
$GPGSV,5,5,17,50,10,089,*4A
$GLGSV,3,1,09,67,14,064,,68,37,113,25,69,27,172,36,73,15,326,16*6D
$GLGSV,3,2,09,79,47,167,30,80,68,300,28,82,00,019,20,83,14,334,09*6F
$GLGSV,3,3,09,84,10,282,*59
$GNGLL,0419.76626,S,05539.71199,E,062933.00,A,A*65
$GNRMC,062934.00,A,0419.76627,S,05539.71200,E,0.041,,270525,,,A*7B
$GNVTG,,T,,M,0.041,N,0.076,K,A*39
$GNGGA,062934.00,0419.76627,S,05539.71200,E,1,12,0.81,8.5,M,-47.6,M,,*7A
$GNGSA,A,3,12,25,05,23,15,24,18,13,20,,,,1.48,0.81,1.24*14
$GNGSA,A,3,80,79,68,69,83,,,,,,,,1.48,0.81,1.24*13
$GPGSV,5,1,17,05,40,036,18,10,05,212,,12,73,079,30,13,13,108,15*74
$GPGSV,5,2,17,15,39,138,28,18,32,290,27,20,08,033,21,23,45,210,27*7F
$GPGSV,5,3,17,24,33,177,25,25,58,341,27,28,05,292,19,29,14,346,19*79
$GPGSV,5,4,17,36,52,277,,40,86,351,,41,58,082,,49,32,274,*7C
$GPGSV,5,5,17,50,10,089,*4A
$GLGSV,3,1,09,67,14,064,,68,37,113,27,69,27,172,36,73,15,326,12*6B
$GLGSV,3,2,09,79,47,167,30,80,68,300,28,82,00,019,18,83,14,334,09*64
$GLGSV,3,3,09,84,10,282,*59
$GNGLL,0419.76627,S,05539.71200,E,062934.00,A,A*60
$GNRMC,062935.00,A,0419.76629,S,05539.71202,E,0.083,,270525,,,A*78
$GNVTG,,T,,M,0.083,N,0.154,K,A*36
$GNGGA,062935.00,0419.76629,S,05539.71202,E,1,12,0.81,8.6,M,-47.6,M,,*74
$GNGSA,A,3,12,25,05,23,15,24,18,13,20,,,,1.48,0.81,1.24*14
$GNGSA,A,3,80,79,68,69,83,,,,,,,,1.48,0.81,1.24*13
$GPGSV,5,1,17,05,40,036,21,10,05,212,,12,73,079,29,13,13,108,15*76
$GPGSV,5,2,17,15,39,138,28,18,32,290,27,20,08,033,21,23,45,210,27*7F
$GPGSV,5,3,17,24,33,177,23,25,58,341,26,28,05,292,19,29,14,346,17*70
$GPGSV,5,4,17,36,52,277,,40,86,351,,41,58,082,,49,32,274,*7C
$GPGSV,5,5,17,50,10,089,*4A
$GLGSV,3,1,09,67,14,064,,68,37,113,27,69,27,172,35,73,15,326,13*69
$GLGSV,3,2,09,79,47,167,28,80,68,300,30,82,00,019,18,83,14,334,09*64
$GLGSV,3,3,09,84,10,282,*59
$GNGLL,0419.76629,S,05539.71202,E,062935.00,A,A*6D
$GNRMC,062936.00,A,0419.76630,S,05539.71196,E,0.124,,270525,,,A*71
$GNVTG,,T,,M,0.124,N,0.230,K,A*3B
$GNGGA,062936.00,0419.76630,S,05539.71196,E,1,12,0.81,8.5,M,-47.6,M,,*72
$GNGSA,A,3,12,25,05,23,15,24,18,13,20,,,,1.48,0.81,1.24*14
$GNGSA,A,3,80,79,68,69,83,,,,,,,,1.48,0.81,1.24*13
$GPGSV,5,1,17,05,40,036,23,10,05,212,,12,73,079,28,13,13,108,15*75
$GPGSV,5,2,17,15,39,138,31,18,32,290,27,20,08,033,22,23,45,210,24*77
$GPGSV,5,3,17,24,33,177,23,25,58,341,25,28,05,292,20,29,14,346,15*7B
$GPGSV,5,4,17,36,52,277,,40,86,351,,41,58,082,,49,32,274,*7C
$GPGSV,5,5,17,50,10,089,*4A
$GLGSV,3,1,09,67,14,064,,68,37,113,27,69,27,172,35,73,15,326,16*6C
$GLGSV,3,2,09,79,47,167,28,80,68,300,29,82,00,019,17,83,14,334,09*63
$GLGSV,3,3,09,84,10,282,*59
$GNGLL,0419.76630,S,05539.71196,E,062936.00,A,A*68
$GNRMC,062937.00,A,0419.76629,S,05539.71191,E,0.045,,270525,,,A*79
$GNVTG,,T,,M,0.045,N,0.083,K,A*37
$GNGGA,062937.00,0419.76629,S,05539.71191,E,1,12,0.86,8.2,M,-47.6,M,,*7C
$GNGSA,A,3,12,25,05,23,15,24,18,20,,,,,1.64,0.86,1.39*13
$GNGSA,A,3,80,79,68,69,83,,,,,,,,1.64,0.86,1.39*16
$GPGSV,5,1,17,05,40,036,22,10,05,212,,12,73,079,28,13,13,108,15*74
$GPGSV,5,2,17,15,39,138,30,18,32,290,27,20,08,033,21,23,45,210,25*74
$GPGSV,5,3,17,24,33,177,23,25,58,341,25,28,05,292,21,29,14,346,15*7A
$GPGSV,5,4,17,36,52,277,,40,86,351,,41,58,082,,49,32,274,*7C
$GPGSV,5,5,17,50,10,089,*4A
$GLGSV,3,1,09,67,14,064,,68,37,113,27,69,27,172,35,73,15,326,16*6C
$GLGSV,3,2,09,79,46,167,32,80,68,300,29,82,00,019,17,83,14,334,12*63
$GLGSV,3,3,09,84,10,282,*59
$GNGLL,0419.76629,S,05539.71191,E,062937.00,A,A*66
$GNRMC,062938.00,A,0419.76634,S,05539.71188,E,0.047,,270525,,,A*70
$GNVTG,,T,,M,0.047,N,0.086,K,A*30
$GNGGA,062938.00,0419.76634,S,05539.71188,E,1,12,0.81,8.3,M,-47.6,M,,*71
$GNGSA,A,3,12,25,05,23,15,24,18,20,,,,,1.48,0.81,1.24*16
$GNGSA,A,3,80,79,68,69,83,,,,,,,,1.48,0.81,1.24*13
$GPGSV,5,1,17,05,40,036,19,10,05,212,,12,73,079,30,13,13,108,15*75
$GPGSV,5,2,17,15,39,138,31,18,32,290,27,20,08,033,20,23,45,210,28*79
$GPGSV,5,3,17,24,33,177,22,25,58,341,25,28,05,292,19,29,14,346,18*7D
$GPGSV,5,4,17,36,52,277,,40,86,351,,41,58,082,,49,32,274,*7C
$GPGSV,5,5,17,50,10,089,*4A
$GLGSV,3,1,09,67,14,064,,68,37,113,27,69,27,172,36,73,15,326,16*6F
$GLGSV,3,2,09,79,46,167,30,80,69,298,29,82,00,019,17,83,14,334,12*60
$GLGSV,3,3,09,84,10,282,*59
$GNGLL,0419.76634,S,05539.71188,E,062938.00,A,A*6D
$GNRMC,062939.00,A,0419.76628,S,05539.71187,E,0.132,,270525,,,A*70
$GNVTG,,T,,M,0.132,N,0.244,K,A*3F
$GNGGA,062939.00,0419.76628,S,05539.71187,E,1,12,0.81,8.1,M,-47.6,M,,*70
$GNGSA,A,3,12,25,05,23,15,24,18,20,,,,,1.48,0.81,1.24*16
$GNGSA,A,3,80,79,68,69,83,,,,,,,,1.48,0.81,1.24*13
$GPGSV,5,1,17,05,40,036,20,10,05,212,,12,73,079,30,13,13,108,15*7F
$GPGSV,5,2,17,15,39,138,30,18,32,290,26,20,08,033,19,23,45,210,29*72
$GPGSV,5,3,17,24,33,177,25,25,58,341,26,28,05,292,19,29,14,346,21*73
$GPGSV,5,4,17,36,52,277,,40,86,351,,41,58,082,,49,32,274,*7C
$GPGSV,5,5,17,50,10,089,*4A
$GLGSV,3,1,09,67,14,064,,68,37,113,27,69,27,172,36,73,15,326,17*6E
$GLGSV,3,2,09,79,46,167,30,80,69,298,30,82,00,019,17,83,14,334,16*6C
$GLGSV,3,3,09,84,10,282,*59
$GNGLL,0419.76628,S,05539.71187,E,062939.00,A,A*6E
$GNRMC,062940.00,A,0419.76619,S,05539.71185,E,0.175,,270525,,,A*7D
$GNVTG,,T,,M,0.175,N,0.325,K,A*3A
$GNGGA,062940.00,0419.76619,S,05539.71185,E,1,12,0.81,7.7,M,-47.6,M,,*77
$GNGSA,A,3,12,25,05,23,15,24,18,20,,,,,1.48,0.81,1.24*16
$GNGSA,A,3,80,79,68,69,83,,,,,,,,1.48,0.81,1.24*13
$GPGSV,5,1,17,05,40,036,19,10,05,212,,12,73,079,31,13,13,108,*70
$GPGSV,5,2,17,15,39,138,31,18,32,290,24,20,08,033,19,23,45,210,28*70
$GPGSV,5,3,17,24,33,177,25,25,58,341,25,28,05,292,19,29,14,346,20*71
$GPGSV,5,4,17,36,52,277,,40,86,351,,41,58,082,,49,32,274,*7C
$GPGSV,5,5,17,50,10,089,*4A
$GLGSV,3,1,09,67,14,064,,68,37,113,27,69,27,172,36,73,15,326,17*6E
$GLGSV,3,2,09,79,46,167,31,80,69,298,29,82,00,020,16,83,14,334,19*61
$GLGSV,3,3,09,84,10,282,*59
$GNGLL,0419.76619,S,05539.71185,E,062940.00,A,A*60
$GNRMC,062941.00,A,0419.76617,S,05539.71175,E,0.065,,270525,,,A*7D
$GNVTG,,T,,M,0.065,N,0.120,K,A*3D
$GNGGA,062941.00,0419.76617,S,05539.71175,E,1,12,0.81,7.7,M,-47.6,M,,*77
$GNGSA,A,3,12,25,05,23,15,24,18,20,,,,,1.48,0.81,1.24*16
$GNGSA,A,3,80,79,68,69,83,,,,,,,,1.48,0.81,1.24*13
$GPGSV,5,1,17,05,40,036,18,10,05,212,,12,73,079,32,13,13,108,*72
$GPGSV,5,2,17,15,39,138,32,18,32,290,22,20,08,033,19,23,45,210,27*7A
$GPGSV,5,3,17,24,33,177,24,25,58,341,24,28,05,292,19,29,14,346,20*71
$GPGSV,5,4,17,36,52,277,,40,86,351,,41,58,082,,49,32,274,*7C
$GPGSV,5,5,17,50,10,089,*4A
$GLGSV,3,1,09,67,14,064,,68,37,113,28,69,27,172,35,73,15,326,19*6C
$GLGSV,3,2,09,79,46,167,30,80,69,298,29,82,00,020,15,83,14,335,20*68
$GLGSV,3,3,09,84,10,282,*59
$GNGLL,0419.76617,S,05539.71175,E,062941.00,A,A*60
$GNRMC,062942.00,A,0419.76614,S,05539.71163,E,0.063,,270525,,,A*7C
$GNVTG,,T,,M,0.063,N,0.118,K,A*30
$GNGGA,062942.00,0419.76614,S,05539.71163,E,1,12,0.81,7.4,M,-47.6,M,,*73
$GNGSA,A,3,12,25,05,23,15,24,18,20,,,,,1.48,0.81,1.24*16
$GNGSA,A,3,80,79,68,69,83,,,,,,,,1.48,0.81,1.24*13
$GPGSV,5,1,17,05,40,036,18,10,05,212,,12,73,079,32,13,13,108,*72
$GPGSV,5,2,17,15,39,138,31,18,32,290,22,20,08,033,20,23,45,210,27*73
$GPGSV,5,3,17,24,33,177,23,25,58,341,26,28,05,292,17,29,14,346,18*71
$GPGSV,5,4,17,36,52,277,,40,86,351,,41,58,082,,49,32,274,*7C
$GPGSV,5,5,17,50,10,089,*4A
$GLGSV,3,1,09,67,14,064,,68,37,113,28,69,27,172,35,73,15,326,17*62
$GLGSV,3,2,09,79,46,167,30,80,69,298,29,82,00,020,11,83,14,335,22*6E
$GLGSV,3,3,09,84,10,282,*59
$GNGLL,0419.76614,S,05539.71163,E,062942.00,A,A*67
$GNRMC,062943.00,A,0419.76614,S,05539.71155,E,0.041,,270525,,,A*78
$GNVTG,,T,,M,0.041,N,0.075,K,A*3A
$GNGGA,062943.00,0419.76614,S,05539.71155,E,1,12,0.81,7.4,M,-47.6,M,,*77
$GNGSA,A,3,12,25,05,23,15,24,18,20,,,,,1.48,0.81,1.24*16
$GNGSA,A,3,80,79,68,69,83,,,,,,,,1.48,0.81,1.24*13
$GPGSV,5,1,17,05,40,036,29,10,05,212,,12,73,079,32,13,13,108,*70
$GPGSV,5,2,17,15,39,138,33,18,32,290,23,20,08,033,20,23,45,210,28*7F
$GPGSV,5,3,17,24,33,177,23,25,58,341,25,28,05,292,16,29,14,346,18*73
$GPGSV,5,4,17,36,52,277,,40,86,351,,41,58,082,,49,32,274,*7C
$GPGSV,5,5,17,50,10,089,*4A
$GLGSV,3,1,09,67,14,064,,68,37,113,27,69,27,172,35,73,15,326,14*6E
$GLGSV,3,2,09,79,46,167,30,80,69,298,30,82,00,020,,83,14,335,23*67
$GLGSV,3,3,09,84,10,282,*59
$GNGLL,0419.76614,S,05539.71155,E,062943.00,A,A*63
$GNRMC,062944.00,A,0419.76613,S,05539.71152,E,0.051,,270525,,,A*7E
$GNVTG,,T,,M,0.051,N,0.094,K,A*34
$GNGGA,062944.00,0419.76613,S,05539.71152,E,1,12,0.81,7.2,M,-47.6,M,,*76
$GNGSA,A,3,12,25,05,23,15,24,18,20,,,,,1.48,0.81,1.24*16
$GNGSA,A,3,80,79,68,69,83,,,,,,,,1.48,0.81,1.24*13
$GPGSV,5,1,17,05,40,036,27,10,05,212,,12,73,079,31,13,13,108,*7D
$GPGSV,5,2,17,15,39,138,32,18,32,290,24,20,08,033,20,23,45,210,28*79
$GPGSV,5,3,17,24,33,177,24,25,58,341,25,28,05,292,16,29,14,346,18*74
$GPGSV,5,4,17,36,52,277,,40,86,351,,41,58,082,,49,32,274,*7C
$GPGSV,5,5,17,50,10,089,*4A
$GLGSV,3,1,09,67,14,064,,68,37,113,27,69,27,172,35,73,15,326,14*6E
$GLGSV,3,2,09,79,46,167,30,80,69,298,31,82,00,020,,83,14,335,21*64
$GLGSV,3,3,09,84,10,282,*59
$GNGLL,0419.76613,S,05539.71152,E,062944.00,A,A*64
$GNRMC,062945.00,A,0419.76618,S,05539.71148,E,0.027,,270525,,,A*7E
$GNVTG,,T,,M,0.027,N,0.051,K,A*3C
$GNGGA,062945.00,0419.76618,S,05539.71148,E,1,12,0.81,7.3,M,-47.6,M,,*76
$GNGSA,A,3,12,25,05,23,15,24,18,20,,,,,1.48,0.81,1.24*16
$GNGSA,A,3,80,79,68,69,83,,,,,,,,1.48,0.81,1.24*13
$GPGSV,5,1,17,05,40,036,26,10,05,212,,12,73,079,31,13,13,108,07*7B
$GPGSV,5,2,17,15,39,138,32,18,32,290,23,20,08,033,21,23,45,210,27*70
$GPGSV,5,3,17,24,33,177,24,25,58,341,24,28,05,292,16,29,14,346,19*74
$GPGSV,5,4,17,36,52,277,,40,86,351,,41,58,082,,49,32,274,*7C
$GPGSV,5,5,17,50,10,089,*4A
$GLGSV,3,1,09,67,14,064,,68,37,113,25,69,27,172,36,73,15,326,14*6F
$GLGSV,3,2,09,79,46,167,31,80,69,298,32,82,00,020,,83,14,335,17*63
$GLGSV,3,3,09,84,10,282,*59
$GNGLL,0419.76618,S,05539.71148,E,062945.00,A,A*65
$GNRMC,062946.00,A,0419.76619,S,05539.71138,E,0.127,,270525,,,A*7A
$GNVTG,,T,,M,0.127,N,0.234,K,A*3C
$GNGGA,062946.00,0419.76619,S,05539.71138,E,1,12,0.81,7.1,M,-47.6,M,,*71
$GNGSA,A,3,12,25,05,23,15,24,18,20,,,,,1.48,0.81,1.24*16
$GNGSA,A,3,80,79,68,69,83,,,,,,,,1.48,0.81,1.24*13
$GPGSV,5,1,17,05,40,036,26,10,05,212,,12,73,079,31,13,13,108,11*7C
$GPGSV,5,2,17,15,39,138,31,18,32,290,25,20,08,033,20,23,45,210,27*74
$GPGSV,5,3,17,24,33,177,24,25,58,341,23,28,05,292,16,29,14,346,19*73
$GPGSV,5,4,17,36,52,277,,40,86,351,,41,58,082,,49,32,274,*7C
$GPGSV,5,5,17,50,10,089,*4A
$GLGSV,3,1,09,67,14,064,,68,37,113,26,69,27,172,36,73,15,326,15*6D
$GLGSV,3,2,09,79,46,167,31,80,69,298,31,82,00,020,,83,14,335,19*6E
$GLGSV,3,3,09,84,10,282,*59
$GNGLL,0419.76619,S,05539.71138,E,062946.00,A,A*60
$GNRMC,062947.00,A,0419.76617,S,05539.71130,E,0.063,,270525,,,A*7C
$GNVTG,,T,,M,0.063,N,0.117,K,A*3F
$GNGGA,062947.00,0419.76617,S,05539.71130,E,1,12,0.81,7.0,M,-47.6,M,,*77
$GNGSA,A,3,12,25,05,23,15,24,18,20,,,,,1.48,0.81,1.24*16
$GNGSA,A,3,80,79,68,69,83,,,,,,,,1.48,0.81,1.24*13
$GPGSV,5,1,17,05,40,036,28,10,05,212,,12,73,079,31,13,13,108,14*77
$GPGSV,5,2,17,15,39,138,32,18,32,290,26,20,08,033,19,23,45,210,27*7E
$GPGSV,5,3,17,24,33,177,22,25,58,341,22,28,05,292,17,29,14,346,20*7F
$GPGSV,5,4,17,36,52,277,,40,86,351,,41,58,082,,49,32,274,*7C
$GPGSV,5,5,17,50,10,089,*4A
$GLGSV,3,1,09,67,14,064,,68,37,113,24,69,27,172,36,73,15,326,17*6D
$GLGSV,3,2,09,79,46,167,32,80,69,298,31,82,00,020,,83,14,335,21*66
$GLGSV,3,3,09,84,10,282,*59
$GNGLL,0419.76617,S,05539.71130,E,062947.00,A,A*67
$GNRMC,062948.00,A,0419.76618,S,05539.71122,E,0.056,,270525,,,A*79
$GNVTG,,T,,M,0.056,N,0.104,K,A*3B
$GNGGA,062948.00,0419.76618,S,05539.71122,E,1,12,0.81,6.9,M,-47.6,M,,*7C
$GNGSA,A,3,12,25,05,23,15,24,18,20,,,,,1.48,0.81,1.24*16
$GNGSA,A,3,80,79,68,69,83,,,,,,,,1.48,0.81,1.24*13
$GPGSV,5,1,17,05,40,036,28,10,05,212,,12,73,079,31,13,13,108,14*77
$GPGSV,5,2,17,15,39,138,32,18,32,290,25,20,08,033,20,23,45,210,27*77
$GPGSV,5,3,17,24,33,177,20,25,58,341,23,28,05,292,18,29,14,346,22*71
$GPGSV,5,4,17,36,52,277,,40,86,351,,41,58,082,,49,32,274,*7C
$GPGSV,5,5,17,50,10,089,*4A
$GLGSV,3,1,09,67,14,064,,68,37,113,24,69,27,172,35,73,15,326,17*6E
$GLGSV,3,2,09,79,46,167,32,80,69,298,31,82,00,020,,83,14,335,22*65
$GLGSV,3,3,09,84,10,282,*59
$GNGLL,0419.76618,S,05539.71122,E,062948.00,A,A*64
$GNRMC,062949.00,A,0419.76616,S,05539.71116,E,0.108,,270525,,,A*7B
$GNVTG,,T,,M,0.108,N,0.200,K,A*36
$GNGGA,062949.00,0419.76616,S,05539.71116,E,1,12,0.77,6.8,M,-47.6,M,,*7C
$GNGSA,A,3,12,25,05,23,15,24,18,13,20,,,,1.39,0.77,1.16*1A
$GNGSA,A,3,80,79,68,69,83,,,,,,,,1.39,0.77,1.16*1D
$GPGSV,5,1,17,05,40,036,29,10,05,212,,12,73,079,32,13,13,108,13*72
$GPGSV,5,2,17,15,39,138,30,18,32,290,26,20,08,033,20,23,45,210,27*76
$GPGSV,5,3,17,24,33,177,19,25,58,341,24,28,05,292,19,29,14,346,21*7E
$GPGSV,5,4,17,36,52,277,,40,86,351,,41,58,082,,49,32,274,*7C
$GPGSV,5,5,17,50,10,089,*4A
$GLGSV,3,1,09,67,14,064,,68,37,113,24,69,27,172,35,73,15,326,17*6E
$GLGSV,3,2,09,79,46,167,31,80,69,298,31,82,00,020,,83,14,335,23*67
$GLGSV,3,3,09,84,10,282,*59
$GNGLL,0419.76616,S,05539.71116,E,062949.00,A,A*6C
$GNRMC,062950.00,A,0419.76627,S,05539.71109,E,0.059,,270525,,,A*7A
$GNVTG,,T,,M,0.059,N,0.110,K,A*31
$GNGGA,062950.00,0419.76627,S,05539.71109,E,1,12,0.77,7.1,M,-47.6,M,,*70
$GNGSA,A,3,12,25,05,23,15,24,18,13,20,,,,1.39,0.77,1.16*1A
$GNGSA,A,3,80,79,68,69,83,,,,,,,,1.39,0.77,1.16*1D
$GPGSV,5,1,17,05,40,036,34,10,05,212,,12,73,079,32,13,13,108,12*7F
$GPGSV,5,2,17,15,39,138,30,18,32,290,26,20,08,033,21,23,45,210,29*79
$GPGSV,5,3,17,24,33,177,18,25,58,341,26,28,05,292,18,29,14,346,22*7F
$GPGSV,5,4,17,36,52,277,,40,86,351,,41,58,082,,49,32,274,*7C
$GPGSV,5,5,17,50,10,089,*4A
$GLGSV,3,1,09,67,14,064,19,68,37,113,24,69,27,172,36,73,15,326,18*6A
$GLGSV,3,2,09,79,46,167,31,80,69,298,32,82,00,020,,83,14,335,23*64
$GLGSV,3,3,09,84,10,282,*59
$GNGLL,0419.76627,S,05539.71109,E,062950.00,A,A*68
$GNRMC,062951.00,A,0419.76639,S,05539.71099,E,0.009,,270525,,,A*79
$GNVTG,,T,,M,0.009,N,0.016,K,A*33
$GNGGA,062951.00,0419.76639,S,05539.71099,E,1,12,0.77,7.4,M,-47.6,M,,*73
$GNGSA,A,3,12,25,05,23,15,24,18,13,20,,,,1.39,0.77,1.16*1A
$GNGSA,A,3,80,79,68,69,83,,,,,,,,1.39,0.77,1.16*1D
$GPGSV,5,1,17,05,40,036,31,10,05,212,,12,73,079,32,13,13,108,14*7C
$GPGSV,5,2,17,15,39,138,33,18,32,290,27,20,08,033,19,23,45,210,28*71
$GPGSV,5,3,17,24,33,177,17,25,58,341,27,28,05,292,16,29,14,346,22*7F
$GPGSV,5,4,17,36,52,277,,40,86,351,,41,58,082,,49,32,274,*7C
$GPGSV,5,5,17,50,10,089,*4A
$GLGSV,3,1,09,67,14,064,17,68,37,113,25,69,27,172,36,73,15,326,16*6B
$GLGSV,3,2,09,79,46,167,32,80,69,298,32,82,00,020,,83,14,335,22*66
$GLGSV,3,3,09,84,10,282,*59
$GNGLL,0419.76639,S,05539.71099,E,062951.00,A,A*6E
$GNRMC,062952.00,A,0419.76643,S,05539.71096,E,0.122,,270525,,,A*70
$GNVTG,,T,,M,0.122,N,0.226,K,A*3A
$GNGGA,062952.00,0419.76643,S,05539.71096,E,1,12,0.77,7.4,M,-47.6,M,,*72
$GNGSA,A,3,12,25,05,23,15,24,18,13,20,,,,1.39,0.77,1.16*1A
$GNGSA,A,3,80,79,68,69,83,,,,,,,,1.39,0.77,1.16*1D
$GPGSV,5,1,17,05,40,036,30,10,05,212,,12,73,079,34,13,13,108,14*7B
$GPGSV,5,2,17,15,39,138,33,18,32,290,26,20,08,033,18,23,45,210,28*71
$GPGSV,5,3,17,24,33,177,16,25,58,341,27,28,05,292,17,29,14,346,22*7F
$GPGSV,5,4,17,36,52,277,,40,86,351,,41,58,082,,49,32,274,*7C
$GPGSV,5,5,17,50,10,089,*4A
$GLGSV,3,1,09,67,14,064,15,68,37,113,27,69,27,172,34,73,15,326,*6E
$GLGSV,3,2,09,79,46,167,31,80,69,298,31,82,00,020,,83,14,335,19*6E
$GLGSV,3,3,09,84,10,282,*59
$GNGLL,0419.76643,S,05539.71096,E,062952.00,A,A*6F
$GNRMC,062953.00,A,0419.76646,S,05539.71092,E,0.029,,270525,,,A*7A
$GNVTG,,T,,M,0.029,N,0.054,K,A*37
$GNGGA,062953.00,0419.76646,S,05539.71092,E,1,12,0.77,7.2,M,-47.6,M,,*74
$GNGSA,A,3,12,25,05,23,15,24,18,13,20,,,,1.39,0.77,1.16*1A
$GNGSA,A,3,80,79,68,69,83,,,,,,,,1.39,0.77,1.16*1D
$GPGSV,5,1,17,05,40,036,29,10,05,212,,12,73,079,32,13,13,108,17*76
$GPGSV,5,2,17,15,39,138,34,18,32,290,27,20,08,033,19,23,45,210,27*79
$GPGSV,5,3,17,24,33,177,18,25,58,341,28,28,05,292,16,29,14,346,24*79
$GPGSV,5,4,17,36,52,277,,40,86,351,,41,58,082,,49,32,274,*7C
$GPGSV,5,5,17,50,10,089,*4A
$GLGSV,3,1,09,67,14,064,14,68,37,113,28,69,27,172,34,73,15,326,*60
$GLGSV,3,2,09,79,46,167,32,80,69,298,32,82,00,020,,83,14,335,15*62
$GLGSV,3,3,09,84,10,282,*59
$GNGLL,0419.76646,S,05539.71092,E,062953.00,A,A*6F
$GNRMC,062954.00,A,0419.76649,S,05539.71087,E,0.052,,270525,,,A*7A
$GNVTG,,T,,M,0.052,N,0.097,K,A*34
$GNGGA,062954.00,0419.76649,S,05539.71087,E,1,12,0.77,7.2,M,-47.6,M,,*78
$GNGSA,A,3,12,25,05,23,15,24,18,13,20,,,,1.39,0.77,1.16*1A
$GNGSA,A,3,80,79,68,69,83,,,,,,,,1.39,0.77,1.16*1D
$GPGSV,5,1,17,05,40,036,29,10,05,212,,12,73,079,32,13,13,108,19*78
$GPGSV,5,2,17,15,39,138,33,18,32,290,27,20,08,033,19,23,45,210,27*7E
$GPGSV,5,3,17,24,33,177,20,25,58,341,28,28,05,292,16,29,14,346,24*72
$GPGSV,5,4,17,36,52,277,,40,86,351,,41,58,082,,49,32,274,*7C
