$GNTXT,01,01,01,More than 100 frame errors, UART RX was disabled*70
b0@pX,-Zn{3k[:({4V^:R 
Y [EF
I `OP5PST62U;bpXO$GNRMC,041028.00,A,0419.78536,S,05539.89594,E,0.392,,210525,,,A*75
$GNVTG,,T,,M,0.392,N,0.727,K,A*37
$GNGNS,041028.00,0419.78536,S,05539.89594,E,AA,11,1.15,13.0,-47.6,,*65
$GNGGA,041028.00,0419.78536,S,05539.89594,E,1,11,1.15,13.0,M,-47.6,M,,*4F
$GNGSA,A,3,24,20,11,05,06,14,,,,,,,1.91,1.15,1.52*14
$GNGSA,A,3,84,80,73,83,79,,,,,,,,1.91,1.15,1.52*13
$GPGSV,5,1,17,05,44,163,26,06,12,028,22,11,45,020,21,12,16,346,08*7C
$GPGSV,5,2,17,13,28,176,19,14,11,110,25,15,27,214,16,18,06,218,*7F
$GPGSV,5,3,17,20,51,107,28,22,21,091,,24,58,296,23,29,12,277,*75
$GPGSV,5,4,17,36,52,277,,40,86,350,31,41,58,082,,49,32,274,*7F
$GPGSV,5,5,17,50,10,089,*4A
$GLGSV,2,1,08,69,11,147,23,70,11,208,,73,32,001,21,79,18,134,27*6C
$GLGSV,2,2,08,80,53,080,27,83,20,006,21,84,54,306,09,85,31,237,21*69
$GNGLL,0419.78536,S,05539.89594,E,041028.00,A,A*65
$GNGRS,041028.00,1,-9.0,-5.3,4.0,-2.6,2.6,6.3,,,,,,*7C
$GNGRS,041028.00,1,0.0,5.2,8.6,-5.0,14.4,,,,,,,*61
$GNGST,041028.00,93466,,,,4.1,7.4,8.4*72
$GNZDA,041028.00,21,05,2025,00,00*74
$GNGBS,041028.00,4.1,7.4,8.4,,,,*5A
$GNTXT,01,01,01,More than 100 frame errors, UART RX was disabled*70
b0@XX,$-KZn3k2[:(c{4$V^:R 
Y![EF
I O P5PS:T62S9UbXXO#[$GNRMC,041029.00,A,0419.78544,S,05539.89585,E,0.180,,210525,,,A*70
$GNVTG,,T,,M,0.180,N,0.332,K,A*36
$GNGNS,041029.00,0419.78544,S,05539.89585,E,AA,10,1.25,12.6,-47.6,,*64
$GNGGA,041029.00,0419.78544,S,05539.89585,E,1,10,1.25,12.6,M,-47.6,M,,*4E
$GNGSA,A,3,24,20,11,05,06,14,,,,,,,1.98,1.25,1.53*1F
$GNGSA,A,3,80,73,83,79,,,,,,,,,1.98,1.25,1.53*14
$GPGSV,5,1,17,05,44,163,28,06,12,028,22,11,45,020,36,12,16,346,09*75
$GPGSV,5,2,17,13,28,176,19,14,11,110,25,15,27,214,15,18,06,218,*7C
$GPGSV,5,3,17,20,51,107,29,22,21,091,,24,58,296,22,29,12,277,*75
$GPGSV,5,4,17,36,52,277,,40,86,350,36,41,58,082,,49,32,274,*78
$GPGSV,5,5,17,50,10,089,*4A
$GLGSV,2,1,08,69,11,147,23,70,11,208,,73,32,001,19,79,18,134,32*63
$GLGSV,2,2,08,80,53,080,28,83,20,006,19,84,54,306,07,85,31,237,20*62
$GNGLL,0419.78544,S,05539.89585,E,041029.00,A,A*61
$GNGRS,041029.00,1,-6.7,-7.2,-1.8,-0.5,2.9,5.3,,,,,,*5B
$GNGRS,041029.00,1,4.7,9.9,-4.5,9.5,,,,,,,,*7D
$GNGST,041029.00,36,,,,4.1,7.4,8.4*48
$GNZDA,041029.00,21,05,2025,00,00*75
$GNGBS,041029.00,4.1,7.4,8.4,,,,*5B
$GNTXT,01,01,01,More than 100 frame errors, UART RX was disabled*70
b0@@X,g-Zan3j[:(n{4$V^:R 
Y[EF
I O P!5PSeT
62Ub@XO'$GNRMC,041030.00,A,0419.78540,S,05539.89592,E,0.292,,210525,,,A*7A
$GNVTG,,T,,M,0.292,N,0.540,K,A*35
$GNGNS,041030.00,0419.78540,S,05539.89592,E,AA,12,1.07,12.6,-47.6,,*6C
$GNGGA,041030.00,0419.78540,S,05539.89592,E,1,12,1.07,12.6,M,-47.6,M,,*46
$GNGSA,A,3,24,20,11,05,06,12,14,,,,,,1.72,1.07,1.35*18
$GNGSA,A,3,84,80,73,83,79,,,,,,,,1.72,1.07,1.35*1C
$GPGSV,5,1,17,05,44,163,29,06,12,028,23,11,45,020,29,12,16,346,11*72
$GPGSV,5,2,17,13,28,176,20,14,11,110,26,15,27,214,15,18,06,218,*75
$GPGSV,5,3,17,20,51,106,26,22,21,091,18,24,58,296,23,29,12,277,*73
$GPGSV,5,4,17,36,52,277,,40,86,350,36,41,58,082,28,49,32,274,*72
$GPGSV,5,5,17,50,10,089,*4A
$GLGSV,2,1,08,69,11,147,26,70,11,208,,73,32,001,19,79,18,134,32*66
$GLGSV,2,2,08,80,53,080,33,83,20,006,18,84,54,306,10,85,31,237,21*6E
$GNGLL,0419.78540,S,05539.89592,E,041030.00,A,A*6B
$GNGRS,041030.00,1,-4.0,-5.2,-0.2,-1.5,1.3,-1.6,4.4,,,,,*55
$GNGRS,041030.00,1,0.1,2.8,10.5,-4.1,-0.8,,,,,,,*4A
$GNGST,041030.00,3326,,,,4.0,7.3,8.4*47
$GNZDA,041030.00,21,05,2025,00,00*7D
$GNGBS,041030.00,4.0,7.3,8.4,,,,*55
$GNTXT,01,01,01,More than 100 frame errors, UART RX was disabled*70
b0@(X!,qO-FZ(n3j[:(g{4$V^:R 
Y[eEF
I O P 5P;ST
627Ub(XO++$GNRMC,041031.00,A,0419.78527,S,05539.89588,E,0.781,,210525,,,A*76
$GNVTG,,T,,M,0.781,N,1.446,K,A*34
$GNGNS,041031.00,0419.78527,S,05539.89588,E,AA,13,1.03,12.2,-47.6,,*66
$GNGGA,041031.00,0419.78527,S,05539.89588,E,1,12,1.03,12.2,M,-47.6,M,,*4D
$GNGSA,A,3,24,20,11,05,22,06,12,14,,,,,1.70,1.03,1.35*1E
$GNGSA,A,3,84,80,73,83,79,,,,,,,,1.70,1.03,1.35*1A
$GPGSV,5,1,17,05,44,163,33,06,12,028,25,11,45,020,29,12,16,346,13*7D
$GPGSV,5,2,17,13,28,176,21,14,11,110,25,15,27,214,18,18,06,218,*7A
$GPGSV,5,3,17,20,51,106,27,22,21,091,28,24,58,296,22,29,12,277,*70
$GPGSV,5,4,17,36,52,277,,40,86,350,36,41,58,082,30,49,32,274,*7B
$GPGSV,5,5,17,50,10,089,*4A
$GLGSV,2,1,08,69,11,147,31,70,11,208,,73,32,001,21,79,18,134,32*6B
$GLGSV,2,2,08,80,53,080,32,83,20,006,18,84,54,306,10,85,31,237,22*6C
$GNGLL,0419.78527,S,05539.89588,E,041031.00,A,A*60
$GNGRS,041031.00,1,-4.1,-3.5,3.3,-1.4,-8.4,0.8,0.4,1.9,,,,*59
$GNGRS,041031.00,1,0.5,0.6,7.6,-1.0,1.7,,,,,,,*51
$GNGST,041031.00,4808,,,,3.9,7.2,8.3*4E
$GNZDA,041031.00,21,05,2025,00,00*7C
$GNGBS,041031.00,3.9,7.2,8.3,,,,*5C
$GNTXT,01,01,01,More than 100 frame errors, UART RX was disabled*70
b0@X,H-
ZGn_ 3j[S:({4V^!:R 
Y[EF
I O!P 5PfST
62UWbXO/X$GNRMC,041032.00,A,0419.78524,S,05539.89567,E,0.137,,210525,,,A*7C
$GNVTG,,T,,M,0.137,N,0.254,K,A*3B
$GNGNS,041032.00,0419.78524,S,05539.89567,E,AA,12,1.20,11.3,-47.6,,*65
$GNGGA,041032.00,0419.78524,S,05539.89567,E,1,12,1.20,11.3,M,-47.6,M,,*4F
$GNGSA,A,3,24,20,11,05,22,06,14,,,,,,1.93,1.20,1.52*10
$GNGSA,A,3,84,80,73,83,79,,,,,,,,1.93,1.20,1.52*17
$GPGSV,5,1,17,05,44,163,29,06,12,028,22,11,45,020,21,12,16,346,10*7A
$GPGSV,5,2,17,13,28,176,20,14,11,110,26,15,27,214,20,18,06,218,*73
$GPGSV,5,3,17,20,51,106,32,22,21,091,29,24,58,296,21,29,12,277,*76
$GPGSV,5,4,17,36,52,277,,40,86,350,,41,58,082,33,49,32,274,*7D
$GPGSV,5,5,17,50,10,089,*4A
$GLGSV,2,1,08,69,11,147,25,70,11,208,,73,32,001,23,79,18,134,33*6D
$GLGSV,2,2,08,80,53,080,32,83,20,006,19,84,54,306,10,85,31,237,22*6D
$GNGLL,0419.78524,S,05539.89567,E,041032.00,A,A*61
$GNGRS,041032.00,1,-2.4,0.3,-2.4,-4.4,-1.7,1.6,1.0,,,,,*79
$GNGRS,041032.00,1,-66.5,-4.1,7.4,1.7,2.3,,,,,,,*4E
$GNGST,041032.00,37,,,,3.9,7.2,8.3*4D
$GNZDA,041032.00,21,05,2025,00,00*7F
$GNGBS,041032.00,3.9,7.2,8.3,,,,*5F
$GNTXT,01,01,01,More than 100 frame errors, UART RX was disabled*70
b0@X ,-2Zn~3j![4;'{4V^:R 
Y[
EF
I O+P5P`S:T
62UbXO3/$GNRMC,041033.00,A,0419.78506,S,05539.89548,E,0.895,,210525,,,A*71
$GNVTG,,T,,M,0.895,N,1.658,K,A*33
$GNGNS,041033.00,0419.78506,S,05539.89548,E,AA,12,1.10,11.0,-47.6,,*69
$GNGGA,041033.00,0419.78506,S,05539.89548,E,1,12,1.10,11.0,M,-47.6,M,,*43
$GNGSA,A,3,24,20,11,05,22,06,14,,,,,,1.87,1.10,1.51*15
$GNGSA,A,3,84,80,73,83,79,,,,,,,,1.87,1.10,1.51*12
$GPGSV,5,1,17,05,44,163,32,06,12,028,21,11,45,020,29,12,16,346,09*73
$GPGSV,5,2,17,13,28,176,19,14,11,110,31,15,27,214,18,18,06,218,*74
$GPGSV,5,3,17,20,51,106,31,22,21,091,33,24,59,295,20,29,12,277,*7D
$GPGSV,5,4,17,36,52,277,,40,86,350,,41,58,082,28,49,32,274,*77
$GPGSV,5,5,17,50,10,089,*4A
$GLGSV,2,1,08,69,11,147,23,70,11,208,,73,32,001,23,79,18,134,28*61
$GLGSV,2,2,08,80,53,080,27,83,20,006,19,84,54,306,10,85,31,237,20*6B
$GNGLL,0419.78506,S,05539.89548,E,041033.00,A,A*6D
$GNGRS,041033.00,1,-3.3,4.0,0.5,-3.6,-7.2,-0.8,-6.4,,,,,*5D
$GNGRS,041033.00,1,-0.6,-1.6,9.0,0.6,3.0,,,,,,,*76
$GNGST,041033.00,3299292,,,,3.9,7.2,8.3*70
$GNZDA,041033.00,21,05,2025,00,00*7E
$GNGBS,041033.00,3.9,7.2,8.3,,,,*5E
$GNTXT,01,01,01,More than 100 frame errors, UART RX was disabled*70
b0@X ,$-Znc3j8[;'{4V^:R 
Y[CEF
I WO>P5P(ST
62ULbXOo7T$GNRMC,041034.00,A,0419.78529,S,05539.89564,E,0.878,,210525,,,A*76
$GNVTG,,T,,M,0.878,N,1.625,K,A*3A
$GNGNS,041034.00,0419.78529,S,05539.89564,E,AA,12,1.10,11.3,-47.6,,*6E
$GNGGA,041034.00,0419.78529,S,05539.89564,E,1,12,1.10,11.3,M,-47.6,M,,*44
$GNGSA,A,3,24,20,11,05,22,06,14,,,,,,1.87,1.10,1.51*15
$GNGSA,A,3,84,80,73,83,79,,,,,,,,1.87,1.10,1.51*12
$GPGSV,5,1,17,05,44,163,32,06,12,028,22,11,45,020,22,12,16,346,09*7B
$GPGSV,5,2,17,13,28,176,18,14,11,110,29,15,27,214,17,18,06,218,*73
$GPGSV,5,3,17,20,51,106,31,22,21,091,23,24,59,295,18,29,12,277,*77
$GPGSV,5,4,17,36,52,277,,40,86,350,,41,58,082,,49,32,274,*7D
$GPGSV,5,5,17,50,10,089,*4A
$GLGSV,2,1,08,69,11,147,19,70,11,208,,73,32,001,20,79,18,134,28*6B
$GLGSV,2,2,08,80,53,080,27,83,20,006,17,84,54,306,10,85,31,237,18*6E
$GNGLL,0419.78529,S,05539.89564,E,041034.00,A,A*69
$GNGRS,041034.00,1,-7.5,-2.0,-3.5,3.8,-6.2,-2.2,-1.6,,,,,*72
$GNGRS,041034.00,1,-0.8,-2.2,8.5,-0.1,8.3,,,,,,,*5E
$GNGST,041034.00,3299292,,,,4.0,7.2,8.3*79
$GNZDA,041034.00,21,05,2025,00,00*79
$GNGBS,041034.00,4.0,7.2,8.3,,,,*57
$GNTXT,01,01,01,More than 100 frame errors, UART RX was disabled*70
b0@X,:-h
Z_nW3j [L;'{4V^:R 
Y[EF
I EO!P5PST62XU@mbXOW;$GNRMC,041035.00,A,0419.78550,S,05539.89558,E,0.409,,210525,,,A*7C
$GNVTG,,T,,M,0.409,N,0.758,K,A*3A
$GNGNS,041035.00,0419.78550,S,05539.89558,E,AA,11,1.20,11.1,-47.6,,*6C
$GNGGA,041035.00,0419.78550,S,05539.89558,E,1,11,1.20,11.1,M,-47.6,M,,*46
$GNGSA,A,3,24,20,11,05,22,06,14,,,,,,1.93,1.20,1.52*10
$GNGSA,A,3,80,73,83,79,,,,,,,,,1.93,1.20,1.52*1B
$GPGSV,5,1,17,05,44,163,31,06,12,028,21,11,45,020,23,12,16,346,10*72
$GPGSV,5,2,17,13,28,176,16,14,11,110,29,15,27,214,19,18,06,218,*73
$GPGSV,5,3,17,20,51,106,26,22,21,091,32,24,59,295,17,29,12,277,*7E
$GPGSV,5,4,17,36,52,277,,40,86,350,,41,58,082,,49,32,274,*7D
$GPGSV,5,5,17,50,10,089,*4A
$GLGSV,2,1,08,69,11,147,14,70,11,208,,73,32,001,18,79,18,134,33*67
$GLGSV,2,2,08,80,53,080,26,83,20,006,16,84,54,306,09,85,31,237,17*69
$GNGLL,0419.78550,S,05539.89558,E,041035.00,A,A*69
$GNGRS,041035.00,1,-7.6,0.2,1.0,3.1,-1.8,-1.3,-4.3,,,,,*71
$GNGRS,041035.00,1,4.6,5.8,1.5,5.0,,,,,,,,*5D
$GNGST,041035.00,41,,,,3.9,7.2,8.4*4C
$GNZDA,041035.00,21,05,2025,00,00*78
$GNGBS,041035.00,3.9,7.2,8.4,,,,*5F
$GNTXT,01,01,01,More than 100 frame errors, UART RX was disabled*70
b0@X ,-GZn3jF#[;'{4V^:R 
Y[6EF
I ~O"P5P*SsT62UbXO??$$GNRMC,041036.00,A,0419.78544,S,05539.89548,E,0.313,,210525,,,A*77
$GNVTG,,T,,M,0.313,N,0.580,K,A*31
$GNGNS,041036.00,0419.78544,S,05539.89548,E,AA,11,1.20,11.1,-47.6,,*6B
$GNGGA,041036.00,0419.78544,S,05539.89548,E,1,11,1.20,11.1,M,-47.6,M,,*41
$GNGSA,A,3,24,20,11,05,22,06,14,,,,,,1.93,1.20,1.52*10
$GNGSA,A,3,80,73,83,79,,,,,,,,,1.93,1.20,1.52*1B
$GPGSV,5,1,17,05,44,163,32,06,12,028,21,11,45,020,25,12,16,346,*76
$GPGSV,5,2,17,13,28,176,16,14,11,110,30,15,27,214,21,18,06,218,*70
$GPGSV,5,3,17,20,51,106,26,22,21,091,35,24,59,295,21,29,12,277,*7C
$GPGSV,5,4,17,36,52,277,,40,86,350,,41,58,082,,49,32,274,*7D
$GPGSV,5,5,17,50,10,089,*4A
$GLGSV,2,1,08,69,11,147,13,70,11,208,,73,32,001,16,79,18,134,34*69
$GLGSV,2,2,08,80,53,080,26,83,20,006,15,84,54,306,09,85,31,237,16*6B
$GNGLL,0419.78544,S,05539.89548,E,041036.00,A,A*6E
$GNGRS,041036.00,1,-5.5,-1.9,3.3,-2.9,-5.7,-2.6,-1.0,,,,,*7A
$GNGRS,041036.00,1,3.0,3.8,1.1,-2.8,,,,,,,,*7F
$GNGST,041036.00,41,,,,3.9,7.2,8.5*4E
$GNZDA,041036.00,21,05,2025,00,00*7B
$GNGBS,041036.00,3.9,7.2,8.5,,,,*5D
$GNTXT,01,01,01,More than 100 frame errors, UART RX was disabled*70
b0@X ,-Zn3j [;'v{4V^:R 
Y[EF
I O"P5PST62Um6bXO'C$GNRMC,041037.00,A,0419.78553,S,05539.89545,E,0.391,,210525,,,A*77
$GNVTG,,T,,M,0.391,N,0.724,K,A*37
$GNGNS,041037.00,0419.78553,S,05539.89545,E,AA,11,1.20,10.7,-47.6,,*66
$GNGGA,041037.00,0419.78553,S,05539.89545,E,1,11,1.20,10.7,M,-47.6,M,,*4C
$GNGSA,A,3,24,20,11,05,22,06,14,,,,,,1.93,1.20,1.52*10
$GNGSA,A,3,80,73,83,79,,,,,,,,,1.93,1.20,1.52*1B
$GPGSV,5,1,17,05,44,163,32,06,12,028,21,11,45,020,25,12,16,346,*76
$GPGSV,5,2,17,13,28,176,13,14,11,110,30,15,27,214,22,18,06,218,*76
$GPGSV,5,3,17,20,51,106,28,22,21,091,32,24,59,295,21,29,12,277,*75
$GPGSV,5,4,17,36,52,277,,40,86,350,,41,58,082,,49,32,274,*7D
$GPGSV,5,5,17,50,10,089,*4A
$GLGSV,2,1,08,69,11,147,14,70,11,208,,73,32,001,18,79,18,134,34*60
$GLGSV,2,2,08,80,53,080,23,83,20,006,19,84,54,306,09,85,31,237,15*61
$GNGLL,0419.78553,S,05539.89545,E,041037.00,A,A*64
$GNGRS,041037.00,1,-6.5,-5.5,1.3,-2.5,-3.1,-3.3,-3.7,,,,,*7F
$GNGRS,041037.00,1,4.8,2.6,2.8,2.3,,,,,,,,*52
$GNGST,041037.00,39,,,,3.9,7.2,8.5*40
$GNZDA,041037.00,21,05,2025,00,00*7A
$GNGBS,041037.00,3.9,7.2,8.5,,,,*5C
$GNTXT,01,01,01,More than 100 frame errors, UART RX was disabled*70
b0@X",-Zn3j&$[=;'L{4V^:R 
Y[EF
I pOP5PST62/Uj)bXOGg$GNRMC,041038.00,A,0419.78554,S,05539.89540,E,0.151,,210525,,,A*74
$GNVTG,,T,,M,0.151,N,0.280,K,A*32
$GNGNS,041038.00,0419.78554,S,05539.89540,E,AA,12,1.20,10.9,-47.6,,*66
$GNGGA,041038.00,0419.78554,S,05539.89540,E,1,12,1.20,10.9,M,-47.6,M,,*4C
$GNGSA,A,3,24,20,11,05,22,06,14,,,,,,1.93,1.20,1.52*10
$GNGSA,A,3,84,80,73,83,79,,,,,,,,1.93,1.20,1.52*17
$GPGSV,5,1,17,05,44,163,34,06,12,028,21,11,45,020,23,12,16,346,*76
$GPGSV,5,2,17,13,28,176,14,14,11,110,30,15,27,214,22,18,06,218,*71
$GPGSV,5,3,17,20,51,106,27,22,21,091,36,24,59,295,20,29,12,277,*7F
$GPGSV,5,4,17,36,52,277,,40,86,350,,41,58,082,,49,32,274,*7D
$GPGSV,5,5,17,50,10,089,*4A
$GLGSV,2,1,08,69,11,147,16,70,11,208,,73,32,001,20,79,18,134,31*6C
$GLGSV,2,2,08,80,53,080,20,83,20,006,20,84,54,306,09,85,31,237,15*68
$GNGLL,0419.78554,S,05539.89540,E,041038.00,A,A*69
$GNGRS,041038.00,1,-6.9,-2.2,1.6,-0.1,-1.9,-2.3,-2.4,,,,,*76
$GNGRS,041038.00,1,-148,7.5,3.7,1.4,-3.1,,,,,,,*62
$GNGST,041038.00,40,,,,3.9,7.1,8.6*41
$GNZDA,041038.00,21,05,2025,00,00*75
$GNGBS,041038.00,3.9,7.1,8.6,,,,*53
$GNTXT,01,01,01,More than 100 frame errors, UART RX was disabled*70
b0@hX$,E-9Z"n3j&[a;'{4V^:R 
Y[EF
I OrP5PST62yUKbhXOJ>Y$GNRMC,041039.00,A,0419.78537,S,05539.89494,E,0.450,,210525,,,A*7C
$GNVTG,,T,,M,0.450,N,0.834,K,A*33
$GNGNS,041039.00,0419.78537,S,05539.89494,E,AA,12,1.10,10.3,-47.6,,*63
$GNGGA,041039.00,0419.78537,S,05539.89494,E,1,12,1.10,10.3,M,-47.6,M,,*49
$GNGSA,A,3,24,20,11,05,22,06,14,,,,,,1.87,1.10,1.51*15
$GNGSA,A,3,84,80,73,83,79,,,,,,,,1.87,1.10,1.51*12
$GPGSV,5,1,17,05,44,163,36,06,12,028,19,11,45,020,21,12,16,346,*7D
$GPGSV,5,2,17,13,28,176,,14,11,110,34,15,27,214,21,18,06,218,*73
$GPGSV,5,3,17,20,51,106,28,22,21,091,38,24,59,295,20,29,12,277,*7E
$GPGSV,5,4,17,36,52,277,,40,86,350,,41,58,082,,49,32,274,*7D
$GPGSV,5,5,17,50,10,089,*4A
$GLGSV,2,1,08,69,11,147,19,70,11,208,,73,32,001,20,79,18,134,30*62
$GLGSV,2,2,08,80,53,080,21,83,20,006,19,84,54,306,09,85,31,237,18*6E
$GNGLL,0419.78537,S,05539.89494,E,041039.00,A,A*65
$GNGRS,041039.00,1,-7.8,-2.6,0.6,0.7,-1.6,-3.6,-0.1,,,,,*55
$GNGRS,041039.00,1,-1.4,9.5,2.4,0.2,-4.0,,,,,,,*78
$GNGST,041039.00,3326,,,,3.8,7.0,8.6*40
$GNZDA,041039.00,21,05,2025,00,00*74
$GNGBS,041039.00,3.8,7.0,8.6,,,,*52
$GNTXT,01,01,01,More than 100 frame errors, UART RX was disabled*70
b0@PX$,|\-TZ"n3j%[N;'{4V^:R 
Y[EF
I ODP5P'ST623UWbPXON$GNRMC,041040.00,A,0419.78530,S,05539.89469,E,0.467,,210525,,,A*73
$GNVTG,,T,,M,0.467,N,0.864,K,A*32
$GNGNS,041040.00,0419.78530,S,05539.89469,E,AA,12,1.10,10.2,-47.6,,*69
$GNGGA,041040.00,0419.78530,S,05539.89469,E,1,12,1.10,10.2,M,-47.6,M,,*43
$GNGSA,A,3,24,20,11,05,22,06,14,,,,,,1.87,1.10,1.51*15
$GNGSA,A,3,84,80,73,83,79,,,,,,,,1.87,1.10,1.51*12
$GPGSV,5,1,17,05,44,163,36,06,12,028,20,11,45,020,24,12,16,346,*72
$GPGSV,5,2,17,13,28,176,,14,11,110,34,15,27,214,20,18,06,218,*72
$GPGSV,5,3,17,20,51,106,30,22,21,091,37,24,59,295,22,29,12,277,*7A
$GPGSV,5,4,17,36,52,277,,40,86,350,,41,58,082,,49,32,274,*7D
$GPGSV,5,5,17,50,10,089,*4A
$GLGSV,2,1,08,69,11,147,19,70,11,208,,73,32,001,20,79,18,134,29*6A
$GLGSV,2,2,08,80,53,080,25,83,20,006,18,84,54,306,09,85,31,237,19*6A
$GNGLL,0419.78530,S,05539.89469,E,041040.00,A,A*6E
$GNGRS,041040.00,1,-7.9,-0.5,-1.7,1.2,-1.8,-4.2,-3.1,,,,,*7C
$GNGRS,041040.00,1,-2.1,8.1,1.4,-0.6,-4.4,,,,,,,*5B
$GNGST,041040.00,4989,,,,3.8,6.8,8.6*4F
$GNZDA,041040.00,21,05,2025,00,00*7A
$GNGBS,041040.00,3.8,6.8,8.6,,,,*55
$GNTXT,01,01,01,More than 100 frame errors, UART RX was disabled*70
b0@8X%,c-Z"n3j]&[;'{4V^:R 
Y[EF
I OP5PoST628Uxb8XOR)$GNRMC,041041.00,A,0419.78507,S,05539.89484,E,0.533,,210525,,,A*75
$GNVTG,,T,,M,0.533,N,0.988,K,A*31
$GNGNS,041041.00,0419.78507,S,05539.89484,E,AA,12,1.20,10.3,-47.6,,*6D
$GNGGA,041041.00,0419.78507,S,05539.89484,E,1,12,1.20,10.3,M,-47.6,M,,*47
$GNGSA,A,3,24,20,11,05,22,06,14,,,,,,1.93,1.20,1.52*10
$GNGSA,A,3,84,80,73,83,79,,,,,,,,1.93,1.20,1.52*17
$GPGSV,5,1,17,05,44,163,37,06,12,028,19,11,45,020,26,12,16,346,13*79
$GPGSV,5,2,17,13,28,176,23,14,11,110,34,15,27,214,20,18,06,218,*73
$GPGSV,5,3,17,20,51,106,30,22,21,091,38,24,59,295,22,29,12,277,*75
$GPGSV,5,4,17,36,52,277,,40,86,350,,41,58,082,,49,32,274,*7D
$GPGSV,5,5,17,50,10,089,*4A
$GLGSV,2,1,08,69,11,147,18,70,11,208,,73,32,001,19,79,18,134,28*60
$GLGSV,2,2,08,80,53,080,26,83,20,006,18,84,54,306,09,85,31,237,17*67
$GNGLL,0419.78507,S,05539.89484,E,041041.00,A,A*68
$GNGRS,041041.00,1,-10.0,0.9,-2.8,-3.2,-0.7,-6.7,-1.0,,,,,*4A
$GNGRS,041041.00,1,145,6.2,1.4,0.1,-0.2,,,,,,,*4F
$GNGST,041041.00,36,,,,3.7,6.7,8.6*47
$GNZDA,041041.00,21,05,2025,00,00*7B
$GNGBS,041041.00,3.7,6.7,8.6,,,,*54
$GNTXT,01,01,01,More than 100 frame errors, UART RX was disabled*70
b0@ X$,u"-Z"n3j&[`;'{4V^:R 
Y[EF
I OEP 5PaSrT623UhOb XOV$GNRMC,041042.00,A,0419.78517,S,05539.89492,E,0.238,,210525,,,A*7C
$GNVTG,,T,,M,0.238,N,0.441,K,A*35
$GNGNS,041042.00,0419.78517,S,05539.89492,E,AA,12,1.10,10.5,-47.6,,*6D
$GNGGA,041042.00,0419.78517,S,05539.89492,E,1,12,1.10,10.5,M,-47.6,M,,*47
$GNGSA,A,3,24,20,11,05,22,06,14,,,,,,1.87,1.10,1.51*15
$GNGSA,A,3,84,80,73,83,79,,,,,,,,1.87,1.10,1.51*12
$GPGSV,5,1,17,05,44,163,36,06,12,028,18,11,45,020,34,12,16,346,14*7D
$GPGSV,5,2,17,13,28,176,22,14,11,110,34,15,27,214,20,18,06,218,*72
$GPGSV,5,3,17,20,51,106,28,22,21,091,38,24,59,295,23,29,12,277,*7D
$GPGSV,5,4,17,36,52,277,,40,86,350,,41,58,082,,49,32,274,*7D
$GPGSV,5,5,17,50,10,089,*4A
$GLGSV,2,1,08,69,11,147,18,70,11,208,,73,32,001,28,79,18,134,28*62
$GLGSV,2,2,08,80,53,080,32,83,20,006,16,84,54,306,11,85,31,237,12*60
$GNGLL,0419.78517,S,05539.89492,E,041042.00,A,A*6D
$GNGRS,041042.00,1,-10.7,-3.3,-2.9,-0.5,-1.6,-9.1,-0.9,,,,,*6E
$GNGRS,041042.00,1,0.5,1.0,-0.3,1.1,-1.9,,,,,,,*72
$GNGST,041042.00,3326,,,,3.6,6.5,8.5*45
$GNZDA,041042.00,21,05,2025,00,00*78
$GNGBS,041042.00,3.6,6.5,8.5,,,,*57
$GNTXT,01,01,01,More than 100 frame errors, UART RX was disabled*70
b0@X$,"-^ZVn3j+$[{;' {4V^:R 
Y[EF
I O P5PYST
62WUvbXOZ$GNRMC,041043.00,A,0419.78514,S,05539.89480,E,0.404,,210525,,,A*74
$GNVTG,,T,,M,0.404,N,0.749,K,A*37
$GNGNS,041043.00,0419.78514,S,05539.89480,E,AA,12,1.10,10.2,-47.6,,*6B
$GNGGA,041043.00,0419.78514,S,05539.89480,E,1,12,1.10,10.2,M,-47.6,M,,*41
$GNGSA,A,3,24,20,11,05,22,06,14,,,,,,1.87,1.10,1.51*15
$GNGSA,A,3,84,80,73,83,79,,,,,,,,1.87,1.10,1.51*12
$GPGSV,5,1,17,05,44,163,36,06,12,028,16,11,45,020,34,12,16,346,14*73
$GPGSV,5,2,17,13,28,176,22,14,11,110,30,15,27,214,19,18,06,218,*7C
$GPGSV,5,3,17,20,51,106,27,22,21,091,36,24,59,295,25,29,12,277,*7A
$GPGSV,5,4,17,36,52,277,,40,86,350,,41,58,082,,49,32,274,*7D
$GPGSV,5,5,17,50,10,089,*4A
$GLGSV,2,1,08,69,11,147,16,70,11,208,,73,32,001,26,79,18,134,32*69
$GLGSV,2,2,08,80,53,080,31,83,20,006,14,84,54,306,10,85,31,237,13*61
$GNGLL,0419.78514,S,05539.89480,E,041043.00,A,A*6C
$GNGRS,041043.00,1,-9.9,-4.7,-1.6,-0.2,-1.3,-8.5,-3.4,,,,,*5F
$GNGRS,041043.00,1,0.9,0.9,-0.1,1.3,-0.2,,,,,,,*7D
$GNGST,041043.00,4989,,,,3.5,6.4,8.5*4E
$GNZDA,041043.00,21,05,2025,00,00*79
$GNGBS,041043.00,3.5,6.4,8.5,,,,*54
$GNTXT,01,01,01,More than 100 frame errors, UART RX was disabled*70
b0@X$,- Zn}3j$[u;'7{4V^:R 
Y[eEF
I OP5PUST62gU~\bXO^uR$GNRMC,041044.00,A,0419.78519,S,05539.89493,E,0.017,,210525,,,A*7A
$GNVTG,,T,,M,0.017,N,0.031,K,A*39
$GNGNS,041044.00,0419.78519,S,05539.89493,E,AA,12,1.20,10.5,-47.6,,*67
$GNGGA,041044.00,0419.78519,S,05539.89493,E,1,12,1.20,10.5,M,-47.6,M,,*4D
$GNGSA,A,3,24,20,11,05,22,06,14,,,,,,1.93,1.20,1.52*10
$GNGSA,A,3,84,80,73,83,79,,,,,,,,1.93,1.20,1.52*17
$GPGSV,5,1,17,05,44,163,36,06,12,028,18,11,45,020,29,12,16,346,14*71
$GPGSV,5,2,17,13,28,176,22,14,11,110,22,15,27,214,17,18,06,218,*71
$GPGSV,5,3,17,20,51,106,25,22,21,091,36,24,59,295,24,29,12,277,*79
$GPGSV,5,4,17,36,52,277,,40,86,350,,41,58,082,,49,32,274,*7D
$GPGSV,5,5,17,50,10,089,*4A
$GLGSV,2,1,08,69,11,147,18,70,11,208,,73,32,001,25,79,18,134,30*66
$GLGSV,2,2,08,80,53,080,30,83,20,006,11,84,54,306,08,85,31,237,14*6B
$GNGLL,0419.78519,S,05539.89493,E,041044.00,A,A*64
$GNGRS,041044.00,1,-7.1,-2.7,-2.2,-0.3,-1.4,-10.9,-1.3,,,,,*69
$GNGRS,041044.00,1,-37.4,0.9,2.0,-0.8,2.3,,,,,,,*49
$GNGST,041044.00,44,,,,3.4,6.3,8.6*40
$GNZDA,041044.00,21,05,2025,00,00*7E
$GNGBS,041044.00,3.4,6.3,8.6,,,,*56
$GNTXT,01,01,01,More than 100 frame errors, UART RX was disabled*70
b0@X$,J-ZnU3jw$[c;'{4V^:R 
Y[EF
I O5P5P;ST
62U\bXOgbM$GNRMC,041045.00,A,0419.78518,S,05539.89487,E,0.176,,210525,,,A*79
$GNVTG,,T,,M,0.176,N,0.327,K,A*3B
$GNGNS,041045.00,0419.78518,S,05539.89487,E,AA,12,1.10,10.4,-47.6,,*60
$GNGGA,041045.00,0419.78518,S,05539.89487,E,1,12,1.10,10.4,M,-47.6,M,,*4A
$GNGSA,A,3,24,20,11,05,22,06,14,,,,,,1.87,1.10,1.51*15
$GNGSA,A,3,84,80,73,83,79,,,,,,,,1.87,1.10,1.51*12
$GPGSV,5,1,17,05,44,163,36,06,12,028,21,11,45,020,30,12,16,346,12*75
$GPGSV,5,2,17,13,28,176,20,14,11,110,22,15,27,214,16,18,06,218,*72
$GPGSV,5,3,17,20,51,106,26,22,21,091,36,24,59,295,23,29,12,277,*7D
$GPGSV,5,4,17,36,52,277,,40,86,350,,41,58,082,,49,32,274,*7D
$GPGSV,5,5,17,50,10,089,*4A
$GLGSV,2,1,08,69,11,147,17,70,11,208,,73,32,001,23,79,18,134,31*6E
$GLGSV,2,2,08,80,53,080,28,83,20,006,12,84,54,306,10,85,31,237,*6D
$GNGLL,0419.78518,S,05539.89487,E,041045.00,A,A*61
$GNGRS,041045.00,1,-5.1,-1.4,-1.1,-0.3,-1.6,-12.1,0.9,,,,,*44
$GNGRS,041045.00,1,-0.3,3.2,1.7,-2.6,0.5,,,,,,,*7F
$GNGST,041045.00,3299292,,,,3.4,6.3,8.6*79
$GNZDA,041045.00,21,05,2025,00,00*7F
$GNGBS,041045.00,3.4,6.3,8.6,,,,*57
$GNTXT,01,01,01,More than 100 frame errors, UART RX was disabled*70
b0@X,O-uZnP3j[;'{4V^:R 
Y[EF
I ROP5PS8T62U$cbXOOf%"$GNRMC,041046.00,A,0419.78523,S,05539.89507,E,0.052,,210525,,,A*7C
$GNVTG,,T,,M,0.052,N,0.097,K,A*34
$GNGNS,041046.00,0419.78523,S,05539.89507,E,AA,13,1.03,10.8,-47.6,,*6D
$GNGGA,041046.00,0419.78523,S,05539.89507,E,1,12,1.03,10.8,M,-47.6,M,,*46
$GNGSA,A,3,24,20,11,05,22,06,12,14,,,,,1.70,1.03,1.35*1E
$GNGSA,A,3,84,80,73,83,79,,,,,,,,1.70,1.03,1.35*1A
$GPGSV,5,1,17,05,44,163,29,06,12,028,22,11,45,020,28,12,16,346,12*71
$GPGSV,5,2,17,13,28,176,18,14,11,110,23,15,27,214,16,18,06,218,*78
$GPGSV,5,3,17,20,51,106,24,22,21,091,28,24,59,295,20,29,12,277,*73
$GPGSV,5,4,17,36,52,277,,40,86,350,,41,58,082,,49,32,274,*7D
$GPGSV,5,5,17,50,10,089,*4A
$GLGSV,2,1,08,69,11,147,16,70,11,208,,73,32,001,22,79,18,134,24*6A
$GLGSV,2,2,08,80,53,080,26,83,20,006,15,84,54,306,09,85,31,237,*6C
$GNGLL,0419.78523,S,05539.89507,E,041046.00,A,A*63
$GNGRS,041046.00,1,-4.9,-3.5,-1.4,-0.6,-2.4,-12.0,-15.4,0.8,,,,*7F
$GNGRS,041046.00,1,-0.1,2.6,3.4,0.6,-2.9,,,,,,,*76
$GNGST,041046.00,3179277,,,,3.4,6.3,8.7*7D
$GNZDA,041046.00,21,05,2025,00,00*7C
$GNGBS,041046.00,3.4,6.3,8.7,,,,*55
$GNTXT,01,01,01,More than 100 frame errors, UART RX was disabled*70
b0@X",-&
ZKnM3ja$[;'A{4V^:R 
Y[EF
I sOP5PS1T62Uk-bXO7j$GNRMC,041047.00,A,0419.78522,S,05539.89511,E,0.237,,210525,,,A*7A
$GNVTG,,T,,M,0.237,N,0.438,K,A*34
$GNGNS,041047.00,0419.78522,S,05539.89511,E,AA,13,1.09,10.9,-47.6,,*61
$GNGGA,041047.00,0419.78522,S,05539.89511,E,1,12,1.09,10.9,M,-47.6,M,,*4A
$GNGSA,A,3,24,20,11,05,22,06,12,14,,,,,1.74,1.09,1.35*10
$GNGSA,A,3,84,80,73,83,79,,,,,,,,1.74,1.09,1.35*14
$GPGSV,5,1,17,05,44,163,34,06,12,028,21,11,45,020,29,12,16,346,10*7D
$GPGSV,5,2,17,13,28,176,19,14,11,110,23,15,27,214,15,18,06,218,*7A
$GPGSV,5,3,17,20,51,106,21,22,21,091,36,24,59,295,18,29,12,277,*72
$GPGSV,5,4,17,36,52,277,,40,86,350,,41,58,082,,49,32,274,*7D
$GPGSV,5,5,17,50,10,089,*4A
$GLGSV,2,1,08,69,11,147,13,70,11,208,,73,32,001,21,79,18,134,26*6E
$GLGSV,2,2,08,80,53,080,25,83,20,006,17,84,54,306,11,85,31,237,*64
$GNGLL,0419.78522,S,05539.89511,E,041047.00,A,A*64
$GNGRS,041047.00,1,-9.6,-4.1,-2.2,2.2,0.3,-8.2,-14.6,0.8,,,,*43
$GNGRS,041047.00,1,-147,2.8,3.7,0.5,0.0,,,,,,,*42
$GNGST,041047.00,50,,,,3.4,6.3,8.9*49
$GNZDA,041047.00,21,05,2025,00,00*7D
$GNGBS,041047.00,3.4,6.3,8.9,,,,*5A
$GNTXT,01,01,01,More than 100 frame errors, UART RX was disabled*70
b0@X",-MZn*3j7$[2;'{4V^:R 
Y[EF
I OUP5PGST62UbXOn$GNRMC,041048.00,A,0419.78516,S,05539.89499,E,0.277,,210525,,,A*77
$GNVTG,,T,,M,0.277,N,0.513,K,A*38
$GNGNS,041048.00,0419.78516,S,05539.89499,E,AA,13,1.03,10.8,-47.6,,*63
$GNGGA,041048.00,0419.78516,S,05539.89499,E,1,12,1.03,10.8,M,-47.6,M,,*48
$GNGSA,A,3,24,20,11,05,22,06,12,14,,,,,1.70,1.03,1.35*1E
$GNGSA,A,3,84,80,73,83,79,,,,,,,,1.70,1.03,1.35*1A
$GPGSV,5,1,17,05,44,163,34,06,12,028,20,11,45,020,28,12,16,346,11*7C
$GPGSV,5,2,17,13,28,176,21,14,11,110,21,15,27,214,14,18,06,218,*72
$GPGSV,5,3,17,20,51,106,21,22,21,091,36,24,59,295,20,29,12,277,*79
$GPGSV,5,4,17,36,52,277,,40,86,350,,41,58,082,,49,32,274,*7D
$GPGSV,5,5,17,50,10,089,*4A
$GLGSV,2,1,08,69,11,147,14,70,11,208,,73,32,001,22,79,18,134,30*6D
$GLGSV,2,2,08,80,53,080,26,83,20,006,19,84,54,306,11,85,31,237,*69
$GNGLL,0419.78516,S,05539.89499,E,041048.00,A,A*6D
$GNGRS,041048.00,1,-8.4,-7.1,0.8,1.3,-2.1,-7.4,-15.2,3.0,,,,*41
$GNGRS,041048.00,1,-0.4,0.7,5.0,1.5,-4.3,,,,,,,*72
$GNGST,041048.00,80187,,,,3.4,6.3,9.0*7D
$GNZDA,041048.00,21,05,2025,00,00*72
$GNGBS,041048.00,3.4,6.3,9.0,,,,*5D
$GNTXT,01,01,01,More than 100 frame errors, UART RX was disabled*70
b0@xX#,w-T
Zn3jO$[_;'{4V^:R 
Y[oEF
I UO4P5PST62UnbxXOrZ$GNRMC,041049.00,A,0419.78512,S,05539.89503,E,0.196,,210525,,,A*7C
$GNVTG,,T,,M,0.196,N,0.363,K,A*35
$GNGNS,041049.00,0419.78512,S,05539.89503,E,AA,13,1.03,10.7,-47.6,,*6B
$GNGGA,041049.00,0419.78512,S,05539.89503,E,1,12,1.03,10.7,M,-47.6,M,,*40
$GNGSA,A,3,24,20,11,05,22,06,12,14,,,,,1.70,1.03,1.35*1E
$GNGSA,A,3,84,80,73,83,79,,,,,,,,1.70,1.03,1.35*1A
$GPGSV,5,1,17,05,44,163,35,06,12,028,20,11,45,020,29,12,16,346,10*7D
$GPGSV,5,2,17,13,28,176,20,14,11,110,21,15,27,214,14,18,06,218,*73
$GPGSV,5,3,17,20,51,106,22,22,21,091,36,24,59,295,22,29,12,277,*78
$GPGSV,5,4,17,36,52,277,,40,86,350,,41,58,082,,49,32,274,*7D
$GPGSV,5,5,17,50,10,089,*4A
$GLGSV,2,1,08,69,11,147,14,70,11,208,,73,32,001,24,79,18,134,31*6A
$GLGSV,2,2,08,80,53,080,26,83,20,006,19,84,54,306,09,85,31,237,*60
$GNGLL,0419.78512,S,05539.89503,E,041049.00,A,A*6A
$GNGRS,041049.00,1,-8.1,-4.3,-6.8,-3.0,-1.6,-9.1,-15.3,1.8,,,,*47
$GNGRS,041049.00,1,-0.2,-1.2,6.0,1.7,-2.0,,,,,,,*58
$GNGST,041049.00,80267,,,,3.4,6.3,9.2*73
$GNZDA,041049.00,21,05,2025,00,00*73
$GNGBS,041049.00,3.4,6.3,9.2,,,,*5E
$GNTXT,01,01,01,More than 100 frame errors, UART RX was disabled*70
b0@`X#,
-{Zn3j$[;'l{4V^:R 
Y[rEF
I SOP5PST6259U|b`XOu$GNRMC,041050.00,A,0419.78521,S,05539.89485,E,0.143,,210525,,,A*73
$GNVTG,,T,,M,0.143,N,0.265,K,A*3A
$GNGNS,041050.00,0419.78521,S,05539.89485,E,AA,12,1.20,10.4,-47.6,,*6F
$GNGGA,041050.00,0419.78521,S,05539.89485,E,1,12,1.20,10.4,M,-47.6,M,,*45
$GNGSA,A,3,24,20,11,05,22,06,14,,,,,,1.93,1.20,1.51*13
$GNGSA,A,3,84,80,73,83,79,,,,,,,,1.93,1.20,1.51*14
$GPGSV,5,1,17,05,44,163,35,06,12,028,21,11,45,020,27,12,16,346,*73
$GPGSV,5,2,17,13,28,176,21,14,11,110,20,15,27,214,16,18,06,218,*71
$GPGSV,5,3,17,20,51,106,21,22,21,091,36,24,59,295,24,29,12,277,*7D
$GPGSV,5,4,17,36,52,277,,40,86,350,,41,58,082,,49,32,274,*7D
$GPGSV,5,5,17,50,10,089,*4A
$GLGSV,2,1,08,69,11,147,15,70,11,208,,73,32,001,24,79,18,134,31*6B
$GLGSV,2,2,08,80,53,080,27,83,20,006,21,84,54,306,09,85,31,237,*6A
$GNGLL,0419.78521,S,05539.89485,E,041050.00,A,A*6D
$GNGRS,041050.00,1,-6.6,-3.8,-6.5,2.2,-5.3,-10.1,4.5,,,,,*6C
$GNGRS,041050.00,1,146,-0.8,3.4,2.9,2.9,,,,,,,*41
$GNGST,041050.00,39,,,,3.4,6.3,9.2*4A
$GNZDA,041050.00,21,05,2025,00,00*7B
$GNGBS,041050.00,3.4,6.3,9.2,,,,*56
$GNTXT,01,01,01,More than 100 frame errors, UART RX was disabled*70
b0@HY",z-Znd3j$[;'{4V^:R 
Y[EF
I cOP5PST62UbHYOy]5$GNRMC,041051.00,A,0419.78525,S,05539.89474,E,0.133,,210525,,,A*7F
$GNVTG,,T,,M,0.133,N,0.246,K,A*3C
$GNGNS,041051.00,0419.78525,S,05539.89474,E,AA,12,1.10,10.3,-47.6,,*60
$GNGGA,041051.00,0419.78525,S,05539.89474,E,1,12,1.10,10.3,M,-47.6,M,,*4A
$GNGSA,A,3,24,20,11,05,22,06,14,,,,,,1.87,1.10,1.51*15
$GNGSA,A,3,84,80,73,83,79,,,,,,,,1.87,1.10,1.51*12
$GPGSV,5,1,17,05,44,163,34,06,12,028,20,11,45,020,27,12,16,346,*73
$GPGSV,5,2,17,13,28,176,20,14,11,110,20,15,27,214,16,18,06,218,*70
$GPGSV,5,3,17,20,51,106,20,22,21,091,36,24,59,295,23,29,12,277,*7B
$GPGSV,5,4,17,36,52,277,,40,86,350,,41,58,082,,49,32,274,*7D
$GPGSV,5,5,17,50,10,089,*4A
$GLGSV,2,1,08,69,11,147,14,70,11,208,,73,32,001,24,79,18,134,30*6B
$GLGSV,2,2,08,80,53,080,26,83,20,006,20,84,54,306,08,85,31,237,*6B
$GNGLL,0419.78525,S,05539.89474,E,041051.00,A,A*66
$GNGRS,041051.00,1,-8.4,-2.3,-3.2,1.2,-3.2,-10.9,3.6,,,,,*61
$GNGRS,041051.00,1,-0.2,-1.1,3.5,4.1,2.2,,,,,,,*7E
$GNGST,041051.00,3326,,,,3.3,6.3,9.3*43
$GNZDA,041051.00,21,05,2025,00,00*7A
$GNGBS,041051.00,3.3,6.3,9.3,,,,*51
$GNTXT,01,01,01,More than 100 frame errors, UART RX was disabled*70
b0@0Y,-Zn\3j[;'9{4V^:R 
Y[EF
I OP5PST62Ub0YO}5$GNRMC,041052.00,A,0419.78530,S,05539.89472,E,0.149,,210525,,,A*73
$GNVTG,,T,,M,0.149,N,0.276,K,A*32
$GNGNS,041052.00,0419.78530,S,05539.89472,E,AA,11,1.20,10.3,-47.6,,*61
$GNGGA,041052.00,0419.78530,S,05539.89472,E,1,11,1.20,10.3,M,-47.6,M,,*4B
$GNGSA,A,3,24,20,11,05,22,06,14,,,,,,1.93,1.20,1.51*13
$GNGSA,A,3,80,73,83,79,,,,,,,,,1.93,1.20,1.51*18
$GPGSV,5,1,17,05,44,163,29,06,12,028,20,11,45,020,24,12,16,346,*7C
$GPGSV,5,2,17,13,28,176,19,14,11,110,21,15,27,214,17,18,06,218,*7A
$GPGSV,5,3,17,20,51,106,18,22,21,091,30,24,59,295,22,29,12,277,*77
$GPGSV,5,4,17,36,52,277,,40,86,350,,41,58,082,,49,32,274,*7D
$GPGSV,5,5,17,50,10,089,*4A
$GLGSV,2,1,08,69,11,147,13,70,11,208,,73,32,001,25,79,18,134,24*68
$GLGSV,2,2,08,80,53,080,26,83,20,006,20,84,54,306,07,85,31,237,*64
$GNGLL,0419.78530,S,05539.89472,E,041052.00,A,A*67
$GNGRS,041052.00,1,-7.1,-1.3,-2.9,2.8,-2.5,-11.0,3.5,,,,,*65
$GNGRS,041052.00,1,0.1,3.8,4.0,4.5,,,,,,,,*5D
$GNGST,041052.00,46,,,,3.4,6.3,9.5*47
$GNZDA,041052.00,21,05,2025,00,00*79
$GNGBS,041052.00,3.4,6.3,9.5,,,,*53
$GNTXT,01,01,01,More than 100 frame errors, UART RX was disabled*70
b0@Y",-Zn3j$[P;'{4V^:R 
Y[0EF
I _OXP5PS[T
62U81bYO$GNRMC,041053.00,A,0419.78533,S,05539.89474,E,0.200,,210525,,,A*79
$GNVTG,,T,,M,0.200,N,0.370,K,A*3B
$GNGNS,041053.00,0419.78533,S,05539.89474,E,AA,12,1.20,10.4,-47.6,,*61
$GNGGA,041053.00,0419.78533,S,05539.89474,E,1,12,1.20,10.4,M,-47.6,M,,*4B
$GNGSA,A,3,24,20,11,05,22,06,14,,,,,,1.93,1.20,1.51*13
$GNGSA,A,3,84,80,73,83,79,,,,,,,,1.93,1.20,1.51*14
$GPGSV,5,1,17,05,44,163,34,06,12,028,19,11,45,020,23,12,16,346,*7D
$GPGSV,5,2,17,13,28,176,19,14,11,110,21,15,27,214,17,18,06,218,*7A
$GPGSV,5,3,17,20,51,106,18,22,21,091,36,24,59,295,22,29,12,277,*71
$GPGSV,5,4,17,36,52,277,,40,86,350,,41,58,082,,49,32,274,*7D
$GPGSV,5,5,17,50,10,089,*4A
$GLGSV,2,1,08,69,11,147,12,70,11,208,,73,32,001,26,79,18,134,31*6E
$GLGSV,2,2,08,80,53,080,27,83,20,006,20,84,54,306,10,85,31,237,*63
$GNGLL,0419.78533,S,05539.89474,E,041053.00,A,A*63
$GNGRS,041053.00,1,-7.9,3.9,-2.8,-0.7,-1.8,-11.3,4.4,,,,,*63
$GNGRS,041053.00,1,-79.8,0.0,3.5,3.5,3.4,,,,,,,*61
$GNGST,041053.00,42,,,,3.4,6.3,9.6*41
$GNZDA,041053.00,21,05,2025,00,00*78
$GNGBS,041053.00,3.4,6.3,9.6,,,,*51
$GNTXT,01,01,01,More than 100 frame errors, UART RX was disabled*70
b0@Y!,-Zn3j#[;'k{4V^:R 
Y[lEF
I OP5PoST
62U<bYOm$GNRMC,041054.00,A,0419.78533,S,05539.89481,E,0.258,,210525,,,A*79
$GNVTG,,T,,M,0.258,N,0.478,K,A*39
$GNGNS,041054.00,0419.78533,S,05539.89481,E,AA,12,1.10,10.8,-47.6,,*63
$GNGGA,041054.00,0419.78533,S,05539.89481,E,1,12,1.10,10.8,M,-47.6,M,,*49
$GNGSA,A,3,24,20,11,05,22,06,14,,,,,,1.87,1.10,1.51*15
$GNGSA,A,3,84,80,73,83,79,,,,,,,,1.87,1.10,1.51*12
$GPGSV,5,1,17,05,44,163,33,06,12,028,18,11,45,020,23,12,16,346,*7B
$GPGSV,5,2,17,13,28,176,17,14,11,110,20,15,27,214,15,18,06,218,*77
$GPGSV,5,3,17,20,51,106,20,22,21,091,35,24,59,295,20,29,12,277,*7B
$GPGSV,5,4,17,36,52,277,,40,86,350,,41,58,082,,49,32,274,*7D
$GPGSV,5,5,17,50,10,089,*4A
$GLGSV,2,1,08,69,11,147,12,70,11,208,,73,32,001,24,79,18,134,29*65
$GLGSV,2,2,08,80,53,080,26,83,20,006,18,84,54,306,10,85,31,237,*69
$GNGLL,0419.78533,S,05539.89481,E,041054.00,A,A*6E
$GNGRS,041054.00,1,-6.6,3.9,-5.4,-3.5,-2.4,-11.3,4.3,,,,,*68
$GNGRS,041054.00,1,0.0,-1.5,4.0,1.5,2.7,,,,,,,*56
$GNGST,041054.00,73170,,,,3.4,6.4,9.8*7B
$GNZDA,041054.00,21,05,2025,00,00*7F
$GNGBS,041054.00,3.4,6.4,9.8,,,,*5F
$GNTXT,01,01,01,More than 100 frame errors, UART RX was disabled*70
b0@Y!,0G-9Zn 3j$[%;'_{4V^:R 
Y[EF
I O$P5PST62'U5bYOw$GNRMC,041055.00,A,0419.78542,S,05539.89498,E,0.305,,210525,,,A*7F
$GNVTG,,T,,M,0.305,N,0.565,K,A*3D
$GNGNS,041055.00,0419.78542,S,05539.89498,E,AA,12,1.10,11.3,-47.6,,*66
$GNGGA,041055.00,0419.78542,S,05539.89498,E,1,12,1.10,11.3,M,-47.6,M,,*4C
$GNGSA,A,3,24,20,11,05,22,06,14,,,,,,1.87,1.10,1.51*15
$GNGSA,A,3,84,80,73,83,79,,,,,,,,1.87,1.10,1.51*12
$GPGSV,5,1,17,05,44,163,33,06,12,028,17,11,45,020,25,12,16,346,*72
$GPGSV,5,2,17,13,28,176,17,14,11,110,19,15,27,214,14,18,06,218,*7C
$GPGSV,5,3,17,20,51,106,18,22,21,091,36,24,59,295,17,29,12,277,*77
$GPGSV,5,4,17,36,52,277,,40,86,350,,41,58,082,,49,32,274,*7D
$GPGSV,5,5,17,50,10,089,*4A
$GLGSV,2,1,08,69,11,147,12,70,11,208,,73,32,001,23,79,18,134,29*62
$GLGSV,2,2,08,80,53,080,25,83,20,006,17,84,54,306,07,85,31,237,*63
$GNGLL,0419.78542,S,05539.89498,E,041055.00,A,A*61
$GNGRS,041055.00,1,-4.2,4.2,-4.6,-2.1,-2.2,-9.5,8.0,,,,,*53
$GNGRS,041055.00,1,0.4,-2.6,2.6,2.6,0.4,,,,,,,*52
$GNGST,041055.00,106429,,,,3.4,6.4,10*6E
$GNZDA,041055.00,21,05,2025,00,00*7E
$GNGBS,041055.00,3.4,6.4,10.0,,,,*6E
$GNTXT,01,01,01,More than 100 frame errors, UART RX was disabled*70
b0@Y",|-Zn3jg#[/;'{4V^:R 
Y[DEF
I OP5PS-T62UbYO_.$GNRMC,041056.00,A,0419.78548,S,05539.89495,E,0.134,,210525,,,A*7B
$GNVTG,,T,,M,0.134,N,0.248,K,A*35
$GNGNS,041056.00,0419.78548,S,05539.89495,E,AA,12,1.20,11.0,-47.6,,*62
$GNGGA,041056.00,0419.78548,S,05539.89495,E,1,12,1.20,11.0,M,-47.6,M,,*48
$GNGSA,A,3,24,20,11,05,22,06,14,,,,,,1.93,1.20,1.51*13
$GNGSA,A,3,84,80,73,83,79,,,,,,,,1.93,1.20,1.51*14
$GPGSV,5,1,17,05,44,163,34,06,12,028,16,11,45,020,29,12,16,346,*78
$GPGSV,5,2,17,13,28,176,16,14,11,110,20,15,27,214,16,18,06,218,*75
$GPGSV,5,3,17,20,51,106,18,22,21,091,35,24,59,295,14,29,12,277,*77
$GPGSV,5,4,17,36,52,277,,40,86,350,,41,58,082,,49,32,274,*7D
$GPGSV,5,5,17,50,10,089,*4A
$GLGSV,2,1,08,69,11,147,14,70,11,208,,73,32,001,21,79,18,134,30*6E
$GLGSV,2,2,08,80,53,080,26,83,20,006,17,84,54,306,07,85,31,237,*60
$GNGLL,0419.78548,S,05539.89495,E,041056.00,A,A*65
$GNGRS,041056.00,1,-3.7,6.1,-6.3,-1.3,-2.1,-8.6,6.6,,,,,*5C
$GNGRS,041056.00,1,71.6,-2.4,2.6,3.0,1.8,,,,,,,*6D
$GNGST,041056.00,47,,,,3.4,6.5,10*67
$GNZDA,041056.00,21,05,2025,00,00*7D
$GNGBS,041056.00,3.4,6.5,10.2,,,,*6E
$GNTXT,01,01,01,More than 100 frame errors, UART RX was disabled*70
b0@Y",Q-@Zn3j#[;'{4V^:R 
Y[>EF
I!OP5PSmT62UDbYOGl$GNRMC,041057.00,A,0419.78543,S,05539.89476,E,0.232,,210525,,,A*79
$GNVTG,,T,,M,0.232,N,0.429,K,A*31
$GNGNS,041057.00,0419.78543,S,05539.89476,E,AA,12,1.10,10.5,-47.6,,*62
$GNGGA,041057.00,0419.78543,S,05539.89476,E,1,12,1.10,10.5,M,-47.6,M,,*48
$GNGSA,A,3,24,20,11,05,22,06,14,,,,,,1.87,1.10,1.51*15
$GNGSA,A,3,84,80,73,83,79,,,,,,,,1.87,1.10,1.51*12
$GPGSV,5,1,17,05,44,163,34,06,12,028,14,11,45,020,29,12,16,346,*7A
$GPGSV,5,2,17,13,28,176,16,14,11,110,18,15,27,214,17,18,06,218,*7F
$GPGSV,5,3,17,20,51,106,21,22,21,091,35,24,59,295,14,29,12,277,*7D
$GPGSV,5,4,17,36,52,277,,40,86,350,,41,58,082,,49,32,274,*7D
$GPGSV,5,5,17,50,10,089,*4A
$GLGSV,2,1,08,69,11,147,12,70,11,208,,73,33,001,21,79,18,134,29*61
$GLGSV,2,2,08,80,53,080,26,83,20,006,18,84,54,306,08,85,31,237,*60
$GNGLL,0419.78543,S,05539.89476,E,041057.00,A,A*62
$GNGRS,041057.00,1,-0.5,6.8,-4.5,-0.5,-0.1,-9.4,7.0,,,,,*50
$GNGRS,041057.00,1,-0.6,-2.8,2.4,3.6,-0.4,,,,,,,*5F
$GNGST,041057.00,3299292,,,,3.4,6.6,10*5E
$GNZDA,041057.00,21,05,2025,00,00*7C
$GNGBS,041057.00,3.4,6.6,10.4,,,,*6A
$GNTXT,01,01,01,More than 100 frame errors, UART RX was disabled*70
b0@Y!,-Zn3j"[;'o{4V^:R 
Y[EF
I!O>P5PKS*T62UxbYO/D$GNRMC,041058.00,A,0419.78546,S,05539.89465,E,0.128,,210525,,,A*79
$GNVTG,,T,,M,0.128,N,0.237,K,A*30
$GNGNS,041058.00,0419.78546,S,05539.89465,E,AA,12,1.10,10.1,-47.6,,*6E
$GNGGA,041058.00,0419.78546,S,05539.89465,E,1,12,1.10,10.1,M,-47.6,M,,*44
$GNGSA,A,3,24,20,11,05,22,06,14,,,,,,1.87,1.10,1.51*15
$GNGSA,A,3,84,80,73,83,79,,,,,,,,1.87,1.10,1.51*12
$GPGSV,5,1,17,05,44,163,33,06,12,028,15,11,45,020,29,12,16,346,*7C
$GPGSV,5,2,17,13,28,176,18,14,11,110,17,15,27,214,19,18,06,218,*70
$GPGSV,5,3,17,20,51,106,24,22,21,091,34,24,59,295,19,29,12,277,*74
$GPGSV,5,4,17,36,52,277,,40,86,350,,41,58,082,,49,32,274,*7D
$GPGSV,5,5,17,50,10,089,*4A
$GLGSV,2,1,08,69,11,147,15,70,11,208,,73,33,001,21,79,18,134,28*67
$GLGSV,2,2,08,80,53,080,24,83,20,006,17,84,54,306,08,85,31,237,*6D
$GNGLL,0419.78546,S,05539.89465,E,041058.00,A,A*6A
$GNGRS,041058.00,1,1.1,1.9,-2.4,-0.3,-3.2,-10.5,9.2,,,,,*45
$GNGRS,041058.00,1,-0.9,-4.4,0.0,3.0,0.6,,,,,,,*7A
$GNGST,041058.00,3299292,,,,3.4,6.6,11*50
$GNZDA,041058.00,21,05,2025,00,00*73
$GNGBS,041058.00,3.4,6.6,10.6,,,,*67
$GNTXT,01,01,01,More than 100 frame errors, UART RX was disabled*70
b0@"Y!,4-Zn3j"[;'S{4V^:R 
Y\EF
I!OP5P&ST62(U[b"YOf$GNRMC,041059.00,A,0419.78548,S,05539.89458,E,0.146,,210525,,,A*70
$GNVTG,,T,,M,0.146,N,0.270,K,A*3B
$GNGNS,041059.00,0419.78548,S,05539.89458,E,AA,12,1.20,10.0,-47.6,,*6D
$GNGGA,041059.00,0419.78548,S,05539.89458,E,1,12,1.20,10.0,M,-47.6,M,,*47
$GNGSA,A,3,24,20,11,05,22,06,14,,,,,,1.93,1.20,1.51*13
$GNGSA,A,3,84,80,73,83,79,,,,,,,,1.93,1.20,1.51*14
$GPGSV,5,1,17,05,44,163,33,06,12,028,19,11,45,020,28,12,16,346,*71
$GPGSV,5,2,17,13,28,176,18,14,11,110,20,15,27,214,20,18,06,218,*7E
$GPGSV,5,3,17,20,51,106,25,22,21,091,34,24,59,295,21,29,12,277,*7E
$GPGSV,5,4,17,36,52,277,,40,86,350,,41,58,082,,49,32,274,*7D
$GPGSV,5,5,17,50,10,089,*4A
$GLGSV,2,1,08,69,11,147,15,70,11,208,,73,33,001,21,79,18,134,28*67
$GLGSV,2,2,08,80,53,080,23,83,20,006,16,84,54,306,07,85,31,237,*64
$GNGLL,0419.78548,S,05539.89458,E,041059.00,A,A*6B
$GNGRS,041059.00,1,0.8,-0.4,-2.8,-2.3,-2.7,-9.7,7.0,,,,,*51
$GNGRS,041059.00,1,-148,-4.7,0.1,2.8,0.0,,,,,,,*6C
$GNGST,041059.00,44,,,,3.4,6.7,11*68
$GNZDA,041059.00,21,05,2025,00,00*72
$GNGBS,041059.00,3.4,6.7,10.7,,,,*66
$GNTXT,01,01,01,More than 100 frame errors, UART RX was disabled*70
b0@p&Y ,-$Zn3j"[;'6{4V^:R 
Y\*EF
I!OP5PST62Ubp&YO$GNRMC,041100.00,A,0419.78549,S,05539.89462,E,0.131,,210525,,,A*75
$GNVTG,,T,,M,0.131,N,0.243,K,A*3B
$GNGNS,041100.00,0419.78549,S,05539.89462,E,AA,12,1.10,10.0,-47.6,,*6B
$GNGGA,041100.00,0419.78549,S,05539.89462,E,1,12,1.10,10.0,M,-47.6,M,,*41
$GNGSA,A,3,24,20,11,05,22,06,14,,,,,,1.87,1.10,1.51*15
$GNGSA,A,3,84,80,73,83,79,,,,,,,,1.87,1.10,1.51*12
$GPGSV,5,1,17,05,44,163,32,06,12,028,19,11,45,020,27,12,16,346,*7F
$GPGSV,5,2,17,13,28,176,17,14,11,110,21,15,27,214,19,18,06,218,*7A
$GPGSV,5,3,17,20,51,106,25,22,21,091,34,24,59,295,20,29,12,277,*7F
$GPGSV,5,4,17,36,52,277,,40,86,350,,41,58,082,,49,32,274,*7D
$GPGSV,5,5,17,50,10,089,*4A
$GLGSV,2,1,08,69,11,147,15,70,11,208,,73,33,001,21,79,18,134,29*66
$GLGSV,2,2,08,80,53,080,22,83,20,006,15,84,54,306,07,85,31,237,*66
$GNGLL,0419.78549,S,05539.89462,E,041100.00,A,A*6E
$GNGRS,041100.00,1,0.5,0.0,0.4,-1.1,-2.4,-8.4,8.0,,,,,*54
$GNGRS,041100.00,1,0.0,-4.9,-1.3,3.9,-1.0,,,,,,,*53
$GNGST,041100.00,3326,,,,3.4,6.7,11*61
$GNZDA,041100.00,21,05,2025,00,00*7F
$GNGBS,041100.00,3.4,6.7,10.9,,,,*65
$GNTXT,01,01,01,More than 100 frame errors, UART RX was disabled*70
b0@X*Y#,.-Zn3jI%[D;'{4V^:R 
Y\+EF
I!OP5P:S*T62U!~bX*YO3$GNRMC,041101.00,A,0419.78551,S,05539.89447,E,0.002,,210525,,,A*7B
$GNVTG,,T,,M,0.002,N,0.003,K,A*3C
$GNGNS,041101.00,0419.78551,S,05539.89447,E,AA,12,1.10,9.6,-47.6,,*5A
$GNGGA,041101.00,0419.78551,S,05539.89447,E,1,12,1.10,9.6,M,-47.6,M,,*70
$GNGSA,A,3,24,20,11,05,22,06,14,,,,,,1.87,1.10,1.51*15
$GNGSA,A,3,84,80,73,83,79,,,,,,,,1.87,1.10,1.51*12
$GPGSV,5,1,17,05,44,163,35,06,12,028,21,11,45,020,30,12,16,346,*75
$GPGSV,5,2,17,13,28,176,17,14,11,110,20,15,27,214,19,18,06,218,*7B
$GPGSV,5,3,17,20,51,106,27,22,21,091,37,24,59,295,21,29,12,277,*7F
$GPGSV,5,4,17,36,52,277,,40,86,350,,41,58,082,,49,32,274,*7D
$GPGSV,5,5,17,50,10,089,*4A
$GLGSV,2,1,08,69,11,147,13,70,11,208,,73,33,001,22,79,18,134,29*63
$GLGSV,2,2,08,80,53,080,22,83,20,006,15,84,54,306,07,85,31,237,*66
$GNGLL,0419.78551,S,05539.89447,E,041101.00,A,A*61
$GNGRS,041101.00,1,-1.1,0.7,0.0,0.5,-1.9,-8.8,9.9,,,,,*5C
$GNGRS,041101.00,1,0.0,-4.5,0.0,5.5,-0.3,,,,,,,*79
$GNGST,041101.00,4989,,,,3.4,6.7,11*68
$GNZDA,041101.00,21,05,2025,00,00*7E
$GNGBS,041101.00,3.4,6.7,11.0,,,,*6C
$GNTXT,01,01,01,More than 100 frame errors, UART RX was disabled*70
b0@@.Y ,-@Zn3j{"[;'{4V^:R 
Y\EF
I!OP5PzSHT62(Ub@.YO$GNRMC,041102.00,A,0419.78554,S,05539.89458,E,0.123,,210525,,,A*71
$GNVTG,,T,,M,0.123,N,0.227,K,A*3A
$GNGNS,041102.00,0419.78554,S,05539.89458,E,AA,11,1.20,10.0,-47.6,,*6C
$GNGGA,041102.00,0419.78554,S,05539.89458,E,1,11,1.20,10.0,M,-47.6,M,,*46
$GNGSA,A,3,24,20,11,05,22,06,14,,,,,,1.93,1.20,1.51*13
$GNGSA,A,3,80,73,83,79,,,,,,,,,1.93,1.20,1.51*18
$GPGSV,5,1,17,05,44,163,32,06,12,028,21,11,45,020,28,12,16,346,*7B
$GPGSV,5,2,17,13,28,176,19,14,11,110,21,15,27,214,20,18,06,218,*7E
$GPGSV,5,3,17,20,51,106,27,22,21,091,34,24,59,295,21,29,12,277,*7C
$GPGSV,5,4,17,36,52,277,,40,86,350,,41,58,082,,49,32,274,*7D
$GPGSV,5,5,17,50,10,089,*4A
$GLGSV,2,1,08,69,11,147,14,70,11,208,,73,33,001,23,79,18,134,29*65
$GLGSV,2,2,08,80,53,080,24,83,20,006,13,84,54,306,07,85,31,237,*66
$GNGLL,0419.78554,S,05539.89458,E,041102.00,A,A*69
$GNGRS,041102.00,1,0.3,-3.9,3.2,0.0,0.0,-12.6,9.4,,,,,*48
$GNGRS,041102.00,1,-1.3,-0.3,5.8,-2.6,,,,,,,,*73
$GNGST,041102.00,45,,,,3.4,6.8,11*69
$GNZDA,041102.00,21,05,2025,00,00*7D
$GNGBS,041102.00,3.4,6.8,11.2,,,,*62
$GNTXT,01,01,01,More than 100 frame errors, UART RX was disabled*70
b0@(2Y#,-Zn3jZ#[1;'{4V^:R 
Y\EF
I!8OP5PST62Ub(2YO{$GNRMC,041103.00,A,0419.78561,S,05539.89471,E,0.194,,210525,,,A*71
$GNVTG,,T,,M,0.194,N,0.360,K,A*34
$GNGNS,041103.00,0419.78561,S,05539.89471,E,AA,11,1.20,10.0,-47.6,,*60
$GNGGA,041103.00,0419.78561,S,05539.89471,E,1,11,1.20,10.0,M,-47.6,M,,*4A
$GNGSA,A,3,24,20,11,05,22,06,14,,,,,,1.93,1.20,1.51*13
$GNGSA,A,3,80,73,83,79,,,,,,,,,1.93,1.20,1.51*18
$GPGSV,5,1,17,05,44,163,35,06,12,028,20,11,45,020,27,12,16,346,*72
$GPGSV,5,2,17,13,28,176,19,14,11,110,22,15,27,214,21,18,06,218,*7C
$GPGSV,5,3,17,20,51,106,27,22,21,091,35,24,59,295,21,29,12,277,*7D
$GPGSV,5,4,17,36,52,277,,40,86,350,,41,58,082,,49,32,274,*7D
$GPGSV,5,5,17,50,10,089,*4A
$GLGSV,2,1,08,69,11,147,16,70,11,208,,73,33,001,22,79,18,134,29*66
$GLGSV,2,2,08,80,53,080,22,83,20,006,13,84,54,306,07,85,31,237,*60
$GNGLL,0419.78561,S,05539.89471,E,041103.00,A,A*65
$GNGRS,041103.00,1,2.1,-4.2,-2.4,-3.7,-2.1,-12.9,7.8,,,,,*65
$GNGRS,041103.00,1,-1.2,0.6,2.3,4.1,,,,,,,,*7B
$GNGST,041103.00,48,,,,3.4,6.9,11*64
$GNZDA,041103.00,21,05,2025,00,00*7C
$GNGBS,041103.00,3.4,6.9,11.3,,,,*63
$GNTXT,01,01,01,More than 100 frame errors, UART RX was disabled*70
b0@6Y#, -Zn#3jE#[7;'A{4V^:R 
Y\&EF
I!}OeP5PS(T62Ub6YOSk$GNRMC,041104.00,A,0419.78566,S,05539.89467,E,0.017,,210525,,,A*7C
$GNVTG,,T,,M,0.017,N,0.032,K,A*3A
$GNGNS,041104.00,0419.78566,S,05539.89467,E,AA,11,1.20,9.9,-47.6,,*56
$GNGGA,041104.00,0419.78566,S,05539.89467,E,1,11,1.20,9.9,M,-47.6,M,,*7C
$GNGSA,A,3,24,20,11,05,22,06,14,,,,,,1.93,1.20,1.51*13
$GNGSA,A,3,80,73,83,79,,,,,,,,,1.93,1.20,1.51*18
$GPGSV,5,1,17,05,44,163,35,06,12,028,20,11,45,020,32,12,16,346,*76
$GPGSV,5,2,17,13,28,176,19,14,11,110,20,15,27,214,22,18,06,218,*7D
$GPGSV,5,3,17,20,51,106,27,22,21,091,35,24,59,295,23,29,12,277,*7F
$GPGSV,5,4,17,36,52,277,,40,86,350,,41,58,082,,49,32,274,*7D
$GPGSV,5,5,17,50,10,089,*4A
$GLGSV,2,1,08,69,11,147,18,70,11,208,,73,33,001,23,79,18,134,30*61
$GLGSV,2,2,08,80,53,080,23,83,20,006,14,84,54,306,07,85,31,237,*66
$GNGLL,0419.78566,S,05539.89467,E,041104.00,A,A*62
$GNGRS,041104.00,1,3.2,-4.4,-0.9,-0.1,-2.0,-13.9,8.0,,,,,*6B
$GNGRS,041104.00,1,-0.6,1.3,3.0,6.1,,,,,,,,*7D
$GNGST,041104.00,43,,,,3.3,6.9,11*6F
$GNZDA,041104.00,21,05,2025,00,00*7B
$GNGBS,041104.00,3.3,6.9,11.5,,,,*65
$GNTXT,01,01,01,More than 100 frame errors, UART RX was disabled*70
b0@9Y#,P-Zn3jj$[N;'{4V^:R 
Y\EF
I!OP5PS^T
62U8b9YO*$GNRMC,041105.00,A,0419.78566,S,05539.89460,E,0.107,,210525,,,A*7A
$GNVTG,,T,,M,0.107,N,0.198,K,A*3B
$GNGNS,041105.00,0419.78566,S,05539.89460,E,AA,11,1.20,9.8,-47.6,,*51
$GNGGA,041105.00,0419.78566,S,05539.89460,E,1,11,1.20,9.8,M,-47.6,M,,*7B
$GNGSA,A,3,24,20,11,05,22,06,14,,,,,,1.93,1.20,1.51*13
$GNGSA,A,3,80,73,83,79,,,,,,,,,1.93,1.20,1.51*18
$GPGSV,5,1,17,05,44,163,35,06,12,028,23,11,45,020,31,12,16,346,*76
$GPGSV,5,2,17,13,28,176,19,14,11,110,23,15,27,214,20,18,06,218,*7C
$GPGSV,5,3,17,20,51,106,26,22,21,091,36,24,59,295,25,29,12,277,*7B
$GPGSV,5,4,17,36,52,277,,40,86,350,,41,58,082,,49,32,274,*7D
$GPGSV,5,5,17,50,10,089,*4A
$GLGSV,2,1,08,69,11,147,18,70,11,208,,73,33,001,25,79,18,134,30*67
$GLGSV,2,2,08,80,53,080,26,83,20,006,11,84,54,306,10,85,31,237,*60
$GNGLL,0419.78566,S,05539.89460,E,041105.00,A,A*64
$GNGRS,041105.00,1,2.9,-4.1,2.8,-1.8,-1.8,-13.0,9.1,,,,,*41
$GNGRS,041105.00,1,-0.3,-0.1,3.5,4.8,,,,,,,,*59
$GNGST,041105.00,46,,,,3.3,6.8,11*6A
$GNZDA,041105.00,21,05,2025,00,00*7A
$GNGBS,041105.00,3.3,6.8,11.4,,,,*64
$GNTXT,01,01,01,More than 100 frame errors, UART RX was disabled*70
b0@=Y#,k-0Zn3jL%[V;'{4#V^:R 
Y\.EF
I!OP5PST
62Unb=YOo,$GNRMC,041106.00,A,0419.78568,S,05539.89458,E,0.038,,210525,,,A*71
$GNVTG,,T,,M,0.038,N,0.070,K,A*31
$GNGNS,041106.00,0419.78568,S,05539.89458,E,AA,11,1.20,9.7,-47.6,,*58
$GNGGA,041106.00,0419.78568,S,05539.89458,E,1,11,1.20,9.7,M,-47.6,M,,*72
$GNGSA,A,3,24,20,11,05,22,06,14,,,,,,1.93,1.20,1.51*13
$GNGSA,A,3,80,73,83,79,,,,,,,,,1.93,1.20,1.51*18
$GPGSV,5,1,17,05,44,163,35,06,12,028,22,11,45,020,29,12,16,346,*7E
$GPGSV,5,2,17,13,28,176,21,14,11,110,23,15,27,214,21,18,06,218,*76
$GPGSV,5,3,17,20,51,106,26,22,21,091,37,24,59,295,25,29,12,277,*7A
$GPGSV,5,4,17,36,52,277,,40,86,350,35,41,58,082,,49,32,274,*7B
$GPGSV,5,5,17,50,10,089,*4A
$GLGSV,2,1,08,69,11,146,18,70,11,208,,73,33,001,23,79,18,134,31*61
$GLGSV,2,2,08,80,53,080,26,83,20,006,13,84,54,306,10,85,31,237,*62
$GNGLL,0419.78568,S,05539.89458,E,041106.00,A,A*62
$GNGRS,041106.00,1,0.0,-1.8,3.0,-1.5,-1.7,-13.1,10.4,,,,,*72
$GNGRS,041106.00,1,2.4,-0.1,5.3,5.3,,,,,,,,*78
$GNGST,041106.00,43,,,,3.3,6.7,11*63
$GNZDA,041106.00,21,05,2025,00,00*79
$GNGBS,041106.00,3.3,6.7,11.2,,,,*6E
$GNTXT,01,01,01,More than 100 frame errors, UART RX was disabled*70
b0@AY$,\-<Zn3j%[_;'t{4"V^:R 
Y\EF
I!OP5PSnT62U(bAYOW$GNRMC,041107.00,A,0419.78566,S,05539.89452,E,0.119,,210525,,,A*76
$GNVTG,,T,,M,0.119,N,0.220,K,A*34
$GNGNS,041107.00,0419.78566,S,05539.89452,E,AA,11,1.20,9.5,-47.6,,*5F
$GNGGA,041107.00,0419.78566,S,05539.89452,E,1,11,1.20,9.5,M,-47.6,M,,*75
$GNGSA,A,3,24,20,11,05,22,06,14,,,,,,1.93,1.20,1.51*13
$GNGSA,A,3,80,73,83,79,,,,,,,,,1.93,1.20,1.51*18
$GPGSV,5,1,17,05,44,163,36,06,12,028,22,11,45,020,29,12,16,346,*7D
$GPGSV,5,2,17,13,28,176,21,14,11,110,24,15,27,214,22,18,06,218,*72
$GPGSV,5,3,17,20,51,106,26,22,21,091,37,24,59,295,25,29,12,277,*7A
$GPGSV,5,4,17,36,52,277,,40,86,350,34,41,58,082,,49,32,274,*7A
$GPGSV,5,5,17,50,10,089,*4A
$GLGSV,2,1,08,69,11,146,18,70,11,207,,73,33,001,23,79,18,134,31*6E
$GLGSV,2,2,08,80,53,080,26,83,20,006,17,84,54,306,12,85,31,237,*64
$GNGLL,0419.78566,S,05539.89452,E,041107.00,A,A*67
$GNGRS,041107.00,1,1.2,-7.4,5.7,-1.6,-1.6,-13.8,10.2,,,,,*76
$GNGRS,041107.00,1,2.7,-2.4,3.7,4.4,,,,,,,,*79
$GNGST,041107.00,39,,,,3.2,6.6,11*6F
$GNZDA,041107.00,21,05,2025,00,00*78
$GNGBS,041107.00,3.2,6.6,11.1,,,,*6C
$GNTXT,01,01,01,More than 100 frame errors, UART RX was disabled*70
b0@EY$,T-Zn3j%[\;'{4!V^:R 
Y\EF
I!OP5PvST62UbEYO?$GNRMC,041108.00,A,0419.78568,S,05539.89454,E,0.085,,210525,,,A*75
$GNVTG,,T,,M,0.085,N,0.158,K,A*3C
$GNGNS,041108.00,0419.78568,S,05539.89454,E,AA,12,1.20,9.5,-47.6,,*5B
$GNGGA,041108.00,0419.78568,S,05539.89454,E,1,12,1.20,9.5,M,-47.6,M,,*71
$GNGSA,A,3,24,20,11,05,22,06,14,,,,,,1.93,1.20,1.51*13
$GNGSA,A,3,84,80,73,83,79,,,,,,,,1.93,1.20,1.51*14
$GPGSV,5,1,17,05,44,163,36,06,12,028,21,11,45,020,31,12,16,346,*77
$GPGSV,5,2,17,13,28,176,21,14,11,110,26,15,27,214,22,18,06,218,*70
$GPGSV,5,3,17,20,51,106,24,22,21,091,37,24,59,295,26,29,12,277,*7B
$GPGSV,5,4,17,36,52,277,,40,86,350,33,41,58,082,,49,32,274,*7D
$GPGSV,5,5,17,50,10,089,*4A
$GLGSV,2,1,08,69,11,146,19,70,11,207,,73,33,001,26,79,18,134,31*6A
$GLGSV,2,2,08,80,53,080,28,83,20,006,20,84,54,306,12,85,31,237,*6E
$GNGLL,0419.78568,S,05539.89454,E,041108.00,A,A*60
$GNGRS,041108.00,1,0.3,-6.4,2.1,-1.7,-1.6,-15.6,9.9,,,,,*43
$GNGRS,041108.00,1,-147,3.7,-2.4,2.1,4.8,,,,,,,*63
$GNGST,041108.00,40,,,,3.2,6.5,11*6D
$GNZDA,041108.00,21,05,2025,00,00*77
$GNGBS,041108.00,3.2,6.5,11.0,,,,*61
$GNTXT,01,01,01,More than 100 frame errors, UART RX was disabled*70
b0@IY$,'y -Zn3jU%[0;'R{4V^:R 
Y\EF
I!SO P5PBS6T62UbIYO'd$GNRMC,041109.00,A,0419.78567,S,05539.89456,E,0.033,,210525,,,A*74
$GNVTG,,T,,M,0.033,N,0.062,K,A*39
$GNGNS,041109.00,0419.78567,S,05539.89456,E,AA,12,1.10,9.7,-47.6,,*56
$GNGGA,041109.00,0419.78567,S,05539.89456,E,1,12,1.10,9.7,M,-47.6,M,,*7C
$GNGSA,A,3,24,20,11,05,22,06,14,,,,,,1.87,1.10,1.51*15
$GNGSA,A,3,84,80,73,83,79,,,,,,,,1.87,1.10,1.51*12
$GPGSV,5,1,17,05,44,163,36,06,12,028,21,11,45,020,32,12,16,346,05*71
$GPGSV,5,2,17,13,28,176,20,14,11,110,26,15,27,214,22,18,06,218,*71
$GPGSV,5,3,17,20,51,106,23,22,21,091,37,24,59,295,26,29,12,277,*7C
$GPGSV,5,4,17,36,52,277,,40,86,350,30,41,58,082,,49,32,274,*7E
$GPGSV,5,5,17,50,10,089,*4A
$GLGSV,2,1,08,69,11,146,20,70,11,207,,73,33,001,27,79,18,134,30*60
$GLGSV,2,2,08,80,53,080,28,83,20,006,20,84,54,306,12,85,31,237,*6E
$GNGLL,0419.78567,S,05539.89456,E,041109.00,A,A*6C
$GNGRS,041109.00,1,0.8,-6.8,2.2,-2.2,-2.1,-16.7,9.4,,,,,*4B
$GNGRS,041109.00,1,-0.3,3.2,-1.7,0.5,0.3,,,,,,,*71
$GNGST,041109.00,3326,,,,3.1,6.3,11*69
$GNZDA,041109.00,21,05,2025,00,00*76
$GNGBS,041109.00,3.1,6.3,10.9,,,,*6D
$GNTXT,01,01,01,More than 100 frame errors, UART RX was disabled*70
b0@MY$,-Zn3j%[;;'{4#V^:R 
Y\EF
I!wOP5PST62UbMYOb$GNRMC,041110.00,A,0419.78566,S,05539.89454,E,0.031,,210525,,,A*7D
$GNVTG,,T,,M,0.031,N,0.057,K,A*3D
$GNGNS,041110.00,0419.78566,S,05539.89454,E,AA,13,1.10,9.6,-47.6,,*5D
$GNGGA,041110.00,0419.78566,S,05539.89454,E,1,12,1.10,9.6,M,-47.6,M,,*76
$GNGSA,A,3,24,20,11,05,22,06,12,14,,,,,1.87,1.10,1.51*16
$GNGSA,A,3,84,80,73,83,79,,,,,,,,1.87,1.10,1.51*12
$GPGSV,5,1,17,05,44,163,36,06,12,028,21,11,45,020,29,12,16,346,07*79
$GPGSV,5,2,17,13,28,176,21,14,11,110,25,15,27,214,23,18,06,218,*72
$GPGSV,5,3,17,20,51,106,21,22,21,091,37,24,59,295,26,29,12,277,*7E
$GPGSV,5,4,17,36,52,277,,40,86,350,35,41,58,082,,49,32,274,*7B
$GPGSV,5,5,17,50,10,089,*4A
$GLGSV,2,1,08,69,11,146,19,70,11,207,,73,33,001,26,79,18,134,31*6A
$GLGSV,2,2,08,80,53,080,26,83,20,006,20,84,54,306,12,85,31,237,*60
$GNGLL,0419.78566,S,05539.89454,E,041110.00,A,A*67
$GNGRS,041110.00,1,0.2,-7.4,4.0,-2.4,-2.0,-16.4,-23.0,9.6,,,,*74
$GNGRS,041110.00,1,-0.4,2.7,1.2,0.0,2.0,,,,,,,*56
$GNGST,041110.00,4989,,,,3.1,6.2,11*68
$GNZDA,041110.00,21,05,2025,00,00*7E
$GNGBS,041110.00,3.1,6.2,10.8,,,,*65
$GNTXT,01,01,01,More than 100 frame errors, UART RX was disabled*70
b0@hQY#,%-
Zn3j$[P;'{4!V^:R 
Y\EF
I!O'P5PSuT625U`bhQYO91$GNRMC,041111.00,A,0419.78568,S,05539.89463,E,0.114,,210525,,,A*70
$GNVTG,,T,,M,0.114,N,0.211,K,A*3B
$GNGNS,041111.00,0419.78568,S,05539.89463,E,AA,12,1.20,9.9,-47.6,,*5B
$GNGGA,041111.00,0419.78568,S,05539.89463,E,1,12,1.20,9.9,M,-47.6,M,,*71
$GNGSA,A,3,24,20,11,05,22,06,14,,,,,,1.93,1.20,1.51*13
$GNGSA,A,3,84,80,73,83,79,,,,,,,,1.93,1.20,1.51*14
$GPGSV,5,1,17,05,44,163,35,06,12,028,21,11,45,020,28,12,16,346,10*7D
$GPGSV,5,2,17,13,28,176,22,14,11,110,23,15,27,214,22,18,06,218,*76
$GPGSV,5,3,17,20,51,106,22,22,21,091,36,24,59,295,26,29,12,277,*7C
$GPGSV,5,4,17,36,52,277,,40,86,350,33,41,58,082,,49,32,274,*7D
$GPGSV,5,5,17,50,10,089,*4A
$GLGSV,2,1,08,69,11,146,19,70,11,207,,73,33,001,26,79,18,134,30*6B
$GLGSV,2,2,08,80,53,080,24,83,20,006,19,84,54,306,08,85,31,237,*63
$GNGLL,0419.78568,S,05539.89463,E,041111.00,A,A*6C
$GNGRS,041111.00,1,0.3,-6.4,0.0,-2.3,-1.8,-15.0,10.1,,,,,*77
$GNGRS,041111.00,1,46.6,2.8,0.1,-1.4,8.1,,,,,,,*64
$GNGST,041111.00,40,,,,3.0,6.2,11*60
$GNZDA,041111.00,21,05,2025,00,00*7F
$GNGBS,041111.00,3.0,6.2,10.9,,,,*64
$GNTXT,01,01,01,More than 100 frame errors, UART RX was disabled*70
b0@PUY ,)-
Zn3j![];'{4V^:R 
Y\EF
I!OP5PST62UbPUYO$GNRMC,041112.00,A,0419.78569,S,05539.89455,E,0.194,,210525,,,A*7F
$GNVTG,,T,,M,0.194,N,0.359,K,A*3E
$GNGNS,041112.00,0419.78569,S,05539.89455,E,AA,12,1.10,9.7,-47.6,,*51
$GNGGA,041112.00,0419.78569,S,05539.89455,E,1,12,1.10,9.7,M,-47.6,M,,*7B
$GNGSA,A,3,24,20,11,05,22,06,14,,,,,,1.87,1.10,1.51*15
$GNGSA,A,3,84,80,73,83,79,,,,,,,,1.87,1.10,1.51*12
$GPGSV,5,1,17,05,44,163,32,06,12,028,19,11,45,020,26,12,16,346,10*7F
$GPGSV,5,2,17,13,28,176,20,14,11,110,22,15,27,214,21,18,06,218,*76
$GPGSV,5,3,17,20,51,106,24,22,21,091,33,24,59,295,25,29,12,277,*7C
$GPGSV,5,4,17,36,52,277,,40,86,350,30,41,58,082,,49,32,274,*7E
$GPGSV,5,5,17,50,10,089,*4A
$GLGSV,2,1,08,69,11,146,15,70,11,207,,73,33,001,24,79,18,134,29*6D
$GLGSV,2,2,08,80,53,080,22,83,20,006,16,84,54,306,08,85,31,237,*6A
$GNGLL,0419.78569,S,05539.89455,E,041112.00,A,A*6B
$GNGRS,041112.00,1,1.6,-5.8,5.0,-2.2,-1.6,-15.3,8.0,,,,,*4E
$GNGRS,041112.00,1,-0.5,1.4,-0.6,3.8,1.3,,,,,,,*76
$GNGST,041112.00,3299292,,,,3.0,6.2,11*5F
$GNZDA,041112.00,21,05,2025,00,00*7C
$GNGBS,041112.00,3.0,6.2,10.9,,,,*67
$GNTXT,01,01,01,More than 100 frame errors, UART RX was disabled*70
b0@8YY ,4-#Zn3jk%[W;'{4V^:R 
Y\EF
I!OUP5PST62UFb8YYO$GNRMC,041113.00,A,0419.78572,S,05539.89451,E,0.048,,210525,,,A*70
$GNVTG,,T,,M,0.048,N,0.090,K,A*38
$GNGNS,041113.00,0419.78572,S,05539.89451,E,AA,13,1.10,9.7,-47.6,,*5F
$GNGGA,041113.00,0419.78572,S,05539.89451,E,1,12,1.10,9.7,M,-47.6,M,,*74
$GNGSA,A,3,24,20,11,05,22,06,12,14,,,,,1.87,1.10,1.51*16
$GNGSA,A,3,84,80,73,83,79,,,,,,,,1.87,1.10,1.51*12
$GPGSV,5,1,17,05,44,163,32,06,12,028,18,11,45,020,26,12,16,346,09*76
$GPGSV,5,2,17,13,28,176,19,14,11,110,21,15,27,214,21,18,06,218,*7F
$GPGSV,5,3,17,20,51,106,25,22,21,091,37,24,59,295,25,29,12,277,*79
$GPGSV,5,4,17,36,52,277,,40,86,350,31,41,58,082,,49,32,274,*7F
$GPGSV,5,5,17,50,10,089,*4A
$GLGSV,2,1,08,69,11,146,14,70,11,207,,73,33,001,24,79,18,134,30*64
$GLGSV,2,2,08,80,53,080,22,83,20,006,18,84,54,306,08,85,31,237,*64
$GNGLL,0419.78572,S,05539.89451,E,041113.00,A,A*64
$GNGRS,041113.00,1,-0.3,-6.6,0.4,-2.0,-1.7,-17.8,-29.4,7.4,,,,*57
$GNGRS,041113.00,1,-0.4,-0.4,-1.1,5.3,-1.7,,,,,,,*78
$GNGST,041113.00,3299292,,,,3.1,6.2,11*5F
$GNZDA,041113.00,21,05,2025,00,00*7D
$GNGBS,041113.00,3.1,6.2,11.0,,,,*6F
$GNTXT,01,01,01,More than 100 frame errors, UART RX was disabled*70
b0@ ]Y$,$-Zn3j%[`;'/{4#V^:R 
Y\EF
I!^OiP5PSBT62UK"b ]YOi$GNRMC,041114.00,A,0419.78570,S,05539.89446,E,0.083,,210525,,,A*74
$GNVTG,,T,,M,0.083,N,0.154,K,A*36
$GNGNS,041114.00,0419.78570,S,05539.89446,E,AA,12,1.09,9.5,-47.6,,*57
$GNGGA,041114.00,0419.78570,S,05539.89446,E,1,12,1.09,9.5,M,-47.6,M,,*7D
$GNGSA,A,3,24,20,11,05,22,06,12,14,,,,,1.74,1.09,1.35*10
$GNGSA,A,3,80,73,83,79,,,,,,,,,1.74,1.09,1.35*18
$GPGSV,5,1,17,05,44,163,36,06,12,028,19,11,45,020,26,12,16,346,09*73
$GPGSV,5,2,17,13,28,176,16,14,11,110,23,15,27,214,19,18,06,218,*79
$GPGSV,5,3,17,20,51,106,26,22,21,091,37,24,59,295,25,29,12,277,*7A
$GPGSV,5,4,17,36,52,277,,40,86,350,35,41,58,082,,49,32,274,*7B
$GPGSV,5,5,17,50,10,089,*4A
$GLGSV,2,1,08,69,11,146,17,70,11,207,,73,33,001,24,79,18,134,30*67
$GLGSV,2,2,08,80,53,080,24,83,20,006,19,84,54,306,05,85,31,237,*6E
$GNGLL,0419.78570,S,05539.89446,E,041114.00,A,A*67
$GNGRS,041114.00,1,0.5,-2.4,1.8,-2.2,-1.6,-18.1,-7.4,7.6,,,,*4B
$GNGRS,041114.00,1,-0.2,-1.6,5.8,1.0,,,,,,,,*58
$GNGST,041114.00,51,,,,3.1,6.1,11*67
$GNZDA,041114.00,21,05,2025,00,00*7A
$GNGBS,041114.00,3.1,6.1,11.0,,,,*6B
$GNTXT,01,01,01,More than 100 frame errors, UART RX was disabled*70
b0@aY,6M-Zn3jP"[H;'{4!V^:R 
Y\wEF
I!OP5PS]T62U6baYO$GNRMC,041115.00,A,0419.78569,S,05539.89450,E,0.130,,210525,,,A*73
$GNVTG,,T,,M,0.130,N,0.241,K,A*38
$GNGNS,041115.00,0419.78569,S,05539.89450,E,AA,11,1.20,9.6,-47.6,,*52
$GNGGA,041115.00,0419.78569,S,05539.89450,E,1,11,1.20,9.6,M,-47.6,M,,*78
$GNGSA,A,3,24,20,11,05,22,06,14,,,,,,1.93,1.20,1.51*13
$GNGSA,A,3,80,73,83,79,,,,,,,,,1.93,1.20,1.51*18
$GPGSV,5,1,17,05,44,163,31,06,12,028,18,11,45,020,27,12,16,346,06*7B
$GPGSV,5,2,17,13,28,176,16,14,11,110,25,15,27,214,17,18,06,218,*71
$GPGSV,5,3,17,20,51,106,27,22,21,091,34,24,59,295,23,29,12,277,*7E
$GPGSV,5,4,17,36,52,277,,40,86,350,33,41,58,082,,49,32,274,*7D
$GPGSV,5,5,17,50,10,089,*4A
$GLGSV,2,1,08,69,11,146,,70,11,207,,73,33,001,24,79,18,134,29*69
$GLGSV,2,2,08,80,53,080,25,83,20,006,18,84,54,306,13,85,31,237,*69
$GNGLL,0419.78569,S,05539.89450,E,041115.00,A,A*69
$GNGRS,041115.00,1,-2.2,-1.8,-0.2,-2.0,-1.8,-17.2,4.2,,,,,*4C
$GNGRS,041115.00,1,1.8,-3.0,6.1,2.6,,,,,,,,*74
$GNGST,041115.00,42,,,,3.1,6.1,11*64
$GNZDA,041115.00,21,05,2025,00,00*7B
$GNGBS,041115.00,3.1,6.1,11.0,,,,*6A
$GNTXT,01,01,01,More than 100 frame errors, UART RX was disabled*70
b0@dY#,46-Zn3j.#[P;'V{4$V^:R 
Y\EF
I!OuP5PST62UbdYOp*$GNRMC,041116.00,A,0419.78568,S,05539.89445,E,0.147,,210525,,,A*75
$GNVTG,,T,,M,0.147,N,0.273,K,A*39
$GNGNS,041116.00,0419.78568,S,05539.89445,E,AA,12,1.09,9.5,-47.6,,*5F
$GNGGA,041116.00,0419.78568,S,05539.89445,E,1,12,1.09,9.5,M,-47.6,M,,*75
$GNGSA,A,3,24,20,11,05,22,06,12,14,,,,,1.74,1.09,1.35*10
$GNGSA,A,3,80,73,83,79,,,,,,,,,1.74,1.09,1.35*18
$GPGSV,5,1,17,05,44,163,35,06,12,028,16,11,45,020,26,12,16,346,08*7E
$GPGSV,5,2,17,13,28,176,17,14,11,110,25,15,27,214,15,18,06,218,*72
$GPGSV,5,3,17,20,51,106,27,22,21,091,35,24,59,295,23,29,12,277,*7F
$GPGSV,5,4,17,36,52,277,,40,86,350,36,41,58,082,,49,32,274,*78
$GPGSV,5,5,17,50,10,089,*4A
$GLGSV,2,1,08,69,11,146,,70,11,207,,73,33,001,25,79,18,135,30*61
$GLGSV,2,2,08,80,53,080,23,83,20,006,18,84,54,306,11,85,31,237,*6D
$GNGLL,0419.78568,S,05539.89445,E,041116.00,A,A*6F
$GNGRS,041116.00,1,-1.7,-2.1,2.1,-2.0,-1.8,-17.4,14.7,1.9,,,,*7B
$GNGRS,041116.00,1,1.6,-2.3,7.1,3.7,,,,,,,,*7A
$GNGST,041116.00,3299292,,,,3.1,6.1,11*59
$GNZDA,041116.00,21,05,2025,00,00*78
$GNGBS,041116.00,3.1,6.1,11.0,,,,*69
$GNTXT,01,01,01,More than 100 frame errors, UART RX was disabled*70
b0@hY ,9l-Z'n3j]#[^;'${4!V^:R 
Y\nEF
I!XOP5RST62UbhYOgH$GNRMC,041117.00,A,0419.78565,S,05539.89429,E,0.188,,210525,,,A*70
$GNVTG,,T,,M,0.188,N,0.348,K,A*33
$GNGNS,041117.00,0419.78565,S,05539.89429,E,AA,12,1.13,8.9,-47.6,,*5F
$GNGGA,041117.00,0419.78565,S,05539.89429,E,1,12,1.13,8.9,M,-47.6,M,,*75
$GNGSA,A,3,24,20,11,05,22,12,14,,,,,,1.94,1.13,1.57*17
$GNGSA,A,3,84,80,73,83,79,,,,,,,,1.94,1.13,1.57*15
$GPGSV,5,1,17,05,44,163,32,06,12,028,19,11,45,020,27,12,16,346,08*77
$GPGSV,5,2,17,13,28,176,18,14,11,110,25,15,27,214,16,18,06,218,*7E
$GPGSV,5,3,17,20,51,106,25,22,21,091,35,24,59,295,24,29,12,277,*7A
$GPGSV,5,4,17,36,52,277,,40,86,350,33,41,58,082,,49,32,274,*7D
$GPGSV,5,5,17,50,10,089,*4A
