$GNTXT,01,01,01,More than 100 frame errors, UART RX was disabled*70
b0@\-+y[o 3h!]#!;%a{4V^:R 
Y\4EF
I"OIP5T7ST45Ub\O_{v$GNRMC,041408.00,A,0419.78161,S,05539.89308,E,0.155,,210525,,,A*7F
$GNVTG,,T,,M,0.155,N,0.286,K,A*30
$GNGNS,041408.00,0419.78161,S,05539.89308,E,AA,13,1.11,14.0,-47.6,,*67
$GNGGA,041408.00,0419.78161,S,05539.89308,E,1,12,1.11,14.0,M,-47.6,M,,*4C
$GNGSA,A,3,24,20,11,05,22,06,12,14,,,,,1.73,1.11,1.33*18
$GNGSA,A,3,84,80,73,83,79,,,,,,,,1.73,1.11,1.33*1C
$GPGSV,5,1,17,05,45,162,30,06,11,028,30,11,43,020,28,12,17,347,13*7E
$GPGSV,5,2,17,13,28,175,17,14,11,111,19,15,27,213,21,18,07,219,*7F
$GPGSV,5,3,17,20,51,104,32,22,21,093,33,24,59,293,33,29,12,278,*75
$GPGSV,5,4,17,36,52,277,,40,86,350,,41,58,082,,49,32,274,*7D
$GPGSV,5,5,17,50,10,089,*4A
$GLGSV,2,1,08,69,11,145,,70,11,206,,73,34,002,21,79,17,136,18*65
$GLGSV,2,2,08,80,53,084,25,83,18,007,19,84,52,309,16,85,31,239,22*64
$GNGLL,0419.78161,S,05539.89308,E,041408.00,A,A*66
$GNGRS,041408.00,1,-1.6,-1.2,6.3,-0.1,-2.2,1.6,-15.9,-8.6,,,,*6D
$GNGRS,041408.00,1,-147,0.5,-8.4,-2.3,0.7,,,,,,,*49
$GNGST,041408.00,40,,,,4.0,4.0,6.6*44
$GNZDA,041408.00,21,05,2025,00,00*72
$GNGBS,041408.00,4.0,4.0,6.6,,,,*56
$GNTXT,01,01,01,More than 100 frame errors, UART RX was disabled*70
b0@\-U+2[!p#3h2!]";%{4V^:R 
Y\EF
I"OlP5T?S,T45Ub\OGN$GNRMC,041409.00,A,0419.78157,S,05539.89313,E,0.120,,210525,,,A*73
$GNVTG,,T,,M,0.120,N,0.222,K,A*3C
$GNGNS,041409.00,0419.78157,S,05539.89313,E,AA,13,1.04,14.1,-47.6,,*6C
$GNGGA,041409.00,0419.78157,S,05539.89313,E,1,12,1.04,14.1,M,-47.6,M,,*47
$GNGSA,A,3,24,20,11,05,22,06,12,14,,,,,1.69,1.04,1.33*17
$GNGSA,A,3,84,80,73,83,79,,,,,,,,1.69,1.04,1.33*13
$GPGSV,5,1,17,05,45,162,27,06,11,028,29,11,43,020,27,12,17,347,15*79
$GPGSV,5,2,17,13,28,175,14,14,11,112,20,15,27,213,19,18,07,219,*7E
$GPGSV,5,3,17,20,51,104,35,22,21,093,33,24,59,293,34,29,12,278,*75
$GPGSV,5,4,17,36,52,277,,40,86,350,,41,58,082,,49,32,274,*7D
$GPGSV,5,5,17,50,10,089,*4A
$GLGSV,2,1,08,69,11,145,,70,11,206,,73,34,002,17,79,17,136,16*6E
$GLGSV,2,2,08,80,53,084,25,83,18,007,18,84,52,309,16,85,31,239,20*67
$GNGLL,0419.78157,S,05539.89313,E,041409.00,A,A*68
$GNGRS,041409.00,1,-1.1,-2.1,3.1,0.2,-1.0,3.4,-12.5,-10.2,,,,*75
$GNGRS,041409.00,1,-0.4,3.2,-5.4,-4.7,1.1,,,,,,,*5C
$GNGST,041409.00,3205,,,,4.0,4.0,6.6*45
$GNZDA,041409.00,21,05,2025,00,00*73
$GNGBS,041409.00,4.0,4.0,6.6,,,,*57
$GNTXT,01,01,01,More than 100 frame errors, UART RX was disabled*70
b0@\-+[p"3h? ]#;%{4V^:R 
Y \/EF
I"OrP"5TSpT45UDb\O/&$GNRMC,041410.00,A,0419.78154,S,05539.89315,E,0.082,,210525,,,A*77
$GNVTG,,T,,M,0.082,N,0.152,K,A*31
$GNGNS,041410.00,0419.78154,S,05539.89315,E,AA,13,1.04,14.2,-47.6,,*62
$GNGGA,041410.00,0419.78154,S,05539.89315,E,1,12,1.04,14.2,M,-47.6,M,,*49
$GNGSA,A,3,24,20,11,05,22,06,12,14,,,,,1.69,1.04,1.33*17
$GNGSA,A,3,84,80,73,83,79,,,,,,,,1.69,1.04,1.33*13
$GPGSV,5,1,17,05,45,162,15,06,11,028,30,11,43,020,28,12,17,347,17*7D
$GPGSV,5,2,17,13,28,175,16,14,11,112,22,15,27,212,20,18,07,219,*75
$GPGSV,5,3,17,20,51,104,34,22,21,093,32,24,59,293,35,29,12,278,*74
$GPGSV,5,4,17,36,52,277,,40,86,350,,41,58,082,,49,32,274,*7D
$GPGSV,5,5,17,50,10,089,*4A
$GLGSV,2,1,08,69,11,145,,70,11,206,,73,34,002,15,79,17,136,18*62
$GLGSV,2,2,08,80,53,084,34,83,18,007,18,84,52,309,16,85,31,239,22*65
$GNGLL,0419.78154,S,05539.89315,E,041410.00,A,A*65
$GNGRS,041410.00,1,-0.3,0.6,4.7,2.8,1.9,2.2,-11.2,-10.4,,,,*7E
$GNGRS,041410.00,1,-0.6,0.0,-3.3,-4.0,1.1,,,,,,,*51
$GNGST,041410.00,4808,,,,4.0,4.0,6.6*4D
$GNZDA,041410.00,21,05,2025,00,00*7B
$GNGBS,041410.00,4.0,4.0,6.6,,,,*5F
$GNTXT,01,01,01,More than 100 frame errors, UART RX was disabled*70
b0@\-S +%[pY#3h| ];%{4V^:R 
Y\EF
I"OP#5TS6T45vUOb\OR$GNRMC,041411.00,A,0419.78153,S,05539.89317,E,0.031,,210525,,,A*7B
$GNVTG,,T,,M,0.031,N,0.057,K,A*3D
$GNGNS,041411.00,0419.78153,S,05539.89317,E,AA,12,1.11,14.4,-47.6,,*65
$GNGGA,041411.00,0419.78153,S,05539.89317,E,1,12,1.11,14.4,M,-47.6,M,,*4F
$GNGSA,A,3,24,20,11,05,22,06,12,14,,,,,1.73,1.11,1.33*18
$GNGSA,A,3,80,73,83,79,,,,,,,,,1.73,1.11,1.33*10
$GPGSV,5,1,17,05,45,162,18,06,11,028,31,11,43,020,32,12,17,347,16*7B
$GPGSV,5,2,17,13,28,175,15,14,11,112,20,15,27,212,22,18,07,219,*76
$GPGSV,5,3,17,20,51,104,35,22,21,093,32,24,59,293,31,29,12,278,*71
$GPGSV,5,4,17,36,52,277,,40,86,350,,41,58,082,,49,32,274,*7D
$GPGSV,5,5,17,50,10,089,*4A
$GLGSV,2,1,08,69,11,145,23,70,11,206,,73,34,002,14,79,17,136,17*6D
$GLGSV,2,2,08,80,53,084,35,83,18,007,17,84,52,309,11,85,31,239,22*6C
$GNGLL,0419.78153,S,05539.89317,E,041411.00,A,A*61
$GNGRS,041411.00,1,4.9,1.2,-2.2,5.1,2.2,3.4,-10.1,-9.3,,,,*4B
$GNGRS,041411.00,1,2.1,-2.3,-4.6,-0.1,,,,,,,,*7D
$GNGST,041411.00,43,,,,4.0,4.0,6.6*4F
$GNZDA,041411.00,21,05,2025,00,00*7A
$GNGBS,041411.00,4.0,4.0,6.6,,,,*5E
$GNTXT,01,01,01,More than 100 frame errors, UART RX was disabled*70
b0@p\-+[p#3h] ;%{4V^:R 
Y\EF
I"POP5TsST
45Ubp\O$GNRMC,041412.00,A,0419.78157,S,05539.89310,E,0.022,,210525,,,A*79
$GNVTG,,T,,M,0.022,N,0.040,K,A*39
$GNGNS,041412.00,0419.78157,S,05539.89310,E,AA,12,1.11,14.3,-47.6,,*62
$GNGGA,041412.00,0419.78157,S,05539.89310,E,1,12,1.11,14.3,M,-47.6,M,,*48
$GNGSA,A,3,24,20,11,05,22,06,12,14,,,,,1.73,1.11,1.33*18
$GNGSA,A,3,80,73,83,79,,,,,,,,,1.73,1.11,1.33*10
$GPGSV,5,1,17,05,45,162,29,06,11,028,30,11,43,020,30,12,17,347,15*79
$GPGSV,5,2,17,13,28,175,20,14,11,112,18,15,27,212,20,18,07,219,*79
$GPGSV,5,3,17,20,51,104,35,22,21,093,28,24,59,293,32,29,12,278,*79
$GPGSV,5,4,17,36,52,277,,40,86,350,,41,58,082,,49,32,274,*7D
$GPGSV,5,5,17,50,10,089,*4A
$GLGSV,2,1,08,69,11,145,22,70,11,206,,73,34,002,17,79,17,136,21*6A
$GLGSV,2,2,08,80,53,084,30,83,18,007,17,84,52,309,10,85,31,239,23*69
$GNGLL,0419.78157,S,05539.89310,E,041412.00,A,A*61
$GNGRS,041412.00,1,4.0,1.3,0.0,2.4,0.1,4.1,-7.9,-10.2,,,,*6B
$GNGRS,041412.00,1,-1.4,-1.8,-3.0,-0.3,,,,,,,,*5E
$GNGST,041412.00,40,,,,4.0,4.0,6.6*4F
$GNZDA,041412.00,21,05,2025,00,00*79
$GNGBS,041412.00,4.0,4.0,6.6,,,,*5D
$GNTXT,01,01,01,More than 100 frame errors, UART RX was disabled*70
b0@X\-|F+[rp#3h]";%C{4V^:R 
Y\EF
I"OP5TST45UCbX\O$GNRMC,041413.00,A,0419.78162,S,05539.89305,E,0.094,,210525,,,A*77
$GNVTG,,T,,M,0.094,N,0.174,K,A*32
$GNGNS,041413.00,0419.78162,S,05539.89305,E,AA,12,1.11,14.1,-47.6,,*63
$GNGGA,041413.00,0419.78162,S,05539.89305,E,1,12,1.11,14.1,M,-47.6,M,,*49
$GNGSA,A,3,24,20,11,05,22,06,12,14,,,,,1.73,1.11,1.33*18
$GNGSA,A,3,80,73,83,79,,,,,,,,,1.73,1.11,1.33*10
$GPGSV,5,1,17,05,45,162,28,06,11,028,25,11,43,020,24,12,17,347,16*7A
$GPGSV,5,2,17,13,28,175,20,14,11,112,15,15,27,212,20,18,07,219,*74
$GPGSV,5,3,17,20,51,104,31,22,21,093,29,24,59,293,34,29,12,278,*7A
$GPGSV,5,4,17,36,52,277,,40,86,350,,41,58,082,,49,32,274,*7D
$GPGSV,5,5,17,50,10,089,*4A
$GLGSV,2,1,08,69,11,145,21,70,11,206,,73,34,002,18,79,17,136,22*65
$GLGSV,2,2,08,80,53,084,30,83,18,007,17,84,52,309,11,85,31,239,22*69
$GNGLL,0419.78162,S,05539.89305,E,041413.00,A,A*62
$GNGRS,041413.00,1,0.7,-0.3,-0.1,1.2,3.9,5.8,-6.5,-9.9,,,,*51
$GNGRS,041413.00,1,-7.4,-1.0,-2.4,-0.5,,,,,,,,*52
$GNGST,041413.00,44,,,,4.0,4.0,6.7*4B
$GNZDA,041413.00,21,05,2025,00,00*78
$GNGBS,041413.00,4.0,4.0,6.7,,,,*5D
$GNTXT,01,01,01,More than 100 frame errors, UART RX was disabled*70
b0@@\-H+[1p!3h];%1{4V^:R 
Y\3EF
I"OP5TS\T45U5b@\O$GNRMC,041414.00,A,0419.78161,S,05539.89303,E,0.054,,210525,,,A*79
$GNVTG,,T,,M,0.054,N,0.101,K,A*3C
$GNGNS,041414.00,0419.78161,S,05539.89303,E,AA,13,1.04,14.0,-47.6,,*65
$GNGGA,041414.00,0419.78161,S,05539.89303,E,1,12,1.04,14.0,M,-47.6,M,,*4E
$GNGSA,A,3,24,20,11,05,22,06,12,14,,,,,1.69,1.04,1.33*17
$GNGSA,A,3,84,80,73,83,79,,,,,,,,1.69,1.04,1.33*13
$GPGSV,5,1,17,05,45,162,13,06,11,028,31,11,43,020,31,12,17,347,14*71
$GPGSV,5,2,17,13,28,175,20,14,11,112,13,15,27,212,21,18,07,219,*73
$GPGSV,5,3,17,20,51,104,33,22,21,093,31,24,59,293,31,29,12,278,*74
$GPGSV,5,4,17,36,52,277,,40,86,350,,41,58,082,,49,32,274,*7D
$GPGSV,5,5,17,50,10,089,*4A
$GLGSV,2,1,08,69,11,145,21,70,11,206,,73,34,002,18,79,17,136,22*65
$GLGSV,2,2,08,80,53,084,31,83,18,007,17,84,52,309,13,85,31,239,22*6A
$GNGLL,0419.78161,S,05539.89303,E,041414.00,A,A*60
$GNGRS,041414.00,1,0.5,4.4,2.0,0.7,-1.3,2.4,-4.6,-11.3,,,,*4C
$GNGRS,041414.00,1,7.9,-10.3,1.3,-4.2,-0.6,,,,,,,*69
$GNGST,041414.00,53,,,,4.0,4.0,6.7*4A
$GNZDA,041414.00,21,05,2025,00,00*7F
$GNGBS,041414.00,4.0,4.0,6.7,,,,*5A
$GNTXT,01,01,01,More than 100 frame errors, UART RX was disabled*70
b0@( \-|+[pO!3g];%5{4V^:R 
Y\-EF
I"O@P5TST
45Ub( \O]$GNRMC,041415.00,A,0419.78151,S,05539.89304,E,0.245,,210525,,,A*7E
$GNVTG,,T,,M,0.245,N,0.454,K,A*3B
$GNGNS,041415.00,0419.78151,S,05539.89304,E,AA,13,1.04,14.1,-47.6,,*61
$GNGGA,041415.00,0419.78151,S,05539.89304,E,1,12,1.04,14.1,M,-47.6,M,,*4A
$GNGSA,A,3,24,20,11,05,22,06,12,14,,,,,1.69,1.04,1.33*17
$GNGSA,A,3,84,80,73,83,79,,,,,,,,1.69,1.04,1.33*13
$GPGSV,5,1,17,05,45,162,12,06,11,028,30,11,43,020,30,12,17,347,13*77
$GPGSV,5,2,17,13,28,175,20,14,11,112,13,15,27,212,21,18,07,219,*73
$GPGSV,5,3,17,20,51,103,33,22,21,093,25,24,59,293,30,29,12,278,*77
$GPGSV,5,4,17,36,52,277,,40,86,350,,41,58,082,,49,32,274,*7D
$GPGSV,5,5,17,50,10,089,*4A
$GLGSV,2,1,08,69,11,145,19,70,11,206,,73,34,002,17,79,17,136,21*62
$GLGSV,2,2,08,80,53,084,28,83,18,007,17,84,52,309,10,85,31,239,22*61
$GNGLL,0419.78151,S,05539.89304,E,041415.00,A,A*65
$GNGRS,041415.00,1,3.1,0.0,1.5,0.1,-3.4,3.8,-5.3,-12.0,,,,*46
$GNGRS,041415.00,1,-0.3,-10.6,2.4,-5.8,0.6,,,,,,,*6F
$GNGST,041415.00,99352,,,,4.0,4.0,6.8*76
$GNZDA,041415.00,21,05,2025,00,00*7E
$GNGBS,041415.00,4.0,4.0,6.8,,,,*54
$GNTXT,01,01,01,More than 100 frame errors, UART RX was disabled*70
b0@$\-+j[7p 3g]q;%{4V^:R 
Y\GEF
I"9O`P5TST
45Ub$\O5W$GNRMC,041416.00,A,0419.78153,S,05539.89300,E,0.076,,210525,,,A*79
$GNVTG,,T,,M,0.076,N,0.140,K,A*39
$GNGNS,041416.00,0419.78153,S,05539.89300,E,AA,13,1.04,14.0,-47.6,,*65
$GNGGA,041416.00,0419.78153,S,05539.89300,E,1,12,1.04,14.0,M,-47.6,M,,*4E
$GNGSA,A,3,24,20,11,05,22,06,12,14,,,,,1.69,1.04,1.33*17
$GNGSA,A,3,84,80,73,83,79,,,,,,,,1.69,1.04,1.33*13
$GPGSV,5,1,17,05,45,162,14,06,11,028,29,11,43,020,21,12,17,347,14*7E
$GPGSV,5,2,17,13,28,175,21,14,11,112,14,15,27,212,21,18,07,219,*75
$GPGSV,5,3,17,20,51,103,32,22,21,093,26,24,59,293,29,29,12,278,*7D
$GPGSV,5,4,17,36,52,277,,40,86,350,,41,58,082,,49,32,274,*7D
$GPGSV,5,5,17,50,10,089,*4A
$GLGSV,2,1,08,69,11,145,18,70,11,206,,73,34,002,15,79,17,136,21*61
$GLGSV,2,2,08,80,53,084,28,83,18,007,17,84,52,309,10,85,31,239,20*63
$GNGLL,0419.78153,S,05539.89300,E,041416.00,A,A*60
$GNGRS,041416.00,1,-0.1,4.0,1.1,-1.2,-6.6,2.6,-4.6,-13.0,,,,*49
$GNGRS,041416.00,1,-0.3,-11.4,0.6,-5.6,1.0,,,,,,,*66
$GNGST,041416.00,147426,,,,4.1,4.1,6.9*42
$GNZDA,041416.00,21,05,2025,00,00*7D
$GNGBS,041416.00,4.1,4.1,6.9,,,,*56
$GNTXT,01,01,01,More than 100 frame errors, UART RX was disabled*70
b0@'\-I+[p%3g]4";%{4V^:R 
Y\EF
I"O1P5TST45.*UPb'\O$GNRMC,041417.00,A,0419.78147,S,05539.89296,E,0.124,,210525,,,A*75
$GNVTG,,T,,M,0.124,N,0.229,K,A*33
$GNGNS,041417.00,0419.78147,S,05539.89296,E,AA,13,1.11,14.0,-47.6,,*6B
$GNGGA,041417.00,0419.78147,S,05539.89296,E,1,12,1.11,14.0,M,-47.6,M,,*40
$GNGSA,A,3,24,20,11,05,22,06,12,14,,,,,1.73,1.11,1.33*18
$GNGSA,A,3,84,80,73,83,79,,,,,,,,1.73,1.11,1.33*1C
$GPGSV,5,1,17,05,45,162,17,06,11,028,30,11,43,020,23,12,17,347,13*70
$GPGSV,5,2,17,13,28,175,22,14,11,112,16,15,27,212,24,18,07,219,*71
$GPGSV,5,3,17,20,51,103,37,22,21,093,29,24,59,293,34,29,12,278,*7B
$GPGSV,5,4,17,36,52,277,,40,86,350,,41,58,082,,49,32,274,*7D
$GPGSV,5,5,17,50,10,089,*4A
$GLGSV,2,1,08,69,11,145,20,70,11,206,,73,34,002,12,79,17,136,24*68
$GLGSV,2,2,08,80,53,084,28,83,18,007,17,84,52,309,11,85,31,239,21*63
$GNGLL,0419.78147,S,05539.89296,E,041417.00,A,A*6A
$GNGRS,041417.00,1,2.5,-0.3,5.2,-1.3,0.5,5.9,-6.0,-16.3,,,,*6D
$GNGRS,041417.00,1,108,-10.6,-1.0,-5.0,0.5,,,,,,,*75
$GNGST,041417.00,51,,,,4.1,4.1,6.9*45
$GNZDA,041417.00,21,05,2025,00,00*7C
$GNGBS,041417.00,4.1,4.1,6.9,,,,*57
$GNTXT,01,01,01,More than 100 frame errors, UART RX was disabled*70
b0@+\-Og+'
[Rp3g]
;#3{4V^:R 
Y\EF
I"OP5TST45U2b+\Oo$GNRMC,041418.00,A,0419.78141,S,05539.89294,E,0.162,,210525,,,A*7C
$GNVTG,,T,,M,0.162,N,0.301,K,A*3A
$GNGNS,041418.00,0419.78141,S,05539.89294,E,AA,13,1.04,14.0,-47.6,,*64
$GNGGA,041418.00,0419.78141,S,05539.89294,E,1,12,1.04,14.0,M,-47.6,M,,*4F
$GNGSA,A,3,24,20,11,05,22,06,12,14,,,,,1.69,1.04,1.33*17
$GNGSA,A,3,84,80,73,83,79,,,,,,,,1.69,1.04,1.33*13
$GPGSV,5,1,17,05,45,162,17,06,11,028,29,11,43,020,24,12,17,347,10*7C
$GPGSV,5,2,17,13,28,175,19,14,11,112,16,15,27,212,22,18,07,219,*7F
$GPGSV,5,3,17,20,51,103,30,22,21,093,28,24,59,291,28,29,12,278,*72
$GPGSV,5,4,17,36,52,277,,40,86,350,,41,58,082,,49,32,274,*7D
$GPGSV,5,5,17,50,10,089,*4A
$GLGSV,2,1,08,69,11,145,21,70,11,206,,73,34,002,13,79,17,136,25*69
$GLGSV,2,2,08,80,53,084,28,83,18,007,17,84,52,309,12,85,31,239,19*6B
$GNGLL,0419.78141,S,05539.89294,E,041418.00,A,A*61
$GNGRS,041418.00,1,0.5,-1.2,-2.2,-1.8,2.7,3.6,-6.9,-16.4,,,,*46
$GNGRS,041418.00,1,-0.4,-8.1,-0.7,-4.8,1.5,,,,,,,*74
$GNGST,041418.00,3180286,,,,4.2,4.1,7.0*73
$GNZDA,041418.00,21,05,2025,00,00*73
$GNGBS,041418.00,4.2,4.1,7.0,,,,*53
$GNTXT,01,01,01,More than 100 frame errors, UART RX was disabled*70
b0@/\-^+[p"3gH];#{4V^:R 
Y\%EF
I"OP5TS]T45Ub/\OW$GNRMC,041419.00,A,0419.78136,S,05539.89292,E,0.231,,210525,,,A*7E
$GNVTG,,T,,M,0.231,N,0.428,K,A*33
$GNGNS,041419.00,0419.78136,S,05539.89292,E,AA,12,1.11,14.1,-47.6,,*67
$GNGGA,041419.00,0419.78136,S,05539.89292,E,1,12,1.11,14.1,M,-47.6,M,,*4D
$GNGSA,A,3,24,20,11,05,22,06,14,,,,,,1.84,1.11,1.47*10
$GNGSA,A,3,84,80,73,83,79,,,,,,,,1.84,1.11,1.47*17
$GPGSV,5,1,17,05,45,162,18,06,11,028,29,11,43,020,26,12,17,347,*70
$GPGSV,5,2,17,13,28,175,18,14,11,112,16,15,27,212,21,18,07,219,*7D
$GPGSV,5,3,17,20,51,103,34,22,21,093,28,24,59,291,28,29,12,278,*76
$GPGSV,5,4,17,36,52,277,,40,86,350,,41,58,082,,49,32,274,*7D
$GPGSV,5,5,17,50,10,089,*4A
$GLGSV,2,1,08,69,11,145,21,70,11,206,,73,34,002,17,79,17,136,25*6D
$GLGSV,2,2,08,80,53,084,29,83,18,007,15,84,52,309,12,85,31,239,21*63
$GNGLL,0419.78136,S,05539.89292,E,041419.00,A,A*66
$GNGRS,041419.00,1,3.9,0.7,1.5,-3.1,-1.1,0.9,-16.6,,,,,*69
$GNGRS,041419.00,1,-0.6,-6.4,-3.0,-4.2,-0.1,,,,,,,*5A
$GNGST,041419.00,3299292,,,,4.3,4.2,7.1*7F
$GNZDA,041419.00,21,05,2025,00,00*72
$GNGBS,041419.00,4.3,4.2,7.1,,,,*51
$GNTXT,01,01,01,More than 100 frame errors, UART RX was disabled*70
b0@3\-r+K[p"3g];#Y{4V^:R 
Y\dEF
I"OP5TST45Ub3\O?$GNRMC,041420.00,A,0419.78121,S,05539.89294,E,0.607,,210525,,,A*75
$GNVTG,,T,,M,0.607,N,1.124,K,A*3A
$GNGNS,041420.00,0419.78121,S,05539.89294,E,AA,12,1.20,14.3,-47.6,,*6D
$GNGGA,041420.00,0419.78121,S,05539.89294,E,1,12,1.20,14.3,M,-47.6,M,,*47
$GNGSA,A,3,24,20,11,05,22,06,14,,,,,,1.90,1.20,1.47*17
$GNGSA,A,3,84,80,73,83,79,,,,,,,,1.90,1.20,1.47*10
$GPGSV,5,1,17,05,45,162,20,06,11,028,28,11,43,020,26,12,17,347,*7A
$GPGSV,5,2,17,13,28,175,18,14,11,112,17,15,27,212,22,18,07,219,*7F
$GPGSV,5,3,17,20,51,103,34,22,21,093,30,24,59,291,28,29,12,278,*7F
$GPGSV,5,4,17,36,52,277,,40,86,350,,41,58,082,,49,32,274,*7D
$GPGSV,5,5,17,50,10,089,*4A
$GLGSV,2,1,08,69,11,145,23,70,11,206,,73,34,002,17,79,17,136,23*69
$GLGSV,2,2,08,80,53,084,30,83,18,007,14,84,52,309,11,85,31,239,23*6B
$GNGLL,0419.78121,S,05539.89294,E,041420.00,A,A*6C
$GNGRS,041420.00,1,0.9,0.2,3.3,-1.2,-3.6,-1.4,-14.1,,,,,*41
$GNGRS,041420.00,1,73.9,-11.2,-3.5,-0.6,0.2,,,,,,,*5D
$GNGST,041420.00,44,,,,4.4,4.2,7.2*49
$GNZDA,041420.00,21,05,2025,00,00*78
$GNGBS,041420.00,4.4,4.2,7.2,,,,*5F
$GNTXT,01,01,01,More than 100 frame errors, UART RX was disabled*70
b0@7\-h+[pr#3g ];#N{4V^:R 
Y\EF
I"OOP"5TS0T45U
b7\O'lP$GNRMC,041421.00,A,0419.78122,S,05539.89287,E,0.113,,210525,,,A*77
$GNVTG,,T,,M,0.113,N,0.209,K,A*35
$GNGNS,041421.00,0419.78122,S,05539.89287,E,AA,12,1.11,14.0,-47.6,,*6C
$GNGGA,041421.00,0419.78122,S,05539.89287,E,1,12,1.11,14.0,M,-47.6,M,,*46
$GNGSA,A,3,24,20,11,05,22,06,14,,,,,,1.83,1.11,1.46*16
$GNGSA,A,3,84,80,73,83,79,,,,,,,,1.83,1.11,1.46*11
$GPGSV,5,1,17,05,45,162,30,06,11,028,29,11,43,020,31,12,17,347,*7C
$GPGSV,5,2,17,13,28,175,16,14,11,112,17,15,27,212,22,18,07,219,*71
$GPGSV,5,3,17,20,51,103,35,22,21,093,32,24,59,291,30,29,12,278,*75
$GPGSV,5,4,17,36,52,277,,40,86,350,,41,58,082,,49,32,274,*7D
$GPGSV,5,5,17,50,10,089,*4A
$GLGSV,2,1,08,69,11,145,23,70,11,206,,73,34,002,17,79,17,136,25*6F
$GLGSV,2,2,08,80,53,084,34,83,18,007,14,84,52,309,14,85,31,239,23*6A
$GNGLL,0419.78122,S,05539.89287,E,041421.00,A,A*6C
$GNGRS,041421.00,1,3.3,2.1,4.1,-4.8,1.6,3.6,-14.2,,,,,*43
$GNGRS,041421.00,1,-0.5,-5.7,-3.8,-2.1,0.8,,,,,,,*7B
$GNGST,041421.00,16630,,,,4.4,4.2,7.2*7A
$GNZDA,041421.00,21,05,2025,00,00*79
$GNGBS,041421.00,4.4,4.2,7.2,,,,*5E
$GNTXT,01,01,01,More than 100 frame errors, UART RX was disabled*70
b0@;\-3+%[p 3g];#{4V^:R 
Y\WEF
I"MOxP5TSrT
45U>b;\OD$GNRMC,041422.00,A,0419.78113,S,05539.89293,E,0.149,,210525,,,A*7C
$GNVTG,,T,,M,0.149,N,0.276,K,A*32
$GNGNS,041422.00,0419.78113,S,05539.89293,E,AA,12,1.11,14.3,-47.6,,*6B
$GNGGA,041422.00,0419.78113,S,05539.89293,E,1,12,1.11,14.3,M,-47.6,M,,*41
$GNGSA,A,3,24,20,11,05,22,06,14,,,,,,1.83,1.11,1.46*16
$GNGSA,A,3,84,80,73,83,79,,,,,,,,1.83,1.11,1.46*11
$GPGSV,5,1,17,05,45,162,29,06,11,028,30,11,43,020,25,12,17,347,20*7B
$GPGSV,5,2,17,13,28,175,19,14,11,112,18,15,27,212,23,18,07,219,*70
$GPGSV,5,3,17,20,51,103,32,22,21,093,30,24,59,291,31,29,12,278,*71
$GPGSV,5,4,17,36,52,277,,40,86,350,,41,58,082,,49,32,274,*7D
$GPGSV,5,5,17,50,10,089,*4A
$GLGSV,2,1,08,69,11,145,22,70,11,206,,73,34,002,17,79,17,136,26*6D
$GLGSV,2,2,08,80,53,084,31,83,18,007,13,84,52,309,10,85,31,239,25*6A
$GNGLL,0419.78113,S,05539.89293,E,041422.00,A,A*68
$GNGRS,041422.00,1,5.2,2.2,5.5,-4.6,2.9,2.2,-15.2,,,,,*47
$GNGRS,041422.00,1,-0.4,-3.7,-4.3,-4.0,-1.4,,,,,,,*54
$GNGST,041422.00,24944,,,,4.3,4.2,7.1*70
$GNZDA,041422.00,21,05,2025,00,00*7A
$GNGBS,041422.00,4.3,4.2,7.1,,,,*59
$GNTXT,01,01,01,More than 100 frame errors, UART RX was disabled*70
b0@h?\-C+[p%3g]#;#|{4V^:R 
Y\EF
I"OP5TS)T45%UVbh?\O$GNRMC,041423.00,A,0419.78112,S,05539.89297,E,0.062,,210525,,,A*70
$GNVTG,,T,,M,0.062,N,0.115,K,A*3C
$GNGNS,041423.00,0419.78112,S,05539.89297,E,AA,12,1.20,14.5,-47.6,,*6B
$GNGGA,041423.00,0419.78112,S,05539.89297,E,1,12,1.20,14.5,M,-47.6,M,,*41
$GNGSA,A,3,24,20,11,05,22,06,14,,,,,,1.90,1.20,1.47*17
$GNGSA,A,3,84,80,73,83,79,,,,,,,,1.90,1.20,1.47*10
$GPGSV,5,1,17,05,45,162,27,06,11,028,31,11,43,020,29,12,17,347,18*73
$GPGSV,5,2,17,13,28,175,21,14,11,112,21,15,27,212,22,18,07,219,*70
$GPGSV,5,3,17,20,51,103,37,22,21,093,31,24,59,291,35,29,12,279,*70
$GPGSV,5,4,17,36,52,277,,40,86,350,,41,58,082,,49,32,274,*7D
$GPGSV,5,5,17,50,10,089,*4A
$GLGSV,2,1,08,69,11,145,22,70,11,206,,73,34,002,19,79,17,136,25*60
$GLGSV,2,2,08,80,53,084,31,83,18,007,13,84,52,309,14,85,31,239,25*6E
$GNGLL,0419.78112,S,05539.89297,E,041423.00,A,A*6C
$GNGRS,041423.00,1,1.2,1.7,-0.2,-5.5,4.4,-1.9,-16.4,,,,,*42
$GNGRS,041423.00,1,97.2,-8.0,-6.2,-4.7,-0.8,,,,,,,*45
$GNGST,041423.00,41,,,,4.2,4.1,7.0*48
$GNZDA,041423.00,21,05,2025,00,00*7B
$GNGBS,041423.00,4.2,4.1,7.0,,,,*5B
$GNTXT,01,01,01,More than 100 frame errors, UART RX was disabled*70
b0@PC\-O+[hp%3g]";#{4V^:R 
Y\EF
I"OP 5TST45U=vbPC\O$GNRMC,041424.00,A,0419.78108,S,05539.89290,E,0.101,,210525,,,A*7F
$GNVTG,,T,,M,0.101,N,0.188,K,A*3C
$GNGNS,041424.00,0419.78108,S,05539.89290,E,AA,12,1.11,14.7,-47.6,,*60
$GNGGA,041424.00,0419.78108,S,05539.89290,E,1,12,1.11,14.7,M,-47.6,M,,*4A
$GNGSA,A,3,24,20,11,05,22,06,14,,,,,,1.83,1.11,1.46*16
$GNGSA,A,3,84,80,73,83,79,,,,,,,,1.83,1.11,1.46*11
$GPGSV,5,1,17,05,45,162,24,06,11,028,31,11,43,020,28,12,17,347,17*7E
$GPGSV,5,2,17,13,28,175,20,14,11,112,23,15,27,212,23,18,07,219,*72
$GPGSV,5,3,17,20,51,103,37,22,21,093,31,24,59,291,34,29,12,279,*71
$GPGSV,5,4,17,36,52,277,,40,86,350,,41,58,082,,49,32,274,*7D
$GPGSV,5,5,17,50,10,089,*4A
$GLGSV,2,1,08,69,11,145,21,70,11,206,,73,34,002,20,79,17,136,24*68
$GLGSV,2,2,08,80,53,084,32,83,18,007,15,84,52,309,13,85,31,239,25*6C
$GNGLL,0419.78108,S,05539.89290,E,041424.00,A,A*67
$GNGRS,041424.00,1,6.9,1.3,7.6,-6.9,4.3,2.0,-15.4,,,,,*4F
$GNGRS,041424.00,1,-0.7,-6.1,-6.3,-5.0,1.9,,,,,,,*71
$GNGST,041424.00,3299292,,,,4.2,4.1,7.0*72
$GNZDA,041424.00,21,05,2025,00,00*7C
$GNGBS,041424.00,4.2,4.1,7.0,,,,*5C
$GNTXT,01,01,01,More than 100 frame errors, UART RX was disabled*70
b0@8G\-+[lp%3gr"]( ;#{4V^:R 
Y\!EF
I"O|P!5T9S3T45U b8G\O$GNRMC,041425.00,A,0419.78106,S,05539.89293,E,0.221,,210525,,,A*72
$GNVTG,,T,,M,0.221,N,0.409,K,A*31
$GNGNS,041425.00,0419.78106,S,05539.89293,E,AA,12,1.11,14.6,-47.6,,*6D
$GNGGA,041425.00,0419.78106,S,05539.89293,E,1,12,1.11,14.6,M,-47.6,M,,*47
$GNGSA,A,3,24,20,11,05,22,06,14,,,,,,1.83,1.11,1.46*16
$GNGSA,A,3,84,80,73,83,79,,,,,,,,1.83,1.11,1.46*11
$GPGSV,5,1,17,05,45,162,24,06,11,028,30,11,43,020,29,12,17,347,18*71
$GPGSV,5,2,17,13,28,175,20,14,11,112,21,15,27,212,25,18,07,219,*76
$GPGSV,5,3,17,20,51,103,37,22,21,093,34,24,59,291,32,29,12,279,*72
$GPGSV,5,4,17,36,52,277,,40,86,350,,41,58,082,,49,32,274,*7D
$GPGSV,5,5,17,50,10,089,*4A
$GLGSV,2,1,08,69,11,145,20,70,11,206,,73,34,002,20,79,17,136,25*68
$GLGSV,2,2,08,80,53,084,33,83,18,007,15,84,52,309,12,85,31,239,25*6C
$GNGLL,0419.78106,S,05539.89293,E,041425.00,A,A*6B
$GNGRS,041425.00,1,3.9,1.1,10.0,-5.1,3.0,7.0,-13.7,,,,,*76
$GNGRS,041425.00,1,-0.8,3.1,-4.9,-7.2,3.8,,,,,,,*5C
$GNGST,041425.00,3299292,,,,4.2,4.1,7.0*73
$GNZDA,041425.00,21,05,2025,00,00*7D
$GNGBS,041425.00,4.2,4.1,7.0,,,,*5D
$GNTXT,01,01,01,More than 100 frame errors, UART RX was disabled*70
b0@ K\-+[p%3g^] ;#9{4V^:R 
Y\EF
I"OiP!5T<ST45Uyb K\OU$GNRMC,041426.00,A,0419.78100,S,05539.89300,E,0.166,,210525,,,A*7C
$GNVTG,,T,,M,0.166,N,0.307,K,A*38
$GNGNS,041426.00,0419.78100,S,05539.89300,E,AA,12,1.11,14.8,-47.6,,*6D
$GNGGA,041426.00,0419.78100,S,05539.89300,E,1,12,1.11,14.8,M,-47.6,M,,*47
$GNGSA,A,3,24,20,11,05,22,06,12,14,,,,,1.73,1.11,1.33*18
$GNGSA,A,3,80,73,83,79,,,,,,,,,1.73,1.11,1.33*10
$GPGSV,5,1,17,05,45,162,21,06,11,028,29,11,43,020,28,12,17,347,19*7C
$GPGSV,5,2,17,13,28,175,19,14,11,112,18,15,27,212,24,18,07,219,*77
$GPGSV,5,3,17,20,51,103,37,22,21,093,29,24,59,291,32,29,12,279,*7E
$GPGSV,5,4,17,36,52,277,,40,86,350,,41,58,082,,49,32,274,*7D
$GPGSV,5,5,17,50,10,089,*4A
$GLGSV,2,1,08,69,11,145,20,70,11,206,,73,34,002,23,79,17,136,23*6D
$GLGSV,2,2,08,80,53,084,33,83,18,007,16,84,52,309,07,85,31,239,26*68
$GNGLL,0419.78100,S,05539.89300,E,041426.00,A,A*65
$GNGRS,041426.00,1,3.1,0.9,0.2,-8.2,5.1,4.9,17.2,-13.8,,,,*51
$GNGRS,041426.00,1,0.6,-5.8,-7.8,3.6,,,,,,,,*54
$GNGST,041426.00,44,,,,4.2,4.1,6.9*40
$GNZDA,041426.00,21,05,2025,00,00*7E
$GNGBS,041426.00,4.2,4.1,6.9,,,,*56
$GNTXT,01,01,01,More than 100 frame errors, UART RX was disabled*70
b0@O\-+[p&3gY]e";#{4V^:R 
Y\EF
I"O9P5T~ST
45U1fbO\O{$GNRMC,041427.00,A,0419.78099,S,05539.89302,E,0.070,,210525,,,A*78
$GNVTG,,T,,M,0.070,N,0.130,K,A*38
$GNGNS,041427.00,0419.78099,S,05539.89302,E,AA,12,1.11,14.9,-47.6,,*6E
$GNGGA,041427.00,0419.78099,S,05539.89302,E,1,12,1.11,14.9,M,-47.6,M,,*44
$GNGSA,A,3,24,20,11,05,22,06,12,14,,,,,1.73,1.11,1.33*18
$GNGSA,A,3,80,73,83,79,,,,,,,,,1.73,1.11,1.33*10
$GPGSV,5,1,17,05,45,162,20,06,11,028,29,11,43,020,29,12,17,347,19*7C
$GPGSV,5,2,17,13,28,175,20,14,11,112,20,15,27,212,24,18,07,219,*76
$GPGSV,5,3,17,20,51,103,38,22,21,093,30,24,59,291,34,29,12,279,*7F
$GPGSV,5,4,17,36,52,277,,40,86,350,,41,58,082,,49,32,274,*7D
$GPGSV,5,5,17,50,10,089,*4A
$GLGSV,2,1,08,69,11,145,21,70,11,206,,73,34,002,21,79,17,136,24*69
$GLGSV,2,2,08,80,53,084,27,83,18,007,15,84,52,309,10,85,31,239,26*68
$GNGLL,0419.78099,S,05539.89302,E,041427.00,A,A*67
$GNGRS,041427.00,1,1.9,0.9,-4.9,-10.2,3.6,6.5,7.6,-11.0,,,,*71
$GNGRS,041427.00,1,3.8,-4.9,-11.3,3.1,,,,,,,,*63
$GNGST,041427.00,44,,,,4.3,4.0,6.9*41
$GNZDA,041427.00,21,05,2025,00,00*7F
$GNGBS,041427.00,4.3,4.0,6.9,,,,*57
$GNTXT,01,01,01,More than 100 frame errors, UART RX was disabled*70
b0@R\-v|+[rpF$3gC]h#;#H{4V^:R 
Y\EF
I"<OP5ToSMT45U!bR\OR$GNRMC,041428.00,A,0419.78100,S,05539.89304,E,0.108,,210525,,,A*7E
$GNVTG,,T,,M,0.108,N,0.201,K,A*37
$GNGNS,041428.00,0419.78100,S,05539.89304,E,AA,13,1.04,14.8,-47.6,,*62
$GNGGA,041428.00,0419.78100,S,05539.89304,E,1,12,1.04,14.8,M,-47.6,M,,*49
$GNGSA,A,3,24,20,11,05,22,06,12,14,,,,,1.69,1.04,1.33*17
$GNGSA,A,3,84,80,73,83,79,,,,,,,,1.69,1.04,1.33*13
$GPGSV,5,1,17,05,45,162,20,06,11,028,29,11,43,020,13,12,17,347,18*74
$GPGSV,5,2,17,13,28,175,18,14,11,112,20,15,27,212,22,18,07,219,*7B
$GPGSV,5,3,17,20,51,103,36,22,21,093,31,24,59,291,35,29,12,279,*71
$GPGSV,5,4,17,36,52,277,,40,86,350,,41,58,082,,49,32,274,*7D
$GPGSV,5,5,17,50,10,089,*4A
$GLGSV,2,1,08,69,11,145,21,70,11,206,,73,34,002,21,79,17,136,24*69
$GLGSV,2,2,08,80,53,084,28,83,18,007,15,84,52,309,13,85,31,239,25*67
$GNGLL,0419.78100,S,05539.89304,E,041428.00,A,A*6F
$GNGRS,041428.00,1,0.7,0.7,2.6,-9.1,8.7,6.4,3.7,-7.0,,,,*59
$GNGRS,041428.00,1,2.1,6.2,-4.5,-9.5,4.6,,,,,,,*7D
$GNGST,041428.00,53,,,,4.3,4.0,6.9*48
$GNZDA,041428.00,21,05,2025,00,00*70
$GNGBS,041428.00,4.3,4.0,6.9,,,,*58
$GNTXT,01,01,01,More than 100 frame errors, UART RX was disabled*70
b0@V\"-+j[pZ3g)]$;#{4V^:R 
Y\EF
I"OP5THS~T45|U_bV\Og*~$GNRMC,041429.00,A,0419.78089,S,05539.89314,E,0.030,,210525,,,A*74
$GNVTG,,T,,M,0.030,N,0.055,K,A*3E
$GNGNS,041429.00,0419.78089,S,05539.89314,E,AA,13,1.04,15.1,-47.6,,*6A
$GNGGA,041429.00,0419.78089,S,05539.89314,E,1,12,1.04,15.1,M,-47.6,M,,*41
$GNGSA,A,3,24,20,11,05,22,06,12,14,,,,,1.69,1.04,1.33*17
$GNGSA,A,3,84,80,73,83,79,,,,,,,,1.69,1.04,1.33*13
$GPGSV,5,1,17,05,45,162,34,06,11,028,28,11,43,020,23,12,17,347,19*72
$GPGSV,5,2,17,13,28,175,17,14,11,112,20,15,27,212,23,18,07,219,*75
$GPGSV,5,3,17,20,51,103,30,22,21,093,24,24,59,291,36,29,12,279,*70
$GPGSV,5,4,17,36,52,277,,40,86,350,,41,58,082,,49,32,274,*7D
$GPGSV,5,5,17,50,10,089,*4A
$GLGSV,2,1,08,69,11,145,21,70,11,206,,73,34,002,18,79,17,136,25*62
$GLGSV,2,2,08,80,53,084,26,83,18,007,19,84,52,309,13,85,31,239,25*65
$GNGLL,0419.78089,S,05539.89314,E,041429.00,A,A*6F
$GNGRS,041429.00,1,0.1,0.4,3.6,-5.7,1.5,-3.3,-5.3,-4.2,,,,*5C
$GNGRS,041429.00,1,1.2,5.8,-6.4,-6.4,5.0,,,,,,,*7F
$GNGST,041429.00,48,,,,4.2,3.9,6.9*4C
$GNZDA,041429.00,21,05,2025,00,00*71
$GNGBS,041429.00,4.2,3.9,6.9,,,,*56
$GNTXT,01,01,01,More than 100 frame errors, UART RX was disabled*70
b0@Z\!-n+[p3g)] ;#{4V^:R 
Y\*EF
I"OP5TtST45UbZ\OO$GNRMC,041430.00,A,0419.78091,S,05539.89318,E,0.131,,210525,,,A*79
$GNVTG,,T,,M,0.131,N,0.243,K,A*3B
$GNGNS,041430.00,0419.78091,S,05539.89318,E,AA,13,1.04,15.3,-47.6,,*65
$GNGGA,041430.00,0419.78091,S,05539.89318,E,1,12,1.04,15.3,M,-47.6,M,,*4E
$GNGSA,A,3,24,20,11,05,22,06,12,14,,,,,1.69,1.04,1.33*17
$GNGSA,A,3,84,80,73,83,79,,,,,,,,1.69,1.04,1.33*13
$GPGSV,5,1,17,05,45,162,33,06,11,028,28,11,43,020,21,12,17,347,16*78
$GPGSV,5,2,17,13,28,175,18,14,11,112,20,15,27,212,23,18,07,219,*7A
$GPGSV,5,3,17,20,51,103,31,22,21,093,27,24,59,291,32,29,12,279,*76
$GPGSV,5,4,17,36,52,277,,40,86,350,,41,58,082,,49,32,274,*7D
$GPGSV,5,5,17,50,10,089,*4A
$GLGSV,2,1,08,69,11,145,22,70,11,206,,73,34,002,20,79,17,136,26*69
$GLGSV,2,2,08,80,53,084,26,83,18,007,23,84,52,309,13,85,31,239,25*6C
$GNGLL,0419.78091,S,05539.89318,E,041430.00,A,A*62
$GNGRS,041430.00,1,-0.3,5.5,-1.1,-2.8,-5.8,1.1,-4.9,-5.9,,,,*57
$GNGRS,041430.00,1,2.2,3.7,-7.9,-6.3,4.3,,,,,,,*74
$GNGST,041430.00,44,,,,4.2,3.9,7.0*40
$GNZDA,041430.00,21,05,2025,00,00*79
$GNGBS,041430.00,4.2,3.9,7.0,,,,*56
$GNTXT,01,01,01,More than 100 frame errors, UART RX was disabled*70
b0@^\-`+[p3gA]!;#{4V^:R 
Y\EF
I"O+P5T?ST45MUb^\O7N$GNRMC,041431.00,A,0419.78087,S,05539.89326,E,0.250,,210525,,,A*76
$GNVTG,,T,,M,0.250,N,0.462,K,A*3A
$GNGNS,041431.00,0419.78087,S,05539.89326,E,AA,13,1.04,15.7,-47.6,,*6A
$GNGGA,041431.00,0419.78087,S,05539.89326,E,1,12,1.04,15.7,M,-47.6,M,,*41
$GNGSA,A,3,24,20,11,05,22,06,12,14,,,,,1.69,1.04,1.33*17
$GNGSA,A,3,84,80,73,83,79,,,,,,,,1.69,1.04,1.33*13
$GPGSV,5,1,17,05,45,162,29,06,11,028,28,11,43,020,19,12,17,347,18*76
$GPGSV,5,2,17,13,28,175,18,14,11,112,20,15,27,212,28,18,07,219,*71
$GPGSV,5,3,17,20,51,103,30,22,21,093,25,24,59,291,33,29,12,279,*74
$GPGSV,5,4,17,36,52,277,,40,86,350,,41,58,082,,49,32,274,*7D
$GPGSV,5,5,17,50,10,089,*4A
$GLGSV,2,1,08,69,11,145,23,70,11,206,,73,34,002,21,79,17,136,25*6A
$GLGSV,2,2,08,80,53,084,24,83,18,007,21,84,52,309,14,85,31,239,25*6B
$GNGLL,0419.78087,S,05539.89326,E,041431.00,A,A*69
$GNGRS,041431.00,1,-0.5,8.3,-3.4,1.0,-6.3,-0.9,-5.6,-5.7,,,,*56
$GNGRS,041431.00,1,3.3,3.2,-7.4,-5.1,3.0,,,,,,,*78
$GNGST,041431.00,43,,,,4.2,4.0,7.1*49
$GNZDA,041431.00,21,05,2025,00,00*78
$GNGBS,041431.00,4.2,4.0,7.1,,,,*58
$GNTXT,01,01,01,More than 100 frame errors, UART RX was disabled*70
b0@b\-+{[pd3g]9!;#{4V^:R 
Y\UEF
I"ONP5TdST45&U-bb\O$GNRMC,041432.00,A,0419.78085,S,05539.89331,E,0.218,,210525,,,A*7D
$GNVTG,,T,,M,0.218,N,0.404,K,A*36
$GNGNS,041432.00,0419.78085,S,05539.89331,E,AA,13,1.04,15.9,-47.6,,*63
$GNGGA,041432.00,0419.78085,S,05539.89331,E,1,12,1.04,15.9,M,-47.6,M,,*48
$GNGSA,A,3,24,20,11,05,22,06,12,14,,,,,1.69,1.04,1.33*17
$GNGSA,A,3,84,80,73,83,79,,,,,,,,1.69,1.04,1.33*13
$GPGSV,5,1,17,05,45,162,29,06,11,028,28,11,43,020,22,12,17,347,18*7E
$GPGSV,5,2,17,13,28,175,20,14,11,112,21,15,27,212,22,18,07,219,*71
$GPGSV,5,3,17,20,51,103,31,22,21,093,31,24,59,291,33,29,12,279,*70
$GPGSV,5,4,17,36,52,277,,40,86,350,,41,58,082,,49,32,274,*7D
$GPGSV,5,5,17,50,10,089,*4A
$GLGSV,2,1,08,69,11,145,21,70,11,206,,73,34,002,21,79,17,136,26*6B
$GLGSV,2,2,08,80,53,084,24,83,18,007,21,84,52,309,12,85,31,239,24*6C
$GNGLL,0419.78085,S,05539.89331,E,041432.00,A,A*6E
$GNGRS,041432.00,1,-0.7,1.7,3.8,1.8,-2.0,2.1,-7.4,-1.6,,,,*56
$GNGRS,041432.00,1,5.5,1.0,-8.3,-3.1,0.8,,,,,,,*7E
$GNGST,041432.00,42,,,,4.1,4.0,7.1*48
$GNZDA,041432.00,21,05,2025,00,00*7B
$GNGBS,041432.00,4.1,4.0,7.1,,,,*58
$GNTXT,01,01,01,More than 100 frame errors, UART RX was disabled*70
b0@xf\-X+[p!3g{];#{4V^:R 
Y\2EF
I"fOP5TST45MUXbxf\O$GNRMC,041433.00,A,0419.78082,S,05539.89337,E,0.174,,210525,,,A*74
$GNVTG,,T,,M,0.174,N,0.323,K,A*3D
$GNGNS,041433.00,0419.78082,S,05539.89337,E,AA,12,1.11,16.1,-47.6,,*6D
$GNGGA,041433.00,0419.78082,S,05539.89337,E,1,12,1.11,16.1,M,-47.6,M,,*47
$GNGSA,A,3,24,20,11,05,22,06,12,14,,,,,1.73,1.11,1.33*18
$GNGSA,A,3,80,73,83,79,,,,,,,,,1.73,1.11,1.33*10
$GPGSV,5,1,17,05,45,162,30,06,11,028,28,11,43,020,23,12,17,347,16*79
$GPGSV,5,2,17,13,28,175,19,14,11,112,21,15,27,212,24,18,07,219,*7D
$GPGSV,5,3,17,20,51,103,33,22,21,093,30,24,59,291,30,29,12,279,*70
$GPGSV,5,4,17,36,52,277,,40,86,350,,41,58,082,,49,32,274,*7D
$GPGSV,5,5,17,50,10,089,*4A
$GLGSV,2,1,08,69,11,145,18,70,11,206,,73,34,002,21,79,17,136,25*62
$GLGSV,2,2,08,80,53,084,25,83,18,007,20,84,52,309,08,85,31,239,25*66
$GNGLL,0419.78082,S,05539.89337,E,041433.00,A,A*6E
$GNGRS,041433.00,1,-0.3,-1.3,2.6,-0.5,0.3,0.9,-9.0,-3.5,,,,*79
$GNGRS,041433.00,1,9.3,-9.2,-2.8,1.7,,,,,,,,*5C
$GNGST,041433.00,41,,,,4.1,4.0,7.1*4A
$GNZDA,041433.00,21,05,2025,00,00*7A
$GNGBS,041433.00,4.1,4.0,7.1,,,,*59
$GNTXT,01,01,01,More than 100 frame errors, UART RX was disabled*70
b0@`j\-+[Gp3g];#{4V^:R 
Y\EF
I"EOP5TST45;UHb`j\Oa$GNRMC,041434.00,A,0419.78088,S,05539.89341,E,0.155,,210525,,,A*7B
$GNVTG,,T,,M,0.155,N,0.286,K,A*30
$GNGNS,041434.00,0419.78088,S,05539.89341,E,AA,12,1.11,16.3,-47.6,,*63
$GNGGA,041434.00,0419.78088,S,05539.89341,E,1,12,1.11,16.3,M,-47.6,M,,*49
$GNGSA,A,3,24,20,11,05,22,06,12,14,,,,,1.73,1.11,1.33*18
$GNGSA,A,3,80,73,83,79,,,,,,,,,1.73,1.11,1.33*10
$GPGSV,5,1,17,05,45,162,30,06,11,028,28,11,43,020,25,12,17,347,17*7E
$GPGSV,5,2,17,13,28,175,17,14,11,112,21,15,27,212,24,18,07,219,*73
$GPGSV,5,3,17,20,51,103,31,22,21,093,29,24,59,291,30,29,12,279,*7A
$GPGSV,5,4,17,36,52,277,,40,86,350,,41,58,082,,49,32,274,*7D
$GPGSV,5,5,17,50,10,089,*4A
$GLGSV,2,1,08,69,11,145,14,70,11,206,,73,34,002,20,79,17,136,27*6D
$GLGSV,2,2,08,80,53,084,26,83,18,007,18,84,52,309,07,85,31,239,25*61
$GNGLL,0419.78088,S,05539.89341,E,041434.00,A,A*62
$GNGRS,041434.00,1,2.7,-2.8,4.0,4.8,4.8,-0.7,-12.1,-2.3,,,,*69
$GNGRS,041434.00,1,10.2,-7.0,-3.6,1.4,,,,,,,,*62
$GNGST,041434.00,41,,,,4.1,4.1,7.2*4F
$GNZDA,041434.00,21,05,2025,00,00*7D
$GNGBS,041434.00,4.1,4.1,7.2,,,,*5C
$GNTXT,01,01,01,More than 100 frame errors, UART RX was disabled*70
b0@Hn\-H+[p%3g~]F;#9{4V^:R 
Y\"EF
I"JOP5TST
45U]
bHn\O9$GNRMC,041435.00,A,0419.78089,S,05539.89343,E,0.183,,210525,,,A*72
$GNVTG,,T,,M,0.183,N,0.340,K,A*30
$GNGNS,041435.00,0419.78089,S,05539.89343,E,AA,13,1.11,16.2,-47.6,,*61
$GNGGA,041435.00,0419.78089,S,05539.89343,E,1,12,1.11,16.2,M,-47.6,M,,*4A
$GNGSA,A,3,24,20,11,05,22,06,12,14,,,,,1.73,1.11,1.33*18
$GNGSA,A,3,84,80,73,83,79,,,,,,,,1.73,1.11,1.33*1C
$GPGSV,5,1,17,05,45,162,29,06,11,028,28,11,43,020,26,12,17,347,17*75
$GPGSV,5,2,17,13,28,175,14,14,11,112,20,15,27,212,24,18,07,219,*71
$GPGSV,5,3,17,20,51,103,37,22,21,093,29,24,59,291,30,29,12,279,*7C
$GPGSV,5,4,17,36,52,277,,40,86,350,,41,58,082,,49,32,274,*7D
$GPGSV,5,5,17,50,10,089,*4A
$GLGSV,2,1,08,69,11,145,12,70,11,206,,73,34,002,19,79,17,136,29*6F
$GLGSV,2,2,08,80,53,084,27,83,18,007,21,84,52,309,10,85,31,239,25*6C
$GNGLL,0419.78089,S,05539.89343,E,041435.00,A,A*60
$GNGRS,041435.00,1,0.6,1.3,4.4,0.7,8.4,5.1,-13.8,-2.9,,,,*6D
$GNGRS,041435.00,1,-35.7,12.2,-6.9,-0.8,1.4,,,,,,,*56
$GNGST,041435.00,40,,,,4.1,4.1,7.1*4C
$GNZDA,041435.00,21,05,2025,00,00*7C
$GNGBS,041435.00,4.1,4.1,7.1,,,,*5E
$GNTXT,01,01,01,More than 100 frame errors, UART RX was disabled*70
b0@0r\-"+[p&3gO] ;#{4V^:R 
Y\EF
I"OP5TST
45Ub0r\OS$GNRMC,041436.00,A,0419.78087,S,05539.89355,E,0.132,,210525,,,A*72
$GNVTG,,T,,M,0.132,N,0.244,K,A*3F
$GNGNS,041436.00,0419.78087,S,05539.89355,E,AA,13,1.04,16.4,-47.6,,*69
$GNGGA,041436.00,0419.78087,S,05539.89355,E,1,12,1.04,16.4,M,-47.6,M,,*42
$GNGSA,A,3,24,20,11,05,22,06,12,14,,,,,1.69,1.04,1.33*17
$GNGSA,A,3,84,80,73,83,79,,,,,,,,1.69,1.04,1.33*13
$GPGSV,5,1,17,05,45,162,26,06,11,028,30,11,43,020,23,12,17,347,16*77
$GPGSV,5,2,17,13,28,175,14,14,11,112,18,15,27,212,25,18,07,219,*7B
$GPGSV,5,3,17,20,51,103,38,22,21,093,28,24,59,291,32,29,12,279,*70
$GPGSV,5,4,17,36,52,277,,40,86,350,,41,58,082,,49,32,274,*7D
$GPGSV,5,5,17,50,10,089,*4A
$GLGSV,2,1,08,69,11,145,14,70,11,206,,73,34,002,19,79,17,136,29*69
$GLGSV,2,2,08,80,53,084,26,83,18,007,20,84,52,309,10,85,31,239,26*6F
$GNGLL,0419.78087,S,05539.89355,E,041436.00,A,A*6A
$GNGRS,041436.00,1,-1.3,0.8,4.3,-0.6,12.9,0.3,-12.5,-5.2,,,,*57
$GNGRS,041436.00,1,-0.4,11.7,-6.2,-0.8,2.3,,,,,,,*69
$GNGST,041436.00,3179277,,,,4.0,4.0,7.0*74
$GNZDA,041436.00,21,05,2025,00,00*7F
$GNGBS,041436.00,4.0,4.0,7.0,,,,*5C
$GNTXT,01,01,01,More than 100 frame errors, UART RX was disabled*70
b0@v\-+[Hp&3g{] ;#.{4V^:R 
Y\EF
I"gOP5TST45U4bv\O$GNRMC,041437.00,A,0419.78087,S,05539.89365,E,0.143,,210525,,,A*76
$GNVTG,,T,,M,0.143,N,0.265,K,A*3A
$GNGNS,041437.00,0419.78087,S,05539.89365,E,AA,13,1.04,16.5,-47.6,,*6A
$GNGGA,041437.00,0419.78087,S,05539.89365,E,1,12,1.04,16.5,M,-47.6,M,,*41
$GNGSA,A,3,24,20,11,05,22,06,12,14,,,,,1.69,1.04,1.33*17
$GNGSA,A,3,84,80,73,83,79,,,,,,,,1.69,1.04,1.33*13
$GPGSV,5,1,17,05,45,162,13,06,11,028,29,11,43,020,23,12,17,347,14*7B
$GPGSV,5,2,17,13,28,175,16,14,11,112,21,15,27,212,24,18,07,219,*72
$GPGSV,5,3,17,20,51,103,38,22,21,093,27,24,59,291,32,29,12,279,*7F
$GPGSV,5,4,17,36,52,277,,40,86,350,,41,58,082,,49,32,274,*7D
$GPGSV,5,5,17,50,10,089,*4A
$GLGSV,2,1,08,69,11,145,16,70,11,206,,73,34,002,19,79,17,136,28*6A
$GLGSV,2,2,08,80,53,084,25,83,18,007,19,84,52,309,13,85,31,239,27*64
$GNGLL,0419.78087,S,05539.89365,E,041437.00,A,A*68
$GNGRS,041437.00,1,0.5,1.2,4.9,-1.1,6.9,4.4,-14.6,-3.8,,,,*44
$GNGRS,041437.00,1,-0.5,11.7,-6.7,-0.9,4.3,,,,,,,*6B
$GNGST,041437.00,3179277,,,,4.0,4.0,6.9*7D
$GNZDA,041437.00,21,05,2025,00,00*7E
$GNGBS,041437.00,4.0,4.0,6.9,,,,*55
$GNTXT,01,01,01,More than 100 frame errors, UART RX was disabled*70
b0@z\-q+[@p5&3g]/;#{4V^:R 
Y\OEF
I"O"P5TST45uUdbz\O#$GNRMC,041438.00,A,0419.78089,S,05539.89370,E,0.170,,210525,,,A*73
$GNVTG,,T,,M,0.170,N,0.314,K,A*3D
$GNGNS,041438.00,0419.78089,S,05539.89370,E,AA,13,1.04,16.7,-47.6,,*6D
$GNGGA,041438.00,0419.78089,S,05539.89370,E,1,12,1.04,16.7,M,-47.6,M,,*46
$GNGSA,A,3,24,20,11,05,22,06,12,14,,,,,1.69,1.04,1.33*17
$GNGSA,A,3,84,80,73,83,79,,,,,,,,1.69,1.04,1.33*13
$GPGSV,5,1,17,05,45,162,20,06,11,028,29,11,43,020,23,12,17,347,11*7E
$GPGSV,5,2,17,13,28,175,14,14,11,112,25,15,27,212,25,18,07,219,*75
$GPGSV,5,3,17,20,51,103,38,22,21,093,25,24,59,291,31,29,12,279,*7E
$GPGSV,5,4,17,36,52,277,,40,86,350,,41,58,082,,49,32,274,*7D
$GPGSV,5,5,17,50,10,089,*4A
$GLGSV,2,1,08,69,11,145,19,70,11,206,,73,34,002,20,79,17,136,34*62
$GLGSV,2,2,08,80,53,084,27,83,18,007,17,84,52,309,13,85,31,239,27*68
$GNGLL,0419.78089,S,05539.89370,E,041438.00,A,A*6D
$GNGRS,041438.00,1,2.5,0.2,2.5,5.2,3.0,1.1,-17.3,-4.6,,,,*6B
$GNGRS,041438.00,1,-6.5,12.4,-7.5,-3.1,1.3,,,,,,,*6F
$GNGST,041438.00,50,,,,4.0,3.9,6.7*49
$GNZDA,041438.00,21,05,2025,00,00*71
$GNGBS,041438.00,4.0,3.9,6.7,,,,*5A
$GNTXT,01,01,01,More than 100 frame errors, UART RX was disabled*70
b0@}\-0+[Lp$3gW];#V{4V^:R 
Y\EF
I"O"aP5TST45U&b}\Ow|$GNRMC,041439.00,A,0419.78100,S,05539.89371,E,0.134,,210525,,,A*73
$GNVTG,,T,,M,0.134,N,0.248,K,A*35
$GNGNS,041439.00,0419.78100,S,05539.89371,E,AA,13,1.04,16.7,-47.6,,*6D
$GNGGA,041439.00,0419.78100,S,05539.89371,E,1,12,1.04,16.7,M,-47.6,M,,*46
$GNGSA,A,3,24,20,11,05,22,06,12,14,,,,,1.69,1.04,1.33*17
$GNGSA,A,3,84,80,73,83,79,,,,,,,,1.69,1.04,1.33*13
$GPGSV,5,1,17,05,45,162,20,06,11,028,29,11,43,020,23,12,17,347,13*7C
$GPGSV,5,2,17,13,28,175,12,14,11,112,25,15,27,212,24,18,07,219,*72
$GPGSV,5,3,17,20,51,103,36,22,21,093,31,24,59,291,30,29,12,279,*74
$GPGSV,5,4,17,36,52,277,,40,86,350,,41,58,082,,49,32,274,*7D
$GPGSV,5,5,17,50,10,089,*4A
$GLGSV,2,1,08,69,11,145,18,70,11,206,,73,34,002,20,79,17,136,34*63
$GLGSV,2,2,08,80,53,084,27,83,18,007,19,84,52,309,13,85,31,239,25*64
$GNGLL,0419.78100,S,05539.89371,E,041439.00,A,A*6D
$GNGRS,041439.00,1,0.9,3.4,2.3,2.2,-2.5,0.5,-17.2,-5.2,,,,*48
$GNGRS,041439.00,1,-0.4,12.7,-7.8,-2.9,6.1,,,,,,,*6B
$GNGST,041439.00,64098,,,,3.9,3.9,6.6*71
$GNZDA,041439.00,21,05,2025,00,00*70
$GNGBS,041439.00,3.9,3.9,6.6,,,,*54
$GNTXT,01,01,01,More than 100 frame errors, UART RX was disabled*70
b0@\-+[p$3g=];#o{4V^:R 
Y\EF
I"zOP5TSyT45Ub\O_p$GNRMC,041440.00,A,0419.78100,S,05539.89377,E,0.116,,210525,,,A*7B
$GNVTG,,T,,M,0.116,N,0.215,K,A*3D
$GNGNS,041440.00,0419.78100,S,05539.89377,E,AA,13,1.04,16.8,-47.6,,*6A
$GNGGA,041440.00,0419.78100,S,05539.89377,E,1,12,1.04,16.8,M,-47.6,M,,*41
$GNGSA,A,3,24,20,11,05,22,06,12,14,,,,,1.69,1.04,1.33*17
$GNGSA,A,3,84,80,73,83,79,,,,,,,,1.69,1.04,1.33*13
$GPGSV,5,1,17,05,45,162,24,06,11,028,30,11,43,020,25,12,17,347,14*71
$GPGSV,5,2,17,13,28,175,11,14,11,112,25,15,27,212,22,18,07,219,*77
$GPGSV,5,3,17,20,51,103,36,22,21,093,31,24,59,291,31,29,12,279,*75
$GPGSV,5,4,17,36,52,277,,40,86,350,,41,58,082,,49,32,274,*7D
$GPGSV,5,5,17,50,10,089,*4A
$GLGSV,2,1,08,69,11,145,17,70,11,206,,73,34,002,18,79,17,136,31*62
$GLGSV,2,2,08,80,53,084,27,83,18,007,18,84,52,309,13,85,31,239,25*65
$GNGLL,0419.78100,S,05539.89377,E,041440.00,A,A*65
$GNGRS,041440.00,1,-1.4,0.6,4.2,1.4,-0.7,0.1,-17.9,-5.3,,,,*6A
$GNGRS,041440.00,1,-0.3,11.7,-3.9,-1.3,4.0,,,,,,,*6E
$GNGST,041440.00,96148,,,,3.9,3.9,6.5*7D
$GNZDA,041440.00,21,05,2025,00,00*7E
$GNGBS,041440.00,3.9,3.9,6.5,,,,*59
$GNTXT,01,01,01,More than 100 frame errors, UART RX was disabled*70
b0@\-G+[p"3gF]$ ;#{4V^:R 
Y\EF
I"<O"+P5TNST45Ub\OGHL$GNRMC,041441.00,A,0419.78101,S,05539.89382,E,0.072,,210525,,,A*72
$GNVTG,,T,,M,0.072,N,0.134,K,A*3E
$GNGNS,041441.00,0419.78101,S,05539.89382,E,AA,13,1.04,16.7,-47.6,,*6F
$GNGGA,041441.00,0419.78101,S,05539.89382,E,1,12,1.04,16.7,M,-47.6,M,,*44
$GNGSA,A,3,24,20,11,05,22,06,12,14,,,,,1.69,1.04,1.33*17
$GNGSA,A,3,84,80,73,83,79,,,,,,,,1.69,1.04,1.33*13
$GPGSV,5,1,17,05,45,162,24,06,11,028,31,11,43,020,25,12,17,347,17*73
$GPGSV,5,2,17,13,28,175,12,14,11,112,26,15,27,212,23,18,07,219,*76
$GPGSV,5,3,17,20,51,103,34,22,21,093,31,24,59,291,32,29,12,279,*74
$GPGSV,5,4,17,36,52,277,,40,86,350,,41,58,082,,49,32,274,*7D
$GPGSV,5,5,17,50,10,089,*4A
$GLGSV,2,1,08,69,11,145,18,70,11,206,,73,34,002,18,79,17,136,34*68
$GLGSV,2,2,08,80,53,084,28,83,18,007,19,84,52,309,09,85,31,239,27*62
$GNGLL,0419.78101,S,05539.89382,E,041441.00,A,A*6F
$GNGRS,041441.00,1,-3.8,0.7,2.7,-1.8,2.9,2.8,-15.9,-6.1,,,,*6F
$GNGRS,041441.00,1,0.3,8.5,-2.0,-0.8,3.0,,,,,,,*7D
$GNGST,041441.00,45,,,,3.8,3.9,6.4*4F
$GNZDA,041441.00,21,05,2025,00,00*7F
$GNGBS,041441.00,3.8,3.9,6.4,,,,*58
$GNTXT,01,01,01,More than 100 frame errors, UART RX was disabled*70
b0@\-~ +[p%3gs]h!;#{4V^:R 
Y\cEF
I"RO!P5TST
45Uc b\O/
!$GNRMC,041442.00,A,0419.78094,S,05539.89393,E,0.083,,210525,,,A*72
$GNVTG,,T,,M,0.083,N,0.153,K,A*31
$GNGNS,041442.00,0419.78094,S,05539.89393,E,AA,13,1.04,17.0,-47.6,,*67
$GNGGA,041442.00,0419.78094,S,05539.89393,E,1,12,1.04,17.0,M,-47.6,M,,*4C
$GNGSA,A,3,24,20,11,05,22,06,12,14,,,,,1.69,1.04,1.33*17
$GNGSA,A,3,84,80,73,83,79,,,,,,,,1.69,1.04,1.33*13
$GPGSV,5,1,17,05,45,162,25,06,11,028,30,11,43,020,32,12,17,347,17*75
$GPGSV,5,2,17,13,28,175,13,14,11,112,26,15,27,212,25,18,07,219,*71
$GPGSV,5,3,17,20,51,103,37,22,21,093,29,24,59,291,33,29,12,279,*7F
$GPGSV,5,4,17,36,52,277,,40,86,350,,41,58,082,,49,32,274,*7D
$GPGSV,5,5,17,50,10,089,*4A
$GLGSV,2,1,08,69,11,145,20,70,11,206,,73,34,002,20,79,17,136,33*6F
$GLGSV,2,2,08,80,53,084,29,83,18,007,21,84,52,309,10,85,31,239,28*6F
$GNGLL,0419.78094,S,05539.89393,E,041442.00,A,A*61
$GNGRS,041442.00,1,-3.3,1.2,-0.7,-1.3,-1.5,2.2,-15.7,-2.7,,,,*63
$GNGRS,041442.00,1,-0.3,7.2,-1.7,-0.2,-1.2,,,,,,,*78
$GNGST,041442.00,3205,,,,3.7,3.9,6.3*41
$GNZDA,041442.00,21,05,2025,00,00*7C
$GNGBS,041442.00,3.7,3.9,6.3,,,,*53
$GNTXT,01,01,01,More than 100 frame errors, UART RX was disabled*70
b0@\-@+[Ep$3g^] ;#{4V^:R 
Y\UEF
I"DOP5T
S1T45Ubb\O
$GNRMC,041443.00,A,0419.78095,S,05539.89396,E,0.017,,210525,,,A*7A
$GNVTG,,T,,M,0.017,N,0.031,K,A*39
$GNGNS,041443.00,0419.78095,S,05539.89396,E,AA,13,1.04,17.0,-47.6,,*62
$GNGGA,041443.00,0419.78095,S,05539.89396,E,1,12,1.04,17.0,M,-47.6,M,,*49
$GNGSA,A,3,24,20,11,05,22,06,12,14,,,,,1.69,1.04,1.33*17
$GNGSA,A,3,84,80,73,83,79,,,,,,,,1.69,1.04,1.33*13
$GPGSV,5,1,17,05,45,162,26,06,11,028,30,11,43,020,31,12,17,347,17*75
$GPGSV,5,2,17,13,28,175,14,14,11,112,24,15,27,212,25,18,07,219,*74
$GPGSV,5,3,17,20,51,103,36,22,21,093,29,24,59,291,32,29,12,279,*7F
$GPGSV,5,4,17,36,52,277,,40,86,350,,41,58,082,,49,32,274,*7D
$GPGSV,5,5,17,50,10,089,*4A
$GLGSV,2,1,08,69,11,145,19,70,11,206,,73,34,002,18,79,17,136,30*6D
$GLGSV,2,2,08,80,53,084,29,83,18,007,21,84,52,309,11,85,31,239,27*61
$GNGLL,0419.78095,S,05539.89396,E,041443.00,A,A*64
$GNGRS,041443.00,1,-0.3,0.9,-1.0,-0.3,4.7,0.6,-14.7,-2.9,,,,*4F
$GNGRS,041443.00,1,-0.3,10.3,-4.4,0.5,0.2,,,,,,,*4E
$GNGST,041443.00,4808,,,,3.7,3.9,6.3*40
$GNZDA,041443.00,21,05,2025,00,00*7D
$GNGBS,041443.00,3.7,3.9,6.3,,,,*52
$GNTXT,01,01,01,More than 100 frame errors, UART RX was disabled*70
b0@p\-+\[0p#3g+] ;#{4V^:R 
Y\EF
I"vOaP5TSYT45ZU"bp\O
$GNRMC,041444.00,A,0419.78094,S,05539.89401,E,0.098,,210525,,,A*72
$GNVTG,,T,,M,0.098,N,0.182,K,A*37
$GNGNS,041444.00,0419.78094,S,05539.89401,E,AA,13,1.04,17.1,-47.6,,*6C
$GNGGA,041444.00,0419.78094,S,05539.89401,E,1,12,1.04,17.1,M,-47.6,M,,*47
$GNGSA,A,3,24,20,11,05,22,06,12,14,,,,,1.69,1.04,1.33*17
$GNGSA,A,3,84,80,73,83,79,,,,,,,,1.69,1.04,1.33*13
$GPGSV,5,1,17,05,45,162,26,06,11,028,30,11,43,020,29,12,17,347,15*7E
$GPGSV,5,2,17,13,28,175,12,14,11,112,22,15,27,212,25,18,07,219,*74
$GPGSV,5,3,17,20,51,103,35,22,21,093,31,24,59,291,32,29,12,279,*75
$GPGSV,5,4,17,36,52,277,,40,86,350,,41,58,082,,49,32,274,*7D
$GPGSV,5,5,17,50,10,089,*4A
$GLGSV,2,1,08,69,11,145,18,70,11,206,,73,34,002,18,79,17,136,31*6D
$GLGSV,2,2,08,80,53,084,28,83,18,007,22,84,52,309,13,85,31,239,26*60
$GNGLL,0419.78094,S,05539.89401,E,041444.00,A,A*6B
$GNGRS,041444.00,1,-0.7,0.4,0.9,0.2,-0.6,2.2,-14.9,-0.2,,,,*61
$GNGRS,041444.00,1,11.1,9.8,-6.5,0.9,-1.6,,,,,,,*42
$GNGST,041444.00,43,,,,3.7,3.9,6.3*44
$GNZDA,041444.00,21,05,2025,00,00*7A
$GNGBS,041444.00,3.7,3.9,6.3,,,,*55
$GNTXT,01,01,01,More than 100 frame errors, UART RX was disabled*70
b0@X\-|+[ps"3g&]% ;#{4V^:R 
Y\PEF
I"}OP5TSiT45UbX\O
$GNRMC,041445.00,A,0419.78094,S,05539.89400,E,0.075,,210525,,,A*71
$GNVTG,,T,,M,0.075,N,0.139,K,A*34
$GNGNS,041445.00,0419.78094,S,05539.89400,E,AA,13,1.04,17.1,-47.6,,*6C
$GNGGA,041445.00,0419.78094,S,05539.89400,E,1,12,1.04,17.1,M,-47.6,M,,*47
$GNGSA,A,3,24,20,11,05,22,06,12,14,,,,,1.69,1.04,1.33*17
$GNGSA,A,3,84,80,73,83,79,,,,,,,,1.69,1.04,1.33*13
$GPGSV,5,1,17,05,45,162,27,06,11,028,29,11,43,020,28,12,17,347,15*76
$GPGSV,5,2,17,13,28,175,09,14,11,112,20,15,27,212,25,18,07,219,*7C
$GPGSV,5,3,17,20,51,103,34,22,21,093,31,24,59,291,32,29,12,279,*74
$GPGSV,5,4,17,36,52,277,,40,86,350,,41,58,082,,49,32,274,*7D
$GPGSV,5,5,17,50,10,089,*4A
$GLGSV,2,1,08,69,11,145,18,70,11,206,,73,34,002,19,79,17,136,31*6C
$GLGSV,2,2,08,80,53,084,28,83,18,007,21,84,52,309,11,85,31,239,24*63
$GNGLL,0419.78094,S,05539.89400,E,041445.00,A,A*6B
$GNGRS,041445.00,1,1.5,0.4,-3.2,-1.3,-2.2,4.5,-14.0,-4.0,,,,*4E
$GNGRS,041445.00,1,-0.5,6.4,-6.4,1.1,1.4,,,,,,,*7E
$GNGST,041445.00,128197,,,,3.6,3.9,6.2*46
$GNZDA,041445.00,21,05,2025,00,00*7B
$GNGBS,041445.00,3.6,3.9,6.2,,,,*54
$GNTXT,01,01,01,More than 100 frame errors, UART RX was disabled*70
b0@@\-+[p%3g]!;#{4V^:R 
Y\EF
I"OP5TST45UDb@\O
S$GNRMC,041446.00,A,0419.78094,S,05539.89404,E,0.074,,210525,,,A*77
$GNVTG,,T,,M,0.074,N,0.136,K,A*3A
$GNGNS,041446.00,0419.78094,S,05539.89404,E,AA,13,1.04,17.2,-47.6,,*68
$GNGGA,041446.00,0419.78094,S,05539.89404,E,1,12,1.04,17.2,M,-47.6,M,,*43
$GNGSA,A,3,24,20,11,05,22,06,12,14,,,,,1.69,1.04,1.33*17
$GNGSA,A,3,84,80,73,83,79,,,,,,,,1.69,1.04,1.33*13
$GPGSV,5,1,17,05,45,162,25,06,11,028,30,11,43,020,27,12,17,347,16*70
$GPGSV,5,2,17,13,28,175,09,14,11,112,29,15,27,212,26,18,07,219,*76
$GPGSV,5,3,17,20,51,103,37,22,21,093,30,24,59,291,33,29,12,279,*77
$GPGSV,5,4,17,36,52,277,,40,86,350,,41,58,082,,49,32,274,*7D
$GPGSV,5,5,17,50,10,089,*4A
$GLGSV,2,1,08,69,11,145,17,70,11,206,,73,34,002,19,79,17,136,31*63
$GLGSV,2,2,08,80,53,084,30,83,18,007,20,84,52,309,08,85,31,239,24*63
$GNGLL,0419.78094,S,05539.89404,E,041446.00,A,A*6C
$GNGRS,041446.00,1,-1.2,0.1,4.8,-0.2,-3.6,-2.5,-13.7,-7.5,,,,*6A
$GNGRS,041446.00,1,-0.6,7.1,-5.9,1.7,4.2,,,,,,,*71
$GNGST,041446.00,192295,,,,3.6,3.8,6.2*44
$GNZDA,041446.00,21,05,2025,00,00*78
$GNGBS,041446.00,3.6,3.8,6.2,,,,*56
$GNTXT,01,01,01,More than 100 frame errors, UART RX was disabled*70
b0@(\-`+[|pE$3g ] ;#{4V^:R 
Y\EF
I"MOP5TSoT45Ub(\O
X$GNRMC,041447.00,A,0419.78095,S,05539.89406,E,0.020,,210525,,,A*74
$GNVTG,,T,,M,0.020,N,0.036,K,A*3A
$GNGNS,041447.00,0419.78095,S,05539.89406,E,AA,13,1.04,17.2,-47.6,,*6A
$GNGGA,041447.00,0419.78095,S,05539.89406,E,1,12,1.04,17.2,M,-47.6,M,,*41
$GNGSA,A,3,24,20,11,05,22,06,12,14,,,,,1.69,1.04,1.33*17
$GNGSA,A,3,84,80,73,83,79,,,,,,,,1.69,1.04,1.33*13
$GPGSV,5,1,17,05,45,162,24,06,11,028,30,11,43,020,28,12,17,347,18*70
$GPGSV,5,2,17,13,28,175,09,14,11,112,27,15,27,212,27,18,07,219,*79
$GPGSV,5,3,17,20,51,103,36,22,21,093,32,24,59,291,32,29,12,279,*75
$GPGSV,5,4,17,36,52,277,,40,86,350,,41,58,082,,49,32,274,*7D
$GPGSV,5,5,17,50,10,089,*4A
$GLGSV,2,1,08,69,11,145,18,70,11,206,,73,34,002,18,79,17,136,31*6D
$GLGSV,2,2,08,80,53,084,28,83,18,007,21,84,52,309,12,85,31,239,25*61
$GNGLL,0419.78095,S,05539.89406,E,041447.00,A,A*6E
$GNGRS,041447.00,1,-3.2,0.0,2.5,3.5,-3.4,1.3,-11.6,-7.0,,,,*66
$GNGRS,041447.00,1,-8.7,11.9,-4.3,1.1,4.4,,,,,,,*4D
$GNGST,041447.00,45,,,,3.6,3.8,6.1*43
$GNZDA,041447.00,21,05,2025,00,00*79
$GNGBS,041447.00,3.6,3.8,6.1,,,,*54
$GNTXT,01,01,01,More than 100 frame errors, UART RX was disabled*70
b0@\-+[p]#3g!]^!;#{4V^:R 
Y\EF
I"O;P5TTS;T45Ub\O
0#$GNRMC,041448.00,A,0419.78093,S,05539.89414,E,0.029,,210525,,,A*77
$GNVTG,,T,,M,0.029,N,0.053,K,A*30
$GNGNS,041448.00,0419.78093,S,05539.89414,E,AA,13,1.04,17.4,-47.6,,*66
$GNGGA,041448.00,0419.78093,S,05539.89414,E,1,12,1.04,17.4,M,-47.6,M,,*4D
$GNGSA,A,3,24,20,11,05,22,06,12,14,,,,,1.69,1.04,1.33*17
$GNGSA,A,3,84,80,73,83,79,,,,,,,,1.69,1.04,1.33*13
$GPGSV,5,1,17,05,45,162,23,06,11,028,30,11,43,020,28,12,17,347,18*77
$GPGSV,5,2,17,13,28,175,,14,11,112,25,15,27,212,26,18,07,219,*73
$GPGSV,5,3,17,20,51,103,35,22,21,093,33,24,59,291,33,29,12,279,*76
$GPGSV,5,4,17,36,52,277,,40,86,350,,41,58,082,,49,32,274,*7D
$GPGSV,5,5,17,50,10,089,*4A
$GLGSV,2,1,08,69,11,145,17,70,11,206,,73,34,002,17,79,17,136,31*6D
$GLGSV,2,2,08,80,53,084,28,83,18,007,22,84,52,309,09,85,31,239,25*68
$GNGLL,0419.78093,S,05539.89414,E,041448.00,A,A*64
$GNGRS,041448.00,1,-3.2,0.2,-2.9,4.5,-4.2,2.3,-10.3,-6.7,,,,*4D
$GNGRS,041448.00,1,-0.2,16.2,-3.7,0.6,0.6,,,,,,,*40
$GNGST,041448.00,86533,,,,3.5,3.8,6.1*75
$GNZDA,041448.00,21,05,2025,00,00*76
$GNGBS,041448.00,3.5,3.8,6.1,,,,*58
$GNTXT,01,01,01,More than 100 frame errors, UART RX was disabled*70
b0@\-+<[Op#3g ]!;#I{4V^:R 
Y\EF
I"O P5TSaT
45Ub\O
|$GNRMC,041449.00,A,0419.78092,S,05539.89414,E,0.072,,210525,,,A*79
$GNVTG,,T,,M,0.072,N,0.133,K,A*39
$GNGNS,041449.00,0419.78092,S,05539.89414,E,AA,13,1.04,17.6,-47.6,,*64
$GNGGA,041449.00,0419.78092,S,05539.89414,E,1,12,1.04,17.6,M,-47.6,M,,*4F
$GNGSA,A,3,24,20,11,05,22,06,12,14,,,,,1.69,1.04,1.33*17
$GNGSA,A,3,84,80,73,83,79,,,,,,,,1.69,1.04,1.33*13
$GPGSV,5,1,17,05,45,162,23,06,11,028,29,11,43,020,27,12,17,347,18*70
$GPGSV,5,2,17,13,28,175,,14,11,112,25,15,27,212,26,18,07,219,*73
$GPGSV,5,3,17,20,51,103,35,22,21,093,32,24,59,291,33,29,12,279,*77
$GPGSV,5,4,17,36,52,277,,40,86,350,,41,58,082,,49,32,274,*7D
$GPGSV,5,5,17,50,10,089,*4A
$GLGSV,2,1,08,69,11,145,19,70,11,206,,73,34,002,18,79,17,136,32*6F
$GLGSV,2,2,08,80,53,084,29,83,18,007,23,84,52,309,10,85,31,239,25*60
$GNGLL,0419.78092,S,05539.89414,E,041449.00,A,A*64
$GNGRS,041449.00,1,0.7,-0.1,-2.0,7.0,-7.5,-1.2,-9.4,-6.4,,,,*51
$GNGRS,041449.00,1,-0.2,12.9,-2.8,1.0,-1.2,,,,,,,*6F
$GNGST,041449.00,128197,,,,3.5,3.8,6.0*4A
$GNZDA,041449.00,21,05,2025,00,00*77
$GNGBS,041449.00,3.5,3.8,6.0,,,,*58
$GNTXT,01,01,01,More than 100 frame errors, UART RX was disabled*70
b0@\-I+7[{p#3g]e ;#{4V^:R 
Y\EF
I"$O P5TST45Ub\Oo
$GNRMC,041450.00,A,0419.78087,S,05539.89421,E,0.042,,210525,,,A*70
$GNVTG,,T,,M,0.042,N,0.079,K,A*35
$GNGNS,041450.00,0419.78087,S,05539.89421,E,AA,12,1.11,17.9,-47.6,,*64
$GNGGA,041450.00,0419.78087,S,05539.89421,E,1,12,1.11,17.9,M,-47.6,M,,*4E
$GNGSA,A,3,24,20,11,05,22,06,12,14,,,,,1.73,1.11,1.33*18
$GNGSA,A,3,80,73,83,79,,,,,,,,,1.73,1.11,1.33*10
$GPGSV,5,1,17,05,45,162,23,06,11,028,29,11,43,020,25,12,17,347,18*72
$GPGSV,5,2,17,13,28,175,,14,11,112,25,15,27,212,26,18,07,219,*73
$GPGSV,5,3,17,20,51,103,35,22,21,093,31,24,59,291,32,29,12,279,*75
$GPGSV,5,4,17,36,52,277,,40,86,350,,41,58,082,,49,32,274,*7D
$GPGSV,5,5,17,50,10,089,*4A
$GLGSV,2,1,08,69,11,145,19,70,11,206,,73,34,002,19,79,17,136,32*6E
$GLGSV,2,2,08,80,53,084,29,83,18,007,22,84,52,309,07,85,31,239,25*67
$GNGLL,0419.78087,S,05539.89421,E,041450.00,A,A*6E
$GNGRS,041450.00,1,-1.3,0.2,-4.6,6.6,-6.7,0.7,-11.6,-6.2,,,,*4F
$GNGRS,041450.00,1,14.4,-4.8,1.6,-3.4,,,,,,,,*69
$GNGST,041450.00,36,,,,3.5,3.8,6.0*43
$GNZDA,041450.00,21,05,2025,00,00*7F
$GNGBS,041450.00,3.5,3.8,6.0,,,,*50
$GNTXT,01,01,01,More than 100 frame errors, UART RX was disabled*70
b0@\-8o+[%p$$3g ]s ;#P{4V^:R 
Y\CEF
I"sOPP5TxSZT
45Ujb\OW#
L$GNRMC,041451.00,A,0419.78088,S,05539.89424,E,0.025,,210525,,,A*7A
$GNVTG,,T,,M,0.025,N,0.046,K,A*38
$GNGNS,041451.00,0419.78088,S,05539.89424,E,AA,13,1.04,18.1,-47.6,,*6D
$GNGGA,041451.00,0419.78088,S,05539.89424,E,1,12,1.04,18.1,M,-47.6,M,,*46
$GNGSA,A,3,24,20,11,05,22,06,12,14,,,,,1.69,1.04,1.33*17
$GNGSA,A,3,84,80,73,83,79,,,,,,,,1.69,1.04,1.33*13
$GPGSV,5,1,17,05,45,162,23,06,11,028,30,11,43,020,26,12,17,347,18*79
$GPGSV,5,2,17,13,28,175,,14,11,112,24,15,27,212,27,18,07,219,*73
$GPGSV,5,3,17,20,51,103,36,22,21,093,32,24,59,291,32,29,12,279,*75
$GPGSV,5,4,17,36,52,277,,40,86,350,,41,58,082,,49,32,274,*7D
$GPGSV,5,5,17,50,10,089,*4A
$GLGSV,2,1,08,69,11,144,18,70,11,206,,73,34,002,19,79,17,136,31*6D
$GLGSV,2,2,08,80,53,084,30,83,18,007,22,84,52,309,10,85,31,239,24*68
$GNGLL,0419.78088,S,05539.89424,E,041451.00,A,A*65
$GNGRS,041451.00,1,0.8,0.0,-8.4,5.7,-1.4,-1.5,-12.4,-7.3,,,,*4C
$GNGRS,041451.00,1,-0.3,8.9,-4.0,0.9,-1.8,,,,,,,*50
$GNGST,041451.00,3179277,,,,3.5,3.8,6.0*79
$GNZDA,041451.00,21,05,2025,00,00*7E
$GNGBS,041451.00,3.5,3.8,6.0,,,,*51
$GNTXT,01,01,01,More than 100 frame errors, UART RX was disabled*70
b0@\-*+[p#3gN ]> ;#{4V^:R 
Y\dEF
I"O \P5TST
45U*b\O?'
$GNRMC,041452.00,A,0419.78093,S,05539.89425,E,0.027,,210525,,,A*70
$GNVTG,,T,,M,0.027,N,0.051,K,A*3C
$GNGNS,041452.00,0419.78093,S,05539.89425,E,AA,13,1.04,18.1,-47.6,,*65
$GNGGA,041452.00,0419.78093,S,05539.89425,E,1,12,1.04,18.1,M,-47.6,M,,*4E
$GNGSA,A,3,24,20,11,05,22,06,12,14,,,,,1.69,1.04,1.33*17
$GNGSA,A,3,84,80,73,83,79,,,,,,,,1.69,1.04,1.33*13
$GPGSV,5,1,17,05,45,162,25,06,11,028,30,11,43,020,28,12,17,347,17*7E
$GPGSV,5,2,17,13,28,175,,14,11,112,23,15,27,212,27,18,07,219,*74
$GPGSV,5,3,17,20,51,103,35,22,21,093,32,24,59,291,32,29,12,279,*76
$GPGSV,5,4,17,36,52,277,,40,86,350,,41,58,082,,49,32,274,*7D
$GPGSV,5,5,17,50,10,089,*4A
$GLGSV,2,1,08,69,11,144,19,70,11,206,,73,34,002,18,79,17,136,32*6E
$GLGSV,2,2,08,80,53,084,31,83,18,007,23,84,52,309,10,85,31,239,24*68
$GNGLL,0419.78093,S,05539.89425,E,041452.00,A,A*6D
$GNGRS,041452.00,1,-3.0,0.8,-3.1,4.9,-7.1,0.4,-10.3,-7.6,,,,*4E
$GNGRS,041452.00,1,-0.3,4.6,-3.3,-1.2,3.5,,,,,,,*51
$GNGST,041452.00,3179277,,,,3.5,3.8,6.0*7A
$GNZDA,041452.00,21,05,2025,00,00*7D
$GNGBS,041452.00,3.5,3.8,6.0,,,,*52
$GNTXT,01,01,01,More than 100 frame errors, UART RX was disabled*70
b0@\-Z+[pb#3g]!;#{4V^:R 
Y\EF
I"CO P5TS!T45
U7b\O'+
g$GNRMC,041453.00,A,0419.78097,S,05539.89427,E,0.028,,210525,,,A*78
$GNVTG,,T,,M,0.028,N,0.052,K,A*30
$GNGNS,041453.00,0419.78097,S,05539.89427,E,AA,13,1.11,18.1,-47.6,,*66
$GNGGA,041453.00,0419.78097,S,05539.89427,E,1,12,1.11,18.1,M,-47.6,M,,*4D
$GNGSA,A,3,24,20,11,05,22,06,12,14,,,,,1.73,1.11,1.33*18
$GNGSA,A,3,84,80,73,83,79,,,,,,,,1.73,1.11,1.33*1C
$GPGSV,5,1,17,05,45,162,26,06,11,028,31,11,43,020,27,12,17,347,15*71
$GPGSV,5,2,17,13,28,175,,14,11,112,23,15,27,212,27,18,07,219,*74
$GPGSV,5,3,17,20,51,103,35,22,21,093,31,24,59,291,33,29,12,279,*74
$GPGSV,5,4,17,36,52,277,,40,86,350,,41,58,082,,49,32,274,*7D
$GPGSV,5,5,17,50,10,089,*4A
$GLGSV,2,1,08,69,11,144,17,70,11,206,,73,34,002,18,79,17,136,32*60
$GLGSV,2,2,08,80,53,084,30,83,18,007,23,84,52,309,09,85,31,239,23*66
$GNGLL,0419.78097,S,05539.89427,E,041453.00,A,A*6A
$GNGRS,041453.00,1,-2.6,-0.5,2.2,3.5,-6.3,-0.1,-13.5,-9.3,,,,*69
$GNGRS,041453.00,1,-38.3,6.7,-4.4,-2.2,4.9,,,,,,,*60
$GNGST,041453.00,35,,,,3.4,3.8,5.9*48
$GNZDA,041453.00,21,05,2025,00,00*7C
$GNGBS,041453.00,3.4,3.8,5.9,,,,*58
$GNTXT,01,01,01,More than 100 frame errors, UART RX was disabled*70
b0@\-S#+w[`p!$3g]!;#{4$V^:R 
Y\&EF
I"O P5TST45Ub\O/
?$GNRMC,041454.00,A,0419.78102,S,05539.89428,E,0.090,,210525,,,A*7E
$GNVTG,,T,,M,0.090,N,0.166,K,A*35
$GNGNS,041454.00,0419.78102,S,05539.89428,E,AA,12,1.11,18.0,-47.6,,*63
$GNGGA,041454.00,0419.78102,S,05539.89428,E,1,12,1.11,18.0,M,-47.6,M,,*49
$GNGSA,A,3,24,20,11,05,22,06,12,14,,,,,1.73,1.11,1.33*18
$GNGSA,A,3,80,73,83,79,,,,,,,,,1.73,1.11,1.33*10
$GPGSV,5,1,17,05,45,162,26,06,11,028,31,11,43,020,26,12,17,347,15*70
$GPGSV,5,2,17,13,28,175,17,14,11,112,22,15,27,212,27,18,07,219,*73
$GPGSV,5,3,17,20,51,103,36,22,21,093,31,24,59,291,33,29,12,279,*77
$GPGSV,5,4,17,36,52,277,,40,86,350,36,41,58,082,,49,32,274,*78
$GPGSV,5,5,17,50,10,089,*4A
$GLGSV,2,1,08,69,11,144,17,70,11,206,,73,34,002,19,79,17,136,32*61
$GLGSV,2,2,08,80,53,084,30,83,18,007,21,84,52,309,06,85,31,239,23*6B
$GNGLL,0419.78102,S,05539.89428,E,041454.00,A,A*6F
$GNGRS,041454.00,1,-2.8,-2.9,-6.5,3.4,-1.3,0.3,-14.4,-7.3,,,,*61
$GNGRS,041454.00,1,7.3,-2.5,-2.4,4.8,,,,,,,,*59
$GNGST,041454.00,36,,,,3.4,3.8,5.9*4C
$GNZDA,041454.00,21,05,2025,00,00*7B
$GNGBS,041454.00,3.4,3.8,5.9,,,,*5F
$GNTXT,01,01,01,More than 100 frame errors, UART RX was disabled*70
b0@h\-0+[p#3g!]!;#{4#V^:R 
Y\|EF
I#_O P5T<ST45Ubh\O2
$GNRMC,041455.00,A,0419.78102,S,05539.89431,E,0.079,,210525,,,A*70
$GNVTG,,T,,M,0.079,N,0.147,K,A*31
$GNGNS,041455.00,0419.78102,S,05539.89431,E,AA,13,1.04,18.1,-47.6,,*6E
$GNGGA,041455.00,0419.78102,S,05539.89431,E,1,12,1.04,18.1,M,-47.6,M,,*45
$GNGSA,A,3,24,20,11,05,22,06,12,14,,,,,1.69,1.04,1.33*17
$GNGSA,A,3,84,80,73,83,79,,,,,,,,1.69,1.04,1.33*13
$GPGSV,5,1,17,05,45,162,27,06,11,028,30,11,43,020,28,12,17,347,17*7C
$GPGSV,5,2,17,13,28,175,16,14,11,112,23,15,27,212,27,18,07,219,*73
$GPGSV,5,3,17,20,51,103,35,22,21,093,33,24,59,291,33,29,12,279,*76
$GPGSV,5,4,17,36,52,277,,40,86,350,35,41,58,082,,49,32,274,*7B
$GPGSV,5,5,17,50,10,089,*4A
$GLGSV,2,1,08,69,11,144,17,70,11,206,,73,35,002,19,79,17,136,32*60
$GLGSV,2,2,08,80,53,084,31,83,18,007,20,84,52,309,09,85,31,239,24*63
$GNGLL,0419.78102,S,05539.89431,E,041455.00,A,A*66
$GNGRS,041455.00,1,-2.4,-1.2,-2.8,0.5,-6.3,4.6,-13.1,-4.9,,,,*62
$GNGRS,041455.00,1,-0.3,5.7,-1.6,-2.9,1.4,,,,,,,*5A
$GNGST,041455.00,3179277,,,,3.4,3.8,5.9*76
$GNZDA,041455.00,21,05,2025,00,00*7A
$GNGBS,041455.00,3.4,3.8,5.9,,,,*5E
$GNTXT,01,01,01,More than 100 frame errors, UART RX was disabled*70
b0@P\-+[dp.#3g"]9!;#l{4$V^:R 
Y\PEF
I#OP 5T2ST45UCWbP\O6
Q$GNRMC,041456.00,A,0419.78101,S,05539.89435,E,0.083,,210525,,,A*71
$GNVTG,,T,,M,0.083,N,0.154,K,A*36
$GNGNS,041456.00,0419.78101,S,05539.89435,E,AA,13,1.04,18.1,-47.6,,*6A
$GNGGA,041456.00,0419.78101,S,05539.89435,E,1,12,1.04,18.1,M,-47.6,M,,*41
$GNGSA,A,3,24,20,11,05,22,06,12,14,,,,,1.69,1.04,1.33*17
$GNGSA,A,3,84,80,73,83,79,,,,,,,,1.69,1.04,1.33*13
$GPGSV,5,1,17,05,45,162,27,06,11,028,30,11,43,020,28,12,17,347,17*7C
$GPGSV,5,2,17,13,28,175,14,14,11,112,23,15,27,212,28,18,07,219,*7E
$GPGSV,5,3,17,20,51,103,35,22,21,093,34,24,59,291,33,29,12,279,*71
$GPGSV,5,4,17,36,52,277,,40,86,350,36,41,58,082,,49,32,274,*78
$GPGSV,5,5,17,50,10,089,*4A
$GLGSV,2,1,08,69,11,144,17,70,11,206,,73,35,002,17,79,17,136,31*6D
$GLGSV,2,2,08,80,53,084,32,83,18,007,18,84,52,309,09,85,31,239,24*6B
$GNGLL,0419.78101,S,05539.89435,E,041456.00,A,A*62
$GNGRS,041456.00,1,-4.0,-0.2,-2.3,-1.1,-4.5,2.4,-14.4,-4.7,,,,*4D
$GNGRS,041456.00,1,1.4,0.5,-2.6,-3.0,-1.2,,,,,,,*55
$GNGST,041456.00,47,,,,3.4,3.7,5.8*46
$GNZDA,041456.00,21,05,2025,00,00*79
$GNGBS,041456.00,3.4,3.7,5.8,,,,*53
$GNTXT,01,01,01,More than 100 frame errors, UART RX was disabled*70
b0@8\-d+[QpR#3g"]!;#{4$V^:R 
Y\EF
I#.O P 5TST45ULb8\O:
$GNRMC,041457.00,A,0419.78103,S,05539.89430,E,0.041,,210525,,,A*79
$GNVTG,,T,,M,0.041,N,0.076,K,A*39
$GNGNS,041457.00,0419.78103,S,05539.89430,E,AA,13,1.04,18.1,-47.6,,*6C
$GNGGA,041457.00,0419.78103,S,05539.89430,E,1,12,1.04,18.1,M,-47.6,M,,*47
$GNGSA,A,3,24,20,11,05,22,06,12,14,,,,,1.69,1.04,1.33*17
