$GNRMC,132148.00,A,0419.75257,S,05539.70795,E,0.088,,200525,,,A*76
$GNVTG,,T,,M,0.088,N,0.162,K,A*38
$GNGGA,132148.00,0419.75257,S,05539.70795,E,1,12,0.71,18.5,M,-47.6,M,,*4B
$GNGSA,A,3,32,18,10,28,26,27,08,04,,,,,1.46,0.71,1.27*13
$GNGSA,A,3,85,72,75,86,65,87,66,,,,,,1.46,0.71,1.27*15
$GPGSV,5,1,17,02,04,332,29,04,08,227,14,08,24,301,25,10,13,025,29*7E
$GPGSV,5,2,17,16,24,215,,18,28,115,10,23,01,063,,26,29,185,23*7F
$GPGSV,5,3,17,27,55,270,33,28,60,106,29,31,54,166,21,32,33,007,23*7F
$GPGSV,5,4,17,36,52,277,35,40,84,353,31,41,58,082,,49,32,274,*78
$GPGSV,5,5,17,50,10,089,*4A
$GLGSV,3,1,09,65,28,275,29,66,06,232,10,72,26,339,22,74,14,108,09*66
$GLGSV,3,2,09,75,21,160,19,76,03,213,10,85,38,140,27,86,67,028,33*63
$GLGSV,3,3,09,87,26,348,20*5A
$GNGLL,0419.75257,S,05539.70795,E,132148.00,A,A*6F
$GNRMC,132149.00,A,0419.75255,S,05539.70796,E,0.078,,200525,,,A*79
$GNVTG,,T,,M,0.078,N,0.144,K,A*33
$GNGGA,132149.00,0419.75255,S,05539.70796,E,1,12,0.71,18.5,M,-47.6,M,,*4B
$GNGSA,A,3,32,18,10,28,26,27,08,04,,,,,1.46,0.71,1.27*13
$GNGSA,A,3,85,72,75,86,65,87,,,,,,,1.46,0.71,1.27*15
$GPGSV,5,1,17,02,04,332,22,04,08,227,10,08,24,301,23,10,13,025,21*7F
$GPGSV,5,2,17,16,24,215,,18,28,115,13,23,01,063,,26,29,185,20*7F
$GPGSV,5,3,17,27,55,270,36,28,60,105,32,31,54,166,,32,33,007,21*72
$GPGSV,5,4,17,36,52,277,39,40,84,353,36,41,58,082,,49,32,274,*73
$GPGSV,5,5,17,50,10,089,*4A
$GLGSV,3,1,09,65,28,275,28,66,06,232,06,72,26,339,19,74,14,108,09*68
$GLGSV,3,2,09,75,21,160,18,76,03,213,09,85,38,140,25,86,67,028,29*63
$GLGSV,3,3,09,87,26,348,18*51
$GNGLL,0419.75255,S,05539.70796,E,132149.00,A,A*6F
$GNRMC,132150.00,A,0419.75257,S,05539.70787,E,0.115,,200525,,,A*79
$GNVTG,,T,,M,0.115,N,0.213,K,A*38
$GNGGA,132150.00,0419.75257,S,05539.70787,E,1,12,0.74,18.2,M,-47.6,M,,*43
$GNGSA,A,3,32,18,10,28,26,27,08,04,,,,,1.58,0.74,1.40*18
$GNGSA,A,3,85,72,75,86,65,87,,,,,,,1.58,0.74,1.40*1E
$GPGSV,5,1,17,02,04,332,22,04,08,227,08,08,24,301,21,10,13,025,23*76
$GPGSV,5,2,17,16,24,215,,18,28,115,09,23,01,063,,26,29,185,20*74
$GPGSV,5,3,17,27,55,270,35,28,60,105,32,31,54,166,18,32,33,007,20*79
$GPGSV,5,4,17,36,52,277,38,40,84,353,35,41,58,082,,49,32,274,*71
$GPGSV,5,5,17,50,10,089,*4A
$GLGSV,3,1,09,65,28,275,34,66,06,232,06,72,26,339,17,74,14,108,07*65
$GLGSV,3,2,09,75,21,160,17,76,03,213,08,85,38,140,25,86,67,028,36*63
$GLGSV,3,3,09,87,26,348,17*5E
$GNGLL,0419.75257,S,05539.70787,E,132150.00,A,A*65
$GNRMC,132151.00,A,0419.75254,S,05539.70788,E,0.081,,200525,,,D*7D
$GNVTG,,T,,M,0.081,N,0.150,K,D*35
$GNGGA,132151.00,0419.75254,S,05539.70788,E,2,12,0.68,17.8,M,-47.6,M,,0000*45
$GNGSA,A,3,32,18,10,28,26,27,08,04,,,,,1.41,0.68,1.23*18
$GNGSA,A,3,85,72,75,86,65,87,66,,,,,,1.41,0.68,1.23*1E
$GPGSV,5,1,17,02,04,332,25,04,08,227,13,08,24,301,22,10,13,025,25*7E
$GPGSV,5,2,17,16,24,215,,18,28,115,17,23,01,063,,26,29,185,21*7A
$GPGSV,5,3,17,27,55,270,37,28,60,105,32,31,54,166,21,32,33,007,20*71
$GPGSV,5,4,17,36,52,277,40,40,84,353,37,41,58,082,,49,32,274,*7C
$GPGSV,5,5,17,50,10,089,*4A
$GLGSV,3,1,09,65,28,275,33,66,06,232,13,72,26,339,19,74,14,108,09*66
$GLGSV,3,2,09,75,21,160,17,76,03,213,09,85,38,140,27,86,67,028,35*63
$GLGSV,3,3,09,87,26,348,20*5A
$GNGLL,0419.75254,S,05539.70788,E,132151.00,A,D*6D
$GNRMC,132152.00,A,0419.75250,S,05539.70790,E,0.085,,200525,,,D*77
$GNVTG,,T,,M,0.085,N,0.157,K,D*36
$GNGGA,132152.00,0419.75250,S,05539.70790,E,2,12,0.74,17.6,M,-47.6,M,,0000*48
$GNGSA,A,3,32,18,10,28,26,27,08,04,,,,,1.58,0.74,1.40*18
$GNGSA,A,3,85,72,75,86,65,87,66,,,,,,1.58,0.74,1.40*1E
$GPGSV,5,1,17,02,04,332,25,04,08,227,08,08,24,301,24,10,13,025,27*70
$GPGSV,5,2,17,16,24,215,,18,28,115,17,23,01,063,,26,29,185,20*7B
$GPGSV,5,3,17,27,55,270,36,28,60,105,33,31,55,165,22,32,33,007,19*7A
$GPGSV,5,4,17,36,52,277,40,40,84,353,33,41,58,082,,49,32,274,*78
$GPGSV,5,5,17,50,10,089,*4A
$GLGSV,3,1,09,65,28,275,32,66,06,232,15,72,26,339,21,74,14,108,08*6B
$GLGSV,3,2,09,75,21,160,16,76,03,213,13,85,38,140,28,86,67,028,33*60
$GLGSV,3,3,09,87,26,348,20*5A
$GNGLL,0419.75250,S,05539.70790,E,132152.00,A,D*63
$GNRMC,132153.00,A,0419.75249,S,05539.70790,E,0.068,,200525,,,D*7D
$GNVTG,,T,,M,0.068,N,0.125,K,D*30
$GNGGA,132153.00,0419.75249,S,05539.70790,E,2,12,0.65,17.5,M,-47.6,M,,0000*42
$GNGSA,A,3,32,18,10,28,26,27,31,08,04,,,,1.29,0.65,1.11*18
$GNGSA,A,3,85,72,75,86,65,87,66,,,,,,1.29,0.65,1.11*1C
$GPGSV,5,1,17,02,04,332,24,04,08,227,12,08,24,301,23,10,13,025,27*7D
$GPGSV,5,2,17,16,24,215,18,18,28,115,18,23,01,063,,26,29,185,21*7C
$GPGSV,5,3,17,27,55,270,35,28,60,105,33,31,55,165,22,32,33,008,22*7E
$GPGSV,5,4,17,36,52,277,37,40,84,353,27,41,58,082,,49,32,274,*7D
$GPGSV,5,5,17,50,10,089,*4A
$GLGSV,3,1,09,65,28,275,32,66,06,232,16,72,26,339,21,74,14,108,09*69
$GLGSV,3,2,09,75,21,160,17,76,03,213,10,85,38,140,28,86,67,028,26*66
$GLGSV,3,3,09,87,26,348,19*50
$GNGLL,0419.75249,S,05539.70790,E,132153.00,A,D*6A
$GNRMC,132154.00,A,0419.75255,S,05539.70788,E,0.289,,200525,,,D*73
$GNVTG,,T,,M,0.289,N,0.535,K,D*38
$GNGGA,132154.00,0419.75255,S,05539.70788,E,2,12,0.67,17.3,M,-47.6,M,,0000*45
$GNGSA,A,3,32,18,10,28,26,27,31,08,04,,,,1.34,0.67,1.16*11
$GNGSA,A,3,85,72,75,86,65,87,66,,,,,,1.34,0.67,1.16*15
$GPGSV,5,1,17,02,04,332,25,04,08,227,10,08,24,301,23,10,13,025,25*7C
$GPGSV,5,2,17,16,24,215,,18,28,115,19,23,01,063,,26,29,185,19*7F
$GPGSV,5,3,17,27,55,270,35,28,60,105,35,31,55,165,23,32,33,008,21*7A
$GPGSV,5,4,17,36,52,277,39,40,84,353,33,41,58,082,,49,32,274,*76
$GPGSV,5,5,17,50,10,089,*4A
$GLGSV,3,1,09,65,28,275,32,66,06,232,10,72,26,339,21,74,14,108,10*67
$GLGSV,3,2,09,75,21,160,16,76,03,213,08,85,38,140,27,86,67,028,25*62
$GLGSV,3,3,09,87,26,348,22*58
$GNGLL,0419.75255,S,05539.70788,E,132154.00,A,D*69
$GNRMC,132155.00,A,0419.75256,S,05539.70792,E,0.266,,200525,,,D*7B
$GNVTG,,T,,M,0.266,N,0.493,K,D*34
$GNGGA,132155.00,0419.75256,S,05539.70792,E,2,12,0.75,17.2,M,-47.6,M,,0000*4E
$GNGSA,A,3,32,18,10,26,27,31,08,04,,,,,1.64,0.75,1.46*18
$GNGSA,A,3,85,72,75,86,65,87,66,,,,,,1.64,0.75,1.46*16
$GPGSV,5,1,17,02,04,332,22,04,08,227,09,08,24,301,29,10,13,025,32*7F
$GPGSV,5,2,17,16,24,215,17,18,28,115,19,23,01,063,,26,29,185,17*77
$GPGSV,5,3,17,27,55,270,35,28,60,105,06,31,55,165,24,32,33,008,34*79
$GPGSV,5,4,17,36,52,277,36,40,84,353,28,41,58,082,,49,32,274,*73
$GPGSV,5,5,17,50,10,089,*4A
$GLGSV,3,1,09,65,28,275,31,66,06,232,11,72,26,339,20,74,14,108,08*6D
$GLGSV,3,2,09,75,21,160,14,76,03,213,13,85,38,140,25,86,67,028,27*6A
$GLGSV,3,3,09,87,26,348,22*58
$GNGLL,0419.75256,S,05539.70792,E,132155.00,A,D*60
$GNRMC,132156.00,A,0419.75253,S,05539.70796,E,0.071,,200525,,,D*7D
$GNVTG,,T,,M,0.071,N,0.132,K,D*3E
$GNGGA,132156.00,0419.75253,S,05539.70796,E,2,12,0.71,17.1,M,-47.6,M,,0000*4B
$GNGSA,A,3,32,18,10,26,27,31,08,04,,,,,1.47,0.71,1.28*15
$GNGSA,A,3,85,72,86,65,87,66,,,,,,,1.47,0.71,1.28*19
$GPGSV,5,1,17,02,04,332,20,04,08,227,10,08,24,301,28,10,13,025,36*70
$GPGSV,5,2,17,16,24,215,18,18,28,115,17,23,01,063,,26,29,185,15*74
$GPGSV,5,3,17,27,55,270,36,28,60,105,09,31,55,165,27,32,33,008,37*75
$GPGSV,5,4,17,36,52,277,36,40,84,353,27,41,58,082,,49,32,274,*7C
$GPGSV,5,5,17,50,10,089,*4A
$GLGSV,3,1,09,65,28,275,31,66,06,232,10,72,26,339,18,74,14,108,07*68
$GLGSV,3,2,09,75,21,160,11,76,03,213,10,85,38,140,23,86,67,028,26*6B
$GLGSV,3,3,09,87,26,348,19*50
$GNGLL,0419.75253,S,05539.70796,E,132156.00,A,D*62
$GNRMC,132157.00,A,0419.75252,S,05539.70804,E,0.029,,200525,,,D*74
$GNVTG,,T,,M,0.029,N,0.053,K,D*35
$GNGGA,132157.00,0419.75252,S,05539.70804,E,2,12,0.74,17.0,M,-47.6,M,,0000*4B
$GNGSA,A,3,32,18,10,28,26,27,31,08,04,,,,1.52,0.74,1.33*14
$GNGSA,A,3,85,72,75,86,65,87,66,,,,,,1.52,0.74,1.33*10
$GPGSV,5,1,17,02,04,332,20,04,08,227,08,08,24,301,32,10,13,025,33*77
$GPGSV,5,2,17,16,24,215,18,18,28,115,16,23,01,063,,26,29,185,12*72
$GPGSV,5,3,17,27,55,270,38,28,60,105,14,31,55,165,27,32,33,008,35*75
$GPGSV,5,4,17,36,52,277,38,40,84,353,27,41,58,082,,49,32,274,*72
$GPGSV,5,5,17,50,10,089,*4A
$GLGSV,3,1,09,65,28,275,32,66,06,232,08,72,26,339,18,74,14,108,09*6C
$GLGSV,3,2,09,75,21,160,11,76,03,213,11,85,38,140,22,86,67,028,26*6B
$GLGSV,3,3,09,87,26,348,18*51
$GNGLL,0419.75252,S,05539.70804,E,132157.00,A,D*66
$GNRMC,132158.00,A,0419.75247,S,05539.70807,E,0.062,,200525,,,D*73
$GNVTG,,T,,M,0.062,N,0.115,K,D*39
$GNGGA,132158.00,0419.75247,S,05539.70807,E,2,12,0.74,16.9,M,-47.6,M,,0000*4B
$GNGSA,A,3,32,18,10,28,26,27,31,08,04,,,,1.52,0.74,1.33*14
$GNGSA,A,3,85,72,75,86,65,87,66,,,,,,1.52,0.74,1.33*10
$GPGSV,5,1,17,02,04,332,21,04,08,227,10,08,24,301,30,10,13,025,30*7E
$GPGSV,5,2,17,16,24,215,16,18,28,115,19,23,01,063,,26,29,185,16*77
$GPGSV,5,3,17,27,55,270,37,28,60,105,26,31,55,165,27,32,33,008,32*7C
$GPGSV,5,4,17,36,52,277,36,40,84,353,,41,58,082,,49,32,274,*79
$GPGSV,5,5,17,50,10,089,*4A
$GLGSV,3,1,09,65,28,275,32,66,06,232,10,72,26,339,18,74,14,108,06*6A
$GLGSV,3,2,09,75,21,160,08,76,03,213,06,85,38,140,24,86,67,028,25*60
$GLGSV,3,3,09,87,26,348,22*58
$GNGLL,0419.75247,S,05539.70807,E,132158.00,A,D*6E
$GNRMC,132159.00,A,0419.75243,S,05539.70812,E,0.110,,200525,,,D*76
$GNVTG,,T,,M,0.110,N,0.204,K,D*3E
$GNGGA,132159.00,0419.75243,S,05539.70812,E,2,12,0.68,16.9,M,-47.6,M,,0000*47
$GNGSA,A,3,32,18,10,28,26,16,27,31,08,04,,,1.38,0.68,1.21*11
$GNGSA,A,3,85,72,75,86,65,87,66,,,,,,1.38,0.68,1.21*12
$GPGSV,5,1,17,02,04,332,25,04,08,227,11,08,24,301,31,10,13,025,30*7A
$GPGSV,5,2,17,16,24,215,16,18,28,115,20,23,01,063,,26,29,185,10*7B
$GPGSV,5,3,17,27,55,270,37,28,60,105,27,31,55,165,28,32,33,008,33*73
$GPGSV,5,4,17,36,52,277,37,40,84,353,,41,58,082,,49,32,274,*78
$GPGSV,5,5,17,50,10,089,*4A
$GLGSV,3,1,09,65,28,275,32,66,06,232,09,72,26,339,17,74,14,108,08*63
$GLGSV,3,2,09,75,21,160,12,76,03,213,07,85,38,140,25,86,67,028,23*6D
$GLGSV,3,3,09,87,26,348,24*5E
$GNGLL,0419.75243,S,05539.70812,E,132159.00,A,D*6F
$GNRMC,132200.00,A,0419.75236,S,05539.70810,E,0.113,,200525,,,D*7A
$GNVTG,,T,,M,0.113,N,0.210,K,D*38
$GNGGA,132200.00,0419.75236,S,05539.70810,E,2,12,0.68,16.8,M,-47.6,M,,0000*49
$GNGSA,A,3,32,18,10,28,26,16,27,31,08,04,,,1.46,0.68,1.29*10
$GNGSA,A,3,85,72,75,86,65,87,66,,,,,,1.46,0.68,1.29*13
$GPGSV,5,1,17,02,04,332,26,04,08,227,11,08,24,301,31,10,13,025,30*79
$GPGSV,5,2,17,16,24,215,17,18,28,115,20,23,01,063,,26,29,185,13*79
$GPGSV,5,3,17,27,55,270,37,28,60,105,26,31,55,165,29,32,33,008,33*73
$GPGSV,5,4,17,36,52,277,39,40,84,353,,41,58,082,,49,32,274,*76
$GPGSV,5,5,17,50,10,089,*4A
$GLGSV,3,1,09,65,28,275,33,66,06,232,10,72,26,339,14,74,14,108,08*69
$GLGSV,3,2,09,75,21,160,09,76,03,213,10,85,38,140,26,86,67,028,21*60
$GLGSV,3,3,09,87,26,348,25*5F
$GNGLL,0419.75236,S,05539.70810,E,132200.00,A,D*60
$GNRMC,132201.00,A,0419.75229,S,05539.70806,E,0.068,,200525,,,D*7F
$GNVTG,,T,,M,0.068,N,0.125,K,D*30
$GNGGA,132201.00,0419.75229,S,05539.70806,E,2,12,0.68,16.5,M,-47.6,M,,0000*4C
$GNGSA,A,3,32,18,10,28,26,16,27,31,08,04,,,1.46,0.68,1.29*10
$GNGSA,A,3,85,72,75,86,65,87,66,,,,,,1.46,0.68,1.29*13
$GPGSV,5,1,17,02,04,332,26,04,08,227,09,08,24,301,31,10,13,025,29*78
$GPGSV,5,2,17,16,24,215,16,18,28,115,19,23,01,063,,26,29,185,16*77
$GPGSV,5,3,17,27,55,270,37,28,60,105,24,31,55,165,28,32,33,008,33*70
$GPGSV,5,4,17,36,52,277,37,40,84,353,,41,58,082,,49,32,274,*78
$GPGSV,5,5,17,50,10,089,*4A
$GLGSV,3,1,09,65,28,275,33,66,06,232,13,72,26,339,14,74,14,108,09*6B
$GLGSV,3,2,09,75,21,160,12,76,03,213,09,85,38,140,25,86,67,028,18*6B
$GLGSV,3,3,09,87,26,348,25*5F
$GNGLL,0419.75229,S,05539.70806,E,132201.00,A,D*68
$GNRMC,132202.00,A,0419.75220,S,05539.70804,E,0.148,,200525,,,D*74
$GNVTG,,T,,M,0.148,N,0.273,K,D*33
$GNGGA,132202.00,0419.75220,S,05539.70804,E,2,12,0.73,16.3,M,-47.6,M,,0000*48
$GNGSA,A,3,32,18,10,28,26,16,27,31,08,04,,,1.57,0.73,1.39*1B
$GNGSA,A,3,85,72,75,86,65,87,66,,,,,,1.57,0.73,1.39*18
$GPGSV,5,1,17,02,04,332,27,04,08,227,10,08,24,301,30,10,13,025,29*70
$GPGSV,5,2,17,16,24,215,15,18,28,115,16,23,01,063,,26,29,185,11*7C
$GPGSV,5,3,17,27,55,270,37,28,60,105,24,31,55,165,28,32,33,008,33*70
$GPGSV,5,4,17,36,52,277,38,40,84,353,,41,58,082,,49,32,274,*77
$GPGSV,5,5,17,50,10,089,*4A
$GLGSV,3,1,09,65,28,275,32,66,06,232,08,72,26,339,11,74,14,108,08*64
$GLGSV,3,2,09,75,21,160,13,76,03,213,09,85,38,140,24,86,67,028,16*65
$GLGSV,3,3,09,87,26,348,24*5E
$GNGLL,0419.75220,S,05539.70804,E,132202.00,A,D*60
$GNRMC,132203.00,A,0419.75216,S,05539.70803,E,0.032,,200525,,,D*7B
$GNVTG,,T,,M,0.032,N,0.058,K,D*34
$GNGGA,132203.00,0419.75216,S,05539.70803,E,2,12,0.68,16.1,M,-47.6,M,,0000*43
$GNGSA,A,3,32,18,10,28,26,16,27,31,08,04,,,1.46,0.68,1.29*10
$GNGSA,A,3,85,72,75,86,65,87,66,,,,,,1.46,0.68,1.29*13
$GPGSV,5,1,17,02,04,332,27,04,08,227,10,08,24,301,29,10,13,025,30*70
$GPGSV,5,2,17,16,24,215,18,18,28,115,13,23,01,063,,26,29,185,09*7D
$GPGSV,5,3,17,27,55,270,35,28,60,105,27,31,55,165,27,32,33,008,33*7E
$GPGSV,5,4,17,36,52,277,37,40,84,353,,41,58,082,,49,32,274,*78
$GPGSV,5,5,17,50,10,089,*4A
$GLGSV,3,1,09,65,28,275,33,66,06,232,13,72,26,339,19,74,14,108,11*6F
$GLGSV,3,2,09,75,21,160,14,76,03,213,09,85,38,140,24,86,67,028,16*62
$GLGSV,3,3,09,87,26,348,24*5E
$GNGLL,0419.75216,S,05539.70803,E,132203.00,A,D*63
$GNRMC,132204.00,A,0419.75209,S,05539.70801,E,0.073,,200525,,,D*75
$GNVTG,,T,,M,0.073,N,0.136,K,D*38
$GNGGA,132204.00,0419.75209,S,05539.70801,E,2,12,0.68,15.9,M,-47.6,M,,0000*43
$GNGSA,A,3,32,18,10,28,26,16,27,31,08,04,,,1.46,0.68,1.29*10
$GNGSA,A,3,85,72,75,86,65,87,66,,,,,,1.46,0.68,1.29*13
$GPGSV,5,1,17,02,04,332,27,04,08,227,09,08,24,301,27,10,13,025,28*7F
$GPGSV,5,2,17,16,24,215,18,18,28,115,10,23,01,063,,26,29,185,08*7F
$GPGSV,5,3,17,27,55,270,32,28,60,105,27,31,55,165,26,32,33,008,30*7B
$GPGSV,5,4,17,36,52,277,35,40,84,353,,41,58,082,,49,32,274,*7A
$GPGSV,5,5,17,50,10,089,*4A
$GLGSV,3,1,09,65,28,275,33,66,06,232,11,72,26,339,14,74,14,108,09*69
$GLGSV,3,2,09,75,21,160,11,76,03,213,07,85,38,140,23,86,67,028,17*6F
$GLGSV,3,3,09,87,26,348,23*59
$GNGLL,0419.75209,S,05539.70801,E,132204.00,A,D*68
$GNRMC,132205.00,A,0419.75199,S,05539.70797,E,0.058,,200525,,,D*77
$GNVTG,,T,,M,0.058,N,0.108,K,D*3C
$GNGGA,132205.00,0419.75199,S,05539.70797,E,2,12,0.75,15.9,M,-47.6,M,,0000*44
$GNGSA,A,3,32,18,10,28,26,16,27,31,08,,,,1.62,0.75,1.43*12
$GNGSA,A,3,85,72,75,86,65,87,66,,,,,,1.62,0.75,1.43*15
$GPGSV,5,1,17,02,04,332,26,04,08,227,05,08,24,301,28,10,13,025,28*7D
$GPGSV,5,2,17,16,24,215,16,18,28,115,09,23,01,063,,26,29,185,09*78
$GPGSV,5,3,17,27,55,270,36,28,60,105,26,31,55,165,26,32,33,008,35*7B
$GPGSV,5,4,17,36,52,277,38,40,84,353,,41,58,082,,49,32,274,*77
$GPGSV,5,5,17,50,10,089,*4A
$GLGSV,3,1,09,65,28,275,33,66,06,232,17,72,26,339,11,74,14,108,09*6A
$GLGSV,3,2,09,75,21,160,12,76,03,213,12,85,38,140,24,86,67,028,16*6E
$GLGSV,3,3,09,87,26,348,24*5E
$GNGLL,0419.75199,S,05539.70797,E,132205.00,A,D*63
$GNRMC,132206.00,A,0419.75194,S,05539.70792,E,0.069,,200525,,,D*7E
$GNVTG,,T,,M,0.069,N,0.129,K,D*3D
$GNGGA,132206.00,0419.75194,S,05539.70792,E,2,12,0.68,15.7,M,-47.6,M,,0000*4D
$GNGSA,A,3,32,18,10,28,26,16,27,31,08,04,,,1.46,0.68,1.29*10
$GNGSA,A,3,85,72,75,86,65,87,66,,,,,,1.46,0.68,1.29*13
$GPGSV,5,1,17,02,04,332,27,04,08,227,08,08,24,301,28,10,13,025,34*7C
$GPGSV,5,2,17,16,24,215,17,18,28,115,10,23,01,063,,26,29,185,12*7B
$GPGSV,5,3,17,27,55,270,36,28,60,105,25,31,55,165,27,32,33,008,34*78
$GPGSV,5,4,17,36,52,277,38,40,84,353,,41,58,082,,49,32,274,*77
$GPGSV,5,5,17,50,10,089,*4A
$GLGSV,3,1,09,65,28,275,33,66,06,232,11,72,26,339,11,74,14,108,10*64
$GLGSV,3,2,09,75,21,160,10,76,03,213,09,85,38,140,25,86,67,028,17*66
$GLGSV,3,3,09,87,26,348,26*5C
$GNGLL,0419.75194,S,05539.70792,E,132206.00,A,D*68
$GNRMC,132207.00,A,0419.75185,S,05539.70787,E,0.078,,200525,,,D*7B
$GNVTG,,T,,M,0.078,N,0.144,K,D*36
$GNGGA,132207.00,0419.75185,S,05539.70787,E,2,12,0.67,15.5,M,-47.6,M,,0000*45
$GNGSA,A,3,32,18,10,28,26,27,31,08,04,,,,1.34,0.67,1.16*11
$GNGSA,A,3,85,72,75,86,65,87,66,,,,,,1.34,0.67,1.16*15
$GPGSV,5,1,17,02,04,332,31,04,08,227,10,08,24,301,30,10,13,025,30*7F
$GPGSV,5,2,17,16,24,215,21,18,28,115,20,23,01,063,,26,29,185,16*79
$GPGSV,5,3,17,27,55,270,37,28,60,105,25,31,55,165,28,32,33,008,34*76
$GPGSV,5,4,17,36,52,277,39,40,84,353,,41,58,082,,49,32,274,*76
$GPGSV,5,5,17,50,10,089,*4A
$GLGSV,3,1,09,65,28,275,34,66,06,232,12,72,26,339,13,74,14,108,08*6B
$GLGSV,3,2,09,75,21,160,09,76,03,213,13,85,38,140,26,86,67,028,18*69
$GLGSV,3,3,09,87,26,348,24*5E
$GNGLL,0419.75185,S,05539.70787,E,132207.00,A,D*6D
$GNRMC,132208.00,A,0419.75183,S,05539.70786,E,0.041,,200525,,,D*79
$GNVTG,,T,,M,0.041,N,0.075,K,D*3F
$GNGGA,132208.00,0419.75183,S,05539.70786,E,2,12,0.70,15.5,M,-47.6,M,,0000*4B
$GNGSA,A,3,32,18,10,28,26,27,31,08,04,,,,1.42,0.70,1.24*17
$GNGSA,A,3,85,72,75,86,65,87,66,,,,,,1.42,0.70,1.24*13
$GPGSV,5,1,17,02,04,332,30,04,08,227,09,08,24,301,32,10,13,025,31*75
$GPGSV,5,2,17,16,24,215,20,18,28,115,11,23,01,063,,26,29,185,08*75
$GPGSV,5,3,17,27,55,270,37,28,60,105,22,31,55,165,29,32,33,008,34*70
$GPGSV,5,4,17,36,52,277,37,40,84,353,33,41,58,082,,49,32,274,*78
$GPGSV,5,5,17,50,10,089,*4A
$GLGSV,3,1,09,65,28,275,34,66,06,232,15,72,26,339,16,74,14,108,08*69
$GLGSV,3,2,09,75,21,160,09,76,03,213,14,85,38,140,25,86,67,028,15*60
$GLGSV,3,3,09,87,26,348,23*59
$GNGLL,0419.75183,S,05539.70786,E,132208.00,A,D*65
$GNRMC,132209.00,A,0419.75183,S,05539.70786,E,0.115,,200525,,,D*78
$GNVTG,,T,,M,0.115,N,0.213,K,D*3D
$GNGGA,132209.00,0419.75183,S,05539.70786,E,2,12,0.74,15.4,M,-47.6,M,,0000*4F
$GNGSA,A,3,32,18,10,28,26,27,31,08,04,,,,1.52,0.74,1.33*14
$GNGSA,A,3,85,72,75,86,65,87,66,,,,,,1.52,0.74,1.33*10
$GPGSV,5,1,17,02,04,332,21,04,08,227,12,08,24,301,31,10,13,025,30*7D
$GPGSV,5,2,17,16,24,215,19,18,28,115,16,23,01,063,,26,29,185,17*76
$GPGSV,5,3,17,27,55,270,38,28,60,105,30,31,55,165,29,32,33,008,27*7E
$GPGSV,5,4,17,36,52,277,39,40,84,353,30,41,58,082,,49,32,274,*75
$GPGSV,5,5,17,50,10,089,*4A
$GLGSV,3,1,09,65,28,275,34,66,06,232,10,72,26,339,14,74,14,108,08*6E
$GLGSV,3,2,09,75,21,160,13,76,03,213,09,85,38,140,25,86,67,028,14*66
$GLGSV,3,3,09,87,26,348,25*5F
$GNGLL,0419.75183,S,05539.70786,E,132209.00,A,D*64
$GNRMC,132210.00,A,0419.75177,S,05539.70788,E,0.269,,200525,,,D*7D
$GNVTG,,T,,M,0.269,N,0.497,K,D*3F
$GNGGA,132210.00,0419.75177,S,05539.70788,E,2,12,0.70,15.2,M,-47.6,M,,0000*40
$GNGSA,A,3,32,18,10,28,26,16,27,31,08,04,,,1.39,0.70,1.20*18
$GNGSA,A,3,85,72,75,86,65,87,66,,,,,,1.39,0.70,1.20*1B
$GPGSV,5,1,17,02,04,332,25,04,08,227,10,08,24,301,30,10,13,025,22*79
$GPGSV,5,2,17,16,24,215,19,18,28,115,20,23,01,063,,26,29,185,10*74
$GPGSV,5,3,17,27,55,270,38,28,60,105,30,31,55,165,29,32,33,008,26*7F
$GPGSV,5,4,17,36,52,277,39,40,84,353,31,41,58,082,,49,32,274,*74
$GPGSV,5,5,17,50,10,089,*4A
$GLGSV,3,1,09,65,28,275,33,66,06,232,14,72,26,339,15,74,14,108,08*6C
$GLGSV,3,2,09,75,21,160,12,76,03,213,10,85,38,140,24,86,67,028,20*69
$GLGSV,3,3,09,87,26,348,22*58
$GNGLL,0419.75177,S,05539.70788,E,132210.00,A,D*69
$GNRMC,132211.00,A,0419.75173,S,05539.70792,E,0.352,,200525,,,D*7A
$GNVTG,,T,,M,0.352,N,0.651,K,D*3E
$GNGGA,132211.00,0419.75173,S,05539.70792,E,2,12,0.70,15.0,M,-47.6,M,,0000*4C
$GNGSA,A,3,32,18,10,28,26,16,27,31,08,04,,,1.40,0.70,1.21*17
$GNGSA,A,3,85,72,75,86,65,87,66,,,,,,1.40,0.70,1.21*14
$GPGSV,5,1,17,02,04,332,27,04,08,227,09,08,24,301,22,10,13,025,22*70
$GPGSV,5,2,17,16,24,215,19,18,28,115,20,23,01,063,,26,29,185,11*75
$GPGSV,5,3,17,27,55,270,37,28,60,105,31,31,55,165,28,32,33,008,25*73
$GPGSV,5,4,17,36,52,277,34,40,84,353,34,41,58,082,,49,32,274,*7C
$GPGSV,5,5,17,50,10,089,*4A
$GLGSV,3,1,09,65,28,275,34,66,06,232,15,72,26,339,15,74,14,108,07*65
$GLGSV,3,2,09,75,21,160,14,76,03,213,09,85,38,140,25,86,67,028,24*62
$GLGSV,3,3,09,87,26,348,21*5B
$GNGLL,0419.75173,S,05539.70792,E,132211.00,A,D*67
$GNRMC,132212.00,A,0419.75185,S,05539.70795,E,0.444,,200525,,,D*77
$GNVTG,,T,,M,0.444,N,0.823,K,D*35
$GNGGA,132212.00,0419.75185,S,05539.70795,E,2,12,0.68,14.9,M,-47.6,M,,0000*40
$GNGSA,A,3,32,18,10,28,26,16,27,31,08,04,,,1.46,0.68,1.29*10
$GNGSA,A,3,85,72,75,86,65,87,66,,,,,,1.46,0.68,1.29*13
$GPGSV,5,1,17,02,04,332,34,04,08,227,09,08,24,301,33,10,13,025,30*71
$GPGSV,5,2,17,16,24,215,21,18,28,115,19,23,01,063,,26,29,185,19*7C
$GPGSV,5,3,17,27,55,270,35,28,60,105,30,31,55,165,26,32,33,008,31*7B
$GPGSV,5,4,17,36,52,277,29,40,84,353,28,41,58,082,,49,32,274,*7D
$GPGSV,5,5,17,50,10,089,*4A
$GLGSV,3,1,09,65,28,275,32,66,06,232,12,72,26,339,19,74,14,108,10*6E
$GLGSV,3,2,09,75,21,160,10,76,03,213,10,85,38,140,23,86,67,028,26*6A
$GLGSV,3,3,09,87,26,348,23*59
$GNGLL,0419.75185,S,05539.70795,E,132212.00,A,D*6A
$GNRMC,132213.00,A,0419.75187,S,05539.70796,E,0.129,,200525,,,D*79
$GNVTG,,T,,M,0.129,N,0.239,K,D*3A
$GNGGA,132213.00,0419.75187,S,05539.70796,E,2,12,0.68,14.4,M,-47.6,M,,0000*4D
$GNGSA,A,3,32,18,10,28,26,16,27,31,08,04,,,1.46,0.68,1.29*10
$GNGSA,A,3,85,72,75,86,65,87,66,,,,,,1.46,0.68,1.29*13
$GPGSV,5,1,17,02,04,332,30,04,08,227,08,08,24,301,24,10,13,025,30*72
$GPGSV,5,2,17,16,24,215,22,18,28,115,19,23,01,063,,26,29,185,13*75
$GPGSV,5,3,17,27,55,270,35,28,60,105,23,31,55,165,28,32,33,008,32*74
$GPGSV,5,4,17,36,52,277,36,40,84,353,28,41,58,082,,49,32,274,*73
$GPGSV,5,5,17,50,10,089,*4A
$GLGSV,3,1,09,65,28,275,32,66,06,232,09,72,26,339,18,74,14,108,11*64
$GLGSV,3,2,09,75,21,160,10,76,03,213,09,85,38,140,24,86,67,028,25*66
$GLGSV,3,3,09,87,26,348,21*5B
$GNGLL,0419.75187,S,05539.70796,E,132213.00,A,D*6A
$GNRMC,132214.00,A,0419.75175,S,05539.70795,E,0.148,,200525,,,D*77
$GNVTG,,T,,M,0.148,N,0.273,K,D*33
$GNGGA,132214.00,0419.75175,S,05539.70795,E,2,12,0.63,14.3,M,-47.6,M,,0000*48
$GNGSA,A,3,32,18,10,28,26,16,27,31,08,04,,,1.28,0.63,1.11*18
$GNGSA,A,3,85,72,75,86,65,87,66,,,,,,1.28,0.63,1.11*1B
$GPGSV,5,1,17,02,04,332,31,04,08,227,10,08,24,301,25,10,13,025,30*7B
$GPGSV,5,2,17,16,24,215,24,18,28,115,17,23,01,063,,26,29,185,14*7A
$GPGSV,5,3,17,27,55,270,35,28,60,105,25,31,55,165,28,32,33,008,34*74
$GPGSV,5,4,17,36,52,277,37,40,84,353,34,41,58,082,,49,32,274,*7F
$GPGSV,5,5,17,50,10,089,*4A
$GLGSV,3,1,09,65,27,276,33,66,06,232,11,72,26,339,18,74,14,108,07*67
$GLGSV,3,2,09,75,21,160,09,76,03,213,10,85,38,140,23,86,67,028,23*67
$GLGSV,3,3,09,87,26,348,20*5A
$GNGLL,0419.75175,S,05539.70795,E,132214.00,A,D*63
$GNRMC,132215.00,A,0419.75163,S,05539.70791,E,0.252,,200525,,,D*7D
$GNVTG,,T,,M,0.252,N,0.467,K,D*38
$GNGGA,132215.00,0419.75163,S,05539.70791,E,2,12,0.68,14.2,M,-47.6,M,,0000*40
$GNGSA,A,3,32,18,10,28,26,16,27,31,08,04,,,1.46,0.68,1.29*10
$GNGSA,A,3,85,72,75,86,65,87,66,,,,,,1.46,0.68,1.29*13
$GPGSV,5,1,17,02,04,332,32,04,08,227,13,08,24,301,29,10,13,025,32*75
$GPGSV,5,2,17,16,24,215,23,18,28,115,19,23,01,063,,26,29,185,10*77
$GPGSV,5,3,17,27,55,270,34,28,60,105,25,31,55,165,27,32,33,008,35*7B
$GPGSV,5,4,17,36,52,277,34,40,84,353,34,41,58,082,,49,32,274,*7C
$GPGSV,5,5,17,50,10,089,*4A
$GLGSV,3,1,09,65,27,276,33,66,06,232,10,72,26,339,17,74,14,108,11*6E
$GLGSV,3,2,09,75,21,160,11,76,03,213,09,85,38,140,22,86,67,028,22*66
$GLGSV,3,3,09,87,26,348,27*5D
$GNGLL,0419.75163,S,05539.70791,E,132215.00,A,D*61
$GNRMC,132216.00,A,0419.75184,S,05539.70797,E,0.458,,200525,,,D*7D
$GNVTG,,T,,M,0.458,N,0.849,K,D*34
$GNGGA,132216.00,0419.75184,S,05539.70797,E,2,12,0.68,14.0,M,-47.6,M,,0000*4E
$GNGSA,A,3,32,18,10,28,26,16,27,31,08,04,,,1.46,0.68,1.29*10
$GNGSA,A,3,85,72,75,86,65,87,66,,,,,,1.46,0.68,1.29*13
$GPGSV,5,1,17,02,04,332,27,04,08,227,10,08,24,301,30,10,13,025,35*7D
$GPGSV,5,2,17,16,24,215,21,18,28,115,19,23,01,063,,26,29,185,17*72
$GPGSV,5,3,17,27,55,270,36,28,60,105,31,31,55,165,25,32,33,008,37*7C
$GPGSV,5,4,17,36,52,277,38,40,84,353,30,41,58,082,,49,32,274,*74
$GPGSV,5,5,17,50,10,089,*4A
$GLGSV,3,1,09,65,27,276,33,66,06,232,08,72,26,339,16,74,14,108,08*6E
$GLGSV,3,2,09,75,21,160,13,76,03,213,08,85,38,140,22,86,67,028,22*65
$GLGSV,3,3,09,87,26,348,26*5C
$GNGLL,0419.75184,S,05539.70797,E,132216.00,A,D*6D
$GNRMC,132217.00,A,0419.75212,S,05539.70807,E,0.558,,200525,,,D*77
$GNVTG,,T,,M,0.558,N,1.033,K,D*31
$GNGGA,132217.00,0419.75212,S,05539.70807,E,2,12,0.68,13.4,M,-47.6,M,,0000*46
$GNGSA,A,3,32,18,10,28,26,16,27,31,08,04,,,1.40,0.68,1.23*1C
$GNGSA,A,3,85,72,75,86,65,87,66,,,,,,1.40,0.68,1.23*1F
$GPGSV,5,1,17,02,04,332,20,04,08,227,09,08,24,301,30,10,13,025,26*70
$GPGSV,5,2,17,16,24,215,19,18,28,115,18,23,01,063,,26,29,185,12*7D
$GPGSV,5,3,17,27,55,270,36,28,60,105,32,31,55,165,22,32,33,008,34*7B
$GPGSV,5,4,17,36,52,277,38,40,84,353,30,41,58,082,,49,32,274,*74
$GPGSV,5,5,17,50,10,089,*4A
$GLGSV,3,1,09,65,27,276,34,66,06,232,11,72,26,339,17,74,14,108,09*61
$GLGSV,3,2,09,75,21,160,09,76,03,213,15,85,38,140,22,86,67,028,23*63
$GLGSV,3,3,09,87,26,348,25*5F
$GNGLL,0419.75212,S,05539.70807,E,132217.00,A,D*66
$GNRMC,132218.00,A,0419.75217,S,05539.70804,E,0.113,,200525,,,D*75
$GNVTG,,T,,M,0.113,N,0.209,K,D*30
$GNGGA,132218.00,0419.75217,S,05539.70804,E,2,12,0.68,13.3,M,-47.6,M,,0000*48
$GNGSA,A,3,32,18,10,28,26,16,27,31,08,04,,,1.46,0.68,1.29*10
$GNGSA,A,3,85,72,75,86,65,87,66,,,,,,1.46,0.68,1.29*13
$GPGSV,5,1,17,02,04,332,30,04,08,227,12,08,24,301,23,10,13,025,27*78
$GPGSV,5,2,17,16,24,215,19,18,28,115,16,23,01,063,,26,29,185,12*73
$GPGSV,5,3,17,27,55,270,36,28,60,105,25,31,55,165,24,32,33,008,33*7C
$GPGSV,5,4,17,36,52,277,36,40,84,353,30,41,58,082,,49,32,274,*7A
$GPGSV,5,5,17,50,10,089,*4A
$GLGSV,3,1,09,65,27,276,34,66,06,232,11,72,26,339,15,74,14,108,06*6C
$GLGSV,3,2,09,75,21,160,12,76,03,213,10,85,38,140,22,86,67,028,22*6D
$GLGSV,3,3,09,87,26,348,25*5F
$GNGLL,0419.75217,S,05539.70804,E,132218.00,A,D*6F
$GNRMC,132219.00,A,0419.75218,S,05539.70799,E,0.158,,200525,,,D*7F
$GNVTG,,T,,M,0.158,N,0.293,K,D*3C
$GNGGA,132219.00,0419.75218,S,05539.70799,E,2,12,0.71,13.3,M,-47.6,M,,0000*45
$GNGSA,A,3,32,18,10,28,16,27,31,08,,,,,1.49,0.71,1.31*1E
$GNGSA,A,3,85,72,75,86,65,87,66,,,,,,1.49,0.71,1.31*1D
$GPGSV,5,1,17,02,04,332,29,04,08,227,07,08,24,301,22,10,13,025,27*75
$GPGSV,5,2,17,16,24,215,20,18,28,115,10,23,01,063,,26,29,185,09*75
$GPGSV,5,3,17,27,55,270,35,28,60,105,24,31,55,165,25,32,33,008,31*7D
$GPGSV,5,4,17,36,52,277,35,40,84,353,31,41,58,082,,49,32,274,*78
$GPGSV,5,5,17,50,10,089,*4A
$GLGSV,3,1,09,65,27,276,33,66,06,232,13,72,26,339,16,74,14,108,10*6D
$GLGSV,3,2,09,75,21,160,09,76,03,213,09,85,38,140,20,86,67,028,22*6D
$GLGSV,3,3,09,87,26,348,23*59
$GNGLL,0419.75218,S,05539.70799,E,132219.00,A,D*6A
$GNRMC,132220.00,A,0419.75223,S,05539.70799,E,0.190,,200525,,,D*79
$GNVTG,,T,,M,0.190,N,0.352,K,D*34
$GNGGA,132220.00,0419.75223,S,05539.70799,E,2,12,0.63,12.8,M,-47.6,M,,0000*4E
$GNGSA,A,3,32,18,10,28,26,16,27,31,08,04,,,1.28,0.63,1.11*18
$GNGSA,A,3,85,72,75,86,65,87,66,,,,,,1.28,0.63,1.11*1B
$GPGSV,5,1,17,02,04,332,32,04,08,227,11,08,24,301,21,10,13,025,28*74
$GPGSV,5,2,17,16,24,215,23,18,28,115,11,23,01,063,,26,29,185,09*77
$GPGSV,5,3,17,27,55,270,35,28,60,105,22,31,55,165,27,32,33,008,32*7A
$GPGSV,5,4,17,36,52,277,35,40,84,353,32,41,58,082,,49,32,274,*7B
$GPGSV,5,5,17,50,10,089,*4A
$GLGSV,3,1,09,65,27,276,33,66,06,232,08,72,26,339,15,74,14,108,08*6D
$GLGSV,3,2,09,75,21,160,10,76,03,213,08,85,38,140,17,86,67,028,20*62
$GLGSV,3,3,09,87,26,348,21*5B
$GNGLL,0419.75223,S,05539.70799,E,132220.00,A,D*68
$GNRMC,132221.00,A,0419.75220,S,05539.70804,E,0.198,,200525,,,D*78
$GNVTG,,T,,M,0.198,N,0.366,K,D*3B
$GNGGA,132221.00,0419.75220,S,05539.70804,E,2,12,0.65,12.6,M,-47.6,M,,0000*4F
$GNGSA,A,3,32,18,10,28,26,16,27,31,08,04,,,1.33,0.65,1.16*13
$GNGSA,A,3,85,72,75,86,65,87,66,,,,,,1.33,0.65,1.16*10
$GPGSV,5,1,17,02,04,332,34,04,08,227,10,08,24,301,23,10,13,025,28*71
$GPGSV,5,2,17,16,24,215,26,18,28,115,13,23,01,063,,26,29,185,17*7F
$GPGSV,5,3,17,27,55,270,35,28,60,105,21,31,55,165,27,32,33,008,32*79
$GPGSV,5,4,17,36,52,277,34,40,84,353,32,41,58,082,,49,32,274,*7A
$GPGSV,5,5,17,50,10,089,*4A
$GLGSV,3,1,09,65,27,276,34,66,06,232,11,72,25,339,14,74,14,108,07*6F
$GLGSV,3,2,09,75,21,160,12,76,03,213,10,85,38,140,14,86,67,028,20*6A
$GLGSV,3,3,09,87,26,348,17*5E
$GNGLL,0419.75220,S,05539.70804,E,132221.00,A,D*61
$GNRMC,132222.00,A,0419.75215,S,05539.70808,E,0.212,,200525,,,D*70
$GNVTG,,T,,M,0.212,N,0.393,K,D*30
$GNGGA,132222.00,0419.75215,S,05539.70808,E,2,12,0.65,12.8,M,-47.6,M,,0000*48
$GNGSA,A,3,32,18,10,28,26,16,27,31,08,04,,,1.33,0.65,1.16*13
$GNGSA,A,3,85,72,75,86,65,87,66,,,,,,1.33,0.65,1.16*10
$GPGSV,5,1,17,02,04,332,34,04,08,227,08,08,24,301,25,10,13,025,30*77
$GPGSV,5,2,17,16,24,215,27,18,28,115,17,23,01,063,,26,29,185,17*7A
$GPGSV,5,3,17,27,55,270,34,28,60,105,21,31,55,165,25,32,33,008,32*7A
$GPGSV,5,4,17,36,52,277,33,40,84,353,34,41,58,082,,49,32,274,*7B
$GPGSV,5,5,17,50,10,089,*4A
$GLGSV,3,1,09,65,27,276,34,66,06,232,10,72,25,339,16,74,14,108,09*62
$GLGSV,3,2,09,75,21,160,12,76,03,213,11,85,38,140,14,86,67,028,21*6A
$GLGSV,3,3,09,87,26,348,13*5A
$GNGLL,0419.75215,S,05539.70808,E,132222.00,A,D*68
$GNRMC,132223.00,A,0419.75221,S,05539.70814,E,0.215,,200525,,,D*7C
$GNVTG,,T,,M,0.215,N,0.399,K,D*3D
$GNGGA,132223.00,0419.75221,S,05539.70814,E,2,12,0.66,12.9,M,-47.6,M,,0000*41
$GNGSA,A,3,32,18,10,28,26,16,27,31,08,04,,,1.34,0.66,1.16*17
$GNGSA,A,3,85,72,75,86,65,66,,,,,,,1.34,0.66,1.16*1B
$GPGSV,5,1,17,02,04,332,35,04,08,227,09,08,24,301,26,10,13,025,30*74
$GPGSV,5,2,17,16,24,215,28,18,28,115,20,23,01,063,,26,29,185,14*72
$GPGSV,5,3,17,27,55,270,32,28,60,105,21,31,55,165,23,32,33,008,33*7B
$GPGSV,5,4,17,36,52,277,32,40,84,353,33,41,58,082,,49,32,274,*7D
$GPGSV,5,5,17,50,10,089,*4A
$GLGSV,3,1,09,65,27,276,33,66,06,232,12,72,25,339,20,74,14,108,11*6B
$GLGSV,3,2,09,75,21,160,18,76,03,213,07,85,38,140,13,86,67,028,23*62
$GLGSV,3,3,09,87,26,348,08*50
$GNGLL,0419.75221,S,05539.70814,E,132223.00,A,D*63
$GNRMC,132224.00,A,0419.75227,S,05539.70822,E,0.171,,200525,,,D*79
$GNVTG,,T,,M,0.171,N,0.317,K,D*3A
$GNGGA,132224.00,0419.75227,S,05539.70822,E,2,12,0.65,12.8,M,-47.6,M,,0000*47
$GNGSA,A,3,32,18,10,28,26,16,27,31,08,04,,,1.33,0.65,1.16*13
$GNGSA,A,3,85,72,75,86,65,87,66,,,,,,1.33,0.65,1.16*10
$GPGSV,5,1,17,02,04,332,35,04,08,227,14,08,24,301,25,10,13,025,29*73
$GPGSV,5,2,17,16,24,215,28,18,28,115,22,23,01,063,,26,29,185,14*70
$GPGSV,5,3,17,27,55,270,32,28,60,105,22,31,55,165,22,32,33,008,33*79
$GPGSV,5,4,17,36,52,277,33,40,84,353,34,41,58,082,,49,32,274,*7B
$GPGSV,5,5,17,50,10,089,*4A
$GLGSV,3,1,09,65,27,276,32,66,06,232,11,72,25,339,21,74,14,108,10*69
$GLGSV,3,2,09,75,21,159,12,76,03,213,08,85,38,140,16,86,67,028,24*6F
$GLGSV,3,3,09,87,26,348,11*58
$GNGLL,0419.75227,S,05539.70822,E,132224.00,A,D*67
$GNRMC,132225.00,A,0419.75226,S,05539.70824,E,0.124,,200525,,,D*7F
$GNVTG,,T,,M,0.124,N,0.230,K,D*3E
$GNGGA,132225.00,0419.75226,S,05539.70824,E,2,12,0.65,12.8,M,-47.6,M,,0000*41
$GNGSA,A,3,32,18,10,28,26,16,27,31,08,04,,,1.33,0.65,1.16*13
$GNGSA,A,3,85,72,75,86,65,87,66,,,,,,1.33,0.65,1.16*10
$GPGSV,5,1,17,02,04,332,35,04,08,227,10,08,24,301,25,10,13,025,20*7E
$GPGSV,5,2,17,16,24,215,29,18,28,115,20,23,01,063,,26,29,185,14*73
$GPGSV,5,3,17,27,55,270,32,28,60,105,21,31,55,165,22,32,33,008,32*7B
$GPGSV,5,4,17,36,52,277,33,40,84,353,34,41,58,082,,49,32,274,*7B
$GPGSV,5,5,17,50,10,089,*4A
$GLGSV,3,1,09,65,27,276,32,66,06,232,13,72,25,339,20,74,14,108,09*62
$GLGSV,3,2,09,75,21,159,12,76,03,212,10,85,38,140,16,86,67,028,23*60
$GLGSV,3,3,09,87,26,348,10*59
$GNGLL,0419.75226,S,05539.70824,E,132225.00,A,D*61
$GNRMC,132226.00,A,0419.75219,S,05539.70822,E,0.264,,200525,,,D*71
$GNVTG,,T,,M,0.264,N,0.489,K,D*3D
$GNGGA,132226.00,0419.75219,S,05539.70822,E,2,12,0.65,12.9,M,-47.6,M,,0000*49
$GNGSA,A,3,32,18,10,28,26,16,27,31,08,04,,,1.29,0.65,1.11*1F
$GNGSA,A,3,85,72,75,86,65,87,66,,,,,,1.29,0.65,1.11*1C
$GPGSV,5,1,17,02,04,332,34,04,08,227,08,08,24,301,25,10,13,025,24*72
$GPGSV,5,2,17,16,24,215,29,18,28,115,18,23,01,063,,26,29,185,15*79
$GPGSV,5,3,17,27,55,270,33,28,60,105,23,31,55,165,25,32,33,008,32*7F
$GPGSV,5,4,17,36,52,277,34,40,84,353,34,41,58,082,,49,32,274,*7C
$GPGSV,5,5,17,50,10,089,*4A
$GLGSV,3,1,09,65,27,276,33,66,06,232,14,72,25,339,19,74,14,108,10*66
$GLGSV,3,2,09,75,21,159,13,76,03,212,08,85,38,140,18,86,67,028,23*66
$GLGSV,3,3,09,87,26,348,11*58
$GNGLL,0419.75219,S,05539.70822,E,132226.00,A,D*68
$GNRMC,132227.00,A,0419.75217,S,05539.70825,E,0.152,,200525,,,D*7F
$GNVTG,,T,,M,0.152,N,0.282,K,D*36
$GNGGA,132227.00,0419.75217,S,05539.70825,E,2,12,0.68,12.9,M,-47.6,M,,0000*4C
$GNGSA,A,3,32,18,10,28,26,16,27,31,08,04,,,1.46,0.68,1.29*10
$GNGSA,A,3,85,72,75,86,65,87,66,,,,,,1.46,0.68,1.29*13
$GPGSV,5,1,17,02,04,332,33,04,08,227,11,08,24,301,25,10,13,025,25*7C
$GPGSV,5,2,17,16,24,215,29,18,28,115,18,23,01,063,,26,29,185,16*7A
$GPGSV,5,3,17,27,55,270,33,28,60,105,25,31,55,165,25,32,33,008,31*7A
$GPGSV,5,4,17,36,52,277,37,40,84,353,33,41,58,082,,49,32,274,*78
$GPGSV,5,5,17,50,10,089,*4A
$GLGSV,3,1,09,65,27,276,34,66,06,232,15,72,25,339,17,74,14,108,09*66
$GLGSV,3,2,09,75,21,159,13,76,03,212,10,85,38,140,18,86,67,028,22*6E
$GLGSV,3,3,09,87,26,348,16*5F
$GNGLL,0419.75217,S,05539.70825,E,132227.00,A,D*60
$GNRMC,132228.00,A,0419.75210,S,05539.70822,E,0.226,,200525,,,D*70
$GNVTG,,T,,M,0.226,N,0.419,K,D*32
$GNGGA,132228.00,0419.75210,S,05539.70822,E,2,12,0.68,13.0,M,-47.6,M,,0000*4B
$GNGSA,A,3,32,18,10,28,26,16,27,31,08,04,,,1.46,0.68,1.29*10
$GNGSA,A,3,85,72,75,86,65,87,66,,,,,,1.46,0.68,1.29*13
$GPGSV,5,1,17,02,04,332,33,04,08,227,09,08,24,301,22,10,13,025,25*72
$GPGSV,5,2,17,16,24,215,29,18,28,115,18,23,01,063,,26,29,185,14*78
$GPGSV,5,3,17,27,55,270,35,28,60,105,26,31,55,165,25,32,33,008,31*7F
$GPGSV,5,4,17,36,52,277,36,40,84,353,31,41,58,082,,49,32,274,*7B
$GPGSV,5,5,17,50,10,089,*4A
$GLGSV,3,1,09,65,27,276,34,66,06,232,15,72,25,339,15,74,14,108,08*65
$GLGSV,3,2,09,75,21,159,15,76,03,212,12,85,38,140,18,86,67,028,21*69
$GLGSV,3,3,09,87,26,348,13*5A
$GNGLL,0419.75210,S,05539.70822,E,132228.00,A,D*6F
$GNRMC,132229.00,A,0419.75209,S,05539.70828,E,0.051,,200525,,,D*71
$GNVTG,,T,,M,0.051,N,0.095,K,D*30
$GNGGA,132229.00,0419.75209,S,05539.70828,E,2,12,0.65,12.8,M,-47.6,M,,0000*4C
$GNGSA,A,3,32,18,10,28,26,16,27,31,08,04,,,1.33,0.65,1.16*13
$GNGSA,A,3,85,72,75,86,65,87,66,,,,,,1.33,0.65,1.16*10
$GPGSV,5,1,17,02,04,332,33,04,08,227,08,08,24,301,20,10,13,025,24*70
$GPGSV,5,2,17,16,24,215,29,18,28,115,17,23,01,063,,26,29,185,13*70
$GPGSV,5,3,17,27,55,270,35,28,60,105,27,31,55,165,25,32,33,008,31*7E
$GPGSV,5,4,17,36,52,277,36,40,84,353,32,41,58,082,,49,32,274,*78
$GPGSV,5,5,17,50,10,089,*4A
$GLGSV,3,1,09,65,27,276,33,66,06,232,12,72,25,339,15,74,14,108,10*6C
$GLGSV,3,2,09,75,21,159,16,76,03,212,08,85,38,140,18,86,67,028,21*61
$GLGSV,3,3,09,87,26,348,16*5F
$GNGLL,0419.75209,S,05539.70828,E,132229.00,A,D*6C
$GNRMC,132230.00,A,0419.75205,S,05539.70825,E,0.073,,200525,,,D*78
$GNVTG,,T,,M,0.073,N,0.136,K,D*38
$GNGGA,132230.00,0419.75205,S,05539.70825,E,2,12,0.68,12.9,M,-47.6,M,,0000*49
$GNGSA,A,3,32,18,10,28,26,16,27,31,08,04,,,1.46,0.68,1.29*10
$GNGSA,A,3,85,72,75,86,65,87,66,,,,,,1.46,0.68,1.29*13
$GPGSV,5,1,17,02,04,332,36,04,08,227,14,08,24,301,19,10,13,025,31*76
$GPGSV,5,2,17,16,24,215,29,18,28,115,18,23,01,063,,26,29,185,11*7D
$GPGSV,5,3,17,27,55,270,33,28,60,105,28,31,55,165,25,32,33,008,35*73
$GPGSV,5,4,17,36,52,277,35,40,84,353,32,41,58,082,,49,32,274,*7B
$GPGSV,5,5,17,50,10,089,*4A
$GLGSV,3,1,09,65,27,276,33,66,06,232,11,72,25,339,15,74,14,108,08*66
$GLGSV,3,2,09,75,21,159,16,76,03,212,08,85,38,140,17,86,67,028,21*6E
$GLGSV,3,3,09,87,26,348,16*5F
$GNGLL,0419.75205,S,05539.70825,E,132230.00,A,D*65
$GNRMC,132231.00,A,0419.75207,S,05539.70829,E,0.147,,200525,,,D*71
$GNVTG,,T,,M,0.147,N,0.271,K,D*3E
$GNGGA,132231.00,0419.75207,S,05539.70829,E,2,12,0.68,12.9,M,-47.6,M,,0000*46
$GNGSA,A,3,32,18,10,28,26,16,27,31,08,04,,,1.46,0.68,1.29*10
$GNGSA,A,3,85,72,75,86,65,87,66,,,,,,1.46,0.68,1.29*13
$GPGSV,5,1,17,02,04,332,36,04,08,227,09,08,24,301,28,10,13,025,32*7B
$GPGSV,5,2,17,16,24,215,29,18,28,115,18,23,01,063,,26,29,185,12*7E
$GPGSV,5,3,17,27,55,270,30,28,60,105,16,31,55,165,26,32,33,008,34*7F
$GPGSV,5,4,17,36,52,277,35,40,84,353,30,41,58,082,,49,32,274,*79
$GPGSV,5,5,17,50,10,089,*4A
$GLGSV,3,1,09,65,27,276,32,66,06,232,15,72,25,339,16,74,14,108,09*61
$GLGSV,3,2,09,75,21,159,16,76,03,212,11,85,38,140,18,86,67,028,21*69
$GLGSV,3,3,09,87,26,348,14*5D
$GNGLL,0419.75207,S,05539.70829,E,132231.00,A,D*6A
$GNRMC,132232.00,A,0419.75200,S,05539.70823,E,0.107,,200525,,,D*7B
$GNVTG,,T,,M,0.107,N,0.199,K,D*3F
$GNGGA,132232.00,0419.75200,S,05539.70823,E,2,12,0.64,13.2,M,-47.6,M,,0000*4E
$GNGSA,A,3,32,18,10,28,26,16,27,31,04,,,,1.26,0.64,1.08*11
$GNGSA,A,3,85,72,75,86,65,87,66,,,,,,1.26,0.64,1.08*1A
$GPGSV,5,1,17,02,04,332,33,04,08,227,11,08,24,301,09,10,13,025,25*72
$GPGSV,5,2,17,16,24,215,28,18,28,115,17,23,01,063,,26,29,185,11*73
$GPGSV,5,3,17,27,55,270,36,28,60,105,30,31,55,165,25,32,33,008,28*73
$GPGSV,5,4,17,36,52,277,38,40,84,353,34,41,58,082,,49,32,274,*70
$GPGSV,5,5,17,50,10,089,*4A
$GLGSV,3,1,09,65,27,276,32,66,06,232,14,72,25,339,15,74,14,108,08*62
$GLGSV,3,2,09,75,21,159,17,76,03,212,10,85,38,140,18,86,67,028,22*6A
$GLGSV,3,3,09,87,26,348,21*5B
$GNGLL,0419.75200,S,05539.70823,E,132232.00,A,D*64
$GNRMC,132233.00,A,0419.75194,S,05539.70821,E,0.122,,200525,,,D*71
$GNVTG,,T,,M,0.122,N,0.226,K,D*3F
$GNGGA,132233.00,0419.75194,S,05539.70821,E,2,12,0.68,13.5,M,-47.6,M,,0000*48
$GNGSA,A,3,32,18,10,28,26,16,27,31,08,04,,,1.46,0.68,1.29*10
$GNGSA,A,3,85,72,75,86,65,87,66,,,,,,1.46,0.68,1.29*13
$GPGSV,5,1,17,02,04,332,36,04,08,227,11,08,24,301,29,10,13,025,32*73
$GPGSV,5,2,17,16,24,215,28,18,28,115,16,23,01,063,,26,29,185,10*73
$GPGSV,5,3,17,27,55,270,34,28,60,105,24,31,55,165,25,32,33,008,35*78
$GPGSV,5,4,17,36,52,277,37,40,84,353,32,41,58,082,,49,32,274,*79
$GPGSV,5,5,17,50,10,089,*4A
$GLGSV,3,1,09,65,27,276,31,66,06,232,08,72,25,339,13,74,14,108,08*6A
$GLGSV,3,2,09,75,21,159,19,76,03,212,09,85,38,140,18,86,67,028,23*6D
$GLGSV,3,3,09,87,26,348,23*59
$GNGLL,0419.75194,S,05539.70821,E,132233.00,A,D*69
$GNRMC,132234.00,A,0419.75181,S,05539.70817,E,0.118,,200525,,,D*7E
$GNVTG,,T,,M,0.118,N,0.218,K,D*3B
$GNGGA,132234.00,0419.75181,S,05539.70817,E,2,12,0.74,13.6,M,-47.6,M,,0000*40
$GNGSA,A,3,32,10,28,26,16,27,31,08,04,,,,1.51,0.74,1.32*18
$GNGSA,A,3,85,72,75,86,65,87,66,,,,,,1.51,0.74,1.32*12
$GPGSV,5,1,17,02,04,332,36,04,08,227,11,08,24,301,29,10,13,025,35*74
$GPGSV,5,2,17,16,24,215,28,18,28,115,,23,01,063,,26,29,185,12*76
$GPGSV,5,3,17,27,55,270,34,28,60,105,21,31,55,165,27,32,33,008,35*7F
$GPGSV,5,4,17,36,52,277,34,40,84,353,33,41,58,082,,49,32,274,*7B
$GPGSV,5,5,17,50,10,089,*4A
$GLGSV,3,1,09,65,27,276,29,66,06,232,12,72,25,339,11,74,14,108,09*6B
$GLGSV,3,2,09,75,21,159,18,76,03,212,12,85,38,140,18,86,67,028,25*60
$GLGSV,3,3,09,87,26,348,24*5E
$GNGLL,0419.75181,S,05539.70817,E,132234.00,A,D*6F
$GNRMC,132235.00,A,0419.75171,S,05539.70813,E,0.011,,200525,,,D*7C
$GNVTG,,T,,M,0.011,N,0.021,K,D*3B
$GNGGA,132235.00,0419.75171,S,05539.70813,E,2,12,0.72,13.6,M,-47.6,M,,0000*4C
$GNGSA,A,3,32,10,28,26,16,27,31,08,04,,,,1.41,0.72,1.21*1D
$GNGSA,A,3,85,72,75,86,65,87,66,,,,,,1.41,0.72,1.21*17
$GPGSV,5,1,17,02,04,332,37,04,08,227,13,08,24,301,30,10,13,025,36*7C
$GPGSV,5,2,17,16,24,215,28,18,28,115,18,23,01,063,,26,29,185,11*7C
$GPGSV,5,3,17,27,55,270,36,28,60,105,19,31,55,165,27,32,33,008,34*77
$GPGSV,5,4,17,36,52,277,33,40,84,353,32,41,58,082,,49,32,274,*7D
$GPGSV,5,5,17,50,10,089,*4A
$GLGSV,3,1,09,65,27,276,28,66,06,232,09,72,25,339,14,74,14,108,08*64
$GLGSV,3,2,09,75,21,159,16,76,03,212,09,85,38,140,19,86,67,029,26*67
$GLGSV,3,3,09,87,26,348,24*5E
$GNGLL,0419.75171,S,05539.70813,E,132235.00,A,D*65
$GNRMC,132236.00,A,0419.75170,S,05539.70814,E,0.117,,200525,,,D*7E
$GNVTG,,T,,M,0.117,N,0.217,K,D*3B
$GNGGA,132236.00,0419.75170,S,05539.70814,E,2,12,0.81,13.8,M,-47.6,M,,0000*4B
$GNGSA,A,3,32,10,28,26,16,27,31,08,04,,,,1.74,0.81,1.53*12
$GNGSA,A,3,85,72,86,65,87,66,,,,,,,1.74,0.81,1.53*1A
$GPGSV,5,1,17,02,04,332,37,04,08,227,12,08,24,301,31,10,13,025,36*7C
$GPGSV,5,2,17,16,24,215,28,18,28,115,18,23,01,063,,26,29,185,12*7F
$GPGSV,5,3,17,27,55,270,36,28,60,105,17,31,55,165,25,32,33,008,34*7B
$GPGSV,5,4,17,36,52,277,33,40,84,353,32,41,58,082,,49,32,274,*7D
$GPGSV,5,5,17,50,10,089,*4A
$GLGSV,3,1,09,65,27,276,28,66,06,232,09,72,25,339,15,74,14,108,07*6A
$GLGSV,3,2,09,75,21,159,13,76,03,212,12,85,38,140,20,86,67,029,25*61
$GLGSV,3,3,09,87,27,348,23*58
$GNGLL,0419.75170,S,05539.70814,E,132236.00,A,D*60
$GNRMC,132237.00,A,0419.75166,S,05539.70809,E,0.026,,200525,,,D*77
$GNVTG,,T,,M,0.026,N,0.048,K,D*30
$GNGGA,132237.00,0419.75166,S,05539.70809,E,2,12,0.79,14.1,M,-47.6,M,,0000*48
$GNGSA,A,3,32,10,28,26,16,27,31,08,04,,,,1.65,0.79,1.45*12
$GNGSA,A,3,85,72,86,65,87,66,,,,,,,1.65,0.79,1.45*1A
$GPGSV,5,1,17,02,04,332,38,04,08,227,11,08,24,301,31,10,13,025,36*70
$GPGSV,5,2,17,16,24,215,28,18,28,115,16,23,01,063,,26,29,185,12*71
$GPGSV,5,3,17,27,55,270,32,28,60,105,23,31,55,165,24,32,33,008,36*7B
$GPGSV,5,4,17,36,52,277,33,40,84,353,31,41,58,082,,49,32,274,*7E
$GPGSV,5,5,17,50,10,089,*4A
$GLGSV,3,1,09,65,27,276,28,66,06,232,09,72,25,339,14,74,14,108,08*64
$GLGSV,3,2,09,75,21,159,09,76,03,212,09,85,38,140,19,86,67,029,26*69
$GLGSV,3,3,09,87,27,348,24*5F
$GNGLL,0419.75166,S,05539.70809,E,132237.00,A,D*6A
$GNRMC,132238.00,A,0419.75156,S,05539.70804,E,0.027,,200525,,,D*77
$GNVTG,,T,,M,0.027,N,0.049,K,D*30
$GNGGA,132238.00,0419.75156,S,05539.70804,E,2,12,0.79,14.2,M,-47.6,M,,0000*4A
$GNGSA,A,3,32,10,28,26,16,27,31,08,04,,,,1.53,0.79,1.31*14
$GNGSA,A,3,85,72,86,65,87,66,,,,,,,1.53,0.79,1.31*1C
$GPGSV,5,1,17,02,04,332,36,04,08,227,11,08,24,301,31,10,13,025,35*7D
$GPGSV,5,2,17,16,24,215,28,18,28,115,17,23,01,063,,26,29,185,14*76
$GPGSV,5,3,17,27,55,270,33,28,60,105,23,31,55,165,22,32,33,008,33*79
$GPGSV,5,4,17,36,52,277,32,40,84,353,31,41,58,082,,49,32,274,*7F
$GPGSV,5,5,17,50,10,089,*4A
$GLGSV,3,1,09,65,27,276,28,66,06,232,09,72,25,339,13,74,14,108,08*63
$GLGSV,3,2,09,75,21,159,08,76,03,212,09,85,38,140,19,86,67,029,26*68
$GLGSV,3,3,09,87,27,348,25*5E
$GNGLL,0419.75156,S,05539.70804,E,132238.00,A,D*6B
$GNRMC,132239.00,A,0419.75141,S,05539.70798,E,0.092,,200525,,,D*74
$GNVTG,,T,,M,0.092,N,0.170,K,D*35
$GNGGA,132239.00,0419.75141,S,05539.70798,E,2,12,0.71,14.4,M,-47.6,M,,0000*49
$GNGSA,A,3,32,18,10,28,26,16,27,31,08,04,,,1.55,0.71,1.38*1A
$GNGSA,A,3,85,72,75,86,65,87,66,,,,,,1.55,0.71,1.38*19
$GPGSV,5,1,17,02,05,332,36,04,08,227,12,08,24,301,29,10,13,025,33*70
$GPGSV,5,2,17,16,24,215,27,18,28,115,16,23,01,063,,26,29,185,18*74
$GPGSV,5,3,17,27,55,270,32,28,60,105,26,31,55,165,24,32,33,008,36*7E
$GPGSV,5,4,17,36,52,277,36,40,84,353,30,41,58,082,,49,32,274,*7A
$GPGSV,5,5,17,50,10,089,*4A
$GLGSV,3,1,09,65,27,276,32,66,06,232,13,72,25,339,14,74,14,108,10*6D
$GLGSV,3,2,09,75,21,159,11,76,03,212,08,85,38,140,17,86,67,029,25*6C
$GLGSV,3,3,09,87,27,348,24*5F
$GNGLL,0419.75141,S,05539.70798,E,132239.00,A,D*66
$GNRMC,132240.00,A,0419.75132,S,05539.70793,E,0.083,,200525,,,D*75
$GNVTG,,T,,M,0.083,N,0.154,K,D*33
$GNGGA,132240.00,0419.75132,S,05539.70793,E,2,12,0.71,14.5,M,-47.6,M,,0000*49
$GNGSA,A,3,32,18,10,28,26,16,27,31,08,04,,,1.55,0.71,1.38*1A
$GNGSA,A,3,85,72,75,86,65,87,66,,,,,,1.55,0.71,1.38*19
$GPGSV,5,1,17,02,05,332,36,04,08,227,13,08,24,301,29,10,13,025,29*7A
$GPGSV,5,2,17,16,24,215,29,18,28,115,15,23,01,063,,26,29,185,16*77
$GPGSV,5,3,17,27,55,270,31,28,60,105,26,31,55,165,25,32,33,008,33*79
$GPGSV,5,4,17,36,52,277,35,40,84,353,31,41,58,082,,49,32,274,*78
$GPGSV,5,5,17,50,10,089,*4A
$GLGSV,3,1,09,65,27,276,32,66,06,232,09,72,25,339,15,74,14,108,09*6F
$GLGSV,3,2,09,75,21,159,15,76,03,212,07,85,38,140,17,86,67,029,26*64
$GLGSV,3,3,09,87,27,348,25*5E
$GNGLL,0419.75132,S,05539.70793,E,132240.00,A,D*67
$GNRMC,132241.00,A,0419.75126,S,05539.70789,E,0.035,,200525,,,D*77
$GNVTG,,T,,M,0.035,N,0.065,K,D*3D
$GNGGA,132241.00,0419.75126,S,05539.70789,E,2,12,0.75,14.7,M,-47.6,M,,0000*40
$GNGSA,A,3,32,18,10,28,26,16,27,31,08,04,,,1.41,0.75,1.20*12
$GNGSA,A,3,85,72,75,86,65,87,66,,,,,,1.41,0.75,1.20*11
$GPGSV,5,1,17,02,05,332,33,04,09,227,14,08,24,301,33,10,13,025,35*7F
$GPGSV,5,2,17,16,24,215,29,18,28,115,14,23,01,063,,26,29,185,13*73
$GPGSV,5,3,17,27,55,270,26,28,60,105,25,31,55,165,28,32,33,008,34*76
$GPGSV,5,4,17,36,52,277,37,40,84,353,31,41,58,082,,49,32,274,*7A
$GPGSV,5,5,17,50,10,089,*4A
$GLGSV,3,1,09,65,27,276,31,66,06,232,16,72,25,339,13,74,14,108,08*65
$GLGSV,3,2,09,75,21,159,18,76,03,212,11,85,38,140,16,86,67,029,27*6E
$GLGSV,3,3,09,87,27,348,25*5E
$GNGLL,0419.75126,S,05539.70789,E,132241.00,A,D*68
$GNRMC,132242.00,A,0419.75128,S,05539.70789,E,0.165,,200525,,,D*7E
$GNVTG,,T,,M,0.165,N,0.306,K,D*3F
$GNGGA,132242.00,0419.75128,S,05539.70789,E,2,12,0.79,15.0,M,-47.6,M,,0000*47
$GNGSA,A,3,32,18,10,28,26,16,27,31,08,04,,,1.65,0.79,1.45*1B
$GNGSA,A,3,85,72,75,86,65,87,66,,,,,,1.65,0.79,1.45*18
$GPGSV,5,1,17,02,05,332,28,04,09,227,12,08,24,301,27,10,13,025,31*72
$GPGSV,5,2,17,16,24,215,28,18,28,115,14,23,01,063,,26,29,185,17*76
$GPGSV,5,3,17,27,55,270,27,28,60,105,25,31,55,165,20,32,33,008,29*73
$GPGSV,5,4,17,36,52,277,31,40,84,353,,41,58,082,,49,32,274,*7E
$GPGSV,5,5,17,50,10,089,*4A
$GLGSV,3,1,09,65,27,276,25,66,06,232,13,72,25,339,12,74,14,108,08*64
$GLGSV,3,2,09,75,21,159,19,76,03,212,08,85,38,140,17,86,67,029,28*69
$GLGSV,3,3,09,87,27,348,24*5F
$GNGLL,0419.75128,S,05539.70789,E,132242.00,A,D*65
$GNRMC,132243.00,A,0419.75132,S,05539.70797,E,0.393,,200525,,,D*70
$GNVTG,,T,,M,0.393,N,0.728,K,D*3C
$GNGGA,132243.00,0419.75132,S,05539.70797,E,2,12,0.80,15.1,M,-47.6,M,,0000*45
$GNGSA,A,3,32,18,10,28,26,16,27,31,08,04,,,1.66,0.80,1.46*1D
$GNGSA,A,3,85,75,86,65,87,66,,,,,,,1.66,0.80,1.46*1B
$GPGSV,5,1,17,02,05,332,22,04,09,227,13,08,24,301,28,10,13,025,29*7F
$GPGSV,5,2,17,16,24,215,27,18,28,115,13,23,01,063,,26,29,185,16*7F
$GPGSV,5,3,17,27,55,270,28,28,60,105,25,31,55,165,19,32,33,008,29*76
$GPGSV,5,4,17,36,52,277,30,40,84,353,,41,58,082,,49,32,274,*7F
$GPGSV,5,5,17,50,10,089,*4A
$GLGSV,3,1,09,65,27,276,25,66,06,232,16,72,25,339,09,74,14,108,07*64
$GLGSV,3,2,09,75,21,159,20,76,03,212,09,85,38,140,13,86,67,029,27*69
$GLGSV,3,3,09,87,27,348,21*5A
$GNGLL,0419.75132,S,05539.70797,E,132243.00,A,D*60
$GNRMC,132244.00,A,0419.75134,S,05539.70794,E,0.144,,200525,,,D*7A
$GNVTG,,T,,M,0.144,N,0.267,K,D*3A
$GNGGA,132244.00,0419.75134,S,05539.70794,E,2,12,0.78,15.2,M,-47.6,M,,0000*43
$GNGSA,A,3,32,18,10,28,26,16,27,31,08,04,,,1.50,0.78,1.29*16
$GNGSA,A,3,85,75,86,65,87,66,,,,,,,1.50,0.78,1.29*10
$GPGSV,5,1,17,02,05,332,31,04,09,227,14,08,24,301,30,10,13,025,37*7C
$GPGSV,5,2,17,16,24,215,27,18,28,115,12,23,01,063,,26,29,185,15*7D
$GPGSV,5,3,17,27,55,270,36,28,60,105,24,31,55,165,18,32,33,008,33*72
$GPGSV,5,4,17,36,52,277,36,40,84,353,,41,58,082,,49,32,274,*79
$GPGSV,5,5,17,50,10,089,*4A
$GLGSV,3,1,09,65,27,276,29,66,06,232,13,72,25,339,08,74,14,108,09*62
$GLGSV,3,2,09,75,21,159,19,76,03,212,11,85,38,140,15,86,67,029,26*6D
$GLGSV,3,3,09,87,27,348,19*51
$GNGLL,0419.75134,S,05539.70794,E,132244.00,A,D*62
$GNRMC,132245.00,A,0419.75138,S,05539.70798,E,0.195,,200525,,,D*77
$GNVTG,,T,,M,0.195,N,0.361,K,D*31
$GNGGA,132245.00,0419.75138,S,05539.70798,E,2,12,0.80,15.1,M,-47.6,M,,0000*46
$GNGSA,A,3,32,18,10,28,26,16,27,31,08,04,,,1.66,0.80,1.46*1D
$GNGSA,A,3,85,75,86,65,87,66,,,,,,,1.66,0.80,1.46*1B
$GPGSV,5,1,17,02,05,332,31,04,09,227,08,08,24,301,23,10,13,025,35*71
$GPGSV,5,2,17,16,24,215,27,18,28,115,15,23,01,063,,26,29,185,13*7C
$GPGSV,5,3,17,27,55,270,33,28,60,105,26,31,55,165,23,32,33,008,36*78
$GPGSV,5,4,17,36,52,277,33,40,84,353,37,41,58,082,,49,32,274,*78
$GPGSV,5,5,17,50,10,089,*4A
$GLGSV,3,1,09,65,27,276,29,66,06,232,12,72,25,339,08,74,14,108,07*6D
$GLGSV,3,2,09,75,21,159,18,76,03,212,11,85,38,140,16,86,67,029,28*61
$GLGSV,3,3,09,87,27,348,22*59
$GNGLL,0419.75138,S,05539.70798,E,132245.00,A,D*63
$GNRMC,132246.00,A,0419.75140,S,05539.70803,E,0.184,,200525,,,D*76
$GNVTG,,T,,M,0.184,N,0.341,K,D*33
$GNGGA,132246.00,0419.75140,S,05539.70803,E,2,12,0.78,15.3,M,-47.6,M,,0000*42
$GNGSA,A,3,32,18,10,28,26,27,31,08,04,,,,1.57,0.78,1.36*18
$GNGSA,A,3,85,72,75,86,65,87,66,,,,,,1.57,0.78,1.36*1C
$GPGSV,5,1,17,02,05,332,25,04,09,227,10,08,24,301,25,10,13,025,35*7B
$GPGSV,5,2,17,16,24,215,,18,28,115,16,23,01,063,,26,29,185,13*7A
$GPGSV,5,3,17,27,55,270,27,28,60,105,35,31,55,165,25,32,33,008,31*7E
$GPGSV,5,4,17,36,52,277,30,40,84,353,38,41,58,082,,49,32,274,*74
$GPGSV,5,5,17,50,10,089,*4A
$GLGSV,3,1,09,65,27,276,28,66,06,232,10,72,25,339,11,74,14,108,11*61
$GLGSV,3,2,09,75,21,159,16,76,03,212,10,85,38,140,16,86,67,029,33*64
$GLGSV,3,3,09,87,27,348,21*5A
$GNGLL,0419.75140,S,05539.70803,E,132246.00,A,D*62
$GNRMC,132247.00,A,0419.75133,S,05539.70803,E,0.095,,200525,,,D*72
$GNVTG,,T,,M,0.095,N,0.175,K,D*37
$GNGGA,132247.00,0419.75133,S,05539.70803,E,2,12,0.63,15.5,M,-47.6,M,,0000*4B
$GNGSA,A,3,32,18,10,28,26,27,31,08,04,,,,1.25,0.63,1.08*1A
$GNGSA,A,3,85,72,75,86,65,87,66,,,,,,1.25,0.63,1.08*1E
$GPGSV,5,1,17,02,05,332,25,04,09,227,09,08,24,301,26,10,13,025,36*73
$GPGSV,5,2,17,16,24,215,16,18,28,115,16,23,01,063,,26,29,185,13*7D
$GPGSV,5,3,17,27,55,270,31,28,60,105,31,31,55,165,24,32,33,008,31*7C
$GPGSV,5,4,17,36,52,277,29,40,84,353,35,41,58,082,,49,32,274,*71
$GPGSV,5,5,17,50,10,089,*4A
$GLGSV,3,1,09,65,27,276,28,66,06,232,12,72,25,339,13,74,14,108,09*68
$GLGSV,3,2,09,75,21,159,13,76,03,212,08,85,38,140,16,86,67,029,27*6D
$GLGSV,3,3,09,87,27,348,18*50
$GNGLL,0419.75133,S,05539.70803,E,132247.00,A,D*67
$GNRMC,132248.00,A,0419.75119,S,05539.70784,E,0.868,,200525,,,D*7F
$GNVTG,,T,,M,0.868,N,1.607,K,D*3E
$GNGGA,132248.00,0419.75119,S,05539.70784,E,2,12,0.74,15.5,M,-47.6,M,,0000*4A
$GNGSA,A,3,32,18,10,28,26,27,31,08,04,,,,1.45,0.74,1.26*16
$GNGSA,A,3,85,72,86,65,87,66,,,,,,,1.45,0.74,1.26*10
$GPGSV,5,1,17,02,05,332,23,04,09,227,08,08,24,301,24,10,13,025,30*70
$GPGSV,5,2,17,16,24,215,15,18,28,115,14,23,01,063,,26,29,185,12*7D
$GPGSV,5,3,17,27,55,270,26,28,60,105,29,31,55,165,21,32,33,008,29*7F
$GPGSV,5,4,17,36,52,277,27,40,84,353,30,41,58,082,,49,32,274,*7A
$GPGSV,5,5,17,50,10,089,*4A
$GLGSV,3,1,09,65,27,276,26,66,06,232,12,72,25,339,14,74,14,108,07*6F
$GLGSV,3,2,09,75,21,159,11,76,03,212,08,85,38,140,16,86,67,029,26*6E
$GLGSV,3,3,09,87,27,348,15*5D
$GNGLL,0419.75119,S,05539.70784,E,132248.00,A,D*60
$GNRMC,132249.00,A,0419.75112,S,05539.70781,E,0.140,,200525,,,D*73
$GNVTG,,T,,M,0.140,N,0.260,K,D*39
$GNGGA,132249.00,0419.75112,S,05539.70781,E,2,12,0.67,15.7,M,-47.6,M,,0000*45
$GNGSA,A,3,32,18,10,28,26,27,31,08,04,,,,1.26,0.67,1.07*12
$GNGSA,A,3,72,75,86,65,87,66,,,,,,,1.26,0.67,1.07*1B
$GPGSV,5,1,17,02,05,332,26,04,09,227,09,08,24,301,25,10,13,025,35*70
$GPGSV,5,2,17,16,24,215,14,18,28,115,14,23,01,063,,26,29,185,14*7A
$GPGSV,5,3,17,27,55,270,23,28,60,105,32,31,55,165,19,32,33,008,29*7B
$GPGSV,5,4,17,36,52,277,28,40,84,353,37,41,58,082,,49,32,274,*72
$GPGSV,5,5,17,50,10,089,*4A
$GLGSV,3,1,09,65,27,276,26,66,06,232,10,72,25,339,13,74,14,108,10*6C
$GLGSV,3,2,09,75,21,159,12,76,03,212,08,85,38,140,14,86,67,029,35*6D
$GLGSV,3,3,09,87,27,348,13*5B
$GNGLL,0419.75112,S,05539.70781,E,132249.00,A,D*6F
$GNRMC,132250.00,A,0419.75101,S,05539.70770,E,0.482,,200525,,,D*7C
$GNVTG,,T,,M,0.482,N,0.892,K,D*35
$GNGGA,132250.00,0419.75101,S,05539.70770,E,2,12,0.74,16.0,M,-47.6,M,,0000*47
$GNGSA,A,3,32,18,10,28,26,27,31,08,04,,,,1.42,0.74,1.21*16
$GNGSA,A,3,85,72,75,86,65,87,,,,,,,1.42,0.74,1.21*12
$GPGSV,5,1,17,02,05,332,29,04,09,227,09,08,24,301,27,10,13,025,32*7A
$GPGSV,5,2,17,16,24,215,13,18,28,115,15,23,01,063,,26,29,185,15*7D
$GPGSV,5,3,17,27,55,270,20,28,60,105,32,31,55,165,21,32,33,008,30*7B
$GPGSV,5,4,17,36,52,277,28,40,84,353,37,41,58,082,,49,32,274,*72
$GPGSV,5,5,17,50,10,089,*4A
$GLGSV,3,1,09,65,27,276,26,66,06,232,07,72,25,339,10,74,14,108,06*6E
$GLGSV,3,2,09,75,21,159,12,76,03,212,09,85,38,140,17,86,67,029,34*6E
$GLGSV,3,3,09,87,27,348,13*5B
$GNGLL,0419.75101,S,05539.70770,E,132250.00,A,D*6B
$GNRMC,132251.00,A,0419.75110,S,05539.70762,E,0.395,,200525,,,D*7F
$GNVTG,,T,,M,0.395,N,0.731,K,D*32
$GNGGA,132251.00,0419.75110,S,05539.70762,E,2,12,0.67,15.8,M,-47.6,M,,0000*4C
$GNGSA,A,3,32,18,10,28,26,27,31,08,04,,,,1.26,0.67,1.07*12
$GNGSA,A,3,85,75,86,65,87,66,,,,,,,1.26,0.67,1.07*13
$GPGSV,5,1,17,02,05,332,28,04,09,227,09,08,24,301,26,10,13,025,27*7E
$GPGSV,5,2,17,16,24,215,11,18,28,115,14,23,01,063,,26,29,185,14*7F
$GPGSV,5,3,17,27,55,270,16,28,60,105,32,31,55,165,20,32,33,008,28*76
$GPGSV,5,4,17,36,52,277,28,40,84,353,35,41,58,082,,49,32,274,*70
$GPGSV,5,5,17,50,10,089,*4A
$GLGSV,3,1,09,65,27,276,25,66,06,232,09,72,25,339,09,74,14,108,07*6A
$GLGSV,3,2,09,75,21,159,12,76,03,212,07,85,38,140,16,86,67,029,29*6D
$GLGSV,3,3,09,87,27,348,12*5A
$GNGLL,0419.75110,S,05539.70762,E,132251.00,A,D*69
$GNRMC,132252.00,A,0419.75103,S,05539.70759,E,0.068,,200525,,,D*77
$GNVTG,,T,,M,0.068,N,0.125,K,D*30
$GNGGA,132252.00,0419.75103,S,05539.70759,E,2,12,0.65,15.8,M,-47.6,M,,0000*47
$GNGSA,A,3,32,18,10,28,26,16,27,31,08,04,,,1.25,0.65,1.06*15
$GNGSA,A,3,85,75,86,65,87,66,,,,,,,1.25,0.65,1.06*13
$GPGSV,5,1,17,02,05,332,28,04,09,227,08,08,24,301,26,10,13,025,25*7D
$GPGSV,5,2,17,16,24,215,14,18,28,115,13,23,01,063,,26,29,185,15*7C
$GPGSV,5,3,17,27,55,270,15,28,60,105,34,31,55,165,19,32,33,008,26*77
$GPGSV,5,4,17,36,52,277,29,40,84,353,35,41,58,082,,49,32,274,*71
$GPGSV,5,5,17,50,10,089,*4A
$GLGSV,3,1,09,65,27,276,26,66,06,232,09,72,25,339,09,74,14,108,11*6E
$GLGSV,3,2,09,75,21,159,12,76,03,212,12,85,38,140,17,86,67,029,28*69
$GLGSV,3,3,09,87,27,348,14*5C
$GNGLL,0419.75103,S,05539.70759,E,132252.00,A,D*60
$GNRMC,132253.00,A,0419.75108,S,05539.70753,E,0.289,,200525,,,D*7A
$GNVTG,,T,,M,0.289,N,0.535,K,D*38
$GNGGA,132253.00,0419.75108,S,05539.70753,E,2,12,0.69,15.6,M,-47.6,M,,0000*45
$GNGSA,A,3,32,18,10,28,26,16,27,31,08,04,,,1.39,0.69,1.21*11
$GNGSA,A,3,85,75,86,65,87,66,,,,,,,1.39,0.69,1.21*17
$GPGSV,5,1,17,02,05,332,27,04,09,227,09,08,24,301,25,10,13,025,31*75
$GPGSV,5,2,17,16,24,215,13,18,28,115,12,23,01,063,,26,29,185,14*7B
$GPGSV,5,3,17,27,55,270,18,28,60,105,34,31,55,165,18,32,33,008,26*7B
$GPGSV,5,4,17,36,52,277,28,40,84,353,35,41,58,082,,49,32,274,*70
$GPGSV,5,5,17,50,10,089,*4A
$GLGSV,3,1,09,65,27,276,25,66,06,232,08,72,25,339,08,74,14,108,05*68
$GLGSV,3,2,09,75,21,159,11,76,03,212,08,85,38,140,18,86,67,029,27*61
$GLGSV,3,3,09,87,27,348,15*5D
$GNGLL,0419.75108,S,05539.70753,E,132253.00,A,D*60
$GNRMC,132254.00,A,0419.75103,S,05539.70757,E,0.189,,200525,,,D*71
$GNVTG,,T,,M,0.189,N,0.351,K,D*3F
$GNGGA,132254.00,0419.75103,S,05539.70757,E,2,12,0.74,15.9,M,-47.6,M,,0000*4E
$GNGSA,A,3,32,10,28,26,27,31,08,04,,,,,1.41,0.74,1.20*1D
$GNGSA,A,3,85,72,75,86,65,87,66,,,,,,1.41,0.74,1.20*10
$GPGSV,5,1,17,02,05,332,26,04,09,227,08,08,24,301,25,10,13,025,31*75
$GPGSV,5,2,17,16,24,215,09,18,28,115,08,23,01,063,,26,29,185,16*79
$GPGSV,5,3,17,27,55,270,19,28,60,105,30,31,55,165,16,32,33,008,25*73
$GPGSV,5,4,17,36,52,277,28,40,84,353,34,41,58,082,,49,32,274,*71
$GPGSV,5,5,17,50,10,089,*4A
$GLGSV,3,1,09,65,27,276,25,66,06,232,08,72,25,339,09,74,14,108,08*64
$GLGSV,3,2,09,75,21,159,10,76,03,212,08,85,38,140,17,86,67,029,32*6B
$GLGSV,3,3,09,87,27,348,15*5D
$GNGLL,0419.75103,S,05539.70757,E,132254.00,A,D*68
$GNRMC,132255.00,A,0419.75095,S,05539.70757,E,0.128,,200525,,,D*75
$GNVTG,,T,,M,0.128,N,0.237,K,D*35
$GNGGA,132255.00,0419.75095,S,05539.70757,E,2,12,0.70,16.0,M,-47.6,M,,0000*4F
$GNGSA,A,3,32,18,10,28,26,27,08,04,,,,,1.42,0.70,1.24*15
$GNGSA,A,3,85,72,75,86,65,87,66,,,,,,1.42,0.70,1.24*13
$GPGSV,5,1,17,02,05,332,27,04,09,227,11,08,24,301,28,10,13,025,31*71
$GPGSV,5,2,17,16,24,215,,18,28,116,10,23,01,063,,26,29,185,18*74
$GPGSV,5,3,17,27,55,270,21,28,60,105,32,31,55,165,22,32,33,008,26*7E
$GPGSV,5,4,17,36,52,277,29,40,84,353,35,41,58,082,,49,32,274,*71
$GPGSV,5,5,17,50,10,089,*4A
$GLGSV,3,1,09,65,27,276,25,66,06,232,11,72,25,339,11,74,14,108,08*65
$GLGSV,3,2,09,75,21,159,18,76,03,212,09,85,38,140,18,86,67,029,31*6E
$GLGSV,3,3,09,87,27,348,17*5F
$GNGLL,0419.75095,S,05539.70757,E,132255.00,A,D*67
$GNRMC,132256.00,A,0419.75095,S,05539.70760,E,0.078,,200525,,,D*76
$GNVTG,,T,,M,0.078,N,0.145,K,D*37
$GNGGA,132256.00,0419.75095,S,05539.70760,E,2,12,0.74,16.0,M,-47.6,M,,0000*4C
$GNGSA,A,3,32,18,10,28,26,27,08,04,,,,,1.45,0.74,1.25*17
$GNGSA,A,3,85,72,75,86,65,87,66,,,,,,1.45,0.74,1.25*11
$GPGSV,5,1,17,02,05,332,29,04,09,227,08,08,24,301,32,10,13,025,32*7F
$GPGSV,5,2,17,16,24,215,,18,28,116,11,23,01,063,,26,29,185,16*7B
$GPGSV,5,3,17,27,55,270,21,28,60,105,33,31,55,165,20,32,33,008,27*7C
$GPGSV,5,4,17,36,52,277,30,40,84,353,39,41,58,082,,49,32,274,*75
$GPGSV,5,5,17,50,10,089,*4A
$GLGSV,3,1,09,65,27,276,25,66,06,232,08,72,25,339,09,74,14,108,08*64
$GLGSV,3,2,09,75,21,159,11,76,03,212,11,85,38,140,18,86,67,029,31*6E
$GLGSV,3,3,09,87,27,348,16*5E
$GNGLL,0419.75095,S,05539.70760,E,132256.00,A,D*60
$GNRMC,132257.00,A,0419.75090,S,05539.70759,E,0.079,,200525,,,D*79
$GNVTG,,T,,M,0.079,N,0.146,K,D*35
$GNGGA,132257.00,0419.75090,S,05539.70759,E,2,12,0.68,16.1,M,-47.6,M,,0000*4E
$GNGSA,A,3,32,18,10,28,26,27,08,04,,,,,1.41,0.68,1.23*18
$GNGSA,A,3,85,72,75,86,65,87,66,,,,,,1.41,0.68,1.23*1E
$GPGSV,5,1,17,02,05,332,30,04,09,227,10,08,24,301,26,10,13,025,28*70
$GPGSV,5,2,17,16,24,215,,18,28,116,10,23,01,063,,26,29,185,14*78
$GPGSV,5,3,17,27,55,270,22,28,60,105,31,31,55,165,20,32,33,008,27*7D
$GPGSV,5,4,17,36,52,277,31,40,84,353,37,41,58,082,,49,32,274,*7A
$GPGSV,5,5,17,50,10,089,*4A
$GLGSV,3,1,09,65,27,276,25,66,06,232,08,72,25,339,14,74,14,108,06*66
$GLGSV,3,2,09,75,21,159,12,76,03,212,09,85,38,140,19,86,67,029,27*62
$GLGSV,3,3,09,87,27,348,15*5D
$GNGLL,0419.75090,S,05539.70759,E,132257.00,A,D*6E
$GNRMC,132258.00,A,0419.75079,S,05539.70760,E,0.141,,200525,,,D*71
$GNVTG,,T,,M,0.141,N,0.261,K,D*39
$GNGGA,132258.00,0419.75079,S,05539.70760,E,2,12,0.67,16.2,M,-47.6,M,,0000*40
$GNGSA,A,3,32,18,10,28,26,27,31,08,04,,,,1.34,0.67,1.16*11
$GNGSA,A,3,85,72,75,86,65,87,66,,,,,,1.34,0.67,1.16*15
$GPGSV,5,1,17,02,05,332,34,04,09,227,15,08,24,301,28,10,13,025,27*70
$GPGSV,5,2,17,16,24,215,,18,28,116,13,23,01,063,,26,29,185,12*7D
$GPGSV,5,3,17,27,55,270,25,28,60,105,33,31,55,165,21,32,33,008,27*79
$GPGSV,5,4,17,36,52,277,33,40,84,353,39,41,58,082,,49,32,274,*76
$GPGSV,5,5,17,50,10,089,*4A
$GLGSV,3,1,09,65,27,276,25,66,06,232,10,72,25,339,16,74,14,108,09*62
$GLGSV,3,2,09,75,21,159,14,76,03,212,11,85,38,140,18,86,67,029,34*6E
$GLGSV,3,3,09,87,27,348,14*5C
$GNGLL,0419.75079,S,05539.70760,E,132258.00,A,D*6C
$GNRMC,132259.00,A,0419.75068,S,05539.70767,E,0.413,,200525,,,A*70
$GNVTG,,T,,M,0.413,N,0.765,K,A*3F
$GNGGA,132259.00,0419.75068,S,05539.70767,E,1,12,0.70,16.1,M,-47.6,M,,*40
$GNGSA,A,3,32,18,10,28,26,27,31,08,04,,,,1.40,0.70,1.21*10
$GNGSA,A,3,85,72,75,86,65,87,66,,,,,,1.40,0.70,1.21*14
$GPGSV,5,1,17,02,05,332,24,04,09,227,09,08,24,301,27,10,13,025,27*73
$GPGSV,5,2,17,16,24,215,22,18,28,116,14,23,01,064,,26,29,185,11*7E
$GPGSV,5,3,17,27,55,270,22,28,60,105,29,31,55,165,21,32,33,008,26*74
$GPGSV,5,4,17,36,52,277,28,40,84,353,31,41,58,082,,49,32,274,*74
$GPGSV,5,5,17,50,10,089,*4A
$GLGSV,3,1,09,65,27,276,24,66,06,232,09,72,25,339,10,74,14,108,08*6C
$GLGSV,3,2,09,75,21,159,11,76,03,212,09,85,38,140,17,86,67,029,28*60
$GLGSV,3,3,09,87,27,348,13*5B
$GNGLL,0419.75068,S,05539.70767,E,132259.00,A,A*6F
$GNRMC,132300.00,A,0419.75068,S,05539.70772,E,0.151,,200525,,,A*7A
$GNVTG,,T,,M,0.151,N,0.280,K,A*32
$GNGGA,132300.00,0419.75068,S,05539.70772,E,1,12,0.74,16.0,M,-47.6,M,,*4C
$GNGSA,A,3,32,18,10,28,26,27,31,08,,,,,1.52,0.74,1.33*10
$GNGSA,A,3,85,72,75,86,65,87,,,,,,,1.52,0.74,1.33*10
$GPGSV,5,1,17,02,05,332,30,04,09,227,05,08,24,301,32,10,13,025,31*79
$GPGSV,5,2,17,16,24,215,19,18,28,116,15,23,01,064,,26,29,185,15*73
$GPGSV,5,3,17,27,55,270,22,28,60,105,33,31,55,165,21,32,33,008,27*7E
$GPGSV,5,4,17,36,52,277,33,40,84,353,37,41,58,082,,49,32,274,*78
$GPGSV,5,5,17,50,10,089,*4A
$GLGSV,3,1,09,65,27,276,21,66,06,232,05,72,25,339,12,74,14,108,04*6B
