$GNRMC,131650.00,A,0419.74553,S,05539.70074,E,0.156,,200525,,,A*73
$GNVTG,,T,,M,0.156,N,0.288,K,A*3D
$GNGGA,131650.00,0419.74553,S,05539.70074,E,1,12,0.73,7.2,M,-47.6,M,,*77
$GNGSA,A,3,32,18,10,28,26,16,27,31,08,,,,1.69,0.73,1.53*1E
$GNGSA,A,3,85,72,75,86,65,87,,,,,,,1.69,0.73,1.53*19
$GPGSV,5,1,17,02,03,331,31,04,07,225,,08,23,303,31,10,13,023,33*76
$GPGSV,5,2,17,16,24,217,27,18,29,113,28,23,01,061,17,26,29,187,20*71
$GPGSV,5,3,17,27,55,275,29,28,60,110,22,31,52,168,25,32,36,006,34*73
$GPGSV,5,4,17,36,52,277,32,40,84,353,31,41,58,082,,49,32,274,33*7F
$GPGSV,5,5,17,50,10,089,*4A
$GLGSV,3,1,10,65,28,272,33,66,05,230,34,71,00,016,25,72,27,337,25*6D
$GLGSV,3,2,10,74,14,111,12,75,20,162,16,76,02,215,12,85,40,137,29*62
$GLGSV,3,3,10,86,64,025,29,87,24,348,34*65
$GNGLL,0419.74553,S,05539.70074,E,131650.00,A,A*68
$GNRMC,131651.00,A,0419.74553,S,05539.70073,E,0.100,,200525,,,A*76
$GNVTG,,T,,M,0.100,N,0.185,K,A*30
$GNGGA,131651.00,0419.74553,S,05539.70073,E,1,12,0.69,7.2,M,-47.6,M,,*7A
$GNGSA,A,3,32,18,10,26,16,27,31,08,,,,,1.59,0.69,1.43*1D
$GNGSA,A,3,85,72,75,86,65,87,,,,,,,1.59,0.69,1.43*10
$GPGSV,5,1,17,02,03,331,33,04,07,225,,08,23,303,32,10,13,023,33*77
$GPGSV,5,2,17,16,24,217,30,18,29,113,23,23,01,061,,26,29,187,13*7A
$GPGSV,5,3,17,27,55,275,31,28,60,110,,31,52,168,23,32,36,006,35*7D
$GPGSV,5,4,17,36,52,277,29,40,84,353,,41,58,082,,49,32,274,27*72
$GPGSV,5,5,17,50,10,089,*4A
$GLGSV,3,1,10,65,28,272,33,66,05,230,37,71,00,016,23,72,27,337,26*6B
$GLGSV,3,2,10,74,14,111,08,75,20,162,09,76,02,215,09,85,40,137,26*62
$GLGSV,3,3,10,86,64,025,32,87,24,348,37*6C
$GNGLL,0419.74553,S,05539.70073,E,131651.00,A,A*6E
$GNRMC,131652.00,A,0419.74559,S,05539.70075,E,0.126,,200525,,,A*7D
$GNVTG,,T,,M,0.126,N,0.234,K,A*3D
$GNGGA,131652.00,0419.74559,S,05539.70075,E,1,12,0.69,7.3,M,-47.6,M,,*74
$GNGSA,A,3,32,18,10,26,16,27,31,08,,,,,1.59,0.69,1.43*1D
$GNGSA,A,3,85,72,75,86,65,87,,,,,,,1.59,0.69,1.43*10
$GPGSV,5,1,17,02,03,331,40,04,07,225,,08,23,303,40,10,13,023,42*70
$GPGSV,5,2,17,16,24,217,37,18,29,113,26,23,01,061,,26,29,187,17*7C
$GPGSV,5,3,17,27,55,275,38,28,60,110,,31,53,168,31,32,36,006,43*77
$GPGSV,5,4,17,36,52,277,37,40,84,353,,41,58,082,,49,32,274,33*78
$GPGSV,5,5,17,50,10,089,*4A
$GLGSV,3,1,10,65,28,272,37,66,05,230,41,71,00,016,26,72,27,337,35*69
$GLGSV,3,2,10,74,14,111,10,75,20,162,13,76,02,215,12,85,40,137,27*6B
$GLGSV,3,3,10,86,64,025,36,87,24,348,42*6A
$GNGLL,0419.74559,S,05539.70075,E,131652.00,A,A*61
$GNRMC,131653.00,A,0419.74560,S,05539.70074,E,0.007,,200525,,,A*75
$GNVTG,,T,,M,0.007,N,0.013,K,A*38
$GNGGA,131653.00,0419.74560,S,05539.70074,E,1,12,0.69,7.1,M,-47.6,M,,*7C
$GNGSA,A,3,32,18,10,26,16,27,31,08,,,,,1.59,0.69,1.43*1D
$GNGSA,A,3,85,72,75,86,65,87,,,,,,,1.59,0.69,1.43*10
$GPGSV,5,1,17,02,03,331,38,04,07,225,,08,23,303,38,10,13,023,39*7C
$GPGSV,5,2,17,16,24,217,38,18,29,113,28,23,01,061,,26,29,187,19*73
$GPGSV,5,3,17,27,55,275,41,28,60,110,20,31,53,168,31,32,35,007,41*7B
$GPGSV,5,4,17,36,52,277,38,40,84,353,,41,58,082,,49,32,274,35*71
$GPGSV,5,5,17,50,10,089,*4A
$GLGSV,3,1,10,65,28,272,38,66,05,230,41,71,00,016,27,72,27,337,31*63
$GLGSV,3,2,10,74,14,111,09,75,20,162,17,76,02,215,11,85,40,137,29*6A
$GLGSV,3,3,10,86,64,025,28,87,24,348,39*69
$GNGLL,0419.74560,S,05539.70074,E,131653.00,A,A*6B
$GNRMC,131654.00,A,0419.74561,S,05539.70070,E,0.027,,200525,,,A*75
$GNVTG,,T,,M,0.027,N,0.051,K,A*3C
$GNGGA,131654.00,0419.74561,S,05539.70070,E,1,12,0.69,7.1,M,-47.6,M,,*7E
$GNGSA,A,3,32,18,10,26,16,27,31,08,,,,,1.59,0.69,1.43*1D
$GNGSA,A,3,85,72,75,86,65,87,,,,,,,1.59,0.69,1.43*10
$GPGSV,5,1,17,02,03,331,38,04,07,225,,08,23,303,38,10,13,023,41*73
$GPGSV,5,2,17,16,24,217,36,18,29,113,28,23,01,061,,26,29,187,19*7D
$GPGSV,5,3,17,27,55,275,41,28,60,110,20,31,53,168,28,32,35,007,44*76
$GPGSV,5,4,17,36,52,277,40,40,84,353,,41,58,082,,49,32,274,31*7A
$GPGSV,5,5,17,50,10,089,*4A
$GLGSV,3,1,10,65,28,272,39,66,05,230,41,71,00,016,25,72,27,337,34*65
$GLGSV,3,2,10,74,14,111,10,75,20,162,17,76,02,215,13,85,40,137,32*6A
$GLGSV,3,3,10,86,64,025,23,87,24,348,40*6C
$GNGLL,0419.74561,S,05539.70070,E,131654.00,A,A*69
$GNRMC,131655.00,A,0419.74556,S,05539.70068,E,0.071,,200525,,,A*7A
$GNVTG,,T,,M,0.071,N,0.132,K,A*3B
$GNGGA,131655.00,0419.74556,S,05539.70068,E,1,12,0.68,7.1,M,-47.6,M,,*73
$GNGSA,A,3,32,18,10,28,26,16,27,31,08,,,,1.48,0.68,1.31*13
$GNGSA,A,3,85,72,75,86,65,87,,,,,,,1.48,0.68,1.31*14
$GPGSV,5,1,17,02,03,331,38,04,07,225,13,08,23,303,36,10,13,023,41*7F
$GPGSV,5,2,17,16,24,217,43,18,29,113,29,23,01,061,,26,29,187,21*75
$GPGSV,5,3,17,27,55,275,43,28,60,110,24,31,53,168,36,32,35,007,38*74
$GPGSV,5,4,17,36,52,277,39,40,84,353,,41,58,082,,49,32,274,37*72
$GPGSV,5,5,17,50,10,089,*4A
$GLGSV,3,1,10,65,28,272,39,66,05,230,43,71,00,016,24,72,27,337,26*65
$GLGSV,3,2,10,74,14,111,09,75,20,162,13,76,02,215,11,85,40,137,32*64
$GLGSV,3,3,10,86,64,025,29,87,24,348,39*68
$GNGLL,0419.74556,S,05539.70068,E,131655.00,A,A*65
$GNRMC,131656.00,A,0419.74553,S,05539.70067,E,0.040,,200525,,,A*71
$GNVTG,,T,,M,0.040,N,0.074,K,A*3A
$GNGGA,131656.00,0419.74553,S,05539.70067,E,1,12,0.68,7.1,M,-47.6,M,,*7A
$GNGSA,A,3,32,18,10,28,26,16,27,31,08,,,,1.48,0.68,1.31*13
$GNGSA,A,3,85,72,75,86,65,87,,,,,,,1.48,0.68,1.31*14
$GPGSV,5,1,17,02,03,331,38,04,07,225,16,08,23,303,39,10,13,023,42*76
$GPGSV,5,2,17,16,24,217,42,18,29,113,30,23,01,061,,26,29,187,25*78
$GPGSV,5,3,17,27,55,275,43,28,60,110,30,31,53,168,36,32,35,007,41*7F
$GPGSV,5,4,17,36,52,277,40,40,84,353,,41,58,082,,49,32,274,36*7D
$GPGSV,5,5,17,50,10,089,*4A
$GLGSV,3,1,10,65,28,272,38,66,05,230,42,71,00,016,23,72,27,337,25*61
$GLGSV,3,2,10,74,14,111,09,75,20,162,18,76,02,215,10,85,40,137,29*64
$GLGSV,3,3,10,86,64,025,28,87,24,348,39*69
$GNGLL,0419.74553,S,05539.70067,E,131656.00,A,A*6C
$GNRMC,131657.00,A,0419.74555,S,05539.70067,E,0.114,,200525,,,A*76
$GNVTG,,T,,M,0.114,N,0.211,K,A*3B
$GNGGA,131657.00,0419.74555,S,05539.70067,E,1,12,0.69,7.2,M,-47.6,M,,*7F
$GNGSA,A,3,32,18,10,28,26,16,27,31,08,,,,1.66,0.69,1.51*18
$GNGSA,A,3,85,72,75,86,65,87,,,,,,,1.66,0.69,1.51*1F
$GPGSV,5,1,17,02,03,331,38,04,07,225,18,08,23,303,38,10,13,023,41*7A
$GPGSV,5,2,17,16,24,217,40,18,29,113,29,23,01,061,,26,29,187,24*73
$GPGSV,5,3,17,27,55,275,41,28,60,110,28,31,53,168,35,32,35,007,38*79
$GPGSV,5,4,17,36,52,277,40,40,84,353,,41,58,082,,49,32,274,34*7F
$GPGSV,5,5,17,50,10,089,*4A
$GLGSV,3,1,10,65,28,272,37,66,05,230,42,71,00,016,23,72,27,337,27*6C
$GLGSV,3,2,10,74,14,111,09,75,20,162,21,76,02,215,10,85,40,137,28*6F
$GLGSV,3,3,10,86,64,025,25,87,24,348,40*6A
$GNGLL,0419.74555,S,05539.70067,E,131657.00,A,A*6B
$GNRMC,131658.00,A,0419.74558,S,05539.70067,E,0.034,,200525,,,A*77
$GNVTG,,T,,M,0.034,N,0.062,K,A*3E
$GNGGA,131658.00,0419.74558,S,05539.70067,E,1,12,0.65,7.3,M,-47.6,M,,*70
$GNGSA,A,3,32,18,10,28,26,16,27,31,08,04,,,1.35,0.65,1.19*1A
$GNGSA,A,3,85,72,75,86,65,87,,,,,,,1.35,0.65,1.19*19
$GPGSV,5,1,17,02,03,331,36,04,07,225,17,08,23,303,39,10,13,023,40*7B
$GPGSV,5,2,17,16,24,217,37,18,29,113,28,23,01,061,,26,29,187,25*73
$GPGSV,5,3,17,27,55,275,41,28,60,110,26,31,53,168,33,32,35,007,38*71
$GPGSV,5,4,17,36,52,277,39,40,84,353,,41,58,082,,49,32,274,34*71
$GPGSV,5,5,17,50,10,089,*4A
$GLGSV,3,1,10,65,28,272,39,66,05,230,41,71,00,016,25,72,27,337,28*68
$GLGSV,3,2,10,74,14,111,11,75,20,162,19,76,02,215,08,85,40,137,28*64
$GLGSV,3,3,10,86,64,025,23,87,24,348,39*62
$GNGLL,0419.74558,S,05539.70067,E,131658.00,A,A*69
$GNRMC,131659.00,A,0419.74561,S,05539.70066,E,0.030,,200525,,,A*79
$GNVTG,,T,,M,0.030,N,0.055,K,A*3E
$GNGGA,131659.00,0419.74561,S,05539.70066,E,1,12,0.65,7.4,M,-47.6,M,,*7D
$GNGSA,A,3,32,18,10,28,26,16,27,31,08,04,,,1.35,0.65,1.19*1A
$GNGSA,A,3,85,72,75,86,65,87,,,,,,,1.35,0.65,1.19*19
$GPGSV,5,1,17,02,03,331,33,04,07,225,19,08,23,303,40,10,13,023,41*7F
$GPGSV,5,2,17,16,24,217,34,18,29,113,26,23,01,061,,26,29,187,23*78
$GPGSV,5,3,17,27,55,275,36,28,60,110,30,31,53,168,28,32,35,007,38*7C
$GPGSV,5,4,17,36,52,277,37,40,84,353,36,41,58,082,,49,32,274,36*78
$GPGSV,5,5,17,50,10,089,*4A
$GLGSV,3,1,10,65,28,272,37,66,05,230,41,71,00,016,32,72,27,337,34*6D
$GLGSV,3,2,10,74,14,111,10,75,20,162,19,76,02,215,15,85,40,137,29*68
$GLGSV,3,3,10,86,64,025,27,87,24,348,37*68
$GNGLL,0419.74561,S,05539.70066,E,131659.00,A,A*63
$GNRMC,131700.00,A,0419.74562,S,05539.70062,E,0.023,,200525,,,A*71
$GNVTG,,T,,M,0.023,N,0.043,K,A*3B
$GNGGA,131700.00,0419.74562,S,05539.70062,E,1,12,0.65,7.4,M,-47.6,M,,*77
$GNGSA,A,3,32,18,10,28,26,16,27,31,08,04,,,1.35,0.65,1.19*1A
$GNGSA,A,3,85,72,75,86,65,87,,,,,,,1.35,0.65,1.19*19
$GPGSV,5,1,17,02,03,331,38,04,07,225,22,08,23,303,27,10,13,023,40*7C
$GPGSV,5,2,17,16,24,217,37,18,29,113,24,23,01,061,,26,29,187,22*78
$GPGSV,5,3,17,27,55,275,39,28,60,110,30,31,53,168,17,32,35,007,37*70
$GPGSV,5,4,17,36,52,277,39,40,84,353,39,41,58,082,,49,32,274,38*77
$GPGSV,5,5,17,50,10,089,*4A
$GLGSV,3,1,10,65,28,272,35,66,05,230,42,71,00,016,34,72,27,337,29*66
$GLGSV,3,2,10,74,14,111,10,75,20,162,19,76,02,215,10,85,40,137,29*6D
$GLGSV,3,3,10,86,64,025,31,87,24,348,39*61
$GNGLL,0419.74562,S,05539.70062,E,131700.00,A,A*69
$GNRMC,131701.00,A,0419.74564,S,05539.70060,E,0.068,,200525,,,A*7B
$GNVTG,,T,,M,0.068,N,0.127,K,A*37
$GNGGA,131701.00,0419.74564,S,05539.70060,E,1,12,0.65,7.3,M,-47.6,M,,*75
$GNGSA,A,3,32,18,10,28,26,16,27,31,08,04,,,1.35,0.65,1.19*1A
$GNGSA,A,3,85,72,75,86,65,87,,,,,,,1.35,0.65,1.19*19
$GPGSV,5,1,17,02,03,331,38,04,07,225,23,08,23,303,28,10,13,023,40*72
$GPGSV,5,2,17,16,24,217,37,18,29,113,22,23,01,061,,26,29,187,21*7D
$GPGSV,5,3,17,27,55,275,39,28,60,110,29,31,53,168,26,32,35,007,36*7B
$GPGSV,5,4,17,36,52,277,40,40,84,353,39,41,58,082,,49,32,274,38*79
$GPGSV,5,5,17,50,10,089,*4A
$GLGSV,3,1,10,65,28,272,38,66,05,230,43,71,00,016,33,72,27,337,30*65
$GLGSV,3,2,10,74,14,111,08,75,20,162,19,76,02,215,11,85,40,137,29*65
$GLGSV,3,3,10,86,64,025,32,87,24,348,38*63
$GNGLL,0419.74564,S,05539.70060,E,131701.00,A,A*6C
$GNRMC,131702.00,A,0419.74567,S,05539.70059,E,0.109,,200525,,,A*77
$GNVTG,,T,,M,0.109,N,0.202,K,A*35
$GNGGA,131702.00,0419.74567,S,05539.70059,E,1,12,0.65,7.4,M,-47.6,M,,*78
$GNGSA,A,3,32,18,10,28,26,16,27,31,08,04,,,1.35,0.65,1.19*1A
$GNGSA,A,3,85,72,75,86,65,87,,,,,,,1.35,0.65,1.19*19
$GPGSV,5,1,17,02,03,331,35,04,07,225,24,08,23,303,37,10,13,023,43*75
$GPGSV,5,2,17,16,24,217,40,18,29,113,23,23,01,061,,26,29,187,19*77
$GPGSV,5,3,17,27,55,275,40,28,60,110,36,31,53,168,33,32,35,007,40*7E
$GPGSV,5,4,17,36,52,277,39,40,84,353,41,41,58,082,,49,32,274,30*70
$GPGSV,5,5,17,50,10,089,*4A
$GLGSV,3,1,10,65,28,272,39,66,05,230,42,71,00,016,33,72,27,337,34*61
$GLGSV,3,2,10,74,14,111,10,75,20,162,19,76,02,215,13,85,40,137,20*67
$GLGSV,3,3,10,86,64,025,26,87,24,348,35*6B
$GNGLL,0419.74567,S,05539.70059,E,131702.00,A,A*66
$GNRMC,131703.00,A,0419.74568,S,05539.70054,E,0.060,,200525,,,A*7A
$GNVTG,,T,,M,0.060,N,0.111,K,A*3A
$GNGGA,131703.00,0419.74568,S,05539.70054,E,1,12,0.65,7.2,M,-47.6,M,,*7D
$GNGSA,A,3,32,18,10,28,26,16,27,31,08,04,,,1.35,0.65,1.19*1A
$GNGSA,A,3,85,72,75,86,65,87,,,,,,,1.35,0.65,1.19*19
$GPGSV,5,1,17,02,03,331,36,04,07,225,22,08,23,303,37,10,13,023,40*73
$GPGSV,5,2,17,16,24,217,40,18,29,113,30,23,01,061,,26,29,187,21*7E
$GPGSV,5,3,17,27,55,275,39,28,60,110,33,31,53,168,31,32,35,007,39*79
$GPGSV,5,4,17,36,52,277,41,40,84,353,40,41,58,082,,49,32,274,28*77
$GPGSV,5,5,17,50,10,089,*4A
$GLGSV,3,1,10,65,28,272,38,66,05,230,42,71,00,016,34,72,27,337,31*62
$GLGSV,3,2,10,74,14,111,10,75,20,162,19,76,02,215,16,85,40,137,22*60
$GLGSV,3,3,10,86,64,025,24,87,24,348,35*69
$GNGLL,0419.74568,S,05539.70054,E,131703.00,A,A*65
$GNRMC,131704.00,A,0419.74569,S,05539.70053,E,0.060,,200525,,,A*7B
$GNVTG,,T,,M,0.060,N,0.110,K,A*3B
$GNGGA,131704.00,0419.74569,S,05539.70053,E,1,12,0.65,7.2,M,-47.6,M,,*7C
$GNGSA,A,3,32,18,10,28,26,16,27,31,08,04,,,1.35,0.65,1.19*1A
$GNGSA,A,3,85,72,75,86,65,87,,,,,,,1.35,0.65,1.19*19
$GPGSV,5,1,17,02,03,331,33,04,07,225,24,08,23,303,37,10,13,023,42*72
$GPGSV,5,2,17,16,24,217,39,18,29,113,28,23,01,061,,26,29,187,22*7A
$GPGSV,5,3,17,27,55,275,37,28,60,110,32,31,53,168,29,32,35,007,36*70
$GPGSV,5,4,17,36,52,277,39,40,84,353,40,41,58,082,,49,32,274,30*71
$GPGSV,5,5,17,50,10,089,*4A
$GLGSV,3,1,10,65,28,272,36,66,05,230,40,71,00,016,32,72,27,337,31*68
$GLGSV,3,2,10,74,14,111,10,75,20,162,19,76,02,215,10,85,40,137,22*66
$GLGSV,3,3,10,86,64,025,25,87,24,348,33*6E
$GNGLL,0419.74569,S,05539.70053,E,131704.00,A,A*64
$GNRMC,131705.00,A,0419.74570,S,05539.70055,E,0.163,,200525,,,A*76
$GNVTG,,T,,M,0.163,N,0.302,K,A*38
$GNGGA,131705.00,0419.74570,S,05539.70055,E,1,12,0.67,7.2,M,-47.6,M,,*71
$GNGSA,A,3,32,18,10,28,26,16,27,31,08,04,,,1.36,0.67,1.19*1B
$GNGSA,A,3,85,72,75,86,65,87,,,,,,,1.36,0.67,1.19*18
$GPGSV,5,1,17,02,03,331,35,04,07,225,24,08,23,303,36,10,13,023,42*75
$GPGSV,5,2,17,16,24,217,39,18,29,113,26,23,01,061,,26,29,187,20*76
$GPGSV,5,3,17,27,55,275,37,28,60,110,33,31,53,168,34,32,35,007,43*7F
$GPGSV,5,4,17,36,52,277,39,40,84,353,40,41,58,082,,49,32,274,*72
$GPGSV,5,5,17,50,10,089,*4A
$GLGSV,3,1,10,65,28,272,36,66,05,230,43,71,00,016,33,72,27,337,31*6A
$GLGSV,3,2,10,74,14,111,09,75,20,162,17,76,02,215,13,85,40,137,19*6B
$GLGSV,3,3,10,86,64,025,23,87,24,348,37*6C
$GNGLL,0419.74570,S,05539.70055,E,131705.00,A,A*6B
$GNRMC,131706.00,A,0419.74567,S,05539.70054,E,0.055,,200525,,,A*76
$GNVTG,,T,,M,0.055,N,0.102,K,A*3E
$GNGGA,131706.00,0419.74567,S,05539.70054,E,1,12,0.65,7.4,M,-47.6,M,,*71
$GNGSA,A,3,32,18,10,28,26,16,27,31,08,04,,,1.35,0.65,1.19*1A
$GNGSA,A,3,85,72,75,86,65,87,,,,,,,1.35,0.65,1.19*19
$GPGSV,5,1,17,02,03,331,38,04,07,225,20,08,23,303,34,10,13,023,47*7B
$GPGSV,5,2,17,16,24,217,37,18,29,113,25,23,01,061,,26,29,187,14*7C
$GPGSV,5,3,17,27,55,275,35,28,60,110,28,31,53,168,31,32,35,007,48*79
$GPGSV,5,4,17,36,52,277,38,40,84,353,40,41,58,082,,49,32,274,*73
$GPGSV,5,5,17,50,10,089,*4A
$GLGSV,3,1,10,65,28,272,36,66,05,230,44,71,00,016,38,72,27,337,33*64
$GLGSV,3,2,10,74,14,111,09,75,20,162,15,76,02,215,10,85,40,137,19*6A
$GLGSV,3,3,10,86,64,025,35,87,24,348,39*65
$GNGLL,0419.74567,S,05539.70054,E,131706.00,A,A*6F
$GNRMC,131707.00,A,0419.74570,S,05539.70058,E,0.083,,200525,,,A*76
$GNVTG,,T,,M,0.083,N,0.153,K,A*31
$GNGGA,131707.00,0419.74570,S,05539.70058,E,1,12,0.65,7.6,M,-47.6,M,,*78
$GNGSA,A,3,32,18,10,28,26,16,27,31,08,04,,,1.35,0.65,1.19*1A
$GNGSA,A,3,85,72,75,86,65,87,,,,,,,1.35,0.65,1.19*19
$GPGSV,5,1,17,02,03,331,40,04,07,225,18,08,23,303,39,10,13,023,46*73
$GPGSV,5,2,17,16,24,217,37,18,29,113,26,23,01,061,,26,29,187,15*7E
$GPGSV,5,3,17,27,55,275,33,28,60,110,26,31,53,168,30,32,35,007,49*71
$GPGSV,5,4,17,36,52,277,38,40,84,353,41,41,58,082,,49,32,274,*72
$GPGSV,5,5,17,50,10,089,*4A
$GLGSV,3,1,10,65,28,272,37,66,05,230,43,71,00,016,37,72,27,337,36*68
$GLGSV,3,2,10,74,14,111,09,75,20,162,13,76,02,215,10,85,40,137,19*6C
$GLGSV,3,3,10,86,64,025,37,87,24,348,42*6B
$GNGLL,0419.74570,S,05539.70058,E,131707.00,A,A*64
$GNRMC,131708.00,A,0419.74566,S,05539.70057,E,0.126,,200525,,,A*7F
$GNVTG,,T,,M,0.126,N,0.234,K,A*3D
$GNGGA,131708.00,0419.74566,S,05539.70057,E,1,12,0.65,7.7,M,-47.6,M,,*7E
$GNGSA,A,3,32,18,10,28,26,16,27,31,08,04,,,1.35,0.65,1.19*1A
$GNGSA,A,3,85,72,75,86,65,87,,,,,,,1.35,0.65,1.19*19
$GPGSV,5,1,17,02,03,331,39,04,07,225,17,08,23,303,34,10,13,023,46*7F
$GPGSV,5,2,17,16,24,217,38,18,29,113,26,23,01,061,,26,29,187,15*71
$GPGSV,5,3,17,27,55,275,37,28,60,110,32,31,53,168,30,32,35,007,48*71
$GPGSV,5,4,17,36,52,277,39,40,84,353,39,41,58,082,,49,32,274,*7C
$GPGSV,5,5,17,50,10,089,*4A
$GLGSV,3,1,10,65,28,272,35,66,05,230,43,71,00,016,36,72,27,337,32*6F
$GLGSV,3,2,10,74,14,111,09,75,20,162,12,76,02,215,09,85,40,137,20*6F
$GLGSV,3,3,10,86,64,025,34,87,24,348,41*6B
$GNGLL,0419.74566,S,05539.70057,E,131708.00,A,A*63
$GNRMC,131709.00,A,0419.74562,S,05539.70057,E,0.036,,200525,,,A*7A
$GNVTG,,T,,M,0.036,N,0.066,K,A*38
$GNGGA,131709.00,0419.74562,S,05539.70057,E,1,12,0.68,7.8,M,-47.6,M,,*79
$GNGSA,A,3,32,18,10,28,26,16,27,31,08,04,,,1.41,0.68,1.24*1A
$GNGSA,A,3,85,72,86,65,87,,,,,,,,1.41,0.68,1.24*1B
$GPGSV,5,1,17,02,03,331,39,04,07,225,15,08,23,303,32,10,13,023,45*78
$GPGSV,5,2,17,16,24,217,39,18,29,113,28,23,01,061,,26,29,187,17*7C
$GPGSV,5,3,17,27,55,275,39,28,60,110,33,31,53,168,28,32,35,007,47*78
$GPGSV,5,4,17,36,52,277,40,40,84,353,39,41,58,082,,49,32,274,*72
$GPGSV,5,5,17,50,10,089,*4A
$GLGSV,3,1,10,65,28,272,36,66,05,230,43,71,00,016,36,72,27,337,31*6F
$GLGSV,3,2,10,74,14,111,09,75,20,162,10,76,02,215,12,85,40,137,25*62
$GLGSV,3,3,10,86,64,025,33,87,24,348,40*6D
$GNGLL,0419.74562,S,05539.70057,E,131709.00,A,A*66
$GNRMC,131710.00,A,0419.74553,S,05539.70070,E,0.778,356.36,200525,,,A*63
$GNVTG,356.36,T,,M,0.778,N,1.440,K,A*2F
$GNGGA,131710.00,0419.74553,S,05539.70070,E,1,12,0.66,7.6,M,-47.6,M,,*76
$GNGSA,A,3,32,18,10,28,26,16,27,08,04,,,,1.41,0.66,1.25*17
$GNGSA,A,3,85,72,75,86,65,87,,,,,,,1.41,0.66,1.25*16
$GPGSV,5,1,17,02,03,331,38,04,07,225,15,08,23,303,26,10,13,023,41*78
$GPGSV,5,2,17,16,24,217,35,18,29,113,30,23,01,061,,26,29,187,18*76
$GPGSV,5,3,17,27,55,275,39,28,60,110,33,31,53,168,22,32,35,007,28*7B
$GPGSV,5,4,17,36,52,277,34,40,84,353,35,41,58,082,,49,32,274,*7D
$GPGSV,5,5,17,50,10,089,*4A
$GLGSV,3,1,10,65,28,272,35,66,05,230,41,71,00,016,35,72,27,337,20*6D
$GLGSV,3,2,10,74,14,111,09,75,20,162,16,76,02,215,10,85,40,137,27*64
$GLGSV,3,3,10,86,64,025,26,87,24,348,40*69
$GNGLL,0419.74553,S,05539.70070,E,131710.00,A,A*69
$GNRMC,131711.00,A,0419.74545,S,05539.70071,E,0.263,,200525,,,A*70
$GNVTG,,T,,M,0.263,N,0.488,K,A*3E
$GNGGA,131711.00,0419.74545,S,05539.70071,E,1,12,0.65,7.7,M,-47.6,M,,*73
$GNGSA,A,3,32,18,10,28,26,16,27,31,08,04,,,1.35,0.65,1.19*1A
$GNGSA,A,3,85,72,75,86,65,87,,,,,,,1.35,0.65,1.19*19
$GPGSV,5,1,17,02,03,331,40,04,07,225,16,08,23,303,26,10,13,023,42*77
$GPGSV,5,2,17,16,24,217,39,18,29,113,29,23,01,061,,26,29,187,19*73
$GPGSV,5,3,17,27,55,275,39,28,60,110,36,31,53,168,31,32,35,007,38*7D
$GPGSV,5,4,17,36,52,277,38,40,84,353,35,41,58,082,,49,32,274,*71
$GPGSV,5,5,17,50,10,089,*4A
$GLGSV,3,1,10,65,28,272,33,66,05,230,44,71,00,016,35,72,27,337,29*67
$GLGSV,3,2,10,74,14,111,08,75,20,162,16,76,02,215,12,85,40,137,29*69
$GLGSV,3,3,10,86,64,025,36,87,24,348,35*6A
$GNGLL,0419.74545,S,05539.70071,E,131711.00,A,A*6E
$GNRMC,131712.00,A,0419.74541,S,05539.70067,E,0.115,,200525,,,A*72
$GNVTG,,T,,M,0.115,N,0.214,K,A*3F
$GNGGA,131712.00,0419.74541,S,05539.70067,E,1,12,0.65,7.8,M,-47.6,M,,*7C
$GNGSA,A,3,32,18,10,28,26,16,27,31,08,04,,,1.35,0.65,1.19*1A
$GNGSA,A,3,85,72,75,86,65,87,,,,,,,1.35,0.65,1.19*19
$GPGSV,5,1,17,02,03,331,36,04,07,225,12,08,23,303,32,10,13,023,44*71
$GPGSV,5,2,17,16,24,217,39,18,29,113,29,23,01,061,,26,29,187,20*79
$GPGSV,5,3,17,27,55,275,37,28,60,110,38,31,53,168,25,32,35,007,30*70
$GPGSV,5,4,17,36,52,277,37,40,84,353,36,41,58,082,,49,32,274,*7D
$GPGSV,5,5,17,50,10,089,*4A
$GLGSV,3,1,10,65,28,272,36,66,05,230,45,71,00,016,34,72,27,337,32*68
$GLGSV,3,2,10,74,14,111,09,75,20,162,15,76,02,215,10,85,40,137,29*69
$GLGSV,3,3,10,86,64,025,37,87,24,348,38*66
$GNGLL,0419.74541,S,05539.70067,E,131712.00,A,A*6E
$GNRMC,131713.00,A,0419.74536,S,05539.70067,E,0.182,,200525,,,A*7D
$GNVTG,,T,,M,0.182,N,0.337,K,A*31
$GNGGA,131713.00,0419.74536,S,05539.70067,E,1,12,0.65,8.0,M,-47.6,M,,*7A
$GNGSA,A,3,32,18,10,28,26,16,27,31,08,04,,,1.35,0.65,1.19*1A
$GNGSA,A,3,85,72,75,86,65,87,,,,,,,1.35,0.65,1.19*19
$GPGSV,5,1,17,02,03,331,36,04,07,225,14,08,23,303,34,10,13,023,45*70
$GPGSV,5,2,17,16,24,217,35,18,29,113,30,23,01,061,,26,29,187,21*7C
$GPGSV,5,3,17,27,55,275,37,28,60,110,38,31,53,168,32,32,35,007,37*71
$GPGSV,5,4,17,36,52,277,37,40,84,353,38,41,58,082,,49,32,274,*73
$GPGSV,5,5,17,50,10,089,*4A
$GLGSV,3,1,10,65,28,272,38,66,05,230,44,71,00,016,34,72,27,337,25*61
$GLGSV,3,2,10,74,14,111,11,75,20,162,15,76,02,215,11,85,40,137,33*6A
$GLGSV,3,3,10,86,64,025,37,87,24,348,41*68
$GNGLL,0419.74536,S,05539.70067,E,131713.00,A,A*6F
$GNRMC,131714.00,A,0419.74534,S,05539.70070,E,0.039,,200525,,,A*7F
$GNVTG,,T,,M,0.039,N,0.073,K,A*33
$GNGGA,131714.00,0419.74534,S,05539.70070,E,1,12,0.65,8.1,M,-47.6,M,,*78
$GNGSA,A,3,32,18,10,28,26,16,27,31,08,04,,,1.35,0.65,1.19*1A
$GNGSA,A,3,85,72,75,86,65,87,,,,,,,1.35,0.65,1.19*19
$GPGSV,5,1,17,02,03,331,35,04,07,225,14,08,23,303,36,10,13,023,44*70
$GPGSV,5,2,17,16,24,217,38,18,29,113,30,23,01,061,,26,29,187,19*7A
$GPGSV,5,3,17,27,55,275,37,28,60,110,36,31,53,168,31,32,35,007,36*7D
$GPGSV,5,4,17,36,52,277,38,40,84,353,31,41,58,082,,49,32,274,*75
$GPGSV,5,5,17,50,10,089,*4A
$GLGSV,3,1,10,65,28,273,34,66,05,230,43,71,00,016,35,72,27,337,25*6A
$GLGSV,3,2,10,74,14,111,11,75,20,162,13,76,02,215,13,85,40,137,33*6E
$GLGSV,3,3,10,86,64,025,39,87,24,348,39*69
$GNGLL,0419.74534,S,05539.70070,E,131714.00,A,A*6C
$GNRMC,131715.00,A,0419.74534,S,05539.70070,E,0.073,,200525,,,A*70
$GNVTG,,T,,M,0.073,N,0.136,K,A*3D
$GNGGA,131715.00,0419.74534,S,05539.70070,E,1,12,0.65,8.2,M,-47.6,M,,*7A
$GNGSA,A,3,32,18,10,28,26,16,27,31,08,04,,,1.35,0.65,1.19*1A
$GNGSA,A,3,85,72,75,86,65,87,,,,,,,1.35,0.65,1.19*19
$GPGSV,5,1,17,02,03,331,36,04,07,225,12,08,23,303,31,10,13,023,45*73
$GPGSV,5,2,17,16,24,217,36,18,29,113,31,23,01,061,,26,29,187,17*7B
$GPGSV,5,3,17,27,55,275,38,28,60,110,38,31,53,168,31,32,35,007,35*7F
$GPGSV,5,4,17,36,52,277,38,40,84,353,33,41,58,082,,49,32,274,*77
$GPGSV,5,5,17,50,10,089,*4A
$GLGSV,3,1,10,65,28,273,37,66,05,230,43,71,00,016,34,72,27,337,27*6A
$GLGSV,3,2,10,74,14,111,10,75,20,162,09,76,02,215,14,85,40,137,31*61
$GLGSV,3,3,10,86,64,025,37,87,24,348,39*67
$GNGLL,0419.74534,S,05539.70070,E,131715.00,A,A*6D
$GNRMC,131716.00,A,0419.74531,S,05539.70065,E,0.035,,200525,,,A*70
$GNVTG,,T,,M,0.035,N,0.064,K,A*39
$GNGGA,131716.00,0419.74531,S,05539.70065,E,1,12,0.65,8.1,M,-47.6,M,,*7B
$GNGSA,A,3,32,18,10,28,26,16,27,31,08,04,,,1.35,0.65,1.19*1A
$GNGSA,A,3,85,72,75,86,65,87,,,,,,,1.35,0.65,1.19*19
$GPGSV,5,1,17,02,03,331,36,04,07,225,12,08,23,303,29,10,13,023,45*7A
$GPGSV,5,2,17,16,24,217,36,18,29,113,31,23,01,061,,26,29,187,18*74
$GPGSV,5,3,17,27,55,275,37,28,60,110,38,31,53,168,30,32,35,007,34*70
$GPGSV,5,4,17,36,52,277,36,40,84,353,37,41,58,082,,49,32,274,*7D
$GPGSV,5,5,17,50,10,089,*4A
$GLGSV,3,1,10,65,28,273,37,66,05,230,44,71,00,016,30,72,27,337,30*6F
$GLGSV,3,2,10,74,14,111,07,75,20,162,08,76,02,215,11,85,40,137,30*62
$GLGSV,3,3,10,86,64,025,36,87,24,348,41*69
$GNGLL,0419.74531,S,05539.70065,E,131716.00,A,A*6F
$GNRMC,131717.00,A,0419.74528,S,05539.70060,E,0.006,,200525,,,A*7C
$GNVTG,,T,,M,0.006,N,0.012,K,A*38
$GNGGA,131717.00,0419.74528,S,05539.70060,E,1,12,0.68,8.1,M,-47.6,M,,*7A
$GNGSA,A,3,32,18,10,28,26,16,27,31,08,04,,,1.41,0.68,1.24*1A
$GNGSA,A,3,85,72,75,86,65,87,,,,,,,1.41,0.68,1.24*19
$GPGSV,5,1,17,02,03,331,38,04,07,225,11,08,23,303,27,10,13,023,45*79
$GPGSV,5,2,17,16,24,217,36,18,29,113,31,23,01,061,,26,29,187,18*74
$GPGSV,5,3,17,27,55,275,37,28,60,110,38,31,53,168,30,32,35,007,35*71
$GPGSV,5,4,17,36,52,277,37,40,84,353,34,41,58,082,,49,32,274,*7F
$GPGSV,5,5,17,50,10,089,*4A
$GLGSV,3,1,10,65,28,273,37,66,05,230,44,71,00,016,29,72,27,337,31*66
$GLGSV,3,2,10,74,14,111,08,75,20,162,09,76,02,215,11,85,40,137,30*6C
$GLGSV,3,3,10,86,64,025,36,87,24,348,40*68
$GNGLL,0419.74528,S,05539.70060,E,131717.00,A,A*63
$GNRMC,131718.00,A,0419.74526,S,05539.70056,E,0.009,,200525,,,A*77
$GNVTG,,T,,M,0.009,N,0.016,K,A*33
$GNGGA,131718.00,0419.74526,S,05539.70056,E,1,12,0.68,8.0,M,-47.6,M,,*7F
$GNGSA,A,3,32,18,10,28,26,16,27,31,08,04,,,1.48,0.68,1.31*17
$GNGSA,A,3,85,72,75,86,65,87,,,,,,,1.48,0.68,1.31*14
$GPGSV,5,1,17,02,03,331,37,04,07,225,15,08,23,303,25,10,13,023,45*70
$GPGSV,5,2,17,16,24,217,37,18,29,113,31,23,01,061,,26,29,187,19*74
$GPGSV,5,3,17,27,55,275,38,28,60,110,38,31,53,168,31,32,35,007,36*7C
$GPGSV,5,4,17,36,52,277,38,40,84,353,35,41,58,082,,49,32,274,*71
$GPGSV,5,5,17,50,10,089,*4A
$GLGSV,3,1,10,65,28,273,37,66,05,230,44,71,00,016,29,72,27,337,31*66
$GLGSV,3,2,10,74,14,111,08,75,20,162,11,76,02,215,13,85,40,137,30*67
$GLGSV,3,3,10,86,64,025,35,87,24,348,40*6B
$GNGLL,0419.74526,S,05539.70056,E,131718.00,A,A*67
$GNRMC,131719.00,A,0419.74527,S,05539.70054,E,0.048,,200525,,,A*70
$GNVTG,,T,,M,0.048,N,0.088,K,A*31
$GNGGA,131719.00,0419.74527,S,05539.70054,E,1,12,0.68,8.0,M,-47.6,M,,*7D
$GNGSA,A,3,32,18,10,28,26,16,27,31,08,04,,,1.48,0.68,1.31*17
$GNGSA,A,3,85,72,75,86,65,87,,,,,,,1.48,0.68,1.31*14
$GPGSV,5,1,17,02,03,331,37,04,07,225,15,08,23,303,23,10,13,023,45*76
$GPGSV,5,2,17,16,24,217,37,18,29,113,31,23,01,061,,26,29,187,19*74
$GPGSV,5,3,17,27,55,275,37,28,60,110,37,31,53,168,31,32,35,007,33*79
$GPGSV,5,4,17,36,52,277,38,40,84,353,37,41,58,082,,49,32,274,*73
$GPGSV,5,5,17,50,10,089,*4A
$GLGSV,3,1,10,65,28,273,37,66,05,230,44,71,00,016,30,72,27,337,31*6E
$GLGSV,3,2,10,74,14,111,10,75,20,162,13,76,02,215,14,85,40,137,30*6B
$GLGSV,3,3,10,86,64,025,35,87,24,348,40*6B
$GNGLL,0419.74527,S,05539.70054,E,131719.00,A,A*65
$GNRMC,131720.00,A,0419.74526,S,05539.70053,E,0.030,,200525,,,A*73
$GNVTG,,T,,M,0.030,N,0.056,K,A*3D
$GNGGA,131720.00,0419.74526,S,05539.70053,E,1,12,0.65,8.1,M,-47.6,M,,*7D
$GNGSA,A,3,32,18,10,28,26,16,27,31,08,04,,,1.35,0.65,1.19*1A
$GNGSA,A,3,85,72,75,86,65,87,,,,,,,1.35,0.65,1.19*19
$GPGSV,5,1,17,02,03,331,37,04,07,225,10,08,23,303,21,10,13,023,45*71
$GPGSV,5,2,17,16,24,217,36,18,29,113,32,23,01,061,,26,29,187,18*77
$GPGSV,5,3,17,27,55,275,37,28,60,110,38,31,53,168,32,32,35,007,36*70
$GPGSV,5,4,17,36,52,277,38,40,84,353,38,41,58,082,,49,32,274,*7C
$GPGSV,5,5,17,50,10,089,*4A
$GLGSV,3,1,10,65,28,273,37,66,05,230,44,71,00,017,30,72,27,337,31*6F
$GLGSV,3,2,10,74,14,111,07,75,20,162,11,76,02,215,09,85,40,137,29*6B
$GLGSV,3,3,10,86,64,025,38,87,24,348,41*67
$GNGLL,0419.74526,S,05539.70053,E,131720.00,A,A*69
$GNRMC,131721.00,A,0419.74525,S,05539.70053,E,0.036,,200525,,,A*77
$GNVTG,,T,,M,0.036,N,0.067,K,A*39
$GNGGA,131721.00,0419.74525,S,05539.70053,E,1,12,0.68,8.1,M,-47.6,M,,*72
$GNGSA,A,3,32,18,10,28,26,16,27,31,08,04,,,1.48,0.68,1.31*17
$GNGSA,A,3,85,72,75,86,65,87,,,,,,,1.48,0.68,1.31*14
$GPGSV,5,1,17,02,03,331,37,04,07,225,11,08,23,303,21,10,13,023,44*71
$GPGSV,5,2,17,16,24,217,37,18,29,113,32,23,01,061,,26,29,187,20*7D
$GPGSV,5,3,17,27,55,275,38,28,60,110,38,31,53,168,32,32,35,007,35*7C
$GPGSV,5,4,17,36,52,277,38,40,84,353,38,41,58,082,,49,32,274,*7C
$GPGSV,5,5,17,50,10,089,*4A
$GLGSV,3,1,10,65,28,273,37,66,05,230,44,71,00,017,31,72,27,337,32*6D
$GLGSV,3,2,10,74,14,111,12,75,20,162,10,76,02,215,12,85,40,137,30*6C
$GLGSV,3,3,10,86,64,025,37,87,24,348,41*68
$GNGLL,0419.74525,S,05539.70053,E,131721.00,A,A*6B
$GNRMC,131722.00,A,0419.74524,S,05539.70053,E,0.067,,200525,,,A*71
$GNVTG,,T,,M,0.067,N,0.124,K,A*3B
$GNGGA,131722.00,0419.74524,S,05539.70053,E,1,12,0.68,8.2,M,-47.6,M,,*73
$GNGSA,A,3,32,18,10,28,26,16,27,31,08,04,,,1.48,0.68,1.31*17
$GNGSA,A,3,85,72,75,86,65,87,,,,,,,1.48,0.68,1.31*14
$GPGSV,5,1,17,02,03,331,37,04,07,225,11,08,23,303,22,10,13,023,44*72
$GPGSV,5,2,17,16,24,217,38,18,29,113,32,23,01,061,,26,29,187,20*72
$GPGSV,5,3,17,27,55,275,39,28,60,110,37,31,53,168,32,32,35,007,39*7E
$GPGSV,5,4,17,36,52,277,38,40,84,353,37,41,58,082,,49,32,274,*73
$GPGSV,5,5,17,50,10,089,*4A
$GLGSV,3,1,10,65,28,273,37,66,05,230,44,71,00,017,31,72,27,337,34*6B
$GLGSV,3,2,10,74,14,111,08,75,20,162,11,76,02,215,12,85,40,137,30*66
$GLGSV,3,3,10,86,64,025,38,87,24,348,40*66
$GNGLL,0419.74524,S,05539.70053,E,131722.00,A,A*69
$GNRMC,131723.00,A,0419.74523,S,05539.70053,E,0.034,,200525,,,A*71
$GNVTG,,T,,M,0.034,N,0.063,K,A*3F
$GNGGA,131723.00,0419.74523,S,05539.70053,E,1,12,0.68,8.2,M,-47.6,M,,*75
$GNGSA,A,3,32,18,10,28,26,16,27,31,08,04,,,1.41,0.68,1.24*1A
$GNGSA,A,3,85,72,75,86,65,87,,,,,,,1.41,0.68,1.24*19
$GPGSV,5,1,17,02,03,331,37,04,07,225,20,08,23,303,28,10,13,023,46*78
$GPGSV,5,2,17,16,24,217,41,18,29,113,33,23,01,061,,26,29,187,24*79
$GPGSV,5,3,17,27,55,275,41,28,60,110,38,31,53,168,33,32,35,007,37*71
$GPGSV,5,4,17,36,52,277,40,40,84,353,37,41,58,082,,49,32,274,*7C
$GPGSV,5,5,17,50,10,089,*4A
$GLGSV,3,1,10,65,28,273,34,66,05,230,42,71,00,017,28,72,27,337,32*60
$GLGSV,3,2,10,74,14,110,07,75,20,162,11,76,02,215,12,85,40,137,26*6F
$GLGSV,3,3,10,86,64,025,35,87,24,348,37*6B
$GNGLL,0419.74523,S,05539.70053,E,131723.00,A,A*6F
$GNRMC,131724.00,A,0419.74522,S,05539.70053,E,0.085,,200525,,,A*7D
$GNVTG,,T,,M,0.085,N,0.157,K,A*33
$GNGGA,131724.00,0419.74522,S,05539.70053,E,1,12,0.68,8.2,M,-47.6,M,,*73
$GNGSA,A,3,32,18,10,28,26,16,27,31,08,04,,,1.48,0.68,1.31*17
$GNGSA,A,3,85,72,75,86,65,87,,,,,,,1.48,0.68,1.31*14
$GPGSV,5,1,17,02,03,331,37,04,07,225,15,08,23,303,30,10,13,023,46*77
$GPGSV,5,2,17,16,24,217,41,18,29,113,33,23,01,061,,26,29,187,23*7E
$GPGSV,5,3,17,27,55,275,40,28,60,110,38,31,53,168,34,32,35,007,40*77
$GPGSV,5,4,17,36,52,277,40,40,84,353,38,41,58,082,,49,32,274,*73
$GPGSV,5,5,17,50,10,089,*4A
$GLGSV,3,1,10,65,28,273,36,66,05,230,44,71,00,017,30,72,27,337,31*6E
$GLGSV,3,2,10,74,14,110,10,75,20,162,11,76,02,215,10,85,40,137,28*65
$GLGSV,3,3,10,86,64,025,35,87,24,348,38*64
$GNGLL,0419.74522,S,05539.70053,E,131724.00,A,A*69
$GNRMC,131725.00,A,0419.74520,S,05539.70051,E,0.030,,200525,,,A*72
$GNVTG,,T,,M,0.030,N,0.055,K,A*3E
$GNGGA,131725.00,0419.74520,S,05539.70051,E,1,12,0.70,8.2,M,-47.6,M,,*7B
$GNGSA,A,3,32,18,10,28,26,16,27,31,08,04,,,1.49,0.70,1.31*1F
$GNGSA,A,3,85,72,75,86,65,87,,,,,,,1.49,0.70,1.31*1C
$GPGSV,5,1,17,02,03,331,37,04,07,225,12,08,23,303,34,10,13,023,45*77
$GPGSV,5,2,17,16,24,217,40,18,29,113,33,23,01,061,,26,29,187,22*7E
$GPGSV,5,3,17,27,55,275,39,28,60,110,39,31,53,168,36,32,35,007,40*7A
$GPGSV,5,4,17,36,52,277,41,40,84,353,41,41,58,082,,49,32,274,*7C
$GPGSV,5,5,17,50,10,089,*4A
$GLGSV,3,1,10,65,28,273,36,66,05,230,43,71,00,017,33,72,27,337,30*6B
$GLGSV,3,2,10,74,14,110,13,75,20,162,14,76,03,215,10,85,40,137,28*62
$GLGSV,3,3,10,86,64,025,35,87,24,348,38*64
$GNGLL,0419.74520,S,05539.70051,E,131725.00,A,A*68
$GNRMC,131726.00,A,0419.74519,S,05539.70052,E,0.035,,200525,,,A*7D
$GNVTG,,T,,M,0.035,N,0.065,K,A*38
$GNGGA,131726.00,0419.74519,S,05539.70052,E,1,12,0.70,8.2,M,-47.6,M,,*71
$GNGSA,A,3,32,18,10,28,26,16,27,31,08,04,,,1.42,0.70,1.24*10
$GNGSA,A,3,85,72,75,86,65,87,,,,,,,1.42,0.70,1.24*13
$GPGSV,5,1,17,02,03,331,37,04,07,225,16,08,23,303,40,10,13,023,48*7D
$GPGSV,5,2,17,16,24,217,42,18,29,113,37,23,01,061,,26,29,187,20*7A
$GPGSV,5,3,17,27,55,275,40,28,60,110,40,31,53,168,36,32,35,007,45*7F
$GPGSV,5,4,17,36,52,277,42,40,84,353,44,41,58,082,,49,32,274,*7A
$GPGSV,5,5,17,50,10,089,*4A
$GLGSV,3,1,10,65,28,273,36,66,05,230,44,71,00,017,33,72,27,337,29*64
$GLGSV,3,2,10,74,14,110,11,75,20,162,17,76,03,215,13,85,40,137,27*6F
$GLGSV,3,3,10,86,64,025,36,87,24,348,39*66
$GNGLL,0419.74519,S,05539.70052,E,131726.00,A,A*62
$GNRMC,131727.00,A,0419.74519,S,05539.70055,E,0.028,,200525,,,A*77
$GNVTG,,T,,M,0.028,N,0.052,K,A*30
$GNGGA,131727.00,0419.74519,S,05539.70055,E,1,12,0.68,8.2,M,-47.6,M,,*7E
$GNGSA,A,3,32,18,10,28,26,16,27,31,08,04,,,1.48,0.68,1.31*17
$GNGSA,A,3,85,72,75,86,65,87,,,,,,,1.48,0.68,1.31*14
$GPGSV,5,1,17,02,03,331,37,04,07,225,17,08,23,303,39,10,13,023,48*72
$GPGSV,5,2,17,16,24,217,41,18,29,113,35,23,01,061,,26,29,187,21*7A
$GPGSV,5,3,17,27,55,275,40,28,60,110,40,31,53,168,38,32,35,007,42*76
$GPGSV,5,4,17,36,52,277,42,40,84,353,42,41,58,082,,49,32,274,*7C
$GPGSV,5,5,17,50,10,089,*4A
$GLGSV,3,1,10,65,28,273,36,66,05,230,44,71,00,017,33,72,27,337,28*65
$GLGSV,3,2,10,74,14,110,11,75,20,162,13,76,03,215,11,85,40,137,26*68
$GLGSV,3,3,10,86,64,025,36,87,24,348,39*66
$GNGLL,0419.74519,S,05539.70055,E,131727.00,A,A*64
$GNRMC,131728.00,A,0419.74519,S,05539.70059,E,0.066,,200525,,,A*7E
$GNVTG,,T,,M,0.066,N,0.122,K,A*3C
$GNGGA,131728.00,0419.74519,S,05539.70059,E,1,12,0.68,8.3,M,-47.6,M,,*7C
$GNGSA,A,3,32,18,10,28,26,16,27,31,08,04,,,1.48,0.68,1.31*17
$GNGSA,A,3,85,72,75,86,65,87,,,,,,,1.48,0.68,1.31*14
$GPGSV,5,1,17,02,03,331,37,04,07,225,21,08,23,303,40,10,13,023,48*79
$GPGSV,5,2,17,16,24,217,43,18,29,113,35,23,01,061,,26,29,187,21*78
$GPGSV,5,3,17,27,55,275,41,28,60,110,39,31,53,168,36,32,35,007,42*77
$GPGSV,5,4,17,36,52,277,42,40,84,353,41,41,58,082,,49,32,274,*7F
$GPGSV,5,5,17,50,10,089,*4A
$GLGSV,3,1,10,65,28,273,36,66,05,230,45,71,00,017,34,72,27,337,26*6D
$GLGSV,3,2,10,74,14,110,14,75,20,162,17,76,03,215,13,85,40,137,27*6A
$GLGSV,3,3,10,86,64,025,38,87,24,348,41*67
$GNGLL,0419.74519,S,05539.70059,E,131728.00,A,A*67
$GNRMC,131729.00,A,0419.74518,S,05539.70060,E,0.041,,200525,,,A*71
$GNVTG,,T,,M,0.041,N,0.076,K,A*39
$GNGGA,131729.00,0419.74518,S,05539.70060,E,1,12,0.68,8.3,M,-47.6,M,,*76
$GNGSA,A,3,32,18,10,28,26,16,27,31,08,,,,1.48,0.68,1.31*13
$GNGSA,A,3,85,72,75,86,65,87,,,,,,,1.48,0.68,1.31*14
$GPGSV,5,1,17,02,03,331,38,04,07,225,12,08,23,303,41,10,13,023,46*79
$GPGSV,5,2,17,16,24,217,42,18,29,113,34,23,01,061,,26,29,187,20*79
$GPGSV,5,3,17,27,55,275,39,28,60,110,39,31,53,168,35,32,35,007,44*7D
$GPGSV,5,4,17,36,52,277,41,40,84,353,42,41,58,082,,49,32,274,*7F
$GPGSV,5,5,17,50,10,089,*4A
$GLGSV,3,1,10,65,28,273,36,66,05,230,45,71,00,017,33,72,27,337,25*69
$GLGSV,3,2,10,74,14,110,12,75,20,162,14,76,03,215,10,85,40,137,27*6C
$GLGSV,3,3,10,86,64,025,39,87,24,348,41*66
$GNGLL,0419.74518,S,05539.70060,E,131729.00,A,A*6D
$GNRMC,131730.00,A,0419.74517,S,05539.70060,E,0.011,,200525,,,A*73
$GNVTG,,T,,M,0.011,N,0.021,K,A*3E
$GNGGA,131730.00,0419.74517,S,05539.70060,E,1,12,0.68,8.4,M,-47.6,M,,*76
$GNGSA,A,3,32,18,10,28,26,16,27,31,08,,,,1.48,0.68,1.31*13
$GNGSA,A,3,85,72,75,86,65,87,,,,,,,1.48,0.68,1.31*14
$GPGSV,5,1,17,02,03,331,41,04,07,225,12,08,23,303,39,10,13,023,47*79
$GPGSV,5,2,17,16,24,217,40,18,29,113,34,23,01,061,,26,29,187,19*71
$GPGSV,5,3,17,27,55,275,40,28,60,110,38,31,53,168,36,32,35,007,45*70
$GPGSV,5,4,17,36,52,277,41,40,84,353,44,41,58,082,,49,32,274,*79
$GPGSV,5,5,17,50,10,089,*4A
$GLGSV,3,1,10,65,28,273,37,66,05,230,45,71,00,017,34,72,27,337,23*69
$GLGSV,3,2,10,74,14,110,11,75,20,162,17,76,03,215,12,85,40,137,26*6F
$GLGSV,3,3,10,86,64,025,39,87,24,348,41*66
$GNGLL,0419.74517,S,05539.70060,E,131730.00,A,A*6A
$GNRMC,131731.00,A,0419.74515,S,05539.70061,E,0.031,,200525,,,A*73
$GNVTG,,T,,M,0.031,N,0.058,K,A*32
$GNGGA,131731.00,0419.74515,S,05539.70061,E,1,12,0.68,8.4,M,-47.6,M,,*74
$GNGSA,A,3,32,18,10,28,26,16,27,31,08,04,,,1.48,0.68,1.31*17
$GNGSA,A,3,85,72,75,86,65,87,,,,,,,1.48,0.68,1.31*14
$GPGSV,5,1,17,02,03,331,41,04,07,225,16,08,23,303,39,10,13,023,46*7C
$GPGSV,5,2,17,16,24,217,41,18,29,113,35,23,01,061,,26,29,187,21*7A
$GPGSV,5,3,17,27,55,275,38,28,60,110,39,31,53,168,35,32,35,007,46*7E
$GPGSV,5,4,17,36,52,277,41,40,84,353,42,41,58,082,,49,32,274,*7F
$GPGSV,5,5,17,50,10,089,*4A
$GLGSV,3,1,10,65,28,273,37,66,05,230,45,71,00,017,34,72,27,337,23*69
$GLGSV,3,2,10,74,14,110,13,75,20,162,15,76,03,215,14,85,40,137,27*68
$GLGSV,3,3,10,86,64,025,39,87,24,348,40*67
$GNGLL,0419.74515,S,05539.70061,E,131731.00,A,A*68
$GNRMC,131732.00,A,0419.74514,S,05539.70067,E,0.288,,200525,,,A*77
$GNVTG,,T,,M,0.288,N,0.534,K,A*3D
$GNGGA,131732.00,0419.74514,S,05539.70067,E,1,12,0.65,8.3,M,-47.6,M,,*7A
$GNGSA,A,3,32,18,10,28,26,16,27,31,08,04,,,1.35,0.65,1.19*1A
$GNGSA,A,3,85,72,75,86,65,87,,,,,,,1.35,0.65,1.19*19
$GPGSV,5,1,17,02,03,331,39,04,07,225,19,08,23,303,37,10,13,023,47*73
$GPGSV,5,2,17,16,24,217,34,18,29,113,29,23,01,061,,26,29,187,21*75
$GPGSV,5,3,17,27,55,275,41,28,60,110,37,31,53,168,31,32,35,007,40*7C
$GPGSV,5,4,17,36,52,277,38,40,84,353,40,41,58,082,,49,32,274,*73
$GPGSV,5,5,17,50,10,089,*4A
$GLGSV,3,1,10,65,28,273,33,66,05,230,39,71,00,017,37,72,27,337,32*65
$GLGSV,3,2,10,74,14,110,14,75,20,162,17,76,03,215,14,85,40,137,26*6C
$GLGSV,3,3,10,86,64,025,35,87,24,348,37*6B
$GNGLL,0419.74514,S,05539.70067,E,131732.00,A,A*6C
$GNRMC,131733.00,A,0419.74516,S,05539.70069,E,0.166,,200525,,,A*79
$GNVTG,,T,,M,0.166,N,0.307,K,A*38
$GNGGA,131733.00,0419.74516,S,05539.70069,E,1,12,0.65,8.3,M,-47.6,M,,*77
$GNGSA,A,3,32,18,10,28,26,16,27,31,08,04,,,1.35,0.65,1.19*1A
$GNGSA,A,3,85,72,75,86,65,87,,,,,,,1.35,0.65,1.19*19
$GPGSV,5,1,17,02,03,331,38,04,07,225,22,08,23,303,39,10,13,023,46*75
$GPGSV,5,2,17,16,24,217,25,18,29,113,30,23,01,061,,26,29,187,22*7E
$GPGSV,5,3,17,27,55,275,43,28,60,110,38,31,53,168,29,32,35,007,35*7A
$GPGSV,5,4,17,36,52,277,42,40,84,353,38,41,58,082,,49,32,274,*71
$GPGSV,5,5,17,50,10,089,*4A
$GLGSV,3,1,10,65,28,273,33,66,05,230,37,71,00,017,36,72,27,337,33*6B
$GLGSV,3,2,10,74,14,110,14,75,20,162,13,76,03,215,13,85,40,137,33*6B
$GLGSV,3,3,10,86,64,025,38,87,24,348,32*63
$GNGLL,0419.74516,S,05539.70069,E,131733.00,A,A*61
$GNRMC,131734.00,A,0419.74518,S,05539.70060,E,0.340,,200525,,,A*7F
$GNVTG,,T,,M,0.340,N,0.630,K,A*3F
$GNGGA,131734.00,0419.74518,S,05539.70060,E,1,12,0.67,8.3,M,-47.6,M,,*75
$GNGSA,A,3,32,18,10,28,26,16,27,31,08,04,,,1.36,0.67,1.19*1B
$GNGSA,A,3,85,72,75,86,65,87,,,,,,,1.36,0.67,1.19*18
$GPGSV,5,1,17,02,03,331,44,04,07,225,23,08,23,303,40,10,13,023,48*7F
$GPGSV,5,2,17,16,24,217,27,18,29,113,29,23,01,061,,26,29,187,22*74
$GPGSV,5,3,17,27,55,275,41,28,60,110,34,31,53,168,37,32,35,007,49*70
$GPGSV,5,4,17,36,52,277,38,40,84,353,36,41,58,082,,49,32,274,*72
$GPGSV,5,5,17,50,10,089,*4A
$GLGSV,3,1,10,65,28,273,38,66,05,230,43,71,00,017,37,72,27,337,33*62
$GLGSV,3,2,10,74,14,110,12,75,20,162,15,76,03,215,15,85,40,138,25*65
$GLGSV,3,3,10,86,64,025,31,87,24,348,42*6D
$GNGLL,0419.74518,S,05539.70060,E,131734.00,A,A*61
$GNRMC,131735.00,A,0419.74518,S,05539.70057,E,0.012,,200525,,,A*7E
$GNVTG,,T,,M,0.012,N,0.022,K,A*3E
$GNGGA,131735.00,0419.74518,S,05539.70057,E,1,12,0.65,8.2,M,-47.6,M,,*73
$GNGSA,A,3,32,18,10,28,26,16,27,31,08,04,,,1.35,0.65,1.19*1A
$GNGSA,A,3,85,72,75,86,65,87,,,,,,,1.35,0.65,1.19*19
$GPGSV,5,1,17,02,03,331,40,04,07,225,23,08,23,303,34,10,13,023,45*75
$GPGSV,5,2,17,16,24,217,27,18,29,113,29,23,01,061,,26,29,187,21*77
$GPGSV,5,3,17,27,55,275,40,28,60,110,34,31,53,168,39,32,35,007,48*7E
$GPGSV,5,4,17,36,52,277,39,40,84,353,41,41,58,082,,49,32,274,*73
$GPGSV,5,5,17,50,10,089,*4A
$GLGSV,3,1,10,65,28,273,38,66,05,230,43,71,00,017,37,72,27,337,33*62
$GLGSV,3,2,10,74,14,110,10,75,20,162,13,76,03,215,11,85,40,138,22*62
$GLGSV,3,3,10,86,65,026,31,87,24,348,41*6C
$GNGLL,0419.74518,S,05539.70057,E,131735.00,A,A*64
$GNRMC,131736.00,A,0419.74519,S,05539.70057,E,0.039,,200525,,,A*75
$GNVTG,,T,,M,0.039,N,0.073,K,A*33
$GNGGA,131736.00,0419.74519,S,05539.70057,E,1,12,0.65,8.0,M,-47.6,M,,*73
$GNGSA,A,3,32,18,10,28,26,16,27,31,08,04,,,1.35,0.65,1.19*1A
$GNGSA,A,3,85,72,75,86,65,87,,,,,,,1.35,0.65,1.19*19
$GPGSV,5,1,17,02,03,331,40,04,07,225,22,08,23,303,34,10,13,023,47*76
$GPGSV,5,2,17,16,24,217,30,18,29,113,28,23,01,061,,26,29,187,22*73
$GPGSV,5,3,17,27,55,275,40,28,60,110,35,31,53,168,39,32,35,007,48*7F
$GPGSV,5,4,17,36,52,277,39,40,84,353,43,41,58,082,39,49,32,274,*7B
$GPGSV,5,5,17,50,10,089,*4A
$GLGSV,3,1,10,65,28,273,37,66,05,230,42,71,00,017,35,72,27,337,32*6F
$GLGSV,3,2,10,74,14,110,14,75,20,162,16,76,03,215,14,85,40,138,20*64
$GLGSV,3,3,10,86,65,026,36,87,24,348,40*6A
$GNGLL,0419.74519,S,05539.70057,E,131736.00,A,A*66
$GNRMC,131737.00,A,0419.74521,S,05539.70057,E,0.058,,200525,,,A*78
$GNVTG,,T,,M,0.058,N,0.108,K,A*39
$GNGGA,131737.00,0419.74521,S,05539.70057,E,1,12,0.65,7.9,M,-47.6,M,,*7F
$GNGSA,A,3,32,18,10,28,26,16,27,31,08,04,,,1.35,0.65,1.19*1A
$GNGSA,A,3,85,72,75,86,65,87,,,,,,,1.35,0.65,1.19*19
$GPGSV,5,1,17,02,03,331,39,04,07,225,21,08,23,303,38,10,13,023,46*76
$GPGSV,5,2,17,16,24,217,32,18,29,113,29,23,01,061,,26,29,187,22*70
$GPGSV,5,3,17,27,55,275,40,28,60,110,36,31,53,168,39,32,35,007,48*7C
$GPGSV,5,4,17,36,52,277,39,40,84,353,43,41,58,082,39,49,32,274,*7B
$GPGSV,5,5,17,50,10,089,*4A
$GLGSV,3,1,10,65,28,273,36,66,05,230,42,71,00,017,34,72,27,337,31*6C
$GLGSV,3,2,10,74,14,110,11,75,20,162,16,76,03,215,13,85,40,138,19*6C
$GLGSV,3,3,10,86,65,026,36,87,24,348,40*6A
$GNGLL,0419.74521,S,05539.70057,E,131737.00,A,A*6C
$GNRMC,131738.00,A,0419.74525,S,05539.70059,E,0.106,,200525,,,A*77
$GNVTG,,T,,M,0.106,N,0.196,K,A*34
$GNGGA,131738.00,0419.74525,S,05539.70059,E,1,12,0.68,7.8,M,-47.6,M,,*76
$GNGSA,A,3,32,18,10,28,26,16,27,31,08,04,,,1.41,0.68,1.24*1A
$GNGSA,A,3,85,72,75,86,65,87,,,,,,,1.41,0.68,1.24*19
$GPGSV,5,1,17,02,03,331,38,04,07,225,19,08,23,303,38,10,13,023,46*7C
$GPGSV,5,2,17,16,24,217,31,18,29,113,28,23,01,061,,26,29,187,20*70
$GPGSV,5,3,17,27,55,275,40,28,60,110,35,31,53,168,39,32,35,007,49*7E
$GPGSV,5,4,17,36,52,277,39,40,84,353,41,41,58,082,39,49,32,274,*79
$GPGSV,5,5,17,50,10,089,*4A
$GLGSV,3,1,10,65,28,273,36,66,05,230,42,71,00,017,33,72,27,337,30*6A
$GLGSV,3,2,10,74,14,110,13,75,20,162,14,76,03,215,15,85,40,138,20*60
$GLGSV,3,3,10,86,65,026,32,87,24,348,39*60
$GNGLL,0419.74525,S,05539.70059,E,131738.00,A,A*69
$GNRMC,131739.00,A,0419.74526,S,05539.70057,E,0.146,,200525,,,A*7F
$GNVTG,,T,,M,0.146,N,0.271,K,A*3A
$GNGGA,131739.00,0419.74526,S,05539.70057,E,1,12,0.65,7.7,M,-47.6,M,,*78
$GNGSA,A,3,32,18,10,28,26,16,27,31,08,04,,,1.35,0.65,1.19*1A
$GNGSA,A,3,85,72,75,86,65,87,,,,,,,1.35,0.65,1.19*19
$GPGSV,5,1,17,02,03,332,38,04,07,225,19,08,23,303,38,10,13,023,45*7C
$GPGSV,5,2,17,16,24,217,38,18,29,113,28,23,01,061,,26,29,187,21*78
$GPGSV,5,3,17,27,55,275,41,28,60,110,35,31,53,168,39,32,35,007,48*7E
$GPGSV,5,4,17,36,52,277,38,40,84,353,40,41,58,082,39,49,32,274,*79
$GPGSV,5,5,17,50,10,089,*4A
$GLGSV,3,1,10,65,28,273,36,66,05,230,42,71,00,017,33,72,27,337,30*6A
$GLGSV,3,2,10,74,14,110,14,75,20,162,12,76,03,215,12,85,40,138,22*64
$GLGSV,3,3,10,86,65,026,32,87,24,348,40*6E
$GNGLL,0419.74526,S,05539.70057,E,131739.00,A,A*65
$GNRMC,131740.00,A,0419.74525,S,05539.70058,E,0.105,,200525,,,A*7A
$GNVTG,,T,,M,0.105,N,0.194,K,A*35
$GNGGA,131740.00,0419.74525,S,05539.70058,E,1,12,0.65,7.6,M,-47.6,M,,*7B
$GNGSA,A,3,32,18,10,28,26,16,27,31,08,04,,,1.35,0.65,1.19*1A
$GNGSA,A,3,85,72,75,86,65,87,,,,,,,1.35,0.65,1.19*19
$GPGSV,5,1,17,02,03,332,34,04,07,225,19,08,23,303,33,10,13,023,46*78
$GPGSV,5,2,17,16,24,217,38,18,29,113,30,23,01,061,,26,29,187,21*71
$GPGSV,5,3,17,27,55,275,41,28,60,110,36,31,53,168,34,32,35,007,36*79
$GPGSV,5,4,17,36,52,277,38,40,84,353,41,41,58,082,35,49,32,274,*74
$GPGSV,5,5,17,50,10,089,*4A
$GLGSV,3,1,10,65,28,273,36,66,05,230,43,71,00,017,32,72,27,337,32*68
$GLGSV,3,2,10,74,14,110,13,75,20,162,13,76,03,215,13,85,40,138,23*62
$GLGSV,3,3,10,86,65,026,26,87,24,348,42*69
$GNGLL,0419.74525,S,05539.70058,E,131740.00,A,A*67
$GNRMC,131741.00,A,0419.74529,S,05539.70061,E,0.013,,200525,,,A*7B
$GNVTG,,T,,M,0.013,N,0.025,K,A*38
$GNGGA,131741.00,0419.74529,S,05539.70061,E,1,12,0.65,7.4,M,-47.6,M,,*7E
$GNGSA,A,3,32,18,10,28,26,16,27,31,08,04,,,1.35,0.65,1.19*1A
$GNGSA,A,3,85,72,75,86,65,87,,,,,,,1.35,0.65,1.19*19
$GPGSV,5,1,17,02,03,332,29,04,07,226,18,08,23,303,29,10,13,023,45*7E
$GPGSV,5,2,17,16,24,217,36,18,29,113,30,23,01,061,,26,29,187,20*7E
$GPGSV,5,3,17,27,55,275,40,28,60,110,36,31,53,168,29,32,35,007,39*7B
$GPGSV,5,4,17,36,52,277,36,40,84,353,42,41,58,082,33,49,32,274,*7F
$GPGSV,5,5,17,50,10,089,*4A
$GLGSV,3,1,10,65,28,273,37,66,05,230,41,71,00,017,28,72,27,337,32*60
$GLGSV,3,2,10,74,14,110,11,75,20,162,19,76,03,215,09,85,40,138,20*62
$GLGSV,3,3,10,86,65,026,24,87,24,348,41*68
$GNGLL,0419.74529,S,05539.70061,E,131741.00,A,A*60
$GNRMC,131742.00,A,0419.74530,S,05539.70062,E,0.199,,200525,,,D*75
$GNVTG,,T,,M,0.199,N,0.369,K,D*35
$GNGGA,131742.00,0419.74530,S,05539.70062,E,2,12,0.65,7.3,M,-47.6,M,,0000*72
$GNGSA,A,3,32,18,10,28,26,16,27,31,08,04,,,1.35,0.65,1.19*1A
$GNGSA,A,3,85,72,75,86,65,87,,,,,,,1.35,0.65,1.19*19
$GPGSV,5,1,17,02,03,332,30,04,07,226,17,08,23,303,19,10,13,023,43*7C
$GPGSV,5,2,17,16,24,217,35,18,29,113,30,23,01,061,,26,29,187,18*76
$GPGSV,5,3,17,27,55,275,38,28,60,110,35,31,53,168,29,32,35,007,33*7D
$GPGSV,5,4,17,36,52,277,35,40,84,353,40,41,58,082,32,49,32,274,*7F
$GPGSV,5,5,17,50,10,089,*4A
$GLGSV,3,1,10,65,28,273,36,66,05,230,41,71,00,017,28,72,27,337,32*61
$GLGSV,3,2,10,74,14,110,09,75,20,162,11,76,03,215,11,85,40,138,21*6B
$GLGSV,3,3,10,86,65,026,27,87,24,348,40*6A
$GNGLL,0419.74530,S,05539.70062,E,131742.00,A,D*6D
$GNRMC,131743.00,A,0419.74533,S,05539.70066,E,0.087,,200525,,,D*7D
$GNVTG,,T,,M,0.087,N,0.162,K,D*32
$GNGGA,131743.00,0419.74533,S,05539.70066,E,2,12,0.65,7.2,M,-47.6,M,,0000*75
$GNGSA,A,3,32,18,10,28,26,16,27,31,08,04,,,1.35,0.65,1.19*1A
$GNGSA,A,3,85,72,75,86,65,87,,,,,,,1.35,0.65,1.19*19
$GPGSV,5,1,17,02,03,332,30,04,07,226,17,08,23,303,22,10,13,023,43*74
$GPGSV,5,2,17,16,24,217,34,18,29,113,31,23,01,061,,26,29,187,15*7B
$GPGSV,5,3,17,27,55,275,39,28,60,110,35,31,53,168,28,32,35,007,36*78
$GPGSV,5,4,17,36,52,277,36,40,84,353,40,41,58,082,31,49,32,274,*7F
$GPGSV,5,5,17,50,10,089,*4A
$GLGSV,3,1,10,65,28,273,36,66,05,230,42,71,00,017,29,72,27,337,34*65
$GLGSV,3,2,10,74,14,110,08,75,20,162,10,76,03,215,08,85,40,138,21*63
$GLGSV,3,3,10,86,65,026,26,87,24,348,40*6B
$GNGLL,0419.74533,S,05539.70066,E,131743.00,A,D*6B
$GNRMC,131744.00,A,0419.74536,S,05539.70071,E,0.026,,200525,,,D*72
$GNVTG,,T,,M,0.026,N,0.048,K,D*30
$GNGGA,131744.00,0419.74536,S,05539.70071,E,2,12,0.65,7.0,M,-47.6,M,,0000*73
$GNGSA,A,3,32,18,10,28,26,16,27,31,08,04,,,1.35,0.65,1.19*1A
$GNGSA,A,3,85,72,75,86,65,87,,,,,,,1.35,0.65,1.19*19
$GPGSV,5,1,17,02,03,332,32,04,07,226,18,08,23,303,22,10,13,023,43*79
$GPGSV,5,2,17,16,24,217,36,18,29,113,32,23,01,061,,26,29,187,13*7C
$GPGSV,5,3,17,27,55,275,40,28,60,110,36,31,53,168,27,32,35,007,39*75
$GPGSV,5,4,17,36,52,277,38,40,84,353,38,41,58,082,30,49,32,274,*7F
$GPGSV,5,5,17,50,10,089,*4A
$GLGSV,3,1,10,65,28,273,36,66,05,230,42,71,00,017,30,72,27,337,35*6C
$GLGSV,3,2,10,74,14,110,05,75,20,162,11,76,03,215,07,85,40,138,22*63
$GLGSV,3,3,10,86,65,026,26,87,24,348,40*6B
$GNGLL,0419.74536,S,05539.70071,E,131744.00,A,D*6F
$GNRMC,131745.00,A,0419.74537,S,05539.70072,E,0.019,,200525,,,D*7D
$GNVTG,,T,,M,0.019,N,0.035,K,D*36
$GNGGA,131745.00,0419.74537,S,05539.70072,E,2,12,0.68,6.9,M,-47.6,M,,0000*75
$GNGSA,A,3,32,18,10,28,26,16,27,31,08,04,,,1.37,0.68,1.19*15
$GNGSA,A,3,85,72,75,86,65,87,,,,,,,1.37,0.68,1.19*16
$GPGSV,5,1,17,02,03,332,30,04,07,226,20,08,23,303,31,10,13,023,43*72
$GPGSV,5,2,17,16,24,217,36,18,29,113,31,23,01,061,,26,29,187,13*7F
$GPGSV,5,3,17,27,55,275,38,28,60,110,36,31,53,168,26,32,35,007,37*75
$GPGSV,5,4,17,36,52,277,37,40,84,353,40,41,58,082,30,49,32,274,*7F
$GPGSV,5,5,17,50,10,089,*4A
$GLGSV,3,1,10,65,28,273,36,66,05,230,42,71,00,017,28,72,27,337,34*64
$GLGSV,3,2,10,74,14,110,09,75,20,162,11,76,03,215,10,85,40,138,23*68
$GLGSV,3,3,10,86,65,026,25,87,24,348,40*68
$GNGLL,0419.74537,S,05539.70072,E,131745.00,A,D*6C
$GNRMC,131746.00,A,0419.74542,S,05539.70074,E,0.010,,200525,,,D*73
$GNVTG,,T,,M,0.010,N,0.019,K,D*31
$GNGGA,131746.00,0419.74542,S,05539.70074,E,2,12,0.64,6.7,M,-47.6,M,,0000*70
$GNGSA,A,3,32,18,10,28,26,16,27,31,08,04,,,1.28,0.64,1.11*1F
$GNGSA,A,3,85,72,75,86,65,87,66,,,,,,1.28,0.64,1.11*1C
$GPGSV,5,1,17,02,03,332,31,04,07,226,20,08,23,303,30,10,13,023,44*75
$GPGSV,5,2,17,16,24,217,36,18,29,113,31,23,01,061,,26,29,187,14*78
$GPGSV,5,3,17,27,55,275,39,28,60,110,36,31,53,168,25,32,35,007,37*77
$GPGSV,5,4,17,36,52,277,38,40,84,353,39,41,58,082,28,49,32,274,*77
$GPGSV,5,5,17,50,10,089,*4A
$GLGSV,3,1,10,65,28,273,38,66,05,230,43,71,00,017,27,72,27,337,34*64
$GLGSV,3,2,10,74,14,110,09,75,20,162,13,76,03,215,11,85,40,138,23*6B
$GLGSV,3,3,10,86,65,026,22,87,24,348,41*6E
$GNGLL,0419.74542,S,05539.70074,E,131746.00,A,D*6B
$GNRMC,131747.00,A,0419.74547,S,05539.70078,E,0.057,,200525,,,D*78
$GNVTG,,T,,M,0.057,N,0.106,K,D*3D
$GNGGA,131747.00,0419.74547,S,05539.70078,E,2,12,0.64,6.4,M,-47.6,M,,0000*7B
$GNGSA,A,3,32,18,10,28,26,16,27,31,08,04,,,1.28,0.64,1.11*1F
$GNGSA,A,3,85,72,75,86,65,87,66,,,,,,1.28,0.64,1.11*1C
$GPGSV,5,1,17,02,03,332,32,04,07,226,20,08,23,303,30,10,13,023,43*71
$GPGSV,5,2,17,16,24,217,35,18,29,113,29,23,01,061,,26,29,187,13*75
$GPGSV,5,3,17,27,55,275,39,28,60,110,36,31,53,168,25,32,35,007,36*76
$GPGSV,5,4,17,36,52,277,37,40,84,353,39,41,58,082,27,49,32,274,*77
$GPGSV,5,5,17,50,10,089,*4A
$GLGSV,3,1,10,65,28,273,37,66,05,230,42,71,00,017,25,72,27,337,34*68
$GLGSV,3,2,10,74,14,110,07,75,20,162,14,76,03,215,09,85,40,138,22*6A
$GLGSV,3,3,10,86,65,026,26,87,24,348,40*6B
$GNGLL,0419.74547,S,05539.70078,E,131747.00,A,D*63
$GNRMC,131748.00,A,0419.74551,S,05539.70080,E,0.026,,200525,,,D*71
$GNVTG,,T,,M,0.026,N,0.048,K,D*30
$GNGGA,131748.00,0419.74551,S,05539.70080,E,2,12,0.64,6.2,M,-47.6,M,,0000*72
$GNGSA,A,3,32,18,10,28,26,16,27,08,04,,,,1.34,0.64,1.18*19
$GNGSA,A,3,85,72,75,86,65,87,66,,,,,,1.34,0.64,1.18*18
$GPGSV,5,1,17,02,03,332,32,04,07,226,19,08,23,303,31,10,13,023,44*7D
$GPGSV,5,2,17,16,24,217,35,18,29,113,30,23,01,061,,26,29,187,14*7A
$GPGSV,5,3,17,27,55,275,38,28,60,110,37,31,53,168,,32,35,007,35*72
$GPGSV,5,4,17,36,52,277,37,40,84,353,39,41,58,082,27,49,32,274,*77
$GPGSV,5,5,17,50,10,089,*4A
$GLGSV,3,1,10,65,28,273,36,66,05,230,42,71,00,017,24,72,27,337,34*68
$GLGSV,3,2,10,74,14,110,06,75,20,162,09,76,03,215,07,85,40,138,22*69
$GLGSV,3,3,10,86,65,026,26,87,24,348,40*6B
$GNGLL,0419.74551,S,05539.70080,E,131748.00,A,D*6C
$GNRMC,131749.00,A,0419.74556,S,05539.70082,E,0.011,,200525,,,D*71
$GNVTG,,T,,M,0.011,N,0.021,K,D*3B
$GNGGA,131749.00,0419.74556,S,05539.70082,E,2,12,0.64,6.0,M,-47.6,M,,0000*74
$GNGSA,A,3,32,18,10,28,26,16,27,08,04,,,,1.34,0.64,1.18*19
$GNGSA,A,3,85,72,75,86,65,87,66,,,,,,1.34,0.64,1.18*18
$GPGSV,5,1,17,02,03,332,33,04,07,226,19,08,23,303,31,10,13,023,44*7C
$GPGSV,5,2,17,16,24,217,35,18,29,113,30,23,01,061,,26,29,187,15*7B
$GPGSV,5,3,17,27,55,275,37,28,60,110,36,31,53,168,,32,35,007,34*7D
$GPGSV,5,4,17,36,52,277,36,40,84,353,40,41,58,082,27,49,32,274,*78
$GPGSV,5,5,17,50,10,089,*4A
$GLGSV,3,1,10,65,28,273,36,66,05,230,42,71,00,017,22,72,27,337,33*69
$GLGSV,3,2,10,74,14,110,10,75,20,162,16,76,03,215,11,85,40,138,23*66
$GLGSV,3,3,10,86,65,026,25,87,24,348,39*66
$GNGLL,0419.74556,S,05539.70082,E,131749.00,A,D*68
$GNRMC,131750.00,A,0419.74560,S,05539.70084,E,0.060,,200525,,,D*7C
$GNVTG,,T,,M,0.060,N,0.110,K,D*3E
$GNGGA,131750.00,0419.74560,S,05539.70084,E,2,12,0.64,5.9,M,-47.6,M,,0000*75
$GNGSA,A,3,32,18,10,28,26,16,27,08,04,,,,1.34,0.64,1.18*19
$GNGSA,A,3,85,72,75,86,65,87,66,,,,,,1.34,0.64,1.18*18
$GPGSV,5,1,17,02,03,332,34,04,07,226,18,08,23,303,32,10,13,023,44*79
$GPGSV,5,2,17,16,24,217,36,18,29,113,30,23,01,061,,26,29,187,17*7A
$GPGSV,5,3,17,27,55,275,37,28,60,110,37,31,53,168,,32,35,007,34*7C
$GPGSV,5,4,17,36,52,277,35,40,84,353,40,41,58,082,27,49,32,274,*7B
$GPGSV,5,5,17,50,10,089,*4A
$GLGSV,3,1,10,65,28,273,37,66,05,230,44,71,00,017,24,72,27,337,32*69
$GLGSV,3,2,10,74,14,110,09,75,20,162,13,76,03,215,10,85,40,138,23*6A
$GLGSV,3,3,10,86,65,026,26,87,24,348,40*6B
$GNGLL,0419.74560,S,05539.70084,E,131750.00,A,D*63
$GNRMC,131751.00,A,0419.74564,S,05539.70086,E,0.044,,200525,,,D*7D
$GNVTG,,T,,M,0.044,N,0.082,K,D*32
$GNGGA,131751.00,0419.74564,S,05539.70086,E,2,12,0.64,5.7,M,-47.6,M,,0000*7C
$GNGSA,A,3,32,18,10,28,26,16,27,08,04,,,,1.34,0.64,1.18*19
$GNGSA,A,3,85,72,75,86,65,87,66,,,,,,1.34,0.64,1.18*18
$GPGSV,5,1,17,02,03,332,33,04,07,226,19,08,23,303,35,10,13,023,44*78
$GPGSV,5,2,17,16,24,217,38,18,29,113,28,23,01,061,,26,29,187,21*78
$GPGSV,5,3,17,27,55,275,36,28,60,110,37,31,53,168,,32,35,007,37*7E
$GPGSV,5,4,17,36,52,277,35,40,84,353,40,41,58,082,28,49,32,274,*74
$GPGSV,5,5,17,50,10,089,*4A
$GLGSV,3,1,10,65,28,273,36,66,05,230,41,71,00,017,26,72,27,337,32*6F
$GLGSV,3,2,10,74,14,110,08,75,20,162,19,76,03,215,09,85,40,138,23*69
$GLGSV,3,3,10,86,65,026,25,87,24,348,40*68
$GNGLL,0419.74564,S,05539.70086,E,131751.00,A,D*64
$GNRMC,131752.00,A,0419.74566,S,05539.70088,E,0.049,,200525,,,D*7F
$GNVTG,,T,,M,0.049,N,0.092,K,D*3E
$GNGGA,131752.00,0419.74566,S,05539.70088,E,2,12,0.64,5.6,M,-47.6,M,,0000*72
$GNGSA,A,3,32,18,10,28,26,16,27,08,04,,,,1.34,0.64,1.18*19
$GNGSA,A,3,85,72,75,86,65,87,66,,,,,,1.34,0.64,1.18*18
$GPGSV,5,1,17,02,03,332,31,04,07,226,19,08,23,303,36,10,13,023,46*7B
$GPGSV,5,2,17,16,24,217,37,18,29,113,27,23,01,061,,26,29,187,24*7D
$GPGSV,5,3,17,27,55,275,36,28,60,110,37,31,53,168,,32,35,007,37*7E
$GPGSV,5,4,17,36,52,277,34,40,84,353,41,41,58,082,28,49,32,274,*74
$GPGSV,5,5,17,50,10,089,*4A
$GLGSV,3,1,10,65,28,273,35,66,05,230,42,71,00,017,27,72,27,337,30*6C
$GLGSV,3,2,10,74,14,110,10,75,20,162,18,76,03,215,10,85,40,138,24*6E
$GLGSV,3,3,10,86,65,026,27,87,24,348,40*6A
$GNGLL,0419.74566,S,05539.70088,E,131752.00,A,D*6B
$GNRMC,131753.00,A,0419.74566,S,05539.70087,E,0.063,,200525,,,D*79
$GNVTG,,T,,M,0.063,N,0.117,K,D*3A
$GNGGA,131753.00,0419.74566,S,05539.70087,E,2,12,0.64,5.4,M,-47.6,M,,0000*7E
$GNGSA,A,3,32,18,10,28,26,16,27,08,04,,,,1.34,0.64,1.18*19
$GNGSA,A,3,85,72,75,86,65,87,66,,,,,,1.34,0.64,1.18*18
$GPGSV,5,1,17,02,03,332,33,04,07,226,19,08,23,303,27,10,13,023,43*7C
$GPGSV,5,2,17,16,24,217,35,18,29,113,29,23,01,061,,26,29,187,23*76
$GPGSV,5,3,17,27,55,275,39,28,60,110,38,31,53,168,,32,35,007,37*7E
$GPGSV,5,4,17,36,52,277,37,40,84,353,40,41,58,082,28,49,32,274,*76
$GPGSV,5,5,17,50,10,089,*4A
$GLGSV,3,1,10,65,28,273,36,66,05,230,42,71,00,017,28,72,27,337,30*60
$GLGSV,3,2,10,74,14,110,10,75,20,162,16,76,03,215,09,85,40,138,22*6E
$GLGSV,3,3,10,86,65,026,26,87,24,348,40*6B
$GNGLL,0419.74566,S,05539.70087,E,131753.00,A,D*65
$GNRMC,131754.00,A,0419.74566,S,05539.70087,E,0.043,,200525,,,D*7C
$GNVTG,,T,,M,0.043,N,0.080,K,D*37
$GNGGA,131754.00,0419.74566,S,05539.70087,E,2,12,0.64,5.2,M,-47.6,M,,0000*7F
$GNGSA,A,3,32,18,10,28,26,16,27,31,08,04,,,1.28,0.64,1.11*1F
$GNGSA,A,3,85,72,75,86,65,87,66,,,,,,1.28,0.64,1.11*1C
$GPGSV,5,1,17,02,03,332,33,04,07,226,20,08,23,303,25,10,13,023,43*74
$GPGSV,5,2,17,16,24,217,38,18,29,113,30,23,01,061,,26,29,187,22*72
$GPGSV,5,3,17,27,55,275,39,28,60,110,37,31,53,168,30,32,35,007,39*7C
$GPGSV,5,4,17,36,52,277,40,40,84,353,37,41,58,082,28,49,32,274,*76
$GPGSV,5,5,17,50,10,089,*4A
$GLGSV,3,1,10,65,28,273,35,66,05,230,43,71,00,017,31,72,27,337,32*68
$GLGSV,3,2,10,74,14,110,06,75,20,162,15,76,03,215,12,85,40,138,21*63
$GLGSV,3,3,10,86,65,026,26,87,24,348,40*6B
$GNGLL,0419.74566,S,05539.70087,E,131754.00,A,D*62
$GNRMC,131755.00,A,0419.74569,S,05539.70088,E,0.080,,200525,,,D*72
$GNVTG,,T,,M,0.080,N,0.148,K,D*3D
$GNGGA,131755.00,0419.74569,S,05539.70088,E,2,12,0.64,5.0,M,-47.6,M,,0000*7C
$GNGSA,A,3,32,18,10,28,26,16,27,31,08,04,,,1.28,0.64,1.11*1F
$GNGSA,A,3,85,72,75,86,65,87,66,,,,,,1.28,0.64,1.11*1C
$GPGSV,5,1,17,02,03,332,33,04,07,226,21,08,23,303,23,10,13,023,41*71
$GPGSV,5,2,17,16,24,217,38,18,29,113,30,23,01,061,,26,29,187,22*72
$GPGSV,5,3,17,27,55,275,39,28,60,110,37,31,53,168,30,32,35,007,40*72
$GPGSV,5,4,17,36,52,277,40,40,84,353,36,41,58,082,28,49,32,274,*77
$GPGSV,5,5,17,50,10,089,*4A
$GLGSV,3,1,10,65,28,273,35,66,05,230,44,71,00,017,34,72,27,337,35*6D
$GLGSV,3,2,10,74,14,110,10,75,20,162,09,76,03,215,11,85,40,138,19*61
$GLGSV,3,3,10,86,65,026,27,87,24,348,41*6B
$GNGLL,0419.74569,S,05539.70088,E,131755.00,A,D*63
$GNRMC,131756.00,A,0419.74571,S,05539.70088,E,0.034,,200525,,,D*77
$GNVTG,,T,,M,0.034,N,0.063,K,D*3A
$GNGGA,131756.00,0419.74571,S,05539.70088,E,2,12,0.70,4.9,M,-47.6,M,,0000*7B
$GNGSA,A,3,32,18,10,28,26,16,27,31,08,04,,,1.34,0.70,1.15*13
$GNGSA,A,3,85,72,75,86,65,87,66,,,,,,1.34,0.70,1.15*10
$GPGSV,5,1,17,02,03,332,34,04,07,226,24,08,23,303,25,10,13,023,45*71
$GPGSV,5,2,17,16,24,217,41,18,29,113,30,23,01,061,,26,29,187,25*7B
$GPGSV,5,3,17,27,55,275,42,28,60,110,40,31,53,168,31,32,35,007,44*7B
$GPGSV,5,4,17,36,52,277,42,40,84,353,39,41,58,082,30,49,32,274,*73
$GPGSV,5,5,17,50,10,089,*4A
$GLGSV,3,1,10,65,28,273,33,66,05,230,42,71,00,017,31,72,27,337,34*69
$GLGSV,3,2,10,74,14,110,11,75,20,162,10,76,03,215,13,85,40,138,19*6A
$GLGSV,3,3,10,86,65,026,28,87,24,348,37*65
$GNGLL,0419.74571,S,05539.70088,E,131756.00,A,D*69
$GNRMC,131757.00,A,0419.74572,S,05539.70086,E,0.064,,200525,,,D*7E
$GNVTG,,T,,M,0.064,N,0.118,K,D*32
$GNGGA,131757.00,0419.74572,S,05539.70086,E,2,12,0.64,4.8,M,-47.6,M,,0000*73
$GNGSA,A,3,32,18,10,28,26,16,27,31,08,04,,,1.28,0.64,1.11*1F
$GNGSA,A,3,85,72,75,86,65,87,66,,,,,,1.28,0.64,1.11*1C
$GPGSV,5,1,17,02,03,332,35,04,07,226,25,08,23,303,26,10,13,023,45*72
$GPGSV,5,2,17,16,24,217,37,18,29,113,31,23,01,061,,26,29,187,25*7B
$GPGSV,5,3,17,27,55,275,41,28,60,110,39,31,53,168,31,32,35,007,42*70
$GPGSV,5,4,17,36,52,277,40,40,84,353,42,41,58,082,30,49,32,274,*7D
$GPGSV,5,5,17,50,10,089,*4A
$GLGSV,3,1,10,65,28,273,33,66,05,230,43,71,00,017,30,72,27,337,34*69
$GLGSV,3,2,10,74,14,110,14,75,20,162,12,76,03,215,15,85,40,138,18*6A
$GLGSV,3,3,10,86,65,026,27,87,24,348,40*6A
$GNGLL,0419.74572,S,05539.70086,E,131757.00,A,D*65
$GNRMC,131758.00,A,0419.74573,S,05539.70085,E,0.075,,200525,,,D*73
$GNVTG,,T,,M,0.075,N,0.139,K,D*31
$GNGGA,131758.00,0419.74573,S,05539.70085,E,2,12,0.64,4.6,M,-47.6,M,,0000*70
$GNGSA,A,3,32,18,10,28,26,16,27,31,08,04,,,1.28,0.64,1.11*1F
$GNGSA,A,3,85,72,75,86,65,87,66,,,,,,1.28,0.64,1.11*1C
$GPGSV,5,1,17,02,03,332,34,04,07,226,25,08,23,303,25,10,13,023,47*72
$GPGSV,5,2,17,16,24,217,38,18,29,113,32,23,01,061,,26,29,187,26*74
$GPGSV,5,3,17,27,55,275,42,28,60,110,41,31,53,168,30,32,35,007,44*7B
$GPGSV,5,4,17,36,52,277,42,40,84,353,44,41,58,082,31,49,32,274,*78
$GPGSV,5,5,17,50,10,089,*4A
$GLGSV,3,1,10,65,28,273,34,66,05,230,43,71,00,017,29,72,27,337,35*67
$GLGSV,3,2,10,74,14,110,14,75,20,162,13,76,03,215,11,85,40,138,19*6E
$GLGSV,3,3,10,86,65,026,24,87,24,348,39*67
$GNGLL,0419.74573,S,05539.70085,E,131758.00,A,D*68
$GNRMC,131759.00,A,0419.74575,S,05539.70087,E,0.076,,200525,,,D*75
$GNVTG,,T,,M,0.076,N,0.141,K,D*3D
$GNGGA,131759.00,0419.74575,S,05539.70087,E,2,12,0.67,4.4,M,-47.6,M,,0000*74
$GNGSA,A,3,32,18,10,28,26,16,27,31,08,04,,,1.33,0.67,1.15*12
$GNGSA,A,3,85,72,75,86,65,87,66,,,,,,1.33,0.67,1.15*11
$GPGSV,5,1,17,02,03,332,34,04,07,226,25,08,23,303,23,10,13,023,45*76
$GPGSV,5,2,17,16,24,217,38,18,29,113,32,23,01,061,,26,29,187,26*74
$GPGSV,5,3,17,27,55,275,42,28,60,110,40,31,53,168,31,32,35,007,44*7B
$GPGSV,5,4,17,36,52,277,41,40,84,353,44,41,58,082,30,49,32,274,*7A
$GPGSV,5,5,17,50,10,089,*4A
$GLGSV,3,1,10,65,28,273,35,66,05,230,43,71,00,017,29,72,27,337,36*65
$GLGSV,3,2,10,74,14,110,14,75,20,162,14,76,03,215,12,85,40,138,23*63
$GLGSV,3,3,10,86,65,026,20,87,24,348,39*63
$GNGLL,0419.74575,S,05539.70087,E,131759.00,A,D*6D
$GNRMC,131800.00,A,0419.74577,S,05539.70087,E,0.039,,200525,,,D*7F
$GNVTG,,T,,M,0.039,N,0.073,K,D*36
$GNGGA,131800.00,0419.74577,S,05539.70087,E,2,12,0.64,4.3,M,-47.6,M,,0000*71
$GNGSA,A,3,32,18,10,28,26,16,27,31,08,04,,,1.28,0.64,1.11*1F
$GNGSA,A,3,85,72,75,86,65,87,66,,,,,,1.28,0.64,1.11*1C
$GPGSV,5,1,17,02,03,332,36,04,07,226,25,08,23,303,22,10,13,023,44*74
$GPGSV,5,2,17,16,24,217,38,18,29,113,30,23,01,061,,26,29,187,28*78
$GPGSV,5,3,17,27,55,275,42,28,60,110,39,31,53,168,31,32,35,007,44*75
$GPGSV,5,4,17,36,52,277,41,40,84,353,42,41,58,082,,49,32,274,*7F
$GPGSV,5,5,17,50,10,089,*4A
$GLGSV,3,1,10,65,28,273,34,66,05,230,43,71,00,017,29,72,27,337,36*64
$GLGSV,3,2,10,74,14,110,15,75,20,162,14,76,03,215,10,85,40,138,25*66
$GLGSV,3,3,10,86,65,026,19,87,24,348,39*69
$GNGLL,0419.74577,S,05539.70087,E,131800.00,A,D*6C
$GNRMC,131801.00,A,0419.74578,S,05539.70086,E,0.070,,200525,,,D*7D
$GNVTG,,T,,M,0.070,N,0.130,K,D*3D
$GNGGA,131801.00,0419.74578,S,05539.70086,E,2,12,0.64,4.1,M,-47.6,M,,0000*7C
$GNGSA,A,3,32,18,10,28,26,16,27,31,08,04,,,1.28,0.64,1.11*1F
$GNGSA,A,3,85,72,75,86,65,87,66,,,,,,1.28,0.64,1.11*1C
$GPGSV,5,1,17,02,03,332,36,04,07,226,25,08,23,303,25,10,13,023,44*73
$GPGSV,5,2,17,16,24,217,38,18,29,113,30,23,01,061,,26,29,187,29*79
$GPGSV,5,3,17,27,55,275,42,28,60,110,39,31,53,168,30,32,35,007,44*74
$GPGSV,5,4,17,36,52,277,41,40,84,353,42,41,58,082,,49,32,274,*7F
$GPGSV,5,5,17,50,10,089,*4A
$GLGSV,3,1,10,65,28,273,35,66,05,230,42,71,00,017,28,72,27,337,36*65
$GLGSV,3,2,10,74,14,110,11,75,20,162,14,76,03,215,11,85,40,138,26*60
$GLGSV,3,3,10,86,65,026,19,87,24,348,38*68
