$GNRMC,053429.00,A,0419.83799,S,05539.77455,E,0.796,,270525,,,A*7B
$GNVTG,,T,,M,0.796,N,1.473,K,A*34
$GNGGA,053429.00,0419.83799,S,05539.77455,E,1,12,0.73,32.2,M,-47.6,M,,*44
$GNGSA,A,3,05,24,12,20,18,15,25,41,,,,,1.41,0.73,1.21*13
$GNGSA,A,3,79,78,83,82,67,80,,,,,,,1.41,0.73,1.21*17
$GPGSV,5,1,17,05,60,069,31,11,02,028,,12,55,021,26,13,15,133,10*7F
$GPGSV,5,2,17,15,32,166,17,18,33,258,19,20,29,042,21,22,04,135,*7B
$GPGSV,5,3,17,23,21,206,13,24,48,201,26,25,32,343,22,29,10,324,*7D
$GPGSV,5,4,17,36,52,277,,40,86,351,,41,58,082,29,49,32,274,*77
$GPGSV,5,5,17,50,10,089,*4A
$GLGSV,3,1,09,67,18,095,15,68,26,146,22,69,11,194,,78,23,152,13*6E
$GLGSV,3,2,09,79,77,136,25,80,43,339,27,82,11,358,11,83,26,308,23*62
$GLGSV,3,3,09,84,13,253,*56
$GNGLL,0419.83799,S,05539.77455,E,053429.00,A,A*6D
$GNRMC,053430.00,A,0419.83799,S,05539.77448,E,0.230,,270525,,,A*76
$GNVTG,,T,,M,0.230,N,0.426,K,A*3C
$GNGGA,053430.00,0419.83799,S,05539.77448,E,1,12,0.73,32.2,M,-47.6,M,,*40
$GNGSA,A,3,05,24,12,20,18,15,25,41,,,,,1.41,0.73,1.21*13
$GNGSA,A,3,79,78,83,82,67,80,,,,,,,1.41,0.73,1.21*17
$GPGSV,5,1,17,05,60,069,27,11,02,028,,12,55,021,25,13,15,133,10*7B
$GPGSV,5,2,17,15,32,166,20,18,33,258,22,20,29,042,19,22,04,135,*7C
$GPGSV,5,3,17,23,21,206,16,24,48,201,32,25,32,343,23,29,10,324,*7C
$GPGSV,5,4,17,36,52,277,,40,86,351,,41,58,082,28,49,32,274,*76
$GPGSV,5,5,17,50,10,089,*4A
$GLGSV,3,1,09,67,18,095,13,68,26,146,22,69,11,194,,78,23,152,16*6D
$GLGSV,3,2,09,79,77,136,23,80,43,339,27,82,11,358,12,83,26,308,20*64
$GLGSV,3,3,09,84,13,253,*56
$GNGLL,0419.83799,S,05539.77448,E,053430.00,A,A*69
$GNRMC,053431.00,A,0419.83792,S,05539.77440,E,0.065,,270525,,,A*76
$GNVTG,,T,,M,0.065,N,0.121,K,A*3C
$GNGGA,053431.00,0419.83792,S,05539.77440,E,1,12,0.76,32.4,M,-47.6,M,,*41
$GNGSA,A,3,05,24,12,20,18,15,25,41,,,,,1.58,0.76,1.38*16
$GNGSA,A,3,79,78,83,82,67,80,,,,,,,1.58,0.76,1.38*12
$GPGSV,5,1,17,05,60,069,29,11,02,028,,12,55,021,27,13,15,133,10*77
$GPGSV,5,2,17,15,32,166,20,18,33,258,26,20,29,042,17,22,04,135,*76
$GPGSV,5,3,17,23,21,206,19,24,48,201,25,25,32,343,23,29,10,324,*75
$GPGSV,5,4,17,36,52,277,,40,86,351,,41,58,082,31,49,32,274,*7E
$GPGSV,5,5,17,50,10,089,*4A
$GLGSV,3,1,09,67,18,095,16,68,26,146,23,69,11,194,,78,23,152,13*6C
$GLGSV,3,2,09,79,77,136,26,80,43,339,30,82,11,358,09,83,26,308,20*6D
$GLGSV,3,3,09,84,13,253,*56
$GNGLL,0419.83792,S,05539.77440,E,053431.00,A,A*6B
$GNRMC,053432.00,A,0419.83786,S,05539.77439,E,0.077,,270525,,,A*7D
$GNVTG,,T,,M,0.077,N,0.142,K,A*3A
$GNGGA,053432.00,0419.83786,S,05539.77439,E,1,12,0.71,32.3,M,-47.6,M,,*49
$GNGSA,A,3,05,24,12,20,18,15,13,25,41,,,,1.32,0.71,1.12*17
$GNGSA,A,3,79,78,83,82,67,80,,,,,,,1.32,0.71,1.12*11
$GPGSV,5,1,17,05,60,068,30,11,02,028,,12,55,021,28,13,15,133,17*76
$GPGSV,5,2,17,15,32,166,21,18,33,258,27,20,29,042,18,22,04,135,*79
$GPGSV,5,3,17,23,21,206,21,24,48,201,29,25,32,343,22,29,10,324,*73
$GPGSV,5,4,17,36,52,277,,40,86,351,,41,58,082,32,49,32,274,*7D
$GPGSV,5,5,17,50,10,089,*4A
$GLGSV,3,1,09,67,18,095,15,68,26,146,26,69,11,194,,78,23,152,13*6A
$GLGSV,3,2,09,79,77,136,24,80,43,339,29,82,11,358,09,83,26,308,21*66
$GLGSV,3,3,09,84,13,253,*56
$GNGLL,0419.83786,S,05539.77439,E,053432.00,A,A*63
$GNRMC,053433.00,A,0419.83780,S,05539.77440,E,0.026,,270525,,,A*70
$GNVTG,,T,,M,0.026,N,0.048,K,A*35
$GNGGA,053433.00,0419.83780,S,05539.77440,E,1,12,0.69,32.0,M,-47.6,M,,*4A
$GNGSA,A,3,05,24,12,20,18,15,13,25,41,,,,1.26,0.69,1.05*1D
$GNGSA,A,3,79,78,83,82,67,80,,,,,,,1.26,0.69,1.05*1B
$GPGSV,5,1,17,05,60,068,30,11,02,028,,12,55,021,28,13,15,133,19*78
$GPGSV,5,2,17,15,32,166,23,18,33,258,27,20,29,042,17,22,04,135,*74
$GPGSV,5,3,17,23,21,206,18,24,48,201,33,25,32,343,25,29,10,324,*75
$GPGSV,5,4,17,36,52,277,,40,86,351,,41,58,082,30,49,32,274,*7F
$GPGSV,5,5,17,50,10,089,*4A
$GLGSV,3,1,09,67,18,095,15,68,26,146,26,69,11,194,,78,23,152,17*6E
$GLGSV,3,2,09,79,77,136,23,80,43,339,29,82,11,358,12,83,26,308,23*69
$GLGSV,3,3,09,84,13,253,*56
$GNGLL,0419.83780,S,05539.77440,E,053433.00,A,A*6A
$GNRMC,053434.00,A,0419.83770,S,05539.77438,E,0.161,,270525,,,A*75
$GNVTG,,T,,M,0.161,N,0.299,K,A*39
$GNGGA,053434.00,0419.83770,S,05539.77438,E,1,12,0.72,32.0,M,-47.6,M,,*47
$GNGSA,A,3,05,24,12,20,18,15,13,25,41,,,,1.38,0.72,1.17*1B
$GNGSA,A,3,79,78,83,82,67,80,,,,,,,1.38,0.72,1.17*1D
$GPGSV,5,1,17,05,60,068,30,11,02,028,,12,55,021,28,13,15,133,15*74
$GPGSV,5,2,17,15,32,166,24,18,33,258,27,20,29,042,17,22,04,135,*73
$GPGSV,5,3,17,23,21,206,18,24,48,201,32,25,32,343,24,29,10,324,*75
$GPGSV,5,4,17,36,52,277,,40,86,351,,41,58,082,28,49,32,274,*76
$GPGSV,5,5,17,50,10,089,*4A
$GLGSV,3,1,09,67,18,095,15,68,26,146,27,69,11,194,,78,23,152,18*60
$GLGSV,3,2,09,79,77,136,20,80,43,339,30,82,11,358,12,83,26,308,24*65
$GLGSV,3,3,09,84,13,253,*56
$GNGLL,0419.83770,S,05539.77438,E,053434.00,A,A*6D
$GNRMC,053435.00,A,0419.83762,S,05539.77442,E,0.048,,270525,,,A*70
$GNVTG,,T,,M,0.048,N,0.089,K,A*30
$GNGGA,053435.00,0419.83762,S,05539.77442,E,1,12,0.72,31.7,M,-47.6,M,,*4C
$GNGSA,A,3,05,24,12,20,18,15,25,41,,,,,1.37,0.72,1.17*16
$GNGSA,A,3,79,78,83,82,67,80,,,,,,,1.37,0.72,1.17*12
$GPGSV,5,1,17,05,60,068,31,11,02,028,,12,55,021,30,13,15,133,*78
$GPGSV,5,2,17,15,32,166,24,18,33,258,28,20,29,042,20,22,04,135,*78
$GPGSV,5,3,17,23,21,206,19,24,48,201,33,25,32,343,23,29,10,324,20*70
$GPGSV,5,4,17,36,52,277,,40,86,351,,41,58,082,27,49,32,274,*79
$GPGSV,5,5,17,50,10,089,*4A
$GLGSV,3,1,09,67,18,095,15,68,26,146,27,69,11,194,,78,23,152,16*6E
$GLGSV,3,2,09,79,77,136,30,80,43,339,32,82,11,358,12,83,26,308,23*61
$GLGSV,3,3,09,84,13,253,*56
$GNGLL,0419.83762,S,05539.77442,E,053435.00,A,A*62
$GNRMC,053436.00,A,0419.83760,S,05539.77444,E,0.057,,270525,,,A*79
$GNVTG,,T,,M,0.057,N,0.106,K,A*38
$GNGGA,053436.00,0419.83760,S,05539.77444,E,1,12,0.72,31.3,M,-47.6,M,,*4F
$GNGSA,A,3,05,24,12,20,18,15,25,,,,,,1.37,0.72,1.17*13
$GNGSA,A,3,79,78,83,82,67,80,,,,,,,1.37,0.72,1.17*12
$GPGSV,5,1,17,05,60,068,31,11,02,028,,12,55,021,32,13,15,133,17*7C
$GPGSV,5,2,17,15,32,166,22,18,33,258,28,20,29,042,19,22,04,135,*74
$GPGSV,5,3,17,23,21,206,21,24,48,201,32,25,32,343,22,29,10,324,20*7B
$GPGSV,5,4,17,36,52,277,,40,86,351,,41,58,082,,49,32,274,*7C
$GPGSV,5,5,17,50,10,089,*4A
$GLGSV,3,1,09,67,18,095,15,68,26,146,26,69,11,194,,78,23,152,15*6C
$GLGSV,3,2,09,79,77,136,31,80,43,339,32,82,11,358,12,83,26,308,25*66
$GLGSV,3,3,09,84,13,253,*56
$GNGLL,0419.83760,S,05539.77444,E,053436.00,A,A*65
$GNRMC,053437.00,A,0419.83762,S,05539.77446,E,0.112,,270525,,,A*78
$GNVTG,,T,,M,0.112,N,0.208,K,A*35
$GNGGA,053437.00,0419.83762,S,05539.77446,E,1,12,0.75,30.4,M,-47.6,M,,*4F
$GNGSA,A,3,05,24,12,20,18,15,25,,,,,,1.51,0.75,1.31*10
$GNGSA,A,3,79,78,83,82,67,80,,,,,,,1.51,0.75,1.31*11
$GPGSV,5,1,17,05,60,068,33,11,02,028,,12,55,021,30,13,15,133,18*73
$GPGSV,5,2,17,15,32,166,29,18,33,258,27,20,29,042,18,22,04,135,*71
$GPGSV,5,3,17,23,21,206,22,24,48,201,32,25,32,343,23,29,10,324,18*72
$GPGSV,5,4,17,36,52,277,,40,86,351,,41,58,082,,49,32,274,*7C
$GPGSV,5,5,17,50,10,089,*4A
$GLGSV,3,1,09,67,18,095,13,68,26,146,26,69,11,194,,78,23,152,16*69
$GLGSV,3,2,09,79,77,136,29,80,43,339,33,82,11,358,07,83,26,308,32*6C
$GLGSV,3,3,09,84,13,253,*56
$GNGLL,0419.83762,S,05539.77446,E,053437.00,A,A*64
$GNRMC,053438.00,A,0419.83763,S,05539.77461,E,0.131,,270525,,,A*72
$GNVTG,,T,,M,0.131,N,0.243,K,A*3B
$GNGGA,053438.00,0419.83763,S,05539.77461,E,1,12,0.72,29.6,M,-47.6,M,,*49
$GNGSA,A,3,05,24,12,20,18,15,25,,,,,,1.37,0.72,1.17*13
$GNGSA,A,3,79,78,83,82,67,80,,,,,,,1.37,0.72,1.17*12
$GPGSV,5,1,17,05,60,068,34,11,02,028,,12,55,021,29,13,15,133,17*73
$GPGSV,5,2,17,15,32,166,21,18,33,258,27,20,29,042,16,22,04,135,*77
$GPGSV,5,3,17,23,21,206,22,24,48,201,32,25,32,343,22,29,10,324,16*7D
$GPGSV,5,4,17,36,52,277,,40,86,351,,41,58,082,,49,32,274,*7C
$GPGSV,5,5,17,50,10,089,*4A
$GLGSV,3,1,09,67,18,095,13,68,26,146,28,69,11,194,,78,23,152,15*64
$GLGSV,3,2,09,79,77,136,29,80,43,339,32,82,11,358,07,83,26,308,31*6E
$GLGSV,3,3,09,84,13,253,*56
$GNGLL,0419.83763,S,05539.77461,E,053438.00,A,A*6F
$GNRMC,053439.00,A,0419.83760,S,05539.77464,E,0.056,,270525,,,A*75
$GNVTG,,T,,M,0.056,N,0.104,K,A*3B
$GNGGA,053439.00,0419.83760,S,05539.77464,E,1,12,0.72,29.1,M,-47.6,M,,*49
$GNGSA,A,3,05,24,12,20,18,15,13,25,,,,,1.37,0.72,1.17*11
$GNGSA,A,3,79,78,83,82,67,80,,,,,,,1.37,0.72,1.17*12
$GPGSV,5,1,17,05,60,068,36,11,02,028,,12,56,022,31,13,15,133,17*78
$GPGSV,5,2,17,15,32,166,20,18,33,258,29,20,29,042,17,22,04,135,*79
$GPGSV,5,3,17,23,21,206,25,24,48,201,32,25,32,343,23,29,10,324,17*7A
$GPGSV,5,4,17,36,52,277,,40,86,351,,41,58,082,,49,32,274,*7C
$GPGSV,5,5,17,50,10,089,*4A
$GLGSV,3,1,09,67,18,095,15,68,26,146,25,69,11,194,,78,23,152,13*69
$GLGSV,3,2,09,79,77,136,30,80,43,339,33,82,11,358,10,83,26,308,29*68
$GLGSV,3,3,09,84,13,253,*56
$GNGLL,0419.83760,S,05539.77464,E,053439.00,A,A*68
$GNRMC,053440.00,A,0419.83752,S,05539.77476,E,0.047,,270525,,,A*79
$GNVTG,,T,,M,0.047,N,0.087,K,A*31
$GNGGA,053440.00,0419.83752,S,05539.77476,E,1,12,0.79,28.6,M,-47.6,M,,*48
$GNGSA,A,3,05,24,12,20,18,15,13,25,,,,,1.57,0.79,1.36*1F
$GNGSA,A,3,79,78,83,82,67,80,,,,,,,1.57,0.79,1.36*1C
$GPGSV,5,1,17,05,60,068,35,11,02,028,,12,56,022,33,13,15,132,15*7A
$GPGSV,5,2,17,15,32,166,22,18,33,258,27,20,29,042,19,22,04,135,*7B
$GPGSV,5,3,17,23,21,206,24,24,48,201,30,25,32,343,24,29,10,324,18*71
$GPGSV,5,4,17,36,52,277,31,40,86,351,,41,58,082,,49,32,274,*7E
$GPGSV,5,5,17,50,10,089,*4A
$GLGSV,3,1,09,67,18,095,15,68,26,146,24,69,11,194,,78,23,152,15*6E
$GLGSV,3,2,09,79,77,136,29,80,43,339,34,82,11,358,10,83,26,308,30*6F
$GLGSV,3,3,09,84,13,253,*56
$GNGLL,0419.83752,S,05539.77476,E,053440.00,A,A*64
$GNRMC,053441.00,A,0419.83747,S,05539.77484,E,0.108,,270525,,,A*7B
$GNVTG,,T,,M,0.108,N,0.200,K,A*36
$GNGGA,053441.00,0419.83747,S,05539.77484,E,1,12,0.72,28.4,M,-47.6,M,,*49
$GNGSA,A,3,05,24,12,20,18,15,13,25,,,,,1.37,0.72,1.17*11
$GNGSA,A,3,79,78,83,82,67,80,,,,,,,1.37,0.72,1.17*12
$GPGSV,5,1,17,05,60,068,32,11,02,028,05,12,56,022,33,13,15,132,15*78
$GPGSV,5,2,17,15,32,166,21,18,33,258,26,20,29,042,19,22,04,135,*79
$GPGSV,5,3,17,23,21,206,22,24,48,201,28,25,32,343,23,29,10,324,14*75
$GPGSV,5,4,17,36,52,277,30,40,86,351,,41,58,082,,49,32,274,*7F
$GPGSV,5,5,17,50,10,089,*4A
$GLGSV,3,1,09,67,18,095,19,68,26,146,25,69,11,194,,78,23,152,16*60
$GLGSV,3,2,09,79,77,136,31,80,43,339,33,82,11,358,14,83,26,308,29*6D
$GLGSV,3,3,09,84,13,253,*56
$GNGLL,0419.83747,S,05539.77484,E,053441.00,A,A*6C
$GNRMC,053442.00,A,0419.83744,S,05539.77494,E,0.085,,270525,,,A*7E
$GNVTG,,T,,M,0.085,N,0.157,K,A*33
$GNGGA,053442.00,0419.83744,S,05539.77494,E,1,12,0.72,27.9,M,-47.6,M,,*4A
$GNGSA,A,3,05,24,12,20,18,15,13,25,,,,,1.37,0.72,1.17*11
$GNGSA,A,3,79,78,83,82,67,80,,,,,,,1.37,0.72,1.17*12
$GPGSV,5,1,17,05,60,068,27,11,02,028,07,12,56,022,33,13,15,132,15*7E
$GPGSV,5,2,17,15,32,165,21,18,33,258,25,20,29,042,21,22,04,135,*72
$GPGSV,5,3,17,23,21,206,22,24,48,201,36,25,32,343,25,29,10,324,14*7C
$GPGSV,5,4,17,36,52,277,28,40,86,351,,41,58,082,32,49,32,274,*77
$GPGSV,5,5,17,50,10,089,*4A
$GLGSV,3,1,09,67,18,095,21,68,26,146,25,69,11,194,,78,23,152,17*6A
$GLGSV,3,2,09,79,77,136,33,80,43,339,36,82,11,358,15,83,26,308,29*6B
$GLGSV,3,3,09,84,13,253,*56
$GNGLL,0419.83744,S,05539.77494,E,053442.00,A,A*6D
$GNRMC,053443.00,A,0419.83737,S,05539.77490,E,0.205,,270525,,,A*75
$GNVTG,,T,,M,0.205,N,0.379,K,A*37
$GNGGA,053443.00,0419.83737,S,05539.77490,E,1,12,0.69,28.1,M,-47.6,M,,*46
$GNGSA,A,3,05,24,12,20,18,15,13,25,41,,,,1.26,0.69,1.05*1D
$GNGSA,A,3,79,78,83,82,67,80,,,,,,,1.26,0.69,1.05*1B
$GPGSV,5,1,17,05,60,068,34,11,02,028,08,12,56,022,31,13,15,132,18*7C
$GPGSV,5,2,17,15,32,165,22,18,33,258,21,20,29,042,23,22,04,135,*77
$GPGSV,5,3,17,23,21,206,23,24,48,201,39,25,32,343,24,29,10,324,*76
$GPGSV,5,4,17,36,52,277,27,40,86,351,,41,58,082,30,49,32,274,*7A
$GPGSV,5,5,17,50,10,089,*4A
$GLGSV,3,1,09,67,18,095,20,68,26,146,26,69,11,194,,78,23,152,16*69
$GLGSV,3,2,09,79,77,136,33,80,43,339,33,82,11,358,14,83,26,308,29*6F
$GLGSV,3,3,09,84,13,253,*56
$GNGLL,0419.83737,S,05539.77490,E,053443.00,A,A*6C
$GNRMC,053444.00,A,0419.83740,S,05539.77489,E,0.093,,270525,,,A*77
$GNVTG,,T,,M,0.093,N,0.173,K,A*32
$GNGGA,053444.00,0419.83740,S,05539.77489,E,1,12,0.83,27.4,M,-47.6,M,,*47
$GNGSA,A,3,05,24,12,20,18,15,13,25,41,,,,1.44,0.83,1.19*10
$GNGSA,A,3,79,78,83,82,67,80,,,,,,,1.44,0.83,1.19*16
$GPGSV,5,1,17,05,60,068,36,11,02,028,08,12,56,022,29,13,15,132,18*77
$GPGSV,5,2,17,15,32,165,27,18,33,258,22,20,29,042,24,22,04,135,*76
$GPGSV,5,3,17,23,21,206,25,24,48,201,38,25,32,343,23,29,10,324,*76
$GPGSV,5,4,17,36,52,277,27,40,86,351,,41,58,082,30,49,32,274,*7A
$GPGSV,5,5,17,50,10,089,*4A
$GLGSV,3,1,09,67,18,095,19,68,26,146,26,69,11,194,,78,23,152,16*63
$GLGSV,3,2,09,79,77,136,34,80,43,339,34,82,11,358,14,83,26,308,27*61
$GLGSV,3,3,09,84,13,253,*56
$GNGLL,0419.83740,S,05539.77489,E,053444.00,A,A*63
$GNRMC,053445.00,A,0419.83745,S,05539.77488,E,0.053,,270525,,,A*7E
$GNVTG,,T,,M,0.053,N,0.098,K,A*3A
$GNGGA,053445.00,0419.83745,S,05539.77488,E,1,12,0.72,27.1,M,-47.6,M,,*49
$GNGSA,A,3,05,24,12,20,18,15,13,25,41,,,,1.37,0.72,1.17*14
$GNGSA,A,3,79,78,83,82,67,80,,,,,,,1.37,0.72,1.17*12
$GPGSV,5,1,17,05,60,068,35,11,02,028,07,12,56,022,31,13,15,132,17*7D
$GPGSV,5,2,17,15,32,165,27,18,33,259,23,20,29,042,23,22,04,135,*71
$GPGSV,5,3,17,23,21,206,23,24,48,201,38,25,32,343,25,29,10,324,*76
$GPGSV,5,4,17,36,52,277,27,40,86,351,,41,58,082,29,49,32,274,*72
$GPGSV,5,5,17,50,10,089,*4A
$GLGSV,3,1,09,67,18,095,18,68,26,146,27,69,11,194,,78,23,152,15*60
$GLGSV,3,2,09,79,77,136,30,80,43,339,35,82,11,358,14,83,26,308,28*6B
$GLGSV,3,3,09,84,13,253,*56
$GNGLL,0419.83745,S,05539.77488,E,053445.00,A,A*66
$GNRMC,053446.00,A,0419.83757,S,05539.77476,E,0.236,,270525,,,A*7E
$GNVTG,,T,,M,0.236,N,0.437,K,A*3A
$GNGGA,053446.00,0419.83757,S,05539.77476,E,1,12,0.72,27.0,M,-47.6,M,,*49
$GNGSA,A,3,05,24,12,20,18,15,13,25,41,,,,1.37,0.72,1.17*14
$GNGSA,A,3,79,78,83,82,67,80,,,,,,,1.37,0.72,1.17*12
$GPGSV,5,1,17,05,60,068,35,11,02,028,07,12,56,022,34,13,15,132,18*77
$GPGSV,5,2,17,15,32,165,29,18,33,259,23,20,29,042,24,22,04,135,*78
$GPGSV,5,3,17,23,21,206,20,24,48,201,40,25,32,343,24,29,10,324,*7B
$GPGSV,5,4,17,36,52,277,,40,86,351,,41,58,082,33,49,32,274,*7C
$GPGSV,5,5,17,50,10,089,*4A
$GLGSV,3,1,09,67,18,095,16,68,26,146,26,69,11,194,,78,23,152,18*62
$GLGSV,3,2,09,79,77,136,30,80,43,339,35,82,11,358,15,83,26,308,28*6A
$GLGSV,3,3,09,84,13,253,*56
$GNGLL,0419.83757,S,05539.77476,E,053446.00,A,A*67
$GNRMC,053447.00,A,0419.83761,S,05539.77468,E,0.149,,270525,,,A*7E
$GNVTG,,T,,M,0.149,N,0.276,K,A*32
$GNGGA,053447.00,0419.83761,S,05539.77468,E,1,12,0.70,26.8,M,-47.6,M,,*49
$GNGSA,A,3,05,24,12,20,18,15,13,25,41,,,,1.30,0.70,1.09*1E
$GNGSA,A,3,79,78,83,82,67,80,,,,,,,1.30,0.70,1.09*18
$GPGSV,5,1,17,05,60,068,36,11,02,028,07,12,56,022,30,13,15,132,18*70
$GPGSV,5,2,17,15,32,165,28,18,33,259,23,20,28,041,24,22,04,135,*7B
$GPGSV,5,3,17,23,21,206,18,24,48,201,37,25,32,343,21,29,10,324,*75
$GPGSV,5,4,17,36,52,277,,40,86,351,,41,58,082,31,49,32,274,*7E
$GPGSV,5,5,17,50,10,089,*4A
$GLGSV,3,1,09,67,18,095,13,68,26,146,25,69,11,194,,78,23,152,18*64
$GLGSV,3,2,09,79,77,136,33,80,43,339,31,82,11,358,12,83,26,308,28*6A
$GLGSV,3,3,09,84,13,253,*56
$GNGLL,0419.83761,S,05539.77468,E,053447.00,A,A*6C
$GNRMC,053448.00,A,0419.83766,S,05539.77467,E,0.127,,270525,,,A*71
$GNVTG,,T,,M,0.127,N,0.235,K,A*3D
$GNGGA,053448.00,0419.83766,S,05539.77467,E,1,12,0.72,26.3,M,-47.6,M,,*47
$GNGSA,A,3,05,24,12,20,18,15,13,25,41,,,,1.37,0.72,1.17*14
$GNGSA,A,3,79,78,83,82,67,80,,,,,,,1.37,0.72,1.17*12
$GPGSV,5,1,17,05,60,068,37,11,02,028,07,12,56,022,34,13,15,132,21*7F
$GPGSV,5,2,17,15,32,165,16,18,33,259,23,20,28,041,28,22,03,136,*7E
$GPGSV,5,3,17,23,21,206,21,24,48,201,36,25,32,343,24,29,10,324,*7B
$GPGSV,5,4,17,36,52,277,,40,86,351,,41,58,082,28,49,32,274,*76
$GPGSV,5,5,17,50,10,089,*4A
$GLGSV,3,1,09,67,18,095,13,68,26,146,25,69,11,194,,78,23,152,18*64
$GLGSV,3,2,09,79,77,136,32,80,43,339,31,82,11,358,10,83,26,308,27*66
$GLGSV,3,3,09,84,13,253,*56
$GNGLL,0419.83766,S,05539.77467,E,053448.00,A,A*6B
$GNRMC,053449.00,A,0419.83771,S,05539.77466,E,0.110,,270525,,,A*73
$GNVTG,,T,,M,0.110,N,0.204,K,A*3B
$GNGGA,053449.00,0419.83771,S,05539.77466,E,1,12,0.72,26.1,M,-47.6,M,,*43
$GNGSA,A,3,05,24,12,20,18,15,13,25,41,,,,1.37,0.72,1.17*14
$GNGSA,A,3,79,78,83,82,67,80,,,,,,,1.37,0.72,1.17*12
$GPGSV,5,1,17,05,60,068,37,11,02,028,07,12,56,022,33,13,15,132,19*73
$GPGSV,5,2,17,15,32,165,19,18,33,259,19,20,28,041,27,22,03,136,*77
$GPGSV,5,3,17,23,22,206,21,24,48,201,36,25,32,343,22,29,10,324,*7E
$GPGSV,5,4,17,36,52,277,,40,86,351,,41,58,082,28,49,32,274,*76
$GPGSV,5,5,17,50,10,089,*4A
$GLGSV,3,1,09,67,18,095,11,68,26,146,26,69,11,194,,78,23,152,18*65
$GLGSV,3,2,09,79,77,136,32,80,43,339,32,82,11,358,16,83,26,308,27*63
$GLGSV,3,3,09,84,13,253,*56
$GNGLL,0419.83771,S,05539.77466,E,053449.00,A,A*6D
$GNRMC,053450.00,A,0419.83778,S,05539.77464,E,0.043,,270525,,,A*77
$GNVTG,,T,,M,0.043,N,0.079,K,A*34
$GNGGA,053450.00,0419.83778,S,05539.77464,E,1,12,0.72,26.1,M,-47.6,M,,*40
$GNGSA,A,3,05,24,12,20,18,15,13,25,41,,,,1.37,0.72,1.17*14
$GNGSA,A,3,79,78,83,82,67,80,,,,,,,1.37,0.72,1.17*12
$GPGSV,5,1,17,05,60,068,37,11,02,028,07,12,56,022,33,13,15,132,19*73
$GPGSV,5,2,17,15,32,165,22,18,33,259,19,20,28,041,26,22,03,136,*7E
$GPGSV,5,3,17,23,22,206,21,24,47,200,37,25,32,343,20,29,10,324,*73
$GPGSV,5,4,17,36,52,277,,40,86,351,,41,58,082,27,49,32,274,*79
$GPGSV,5,5,17,50,10,089,*4A
$GLGSV,3,1,09,67,18,095,13,68,26,146,28,69,11,194,,78,23,152,18*69
$GLGSV,3,2,09,79,77,136,31,80,43,339,35,82,11,358,12,83,26,308,26*62
$GLGSV,3,3,09,84,13,253,*56
$GNGLL,0419.83778,S,05539.77464,E,053450.00,A,A*6E
$GNRMC,053451.00,A,0419.83779,S,05539.77452,E,0.049,,270525,,,A*78
$GNVTG,,T,,M,0.049,N,0.090,K,A*39
$GNGGA,053451.00,0419.83779,S,05539.77452,E,1,12,0.71,26.6,M,-47.6,M,,*41
$GNGSA,A,3,05,24,12,20,18,15,13,25,41,,,,1.33,0.71,1.13*17
$GNGSA,A,3,79,78,83,82,67,80,,,,,,,1.33,0.71,1.13*11
$GPGSV,5,1,17,05,60,068,34,11,02,028,07,12,56,022,31,13,15,132,20*78
$GPGSV,5,2,17,15,32,165,20,18,33,259,17,20,28,041,26,22,03,136,*72
$GPGSV,5,3,17,23,22,206,18,24,47,200,37,25,32,343,23,29,10,324,*7A
$GPGSV,5,4,17,36,52,277,,40,86,351,,41,58,082,27,49,32,274,*79
$GPGSV,5,5,17,50,10,089,*4A
$GLGSV,3,1,09,67,18,095,17,68,26,146,27,69,11,194,,78,23,152,19*63
$GLGSV,3,2,09,79,77,136,24,80,43,339,34,82,11,358,12,83,26,308,28*69
$GLGSV,3,3,09,84,13,253,*56
$GNGLL,0419.83779,S,05539.77452,E,053451.00,A,A*6B
$GNRMC,053452.00,A,0419.83776,S,05539.77448,E,0.037,,270525,,,A*76
$GNVTG,,T,,M,0.037,N,0.069,K,A*36
$GNGGA,053452.00,0419.83776,S,05539.77448,E,1,12,0.75,26.5,M,-47.6,M,,*41
$GNGSA,A,3,05,24,12,20,18,15,13,25,,,,,1.36,0.75,1.13*13
$GNGSA,A,3,79,78,83,82,67,80,,,,,,,1.36,0.75,1.13*10
$GPGSV,5,1,17,05,60,068,35,11,02,028,07,12,56,022,33,13,15,132,18*70
$GPGSV,5,2,17,15,32,165,23,18,33,259,16,20,28,041,22,22,03,136,*74
$GPGSV,5,3,17,23,22,206,16,24,47,200,36,25,32,343,20,29,10,324,*76
$GPGSV,5,4,17,36,52,277,,40,86,351,,41,58,082,,49,32,274,*7C
$GPGSV,5,5,17,50,10,089,*4A
$GLGSV,3,1,09,67,18,095,18,68,26,146,27,69,11,194,,78,23,152,18*6D
$GLGSV,3,2,09,79,77,136,32,80,43,339,29,82,11,358,15,83,26,308,29*64
$GLGSV,3,3,09,84,13,253,*56
$GNGLL,0419.83776,S,05539.77448,E,053452.00,A,A*6C
$GNRMC,053453.00,A,0419.83774,S,05539.77443,E,0.005,,270525,,,A*7F
$GNVTG,,T,,M,0.005,N,0.008,K,A*30
$GNGGA,053453.00,0419.83774,S,05539.77443,E,1,12,0.72,26.8,M,-47.6,M,,*43
$GNGSA,A,3,05,24,12,20,18,15,13,25,,,,,1.39,0.72,1.19*11
$GNGSA,A,3,79,78,83,82,67,80,,,,,,,1.39,0.72,1.19*12
$GPGSV,5,1,17,05,60,068,33,11,02,028,07,12,56,022,33,13,15,132,17*79
$GPGSV,5,2,17,15,32,165,24,18,33,259,20,20,28,041,22,22,03,136,*76
$GPGSV,5,3,17,23,22,206,16,24,47,200,37,25,32,343,21,29,10,324,*76
$GPGSV,5,4,17,36,52,277,,40,86,351,,41,58,082,,49,32,274,*7C
$GPGSV,5,5,17,50,10,089,*4A
$GLGSV,3,1,09,67,18,095,17,68,26,146,27,69,11,194,,78,23,152,20*69
$GLGSV,3,2,09,79,77,136,32,80,43,339,31,82,11,358,12,83,26,308,29*6A
$GLGSV,3,3,09,84,13,253,*56
$GNGLL,0419.83774,S,05539.77443,E,053453.00,A,A*64
$GNRMC,053454.00,A,0419.83771,S,05539.77434,E,0.073,,270525,,,A*7C
$GNVTG,,T,,M,0.073,N,0.135,K,A*3E
$GNGGA,053454.00,0419.83771,S,05539.77434,E,1,12,0.72,27.3,M,-47.6,M,,*4B
$GNGSA,A,3,05,24,12,20,18,15,13,25,,,,,1.39,0.72,1.19*11
$GNGSA,A,3,79,78,83,82,67,80,,,,,,,1.39,0.72,1.19*12
$GPGSV,5,1,17,05,60,068,34,11,02,028,08,12,56,022,33,13,15,132,19*7F
$GPGSV,5,2,17,15,32,165,25,18,33,259,23,20,28,041,24,22,03,136,*72
$GPGSV,5,3,17,23,22,206,18,24,47,200,36,25,32,343,19,29,10,324,*72
$GPGSV,5,4,17,36,52,277,,40,86,351,,41,58,082,,49,32,274,*7C
$GPGSV,5,5,17,50,10,089,*4A
$GLGSV,3,1,09,67,18,095,17,68,26,146,27,69,11,194,,78,23,152,19*63
$GLGSV,3,2,09,79,77,136,30,80,43,339,32,82,11,358,11,83,26,308,31*61
$GLGSV,3,3,09,84,13,253,*56
$GNGLL,0419.83771,S,05539.77434,E,053454.00,A,A*66
$GNRMC,053455.00,A,0419.83772,S,05539.77434,E,0.099,,270525,,,A*7A
$GNVTG,,T,,M,0.099,N,0.184,K,A*30
$GNGGA,053455.00,0419.83772,S,05539.77434,E,1,12,0.72,27.5,M,-47.6,M,,*4F
$GNGSA,A,3,05,24,12,20,18,15,13,25,,,,,1.39,0.72,1.19*11
$GNGSA,A,3,79,78,83,82,67,80,,,,,,,1.39,0.72,1.19*12
$GPGSV,5,1,17,05,60,068,35,11,02,028,08,12,56,022,33,13,15,132,18*7F
$GPGSV,5,2,17,15,32,165,26,18,33,259,23,20,28,041,22,22,03,136,*77
$GPGSV,5,3,17,23,22,206,20,24,47,200,37,25,32,343,18,29,10,324,*79
$GPGSV,5,4,17,36,52,277,,40,86,351,,41,58,082,,49,32,274,*7C
$GPGSV,5,5,17,50,10,089,*4A
$GLGSV,3,1,09,67,18,095,19,68,26,146,27,69,11,194,,78,23,152,17*63
$GLGSV,3,2,09,79,77,136,28,80,43,339,32,82,11,358,11,83,26,308,31*68
$GLGSV,3,3,09,84,13,253,*56
$GNGLL,0419.83772,S,05539.77434,E,053455.00,A,A*64
$GNRMC,053456.00,A,0419.83772,S,05539.77431,E,0.070,,270525,,,A*7B
$GNVTG,,T,,M,0.070,N,0.130,K,A*38
$GNGGA,053456.00,0419.83772,S,05539.77431,E,1,12,0.72,27.9,M,-47.6,M,,*45
$GNGSA,A,3,05,24,12,20,18,15,13,25,41,,,,1.39,0.72,1.19*14
$GNGSA,A,3,79,78,83,82,67,80,,,,,,,1.39,0.72,1.19*12
$GPGSV,5,1,17,05,60,068,31,11,02,028,08,12,56,022,34,13,15,132,19*7D
$GPGSV,5,2,17,15,32,165,22,18,33,259,21,20,28,041,25,22,03,136,*76
$GPGSV,5,3,17,23,22,206,21,24,47,200,37,25,32,343,15,29,10,324,*75
$GPGSV,5,4,17,36,52,277,,40,86,351,,41,58,082,28,49,32,274,*76
$GPGSV,5,5,17,50,10,089,*4A
$GLGSV,3,1,09,67,18,095,20,68,26,146,27,69,11,194,,78,23,152,19*67
$GLGSV,3,2,09,79,77,136,27,80,43,339,32,82,11,358,10,83,26,308,29*6F
$GLGSV,3,3,09,84,13,253,*56
$GNGLL,0419.83772,S,05539.77431,E,053456.00,A,A*62
$GNRMC,053457.00,A,0419.83776,S,05539.77427,E,0.017,,270525,,,A*78
$GNVTG,,T,,M,0.017,N,0.031,K,A*39
$GNGGA,053457.00,0419.83776,S,05539.77427,E,1,12,0.72,28.0,M,-47.6,M,,*41
$GNGSA,A,3,05,24,12,20,18,15,13,25,41,,,,1.39,0.72,1.19*14
$GNGSA,A,3,79,78,83,82,67,80,,,,,,,1.39,0.72,1.19*12
$GPGSV,5,1,17,05,60,068,30,11,02,028,08,12,56,022,35,13,15,132,17*73
$GPGSV,5,2,17,15,32,165,22,18,33,259,18,20,28,041,25,22,03,136,*7C
$GPGSV,5,3,17,23,22,206,23,24,47,200,37,25,32,343,15,29,10,324,*77
$GPGSV,5,4,17,36,52,277,,40,86,351,,41,58,082,27,49,32,274,*79
$GPGSV,5,5,17,50,10,089,*4A
$GLGSV,3,1,09,67,18,095,19,68,26,146,27,69,11,194,,78,23,152,20*67
$GLGSV,3,2,09,79,77,136,28,80,43,339,32,82,11,358,11,83,26,308,28*60
$GLGSV,3,3,09,84,13,253,*56
$GNGLL,0419.83776,S,05539.77427,E,053457.00,A,A*60
$GNRMC,053458.00,A,0419.83776,S,05539.77421,E,0.088,,270525,,,A*77
$GNVTG,,T,,M,0.088,N,0.163,K,A*39
$GNGGA,053458.00,0419.83776,S,05539.77421,E,1,12,0.75,28.4,M,-47.6,M,,*4B
$GNGSA,A,3,05,24,12,20,18,15,13,25,41,,,,1.55,0.75,1.36*14
$GNGSA,A,3,79,78,83,82,67,80,,,,,,,1.55,0.75,1.36*12
$GPGSV,5,1,17,05,60,068,31,11,02,028,08,12,56,022,34,13,15,132,16*72
$GPGSV,5,2,17,15,32,165,20,18,33,259,14,20,28,041,23,22,03,136,*74
$GPGSV,5,3,17,23,22,206,26,24,47,200,36,25,32,343,16,29,10,324,*70
$GPGSV,5,4,17,36,52,277,,40,86,351,,41,58,082,27,49,32,274,*79
$GPGSV,5,5,17,50,10,089,*4A
$GLGSV,3,1,09,67,18,095,19,68,26,146,28,69,11,194,,78,23,152,21*69
$GLGSV,3,2,09,79,77,136,27,80,43,339,33,82,11,358,13,83,26,308,29*6D
$GLGSV,3,3,09,84,13,253,*56
$GNGLL,0419.83776,S,05539.77421,E,053458.00,A,A*69
$GNRMC,053459.00,A,0419.83776,S,05539.77422,E,0.047,,270525,,,A*76
$GNVTG,,T,,M,0.047,N,0.088,K,A*3E
$GNGGA,053459.00,0419.83776,S,05539.77422,E,1,12,0.72,28.7,M,-47.6,M,,*4D
$GNGSA,A,3,05,24,12,20,18,15,13,25,41,,,,1.39,0.72,1.19*14
$GNGSA,A,3,79,78,83,82,67,80,,,,,,,1.39,0.72,1.19*12
$GPGSV,5,1,17,05,60,068,33,11,02,028,08,12,56,022,33,13,15,132,17*76
$GPGSV,5,2,17,15,32,165,19,18,33,259,14,20,28,041,23,22,03,136,*7E
$GPGSV,5,3,17,23,22,206,26,24,47,200,36,25,32,343,17,29,10,324,*71
$GPGSV,5,4,17,36,52,277,,40,86,351,,41,58,082,28,49,32,274,*76
$GPGSV,5,5,17,50,10,089,*4A
$GLGSV,3,1,09,67,18,095,19,68,26,146,28,69,11,194,,78,23,152,19*62
$GLGSV,3,2,09,79,77,136,28,80,43,339,34,82,11,358,11,83,26,308,29*67
$GLGSV,3,3,09,84,13,253,*56
$GNGLL,0419.83776,S,05539.77422,E,053459.00,A,A*6B
$GNRMC,053500.00,A,0419.83774,S,05539.77414,E,0.086,,270525,,,A*71
$GNVTG,,T,,M,0.086,N,0.160,K,A*34
$GNGGA,053500.00,0419.83774,S,05539.77414,E,1,12,0.71,29.1,M,-47.6,M,,*43
$GNGSA,A,3,05,24,12,20,18,15,13,25,,,,,1.33,0.71,1.13*12
$GNGSA,A,3,79,78,83,82,67,80,,,,,,,1.33,0.71,1.13*11
$GPGSV,5,1,17,05,60,068,34,11,02,028,08,12,56,022,33,13,15,132,16*70
$GPGSV,5,2,17,15,32,165,21,18,33,259,16,20,28,041,23,22,03,136,*77
$GPGSV,5,3,17,23,22,206,26,24,47,200,36,25,32,343,18,29,10,324,*7E
$GPGSV,5,4,17,36,52,277,,40,86,351,,41,58,082,,49,32,274,*7C
$GPGSV,5,5,17,50,10,089,*4A
$GLGSV,3,1,09,67,18,095,20,68,26,146,27,69,11,194,,78,23,152,19*67
$GLGSV,3,2,09,79,77,136,30,80,43,339,34,82,11,358,09,83,26,308,30*6F
$GLGSV,3,3,09,84,13,253,*56
$GNGLL,0419.83774,S,05539.77414,E,053500.00,A,A*61
$GNRMC,053501.00,A,0419.83776,S,05539.77407,E,0.042,,270525,,,A*78
$GNVTG,,T,,M,0.042,N,0.078,K,A*34
$GNGGA,053501.00,0419.83776,S,05539.77407,E,1,12,0.71,29.3,M,-47.6,M,,*40
$GNGSA,A,3,05,24,12,20,18,15,13,25,,,,,1.33,0.71,1.13*12
$GNGSA,A,3,79,78,83,82,67,80,,,,,,,1.33,0.71,1.13*11
$GPGSV,5,1,17,05,60,068,34,11,02,028,,12,56,022,33,13,15,132,15*7B
$GPGSV,5,2,17,15,32,165,22,18,33,259,20,20,28,041,20,22,03,136,05*77
$GPGSV,5,3,17,23,22,206,25,24,47,200,38,25,32,343,22,29,10,324,*7A
$GPGSV,5,4,17,36,52,277,,40,86,351,,41,58,082,,49,32,274,*7C
$GPGSV,5,5,17,50,10,089,*4A
$GLGSV,3,1,09,67,18,095,19,68,26,146,27,69,11,194,,78,23,152,20*67
$GLGSV,3,2,09,79,77,136,31,80,43,339,33,82,11,358,10,83,26,308,31*60
$GLGSV,3,3,09,84,13,253,*56
$GNGLL,0419.83776,S,05539.77407,E,053501.00,A,A*60
$GNRMC,053502.00,A,0419.83777,S,05539.77398,E,0.129,,270525,,,A*77
$GNVTG,,T,,M,0.129,N,0.239,K,A*3F
$GNGGA,053502.00,0419.83777,S,05539.77398,E,1,12,0.71,30.1,M,-47.6,M,,*49
$GNGSA,A,3,05,24,12,20,18,15,13,25,,,,,1.33,0.71,1.13*12
$GNGSA,A,3,79,78,83,82,67,80,,,,,,,1.33,0.71,1.13*11
$GPGSV,5,1,17,05,60,068,32,11,02,028,,12,56,022,31,13,15,132,20*79
$GPGSV,5,2,17,15,32,165,22,18,33,259,30,20,28,041,20,22,03,136,07*74
$GPGSV,5,3,17,23,22,206,25,24,47,200,38,25,32,343,23,29,10,324,*7B
$GPGSV,5,4,17,36,52,277,,40,86,351,,41,58,082,,49,32,274,*7C
$GPGSV,5,5,17,50,10,089,*4A
$GLGSV,3,1,09,67,18,095,18,68,26,146,28,69,11,194,,78,23,152,20*69
$GLGSV,3,2,09,79,77,136,30,80,43,339,31,82,11,358,10,83,26,308,32*60
$GLGSV,3,3,09,84,13,253,*56
$GNGLL,0419.83777,S,05539.77398,E,053502.00,A,A*63
$GNRMC,053503.00,A,0419.83777,S,05539.77388,E,0.134,,270525,,,A*7B
$GNVTG,,T,,M,0.134,N,0.248,K,A*35
$GNGGA,053503.00,0419.83777,S,05539.77388,E,1,12,0.71,30.7,M,-47.6,M,,*4F
$GNGSA,A,3,05,24,12,20,18,15,13,25,,,,,1.33,0.71,1.13*12
$GNGSA,A,3,79,78,83,82,67,80,,,,,,,1.33,0.71,1.13*11
$GPGSV,5,1,17,05,60,068,28,11,02,028,,12,56,022,32,13,15,132,20*71
$GPGSV,5,2,17,15,32,165,18,18,33,259,28,20,28,041,21,22,03,136,07*75
$GPGSV,5,3,17,23,22,206,23,24,47,200,34,25,32,343,21,29,10,324,*73
$GPGSV,5,4,17,36,52,277,,40,86,351,,41,58,082,29,49,32,274,*77
$GPGSV,5,5,17,50,10,089,*4A
$GLGSV,3,1,09,67,18,095,18,68,26,146,28,69,11,194,,78,23,152,18*62
$GLGSV,3,2,09,79,77,136,32,80,43,339,32,82,11,358,13,83,26,308,31*61
$GLGSV,3,3,09,84,13,253,*56
$GNGLL,0419.83777,S,05539.77388,E,053503.00,A,A*63
$GNRMC,053504.00,A,0419.83775,S,05539.77381,E,0.138,,270525,,,A*7B
$GNVTG,,T,,M,0.138,N,0.255,K,A*35
$GNGGA,053504.00,0419.83775,S,05539.77381,E,1,12,0.72,31.3,M,-47.6,M,,*45
$GNGSA,A,3,05,24,12,20,18,15,13,25,41,,,,1.38,0.72,1.17*1B
$GNGSA,A,3,79,78,83,82,67,80,,,,,,,1.38,0.72,1.17*1D
$GPGSV,5,1,17,05,60,068,29,11,02,028,,12,56,022,32,13,15,132,19*7A
$GPGSV,5,2,17,15,32,165,17,18,33,259,26,20,28,041,21,22,03,136,08*7B
$GPGSV,5,3,17,23,22,206,21,24,47,200,34,25,32,343,22,29,10,324,*72
$GPGSV,5,4,17,36,52,277,,40,86,351,,41,58,082,28,49,32,274,*76
$GPGSV,5,5,17,50,10,089,*4A
$GLGSV,3,1,09,67,18,095,19,68,26,146,27,69,11,194,,78,23,152,17*63
$GLGSV,3,2,09,79,77,136,32,80,43,339,33,82,11,358,13,83,26,308,32*63
$GLGSV,3,3,09,84,13,253,*56
$GNGLL,0419.83775,S,05539.77381,E,053504.00,A,A*6F
$GNRMC,053505.00,A,0419.83772,S,05539.77374,E,0.092,,270525,,,A*76
$GNVTG,,T,,M,0.092,N,0.171,K,A*31
$GNGGA,053505.00,0419.83772,S,05539.77374,E,1,12,0.71,32.0,M,-47.6,M,,*4A
$GNGSA,A,3,05,24,12,20,18,15,13,25,41,,,,1.33,0.71,1.13*17
$GNGSA,A,3,79,78,83,82,67,80,,,,,,,1.33,0.71,1.13*11
$GPGSV,5,1,17,05,60,068,30,11,02,028,,12,56,022,32,13,15,132,21*79
$GPGSV,5,2,17,15,32,165,22,18,33,259,24,20,28,041,18,22,03,136,08*75
$GPGSV,5,3,17,23,22,206,20,24,47,200,35,25,32,343,21,29,10,324,*71
$GPGSV,5,4,17,36,52,277,,40,86,351,,41,58,082,29,49,32,274,*77
$GPGSV,5,5,17,50,10,089,*4A
$GLGSV,3,1,09,67,18,095,19,68,26,146,27,69,11,194,,78,23,152,14*60
$GLGSV,3,2,09,79,77,136,33,80,43,339,32,82,11,358,13,83,26,308,31*60
$GLGSV,3,3,09,84,13,253,*56
$GNGLL,0419.83772,S,05539.77374,E,053505.00,A,A*63
$GNRMC,053506.00,A,0419.83768,S,05539.77364,E,0.121,,270525,,,A*76
$GNVTG,,T,,M,0.121,N,0.225,K,A*3A
$GNGGA,053506.00,0419.83768,S,05539.77364,E,1,12,0.79,32.7,M,-47.6,M,,*4C
$GNGSA,A,3,05,24,12,20,18,15,13,25,41,,,,1.32,0.79,1.06*1A
$GNGSA,A,3,79,78,83,82,67,80,,,,,,,1.32,0.79,1.06*1C
$GPGSV,5,1,17,05,60,068,32,11,02,028,,12,56,022,32,13,15,132,19*70
$GPGSV,5,2,17,15,32,165,23,18,33,259,23,20,28,041,18,22,03,136,07*7C
$GPGSV,5,3,17,23,22,206,23,24,47,200,35,25,32,343,20,29,10,324,*73
$GPGSV,5,4,17,36,52,277,,40,86,351,,41,58,082,30,49,32,274,*7F
$GPGSV,5,5,17,50,10,089,*4A
$GLGSV,3,1,09,67,18,095,20,68,26,146,27,69,11,194,,78,23,152,12*6C
$GLGSV,3,2,09,79,77,136,32,80,43,339,32,82,11,358,13,83,26,308,30*60
$GLGSV,3,3,09,84,13,253,*56
$GNGLL,0419.83768,S,05539.77364,E,053506.00,A,A*6A
$GNRMC,053507.00,A,0419.83765,S,05539.77356,E,0.065,,270525,,,A*7A
$GNVTG,,T,,M,0.065,N,0.121,K,A*3C
$GNGGA,053507.00,0419.83765,S,05539.77356,E,1,12,0.69,33.2,M,-47.6,M,,*44
$GNGSA,A,3,05,24,12,20,18,15,13,25,41,,,,1.25,0.69,1.05*1E
$GNGSA,A,3,79,78,83,82,67,80,,,,,,,1.25,0.69,1.05*18
$GPGSV,5,1,17,05,60,068,31,11,02,028,,12,56,022,30,13,15,132,16*7E
$GPGSV,5,2,17,15,32,165,21,18,33,259,22,20,28,041,22,22,03,136,11*71
$GPGSV,5,3,17,23,22,206,23,24,47,200,35,25,32,343,22,29,10,324,*71
$GPGSV,5,4,17,36,52,277,,40,86,351,,41,58,082,26,49,32,274,*78
$GPGSV,5,5,17,50,10,089,*4A
$GLGSV,3,1,09,67,18,095,21,68,26,146,26,69,11,194,,78,23,152,13*6D
$GLGSV,3,2,09,79,77,136,28,80,43,339,31,82,11,358,15,83,26,308,30*6E
$GLGSV,3,3,09,84,13,253,*56
$GNGLL,0419.83765,S,05539.77356,E,053507.00,A,A*67
$GNRMC,053508.00,A,0419.83762,S,05539.77348,E,0.094,,270525,,,A*73
$GNVTG,,T,,M,0.094,N,0.173,K,A*35
$GNGGA,053508.00,0419.83762,S,05539.77348,E,1,12,0.71,33.6,M,-47.6,M,,*4E
$GNGSA,A,3,05,24,12,20,18,15,13,25,,,,,1.33,0.71,1.13*12
$GNGSA,A,3,79,78,83,82,67,80,,,,,,,1.33,0.71,1.13*11
$GPGSV,5,1,17,05,60,068,33,11,02,028,,12,56,022,31,13,15,132,15*7E
$GPGSV,5,2,17,15,32,165,20,18,33,259,21,20,28,041,22,22,03,136,09*7A
$GPGSV,5,3,17,23,22,206,21,24,47,200,33,25,32,343,25,29,10,324,*72
$GPGSV,5,4,17,36,52,277,,40,86,351,,41,58,082,,49,32,274,*7C
$GPGSV,5,5,17,50,10,089,*4A
$GLGSV,3,1,09,67,18,095,20,68,26,146,22,69,11,194,,78,23,152,15*6E
$GLGSV,3,2,09,79,77,136,25,80,43,339,30,82,11,358,15,83,26,308,30*62
$GLGSV,3,3,09,84,13,253,*56
$GNGLL,0419.83762,S,05539.77348,E,053508.00,A,A*60
$GNRMC,053509.00,A,0419.83760,S,05539.77339,E,0.098,,270525,,,A*7A
$GNVTG,,T,,M,0.098,N,0.181,K,A*34
$GNGGA,053509.00,0419.83760,S,05539.77339,E,1,12,0.71,34.1,M,-47.6,M,,*4B
$GNGSA,A,3,05,24,12,20,18,15,13,25,,,,,1.33,0.71,1.13*12
$GNGSA,A,3,79,78,83,82,67,80,,,,,,,1.33,0.71,1.13*11
$GPGSV,5,1,17,05,60,068,31,11,02,028,,12,56,022,32,13,15,132,17*7D
$GPGSV,5,2,17,15,32,165,21,18,33,259,20,20,28,041,21,22,03,136,09*79
$GPGSV,5,3,17,23,22,206,19,24,47,200,34,25,32,343,25,29,10,324,*7E
$GPGSV,5,4,17,36,52,277,,40,86,351,,41,58,082,,49,32,274,*7C
$GPGSV,5,5,17,50,10,089,*4A
$GLGSV,3,1,09,67,18,095,19,68,26,146,24,69,11,194,,78,23,152,15*62
$GLGSV,3,2,09,79,77,136,27,80,43,339,28,82,11,358,12,83,26,308,30*6E
$GLGSV,3,3,09,84,13,253,*56
$GNGLL,0419.83760,S,05539.77339,E,053509.00,A,A*65
$GNRMC,053510.00,A,0419.83760,S,05539.77333,E,0.093,,270525,,,A*73
$GNVTG,,T,,M,0.093,N,0.172,K,A*33
$GNGGA,053510.00,0419.83760,S,05539.77333,E,1,12,0.71,34.4,M,-47.6,M,,*4C
$GNGSA,A,3,05,24,12,20,18,15,13,25,,,,,1.33,0.71,1.13*12
$GNGSA,A,3,79,78,83,82,67,80,,,,,,,1.33,0.71,1.13*11
$GPGSV,5,1,17,05,60,068,32,11,02,028,,12,56,022,30,13,15,132,21*79
$GPGSV,5,2,17,15,32,165,23,18,33,259,21,20,28,041,19,22,03,136,10*79
$GPGSV,5,3,17,23,22,206,23,24,47,200,35,25,32,343,22,29,10,324,21*72
$GPGSV,5,4,17,36,52,277,,40,86,351,,41,58,082,28,49,32,274,*76
$GPGSV,5,5,17,50,10,089,*4A
$GLGSV,3,1,09,67,18,095,18,68,26,146,25,69,11,194,,78,23,152,15*62
$GLGSV,3,2,09,79,77,136,29,80,43,339,26,82,11,358,12,83,26,308,29*66
$GLGSV,3,3,09,84,13,253,*56
$GNGLL,0419.83760,S,05539.77333,E,053510.00,A,A*67
$GNRMC,053511.00,A,0419.83755,S,05539.77336,E,0.234,,270525,,,A*7E
$GNVTG,,T,,M,0.234,N,0.433,K,A*3C
$GNGGA,053511.00,0419.83755,S,05539.77336,E,1,12,0.69,34.1,M,-47.6,M,,*42
$GNGSA,A,3,05,24,12,20,18,15,13,25,41,,,,1.25,0.69,1.05*1E
$GNGSA,A,3,79,78,83,82,67,80,,,,,,,1.25,0.69,1.05*18
$GPGSV,5,1,17,05,60,068,35,11,02,028,,12,56,022,28,13,15,132,23*75
$GPGSV,5,2,17,15,32,165,23,18,33,259,23,20,28,041,20,22,03,136,08*78
$GPGSV,5,3,17,23,22,206,24,24,47,200,32,25,32,343,21,29,10,324,19*7A
$GPGSV,5,4,17,36,52,277,,40,86,351,,41,58,082,27,49,32,274,*79
$GPGSV,5,5,17,50,10,089,*4A
$GLGSV,3,1,09,67,18,095,19,68,26,146,26,69,11,194,,78,23,152,15*60
$GLGSV,3,2,09,79,77,136,33,80,43,339,28,82,11,358,13,83,26,308,28*63
$GLGSV,3,3,09,84,13,253,*56
$GNGLL,0419.83755,S,05539.77336,E,053511.00,A,A*65
$GNRMC,053512.00,A,0419.83751,S,05539.77335,E,0.062,,270525,,,A*7B
$GNVTG,,T,,M,0.062,N,0.115,K,A*3C
$GNGGA,053512.00,0419.83751,S,05539.77335,E,1,12,0.71,34.5,M,-47.6,M,,*4B
$GNGSA,A,3,05,24,12,20,18,15,13,25,41,,,,1.33,0.71,1.13*17
$GNGSA,A,3,79,78,83,82,67,80,,,,,,,1.33,0.71,1.13*11
$GPGSV,5,1,17,05,60,068,35,11,02,028,,12,56,022,30,13,15,132,25*7A
$GPGSV,5,2,17,15,32,165,25,18,33,259,26,20,28,041,18,22,03,136,09*71
$GPGSV,5,3,17,23,22,206,23,24,47,200,33,25,32,343,17,29,10,324,18*78
$GPGSV,5,4,17,36,52,277,,40,86,351,,41,58,082,27,49,32,274,*79
$GPGSV,5,5,17,50,10,089,*4A
$GLGSV,3,1,09,67,18,095,20,68,26,146,27,69,11,194,,78,23,152,14*6A
$GLGSV,3,2,09,79,77,136,32,80,43,339,28,82,11,358,10,83,26,308,27*6E
$GLGSV,3,3,09,84,13,253,*56
$GNGLL,0419.83751,S,05539.77335,E,053512.00,A,A*61
$GNRMC,053513.00,A,0419.83748,S,05539.77333,E,0.095,,270525,,,A*7C
$GNVTG,,T,,M,0.095,N,0.175,K,A*32
$GNGGA,053513.00,0419.83748,S,05539.77333,E,1,12,0.74,34.8,M,-47.6,M,,*4C
$GNGSA,A,3,05,24,12,20,18,15,13,25,,,,,1.47,0.74,1.26*12
$GNGSA,A,3,79,78,83,82,67,80,,,,,,,1.47,0.74,1.26*11
$GPGSV,5,1,17,05,60,068,33,11,02,028,,12,56,022,31,13,15,132,23*7B
$GPGSV,5,2,17,15,32,165,26,18,33,259,27,20,28,041,16,22,03,136,09*7D
$GPGSV,5,3,17,23,22,206,21,24,47,200,37,25,32,343,16,29,10,324,17*70
$GPGSV,5,4,17,36,52,277,,40,86,351,,41,58,082,,49,32,274,*7C
$GPGSV,5,5,17,50,10,089,*4A
$GLGSV,3,1,09,67,18,095,23,68,26,146,28,69,11,194,,78,23,152,16*64
$GLGSV,3,2,09,79,77,136,31,80,43,339,29,82,11,358,17,83,26,308,27*6B
$GLGSV,3,3,09,84,13,253,*56
$GNGLL,0419.83748,S,05539.77333,E,053513.00,A,A*6E
$GNRMC,053514.00,A,0419.83738,S,05539.77332,E,0.064,,270525,,,A*73
$GNVTG,,T,,M,0.064,N,0.119,K,A*36
$GNGGA,053514.00,0419.83738,S,05539.77332,E,1,12,0.71,35.1,M,-47.6,M,,*40
$GNGSA,A,3,05,24,12,20,18,15,13,25,,,,,1.33,0.71,1.13*12
$GNGSA,A,3,79,78,83,82,67,80,,,,,,,1.33,0.71,1.13*11
$GPGSV,5,1,17,05,60,068,31,11,02,028,,12,56,022,34,13,15,132,23*7C
$GPGSV,5,2,17,15,32,165,28,18,33,259,26,20,28,041,20,22,03,136,09*77
$GPGSV,5,3,17,23,22,206,19,24,47,200,37,25,32,343,16,29,10,324,14*78
$GPGSV,5,4,17,36,52,277,,40,86,351,,41,58,082,,49,32,274,*7C
$GPGSV,5,5,17,50,10,089,*4A
$GLGSV,3,1,09,67,18,095,23,68,26,146,27,69,11,194,,78,23,152,18*65
$GLGSV,3,2,09,79,77,136,32,80,43,339,30,82,11,358,11,83,26,308,26*67
$GLGSV,3,3,09,84,13,253,*56
$GNGLL,0419.83738,S,05539.77332,E,053514.00,A,A*6F
$GNRMC,053515.00,A,0419.83733,S,05539.77332,E,0.026,,270525,,,A*7F
$GNVTG,,T,,M,0.026,N,0.048,K,A*35
$GNGGA,053515.00,0419.83733,S,05539.77332,E,1,12,0.71,35.2,M,-47.6,M,,*49
$GNGSA,A,3,05,24,12,20,18,15,13,25,,,,,1.33,0.71,1.13*12
$GNGSA,A,3,79,78,83,82,67,80,,,,,,,1.33,0.71,1.13*11
$GPGSV,5,1,17,05,60,068,31,11,02,028,,12,56,022,32,13,15,132,23*7A
$GPGSV,5,2,17,15,32,165,26,18,33,259,24,20,28,041,18,22,03,136,09*70
$GPGSV,5,3,17,23,22,206,17,24,47,200,34,25,32,343,16,29,10,324,16*77
$GPGSV,5,4,17,36,52,277,,40,86,351,,41,58,082,,49,32,274,*7C
$GPGSV,5,5,17,50,10,089,*4A
$GLGSV,3,1,09,67,18,095,20,68,26,146,25,69,11,194,,78,23,152,17*6B
$GLGSV,3,2,09,79,77,136,31,80,43,339,29,82,11,358,15,83,26,308,26*68
$GLGSV,3,3,09,84,13,253,*56
$GNGLL,0419.83733,S,05539.77332,E,053515.00,A,A*65
$GNRMC,053516.00,A,0419.83726,S,05539.77315,E,0.360,,270525,,,A*7C
$GNVTG,,T,,M,0.360,N,0.666,K,A*3E
$GNGGA,053516.00,0419.83726,S,05539.77315,E,1,12,0.71,35.4,M,-47.6,M,,*4D
$GNGSA,A,3,05,24,12,20,18,15,13,25,41,,,,1.33,0.71,1.13*17
$GNGSA,A,3,79,78,83,82,67,80,,,,,,,1.33,0.71,1.13*11
$GPGSV,5,1,17,05,60,068,33,11,02,028,,12,56,022,35,13,15,132,21*7D
$GPGSV,5,2,17,15,32,165,26,18,33,259,23,20,28,041,18,22,03,136,09*77
$GPGSV,5,3,17,23,22,206,16,24,47,200,34,25,32,343,18,29,10,324,16*78
$GPGSV,5,4,17,36,52,277,,40,86,351,,41,58,082,29,49,32,274,*77
$GPGSV,5,5,17,50,10,089,*4A
$GLGSV,3,1,09,67,18,095,19,68,26,146,26,69,11,194,,78,23,152,15*60
$GLGSV,3,2,09,79,77,136,25,80,43,339,27,82,11,358,15,83,26,308,24*61
$GLGSV,3,3,09,84,13,253,*56
$GNGLL,0419.83726,S,05539.77315,E,053516.00,A,A*67
$GNRMC,053517.00,A,0419.83722,S,05539.77319,E,0.115,,270525,,,A*75
$GNVTG,,T,,M,0.115,N,0.213,K,A*38
$GNGGA,053517.00,0419.83722,S,05539.77319,E,1,12,0.71,35.3,M,-47.6,M,,*43
$GNGSA,A,3,05,24,12,20,18,15,13,25,41,,,,1.33,0.71,1.13*17
$GNGSA,A,3,79,78,83,82,67,80,,,,,,,1.33,0.71,1.13*11
$GPGSV,5,1,17,05,60,068,30,11,02,028,,12,56,022,33,13,15,132,22*7B
$GPGSV,5,2,17,15,32,165,26,18,33,259,26,20,28,041,18,22,03,136,09*72
$GPGSV,5,3,17,23,22,206,19,24,47,200,34,25,32,343,21,29,10,324,17*7C
$GPGSV,5,4,17,36,52,277,,40,86,351,,41,58,082,29,49,32,274,*77
$GPGSV,5,5,17,50,10,089,*4A
$GLGSV,3,1,09,67,18,095,24,68,26,146,27,69,11,194,,78,23,152,14*6E
$GLGSV,3,2,09,79,77,136,23,80,43,339,26,82,11,358,14,83,26,308,25*66
$GLGSV,3,3,09,84,13,253,*56
$GNGLL,0419.83722,S,05539.77319,E,053517.00,A,A*6E
$GNRMC,053518.00,A,0419.83716,S,05539.77316,E,0.131,,270525,,,A*74
$GNVTG,,T,,M,0.131,N,0.243,K,A*3B
$GNGGA,053518.00,0419.83716,S,05539.77316,E,1,12,0.71,35.5,M,-47.6,M,,*42
$GNGSA,A,3,05,24,12,20,18,15,13,25,41,,,,1.33,0.71,1.13*17
$GNGSA,A,3,79,78,83,82,67,80,,,,,,,1.33,0.71,1.13*11
$GPGSV,5,1,17,05,60,068,32,11,02,028,,12,56,022,33,13,15,132,21*7A
$GPGSV,5,2,17,15,32,165,26,18,33,259,27,20,28,041,18,22,03,136,09*73
$GPGSV,5,3,17,23,22,206,19,24,47,200,34,25,32,343,23,29,10,324,16*7F
$GPGSV,5,4,17,36,52,277,,40,86,351,,41,58,082,27,49,32,274,*79
$GPGSV,5,5,17,50,10,089,*4A
$GLGSV,3,1,09,67,18,095,25,68,26,146,25,69,11,194,,78,23,152,11*68
$GLGSV,3,2,09,79,77,136,22,80,43,339,26,82,11,358,13,83,26,308,27*62
$GLGSV,3,3,09,84,13,253,*56
$GNGLL,0419.83716,S,05539.77316,E,053518.00,A,A*69
$GNRMC,053519.00,A,0419.83716,S,05539.77315,E,0.073,,270525,,,A*71
$GNVTG,,T,,M,0.073,N,0.134,K,A*3F
$GNGGA,053519.00,0419.83716,S,05539.77315,E,1,12,0.71,35.5,M,-47.6,M,,*40
$GNGSA,A,3,05,24,12,20,18,15,13,25,41,,,,1.33,0.71,1.13*17
$GNGSA,A,3,79,78,83,82,67,80,,,,,,,1.33,0.71,1.13*11
$GPGSV,5,1,17,05,60,068,30,11,02,028,,12,56,022,32,13,15,132,22*7A
$GPGSV,5,2,17,15,32,165,26,18,33,259,24,20,28,041,21,22,03,136,09*7A
$GPGSV,5,3,17,23,22,206,18,24,47,200,35,25,32,343,26,29,10,324,14*78
$GPGSV,5,4,17,36,52,277,,40,86,351,,41,58,082,27,49,32,274,*79
$GPGSV,5,5,17,50,10,089,*4A
$GLGSV,3,1,09,67,18,095,25,68,26,146,26,69,11,194,,78,23,152,11*6B
$GLGSV,3,2,09,79,77,136,30,80,43,339,27,82,11,358,13,83,26,308,27*60
$GLGSV,3,3,09,84,13,253,*56
$GNGLL,0419.83716,S,05539.77315,E,053519.00,A,A*6B
$GNRMC,053520.00,A,0419.83715,S,05539.77316,E,0.143,,270525,,,A*79
$GNVTG,,T,,M,0.143,N,0.265,K,A*3A
$GNGGA,053520.00,0419.83715,S,05539.77316,E,1,12,0.71,35.3,M,-47.6,M,,*4C
$GNGSA,A,3,05,24,12,20,18,15,13,41,,,,,1.26,0.71,1.05*13
$GNGSA,A,3,79,78,83,82,67,80,,,,,,,1.26,0.71,1.05*12
$GPGSV,5,1,17,05,60,068,30,11,02,028,,12,56,022,34,13,15,132,22*7C
$GPGSV,5,2,17,15,32,165,25,18,33,259,22,20,28,041,24,22,03,136,09*7A
$GPGSV,5,3,17,23,22,206,18,24,47,200,35,25,32,343,09,29,10,324,12*73
$GPGSV,5,4,17,36,52,277,,40,86,351,,41,58,082,31,49,32,274,*7E
$GPGSV,5,5,17,50,10,089,*4A
$GLGSV,3,1,09,67,18,095,22,68,26,146,25,69,11,194,,78,23,152,15*6B
$GLGSV,3,2,09,79,77,136,34,80,43,339,28,82,11,358,12,83,26,308,27*6A
$GLGSV,3,3,09,84,13,253,*56
$GNGLL,0419.83715,S,05539.77316,E,053520.00,A,A*61
$GNRMC,053521.00,A,0419.83713,S,05539.77316,E,0.030,,270525,,,A*7B
$GNVTG,,T,,M,0.030,N,0.055,K,A*3E
$GNGGA,053521.00,0419.83713,S,05539.77316,E,1,12,0.72,35.4,M,-47.6,M,,*4F
$GNGSA,A,3,05,24,12,20,18,15,13,25,41,,,,1.38,0.72,1.17*1B
$GNGSA,A,3,79,78,83,67,80,,,,,,,,1.38,0.72,1.17*17
$GPGSV,5,1,17,05,60,068,24,11,02,028,,12,56,022,31,13,15,132,22*7C
$GPGSV,5,2,17,15,32,165,27,18,33,259,19,20,28,041,23,22,03,136,09*77
$GPGSV,5,3,17,23,22,206,16,24,47,200,22,25,32,343,15,29,10,324,09*7C
$GPGSV,5,4,17,36,52,277,,40,86,351,,41,58,082,30,49,32,274,*7F
$GPGSV,5,5,17,50,10,089,*4A
$GLGSV,3,1,09,67,18,094,22,68,26,146,25,69,11,194,,78,23,152,17*68
$GLGSV,3,2,09,79,77,136,30,80,43,339,28,82,11,358,09,83,26,308,27*64
$GLGSV,3,3,09,84,13,253,*56
$GNGLL,0419.83713,S,05539.77316,E,053521.00,A,A*66
$GNRMC,053522.00,A,0419.83707,S,05539.77325,E,0.219,,270525,,,A*74
$GNVTG,,T,,M,0.219,N,0.406,K,A*35
$GNGGA,053522.00,0419.83707,S,05539.77325,E,1,12,0.72,35.4,M,-47.6,M,,*49
$GNGSA,A,3,05,24,12,20,18,15,13,25,41,,,,1.38,0.72,1.17*1B
$GNGSA,A,3,79,78,83,67,80,,,,,,,,1.38,0.72,1.17*17
$GPGSV,5,1,17,05,60,068,25,11,02,028,,12,56,022,31,13,15,132,21*7E
$GPGSV,5,2,17,15,32,165,29,18,33,259,19,20,28,041,21,22,03,136,09*7B
$GPGSV,5,3,17,23,22,206,18,24,47,200,31,25,32,343,18,29,10,324,09*7D
$GPGSV,5,4,17,36,52,277,,40,86,351,,41,58,082,30,49,32,274,*7F
$GPGSV,5,5,17,50,10,089,*4A
$GLGSV,3,1,09,67,18,094,22,68,27,146,25,69,11,194,,78,23,152,16*68
$GLGSV,3,2,09,79,77,136,30,80,43,339,28,82,11,358,09,83,26,308,26*65
$GLGSV,3,3,09,84,13,253,*56
$GNGLL,0419.83707,S,05539.77325,E,053522.00,A,A*60
$GNRMC,053523.00,A,0419.83703,S,05539.77326,E,0.086,,270525,,,A*76
$GNVTG,,T,,M,0.086,N,0.160,K,A*34
$GNGGA,053523.00,0419.83703,S,05539.77326,E,1,12,0.74,35.4,M,-47.6,M,,*49
$GNGSA,A,3,05,24,12,20,18,15,13,25,41,,,,1.47,0.74,1.27*16
$GNGSA,A,3,79,78,83,67,80,,,,,,,,1.47,0.74,1.27*1A
$GPGSV,5,1,17,05,60,068,26,11,02,028,,12,56,022,29,13,15,132,21*74
$GPGSV,5,2,17,15,32,165,27,18,33,259,21,20,28,041,20,22,03,136,09*7F
$GPGSV,5,3,17,23,22,206,17,24,47,200,35,25,32,343,19,29,10,324,*7E
$GPGSV,5,4,17,36,52,277,,40,86,351,,41,58,082,27,49,32,274,*79
$GPGSV,5,5,17,50,10,089,*4A
$GLGSV,3,1,09,67,18,094,20,68,27,146,22,69,11,194,,78,23,152,10*6B
$GLGSV,3,2,09,79,77,136,29,80,43,339,29,82,11,358,06,83,26,308,23*66
$GLGSV,3,3,09,84,13,253,*56
$GNGLL,0419.83703,S,05539.77326,E,053523.00,A,A*66
$GNRMC,053524.00,A,0419.83700,S,05539.77327,E,0.053,,270525,,,A*7B
$GNVTG,,T,,M,0.053,N,0.098,K,A*3A
$GNGGA,053524.00,0419.83700,S,05539.77327,E,1,12,0.71,35.6,M,-47.6,M,,*4B
$GNGSA,A,3,05,24,12,20,18,15,13,25,41,,,,1.32,0.71,1.11*14
$GNGSA,A,3,79,78,83,82,67,80,,,,,,,1.32,0.71,1.11*12
$GPGSV,5,1,17,05,60,068,27,11,02,028,,12,56,022,28,13,15,132,22*77
$GPGSV,5,2,17,15,32,165,26,18,33,259,22,20,28,041,21,22,03,136,09*7C
$GPGSV,5,3,17,23,22,206,16,24,47,200,33,25,32,343,21,29,10,324,*72
$GPGSV,5,4,17,36,52,277,,40,86,351,,41,58,082,27,49,32,274,*79
$GPGSV,5,5,17,50,10,089,*4A
$GLGSV,3,1,09,67,18,094,21,68,27,146,22,69,11,194,,78,23,152,14*6E
$GLGSV,3,2,09,79,77,136,33,80,43,339,31,82,11,358,08,83,26,308,24*6D
$GLGSV,3,3,09,84,13,253,*56
$GNGLL,0419.83700,S,05539.77327,E,053524.00,A,A*63
$GNRMC,053525.00,A,0419.83695,S,05539.77329,E,0.091,,270525,,,A*77
$GNVTG,,T,,M,0.091,N,0.169,K,A*3B
$GNGGA,053525.00,0419.83695,S,05539.77329,E,1,12,0.75,35.7,M,-47.6,M,,*4C
$GNGSA,A,3,05,24,12,20,18,15,13,25,,,,,1.55,0.75,1.35*12
$GNGSA,A,3,79,78,83,82,67,80,,,,,,,1.55,0.75,1.35*11
$GPGSV,5,1,17,05,60,068,26,11,02,028,,12,56,022,31,13,15,132,24*78
$GPGSV,5,2,17,15,32,165,25,18,33,259,21,20,28,041,21,22,03,136,09*7C
$GPGSV,5,3,17,23,22,206,14,24,47,200,33,25,32,343,23,29,10,324,07*75
$GPGSV,5,4,17,36,52,277,,40,86,351,,41,58,082,,49,32,274,*7C
$GPGSV,5,5,17,50,10,089,*4A
$GLGSV,3,1,09,67,18,094,21,68,27,146,24,69,11,194,,78,23,152,15*69
$GLGSV,3,2,09,79,77,136,33,80,43,339,33,82,11,358,14,83,26,308,23*65
$GLGSV,3,3,09,84,13,253,*56
$GNGLL,0419.83695,S,05539.77329,E,053525.00,A,A*61
$GNRMC,053526.00,A,0419.83695,S,05539.77327,E,0.072,,270525,,,A*77
$GNVTG,,T,,M,0.072,N,0.134,K,A*3E
$GNGGA,053526.00,0419.83695,S,05539.77327,E,1,12,0.71,35.9,M,-47.6,M,,*4B
$GNGSA,A,3,05,24,12,20,18,15,13,25,41,,,,1.32,0.71,1.11*14
$GNGSA,A,3,79,78,83,82,67,80,,,,,,,1.32,0.71,1.11*12
$GPGSV,5,1,17,05,60,068,24,11,02,028,,12,56,022,29,13,15,132,23*74
$GPGSV,5,2,17,15,32,165,27,18,33,259,23,20,28,041,21,22,03,136,09*7C
$GPGSV,5,3,17,23,22,206,16,24,47,200,35,25,32,343,20,29,10,324,11*75
$GPGSV,5,4,17,36,52,277,,40,86,351,,41,58,082,29,49,32,274,*77
$GPGSV,5,5,17,50,10,089,*4A
$GLGSV,3,1,09,67,18,094,19,68,27,146,24,69,11,194,,78,23,152,13*64
$GLGSV,3,2,09,79,77,136,28,80,43,339,31,82,11,358,09,83,26,308,25*67
$GLGSV,3,3,09,84,13,253,*56
$GNGLL,0419.83695,S,05539.77327,E,053526.00,A,A*6C
$GNRMC,053527.00,A,0419.83694,S,05539.77316,E,0.352,,270525,,,A*74
$GNVTG,,T,,M,0.352,N,0.653,K,A*39
$GNGGA,053527.00,0419.83694,S,05539.77316,E,1,12,0.72,36.3,M,-47.6,M,,*43
$GNGSA,A,3,05,24,12,20,18,15,13,25,41,,,,1.39,0.72,1.19*14
$GNGSA,A,3,79,78,83,82,67,80,,,,,,,1.39,0.72,1.19*12
$GPGSV,5,1,17,05,60,068,25,11,02,028,,12,56,022,29,13,15,132,22*74
$GPGSV,5,2,17,15,32,165,26,18,33,259,21,20,28,041,18,22,03,136,09*75
$GPGSV,5,3,17,23,22,206,16,24,47,200,34,25,32,343,19,29,10,324,16*79
$GPGSV,5,4,17,36,52,277,,40,86,351,,41,58,082,30,49,32,274,*7F
$GPGSV,5,5,17,50,10,089,*4A
$GLGSV,3,1,09,67,18,094,16,68,27,146,21,69,11,194,,78,23,152,12*6F
$GLGSV,3,2,09,79,77,136,27,80,43,339,30,82,11,358,10,83,26,308,25*61
$GLGSV,3,3,09,84,13,253,*56
$GNGLL,0419.83694,S,05539.77316,E,053527.00,A,A*6E
$GNRMC,053528.00,A,0419.83691,S,05539.77318,E,0.094,,270525,,,A*79
$GNVTG,,T,,M,0.094,N,0.173,K,A*35
$GNGGA,053528.00,0419.83691,S,05539.77318,E,1,12,0.71,36.7,M,-47.6,M,,*40
$GNGSA,A,3,05,24,12,20,18,15,13,25,41,,,,1.32,0.71,1.11*14
$GNGSA,A,3,79,78,83,82,67,80,,,,,,,1.32,0.71,1.11*12
$GPGSV,5,1,17,05,60,068,26,11,02,028,,12,56,022,33,13,15,132,22*7C
$GPGSV,5,2,17,15,32,165,25,18,33,259,19,20,28,041,18,22,03,136,*74
$GPGSV,5,3,17,23,22,206,17,24,47,200,34,25,32,343,15,29,10,324,17*75
$GPGSV,5,4,17,36,52,277,,40,86,351,,41,58,082,30,49,32,274,*7F
$GPGSV,5,5,17,50,10,089,*4A
$GLGSV,3,1,09,67,18,094,14,68,27,146,20,69,11,194,,78,23,152,10*6E
$GLGSV,3,2,09,79,77,136,27,80,43,339,32,82,11,358,10,83,26,308,26*60
$GLGSV,3,3,09,84,13,253,*56
$GNGLL,0419.83691,S,05539.77318,E,053528.00,A,A*6A
$GNRMC,053529.00,A,0419.83688,S,05539.77320,E,0.099,,270525,,,A*76
$GNVTG,,T,,M,0.099,N,0.184,K,A*30
$GNGGA,053529.00,0419.83688,S,05539.77320,E,1,12,0.69,36.8,M,-47.6,M,,*44
$GNGSA,A,3,05,24,12,20,18,15,13,25,41,,,,1.25,0.69,1.05*1E
$GNGSA,A,3,79,78,83,82,67,80,,,,,,,1.25,0.69,1.05*18
$GPGSV,5,1,17,05,60,068,28,11,02,028,,12,56,022,33,13,15,132,23*73
$GPGSV,5,2,17,15,32,165,23,18,33,259,18,20,28,041,22,22,03,136,*7A
$GPGSV,5,3,17,23,22,206,20,24,47,200,33,25,32,343,19,29,10,324,18*75
$GPGSV,5,4,17,36,52,277,,40,86,351,,41,58,082,30,49,32,274,*7F
$GPGSV,5,5,17,50,10,089,*4A
$GLGSV,3,1,09,67,18,094,12,68,27,146,22,69,11,194,,78,23,152,10*6A
$GLGSV,3,2,09,79,77,136,32,80,43,339,33,82,11,358,12,83,26,308,27*66
$GLGSV,3,3,09,84,13,253,*56
$GNGLL,0419.83688,S,05539.77320,E,053529.00,A,A*68
$GNRMC,053530.00,A,0419.83685,S,05539.77324,E,0.069,,270525,,,A*78
$GNVTG,,T,,M,0.069,N,0.128,K,A*39
$GNGGA,053530.00,0419.83685,S,05539.77324,E,1,12,0.69,36.8,M,-47.6,M,,*45
$GNGSA,A,3,05,24,12,20,18,15,13,25,41,,,,1.25,0.69,1.05*1E
$GNGSA,A,3,79,78,83,82,67,80,,,,,,,1.25,0.69,1.05*18
$GPGSV,5,1,17,05,60,068,31,11,02,028,,12,56,022,31,13,15,132,22*78
$GPGSV,5,2,17,15,32,165,19,18,33,259,21,20,28,041,21,22,03,136,*7A
$GPGSV,5,3,17,23,22,206,20,24,47,200,32,25,32,343,22,29,10,324,18*7C
$GPGSV,5,4,17,36,52,277,,40,86,351,,41,58,082,34,49,32,274,*7B
$GPGSV,5,5,17,50,10,089,*4A
$GLGSV,3,1,09,67,18,094,08,68,27,146,20,69,11,194,,78,23,152,09*6B
$GLGSV,3,2,09,79,77,136,32,80,43,339,33,82,11,358,09,83,26,308,26*6D
$GLGSV,3,3,09,84,13,253,*56
$GNGLL,0419.83685,S,05539.77324,E,053530.00,A,A*69
$GNRMC,053531.00,A,0419.83681,S,05539.77329,E,0.024,,270525,,,A*79
$GNVTG,,T,,M,0.024,N,0.044,K,A*3B
$GNGGA,053531.00,0419.83681,S,05539.77329,E,1,12,0.69,36.8,M,-47.6,M,,*4D
$GNGSA,A,3,05,24,12,20,18,15,13,25,41,,,,1.25,0.69,1.05*1E
$GNGSA,A,3,79,78,83,82,67,80,,,,,,,1.25,0.69,1.05*18
$GPGSV,5,1,17,05,60,068,30,11,02,028,,12,56,022,32,13,15,132,20*78
$GPGSV,5,2,17,15,32,165,20,18,33,259,20,20,28,041,21,22,03,136,*71
$GPGSV,5,3,17,23,22,206,20,24,47,200,33,25,32,343,21,29,10,324,17*71
$GPGSV,5,4,17,36,52,277,,40,86,351,,41,58,082,33,49,32,274,*7C
$GPGSV,5,5,17,50,10,089,*4A
$GLGSV,3,1,09,67,18,094,09,68,27,146,17,69,11,194,,78,23,152,14*62
$GLGSV,3,2,09,79,77,136,31,80,43,339,32,82,11,358,10,83,26,308,24*65
$GLGSV,3,3,09,84,13,253,*56
$GNGLL,0419.83681,S,05539.77329,E,053531.00,A,A*61
$GNRMC,053532.00,A,0419.83672,S,05539.77332,E,0.092,,270525,,,A*71
$GNVTG,,T,,M,0.092,N,0.170,K,A*30
$GNGGA,053532.00,0419.83672,S,05539.77332,E,1,12,0.69,37.2,M,-47.6,M,,*43
$GNGSA,A,3,05,24,12,20,18,15,13,25,41,,,,1.25,0.69,1.05*1E
$GNGSA,A,3,79,78,83,82,67,80,,,,,,,1.25,0.69,1.05*18
$GPGSV,5,1,17,05,60,068,29,11,02,028,,12,56,022,31,13,15,132,16*76
$GPGSV,5,2,17,15,32,165,24,18,33,259,20,20,28,041,25,22,03,136,*71
$GPGSV,5,3,17,23,22,206,18,24,47,200,33,25,32,343,21,29,10,324,18*75
$GPGSV,5,4,17,36,52,277,,40,86,351,,41,58,082,31,49,32,274,*7E
$GPGSV,5,5,17,50,10,089,*4A
$GLGSV,3,1,09,67,18,094,09,68,27,146,17,69,11,194,,78,22,153,14*62
$GLGSV,3,2,09,79,77,136,30,80,43,339,35,82,11,358,10,83,26,308,25*62
$GLGSV,3,3,09,84,13,253,*56
$GNGLL,0419.83672,S,05539.77332,E,053532.00,A,A*64
$GNRMC,053533.00,A,0419.83665,S,05539.77339,E,0.236,,270525,,,A*71
$GNVTG,,T,,M,0.236,N,0.438,K,A*35
$GNGGA,053533.00,0419.83665,S,05539.77339,E,1,12,0.69,37.5,M,-47.6,M,,*48
$GNGSA,A,3,05,24,12,20,18,15,13,25,41,,,,1.25,0.69,1.05*1E
$GNGSA,A,3,79,78,83,82,67,80,,,,,,,1.25,0.69,1.05*18
$GPGSV,5,1,17,05,60,068,22,11,02,028,,12,56,022,29,13,15,132,17*75
$GPGSV,5,2,17,15,32,165,21,18,33,259,19,20,28,041,26,22,03,136,*7D
$GPGSV,5,3,17,23,22,206,15,24,47,200,31,25,32,343,21,29,10,324,19*7B
$GPGSV,5,4,17,36,52,277,,40,86,351,,41,58,082,29,49,32,274,*77
$GPGSV,5,5,17,50,10,089,*4A
$GLGSV,3,1,09,67,18,094,13,68,27,146,17,69,11,194,,78,22,153,15*68
$GLGSV,3,2,09,79,77,138,29,80,43,339,33,82,11,358,17,83,26,308,26*66
$GLGSV,3,3,09,84,13,253,*56
$GNGLL,0419.83665,S,05539.77339,E,053533.00,A,A*68
$GNRMC,053534.00,A,0419.83663,S,05539.77344,E,0.121,,270525,,,A*7F
$GNVTG,,T,,M,0.121,N,0.224,K,A*3B
$GNGGA,053534.00,0419.83663,S,05539.77344,E,1,12,0.74,37.7,M,-47.6,M,,*4D
$GNGSA,A,3,05,24,12,20,18,15,13,25,41,,,,1.46,0.74,1.26*16
$GNGSA,A,3,79,78,83,82,67,80,,,,,,,1.46,0.74,1.26*10
$GPGSV,5,1,17,05,60,068,29,11,02,028,,12,56,022,29,13,15,132,18*71
$GPGSV,5,2,17,15,32,165,19,18,33,259,20,20,28,041,25,22,03,136,*7F
$GPGSV,5,3,17,23,22,206,14,24,47,200,32,25,32,343,24,29,10,324,17*72
$GPGSV,5,4,17,36,52,277,,40,86,351,,41,58,082,28,49,32,274,*76
$GPGSV,5,5,17,50,10,089,*4A
$GLGSV,3,1,09,67,18,094,13,68,27,146,19,69,11,194,,78,22,153,15*66
$GLGSV,3,2,09,79,77,138,28,80,44,339,34,82,11,358,17,83,26,308,26*67
$GLGSV,3,3,09,84,13,253,*56
$GNGLL,0419.83663,S,05539.77344,E,053534.00,A,A*63
$GNRMC,053535.00,A,0419.83655,S,05539.77349,E,0.079,,270525,,,A*7A
$GNVTG,,T,,M,0.079,N,0.146,K,A*30
$GNGGA,053535.00,0419.83655,S,05539.77349,E,1,12,0.71,37.9,M,-47.6,M,,*4F
$GNGSA,A,3,05,24,12,20,18,15,13,25,41,,,,1.33,0.71,1.13*17
$GNGSA,A,3,79,78,83,82,67,80,,,,,,,1.33,0.71,1.13*11
$GPGSV,5,1,17,05,60,068,27,11,02,028,,12,56,022,32,13,15,132,18*75
$GPGSV,5,2,17,15,32,165,22,18,33,259,19,20,28,041,25,22,03,136,*7D
$GPGSV,5,3,17,23,22,206,14,24,47,200,31,25,32,343,25,29,10,324,16*71
$GPGSV,5,4,17,36,52,277,,40,86,351,,41,58,082,28,49,32,274,*76
$GPGSV,5,5,17,50,10,089,*4A
$GLGSV,3,1,09,67,18,094,13,68,27,146,20,69,11,194,,78,22,153,15*6C
$GLGSV,3,2,09,79,77,138,28,80,44,339,34,82,11,358,17,83,26,308,25*64
$GLGSV,3,3,09,84,13,253,*56
$GNGLL,0419.83655,S,05539.77349,E,053535.00,A,A*6A
$GNRMC,053536.00,A,0419.83651,S,05539.77353,E,0.062,,270525,,,A*7C
$GNVTG,,T,,M,0.062,N,0.114,K,A*3D
$GNGGA,053536.00,0419.83651,S,05539.77353,E,1,12,0.71,37.9,M,-47.6,M,,*43
$GNGSA,A,3,05,24,12,20,18,15,13,25,,,,,1.33,0.71,1.13*12
$GNGSA,A,3,79,78,83,82,67,80,,,,,,,1.33,0.71,1.13*11
$GPGSV,5,1,17,05,60,068,24,11,02,028,,12,56,022,34,13,15,132,17*7F
$GPGSV,5,2,17,15,32,165,25,18,33,259,22,20,28,041,25,22,03,136,*72
$GPGSV,5,3,17,23,22,206,17,24,47,200,30,25,32,343,25,29,10,324,15*70
$GPGSV,5,4,17,36,52,277,,40,86,351,,41,58,082,,49,32,274,*7C
$GPGSV,5,5,17,50,10,089,*4A
$GLGSV,3,1,09,67,18,094,13,68,27,146,19,69,11,194,,78,22,153,15*66
$GLGSV,3,2,09,79,77,138,27,80,44,339,32,82,11,358,17,83,26,308,23*6B
$GLGSV,3,3,09,84,13,253,*56
$GNGLL,0419.83651,S,05539.77353,E,053536.00,A,A*66
$GNRMC,053537.00,A,0419.83651,S,05539.77354,E,0.205,,270525,,,A*79
$GNVTG,,T,,M,0.205,N,0.379,K,A*37
$GNGGA,053537.00,0419.83651,S,05539.77354,E,1,12,0.71,37.9,M,-47.6,M,,*45
$GNGSA,A,3,05,24,12,20,18,15,13,25,,,,,1.33,0.71,1.13*12
$GNGSA,A,3,79,78,83,82,67,80,,,,,,,1.33,0.71,1.13*11
$GPGSV,5,1,17,05,60,068,23,11,02,028,,12,56,022,30,13,15,132,17*7C
$GPGSV,5,2,17,15,32,165,24,18,33,259,21,20,28,041,23,22,03,136,*76
$GPGSV,5,3,17,23,22,206,19,24,47,200,31,25,32,343,25,29,10,324,15*7F
$GPGSV,5,4,17,36,52,277,,40,86,351,,41,58,082,,49,32,274,*7C
$GPGSV,5,5,17,50,10,089,*4A
$GLGSV,3,1,09,67,18,094,12,68,27,146,21,69,11,194,,78,22,153,17*6E
$GLGSV,3,2,09,79,77,138,27,80,44,339,32,82,11,358,11,83,25,308,23*6E
$GLGSV,3,3,09,84,13,253,*56
$GNGLL,0419.83651,S,05539.77354,E,053537.00,A,A*60
$GNRMC,053538.00,A,0419.83649,S,05539.77365,E,0.390,,270525,,,A*70
$GNVTG,,T,,M,0.390,N,0.722,K,A*30
$GNGGA,053538.00,0419.83649,S,05539.77365,E,1,12,0.71,38.1,M,-47.6,M,,*46
$GNGSA,A,3,05,24,12,20,18,15,13,25,,,,,1.33,0.71,1.13*12
$GNGSA,A,3,79,78,83,82,67,80,,,,,,,1.33,0.71,1.13*11
$GPGSV,5,1,17,05,60,068,24,11,02,028,,12,56,022,31,13,15,132,17*7A
$GPGSV,5,2,17,15,32,165,21,18,33,259,22,20,28,041,21,22,03,136,*72
$GPGSV,5,3,17,23,22,206,21,24,47,200,31,25,32,343,24,29,10,324,16*76
$GPGSV,5,4,17,36,52,277,,40,86,351,,41,58,082,29,49,32,274,*77
$GPGSV,5,5,17,50,10,089,*4A
$GLGSV,3,1,09,67,18,094,12,68,27,146,20,69,11,194,,78,22,153,17*6F
$GLGSV,3,2,09,79,77,138,26,80,44,339,30,82,11,358,11,83,25,308,23*6D
$GLGSV,3,3,09,84,13,253,*56
$GNGLL,0419.83649,S,05539.77365,E,053538.00,A,A*64
$GNRMC,053539.00,A,0419.83656,S,05539.77363,E,0.132,,270525,,,A*73
$GNVTG,,T,,M,0.132,N,0.244,K,A*3F
$GNGGA,053539.00,0419.83656,S,05539.77363,E,1,12,0.69,38.0,M,-47.6,M,,*47
$GNGSA,A,3,05,24,12,20,18,15,13,25,41,,,,1.25,0.69,1.05*1E
$GNGSA,A,3,79,78,83,82,67,80,,,,,,,1.25,0.69,1.05*18
$GPGSV,5,1,17,05,60,068,26,11,02,028,,12,56,022,35,13,15,132,16*7D
$GPGSV,5,2,17,15,32,165,19,18,33,259,20,20,28,041,19,22,03,136,*70
$GPGSV,5,3,17,23,22,206,22,24,47,200,29,25,32,343,20,29,10,324,17*79
$GPGSV,5,4,17,36,52,277,,40,86,351,,41,58,082,30,49,32,274,*7F
$GPGSV,5,5,17,50,10,089,*4A
$GLGSV,3,1,09,67,18,094,16,68,27,146,20,69,11,194,,78,22,153,16*6A
$GLGSV,3,2,09,79,77,138,27,80,44,339,32,82,11,358,12,83,25,308,22*6C
$GLGSV,3,3,09,84,13,253,*56
$GNGLL,0419.83656,S,05539.77363,E,053539.00,A,A*6D
$GNRMC,053540.00,A,0419.83657,S,05539.77369,E,0.134,,270525,,,A*70
$GNVTG,,T,,M,0.134,N,0.249,K,A*34
$GNGGA,053540.00,0419.83657,S,05539.77369,E,1,12,0.72,38.1,M,-47.6,M,,*49
$GNGSA,A,3,05,24,12,20,18,15,13,25,41,,,,1.38,0.72,1.17*1B
$GNGSA,A,3,79,78,83,82,67,80,,,,,,,1.38,0.72,1.17*1D
$GPGSV,5,1,17,05,60,068,26,11,02,028,,12,56,022,34,13,15,132,19*73
$GPGSV,5,2,17,15,32,165,20,18,33,259,18,20,28,041,22,22,03,136,*79
$GPGSV,5,3,17,23,22,206,21,24,47,200,31,25,32,343,17,29,10,324,17*77
$GPGSV,5,4,17,36,52,277,,40,86,351,,41,58,082,29,49,32,274,*77
$GPGSV,5,5,17,50,10,089,*4A
$GLGSV,3,1,09,67,18,094,16,68,27,146,23,69,11,194,,78,22,153,16*69
$GLGSV,3,2,09,79,77,138,29,80,44,339,32,82,11,358,12,83,25,308,22*62
$GLGSV,3,3,09,84,13,253,*56
$GNGLL,0419.83657,S,05539.77369,E,053540.00,A,A*68
$GNRMC,053541.00,A,0419.83660,S,05539.77377,E,0.007,,270525,,,A*7B
$GNVTG,,T,,M,0.007,N,0.012,K,A*39
$GNGGA,053541.00,0419.83660,S,05539.77377,E,1,12,0.69,37.5,M,-47.6,M,,*42
$GNGSA,A,3,05,24,12,20,18,15,13,25,41,,,,1.25,0.69,1.05*1E
$GNGSA,A,3,79,78,83,82,67,80,,,,,,,1.25,0.69,1.05*18
$GPGSV,5,1,17,05,60,068,25,11,02,028,,12,56,022,30,13,15,132,21*7F
$GPGSV,5,2,17,15,32,165,29,18,33,259,16,20,28,041,24,22,03,136,*78
$GPGSV,5,3,17,23,22,206,19,24,47,200,31,25,32,343,19,29,10,324,18*7D
$GPGSV,5,4,17,36,52,277,,40,86,351,,41,58,082,29,49,32,274,*77
$GPGSV,5,5,17,50,10,089,*4A
$GLGSV,3,1,09,67,18,094,17,68,27,146,24,69,11,194,,78,22,153,10*69
$GLGSV,3,2,09,79,77,138,30,80,44,339,32,82,11,358,11,83,25,308,21*6A
$GLGSV,3,3,09,84,13,253,*56
$GNGLL,0419.83660,S,05539.77377,E,053541.00,A,A*62
$GNRMC,053542.00,A,0419.83662,S,05539.77387,E,0.224,,270525,,,A*76
$GNVTG,,T,,M,0.224,N,0.414,K,A*38
$GNGGA,053542.00,0419.83662,S,05539.77387,E,1,12,0.71,37.6,M,-47.6,M,,*46
$GNGSA,A,3,05,24,12,20,18,15,13,25,,,,,1.33,0.71,1.13*12
$GNGSA,A,3,79,78,83,82,67,80,,,,,,,1.33,0.71,1.13*11
$GPGSV,5,1,17,05,60,068,28,11,02,028,,12,56,022,31,13,15,132,23*71
$GPGSV,5,2,17,15,32,165,24,18,33,259,19,20,28,041,20,22,03,136,*7E
$GPGSV,5,3,17,23,22,206,18,24,47,200,32,25,32,343,19,29,10,324,17*70
$GPGSV,5,4,17,36,52,277,,40,86,351,,41,58,082,,49,32,274,*7C
$GPGSV,5,5,17,50,10,089,*4A
$GLGSV,3,1,09,67,18,094,11,68,27,146,21,69,11,194,,78,22,153,08*63
$GLGSV,3,2,09,79,77,138,19,80,44,339,33,82,11,358,09,83,25,308,20*68
$GLGSV,3,3,09,84,13,253,*56
$GNGLL,0419.83662,S,05539.77387,E,053542.00,A,A*6C
$GNRMC,053543.00,A,0419.83658,S,05539.77394,E,0.196,,270525,,,A*76
$GNVTG,,T,,M,0.196,N,0.363,K,A*35
