$GNRMC,052954.00,A,0419.84623,S,05539.77553,E,1.014,,270525,,,A*71
$GNVTG,,T,,M,1.014,N,1.878,K,A*3F
$GNGGA,052954.00,0419.84623,S,05539.77553,E,1,11,0.79,34.5,M,-47.6,M,,*4A
$GNGSA,A,3,05,24,12,20,18,15,,,,,,,1.54,0.79,1.32*1D
$GNGSA,A,3,79,78,83,82,67,,,,,,,,1.54,0.79,1.32*13
$GPGSV,5,1,17,05,61,073,30,11,04,027,,12,54,019,14,13,15,134,*70
$GPGSV,5,2,17,15,32,168,19,18,33,256,12,20,30,043,18,22,05,134,08*75
$GPGSV,5,3,17,23,20,207,18,24,49,203,30,25,30,342,14,29,09,322,*7A
$GPGSV,5,4,17,36,52,277,,40,86,351,33,41,58,082,31,49,32,274,*7E
$GPGSV,5,5,17,50,10,089,*4A
$GLGSV,3,1,09,67,18,097,11,68,25,149,,69,10,196,,78,25,151,09*69
$GLGSV,3,2,09,79,79,124,30,80,40,340,,82,13,356,09,83,27,305,09*62
$GLGSV,3,3,09,84,12,250,*54
$GNGLL,0419.84623,S,05539.77553,E,052954.00,A,A*6B
$GNRMC,052955.00,A,0419.84569,S,05539.77505,E,0.954,,270525,,,A*72
$GNVTG,,T,,M,0.954,N,1.767,K,A*32
$GNGGA,052955.00,0419.84569,S,05539.77505,E,1,10,0.90,34.2,M,-47.6,M,,*44
$GNGSA,A,3,05,24,12,20,15,,,,,,,,1.61,0.90,1.33*14
$GNGSA,A,3,79,78,83,82,67,,,,,,,,1.61,0.90,1.33*13
$GPGSV,5,1,17,05,61,073,29,11,04,027,,12,54,019,11,13,15,134,*7D
$GPGSV,5,2,17,15,32,168,18,18,33,256,05,20,30,043,16,22,05,134,08*7C
$GPGSV,5,3,17,23,20,207,15,24,49,203,32,25,30,342,12,29,09,322,*73
$GPGSV,5,4,17,36,52,277,,40,86,351,36,41,58,082,31,49,32,274,*7B
$GPGSV,5,5,17,50,10,089,*4A
$GLGSV,3,1,09,67,18,097,14,68,25,149,,69,10,196,,78,25,151,08*6D
$GLGSV,3,2,09,79,79,124,34,80,40,340,,82,13,356,10,83,27,305,12*64
$GLGSV,3,3,09,84,12,250,*54
$GNGLL,0419.84569,S,05539.77505,E,052955.00,A,A*64
$GNRMC,052956.00,A,0419.84585,S,05539.77527,E,0.964,,270525,,,A*70
$GNVTG,,T,,M,0.964,N,1.785,K,A*3D
$GNGGA,052956.00,0419.84585,S,05539.77527,E,1,12,0.79,34.1,M,-47.6,M,,*43
$GNGSA,A,3,05,24,12,20,18,15,25,,,,,,1.54,0.79,1.32*1A
$GNGSA,A,3,79,78,83,82,67,,,,,,,,1.54,0.79,1.32*13
$GPGSV,5,1,17,05,61,073,33,11,04,027,,12,54,019,14,13,15,134,*73
$GPGSV,5,2,17,15,32,168,20,18,33,256,08,20,30,043,14,22,05,134,08*78
$GPGSV,5,3,17,23,20,207,15,24,49,203,34,25,30,342,12,29,09,322,*75
$GPGSV,5,4,17,36,52,277,,40,86,351,36,41,58,082,35,49,32,274,*7F
$GPGSV,5,5,17,50,10,089,*4A
$GLGSV,3,1,09,67,18,097,11,68,25,149,,69,10,196,,78,25,151,13*62
$GLGSV,3,2,09,79,79,124,34,80,40,340,,82,13,356,09,83,27,305,08*67
$GLGSV,3,3,09,84,12,250,*54
$GNGLL,0419.84585,S,05539.77527,E,052956.00,A,A*65
$GNRMC,052957.00,A,0419.84614,S,05539.77558,E,1.160,241.47,270525,,,A*65
$GNVTG,241.47,T,,M,1.160,N,2.148,K,A*2E
$GNGGA,052957.00,0419.84614,S,05539.77558,E,1,11,0.85,34.4,M,-47.6,M,,*44
$GNGSA,A,3,05,24,12,20,18,15,25,,,,,,1.74,0.85,1.52*1D
$GNGSA,A,3,79,78,83,67,,,,,,,,,1.74,0.85,1.52*1E
$GPGSV,5,1,17,05,61,073,33,11,04,027,,12,54,019,17,13,15,134,*70
$GPGSV,5,2,17,15,32,168,18,18,33,256,09,20,30,043,12,22,05,134,08*74
$GPGSV,5,3,17,23,20,207,15,24,49,203,32,25,30,342,13,29,09,322,*72
$GPGSV,5,4,17,36,52,277,,40,86,351,34,41,58,082,37,49,32,274,*7F
$GPGSV,5,5,17,50,10,089,*4A
$GLGSV,3,1,09,67,18,097,10,68,25,149,,69,10,196,,78,25,151,11*61
$GLGSV,3,2,09,79,79,124,35,80,40,340,,82,13,356,07,83,27,305,11*60
$GLGSV,3,3,09,84,12,250,*54
$GNGLL,0419.84614,S,05539.77558,E,052957.00,A,A*67
$GNRMC,052958.00,A,0419.84586,S,05539.77544,E,0.977,,270525,,,A*7A
$GNVTG,,T,,M,0.977,N,1.810,K,A*3C
$GNGGA,052958.00,0419.84586,S,05539.77544,E,1,12,0.79,33.1,M,-47.6,M,,*4C
$GNGSA,A,3,05,24,12,20,18,15,25,,,,,,1.54,0.79,1.32*1A
$GNGSA,A,3,79,78,83,82,67,,,,,,,,1.54,0.79,1.32*13
$GPGSV,5,1,17,05,61,073,35,11,04,027,,12,54,019,09,13,15,134,*79
$GPGSV,5,2,17,15,32,168,17,18,33,256,16,20,30,043,15,22,05,134,08*72
$GPGSV,5,3,17,23,20,207,15,24,49,203,31,25,30,342,12,29,09,322,*70
$GPGSV,5,4,17,36,52,277,,40,86,351,35,41,58,082,36,49,32,274,*7F
$GPGSV,5,5,17,50,10,089,*4A
$GLGSV,3,1,09,67,18,097,12,68,25,149,,69,10,196,,78,25,151,11*63
$GLGSV,3,2,09,79,79,124,35,80,40,340,,82,13,356,11,83,27,305,13*65
$GLGSV,3,3,09,84,12,250,*54
$GNGLL,0419.84586,S,05539.77544,E,052958.00,A,A*6D
$GNRMC,052959.00,A,0419.84616,S,05539.77575,E,1.081,,270525,,,A*72
$GNVTG,,T,,M,1.081,N,2.002,K,A*35
$GNGGA,052959.00,0419.84616,S,05539.77575,E,1,10,0.84,32.9,M,-47.6,M,,*4C
$GNGSA,A,3,05,24,12,20,18,,,,,,,,1.58,0.84,1.34*11
$GNGSA,A,3,79,78,83,82,67,,,,,,,,1.58,0.84,1.34*1B
$GPGSV,5,1,17,05,61,073,34,11,04,027,,12,54,019,08,13,15,134,*79
$GPGSV,5,2,17,15,32,168,,18,33,256,15,20,30,043,15,22,05,134,08*77
$GPGSV,5,3,17,23,20,207,14,24,49,203,29,25,30,342,,29,09,322,*7B
$GPGSV,5,4,17,36,52,277,,40,86,351,34,41,58,082,36,49,32,274,*7E
$GPGSV,5,5,17,50,10,089,*4A
$GLGSV,3,1,09,67,18,097,09,68,25,149,,69,10,196,,78,25,151,09*60
$GLGSV,3,2,09,79,79,124,36,80,40,340,,82,13,356,12,83,27,305,08*6F
$GLGSV,3,3,09,84,12,250,*54
$GNGLL,0419.84616,S,05539.77575,E,052959.00,A,A*64
$GNRMC,053000.00,A,0419.84629,S,05539.77594,E,1.094,,270525,,,A*71
$GNVTG,,T,,M,1.094,N,2.027,K,A*36
$GNGGA,053000.00,0419.84629,S,05539.77594,E,1,10,0.84,32.4,M,-47.6,M,,*46
$GNGSA,A,3,05,24,12,20,18,,,,,,,,1.58,0.84,1.34*11
$GNGSA,A,3,79,78,83,82,67,,,,,,,,1.58,0.84,1.34*1B
$GPGSV,5,1,17,05,61,073,34,11,04,027,,12,54,019,11,13,15,134,*71
$GPGSV,5,2,17,15,32,168,16,18,33,256,22,20,30,043,14,22,05,134,08*75
$GPGSV,5,3,17,23,20,207,13,24,49,203,30,25,30,342,,29,09,322,*74
$GPGSV,5,4,17,36,52,277,,40,86,351,35,41,58,082,37,49,32,274,*7E
$GPGSV,5,5,17,50,10,089,*4A
$GLGSV,3,1,09,67,18,097,12,68,25,149,,69,10,196,,78,25,151,12*60
$GLGSV,3,2,09,79,79,124,35,80,40,340,,82,13,356,09,83,27,305,10*6F
$GLGSV,3,3,09,84,12,250,*54
$GNGLL,0419.84629,S,05539.77594,E,053000.00,A,A*63
$GNRMC,053001.00,A,0419.84633,S,05539.77596,E,0.860,,270525,,,A*7B
$GNVTG,,T,,M,0.860,N,1.593,K,A*3D
$GNGGA,053001.00,0419.84633,S,05539.77596,E,1,08,1.07,32.2,M,-47.6,M,,*4B
$GNGSA,A,3,05,24,12,20,18,,,,,,,,1.94,1.07,1.62*18
$GNGSA,A,3,79,83,67,,,,,,,,,,1.94,1.07,1.62*17
$GPGSV,5,1,17,05,61,073,35,11,04,027,,12,54,019,09,13,15,134,*79
$GPGSV,5,2,17,15,32,168,20,18,33,256,17,20,30,043,12,22,05,134,*78
$GPGSV,5,3,17,23,20,207,13,24,49,203,33,25,30,342,,29,09,322,*77
$GPGSV,5,4,17,36,52,277,,40,86,351,36,41,58,082,38,49,32,274,*72
$GPGSV,5,5,17,50,10,089,*4A
$GLGSV,3,1,09,67,18,097,10,68,25,149,,69,10,196,,78,25,151,06*67
$GLGSV,3,2,09,79,79,124,35,80,40,340,,82,13,356,07,83,27,305,07*67
$GLGSV,3,3,09,84,12,250,*54
$GNGLL,0419.84633,S,05539.77596,E,053001.00,A,A*6B
$GNRMC,053002.00,A,0419.84633,S,05539.77598,E,0.729,,270525,,,A*74
$GNVTG,,T,,M,0.729,N,1.350,K,A*36
$GNGGA,053002.00,0419.84633,S,05539.77598,E,1,07,1.18,31.9,M,-47.6,M,,*4F
$GNGSA,A,3,05,24,12,18,,,,,,,,,2.04,1.18,1.66*1A
$GNGSA,A,3,79,83,67,,,,,,,,,,2.04,1.18,1.66*17
$GPGSV,5,1,17,05,61,073,35,11,04,027,,12,54,019,09,13,15,134,*79
$GPGSV,5,2,17,15,32,168,19,18,33,256,17,20,30,043,09,22,05,134,*78
$GPGSV,5,3,17,23,20,207,14,24,49,203,33,25,30,342,,29,09,322,*70
$GPGSV,5,4,17,36,52,277,,40,86,351,35,41,58,082,38,49,32,274,*71
$GPGSV,5,5,17,50,10,089,*4A
$GLGSV,3,1,09,67,18,097,10,68,25,149,19,69,10,196,,78,25,151,06*6F
$GLGSV,3,2,09,79,79,124,36,80,40,340,,82,13,356,07,83,27,305,08*6B
$GLGSV,3,3,09,84,12,250,*54
$GNGLL,0419.84633,S,05539.77598,E,053002.00,A,A*66
$GNRMC,053003.00,A,0419.84638,S,05539.77609,E,0.785,,270525,,,A*73
$GNVTG,,T,,M,0.785,N,1.453,K,A*34
$GNGGA,053003.00,0419.84638,S,05539.77609,E,1,08,1.04,31.8,M,-47.6,M,,*4D
$GNGSA,A,3,05,24,12,18,,,,,,,,,1.81,1.04,1.48*15
$GNGSA,A,3,79,83,82,67,,,,,,,,,1.81,1.04,1.48*12
$GPGSV,5,1,17,05,61,073,35,11,04,027,,12,54,019,09,13,15,134,*79
$GPGSV,5,2,17,15,32,168,18,18,33,256,17,20,30,043,08,22,05,134,*78
$GPGSV,5,3,17,23,20,207,16,24,49,203,32,25,30,342,,29,09,322,*73
$GPGSV,5,4,17,36,52,277,,40,86,351,34,41,58,082,39,49,32,274,*71
$GPGSV,5,5,17,50,10,089,*4A
$GLGSV,3,1,09,67,18,097,10,68,25,149,18,69,10,196,,78,25,151,06*6E
$GLGSV,3,2,09,79,79,124,36,80,40,340,,82,13,356,07,83,27,305,12*60
$GLGSV,3,3,09,84,12,250,*54
$GNGLL,0419.84638,S,05539.77609,E,053003.00,A,A*67
$GNRMC,053004.00,A,0419.84621,S,05539.77607,E,0.628,,270525,,,A*74
$GNVTG,,T,,M,0.628,N,1.162,K,A*35
$GNGGA,053004.00,0419.84621,S,05539.77607,E,1,08,1.04,30.9,M,-47.6,M,,*4C
$GNGSA,A,3,05,24,12,18,,,,,,,,,1.81,1.04,1.48*15
$GNGSA,A,3,79,83,82,67,,,,,,,,,1.81,1.04,1.48*12
$GPGSV,5,1,17,05,61,073,36,11,04,027,,12,54,019,09,13,15,134,*7A
$GPGSV,5,2,17,15,32,168,18,18,33,256,16,20,30,043,08,22,05,134,*79
$GPGSV,5,3,17,23,20,207,18,24,49,203,32,25,30,342,,29,09,322,*7D
$GPGSV,5,4,17,36,52,277,,40,86,351,33,41,58,082,39,49,32,274,*76
$GPGSV,5,5,17,50,10,089,*4A
$GLGSV,3,1,09,67,18,097,10,68,25,149,18,69,10,196,,78,25,151,06*6E
$GLGSV,3,2,09,79,79,124,36,80,40,340,,82,13,356,07,83,27,305,10*62
$GLGSV,3,3,09,84,12,250,*54
$GNGLL,0419.84621,S,05539.77607,E,053004.00,A,A*66
$GNRMC,053005.00,A,0419.84577,S,05539.77568,E,0.210,,270525,,,A*70
$GNVTG,,T,,M,0.210,N,0.388,K,A*3D
$GNGGA,053005.00,0419.84577,S,05539.77568,E,1,09,0.90,30.5,M,-47.6,M,,*46
$GNGSA,A,3,05,24,12,18,15,,,,,,,,1.66,0.90,1.39*12
$GNGSA,A,3,79,83,82,67,,,,,,,,,1.66,0.90,1.39*11
$GPGSV,5,1,17,05,61,073,32,11,04,027,,12,54,019,09,13,15,134,13*7C
$GPGSV,5,2,17,15,32,168,19,18,33,256,17,20,30,043,08,22,05,134,*79
$GPGSV,5,3,17,23,20,207,20,24,49,203,33,25,30,342,,29,09,322,*77
$GPGSV,5,4,17,36,52,277,,40,86,351,36,41,58,082,37,49,32,274,*7D
$GPGSV,5,5,17,50,10,089,*4A
$GLGSV,3,1,09,67,18,097,10,68,25,149,18,69,10,196,,78,25,151,05*6D
$GLGSV,3,2,09,79,79,124,36,80,40,340,,82,13,356,07,83,27,305,10*62
$GLGSV,3,3,09,84,12,250,*54
$GNGLL,0419.84577,S,05539.77568,E,053005.00,A,A*6D
$GNRMC,053006.00,A,0419.84562,S,05539.77556,E,0.075,,270525,,,A*7B
$GNVTG,,T,,M,0.075,N,0.139,K,A*34
$GNGGA,053006.00,0419.84562,S,05539.77556,E,1,09,0.90,30.6,M,-47.6,M,,*4F
$GNGSA,A,3,05,24,12,18,15,,,,,,,,1.66,0.90,1.39*12
$GNGSA,A,3,79,83,82,67,,,,,,,,,1.66,0.90,1.39*11
$GPGSV,5,1,17,05,61,073,33,11,04,027,,12,54,019,09,13,15,134,11*7F
$GPGSV,5,2,17,15,32,168,20,18,33,256,15,20,30,043,08,22,05,134,*71
$GPGSV,5,3,17,23,20,207,20,24,49,203,33,25,30,342,,29,09,322,*77
$GPGSV,5,4,17,36,52,277,,40,86,351,36,41,58,082,38,49,32,274,*72
$GPGSV,5,5,17,50,10,089,*4A
$GLGSV,3,1,09,67,18,097,10,68,25,149,19,69,10,196,,78,25,151,06*6F
$GLGSV,3,2,09,79,79,124,35,80,40,340,,82,13,356,07,83,27,305,10*61
$GLGSV,3,3,09,84,12,250,*54
$GNGLL,0419.84562,S,05539.77556,E,053006.00,A,A*67
$GNRMC,053007.00,A,0419.84582,S,05539.77585,E,0.016,,270525,,,A*7F
$GNVTG,,T,,M,0.016,N,0.030,K,A*39
$GNGGA,053007.00,0419.84582,S,05539.77585,E,1,10,0.85,30.4,M,-47.6,M,,*40
$GNGSA,A,3,05,24,12,20,18,15,,,,,,,1.63,0.85,1.39*11
$GNGSA,A,3,79,83,82,67,,,,,,,,,1.63,0.85,1.39*10
$GPGSV,5,1,17,05,61,073,33,11,04,027,13,12,54,019,13,13,15,134,08*7E
$GPGSV,5,2,17,15,32,168,19,18,33,256,16,20,30,043,09,22,05,134,*79
$GPGSV,5,3,17,23,20,207,19,24,49,203,32,25,30,342,,29,09,322,*7C
$GPGSV,5,4,17,36,52,277,,40,86,351,36,41,58,082,37,49,32,274,*7D
$GPGSV,5,5,17,50,10,089,*4A
$GLGSV,3,1,09,67,18,097,12,68,25,149,18,69,10,196,,78,25,151,08*62
$GLGSV,3,2,09,79,79,124,35,80,40,340,,82,13,356,10,83,27,305,11*66
$GLGSV,3,3,09,84,12,250,*54
$GNGLL,0419.84582,S,05539.77585,E,053007.00,A,A*66
$GNRMC,053008.00,A,0419.84584,S,05539.77588,E,0.088,,270525,,,A*7C
$GNVTG,,T,,M,0.088,N,0.162,K,A*38
$GNGGA,053008.00,0419.84584,S,05539.77588,E,1,10,0.85,30.3,M,-47.6,M,,*43
$GNGSA,A,3,05,24,12,20,18,15,,,,,,,1.63,0.85,1.39*11
$GNGSA,A,3,79,83,82,67,,,,,,,,,1.63,0.85,1.39*10
$GPGSV,5,1,17,05,61,073,33,11,04,027,11,12,54,019,13,13,15,134,10*75
$GPGSV,5,2,17,15,32,168,19,18,33,256,15,20,30,043,09,22,05,134,*7A
$GPGSV,5,3,17,23,20,207,18,24,49,203,33,25,30,342,,29,09,322,*7C
$GPGSV,5,4,17,36,52,277,,40,86,351,36,41,58,082,37,49,32,274,*7D
$GPGSV,5,5,17,50,10,089,*4A
$GLGSV,3,1,09,67,18,097,12,68,25,149,18,69,10,196,,78,25,151,08*62
$GLGSV,3,2,09,79,79,124,35,80,40,340,,82,13,356,09,83,27,305,11*6E
$GLGSV,3,3,09,84,12,250,*54
$GNGLL,0419.84584,S,05539.77588,E,053008.00,A,A*62
$GNRMC,053009.00,A,0419.84637,S,05539.77646,E,0.762,,270525,,,A*74
$GNVTG,,T,,M,0.762,N,1.411,K,A*3B
$GNGGA,053009.00,0419.84637,S,05539.77646,E,1,10,0.85,30.6,M,-47.6,M,,*4D
$GNGSA,A,3,05,24,12,20,18,15,,,,,,,1.63,0.85,1.39*11
$GNGSA,A,3,79,83,82,67,,,,,,,,,1.63,0.85,1.39*10
$GPGSV,5,1,17,05,61,073,34,11,04,027,09,12,54,019,13,13,15,134,12*79
$GPGSV,5,2,17,15,32,168,19,18,33,256,17,20,30,043,09,22,05,134,*78
$GPGSV,5,3,17,23,20,207,17,24,49,203,31,25,30,342,,29,09,322,*71
$GPGSV,5,4,17,36,52,277,,40,86,351,36,41,58,082,37,49,32,274,*7D
$GPGSV,5,5,17,50,10,089,*4A
$GLGSV,3,1,09,67,18,097,13,68,25,149,18,69,10,196,,78,25,151,09*62
$GLGSV,3,2,09,79,79,126,32,80,40,340,,82,13,356,12,83,27,305,12*62
$GLGSV,3,3,09,84,12,250,*54
$GNGLL,0419.84637,S,05539.77646,E,053009.00,A,A*69
$GNRMC,053010.00,A,0419.84602,S,05539.77616,E,0.125,,270525,,,A*7A
$GNVTG,,T,,M,0.125,N,0.232,K,A*38
$GNGGA,053010.00,0419.84602,S,05539.77616,E,1,11,0.79,30.1,M,-47.6,M,,*43
$GNGSA,A,3,05,24,12,20,18,15,13,,,,,,1.47,0.79,1.24*1A
$GNGSA,A,3,79,83,82,67,,,,,,,,,1.47,0.79,1.24*19
$GPGSV,5,1,17,05,61,073,33,11,04,027,08,12,54,019,13,13,15,134,14*79
$GPGSV,5,2,17,15,32,168,21,18,33,256,18,20,30,043,09,22,05,134,*7C
$GPGSV,5,3,17,23,20,207,18,24,49,203,32,25,30,342,,29,09,322,*7D
$GPGSV,5,4,17,36,52,277,,40,86,351,37,41,58,082,36,49,32,274,*7D
$GPGSV,5,5,17,50,10,089,*4A
$GLGSV,3,1,09,67,18,097,13,68,25,149,17,69,10,196,,78,25,151,09*6D
$GLGSV,3,2,09,79,79,126,33,80,40,340,,82,13,356,12,83,27,305,10*61
$GLGSV,3,3,09,84,12,250,*54
$GNGLL,0419.84602,S,05539.77616,E,053010.00,A,A*62
$GNRMC,053011.00,A,0419.84608,S,05539.77624,E,0.353,,270525,,,A*73
$GNVTG,,T,,M,0.353,N,0.654,K,A*3F
$GNGGA,053011.00,0419.84608,S,05539.77624,E,1,11,0.79,30.0,M,-47.6,M,,*48
$GNGSA,A,3,05,24,12,20,18,15,13,,,,,,1.47,0.79,1.24*1A
$GNGSA,A,3,79,83,82,67,,,,,,,,,1.47,0.79,1.24*19
$GPGSV,5,1,17,05,61,073,33,11,04,027,08,12,54,019,13,13,15,134,14*79
$GPGSV,5,2,17,15,32,168,21,18,33,256,19,20,30,043,09,22,05,134,*7D
$GPGSV,5,3,17,23,20,207,18,24,49,203,27,25,30,342,,29,09,322,*79
$GPGSV,5,4,17,36,52,277,,40,86,351,35,41,58,082,38,49,32,274,*71
$GPGSV,5,5,17,50,10,089,*4A
$GLGSV,3,1,09,67,18,097,08,68,25,149,17,69,10,196,,78,25,151,08*66
$GLGSV,3,2,09,79,79,126,36,80,40,340,,82,13,356,11,83,27,305,09*6F
$GLGSV,3,3,09,84,12,250,*54
$GNGLL,0419.84608,S,05539.77624,E,053011.00,A,A*68
$GNRMC,053012.00,A,0419.84623,S,05539.77644,E,0.535,,270525,,,A*79
$GNVTG,,T,,M,0.535,N,0.992,K,A*3C
$GNGGA,053012.00,0419.84623,S,05539.77644,E,1,10,0.87,29.9,M,-47.6,M,,*45
$GNGSA,A,3,05,24,12,20,18,15,13,,,,,,1.54,0.87,1.27*1A
$GNGSA,A,3,79,82,67,,,,,,,,,,1.54,0.87,1.27*12
$GPGSV,5,1,17,05,61,073,33,11,04,027,09,12,54,019,13,13,15,134,14*78
$GPGSV,5,2,17,15,32,168,21,18,33,256,18,20,30,043,09,22,05,134,*7C
$GPGSV,5,3,17,23,20,207,16,24,49,203,28,25,30,342,,29,09,322,*78
$GPGSV,5,4,17,36,52,277,,40,86,351,36,41,58,082,37,49,32,274,*7D
$GPGSV,5,5,17,50,10,089,*4A
$GLGSV,3,1,09,67,18,097,11,68,25,149,17,69,10,196,,78,25,151,10*67
$GLGSV,3,2,09,79,79,126,36,80,40,340,,82,13,356,14,83,27,305,07*64
$GLGSV,3,3,09,84,12,250,*54
$GNGLL,0419.84623,S,05539.77644,E,053012.00,A,A*64
$GNRMC,053013.00,A,0419.84582,S,05539.77597,E,0.261,,270525,,,A*7B
$GNVTG,,T,,M,0.261,N,0.484,K,A*30
$GNGGA,053013.00,0419.84582,S,05539.77597,E,1,12,0.74,30.5,M,-47.6,M,,*4B
$GNGSA,A,3,05,24,12,20,18,15,13,41,,,,,1.37,0.74,1.15*17
$GNGSA,A,3,79,78,83,82,67,,,,,,,,1.37,0.74,1.15*1E
$GPGSV,5,1,17,05,61,073,33,11,04,027,09,12,54,019,10,13,15,134,14*7B
$GPGSV,5,2,17,15,32,168,20,18,33,256,16,20,30,043,10,22,05,134,*7B
$GPGSV,5,3,17,23,20,207,12,24,49,203,29,25,30,342,,29,09,322,*7D
$GPGSV,5,4,17,36,52,277,,40,86,351,37,41,58,082,37,49,32,274,*7C
$GPGSV,5,5,17,50,10,089,*4A
$GLGSV,3,1,09,67,18,097,11,68,25,149,16,69,10,196,,78,25,151,08*6F
$GLGSV,3,2,09,79,79,126,36,80,40,340,,82,13,356,12,83,27,305,14*60
$GLGSV,3,3,09,84,12,250,*54
$GNGLL,0419.84582,S,05539.77597,E,053013.00,A,A*60
$GNRMC,053014.00,A,0419.84596,S,05539.77616,E,0.461,,270525,,,A*75
$GNVTG,,T,,M,0.461,N,0.853,K,A*30
$GNGGA,053014.00,0419.84596,S,05539.77616,E,1,12,0.79,30.2,M,-47.6,M,,*49
$GNGSA,A,3,05,24,12,18,15,13,41,,,,,,1.40,0.79,1.15*18
$GNGSA,A,3,79,78,83,82,67,,,,,,,,1.40,0.79,1.15*13
$GPGSV,5,1,17,05,61,073,34,11,04,027,09,12,54,019,09,13,15,134,14*74
$GPGSV,5,2,17,15,32,168,18,18,33,256,18,20,30,043,07,22,05,134,*78
$GPGSV,5,3,17,23,20,207,12,24,49,203,31,25,30,342,,29,09,322,*74
$GPGSV,5,4,17,36,52,277,,40,86,351,37,41,58,082,38,49,32,274,*73
$GPGSV,5,5,17,50,10,089,*4A
$GLGSV,3,1,09,67,18,097,09,68,25,149,16,69,10,196,,78,25,151,09*67
$GLGSV,3,2,09,79,79,126,36,80,40,340,,82,13,356,12,83,27,305,11*65
$GLGSV,3,3,09,84,12,250,*54
$GNGLL,0419.84596,S,05539.77616,E,053014.00,A,A*68
$GNRMC,053015.00,A,0419.84606,S,05539.77627,E,0.426,,270525,,,A*7F
$GNVTG,,T,,M,0.426,N,0.789,K,A*3B
$GNGGA,053015.00,0419.84606,S,05539.77627,E,1,12,0.77,30.0,M,-47.6,M,,*4C
$GNGSA,A,3,05,24,12,20,18,15,13,41,,,,,1.40,0.77,1.17*16
$GNGSA,A,3,79,83,82,67,,,,,,,,,1.40,0.77,1.17*10
$GPGSV,5,1,17,05,61,073,35,11,04,027,09,12,54,019,16,13,15,134,14*7B
$GPGSV,5,2,17,15,32,168,18,18,33,256,19,20,30,043,08,22,05,134,*76
$GPGSV,5,3,17,23,20,207,12,24,49,203,30,25,30,342,,29,09,322,*75
$GPGSV,5,4,17,36,52,277,,40,86,351,34,41,58,082,39,49,32,274,*71
$GPGSV,5,5,17,50,10,089,*4A
$GLGSV,3,1,09,67,18,097,10,68,25,149,15,69,10,196,,78,25,151,06*63
$GLGSV,3,2,09,79,79,126,36,80,40,340,,82,13,356,10,83,27,305,12*64
$GLGSV,3,3,09,84,12,250,*54
$GNGLL,0419.84606,S,05539.77627,E,053015.00,A,A*61
$GNRMC,053016.00,A,0419.84516,S,05539.77535,E,0.116,,270525,,,A*78
$GNVTG,,T,,M,0.116,N,0.215,K,A*3D
$GNGGA,053016.00,0419.84516,S,05539.77535,E,1,12,0.77,29.6,M,-47.6,M,,*43
$GNGSA,A,3,05,24,12,20,18,15,13,41,,,,,1.40,0.77,1.17*16
$GNGSA,A,3,79,83,82,67,,,,,,,,,1.40,0.77,1.17*10
$GPGSV,5,1,17,05,61,073,34,11,04,027,09,12,54,019,11,13,15,134,14*7D
$GPGSV,5,2,17,15,32,168,19,18,33,256,18,20,30,043,12,22,05,134,*7D
$GPGSV,5,3,17,23,20,207,14,24,49,203,30,25,30,342,,29,09,322,*73
$GPGSV,5,4,17,36,52,277,,40,86,351,35,41,58,082,39,49,32,274,*70
$GPGSV,5,5,17,50,10,089,*4A
$GLGSV,3,1,09,67,18,097,10,68,25,149,14,69,10,196,,78,25,151,04*60
$GLGSV,3,2,09,79,79,126,36,80,40,340,,82,13,356,09,83,27,305,13*6D
$GLGSV,3,3,09,84,12,250,*54
$GNGLL,0419.84516,S,05539.77535,E,053016.00,A,A*60
$GNRMC,053017.00,A,0419.84613,S,05539.77640,E,1.168,182.06,270525,,,A*65
$GNVTG,182.06,T,,M,1.168,N,2.162,K,A*27
$GNGGA,053017.00,0419.84613,S,05539.77640,E,1,12,0.82,30.3,M,-47.6,M,,*42
$GNGSA,A,3,05,24,12,20,18,15,13,41,,,,,1.43,0.82,1.17*1F
$GNGSA,A,3,79,78,82,67,,,,,,,,,1.43,0.82,1.17*1D
$GPGSV,5,1,17,05,61,073,35,11,04,027,09,12,54,019,12,13,15,134,14*7F
$GPGSV,5,2,17,15,32,168,19,18,33,256,16,20,30,043,11,22,05,134,*70
$GPGSV,5,3,17,23,20,207,16,24,49,203,31,25,30,342,,29,09,322,*70
$GPGSV,5,4,17,36,52,277,,40,86,351,35,41,58,082,39,49,32,274,*70
$GPGSV,5,5,17,50,10,089,*4A
$GLGSV,3,1,09,67,18,097,10,68,25,149,13,69,10,196,,78,25,151,14*66
$GLGSV,3,2,09,79,79,126,36,80,40,340,,82,13,356,11,83,27,305,07*61
$GLGSV,3,3,09,84,12,250,*54
$GNGLL,0419.84613,S,05539.77640,E,053017.00,A,A*66
$GNRMC,053018.00,A,0419.84607,S,05539.77641,E,0.805,,270525,,,A*7E
$GNVTG,,T,,M,0.805,N,1.490,K,A*3C
$GNGGA,053018.00,0419.84607,S,05539.77641,E,1,12,0.74,30.0,M,-47.6,M,,*43
$GNGSA,A,3,05,24,12,20,18,15,13,41,,,,,1.37,0.74,1.15*17
$GNGSA,A,3,79,78,83,82,67,,,,,,,,1.37,0.74,1.15*1E
$GPGSV,5,1,17,05,61,073,35,11,04,027,09,12,54,019,15,13,15,134,14*78
$GPGSV,5,2,17,15,32,168,18,18,33,256,16,20,30,043,11,22,05,134,*71
$GPGSV,5,3,17,23,20,207,17,24,49,203,31,25,30,342,,29,09,322,*71
$GPGSV,5,4,17,36,52,277,,40,86,351,35,41,58,082,38,49,32,274,*71
$GPGSV,5,5,17,50,10,089,*4A
$GLGSV,3,1,09,67,18,097,11,68,25,149,11,69,10,196,,78,25,151,11*60
$GLGSV,3,2,09,79,79,126,35,80,40,340,20,82,13,356,08,83,27,305,09*66
$GLGSV,3,3,09,84,12,250,*54
$GNGLL,0419.84607,S,05539.77641,E,053018.00,A,A*6D
$GNRMC,053019.00,A,0419.84567,S,05539.77603,E,0.787,,270525,,,A*79
$GNVTG,,T,,M,0.787,N,1.457,K,A*32
$GNGGA,053019.00,0419.84567,S,05539.77603,E,1,12,0.78,30.1,M,-47.6,M,,*4C
$GNGSA,A,3,05,24,12,20,18,13,41,,,,,,1.39,0.78,1.15*11
$GNGSA,A,3,79,78,83,82,67,,,,,,,,1.39,0.78,1.15*1C
$GPGSV,5,1,17,05,61,073,35,11,04,027,09,12,54,019,11,13,15,134,14*7C
$GPGSV,5,2,17,15,32,168,18,18,33,256,16,20,30,043,13,22,05,134,*73
$GPGSV,5,3,17,23,20,207,17,24,49,203,31,25,30,342,,29,09,322,*71
$GPGSV,5,4,17,36,52,277,,40,86,351,34,41,58,082,38,49,32,274,*70
$GPGSV,5,5,17,50,10,089,*4A
$GLGSV,3,1,09,67,18,097,15,68,25,149,,69,10,196,,78,25,151,09*6D
$GLGSV,3,2,09,79,79,126,36,80,40,340,19,82,13,356,11,83,27,305,09*67
$GLGSV,3,3,09,84,12,250,*54
$GNGLL,0419.84567,S,05539.77603,E,053019.00,A,A*6F
$GNRMC,053020.00,A,0419.84603,S,05539.77646,E,1.317,153.08,270525,,,A*6E
$GNVTG,153.08,T,,M,1.317,N,2.438,K,A*25
$GNGGA,053020.00,0419.84603,S,05539.77646,E,1,12,0.74,30.1,M,-47.6,M,,*4A
$GNGSA,A,3,05,24,12,20,18,15,13,41,,,,,1.37,0.74,1.15*17
$GNGSA,A,3,79,78,83,82,67,,,,,,,,1.37,0.74,1.15*1E
$GPGSV,5,1,17,05,61,073,34,11,04,027,09,12,54,019,14,13,15,134,14*78
$GPGSV,5,2,17,15,32,168,19,18,33,256,16,20,30,043,13,22,05,134,*72
$GPGSV,5,3,17,23,20,207,17,24,49,203,31,25,30,342,,29,09,322,*71
$GPGSV,5,4,17,36,52,277,,40,86,351,34,41,58,082,38,49,32,274,*70
$GPGSV,5,5,17,50,10,089,*4A
$GLGSV,3,1,09,67,18,097,16,68,25,149,,69,10,196,,78,25,151,14*62
$GLGSV,3,2,09,79,79,126,36,80,40,340,17,82,13,356,11,83,27,305,12*63
$GLGSV,3,3,09,84,12,250,*54
$GNGLL,0419.84603,S,05539.77646,E,053020.00,A,A*65
$GNRMC,053021.00,A,0419.84600,S,05539.77651,E,1.062,,270525,,,A*7A
$GNVTG,,T,,M,1.062,N,1.966,K,A*30
$GNGGA,053021.00,0419.84600,S,05539.77651,E,1,11,0.85,30.3,M,-47.6,M,,*41
$GNGSA,A,3,05,24,12,20,18,15,13,41,,,,,1.47,0.85,1.19*12
$GNGSA,A,3,79,82,67,,,,,,,,,,1.47,0.85,1.19*1F
$GPGSV,5,1,17,05,61,073,33,11,04,027,09,12,54,019,15,13,15,134,14*7E
$GPGSV,5,2,17,15,32,168,19,18,33,256,16,20,30,043,11,22,05,134,*70
$GPGSV,5,3,17,23,20,207,18,24,49,203,31,25,30,342,,29,09,322,*7E
$GPGSV,5,4,17,36,52,277,,40,86,351,35,41,58,082,37,49,32,274,*7E
$GPGSV,5,5,17,50,10,089,*4A
$GLGSV,3,1,09,67,18,097,12,68,25,149,,69,10,196,,78,25,151,07*64
$GLGSV,3,2,09,79,79,126,36,80,40,340,15,82,13,356,12,83,27,305,06*67
$GLGSV,3,3,09,84,12,250,*54
$GNGLL,0419.84600,S,05539.77651,E,053021.00,A,A*61
$GNRMC,053022.00,A,0419.84542,S,05539.77595,E,0.605,,270525,,,A*71
$GNVTG,,T,,M,0.605,N,1.121,K,A*3D
$GNGGA,053022.00,0419.84542,S,05539.77595,E,1,12,0.77,30.0,M,-47.6,M,,*41
$GNGSA,A,3,05,24,12,20,18,15,13,41,,,,,1.40,0.77,1.17*16
$GNGSA,A,3,79,83,82,67,80,,,,,,,,1.40,0.77,1.17*18
$GPGSV,5,1,17,05,61,073,32,11,04,027,09,12,54,019,14,13,15,134,14*7E
$GPGSV,5,2,17,15,32,168,19,18,33,256,16,20,30,043,13,22,05,134,*72
$GPGSV,5,3,17,23,20,207,15,24,49,203,31,25,30,342,,29,09,322,*73
$GPGSV,5,4,17,36,52,277,,40,86,351,36,41,58,082,37,49,32,274,*7D
$GPGSV,5,5,17,50,10,089,*4A
$GLGSV,3,1,09,67,18,097,15,68,25,148,,69,10,196,,78,25,151,07*62
$GLGSV,3,2,09,79,79,126,35,80,40,340,13,82,13,356,10,83,27,305,12*65
$GLGSV,3,3,09,84,12,250,*54
$GNGLL,0419.84542,S,05539.77595,E,053022.00,A,A*6C
$GNRMC,053023.00,A,0419.84567,S,05539.77621,E,0.728,,270525,,,A*75
$GNVTG,,T,,M,0.728,N,1.348,K,A*3E
$GNGGA,053023.00,0419.84567,S,05539.77621,E,1,12,0.82,30.2,M,-47.6,M,,*43
$GNGSA,A,3,05,24,12,20,18,15,13,41,,,,,1.43,0.82,1.17*1F
$GNGSA,A,3,79,78,82,67,,,,,,,,,1.43,0.82,1.17*1D
$GPGSV,5,1,17,05,61,073,32,11,04,027,09,12,54,019,13,13,15,134,14*79
$GPGSV,5,2,17,15,32,168,20,18,33,256,17,20,30,043,13,22,05,134,*79
$GPGSV,5,3,17,23,20,207,13,24,49,203,32,25,30,342,,29,09,322,*76
$GPGSV,5,4,17,36,52,277,,40,86,351,37,41,58,082,36,49,32,274,*7D
$GPGSV,5,5,17,50,10,089,*4A
$GLGSV,3,1,09,67,18,097,13,68,25,148,,69,10,196,,78,25,151,09*6A
$GLGSV,3,2,09,79,79,126,36,80,40,340,10,82,13,356,09,83,27,305,06*68
$GLGSV,3,3,09,84,12,250,*54
$GNGLL,0419.84567,S,05539.77621,E,053023.00,A,A*66
$GNRMC,053024.00,A,0419.84577,S,05539.77633,E,0.664,,270525,,,A*79
$GNVTG,,T,,M,0.664,N,1.230,K,A*39
$GNGGA,053024.00,0419.84577,S,05539.77633,E,1,12,0.74,30.3,M,-47.6,M,,*4E
$GNGSA,A,3,05,24,12,20,18,15,13,41,,,,,1.37,0.74,1.15*17
$GNGSA,A,3,79,78,83,82,67,,,,,,,,1.37,0.74,1.15*1E
$GPGSV,5,1,17,05,61,073,32,11,04,027,09,12,54,019,12,13,15,134,14*78
$GPGSV,5,2,17,15,32,168,22,18,33,256,16,20,30,043,18,22,05,134,*71
$GPGSV,5,3,17,23,20,207,12,24,49,203,32,25,30,342,,29,09,322,*77
$GPGSV,5,4,17,36,52,277,,40,86,351,36,41,58,082,37,49,32,274,*7D
$GPGSV,5,5,17,50,10,089,*4A
$GLGSV,3,1,09,67,18,097,12,68,25,148,,69,10,196,,78,25,151,07*65
$GLGSV,3,2,09,79,79,126,36,80,40,340,08,82,13,356,09,83,27,305,09*6E
$GLGSV,3,3,09,84,12,250,*54
$GNGLL,0419.84577,S,05539.77633,E,053024.00,A,A*63
$GNRMC,053025.00,A,0419.84615,S,05539.77665,E,1.239,145.43,270525,,,A*68
$GNVTG,145.43,T,,M,1.239,N,2.294,K,A*20
$GNGGA,053025.00,0419.84615,S,05539.77665,E,1,12,0.78,31.0,M,-47.6,M,,*45
$GNGSA,A,3,05,24,12,20,18,15,41,,,,,,1.47,0.78,1.25*1D
$GNGSA,A,3,79,78,83,82,67,,,,,,,,1.47,0.78,1.25*16
$GPGSV,5,1,17,05,61,073,33,11,04,027,09,12,54,019,11,13,15,134,*7F
$GPGSV,5,2,17,15,32,168,22,18,33,256,18,20,30,043,11,22,05,134,*76
$GPGSV,5,3,17,23,20,207,11,24,49,203,32,25,30,342,14,29,09,322,*71
$GPGSV,5,4,17,36,52,277,,40,86,351,36,41,58,082,37,49,32,274,*7D
$GPGSV,5,5,17,50,10,089,*4A
$GLGSV,3,1,09,67,18,097,16,68,25,148,,69,10,196,,78,25,151,08*6E
$GLGSV,3,2,09,79,79,126,36,80,40,340,08,82,13,356,08,83,27,305,10*67
$GLGSV,3,3,09,84,12,250,*54
$GNGLL,0419.84615,S,05539.77665,E,053025.00,A,A*66
$GNRMC,053026.00,A,0419.84606,S,05539.77663,E,1.060,,270525,,,D*7D
$GNVTG,,T,,M,1.060,N,1.964,K,D*35
$GNGGA,053026.00,0419.84606,S,05539.77663,E,2,12,0.78,30.6,M,-47.6,M,,0000*46
$GNGSA,A,3,05,24,12,20,18,15,41,,,,,,1.47,0.78,1.25*1D
$GNGSA,A,3,79,78,83,82,67,,,,,,,,1.47,0.78,1.25*16
$GPGSV,5,1,17,05,61,073,32,11,04,027,09,12,54,019,11,13,15,134,*7E
$GPGSV,5,2,17,15,32,168,22,18,33,256,17,20,30,043,14,22,05,134,*7C
$GPGSV,5,3,17,23,20,207,10,24,49,203,31,25,30,342,,29,09,322,*76
$GPGSV,5,4,17,36,52,277,,40,86,351,36,41,58,082,37,49,32,274,*7D
$GPGSV,5,5,17,50,10,089,*4A
$GLGSV,3,1,09,67,18,097,12,68,25,148,,69,10,196,,78,25,151,09*6B
$GLGSV,3,2,09,79,79,126,35,80,40,340,08,82,13,356,09,83,27,305,07*63
$GLGSV,3,3,09,84,12,250,*54
$GNGLL,0419.84606,S,05539.77663,E,053026.00,A,D*64
$GNRMC,053027.00,A,0419.84538,S,05539.77592,E,0.145,,270525,,,D*78
$GNVTG,,T,,M,0.145,N,0.268,K,D*34
$GNGGA,053027.00,0419.84538,S,05539.77592,E,2,12,0.78,29.8,M,-47.6,M,,0000*42
$GNGSA,A,3,05,24,12,20,18,15,41,,,,,,1.47,0.78,1.25*1D
$GNGSA,A,3,79,78,83,82,67,,,,,,,,1.47,0.78,1.25*16
$GPGSV,5,1,17,05,61,073,31,11,04,027,09,12,54,019,10,13,15,134,*7C
$GPGSV,5,2,17,15,32,168,20,18,33,256,16,20,30,043,13,22,05,134,*78
$GPGSV,5,3,17,23,20,207,09,24,49,203,31,25,30,342,,29,09,322,*7E
$GPGSV,5,4,17,36,52,277,,40,86,351,36,41,58,082,37,49,32,274,*7D
$GPGSV,5,5,17,50,10,089,*4A
$GLGSV,3,1,09,67,18,097,09,68,25,148,,69,10,196,,78,25,151,07*6F
$GLGSV,3,2,09,79,79,126,35,80,40,340,08,82,13,356,11,83,27,305,12*6E
$GLGSV,3,3,09,84,12,250,*54
$GNGLL,0419.84538,S,05539.77592,E,053027.00,A,D*66
$GNRMC,053028.00,A,0419.84504,S,05539.77560,E,0.079,,270525,,,D*7B
$GNVTG,,T,,M,0.079,N,0.147,K,D*34
$GNGGA,053028.00,0419.84504,S,05539.77560,E,2,12,0.78,29.0,M,-47.6,M,,0000*47
$GNGSA,A,3,05,24,12,20,18,15,41,,,,,,1.47,0.78,1.25*1D
$GNGSA,A,3,79,78,83,82,67,,,,,,,,1.47,0.78,1.25*16
$GPGSV,5,1,17,05,61,073,31,11,04,027,,12,54,019,08,13,15,134,*7C
$GPGSV,5,2,17,15,32,168,18,18,33,256,16,20,30,043,12,22,05,134,*72
$GPGSV,5,3,17,23,20,207,08,24,49,203,31,25,30,342,,29,09,322,*7F
$GPGSV,5,4,17,36,52,277,,40,86,351,36,41,58,082,37,49,32,274,*7D
$GPGSV,5,5,17,50,10,089,*4A
$GLGSV,3,1,09,67,18,097,14,68,25,148,,69,10,196,,78,25,151,07*63
$GLGSV,3,2,09,79,79,126,36,80,40,340,08,82,13,356,10,83,27,305,15*6B
$GLGSV,3,3,09,84,12,250,*54
$GNGLL,0419.84504,S,05539.77560,E,053028.00,A,D*6B
$GNRMC,053029.00,A,0419.84493,S,05539.77549,E,0.069,,270525,,,D*7F
$GNVTG,,T,,M,0.069,N,0.128,K,D*3C
$GNGGA,053029.00,0419.84493,S,05539.77549,E,2,12,0.78,28.6,M,-47.6,M,,0000*45
$GNGSA,A,3,05,24,12,20,18,15,41,,,,,,1.47,0.78,1.24*1C
$GNGSA,A,3,79,78,83,82,67,,,,,,,,1.47,0.78,1.24*17
$GPGSV,5,1,17,05,61,073,32,11,04,027,,12,54,019,10,13,15,134,*76
$GPGSV,5,2,17,15,32,168,18,18,33,256,15,20,30,043,13,22,05,134,*70
$GPGSV,5,3,17,23,20,207,,24,49,203,31,25,30,342,23,29,09,322,*76
$GPGSV,5,4,17,36,52,277,,40,86,351,36,41,58,082,37,49,32,274,*7D
$GPGSV,5,5,17,50,10,089,*4A
$GLGSV,3,1,09,67,18,097,16,68,25,148,,69,10,196,,78,25,151,08*6E
$GLGSV,3,2,09,79,79,126,36,80,40,340,08,82,13,356,09,83,27,305,10*66
$GLGSV,3,3,09,84,12,250,*54
$GNGLL,0419.84493,S,05539.77549,E,053029.00,A,D*6E
$GNRMC,053030.00,A,0419.84383,S,05539.77432,E,1.126,,270525,,,D*77
$GNVTG,,T,,M,1.126,N,2.086,K,D*30
$GNGGA,053030.00,0419.84383,S,05539.77432,E,2,12,0.78,27.6,M,-47.6,M,,0000*49
$GNGSA,A,3,05,24,12,20,18,15,41,,,,,,1.47,0.78,1.24*1C
$GNGSA,A,3,79,78,83,82,67,,,,,,,,1.47,0.78,1.24*17
$GPGSV,5,1,17,05,61,073,32,11,04,027,,12,54,019,09,13,15,134,*7E
$GPGSV,5,2,17,15,32,168,16,18,33,256,14,20,30,043,13,22,05,134,*7F
$GPGSV,5,3,17,23,20,207,,24,49,203,31,25,30,342,20,29,09,322,*75
$GPGSV,5,4,17,36,52,277,,40,86,351,36,41,58,082,38,49,32,274,*72
$GPGSV,5,5,17,50,10,089,*4A
$GLGSV,3,1,09,67,18,097,17,68,25,148,,69,10,196,,78,25,151,09*6E
$GLGSV,3,2,09,79,79,126,35,80,40,340,07,82,13,356,09,83,27,305,11*6B
$GLGSV,3,3,09,84,12,250,*54
$GNGLL,0419.84383,S,05539.77432,E,053030.00,A,D*6D
$GNRMC,053031.00,A,0419.84324,S,05539.77377,E,0.990,,270525,,,D*79
$GNVTG,,T,,M,0.990,N,1.834,K,D*36
$GNGGA,053031.00,0419.84324,S,05539.77377,E,2,11,0.84,27.1,M,-47.6,M,,0000*44
$GNGSA,A,3,05,24,12,20,18,15,41,,,,,,1.57,0.84,1.33*18
$GNGSA,A,3,79,83,82,67,,,,,,,,,1.57,0.84,1.33*1C
$GPGSV,5,1,17,05,61,073,32,11,04,027,,12,54,019,10,13,15,134,*76
$GPGSV,5,2,17,15,32,168,16,18,33,256,13,20,30,043,13,22,05,134,*78
$GPGSV,5,3,17,23,20,207,,24,49,203,31,25,30,342,18,29,09,322,*7E
$GPGSV,5,4,17,36,52,277,,40,86,351,36,41,58,082,37,49,32,274,*7D
$GPGSV,5,5,17,50,10,089,*4A
$GLGSV,3,1,09,67,18,097,12,68,25,148,,69,10,196,,78,25,151,06*64
$GLGSV,3,2,09,79,79,126,36,80,40,340,,82,13,356,13,83,27,305,09*6D
$GLGSV,3,3,09,84,12,250,*54
$GNGLL,0419.84324,S,05539.77377,E,053031.00,A,D*67
$GNRMC,053032.00,A,0419.84321,S,05539.77368,E,0.868,,270525,,,D*77
$GNVTG,,T,,M,0.868,N,1.608,K,D*31
$GNGGA,053032.00,0419.84321,S,05539.77368,E,2,11,0.84,27.1,M,-47.6,M,,0000*4C
$GNGSA,A,3,05,24,12,20,18,15,41,,,,,,1.57,0.84,1.33*18
$GNGSA,A,3,79,83,82,67,,,,,,,,,1.57,0.84,1.33*1C
$GPGSV,5,1,17,05,61,073,32,11,04,027,,12,54,019,11,13,15,134,*77
$GPGSV,5,2,17,15,32,168,17,18,33,256,15,20,30,043,12,22,05,134,*7E
$GPGSV,5,3,17,23,20,207,,24,49,203,31,25,30,342,15,29,09,322,*73
$GPGSV,5,4,17,36,52,277,,40,86,351,36,41,58,082,37,49,32,274,*7D
$GPGSV,5,5,17,50,10,089,*4A
$GLGSV,3,1,09,67,18,097,12,68,25,148,,69,10,196,,78,25,152,06*67
$GLGSV,3,2,09,79,79,126,36,80,40,340,,82,13,356,13,83,27,305,10*65
$GLGSV,3,3,09,84,12,250,*54
$GNGLL,0419.84321,S,05539.77368,E,053032.00,A,D*6F
$GNRMC,053033.00,A,0419.84295,S,05539.77344,E,1.069,,270525,,,D*7E
$GNVTG,,T,,M,1.069,N,1.980,K,D*36
$GNGGA,053033.00,0419.84295,S,05539.77344,E,2,11,0.82,26.8,M,-47.6,M,,0000*43
$GNGSA,A,3,05,24,12,18,15,41,,,,,,,1.50,0.82,1.25*1C
$GNGSA,A,3,79,78,83,82,67,,,,,,,,1.50,0.82,1.25*15
$GPGSV,5,1,17,05,61,073,32,11,04,027,,12,54,019,14,13,15,134,*72
$GPGSV,5,2,17,15,32,168,17,18,33,256,15,20,30,043,10,22,05,134,*7C
$GPGSV,5,3,17,23,20,207,,24,49,203,31,25,30,342,12,29,09,322,*74
$GPGSV,5,4,17,36,52,277,,40,86,351,36,41,58,082,37,49,32,274,*7D
$GPGSV,5,5,17,50,10,089,*4A
$GLGSV,3,1,09,67,18,097,12,68,25,148,,69,10,196,,78,25,152,11*61
$GLGSV,3,2,09,79,79,127,35,80,40,340,,82,13,356,10,83,27,305,09*6C
$GLGSV,3,3,09,84,12,250,*54
$GNGLL,0419.84295,S,05539.77344,E,053033.00,A,D*6E
$GNRMC,053034.00,A,0419.84353,S,05539.77426,E,0.884,,270525,,,D*7B
$GNVTG,,T,,M,0.884,N,1.637,K,D*3F
$GNGGA,053034.00,0419.84353,S,05539.77426,E,2,11,0.78,25.6,M,-47.6,M,,0000*44
$GNGSA,A,3,05,24,12,18,15,41,,,,,,,1.36,0.78,1.11*1E
$GNGSA,A,3,79,78,83,82,67,,,,,,,,1.36,0.78,1.11*17
$GPGSV,5,1,17,05,61,073,30,11,04,027,,12,54,019,11,13,15,134,*75
$GPGSV,5,2,17,15,32,168,18,18,33,256,14,20,30,043,08,22,05,134,*7B
$GPGSV,5,3,17,23,20,207,,24,49,203,31,25,30,342,10,29,09,322,*76
$GPGSV,5,4,17,36,52,277,,40,86,351,37,41,58,082,37,49,32,274,*7C
$GPGSV,5,5,17,50,10,089,*4A
$GLGSV,3,1,09,67,18,097,12,68,25,148,,69,10,196,,78,25,152,11*61
$GLGSV,3,2,09,79,79,127,36,80,41,340,,82,13,356,10,83,27,305,09*6E
$GLGSV,3,3,09,84,12,250,*54
$GNGLL,0419.84353,S,05539.77426,E,053034.00,A,D*61
$GNRMC,053035.00,A,0419.84356,S,05539.77434,E,0.730,,270525,,,D*7C
$GNVTG,,T,,M,0.730,N,1.352,K,D*39
$GNGGA,053035.00,0419.84356,S,05539.77434,E,2,12,0.78,25.1,M,-47.6,M,,0000*47
$GNGSA,A,3,05,24,12,20,18,15,41,,,,,,1.47,0.78,1.24*1C
$GNGSA,A,3,79,78,83,82,67,,,,,,,,1.47,0.78,1.24*17
$GPGSV,5,1,17,05,61,073,30,11,04,027,,12,54,019,10,13,15,134,*74
$GPGSV,5,2,17,15,32,168,18,18,33,256,16,20,30,043,11,22,05,134,*71
$GPGSV,5,3,17,23,20,207,,24,49,203,31,25,30,342,09,29,09,322,*7E
$GPGSV,5,4,17,36,52,277,,40,86,351,37,41,58,082,37,49,32,274,*7C
$GPGSV,5,5,17,50,10,089,*4A
$GLGSV,3,1,09,67,18,097,12,68,25,148,,69,10,196,,78,25,152,11*61
$GLGSV,3,2,09,79,79,127,36,80,41,340,,82,13,356,10,83,27,305,09*6E
$GLGSV,3,3,09,84,12,250,*54
$GNGLL,0419.84356,S,05539.77434,E,053035.00,A,D*66
$GNRMC,053036.00,A,0419.84353,S,05539.77430,E,0.508,,270525,,,D*77
$GNVTG,,T,,M,0.508,N,0.941,K,D*39
$GNGGA,053036.00,0419.84353,S,05539.77430,E,2,12,0.78,24.8,M,-47.6,M,,0000*4D
$GNGSA,A,3,05,24,12,20,18,15,41,,,,,,1.47,0.78,1.24*1C
$GNGSA,A,3,79,78,83,82,67,,,,,,,,1.47,0.78,1.24*17
$GPGSV,5,1,17,05,61,073,31,11,04,027,,12,54,019,08,13,15,134,*7C
$GPGSV,5,2,17,15,32,168,18,18,33,256,17,20,30,043,09,22,05,134,*79
$GPGSV,5,3,17,23,20,207,,24,49,203,31,25,30,342,10,29,09,322,*76
$GPGSV,5,4,17,36,52,277,,40,86,351,36,41,58,082,37,49,32,274,*7D
$GPGSV,5,5,17,50,10,089,*4A
$GLGSV,3,1,09,67,18,097,12,68,25,148,,69,10,196,,78,25,152,11*61
$GLGSV,3,2,09,79,79,127,36,80,41,340,,82,12,356,10,83,27,305,10*67
$GLGSV,3,3,09,84,12,250,*54
$GNGLL,0419.84353,S,05539.77430,E,053036.00,A,D*64
$GNRMC,053037.00,A,0419.84415,S,05539.77496,E,0.280,,270525,,,D*78
$GNVTG,,T,,M,0.280,N,0.518,K,D*3E
$GNGGA,053037.00,0419.84415,S,05539.77496,E,2,10,0.90,24.9,M,-47.6,M,,0000*40
$GNGSA,A,3,05,24,12,20,18,15,41,,,,,,1.75,0.90,1.50*18
$GNGSA,A,3,79,83,67,,,,,,,,,,1.75,0.90,1.50*16
$GPGSV,5,1,17,05,61,073,31,11,04,027,,12,54,019,12,13,15,134,*77
$GPGSV,5,2,17,15,32,168,20,18,33,256,17,20,30,043,08,22,05,134,*73
$GPGSV,5,3,17,23,20,207,,24,49,203,31,25,30,342,10,29,09,322,*76
$GPGSV,5,4,17,36,52,277,,40,86,351,37,41,58,082,37,49,32,274,*7C
$GPGSV,5,5,17,50,10,089,*4A
$GLGSV,3,1,09,67,18,097,13,68,25,148,,69,10,196,,78,25,152,08*68
$GLGSV,3,2,09,79,79,127,36,80,41,340,18,82,12,356,08,83,27,305,07*61
$GLGSV,3,3,09,84,12,250,*54
$GNGLL,0419.84415,S,05539.77496,E,053037.00,A,D*6C
$GNRMC,053038.00,A,0419.84404,S,05539.77487,E,0.182,,270525,,,D*76
$GNVTG,,T,,M,0.182,N,0.338,K,D*3B
$GNGGA,053038.00,0419.84404,S,05539.77487,E,2,10,0.90,24.3,M,-47.6,M,,0000*45
$GNGSA,A,3,05,24,12,20,18,15,41,,,,,,1.75,0.90,1.50*18
$GNGSA,A,3,79,83,67,,,,,,,,,,1.75,0.90,1.50*16
$GPGSV,5,1,17,05,61,073,31,11,04,027,,12,54,019,10,13,15,134,*75
$GPGSV,5,2,17,15,32,168,21,18,33,256,17,20,30,043,08,22,05,134,*72
$GPGSV,5,3,17,23,20,207,,24,49,203,30,25,30,342,09,29,09,322,*7F
$GPGSV,5,4,17,36,52,277,,40,86,351,36,41,58,082,37,49,32,274,*7D
$GPGSV,5,5,17,50,10,089,*4A
$GLGSV,3,1,09,67,18,097,13,68,25,148,,69,10,196,,78,25,152,08*68
$GLGSV,3,2,09,79,79,127,36,80,41,340,18,82,12,356,08,83,27,305,09*6F
$GLGSV,3,3,09,84,12,251,*55
$GNGLL,0419.84404,S,05539.77487,E,053038.00,A,D*63
$GNRMC,053039.00,A,0419.84373,S,05539.77455,E,0.261,,270525,,,D*71
$GNVTG,,T,,M,0.261,N,0.483,K,D*32
$GNGGA,053039.00,0419.84373,S,05539.77455,E,2,10,0.90,23.9,M,-47.6,M,,0000*41
$GNGSA,A,3,05,24,12,20,18,15,41,,,,,,1.75,0.90,1.50*18
$GNGSA,A,3,79,83,67,,,,,,,,,,1.75,0.90,1.50*16
$GPGSV,5,1,17,05,61,073,31,11,04,027,,12,54,019,13,13,15,134,*76
$GPGSV,5,2,17,15,32,168,21,18,33,256,16,20,30,043,10,22,05,134,*7A
$GPGSV,5,3,17,23,20,207,,24,49,203,31,25,30,342,08,29,09,322,*7F
$GPGSV,5,4,17,36,52,277,,40,86,351,36,41,58,082,37,49,32,274,*7D
$GPGSV,5,5,17,50,10,089,*4A
$GLGSV,3,1,09,67,18,097,12,68,25,148,,69,10,196,,78,25,152,08*69
$GLGSV,3,2,09,79,79,127,36,80,41,340,19,82,12,356,09,83,27,305,11*66
$GLGSV,3,3,09,84,12,251,*55
$GNGLL,0419.84373,S,05539.77455,E,053039.00,A,D*6A
$GNRMC,053040.00,A,0419.84406,S,05539.77503,E,0.153,,270525,,,D*7A
$GNVTG,,T,,M,0.153,N,0.283,K,D*36
$GNGGA,053040.00,0419.84406,S,05539.77503,E,2,11,0.84,23.4,M,-47.6,M,,0000*41
$GNGSA,A,3,05,24,12,20,18,15,41,,,,,,1.72,0.84,1.50*1A
$GNGSA,A,3,79,83,67,80,,,,,,,,,1.72,0.84,1.50*1C
$GPGSV,5,1,17,05,61,073,31,11,04,027,,12,54,019,12,13,15,134,*77
$GPGSV,5,2,17,15,32,168,20,18,33,256,15,20,30,043,11,22,05,134,*79
$GPGSV,5,3,17,23,20,207,,24,49,203,31,25,30,342,07,29,09,322,*70
$GPGSV,5,4,17,36,52,277,,40,86,351,36,41,58,082,37,49,32,274,*7D
$GPGSV,5,5,17,50,10,089,*4A
$GLGSV,3,1,09,67,18,097,12,68,25,148,,69,10,196,,78,25,152,08*69
$GLGSV,3,2,09,79,79,127,36,80,41,340,20,82,12,356,09,83,27,305,10*6D
$GLGSV,3,3,09,84,12,251,*55
$GNGLL,0419.84406,S,05539.77503,E,053040.00,A,D*63
$GNRMC,053041.00,A,0419.84490,S,05539.77583,E,0.644,,270525,,,D*7D
$GNVTG,,T,,M,0.644,N,1.193,K,D*34
$GNGGA,053041.00,0419.84490,S,05539.77583,E,2,11,0.84,24.0,M,-47.6,M,,0000*44
$GNGSA,A,3,05,24,12,20,18,15,41,,,,,,1.72,0.84,1.50*1A
$GNGSA,A,3,79,83,67,80,,,,,,,,,1.72,0.84,1.50*1C
$GPGSV,5,1,17,05,61,073,31,11,04,027,,12,54,019,11,13,15,134,*74
$GPGSV,5,2,17,15,32,168,19,18,33,256,16,20,30,043,13,22,05,134,*72
$GPGSV,5,3,17,23,20,207,,24,49,203,31,25,30,342,,29,09,322,*77
$GPGSV,5,4,17,36,52,277,,40,86,351,36,41,58,082,37,49,32,274,*7D
$GPGSV,5,5,17,50,10,089,*4A
$GLGSV,3,1,09,67,18,097,10,68,25,148,,69,10,196,,78,25,152,07*64
$GLGSV,3,2,09,79,79,127,36,80,41,340,19,82,12,356,09,83,27,305,12*65
$GLGSV,3,3,09,84,12,251,*55
$GNGLL,0419.84490,S,05539.77583,E,053041.00,A,D*65
$GNRMC,053042.00,A,0419.84539,S,05539.77632,E,0.670,,270525,,,D*72
$GNVTG,,T,,M,0.670,N,1.242,K,D*3C
$GNGGA,053042.00,0419.84539,S,05539.77632,E,2,11,0.84,24.3,M,-47.6,M,,0000*4F
$GNGSA,A,3,05,24,12,20,18,15,41,,,,,,1.72,0.84,1.50*1A
$GNGSA,A,3,79,83,67,80,,,,,,,,,1.72,0.84,1.50*1C
$GPGSV,5,1,17,05,61,073,32,11,04,027,,12,54,019,17,13,15,134,*71
$GPGSV,5,2,17,15,32,168,19,18,33,256,16,20,30,043,10,22,05,134,*71
$GPGSV,5,3,17,23,20,207,,24,49,203,30,25,30,342,,29,09,322,*76
$GPGSV,5,4,17,36,52,277,,40,86,351,36,41,58,082,37,49,32,274,*7D
$GPGSV,5,5,17,50,10,089,*4A
$GLGSV,3,1,09,67,18,097,09,68,25,148,,69,10,196,,78,25,152,07*6C
$GLGSV,3,2,09,79,79,127,36,80,41,340,18,82,12,356,10,83,27,305,12*6C
$GLGSV,3,3,09,84,12,251,*55
$GNGLL,0419.84539,S,05539.77632,E,053042.00,A,D*6D
$GNRMC,053043.00,A,0419.84564,S,05539.77659,E,0.529,,270525,,,D*79
$GNVTG,,T,,M,0.529,N,0.981,K,D*36
$GNGGA,053043.00,0419.84564,S,05539.77659,E,2,12,0.75,24.7,M,-47.6,M,,0000*42
$GNGSA,A,3,05,24,12,20,18,15,41,,,,,,1.45,0.75,1.24*13
$GNGSA,A,3,79,78,83,82,67,80,,,,,,,1.45,0.75,1.24*10
$GPGSV,5,1,17,05,61,073,31,11,04,027,,12,54,019,12,13,15,134,*77
$GPGSV,5,2,17,15,32,168,20,18,33,256,15,20,30,043,13,22,05,134,*7B
$GPGSV,5,3,17,23,20,207,,24,49,203,29,25,30,342,,29,09,322,*7E
$GPGSV,5,4,17,36,52,277,,40,86,351,36,41,58,082,37,49,32,274,*7D
$GPGSV,5,5,17,50,10,089,*4A
$GLGSV,3,1,09,67,18,097,10,68,25,148,,69,10,196,,78,25,152,07*64
$GLGSV,3,2,09,79,79,127,36,80,41,340,18,82,12,356,10,83,27,305,12*6C
$GLGSV,3,3,09,84,12,251,*55
$GNGLL,0419.84564,S,05539.77659,E,053043.00,A,D*69
$GNRMC,053044.00,A,0419.84612,S,05539.77708,E,0.501,,270525,,,D*73
$GNVTG,,T,,M,0.501,N,0.927,K,D*30
$GNGGA,053044.00,0419.84612,S,05539.77708,E,2,12,0.72,24.9,M,-47.6,M,,0000*4B
$GNGSA,A,3,05,24,12,20,18,15,41,,,,,,1.32,0.72,1.11*12
$GNGSA,A,3,79,78,83,82,67,80,,,,,,,1.32,0.72,1.11*11
$GPGSV,5,1,17,05,61,073,31,11,04,027,,12,54,019,14,13,15,134,*71
$GPGSV,5,2,17,15,32,168,20,18,33,256,15,20,30,043,09,22,05,134,*70
$GPGSV,5,3,17,23,20,207,,24,49,203,29,25,30,342,,29,09,322,*7E
$GPGSV,5,4,17,36,52,277,,40,86,351,36,41,58,082,37,49,32,274,*7D
$GPGSV,5,5,17,50,10,089,*4A
$GLGSV,3,1,09,67,18,097,13,68,25,148,,69,10,196,,78,25,152,09*69
$GLGSV,3,2,09,79,79,127,35,80,41,340,17,82,12,356,09,83,27,305,13*69
$GLGSV,3,3,09,84,12,251,*55
$GNGLL,0419.84612,S,05539.77708,E,053044.00,A,D*69
$GNRMC,053045.00,A,0419.84679,S,05539.77780,E,0.828,,270525,,,D*79
$GNVTG,,T,,M,0.828,N,1.534,K,D*39
$GNGGA,053045.00,0419.84679,S,05539.77780,E,2,12,0.72,24.9,M,-47.6,M,,0000*47
$GNGSA,A,3,05,24,12,20,18,15,41,,,,,,1.32,0.72,1.11*12
$GNGSA,A,3,79,78,83,82,67,80,,,,,,,1.32,0.72,1.11*11
$GPGSV,5,1,17,05,61,073,32,11,04,027,,12,54,019,14,13,15,134,*72
$GPGSV,5,2,17,15,32,168,19,18,33,256,14,20,30,043,13,22,05,134,*70
$GPGSV,5,3,17,23,20,207,,24,49,203,29,25,30,342,,29,09,322,*7E
$GPGSV,5,4,17,36,52,277,,40,86,351,36,41,58,082,37,49,32,274,*7D
$GPGSV,5,5,17,50,10,089,*4A
$GLGSV,3,1,09,67,18,097,10,68,25,148,,69,10,196,,78,25,152,10*62
$GLGSV,3,2,09,79,79,127,35,80,41,340,16,82,12,356,12,83,27,305,11*60
$GLGSV,3,3,09,84,12,251,*55
$GNGLL,0419.84679,S,05539.77780,E,053045.00,A,D*65
$GNRMC,053046.00,A,0419.84708,S,05539.77810,E,0.784,,270525,,,D*72
$GNVTG,,T,,M,0.784,N,1.453,K,D*30
$GNGGA,053046.00,0419.84708,S,05539.77810,E,2,12,0.72,24.7,M,-47.6,M,,0000*4B
$GNGSA,A,3,05,24,12,20,18,15,41,,,,,,1.32,0.72,1.11*12
$GNGSA,A,3,79,78,83,82,67,80,,,,,,,1.32,0.72,1.11*11
$GPGSV,5,1,17,05,61,073,33,11,04,027,,12,54,019,14,13,15,134,*73
$GPGSV,5,2,17,15,32,168,18,18,33,256,11,20,30,043,10,22,05,134,*77
$GPGSV,5,3,17,23,20,207,,24,49,203,31,25,30,342,,29,09,322,*77
$GPGSV,5,4,17,36,52,277,,40,86,351,36,41,58,082,37,49,32,274,*7D
$GPGSV,5,5,17,50,10,089,*4A
$GLGSV,3,1,09,67,18,097,11,68,25,148,,69,10,196,,78,25,152,10*63
$GLGSV,3,2,09,79,79,127,35,80,41,340,17,82,12,356,07,83,27,305,10*64
$GLGSV,3,3,09,84,12,251,*55
$GNGLL,0419.84708,S,05539.77810,E,053046.00,A,D*67
$GNRMC,053047.00,A,0419.84712,S,05539.77814,E,0.426,,270525,,,D*77
$GNVTG,,T,,M,0.426,N,0.789,K,D*3E
$GNGGA,053047.00,0419.84712,S,05539.77814,E,2,12,0.80,24.9,M,-47.6,M,,0000*46
$GNGSA,A,3,05,24,12,18,15,41,,,,,,,1.48,0.80,1.24*16
$GNGSA,A,3,79,78,83,82,67,80,,,,,,,1.48,0.80,1.24*17
$GPGSV,5,1,17,05,61,071,33,11,04,027,,12,54,019,14,13,15,134,*71
$GPGSV,5,2,17,15,32,168,18,18,33,256,12,20,30,043,06,22,05,134,*73
$GPGSV,5,3,17,23,20,207,,24,49,203,31,25,30,342,,29,09,322,*77
$GPGSV,5,4,17,36,52,277,,40,86,351,36,41,58,082,38,49,32,274,*72
$GPGSV,5,5,17,50,10,089,*4A
$GLGSV,3,1,09,67,18,097,19,68,25,148,,69,10,196,,78,25,152,08*62
$GLGSV,3,2,09,79,79,127,36,80,41,340,17,82,12,356,10,83,27,305,08*68
$GLGSV,3,3,09,84,12,251,*55
$GNGLL,0419.84712,S,05539.77814,E,053047.00,A,D*69
$GNRMC,053048.00,A,0419.84732,S,05539.77830,E,0.339,,270525,,,D*75
$GNVTG,,T,,M,0.339,N,0.627,K,D*32
$GNGGA,053048.00,0419.84732,S,05539.77830,E,2,12,0.75,25.2,M,-47.6,M,,0000*4D
$GNGSA,A,3,05,24,12,20,18,15,41,,,,,,1.44,0.75,1.23*15
$GNGSA,A,3,79,78,83,82,67,80,,,,,,,1.44,0.75,1.23*16
$GPGSV,5,1,17,05,61,071,32,11,04,027,,12,54,019,13,13,15,134,*77
$GPGSV,5,2,17,15,32,168,16,18,33,256,18,20,30,043,10,22,05,134,*70
$GPGSV,5,3,17,23,20,207,,24,49,203,31,25,30,342,,29,09,322,*77
$GPGSV,5,4,17,36,52,277,,40,86,351,35,41,58,082,37,49,32,274,*7E
$GPGSV,5,5,17,50,10,089,*4A
$GLGSV,3,1,09,67,18,097,17,68,25,148,,69,10,196,,78,25,152,11*64
$GLGSV,3,2,09,79,79,127,36,80,41,340,17,82,12,356,10,83,27,305,07*67
$GLGSV,3,3,09,84,12,251,*55
$GNGLL,0419.84732,S,05539.77830,E,053048.00,A,D*62
$GNRMC,053049.00,A,0419.84718,S,05539.77805,E,0.231,,270525,,,D*73
$GNVTG,,T,,M,0.231,N,0.428,K,D*36
$GNGGA,053049.00,0419.84718,S,05539.77805,E,2,12,0.83,25.6,M,-47.6,M,,0000*4F
$GNGSA,A,3,05,24,12,20,18,15,41,,,,,,1.63,0.83,1.40*1C
$GNGSA,A,3,79,78,83,82,80,,,,,,,,1.63,0.83,1.40*1E
$GPGSV,5,1,17,05,61,071,25,11,04,027,,12,54,019,13,13,15,134,*71
$GPGSV,5,2,17,15,32,168,16,18,33,256,13,20,30,043,15,22,05,134,*7E
$GPGSV,5,3,17,23,20,207,,24,49,203,31,25,30,342,,29,09,322,*77
$GPGSV,5,4,17,36,52,277,,40,86,351,33,41,58,082,32,49,32,274,*7D
$GPGSV,5,5,17,50,10,089,*4A
$GLGSV,3,1,09,67,18,097,09,68,25,148,,69,10,196,,78,25,152,11*6B
$GLGSV,3,2,09,79,79,127,32,80,41,340,15,82,12,356,07,83,27,305,09*69
$GLGSV,3,3,09,84,12,251,*55
$GNGLL,0419.84718,S,05539.77805,E,053049.00,A,D*6D
$GNRMC,053050.00,A,0419.84690,S,05539.77789,E,0.522,,270525,,,D*74
$GNVTG,,T,,M,0.522,N,0.967,K,D*35
$GNGGA,053050.00,0419.84690,S,05539.77789,E,2,12,0.75,24.9,M,-47.6,M,,0000*4A
$GNGSA,A,3,05,24,12,20,18,15,41,,,,,,1.44,0.75,1.23*15
$GNGSA,A,3,79,78,83,82,67,80,,,,,,,1.44,0.75,1.23*16
$GPGSV,5,1,17,05,61,071,24,11,04,027,,12,54,019,16,13,15,134,*75
$GPGSV,5,2,17,15,32,168,17,18,33,256,13,20,30,043,11,22,05,134,*7B
$GPGSV,5,3,17,23,20,207,,24,49,203,30,25,30,342,,29,09,322,*76
$GPGSV,5,4,17,36,52,277,,40,86,351,31,41,58,082,29,49,32,274,*75
$GPGSV,5,5,17,50,10,089,*4A
$GLGSV,3,1,09,67,18,097,13,68,25,148,,69,10,196,,78,25,152,10*61
$GLGSV,3,2,09,79,79,127,30,80,41,340,13,82,12,356,12,83,27,305,14*65
$GLGSV,3,3,09,84,12,251,*55
$GNGLL,0419.84690,S,05539.77789,E,053050.00,A,D*6F
$GNRMC,053051.00,A,0419.84695,S,05539.77815,E,0.133,,270525,,,D*7E
$GNVTG,,T,,M,0.133,N,0.246,K,D*39
$GNGGA,053051.00,0419.84695,S,05539.77815,E,2,12,0.72,24.6,M,-47.6,M,,0000*4C
$GNGSA,A,3,05,24,12,20,18,15,41,,,,,,1.32,0.72,1.11*12
$GNGSA,A,3,79,78,83,82,67,80,,,,,,,1.32,0.72,1.11*11
$GPGSV,5,1,17,05,61,071,34,11,04,027,,12,54,019,16,13,15,134,*74
$GPGSV,5,2,17,15,32,168,16,18,33,256,11,20,30,043,14,22,05,134,*7D
$GPGSV,5,3,17,23,20,207,,24,49,203,34,25,30,342,,29,09,322,*72
$GPGSV,5,4,17,36,52,277,,40,86,351,35,41,58,082,37,49,32,274,*7E
$GPGSV,5,5,17,50,10,089,*4A
$GLGSV,3,1,09,67,18,097,15,68,25,148,,69,10,196,,78,25,152,10*67
$GLGSV,3,2,09,79,79,127,29,80,41,340,13,82,12,356,08,83,27,305,10*62
$GLGSV,3,3,09,84,12,251,*55
$GNGLL,0419.84695,S,05539.77815,E,053051.00,A,D*61
$GNRMC,053052.00,A,0419.84682,S,05539.77809,E,0.118,,270525,,,D*7F
$GNVTG,,T,,M,0.118,N,0.219,K,D*3A
$GNGGA,053052.00,0419.84682,S,05539.77809,E,2,12,0.72,23.7,M,-47.6,M,,0000*42
$GNGSA,A,3,05,24,12,20,18,15,41,,,,,,1.32,0.72,1.11*12
$GNGSA,A,3,79,78,83,82,67,80,,,,,,,1.32,0.72,1.11*11
$GPGSV,5,1,17,05,61,071,29,11,04,027,,12,54,019,17,13,15,134,*79
$GPGSV,5,2,17,15,32,168,14,18,33,256,12,20,30,043,16,22,05,134,*7E
$GPGSV,5,3,17,23,20,207,,24,49,203,33,25,30,342,,29,09,322,*75
$GPGSV,5,4,17,36,52,277,,40,86,351,31,41,58,082,36,49,32,274,*7B
$GPGSV,5,5,17,50,10,089,*4A
$GLGSV,3,1,09,67,18,097,15,68,25,148,,69,10,196,,78,25,152,13*64
$GLGSV,3,2,09,79,79,127,27,80,41,340,12,82,12,356,12,83,27,305,13*65
$GLGSV,3,3,09,84,12,251,*55
$GNGLL,0419.84682,S,05539.77809,E,053052.00,A,D*69
$GNRMC,053053.00,A,0419.84682,S,05539.77798,E,0.346,,270525,,,D*70
$GNVTG,,T,,M,0.346,N,0.641,K,D*3A
$GNGGA,053053.00,0419.84682,S,05539.77798,E,2,12,0.72,23.9,M,-47.6,M,,0000*4A
$GNGSA,A,3,05,24,12,20,18,15,41,,,,,,1.32,0.72,1.11*12
$GNGSA,A,3,79,78,83,82,67,80,,,,,,,1.32,0.72,1.11*11
$GPGSV,5,1,17,05,61,071,28,11,03,028,,12,54,019,15,13,15,134,*72
$GPGSV,5,2,17,15,32,168,13,18,33,256,11,20,30,043,15,22,05,134,*79
$GPGSV,5,3,17,23,20,207,,24,49,203,33,25,30,342,,29,09,322,*75
$GPGSV,5,4,17,36,52,277,,40,86,351,31,41,58,082,29,49,32,274,*75
$GPGSV,5,5,17,50,10,089,*4A
$GLGSV,3,1,09,67,18,097,15,68,25,148,,69,10,196,,78,25,152,13*64
$GLGSV,3,2,09,79,79,127,30,80,41,340,12,82,12,356,11,83,27,305,11*62
$GLGSV,3,3,09,84,12,251,*55
$GNGLL,0419.84682,S,05539.77798,E,053053.00,A,D*6F
$GNRMC,053054.00,A,0419.84691,S,05539.77802,E,0.409,,270525,,,D*75
$GNVTG,,T,,M,0.409,N,0.758,K,D*3F
$GNGGA,053054.00,0419.84691,S,05539.77802,E,2,12,0.80,24.1,M,-47.6,M,,0000*41
$GNGSA,A,3,05,24,12,20,18,15,41,,,,,,1.54,0.80,1.31*1D
$GNGSA,A,3,79,83,82,67,80,,,,,,,,1.54,0.80,1.31*11
$GPGSV,5,1,17,05,61,071,25,11,03,028,,12,54,020,16,13,15,134,*76
$GPGSV,5,2,17,15,32,168,14,18,33,256,10,20,30,043,13,22,05,134,*79
$GPGSV,5,3,17,23,20,207,,24,49,203,33,25,30,342,,29,09,322,*75
$GPGSV,5,4,17,36,52,277,,40,86,351,32,41,58,082,28,49,32,274,*77
$GPGSV,5,5,17,50,10,089,*4A
$GLGSV,3,1,09,67,18,097,12,68,25,148,,69,10,196,,78,25,152,06*67
$GLGSV,3,2,09,79,79,127,28,80,41,340,11,82,12,356,08,83,27,305,11*60
$GLGSV,3,3,09,84,12,251,*55
$GNGLL,0419.84691,S,05539.77802,E,053054.00,A,D*66
$GNRMC,053055.00,A,0419.84676,S,05539.77774,E,0.626,,270525,,,D*7C
$GNVTG,,T,,M,0.626,N,1.160,K,D*3C
$GNGGA,053055.00,0419.84676,S,05539.77774,E,2,11,0.81,24.3,M,-47.6,M,,0000*47
$GNGSA,A,3,05,24,12,20,18,15,41,,,,,,1.51,0.81,1.27*1E
$GNGSA,A,3,79,83,67,80,,,,,,,,,1.51,0.81,1.27*18
$GPGSV,5,1,17,05,61,071,24,11,03,028,,12,54,020,19,13,15,134,15*7C
$GPGSV,5,2,17,15,32,168,16,18,33,256,12,20,30,043,09,22,05,134,*72
$GPGSV,5,3,17,23,20,207,,24,49,203,32,25,30,342,,29,09,322,*74
$GPGSV,5,4,17,36,52,277,,40,86,351,35,41,58,082,32,49,32,274,*7B
$GPGSV,5,5,17,50,10,089,*4A
$GLGSV,3,1,09,67,18,097,09,68,25,148,,69,10,196,,78,25,152,06*6D
$GLGSV,3,2,09,79,79,127,27,80,41,340,09,82,12,356,03,83,27,305,08*65
$GLGSV,3,3,09,84,12,251,*55
$GNGLL,0419.84676,S,05539.77774,E,053055.00,A,D*60
$GNRMC,053056.00,A,0419.84641,S,05539.77729,E,0.962,,270525,,,D*7C
$GNVTG,,T,,M,0.962,N,1.781,K,D*3A
$GNGGA,053056.00,0419.84641,S,05539.77729,E,2,12,0.75,24.3,M,-47.6,M,,0000*40
$GNGSA,A,3,05,24,12,20,18,15,41,,,,,,1.38,0.75,1.15*1B
$GNGSA,A,3,79,78,83,82,80,,,,,,,,1.38,0.75,1.15*19
$GPGSV,5,1,17,05,61,071,32,11,03,028,,12,54,020,18,13,15,134,12*7D
$GPGSV,5,2,17,15,32,168,15,18,33,256,10,20,30,043,09,22,05,134,*73
$GPGSV,5,3,17,23,20,207,,24,49,203,33,25,30,342,,29,09,322,*75
$GPGSV,5,4,17,36,52,277,,40,86,351,35,41,58,082,35,49,32,274,*7C
$GPGSV,5,5,17,50,10,089,*4A
$GLGSV,3,1,09,67,18,097,06,68,25,148,,69,10,196,,78,25,152,09*6D
$GLGSV,3,2,09,79,79,127,33,80,41,340,12,82,12,356,11,83,27,305,09*68
$GLGSV,3,3,09,84,12,251,*55
$GNGLL,0419.84641,S,05539.77729,E,053056.00,A,D*6F
$GNRMC,053057.00,A,0419.84596,S,05539.77701,E,0.886,,270525,,,D*75
$GNVTG,,T,,M,0.886,N,1.640,K,D*3D
$GNGGA,053057.00,0419.84596,S,05539.77701,E,2,12,0.76,24.2,M,-47.6,M,,0000*40
$GNGSA,A,3,05,24,12,20,18,41,,,,,,,1.35,0.76,1.11*15
$GNGSA,A,3,79,78,83,82,67,80,,,,,,,1.35,0.76,1.11*12
$GPGSV,5,1,17,05,61,071,31,11,03,028,,12,54,020,17,13,15,134,10*73
$GPGSV,5,2,17,15,32,167,,18,33,256,08,20,30,043,14,22,05,134,*7D
$GPGSV,5,3,17,23,20,207,,24,49,203,35,25,30,342,,29,09,322,*73
$GPGSV,5,4,17,36,52,277,,40,86,351,37,41,58,082,35,49,32,274,*7E
$GPGSV,5,5,17,50,10,089,*4A
$GLGSV,3,1,09,67,18,097,11,68,25,148,,69,10,196,,78,25,152,09*6B
$GLGSV,3,2,09,79,79,127,35,80,41,340,15,82,12,356,11,83,27,305,09*69
$GLGSV,3,3,09,84,12,251,*55
$GNGLL,0419.84596,S,05539.77701,E,053057.00,A,D*6D
$GNRMC,053058.00,A,0419.84622,S,05539.77730,E,0.311,,270525,,,D*71
$GNVTG,,T,,M,0.311,N,0.576,K,D*3F
$GNGGA,053058.00,0419.84622,S,05539.77730,E,2,12,0.76,23.9,M,-47.6,M,,0000*4D
$GNGSA,A,3,05,24,12,20,18,41,,,,,,,1.35,0.76,1.11*15
$GNGSA,A,3,79,78,83,82,67,80,,,,,,,1.35,0.76,1.11*12
$GPGSV,5,1,17,05,61,071,32,11,03,028,,12,54,020,16,13,15,134,10*71
$GPGSV,5,2,17,15,32,167,15,18,33,256,10,20,30,043,16,22,05,134,*72
$GPGSV,5,3,17,23,20,207,,24,49,203,34,25,30,342,,29,09,322,*72
$GPGSV,5,4,17,36,52,277,,40,86,351,37,41,58,082,35,49,32,274,*7E
$GPGSV,5,5,17,50,10,089,*4A
$GLGSV,3,1,09,67,18,097,14,68,25,148,,69,10,196,,78,25,152,08*6F
$GLGSV,3,2,09,79,79,127,36,80,41,340,16,82,12,356,09,83,27,305,08*61
$GLGSV,3,3,09,84,12,251,*55
$GNGLL,0419.84622,S,05539.77730,E,053058.00,A,D*6C
$GNRMC,053059.00,A,0419.84623,S,05539.77730,E,0.150,,270525,,,D*76
$GNVTG,,T,,M,0.150,N,0.278,K,D*31
$GNGGA,053059.00,0419.84623,S,05539.77730,E,2,12,0.76,23.9,M,-47.6,M,,0000*4D
$GNGSA,A,3,05,24,12,20,18,41,,,,,,,1.35,0.76,1.11*15
$GNGSA,A,3,79,78,83,82,67,80,,,,,,,1.35,0.76,1.11*12
$GPGSV,5,1,17,05,61,071,35,11,03,028,,12,54,020,17,13,15,134,11*76
$GPGSV,5,2,17,15,32,167,,18,33,256,12,20,30,043,18,22,05,134,*7A
$GPGSV,5,3,17,23,20,207,,24,49,203,34,25,30,342,,29,09,322,*72
$GPGSV,5,4,17,36,52,277,,40,86,351,39,41,58,082,37,49,32,274,*72
$GPGSV,5,5,17,50,10,089,*4A
$GLGSV,3,1,09,67,18,097,18,68,25,148,,69,10,196,,78,25,152,09*62
$GLGSV,3,2,09,79,79,127,36,80,41,340,19,82,12,356,12,83,27,305,11*6C
$GLGSV,3,3,09,84,12,251,*55
$GNGLL,0419.84623,S,05539.77730,E,053059.00,A,D*6C
$GNRMC,053100.00,A,0419.84690,S,05539.77798,E,0.767,,270525,,,D*73
$GNVTG,,T,,M,0.767,N,1.421,K,D*38
$GNGGA,053100.00,0419.84690,S,05539.77798,E,2,12,0.76,24.1,M,-47.6,M,,0000*45
$GNGSA,A,3,05,24,12,20,18,41,,,,,,,1.35,0.76,1.11*15
$GNGSA,A,3,79,78,83,82,67,80,,,,,,,1.35,0.76,1.11*12
$GPGSV,5,1,17,05,61,071,35,11,03,028,,12,54,020,17,13,15,134,09*7F
$GPGSV,5,2,17,15,32,167,17,18,33,257,10,20,30,043,10,22,05,134,*77
$GPGSV,5,3,17,23,20,207,,24,49,203,33,25,30,342,,29,09,322,*75
$GPGSV,5,4,17,36,52,277,,40,86,351,37,41,58,082,35,49,32,274,*7E
$GPGSV,5,5,17,50,10,089,*4A
$GLGSV,3,1,09,67,18,097,11,68,25,148,,69,10,196,,78,25,152,11*62
$GLGSV,3,2,09,79,79,127,37,80,41,340,13,82,12,356,10,83,27,305,11*65
$GLGSV,3,3,09,84,12,251,*55
$GNGLL,0419.84690,S,05539.77798,E,053100.00,A,D*6B
$GNRMC,053101.00,A,0419.84639,S,05539.77734,E,0.475,,270525,,,D*77
$GNVTG,,T,,M,0.475,N,0.879,K,D*38
$GNGGA,053101.00,0419.84639,S,05539.77734,E,2,11,0.83,24.0,M,-47.6,M,,0000*49
$GNGSA,A,3,05,24,12,20,18,41,,,,,,,1.41,0.83,1.15*18
$GNGSA,A,3,79,83,82,67,80,,,,,,,,1.41,0.83,1.15*10
$GPGSV,5,1,17,05,61,071,35,11,03,028,,12,54,020,16,13,15,134,08*7F
$GPGSV,5,2,17,15,32,167,17,18,33,257,11,20,30,043,10,22,05,134,*76
$GPGSV,5,3,17,23,20,207,,24,49,203,33,25,30,342,,29,09,322,*75
$GPGSV,5,4,17,36,52,277,,40,86,351,38,41,58,082,36,49,32,274,*72
$GPGSV,5,5,17,50,10,089,*4A
$GLGSV,3,1,09,67,18,097,11,68,25,148,,69,10,196,,78,25,152,13*60
$GLGSV,3,2,09,79,79,127,37,80,41,340,15,82,12,356,11,83,27,305,10*63
$GLGSV,3,3,09,84,12,251,*55
$GNGLL,0419.84639,S,05539.77734,E,053101.00,A,D*6F
$GNRMC,053102.00,A,0419.84695,S,05539.77796,E,1.170,138.84,270525,,,D*63
$GNVTG,138.84,T,,M,1.170,N,2.167,K,D*25
$GNGGA,053102.00,0419.84695,S,05539.77796,E,2,12,0.78,24.2,M,-47.6,M,,0000*41
$GNGSA,A,3,05,24,12,20,18,13,41,,,,,,1.33,0.78,1.08*17
$GNGSA,A,3,79,83,82,67,80,,,,,,,,1.33,0.78,1.08*1D
$GPGSV,5,1,17,05,61,071,35,11,03,028,,12,54,020,17,13,15,134,12*75
$GPGSV,5,2,17,15,32,167,18,18,33,257,15,20,30,042,14,22,05,134,*78
$GPGSV,5,3,17,23,20,207,,24,49,203,33,25,30,342,17,29,09,322,*73
$GPGSV,5,4,17,36,52,277,,40,86,351,38,41,58,082,37,49,32,274,*73
$GPGSV,5,5,17,50,10,089,*4A
$GLGSV,3,1,09,67,18,097,11,68,25,148,,69,10,196,,78,25,152,13*60
$GLGSV,3,2,09,79,79,127,36,80,41,340,16,82,12,356,11,83,27,305,10*61
$GLGSV,3,3,09,84,12,251,*55
$GNGLL,0419.84695,S,05539.77796,E,053102.00,A,D*62
$GNRMC,053103.00,A,0419.84718,S,05539.77826,E,1.053,,270525,,,D*7A
$GNVTG,,T,,M,1.053,N,1.949,K,D*3A
$GNGGA,053103.00,0419.84718,S,05539.77826,E,2,11,0.87,24.0,M,-47.6,M,,0000*41
$GNGSA,A,3,05,24,12,20,18,13,41,,,,,,1.59,0.87,1.34*14
$GNGSA,A,3,79,83,67,80,,,,,,,,,1.59,0.87,1.34*14
$GPGSV,5,1,17,05,61,071,35,11,03,028,,12,54,020,18,13,15,134,13*7B
$GPGSV,5,2,17,15,32,167,16,18,33,257,10,20,30,042,17,22,04,135,*70
$GPGSV,5,3,17,23,20,207,,24,49,203,34,25,30,342,17,29,09,322,*74
$GPGSV,5,4,17,36,52,277,,40,86,351,38,41,58,082,37,49,32,274,*73
$GPGSV,5,5,17,50,10,089,*4A
$GLGSV,3,1,09,67,18,097,15,68,25,148,,69,10,196,,78,25,152,08*6E
$GLGSV,3,2,09,79,79,127,36,80,41,340,16,82,12,356,07,83,27,305,14*62
$GLGSV,3,3,09,84,12,251,*55
$GNGLL,0419.84718,S,05539.77826,E,053103.00,A,D*63
$GNRMC,053104.00,A,0419.84740,S,05539.77862,E,0.945,,270525,,,D*7F
$GNVTG,,T,,M,0.945,N,1.751,K,D*32
$GNGGA,053104.00,0419.84740,S,05539.77862,E,2,11,0.87,23.6,M,-47.6,M,,0000*4A
$GNGSA,A,3,05,24,12,20,18,13,41,,,,,,1.59,0.87,1.34*14
$GNGSA,A,3,79,83,67,80,,,,,,,,,1.59,0.87,1.34*14
$GPGSV,5,1,17,05,61,071,35,11,03,028,,12,54,020,16,13,15,134,14*72
$GPGSV,5,2,17,15,32,167,,18,33,257,18,20,30,042,14,22,04,135,*7C
$GPGSV,5,3,17,23,20,207,,24,49,203,32,25,30,342,15,29,09,322,*70
$GPGSV,5,4,17,36,52,277,,40,86,351,38,41,58,082,36,49,32,274,*72
$GPGSV,5,5,17,50,10,089,*4A
$GLGSV,3,1,09,67,18,097,15,68,25,148,,69,10,196,,78,25,152,08*6E
$GLGSV,3,2,09,79,79,127,36,80,41,340,17,82,12,356,07,83,27,305,09*6F
$GLGSV,3,3,09,84,12,251,*55
$GNGLL,0419.84740,S,05539.77862,E,053104.00,A,D*69
$GNRMC,053105.00,A,0419.84761,S,05539.77882,E,1.027,,270525,,,D*7F
$GNVTG,,T,,M,1.027,N,1.901,K,D*35
$GNGGA,053105.00,0419.84761,S,05539.77882,E,2,11,0.87,23.7,M,-47.6,M,,0000*47
$GNGSA,A,3,05,24,12,20,18,13,41,,,,,,1.59,0.87,1.34*14
$GNGSA,A,3,79,83,67,80,,,,,,,,,1.59,0.87,1.34*14
$GPGSV,5,1,17,05,61,071,35,11,03,028,,12,54,020,15,13,15,134,12*77
$GPGSV,5,2,17,15,32,167,,18,33,257,15,20,30,042,14,22,04,135,*71
$GPGSV,5,3,17,23,20,207,,24,49,202,32,25,30,342,,29,09,322,*75
$GPGSV,5,4,17,36,52,277,,40,86,351,38,41,58,082,37,49,32,274,*73
$GPGSV,5,5,17,50,10,089,*4A
$GLGSV,3,1,09,67,18,097,15,68,25,148,,69,10,196,,78,25,152,08*6E
$GLGSV,3,2,09,79,79,127,36,80,41,340,18,82,12,356,07,83,27,305,12*6A
$GLGSV,3,3,09,84,12,251,*55
$GNGLL,0419.84761,S,05539.77882,E,053105.00,A,D*65
$GNRMC,053106.00,A,0419.84784,S,05539.77908,E,1.246,135.51,270525,,,D*6C
$GNVTG,135.51,T,,M,1.246,N,2.308,K,D*2D
$GNGGA,053106.00,0419.84784,S,05539.77908,E,2,11,0.87,23.8,M,-47.6,M,,0000*43
$GNGSA,A,3,05,24,12,20,18,13,41,,,,,,1.59,0.87,1.34*14
$GNGSA,A,3,79,83,67,80,,,,,,,,,1.59,0.87,1.34*14
$GPGSV,5,1,17,05,61,071,35,11,03,028,,12,54,020,16,13,15,134,12*74
$GPGSV,5,2,17,15,32,167,,18,33,257,15,20,30,042,16,22,04,135,*73
$GPGSV,5,3,17,23,20,207,,24,49,202,33,25,31,342,,29,09,322,*75
$GPGSV,5,4,17,36,52,277,,40,86,351,38,41,58,082,37,49,32,274,*73
$GPGSV,5,5,17,50,10,089,*4A
$GLGSV,3,1,09,67,18,097,15,68,25,148,,69,10,196,,78,25,152,08*6E
$GLGSV,3,2,09,79,79,127,37,80,41,340,21,82,12,356,07,83,27,305,14*67
$GLGSV,3,3,09,84,12,251,*55
$GNGLL,0419.84784,S,05539.77908,E,053106.00,A,D*6E
$GNRMC,053107.00,A,0419.84796,S,05539.77928,E,1.087,132.62,270525,,,D*64
$GNVTG,132.62,T,,M,1.087,N,2.014,K,D*2B
$GNGGA,053107.00,0419.84796,S,05539.77928,E,2,12,0.75,23.6,M,-47.6,M,,0000*43
$GNGSA,A,3,05,24,12,20,18,13,41,,,,,,1.37,0.75,1.14*13
$GNGSA,A,3,79,78,83,82,67,80,,,,,,,1.37,0.75,1.14*16
$GPGSV,5,1,17,05,61,071,34,11,03,028,,12,54,020,16,13,15,134,13*74
$GPGSV,5,2,17,15,32,167,,18,33,257,13,20,30,042,18,22,04,135,*7B
$GPGSV,5,3,17,23,20,207,,24,49,202,33,25,31,342,,29,09,322,*75
$GPGSV,5,4,17,36,52,277,,40,86,351,37,41,58,082,37,49,32,274,*7C
$GPGSV,5,5,17,50,10,089,*4A
$GLGSV,3,1,09,67,18,097,16,68,25,148,,69,10,196,,78,25,152,10*64
$GLGSV,3,2,09,79,79,127,37,80,41,340,20,82,12,356,13,83,27,305,08*6E
$GLGSV,3,3,09,84,12,251,*55
$GNGLL,0419.84796,S,05539.77928,E,053107.00,A,D*6E
$GNRMC,053108.00,A,0419.84762,S,05539.77890,E,0.113,,270525,,,D*75
$GNVTG,,T,,M,0.113,N,0.209,K,D*30
$GNGGA,053108.00,0419.84762,S,05539.77890,E,2,12,0.80,23.3,M,-47.6,M,,0000*4A
$GNGSA,A,3,05,24,12,20,18,41,,,,,,,1.48,0.80,1.25*11
$GNGSA,A,3,79,78,83,82,67,80,,,,,,,1.48,0.80,1.25*16
$GPGSV,5,1,17,05,61,071,34,11,03,028,,12,54,020,14,13,15,134,09*7D
$GPGSV,5,2,17,15,32,167,17,18,33,257,15,20,30,042,17,22,04,135,*74
$GPGSV,5,3,17,23,20,207,,24,49,202,32,25,31,342,,29,09,322,*74
$GPGSV,5,4,17,36,52,277,,40,86,351,36,41,58,082,36,49,32,274,*7C
$GPGSV,5,5,17,50,10,089,*4A
$GLGSV,3,1,09,67,18,097,16,68,25,148,,69,10,196,,78,25,152,10*64
$GLGSV,3,2,09,79,79,127,36,80,41,340,20,82,12,356,13,83,27,305,11*67
