$GNTXT,01,01,01,More than 100 frame errors, UART RX was disabled*70
b0Ly7/eF
|1Nl?L%{4V^:R 
YbEFI4JXOP3uST'IU#YbyO<'I$GNRMC,044638.00,A,0419.78149,S,05539.83527,E,0.274,,210525,,,A*70
$GNVTG,,T,,M,0.274,N,0.508,K,A*31
$GNGNS,044638.00,0419.78149,S,05539.83527,E,AA,13,0.84,11.6,-47.6,,*66
$GNGGA,044638.00,0419.78149,S,05539.83527,E,1,12,0.84,11.6,M,-47.6,M,,*4D
$GNGSA,A,3,24,20,11,05,13,15,22,12,14,,,,1.60,0.84,1.37*13
$GNGSA,A,3,84,80,73,85,,,,,,,,,1.60,0.84,1.37*1F
$GPGSV,5,1,17,05,55,143,18,11,29,019,25,12,27,357,17,13,22,162,08*7B
$GPGSV,5,2,17,14,06,124,11,15,27,198,23,18,18,226,19,20,49,078,19*7A
$GPGSV,5,3,17,22,19,108,09,24,63,259,30,25,04,332,,29,11,293,*7D
$GPGSV,5,4,17,36,52,277,,40,86,350,,41,58,082,,49,32,274,*7D
$GPGSV,5,5,17,50,10,089,*4A
$GLGSV,3,1,09,69,12,129,,70,14,191,,73,52,008,21,74,11,344,*6B
$GLGSV,3,2,09,79,06,147,,80,51,117,30,83,05,014,,84,39,329,12*69
$GLGSV,3,3,09,85,35,261,25*55
$GNGLL,0419.78149,S,05539.83527,E,044638.00,A,A*69
$GNGRS,044638.00,1,-3.2,-0.6,2.1,3.0,-20.8,9.7,-21.1,8.4,-8.4,,,*5F
$GNGRS,044638.00,1,-29.1,-5.6,2.7,-5.4,,,,,,,,*4D
$GNGST,044638.00,54,,,,6.4,5.6,15*6E
$GNZDA,044638.00,21,05,2025,00,00*76
$GNGBS,044638.00,6.4,5.6,15.2,,,,*65
$GNTXT,01,01,01,More than 100 frame errors, UART RX was disabled*70
b0Ly7Heb

}1NRl6?L%{4V^:R 
YbEFI4FJXOP3uST'IU#\byOv@'j$GNRMC,044639.00,A,0419.78174,S,05539.83516,E,0.948,,210525,,,A*79
$GNVTG,,T,,M,0.948,N,1.756,K,A*3D
$GNGNS,044639.00,0419.78174,S,05539.83516,E,AA,13,0.77,10.1,-47.6,,*61
$GNGGA,044639.00,0419.78174,S,05539.83516,E,1,12,0.77,10.1,M,-47.6,M,,*4A
$GNGSA,A,3,24,20,11,05,13,15,22,12,14,,,,1.54,0.77,1.33*1C
$GNGSA,A,3,84,80,73,85,,,,,,,,,1.54,0.77,1.33*10
$GPGSV,5,1,17,05,55,143,17,11,29,019,24,12,27,357,17,13,22,162,11*7D
$GPGSV,5,2,17,14,06,125,10,15,27,198,22,18,18,226,16,20,49,078,18*75
$GPGSV,5,3,17,22,19,108,15,24,63,259,29,25,04,332,,29,11,293,*78
$GPGSV,5,4,17,36,52,277,,40,86,350,,41,58,082,,49,32,274,*7D
$GPGSV,5,5,17,50,10,089,*4A
$GLGSV,3,1,09,69,12,129,,70,14,191,,73,52,008,21,74,11,344,*6B
$GLGSV,3,2,09,79,06,147,,80,51,117,27,83,05,014,,84,39,329,12*6F
$GLGSV,3,3,09,85,35,261,23*53
$GNGLL,0419.78174,S,05539.83516,E,044639.00,A,A*64
$GNGRS,044639.00,1,-3.4,0.8,3.3,4.3,-22.1,10.3,13.3,6.4,-7.8,,,*68
$GNGRS,044639.00,1,1.6,-6.4,3.3,-5.3,,,,,,,,*5F
$GNGST,044639.00,4666644,,,,6.4,5.6,15*5A
$GNZDA,044639.00,21,05,2025,00,00*77
$GNGBS,044639.00,6.4,5.6,15.3,,,,*65
$GNTXT,01,01,01,More than 100 frame errors, UART RX was disabled*70
b0Ly7Ge9
}Y1NlA?L%{4V^:R 
YbEFI4JXOP3u>ST'IU#KbyO^D'B
$GNRMC,044640.00,A,0419.78185,S,05539.83509,E,0.431,,210525,,,A*74
$GNVTG,,T,,M,0.431,N,0.798,K,A*3D
$GNGNS,044640.00,0419.78185,S,05539.83509,E,AA,12,0.78,9.7,-47.6,,*5F
$GNGGA,044640.00,0419.78185,S,05539.83509,E,1,12,0.78,9.7,M,-47.6,M,,*75
$GNGSA,A,3,24,20,11,05,13,15,22,12,,,,,1.76,0.78,1.58*1B
$GNGSA,A,3,84,80,73,85,,,,,,,,,1.76,0.78,1.58*12
$GPGSV,5,1,17,05,55,143,19,11,29,019,23,12,27,357,16,13,22,162,08*7D
$GPGSV,5,2,17,14,06,125,,15,27,198,22,18,18,226,17,20,49,078,16*7B
$GPGSV,5,3,17,22,19,108,18,24,63,259,29,25,04,332,,29,11,293,*75
$GPGSV,5,4,17,36,52,277,,40,86,350,,41,58,082,,49,32,274,*7D
$GPGSV,5,5,17,50,10,089,*4A
$GLGSV,3,1,09,69,12,129,,70,14,191,,73,52,008,24,74,11,344,*6E
$GLGSV,3,2,09,79,06,147,,80,51,117,27,83,05,014,,84,39,329,12*6F
$GLGSV,3,3,09,85,35,261,22*52
$GNGLL,0419.78185,S,05539.83509,E,044640.00,A,A*6A
$GNGRS,044640.00,1,-1.2,2.0,3.3,0.1,-22.5,11.1,13.4,1.7,,,,*66
$GNGRS,044640.00,1,1.5,-4.5,2.2,-4.4,,,,,,,,*57
$GNGST,044640.00,4857197,,,,6.4,5.6,15*51
$GNZDA,044640.00,21,05,2025,00,00*79
$GNGBS,044640.00,6.4,5.6,15.5,,,,*6D
$GNTXT,01,01,01,More than 100 frame errors, UART RX was disabled*70
b0Ly7teI.
}1Nll?L%{4V^:R 
YbEFI4JXOP3uYST
'IU#byOFH'r$GNRMC,044641.00,A,0419.78169,S,05539.83496,E,0.117,,210525,,,A*71
$GNVTG,,T,,M,0.117,N,0.217,K,A*3E
$GNGNS,044641.00,0419.78169,S,05539.83496,E,AA,12,0.82,10.2,-47.6,,*63
$GNGGA,044641.00,0419.78169,S,05539.83496,E,1,12,0.82,10.2,M,-47.6,M,,*49
$GNGSA,A,3,24,20,11,05,13,15,22,12,,,,,1.78,0.82,1.58*10
$GNGSA,A,3,84,80,73,85,,,,,,,,,1.78,0.82,1.58*19
$GPGSV,5,1,17,05,55,143,20,11,29,019,22,12,27,357,14,13,22,162,15*78
$GPGSV,5,2,17,14,06,125,,15,27,198,22,18,18,226,19,20,49,078,14*77
$GPGSV,5,3,17,22,19,108,14,24,63,259,30,25,04,332,,29,11,293,*71
$GPGSV,5,4,17,36,52,277,,40,86,350,,41,58,082,,49,32,274,*7D
$GPGSV,5,5,17,50,10,089,*4A
$GLGSV,3,1,09,69,12,129,,70,14,191,,73,52,008,25,74,11,344,*6F
$GLGSV,3,2,09,79,06,147,,80,51,117,28,83,05,014,,84,39,329,10*62
$GLGSV,3,3,09,85,35,261,22*52
$GNGLL,0419.78169,S,05539.83496,E,044641.00,A,A*6E
$GNGRS,044641.00,1,0.0,3.6,2.3,-4.0,-63.5,11.6,-13.2,0.7,,,,*4F
$GNGRS,044641.00,1,-105,-6.8,1.8,-2.8,,,,,,,,*69
$GNGST,044641.00,53,,,,6.4,5.5,16*67
$GNZDA,044641.00,21,05,2025,00,00*78
$GNGBS,044641.00,6.4,5.5,15.6,,,,*6C
$GNTXT,01,01,01,More than 100 frame errors, UART RX was disabled*70
b0Ly7e

}1Nl_?L%{4V^:R 
YbEFI4`JXOP3uST
'IU# byO.L'$GNRMC,044642.00,A,0419.78166,S,05539.83496,E,0.357,,210525,,,A*7B
$GNVTG,,T,,M,0.357,N,0.662,K,A*3E
$GNGNS,044642.00,0419.78166,S,05539.83496,E,AA,12,0.78,10.0,-47.6,,*68
$GNGGA,044642.00,0419.78166,S,05539.83496,E,1,12,0.78,10.0,M,-47.6,M,,*42
$GNGSA,A,3,24,20,11,05,13,15,22,12,,,,,1.76,0.78,1.58*1B
$GNGSA,A,3,84,80,73,85,,,,,,,,,1.76,0.78,1.58*12
$GPGSV,5,1,17,05,55,143,20,11,29,019,24,12,27,357,14,13,22,162,10*7B
$GPGSV,5,2,17,14,06,125,,15,27,198,26,18,18,226,20,20,49,078,14*79
$GPGSV,5,3,17,22,19,108,21,24,63,259,31,25,04,332,,29,11,293,*76
$GPGSV,5,4,17,36,52,277,,40,86,350,,41,58,082,,49,32,274,*7D
$GPGSV,5,5,17,50,10,089,*4A
$GLGSV,3,1,09,69,12,129,,70,14,191,,73,52,008,26,74,11,344,*6C
$GLGSV,3,2,09,79,06,147,,80,51,117,28,83,05,014,,84,39,329,10*62
$GLGSV,3,3,09,85,35,261,25*55
$GNGLL,0419.78166,S,05539.83496,E,044642.00,A,A*62
$GNGRS,044642.00,1,-0.6,2.0,1.9,-6.3,11.7,11.5,13.7,-0.6,,,,*45
$GNGRS,044642.00,1,1.8,-7.7,1.0,-4.8,,,,,,,,*54
$GNGST,044642.00,5947882,,,,6.4,5.5,16*5F
$GNZDA,044642.00,21,05,2025,00,00*7B
$GNGBS,044642.00,6.4,5.5,15.6,,,,*6F
$GNTXT,01,01,01,More than 100 frame errors, UART RX was disabled*70
b0Ly7wexX}1N~l%?L%{4V^:R 
Y
bEFI4JXOP3uST
'IU#pb1byOP'B$GNRMC,044643.00,A,0419.78166,S,05539.83497,E,0.305,,210525,,,A*7C
$GNVTG,,T,,M,0.305,N,0.565,K,A*3D
$GNGNS,044643.00,0419.78166,S,05539.83497,E,AA,12,0.78,8.8,-47.6,,*59
$GNGGA,044643.00,0419.78166,S,05539.83497,E,1,12,0.78,8.8,M,-47.6,M,,*73
$GNGSA,A,3,24,20,11,05,13,15,22,12,,,,,1.76,0.78,1.58*1B
$GNGSA,A,3,84,80,73,85,,,,,,,,,1.76,0.78,1.58*12
$GPGSV,5,1,17,05,55,143,18,11,29,019,24,12,27,357,16,13,22,162,13*71
$GPGSV,5,2,17,14,06,125,,15,27,198,25,18,18,227,21,20,49,078,15*7B
$GPGSV,5,3,17,22,19,108,18,24,63,259,31,25,04,332,,29,11,293,*7C
$GPGSV,5,4,17,36,52,277,,40,86,350,,41,58,082,,49,32,274,*7D
$GPGSV,5,5,17,50,10,089,*4A
$GLGSV,3,1,09,69,12,129,,70,14,191,,73,52,008,26,74,11,344,*6C
$GLGSV,3,2,09,79,06,147,,80,51,117,28,83,05,014,,84,39,329,10*62
$GLGSV,3,3,09,85,35,261,25*55
$GNGLL,0419.78166,S,05539.83497,E,044643.00,A,A*62
$GNGRS,044643.00,1,-3.8,1.3,2.0,-6.5,11.1,11.7,10.6,-3.9,,,,*4F
$GNGRS,044643.00,1,1.8,-7.6,-0.9,-4.0,,,,,,,,*79
$GNGST,044643.00,4856426,,,,6.3,5.5,15*58
$GNZDA,044643.00,21,05,2025,00,00*7A
$GNGBS,044643.00,6.3,5.5,15.4,,,,*6B
$GNTXT,01,01,01,More than 100 frame errors, UART RX was disabled*70
b0Lpy7Oei}1Nl?BL%{4V^:R 
Y
bEFI47JXOP3u'ST
'I=U#lbpyOS'$GNRMC,044644.00,A,0419.78163,S,05539.83488,E,0.235,,210525,,,A*72
$GNVTG,,T,,M,0.235,N,0.434,K,A*3A
$GNGNS,044644.00,0419.78163,S,05539.83488,E,AA,12,0.82,8.5,-47.6,,*5D
$GNGGA,044644.00,0419.78163,S,05539.83488,E,1,12,0.82,8.5,M,-47.6,M,,*77
$GNGSA,A,3,24,20,11,05,13,15,22,12,,,,,1.78,0.82,1.58*10
$GNGSA,A,3,84,80,73,85,,,,,,,,,1.78,0.82,1.58*19
$GPGSV,5,1,17,05,55,143,19,11,29,019,25,12,27,357,17,13,22,162,12*71
$GPGSV,5,2,17,14,06,125,,15,27,198,25,18,18,227,22,20,49,078,17*7A
$GPGSV,5,3,17,22,19,108,22,24,63,259,30,25,04,332,,29,11,293,*74
$GPGSV,5,4,17,36,52,277,,40,86,350,,41,58,082,,49,32,274,*7D
$GPGSV,5,5,17,50,10,089,*4A
$GLGSV,3,1,09,69,12,129,,70,14,191,,73,52,008,25,74,11,344,*6F
$GLGSV,3,2,09,79,06,147,,80,51,117,28,83,05,014,,84,39,329,10*62
$GLGSV,3,3,09,85,35,261,24*54
$GNGLL,0419.78163,S,05539.83488,E,044644.00,A,A*6E
$GNGRS,044644.00,1,3.2,1.4,0.8,-7.8,-114,15.2,6.5,-2.6,,,,*53
$GNGRS,044644.00,1,-117,-7.3,0.6,-4.8,,,,,,,,*6C
$GNGST,044644.00,60,,,,6.2,5.4,15*66
$GNZDA,044644.00,21,05,2025,00,00*7D
$GNGBS,044644.00,6.2,5.4,15.1,,,,*69
$GNTXT,01,01,01,More than 100 frame errors, UART RX was disabled*70
b0LXy7 "eU}Z1MKl?L%{4V^:R 
Y
bEFI4vJXOP3urST'IU#<bXyOW'y$GNRMC,044645.00,A,0419.78163,S,05539.83476,E,0.133,,210525,,,A*77
$GNVTG,,T,,M,0.133,N,0.246,K,A*3C
$GNGNS,044645.00,0419.78163,S,05539.83476,E,AA,12,0.78,8.5,-47.6,,*58
$GNGGA,044645.00,0419.78163,S,05539.83476,E,1,12,0.78,8.5,M,-47.6,M,,*72
$GNGSA,A,3,24,20,11,05,13,15,22,12,,,,,1.76,0.78,1.58*1B
$GNGSA,A,3,84,80,73,85,,,,,,,,,1.76,0.78,1.58*12
$GPGSV,5,1,17,05,55,143,20,11,29,019,27,12,27,357,15,13,22,162,16*7F
$GPGSV,5,2,17,14,06,125,06,15,27,198,23,18,18,227,22,20,49,077,19*7B
$GPGSV,5,3,17,22,19,108,25,24,63,259,29,25,04,332,,29,11,293,*7B
$GPGSV,5,4,17,36,52,277,,40,86,350,,41,58,082,,49,32,274,*7D
$GPGSV,5,5,17,50,10,089,*4A
$GLGSV,3,1,09,69,12,129,,70,14,191,,73,52,008,25,74,11,344,*6F
$GLGSV,3,2,09,79,06,147,,80,51,117,28,83,05,014,,84,39,329,13*61
$GLGSV,3,3,09,85,35,261,24*54
$GNGLL,0419.78163,S,05539.83476,E,044645.00,A,A*6E
$GNGRS,044645.00,1,10.2,3.3,0.3,-9.9,11.6,16.3,1.3,-1.7,,,,*61
$GNGRS,044645.00,1,1.6,-9.1,-1.4,-3.7,,,,,,,,*74
$GNGST,044645.00,4856426,,,,6.1,5.4,15*5D
$GNZDA,044645.00,21,05,2025,00,00*7C
$GNGBS,044645.00,6.1,5.4,15.0,,,,*6A
$GNTXT,01,01,01,More than 100 frame errors, UART RX was disabled*70
b0L@y7Jiec}a1Mm.?^L%{4V^:R 
Y
bEFI4dJXOP3u\ST
'IU#8b@yO['Qw$GNRMC,044646.00,A,0419.78168,S,05539.83461,E,0.064,,210525,,,A*7A
$GNVTG,,T,,M,0.064,N,0.118,K,A*37
$GNGNS,044646.00,0419.78168,S,05539.83461,E,AA,12,0.78,8.4,-47.6,,*57
$GNGGA,044646.00,0419.78168,S,05539.83461,E,1,12,0.78,8.4,M,-47.6,M,,*7D
$GNGSA,A,3,24,20,11,05,13,15,22,12,,,,,1.76,0.78,1.58*1B
$GNGSA,A,3,84,80,73,85,,,,,,,,,1.76,0.78,1.58*12
$GPGSV,5,1,17,05,55,143,21,11,29,019,27,12,27,357,14,13,22,162,13*7A
$GPGSV,5,2,17,14,06,125,09,15,27,198,25,18,18,227,21,20,49,077,24*7F
$GPGSV,5,3,17,22,19,109,26,24,63,259,28,25,04,332,,29,11,293,*78
$GPGSV,5,4,17,36,52,277,,40,86,350,,41,58,082,,49,32,274,*7D
$GPGSV,5,5,17,50,10,089,*4A
$GLGSV,3,1,09,69,12,129,,70,14,191,,73,52,008,25,74,11,344,*6F
$GLGSV,3,2,09,79,06,147,,80,51,117,27,83,05,014,,84,39,329,10*6D
$GLGSV,3,3,09,85,35,261,25*55
$GNGLL,0419.78168,S,05539.83461,E,044646.00,A,A*60
$GNGRS,044646.00,1,8.6,2.3,-1.5,-12.1,11.2,13.8,-2.1,-2.3,,,,*67
$GNGRS,044646.00,1,1.6,-9.3,-1.6,-3.3,,,,,,,,*73
$GNGST,044646.00,4856426,,,,6.1,5.3,15*59
$GNZDA,044646.00,21,05,2025,00,00*7F
$GNGBS,044646.00,6.1,5.3,14.7,,,,*68
$GNTXT,01,01,01,More than 100 frame errors, UART RX was disabled*70
b0L(y7Re}d1Mm?L%{4V^:R 
Y
bEFI4JXOP3uST
'I9U#b(yO_')$GNRMC,044647.00,A,0419.78176,S,05539.83445,E,0.146,,210525,,,A*73
$GNVTG,,T,,M,0.146,N,0.271,K,A*3A
$GNGNS,044647.00,0419.78176,S,05539.83445,E,AA,12,0.86,8.5,-47.6,,*5F
$GNGGA,044647.00,0419.78176,S,05539.83445,E,1,12,0.86,8.5,M,-47.6,M,,*75
$GNGSA,A,3,24,20,11,05,13,15,22,12,,,,,1.90,0.86,1.70*18
$GNGSA,A,3,84,80,73,85,,,,,,,,,1.90,0.86,1.70*11
$GPGSV,5,1,17,05,55,143,19,11,29,019,26,12,27,357,15,13,22,162,14*76
$GPGSV,5,2,17,14,06,125,14,15,27,198,26,18,18,227,20,20,49,077,25*70
$GPGSV,5,3,17,22,19,109,26,24,63,259,28,25,04,332,,29,11,293,*78
$GPGSV,5,4,17,36,52,277,,40,86,350,,41,58,082,,49,32,274,*7D
$GPGSV,5,5,17,50,10,089,*4A
$GLGSV,3,1,09,69,12,129,,70,14,191,,73,52,008,25,74,11,344,*6F
$GLGSV,3,2,09,79,06,147,,80,51,117,26,83,05,014,,84,39,329,10*6C
$GLGSV,3,3,09,85,35,261,26*56
$GNGLL,0419.78176,S,05539.83445,E,044647.00,A,A*68
$GNGRS,044647.00,1,9.2,3.9,-1.7,-14.0,-33.1,13.8,-5.4,-2.3,,,,*41
$GNGRS,044647.00,1,148,-8.3,-0.1,-4.9,,,,,,,,*6C
$GNGST,044647.00,40,,,,6.0,5.3,14*63
$GNZDA,044647.00,21,05,2025,00,00*7E
$GNGBS,044647.00,6.0,5.3,14.5,,,,*6A
$GNTXT,01,01,01,More than 100 frame errors, UART RX was disabled*70
b0Ly7EKe
}1M m?L%{4V^:R 
Y
bEFI4JXOP3uST'IU#byOc'G$GNRMC,044648.00,A,0419.78186,S,05539.83431,E,0.194,,210525,,,A*7F
$GNVTG,,T,,M,0.194,N,0.359,K,A*3E
$GNGNS,044648.00,0419.78186,S,05539.83431,E,AA,12,0.78,8.6,-47.6,,*5E
$GNGGA,044648.00,0419.78186,S,05539.83431,E,1,12,0.78,8.6,M,-47.6,M,,*74
$GNGSA,A,3,24,20,11,05,13,15,22,12,,,,,1.76,0.78,1.58*1B
$GNGSA,A,3,84,80,73,85,,,,,,,,,1.76,0.78,1.58*12
$GPGSV,5,1,17,05,55,143,20,11,29,019,25,12,27,357,18,13,22,162,10*76
$GPGSV,5,2,17,14,06,125,15,15,27,198,27,18,18,227,19,20,49,077,26*79
$GPGSV,5,3,17,22,19,109,27,24,63,257,29,25,04,332,,29,11,293,*76
$GPGSV,5,4,17,36,52,277,,40,86,350,,41,58,082,,49,32,274,*7D
$GPGSV,5,5,17,50,10,089,*4A
$GLGSV,3,1,09,69,12,129,,70,14,191,,73,52,008,24,74,11,344,*6E
$GLGSV,3,2,09,79,06,147,,80,51,117,26,83,05,014,,84,39,329,12*6E
$GLGSV,3,3,09,85,35,261,26*56
$GNGLL,0419.78186,S,05539.83431,E,044648.00,A,A*6B
$GNGRS,044648.00,1,7.5,8.0,-1.8,-17.2,11.7,14.5,-8.3,-0.8,,,,*69
$GNGRS,044648.00,1,1.8,-8.8,-1.0,-4.9,,,,,,,,*72
$GNGST,044648.00,3434013,,,,5.8,5.2,14*50
$GNZDA,044648.00,21,05,2025,00,00*71
$GNGBS,044648.00,5.8,5.2,14.1,,,,*6B
$GNTXT,01,01,01,More than 100 frame errors, UART RX was disabled*70
b0Ly7e}H1M
m]?L%{4V^:R 
Y
b@EFI4DJXOP3uxST'IU#byOg'$GNRMC,044649.00,A,0419.78188,S,05539.83419,E,0.056,,210525,,,A*75
$GNVTG,,T,,M,0.056,N,0.104,K,A*3B
$GNGNS,044649.00,0419.78188,S,05539.83419,E,AA,13,0.78,8.8,-47.6,,*54
$GNGGA,044649.00,0419.78188,S,05539.83419,E,1,12,0.78,8.8,M,-47.6,M,,*7F
$GNGSA,A,3,24,20,11,05,13,15,22,12,14,,,,1.76,0.78,1.58*1E
$GNGSA,A,3,84,80,73,85,,,,,,,,,1.76,0.78,1.58*12
$GPGSV,5,1,17,05,55,143,22,11,29,019,25,12,27,357,16,13,22,162,07*7C
$GPGSV,5,2,17,14,06,125,14,15,27,198,27,18,18,227,19,20,49,077,27*79
$GPGSV,5,3,17,22,19,109,27,24,63,257,30,25,05,332,,29,11,293,*7F
$GPGSV,5,4,17,36,52,277,,40,86,350,,41,58,082,,49,32,274,*7D
$GPGSV,5,5,17,50,10,089,*4A
$GLGSV,3,1,09,69,12,129,,70,14,191,,73,52,008,24,74,11,344,*6E
$GLGSV,3,2,09,79,06,147,,80,51,117,26,83,05,014,,84,39,329,11*6D
$GLGSV,3,3,09,85,35,261,27*57
$GNGLL,0419.78188,S,05539.83419,E,044649.00,A,A*6E
$GNGRS,044649.00,1,2.4,10.3,0.1,-18.2,11.6,12.9,-11.9,-0.3,-22.3,,,*7E
$GNGRS,044649.00,1,1.8,-9.0,-1.9,-3.8,,,,,,,,*75
$GNGST,044649.00,3434015,,,,5.8,5.1,14*54
$GNZDA,044649.00,21,05,2025,00,00*70
$GNGBS,044649.00,5.8,5.1,13.8,,,,*67
$GNTXT,01,01,01,More than 100 frame errors, UART RX was disabled*70
b0Ly7e}V_1Mm?L%{4V^:R 
Y
bEFI4nJXOP3u9ST'I1U#_byOnk'$GNRMC,044650.00,A,0419.78189,S,05539.83411,E,0.225,,210525,,,A*72
$GNVTG,,T,,M,0.225,N,0.416,K,A*3B
$GNGNS,044650.00,0419.78189,S,05539.83411,E,AA,13,0.83,9.8,-47.6,,*50
$GNGGA,044650.00,0419.78189,S,05539.83411,E,1,12,0.83,9.8,M,-47.6,M,,*7B
$GNGSA,A,3,24,20,11,05,13,15,22,12,14,,,,1.59,0.83,1.36*1F
$GNGSA,A,3,84,80,73,85,,,,,,,,,1.59,0.83,1.36*13
$GPGSV,5,1,17,05,55,143,19,11,29,019,25,12,27,357,17,13,22,162,07*75
$GPGSV,5,2,17,14,06,125,15,15,27,198,28,18,18,227,20,20,49,077,26*7C
$GPGSV,5,3,17,22,19,109,27,24,63,257,30,25,05,332,,29,11,293,*7F
$GPGSV,5,4,17,36,52,277,,40,86,350,,41,58,082,,49,32,274,*7D
$GPGSV,5,5,17,50,10,089,*4A
$GLGSV,3,1,09,69,12,129,,70,14,191,,73,52,008,24,74,11,344,*6E
$GLGSV,3,2,09,79,06,147,,80,51,117,26,83,05,014,,84,39,329,11*6D
$GLGSV,3,3,09,85,35,261,27*57
$GNGLL,0419.78189,S,05539.83411,E,044650.00,A,A*6F
$GNGRS,044650.00,1,2.3,12.1,1.6,-15.1,-108,8.6,-11.3,-0.5,-17.1,,,*49
$GNGRS,044650.00,1,127,-9.7,-1.5,-1.2,,,,,,,,*6D
$GNGST,044650.00,42,,,,5.7,5.0,14*60
$GNZDA,044650.00,21,05,2025,00,00*78
$GNGBS,044650.00,5.7,5.0,13.5,,,,*6C
$GNTXT,01,01,01,More than 100 frame errors, UART RX was disabled*70
b0Ly7We}f1Mm!?L%{4V^:R 
Y
bEFI4JXOP3uST'IU#byOVo'p$GNRMC,044651.00,A,0419.78180,S,05539.83402,E,0.053,,210525,,,A*7B
$GNVTG,,T,,M,0.053,N,0.099,K,A*3B
$GNGNS,044651.00,0419.78180,S,05539.83402,E,AA,13,0.77,10.2,-47.6,,*63
$GNGGA,044651.00,0419.78180,S,05539.83402,E,1,12,0.77,10.2,M,-47.6,M,,*48
$GNGSA,A,3,24,20,11,05,13,15,22,12,14,,,,1.54,0.77,1.33*1C
$GNGSA,A,3,84,80,73,85,,,,,,,,,1.54,0.77,1.33*10
$GPGSV,5,1,17,05,55,143,18,11,29,019,25,12,27,357,18,13,22,162,11*7C
$GPGSV,5,2,17,14,06,125,16,15,27,198,28,18,18,227,20,20,49,077,26*7F
$GPGSV,5,3,17,22,19,109,28,24,63,257,30,25,05,332,,29,11,293,*70
$GPGSV,5,4,17,36,52,277,,40,86,350,,41,58,082,,49,32,274,*7D
$GPGSV,5,5,17,50,10,089,*4A
$GLGSV,3,1,09,69,12,129,,70,14,191,,73,52,008,26,74,11,344,*6C
$GLGSV,3,2,09,79,06,147,,80,51,117,27,83,05,014,,84,39,329,08*64
$GLGSV,3,3,09,85,35,261,27*57
$GNGLL,0419.78180,S,05539.83402,E,044651.00,A,A*65
$GNGRS,044651.00,1,4.3,14.7,3.4,-13.7,12.4,4.7,-9.9,-0.8,-9.2,,,*4C
$GNGRS,044651.00,1,1.4,-8.4,-2.4,-3.6,,,,,,,,*75
$GNGST,044651.00,4665903,,,,5.6,4.9,13*52
$GNZDA,044651.00,21,05,2025,00,00*79
$GNGBS,044651.00,5.6,4.9,13.2,,,,*63
$GNTXT,01,01,01,More than 100 frame errors, UART RX was disabled*70
b0Ly7e}J1Mm??=L%{4V^:R 
Y
bEFI4[JXOP3uST'IlU#1byO>s'`$GNRMC,044652.00,A,0419.78168,S,05539.83402,E,0.144,,210525,,,A*79
$GNVTG,,T,,M,0.144,N,0.267,K,A*3F
$GNGNS,044652.00,0419.78168,S,05539.83402,E,AA,13,0.77,10.5,-47.6,,*61
$GNGGA,044652.00,0419.78168,S,05539.83402,E,1,12,0.77,10.5,M,-47.6,M,,*4A
$GNGSA,A,3,24,20,11,05,13,15,22,12,14,,,,1.54,0.77,1.33*1C
$GNGSA,A,3,84,80,73,85,,,,,,,,,1.54,0.77,1.33*10
$GPGSV,5,1,17,05,55,143,19,11,29,019,26,12,27,357,20,13,22,162,14*70
$GPGSV,5,2,17,14,06,125,14,15,27,198,29,18,18,227,20,20,49,077,25*7F
$GPGSV,5,3,17,22,19,109,27,24,63,257,30,25,05,332,,29,11,293,*7F
$GPGSV,5,4,17,36,52,277,,40,86,350,,41,58,082,,49,32,274,*7D
$GPGSV,5,5,17,50,10,089,*4A
$GLGSV,3,1,09,69,12,129,,70,14,191,,73,52,008,25,74,11,344,*6F
$GLGSV,3,2,09,79,06,147,,80,51,117,28,83,05,014,,84,39,329,11*63
$GLGSV,3,3,09,85,35,261,27*57
$GNGLL,0419.78168,S,05539.83402,E,044652.00,A,A*60
$GNGRS,044652.00,1,-2.0,18.0,4.3,-13.0,12.9,-1.1,-9.6,-2.8,-1.8,,,*47
$GNGRS,044652.00,1,1.1,-10.1,-1.6,-3.5,,,,,,,,*4D
$GNGST,044652.00,4665903,,,,5.5,4.8,13*53
$GNZDA,044652.00,21,05,2025,00,00*7A
$GNGBS,044652.00,5.5,4.8,12.9,,,,*68
$GNTXT,01,01,01,More than 100 frame errors, UART RX was disabled*70
b0Lz7*e}1MmS?L&{4V^:R 
Y
bEFI4JXOP3ufST
'I*U#ibzO&w'9N$GNRMC,044653.00,A,0419.78155,S,05539.83399,E,0.110,,210525,,,A*72
$GNVTG,,T,,M,0.110,N,0.203,K,A*3C
$GNGNS,044653.00,0419.78155,S,05539.83399,E,AA,13,0.80,10.5,-47.6,,*63
$GNGGA,044653.00,0419.78155,S,05539.83399,E,1,12,0.80,10.5,M,-47.6,M,,*48
$GNGSA,A,3,24,20,11,05,13,15,22,12,14,,,,1.56,0.80,1.34*11
$GNGSA,A,3,84,80,73,85,,,,,,,,,1.56,0.80,1.34*1D
$GPGSV,5,1,17,05,55,143,20,11,29,019,26,12,27,357,19,13,22,162,14*70
$GPGSV,5,2,17,14,06,125,13,15,27,198,27,18,18,227,20,20,49,077,25*76
$GPGSV,5,3,17,22,19,109,25,24,63,257,30,25,05,332,,29,11,294,*7A
$GPGSV,5,4,17,36,52,277,,40,86,350,,41,58,082,,49,32,274,*7D
$GPGSV,5,5,17,50,10,089,*4A
$GLGSV,3,1,09,69,12,129,,70,14,191,,73,52,008,24,74,11,344,*6E
$GLGSV,3,2,09,79,06,147,,80,51,117,27,83,05,014,,84,39,329,10*6D
$GLGSV,3,3,09,85,35,261,28*58
$GNGLL,0419.78155,S,05539.83399,E,044653.00,A,A*6A
$GNGRS,044653.00,1,-0.4,17.7,5.5,-12.6,5.1,2.8,-12.0,-3.0,-0.1,,,*6C
$GNGRS,044653.00,1,109,-9.2,-2.9,-3.5,,,,,,,,*6D
$GNGST,044653.00,44,,,,5.4,4.7,13*67
$GNZDA,044653.00,21,05,2025,00,00*7B
$GNGBS,044653.00,5.4,4.7,12.7,,,,*69
$GNTXT,01,01,01,More than 100 frame errors, UART RX was disabled*70
b0Lz7e}o1Mm?L&{4V^:R 
Y
bEFI4JXOP3u`ST'IU#2bzO{'$GNRMC,044654.00,A,0419.78145,S,05539.83398,E,0.045,,210525,,,A*74
$GNVTG,,T,,M,0.045,N,0.084,K,A*30
$GNGNS,044654.00,0419.78145,S,05539.83398,E,AA,13,0.77,10.7,-47.6,,*6E
$GNGGA,044654.00,0419.78145,S,05539.83398,E,1,12,0.77,10.7,M,-47.6,M,,*45
$GNGSA,A,3,24,20,11,05,13,15,22,12,14,,,,1.54,0.77,1.33*1C
$GNGSA,A,3,84,80,73,85,,,,,,,,,1.54,0.77,1.33*10
$GPGSV,5,1,17,05,55,143,20,11,29,019,27,12,27,357,16,13,22,162,13*79
$GPGSV,5,2,17,14,06,125,12,15,27,198,26,18,18,227,19,20,49,077,26*7F
$GPGSV,5,3,17,22,19,109,26,24,63,257,29,25,05,332,,29,11,294,*71
$GPGSV,5,4,17,36,52,277,,40,86,350,,41,58,082,,49,32,274,*7D
$GPGSV,5,5,17,50,10,089,*4A
$GLGSV,3,1,09,69,12,129,,70,14,191,,73,52,008,22,74,11,344,*68
$GLGSV,3,2,09,79,06,147,,80,51,117,26,83,05,014,,84,39,329,12*6E
$GLGSV,3,3,09,85,35,261,28*58
$GNGLL,0419.78145,S,05539.83398,E,044654.00,A,A*6D
$GNGRS,044654.00,1,2.0,17.5,5.2,-13.8,12.0,6.2,-9.9,-5.2,0.3,,,*6B
$GNGRS,044654.00,1,1.5,-9.3,-2.6,-4.6,,,,,,,,*72
$GNGST,044654.00,3300605,,,,5.3,4.7,13*54
$GNZDA,044654.00,21,05,2025,00,00*7C
$GNGBS,044654.00,5.3,4.7,12.6,,,,*68
$GNTXT,01,01,01,More than 100 frame errors, UART RX was disabled*70
b0Lhz7Nhe@}S1Mbm?GL&{4V^:R 
Y
bEFI4aJXOP3ubST'IU#!gbhzO~'$GNRMC,044655.00,A,0419.78138,S,05539.83397,E,0.004,,210525,,,A*75
$GNVTG,,T,,M,0.004,N,0.008,K,A*31
$GNGNS,044655.00,0419.78138,S,05539.83397,E,AA,13,0.77,10.9,-47.6,,*64
$GNGGA,044655.00,0419.78138,S,05539.83397,E,1,12,0.77,10.9,M,-47.6,M,,*4F
$GNGSA,A,3,24,20,11,05,13,15,22,12,14,,,,1.54,0.77,1.33*1C
$GNGSA,A,3,84,80,73,85,,,,,,,,,1.54,0.77,1.33*10
$GPGSV,5,1,17,05,55,143,20,11,29,019,27,12,27,357,14,13,22,162,16*7E
$GPGSV,5,2,17,14,06,125,12,15,27,198,25,18,18,227,17,20,49,077,27*73
$GPGSV,5,3,17,22,19,109,27,24,63,257,28,25,05,332,,29,11,294,*71
$GPGSV,5,4,17,36,52,277,,40,86,350,,41,58,082,,49,32,274,*7D
$GPGSV,5,5,17,50,10,089,*4A
$GLGSV,3,1,09,69,12,129,,70,14,191,,73,52,008,24,74,11,344,*6E
$GLGSV,3,2,09,79,06,147,,80,51,117,26,83,05,014,,84,39,329,11*6D
$GLGSV,3,3,09,85,35,261,27*57
$GNGLL,0419.78138,S,05539.83397,E,044655.00,A,A*69
$GNGRS,044655.00,1,3.3,16.3,3.6,-14.6,12.0,8.5,-8.4,-4.5,-3.3,,,*49
$GNGRS,044655.00,1,1.3,-9.3,-4.1,-5.5,,,,,,,,*76
$GNGST,044655.00,3302247,,,,5.2,4.6,12*54
$GNZDA,044655.00,21,05,2025,00,00*7D
$GNGBS,044655.00,5.2,4.6,12.4,,,,*6B
$GNTXT,01,01,01,More than 100 frame errors, UART RX was disabled*70
b0LPz7;e
}WQ1MOmc?L&{4V^:R 
Y
bEFI4JXOP3uST'I{U#CbPzO'$GNRMC,044656.00,A,0419.78132,S,05539.83397,E,0.076,,210525,,,A*79
$GNVTG,,T,,M,0.076,N,0.141,K,A*38
$GNGNS,044656.00,0419.78132,S,05539.83397,E,AA,13,0.80,11.1,-47.6,,*6C
$GNGGA,044656.00,0419.78132,S,05539.83397,E,1,12,0.80,11.1,M,-47.6,M,,*47
$GNGSA,A,3,24,20,11,05,13,15,22,12,14,,,,1.56,0.80,1.34*11
$GNGSA,A,3,84,80,73,85,,,,,,,,,1.56,0.80,1.34*1D
$GPGSV,5,1,17,05,55,143,21,11,29,019,27,12,27,357,11,13,22,162,10*7C
$GPGSV,5,2,17,14,06,125,12,15,27,198,26,18,18,227,18,20,49,077,28*70
$GPGSV,5,3,17,22,19,109,26,24,63,257,28,25,05,332,,29,11,294,*70
$GPGSV,5,4,17,36,52,277,,40,86,350,,41,58,082,,49,32,274,*7D
$GPGSV,5,5,17,50,10,089,*4A
$GLGSV,3,1,09,69,12,129,,70,14,191,,73,52,008,25,74,11,344,*6F
$GLGSV,3,2,09,79,06,147,,80,51,117,26,83,05,014,,84,39,329,09*64
$GLGSV,3,3,09,85,35,261,27*57
$GNGLL,0419.78132,S,05539.83397,E,044656.00,A,A*60
$GNGRS,044656.00,1,2.8,13.6,3.1,-12.6,9.8,5.9,-6.7,-5.7,-4.2,,,*7A
$GNGRS,044656.00,1,-117,-10.6,-3.7,-4.5,,,,,,,,*7E
$GNGST,044656.00,48,,,,5.1,4.5,12*68
$GNZDA,044656.00,21,05,2025,00,00*7E
$GNGBS,044656.00,5.1,4.5,12.3,,,,*6F
$GNTXT,01,01,01,More than 100 frame errors, UART RX was disabled*70
b0L8z7Me]}{1MWm?jL&{4V^:R 
Y
bEFI4JXOP3uST'IU#|b8zO'$GNRMC,044657.00,A,0419.78131,S,05539.83401,E,0.102,,210525,,,A*71
$GNVTG,,T,,M,0.102,N,0.189,K,A*3E
$GNGNS,044657.00,0419.78131,S,05539.83401,E,AA,13,0.77,11.1,-47.6,,*6E
$GNGGA,044657.00,0419.78131,S,05539.83401,E,1,12,0.77,11.1,M,-47.6,M,,*45
$GNGSA,A,3,24,20,11,05,13,15,22,12,14,,,,1.53,0.77,1.33*1B
$GNGSA,A,3,84,80,73,85,,,,,,,,,1.53,0.77,1.33*17
$GPGSV,5,1,17,05,55,143,22,11,29,019,27,12,27,357,15,13,22,162,08*72
$GPGSV,5,2,17,14,06,125,12,15,27,198,25,18,18,227,21,20,49,077,29*78
$GPGSV,5,3,17,22,19,109,25,24,63,257,29,25,05,332,,29,11,294,*72
$GPGSV,5,4,17,36,52,277,,40,86,350,,41,58,082,,49,32,274,*7D
$GPGSV,5,5,17,50,10,089,*4A
$GLGSV,3,1,09,69,12,129,,70,14,191,,73,52,008,24,74,11,344,*6E
$GLGSV,3,2,09,79,06,147,,80,51,117,26,83,05,014,,84,39,329,08*65
$GLGSV,3,3,09,85,35,261,25*55
$GNGLL,0419.78131,S,05539.83401,E,044657.00,A,A*6A
$GNGRS,044657.00,1,1.1,11.1,2.5,-12.0,11.8,9.7,-5.7,-9.3,-3.9,,,*4B
$GNGRS,044657.00,1,1.9,-8.1,-3.8,-6.2,,,,,,,,*77
$GNGST,044657.00,3299374,,,,5.1,4.5,12*54
$GNZDA,044657.00,21,05,2025,00,00*7F
$GNGBS,044657.00,5.1,4.5,12.2,,,,*6F
$GNTXT,01,01,01,More than 100 frame errors, UART RX was disabled*70
b0L z74'e}1Mcm?WL&{4V^:R 
Y
byEFI4EJXOP3uST
'IU#[db zO'pS$GNRMC,044658.00,A,0419.78135,S,05539.83398,E,0.110,,210525,,,A*7E
$GNVTG,,T,,M,0.110,N,0.204,K,A*3B
$GNGNS,044658.00,0419.78135,S,05539.83398,E,AA,13,0.77,11.3,-47.6,,*60
$GNGGA,044658.00,0419.78135,S,05539.83398,E,1,12,0.77,11.3,M,-47.6,M,,*4B
$GNGSA,A,3,24,20,11,05,13,15,22,12,14,,,,1.53,0.77,1.33*1B
$GNGSA,A,3,84,80,73,85,,,,,,,,,1.53,0.77,1.33*17
$GPGSV,5,1,17,05,55,143,22,11,29,019,27,12,27,357,16,13,22,162,07*7E
$GPGSV,5,2,17,14,06,125,13,15,27,198,25,18,18,227,21,20,49,077,27*77
$GPGSV,5,3,17,22,19,109,26,24,63,257,30,25,05,332,,29,11,294,*79
$GPGSV,5,4,17,36,52,277,,40,86,350,,41,58,082,,49,32,274,*7D
$GPGSV,5,5,17,50,10,089,*4A
$GLGSV,3,1,09,69,12,129,,70,14,191,,73,52,008,22,74,11,344,*68
$GLGSV,3,2,09,79,06,147,,80,51,117,25,83,05,014,,84,39,329,10*6F
$GLGSV,3,3,09,85,35,261,24*54
$GNGLL,0419.78135,S,05539.83398,E,044658.00,A,A*66
$GNGRS,044658.00,1,3.4,8.7,3.0,-9.7,11.8,12.2,-7.6,-10.7,-5.3,,,*48
$GNGRS,044658.00,1,2.0,-8.4,-4.4,-7.4,,,,,,,,*7B
$GNGST,044658.00,3299476,,,,5.0,4.5,12*5F
$GNZDA,044658.00,21,05,2025,00,00*70
$GNGBS,044658.00,5.0,4.5,12.1,,,,*62
$GNTXT,01,01,01,More than 100 frame errors, UART RX was disabled*70
b0Lz7phe}w1Mm8?L&{4V^:R 
Y
bEFI4BJXOP3uST
'IU#BbzO'H$GNRMC,044659.00,A,0419.78139,S,05539.83396,E,0.091,,210525,,,A*75
$GNVTG,,T,,M,0.091,N,0.169,K,A*3B
$GNGNS,044659.00,0419.78139,S,05539.83396,E,AA,13,0.82,11.4,-47.6,,*6E
$GNGGA,044659.00,0419.78139,S,05539.83396,E,1,12,0.82,11.4,M,-47.6,M,,*45
$GNGSA,A,3,24,20,11,05,13,15,22,12,14,,,,1.51,0.82,1.27*16
$GNGSA,A,3,84,80,73,85,,,,,,,,,1.51,0.82,1.27*1A
$GPGSV,5,1,17,05,55,143,20,11,29,019,26,12,27,357,14,13,22,162,14*7D
$GPGSV,5,2,17,14,06,125,13,15,27,198,25,18,18,227,19,20,49,077,27*7C
$GPGSV,5,3,17,22,19,109,27,24,63,257,30,25,05,332,,29,11,294,*78
$GPGSV,5,4,17,36,52,277,,40,86,350,,41,58,082,,49,32,274,*7D
$GPGSV,5,5,17,50,10,089,*4A
$GLGSV,3,1,09,69,12,129,,70,14,191,,73,52,008,18,74,11,344,*61
$GLGSV,3,2,09,79,06,147,,80,51,117,24,83,05,014,,84,39,329,10*6E
$GLGSV,3,3,09,85,35,261,23*53
$GNGLL,0419.78139,S,05539.83396,E,044659.00,A,A*65
$GNGRS,044659.00,1,1.6,7.8,3.6,-9.1,-41.1,12.3,-7.1,-18.8,-3.9,,,*65
$GNGRS,044659.00,1,-144,-8.4,-4.5,-5.3,,,,,,,,*4E
$GNGST,044659.00,52,,,,5.0,4.4,12*6C
$GNZDA,044659.00,21,05,2025,00,00*71
$GNGBS,044659.00,5.0,4.4,11.9,,,,*69
$GNTXT,01,01,01,More than 100 frame errors, UART RX was disabled*70
b0Lz7'e}1M=m1?L&{4V^:R 
Y
bEFI4JXOP3uST'IU#\EbzO~'$GNRMC,044700.00,A,0419.78136,S,05539.83392,E,0.147,,210525,,,A*79
$GNVTG,,T,,M,0.147,N,0.273,K,A*39
$GNGNS,044700.00,0419.78136,S,05539.83392,E,AA,13,0.82,11.3,-47.6,,*6F
$GNGGA,044700.00,0419.78136,S,05539.83392,E,1,12,0.82,11.3,M,-47.6,M,,*44
$GNGSA,A,3,24,20,11,05,13,15,22,12,14,,,,1.63,0.82,1.40*16
$GNGSA,A,3,84,80,73,85,,,,,,,,,1.63,0.82,1.40*1A
$GPGSV,5,1,17,05,55,143,19,11,29,019,26,12,27,357,12,13,22,162,21*77
$GPGSV,5,2,17,14,06,125,12,15,27,198,25,18,18,227,19,20,49,077,26*7C
$GPGSV,5,3,17,22,19,109,26,24,63,257,29,25,05,332,,29,11,294,*71
$GPGSV,5,4,17,36,52,277,,40,86,350,,41,58,082,,49,32,274,*7D
$GPGSV,5,5,17,50,10,089,*4A
$GLGSV,3,1,09,69,12,129,,70,14,191,,73,52,008,12,74,11,344,*6B
$GLGSV,3,2,09,79,06,147,,80,51,117,25,83,05,014,,84,39,329,09*67
$GLGSV,3,3,09,85,35,261,25*55
$GNGLL,0419.78136,S,05539.83392,E,044700.00,A,A*63
$GNGRS,044700.00,1,2.0,5.7,5.5,-8.3,11.7,12.5,-4.6,-26.2,-5.2,,,*40
$GNGRS,044700.00,1,1.5,-8.3,2.4,-1.6,,,,,,,,*59
$GNGST,044700.00,3434013,,,,5.0,4.4,12*54
$GNZDA,044700.00,21,05,2025,00,00*7C
$GNGBS,044700.00,5.0,4.4,11.9,,,,*64
$GNTXT,01,01,01,More than 100 frame errors, UART RX was disabled*70
b0Lz7Deo}G1MYm? L&{4V^:R 
Y
bEFI4JXOP3u7ST'I~U#GbzOf'|$GNRMC,044701.00,A,0419.78135,S,05539.83389,E,0.081,,210525,,,A*7A
$GNVTG,,T,,M,0.081,N,0.150,K,A*30
$GNGNS,044701.00,0419.78135,S,05539.83389,E,AA,12,0.84,11.0,-47.6,,*63
$GNGGA,044701.00,0419.78135,S,05539.83389,E,1,12,0.84,11.0,M,-47.6,M,,*49
$GNGSA,A,3,24,20,11,05,13,15,22,12,14,,,,1.66,0.84,1.43*16
$GNGSA,A,3,84,80,85,,,,,,,,,,1.66,0.84,1.43*1E
$GPGSV,5,1,17,05,55,143,21,11,29,019,27,12,27,357,09,13,22,162,18*7D
$GPGSV,5,2,17,14,06,125,11,15,27,198,24,18,18,227,20,20,49,077,27*75
$GPGSV,5,3,17,22,19,109,25,24,63,257,28,25,05,332,,29,11,294,*73
$GPGSV,5,4,17,36,52,277,,40,86,350,,41,58,082,,49,32,274,*7D
$GPGSV,5,5,17,50,10,089,*4A
$GLGSV,3,1,09,69,12,129,,70,14,191,,73,52,008,08,74,11,344,*60
$GLGSV,3,2,09,79,06,147,,80,51,117,25,83,05,014,,84,39,329,09*67
$GLGSV,3,3,09,85,35,261,24*54
$GNGLL,0419.78135,S,05539.83389,E,044701.00,A,A*6B
$GNGRS,044701.00,1,0.3,3.4,4.6,-7.0,10.3,13.5,-5.6,-34.7,-7.9,,,*41
$GNGRS,044701.00,1,1.3,-7.1,-3.2,,,,,,,,,*7D
$GNGST,044701.00,5424,,,,4.9,4.4,12*68
$GNZDA,044701.00,21,05,2025,00,00*7D
$GNGBS,044701.00,4.9,4.4,11.8,,,,*6C
$GNTXT,01,01,01,More than 100 frame errors, UART RX was disabled*70
b0L#z7Le.}1Mm?L&{4V^:R 
Y
bEFI4JXOP3u0ST'I`U#ab#zON'$GNRMC,044702.00,A,0419.78132,S,05539.83383,E,0.065,,210525,,,A*7E
$GNVTG,,T,,M,0.065,N,0.120,K,A*3D
$GNGNS,044702.00,0419.78132,S,05539.83383,E,AA,11,0.84,10.7,-47.6,,*68
$GNGGA,044702.00,0419.78132,S,05539.83383,E,1,11,0.84,10.7,M,-47.6,M,,*42
$GNGSA,A,3,24,20,11,05,13,15,22,14,,,,,1.66,0.84,1.43*15
$GNGSA,A,3,84,80,85,,,,,,,,,,1.66,0.84,1.43*1E
$GPGSV,5,1,17,05,55,143,24,11,29,019,28,12,27,357,08,13,22,162,16*78
$GPGSV,5,2,17,14,06,125,13,15,27,198,23,18,18,227,21,20,49,077,27*71
$GPGSV,5,3,17,22,19,109,24,24,63,257,28,25,05,332,,29,11,294,*72
$GPGSV,5,4,17,36,52,277,,40,86,350,,41,58,082,,49,32,274,*7D
$GPGSV,5,5,17,50,10,089,*4A
$GLGSV,3,1,09,69,12,129,,70,14,191,,73,52,008,09,74,11,344,*61
$GLGSV,3,2,09,79,06,147,,80,51,117,25,83,05,014,,84,39,329,09*67
$GLGSV,3,3,09,85,35,261,23*53
$GNGLL,0419.78132,S,05539.83383,E,044702.00,A,A*65
$GNGRS,044702.00,1,-0.5,2.1,4.7,-6.9,9.7,15.2,-6.0,-8.3,,,,*6A
$GNGRS,044702.00,1,-6.7,-7.2,-3.3,,,,,,,,,*52
$GNGST,044702.00,53,,,,4.9,4.4,12*6A
$GNZDA,044702.00,21,05,2025,00,00*7E
$GNGBS,044702.00,4.9,4.4,11.8,,,,*6F
$GNTXT,01,01,01,More than 100 frame errors, UART RX was disabled*70
b0L'z7LOe!}p1M8mq?L&{4V^:R 
Y
bEFI4JXOP3uST'IU#NFb'zO6'L$GNRMC,044703.00,A,0419.78132,S,05539.83376,E,0.036,,210525,,,A*73
$GNVTG,,T,,M,0.036,N,0.067,K,A*39
$GNGNS,044703.00,0419.78132,S,05539.83376,E,AA,12,0.78,10.6,-47.6,,*62
$GNGGA,044703.00,0419.78132,S,05539.83376,E,1,12,0.78,10.6,M,-47.6,M,,*48
$GNGSA,A,3,24,20,11,05,13,15,22,12,14,,,,1.58,0.78,1.37*1B
$GNGSA,A,3,84,80,85,,,,,,,,,,1.58,0.78,1.37*13
$GPGSV,5,1,17,05,55,143,23,11,29,019,28,12,27,357,12,13,22,162,14*76
$GPGSV,5,2,17,14,06,125,11,15,27,198,24,18,18,227,21,20,49,077,27*74
$GPGSV,5,3,17,22,19,109,25,24,63,257,27,25,05,332,,29,11,294,*7C
$GPGSV,5,4,17,36,52,277,,40,86,350,,41,58,082,,49,32,274,*7D
$GPGSV,5,5,17,50,10,089,*4A
$GLGSV,3,1,09,69,12,129,,70,14,191,,73,52,008,09,74,11,344,*61
$GLGSV,3,2,09,79,06,147,,80,51,117,25,83,05,014,,84,39,329,09*67
$GLGSV,3,3,09,85,35,261,21*51
$GNGLL,0419.78132,S,05539.83376,E,044703.00,A,A*6E
$GNGRS,044703.00,1,2.8,3.1,3.3,-6.9,8.0,15.4,-4.0,-43.7,-11.7,,,*46
$GNGRS,044703.00,1,1.7,-7.5,-4.3,,,,,,,,,*79
$GNGST,044703.00,124862,,,,4.9,4.4,12*66
$GNZDA,044703.00,21,05,2025,00,00*7F
$GNGBS,044703.00,4.9,4.4,11.8,,,,*6E
$GNTXT,01,01,01,More than 100 frame errors, UART RX was disabled*70
b0L+z7e5}yW1Mm?L&{4V^:R 
Y
bEFI
4VJXOP3uGST'IU#rb+zO'$GNRMC,044704.00,A,0419.78140,S,05539.83365,E,0.257,,210525,,,A*76
$GNVTG,,T,,M,0.257,N,0.475,K,A*3B
$GNGNS,044704.00,0419.78140,S,05539.83365,E,AA,12,0.78,10.0,-47.6,,*64
$GNGGA,044704.00,0419.78140,S,05539.83365,E,1,12,0.78,10.0,M,-47.6,M,,*4E
$GNGSA,A,3,24,20,11,05,13,15,22,12,14,,,,1.58,0.78,1.37*1B
$GNGSA,A,3,84,80,85,,,,,,,,,,1.58,0.78,1.37*13
$GPGSV,5,1,17,05,55,143,23,11,29,019,26,12,27,357,16,13,22,162,14*7C
$GPGSV,5,2,17,14,06,125,12,15,27,198,25,18,18,227,22,20,49,077,27*75
$GPGSV,5,3,17,22,19,109,23,24,63,257,26,25,05,332,,29,11,294,*7B
$GPGSV,5,4,17,36,52,277,,40,86,350,,41,58,082,,49,32,274,*7D
$GPGSV,5,5,17,50,10,089,*4A
$GLGSV,3,1,09,69,12,129,,70,14,191,,73,52,008,10,74,11,344,*69
$GLGSV,3,2,09,79,06,147,,80,51,117,26,83,05,014,,84,39,329,09*64
$GLGSV,3,3,09,85,35,261,22*52
$GNGLL,0419.78140,S,05539.83365,E,044704.00,A,A*6E
$GNGRS,044704.00,1,7.7,4.0,1.8,-11.2,8.2,11.1,-2.8,-44.0,-9.0,,,*4A
$GNGRS,044704.00,1,1.7,-7.0,-2.7,,,,,,,,,*79
$GNGST,044704.00,157460,,,,4.9,4.4,12*6B
$GNZDA,044704.00,21,05,2025,00,00*78
$GNGBS,044704.00,4.9,4.4,11.8,,,,*69
$GNTXT,01,01,01,More than 100 frame errors, UART RX was disabled*70
b0Lx/z7e*l}1Mum?L&{4V^:R 
Y
bbEFI4@
JXOP3uST'IU#bx/zO'W$GNRMC,044705.00,A,0419.78141,S,05539.83361,E,0.123,,210525,,,A*72
$GNVTG,,T,,M,0.123,N,0.228,K,A*35
$GNGNS,044705.00,0419.78141,S,05539.83361,E,AA,13,0.78,9.9,-47.6,,*50
$GNGGA,044705.00,0419.78141,S,05539.83361,E,1,12,0.78,9.9,M,-47.6,M,,*7B
$GNGSA,A,3,24,20,11,05,13,15,22,12,14,,,,1.58,0.78,1.37*1B
$GNGSA,A,3,84,80,73,85,,,,,,,,,1.58,0.78,1.37*17
$GPGSV,5,1,17,05,55,143,22,11,29,019,27,12,27,357,16,13,22,162,12*7A
$GPGSV,5,2,17,14,06,125,13,15,27,198,26,18,18,227,22,20,49,077,27*77
$GPGSV,5,3,17,22,19,109,23,24,63,257,27,25,05,332,,29,11,294,*7A
$GPGSV,5,4,17,36,52,277,,40,86,350,,41,58,082,,49,32,274,*7D
$GPGSV,5,5,17,50,10,089,*4A
$GLGSV,3,1,09,69,12,129,,70,14,191,,73,52,008,13,74,11,344,*6A
$GLGSV,3,2,09,79,06,147,,80,51,117,25,83,05,014,,84,39,329,16*69
$GLGSV,3,3,09,85,35,261,21*51
$GNGLL,0419.78141,S,05539.83361,E,044705.00,A,A*6A
$GNGRS,044705.00,1,5.4,6.3,2.8,-10.9,8.8,7.8,-3.5,-2.1,-9.0,,,*49
$GNGRS,044705.00,1,-0.5,-7.5,26.2,0.2,,,,,,,,*61
$GNGST,044705.00,54,,,,4.9,4.4,12*6A
$GNZDA,044705.00,21,05,2025,00,00*79
$GNGBS,044705.00,4.9,4.4,11.7,,,,*67
$GNTXT,01,01,01,More than 100 frame errors, UART RX was disabled*70
b0L`3z7#Re0w}v1MmE?TL&{4V^:R 
Y
bEFI4JXOP3uRST'IU#&b`3zO'.$GNRMC,044706.00,A,0419.78137,S,05539.83357,E,0.054,,210525,,,A*74
$GNVTG,,T,,M,0.054,N,0.100,K,A*3D
$GNGNS,044706.00,0419.78137,S,05539.83357,E,AA,13,0.78,9.6,-47.6,,*58
$GNGGA,044706.00,0419.78137,S,05539.83357,E,1,12,0.78,9.6,M,-47.6,M,,*73
$GNGSA,A,3,24,20,11,05,13,15,22,12,14,,,,1.58,0.78,1.37*1B
$GNGSA,A,3,84,80,73,85,,,,,,,,,1.58,0.78,1.37*17
$GPGSV,5,1,17,05,55,143,23,11,29,019,27,12,27,357,12,13,22,162,15*78
$GPGSV,5,2,17,14,06,125,13,15,27,198,27,18,18,227,21,20,49,077,26*74
$GPGSV,5,3,17,22,19,109,23,24,63,257,28,25,05,332,,29,11,294,*75
$GPGSV,5,4,17,36,52,277,,40,86,350,,41,58,082,,49,32,274,*7D
$GPGSV,5,5,17,50,10,089,*4A
$GLGSV,3,1,09,69,12,129,,70,14,191,,73,52,008,17,74,11,344,*6E
$GLGSV,3,2,09,79,06,147,,80,51,117,25,83,05,014,,84,39,329,16*69
$GLGSV,3,3,09,85,35,261,20*50
$GNGLL,0419.78137,S,05539.83357,E,044706.00,A,A*6D
$GNGRS,044706.00,1,0.8,5.3,3.4,-9.9,6.3,3.9,-4.4,10.7,-6.5,,,*61
$GNGRS,044706.00,1,1.6,-6.9,25.0,-0.7,,,,,,,,*69
$GNGST,044706.00,3434097,,,,4.8,4.4,12*57
$GNZDA,044706.00,21,05,2025,00,00*7A
$GNGBS,044706.00,4.8,4.4,11.6,,,,*64
$GNTXT,01,01,01,More than 100 frame errors, UART RX was disabled*70
b0LH7z7
e}F1MmU?/L&{4V^:R 
Y
bEFI4JXOP3u}ST
'IU#;bH7zO'$GNRMC,044707.00,A,0419.78131,S,05539.83355,E,0.094,,210525,,,A*7D
$GNVTG,,T,,M,0.094,N,0.174,K,A*32
$GNGNS,044707.00,0419.78131,S,05539.83355,E,AA,13,0.78,9.3,-47.6,,*58
$GNGGA,044707.00,0419.78131,S,05539.83355,E,1,12,0.78,9.3,M,-47.6,M,,*73
$GNGSA,A,3,24,20,11,05,13,15,22,12,14,,,,1.58,0.78,1.37*1B
$GNGSA,A,3,84,80,73,85,,,,,,,,,1.58,0.78,1.37*17
$GPGSV,5,1,17,05,55,143,24,11,29,019,28,12,27,357,17,13,22,162,18*78
$GPGSV,5,2,17,14,06,125,13,15,27,198,28,18,18,227,20,20,49,077,27*7B
$GPGSV,5,3,17,22,19,109,22,24,63,257,28,25,05,332,,29,11,294,*74
$GPGSV,5,4,17,36,52,277,,40,86,350,,41,58,082,,49,32,274,*7D
$GPGSV,5,5,17,50,10,089,*4A
$GLGSV,3,1,09,69,12,129,18,70,14,191,,73,52,008,17,74,11,344,*67
$GLGSV,3,2,09,79,06,147,,80,51,117,23,83,05,014,,84,39,329,10*69
$GLGSV,3,3,09,85,35,261,20*50
$GNGLL,0419.78131,S,05539.83355,E,044707.00,A,A*68
$GNGRS,044707.00,1,0.5,5.3,5.2,-8.9,2.5,0.7,-4.3,10.4,-3.1,,,*66
$GNGRS,044707.00,1,1.4,-6.4,24.3,-1.1,,,,,,,,*62
$GNGST,044707.00,3434204,,,,4.8,4.4,12*5E
$GNZDA,044707.00,21,05,2025,00,00*7B
$GNGBS,044707.00,4.8,4.4,11.6,,,,*65
$GNTXT,01,01,01,More than 100 frame errors, UART RX was disabled*70
b0L0;z7EeU}3h1Mm}?L&{4V^!:R 
Y
bEFI4CJXOP3upST
'IU#8b0;zO'Q$GNRMC,044708.00,A,0419.78117,S,05539.83359,E,0.146,,210525,,,A*74
$GNVTG,,T,,M,0.146,N,0.270,K,A*3B
$GNGNS,044708.00,0419.78117,S,05539.83359,E,AA,13,0.82,8.9,-47.6,,*51
$GNGGA,044708.00,0419.78117,S,05539.83359,E,1,12,0.82,8.9,M,-47.6,M,,*7A
$GNGSA,A,3,24,20,11,05,13,15,22,12,14,,,,1.60,0.82,1.37*15
$GNGSA,A,3,84,80,73,85,,,,,,,,,1.60,0.82,1.37*19
$GPGSV,5,1,17,05,55,143,24,11,29,019,28,12,27,357,15,13,22,162,20*71
$GPGSV,5,2,17,14,06,125,11,15,27,198,28,18,18,227,20,20,49,077,27*79
$GPGSV,5,3,17,22,19,109,22,24,63,257,27,25,05,332,,29,11,294,*7B
$GPGSV,5,4,17,36,52,277,,40,86,350,,41,58,082,33,49,32,274,*7D
$GPGSV,5,5,17,50,10,089,*4A
$GLGSV,3,1,09,69,12,129,,70,14,191,,73,52,008,17,74,11,344,*6E
$GLGSV,3,2,09,79,06,147,,80,51,117,22,83,05,014,,84,39,329,10*68
$GLGSV,3,3,09,85,35,261,20*50
$GNGLL,0419.78117,S,05539.83359,E,044708.00,A,A*6F
$GNGRS,044708.00,1,-0.3,4.6,5.8,-11.0,1.4,-6.6,-3.9,8.5,3.1,,,*4D
$GNGRS,044708.00,1,-30.8,-6.6,23.7,-0.3,,,,,,,,*7C
$GNGST,044708.00,48,,,,4.7,4.4,11*67
$GNZDA,044708.00,21,05,2025,00,00*74
$GNGBS,044708.00,4.7,4.4,11.5,,,,*66
$GNTXT,01,01,01,More than 100 frame errors, UART RX was disabled*70
b0L?z7%e}1Mm?'L&{4V^!:R 
Y
bzEFI4JXOP3uST
'IU#`=b?zO'$GNRMC,044709.00,A,0419.78105,S,05539.83357,E,0.171,,210525,,,A*7C
$GNVTG,,T,,M,0.171,N,0.316,K,A*3E
$GNGNS,044709.00,0419.78105,S,05539.83357,E,AA,12,0.80,8.8,-47.6,,*5F
$GNGGA,044709.00,0419.78105,S,05539.83357,E,1,12,0.80,8.8,M,-47.6,M,,*75
$GNGSA,A,3,24,20,11,05,13,15,22,12,,,,,1.82,0.80,1.64*18
$GNGSA,A,3,84,80,73,85,,,,,,,,,1.82,0.80,1.64*11
$GPGSV,5,1,17,05,55,143,22,11,29,019,28,12,27,357,17,13,22,162,20*75
$GPGSV,5,2,17,14,06,125,,15,27,198,26,18,18,227,19,20,49,077,27*7D
$GPGSV,5,3,17,22,19,109,22,24,63,257,29,25,05,332,,29,11,294,*75
$GPGSV,5,4,17,36,52,277,,40,86,350,,41,58,082,33,49,32,274,*7D
$GPGSV,5,5,17,50,10,089,*4A
$GLGSV,3,1,09,69,12,129,,70,14,191,,73,52,008,15,74,11,344,*6C
$GLGSV,3,2,09,79,06,147,,80,51,117,21,83,05,014,,84,39,329,10*6B
$GLGSV,3,3,09,85,35,261,20*50
$GNGLL,0419.78105,S,05539.83357,E,044709.00,A,A*63
$GNGRS,044709.00,1,-2.2,4.1,4.4,-9.9,-0.8,0.2,-2.4,7.5,,,,*55
$GNGRS,044709.00,1,1.5,-5.7,24.7,-1.6,,,,,,,,*6E
$GNGST,044709.00,3586708,,,,4.7,4.5,11*5C
$GNZDA,044709.00,21,05,2025,00,00*75
$GNGBS,044709.00,4.7,4.5,11.5,,,,*66
$GNTXT,01,01,01,More than 100 frame errors, UART RX was disabled*70
b0LCz7.XeZ}1MMm?7L&{4V^ :R 
Y
b}EFI4hJXOP3uST
'ItU#bCzO'!$GNRMC,044710.00,A,0419.78099,S,05539.83363,E,0.314,,210525,,,A*76
$GNVTG,,T,,M,0.314,N,0.582,K,A*34
$GNGNS,044710.00,0419.78099,S,05539.83363,E,AA,12,0.80,8.9,-47.6,,*55
$GNGGA,044710.00,0419.78099,S,05539.83363,E,1,12,0.80,8.9,M,-47.6,M,,*7F
$GNGSA,A,3,24,20,11,05,13,15,22,12,,,,,1.82,0.80,1.64*18
$GNGSA,A,3,84,80,73,85,,,,,,,,,1.82,0.80,1.64*11
$GPGSV,5,1,17,05,55,143,21,11,29,019,27,12,27,357,16,13,22,162,20*78
$GPGSV,5,2,17,14,06,125,,15,27,198,26,18,18,227,20,20,49,077,28*78
$GPGSV,5,3,17,22,19,109,21,24,63,257,29,25,05,332,,29,11,294,*76
$GPGSV,5,4,17,36,52,277,,40,86,350,,41,58,082,32,49,32,274,*7C
$GPGSV,5,5,17,50,10,089,*4A
$GLGSV,3,1,09,69,12,129,,70,14,191,,73,52,008,16,74,11,344,*6F
$GLGSV,3,2,09,79,06,147,,80,51,117,21,83,05,014,,84,39,329,10*6B
$GLGSV,3,3,09,85,35,261,21*51
$GNGLL,0419.78099,S,05539.83363,E,044710.00,A,A*68
$GNGRS,044710.00,1,0.5,5.9,6.0,-9.8,-1.7,-3.8,-2.4,6.5,,,,*50
$GNGRS,044710.00,1,1.2,-4.9,24.1,-3.0,,,,,,,,*6C
$GNGST,044710.00,3586708,,,,4.6,4.5,11*55
$GNZDA,044710.00,21,05,2025,00,00*7D
$GNGBS,044710.00,4.6,4.5,11.5,,,,*6F
$GNTXT,01,01,01,More than 100 frame errors, UART RX was disabled*70
b0LFz7ye8y}1Mm??L&{4V^:R 
Y
bEFI4_JXOP3uST'IU#bFzOv'ez$GNRMC,044711.00,A,0419.78096,S,05539.83368,E,0.366,,210525,,,A*76
$GNVTG,,T,,M,0.366,N,0.677,K,A*38
$GNGNS,044711.00,0419.78096,S,05539.83368,E,AA,12,0.84,8.8,-47.6,,*55
$GNGGA,044711.00,0419.78096,S,05539.83368,E,1,12,0.84,8.8,M,-47.6,M,,*7F
$GNGSA,A,3,24,20,11,05,13,15,22,12,,,,,1.84,0.84,1.64*1A
$GNGSA,A,3,84,80,73,85,,,,,,,,,1.84,0.84,1.64*13
$GPGSV,5,1,17,05,55,143,19,11,29,019,27,12,27,357,17,13,22,162,20*72
$GPGSV,5,2,17,14,06,125,,15,27,198,27,18,18,227,19,20,49,077,27*7C
$GPGSV,5,3,17,22,19,109,20,24,63,257,28,25,05,332,,29,11,294,*76
$GPGSV,5,4,17,36,52,277,,40,86,350,,41,58,082,31,49,32,274,*7F
$GPGSV,5,5,17,50,10,089,*4A
$GLGSV,3,1,09,69,12,129,,70,14,191,,73,52,008,20,74,11,344,*6A
$GLGSV,3,2,09,79,06,147,,80,51,117,21,83,05,014,,84,39,329,12*69
$GLGSV,3,3,09,85,35,261,20*50
$GNGLL,0419.78096,S,05539.83368,E,044711.00,A,A*6D
$GNGRS,044711.00,1,0.6,1.9,7.7,-9.0,-3.9,-0.1,-5.4,3.1,,,,*58
$GNGRS,044711.00,1,-25.9,-4.9,24.0,-2.7,,,,,,,,*7A
$GNGST,044711.00,44,,,,4.6,4.5,11*63
$GNZDA,044711.00,21,05,2025,00,00*7C
$GNGBS,044711.00,4.6,4.5,11.5,,,,*6E
$GNTXT,01,01,01,More than 100 frame errors, UART RX was disabled*70
b0LJz7MkeQ}1Mum?L&{4V^ :R 
Y
bEFI4JXOP3uST'IU#=}ubJzO^'=$GNRMC,044712.00,A,0419.78084,S,05539.83369,E,0.120,,210525,,,A*77
$GNVTG,,T,,M,0.120,N,0.223,K,A*3D
$GNGNS,044712.00,0419.78084,S,05539.83369,E,AA,12,0.80,8.8,-47.6,,*50
$GNGGA,044712.00,0419.78084,S,05539.83369,E,1,12,0.80,8.8,M,-47.6,M,,*7A
$GNGSA,A,3,24,20,11,05,13,15,22,12,,,,,1.82,0.80,1.64*18
$GNGSA,A,3,84,80,73,85,,,,,,,,,1.82,0.80,1.64*11
$GPGSV,5,1,17,05,55,143,17,11,29,019,30,12,27,357,21,13,22,162,20*7F
$GPGSV,5,2,17,14,06,125,,15,27,198,27,18,18,227,18,20,49,077,27*7D
$GPGSV,5,3,17,22,19,109,20,24,63,257,28,25,05,332,,29,11,294,*76
$GPGSV,5,4,17,36,52,277,,40,86,350,,41,58,082,32,49,32,274,*7C
$GPGSV,5,5,17,50,10,089,*4A
$GLGSV,3,1,09,69,12,129,,70,14,191,,73,52,008,22,74,11,344,*68
$GLGSV,3,2,09,79,06,147,,80,51,117,21,83,05,014,,84,39,329,09*63
$GLGSV,3,3,09,85,35,261,19*5A
$GNGLL,0419.78084,S,05539.83369,E,044712.00,A,A*6C
$GNGRS,044712.00,1,-2.8,1.2,3.6,-9.5,-6.9,-4.9,-5.0,1.4,,,,*7B
$GNGRS,044712.00,1,1.5,-4.9,22.7,-4.5,,,,,,,,*6B
$GNGST,044712.00,3586708,,,,4.6,4.5,11*57
$GNZDA,044712.00,21,05,2025,00,00*7F
$GNGBS,044712.00,4.6,4.5,11.4,,,,*6C
$GNTXT,01,01,01,More than 100 frame errors, UART RX was disabled*70
b0LNz7|eJL}Q1M{m?L&{4V^!:R 
Y
bEFI4[JXOP3uSST'IU#bNzOF'J$GNRMC,044713.00,A,0419.78074,S,05539.83369,E,0.068,,210525,,,A*74
$GNVTG,,T,,M,0.068,N,0.126,K,A*36
$GNGNS,044713.00,0419.78074,S,05539.83369,E,AA,12,0.80,8.8,-47.6,,*5E
$GNGGA,044713.00,0419.78074,S,05539.83369,E,1,12,0.80,8.8,M,-47.6,M,,*74
$GNGSA,A,3,24,20,11,05,13,15,22,12,,,,,1.82,0.80,1.64*18
$GNGSA,A,3,84,80,73,85,,,,,,,,,1.82,0.80,1.64*11
$GPGSV,5,1,17,05,55,143,19,11,29,019,28,12,27,357,22,13,22,162,20*7B
$GPGSV,5,2,17,14,06,125,,15,27,197,27,18,18,227,17,20,49,077,28*72
$GPGSV,5,3,17,22,19,109,22,24,63,257,29,25,05,332,,29,11,294,*75
$GPGSV,5,4,17,36,52,277,,40,86,350,,41,58,082,33,49,32,274,*7D
$GPGSV,5,5,17,50,10,089,*4A
$GLGSV,3,1,09,69,12,129,,70,14,191,,73,52,008,21,74,11,344,*6B
$GLGSV,3,2,09,79,06,147,,80,51,117,21,83,05,014,,84,39,329,09*63
$GLGSV,3,3,09,85,35,261,19*5A
$GNGLL,0419.78074,S,05539.83369,E,044713.00,A,A*62
$GNGRS,044713.00,1,-1.2,1.2,1.2,-8.2,-6.9,-4.3,-4.8,0.7,,,,*72
$GNGRS,044713.00,1,1.3,-4.3,21.4,-6.0,,,,,,,,*61
$GNGST,044713.00,3586708,,,,4.6,4.6,11*55
$GNZDA,044713.00,21,05,2025,00,00*7E
$GNGBS,044713.00,4.6,4.6,11.4,,,,*6E
$GNTXT,01,01,01,More than 100 frame errors, UART RX was disabled*70
b0LRz7Se+}1Mm?L&{4V^!:R 
Y
bbEFI4JXOP3uST'IU#iObRzO.'$GNRMC,044714.00,A,0419.78070,S,05539.83366,E,0.265,,210525,,,A*77
$GNVTG,,T,,M,0.265,N,0.490,K,A*31
$GNGNS,044714.00,0419.78070,S,05539.83366,E,AA,12,0.77,8.6,-47.6,,*54
$GNGGA,044714.00,0419.78070,S,05539.83366,E,1,12,0.77,8.6,M,-47.6,M,,*7E
$GNGSA,A,3,24,20,11,05,13,15,22,12,,,,,1.63,0.77,1.43*1A
$GNGSA,A,3,84,80,73,85,,,,,,,,,1.63,0.77,1.43*13
$GPGSV,5,1,17,05,55,143,18,11,29,019,27,12,27,357,22,13,22,162,20*75
$GPGSV,5,2,17,14,06,125,,15,27,197,26,18,18,227,15,20,49,077,29*70
$GPGSV,5,3,17,22,19,109,23,24,63,257,28,25,05,332,,29,11,294,*75
$GPGSV,5,4,17,36,52,277,,40,86,350,,41,58,082,33,49,32,274,*7D
$GPGSV,5,5,17,50,10,089,*4A
$GLGSV,3,1,09,69,12,129,,70,14,191,,73,52,008,21,74,11,344,*6B
$GLGSV,3,2,09,79,06,147,,80,51,117,20,83,05,014,,84,39,329,11*6B
$GLGSV,3,3,09,85,35,261,18*5B
$GNGLL,0419.78070,S,05539.83366,E,044714.00,A,A*6E
$GNGRS,044714.00,1,2.0,-5.5,4.7,-6.9,-7.2,-2.5,-3.1,-1.2,,,,*5F
$GNGRS,044714.00,1,-0.3,-5.3,20.1,-4.1,,,,,,,,*4C
$GNGST,044714.00,54,,,,4.5,4.6,11*67
$GNZDA,044714.00,21,05,2025,00,00*79
$GNGBS,044714.00,4.5,4.6,11.4,,,,*6A
$GNTXT,01,01,01,More than 100 frame errors, UART RX was disabled*70
b0LVz7be}71Mml?^L&{4V^!:R 
Y

bEFI4*JXOP3uST'IU#`bVzO'$GNRMC,044715.00,A,0419.78069,S,05539.83367,E,0.069,,210525,,,A*71
$GNVTG,,T,,M,0.069,N,0.128,K,A*39
$GNGNS,044715.00,0419.78069,S,05539.83367,E,AA,12,0.80,8.8,-47.6,,*5A
$GNGGA,044715.00,0419.78069,S,05539.83367,E,1,12,0.80,8.8,M,-47.6,M,,*70
$GNGSA,A,3,24,20,11,05,13,15,22,12,,,,,1.82,0.80,1.64*18
$GNGSA,A,3,84,80,73,85,,,,,,,,,1.82,0.80,1.64*11
$GPGSV,5,1,17,05,55,143,17,11,29,019,27,12,27,357,23,13,22,162,21*7A
$GPGSV,5,2,17,14,06,125,,15,27,197,26,18,18,227,12,20,49,077,29*77
$GPGSV,5,3,17,22,19,109,23,24,63,257,28,25,05,332,,29,11,294,*75
$GPGSV,5,4,17,36,52,277,,40,86,350,,41,58,082,33,49,32,274,*7D
$GPGSV,5,5,17,50,10,089,*4A
$GLGSV,3,1,09,69,12,129,,70,14,191,,73,52,008,21,74,11,344,*6B
$GLGSV,3,2,09,79,06,147,,80,51,117,17,83,05,014,,84,39,329,11*6F
$GLGSV,3,3,09,85,35,261,19*5A
$GNGLL,0419.78069,S,05539.83367,E,044715.00,A,A*66
$GNGRS,044715.00,1,-1.6,-1.0,1.0,-6.2,-8.2,-2.0,-1.5,-3.0,,,,*72
$GNGRS,044715.00,1,1.7,-5.3,20.9,-3.8,,,,,,,,*63
$GNGST,044715.00,14463,,,,4.5,4.6,11*53
$GNZDA,044715.00,21,05,2025,00,00*78
$GNGBS,044715.00,4.5,4.6,11.4,,,,*6B
$GNTXT,01,01,01,More than 100 frame errors, UART RX was disabled*70
b0LpZz7eHs}
1Mm?L&{4V^!:R 
Y
bgEFI4eJXOP3uST'IU#SbpZzO'$GNRMC,044716.00,A,0419.78068,S,05539.83370,E,0.233,,210525,,,A*78
$GNVTG,,T,,M,0.233,N,0.432,K,A*3A
$GNGNS,044716.00,0419.78068,S,05539.83370,E,AA,12,0.80,8.7,-47.6,,*51
$GNGGA,044716.00,0419.78068,S,05539.83370,E,1,12,0.80,8.7,M,-47.6,M,,*7B
$GNGSA,A,3,24,20,11,05,13,15,22,12,,,,,1.82,0.80,1.64*18
$GNGSA,A,3,84,80,73,85,,,,,,,,,1.82,0.80,1.64*11
$GPGSV,5,1,17,05,55,143,16,11,29,019,27,12,27,357,25,13,22,162,20*7C
$GPGSV,5,2,17,14,06,125,,15,27,197,26,18,18,227,10,20,49,077,30*7D
$GPGSV,5,3,17,22,19,109,23,24,63,257,28,25,05,332,,29,11,294,*75
$GPGSV,5,4,17,36,52,277,,40,86,350,,41,58,082,33,49,32,274,*7D
$GPGSV,5,5,17,50,10,089,*4A
$GLGSV,3,1,09,69,12,129,,70,14,191,,73,52,008,20,74,11,344,*6A
$GLGSV,3,2,09,79,06,147,,80,51,117,15,83,05,014,,84,39,329,13*6F
$GLGSV,3,3,09,85,35,261,19*5A
$GNGLL,0419.78068,S,05539.83370,E,044716.00,A,A*62
$GNGRS,044716.00,1,-2.8,-3.6,4.6,-7.8,-6.5,-2.9,-2.4,-4.4,,,,*71
$GNGRS,044716.00,1,1.6,-2.5,21.5,-3.5,,,,,,,,*60
$GNGST,044716.00,21694,,,,4.5,4.6,11*5C
$GNZDA,044716.00,21,05,2025,00,00*7B
$GNGBS,044716.00,4.5,4.6,11.4,,,,*68
$GNTXT,01,01,01,More than 100 frame errors, UART RX was disabled*70
b0LX^z7e}1Mmy?L&{4V^ :R 
Y

boEFI4JXOP3uST'IU#gbX^zO't$GNRMC,044717.00,A,0419.78058,S,05539.83372,E,0.226,,210525,,,A*7C
$GNVTG,,T,,M,0.226,N,0.418,K,A*36
$GNGNS,044717.00,0419.78058,S,05539.83372,E,AA,12,0.77,8.5,-47.6,,*5B
$GNGGA,044717.00,0419.78058,S,05539.83372,E,1,12,0.77,8.5,M,-47.6,M,,*71
$GNGSA,A,3,24,20,11,05,13,15,22,12,,,,,1.63,0.77,1.43*1A
$GNGSA,A,3,84,80,73,85,,,,,,,,,1.63,0.77,1.43*13
$GPGSV,5,1,17,05,55,143,15,11,29,019,26,12,27,357,24,13,22,162,21*7E
$GPGSV,5,2,17,14,06,125,,15,27,197,27,18,18,227,,20,49,077,30*7D
$GPGSV,5,3,17,22,19,109,23,24,63,257,28,25,05,332,,29,11,294,*75
$GPGSV,5,4,17,36,52,277,,40,86,350,,41,58,082,32,49,32,274,*7C
$GPGSV,5,5,17,50,10,089,*4A
$GLGSV,3,1,09,69,12,129,,70,14,191,,73,52,008,20,74,11,344,*6A
$GLGSV,3,2,09,79,06,147,,80,51,117,13,83,05,014,,84,39,329,12*68
$GLGSV,3,3,09,85,35,261,20*50
$GNGLL,0419.78058,S,05539.83372,E,044717.00,A,A*62
$GNGRS,044717.00,1,-1.0,-0.2,10.4,-8.0,-5.1,-0.7,-1.3,-3.8,,,,*48
$GNGRS,044717.00,1,4.6,-5.5,20.7,-1.5,,,,,,,,*62
$GNGST,044717.00,55,,,,4.5,4.6,11*65
$GNZDA,044717.00,21,05,2025,00,00*7A
$GNGBS,044717.00,4.5,4.6,11.4,,,,*69
$GNTXT,01,01,01,More than 100 frame errors, UART RX was disabled*70
b0L@bz7-e}1Mm?:L&{4V^!:R 
Y
bEFI4ZJXOP3uST'IU#Xb@bzO'LO$GNRMC,044718.00,A,0419.78046,S,05539.83369,E,0.213,,210525,,,A*70
$GNVTG,,T,,M,0.213,N,0.395,K,A*32
$GNGNS,044718.00,0419.78046,S,05539.83369,E,AA,12,0.77,8.1,-47.6,,*55
$GNGGA,044718.00,0419.78046,S,05539.83369,E,1,12,0.77,8.1,M,-47.6,M,,*7F
$GNGSA,A,3,24,20,11,05,13,15,22,12,,,,,1.63,0.77,1.43*1A
$GNGSA,A,3,84,80,73,85,,,,,,,,,1.63,0.77,1.43*13
$GPGSV,5,1,17,05,55,143,12,11,29,019,26,12,27,357,20,13,22,162,19*76
$GPGSV,5,2,17,14,06,125,,15,27,197,26,18,18,227,,20,49,077,29*74
$GPGSV,5,3,17,22,19,109,25,24,63,257,28,25,05,332,,29,11,294,*73
$GPGSV,5,4,17,36,52,277,,40,86,350,,41,58,082,33,49,32,274,*7D
$GPGSV,5,5,17,50,10,089,*4A
$GLGSV,3,1,09,69,12,129,,70,14,191,,73,52,008,21,74,11,344,*6B
$GLGSV,3,2,09,79,06,147,,80,51,117,13,83,05,014,,84,39,329,09*62
$GLGSV,3,3,09,85,35,261,23*53
$GNGLL,0419.78046,S,05539.83369,E,044718.00,A,A*68
$GNGRS,044718.00,1,0.6,-2.6,10.4,-4.7,-5.7,1.3,-0.7,-3.1,,,,*42
$GNGRS,044718.00,1,1.5,-5.5,21.4,-1.7,,,,,,,,*6B
$GNGST,044718.00,34617,,,,4.5,4.6,11*5D
$GNZDA,044718.00,21,05,2025,00,00*75
$GNGBS,044718.00,4.5,4.6,11.4,,,,*66
$GNTXT,01,01,01,More than 100 frame errors, UART RX was disabled*70
b0L(fz7eY}1Mm?{L&{4V^ :R 
Y
bEFI4JXOP3u0ST'IyU#b(fzO'$$GNRMC,044719.00,A,0419.78034,S,05539.83359,E,0.355,,210525,,,A*74
$GNVTG,,T,,M,0.355,N,0.658,K,A*35
$GNGNS,044719.00,0419.78034,S,05539.83359,E,AA,12,0.77,8.1,-47.6,,*52
$GNGGA,044719.00,0419.78034,S,05539.83359,E,1,12,0.77,8.1,M,-47.6,M,,*78
$GNGSA,A,3,24,20,11,05,13,15,22,12,,,,,1.63,0.77,1.43*1A
$GNGSA,A,3,84,80,73,85,,,,,,,,,1.63,0.77,1.43*13
$GPGSV,5,1,17,05,55,143,16,11,29,019,26,12,27,357,18,13,22,162,19*79
$GPGSV,5,2,17,14,06,125,,15,27,197,27,18,18,227,,20,49,077,30*7D
$GPGSV,5,3,17,22,19,109,25,24,63,257,27,25,05,332,,29,11,294,*7C
$GPGSV,5,4,17,36,52,277,,40,86,350,,41,58,082,32,49,32,274,*7C
$GPGSV,5,5,17,50,10,089,*4A
$GLGSV,3,1,09,69,12,129,,70,14,191,,73,52,008,23,74,11,344,*69
$GLGSV,3,2,09,79,06,147,,80,51,117,16,83,05,014,,84,39,329,12*6D
$GLGSV,3,3,09,85,35,261,24*54
$GNGLL,0419.78034,S,05539.83359,E,044719.00,A,A*6F
$GNGRS,044719.00,1,1.2,-2.9,6.5,-8.0,-6.8,-1.0,-0.5,-3.0,,,,*55
$GNGRS,044719.00,1,1.2,-4.6,21.9,-0.5,,,,,,,,*61
$GNGST,044719.00,51926,,,,4.5,4.6,11*52
$GNZDA,044719.00,21,05,2025,00,00*74
$GNGBS,044719.00,4.5,4.6,11.4,,,,*67
$GNTXT,01,01,01,More than 100 frame errors, UART RX was disabled*70
b0Ljz7e}1M:m?L&{4V^:R 
Y
bEFI40
JXOP3uST'IU#bbjzO'$GNRMC,044720.00,A,0419.78023,S,05539.83351,E,0.131,,210525,,,A*70
$GNVTG,,T,,M,0.131,N,0.243,K,A*3B
$GNGNS,044720.00,0419.78023,S,05539.83351,E,AA,12,0.77,8.2,-47.6,,*55
$GNGGA,044720.00,0419.78023,S,05539.83351,E,1,12,0.77,8.2,M,-47.6,M,,*7F
$GNGSA,A,3,24,20,11,05,13,15,22,12,,,,,1.63,0.77,1.43*1A
$GNGSA,A,3,84,80,73,85,,,,,,,,,1.63,0.77,1.43*13
$GPGSV,5,1,17,05,55,143,21,11,29,019,28,12,27,357,12,13,22,162,19*79
$GPGSV,5,2,17,14,06,125,04,15,27,197,28,18,18,227,,20,49,077,31*77
$GPGSV,5,3,17,22,19,109,25,24,63,257,27,25,05,332,,29,11,294,*7C
$GPGSV,5,4,17,36,52,277,,40,86,350,,41,58,082,27,49,32,274,*78
$GPGSV,5,5,17,50,10,089,*4A
$GLGSV,3,1,09,69,12,129,,70,14,191,,73,52,008,22,74,11,344,*68
$GLGSV,3,2,09,79,06,147,,80,51,117,15,83,05,014,,84,39,329,08*65
$GLGSV,3,3,09,85,35,261,25*55
$GNGLL,0419.78023,S,05539.83351,E,044720.00,A,A*6B
$GNGRS,044720.00,1,1.7,-2.0,4.3,-10.6,-8.3,-3.2,-0.9,2.8,,,,*45
$GNGRS,044720.00,1,-3.5,-5.8,26.1,-1.6,,,,,,,,*41
$GNGST,044720.00,58,,,,4.5,4.6,11*6C
$GNZDA,044720.00,21,05,2025,00,00*7E
$GNGBS,044720.00,4.5,4.6,11.3,,,,*6A
$GNTXT,01,01,01,More than 100 frame errors, UART RX was disabled*70
b0Lmz7he:}R 1Mm?L&{4V^:R 
Y
bhEFI4JXOP3uST'IU#ubmzO'x$GNRMC,044721.00,A,0419.78011,S,05539.83347,E,0.126,,210525,,,A*71
$GNVTG,,T,,M,0.126,N,0.234,K,A*3D
$GNGNS,044721.00,0419.78011,S,05539.83347,E,AA,11,0.80,8.3,-47.6,,*58
$GNGGA,044721.00,0419.78011,S,05539.83347,E,1,11,0.80,8.3,M,-47.6,M,,*72
$GNGSA,A,3,24,20,11,05,13,15,22,12,,,,,1.77,0.80,1.58*1D
$GNGSA,A,3,84,73,85,,,,,,,,,,1.77,0.80,1.58*1C
$GPGSV,5,1,17,05,55,143,22,11,29,019,29,12,27,357,11,13,22,162,18*79
$GPGSV,5,2,17,14,06,125,06,15,27,197,28,18,18,227,,20,49,077,32*76
$GPGSV,5,3,17,22,19,109,25,24,63,257,27,25,05,332,,29,11,294,*7C
$GPGSV,5,4,17,36,52,277,,40,86,350,,41,58,082,28,49,32,274,*77
$GPGSV,5,5,17,50,10,089,*4A
$GLGSV,3,1,09,69,12,128,,70,14,191,,73,52,008,20,74,11,344,*6B
$GLGSV,3,2,09,79,06,147,,80,51,117,26,83,05,014,,84,39,329,12*6E
$GLGSV,3,3,09,85,35,261,25*55
$GNGLL,0419.78011,S,05539.83347,E,044721.00,A,A*6C
$GNGRS,044721.00,1,1.6,-0.7,2.2,-11.8,-7.5,-5.2,-0.2,10.8,,,,*7F
$GNGRS,044721.00,1,1.6,23.1,-3.8,,,,,,,,,*6B
$GNGST,044721.00,54235,,,,4.4,4.6,11*54
$GNZDA,044721.00,21,05,2025,00,00*7F
$GNGBS,044721.00,4.4,4.6,11.2,,,,*6B
$GNTXT,01,01,01,More than 100 frame errors, UART RX was disabled*70
b0Lqz7ea}R 1MNm?"L&{4V^:R 
Y
bEFI4JXOP3u&ST'IU#^bqzOn'$GNRMC,044722.00,A,0419.77998,S,05539.83351,E,0.297,,210525,,,A*7B
$GNVTG,,T,,M,0.297,N,0.550,K,A*31
$GNGNS,044722.00,0419.77998,S,05539.83351,E,AA,11,0.80,8.6,-47.6,,*5E
$GNGGA,044722.00,0419.77998,S,05539.83351,E,1,11,0.80,8.6,M,-47.6,M,,*74
$GNGSA,A,3,24,20,11,05,13,15,22,12,,,,,1.77,0.80,1.58*1D
$GNGSA,A,3,84,73,85,,,,,,,,,,1.77,0.80,1.58*1C
$GPGSV,5,1,17,05,55,143,24,11,29,019,28,12,27,357,14,13,22,162,15*76
$GPGSV,5,2,17,14,06,125,08,15,27,197,30,18,18,227,,20,49,077,32*71
$GPGSV,5,3,17,22,19,109,26,24,63,257,27,25,05,332,,29,11,294,*7F
$GPGSV,5,4,17,36,52,277,,40,86,350,,41,58,082,29,49,32,274,*76
$GPGSV,5,5,17,50,10,089,*4A
$GLGSV,3,1,09,69,12,128,,70,14,190,,73,52,008,19,74,11,344,*60
$GLGSV,3,2,09,79,06,147,,80,51,117,23,83,05,014,,84,39,329,09*61
$GLGSV,3,3,09,85,35,261,25*55
$GNGLL,0419.77998,S,05539.83351,E,044722.00,A,A*6F
$GNGRS,044722.00,1,0.3,-1.8,1.4,-13.7,-4.2,-10.1,-3.0,10.5,,,,*41
$GNGRS,044722.00,1,1.5,21.8,-4.2,,,,,,,,,*6D
$GNGST,044722.00,79544,,,,4.4,4.5,11*5A
$GNZDA,044722.00,21,05,2025,00,00*7C
$GNGBS,044722.00,4.4,4.5,11.2,,,,*6B
$GNTXT,01,01,01,More than 100 frame errors, UART RX was disabled*70
b0Luz7e}N> 1MZm?qL&{4V^:R 
Y
bEFI4;JXOP3uST'IU#0buzOV'H$GNRMC,044723.00,A,0419.77982,S,05539.83348,E,0.074,,210525,,,A*76
$GNVTG,,T,,M,0.074,N,0.137,K,A*3B
$GNGNS,044723.00,0419.77982,S,05539.83348,E,AA,12,0.78,8.6,-47.6,,*58
$GNGGA,044723.00,0419.77982,S,05539.83348,E,1,12,0.78,8.6,M,-47.6,M,,*72
$GNGSA,A,3,24,20,11,05,13,15,22,12,,,,,1.76,0.78,1.57*14
$GNGSA,A,3,84,80,73,85,,,,,,,,,1.76,0.78,1.57*1D
$GPGSV,5,1,17,05,55,143,25,11,29,019,27,12,27,357,17,13,22,162,13*7D
$GPGSV,5,2,17,14,06,125,08,15,27,197,30,18,18,227,,20,49,077,32*71
$GPGSV,5,3,17,22,19,109,26,24,63,257,28,25,05,332,,29,11,294,*70
$GPGSV,5,4,17,36,52,277,,40,86,350,,41,58,082,28,49,32,274,*77
$GPGSV,5,5,17,50,10,089,*4A
$GLGSV,3,1,09,69,12,128,,70,14,190,,73,52,008,21,74,11,344,*6B
$GLGSV,3,2,09,79,06,147,,80,51,117,22,83,05,014,,84,39,329,14*6C
$GLGSV,3,3,09,85,35,261,26*56
$GNGLL,0419.77982,S,05539.83348,E,044723.00,A,A*6D
$GNGRS,044723.00,1,1.1,-1.7,2.2,-14.0,-0.3,-7.1,-3.6,7.2,,,,*4D
$GNGRS,044723.00,1,4.9,-8.6,18.5,-7.2,,,,,,,,*6C
$GNGST,044723.00,49,,,,4.4,4.5,11*6D
$GNZDA,044723.00,21,05,2025,00,00*7D
$GNGBS,044723.00,4.4,4.5,11.1,,,,*69
$GNTXT,01,01,01,More than 100 frame errors, UART RX was disabled*70
b0Lyz7e#} 1M~m?L&{4V^:R 
Y
bEFI4JXOP3uST'IU#k~kbyzO>'[$GNRMC,044724.00,A,0419.77968,S,05539.83340,E,0.149,,210525,,,A*72
$GNVTG,,T,,M,0.149,N,0.276,K,A*32
$GNGNS,044724.00,0419.77968,S,05539.83340,E,AA,12,0.78,8.5,-47.6,,*50
$GNGGA,044724.00,0419.77968,S,05539.83340,E,1,12,0.78,8.5,M,-47.6,M,,*7A
$GNGSA,A,3,24,20,11,05,13,15,22,12,,,,,1.76,0.78,1.57*14
$GNGSA,A,3,84,80,73,85,,,,,,,,,1.76,0.78,1.57*1D
$GPGSV,5,1,17,05,55,143,25,11,29,019,27,12,27,357,17,13,22,162,19*77
$GPGSV,5,2,17,14,06,125,,15,27,197,29,18,18,227,,20,49,077,32*71
$GPGSV,5,3,17,22,19,109,23,24,63,257,28,25,05,332,,29,11,294,*75
$GPGSV,5,4,17,36,52,277,,40,86,350,,41,58,082,27,49,32,274,*78
$GPGSV,5,5,17,50,10,089,*4A
$GLGSV,3,1,09,69,12,128,,70,14,190,,73,52,008,24,74,11,344,*6E
$GLGSV,3,2,09,79,06,147,,80,51,117,20,83,05,014,,84,39,329,11*6B
$GLGSV,3,3,09,85,35,261,26*56
$GNGLL,0419.77968,S,05539.83340,E,044724.00,A,A*66
$GNGRS,044724.00,1,-2.4,-1.3,1.5,-15.2,0.1,-0.6,-5.4,8.0,,,,*44
$GNGRS,044724.00,1,1.5,-10.8,18.0,-6.6,,,,,,,,*55
$GNGST,044724.00,95996,,,,4.3,4.4,11*5B
$GNZDA,044724.00,21,05,2025,00,00*7A
$GNGBS,044724.00,4.3,4.4,11.0,,,,*69
$GNTXT,01,01,01,More than 100 frame errors, UART RX was disabled*70
b0L}z7eb}N1M&m?L&{4V^:R 
Y
bEFI49JXOP3uST
'IvU#9b}zO&'3$GNRMC,044725.00,A,0419.77950,S,05539.83338,E,0.081,,210525,,,A*72
$GNVTG,,T,,M,0.081,N,0.151,K,A*31
$GNGNS,044725.00,0419.77950,S,05539.83338,E,AA,12,0.78,8.1,-47.6,,*51
$GNGGA,044725.00,0419.77950,S,05539.83338,E,1,12,0.78,8.1,M,-47.6,M,,*7B
$GNGSA,A,3,24,20,11,05,13,15,22,12,,,,,1.76,0.78,1.57*14
$GNGSA,A,3,84,80,73,85,,,,,,,,,1.76,0.78,1.57*1D
$GPGSV,5,1,17,05,55,143,25,11,29,019,28,12,27,357,16,13,22,162,14*74
$GPGSV,5,2,17,14,06,125,,15,27,197,29,18,18,227,,20,49,077,31*72
$GPGSV,5,3,17,22,19,109,21,24,63,257,29,25,05,332,,29,11,294,*76
$GPGSV,5,4,17,36,52,277,,40,86,350,,41,58,082,26,49,32,274,*79
$GPGSV,5,5,17,50,10,089,*4A
$GLGSV,3,1,09,69,12,128,,70,14,190,,73,52,009,26,74,11,344,*6D
$GLGSV,3,2,09,79,06,147,,80,51,117,19,83,05,014,,84,39,329,10*60
$GLGSV,3,3,09,85,35,261,25*55
$GNGLL,0419.77950,S,05539.83338,E,044725.00,A,A*63
$GNGRS,044725.00,1,-8.7,-2.2,1.4,-16.6,-0.2,-1.8,-5.7,8.7,,,,*6D
$GNGRS,044725.00,1,1.2,-8.9,15.9,-7.7,,,,,,,,*6F
$GNGST,044725.00,62311,,,,4.3,4.4,11*57
$GNZDA,044725.00,21,05,2025,00,00*7B
$GNGBS,044725.00,4.3,4.4,11.0,,,,*68
$GNTXT,01,01,01,More than 100 frame errors, UART RX was disabled*70
b0Lz7'e}1Mbm?L&{4V^:R 
Y
bEFI4{JXOP3uST'IU#RbzO'$GNRMC,044726.00,A,0419.77940,S,05539.83342,E,0.145,,210525,,,A*74
$GNVTG,,T,,M,0.145,N,0.268,K,A*31
$GNGNS,044726.00,0419.77940,S,05539.83342,E,AA,12,0.78,8.1,-47.6,,*5E
$GNGGA,044726.00,0419.77940,S,05539.83342,E,1,12,0.78,8.1,M,-47.6,M,,*74
$GNGSA,A,3,24,20,11,05,13,15,22,12,,,,,1.76,0.78,1.57*14
$GNGSA,A,3,84,80,73,85,,,,,,,,,1.76,0.78,1.57*1D
$GPGSV,5,1,17,05,55,143,22,11,29,019,28,12,27,357,14,13,22,162,14*71
