$GNTXT,01,01,01,More than 100 frame errors, UART RX was disabled*70
b0X ,v5qcs{12QkK?&K#{4V^:R 
YaEFI2PJ
WOP4qST
(GU#Ob ,vO#$GNRMC,044242.00,A,0419.78899,S,05539.82949,E,0.568,,210525,,,D*77
$GNVTG,,T,,M,0.568,N,1.052,K,D*35
$GNGNS,044242.00,0419.78899,S,05539.82949,E,DA,12,0.78,26.2,-47.6,,0000*69
$GNGGA,044242.00,0419.78899,S,05539.82949,E,2,12,0.78,26.2,M,-47.6,M,,0000*45
$GNGSA,A,3,24,20,11,05,13,15,22,12,,,,,1.78,0.78,1.60*1E
$GNGSA,A,3,84,80,73,85,,,,,,,,,1.78,0.78,1.60*17
$GPGSV,5,1,18,05,53,146,30,06,00,029,,11,31,019,20,12,25,355,14*70
$GPGSV,5,2,18,13,23,164,08,14,07,123,,15,27,200,17,18,16,225,*73
$GPGSV,5,3,18,20,50,081,26,22,19,107,12,24,63,263,21,25,03,331,*73
$GPGSV,5,4,18,29,11,291,,36,52,277,,40,86,350,31,41,58,082,*7C
$GPGSV,5,5,18,49,32,274,,50,10,089,*78
$GLGSV,3,1,09,69,11,130,,70,13,193,,73,50,008,25,74,10,343,*65
$GLGSV,3,2,09,79,07,146,,80,52,113,25,83,07,013,,84,40,327,10*6D
$GLGSV,3,3,09,85,35,259,25*5E
$GNGLL,0419.78899,S,05539.82949,E,044242.00,A,D*64
$GNGRS,044242.00,1,15.7,-8.7,11.5,-1.4,16.7,3.0,23.8,8.8,,,,*52
$GNGRS,044242.00,1,25.4,-0.9,-6.9,-3.6,,,,,,,,*49
$GNGST,044242.00,61,,,,5.8,4.7,17*6C
$GNZDA,044242.00,21,05,2025,00,00*7F
$GNGBS,044242.00,5.8,4.7,16.9,,,,*6B
$GNTXT,01,01,01,More than 100 frame errors, UART RX was disabled*70
b0X0v5c
{)2QkD?K#{4V^:R 
YaEFI2J
WOP4qBST(GU#mb0vO#rA$GNRMC,044243.00,A,0419.78925,S,05539.82946,E,1.015,,210525,,,D*71
$GNVTG,,T,,M,1.015,N,1.880,K,D*3C
$GNGNS,044243.00,0419.78925,S,05539.82946,E,DA,12,0.78,25.1,-47.6,,0000*61
$GNGGA,044243.00,0419.78925,S,05539.82946,E,2,12,0.78,25.1,M,-47.6,M,,0000*4D
$GNGSA,A,3,24,20,11,05,13,15,22,12,,,,,1.78,0.78,1.60*1E
$GNGSA,A,3,84,80,73,85,,,,,,,,,1.78,0.78,1.60*17
$GPGSV,5,1,18,05,53,146,30,06,00,029,,11,31,019,20,12,25,355,12*76
$GPGSV,5,2,18,13,23,164,09,14,07,123,,15,27,200,15,18,16,225,*70
$GPGSV,5,3,18,20,50,081,25,22,19,107,08,24,63,263,19,25,03,331,*70
$GPGSV,5,4,18,29,11,291,,36,52,277,,40,86,350,31,41,58,082,*7C
$GPGSV,5,5,18,49,32,274,,50,10,089,*78
$GLGSV,3,1,09,69,11,130,,70,13,193,,73,50,008,23,74,10,343,*63
$GLGSV,3,2,09,79,07,146,,80,52,113,25,83,07,013,,84,40,327,12*6F
$GLGSV,3,3,09,85,35,259,24*5F
$GNGLL,0419.78925,S,05539.82946,E,044243.00,A,D*6C
$GNGRS,044243.00,1,14.2,-6.2,9.9,-3.5,9.0,3.0,10.9,9.3,,,,*58
$GNGRS,044243.00,1,1.7,3.2,-7.4,-4.0,,,,,,,,*55
$GNGST,044243.00,3438754,,,,5.8,4.8,17*5F
$GNZDA,044243.00,21,05,2025,00,00*7E
$GNGBS,044243.00,5.8,4.8,17.3,,,,*6E
$GNTXT,01,01,01,More than 100 frame errors, UART RX was disabled*70
b0X3v5cT
Q
{{2Qk-?K#{4V^:R 
YaEFI2J
WOP4qST(GU#Bb3vO~#I$GNRMC,044244.00,A,0419.78941,S,05539.82944,E,0.642,,210525,,,D*73
$GNVTG,,T,,M,0.642,N,1.190,K,D*31
$GNGNS,044244.00,0419.78941,S,05539.82944,E,DA,12,0.78,24.5,-47.6,,0000*63
$GNGGA,044244.00,0419.78941,S,05539.82944,E,2,12,0.78,24.5,M,-47.6,M,,0000*4F
$GNGSA,A,3,24,20,11,05,13,15,22,12,,,,,1.78,0.78,1.60*1E
$GNGSA,A,3,84,80,73,85,,,,,,,,,1.78,0.78,1.60*17
$GPGSV,5,1,18,05,53,146,30,06,00,029,,11,31,019,21,12,25,355,12*77
$GPGSV,5,2,18,13,23,164,10,14,07,123,,15,27,200,16,18,16,225,*7B
$GPGSV,5,3,18,20,50,081,26,22,19,107,13,24,63,263,20,25,03,331,*73
$GPGSV,5,4,18,29,11,291,,36,52,277,,40,86,350,30,41,58,082,*7D
$GPGSV,5,5,18,49,32,274,,50,10,089,*78
$GLGSV,3,1,09,69,11,130,,70,13,193,,73,50,008,22,74,10,343,*62
$GLGSV,3,2,09,79,07,146,,80,52,113,30,83,07,013,,84,40,327,11*68
$GLGSV,3,3,09,85,35,259,23*58
$GNGLL,0419.78941,S,05539.82944,E,044244.00,A,D*6B
$GNGRS,044244.00,1,10.0,-5.4,9.1,-2.8,8.5,3.8,10.7,8.5,,,,*5D
$GNGRS,044244.00,1,1.9,7.1,-5.9,-5.2,,,,,,,,*57
$GNGST,044244.00,4858602,,,,5.9,5.0,18*50
$GNZDA,044244.00,21,05,2025,00,00*79
$GNGBS,044244.00,5.9,5.0,17.8,,,,*6A
$GNTXT,01,01,01,More than 100 frame errors, UART RX was disabled*70
b0X7v6 cZ
{g2QGk?;K#{4 V^:R 
YaEFI2tJ
WOP4qST(GEU#'b7vOf#!$GNRMC,044245.00,A,0419.78950,S,05539.82955,E,0.396,,210525,,,D*7E
$GNVTG,,T,,M,0.396,N,0.734,K,D*34
$GNGNS,044245.00,0419.78950,S,05539.82955,E,DA,12,0.78,23.8,-47.6,,0000*68
$GNGGA,044245.00,0419.78950,S,05539.82955,E,2,12,0.78,23.8,M,-47.6,M,,0000*44
$GNGSA,A,3,24,20,11,05,13,15,22,12,,,,,1.78,0.78,1.60*1E
$GNGSA,A,3,84,80,73,85,,,,,,,,,1.78,0.78,1.60*17
$GPGSV,5,1,18,05,54,145,31,06,00,029,,11,31,019,20,12,25,355,15*74
$GPGSV,5,2,18,13,23,164,16,14,07,123,,15,27,200,19,18,16,225,*72
$GPGSV,5,3,18,20,50,081,27,22,19,107,12,24,63,263,20,25,03,331,*73
$GPGSV,5,4,18,29,11,291,,36,52,277,,40,86,350,32,41,58,082,*7F
$GPGSV,5,5,18,49,32,274,,50,10,089,*78
$GLGSV,3,1,09,69,11,130,,70,13,193,,73,50,008,22,74,10,343,*62
$GLGSV,3,2,09,79,07,146,,80,52,113,31,83,07,013,,84,40,327,16*6E
$GLGSV,3,3,09,85,35,259,28*53
$GNGLL,0419.78950,S,05539.82955,E,044245.00,A,D*6A
$GNGRS,044245.00,1,8.3,-4.4,10.6,-1.2,9.8,1.0,7.5,6.0,,,,*68
$GNGRS,044245.00,1,57.0,7.5,-6.5,-4.9,,,,,,,,*6D
$GNGST,044245.00,56,,,,5.9,5.0,18*67
$GNZDA,044245.00,21,05,2025,00,00*78
$GNGBS,044245.00,5.9,5.0,17.9,,,,*6A
$GNTXT,01,01,01,More than 100 frame errors, UART RX was disabled*70
b0X;v!6r
c>
{u2QvkX?K#{4 V^:R 
YaEFI2J
WOP4q|ST(GU#sb;vON#j$GNRMC,044246.00,A,0419.78948,S,05539.82965,E,0.209,,210525,,,D*70
$GNVTG,,T,,M,0.209,N,0.387,K,D*3F
$GNGNS,044246.00,0419.78948,S,05539.82965,E,DA,12,0.78,23.4,-47.6,,0000*6D
$GNGGA,044246.00,0419.78948,S,05539.82965,E,2,12,0.78,23.4,M,-47.6,M,,0000*41
$GNGSA,A,3,24,20,11,05,13,15,22,12,,,,,1.78,0.78,1.60*1E
$GNGSA,A,3,84,80,73,85,,,,,,,,,1.78,0.78,1.60*17
$GPGSV,5,1,18,05,54,145,33,06,00,029,,11,31,019,22,12,25,355,10*71
$GPGSV,5,2,18,13,23,164,11,14,07,123,,15,27,200,24,18,16,225,*7B
$GPGSV,5,3,18,20,50,081,29,22,19,107,08,24,63,263,20,25,03,331,*76
$GPGSV,5,4,18,29,11,291,,36,52,277,,40,86,350,32,41,58,082,*7F
$GPGSV,5,5,18,49,32,274,,50,10,089,*78
$GLGSV,3,1,09,69,11,130,,70,13,193,,73,50,008,22,74,10,343,*62
$GLGSV,3,2,09,79,07,146,,80,52,113,30,83,07,013,,84,40,327,14*6D
$GLGSV,3,3,09,85,35,259,29*52
$GNGLL,0419.78948,S,05539.82965,E,044246.00,A,D*63
$GNGRS,044246.00,1,7.8,-3.9,11.4,-2.3,9.2,-1.4,11.1,5.7,,,,*70
$GNGRS,044246.00,1,1.3,6.4,-3.5,-6.3,,,,,,,,*53
$GNGST,044246.00,3435287,,,,5.9,5.0,18*5B
$GNZDA,044246.00,21,05,2025,00,00*7B
$GNGBS,044246.00,5.9,5.0,18.2,,,,*6D
$GNTXT,01,01,01,More than 100 frame errors, UART RX was disabled*70
b0X?v!6cK
{2Qkf?K#{4"V^:R 
YaEFI2J
WOP4qtST(GvU#b?vO6#$GNRMC,044247.00,A,0419.78944,S,05539.82976,E,0.217,,210525,,,D*70
$GNVTG,,T,,M,0.217,N,0.402,K,D*3A
$GNGNS,044247.00,0419.78944,S,05539.82976,E,DA,11,0.86,23.7,-47.6,,0000*63
$GNGGA,044247.00,0419.78944,S,05539.82976,E,2,11,0.86,23.7,M,-47.6,M,,0000*4F
$GNGSA,A,3,24,20,11,05,13,15,12,,,,,,2.01,0.86,1.82*1E
$GNGSA,A,3,84,80,73,85,,,,,,,,,2.01,0.86,1.82*17
$GPGSV,5,1,18,05,54,145,33,06,00,029,,11,31,019,24,12,25,355,18*7F
$GPGSV,5,2,18,13,23,164,14,14,07,123,,15,27,200,26,18,16,225,*7C
$GPGSV,5,3,18,20,50,081,28,22,19,107,07,24,63,263,20,25,03,331,*78
$GPGSV,5,4,18,29,11,291,,36,52,277,,40,86,350,34,41,58,082,*79
$GPGSV,5,5,18,49,32,274,,50,10,089,*78
$GLGSV,3,1,09,69,11,130,,70,13,193,,73,50,008,22,74,10,343,*62
$GLGSV,3,2,09,79,07,146,,80,52,113,29,83,07,013,,84,40,327,13*62
$GLGSV,3,3,09,85,35,259,28*53
$GNGLL,0419.78944,S,05539.82976,E,044247.00,A,D*6C
$GNGRS,044247.00,1,7.3,-1.1,12.5,0.1,9.6,0.1,5.9,,,,,*63
$GNGRS,044247.00,1,1.2,3.7,-3.8,-8.2,,,,,,,,*57
$GNGST,044247.00,3587949,,,,5.8,5.0,18*5A
$GNZDA,044247.00,21,05,2025,00,00*7A
$GNGBS,044247.00,5.8,5.0,18.1,,,,*6E
$GNTXT,01,01,01,More than 100 frame errors, UART RX was disabled*70
b0XCv!6RcV
{2QRkL?K#{4"V^:R 
YaEFI2)J
WOP4qhST
(GU#bCvO#:$GNRMC,044248.00,A,0419.78927,S,05539.82987,E,0.131,,210525,,,D*73
$GNVTG,,T,,M,0.131,N,0.243,K,D*3E
$GNGNS,044248.00,0419.78927,S,05539.82987,E,DA,12,0.78,24.4,-47.6,,0000*61
$GNGGA,044248.00,0419.78927,S,05539.82987,E,2,12,0.78,24.4,M,-47.6,M,,0000*4D
$GNGSA,A,3,24,20,11,05,13,15,22,12,,,,,1.78,0.78,1.60*1E
$GNGSA,A,3,84,80,73,85,,,,,,,,,1.78,0.78,1.60*17
$GPGSV,5,1,18,05,54,145,33,06,00,029,,11,31,019,25,12,25,355,14*72
$GPGSV,5,2,18,13,23,164,16,14,07,123,,15,27,200,26,18,16,225,*7E
$GPGSV,5,3,18,20,50,081,29,22,19,107,12,24,63,263,22,25,03,331,*7F
$GPGSV,5,4,18,29,11,291,,36,52,277,,40,86,350,34,41,58,082,*79
$GPGSV,5,5,18,49,32,274,,50,10,089,*78
$GLGSV,3,1,09,69,11,130,,70,13,193,,73,50,008,23,74,10,343,*63
$GLGSV,3,2,09,79,07,146,,80,52,113,28,83,07,013,,84,40,327,10*60
$GLGSV,3,3,09,85,35,259,28*53
$GNGLL,0419.78927,S,05539.82987,E,044248.00,A,D*68
$GNGRS,044248.00,1,5.2,3.4,11.1,-1.0,-52.9,-1.2,-135,6.6,,,,*4A
$GNGRS,044248.00,1,-13.9,8.7,-4.7,-10.2,,,,,,,,*77
$GNGST,044248.00,75,,,,5.8,5.0,18*6A
$GNZDA,044248.00,21,05,2025,00,00*75
$GNGBS,044248.00,5.8,5.0,18.3,,,,*63
$GNTXT,01,01,01,More than 100 frame errors, UART RX was disabled*70
b0XxGv!6Jc
{2Q.
ka?K#{4"V^:R 
YaEFI2iJ
WOP4qST(GbU#bxGvO#$GNRMC,044249.00,A,0419.78909,S,05539.82992,E,0.402,,210525,,,D*7F
$GNVTG,,T,,M,0.402,N,0.744,K,D*39
$GNGNS,044249.00,0419.78909,S,05539.82992,E,DA,12,0.78,24.5,-47.6,,0000*69
$GNGGA,044249.00,0419.78909,S,05539.82992,E,2,12,0.78,24.5,M,-47.6,M,,0000*45
$GNGSA,A,3,24,20,11,05,13,15,22,12,,,,,1.78,0.78,1.60*1E
$GNGSA,A,3,84,80,73,85,,,,,,,,,1.78,0.78,1.60*17
$GPGSV,5,1,18,05,54,145,33,06,00,029,,11,31,019,23,12,25,355,13*73
$GPGSV,5,2,18,13,23,164,21,14,07,123,,15,27,200,26,18,16,225,*7A
$GPGSV,5,3,18,20,50,081,29,22,19,107,10,24,63,263,25,25,03,331,*7A
$GPGSV,5,4,18,29,11,291,,36,52,277,,40,86,350,34,41,58,082,*79
$GPGSV,5,5,18,49,32,274,,50,10,089,*78
$GLGSV,3,1,09,69,11,130,,70,13,193,,73,50,008,23,74,10,343,*63
$GLGSV,3,2,09,79,07,146,,80,52,113,19,83,07,013,,84,40,327,11*63
$GLGSV,3,3,09,85,35,259,28*53
$GNGLL,0419.78909,S,05539.82992,E,044249.00,A,D*61
$GNGRS,044249.00,1,3.8,-2.1,13.5,0.2,9.4,-0.9,11.2,7.9,,,,*5A
$GNGRS,044249.00,1,1.0,7.3,-4.1,-8.6,,,,,,,,*51
$GNGST,044249.00,3466804,,,,5.7,5.0,19*5C
$GNZDA,044249.00,21,05,2025,00,00*74
$GNGBS,044249.00,5.7,5.0,18.6,,,,*68
$GNTXT,01,01,01,More than 100 frame errors, UART RX was disabled*70
b0X`Kv"6#c\{>2Qk4?OK#{4"V^:R 
YaEFI2mJ
WOP4qST(GSU#Eb`KvO#X$GNRMC,044250.00,A,0419.78897,S,05539.83013,E,0.154,,210525,,,D*76
$GNVTG,,T,,M,0.154,N,0.286,K,D*34
$GNGNS,044250.00,0419.78897,S,05539.83013,E,DA,12,0.78,23.4,-47.6,,0000*60
$GNGGA,044250.00,0419.78897,S,05539.83013,E,2,12,0.78,23.4,M,-47.6,M,,0000*4C
$GNGSA,A,3,24,20,11,05,13,15,22,12,,,,,1.78,0.78,1.60*1E
$GNGSA,A,3,84,80,73,85,,,,,,,,,1.78,0.78,1.60*17
$GPGSV,5,1,18,05,54,145,34,06,00,029,,11,31,019,24,12,25,355,16*76
$GPGSV,5,2,18,13,23,164,20,14,07,123,,15,27,200,27,18,16,225,*7A
$GPGSV,5,3,18,20,50,081,29,22,19,107,13,24,63,263,28,25,03,331,*74
$GPGSV,5,4,18,29,11,291,,36,52,277,,40,86,350,34,41,58,082,*79
$GPGSV,5,5,18,49,32,274,,50,10,089,*78
$GLGSV,3,1,09,69,11,130,,70,13,193,,73,50,008,20,74,10,343,*60
$GLGSV,3,2,09,79,07,146,,80,52,113,20,83,07,013,,84,40,327,15*6D
$GLGSV,3,3,09,85,35,259,28*53
$GNGLL,0419.78897,S,05539.83013,E,044250.00,A,D*6E
$GNGRS,044250.00,1,3.4,1.4,13.0,-2.2,6.0,-1.9,10.8,5.4,,,,*51
$GNGRS,044250.00,1,0.8,7.3,-1.5,-13.2,,,,,,,,*6F
$GNGST,044250.00,3462480,,,,5.7,4.9,18*59
$GNZDA,044250.00,21,05,2025,00,00*7C
$GNGBS,044250.00,5.7,4.9,18.1,,,,*6F
$GNTXT,01,01,01,More than 100 frame errors, UART RX was disabled*70
b0XHOv!6)}c
{Z2Qk-?K#{4!V^:R 
YaEFI25J
WOP4q!ST(GXU#*PbHOvO#0o$GNRMC,044251.00,A,0419.78875,S,05539.83013,E,0.126,,210525,,,D*7E
$GNVTG,,T,,M,0.126,N,0.233,K,D*3F
$GNGNS,044251.00,0419.78875,S,05539.83013,E,DA,12,0.78,24.0,-47.6,,0000*6E
$GNGGA,044251.00,0419.78875,S,05539.83013,E,2,12,0.78,24.0,M,-47.6,M,,0000*42
$GNGSA,A,3,24,20,11,05,13,15,22,12,,,,,1.78,0.78,1.60*1E
$GNGSA,A,3,84,80,73,85,,,,,,,,,1.78,0.78,1.60*17
$GPGSV,5,1,18,05,54,145,33,06,00,029,,11,30,019,23,12,25,355,17*76
$GPGSV,5,2,18,13,23,164,20,14,07,123,,15,27,200,28,18,16,225,*75
$GPGSV,5,3,18,20,50,081,29,22,19,107,11,24,63,263,28,25,03,331,*76
$GPGSV,5,4,18,29,11,291,06,36,52,277,,40,86,350,33,41,58,082,*78
$GPGSV,5,5,18,49,32,274,,50,10,089,*78
$GLGSV,3,1,09,69,11,130,,70,13,193,,73,50,008,17,74,10,343,*64
$GLGSV,3,2,09,79,07,146,,80,52,113,20,83,07,013,,84,40,327,15*6D
$GLGSV,3,3,09,85,35,259,28*53
$GNGLL,0419.78875,S,05539.83013,E,044251.00,A,D*63
$GNGRS,044251.00,1,12.7,2.8,14.0,-2.2,6.6,-1.7,-55.9,6.4,,,,*4D
$GNGRS,044251.00,1,6.0,8.0,-2.0,-10.5,,,,,,,,*6E
$GNGST,044251.00,57,,,,5.6,4.8,18*65
$GNZDA,044251.00,21,05,2025,00,00*7D
$GNGBS,044251.00,5.6,4.8,17.6,,,,*66
$GNTXT,01,01,01,More than 100 frame errors, UART RX was disabled*70
b0X0Sv!6Ed
{2Q
k?\K#{4!V^:R 
YacEFI2J
WOP4qST(GuU#Db0SvO#$GNRMC,044252.00,A,0419.78859,S,05539.83010,E,0.103,,210525,,,D*77
$GNVTG,,T,,M,0.103,N,0.191,K,D*33
$GNGNS,044252.00,0419.78859,S,05539.83010,E,DA,12,0.78,25.1,-47.6,,0000*60
$GNGGA,044252.00,0419.78859,S,05539.83010,E,2,12,0.78,25.1,M,-47.6,M,,0000*4C
$GNGSA,A,3,24,20,11,05,13,15,22,12,,,,,1.78,0.78,1.60*1E
$GNGSA,A,3,84,80,73,85,,,,,,,,,1.78,0.78,1.60*17
$GPGSV,5,1,18,05,54,145,33,06,00,029,,11,30,019,21,12,26,356,19*7A
$GPGSV,5,2,18,13,23,164,22,14,07,123,,15,27,200,28,18,16,225,*77
$GPGSV,5,3,18,20,50,081,29,22,19,107,10,24,63,263,28,25,03,331,*77
$GPGSV,5,4,18,29,11,291,08,36,52,277,31,40,86,350,33,41,58,082,*74
$GPGSV,5,5,18,49,32,274,,50,10,089,*78
$GLGSV,3,1,09,69,11,130,,70,13,193,,73,50,008,16,74,10,343,*65
$GLGSV,3,2,09,79,07,146,,80,52,113,21,83,07,013,,84,40,327,15*6C
$GLGSV,3,3,09,85,35,259,28*53
$GNGLL,0419.78859,S,05539.83010,E,044252.00,A,D*6D
$GNGRS,044252.00,1,11.2,-1.2,15.3,-1.9,2.4,-3.0,11.7,7.6,,,,*45
$GNGRS,044252.00,1,1.2,7.2,-3.2,-10.4,,,,,,,,*67
$GNGST,044252.00,3434641,,,,5.5,4.8,17*5B
$GNZDA,044252.00,21,05,2025,00,00*7E
$GNGBS,044252.00,5.5,4.8,17.0,,,,*60
$GNTXT,01,01,01,More than 100 frame errors, UART RX was disabled*70
b0XWv!6\*dX
{qJ2Qk?K#{ 4!V^:R 
YaOEFI2rJ
WOP4qST
(G?U#ebWvO#?$GNRMC,044253.00,A,0419.78835,S,05539.83004,E,0.150,,210525,,,D*7F
$GNVTG,,T,,M,0.150,N,0.277,K,D*3E
$GNGNS,044253.00,0419.78835,S,05539.83004,E,DA,12,0.78,26.0,-47.6,,0000*6C
$GNGGA,044253.00,0419.78835,S,05539.83004,E,2,12,0.78,26.0,M,-47.6,M,,0000*40
$GNGSA,A,3,24,20,11,05,13,15,22,12,,,,,1.78,0.78,1.60*1E
$GNGSA,A,3,84,80,73,85,,,,,,,,,1.78,0.78,1.60*17
$GPGSV,5,1,18,05,54,145,33,06,00,029,,11,30,019,20,12,26,356,21*70
$GPGSV,5,2,18,13,22,164,22,14,07,123,13,15,27,200,29,18,16,225,*75
$GPGSV,5,3,18,20,50,081,29,22,19,107,08,24,63,263,27,25,03,331,*71
$GPGSV,5,4,18,29,11,291,11,36,52,277,32,40,86,350,33,41,58,082,*7F
$GPGSV,5,5,18,49,32,274,,50,10,089,*78
$GLGSV,3,1,09,69,11,130,,70,13,193,,73,50,008,16,74,10,343,*65
$GLGSV,3,2,09,79,07,146,,80,52,113,23,83,07,013,,84,40,327,10*6B
$GLGSV,3,3,09,85,35,259,27*5C
$GNGLL,0419.78835,S,05539.83004,E,044253.00,A,D*63
$GNGRS,044253.00,1,20.7,-2.3,18.3,-1.6,-0.9,-4.4,12.1,6.0,,,,*60
$GNGRS,044253.00,1,0.6,9.8,-4.0,-10.2,,,,,,,,*64
$GNGST,044253.00,3435379,,,,5.4,4.8,17*54
$GNZDA,044253.00,21,05,2025,00,00*7F
$GNGBS,044253.00,5.4,4.8,16.7,,,,*66
$GNTXT,01,01,01,More than 100 frame errors, UART RX was disabled*70
b0X[v!6od
{2Q4kj?K#{ 4!V^:R 
YaEFI2J
WOP4qST(GgU#svb[vO#$GNRMC,044254.00,A,0419.78811,S,05539.83003,E,0.124,,210525,,,D*7A
$GNVTG,,T,,M,0.124,N,0.229,K,D*36
$GNGNS,044254.00,0419.78811,S,05539.83003,E,DA,12,0.78,26.1,-47.6,,0000*6B
$GNGGA,044254.00,0419.78811,S,05539.83003,E,2,12,0.78,26.1,M,-47.6,M,,0000*47
$GNGSA,A,3,24,20,11,05,13,15,22,12,,,,,1.78,0.78,1.60*1E
$GNGSA,A,3,84,80,73,85,,,,,,,,,1.78,0.78,1.60*17
$GPGSV,5,1,18,05,54,145,33,06,00,029,,11,30,019,21,12,26,356,21*71
$GPGSV,5,2,18,13,22,164,24,14,06,123,13,15,27,200,28,18,16,225,*73
$GPGSV,5,3,18,20,50,081,31,22,19,107,13,24,63,263,26,25,03,331,*73
$GPGSV,5,4,18,29,11,291,14,36,52,277,32,40,86,350,33,41,58,082,*7A
$GPGSV,5,5,18,49,32,274,,50,10,089,*78
$GLGSV,3,1,09,69,11,130,,70,13,193,,73,50,008,16,74,10,343,*65
$GLGSV,3,2,09,79,07,146,,80,52,113,24,83,07,013,,84,40,327,08*65
$GLGSV,3,3,09,85,35,259,26*5D
$GNGLL,0419.78811,S,05539.83003,E,044254.00,A,D*65
$GNGRS,044254.00,1,15.6,-4.6,17.8,-1.4,-3.8,-5.7,3.6,7.7,,,,*54
$GNGRS,044254.00,1,6.2,11.6,-2.8,-7.7,,,,,,,,*6B
$GNGST,044254.00,56,,,,5.3,4.7,16*65
$GNZDA,044254.00,21,05,2025,00,00*78
$GNGBS,044254.00,5.3,4.7,16.4,,,,*6A
$GNTXT,01,01,01,More than 100 frame errors, UART RX was disabled*70
b0X^v!6sWEdb
{2Q
kF?*K#{4 V^:R 
Ya~EFI2J
WOP4qST
(GkU#@b^vOv#$GNRMC,044255.00,A,0419.78786,S,05539.83006,E,0.226,,210525,,,D*7E
$GNVTG,,T,,M,0.226,N,0.419,K,D*32
$GNGNS,044255.00,0419.78786,S,05539.83006,E,DA,12,0.75,26.3,-47.6,,0000*61
$GNGGA,044255.00,0419.78786,S,05539.83006,E,2,12,0.75,26.3,M,-47.6,M,,0000*4D
$GNGSA,A,3,24,20,11,05,13,15,22,12,,,,,1.57,0.75,1.38*13
$GNGSA,A,3,84,80,73,85,,,,,,,,,1.57,0.75,1.38*1A
$GPGSV,5,1,18,05,54,145,33,06,00,029,12,11,30,019,22,12,26,356,19*7A
$GPGSV,5,2,18,13,22,164,22,14,06,123,14,15,27,199,28,18,16,225,*71
$GPGSV,5,3,18,20,50,081,30,22,19,107,10,24,63,263,27,25,03,331,*70
$GPGSV,5,4,18,29,11,291,,36,52,277,31,40,86,350,32,41,58,082,*7D
$GPGSV,5,5,18,49,32,274,,50,10,089,*78
$GLGSV,3,1,09,69,11,130,,70,13,193,,73,50,008,17,74,10,343,*64
$GLGSV,3,2,09,79,07,146,,80,52,113,24,83,07,013,,84,40,327,10*6C
$GLGSV,3,3,09,85,35,259,26*5D
$GNGLL,0419.78786,S,05539.83006,E,044255.00,A,D*60
$GNGRS,044255.00,1,13.2,-2.7,15.6,-1.4,-4.1,-5.9,10.9,7.8,,,,*6E
$GNGRS,044255.00,1,1.1,14.6,-3.0,-8.2,,,,,,,,*68
$GNGST,044255.00,119084,,,,5.2,4.7,16*63
$GNZDA,044255.00,21,05,2025,00,00*79
$GNGBS,044255.00,5.2,4.7,16.0,,,,*6E
$GNTXT,01,01,01,More than 100 frame errors, UART RX was disabled*70
b0Xbv"6_ d
{2Qok?K#{4V^:R 
YaEFI2J
WOP4qST(GpU#&jbbvO^#gh$GNRMC,044256.00,A,0419.78776,S,05539.83005,E,0.179,,210525,,,D*78
$GNVTG,,T,,M,0.179,N,0.331,K,D*36
$GNGNS,044256.00,0419.78776,S,05539.83005,E,DA,12,0.78,27.5,-47.6,,0000*64
$GNGGA,044256.00,0419.78776,S,05539.83005,E,2,12,0.78,27.5,M,-47.6,M,,0000*48
$GNGSA,A,3,24,20,11,05,13,15,22,12,,,,,1.78,0.78,1.60*1E
$GNGSA,A,3,84,80,73,85,,,,,,,,,1.78,0.78,1.60*17
$GPGSV,5,1,18,05,54,145,34,06,00,029,12,11,30,019,22,12,26,356,17*73
$GPGSV,5,2,18,13,22,164,22,14,06,123,13,15,27,199,28,18,16,225,*76
$GPGSV,5,3,18,20,50,081,30,22,19,107,11,24,63,263,29,25,03,331,*7F
$GPGSV,5,4,18,29,11,291,,36,52,277,30,40,86,350,31,41,58,082,*7F
$GPGSV,5,5,18,49,32,274,,50,10,089,*78
$GLGSV,3,1,09,69,11,130,,70,13,193,,73,50,008,17,74,10,343,*64
$GLGSV,3,2,09,79,07,146,,80,52,113,24,83,07,013,,84,40,327,11*6D
$GLGSV,3,3,09,85,35,259,25*5E
$GNGLL,0419.78776,S,05539.83005,E,044256.00,A,D*6F
$GNGRS,044256.00,1,4.9,1.1,13.1,-1.6,-5.8,-3.8,11.5,6.9,,,,*79
$GNGRS,044256.00,1,1.1,15.5,-2.5,-9.9,,,,,,,,*67
$GNGST,044256.00,180706,,,,5.2,4.6,16*6C
$GNZDA,044256.00,21,05,2025,00,00*7A
$GNGBS,044256.00,5.2,4.6,15.7,,,,*68
$GNTXT,01,01,01,More than 100 frame errors, UART RX was disabled*70
b0Xfv!6`XdW[
{:2Qk?K#{4 V^:R 
Ya`EFI2J
WOP4qST(GU#bfvOF#?$GNRMC,044257.00,A,0419.78760,S,05539.83011,E,0.215,,210525,,,D*72
$GNVTG,,T,,M,0.215,N,0.398,K,D*3C
$GNGNS,044257.00,0419.78760,S,05539.83011,E,DA,12,0.90,27.5,-47.6,,0000*61
$GNGGA,044257.00,0419.78760,S,05539.83011,E,2,12,0.90,27.5,M,-47.6,M,,0000*4D
$GNGSA,A,3,24,20,11,05,13,15,22,12,,,,,2.03,0.90,1.82*1B
$GNGSA,A,3,84,80,73,85,,,,,,,,,2.03,0.90,1.82*12
$GPGSV,5,1,18,05,54,145,33,06,00,029,11,11,30,019,22,12,26,356,16*76
$GPGSV,5,2,18,13,22,164,24,14,06,123,09,15,27,199,27,18,16,225,20*76
$GPGSV,5,3,18,20,50,081,31,22,19,107,12,24,63,263,30,25,03,331,*75
$GPGSV,5,4,18,29,11,291,,36,52,277,30,40,86,350,32,41,58,082,*7C
$GPGSV,5,5,18,49,32,274,,50,10,089,*78
$GLGSV,3,1,09,69,11,130,,70,13,193,,73,50,008,17,74,10,343,*64
$GLGSV,3,2,09,79,07,146,,80,52,113,24,83,07,013,,84,40,327,12*6E
$GLGSV,3,3,09,85,35,259,25*5E
$GNGLL,0419.78760,S,05539.83011,E,044257.00,A,D*6C
$GNGRS,044257.00,1,2.5,1.8,8.6,-1.6,-6.8,-2.0,73.9,8.5,,,,*46
$GNGRS,044257.00,1,24.4,17.7,-1.0,-10.3,,,,,,,,*60
$GNGST,044257.00,40,,,,5.1,4.6,15*61
$GNZDA,044257.00,21,05,2025,00,00*7B
$GNGBS,044257.00,5.1,4.6,15.4,,,,*69
$GNTXT,01,01,01,More than 100 frame errors, UART RX was disabled*70
b0Xjv!65@d
{l2Qy
kX?K#{4 V^:R 
Y
aEFI2J
WOP4q&ST(GU#+bjvO.#8$GNRMC,044258.00,A,0419.78753,S,05539.83014,E,0.264,,210525,,,D*7E
$GNVTG,,T,,M,0.264,N,0.489,K,D*3D
$GNGNS,044258.00,0419.78753,S,05539.83014,E,DA,11,0.79,28.2,-47.6,,0000*67
$GNGGA,044258.00,0419.78753,S,05539.83014,E,2,11,0.79,28.2,M,-47.6,M,,0000*4B
$GNGSA,A,3,24,20,11,05,13,15,22,12,,,,,1.83,0.79,1.65*1E
$GNGSA,A,3,84,80,85,,,,,,,,,,1.83,0.79,1.65*13
$GPGSV,5,1,18,05,54,145,33,06,00,029,09,11,30,019,21,12,26,356,15*7F
$GPGSV,5,2,18,13,22,164,23,14,06,123,08,15,27,199,27,18,17,225,19*7B
$GPGSV,5,3,18,20,50,081,30,22,19,107,10,24,63,263,30,25,03,331,*76
$GPGSV,5,4,18,29,11,291,,36,52,277,30,40,86,350,32,41,58,082,*7C
$GPGSV,5,5,18,49,32,274,,50,10,089,*78
$GLGSV,3,1,09,69,11,130,,70,13,193,,73,50,008,,74,10,343,*62
$GLGSV,3,2,09,79,07,146,,80,52,113,23,83,07,013,,84,40,327,09*63
$GLGSV,3,3,09,85,35,259,24*5F
$GNGLL,0419.78753,S,05539.83014,E,044258.00,A,D*66
$GNGRS,044258.00,1,4.3,-1.3,8.3,-2.0,-6.3,-2.6,11.1,6.5,,,,*60
$GNGRS,044258.00,1,1.3,18.3,-10.6,,,,,,,,,*53
$GNGST,044258.00,5072371,,,,5.1,4.6,15*5F
$GNZDA,044258.00,21,05,2025,00,00*74
$GNGBS,044258.00,5.1,4.6,15.2,,,,*60
$GNTXT,01,01,01,More than 100 frame errors, UART RX was disabled*70
b0Xnv6d
{]
A2QkO?K#{4V^:R 
Y
ajEFI2J
WOP4qST(GBU#bnvO#$GNRMC,044259.00,A,0419.78724,S,05539.83005,E,1.153,,210525,,,D*79
$GNVTG,,T,,M,1.153,N,2.136,K,D*38
$GNGNS,044259.00,0419.78724,S,05539.83005,E,DA,11,0.79,27.6,-47.6,,0000*6D
$GNGGA,044259.00,0419.78724,S,05539.83005,E,2,11,0.79,27.6,M,-47.6,M,,0000*41
$GNGSA,A,3,24,20,11,05,13,15,22,12,,,,,1.83,0.79,1.65*1E
$GNGSA,A,3,84,80,85,,,,,,,,,,1.83,0.79,1.65*13
$GPGSV,5,1,18,05,54,145,28,06,00,029,09,11,30,019,22,12,26,356,16*75
$GPGSV,5,2,18,13,22,164,21,14,06,123,08,15,27,199,26,18,17,225,17*76
$GPGSV,5,3,18,20,50,081,29,22,19,107,16,24,63,263,29,25,03,331,*70
$GPGSV,5,4,18,29,11,291,,36,52,277,29,40,86,350,31,41,58,082,*77
$GPGSV,5,5,18,49,32,274,,50,10,089,*78
$GLGSV,3,1,09,69,11,130,,70,13,193,,73,50,008,,74,10,343,*62
$GLGSV,3,2,09,79,07,146,,80,52,113,22,83,07,013,,84,40,327,09*62
$GLGSV,3,3,09,85,35,259,21*5A
$GNGLL,0419.78724,S,05539.83005,E,044259.00,A,D*67
$GNGRS,044259.00,1,3.9,-2.3,7.5,-2.8,-7.9,0.6,11.0,4.5,,,,*49
$GNGRS,044259.00,1,0.7,17.9,-10.6,,,,,,,,,*52
$GNGST,044259.00,5072371,,,,5.1,4.5,15*5D
$GNZDA,044259.00,21,05,2025,00,00*75
$GNGBS,044259.00,5.1,4.5,15.2,,,,*62
$GNTXT,01,01,01,More than 100 frame errors, UART RX was disabled*70
b0Xprv6P+dK
{YO2Pk?K#{4V^:R 
Ya
EFI2J
WOP4qST
(GzU#xbprvO#$GNRMC,044300.00,A,0419.78703,S,05539.82997,E,0.454,,210525,,,D*71
$GNVTG,,T,,M,0.454,N,0.841,K,D*30
$GNGNS,044300.00,0419.78703,S,05539.82997,E,DA,11,0.79,27.7,-47.6,,0000*67
$GNGGA,044300.00,0419.78703,S,05539.82997,E,2,11,0.79,27.7,M,-47.6,M,,0000*4B
$GNGSA,A,3,24,20,11,05,13,15,22,12,,,,,1.83,0.79,1.65*1E
$GNGSA,A,3,84,80,85,,,,,,,,,,1.83,0.79,1.65*13
$GPGSV,5,1,18,05,54,145,31,06,00,029,08,11,30,019,22,12,26,356,17*7D
$GPGSV,5,2,18,13,22,164,20,14,06,123,08,15,27,199,26,18,17,225,18*78
$GPGSV,5,3,18,20,50,080,29,22,19,107,11,24,63,263,28,25,03,331,*77
$GPGSV,5,4,18,29,11,291,,36,52,277,30,40,86,350,30,41,58,082,*7E
$GPGSV,5,5,18,49,32,274,,50,10,089,*78
$GLGSV,3,1,09,69,11,130,,70,13,193,,73,50,008,,74,10,343,*62
$GLGSV,3,2,09,79,07,146,,80,52,113,22,83,07,013,,84,40,327,10*6A
$GLGSV,3,3,09,85,35,259,19*51
$GNGLL,0419.78703,S,05539.82997,E,044300.00,A,D*6C
$GNGRS,044300.00,1,1.7,-0.8,5.5,-0.1,-9.5,0.8,-25.6,5.0,,,,*6C
$GNGRS,044300.00,1,-11.6,17.8,-11.2,,,,,,,,,*47
$GNGST,044300.00,58,,,,5.1,4.5,15*68
$GNZDA,044300.00,21,05,2025,00,00*78
$GNGBS,044300.00,5.1,4.5,15.0,,,,*6D
$GNTXT,01,01,01,More than 100 frame errors, UART RX was disabled*70
b0XXvv 6(de
{K2P
k<?K#{4V^:R 
YaEFI2J
WOP4qST
(GU#@hbXvvO#m$GNRMC,044301.00,A,0419.78697,S,05539.82996,E,0.112,,210525,,,D*7A
$GNVTG,,T,,M,0.112,N,0.207,K,D*3F
$GNGNS,044301.00,0419.78697,S,05539.82996,E,DA,12,0.79,27.8,-47.6,,0000*67
$GNGGA,044301.00,0419.78697,S,05539.82996,E,2,12,0.79,27.8,M,-47.6,M,,0000*4B
$GNGSA,A,3,24,20,11,05,13,15,22,12,14,,,,1.83,0.79,1.65*1B
$GNGSA,A,3,84,80,85,,,,,,,,,,1.83,0.79,1.65*13
$GPGSV,5,1,18,05,54,145,32,06,00,029,,11,30,019,22,12,26,356,15*74
$GPGSV,5,2,18,13,22,164,21,14,06,123,09,15,27,199,26,18,17,225,20*73
$GPGSV,5,3,18,20,50,080,27,22,19,107,10,24,63,263,29,25,03,331,*79
$GPGSV,5,4,18,29,11,291,,36,52,277,30,40,86,350,29,41,58,082,*76
$GPGSV,5,5,18,49,32,274,,50,10,089,*78
$GLGSV,3,1,09,69,11,130,,70,13,193,,73,50,008,,74,10,343,*62
$GLGSV,3,2,09,79,07,146,,80,52,113,22,83,07,013,,84,40,327,10*6A
$GLGSV,3,3,09,85,35,259,19*51
$GNGLL,0419.78697,S,05539.82996,E,044301.00,A,D*60
$GNGRS,044301.00,1,0.2,-2.6,5.5,-2.4,-9.2,0.8,10.8,4.6,38.4,,,*56
$GNGRS,044301.00,1,1.5,17.8,-12.2,,,,,,,,,*5A
$GNGST,044301.00,3589623,,,,5.1,4.5,15*54
$GNZDA,044301.00,21,05,2025,00,00*79
$GNGBS,044301.00,5.1,4.5,14.9,,,,*64
$GNTXT,01,01,01,More than 100 frame errors, UART RX was disabled*70
b0X@zv6dG
{2PIk7?:K#{4V^:R 
Ya2EFI2J
WOP4qST
(GU#slb@zvO#v$GNRMC,044302.00,A,0419.78696,S,05539.82996,E,0.105,,210525,,,D*7E
$GNVTG,,T,,M,0.105,N,0.195,K,D*31
$GNGNS,044302.00,0419.78696,S,05539.82996,E,DA,12,0.78,28.2,-47.6,,0000*61
$GNGGA,044302.00,0419.78696,S,05539.82996,E,2,12,0.78,28.2,M,-47.6,M,,0000*4D
$GNGSA,A,3,24,20,11,05,13,15,22,12,14,,,,1.59,0.78,1.38*15
$GNGSA,A,3,84,80,85,,,,,,,,,,1.59,0.78,1.38*1D
$GPGSV,5,1,18,05,54,145,29,06,00,029,,11,30,019,22,12,26,356,14*7F
$GPGSV,5,2,18,13,22,164,21,14,06,123,09,15,27,199,25,18,17,225,19*7A
$GPGSV,5,3,18,20,50,080,27,22,19,107,08,24,63,263,29,25,03,331,*70
$GPGSV,5,4,18,29,11,291,,36,52,277,29,40,86,350,27,41,58,082,*70
$GPGSV,5,5,18,49,32,274,,50,10,089,*78
$GLGSV,3,1,09,69,11,130,,70,13,193,,73,50,008,,74,10,343,*62
$GLGSV,3,2,09,79,07,146,,80,52,113,22,83,07,013,,84,40,327,10*6A
$GLGSV,3,3,09,85,35,259,19*51
$GNGLL,0419.78696,S,05539.82996,E,044302.00,A,D*62
$GNGRS,044302.00,1,0.6,-7.0,5.1,-2.3,-9.5,2.3,10.8,2.5,37.8,,,*59
$GNGRS,044302.00,1,1.8,19.5,-9.1,,,,,,,,,*6E
$GNGST,044302.00,3441375,,,,5.1,4.5,15*54
$GNZDA,044302.00,21,05,2025,00,00*7A
$GNGBS,044302.00,5.1,4.5,14.9,,,,*67
$GNTXT,01,01,01,More than 100 frame errors, UART RX was disabled*70
b0X(~v6d
{2Pkk?K#{4V^:R 
Ya=EFI2J
WOP4qST(GU#b(~vO#N=$GNRMC,044303.00,A,0419.78688,S,05539.83001,E,0.514,,210525,,,D*72
$GNVTG,,T,,M,0.514,N,0.951,K,D*35
$GNGNS,044303.00,0419.78688,S,05539.83001,E,DA,11,0.82,28.8,-47.6,,0000*65
$GNGGA,044303.00,0419.78688,S,05539.83001,E,2,11,0.82,28.8,M,-47.6,M,,0000*49
$GNGSA,A,3,24,20,11,05,13,15,22,12,14,,,,1.61,0.82,1.38*1B
$GNGSA,A,3,80,85,,,,,,,,,,,1.61,0.82,1.38*1F
$GPGSV,5,1,18,05,54,145,30,06,00,029,,11,30,019,22,12,26,356,15*76
$GPGSV,5,2,18,13,22,164,21,14,06,123,08,15,27,199,24,18,17,225,19*7A
$GPGSV,5,3,18,20,50,080,27,22,19,107,11,24,63,262,28,25,03,331,*78
$GPGSV,5,4,18,29,11,291,,36,52,277,29,40,86,350,28,41,58,082,*7F
$GPGSV,5,5,18,49,32,274,,50,10,089,*78
$GLGSV,3,1,09,69,11,130,,70,13,193,,73,50,008,,74,10,343,*62
$GLGSV,3,2,09,79,07,146,,80,52,113,22,83,07,013,,84,40,327,11*6B
$GLGSV,3,3,09,85,35,259,19*51
$GNGLL,0419.78688,S,05539.83001,E,044303.00,A,D*6A
$GNGRS,044303.00,1,2.7,-6.6,4.4,-3.2,-10.1,1.8,5.3,-0.5,4.8,,,*4C
$GNGRS,044303.00,1,21.9,-7.6,,,,,,,,,,*46
$GNGST,044303.00,56,,,,5.1,4.6,15*66
$GNZDA,044303.00,21,05,2025,00,00*7B
$GNGBS,044303.00,5.1,4.6,14.8,,,,*64
$GNTXT,01,01,01,More than 100 frame errors, UART RX was disabled*70
b0Xv!6d^
{2Pk&?L#{4V^:R 
YaEFI2J
WOP4qST(GU#^UbvO#&$GNRMC,044304.00,A,0419.78697,S,05539.83012,E,0.524,,210525,,,D*7A
$GNVTG,,T,,M,0.524,N,0.971,K,D*34
$GNGNS,044304.00,0419.78697,S,05539.83012,E,DA,11,0.82,29.0,-47.6,,0000*67
$GNGGA,044304.00,0419.78697,S,05539.83012,E,2,11,0.82,29.0,M,-47.6,M,,0000*4B
$GNGSA,A,3,24,20,11,05,13,15,22,12,14,,,,1.61,0.82,1.38*1B
$GNGSA,A,3,80,85,,,,,,,,,,,1.61,0.82,1.38*1F
$GPGSV,5,1,18,05,54,145,33,06,00,029,,11,30,019,23,12,26,356,16*77
$GPGSV,5,2,18,13,22,164,22,14,06,123,11,15,27,199,24,18,17,225,19*71
$GPGSV,5,3,18,20,50,080,27,22,19,107,14,24,63,262,28,25,04,332,*79
$GPGSV,5,4,18,29,11,291,,36,52,277,29,40,86,350,29,41,58,082,*7E
$GPGSV,5,5,18,49,32,274,,50,10,089,*78
$GLGSV,3,1,09,69,11,130,,70,13,193,,73,50,008,,74,10,343,*62
$GLGSV,3,2,09,79,07,146,,80,52,113,30,83,07,013,,84,40,327,11*68
$GLGSV,3,3,09,85,35,259,17*5F
$GNGLL,0419.78697,S,05539.83012,E,044304.00,A,D*61
$GNGRS,044304.00,1,1.5,-5.1,1.6,-0.7,-9.3,1.4,10.6,-0.6,29.4,,,*78
$GNGRS,044304.00,1,19.4,-8.1,,,,,,,,,,*4F
$GNGST,044304.00,3587366,,,,5.2,4.7,15*5A
$GNZDA,044304.00,21,05,2025,00,00*7C
$GNGBS,044304.00,5.2,4.7,14.8,,,,*61
$GNTXT,01,01,01,More than 100 frame errors, UART RX was disabled*70
b0Xv6a+df
{|2PkC?L#{4V^:R 
YaEFI2J
WOP4qoST(GU#u1bvO#$GNRMC,044305.00,A,0419.78723,S,05539.83012,E,0.895,,210525,,,D*72
$GNVTG,,T,,M,0.895,N,1.658,K,D*36
$GNGNS,044305.00,0419.78723,S,05539.83012,E,DA,11,0.82,30.2,-47.6,,0000*62
$GNGGA,044305.00,0419.78723,S,05539.83012,E,2,11,0.82,30.2,M,-47.6,M,,0000*4E
$GNGSA,A,3,24,20,11,05,13,15,22,12,14,,,,1.61,0.82,1.38*1B
$GNGSA,A,3,80,85,,,,,,,,,,,1.61,0.82,1.38*1F
$GPGSV,5,1,18,05,54,145,31,06,00,029,,11,30,019,23,12,26,356,17*74
$GPGSV,5,2,18,13,22,164,21,14,06,123,11,15,27,199,23,18,17,225,19*75
$GPGSV,5,3,18,20,50,080,26,22,19,107,18,24,63,262,26,25,04,332,*7A
$GPGSV,5,4,18,29,11,291,,36,52,277,29,40,86,350,28,41,58,082,*7F
$GPGSV,5,5,18,49,32,274,,50,10,089,*78
$GLGSV,3,1,09,69,11,130,,70,13,193,,73,50,008,,74,10,343,*62
$GLGSV,3,2,09,79,07,146,,80,52,113,28,83,07,013,,84,40,327,09*68
$GLGSV,3,3,09,85,35,259,15*5D
$GNGLL,0419.78723,S,05539.83012,E,044305.00,A,D*6E
$GNGRS,044305.00,1,8.0,-5.2,0.4,-1.6,-9.2,1.2,10.9,-3.3,29.8,,,*77
$GNGRS,044305.00,1,16.5,-9.1,,,,,,,,,,*41
$GNGST,044305.00,3588136,,,,5.2,4.7,15*53
$GNZDA,044305.00,21,05,2025,00,00*7D
$GNGBS,044305.00,5.2,4.7,14.8,,,,*60
$GNTXT,01,01,01,More than 100 frame errors, UART RX was disabled*70
b0Xv6db
{h2PYk@?L#{4V^:R 
YaEFI2J
WOP4q0ST(GU#LT!bvOn$h$GNRMC,044306.00,A,0419.78734,S,05539.83016,E,0.182,,210525,,,D*7C
$GNVTG,,T,,M,0.182,N,0.336,K,D*35
$GNGNS,044306.00,0419.78734,S,05539.83016,E,DA,11,0.82,30.9,-47.6,,0000*68
$GNGGA,044306.00,0419.78734,S,05539.83016,E,2,11,0.82,30.9,M,-47.6,M,,0000*44
$GNGSA,A,3,24,20,11,05,13,15,22,12,14,,,,1.61,0.82,1.38*1B
$GNGSA,A,3,80,85,,,,,,,,,,,1.61,0.82,1.38*1F
$GPGSV,5,1,18,05,54,145,28,06,00,029,,11,30,019,22,12,26,356,18*72
$GPGSV,5,2,18,13,22,164,21,14,06,123,09,15,27,199,23,18,17,225,17*72
$GPGSV,5,3,18,20,50,080,25,22,19,107,17,24,63,262,27,25,04,332,*77
$GPGSV,5,4,18,29,11,291,,36,52,277,27,40,86,350,28,41,58,082,*71
$GPGSV,5,5,18,49,32,274,,50,10,089,*78
$GLGSV,3,1,09,69,11,130,,70,13,193,,73,50,008,,74,10,343,*62
$GLGSV,3,2,09,79,07,146,,80,52,113,27,83,07,013,,84,40,327,09*67
$GLGSV,3,3,09,85,35,259,16*5E
$GNGLL,0419.78734,S,05539.83016,E,044306.00,A,D*6F
$GNGRS,044306.00,1,4.2,-6.8,-1.1,1.4,-9.3,1.0,-22.4,-5.9,17.4,,,*5A
$GNGRS,044306.00,1,15.8,-12.0,,,,,,,,,,*77
$GNGST,044306.00,54,,,,5.2,4.7,15*63
$GNZDA,044306.00,21,05,2025,00,00*7E
$GNGBS,044306.00,5.2,4.7,14.7,,,,*6C
$GNTXT,01,01,01,More than 100 frame errors, UART RX was disabled*70
b0Xv6{Kd@

{2Pvk7?L#{4V^:R 
YaEFI2J
WOP4qST(G~U#1bvOV$$GNRMC,044307.00,A,0419.78740,S,05539.83015,E,0.174,,210525,,,D*74
$GNVTG,,T,,M,0.174,N,0.322,K,D*39
$GNGNS,044307.00,0419.78740,S,05539.83015,E,DA,10,0.95,31.1,-47.6,,0000*67
$GNGGA,044307.00,0419.78740,S,05539.83015,E,2,10,0.95,31.1,M,-47.6,M,,0000*4B
$GNGSA,A,3,24,20,11,05,13,15,22,12,14,,,,1.70,0.95,1.41*13
$GNGSA,A,3,80,,,,,,,,,,,,1.70,0.95,1.41*1A
$GPGSV,5,1,18,05,54,145,29,06,00,029,,11,30,019,22,12,26,356,19*72
$GPGSV,5,2,18,13,22,164,21,14,06,123,10,15,27,199,23,18,17,225,17*7A
$GPGSV,5,3,18,20,50,080,25,22,19,107,16,24,63,262,26,25,04,332,*77
$GPGSV,5,4,18,29,11,291,,36,52,277,28,40,86,350,29,41,58,082,*7F
$GPGSV,5,5,18,49,32,274,,50,10,089,*78
$GLGSV,3,1,09,69,11,130,,70,13,193,,73,50,008,,74,10,343,*62
$GLGSV,3,2,09,79,07,146,,80,52,113,27,83,07,013,,84,40,327,09*67
$GLGSV,3,3,09,85,35,259,*59
$GNGLL,0419.78740,S,05539.83015,E,044307.00,A,D*6E
$GNGRS,044307.00,1,4.3,-6.5,-1.8,3.8,-9.6,0.2,10.8,-5.6,29.6,,,*76
$GNGRS,044307.00,1,14.6,,,,,,,,,,,*49
$GNGST,044307.00,3765141,,,,5.2,4.7,15*50
$GNZDA,044307.00,21,05,2025,00,00*7F
$GNGBS,044307.00,5.2,4.7,14.8,,,,*62
$GNTXT,01,01,01,More than 100 frame errors, UART RX was disabled*70
b0Xv6yd<
{2P
kL?yL${4V^:R 
YaEFI2J
WOP4qtST(G_U#bvO>$8$GNRMC,044308.00,A,0419.78740,S,05539.83013,E,0.151,,210525,,,D*7A
$GNVTG,,T,,M,0.151,N,0.279,K,D*31
$GNGNS,044308.00,0419.78740,S,05539.83013,E,DA,10,0.95,31.6,-47.6,,0000*69
$GNGGA,044308.00,0419.78740,S,05539.83013,E,2,10,0.95,31.6,M,-47.6,M,,0000*45
$GNGSA,A,3,24,20,11,05,13,15,22,12,14,,,,1.70,0.95,1.41*13
$GNGSA,A,3,80,,,,,,,,,,,,1.70,0.95,1.41*1A
$GPGSV,5,1,18,05,54,145,29,06,00,029,,11,30,019,23,12,26,356,18*72
$GPGSV,5,2,18,13,22,164,19,14,06,123,11,15,27,199,23,18,17,225,16*71
$GPGSV,5,3,18,20,50,080,25,22,19,107,10,24,63,262,27,25,04,332,*70
$GPGSV,5,4,18,29,11,292,,36,52,277,28,40,86,350,29,41,58,082,*7C
$GPGSV,5,5,18,49,32,274,,50,10,089,*78
$GLGSV,3,1,09,69,11,130,,70,13,193,,73,50,008,,74,10,343,*62
$GLGSV,3,2,09,79,07,146,,80,52,113,26,83,07,013,,84,40,327,09*66
$GLGSV,3,3,09,85,35,259,*59
$GNGLL,0419.78740,S,05539.83013,E,044308.00,A,D*67
$GNGRS,044308.00,1,3.8,-5.2,-3.8,1.2,-9.6,0.0,11.0,-6.1,29.8,,,*7A
$GNGRS,044308.00,1,14.0,,,,,,,,,,,*40
$GNGST,044308.00,5319948,,,,5.3,4.8,15*59
$GNZDA,044308.00,21,05,2025,00,00*70
$GNGBS,044308.00,5.3,4.8,14.9,,,,*62
$GNTXT,01,01,01,More than 100 frame errors, UART RX was disabled*70
b0Xv6A>dob

{2PQk?>L${4V^:R 
Ya@EFI2J
WOP4qdST(GU#bvO&$^$GNRMC,044309.00,A,0419.78736,S,05539.83009,E,0.181,,210525,,,D*7C
$GNVTG,,T,,M,0.181,N,0.335,K,D*35
$GNGNS,044309.00,0419.78736,S,05539.83009,E,DA,11,0.89,33.1,-47.6,,0000*6B
$GNGGA,044309.00,0419.78736,S,05539.83009,E,2,11,0.89,33.1,M,-47.6,M,,0000*47
$GNGSA,A,3,24,20,11,05,13,15,22,12,14,,,,1.66,0.89,1.41*19
$GNGSA,A,3,84,80,,,,,,,,,,,1.66,0.89,1.41*1C
$GPGSV,5,1,18,05,54,145,29,06,00,029,,11,30,019,25,12,26,356,18*74
$GPGSV,5,2,18,13,22,164,17,14,06,123,10,15,27,199,23,18,17,225,17*7F
$GPGSV,5,3,18,20,50,080,25,22,19,107,16,24,63,262,26,25,04,332,*77
$GPGSV,5,4,18,29,11,292,,36,52,277,30,40,86,350,28,41,58,082,*74
$GPGSV,5,5,18,49,32,274,,50,10,089,*78
$GLGSV,3,1,09,69,11,130,,70,13,193,,73,50,008,,74,10,343,*62
$GLGSV,3,2,09,79,07,146,,80,52,113,27,83,07,013,,84,40,327,09*67
$GLGSV,3,3,09,85,35,259,*59
$GNGLL,0419.78736,S,05539.83009,E,044309.00,A,D*6C
$GNGRS,044309.00,1,5.7,-4.3,-1.9,3.2,-9.3,0.0,-23.1,-1.4,-44.4,,,*73
$GNGRS,044309.00,1,63.3,11.2,,,,,,,,,,*5E
$GNGST,044309.00,68,,,,5.3,4.8,15*6D
$GNZDA,044309.00,21,05,2025,00,00*71
$GNGBS,044309.00,5.3,4.8,14.8,,,,*62
$GNTXT,01,01,01,More than 100 frame errors, UART RX was disabled*70
b0Xv66dq
{2PkS?L${4V^:R 
YaEFI2J
WOP4q-ST(GU#bvO$6$GNRMC,044310.00,A,0419.78731,S,05539.83007,E,0.310,,210525,,,D*77
$GNVTG,,T,,M,0.310,N,0.574,K,D*3C
$GNGNS,044310.00,0419.78731,S,05539.83007,E,DA,11,0.89,33.7,-47.6,,0000*6C
$GNGGA,044310.00,0419.78731,S,05539.83007,E,2,11,0.89,33.7,M,-47.6,M,,0000*40
$GNGSA,A,3,24,20,11,05,13,15,22,12,14,,,,1.66,0.89,1.41*19
$GNGSA,A,3,84,80,,,,,,,,,,,1.66,0.89,1.41*1C
$GPGSV,5,1,18,05,54,145,28,06,00,029,,11,30,019,24,12,26,356,18*74
$GPGSV,5,2,18,13,22,164,18,14,06,123,12,15,27,199,22,18,17,225,17*73
$GPGSV,5,3,18,20,50,080,25,22,19,107,11,24,63,262,27,25,04,332,*71
$GPGSV,5,4,18,29,11,292,,36,52,277,31,40,86,350,28,41,58,082,*75
$GPGSV,5,5,18,49,32,274,,50,10,089,*78
$GLGSV,3,1,09,69,11,130,,70,13,193,,73,50,008,,74,10,343,*62
$GLGSV,3,2,09,79,07,146,,80,52,113,26,83,07,013,,84,40,327,09*66
$GLGSV,3,3,09,85,35,259,*59
$GNGLL,0419.78731,S,05539.83007,E,044310.00,A,D*6D
$GNGRS,044310.00,1,7.5,-5.1,-2.4,3.1,-9.1,1.3,11.1,0.1,30.1,,,*5B
$GNGRS,044310.00,1,1.3,8.1,,,,,,,,,,*59
$GNGST,044310.00,5072418,,,,5.3,4.8,15*56
$GNZDA,044310.00,21,05,2025,00,00*79
$GNGBS,044310.00,5.3,4.8,14.9,,,,*6B
$GNTXT,01,01,01,More than 100 frame errors, UART RX was disabled*70
b0Xhv6d<
{2Pk?L${4V^:R 
Ya7EFI2J
WOP4qST(GU#BbbhvO$m$GNRMC,044311.00,A,0419.78730,S,05539.83004,E,0.155,,210525,,,D*77
$GNVTG,,T,,M,0.155,N,0.287,K,D*34
$GNGNS,044311.00,0419.78730,S,05539.83004,E,DA,10,0.90,34.6,-47.6,,0000*60
$GNGGA,044311.00,0419.78730,S,05539.83004,E,2,10,0.90,34.6,M,-47.6,M,,0000*4C
$GNGSA,A,3,24,20,11,05,13,15,22,12,,,,,1.89,0.90,1.66*10
$GNGSA,A,3,84,80,,,,,,,,,,,1.89,0.90,1.66*10
$GPGSV,5,1,18,05,54,145,28,06,00,029,,11,30,019,24,12,26,356,18*74
$GPGSV,5,2,18,13,22,164,17,14,06,123,06,15,27,199,23,18,17,225,18*77
$GPGSV,5,3,18,20,50,080,24,22,19,107,11,24,63,262,27,25,04,332,*70
$GPGSV,5,4,18,29,11,292,,36,52,277,31,40,86,350,29,41,58,082,*74
$GPGSV,5,5,18,49,32,274,,50,10,089,*78
$GLGSV,3,1,09,69,11,130,,70,13,193,,73,50,008,,74,10,343,*62
$GLGSV,3,2,09,79,07,146,,80,52,113,25,83,07,013,,84,40,327,09*65
$GLGSV,3,3,09,85,35,259,*59
$GNGLL,0419.78730,S,05539.83004,E,044311.00,A,D*6E
$GNGRS,044311.00,1,6.6,-6.3,-2.9,1.5,-8.1,1.5,11.5,0.6,,,,*4A
$GNGRS,044311.00,1,1.5,7.4,,,,,,,,,,*54
$GNGST,044311.00,5319948,,,,5.3,4.8,15*51
$GNZDA,044311.00,21,05,2025,00,00*78
$GNGBS,044311.00,5.3,4.8,15.0,,,,*62
$GNTXT,01,01,01,More than 100 frame errors, UART RX was disabled*70
b0XPv6}dog
{ 2Pck}?^L${4V^:R 
YaEFI2J
WOP4qVST(G9U#bPvO$$GNRMC,044312.00,A,0419.78737,S,05539.82999,E,0.222,,210525,,,D*7C
$GNVTG,,T,,M,0.222,N,0.412,K,D*3D
$GNGNS,044312.00,0419.78737,S,05539.82999,E,DA,11,0.89,34.4,-47.6,,0000*63
$GNGGA,044312.00,0419.78737,S,05539.82999,E,2,11,0.89,34.4,M,-47.6,M,,0000*4F
$GNGSA,A,3,24,20,11,05,13,15,22,12,14,,,,1.66,0.89,1.41*19
$GNGSA,A,3,84,80,,,,,,,,,,,1.66,0.89,1.41*1C
$GPGSV,5,1,18,05,54,145,27,06,00,029,,11,30,019,23,12,26,356,18*7C
$GPGSV,5,2,18,13,22,164,18,14,06,123,09,15,27,199,23,18,17,225,18*77
$GPGSV,5,3,18,20,50,080,23,22,19,107,14,24,63,262,28,25,04,332,*7D
$GPGSV,5,4,18,29,11,292,,36,52,277,30,40,86,350,29,41,58,082,*75
$GPGSV,5,5,18,49,32,274,,50,10,089,*78
$GLGSV,3,1,09,69,11,130,,70,13,193,,73,50,008,,74,10,343,*62
$GLGSV,3,2,09,79,07,146,,80,52,113,23,83,07,013,,84,40,327,11*6A
$GLGSV,3,3,09,85,35,259,*59
$GNGLL,0419.78737,S,05539.82999,E,044312.00,A,D*66
$GNGRS,044312.00,1,8.6,-6.7,-3.9,9.9,-11.8,2.4,-21.8,1.1,72.0,,,*4B
$GNGRS,044312.00,1,148,6.0,,,,,,,,,,*45
$GNGST,044312.00,79,,,,5.3,4.9,15*66
$GNZDA,044312.00,21,05,2025,00,00*7B
$GNGBS,044312.00,5.3,4.9,15.0,,,,*60
$GNTXT,01,01,01,More than 100 frame errors, UART RX was disabled*70
b0X8v6d
{m2Pk?L${4V^:R 
Y
a%EFI2J
WOP4qST(GU#b8vO$=$GNRMC,044313.00,A,0419.78756,S,05539.82990,E,0.686,,210525,,,D*79
$GNVTG,,T,,M,0.686,N,1.270,K,D*34
$GNGNS,044313.00,0419.78756,S,05539.82990,E,DA,11,0.89,34.8,-47.6,,0000*60
$GNGGA,044313.00,0419.78756,S,05539.82990,E,2,11,0.89,34.8,M,-47.6,M,,0000*4C
$GNGSA,A,3,24,20,11,05,13,15,22,12,14,,,,1.66,0.89,1.41*19
$GNGSA,A,3,84,80,,,,,,,,,,,1.66,0.89,1.41*1C
$GPGSV,5,1,18,05,54,145,26,06,00,029,16,11,30,019,22,12,26,356,18*7B
$GPGSV,5,2,18,13,22,164,16,14,06,123,12,15,27,199,22,18,17,225,18*72
$GPGSV,5,3,18,20,50,080,23,22,19,107,12,24,63,262,27,25,04,332,*74
$GPGSV,5,4,18,29,11,292,,36,52,277,30,40,86,350,28,41,58,082,*74
$GPGSV,5,5,18,49,32,274,,50,10,089,*78
$GLGSV,3,1,09,69,11,130,,70,13,193,,73,50,008,,74,10,343,*62
$GLGSV,3,2,09,79,07,146,,80,52,113,22,83,07,013,,84,40,327,09*62
$GLGSV,3,3,09,85,35,259,*59
$GNGLL,0419.78756,S,05539.82990,E,044313.00,A,D*69
$GNGRS,044313.00,1,9.1,-6.0,-2.9,6.8,-11.3,3.6,12.9,-0.4,29.9,,,*4E
$GNGRS,044313.00,1,1.4,4.4,,,,,,,,,,*54
$GNGST,044313.00,5072372,,,,5.4,5.0,15*50
$GNZDA,044313.00,21,05,2025,00,00*7A
$GNGBS,044313.00,5.4,5.0,15.2,,,,*6C
$GNTXT,01,01,01,More than 100 frame errors, UART RX was disabled*70
b0X v6d

{2Pk?L${4V^:R 
Ya&EFI2J
WOP4qST
(GrU#b vO$$GNRMC,044314.00,A,0419.78763,S,05539.82980,E,0.299,,210525,,,A*76
$GNVTG,,T,,M,0.299,N,0.554,K,A*3B
$GNGNS,044314.00,0419.78763,S,05539.82980,E,AA,11,0.89,35.3,-47.6,,*6F
$GNGGA,044314.00,0419.78763,S,05539.82980,E,1,11,0.89,35.3,M,-47.6,M,,*45
$GNGSA,A,3,24,20,11,05,13,15,22,12,14,,,,1.66,0.89,1.41*19
$GNGSA,A,3,84,80,,,,,,,,,,,1.66,0.89,1.41*1C
$GPGSV,5,1,18,05,54,145,25,06,00,029,14,11,30,019,24,12,26,356,18*7C
$GPGSV,5,2,18,13,22,164,16,14,06,123,10,15,27,199,21,18,17,225,18*73
$GPGSV,5,3,18,20,50,080,21,22,19,107,16,24,63,262,28,25,04,332,*7D
$GPGSV,5,4,18,29,11,292,06,36,52,277,30,40,86,350,29,41,58,082,*73
$GPGSV,5,5,18,49,32,274,,50,10,089,*78
$GLGSV,3,1,09,69,11,130,,70,13,193,,73,50,008,,74,10,343,*62
$GLGSV,3,2,09,79,07,146,,80,52,113,21,83,07,013,,84,40,327,10*69
$GLGSV,3,3,09,85,35,259,*59
$GNGLL,0419.78763,S,05539.82980,E,044314.00,A,A*6C
$GNGRS,044314.00,1,7.8,-2.7,-2.6,1.4,-10.7,5.0,12.9,-0.5,30.2,,,*4E
$GNGRS,044314.00,1,1.1,4.4,,,,,,,,,,*56
$GNGST,044314.00,5072374,,,,5.5,5.2,15*52
$GNZDA,044314.00,21,05,2025,00,00*7D
$GNGBS,044314.00,5.5,5.2,15.3,,,,*69
$GNTXT,01,01,01,More than 100 frame errors, UART RX was disabled*70
b0Xv6!d{

{E#2P
k?L${4V^:R 
Ya0EFI2J
WOP4qST(G9U#<bvO#$k$GNRMC,044315.00,A,0419.78768,S,05539.82974,E,0.131,,210525,,,A*76
$GNVTG,,T,,M,0.131,N,0.243,K,A*3B
$GNGNS,044315.00,0419.78768,S,05539.82974,E,AA,11,0.89,35.4,-47.6,,*69
$GNGGA,044315.00,0419.78768,S,05539.82974,E,1,11,0.89,35.4,M,-47.6,M,,*43
$GNGSA,A,3,24,20,11,05,13,15,22,12,14,,,,1.66,0.89,1.41*19
$GNGSA,A,3,84,80,,,,,,,,,,,1.66,0.89,1.41*1C
$GPGSV,5,1,18,05,54,145,25,06,00,029,11,11,30,019,23,12,26,356,17*71
$GPGSV,5,2,18,13,22,164,16,14,06,123,10,15,27,199,19,18,17,225,17*77
$GPGSV,5,3,18,20,50,080,20,22,19,107,10,24,63,262,28,25,04,332,*7A
$GPGSV,5,4,18,29,11,292,07,36,52,277,29,40,86,350,27,41,58,082,*74
$GPGSV,5,5,18,49,32,274,,50,10,089,*78
$GLGSV,3,1,09,69,11,130,,70,13,193,,73,50,008,,74,10,343,*62
$GLGSV,3,2,09,79,07,146,,80,52,113,19,83,07,013,,84,40,327,09*6A
$GLGSV,3,3,09,85,35,259,*59
$GNGLL,0419.78768,S,05539.82974,E,044315.00,A,A*6D
$GNGRS,044315.00,1,7.5,-5.7,-4.8,1.8,-11.6,5.5,-15.9,-3.0,177,,,*46
$GNGRS,044315.00,1,147,4.7,,,,,,,,,,*48
$GNGST,044315.00,93,,,,5.7,5.4,15*6D
$GNZDA,044315.00,21,05,2025,00,00*7C
$GNGBS,044315.00,5.7,5.4,15.5,,,,*6A
$GNTXT,01,01,01,More than 100 frame errors, UART RX was disabled*70
b0Xv65dE
{2Pr
k_?'L${4V^:R 
YaMEFI2J
WOP4q9ST(GU#?gbvO~'$BP$GNRMC,044316.00,A,0419.78774,S,05539.82964,E,0.170,,210525,,,A*7C
$GNVTG,,T,,M,0.170,N,0.315,K,A*3C
$GNGNS,044316.00,0419.78774,S,05539.82964,E,AA,11,0.89,35.6,-47.6,,*64
$GNGGA,044316.00,0419.78774,S,05539.82964,E,1,11,0.89,35.6,M,-47.6,M,,*4E
$GNGSA,A,3,24,20,11,05,13,15,22,12,14,,,,1.66,0.89,1.41*19
$GNGSA,A,3,84,80,,,,,,,,,,,1.66,0.89,1.41*1C
$GPGSV,5,1,18,05,54,145,26,06,00,029,09,11,30,019,23,12,26,356,17*7B
$GPGSV,5,2,18,13,22,164,17,14,06,123,09,15,27,199,19,18,17,225,17*7E
$GPGSV,5,3,18,20,50,080,20,22,19,107,10,24,63,262,29,25,04,332,*7B
$GPGSV,5,4,18,29,11,292,,36,52,277,31,40,86,350,28,41,58,082,*75
$GPGSV,5,5,18,49,32,274,,50,10,089,*78
$GLGSV,3,1,09,69,11,130,,70,13,193,,73,50,008,,74,10,343,*62
$GLGSV,3,2,09,79,07,146,,80,52,113,20,83,07,013,,84,40,327,08*61
$GLGSV,3,3,09,85,35,259,*59
$GNGLL,0419.78774,S,05539.82964,E,044316.00,A,A*62
$GNGRS,044316.00,1,3.0,-6.5,-2.8,2.0,-12.8,5.3,13.8,-4.4,29.8,,,*46
$GNGRS,044316.00,1,1.5,5.7,,,,,,,,,,*52
$GNGST,044316.00,3616445,,,,5.8,5.5,16*5E
$GNZDA,044316.00,21,05,2025,00,00*7F
$GNGBS,044316.00,5.8,5.5,15.7,,,,*65
$GNTXT,01,01,01,More than 100 frame errors, UART RX was disabled*70
b0Xv61d
{2P
ky?L${"4V^:R 
YanEFI2J
WOP4qIST(GU#oqbvOf+$$GNRMC,044317.00,A,0419.78766,S,05539.82953,E,0.415,,210525,,,A*7C
$GNVTG,,T,,M,0.415,N,0.769,K,A*35
$GNGNS,044317.00,0419.78766,S,05539.82953,E,AA,11,0.89,35.9,-47.6,,*6D
$GNGGA,044317.00,0419.78766,S,05539.82953,E,1,11,0.89,35.9,M,-47.6,M,,*47
$GNGSA,A,3,24,20,11,05,13,15,22,12,14,,,,1.66,0.89,1.41*19
$GNGSA,A,3,84,80,,,,,,,,,,,1.66,0.89,1.41*1C
$GPGSV,5,1,18,05,54,145,27,06,00,029,09,11,30,019,23,12,26,356,19*74
$GPGSV,5,2,18,13,22,164,20,14,06,123,07,15,27,199,21,18,17,225,18*70
$GPGSV,5,3,18,20,50,080,21,22,19,107,10,24,63,262,30,25,04,332,*72
$GPGSV,5,4,18,29,11,292,,36,52,277,34,40,86,350,29,41,58,082,*71
$GPGSV,5,5,18,49,32,274,,50,10,089,*78
$GLGSV,3,1,09,69,11,130,,70,13,193,,73,50,008,,74,10,343,*62
$GLGSV,3,2,09,79,07,146,,80,52,113,21,83,07,013,,84,40,327,12*6B
$GLGSV,3,3,09,85,35,259,14*5C
$GNGLL,0419.78766,S,05539.82953,E,044317.00,A,A*64
$GNGRS,044317.00,1,5.1,-5.2,-3.8,2.5,-10.6,5.2,14.0,-2.4,30.0,,,*44
$GNGRS,044317.00,1,1.4,5.8,,,,,,,,,,*5D
$GNGST,044317.00,3616447,,,,5.9,5.7,16*5E
$GNZDA,044317.00,21,05,2025,00,00*7E
$GNGBS,044317.00,5.9,5.7,15.8,,,,*68
$GNTXT,01,01,01,More than 100 frame errors, UART RX was disabled*70
b0Xv69dd
{2Pk4?L${!4V^:R 
Y
aEFI2J
WOP4qST(GU#`bvON/$ $GNRMC,044318.00,A,0419.78775,S,05539.82964,E,0.220,,210525,,,A*75
$GNVTG,,T,,M,0.220,N,0.408,K,A*31
$GNGNS,044318.00,0419.78775,S,05539.82964,E,AA,11,0.86,34.7,-47.6,,*64
$GNGGA,044318.00,0419.78775,S,05539.82964,E,1,11,0.86,34.7,M,-47.6,M,,*4E
$GNGSA,A,3,24,20,11,05,13,15,22,12,14,,,,1.59,0.86,1.33*1F
$GNGSA,A,3,84,80,,,,,,,,,,,1.59,0.86,1.33*1A
$GPGSV,5,1,18,05,54,145,28,06,00,029,08,11,30,019,25,12,26,356,20*76
$GPGSV,5,2,18,13,22,164,21,14,06,123,09,15,27,199,22,18,17,225,19*7D
$GPGSV,5,3,18,20,50,080,25,22,19,107,15,24,63,262,31,25,04,332,*72
$GPGSV,5,4,18,29,11,292,,36,52,277,33,40,86,350,30,41,58,082,*7E
$GPGSV,5,5,18,49,32,274,,50,10,089,*78
$GLGSV,3,1,09,69,11,130,,70,13,193,,73,50,008,18,74,10,343,*6B
$GLGSV,3,2,09,79,07,146,,80,52,113,22,83,07,013,,84,40,327,11*6B
$GLGSV,3,3,09,85,35,259,17*5F
$GNGLL,0419.78775,S,05539.82964,E,044318.00,A,A*6D
$GNGRS,044318.00,1,1.7,-8.2,-4.1,3.1,-11.1,7.7,5.6,-3.2,65.8,,,*77
$GNGRS,044318.00,1,8.0,7.0,,,,,,,,,,*55
$GNGST,044318.00,65,,,,5.9,5.7,16*67
$GNZDA,044318.00,21,05,2025,00,00*71
$GNGBS,044318.00,5.9,5.7,15.7,,,,*68
$GNTXT,01,01,01,More than 100 frame errors, UART RX was disabled*70
b0Xv6sd
{Y2PkS ?L${ 4V^:R 
YaEFI2J
WOP4qST(GU#$bvO63$$GNRMC,044319.00,A,0419.78788,S,05539.82957,E,0.044,,210525,,,A*76
$GNVTG,,T,,M,0.044,N,0.081,K,A*34
$GNGNS,044319.00,0419.78788,S,05539.82957,E,AA,11,0.89,34.8,-47.6,,*67
$GNGGA,044319.00,0419.78788,S,05539.82957,E,1,11,0.89,34.8,M,-47.6,M,,*4D
$GNGSA,A,3,24,20,11,05,13,15,22,12,14,,,,1.66,0.89,1.41*19
$GNGSA,A,3,84,80,,,,,,,,,,,1.66,0.89,1.41*1C
$GPGSV,5,1,18,05,54,145,29,06,00,029,08,11,30,019,25,12,26,356,21*76
$GPGSV,5,2,18,13,22,164,21,14,06,123,11,15,27,199,22,18,17,225,19*74
$GPGSV,5,3,18,20,50,080,25,22,19,107,15,24,63,262,32,25,04,332,*71
$GPGSV,5,4,18,29,11,292,,36,52,277,32,40,86,350,29,41,58,082,*77
$GPGSV,5,5,18,49,32,274,,50,10,089,*78
$GLGSV,3,1,09,69,11,130,,70,13,193,,73,50,008,19,74,10,343,*6A
$GLGSV,3,2,09,79,07,146,,80,52,113,22,83,07,013,,84,40,327,13*69
$GLGSV,3,3,09,85,35,259,17*5F
$GNGLL,0419.78788,S,05539.82957,E,044319.00,A,A*6E
$GNGRS,044319.00,1,-0.6,-8.2,-6.5,-0.5,-10.8,11.1,13.6,-5.0,29.9,,,*74
$GNGRS,044319.00,1,1.6,7.6,,,,,,,,,,*5D
$GNGST,044319.00,3588821,,,,5.9,5.8,16*57
$GNZDA,044319.00,21,05,2025,00,00*70
$GNGBS,044319.00,5.9,5.8,15.7,,,,*66
$GNTXT,01,01,01,More than 100 frame errors, UART RX was disabled*70
b0Xv6d(
{j2PkR!?L${!4V^:R 
YaEFI2J
WOP4qST(GU#)!2bvO7$$GNRMC,044320.00,A,0419.78807,S,05539.82928,E,0.398,,210525,,,A*7E
$GNVTG,,T,,M,0.398,N,0.737,K,A*3C
$GNGNS,044320.00,0419.78807,S,05539.82928,E,AA,12,0.78,33.7,-47.6,,*68
$GNGGA,044320.00,0419.78807,S,05539.82928,E,1,12,0.78,33.7,M,-47.6,M,,*42
$GNGSA,A,3,24,20,11,05,13,15,22,12,14,,,,1.59,0.78,1.38*15
$GNGSA,A,3,84,80,85,,,,,,,,,,1.59,0.78,1.38*1D
$GPGSV,5,1,18,05,54,145,30,06,00,029,08,11,30,019,25,12,26,356,20*7F
$GPGSV,5,2,18,13,22,164,22,14,06,123,09,15,27,199,21,18,17,225,19*7D
$GPGSV,5,3,18,20,50,080,25,22,19,107,17,24,63,262,33,25,04,332,*72
$GPGSV,5,4,18,29,11,292,,36,52,277,33,40,86,350,30,41,58,082,*7E
$GPGSV,5,5,18,49,32,274,,50,10,089,*78
$GLGSV,3,1,09,69,11,130,,70,13,193,,73,50,008,19,74,10,343,*6A
$GLGSV,3,2,09,79,07,146,,80,52,113,21,83,07,013,,84,40,327,12*6B
$GLGSV,3,3,09,85,35,259,18*50
$GNGLL,0419.78807,S,05539.82928,E,044320.00,A,A*64
$GNGRS,044320.00,1,2.1,-10.9,-3.2,-0.1,-10.6,11.3,13.6,-4.7,29.6,,,*67
$GNGRS,044320.00,1,1.5,9.7,-2.2,,,,,,,,,*58
$GNGST,044320.00,3438315,,,,5.8,5.7,16*55
$GNZDA,044320.00,21,05,2025,00,00*7A
$GNGBS,044320.00,5.8,5.7,15.6,,,,*63
$GNTXT,01,01,01,More than 100 frame errors, UART RX was disabled*70
b0Xxv"6
d
{2Pk~?L${ 4 V^:R 
YaEFI2jJ
WOP4qST
(GU# bxvO;$zX$GNRMC,044321.00,A,0419.78808,S,05539.82918,E,0.185,,210525,,,A*7D
$GNVTG,,T,,M,0.185,N,0.343,K,A*35
$GNGNS,044321.00,0419.78808,S,05539.82918,E,AA,13,0.76,33.8,-47.6,,*65
$GNGGA,044321.00,0419.78808,S,05539.82918,E,1,12,0.76,33.8,M,-47.6,M,,*4E
$GNGSA,A,3,24,20,11,05,13,15,22,12,14,,,,1.55,0.76,1.35*1A
$GNGSA,A,3,84,80,73,85,,,,,,,,,1.55,0.76,1.35*16
$GPGSV,5,1,18,05,54,145,34,06,00,029,08,11,30,019,25,12,26,356,19*71
$GPGSV,5,2,18,13,22,164,25,14,06,123,09,15,27,199,21,18,17,225,18*7B
$GPGSV,5,3,18,20,50,080,24,22,19,107,17,24,63,262,27,25,04,332,*76
$GPGSV,5,4,18,29,11,292,,36,52,277,32,40,86,350,32,41,58,082,*7D
$GPGSV,5,5,18,49,32,274,,50,10,089,*78
$GLGSV,3,1,09,69,11,130,,70,13,193,,73,50,008,22,74,10,343,*62
$GLGSV,3,2,09,79,07,146,,80,52,113,22,83,07,013,,84,40,327,10*6A
$GLGSV,3,3,09,85,35,259,19*51
$GNGLL,0419.78808,S,05539.82918,E,044321.00,A,A*69
$GNGRS,044321.00,1,-2.8,-10.3,-2.5,-2.7,-10.5,10.4,11.5,-6.1,-8.7,,,*55
$GNGRS,044321.00,1,24.8,9.8,1.1,-6.1,,,,,,,,*45
$GNGST,044321.00,63,,,,5.8,5.7,15*69
$GNZDA,044321.00,21,05,2025,00,00*7B
$GNGBS,044321.00,5.8,5.7,15.5,,,,*61
$GNTXT,01,01,01,More than 100 frame errors, UART RX was disabled*70
b0X`v"6d?a
{2Pak?xL${ 4 V^:R 
YaEFI2:J
WOP4qST
(GU#b`vO>$Q$GNRMC,044322.00,A,0419.78802,S,05539.82904,E,0.288,,210525,,,A*77
$GNVTG,,T,,M,0.288,N,0.533,K,A*3A
$GNGNS,044322.00,0419.78802,S,05539.82904,E,AA,13,0.76,33.2,-47.6,,*6B
$GNGGA,044322.00,0419.78802,S,05539.82904,E,1,12,0.76,33.2,M,-47.6,M,,*40
$GNGSA,A,3,24,20,11,05,13,15,22,12,14,,,,1.55,0.76,1.35*1A
$GNGSA,A,3,84,80,73,85,,,,,,,,,1.55,0.76,1.35*16
$GPGSV,5,1,18,05,54,145,34,06,00,029,08,11,30,019,26,12,26,356,17*7C
$GPGSV,5,2,18,13,22,164,26,14,06,123,07,15,27,199,22,18,17,225,17*7A
$GPGSV,5,3,18,20,50,080,25,22,19,107,17,24,63,262,27,25,04,332,*77
$GPGSV,5,4,18,29,11,292,,36,52,277,32,40,86,350,32,41,58,082,*7D
$GPGSV,5,5,18,49,32,274,,50,10,089,*78
$GLGSV,3,1,09,69,11,130,,70,13,193,,73,50,008,23,74,10,343,*63
$GLGSV,3,2,09,79,07,146,,80,52,113,25,83,07,013,,84,40,327,10*6D
$GLGSV,3,3,09,85,35,259,22*59
$GNGLL,0419.78802,S,05539.82904,E,044322.00,A,A*6D
$GNGRS,044322.00,1,1.2,-11.8,-2.7,-5.3,-6.7,11.9,10.0,-7.0,30.0,,,*55
$GNGRS,044322.00,1,1.4,9.4,0.6,-5.2,,,,,,,,*77
$GNGST,044322.00,4665903,,,,5.6,5.7,15*5A
$GNZDA,044322.00,21,05,2025,00,00*78
$GNGBS,044322.00,5.6,5.7,15.0,,,,*69
$GNTXT,01,01,01,More than 100 frame errors, UART RX was disabled*70
b0XHv"6Zd

{2Pk!?L${ 4V^:R 
YaEFI2J
WOP4q
ST(GU#]bHvOB$)%$GNRMC,044323.00,A,0419.78802,S,05539.82897,E,0.213,,210525,,,A*7F
$GNVTG,,T,,M,0.213,N,0.394,K,A*33
$GNGNS,044323.00,0419.78802,S,05539.82897,E,AA,13,0.76,32.7,-47.6,,*65
$GNGGA,044323.00,0419.78802,S,05539.82897,E,1,12,0.76,32.7,M,-47.6,M,,*4E
$GNGSA,A,3,24,20,11,05,13,15,22,12,14,,,,1.55,0.76,1.35*1A
$GNGSA,A,3,84,80,73,85,,,,,,,,,1.55,0.76,1.35*16
$GPGSV,5,1,18,05,54,145,34,06,00,029,09,11,30,019,25,12,26,356,15*7C
$GPGSV,5,2,18,13,22,164,26,14,06,123,10,15,27,199,21,18,17,225,17*7F
$GPGSV,5,3,18,20,50,080,24,22,19,107,16,24,63,262,33,25,04,332,*72
$GPGSV,5,4,18,29,11,292,,36,52,277,32,40,86,350,31,41,58,082,*7E
$GPGSV,5,5,18,49,32,274,,50,10,089,*78
$GLGSV,3,1,09,69,11,130,,70,13,193,,73,50,008,23,74,10,343,*63
$GLGSV,3,2,09,79,07,146,,80,52,113,26,83,07,013,,84,40,327,14*6A
$GLGSV,3,3,09,85,35,259,23*58
$GNGLL,0419.78802,S,05539.82897,E,044323.00,A,A*67
$GNGRS,044323.00,1,-1.1,-13.6,-1.0,-4.2,-4.9,12.2,7.6,-6.3,30.0,,,*44
$GNGRS,044323.00,1,1.4,7.8,1.8,-10.0,,,,,,,,*4D
$GNGST,044323.00,4665903,,,,5.5,5.6,15*59
$GNZDA,044323.00,21,05,2025,00,00*79
$GNGBS,044323.00,5.5,5.6,14.8,,,,*63
$GNTXT,01,01,01,More than 100 frame errors, UART RX was disabled*70
b0X0v6do

{2P,k ?L${4V^:R 
YaEFI2J
WOP4qST
(GU#YMb0vOF$$GNRMC,044324.00,A,0419.78802,S,05539.82888,E,0.166,,210525,,,A*77
$GNVTG,,T,,M,0.166,N,0.307,K,A*38
$GNGNS,044324.00,0419.78802,S,05539.82888,E,AA,13,0.76,33.4,-47.6,,*6E
$GNGGA,044324.00,0419.78802,S,05539.82888,E,1,12,0.76,33.4,M,-47.6,M,,*45
$GNGSA,A,3,24,20,11,05,13,15,22,12,14,,,,1.55,0.76,1.35*1A
$GNGSA,A,3,84,80,73,85,,,,,,,,,1.55,0.76,1.35*16
$GPGSV,5,1,18,05,54,145,30,06,00,029,,11,30,019,25,12,26,356,14*70
$GPGSV,5,2,18,13,22,164,24,14,06,123,10,15,27,199,19,18,17,225,17*76
$GPGSV,5,3,18,20,50,080,23,22,19,107,14,24,63,262,32,25,04,332,*76
$GPGSV,5,4,18,29,11,292,,36,52,277,31,40,86,350,30,41,58,082,*7C
$GPGSV,5,5,18,49,32,274,,50,10,089,*78
$GLGSV,3,1,09,69,11,130,,70,13,193,,73,50,008,22,74,10,343,*62
$GLGSV,3,2,09,79,07,146,,80,52,113,26,83,07,013,,84,40,327,10*6E
$GLGSV,3,3,09,85,35,259,22*59
$GNGLL,0419.78802,S,05539.82888,E,044324.00,A,A*6E
$GNGRS,044324.00,1,1.5,-14.9,-2.9,-3.8,-5.5,14.1,5.4,-6.6,-116,,,*6E
$GNGRS,044324.00,1,4.8,9.1,1.8,-4.2,,,,,,,,*73
$GNGST,044324.00,71,,,,5.5,5.5,15*60
$GNZDA,044324.00,21,05,2025,00,00*7E
$GNGBS,044324.00,5.5,5.5,14.7,,,,*68
$GNTXT,01,01,01,More than 100 frame errors, UART RX was disabled*70
b0Xv6df
{2P
k ?L${!4V^:R 
YaEFI2J
WOP4qST(GU#MbvOJ$$GNRMC,044325.00,A,0419.78805,S,05539.82885,E,0.199,,210525,,,A*7C
$GNVTG,,T,,M,0.199,N,0.369,K,A*30
$GNGNS,044325.00,0419.78805,S,05539.82885,E,AA,12,0.79,33.7,-47.6,,*68
$GNGGA,044325.00,0419.78805,S,05539.82885,E,1,12,0.79,33.7,M,-47.6,M,,*42
$GNGSA,A,3,24,20,11,05,13,15,12,14,,,,,1.59,0.79,1.38*14
$GNGSA,A,3,84,80,73,85,,,,,,,,,1.59,0.79,1.38*18
$GPGSV,5,1,18,05,54,145,31,06,00,029,,11,30,019,26,12,26,356,14*72
$GPGSV,5,2,18,13,22,164,22,14,06,123,09,15,27,199,18,18,17,225,15*7B
$GPGSV,5,3,18,20,50,080,21,22,19,107,10,24,63,262,32,25,04,332,*70
$GPGSV,5,4,18,29,11,292,,36,52,277,33,40,86,350,29,41,58,082,*76
$GPGSV,5,5,18,49,32,274,,50,10,089,*78
$GLGSV,3,1,09,69,11,130,,70,13,193,,73,50,008,22,74,10,343,*62
$GLGSV,3,2,09,79,07,146,,80,52,113,27,83,07,013,,84,40,327,15*6A
$GLGSV,3,3,09,85,35,259,23*58
$GNGLL,0419.78805,S,05539.82885,E,044325.00,A,A*65
$GNGRS,044325.00,1,0.1,-16.6,-5.3,-4.9,-6.7,14.1,-7.9,30.1,,,,*4B
$GNGRS,044325.00,1,1.6,7.9,-0.9,-4.4,,,,,,,,*54
$GNGST,044325.00,444731,,,,5.5,5.5,15*66
$GNZDA,044325.00,21,05,2025,00,00*7F
$GNGBS,044325.00,5.5,5.5,14.7,,,,*69
$GNTXT,01,01,01,More than 100 frame errors, UART RX was disabled*70
b0Xv6ld|o
{2Pk ?(L${ 4V^:R 
YaEFI2J
WOP4q#ST(GU#T!bvON$]$GNRMC,044326.00,A,0419.78811,S,05539.82886,E,0.172,,210525,,,A*7C
$GNVTG,,T,,M,0.172,N,0.318,K,A*33
$GNGNS,044326.00,0419.78811,S,05539.82886,E,AA,13,0.76,33.5,-47.6,,*61
$GNGGA,044326.00,0419.78811,S,05539.82886,E,1,12,0.76,33.5,M,-47.6,M,,*4A
$GNGSA,A,3,24,20,11,05,13,15,22,12,14,,,,1.55,0.76,1.35*1A
$GNGSA,A,3,84,80,73,85,,,,,,,,,1.55,0.76,1.35*16
$GPGSV,5,1,18,05,54,145,30,06,00,029,,11,30,019,25,12,26,356,13*77
$GPGSV,5,2,18,13,22,164,21,14,06,123,09,15,27,199,15,18,17,225,11*71
$GPGSV,5,3,18,20,50,080,21,22,19,107,11,24,63,262,32,25,04,332,*71
$GPGSV,5,4,18,29,11,292,,36,52,277,32,40,86,350,28,41,58,082,*76
$GPGSV,5,5,18,49,32,274,,50,10,089,*78
$GLGSV,3,1,09,69,11,130,,70,13,193,,73,50,008,20,74,10,343,*60
$GLGSV,3,2,09,79,07,146,,80,52,113,27,83,07,013,,84,40,327,15*6A
$GLGSV,3,3,09,85,35,259,22*59
$GNGLL,0419.78811,S,05539.82886,E,044326.00,A,A*60
$GNGRS,044326.00,1,-4.7,-16.2,-5.1,-4.0,-9.1,14.1,2.9,-3.9,29.9,,,*40
$GNGRS,044326.00,1,1.9,8.0,-3.3,-4.3,,,,,,,,*50
$GNGST,044326.00,437011,,,,5.5,5.5,15*64
$GNZDA,044326.00,21,05,2025,00,00*7C
$GNGBS,044326.00,5.5,5.5,14.8,,,,*65
$GNTXT,01,01,01,More than 100 frame errors, UART RX was disabled*70
b0Xv6L\d{

{x2Pk6 ?L${ 4V^:R 
YaEFI2J
WOP4qVST(GZU#abvOvR$$GNRMC,044327.00,A,0419.78818,S,05539.82889,E,0.234,,210525,,,A*7A
$GNVTG,,T,,M,0.234,N,0.434,K,A*3B
$GNGNS,044327.00,0419.78818,S,05539.82889,E,AA,13,0.76,32.5,-47.6,,*67
$GNGGA,044327.00,0419.78818,S,05539.82889,E,1,12,0.76,32.5,M,-47.6,M,,*4C
$GNGSA,A,3,24,20,11,05,13,15,22,12,14,,,,1.55,0.76,1.35*1A
$GNGSA,A,3,84,80,73,85,,,,,,,,,1.55,0.76,1.35*16
$GPGSV,5,1,18,05,54,145,29,06,00,029,,11,30,019,24,12,26,356,13*7E
$GPGSV,5,2,18,13,22,164,19,14,06,123,10,15,27,199,17,18,17,225,*70
$GPGSV,5,3,18,20,50,080,24,22,19,107,11,24,63,262,32,25,04,332,*74
$GPGSV,5,4,18,29,11,292,,36,52,277,32,40,86,350,29,41,58,082,*77
$GPGSV,5,5,18,49,32,274,,50,10,089,*78
$GLGSV,3,1,09,69,11,130,,70,13,193,,73,50,008,20,74,10,343,*60
$GLGSV,3,2,09,79,07,146,,80,52,113,26,83,07,013,,84,40,327,11*6F
$GLGSV,3,3,09,85,35,259,21*5A
$GNGLL,0419.78818,S,05539.82889,E,044327.00,A,A*67
$GNGRS,044327.00,1,-2.7,-16.4,-4.2,-4.4,-10.1,14.0,10.8,-3.9,81.7,,,*40
$GNGRS,044327.00,1,-11.9,6.0,-3.3,-4.2,,,,,,,,*42
$GNGST,044327.00,62,,,,5.5,5.4,15*60
$GNZDA,044327.00,21,05,2025,00,00*7D
$GNGBS,044327.00,5.5,5.4,14.8,,,,*65
$GNTXT,01,01,01,More than 100 frame errors, UART RX was disabled*70
b0Xv6\d@
{2Pk}#?L${!4!V^:R 
YaEFI2*J
WOP4qST(GU#\bvO^V$`$GNRMC,044328.00,A,0419.78825,S,05539.82890,E,0.081,,210525,,,A*7F
$GNVTG,,T,,M,0.081,N,0.150,K,A*30
$GNGNS,044328.00,0419.78825,S,05539.82890,E,AA,13,0.76,33.0,-47.6,,*6A
$GNGGA,044328.00,0419.78825,S,05539.82890,E,1,12,0.76,33.0,M,-47.6,M,,*41
$GNGSA,A,3,24,20,11,05,13,15,22,12,14,,,,1.55,0.76,1.35*1A
$GNGSA,A,3,84,80,73,85,,,,,,,,,1.55,0.76,1.35*16
$GPGSV,5,1,18,05,54,145,29,06,00,029,,11,30,019,26,12,26,356,15*7A
$GPGSV,5,2,18,13,22,164,20,14,06,123,14,15,27,199,18,18,17,225,*71
$GPGSV,5,3,18,20,50,080,30,22,19,107,18,24,63,262,35,25,04,332,*7F
$GPGSV,5,4,18,29,11,292,,36,52,277,33,40,86,350,33,41,58,082,*7D
$GPGSV,5,5,18,49,32,274,,50,10,089,*78
$GLGSV,3,1,09,69,11,130,,70,13,193,,73,50,008,22,74,10,343,*62
$GLGSV,3,2,09,79,07,146,,80,52,113,25,83,07,013,,84,40,327,11*6C
$GLGSV,3,3,09,85,35,259,23*58
$GNGLL,0419.78825,S,05539.82890,E,044328.00,A,A*6E
$GNGRS,044328.00,1,-3.0,-10.9,-4.2,-11.1,-10.8,15.3,14.0,-4.5,30.5,,,*77
$GNGRS,044328.00,1,2.0,4.3,-2.1,-4.2,,,,,,,,*59
$GNGST,044328.00,3304464,,,,5.5,5.4,15*59
$GNZDA,044328.00,21,05,2025,00,00*72
$GNGBS,044328.00,5.5,5.4,14.8,,,,*6A
$GNTXT,01,01,01,More than 100 frame errors, UART RX was disabled*70
b0Xv6Dd$
{2Pk#?L${"4 V^:R 
YaEFI26J
WOP4qST(GU#bvOFZ$8$GNRMC,044329.00,A,0419.78834,S,05539.82887,E,0.032,,210525,,,A*70
$GNVTG,,T,,M,0.032,N,0.059,K,A*30
$GNGNS,044329.00,0419.78834,S,05539.82887,E,AA,12,0.85,32.8,-47.6,,*69
$GNGGA,044329.00,0419.78834,S,05539.82887,E,1,12,0.85,32.8,M,-47.6,M,,*43
$GNGSA,A,3,24,20,11,05,13,22,12,14,,,,,1.87,0.85,1.66*1B
$GNGSA,A,3,84,80,73,85,,,,,,,,,1.87,0.85,1.66*13
$GPGSV,5,1,18,05,54,145,29,06,00,029,,11,30,019,27,12,26,356,15*7B
$GPGSV,5,2,18,13,22,164,22,14,06,123,14,15,27,199,,18,17,225,*7A
$GPGSV,5,3,18,20,50,080,29,22,19,107,18,24,63,262,35,25,04,332,*77
$GPGSV,5,4,18,29,11,292,,36,52,277,34,40,86,350,32,41,58,082,*7B
$GPGSV,5,5,18,49,32,274,,50,10,089,*78
$GLGSV,3,1,09,69,11,130,,70,13,193,,73,50,008,24,74,10,343,*64
$GLGSV,3,2,09,79,07,146,,80,52,113,26,83,07,013,,84,40,327,13*6D
$GLGSV,3,3,09,85,35,259,25*5E
