$GNTXT,01,01,01,More than 100 frame errors, UART RX was disabled*70
b0LH*-'~
H=qe&
!
"7($K5WK)U{4V_:R 
Y
uAGFJH$yK/L
A9MMIVWLXbH*r?$GNRMC,063523.00,A,0419.94793,S,05539.82516,E,0.178,,230525,,,A*71
$GNVTG,,T,,M,0.178,N,0.330,K,A*33
$GNGNS,063523.00,0419.94793,S,05539.82516,E,AA,15,0.72,27.7,-47.6,,*61
$GNGGA,063523.00,0419.94793,S,05539.82516,E,1,12,0.72,27.7,M,-47.6,M,,*4C
$GNGSA,A,3,24,20,05,13,15,12,18,25,23,,,,1.34,0.72,1.14*10
$GNGSA,A,3,75,87,71,72,76,65,,,,,,,1.34,0.72,1.14*17
$GPGSV,5,1,17,05,45,039,22,10,01,213,,12,72,061,17,13,14,113,23*77
$GPGSV,5,2,17,15,38,144,21,18,33,284,18,20,12,034,10,23,40,208,16*74
$GPGSV,5,3,17,24,36,181,22,25,53,343,25,28,03,297,,29,13,341,*7A
$GPGSV,5,4,17,36,52,277,,40,86,351,,41,58,082,,49,32,274,*7C
$GPGSV,5,5,17,50,10,089,*4A
$GLGSV,3,1,09,65,20,184,17,71,16,070,11,72,36,121,13,75,47,165,18*68
$GLGSV,3,2,09,76,65,313,10,77,18,329,,86,04,013,08,87,14,332,08*6E
$GLGSV,3,3,09,88,07,275,*5B
$GNGLL,0419.94793,S,05539.82516,E,063523.00,A,A*65
$GNGRS,063523.00,1,-12.0,23.6,-3.9,-4.1,10.1,-1.2,-3.1,3.3,2.8,,,*62
$GNGRS,063523.00,1,-16.6,14.3,13.5,2.7,-1.8,7.1,,,,,,*6B
$GNGST,063523.00,3074702,,,,7.4,8.6,15*5A
$GNZDA,063523.00,23,05,2025,00,00*78
$GNGBS,063523.00,7.4,8.6,15.3,,,,*64
$GNTXT,01,01,01,More than 100 frame errors, UART RX was disabled*70
b0L0*-'
H=/qU&e
!1
"('$s5W)U{4V_:R 
Y
uYAGFH$yK/5L
A9&MIV
WL|XWb0*r$GNRMC,063524.00,A,0419.94778,S,05539.82536,E,0.885,,230525,,,A*7A
$GNVTG,,T,,M,0.885,N,1.639,K,A*35
$GNGNS,063524.00,0419.94778,S,05539.82536,E,AA,15,0.72,27.5,-47.6,,*63
$GNGGA,063524.00,0419.94778,S,05539.82536,E,1,12,0.72,27.5,M,-47.6,M,,*4E
$GNGSA,A,3,24,20,05,13,15,12,18,25,23,,,,1.34,0.72,1.14*10
$GNGSA,A,3,75,87,71,72,76,65,,,,,,,1.34,0.72,1.14*17
$GPGSV,5,1,17,05,45,039,25,10,01,213,,12,72,061,20,13,14,113,23*74
$GPGSV,5,2,17,15,38,144,23,18,33,284,18,20,12,034,10,23,40,208,19*79
$GPGSV,5,3,17,24,36,181,22,25,53,343,27,28,03,297,,29,13,341,*78
$GPGSV,5,4,17,36,52,277,,40,86,351,,41,58,082,,49,32,274,*7C
$GPGSV,5,5,17,50,10,089,*4A
$GLGSV,3,1,09,65,20,184,17,71,16,070,18,72,36,121,09,75,47,165,19*6B
$GLGSV,3,2,09,76,65,313,10,77,18,329,,86,04,013,10,87,14,332,08*67
$GLGSV,3,3,09,88,07,275,*5B
$GNGLL,0419.94778,S,05539.82536,E,063524.00,A,A*65
$GNGRS,063524.00,1,-11.6,22.1,-5.5,-4.3,11.3,0.5,-2.1,4.0,3.0,,,*4A
$GNGRS,063524.00,1,-17.4,14.0,12.1,1.6,-2.2,6.9,,,,,,*6B
$GNGST,063524.00,3077341,,,,7.3,8.6,16*59
$GNZDA,063524.00,23,05,2025,00,00*7F
$GNGBS,063524.00,7.3,8.6,15.7,,,,*60
$GNTXT,01,01,01,More than 100 frame errors, UART RX was disabled*70
b0L*-'
H?p&U
!"($!5W)U{4V_:R 
Y
utAGFH$yMK/MLA9.MIVWLTXb*r:w$GNRMC,063526.00,A,0419.94719,S,05539.82535,E,0.082,,230525,,,A*73
$GNVTG,,T,,M,0.082,N,0.151,K,A*32
$GNGNS,063526.00,0419.94719,S,05539.82535,E,AA,15,0.72,26.4,-47.6,,*65
$GNGGA,063526.00,0419.94719,S,05539.82535,E,1,12,0.72,26.4,M,-47.6,M,,*48
$GNGSA,A,3,24,20,05,13,15,12,18,25,23,,,,1.34,0.72,1.14*10
$GNGSA,A,3,75,87,71,72,76,65,,,,,,,1.34,0.72,1.14*17
$GPGSV,5,1,17,05,45,039,23,10,01,213,,12,72,063,23,13,14,112,27*76
$GPGSV,5,2,17,15,38,144,31,18,33,284,25,20,12,034,11,23,40,208,30*7E
$GPGSV,5,3,17,24,36,181,20,25,53,343,33,28,03,297,,29,13,341,*7F
$GPGSV,5,4,17,36,52,277,,40,86,351,,41,58,082,,49,32,274,*7C
$GPGSV,5,5,17,50,10,089,*4A
$GLGSV,3,1,09,65,20,184,19,71,16,070,18,72,36,121,20,75,47,165,30*65
$GLGSV,3,2,09,76,65,313,17,77,18,329,,86,04,013,11,87,14,332,13*6B
$GLGSV,3,3,09,88,07,275,*5B
$GNGLL,0419.94719,S,05539.82535,E,063526.00,A,A*63
$GNGRS,063526.00,1,-8.0,23.0,-8.2,-1.2,3.4,-0.2,-2.8,9.3,-5.8,,,*42
$GNGRS,063526.00,1,-14.6,13.6,10.0,0.8,-4.7,9.2,,,,,,*62
$GNGST,063526.00,3071473,,,,6.7,7.9,15*5D
$GNZDA,063526.00,23,05,2025,00,00*7D
$GNGBS,063526.00,6.7,7.9,14.8,,,,*69
b0L*-'x
H?p&
!&"(@${5Wr)U{4V_:R 
Y
u<AGFLH$yyK/LA9MIVWLBX.b*rw$GNRMC,063527.00,A,0419.94703,S,05539.82551,E,0.162,,230525,,,A*74
$GNVTG,,T,,M,0.162,N,0.300,K,A*3B
$GNGNS,063527.00,0419.94703,S,05539.82551,E,AA,15,0.72,26.4,-47.6,,*6D
$GNGGA,063527.00,0419.94703,S,05539.82551,E,1,12,0.72,26.4,M,-47.6,M,,*40
$GNGSA,A,3,24,20,05,13,15,12,18,25,23,,,,1.34,0.72,1.14*10
$GNGSA,A,3,75,87,71,72,76,65,,,,,,,1.34,0.72,1.14*17
$GPGSV,5,1,17,05,45,039,23,10,01,213,,12,72,063,21,13,14,112,27*74
$GPGSV,5,2,17,15,38,144,31,18,33,284,30,20,12,034,11,23,40,208,31*7B
$GPGSV,5,3,17,24,36,181,21,25,53,343,30,28,03,297,,29,13,341,*7D
$GPGSV,5,4,17,36,52,277,,40,86,351,,41,58,082,,49,32,274,*7C
$GPGSV,5,5,17,50,10,089,*4A
$GLGSV,3,1,09,65,20,184,18,71,16,070,19,72,36,121,20,75,47,165,28*6C
$GLGSV,3,2,09,76,65,313,17,77,18,329,,86,04,013,09,87,14,332,08*68
$GLGSV,3,3,09,88,07,275,*5B
$GNGLL,0419.94703,S,05539.82551,E,063527.00,A,A*6B
$GNGRS,063527.00,1,-9.0,22.6,-6.5,-3.4,5.0,1.5,2.9,1.1,-4.5,,,*4B
$GNGRS,063527.00,1,-11.5,13.5,8.4,1.2,-5.4,9.5,,,,,,*55
$GNGST,063527.00,3071473,,,,6.3,7.4,14*54
$GNZDA,063527.00,23,05,2025,00,00*7C
$GNGBS,063527.00,6.3,7.4,14.2,,,,*6B
$GNTXT,01,01,01,More than 100 frame errors, UART RX was disabled*70
b0L%*-'^
H?p; &^
!
"j($ 5W^)U{4V_:R 
Y
uAGFH$yFK/LA9MIV
WLX9b%*rG$GNRMC,063529.00,A,0419.94679,S,05539.82550,E,0.035,,230525,,,A*74
$GNVTG,,T,,M,0.035,N,0.065,K,A*38
$GNGNS,063529.00,0419.94679,S,05539.82550,E,AA,15,0.72,26.2,-47.6,,*68
$GNGGA,063529.00,0419.94679,S,05539.82550,E,1,12,0.72,26.2,M,-47.6,M,,*45
$GNGSA,A,3,24,20,05,13,15,12,18,25,23,,,,1.34,0.72,1.14*10
$GNGSA,A,3,75,87,71,72,76,65,,,,,,,1.34,0.72,1.14*17
$GPGSV,5,1,17,05,45,039,20,10,01,213,,12,72,063,18,13,14,112,24*7E
$GPGSV,5,2,17,15,38,144,32,18,33,284,27,20,12,034,10,23,40,208,31*7F
$GPGSV,5,3,17,24,36,181,21,25,53,343,32,28,03,297,,29,13,341,*7F
$GPGSV,5,4,17,36,52,277,,40,86,351,,41,58,082,,49,32,274,*7C
$GPGSV,5,5,17,50,10,089,*4A
$GLGSV,3,1,09,65,20,184,17,71,16,070,17,72,36,121,17,75,47,165,25*64
$GLGSV,3,2,09,76,65,313,14,77,18,329,,86,04,013,10,87,14,332,07*6C
$GLGSV,3,3,09,88,07,275,*5B
$GNGLL,0419.94679,S,05539.82550,E,063529.00,A,A*68
$GNGRS,063529.00,1,-10.5,24.1,-6.7,-2.0,3.5,-0.9,1.6,3.5,-3.6,,,*53
$GNGRS,063529.00,1,-5.1,14.7,6.9,-1.9,-5.9,9.4,,,,,,*46
$GNGST,063529.00,3071473,,,,5.9,6.8,14*5E
$GNZDA,063529.00,23,05,2025,00,00*72
$GNGBS,063529.00,5.9,6.8,14.0,,,,*63
$GNTXT,01,01,01,More than 100 frame errors, UART RX was disabled*70
$GNTXT,01,01,01,More than 100 frame errors, UART RX was disabled*70
b0L-*-'W
H?p!&=
!
"? ($ 5W})U{4V_:R 
Y
uFAGFH$ygK/LA9MIVWL5X|b-*rqp$GNRMC,063531.00,A,0419.94657,S,05539.82544,E,0.089,,230525,,,A*73
$GNVTG,,T,,M,0.089,N,0.164,K,A*3F
$GNGNS,063531.00,0419.94657,S,05539.82544,E,AA,15,0.84,25.4,-47.6,,*64
$GNGGA,063531.00,0419.94657,S,05539.82544,E,1,12,0.84,25.4,M,-47.6,M,,*49
$GNGSA,A,3,24,20,05,13,15,12,18,25,23,,,,1.73,0.84,1.51*1B
$GNGSA,A,3,75,87,71,72,76,65,,,,,,,1.73,0.84,1.51*1C
$GPGSV,5,1,17,05,45,039,21,10,01,213,,12,72,063,18,13,14,112,25*7E
$GPGSV,5,2,17,15,38,144,33,18,33,285,27,20,12,034,10,23,40,208,32*7C
$GPGSV,5,3,17,24,36,181,18,25,53,343,32,28,03,297,,29,13,341,*75
$GPGSV,5,4,17,36,52,277,,40,86,351,,41,58,082,,49,32,274,*7C
$GPGSV,5,5,17,50,10,089,*4A
$GLGSV,3,1,09,65,20,184,17,71,16,070,17,72,36,121,16,75,47,165,24*64
$GLGSV,3,2,09,76,65,313,17,77,18,329,,86,04,013,09,87,14,332,09*69
$GLGSV,3,3,09,88,07,275,*5B
$GNGLL,0419.94657,S,05539.82544,E,063531.00,A,A*68
$GNGRS,063531.00,1,-8.4,21.1,-9.4,-0.9,0.6,0.1,4.0,3.8,-0.1,,,*4F
$GNGRS,063531.00,1,0.0,138,4.5,-1.5,-7.8,7.7,,,,,,*4C
$GNGST,063531.00,46,,,,5.5,6.4,14*60
$GNZDA,063531.00,23,05,2025,00,00*7B
$GNGBS,063531.00,5.5,6.4,13.9,,,,*64
$GNTXT,01,01,01,More than 100 frame errors, UART RX was disabled*70
b0Lp1*-'
H?kp&
!"n($ 5W)U{4V_:R 
Y
uAGF7H$yvK/VLA9MIVWLX[,bp1*rH$GNRMC,063532.00,A,0419.94649,S,05539.82529,E,0.025,,230525,,,A*72
$GNVTG,,T,,M,0.025,N,0.045,K,A*3B
$GNGNS,063532.00,0419.94649,S,05539.82529,E,AA,15,0.73,25.1,-47.6,,*6E
$GNGGA,063532.00,0419.94649,S,05539.82529,E,1,12,0.73,25.1,M,-47.6,M,,*43
$GNGSA,A,3,24,20,05,13,15,12,18,25,23,,,,1.41,0.73,1.21*15
$GNGSA,A,3,75,87,71,72,76,65,,,,,,,1.41,0.73,1.21*12
$GPGSV,5,1,17,05,45,039,21,10,01,213,,12,72,063,18,13,14,112,24*7F
$GPGSV,5,2,17,15,38,144,31,18,33,285,26,20,12,034,07,23,40,208,30*7B
$GPGSV,5,3,17,24,36,181,18,25,53,343,32,28,03,297,,29,13,341,*75
$GPGSV,5,4,17,36,52,277,,40,86,351,,41,58,082,,49,32,274,*7C
$GPGSV,5,5,17,50,10,089,*4A
$GLGSV,3,1,09,65,20,184,17,71,16,070,17,72,36,121,17,75,47,165,23*62
$GLGSV,3,2,09,76,65,313,17,77,18,329,,86,04,013,09,87,14,332,11*60
$GLGSV,3,3,09,88,07,275,*5B
$GNGLL,0419.94649,S,05539.82529,E,063532.00,A,A*6F
$GNGRS,063532.00,1,-8.1,24.1,-8.7,-1.1,-1.2,1.1,5.3,5.1,2.3,,,*4E
$GNGRS,063532.00,1,-1.7,14.4,3.1,-1.4,-5.3,7.1,,,,,,*4C
$GNGST,063532.00,3179277,,,,5.4,6.2,14*58
$GNZDA,063532.00,23,05,2025,00,00*78
$GNGBS,063532.00,5.4,6.2,14.0,,,,*6E
$GNTXT,01,01,01,More than 100 frame errors, UART RX was disabled*70
$GNTXT,01,01,01,More than 100 frame errors, UART RX was disabled*70
b0L(=*-'
H?p&
!")$ 5W)U{4V_:R 
Y
uAGFH$yK/LA9NMIVWLX__b(=*r$GNRMC,063535.00,A,0419.94627,S,05539.82495,E,0.207,,230525,,,A*79
$GNVTG,,T,,M,0.207,N,0.384,K,A*37
$GNGNS,063535.00,0419.94627,S,05539.82495,E,AA,15,0.73,24.7,-47.6,,*60
$GNGGA,063535.00,0419.94627,S,05539.82495,E,1,12,0.73,24.7,M,-47.6,M,,*4D
$GNGSA,A,3,24,20,05,13,15,12,18,25,23,,,,1.41,0.73,1.21*15
$GNGSA,A,3,75,87,71,72,76,65,,,,,,,1.41,0.73,1.21*12
$GPGSV,5,1,17,05,45,039,21,10,01,213,,12,72,063,15,13,14,112,23*75
$GPGSV,5,2,17,15,38,144,29,18,33,285,26,20,11,034,09,23,41,208,29*76
$GPGSV,5,3,17,24,36,181,18,25,53,343,32,28,03,297,,29,13,341,*75
$GPGSV,5,4,17,36,52,277,,40,86,351,,41,58,082,,49,32,274,*7C
$GPGSV,5,5,17,50,10,089,*4A
$GLGSV,3,1,09,65,20,184,14,71,16,070,17,72,36,121,19,75,47,165,22*6E
$GLGSV,3,2,09,76,65,313,13,77,18,329,,86,04,013,12,87,14,332,13*6C
$GLGSV,3,3,09,88,07,275,*5B
$GNGLL,0419.94627,S,05539.82495,E,063535.00,A,A*66
$GNGRS,063535.00,1,-5.6,24.5,-11.1,-3.5,1.6,0.2,6.7,5.4,-0.4,,,*7E
$GNGRS,063535.00,1,-0.2,14.5,0.1,-5.8,-6.9,0.1,,,,,,*4B
$GNGST,063535.00,35254,,,,5.1,5.9,14*59
$GNZDA,063535.00,23,05,2025,00,00*7F
$GNGBS,063535.00,5.1,5.9,14.2,,,,*66
b0LA*-'
H?Xp&

!"u)#!5W)U{4V_:R 
Y
uA.GFH$yK/L
A9MIVWLzXDVbA*ru$GNRMC,063536.00,A,0419.94621,S,05539.82495,E,0.512,,230525,,,A*7F
$GNVTG,,T,,M,0.512,N,0.948,K,A*3E
$GNGNS,063536.00,0419.94621,S,05539.82495,E,AA,14,0.74,24.3,-47.6,,*67
$GNGGA,063536.00,0419.94621,S,05539.82495,E,1,12,0.74,24.3,M,-47.6,M,,*4B
$GNGSA,A,3,24,20,05,13,15,12,18,25,23,,,,1.49,0.74,1.30*1A
$GNGSA,A,3,75,87,71,72,65,,,,,,,,1.49,0.74,1.30*1C
$GPGSV,5,1,17,05,45,039,21,10,01,213,,12,72,063,14,13,14,112,24*73
$GPGSV,5,2,17,15,38,144,30,18,33,285,26,20,11,034,12,23,41,208,29*74
$GPGSV,5,3,17,24,35,181,18,25,53,343,33,28,03,297,,29,13,341,*77
$GPGSV,5,4,17,36,52,277,,40,86,351,,41,58,082,,49,32,274,*7C
$GPGSV,5,5,17,50,10,089,*4A
$GLGSV,3,1,09,65,20,184,11,71,16,070,18,72,36,121,20,75,47,165,24*68
$GLGSV,3,2,09,76,65,313,10,77,18,329,,86,04,013,11,87,14,332,12*6D
$GLGSV,3,3,09,88,07,275,*5B
$GNGLL,0419.94621,S,05539.82495,E,063536.00,A,A*63
$GNGRS,063536.00,1,-5.5,24.2,-13.5,-2.6,0.1,-1.7,4.5,0.3,-1.0,,,*55
$GNGRS,063536.00,1,1.4,14.0,-1.0,-7.7,-4.7,,,,,,,*64
$GNGST,063536.00,53214,,,,5.0,5.8,14*5E
$GNZDA,063536.00,23,05,2025,00,00*7C
$GNGBS,063536.00,5.0,5.8,14.3,,,,*64
$GNTXT,01,01,01,More than 100 frame errors, UART RX was disabled*70
$GNTXT,01,01,01,More than 100 frame errors, UART RX was disabled*70
b0LL*-'
H?p4&
!")#v 5V)U{4V_:R 
Y
u)AGFH$yK/LLA9MIV
W
LX2bL*rW/$GNRMC,063539.00,A,0419.94629,S,05539.82461,E,0.183,,230525,,,A*7F
$GNVTG,,T,,M,0.183,N,0.339,K,A*3E
$GNGNS,063539.00,0419.94629,S,05539.82461,E,AA,15,0.72,24.0,-47.6,,*6F
$GNGGA,063539.00,0419.94629,S,05539.82461,E,1,12,0.72,24.0,M,-47.6,M,,*42
$GNGSA,A,3,24,20,05,13,15,12,18,25,23,,,,1.34,0.72,1.14*10
$GNGSA,A,3,75,87,71,72,76,65,,,,,,,1.34,0.72,1.14*17
$GPGSV,5,1,17,05,45,039,22,10,01,213,,12,72,063,17,13,14,112,26*71
$GPGSV,5,2,17,15,38,144,30,18,33,285,26,20,11,034,09,23,41,208,28*7F
$GPGSV,5,3,17,24,35,181,19,25,53,342,32,28,03,297,,29,13,341,*76
$GPGSV,5,4,17,36,52,277,,40,86,351,,41,58,082,27,49,32,274,*79
$GPGSV,5,5,17,50,10,089,*4A
$GLGSV,3,1,09,65,20,184,18,71,16,070,14,72,36,121,20,75,47,165,22*6B
$GLGSV,3,2,09,76,65,313,11,77,18,329,,86,04,013,10,87,14,332,10*6F
$GLGSV,3,3,09,88,07,275,*5B
$GNGLL,0419.94629,S,05539.82461,E,063539.00,A,A*6F
$GNGRS,063539.00,1,-1.4,25.1,-13.6,-2.0,3.9,-6.1,3.9,2.5,9.9,,,*71
$GNGRS,063539.00,1,0.8,14.7,-2.4,-8.2,-5.7,-10.2,,,,,,*5D
$GNGST,063539.00,145589,,,,4.8,5.6,14*63
$GNZDA,063539.00,23,05,2025,00,00*73
$GNGBS,063539.00,4.8,5.6,14.2,,,,*6D
b0LP*-'
H?pr&|
!3")A#z 5V(U{4V_:R 
Y
uAZGFH$yK/L
A9MIVWLX9bP*r?$GNRMC,063540.00,A,0419.94631,S,05539.82453,E,0.161,,230525,,,A*75
$GNVTG,,T,,M,0.161,N,0.298,K,A*38
$GNGNS,063540.00,0419.94631,S,05539.82453,E,AA,15,0.72,24.5,-47.6,,*6C
$GNGGA,063540.00,0419.94631,S,05539.82453,E,1,12,0.72,24.5,M,-47.6,M,,*41
$GNGSA,A,3,24,20,05,13,15,12,18,25,23,,,,1.34,0.72,1.14*10
$GNGSA,A,3,75,87,71,72,76,65,,,,,,,1.34,0.72,1.14*17
$GPGSV,5,1,17,05,45,039,23,10,01,213,,12,72,063,16,13,14,112,26*71
$GPGSV,5,2,17,15,38,144,30,18,33,285,26,20,11,034,13,23,41,208,29*75
$GPGSV,5,3,17,24,35,181,19,25,53,342,32,28,03,296,,29,13,341,*77
$GPGSV,5,4,17,36,52,277,,40,86,351,,41,58,082,28,49,32,274,*76
$GPGSV,5,5,17,50,10,089,*4A
$GLGSV,3,1,09,65,20,184,11,71,16,070,13,72,36,121,21,75,47,165,20*66
$GLGSV,3,2,09,76,65,313,10,77,18,329,,86,04,013,11,87,14,332,13*6C
$GLGSV,3,3,09,88,07,275,*5B
$GNGLL,0419.94631,S,05539.82453,E,063540.00,A,A*69
$GNGRS,063540.00,1,1.2,-51.6,-15.3,-1.4,-3.9,-6.3,3.1,3.9,-1.9,,,*76
$GNGRS,063540.00,1,5.0,-12.9,-1.0,-8.5,2.4,-6.8,,,,,,*6F
$GNGST,063540.00,59,,,,4.7,5.5,14*69
$GNZDA,063540.00,23,05,2025,00,00*7D
$GNGBS,063540.00,4.7,5.5,14.0,,,,*6D
$GNTXT,01,01,01,More than 100 frame errors, UART RX was disabled*70
b0Lh\*-'
H?p&V
!
"N4)#!5V](V{4V_:R 
Y
uAGFH$yK/LA9MIV
WLXbh\*r;$GNRMC,063543.00,A,0419.94655,S,05539.82441,E,0.102,,230525,,,A*72
$GNVTG,,T,,M,0.102,N,0.188,K,A*3F
$GNGNS,063543.00,0419.94655,S,05539.82441,E,AA,13,0.93,24.9,-47.6,,*6B
$GNGGA,063543.00,0419.94655,S,05539.82441,E,1,12,0.93,24.9,M,-47.6,M,,*40
$GNGSA,A,3,20,05,13,15,12,18,25,23,,,,,1.79,0.93,1.52*12
$GNGSA,A,3,75,87,71,72,65,,,,,,,,1.79,0.93,1.52*12
$GPGSV,5,1,17,05,45,039,23,10,01,213,,12,72,063,13,13,14,112,27*75
$GPGSV,5,2,17,15,38,144,28,18,33,285,26,20,11,034,10,23,41,208,29*7F
$GPGSV,5,3,17,24,35,181,21,25,53,342,33,28,03,296,,29,13,342,*7E
$GPGSV,5,4,17,36,52,277,,40,86,351,,41,58,082,,49,32,274,*7C
$GPGSV,5,5,17,50,10,089,*4A
$GLGSV,3,1,09,65,20,184,12,71,16,070,15,72,36,121,20,75,47,165,23*61
$GLGSV,3,2,09,76,65,313,07,77,18,329,,86,04,013,10,87,14,332,13*6B
$GLGSV,3,3,09,88,07,275,*5B
$GNGLL,0419.94655,S,05539.82441,E,063543.00,A,A*6B
$GNGRS,063543.00,1,134,-16.5,-0.2,11.1,-11.1,-3.6,0.9,-7.4,,,,*5D
$GNGRS,063543.00,1,2.5,25.0,-2.7,-10.1,-72.8,,,,,,,*6C
$GNGST,063543.00,49,,,,4.6,5.4,14*6B
$GNZDA,063543.00,23,05,2025,00,00*7E
$GNGBS,063543.00,4.6,5.4,13.9,,,,*60
$GNTXT,01,01,01,More than 100 frame errors, UART RX was disabled*70
$GNTXT,01,01,01,More than 100 frame errors, UART RX was disabled*70
b0L8d*-'
H?p/&T
!")#!5Va(V{4V_:R 
Y
uAA
8GFH$y_K/LA9MIVWLXHb8d*r>$GNRMC,063545.00,A,0419.94671,S,05539.82432,E,0.073,,230525,,,A*71
$GNVTG,,T,,M,0.073,N,0.136,K,A*3D
$GNGNS,063545.00,0419.94671,S,05539.82432,E,AA,15,0.72,25.0,-47.6,,*6E
$GNGGA,063545.00,0419.94671,S,05539.82432,E,1,12,0.72,25.0,M,-47.6,M,,*43
$GNGSA,A,3,24,20,05,13,15,12,18,25,23,,,,1.34,0.72,1.14*10
$GNGSA,A,3,75,87,71,72,76,65,,,,,,,1.34,0.72,1.14*17
$GPGSV,5,1,17,05,45,039,22,10,01,213,,12,72,063,17,13,14,112,28*7F
$GPGSV,5,2,17,15,38,144,28,18,33,285,26,20,11,034,08,23,41,208,29*76
$GPGSV,5,3,17,24,35,181,21,25,53,342,33,28,03,296,,29,13,342,*7E
$GPGSV,5,4,17,36,52,277,,40,86,351,,41,58,082,28,49,32,274,*76
$GPGSV,5,5,17,50,10,089,*4A
$GLGSV,3,1,09,65,20,184,10,71,16,070,16,72,36,121,21,75,47,165,22*60
$GLGSV,3,2,09,76,65,313,12,77,18,329,,86,04,013,09,87,14,332,12*66
$GLGSV,3,3,09,88,07,275,*5B
$GNGLL,0419.94671,S,05539.82432,E,063545.00,A,A*6F
$GNGRS,063545.00,1,2.4,25.0,-15.8,0.5,3.4,-7.9,-3.1,1.0,0.2,,,*52
$GNGRS,063545.00,1,2.3,15.1,-2.9,-9.3,-5.9,5.7,,,,,,*47
$GNGST,063545.00,3076912,,,,4.5,5.3,14*5C
$GNZDA,063545.00,23,05,2025,00,00*78
$GNGBS,063545.00,4.5,5.3,13.7,,,,*6C
b0Ll*-'i
H?pc&)
!c")#"5V(V{4V_:R 
Y
u=A
[GFH$yK/L
A9MIVWLXbl*r$GNRMC,063547.00,A,0419.94683,S,05539.82417,E,0.078,,230525,,,A*72
$GNVTG,,T,,M,0.078,N,0.144,K,A*33
$GNGNS,063547.00,0419.94683,S,05539.82417,E,AA,14,0.77,24.4,-47.6,,*67
$GNGGA,063547.00,0419.94683,S,05539.82417,E,1,12,0.77,24.4,M,-47.6,M,,*4B
$GNGSA,A,3,24,20,05,13,15,12,18,25,23,,,,1.40,0.77,1.17*15
$GNGSA,A,3,75,87,72,76,65,,,,,,,,1.40,0.77,1.17*14
$GPGSV,5,1,17,05,45,039,21,10,01,213,,12,72,063,19,13,14,112,27*7D
$GPGSV,5,2,17,15,38,144,28,18,33,285,26,20,11,034,09,23,41,208,27*79
$GPGSV,5,3,17,24,35,181,22,25,53,342,34,28,03,296,,29,13,342,20*78
$GPGSV,5,4,17,36,52,277,,40,86,351,,41,58,082,,49,32,274,*7C
$GPGSV,5,5,17,50,10,089,*4A
$GLGSV,3,1,09,65,20,184,10,71,16,070,,72,36,121,20,75,47,165,19*6E
$GLGSV,3,2,09,76,65,313,10,77,18,329,,86,04,013,07,87,14,332,16*6E
$GLGSV,3,3,09,88,07,275,*5B
$GNGLL,0419.94683,S,05539.82417,E,063547.00,A,A*67
$GNGRS,063547.00,1,1.4,24.6,-16.9,1.0,0.4,-8.4,-1.6,-0.7,-1.0,,,*53
$GNGRS,063547.00,1,4.5,15.0,-10.2,-5.3,6.0,,,,,,,*7B
$GNGST,063547.00,4496205,,,,4.4,5.1,14*5D
$GNZDA,063547.00,23,05,2025,00,00*7A
$GNGBS,063547.00,4.4,5.1,13.5,,,,*6F
$GNTXT,01,01,01,More than 100 frame errors, UART RX was disabled*70
$GNTXT,01,01,01,More than 100 frame errors, UART RX was disabled*70
b0Ls*-'
H?p. &
!}"z)#'!5V(V{4V_:R 
Y
uAGFH$yxK/LA9:7MIV
W
LFXtbs*rg$GNRMC,063549.00,A,0419.94708,S,05539.82419,E,0.048,,230525,,,A*73
$GNVTG,,T,,M,0.048,N,0.090,K,A*38
$GNGNS,063549.00,0419.94708,S,05539.82419,E,AA,13,0.89,25.0,-47.6,,*66
$GNGGA,063549.00,0419.94708,S,05539.82419,E,1,12,0.89,25.0,M,-47.6,M,,*4D
$GNGSA,A,3,24,20,05,13,15,12,18,25,23,,,,1.77,0.89,1.53*10
$GNGSA,A,3,75,72,76,65,,,,,,,,,1.77,0.89,1.53*1E
$GPGSV,5,1,17,05,45,039,21,10,01,213,,12,72,063,20,13,14,112,29*79
$GPGSV,5,2,17,15,38,144,32,18,33,285,26,20,11,034,08,23,41,208,26*72
$GPGSV,5,3,17,24,35,181,22,25,53,342,33,28,03,296,,29,13,342,19*75
$GPGSV,5,4,17,36,52,277,,40,86,351,,41,58,082,,49,32,274,*7C
$GPGSV,5,5,17,50,10,089,*4A
$GLGSV,3,1,09,65,20,184,21,71,16,070,,72,36,121,23,75,47,165,24*61
$GLGSV,3,2,09,76,65,313,09,77,18,329,,86,04,013,10,87,14,332,10*66
$GLGSV,3,3,09,88,07,275,*5B
$GNGLL,0419.94708,S,05539.82419,E,063549.00,A,A*65
$GNGRS,063549.00,1,3.0,-122,-18.2,-2.1,7.7,-8.2,-3.9,-0.5,-5.3,,,*79
$GNGRS,063549.00,1,4.8,-11.6,141,6.6,,,,,,,,*50
$GNGST,063549.00,67,,,,4.4,5.0,13*6C
$GNZDA,063549.00,23,05,2025,00,00*74
$GNGBS,063549.00,4.4,5.0,13.3,,,,*66
b0L{*-'X
H? p&
!y")#
!5V(V{4V_:R 
Y
uAGFH$yK/LA9MIV
WL/Xib{*r7Ml$GNRMC,063551.00,A,0419.94725,S,05539.82424,E,0.137,,230525,,,A*72
$GNVTG,,T,,M,0.137,N,0.253,K,A*3C
$GNGNS,063551.00,0419.94725,S,05539.82424,E,AA,14,0.80,25.2,-47.6,,*62
$GNGGA,063551.00,0419.94725,S,05539.82424,E,1,12,0.80,25.2,M,-47.6,M,,*4E
$GNGSA,A,3,24,20,05,13,15,12,18,25,23,,,,1.52,0.80,1.29*13
$GNGSA,A,3,75,87,72,76,65,,,,,,,,1.52,0.80,1.29*12
$GPGSV,5,1,17,05,45,039,22,10,01,213,,12,72,063,18,13,14,112,30*79
$GPGSV,5,2,17,15,38,144,31,18,33,285,25,20,11,034,11,23,41,208,26*7A
$GPGSV,5,3,17,24,35,181,23,25,53,342,33,28,03,296,,29,13,342,21*7F
$GPGSV,5,4,17,36,52,277,,40,86,351,,41,58,082,,49,32,274,*7C
$GPGSV,5,5,17,50,10,089,*4A
$GLGSV,3,1,09,65,20,184,22,71,16,070,09,72,36,121,23,75,47,165,23*6C
$GLGSV,3,2,09,76,65,313,13,77,18,329,,86,04,013,10,87,14,332,15*68
$GLGSV,3,3,09,88,07,275,*5B
$GNGLL,0419.94725,S,05539.82424,E,063551.00,A,A*6D
$GNGRS,063551.00,1,2.7,24.9,-17.0,1.3,10.1,-2.2,-3.9,-0.5,-1.0,,,*67
$GNGRS,063551.00,1,3.9,15.8,-10.5,-5.1,6.5,,,,,,,*7F
$GNGST,063551.00,4989,,,,4.3,4.9,13*67
$GNZDA,063551.00,23,05,2025,00,00*7D
$GNGBS,063551.00,4.3,4.9,13.0,,,,*63
b0L*-'
H?p= &
!_"F)#5V(V{4V_:R 
Y
uAlGFH$yK/GLA9MIVWLDXb*r%$GNRMC,063552.00,A,0419.94732,S,05539.82418,E,0.068,,230525,,,A*73
$GNVTG,,T,,M,0.068,N,0.126,K,A*36
$GNGNS,063552.00,0419.94732,S,05539.82418,E,AA,14,0.80,24.8,-47.6,,*63
$GNGGA,063552.00,0419.94732,S,05539.82418,E,1,12,0.80,24.8,M,-47.6,M,,*4F
$GNGSA,A,3,24,20,05,13,15,12,18,25,23,,,,1.52,0.80,1.29*13
$GNGSA,A,3,75,87,72,76,65,,,,,,,,1.52,0.80,1.29*12
$GPGSV,5,1,17,05,45,039,23,10,01,213,,12,72,063,20,13,14,112,29*7B
$GPGSV,5,2,17,15,38,144,32,18,33,285,25,20,11,034,12,23,41,208,27*7B
$GPGSV,5,3,17,24,35,181,20,25,53,342,31,28,03,296,,29,13,342,20*7F
$GPGSV,5,4,17,36,52,277,,40,86,351,,41,58,082,,49,32,274,*7C
$GPGSV,5,5,17,50,10,089,*4A
$GLGSV,3,1,09,65,20,184,21,71,16,070,09,72,36,121,21,75,47,165,23*6D
$GLGSV,3,2,09,76,65,313,11,77,18,329,,86,04,013,12,87,14,332,16*6B
$GLGSV,3,3,09,88,07,275,*5B
$GNGLL,0419.94732,S,05539.82418,E,063552.00,A,A*67
$GNGRS,063552.00,1,5.2,77.5,-17.8,-2.0,5.1,-0.4,-4.2,-0.4,0.2,,,*5A
$GNGRS,063552.00,1,3.3,16.0,-10.6,-28.9,6.2,,,,,,,*4E
$GNGST,063552.00,50,,,,4.3,4.9,13*6D
$GNZDA,063552.00,23,05,2025,00,00*7E
$GNGBS,063552.00,4.3,4.9,12.9,,,,*68
$GNTXT,01,01,01,More than 100 frame errors, UART RX was disabled*70
b0L`*-'
H?pf&g
!")# 5V(V{4V_:R 
Y
u&AGFH$yK/GLA9MIV
WLjXb`*r$GNRMC,063554.00,A,0419.94748,S,05539.82400,E,0.250,,230525,,,A*78
$GNVTG,,T,,M,0.250,N,0.463,K,A*3B
$GNGNS,063554.00,0419.94748,S,05539.82400,E,AA,14,0.77,24.2,-47.6,,*63
$GNGGA,063554.00,0419.94748,S,05539.82400,E,1,12,0.77,24.2,M,-47.6,M,,*4F
$GNTXT,01,01,01,More than 100 frame errors, UART RX was disabled*70
$GNTXT,01,01,01,More than 100 frame errors, UART RX was disabled*70
b0L*-'k
H?p&c
!"r)B#5V(V{4V_:R 
Y
uPAGFH$yK/LA98MIVWL%Xob*r5C$GNRMC,063558.00,A,0419.94775,S,05539.82390,E,0.253,,230525,,,A*77
$GNVTG,,T,,M,0.253,N,0.468,K,A*33
$GNGNS,063558.00,0419.94775,S,05539.82390,E,AA,15,0.77,24.4,-47.6,,*68
$GNGGA,063558.00,0419.94775,S,05539.82390,E,1,12,0.77,24.4,M,-47.6,M,,*45
$GNGSA,A,3,24,20,05,13,15,12,18,25,23,,,,1.40,0.77,1.17*15
$GNGSA,A,3,75,87,71,72,76,65,,,,,,,1.40,0.77,1.17*12
$GPGSV,5,1,17,05,45,039,22,10,01,213,,12,72,063,21,13,14,112,28*7A
$GPGSV,5,2,17,15,38,144,30,18,33,285,21,20,11,034,16,23,41,208,27*79
$GPGSV,5,3,17,24,35,181,21,25,53,342,31,28,03,296,,29,13,342,18*75
$GPGSV,5,4,17,36,52,277,,40,86,351,,41,58,082,,49,32,274,*7C
$GPGSV,5,5,17,50,10,089,*4A
$GLGSV,3,1,09,65,20,184,22,71,16,070,11,72,36,121,22,75,47,165,27*60
$GLGSV,3,2,09,76,65,313,17,77,18,329,,86,04,013,12,87,14,332,11*6A
$GLGSV,3,3,09,88,07,275,*5B
$GNGLL,0419.94775,S,05539.82390,E,063558.00,A,A*69
$GNGRS,063558.00,1,4.1,-21.9,-16.9,-0.5,3.5,12.8,-5.5,2.7,-1.9,,,*6A
$GNGRS,063558.00,1,-6.1,13.2,-57.3,-11.4,-4.6,3.9,,,,,,*67
$GNGST,063558.00,49,,,,4.1,4.9,12*6C
$GNZDA,063558.00,23,05,2025,00,00*74
$GNGBS,063558.00,4.1,4.9,12.4,,,,*6D
$GNTXT,01,01,01,More than 100 frame errors, UART RX was disabled*70
b0L*-'G
H?xp&\
!")#5V(V{4V_:R 
Y
vAG
F@H$yK/=LA9MIV
WLX0b*r%l<$GNRMC,063603.00,A,0419.94759,S,05539.82427,E,0.223,,230525,,,A*78
$GNVTG,,T,,M,0.223,N,0.414,K,A*3F
$GNGNS,063603.00,0419.94759,S,05539.82427,E,AA,13,0.88,23.3,-47.6,,*66
$GNGGA,063603.00,0419.94759,S,05539.82427,E,1,12,0.88,23.3,M,-47.6,M,,*4D
$GNGSA,A,3,24,20,05,13,15,12,25,23,,,,,1.50,0.88,1.21*18
$GNGSA,A,3,75,87,72,76,65,,,,,,,,1.50,0.88,1.21*10
$GPGSV,5,1,17,05,45,039,21,10,01,213,,12,72,063,21,13,14,112,16*74
$GPGSV,5,2,17,15,38,144,25,18,33,285,,20,11,034,12,23,41,208,22*7F
$GPGSV,5,3,17,24,35,181,13,25,53,342,28,28,03,296,,29,13,342,14*70
$GPGSV,5,4,17,36,52,277,,40,86,351,,41,58,082,,49,32,274,*7C
$GPGSV,5,5,17,50,10,089,*4A
$GLGSV,3,1,09,65,20,184,13,71,16,070,10,72,36,121,07,75,47,165,18*68
$GLGSV,3,2,09,76,65,313,18,77,18,329,,86,04,013,10,87,14,332,09*6E
$GLGSV,3,3,09,88,07,275,*5B
$GNGLL,0419.94759,S,05539.82427,E,063603.00,A,A*61
$GNGRS,063603.00,1,10.2,24.4,-17.2,4.3,-1.6,14.0,1.4,-3.2,,,,*79
$GNGRS,063603.00,1,-4.5,-2.4,-28.1,-6.3,5.4,,,,,,,*46
$GNGST,063603.00,86543,,,,4.5,6.0,13*5E
$GNZDA,063603.00,23,05,2025,00,00*79
$GNGBS,063603.00,4.5,6.0,13.4,,,,*6E
b0Lp*-'f
H?p&
!|")#P5V(V{4V_:R 
Y
vAGFH$yK/LA9MIVW
Ld8Xbp*r(C$GNRMC,063604.00,A,0419.94742,S,05539.82427,E,0.816,,230525,,,A*79
$GNVTG,,T,,M,0.816,N,1.512,K,A*35
$GNGNS,063604.00,0419.94742,S,05539.82427,E,AA,13,0.99,23.3,-47.6,,*6B
$GNGGA,063604.00,0419.94742,S,05539.82427,E,1,12,0.99,23.3,M,-47.6,M,,*40
$GNGSA,A,3,24,20,05,13,15,12,25,23,,,,,1.74,0.99,1.43*1A
$GNGSA,A,3,75,87,72,76,65,,,,,,,,1.74,0.99,1.43*12
$GPGSV,5,1,17,05,45,039,20,10,01,213,,12,72,063,22,13,14,112,15*75
$GPGSV,5,2,17,15,38,144,24,18,33,285,23,20,11,034,12,23,41,208,20*7D
$GPGSV,5,3,17,24,35,181,12,25,53,342,28,28,03,296,,29,13,342,12*77
$GPGSV,5,4,17,36,52,277,,40,86,351,,41,58,082,,49,32,274,*7C
$GPGSV,5,5,17,50,10,089,*4A
$GLGSV,3,1,09,65,20,184,12,71,16,070,09,72,36,121,08,75,47,165,18*6E
$GLGSV,3,2,09,76,65,313,17,77,18,329,,86,04,013,11,87,14,332,10*68
$GLGSV,3,3,09,88,07,275,*5B
$GNGLL,0419.94742,S,05539.82427,E,063604.00,A,A*6C
$GNGRS,063604.00,1,11.0,-19.0,-16.9,4.7,-2.8,12.6,1.8,-1.2,,,,*57
$GNGRS,063604.00,1,-3.6,144,-16.0,-5.5,7.9,,,,,,,*77
$GNGST,063604.00,64,,,,4.6,6.4,14*67
$GNZDA,063604.00,23,05,2025,00,00*7E
$GNGBS,063604.00,4.6,6.4,13.7,,,,*6D
$GNTXT,01,01,01,More than 100 frame errors, UART RX was disabled*70
b0LX*-'
H?Qp&
!")#X5V3(V{4V_:R 
Y
vA
GFH$yK/LA9MIVWLX{bX*r,$GNRMC,063605.00,A,0419.94734,S,05539.82426,E,0.256,,230525,,,A*76
$GNVTG,,T,,M,0.256,N,0.474,K,A*3B
$GNGNS,063605.00,0419.94734,S,05539.82426,E,AA,13,0.84,23.3,-47.6,,*66
$GNGGA,063605.00,0419.94734,S,05539.82426,E,1,12,0.84,23.3,M,-47.6,M,,*4D
$GNGSA,A,3,24,05,13,15,12,25,23,,,,,,1.47,0.84,1.20*11
$GNGSA,A,3,75,87,71,72,76,65,,,,,,,1.47,0.84,1.20*1D
$GPGSV,5,1,17,05,45,039,17,10,01,213,,12,72,063,19,13,14,112,19*75
$GPGSV,5,2,17,15,38,144,26,18,33,285,23,20,11,034,06,23,41,208,21*7B
$GPGSV,5,3,17,24,35,181,17,25,53,342,30,28,03,296,,29,13,342,14*7D
$GPGSV,5,4,17,36,52,277,,40,86,351,,41,58,082,,49,32,274,*7C
$GPGSV,5,5,17,50,10,089,*4A
$GLGSV,3,1,09,65,21,183,10,71,16,070,12,72,36,121,13,75,47,165,29*68
$GLGSV,3,2,09,76,65,313,19,77,18,329,,86,04,013,08,87,14,332,11*6F
$GLGSV,3,3,09,88,07,275,*5B
$GNGLL,0419.94734,S,05539.82426,E,063605.00,A,A*6D
$GNGRS,063605.00,1,8.6,-16.6,2.6,-3.0,13.6,5.6,-0.1,,,,,*5B
$GNGRS,063605.00,1,-5.3,15.1,-56.8,2.3,-4.9,7.9,,,,,,*71
$GNGST,063605.00,162595,,,,4.7,6.8,14*65
$GNZDA,063605.00,23,05,2025,00,00*7F
$GNGBS,063605.00,4.7,6.8,14.1,,,,*60
$GNTXT,01,01,01,More than 100 frame errors, UART RX was disabled*70
b0L(*-'
H?pv&
!
")#/ 5V(V{4V_:R 
Y
vA
GFH$y
K/>LA9jMIV
WLX<3b(*r4$GNRMC,063607.00,A,0419.94737,S,05539.82418,E,0.154,,230525,,,A*7B
$GNVTG,,T,,M,0.154,N,0.285,K,A*32
$GNGNS,063607.00,0419.94737,S,05539.82418,E,AA,15,0.77,23.1,-47.6,,*62
$GNGGA,063607.00,0419.94737,S,05539.82418,E,1,12,0.77,23.1,M,-47.6,M,,*4F
$GNGSA,A,3,24,20,05,13,15,12,18,25,23,,,,1.40,0.77,1.17*15
$GNGSA,A,3,75,87,71,72,76,65,,,,,,,1.40,0.77,1.17*12
$GPGSV,5,1,17,05,45,039,19,10,01,213,,12,72,063,20,13,14,112,26*7D
$GPGSV,5,2,17,15,38,144,28,18,33,285,25,20,11,034,10,23,41,208,28*7D
$GPGSV,5,3,17,24,35,181,24,25,53,342,32,28,03,296,,29,13,342,20*78
$GPGSV,5,4,17,36,52,277,,40,86,351,,41,58,082,,49,32,274,*7C
$GPGSV,5,5,17,50,10,089,*4A
$GLGSV,3,1,09,65,21,183,10,71,16,070,16,72,36,121,21,75,47,165,27*63
$GLGSV,3,2,09,76,65,313,20,77,18,329,,86,04,013,10,87,14,332,12*6F
$GLGSV,3,3,09,88,07,275,*5B
$GNGLL,0419.94737,S,05539.82418,E,063607.00,A,A*61
$GNGRS,063607.00,1,-2.1,-121,-13.9,1.2,2.7,11.6,2.2,2.4,1.8,,,*4C
$GNGRS,063607.00,1,-4.5,4.8,-54.7,0.1,-4.1,12.8,,,,,,*7D
$GNGST,063607.00,48,,,,4.7,6.8,14*67
$GNZDA,063607.00,23,05,2025,00,00*7D
$GNGBS,063607.00,4.7,6.8,14.3,,,,*60
b0L*-'
H?pS&
!")#a 5V(V{4V_:R 
Y
vgAGF+H$yK/LA9;MIVWLXJb*r<z$GNRMC,063609.00,A,0419.94733,S,05539.82451,E,0.082,,230525,,,A*76
$GNVTG,,T,,M,0.082,N,0.152,K,A*31
$GNGNS,063609.00,0419.94733,S,05539.82451,E,AA,15,0.77,23.5,-47.6,,*61
$GNGGA,063609.00,0419.94733,S,05539.82451,E,1,12,0.77,23.5,M,-47.6,M,,*4C
$GNGSA,A,3,24,20,05,13,15,12,18,25,23,,,,1.40,0.77,1.17*15
$GNGSA,A,3,75,87,71,72,76,65,,,,,,,1.40,0.77,1.17*12
$GPGSV,5,1,17,05,45,039,22,10,01,213,,12,72,063,20,13,14,112,25*76
$GPGSV,5,2,17,15,38,144,28,18,33,285,25,20,11,034,09,23,41,208,30*7C
$GPGSV,5,3,17,24,35,181,27,25,53,342,32,28,03,296,,29,13,342,21*7A
$GPGSV,5,4,17,36,52,277,,40,86,351,,41,58,082,,49,32,274,*7C
$GPGSV,5,5,17,50,10,089,*4A
$GLGSV,3,1,09,65,21,183,11,71,16,070,16,72,36,121,19,75,47,165,25*6B
$GLGSV,3,2,09,76,65,313,21,77,18,329,,86,04,013,09,87,14,332,17*63
$GLGSV,3,3,09,88,07,275,*5B
$GNGLL,0419.94733,S,05539.82451,E,063609.00,A,A*66
$GNGRS,063609.00,1,-4.2,24.7,-7.8,3.4,1.5,9.0,-7.9,1.4,-1.0,,,*4C
$GNGRS,063609.00,1,-2.8,15.1,-53.3,-3.1,-2.0,6.4,,,,,,*52
$GNGST,063609.00,207999,,,,4.5,6.5,14*66
$GNZDA,063609.00,23,05,2025,00,00*73
$GNGBS,063609.00,4.5,6.5,14.0,,,,*62
$GNTXT,01,01,01,More than 100 frame errors, UART RX was disabled*70
b0L*-'
H?(p&
!Y"v)|#5V(V{4V_:R 
Y
vATGFH$yKK/,LA9MIVWLXPb*ro@R$GNRMC,063610.00,A,0419.94731,S,05539.82450,E,0.145,,230525,,,A*77
$GNVTG,,T,,M,0.145,N,0.269,K,A*30
$GNGNS,063610.00,0419.94731,S,05539.82450,E,AA,15,0.83,23.7,-47.6,,*63
$GNGGA,063610.00,0419.94731,S,05539.82450,E,1,12,0.83,23.7,M,-47.6,M,,*4E
$GNGSA,A,3,24,20,05,13,15,12,18,25,23,,,,1.47,0.83,1.22*1F
$GNGSA,A,3,75,87,71,72,76,65,,,,,,,1.47,0.83,1.22*18
$GPGSV,5,1,17,05,45,039,24,10,01,213,,12,72,063,23,13,14,112,25*73
$GPGSV,5,2,17,15,38,144,28,18,33,285,25,20,11,034,12,23,41,208,29*7E
$GPGSV,5,3,17,24,35,181,27,25,53,342,31,28,03,296,,29,13,342,21*79
$GPGSV,5,4,17,36,52,277,,40,86,351,,41,58,082,,49,32,274,*7C
$GPGSV,5,5,17,50,10,089,*4A
$GLGSV,3,1,09,65,21,183,11,71,16,070,16,72,36,121,21,75,47,165,24*61
$GLGSV,3,2,09,76,65,313,21,77,18,329,,86,04,013,11,87,14,332,15*68
$GLGSV,3,3,09,88,07,275,*5B
$GNGLL,0419.94731,S,05539.82450,E,063610.00,A,A*6D
$GNGRS,063610.00,1,-4.8,-122,-8.3,1.4,1.4,5.5,3.5,2.1,-1.3,,,*63
$GNGRS,063610.00,1,-2.1,15.3,-53.5,-4.4,-0.1,-140,,,,,,*62
$GNGST,063610.00,43,,,,4.5,6.3,14*63
$GNZDA,063610.00,23,05,2025,00,00*7B
$GNGBS,063610.00,4.5,6.3,13.7,,,,*6C
b0L*-'
H?p&
!m")#& 5V(V{4V_:R 
Y
vPAaGEH$y?K/GLA9MIVWLXHb*rWD*j$GNRMC,063611.00,A,0419.94728,S,05539.82459,E,0.091,,230525,,,A*7F
$GNVTG,,T,,M,0.091,N,0.168,K,A*3A
$GNGNS,063611.00,0419.94728,S,05539.82459,E,AA,15,0.77,24.0,-47.6,,*68
$GNGGA,063611.00,0419.94728,S,05539.82459,E,1,12,0.77,24.0,M,-47.6,M,,*45
$GNGSA,A,3,24,20,05,13,15,12,18,25,23,,,,1.40,0.77,1.17*15
$GNGSA,A,3,75,87,71,72,76,65,,,,,,,1.40,0.77,1.17*12
$GPGSV,5,1,17,05,45,039,23,10,01,213,,12,72,063,24,13,14,112,25*73
$GPGSV,5,2,17,15,38,144,29,18,33,285,26,20,11,034,09,23,41,208,29*76
$GPGSV,5,3,17,24,35,181,27,25,53,342,32,28,03,296,,29,13,342,21*7A
$GPGSV,5,4,17,36,52,277,,40,86,351,,41,58,082,,49,32,274,*7C
$GPGSV,5,5,17,50,10,089,*4A
$GLGSV,3,1,09,65,21,183,08,71,15,069,16,72,36,121,20,75,47,165,24*63
$GLGSV,3,2,09,76,65,313,22,77,18,329,,86,04,013,08,87,14,332,14*62
$GLGSV,3,3,09,88,07,275,*5B
$GNGLL,0419.94728,S,05539.82459,E,063611.00,A,A*6D
$GNGRS,063611.00,1,-4.7,24.8,-7.8,1.8,7.1,5.2,1.1,4.0,-2.5,,,*69
$GNGRS,063611.00,1,-1.9,15.2,-52.0,-4.5,-1.1,6.1,,,,,,*5C
$GNGST,063611.00,4533,,,,4.4,6.2,14*64
$GNZDA,063611.00,23,05,2025,00,00*7A
$GNGBS,063611.00,4.4,6.2,13.5,,,,*6F
b0L*-'1
H?p&:
!
")m#!5V(V{4V_:R 
Y
vA
EGEH$xK/LA9MIVWLX#b*r?H$GNRMC,063612.00,A,0419.94727,S,05539.82462,E,0.142,,230525,,,A*74
$GNVTG,,T,,M,0.142,N,0.264,K,A*3A
$GNGNS,063612.00,0419.94727,S,05539.82462,E,AA,15,0.77,23.8,-47.6,,*63
$GNGGA,063612.00,0419.94727,S,05539.82462,E,1,12,0.77,23.8,M,-47.6,M,,*4E
$GNGSA,A,3,24,20,05,13,15,12,18,25,23,,,,1.40,0.77,1.17*15
$GNGSA,A,3,75,87,71,72,76,65,,,,,,,1.40,0.77,1.17*12
$GPGSV,5,1,17,05,45,039,22,10,01,213,,12,72,063,23,13,14,112,26*76
$GPGSV,5,2,17,15,38,144,29,18,33,285,26,20,11,034,10,23,41,208,30*76
$GPGSV,5,3,17,24,35,181,27,25,53,342,33,28,03,296,,29,13,342,21*7B
$GPGSV,5,4,17,36,52,277,,40,86,351,,41,58,082,,49,32,274,*7C
$GPGSV,5,5,17,50,10,089,*4A
$GLGSV,3,1,09,65,21,183,10,71,15,069,15,72,36,120,20,75,47,165,25*69
$GLGSV,3,2,09,76,65,313,24,77,18,329,,86,04,013,11,87,14,332,13*6B
$GLGSV,3,3,09,88,07,275,*5B
$GNGLL,0419.94727,S,05539.82462,E,063612.00,A,A*69
$GNGRS,063612.00,1,-3.7,24.6,-7.2,2.0,5.7,2.8,4.5,-2.4,-1.5,,,*46
$GNGRS,063612.00,1,-0.4,15.2,-49.9,-3.3,-0.1,5.8,,,,,,*5A
$GNGST,063612.00,6799,,,,4.4,6.1,13*63
$GNZDA,063612.00,23,05,2025,00,00*79
$GNGBS,063612.00,4.4,6.1,13.4,,,,*6E
b0L*-'
H?pB&b
!")# 5V(V{4V_:R 
Y
vaAZGE.H$xK/FLA9MIVWLXb*rP$GNRMC,063614.00,A,0419.94710,S,05539.82460,E,0.088,,230525,,,A*73
$GNVTG,,T,,M,0.088,N,0.163,K,A*39
$GNGNS,063614.00,0419.94710,S,05539.82460,E,AA,15,0.77,23.0,-47.6,,*6B
$GNGGA,063614.00,0419.94710,S,05539.82460,E,1,12,0.77,23.0,M,-47.6,M,,*46
$GNGSA,A,3,24,20,05,13,15,12,18,25,23,,,,1.40,0.77,1.17*15
$GNGSA,A,3,75,87,71,72,76,65,,,,,,,1.40,0.77,1.17*12
$GPGSV,5,1,17,05,45,039,25,10,01,213,,12,72,063,22,13,14,112,26*70
$GPGSV,5,2,17,15,38,144,28,18,33,285,26,20,11,034,09,23,41,208,30*7F
$GPGSV,5,3,17,24,35,181,27,25,53,342,32,28,03,296,,29,13,342,21*7A
$GPGSV,5,4,17,36,52,277,,40,86,351,,41,58,082,,49,32,274,*7C
$GPGSV,5,5,17,50,10,089,*4A
$GLGSV,3,1,09,65,21,183,14,71,15,069,11,72,36,120,19,75,47,165,22*64
$GLGSV,3,2,09,76,65,313,20,77,18,329,,86,04,013,13,87,14,332,12*6C
$GLGSV,3,3,09,88,07,275,*5B
$GNGLL,0419.94710,S,05539.82460,E,063614.00,A,A*69
$GNGRS,063614.00,1,-5.5,24.7,-6.2,3.2,3.5,2.3,-0.7,-0.4,-6.4,,,*67
$GNGRS,063614.00,1,-1.9,14.9,-53.3,-4.8,2.9,6.0,,,,,,*7B
$GNGST,063614.00,184248,,,,4.3,5.8,13*6A
$GNZDA,063614.00,23,05,2025,00,00*7F
$GNGBS,063614.00,4.3,5.8,13.1,,,,*60
$GNTXT,01,01,01,More than 100 frame errors, UART RX was disabled*70
$GNTXT,01,01,01,More than 100 frame errors, UART RX was disabled*70
b0L8*-'
H?`pi&m
!
" )#?5V(V{4V_:R 
Y
vsATGEH$xK.XLA7MHV
WLXmb8*r[9$GNRMC,063617.00,A,0419.94699,S,05539.82474,E,0.108,,230525,,,A*7C
$GNVTG,,T,,M,0.108,N,0.200,K,A*36
$GNGNS,063617.00,0419.94699,S,05539.82474,E,AA,14,0.79,23.2,-47.6,,*60
$GNGGA,063617.00,0419.94699,S,05539.82474,E,1,12,0.79,23.2,M,-47.6,M,,*4C
$GNGSA,A,3,24,20,05,13,15,12,18,25,23,,,,1.42,0.79,1.18*16
$GNGSA,A,3,75,87,71,76,65,,,,,,,,1.42,0.79,1.18*14
$GPGSV,5,1,17,05,45,039,30,10,01,213,,12,72,063,29,13,14,112,27*7E
$GPGSV,5,2,17,15,38,144,31,18,33,285,25,20,11,034,10,23,41,208,32*7E
$GPGSV,5,3,17,24,35,181,26,25,53,342,30,28,03,296,,29,13,342,23*7B
$GPGSV,5,4,17,36,52,277,,40,86,351,,41,58,082,,49,32,274,*7C
$GPGSV,5,5,17,50,10,089,*4A
$GLGSV,3,1,09,65,21,183,12,71,15,069,14,72,36,120,,75,46,165,20*6C
$GLGSV,3,2,09,76,65,311,23,77,19,328,,86,04,013,10,87,14,332,13*6F
$GLGSV,3,3,09,88,07,275,*5B
$GNGLL,0419.94699,S,05539.82474,E,063617.00,A,A*6F
$GNGRS,063617.00,1,-4.5,24.7,-0.8,3.6,3.6,-1.6,-2.3,2.8,0.2,,,*4D
$GNGRS,063617.00,1,0.9,14.9,-51.2,4.3,6.0,,,,,,,*54
$GNGST,063617.00,4665903,,,,4.1,5.5,13*5E
$GNZDA,063617.00,23,05,2025,00,00*7C
$GNGBS,063617.00,4.1,5.5,12.8,,,,*64
b0L *-'
H?p&Z
!p")#!5V?(V{4V_:R 
Y
vKAQGEaH$xK.LA7>MHV
WLX~b *r_?$GNRMC,063618.00,A,0419.94694,S,05539.82481,E,0.155,,230525,,,A*7C
$GNVTG,,T,,M,0.155,N,0.288,K,A*3E
$GNGNS,063618.00,0419.94694,S,05539.82481,E,AA,14,0.79,23.2,-47.6,,*68
$GNGGA,063618.00,0419.94694,S,05539.82481,E,1,12,0.79,23.2,M,-47.6,M,,*44
$GNGSA,A,3,24,20,05,13,15,12,18,25,23,,,,1.42,0.79,1.18*16
$GNGSA,A,3,75,87,71,76,65,,,,,,,,1.42,0.79,1.18*14
$GPGSV,5,1,17,05,45,039,29,10,01,213,,12,72,063,26,13,14,112,26*78
$GPGSV,5,2,17,15,38,144,30,18,33,285,23,20,11,034,07,23,41,208,31*7C
$GPGSV,5,3,17,24,35,181,25,25,53,342,33,28,03,296,,29,13,342,23*7B
$GPGSV,5,4,17,36,52,277,,40,86,351,,41,58,082,,49,32,274,*7C
$GPGSV,5,5,17,50,10,089,*4A
$GLGSV,3,1,09,65,21,183,09,71,15,069,15,72,36,120,,75,46,165,19*6D
$GLGSV,3,2,09,76,65,311,22,77,19,328,,86,04,013,10,87,14,332,13*6E
$GLGSV,3,3,09,88,07,275,*5B
$GNGLL,0419.94694,S,05539.82481,E,063618.00,A,A*67
$GNGRS,063618.00,1,-3.2,24.4,-3.0,4.4,0.9,-3.4,-1.4,3.2,-2.3,,,*62
$GNGRS,063618.00,1,-2.3,15.0,-52.8,3.2,5.9,,,,,,,*73
$GNGST,063618.00,4665903,,,,4.1,5.4,13*50
$GNZDA,063618.00,23,05,2025,00,00*73
$GNGBS,063618.00,4.1,5.4,12.8,,,,*6A
b0L*-'G
H?op&
!
")#]!5V(V{4V_:R 
Y
vGA
GEH$xK.LA7MHV
WL,XBb*rc$GNRMC,063619.00,A,0419.94690,S,05539.82485,E,0.040,,230525,,,A*78
$GNVTG,,T,,M,0.040,N,0.074,K,A*3A
$GNGNS,063619.00,0419.94690,S,05539.82485,E,AA,14,0.85,23.2,-47.6,,*6A
$GNGGA,063619.00,0419.94690,S,05539.82485,E,1,12,0.85,23.2,M,-47.6,M,,*46
$GNGSA,A,3,24,20,05,13,15,12,18,25,23,,,,1.49,0.85,1.22*17
$GNGSA,A,3,75,87,71,76,65,,,,,,,,1.49,0.85,1.22*15
$GPGSV,5,1,17,05,45,039,22,10,01,213,,12,72,063,25,13,14,112,27*71
$GPGSV,5,2,17,15,38,144,30,18,33,285,22,20,11,034,09,23,41,208,30*72
$GPGSV,5,3,17,24,35,181,26,25,53,342,33,28,03,296,,29,13,342,22*79
$GPGSV,5,4,17,36,52,277,,40,86,351,,41,58,082,,49,32,274,*7C
$GPGSV,5,5,17,50,10,089,*4A
$GLGSV,3,1,09,65,21,183,09,71,15,069,15,72,36,120,,75,46,165,21*66
$GLGSV,3,2,09,76,65,311,22,77,19,328,,86,04,013,10,87,14,332,14*69
$GLGSV,3,3,09,88,07,275,*5B
$GNGLL,0419.94690,S,05539.82485,E,063619.00,A,A*66
$GNGRS,063619.00,1,-4.2,-69.4,-1.8,2.4,-0.1,-6.6,0.1,-0.4,-3.1,,,*6C
$GNGRS,063619.00,1,-5.5,-4.7,-54.3,2.1,27.0,,,,,,,*5F
$GNGST,063619.00,47,,,,4.0,5.4,13*68
$GNZDA,063619.00,23,05,2025,00,00*72
$GNGBS,063619.00,4.0,5.4,12.7,,,,*65
b0L*-'
H?]p&_
!")#@ 5V(V{4V_:R 
Y
vRA
<GEbH$x?K.LA7MHVWLXob*rgkh$GNRMC,063621.00,A,0419.94682,S,05539.82495,E,0.102,,230525,,,A*76
$GNVTG,,T,,M,0.102,N,0.188,K,A*3F
$GNGNS,063621.00,0419.94682,S,05539.82495,E,AA,14,0.79,23.0,-47.6,,*62
$GNGGA,063621.00,0419.94682,S,05539.82495,E,1,12,0.79,23.0,M,-47.6,M,,*4E
$GNGSA,A,3,24,20,05,13,15,12,18,25,23,,,,1.42,0.79,1.18*16
$GNGSA,A,3,75,87,71,76,65,,,,,,,,1.42,0.79,1.18*14
$GPGSV,5,1,17,05,45,039,24,10,01,213,,12,72,063,26,13,14,112,27*74
$GPGSV,5,2,17,15,38,144,29,18,33,285,25,20,11,034,12,23,41,208,30*77
$GPGSV,5,3,17,24,35,181,29,25,53,342,32,28,03,296,,29,13,342,22*77
$GPGSV,5,4,17,36,52,277,,40,86,351,,41,58,082,,49,32,274,*7C
$GPGSV,5,5,17,50,10,089,*4A
$GLGSV,3,1,09,65,21,183,10,71,15,069,16,72,36,120,20,75,46,165,18*65
$GLGSV,3,2,09,76,65,311,23,77,19,328,,86,04,013,13,87,14,332,11*6E
$GLGSV,3,3,09,88,07,275,*5B
$GNGLL,0419.94682,S,05539.82495,E,063621.00,A,A*6F
$GNGRS,063621.00,1,-4.5,24.7,9.0,2.6,3.5,-9.3,-3.0,-0.1,-3.2,,,*61
$GNGRS,063621.00,1,1.7,14.8,-57.9,4.2,5.7,,,,,,,*57
$GNGST,063621.00,4665903,,,,4.0,5.3,13*5C
$GNZDA,063621.00,23,05,2025,00,00*79
$GNGBS,063621.00,4.0,5.3,12.6,,,,*68
b0L*-'I
H?up1&9
!n"):#O 5V(V{4V_:R 
Y
vAGE;H$x!K.(LA7MHVWL/
X~b*rOop$GNRMC,063622.00,A,0419.94678,S,05539.82501,E,0.138,,230525,,,A*75
$GNVTG,,T,,M,0.138,N,0.256,K,A*36
$GNGNS,063622.00,0419.94678,S,05539.82501,E,AA,14,0.97,23.2,-47.6,,*6A
$GNGGA,063622.00,0419.94678,S,05539.82501,E,1,12,0.97,23.2,M,-47.6,M,,*46
$GNGSA,A,3,24,20,05,13,15,12,18,25,23,,,,1.88,0.97,1.61*1E
$GNGSA,A,3,75,87,71,76,65,,,,,,,,1.88,0.97,1.61*1C
$GPGSV,5,1,17,05,45,039,24,10,01,213,,12,72,063,26,13,14,112,26*75
$GPGSV,5,2,17,15,38,144,30,18,33,285,24,20,11,034,09,23,41,208,29*7C
$GPGSV,5,3,17,24,35,181,29,25,53,342,32,28,03,296,,29,13,342,21*74
$GPGSV,5,4,17,36,52,277,,40,86,351,,41,58,082,,49,32,274,*7C
$GPGSV,5,5,17,50,10,089,*4A
$GLGSV,3,1,09,65,21,183,12,71,15,069,16,72,36,120,19,75,46,165,19*6C
$GLGSV,3,2,09,76,65,311,23,77,19,328,,86,04,013,09,87,14,332,14*60
$GLGSV,3,3,09,88,07,275,*5B
$GNGLL,0419.94678,S,05539.82501,E,063622.00,A,A*65
$GNGRS,063622.00,1,-6.9,24.5,3.3,0.5,5.7,-11.6,-1.5,4.3,0.6,,,*58
$GNGRS,063622.00,1,3.0,26.1,-55.7,2.2,22.4,,,,,,,*65
$GNGST,063622.00,37,,,,4.0,5.2,13*61
$GNZDA,063622.00,23,05,2025,00,00*7A
$GNGBS,063622.00,4.0,5.2,12.5,,,,*69
b0L*-'
H?tp1&
!{")#G5VI(V{4V_:R 
Y
vA
JGE?H$xK.LA7MHVWLXQb*rw $GNRMC,063624.00,A,0419.94678,S,05539.82496,E,0.093,,230525,,,A*7C
$GNVTG,,T,,M,0.093,N,0.172,K,A*33
$GNGNS,063624.00,0419.94678,S,05539.82496,E,AA,15,0.79,23.0,-47.6,,*60
$GNGGA,063624.00,0419.94678,S,05539.82496,E,1,12,0.79,23.0,M,-47.6,M,,*4D
$GNGSA,A,3,24,20,05,13,15,12,18,25,23,,,,1.42,0.79,1.18*16
$GNGSA,A,3,75,87,71,72,76,65,,,,,,,1.42,0.79,1.18*11
$GPGSV,5,1,17,05,45,039,29,10,01,213,,12,72,063,26,13,14,112,25*7B
$GPGSV,5,2,17,15,38,144,31,18,33,285,25,20,11,034,09,23,41,208,30*74
$GPGSV,5,3,17,24,35,181,28,25,53,342,25,28,03,296,,29,13,342,22*70
$GPGSV,5,4,17,36,52,277,,40,86,351,,41,58,082,,49,32,274,*7C
$GPGSV,5,5,17,50,10,089,*4A
$GLGSV,3,1,09,65,21,183,10,71,15,069,17,72,36,120,17,75,46,165,18*60
$GLGSV,3,2,09,76,65,311,23,77,19,328,,86,04,013,07,87,14,332,08*63
$GLGSV,3,3,09,88,07,275,*5B
$GNGLL,0419.94678,S,05539.82496,E,063624.00,A,A*6C
$GNGRS,063624.00,1,-1.9,25.1,-2.8,-2.1,2.7,-11.6,-1.3,5.8,-3.8,,,*7B
$GNGRS,063624.00,1,3.9,14.5,-55.7,-52.4,0.3,5.9,,,,,,*64
$GNGST,063624.00,3305321,,,,3.9,5.1,12*5A
$GNZDA,063624.00,23,05,2025,00,00*7C
$GNGBS,063624.00,3.9,5.1,12.5,,,,*62
b0Lx+-'
H?,p&#
!"9)#n5Vr(V{4V_:R 
Y
vAxGEH$xK.LA77MHVWLXbx+r{$GNRMC,063625.00,A,0419.94673,S,05539.82494,E,0.036,,230525,,,A*7B
$GNVTG,,T,,M,0.036,N,0.067,K,A*39
$GNGNS,063625.00,0419.94673,S,05539.82494,E,AA,15,0.92,22.7,-47.6,,*6B
$GNGGA,063625.00,0419.94673,S,05539.82494,E,1,12,0.92,22.7,M,-47.6,M,,*46
$GNGSA,A,3,24,20,05,13,15,12,18,25,23,,,,1.81,0.92,1.56*16
$GNGSA,A,3,75,87,71,72,76,65,,,,,,,1.81,0.92,1.56*11
$GPGSV,5,1,17,05,45,039,29,10,01,213,,12,72,063,26,13,14,112,24*7A
$GPGSV,5,2,17,15,38,144,31,18,33,285,24,20,11,034,08,23,41,208,31*75
$GPGSV,5,3,17,24,35,181,26,25,53,342,26,28,03,296,,29,13,342,22*7D
$GPGSV,5,4,17,36,52,277,,40,86,351,,41,58,082,,49,32,274,*7C
$GPGSV,5,5,17,50,10,089,*4A
$GLGSV,3,1,09,65,21,183,11,71,15,069,17,72,36,120,19,75,46,165,17*60
$GLGSV,3,2,09,76,65,311,24,77,19,328,,86,04,013,08,87,14,332,07*64
$GLGSV,3,3,09,88,07,275,*5B
$GNGLL,0419.94673,S,05539.82494,E,063625.00,A,A*64
$GNGRS,063625.00,1,1.1,148,0.0,-1.1,0.3,-12.4,-0.4,8.8,-3.8,,,*52
$GNGRS,063625.00,1,2.0,-97.4,-57.5,-46.0,0.6,16.6,,,,,,*73
$GNGST,063625.00,48,,,,3.9,5.1,12*62
$GNZDA,063625.00,23,05,2025,00,00*7D
$GNGBS,063625.00,3.9,5.1,12.5,,,,*63
b0LH+-'
H?<p&
!]")#j5Vq(V{4V_:R 
Y
vfAQGEH$xK.LA7$MHVWLXbH+r$GNRMC,063627.00,A,0419.94661,S,05539.82492,E,0.111,,230525,,,A*78
$GNVTG,,T,,M,0.111,N,0.205,K,A*3B
$GNGNS,063627.00,0419.94661,S,05539.82492,E,AA,15,0.79,22.6,-47.6,,*68
$GNGGA,063627.00,0419.94661,S,05539.82492,E,1,12,0.79,22.6,M,-47.6,M,,*45
$GNGSA,A,3,24,20,05,13,15,12,18,25,23,,,,1.42,0.79,1.18*16
$GNGSA,A,3,75,87,71,72,76,65,,,,,,,1.42,0.79,1.18*11
$GPGSV,5,1,17,05,45,039,27,10,01,213,,12,72,063,26,13,14,112,25*75
$GPGSV,5,2,17,15,38,144,31,18,33,285,23,20,11,034,12,23,41,208,30*78
$GPGSV,5,3,17,24,35,181,27,25,53,342,30,28,03,296,,29,13,342,21*78
$GPGSV,5,4,17,36,52,277,,40,86,351,,41,58,082,,49,32,274,*7C
$GPGSV,5,5,17,50,10,089,*4A
$GLGSV,3,1,09,65,21,183,09,71,15,069,14,72,36,120,16,75,46,165,16*64
$GLGSV,3,2,09,76,65,311,21,77,19,328,,86,03,013,07,87,14,332,09*67
$GLGSV,3,3,09,88,07,275,*5B
$GNGLL,0419.94661,S,05539.82492,E,063627.00,A,A*63
$GNGRS,063627.00,1,-6.6,24.6,2.0,-3.7,-0.7,-14.8,-1.6,3.7,-2.3,,,*76
$GNGRS,063627.00,1,6.5,14.7,-65.0,-38.1,2.9,5.9,,,,,,*69
$GNGST,063627.00,3304176,,,,3.9,5.0,12*59
$GNZDA,063627.00,23,05,2025,00,00*7F
$GNGBS,063627.00,3.9,5.0,12.5,,,,*60
b0L0+-'
H?pT&
!d"R)C#5V|(V{4V_:R 
Y
vAGEH$xKK.LA7MHVWLXb0+rK$GNRMC,063628.00,A,0419.94657,S,05539.82481,E,0.374,,230525,,,A*71
$GNVTG,,T,,M,0.374,N,0.693,K,A*31
$GNGNS,063628.00,0419.94657,S,05539.82481,E,AA,15,0.97,22.6,-47.6,,*60
$GNGGA,063628.00,0419.94657,S,05539.82481,E,1,12,0.97,22.6,M,-47.6,M,,*4D
$GNGSA,A,3,24,20,05,13,15,12,18,25,23,,,,1.88,0.97,1.61*1E
$GNGSA,A,3,75,87,71,72,76,65,,,,,,,1.88,0.97,1.61*19
$GPGSV,5,1,17,05,45,039,27,10,01,213,,12,72,063,25,13,14,112,25*76
$GPGSV,5,2,17,15,38,144,30,18,33,285,23,20,11,034,09,23,41,208,28*7A
$GPGSV,5,3,17,24,35,181,27,25,53,342,30,28,03,296,,29,13,342,21*78
$GPGSV,5,4,17,36,52,277,,40,86,351,,41,58,082,,49,32,274,*7C
$GPGSV,5,5,17,50,10,089,*4A
$GLGSV,3,1,09,65,21,183,09,71,15,069,14,72,36,120,17,75,46,165,14*67
$GLGSV,3,2,09,76,65,311,22,77,19,328,,86,03,013,12,87,14,332,14*6C
$GLGSV,3,3,09,88,07,276,*58
$GNGLL,0419.94657,S,05539.82481,E,063628.00,A,A*6B
$GNGRS,063628.00,1,-3.8,-122,-0.5,-1.7,-1.1,-16.2,-4.1,3.8,0.7,,,*71
$GNGRS,063628.00,1,5.2,23.2,-65.3,-37.6,1.8,-61.9,,,,,,*75
$GNGST,063628.00,42,,,,3.9,5.0,13*65
$GNZDA,063628.00,23,05,2025,00,00*70
$GNGBS,063628.00,3.9,5.0,12.5,,,,*6F
$GNTXT,01,01,01,More than 100 frame errors, UART RX was disabled*70
b0L+-'
H?p &`
!"0)#5V(V{4V_:R 
Y
vfAGEH$xK.LA7fMHVW
LX-Gb+rwt$GNRMC,063631.00,A,0419.94650,S,05539.82476,E,0.129,,230525,,,A*7C
$GNVTG,,T,,M,0.129,N,0.240,K,A*31
$GNGNS,063631.00,0419.94650,S,05539.82476,E,AA,15,0.92,22.8,-47.6,,*6C
$GNGGA,063631.00,0419.94650,S,05539.82476,E,1,12,0.92,22.8,M,-47.6,M,,*41
$GNGSA,A,3,24,20,05,13,15,12,18,25,23,,,,1.81,0.92,1.56*16
$GNGSA,A,3,75,87,71,72,76,65,,,,,,,1.81,0.92,1.56*11
$GPGSV,5,1,17,05,45,039,25,10,01,213,,12,72,063,24,13,14,112,25*75
b0L+,'
H?p5&
!")!#45V(V{4V_:R 
Y
vAGEH$x~K.LA7MHVWLXb+rGD$GNRMC,063633.00,A,0419.94642,S,05539.82468,E,0.045,,230525,,,A*79
$GNVTG,,T,,M,0.045,N,0.082,K,A*36
$GNGNS,063633.00,0419.94642,S,05539.82468,E,AA,15,0.77,22.4,-47.6,,*65
$GNGGA,063633.00,0419.94642,S,05539.82468,E,1,12,0.77,22.4,M,-47.6,M,,*48
$GNGSA,A,3,24,20,05,13,15,12,18,25,23,,,,1.40,0.77,1.17*15
$GNGSA,A,3,75,87,71,72,76,65,,,,,,,1.40,0.77,1.17*12
$GPGSV,5,1,17,05,44,039,28,10,01,213,,12,72,063,23,13,14,112,22*79
$GPGSV,5,2,17,15,38,144,31,18,33,285,23,20,11,034,11,23,41,208,26*7C
$GPGSV,5,3,17,24,35,181,29,25,53,342,29,28,03,296,,29,13,342,21*7E
$GPGSV,5,4,17,36,52,277,,40,86,351,,41,58,082,,49,32,274,*7C
$GPGSV,5,5,17,50,10,089,*4A
$GLGSV,3,1,09,65,21,183,12,71,15,069,14,72,36,120,22,75,46,165,22*6E
$GLGSV,3,2,09,76,65,311,26,77,19,328,,86,03,013,08,87,14,332,08*6E
$GLGSV,3,3,09,88,07,276,*58
$GNGLL,0419.94642,S,05539.82468,E,063633.00,A,A*62
$GNGRS,063633.00,1,-2.0,24.4,0.1,0.5,6.8,-7.5,-0.1,6.7,0.3,,,*6B
$GNGRS,063633.00,1,15.4,14.2,-68.9,-34.6,1.6,5.3,,,,,,*53
$GNGST,063633.00,4496890,,,,3.9,5.0,13*57
$GNZDA,063633.00,23,05,2025,00,00*7A
$GNGBS,063633.00,3.9,5.0,13.0,,,,*61
b0L#+,'
H?tp!&
!~")#5V#(V{4V_:R 
Y
vAdG
EH$xK.aLA73MHVWLZXb#+r/$GNRMC,063634.00,A,0419.94648,S,05539.82470,E,0.088,,230525,,,A*7C
$GNVTG,,T,,M,0.088,N,0.162,K,A*38
$GNGNS,063634.00,0419.94648,S,05539.82470,E,AA,15,0.85,22.3,-47.6,,*6B
$GNGGA,063634.00,0419.94648,S,05539.82470,E,1,12,0.85,22.3,M,-47.6,M,,*46
$GNGSA,A,3,24,20,05,13,15,12,18,25,23,,,,1.49,0.85,1.22*17
$GNGSA,A,3,75,87,71,72,76,65,,,,,,,1.49,0.85,1.22*10
$GPGSV,5,1,17,05,44,039,29,10,01,213,,12,72,063,22,13,14,112,22*79
$GPGSV,5,2,17,15,38,144,33,18,33,285,23,20,11,034,08,23,41,208,26*76
$GPGSV,5,3,17,24,35,181,28,25,53,342,28,28,03,296,,29,13,342,22*7D
$GPGSV,5,4,17,36,52,277,,40,86,351,,41,58,082,,49,32,274,*7C
$GPGSV,5,5,17,50,10,089,*4A
$GLGSV,3,1,09,65,21,183,12,71,15,069,10,72,36,120,24,75,46,165,23*6D
$GLGSV,3,2,09,76,65,311,26,77,19,328,,86,03,013,11,87,14,332,13*6C
$GLGSV,3,3,09,88,07,276,*58
$GNGLL,0419.94648,S,05539.82470,E,063634.00,A,A*66
$GNGRS,063634.00,1,-0.6,-34.3,-1.2,3.8,6.6,-6.5,-1.3,2.9,1.5,,,*63
$GNGRS,063634.00,1,13.8,8.6,-56.0,-31.6,0.5,24.0,,,,,,*54
$GNTXT,01,01,01,More than 100 frame errors, UART RX was disabled*70
b0L(7+,'
H?Ep&,
!~")f# 5V(V{4V_:R 
Y
vA2GEH$xK.LA7GMHV
WLXzUb(7+r$GNRMC,063639.00,A,0419.94646,S,05539.82488,E,0.091,,230525,,,A*70
$GNVTG,,T,,M,0.091,N,0.168,K,A*3A
$GNGNS,063639.00,0419.94646,S,05539.82488,E,AA,14,0.74,20.8,-47.6,,*69
$GNGGA,063639.00,0419.94646,S,05539.82488,E,1,12,0.74,20.8,M,-47.6,M,,*45
$GNGSA,A,3,24,05,13,15,12,18,25,23,,,,,1.36,0.74,1.15*17
$GNGSA,A,3,75,87,71,72,76,65,,,,,,,1.36,0.74,1.15*12
$GPGSV,5,1,17,05,44,039,28,10,01,213,,12,72,063,26,13,14,112,21*7F
$GPGSV,5,2,17,15,38,144,28,18,33,285,21,20,11,034,06,23,41,208,29*7F
$GPGSV,5,3,17,24,35,181,28,25,53,342,32,28,03,296,,29,13,342,22*76
$GPGSV,5,4,17,36,52,277,,40,86,351,,41,58,082,,49,32,274,*7C
$GPGSV,5,5,17,50,10,089,*4A
$GLGSV,3,1,09,65,21,183,15,71,15,069,17,72,36,120,18,75,46,165,14*66
$GLGSV,3,2,09,76,65,311,24,77,19,328,,86,03,013,10,87,14,332,11*6D
$GLGSV,3,3,09,88,07,276,*58
$GNGLL,0419.94646,S,05539.82488,E,063639.00,A,A*62
$GNGRS,063639.00,1,4.6,1.4,6.9,3.0,0.7,1.3,4.4,1.0,,,,*56
$GNGRS,063639.00,1,14.8,14.5,12.7,-23.4,0.7,5.6,,,,,,*7C
$GNGST,063639.00,3179277,,,,3.8,5.1,14*5A
$GNZDA,063639.00,23,05,2025,00,00*70
$GNGBS,063639.00,3.8,5.1,13.7,,,,*6C
$GNTXT,01,01,01,More than 100 frame errors, UART RX was disabled*70
b0L>+,'
HA*p&
!")#5V(V{4V_:R 
Y
vAGEH$x,K.3LA7MHVWLXPb>+rur$GNRMC,063641.00,A,0419.94636,S,05539.82480,E,0.210,,230525,,,A*7B
$GNVTG,,T,,M,0.210,N,0.388,K,A*3D
$GNGNS,063641.00,0419.94636,S,05539.82480,E,AA,15,0.74,19.2,-47.6,,*68
$GNGGA,063641.00,0419.94636,S,05539.82480,E,1,12,0.74,19.2,M,-47.6,M,,*45
$GNGSA,A,3,24,20,05,13,15,12,18,25,23,,,,1.36,0.74,1.15*15
$GNGSA,A,3,75,87,71,72,76,65,,,,,,,1.36,0.74,1.15*12
$GPGSV,5,1,17,05,44,039,28,10,01,213,,12,72,065,22,13,14,112,22*7E
$GPGSV,5,2,17,15,38,144,30,18,33,285,20,20,11,034,12,23,41,208,27*7C
$GPGSV,5,3,17,24,35,181,28,25,53,342,30,28,03,296,,29,13,342,20*76
$GPGSV,5,4,17,36,52,277,,40,86,351,,41,58,082,,49,32,274,*7C
$GPGSV,5,5,17,50,10,089,*4A
$GLGSV,3,1,09,65,21,183,14,71,15,069,15,72,36,120,22,75,46,165,22*69
$GLGSV,3,2,09,76,65,311,25,77,19,328,,86,03,013,09,87,14,332,19*6C
$GLGSV,3,3,09,88,07,276,*58
$GNGLL,0419.94636,S,05539.82480,E,063641.00,A,A*62
$GNGRS,063641.00,1,-0.7,25.0,2.1,4.7,1.4,3.0,1.7,4.5,4.8,,,*68
$GNGRS,063641.00,1,13.3,14.8,7.8,-22.6,2.7,17.8,,,,,,*75
$GNGST,063641.00,803,,,,3.8,5.1,14*50
$GNZDA,063641.00,23,05,2025,00,00*7F
$GNGBS,063641.00,3.8,5.1,13.9,,,,*6D
$GNTXT,01,01,01,More than 100 frame errors, UART RX was disabled*70
b0LB+,'
HALp7 &c
!")#V5V7(V{4V_:R 
Y
vA"GEH$xK.LA7MHVWLXbB+roM$GNRMC,063642.00,A,0419.94632,S,05539.82477,E,0.104,,230525,,,A*72
$GNVTG,,T,,M,0.104,N,0.193,K,A*33
$GNGNS,063642.00,0419.94632,S,05539.82477,E,AA,15,0.79,18.9,-47.6,,*60
$GNGGA,063642.00,0419.94632,S,05539.82477,E,1,12,0.79,18.9,M,-47.6,M,,*4D
$GNGSA,A,3,24,20,05,13,15,12,18,25,23,,,,1.43,0.79,1.20*1C
$GNGSA,A,3,75,87,71,72,76,65,,,,,,,1.43,0.79,1.20*1B
$GPGSV,5,1,17,05,44,039,28,10,01,213,,12,72,065,19,13,14,112,23*77
$GPGSV,5,2,17,15,38,144,32,18,33,285,18,20,11,034,09,23,41,208,26*7E
$GPGSV,5,3,17,24,35,181,28,25,53,342,31,28,03,296,,29,13,342,19*7D
$GPGSV,5,4,17,36,52,277,,40,86,351,,41,58,082,,49,32,274,*7C
$GPGSV,5,5,17,50,10,089,*4A
$GLGSV,3,1,09,65,21,183,13,71,15,069,13,72,36,120,21,75,46,165,25*6C
$GLGSV,3,2,09,76,65,311,25,77,19,328,,86,03,013,08,87,14,332,13*67
$GLGSV,3,3,09,88,07,276,*58
$GNGLL,0419.94632,S,05539.82477,E,063642.00,A,A*6D
$GNGRS,063642.00,1,-1.7,24.9,0.0,5.7,-1.6,3.3,1.3,3.1,1.9,,,*4F
$GNGRS,063642.00,1,12.1,14.6,5.0,-23.0,4.9,23.4,,,,,,*75
$GNGST,063642.00,49,,,,3.8,5.1,14*65
$GNZDA,063642.00,23,05,2025,00,00*7C
$GNGBS,063642.00,3.8,5.1,14.0,,,,*60
b0LF+,'
HA`p &N
!")#5V^(V{4V_:R 
Y
vA
GEH$xK.LA7]MHV
WLXlbF+rW%B$GNRMC,063643.00,A,0419.94620,S,05539.82463,E,0.218,,230525,,,A*7B
$GNVTG,,T,,M,0.218,N,0.403,K,A*31
$GNGNS,063643.00,0419.94620,S,05539.82463,E,AA,14,0.79,17.4,-47.6,,*64
$GNGGA,063643.00,0419.94620,S,05539.82463,E,1,12,0.79,17.4,M,-47.6,M,,*48
$GNGSA,A,3,24,20,05,13,15,12,18,25,23,,,,1.43,0.79,1.20*1C
$GNGSA,A,3,75,87,71,72,76,,,,,,,,1.43,0.79,1.20*18
$GPGSV,5,1,17,05,44,039,29,10,01,213,,12,72,065,16,13,14,112,22*78
$GPGSV,5,2,17,15,38,143,32,18,33,285,21,20,11,034,11,23,41,208,24*78
$GPGSV,5,3,17,24,35,181,28,25,53,342,30,28,03,296,,29,13,342,20*76
$GPGSV,5,4,17,36,52,277,,40,86,351,,41,58,082,,49,32,274,*7C
$GPGSV,5,5,17,50,10,089,*4A
$GLGSV,3,1,09,65,21,183,10,71,15,069,12,72,36,120,22,75,46,165,25*6D
$GLGSV,3,2,09,76,65,311,24,77,19,328,,86,03,013,10,87,14,332,14*68
$GLGSV,3,3,09,88,07,276,*58
$GNGLL,0419.94620,S,05539.82463,E,063643.00,A,A*6A
$GNGRS,063643.00,1,-3.0,-25.8,-0.3,7.5,-1.8,1.0,-0.9,3.5,5.4,,,*6C
$GNGRS,063643.00,1,9.4,18.1,1.8,-21.5,3.5,,,,,,,*5B
$GNGST,063643.00,49,,,,3.7,5.1,14*6B
$GNZDA,063643.00,23,05,2025,00,00*7D
$GNGBS,063643.00,3.7,5.1,14.1,,,,*6F
$GNTXT,01,01,01,More than 100 frame errors, UART RX was disabled*70
b0LJ+,'
HAp &
!>")#25V(V{4V_:R 
Y
vAGEH$xK.aLA7}MHVWLKXbJ+r?$GNRMC,063644.00,A,0419.94615,S,05539.82456,E,0.111,,230525,,,A*76
$GNVTG,,T,,M,0.111,N,0.205,K,A*3B
$GNGNS,063644.00,0419.94615,S,05539.82456,E,AA,13,0.83,17.2,-47.6,,*67
$GNGGA,063644.00,0419.94615,S,05539.82456,E,1,12,0.83,17.2,M,-47.6,M,,*4C
$GNGSA,A,3,24,20,05,13,15,12,18,25,23,,,,1.47,0.83,1.21*1C
$GNGSA,A,3,75,87,72,76,,,,,,,,,1.47,0.83,1.21*1E
$GPGSV,5,1,17,05,44,039,30,10,01,213,,12,72,065,13,13,14,112,21*76
$GPGSV,5,2,17,15,38,143,32,18,33,285,22,20,11,034,12,23,41,208,26*7A
$GPGSV,5,3,17,24,35,181,28,25,53,342,30,28,03,296,,29,13,342,19*7C
$GPGSV,5,4,17,36,52,277,,40,86,351,,41,58,082,,49,32,274,*7C
$GPGSV,5,5,17,50,10,089,*4A
$GLGSV,3,1,09,65,21,183,08,71,15,069,09,72,36,120,22,75,46,165,27*6C
$GLGSV,3,2,09,76,65,311,23,77,19,328,,86,03,013,09,87,14,332,15*66
$GLGSV,3,3,09,88,07,276,*58
$GNGLL,0419.94615,S,05539.82456,E,063644.00,A,A*6D
$GNGRS,063644.00,1,-2.1,25.2,-0.5,4.4,2.5,1.7,-1.9,9.9,-0.6,,,*41
$GNGRS,063644.00,1,6.1,16.1,-18.5,3.8,,,,,,,,*78
$GNGST,063644.00,83147,,,,3.7,5.1,14*58
$GNZDA,063644.00,23,05,2025,00,00*7A
$GNGBS,063644.00,3.7,5.1,14.1,,,,*68
b0LN+,'
HAp" &
!")O#5V(V{4V_:R 
Y
vAGE{H$xK.LA7MHV
WLXvnbN+r'$GNRMC,063645.00,A,0419.94609,S,05539.82443,E,0.197,,230525,,,A*70
$GNVTG,,T,,M,0.197,N,0.365,K,A*32
$GNGNS,063645.00,0419.94609,S,05539.82443,E,AA,14,0.77,16.5,-47.6,,*65
$GNGGA,063645.00,0419.94609,S,05539.82443,E,1,12,0.77,16.5,M,-47.6,M,,*49
$GNGSA,A,3,24,05,13,15,12,18,25,23,,,,,1.41,0.77,1.18*19
$GNGSA,A,3,75,87,71,72,76,65,,,,,,,1.41,0.77,1.18*1C
$GPGSV,5,1,17,05,44,039,30,10,01,213,,12,72,065,13,13,14,112,22*75
$GPGSV,5,2,17,15,38,143,32,18,33,285,21,20,11,034,07,23,41,208,24*7F
$GPGSV,5,3,17,24,35,181,29,25,53,342,29,28,03,296,,29,13,342,19*75
$GPGSV,5,4,17,36,52,277,,40,86,351,,41,58,082,,49,32,274,*7C
$GPGSV,5,5,17,50,10,089,*4A
$GLGSV,3,1,09,65,21,183,09,71,15,069,11,72,36,120,22,75,46,165,27*64
$GLGSV,3,2,09,76,65,311,24,77,19,328,,86,03,013,10,87,14,332,15*69
$GLGSV,3,3,09,88,07,276,*58
$GNGLL,0419.94609,S,05539.82443,E,063645.00,A,A*65
$GNGRS,063645.00,1,-0.5,-0.5,2.9,-0.3,1.5,-2.7,4.8,0.8,,,,*5F
$GNGRS,063645.00,1,4.5,14.9,6.3,-17.7,5.3,30.2,,,,,,*41
$GNGST,063645.00,80123,,,,3.7,5.1,14*58
$GNZDA,063645.00,23,05,2025,00,00*7B
$GNGBS,063645.00,3.7,5.1,14.2,,,,*6A
$GNTXT,01,01,01,More than 100 frame errors, UART RX was disabled*70
$GNTXT,01,01,01,More than 100 frame errors, UART RX was disabled*70
b0LhV+,'
HAp< &
!")#b5V
(V{4V_:R 
Y
vAjGEH$xK.oLA7MHVWLXpbhV+r$GNRMC,063647.00,A,0419.94610,S,05539.82434,E,0.142,,230525,,,A*72
$GNVTG,,T,,M,0.142,N,0.262,K,A*3C
$GNGNS,063647.00,0419.94610,S,05539.82434,E,AA,14,0.88,15.9,-47.6,,*60
$GNGGA,063647.00,0419.94610,S,05539.82434,E,1,12,0.88,15.9,M,-47.6,M,,*4C
$GNGSA,A,3,24,20,05,13,15,12,18,25,23,,,,1.71,0.88,1.47*12
$GNGSA,A,3,75,71,72,76,65,,,,,,,,1.71,0.88,1.47*1A
$GPGSV,5,1,17,05,44,039,29,10,01,213,,12,72,065,12,13,14,112,23*7D
$GPGSV,5,2,17,15,38,143,32,18,33,286,20,20,11,034,09,23,41,208,22*75
$GPGSV,5,3,17,24,35,181,28,25,53,342,30,28,03,296,,29,13,342,20*76
$GPGSV,5,4,17,36,52,277,,40,86,351,,41,58,082,,49,32,274,*7C
$GPGSV,5,5,17,50,10,089,*4A
$GLGSV,3,1,09,65,21,183,09,71,15,069,09,72,36,120,21,75,46,165,28*61
$GLGSV,3,2,09,76,65,311,24,77,19,328,,86,03,013,09,87,14,332,*65
$GLGSV,3,3,09,88,07,276,*58
$GNGLL,0419.94610,S,05539.82434,E,063647.00,A,A*6F
$GNGRS,063647.00,1,1.0,25.2,0.0,3.2,6.9,6.4,-2.5,5.2,6.8,,,*65
$GNGRS,063647.00,1,1.1,6.4,-18.0,4.4,29.2,,,,,,,*51
$GNGST,063647.00,3300339,,,,3.6,5.1,14*5A
$GNZDA,063647.00,23,05,2025,00,00*79
$GNGBS,063647.00,3.6,5.1,14.4,,,,*6F
$GNTXT,01,01,01,More than 100 frame errors, UART RX was disabled*70
b0L b+,'?
HApJ"&
!R!)#Y5V7(V{4V_:R 
Y
vA\GEH$xK.LA7MHVWLXVb b+r$GNRMC,063650.00,A,0419.94606,S,05539.82431,E,0.106,,230525,,,A*76
$GNVTG,,T,,M,0.106,N,0.197,K,A*35
$GNGNS,063650.00,0419.94606,S,05539.82431,E,AA,14,0.83,15.5,-47.6,,*63
$GNGGA,063650.00,0419.94606,S,05539.82431,E,1,12,0.83,15.5,M,-47.6,M,,*4F
$GNGSA,A,3,24,20,05,13,15,12,18,25,23,,,,1.63,0.83,1.41*1C
$GNGSA,A,3,75,71,72,76,65,,,,,,,,1.63,0.83,1.41*14
$GPGSV,5,1,17,05,44,039,29,10,01,213,,12,72,065,12,13,14,112,23*7D
$GPGSV,5,2,17,15,38,143,34,18,33,286,22,20,11,033,08,23,41,209,19*7E
$GPGSV,5,3,17,24,35,181,30,25,53,342,31,28,03,296,,29,13,342,17*7A
$GPGSV,5,4,17,36,52,277,,40,86,351,,41,58,082,,49,32,274,*7C
$GPGSV,5,5,17,50,10,089,*4A
$GLGSV,3,1,09,65,21,183,13,71,15,069,12,72,36,120,19,75,46,165,28*6B
$GLGSV,3,2,09,76,65,311,23,77,19,328,,86,03,013,09,87,14,332,17*64
$GLGSV,3,3,09,88,07,276,*58
$GNGLL,0419.94606,S,05539.82431,E,063650.00,A,A*6B
$GNGRS,063650.00,1,0.9,25.3,0.6,0.7,0.0,6.9,-9.4,0.6,5.3,,,*6B
$GNGRS,063650.00,1,-2.3,14.3,-15.9,4.3,6.0,,,,,,,*73
$GNGST,063650.00,3180058,,,,3.6,5.2,15*50
$GNZDA,063650.00,23,05,2025,00,00*7F
$GNGBS,063650.00,3.6,5.2,14.7,,,,*69
$GNTXT,01,01,01,More than 100 frame errors, UART RX was disabled*70
b0Lf+,'5
HAp#&
!X
!)#:5V(V{4V_:R 
Y
vA]GEH$xK.qLA7MHVWLS
Xbf+r$GNRMC,063651.00,A,0419.94608,S,05539.82434,E,0.123,,230525,,,A*7B
$GNVTG,,T,,M,0.123,N,0.227,K,A*3A
$GNGNS,063651.00,0419.94608,S,05539.82434,E,AA,14,0.83,15.6,-47.6,,*6A
$GNGGA,063651.00,0419.94608,S,05539.82434,E,1,12,0.83,15.6,M,-47.6,M,,*46
$GNGSA,A,3,24,20,05,13,15,12,18,25,23,,,,1.63,0.83,1.41*1C
$GNGSA,A,3,75,71,72,76,65,,,,,,,,1.63,0.83,1.41*14
$GPGSV,5,1,17,05,44,039,29,10,01,213,,12,72,065,13,13,14,112,25*7A
$GPGSV,5,2,17,15,38,143,35,18,33,286,23,20,11,033,10,23,41,209,18*76
$GPGSV,5,3,17,24,35,180,30,25,53,342,30,28,03,296,,29,13,342,18*75
$GPGSV,5,4,17,36,52,277,,40,86,351,,41,58,082,,49,32,274,*7C
$GPGSV,5,5,17,50,10,089,*4A
$GLGSV,3,1,09,65,21,183,12,71,15,069,13,72,36,120,18,75,46,165,28*6A
$GLGSV,3,2,09,76,65,311,23,77,19,328,,86,03,013,09,87,14,332,17*64
$GLGSV,3,3,09,88,07,276,*58
$GNGLL,0419.94608,S,05539.82434,E,063651.00,A,A*61
$GNGRS,063651.00,1,0.6,25.6,-4.6,0.2,0.2,7.0,-9.4,1.6,4.8,,,*4D
$GNGRS,063651.00,1,-1.4,14.5,-16.2,4.2,6.1,,,,,,,*78
$GNGST,063651.00,3180931,,,,3.6,5.2,15*57
$GNZDA,063651.00,23,05,2025,00,00*7E
$GNGBS,063651.00,3.6,5.2,14.8,,,,*67
b0Li+,'
HAp*#&E
!!W)#c6V:(V{4V_:R 
Y
vAGEH$xcK.LA7MHVWL:XCbi+r$GNRMC,063652.00,A,0419.94611,S,05539.82435,E,0.102,,230525,,,A*72
$GNVTG,,T,,M,0.102,N,0.190,K,A*36
$GNGNS,063652.00,0419.94611,S,05539.82435,E,AA,15,0.72,15.8,-47.6,,*61
$GNGGA,063652.00,0419.94611,S,05539.82435,E,1,12,0.72,15.8,M,-47.6,M,,*4C
$GNGSA,A,3,24,20,05,13,15,12,18,25,23,,,,1.34,0.72,1.13*17
$GNGSA,A,3,75,87,71,72,76,65,,,,,,,1.34,0.72,1.13*10
$GPGSV,5,1,17,05,44,039,29,10,01,213,,12,72,065,14,13,14,112,23*7B
