b0L-+&
 HEn '
!
!;+|"V7V:'W{4V_:R 
Y
vA5GDH%weK-LB4\MHV
WN6XKb-r':&$GNRMC,063925.00,A,0419.94702,S,05539.83001,E,0.482,,230525,,,A*71
$GNVTG,,T,,M,0.482,N,0.893,K,A*31
$GNGNS,063925.00,0419.94702,S,05539.83001,E,AA,14,0.77,29.8,-47.6,,*64
$GNGGA,063925.00,0419.94702,S,05539.83001,E,1,12,0.77,29.8,M,-47.6,M,,*48
$GNGSA,A,3,24,05,13,15,12,18,25,23,,,,,1.39,0.77,1.16*18
$GNGSA,A,3,75,87,71,72,76,65,,,,,,,1.39,0.77,1.16*1D
$GPGSV,5,1,17,05,43,038,18,10,02,212,,12,72,069,32,13,14,110,16*71
$GPGSV,5,2,17,15,39,142,32,18,33,287,17,20,10,033,08,23,43,209,20*76
$GPGSV,5,3,17,24,34,180,15,25,55,342,16,28,04,295,,29,13,343,*7D
$GPGSV,5,4,17,36,52,277,,40,86,351,,41,58,082,,49,32,274,*7C
$GPGSV,5,5,17,50,10,089,*4A
$GLGSV,3,1,09,65,22,182,12,71,15,068,15,72,37,119,15,75,45,165,23*61
$GLGSV,3,2,09,76,66,308,14,77,20,328,,86,03,014,10,87,13,334,13*6B
$GLGSV,3,3,09,88,07,277,*59
$GNGLL,0419.94702,S,05539.83001,E,063925.00,A,A*65
$GNGRS,063925.00,1,-9.4,2.5,-0.8,-2.5,1.9,-16.4,5.7,-3.9,,,,*40
$GNGRS,063925.00,1,-2.8,0.5,-29.3,1.0,-6.8,-2.0,,,,,,*61
$GNGST,063925.00,61,,,,5.6,8.0,13*62
$GNZDA,063925.00,23,05,2025,00,00*72
$GNGBS,063925.00,5.6,8.0,13.5,,,,*68
$GNTXT,01,01,01,More than 100 frame errors, UART RX was disabled*70
$GNTXT,01,01,01,More than 100 frame errors, UART RX was disabled*70
$GNTXT,01,01,01,More than 100 frame errors, UART RX was disabled*70
$GNVTG,,T,,M,0.115,N,0.214,K,A*3F
$GNGNS,063929.00,0419.94724,S,05539.83121,E,AA,14,0.72,31.6,-47.6,,*6D
$GNGGA,063929.00,0419.94724,S,05539.83121,E,1,12,0.72,31.6,M,-47.6,M,,*41
$GNGSA,A,3,24,05,13,15,12,18,25,23,,,,,1.34,0.72,1.13*15
$GNGSA,A,3,75,87,71,72,76,65,,,,,,,1.34,0.72,1.13*10
$GPGSV,5,1,17,05,43,038,22,10,02,212,,12,72,069,31,13,14,110,14*79
$GPGSV,5,2,17,15,39,142,35,18,33,287,22,20,10,033,10,23,43,209,26*78
$GPGSV,5,3,17,24,34,180,17,25,55,342,24,28,04,295,,29,13,343,*7E
$GPGSV,5,4,17,36,52,277,,40,86,351,,41,58,082,,49,32,274,*7C
$GPGSV,5,5,17,50,10,089,*4A
$GLGSV,3,1,09,65,22,182,11,71,15,068,20,72,37,119,26,75,45,165,30*66
$GLGSV,3,2,09,76,66,308,21,77,20,328,,86,03,014,09,87,13,334,10*66
$GLGSV,3,3,09,88,07,277,*59
$GNGLL,0419.94724,S,05539.83121,E,063929.00,A,A*6E
$GNGRS,063929.00,1,-8.0,1.0,0.1,-0.9,-7.1,-12.9,5.5,-7.2,,,,*42
$GNGRS,063929.00,1,2.3,15.8,14.4,-0.6,-2.5,5.7,,,,,,*58
$GNGST,063929.00,3073124,,,,5.7,7.4,13*53
$GNZDA,063929.00,23,05,2025,00,00*7E
$GNGBS,063929.00,5.7,7.4,13.4,,,,*6F
$GNGSA,A,3,24,05,13,15,12,18,25,23,,,,,1.34,0.72,1.13*15
$GNGSA,A,3,75,87,71,72,76,65,,,,,,,1.34,0.72,1.13*10
$GPGSV,5,1,17,05,43,038,20,10,02,212,,12,72,069,30,13,14,110,16*78
$GPGSV,5,2,17,15,39,142,34,18,33,287,22,20,10,033,,23,43,209,26*78
$GPGSV,5,3,17,24,34,180,16,25,55,342,23,28,04,295,,29,13,343,*78
$GPGSV,5,4,17,36,52,277,,40,86,351,,41,58,082,,49,32,274,*7C
$GPGSV,5,5,17,50,10,089,*4A
$GLGSV,3,1,09,65,22,182,12,71,15,068,13,72,37,119,27,75,45,165,30*64
$GLGSV,3,2,09,76,66,308,23,77,20,328,,86,03,014,11,87,13,334,08*64
$GLGSV,3,3,09,88,07,277,*59
$GNGLL,0419.94727,S,05539.83141,E,063930.00,A,A*63
$GNGRS,063930.00,1,-7.0,1.2,0.1,0.2,-8.1,-11.8,7.5,-6.6,,,,*6B
$GNGRS,063930.00,1,2.9,16.1,14.5,-1.2,-0.5,5.6,,,,,,*57
$GNGST,063930.00,3075079,,,,5.7,7.3,13*53
$GNZDA,063930.00,23,05,2025,00,00*76
$GNGBS,063930.00,5.7,7.3,13.4,,,,*60
b0L-+&W
HE)n "'
!u
!+Z"7V'W{4V_:R 
Y
vA"GDH%wK-GLB4MHV
WN"Xbb-rU$GNRMC,063932.00,A,0419.94717,S,05539.83158,E,0.417,,230525,,,A*72
$GNVTG,,T,,M,0.417,N,0.773,K,A*3C
$GNGNS,063932.00,0419.94717,S,05539.83158,E,AA,14,0.72,31.6,-47.6,,*69
$GNGGA,063932.00,0419.94717,S,05539.83158,E,1,12,0.72,31.6,M,-47.6,M,,*45
$GNGSA,A,3,24,05,13,15,12,18,25,23,,,,,1.34,0.72,1.13*15
$GNGSA,A,3,75,87,71,72,76,65,,,,,,,1.34,0.72,1.13*10
$GPGSV,5,1,17,05,43,038,19,10,02,212,,12,72,069,30,13,14,110,16*72
$GPGSV,5,2,17,15,39,142,34,18,33,287,22,20,10,033,,23,43,209,24*7A
$GPGSV,5,3,17,24,34,180,19,25,55,342,25,28,04,295,,29,13,343,*71
$GPGSV,5,4,17,36,52,277,,40,86,351,,41,58,082,,49,32,274,*7C
$GPGSV,5,5,17,50,10,089,*4A
$GLGSV,3,1,09,65,22,182,09,71,15,068,17,72,37,119,27,75,45,165,30*6A
$GLGSV,3,2,09,76,66,308,26,77,20,328,,86,03,014,10,87,13,334,07*6F
$GLGSV,3,3,09,88,07,277,*59
$GNGLL,0419.94717,S,05539.83158,E,063932.00,A,A*6A
$GNGRS,063932.00,1,-7.6,-1.7,2.9,-2.8,-9.8,-9.1,7.2,-6.8,,,,*59
$GNGRS,063932.00,1,3.3,15.7,13.0,-1.0,0.1,5.5,,,,,,*71
$GNGST,063932.00,4379,,,,5.6,7.0,13*65
$GNZDA,063932.00,23,05,2025,00,00*74
$GNGBS,063932.00,5.6,7.0,13.2,,,,*66
$GNTXT,01,01,01,More than 100 frame errors, UART RX was disabled*70
b0L-+&
HEn"'t
!\
!+%"W7V'W{4V_:R 
Y
vBA'GDH%wK-+LB4MHV
WN
?Xb-rO]R$GNRMC,063934.00,A,0419.94692,S,05539.83161,E,0.121,,230525,,,A*72
$GNVTG,,T,,M,0.121,N,0.225,K,A*3A
$GNGNS,063934.00,0419.94692,S,05539.83161,E,AA,14,0.88,31.2,-47.6,,*68
$GNGGA,063934.00,0419.94692,S,05539.83161,E,1,12,0.88,31.2,M,-47.6,M,,*44
$GNGSA,A,3,24,05,13,15,12,18,25,23,,,,,1.70,0.88,1.46*10
$GNGSA,A,3,75,87,71,72,76,65,,,,,,,1.70,0.88,1.46*15
$GPGSV,5,1,17,05,43,038,21,10,02,212,,12,72,069,30,13,14,110,18*77
$GPGSV,5,2,17,15,39,142,34,18,33,287,20,20,10,033,,23,43,209,23*7F
$GPGSV,5,3,17,24,34,180,18,25,55,342,25,28,04,295,,29,13,343,*70
$GPGSV,5,4,17,36,52,277,,40,86,351,,41,58,082,,49,32,274,*7C
$GPGSV,5,5,17,50,10,089,*4A
$GLGSV,3,1,09,65,22,182,11,71,15,068,17,72,37,119,28,75,45,165,29*64
$GLGSV,3,2,09,76,66,308,24,77,20,328,,86,03,014,10,87,13,334,08*62
$GLGSV,3,3,09,88,07,277,*59
$GNGLL,0419.94692,S,05539.83161,E,063934.00,A,A*6A
$GNGRS,063934.00,1,-6.8,-2.5,4.9,-1.4,-3.0,-6.8,7.9,-7.3,,,,*5D
$GNGRS,063934.00,1,5.6,161,10.5,-2.7,1.6,102,,,,,,*46
$GNGST,063934.00,43,,,,5.5,6.8,13*67
$GNZDA,063934.00,23,05,2025,00,00*72
$GNGBS,063934.00,5.5,6.8,13.1,,,,*69
b0L-+&(
HEn"'
!
!+u"7V'W{4V_:R 
Y
vQA7GDoH%wyK-LB4aMHVWN8Xb-r7a*$$GNRMC,063935.00,A,0419.94693,S,05539.83171,E,0.262,,230525,,,A*77
$GNVTG,,T,,M,0.262,N,0.486,K,A*31
$GNGNS,063935.00,0419.94693,S,05539.83171,E,AA,14,0.72,31.3,-47.6,,*6D
$GNGGA,063935.00,0419.94693,S,05539.83171,E,1,12,0.72,31.3,M,-47.6,M,,*41
$GNGSA,A,3,24,05,13,15,12,18,25,23,,,,,1.34,0.72,1.13*15
$GNGSA,A,3,75,87,71,72,76,65,,,,,,,1.34,0.72,1.13*10
$GPGSV,5,1,17,05,43,038,22,10,02,212,,12,72,069,18,13,14,110,18*7E
$GPGSV,5,2,17,15,39,142,34,18,33,287,21,20,10,033,04,23,43,209,24*7D
$GPGSV,5,3,17,24,34,180,22,25,55,342,26,28,04,295,,29,13,343,*7A
$GPGSV,5,4,17,36,52,277,,40,86,351,,41,58,082,,49,32,274,*7C
$GPGSV,5,5,17,50,10,089,*4A
$GLGSV,3,1,09,65,22,182,11,71,15,068,16,72,37,119,28,75,45,165,29*65
$GLGSV,3,2,09,76,66,308,23,77,20,328,,86,03,014,08,87,13,334,12*67
$GLGSV,3,3,09,88,07,277,*59
$GNGLL,0419.94693,S,05539.83171,E,063935.00,A,A*6B
$GNGRS,063935.00,1,-5.7,-4.7,4.3,-1.2,2.0,-7.6,6.8,-9.1,,,,*77
$GNGRS,063935.00,1,7.1,15.9,8.8,-3.9,1.0,5.7,,,,,,*45
$GNGST,063935.00,3071475,,,,5.4,6.7,13*5C
$GNZDA,063935.00,23,05,2025,00,00*73
$GNGBS,063935.00,5.4,6.7,13.1,,,,*66
$GNTXT,01,01,01,More than 100 frame errors, UART RX was disabled*70
b0L-+&
HEn@!'
!
!n+"7V'W{4V_:R 
Y
vA,GD`H%wK-LB4MHVWNXb-re$GNRMC,063936.00,A,0419.94687,S,05539.83173,E,0.206,,230525,,,A*71
$GNVTG,,T,,M,0.206,N,0.381,K,A*33
$GNGNS,063936.00,0419.94687,S,05539.83173,E,AA,14,0.72,31.3,-47.6,,*69
$GNGGA,063936.00,0419.94687,S,05539.83173,E,1,12,0.72,31.3,M,-47.6,M,,*45
$GNGSA,A,3,24,05,13,15,12,18,25,23,,,,,1.34,0.72,1.13*15
$GNGSA,A,3,75,87,71,72,76,65,,,,,,,1.34,0.72,1.13*10
$GPGSV,5,1,17,05,43,038,21,10,02,212,,12,72,069,19,13,14,110,17*73
$GPGSV,5,2,17,15,39,142,33,18,33,287,22,20,10,033,07,23,43,209,26*78
$GPGSV,5,3,17,24,34,180,22,25,55,342,28,28,04,295,,29,13,343,*74
$GPGSV,5,4,17,36,52,277,,40,86,351,,41,58,082,,49,32,274,*7C
$GPGSV,5,5,17,50,10,089,*4A
$GLGSV,3,1,09,65,22,182,14,71,15,068,17,72,37,119,27,75,45,165,29*6E
$GLGSV,3,2,09,76,66,308,22,77,20,328,,86,03,014,08,87,13,334,09*6C
$GLGSV,3,3,09,88,07,277,*59
$GNGLL,0419.94687,S,05539.83173,E,063936.00,A,A*6F
$GNGRS,063936.00,1,-3.8,-5.9,0.6,-1.2,3.8,-8.0,6.5,-7.8,,,,*79
$GNGRS,063936.00,1,4.3,15.6,8.6,-2.5,0.2,5.6,,,,,,*49
$GNGST,063936.00,3071477,,,,5.4,6.6,13*5C
$GNZDA,063936.00,23,05,2025,00,00*70
$GNGBS,063936.00,5.4,6.6,13.1,,,,*64
b0Lx-+&f
HEn '
!
!+"O7V'W{4V_:R 
Y
vkAaGDH%vK-.LB4!MHVW
N'0Xqmbx-ri$GNRMC,063937.00,A,0419.94694,S,05539.83190,E,0.048,,230525,,,A*77
$GNVTG,,T,,M,0.048,N,0.088,K,A*31
$GNGNS,063937.00,0419.94694,S,05539.83190,E,AA,14,0.83,32.1,-47.6,,*68
$GNGGA,063937.00,0419.94694,S,05539.83190,E,1,12,0.83,32.1,M,-47.6,M,,*44
$GNGSA,A,3,24,05,13,15,12,18,25,23,,,,,1.63,0.83,1.40*1F
$GNGSA,A,3,75,87,71,72,76,65,,,,,,,1.63,0.83,1.40*1A
$GPGSV,5,1,17,05,43,038,20,10,02,212,,12,72,069,23,13,14,110,13*7F
$GPGSV,5,2,17,15,39,142,32,18,33,287,24,20,10,033,09,23,43,209,27*70
$GPGSV,5,3,17,24,34,180,20,25,55,342,28,28,04,295,,29,13,343,*76
$GPGSV,5,4,17,36,52,277,,40,86,351,,41,58,082,,49,32,274,*7C
$GPGSV,5,5,17,50,10,089,*4A
$GLGSV,3,1,09,65,22,182,17,71,15,068,19,72,37,118,25,75,45,165,30*68
$GLGSV,3,2,09,76,66,308,19,77,20,328,,86,03,014,08,87,13,334,10*6C
$GLGSV,3,3,09,88,07,277,*59
$GNGLL,0419.94694,S,05539.83190,E,063937.00,A,A*61
$GNGRS,063937.00,1,-1.8,-4.1,-5.3,-1.1,-0.7,-9.0,1.7,-5.8,,,,*7A
$GNGRS,063937.00,1,5.6,123,7.2,-2.8,2.9,6.1,,,,,,*6B
$GNGST,063937.00,54,,,,5.3,6.5,13*69
$GNZDA,063937.00,23,05,2025,00,00*71
$GNGBS,063937.00,5.3,6.5,13.1,,,,*61
$GLGSV,3,2,09,76,66,308,17,77,20,328,,86,03,014,13,87,13,334,08*61
$GLGSV,3,3,09,88,07,277,*59
$GNGLL,0419.94701,S,05539.83198,E,063938.00,A,A*6B
$GNGRS,063938.00,1,-2.5,-9.8,-3.6,-1.1,2.4,-7.2,1.3,-2.1,,,,*56
$GNGRS,063938.00,1,10.9,16.4,5.2,-3.4,0.1,4.6,,,,,,*72
$GNGST,063938.00,3072448,,,,5.2,6.4,13*59
$GNZDA,063938.00,23,05,2025,00,00*7E
$GNGBS,063938.00,5.2,6.4,13.2,,,,*6D
$GNTXT,01,01,01,More than 100 frame errors, UART RX was disabled*70
b0L0-+&
HEKn '
!
!+x"m7V'W{4V_:R 
Y
vAGDKH%vK-LB4EMHVWNXb0-rta)$GNRMC,063940.00,A,0419.94712,S,05539.83224,E,0.251,,230525,,,A*7E
$GNVTG,,T,,M,0.251,N,0.465,K,A*3C
$GNGNS,063940.00,0419.94712,S,05539.83224,E,AA,14,0.83,34.5,-47.6,,*69
$GNGGA,063940.00,0419.94712,S,05539.83224,E,1,12,0.83,34.5,M,-47.6,M,,*45
$GNGSA,A,3,24,05,13,15,12,18,25,23,,,,,1.63,0.83,1.40*1F
$GNGSA,A,3,75,87,71,72,76,65,,,,,,,1.63,0.83,1.40*1A
$GPGSV,5,1,17,05,43,038,20,10,02,212,,12,72,069,22,13,14,110,15*78
$GPGSV,5,2,17,15,39,142,32,18,33,287,23,20,10,033,11,23,43,209,26*7F
$GPGSV,5,3,17,24,34,180,21,25,55,342,30,28,04,295,,29,13,343,*7E
$GPGSV,5,4,17,36,52,277,,40,86,351,,41,58,082,,49,32,274,*7C
$GPGSV,5,5,17,50,10,089,*4A
$GLGSV,3,1,09,65,22,182,21,71,15,068,20,72,37,118,27,75,45,165,31*64
$GLGSV,3,2,09,76,66,308,16,77,20,328,,86,03,014,08,87,13,334,12*61
$GLGSV,3,3,09,88,07,277,*59
$GNGLL,0419.94712,S,05539.83224,E,063940.00,A,A*62
$GNGRS,063940.00,1,-4.0,-2.3,-3.0,-0.9,3.3,-8.6,1.4,-1.4,,,,*59
$GNGRS,063940.00,1,6.6,51.4,5.9,-2.4,0.7,4.2,,,,,,*4E
$GNGST,063940.00,44,,,,5.0,6.1,13*6F
$GNZDA,063940.00,23,05,2025,00,00*71
$GNGBS,063940.00,5.0,6.1,13.2,,,,*65
$GNTXT,01,01,01,More than 100 frame errors, UART RX was disabled*70
b0L-+&
HEn '
!1
!
+"7VH'W{4V_:R 
Y
v:AGDH%vK-LB4MHVW
NtXQb-rx9$GNRMC,063941.00,A,0419.94728,S,05539.83233,E,0.233,,230525,,,A*74
$GNVTG,,T,,M,0.233,N,0.432,K,A*3A
$GNGNS,063941.00,0419.94728,S,05539.83233,E,AA,15,0.72,35.5,-47.6,,*69
$GNGGA,063941.00,0419.94728,S,05539.83233,E,1,12,0.72,35.5,M,-47.6,M,,*44
$GNGSA,A,3,24,20,05,13,15,12,18,25,23,,,,1.34,0.72,1.13*17
$GNGSA,A,3,75,87,71,72,76,65,,,,,,,1.34,0.72,1.13*10
$GPGSV,5,1,17,05,43,038,21,10,02,212,,12,72,069,22,13,14,110,15*79
$GPGSV,5,2,17,15,39,142,32,18,33,287,23,20,10,033,11,23,43,209,25*7C
$GPGSV,5,3,17,24,34,180,21,25,55,342,29,28,04,295,,29,13,343,*76
$GPGSV,5,4,17,36,52,277,,40,86,351,,41,58,082,,49,32,274,*7C
$GPGSV,5,5,17,50,10,089,*4A
$GLGSV,3,1,09,65,22,182,22,71,15,068,19,72,37,118,27,75,45,165,30*6C
$GLGSV,3,2,09,76,66,308,16,77,20,328,,86,03,014,07,87,13,334,10*6C
$GLGSV,3,3,09,88,07,277,*59
$GNGLL,0419.94728,S,05539.83233,E,063941.00,A,A*6C
$GNGRS,063941.00,1,-2.4,27.8,-3.2,-3.6,-0.8,7.0,-7.2,-4.4,0.0,,,*42
$GNGRS,063941.00,1,5.3,16.5,4.7,-2.8,0.2,5.0,,,,,,*4E
$GNGST,063941.00,3071473,,,,5.0,6.1,13*5B
$GNZDA,063941.00,23,05,2025,00,00*70
$GNGBS,063941.00,5.0,6.1,13.3,,,,*65
b0L.+&
HEn '
!
!+1"7V''W{4V_:R 
Y
vA~GDH%vK-LB4`MHV
WNXbb.r|$GNRMC,063942.00,A,0419.94739,S,05539.83236,E,0.234,,230525,,,A*75
$GNVTG,,T,,M,0.234,N,0.432,K,A*3D
$GNGNS,063942.00,0419.94739,S,05539.83236,E,AA,15,0.72,36.1,-47.6,,*68
$GNGGA,063942.00,0419.94739,S,05539.83236,E,1,12,0.72,36.1,M,-47.6,M,,*45
$GNGSA,A,3,24,20,05,13,15,12,18,25,23,,,,1.34,0.72,1.13*17
$GNGSA,A,3,75,87,71,72,76,65,,,,,,,1.34,0.72,1.13*10
$GPGSV,5,1,17,05,43,038,19,10,02,212,,12,72,069,22,13,14,110,16*71
$GPGSV,5,2,17,15,39,142,32,18,33,287,23,20,10,033,09,23,43,209,25*75
$GPGSV,5,3,17,24,34,180,22,25,55,342,29,28,04,295,,29,13,343,*75
$GPGSV,5,4,17,36,52,277,,40,86,351,,41,58,082,,49,32,274,*7C
$GPGSV,5,5,17,50,10,089,*4A
$GLGSV,3,1,09,65,22,182,23,71,15,068,17,72,37,118,28,75,45,165,29*64
$GLGSV,3,2,09,76,66,308,19,77,20,328,,86,03,014,10,87,13,334,09*6D
$GLGSV,3,3,09,88,07,277,*59
$GNGLL,0419.94739,S,05539.83236,E,063942.00,A,A*6A
$GNGRS,063942.00,1,-1.1,28.3,-2.7,-1.2,-0.7,7.1,-7.6,0.4,0.5,,,*67
$GNGRS,063942.00,1,4.4,16.7,4.5,-2.7,-1.6,6.4,,,,,,*6B
$GNGST,063942.00,3071473,,,,4.9,6.0,13*51
$GNZDA,063942.00,23,05,2025,00,00*73
$GNGBS,063942.00,4.9,6.0,13.3,,,,*6F
$GNTXT,01,01,01,More than 100 frame errors, UART RX was disabled*70
b0L.+&7
HEnK'
!

!"+"7V'W{4V_:R 
Y
vATGDH%v\K-LB4qMHVWN?X!b.rw`$GNRMC,063943.00,A,0419.94745,S,05539.83240,E,0.127,,230525,,,A*7F
$GNVTG,,T,,M,0.127,N,0.235,K,A*3D
$GNGNS,063943.00,0419.94745,S,05539.83240,E,AA,15,0.83,36.6,-47.6,,*6A
$GNGGA,063943.00,0419.94745,S,05539.83240,E,1,12,0.83,36.6,M,-47.6,M,,*47
$GNGSA,A,3,24,20,05,13,15,12,18,25,23,,,,1.63,0.83,1.40*1D
$GNGSA,A,3,75,87,71,72,76,65,,,,,,,1.63,0.83,1.40*1A
$GPGSV,5,1,17,05,43,038,18,10,02,212,,12,72,069,21,13,14,110,17*72
$GPGSV,5,2,17,15,39,142,31,18,33,287,22,20,10,033,10,23,43,209,24*7E
$GPGSV,5,3,17,24,34,180,23,25,55,342,28,28,04,295,,29,13,343,*75
$GPGSV,5,4,17,36,52,277,,40,86,351,,41,58,082,,49,32,274,*7C
$GPGSV,5,5,17,50,10,089,*4A
$GLGSV,3,1,09,65,22,182,23,71,15,068,17,72,37,118,28,75,45,165,29*64
$GLGSV,3,2,09,76,66,308,20,77,20,328,,86,03,014,07,87,13,334,08*60
$GLGSV,3,3,09,88,07,277,*59
$GNGLL,0419.94745,S,05539.83240,E,063943.00,A,A*61
$GNGRS,063943.00,1,-0.2,-53.4,-2.0,-1.8,-0.5,9.0,-8.0,2.8,2.0,,,*42
$GNGRS,063943.00,1,4.7,163,6.5,-4.2,-1.4,6.0,,,,,,*44
$GNGST,063943.00,43,,,,4.9,5.9,13*68
$GNZDA,063943.00,23,05,2025,00,00*72
$GNGBS,063943.00,4.9,5.9,13.3,,,,*64
$GNTXT,01,01,01,More than 100 frame errors, UART RX was disabled*70
b0X.+&
HEnn '
!

!}
+"<7V'W{4V_:R 
Y
vAhGDjH%vK-#LB4MHVW
NX#Qb.r_$GNRMC,063944.00,A,0419.94746,S,05539.83235,E,0.277,,230525,,,A*7F
$GNVTG,,T,,M,0.277,N,0.513,K,A*38
$GNGNS,063944.00,0419.94746,S,05539.83235,E,AA,15,0.72,36.8,-47.6,,*6C
$GNGGA,063944.00,0419.94746,S,05539.83235,E,1,12,0.72,36.8,M,-47.6,M,,*41
$GNGSA,A,3,24,20,05,13,15,12,18,25,23,,,,1.34,0.72,1.13*17
$GNGSA,A,3,75,87,71,72,76,65,,,,,,,1.34,0.72,1.13*10
$GPGSV,5,1,17,05,43,038,19,10,02,212,,12,72,069,22,13,14,110,18*7F
$GPGSV,5,2,17,15,39,142,32,18,33,287,22,20,10,033,10,23,43,209,21*78
$GPGSV,5,3,17,24,34,180,22,25,55,342,28,28,04,295,,29,13,343,*74
$GPGSV,5,4,17,36,52,277,,40,86,351,,41,58,082,,49,32,274,*7C
$GPGSV,5,5,17,50,10,089,*4A
$GLGSV,3,1,10,65,22,182,20,71,15,068,18,72,37,118,28,75,45,165,29*60
$GLGSV,3,2,10,76,66,308,20,77,20,328,,86,03,014,09,87,13,334,10*6F
$GLGSV,3,3,10,88,07,277,,,,,35*57
$GNGLL,0419.94746,S,05539.83235,E,063944.00,A,A*67
$GNGRS,063944.00,1,0.6,26.9,-0.5,-2.9,-0.2,11.3,-5.7,6.7,4.9,,,*78
$GNGRS,063944.00,1,0.3,15.5,6.2,-5.7,-2.6,8.7,,,,,,*63
$GNGST,063944.00,3097,,,,4.8,5.9,13*64
$GNZDA,063944.00,23,05,2025,00,00*75
$GNGBS,063944.00,4.8,5.9,13.4,,,,*65
$GNTXT,01,01,01,More than 100 frame errors, UART RX was disabled*70
b0X.+&
HEn!'
!
!Q
+B"7V'W{4V_:R 
Y
vAGDjH%vK-LB4tMHVWNX$Ab.rG0$GNRMC,063945.00,A,0419.94749,S,05539.83224,E,0.201,,230525,,,A*70
$GNVTG,,T,,M,0.201,N,0.373,K,A*39
$GNGNS,063945.00,0419.94749,S,05539.83224,E,AA,15,0.72,36.7,-47.6,,*6D
$GNGGA,063945.00,0419.94749,S,05539.83224,E,1,12,0.72,36.7,M,-47.6,M,,*40
$GNGSA,A,3,24,20,05,13,15,12,18,25,23,,,,1.34,0.72,1.13*17
$GNGSA,A,3,75,87,71,72,76,65,,,,,,,1.34,0.72,1.13*10
$GPGSV,5,1,17,05,43,038,21,10,02,212,,12,72,069,24,13,14,110,17*7D
$GPGSV,5,2,17,15,39,142,33,18,33,287,21,20,10,033,12,23,43,209,17*7D
$GPGSV,5,3,17,24,34,180,22,25,55,342,28,28,04,295,,29,13,343,*74
$GPGSV,5,4,17,36,52,277,,40,86,351,,41,58,082,,49,32,274,*7C
$GPGSV,5,5,17,50,10,089,*4A
$GLGSV,3,1,10,65,22,182,16,71,15,068,18,72,37,118,29,75,45,165,27*6A
$GLGSV,3,2,10,76,66,308,22,77,20,328,,86,03,014,11,87,13,334,07*62
$GLGSV,3,3,10,88,07,277,,,,,36*54
$GNGLL,0419.94749,S,05539.83224,E,063945.00,A,A*69
$GNGRS,063945.00,1,1.6,26.4,-1.1,-3.2,0.1,10.4,-5.6,5.0,3.2,,,*5B
$GNGRS,063945.00,1,6.5,14.9,6.2,-5.8,-1.4,10.3,,,,,,*5C
$GNGST,063945.00,4645,,,,4.8,5.9,13*6B
$GNZDA,063945.00,23,05,2025,00,00*74
$GNGBS,063945.00,4.8,5.9,13.4,,,,*64
$GNTXT,01,01,01,More than 100 frame errors, UART RX was disabled*70
$GNTXT,01,01,01,More than 100 frame errors, UART RX was disabled*70
b0X.+&e
HEn!'
!.
!
+"7V^'W{4V_:R 
YvAGDH%vK-/LB4MHV
WN9X#b.rI$GNRMC,063947.00,A,0419.94757,S,05539.83237,E,0.265,,230525,,,A*7D
$GNVTG,,T,,M,0.265,N,0.491,K,A*30
$GNGNS,063947.00,0419.94757,S,05539.83237,E,AA,15,0.72,38.3,-47.6,,*68
$GNGGA,063947.00,0419.94757,S,05539.83237,E,1,12,0.72,38.3,M,-47.6,M,,*45
$GNGSA,A,3,24,20,05,13,15,12,18,25,23,,,,1.34,0.72,1.13*17
$GNGSA,A,3,75,87,71,72,76,65,,,,,,,1.34,0.72,1.13*10
$GPGSV,5,1,17,05,43,038,23,10,02,212,,12,72,069,27,13,14,110,13*78
$GPGSV,5,2,17,15,39,142,33,18,33,287,19,20,10,033,11,23,43,209,12*70
$GPGSV,5,3,17,24,34,180,19,25,55,342,30,28,04,295,,29,13,343,*75
$GPGSV,5,4,17,36,52,277,,40,86,351,,41,58,082,,49,32,274,*7C
$GPGSV,5,5,17,50,10,089,*4A
$GLGSV,3,1,10,65,22,182,17,71,15,068,14,72,37,118,29,75,45,165,25*65
$GLGSV,3,2,10,76,66,308,22,77,20,328,,86,03,014,10,87,13,334,09*6D
$GLGSV,3,3,10,88,07,277,,,,,35*57
$GNGLL,0419.94757,S,05539.83237,E,063947.00,A,A*66
$GNGRS,063947.00,1,4.5,27.3,-1.5,-5.8,0.1,9.6,-4.7,0.9,-0.6,,,*4D
$GNGRS,063947.00,1,3.0,15.9,4.4,-5.0,1.5,9.3,,,,,,*47
$GNGST,063947.00,3097,,,,4.8,6.0,13*6D
$GNZDA,063947.00,23,05,2025,00,00*76
$GNGBS,063947.00,4.8,6.0,13.5,,,,*6D
$GNZDA,063948.00,23,05,2025,00,00*79
$GNGBS,063948.00,4.8,6.0,13.5,,,,*62
$GNTXT,01,01,01,More than 100 frame errors, UART RX was disabled*70
b0XX.+&
HESn '
!
!]+z"7V'W{4V_:R 
YvAGDH%vK-LB4MHVW
NX"`bX.r$GNRMC,063949.00,A,0419.94769,S,05539.83237,E,0.272,,230525,,,A*78
$GNVTG,,T,,M,0.272,N,0.503,K,A*3C
$GNGNS,063949.00,0419.94769,S,05539.83237,E,AA,14,0.89,39.1,-47.6,,*6D
$GNGGA,063949.00,0419.94769,S,05539.83237,E,1,12,0.89,39.1,M,-47.6,M,,*41
$GNGSA,A,3,24,20,05,13,15,12,18,25,23,,,,1.76,0.89,1.51*13
$GNGSA,A,3,75,87,72,76,65,,,,,,,,1.76,0.89,1.51*12
$GPGSV,5,1,17,05,43,038,20,10,02,212,,12,72,069,28,13,14,110,14*73
$GPGSV,5,2,17,15,39,142,32,18,33,287,18,20,10,033,13,23,43,209,14*74
$GPGSV,5,3,17,24,34,180,21,25,55,342,30,28,04,295,,29,13,343,*7E
$GPGSV,5,4,17,36,52,277,,40,86,351,,41,58,082,,49,32,274,*7C
$GPGSV,5,5,17,50,10,089,*4A
$GLGSV,3,1,10,65,22,182,14,71,15,068,,72,37,118,28,75,45,165,22*65
$GLGSV,3,2,10,76,66,308,20,77,20,328,,86,03,014,08,87,13,334,10*6E
$GLGSV,3,3,10,88,07,277,,,,,34*56
$GNGLL,0419.94769,S,05539.83237,E,063949.00,A,A*65
$GNGRS,063949.00,1,6.9,29.1,-3.3,-2.6,0.2,6.0,-3.8,-1.0,-3.9,,,*67
$GNGRS,063949.00,1,7.4,-46.3,-5.0,1.3,7.6,,,,,,,*4B
$GNGST,063949.00,47,,,,4.8,6.0,13*6D
$GNZDA,063949.00,23,05,2025,00,00*78
$GNGBS,063949.00,4.8,6.0,13.4,,,,*62
$GNTXT,01,01,01,More than 100 frame errors, UART RX was disabled*70
b0X@!.+&
HE\nW '
!
!
+T"j7V!'W{4V_:R 
YvAGDH%vK-yLB4MHVWNbX"jb@!.r5$GNRMC,063950.00,A,0419.94777,S,05539.83248,E,0.358,,230525,,,A*7E
$GNVTG,,T,,M,0.358,N,0.663,K,A*30
$GNGNS,063950.00,0419.94777,S,05539.83248,E,AA,13,0.89,39.9,-47.6,,*6D
$GNGGA,063950.00,0419.94777,S,05539.83248,E,1,12,0.89,39.9,M,-47.6,M,,*46
$GNGSA,A,3,24,20,05,13,15,12,18,25,23,,,,1.76,0.89,1.51*13
$GNGSA,A,3,75,72,76,65,,,,,,,,,1.76,0.89,1.51*1D
$GPGSV,5,1,17,05,43,038,21,10,02,212,,12,72,069,29,13,14,110,15*72
$GPGSV,5,2,17,15,39,142,32,18,33,287,15,20,10,033,15,23,43,209,16*7D
$GPGSV,5,3,17,24,34,180,20,25,55,342,31,28,04,295,,29,13,343,*7E
$GPGSV,5,4,17,36,52,277,,40,86,351,,41,58,082,,49,32,274,*7C
$GPGSV,5,5,17,50,10,089,*4A
$GLGSV,3,1,10,65,22,182,14,71,15,068,,72,37,118,28,75,45,165,21*66
$GLGSV,3,2,10,76,66,308,19,77,20,328,,86,03,014,09,87,13,334,06*62
$GLGSV,3,3,10,88,07,277,,,,,34*56
$GNGLL,0419.94777,S,05539.83248,E,063950.00,A,A*6A
$GNGRS,063950.00,1,6.2,27.7,-3.0,-4.3,0.1,0.9,-5.1,-2.2,-1.7,,,*62
$GNGRS,063950.00,1,8.9,-7.5,-0.3,4.3,,,,,,,,*5E
$GNGST,063950.00,48,,,,4.9,6.1,13*6A
$GNZDA,063950.00,23,05,2025,00,00*70
$GNGBS,063950.00,4.9,6.1,13.4,,,,*6A
$GNTXT,01,01,01,More than 100 frame errors, UART RX was disabled*70
b0X(%.+&
HEnl '
!

!
+"7Vr'W{4V_:R 
YvAGDH%vCK-MLB4gMHVWNMX"}b(%.r$GNRMC,063951.00,A,0419.94781,S,05539.83247,E,0.220,,230525,,,A*77
$GNVTG,,T,,M,0.220,N,0.408,K,A*31
$GNGNS,063951.00,0419.94781,S,05539.83247,E,AA,14,0.77,39.9,-47.6,,*6C
$GNGGA,063951.00,0419.94781,S,05539.83247,E,1,12,0.77,39.9,M,-47.6,M,,*40
$GNGSA,A,3,24,20,05,13,15,12,18,25,23,,,,1.39,0.77,1.16*1A
$GNGSA,A,3,75,87,72,76,65,,,,,,,,1.39,0.77,1.16*1B
$GPGSV,5,1,17,05,43,038,22,10,02,212,,12,72,069,28,13,14,110,13*76
$GPGSV,5,2,17,15,39,142,32,18,33,287,16,20,10,033,10,23,43,209,18*75
$GPGSV,5,3,17,24,34,180,20,25,55,342,31,28,04,295,,29,13,343,*7E
$GPGSV,5,4,17,36,52,277,,40,86,351,,41,58,082,27,49,32,274,*79
$GPGSV,5,5,17,50,10,089,*4A
$GLGSV,3,1,10,65,22,182,13,71,15,068,,72,37,118,28,75,45,165,21*61
$GLGSV,3,2,10,76,66,308,20,77,20,328,,86,03,014,12,87,13,334,12*67
$GLGSV,3,3,10,88,07,277,,,,,34*56
$GNGLL,0419.94781,S,05539.83247,E,063951.00,A,A*6D
$GNGRS,063951.00,1,4.5,27.8,-1.3,-1.5,0.1,3.8,-3.5,-1.4,-0.5,,,*6D
$GNGRS,063951.00,1,8.5,16.1,-9.6,1.0,4.3,,,,,,,*69
$GNGST,063951.00,3179277,,,,4.9,6.1,13*59
$GNZDA,063951.00,23,05,2025,00,00*71
$GNGBS,063951.00,4.9,6.1,13.4,,,,*6B
$GNTXT,01,01,01,More than 100 frame errors, UART RX was disabled*70
b0X).+&r
HEnJ ''
! 
!+"p7VE'W{4V_:R 
Yv{AGDH%vK-LB4MHVWNl!X"b).r$GNRMC,063952.00,A,0419.94785,S,05539.83241,E,0.142,,230525,,,A*71
$GNVTG,,T,,M,0.142,N,0.263,K,A*3D
$GNGNS,063952.00,0419.94785,S,05539.83241,E,AA,14,0.80,40.2,-47.6,,*60
$GNGGA,063952.00,0419.94785,S,05539.83241,E,1,12,0.80,40.2,M,-47.6,M,,*4C
$GNGSA,A,3,24,20,05,13,15,12,18,25,23,,,,1.48,0.80,1.25*14
$GNGSA,A,3,75,87,72,76,65,,,,,,,,1.48,0.80,1.25*15
$GPGSV,5,1,17,05,43,038,21,10,02,212,,12,72,069,28,13,14,110,12*74
$GPGSV,5,2,17,15,39,142,32,18,33,287,20,20,10,033,16,23,43,209,18*76
$GPGSV,5,3,17,24,34,180,20,25,55,342,30,28,04,295,,29,13,343,*7F
$GPGSV,5,4,17,36,52,277,,40,86,351,,41,58,082,27,49,32,274,*79
$GPGSV,5,5,17,50,10,089,*4A
$GLGSV,3,1,10,65,22,182,14,71,15,068,,72,37,118,28,75,45,165,23*64
$GLGSV,3,2,10,76,66,308,19,77,20,328,,86,03,014,11,87,13,334,11*6D
$GLGSV,3,3,10,88,07,277,,,,,34*56
$GNGLL,0419.94785,S,05539.83241,E,063952.00,A,A*6C
$GNGRS,063952.00,1,3.7,-7.8,-1.4,-1.8,0.4,2.2,-4.8,3.2,-2.5,,,*51
$GNGRS,063952.00,1,7.8,85.6,-13.1,-0.6,4.5,,,,,,,*75
$GNGST,063952.00,49,,,,4.9,6.1,13*69
$GNZDA,063952.00,23,05,2025,00,00*72
$GNGBS,063952.00,4.9,6.1,13.3,,,,*6F
$GNTXT,01,01,01,More than 100 frame errors, UART RX was disabled*70
b0X,.+&8
HE
n!'7
!
!
+M"a7V'W{4V_:R 
YvAGDH%vKK-LB4MHVWN!X"+b,.rW^$GNRMC,063953.00,A,0419.94789,S,05539.83232,E,0.103,,230525,,,A*7D
$GNVTG,,T,,M,0.103,N,0.191,K,A*36
$GNGNS,063953.00,0419.94789,S,05539.83232,E,AA,14,0.77,40.3,-47.6,,*60
$GNGGA,063953.00,0419.94789,S,05539.83232,E,1,12,0.77,40.3,M,-47.6,M,,*4C
$GNGSA,A,3,24,20,05,13,15,12,18,25,23,,,,1.39,0.77,1.16*1A
$GNGSA,A,3,75,87,72,76,65,,,,,,,,1.39,0.77,1.16*1B
$GPGSV,5,1,17,05,43,038,20,10,02,212,,12,72,069,28,13,14,110,10*77
$GPGSV,5,2,17,15,39,142,33,18,33,287,20,20,10,033,13,23,43,209,17*7D
$GPGSV,5,3,17,24,34,180,21,25,55,342,31,28,04,295,,29,13,343,*7F
$GPGSV,5,4,17,36,52,277,,40,86,351,,41,58,082,27,49,32,274,*79
$GPGSV,5,5,17,50,10,089,*4A
$GLGSV,3,1,10,65,22,182,15,71,15,068,,72,37,118,28,75,45,165,25*63
$GLGSV,3,2,10,76,66,308,18,77,20,328,,86,03,014,11,87,13,334,09*65
$GLGSV,3,3,10,88,07,277,,,,,34*56
$GNGLL,0419.94789,S,05539.83232,E,063953.00,A,A*65
$GNGRS,063953.00,1,1.0,27.1,0.6,-2.4,0.6,2.2,-5.8,1.7,-4.3,,,*66
$GNGRS,063953.00,1,7.5,15.7,-12.1,-0.2,5.4,,,,,,,*74
$GNGST,063953.00,3179277,,,,4.9,6.2,13*58
$GNZDA,063953.00,23,05,2025,00,00*73
$GNGBS,063953.00,4.9,6.2,13.3,,,,*6D
$GNTXT,01,01,01,More than 100 frame errors, UART RX was disabled*70
b0X0.+&
HEkn '
!
!
+k"@ 7V1'W{4V_:R 
YvZAGDH%v0K-SLB4MHV
WNX"Yb0.ro/$GNRMC,063954.00,A,0419.94799,S,05539.83212,E,0.562,,230525,,,A*7A
$GNVTG,,T,,M,0.562,N,1.041,K,A*38
$GNGNS,063954.00,0419.94799,S,05539.83212,E,AA,14,0.77,39.9,-47.6,,*60
$GNGGA,063954.00,0419.94799,S,05539.83212,E,1,12,0.77,39.9,M,-47.6,M,,*4C
$GNGSA,A,3,24,20,05,13,15,12,18,25,23,,,,1.39,0.77,1.16*1A
$GNGSA,A,3,75,87,72,76,65,,,,,,,,1.39,0.77,1.16*1B
$GPGSV,5,1,17,05,43,038,20,10,02,212,,12,72,069,28,13,14,110,12*75
$GPGSV,5,2,17,15,39,142,32,18,33,287,18,20,10,033,11,23,43,209,17*75
$GPGSV,5,3,17,24,34,180,20,25,55,342,32,28,04,295,,29,13,343,*7D
$GPGSV,5,4,17,36,52,277,,40,86,351,,41,58,082,,49,32,274,*7C
$GPGSV,5,5,17,50,10,089,*4A
$GLGSV,3,1,10,65,22,182,15,71,15,068,,72,37,118,27,75,45,165,23*6A
$GLGSV,3,2,10,76,66,308,17,77,20,328,,86,03,014,10,87,13,334,12*61
$GLGSV,3,3,10,88,07,277,,,,,34*56
$GNGLL,0419.94799,S,05539.83212,E,063954.00,A,A*61
$GNGRS,063954.00,1,-1.9,26.9,-0.6,-1.2,0.2,-1.5,-5.9,0.5,-4.1,,,*49
$GNGRS,063954.00,1,8.5,15.3,-12.3,-0.9,7.2,,,,,,,*75
$GNGST,063954.00,3179277,,,,5.0,6.2,13*57
$GNZDA,063954.00,23,05,2025,00,00*74
$GNGBS,063954.00,5.0,6.2,13.4,,,,*65
b0X4.+&
HE{nH'+
! 

!9+"7Vo'W{4V_:R 
YvAGDH%v5K-kLB4MHVWNLX#b4.rW.$GNRMC,063955.00,A,0419.94803,S,05539.83194,E,0.474,,230525,,,A*7C
$GNVTG,,T,,M,0.474,N,0.877,K,A*32
$GNGNS,063955.00,0419.94803,S,05539.83194,E,AA,14,0.80,39.5,-47.6,,*64
$GNGGA,063955.00,0419.94803,S,05539.83194,E,1,12,0.80,39.5,M,-47.6,M,,*48
$GNGSA,A,3,24,20,05,13,15,12,18,25,23,,,,1.48,0.80,1.25*14
$GNGSA,A,3,75,87,72,76,65,,,,,,,,1.48,0.80,1.25*15
$GPGSV,5,1,17,05,43,038,21,10,02,212,,12,72,069,29,13,14,110,11*76
$GPGSV,5,2,17,15,39,142,31,18,33,287,15,20,10,033,10,23,43,209,17*7A
$GPGSV,5,3,17,24,34,180,20,25,55,342,30,28,04,295,,29,13,343,*7F
$GPGSV,5,4,17,36,52,277,,40,86,351,,41,58,082,,49,32,274,*7C
$GPGSV,5,5,17,50,10,089,*4A
$GLGSV,3,1,10,65,22,182,16,71,15,068,,72,37,118,27,75,45,165,22*68
$GLGSV,3,2,10,76,66,308,15,77,20,328,,86,03,014,09,87,13,334,11*68
$GLGSV,3,3,10,88,07,277,,,,,35*57
$GNGLL,0419.94803,S,05539.83194,E,063955.00,A,A*61
$GNGRS,063955.00,1,-4.8,8.2,1.5,0.7,0.4,1.2,-4.8,1.1,-5.2,,,*56
$GNGRS,063955.00,1,6.2,28.9,-12.3,-0.7,9.0,,,,,,,*7B
$GNGST,063955.00,53,,,,5.0,6.2,13*6E
$GNZDA,063955.00,23,05,2025,00,00*75
$GNGBS,063955.00,5.0,6.2,13.3,,,,*63
b0X8.+&
HEn"'5
!
!\
+"97V'W{4V_:R 
YvAGCH%vIK-LB4ZMHVWNX#b8.r?$GNRMC,063956.00,A,0419.94792,S,05539.83204,E,0.587,,230525,,,A*7F
$GNVTG,,T,,M,0.587,N,1.086,K,A*38
$GNGNS,063956.00,0419.94792,S,05539.83204,E,AA,14,0.77,39.3,-47.6,,*64
$GNGGA,063956.00,0419.94792,S,05539.83204,E,1,12,0.77,39.3,M,-47.6,M,,*48
$GNGSA,A,3,24,20,05,13,15,12,18,25,23,,,,1.39,0.77,1.16*1A
$GNGSA,A,3,75,87,72,76,65,,,,,,,,1.39,0.77,1.16*1B
$GPGSV,5,1,17,05,43,038,20,10,02,212,,12,72,069,28,13,14,110,13*74
$GPGSV,5,2,17,15,39,142,31,18,33,287,13,20,10,033,08,23,43,209,15*77
$GPGSV,5,3,17,24,34,180,21,25,55,342,31,28,04,295,,29,13,343,*7F
$GPGSV,5,4,17,36,52,277,,40,86,351,,41,58,082,,49,32,274,*7C
$GPGSV,5,5,17,50,10,089,*4A
$GLGSV,3,1,10,65,22,182,17,71,15,067,,72,37,118,27,75,45,165,21*65
$GLGSV,3,2,10,76,66,308,17,77,20,328,,86,03,014,08,87,13,334,08*63
$GLGSV,3,3,10,88,07,277,,,,,35*57
$GNGLL,0419.94792,S,05539.83204,E,063956.00,A,A*6F
$GNGRS,063956.00,1,-4.6,26.5,2.4,-2.2,0.5,-1.1,-5.7,2.7,-3.1,,,*69
$GNGRS,063956.00,1,7.2,15.6,-12.1,-1.7,6.5,,,,,,,*71
$GNGST,063956.00,153836,,,,5.0,6.3,13*60
$GNZDA,063956.00,23,05,2025,00,00*76
$GNGBS,063956.00,5.0,6.3,13.3,,,,*61
$GNTXT,01,01,01,More than 100 frame errors, UART RX was disabled*70
b0X<.+&
HEmn4 '3
!
!I
+l" 7V'W{4V_:R 
YvAuGCH%vK-LB4;MHVWNX"b<.r'$GNRMC,063957.00,A,0419.94801,S,05539.83199,E,0.242,,230525,,,A*72
$GNVTG,,T,,M,0.242,N,0.449,K,A*30
$GNGNS,063957.00,0419.94801,S,05539.83199,E,AA,14,0.77,39.4,-47.6,,*60
$GNGGA,063957.00,0419.94801,S,05539.83199,E,1,12,0.77,39.4,M,-47.6,M,,*4C
$GNGSA,A,3,24,20,05,13,15,12,18,25,23,,,,1.39,0.77,1.16*1A
$GNGSA,A,3,75,87,72,76,65,,,,,,,,1.39,0.77,1.16*1B
$GPGSV,5,1,17,05,43,038,21,10,02,212,,12,72,069,27,13,14,110,16*7F
$GPGSV,5,2,17,15,39,142,32,18,33,287,12,20,10,033,09,23,43,209,17*76
$GPGSV,5,3,17,24,34,180,21,25,55,342,32,28,04,295,,29,13,343,*7C
$GPGSV,5,4,17,36,52,277,,40,86,351,,41,58,082,,49,32,274,*7C
$GPGSV,5,5,17,50,10,089,*4A
$GLGSV,3,1,10,65,22,182,16,71,15,067,,72,37,118,27,75,45,165,21*64
$GLGSV,3,2,10,76,66,308,18,77,20,328,,86,03,014,07,87,13,334,11*6B
$GLGSV,3,3,10,88,07,277,,,,,34*56
$GNGLL,0419.94801,S,05539.83199,E,063957.00,A,A*6C
$GNGRS,063957.00,1,-3.5,26.3,2.1,-2.0,0.5,-1.5,-5.7,-3.0,-1.5,,,*44
$GNGRS,063957.00,1,7.3,15.6,-11.2,-2.0,6.3,,,,,,,*73
$GNGST,063957.00,3179277,,,,5.1,6.3,13*54
$GNZDA,063957.00,23,05,2025,00,00*77
$GNGBS,063957.00,5.1,6.3,13.3,,,,*61
$GNTXT,01,01,01,More than 100 frame errors, UART RX was disabled*70
b0X@.+&!
HEn: 'X
!


!+" 7V%'W{4V_:R 
YvAGCH%vK-LB4MHV
W
N%X#F>b@.rf$GNRMC,063958.00,A,0419.94808,S,05539.83204,E,0.130,,230525,,,A*75
$GNVTG,,T,,M,0.130,N,0.240,K,A*39
$GNGNS,063958.00,0419.94808,S,05539.83204,E,AA,14,0.80,39.7,-47.6,,*6A
$GNGGA,063958.00,0419.94808,S,05539.83204,E,1,12,0.80,39.7,M,-47.6,M,,*46
$GNGSA,A,3,24,20,05,13,15,12,18,25,23,,,,1.48,0.80,1.25*14
$GNGSA,A,3,75,87,72,76,65,,,,,,,,1.48,0.80,1.25*15
$GPGSV,5,1,17,05,43,038,21,10,02,212,,12,72,069,28,13,14,110,15*73
$GPGSV,5,2,17,15,39,142,32,18,33,287,11,20,10,033,10,23,43,209,17*7D
$GPGSV,5,3,17,24,34,180,20,25,55,342,32,28,04,295,,29,13,343,*7D
$GPGSV,5,4,17,36,52,277,,40,86,351,,41,58,082,,49,32,274,*7C
$GPGSV,5,5,17,50,10,089,*4A
$GLGSV,3,1,10,65,22,182,14,71,15,067,,72,37,118,27,75,45,165,20*67
$GLGSV,3,2,10,76,66,308,18,77,20,328,,86,03,014,10,87,13,334,10*6C
$GLGSV,3,3,10,88,07,277,,,,,35*57
$GNGLL,0419.94808,S,05539.83204,E,063958.00,A,A*6D
$GNGRS,063958.00,1,-3.9,-18.0,0.3,-2.0,0.9,-0.9,-5.0,-2.2,-2.5,,,*62
$GNGRS,063958.00,1,8.0,-58.5,-11.0,-3.1,5.3,,,,,,,*56
$GNGST,063958.00,54,,,,5.1,6.4,13*63
$GNZDA,063958.00,23,05,2025,00,00*78
$GNGBS,063958.00,5.1,6.4,13.3,,,,*69
$GNTXT,01,01,01,More than 100 frame errors, UART RX was disabled*70
$GNTXT,01,01,01,More than 100 frame errors, UART RX was disabled*70
b0XPH.+&
HEFn'4

!1
!
+"7Vm'W{4V_:R 
YvAGCH%vqK,LB4(MHVWNX"PbPH.r>3$GNRMC,064000.00,A,0419.94821,S,05539.83190,E,0.367,,230525,,,A*73
$GNVTG,,T,,M,0.367,N,0.680,K,A*31
$GNGNS,064000.00,0419.94821,S,05539.83190,E,AA,14,0.77,39.7,-47.6,,*64
$GNGGA,064000.00,0419.94821,S,05539.83190,E,1,12,0.77,39.7,M,-47.6,M,,*48
$GNGSA,A,3,24,20,05,13,15,12,18,25,23,,,,1.39,0.77,1.16*1A
$GNGSA,A,3,75,87,72,76,65,,,,,,,,1.39,0.77,1.16*1B
$GPGSV,5,1,17,05,43,038,22,10,02,212,,12,72,069,29,13,14,110,15*71
$GPGSV,5,2,17,15,39,142,31,18,33,287,10,20,10,033,14,23,43,209,15*79
$GPGSV,5,3,17,24,34,180,20,25,55,342,31,28,04,295,,29,13,343,*7E
$GPGSV,5,4,17,36,52,277,,40,86,351,,41,58,082,,49,32,274,*7C
$GPGSV,5,5,17,50,10,089,*4A
$GLGSV,3,1,10,65,22,182,12,71,15,067,,72,37,118,27,75,44,165,21*61
$GLGSV,3,2,10,76,66,308,17,77,20,328,,86,03,014,08,87,13,334,11*6B
$GLGSV,3,3,10,88,07,277,,,,,34*56
$GNGLL,0419.94821,S,05539.83190,E,064000.00,A,A*6B
$GNGRS,064000.00,1,-2.7,27.5,2.6,-3.1,0.5,-1.9,-9.8,1.1,-3.2,,,*6F
$GNGRS,064000.00,1,4.1,15.5,-11.7,-2.2,7.3,,,,,,,*7B
$GNGST,064000.00,19230,,,,5.2,6.5,13*5A
$GNZDA,064000.00,23,05,2025,00,00*7B
$GNGBS,064000.00,5.2,6.5,13.3,,,,*68
b0X8L.+&
HEnC!'G
!

!+<"7V0'W{4V_:R 
YvAGCH%v>K,\LC3MHVWN8X#!b8L.r$GNRMC,064001.00,A,0419.94830,S,05539.83175,E,0.480,,230525,,,A*77
$GNVTG,,T,,M,0.480,N,0.889,K,A*38
$GNGNS,064001.00,0419.94830,S,05539.83175,E,AA,14,0.89,40.0,-47.6,,*66
$GNGGA,064001.00,0419.94830,S,05539.83175,E,1,12,0.89,40.0,M,-47.6,M,,*4A
$GNGSA,A,3,24,20,05,13,15,12,18,25,23,,,,1.76,0.89,1.51*13
$GNGSA,A,3,75,87,72,76,65,,,,,,,,1.76,0.89,1.51*12
$GPGSV,5,1,17,05,43,038,22,10,02,212,,12,72,069,29,13,14,110,17*73
$GPGSV,5,2,17,15,39,142,33,18,33,287,09,20,10,033,10,23,43,209,17*75
$GPGSV,5,3,17,24,34,180,20,25,55,342,31,28,04,295,,29,13,343,*7E
$GPGSV,5,4,17,36,52,277,,40,86,351,,41,58,082,,49,32,274,*7C
$GPGSV,5,5,17,50,10,089,*4A
$GLGSV,3,1,10,65,22,182,13,71,15,067,,72,37,118,27,75,44,165,22*63
$GLGSV,3,2,10,76,67,307,15,77,20,328,,86,03,014,08,87,13,334,11*67
$GLGSV,3,3,10,88,07,277,,,,,35*57
$GNGLL,0419.94830,S,05539.83175,E,064001.00,A,A*61
$GNGRS,064001.00,1,-2.9,-92.0,4.1,-1.9,0.7,-2.6,-10.3,3.0,-4.5,,,*73
$GNGRS,064001.00,1,3.5,44.1,-12.2,-3.4,8.0,,,,,,,*74
$GNGST,064001.00,52,,,,5.2,6.5,13*65
$GNZDA,064001.00,23,05,2025,00,00*7A
$GNGBS,064001.00,5.2,6.5,13.3,,,,*69
$GNTXT,01,01,01,More than 100 frame errors, UART RX was disabled*70
$GNTXT,01,01,01,More than 100 frame errors, UART RX was disabled*70
b0XW.+&
HEn!'$
!
!1+l" 7V'W{4V_:R 
YvFAGCH%vlK,LC3MGVWNmX">bW.r$GNRMC,064004.00,A,0419.94854,S,05539.83132,E,0.212,,230525,,,A*7E
$GNVTG,,T,,M,0.212,N,0.392,K,A*34
$GNGNS,064004.00,0419.94854,S,05539.83132,E,AA,14,0.89,39.8,-47.6,,*64
$GNGGA,064004.00,0419.94854,S,05539.83132,E,1,12,0.89,39.8,M,-47.6,M,,*48
$GNGSA,A,3,24,20,05,13,15,12,18,25,23,,,,1.76,0.89,1.51*13
$GNGSA,A,3,75,87,72,76,65,,,,,,,,1.76,0.89,1.51*12
$GPGSV,5,1,17,05,43,038,18,10,02,212,,12,72,069,30,13,14,110,17*72
$GPGSV,5,2,17,15,39,142,33,18,33,287,13,20,10,033,09,23,43,209,12*73
$GPGSV,5,3,17,24,34,180,16,25,55,342,32,28,04,295,,29,13,343,*78
$GPGSV,5,4,17,36,52,277,,40,86,351,,41,58,082,,49,32,274,*7C
$GPGSV,5,5,17,50,10,089,*4A
$GLGSV,3,1,10,65,22,182,15,71,15,067,,72,37,118,26,75,44,165,20*66
$GLGSV,3,2,10,76,67,307,20,77,21,327,,86,03,014,09,87,13,334,09*67
$GLGSV,3,3,10,88,07,277,,,,,34*56
$GNGLL,0419.94854,S,05539.83132,E,064004.00,A,A*65
$GNGRS,064004.00,1,-6.4,28.6,2.8,2.9,0.4,-3.2,-20.8,1.7,-1.5,,,*7A
$GNGRS,064004.00,1,6.5,-34.8,-11.7,-2.9,9.9,,,,,,,*55
$GNGST,064004.00,50,,,,5.3,6.7,13*61
$GNZDA,064004.00,23,05,2025,00,00*7F
$GNGBS,064004.00,5.3,6.7,13.3,,,,*6F
$GNTXT,01,01,01,More than 100 frame errors, UART RX was disabled*70
$GNTXT,01,01,01,More than 100 frame errors, UART RX was disabled*70
b0X_.+&S
HEn{ '6
!

!
+"P 7V'W{4V_:R 
Yv>AGCH%v-K,0LC3MGVWNX"Ib_.rOM$GNRMC,064006.00,A,0419.94872,S,05539.83102,E,0.651,,230525,,,A*78
$GNVTG,,T,,M,0.651,N,1.205,K,A*39
$GNGNS,064006.00,0419.94872,S,05539.83102,E,AA,14,0.77,39.8,-47.6,,*60
$GNGGA,064006.00,0419.94872,S,05539.83102,E,1,12,0.77,39.8,M,-47.6,M,,*4C
$GNGSA,A,3,24,20,05,13,15,12,18,25,23,,,,1.39,0.77,1.16*1A
$GNGSA,A,3,75,87,72,76,65,,,,,,,,1.39,0.77,1.16*1B
$GPGSV,5,1,17,05,43,038,17,10,02,212,,12,72,069,30,13,14,110,16*7C
$GPGSV,5,2,17,15,39,142,32,18,33,287,09,20,10,033,10,23,43,209,14*77
$GPGSV,5,3,17,24,34,180,17,25,55,342,32,28,04,295,,29,13,343,*79
$GPGSV,5,4,17,36,52,277,,40,86,351,,41,58,082,,49,32,274,*7C
$GPGSV,5,5,17,50,10,089,*4A
$GLGSV,3,1,10,65,22,182,14,71,15,067,,72,37,118,26,75,44,165,21*66
$GLGSV,3,2,10,76,67,307,19,77,21,327,,86,03,014,12,87,13,334,09*67
$GLGSV,3,3,10,88,07,277,,,,,34*56
$GNGLL,0419.94872,S,05539.83102,E,064006.00,A,A*60
$GNGRS,064006.00,1,-6.9,27.8,0.8,6.4,0.5,-0.6,9.9,-1.2,-3.1,,,*40
$GNGRS,064006.00,1,8.2,15.5,-9.8,-1.0,7.2,,,,,,,*44
$GNGST,064006.00,3183642,,,,5.4,6.9,13*56
$GNZDA,064006.00,23,05,2025,00,00*7D
$GNGBS,064006.00,5.4,6.9,13.3,,,,*64
$GNTXT,01,01,01,More than 100 frame errors, UART RX was disabled*70
b0Xc.+&
HEhna '
!
!C+;" 7V<'W{4V_:R 
YvA
GCH%v\K,LC3MGVWNLX"bc.r7%$GNRMC,064007.00,A,0419.94855,S,05539.83123,E,0.532,,230525,,,A*79
$GNVTG,,T,,M,0.532,N,0.986,K,A*3E
$GNGNS,064007.00,0419.94855,S,05539.83123,E,AA,14,0.77,39.6,-47.6,,*69
$GNGGA,064007.00,0419.94855,S,05539.83123,E,1,12,0.77,39.6,M,-47.6,M,,*45
$GNGSA,A,3,24,20,05,13,15,12,18,25,23,,,,1.39,0.77,1.16*1A
$GNGSA,A,3,75,87,72,76,65,,,,,,,,1.39,0.77,1.16*1B
$GPGSV,5,1,17,05,43,038,15,10,02,212,,12,72,069,30,13,14,110,16*7E
$GPGSV,5,2,17,15,39,142,32,18,33,287,15,20,10,033,12,23,43,209,17*7B
$GPGSV,5,3,17,24,34,180,17,25,55,342,32,28,04,295,,29,13,343,*79
$GPGSV,5,4,17,36,52,277,,40,86,351,,41,58,082,,49,32,274,*7C
$GPGSV,5,5,17,50,10,089,*4A
$GLGSV,3,1,10,65,22,182,15,71,15,067,,72,37,118,26,75,44,165,21*67
$GLGSV,3,2,10,76,67,307,18,77,21,327,,86,03,014,13,87,13,334,08*66
$GLGSV,3,3,10,88,07,277,,,,,34*56
$GNGLL,0419.94855,S,05539.83123,E,064007.00,A,A*67
$GNGRS,064007.00,1,-7.9,49.3,-0.6,8.6,2.5,1.0,-38.6,3.2,-4.5,,,*78
$GNGRS,064007.00,1,7.9,-17.2,-9.3,0.3,7.8,,,,,,,*47
$GNGST,064007.00,61,,,,5.4,6.9,13*69
$GNZDA,064007.00,23,05,2025,00,00*7C
$GNGBS,064007.00,5.4,6.9,13.3,,,,*65
b0Xxk.+&n
HEn'
!+

!]
+" 7V'W{4V_:R 
Yv AGCH%vK,=LC3MGVWNX"Obxk.r$GNRMC,064009.00,A,0419.94815,S,05539.83152,E,0.853,,230525,,,A*7F
$GNVTG,,T,,M,0.853,N,1.579,K,A*39
$GNGNS,064009.00,0419.94815,S,05539.83152,E,AA,14,0.77,38.6,-47.6,,*64
$GNGGA,064009.00,0419.94815,S,05539.83152,E,1,12,0.77,38.6,M,-47.6,M,,*48
$GNGSA,A,3,24,20,05,13,15,12,18,25,23,,,,1.39,0.77,1.16*1A
$GNGSA,A,3,75,87,72,76,65,,,,,,,,1.39,0.77,1.16*1B
$GPGSV,5,1,17,05,43,038,19,10,02,212,,12,72,069,28,13,14,110,17*7A
$GPGSV,5,2,17,15,39,142,30,18,33,287,11,20,10,033,10,23,43,209,18*70
$GPGSV,5,3,17,24,34,180,12,25,55,342,32,28,04,295,,29,13,343,*7C
$GPGSV,5,4,17,36,52,277,,40,86,351,,41,58,082,,49,32,274,*7C
$GPGSV,5,5,17,50,10,089,*4A
$GLGSV,3,1,10,65,22,182,17,71,15,067,,72,37,118,27,75,44,165,23*66
$GLGSV,3,2,10,76,67,307,21,77,21,327,,86,03,014,08,87,13,334,12*6D
$GLGSV,3,3,10,88,07,277,,,,,34*56
$GNGLL,0419.94815,S,05539.83152,E,064009.00,A,A*6B
$GNGRS,064009.00,1,-16.6,26.5,-1.5,7.5,4.1,-3.2,10.7,0.1,-5.8,,,*4D
$GNGRS,064009.00,1,8.3,14.9,-8.3,-1.1,7.7,,,,,,,*49
$GNGST,064009.00,4496177,,,,5.5,7.0,13*57
$GNZDA,064009.00,23,05,2025,00,00*72
$GNGBS,064009.00,5.5,7.0,13.4,,,,*65
$GNTXT,01,01,01,More than 100 frame errors, UART RX was disabled*70
b0X`o.+&
HEtn?']
!
!+" 7Vy'W{4V_:R 
Yv!AGCH%vK,LC3MGVWNX!>b`o.r1$GNRMC,064010.00,A,0419.94797,S,05539.83169,E,0.717,,230525,,,A*75
$GNVTG,,T,,M,0.717,N,1.327,K,A*3B
$GNGNS,064010.00,0419.94797,S,05539.83169,E,AA,13,0.89,38.1,-47.6,,*60
$GNGGA,064010.00,0419.94797,S,05539.83169,E,1,12,0.89,38.1,M,-47.6,M,,*4B
$GNGSA,A,3,24,20,05,13,15,12,18,25,23,,,,1.75,0.89,1.51*10
$GNGSA,A,3,75,72,76,65,,,,,,,,,1.75,0.89,1.51*1E
$GPGSV,5,1,17,05,43,038,17,10,02,212,,12,72,069,28,13,14,110,19*7A
$GPGSV,5,2,17,15,39,142,30,18,33,287,11,20,10,033,08,23,43,209,16*77
$GPGSV,5,3,17,24,34,180,12,25,55,342,32,28,04,295,,29,13,343,*7C
$GPGSV,5,4,17,36,52,277,,40,86,351,,41,58,082,,49,32,274,*7C
$GPGSV,5,5,17,50,10,089,*4A
$GLGSV,3,1,10,65,22,182,18,71,15,067,,72,37,118,27,75,44,165,22*68
$GLGSV,3,2,10,76,67,307,21,77,21,327,,86,03,014,09,87,13,334,06*69
$GLGSV,3,3,10,88,07,277,,,,,33*51
$GNGLL,0419.94797,S,05539.83169,E,064010.00,A,A*6E
$GNGRS,064010.00,1,-15.1,-79.5,0.0,8.3,3.5,-1.4,-23.7,1.2,-4.8,,,*6F
$GNGRS,064010.00,1,7.8,-8.4,-0.6,7.8,,,,,,,,*59
$GNGST,064010.00,52,,,,5.5,7.0,13*66
$GNZDA,064010.00,23,05,2025,00,00*7A
$GNGBS,064010.00,5.5,7.0,13.4,,,,*6D
b0XHs.+&
HEn'
!"

!
+
"!7V'W{4V_:R 
Yv:AGCH%vK,
LC3MGVWNX!/bHs.r$GNRMC,064011.00,A,0419.94784,S,05539.83174,E,0.679,,230525,,,A*73
$GNVTG,,T,,M,0.679,N,1.257,K,A*34
$GNGNS,064011.00,0419.94784,S,05539.83174,E,AA,13,0.81,37.5,-47.6,,*6C
$GNGGA,064011.00,0419.94784,S,05539.83174,E,1,12,0.81,37.5,M,-47.6,M,,*47
$GNGSA,A,3,20,05,13,15,12,18,25,23,,,,,1.41,0.81,1.16*1A
$GNGSA,A,3,75,87,72,76,65,,,,,,,,1.41,0.81,1.16*1D
$GPGSV,5,1,17,05,43,038,16,10,02,212,,12,72,069,30,13,14,110,19*72
$GPGSV,5,2,17,15,39,142,30,18,33,287,11,20,10,033,10,23,43,209,15*7D
$GPGSV,5,3,17,24,34,180,10,25,55,342,33,28,04,295,,29,13,343,*7F
$GPGSV,5,4,17,36,52,277,,40,86,351,,41,58,082,,49,32,274,*7C
$GPGSV,5,5,17,50,10,089,*4A
$GLGSV,3,1,10,65,22,182,17,71,15,067,,72,37,118,27,75,44,165,21*64
$GLGSV,3,2,10,76,67,307,21,77,21,327,,86,03,015,07,87,13,334,11*60
$GLGSV,3,3,10,88,07,277,,,,,33*51
$GNGLL,0419.94784,S,05539.83174,E,064011.00,A,A*61
$GNGRS,064011.00,1,27.1,1.9,9.6,-0.3,-0.8,10.6,1.4,-3.5,,,,*73
$GNGRS,064011.00,1,7.8,15.4,-10.7,-0.9,9.1,,,,,,,*74
$GNGST,064011.00,3305321,,,,5.6,7.0,13*56
$GNZDA,064011.00,23,05,2025,00,00*7B
$GNGBS,064011.00,5.6,7.0,13.3,,,,*68
b0X0w.+&S
HE3n_'
!
!
+u
"!7VA'W{4V_:R 
YvAGCH%vK,LC3MGVWNX!&db0w.r\$GNRMC,064012.00,A,0419.94775,S,05539.83186,E,0.600,,230525,,,A*7D
$GNVTG,,T,,M,0.600,N,1.110,K,A*3A
$GNGNS,064012.00,0419.94775,S,05539.83186,E,AA,14,0.77,37.5,-47.6,,*62
$GNGGA,064012.00,0419.94775,S,05539.83186,E,1,12,0.77,37.5,M,-47.6,M,,*4E
$GNGSA,A,3,24,20,05,13,15,12,18,25,23,,,,1.39,0.77,1.16*1A
$GNGSA,A,3,75,87,72,76,65,,,,,,,,1.39,0.77,1.16*1B
$GPGSV,5,1,17,05,43,038,16,10,02,212,,12,72,069,30,13,14,110,18*73
$GPGSV,5,2,17,15,39,142,31,18,33,287,12,20,10,033,08,23,43,209,13*70
$GPGSV,5,3,17,24,34,180,10,25,55,342,33,28,04,295,,29,13,343,*7F
$GPGSV,5,4,17,36,52,277,,40,86,351,,41,58,082,,49,32,274,*7C
$GPGSV,5,5,17,50,10,089,*4A
$GLGSV,3,1,10,65,22,182,16,71,15,067,,72,37,118,26,75,44,165,22*67
$GLGSV,3,2,10,76,67,307,22,77,21,327,,86,03,015,09,87,13,334,08*65
$GLGSV,3,3,10,88,07,277,,,,,33*51
$GNGLL,0419.94775,S,05539.83186,E,064012.00,A,A*61
$GNGRS,064012.00,1,-12.9,27.1,3.4,11.2,4.8,5.6,10.5,0.6,-3.9,,,*73
$GNGRS,064012.00,1,7.5,15.3,-11.4,-0.3,9.6,,,,,,,*72
$GNGST,064012.00,4496177,,,,5.6,7.1,13*5F
$GNZDA,064012.00,23,05,2025,00,00*78
$GNGBS,064012.00,5.6,7.1,13.3,,,,*6A
b0X{.+&
HE]nn'G
!
!+"?!7VS'W{4V_:R 
YvAjGCH%vK,GLC3CMGVWNX!b{.r4i$GNRMC,064013.00,A,0419.94776,S,05539.83190,E,0.091,,230525,,,A*76
$GNVTG,,T,,M,0.091,N,0.168,K,A*3A
$GNGNS,064013.00,0419.94776,S,05539.83190,E,AA,14,0.80,37.6,-47.6,,*6C
$GNGGA,064013.00,0419.94776,S,05539.83190,E,1,12,0.80,37.6,M,-47.6,M,,*40
$GNGSA,A,3,24,20,05,13,15,12,18,25,23,,,,1.48,0.80,1.25*14
$GNGSA,A,3,75,87,72,76,65,,,,,,,,1.48,0.80,1.25*15
$GPGSV,5,1,17,05,43,038,18,10,02,212,,12,72,069,31,13,14,110,19*7D
$GPGSV,5,2,17,15,39,142,31,18,33,287,16,20,10,033,14,23,43,209,13*79
$GPGSV,5,3,17,24,34,180,08,25,55,342,33,28,04,295,,29,13,343,*76
$GPGSV,5,4,17,36,52,277,,40,86,351,,41,58,082,,49,32,274,*7C
$GPGSV,5,5,17,50,10,089,*4A
$GLGSV,3,1,10,65,22,182,16,71,15,067,,72,37,118,26,75,44,165,23*66
$GLGSV,3,2,10,76,67,307,22,77,21,327,,86,03,015,09,87,13,334,08*65
$GLGSV,3,3,10,88,07,278,,,,,33*5E
$GNGLL,0419.94776,S,05539.83190,E,064013.00,A,A*64
$GNGRS,064013.00,1,-14.7,-15.8,4.4,11.3,0.7,0.9,-16.0,0.8,-3.9,,,*78
$GNGRS,064013.00,1,8.4,-131,-10.0,0.7,8.7,,,,,,,*56
$GNGST,064013.00,58,,,,5.6,7.1,13*6D
$GNZDA,064013.00,23,05,2025,00,00*79
$GNGBS,064013.00,5.6,7.1,13.2,,,,*6A
b0X.+&
HEn'<
!

![
+"7VQ'W{4V_:R 
YvAkGCH%vK,>LC3NMGVWNX"qb.rw*$GNRMC,064015.00,A,0419.94777,S,05539.83167,E,0.286,,230525,,,A*7D
$GNVTG,,T,,M,0.286,N,0.530,K,A*37
$GNGNS,064015.00,0419.94777,S,05539.83167,E,AA,14,0.77,36.3,-47.6,,*6F
$GNGGA,064015.00,0419.94777,S,05539.83167,E,1,12,0.77,36.3,M,-47.6,M,,*43
$GNGSA,A,3,24,20,05,13,15,12,18,25,23,,,,1.39,0.77,1.16*1A
$GNGSA,A,3,75,87,72,76,65,,,,,,,,1.39,0.77,1.16*1B
$GPGSV,5,1,17,05,43,038,18,10,02,212,,12,72,069,31,13,14,110,21*76
$GPGSV,5,2,17,15,39,142,31,18,33,287,08,20,10,033,10,23,43,209,19*78
$GPGSV,5,3,17,24,34,180,15,25,55,342,31,28,04,295,,29,13,343,*78
$GPGSV,5,4,17,36,52,277,,40,86,351,31,41,58,082,,49,32,274,*7E
$GPGSV,5,5,17,50,10,089,*4A
$GLGSV,3,1,10,65,22,182,16,71,15,067,,72,37,118,28,75,44,165,26*6D
$GLGSV,3,2,10,76,67,307,21,77,21,327,,86,03,015,09,87,13,334,11*6E
$GLGSV,3,3,10,88,07,278,,,,,34*59
$GNGLL,0419.94777,S,05539.83167,E,064015.00,A,A*6B
$GNGRS,064015.00,1,-15.4,26.5,9.1,14.2,0.6,-0.7,10.2,0.8,-3.8,,,*5A
$GNGRS,064015.00,1,3.2,15.0,-10.4,-1.8,8.8,,,,,,,*71
$GNGST,064015.00,3180290,,,,5.6,7.1,13*57
$GNZDA,064015.00,23,05,2025,00,00*7F
$GNGBS,064015.00,5.6,7.1,13.2,,,,*6C
$GNTXT,01,01,01,More than 100 frame errors, UART RX was disabled*70
b0X.+&
HEn'

!
!+"r7VI'W{4 V_:R 
YvAGCH%vK,LC3MGVW
NN4X#fb.r_$GNRMC,064016.00,A,0419.94766,S,05539.83182,E,0.298,,230525,,,A*7A
$GNVTG,,T,,M,0.298,N,0.551,K,A*3F
$GNGNS,064016.00,0419.94766,S,05539.83182,E,AA,14,0.80,36.1,-47.6,,*6D
$GNGGA,064016.00,0419.94766,S,05539.83182,E,1,12,0.80,36.1,M,-47.6,M,,*41
$GNGSA,A,3,24,20,05,13,15,12,18,25,23,,,,1.48,0.80,1.25*14
$GNGSA,A,3,75,87,72,76,65,,,,,,,,1.48,0.80,1.25*15
$GPGSV,5,1,17,05,43,038,19,10,02,212,,12,72,069,30,13,14,110,22*75
$GPGSV,5,2,17,15,39,142,30,18,33,287,10,20,10,033,08,23,43,209,21*72
$GPGSV,5,3,17,24,34,180,13,25,55,342,31,28,04,295,,29,13,343,*7E
$GPGSV,5,4,17,36,52,277,,40,86,351,32,41,58,082,,49,32,274,*7D
$GPGSV,5,5,17,50,10,089,*4A
$GLGSV,3,1,10,65,22,182,15,71,15,067,,72,37,118,28,75,44,165,26*6E
$GLGSV,3,2,10,76,67,307,21,77,21,327,,86,03,015,11,87,13,334,10*66
$GLGSV,3,3,10,88,07,278,,,,,35*58
$GNGLL,0419.94766,S,05539.83182,E,064016.00,A,A*63
$GNGRS,064016.00,1,-9.1,-8.2,11.9,11.9,5.2,1.4,-44.7,0.7,-2.8,,,*41
$GNGRS,064016.00,1,2.8,134,-8.7,-1.3,9.2,,,,,,,*6F
$GNGST,064016.00,59,,,,5.6,7.1,13*69
$GNZDA,064016.00,23,05,2025,00,00*7C
$GNGBS,064016.00,5.6,7.1,13.1,,,,*6C
b0X.+&
 HEn's
!9
!
+"7V'W{4V_:R 
Yv'AGCH%vK,LC3MGVWN.X#h]b.rG$GNRMC,064017.00,A,0419.94761,S,05539.83187,E,0.063,,230525,,,A*7F
$GNVTG,,T,,M,0.063,N,0.116,K,A*3E
$GNGNS,064017.00,0419.94761,S,05539.83187,E,AA,14,0.77,35.9,-47.6,,*6D
$GNGGA,064017.00,0419.94761,S,05539.83187,E,1,12,0.77,35.9,M,-47.6,M,,*41
$GNGSA,A,3,24,20,05,13,15,12,18,25,23,,,,1.39,0.77,1.16*1A
$GNGSA,A,3,75,87,72,76,65,,,,,,,,1.39,0.77,1.16*1B
$GPGSV,5,1,17,05,43,038,19,10,02,212,,12,72,069,32,13,14,110,21*74
$GPGSV,5,2,17,15,39,142,31,18,33,287,15,20,10,033,11,23,43,209,19*75
$GPGSV,5,3,17,24,34,180,11,25,55,342,31,28,04,295,,29,13,343,*7C
$GPGSV,5,4,17,36,52,277,,40,86,351,31,41,58,082,,49,32,274,*7E
$GPGSV,5,5,17,50,10,089,*4A
$GLGSV,3,1,10,65,22,182,15,71,15,067,,72,37,118,27,75,44,165,26*61
$GLGSV,3,2,10,76,67,307,20,77,21,327,,86,03,015,09,87,13,334,08*67
$GLGSV,3,3,10,88,07,278,,,,,35*58
$GNGLL,0419.94761,S,05539.83187,E,064017.00,A,A*60
$GNGRS,064017.00,1,10.1,27.4,11.6,13.1,3.7,2.6,10.8,0.1,-2.8,,,*61
$GNGRS,064017.00,1,2.6,15.8,-8.8,-1.0,7.8,,,,,,,*4C
$GNGST,064017.00,4496680,,,,5.6,7.1,13*55
$GNZDA,064017.00,23,05,2025,00,00*7D
$GNGBS,064017.00,5.6,7.1,13.1,,,,*6D
$GNTXT,01,01,01,More than 100 frame errors, UART RX was disabled*70
b0X.*&6
 HEn'#
!
!
+" 7V'W{4V_:R 
YvAGCH%vK,LC3RMGV
W
NX#kUb.r/ld$GNRMC,064018.00,A,0419.94758,S,05539.83170,E,0.445,,230525,,,A*72
$GNVTG,,T,,M,0.445,N,0.823,K,A*31
$GNGNS,064018.00,0419.94758,S,05539.83170,E,AA,14,0.77,34.9,-47.6,,*61
$GNGGA,064018.00,0419.94758,S,05539.83170,E,1,12,0.77,34.9,M,-47.6,M,,*4D
$GNGSA,A,3,24,20,05,13,15,12,18,25,23,,,,1.39,0.77,1.16*1A
$GNGSA,A,3,75,87,72,76,65,,,,,,,,1.39,0.77,1.16*1B
$GPGSV,5,1,17,05,42,038,19,10,02,212,,12,72,069,32,13,14,110,20*74
$GPGSV,5,2,17,15,39,142,31,18,33,287,12,20,10,033,12,23,43,209,17*7F
$GPGSV,5,3,17,24,34,180,12,25,55,342,32,28,04,295,,29,13,343,*7C
$GPGSV,5,4,17,36,52,277,,40,86,351,30,41,58,082,,49,32,274,*7F
$GPGSV,5,5,17,50,10,089,*4A
$GLGSV,3,1,10,65,22,182,15,71,15,067,,72,37,118,27,75,44,165,26*61
$GLGSV,3,2,10,76,67,307,20,77,21,327,,86,03,015,10,87,13,334,10*66
$GLGSV,3,3,10,88,07,278,,,,,35*58
$GNGLL,0419.94758,S,05539.83170,E,064018.00,A,A*6D
$GNGRS,064018.00,1,9.6,27.0,13.3,12.3,2.9,-0.6,10.1,4.8,-1.2,,,*7C
$GNGRS,064018.00,1,4.4,15.1,-8.6,-1.7,9.8,,,,,,,*49
$GNGST,064018.00,4497274,,,,5.6,7.1,13*54
$GNZDA,064018.00,23,05,2025,00,00*72
$GNGBS,064018.00,5.6,7.1,13.1,,,,*62
$GNTXT,01,01,01,More than 100 frame errors, UART RX was disabled*70
$GNTXT,01,01,01,More than 100 frame errors, UART RX was disabled*70
$GLGSV,3,3,10,88,07,278,,,,,35*58
$GNGLL,0419.94749,S,05539.83165,E,064020.00,A,A*62
$GNGRS,064020.00,1,26.7,7.2,9.3,2.4,-1.6,10.8,2.2,2.2,,,,*79
$GNGRS,064020.00,1,3.6,15.4,-9.1,-4.0,8.1,,,,,,,*4E
$GNGST,064020.00,3300381,,,,5.5,7.1,13*59
$GNZDA,064020.00,23,05,2025,00,00*79
$GNGBS,064020.00,5.5,7.1,13.0,,,,*6B
$GNTXT,01,01,01,More than 100 frame errors, UART RX was disabled*70
$GNRMC,064021.00,A,0419.94740,S,05539.83174,E,0.365,,230525,,,A*70
$GNVTG,,T,,M,0.365,N,0.677,K,A*3B
$GNGNS,064021.00,0419.94740,S,05539.83174,E,AA,14,0.77,33.7,-47.6,,*6F
$GNGGA,064021.00,0419.94740,S,05539.83174,E,1,12,0.77,33.7,M,-47.6,M,,*43
$GNGSA,A,3,24,20,05,13,15,12,18,25,23,,,,1.39,0.77,1.16*1A
$GNGSA,A,3,75,87,72,76,65,,,,,,,,1.39,0.77,1.16*1B
$GPGSV,5,1,17,05,42,038,22,10,02,212,,12,72,069,32,13,14,110,20*7C
$GPGSV,5,2,17,15,39,142,31,18,33,287,08,20,10,033,10,23,43,209,14*75
$GPGSV,5,3,17,24,34,180,13,25,55,342,32,28,04,295,,29,13,343,*7D
$GPGSV,5,4,17,36,52,277,,40,86,351,30,41,58,082,,49,32,274,*7F
$GPGSV,5,5,17,50,10,089,*4A
$GLGSV,3,1,10,65,22,182,14,71,15,067,,72,37,118,27,75,44,165,26*60
$GLGSV,3,2,10,76,67,307,20,77,21,327,,86,03,015,08,87,13,334,09*67
$GLGSV,3,3,10,88,07,278,,,,,35*58
$GNGLL,0419.94740,S,05539.83174,E,064021.00,A,A*6A
$GNGRS,064021.00,1,10.3,26.0,4.7,13.2,2.5,3.5,11.0,-0.7,0.6,,,*57
$GNGRS,064021.00,1,3.7,15.1,-8.5,-4.4,8.1,,,,,,,*4A
$GNGST,064021.00,3180508,,,,5.5,7.2,13*56
$GNZDA,064021.00,23,05,2025,00,00*78
$GNGBS,064021.00,5.5,7.2,13.0,,,,*69
b0X@.*&
 HEn'
!
!)C+" 7V'W{4V_:R 
YvLAGCH%vK,,LC3MGVW
NX#wb@.r$GNRMC,064022.00,A,0419.94731,S,05539.83194,E,0.167,,230525,,,A*7B
$GNVTG,,T,,M,0.167,N,0.310,K,A*3F
$GNGNS,064022.00,0419.94731,S,05539.83194,E,AA,14,0.89,33.8,-47.6,,*6A
$GNGGA,064022.00,0419.94731,S,05539.83194,E,1,12,0.89,33.8,M,-47.6,M,,*46
$GNGSA,A,3,24,20,05,13,15,12,18,25,23,,,,1.75,0.89,1.51*10
$GNGSA,A,3,75,87,72,76,65,,,,,,,,1.75,0.89,1.51*11
$GPGSV,5,1,17,05,42,038,21,10,02,212,,12,72,069,32,13,14,110,21*7E
$GPGSV,5,2,17,15,39,142,31,18,33,287,12,20,10,033,09,23,43,209,13*71
$GPGSV,5,3,17,24,34,180,13,25,55,342,32,28,04,295,,29,13,343,*7D
$GPGSV,5,4,17,36,52,277,,40,86,351,30,41,58,082,,49,32,274,*7F
$GPGSV,5,5,17,50,10,089,*4A
$GLGSV,3,1,10,65,22,182,09,71,15,067,,72,37,118,27,75,44,165,26*6C
$GLGSV,3,2,10,76,67,307,22,77,21,327,,86,03,015,09,87,13,334,10*6C
$GLGSV,3,3,10,88,07,278,,,,,35*58
$GNGLL,0419.94731,S,05539.83194,E,064022.00,A,A*61
$GNGRS,064022.00,1,-136,172,4.9,11.7,2.5,4.7,-31.2,0.1,3.9,,,*79
$GNGRS,064022.00,1,3.0,-33.5,-10.1,-5.0,2.6,,,,,,,*56
$GNGST,064022.00,70,,,,5.5,7.1,13*66
$GNZDA,064022.00,23,05,2025,00,00*7B
$GNGBS,064022.00,5.5,7.1,12.9,,,,*61
b(.ri$GNRMC,064023.00,A,0419.94728,S,05539.83194,E,0.097,,230525,,,A*7C
$GNVTG,,T,,M,0.097,N,0.179,K,A*3C
$GNGNS,064023.00,0419.94728,S,05539.83194,E,AA,13,0.89,33.5,-47.6,,*69
$GNGGA,064023.00,0419.94728,S,05539.83194,E,1,12,0.89,33.5,M,-47.6,M,,*42
$GNGSA,A,3,24,20,05,13,15,12,18,25,23,,,,1.75,0.89,1.51*10
$GNGSA,A,3,75,72,76,65,,,,,,,,,1.75,0.89,1.51*1E
$GPGSV,5,1,17,05,42,038,21,10,03,212,,12,72,069,31,13,14,110,20*7D
$GPGSV,5,2,17,15,39,142,32,18,33,287,14,20,10,033,10,23,43,209,15*7A
$GPGSV,5,3,17,24,34,180,08,25,55,342,31,28,04,295,,29,13,343,*74
$GPGSV,5,4,17,36,52,277,,40,86,351,30,41,58,082,,49,32,274,*7F
$GPGSV,5,5,17,50,10,089,*4A
$GLGSV,3,1,10,65,22,182,12,71,15,067,,72,37,118,27,75,44,165,26*66
$GLGSV,3,2,10,76,67,307,22,77,21,327,,86,03,015,10,87,13,334,06*63
$GLGSV,3,3,10,88,07,278,,,,,35*58
$GNGLL,0419.94728,S,05539.83194,E,064023.00,A,A*68
$GNGRS,064023.00,1,10.2,27.4,3.4,9.6,-0.8,4.7,10.7,1.5,6.5,,,*60
$GNGRS,064023.00,1,3.7,-9.4,-4.1,5.2,,,,,,,,*58
$GNGST,064023.00,3327244,,,,5.5,7.1,13*57
$GNZDA,064023.00,23,05,2025,00,00*7A
$GNGBS,064023.00,5.5,7.1,13.0,,,,*68
$GNRMC,064024.00,A,0419.94728,S,05539.83193,E,0.066,,230525,,,A*72
$GNVTG,,T,,M,0.066,N,0.123,K,A*3D
$GNGNS,064024.00,0419.94728,S,05539.83193,E,AA,14,0.77,33.3,-47.6,,*69
$GNGGA,064024.00,0419.94728,S,05539.83193,E,1,12,0.77,33.3,M,-47.6,M,,*45
$GNGSA,A,3,24,20,05,13,15,12,18,25,23,,,,1.39,0.77,1.16*1A
$GNGSA,A,3,75,87,72,76,65,,,,,,,,1.39,0.77,1.16*1B
$GPGSV,5,1,17,05,42,038,19,10,03,212,,12,72,069,32,13,14,110,21*74
$GPGSV,5,2,17,15,39,142,32,18,33,287,13,20,10,033,10,23,43,209,17*7F
$GPGSV,5,3,17,24,34,180,07,25,55,342,31,28,04,295,,29,13,343,*7B
$GPGSV,5,4,17,36,52,277,,40,86,351,31,41,58,082,,49,32,274,*7E
$GPGSV,5,5,17,50,10,089,*4A
$GLGSV,3,1,10,65,22,182,10,71,15,067,,72,37,118,27,75,44,165,26*64
$GLGSV,3,2,10,76,67,307,24,77,21,327,,86,03,015,09,87,13,334,09*62
$GLGSV,3,3,10,88,07,278,,,,,35*58
$GNGLL,0419.94728,S,05539.83193,E,064024.00,A,A*68
$GNGRS,064024.00,1,10.1,27.4,2.7,8.5,1.1,0.5,10.4,2.1,6.6,,,*40
$GNGRS,064024.00,1,2.2,15.7,-10.3,-5.4,4.8,,,,,,,*76
$GNGST,064024.00,4515744,,,,5.5,7.1,13*55
$GNZDA,064024.00,23,05,2025,00,00*7D
$GNGBS,064024.00,5.5,7.1,13.0,,,,*6F
b0X.*&
IGnI'h
!w
!+
"7V'W{4V_:R 
YvXAqGCH%vK,LC3\MGV
WNX#'b.r$R*$GNRMC,064025.00,A,0419.94731,S,05539.83183,E,0.071,,230525,,,A*7C
$GNVTG,,T,,M,0.071,N,0.132,K,A*3B
$GNGNS,064025.00,0419.94731,S,05539.83183,E,AA,14,0.77,33.0,-47.6,,*62
$GNGGA,064025.00,0419.94731,S,05539.83183,E,1,12,0.77,33.0,M,-47.6,M,,*4E
$GNGSA,A,3,24,20,05,13,15,12,18,25,23,,,,1.39,0.77,1.16*1A
$GNGSA,A,3,75,87,72,76,65,,,,,,,,1.39,0.77,1.16*1B
$GPGSV,5,1,17,05,42,038,20,10,03,212,,12,73,071,31,13,14,110,22*76
$GPGSV,5,2,17,15,39,142,31,18,33,287,11,20,10,033,09,23,43,209,16*77
$GPGSV,5,3,17,24,34,180,10,25,55,342,31,28,04,295,,29,13,343,*7D
$GPGSV,5,4,17,36,52,277,,40,86,351,31,41,58,082,,49,32,274,*7E
$GPGSV,5,5,17,50,10,089,*4A
$GLGSV,3,1,10,65,22,182,16,71,15,067,,72,37,118,27,75,44,165,27*63
$GLGSV,3,2,10,76,67,307,25,77,21,327,,86,03,015,10,87,13,334,11*62
$GLGSV,3,3,10,88,07,278,,,,,35*58
$GNGLL,0419.94731,S,05539.83183,E,064025.00,A,A*60
$GNGRS,064025.00,1,39.7,-119,2.1,8.4,3.6,2.6,3.8,2.9,6.5,,,*71
$GNGRS,064025.00,1,1.6,4.1,-8.4,-4.2,3.7,,,,,,,*77
$GNGST,064025.00,56,,,,5.4,7.1,13*64
$GNZDA,064025.00,23,05,2025,00,00*7C
$GNGBS,064025.00,5.4,7.1,12.9,,,,*67
$GNTXT,01,01,01,More than 100 frame errors, UART RX was disabled*70
b0X.*&
 IGnn'
!
!
+i" 7V'W{4V_:R 
YvA
GCH%v\K,LC38MGVWNX"+b.ro(*$GNRMC,064026.00,A,0419.94734,S,05539.83175,E,0.133,,230525,,,A*74
$GNVTG,,T,,M,0.133,N,0.247,K,A*3D
$GNGNS,064026.00,0419.94734,S,05539.83175,E,AA,14,0.77,32.9,-47.6,,*65
$GNGGA,064026.00,0419.94734,S,05539.83175,E,1,12,0.77,32.9,M,-47.6,M,,*49
$GNGSA,A,3,24,20,05,13,15,12,18,25,23,,,,1.39,0.77,1.16*1A
$GNGSA,A,3,75,87,72,76,65,,,,,,,,1.39,0.77,1.16*1B
$GPGSV,5,1,17,05,42,038,19,10,03,212,,12,73,071,32,13,13,110,24*7E
$GPGSV,5,2,17,15,39,142,31,18,33,287,08,20,10,033,09,23,43,209,16*7F
$GPGSV,5,3,17,24,34,180,14,25,55,342,32,28,04,295,,29,13,343,*7A
$GPGSV,5,4,17,36,52,277,,40,86,351,30,41,58,082,,49,32,274,*7F
$GPGSV,5,5,17,50,10,089,*4A
$GLGSV,3,1,10,65,22,182,16,71,15,067,,72,37,118,28,75,44,165,28*63
$GLGSV,3,2,10,76,67,307,24,77,21,327,,86,03,015,09,87,13,334,07*6C
$GLGSV,3,3,10,88,07,278,,,,,34*59
$GNGLL,0419.94734,S,05539.83175,E,064026.00,A,A*6F
$GNGRS,064026.00,1,10.0,27.6,2.3,6.9,2.3,1.1,10.5,2.4,6.2,,,*43
$GNGRS,064026.00,1,1.6,15.6,-9.3,-4.6,5.2,,,,,,,*42
$GNGST,064026.00,3182322,,,,5.4,7.1,13*5F
$GNZDA,064026.00,23,05,2025,00,00*7F
$GNGBS,064026.00,5.4,7.1,12.8,,,,*65
b0X.*&
 IG)n'
!
!
+" 7V'W{4V_:R 
YvA8GCH%vK,LC3MGVWNX".b.rW,$GNRMC,064027.00,A,0419.94731,S,05539.83169,E,0.185,,230525,,,A*70
$GNVTG,,T,,M,0.185,N,0.343,K,A*35
$GNGNS,064027.00,0419.94731,S,05539.83169,E,AA,14,0.77,32.4,-47.6,,*61
$GNGGA,064027.00,0419.94731,S,05539.83169,E,1,12,0.77,32.4,M,-47.6,M,,*4D
$GNGSA,A,3,24,20,05,13,15,12,18,25,23,,,,1.39,0.77,1.16*1A
$GNGSA,A,3,75,87,72,76,65,,,,,,,,1.39,0.77,1.16*1B
$GPGSV,5,1,17,05,42,038,16,10,03,212,,12,73,071,32,13,13,110,25*70
$GPGSV,5,2,17,15,39,142,31,18,33,287,09,20,10,033,11,23,43,209,19*78
$GPGSV,5,3,17,24,34,180,16,25,55,342,32,28,04,295,,29,13,343,*78
$GPGSV,5,4,17,36,52,277,,40,86,351,31,41,58,082,,49,32,274,*7E
$GPGSV,5,5,17,50,10,089,*4A
$GLGSV,3,1,10,65,22,182,16,71,15,067,,72,37,118,28,75,44,165,27*6C
$GLGSV,3,2,10,76,67,307,23,77,21,327,,86,03,015,08,87,13,334,12*6E
$GLGSV,3,3,10,88,07,278,,,,,34*59
$GNGLL,0419.94731,S,05539.83169,E,064027.00,A,A*66
$GNGRS,064027.00,1,9.7,27.4,1.7,6.9,1.4,0.4,10.1,2.3,5.2,,,*78
$GNGRS,064027.00,1,2.6,15.0,-10.3,-2.7,5.7,,,,,,,*7C
$GNGST,064027.00,3186256,,,,5.3,7.0,13*5E
$GNZDA,064027.00,23,05,2025,00,00*7E
$GNGBS,064027.00,5.3,7.0,12.8,,,,*62
b0X.*&
!IG^n'
!j
!{+"!7V'W{4V_:R 
YvAGCH%vK,KLC3$MGVWNy2X"b.r?0b$GNRMC,064028.00,A,0419.94735,S,05539.83155,E,0.191,,230525,,,A*71
$GNVTG,,T,,M,0.191,N,0.354,K,A*36
$GNGNS,064028.00,0419.94735,S,05539.83155,E,AA,13,1.22,32.2,-47.6,,*65
$GNGGA,064028.00,0419.94735,S,05539.83155,E,1,12,1.22,32.2,M,-47.6,M,,*4E
$GNGSA,A,3,20,05,13,15,12,18,25,23,,,,,2.30,1.22,1.95*1C
$GNGSA,A,3,75,87,72,76,65,,,,,,,,2.30,1.22,1.95*1B
$GPGSV,5,1,17,05,42,038,18,10,03,212,,12,73,071,33,13,13,110,25*7F
$GPGSV,5,2,17,15,39,141,31,18,33,287,08,20,10,033,09,23,43,209,20*79
$GPGSV,5,3,17,24,34,180,08,25,55,342,33,28,04,295,,29,13,343,*76
$GPGSV,5,4,17,36,52,277,,40,86,351,30,41,58,082,,49,32,274,*7F
$GPGSV,5,5,17,50,10,089,*4A
$GLGSV,3,1,10,65,22,182,18,71,15,067,,72,37,118,28,75,44,165,27*62
$GLGSV,3,2,10,76,67,307,22,77,21,327,,86,03,015,07,87,13,334,11*63
$GLGSV,3,3,10,88,07,278,,,,,34*59
$GNGLL,0419.94735,S,05539.83155,E,064028.00,A,A*62
$GNGRS,064028.00,1,55.0,-0.4,5.1,1.5,0.9,80.4,2.0,4.3,,,,*71
$GNGRS,064028.00,1,3.3,129,-10.7,-2.2,7.6,,,,,,,*55
$GNGST,064028.00,39,,,,5.3,7.0,13*66
$GNZDA,064028.00,23,05,2025,00,00*71
$GNGBS,064028.00,5.3,7.0,12.7,,,,*62
b0X.*&
 IGnu'

!:
!
+" 7V'W{4V_:R 
YvAGCH%vK,LC3QMGVWNGX"b.r'4$GNRMC,064029.00,A,0419.94745,S,05539.83140,E,0.271,,230525,,,A*7E
$GNVTG,,T,,M,0.271,N,0.502,K,A*3E
$GNGNS,064029.00,0419.94745,S,05539.83140,E,AA,12,0.89,32.5,-47.6,,*61
$GNGGA,064029.00,0419.94745,S,05539.83140,E,1,12,0.89,32.5,M,-47.6,M,,*4B
$GNGSA,A,3,24,05,13,15,12,18,25,23,,,,,1.75,0.89,1.51*12
$GNGSA,A,3,75,72,76,65,,,,,,,,,1.75,0.89,1.51*1E
$GPGSV,5,1,17,05,42,038,17,10,03,212,,12,73,071,32,13,13,110,25*71
$GPGSV,5,2,17,15,39,141,31,18,33,287,10,20,10,033,06,23,43,209,20*7F
$GPGSV,5,3,17,24,34,180,11,25,55,342,32,28,04,295,,29,13,343,*7F
$GPGSV,5,4,17,36,52,277,,40,86,351,30,41,58,082,,49,32,274,*7F
$GPGSV,5,5,17,50,10,089,*4A
$GLGSV,3,1,10,65,22,182,19,71,15,067,,72,37,118,29,75,44,165,27*62
$GLGSV,3,2,10,76,67,307,22,77,21,327,,86,03,015,09,87,13,334,07*6A
$GLGSV,3,3,10,88,07,278,,,,,34*59
$GNGLL,0419.94745,S,05539.83140,E,064029.00,A,A*60
$GNGRS,064029.00,1,7.9,-0.4,6.3,2.6,2.1,10.8,2.0,4.0,,,,*43
$GNGRS,064029.00,1,2.8,-11.2,-1.7,7.4,,,,,,,,*64
$GNGST,064029.00,3299292,,,,5.2,6.9,13*5C
$GNZDA,064029.00,23,05,2025,00,00*70
$GNGBS,064029.00,5.2,6.9,12.6,,,,*6B
