$GNTXT,01,01,01,More than 100 frame errors, UART RX was disabled*70
b0@G
Fva*}{.1!7/EO
b{4'V_2:R 
YzA!oG
6-H(bWKLF)
M =W[X$:bGrEi$GNRMC,070801.00,A,0419.82946,S,05539.87604,E,0.152,,230525,,,D*77
$GNVTG,,T,,M,0.152,N,0.281,K,D*35
$GNGNS,070801.00,0419.82946,S,05539.87604,E,DA,12,0.92,12.1,-47.6,,0000*66
$GNGGA,070801.00,0419.82946,S,05539.87604,E,2,12,0.92,12.1,M,-47.6,M,,0000*4A
$GNGSA,A,3,24,05,13,15,12,18,25,23,40,,,,1.64,0.92,1.35*1E
$GNGSA,A,3,72,76,65,,,,,,,,,,1.64,0.92,1.35*14
$GPGSV,5,1,17,05,31,031,25,10,13,214,21,12,70,118,27,13,12,097,18*71
$GPGSV,5,2,17,15,42,125,30,18,30,302,21,20,00,033,,23,55,217,24*76
$GPGSV,5,3,17,24,28,169,24,25,69,335,24,28,07,284,,29,17,354,10*7B
$GPGSV,5,4,17,36,52,277,,40,86,351,39,41,58,082,,49,32,274,*76
$GPGSV,5,5,17,50,10,089,*4A
$GLGSV,2,1,08,65,33,172,15,71,10,054,06,72,40,098,19,75,30,166,*65
$GLGSV,2,2,08,76,70,259,26,77,32,317,06,87,09,347,,88,05,292,*69
$GNGLL,0419.82946,S,05539.87604,E,070801.00,A,D*6B
$GNGRS,070801.00,1,-13.7,-0.3,-2.5,-1.3,-0.9,-7.2,1.5,-2.1,130,,,*79
$GNGRS,070801.00,1,-1.7,3.0,3.7,,,,,,,,,*5C
$GNGST,070801.00,1857,,,,5.6,6.9,13*6C
$GNZDA,070801.00,23,05,2025,00,00*77
$GNGBS,070801.00,5.6,6.9,12.6,,,,*68
$GNTXT,01,01,01,More than 100 frame errors, UART RX was disabled*70
b0@G;
Fva*}z.!7,EOb'
{4(V_2:R 
YzA
!G
6JH(b<KLF
M =W[X$jbGr-mf
$GNRMC,070802.00,A,0419.82944,S,05539.87613,E,0.109,,230525,,,D*7E
$GNVTG,,T,,M,0.109,N,0.203,K,D*31
$GNGNS,070802.00,0419.82944,S,05539.87613,E,DA,13,0.92,12.4,-47.6,,0000*65
$GNGGA,070802.00,0419.82944,S,05539.87613,E,2,12,0.92,12.4,M,-47.6,M,,0000*48
$GNGSA,A,3,24,05,13,15,12,18,25,23,40,,,,1.64,0.92,1.35*1E
$GNGSA,A,3,71,72,76,65,,,,,,,,,1.64,0.92,1.35*12
$GPGSV,5,1,17,05,31,031,25,10,13,214,18,12,70,118,27,13,12,097,17*74
$GPGSV,5,2,17,15,42,125,29,18,30,302,20,20,00,033,,23,55,217,22*79
$GPGSV,5,3,17,24,28,169,22,25,69,335,26,28,07,284,,29,17,354,08*76
$GPGSV,5,4,17,36,52,277,,40,86,351,40,41,58,082,,49,32,274,*78
$GPGSV,5,5,17,50,10,089,*4A
$GLGSV,2,1,08,65,33,172,10,71,10,054,07,72,40,098,18,75,30,166,*60
$GLGSV,2,2,08,76,70,259,25,77,32,317,06,87,09,347,,88,05,292,*6A
$GNGLL,0419.82944,S,05539.87613,E,070802.00,A,D*6C
$GNGRS,070802.00,1,-12.6,-2.0,-3.8,1.2,1.7,-7.5,0.3,-2.1,131,,,*78
$GNGRS,070802.00,1,21.2,-2.0,1.4,4.7,,,,,,,,*45
$GNGST,070802.00,86563,,,,5.6,6.9,13*5A
$GNZDA,070802.00,23,05,2025,00,00*74
$GNGBS,070802.00,5.6,6.9,12.6,,,,*6B
$GNTXT,01,01,01,More than 100 frame errors, UART RX was disabled*70
$GNTXT,01,01,01,More than 100 frame errors, UART RX was disabled*70
b04pG!~
FvCa*}E.87EOb {4*V_2:R 
YzA!<G
6H(bKLF
M =W[X$bpGrt$GNRMC,070804.00,A,0419.82947,S,05539.87619,E,0.028,,230525,,,D*73
$GNVTG,,T,,M,0.028,N,0.052,K,D*35
$GNGNS,070804.00,0419.82947,S,05539.87619,E,DA,15,0.82,13.1,-47.6,,0000*69
$GNGGA,070804.00,0419.82947,S,05539.87619,E,2,12,0.82,13.1,M,-47.6,M,,0000*42
$GNGSA,A,3,24,05,13,15,12,29,18,25,23,40,,,1.44,0.82,1.19*18
$GNGSA,A,3,71,72,76,65,77,,,,,,,,1.44,0.82,1.19*1F
$GPGSV,4,1,16,05,31,031,33,10,13,214,19,12,70,118,25,13,12,097,21*75
$GPGSV,4,2,16,15,42,125,26,18,30,302,22,23,55,217,28,24,28,169,21*7D
$GPGSV,4,3,16,25,69,335,25,28,07,284,,29,17,354,08,36,52,277,*77
$GPGSV,4,4,16,40,86,351,42,41,58,082,,49,32,274,,50,10,089,*7F
$GLGSV,2,1,08,65,33,172,11,71,10,054,13,72,40,098,22,75,30,166,*6D
$GLGSV,2,2,08,76,70,259,27,77,32,317,11,87,09,347,,88,05,292,*6E
$GNGLL,0419.82947,S,05539.87619,E,070804.00,A,D*63
$GNGRS,070804.00,1,-12.9,-6.4,-4.9,5.8,8.4,31.0,-7.1,1.5,-2.8,130,,*64
$GNGRS,070804.00,1,12.2,-5.4,-0.7,8.3,-5.8,,,,,,,*69
$GNGST,070804.00,1758,,,,5.6,6.8,13*68
$GNZDA,070804.00,23,05,2025,00,00*72
$GNGBS,070804.00,5.6,6.8,12.6,,,,*6C
$GNTXT,01,01,01,More than 100 frame errors, UART RX was disabled*70
$GNTXT,01,01,01,More than 100 frame errors, UART RX was disabled*70
$GNTXT,01,01,01,More than 100 frame errors, UART RX was disabled*70
b04Hc
Fva$*}.76EOb&{4+V_2:R 
YzA!G
6~H(bKLF6
M
 =vW[X$bHrM$GNRMC,070809.00,A,0419.82962,S,05539.87625,E,0.184,,230525,,,D*71
$GNVTG,,T,,M,0.184,N,0.341,K,D*33
$GNGNS,070809.00,0419.82962,S,05539.87625,E,DA,15,0.82,14.8,-47.6,,0000*62
$GNGGA,070809.00,0419.82962,S,05539.87625,E,2,12,0.82,14.8,M,-47.6,M,,0000*49
$GNGSA,A,3,24,05,13,15,12,29,18,25,23,40,,,1.45,0.82,1.19*19
$GNGSA,A,3,71,72,76,65,77,,,,,,,,1.45,0.82,1.19*1E
$GPGSV,4,1,16,05,31,031,29,10,13,214,21,12,70,118,31,13,12,097,22*73
$GNTXT,01,01,01,More than 100 frame errors, UART RX was disabled*70
b04HI
FvTa*}}.Z7EOb8{4(V_2:R 
YzA!G
6PH(bKLFw
M =kW[X$bHrU$GNRMC,070811.00,A,0419.82969,S,05539.87635,E,0.174,,230525,,,D*7D
$GNVTG,,T,,M,0.174,N,0.322,K,D*39
$GNGNS,070811.00,0419.82969,S,05539.87635,E,DA,15,0.79,15.1,-47.6,,0000*6D
$GNGGA,070811.00,0419.82969,S,05539.87635,E,2,12,0.79,15.1,M,-47.6,M,,0000*46
$GNGSA,A,3,24,05,13,15,12,29,18,25,23,40,,,1.39,0.79,1.15*1A
$GNGSA,A,3,71,72,76,65,77,,,,,,,,1.39,0.79,1.15*1D
$GPGSV,4,1,16,05,31,031,29,10,13,214,21,12,70,118,31,13,12,097,20*71
$GPGSV,4,2,16,15,42,125,29,18,30,302,19,23,55,218,22,24,28,169,21*7F
$GPGSV,4,3,16,25,69,335,29,28,07,283,,29,18,354,11,36,52,277,*7B
$GPGSV,4,4,16,40,86,351,40,41,58,082,,49,32,274,,50,10,089,*7D
$GLGSV,2,1,08,65,33,172,15,71,10,054,15,72,40,098,23,75,30,166,*6E
$GLGSV,2,2,08,76,70,259,24,77,32,317,09,87,09,347,,88,05,292,*64
$GNGLL,0419.82969,S,05539.87635,E,070811.00,A,D*65
$GNGRS,070811.00,1,-13.1,-6.9,-3.7,3.8,3.4,18.5,-4.2,-0.6,-5.7,129,,*41
$GNGRS,070811.00,1,21.3,-10.3,-1.4,6.7,-1.5,,,,,,,*5E
$GNGST,070811.00,4343720,,,,5.4,6.6,12*5F
$GNZDA,070811.00,23,05,2025,00,00*76
$GNGBS,070811.00,5.4,6.6,12.5,,,,*67
$GNTXT,01,01,01,More than 100 frame errors, UART RX was disabled*70
b04H
Fv:a*}8.@7EOsbJ{4'V_2:R 
YzA!LG
6H(bxKLF
M =W[X$oQbHr%~$GNRMC,070813.00,A,0419.82971,S,05539.87645,E,0.030,,230525,,,D*70
$GNVTG,,T,,M,0.030,N,0.055,K,D*3B
$GNGNS,070813.00,0419.82971,S,05539.87645,E,DA,15,0.86,15.7,-47.6,,0000*67
$GNGGA,070813.00,0419.82971,S,05539.87645,E,2,12,0.86,15.7,M,-47.6,M,,0000*4C
$GNGSA,A,3,24,05,13,15,12,29,18,25,23,40,,,1.49,0.86,1.22*19
$GNGSA,A,3,71,72,76,65,77,,,,,,,,1.49,0.86,1.22*1E
$GPGSV,4,1,16,05,31,031,30,10,13,214,20,12,70,118,30,13,12,097,21*78
$GPGSV,4,2,16,15,42,125,29,18,30,302,18,23,55,218,23,24,28,169,21*7F
$GPGSV,4,3,16,25,69,335,27,28,07,283,,29,18,354,09,36,52,277,*7C
$GPGSV,4,4,16,40,86,351,39,41,58,082,,49,32,274,,50,10,089,*73
$GLGSV,2,1,08,65,33,172,11,71,10,054,11,72,40,098,22,75,30,166,*6F
$GLGSV,2,2,08,76,70,259,23,77,32,317,09,87,09,347,,88,05,292,*63
$GNGLL,0419.82971,S,05539.87645,E,070813.00,A,D*69
$GNGRS,070813.00,1,-11.4,-6.0,-1.1,-2.0,3.1,-12.1,-4.5,-1.4,-7.6,129,,*4C
$GNGRS,070813.00,1,25.2,-11.6,-1.2,5.9,33.1,,,,,,,*4E
$GNGST,070813.00,1784,,,,5.4,6.6,12*62
$GNZDA,070813.00,23,05,2025,00,00*74
$GNGBS,070813.00,5.4,6.6,12.4,,,,*64
$GNTXT,01,01,01,More than 100 frame errors, UART RX was disabled*70
b04!H
 Fva2*}~.Q7iEObR{4)V_2:R 
YzA!G

6fH(bKLF
M ={W[X$b!Hr$GNRMC,070814.00,A,0419.82969,S,05539.87652,E,0.082,,230525,,,D*71
$GNVTG,,T,,M,0.082,N,0.152,K,D*34
$GNGNS,070814.00,0419.82969,S,05539.87652,E,DA,15,0.82,16.1,-47.6,,0000*6E
$GNGGA,070814.00,0419.82969,S,05539.87652,E,2,12,0.82,16.1,M,-47.6,M,,0000*45
$GNGSA,A,3,24,05,13,15,12,29,18,25,23,40,,,1.45,0.82,1.19*19
$GNGSA,A,3,71,72,76,65,77,,,,,,,,1.45,0.82,1.19*1E
$GPGSV,4,1,16,05,31,031,30,10,13,214,21,12,70,118,32,13,12,097,22*78
$GPGSV,4,2,16,15,42,125,29,18,30,302,19,23,55,218,22,24,28,169,21*7F
$GPGSV,4,3,16,25,69,335,27,28,07,283,,29,18,354,08,36,52,277,*7D
$GPGSV,4,4,16,40,86,351,41,41,58,082,,49,32,274,,50,10,089,*7C
$GLGSV,2,1,08,65,33,172,11,71,10,054,10,72,40,098,23,75,30,166,18*66
$GLGSV,2,2,08,76,70,259,25,77,32,317,08,87,09,347,,88,05,292,*64
$GNGLL,0419.82969,S,05539.87652,E,070814.00,A,D*61
$GNGRS,070814.00,1,-8.3,-7.7,-2.1,1.3,2.8,18.7,-4.3,2.5,-9.2,129,,*56
$GNGRS,070814.00,1,21.5,-11.1,-1.1,7.0,-1.3,,,,,,,*5B
$GNGST,070814.00,4496177,,,,5.4,6.6,12*51
$GNZDA,070814.00,23,05,2025,00,00*73
$GNGBS,070814.00,5.4,6.6,12.4,,,,*63
$GNTXT,01,01,01,More than 100 frame errors, UART RX was disabled*70
b04h%H1
 Fvxa*}-.7HEObB{4)V_v2:R 
YzA!G

6hH(bsKLF
M =\W[X$bh%Hr\K$GNRMC,070815.00,A,0419.82971,S,05539.87639,E,0.178,,230525,,,D*70
$GNVTG,,T,,M,0.178,N,0.329,K,D*3E
$GNGNS,070815.00,0419.82971,S,05539.87639,E,DA,15,0.82,16.2,-47.6,,0000*68
$GNGGA,070815.00,0419.82971,S,05539.87639,E,2,12,0.82,16.2,M,-47.6,M,,0000*43
$GNGSA,A,3,24,05,13,15,12,29,18,25,23,40,,,1.45,0.82,1.19*19
$GNGSA,A,3,71,72,76,65,77,,,,,,,,1.45,0.82,1.19*1E
$GPGSV,4,1,16,05,31,031,29,10,13,214,21,12,70,118,32,13,12,097,21*73
$GPGSV,4,2,16,15,42,125,28,18,30,302,20,23,55,218,23,24,28,169,21*75
$GPGSV,4,3,16,25,69,335,27,28,07,283,,29,18,354,09,36,52,277,*7C
$GPGSV,4,4,16,40,86,351,41,41,58,082,,49,32,274,,50,10,089,*7C
$GLGSV,2,1,08,65,33,172,11,71,10,054,10,72,40,098,23,75,30,166,18*66
$GLGSV,2,2,08,76,70,259,24,77,32,317,11,87,09,347,,88,05,292,*6D
$GNGLL,0419.82971,S,05539.87639,E,070815.00,A,D*64
$GNGRS,070815.00,1,-7.0,-4.6,-3.2,-2.1,-1.4,18.6,-5.5,1.7,-9.0,129,,*50
$GNGRS,070815.00,1,21.5,-11.7,0.1,6.8,-1.6,,,,,,,*7C
$GNGST,070815.00,4496177,,,,5.4,6.6,12*50
$GNZDA,070815.00,23,05,2025,00,00*72
$GNGBS,070815.00,5.4,6.6,12.3,,,,*65
b04P)H
 Fv]a*}.m7EO
b{4)V_]2:R 
YzA!G

6H(b=KLF(
M = W[X$bP)Hr4$GNRMC,070816.00,A,0419.82972,S,05539.87647,E,0.032,,230525,,,D*76
$GNVTG,,T,,M,0.032,N,0.059,K,D*35
$GNGNS,070816.00,0419.82972,S,05539.87647,E,DA,15,0.83,16.6,-47.6,,0000*64
$GNGGA,070816.00,0419.82972,S,05539.87647,E,2,12,0.83,16.6,M,-47.6,M,,0000*4F
$GNGSA,A,3,24,05,13,15,12,29,18,25,23,40,,,1.43,0.83,1.17*10
$GNGSA,A,3,71,72,76,65,77,,,,,,,,1.43,0.83,1.17*17
$GPGSV,4,1,16,05,31,031,28,10,13,214,20,12,70,118,32,13,12,097,21*73
$GPGSV,4,2,16,15,42,125,30,18,30,302,19,23,55,218,24,24,28,169,22*72
$GPGSV,4,3,16,25,69,335,27,28,07,283,,29,18,354,10,36,52,277,*74
$GPGSV,4,4,16,40,86,351,41,41,58,082,,49,32,274,,50,10,089,*7C
$GLGSV,2,1,08,65,33,172,13,71,10,054,10,72,40,098,24,75,30,166,16*6D
$GLGSV,2,2,08,76,70,259,25,77,32,317,11,87,09,347,,88,05,292,*6C
$GNGLL,0419.82972,S,05539.87647,E,070816.00,A,D*6D
$GNGRS,070816.00,1,-5.8,-8.7,-5.1,2.5,0.9,-15.4,-6.6,2.5,-10.7,129,,*45
$GNGRS,070816.00,1,11.8,-12.2,0.4,7.6,82.1,,,,,,,*6C
$GNGST,070816.00,1746,,,,5.4,6.6,12*69
$GNZDA,070816.00,23,05,2025,00,00*71
$GNGBS,070816.00,5.4,6.6,12.3,,,,*66
$GNTXT,01,01,01,More than 100 frame errors, UART RX was disabled*70
b048-H
 Fva*}i.7`EO
b{4)V_`2:R 
YzA!G
6iH(bKLF
M =W[X$rTb8-Hr$GNRMC,070817.00,A,0419.82976,S,05539.87644,E,0.074,,230525,,,D*72
$GNVTG,,T,,M,0.074,N,0.138,K,D*31
$GNGNS,070817.00,0419.82976,S,05539.87644,E,DA,15,0.82,16.6,-47.6,,0000*63
$GNGGA,070817.00,0419.82976,S,05539.87644,E,2,12,0.82,16.6,M,-47.6,M,,0000*48
$GNGSA,A,3,24,05,13,15,12,29,18,25,23,40,,,1.45,0.82,1.19*19
$GNGSA,A,3,71,72,76,65,77,,,,,,,,1.45,0.82,1.19*1E
$GPGSV,4,1,16,05,31,031,29,10,13,214,20,12,70,118,32,13,12,097,23*70
$GPGSV,4,2,16,15,42,125,30,18,30,302,19,23,55,218,23,24,28,169,22*75
$GPGSV,4,3,16,25,69,335,27,28,07,283,,29,18,354,10,36,52,277,*74
$GPGSV,4,4,16,40,86,351,41,41,58,082,,49,32,274,,50,10,089,*7C
$GLGSV,2,1,08,65,33,172,15,71,10,054,12,72,40,098,24,75,30,166,16*69
$GLGSV,2,2,08,76,70,259,24,77,32,317,11,87,09,347,,88,05,292,*6D
$GNGLL,0419.82976,S,05539.87644,E,070817.00,A,D*6B
$GNGRS,070817.00,1,-4.2,-6.1,-2.8,3.6,-0.8,17.4,-5.9,2.0,-11.0,129,,*47
$GNGRS,070817.00,1,21.5,-13.1,0.1,7.5,-1.3,,,,,,,*73
$GNGST,070817.00,3181370,,,,5.4,6.6,12*53
$GNZDA,070817.00,23,05,2025,00,00*70
$GNGBS,070817.00,5.4,6.6,12.3,,,,*67
$GNTXT,01,01,01,More than 100 frame errors, UART RX was disabled*70
b045H
 Fvja*}".7EOb{4)V_W2:R 
YzA!wG
6
H(bKLF
M =W[X$!b5Hr$GNRMC,070819.00,A,0419.82987,S,05539.87630,E,0.161,,230525,,,D*74
$GNVTG,,T,,M,0.161,N,0.298,K,D*3D
$GNGNS,070819.00,0419.82987,S,05539.87630,E,DA,16,0.82,16.8,-47.6,,0000*6D
$GNGGA,070819.00,0419.82987,S,05539.87630,E,2,12,0.82,16.8,M,-47.6,M,,0000*45
$GNGSA,A,3,24,05,13,15,12,29,18,25,23,40,,,1.45,0.82,1.19*19
$GNGSA,A,3,75,71,72,76,65,77,,,,,,,1.45,0.82,1.19*1C
$GPGSV,4,1,16,05,31,031,28,10,13,214,20,12,70,118,32,13,12,097,22*70
$GPGSV,4,2,16,15,42,125,29,18,30,302,16,23,55,218,23,24,28,169,19*7A
$GPGSV,4,3,16,25,69,335,26,28,07,283,,29,18,354,07,36,52,277,*73
$GPGSV,4,4,16,40,86,351,41,41,58,082,,49,32,274,,50,10,089,*7C
$GLGSV,2,1,08,65,33,172,13,71,10,054,11,72,40,098,21,75,30,166,14*6B
$GLGSV,2,2,08,76,70,259,22,77,32,317,08,87,09,347,,88,05,292,*63
$GNGLL,0419.82987,S,05539.87630,E,070819.00,A,D*68
$GNGRS,070819.00,1,-3.6,-10.8,-3.7,0.3,-1.5,-16.4,-5.1,1.8,-12.7,129,,*5B
$GNGRS,070819.00,1,22.4,27.5,-15.8,1.5,8.9,-3.8,,,,,,*61
$GNGST,070819.00,1746,,,,5.4,6.7,12*67
$GNZDA,070819.00,23,05,2025,00,00*7E
$GNGBS,070819.00,5.4,6.7,12.3,,,,*68
b048H
 Fva@*}.7HEOAb{4)V_c2:R 
YzA!G
6_H(bKLF3
M =uW[X$b8Hr}D$GNRMC,070820.00,A,0419.82986,S,05539.87627,E,0.130,,230525,,,D*7D
$GNVTG,,T,,M,0.130,N,0.240,K,D*3C
$GNGNS,070820.00,0419.82986,S,05539.87627,E,DA,16,0.78,16.9,-47.6,,0000*64
$GNGGA,070820.00,0419.82986,S,05539.87627,E,2,12,0.78,16.9,M,-47.6,M,,0000*4C
$GNGSA,A,3,24,05,13,15,12,29,18,25,23,40,,,1.39,0.78,1.15*1B
$GNGSA,A,3,75,71,72,76,65,77,,,,,,,1.39,0.78,1.15*1E
$GPGSV,4,1,16,05,31,031,27,10,13,214,20,12,70,118,32,13,12,097,23*7E
$GPGSV,4,2,16,15,42,125,31,18,30,302,14,23,55,218,22,24,28,169,20*7A
$GPGSV,4,3,16,25,69,335,27,28,07,283,,29,18,354,13,36,52,277,*77
$GPGSV,4,4,16,40,86,351,41,41,58,082,,49,32,274,,50,10,089,*7C
$GLGSV,2,1,08,65,33,172,11,71,10,054,15,72,40,098,21,75,30,166,13*6A
$GLGSV,2,2,08,76,70,259,22,77,32,317,09,87,09,347,,88,05,292,*62
$GNGLL,0419.82986,S,05539.87627,E,070820.00,A,D*65
$GNGRS,070820.00,1,-4.4,-7.5,-4.5,0.2,-2.3,16.9,-3.8,0.7,-12.6,129,,*4E
$GNGRS,070820.00,1,17.5,21.4,-15.1,3.1,10.3,-1.4,,,,,,*59
$GNGST,070820.00,3072575,,,,5.4,6.7,12*58
$GNZDA,070820.00,23,05,2025,00,00*74
$GNGBS,070820.00,5.4,6.7,12.3,,,,*62
$GNTXT,01,01,01,More than 100 frame errors, UART RX was disabled*70
b04<H:
 Fva*}.B7EOgb}{4)V_h2:R 
YzA!G
6UH(bKHLF
M =|W[X$b<Hrek$GNRMC,070821.00,A,0419.82988,S,05539.87629,E,0.100,,230525,,,D*7F
$GNVTG,,T,,M,0.100,N,0.186,K,D*36
$GNGNS,070821.00,0419.82988,S,05539.87629,E,DA,16,0.78,16.8,-47.6,,0000*64
$GNGGA,070821.00,0419.82988,S,05539.87629,E,2,12,0.78,16.8,M,-47.6,M,,0000*4C
$GNGSA,A,3,24,05,13,15,12,29,18,25,23,40,,,1.39,0.78,1.15*1B
$GNGSA,A,3,75,71,72,76,65,77,,,,,,,1.39,0.78,1.15*1E
$GPGSV,4,1,16,05,31,031,27,10,13,214,21,12,70,118,32,13,12,097,24*78
$GPGSV,4,2,16,15,42,125,30,18,30,302,17,23,55,218,22,24,28,169,19*72
$GPGSV,4,3,16,25,69,335,27,28,07,283,,29,18,354,09,36,52,277,*7C
$GPGSV,4,4,16,40,86,351,41,41,58,082,,49,32,274,,50,10,089,*7C
$GLGSV,2,1,08,65,33,172,11,71,10,054,11,72,40,098,20,75,30,166,16*6A
$GLGSV,2,2,08,76,70,259,22,77,32,317,11,87,09,347,,88,05,292,*6B
$GNGLL,0419.82988,S,05539.87629,E,070821.00,A,D*64
$GNGRS,070821.00,1,-3.7,-7.1,-5.6,2.6,-2.5,16.6,-4.5,1.0,-13.6,129,,*4F
$GNGRS,070821.00,1,13.5,21.3,-15.4,2.7,10.2,-1.3,,,,,,*5F
$GNGST,070821.00,3072733,,,,5.4,6.7,12*59
$GNZDA,070821.00,23,05,2025,00,00*75
$GNGBS,070821.00,5.4,6.7,12.3,,,,*63
$GNTXT,01,01,01,More than 100 frame errors, UART RX was disabled*70
b04@H
Fv^a*}=..7)EO&b@{4)V_2:R 
YzA!G
6FH(bKLFb
M =&W[X$b@HrMC$GNRMC,070822.00,A,0419.82981,S,05539.87642,E,0.342,,230525,,,D*7C
$GNVTG,,T,,M,0.342,N,0.633,K,D*3B
$GNGNS,070822.00,0419.82981,S,05539.87642,E,DA,16,0.88,17.0,-47.6,,0000*65
$GNGGA,070822.00,0419.82981,S,05539.87642,E,2,12,0.88,17.0,M,-47.6,M,,0000*4D
$GNGSA,A,3,24,05,13,15,12,29,18,25,23,40,,,1.52,0.88,1.23*1C
$GNGSA,A,3,75,71,72,76,65,77,,,,,,,1.52,0.88,1.23*19
$GPGSV,4,1,16,05,31,031,25,10,13,214,21,12,70,118,31,13,12,097,24*79
$GPGSV,4,2,16,15,42,125,29,18,30,302,17,23,55,218,21,24,28,169,19*79
$GPGSV,4,3,16,25,69,335,27,28,07,283,,29,18,354,09,36,52,277,*7C
$GPGSV,4,4,16,40,86,351,41,41,58,082,,49,32,274,,50,10,089,*7C
$GLGSV,2,1,08,65,33,172,08,71,10,054,12,72,40,098,21,75,30,166,19*6F
$GLGSV,2,2,08,76,70,259,21,77,32,317,13,87,09,347,,88,05,292,*6A
$GNGLL,0419.82981,S,05539.87642,E,070822.00,A,D*63
$GNGRS,070822.00,1,-3.3,-6.1,-3.8,3.2,-1.6,-27.5,-4.7,2.9,-14.9,130,,*60
$GNGRS,070822.00,1,14.5,-19.8,-15.6,3.5,68.6,98.6,,,,,,*64
$GNGST,070822.00,1812,,,,5.6,7.0,12*65
$GNZDA,070822.00,23,05,2025,00,00*76
$GNGBS,070822.00,5.6,7.0,12.4,,,,*63
b04DH
Fva*}.7EOb{4&V_2:R 
YzA
!`G
6AH(b>KrLF
M =W[X$EbDHr5|$GNRMC,070823.00,A,0419.82945,S,05539.87708,E,1.245,,230525,,,D*7D
$GNVTG,,T,,M,1.245,N,2.306,K,D*3D
$GNGNS,070823.00,0419.82945,S,05539.87708,E,DA,16,0.78,17.7,-47.6,,0000*6B
$GNGGA,070823.00,0419.82945,S,05539.87708,E,2,12,0.78,17.7,M,-47.6,M,,0000*43
$GNGSA,A,3,24,05,13,15,12,29,18,25,23,40,,,1.39,0.78,1.15*1B
$GNGSA,A,3,75,71,72,76,65,77,,,,,,,1.39,0.78,1.15*1E
$GPGSV,4,1,16,05,31,031,25,10,13,214,20,12,70,118,30,13,12,097,23*7E
$GPGSV,4,2,16,15,42,125,28,18,30,302,18,23,55,218,20,24,28,169,18*77
$GPGSV,4,3,16,25,69,335,27,28,07,283,,29,18,354,13,36,52,277,*77
$GPGSV,4,4,16,40,86,351,38,41,58,082,,49,32,274,,50,10,089,*72
$GLGSV,2,1,08,65,33,172,10,71,10,054,12,72,40,098,20,75,30,166,18*66
$GLGSV,2,2,08,76,70,259,19,77,32,317,08,87,09,347,,88,05,292,*6B
$GNGLL,0419.82945,S,05539.87708,E,070823.00,A,D*65
$GNGRS,070823.00,1,-5.6,-5.4,-0.6,5.3,-0.9,17.2,-5.3,3.9,-16.2,130,,*44
$GNGRS,070823.00,1,16.5,21.1,-14.7,1.3,3.5,-0.6,,,,,,*6E
$GNGST,070823.00,5319948,,,,5.6,7.1,12*54
$GNZDA,070823.00,23,05,2025,00,00*77
$GNGBS,070823.00,5.6,7.1,12.4,,,,*63
$GNTXT,01,01,01,More than 100 frame errors, UART RX was disabled*70
b04xLH
 FvIa**}.7EOb{4)V_2:R 
YzA!S!G
6#H(bOKLFI
M =B9W[X$|bxLHrL$GNRMC,070825.00,A,0419.82936,S,05539.87743,E,0.764,,230525,,,D*77
$GNVTG,,T,,M,0.764,N,1.414,K,D*3D
$GNGNS,070825.00,0419.82936,S,05539.87743,E,DA,15,0.88,18.1,-47.6,,0000*63
$GNGGA,070825.00,0419.82936,S,05539.87743,E,2,12,0.88,18.1,M,-47.6,M,,0000*48
$GNGSA,A,3,24,05,13,15,12,29,18,25,23,40,,,1.51,0.88,1.23*1F
$GNGSA,A,3,75,71,72,76,65,,,,,,,,1.51,0.88,1.23*1A
$GPGSV,4,1,16,05,31,031,26,10,13,214,19,12,70,118,32,13,12,097,20*76
$GPGSV,4,2,16,15,42,125,28,18,30,302,18,23,55,218,20,24,28,169,19*76
$GPGSV,4,3,16,25,69,335,29,28,07,283,,29,18,354,11,36,52,277,*7B
$GPGSV,4,4,16,40,86,351,41,41,58,082,,49,32,274,,50,10,089,*7C
$GLGSV,2,1,08,65,33,172,13,71,10,054,15,72,40,098,21,75,30,166,17*6C
$GLGSV,2,2,08,76,70,259,17,77,32,317,06,87,09,347,,88,05,292,*6B
$GNGLL,0419.82936,S,05539.87743,E,070825.00,A,D*68
$GNGRS,070825.00,1,-5.7,-5.3,0.4,4.0,0.7,-21.4,-5.1,-0.8,-15.9,130,,*41
$GNGRS,070825.00,1,14.4,5.5,-14.6,0.7,85.3,,,,,,,*60
$GNGST,070825.00,1812,,,,5.8,7.2,12*6E
$GNZDA,070825.00,23,05,2025,00,00*71
$GNGBS,070825.00,5.8,7.2,12.4,,,,*68
$GNTXT,01,01,01,More than 100 frame errors, UART RX was disabled*70
b04HTH\
"Fva*}R.7EO;
b{4+V_2:R 
YzA!G
6H(bVKLF
M
 =$W[X$]bHTHrz$GNRMC,070827.00,A,0419.82950,S,05539.87731,E,0.115,,230525,,,D*70
$GNVTG,,T,,M,0.115,N,0.213,K,D*3D
$GNGNS,070827.00,0419.82950,S,05539.87731,E,DA,16,0.78,18.0,-47.6,,0000*69
$GNGGA,070827.00,0419.82950,S,05539.87731,E,2,12,0.78,18.0,M,-47.6,M,,0000*41
$GNGSA,A,3,24,05,13,15,12,29,18,25,23,40,,,1.40,0.78,1.15*15
$GNGSA,A,3,75,71,72,76,65,77,,,,,,,1.40,0.78,1.15*10
$GPGSV,4,1,16,05,31,031,28,10,13,214,19,12,70,118,34,13,12,097,22*7C
$GPGSV,4,2,16,15,42,125,29,18,30,302,17,23,55,218,19,24,28,169,18*73
$GPGSV,4,3,16,25,69,335,31,28,07,283,,29,18,354,10,36,52,277,*73
$GPGSV,4,4,16,40,86,351,43,41,58,082,,49,32,274,,50,10,089,*7E
$GLGSV,2,1,08,65,33,172,18,71,10,054,15,72,40,098,23,75,30,166,21*60
$GLGSV,2,2,08,76,70,259,18,77,32,317,10,87,09,347,,88,05,292,*63
$GNGLL,0419.82950,S,05539.87731,E,070827.00,A,D*6F
$GNGRS,070827.00,1,-0.8,-1.6,-0.1,8.5,2.1,17.1,-0.5,-2.0,-18.4,130,,*4B
$GNGRS,070827.00,1,14.4,22.3,-14.5,4.5,1.8,-2.2,,,,,,*60
$GNGST,070827.00,3074497,,,,5.8,7.3,12*5D
$GNZDA,070827.00,23,05,2025,00,00*73
$GNGBS,070827.00,5.8,7.3,12.4,,,,*6B
b040XH-
!Fvav*}.n7kEObz{4*V_2:R 
YzA!G
6CH(bWKjLF
M
 =W[X$b0XHrR$GNRMC,070828.00,A,0419.82962,S,05539.87720,E,0.100,,230525,,,D*7A
$GNVTG,,T,,M,0.100,N,0.185,K,D*35
$GNGNS,070828.00,0419.82962,S,05539.87720,E,DA,16,0.83,17.7,-47.6,,0000*6B
$GNGGA,070828.00,0419.82962,S,05539.87720,E,2,12,0.83,17.7,M,-47.6,M,,0000*43
$GNGSA,A,3,24,05,13,15,12,29,18,25,23,40,,,1.42,0.83,1.15*13
$GNGSA,A,3,75,71,72,76,65,77,,,,,,,1.42,0.83,1.15*16
$GPGSV,4,1,16,05,31,031,28,10,13,214,20,12,70,118,33,13,12,097,23*70
$GPGSV,4,2,16,15,42,125,28,18,30,302,17,23,55,218,19,24,28,169,19*73
$GPGSV,4,3,16,25,69,335,30,28,07,283,,29,18,354,11,36,52,277,*73
$GPGSV,4,4,16,40,86,351,42,41,58,082,,49,32,274,,50,10,089,*7F
$GLGSV,2,1,08,65,33,172,14,71,10,054,09,72,40,098,24,75,30,166,21*66
$GLGSV,2,2,08,76,70,259,21,77,32,317,10,87,09,347,,88,05,292,*69
$GNGLL,0419.82962,S,05539.87720,E,070828.00,A,D*61
$GNGRS,070828.00,1,1.1,-2.1,-1.4,5.3,4.4,14.0,-1.5,-0.3,-18.2,130,,*6D
$GNGRS,070828.00,1,13.9,8.3,-14.5,4.9,19.9,29.5,,,,,,*7A
$GNGST,070828.00,1758,,,,5.7,7.3,12*6C
$GNZDA,070828.00,23,05,2025,00,00*7C
$GNGBS,070828.00,5.7,7.3,12.4,,,,*6B
$GNTXT,01,01,01,More than 100 frame errors, UART RX was disabled*70
$GNTXT,01,01,01,More than 100 frame errors, UART RX was disabled*70
b04oH*
Fvay*}..B7EOobZ{4)V_1:R 
Yz7A!dG

6H(bKLF
M =pW[X$'gboHr-a$GNRMC,070834.00,A,0419.82995,S,05539.87698,E,0.251,,230525,,,D*7A
$GNVTG,,T,,M,0.251,N,0.464,K,D*38
$GNGNS,070834.00,0419.82995,S,05539.87698,E,DA,16,0.79,17.5,-47.6,,0000*6B
$GNGGA,070834.00,0419.82995,S,05539.87698,E,2,12,0.79,17.5,M,-47.6,M,,0000*43
$GNGSA,A,3,24,05,13,15,12,29,18,25,23,40,,,1.38,0.79,1.13*1D
$GNGSA,A,3,75,71,72,76,65,77,,,,,,,1.38,0.79,1.13*18
$GPGSV,4,1,16,05,31,031,26,10,13,214,20,12,70,118,31,13,12,097,19*75
$GPGSV,4,2,16,15,42,125,26,18,30,302,11,23,55,218,16,24,28,169,16*7B
$GPGSV,4,3,16,25,69,335,27,28,07,283,,29,18,354,15,36,52,277,*71
$GPGSV,4,4,16,40,86,351,41,41,58,082,,49,32,274,,50,10,089,*7C
$GLGSV,2,1,08,65,33,172,12,71,10,054,10,72,40,098,22,75,30,166,18*64
$GLGSV,2,2,08,76,70,259,21,77,32,317,08,87,09,347,,88,05,292,*60
$GNGLL,0419.82995,S,05539.87698,E,070834.00,A,D*66
$GNGRS,070834.00,1,-0.2,-4.7,-3.9,5.6,4.8,0.9,-4.5,-4.0,-18.6,128,,*7A
$GNGRS,070834.00,1,12.3,-15.4,-12.8,-1.1,3.6,34.4,,,,,,*78
$GNGST,070834.00,1687,,,,5.7,7.4,12*65
$GNZDA,070834.00,23,05,2025,00,00*71
$GNGBS,070834.00,5.7,7.4,12.5,,,,*60
b04sH
Fva*}
.77,EO
b{4)V_1:R 
YzN6A"G

6aH(b?K<LF
M =kW[X$~YbsHr9J$GNRMC,070835.00,A,0419.83004,S,05539.87688,E,0.226,,230525,,,D*7A
$GNVTG,,T,,M,0.226,N,0.419,K,D*32
$GNGNS,070835.00,0419.83004,S,05539.87688,E,DA,16,0.78,17.3,-47.6,,0000*6C
$GNGGA,070835.00,0419.83004,S,05539.87688,E,2,12,0.78,17.3,M,-47.6,M,,0000*44
$GNGSA,A,3,24,05,13,15,12,29,18,25,23,40,,,1.40,0.78,1.15*15
$GNGSA,A,3,75,71,72,76,65,77,,,,,,,1.40,0.78,1.15*10
$GPGSV,4,1,16,05,31,031,27,10,13,214,20,12,70,118,31,13,12,097,19*74
$GPGSV,4,2,16,15,42,125,26,18,30,302,10,23,55,218,17,24,28,169,17*7A
$GPGSV,4,3,16,25,69,335,26,28,07,283,,29,18,354,10,36,52,277,*75
$GPGSV,4,4,16,40,86,351,41,41,58,082,,49,32,274,,50,10,089,*7C
$GLGSV,2,1,08,65,34,172,12,71,10,054,10,72,40,098,22,75,30,166,17*6C
$GLGSV,2,2,08,76,70,259,21,77,32,317,09,87,09,347,,88,05,292,*61
$GNGLL,0419.83004,S,05539.87688,E,070835.00,A,D*66
$GNGRS,070835.00,1,1.5,-2.9,-3.5,4.2,-0.5,16.8,-4.6,-3.1,-20.0,127,,*44
$GNGRS,070835.00,1,13.4,21.4,-12.2,-0.2,2.4,-1.5,,,,,,*44
$GNGST,070835.00,3077009,,,,5.7,7.5,13*56
$GNZDA,070835.00,23,05,2025,00,00*70
$GNGBS,070835.00,5.7,7.5,12.5,,,,*60
$GNTXT,01,01,01,More than 100 frame errors, UART RX was disabled*70
b04pwH
!Fva*}.f7EOub{4+V_1:R 
Yz4A"G
6LH(b.KsLFg
M =nW[X$XbpwHr$GNRMC,070836.00,A,0419.83009,S,05539.87689,E,0.084,,230525,,,D*7F
$GNVTG,,T,,M,0.084,N,0.156,K,D*36
$GNGNS,070836.00,0419.83009,S,05539.87689,E,DA,16,0.78,17.2,-47.6,,0000*62
$GNGGA,070836.00,0419.83009,S,05539.87689,E,2,12,0.78,17.2,M,-47.6,M,,0000*4A
$GNGSA,A,3,24,05,13,15,12,29,18,25,23,40,,,1.40,0.78,1.15*15
$GNGSA,A,3,75,71,72,76,65,77,,,,,,,1.40,0.78,1.15*10
$GPGSV,4,1,16,05,31,031,26,10,13,214,20,12,70,118,33,13,12,097,21*7C
$GPGSV,4,2,16,15,42,125,27,18,30,302,13,23,55,218,16,24,28,169,15*7B
$GPGSV,4,3,16,25,69,335,28,28,07,283,,29,18,354,09,36,52,277,*73
$GPGSV,4,4,16,40,86,351,43,41,58,082,,49,32,274,,50,10,089,*7E
$GLGSV,2,1,08,65,34,172,12,71,10,054,09,72,40,098,23,75,30,166,16*64
$GLGSV,2,2,08,76,70,259,22,77,32,317,13,87,09,347,,88,05,292,*69
$GNGLL,0419.83009,S,05539.87689,E,070836.00,A,D*69
$GNGRS,070836.00,1,2.8,-2.3,-3.3,4.6,1.3,17.0,-4.1,-4.0,-21.4,127,,*66
$GNGRS,070836.00,1,14.0,21.2,-12.3,-1.5,2.1,-1.5,,,,,,*40
$GNGST,070836.00,4344432,,,,5.8,7.6,13*51
$GNZDA,070836.00,23,05,2025,00,00*73
$GNGBS,070836.00,5.8,7.6,12.6,,,,*6C
$GNTXT,01,01,01,More than 100 frame errors, UART RX was disabled*70
$GNTXT,01,01,01,More than 100 frame errors, UART RX was disabled*70
b04@HK
 Fvab*}U.7*EOb{4)V_1:R 
Yz2A"G
6`H(baKZLF
M =aW[X$b@Hr$GNRMC,070838.00,A,0419.83020,S,05539.87697,E,0.106,,230525,,,D*7E
$GNVTG,,T,,M,0.106,N,0.196,K,D*31
$GNGNS,070838.00,0419.83020,S,05539.87697,E,DA,16,0.78,16.9,-47.6,,0000*62
$GNGGA,070838.00,0419.83020,S,05539.87697,E,2,12,0.78,16.9,M,-47.6,M,,0000*4A
$GNGSA,A,3,24,05,13,15,12,29,18,25,23,40,,,1.40,0.78,1.15*15
$GNGSA,A,3,75,71,72,76,65,77,,,,,,,1.40,0.78,1.15*10
$GPGSV,4,1,16,05,31,031,26,10,13,214,20,12,70,118,32,13,12,097,20*7C
$GPGSV,4,2,16,15,42,125,27,18,30,302,09,23,55,218,14,24,28,169,11*76
$GPGSV,4,3,16,25,69,335,27,28,07,283,,29,18,354,13,36,52,277,*77
$GPGSV,4,4,16,40,86,351,41,41,58,082,,49,32,274,,50,10,089,*7C
$GLGSV,2,1,08,65,34,172,11,71,10,054,09,72,40,098,21,75,30,166,15*66
$GLGSV,2,2,08,76,70,259,21,77,32,317,09,87,09,347,,88,05,292,*61
$GNGLL,0419.83020,S,05539.87697,E,070838.00,A,D*63
$GNGRS,070838.00,1,5.5,-1.8,1.0,6.0,-0.3,17.0,10.0,-3.4,-20.5,128,,*7B
$GNGRS,070838.00,1,13.7,21.4,-11.8,-0.7,2.7,-1.6,,,,,,*46
$GNGST,070838.00,4346743,,,,5.8,7.8,13*56
$GNZDA,070838.00,23,05,2025,00,00*7D
$GNGBS,070838.00,5.8,7.8,12.7,,,,*6D
$GNTXT,01,01,01,More than 100 frame errors, UART RX was disabled*70
b04H
"Fva*}.7`|EO
b{4+V_1:R 
YzA"G
5aH(bKLF
M =W[X$bHrH$GNRMC,070841.00,A,0419.83035,S,05539.87683,E,0.056,,230525,,,D*75
$GNVTG,,T,,M,0.056,N,0.104,K,D*3E
$GNGNS,070841.00,0419.83035,S,05539.87683,E,DA,14,0.97,16.8,-47.6,,0000*6F
$GNGGA,070841.00,0419.83035,S,05539.87683,E,2,12,0.97,16.8,M,-47.6,M,,0000*45
$GNGSA,A,3,24,05,13,15,12,29,25,23,40,,,,1.63,0.97,1.30*1B
$GNGSA,A,3,75,71,72,76,65,,,,,,,,1.63,0.97,1.30*17
$GPGSV,4,1,16,05,31,031,29,10,13,214,20,12,70,118,34,13,12,097,19*7F
$GPGSV,4,2,16,15,42,125,29,18,30,302,,23,55,218,20,24,28,169,14*73
$GPGSV,4,3,16,25,69,335,28,28,07,283,,29,18,354,10,36,52,277,*7B
$GPGSV,4,4,16,40,86,351,43,41,58,082,,49,32,274,,50,10,089,*7E
$GLGSV,2,1,08,65,34,172,18,71,10,053,14,72,40,098,25,75,30,166,16*63
$GLGSV,2,2,08,76,70,259,21,77,32,317,06,87,09,347,,88,05,292,*6E
$GNGLL,0419.83035,S,05539.87683,E,070841.00,A,D*6C
$GNGRS,070841.00,1,11.5,-0.9,-0.7,5.4,2.1,17.2,1.9,-17.0,127,,,*70
$GNGRS,070841.00,1,11.8,21.5,-15.3,1.6,2.6,,,,,,,*63
$GNGST,070841.00,223784,,,,5.9,8.0,13*63
$GNZDA,070841.00,23,05,2025,00,00*73
$GNGBS,070841.00,5.9,8.0,12.9,,,,*6B
b04H
"Fva*}.7$VEOb{{4+V_1:R 
YzA"_G
5SH(aKLF
M
 =W[X$GbHrm $GNRMC,070842.00,A,0419.83048,S,05539.87669,E,0.206,,230525,,,D*7F
$GNVTG,,T,,M,0.206,N,0.381,K,D*36
$GNGNS,070842.00,0419.83048,S,05539.87669,E,DA,15,0.86,16.5,-47.6,,0000*6E
$GNGGA,070842.00,0419.83048,S,05539.87669,E,2,12,0.86,16.5,M,-47.6,M,,0000*45
$GNGSA,A,3,24,05,13,15,12,29,25,23,40,,,,1.49,0.86,1.22*10
$GNGSA,A,3,75,71,72,76,65,77,,,,,,,1.49,0.86,1.22*1C
$GPGSV,4,1,16,05,31,031,29,10,13,214,21,12,70,118,34,13,12,097,20*74
$GPGSV,4,2,16,15,42,125,31,18,30,302,,23,55,218,18,24,28,169,12*77
$GPGSV,4,3,16,25,69,335,29,28,07,283,,29,18,354,16,36,52,277,*7C
$GPGSV,4,4,16,40,86,351,43,41,58,082,,49,32,274,,50,10,089,*7E
$GLGSV,2,1,08,65,34,172,20,71,10,053,11,72,40,097,26,75,30,166,18*6F
$GLGSV,2,2,08,76,70,259,22,77,32,317,10,87,09,347,,88,05,292,*6A
$GNGLL,0419.83048,S,05539.87669,E,070842.00,A,D*61
$GNGRS,070842.00,1,11.1,-0.6,-0.4,7.8,1.5,16.6,-2.8,-15.0,127,,,*5A
$GNGRS,070842.00,1,12.6,21.3,-15.5,4.5,3.5,-1.2,,,,,,*69
$GNGST,070842.00,3180833,,,,5.9,8.0,13*5A
$GNZDA,070842.00,23,05,2025,00,00*70
$GNGBS,070842.00,5.9,8.0,12.9,,,,*68
$GNTXT,01,01,01,More than 100 frame errors, UART RX was disabled*70
b04H
"Fvja*}.7EOb{4+V_1:R 
YzA"G
5&H(aKLF
M =8W[X$)bHrUz$GNRMC,070843.00,A,0419.83051,S,05539.87668,E,0.114,,230525,,,D*77
$GNVTG,,T,,M,0.114,N,0.211,K,D*3E
$GNGNS,070843.00,0419.83051,S,05539.87668,E,DA,14,1.27,16.5,-47.6,,0000*6D
$GNGGA,070843.00,0419.83051,S,05539.87668,E,2,12,1.27,16.5,M,-47.6,M,,0000*47
$GNGSA,A,3,24,05,13,15,12,25,23,40,,,,,2.24,1.27,1.85*14
$GNGSA,A,3,75,71,72,76,65,77,,,,,,,2.24,1.27,1.85*13
$GPGSV,4,1,16,05,31,031,29,10,13,214,21,12,70,118,34,13,12,097,18*7F
$GPGSV,4,2,16,15,42,125,30,18,30,302,,23,55,218,19,24,28,169,12*77
$GPGSV,4,3,16,25,69,335,29,28,07,283,,29,18,354,09,36,52,277,*72
$GPGSV,4,4,16,40,86,351,43,41,58,082,,49,32,274,,50,10,089,*7E
$GLGSV,2,1,08,65,34,172,21,71,10,053,13,72,40,097,27,75,30,166,18*6D
$GLGSV,2,2,08,76,70,259,24,77,32,317,11,87,09,347,,88,05,292,*6D
$GNGLL,0419.83051,S,05539.87668,E,070843.00,A,D*69
$GNGRS,070843.00,1,-15.2,-1.0,-0.2,6.5,1.1,-0.5,-13.8,127,,,,*66
$GNGRS,070843.00,1,12.6,38.8,-14.1,3.9,4.0,146,,,,,,*54
$GNGST,070843.00,1910,,,,5.8,8.0,13*61
$GNZDA,070843.00,23,05,2025,00,00*71
$GNGBS,070843.00,5.8,8.0,12.9,,,,*68
$GNTXT,01,01,01,More than 100 frame errors, UART RX was disabled*70
$GNTXT,01,01,01,More than 100 frame errors, UART RX was disabled*70
b04H
"FvNa*}w.7]4EODb{4+V_i1:R 
YzLA"G
5oH(a;KLF
M =9W[X$XbHr%J$GNRMC,070845.00,A,0419.83064,S,05539.87655,E,0.153,,230525,,,D*7A
$GNVTG,,T,,M,0.153,N,0.283,K,D*36
$GNGNS,070845.00,0419.83064,S,05539.87655,E,DA,15,0.86,15.9,-47.6,,0000*67
$GNGGA,070845.00,0419.83064,S,05539.87655,E,2,12,0.86,15.9,M,-47.6,M,,0000*4C
$GNGSA,A,3,24,05,13,15,12,29,25,23,40,,,,1.49,0.86,1.22*10
$GNGSA,A,3,75,71,72,76,65,77,,,,,,,1.49,0.86,1.22*1C
$GPGSV,4,1,16,05,31,031,28,10,13,214,23,12,70,118,34,13,12,097,18*7C
$GPGSV,4,2,16,15,42,125,30,18,30,302,,23,55,218,21,24,28,169,15*7B
$GPGSV,4,3,16,25,69,335,30,28,07,283,,29,18,354,13,36,52,277,*71
$GPGSV,4,4,16,40,86,351,43,41,58,082,,49,32,274,,50,10,089,*7E
$GLGSV,2,1,08,65,34,172,21,71,10,053,17,72,40,097,26,75,29,166,17*6F
$GLGSV,2,2,08,76,70,259,24,77,32,317,08,87,09,347,,88,05,292,*65
$GNGLL,0419.83064,S,05539.87655,E,070845.00,A,D*67
$GNGRS,070845.00,1,10.8,-0.5,0.0,1.2,0.8,12.5,-4.4,-11.9,126,,,*7E
$GNGRS,070845.00,1,11.9,21.6,-14.8,4.9,5.2,-2.0,,,,,,*67
$GNGST,070845.00,3179281,,,,5.8,8.0,13*59
$GNZDA,070845.00,23,05,2025,00,00*77
$GNGBS,070845.00,5.8,8.0,12.9,,,,*6E
b04H:
!Fv@a*}.7EOb{4+V_k1:R 
YzA"}G

56H(aKLF8
M
 =W[X$|bHr$GNRMC,070846.00,A,0419.83075,S,05539.87649,E,0.118,,230525,,,D*7B
$GNVTG,,T,,M,0.118,N,0.218,K,D*3B
$GNGNS,070846.00,0419.83075,S,05539.87649,E,DA,14,0.86,15.6,-47.6,,0000*67
$GNGGA,070846.00,0419.83075,S,05539.87649,E,2,12,0.86,15.6,M,-47.6,M,,0000*4D
$GNGSA,A,3,24,05,13,15,12,29,25,23,40,,,,1.49,0.86,1.22*10
$GNGSA,A,3,75,72,76,65,77,,,,,,,,1.49,0.86,1.22*1A
$GPGSV,4,1,16,05,31,031,28,10,13,214,23,12,70,118,33,13,12,097,19*7A
$GPGSV,4,2,16,15,42,125,29,18,30,302,,23,55,218,21,24,28,169,16*70
$GPGSV,4,3,16,25,69,335,31,28,07,283,,29,18,354,12,36,52,277,*71
$GPGSV,4,4,16,40,86,351,43,41,58,082,,49,32,274,,50,10,089,*7E
$GLGSV,2,1,08,65,34,172,21,71,10,053,10,72,40,097,27,75,29,166,18*66
$GLGSV,2,2,08,76,70,256,23,77,32,317,10,87,09,347,,88,05,292,*64
$GNGLL,0419.83075,S,05539.87649,E,070846.00,A,D*69
$GNGRS,070846.00,1,12.2,0.6,1.4,14.3,0.6,10.1,-1.2,-11.4,127,,,*6C
$GNGRS,070846.00,1,12.8,-13.5,5.7,3.8,10.4,,,,,,,*6E
$GNGST,070846.00,1769,,,,5.8,8.0,13*64
$GNZDA,070846.00,23,05,2025,00,00*74
$GNGBS,070846.00,5.8,8.0,12.9,,,,*6D
b04hH[
!FvEah*}.7X7EObO{4+V_1:R 
YzA"G
51H(aKLF
M
 =LW[X$;bhHrW$GNRMC,070847.00,A,0419.83088,S,05539.87635,E,0.111,,230525,,,D*7A
$GNVTG,,T,,M,0.111,N,0.205,K,D*3E
$GNGNS,070847.00,0419.83088,S,05539.87635,E,DA,15,0.83,15.0,-47.6,,0000*6D
$GNGGA,070847.00,0419.83088,S,05539.87635,E,2,12,0.83,15.0,M,-47.6,M,,0000*46
$GNGSA,A,3,24,05,13,15,12,29,25,23,40,,,,1.44,0.83,1.17*1E
$GNGSA,A,3,75,71,72,76,65,77,,,,,,,1.44,0.83,1.17*12
$GPGSV,4,1,16,05,31,031,27,10,13,214,22,12,70,118,33,13,12,097,19*74
$GPGSV,4,2,16,15,42,125,29,18,30,302,,23,55,218,20,24,28,169,19*7E
$GPGSV,4,3,16,25,69,335,31,28,07,283,,29,18,354,13,36,52,277,*70
$GPGSV,4,4,16,40,86,351,43,41,58,082,,49,32,274,,50,10,089,*7E
$GLGSV,2,1,08,65,34,172,20,71,10,053,12,72,40,097,27,75,29,166,18*65
$GLGSV,2,2,08,76,70,256,23,77,32,317,10,87,09,347,,88,05,292,*64
$GNGLL,0419.83088,S,05539.87635,E,070847.00,A,D*61
$GNGRS,070847.00,1,10.8,0.9,1.0,11.7,0.7,11.0,-6.2,-11.9,127,,,*64
$GNGRS,070847.00,1,12.9,18.4,-15.1,7.9,4.6,-1.8,,,,,,*6B
$GNGST,070847.00,137506,,,,5.8,8.0,13*6A
$GNZDA,070847.00,23,05,2025,00,00*75
$GNGBS,070847.00,5.8,8.0,12.9,,,,*6C
$GNTXT,01,01,01,More than 100 frame errors, UART RX was disabled*70
b04PH
 Fv8aS*}:.7=EOb{4+V_1:R 
YzuA"#G
5uH(aKLF
M =
W[X$bPHr /$GNRMC,070848.00,A,0419.83103,S,05539.87610,E,0.278,,230525,,,D*7C
$GNVTG,,T,,M,0.278,N,0.515,K,D*34
$GNGNS,070848.00,0419.83103,S,05539.87610,E,DA,15,0.83,14.2,-47.6,,0000*64
$GNGGA,070848.00,0419.83103,S,05539.87610,E,2,12,0.83,14.2,M,-47.6,M,,0000*4F
$GNGSA,A,3,24,05,13,15,12,29,25,23,40,,,,1.44,0.83,1.17*1E
$GNGSA,A,3,75,71,72,76,65,77,,,,,,,1.44,0.83,1.17*12
$GPGSV,4,1,16,05,31,031,27,10,13,214,22,12,70,118,32,13,12,097,18*74
$GPGSV,4,2,16,15,42,125,28,18,30,302,,23,55,218,18,24,28,169,15*78
$GPGSV,4,3,16,25,69,335,31,28,07,283,,29,18,354,14,36,52,277,*77
$GPGSV,4,4,16,40,86,351,43,41,58,082,,49,32,274,,50,10,089,*7E
$GLGSV,2,1,08,65,34,172,19,71,10,053,15,72,40,097,26,75,29,166,19*68
$GLGSV,2,2,08,76,70,256,23,77,32,317,12,87,09,347,,88,05,292,*66
$GNGLL,0419.83103,S,05539.87610,E,070848.00,A,D*6B
$GNGRS,070848.00,1,10.8,1.3,-1.7,10.8,0.6,9.8,1.3,-10.0,127,,,*57
$GNGRS,070848.00,1,12.1,19.1,-16.4,4.6,2.9,-2.5,,,,,,*65
$GNGST,070848.00,3071474,,,,5.7,8.1,13*5F
$GNZDA,070848.00,23,05,2025,00,00*7A
$GNGBS,070848.00,5.7,8.1,12.9,,,,*6D
b048HG
FvIaK*}e.7cEO`b{4*V_t1:R 
YzA"G
5H(aPKLF
M =W[X$gb8Hr$$GNRMC,070849.00,A,0419.83118,S,05539.87592,E,0.321,,230525,,,D*73
$GNVTG,,T,,M,0.321,N,0.595,K,D*31
$GNGNS,070849.00,0419.83118,S,05539.87592,E,DA,15,0.95,13.6,-47.6,,0000*62
$GNGGA,070849.00,0419.83118,S,05539.87592,E,2,12,0.95,13.6,M,-47.6,M,,0000*49
$GNGSA,A,3,24,05,13,15,12,29,25,23,40,,,,1.57,0.95,1.25*1A
$GNGSA,A,3,75,71,72,76,65,77,,,,,,,1.57,0.95,1.25*16
$GPGSV,4,1,16,05,31,031,26,10,13,214,21,12,70,118,31,13,12,097,18*75
$GPGSV,4,2,16,15,42,125,28,18,30,302,,23,55,218,19,24,28,169,17*7B
$GPGSV,4,3,16,25,69,335,29,28,07,283,,29,18,354,14,36,52,277,*7E
$GPGSV,4,4,16,40,86,351,42,41,58,082,,49,32,274,,50,10,089,*7F
$GLGSV,2,1,08,65,34,172,16,71,10,053,17,72,40,097,26,75,29,166,19*65
$GLGSV,2,2,08,76,70,256,22,77,32,317,08,87,09,347,,88,05,292,*6C
$GNGLL,0419.83118,S,05539.87592,E,070849.00,A,D*69
$GNGRS,070849.00,1,10.5,3.3,-1.8,11.2,0.7,7.7,-1.6,-9.3,127,,,*4E
$GNGRS,070849.00,1,10.4,17.5,-17.1,4.7,5.4,-102,,,,,,*7C
$GNGST,070849.00,1758,,,,5.7,8.1,13*67
$GNZDA,070849.00,23,05,2025,00,00*7B
$GNGBS,070849.00,5.7,8.1,12.9,,,,*6C
b04H
FvYa+*}l.7'EO
b{4+V_X1:R 
Yz0A
"G
5H(aTKLF
M =SW[X$pbHr,$GNRMC,070851.00,A,0419.83122,S,05539.87588,E,0.123,,230525,,,D*78
$GNVTG,,T,,M,0.123,N,0.227,K,D*3F
$GNGNS,070851.00,0419.83122,S,05539.87588,E,DA,14,0.87,12.9,-47.6,,0000*65
$GNGGA,070851.00,0419.83122,S,05539.87588,E,2,12,0.87,12.9,M,-47.6,M,,0000*4F
$GNGSA,A,3,24,05,13,15,12,29,25,23,40,,,,1.48,0.87,1.20*12
$GNGSA,A,3,75,71,72,76,77,,,,,,,,1.48,0.87,1.20*1D
$GPGSV,4,1,16,05,31,031,25,10,13,214,18,12,70,118,31,13,12,097,18*7C
$GPGSV,4,2,16,15,42,125,26,18,30,302,,23,55,218,18,24,28,169,20*70
$GPGSV,4,3,16,25,69,335,27,28,07,283,,29,18,354,10,36,52,277,*74
$GPGSV,4,4,16,40,86,351,43,41,58,082,,49,32,274,,50,10,089,*7E
$GLGSV,2,1,08,65,34,172,10,71,10,053,17,72,40,097,25,75,29,166,23*69
$GLGSV,2,2,08,76,70,256,20,77,32,317,11,87,09,347,,88,05,292,*66
$GNGLL,0419.83122,S,05539.87588,E,070851.00,A,D*62
$GNGRS,070851.00,1,8.1,6.6,-4.7,11.3,0.9,4.3,2.5,-5.4,126,,,*5F
$GNGRS,070851.00,1,9.9,15.5,-17.1,4.3,-1.7,,,,,,,*72
$GNGST,070851.00,3179277,,,,5.8,8.2,13*57
$GNZDA,070851.00,23,05,2025,00,00*72
$GNGBS,070851.00,5.8,8.2,12.9,,,,*69
$GNGST,070852.00,1836,,,,5.8,8.2,13*66
$GNZDA,070852.00,23,05,2025,00,00*71
$GNGBS,070852.00,5.8,8.2,12.9,,,,*6A
$GNTXT,01,01,01,More than 100 frame errors, UART RX was disabled*70
$GNTXT,01,01,01,More than 100 frame errors, UART RX was disabled*70
$GNTXT,01,01,01,More than 100 frame errors, UART RX was disabled*70
b04H#
Fva*}.7hEO|
b{4+V_>1:R 
YzA"{G
5H(aKLF
M =W[X$[bHr@$GNRMC,070856.00,A,0419.83133,S,05539.87556,E,0.453,,230525,,,D*7E
$GNVTG,,T,,M,0.453,N,0.840,K,D*36
$GNGNS,070856.00,0419.83133,S,05539.87556,E,DA,16,0.75,12.5,-47.6,,0000*62
$GNGGA,070856.00,0419.83133,S,05539.87556,E,2,12,0.75,12.5,M,-47.6,M,,0000*4A
$GNGSA,A,3,24,05,13,15,12,29,18,25,23,40,,,1.34,0.75,1.11*1F
$GNGSA,A,3,75,71,72,76,65,77,,,,,,,1.34,0.75,1.11*1A
$GPGSV,4,1,16,05,31,031,22,10,13,214,20,12,70,118,30,13,12,097,19*70
$GPGSV,4,2,16,15,42,125,26,18,30,302,25,23,55,218,18,24,28,169,20*77
$GPGSV,4,3,16,25,69,335,30,28,07,283,,29,18,354,10,36,52,277,*72
$GPGSV,4,4,16,40,86,351,43,41,58,082,,49,32,274,,50,10,089,*7E
$GLGSV,2,1,08,65,34,172,20,71,10,053,16,72,40,097,25,75,29,166,24*6C
$GLGSV,2,2,08,76,70,256,16,77,32,317,14,87,09,347,,88,05,292,*66
$GNGLL,0419.83133,S,05539.87556,E,070856.00,A,D*66
$GNGRS,070856.00,1,5.4,8.0,-5.1,10.2,2.8,17.0,-10.3,1.2,11.3,126,,*47
$GNGRS,070856.00,1,6.6,18.1,-15.7,1.8,-16.7,-1.2,,,,,,*40
$GNGST,070856.00,2974469,,,,6.1,8.2,13*57
$GNZDA,070856.00,23,05,2025,00,00*75
$GNGBS,070856.00,6.1,8.2,12.7,,,,*6A
$GNTXT,01,01,01,More than 100 frame errors, UART RX was disabled*70
b040H=
Fva*}.7gEOb{{4+V_1:R 
YzA"9G
5H(aKLF
M =-W[X$)b0HrOMM$GNRMC,070900.00,A,0419.83125,S,05539.87622,E,0.281,,230525,,,D*72
$GNVTG,,T,,M,0.281,N,0.521,K,D*35
$GNGNS,070900.00,0419.83125,S,05539.87622,E,DA,16,0.75,13.1,-47.6,,0000*62
$GNGGA,070900.00,0419.83125,S,05539.87622,E,2,12,0.75,13.1,M,-47.6,M,,0000*4A
$GNGSA,A,3,24,05,13,15,12,29,18,25,23,40,,,1.34,0.75,1.11*1F
$GNGSA,A,3,75,71,72,76,65,77,,,,,,,1.34,0.75,1.11*1A
$GPGSV,4,1,16,05,31,031,18,10,13,214,18,12,70,118,28,13,12,097,19*7B
$GPGSV,4,2,16,15,42,125,26,18,30,302,23,23,55,218,20,24,28,169,19*70
$GPGSV,4,3,16,25,69,335,30,28,07,283,,29,18,354,19,36,52,277,*7B
$GPGSV,4,4,16,40,86,351,43,41,58,082,,49,32,274,,50,10,089,*7E
$GLGSV,2,1,08,65,34,172,19,71,10,053,16,72,40,097,26,75,29,166,23*62
$GLGSV,2,2,08,76,70,256,21,77,32,317,15,87,08,347,,88,04,292,*63
$GNGLL,0419.83125,S,05539.87622,E,070900.00,A,D*63
$GNGRS,070900.00,1,3.6,13.4,-3.3,2.7,4.1,16.6,-13.8,1.6,1.5,125,,*7D
$GNGRS,070900.00,1,6.6,12.4,-15.6,6.9,-14.8,-2.1,,,,,,*47
$GNGST,070900.00,182364,,,,6.2,8.1,12*6D
$GNZDA,070900.00,23,05,2025,00,00*77
$GNGBS,070900.00,6.2,8.1,12.5,,,,*6A
b04H
Fvac*}.7EOb{4+V_0:R 
YzA"zG
5zH(a`K`LF
M =*W[X$*nbHrS%$GNRMC,070901.00,A,0419.83117,S,05539.87632,E,0.369,,230525,,,D*74
$GNVTG,,T,,M,0.369,N,0.683,K,D*39
$GNGNS,070901.00,0419.83117,S,05539.87632,E,DA,16,0.75,13.1,-47.6,,0000*63
$GNGGA,070901.00,0419.83117,S,05539.87632,E,2,12,0.75,13.1,M,-47.6,M,,0000*4B
$GNGSA,A,3,24,05,13,15,12,29,18,25,23,40,,,1.34,0.75,1.11*1F
$GNGSA,A,3,75,71,72,76,65,77,,,,,,,1.34,0.75,1.11*1A
$GPGSV,4,1,16,05,31,031,20,10,13,214,19,12,70,118,28,13,12,097,20*7B
$GPGSV,4,2,16,15,42,125,26,18,30,302,25,23,55,218,21,24,28,169,20*7D
$GPGSV,4,3,16,25,69,335,30,28,07,283,,29,18,354,15,36,52,277,*77
$GPGSV,4,4,16,40,86,351,43,41,58,082,,49,32,274,,50,10,089,*7E
$GLGSV,2,1,08,65,34,172,19,71,10,053,15,72,40,097,26,75,29,166,23*61
$GLGSV,2,2,08,76,70,256,21,77,32,317,18,87,08,347,,88,04,292,*6E
$GNGLL,0419.83117,S,05539.87632,E,070901.00,A,D*62
$GNGRS,070901.00,1,2.6,12.4,-1.6,3.9,1.6,14.4,-13.8,5.0,-0.1,125,,*5C
$GNGRS,070901.00,1,6.1,11.5,-17.0,7.1,-14.1,-4.7,,,,,,*47
$GNGST,070901.00,1655,,,,6.3,8.0,12*61
$GNZDA,070901.00,23,05,2025,00,00*76
$GNGBS,070901.00,6.3,8.0,12.4,,,,*6A
$GNTXT,01,01,01,More than 100 frame errors, UART RX was disabled*70
b04H
Fva(*}.67>EO5bt{4+V_0:R 
YzA"TG
5H(aKLF
M =aW[X$3bHru[v$GNRMC,070903.00,A,0419.83112,S,05539.87640,E,0.086,,230525,,,D*74
$GNVTG,,T,,M,0.086,N,0.158,K,D*3A
$GNGNS,070903.00,0419.83112,S,05539.87640,E,DA,16,0.75,13.1,-47.6,,0000*61
$GNGGA,070903.00,0419.83112,S,05539.87640,E,2,12,0.75,13.1,M,-47.6,M,,0000*49
$GNGSA,A,3,24,05,13,15,12,29,18,25,23,40,,,1.34,0.75,1.11*1F
$GNGSA,A,3,75,71,72,76,65,77,,,,,,,1.34,0.75,1.11*1A
$GPGSV,4,1,16,05,30,031,19,10,13,214,18,12,70,118,26,13,12,097,20*7F
$GPGSV,4,2,16,15,42,125,26,18,30,302,24,23,55,218,21,24,28,169,19*76
$GPGSV,4,3,16,25,69,335,28,28,07,283,,29,18,354,18,36,52,277,*73
$GPGSV,4,4,16,40,86,351,43,41,58,082,,49,32,274,,50,10,089,*7E
$GLGSV,2,1,08,65,34,172,20,71,10,053,14,72,40,097,26,75,29,166,22*6B
$GLGSV,2,2,08,76,70,256,19,77,32,317,13,87,08,347,,88,04,292,*6E
$GNGLL,0419.83112,S,05539.87640,E,070903.00,A,D*60
$GNGRS,070903.00,1,0.0,11.7,0.4,2.9,5.0,11.4,-14.8,0.5,-4.5,125,,*75
$GNGRS,070903.00,1,7.0,9.8,-16.1,9.0,-12.0,-1.6,,,,,,*7D
$GNGST,070903.00,27032,,,,6.3,7.9,12*56
$GNZDA,070903.00,23,05,2025,00,00*74
$GNGBS,070903.00,6.3,7.9,12.3,,,,*69
b04H
FvmaP*}.79EOb,{4+V_0:R 
YzA"G
51H(aKLF
M =cW[X$bHrEcF$GNRMC,070905.00,A,0419.83106,S,05539.87653,E,0.058,,230525,,,D*76
$GNVTG,,T,,M,0.058,N,0.107,K,D*33
$GNGNS,070905.00,0419.83106,S,05539.87653,E,DA,16,0.75,13.3,-47.6,,0000*62
$GNGGA,070905.00,0419.83106,S,05539.87653,E,2,12,0.75,13.3,M,-47.6,M,,0000*4A
$GNGSA,A,3,24,05,13,15,12,29,18,25,23,40,,,1.34,0.75,1.11*1F
$GNGSA,A,3,75,71,72,76,65,77,,,,,,,1.34,0.75,1.11*1A
$GPGSV,4,1,16,05,30,031,19,10,13,214,18,12,70,118,26,13,12,097,20*7F
$GPGSV,4,2,16,15,42,125,26,18,30,302,22,23,55,218,22,24,28,169,20*79
$GPGSV,4,3,16,25,69,335,27,28,07,283,,29,18,354,18,36,52,277,*7C
$GPGSV,4,4,16,40,86,351,43,41,58,082,,49,32,274,,50,10,089,*7E
$GLGSV,2,1,08,65,34,172,18,71,10,053,15,72,40,097,26,75,29,166,21*62
$GLGSV,2,2,08,76,70,256,19,77,32,317,09,87,08,347,,88,04,292,*65
$GNGLL,0419.83106,S,05539.87653,E,070905.00,A,D*61
$GNGRS,070905.00,1,-0.4,11.8,0.8,4.0,8.8,5.6,-13.3,4.9,-7.1,125,,*67
$GNGRS,070905.00,1,6.9,8.2,-15.6,9.2,-11.0,-1.6,,,,,,*7D
$GNGST,070905.00,12105,,,,6.4,7.8,12*55
$GNZDA,070905.00,23,05,2025,00,00*72
$GNGBS,070905.00,6.4,7.8,12.2,,,,*68
$GNTXT,01,01,01,More than 100 frame errors, UART RX was disabled*70
$GPGSV,4,3,16,25,69,335,27,28,07,283,,29,18,354,19,36,52,277,*7D
$GPGSV,4,4,16,40,86,351,43,41,58,082,,49,32,274,,50,10,089,*7E
$GLGSV,2,1,08,65,34,172,17,71,10,053,14,72,40,097,26,75,29,166,21*6C
$GLGSV,2,2,08,76,70,256,19,77,32,317,11,87,08,347,,88,04,292,*6C
$GNGLL,0419.83111,S,05539.87663,E,070906.00,A,D*67
$GNGRS,070906.00,1,-1.6,12.2,1.5,6.2,8.4,2.8,-10.7,4.4,-6.0,125,,*6D
$GNGRS,070906.00,1,6.8,6.5,-15.3,10.0,-10.6,-1.5,,,,,,*4D
$GNGST,070906.00,18064,,,,6.4,7.8,12*5A
$GNZDA,070906.00,23,05,2025,00,00*71
$GNGBS,070906.00,6.4,7.8,12.1,,,,*68
$GNTXT,01,01,01,More than 100 frame errors, UART RX was disabled*70
b04pH"
Fv"a*}.7EOb{4+V_0:R 
YzA"G
5H(a%KLF
M
 =WW[X$5bpHrn{$GNRMC,070908.00,A,0419.83101,S,05539.87687,E,0.083,,230525,,,D*73
$GNVTG,,T,,M,0.083,N,0.154,K,D*33
$GNGNS,070908.00,0419.83101,S,05539.87687,E,DA,15,0.80,14.4,-47.6,,0000*68
$GNGGA,070908.00,0419.83101,S,05539.87687,E,2,12,0.80,14.4,M,-47.6,M,,0000*43
$GNGSA,A,3,24,05,13,15,12,29,18,25,23,40,,,1.38,0.80,1.13*1B
$GNGSA,A,3,75,71,72,76,65,,,,,,,,1.38,0.80,1.13*1E
$GPGSV,4,1,16,05,30,031,20,10,14,214,14,12,70,118,28,13,12,097,20*70
$GPGSV,4,2,16,15,42,125,26,18,30,302,24,23,55,218,26,24,28,169,23*78
$GPGSV,4,3,16,25,69,335,27,28,07,283,,29,18,354,18,36,52,277,*7C
$GPGSV,4,4,16,40,86,351,43,41,58,082,,49,32,274,,50,10,089,*7E
$GLGSV,2,1,08,65,34,172,16,71,10,053,12,72,40,097,26,75,29,166,20*6A
$GLGSV,2,2,08,76,70,256,17,77,32,317,10,87,08,347,,88,04,292,*63
$GNGLL,0419.83101,S,05539.87687,E,070908.00,A,D*62
$GNGRS,070908.00,1,-2.9,13.1,2.3,7.3,8.0,0.1,-12.9,4.5,-5.4,125,,*6D
$GNGRS,070908.00,1,5.3,4.0,-17.6,14.3,-15.7,,,,,,,*4F
$GNGST,070908.00,3071474,,,,6.3,7.6,12*54
$GNZDA,070908.00,23,05,2025,00,00*7F
$GNGBS,070908.00,6.3,7.6,12.1,,,,*6F
$GNTXT,01,01,01,More than 100 frame errors, UART RX was disabled*70
$GNGBS,070912.00,6.2,7.2,11.9,,,,*6A
$GNTXT,01,01,01,More than 100 frame errors, UART RX was disabled*70
b04Il
Fwa*|.7EO_b{4+V_0:R 
Yz1A
"G
5EH(aKLF@
M =W[X$RbIrC$GNRMC,070913.00,A,0419.83083,S,05539.87705,E,0.111,,230525,,,D*73
$GNVTG,,T,,M,0.111,N,0.206,K,D*3D
$GNGNS,070913.00,0419.83083,S,05539.87705,E,DA,16,0.83,15.2,-47.6,,0000*65
$GNGGA,070913.00,0419.83083,S,05539.87705,E,2,12,0.83,15.2,M,-47.6,M,,0000*4D
$GNGSA,A,3,24,05,13,15,12,29,18,25,23,40,,,1.48,0.83,1.22*1D
$GNGSA,A,3,75,71,72,76,65,77,,,,,,,1.48,0.83,1.22*18
$GPGSV,4,1,16,05,30,031,17,10,14,214,14,12,70,119,29,13,12,097,22*76
$GPGSV,4,2,16,15,42,124,24,18,30,302,20,23,55,218,26,24,28,169,20*7C
$GPGSV,4,3,16,25,69,335,29,28,07,283,,29,18,354,16,36,52,277,*7C
$GPGSV,4,4,16,40,86,351,43,41,58,082,,49,32,274,,50,10,089,*7E
$GLGSV,2,1,08,65,34,172,10,71,10,053,13,72,40,097,27,75,29,166,22*6E
$GLGSV,2,2,08,76,70,256,11,77,32,317,15,87,08,347,,88,04,292,*60
$GNGLL,0419.83083,S,05539.87705,E,070913.00,A,D*68
$GNGRS,070913.00,1,-3.0,8.8,2.5,9.3,15.0,0.2,-10.8,0.9,-7.4,125,,*62
$GNGRS,070913.00,1,2.5,28.8,-18.9,21.1,-23.8,7.8,,,,,,*5D
$GNGST,070913.00,1836,,,,6.2,7.1,12*66
$GNZDA,070913.00,23,05,2025,00,00*75
$GNGBS,070913.00,6.2,7.1,11.8,,,,*69
$GNTXT,01,01,01,More than 100 frame errors, UART RX was disabled*70
$GNTXT,01,01,01,More than 100 frame errors, UART RX was disabled*70
b04I}
Fw-a*|.7EOMb@{4+V_{0:R 
YzA"G
5H(a-KqLF
M =bW[X$bIrUR$GNRMC,070915.00,A,0419.83085,S,05539.87704,E,0.153,,230525,,,D*74
$GNVTG,,T,,M,0.153,N,0.284,K,D*31
$GNGNS,070915.00,0419.83085,S,05539.87704,E,DA,15,0.82,15.2,-47.6,,0000*66
$GNGGA,070915.00,0419.83085,S,05539.87704,E,2,12,0.82,15.2,M,-47.6,M,,0000*4D
$GNGSA,A,3,24,05,13,15,12,29,18,25,23,40,,,1.43,0.82,1.17*11
$GNGSA,A,3,75,71,72,76,77,,,,,,,,1.43,0.82,1.17*17
$GPGSV,4,1,16,05,30,031,18,10,14,214,14,12,70,119,30,13,12,097,21*72
$GPGSV,4,2,16,15,42,124,24,18,30,302,20,23,55,218,25,24,28,169,20*7F
$GPGSV,4,3,16,25,69,335,28,28,07,283,,29,18,354,16,36,52,277,*7D
$GPGSV,4,4,16,40,86,351,43,41,58,082,,49,32,274,,50,10,089,*7E
$GLGSV,2,1,08,65,34,172,,71,10,053,08,72,40,097,28,75,29,166,21*69
$GLGSV,2,2,08,76,70,256,16,77,32,317,16,87,08,347,,88,04,292,*64
$GNGLL,0419.83085,S,05539.87704,E,070915.00,A,D*69
$GNGRS,070915.00,1,-0.8,6.4,0.1,9.8,8.1,0.6,-10.6,3.3,-7.5,124,,*5E
$GNGRS,070915.00,1,3.7,22.1,-20.0,19.8,11.2,,,,,,,*5C
$GNGST,070915.00,1769,,,,6.2,7.0,12*64
$GNZDA,070915.00,23,05,2025,00,00*73
$GNGBS,070915.00,6.2,7.0,11.8,,,,*6E
$GNTXT,01,01,01,More than 100 frame errors, UART RX was disabled*70
$GNGST,070916.00,1836,,,,6.2,7.0,12*62
$GNZDA,070916.00,23,05,2025,00,00*70
$GNGBS,070916.00,6.2,7.0,11.9,,,,*6C
$GNTXT,01,01,01,More than 100 frame errors, UART RX was disabled*70
b04I4
Fwa*|/7)EOQb{4+V_0:R 
Yz$A"G
5H(aKLFg
M =W[X$`bIr%"$GNRMC,070917.00,A,0419.83090,S,05539.87686,E,0.181,,230525,,,D*76
$GNVTG,,T,,M,0.181,N,0.335,K,D*35
$GNGNS,070917.00,0419.83090,S,05539.87686,E,DA,14,0.90,15.6,-47.6,,0000*6D
$GNGGA,070917.00,0419.83090,S,05539.87686,E,2,12,0.90,15.6,M,-47.6,M,,0000*47
$GNGSA,A,3,24,05,13,15,12,29,25,23,40,,,,1.53,0.90,1.24*1A
$GNGSA,A,3,75,71,72,76,77,,,,,,,,1.53,0.90,1.24*15
$GPGSV,4,1,16,05,30,031,18,10,14,214,14,12,70,119,29,13,12,097,20*7B
$GPGSV,4,2,16,15,42,124,25,18,29,303,,23,55,218,24,24,28,169,21*75
$GPGSV,4,3,16,25,69,335,28,28,07,283,,29,18,354,11,36,52,277,*7A
$GPGSV,4,4,16,40,86,351,43,41,58,082,,49,32,274,,50,10,089,*7E
$GLGSV,2,1,08,65,34,172,,71,10,053,14,72,40,097,28,75,29,166,21*64
$GLGSV,2,2,08,76,70,256,15,77,32,317,16,87,08,347,,88,04,292,*67
$GNGLL,0419.83090,S,05539.87686,E,070917.00,A,D*64
$GNGRS,070917.00,1,0.4,8.2,-0.3,7.4,12.5,1.6,5.9,-8.4,124,,,*50
$GNGRS,070917.00,1,1.3,22.1,-20.7,16.4,11.6,,,,,,,*58
$GNGST,070917.00,83168,,,,6.3,7.0,12*5A
$GNZDA,070917.00,23,05,2025,00,00*71
$GNGBS,070917.00,6.3,7.0,11.9,,,,*6C
$GNTXT,01,01,01,More than 100 frame errors, UART RX was disabled*70
b04I
Fwka*|/7EOFb}{4+V_^0:R 
YzA"G
5H(aKLF
M =^W[X$!bIr{$GNRMC,070918.00,A,0419.83104,S,05539.87679,E,0.422,,230525,,,D*79
$GNVTG,,T,,M,0.422,N,0.781,K,D*32
$GNGNS,070918.00,0419.83104,S,05539.87679,E,DA,14,0.90,15.7,-47.6,,0000*6F
$GNGGA,070918.00,0419.83104,S,05539.87679,E,2,12,0.90,15.7,M,-47.6,M,,0000*45
$GNGSA,A,3,24,05,13,15,12,29,25,23,40,,,,1.53,0.90,1.24*1A
$GNGSA,A,3,75,71,72,76,77,,,,,,,,1.53,0.90,1.24*15
$GPGSV,4,1,16,05,30,031,19,10,14,214,13,12,70,119,28,13,12,097,19*76
$GPGSV,4,2,16,15,42,124,25,18,29,303,,23,55,218,24,24,28,169,22*76
$GPGSV,4,3,16,25,69,335,29,28,07,283,,29,18,354,14,36,52,277,*7E
$GPGSV,4,4,16,40,86,351,43,41,58,082,,49,32,274,,50,10,089,*7E
$GLGSV,2,1,08,65,34,172,,71,10,053,12,72,40,097,27,75,29,166,22*6E
$GLGSV,2,2,08,76,70,256,13,77,32,317,16,87,08,347,,88,04,292,*61
$GNGLL,0419.83104,S,05539.87679,E,070918.00,A,D*67
$GNGRS,070918.00,1,-1.1,7.2,0.0,7.5,13.9,1.2,3.3,-8.4,124,,,*53
$GNGRS,070918.00,1,1.3,22.3,-18.8,12.7,11.2,,,,,,,*52
$GNGST,070918.00,83168,,,,6.3,7.0,12*55
$GNZDA,070918.00,23,05,2025,00,00*7E
$GNGBS,070918.00,6.3,7.0,12.0,,,,*69
$GNTXT,01,01,01,More than 100 frame errors, UART RX was disabled*70
$GNGST,070919.00,1847,,,,6.4,7.0,12*6D
$GNTXT,01,01,01,More than 100 frame errors, UART RX was disabled*70
b048'I
Fwa*|t/8 EO
b{4,V_/:R 
YzA"G
5{H(a!KLF9
M =1W[X$wb8'Ir$GNRMC,070921.00,A,0419.83095,S,05539.87675,E,0.006,,230525,,,D*74
$GNVTG,,T,,M,0.006,N,0.012,K,D*3D
$GNGNS,070921.00,0419.83095,S,05539.87675,E,DA,14,0.90,16.1,-47.6,,0000*65
$GNGGA,070921.00,0419.83095,S,05539.87675,E,2,12,0.90,16.1,M,-47.6,M,,0000*4F
$GNGSA,A,3,24,05,13,15,12,29,25,23,40,,,,1.53,0.90,1.24*1A
$GNGSA,A,3,75,71,72,76,77,,,,,,,,1.53,0.90,1.24*15
$GPGSV,4,1,16,05,30,031,15,10,14,214,,12,70,119,29,13,12,097,19*79
$GPGSV,4,2,16,15,42,124,26,18,29,303,,23,56,218,23,24,28,168,21*73
$GPGSV,4,3,16,25,69,335,32,28,07,283,,29,18,354,10,36,52,277,*70
$GPGSV,4,4,16,40,86,351,44,41,58,082,,49,32,274,,50,10,089,*79
$GLGSV,2,1,08,65,34,172,,71,10,053,11,72,40,097,26,75,29,166,20*6E
$GLGSV,2,2,08,76,70,256,21,77,32,317,18,87,08,347,,88,04,292,*6E
$GNGLL,0419.83095,S,05539.87675,E,070921.00,A,D*68
$GNGRS,070921.00,1,-3.0,1.9,4.1,8.8,12.3,16.7,0.2,-7.9,123,,,*6F
$GNGRS,070921.00,1,2.1,21.7,-15.0,10.8,10.7,,,,,,,*52
$GNGST,070921.00,15080,,,,6.5,7.1,12*50
$GNZDA,070921.00,23,05,2025,00,00*74
$GNGBS,070921.00,6.5,7.1,12.1,,,,*65
$GNTXT,01,01,01,More than 100 frame errors, UART RX was disabled*70
$GNTXT,01,01,01,More than 100 frame errors, UART RX was disabled*70
b04/Iz
Fwa$*|R/8B!FNbf{4,V_/:R 
YzIA"G
5H(aKLFI
M =W[X$b/Ir$GNRMC,070923.00,A,0419.83091,S,05539.87672,E,0.155,,230525,,,D*72
$GNVTG,,T,,M,0.155,N,0.286,K,D*35
$GNGNS,070923.00,0419.83091,S,05539.87672,E,DA,14,0.90,16.0,-47.6,,0000*65
$GNGGA,070923.00,0419.83091,S,05539.87672,E,2,12,0.90,16.0,M,-47.6,M,,0000*4F
$GNGSA,A,3,24,05,13,15,12,29,25,23,40,,,,1.53,0.90,1.24*1A
$GNGSA,A,3,75,71,72,76,77,,,,,,,,1.53,0.90,1.24*15
$GPGSV,4,1,16,05,30,031,19,10,14,214,,12,70,119,27,13,12,097,18*7A
$GPGSV,4,2,16,15,42,124,29,18,29,303,,23,56,218,22,24,28,168,14*7B
$GPGSV,4,3,16,25,70,334,33,28,07,283,,29,18,354,14,36,52,277,*7C
$GPGSV,4,4,16,40,86,351,44,41,58,082,,49,32,274,,50,10,089,*79
$GLGSV,2,1,08,65,34,172,19,71,10,053,14,72,40,097,23,75,29,166,20*66
$GLGSV,2,2,08,76,70,256,23,77,32,317,18,87,08,347,,88,04,292,*6C
$GNGLL,0419.83091,S,05539.87672,E,070923.00,A,D*69
$GNGRS,070923.00,1,-5.7,1.2,2.9,5.9,15.6,16.4,1.6,-7.0,122,,,*69
$GNGRS,070923.00,1,2.0,21.8,-13.3,8.4,11.8,,,,,,,*60
$GNGST,070923.00,3299292,,,,6.7,7.3,12*56
$GNZDA,070923.00,23,05,2025,00,00*76
$GNGBS,070923.00,6.7,7.3,12.2,,,,*64
$GNTXT,01,01,01,More than 100 frame errors, UART RX was disabled*70
b04>I?
FwGac*|/8FNTc{4+V_z/:R 
YzHA"#G

5H(aK<LF
M =W[X$b>Ir5 $GNRMC,070927.00,A,0419.83085,S,05539.87672,E,0.240,,230525,,,D*74
$GNVTG,,T,,M,0.240,N,0.445,K,D*3B
$GNGNS,070927.00,0419.83085,S,05539.87672,E,DA,15,0.86,15.8,-47.6,,0000*69
$GNGGA,070927.00,0419.83085,S,05539.87672,E,2,12,0.86,15.8,M,-47.6,M,,0000*42
$GNGSA,A,3,24,05,13,15,12,29,25,23,40,,,,1.49,0.86,1.22*10
$GNGSA,A,3,75,71,72,76,65,77,,,,,,,1.49,0.86,1.22*1C
$GPGSV,4,1,16,05,30,031,22,10,14,214,,12,70,119,27,13,12,097,13*79
$GPGSV,4,2,16,15,42,124,26,18,29,303,,23,56,218,22,24,28,168,16*76
$GPGSV,4,3,16,25,70,334,31,28,08,283,,29,18,355,18,36,52,277,*7C
$GPGSV,4,4,16,40,86,351,43,41,58,082,,49,32,274,,50,10,089,*7E
$GLGSV,2,1,08,65,34,172,18,71,10,053,10,72,40,097,25,75,29,166,15*63
$GLGSV,2,2,08,76,70,256,27,77,32,317,17,87,08,347,,88,04,292,*67
$GNGLL,0419.83085,S,05539.87672,E,070927.00,A,D*68
$GNGRS,070927.00,1,-10.7,-1.9,6.1,-1.1,10.9,17.5,3.4,-10.1,122,,,*6F
$GNGRS,070927.00,1,5.7,23.0,-12.9,4.7,5.5,9.7,,,,,,*72
$GNGST,070927.00,3179277,,,,7.0,7.4,12*55
$GNZDA,070927.00,23,05,2025,00,00*72
$GNGBS,070927.00,7.0,7.4,12.5,,,,*66
b04`JI
Fw?a4*|&/8 FN%cz{4+V_/:R 
YzYA"G
5}H(aKLF
M =#W[X$cb`JIrU$GNRMC,070930.00,A,0419.83047,S,05539.87686,E,0.560,,230525,,,D*72
$GNVTG,,T,,M,0.560,N,1.036,K,D*3F
$GNGNS,070930.00,0419.83047,S,05539.87686,E,DA,15,0.86,16.6,-47.6,,0000*67
$GNGGA,070930.00,0419.83047,S,05539.87686,E,2,12,0.86,16.6,M,-47.6,M,,0000*4C
$GNGSA,A,3,24,05,13,15,12,29,25,23,40,,,,1.49,0.86,1.22*10
$GNGSA,A,3,75,71,72,76,65,77,,,,,,,1.49,0.86,1.22*1C
$GPGSV,4,1,16,05,30,031,23,10,14,214,20,12,70,119,29,13,12,097,18*7F
$GPGSV,4,2,16,15,42,124,28,18,29,303,23,23,56,218,18,24,28,168,23*76
$GPGSV,4,3,16,25,70,334,32,28,08,283,,29,18,355,14,36,52,277,*73
$GPGSV,4,4,16,40,86,351,43,41,58,082,,49,32,274,,50,10,089,*7E
$GLGSV,2,1,08,65,34,172,19,71,10,053,12,72,40,097,25,75,29,166,08*6C
$GLGSV,2,2,08,76,70,256,25,77,32,317,15,87,08,347,,88,04,292,*67
$GNGLL,0419.83047,S,05539.87686,E,070930.00,A,D*6B
$GNGRS,070930.00,1,-13.0,-3.4,0.5,0.4,3.2,16.6,0.4,-10.0,122,,,*70
$GNGRS,070930.00,1,0.3,21.7,-15.4,2.2,4.7,10.6,,,,,,*43
$GNGST,070930.00,9776,,,,7.0,7.5,13*62
$GNZDA,070930.00,23,05,2025,00,00*74
$GNGBS,070930.00,7.0,7.5,12.6,,,,*62
b04HNI
FwaK*|v/8 FNc5{4+V_/:R 
YzIA"G
5~H(aKLF
M =W[X$bHNIrp$GNRMC,070931.00,A,0419.83020,S,05539.87696,E,0.740,,230525,,,D*73
$GNVTG,,T,,M,0.740,N,1.370,K,D*3E
$GNGNS,070931.00,0419.83020,S,05539.87696,E,DA,15,0.89,16.7,-47.6,,0000*68
$GNGGA,070931.00,0419.83020,S,05539.87696,E,2,12,0.89,16.7,M,-47.6,M,,0000*43
$GNGSA,A,3,24,05,13,15,12,29,25,23,40,,,,1.56,0.89,1.28*1B
$GNGSA,A,3,75,71,72,76,65,77,,,,,,,1.56,0.89,1.28*17
$GPGSV,4,1,16,05,30,031,20,10,14,214,21,12,70,119,29,13,12,097,18*7D
$GPGSV,4,2,16,15,42,124,28,18,29,303,,23,56,218,20,24,28,168,23*7C
$GPGSV,4,3,16,25,70,334,32,28,08,283,,29,18,355,14,36,52,277,*73
$GPGSV,4,4,16,40,86,351,43,41,58,082,,49,32,274,,50,10,089,*7E
$GLGSV,2,1,08,65,34,172,16,71,10,053,12,72,40,097,24,75,29,166,08*62
$GLGSV,2,2,08,76,70,256,23,77,32,317,14,87,08,347,,88,04,292,*60
$GNGLL,0419.83020,S,05539.87696,E,070931.00,A,D*6A
$GNGRS,070931.00,1,-13.3,-2.6,-1.8,-1.4,2.2,-30.2,-0.3,-8.9,122,,,*4A
$GNGRS,070931.00,1,-2.7,3.8,-15.2,1.6,1.7,14.8,,,,,,*58
$GNGST,070931.00,1769,,,,7.0,7.5,13*65
$GNZDA,070931.00,23,05,2025,00,00*75
$GNGBS,070931.00,7.0,7.5,12.7,,,,*62
$GNTXT,01,01,01,More than 100 frame errors, UART RX was disabled*70
$GNTXT,01,01,01,More than 100 frame errors, UART RX was disabled*70
$GNTXT,01,01,01,More than 100 frame errors, UART RX was disabled*70
b04ZI
FwaW*|k/8+ FN|c{4+V_~/:R 
Y
zhA"G
5XH(anK
LF
M =W[X$'bZIr$GNRMC,070934.00,A,0419.82988,S,05539.87681,E,0.104,,230525,,,D*7C
$GNVTG,,T,,M,0.104,N,0.193,K,D*36
$GNGNS,070934.00,0419.82988,S,05539.87681,E,DA,14,0.87,17.0,-47.6,,0000*68
$GNGGA,070934.00,0419.82988,S,05539.87681,E,2,12,0.87,17.0,M,-47.6,M,,0000*42
$GNGSA,A,3,24,05,13,15,12,29,25,23,40,,,,1.48,0.87,1.20*12
$GNGSA,A,3,75,71,72,76,77,,,,,,,,1.48,0.87,1.20*1D
$GPGSV,4,1,16,05,30,031,20,10,14,214,20,12,70,119,28,13,12,097,18*7D
$GPGSV,4,2,16,15,42,124,25,18,29,303,,23,56,218,27,24,28,168,22*77
$GPGSV,4,3,16,25,70,334,32,28,08,283,,29,18,355,14,36,52,277,*73
$GPGSV,4,4,16,40,86,351,43,41,58,082,,49,32,274,,50,10,089,*7E
$GLGSV,2,1,08,65,34,172,09,71,10,053,13,72,40,097,23,75,29,166,10*63
$GLGSV,2,2,08,76,70,256,25,77,32,317,12,87,08,347,,88,04,292,*60
$GNGLL,0419.82988,S,05539.87681,E,070934.00,A,D*63
$GNGRS,070934.00,1,-7.3,-3.4,-1.7,-1.5,2.0,-16.2,3.8,-4.8,122,,,*59
$GNGRS,070934.00,1,-8.5,16.2,-16.8,2.0,16.8,,,,,,,*4D
$GNGST,070934.00,1769,,,,7.0,7.4,13*61
$GNZDA,070934.00,23,05,2025,00,00*70
$GNGBS,070934.00,7.0,7.4,12.8,,,,*69
b04]I
Fwa
*|/8 FNnc{4+V_g/:R 
YzA"rG
5oH(azKLF
M =uW[X$b]IruN$GNRMC,070935.00,A,0419.82985,S,05539.87684,E,0.212,,230525,,,D*71
$GNVTG,,T,,M,0.212,N,0.392,K,D*31
$GNGNS,070935.00,0419.82985,S,05539.87684,E,DA,15,0.86,17.0,-47.6,,0000*61
$GNGGA,070935.00,0419.82985,S,05539.87684,E,2,12,0.86,17.0,M,-47.6,M,,0000*4A
$GNGSA,A,3,24,05,13,15,12,29,25,23,40,,,,1.49,0.86,1.22*10
$GNGSA,A,3,75,71,72,76,65,77,,,,,,,1.49,0.86,1.22*1C
$GPGSV,4,1,16,05,30,031,17,10,14,214,20,12,70,119,28,13,12,097,17*76
$GPGSV,4,2,16,15,42,124,24,18,29,303,,23,56,218,26,24,28,168,20*75
$GPGSV,4,3,16,25,70,334,32,28,08,283,,29,18,355,15,36,52,277,*72
$GPGSV,4,4,16,40,86,351,43,41,58,082,,49,32,274,,50,10,089,*7E
$GLGSV,2,1,08,65,34,172,12,71,10,053,16,72,40,097,22,75,29,166,16*6B
$GLGSV,2,2,08,76,70,256,24,77,32,317,13,87,08,347,,88,04,292,*60
$GNGLL,0419.82985,S,05539.87684,E,070935.00,A,D*6A
$GNGRS,070935.00,1,-5.6,-5.1,0.1,-0.3,6.9,16.6,3.7,-3.8,121,,,*5E
$GNGRS,070935.00,1,2.1,21.6,-16.7,1.7,1.1,16.5,,,,,,*47
$GNGST,070935.00,3181709,,,,7.0,7.4,13*5C
$GNZDA,070935.00,23,05,2025,00,00*71
$GNGBS,070935.00,7.0,7.4,12.9,,,,*69
$GNTXT,01,01,01,More than 100 frame errors, UART RX was disabled*70
b04aI
!Fwan*|q/8iFNJc{4+V_</:R 
YzA
"pG
5oH(agKLFQ
M =`W[X$8baIr]$GNRMC,070936.00,A,0419.82981,S,05539.87677,E,0.079,,230525,,,D*75
$GNVTG,,T,,M,0.079,N,0.146,K,D*35
$GNGNS,070936.00,0419.82981,S,05539.87677,E,DA,15,0.83,17.1,-47.6,,0000*6E
$GNGGA,070936.00,0419.82981,S,05539.87677,E,2,12,0.83,17.1,M,-47.6,M,,0000*45
$GNGSA,A,3,24,05,13,15,12,29,25,23,40,,,,1.44,0.83,1.17*1E
$GNGSA,A,3,75,71,72,76,65,77,,,,,,,1.44,0.83,1.17*12
$GPGSV,4,1,16,05,30,031,17,10,14,214,19,12,70,119,33,13,12,097,18*79
$GPGSV,4,2,16,15,42,124,25,18,29,303,,23,56,218,26,24,28,168,19*7E
$GPGSV,4,3,16,25,70,334,31,28,08,283,,29,18,355,15,36,52,277,*71
$GPGSV,4,4,16,40,86,351,43,41,58,082,,49,32,274,,50,10,089,*7E
$GLGSV,2,1,08,65,34,172,10,71,10,053,18,72,40,097,23,75,29,166,17*67
$GLGSV,2,2,08,76,70,256,23,77,32,317,18,87,08,347,,88,04,292,*6C
$GNGLL,0419.82981,S,05539.87677,E,070936.00,A,D*61
$GNGRS,070936.00,1,-4.1,-2.9,-1.5,1.1,-2.6,16.7,3.3,-2.5,121,,,*7D
$GNGRS,070936.00,1,2.2,19.0,-16.9,0.8,1.1,16.3,,,,,,*4C
$GNGST,070936.00,3074322,,,,7.0,7.4,13*59
$GNZDA,070936.00,23,05,2025,00,00*72
$GNGBS,070936.00,7.0,7.4,13.0,,,,*62
$GNTXT,01,01,01,More than 100 frame errors, UART RX was disabled*70
$GNTXT,01,01,01,More than 100 frame errors, UART RX was disabled*70
b04iI
Fwja:*|/8@!FNc{4,V_-/:R 
YzA
"G
5H(aKNLF
