b0@K
Ezb`i#+{0"93-GM2cb{4V_:R 
Yz"A#BG4FBH)_,KLFM
M!<!W\X%Mb0@K{
Ez`"+{09,GMc{4V_:R 
YzwA#BG4H)_HKLF
M!<W\X%rbKr.$GNRMC,071208.00,A,0419.82652,S,05539.87276,E,0.089,,230525,,,A*7C
$GNVTG,,T,,M,0.089,N,0.165,K,A*3E
$GNGNS,071208.00,0419.82652,S,05539.87276,E,AA,13,0.90,23.1,-47.6,,*6B
$GNGGA,071208.00,0419.82652,S,05539.87276,E,1,12,0.90,23.1,M,-47.6,M,,*40
$GNGSA,A,3,05,13,15,12,18,25,23,,,,,,1.59,0.90,1.31*14
b0@xK
Ez`!+{09GM@c{4V_:R 
YzA#BG4H)_`K
LF
M!<2W\X%2TbxKr2$GNRMC,071209.00,A,0419.82651,S,05539.87273,E,0.103,,230525,,,A*78
$GNVTG,,T,,M,0.103,N,0.191,K,A*36
$GNGNS,071209.00,0419.82651,S,05539.87273,E,AA,14,0.86,23.0,-47.6,,*6D
$GNGGA,071209.00,0419.82651,S,05539.87273,E,1,12,0.86,23.0,M,-47.6,M,,*41
$GNGSA,A,3,24,05,13,15,12,18,25,23,,,,,1.54,0.86,1.28*10
$GNGSA,A,3,75,71,72,76,65,77,,,,,,,1.54,0.86,1.28*1A
$GPGSV,4,1,16,05,29,030,28,10,15,214,19,12,69,122,28,13,12,096,11*7F
$GPGSV,4,2,16,15,43,123,33,18,29,304,22,23,57,220,26,24,27,167,13*78
$GPGSV,4,3,16,25,71,333,28,28,08,281,,29,18,355,,36,52,277,*79
$GPGSV,4,4,16,40,86,351,,41,58,082,,49,32,274,,50,10,089,*79
$GLGSV,3,1,09,65,35,171,18,66,00,204,,71,09,052,09,72,41,095,28*64
$GLGSV,3,2,09,75,28,166,10,76,70,252,27,77,33,316,15,87,08,348,*6B
$GLGSV,3,3,09,88,04,293,*50
$GNGLL,0419.82651,S,05539.87273,E,071209.00,A,A*60
$GNGRS,071209.00,1,-5.5,4.0,22.8,-0.7,-3.4,2.3,5.8,-2.8,,,,*67
$GNGRS,071209.00,1,2.4,23.0,-1.6,1.9,4.3,3.1,,,,,,*4D
$GNGST,071209.00,119732,,,,4.8,5.5,11*69
$GNZDA,071209.00,23,05,2025,00,00*74
$GNGBS,071209.00,4.8,5.5,11.0,,,,*6E
$GNTXT,01,01,01,More than 100 frame errors, UART RX was disabled*70
$GNTXT,01,01,01,More than 100 frame errors, UART RX was disabled*70
b0@HK 
Ez`#+{09'
gGM=c{4V_:R 
YzA#BG4H)_KLF
M!<2W\X%bHKr9U$GNRMC,071211.00,A,0419.82645,S,05539.87271,E,0.075,,230525,,,A*76
$GNVTG,,T,,M,0.075,N,0.140,K,A*3A
$GNGNS,071211.00,0419.82645,S,05539.87271,E,AA,13,0.92,23.3,-47.6,,*62
$GNGGA,071211.00,0419.82645,S,05539.87271,E,1,12,0.92,23.3,M,-47.6,M,,*49
$GNGSA,A,3,05,13,15,12,18,25,23,,,,,,1.88,0.92,1.64*1A
$GNGSA,A,3,75,71,72,76,65,77,,,,,,,1.88,0.92,1.64*16
$GPGSV,4,1,16,05,29,030,32,10,15,214,20,12,69,122,25,13,12,096,20*71
$GPGSV,4,2,16,15,43,123,35,18,29,304,22,23,57,220,27,24,27,167,10*7C
$GPGSV,4,3,16,25,71,333,29,28,08,281,,29,18,355,,36,52,277,*78
$GPGSV,4,4,16,40,86,351,,41,58,082,,49,32,274,,50,10,089,*79
$GLGSV,3,1,09,65,35,171,20,66,00,204,,71,09,052,13,72,41,095,30*6D
$GLGSV,3,2,09,75,28,166,17,76,70,252,28,77,33,316,14,87,08,348,*62
$GLGSV,3,3,09,88,04,293,*50
$GNGLL,0419.82645,S,05539.87271,E,071211.00,A,A*6E
$GNGRS,071211.00,1,3.8,23.0,-1.1,7.0,-3.1,8.3,0.4,,,,,*4A
$GNGRS,071211.00,1,2.5,23.0,-10.2,-3.5,4.0,-2.1,,,,,,*7D
$GNGST,071211.00,7231,,,,4.8,5.5,11*68
$GNZDA,071211.00,23,05,2025,00,00*7D
$GNGBS,071211.00,4.8,5.5,11.0,,,,*67
$GNTXT,01,01,01,More than 100 frame errors, UART RX was disabled*70
$GNTXT,01,01,01,More than 100 frame errors, UART RX was disabled*70
b0@K
Ez`%+{O0 9GMc{4V_:R 
YzA#BG4H)_pKIL!F
M!<W\X%bKrE$GNRMC,071214.00,A,0419.82623,S,05539.87272,E,0.009,,230525,,,A*7B
$GNVTG,,T,,M,0.009,N,0.017,K,A*32
$GNGNS,071214.00,0419.82623,S,05539.87272,E,AA,14,0.88,23.6,-47.6,,*6D
$GNGGA,071214.00,0419.82623,S,05539.87272,E,1,12,0.88,23.6,M,-47.6,M,,*41
$GNGSA,A,3,24,05,13,15,12,18,25,23,,,,,1.77,0.88,1.53*13
$GNGSA,A,3,75,71,72,76,65,77,,,,,,,1.77,0.88,1.53*19
$GPGSV,4,1,16,05,29,030,30,10,15,214,23,12,69,122,25,13,12,096,15*76
$GPGSV,4,2,16,15,43,123,37,18,29,304,25,23,57,220,32,24,27,167,15*78
$GPGSV,4,3,16,25,71,333,29,28,08,281,,29,18,355,,36,52,277,*78
$GPGSV,4,4,16,40,86,351,,41,58,082,,49,32,274,,50,10,089,*79
$GLGSV,3,1,09,65,35,171,22,66,00,204,,71,09,052,12,72,41,095,29*66
$GLGSV,3,2,09,75,28,166,18,76,70,252,33,77,33,316,17,87,08,348,*64
$GLGSV,3,3,09,88,04,293,*50
$GNGLL,0419.82623,S,05539.87272,E,071214.00,A,A*68
$GNGRS,071214.00,1,-5.6,-0.6,23.1,-1.8,-3.6,-4.9,11.8,-3.5,,,,*5B
$GNGRS,071214.00,1,3.3,23.2,-6.6,1.3,2.8,-2.5,,,,,,*6D
$GNGST,071214.00,46,,,,4.7,5.3,11*61
$GNZDA,071214.00,23,05,2025,00,00*78
$GNGBS,071214.00,4.7,5.3,11.1,,,,*6A
$GNTXT,01,01,01,More than 100 frame errors, UART RX was disabled*70
b0@Kx
Ez`%+{T09sHGMSc{4V_:R 
YzA#BG4H)_(KL!Fq
M!<W\X%3LbKruIL$GNRMC,071215.00,A,0419.82613,S,05539.87268,E,0.111,,230525,,,A*7A
$GNVTG,,T,,M,0.111,N,0.205,K,A*3B
$GNGNS,071215.00,0419.82613,S,05539.87268,E,AA,14,0.88,23.8,-47.6,,*6A
$GNGGA,071215.00,0419.82613,S,05539.87268,E,1,12,0.88,23.8,M,-47.6,M,,*46
$GNGSA,A,3,24,05,13,15,12,18,25,23,,,,,1.77,0.88,1.53*13
$GNGSA,A,3,75,71,72,76,65,77,,,,,,,1.77,0.88,1.53*19
$GPGSV,4,1,16,05,29,030,30,10,15,214,23,12,69,122,25,13,12,096,15*76
$GPGSV,4,2,16,15,43,123,37,18,29,304,27,23,57,220,25,24,27,167,14*7D
$GPGSV,4,3,16,25,71,333,28,28,08,281,,29,18,355,,36,52,277,*79
$GPGSV,4,4,16,40,86,351,,41,58,082,,49,32,274,,50,10,089,*79
$GLGSV,3,1,09,65,35,171,23,66,00,204,,71,09,052,18,72,41,095,30*65
$GLGSV,3,2,09,75,28,166,16,76,70,252,33,77,33,316,16,87,08,348,*6B
$GLGSV,3,3,09,88,04,293,*50
$GNGLL,0419.82613,S,05539.87268,E,071215.00,A,A*61
$GNGRS,071215.00,1,-4.4,11.4,22.1,-1.7,-2.4,-7.6,13.6,-4.0,,,,*49
$GNGRS,071215.00,1,-0.4,23.4,-12.4,3.7,2.7,-3.5,,,,,,*7C
$GNGST,071215.00,50,,,,4.7,5.3,11*67
$GNZDA,071215.00,23,05,2025,00,00*79
$GNGBS,071215.00,4.7,5.3,11.2,,,,*68
$GNTXT,01,01,01,More than 100 frame errors, UART RX was disabled*70
$GNTXT,01,01,01,More than 100 frame errors, UART RX was disabled*70
b0@K
Ez`%+{00 9vGMc{!4V_:R 
YzA#BG4H)_KL"F
M!<W\X%bKrEQd$GNRMC,071217.00,A,0419.82598,S,05539.87270,E,0.026,,230525,,,A*74
$GNVTG,,T,,M,0.026,N,0.049,K,A*34
$GNGNS,071217.00,0419.82598,S,05539.87270,E,AA,13,0.88,23.8,-47.6,,*66
$GNGGA,071217.00,0419.82598,S,05539.87270,E,1,12,0.88,23.8,M,-47.6,M,,*4D
$GNGSA,A,3,24,05,15,12,18,25,23,,,,,,1.77,0.88,1.53*11
$GNGSA,A,3,75,71,72,76,65,77,,,,,,,1.77,0.88,1.53*19
$GPGSV,4,1,16,05,29,030,29,10,15,214,23,12,69,122,27,13,12,096,*78
$GPGSV,4,2,16,15,43,123,37,18,29,304,26,23,57,220,32,24,27,167,19*77
$GPGSV,4,3,16,25,71,333,29,28,08,281,,29,18,355,,36,52,277,33*78
$GPGSV,4,4,16,40,86,351,,41,58,082,,49,32,274,,50,10,089,*79
$GLGSV,3,1,09,65,35,171,23,66,00,204,,71,09,052,13,72,41,095,30*6E
$GLGSV,3,2,09,75,28,166,14,76,70,252,34,77,33,316,16,87,08,348,*6E
$GLGSV,3,3,09,88,04,293,*50
$GNGLL,0419.82598,S,05539.87270,E,071217.00,A,A*6A
$GNGRS,071217.00,1,-5.5,6.5,-2.1,-2.6,-8.3,7.2,-6.5,,,,,*58
$GNGRS,071217.00,1,1.6,22.9,-13.7,-1.3,2.4,-5.2,,,,,,*77
$GNGST,071217.00,86543,,,,4.6,5.2,11*5C
$GNZDA,071217.00,23,05,2025,00,00*7B
$GNGBS,071217.00,4.6,5.2,11.2,,,,*6A
b0@K^
Ez`%+{019GMc{!4V_:R 
YzA#BG4VH)_NKwL"F
M!<FW\X%0bKr-U<$GNRMC,071218.00,A,0419.82591,S,05539.87275,E,0.053,,230525,,,A*75
$GNVTG,,T,,M,0.053,N,0.098,K,A*3A
$GNGNS,071218.00,0419.82591,S,05539.87275,E,AA,13,0.88,24.0,-47.6,,*6A
$GNGGA,071218.00,0419.82591,S,05539.87275,E,1,12,0.88,24.0,M,-47.6,M,,*41
$GNGSA,A,3,24,05,15,12,18,25,23,,,,,,1.77,0.88,1.53*11
$GNGSA,A,3,75,71,72,76,65,77,,,,,,,1.77,0.88,1.53*19
$GPGSV,4,1,16,05,29,030,29,10,15,214,23,12,69,122,27,13,12,096,*78
$GPGSV,4,2,16,15,43,123,37,18,29,304,26,23,57,220,30,24,27,167,18*74
$GPGSV,4,3,16,25,71,333,28,28,08,281,,29,18,355,,36,52,277,33*79
$GPGSV,4,4,16,40,86,351,,41,58,082,,49,32,274,,50,10,089,*79
$GLGSV,3,1,09,65,35,171,24,66,00,204,,71,09,052,17,72,41,095,29*65
$GLGSV,3,2,09,75,28,166,17,76,70,252,34,77,33,316,17,87,08,348,*6C
$GLGSV,3,3,09,88,04,293,*50
$GNGLL,0419.82591,S,05539.87275,E,071218.00,A,A*69
$GNGRS,071218.00,1,-4.9,6.1,-2.3,-4.9,-9.8,9.3,-3.4,,,,,*54
$GNGRS,071218.00,1,1.2,21.3,-12.0,-5.7,2.6,-4.4,,,,,,*76
$GNGST,071218.00,44,,,,4.6,5.1,11*6C
$GNZDA,071218.00,23,05,2025,00,00*74
$GNGBS,071218.00,4.6,5.1,11.1,,,,*65
$GNTXT,01,01,01,More than 100 frame errors, UART RX was disabled*70
b0@K
Ez`%+{09(GMcv{!4V_:R 
YzA#BG4H)_;KuL!F
M!<W\X%bKrY$GNTXT,01,01,01,More than 100 frame errors, UART RX was disabled*70
b0@pKZ
Ezi`%+{09B{GMDc6{"4V_:R 
YzA#wBG41H)_oKQL!F
M!<W\X%^bpKr\Q$GNRMC,071220.00,A,0419.82571,S,05539.87295,E,0.032,,230525,,,A*79
$GNVTG,,T,,M,0.032,N,0.059,K,A*30
$GNGNS,071220.00,0419.82571,S,05539.87295,E,AA,13,0.88,24.9,-47.6,,*68
$GNGGA,071220.00,0419.82571,S,05539.87295,E,1,12,0.88,24.9,M,-47.6,M,,*43
$GNGSA,A,3,24,05,15,12,18,25,23,,,,,,1.77,0.88,1.53*11
$GNGSA,A,3,75,71,72,76,65,77,,,,,,,1.77,0.88,1.53*19
$GPGSV,4,1,16,05,29,030,30,10,15,214,24,12,69,122,26,13,12,096,*76
$GPGSV,4,2,16,15,43,123,37,18,29,304,27,23,57,220,30,24,27,167,17*7A
$GPGSV,4,3,16,25,71,333,30,28,08,281,,29,18,355,09,36,52,277,34*7E
$GPGSV,4,4,16,40,86,351,,41,58,082,,49,32,274,,50,10,089,*79
$GLGSV,3,1,09,65,35,170,24,66,00,204,,71,09,052,19,72,41,095,28*6B
$GLGSV,3,2,09,75,28,166,22,76,70,252,33,77,33,316,14,87,08,348,*6E
$GLGSV,3,3,09,88,04,293,*50
$GNTXT,01,01,01,More than 100 frame errors, UART RX was disabled*70
b0@XK
Ezf`%+{0T9GMc{!4V_:R 
YzA#CBG4H)_KDL"F
M!<W\X%TbXKr`$GNRMC,071221.00,A,0419.82559,S,05539.87301,E,0.089,,230525,,,A*7E
$GNVTG,,T,,M,0.089,N,0.165,K,A*3E
$GNGNS,071221.00,0419.82559,S,05539.87301,E,AA,13,0.88,25.0,-47.6,,*67
$GNGGA,071221.00,0419.82559,S,05539.87301,E,1,12,0.88,25.0,M,-47.6,M,,*4C
$GNGSA,A,3,24,05,15,12,18,25,23,,,,,,1.77,0.88,1.53*11
$GNGSA,A,3,75,71,72,76,65,77,,,,,,,1.77,0.88,1.53*19
$GPGSV,4,1,16,05,29,030,29,10,15,214,25,12,69,122,27,13,12,096,*7E
$GPGSV,4,2,16,15,43,123,37,18,29,304,26,23,57,220,31,24,27,167,17*7A
$GPGSV,4,3,16,25,71,333,30,28,08,281,,29,18,355,14,36,52,277,33*75
$GPGSV,4,4,16,40,86,351,,41,58,082,,49,32,274,,50,10,089,*79
$GNTXT,01,01,01,More than 100 frame errors, UART RX was disabled*70
$GNGST,071222.00,48,,,,4.5,4.8,11*62
$GNZDA,071222.00,23,05,2025,00,00*7D
$GNGBS,071222.00,4.5,4.8,10.9,,,,*6E
$GNTXT,01,01,01,More than 100 frame errors, UART RX was disabled*70
b0@(K
Ez`&+{0 9[GMSc{!4V_:R 
YzA#mBG43H)_KL!FG
M!<"W\X%b(Krhs$GNRMC,071223.00,A,0419.82536,S,05539.87313,E,0.098,,230525,,,A*76
$GNVTG,,T,,M,0.098,N,0.181,K,A*34
$GNGNS,071223.00,0419.82536,S,05539.87313,E,AA,14,0.84,25.4,-47.6,,*60
$GNGGA,071223.00,0419.82536,S,05539.87313,E,1,12,0.84,25.4,M,-47.6,M,,*4C
$GNGSA,A,3,24,05,15,12,29,18,25,23,,,,,1.62,0.84,1.39*1E
$GNGSA,A,3,75,71,72,76,65,77,,,,,,,1.62,0.84,1.39*1D
$GNTXT,01,01,01,More than 100 frame errors, UART RX was disabled*70
$GPGSV,4,2,16,15,43,123,37,18,29,304,25,23,57,220,32,24,27,167,23*7D
$GPGSV,4,3,16,25,71,333,30,28,08,281,,29,18,355,16,36,52,277,32*76
$GPGSV,4,4,16,40,86,351,,41,58,082,,49,32,274,,50,10,089,*79
$GLGSV,3,1,09,65,35,170,22,66,00,204,,71,09,052,20,72,41,095,28*67
$GLGSV,3,2,09,75,28,166,23,76,70,252,33,77,33,316,10,87,08,348,*6B
$GLGSV,3,3,09,88,04,293,*50
$GNGLL,0419.82522,S,05539.87324,E,071224.00,A,A*6B
$GNGRS,071224.00,1,-5.0,8.2,-2.1,-3.2,-2.8,-12.6,5.1,-4.7,,,,*67
$GNGRS,071224.00,1,3.3,21.0,-4.6,-3.8,2.6,-10.9,,,,,,*79
$GNGST,071224.00,44,,,,4.3,4.6,11*60
$GNZDA,071224.00,23,05,2025,00,00*7B
$GNGBS,071224.00,4.3,4.6,10.8,,,,*61
b0@K
Ez`%+{!0 9{ GMc^{ 4V_:R 
YzA#BG4H)_`K4L"F
M
!<W\X%cbKrp"J$GNTXT,01,01,01,More than 100 frame errors, UART RX was disabled*70
b0@KH
Ez`%+{0!9z GMHcz{ 4V_:R 
YzA#BG3H)^K?L!F
M!<W\X%bKrUx$GNRMC,071227.00,A,0419.82490,S,05539.87338,E,0.075,,230525,,,A*75
$GNVTG,,T,,M,0.075,N,0.139,K,A*34
$GNGNS,071227.00,0419.82490,S,05539.87338,E,AA,14,0.84,25.7,-47.6,,*63
$GNGGA,071227.00,0419.82490,S,05539.87338,E,1,12,0.84,25.7,M,-47.6,M,,*4F
$GNGSA,A,3,24,05,15,12,29,18,25,23,,,,,1.62,0.84,1.39*1E
$GNGSA,A,3,75,71,72,76,65,77,,,,,,,1.62,0.84,1.39*1D
$GPGSV,4,1,16,05,29,030,29,10,15,214,25,12,69,122,28,13,12,096,*71
$GPGSV,4,2,16,15,43,123,37,18,29,304,24,23,57,220,33,24,27,167,19*74
$GPGSV,4,3,16,25,71,333,32,28,08,281,,29,18,355,13,36,52,277,32*71
$GPGSV,4,4,16,40,86,351,,41,58,082,,49,32,274,,50,10,089,*79
$GLGSV,3,1,09,65,35,170,24,66,00,204,,71,09,051,20,72,41,094,28*63
$GLGSV,3,2,09,75,28,166,22,76,70,252,33,77,33,316,11,87,08,348,*6B
$GLGSV,3,3,09,88,04,293,*50
$GNGLL,0419.82490,S,05539.87338,E,071227.00,A,A*6D
$GNGRS,071227.00,1,-6.5,3.3,-2.4,0.1,-3.9,-7.6,5.8,-3.0,,,,*7D
$GNGRS,071227.00,1,8.3,20.1,-5.3,-3.0,2.4,-10.3,,,,,,*75
$GNGST,071227.00,46,,,,4.2,4.4,10*63
$GNZDA,071227.00,23,05,2025,00,00*78
$GNGBS,071227.00,4.2,4.4,10.5,,,,*6C
b0@L
Ez`%+{0!91I!GMc{"4V_:R 
YzA#BG3JH)^KtL!F
M
!<W\X%;.bLr=|$GNRMC,071228.00,A,0419.82484,S,05539.87339,E,0.055,,230525,,,A*7C
$GNVTG,,T,,M,0.055,N,0.102,K,A*3E
$GNGNS,071228.00,0419.82484,S,05539.87339,E,AA,14,0.84,25.7,-47.6,,*68
$GNGGA,071228.00,0419.82484,S,05539.87339,E,1,12,0.84,25.7,M,-47.6,M,,*44
$GNGSA,A,3,24,05,15,12,29,18,25,23,,,,,1.62,0.84,1.39*1E
$GNGSA,A,3,75,71,72,76,65,77,,,,,,,1.62,0.84,1.39*1D
$GPGSV,4,1,16,05,29,030,29,10,15,214,26,12,69,122,28,13,12,096,*72
$GPGSV,4,2,16,15,43,123,37,18,29,304,25,23,57,220,33,24,27,167,19*75
$GPGSV,4,3,16,25,71,333,33,28,08,281,,29,18,355,13,36,52,277,34*76
$GPGSV,4,4,16,40,86,351,,41,58,082,,49,32,274,,50,10,089,*79
$GLGSV,3,1,09,65,35,170,25,66,00,204,,71,09,051,18,72,41,094,28*69
$GLGSV,3,2,09,75,28,166,20,76,70,252,33,77,33,316,10,87,08,348,*68
$GLGSV,3,3,09,88,04,293,*50
$GNGLL,0419.82484,S,05539.87339,E,071228.00,A,A*66
$GNGRS,071228.00,1,-6.9,4.5,-2.4,1.4,-4.8,-4.9,1.5,-2.1,,,,*78
$GNGRS,071228.00,1,8.8,23.8,-5.0,-2.6,2.1,-7.4,,,,,,*4B
$GNGST,071228.00,47,,,,4.1,4.3,10*69
$GNZDA,071228.00,23,05,2025,00,00*77
$GNGBS,071228.00,4.1,4.3,10.4,,,,*66
$GNTXT,01,01,01,More than 100 frame errors, UART RX was disabled*70
b0@L
Ez`%+{0 95c GMgc{"4V_:R 
YzA#BG3&H)^KL!F
M
!<eW\X%'ZbLr%$GNRMC,071229.00,A,0419.82478,S,05539.87342,E,0.027,,230525,,,A*77
$GNVTG,,T,,M,0.027,N,0.051,K,A*3C
$GNGNS,071229.00,0419.82478,S,05539.87342,E,AA,14,0.84,25.6,-47.6,,*67
$GNGGA,071229.00,0419.82478,S,05539.87342,E,1,12,0.84,25.6,M,-47.6,M,,*4B
$GNGSA,A,3,24,05,15,12,29,18,25,23,,,,,1.62,0.84,1.39*1E
$GNGSA,A,3,75,71,72,76,65,77,,,,,,,1.62,0.84,1.39*1D
$GPGSV,4,1,16,05,29,030,30,10,15,214,25,12,69,122,28,13,12,096,*79
$GPGSV,4,2,16,15,43,123,37,18,29,304,25,23,57,220,32,24,27,167,18*75
$GPGSV,4,3,16,25,71,333,32,28,08,281,,29,18,355,18,36,52,277,34*7C
$GPGSV,4,4,16,40,86,351,,41,58,082,,49,32,274,,50,10,089,*79
$GLGSV,3,1,09,65,35,170,24,66,00,204,,71,09,051,16,72,41,094,28*66
$GLGSV,3,2,09,75,28,166,19,76,70,252,33,77,33,316,10,87,08,348,*62
$GLGSV,3,3,09,88,04,293,*50
$GNGLL,0419.82478,S,05539.87342,E,071229.00,A,A*68
$GNGRS,071229.00,1,-6.7,6.7,-2.5,-1.1,-4.9,-8.2,-1.5,-2.0,,,,*74
$GNGRS,071229.00,1,7.7,23.4,-3.0,-2.6,2.6,-6.7,,,,,,*45
$GNGST,071229.00,44,,,,4.1,4.3,10*6B
$GNZDA,071229.00,23,05,2025,00,00*76
$GNGBS,071229.00,4.1,4.3,10.3,,,,*60
$GNTXT,01,01,01,More than 100 frame errors, UART RX was disabled*70
b0@L
Ezv`%+{0 9i) GMQcv{!4V_:R 
YzA#BG3{H)^wKL F
M!<;W\X%bLr[`$GNRMC,071230.00,A,0419.82470,S,05539.87345,E,0.056,,230525,,,A*76
$GNVTG,,T,,M,0.056,N,0.104,K,A*3B
$GNGNS,071230.00,0419.82470,S,05539.87345,E,AA,14,0.84,25.8,-47.6,,*6E
$GNGGA,071230.00,0419.82470,S,05539.87345,E,1,12,0.84,25.8,M,-47.6,M,,*42
$GNGSA,A,3,24,05,15,12,29,18,25,23,,,,,1.62,0.84,1.39*1E
$GNGSA,A,3,75,71,72,76,65,77,,,,,,,1.62,0.84,1.39*1D
$GPGSV,4,1,16,05,29,030,29,10,15,214,23,12,69,122,28,13,12,096,*77
$GPGSV,4,2,16,15,43,123,37,18,29,304,25,23,57,220,32,24,27,167,17*7A
$GPGSV,4,3,16,25,71,333,32,28,08,281,,29,18,355,19,36,52,277,33*7A
$GPGSV,4,4,16,40,86,351,,41,58,082,,49,32,274,,50,10,089,*79
$GLGSV,3,1,09,65,35,170,22,66,00,204,,71,09,051,17,72,41,094,30*68
$GLGSV,3,2,09,75,27,166,19,76,70,252,32,77,33,316,11,87,08,348,*6D
$GLGSV,3,3,09,88,04,293,*50
$GNGLL,0419.82470,S,05539.87345,E,071230.00,A,A*6F
$GNGRS,071230.00,1,-7.3,4.6,-2.4,-1.4,-3.9,-10.8,3.4,-1.5,,,,*62
$GNGRS,071230.00,1,7.2,24.3,-1.4,-2.5,4.0,-4.5,,,,,,*4D
$GNGST,071230.00,43,,,,4.0,4.2,10*64
$GNZDA,071230.00,23,05,2025,00,00*7E
$GNGBS,071230.00,4.0,4.2,10.3,,,,*68
$GNTXT,01,01,01,More than 100 frame errors, UART RX was disabled*70
b0@PL
Ez`&+{30!9v&!GMc{ 4V_:R 
YzA#BG3FH)^K4LF
M";5W\X%7`bPLr
-$GNRMC,071232.00,A,0419.82451,S,05539.87344,E,0.050,,230525,,,A*70
$GNVTG,,T,,M,0.050,N,0.092,K,A*33
$GNGNS,071232.00,0419.82451,S,05539.87344,E,AA,13,0.89,26.3,-47.6,,*6C
$GNGGA,071232.00,0419.82451,S,05539.87344,E,1,12,0.89,26.3,M,-47.6,M,,*47
$GNGSA,A,3,24,05,15,12,29,18,25,23,,,,,1.66,0.89,1.40*19
$GNGSA,A,3,75,71,72,76,65,,,,,,,,1.66,0.89,1.40*1A
$GPGSV,4,1,16,05,29,030,29,10,15,214,21,12,69,122,26,13,12,096,*7B
$GPGSV,4,2,16,15,43,123,38,18,29,304,24,23,57,220,33,24,27,167,15*77
$GPGSV,4,3,16,25,71,333,33,28,08,281,,29,18,355,19,36,52,277,32*7A
$GPGSV,4,4,16,40,86,351,,41,58,082,,49,32,274,,50,10,089,*79
$GLGSV,3,1,09,65,35,170,22,66,00,204,,71,09,051,18,72,41,094,31*66
$GLGSV,3,2,09,75,27,166,19,76,70,250,31,77,34,315,09,87,08,348,*61
$GLGSV,3,3,09,88,04,293,*50
$GNGLL,0419.82451,S,05539.87344,E,071232.00,A,A*6F
$GNGRS,071232.00,1,-7.3,7.5,-2.1,1.4,-2.4,-7.7,4.7,-1.4,,,,*78
$GNGRS,071232.00,1,5.6,23.7,-6.1,2.1,6.5,,,,,,,*64
$GNGST,071232.00,40,,,,3.9,4.1,10*68
$GNZDA,071232.00,23,05,2025,00,00*7C
$GNGBS,071232.00,3.9,4.1,10.2,,,,*66
$GNTXT,01,01,01,More than 100 frame errors, UART RX was disabled*70
b0@8LJ
Ez`&+{a0!9yP GM]c{ 4V_:R 
YzA#3BG3H)^KbLF5
M";W\X%vb8Lr$GNRMC,071233.00,A,0419.82444,S,05539.87338,E,0.028,,230525,,,A*71
$GNVTG,,T,,M,0.028,N,0.053,K,A*31
$GNGNS,071233.00,0419.82444,S,05539.87338,E,AA,13,0.89,26.3,-47.6,,*62
$GNGGA,071233.00,0419.82444,S,05539.87338,E,1,12,0.89,26.3,M,-47.6,M,,*49
$GNGSA,A,3,24,05,15,12,29,18,25,23,,,,,1.66,0.89,1.40*19
$GNGSA,A,3,75,71,72,76,65,,,,,,,,1.66,0.89,1.40*1A
$GPGSV,4,1,16,05,29,030,29,10,15,214,22,12,69,122,26,13,12,096,*78
$GPGSV,4,2,16,15,43,123,38,18,29,304,23,23,57,220,33,24,27,167,17*72
$GPGSV,4,3,16,25,71,333,32,28,08,281,,29,18,355,17,36,52,277,32*75
$GPGSV,4,4,16,40,86,351,,41,58,082,,49,32,274,,50,10,089,*79
$GLGSV,3,1,09,65,35,170,24,66,00,204,,71,09,051,19,72,41,094,31*61
$GLGSV,3,2,09,75,27,166,18,76,70,250,31,77,34,315,08,87,08,348,*61
$GLGSV,3,3,09,88,04,293,*50
$GNGLL,0419.82444,S,05539.87338,E,071233.00,A,A*61
$GNGRS,071233.00,1,-6.9,8.4,-1.6,4.2,-2.9,-6.1,3.5,-1.4,,,,*74
$GNGRS,071233.00,1,6.1,20.6,-5.3,3.1,8.2,,,,,,,*6A
$GNGST,071233.00,38,,,,3.9,4.1,10*66
$GNZDA,071233.00,23,05,2025,00,00*7D
$GNGBS,071233.00,3.9,4.1,10.2,,,,*67
$GNTXT,01,01,01,More than 100 frame errors, UART RX was disabled*70
b0@ Ln
Ez`$+{i0!9 GMc{!4V_:R 
YzA#RBG3sH)^'KLF
M";W\X%ib Lr$GNRMC,071234.00,A,0419.82444,S,05539.87333,E,0.136,,230525,,,A*73
$GNVTG,,T,,M,0.136,N,0.252,K,A*3C
$GNGNS,071234.00,0419.82444,S,05539.87333,E,AA,13,0.84,26.0,-47.6,,*60
$GNGGA,071234.00,0419.82444,S,05539.87333,E,1,12,0.84,26.0,M,-47.6,M,,*4B
$GNGSA,A,3,24,05,15,12,29,18,25,23,,,,,1.53,0.84,1.28*1C
$GNGSA,A,3,75,71,72,76,65,,,,,,,,1.53,0.84,1.28*1F
$GPGSV,4,1,16,05,29,030,29,10,15,214,22,12,69,122,27,13,12,096,17*7F
$GPGSV,4,2,16,15,43,123,36,18,29,304,21,23,57,220,33,24,27,167,18*71
$GPGSV,4,3,16,25,71,333,32,28,08,281,,29,18,355,19,36,52,277,33*7A
$GPGSV,4,4,16,40,86,351,,41,58,082,,49,32,274,,50,10,089,*79
$GLGSV,3,1,09,65,35,170,25,66,00,204,,71,09,051,18,72,41,094,30*60
$GLGSV,3,2,09,75,27,166,16,76,70,250,31,77,34,315,09,87,08,348,*6E
$GLGSV,3,3,09,88,04,293,*50
$GNGLL,0419.82444,S,05539.87333,E,071234.00,A,A*6D
$GNGRS,071234.00,1,-5.1,3.7,-1.5,4.2,-2.7,-6.2,4.1,-1.2,,,,*7B
$GNGRS,071234.00,1,7.7,19.1,-4.7,4.8,8.5,,,,,,,*6B
$GNGST,071234.00,40,,,,3.9,4.0,10*6F
$GNZDA,071234.00,23,05,2025,00,00*7A
$GNGBS,071234.00,3.9,4.0,10.1,,,,*62
$GNTXT,01,01,01,More than 100 frame errors, UART RX was disabled*70
b0@L 
Ez`0%+{0#!9!GMc{!4V_:R 
YzA#BG3H)^?KL F'
M";W\X%bLre$GNRMC,071235.00,A,0419.82440,S,05539.87335,E,0.071,,230525,,,A*72
$GNVTG,,T,,M,0.071,N,0.131,K,A*38
$GNGNS,071235.00,0419.82440,S,05539.87335,E,AA,13,0.84,26.1,-47.6,,*62
$GNGGA,071235.00,0419.82440,S,05539.87335,E,1,12,0.84,26.1,M,-47.6,M,,*49
$GNGSA,A,3,24,05,15,12,29,18,25,23,,,,,1.53,0.84,1.28*1C
$GNGSA,A,3,75,71,72,76,65,,,,,,,,1.53,0.84,1.28*1F
$GPGSV,4,1,16,05,29,030,29,10,15,214,22,12,69,122,28,13,12,096,17*70
$GPGSV,4,2,16,15,43,123,37,18,29,304,20,23,57,220,33,24,27,167,19*70
$GPGSV,4,3,16,25,71,333,33,28,08,281,,29,18,355,22,36,52,277,33*73
$GPGSV,4,4,16,40,86,351,,41,58,082,,49,32,274,,50,10,089,*79
$GLGSV,3,1,09,65,35,170,25,66,00,204,,71,09,051,18,72,41,094,30*60
$GLGSV,3,2,09,75,27,166,12,76,70,250,32,77,34,315,09,87,08,348,*69
$GLGSV,3,3,09,88,04,293,*50
$GNGLL,0419.82440,S,05539.87335,E,071235.00,A,A*6E
$GNGRS,071235.00,1,-6.0,8.0,-1.3,4.1,-1.1,-7.3,-0.8,-1.3,,,,*55
$GNGRS,071235.00,1,9.8,17.6,-4.5,3.0,7.4,,,,,,,*61
$GNGST,071235.00,83147,,,,3.8,4.0,10*52
$GNZDA,071235.00,23,05,2025,00,00*7B
$GNGBS,071235.00,3.8,4.0,10.1,,,,*62
$GNTXT,01,01,01,More than 100 frame errors, UART RX was disabled*70
b0@ Lg
Ez`%+{0B!9!GMc{!4V_:R 
YzA#BG3HH)^KL F
M";W\X%Sb Lr}i$GNRMC,071236.00,A,0419.82436,S,05539.87341,E,0.122,,230525,,,A*74
$GNVTG,,T,,M,0.122,N,0.226,K,A*3A
$GNGNS,071236.00,0419.82436,S,05539.87341,E,AA,13,0.84,26.4,-47.6,,*66
$GNGGA,071236.00,0419.82436,S,05539.87341,E,1,12,0.84,26.4,M,-47.6,M,,*4D
$GNGSA,A,3,24,05,15,12,29,18,25,23,,,,,1.53,0.84,1.28*1C
$GNGSA,A,3,75,71,72,76,65,,,,,,,,1.53,0.84,1.28*1F
$GPGSV,4,1,16,05,29,030,28,10,15,214,21,12,69,122,27,13,12,096,16*7C
$GPGSV,4,2,16,15,43,123,37,18,29,304,20,23,57,220,33,24,27,167,21*7B
$GPGSV,4,3,16,25,71,333,33,28,08,281,,29,18,355,21,36,52,277,33*70
$GPGSV,4,4,16,40,86,351,,41,58,082,,49,32,274,,50,10,089,*79
$GLGSV,3,1,09,65,35,170,23,66,00,204,,71,09,051,18,72,41,094,29*6E
$GLGSV,3,2,09,75,27,166,12,76,70,250,32,77,34,315,,87,08,348,*60
$GLGSV,3,3,09,88,04,293,*50
$GNGLL,0419.82436,S,05539.87341,E,071236.00,A,A*6F
$GNTXT,01,01,01,More than 100 frame errors, UART RX was disabled*70
b0@$L
Ez`F%+{0!9 GMc{ 4V_:R 
YzA#BG3H)^@KLF
M";W\X%b$LreA&$GNRMC,071237.00,A,0419.82430,S,05539.87345,E,0.070,,230525,,,A*71
$GNVTG,,T,,M,0.070,N,0.130,K,A*38
$GNGNS,071237.00,0419.82430,S,05539.87345,E,AA,14,0.84,26.5,-47.6,,*63
$GNGGA,071237.00,0419.82430,S,05539.87345,E,1,12,0.84,26.5,M,-47.6,M,,*4F
$GNGSA,A,3,24,05,13,15,12,29,18,25,23,,,,1.53,0.84,1.28*1E
$GNGSA,A,3,75,71,72,76,65,,,,,,,,1.53,0.84,1.28*1F
$GPGSV,4,1,16,05,29,030,29,10,15,214,24,12,69,122,26,13,12,096,18*77
$GPGSV,4,2,16,15,43,123,37,18,29,304,21,23,57,220,33,24,27,167,21*7A
$GPGSV,4,3,16,25,71,333,32,28,08,281,,29,18,355,19,36,52,277,32*7B
$GPGSV,4,4,16,40,86,351,,41,58,082,,49,32,274,,50,10,089,*79
$GLGSV,3,1,09,65,35,170,22,66,00,204,,71,09,051,20,72,41,094,28*65
$GLGSV,3,2,09,75,27,166,13,76,70,250,31,77,34,315,,87,08,348,*62
$GLGSV,3,3,09,88,04,293,*50
$GNGLL,0419.82430,S,05539.87345,E,071237.00,A,A*6C
$GNGRS,071237.00,1,-7.5,4.1,21.2,-0.8,7.1,-0.7,-8.9,1.9,-1.3,,,*67
$GNGRS,071237.00,1,4.1,17.0,-7.0,2.3,6.7,,,,,,,*67
$GNGST,071237.00,43,,,,3.8,4.0,10*6E
$GNTXT,01,01,01,More than 100 frame errors, UART RX was disabled*70
$GNTXT,01,01,01,More than 100 frame errors, UART RX was disabled*70
$GNTXT,01,01,01,More than 100 frame errors, UART RX was disabled*70
b0@0L$
Ez`a$+{0!9uGMbc{ 4V_:R 
YzA#9BG3(H)^K1L FK
M";W\X%\b0Lr^$GNRMC,071240.00,A,0419.82422,S,05539.87352,E,0.122,,230525,,,A*72
$GNVTG,,T,,M,0.122,N,0.226,K,A*3A
$GNGNS,071240.00,0419.82422,S,05539.87352,E,AA,14,0.81,27.0,-47.6,,*67
$GNGGA,071240.00,0419.82422,S,05539.87352,E,1,12,0.81,27.0,M,-47.6,M,,*4B
$GNGSA,A,3,24,05,13,15,12,29,18,25,23,,,,1.48,0.81,1.24*1D
$GNGSA,A,3,75,71,72,76,65,,,,,,,,1.48,0.81,1.24*1C
$GPGSV,4,1,16,05,29,030,29,10,15,214,26,12,69,122,29,13,12,096,15*77
$GPGSV,4,2,16,15,43,123,36,18,29,304,24,23,57,220,33,24,27,167,21*7E
$GPGSV,4,3,16,25,71,333,31,28,08,281,,29,18,355,19,36,52,277,32*78
$GPGSV,4,4,16,40,86,351,,41,58,082,,49,32,274,,50,10,089,*79
$GLGSV,3,1,09,65,35,170,19,66,00,204,,71,09,051,21,72,41,094,24*60
$GLGSV,3,2,09,75,27,166,23,76,70,250,32,77,34,315,,87,08,348,*62
$GLGSV,3,3,09,88,04,293,*50
$GNGLL,0419.82422,S,05539.87352,E,071240.00,A,A*69
$GNTXT,01,01,01,More than 100 frame errors, UART RX was disabled*70
b0@x4L-
Ez`e
#+{0X"9mGMcK{4V_:R 
YzA#gBG3H)^KTL FC
M";W\X%#bx4Lr$GNRMC,071241.00,A,0419.82423,S,05539.87356,E,0.140,,230525,,,A*72
$GNVTG,,T,,M,0.140,N,0.260,K,A*3C
$GNGNS,071241.00,0419.82423,S,05539.87356,E,AA,14,0.84,27.0,-47.6,,*66
$GNGGA,071241.00,0419.82423,S,05539.87356,E,1,12,0.84,27.0,M,-47.6,M,,*4A
$GNGSA,A,3,24,05,13,15,12,29,18,25,23,,,,1.53,0.84,1.28*1E
$GNGSA,A,3,75,71,72,76,65,,,,,,,,1.53,0.84,1.28*1F
$GPGSV,4,1,16,05,29,030,30,10,15,214,26,12,69,122,28,13,12,096,12*79
$GPGSV,4,2,16,15,43,123,35,18,29,304,23,23,57,220,34,24,27,167,22*7E
$GPGSV,4,3,16,25,71,333,31,28,08,281,,29,18,355,19,36,52,277,31*7B
$GPGSV,4,4,16,40,86,351,,41,58,082,,49,32,274,,50,10,089,*79
$GLGSV,3,1,09,65,35,170,23,66,00,204,,71,09,051,20,72,41,094,25*69
$GNTXT,01,01,01,More than 100 frame errors, UART RX was disabled*70
b0@`8L
EzO`!+{0-%9 GM#c{!4V_:R 
YzA#VBG3eH)^KL F-
M";W]X%b`8Lrx+$GNRMC,071242.00,A,0419.82415,S,05539.87370,E,0.098,,230525,,,A*74
$GNVTG,,T,,M,0.098,N,0.181,K,A*34
$GNGNS,071242.00,0419.82415,S,05539.87370,E,AA,13,0.84,27.5,-47.6,,*66
$GNGGA,071242.00,0419.82415,S,05539.87370,E,1,12,0.84,27.5,M,-47.6,M,,*4D
$GNGSA,A,3,24,05,15,12,29,18,25,23,,,,,1.53,0.84,1.28*1C
$GNGSA,A,3,75,71,72,76,65,,,,,,,,1.53,0.84,1.28*1F
$GPGSV,4,1,16,05,29,030,30,10,15,214,25,12,69,122,26,13,12,096,*77
$GPGSV,4,2,16,15,43,123,33,18,29,304,21,23,57,220,37,24,27,167,22*79
$GNTXT,01,01,01,More than 100 frame errors, UART RX was disabled*70
b0@H<L
EzK`%+{0#9= GMcI{!4V_:R 
YzA#EBG3#H)^KLF=
M";W]X&bH<LrP$GNRMC,071243.00,A,0419.82408,S,05539.87376,E,0.127,,230525,,,A*7A
$GNVTG,,T,,M,0.127,N,0.235,K,A*3D
$GNGNS,071243.00,0419.82408,S,05539.87376,E,AA,13,0.84,27.9,-47.6,,*61
$GNGGA,071243.00,0419.82408,S,05539.87376,E,1,12,0.84,27.9,M,-47.6,M,,*4A
$GNGSA,A,3,24,05,15,12,29,18,25,23,,,,,1.53,0.84,1.28*1C
$GNGSA,A,3,75,71,72,76,65,,,,,,,,1.53,0.84,1.28*1F
$GPGSV,4,1,16,05,29,030,29,10,15,214,25,12,69,122,26,13,12,096,*7F
$GPGSV,4,2,16,15,43,123,37,18,29,304,22,23,57,220,35,24,27,167,22*7C
$GPGSV,4,3,16,25,71,333,32,28,08,281,,29,18,355,19,36,52,277,33*7A
$GPGSV,4,4,16,40,86,351,,41,58,082,,49,32,274,,50,10,089,*79
$GLGSV,3,1,09,65,35,170,19,66,00,204,,71,09,051,19,72,41,094,25*6A
$GLGSV,3,2,09,75,27,166,22,76,70,250,31,77,34,315,,87,08,349,*61
$GLGSV,3,3,09,88,04,294,*57
$GNGLL,0419.82408,S,05539.87376,E,071243.00,A,A*64
$GNGRS,071243.00,1,-2.0,5.2,-0.8,5.9,-4.4,-11.1,2.6,-1.1,,,,*4A
$GNGRS,071243.00,1,7.2,10.6,2.0,3.2,3.3,,,,,,,*4C
$GNGST,071243.00,39,,,,3.6,3.9,9.9*4F
$GNZDA,071243.00,23,05,2025,00,00*7A
$GNTXT,01,01,01,More than 100 frame errors, UART RX was disabled*70
b0@0@L
Ez|`$+{0$9GMc`{"4V_:R 
YzA#)BG3H)^KL F
M";W]X&b0@Lr($GNRMC,071244.00,A,0419.82402,S,05539.87386,E,0.105,,230525,,,A*78
$GNVTG,,T,,M,0.105,N,0.194,K,A*35
$GNGNS,071244.00,0419.82402,S,05539.87386,E,AA,13,0.84,28.4,-47.6,,*61
$GNGGA,071244.00,0419.82402,S,05539.87386,E,1,12,0.84,28.4,M,-47.6,M,,*4A
$GNGSA,A,3,24,05,15,12,29,18,25,23,,,,,1.53,0.84,1.28*1C
$GNGSA,A,3,75,71,72,76,65,,,,,,,,1.53,0.84,1.28*1F
$GPGSV,4,1,16,05,29,030,28,10,15,214,25,12,69,122,27,13,12,096,*7F
$GPGSV,4,2,16,15,43,123,36,18,29,304,24,23,57,220,36,24,27,167,22*78
$GPGSV,4,3,16,25,71,333,31,28,08,281,,29,18,355,20,36,52,277,34*74
$GPGSV,4,4,16,40,86,351,,41,58,082,,49,32,274,,50,10,089,*79
$GLGSV,3,1,09,65,35,170,18,66,00,204,,71,09,051,19,72,41,094,25*6B
$GLGSV,3,2,09,75,27,166,21,76,70,250,32,77,34,315,,87,08,349,*61
$GNTXT,01,01,01,More than 100 frame errors, UART RX was disabled*70
b0@DL
Ez`#+{0%9xGMc{!4V_:R 
YzA#MBG3H)^KNLF#
M";W]X&bDLrc$GNRMC,071245.00,A,0419.82400,S,05539.87396,E,0.186,,230525,,,A*71
$GNVTG,,T,,M,0.186,N,0.344,K,A*31
$GNGNS,071245.00,0419.82400,S,05539.87396,E,AA,13,0.84,28.6,-47.6,,*61
$GNGGA,071245.00,0419.82400,S,05539.87396,E,1,12,0.84,28.6,M,-47.6,M,,*4A
$GNGSA,A,3,24,05,15,12,29,18,25,23,,,,,1.53,0.84,1.28*1C
$GNGSA,A,3,75,71,72,76,65,,,,,,,,1.53,0.84,1.28*1F
$GPGSV,4,1,16,05,29,030,30,10,15,214,25,12,69,122,28,13,12,096,*79
$GPGSV,4,2,16,15,43,123,35,18,29,304,23,23,57,220,37,24,27,167,22*7D
$GPGSV,4,3,16,25,71,333,31,28,08,281,,29,18,355,19,36,52,277,33*79
$GPGSV,4,4,16,40,86,351,,41,58,082,,49,32,274,,50,10,089,*79
$GLGSV,3,1,09,65,35,170,19,66,00,204,,71,09,051,19,72,41,094,26*69
$GLGSV,3,2,09,75,27,166,20,76,70,250,31,77,34,315,,87,08,349,*63
$GLGSV,3,3,09,88,04,294,*57
$GNGLL,0419.82400,S,05539.87396,E,071245.00,A,A*64
$GNGRS,071245.00,1,-0.7,3.9,-0.5,4.2,-3.5,-13.2,1.9,-1.4,,,,*4D
$GNGRS,071245.00,1,8.5,9.1,1.9,2.9,3.3,,,,,,,*7D
$GNGST,071245.00,38,,,,3.6,3.8,9.8*48
$GNZDA,071245.00,23,05,2025,00,00*7C
$GNGBS,071245.00,3.6,3.8,9.8,,,,*55
b0@HL
Ez1`#+{0%9uRGMcK{"4V_:R 
YzA#BG3iH)^KtLFT
M";W]X&PbHLr$GNRMC,071246.00,A,0419.82398,S,05539.87404,E,0.124,,230525,,,A*70
$GNVTG,,T,,M,0.124,N,0.229,K,A*33
$GNGNS,071246.00,0419.82398,S,05539.87404,E,AA,13,0.84,28.7,-47.6,,*69
$GNGGA,071246.00,0419.82398,S,05539.87404,E,1,12,0.84,28.7,M,-47.6,M,,*42
$GNGSA,A,3,24,05,15,12,29,18,25,23,,,,,1.53,0.84,1.28*1C
$GNGSA,A,3,75,71,72,76,65,,,,,,,,1.53,0.84,1.28*1F
$GPGSV,4,1,16,05,29,030,30,10,15,214,25,12,69,122,30,13,12,096,*70
$GPGSV,4,2,16,15,43,123,35,18,29,304,21,23,57,220,37,24,27,167,22*7F
$GPGSV,4,3,16,25,71,333,30,28,08,281,,29,18,355,19,36,52,277,34*7F
$GPGSV,4,4,16,40,86,351,,41,58,082,,49,32,274,,50,10,089,*79
$GLGSV,3,1,09,65,35,170,19,66,00,204,,71,09,051,19,72,41,094,27*68
$GLGSV,3,2,09,75,27,166,20,76,70,250,31,77,34,315,,87,08,349,*63
$GLGSV,3,3,09,88,04,294,*57
$GNGLL,0419.82398,S,05539.87404,E,071246.00,A,A*6D
$GNGRS,071246.00,1,0.8,5.2,-0.5,3.1,-4.4,-10.7,4.4,-1.4,,,,*6D
$GNGRS,071246.00,1,8.8,8.7,1.9,0.8,3.9,,,,,,,*7D
$GNGST,071246.00,39,,,,3.5,3.7,9.8*46
$GNZDA,071246.00,23,05,2025,00,00*7F
$GNGBS,071246.00,3.5,3.7,9.8,,,,*5A
$GNTXT,01,01,01,More than 100 frame errors, UART RX was disabled*70
b0@OL3
Ezh`G"+{0R$9GMc{!4V_:R 
YzA#BG3H)^KLF
M";W]X&$bOLr]$GNRMC,071248.00,A,0419.82389,S,05539.87418,E,0.101,,230525,,,A*74
$GNVTG,,T,,M,0.101,N,0.187,K,A*33
$GNGNS,071248.00,0419.82389,S,05539.87418,E,AA,13,0.84,29.1,-47.6,,*6D
$GNGGA,071248.00,0419.82389,S,05539.87418,E,1,12,0.84,29.1,M,-47.6,M,,*46
$GNGSA,A,3,24,05,15,12,29,18,25,23,,,,,1.53,0.84,1.28*1C
$GNGSA,A,3,75,71,72,76,65,,,,,,,,1.53,0.84,1.28*1F
$GPGSV,4,1,16,05,29,030,29,10,15,214,23,12,69,122,29,13,12,096,12*75
$GPGSV,4,2,16,15,43,123,34,18,29,304,22,23,57,220,36,24,27,167,22*7C
$GPGSV,4,3,16,25,71,333,30,28,08,281,,29,18,355,19,36,52,277,33*78
$GPGSV,4,4,16,40,86,351,,41,58,082,,49,32,274,,50,10,089,*79
$GLGSV,3,1,09,65,35,170,19,66,00,204,,71,09,051,19,72,41,094,28*67
$GLGSV,3,2,09,75,27,166,21,76,70,250,31,77,34,315,,87,08,349,*62
$GLGSV,3,3,09,88,04,294,*57
$GNGLL,0419.82389,S,05539.87418,E,071248.00,A,A*6E
$GNGRS,071248.00,1,2.2,3.1,-0.6,1.0,-1.0,-12.0,3.9,-1.2,,,,*66
$GNGRS,071248.00,1,10.2,12.4,0.2,5.1,1.8,,,,,,,*7D
$GNGST,071248.00,38,,,,3.5,3.7,9.7*46
$GNZDA,071248.00,23,05,2025,00,00*71
$GNGBS,071248.00,3.5,3.7,9.7,,,,*5B
b0@SL
Ez
`"+{0%9dGMc{!4V_:R 
YzA#lBG3H)^KLFG
M";W]X&bSLrE_$GNRMC,071249.00,A,0419.82383,S,05539.87425,E,0.104,,230525,,,A*74
$GNVTG,,T,,M,0.104,N,0.192,K,A*32
$GNGNS,071249.00,0419.82383,S,05539.87425,E,AA,13,0.84,29.2,-47.6,,*6B
$GNGGA,071249.00,0419.82383,S,05539.87425,E,1,12,0.84,29.2,M,-47.6,M,,*40
$GNGSA,A,3,24,05,15,12,29,18,25,23,,,,,1.53,0.84,1.28*1C
$GNGSA,A,3,75,71,72,76,65,,,,,,,,1.53,0.84,1.28*1F
$GPGSV,4,1,16,05,29,030,29,10,15,214,23,12,69,122,28,13,12,096,10*76
$GPGSV,4,2,16,15,43,123,34,18,29,304,23,23,57,220,37,24,27,167,23*7D
$GPGSV,4,3,16,25,71,333,29,28,08,281,,29,18,355,21,36,52,277,33*7B
$GPGSV,4,4,16,40,86,351,,41,58,082,,49,32,274,,50,10,089,*79
$GLGSV,3,1,09,65,35,170,17,66,00,204,,71,09,051,19,72,41,094,28*69
$GLGSV,3,2,09,75,27,166,20,76,70,250,30,77,34,315,,87,08,349,*62
$GLGSV,3,3,09,88,04,294,*57
$GNGLL,0419.82383,S,05539.87425,E,071249.00,A,A*6B
$GNGRS,071249.00,1,1.0,7.0,-0.4,4.7,0.2,-12.5,1.8,-1.1,,,,*48
$GNGRS,071249.00,1,10.0,12.6,-0.5,11.0,1.1,,,,,,,*6B
$GNGST,071249.00,41,,,,3.5,3.7,9.7*49
$GNZDA,071249.00,23,05,2025,00,00*70
$GNGBS,071249.00,3.5,3.7,9.7,,,,*5A
b0@WLM
Ez`"+{0%9fGMac{ 4V_:R 
YzA#BG3H)^QK8LF
M";W]X&FbWLr-7\$GNRMC,071250.00,A,0419.82375,S,05539.87433,E,0.109,,230525,,,A*7F
$GNVTG,,T,,M,0.109,N,0.201,K,A*36
$GNGNS,071250.00,0419.82375,S,05539.87433,E,AA,13,0.84,29.7,-47.6,,*68
$GNGGA,071250.00,0419.82375,S,05539.87433,E,1,12,0.84,29.7,M,-47.6,M,,*43
$GNGSA,A,3,24,05,15,12,29,18,25,23,,,,,1.53,0.84,1.28*1C
$GNGSA,A,3,75,71,72,76,65,,,,,,,,1.53,0.84,1.28*1F
$GPGSV,4,1,16,05,29,030,29,10,15,214,24,12,69,122,30,13,12,096,*79
$GPGSV,4,2,16,15,43,123,34,18,29,304,24,23,57,220,37,24,27,167,22*7B
$GPGSV,4,3,16,25,71,333,29,28,08,281,,29,18,355,20,36,52,277,32*7B
$GPGSV,4,4,16,40,86,351,,41,58,082,,49,32,274,,50,10,089,*79
$GLGSV,3,1,09,65,35,170,17,66,00,204,,71,09,051,19,72,41,094,28*69
$GLGSV,3,2,09,75,27,166,19,76,70,250,29,77,34,315,,87,08,349,*60
$GLGSV,3,3,09,88,04,294,*57
$GNGLL,0419.82375,S,05539.87433,E,071250.00,A,A*6D
$GNGRS,071250.00,1,1.0,5.9,0.1,-2.3,-0.3,-13.5,3.5,-0.9,,,,*67
$GNGRS,071250.00,1,8.2,12.3,-1.8,6.4,-0.5,,,,,,,*4B
$GNGST,071250.00,40,,,,3.5,3.6,9.7*41
$GNZDA,071250.00,23,05,2025,00,00*78
$GNGBS,071250.00,3.5,3.6,9.7,,,,*53
b0@[L]
EzO`"+{0b%9^GMc}{!4V_:R 
YzA#]BG3yH)^KLF
M";W]X&b[Lr$GNRMC,071251.00,A,0419.82367,S,05539.87437,E,0.115,,230525,,,A*74
$GNVTG,,T,,M,0.115,N,0.213,K,A*38
$GNGNS,071251.00,0419.82367,S,05539.87437,E,AA,13,0.84,29.8,-47.6,,*61
$GNGGA,071251.00,0419.82367,S,05539.87437,E,1,12,0.84,29.8,M,-47.6,M,,*4A
$GNGSA,A,3,24,05,15,12,29,18,25,23,,,,,1.53,0.84,1.28*1C
$GNGSA,A,3,75,71,72,76,65,,,,,,,,1.53,0.84,1.28*1F
$GPGSV,4,1,16,05,29,030,29,10,15,214,24,12,69,122,30,13,12,096,*79
$GPGSV,4,2,16,15,43,123,34,18,29,304,25,23,57,220,37,24,27,167,24*7C
$GPGSV,4,3,16,25,71,333,30,28,08,281,,29,18,355,20,36,52,277,33*72
$GPGSV,4,4,16,40,86,351,,41,58,082,,49,32,274,,50,10,089,*79
$GLGSV,3,1,09,65,35,170,17,66,00,204,,71,09,051,19,72,41,094,29*68
$GLGSV,3,2,09,75,27,166,19,76,70,250,31,77,34,315,,87,08,349,*69
$GLGSV,3,3,09,88,04,294,*57
$GNGLL,0419.82367,S,05539.87437,E,071251.00,A,A*6B
$GNGRS,071251.00,1,0.9,8.6,0.2,-1.8,1.3,-11.8,-0.6,-1.2,,,,*63
$GNGRS,071251.00,1,7.6,11.5,-3.4,7.5,-1.6,,,,,,,*48
$GNGST,071251.00,38,,,,3.5,3.6,9.7*4F
$GNZDA,071251.00,23,05,2025,00,00*79
$GNGBS,071251.00,3.5,3.6,9.7,,,,*52
b0@p_L
Ez`!+{70|$9'GMc&{!4V_:R 
YzA#BG3H)^UKLF
M";W]X&`bp_Lr)$GNRMC,071252.00,A,0419.82364,S,05539.87440,E,0.094,,230525,,,A*7C
$GNVTG,,T,,M,0.094,N,0.175,K,A*33
$GNGNS,071252.00,0419.82364,S,05539.87440,E,AA,13,0.84,29.7,-47.6,,*6E
$GNGGA,071252.00,0419.82364,S,05539.87440,E,1,12,0.84,29.7,M,-47.6,M,,*45
$GNGSA,A,3,24,05,15,12,29,18,25,23,,,,,1.53,0.84,1.28*1C
$GNGSA,A,3,75,71,72,76,65,,,,,,,,1.53,0.84,1.28*1F
$GPGSV,4,1,16,05,29,030,28,10,15,214,23,12,69,122,30,13,12,096,*7F
$GPGSV,4,2,16,15,43,123,33,18,29,304,26,23,57,220,36,24,27,167,25*78
$GPGSV,4,3,16,25,71,333,30,28,08,281,,29,18,355,20,36,52,277,33*72
$GPGSV,4,4,16,40,86,351,,41,58,082,,49,32,274,,50,10,089,*79
$GLGSV,3,1,09,65,35,170,15,66,00,204,,71,09,051,20,72,41,094,29*60
$GLGSV,3,2,09,75,27,166,21,76,70,250,31,77,34,315,,87,08,349,*62
$GLGSV,3,3,09,88,04,294,*57
$GNGLL,0419.82364,S,05539.87440,E,071252.00,A,A*6B
$GNGRS,071252.00,1,0.4,9.8,0.5,-0.9,2.9,-11.6,2.5,-1.2,,,,*4E
$GNGRS,071252.00,1,6.6,10.3,-4.3,5.2,-1.0,,,,,,,*4E
$GNGST,071252.00,37,,,,3.5,3.6,9.6*42
$GNZDA,071252.00,23,05,2025,00,00*7A
$GNGBS,071252.00,3.5,3.6,9.6,,,,*50
$GNTXT,01,01,01,More than 100 frame errors, UART RX was disabled*70
b0@@gL
Ez`!+{0$9GM
c{ 4V_:R 
YzA#BG3H)^IKpLF
M";W]X&$b@gLr$GNRMC,071254.00,A,0419.82365,S,05539.87440,E,0.010,,230525,,,A*77
$GNVTG,,T,,M,0.010,N,0.019,K,A*34
$GNGNS,071254.00,0419.82365,S,05539.87440,E,AA,12,0.87,29.8,-47.6,,*64
$GNGGA,071254.00,0419.82365,S,05539.87440,E,1,12,0.87,29.8,M,-47.6,M,,*4E
$GNGSA,A,3,24,05,15,12,29,18,25,23,,,,,1.57,0.87,1.30*12
$GNGSA,A,3,75,71,72,76,,,,,,,,,1.57,0.87,1.30*12
$GPGSV,4,1,16,05,29,030,29,10,15,214,23,12,69,122,30,13,12,096,*7E
$GPGSV,4,2,16,15,43,123,33,18,29,304,25,23,57,220,36,24,27,167,25*7B
$GPGSV,4,3,16,25,71,333,30,28,08,281,,29,18,355,21,36,52,277,32*72
$GPGSV,4,4,16,40,86,351,,41,58,082,,49,32,274,,50,10,089,*79
$GLGSV,3,1,09,65,35,170,,66,00,204,,71,09,051,20,72,41,094,29*64
$GLGSV,3,2,09,75,27,166,22,76,70,250,31,77,34,315,,87,08,349,*61
$GLGSV,3,3,09,88,04,294,*57
$GNGLL,0419.82365,S,05539.87440,E,071254.00,A,A*6C
$GNGRS,071254.00,1,-0.3,1.4,1.4,0.0,1.3,-7.7,0.1,-0.8,,,,*70
$GNGRS,071254.00,1,6.2,4.0,-9.5,6.4,,,,,,,,*76
$GNGST,071254.00,33,,,,3.4,3.5,9.5*41
$GNZDA,071254.00,23,05,2025,00,00*7C
$GNGBS,071254.00,3.4,3.5,9.5,,,,*57
$GNTXT,01,01,01,More than 100 frame errors, UART RX was disabled*70
$GNTXT,01,01,01,More than 100 frame errors, UART RX was disabled*70
b0@oL
E|-_!+{0$9GM=c_{!4V_:R 
YzA#BG3H)^KL Fy
M";W]X&boLrF$GNRMC,071256.00,A,0419.82368,S,05539.87444,E,0.127,,230525,,,A*79
$GNVTG,,T,,M,0.127,N,0.235,K,A*3D
$GNGNS,071256.00,0419.82368,S,05539.87444,E,AA,12,0.87,30.0,-47.6,,*6F
$GNGGA,071256.00,0419.82368,S,05539.87444,E,1,12,0.87,30.0,M,-47.6,M,,*45
$GNGSA,A,3,24,05,15,12,29,18,25,23,,,,,1.57,0.87,1.30*12
$GNGSA,A,3,75,71,72,76,,,,,,,,,1.57,0.87,1.30*12
$GPGSV,4,1,16,05,29,030,29,10,15,214,22,12,69,124,31,13,12,095,*7B
$GPGSV,4,2,16,15,43,123,33,18,29,304,26,23,57,220,36,24,27,167,26*7B
$GPGSV,4,3,16,25,71,333,30,28,08,281,,29,18,355,20,36,52,277,33*72
$GPGSV,4,4,16,40,86,351,,41,58,082,,49,32,274,,50,10,089,*79
$GLGSV,3,1,09,65,35,170,,66,00,204,,71,09,051,18,72,41,094,29*6F
$GLGSV,3,2,09,75,27,166,21,76,70,250,32,77,34,315,,87,08,349,*61
$GLGSV,3,3,09,88,04,294,*57
$GNGLL,0419.82368,S,05539.87444,E,071256.00,A,A*67
$GNGRS,071256.00,1,2.6,6.8,2.1,0.4,3.5,-8.8,-1.9,-0.7,,,,*7E
$GNGRS,071256.00,1,7.1,-0.6,-11.1,1.2,,,,,,,,*65
$GNGST,071256.00,34,,,,3.4,3.5,9.3*42
$GNZDA,071256.00,23,05,2025,00,00*7E
$GNGBS,071256.00,3.4,3.5,9.3,,,,*53
$GNTXT,01,01,01,More than 100 frame errors, UART RX was disabled*70
b0@rL
 E|_!+{0[%9GMQc.{!4V_:R 
YzA#BG3H)^9K6L F
M";W]X&brLr"$GNRMC,071257.00,A,0419.82368,S,05539.87445,E,0.031,,230525,,,A*7F
$GNVTG,,T,,M,0.031,N,0.057,K,A*3D
$GNGNS,071257.00,0419.82368,S,05539.87445,E,AA,12,0.87,29.9,-47.6,,*6E
$GNGGA,071257.00,0419.82368,S,05539.87445,E,1,12,0.87,29.9,M,-47.6,M,,*44
$GNGSA,A,3,24,05,15,12,29,18,25,23,,,,,1.57,0.87,1.30*12
$GNGSA,A,3,75,71,72,76,,,,,,,,,1.57,0.87,1.30*12
$GPGSV,4,1,16,05,29,030,28,10,15,214,23,12,69,124,32,13,12,095,*78
$GPGSV,4,2,16,15,43,123,33,18,29,304,26,23,57,220,37,24,27,167,26*7A
$GPGSV,4,3,16,25,71,333,29,28,08,281,,29,18,355,21,36,52,277,33*7B
$GPGSV,4,4,16,40,86,351,,41,58,082,,49,32,274,,50,10,089,*79
$GLGSV,3,1,09,65,35,170,,66,00,204,,71,09,051,19,72,41,094,29*6E
$GLGSV,3,2,09,75,27,166,20,76,70,250,32,77,34,315,,87,08,349,*60
$GLGSV,3,3,09,88,04,294,*57
$GNGLL,0419.82368,S,05539.87445,E,071257.00,A,A*67
$GNGRS,071257.00,1,1.5,4.9,2.4,-0.8,3.0,-9.3,-1.7,-0.7,,,,*59
$GNGRS,071257.00,1,8.2,-1.3,-12.2,2.7,,,,,,,,*6A
$GNGST,071257.00,34,,,,3.4,3.5,9.2*42
$GNZDA,071257.00,23,05,2025,00,00*7F
$GNGBS,071257.00,3.4,3.5,9.2,,,,*53
$GNTXT,01,01,01,More than 100 frame errors, UART RX was disabled*70
$GNTXT,01,01,01,More than 100 frame errors, UART RX was disabled*70
b0@~LV
E|H_!+z*0q%9GMc{#4V_:R 
YzA#BG3H)^KLF
M";W]X&b~Lr=Z$GNRMC,071300.00,A,0419.82383,S,05539.87438,E,0.053,,230525,,,A*77
$GNVTG,,T,,M,0.053,N,0.099,K,A*3B
$GNGNS,071300.00,0419.82383,S,05539.87438,E,AA,12,0.87,29.1,-47.6,,*6A
$GNGGA,071300.00,0419.82383,S,05539.87438,E,1,12,0.87,29.1,M,-47.6,M,,*40
$GNGSA,A,3,24,05,15,12,29,18,25,23,,,,,1.57,0.87,1.30*12
$GNGSA,A,3,75,71,72,76,,,,,,,,,1.57,0.87,1.30*12
$GPGSV,4,1,16,05,29,030,27,10,15,214,23,12,69,124,30,13,12,095,*75
$GPGSV,4,2,16,15,43,122,33,18,29,304,26,23,57,220,37,24,27,167,25*78
$GPGSV,4,3,16,25,71,333,31,28,08,281,,29,18,355,19,36,52,277,35*7F
$GPGSV,4,4,16,40,86,351,,41,58,082,30,49,32,274,,50,10,089,*7A
$GLGSV,3,1,09,65,35,170,,66,00,204,,71,09,051,21,72,41,094,29*65
$GLGSV,3,2,09,75,27,166,23,76,70,250,31,77,34,315,,87,08,349,*60
$GLGSV,3,3,09,88,04,294,*57
$GNGLL,0419.82383,S,05539.87438,E,071300.00,A,A*6B
$GNGRS,071300.00,1,4.1,6.0,3.0,-1.8,4.1,-9.1,-3.8,-1.0,,,,*5B
$GNGRS,071300.00,1,7.6,-2.6,-16.1,6.9,,,,,,,,*69
$GNGST,071300.00,33,,,,3.3,3.4,8.9*4A
$GNZDA,071300.00,23,05,2025,00,00*7C
$GNGBS,071300.00,3.3,3.4,8.9,,,,*5C
$GNTXT,01,01,01,More than 100 frame errors, UART RX was disabled*70
b0@L`
E|_ +zM1$9GMc{"4V_:R 
Yz0
A#BG3H)^KL F
M";W]X&;bLr%}$GNRMC,071301.00,A,0419.82388,S,05539.87433,E,0.017,,230525,,,A*76
$GNVTG,,T,,M,0.017,N,0.031,K,A*39
$GNGNS,071301.00,0419.82388,S,05539.87433,E,AA,12,0.87,28.9,-47.6,,*62
$GNGGA,071301.00,0419.82388,S,05539.87433,E,1,12,0.87,28.9,M,-47.6,M,,*48
$GNGSA,A,3,24,05,15,12,29,18,25,23,,,,,1.57,0.87,1.30*12
$GNGSA,A,3,75,71,72,76,,,,,,,,,1.57,0.87,1.30*12
$GPGSV,4,1,16,05,29,030,27,10,15,214,23,12,69,124,30,13,12,095,*75
$GPGSV,4,2,16,15,43,122,32,18,29,305,25,23,57,220,36,24,27,167,25*7A
$GPGSV,4,3,16,25,71,333,30,28,08,281,,29,18,355,19,36,52,277,34*7F
$GPGSV,4,4,16,40,86,351,,41,58,082,31,49,32,274,,50,10,089,*7B
$GLGSV,3,1,09,65,35,170,,66,00,204,,71,09,051,21,72,41,094,30*6D
$GLGSV,3,2,09,75,27,166,23,76,70,250,32,77,34,315,,87,08,349,*63
$GLGSV,3,3,09,88,04,294,*57
$GNGLL,0419.82388,S,05539.87433,E,071301.00,A,A*6A
$GNGRS,071301.00,1,4.5,6.1,3.3,-1.0,5.2,-8.4,-7.9,-0.6,,,,*50
$GNGRS,071301.00,1,7.2,-2.6,-18.1,6.9,,,,,,,,*62
$GNGST,071301.00,33,,,,3.3,3.3,8.9*4C
$GNZDA,071301.00,23,05,2025,00,00*7D
$GNGBS,071301.00,3.3,3.3,8.9,,,,*5A
$GNTXT,01,01,01,More than 100 frame errors, UART RX was disabled*70
b0@L
 E|_ +zJ1#9GM~c{"4V_ :R 
YzA#BG3]H)^ KLF
M";W]X&#bLrV,$GNRMC,071302.00,A,0419.82395,S,05539.87426,E,0.044,,230525,,,A*7B
$GNVTG,,T,,M,0.044,N,0.081,K,A*34
$GNGNS,071302.00,0419.82395,S,05539.87426,E,AA,12,0.87,28.7,-47.6,,*67
$GNGGA,071302.00,0419.82395,S,05539.87426,E,1,12,0.87,28.7,M,-47.6,M,,*4D
$GNGSA,A,3,24,05,15,12,29,18,25,23,,,,,1.57,0.87,1.30*12
$GNGSA,A,3,75,71,72,76,,,,,,,,,1.57,0.87,1.30*12
$GPGSV,4,1,16,05,29,030,28,10,15,214,23,12,69,124,32,13,12,095,*78
$GPGSV,4,2,16,15,43,122,32,18,29,305,25,23,57,220,35,24,27,167,24*78
$GPGSV,4,3,16,25,71,333,30,28,08,281,,29,18,355,18,36,52,277,34*7E
$GPGSV,4,4,16,40,86,351,,41,58,082,32,49,32,274,,50,10,089,*78
$GLGSV,3,1,09,65,35,170,,66,00,204,,71,09,051,20,72,41,094,31*6D
$GLGSV,3,2,09,75,27,166,23,76,70,250,31,77,34,315,,87,08,349,*60
$GLGSV,3,3,09,88,04,294,*57
$GNGLL,0419.82395,S,05539.87426,E,071302.00,A,A*61
$GNGRS,071302.00,1,5.0,4.2,3.3,-3.6,4.7,-8.7,-6.4,-0.4,,,,*5B
$GNGRS,071302.00,1,5.2,-1.6,-17.6,5.3,,,,,,,,*61
$GNGST,071302.00,34,,,,3.3,3.3,8.8*49
$GNZDA,071302.00,23,05,2025,00,00*7E
$GNGBS,071302.00,3.3,3.3,8.8,,,,*58
$GNTXT,01,01,01,More than 100 frame errors, UART RX was disabled*70
b0@hLl
!E|_ +zO1N#9GMc{"4V_ :R 
YzA#BG3H)^KLF
M";W]X&bhLr-$GNRMC,071303.00,A,0419.82402,S,05539.87423,E,0.060,,230525,,,A*70
$GNVTG,,T,,M,0.060,N,0.110,K,A*3B
$GNGNS,071303.00,0419.82402,S,05539.87423,E,AA,12,0.84,28.6,-47.6,,*68
$GNGGA,071303.00,0419.82402,S,05539.87423,E,1,12,0.84,28.6,M,-47.6,M,,*42
$GNGSA,A,3,24,05,15,12,29,18,25,23,,,,,1.44,0.84,1.17*16
$GNGSA,A,3,75,71,72,76,,,,,,,,,1.44,0.84,1.17*16
$GPGSV,4,1,16,05,29,030,29,10,15,214,22,12,69,124,33,13,12,095,*79
$GPGSV,4,2,16,15,43,122,32,18,29,305,25,23,57,220,35,24,27,167,26*7A
$GPGSV,4,3,16,25,71,333,31,28,08,281,,29,18,355,19,36,52,277,34*7E
$GPGSV,4,4,16,40,86,351,,41,58,082,32,49,32,274,,50,10,089,*78
$GLGSV,3,1,09,65,35,170,,66,00,204,,71,09,051,21,72,41,094,31*6C
$GLGSV,3,2,09,75,27,166,23,76,70,250,30,77,34,315,,87,08,349,*61
$GLGSV,3,3,09,88,04,294,*57
$GNGLL,0419.82402,S,05539.87423,E,071303.00,A,A*6C
$GNGRS,071303.00,1,4.9,1.1,3.3,-2.3,3.9,-9.5,-2.4,-0.4,,,,*5E
$GNGRS,071303.00,1,4.6,-2.4,-11.0,7.0,,,,,,,,*65
$GNGST,071303.00,39,,,,3.3,3.3,8.7*4A
$GNZDA,071303.00,23,05,2025,00,00*7F
$GNGBS,071303.00,3.3,3.3,8.7,,,,*56
$GNTXT,01,01,01,More than 100 frame errors, UART RX was disabled*70
b0@8L
 E|_!+zm1#9GMcg{!4V_:R 
YzLA#BG3H )^~KLFrM";W]X&Rb8Lra$GNRMC,071305.00,A,0419.82415,S,05539.87410,E,0.025,,230525,,,A*71
$GNVTG,,T,,M,0.025,N,0.047,K,A*39
$GNGNS,071305.00,0419.82415,S,05539.87410,E,AA,12,0.84,28.0,-47.6,,*6E
$GNGGA,071305.00,0419.82415,S,05539.87410,E,1,12,0.84,28.0,M,-47.6,M,,*44
$GNGSA,A,3,24,05,15,12,29,18,25,23,,,,,1.44,0.84,1.17*16
$GNGSA,A,3,75,71,72,76,,,,,,,,,1.44,0.84,1.17*16
$GPGSV,4,1,16,05,29,030,29,10,15,214,21,12,69,124,32,13,12,095,*7B
$GPGSV,4,2,16,15,43,122,33,18,29,305,25,23,57,220,35,24,27,167,24*79
$GPGSV,4,3,16,25,71,333,30,28,08,281,,29,18,355,19,36,52,277,33*78
$GNTXT,01,01,01,More than 100 frame errors, UART RX was disabled*70
$GNTXT,01,01,01,More than 100 frame errors, UART RX was disabled*70
b0@L2
!E|t_+zy1-$9HL=c/{"4V_:R 
YzbA#BG39H)^K0L Fw
M";W]X&2CbLr1$GNRMC,071307.00,A,0419.82425,S,05539.87397,E,0.088,,230525,,,A*7F
$GNVTG,,T,,M,0.088,N,0.164,K,A*3E
$GNGNS,071307.00,0419.82425,S,05539.87397,E,AA,12,0.84,27.4,-47.6,,*6C
$GNGGA,071307.00,0419.82425,S,05539.87397,E,1,12,0.84,27.4,M,-47.6,M,,*46
$GNGSA,A,3,24,05,15,12,29,18,25,23,,,,,1.44,0.84,1.17*16
$GNGSA,A,3,75,71,72,76,,,,,,,,,1.44,0.84,1.17*16
$GPGSV,4,1,16,05,29,030,29,10,15,214,20,12,69,124,33,13,12,095,*7B
$GPGSV,4,2,16,15,43,122,30,18,29,305,26,23,57,220,36,24,27,167,23*7D
$GPGSV,4,3,16,25,72,332,30,28,08,281,,29,18,355,18,36,52,277,34*7C
$GPGSV,4,4,16,40,86,351,,41,58,082,31,49,32,274,,50,10,089,*7B
$GLGSV,3,1,09,65,35,170,,66,00,204,,71,09,051,18,72,41,094,31*66
$GLGSV,3,2,09,75,27,166,22,76,70,250,32,77,34,315,,87,08,349,*62
$GLGSV,3,3,09,88,04,294,*57
$GNGLL,0419.82425,S,05539.87397,E,071307.00,A,A*65
$GNGRS,071307.00,1,7.4,3.1,3.8,-4.0,5.6,-4.7,-4.5,0.0,,,,*70
$GNTXT,01,01,01,More than 100 frame errors, UART RX was disabled*70
$GNZDA,071308.00,23,05,2025,00,00*74
$GNGBS,071308.00,3.2,3.2,8.3,,,,*59
$GNTXT,01,01,01,More than 100 frame errors, UART RX was disabled*70
$GNGRS,071309.00,1,7.2,1.7,9.1,-3.5,5.9,-4.3,-8.7,0.4,,,,*7C
$GNGRS,071309.00,1,6.3,-7.1,-12.5,6.0,,,,,,,,*6F
$GNGST,071309.00,40,,,,3.2,3.2,8.3*4A
$GNZDA,071309.00,23,05,2025,00,00*75
$GNGBS,071309.00,3.2,3.2,8.3,,,,*58
$GNTXT,01,01,01,More than 100 frame errors, UART RX was disabled*70
$GNTXT,01,01,01,More than 100 frame errors, UART RX was disabled*70
$GNGSA,A,3,75,71,72,76,,,,,,,,,1.44,0.84,1.17*16
$GPGSV,4,1,16,05,29,030,28,10,15,214,19,12,69,124,32,13,12,095,16*76
$GPGSV,4,2,16,15,43,122,30,18,29,305,25,23,57,220,35,24,27,167,22*7C
$GPGSV,4,3,16,25,72,332,30,28,08,281,,29,19,356,18,36,52,277,33*79
$GPGSV,4,4,16,40,86,351,,41,58,082,31,49,32,274,,50,10,089,*7B
$GLGSV,3,1,09,65,35,170,16,66,00,204,,71,09,051,16,72,41,094,30*6E
$GLGSV,3,2,09,75,27,166,22,76,70,250,32,77,34,315,,87,08,349,*62
$GLGSV,3,3,09,88,04,294,*57
$GNGLL,0419.82449,S,05539.87372,E,071311.00,A,A*63
$GNGRS,071311.00,1,8.4,6.5,8.5,-3.0,2.8,0.4,-2.6,0.3,,,,*5D
$GNGRS,071311.00,1,6.6,-7.8,-14.5,6.7,,,,,,,,*6B
$GNGST,071311.00,39,,,,3.2,3.2,8.2*4C
$GNZDA,071311.00,23,05,2025,00,00*7C
$GNGBS,071311.00,3.2,3.2,8.2,,,,*50
$GNTXT,01,01,01,More than 100 frame errors, UART RX was disabled*70
$GNTXT,01,01,01,More than 100 frame errors, UART RX was disabled*70
b0@xL
"E|_[+z1$9^HLXd{!4V_:R 
Yz*A#BG3"H)^)KYL F
M";W]X&bxLr,$GNRMC,071313.00,A,0419.82457,S,05539.87358,E,0.128,,230525,,,A*77
$GNVTG,,T,,M,0.128,N,0.237,K,A*30
$GNGNS,071313.00,0419.82457,S,05539.87358,E,AA,13,0.84,25.5,-47.6,,*6D
$GNGGA,071313.00,0419.82457,S,05539.87358,E,1,12,0.84,25.5,M,-47.6,M,,*46
$GNGSA,A,3,24,05,15,12,29,18,25,23,,,,,1.44,0.84,1.17*16
$GNGSA,A,3,75,71,72,76,65,,,,,,,,1.44,0.84,1.17*15
$GNTXT,01,01,01,More than 100 frame errors, UART RX was disabled*70
b0@`L
"E|
_+z-1#9%HLd{!4V_ :R 
YzA#
BG3@H)^<KUL F
M";W]X&9b`Lr/s$GNRMC,071314.00,A,0419.82465,S,05539.87351,E,0.091,,230525,,,A*7B
$GNVTG,,T,,M,0.091,N,0.169,K,A*3B
$GNGNS,071314.00,0419.82465,S,05539.87351,E,AA,13,0.84,25.1,-47.6,,*66
$GNGGA,071314.00,0419.82465,S,05539.87351,E,1,12,0.84,25.1,M,-47.6,M,,*4D
$GNGSA,A,3,24,05,15,12,29,18,25,23,,,,,1.44,0.84,1.17*16
$GNGSA,A,3,75,71,72,76,65,,,,,,,,1.44,0.84,1.17*15
$GPGSV,4,1,16,05,29,030,27,10,15,214,19,12,69,124,34,13,12,095,10*79
$GNTXT,01,01,01,More than 100 frame errors, UART RX was disabled*70
b0@HL
"E|_+zM1>$9'HLLd{4V_ :R 
YzA#BG3H)^K@L F
M";W]X&WbHLr3K_$GNRMC,071315.00,A,0419.82473,S,05539.87343,E,0.081,,230525,,,A*7F
$GNVTG,,T,,M,0.081,N,0.150,K,A*30
$GNGNS,071315.00,0419.82473,S,05539.87343,E,AA,13,0.84,24.5,-47.6,,*66
$GNGGA,071315.00,0419.82473,S,05539.87343,E,1,12,0.84,24.5,M,-47.6,M,,*4D
$GNGSA,A,3,24,05,15,12,29,18,25,23,,,,,1.44,0.84,1.17*16
$GNGSA,A,3,75,71,72,76,65,,,,,,,,1.44,0.84,1.17*15
$GPGSV,4,1,16,05,29,030,27,10,15,214,20,12,69,124,34,13,12,095,09*7B
$GPGSV,4,2,16,15,43,122,31,18,29,305,21,23,57,220,36,24,27,167,25*7D
$GPGSV,4,3,16,25,72,332,29,28,08,281,,29,19,356,18,36,52,277,31*73
$GPGSV,4,4,16,40,86,351,,41,58,082,32,49,32,274,,50,10,089,*78
$GLGSV,3,1,09,65,35,170,16,66,00,204,,71,09,051,16,72,41,094,30*6E
$GLGSV,3,2,09,75,27,166,23,76,70,250,32,77,34,315,,87,08,349,*63
$GLGSV,3,3,09,88,04,294,*57
$GNGLL,0419.82473,S,05539.87343,E,071315.00,A,A*6C
$GNGRS,071315.00,1,5.4,1.3,8.4,-3.7,6.5,3.2,-4.4,0.4,,,,*5C
$GNGRS,071315.00,1,8.3,-9.9,-13.8,4.6,24.7,,,,,,,*7D
$GNGST,071315.00,39,,,,3.3,3.2,8.2*49
$GNZDA,071315.00,23,05,2025,00,00*78
$GNGBS,071315.00,3.3,3.2,8.2,,,,*55
b0@0L
"E|_!+z1$96HL,d&{ 4V_ :R 
YzA#FBG3H)^!KL F
M";W]X&b0Lr7#$GNRMC,071316.00,A,0419.82478,S,05539.87334,E,0.079,,230525,,,A*70
$GNVTG,,T,,M,0.079,N,0.147,K,A*31
$GNGNS,071316.00,0419.82478,S,05539.87334,E,AA,13,0.82,23.9,-47.6,,*63
$GNGGA,071316.00,0419.82478,S,05539.87334,E,1,12,0.82,23.9,M,-47.6,M,,*48
$GNGSA,A,3,24,05,15,12,29,18,25,23,,,,,1.43,0.82,1.17*17
$GNGSA,A,3,75,71,72,76,65,,,,,,,,1.43,0.82,1.17*14
$GPGSV,4,1,16,05,29,030,26,10,15,214,19,12,69,124,34,13,12,095,09*70
$GPGSV,4,2,16,15,43,122,31,18,29,305,21,23,57,220,36,24,27,167,25*7D
$GPGSV,4,3,16,25,72,332,29,28,08,281,,29,19,356,17,36,52,277,32*7F
$GPGSV,4,4,16,40,86,351,,41,58,082,32,49,32,274,,50,10,089,*78
$GLGSV,3,1,09,65,35,170,17,66,00,204,,71,09,051,16,72,41,094,30*6F
$GLGSV,3,2,09,75,27,166,24,76,70,250,32,77,34,315,,87,08,349,*64
$GLGSV,3,3,09,88,04,294,*57
$GNGLL,0419.82478,S,05539.87334,E,071316.00,A,A*64
$GNGRS,071316.00,1,5.7,6.8,6.4,-3.8,8.1,5.4,-4.7,0.1,,,,*5D
$GNGRS,071316.00,1,5.3,-8.6,-12.5,4.8,18.6,,,,,,,*71
$GNGST,071316.00,41,,,,3.3,3.2,8.2*45
$GNZDA,071316.00,23,05,2025,00,00*7B
$GNGBS,071316.00,3.3,3.2,8.2,,,,*56
$GNTXT,01,01,01,More than 100 frame errors, UART RX was disabled*70
b0@LF
#E|
_+z1Y$9HLd{!4V_ :R 
YzA#QBG3)H)^KqL FM";W]X&bLr;/$GNRMC,071317.00,A,0419.82485,S,05539.87323,E,0.024,,230525,,,A*7D
$GNVTG,,T,,M,0.024,N,0.045,K,A*3A
$GNGNS,071317.00,0419.82485,S,05539.87323,E,AA,14,0.80,23.1,-47.6,,*6B
$GNGGA,071317.00,0419.82485,S,05539.87323,E,1,12,0.80,23.1,M,-47.6,M,,*47
$GNGSA,A,3,24,05,13,15,12,29,18,25,23,,,,1.40,0.80,1.15*16
$GNGSA,A,3,75,71,72,76,65,,,,,,,,1.40,0.80,1.15*17
$GPGSV,4,1,16,05,29,030,27,10,15,214,17,12,69,124,35,13,12,095,10*76
$GNTXT,01,01,01,More than 100 frame errors, UART RX was disabled*70
b0@Lf
"E|
_+z1,$9^HLd {!4V_:R 
YzA#FBG3vH)^KLF
M";W]X&FbLr?$GNRMC,071318.00,A,0419.82491,S,05539.87314,E,0.093,,230525,,,A*7F
$GNVTG,,T,,M,0.093,N,0.173,K,A*32
$GNGNS,071318.00,0419.82491,S,05539.87314,E,AA,14,0.80,22.5,-47.6,,*60
$GNGGA,071318.00,0419.82491,S,05539.87314,E,1,12,0.80,22.5,M,-47.6,M,,*4C
$GNGSA,A,3,24,05,13,15,12,29,18,25,23,,,,1.40,0.80,1.15*16
$GNGSA,A,3,75,71,72,76,65,,,,,,,,1.40,0.80,1.15*17
$GPGSV,4,1,16,05,29,030,27,10,15,214,15,12,69,124,34,13,12,095,10*75
$GPGSV,4,2,16,15,43,122,29,18,29,305,20,23,57,220,36,24,27,167,24*74
$GPGSV,4,3,16,25,72,332,29,28,08,281,,29,19,356,19,36,52,277,33*70
$GPGSV,4,4,16,40,86,351,,41,58,082,31,49,32,274,,50,10,089,*7B
$GLGSV,3,1,09,65,35,170,18,66,00,204,,71,09,051,16,72,41,094,30*60
$GLGSV,3,2,09,75,27,166,24,76,70,250,31,77,34,315,,87,08,349,*67
$GLGSV,3,3,09,88,04,294,*57
$GNGLL,0419.82491,S,05539.87314,E,071318.00,A,A*6F
$GNGRS,071318.00,1,8.6,6.1,-12.6,9.8,-3.5,8.0,8.1,-5.0,0.0,,,*60
$GNGRS,071318.00,1,5.1,-11.6,-11.0,4.2,13.5,,,,,,,*41
$GNGST,071318.00,47,,,,3.3,3.2,8.2*4D
$GNZDA,071318.00,23,05,2025,00,00*75
$GNGBS,071318.00,3.3,3.2,8.2,,,,*58
$GNTXT,01,01,01,More than 100 frame errors, UART RX was disabled*70
b0@L
!E|_f+zg1$9HLd{!4V_:R 
Yz%A#BG3H)^KeL F
M";W]X&bLruC$GNRMC,071319.00,A,0419.82494,S,05539.87309,E,0.048,,230525,,,A*71
$GNVTG,,T,,M,0.048,N,0.090,K,A*38
$GNGNS,071319.00,0419.82494,S,05539.87309,E,AA,13,0.82,22.2,-47.6,,*6A
$GNGGA,071319.00,0419.82494,S,05539.87309,E,1,12,0.82,22.2,M,-47.6,M,,*41
$GNGSA,A,3,24,05,15,12,29,18,25,23,,,,,1.43,0.82,1.17*17
$GNGSA,A,3,75,71,72,76,65,,,,,,,,1.43,0.82,1.17*14
$GPGSV,4,1,16,05,29,030,27,10,15,214,16,12,69,124,33,13,12,095,09*79
$GPGSV,4,2,16,15,43,122,29,18,29,305,22,23,57,220,36,24,27,167,25*77
$GPGSV,4,3,16,25,72,332,28,28,08,281,,29,19,356,19,36,52,277,33*71
$GPGSV,4,4,16,40,86,351,,41,58,082,31,49,32,274,,50,10,089,*7B
$GLGSV,3,1,09,65,35,170,20,66,00,204,,71,09,051,16,72,41,094,30*6B
$GLGSV,3,2,09,75,27,166,24,76,70,250,32,77,34,315,,87,08,349,*64
$GLGSV,3,3,09,88,04,294,*57
$GNGLL,0419.82494,S,05539.87309,E,071319.00,A,A*67
$GNGRS,071319.00,1,5.2,5.1,8.7,-3.2,9.4,7.4,-5.7,0.0,,,,*5C
$GNGRS,071319.00,1,3.6,-11.3,-10.5,2.8,11.9,,,,,,,*42
$GNGST,071319.00,40,,,,3.3,3.2,8.2*4B
$GNZDA,071319.00,23,05,2025,00,00*74
$GNGBS,071319.00,3.3,3.2,8.2,,,,*59
$GLGSV,3,1,09,65,35,170,19,66,00,204,,71,09,051,16,72,41,094,30*61
$GLGSV,3,2,09,75,27,166,23,76,70,250,32,77,34,315,,87,08,349,*63
$GLGSV,3,3,09,88,04,294,*57
$GNGLL,0419.82499,S,05539.87304,E,071320.00,A,A*6D
$GNGRS,071320.00,1,4.7,6.3,9.5,-2.6,10.7,6.4,-6.6,-0.1,,,,*41
$GNGRS,071320.00,1,1.9,-10.7,-5.9,-2.4,15.1,,,,,,,*55
$GNGST,071320.00,40,,,,3.3,3.2,8.2*41
$GNZDA,071320.00,23,05,2025,00,00*7E
$GNGBS,071320.00,3.3,3.2,8.2,,,,*53
$GNTXT,01,01,01,More than 100 frame errors, UART RX was disabled*70
b0@L7
"E|Z_+z1$9vHLd;{!4V_ :R 
YzA#pBG3H)^lKeL!F
M";W]X&bLrS
$GNRMC,071323.00,A,0419.82508,S,05539.87281,E,0.082,,230525,,,A*7B
$GNVTG,,T,,M,0.082,N,0.152,K,A*31
$GNGNS,071323.00,0419.82508,S,05539.87281,E,AA,13,0.82,20.3,-47.6,,*65
$GNGGA,071323.00,0419.82508,S,05539.87281,E,1,12,0.82,20.3,M,-47.6,M,,*4E
$GNGSA,A,3,24,05,15,12,29,18,25,23,,,,,1.43,0.82,1.16*16
$GNGSA,A,3,75,71,72,76,65,,,,,,,,1.43,0.82,1.16*15
$GPGSV,4,1,16,05,29,030,27,10,15,214,17,12,69,124,34,13,12,095,08*7E
$GPGSV,4,2,16,15,43,122,29,18,29,305,22,23,57,220,36,24,27,167,24*76
$GPGSV,4,3,16,25,72,332,28,28,08,281,,29,19,356,20,36,52,277,33*7B
$GPGSV,4,4,16,40,86,351,,41,58,082,32,49,32,274,,50,10,089,*78
$GLGSV,3,1,09,65,35,170,20,66,00,204,,71,09,051,15,72,41,094,30*68
$GLGSV,3,2,09,75,27,166,23,76,70,250,33,77,34,315,,87,08,349,*62
$GLGSV,3,3,09,88,04,294,*57
$GNGLL,0419.82508,S,05539.87281,E,071323.00,A,A*6B
$GNGRS,071323.00,1,1.2,5.7,7.7,-1.7,8.3,8.0,-3.5,-0.6,,,,*7D
$GNGRS,071323.00,1,1.0,-9.9,-9.2,4.3,13.9,,,,,,,*4C
$GNGST,071323.00,41,,,,3.3,3.3,8.2*42
$GNZDA,071323.00,23,05,2025,00,00*7D
$GNGBS,071323.00,3.3,3.3,8.2,,,,*51
$GNTXT,01,01,01,More than 100 frame errors, UART RX was disabled*70
b0@pL(
!E|e
_G+z1$9!HLd{!4V_ :R 
YzA#BG3cH)^KL!F
M";W]X&bpLrV$GNRMC,071324.00,A,0419.82515,S,05539.87273,E,0.146,,230525,,,A*74
$GNVTG,,T,,M,0.146,N,0.271,K,A*3A
$GNGNS,071324.00,0419.82515,S,05539.87273,E,AA,13,0.82,19.6,-47.6,,*6C
$GNGGA,071324.00,0419.82515,S,05539.87273,E,1,12,0.82,19.6,M,-47.6,M,,*47
$GNGSA,A,3,24,05,15,12,29,18,25,23,,,,,1.43,0.82,1.16*16
$GNGSA,A,3,75,71,72,76,65,,,,,,,,1.43,0.82,1.16*15
$GPGSV,4,1,16,05,29,030,27,10,15,214,15,12,69,124,33,13,12,095,10*72
$GPGSV,4,2,16,15,43,122,29,18,29,305,23,23,57,220,36,24,27,167,25*76
$GPGSV,4,3,16,25,72,332,28,28,08,281,,29,19,356,19,36,52,277,33*71
$GPGSV,4,4,16,40,86,351,,41,58,082,32,49,32,274,,50,10,089,*78
$GLGSV,3,1,09,65,35,170,20,66,00,204,,71,09,051,15,72,41,094,30*68
$GLGSV,3,2,09,75,27,166,22,76,70,250,33,77,34,315,,87,08,349,*63
$GLGSV,3,3,09,88,04,294,*57
$GNGLL,0419.82515,S,05539.87273,E,071324.00,A,A*6D
$GNGRS,071324.00,1,0.3,3.0,10.2,-1.6,6.4,7.6,-3.8,-0.8,,,,*4A
$GNGRS,071324.00,1,0.2,-11.8,-10.6,-0.1,12.5,,,,,,,*6A
$GNGST,071324.00,41,,,,3.3,3.3,8.2*45
$GNZDA,071324.00,23,05,2025,00,00*7A
$GNGBS,071324.00,3.3,3.3,8.2,,,,*56
$GNTXT,01,01,01,More than 100 frame errors, UART RX was disabled*70
b0@XL
!E|p
_+z1j$9HLd{!4V_ :R 
YzA#<BG3EH)^K+L!FM";W]X&PlbXLrZ]$GNRMC,071325.00,A,0419.82519,S,05539.87267,E,0.158,,230525,,,A*73
$GNVTG,,T,,M,0.158,N,0.293,K,A*39
$GNGNS,071325.00,0419.82519,S,05539.87267,E,AA,13,0.82,19.2,-47.6,,*60
$GNGGA,071325.00,0419.82519,S,05539.87267,E,1,12,0.82,19.2,M,-47.6,M,,*4B
$GNGSA,A,3,24,05,15,12,29,18,25,23,,,,,1.43,0.82,1.16*16
$GNGSA,A,3,75,71,72,76,65,,,,,,,,1.43,0.82,1.16*15
$GPGSV,4,1,16,05,29,030,26,10,15,214,16,12,69,124,33,13,12,095,10*70
$GPGSV,4,2,16,15,43,122,29,18,29,305,23,23,57,220,36,24,27,167,23*70
$GPGSV,4,3,16,25,72,332,28,28,08,281,,29,19,356,20,36,52,277,33*7B
$GPGSV,4,4,16,40,86,351,,41,58,082,32,49,32,274,,50,10,089,*78
$GLGSV,3,1,09,65,35,170,20,66,00,204,,71,09,051,16,72,41,094,30*6B
$GLGSV,3,2,09,75,27,166,21,76,70,250,33,77,34,315,,87,08,349,*60
$GLGSV,3,3,09,88,04,294,*57
$GNGLL,0419.82519,S,05539.87267,E,071325.00,A,A*65
$GNGRS,071325.00,1,-0.6,3.8,10.5,-1.4,6.8,6.2,-3.2,-0.8,,,,*6D
$GNGRS,071325.00,1,0.4,-9.5,-11.3,-0.6,10.8,,,,,,,*55
$GNGST,071325.00,41,,,,3.3,3.3,8.2*44
$GNZDA,071325.00,23,05,2025,00,00*7B
$GNGBS,071325.00,3.3,3.3,8.2,,,,*57
b0@@L
!E|_#+z#1$9]HLd{ 4V_ :R 
YzA##BG3bH)^&KL F
M";W]X&Ob@Lr^$GNRMC,071326.00,A,0419.82525,S,05539.87268,E,0.307,,230525,,,A*78
$GNVTG,,T,,M,0.307,N,0.568,K,A*32
$GNGNS,071326.00,0419.82525,S,05539.87268,E,AA,13,0.82,19.3,-47.6,,*62
$GNGGA,071326.00,0419.82525,S,05539.87268,E,1,12,0.82,19.3,M,-47.6,M,,*49
$GNGSA,A,3,24,05,15,12,29,18,25,23,,,,,1.43,0.82,1.16*16
$GNGSA,A,3,75,71,72,76,65,,,,,,,,1.43,0.82,1.16*15
$GPGSV,4,1,16,05,29,030,26,10,15,214,16,12,69,124,33,13,12,095,09*78
$GPGSV,4,2,16,15,43,122,29,18,29,305,21,23,57,220,36,24,27,167,24*75
$GPGSV,4,3,16,25,72,332,27,28,08,281,,29,19,356,18,36,52,277,32*7E
$GPGSV,4,4,16,40,86,351,,41,58,082,32,49,32,274,,50,10,089,*78
$GLGSV,3,1,09,65,35,170,19,66,00,204,,71,09,051,16,72,41,094,30*61
$GLGSV,3,2,09,75,27,166,21,76,70,250,32,77,34,315,,87,08,349,*61
$GLGSV,3,3,09,88,04,294,*57
$GNGLL,0419.82525,S,05539.87268,E,071326.00,A,A*66
$GNGRS,071326.00,1,-1.6,0.0,8.0,-1.0,6.6,7.7,-1.1,-0.7,,,,*58
$GNGRS,071326.00,1,2.0,-9.3,-7.3,-1.1,10.6,,,,,,,*69
$GNGST,071326.00,42,,,,3.4,3.3,8.2*43
$GNZDA,071326.00,23,05,2025,00,00*78
$GNGBS,071326.00,3.4,3.3,8.2,,,,*53
$GNTXT,01,01,01,More than 100 frame errors, UART RX was disabled*70
b0@(L
!E|_9+z]1>$9HLd{!4V_:R 
YzA#BG3H)^KL!F
M";W]X&b(Lrbi-$GNRMC,071327.00,A,0419.82530,S,05539.87266,E,0.103,,230525,,,A*75
$GNVTG,,T,,M,0.103,N,0.191,K,A*36
$GNGNS,071327.00,0419.82530,S,05539.87266,E,AA,13,0.82,19.4,-47.6,,*6E
$GNGGA,071327.00,0419.82530,S,05539.87266,E,1,12,0.82,19.4,M,-47.6,M,,*45
$GNGSA,A,3,24,05,15,12,29,18,25,23,,,,,1.42,0.82,1.16*17
