$GNRMC,104747.00,A,0419.97497,S,05539.82216,E,0.079,,020625,,,D*77
$GNVTG,,T,,M,0.079,N,0.147,K,D*34
$GNGGA,104747.00,0419.97497,S,05539.82216,E,2,12,0.73,17.9,M,-47.6,M,,0000*40
$GNGSA,A,3,32,29,28,10,18,16,31,25,,,,,1.51,0.73,1.32*17
$GNGSA,A,3,69,68,81,82,,,,,,,,,1.51,0.73,1.32*1F
$GPGSV,5,1,17,10,24,345,18,16,24,264,20,18,29,058,27,23,08,024,*71
$GPGSV,5,2,17,24,00,061,,25,06,139,12,26,30,232,24,27,26,324,*76
$GPGSV,5,3,17,28,36,172,23,29,31,143,27,31,21,201,28,32,81,339,28*7A
$GPGSV,5,4,17,36,52,277,,40,84,353,29,41,58,082,30,49,32,274,*74
$GPGSV,5,5,17,50,10,089,*4A
$GLGSV,2,1,08,68,39,356,27,69,60,274,23,70,10,217,,79,13,163,*6C
$GLGSV,2,2,08,80,14,215,,81,28,114,19,82,43,055,18,83,19,360,*6B
$GNGLL,0419.97497,S,05539.82216,E,104747.00,A,D*63
$GNRMC,104748.00,A,0419.97485,S,05539.82214,E,0.338,,020625,,,D*7F
$GNVTG,,T,,M,0.338,N,0.626,K,D*32
$GNGGA,104748.00,0419.97485,S,05539.82214,E,2,11,0.76,17.9,M,-47.6,M,,0000*48
$GNGSA,A,3,32,29,28,10,18,16,31,25,,,,,1.53,0.76,1.33*11
$GNGSA,A,3,69,68,82,,,,,,,,,,1.53,0.76,1.33*10
$GPGSV,5,1,17,10,24,345,16,16,24,264,19,18,29,058,25,23,08,024,*77
$GPGSV,5,2,17,24,00,061,,25,06,139,10,26,30,232,21,27,26,324,*71
$GPGSV,5,3,17,28,36,172,19,29,31,143,26,31,21,201,28,32,81,339,17*7E
$GPGSV,5,4,17,36,52,277,,40,84,353,26,41,58,082,28,49,32,274,*72
$GPGSV,5,5,17,50,10,089,*4A
$GLGSV,2,1,08,68,39,356,24,69,60,274,23,70,10,217,,79,13,163,*6F
$GLGSV,2,2,08,80,14,215,,81,28,114,,82,43,055,17,83,19,360,*6C
$GNGLL,0419.97485,S,05539.82214,E,104748.00,A,D*6D
$GNRMC,104749.00,A,0419.97483,S,05539.82210,E,0.053,,020625,,,D*72
$GNVTG,,T,,M,0.053,N,0.097,K,D*30
$GNGGA,104749.00,0419.97483,S,05539.82210,E,2,11,0.76,17.7,M,-47.6,M,,0000*45
$GNGSA,A,3,32,29,28,10,18,16,31,25,,,,,1.53,0.76,1.33*11
$GNGSA,A,3,69,68,82,,,,,,,,,,1.53,0.76,1.33*10
$GPGSV,5,1,17,10,24,345,16,16,24,264,21,18,29,058,26,23,08,024,*7F
$GPGSV,5,2,17,24,00,061,,25,06,139,15,26,30,232,19,27,26,324,*7F
$GPGSV,5,3,17,28,36,172,21,29,31,143,27,31,21,201,36,32,81,339,28*77
$GPGSV,5,4,17,36,52,277,,40,84,353,28,41,58,082,33,49,32,274,*76
$GPGSV,5,5,17,50,10,089,*4A
$GLGSV,2,1,08,68,39,356,23,69,60,274,23,70,10,217,,79,13,163,*68
$GLGSV,2,2,08,80,14,215,,81,28,114,,82,43,055,18,83,19,360,*63
$GNGLL,0419.97483,S,05539.82210,E,104749.00,A,D*6E
$GNRMC,104750.00,A,0419.97483,S,05539.82204,E,0.139,,020625,,,D*72
$GNVTG,,T,,M,0.139,N,0.258,K,D*3C
$GNGGA,104750.00,0419.97483,S,05539.82204,E,2,11,0.77,17.9,M,-47.6,M,,0000*47
$GNGSA,A,3,32,29,28,10,18,16,31,25,,,,,1.64,0.77,1.45*15
$GNGSA,A,3,69,68,82,,,,,,,,,,1.64,0.77,1.45*14
$GPGSV,5,1,17,10,24,345,18,16,24,264,24,18,29,058,27,23,08,024,*75
$GPGSV,5,2,17,24,00,061,,25,06,139,09,26,30,232,19,27,26,324,*72
$GPGSV,5,3,17,28,36,172,22,29,31,143,27,31,21,201,28,32,81,339,29*7A
$GPGSV,5,4,17,36,52,277,,40,84,353,31,41,58,082,34,49,32,274,*79
$GPGSV,5,5,17,50,10,089,*4A
$GLGSV,2,1,08,68,39,356,25,69,60,274,26,70,10,217,,79,13,163,*6B
$GLGSV,2,2,08,80,14,215,,81,28,114,22,82,43,055,18,83,19,360,*63
$GNGLL,0419.97483,S,05539.82204,E,104750.00,A,D*63
$GNRMC,104751.00,A,0419.97493,S,05539.82210,E,0.241,,020625,,,D*7B
$GNVTG,,T,,M,0.241,N,0.447,K,D*38
$GNGGA,104751.00,0419.97493,S,05539.82210,E,2,11,0.76,17.7,M,-47.6,M,,0000*4D
$GNGSA,A,3,32,29,28,10,18,16,31,25,,,,,1.53,0.76,1.33*11
$GNGSA,A,3,69,68,82,,,,,,,,,,1.53,0.76,1.33*10
$GPGSV,5,1,17,10,24,345,17,16,24,264,22,18,29,058,24,23,08,024,13*7D
$GPGSV,5,2,17,24,00,061,,25,06,139,12,26,30,232,20,27,26,324,*72
$GPGSV,5,3,17,28,36,172,20,29,31,143,26,31,21,201,26,32,81,339,21*7F
$GPGSV,5,4,17,36,52,277,,40,84,353,29,41,58,082,29,49,32,274,*7C
$GPGSV,5,5,17,50,10,089,*4A
$GLGSV,2,1,08,68,39,356,24,69,60,274,23,70,10,217,,79,13,163,*6F
$GLGSV,2,2,08,80,14,215,,81,28,114,20,82,43,055,17,83,19,360,*6E
$GNGLL,0419.97493,S,05539.82210,E,104751.00,A,D*66
$GNRMC,104752.00,A,0419.97496,S,05539.82209,E,0.129,,020625,,,D*78
$GNVTG,,T,,M,0.129,N,0.238,K,D*3B
$GNGGA,104752.00,0419.97496,S,05539.82209,E,2,12,0.73,17.9,M,-47.6,M,,0000*4B
$GNGSA,A,3,32,29,28,10,18,16,31,25,,,,,1.51,0.73,1.32*17
$GNGSA,A,3,69,68,81,82,,,,,,,,,1.51,0.73,1.32*1F
$GPGSV,5,1,17,10,24,345,15,16,24,264,20,18,29,058,23,23,08,024,08*70
$GPGSV,5,2,17,24,00,061,,25,06,139,15,26,30,232,22,27,26,324,*77
$GPGSV,5,3,17,28,36,172,22,29,31,143,27,31,21,201,29,32,81,339,30*73
$GPGSV,5,4,17,36,52,277,,40,84,353,31,41,58,082,32,49,32,274,*7F
$GPGSV,5,5,17,50,10,089,*4A
$GLGSV,2,1,08,68,39,356,23,69,60,274,23,70,10,217,,79,13,163,*68
$GLGSV,2,2,08,80,14,215,,81,28,114,20,82,43,055,15,83,19,360,*6C
$GNGLL,0419.97496,S,05539.82209,E,104752.00,A,D*68
$GNRMC,104753.00,A,0419.97503,S,05539.82174,E,0.948,,020625,,,D*72
$GNVTG,,T,,M,0.948,N,1.755,K,D*3B
$GNGGA,104753.00,0419.97503,S,05539.82174,E,2,12,0.73,18.1,M,-47.6,M,,0000*49
$GNGSA,A,3,32,29,28,10,18,16,31,25,,,,,1.51,0.73,1.32*17
$GNGSA,A,3,69,68,81,82,,,,,,,,,1.51,0.73,1.32*1F
$GPGSV,5,1,17,10,24,345,13,16,24,264,17,18,29,058,21,23,08,024,06*7E
$GPGSV,5,2,17,24,00,061,,25,06,139,09,26,30,232,21,27,26,324,*79
$GPGSV,5,3,17,28,36,172,20,29,31,143,26,31,21,201,21,32,81,339,28*71
$GPGSV,5,4,17,36,52,277,,40,84,353,29,41,58,082,,49,32,274,*77
$GPGSV,5,5,17,50,10,089,*4A
$GLGSV,2,1,08,68,38,357,22,69,60,274,24,70,10,217,,79,13,163,*6E
$GLGSV,2,2,08,80,14,215,,81,28,114,19,82,43,055,15,83,19,360,*66
$GNGLL,0419.97503,S,05539.82174,E,104753.00,A,D*6D
$GNRMC,104754.00,A,0419.97509,S,05539.82180,E,0.265,,020625,,,D*70
$GNVTG,,T,,M,0.265,N,0.491,K,D*35
$GNGGA,104754.00,0419.97509,S,05539.82180,E,2,12,0.73,18.4,M,-47.6,M,,0000*4A
$GNGSA,A,3,32,29,28,10,18,16,31,25,,,,,1.51,0.73,1.32*17
$GNGSA,A,3,69,68,81,82,,,,,,,,,1.51,0.73,1.32*1F
$GPGSV,5,1,17,10,24,345,15,16,24,264,19,18,29,058,23,23,08,024,05*77
$GPGSV,5,2,17,24,00,061,,25,06,139,10,26,30,232,21,27,26,324,*71
$GPGSV,5,3,17,28,36,172,21,29,31,143,27,31,21,201,30,32,81,339,30*78
$GPGSV,5,4,17,36,52,277,,40,84,353,32,41,58,082,,49,32,274,*7D
$GPGSV,5,5,17,50,10,089,*4A
$GLGSV,2,1,08,68,38,357,25,69,60,276,24,70,10,217,,79,13,163,*6B
$GLGSV,2,2,08,80,14,215,,81,28,114,16,82,43,055,13,83,19,360,*6F
$GNGLL,0419.97509,S,05539.82180,E,104754.00,A,D*6B
$GNRMC,104755.00,A,0419.97509,S,05539.82181,E,0.048,,020625,,,D*7D
$GNVTG,,T,,M,0.048,N,0.088,K,D*34
$GNGGA,104755.00,0419.97509,S,05539.82181,E,2,11,0.74,18.4,M,-47.6,M,,0000*4E
$GNGSA,A,3,32,29,28,10,18,16,31,,,,,,1.63,0.74,1.45*16
$GNGSA,A,3,69,68,81,82,,,,,,,,,1.63,0.74,1.45*19
$GPGSV,5,1,17,10,24,345,16,16,24,264,18,18,29,058,22,23,08,024,07*76
$GPGSV,5,2,17,24,00,061,,25,06,139,06,26,30,232,19,27,26,324,*7D
$GPGSV,5,3,17,28,36,172,19,29,31,143,26,31,21,201,29,32,81,339,29*72
$GPGSV,5,4,17,36,52,277,,40,84,353,29,41,58,082,,49,32,274,*77
$GPGSV,5,5,17,50,10,089,*4A
$GLGSV,2,1,08,68,38,357,24,69,60,276,23,70,10,218,,79,13,163,*62
$GLGSV,2,2,08,80,14,215,,81,28,114,18,82,43,055,15,83,19,360,*67
$GNGLL,0419.97509,S,05539.82181,E,104755.00,A,D*6B
$GNRMC,104756.00,A,0419.97517,S,05539.82194,E,0.294,,020625,,,D*76
$GNVTG,,T,,M,0.294,N,0.544,K,D*32
$GNGGA,104756.00,0419.97517,S,05539.82194,E,2,12,0.73,19.0,M,-47.6,M,,0000*47
$GNGSA,A,3,32,29,28,10,18,16,31,25,,,,,1.51,0.73,1.32*17
$GNGSA,A,3,69,68,81,82,,,,,,,,,1.51,0.73,1.32*1F
$GPGSV,5,1,17,10,24,345,15,16,24,264,18,18,29,058,20,23,08,024,07*77
$GPGSV,5,2,17,24,00,061,,25,06,139,07,26,30,232,18,27,26,324,*7D
$GPGSV,5,3,17,28,36,172,19,29,31,143,31,31,21,201,29,32,81,339,28*75
$GPGSV,5,4,17,36,52,277,,40,84,353,28,41,58,082,,49,32,274,*76
$GPGSV,5,5,17,50,10,089,*4A
$GLGSV,2,1,08,68,38,357,21,69,60,276,22,70,10,218,,79,13,163,*66
$GLGSV,2,2,08,80,14,215,,81,28,114,18,82,43,055,14,83,19,360,*66
$GNGLL,0419.97517,S,05539.82194,E,104756.00,A,D*63
$GNRMC,104757.00,A,0419.97527,S,05539.82196,E,0.181,,020625,,,D*71
$GNVTG,,T,,M,0.181,N,0.336,K,D*36
$GNGGA,104757.00,0419.97527,S,05539.82196,E,2,12,0.73,19.0,M,-47.6,M,,0000*47
$GNGSA,A,3,32,29,23,28,10,18,16,31,25,,,,1.51,0.73,1.32*16
$GNGSA,A,3,69,68,81,82,,,,,,,,,1.51,0.73,1.32*1F
$GPGSV,5,1,17,10,24,345,15,16,24,264,17,18,29,058,20,23,08,024,07*78
$GPGSV,5,2,17,24,00,061,,25,06,139,11,26,30,232,20,27,26,324,*71
$GPGSV,5,3,17,28,36,172,17,29,31,143,25,31,21,201,28,32,81,339,27*70
$GPGSV,5,4,17,36,52,277,,40,84,353,29,41,58,082,,49,32,274,*77
$GPGSV,5,5,17,50,10,089,*4A
$GLGSV,2,1,08,68,38,357,19,69,60,276,21,70,10,218,,79,13,163,*6E
$GLGSV,2,2,08,80,14,215,,81,28,114,18,82,43,055,14,83,19,360,*66
$GNGLL,0419.97527,S,05539.82196,E,104757.00,A,D*63
$GNRMC,104758.00,A,0419.97524,S,05539.82199,E,0.116,,020625,,,D*7C
$GNVTG,,T,,M,0.116,N,0.215,K,D*38
$GNGGA,104758.00,0419.97524,S,05539.82199,E,2,12,0.76,19.2,M,-47.6,M,,0000*43
$GNGSA,A,3,32,29,23,28,10,18,16,31,25,,,,1.59,0.76,1.40*1E
$GNGSA,A,3,69,68,81,82,,,,,,,,,1.59,0.76,1.40*17
$GPGSV,5,1,17,10,24,345,12,16,24,264,16,18,29,058,21,23,08,024,07*7F
$GPGSV,5,2,17,24,00,061,,25,06,139,09,26,30,232,20,27,26,324,*78
$GPGSV,5,3,17,28,36,172,16,29,31,143,25,31,21,201,27,32,81,339,25*7C
$GPGSV,5,4,17,36,52,277,,40,84,353,27,41,58,082,,49,32,274,*79
$GPGSV,5,5,17,50,10,089,*4A
$GLGSV,2,1,08,68,38,357,17,69,60,276,22,70,10,218,,79,13,163,*63
$GLGSV,2,2,08,80,14,215,,81,28,114,17,82,43,055,08,83,19,360,*64
$GNGLL,0419.97524,S,05539.82199,E,104758.00,A,D*60
$GNRMC,104759.00,A,0419.97519,S,05539.82211,E,0.127,,020625,,,D*72
$GNVTG,,T,,M,0.127,N,0.236,K,D*3B
$GNGGA,104759.00,0419.97519,S,05539.82211,E,2,12,0.79,19.2,M,-47.6,M,,0000*40
$GNGSA,A,3,32,29,23,28,10,18,16,31,25,,,,1.63,0.79,1.43*1B
$GNGSA,A,3,69,68,81,,,,,,,,,,1.63,0.79,1.43*18
$GPGSV,5,1,17,10,24,345,14,16,24,264,15,18,29,058,23,23,08,024,08*77
$GPGSV,5,2,17,24,00,061,,25,06,139,12,26,30,232,23,27,26,324,*71
$GPGSV,5,3,17,28,36,172,16,29,31,143,26,31,21,201,32,32,81,339,28*76
$GPGSV,5,4,17,36,52,277,,40,84,353,29,41,58,082,,49,32,274,*77
$GPGSV,5,5,17,50,10,089,*4A
$GLGSV,2,1,08,68,38,357,19,69,60,276,25,70,10,218,,79,13,163,*6A
$GLGSV,2,2,08,80,14,215,,81,28,114,18,82,43,055,07,83,19,360,*64
$GNGLL,0419.97519,S,05539.82211,E,104759.00,A,D*6C
$GNRMC,104800.00,A,0419.97520,S,05539.82215,E,0.131,,020625,,,D*78
$GNVTG,,T,,M,0.131,N,0.242,K,D*3F
$GNGGA,104800.00,0419.97520,S,05539.82215,E,2,12,0.76,19.3,M,-47.6,M,,0000*43
$GNGSA,A,3,32,29,28,10,18,16,31,25,,,,,1.59,0.76,1.40*1F
$GNGSA,A,3,69,68,81,82,,,,,,,,,1.59,0.76,1.40*17
$GPGSV,5,1,17,10,24,345,15,16,24,264,16,18,29,058,21,23,08,024,08*77
$GPGSV,5,2,17,24,00,061,,25,06,139,10,26,30,232,23,27,26,324,*73
$GPGSV,5,3,17,28,36,172,15,29,31,143,26,31,21,201,27,32,81,339,28*71
$GPGSV,5,4,17,36,52,277,,40,84,353,29,41,58,082,,49,32,274,*77
$GPGSV,5,5,17,50,10,089,*4A
$GLGSV,2,1,08,68,38,357,20,69,60,276,23,70,10,218,,79,13,163,*66
$GLGSV,2,2,08,80,14,215,,81,28,114,19,82,43,055,09,83,19,360,*6B
$GNGLL,0419.97520,S,05539.82215,E,104800.00,A,D*61
$GNRMC,104801.00,A,0419.97521,S,05539.82227,E,0.209,,020625,,,D*71
$GNVTG,,T,,M,0.209,N,0.387,K,D*3F
$GNGGA,104801.00,0419.97521,S,05539.82227,E,2,12,0.76,19.6,M,-47.6,M,,0000*47
$GNGSA,A,3,32,29,28,10,18,16,31,25,,,,,1.59,0.76,1.40*1F
$GNGSA,A,3,69,68,81,82,,,,,,,,,1.59,0.76,1.40*17
$GPGSV,5,1,17,10,24,345,19,16,24,264,16,18,29,058,21,23,08,024,10*72
$GPGSV,5,2,17,24,00,061,,25,06,139,15,26,30,232,24,27,26,324,*71
$GPGSV,5,3,17,28,36,172,16,29,31,143,27,31,21,201,32,32,81,339,29*76
$GPGSV,5,4,17,36,52,277,,40,84,353,28,41,58,082,,49,32,274,*76
$GPGSV,5,5,17,50,10,089,*4A
$GLGSV,2,1,08,68,38,357,21,69,60,276,22,70,10,218,,79,13,163,*66
$GLGSV,2,2,08,80,14,215,,81,28,114,19,82,43,055,11,83,19,360,*62
$GNGLL,0419.97521,S,05539.82227,E,104801.00,A,D*60
$GNRMC,104802.00,A,0419.97540,S,05539.82241,E,0.318,,020625,,,D*74
$GNVTG,,T,,M,0.318,N,0.589,K,D*36
$GNGGA,104802.00,0419.97540,S,05539.82241,E,2,12,0.76,20.3,M,-47.6,M,,0000*4C
$GNGSA,A,3,32,29,28,10,18,16,31,25,,,,,1.59,0.76,1.40*1F
$GNGSA,A,3,69,68,81,82,,,,,,,,,1.59,0.76,1.40*17
$GPGSV,5,1,17,10,24,345,16,16,24,264,16,18,29,058,22,23,08,024,11*7F
$GPGSV,5,2,17,24,00,061,,25,06,139,13,26,30,232,23,27,26,324,*70
$GPGSV,5,3,17,28,36,172,19,29,31,143,31,31,21,201,31,32,81,339,33*76
$GPGSV,5,4,17,36,52,277,,40,84,353,33,41,58,082,,49,32,274,*7C
$GPGSV,5,5,17,50,10,089,*4A
$GLGSV,2,1,08,68,38,357,24,69,60,276,25,70,10,218,,79,13,163,*64
$GLGSV,2,2,08,80,14,215,,81,28,114,19,82,43,055,10,83,19,360,*63
$GNGLL,0419.97540,S,05539.82241,E,104802.00,A,D*64
$GNRMC,104803.00,A,0419.97547,S,05539.82241,E,0.148,,020625,,,D*75
$GNVTG,,T,,M,0.148,N,0.274,K,D*34
$GNGGA,104803.00,0419.97547,S,05539.82241,E,2,12,0.76,20.7,M,-47.6,M,,0000*4E
$GNGSA,A,3,32,29,23,28,10,18,16,31,25,,,,1.59,0.76,1.40*1E
$GNGSA,A,3,69,68,81,82,,,,,,,,,1.59,0.76,1.40*17
$GPGSV,5,1,17,10,24,345,18,16,24,264,17,18,29,058,22,23,08,024,09*79
$GPGSV,5,2,17,24,00,061,,25,06,139,13,26,30,232,23,27,26,324,*70
$GPGSV,5,3,17,28,36,172,18,29,31,143,26,31,21,201,29,32,81,339,28*72
$GPGSV,5,4,17,36,52,277,,40,84,353,29,41,58,082,,49,32,274,*77
$GPGSV,5,5,17,50,10,089,*4A
$GLGSV,2,1,08,68,38,357,23,69,60,276,26,70,10,218,,79,13,163,*60
$GLGSV,2,2,08,80,14,215,,81,28,114,17,82,43,055,19,83,19,360,*64
$GNGLL,0419.97547,S,05539.82241,E,104803.00,A,D*62
$GNRMC,104804.00,A,0419.97541,S,05539.82236,E,0.265,,020625,,,D*78
$GNVTG,,T,,M,0.265,N,0.491,K,D*35
$GNGGA,104804.00,0419.97541,S,05539.82236,E,2,12,0.71,20.8,M,-47.6,M,,0000*47
$GNGSA,A,3,32,29,23,28,10,18,16,31,25,,,,1.39,0.71,1.20*19
$GNGSA,A,3,69,68,81,82,,,,,,,,,1.39,0.71,1.20*10
$GPGSV,5,1,17,10,24,345,17,16,24,264,16,18,29,058,21,23,08,024,10*7C
$GPGSV,5,2,17,24,00,061,,25,06,139,08,26,30,232,21,27,26,324,*78
$GPGSV,5,3,17,28,36,172,18,29,31,143,25,31,21,201,28,32,81,339,27*7F
$GPGSV,5,4,17,36,52,277,,40,84,353,28,41,58,082,,49,32,274,*76
$GPGSV,5,5,17,50,10,089,*4A
$GLGSV,2,1,08,68,38,357,21,69,60,276,25,70,10,218,,79,13,162,*60
$GLGSV,2,2,08,80,14,215,,81,28,114,15,82,43,055,18,83,19,360,*67
$GNGLL,0419.97541,S,05539.82236,E,104804.00,A,D*63
$GNRMC,104805.00,A,0419.97536,S,05539.82263,E,0.503,,020625,,,D*7E
$GNVTG,,T,,M,0.503,N,0.932,K,D*36
$GNGGA,104805.00,0419.97536,S,05539.82263,E,2,12,0.71,20.3,M,-47.6,M,,0000*4D
$GNGSA,A,3,32,29,23,28,10,18,16,31,,,,,1.44,0.71,1.26*12
$GNGSA,A,3,69,68,81,82,,,,,,,,,1.44,0.71,1.26*1C
$GPGSV,5,1,17,10,24,345,20,16,24,264,16,18,29,058,23,23,08,024,10*7A
$GPGSV,5,2,17,24,00,061,,25,06,139,06,26,30,232,23,27,26,324,*74
$GPGSV,5,3,17,28,36,172,19,29,31,143,27,31,21,201,34,32,81,339,33*74
$GPGSV,5,4,17,36,52,277,,40,84,353,33,41,58,082,,49,32,274,*7C
$GPGSV,5,5,17,50,10,089,*4A
$GLGSV,2,1,08,68,38,357,21,69,60,276,26,70,10,218,,79,13,162,*63
$GLGSV,2,2,08,80,14,214,,81,28,114,14,82,43,055,19,83,19,360,*66
$GNGLL,0419.97536,S,05539.82263,E,104805.00,A,D*62
$GNRMC,104806.00,A,0419.97535,S,05539.82269,E,0.227,,020625,,,D*75
$GNVTG,,T,,M,0.227,N,0.421,K,D*38
$GNGGA,104806.00,0419.97535,S,05539.82269,E,2,12,0.76,20.1,M,-47.6,M,,0000*42
$GNGSA,A,3,32,29,23,28,10,18,16,31,25,,,,1.59,0.76,1.40*1E
$GNGSA,A,3,69,68,81,82,,,,,,,,,1.59,0.76,1.40*17
$GPGSV,5,1,17,10,24,345,23,16,24,264,15,18,29,058,25,23,08,024,12*7E
$GPGSV,5,2,17,24,00,061,,25,06,139,11,26,30,232,25,27,26,324,*74
$GPGSV,5,3,17,28,36,172,17,29,31,143,31,31,21,201,33,32,81,339,33*7A
$GPGSV,5,4,17,36,52,277,,40,84,353,34,41,58,082,,49,32,274,*7B
$GPGSV,5,5,17,50,10,089,*4A
$GLGSV,2,1,08,68,38,357,20,69,60,276,26,70,10,218,,79,13,162,*62
$GLGSV,2,2,08,80,14,214,,81,28,115,14,82,43,055,21,83,19,360,*6C
$GNGLL,0419.97535,S,05539.82269,E,104806.00,A,D*68
$GNRMC,104807.00,A,0419.97538,S,05539.82281,E,0.334,,020625,,,D*7C
$GNVTG,,T,,M,0.334,N,0.618,K,D*33
$GNGGA,104807.00,0419.97538,S,05539.82281,E,2,12,0.76,20.2,M,-47.6,M,,0000*4B
$GNGSA,A,3,32,29,23,28,10,18,16,31,25,,,,1.59,0.76,1.40*1E
$GNGSA,A,3,69,68,81,82,,,,,,,,,1.59,0.76,1.40*17
$GPGSV,5,1,17,10,24,345,23,16,24,264,16,18,29,058,26,23,08,024,09*74
$GPGSV,5,2,17,24,00,061,,25,06,139,09,26,30,232,26,27,26,324,*7E
$GPGSV,5,3,17,28,36,172,23,29,31,143,27,31,21,201,33,32,81,339,34*7D
$GPGSV,5,4,17,36,52,277,,40,84,353,32,41,58,082,,49,32,274,*7D
$GPGSV,5,5,17,50,10,089,*4A
$GLGSV,2,1,08,68,38,357,22,69,60,276,26,70,10,218,,79,13,162,*60
$GLGSV,2,2,08,80,14,214,,81,28,115,15,82,43,056,20,83,19,360,*6F
$GNGLL,0419.97538,S,05539.82281,E,104807.00,A,D*62
$GNRMC,104808.00,A,0419.97549,S,05539.82287,E,0.203,,020625,,,D*76
$GNVTG,,T,,M,0.203,N,0.376,K,D*3B
$GNGGA,104808.00,0419.97549,S,05539.82287,E,2,12,0.76,20.7,M,-47.6,M,,0000*41
$GNGSA,A,3,32,29,23,28,10,18,16,31,25,,,,1.59,0.76,1.40*1E
$GNGSA,A,3,69,68,81,82,,,,,,,,,1.59,0.76,1.40*17
$GPGSV,5,1,17,10,24,345,23,16,24,264,16,18,29,058,27,23,08,024,11*7C
$GPGSV,5,2,17,24,00,061,,25,06,139,12,26,30,232,27,27,26,324,*75
$GPGSV,5,3,17,28,36,172,25,29,31,143,28,31,21,201,33,32,81,339,34*74
$GPGSV,5,4,17,36,52,277,,40,84,353,32,41,58,082,,49,32,274,*7D
$GPGSV,5,5,17,50,10,089,*4A
$GLGSV,2,1,08,68,38,357,22,69,60,276,25,70,10,218,,79,13,162,*63
$GLGSV,2,2,08,80,14,214,,81,28,115,13,82,43,056,19,83,19,000,*66
$GNGLL,0419.97549,S,05539.82287,E,104808.00,A,D*6D
$GNRMC,104809.00,A,0419.97547,S,05539.82292,E,0.063,,020625,,,D*79
$GNVTG,,T,,M,0.063,N,0.117,K,D*3A
$GNGGA,104809.00,0419.97547,S,05539.82292,E,2,12,0.76,20.3,M,-47.6,M,,0000*4E
$GNGSA,A,3,32,29,23,28,10,18,16,31,25,,,,1.59,0.76,1.40*1E
$GNGSA,A,3,69,68,81,82,,,,,,,,,1.59,0.76,1.40*17
$GPGSV,5,1,17,10,24,345,22,16,24,264,15,18,29,058,28,23,08,024,12*72
$GPGSV,5,2,17,24,00,061,,25,06,139,13,26,30,232,26,27,26,324,*75
$GPGSV,5,3,17,28,36,172,24,29,31,143,30,31,21,201,31,32,81,339,34*7E
$GPGSV,5,4,17,36,52,277,,40,84,353,33,41,58,082,,49,32,274,*7C
$GPGSV,5,5,17,50,10,089,*4A
$GLGSV,2,1,08,68,38,357,23,69,60,276,27,70,10,218,,79,13,162,*60
$GLGSV,2,2,08,80,14,214,,81,28,115,15,82,43,056,18,83,19,000,*61
$GNGLL,0419.97547,S,05539.82292,E,104809.00,A,D*66
$GNRMC,104810.00,A,0419.97538,S,05539.82293,E,0.231,,020625,,,D*7D
$GNVTG,,T,,M,0.231,N,0.427,K,D*39
$GNGGA,104810.00,0419.97538,S,05539.82293,E,2,12,0.76,20.4,M,-47.6,M,,0000*48
$GNGSA,A,3,32,29,23,28,10,18,16,31,25,,,,1.53,0.76,1.33*10
$GNGSA,A,3,69,68,82,,,,,,,,,,1.53,0.76,1.33*10
$GPGSV,5,1,17,10,24,345,19,16,24,264,12,18,29,058,27,23,08,024,12*72
$GPGSV,5,2,17,24,00,061,,25,06,139,10,26,30,232,24,27,26,324,*74
$GPGSV,5,3,17,28,36,172,22,29,31,143,20,31,21,201,24,32,81,339,20*78
$GPGSV,5,4,17,36,52,277,,40,84,353,31,41,58,082,,49,32,274,*7E
$GPGSV,5,5,17,50,10,089,*4A
$GLGSV,2,1,08,68,38,357,23,69,60,276,27,70,10,218,,79,13,162,*60
$GLGSV,2,2,08,80,14,214,,81,28,115,,82,43,056,17,83,19,000,*6A
$GNGLL,0419.97538,S,05539.82293,E,104810.00,A,D*67
$GNRMC,104811.00,A,0419.97537,S,05539.82290,E,0.038,,020625,,,D*7B
$GNVTG,,T,,M,0.038,N,0.071,K,D*35
$GNGGA,104811.00,0419.97537,S,05539.82290,E,2,12,0.71,20.3,M,-47.6,M,,0000*45
$GNGSA,A,3,32,29,23,28,10,18,16,31,25,,,,1.37,0.71,1.17*13
$GNGSA,A,3,69,68,82,,,,,,,,,,1.37,0.71,1.17*13
$GPGSV,5,1,17,10,24,345,20,16,24,264,13,18,29,058,26,23,08,024,08*73
$GPGSV,5,2,17,24,00,061,,25,06,139,12,26,30,232,25,27,26,324,*77
$GPGSV,5,3,17,28,36,172,21,29,31,143,30,31,21,201,27,32,81,339,29*70
$GPGSV,5,4,17,36,52,277,,40,84,353,31,41,58,082,,49,32,274,*7E
$GPGSV,5,5,17,50,10,089,*4A
$GLGSV,2,1,08,68,38,357,22,69,60,276,27,70,10,218,,79,13,162,*61
$GLGSV,2,2,08,80,14,214,,81,28,115,,82,43,056,19,83,19,000,*64
$GNGLL,0419.97537,S,05539.82290,E,104811.00,A,D*6A
$GNRMC,104812.00,A,0419.97557,S,05539.82300,E,0.544,,020625,,,D*78
$GNVTG,,T,,M,0.544,N,1.007,K,D*3B
$GNGGA,104812.00,0419.97557,S,05539.82300,E,2,12,0.76,20.8,M,-47.6,M,,0000*44
$GNGSA,A,3,32,29,23,28,10,18,16,31,25,,,,1.53,0.76,1.33*10
$GNGSA,A,3,69,68,82,,,,,,,,,,1.53,0.76,1.33*10
$GPGSV,5,1,17,10,24,345,19,16,24,264,12,18,29,058,25,23,08,024,10*72
$GPGSV,5,2,17,24,00,061,,25,06,139,14,26,30,232,24,27,26,324,17*76
$GPGSV,5,3,17,28,36,172,21,29,31,143,28,31,21,201,27,32,81,339,29*79
$GPGSV,5,4,17,36,52,277,,40,84,353,29,41,58,082,,49,32,274,*77
$GPGSV,5,5,17,50,10,089,*4A
$GLGSV,2,1,08,68,38,357,20,69,60,276,26,70,10,218,,79,13,162,*62
$GLGSV,2,2,08,80,14,214,,81,28,115,,82,43,056,18,83,19,000,*65
$GNGLL,0419.97557,S,05539.82300,E,104812.00,A,D*67
$GNRMC,104813.00,A,0419.97558,S,05539.82304,E,0.249,,020625,,,D*78
$GNVTG,,T,,M,0.249,N,0.461,K,D*34
$GNGGA,104813.00,0419.97558,S,05539.82304,E,2,12,0.76,20.8,M,-47.6,M,,0000*4E
$GNGSA,A,3,32,29,23,28,10,18,16,31,25,,,,1.53,0.76,1.33*10
$GNGSA,A,3,69,68,82,,,,,,,,,,1.53,0.76,1.33*10
$GPGSV,5,1,17,10,24,345,21,16,24,264,16,18,29,058,25,23,08,024,10*7D
$GPGSV,5,2,17,24,00,061,,25,06,139,14,26,30,232,23,27,26,324,15*73
$GPGSV,5,3,17,28,36,172,23,29,31,143,29,31,21,201,33,32,81,339,33*74
$GPGSV,5,4,17,36,52,277,,40,84,353,32,41,58,082,,49,32,274,*7D
$GPGSV,5,5,17,50,10,089,*4A
$GLGSV,2,1,08,68,38,357,21,69,60,276,25,70,10,218,,79,13,162,*60
$GLGSV,2,2,08,80,14,214,,81,28,115,,82,43,056,20,83,19,000,*6E
$GNGLL,0419.97558,S,05539.82304,E,104813.00,A,D*6D
$GNRMC,104814.00,A,0419.97550,S,05539.82314,E,0.220,,020625,,,D*79
$GNVTG,,T,,M,0.220,N,0.407,K,D*3B
$GNGGA,104814.00,0419.97550,S,05539.82314,E,2,12,0.76,20.4,M,-47.6,M,,0000*4C
$GNGSA,A,3,32,29,23,28,10,18,16,31,25,,,,1.53,0.76,1.33*10
$GNGSA,A,3,69,68,82,,,,,,,,,,1.53,0.76,1.33*10
$GPGSV,5,1,17,10,24,345,21,16,24,264,18,18,29,058,26,23,08,024,10*70
$GPGSV,5,2,17,24,00,061,,25,06,139,15,26,30,232,21,27,26,324,14*71
$GPGSV,5,3,17,28,36,172,23,29,31,143,29,31,21,201,31,32,81,339,29*7D
$GPGSV,5,4,17,36,52,277,,40,84,353,31,41,58,082,,49,32,274,*7E
$GPGSV,5,5,17,50,10,089,*4A
$GLGSV,2,1,08,68,38,357,22,69,60,276,26,70,10,218,,79,13,162,*60
$GLGSV,2,2,08,80,14,214,,81,28,115,,82,43,056,19,83,19,000,*64
$GNGLL,0419.97550,S,05539.82314,E,104814.00,A,D*63
$GNRMC,104815.00,A,0419.97545,S,05539.82319,E,0.173,,020625,,,D*74
$GNVTG,,T,,M,0.173,N,0.320,K,D*3C
$GNGGA,104815.00,0419.97545,S,05539.82319,E,2,11,0.76,20.3,M,-47.6,M,,0000*40
$GNGSA,A,3,32,29,28,10,18,16,31,25,,,,,1.53,0.76,1.33*11
$GNGSA,A,3,69,68,82,,,,,,,,,,1.53,0.76,1.33*10
$GPGSV,5,1,17,10,24,345,21,16,24,264,18,18,29,058,25,23,08,024,10*73
$GPGSV,5,2,17,24,00,061,,25,06,139,15,26,30,232,20,27,26,324,14*70
$GPGSV,5,3,17,28,36,172,23,29,31,143,29,31,21,201,28,32,81,339,28*74
$GPGSV,5,4,17,36,52,277,,40,84,353,29,41,58,082,,49,32,274,*77
$GPGSV,5,5,17,50,10,089,*4A
$GLGSV,2,1,08,68,38,357,24,69,60,276,27,70,10,218,,79,13,162,*67
$GLGSV,2,2,08,80,14,214,21,81,28,115,20,82,43,056,17,83,19,000,*6B
$GNGLL,0419.97545,S,05539.82319,E,104815.00,A,D*6B
$GNRMC,104816.00,A,0419.97536,S,05539.82320,E,0.140,,020625,,,D*79
$GNVTG,,T,,M,0.140,N,0.259,K,D*33
$GNGGA,104816.00,0419.97536,S,05539.82320,E,2,11,0.76,19.9,M,-47.6,M,,0000*4D
$GNGSA,A,3,32,29,28,10,18,16,31,25,,,,,1.53,0.76,1.33*11
$GNGSA,A,3,69,68,82,,,,,,,,,,1.53,0.76,1.33*10
$GPGSV,5,1,17,10,24,345,19,16,24,264,18,18,29,058,23,23,08,024,10*7E
$GPGSV,5,2,17,24,00,061,,25,06,139,10,26,30,232,20,27,26,324,14*75
$GPGSV,5,3,17,28,36,172,21,29,31,143,28,31,21,201,28,32,81,339,32*7C
$GPGSV,5,4,17,36,52,277,,40,84,353,28,41,58,082,,49,32,274,*76
$GPGSV,5,5,17,50,10,089,*4A
$GLGSV,2,1,08,68,38,357,21,69,60,276,26,70,10,218,,79,13,162,*63
$GLGSV,2,2,08,80,14,214,20,81,28,115,18,82,43,056,15,83,19,000,*63
$GNGLL,0419.97536,S,05539.82320,E,104816.00,A,D*66
$GNRMC,104817.00,A,0419.97548,S,05539.82319,E,0.216,,020625,,,D*7B
$GNVTG,,T,,M,0.216,N,0.400,K,D*39
$GNGGA,104817.00,0419.97548,S,05539.82319,E,2,11,0.76,20.6,M,-47.6,M,,0000*4A
$GNGSA,A,3,32,29,28,10,18,16,31,25,,,,,1.53,0.76,1.33*11
$GNGSA,A,3,69,68,82,,,,,,,,,,1.53,0.76,1.33*10
$GPGSV,5,1,17,10,24,345,18,16,24,264,17,18,29,058,23,23,08,024,10*70
$GPGSV,5,2,17,24,00,061,,25,06,139,13,26,30,232,23,27,26,324,15*74
$GPGSV,5,3,17,28,36,172,21,29,31,143,28,31,21,201,27,32,81,339,26*76
$GPGSV,5,4,17,36,52,277,,40,84,353,28,41,58,082,,49,32,274,*76
$GPGSV,5,5,17,50,10,089,*4A
$GLGSV,2,1,08,68,38,357,21,69,60,276,25,70,10,218,,79,13,162,*60
$GLGSV,2,2,08,80,14,214,19,81,28,115,16,82,43,056,12,83,19,000,*60
$GNGLL,0419.97548,S,05539.82319,E,104817.00,A,D*64
$GNRMC,104818.00,A,0419.97554,S,05539.82317,E,0.154,,020625,,,D*72
$GNVTG,,T,,M,0.154,N,0.285,K,D*37
$GNGGA,104818.00,0419.97554,S,05539.82317,E,2,11,0.76,20.7,M,-47.6,M,,0000*47
$GNGSA,A,3,32,29,28,10,18,16,31,25,,,,,1.53,0.76,1.33*11
$GNGSA,A,3,69,68,82,,,,,,,,,,1.53,0.76,1.33*10
$GPGSV,5,1,17,10,24,345,18,16,24,264,17,18,29,058,22,23,08,024,10*71
$GPGSV,5,2,17,24,00,061,,25,06,139,13,26,30,232,22,27,26,324,11*71
$GPGSV,5,3,17,28,36,172,22,29,31,143,27,31,21,201,27,32,81,339,33*7E
$GPGSV,5,4,17,36,52,277,,40,84,353,32,41,58,082,,49,32,274,*7D
$GPGSV,5,5,17,50,10,089,*4A
$GLGSV,2,1,08,68,38,357,19,69,60,276,23,70,10,218,,79,13,162,*6D
$GLGSV,2,2,08,80,14,214,17,81,28,115,15,82,43,056,14,83,19,000,*6B
$GNGLL,0419.97554,S,05539.82317,E,104818.00,A,D*68
$GNRMC,104819.00,A,0419.97555,S,05539.82318,E,0.053,,020625,,,D*7B
$GNVTG,,T,,M,0.053,N,0.098,K,D*3F
$GNGGA,104819.00,0419.97555,S,05539.82318,E,2,11,0.76,20.7,M,-47.6,M,,0000*48
$GNGSA,A,3,32,29,28,10,18,16,31,25,,,,,1.53,0.76,1.33*11
$GNGSA,A,3,69,68,82,,,,,,,,,,1.53,0.76,1.33*10
$GPGSV,5,1,17,10,24,345,17,16,24,264,18,18,29,058,22,23,08,024,10*71
$GPGSV,5,2,17,24,00,061,,25,06,139,12,26,30,232,23,27,26,324,09*78
$GPGSV,5,3,17,28,36,172,22,29,31,143,25,31,21,201,32,32,81,339,33*78
$GPGSV,5,4,17,36,52,277,,40,84,353,29,41,58,082,,49,32,274,*77
$GPGSV,5,5,17,50,10,089,*4A
$GLGSV,2,1,08,68,38,357,19,69,60,276,23,70,10,218,,79,13,162,*6D
$GLGSV,2,2,08,80,14,214,16,81,28,115,13,82,43,056,09,83,19,000,*60
$GNGLL,0419.97555,S,05539.82318,E,104819.00,A,D*67
$GNRMC,104820.00,A,0419.97560,S,05539.82312,E,0.171,,020625,,,D*7C
$GNVTG,,T,,M,0.171,N,0.316,K,D*3B
$GNGGA,104820.00,0419.97560,S,05539.82312,E,2,12,0.76,20.8,M,-47.6,M,,0000*42
$GNGSA,A,3,32,29,28,10,18,16,31,25,,,,,1.53,0.76,1.33*11
$GNGSA,A,3,69,68,81,82,,,,,,,,,1.53,0.76,1.33*19
$GPGSV,5,1,17,10,24,345,19,16,24,264,19,18,29,058,23,23,08,024,10*7F
$GPGSV,5,2,17,24,00,061,,25,06,139,14,26,30,232,24,27,26,324,09*79
$GPGSV,5,3,17,28,36,172,25,29,31,143,26,31,21,201,33,32,81,339,36*78
$GPGSV,5,4,17,36,52,277,,40,84,353,31,41,58,082,,49,32,274,*7E
$GPGSV,5,5,17,50,10,089,*4A
$GLGSV,2,1,08,68,38,357,19,69,60,276,25,70,10,218,,79,13,162,*6B
$GLGSV,2,2,08,80,14,214,19,81,28,115,15,82,43,056,11,83,19,000,*60
$GNGLL,0419.97560,S,05539.82312,E,104820.00,A,D*61
$GNRMC,104821.00,A,0419.97567,S,05539.82316,E,0.144,,020625,,,D*78
$GNVTG,,T,,M,0.144,N,0.267,K,D*3A
$GNGGA,104821.00,0419.97567,S,05539.82316,E,2,12,0.76,20.8,M,-47.6,M,,0000*40
$GNGSA,A,3,32,29,23,28,10,18,16,31,25,,,,1.53,0.76,1.33*10
$GNGSA,A,3,69,68,81,82,,,,,,,,,1.53,0.76,1.33*19
$GPGSV,5,1,17,10,24,345,21,16,24,264,18,18,29,058,25,23,08,024,10*73
$GPGSV,5,2,17,24,00,061,,25,06,139,11,26,30,232,23,27,26,324,15*76
$GPGSV,5,3,17,28,36,172,25,29,31,143,30,31,21,201,34,32,81,339,34*7A
$GPGSV,5,4,17,36,52,277,,40,84,353,33,41,58,082,,49,32,274,*7C
$GPGSV,5,5,17,50,10,089,*4A
$GLGSV,2,1,08,68,38,357,21,69,60,276,24,70,10,218,,79,13,162,*61
$GLGSV,2,2,08,80,14,214,19,81,28,115,15,82,43,056,18,83,19,000,*69
$GNGLL,0419.97567,S,05539.82316,E,104821.00,A,D*63
$GNRMC,104822.00,A,0419.97569,S,05539.82316,E,0.069,,020625,,,D*7B
$GNVTG,,T,,M,0.069,N,0.129,K,D*3D
$GNGGA,104822.00,0419.97569,S,05539.82316,E,2,12,0.76,20.7,M,-47.6,M,,0000*42
$GNGSA,A,3,32,29,23,28,10,18,16,31,25,,,,1.53,0.76,1.33*10
$GNGSA,A,3,69,68,81,82,,,,,,,,,1.53,0.76,1.33*19
$GPGSV,5,1,17,10,24,345,21,16,24,264,16,18,29,058,24,23,08,024,10*7C
$GPGSV,5,2,17,24,00,061,,25,06,139,16,26,30,232,24,27,26,324,17*74
$GPGSV,5,3,17,28,36,172,26,29,31,143,30,31,21,201,34,32,81,339,33*7E
$GPGSV,5,4,17,36,52,277,,40,84,353,33,41,58,082,,49,32,274,*7C
$GPGSV,5,5,17,50,10,089,*4A
$GLGSV,2,1,08,68,38,357,21,69,60,276,25,70,10,218,,79,13,162,*60
$GLGSV,2,2,08,80,14,214,19,81,28,115,17,82,43,056,12,83,19,000,*61
$GNGLL,0419.97569,S,05539.82316,E,104822.00,A,D*6E
$GNRMC,104823.00,A,0419.97575,S,05539.82317,E,0.110,,020625,,,D*79
$GNVTG,,T,,M,0.110,N,0.203,K,D*39
$GNGGA,104823.00,0419.97575,S,05539.82317,E,2,12,0.76,20.4,M,-47.6,M,,0000*4C
$GNGSA,A,3,32,29,23,28,10,18,16,31,25,,,,1.53,0.76,1.33*10
$GNGSA,A,3,69,68,81,82,,,,,,,,,1.53,0.76,1.33*19
$GPGSV,5,1,17,10,23,345,21,16,24,264,15,18,29,058,24,23,08,024,10*78
$GPGSV,5,2,17,24,00,061,,25,06,139,19,26,30,232,25,27,26,324,16*7B
$GPGSV,5,3,17,28,36,172,26,29,31,143,25,31,21,201,34,32,81,339,34*7D
$GPGSV,5,4,17,36,52,277,,40,84,353,33,41,58,082,,49,32,274,*7C
$GPGSV,5,5,17,50,10,089,*4A
$GLGSV,2,1,08,68,38,357,22,69,60,276,26,70,10,218,,79,13,162,21*63
$GLGSV,2,2,08,80,14,214,18,81,28,115,16,82,43,056,14,83,19,000,*67
$GNGLL,0419.97575,S,05539.82317,E,104823.00,A,D*63
$GNRMC,104824.00,A,0419.97572,S,05539.82308,E,0.213,,020625,,,D*77
$GNVTG,,T,,M,0.213,N,0.395,K,D*37
$GNGGA,104824.00,0419.97572,S,05539.82308,E,2,12,0.79,20.2,M,-47.6,M,,0000*4B
$GNGSA,A,3,32,29,28,10,18,16,31,25,,,,,1.59,0.79,1.38*1F
$GNGSA,A,3,69,68,81,82,,,,,,,,,1.59,0.79,1.38*17
$GPGSV,5,1,17,10,23,345,20,16,24,264,15,18,29,058,22,23,08,024,10*7F
$GPGSV,5,2,17,24,00,061,,25,06,139,17,26,30,232,23,27,26,324,13*76
$GPGSV,5,3,17,28,36,172,27,29,31,143,27,31,21,201,34,32,81,339,33*79
$GPGSV,5,4,17,36,52,277,,40,84,353,31,41,58,082,,49,32,274,*7E
$GPGSV,5,5,17,50,10,089,*4A
$GLGSV,2,1,08,68,38,357,23,69,60,276,25,70,10,218,,79,13,162,17*64
$GLGSV,2,2,08,80,14,214,19,81,28,115,17,82,43,056,09,83,19,000,*6B
$GNGLL,0419.97572,S,05539.82308,E,104824.00,A,D*6D
$GNRMC,104825.00,A,0419.97576,S,05539.82308,E,0.061,,020625,,,D*75
$GNVTG,,T,,M,0.061,N,0.113,K,D*3C
$GNGGA,104825.00,0419.97576,S,05539.82308,E,2,12,0.79,20.5,M,-47.6,M,,0000*49
$GNGSA,A,3,32,29,28,10,18,16,31,25,,,,,1.61,0.79,1.40*1B
$GNGSA,A,3,69,68,81,82,,,,,,,,,1.61,0.79,1.40*13
$GPGSV,5,1,17,10,23,345,21,16,24,264,16,18,29,058,22,23,08,024,08*74
$GPGSV,5,2,17,24,00,061,,25,06,139,14,26,30,232,21,27,26,324,13*77
$GPGSV,5,3,17,28,36,172,26,29,31,143,28,31,21,201,34,32,81,339,32*76
$GPGSV,5,4,17,36,52,277,,40,84,353,30,41,58,082,,49,32,274,*7F
$GPGSV,5,5,17,50,10,089,*4A
$GLGSV,2,1,08,68,38,357,22,69,60,276,24,70,10,218,,79,13,162,15*66
$GLGSV,2,2,08,80,14,214,19,81,28,115,15,82,43,056,13,83,19,000,*62
$GNGLL,0419.97576,S,05539.82308,E,104825.00,A,D*68
$GNRMC,104826.00,A,0419.97568,S,05539.82305,E,0.118,,020625,,,D*7B
$GNVTG,,T,,M,0.118,N,0.219,K,D*3A
$GNGGA,104826.00,0419.97568,S,05539.82305,E,2,12,0.79,20.2,M,-47.6,M,,0000*4F
$GNGSA,A,3,32,29,28,10,18,16,31,25,,,,,1.61,0.79,1.40*1B
$GNGSA,A,3,69,68,81,82,,,,,,,,,1.61,0.79,1.40*13
$GPGSV,5,1,17,10,23,345,21,16,24,264,19,18,29,058,21,23,08,024,08*78
$GPGSV,5,2,17,24,00,061,,25,06,139,08,26,30,232,25,27,26,324,11*7C
$GPGSV,5,3,17,28,36,172,24,29,31,143,28,31,21,201,29,32,81,339,33*79
$GPGSV,5,4,17,36,52,277,,40,84,353,32,41,58,082,,49,32,274,*7D
$GPGSV,5,5,17,50,10,089,*4A
$GLGSV,2,1,08,68,38,357,22,69,60,276,25,70,10,218,,79,13,162,15*67
$GLGSV,2,2,08,80,14,214,18,81,28,115,17,82,43,056,15,83,19,000,*67
$GNGLL,0419.97568,S,05539.82305,E,104826.00,A,D*69
$GNRMC,104827.00,A,0419.97565,S,05539.82298,E,0.045,,020625,,,D*7B
$GNVTG,,T,,M,0.045,N,0.083,K,D*32
$GNGGA,104827.00,0419.97565,S,05539.82298,E,2,12,0.79,20.3,M,-47.6,M,,0000*47
$GNGSA,A,3,32,29,28,10,18,16,31,25,,,,,1.61,0.79,1.40*1B
$GNGSA,A,3,69,68,81,82,,,,,,,,,1.61,0.79,1.40*13
$GPGSV,5,1,17,10,23,345,20,16,24,264,20,18,29,058,20,23,08,024,08*72
$GPGSV,5,2,17,24,00,061,,25,06,139,14,26,30,232,25,27,26,324,10*70
$GPGSV,5,3,17,28,36,172,23,29,31,143,29,31,21,201,30,32,81,339,32*76
$GPGSV,5,4,17,36,52,277,,40,84,353,31,41,58,082,,49,32,274,*7E
$GPGSV,5,5,17,50,10,089,*4A
$GLGSV,2,1,08,68,38,357,21,69,60,276,27,70,10,218,,79,13,162,14*67
$GLGSV,2,2,08,80,14,214,17,81,28,115,16,82,43,056,14,83,19,000,*68
$GNGLL,0419.97565,S,05539.82298,E,104827.00,A,D*60
$GNRMC,104828.00,A,0419.97566,S,05539.82293,E,0.071,,020625,,,D*7B
$GNVTG,,T,,M,0.071,N,0.132,K,D*3E
$GNGGA,104828.00,0419.97566,S,05539.82293,E,2,12,0.79,20.3,M,-47.6,M,,0000*40
$GNGSA,A,3,32,29,28,10,18,16,31,25,,,,,1.61,0.79,1.40*1B
$GNGSA,A,3,69,68,81,82,,,,,,,,,1.61,0.79,1.40*13
$GPGSV,5,1,17,10,23,345,21,16,24,264,19,18,29,058,21,23,08,024,08*78
$GPGSV,5,2,17,24,00,061,,25,06,139,16,26,30,232,23,27,26,324,10*74
$GPGSV,5,3,17,28,36,172,25,29,31,143,31,31,21,201,33,32,81,339,31*79
$GPGSV,5,4,17,36,52,277,,40,84,353,32,41,58,082,,49,32,274,*7D
$GPGSV,5,5,17,50,10,089,*4A
$GLGSV,2,1,08,68,38,357,21,69,60,276,29,70,10,218,,79,13,162,13*6E
$GLGSV,2,2,08,80,14,214,17,81,28,115,15,82,43,056,21,83,19,000,*6D
$GNGLL,0419.97566,S,05539.82293,E,104828.00,A,D*67
$GNRMC,104829.00,A,0419.97567,S,05539.82293,E,0.087,,020625,,,D*72
$GNVTG,,T,,M,0.087,N,0.160,K,D*30
$GNGGA,104829.00,0419.97567,S,05539.82293,E,2,12,0.79,20.6,M,-47.6,M,,0000*45
$GNGSA,A,3,32,29,28,10,18,16,31,25,,,,,1.61,0.79,1.40*1B
$GNGSA,A,3,69,68,81,82,,,,,,,,,1.61,0.79,1.40*13
$GPGSV,5,1,17,10,23,345,20,16,24,263,17,18,29,058,21,23,08,024,08*70
$GPGSV,5,2,17,24,00,061,,25,06,139,12,26,30,232,21,27,26,324,12*70
$GPGSV,5,3,17,28,36,172,22,29,31,143,30,31,21,201,29,32,81,339,26*72
$GPGSV,5,4,17,36,52,277,,40,84,353,29,41,58,082,,49,32,274,*77
$GPGSV,5,5,17,50,10,089,*4A
$GLGSV,2,1,08,68,38,357,19,69,60,276,28,70,10,218,,79,13,162,15*62
$GLGSV,2,2,08,80,14,214,17,81,28,115,20,82,43,056,19,83,19,000,*60
$GNGLL,0419.97567,S,05539.82293,E,104829.00,A,D*67
$GNRMC,104830.00,A,0419.97564,S,05539.82288,E,0.109,,020625,,,D*74
$GNVTG,,T,,M,0.109,N,0.201,K,D*33
$GNGGA,104830.00,0419.97564,S,05539.82288,E,2,12,0.79,20.6,M,-47.6,M,,0000*44
$GNGSA,A,3,32,29,28,10,18,16,31,25,,,,,1.61,0.79,1.40*1B
$GNGSA,A,3,69,68,81,82,,,,,,,,,1.61,0.79,1.40*13
$GPGSV,5,1,17,10,23,345,19,16,24,263,17,18,29,058,19,23,08,024,*79
$GPGSV,5,2,17,24,00,061,,25,06,139,14,26,30,232,20,27,26,324,10*75
$GPGSV,5,3,17,28,36,172,23,29,31,143,30,31,21,201,30,32,81,339,28*75
$GPGSV,5,4,17,36,52,277,,40,84,353,30,41,58,082,,49,32,274,*7F
$GPGSV,5,5,17,50,10,089,*4A
$GLGSV,2,1,08,68,38,357,18,69,60,276,27,70,10,218,,79,13,162,14*6D
$GLGSV,2,2,08,80,14,214,17,81,28,115,17,82,43,056,18,83,19,000,*65
$GNGLL,0419.97564,S,05539.82288,E,104830.00,A,D*66
$GNRMC,104831.00,A,0419.97563,S,05539.82284,E,0.263,,020625,,,D*71
$GNVTG,,T,,M,0.263,N,0.486,K,D*35
$GNGGA,104831.00,0419.97563,S,05539.82284,E,2,12,0.79,20.7,M,-47.6,M,,0000*4F
$GNGSA,A,3,32,29,28,10,18,16,31,25,,,,,1.61,0.79,1.40*1B
$GNGSA,A,3,69,68,81,82,,,,,,,,,1.61,0.79,1.40*13
$GPGSV,5,1,17,10,23,345,18,16,24,263,16,18,29,059,18,23,08,024,*79
$GPGSV,5,2,17,24,00,061,,25,06,139,07,26,30,232,19,27,26,324,*7C
$GPGSV,5,3,17,28,36,172,24,29,31,143,28,31,21,201,29,32,81,339,27*7C
$GPGSV,5,4,17,36,52,277,,40,84,353,29,41,58,082,,49,32,274,*77
$GPGSV,5,5,17,50,10,089,*4A
$GLGSV,2,1,08,68,38,357,18,69,60,276,27,70,10,218,,79,13,162,12*6B
$GLGSV,2,2,08,80,14,214,16,81,28,115,18,82,43,056,16,83,19,000,*65
$GNGLL,0419.97563,S,05539.82284,E,104831.00,A,D*6C
$GNRMC,104832.00,A,0419.97566,S,05539.82288,E,0.128,,020625,,,D*77
$GNVTG,,T,,M,0.128,N,0.236,K,D*34
$GNGGA,104832.00,0419.97566,S,05539.82288,E,2,12,0.76,20.8,M,-47.6,M,,0000*45
$GNGSA,A,3,32,29,28,10,18,16,31,25,,,,,1.53,0.76,1.33*11
$GNGSA,A,3,69,68,81,82,,,,,,,,,1.53,0.76,1.33*19
$GPGSV,5,1,17,10,23,345,18,16,24,263,17,18,29,059,18,23,08,024,*78
$GPGSV,5,2,17,24,00,061,,25,06,139,10,26,30,232,18,27,26,324,*7B
$GPGSV,5,3,17,28,36,172,25,29,31,143,27,31,21,201,29,32,81,339,32*76
$GPGSV,5,4,17,36,52,277,,40,84,353,31,41,58,082,,49,32,274,*7E
$GPGSV,5,5,17,50,10,089,*4A
$GLGSV,2,1,08,68,38,357,19,69,60,276,25,70,10,218,,79,13,162,11*6B
$GLGSV,2,2,08,80,14,214,14,81,28,115,16,82,43,056,14,83,19,000,*6B
$GNGLL,0419.97566,S,05539.82288,E,104832.00,A,D*66
$GNRMC,104833.00,A,0419.97569,S,05539.82281,E,0.179,,020625,,,D*74
$GNVTG,,T,,M,0.179,N,0.331,K,D*36
$GNGGA,104833.00,0419.97569,S,05539.82281,E,2,12,0.76,21.0,M,-47.6,M,,0000*4B
$GNGSA,A,3,32,29,28,10,18,16,31,25,,,,,1.53,0.76,1.33*11
$GNGSA,A,3,69,68,81,82,,,,,,,,,1.53,0.76,1.33*19
$GPGSV,5,1,17,10,23,345,18,16,24,263,20,18,29,059,18,23,08,024,*7C
$GPGSV,5,2,17,24,00,061,,25,06,139,11,26,30,232,18,27,26,324,*7A
$GPGSV,5,3,17,28,36,172,26,29,31,143,28,31,21,201,34,32,81,339,34*70
$GPGSV,5,4,17,36,52,277,,40,84,353,35,41,58,082,,49,32,274,*7A
$GPGSV,5,5,17,50,10,089,*4A
$GLGSV,2,1,08,68,38,357,20,69,60,276,26,70,10,218,,79,13,162,14*67
$GLGSV,2,2,08,80,14,214,16,81,28,115,18,82,43,056,16,83,19,000,*65
$GNGLL,0419.97569,S,05539.82281,E,104833.00,A,D*61
$GNRMC,104834.00,A,0419.97565,S,05539.82282,E,0.146,,020625,,,D*70
$GNVTG,,T,,M,0.146,N,0.271,K,D*3F
$GNGGA,104834.00,0419.97565,S,05539.82282,E,2,12,0.76,20.8,M,-47.6,M,,0000*4A
$GNGSA,A,3,32,29,28,10,18,16,31,25,,,,,1.53,0.76,1.33*11
$GNGSA,A,3,69,68,81,82,,,,,,,,,1.53,0.76,1.33*19
$GPGSV,5,1,17,10,23,345,19,16,24,263,19,18,29,059,17,23,08,024,*78
$GPGSV,5,2,17,24,00,061,,25,06,139,11,26,30,232,20,27,26,324,*71
$GPGSV,5,3,17,28,36,172,24,29,31,143,28,31,21,201,29,32,81,339,24*7F
$GPGSV,5,4,17,36,52,277,,40,84,353,30,41,58,082,,49,32,274,*7F
$GPGSV,5,5,17,50,10,089,*4A
$GLGSV,2,1,08,68,38,357,19,69,60,276,26,70,10,218,,79,13,162,16*6F
$GLGSV,2,2,08,80,14,214,16,81,28,115,18,82,43,056,17,83,19,000,*64
$GNGLL,0419.97565,S,05539.82282,E,104834.00,A,D*69
$GNRMC,104835.00,A,0419.97555,S,05539.82277,E,0.079,,020625,,,D*75
$GNVTG,,T,,M,0.079,N,0.147,K,D*34
$GNGGA,104835.00,0419.97555,S,05539.82277,E,2,12,0.76,20.5,M,-47.6,M,,0000*4F
$GNGSA,A,3,32,29,28,10,18,16,31,25,,,,,1.53,0.76,1.33*11
$GNGSA,A,3,69,68,81,82,,,,,,,,,1.53,0.76,1.33*19
$GPGSV,5,1,17,10,23,345,18,16,24,263,21,18,29,059,17,23,07,024,*7D
$GPGSV,5,2,17,24,00,061,,25,06,139,16,26,30,232,19,27,26,324,21*7F
$GPGSV,5,3,17,28,36,172,25,29,31,143,27,31,21,201,32,32,81,339,35*7B
$GPGSV,5,4,17,36,52,277,,40,84,353,32,41,58,082,,49,32,274,*7D
$GPGSV,5,5,17,50,10,089,*4A
$GLGSV,2,1,08,68,38,357,22,69,60,276,31,70,10,218,,79,13,162,20*64
$GLGSV,2,2,08,80,14,214,17,81,28,115,18,82,43,056,20,83,19,000,*61
$GNGLL,0419.97555,S,05539.82277,E,104835.00,A,D*61
$GNRMC,104836.00,A,0419.97549,S,05539.82272,E,0.039,,020625,,,D*7A
$GNVTG,,T,,M,0.039,N,0.073,K,D*36
$GNGGA,104836.00,0419.97549,S,05539.82272,E,2,12,0.76,20.4,M,-47.6,M,,0000*45
$GNGSA,A,3,32,29,28,10,18,16,31,25,,,,,1.53,0.76,1.33*11
$GNGSA,A,3,69,68,81,82,,,,,,,,,1.53,0.76,1.33*19
$GPGSV,5,1,17,10,23,345,17,16,24,263,22,18,29,059,18,23,07,024,*7E
$GPGSV,5,2,17,24,00,061,,25,06,139,15,26,30,231,19,27,26,324,19*74
$GPGSV,5,3,17,28,36,172,24,29,31,143,26,31,21,201,33,32,81,339,32*7D
$GPGSV,5,4,17,36,52,277,,40,84,353,36,41,58,082,,49,32,274,*79
$GPGSV,5,5,17,50,10,089,*4A
$GLGSV,2,1,08,68,38,357,22,69,60,276,26,70,10,218,,79,13,162,20*62
$GLGSV,2,2,08,80,14,214,16,81,28,115,18,82,43,056,20,83,19,000,*60
$GNGLL,0419.97549,S,05539.82272,E,104836.00,A,D*6A
$GNRMC,104837.00,A,0419.97548,S,05539.82260,E,0.270,,020625,,,D*76
$GNVTG,,T,,M,0.270,N,0.500,K,D*38
$GNGGA,104837.00,0419.97548,S,05539.82260,E,2,12,0.76,20.6,M,-47.6,M,,0000*44
$GNGSA,A,3,32,29,28,10,18,16,31,25,,,,,1.53,0.76,1.33*11
$GNGSA,A,3,69,68,81,82,,,,,,,,,1.53,0.76,1.33*19
$GPGSV,5,1,17,10,23,345,20,16,24,263,22,18,29,059,20,23,07,024,*71
$GPGSV,5,2,17,24,00,061,,25,06,138,12,26,30,231,22,27,26,324,18*7B
$GPGSV,5,3,17,28,36,172,28,29,31,143,28,31,21,201,33,32,81,339,36*7B
$GPGSV,5,4,17,36,52,277,,40,84,353,35,41,58,082,,49,32,274,*7A
$GPGSV,5,5,17,50,10,089,*4A
$GLGSV,2,1,08,68,38,357,21,69,60,276,24,70,10,218,,79,13,162,21*62
$GLGSV,2,2,08,80,14,214,14,81,28,115,20,82,43,056,19,83,19,000,*63
$GNGLL,0419.97548,S,05539.82260,E,104837.00,A,D*69
$GNRMC,104838.00,A,0419.97556,S,05539.82246,E,0.191,,020625,,,D*7E
$GNVTG,,T,,M,0.191,N,0.353,K,D*34
$GNGGA,104838.00,0419.97556,S,05539.82246,E,2,12,0.74,20.9,M,-47.6,M,,0000*4D
$GNGSA,A,3,32,29,28,10,18,16,31,25,,,,,1.63,0.74,1.45*11
$GNGSA,A,3,69,68,81,82,,,,,,,,,1.63,0.74,1.45*19
$GPGSV,5,1,17,10,23,345,20,16,24,263,22,18,29,059,21,23,07,024,*70
$GPGSV,5,2,17,24,00,061,,25,06,138,14,26,30,231,22,27,26,324,17*72
$GPGSV,5,3,17,28,36,172,27,29,31,143,29,31,21,201,32,32,81,339,35*77
$GPGSV,5,4,17,36,52,277,,40,84,353,34,41,58,082,,49,32,274,*7B
$GPGSV,5,5,17,50,10,089,*4A
$GLGSV,2,1,08,68,38,357,20,69,60,276,25,70,10,218,,79,13,162,20*63
$GLGSV,2,2,08,80,14,214,12,81,28,115,22,82,43,056,27,83,19,000,*6A
$GNGLL,0419.97556,S,05539.82246,E,104838.00,A,D*6D
$GNRMC,104839.00,A,0419.97551,S,05539.82251,E,0.141,,020625,,,D*73
$GNVTG,,T,,M,0.141,N,0.260,K,D*38
$GNGGA,104839.00,0419.97551,S,05539.82251,E,2,12,0.77,20.9,M,-47.6,M,,0000*4E
$GNGSA,A,3,32,29,28,10,18,16,31,25,,,,,1.64,0.77,1.45*15
$GNGSA,A,3,69,68,81,82,,,,,,,,,1.64,0.77,1.45*1D
$GPGSV,5,1,17,10,23,345,20,16,24,263,22,18,29,059,23,23,07,024,*72
$GPGSV,5,2,17,24,00,061,,25,06,138,14,26,30,231,21,27,26,324,16*70
$GPGSV,5,3,17,28,36,172,27,29,31,143,33,31,21,201,37,32,81,339,35*79
$GPGSV,5,4,17,36,52,277,,40,84,353,34,41,58,082,,49,32,274,*7B
$GPGSV,5,5,17,50,10,089,*4A
$GLGSV,2,1,08,68,38,357,24,69,60,276,26,70,10,218,,79,13,162,20*64
$GLGSV,2,2,08,80,14,214,11,81,28,115,20,82,43,056,26,83,19,000,*6A
$GNGLL,0419.97551,S,05539.82251,E,104839.00,A,D*6D
$GNRMC,104840.00,A,0419.97539,S,05539.82247,E,0.078,,020625,,,D*7F
$GNVTG,,T,,M,0.078,N,0.145,K,D*37
$GNGGA,104840.00,0419.97539,S,05539.82247,E,2,12,0.76,20.5,M,-47.6,M,,0000*44
$GNGSA,A,3,32,29,28,10,18,16,31,25,,,,,1.53,0.76,1.33*11
$GNGSA,A,3,69,68,81,82,,,,,,,,,1.53,0.76,1.33*19
$GPGSV,5,1,17,10,23,345,19,16,24,263,22,18,29,059,24,23,07,024,*7F
$GPGSV,5,2,17,24,00,061,,25,06,138,17,26,30,231,23,27,26,324,16*71
$GPGSV,5,3,17,28,37,172,26,29,31,143,27,31,21,201,37,32,81,339,35*7C
$GPGSV,5,4,17,36,52,277,,40,84,353,37,41,58,082,,49,32,274,*78
$GPGSV,5,5,17,50,10,089,*4A
$GLGSV,2,1,08,68,38,357,23,69,60,276,23,70,10,218,,79,13,162,19*6C
$GLGSV,2,2,08,80,14,214,11,81,28,115,19,82,43,056,23,83,19,000,*65
$GNGLL,0419.97539,S,05539.82247,E,104840.00,A,D*6A
$GNRMC,104841.00,A,0419.97534,S,05539.82248,E,0.034,,020625,,,D*74
$GNVTG,,T,,M,0.034,N,0.062,K,D*3B
$GNGGA,104841.00,0419.97534,S,05539.82248,E,2,12,0.76,20.5,M,-47.6,M,,0000*47
$GNGSA,A,3,32,29,28,10,18,16,31,25,,,,,1.53,0.76,1.33*11
$GNGSA,A,3,69,68,81,82,,,,,,,,,1.53,0.76,1.33*19
$GPGSV,5,1,17,10,23,345,19,16,24,263,22,18,29,059,23,23,07,024,*78
$GPGSV,5,2,17,24,00,061,,25,06,138,12,26,30,231,24,27,26,324,15*70
$GPGSV,5,3,17,28,37,172,31,29,31,143,27,31,21,201,36,32,81,339,34*7A
$GPGSV,5,4,17,36,52,277,,40,84,353,37,41,58,082,,49,32,274,*78
$GPGSV,5,5,17,50,10,089,*4A
$GLGSV,2,1,08,68,38,357,21,69,60,276,22,70,10,218,,79,13,162,18*6E
$GLGSV,2,2,08,80,14,214,13,81,28,115,20,82,43,056,21,83,19,000,*6F
$GNGLL,0419.97534,S,05539.82248,E,104841.00,A,D*69
$GNRMC,104842.00,A,0419.97530,S,05539.82250,E,0.046,,020625,,,D*7F
$GNVTG,,T,,M,0.046,N,0.084,K,D*36
$GNGGA,104842.00,0419.97530,S,05539.82250,E,2,12,0.76,20.4,M,-47.6,M,,0000*48
$GNGSA,A,3,32,29,28,10,18,16,31,25,,,,,1.53,0.76,1.33*11
$GNGSA,A,3,69,68,81,82,,,,,,,,,1.53,0.76,1.33*19
$GPGSV,5,1,17,10,23,345,18,16,24,263,22,18,29,059,21,23,07,024,*7B
$GPGSV,5,2,17,24,00,061,,25,06,138,18,26,30,231,25,27,26,324,16*78
$GPGSV,5,3,17,28,37,172,26,29,31,143,25,31,21,201,35,32,81,339,34*7D
$GPGSV,5,4,17,36,52,277,,40,84,353,34,41,58,082,,49,32,274,*7B
$GPGSV,5,5,17,50,10,089,*4A
$GLGSV,2,1,08,68,38,357,24,69,60,276,30,70,10,218,,79,13,162,18*68
$GLGSV,2,2,08,80,14,214,,81,28,115,20,82,43,056,21,83,19,000,*6D
$GNGLL,0419.97530,S,05539.82250,E,104842.00,A,D*67
$GNRMC,104843.00,A,0419.97518,S,05539.82254,E,0.174,,020625,,,D*70
$GNVTG,,T,,M,0.174,N,0.323,K,D*38
$GNGGA,104843.00,0419.97518,S,05539.82254,E,2,12,0.77,19.7,M,-47.6,M,,0000*4F
$GNGSA,A,3,32,29,28,10,18,16,31,25,,,,,1.64,0.77,1.45*15
$GNGSA,A,3,69,68,81,82,,,,,,,,,1.64,0.77,1.45*1D
$GPGSV,5,1,17,10,23,345,18,16,24,263,23,18,29,059,21,23,07,024,*7A
$GPGSV,5,2,17,24,00,061,,25,06,138,20,26,30,231,26,27,26,324,16*70
$GPGSV,5,3,17,28,37,172,29,29,31,143,22,31,22,200,36,32,81,339,37*77
$GPGSV,5,4,17,36,52,277,,40,84,353,36,41,58,082,,49,32,274,*79
$GPGSV,5,5,17,50,10,089,*4A
$GLGSV,2,1,08,68,38,357,26,69,60,276,29,70,10,218,,79,13,162,17*6D
$GLGSV,2,2,08,80,14,214,,81,28,115,19,82,43,056,29,83,19,000,*6F
$GNGLL,0419.97518,S,05539.82254,E,104843.00,A,D*68
$GNRMC,104844.00,A,0419.97505,S,05539.82259,E,0.145,,020625,,,D*74
$GNVTG,,T,,M,0.145,N,0.268,K,D*34
$GNGGA,104844.00,0419.97505,S,05539.82259,E,2,12,0.77,19.2,M,-47.6,M,,0000*4C
$GNGSA,A,3,32,29,28,10,18,16,31,25,,,,,1.64,0.77,1.45*15
$GNGSA,A,3,69,68,81,82,,,,,,,,,1.64,0.77,1.45*1D
$GPGSV,5,1,17,10,23,345,19,16,24,263,21,18,29,059,22,23,07,024,*7A
$GPGSV,5,2,17,24,00,061,,25,06,138,19,26,30,231,25,27,26,324,16*79
$GPGSV,5,3,17,28,37,172,30,29,31,143,24,31,22,200,38,32,80,341,35*7B
$GPGSV,5,4,17,36,52,277,,40,84,353,36,41,58,082,,49,32,274,*79
$GPGSV,5,5,17,50,10,089,*4A
$GLGSV,2,1,08,68,38,357,23,69,60,276,20,70,10,218,,79,13,162,19*6F
$GLGSV,2,2,08,80,14,214,,81,28,115,19,82,43,056,26,83,19,000,*60
$GNGLL,0419.97505,S,05539.82259,E,104844.00,A,D*6E
$GNRMC,104845.00,A,0419.97504,S,05539.82261,E,0.204,,020625,,,D*79
$GNVTG,,T,,M,0.204,N,0.377,K,D*3D
$GNGGA,104845.00,0419.97504,S,05539.82261,E,2,12,0.76,18.9,M,-47.6,M,,0000*4C
$GNGSA,A,3,32,29,28,10,18,16,31,25,,,,,1.53,0.76,1.33*11
$GNGSA,A,3,69,68,81,82,,,,,,,,,1.53,0.76,1.33*19
$GPGSV,5,1,17,10,23,345,18,16,24,263,21,18,29,059,22,23,07,024,*7B
$GPGSV,5,2,17,24,00,061,,25,06,138,20,26,30,231,26,27,26,324,16*70
$GPGSV,5,3,17,28,37,172,30,29,31,143,22,31,22,200,37,32,80,341,35*72
$GPGSV,5,4,17,36,52,277,,40,84,353,36,41,58,082,,49,32,274,*79
$GPGSV,5,5,17,50,10,089,*4A
$GLGSV,2,1,08,68,38,357,21,69,60,276,21,70,10,218,,79,13,162,21*67
$GLGSV,2,2,08,80,14,214,,81,28,115,18,82,43,056,24,83,19,000,*63
$GNGLL,0419.97504,S,05539.82261,E,104845.00,A,D*65
$GNRMC,104846.00,A,0419.97505,S,05539.82274,E,0.231,,020625,,,D*79
$GNVTG,,T,,M,0.231,N,0.427,K,D*39
$GNGGA,104846.00,0419.97505,S,05539.82274,E,2,12,0.76,18.7,M,-47.6,M,,0000*44
$GNGSA,A,3,32,29,28,10,18,16,31,25,,,,,1.53,0.76,1.33*11
$GNGSA,A,3,69,68,81,82,,,,,,,,,1.53,0.76,1.33*19
$GPGSV,5,1,17,10,23,345,17,16,24,263,21,18,29,059,23,23,07,024,*75
$GPGSV,5,2,17,24,00,061,,25,06,138,20,26,30,231,26,27,26,324,15*73
$GPGSV,5,3,17,28,37,172,30,29,31,143,22,31,22,200,37,32,80,341,34*73
$GPGSV,5,4,17,36,52,277,,40,84,353,35,41,58,082,,49,32,274,*7A
$GPGSV,5,5,17,50,10,089,*4A
$GLGSV,2,1,08,68,38,357,21,69,60,276,25,70,10,218,,79,13,162,22*60
$GLGSV,2,2,08,80,14,214,,81,28,115,18,82,43,056,23,83,19,000,*64
$GNGLL,0419.97505,S,05539.82274,E,104846.00,A,D*63
$GNRMC,104847.00,A,0419.97500,S,05539.82287,E,0.011,,020625,,,D*71
$GNVTG,,T,,M,0.011,N,0.020,K,D*3A
$GNGGA,104847.00,0419.97500,S,05539.82287,E,2,12,0.76,18.2,M,-47.6,M,,0000*49
$GNGSA,A,3,32,29,28,10,18,16,31,25,,,,,1.53,0.76,1.33*11
$GNGSA,A,3,69,68,81,82,,,,,,,,,1.53,0.76,1.33*19
$GPGSV,5,1,17,10,23,345,18,16,24,263,22,18,29,059,22,23,07,024,*78
$GPGSV,5,2,17,24,00,061,,25,06,138,21,26,30,231,26,27,26,324,16*71
$GPGSV,5,3,17,28,37,172,30,29,31,143,27,31,22,200,35,32,80,341,34*74
$GPGSV,5,4,17,36,52,277,,40,84,353,35,41,58,082,,49,32,274,*7A
$GPGSV,5,5,17,50,10,089,*4A
$GLGSV,2,1,08,68,38,357,24,69,60,276,25,70,10,218,,79,13,162,22*65
$GLGSV,2,2,08,80,14,214,,81,28,115,20,82,43,056,22,83,19,000,*6E
$GNGLL,0419.97500,S,05539.82287,E,104847.00,A,D*6B
$GNRMC,104848.00,A,0419.97492,S,05539.82320,E,0.958,,020625,,,D*7C
$GNVTG,,T,,M,0.958,N,1.774,K,D*39
$GNGGA,104848.00,0419.97492,S,05539.82320,E,2,12,0.76,17.5,M,-47.6,M,,0000*48
$GNGSA,A,3,32,29,28,10,18,16,31,25,,,,,1.53,0.76,1.33*11
$GNGSA,A,3,69,68,81,82,,,,,,,,,1.53,0.76,1.33*19
$GPGSV,5,1,17,10,23,345,17,16,24,263,21,18,29,059,21,23,07,024,*77
$GPGSV,5,2,17,24,00,061,,25,06,138,21,26,30,231,25,27,26,324,18*7C
$GPGSV,5,3,17,28,37,172,30,29,31,143,24,31,22,200,36,32,80,341,35*75
$GPGSV,5,4,17,36,52,277,,40,84,353,35,41,58,082,,49,32,274,*7A
$GPGSV,5,5,17,50,10,089,*4A
$GLGSV,2,1,08,68,38,357,25,69,60,276,24,70,10,218,,79,13,162,22*65
$GLGSV,2,2,08,80,14,214,,81,28,115,20,82,43,056,20,83,19,000,*6C
$GNGLL,0419.97492,S,05539.82320,E,104848.00,A,D*62
$GNRMC,104849.00,A,0419.97499,S,05539.82330,E,0.166,,020625,,,D*72
$GNVTG,,T,,M,0.166,N,0.308,K,D*32
$GNGGA,104849.00,0419.97499,S,05539.82330,E,2,12,0.76,17.5,M,-47.6,M,,0000*43
$GNGSA,A,3,32,29,28,10,18,16,31,25,,,,,1.53,0.76,1.33*11
$GNGSA,A,3,69,68,81,82,,,,,,,,,1.53,0.76,1.33*19
$GPGSV,5,1,17,10,23,345,15,16,24,263,20,18,29,059,19,23,07,024,*7F
$GPGSV,5,2,17,24,00,061,,25,06,138,22,26,30,231,26,27,26,324,19*7D
$GPGSV,5,3,17,28,37,172,30,29,31,143,23,31,22,200,36,32,80,341,30*77
$GPGSV,5,4,17,36,52,277,,40,84,353,34,41,58,082,,49,32,274,*7B
$GPGSV,5,5,17,50,10,089,*4A
$GLGSV,2,1,08,68,38,357,25,69,60,276,22,70,10,218,,79,13,162,23*62
$GLGSV,2,2,08,80,14,214,,81,28,115,19,82,43,056,21,83,19,000,*67
$GNGLL,0419.97499,S,05539.82330,E,104849.00,A,D*69
$GNRMC,104850.00,A,0419.97493,S,05539.82336,E,0.089,,020625,,,D*76
$GNVTG,,T,,M,0.089,N,0.165,K,D*3B
$GNGGA,104850.00,0419.97493,S,05539.82336,E,2,12,0.76,17.2,M,-47.6,M,,0000*40
$GNGSA,A,3,32,29,28,10,18,16,31,25,,,,,1.53,0.76,1.33*11
$GNGSA,A,3,69,68,81,82,,,,,,,,,1.53,0.76,1.33*19
$GPGSV,5,1,17,10,23,345,17,16,24,263,19,18,29,059,18,23,07,024,*76
$GPGSV,5,2,17,24,00,061,,25,06,138,20,26,30,231,27,27,26,324,17*70
$GPGSV,5,3,17,28,37,172,30,29,31,143,21,31,22,200,35,32,80,341,35*73
$GPGSV,5,4,17,36,52,277,,40,84,353,34,41,58,082,,49,32,274,*7B
$GPGSV,5,5,17,50,10,089,*4A
$GLGSV,2,1,08,68,38,357,25,69,60,276,24,70,10,218,,79,13,162,23*64
$GLGSV,2,2,08,80,14,214,,81,28,115,21,82,43,056,22,83,19,000,*6F
$GNGLL,0419.97493,S,05539.82336,E,104850.00,A,D*6D
$GNRMC,104851.00,A,0419.97483,S,05539.82350,E,0.301,,020625,,,D*75
$GNVTG,,T,,M,0.301,N,0.558,K,D*32
$GNGGA,104851.00,0419.97483,S,05539.82350,E,2,12,0.76,16.5,M,-47.6,M,,0000*46
$GNGSA,A,3,32,29,28,10,18,16,31,25,,,,,1.53,0.76,1.33*11
$GNGSA,A,3,69,68,81,82,,,,,,,,,1.53,0.76,1.33*19
$GPGSV,5,1,17,10,23,345,17,16,24,263,19,18,29,059,17,23,07,024,*79
$GPGSV,5,2,17,24,00,061,,25,06,138,21,26,30,231,27,27,26,324,16*70
$GPGSV,5,3,17,28,37,172,30,29,31,143,24,31,22,200,36,32,80,341,36*76
$GPGSV,5,4,17,36,52,277,,40,84,353,35,41,58,082,35,49,32,274,*7C
$GPGSV,5,5,17,50,10,089,*4A
$GLGSV,2,1,08,68,38,357,26,69,60,276,22,70,10,218,,79,13,162,21*63
$GLGSV,2,2,08,80,14,214,,81,28,115,22,82,43,056,23,83,19,000,*6D
$GNGLL,0419.97483,S,05539.82350,E,104851.00,A,D*6D
$GNRMC,104852.00,A,0419.97486,S,05539.82361,E,0.175,,020625,,,D*70
$GNVTG,,T,,M,0.175,N,0.324,K,D*3E
$GNGGA,104852.00,0419.97486,S,05539.82361,E,2,12,0.76,16.6,M,-47.6,M,,0000*41
$GNGSA,A,3,32,29,28,10,18,16,31,25,,,,,1.53,0.76,1.33*11
$GNGSA,A,3,69,68,81,82,,,,,,,,,1.53,0.76,1.33*19
$GPGSV,5,1,17,10,23,345,17,16,24,263,20,18,29,059,17,23,07,024,*73
$GPGSV,5,2,17,24,00,061,,25,06,138,22,26,30,231,26,27,26,324,15*71
$GPGSV,5,3,17,28,37,172,29,29,31,143,25,31,22,200,36,32,80,341,36*7F
$GPGSV,5,4,17,36,52,277,,40,84,353,35,41,58,082,34,49,32,274,*7D
$GPGSV,5,5,17,50,10,089,*4A
$GLGSV,2,1,08,68,38,357,27,69,60,276,22,70,10,218,,79,13,162,21*62
$GLGSV,2,2,08,80,14,214,,81,28,115,22,82,43,056,21,83,19,000,*6F
$GNGLL,0419.97486,S,05539.82361,E,104852.00,A,D*69
$GNRMC,104853.00,A,0419.97483,S,05539.82367,E,0.066,,020625,,,D*71
$GNVTG,,T,,M,0.066,N,0.122,K,D*39
$GNGGA,104853.00,0419.97483,S,05539.82367,E,2,12,0.76,16.3,M,-47.6,M,,0000*46
$GNGSA,A,3,32,29,28,10,18,16,31,25,,,,,1.53,0.76,1.33*11
$GNGSA,A,3,69,68,81,82,,,,,,,,,1.53,0.76,1.33*19
$GPGSV,5,1,17,10,23,345,16,16,24,263,20,18,29,059,21,23,07,024,*77
$GPGSV,5,2,17,24,00,061,,25,06,138,21,26,30,231,25,27,26,324,15*71
$GPGSV,5,3,17,28,37,172,29,29,31,143,26,31,22,200,36,32,80,341,33*79
$GPGSV,5,4,17,36,52,277,,40,84,353,36,41,58,082,34,49,32,274,*7E
$GPGSV,5,5,17,50,10,089,*4A
$GLGSV,2,1,08,68,38,357,26,69,60,276,20,70,10,218,,79,13,162,24*64
$GLGSV,2,2,08,80,14,214,,81,28,115,21,82,43,056,20,83,19,000,*6D
$GNGLL,0419.97483,S,05539.82367,E,104853.00,A,D*6B
$GNRMC,104854.00,A,0419.97482,S,05539.82365,E,0.188,,020625,,,D*74
$GNVTG,,T,,M,0.188,N,0.349,K,D*37
$GNGGA,104854.00,0419.97482,S,05539.82365,E,2,12,0.75,16.1,M,-47.6,M,,0000*43
$GNGSA,A,3,32,29,28,10,18,16,31,25,40,,,,1.38,0.75,1.16*1C
$GNGSA,A,3,69,68,81,82,,,,,,,,,1.38,0.75,1.16*10
$GPGSV,5,1,17,10,23,345,16,16,24,263,20,18,29,059,24,23,07,024,*72
$GPGSV,5,2,17,24,00,061,13,25,06,138,21,26,30,231,27,27,26,324,17*73
$GPGSV,5,3,17,28,37,172,29,29,31,143,27,31,22,200,34,32,80,341,37*7E
$GPGSV,5,4,17,36,52,277,,40,84,353,36,41,58,082,33,49,32,274,*79
$GPGSV,5,5,17,50,10,089,*4A
$GLGSV,2,1,08,68,38,357,26,69,60,276,21,70,10,218,,79,13,162,21*60
$GLGSV,2,2,08,80,14,214,,81,28,115,21,82,43,056,21,83,19,000,*6C
$GNGLL,0419.97482,S,05539.82365,E,104854.00,A,D*6F
$GNRMC,104855.00,A,0419.97488,S,05539.82359,E,0.320,,020625,,,D*70
$GNVTG,,T,,M,0.320,N,0.592,K,D*37
$GNGGA,104855.00,0419.97488,S,05539.82359,E,2,12,0.75,16.2,M,-47.6,M,,0000*44
$GNGSA,A,3,32,29,28,10,18,16,31,25,40,,,,1.38,0.75,1.16*1C
$GNGSA,A,3,69,68,81,82,,,,,,,,,1.38,0.75,1.16*10
$GPGSV,5,1,17,10,23,345,17,16,24,263,21,18,29,059,22,23,07,024,05*71
$GPGSV,5,2,17,24,00,061,,25,06,138,20,26,30,231,28,27,26,324,16*7E
$GPGSV,5,3,17,28,37,172,28,29,31,143,26,31,22,200,35,32,80,341,37*7F
$GPGSV,5,4,17,36,52,277,,40,84,353,35,41,58,082,33,49,32,274,*7A
$GPGSV,5,5,17,50,10,089,*4A
$GLGSV,2,1,08,68,38,357,27,69,60,276,25,70,10,218,,79,13,162,20*64
$GLGSV,2,2,08,80,14,214,,81,28,115,21,82,43,056,26,83,19,000,*6B
$GNGLL,0419.97488,S,05539.82359,E,104855.00,A,D*6B
$GNRMC,104856.00,A,0419.97494,S,05539.82350,E,0.045,,020625,,,D*77
$GNVTG,,T,,M,0.045,N,0.084,K,D*35
$GNGGA,104856.00,0419.97494,S,05539.82350,E,2,12,0.73,16.4,M,-47.6,M,,0000*43
$GNGSA,A,3,32,29,28,10,18,16,31,25,40,,,,1.37,0.73,1.16*15
$GNGSA,A,3,69,68,81,82,,,,,,,,,1.37,0.73,1.16*19
$GPGSV,5,1,17,10,23,345,17,16,24,263,21,18,29,059,20,23,07,024,08*7E
$GPGSV,5,2,17,24,00,061,,25,06,138,20,26,30,231,28,27,26,324,*79
$GPGSV,5,3,17,28,37,172,26,29,31,143,26,31,22,200,35,32,80,341,36*70
$GPGSV,5,4,17,36,52,277,,40,84,353,35,41,58,082,33,49,32,274,*7A
$GPGSV,5,5,17,50,10,089,*4A
$GLGSV,2,1,08,68,38,357,26,69,60,276,26,70,10,218,,79,13,162,18*6D
$GLGSV,2,2,08,80,14,214,,81,28,115,20,82,43,056,25,83,19,000,*69
$GNGLL,0419.97494,S,05539.82350,E,104856.00,A,D*6C
$GNRMC,104857.00,A,0419.97497,S,05539.82353,E,0.270,,020625,,,D*72
$GNVTG,,T,,M,0.270,N,0.500,K,D*38
$GNGGA,104857.00,0419.97497,S,05539.82353,E,2,12,0.73,16.3,M,-47.6,M,,0000*45
$GNGSA,A,3,32,29,28,10,18,16,31,25,40,,,,1.37,0.73,1.16*15
$GNGSA,A,3,69,68,81,82,,,,,,,,,1.37,0.73,1.16*19
$GPGSV,5,1,17,10,23,345,17,16,24,263,20,18,29,059,21,23,07,024,10*77
$GPGSV,5,2,17,24,00,061,,25,06,138,20,26,30,231,29,27,26,324,17*7E
$GPGSV,5,3,17,28,37,172,25,29,31,143,28,31,22,200,38,32,80,341,36*70
$GPGSV,5,4,17,36,52,277,,40,84,353,36,41,58,082,32,49,32,274,*78
$GPGSV,5,5,17,50,10,089,*4A
$GLGSV,2,1,08,68,38,357,25,69,60,276,26,70,10,218,,79,13,162,17*61
$GLGSV,2,2,08,80,14,214,,81,28,115,17,82,43,056,25,83,19,000,*6D
$GNGLL,0419.97497,S,05539.82353,E,104857.00,A,D*6D
$GNRMC,104858.00,A,0419.97496,S,05539.82354,E,0.014,,020625,,,D*7B
$GNVTG,,T,,M,0.014,N,0.025,K,D*3A
$GNGGA,104858.00,0419.97496,S,05539.82354,E,2,12,0.75,16.0,M,-47.6,M,,0000*49
$GNGSA,A,3,32,29,28,10,18,16,31,25,40,,,,1.38,0.75,1.16*1C
$GNGSA,A,3,69,68,81,82,,,,,,,,,1.38,0.75,1.16*10
$GPGSV,5,1,17,10,23,345,18,16,24,263,18,18,29,059,20,23,07,024,08*7B
$GPGSV,5,2,17,24,00,061,,25,06,138,19,26,30,231,27,27,26,324,16*7B
$GPGSV,5,3,17,28,37,172,24,29,31,143,30,31,22,200,33,32,80,341,35*70
$GPGSV,5,4,17,36,52,277,,40,84,353,34,41,58,082,32,49,32,274,*7A
$GPGSV,5,5,17,50,10,089,*4A
$GLGSV,2,1,08,68,38,357,25,69,60,276,25,70,10,218,,79,13,162,15*60
$GLGSV,2,2,08,80,14,214,,81,28,115,15,82,43,056,26,83,19,000,*6C
$GNGLL,0419.97496,S,05539.82354,E,104858.00,A,D*64
$GNRMC,104859.00,A,0419.97501,S,05539.82353,E,0.062,,020625,,,D*73
$GNVTG,,T,,M,0.062,N,0.115,K,D*39
$GNGGA,104859.00,0419.97501,S,05539.82353,E,2,12,0.75,16.2,M,-47.6,M,,0000*42
$GNGSA,A,3,32,29,28,10,18,16,31,25,40,,,,1.38,0.75,1.16*1C
$GNGSA,A,3,69,68,81,82,,,,,,,,,1.38,0.75,1.16*10
$GPGSV,5,1,17,10,23,345,16,16,24,263,17,18,29,059,19,23,07,024,08*70
$GPGSV,5,2,17,24,00,061,,25,06,138,21,26,30,231,26,27,26,324,13*74
$GPGSV,5,3,17,28,37,172,26,29,31,143,28,31,22,200,33,32,80,341,36*78
$GPGSV,5,4,17,36,52,277,,40,84,353,33,41,58,082,32,49,32,274,*7D
$GPGSV,5,5,17,50,10,089,*4A
$GLGSV,2,1,08,68,38,357,27,69,60,276,31,70,10,218,,79,13,162,*63
$GLGSV,2,2,08,80,14,214,,81,28,115,14,82,43,056,27,83,19,000,*6C
$GNGLL,0419.97501,S,05539.82353,E,104859.00,A,D*6D
$GNRMC,104900.00,A,0419.97505,S,05539.82352,E,0.090,,020625,,,D*76
$GNVTG,,T,,M,0.090,N,0.167,K,D*31
$GNGGA,104900.00,0419.97505,S,05539.82352,E,2,12,0.75,16.3,M,-47.6,M,,0000*4B
$GNGSA,A,3,32,29,23,28,10,18,16,31,25,40,,,1.38,0.75,1.16*1D
$GNGSA,A,3,69,68,81,82,,,,,,,,,1.38,0.75,1.16*10
$GPGSV,5,1,17,10,23,345,14,16,24,263,17,18,29,059,20,23,07,024,10*71
$GPGSV,5,2,17,24,00,061,,25,06,138,19,26,30,231,26,27,26,324,12*7E
$GPGSV,5,3,17,28,37,172,24,29,31,143,27,31,22,200,33,32,80,341,36*75
$GPGSV,5,4,17,36,52,277,,40,84,353,33,41,58,082,32,49,32,274,*7D
$GPGSV,5,5,17,50,10,089,*4A
$GLGSV,2,1,08,68,38,357,26,69,60,276,30,70,10,218,,79,13,162,*63
$GLGSV,2,2,08,80,14,214,,81,28,115,18,82,43,056,29,83,19,000,*6E
$GNGLL,0419.97505,S,05539.82352,E,104900.00,A,D*65
$GNRMC,104901.00,A,0419.97507,S,05539.82351,E,0.232,,020625,,,D*7C
$GNVTG,,T,,M,0.232,N,0.430,K,D*3C
$GNGGA,104901.00,0419.97507,S,05539.82351,E,2,12,0.83,16.2,M,-47.6,M,,0000*43
$GNGSA,A,3,32,29,23,28,18,16,31,25,40,,,,1.55,0.83,1.31*1B
$GNGSA,A,3,69,68,81,82,,,,,,,,,1.55,0.83,1.31*17
$GPGSV,5,1,17,10,23,345,,16,24,263,18,18,29,059,22,23,07,024,10*79
$GPGSV,5,2,17,24,00,061,,25,06,138,17,26,30,231,25,27,26,324,14*75
$GPGSV,5,3,17,28,37,172,23,29,31,143,26,31,22,200,34,32,80,341,36*74
$GPGSV,5,4,17,36,52,277,,40,84,353,36,41,58,082,33,49,32,274,*79
$GPGSV,5,5,17,50,10,089,*4A
$GLGSV,2,1,08,68,38,357,27,69,60,276,21,70,10,218,,79,13,162,*62
$GLGSV,2,2,08,80,14,214,,81,28,115,20,82,43,056,27,83,19,000,*6B
$GNGLL,0419.97507,S,05539.82351,E,104901.00,A,D*65
$GNRMC,104902.00,A,0419.97509,S,05539.82355,E,0.213,,020625,,,D*76
$GNVTG,,T,,M,0.213,N,0.394,K,D*36
$GNGGA,104902.00,0419.97509,S,05539.82355,E,2,12,0.83,16.2,M,-47.6,M,,0000*4A
$GNGSA,A,3,32,29,23,28,18,16,31,25,40,,,,1.55,0.83,1.31*1B
$GNGSA,A,3,69,68,81,82,,,,,,,,,1.55,0.83,1.31*17
$GPGSV,5,1,17,10,23,345,16,16,24,263,18,18,29,059,22,23,07,024,10*7E
$GPGSV,5,2,17,24,00,061,,25,06,138,18,26,30,231,25,27,26,324,14*7A
$GPGSV,5,3,17,28,37,172,24,29,31,143,26,31,22,200,34,32,80,341,32*77
$GPGSV,5,4,17,36,52,277,,40,84,353,35,41,58,082,34,49,32,274,*7D
$GPGSV,5,5,17,50,10,089,*4A
$GLGSV,2,1,08,68,38,357,26,69,60,276,22,70,10,218,,79,13,162,*60
$GLGSV,2,2,08,80,14,214,,81,28,115,22,82,43,056,26,83,19,000,*68
$GNGLL,0419.97509,S,05539.82355,E,104902.00,A,D*6C
$GNRMC,104903.00,A,0419.97505,S,05539.82353,E,0.101,,020625,,,D*7D
$GNVTG,,T,,M,0.101,N,0.188,K,D*39
$GNGGA,104903.00,0419.97505,S,05539.82353,E,2,12,0.83,16.0,M,-47.6,M,,0000*43
$GNGSA,A,3,32,29,23,28,18,16,31,25,40,,,,1.55,0.83,1.31*1B
$GNGSA,A,3,69,68,81,82,,,,,,,,,1.55,0.83,1.31*17
$GPGSV,5,1,17,10,23,345,14,16,24,263,19,18,29,059,23,23,07,024,09*74
$GPGSV,5,2,17,24,00,061,,25,06,138,19,26,30,231,22,27,26,324,14*7C
$GPGSV,5,3,17,28,37,172,23,29,31,143,27,31,22,200,32,32,80,341,36*73
$GPGSV,5,4,17,36,52,277,,40,84,353,34,41,58,082,31,49,32,274,*79
$GPGSV,5,5,17,50,10,089,*4A
$GLGSV,2,1,08,68,38,357,25,69,60,276,26,70,10,218,,79,13,162,*67
$GLGSV,2,2,08,80,14,214,,81,28,115,22,82,43,056,25,83,19,000,*6B
$GNGLL,0419.97505,S,05539.82353,E,104903.00,A,D*67
$GNRMC,104904.00,A,0419.97506,S,05539.82354,E,0.047,,020625,,,D*7D
$GNVTG,,T,,M,0.047,N,0.087,K,D*34
$GNGGA,104904.00,0419.97506,S,05539.82354,E,2,12,0.83,16.1,M,-47.6,M,,0000*41
$GNGSA,A,3,32,29,23,28,18,16,31,25,40,,,,1.55,0.83,1.31*1B
