$GNRMC,105209.00,A,0419.96465,S,05539.82682,E,0.103,,020625,,,A*75
$GNVTG,,T,,M,0.103,N,0.190,K,A*37
$GNGGA,105209.00,0419.96465,S,05539.82682,E,1,12,0.73,24.0,M,-47.6,M,,*41
$GNGSA,A,3,32,29,28,10,18,16,31,25,40,,,,1.37,0.73,1.16*15
$GNGSA,A,3,69,68,81,82,,,,,,,,,1.37,0.73,1.16*19
$GPGSV,4,1,16,10,23,347,17,16,24,262,11,18,29,060,26,23,07,025,06*7D
$GPGSV,4,2,16,25,06,138,21,26,30,230,20,27,27,323,24,28,37,171,28*73
$GPGSV,4,3,16,29,30,143,26,31,22,199,27,32,79,343,27,36,52,277,*7B
$GPGSV,4,4,16,40,84,353,30,41,58,082,,49,32,274,,50,10,089,*7A
$GLGSV,2,1,08,68,36,357,24,69,59,280,29,70,11,219,,79,13,161,21*64
$GLGSV,2,2,08,80,14,212,,81,27,117,28,82,44,058,23,83,21,001,*6F
$GNGLL,0419.96465,S,05539.82682,E,105209.00,A,A*6D
$GNRMC,105210.00,A,0419.96448,S,05539.82679,E,0.567,,020625,,,A*70
$GNVTG,,T,,M,0.567,N,1.050,K,A*3D
$GNGGA,105210.00,0419.96448,S,05539.82679,E,1,12,0.73,23.4,M,-47.6,M,,*41
$GNGSA,A,3,32,29,28,10,18,16,31,25,40,,,,1.37,0.73,1.16*15
$GNGSA,A,3,69,68,81,82,,,,,,,,,1.37,0.73,1.16*19
$GPGSV,4,1,16,10,23,347,16,16,24,262,11,18,29,060,24,23,07,025,06*7E
$GPGSV,4,2,16,25,06,138,18,26,30,230,18,27,27,323,21,28,37,171,25*7A
$GPGSV,4,3,16,29,30,143,23,31,22,199,24,32,79,343,25,36,52,277,*7F
$GPGSV,4,4,16,40,84,353,27,41,58,082,,49,32,274,,50,10,089,*7C
$GLGSV,2,1,08,68,36,357,21,69,59,280,26,70,11,219,,79,13,161,22*6D
$GLGSV,2,2,08,80,14,212,,81,27,117,21,82,44,058,21,83,21,001,*64
$GNGLL,0419.96448,S,05539.82679,E,105210.00,A,A*6E
$GNRMC,105211.00,A,0419.96445,S,05539.82675,E,0.167,,020625,,,A*74
$GNVTG,,T,,M,0.167,N,0.310,K,A*3F
$GNGGA,105211.00,0419.96445,S,05539.82675,E,1,11,0.86,22.9,M,-47.6,M,,*44
$GNGSA,A,3,32,29,28,10,18,31,25,,,,,,1.68,0.86,1.44*11
$GNGSA,A,3,69,68,81,82,,,,,,,,,1.68,0.86,1.44*1E
$GPGSV,4,1,16,10,23,347,17,16,24,262,,18,29,060,31,23,07,025,*7D
$GPGSV,4,2,16,25,06,138,16,26,30,230,22,27,27,323,15,28,37,171,31*7F
$GPGSV,4,3,16,29,30,143,20,31,22,199,31,32,79,343,27,36,52,277,*7A
$GPGSV,4,4,16,40,84,353,,41,58,082,,49,32,274,,50,10,089,*79
$GLGSV,2,1,08,68,36,357,20,69,59,280,32,70,11,219,,79,13,161,25*6E
$GLGSV,2,2,08,80,14,212,,81,27,117,24,82,44,058,19,83,21,001,*6A
$GNGLL,0419.96445,S,05539.82675,E,105211.00,A,A*6E
$GNRMC,105212.00,A,0419.96444,S,05539.82668,E,0.364,,020625,,,A*7B
$GNVTG,,T,,M,0.364,N,0.673,K,A*3E
$GNGGA,105212.00,0419.96444,S,05539.82668,E,1,11,0.86,22.7,M,-47.6,M,,*44
$GNGSA,A,3,32,29,28,10,18,31,25,,,,,,1.68,0.86,1.44*11
$GNGSA,A,3,69,68,81,82,,,,,,,,,1.68,0.86,1.44*1E
$GPGSV,4,1,16,10,23,347,18,16,24,262,,18,29,060,29,23,07,025,*7B
$GPGSV,4,2,16,25,06,138,16,26,30,230,24,27,27,323,25,28,37,171,32*79
$GPGSV,4,3,16,29,30,143,19,31,22,199,29,32,79,343,27,36,52,277,*79
$GPGSV,4,4,16,40,84,353,,41,58,082,,49,32,274,,50,10,089,*79
$GLGSV,2,1,08,68,36,357,22,69,59,280,32,70,11,219,,79,13,161,24*6D
$GLGSV,2,2,08,80,14,212,,81,27,117,22,82,44,058,24,83,21,001,*62
$GNGLL,0419.96444,S,05539.82668,E,105212.00,A,A*60
$GNRMC,105213.00,A,0419.96441,S,05539.82669,E,0.207,,020625,,,A*7A
$GNVTG,,T,,M,0.207,N,0.384,K,A*37
$GNGGA,105213.00,0419.96441,S,05539.82669,E,1,11,0.86,23.1,M,-47.6,M,,*46
$GNGSA,A,3,32,29,28,10,18,31,25,,,,,,1.68,0.86,1.44*11
$GNGSA,A,3,69,68,81,82,,,,,,,,,1.68,0.86,1.44*1E
$GPGSV,4,1,16,10,23,347,18,16,24,262,16,18,29,060,28,23,07,025,*7D
$GPGSV,4,2,16,25,06,138,17,26,30,230,23,27,27,323,25,28,37,171,31*7C
$GPGSV,4,3,16,29,30,143,30,31,22,199,31,32,79,343,32,36,52,277,*7F
$GPGSV,4,4,16,40,84,353,,41,58,082,,49,32,274,,50,10,089,*79
$GLGSV,2,1,08,68,36,357,22,69,59,280,31,70,11,219,,79,13,161,22*68
$GLGSV,2,2,08,80,14,212,22,81,27,117,25,82,44,058,24,83,21,001,*65
$GNGLL,0419.96441,S,05539.82669,E,105213.00,A,A*65
$GNRMC,105214.00,A,0419.96444,S,05539.82675,E,0.014,,020625,,,A*75
$GNVTG,,T,,M,0.014,N,0.025,K,A*3F
$GNGGA,105214.00,0419.96444,S,05539.82675,E,1,11,0.86,23.5,M,-47.6,M,,*4D
$GNGSA,A,3,32,29,28,10,18,31,25,,,,,,1.68,0.86,1.44*11
$GNGSA,A,3,69,68,81,82,,,,,,,,,1.68,0.86,1.44*1E
$GPGSV,4,1,16,10,23,347,16,16,24,262,15,18,29,060,28,23,07,025,*70
$GPGSV,4,2,16,25,06,138,20,26,30,230,27,27,27,323,25,28,37,171,36*7B
$GPGSV,4,3,16,29,30,143,24,31,22,199,32,32,79,343,31,36,52,277,*7A
$GPGSV,4,4,16,40,84,353,,41,58,082,,49,32,274,,50,10,089,*79
$GLGSV,2,1,08,68,36,357,22,69,59,280,32,70,11,219,,79,13,161,23*6A
$GLGSV,2,2,08,80,14,212,21,81,27,117,35,82,44,058,22,83,21,001,*61
$GNGLL,0419.96444,S,05539.82675,E,105214.00,A,A*6A
$GNRMC,105215.00,A,0419.96448,S,05539.82682,E,0.025,,020625,,,A*72
$GNVTG,,T,,M,0.025,N,0.047,K,A*39
$GNGGA,105215.00,0419.96448,S,05539.82682,E,1,11,0.86,23.6,M,-47.6,M,,*4B
$GNGSA,A,3,32,29,28,10,18,31,25,,,,,,1.68,0.86,1.44*11
$GNGSA,A,3,69,68,81,82,,,,,,,,,1.68,0.86,1.44*1E
$GPGSV,4,1,16,10,23,347,15,16,24,262,14,18,29,060,28,23,07,025,*72
$GPGSV,4,2,16,25,06,138,21,26,30,230,25,27,27,323,23,28,37,171,28*71
$GPGSV,4,3,16,29,30,143,27,31,22,199,27,32,79,343,29,36,52,277,*74
$GPGSV,4,4,16,40,84,353,,41,58,082,,49,32,274,,50,10,089,*79
$GLGSV,2,1,08,68,36,357,23,69,59,280,31,70,11,219,,79,13,161,26*6D
$GLGSV,2,2,08,80,14,212,20,81,27,117,35,82,44,058,29,83,21,001,*6B
$GNGLL,0419.96448,S,05539.82682,E,105215.00,A,A*6F
$GNRMC,105216.00,A,0419.96456,S,05539.82683,E,0.039,,020625,,,A*72
$GNVTG,,T,,M,0.039,N,0.072,K,A*32
$GNGGA,105216.00,0419.96456,S,05539.82683,E,1,12,0.86,23.9,M,-47.6,M,,*4A
$GNGSA,A,3,32,29,28,10,18,31,25,40,,,,,1.53,0.86,1.27*18
$GNGSA,A,3,69,68,81,82,,,,,,,,,1.53,0.86,1.27*13
$GPGSV,4,1,16,10,23,347,13,16,24,262,13,18,30,061,30,23,07,025,*73
$GPGSV,4,2,16,25,06,138,20,26,30,230,24,27,27,323,21,28,37,171,29*72
$GPGSV,4,3,16,29,30,143,26,31,22,199,27,32,79,343,34,36,52,277,*79
$GPGSV,4,4,16,40,84,353,30,41,58,082,,49,32,274,,50,10,089,*7A
$GLGSV,2,1,08,68,36,357,24,69,59,280,30,70,11,219,,79,13,161,26*6B
$GLGSV,2,2,08,80,14,212,18,81,27,117,35,82,44,058,28,83,21,001,*61
$GNGLL,0419.96456,S,05539.82683,E,105216.00,A,A*62
$GNRMC,105217.00,A,0419.96461,S,05539.82686,E,0.108,,020625,,,A*71
$GNVTG,,T,,M,0.108,N,0.201,K,A*37
$GNGGA,105217.00,0419.96461,S,05539.82686,E,1,12,0.86,23.8,M,-47.6,M,,*4B
$GNGSA,A,3,32,29,28,10,18,16,31,25,40,,,,1.68,0.86,1.44*12
$GNGSA,A,3,69,68,81,82,,,,,,,,,1.68,0.86,1.44*1E
$GPGSV,4,1,16,10,23,347,14,16,24,262,14,18,30,061,31,23,07,025,*72
$GPGSV,4,2,16,25,06,138,20,26,30,230,24,27,27,323,21,28,37,171,29*72
$GPGSV,4,3,16,29,30,143,26,31,22,199,27,32,79,343,33,36,52,277,*7E
$GPGSV,4,4,16,40,84,353,32,41,58,082,,49,32,274,,50,10,089,*78
$GLGSV,2,1,08,68,36,357,26,69,59,280,30,70,11,219,,79,13,161,26*69
$GLGSV,2,2,08,80,14,212,18,81,27,117,32,82,44,058,26,83,21,001,*68
$GNGLL,0419.96461,S,05539.82686,E,105217.00,A,A*62
$GNRMC,105218.00,A,0419.96465,S,05539.82683,E,0.109,,020625,,,A*7E
$GNVTG,,T,,M,0.109,N,0.203,K,A*34
$GNGGA,105218.00,0419.96465,S,05539.82683,E,1,12,0.86,23.7,M,-47.6,M,,*4A
$GNGSA,A,3,32,29,28,10,18,16,31,25,40,,,,1.68,0.86,1.44*12
$GNGSA,A,3,69,68,81,82,,,,,,,,,1.68,0.86,1.44*1E
$GPGSV,4,1,16,10,23,347,15,16,24,262,13,18,30,061,31,23,07,025,*74
$GPGSV,4,2,16,25,06,138,21,26,30,230,25,27,27,323,23,28,37,171,34*7C
$GPGSV,4,3,16,29,30,143,31,31,22,199,29,32,79,343,27,36,52,277,*73
$GPGSV,4,4,16,40,84,353,30,41,58,082,,49,32,274,,50,10,089,*7A
$GLGSV,2,1,08,68,36,357,26,69,59,280,30,70,11,219,,79,13,161,26*69
$GLGSV,2,2,08,80,14,212,18,81,27,117,36,82,44,058,23,83,21,001,*69
$GNGLL,0419.96465,S,05539.82683,E,105218.00,A,A*6C
$GNRMC,105219.00,A,0419.96470,S,05539.82688,E,0.156,,020625,,,A*7A
$GNVTG,,T,,M,0.156,N,0.290,K,A*34
$GNGGA,105219.00,0419.96470,S,05539.82688,E,1,12,0.86,23.9,M,-47.6,M,,*4A
$GNGSA,A,3,32,29,28,10,18,16,31,25,40,,,,1.68,0.86,1.44*12
$GNGSA,A,3,69,68,81,82,,,,,,,,,1.68,0.86,1.44*1E
$GPGSV,4,1,16,10,23,347,16,16,24,262,14,18,30,061,30,23,07,025,*71
$GPGSV,4,2,16,25,06,138,21,26,30,230,26,27,27,323,23,28,37,171,38*73
$GPGSV,4,3,16,29,30,143,27,31,22,199,31,32,79,343,33,36,52,277,*78
$GPGSV,4,4,16,40,84,353,30,41,58,082,,49,32,274,,50,10,089,*7A
$GLGSV,2,1,08,68,36,357,26,69,59,280,32,70,11,219,,79,13,161,24*69
$GLGSV,2,2,08,80,14,212,17,81,27,117,25,82,44,058,21,83,21,001,*66
$GNGLL,0419.96470,S,05539.82688,E,105219.00,A,A*62
$GNRMC,105220.00,A,0419.96476,S,05539.82684,E,0.161,,020625,,,A*7E
$GNVTG,,T,,M,0.161,N,0.298,K,A*38
$GNGGA,105220.00,0419.96476,S,05539.82684,E,1,12,0.86,24.0,M,-47.6,M,,*44
$GNGSA,A,3,32,29,28,10,18,16,31,25,40,,,,1.68,0.86,1.44*12
$GNGSA,A,3,69,68,81,82,,,,,,,,,1.68,0.86,1.44*1E
$GPGSV,4,1,16,10,23,347,19,16,24,262,13,18,30,061,30,23,07,025,*79
$GPGSV,4,2,16,25,06,138,21,26,30,230,26,27,27,323,21,28,37,171,36*7F
$GPGSV,4,3,16,29,30,143,27,31,22,199,31,32,79,343,32,36,52,277,*79
$GPGSV,4,4,16,40,84,353,27,41,58,082,,49,32,274,,50,10,089,*7C
$GLGSV,2,1,08,68,36,357,25,69,59,280,33,70,11,219,,79,13,161,30*6E
$GLGSV,2,2,08,80,14,212,20,81,27,117,26,82,44,058,20,83,21,001,*60
$GNGLL,0419.96476,S,05539.82684,E,105220.00,A,A*62
$GNRMC,105221.00,A,0419.96479,S,05539.82687,E,0.123,,020625,,,A*75
$GNVTG,,T,,M,0.123,N,0.228,K,A*35
$GNGGA,105221.00,0419.96479,S,05539.82687,E,1,12,0.86,24.4,M,-47.6,M,,*4D
$GNGSA,A,3,32,29,28,10,18,16,31,25,40,,,,1.68,0.86,1.44*12
$GNGSA,A,3,69,68,81,82,,,,,,,,,1.68,0.86,1.44*1E
$GPGSV,4,1,16,10,23,347,17,16,24,262,11,18,30,061,24,23,07,025,*70
$GPGSV,4,2,16,25,06,138,21,26,30,230,27,27,27,323,20,28,37,171,37*7E
$GPGSV,4,3,16,29,30,143,25,31,22,199,30,32,79,343,32,36,52,277,*7A
$GPGSV,4,4,16,40,84,353,28,41,58,082,,49,32,274,,50,10,089,*73
$GLGSV,2,1,08,68,36,357,24,69,59,280,33,70,11,219,,79,13,161,29*67
$GLGSV,2,2,08,80,14,212,22,81,27,117,24,82,44,058,20,83,21,001,*60
$GNGLL,0419.96479,S,05539.82687,E,105221.00,A,A*6F
$GNRMC,105222.00,A,0419.96487,S,05539.82699,E,0.036,,020625,,,A*7D
$GNVTG,,T,,M,0.036,N,0.067,K,A*39
$GNGGA,105222.00,0419.96487,S,05539.82699,E,1,12,0.87,25.2,M,-47.6,M,,*46
$GNGSA,A,3,32,29,28,10,18,16,31,25,40,,,,1.68,0.87,1.43*14
$GNGSA,A,3,69,68,81,82,,,,,,,,,1.68,0.87,1.43*18
$GPGSV,4,1,16,10,23,347,17,16,24,262,10,18,30,061,24,23,07,025,*71
$GPGSV,4,2,16,25,05,137,19,26,30,230,27,27,27,323,20,28,37,171,37*79
$GPGSV,4,3,16,29,30,143,25,31,22,199,30,32,79,343,35,36,52,277,*7D
$GPGSV,4,4,16,40,84,353,29,41,58,082,,49,32,274,,50,10,089,*72
$GLGSV,2,1,08,68,36,357,25,69,59,280,34,70,11,219,,79,13,161,27*6F
$GLGSV,2,2,08,80,14,212,22,81,27,117,21,82,44,058,22,83,21,001,*67
$GNGLL,0419.96487,S,05539.82699,E,105222.00,A,A*62
$GNRMC,105223.00,A,0419.96499,S,05539.82709,E,0.324,,020625,,,A*7B
$GNVTG,,T,,M,0.324,N,0.600,K,A*3E
$GNGGA,105223.00,0419.96499,S,05539.82709,E,1,12,0.86,25.7,M,-47.6,M,,*44
$GNGSA,A,3,32,29,28,10,18,16,31,25,40,,,,1.53,0.86,1.27*1F
$GNGSA,A,3,69,68,81,82,,,,,,,,,1.53,0.86,1.27*13
$GPGSV,4,1,16,10,23,347,17,16,24,262,13,18,30,061,25,23,07,025,*73
$GPGSV,4,2,16,25,05,137,20,26,30,229,26,27,27,323,20,28,37,171,37*7A
$GPGSV,4,3,16,29,30,143,23,31,22,199,31,32,79,343,35,36,52,277,*7A
$GPGSV,4,4,16,40,84,353,34,41,58,082,,49,32,274,,50,10,089,*7E
$GLGSV,2,1,08,68,36,357,26,69,59,280,34,70,11,219,,79,13,161,27*6C
$GLGSV,2,2,08,80,14,212,19,81,27,117,23,82,44,058,25,83,21,001,*6A
$GNGLL,0419.96499,S,05539.82709,E,105223.00,A,A*64
$GNRMC,105224.00,A,0419.96512,S,05539.82706,E,0.116,,020625,,,A*72
$GNVTG,,T,,M,0.116,N,0.215,K,A*3D
$GNGGA,105224.00,0419.96512,S,05539.82706,E,1,12,0.87,25.8,M,-47.6,M,,*40
$GNGSA,A,3,32,29,28,10,18,16,31,25,40,,,,1.68,0.87,1.43*14
$GNGSA,A,3,69,68,81,82,,,,,,,,,1.68,0.87,1.43*18
$GPGSV,4,1,16,10,23,347,17,16,24,262,13,18,30,061,25,23,07,025,*73
$GPGSV,4,2,16,25,05,137,18,26,30,229,27,27,28,323,19,28,37,171,35*77
$GPGSV,4,3,16,29,30,143,21,31,22,199,26,32,79,343,36,36,52,277,*7D
$GPGSV,4,4,16,40,84,353,33,41,58,082,,49,32,274,,50,10,089,*79
$GLGSV,2,1,08,68,36,357,25,69,59,280,33,70,11,219,,79,13,161,26*69
$GLGSV,2,2,08,80,14,212,19,81,27,117,23,82,44,058,25,83,21,001,*6A
$GNGLL,0419.96512,S,05539.82706,E,105224.00,A,A*6E
$GNRMC,105225.00,A,0419.96524,S,05539.82703,E,0.044,,020625,,,A*75
$GNVTG,,T,,M,0.044,N,0.082,K,A*37
$GNGGA,105225.00,0419.96524,S,05539.82703,E,1,12,0.86,25.8,M,-47.6,M,,*40
$GNGSA,A,3,32,29,28,10,18,16,31,25,40,,,,1.53,0.86,1.27*1F
$GNGSA,A,3,69,68,81,82,,,,,,,,,1.53,0.86,1.27*13
$GPGSV,4,1,16,10,23,347,16,16,24,262,12,18,30,061,27,23,07,025,*71
$GPGSV,4,2,16,25,05,137,17,26,30,229,26,27,28,323,20,28,38,170,38*70
$GPGSV,4,3,16,29,30,143,29,31,22,199,29,32,79,343,33,36,52,277,*7F
$GPGSV,4,4,16,40,84,353,36,41,58,082,,49,32,274,,50,10,089,*7C
$GLGSV,2,1,08,68,36,357,26,69,59,280,33,70,11,219,,79,13,161,25*69
$GLGSV,2,2,08,80,14,212,21,81,27,117,24,82,44,058,25,83,21,001,*66
$GNGLL,0419.96524,S,05539.82703,E,105225.00,A,A*6F
$GNRMC,105226.00,A,0419.96530,S,05539.82702,E,0.069,,020625,,,A*7D
$GNVTG,,T,,M,0.069,N,0.128,K,A*39
$GNGGA,105226.00,0419.96530,S,05539.82702,E,1,12,0.86,25.8,M,-47.6,M,,*47
$GNGSA,A,3,32,29,28,10,18,16,31,25,40,,,,1.53,0.86,1.27*1F
$GNGSA,A,3,69,68,81,82,,,,,,,,,1.53,0.86,1.27*13
$GPGSV,4,1,16,10,23,347,15,16,24,262,11,18,30,061,25,23,07,025,*73
$GPGSV,4,2,16,25,05,137,17,26,30,229,25,27,28,323,20,28,38,170,36*7D
$GPGSV,4,3,16,29,29,144,28,31,22,199,29,32,79,343,34,36,52,277,*76
$GPGSV,4,4,16,40,84,353,33,41,58,082,,49,32,274,,50,10,089,*79
$GLGSV,2,1,08,68,36,357,25,69,59,280,31,70,11,219,,79,13,161,25*68
$GLGSV,2,2,08,80,14,212,20,81,27,117,22,82,44,058,26,83,21,001,*62
$GNGLL,0419.96530,S,05539.82702,E,105226.00,A,A*68
$GNRMC,105227.00,A,0419.96541,S,05539.82706,E,0.135,,020625,,,D*73
$GNVTG,,T,,M,0.135,N,0.250,K,D*38
$GNGGA,105227.00,0419.96541,S,05539.82706,E,2,12,0.86,26.3,M,-47.6,M,,0000*4F
$GNGSA,A,3,32,29,28,10,18,31,25,40,,,,,1.53,0.86,1.27*18
$GNGSA,A,3,69,68,81,82,,,,,,,,,1.53,0.86,1.27*13
$GPGSV,4,1,16,10,23,347,11,16,24,262,,18,30,061,27,23,07,025,*75
$GPGSV,4,2,16,25,05,137,16,26,30,229,25,27,28,323,18,28,38,170,36*77
$GPGSV,4,3,16,29,29,144,26,31,22,199,33,32,79,343,34,36,52,277,*73
$GPGSV,4,4,16,40,84,353,31,41,58,082,,49,32,274,,50,10,089,*7B
$GLGSV,2,1,08,68,36,357,25,69,59,280,33,70,11,219,,79,13,161,25*6A
$GLGSV,2,2,08,80,14,212,18,81,27,117,20,82,44,058,25,83,21,001,*68
$GNGLL,0419.96541,S,05539.82706,E,105227.00,A,D*6E
$GNRMC,105228.00,A,0419.96551,S,05539.82714,E,0.036,,020625,,,D*7C
$GNVTG,,T,,M,0.036,N,0.067,K,D*3C
$GNGGA,105228.00,0419.96551,S,05539.82714,E,2,12,0.86,26.7,M,-47.6,M,,0000*46
$GNGSA,A,3,32,29,28,10,18,31,25,40,,,,,1.53,0.86,1.27*18
$GNGSA,A,3,69,68,81,82,,,,,,,,,1.53,0.86,1.27*13
$GPGSV,4,1,16,10,23,347,11,16,24,262,,18,30,061,26,23,07,025,*74
$GPGSV,4,2,16,25,05,137,17,26,30,229,25,27,28,323,16,28,38,170,36*78
$GPGSV,4,3,16,29,29,144,25,31,23,199,33,32,79,343,36,36,52,277,*73
$GPGSV,4,4,16,40,84,353,30,41,58,082,,49,32,274,,50,10,089,*7A
$GLGSV,2,1,08,68,36,357,27,69,59,280,34,70,11,219,,79,13,161,25*6F
$GLGSV,2,2,08,80,14,212,17,81,27,117,18,82,44,058,22,83,21,001,*6B
$GNGLL,0419.96551,S,05539.82714,E,105228.00,A,D*63
$GNRMC,105229.00,A,0419.96563,S,05539.82719,E,0.068,,020625,,,D*7A
$GNVTG,,T,,M,0.068,N,0.126,K,D*33
$GNGGA,105229.00,0419.96563,S,05539.82719,E,2,12,0.86,27.2,M,-47.6,M,,0000*4F
$GNGSA,A,3,32,29,28,10,18,31,25,40,,,,,1.53,0.86,1.27*18
$GNGSA,A,3,69,68,81,82,,,,,,,,,1.53,0.86,1.27*13
$GPGSV,4,1,16,10,23,347,11,16,24,262,13,18,30,061,27,23,07,025,*77
$GPGSV,4,2,16,25,05,137,17,26,30,229,25,27,28,323,18,28,38,170,38*78
$GPGSV,4,3,16,29,29,144,22,31,23,199,32,32,78,345,36,36,52,277,*72
$GPGSV,4,4,16,40,84,353,35,41,58,082,,49,32,274,,50,10,089,*7F
$GLGSV,2,1,08,68,36,357,27,69,59,280,32,70,11,219,,79,13,161,25*69
$GLGSV,2,2,08,80,14,212,19,81,27,117,22,82,44,058,19,83,21,001,*64
$GNGLL,0419.96563,S,05539.82719,E,105229.00,A,D*6E
$GNRMC,105230.00,A,0419.96574,S,05539.82725,E,0.138,,020625,,,D*7F
$GNVTG,,T,,M,0.138,N,0.255,K,D*30
$GNGGA,105230.00,0419.96574,S,05539.82725,E,2,12,0.86,27.5,M,-47.6,M,,0000*49
$GNGSA,A,3,32,29,28,10,18,31,25,40,,,,,1.53,0.86,1.27*18
$GNGSA,A,3,69,68,81,82,,,,,,,,,1.53,0.86,1.27*13
$GPGSV,4,1,16,10,23,347,11,16,24,262,11,18,30,061,32,23,07,025,*71
$GPGSV,4,2,16,25,05,137,17,26,30,229,23,27,28,323,19,28,38,170,35*72
$GPGSV,4,3,16,29,29,144,25,31,23,199,31,32,78,345,33,36,52,277,*73
$GPGSV,4,4,16,40,84,353,33,41,58,082,,49,32,274,,50,10,089,*79
$GLGSV,2,1,08,68,36,357,26,69,59,280,31,70,11,219,,79,13,161,27*69
$GLGSV,2,2,08,80,14,212,21,81,27,117,25,82,44,058,28,83,21,001,*6A
$GNGLL,0419.96574,S,05539.82725,E,105230.00,A,D*6F
$GNRMC,105231.00,A,0419.96585,S,05539.82724,E,0.209,,020625,,,D*70
$GNVTG,,T,,M,0.209,N,0.387,K,D*3F
$GNGGA,105231.00,0419.96585,S,05539.82724,E,2,12,0.86,27.6,M,-47.6,M,,0000*44
$GNGSA,A,3,32,29,28,10,18,31,25,40,,,,,1.53,0.86,1.27*18
$GNGSA,A,3,69,68,81,82,,,,,,,,,1.53,0.86,1.27*13
$GPGSV,4,1,16,10,23,347,11,16,24,262,09,18,30,061,30,23,07,025,*7A
$GPGSV,4,2,16,25,05,137,18,26,30,229,25,27,28,323,20,28,38,170,35*71
$GPGSV,4,3,16,29,29,144,31,31,23,199,31,32,78,345,36,36,52,277,*73
$GPGSV,4,4,16,40,84,353,32,41,58,082,,49,32,274,,50,10,089,*78
$GLGSV,2,1,08,68,36,357,26,69,59,280,34,70,11,219,,79,13,161,26*6D
$GLGSV,2,2,08,80,14,212,20,81,27,117,25,82,44,058,25,83,21,001,*66
$GNGLL,0419.96585,S,05539.82724,E,105231.00,A,D*61
$GNRMC,105232.00,A,0419.96590,S,05539.82718,E,0.306,,020625,,,D*76
$GNVTG,,T,,M,0.306,N,0.567,K,D*39
$GNGGA,105232.00,0419.96590,S,05539.82718,E,2,12,0.86,27.4,M,-47.6,M,,0000*4E
$GNGSA,A,3,32,29,28,10,18,31,25,40,,,,,1.53,0.86,1.27*18
$GNGSA,A,3,69,68,81,82,,,,,,,,,1.53,0.86,1.27*13
$GPGSV,4,1,16,10,23,347,11,16,24,262,09,18,30,061,25,23,07,025,*7E
$GPGSV,4,2,16,25,05,137,18,26,30,229,24,27,28,323,21,28,38,170,37*73
$GPGSV,4,3,16,29,29,144,29,31,23,199,33,32,78,345,36,36,52,277,*78
$GPGSV,4,4,16,40,84,353,32,41,58,082,,49,32,274,,50,10,089,*78
$GLGSV,2,1,08,68,36,357,25,69,59,280,32,70,11,219,,79,13,161,24*6A
$GLGSV,2,2,08,80,14,212,20,81,27,117,26,82,44,058,21,83,21,001,*61
$GNGLL,0419.96590,S,05539.82718,E,105232.00,A,D*69
$GNRMC,105233.00,A,0419.96598,S,05539.82717,E,0.018,,020625,,,D*7C
$GNVTG,,T,,M,0.018,N,0.034,K,D*36
$GNGGA,105233.00,0419.96598,S,05539.82717,E,2,12,0.86,27.5,M,-47.6,M,,0000*49
$GNGSA,A,3,32,29,28,10,18,31,25,40,,,,,1.53,0.86,1.27*18
$GNGSA,A,3,69,68,81,82,,,,,,,,,1.53,0.86,1.27*13
$GPGSV,4,1,16,10,23,347,11,16,24,262,10,18,30,061,32,23,07,025,*70
$GPGSV,4,2,16,25,05,137,15,26,30,229,22,27,28,323,21,28,38,170,36*79
$GPGSV,4,3,16,29,29,144,23,31,23,199,30,32,78,345,35,36,52,277,*72
$GPGSV,4,4,16,40,84,353,32,41,58,082,,49,32,274,,50,10,089,*78
$GLGSV,2,1,08,68,36,357,26,69,59,280,32,70,11,219,,79,13,161,25*68
$GLGSV,2,2,08,80,14,212,24,81,27,117,25,82,44,058,20,83,21,001,*67
$GNGLL,0419.96598,S,05539.82717,E,105233.00,A,D*6F
$GNRMC,105234.00,A,0419.96604,S,05539.82718,E,0.029,,020625,,,D*70
$GNVTG,,T,,M,0.029,N,0.055,K,D*33
$GNGGA,105234.00,0419.96604,S,05539.82718,E,2,12,0.73,27.7,M,-47.6,M,,0000*4F
$GNGSA,A,3,32,29,28,10,18,16,31,25,40,,,,1.51,0.73,1.32*13
$GNGSA,A,3,69,68,81,82,,,,,,,,,1.51,0.73,1.32*1F
$GPGSV,4,1,16,10,23,347,11,16,24,262,13,18,30,061,25,23,07,025,*75
$GPGSV,4,2,16,25,05,137,14,26,30,229,23,27,28,323,22,28,38,170,35*79
$GPGSV,4,3,16,29,29,144,29,31,23,199,30,32,78,345,34,36,52,277,*79
$GPGSV,4,4,16,40,84,353,32,41,58,082,,49,32,274,,50,10,089,*78
$GLGSV,2,1,08,68,36,357,26,69,59,280,31,70,11,219,,79,13,161,27*69
$GLGSV,2,2,08,80,14,212,25,81,27,117,22,82,44,058,22,83,21,001,*63
$GNGLL,0419.96604,S,05539.82718,E,105234.00,A,D*61
$GNRMC,105235.00,A,0419.96609,S,05539.82722,E,0.096,,020625,,,D*71
$GNVTG,,T,,M,0.096,N,0.179,K,D*38
$GNGGA,105235.00,0419.96609,S,05539.82722,E,2,12,0.73,27.7,M,-47.6,M,,0000*4A
$GNGSA,A,3,32,29,28,10,18,16,31,25,40,,,,1.37,0.73,1.16*15
$GNGSA,A,3,69,68,81,82,,,,,,,,,1.37,0.73,1.16*19
$GPGSV,4,1,16,10,23,347,11,16,24,262,17,18,30,061,26,23,07,025,*72
$GPGSV,4,2,16,25,05,137,13,26,30,229,23,27,28,323,21,28,38,170,35*7D
$GPGSV,4,3,16,29,29,144,29,31,23,199,30,32,78,345,30,36,52,277,*7D
$GPGSV,4,4,16,40,84,353,32,41,58,082,,49,32,274,,50,10,089,*78
$GLGSV,2,1,08,68,36,357,26,69,59,280,32,70,11,219,,79,13,161,25*68
$GLGSV,2,2,08,80,14,212,24,81,27,117,21,82,44,058,22,83,21,001,*61
$GNGLL,0419.96609,S,05539.82722,E,105235.00,A,D*64
$GNRMC,105236.00,A,0419.96613,S,05539.82719,E,0.014,,020625,,,D*7B
$GNVTG,,T,,M,0.014,N,0.025,K,D*3A
$GNGGA,105236.00,0419.96613,S,05539.82719,E,2,12,0.73,27.0,M,-47.6,M,,0000*4D
$GNGSA,A,3,32,29,28,10,18,16,31,25,40,,,,1.51,0.73,1.32*13
$GNGSA,A,3,69,68,81,82,,,,,,,,,1.51,0.73,1.32*1F
$GPGSV,4,1,16,10,23,347,11,16,24,262,17,18,30,061,27,23,07,025,*73
$GPGSV,4,2,16,25,05,137,15,26,30,229,20,27,28,323,22,28,38,170,35*7B
$GPGSV,4,3,16,29,29,144,27,31,23,199,29,32,78,345,37,36,52,277,*7C
$GPGSV,4,4,16,40,84,353,35,41,58,082,,49,32,274,,50,10,089,*7F
$GLGSV,2,1,08,68,36,357,25,69,59,280,32,70,11,219,,79,13,161,27*69
$GLGSV,2,2,08,80,14,212,23,81,27,117,24,82,44,058,30,83,21,001,*60
$GNGLL,0419.96613,S,05539.82719,E,105236.00,A,D*64
$GNRMC,105237.00,A,0419.96616,S,05539.82714,E,0.099,,020625,,,D*77
$GNVTG,,T,,M,0.099,N,0.184,K,D*35
$GNGGA,105237.00,0419.96616,S,05539.82714,E,2,12,0.73,26.9,M,-47.6,M,,0000*4C
$GNGSA,A,3,32,29,28,10,18,16,31,25,40,,,,1.37,0.73,1.16*15
$GNGSA,A,3,69,68,81,82,,,,,,,,,1.37,0.73,1.16*19
$GPGSV,4,1,16,10,23,347,14,16,24,262,17,18,30,061,27,23,07,025,*76
$GPGSV,4,2,16,25,05,137,17,26,30,229,20,27,28,323,22,28,38,170,35*79
$GPGSV,4,3,16,29,29,144,26,31,23,199,30,32,78,345,34,36,52,277,*76
$GPGSV,4,4,16,40,84,353,34,41,58,082,,49,32,274,,50,10,089,*7E
$GLGSV,2,1,08,68,36,357,26,69,59,280,32,70,11,219,,79,13,161,27*6A
$GLGSV,2,2,08,80,14,212,22,81,27,117,27,82,44,058,24,83,21,001,*67
$GNGLL,0419.96616,S,05539.82714,E,105237.00,A,D*6D
$GNRMC,105238.00,A,0419.96617,S,05539.82713,E,0.156,,020625,,,D*7C
$GNVTG,,T,,M,0.156,N,0.289,K,D*39
$GNGGA,105238.00,0419.96617,S,05539.82713,E,2,12,0.73,27.0,M,-47.6,M,,0000*4D
$GNGSA,A,3,32,29,28,10,18,16,31,25,40,,,,1.51,0.73,1.32*13
$GNGSA,A,3,69,68,81,82,,,,,,,,,1.51,0.73,1.32*1F
$GPGSV,4,1,16,10,23,347,14,16,24,262,15,18,30,061,26,23,07,025,*75
$GPGSV,4,2,16,25,05,137,17,26,30,229,19,27,28,323,22,28,38,170,35*73
$GPGSV,4,3,16,29,29,144,23,31,23,199,30,32,78,345,35,36,52,277,*72
$GPGSV,4,4,16,40,84,353,28,41,58,082,,49,32,274,,50,10,089,*73
$GLGSV,2,1,08,68,36,357,27,69,59,280,33,70,11,219,,79,13,161,28*65
$GLGSV,2,2,08,80,14,212,22,81,27,117,30,82,44,058,30,83,21,001,*64
$GNGLL,0419.96617,S,05539.82713,E,105238.00,A,D*64
$GNRMC,105239.00,A,0419.96622,S,05539.82714,E,0.052,,020625,,,D*79
$GNVTG,,T,,M,0.052,N,0.096,K,D*30
$GNGGA,105239.00,0419.96622,S,05539.82714,E,2,12,0.73,26.9,M,-47.6,M,,0000*45
$GNGSA,A,3,32,29,28,10,18,16,31,25,40,,,,1.51,0.73,1.32*13
$GNGSA,A,3,69,68,81,82,,,,,,,,,1.51,0.73,1.32*1F
$GPGSV,4,1,16,10,23,347,14,16,24,262,14,18,30,061,27,23,07,025,*75
$GPGSV,4,2,16,25,05,137,15,26,30,229,18,27,28,323,22,28,38,170,37*72
$GPGSV,4,3,16,29,29,144,25,31,23,199,31,32,78,345,37,36,52,277,*77
$GPGSV,4,4,16,40,84,353,30,41,58,082,,49,32,274,,50,10,089,*7A
$GLGSV,2,1,08,68,36,357,26,69,59,280,30,70,11,219,,79,13,161,26*69
$GLGSV,2,2,08,80,14,212,20,81,27,117,20,82,44,058,29,83,21,001,*6F
$GNGLL,0419.96622,S,05539.82714,E,105239.00,A,D*64
$GNRMC,105240.00,A,0419.96626,S,05539.82719,E,0.102,,020625,,,D*7A
$GNVTG,,T,,M,0.102,N,0.188,K,D*3A
$GNGGA,105240.00,0419.96626,S,05539.82719,E,2,12,0.73,27.0,M,-47.6,M,,0000*4A
$GNGSA,A,3,32,29,28,10,18,16,31,25,40,,,,1.37,0.73,1.16*15
$GNGSA,A,3,69,68,81,82,,,,,,,,,1.37,0.73,1.16*19
$GPGSV,4,1,16,10,23,347,14,16,24,262,16,18,30,061,27,23,07,025,*77
$GPGSV,4,2,16,25,05,137,11,26,30,229,21,27,28,323,21,28,38,170,34*7C
$GPGSV,4,3,16,29,29,144,22,31,23,199,31,32,78,345,35,36,52,277,*72
$GPGSV,4,4,16,40,84,353,32,41,58,082,,49,32,274,,50,10,089,*78
$GLGSV,2,1,08,68,36,357,26,69,59,280,30,70,11,219,,79,13,161,25*6A
$GLGSV,2,2,08,80,14,212,21,81,27,117,22,82,44,058,28,83,21,001,*6D
$GNGLL,0419.96626,S,05539.82719,E,105240.00,A,D*63
$GNRMC,105241.00,A,0419.96629,S,05539.82715,E,0.068,,020625,,,D*75
$GNVTG,,T,,M,0.068,N,0.125,K,D*30
$GNGGA,105241.00,0419.96629,S,05539.82715,E,2,12,0.73,27.0,M,-47.6,M,,0000*48
$GNGSA,A,3,32,29,28,10,18,16,31,25,40,,,,1.37,0.73,1.16*15
$GNGSA,A,3,69,68,81,82,,,,,,,,,1.37,0.73,1.16*19
$GPGSV,4,1,16,10,23,347,14,16,24,262,17,18,30,061,28,23,07,025,*79
$GPGSV,4,2,16,25,05,137,12,26,30,229,24,27,28,323,20,28,38,170,35*7A
$GPGSV,4,3,16,29,29,144,21,31,23,199,30,32,78,345,34,36,52,277,*71
$GPGSV,4,4,16,40,84,353,30,41,58,082,,49,32,274,,50,10,089,*7A
$GLGSV,2,1,08,68,36,357,27,69,59,280,30,70,11,219,,79,13,161,26*68
$GLGSV,2,2,08,80,14,212,22,81,27,117,25,82,44,058,26,83,21,001,*67
$GNGLL,0419.96629,S,05539.82715,E,105241.00,A,D*61
$GNRMC,105242.00,A,0419.96634,S,05539.82712,E,0.039,,020625,,,D*79
$GNVTG,,T,,M,0.039,N,0.072,K,D*37
$GNGGA,105242.00,0419.96634,S,05539.82712,E,2,12,0.73,26.8,M,-47.6,M,,0000*49
$GNGSA,A,3,32,29,28,10,18,16,31,25,40,,,,1.37,0.73,1.16*15
$GNGSA,A,3,69,68,81,82,,,,,,,,,1.37,0.73,1.16*19
$GPGSV,4,1,16,10,23,347,14,16,24,262,15,18,30,061,14,23,07,025,*74
$GPGSV,4,2,16,25,05,137,12,26,30,229,24,27,28,323,22,28,38,170,36*7B
$GPGSV,4,3,16,29,29,144,24,31,23,199,29,32,78,345,35,36,52,277,*7D
$GPGSV,4,4,16,40,84,353,28,41,58,082,,49,32,274,,50,10,089,*73
$GLGSV,2,1,08,68,36,357,26,69,59,280,31,70,11,219,,79,13,161,25*6B
$GLGSV,2,2,08,80,14,212,22,81,27,117,25,82,44,058,25,83,21,001,*64
$GNGLL,0419.96634,S,05539.82712,E,105242.00,A,D*69
$GNRMC,105243.00,A,0419.96634,S,05539.82708,E,0.088,,020625,,,D*79
$GNVTG,,T,,M,0.088,N,0.164,K,D*3B
$GNGGA,105243.00,0419.96634,S,05539.82708,E,2,12,0.73,26.6,M,-47.6,M,,0000*4D
$GNGSA,A,3,32,29,28,10,18,16,31,25,40,,,,1.37,0.73,1.16*15
$GNGSA,A,3,69,68,81,82,,,,,,,,,1.37,0.73,1.16*19
$GPGSV,4,1,16,10,23,347,16,16,24,262,14,18,30,061,16,23,07,025,*75
$GPGSV,4,2,16,25,05,137,12,26,30,229,24,27,28,323,23,28,38,170,34*78
$GPGSV,4,3,16,29,29,144,28,31,23,199,29,32,78,345,34,36,52,277,*70
$GPGSV,4,4,16,40,84,353,30,41,58,082,,49,32,274,,50,10,089,*7A
$GLGSV,2,1,08,68,36,357,26,69,59,280,31,70,11,219,,79,13,161,23*6D
$GLGSV,2,2,08,80,14,212,21,81,27,117,30,82,44,058,25,83,21,001,*63
$GNGLL,0419.96634,S,05539.82708,E,105243.00,A,D*63
$GNRMC,105244.00,A,0419.96635,S,05539.82700,E,0.085,,020625,,,D*7A
$GNVTG,,T,,M,0.085,N,0.158,K,D*39
$GNGGA,105244.00,0419.96635,S,05539.82700,E,2,12,0.73,26.6,M,-47.6,M,,0000*43
$GNGSA,A,3,32,29,28,10,18,16,31,25,40,,,,1.37,0.73,1.16*15
$GNGSA,A,3,69,68,81,82,,,,,,,,,1.37,0.73,1.16*19
$GPGSV,4,1,16,10,23,347,08,16,24,262,10,18,30,061,29,23,07,025,*72
$GPGSV,4,2,16,25,05,137,12,26,30,229,25,27,28,323,23,28,38,170,37*7A
$GPGSV,4,3,16,29,29,144,26,31,23,199,30,32,78,345,33,36,52,277,*71
$GPGSV,4,4,16,40,84,353,30,41,58,082,,49,32,274,,50,10,089,*7A
$GLGSV,2,1,08,68,36,357,26,69,59,280,30,70,11,219,,79,13,161,22*6D
$GLGSV,2,2,08,80,14,212,20,81,27,117,29,82,44,058,23,83,21,001,*6C
$GNGLL,0419.96635,S,05539.82700,E,105244.00,A,D*6D
$GNRMC,105245.00,A,0419.96636,S,05539.82697,E,0.026,,020625,,,D*7E
$GNVTG,,T,,M,0.026,N,0.049,K,D*31
$GNGGA,105245.00,0419.96636,S,05539.82697,E,2,12,0.83,26.7,M,-47.6,M,,0000*40
$GNGSA,A,3,32,29,28,10,18,16,31,25,40,,,,1.55,0.83,1.31*1B
$GNGSA,A,3,69,68,81,82,,,,,,,,,1.55,0.83,1.31*17
$GPGSV,4,1,16,10,23,347,16,16,24,262,17,18,30,061,28,23,07,025,*7B
$GPGSV,4,2,16,25,05,137,17,26,30,229,25,27,28,323,21,28,38,170,35*7F
$GPGSV,4,3,16,29,29,144,24,31,23,199,32,32,78,345,29,36,52,277,*7A
$GPGSV,4,4,16,40,84,353,31,41,58,082,,49,32,274,,50,10,089,*7B
$GLGSV,2,1,08,68,36,357,25,69,59,280,31,70,11,219,,79,13,161,22*6F
$GLGSV,2,2,08,80,14,212,19,81,27,117,30,82,44,058,24,83,21,001,*69
$GNGLL,0419.96636,S,05539.82697,E,105245.00,A,D*60
$GNRMC,105246.00,A,0419.96636,S,05539.82690,E,0.095,,020625,,,D*72
$GNVTG,,T,,M,0.095,N,0.177,K,D*35
$GNGGA,105246.00,0419.96636,S,05539.82690,E,2,12,0.74,26.8,M,-47.6,M,,0000*43
$GNGSA,A,3,32,29,28,10,18,16,31,25,40,,,,1.64,0.74,1.46*11
$GNGSA,A,3,69,68,81,82,,,,,,,,,1.64,0.74,1.46*1D
$GPGSV,4,1,16,10,23,347,16,16,24,262,15,18,30,061,29,23,07,025,*78
$GPGSV,4,2,16,25,05,137,14,26,30,229,25,27,28,323,20,28,38,170,34*7C
$GPGSV,4,3,16,29,29,144,22,31,23,199,31,32,78,345,34,36,52,277,*73
$GPGSV,4,4,16,40,84,353,29,41,58,082,,49,32,274,,50,10,089,*72
$GLGSV,2,1,08,68,36,357,24,69,59,280,32,70,11,219,,79,13,161,20*6F
$GLGSV,2,2,08,80,14,212,19,81,27,117,28,82,44,058,26,83,21,001,*62
$GNGLL,0419.96636,S,05539.82690,E,105246.00,A,D*64
$GNRMC,105247.00,A,0419.96641,S,05539.82685,E,0.064,,020625,,,D*79
$GNVTG,,T,,M,0.064,N,0.118,K,D*32
$GNGGA,105247.00,0419.96641,S,05539.82685,E,2,12,0.74,27.1,M,-47.6,M,,0000*4E
$GNGSA,A,3,32,29,28,10,18,16,31,25,40,,,,1.46,0.74,1.25*14
$GNGSA,A,3,69,68,81,82,,,,,,,,,1.46,0.74,1.25*18
$GPGSV,4,1,16,10,23,347,18,16,24,262,11,18,30,061,27,23,07,025,*7C
$GPGSV,4,2,16,25,05,137,19,26,30,229,22,27,28,323,21,28,38,170,38*7B
$GPGSV,4,3,16,29,29,144,25,31,23,199,30,32,78,345,30,36,52,277,*71
$GPGSV,4,4,16,40,84,353,34,41,58,082,,49,32,274,,50,10,089,*7E
$GLGSV,2,1,08,68,36,357,24,69,59,280,32,70,11,219,,79,13,161,22*6D
$GLGSV,2,2,08,80,14,212,20,81,27,117,27,82,44,058,26,83,21,001,*67
$GNGLL,0419.96641,S,05539.82685,E,105247.00,A,D*61
$GNRMC,105248.00,A,0419.96639,S,05539.82673,E,0.240,,020625,,,D*74
$GNVTG,,T,,M,0.240,N,0.444,K,D*3A
$GNGGA,105248.00,0419.96639,S,05539.82673,E,2,12,0.74,27.0,M,-47.6,M,,0000*46
$GNGSA,A,3,32,29,28,10,18,16,31,25,40,,,,1.46,0.74,1.25*14
$GNGSA,A,3,69,68,81,82,,,,,,,,,1.46,0.74,1.25*18
$GPGSV,4,1,16,10,23,347,14,16,24,262,16,18,30,061,27,23,07,025,*77
$GPGSV,4,2,16,25,05,137,17,26,30,229,21,27,28,323,22,28,38,170,35*78
$GPGSV,4,3,16,29,29,144,25,31,23,199,30,32,78,345,32,36,52,277,*73
$GPGSV,4,4,16,40,84,353,30,41,58,082,,49,32,274,,50,10,089,*7A
$GLGSV,2,1,08,68,36,357,25,69,59,280,31,70,11,219,,79,13,161,23*6E
$GLGSV,2,2,08,80,14,212,18,81,27,117,25,82,44,058,25,83,21,001,*6D
$GNGLL,0419.96639,S,05539.82673,E,105248.00,A,D*68
$GNRMC,105249.00,A,0419.96635,S,05539.82661,E,0.063,,020625,,,D*79
$GNVTG,,T,,M,0.063,N,0.116,K,D*3B
$GNGGA,105249.00,0419.96635,S,05539.82661,E,2,12,0.74,26.7,M,-47.6,M,,0000*4E
$GNGSA,A,3,32,29,28,10,18,16,31,25,40,,,,1.46,0.74,1.25*14
$GNGSA,A,3,69,68,81,82,,,,,,,,,1.46,0.74,1.25*18
$GPGSV,4,1,16,10,23,347,17,16,24,262,18,18,30,061,27,23,07,025,*7A
$GPGSV,4,2,16,25,05,137,15,26,30,229,18,27,28,323,22,28,38,170,36*73
$GPGSV,4,3,16,29,29,144,27,31,23,199,29,32,78,345,32,36,52,277,*79
$GPGSV,4,4,16,40,84,353,35,41,58,082,,49,32,274,,50,10,089,*7F
$GLGSV,2,1,08,68,36,357,25,69,59,280,31,70,11,219,,79,13,161,25*68
$GLGSV,2,2,08,80,14,212,18,81,27,117,23,82,44,058,27,83,21,001,*69
$GNGLL,0419.96635,S,05539.82661,E,105249.00,A,D*66
$GNRMC,105250.00,A,0419.96630,S,05539.82653,E,0.031,,020625,,,D*72
$GNVTG,,T,,M,0.031,N,0.058,K,D*37
$GNGGA,105250.00,0419.96630,S,05539.82653,E,2,12,0.74,26.5,M,-47.6,M,,0000*40
$GNGSA,A,3,32,29,28,10,18,16,31,25,40,,,,1.46,0.74,1.25*14
$GNGSA,A,3,69,68,81,82,,,,,,,,,1.46,0.74,1.25*18
$GPGSV,4,1,16,10,23,347,17,16,24,262,18,18,30,061,29,23,07,025,*74
$GPGSV,4,2,16,25,05,137,13,26,30,229,17,27,28,323,23,28,38,170,36*7B
$GPGSV,4,3,16,29,29,144,27,31,23,199,27,32,78,345,35,36,52,277,*70
$GPGSV,4,4,16,40,84,353,34,41,58,082,,49,32,274,,50,10,089,*7E
$GLGSV,2,1,08,68,36,357,25,69,59,280,32,70,11,219,,79,13,161,24*6A
$GLGSV,2,2,08,80,14,212,19,81,27,117,19,82,44,058,27,83,21,001,*61
$GNGLL,0419.96630,S,05539.82653,E,105250.00,A,D*6A
$GNRMC,105251.00,A,0419.96622,S,05539.82645,E,0.318,,020625,,,D*7F
$GNVTG,,T,,M,0.318,N,0.589,K,D*36
$GNGGA,105251.00,0419.96622,S,05539.82645,E,2,12,0.74,26.4,M,-47.6,M,,0000*44
$GNGSA,A,3,32,29,28,10,18,16,31,25,40,,,,1.46,0.74,1.25*14
$GNGSA,A,3,69,68,81,82,,,,,,,,,1.46,0.74,1.25*18
$GPGSV,4,1,16,10,23,347,15,16,24,262,18,18,30,061,21,23,07,025,*7E
$GPGSV,4,2,16,25,05,137,10,26,30,229,17,27,28,323,25,28,38,170,34*7C
$GPGSV,4,3,16,29,29,144,24,31,23,199,28,32,78,345,31,36,52,277,*78
$GPGSV,4,4,16,40,84,353,33,41,58,082,,49,32,274,,50,10,089,*79
$GLGSV,2,1,08,68,36,357,24,69,59,280,32,70,11,219,,79,13,161,20*6F
$GLGSV,2,2,08,80,14,212,19,81,27,117,30,82,44,058,26,83,21,001,*6B
$GNGLL,0419.96622,S,05539.82645,E,105251.00,A,D*6F
$GNRMC,105252.00,A,0419.96618,S,05539.82636,E,0.120,,020625,,,D*78
$GNVTG,,T,,M,0.120,N,0.222,K,D*39
$GNGGA,105252.00,0419.96618,S,05539.82636,E,2,12,0.74,26.3,M,-47.6,M,,0000*4D
$GNGSA,A,3,32,29,28,10,18,16,31,25,40,,,,1.46,0.74,1.25*14
$GNGSA,A,3,69,68,81,82,,,,,,,,,1.46,0.74,1.25*18
$GPGSV,4,1,16,10,23,347,16,16,24,262,19,18,30,061,26,23,07,025,*7B
$GPGSV,4,2,16,25,05,137,14,26,30,229,20,27,28,323,22,28,38,170,36*79
$GPGSV,4,3,16,29,29,144,21,31,23,199,33,32,78,345,29,36,52,277,*7E
$GPGSV,4,4,16,40,84,353,30,41,58,082,,49,32,274,,50,10,089,*7A
$GLGSV,2,1,08,68,36,357,25,69,59,280,31,70,11,219,,79,13,161,20*6D
$GLGSV,2,2,08,80,14,212,18,81,27,117,28,82,44,058,27,83,21,001,*62
$GNGLL,0419.96618,S,05539.82636,E,105252.00,A,D*61
$GNRMC,105253.00,A,0419.96615,S,05539.82635,E,0.114,,020625,,,D*70
$GNVTG,,T,,M,0.114,N,0.210,K,D*3F
$GNGGA,105253.00,0419.96615,S,05539.82635,E,2,12,0.74,26.2,M,-47.6,M,,0000*43
$GNGSA,A,3,32,29,28,10,18,16,31,25,40,,,,1.46,0.74,1.25*14
$GNGSA,A,3,69,68,81,82,,,,,,,,,1.46,0.74,1.25*18
$GPGSV,4,1,16,10,23,347,17,16,24,262,17,18,30,061,32,23,07,025,*71
$GPGSV,4,2,16,25,05,137,15,26,30,229,19,27,28,323,24,28,38,170,37*75
$GPGSV,4,3,16,29,29,144,28,31,23,199,31,32,78,345,33,36,52,277,*7E
$GPGSV,4,4,16,40,84,353,34,41,58,082,,49,32,274,,50,10,089,*7E
$GLGSV,2,1,08,68,35,358,26,69,59,280,30,70,11,219,,79,13,161,23*60
$GLGSV,2,2,08,80,14,212,18,81,27,117,26,82,44,058,27,83,21,001,*6C
$GNGLL,0419.96615,S,05539.82635,E,105253.00,A,D*6E
$GNRMC,105254.00,A,0419.96613,S,05539.82633,E,0.071,,020625,,,D*75
$GNVTG,,T,,M,0.071,N,0.131,K,D*3D
$GNGGA,105254.00,0419.96613,S,05539.82633,E,2,12,0.74,26.2,M,-47.6,M,,0000*44
$GNGSA,A,3,32,29,28,10,18,16,31,25,40,,,,1.46,0.74,1.25*14
$GNGSA,A,3,69,68,81,82,,,,,,,,,1.46,0.74,1.25*18
$GPGSV,4,1,16,10,23,347,16,16,24,262,18,18,30,061,31,23,07,025,*7C
$GPGSV,4,2,16,25,05,137,08,26,30,229,17,27,28,323,23,28,38,170,35*72
$GPGSV,4,3,16,29,29,144,27,31,23,199,30,32,78,345,33,36,52,277,*70
$GPGSV,4,4,16,40,84,353,30,41,58,082,,49,32,274,,50,10,089,*7A
$GLGSV,2,1,08,68,35,358,24,69,59,282,31,70,11,219,,79,13,161,24*66
$GLGSV,2,2,08,80,14,212,18,81,27,117,25,82,44,058,26,83,21,001,*6E
$GNGLL,0419.96613,S,05539.82633,E,105254.00,A,D*69
$GNRMC,105255.00,A,0419.96608,S,05539.82628,E,0.234,,020625,,,D*77
$GNVTG,,T,,M,0.234,N,0.432,K,D*38
$GNGGA,105255.00,0419.96608,S,05539.82628,E,2,12,0.74,25.9,M,-47.6,M,,0000*4D
$GNGSA,A,3,32,29,28,10,18,16,31,25,40,,,,1.46,0.74,1.25*14
$GNGSA,A,3,69,68,81,82,,,,,,,,,1.46,0.74,1.25*18
$GPGSV,4,1,16,10,23,347,14,16,24,262,16,18,30,061,32,23,07,025,*73
$GPGSV,4,2,16,25,05,137,16,26,30,229,15,27,28,323,20,28,38,170,36*7F
$GPGSV,4,3,16,29,29,144,27,31,23,199,31,32,78,345,35,36,52,277,*77
$GPGSV,4,4,16,40,84,353,33,41,58,082,,49,32,274,,50,10,089,*79
$GLGSV,2,1,08,68,35,358,22,69,59,282,31,70,12,219,,79,13,161,25*62
$GLGSV,2,2,08,80,14,212,19,81,27,117,31,82,44,058,23,83,21,001,*6F
$GNGLL,0419.96608,S,05539.82628,E,105255.00,A,D*68
$GNRMC,105256.00,A,0419.96610,S,05539.82628,E,0.041,,020625,,,D*7D
$GNVTG,,T,,M,0.041,N,0.075,K,D*3F
$GNGGA,105256.00,0419.96610,S,05539.82628,E,2,12,0.74,26.2,M,-47.6,M,,0000*4F
$GNGSA,A,3,32,29,28,10,18,16,31,25,40,,,,1.46,0.74,1.25*14
$GNGSA,A,3,69,68,81,82,,,,,,,,,1.46,0.74,1.25*18
$GPGSV,4,1,16,10,23,347,15,16,24,262,16,18,30,061,32,23,07,025,*72
$GPGSV,4,2,16,25,05,137,21,26,30,229,22,27,28,323,24,28,38,170,38*75
$GPGSV,4,3,16,29,29,144,25,31,23,199,31,32,78,345,33,36,52,277,*73
$GPGSV,4,4,16,40,84,353,33,41,58,082,,49,32,274,,50,10,089,*79
$GLGSV,2,1,08,68,35,358,22,69,59,282,30,70,12,219,,79,13,161,22*64
$GLGSV,2,2,08,80,14,212,17,81,27,117,25,82,44,058,22,83,21,001,*65
$GNGLL,0419.96610,S,05539.82628,E,105256.00,A,D*62
$GNRMC,105257.00,A,0419.96606,S,05539.82631,E,0.234,,020625,,,D*73
$GNVTG,,T,,M,0.234,N,0.434,K,D*3E
$GNGGA,105257.00,0419.96606,S,05539.82631,E,2,12,0.74,26.2,M,-47.6,M,,0000*41
$GNGSA,A,3,32,29,28,10,18,16,31,25,40,,,,1.46,0.74,1.25*14
$GNGSA,A,3,69,68,81,82,,,,,,,,,1.46,0.74,1.25*18
$GPGSV,4,1,16,10,23,347,13,16,24,262,16,18,30,061,30,23,07,025,*76
$GPGSV,4,2,16,25,05,137,15,26,30,229,22,27,28,323,23,28,38,170,36*7B
$GPGSV,4,3,16,29,29,144,26,31,23,199,31,32,78,345,27,36,52,277,*75
$GPGSV,4,4,16,40,84,353,32,41,58,082,,49,32,274,,50,10,089,*78
$GLGSV,2,1,08,68,35,358,22,69,59,282,30,70,12,219,,79,13,161,20*66
$GLGSV,2,2,08,80,14,212,16,81,27,117,25,82,44,058,30,83,21,001,*67
$GNGLL,0419.96606,S,05539.82631,E,105257.00,A,D*6C
$GNRMC,105258.00,A,0419.96604,S,05539.82634,E,0.156,,020625,,,D*7C
$GNVTG,,T,,M,0.156,N,0.289,K,D*39
$GNGGA,105258.00,0419.96604,S,05539.82634,E,2,12,0.84,26.2,M,-47.6,M,,0000*46
$GNGSA,A,3,32,29,28,10,18,16,31,25,40,,,,1.64,0.84,1.41*19
$GNGSA,A,3,69,68,81,82,,,,,,,,,1.64,0.84,1.41*15
$GPGSV,4,1,16,10,23,347,09,16,24,262,16,18,30,061,29,23,07,025,*75
$GPGSV,4,2,16,25,05,137,17,26,30,229,20,27,28,323,23,28,38,170,38*75
$GPGSV,4,3,16,29,29,144,26,31,23,199,30,32,78,345,27,36,52,277,*74
$GPGSV,4,4,16,40,84,353,31,41,58,082,,49,32,274,,50,10,089,*7B
$GLGSV,2,1,08,68,35,358,21,69,59,282,29,70,12,219,,79,13,161,20*6D
$GLGSV,2,2,08,80,14,212,15,81,27,117,25,82,44,058,28,83,21,001,*6D
$GNGLL,0419.96604,S,05539.82634,E,105258.00,A,D*64
$GNRMC,105259.00,A,0419.96601,S,05539.82623,E,0.203,,020625,,,D*7D
$GNVTG,,T,,M,0.203,N,0.376,K,D*3B
$GNGGA,105259.00,0419.96601,S,05539.82623,E,2,12,0.74,26.3,M,-47.6,M,,0000*4A
$GNGSA,A,3,32,29,28,10,18,16,31,25,40,,,,1.46,0.74,1.25*14
$GNGSA,A,3,69,68,81,82,,,,,,,,,1.46,0.74,1.25*18
$GPGSV,4,1,16,10,23,347,13,16,24,262,14,18,30,061,30,23,07,025,*74
$GPGSV,4,2,16,25,05,137,16,26,30,229,16,27,28,323,22,28,38,170,37*7F
$GPGSV,4,3,16,29,29,144,25,31,23,199,28,32,78,345,32,36,52,277,*7A
$GPGSV,4,4,16,40,84,353,30,41,58,082,,49,32,274,,50,10,089,*7A
$GLGSV,2,1,08,68,35,358,21,69,59,282,28,70,12,219,,79,13,161,29*65
$GLGSV,2,2,08,80,14,212,11,81,27,117,35,82,44,058,27,83,21,001,*67
$GNGLL,0419.96601,S,05539.82623,E,105259.00,A,D*66
$GNRMC,105300.00,A,0419.96601,S,05539.82618,E,0.113,,020625,,,D*7A
$GNVTG,,T,,M,0.113,N,0.208,K,D*31
$GNGGA,105300.00,0419.96601,S,05539.82618,E,2,12,0.74,26.5,M,-47.6,M,,0000*49
$GNGSA,A,3,32,29,28,10,18,16,31,25,40,,,,1.46,0.74,1.25*14
$GNGSA,A,3,69,68,81,82,,,,,,,,,1.46,0.74,1.25*18
$GPGSV,4,1,16,10,23,347,11,16,24,262,12,18,30,061,30,23,07,025,*70
$GPGSV,4,2,16,25,05,137,16,26,30,229,19,27,28,323,20,28,38,170,35*70
$GPGSV,4,3,16,29,29,144,31,31,23,199,29,32,78,345,25,36,52,277,*78
$GPGSV,4,4,16,40,84,353,30,41,58,082,,49,32,274,,50,10,089,*7A
$GLGSV,2,1,08,68,35,358,18,69,59,282,28,70,12,219,,79,13,161,16*63
$GLGSV,2,2,08,80,14,212,13,81,27,117,30,82,44,058,25,83,21,001,*62
$GNGLL,0419.96601,S,05539.82618,E,105300.00,A,D*63
$GNRMC,105301.00,A,0419.96605,S,05539.82610,E,0.125,,020625,,,D*72
$GNVTG,,T,,M,0.125,N,0.231,K,D*3E
$GNGGA,105301.00,0419.96605,S,05539.82610,E,2,12,0.74,26.7,M,-47.6,M,,0000*46
$GNGSA,A,3,32,29,28,10,18,16,31,25,40,,,,1.46,0.74,1.25*14
$GNGSA,A,3,69,68,81,82,,,,,,,,,1.46,0.74,1.25*18
$GPGSV,4,1,16,10,23,347,11,16,24,262,14,18,30,061,28,23,07,025,*7F
$GPGSV,4,2,16,25,05,137,14,26,30,229,19,27,28,323,18,28,38,170,35*79
$GPGSV,4,3,16,29,29,144,25,31,23,199,29,32,78,345,31,36,52,277,*78
$GPGSV,4,4,16,40,84,353,30,41,58,082,,49,32,274,,50,10,089,*7A
$GLGSV,2,1,08,68,35,358,20,69,59,282,26,70,12,219,,79,13,161,18*68
$GLGSV,2,2,08,80,14,212,17,81,27,117,33,82,44,058,26,83,21,001,*66
$GNGLL,0419.96605,S,05539.82610,E,105301.00,A,D*6E
$GNRMC,105302.00,A,0419.96603,S,05539.82605,E,0.147,,020625,,,D*77
$GNVTG,,T,,M,0.147,N,0.272,K,D*3D
$GNGGA,105302.00,0419.96603,S,05539.82605,E,2,12,0.87,26.7,M,-47.6,M,,0000*4B
$GNGSA,A,3,32,29,28,18,16,31,25,40,,,,,1.80,0.87,1.58*19
$GNGSA,A,3,69,68,81,82,,,,,,,,,1.80,0.87,1.58*14
$GPGSV,4,1,16,10,23,347,09,16,24,262,14,18,30,061,30,23,07,025,*7F
$GPGSV,4,2,16,25,05,137,11,26,30,229,20,27,28,323,19,28,38,170,36*74
$GPGSV,4,3,16,29,29,144,22,31,23,199,28,32,78,345,32,36,52,277,*7D
$GPGSV,4,4,16,40,84,353,32,41,58,082,,49,32,274,,50,10,089,*78
$GLGSV,2,1,08,68,35,358,21,69,59,282,27,70,12,219,,79,13,161,22*61
$GLGSV,2,2,08,80,14,212,,81,27,117,28,82,44,058,25,83,21,001,*69
$GNGLL,0419.96603,S,05539.82605,E,105302.00,A,D*6F
$GNRMC,105303.00,A,0419.96600,S,05539.82598,E,0.037,,020625,,,D*74
$GNVTG,,T,,M,0.037,N,0.068,K,D*32
$GNGGA,105303.00,0419.96600,S,05539.82598,E,2,12,0.77,26.6,M,-47.6,M,,0000*40
$GNGSA,A,3,32,29,28,10,18,16,31,25,40,,,,1.58,0.77,1.37*1B
$GNGSA,A,3,69,68,81,82,,,,,,,,,1.58,0.77,1.37*17
$GPGSV,4,1,16,10,23,347,08,16,24,262,13,18,30,061,28,23,07,025,*70
$GPGSV,4,2,16,25,05,137,13,26,30,229,23,27,28,323,19,28,38,170,37*74
$GPGSV,4,3,16,29,29,144,24,31,23,199,28,32,78,345,31,36,52,277,*78
$GPGSV,4,4,16,40,84,353,30,41,58,082,,49,32,274,,50,10,089,*7A
$GLGSV,2,1,08,68,35,358,19,69,59,282,28,70,12,219,,79,13,161,21*66
$GLGSV,2,2,08,80,14,212,,81,27,117,23,82,44,058,23,83,21,001,*64
$GNGLL,0419.96600,S,05539.82598,E,105303.00,A,D*6A
$GNRMC,105304.00,A,0419.96594,S,05539.82596,E,0.122,,020625,,,D*76
$GNVTG,,T,,M,0.122,N,0.227,K,D*3E
$GNGGA,105304.00,0419.96594,S,05539.82596,E,2,12,0.73,26.5,M,-47.6,M,,0000*40
$GNGSA,A,3,32,29,28,10,18,16,31,25,40,,,,1.37,0.73,1.16*15
$GNGSA,A,3,69,68,81,82,,,,,,,,,1.37,0.73,1.16*19
$GPGSV,4,1,16,10,23,347,08,16,24,262,13,18,30,061,33,23,07,025,*7A
$GPGSV,4,2,16,25,05,137,18,26,30,229,21,27,28,323,20,28,38,170,36*76
$GPGSV,4,3,16,29,29,144,21,31,23,199,29,32,78,345,31,36,52,277,*7C
$GPGSV,4,4,16,40,84,353,33,41,58,082,,49,32,274,,50,10,089,*79
$GLGSV,2,1,08,68,35,358,20,69,59,282,28,70,12,219,,79,13,160,20*6C
$GLGSV,2,2,08,80,14,212,,81,27,117,30,82,44,058,21,83,21,001,*64
$GNGLL,0419.96594,S,05539.82596,E,105304.00,A,D*6D
$GNRMC,105305.00,A,0419.96591,S,05539.82596,E,0.090,,020625,,,D*7A
$GNVTG,,T,,M,0.090,N,0.166,K,D*30
$GNGGA,105305.00,0419.96591,S,05539.82596,E,2,12,0.74,26.5,M,-47.6,M,,0000*43
$GNGSA,A,3,32,29,28,10,18,16,31,25,40,,,,1.46,0.74,1.25*14
$GNGSA,A,3,69,68,81,82,,,,,,,,,1.46,0.74,1.25*18
$GPGSV,4,1,16,10,23,347,14,16,24,262,12,18,30,061,27,23,07,025,*73
$GPGSV,4,2,16,25,05,137,18,26,30,229,20,27,28,323,23,28,38,170,37*75
$GPGSV,4,3,16,29,29,144,19,31,23,199,29,32,78,345,31,36,52,277,*77
$GPGSV,4,4,16,40,84,353,28,41,58,082,,49,32,274,,50,10,089,*73
$GLGSV,2,1,08,68,35,358,20,69,59,282,28,70,12,219,,79,13,160,19*66
$GLGSV,2,2,08,80,14,212,23,81,27,117,30,82,44,058,20,83,21,001,*64
$GNGLL,0419.96591,S,05539.82596,E,105305.00,A,D*69
$GNRMC,105306.00,A,0419.96583,S,05539.82597,E,0.248,,020625,,,D*7C
$GNVTG,,T,,M,0.248,N,0.460,K,D*34
$GNGGA,105306.00,0419.96583,S,05539.82597,E,2,12,0.74,26.5,M,-47.6,M,,0000*42
$GNGSA,A,3,32,29,28,10,18,16,31,25,40,,,,1.46,0.74,1.25*14
$GNGSA,A,3,69,68,81,82,,,,,,,,,1.46,0.74,1.25*18
$GPGSV,4,1,16,10,23,347,18,16,24,262,13,18,30,061,24,23,07,025,16*7A
$GPGSV,4,2,16,25,05,137,13,26,30,229,20,27,28,323,21,28,38,170,36*7D
$GPGSV,4,3,16,29,29,144,19,31,23,199,30,32,78,345,31,36,52,277,*7F
$GPGSV,4,4,16,40,84,353,31,41,58,082,,49,32,274,,50,10,089,*7B
$GLGSV,2,1,08,68,35,358,19,69,59,282,29,70,12,219,,79,13,160,22*65
$GLGSV,2,2,08,80,14,212,22,81,27,118,30,82,44,058,22,83,21,001,*68
$GNGLL,0419.96583,S,05539.82597,E,105306.00,A,D*68
$GNRMC,105307.00,A,0419.96580,S,05539.82597,E,0.165,,020625,,,D*72
$GNVTG,,T,,M,0.165,N,0.306,K,D*3F
$GNGGA,105307.00,0419.96580,S,05539.82597,E,2,12,0.74,26.0,M,-47.6,M,,0000*45
$GNGSA,A,3,32,29,28,10,18,16,31,40,,,,,1.46,0.74,1.25*13
$GNGSA,A,3,69,68,81,82,,,,,,,,,1.46,0.74,1.25*18
$GPGSV,4,1,16,10,23,347,11,16,24,262,12,18,30,061,26,23,07,025,13*75
$GPGSV,4,2,16,25,05,137,05,26,30,229,22,27,28,323,20,28,38,170,37*78
$GPGSV,4,3,16,29,29,144,20,31,23,199,28,32,78,345,35,36,52,277,*78
$GPGSV,4,4,16,40,84,353,31,41,58,082,,49,32,274,,50,10,089,*7B
$GLGSV,2,1,08,68,35,358,18,69,59,282,30,70,12,219,,79,13,160,21*6F
$GLGSV,2,2,08,80,14,212,20,81,27,118,29,82,45,059,24,83,21,001,*64
$GNGLL,0419.96580,S,05539.82597,E,105307.00,A,D*6A
$GNRMC,105308.00,A,0419.96582,S,05539.82599,E,0.118,,020625,,,D*7B
$GNVTG,,T,,M,0.118,N,0.219,K,D*3A
$GNGGA,105308.00,0419.96582,S,05539.82599,E,2,11,0.87,26.1,M,-47.6,M,,0000*48
$GNGSA,A,3,32,29,28,10,18,31,40,,,,,,1.63,0.87,1.38*13
$GNGSA,A,3,69,68,81,82,,,,,,,,,1.63,0.87,1.38*1F
$GPGSV,4,1,16,10,23,347,10,16,24,262,13,18,30,061,28,23,07,025,10*78
$GPGSV,4,2,16,25,05,137,07,26,30,229,24,27,28,323,21,28,38,170,39*73
$GPGSV,4,3,16,29,29,144,30,31,23,199,29,32,78,345,33,36,52,277,*7E
$GPGSV,4,4,16,40,84,353,31,41,58,082,,49,32,274,,50,10,089,*7B
$GLGSV,2,1,08,68,35,358,18,69,59,282,30,70,12,219,,79,13,160,17*6A
$GLGSV,2,2,08,80,14,212,18,81,27,118,33,82,45,059,22,83,21,002,*61
$GNGLL,0419.96582,S,05539.82599,E,105308.00,A,D*69
$GNRMC,105309.00,A,0419.96584,S,05539.82597,E,0.176,,020625,,,D*7A
$GNVTG,,T,,M,0.176,N,0.325,K,D*3C
$GNGGA,105309.00,0419.96584,S,05539.82597,E,2,12,0.74,26.3,M,-47.6,M,,0000*4C
$GNGSA,A,3,32,29,28,10,18,16,31,40,,,,,1.46,0.74,1.25*13
$GNGSA,A,3,69,68,81,82,,,,,,,,,1.46,0.74,1.25*18
$GPGSV,4,1,16,10,23,347,16,16,24,262,13,18,30,061,26,23,07,025,08*79
$GPGSV,4,2,16,25,05,137,09,26,30,229,22,27,28,323,21,28,38,170,35*77
$GPGSV,4,3,16,29,29,144,30,31,23,199,27,32,78,345,28,36,52,277,*7A
$GPGSV,4,4,16,40,84,353,32,41,58,082,,49,32,274,,50,10,089,*78
$GLGSV,2,1,08,68,35,358,17,69,59,282,29,70,12,219,,79,13,160,17*6D
$GLGSV,2,2,08,80,14,212,19,81,27,118,28,82,45,059,21,83,21,002,*69
$GNGLL,0419.96584,S,05539.82597,E,105309.00,A,D*60
$GNRMC,105310.00,A,0419.96588,S,05539.82592,E,0.194,,020625,,,D*77
$GNVTG,,T,,M,0.194,N,0.359,K,D*3B
$GNGGA,105310.00,0419.96588,S,05539.82592,E,2,12,0.74,26.2,M,-47.6,M,,0000*4C
$GNGSA,A,3,32,29,28,10,18,16,31,25,40,,,,1.46,0.74,1.25*14
$GNGSA,A,3,69,68,81,82,,,,,,,,,1.46,0.74,1.25*18
$GPGSV,4,1,16,10,23,347,13,16,24,262,12,18,30,061,26,23,07,025,07*72
$GPGSV,4,2,16,25,05,137,14,26,30,229,22,27,28,323,21,28,38,170,32*7C
$GPGSV,4,3,16,29,29,144,29,31,23,199,27,32,78,345,26,36,52,277,*7C
$GPGSV,4,4,16,40,84,353,33,41,58,082,,49,32,274,,50,10,089,*79
$GLGSV,2,1,08,68,35,358,17,69,59,282,28,70,12,219,,79,13,160,18*63
$GLGSV,2,2,08,80,14,212,17,81,27,118,26,82,45,059,21,83,21,002,*69
$GNGLL,0419.96588,S,05539.82592,E,105310.00,A,D*61
$GNRMC,105311.00,A,0419.96596,S,05539.82589,E,0.255,,020625,,,D*7D
$GNVTG,,T,,M,0.255,N,0.472,K,D*3B
$GNGGA,105311.00,0419.96596,S,05539.82589,E,2,12,0.74,26.5,M,-47.6,M,,0000*4F
$GNGSA,A,3,32,29,28,10,18,16,31,25,40,,,,1.46,0.74,1.25*14
$GNGSA,A,3,69,68,81,82,,,,,,,,,1.46,0.74,1.25*18
$GPGSV,4,1,16,10,23,347,11,16,24,262,13,18,30,061,25,23,07,025,07*72
$GPGSV,4,2,16,25,05,137,17,26,30,229,24,27,28,323,19,28,38,170,35*75
$GPGSV,4,3,16,29,29,144,27,31,23,199,25,32,78,345,27,36,52,277,*71
$GPGSV,4,4,16,40,84,353,32,41,58,082,,49,32,274,,50,10,089,*78
$GLGSV,2,1,08,68,35,358,16,69,59,282,28,70,12,219,,79,13,160,19*63
$GLGSV,2,2,08,80,14,212,15,81,27,118,26,82,45,059,21,83,21,002,*6B
$GNGLL,0419.96596,S,05539.82589,E,105311.00,A,D*65
$GNRMC,105312.00,A,0419.96591,S,05539.82581,E,0.260,,020625,,,D*77
$GNVTG,,T,,M,0.260,N,0.482,K,D*32
$GNGGA,105312.00,0419.96591,S,05539.82581,E,2,12,0.73,26.2,M,-47.6,M,,0000*43
$GNGSA,A,3,32,29,28,10,18,16,31,25,40,,,,1.37,0.73,1.16*15
$GNGSA,A,3,69,68,81,82,,,,,,,,,1.37,0.73,1.16*19
$GPGSV,4,1,16,10,23,347,14,16,24,262,10,18,30,061,21,23,07,025,09*7E
$GPGSV,4,2,16,25,05,137,20,26,30,229,22,27,28,323,18,28,38,170,38*7B
$GPGSV,4,3,16,29,29,144,25,31,23,199,26,32,78,345,27,36,52,277,*70
$GPGSV,4,4,16,40,84,353,30,41,58,082,,49,32,274,,50,10,089,*7A
$GLGSV,2,1,08,68,35,358,16,69,59,282,29,70,12,219,,79,13,160,20*68
$GLGSV,2,2,08,80,14,212,15,81,27,118,26,82,45,059,21,83,21,002,*6B
$GNGLL,0419.96591,S,05539.82581,E,105312.00,A,D*69
$GNRMC,105313.00,A,0419.96588,S,05539.82574,E,0.090,,020625,,,D*79
$GNVTG,,T,,M,0.090,N,0.166,K,D*30
$GNGGA,105313.00,0419.96588,S,05539.82574,E,2,12,0.74,26.0,M,-47.6,M,,0000*45
$GNGSA,A,3,32,29,28,10,18,16,31,25,40,,,,1.46,0.74,1.25*14
$GNGSA,A,3,69,68,81,82,,,,,,,,,1.46,0.74,1.25*18
$GPGSV,4,1,16,10,23,347,13,16,24,262,12,18,30,061,19,23,07,025,09*70
$GPGSV,4,2,16,25,05,137,22,26,30,229,20,27,28,323,20,28,38,170,39*71
$GPGSV,4,3,16,29,29,144,31,31,23,199,27,32,78,345,32,36,52,277,*70
$GPGSV,4,4,16,40,84,353,33,41,58,082,,49,32,274,,50,10,089,*79
$GLGSV,2,1,08,68,35,358,19,69,59,282,29,70,12,219,,79,13,160,19*6D
$GLGSV,2,2,08,80,14,212,17,81,27,118,27,82,45,059,21,83,21,002,*68
$GNGLL,0419.96588,S,05539.82574,E,105313.00,A,D*6A
$GNRMC,105314.00,A,0419.96592,S,05539.82578,E,0.138,,020625,,,D*7A
$GNVTG,,T,,M,0.138,N,0.255,K,D*30
$GNGGA,105314.00,0419.96592,S,05539.82578,E,2,12,0.74,26.3,M,-47.6,M,,0000*46
$GNGSA,A,3,32,29,28,10,18,16,31,25,40,,,,1.46,0.74,1.25*14
$GNGSA,A,3,69,68,81,82,,,,,,,,,1.46,0.74,1.25*18
$GPGSV,4,1,16,10,23,347,08,16,24,262,11,18,30,061,21,23,07,025,08*73
$GPGSV,4,2,16,25,05,137,19,26,30,229,21,27,28,323,19,28,38,170,35*7E
$GPGSV,4,3,16,29,29,144,31,31,23,199,27,32,78,345,27,36,52,277,*74
$GPGSV,4,4,16,40,84,353,29,41,58,082,,49,32,274,,50,10,089,*72
$GLGSV,2,1,08,68,35,358,20,69,59,282,30,70,12,219,,79,13,160,19*6F
$GLGSV,2,2,08,80,14,212,18,81,27,118,26,82,45,059,19,83,21,002,22*6D
$GNGLL,0419.96592,S,05539.82578,E,105314.00,A,D*6A
$GNRMC,105315.00,A,0419.96592,S,05539.82581,E,0.010,,020625,,,D*76
$GNVTG,,T,,M,0.010,N,0.019,K,D*31
$GNGGA,105315.00,0419.96592,S,05539.82581,E,2,12,0.73,26.2,M,-47.6,M,,0000*47
$GNGSA,A,3,32,29,28,10,18,16,31,25,40,,,,1.37,0.73,1.16*15
$GNGSA,A,3,69,68,81,82,,,,,,,,,1.37,0.73,1.16*19
$GPGSV,4,1,16,10,23,347,15,16,24,262,15,18,30,061,25,23,07,025,08*7F
$GPGSV,4,2,16,25,05,137,16,26,30,229,23,27,28,323,20,28,38,170,35*79
$GPGSV,4,3,16,29,29,144,33,31,23,199,26,32,78,345,27,36,52,277,*77
$GPGSV,4,4,16,40,84,353,33,41,58,082,,49,32,274,,50,10,089,*79
$GLGSV,2,1,08,68,35,358,19,69,59,282,29,70,12,219,,79,13,160,20*67
$GLGSV,2,2,08,80,14,212,18,81,27,118,24,82,45,059,20,83,21,002,20*67
$GNGLL,0419.96592,S,05539.82581,E,105315.00,A,D*6D
$GNRMC,105316.00,A,0419.96587,S,05539.82580,E,0.067,,020625,,,D*70
$GNVTG,,T,,M,0.067,N,0.123,K,D*39
$GNGGA,105316.00,0419.96587,S,05539.82580,E,2,12,0.73,25.8,M,-47.6,M,,0000*48
$GNGSA,A,3,32,29,28,10,18,16,31,25,40,,,,1.37,0.73,1.16*15
$GNGSA,A,3,69,68,81,82,,,,,,,,,1.37,0.73,1.16*19
$GPGSV,4,1,16,10,23,347,19,16,24,262,15,18,30,061,26,23,07,025,07*7F
$GPGSV,4,2,16,25,05,137,22,26,30,229,23,27,28,323,19,28,38,170,36*77
$GPGSV,4,3,16,29,29,144,31,31,23,199,25,32,78,345,26,36,52,277,*77
$GPGSV,4,4,16,40,84,353,33,41,58,082,,49,32,274,,50,10,089,*79
$GLGSV,2,1,08,68,35,358,19,69,59,282,29,70,12,219,,79,13,160,20*67
$GLGSV,2,2,08,80,14,212,19,81,27,118,23,82,45,059,18,83,21,002,18*61
$GNGLL,0419.96587,S,05539.82580,E,105316.00,A,D*6B
$GNRMC,105317.00,A,0419.96591,S,05539.82576,E,0.387,,020625,,,D*72
$GNVTG,,T,,M,0.387,N,0.716,K,D*34
$GNGGA,105317.00,0419.96591,S,05539.82576,E,2,12,0.73,25.3,M,-47.6,M,,0000*4C
$GNGSA,A,3,32,29,28,10,18,16,31,25,40,,,,1.37,0.73,1.16*15
$GNGSA,A,3,69,68,81,82,,,,,,,,,1.37,0.73,1.16*19
$GPGSV,4,1,16,10,23,347,20,16,24,262,09,18,30,061,26,23,07,025,08*77
$GPGSV,4,2,16,25,05,137,24,26,30,229,26,27,28,323,20,28,38,170,36*7E
$GPGSV,4,3,16,29,29,144,31,31,23,199,22,32,78,345,26,36,52,277,*70
$GPGSV,4,4,16,40,84,353,34,41,58,082,,49,32,274,,50,10,089,*7E
$GLGSV,2,1,08,68,35,358,17,69,59,282,29,70,12,219,,79,13,160,23*6A
$GLGSV,2,2,08,80,14,212,20,81,27,118,24,82,45,059,21,83,21,002,17*69
$GNGLL,0419.96591,S,05539.82576,E,105317.00,A,D*64
$GNRMC,105318.00,A,0419.96585,S,05539.82582,E,0.101,,020625,,,D*7F
$GNVTG,,T,,M,0.101,N,0.187,K,D*36
$GNGGA,105318.00,0419.96585,S,05539.82582,E,2,12,0.78,25.2,M,-47.6,M,,0000*47
$GNGSA,A,3,32,29,28,10,18,16,31,25,40,,,,1.40,0.78,1.17*1F
$GNGSA,A,3,69,68,81,82,,,,,,,,,1.40,0.78,1.17*13
$GPGSV,4,1,16,10,23,347,19,16,24,262,14,18,30,061,27,23,07,025,07*7F
$GPGSV,4,2,16,25,05,137,25,26,30,229,25,27,28,323,21,28,38,170,36*7D
$GPGSV,4,3,16,29,29,144,36,31,23,199,22,32,78,345,24,36,52,277,*75
$GPGSV,4,4,16,40,84,353,29,41,58,082,,49,32,274,,50,10,089,*72
$GLGSV,2,1,08,68,35,358,16,69,59,282,31,70,12,219,,79,13,160,22*63
$GLGSV,2,2,08,80,14,212,22,81,27,118,26,82,45,059,21,83,21,002,17*69
$GNGLL,0419.96585,S,05539.82582,E,105318.00,A,D*65
$GNRMC,105319.00,A,0419.96583,S,05539.82592,E,0.113,,020625,,,D*7A
$GNVTG,,T,,M,0.113,N,0.208,K,D*31
$GNGGA,105319.00,0419.96583,S,05539.82592,E,2,12,0.73,25.2,M,-47.6,M,,0000*4A
$GNGSA,A,3,32,29,28,10,18,16,31,25,40,,,,1.37,0.73,1.16*15
$GNGSA,A,3,69,68,81,82,,,,,,,,,1.37,0.73,1.16*19
$GPGSV,4,1,16,10,23,347,18,16,24,262,18,18,30,061,27,23,07,025,08*7D
$GPGSV,4,2,16,25,05,137,23,26,30,229,24,27,28,323,18,28,38,170,36*70
$GPGSV,4,3,16,29,29,144,35,31,23,199,22,32,78,345,25,36,52,277,*77
$GPGSV,4,4,16,40,84,353,30,41,58,082,,49,32,274,,50,10,089,*7A
$GLGSV,2,1,08,68,35,358,16,69,59,282,30,70,12,219,,79,13,160,22*62
$GLGSV,2,2,08,80,14,212,21,81,27,118,27,82,45,059,22,83,21,002,18*67
$GNGLL,0419.96583,S,05539.82592,E,105319.00,A,D*63
$GNRMC,105320.00,A,0419.96577,S,05539.82592,E,0.097,,020625,,,D*76
$GNVTG,,T,,M,0.097,N,0.179,K,D*39
$GNGGA,105320.00,0419.96577,S,05539.82592,E,2,12,0.73,24.5,M,-47.6,M,,0000*4D
$GNGSA,A,3,32,29,28,10,18,16,31,25,40,,,,1.37,0.73,1.16*15
$GNGSA,A,3,69,68,81,82,,,,,,,,,1.37,0.73,1.16*19
$GPGSV,4,1,16,10,23,347,17,16,24,262,15,18,30,061,27,23,07,025,07*70
$GPGSV,4,2,16,25,05,137,21,26,30,229,24,27,28,323,17,28,38,170,36*7D
$GPGSV,4,3,16,29,29,144,31,31,23,199,20,32,78,345,26,36,52,277,*72
$GPGSV,4,4,16,40,84,353,33,41,58,082,,49,32,274,,50,10,089,*79
$GLGSV,2,1,08,68,35,358,16,69,59,282,29,70,12,219,,79,13,160,20*68
$GLGSV,2,2,08,80,14,212,21,81,27,118,26,82,45,059,23,83,21,002,19*66
$GNGLL,0419.96577,S,05539.82592,E,105320.00,A,D*62
$GNRMC,105321.00,A,0419.96580,S,05539.82609,E,0.356,,020625,,,D*70
$GNVTG,,T,,M,0.356,N,0.659,K,D*32
$GNGGA,105321.00,0419.96580,S,05539.82609,E,2,12,0.73,24.9,M,-47.6,M,,0000*49
$GNGSA,A,3,32,29,28,10,18,16,31,25,40,,,,1.37,0.73,1.16*15
$GNGSA,A,3,69,68,81,82,,,,,,,,,1.37,0.73,1.16*19
$GPGSV,4,1,16,10,23,347,17,16,24,262,11,18,30,061,17,23,07,025,*70
$GPGSV,4,2,16,25,05,137,18,26,30,229,25,27,28,323,19,28,38,170,35*7B
$GPGSV,4,3,16,29,29,144,28,31,23,199,23,32,78,345,27,36,52,277,*78
$GPGSV,4,4,16,40,84,353,31,41,58,082,,49,32,274,,50,10,089,*7B
$GLGSV,2,1,08,68,35,358,17,69,59,282,31,70,12,219,,79,13,160,20*60
$GLGSV,2,2,08,80,14,212,21,81,27,118,24,82,45,059,21,83,21,002,18*67
$GNGLL,0419.96580,S,05539.82609,E,105321.00,A,D*6A
$GNRMC,105322.00,A,0419.96586,S,05539.82609,E,0.182,,020625,,,D*7E
$GNVTG,,T,,M,0.182,N,0.336,K,D*35
$GNGGA,105322.00,0419.96586,S,05539.82609,E,2,12,0.73,24.9,M,-47.6,M,,0000*4C
$GNGSA,A,3,32,29,28,10,18,16,31,25,40,,,,1.37,0.73,1.16*15
$GNGSA,A,3,69,68,81,82,,,,,,,,,1.37,0.73,1.16*19
$GPGSV,4,1,16,10,23,347,18,16,24,262,12,18,30,061,18,23,07,025,*73
$GPGSV,4,2,16,25,05,137,19,26,30,229,25,27,28,323,18,28,38,170,34*7A
$GPGSV,4,3,16,29,29,144,30,31,23,199,23,32,78,345,25,36,52,277,*73
$GPGSV,4,4,16,40,84,353,31,41,58,082,,49,32,274,,50,10,089,*7B
$GLGSV,2,1,08,68,35,358,20,69,59,282,30,70,12,219,,79,13,160,18*6E
$GLGSV,2,2,08,80,14,212,22,81,27,118,24,82,45,059,20,83,21,002,16*6B
$GNGLL,0419.96586,S,05539.82609,E,105322.00,A,D*6F
$GNRMC,105323.00,A,0419.96592,S,05539.82579,E,0.697,,020625,,,D*7D
$GNVTG,,T,,M,0.697,N,1.291,K,D*3B
$GNGGA,105323.00,0419.96592,S,05539.82579,E,2,12,0.73,24.0,M,-47.6,M,,0000*45
$GNGSA,A,3,32,29,28,10,18,16,31,25,40,,,,1.37,0.73,1.16*15
$GNGSA,A,3,69,68,81,82,,,,,,,,,1.37,0.73,1.16*19
$GPGSV,4,1,16,10,22,347,18,16,24,262,10,18,30,061,19,23,07,025,*71
$GPGSV,4,2,16,25,05,137,19,26,30,229,25,27,28,323,16,28,38,170,33*73
$GPGSV,4,3,16,29,29,144,28,31,23,199,23,32,78,345,22,36,52,277,*7D
$GPGSV,4,4,16,40,84,353,32,41,58,082,,49,32,274,,50,10,089,*78
$GLGSV,2,1,08,68,35,358,19,69,59,282,31,70,12,219,,79,13,160,20*6E
$GLGSV,2,2,08,80,14,212,23,81,27,118,23,82,45,059,21,83,21,002,15*6F
$GNGLL,0419.96592,S,05539.82579,E,105323.00,A,D*6F
$GNRMC,105324.00,A,0419.96604,S,05539.82570,E,0.472,,020625,,,D*76
$GNVTG,,T,,M,0.472,N,0.874,K,D*32
$GNGGA,105324.00,0419.96604,S,05539.82570,E,2,12,0.73,23.7,M,-47.6,M,,0000*47
$GNGSA,A,3,32,29,28,10,18,16,31,25,40,,,,1.37,0.73,1.16*15
$GNGSA,A,3,69,68,81,82,,,,,,,,,1.37,0.73,1.16*19
$GPGSV,4,1,16,10,22,347,17,16,24,262,14,18,30,061,20,23,07,025,*70
$GPGSV,4,2,16,25,05,137,19,26,30,229,22,27,28,323,14,28,38,170,36*73
$GPGSV,4,3,16,29,29,144,35,31,23,199,20,32,78,345,22,36,52,277,*72
$GPGSV,4,4,16,40,84,353,34,41,58,082,,49,32,274,,50,10,089,*7E
$GLGSV,2,1,08,68,35,358,17,69,59,282,29,70,12,219,,79,13,160,20*69
$GLGSV,2,2,08,80,14,212,22,81,27,118,24,82,45,059,20,83,21,002,14*69
$GNGLL,0419.96604,S,05539.82570,E,105324.00,A,D*6D
$GNRMC,105325.00,A,0419.96614,S,05539.82566,E,0.497,,020625,,,D*7A
$GNVTG,,T,,M,0.497,N,0.921,K,D*38
$GNGGA,105325.00,0419.96614,S,05539.82566,E,2,12,0.86,23.9,M,-47.6,M,,0000*44
$GNGSA,A,3,32,29,28,10,18,16,31,25,40,,,,1.53,0.86,1.26*1E
$GNGSA,A,3,69,68,81,82,,,,,,,,,1.53,0.86,1.26*12
$GPGSV,4,1,16,10,22,347,15,16,24,262,11,18,30,061,21,23,07,025,*76
$GPGSV,4,2,16,25,05,137,19,26,30,229,24,27,28,323,14,28,38,170,33*70
$GPGSV,4,3,16,29,29,144,31,31,23,199,22,32,78,345,24,36,52,277,*72
$GPGSV,4,4,16,40,84,353,31,41,58,082,,49,32,274,,50,10,089,*7B
$GLGSV,2,1,08,68,35,358,17,69,59,282,28,70,12,219,,79,13,160,21*69
$GLGSV,2,2,08,80,14,212,20,81,27,118,24,82,45,059,22,83,21,002,18*65
$GNGLL,0419.96614,S,05539.82566,E,105325.00,A,D*6A
$GNRMC,105326.00,A,0419.96626,S,05539.82571,E,0.479,,020625,,,D*7E
$GNVTG,,T,,M,0.479,N,0.886,K,D*34
$GNGGA,105326.00,0419.96626,S,05539.82571,E,2,12,0.73,24.7,M,-47.6,M,,0000*43
$GNGSA,A,3,32,29,28,10,18,16,31,25,40,,,,1.37,0.73,1.16*15
$GNGSA,A,3,69,68,81,82,,,,,,,,,1.37,0.73,1.16*19
$GPGSV,4,1,16,10,22,347,17,16,24,262,19,18,30,061,21,23,07,025,06*7A
$GPGSV,4,2,16,25,05,137,20,26,30,229,25,27,28,323,18,28,38,170,34*70
$GPGSV,4,3,16,29,29,144,27,31,23,199,21,32,78,345,23,36,52,277,*71
$GPGSV,4,4,16,40,84,353,30,41,58,082,,49,32,274,,50,10,089,*7A
$GLGSV,2,1,08,68,35,358,18,69,59,282,29,70,12,219,,79,13,160,21*67
$GLGSV,2,2,08,80,14,212,19,81,27,118,23,82,45,059,22,83,21,002,18*68
$GNGLL,0419.96626,S,05539.82571,E,105326.00,A,D*6E
$GNRMC,105327.00,A,0419.96626,S,05539.82564,E,0.244,,020625,,,D*73
$GNVTG,,T,,M,0.244,N,0.452,K,D*39
$GNGGA,105327.00,0419.96626,S,05539.82564,E,2,12,0.86,24.4,M,-47.6,M,,0000*4F
$GNGSA,A,3,32,29,28,10,18,16,31,25,40,,,,1.53,0.86,1.26*1E
$GNGSA,A,3,69,68,81,82,,,,,,,,,1.53,0.86,1.26*12
$GPGSV,4,1,16,10,22,347,19,16,24,262,15,18,30,061,20,23,07,025,07*78
$GPGSV,4,2,16,25,05,137,19,26,30,229,24,27,28,323,21,28,38,170,34*71
$GPGSV,4,3,16,29,29,144,27,31,23,199,21,32,78,345,23,36,52,277,*71
$GPGSV,4,4,16,40,84,353,29,41,58,082,,49,32,274,,50,10,089,*72
$GLGSV,2,1,08,68,35,358,17,69,59,282,29,70,12,219,,79,13,160,21*68
$GLGSV,2,2,08,80,14,212,18,81,27,118,26,82,45,059,22,83,21,002,20*67
$GNGLL,0419.96626,S,05539.82564,E,105327.00,A,D*6B
$GNRMC,105328.00,A,0419.96624,S,05539.82566,E,0.048,,020625,,,D*72
$GNVTG,,T,,M,0.048,N,0.089,K,D*35
$GNGGA,105328.00,0419.96624,S,05539.82566,E,2,12,0.86,24.1,M,-47.6,M,,0000*45
$GNGSA,A,3,32,29,23,28,10,18,16,31,25,40,,,1.53,0.86,1.26*1F
$GNGSA,A,3,69,68,81,82,,,,,,,,,1.53,0.86,1.26*12
$GPGSV,4,1,16,10,22,347,16,16,24,262,11,18,30,061,21,23,07,025,08*7D
$GPGSV,4,2,16,25,05,137,22,26,30,229,23,27,28,323,21,28,38,170,35*7F
$GPGSV,4,3,16,29,29,144,33,31,23,199,22,32,78,345,22,36,52,277,*76
$GPGSV,4,4,16,40,84,353,30,41,58,082,,49,32,274,,50,10,089,*7A
$GLGSV,2,1,08,68,35,358,17,69,59,282,21,70,12,219,,79,13,160,22*63
$GLGSV,2,2,08,80,14,212,19,81,27,118,31,82,45,059,20,83,21,002,21*63
$GNGLL,0419.96624,S,05539.82566,E,105328.00,A,D*64
$GNRMC,105329.00,A,0419.96621,S,05539.82554,E,0.365,,020625,,,D*7B
