b0@76%? }"a
"%4+(W
K{4(V_:RZ 
Y
qDSE"FI1JJNOP$EST
:UbU
Sm$GNRMC,054736.00,A,0419.89147,S,05539.60716,E,0.212,,280525,,,A*7A
$GNVTG,,T,,M,0.212,N,0.393,K,A*35
$GNGNS,054736.00,0419.89147,S,05539.60716,E,AA,15,0.76,22.2,-47.6,,*6A
$GNGGA,054736.00,0419.89147,S,05539.60716,E,1,12,0.76,22.2,M,-47.6,M,,*47
$GNGSA,A,3,24,05,20,15,12,18,29,25,23,41,,,1.61,0.76,1.42*1B
$GNGSA,A,3,80,84,69,73,85,,,,,,,,1.61,0.76,1.42*1E
$GPGSV,4,1,15,05,55,054,30,12,63,032,37,13,14,125,,15,34,158,18*7B
$GPGSV,4,2,15,18,34,269,24,20,22,037,14,23,29,206,21,24,43,192,27*7E
$GPGSV,4,3,15,25,40,343,23,29,10,331,11,36,52,277,,40,86,351,40*7E
$GPGSV,4,4,15,41,58,082,31,49,32,274,,50,10,089,*45
$GLGSV,3,1,10,68,15,083,,69,30,134,15,70,09,197,,73,49,330,25*66
$GLGSV,3,2,10,74,05,334,,79,15,154,,80,69,157,36,83,07,006,*66
$GLGSV,3,3,10,84,22,314,10,85,11,264,12*61
$GNGLL,0419.89147,S,05539.60716,E,054736.00,A,A*6A
$GNGRS,054736.00,1,-0.5,-0.9,15.9,-1.6,-0.6,2.2,25.6,7.8,-5.1,-168,,*48
$GNGRS,054736.00,1,0.0,9.2,8.0,-0.4,-13.0,,,,,,,*48
$GNGST,054736.00,4496177,,,,2.7,5.7,11*5D
$GNZDA,054736.00,28,05,2025,00,00*71
$GNGBS,054736.00,2.7,5.7,10.6,,,,*6C
$GNTXT,01,01,01,More than 100 frame errors, UART RX was disabled*70
b0@76"? }"
"%+#(W
K{4(V_:R 
Y
qDSE
FI1JJNOP#EST:oU?<bU
SD$GNRMC,054737.00,A,0419.89144,S,05539.60708,E,0.197,,280525,,,A*79
$GNVTG,,T,,M,0.197,N,0.366,K,A*31
$GNGNS,054737.00,0419.89144,S,05539.60708,E,AA,13,0.84,22.4,-47.6,,*6A
$GNGGA,054737.00,0419.89144,S,05539.60708,E,1,12,0.84,22.4,M,-47.6,M,,*41
$GNGSA,A,3,24,05,20,15,12,18,25,23,41,,,,1.76,0.84,1.54*1C
$GNGSA,A,3,80,84,73,85,,,,,,,,,1.76,0.84,1.54*1D
$GPGSV,4,1,15,05,55,054,23,12,63,032,34,13,14,125,,15,34,158,17*75
$GPGSV,4,2,15,18,34,269,21,20,22,037,11,23,29,206,21,24,43,192,27*7E
$GPGSV,4,3,15,25,40,343,21,29,10,331,07,36,52,277,,40,86,351,40*7B
$GPGSV,4,4,15,41,58,082,29,49,32,274,,50,10,089,*4C
$GLGSV,3,1,10,68,15,083,,69,30,134,10,70,09,197,,73,49,330,24*62
$GLGSV,3,2,10,74,05,334,,79,15,154,,80,69,157,35,83,07,006,*65
$GLGSV,3,3,10,84,22,314,09,85,11,264,11*6A
$GNGLL,0419.89144,S,05539.60708,E,054737.00,A,A*67
$GNGRS,054737.00,1,-4.8,1.5,-0.7,-1.1,-0.6,2.5,5.4,-3.7,-170,,,*6F
$GNGRS,054737.00,1,-0.1,-9.1,-0.9,-12.2,,,,,,,,*63
$GNGST,054737.00,1138,,,,2.8,5.8,11*69
$GNZDA,054737.00,28,05,2025,00,00*70
$GNGBS,054737.00,2.8,5.8,10.8,,,,*63
$GNTXT,01,01,01,More than 100 frame errors, UART RX was disabled*70
b0@76j&? }"
"%Gy+](W
K{4+V_:R 
Y
qDSEFI1J@JNOP'EST:U4NbU
SA$GNRMC,054738.00,A,0419.89143,S,05539.60707,E,0.007,,280525,,,A*76
$GNVTG,,T,,M,0.007,N,0.013,K,A*38
$GNGNS,054738.00,0419.89143,S,05539.60707,E,AA,14,0.84,22.4,-47.6,,*6A
$GNGGA,054738.00,0419.89143,S,05539.60707,E,1,12,0.84,22.4,M,-47.6,M,,*46
$GNGSA,A,3,24,05,20,15,12,18,29,25,23,41,,,1.76,0.84,1.54*17
$GNGSA,A,3,80,84,73,85,,,,,,,,,1.76,0.84,1.54*1D
$GPGSV,4,1,15,05,55,054,25,12,63,032,38,13,14,125,,15,34,158,18*70
$GPGSV,4,2,15,18,34,269,22,20,22,037,12,23,29,206,23,24,43,192,29*72
$GPGSV,4,3,15,25,40,343,29,29,10,331,14,36,52,277,,40,86,351,43*72
$GPGSV,4,4,15,41,58,082,31,49,32,274,,50,10,089,*45
$GLGSV,3,1,10,68,15,083,,69,30,134,09,70,09,197,,73,49,330,30*6F
$GLGSV,3,2,10,74,05,334,,79,15,154,,80,69,157,39,83,07,006,*69
$GLGSV,3,3,10,84,22,314,11,85,11,264,17*65
$GNGLL,0419.89143,S,05539.60707,E,054738.00,A,A*60
$GNGRS,054738.00,1,-1.6,-1.5,16.1,-1.2,-0.5,5.2,25.3,5.2,-3.9,-169,,*40
$GNGRS,054738.00,1,-0.3,9.0,-1.9,-12.3,,,,,,,,*42
$GNGST,054738.00,294358,,,,2.8,6.0,11*67
$GNZDA,054738.00,28,05,2025,00,00*7F
$GNGBS,054738.00,2.8,6.0,11.0,,,,*6E
$GNTXT,01,01,01,More than 100 frame errors, UART RX was disabled*70
b0@!76(? }"
"%=1+(W
K{4+V_#:R 
Y
qDSEFI1JJNOP&EST
:UCjbU
zT$GNRMC,054739.00,A,0419.89144,S,05539.60706,E,0.050,,280525,,,A*73
$GNVTG,,T,,M,0.050,N,0.092,K,A*33
$GNGNS,054739.00,0419.89144,S,05539.60706,E,AA,15,0.76,22.4,-47.6,,*61
$GNGGA,054739.00,0419.89144,S,05539.60706,E,1,12,0.76,22.4,M,-47.6,M,,*4C
$GNGSA,A,3,24,05,20,15,12,18,29,25,23,41,,,1.61,0.76,1.42*1B
$GNGSA,A,3,80,84,69,73,85,,,,,,,,1.61,0.76,1.42*1E
$GPGSV,4,1,15,05,55,054,33,12,63,032,40,13,14,125,,15,34,158,18*78
$GPGSV,4,2,15,18,34,269,23,20,22,037,09,23,29,206,24,24,43,192,28*7F
$GPGSV,4,3,15,25,40,343,30,29,10,331,18,36,52,277,,40,86,351,43*76
$GPGSV,4,4,15,41,58,082,35,49,32,274,,50,10,089,*41
$GLGSV,3,1,10,68,15,083,,69,30,134,16,70,09,197,,73,49,330,23*63
$GLGSV,3,2,10,74,05,334,,79,15,154,,80,69,157,38,83,07,006,*68
$GLGSV,3,3,10,84,22,314,10,85,11,264,12*61
$GNGLL,0419.89144,S,05539.60706,E,054739.00,A,A*67
$GNGRS,054739.00,1,2.8,1.3,16.0,-3.6,-0.5,7.1,25.1,2.2,-4.6,-169,,*41
$GNGRS,054739.00,1,-0.4,9.2,3.9,-3.4,-12.1,,,,,,,*6F
$GNGST,054739.00,4496890,,,,2.8,6.0,11*59
$GNZDA,054739.00,28,05,2025,00,00*7E
$GNGBS,054739.00,2.8,6.0,11.1,,,,*6E
$GNTXT,01,01,01,More than 100 frame errors, UART RX was disabled*70
b0@$76)? }"
"5%<+(W
K{4+V_&:R# 
Y
qDSEFI1JBJNOP%EST:U*bU
bT$GNRMC,054740.00,A,0419.89140,S,05539.60696,E,0.211,,280525,,,A*76
$GNVTG,,T,,M,0.211,N,0.392,K,A*37
$GNGNS,054740.00,0419.89140,S,05539.60696,E,AA,15,0.76,22.7,-47.6,,*60
$GNGGA,054740.00,0419.89140,S,05539.60696,E,1,12,0.76,22.7,M,-47.6,M,,*4D
$GNGSA,A,3,24,05,20,15,12,18,29,25,23,41,,,1.50,0.76,1.29*14
$GNGSA,A,3,80,84,69,73,85,,,,,,,,1.50,0.76,1.29*11
$GPGSV,4,1,15,05,55,054,36,12,63,032,41,13,14,125,,15,34,158,21*76
$GPGSV,4,2,15,18,34,269,23,20,22,037,13,23,29,206,27,24,43,192,30*7E
$GPGSV,4,3,15,25,40,343,31,29,10,331,13,36,52,277,,40,86,351,43*7C
$GPGSV,4,4,15,41,58,082,38,49,32,274,,50,10,089,*4C
$GLGSV,3,1,10,68,15,083,,69,30,134,19,70,09,197,,73,49,330,24*6B
$GLGSV,3,2,10,74,05,334,,79,15,154,,80,69,157,37,83,07,006,*67
$GLGSV,3,3,10,84,22,314,08,85,11,264,14*6E
$GNGLL,0419.89140,S,05539.60696,E,054740.00,A,A*65
$GNGRS,054740.00,1,2.1,-0.5,16.0,-5.5,-0.2,5.7,-11.3,4.7,-5.8,-169,,*4E
$GNGRS,054740.00,1,-0.3,-33.3,2.1,-4.5,-10.2,,,,,,,*7D
$GNGST,054740.00,1097,,,,2.8,6.0,11*66
$GNZDA,054740.00,28,05,2025,00,00*70
$GNGBS,054740.00,2.8,6.0,11.0,,,,*61
$GNTXT,01,01,01,More than 100 frame errors, UART RX was disabled*70
b0@#76(? }"P
"%W +v(W
K{4+V_&:R\ 
Y
qDREUFI1JJNOP&EST
:mU{CbU
JT{$GNRMC,054741.00,A,0419.89135,S,05539.60696,E,0.068,,280525,,,A*79
$GNVTG,,T,,M,0.068,N,0.126,K,A*36
$GNGNS,054741.00,0419.89135,S,05539.60696,E,AA,15,0.76,22.5,-47.6,,*61
$GNGGA,054741.00,0419.89135,S,05539.60696,E,1,12,0.76,22.5,M,-47.6,M,,*4C
$GNGSA,A,3,24,05,20,15,12,18,29,25,23,41,,,1.61,0.76,1.42*1B
$GNGSA,A,3,80,84,69,73,85,,,,,,,,1.61,0.76,1.42*1E
$GPGSV,4,1,15,05,55,054,35,12,63,032,40,13,14,125,,15,34,158,21*74
$GPGSV,4,2,15,18,34,269,24,20,22,037,16,23,29,206,27,24,43,192,32*7E
$GPGSV,4,3,15,25,40,343,30,29,10,331,14,36,52,277,,40,86,351,43*7A
$GPGSV,4,4,15,41,58,082,38,49,32,274,,50,10,089,*4C
$GLGSV,3,1,10,68,15,082,,69,30,134,18,70,09,197,,73,49,330,25*6A
$GLGSV,3,2,10,74,05,334,,79,15,154,,80,69,157,38,83,07,006,*68
$GLGSV,3,3,10,84,22,314,10,85,11,264,19*6A
$GNGLL,0419.89135,S,05539.60696,E,054741.00,A,A*66
$GNGRS,054741.00,1,-1.4,2.3,14.6,-4.3,-0.4,4.6,25.1,6.5,-6.8,-168,,*62
$GNGRS,054741.00,1,-0.2,8.8,0.9,-0.3,16.6,,,,,,,*44
$GNGST,054741.00,3179317,,,,2.7,6.0,11*5E
$GNZDA,054741.00,28,05,2025,00,00*71
$GNGBS,054741.00,2.7,6.0,11.0,,,,*6F
$GNTXT,01,01,01,More than 100 frame errors, UART RX was disabled*70
b0@!76'? }"
"%+(W
K{4*V_&:Rx 
Y
qDREgFI1JJNOP'EST
:XUybU
2T}$GNRMC,054742.00,A,0419.89130,S,05539.60691,E,0.105,,280525,,,A*72
$GNVTG,,T,,M,0.105,N,0.195,K,A*34
$GNGNS,054742.00,0419.89130,S,05539.60691,E,AA,15,0.76,22.7,-47.6,,*62
$GNGGA,054742.00,0419.89130,S,05539.60691,E,1,12,0.76,22.7,M,-47.6,M,,*4F
$GNGSA,A,3,24,05,20,15,12,18,29,25,23,41,,,1.61,0.76,1.42*1B
$GNGSA,A,3,80,84,69,73,85,,,,,,,,1.61,0.76,1.42*1E
$GPGSV,4,1,15,05,55,054,33,12,63,032,39,13,14,125,,15,34,158,22*7F
$GPGSV,4,2,15,18,34,269,26,20,22,037,17,23,29,206,27,24,43,192,31*7E
$GPGSV,4,3,15,25,40,343,30,29,10,331,13,36,52,277,,40,86,351,42*7C
$GPGSV,4,4,15,41,58,082,38,49,32,274,,50,10,089,*4C
$GLGSV,3,1,10,68,15,082,,69,30,133,18,70,09,197,,73,49,330,24*6C
$GLGSV,3,2,10,74,05,334,,79,15,154,06,80,69,157,39,83,07,006,*6F
$GLGSV,3,3,10,84,22,314,10,85,11,264,17*64
$GNGLL,0419.89130,S,05539.60691,E,054742.00,A,A*67
$GNGRS,054742.00,1,-1.0,2.1,14.2,-5.6,-0.4,2.3,25.2,2.5,-7.5,-168,,*6F
$GNGRS,054742.00,1,-0.3,8.6,1.0,7.0,16.7,,,,,,,*68
$GNGST,054742.00,3179368,,,,2.7,5.9,11*5F
$GNZDA,054742.00,28,05,2025,00,00*72
$GNGBS,054742.00,2.7,5.9,10.9,,,,*6E
$GNTXT,01,01,01,More than 100 frame errors, UART RX was disabled*70
b0@h!76)? }"
"%+q(WO
Ko{4+V_&:R 
Y
qDREFI1JmJNOP'EST
:UZfbhU
TUK$GNRMC,054743.00,A,0419.89131,S,05539.60698,E,0.272,,280525,,,A*78
$GNVTG,,T,,M,0.272,N,0.505,K,A*3A
$GNGNS,054743.00,0419.89131,S,05539.60698,E,AA,15,0.79,22.7,-47.6,,*64
$GNGGA,054743.00,0419.89131,S,05539.60698,E,1,12,0.79,22.7,M,-47.6,M,,*49
$GNGSA,A,3,24,05,20,15,12,18,29,25,23,41,,,1.66,0.79,1.47*16
$GNGSA,A,3,80,84,69,73,85,,,,,,,,1.66,0.79,1.47*13
$GPGSV,4,1,15,05,55,054,33,12,63,032,41,13,14,125,,15,34,158,21*73
$GPGSV,4,2,15,18,34,269,24,20,22,037,17,23,29,206,28,24,43,192,30*72
$GPGSV,4,3,15,25,40,343,31,29,10,331,17,36,52,277,,40,86,351,43*78
$GPGSV,4,4,15,41,58,082,38,49,32,274,,50,10,089,*4C
$GLGSV,3,1,10,68,15,082,,69,30,133,19,70,09,197,,73,49,330,24*6D
$GLGSV,3,2,10,74,05,334,,79,15,154,,80,69,157,39,83,07,006,*69
$GLGSV,3,3,10,84,22,314,10,85,11,264,12*61
$GNGLL,0419.89131,S,05539.60698,E,054743.00,A,A*6E
$GNGRS,054743.00,1,3.7,2.8,11.9,-7.5,-0.3,4.7,24.2,-1.8,-8.8,-167,,*6A
$GNGRS,054743.00,1,-0.4,-138,2.9,-1.5,16.3,,,,,,,*79
$GNGST,054743.00,1138,,,,2.7,6.0,11*6E
$GNZDA,054743.00,28,05,2025,00,00*73
$GNGBS,054743.00,2.7,6.0,10.9,,,,*65
$GNTXT,01,01,01,More than 100 frame errors, UART RX was disabled*70
b0@P!76)? }"
"^%jB+u(WU
K3{4*V_&:R 
Y
qDREFI1JJJNOP'EST
:[Um2bPU
T-$GNRMC,054744.00,A,0419.89125,S,05539.60693,E,0.363,,280525,,,A*70
$GNVTG,,T,,M,0.363,N,0.672,K,A*38
$GNGNS,054744.00,0419.89125,S,05539.60693,E,AA,15,0.76,22.7,-47.6,,*62
$GNGGA,054744.00,0419.89125,S,05539.60693,E,1,12,0.76,22.7,M,-47.6,M,,*4F
$GNGSA,A,3,24,05,20,15,12,18,29,25,23,41,,,1.61,0.76,1.42*1B
$GNGSA,A,3,80,84,69,73,85,,,,,,,,1.61,0.76,1.42*1E
$GPGSV,4,1,15,05,55,054,33,12,63,032,41,13,14,125,,15,34,158,23*71
$GPGSV,4,2,15,18,34,269,22,20,22,037,15,23,29,206,27,24,43,192,30*79
$GPGSV,4,3,15,25,40,343,30,29,10,331,16,36,52,277,,40,86,351,42*79
$GPGSV,4,4,15,41,58,082,38,49,32,274,,50,10,089,*4C
$GLGSV,3,1,10,68,15,082,,69,30,133,18,70,09,197,,73,49,330,26*6E
$GLGSV,3,2,10,74,05,334,,79,15,154,,80,69,157,39,83,07,006,*69
$GLGSV,3,3,10,84,22,314,10,85,11,264,17*64
$GNGLL,0419.89125,S,05539.60693,E,054744.00,A,A*67
$GNGRS,054744.00,1,1.2,2.6,16.4,-8.2,-0.1,6.1,28.7,3.4,-9.6,-167,,*45
$GNGRS,054744.00,1,-0.4,8.6,4.8,-1.8,13.9,,,,,,,*4C
$GNGST,054744.00,3387,,,,2.7,6.0,11*6D
$GNZDA,054744.00,28,05,2025,00,00*74
$GNGBS,054744.00,2.7,6.0,10.8,,,,*63
$GNTXT,01,01,01,More than 100 frame errors, UART RX was disabled*70
b0@8"76(? }"r
"%[ +r(W,
K{4+V_&:R 
Y
qDREFI1J#JNOP'EST:Ub8U
T$GNRMC,054745.00,A,0419.89116,S,05539.60686,E,0.344,,280525,,,A*70
$GNVTG,,T,,M,0.344,N,0.637,K,A*3C
$GNGNS,054745.00,0419.89116,S,05539.60686,E,AA,15,0.76,22.4,-47.6,,*64
$GNGGA,054745.00,0419.89116,S,05539.60686,E,1,12,0.76,22.4,M,-47.6,M,,*49
$GNGSA,A,3,24,05,20,15,12,18,29,25,23,41,,,1.61,0.76,1.42*1B
$GNGSA,A,3,80,84,69,73,85,,,,,,,,1.61,0.76,1.42*1E
$GPGSV,4,1,15,05,55,054,34,12,63,032,40,13,14,125,,15,34,158,23*77
$GPGSV,4,2,15,18,34,269,26,20,22,037,15,23,29,206,25,24,43,192,32*7D
$GPGSV,4,3,15,25,40,343,31,29,10,331,16,36,52,277,,40,86,351,43*79
$GPGSV,4,4,15,41,58,082,38,49,32,274,,50,10,089,*4C
$GLGSV,3,1,10,68,15,082,,69,30,133,18,70,09,197,,73,49,330,26*6E
$GLGSV,3,2,10,74,05,334,,79,15,154,,80,69,157,39,83,07,006,*69
$GLGSV,3,3,10,84,22,314,08,85,11,264,19*63
$GNGLL,0419.89116,S,05539.60686,E,054745.00,A,A*62
$GNGRS,054745.00,1,-1.4,1.7,18.0,-6.5,0.2,2.9,29.5,3.0,-9.3,-167,,*4E
$GNGRS,054745.00,1,-0.4,7.9,4.5,-2.2,14.6,,,,,,,*41
$GNGST,054745.00,4931,,,,2.7,6.0,11*6C
$GNZDA,054745.00,28,05,2025,00,00*75
$GNGBS,054745.00,2.7,6.0,10.8,,,,*62
$GNTXT,01,01,01,More than 100 frame errors, UART RX was disabled*70
b0@ #76i(? }"C
"?%4# + (W
Kl{4+V_&:R 
Y
qDREFI2IJNOP'EST:U>b U
T$GNRMC,054746.00,A,0419.89108,S,05539.60673,E,0.191,,280525,,,A*7C
$GNVTG,,T,,M,0.191,N,0.354,K,A*36
$GNGNS,054746.00,0419.89108,S,05539.60673,E,AA,15,0.79,23.0,-47.6,,*68
$GNGGA,054746.00,0419.89108,S,05539.60673,E,1,12,0.79,23.0,M,-47.6,M,,*45
$GNGSA,A,3,24,05,20,15,12,18,29,25,23,41,,,1.66,0.79,1.47*16
$GNGSA,A,3,80,84,69,73,85,,,,,,,,1.66,0.79,1.47*13
$GPGSV,4,1,15,05,55,054,35,12,63,032,40,13,14,125,,15,34,158,23*76
$GPGSV,4,2,15,18,34,269,26,20,22,037,15,23,29,206,30,24,43,192,32*79
$GPGSV,4,3,15,25,40,343,32,29,10,331,17,36,52,277,,40,86,351,43*7B
$GPGSV,4,4,15,41,58,082,38,49,32,274,,50,10,089,*4C
$GLGSV,3,1,10,68,15,082,,69,30,133,18,70,09,197,,73,50,329,27*6F
$GLGSV,3,2,10,74,05,334,,79,15,154,,80,69,157,39,83,07,006,*69
$GLGSV,3,3,10,84,22,314,07,85,11,264,18*6D
$GNGLL,0419.89108,S,05539.60673,E,054746.00,A,A*64
$GNGRS,054746.00,1,1.6,1.0,18.4,-7.0,0.2,3.2,24.1,2.6,-9.9,-167,,*6B
$GNGRS,054746.00,1,-0.4,-108,1.9,-2.3,15.0,,,,,,,*79
$GNGST,054746.00,1137,,,,2.6,5.9,11*6F
$GNZDA,054746.00,28,05,2025,00,00*76
$GNGBS,054746.00,2.6,5.9,10.7,,,,*65
$GNTXT,01,01,01,More than 100 frame errors, UART RX was disabled*70
b0@#76A(? }"L
"T%b+/(W
K{4+V_$:R 
Y
qDREXFI2IJNOP'EST:mU9fbU
 T$GNRMC,054747.00,A,0419.89102,S,05539.60672,E,0.120,,280525,,,A*7C
$GNVTG,,T,,M,0.120,N,0.221,K,A*3F
$GNGNS,054747.00,0419.89102,S,05539.60672,E,AA,15,0.76,22.8,-47.6,,*64
$GNGGA,054747.00,0419.89102,S,05539.60672,E,1,12,0.76,22.8,M,-47.6,M,,*49
$GNGSA,A,3,24,05,20,15,12,18,29,25,23,41,,,1.61,0.76,1.42*1B
$GNGSA,A,3,80,84,69,73,85,,,,,,,,1.61,0.76,1.42*1E
$GPGSV,4,1,15,05,55,054,35,12,63,032,40,13,14,125,,15,34,158,22*77
$GPGSV,4,2,15,18,34,269,25,20,22,037,16,23,29,206,29,24,43,192,31*72
$GPGSV,4,3,15,25,40,343,31,29,10,331,17,36,52,277,,40,86,351,43*78
$GPGSV,4,4,15,41,58,082,36,49,32,274,,50,10,089,*42
$GLGSV,3,1,10,68,15,082,,69,30,133,18,70,09,197,,73,50,329,27*6F
$GLGSV,3,2,10,74,06,334,,79,15,154,,80,69,157,39,83,07,006,*6A
$GLGSV,3,3,10,84,22,314,12,85,11,264,19*68
$GNGLL,0419.89102,S,05539.60672,E,054747.00,A,A*6E
$GNGRS,054747.00,1,0.5,0.7,18.2,-6.9,0.2,3.4,22.4,2.4,-9.3,-167,,*6D
$GNGRS,054747.00,1,-0.3,8.8,3.4,-2.9,13.4,,,,,,,*42
$GNGST,054747.00,3179277,,,,2.6,5.8,11*55
$GNZDA,054747.00,28,05,2025,00,00*77
$GNGBS,054747.00,2.6,5.8,10.6,,,,*64
$GNTXT,01,01,01,More than 100 frame errors, UART RX was disabled*70
b0@#76J(? }"
"%G+(W
K{4+V_$:R 
Y
qDRECFI2IwJNO2P&EST:eU$bU
$TA$GNRMC,054748.00,A,0419.89097,S,05539.60672,E,0.172,,280525,,,A*79
$GNVTG,,T,,M,0.172,N,0.319,K,A*32
$GNGNS,054748.00,0419.89097,S,05539.60672,E,AA,15,0.95,22.9,-47.6,,*6A
$GNGGA,054748.00,0419.89097,S,05539.60672,E,1,12,0.95,22.9,M,-47.6,M,,*47
$GNGSA,A,3,24,05,20,15,12,18,29,25,23,41,,,2.08,0.95,1.85*11
$GNGSA,A,3,80,84,69,73,85,,,,,,,,2.08,0.95,1.85*14
$GPGSV,4,1,15,05,55,054,35,12,63,032,40,13,14,125,,15,34,158,22*77
$GPGSV,4,2,15,18,34,269,25,20,22,037,13,23,29,206,28,24,43,192,31*76
$GPGSV,4,3,15,25,40,343,25,29,10,331,15,36,52,277,,40,86,351,43*7F
$GPGSV,4,4,15,41,58,082,36,49,32,274,,50,10,089,*42
$GLGSV,3,1,10,68,15,082,,69,30,133,20,70,09,197,,73,50,329,27*64
$GLGSV,3,2,10,74,06,334,,79,15,154,22,80,69,157,38,83,07,006,*6B
$GLGSV,3,3,10,84,22,314,09,85,11,264,17*6C
$GNGLL,0419.89097,S,05539.60672,E,054748.00,A,A*6C
$GNGRS,054748.00,1,-0.5,0.7,21.2,-3.7,0.2,2.2,22.0,2.9,-11.1,-167,,*7B
$GNGRS,054748.00,1,-0.3,8.7,0.7,-3.9,12.3,,,,,,,*45
$GNGST,054748.00,3299292,,,,2.6,5.7,11*53
$GNZDA,054748.00,28,05,2025,00,00*78
$GNGBS,054748.00,2.6,5.7,10.6,,,,*64
$GNTXT,01,01,01,More than 100 frame errors, UART RX was disabled*70
b0@%76Q(? }"
"%p+(W
K{4*V_%:R 
Y
qDREgFI2IJNO1P&EST:U[bU
(Tc$GNRMC,054749.00,A,0419.89094,S,05539.60669,E,0.166,,280525,,,A*74
$GNVTG,,T,,M,0.166,N,0.308,K,A*37
$GNGNS,054749.00,0419.89094,S,05539.60669,E,AA,15,0.95,22.8,-47.6,,*63
$GNGGA,054749.00,0419.89094,S,05539.60669,E,1,12,0.95,22.8,M,-47.6,M,,*4E
$GNGSA,A,3,24,05,20,15,12,18,29,25,23,41,,,2.08,0.95,1.85*11
$GNGSA,A,3,80,84,69,73,85,,,,,,,,2.08,0.95,1.85*14
$GPGSV,4,1,15,05,55,054,37,12,63,032,40,13,14,125,,15,34,158,20*77
$GPGSV,4,2,15,18,34,269,22,20,22,037,13,23,29,206,26,24,43,192,30*7E
$GPGSV,4,3,15,25,40,343,26,29,10,331,16,36,52,277,,40,86,351,42*7E
$GPGSV,4,4,15,41,58,082,37,49,32,274,,50,10,089,*43
$GLGSV,3,1,10,68,15,082,,69,30,133,20,70,09,197,,73,50,329,27*64
$GLGSV,3,2,10,74,06,334,,79,15,154,20,80,69,157,38,83,07,006,*69
$GLGSV,3,3,10,84,22,314,13,85,11,264,16*66
$GNGLL,0419.89094,S,05539.60669,E,054749.00,A,A*64
$GNGRS,054749.00,1,2.6,0.8,22.3,-2.6,-0.1,2.2,23.3,9.2,-9.1,-167,,*4E
$GNGRS,054749.00,1,-0.4,0.2,-1.5,-3.8,11.1,,,,,,,*60
$GNGST,054749.00,1138,,,,2.6,5.7,11*61
$GNZDA,054749.00,28,05,2025,00,00*79
$GNGBS,054749.00,2.6,5.7,10.5,,,,*66
$GNTXT,01,01,01,More than 100 frame errors, UART RX was disabled*70
b0@"76D(? }"
"%+(W#
Kg{4*V_&:R 
Y
qDREJFI2IJNOP&EST
:UU+bU
r,T;$GNRMC,054750.00,A,0419.89092,S,05539.60671,E,0.078,,280525,,,A*7D
$GNVTG,,T,,M,0.078,N,0.144,K,A*33
$GNGNS,054750.00,0419.89092,S,05539.60671,E,AA,15,0.95,22.9,-47.6,,*65
$GNGGA,054750.00,0419.89092,S,05539.60671,E,1,12,0.95,22.9,M,-47.6,M,,*48
$GNGSA,A,3,24,05,20,15,12,18,29,25,23,41,,,2.08,0.95,1.85*11
$GNGSA,A,3,80,84,69,73,85,,,,,,,,2.08,0.95,1.85*14
$GPGSV,4,1,15,05,55,054,34,12,63,032,40,13,14,125,,15,34,158,23*77
$GPGSV,4,2,15,18,34,269,23,20,22,037,16,23,29,206,27,24,43,192,31*7A
$GPGSV,4,3,15,25,40,343,26,29,10,331,16,36,52,277,,40,86,351,42*7E
$GPGSV,4,4,15,41,58,082,38,49,32,274,,50,10,089,*4C
$GLGSV,3,1,10,68,15,082,,69,30,133,20,70,09,197,,73,50,329,27*64
$GLGSV,3,2,10,74,06,334,,79,15,154,20,80,69,157,38,83,07,006,*69
$GLGSV,3,3,10,84,22,314,10,85,11,264,15*66
$GNGLL,0419.89092,S,05539.60671,E,054750.00,A,A*63
$GNGRS,054750.00,1,2.4,0.7,21.8,-5.1,0.0,2.0,24.1,5.5,-8.2,-167,,*61
$GNGRS,054750.00,1,-0.1,9.1,-1.8,-5.8,9.7,,,,,,,*53
$GNGST,054750.00,96458,,,,2.5,5.7,11*57
$GNZDA,054750.00,28,05,2025,00,00*71
$GNGBS,054750.00,2.5,5.7,10.5,,,,*6D
$GNTXT,01,01,01,More than 100 frame errors, UART RX was disabled*70
b0@"76J(? }"
"% +K(W
K{4+V_%:R 
Y
qDRE)FI2IJNOlP&EST:UMbU
Z0Ty$GNRMC,054751.00,A,0419.89086,S,05539.60670,E,0.269,,280525,,,A*7A
$GNVTG,,T,,M,0.269,N,0.499,K,A*34
$GNGNS,054751.00,0419.89086,S,05539.60670,E,AA,16,0.71,22.9,-47.6,,*69
$GNGGA,054751.00,0419.89086,S,05539.60670,E,1,12,0.71,22.9,M,-47.6,M,,*47
$GNGSA,A,3,24,05,20,15,12,18,29,25,23,41,,,1.44,0.71,1.25*1A
$GNGSA,A,3,79,80,84,69,73,85,,,,,,,1.44,0.71,1.25*11
$GPGSV,4,1,15,05,55,054,34,12,63,032,40,13,14,125,,15,34,158,22*76
$GPGSV,4,2,15,18,34,269,25,20,22,037,17,23,29,206,26,24,43,192,32*7F
$GPGSV,4,3,15,25,40,343,29,29,10,331,15,36,52,277,,40,86,351,43*73
$GPGSV,4,4,15,41,58,082,37,49,32,274,,50,10,089,*43
$GLGSV,3,1,10,68,15,082,,69,30,133,20,70,09,197,,73,50,329,26*65
$GLGSV,3,2,10,74,06,334,,79,15,154,19,80,69,157,38,83,07,006,*63
$GLGSV,3,3,10,84,22,314,14,85,11,264,18*6F
$GNGLL,0419.89086,S,05539.60670,E,054751.00,A,A*66
$GNGRS,054751.00,1,-1.8,0.7,19.8,-2.9,0.0,1.6,24.7,1.9,-9.0,-167,,*4E
$GNGRS,054751.00,1,11.3,-0.2,9.0,-2.1,-3.2,6.8,,,,,,*4B
$GNGST,054751.00,130047,,,,2.5,5.6,10*61
$GNZDA,054751.00,28,05,2025,00,00*70
$GNGBS,054751.00,2.5,5.6,10.4,,,,*6C
$GNTXT,01,01,01,More than 100 frame errors, UART RX was disabled*70
b0@"76K(? }"
"%&+(W
K{4+V_%:R 
Y
qDREFI2IJNOP&EST:U}ibU
B4T$GNRMC,054752.00,A,0419.89083,S,05539.60672,E,0.111,,280525,,,A*72
$GNVTG,,T,,M,0.111,N,0.205,K,A*3B
$GNGNS,054752.00,0419.89083,S,05539.60672,E,AA,16,0.87,22.9,-47.6,,*64
$GNGGA,054752.00,0419.89083,S,05539.60672,E,1,12,0.87,22.9,M,-47.6,M,,*4A
$GNGSA,A,3,24,05,20,15,12,18,29,25,23,41,,,1.75,0.87,1.51*12
$GNGSA,A,3,79,80,84,69,73,85,,,,,,,1.75,0.87,1.51*19
$GPGSV,4,1,15,05,55,054,34,12,63,032,40,13,14,125,,15,34,158,23*77
$GPGSV,4,2,15,18,34,269,23,20,22,037,16,23,29,206,27,24,43,192,31*7A
$GPGSV,4,3,15,25,40,343,28,29,10,331,14,36,52,277,,40,86,351,43*73
$GPGSV,4,4,15,41,58,082,37,49,32,274,,50,10,089,*43
$GLGSV,3,1,10,68,15,082,,69,30,133,18,70,09,197,,73,50,329,26*6E
$GLGSV,3,2,10,74,06,334,,79,14,155,20,80,69,157,38,83,07,006,*69
$GLGSV,3,3,10,84,22,314,08,85,11,264,17*6D
$GNGLL,0419.89083,S,05539.60672,E,054752.00,A,A*62
$GNGRS,054752.00,1,-0.8,0.8,20.4,-3.7,0.1,0.1,24.6,1.3,-9.9,-167,,*4F
$GNGRS,054752.00,1,11.6,-0.1,-0.8,-3.3,-3.5,3.8,,,,,,*63
$GNGST,054752.00,1097,,,,2.5,5.6,10*6C
$GNZDA,054752.00,28,05,2025,00,00*73
$GNGBS,054752.00,2.5,5.6,10.3,,,,*68
$GNTXT,01,01,01,More than 100 frame errors, UART RX was disabled*70
b0@x"762'? }"
"4%5+(W
KH{4+V_(:R 
Y
qDREZFI2IJNOP&EST:UbxU
*8TI$GNRMC,054753.00,A,0419.89081,S,05539.60682,E,0.205,,280525,,,A*78
$GNVTG,,T,,M,0.205,N,0.379,K,A*37
$GNGNS,054753.00,0419.89081,S,05539.60682,E,AA,16,0.71,22.7,-47.6,,*6F
$GNGGA,054753.00,0419.89081,S,05539.60682,E,1,12,0.71,22.7,M,-47.6,M,,*41
$GNGSA,A,3,24,05,20,15,12,18,29,25,23,41,,,1.44,0.71,1.25*1A
$GNGSA,A,3,79,80,84,69,73,85,,,,,,,1.44,0.71,1.25*11
$GPGSV,4,1,15,05,55,054,34,12,63,032,39,13,14,125,,15,34,158,21*7B
$GPGSV,4,2,15,18,34,269,23,20,22,037,17,23,29,206,25,24,43,192,31*79
$GPGSV,4,3,15,25,40,343,29,29,10,331,13,36,52,277,,40,86,351,43*75
$GPGSV,4,4,15,41,58,082,40,49,32,274,,50,10,089,*43
$GLGSV,3,1,10,68,15,082,,69,30,133,16,70,09,197,,73,50,329,26*60
$GLGSV,3,2,10,74,06,334,,79,14,155,18,80,69,158,38,83,07,006,*6D
$GLGSV,3,3,10,84,22,314,08,85,11,264,16*6C
$GNGLL,0419.89081,S,05539.60682,E,054753.00,A,A*6E
$GNGRS,054753.00,1,-0.8,0.5,18.2,-3.3,0.2,0.5,21.2,-0.8,-7.1,-167,,*6D
$GNGRS,054753.00,1,7.8,-0.1,9.1,-1.7,-2.6,4.5,,,,,,*78
$GNGST,054753.00,105278,,,,2.5,5.5,10*68
$GNZDA,054753.00,28,05,2025,00,00*72
$GNGBS,054753.00,2.5,5.5,10.3,,,,*6A
$GNTXT,01,01,01,More than 100 frame errors, UART RX was disabled*70
b0@`"763(? }"J
"%+(W
KH{4+V_%:R 
Y
qDREFI2IJNOP&EST
:UBNb`U
<T$GNRMC,054754.00,A,0419.89079,S,05539.60684,E,0.106,,280525,,,A*7E
$GNVTG,,T,,M,0.106,N,0.197,K,A*35
$GNGNS,054754.00,0419.89079,S,05539.60684,E,AA,16,0.69,22.7,-47.6,,*60
$GNGGA,054754.00,0419.89079,S,05539.60684,E,1,12,0.69,22.7,M,-47.6,M,,*4E
$GNGSA,A,3,24,05,20,15,12,18,29,25,23,41,,,1.32,0.69,1.13*17
$GNGSA,A,3,79,80,84,69,73,85,,,,,,,1.32,0.69,1.13*1C
$GPGSV,4,1,15,05,55,054,34,12,63,032,40,13,14,125,,15,34,158,23*77
$GPGSV,4,2,15,18,34,269,25,20,22,037,17,23,29,206,28,24,43,192,31*72
$GPGSV,4,3,15,25,40,343,31,29,10,331,16,36,52,277,,40,86,351,43*79
$GPGSV,4,4,15,41,58,082,37,49,32,274,,50,10,089,*43
$GLGSV,3,1,10,68,15,082,,69,30,133,16,70,09,197,,73,50,329,26*60
$GLGSV,3,2,10,74,06,334,,79,14,155,18,80,69,158,38,83,07,006,*6D
$GLGSV,3,3,10,84,22,314,10,85,11,264,16*65
$GNGLL,0419.89079,S,05539.60684,E,054754.00,A,A*68
$GNGRS,054754.00,1,2.5,0.5,15.5,-1.8,-0.1,-0.2,18.6,0.2,-5.9,-167,,*6C
$GNGRS,054754.00,1,4.0,-0.1,9.1,-2.3,-3.5,3.2,,,,,,*71
$GNGST,054754.00,149900,,,,2.5,5.5,10*63
$GNZDA,054754.00,28,05,2025,00,00*75
$GNGBS,054754.00,2.5,5.5,10.2,,,,*6C
$GNTXT,01,01,01,More than 100 frame errors, UART RX was disabled*70
b0@H"76'(? }"H
"%H+(W
Km{4+V_%:R 
Y
qDRE.FI2IJNOP&EST:UxlbHU
?Tr$GNRMC,054755.00,A,0419.89077,S,05539.60691,E,0.113,,280525,,,A*71
$GNVTG,,T,,M,0.113,N,0.209,K,A*35
$GNGNS,054755.00,0419.89077,S,05539.60691,E,AA,16,0.74,22.6,-47.6,,*66
$GNGGA,054755.00,0419.89077,S,05539.60691,E,1,12,0.74,22.6,M,-47.6,M,,*48
$GNGSA,A,3,24,05,20,15,12,18,29,25,23,41,,,1.49,0.74,1.30*16
$GNGSA,A,3,79,80,84,69,73,85,,,,,,,1.49,0.74,1.30*1D
$GPGSV,4,1,15,05,55,054,34,12,63,032,40,13,14,125,,15,34,158,21*75
$GPGSV,4,2,15,18,34,269,26,20,22,037,18,23,29,206,28,24,43,192,30*7F
$GPGSV,4,3,15,25,40,343,31,29,10,331,14,36,52,277,,40,86,351,43*7B
$GPGSV,4,4,15,41,58,082,37,49,32,274,,50,10,089,*43
$GLGSV,3,1,10,68,15,082,,69,30,133,16,70,09,197,,73,50,329,26*60
$GLGSV,3,2,10,74,06,334,,79,14,155,16,80,69,158,38,83,07,006,*63
$GLGSV,3,3,10,84,22,314,08,85,11,264,17*6D
$GNGLL,0419.89077,S,05539.60691,E,054755.00,A,A*63
$GNGRS,054755.00,1,2.0,0.4,14.7,-1.8,0.0,-0.1,21.6,1.6,-4.4,-167,,*46
$GNGRS,054755.00,1,7.4,0.2,42.8,-2.1,-5.1,1.2,,,,,,*6D
$GNGST,054755.00,1096,,,,2.4,5.4,10*69
$GNZDA,054755.00,28,05,2025,00,00*74
$GNGBS,054755.00,2.4,5.4,10.2,,,,*6D
$GNTXT,01,01,01,More than 100 frame errors, UART RX was disabled*70
b0@0"76!(? }"
"%T+"(W
K{4+V_&:R 
Y
qDREFI2IZJNOP&E!ST:mUb0U
CTJ~$GNRMC,054756.00,A,0419.89075,S,05539.60688,E,0.055,,280525,,,A*7B
$GNVTG,,T,,M,0.055,N,0.101,K,A*3D
$GNGNS,054756.00,0419.89075,S,05539.60688,E,AA,15,0.71,22.6,-47.6,,*69
$GNGGA,054756.00,0419.89075,S,05539.60688,E,1,12,0.71,22.6,M,-47.6,M,,*44
$GNGSA,A,3,24,05,20,15,12,18,25,23,41,,,,1.44,0.71,1.25*11
$GNGSA,A,3,79,80,84,69,73,85,,,,,,,1.44,0.71,1.25*11
$GPGSV,4,1,15,05,55,054,34,12,63,032,40,13,14,125,,15,34,158,23*77
$GPGSV,4,2,15,18,34,269,25,20,22,037,16,23,29,206,14,24,43,192,29*75
$GPGSV,4,3,15,25,40,343,34,29,10,331,,36,52,277,,40,86,351,43*7B
$GPGSV,4,4,15,41,58,082,38,49,32,274,,50,10,089,*4C
$GLGSV,3,1,10,68,15,082,,69,30,133,13,70,09,197,,73,50,329,26*65
$GLGSV,3,2,10,74,06,334,,79,14,155,17,80,69,158,38,83,07,006,*62
$GLGSV,3,3,10,84,22,314,12,85,11,264,16*67
$GNGLL,0419.89075,S,05539.60688,E,054756.00,A,A*6A
$GNGRS,054756.00,1,3.9,0.3,13.6,-2.6,0.1,2.1,2.6,-0.4,-167,,,*73
$GNGRS,054756.00,1,5.2,0.3,8.8,-2.4,-4.2,-2.6,,,,,,*78
$GNGST,054756.00,3071473,,,,2.4,5.4,10*51
$GNZDA,054756.00,28,05,2025,00,00*77
$GNGBS,054756.00,2.4,5.4,10.2,,,,*6E
$GNTXT,01,01,01,More than 100 frame errors, UART RX was disabled*70
b0@"760&? }"
"w%E5+. (W
K{4+V_&:R 
Y
qDREFI2IJNOZP&E.ST
;QUbU
GT"$GNRMC,054757.00,A,0419.89077,S,05539.60695,E,0.027,,280525,,,A*71
$GNVTG,,T,,M,0.027,N,0.050,K,A*3D
$GNGNS,054757.00,0419.89077,S,05539.60695,E,AA,15,0.71,22.3,-47.6,,*63
$GNGGA,054757.00,0419.89077,S,05539.60695,E,1,12,0.71,22.3,M,-47.6,M,,*4E
$GNGSA,A,3,24,05,20,15,12,18,25,23,41,,,,1.44,0.71,1.25*11
$GNGSA,A,3,79,80,84,69,73,85,,,,,,,1.44,0.71,1.25*11
$GPGSV,4,1,15,05,55,054,34,12,63,032,38,13,14,125,,15,34,158,24*7F
$GPGSV,4,2,15,18,34,269,27,20,22,037,16,23,29,206,24,24,43,192,29*74
$GPGSV,4,3,15,25,40,343,32,29,10,331,,36,52,277,,40,86,351,43*7D
$GPGSV,4,4,15,41,58,082,38,49,32,274,,50,10,089,*4C
$GLGSV,3,1,10,68,15,082,,69,30,133,17,70,09,197,,73,50,329,27*60
$GLGSV,3,2,10,74,06,334,,79,14,155,16,80,69,158,38,83,07,006,*63
$GLGSV,3,3,10,84,22,315,10,85,11,264,17*65
$GNGLL,0419.89077,S,05539.60695,E,054757.00,A,A*65
$GNGRS,054757.00,1,5.6,0.5,10.9,-3.1,0.3,-1.4,1.5,0.5,-168,,,*7D
$GNGRS,054757.00,1,6.0,0.5,8.5,-3.7,-3.7,-6.1,,,,,,*70
$GNGST,054757.00,3071473,,,,2.4,5.3,10*57
$GNZDA,054757.00,28,05,2025,00,00*76
$GNGBS,054757.00,2.4,5.3,10.1,,,,*6B
$GNTXT,01,01,01,More than 100 frame errors, UART RX was disabled*70
b0@"767&? 3}"
":%zY+B!(W~
K{4*V_&:Rt 
Y
qDRERFI2IJNOP&EST;U6bU
KTN$GNRMC,054758.00,A,0419.89079,S,05539.60700,E,0.044,,280525,,,A*78
$GNVTG,,T,,M,0.044,N,0.082,K,A*37
$GNGNS,054758.00,0419.89079,S,05539.60700,E,AA,15,0.71,22.5,-47.6,,*69
$GNGGA,054758.00,0419.89079,S,05539.60700,E,1,12,0.71,22.5,M,-47.6,M,,*44
$GNGSA,A,3,24,05,20,15,12,18,25,23,41,,,,1.44,0.71,1.25*11
$GNGSA,A,3,79,80,84,69,73,85,,,,,,,1.44,0.71,1.25*11
$GPGSV,4,1,15,05,55,054,34,12,63,032,38,13,14,125,,15,34,158,23*78
$GPGSV,4,2,15,18,34,269,27,20,22,037,18,23,29,206,26,24,43,192,30*70
$GPGSV,4,3,15,25,40,343,33,29,10,331,,36,52,277,,40,86,351,42*7D
$GPGSV,4,4,15,41,58,082,38,49,32,274,,50,10,089,*4C
$GLGSV,3,1,10,68,15,082,,69,30,133,19,70,09,197,,73,50,329,27*6E
$GLGSV,3,2,10,74,06,334,,79,14,155,16,80,69,158,38,83,07,006,*63
$GLGSV,3,3,10,84,22,315,09,85,11,265,17*6C
$GNGLL,0419.89079,S,05539.60700,E,054758.00,A,A*69
$GNGRS,054758.00,1,3.2,0.6,8.9,-6.0,0.5,-2.0,-1.3,-9.3,-168,,,*46
$GNGRS,054758.00,1,4.4,0.2,7.0,-6.9,-2.6,-5.6,,,,,,*7B
$GNGST,054758.00,1059,,,,2.4,5.3,10*60
$GNZDA,054758.00,28,05,2025,00,00*79
$GNGBS,054758.00,2.4,5.3,10.0,,,,*65
$GNTXT,01,01,01,More than 100 frame errors, UART RX was disabled*70
b0@"76+'? 1}"
"%,+ (W
K{4+V_&:Ra 
Y
qDREFI2IJNOP'EST;U@ebU
OT$GNRMC,054759.00,A,0419.89078,S,05539.60708,E,0.174,,280525,,,A*72
$GNVTG,,T,,M,0.174,N,0.322,K,A*3C
$GNGNS,054759.00,0419.89078,S,05539.60708,E,AA,15,0.71,22.7,-47.6,,*63
$GNGGA,054759.00,0419.89078,S,05539.60708,E,1,12,0.71,22.7,M,-47.6,M,,*4E
$GNGSA,A,3,24,05,20,15,12,18,25,23,41,,,,1.44,0.71,1.25*11
$GNGSA,A,3,79,80,84,69,73,85,,,,,,,1.44,0.71,1.25*11
$GPGSV,4,1,15,05,55,054,34,12,63,032,39,13,14,125,,15,34,158,25*7F
$GPGSV,4,2,15,18,34,269,23,20,22,037,16,23,29,206,23,24,43,192,30*7F
$GPGSV,4,3,15,25,40,343,32,29,10,331,,36,52,277,,40,86,351,43*7D
$GPGSV,4,4,15,41,58,082,38,49,32,274,,50,10,089,*4C
$GLGSV,3,1,10,68,15,082,,69,30,133,21,70,09,197,,73,50,329,28*6A
$GLGSV,3,2,10,74,06,334,,79,14,155,15,80,69,158,39,83,07,006,*61
$GLGSV,3,3,10,84,22,315,17,85,11,265,18*6C
$GNGLL,0419.89078,S,05539.60708,E,054759.00,A,A*61
$GNGRS,054759.00,1,1.9,0.4,12.0,-5.5,0.5,-3.6,-3.2,-9.8,-168,,,*77
$GNGRS,054759.00,1,5.2,0.3,9.2,-7.4,-2.3,-7.0,,,,,,*7D
$GNGST,054759.00,12430,,,,2.4,5.2,10*59
$GNZDA,054759.00,28,05,2025,00,00*78
$GNGBS,054759.00,2.4,5.2,10.0,,,,*65
$GNTXT,01,01,01,More than 100 frame errors, UART RX was disabled*70
b0@"768'? }"V
"%{+A(W
K{4+V_%:Ri 
Y
qDREFI2IfJNOP'EST
;UbU
ST$GNRMC,054800.00,A,0419.89075,S,05539.60711,E,0.098,,280525,,,A*77
$GNVTG,,T,,M,0.098,N,0.181,K,A*34
$GNGNS,054800.00,0419.89075,S,05539.60711,E,AA,15,0.71,22.8,-47.6,,*6A
$GNGGA,054800.00,0419.89075,S,05539.60711,E,1,12,0.71,22.8,M,-47.6,M,,*47
$GNGSA,A,3,24,05,20,15,12,18,25,23,41,,,,1.44,0.71,1.25*11
$GNGSA,A,3,79,80,84,69,73,85,,,,,,,1.44,0.71,1.25*11
$GPGSV,4,1,15,05,55,054,34,12,63,032,39,13,14,125,,15,34,158,25*7F
$GPGSV,4,2,15,18,34,269,24,20,22,037,14,23,29,206,27,24,43,192,29*76
$GPGSV,4,3,15,25,40,343,31,29,10,331,17,36,52,277,,40,86,351,43*78
$GPGSV,4,4,15,41,58,082,37,49,32,274,,50,10,089,*43
$GLGSV,3,1,10,68,15,082,,69,30,133,22,70,09,197,,73,50,329,29*68
$GLGSV,3,2,10,74,06,334,,79,14,155,14,80,69,158,39,83,07,006,*60
$GLGSV,3,3,10,84,22,315,10,85,11,265,20*60
$GNGLL,0419.89075,S,05539.60711,E,054800.00,A,A*67
$GNGRS,054800.00,1,5.8,0.6,14.0,-4.3,0.3,-3.4,-2.6,-10.6,-168,,,*45
$GNGRS,054800.00,1,4.6,0.0,9.4,-8.1,1.0,-8.1,,,,,,*57
$GNGST,054800.00,18608,,,,2.4,5.2,9.9*76
$GNZDA,054800.00,28,05,2025,00,00*7B
$GNGBS,054800.00,2.4,5.2,9.9,,,,*57
$GNTXT,01,01,01,More than 100 frame errors, UART RX was disabled*70
b0@!76D'? }"o
"%+c(W
K{4+V_%:Rb 
Y
qDREFI2ImJNOP'EST;UrSbU
jWTw$GNRMC,054801.00,A,0419.89071,S,05539.60713,E,0.014,,280525,,,A*74
$GNVTG,,T,,M,0.014,N,0.025,K,A*3F
$GNGNS,054801.00,0419.89071,S,05539.60713,E,AA,15,0.71,23.2,-47.6,,*66
$GNGGA,054801.00,0419.89071,S,05539.60713,E,1,12,0.71,23.2,M,-47.6,M,,*4B
$GNGSA,A,3,24,05,20,15,12,18,25,23,41,,,,1.44,0.71,1.25*11
$GNGSA,A,3,79,80,84,69,73,85,,,,,,,1.44,0.71,1.25*11
$GPGSV,4,1,15,05,55,054,33,12,63,032,39,13,14,125,,15,34,158,23*7E
$GPGSV,4,2,15,18,34,269,25,20,22,037,14,23,29,206,29,24,43,192,29*79
$GPGSV,4,3,15,25,40,343,31,29,10,331,17,36,52,277,,40,86,351,43*78
$GPGSV,4,4,15,41,58,082,37,49,32,274,,50,10,089,*43
$GLGSV,3,1,10,68,15,082,,69,30,133,22,70,09,197,,73,50,329,28*69
$GLGSV,3,2,10,74,06,334,,79,14,155,13,80,69,158,39,83,07,006,*67
$GLGSV,3,3,10,84,22,315,09,85,11,265,20*68
$GNGLL,0419.89071,S,05539.60713,E,054801.00,A,A*60
$GNGRS,054801.00,1,1.0,0.7,12.7,-1.5,0.2,-3.1,-2.3,-12.7,-168,,,*49
$GNGRS,054801.00,1,2.3,-0.3,-10.1,-6.0,3.6,-9.1,,,,,,*61
$GNGST,054801.00,1060,,,,2.3,5.1,9.8*42
$GNZDA,054801.00,28,05,2025,00,00*7A
$GNGBS,054801.00,2.3,5.1,9.8,,,,*53
$GNTXT,01,01,01,More than 100 frame errors, UART RX was disabled*70
b0@"76?(? }"M
"y%.3+/(W
K{4+V_&:RA 
Y
qDREmFI2IJNO\P&EST;U;bU
R[TY$GNRMC,054802.00,A,0419.89070,S,05539.60713,E,0.062,,280525,,,A*77
$GNVTG,,T,,M,0.062,N,0.115,K,A*3C
$GNGNS,054802.00,0419.89070,S,05539.60713,E,AA,15,0.71,23.3,-47.6,,*65
$GNGGA,054802.00,0419.89070,S,05539.60713,E,1,12,0.71,23.3,M,-47.6,M,,*48
$GNGSA,A,3,24,05,20,15,12,18,25,23,41,,,,1.44,0.71,1.25*11
$GNGSA,A,3,79,80,84,69,73,85,,,,,,,1.44,0.71,1.25*11
$GPGSV,4,1,15,05,55,054,34,12,63,032,40,13,14,125,,15,34,158,23*77
$GPGSV,4,2,15,18,34,269,25,20,22,037,16,23,29,206,28,24,43,192,30*72
$GPGSV,4,3,15,25,40,343,31,29,10,331,16,36,52,277,,40,86,351,43*79
$GPGSV,4,4,15,41,58,082,38,49,32,274,,50,10,089,*4C
$GLGSV,3,1,10,68,15,082,,69,30,133,19,70,09,197,,73,50,329,27*6E
$GLGSV,3,2,10,74,06,334,,79,14,155,11,80,69,158,38,83,07,006,*64
$GLGSV,3,3,10,84,22,315,11,85,11,265,18*6A
$GNGLL,0419.89070,S,05539.60713,E,054802.00,A,A*62
$GNGRS,054802.00,1,5.6,0.6,10.7,-1.8,0.1,-3.9,1.6,-7.2,-168,,,*57
$GNGRS,054802.00,1,3.5,0.1,9.0,-6.6,7.4,-9.7,,,,,,*58
$GNGST,054802.00,3071473,,,,2.3,5.1,9.7*7C
$GNZDA,054802.00,28,05,2025,00,00*79
$GNGBS,054802.00,2.3,5.1,9.7,,,,*5F
$GNTXT,01,01,01,More than 100 frame errors, UART RX was disabled*70
b0@"76s(? %}"
"m%b+)(W
Kv{4+V_&:R+ 
Y
qDRE3FI2IxJNOP&EST;{UX/bU
:_T2U$GNRMC,054803.00,A,0419.89067,S,05539.60716,E,0.051,,280525,,,A*75
$GNVTG,,T,,M,0.051,N,0.094,K,A*34
$GNGNS,054803.00,0419.89067,S,05539.60716,E,AA,15,0.71,23.4,-47.6,,*60
$GNGGA,054803.00,0419.89067,S,05539.60716,E,1,12,0.71,23.4,M,-47.6,M,,*4D
$GNGSA,A,3,24,05,20,15,12,18,25,23,41,,,,1.44,0.71,1.25*11
$GNGSA,A,3,79,80,84,69,73,85,,,,,,,1.44,0.71,1.25*11
$GPGSV,4,1,15,05,55,054,34,12,63,032,40,13,14,125,,15,34,158,22*76
$GPGSV,4,2,15,18,34,269,26,20,22,037,17,23,29,206,27,24,43,192,31*7E
$GPGSV,4,3,15,25,40,343,29,29,10,331,13,36,52,277,,40,86,351,43*75
$GPGSV,4,4,15,41,58,082,38,49,32,274,,50,10,089,*4C
$GLGSV,3,1,10,68,15,082,,69,30,133,18,70,09,197,,73,50,329,28*60
$GLGSV,3,2,10,74,06,334,,79,14,155,12,80,69,158,38,83,07,006,*67
$GLGSV,3,3,10,84,22,315,09,85,11,265,17*6C
$GNGLL,0419.89067,S,05539.60716,E,054803.00,A,A*60
$GNGRS,054803.00,1,-2.1,1.2,8.7,-1.2,0.4,-4.0,1.7,-13.6,-169,,,*77
$GNGRS,054803.00,1,5.0,0.3,8.9,-7.2,1.2,-8.1,,,,,,*52
$GNGST,054803.00,3071473,,,,2.3,5.1,9.7*7D
$GNZDA,054803.00,28,05,2025,00,00*78
$GNGBS,054803.00,2.3,5.1,9.7,,,,*5E
$GNTXT,01,01,01,More than 100 frame errors, UART RX was disabled*70
b0@p!76p(? }"
"q%+(W
K{4+V_%:R/ 
Y
qDREFI2IJNOP&EST;sUBbpU
"cT
$GNRMC,054804.00,A,0419.89065,S,05539.60722,E,0.014,,280525,,,A*76
$GNVTG,,T,,M,0.014,N,0.026,K,A*3C
$GNGNS,054804.00,0419.89065,S,05539.60722,E,AA,15,0.74,23.4,-47.6,,*67
$GNGGA,054804.00,0419.89065,S,05539.60722,E,1,12,0.74,23.4,M,-47.6,M,,*4A
$GNGSA,A,3,24,05,20,15,12,18,25,23,41,,,,1.49,0.74,1.29*15
$GNGSA,A,3,79,80,84,69,73,85,,,,,,,1.49,0.74,1.29*15
$GPGSV,4,1,15,05,55,054,33,12,63,032,40,13,14,125,,15,34,158,25*76
$GPGSV,4,2,15,18,34,269,27,20,22,037,17,23,29,206,27,24,43,192,31*7F
$GPGSV,4,3,15,25,40,343,31,29,10,331,12,36,52,277,,40,86,351,43*7D
$GPGSV,4,4,15,41,58,082,37,49,32,274,,50,10,089,*43
$GLGSV,3,1,10,68,15,082,,69,30,133,17,70,09,197,,73,50,329,27*60
$GLGSV,3,2,10,74,06,334,,79,14,155,14,80,69,158,38,83,07,006,*61
$GLGSV,3,3,10,84,22,315,12,85,11,265,18*69
$GNGLL,0419.89065,S,05539.60722,E,054804.00,A,A*62
$GNGRS,054804.00,1,-2.5,1.1,9.5,-2.4,0.2,-4.0,-0.4,-13.6,-168,,,*59
$GNGRS,054804.00,1,5.4,0.2,-24.4,-5.4,1.8,-9.6,,,,,,*46
$GNGST,054804.00,1096,,,,2.3,5.1,9.7*41
$GNZDA,054804.00,28,05,2025,00,00*7F
$GNGBS,054804.00,2.3,5.1,9.7,,,,*59
$GNTXT,01,01,01,More than 100 frame errors, UART RX was disabled*70
b0@X"76M(? }"
"%+(Wa
K{4,V_&:R, 
Y
qDREFI2I<JNOP&E ST;U8ybXU

gT%$GNRMC,054805.00,A,0419.89063,S,05539.60726,E,0.114,,280525,,,A*74
$GNVTG,,T,,M,0.114,N,0.211,K,A*3B
$GNGNS,054805.00,0419.89063,S,05539.60726,E,AA,16,0.69,23.6,-47.6,,*69
$GNGGA,054805.00,0419.89063,S,05539.60726,E,1,12,0.69,23.6,M,-47.6,M,,*47
$GNGSA,A,3,24,05,20,15,12,18,29,25,23,41,,,1.32,0.69,1.13*17
$GNGSA,A,3,79,80,84,69,73,85,,,,,,,1.32,0.69,1.13*1C
$GPGSV,4,1,15,05,55,054,34,12,63,032,40,13,14,125,,15,34,158,25*71
$GPGSV,4,2,15,18,34,269,26,20,22,037,17,23,29,206,28,24,43,192,30*70
$GPGSV,4,3,15,25,40,343,30,29,10,331,15,36,52,277,,40,86,351,44*7C
$GPGSV,4,4,15,41,58,082,38,49,32,274,,50,10,089,*4C
$GLGSV,3,1,10,68,15,082,,69,30,133,18,70,09,197,,73,50,329,28*60
$GLGSV,3,2,10,74,06,334,,79,14,155,15,80,69,158,38,83,07,006,*60
$GLGSV,3,3,10,84,22,315,11,85,11,265,18*6A
$GNGLL,0419.89063,S,05539.60726,E,054805.00,A,A*61
$GNGRS,054805.00,1,1.7,0.8,7.3,-3.5,0.1,-1.0,-16.1,1.0,-7.9,-169,,*54
$GNGRS,054805.00,1,5.1,0.3,9.1,-4.9,0.6,-9.7,,,,,,*56
$GNGST,054805.00,2973941,,,,2.3,5.0,9.7*7C
$GNZDA,054805.00,28,05,2025,00,00*7E
$GNGBS,054805.00,2.3,5.0,9.7,,,,*59
$GNTXT,01,01,01,More than 100 frame errors, UART RX was disabled*70
b0@@#75B&? }"
"B%+G(W
K{4+V_&:R9 
Y
qDREFI2ITJNOP&E2ST;UA*}b@U
jT$GNRMC,054806.00,A,0419.89062,S,05539.60731,E,0.103,,280525,,,A*76
$GNVTG,,T,,M,0.103,N,0.191,K,A*36
$GNGNS,054806.00,0419.89062,S,05539.60731,E,AA,16,0.69,23.5,-47.6,,*6E
$GNGGA,054806.00,0419.89062,S,05539.60731,E,1,12,0.69,23.5,M,-47.6,M,,*40
$GNGSA,A,3,24,05,20,15,12,18,29,25,23,41,,,1.32,0.69,1.13*17
$GNGSA,A,3,79,80,84,69,73,85,,,,,,,1.32,0.69,1.13*1C
$GPGSV,4,1,15,05,55,053,35,12,63,032,38,13,14,125,,15,34,158,24*79
$GPGSV,4,2,15,18,34,269,27,20,22,037,16,23,29,206,27,24,43,192,30*7F
$GPGSV,4,3,15,25,40,343,31,29,10,331,15,36,52,277,,40,86,351,43*7A
$GPGSV,4,4,15,41,58,082,38,49,32,274,,50,10,089,*4C
$GLGSV,3,1,10,68,15,082,,69,30,133,17,70,09,197,,73,50,329,27*60
$GLGSV,3,2,10,74,06,334,,79,14,155,17,80,69,158,38,83,07,006,*62
$GLGSV,3,3,10,84,22,315,08,85,11,265,19*63
$GNGLL,0419.89062,S,05539.60731,E,054806.00,A,A*65
$GNGRS,054806.00,1,0.7,0.7,3.9,-5.1,0.0,0.7,-13.6,2.6,-7.4,-168,,*74
$GNGRS,054806.00,1,4.3,0.5,9.0,-3.7,-1.7,-7.0,,,,,,*7C
$GNGST,054806.00,2973941,,,,2.3,5.0,9.6*7E
$GNZDA,054806.00,28,05,2025,00,00*7D
$GNGBS,054806.00,2.3,5.0,9.6,,,,*5B
$GNTXT,01,01,01,More than 100 frame errors, UART RX was disabled*70
b0@("75:(? }"
"%s+4(WB
K{4+V_%:RC 
Y
qDRE0FI2IJNOP&E+ST
;$U]b(U
nT$GNRMC,054807.00,A,0419.89062,S,05539.60729,E,0.059,,280525,,,A*70
$GNVTG,,T,,M,0.059,N,0.110,K,A*31
$GNGNS,054807.00,0419.89062,S,05539.60729,E,AA,16,0.71,24.0,-47.6,,*6D
$GNGGA,054807.00,0419.89062,S,05539.60729,E,1,12,0.71,24.0,M,-47.6,M,,*43
$GNGSA,A,3,24,05,20,15,12,18,29,25,23,41,,,1.34,0.71,1.14*1F
$GNGSA,A,3,79,80,84,69,73,85,,,,,,,1.34,0.71,1.14*14
$GPGSV,4,1,15,05,55,053,34,12,63,032,40,13,14,125,,15,34,158,24*77
$GPGSV,4,2,15,18,34,269,27,20,22,037,15,23,29,206,26,24,43,192,30*7D
$GPGSV,4,3,15,25,40,343,31,29,10,331,14,36,52,277,,40,86,351,43*7B
$GPGSV,4,4,15,41,58,082,37,49,32,274,,50,10,089,*43
$GLGSV,3,1,10,68,15,082,,69,30,133,18,70,09,197,,73,50,329,27*6F
$GLGSV,3,2,10,74,06,334,,79,14,155,18,80,69,158,38,83,07,006,*6D
$GLGSV,3,3,10,84,22,315,10,85,11,265,19*6A
$GNGLL,0419.89062,S,05539.60729,E,054807.00,A,A*6D
$GNGRS,054807.00,1,-2.0,0.6,1.9,-5.1,-0.1,-1.1,-16.3,0.7,-9.1,-168,,*50
$GNGRS,054807.00,1,3.9,0.4,77.2,-2.1,-2.7,-6.7,,,,,,*48
$GNGST,054807.00,1059,,,,2.3,4.9,9.5*4A
$GNZDA,054807.00,28,05,2025,00,00*7C
$GNGBS,054807.00,2.3,4.9,9.5,,,,*51
$GNTXT,01,01,01,More than 100 frame errors, UART RX was disabled*70
b0@#75B(? }"
"%P+*(W^
Kp{4+V_%:R@ 
Y
qDREFI2IJNOP'E)ST;U=bU
rTiZ$GNRMC,054808.00,A,0419.89061,S,05539.60723,E,0.076,,280525,,,A*7B
$GNVTG,,T,,M,0.076,N,0.142,K,A*3B
$GNGNS,054808.00,0419.89061,S,05539.60723,E,AA,16,0.69,24.3,-47.6,,*61
$GNGGA,054808.00,0419.89061,S,05539.60723,E,1,12,0.69,24.3,M,-47.6,M,,*4F
$GNGSA,A,3,24,05,20,15,12,18,29,25,23,41,,,1.32,0.69,1.13*17
$GNGSA,A,3,79,80,84,69,73,85,,,,,,,1.32,0.69,1.13*1C
$GPGSV,4,1,15,05,55,053,35,12,63,032,40,13,14,125,,15,34,158,21*73
$GPGSV,4,2,15,18,34,269,28,20,22,037,12,23,29,206,26,24,43,192,30*75
$GPGSV,4,3,15,25,40,343,30,29,10,331,14,36,52,277,,40,86,351,43*7A
$GPGSV,4,4,15,41,58,082,37,49,32,274,,50,10,089,*43
$GLGSV,3,1,10,68,15,082,,69,30,133,22,70,09,197,,73,50,329,28*69
$GLGSV,3,2,10,74,06,334,,79,14,155,19,80,69,158,39,83,07,006,*6D
$GLGSV,3,3,10,84,22,315,11,85,11,265,18*6A
$GNGLL,0419.89061,S,05539.60723,E,054808.00,A,A*6B
$GNGRS,054808.00,1,3.0,0.7,0.0,-2.9,-0.2,2.8,-16.8,3.5,-6.9,-168,,*5C
$GNGRS,054808.00,1,1.7,0.4,9.0,-2.7,-1.3,-7.1,,,,,,*76
$GNGST,054808.00,2973941,,,,2.3,4.9,9.5*7B
$GNZDA,054808.00,28,05,2025,00,00*73
$GNGBS,054808.00,2.3,4.9,9.5,,,,*5E
$GNTXT,01,01,01,More than 100 frame errors, UART RX was disabled*70
b0@#75g'? }"
"%>+Y(W9
KD{4+V_%:R9 
Y
qDREiFI2IJNO_P'EST;U'VbU
vT@$GNRMC,054809.00,A,0419.89061,S,05539.60727,E,0.034,,280525,,,A*78
$GNVTG,,T,,M,0.034,N,0.062,K,A*3E
$GNGNS,054809.00,0419.89061,S,05539.60727,E,AA,16,0.69,24.5,-47.6,,*62
$GNGGA,054809.00,0419.89061,S,05539.60727,E,1,12,0.69,24.5,M,-47.6,M,,*4C
$GNGSA,A,3,24,05,20,15,12,18,29,25,23,41,,,1.32,0.69,1.13*17
$GNGSA,A,3,79,80,84,69,73,85,,,,,,,1.32,0.69,1.13*1C
$GPGSV,4,1,15,05,55,053,35,12,63,032,39,13,14,125,,15,34,158,20*7C
$GPGSV,4,2,15,18,34,269,30,20,22,037,09,23,29,206,27,24,43,192,29*7F
$GPGSV,4,3,15,25,40,343,29,29,10,331,12,36,52,277,,40,86,351,43*74
$GPGSV,4,4,15,41,58,082,37,49,32,274,,50,10,089,*43
$GLGSV,3,1,10,68,15,082,,69,30,133,22,70,09,197,,73,50,329,28*69
$GLGSV,3,2,10,74,06,334,,79,14,155,18,80,69,158,39,83,07,006,*6C
$GLGSV,3,3,10,84,22,315,11,85,11,265,18*6A
$GNGLL,0419.89061,S,05539.60727,E,054809.00,A,A*6E
$GNGRS,054809.00,1,3.4,1.0,-0.3,-3.7,-0.3,-2.5,-17.2,3.1,-7.1,-168,,*59
$GNGRS,054809.00,1,3.5,0.2,9.1,-1.5,-4.8,-8.5,,,,,,*74
$GNGST,054809.00,2973941,,,,2.2,4.8,9.4*7B
$GNZDA,054809.00,28,05,2025,00,00*72
$GNGBS,054809.00,2.2,4.8,9.4,,,,*5E
$GNTXT,01,01,01,More than 100 frame errors, UART RX was disabled*70
b0@#75Z'? }"
"%+(W+
K{4+V_&:RK 
Y
qDREFI2I[JNOP&EST;UObU
zT$GNRMC,054810.00,A,0419.89063,S,05539.60733,E,0.068,,280525,,,A*7E
$GNVTG,,T,,M,0.068,N,0.126,K,A*36
$GNGNS,054810.00,0419.89063,S,05539.60733,E,AA,16,0.71,24.5,-47.6,,*64
$GNGGA,054810.00,0419.89063,S,05539.60733,E,1,12,0.71,24.5,M,-47.6,M,,*4A
$GNGSA,A,3,24,05,20,15,12,18,29,25,23,41,,,1.34,0.71,1.14*1F
$GNGSA,A,3,79,80,84,69,73,85,,,,,,,1.34,0.71,1.14*14
$GPGSV,4,1,15,05,55,053,35,12,63,032,39,13,14,125,,15,34,158,18*77
$GPGSV,4,2,15,18,34,269,29,20,22,037,11,23,29,206,25,24,43,192,29*7C
$GPGSV,4,3,15,25,40,343,28,29,10,331,11,36,52,277,,40,86,351,43*76
$GPGSV,4,4,15,41,58,082,38,49,32,274,,50,10,089,*4C
$GLGSV,3,1,10,68,15,082,,69,30,133,21,70,09,197,,73,50,329,27*65
$GLGSV,3,2,10,74,06,334,,79,14,155,14,80,69,158,38,83,07,006,*61
$GLGSV,3,3,10,84,22,315,09,85,11,265,20*68
$GNGLL,0419.89063,S,05539.60733,E,054810.00,A,A*61
$GNGRS,054810.00,1,6.8,0.9,-0.6,-6.2,-0.5,-3.8,-19.2,0.4,-6.3,-168,,*54
$GNGRS,054810.00,1,1.7,0.3,-56.5,-0.4,-4.2,-8.5,,,,,,*64
$GNGST,054810.00,1060,,,,2.2,4.8,9.4*47
$GNZDA,054810.00,28,05,2025,00,00*7A
$GNGBS,054810.00,2.2,4.8,9.4,,,,*56
$GNTXT,01,01,01,More than 100 frame errors, UART RX was disabled*70
b0@"75j(? }"o
"7%++(WZ
Ku{4+V_%:R3 
Y
qDREbFI2IJNOP&EST;U bU
z~T$GNRMC,054811.00,A,0419.89063,S,05539.60734,E,0.188,,280525,,,A*77
$GNVTG,,T,,M,0.188,N,0.348,K,A*33
$GNGNS,054811.00,0419.89063,S,05539.60734,E,AA,16,0.69,24.4,-47.6,,*6A
$GNGGA,054811.00,0419.89063,S,05539.60734,E,1,12,0.69,24.4,M,-47.6,M,,*44
$GNGSA,A,3,24,05,20,15,12,18,29,25,23,41,,,1.32,0.69,1.13*17
$GNGSA,A,3,79,80,84,69,73,85,,,,,,,1.32,0.69,1.13*1C
$GPGSV,4,1,15,05,55,053,34,12,63,032,40,13,14,125,,15,34,158,19*79
$GPGSV,4,2,15,18,34,269,28,20,22,037,09,23,29,206,25,24,43,192,31*7D
$GPGSV,4,3,15,25,40,343,29,29,10,331,12,36,52,277,,40,86,351,43*74
$GPGSV,4,4,15,41,58,082,37,49,32,274,,50,10,089,*43
$GLGSV,3,1,10,68,15,082,,69,30,133,22,70,09,197,,73,50,329,26*67
$GLGSV,3,2,10,74,06,334,,79,14,155,14,80,69,158,38,83,07,006,*61
$GLGSV,3,3,10,84,22,315,08,85,11,265,20*69
$GNGLL,0419.89063,S,05539.60734,E,054811.00,A,A*67
$GNGRS,054811.00,1,3.0,1.1,-0.8,-6.6,-0.3,-4.6,-19.3,6.0,-5.9,-168,,*5E
$GNGRS,054811.00,1,2.3,0.2,9.1,1.0,-3.7,-8.9,,,,,,*56
$GNGST,054811.00,2974886,,,,2.2,4.7,9.4*70
$GNZDA,054811.00,28,05,2025,00,00*7B
$GNGBS,054811.00,2.2,4.7,9.4,,,,*58
$GNTXT,01,01,01,More than 100 frame errors, UART RX was disabled*70
b0@##75P(? }"
"%+(W
Kz{4*V_&:R 
Y
qDREFI2ICJNOP'EST;U%b#U
bT$GNRMC,054812.00,A,0419.89065,S,05539.60742,E,0.074,,280525,,,A*71
$GNVTG,,T,,M,0.074,N,0.137,K,A*3B
$GNGNS,054812.00,0419.89065,S,05539.60742,E,AA,16,0.69,24.3,-47.6,,*69
$GNGGA,054812.00,0419.89065,S,05539.60742,E,1,12,0.69,24.3,M,-47.6,M,,*47
$GNGSA,A,3,24,05,20,15,12,18,29,25,23,41,,,1.32,0.69,1.13*17
$GNGSA,A,3,79,80,84,69,73,85,,,,,,,1.32,0.69,1.13*1C
$GPGSV,4,1,15,05,55,053,35,12,63,032,40,13,14,125,,15,34,158,18*79
$GPGSV,4,2,15,18,34,269,29,20,22,037,11,23,29,206,24,24,43,192,31*74
$GPGSV,4,3,15,25,40,343,29,29,10,331,12,36,52,277,,40,86,351,42*75
$GPGSV,4,4,15,41,58,082,38,49,32,274,,50,10,089,*4C
$GLGSV,3,1,10,68,15,082,,69,30,133,23,70,09,197,,73,50,329,28*68
$GLGSV,3,2,10,74,06,334,,79,14,155,16,80,69,158,39,83,07,006,*62
$GLGSV,3,3,10,84,22,315,11,85,11,265,18*6A
$GNGLL,0419.89065,S,05539.60742,E,054812.00,A,A*63
$GNGRS,054812.00,1,1.7,0.8,-1.2,-8.3,-0.3,-7.5,-16.7,6.5,-6.2,-169,,*57
$GNGRS,054812.00,1,4.1,0.2,9.1,-0.8,-4.5,-8.9,,,,,,*70
$GNGST,054812.00,2974886,,,,2.2,4.7,9.4*73
$GNZDA,054812.00,28,05,2025,00,00*78
$GNGBS,054812.00,2.2,4.7,9.4,,,,*5B
$GNTXT,01,01,01,More than 100 frame errors, UART RX was disabled*70
b0@'#75E'? }"o
"%?;+(W
K{4+V_&:R 
Y
qDREFI2IJNOP&EST;EU!?b'U
JTS$GNRMC,054813.00,A,0419.89067,S,05539.60747,E,0.030,,280525,,,A*77
$GNVTG,,T,,M,0.030,N,0.056,K,A*3D
$GNGNS,054813.00,0419.89067,S,05539.60747,E,AA,16,0.71,24.3,-47.6,,*66
$GNGGA,054813.00,0419.89067,S,05539.60747,E,1,12,0.71,24.3,M,-47.6,M,,*48
$GNGSA,A,3,24,05,20,15,12,18,29,25,23,41,,,1.34,0.71,1.14*1F
$GNGSA,A,3,79,80,84,69,73,85,,,,,,,1.34,0.71,1.14*14
$GPGSV,4,1,15,05,55,053,35,12,63,032,39,13,14,125,,15,34,158,21*7D
$GPGSV,4,2,15,18,34,269,27,20,22,037,13,23,29,206,26,24,43,192,29*73
$GPGSV,4,3,15,25,40,343,30,29,10,331,11,36,52,277,,40,86,351,43*7F
$GPGSV,4,4,15,41,58,082,38,49,32,274,,50,10,089,*4C
$GLGSV,3,1,10,68,15,082,,69,30,133,21,70,09,197,,73,50,329,29*6B
$GLGSV,3,2,10,74,06,334,,79,14,155,16,80,69,158,38,83,07,006,*63
$GLGSV,3,3,10,84,22,315,08,85,11,265,19*63
$GNGLL,0419.89067,S,05539.60747,E,054813.00,A,A*65
$GNGRS,054813.00,1,7.3,0.7,18.6,-6.6,-0.5,-2.6,-15.7,4.5,-7.1,-169,,*42
$GNGRS,054813.00,1,5.4,0.2,-138,-1.2,-3.6,-9.9,,,,,,*4A
$GNGST,054813.00,1059,,,,2.2,4.7,9.4*41
$GNZDA,054813.00,28,05,2025,00,00*79
$GNGBS,054813.00,2.2,4.7,9.4,,,,*5A
$GNTXT,01,01,01,More than 100 frame errors, UART RX was disabled*70
b0@+"75J'? |"U
"%ld+L(W>
K&{4+V_&:R 
Y
qDREFI2IJNOZP&EST
;UX(b+U
2Tx$GNRMC,054814.00,A,0419.89068,S,05539.60747,E,0.160,,280525,,,A*7B
$GNVTG,,T,,M,0.160,N,0.297,K,A*36
$GNGNS,054814.00,0419.89068,S,05539.60747,E,AA,15,0.71,24.3,-47.6,,*6D
$GNGGA,054814.00,0419.89068,S,05539.60747,E,1,12,0.71,24.3,M,-47.6,M,,*40
$GNGSA,A,3,24,05,20,15,12,18,25,23,41,,,,1.43,0.71,1.24*17
$GNGSA,A,3,79,80,84,69,73,85,,,,,,,1.43,0.71,1.24*17
$GPGSV,4,1,15,05,55,053,34,12,63,032,39,13,14,124,,15,34,158,20*7C
$GPGSV,4,2,15,18,34,269,27,20,22,037,21,23,29,206,25,24,43,192,30*79
$GPGSV,4,3,15,25,40,343,29,29,10,331,09,36,52,277,,40,86,351,43*7E
$GPGSV,4,4,15,41,58,082,38,49,32,274,,50,10,089,*4C
$GLGSV,3,1,10,68,15,082,,69,30,133,20,70,09,197,,73,50,329,29*6A
$GLGSV,3,2,10,74,06,334,,79,14,155,16,80,69,158,38,83,07,006,*63
$GLGSV,3,3,10,84,22,315,10,85,11,265,17*64
$GNGLL,0419.89068,S,05539.60747,E,054814.00,A,A*6D
$GNGRS,054814.00,1,5.9,0.7,16.4,-6.8,-0.4,-0.1,3.2,-6.7,-169,,,*7C
$GNGRS,054814.00,1,6.0,0.3,9.0,-2.4,-5.4,-9.4,,,,,,*77
$GNGST,054814.00,3071475,,,,2.2,4.7,9.4*78
$GNZDA,054814.00,28,05,2025,00,00*7E
$GNGBS,054814.00,2.2,4.7,9.4,,,,*5D
$GNTXT,01,01,01,More than 100 frame errors, UART RX was disabled*70
b0@h/"75<'? |"
""%hB+~(W

K{4+V_&:R 
Y
qDREFI2IJNOPP&E4ST
;U5>bh/U
TP#$GNRMC,054815.00,A,0419.89068,S,05539.60749,E,0.042,,280525,,,A*75
$GNVTG,,T,,M,0.042,N,0.077,K,A*3B
$GNGNS,054815.00,0419.89068,S,05539.60749,E,AA,16,0.69,24.1,-47.6,,*6A
$GNGGA,054815.00,0419.89068,S,05539.60749,E,1,12,0.69,24.1,M,-47.6,M,,*44
$GNGSA,A,3,24,05,20,15,12,18,29,25,23,41,,,1.32,0.69,1.13*17
$GNGSA,A,3,79,80,84,69,73,85,,,,,,,1.32,0.69,1.13*1C
$GPGSV,4,1,15,05,55,053,34,12,63,032,39,13,14,124,,15,34,158,20*7C
$GPGSV,4,2,15,18,34,269,28,20,22,037,15,23,29,206,23,24,43,192,31*76
$GPGSV,4,3,15,25,40,343,29,29,10,331,10,36,52,277,,40,86,351,43*76
$GPGSV,4,4,15,41,58,082,38,49,32,274,,50,10,089,*4C
$GLGSV,3,1,10,68,15,082,,69,30,133,19,70,09,197,,73,50,329,29*60
$GLGSV,3,2,10,74,06,334,,79,14,155,15,80,69,158,38,83,07,006,*60
$GLGSV,3,3,10,84,22,315,10,85,11,265,16*65
$GNGLL,0419.89068,S,05539.60749,E,054815.00,A,A*62
$GNGRS,054815.00,1,1.3,0.6,16.4,-7.9,-0.5,-4.8,-15.3,10.0,-4.5,-169,,*7A
$GNGRS,054815.00,1,8.5,0.5,9.0,-3.5,-2.7,-7.1,,,,,,*74
$GNGST,054815.00,2974889,,,,2.2,4.7,9.5*7A
$GNZDA,054815.00,28,05,2025,00,00*7F
$GNGBS,054815.00,2.2,4.7,9.5,,,,*5D
$GNTXT,01,01,01,More than 100 frame errors, UART RX was disabled*70
b0@P3!75'? |"3
"%\+(W
K\{4*V_%:R 
Y
qDREFI2IJNOP&E+ST;U?4bP3U
T($GNRMC,054816.00,A,0419.89071,S,05539.60753,E,0.058,,280525,,,A*7E
$GNVTG,,T,,M,0.058,N,0.108,K,A*39
$GNGNS,054816.00,0419.89071,S,05539.60753,E,AA,16,0.71,23.9,-47.6,,*6C
$GNGGA,054816.00,0419.89071,S,05539.60753,E,1,12,0.71,23.9,M,-47.6,M,,*42
$GNGSA,A,3,24,05,20,15,12,18,29,25,23,41,,,1.43,0.71,1.24*1C
$GNGSA,A,3,79,80,84,69,73,85,,,,,,,1.43,0.71,1.24*17
$GPGSV,4,1,15,05,55,053,33,12,63,032,39,13,14,124,,15,34,157,18*7F
$GPGSV,4,2,15,18,34,269,28,20,22,037,15,23,29,206,22,24,43,192,30*76
$GPGSV,4,3,15,25,40,343,28,29,10,331,13,36,52,277,,40,86,351,42*75
$GPGSV,4,4,15,41,58,082,37,49,32,274,,50,10,089,*43
$GLGSV,3,1,10,68,15,082,,69,30,133,19,70,09,197,,73,50,329,28*61
$GLGSV,3,2,10,74,06,334,,79,14,155,17,80,69,158,38,83,07,006,*62
$GLGSV,3,3,10,84,22,315,11,85,11,265,16*64
$GNGLL,0419.89071,S,05539.60753,E,054816.00,A,A*62
$GNGRS,054816.00,1,6.6,0.3,15.3,-4.6,-0.7,-0.7,-34.9,6.5,-4.2,-169,,*43
$GNGRS,054816.00,1,9.9,0.4,-18.2,-4.9,-5.4,-7.0,,,,,,*6A
$GNGST,054816.00,1060,,,,2.2,4.7,9.5*4F
$GNZDA,054816.00,28,05,2025,00,00*7C
$GNGBS,054816.00,2.2,4.7,9.5,,,,*5E
$GNTXT,01,01,01,More than 100 frame errors, UART RX was disabled*70
b0@87"757'? |""
"%j+J(W
K{4+V_%:R 
Y
qDREFI2IJNO,P&EST;Uzb87U
T$GNRMC,054817.00,A,0419.89070,S,05539.60749,E,0.157,,280525,,,A*7B
$GNVTG,,T,,M,0.157,N,0.291,K,A*34
$GNGNS,054817.00,0419.89070,S,05539.60749,E,AA,16,0.71,24.2,-47.6,,*6B
$GNGGA,054817.00,0419.89070,S,05539.60749,E,1,12,0.71,24.2,M,-47.6,M,,*45
$GNGSA,A,3,24,05,20,15,12,18,29,25,23,41,,,1.43,0.71,1.24*1C
$GNGSA,A,3,79,80,84,69,73,85,,,,,,,1.43,0.71,1.24*17
$GPGSV,4,1,15,05,55,053,34,12,63,032,39,13,14,124,,15,34,157,21*72
$GPGSV,4,2,15,18,34,269,29,20,22,037,19,23,29,206,20,24,43,192,29*71
$GPGSV,4,3,15,25,40,343,27,29,10,331,11,36,52,277,,40,86,351,43*79
$GPGSV,4,4,15,41,58,082,37,49,32,274,,50,10,089,*43
$GLGSV,3,1,10,68,15,082,,69,30,133,22,70,09,197,,73,50,329,28*69
$GLGSV,3,2,10,74,06,334,,79,14,155,19,80,69,158,38,83,07,006,*6C
$GLGSV,3,3,10,84,22,315,12,85,11,265,16*67
$GNGLL,0419.89070,S,05539.60749,E,054817.00,A,A*69
$GNGRS,054817.00,1,0.7,0.5,11.3,-4.8,-0.8,-1.1,25.3,4.0,-5.8,-169,,*6A
$GNGRS,054817.00,1,8.1,0.3,9.1,-3.0,-0.7,-9.0,,,,,,*7D
$GNGST,054817.00,3071473,,,,2.2,4.6,9.5*7D
$GNZDA,054817.00,28,05,2025,00,00*7D
$GNGBS,054817.00,2.2,4.6,9.5,,,,*5E
$GNTXT,01,01,01,More than 100 frame errors, UART RX was disabled*70
b0@ ;"75(? |"
"K%+ (W
K{4+V_$:R 
Y
qDREYFI2IJNOP'EST;Upb ;U
TX$GNRMC,054818.00,A,0419.89071,S,05539.60764,E,0.162,,280525,,,A*7C
$GNVTG,,T,,M,0.162,N,0.300,K,A*3B
$GNGNS,054818.00,0419.89071,S,05539.60764,E,AA,16,0.71,23.5,-47.6,,*6A
$GNGGA,054818.00,0419.89071,S,05539.60764,E,1,12,0.71,23.5,M,-47.6,M,,*44
$GNGSA,A,3,24,05,20,15,12,18,29,25,23,41,,,1.43,0.71,1.24*1C
$GNGSA,A,3,79,80,84,69,73,85,,,,,,,1.43,0.71,1.24*17
$GPGSV,4,1,15,05,55,053,34,12,63,032,40,13,14,124,,15,34,157,20*7D
$GPGSV,4,2,15,18,34,269,28,20,22,037,18,23,29,206,23,24,43,192,26*7D
$GPGSV,4,3,15,25,40,343,27,29,10,331,08,36,52,277,,40,86,351,43*71
$GPGSV,4,4,15,41,58,082,36,49,32,274,,50,10,089,*42
$GLGSV,3,1,10,68,15,082,,69,30,133,23,70,09,197,,73,50,329,28*68
$GLGSV,3,2,10,74,06,334,,79,14,155,18,80,69,158,39,83,07,006,*6C
$GLGSV,3,3,10,84,22,315,12,85,11,265,17*66
$GNGLL,0419.89071,S,05539.60764,E,054818.00,A,A*68
$GNGRS,054818.00,1,5.4,0.2,11.6,-6.3,-0.6,-6.9,24.9,4.9,-6.0,-169,,*60
$GNGRS,054818.00,1,9.6,0.0,9.0,-1.7,0.0,-9.1,,,,,,*58
$GNGST,054818.00,3071473,,,,2.2,4.6,9.4*73
$GNZDA,054818.00,28,05,2025,00,00*72
$GNGBS,054818.00,2.2,4.6,9.4,,,,*50
$GNTXT,01,01,01,More than 100 frame errors, UART RX was disabled*70
b0@?"75(? |"
"^%+(W=
Kl{4+V_$:R 
Y
qDREFI2IkJNOkP'EST;U Cb?U
T$GNRMC,054819.00,A,0419.89071,S,05539.60768,E,0.072,,280525,,,A*71
$GNVTG,,T,,M,0.072,N,0.133,K,A*39
$GNGNS,054819.00,0419.89071,S,05539.60768,E,AA,16,0.71,23.5,-47.6,,*67
$GNGGA,054819.00,0419.89071,S,05539.60768,E,1,12,0.71,23.5,M,-47.6,M,,*49
$GNGSA,A,3,24,05,20,15,12,18,29,25,23,41,,,1.43,0.71,1.24*1C
$GNGSA,A,3,79,80,84,69,73,85,,,,,,,1.43,0.71,1.24*17
$GPGSV,4,1,15,05,55,053,34,12,63,032,40,13,14,124,,15,34,157,20*7D
$GPGSV,4,2,15,18,34,269,28,20,22,037,17,23,29,206,25,24,43,192,27*75
$GPGSV,4,3,15,25,40,343,28,29,10,331,13,36,52,277,,40,86,351,43*74
$GPGSV,4,4,15,41,58,082,36,49,32,274,,50,10,089,*42
$GLGSV,3,1,10,68,15,082,,69,30,133,24,70,09,197,,73,50,329,27*60
$GLGSV,3,2,10,74,06,334,,79,14,155,18,80,69,158,39,83,07,006,*6C
$GLGSV,3,3,10,84,22,315,07,85,11,265,17*62
$GNGLL,0419.89071,S,05539.60768,E,054819.00,A,A*65
$GNGRS,054819.00,1,-0.1,0.1,12.4,-7.9,-0.5,-1.6,72.8,5.7,-5.3,-169,,*43
$GNGRS,054819.00,1,8.7,0.2,-5.2,-1.0,1.1,-9.9,,,,,,*77
$GNGST,054819.00,1060,,,,2.2,4.6,9.4*40
$GNZDA,054819.00,28,05,2025,00,00*73
$GNGBS,054819.00,2.2,4.6,9.4,,,,*51
$GNTXT,01,01,01,More than 100 frame errors, UART RX was disabled*70
b0@B"75(? |"
"%[+(W
K{4+V_%:R 
Y
qDREFI2IJNOP'EST;UbBU
T$GNRMC,054820.00,A,0419.89071,S,05539.60767,E,0.063,,280525,,,A*74
$GNVTG,,T,,M,0.063,N,0.117,K,A*3F
$GNGNS,054820.00,0419.89071,S,05539.60767,E,AA,16,0.71,23.4,-47.6,,*63
$GNGGA,054820.00,0419.89071,S,05539.60767,E,1,12,0.71,23.4,M,-47.6,M,,*4D
$GNGSA,A,3,24,05,20,15,12,18,29,25,23,41,,,1.43,0.71,1.24*1C
$GNGSA,A,3,79,80,84,69,73,85,,,,,,,1.43,0.71,1.24*17
$GPGSV,4,1,15,05,55,053,34,12,63,032,40,13,14,124,,15,34,157,22*7F
$GPGSV,4,2,15,18,34,269,27,20,22,037,18,23,29,206,23,24,43,192,29*7D
$GPGSV,4,3,15,25,40,343,28,29,10,331,11,36,52,277,,40,86,351,43*76
$GPGSV,4,4,15,41,58,082,37,49,32,274,,50,10,089,*43
$GLGSV,3,1,10,68,15,082,,69,30,133,23,70,09,197,,73,50,329,27*67
$GLGSV,3,2,10,74,06,334,,79,14,155,18,80,69,158,39,83,07,006,*6C
$GLGSV,3,3,10,84,22,315,12,85,11,265,16*67
$GNGLL,0419.89071,S,05539.60767,E,054820.00,A,A*60
$GNGRS,054820.00,1,4.3,0.1,11.1,-8.5,-0.4,0.2,25.3,9.7,-4.9,-169,,*40
$GNGRS,054820.00,1,7.6,0.1,9.1,-0.1,1.3,-11.1,,,,,,*61
$GNGST,054820.00,148623,,,,2.2,4.5,9.4*44
$GNZDA,054820.00,28,05,2025,00,00*79
$GNGBS,054820.00,2.2,4.5,9.4,,,,*58
$GNTXT,01,01,01,More than 100 frame errors, UART RX was disabled*70
b0@F"75(? |"
"%Vw+(WP

K{4+V_%:R 
Y
qDREFI2IJNOP'EST
;U|bFU
T^$GNRMC,054821.00,A,0419.89073,S,05539.60778,E,0.221,,280525,,,A*7D
$GNVTG,,T,,M,0.221,N,0.409,K,A*31
$GNGNS,054821.00,0419.89073,S,05539.60778,E,AA,16,0.71,22.9,-47.6,,*62
$GNGGA,054821.00,0419.89073,S,05539.60778,E,1,12,0.71,22.9,M,-47.6,M,,*4C
$GNGSA,A,3,24,05,20,15,12,18,29,25,23,41,,,1.43,0.71,1.24*1C
$GNGSA,A,3,79,80,84,69,73,85,,,,,,,1.43,0.71,1.24*17
$GPGSV,4,1,15,05,55,053,34,12,63,032,40,13,14,124,,15,34,157,22*7F
$GPGSV,4,2,15,18,34,269,27,20,22,037,17,23,29,206,25,24,43,192,30*7C
$GPGSV,4,3,15,25,40,343,27,29,10,331,10,36,52,277,,40,86,351,43*78
$GPGSV,4,4,15,41,58,082,37,49,32,274,,50,10,089,*43
$GLGSV,3,1,10,68,15,082,,69,30,133,21,70,09,197,,73,50,329,27*65
$GLGSV,3,2,10,74,06,334,,79,14,155,17,80,69,158,39,83,07,006,*63
$GLGSV,3,3,10,84,22,315,10,85,11,265,15*66
$GNGLL,0419.89073,S,05539.60778,E,054821.00,A,A*6D
$GNGRS,054821.00,1,6.4,-0.1,11.1,-8.8,-0.3,-5.5,25.0,8.5,-6.5,-169,,*42
$GNGRS,054821.00,1,10.4,0.2,9.1,-0.2,2.0,-10.3,,,,,,*57
$GNGST,054821.00,3071473,,,,2.2,4.5,9.4*7A
$GNZDA,054821.00,28,05,2025,00,00*78
$GNGBS,054821.00,2.2,4.5,9.4,,,,*59
$GNTXT,01,01,01,More than 100 frame errors, UART RX was disabled*70
b0@J"75(? |"

"%*+L(W

K{4+V_%:R 
Y
qDREEFI2IJNOP'EST;Ul6bJU
rT6$GNRMC,054822.00,A,0419.89073,S,05539.60783,E,0.047,,280525,,,A*78
$GNVTG,,T,,M,0.047,N,0.088,K,A*3E
$GNGNS,054822.00,0419.89073,S,05539.60783,E,AA,16,0.70,22.6,-47.6,,*6B
$GNGGA,054822.00,0419.89073,S,05539.60783,E,1,12,0.70,22.6,M,-47.6,M,,*45
$GNGSA,A,3,24,05,20,15,12,18,29,25,23,41,,,1.34,0.70,1.14*1E
$GNGSA,A,3,79,80,84,69,73,85,,,,,,,1.34,0.70,1.14*15
$GPGSV,4,1,15,05,55,053,34,12,63,032,40,13,14,124,,15,34,157,21*7C
$GPGSV,4,2,15,18,34,269,26,20,22,037,16,23,29,206,26,24,43,192,28*76
$GPGSV,4,3,15,25,40,343,28,29,10,331,10,36,52,277,,40,86,351,43*77
$GPGSV,4,4,15,41,58,082,37,49,32,274,,50,10,089,*43
$GLGSV,3,1,10,68,15,082,,69,30,133,18,70,09,197,,73,50,329,27*6F
$GLGSV,3,2,10,74,06,334,,79,14,155,14,80,69,158,39,83,07,006,*60
$GLGSV,3,3,10,84,22,315,07,85,11,265,13*66
$GNGLL,0419.89073,S,05539.60783,E,054822.00,A,A*6A
$GNGRS,054822.00,1,8.4,-0.3,13.2,-10.1,-0.4,-7.9,-5.9,6.8,-4.9,-169,,*6E
$GNGRS,054822.00,1,7.1,0.1,45.0,0.7,1.8,-9.2,,,,,,*47
$GNGST,054822.00,1060,,,,2.2,4.5,9.4*4B
$GNZDA,054822.00,28,05,2025,00,00*7B
$GNGBS,054822.00,2.2,4.5,9.4,,,,*5A
$GNTXT,01,01,01,More than 100 frame errors, UART RX was disabled*70
b0@N"75(? |"
"%L!+~(Wl
K{4+V_&:R 
Y
qDREFI2IJNO-P'EST;zUFbNU
ZTQ$GNRMC,054823.00,A,0419.89073,S,05539.60790,E,0.169,,280525,,,A*76
$GNVTG,,T,,M,0.169,N,0.312,K,A*33
$GNGNS,054823.00,0419.89073,S,05539.60790,E,AA,16,0.71,22.2,-47.6,,*6D
$GNGGA,054823.00,0419.89073,S,05539.60790,E,1,12,0.71,22.2,M,-47.6,M,,*43
$GNGSA,A,3,24,05,20,15,12,18,29,25,23,41,,,1.43,0.71,1.24*1C
$GNGSA,A,3,79,80,84,69,73,85,,,,,,,1.43,0.71,1.24*17
$GPGSV,4,1,15,05,55,053,34,12,63,032,40,13,14,124,,15,34,157,19*77
$GPGSV,4,2,15,18,34,269,27,20,22,037,15,23,29,206,26,24,43,192,21*7D
$GPGSV,4,3,15,25,40,343,29,29,10,331,11,36,52,277,,40,86,351,43*77
$GPGSV,4,4,15,41,58,082,38,49,32,274,,50,10,089,*4C
$GLGSV,3,1,10,68,15,082,,69,30,133,18,70,09,197,,73,50,329,27*6F
$GLGSV,3,2,10,74,06,334,,79,14,155,16,80,69,158,39,83,07,006,*62
$GLGSV,3,3,10,84,22,315,11,85,11,265,15*67
$GNGLL,0419.89073,S,05539.60790,E,054823.00,A,A*69
$GNGRS,054823.00,1,11.5,-0.4,13.6,-10.3,-0.7,-6.1,25.2,8.8,-4.8,-169,,*46
$GNGRS,054823.00,1,5.6,0.2,8.9,2.1,2.0,-10.3,,,,,,*46
$GNGST,054823.00,3071473,,,,2.2,4.5,9.4*78
$GNZDA,054823.00,28,05,2025,00,00*7A
$GNGBS,054823.00,2.2,4.5,9.4,,,,*5B
$GNTXT,01,01,01,More than 100 frame errors, UART RX was disabled*70
b0@R"75'? |"
"%k*(W
K{4+V_&:R 
Y
qDREFI2IJNOP'E/ST;nUObRU
BT$GNRMC,054824.00,A,0419.89075,S,05539.60789,E,0.075,,280525,,,A*73
$GNVTG,,T,,M,0.075,N,0.138,K,A*35
