$GNTXT,01,01,01,More than 100 frame errors, UART RX was disabled*70
b0LE9: ="8
"
&,{$&WR
I{4V_:R 
Y
pDUE;FI/KLJNOJPGST7UbEU
JO$GNRMC,054253.00,A,0419.89965,S,05539.61409,E,0.960,169.81,280525,,,A*6F
$GNVTG,169.81,T,,M,0.960,N,1.777,K,A*2D
$GNGNS,054253.00,0419.89965,S,05539.61409,E,AA,14,0.72,11.0,-47.6,,*6F
$GNGGA,054253.00,0419.89965,S,05539.61409,E,1,12,0.72,11.0,M,-47.6,M,,*43
$GNGSA,A,3,24,05,20,15,12,18,29,25,23,,,,1.40,0.72,1.20*1D
$GNGSA,A,3,79,80,69,73,85,,,,,,,,1.40,0.72,1.20*1F
$GPGSV,4,1,16,05,57,058,22,12,61,028,32,13,15,127,,15,34,160,26*7C
$GPGSV,4,2,16,18,34,266,17,20,24,038,11,22,00,138,,23,27,206,27*72
$GPGSV,4,3,16,24,44,195,23,25,38,343,36,29,10,329,24,36,52,277,*7A
$GPGSV,4,4,16,40,86,351,29,41,58,082,,49,32,274,,50,10,089,*72
$GLGSV,3,1,10,68,16,085,,69,29,136,24,70,08,199,,73,47,331,28*66
$GLGSV,3,2,10,74,04,334,,79,16,154,12,80,71,154,21,83,09,004,*67
$GLGSV,3,3,10,84,23,311,,85,11,262,23*60
$GNGLL,0419.89965,S,05539.61409,E,054253.00,A,A*68
$GNGRS,054253.00,1,11.5,-2.9,-20.6,-4.6,-2.3,-8.7,2.6,0.8,2.1,,,*5F
$GNGRS,054253.00,1,-4.4,4.5,-2.0,3.3,-2.7,,,,,,,*50
$GNGST,054253.00,52,,,,2.8,6.5,11*6C
$GNZDA,054253.00,28,05,2025,00,00*77
$GNGBS,054253.00,2.8,6.5,10.9,,,,*6B
$GNTXT,01,01,01,More than 100 frame errors, UART RX was disabled*70
b0LI9:"="
"
&,q'&WI
I}{4V_:R 
Y
pDUE1FI/KJNOPGST7UbIU
2O$GNRMC,054254.00,A,0419.89965,S,05539.61413,E,0.197,,280525,,,A*7A
$GNVTG,,T,,M,0.197,N,0.365,K,A*32
$GNGNS,054254.00,0419.89965,S,05539.61413,E,AA,13,0.84,11.0,-47.6,,*6D
$GNGGA,054254.00,0419.89965,S,05539.61413,E,1,12,0.84,11.0,M,-47.6,M,,*46
$GNGSA,A,3,24,05,15,12,18,29,25,23,,,,,1.56,0.84,1.32*12
$GNGSA,A,3,79,80,69,73,85,,,,,,,,1.56,0.84,1.32*12
$GPGSV,4,1,16,05,57,058,20,12,61,028,34,13,15,127,,15,34,160,26*78
$GPGSV,4,2,16,18,34,266,17,20,24,038,08,22,00,138,,23,27,206,25*78
$GPGSV,4,3,16,24,44,195,23,25,38,343,39,29,10,329,25,36,52,277,*74
$GPGSV,4,4,16,40,86,351,31,41,58,082,,49,32,274,,50,10,089,*7B
$GLGSV,3,1,10,68,16,085,,69,29,136,23,70,08,199,,73,47,331,27*6E
$GLGSV,3,2,10,74,04,334,,79,16,154,13,80,71,154,17,83,09,004,*63
$GLGSV,3,3,10,84,23,311,,85,11,262,23*60
$GNGLL,0419.89965,S,05539.61413,E,054254.00,A,A*64
$GNGRS,054254.00,1,11.4,-2.4,-8.7,-2.6,-8.8,3.8,0.7,-0.6,,,,*4C
$GNGRS,054254.00,1,-6.2,5.4,-2.1,-3.2,-3.7,,,,,,,*7F
$GNGST,054254.00,49,,,,2.8,6.5,11*61
$GNZDA,054254.00,28,05,2025,00,00*70
$GNGBS,054254.00,2.8,6.5,10.9,,,,*6C
$GNTXT,01,01,01,More than 100 frame errors, UART RX was disabled*70
b0LhM9:"="
"
&,$&W<
I{4V_:R 
Y
pDUEFI /KUJNOdPGST7UZ;bhMU
O$GNRMC,054255.00,A,0419.89962,S,05539.61410,E,0.130,,280525,,,A*72
$GNVTG,,T,,M,0.130,N,0.240,K,A*39
$GNGNS,054255.00,0419.89962,S,05539.61410,E,AA,13,0.84,11.1,-47.6,,*69
$GNGGA,054255.00,0419.89962,S,05539.61410,E,1,12,0.84,11.1,M,-47.6,M,,*42
$GNGSA,A,3,24,05,15,12,18,29,25,23,,,,,1.56,0.84,1.32*12
$GNGSA,A,3,79,80,69,73,85,,,,,,,,1.56,0.84,1.32*12
$GPGSV,4,1,16,05,57,058,19,12,61,028,34,13,15,127,,15,34,160,28*7C
$GPGSV,4,2,16,18,34,266,16,20,24,038,,22,00,138,,23,27,206,25*71
$GPGSV,4,3,16,24,44,195,23,25,38,343,36,29,10,329,26,36,52,277,*78
$GPGSV,4,4,16,40,86,351,30,41,58,082,,49,32,274,,50,10,089,*7A
$GLGSV,3,1,10,68,16,085,,69,29,136,22,70,08,199,,73,47,331,32*6B
$GLGSV,3,2,10,74,04,334,,79,16,154,13,80,71,154,22,83,09,004,*65
$GLGSV,3,3,10,84,23,311,,85,11,262,26*65
$GNGLL,0419.89962,S,05539.61410,E,054255.00,A,A*61
$GNGRS,054255.00,1,14.2,-1.2,-7.7,-2.7,-10.1,0.2,0.6,-3.6,,,,*7E
$GNGRS,054255.00,1,-6.7,4.1,-2.9,-1.7,-4.9,,,,,,,*79
$GNGST,054255.00,45,,,,2.8,6.4,11*6D
$GNZDA,054255.00,28,05,2025,00,00*71
$GNGBS,054255.00,2.8,6.4,10.8,,,,*6D
$GNTXT,01,01,01,More than 100 frame errors, UART RX was disabled*70
b0LPQ9:]!="U
"
!&,$&WV
I{4V_:R 
Y
pDUE$FI!/KJNOPG!ST7UbPQU
OZW$GNRMC,054256.00,A,0419.89957,S,05539.61411,E,0.131,,280525,,,A*77
$GNVTG,,T,,M,0.131,N,0.242,K,A*3A
$GNGNS,054256.00,0419.89957,S,05539.61411,E,AA,13,0.84,11.4,-47.6,,*68
$GNGGA,054256.00,0419.89957,S,05539.61411,E,1,12,0.84,11.4,M,-47.6,M,,*43
$GNGSA,A,3,24,05,15,12,18,29,25,23,,,,,1.56,0.84,1.32*12
$GNGSA,A,3,79,80,69,73,85,,,,,,,,1.56,0.84,1.32*12
$GPGSV,4,1,16,05,57,058,21,12,61,028,33,13,15,127,,15,34,160,27*7F
$GPGSV,4,2,16,18,34,266,20,20,24,038,,22,00,138,,23,27,206,25*74
$GPGSV,4,3,16,24,44,195,24,25,38,343,36,29,10,329,27,36,52,277,*7E
$GPGSV,4,4,16,40,86,351,29,41,58,082,,49,32,274,,50,10,089,*72
$GLGSV,3,1,10,68,16,085,,69,29,136,22,70,08,199,,73,47,331,33*6A
$GLGSV,3,2,10,74,04,334,,79,16,154,15,80,71,154,22,83,08,004,*62
$GLGSV,3,3,10,84,23,311,,85,11,262,25*66
$GNGLL,0419.89957,S,05539.61411,E,054256.00,A,A*65
$GNGRS,054256.00,1,16.7,-1.6,-6.8,-2.6,-12.5,-0.6,0.9,-7.9,,,,*5A
$GNGRS,054256.00,1,-5.6,5.5,-2.2,-0.5,-8.8,,,,,,,*78
$GNGST,054256.00,40,,,,2.8,6.4,11*6B
$GNZDA,054256.00,28,05,2025,00,00*72
$GNGBS,054256.00,2.8,6.4,10.7,,,,*61
$GNTXT,01,01,01,More than 100 frame errors, UART RX was disabled*70
b0L8U9:!=,"
"
T&,1$&WC
I{4!V_:R 
Y
pDUEFI /KJNOPGST8UMtb8UU
O1$GNRMC,054257.00,A,0419.89953,S,05539.61400,E,0.281,,280525,,,A*7A
$GNVTG,,T,,M,0.281,N,0.520,K,A*31
$GNGNS,054257.00,0419.89953,S,05539.61400,E,AA,13,0.84,11.7,-47.6,,*6E
$GNGGA,054257.00,0419.89953,S,05539.61400,E,1,12,0.84,11.7,M,-47.6,M,,*45
$GNGSA,A,3,24,05,15,12,18,29,25,23,,,,,1.56,0.84,1.32*12
$GNGSA,A,3,79,80,69,73,85,,,,,,,,1.56,0.84,1.32*12
$GPGSV,4,1,16,05,57,058,21,12,61,028,33,13,15,127,,15,34,160,28*70
$GPGSV,4,2,16,18,34,266,20,20,24,038,,22,00,138,,23,27,206,25*74
$GPGSV,4,3,16,24,44,195,22,25,38,343,36,29,10,329,27,36,52,277,*78
$GPGSV,4,4,16,40,86,351,33,41,58,082,,49,32,274,,50,10,089,*79
$GLGSV,3,1,10,68,16,085,,69,29,136,24,70,08,199,,73,47,331,32*6D
$GLGSV,3,2,10,74,04,334,,79,16,154,17,80,71,154,23,83,08,004,*61
$GLGSV,3,3,10,84,23,312,,85,11,262,23*63
$GNGLL,0419.89953,S,05539.61400,E,054257.00,A,A*60
$GNGRS,054257.00,1,15.9,-3.4,-7.6,-2.1,-12.0,1.6,0.7,-6.3,,,,*72
$GNGRS,054257.00,1,-5.5,5.3,-2.3,-1.1,-9.5,,,,,,,*74
$GNGST,054257.00,39,,,,2.8,6.4,11*64
$GNZDA,054257.00,28,05,2025,00,00*73
$GNGBS,054257.00,2.8,6.4,10.6,,,,*61
$GNTXT,01,01,01,More than 100 frame errors, UART RX was disabled*70
b0L Y9:!=-"*
"
&&,$&WQ
I{4"V_:R 
Y
pDUE<FI /K_JNOPGST8hUY3b YU
O$$GNRMC,054258.00,A,0419.89952,S,05539.61396,E,0.156,,280525,,,A*75
$GNVTG,,T,,M,0.156,N,0.289,K,A*3C
$GNGNS,054258.00,0419.89952,S,05539.61396,E,AA,13,0.84,11.9,-47.6,,*66
$GNGGA,054258.00,0419.89952,S,05539.61396,E,1,12,0.84,11.9,M,-47.6,M,,*4D
$GNGSA,A,3,24,05,15,12,18,29,25,23,,,,,1.56,0.84,1.32*12
$GNGSA,A,3,79,80,69,73,85,,,,,,,,1.56,0.84,1.32*12
$GPGSV,4,1,16,05,57,058,20,12,61,028,33,13,15,127,,15,34,160,30*78
$GPGSV,4,2,16,18,34,266,20,20,24,038,,22,00,138,,23,27,206,25*74
$GPGSV,4,3,16,24,44,195,22,25,38,343,36,29,10,329,26,36,52,277,*79
$GPGSV,4,4,16,40,86,351,34,41,58,082,,49,32,274,,50,10,089,*7E
$GLGSV,3,1,10,68,16,085,,69,29,136,26,70,08,199,,73,47,331,32*6F
$GLGSV,3,2,10,74,04,334,,79,16,154,15,80,71,154,22,83,08,004,*62
$GLGSV,3,3,10,84,23,312,07,85,11,262,25*62
$GNGLL,0419.89952,S,05539.61396,E,054258.00,A,A*66
$GNGRS,054258.00,1,19.9,-3.7,-7.3,-2.1,-12.4,3.9,0.8,-2.8,,,,*7E
$GNGRS,054258.00,1,-3.6,6.7,-2.0,-4.2,-9.4,,,,,,,*7D
$GNGST,054258.00,40,,,,2.8,6.3,11*62
$GNZDA,054258.00,28,05,2025,00,00*7C
$GNGBS,054258.00,2.8,6.3,10.5,,,,*6A
$GNTXT,01,01,01,More than 100 frame errors, UART RX was disabled*70
b0L]9:t!=5"
"
&},w#&Wy
I{4 V_:R 
Y
pDUEFI/KFJNOfPG=ST8Ub]U
O$GNRMC,054259.00,A,0419.89948,S,05539.61402,E,0.202,,280525,,,A*77
$GNVTG,,T,,M,0.202,N,0.375,K,A*3C
$GNGNS,054259.00,0419.89948,S,05539.61402,E,AA,12,0.95,11.9,-47.6,,*67
$GNGGA,054259.00,0419.89948,S,05539.61402,E,1,12,0.95,11.9,M,-47.6,M,,*4D
$GNGSA,A,3,24,05,15,12,18,29,25,23,,,,,1.83,0.95,1.56*18
$GNGSA,A,3,80,69,73,85,,,,,,,,,1.83,0.95,1.56*16
$GPGSV,4,1,16,05,57,058,19,12,61,028,33,13,15,127,,15,34,160,29*7A
$GPGSV,4,2,16,18,34,266,19,20,24,038,,22,00,138,,23,27,206,24*7F
$GPGSV,4,3,16,24,44,195,21,25,38,343,35,29,10,329,25,36,52,277,*7A
$GPGSV,4,4,16,40,86,351,32,41,58,082,,49,32,274,,50,10,089,*78
$GLGSV,3,1,10,68,16,085,,69,29,136,28,70,08,199,,73,47,331,31*62
$GLGSV,3,2,10,74,04,334,,79,16,154,13,80,71,154,22,83,08,004,*64
$GLGSV,3,3,10,84,23,312,,85,11,262,24*64
$GNGLL,0419.89948,S,05539.61402,E,054259.00,A,A*66
$GNGRS,054259.00,1,21.7,-1.4,-3.4,-2.0,-10.6,4.3,1.2,-1.3,,,,*77
$GNGRS,054259.00,1,5.7,-2.3,-4.4,-10.5,,,,,,,,*45
$GNGST,054259.00,36,,,,2.8,6.3,11*62
$GNZDA,054259.00,28,05,2025,00,00*7D
$GNGBS,054259.00,2.8,6.3,10.5,79,,-6.0,78.8*79
$GNTXT,01,01,01,More than 100 frame errors, UART RX was disabled*70
b0L`9: =6"
"
&),#&Wr
I{4!V_:R 
Y
pDUEFI /KEJNOPG)ST8Ub`U
O$GNRMC,054300.00,A,0419.89946,S,05539.61412,E,0.243,,280525,,,A*70
$GNVTG,,T,,M,0.243,N,0.451,K,A*38
$GNGNS,054300.00,0419.89946,S,05539.61412,E,AA,12,0.91,11.9,-47.6,,*61
$GNGGA,054300.00,0419.89946,S,05539.61412,E,1,12,0.91,11.9,M,-47.6,M,,*4B
$GNGSA,A,3,24,05,15,12,18,29,25,23,,,,,1.77,0.91,1.52*13
$GNGSA,A,3,80,69,73,85,,,,,,,,,1.77,0.91,1.52*1D
$GPGSV,4,1,16,05,57,058,20,12,61,028,32,13,15,127,,15,34,160,28*70
$GPGSV,4,2,16,18,34,266,21,20,24,038,,22,00,138,,23,27,206,23*73
$GPGSV,4,3,16,24,44,195,25,25,38,343,35,29,10,329,25,36,52,277,*7E
$GPGSV,4,4,16,40,86,351,33,41,58,082,,49,32,274,,50,10,089,*79
$GLGSV,3,1,10,68,16,085,,69,29,136,27,70,08,199,,73,47,331,32*6E
$GLGSV,3,2,10,74,04,334,,79,16,154,,80,71,154,20,83,08,004,*64
$GLGSV,3,3,10,84,23,312,,85,11,262,23*63
$GNGLL,0419.89946,S,05539.61412,E,054300.00,A,A*64
$GNGRS,054300.00,1,19.2,-2.6,2.7,-2.0,-10.4,3.9,1.1,-4.7,,,,*57
$GNGRS,054300.00,1,5.5,-2.3,-1.9,-9.9,,,,,,,,*76
$GNGST,054300.00,40,,,,2.9,6.3,11*6F
$GNZDA,054300.00,28,05,2025,00,00*70
$GNGBS,054300.00,2.9,6.3,10.5,,,,*67
$GNTXT,01,01,01,More than 100 frame errors, UART RX was disabled*70
b0Ld9:#=O"
"
&c,3$&W{
IU{4!V_:R 
Y
pDUEFI!/KJNOPGST8UoPbdU
OM$GNRMC,054301.00,A,0419.89943,S,05539.61417,E,0.203,,280525,,,A*75
$GNVTG,,T,,M,0.203,N,0.376,K,A*3E
$GNGNS,054301.00,0419.89943,S,05539.61417,E,AA,12,0.91,11.8,-47.6,,*61
$GNGGA,054301.00,0419.89943,S,05539.61417,E,1,12,0.91,11.8,M,-47.6,M,,*4B
$GNGSA,A,3,24,05,15,12,18,29,25,23,,,,,1.77,0.91,1.52*13
$GNGSA,A,3,80,69,73,85,,,,,,,,,1.77,0.91,1.52*1D
$GPGSV,4,1,16,05,57,058,25,12,61,028,35,13,15,127,,15,34,160,28*72
$GPGSV,4,2,16,18,34,266,20,20,24,038,,22,00,138,,23,27,206,24*75
$GPGSV,4,3,16,24,44,195,25,25,38,343,36,29,10,329,26,36,52,277,*7E
$GPGSV,4,4,16,40,86,351,33,41,58,082,,49,32,274,,50,10,089,*79
$GLGSV,3,1,10,68,16,085,,69,29,136,25,70,08,199,,73,47,331,33*6D
$GLGSV,3,2,10,74,04,334,,79,16,154,20,80,71,154,20,83,08,004,*66
$GLGSV,3,3,10,84,23,312,,85,11,262,25*65
$GNGLL,0419.89943,S,05539.61417,E,054301.00,A,A*65
$GNGRS,054301.00,1,15.9,-2.3,-8.9,-1.8,-8.0,3.4,1.2,-6.7,,,,*47
$GNGRS,054301.00,1,7.4,-0.7,-2.6,-9.1,,,,,,,,*76
$GNGST,054301.00,38,,,,2.9,6.2,10*61
$GNZDA,054301.00,28,05,2025,00,00*71
$GNGBS,054301.00,2.9,6.2,10.5,,,,*67
$GNTXT,01,01,01,More than 100 frame errors, UART RX was disabled*70
b0Lh9:5#=G"
"
&*,#&W
In{4V_:R 
Y
pDUElFI /KJNOPGST8U3bhU
rOh$GNRMC,054302.00,A,0419.89942,S,05539.61417,E,0.056,,280525,,,A*75
$GNVTG,,T,,M,0.056,N,0.103,K,A*3C
$GNGNS,054302.00,0419.89942,S,05539.61417,E,AA,12,0.91,12.0,-47.6,,*68
$GNGGA,054302.00,0419.89942,S,05539.61417,E,1,12,0.91,12.0,M,-47.6,M,,*42
$GNGSA,A,3,24,05,15,12,18,29,25,23,,,,,1.77,0.91,1.52*13
$GNGSA,A,3,80,69,73,85,,,,,,,,,1.77,0.91,1.52*1D
$GPGSV,4,1,16,05,57,058,23,12,61,028,35,13,15,127,,15,34,160,28*74
$GPGSV,4,2,16,18,34,266,21,20,24,038,,22,00,138,,23,27,206,25*75
$GPGSV,4,3,16,24,44,195,24,25,38,343,35,29,10,329,26,36,52,277,*7C
$GPGSV,4,4,16,40,86,351,31,41,58,082,,49,32,274,,50,10,089,*7B
$GLGSV,3,1,10,68,16,085,,69,29,136,26,70,08,199,,73,47,331,32*6F
$GLGSV,3,2,10,74,04,334,,79,16,154,19,80,71,154,25,83,08,004,*69
$GLGSV,3,3,10,84,23,312,,85,11,262,25*65
$GNGLL,0419.89942,S,05539.61417,E,054302.00,A,A*67
$GNGRS,054302.00,1,16.8,-2.0,-7.5,-1.9,-6.2,1.1,1.4,-7.3,,,,*4F
$GNGRS,054302.00,1,7.1,1.1,-2.6,-9.7,,,,,,,,*5C
$GNGST,054302.00,35,,,,2.9,6.2,10*6F
$GNZDA,054302.00,28,05,2025,00,00*72
$GNGBS,054302.00,2.9,6.2,10.5,,,,*64
$GNTXT,01,01,01,More than 100 frame errors, UART RX was disabled*70
b0Ll9:'!=Z"
"
&I,#&W
I#{4V_:R 
Y
pDUEFI /KJNO
PGST8UtblU
ZO@$GNRMC,054303.00,A,0419.89948,S,05539.61404,E,0.599,,280525,,,A*7A
$GNVTG,,T,,M,0.599,N,1.109,K,A*31
$GNGNS,054303.00,0419.89948,S,05539.61404,E,AA,12,0.91,12.1,-47.6,,*60
$GNGGA,054303.00,0419.89948,S,05539.61404,E,1,12,0.91,12.1,M,-47.6,M,,*4A
$GNGSA,A,3,24,05,15,12,18,29,25,23,,,,,1.77,0.91,1.52*13
$GNGSA,A,3,80,69,73,85,,,,,,,,,1.77,0.91,1.52*1D
$GPGSV,4,1,16,05,57,058,21,12,61,028,33,13,15,127,,15,34,160,29*71
$GPGSV,4,2,16,18,34,266,21,20,24,038,05,22,00,138,,23,27,206,22*77
$GPGSV,4,3,16,24,44,195,22,25,38,343,35,29,10,329,26,36,52,277,*7A
$GPGSV,4,4,16,40,86,351,29,41,58,082,,49,32,274,,50,10,089,*72
$GLGSV,3,1,10,68,16,085,,69,29,136,26,70,08,199,,73,47,331,32*6F
$GLGSV,3,2,10,74,04,334,,79,16,154,18,80,71,154,24,83,08,004,*69
$GLGSV,3,3,10,84,23,312,,85,11,262,23*63
$GNGLL,0419.89948,S,05539.61404,E,054303.00,A,A*6E
$GNGRS,054303.00,1,17.6,-2.2,-8.0,-1.7,-3.5,0.4,1.6,-7.0,,,,*40
$GNGRS,054303.00,1,7.2,2.4,-2.7,-9.1,,,,,,,,*5F
$GNGST,054303.00,37,,,,2.9,6.2,10*6C
$GNZDA,054303.00,28,05,2025,00,00*73
$GNGBS,054303.00,2.9,6.2,10.4,,,,*64
$GNTXT,01,01,01,More than 100 frame errors, UART RX was disabled*70
b0Lp9:T!=`"
"
Q&,$&W
I{4V_:R 
Y
pDUEFI#/KJNOPGST8UbpU
BO$GNRMC,054304.00,A,0419.89945,S,05539.61407,E,0.281,,280525,,,A*7D
$GNVTG,,T,,M,0.281,N,0.520,K,A*31
$GNGNS,054304.00,0419.89945,S,05539.61407,E,AA,12,0.91,12.2,-47.6,,*6A
$GNGGA,054304.00,0419.89945,S,05539.61407,E,1,12,0.91,12.2,M,-47.6,M,,*40
$GNGSA,A,3,24,05,15,12,18,29,25,23,,,,,1.77,0.91,1.52*13
$GNGSA,A,3,80,69,73,85,,,,,,,,,1.77,0.91,1.52*1D
$GPGSV,4,1,16,05,57,058,29,12,61,028,33,13,15,127,,15,34,160,28*78
$GPGSV,4,2,16,18,34,266,24,20,24,038,08,22,00,138,,23,27,206,24*79
$GPGSV,4,3,16,24,44,195,21,25,38,343,36,29,10,329,27,36,52,277,*7B
$GPGSV,4,4,16,40,86,351,30,41,58,082,,49,32,274,,50,10,089,*7A
$GLGSV,3,1,10,68,16,085,,69,29,136,28,70,08,199,,73,47,331,35*66
$GLGSV,3,2,10,74,04,334,,79,16,154,17,80,71,154,24,83,08,004,*66
$GLGSV,3,3,10,84,23,312,,85,11,262,23*63
$GNGLL,0419.89945,S,05539.61407,E,054304.00,A,A*67
$GNGRS,054304.00,1,17.0,-1.7,-3.5,-1.6,0.8,2.5,1.5,-7.9,,,,*62
$GNGRS,054304.00,1,6.9,-1.2,-2.7,-11.4,,,,,,,,*46
$GNGST,054304.00,33,,,,2.9,6.1,10*6C
$GNZDA,054304.00,28,05,2025,00,00*74
$GNGBS,054304.00,2.9,6.1,10.3,,,,*67
$GNTXT,01,01,01,More than 100 frame errors, UART RX was disabled*70
b0Lxt9:V =f"
"

&H\,s$&W
I{4"V_:R 
Y
pDUEFI!/KJNOPG<ST8UhbxtU
*O$GNRMC,054305.00,A,0419.89942,S,05539.61411,E,0.066,,280525,,,A*77
$GNVTG,,T,,M,0.066,N,0.123,K,A*3D
$GNGNS,054305.00,0419.89942,S,05539.61411,E,AA,13,0.91,12.3,-47.6,,*6B
$GNGGA,054305.00,0419.89942,S,05539.61411,E,1,12,0.91,12.3,M,-47.6,M,,*40
$GNGSA,A,3,24,05,15,12,18,29,25,23,,,,,1.77,0.91,1.52*13
$GNGSA,A,3,79,80,69,73,85,,,,,,,,1.77,0.91,1.52*13
$GPGSV,4,1,16,05,57,058,25,12,61,028,32,13,15,127,,15,34,160,28*75
$GPGSV,4,2,16,18,34,266,23,20,24,038,10,22,00,138,,23,27,206,24*77
$GPGSV,4,3,16,24,44,195,20,25,38,343,36,29,10,329,27,36,52,277,*7A
$GPGSV,4,4,16,40,86,351,34,41,58,082,,49,32,274,,50,10,089,*7E
$GLGSV,3,1,10,68,16,085,,69,29,136,28,70,08,199,,73,47,331,33*60
$GLGSV,3,2,10,74,04,334,,79,16,154,15,80,71,154,24,83,08,004,*64
$GLGSV,3,3,10,84,23,312,,85,11,262,23*63
$GNGLL,0419.89942,S,05539.61411,E,054305.00,A,A*66
$GNGRS,054305.00,1,16.5,-4.3,-2.5,-1.5,0.2,1.5,1.5,-6.8,,,,*6D
$GNGRS,054305.00,1,-20.9,8.3,0.0,-2.6,-13.2,,,,,,,*50
$GNGST,054305.00,34,,,,2.9,6.1,10*6A
$GNZDA,054305.00,28,05,2025,00,00*75
$GNGBS,054305.00,2.9,6.1,10.2,79,,21.0,69.1*64
$GNTXT,01,01,01,More than 100 frame errors, UART RX was disabled*70
b0L`x89k="
"
&L,$&W|
I{4"V_:R 
Y
pDUEFI /KJNOPGST8U&b`xU
OU$GNRMC,054306.00,A,0419.89941,S,05539.61403,E,0.131,,280525,,,A*77
$GNVTG,,T,,M,0.131,N,0.242,K,A*3A
$GNGNS,054306.00,0419.89941,S,05539.61403,E,AA,12,0.91,12.7,-47.6,,*6D
$GNGGA,054306.00,0419.89941,S,05539.61403,E,1,12,0.91,12.7,M,-47.6,M,,*47
$GNGSA,A,3,24,05,15,12,18,29,25,23,,,,,1.77,0.91,1.52*13
$GNGSA,A,3,80,69,73,85,,,,,,,,,1.77,0.91,1.52*1D
$GPGSV,4,1,16,05,56,057,26,12,61,028,31,13,15,127,,15,34,160,27*74
$GPGSV,4,2,16,18,34,266,20,20,24,038,09,22,00,138,,23,27,206,25*7D
$GPGSV,4,3,16,24,44,195,18,25,38,343,36,29,10,329,26,36,52,277,*70
$GPGSV,4,4,16,40,86,351,34,41,58,082,,49,32,274,,50,10,089,*7E
$GLGSV,3,1,10,68,16,085,,69,29,136,27,70,08,199,,73,47,331,32*6E
$GLGSV,3,2,10,74,04,334,,79,16,154,,80,71,154,24,83,08,004,*60
$GLGSV,3,3,10,84,23,312,,85,11,262,25*65
$GNGLL,0419.89941,S,05539.61403,E,054306.00,A,A*65
$GNGRS,054306.00,1,18.1,-6.6,-8.5,-0.7,2.2,1.7,1.2,-6.9,,,,*6C
$GNGRS,054306.00,1,7.3,-3.0,-2.6,-12.4,,,,,,,,*4D
$GNGST,054306.00,36,,,,3.0,6.0,10*62
$GNZDA,054306.00,28,05,2025,00,00*76
$GNGBS,054306.00,3.0,6.0,10.1,,,,*6E
$GNTXT,01,01,01,More than 100 frame errors, UART RX was disabled*70
b0LH|89o =7"
"
k&,'&&W
I{4V_:R 
Y
pDUEFI!/KJNOPG_ST8U_[?bH|U
O$GNRMC,054307.00,A,0419.89932,S,05539.61403,E,0.119,,280525,,,A*78
$GNVTG,,T,,M,0.119,N,0.221,K,A*35
$GNGNS,054307.00,0419.89932,S,05539.61403,E,AA,13,0.91,13.0,-47.6,,*6F
$GNGGA,054307.00,0419.89932,S,05539.61403,E,1,12,0.91,13.0,M,-47.6,M,,*44
$GNGSA,A,3,24,05,20,15,12,18,29,25,23,,,,1.77,0.91,1.52*11
$GNGSA,A,3,80,69,73,85,,,,,,,,,1.77,0.91,1.52*1D
$GPGSV,4,1,16,05,56,057,26,12,61,028,32,13,15,127,,15,34,160,29*79
$GPGSV,4,2,16,18,34,266,20,20,24,038,16,22,00,138,,23,27,206,27*71
$GPGSV,4,3,16,24,44,195,17,25,38,343,38,29,10,329,27,36,52,277,*70
$GPGSV,4,4,16,40,86,351,29,41,58,082,,49,32,274,,50,10,089,*72
$GLGSV,3,1,10,68,16,085,,69,29,136,28,70,08,199,,73,47,331,33*60
$GLGSV,3,2,10,74,04,334,,79,16,154,,80,71,154,22,83,08,004,*66
$GLGSV,3,3,10,84,23,312,,85,11,262,25*65
$GNGLL,0419.89932,S,05539.61403,E,054307.00,A,A*60
$GNGRS,054307.00,1,18.3,-4.0,-23.2,-8.9,3.1,3.6,2.0,1.4,-7.9,,,*79
$GNGRS,054307.00,1,8.6,-2.7,1.9,-11.9,,,,,,,,*6F
$GNGST,054307.00,35,,,,2.9,6.0,10*68
$GNZDA,054307.00,28,05,2025,00,00*77
$GNGBS,054307.00,2.9,6.0,10.0,,,,*66
$GNTXT,01,01,01,More than 100 frame errors, UART RX was disabled*70
b0L089I="8
"
x&S,$&W
I{4V_:R 
Y
pDUEFI/KJNOPGIST8UCb0U
Ow"$GNRMC,054308.00,A,0419.89929,S,05539.61394,E,0.307,,280525,,,A*79
$GNVTG,,T,,M,0.307,N,0.568,K,A*32
$GNGNS,054308.00,0419.89929,S,05539.61394,E,AA,13,0.91,13.3,-47.6,,*60
$GNGGA,054308.00,0419.89929,S,05539.61394,E,1,12,0.91,13.3,M,-47.6,M,,*4B
$GNGSA,A,3,24,05,20,15,12,18,29,25,23,,,,1.77,0.91,1.52*11
$GNGSA,A,3,80,69,73,85,,,,,,,,,1.77,0.91,1.52*1D
$GPGSV,4,1,16,05,56,057,24,12,61,028,28,13,15,127,,15,34,160,28*71
$GPGSV,4,2,16,18,34,266,19,20,24,038,12,22,00,138,,23,27,206,26*7E
$GPGSV,4,3,16,24,44,195,16,25,38,343,36,29,10,329,26,36,52,277,*7E
$GPGSV,4,4,16,40,86,351,29,41,58,082,,49,32,274,,50,10,089,*72
$GLGSV,3,1,10,68,16,085,,69,29,136,26,70,08,199,,73,47,331,30*6D
$GLGSV,3,2,10,74,04,334,,79,16,154,,80,71,154,20,83,08,004,*64
$GLGSV,3,3,10,84,23,312,,85,11,262,24*64
$GNGLL,0419.89929,S,05539.61394,E,054308.00,A,A*6C
$GNGRS,054308.00,1,18.1,-9.5,-23.0,-9.7,2.4,3.8,2.8,1.3,-6.8,,,*74
$GNGRS,054308.00,1,8.4,-3.6,-2.3,-10.9,,,,,,,,*47
$GNGST,054308.00,40,,,,2.9,5.9,10*6F
$GNZDA,054308.00,28,05,2025,00,00*78
$GNGBS,054308.00,2.9,5.9,10.0,,,,*63
$GNTXT,01,01,01,More than 100 frame errors, UART RX was disabled*70
b0L89A="D
"
&D,$&W|
I{4V_:R 
Y
pDUEFI/KjJNOPGvST8U#$bU
OO$GNRMC,054309.00,A,0419.89927,S,05539.61385,E,0.107,,280525,,,A*74
$GNVTG,,T,,M,0.107,N,0.198,K,A*3B
$GNGNS,054309.00,0419.89927,S,05539.61385,E,AA,12,0.91,13.5,-47.6,,*68
$GNGGA,054309.00,0419.89927,S,05539.61385,E,1,12,0.91,13.5,M,-47.6,M,,*42
$GNGSA,A,3,24,05,15,12,18,29,25,23,,,,,1.77,0.91,1.52*13
$GNGSA,A,3,80,69,73,85,,,,,,,,,1.77,0.91,1.52*1D
$GPGSV,4,1,16,05,56,057,23,12,61,028,30,13,15,127,,15,34,160,27*70
$GPGSV,4,2,16,18,34,266,21,20,24,038,,22,00,138,,23,27,206,25*75
$GPGSV,4,3,16,24,44,195,19,25,38,343,36,29,10,329,25,36,52,277,*72
$GPGSV,4,4,16,40,86,351,28,41,58,082,,49,32,274,,50,10,089,*73
$GLGSV,3,1,10,68,16,085,,69,29,136,25,70,08,199,,73,47,331,30*6E
$GLGSV,3,2,10,74,04,334,,79,16,154,,80,71,154,18,83,08,004,*6F
$GLGSV,3,3,10,84,23,312,,85,11,262,24*64
$GNGLL,0419.89927,S,05539.61385,E,054309.00,A,A*63
$GNGRS,054309.00,1,15.1,-7.0,-9.6,-1.2,4.1,1.3,1.2,-7.0,,,,*66
$GNGRS,054309.00,1,8.9,-3.8,-1.5,-9.9,,,,,,,,*78
$GNGST,054309.00,39,,,,2.9,5.9,10*60
$GNZDA,054309.00,28,05,2025,00,00*79
$GNGBS,054309.00,2.9,5.9,10.1,,,,*63
$GNTXT,01,01,01,More than 100 frame errors, UART RX was disabled*70
b0L89!="
"
1&y,&&Wt
I{4V_:R 
Y
pDUE)FI/KWJNOPGST8UzbU
O'$GNRMC,054310.00,A,0419.89925,S,05539.61381,E,0.041,,280525,,,A*79
$GNVTG,,T,,M,0.041,N,0.076,K,A*39
$GNGNS,054310.00,0419.89925,S,05539.61381,E,AA,12,0.91,13.6,-47.6,,*65
$GNGGA,054310.00,0419.89925,S,05539.61381,E,1,12,0.91,13.6,M,-47.6,M,,*4F
$GNGSA,A,3,24,05,15,12,18,29,25,23,,,,,1.77,0.91,1.52*13
$GNGSA,A,3,80,69,73,85,,,,,,,,,1.77,0.91,1.52*1D
$GPGSV,4,1,16,05,56,057,22,12,61,028,33,13,15,127,,15,34,160,28*7D
$GPGSV,4,2,16,18,34,266,24,20,24,038,,22,00,138,,23,27,206,23*76
$GPGSV,4,3,16,24,44,195,19,25,38,343,38,29,10,329,25,36,52,277,*7C
$GPGSV,4,4,16,40,86,351,29,41,58,082,,49,32,274,,50,10,089,*72
$GLGSV,3,1,10,68,16,085,,69,29,136,25,70,08,199,,73,47,331,30*6E
$GLGSV,3,2,10,74,04,334,,79,16,154,,80,71,154,21,83,08,004,*65
$GLGSV,3,3,10,84,23,312,,85,11,262,24*64
$GNGLL,0419.89925,S,05539.61381,E,054310.00,A,A*6D
$GNGRS,054310.00,1,15.7,-2.9,-3.5,-2.7,5.6,2.2,1.2,-6.5,,,,*6B
$GNGRS,054310.00,1,5.4,-4.7,-4.3,-8.0,,,,,,,,*73
$GNGST,054310.00,38,,,,3.0,5.9,10*61
$GNZDA,054310.00,28,05,2025,00,00*71
$GNGBS,054310.00,3.0,5.9,10.1,,,,*63
$GNTXT,01,01,01,More than 100 frame errors, UART RX was disabled*70
b0L89=y"
"
&,K"&Wl
I{4V_:R 
Y
pDUEFI/KJNOPGhST8UbU
OK$GNRMC,054311.00,A,0419.89924,S,05539.61385,E,0.380,,280525,,,A*73
$GNVTG,,T,,M,0.380,N,0.703,K,A*32
$GNGNS,054311.00,0419.89924,S,05539.61385,E,AA,12,0.91,13.7,-47.6,,*60
$GNGGA,054311.00,0419.89924,S,05539.61385,E,1,12,0.91,13.7,M,-47.6,M,,*4A
$GNGSA,A,3,24,05,15,12,18,29,25,23,,,,,1.77,0.91,1.52*13
$GNGSA,A,3,80,69,73,85,,,,,,,,,1.77,0.91,1.52*1D
$GPGSV,4,1,16,05,56,057,20,12,61,028,28,13,15,127,,15,34,160,27*7A
$GPGSV,4,2,16,18,34,266,24,20,24,038,,22,00,138,,23,27,206,21*74
$GPGSV,4,3,16,24,44,195,19,25,38,343,34,29,10,329,26,36,52,277,*73
$GPGSV,4,4,16,40,86,351,29,41,58,082,,49,32,274,,50,10,089,*72
$GLGSV,3,1,10,68,16,085,,69,29,136,25,70,08,199,,73,47,331,30*6E
$GLGSV,3,2,10,74,04,334,,79,16,154,,80,71,154,20,83,08,004,*64
$GLGSV,3,3,10,84,23,312,,85,11,262,23*63
$GNGLL,0419.89924,S,05539.61385,E,054311.00,A,A*69
$GNGRS,054311.00,1,16.1,-2.4,-3.8,-1.4,4.8,2.5,1.1,-5.9,,,,*6B
$GNGRS,054311.00,1,6.2,-6.0,-2.7,-10.7,,,,,,,,*4E
$GNGST,054311.00,39,,,,3.0,5.9,10*61
$GNZDA,054311.00,28,05,2025,00,00*70
$GNGBS,054311.00,3.0,5.9,10.2,,,,*61
$GNTXT,01,01,01,More than 100 frame errors, UART RX was disabled*70
b0L89="
"
&u,$&Wd
I!{4V_:R 
Y
pDUE
FI/K JNOPGST8U|@bU
O$GNRMC,054312.00,A,0419.89903,S,05539.61397,E,0.840,,280525,,,A*71
$GNVTG,,T,,M,0.840,N,1.555,K,A*35
$GNGNS,054312.00,0419.89903,S,05539.61397,E,AA,12,0.91,13.7,-47.6,,*65
$GNGGA,054312.00,0419.89903,S,05539.61397,E,1,12,0.91,13.7,M,-47.6,M,,*4F
$GNGSA,A,3,24,05,15,12,18,29,25,23,,,,,1.77,0.91,1.52*13
$GNGSA,A,3,80,69,73,85,,,,,,,,,1.77,0.91,1.52*1D
$GPGSV,4,1,16,05,56,057,22,12,61,028,28,13,15,127,,15,34,160,25*7A
$GPGSV,4,2,16,18,34,266,24,20,24,038,,22,00,138,,23,27,206,21*74
$GPGSV,4,3,16,24,44,195,20,25,38,343,36,29,10,329,25,36,52,277,*78
$GPGSV,4,4,16,40,86,351,28,41,58,082,,49,32,274,,50,10,089,*73
$GLGSV,3,1,10,68,16,085,,69,29,136,25,70,08,199,,73,47,331,31*6F
$GLGSV,3,2,10,74,04,334,,79,16,154,,80,71,154,17,83,08,004,*60
$GLGSV,3,3,10,84,23,312,,85,11,262,22*62
$GNGLL,0419.89903,S,05539.61397,E,054312.00,A,A*6C
$GNGRS,054312.00,1,15.2,-5.9,-6.3,0.3,2.7,2.9,1.0,-9.1,,,,*47
$GNGRS,054312.00,1,3.9,-5.0,0.3,-10.6,,,,,,,,*6A
$GNGST,054312.00,41,,,,3.1,6.0,10*66
$GNZDA,054312.00,28,05,2025,00,00*73
$GNGBS,054312.00,3.1,6.0,10.2,,,,*69
$GNTXT,01,01,01,More than 100 frame errors, UART RX was disabled*70
b0L892="D
"
&,$&W_
I{4V_:R 
Y
pDUEFI/KJNOPGeST8UbU
jO$GNRMC,054313.00,A,0419.89886,S,05539.61409,E,0.743,,280525,,,A*70
$GNVTG,,T,,M,0.743,N,1.376,K,A*3E
$GNGNS,054313.00,0419.89886,S,05539.61409,E,AA,12,0.91,13.7,-47.6,,*68
$GNGGA,054313.00,0419.89886,S,05539.61409,E,1,12,0.91,13.7,M,-47.6,M,,*42
$GNGSA,A,3,24,05,15,12,18,29,25,23,,,,,1.77,0.91,1.52*13
$GNGSA,A,3,80,69,73,85,,,,,,,,,1.77,0.91,1.52*1D
$GPGSV,4,1,16,05,56,057,22,12,61,029,30,13,15,127,,15,34,160,26*71
$GPGSV,4,2,16,18,34,266,23,20,24,038,,22,00,138,,23,27,206,21*73
$GPGSV,4,3,16,24,44,195,17,25,38,343,36,29,10,329,24,36,52,277,*7D
$GPGSV,4,4,16,40,86,351,,41,58,082,,49,32,274,,50,10,089,*79
$GLGSV,3,1,10,68,16,085,,69,29,136,25,70,08,199,,73,47,331,30*6E
$GLGSV,3,2,10,74,04,334,,79,16,154,,80,71,154,16,83,08,004,*61
$GLGSV,3,3,10,84,23,312,,85,11,262,21*61
$GNGLL,0419.89886,S,05539.61409,E,054313.00,A,A*61
$GNGRS,054313.00,1,12.7,-7.2,-4.4,-0.3,2.0,3.9,1.0,-7.9,,,,*65
$GNGRS,054313.00,1,3.6,-3.1,0.3,-9.9,,,,,,,,*54
$GNGST,054313.00,43,,,,3.2,6.0,10*66
$GNZDA,054313.00,28,05,2025,00,00*72
$GNGBS,054313.00,3.2,6.0,10.3,,,,*6A
$GNTXT,01,01,01,More than 100 frame errors, UART RX was disabled*70
b0L89=~"
"
&s,#&WQ
I{4V_:R 
Y
pDUEFI/K*JNOPGST8UbU
RO$GNRMC,054314.00,A,0419.89864,S,05539.61431,E,0.988,,280525,,,A*79
$GNVTG,,T,,M,0.988,N,1.830,K,A*3E
$GNGNS,054314.00,0419.89864,S,05539.61431,E,AA,12,0.91,13.4,-47.6,,*6B
$GNGGA,054314.00,0419.89864,S,05539.61431,E,1,12,0.91,13.4,M,-47.6,M,,*41
$GNGSA,A,3,24,05,15,12,18,29,25,23,,,,,1.77,0.91,1.52*13
$GNGSA,A,3,80,69,73,85,,,,,,,,,1.77,0.91,1.52*1D
$GPGSV,4,1,16,05,56,057,21,12,61,029,29,13,15,126,,15,34,160,25*78
$GPGSV,4,2,16,18,34,266,22,20,24,038,,22,00,138,,23,27,206,20*73
$GPGSV,4,3,16,24,44,195,18,25,38,343,35,29,10,329,24,36,52,277,*71
$GPGSV,4,4,16,40,86,351,,41,58,082,,49,32,274,,50,10,089,*79
$GLGSV,3,1,10,68,16,085,,69,29,136,23,70,08,199,,73,47,331,30*68
$GLGSV,3,2,10,74,04,334,,79,16,154,,80,71,154,14,83,08,004,*63
$GLGSV,3,3,10,84,23,312,,85,11,262,21*61
$GNGLL,0419.89864,S,05539.61431,E,054314.00,A,A*61
$GNGRS,054314.00,1,12.7,-5.6,-8.0,2.0,3.8,2.8,0.8,-6.5,,,,*4D
$GNGRS,054314.00,1,4.2,-2.8,-2.1,-10.7,,,,,,,,*43
$GNGST,054314.00,44,,,,3.2,6.1,10*67
$GNZDA,054314.00,28,05,2025,00,00*75
$GNGBS,054314.00,3.2,6.1,10.5,,,,*6A
$GNTXT,01,01,01,More than 100 frame errors, UART RX was disabled*70
b0L89=~"
"
&,%&W1
I{4V_:R 
Y
pDUE(FI /K;JNOPGST8U=bU
:O^$GNRMC,054315.00,A,0419.89860,S,05539.61436,E,0.262,,280525,,,A*74
$GNVTG,,T,,M,0.262,N,0.485,K,A*32
$GNGNS,054315.00,0419.89860,S,05539.61436,E,AA,12,0.91,13.5,-47.6,,*68
$GNGGA,054315.00,0419.89860,S,05539.61436,E,1,12,0.91,13.5,M,-47.6,M,,*42
$GNGSA,A,3,24,05,15,12,18,29,25,23,,,,,1.77,0.91,1.52*13
$GNGSA,A,3,80,69,73,85,,,,,,,,,1.77,0.91,1.52*1D
$GPGSV,4,1,16,05,56,057,21,12,61,029,28,13,15,126,,15,34,160,26*7A
$GPGSV,4,2,16,18,34,266,24,20,24,038,,22,00,138,,23,27,206,20*75
$GPGSV,4,3,16,24,44,195,18,25,38,343,37,29,10,329,25,36,52,277,*72
$GPGSV,4,4,16,40,86,351,,41,58,082,,49,32,274,,50,10,089,*79
$GLGSV,3,1,10,68,16,085,,69,29,136,24,70,08,199,,73,47,331,32*6D
$GLGSV,3,2,10,74,04,334,,79,16,154,,80,71,154,16,83,08,004,*61
$GLGSV,3,3,10,84,23,312,,85,11,262,21*61
$GNGLL,0419.89860,S,05539.61436,E,054315.00,A,A*63
$GNGRS,054315.00,1,12.3,-3.3,-8.6,6.8,2.9,3.8,0.5,-5.5,,,,*4E
$GNGRS,054315.00,1,4.2,-4.7,-2.0,-9.6,,,,,,,,*73
$GNGST,054315.00,42,,,,3.3,6.1,11*60
$GNZDA,054315.00,28,05,2025,00,00*74
$GNGBS,054315.00,3.3,6.1,10.5,,,,*6A
$GNTXT,01,01,01,More than 100 frame errors, UART RX was disabled*70
b0Lp89V =n~"F
"
&,>%&WJ
IU{4V_:R 
Y
pDUEFI!/KJNOPGST8UbpU
"O6S$GNRMC,054316.00,A,0419.89857,S,05539.61437,E,0.150,,280525,,,A*70
$GNVTG,,T,,M,0.150,N,0.277,K,A*3B
$GNGNS,054316.00,0419.89857,S,05539.61437,E,AA,12,0.91,13.7,-47.6,,*6C
$GNGGA,054316.00,0419.89857,S,05539.61437,E,1,12,0.91,13.7,M,-47.6,M,,*46
$GNGSA,A,3,24,05,15,12,18,29,25,23,,,,,1.77,0.91,1.52*13
$GNGSA,A,3,80,69,73,85,,,,,,,,,1.77,0.91,1.52*1D
$GPGSV,4,1,16,05,56,057,22,12,61,029,32,13,15,126,,15,34,159,27*79
$GPGSV,4,2,16,18,34,266,26,20,24,038,,22,00,138,,23,27,206,22*75
$GPGSV,4,3,16,24,44,195,19,25,38,343,37,29,10,329,31,36,52,277,*76
$GPGSV,4,4,16,40,86,351,,41,58,082,,49,32,274,,50,10,089,*79
$GLGSV,3,1,10,68,16,085,,69,29,136,24,70,08,199,,73,47,331,33*6C
$GLGSV,3,2,10,74,04,334,,79,16,154,,80,71,154,17,83,08,004,*60
$GLGSV,3,3,10,84,23,312,,85,11,262,21*61
$GNGLL,0419.89857,S,05539.61437,E,054316.00,A,A*65
$GNGRS,054316.00,1,10.9,-4.3,-7.0,6.2,2.7,0.9,0.7,-2.9,,,,*44
$GNGRS,054316.00,1,4.0,-6.1,-1.2,-10.6,,,,,,,,*4F
$GNGST,054316.00,40,,,,3.2,6.1,10*61
$GNZDA,054316.00,28,05,2025,00,00*77
$GNGBS,054316.00,3.2,6.1,10.3,,,,*6E
$GNTXT,01,01,01,More than 100 frame errors, UART RX was disabled*70
b0LX89(=~"
"
f&@,]"&W/
Ic{4V_:R 
Y
pDUEFI/K]JNOPGST8UbXU

P$GNRMC,054317.00,A,0419.89859,S,05539.61430,E,0.490,,280525,,,A*71
$GNVTG,,T,,M,0.490,N,0.908,K,A*31
$GNGNS,054317.00,0419.89859,S,05539.61430,E,AA,11,0.95,13.8,-47.6,,*6C
$GNGGA,054317.00,0419.89859,S,05539.61430,E,1,11,0.95,13.8,M,-47.6,M,,*46
$GNGSA,A,3,05,15,12,18,29,25,23,,,,,,1.83,0.95,1.56*1E
$GNGSA,A,3,80,69,73,85,,,,,,,,,1.83,0.95,1.56*16
$GPGSV,4,1,16,05,56,057,21,12,61,029,27,13,15,126,,15,34,159,26*7F
$GPGSV,4,2,16,18,34,266,24,20,24,038,,22,00,138,,23,27,206,20*75
$GPGSV,4,3,16,24,44,195,20,25,38,343,34,29,10,329,25,36,52,277,*7A
$GPGSV,4,4,16,40,86,351,,41,58,082,,49,32,274,,50,10,089,*79
$GLGSV,3,1,10,68,16,085,,69,29,136,23,70,08,199,,73,47,331,31*69
$GLGSV,3,2,10,74,04,334,,79,16,154,,80,71,154,19,83,08,004,*6E
$GLGSV,3,3,10,84,23,312,,85,11,262,21*61
$GNGLL,0419.89859,S,05539.61430,E,054317.00,A,A*6D
$GNGRS,054317.00,1,-2.2,-10.5,1.3,3.6,1.0,0.5,-4.5,,,,,*61
$GNGRS,054317.00,1,4.6,-3.4,-1.6,-10.6,,,,,,,,*4C
$GNGST,054317.00,41,,,,3.3,6.1,10*60
$GNZDA,054317.00,28,05,2025,00,00*76
$GNGBS,054317.00,3.3,6.1,10.3,,,,*6E
$GNTXT,01,01,01,More than 100 frame errors, UART RX was disabled*70
b0X@89@0=S~"
"
J&,e#&W[
I{4V_:R 
Y
pDUEFI/KJNOPGoST8UNb@U
P"$GNRMC,054318.00,A,0419.89846,S,05539.61446,E,0.677,,280525,,,A*7A
$GNVTG,,T,,M,0.677,N,1.253,K,A*3E
$GNGNS,054318.00,0419.89846,S,05539.61446,E,AA,11,0.95,13.7,-47.6,,*63
$GNGGA,054318.00,0419.89846,S,05539.61446,E,1,11,0.95,13.7,M,-47.6,M,,*49
$GNGSA,A,3,05,15,12,18,29,25,23,,,,,,1.83,0.95,1.56*1E
$GNGSA,A,3,80,69,73,85,,,,,,,,,1.83,0.95,1.56*16
$GPGSV,4,1,16,05,56,057,22,12,61,029,28,13,15,126,,15,34,159,28*7D
$GPGSV,4,2,16,18,34,266,23,20,24,038,,22,00,138,,23,27,206,19*78
$GPGSV,4,3,16,24,44,195,21,25,38,343,35,29,10,329,26,36,52,277,*79
$GPGSV,4,4,16,40,86,351,,41,58,082,,49,32,274,,50,10,089,*79
$GLGSV,3,1,10,68,16,085,,69,29,136,23,70,08,199,,73,47,331,31*69
$GLGSV,3,2,10,74,04,334,,79,16,154,,80,71,154,16,83,08,004,*61
$GLGSV,3,3,10,84,23,312,,85,11,262,21*61
$GNGLL,0419.89846,S,05539.61446,E,054318.00,A,A*6D
$GNGRS,054318.00,1,-1.9,-11.2,3.4,3.3,4.2,0.9,-6.0,,,,,*6C
$GNGRS,054318.00,1,6.2,-3.0,-0.4,-9.5,,,,,,,,*79
$GNGST,054318.00,41,,,,3.3,6.2,10*6C
$GNZDA,054318.00,28,05,2025,00,00*79
$GNGBS,054318.00,3.3,6.2,10.3,,,,*62
$GNTXT,01,01,01,More than 100 frame errors, UART RX was disabled*70
b0X(890=~"
"
&_,%&WY
I{4V_:R 
Y
pDUEFI#/K|JNOPG.ST8Ub(U
P$GNRMC,054319.00,A,0419.89834,S,05539.61455,E,0.320,,280525,,,A*7B
$GNVTG,,T,,M,0.320,N,0.593,K,A*33
$GNGNS,054319.00,0419.89834,S,05539.61455,E,AA,11,0.95,13.7,-47.6,,*65
$GNGGA,054319.00,0419.89834,S,05539.61455,E,1,11,0.95,13.7,M,-47.6,M,,*4F
$GNGSA,A,3,05,15,12,18,29,25,23,,,,,,1.83,0.95,1.56*1E
$GNGSA,A,3,80,69,73,85,,,,,,,,,1.83,0.95,1.56*16
$GPGSV,4,1,16,05,56,057,21,12,61,029,28,13,15,126,,15,34,159,27*71
$GPGSV,4,2,16,18,34,266,22,20,24,038,,22,00,138,,23,27,206,22*71
$GPGSV,4,3,16,24,44,195,20,25,38,343,37,29,10,329,28,36,52,277,*74
$GPGSV,4,4,16,40,86,351,,41,58,082,,49,32,274,,50,10,089,*79
$GLGSV,3,1,10,68,16,085,,69,29,136,26,70,08,199,,73,47,331,35*68
$GLGSV,3,2,10,74,04,334,,79,16,154,,80,71,154,16,83,08,004,*61
$GLGSV,3,3,10,84,23,312,,85,11,262,21*61
$GNGLL,0419.89834,S,05539.61455,E,054319.00,A,A*6B
$GNGRS,054319.00,1,-3.8,-10.4,4.8,2.2,4.3,0.9,-4.2,,,,,*63
$GNGRS,054319.00,1,5.6,-1.1,1.2,-10.2,,,,,,,,*69
$GNGST,054319.00,39,,,,3.3,6.2,10*62
$GNZDA,054319.00,28,05,2025,00,00*78
$GNGBS,054319.00,3.3,6.2,10.3,,,,*63
$GNTXT,01,01,01,More than 100 frame errors, UART RX was disabled*70
b0L89=~"
"
 &g,-"&W?
I#{4V_:R 
Y
pDUEFI/KJNOPG?ST8U4bU
P$GNRMC,054320.00,A,0419.89841,S,05539.61439,E,0.638,,280525,,,A*75
$GNVTG,,T,,M,0.638,N,1.182,K,A*3A
$GNGNS,054320.00,0419.89841,S,05539.61439,E,AA,12,0.91,14.1,-47.6,,*61
$GNGGA,054320.00,0419.89841,S,05539.61439,E,1,12,0.91,14.1,M,-47.6,M,,*4B
$GNGSA,A,3,24,05,15,12,18,29,25,23,,,,,1.77,0.91,1.52*13
$GNGSA,A,3,80,69,73,85,,,,,,,,,1.77,0.91,1.52*1D
$GPGSV,4,1,16,05,56,057,22,12,61,029,28,13,15,126,,15,34,159,27*72
$GPGSV,4,2,16,18,34,266,25,20,24,038,,22,00,138,,23,27,206,24*70
$GPGSV,4,3,16,24,44,195,21,25,38,343,34,29,10,329,27,36,52,277,*79
$GPGSV,4,4,16,40,86,351,,41,58,082,,49,32,274,,50,10,089,*79
$GLGSV,3,1,10,68,16,085,,69,29,136,25,70,08,199,,73,47,331,31*6F
$GLGSV,3,2,10,74,04,334,,79,16,154,,80,71,154,18,83,08,004,*6F
$GLGSV,3,3,10,84,23,312,,85,11,262,20*60
$GNGLL,0419.89841,S,05539.61439,E,054320.00,A,A*69
$GNGRS,054320.00,1,13.2,-3.1,-8.6,6.5,0.3,0.3,0.6,-1.5,,,,*40
$GNGRS,054320.00,1,8.3,-0.8,-3.5,-11.0,,,,,,,,*48
$GNGST,054320.00,39,,,,3.3,6.2,10*68
$GNZDA,054320.00,28,05,2025,00,00*72
$GNGBS,054320.00,3.3,6.2,10.2,,,,*68
$GNTXT,01,01,01,More than 100 frame errors, UART RX was disabled*70
b0X890=~"k
"
&i,#&W<
I{4V_:R 
Y
pDUEWFI /KJNOPGST8XUMbU
PmK$GNRMC,054321.00,A,0419.89849,S,05539.61423,E,0.534,,280525,,,A*78
$GNVTG,,T,,M,0.534,N,0.990,K,A*3F
$GNGNS,054321.00,0419.89849,S,05539.61423,E,AA,12,0.91,14.2,-47.6,,*60
$GNGGA,054321.00,0419.89849,S,05539.61423,E,1,12,0.91,14.2,M,-47.6,M,,*4A
$GNGSA,A,3,24,05,15,12,18,29,25,23,,,,,1.77,0.91,1.52*13
$GNGSA,A,3,80,69,73,85,,,,,,,,,1.77,0.91,1.52*1D
$GPGSV,4,1,16,05,56,057,22,12,61,029,30,13,15,126,,15,34,159,27*7B
$GPGSV,4,2,16,18,34,266,25,20,24,038,,22,00,138,,23,27,206,22*76
$GPGSV,4,3,16,24,44,195,22,25,38,343,35,29,10,329,26,36,52,277,*7A
$GPGSV,4,4,16,40,86,351,,41,58,082,,49,32,274,,50,10,089,*79
$GLGSV,3,1,10,68,16,085,,69,29,136,26,70,08,199,,73,47,331,32*6F
$GLGSV,3,2,10,74,04,334,,79,16,154,,80,71,154,19,83,08,004,*6E
$GLGSV,3,3,10,84,23,312,14,85,11,262,19*6F
$GNGLL,0419.89849,S,05539.61423,E,054321.00,A,A*6B
$GNGRS,054321.00,1,10.5,-3.2,-6.6,-0.6,0.0,5.0,0.6,1.0,,,,*4D
$GNGRS,054321.00,1,9.2,0.9,-2.5,-11.2,,,,,,,,*66
$GNGST,054321.00,38,,,,3.3,6.1,10*6B
$GNZDA,054321.00,28,05,2025,00,00*73
$GNGBS,054321.00,3.3,6.1,10.1,,,,*69
$GNTXT,01,01,01,More than 100 frame errors, UART RX was disabled*70
b0X89E0=~"
"
9&H,%&WC
Is{4V_:R 
Y
pDUEFI /KJNOPGST8UnbU
PE$GNRMC,054322.00,A,0419.89847,S,05539.61433,E,0.470,,280525,,,A*75
$GNVTG,,T,,M,0.470,N,0.871,K,A*30
$GNGNS,054322.00,0419.89847,S,05539.61433,E,AA,12,0.91,14.2,-47.6,,*6C
$GNGGA,054322.00,0419.89847,S,05539.61433,E,1,12,0.91,14.2,M,-47.6,M,,*46
$GNGSA,A,3,24,05,15,12,18,29,25,23,,,,,1.77,0.91,1.52*13
$GNGSA,A,3,80,69,73,85,,,,,,,,,1.77,0.91,1.52*1D
$GPGSV,4,1,15,05,56,057,22,12,61,029,30,13,15,126,,15,34,159,28*77
$GPGSV,4,2,15,18,34,266,26,20,24,038,,23,27,206,20,24,44,195,22*75
$GPGSV,4,3,15,25,38,343,37,29,10,329,26,36,52,277,,40,86,351,*7D
$GPGSV,4,4,15,41,58,082,,49,32,274,,50,10,089,*47
$GLGSV,3,1,10,68,16,085,,69,29,136,23,70,08,199,,73,47,331,32*6A
$GLGSV,3,2,10,74,04,334,,79,16,154,,80,71,154,17,83,08,004,*60
$GLGSV,3,3,10,84,23,312,,85,11,262,20*60
$GNGLL,0419.89847,S,05539.61433,E,054322.00,A,A*67
$GNGRS,054322.00,1,13.0,-1.9,-10.3,4.0,0.6,-1.4,0.7,3.3,,,,*77
$GNGRS,054322.00,1,9.6,2.3,-0.5,-13.1,,,,,,,,*6A
$GNGST,054322.00,40,,,,3.3,6.1,10*67
$GNZDA,054322.00,28,05,2025,00,00*70
$GNGBS,054322.00,3.3,6.1,10.2,,,,*69
$GNTXT,01,01,01,More than 100 frame errors, UART RX was disabled*70
b0@89=
~"
 "
&,%&WV
I{4V_:R 
Y
pDUEpFI /KJNOPGdST8U+tbU
zP$GNRMC,054323.00,A,0419.89847,S,05539.61440,E,0.176,,280525,,,A*73
$GNVTG,,T,,M,0.176,N,0.326,K,A*3A
$GNGNS,054323.00,0419.89847,S,05539.61440,E,AA,12,0.91,14.2,-47.6,,*69
$GNGGA,054323.00,0419.89847,S,05539.61440,E,1,12,0.91,14.2,M,-47.6,M,,*43
$GNGSA,A,3,24,05,15,12,18,29,25,23,,,,,1.77,0.91,1.52*13
$GNGSA,A,3,80,69,73,85,,,,,,,,,1.77,0.91,1.52*1D
$GPGSV,4,1,15,05,56,057,21,12,61,029,31,13,15,126,,15,34,159,29*74
$GPGSV,4,2,15,18,34,266,32,20,24,038,,23,27,206,21,24,44,195,25*76
$GPGSV,4,3,15,25,38,343,37,29,10,329,27,36,52,277,,40,86,351,*7C
$GPGSV,4,4,15,41,58,082,,49,32,274,,50,10,089,*47
$GLGSV,3,1,10,68,16,085,,69,29,136,25,70,08,199,,73,47,331,32*6C
$GLGSV,3,2,10,74,04,334,,79,16,154,,80,71,154,18,83,08,004,*6F
$GLGSV,3,3,10,84,23,312,,85,11,262,21*61
$GNGLL,0419.89847,S,05539.61440,E,054323.00,A,A*62
$GNGRS,054323.00,1,15.1,-5.8,-2.7,2.7,-0.8,5.0,0.9,4.4,,,,*42
$GNGRS,054323.00,1,8.7,3.7,-2.5,-12.7,,,,,,,,*6B
$GNGST,054323.00,38,,,,3.2,6.0,10*69
$GNZDA,054323.00,28,05,2025,00,00*71
$GNGBS,054323.00,3.2,6.0,10.1,,,,*6B
$GNTXT,01,01,01,More than 100 frame errors, UART RX was disabled*70
b0@89=~"f
"
&n,%&Wf
IC{4V_:R 
Y
pDUEFI!/KJNOPG
ST8UhbU
bP$GNRMC,054324.00,A,0419.89844,S,05539.61443,E,0.080,,280525,,,A*7C
$GNVTG,,T,,M,0.080,N,0.149,K,A*39
$GNGNS,054324.00,0419.89844,S,05539.61443,E,AA,12,0.91,14.2,-47.6,,*6E
$GNGGA,054324.00,0419.89844,S,05539.61443,E,1,12,0.91,14.2,M,-47.6,M,,*44
$GNGSA,A,3,24,05,15,12,18,29,25,23,,,,,1.77,0.91,1.52*13
$GNGSA,A,3,80,69,73,85,,,,,,,,,1.77,0.91,1.52*1D
$GPGSV,4,1,15,05,56,057,21,12,61,029,31,13,15,126,,15,34,159,29*74
$GPGSV,4,2,15,18,34,266,29,20,24,038,16,23,27,206,24,24,44,194,24*7E
$GPGSV,4,3,15,25,38,343,37,29,10,329,27,36,52,277,,40,86,351,*7C
$GPGSV,4,4,15,41,58,082,,49,32,274,,50,10,089,*47
$GLGSV,3,1,10,68,16,085,,69,29,136,24,70,08,199,,73,47,331,33*6C
$GLGSV,3,2,10,74,04,334,,79,16,154,,80,71,154,27,83,08,004,*63
$GLGSV,3,3,10,84,23,312,,85,11,262,20*60
$GNGLL,0419.89844,S,05539.61443,E,054324.00,A,A*65
$GNGRS,054324.00,1,14.6,-5.8,-9.2,-1.1,-2.4,3.2,1.0,2.2,,,,*67
$GNGRS,054324.00,1,7.8,2.5,-5.5,-11.8,,,,,,,,*64
$GNGST,054324.00,35,,,,3.2,5.9,10*69
$GNZDA,054324.00,28,05,2025,00,00*76
$GNGBS,054324.00,3.2,5.9,10.0,,,,*67
$GNTXT,01,01,01,More than 100 frame errors, UART RX was disabled*70
b0@89=N~"
"
&KE,%&Wc
Iv{4V_:R 
Y
pDUEFI!/KJNOPG#ST8UbU
J!P$GNRMC,054325.00,A,0419.89839,S,05539.61450,E,0.093,,280525,,,A*77
$GNVTG,,T,,M,0.093,N,0.172,K,A*33
$GNGNS,054325.00,0419.89839,S,05539.61450,E,AA,12,0.91,14.2,-47.6,,*67
$GNGGA,054325.00,0419.89839,S,05539.61450,E,1,12,0.91,14.2,M,-47.6,M,,*4D
$GNGSA,A,3,24,05,15,12,18,29,25,23,,,,,1.77,0.91,1.52*13
$GNGSA,A,3,80,69,73,85,,,,,,,,,1.77,0.91,1.52*1D
$GPGSV,4,1,15,05,56,057,20,12,61,029,31,13,15,126,,15,34,159,29*75
$GPGSV,4,2,15,18,34,266,27,20,24,038,14,23,27,206,23,24,44,194,20*71
$GPGSV,4,3,15,25,38,343,37,29,10,329,26,36,52,277,,40,86,351,*7D
$GPGSV,4,4,15,41,58,082,,49,32,274,,50,10,089,*47
$GLGSV,3,1,10,68,16,085,,69,29,136,23,70,08,199,,73,47,331,33*6B
$GLGSV,3,2,10,74,04,334,,79,16,154,,80,71,154,13,83,08,004,*64
$GLGSV,3,3,10,84,23,312,,85,11,262,21*61
$GNGLL,0419.89839,S,05539.61450,E,054325.00,A,A*6C
$GNGRS,054325.00,1,9.8,-7.8,-6.1,0.8,-0.8,1.2,1.0,0.7,,,,*74
$GNGRS,054325.00,1,10.6,2.1,-6.4,-12.6,,,,,,,,*56
$GNGST,054325.00,44,,,,3.2,5.9,10*6E
$GNZDA,054325.00,28,05,2025,00,00*77
$GNGBS,054325.00,3.2,5.9,9.9,,,,*57
$GNTXT,01,01,01,More than 100 frame errors, UART RX was disabled*70
b0@89=?~"z
"
'&A,&&Wt
I{4V_:R 
Y
pDUEFI"/KJNOPGST8UsebU
2%PS$GNRMC,054326.00,A,0419.89838,S,05539.61456,E,0.078,,280525,,,A*76
$GNVTG,,T,,M,0.078,N,0.145,K,A*32
$GNGNS,054326.00,0419.89838,S,05539.61456,E,AA,12,0.91,14.1,-47.6,,*60
$GNGGA,054326.00,0419.89838,S,05539.61456,E,1,12,0.91,14.1,M,-47.6,M,,*4A
$GNGSA,A,3,24,05,15,12,18,29,25,23,,,,,1.77,0.91,1.52*13
$GNGSA,A,3,80,69,73,85,,,,,,,,,1.77,0.91,1.52*1D
$GPGSV,4,1,15,05,56,057,23,12,61,029,29,13,15,126,,15,34,159,27*71
$GPGSV,4,2,15,18,34,266,28,20,24,038,14,23,27,206,21,24,44,194,23*7F
$GPGSV,4,3,15,25,38,343,38,29,10,329,26,36,52,277,,40,86,351,*72
$GPGSV,4,4,15,41,58,082,,49,32,274,,50,10,089,*47
$GLGSV,3,1,10,68,16,085,,69,29,136,25,70,08,199,,73,47,331,34*6A
$GLGSV,3,2,10,74,04,334,,79,16,154,,80,71,154,19,83,08,004,*6E
$GLGSV,3,3,10,84,23,312,,85,11,262,20*60
$GNGLL,0419.89838,S,05539.61456,E,054326.00,A,A*68
$GNGRS,054326.00,1,9.6,-5.4,-3.9,0.6,0.4,-1.2,1.2,0.6,,,,*7B
$GNGRS,054326.00,1,9.7,2.2,-5.1,-10.8,,,,,,,,*65
$GNGST,054326.00,37,,,,3.1,5.8,9.9*44
$GNZDA,054326.00,28,05,2025,00,00*74
$GNGBS,054326.00,3.1,5.8,9.9,,,,*56
$GNTXT,01,01,01,More than 100 frame errors, UART RX was disabled*70
b0@h89=~""
"
&F,%&W|
Il{4V_:R 
Y
pDUE_FI/KLJNOPG;ST8U!+bhU
)P}$GNRMC,054327.00,A,0419.89836,S,05539.61473,E,0.349,,280525,,,A*7F
$GNVTG,,T,,M,0.349,N,0.646,K,A*37
$GNGNS,054327.00,0419.89836,S,05539.61473,E,AA,12,0.91,13.8,-47.6,,*66
$GNGGA,054327.00,0419.89836,S,05539.61473,E,1,12,0.91,13.8,M,-47.6,M,,*4C
$GNGSA,A,3,24,05,15,12,18,29,25,23,,,,,1.77,0.91,1.52*13
$GNGSA,A,3,80,69,73,85,,,,,,,,,1.77,0.91,1.52*1D
$GPGSV,4,1,15,05,56,057,22,12,61,029,29,13,15,126,,15,34,159,27*70
$GPGSV,4,2,15,18,34,266,27,20,24,038,13,23,27,206,21,24,44,194,20*74
$GPGSV,4,3,15,25,38,343,37,29,10,329,26,36,52,277,,40,86,351,*7D
$GPGSV,4,4,15,41,58,082,,49,32,274,,50,10,089,*47
$GLGSV,3,1,10,68,16,085,,69,29,136,23,70,08,199,,73,47,331,30*68
$GLGSV,3,2,10,74,04,334,,79,16,154,,80,71,154,19,83,08,004,*6E
$GLGSV,3,3,10,84,23,312,,85,11,262,17*64
$GNGLL,0419.89836,S,05539.61473,E,054327.00,A,A*60
$GNGRS,054327.00,1,9.0,-6.2,-9.9,5.3,-3.5,-1.5,1.2,0.7,,,,*5A
$GNGRS,054327.00,1,10.8,3.5,-4.4,-8.0,,,,,,,,*60
$GNGST,054327.00,42,,,,3.1,5.8,9.9*47
$GNZDA,054327.00,28,05,2025,00,00*75
$GNGBS,054327.00,3.1,5.8,9.9,,,,*57
$GNTXT,01,01,01,More than 100 frame errors, UART RX was disabled*70
b0@P89=~"
"
&",#&W
I{4V_:R 
Y
pDUEFI/KJNOPGST8U#MbPU
-PU#$GNRMC,054328.00,A,0419.89836,S,05539.61482,E,0.131,,280525,,,A*73
$GNVTG,,T,,M,0.131,N,0.243,K,A*3B
$GNGNS,054328.00,0419.89836,S,05539.61482,E,AA,12,0.91,13.9,-47.6,,*66
$GNGGA,054328.00,0419.89836,S,05539.61482,E,1,12,0.91,13.9,M,-47.6,M,,*4C
$GNGSA,A,3,24,05,15,12,18,29,25,23,,,,,1.77,0.91,1.52*13
$GNGSA,A,3,80,69,73,85,,,,,,,,,1.77,0.91,1.52*1D
$GPGSV,4,1,15,05,56,057,21,12,61,029,28,13,15,126,,15,34,159,27*72
$GPGSV,4,2,15,18,34,266,26,20,24,038,13,23,27,206,20,24,44,194,19*7E
$GPGSV,4,3,15,25,38,343,35,29,10,329,25,36,52,277,,40,86,351,*7C
$GPGSV,4,4,15,41,58,082,,49,32,274,,50,10,089,*47
$GLGSV,3,1,10,68,16,085,,69,29,136,20,70,08,199,,73,47,331,29*63
$GLGSV,3,2,10,74,04,334,,79,16,154,,80,71,154,17,83,08,004,*60
$GLGSV,3,3,10,84,23,312,,85,11,262,15*66
$GNGLL,0419.89836,S,05539.61482,E,054328.00,A,A*61
$GNGRS,054328.00,1,10.2,-8.7,-7.5,4.6,-5.7,-2.4,1.3,-0.2,,,,*4D
$GNGRS,054328.00,1,13.0,5.2,-5.5,-7.6,,,,,,,,*6C
$GNGST,054328.00,45,,,,3.1,5.8,10*60
$GNZDA,054328.00,28,05,2025,00,00*7A
$GNGBS,054328.00,3.1,5.8,9.9,,,,*58
$GNTXT,01,01,01,More than 100 frame errors, UART RX was disabled*70
b0@889-=~"F
"
o&W,!&Ww
I2{4V_:R 
Y
pDUE>FI/K
JNOPGST8U
b8U
0P,$GNRMC,054329.00,A,0419.89837,S,05539.61476,E,0.132,,280525,,,A*7B
$GNVTG,,T,,M,0.132,N,0.244,K,A*3F
$GNGNS,054329.00,0419.89837,S,05539.61476,E,AA,13,0.77,14.2,-47.6,,*68
$GNGGA,054329.00,0419.89837,S,05539.61476,E,1,12,0.77,14.2,M,-47.6,M,,*43
$GNGSA,A,3,24,05,20,15,12,18,29,25,23,,,,1.54,0.77,1.33*1F
$GNGSA,A,3,80,69,73,85,,,,,,,,,1.54,0.77,1.33*13
$GPGSV,4,1,15,05,56,057,23,12,61,029,27,13,15,126,,15,34,159,26*7E
$GPGSV,4,2,15,18,34,266,27,20,24,038,13,23,27,206,20,24,44,194,22*77
$GPGSV,4,3,15,25,38,343,33,29,10,329,25,36,52,277,,40,86,351,*7A
$GPGSV,4,4,15,41,58,082,,49,32,274,,50,10,089,*47
$GLGSV,3,1,10,68,16,085,,69,29,136,17,70,08,199,,73,47,331,30*6F
$GLGSV,3,2,10,74,04,334,,79,16,154,,80,71,154,18,83,08,004,*6F
$GLGSV,3,3,10,84,23,312,,85,11,262,12*61
$GNGLL,0419.89837,S,05539.61476,E,054329.00,A,A*6A
$GNGRS,054329.00,1,9.1,-7.2,-16.1,-1.9,1.8,1.1,-2.1,1.2,-1.7,,,*66
$GNGRS,054329.00,1,12.0,5.7,-2.5,-7.8,,,,,,,,*60
$GNGST,054329.00,47,,,,3.2,5.8,10*60
$GNZDA,054329.00,28,05,2025,00,00*7B
$GNGBS,054329.00,3.2,5.8,10.0,,,,*6B
$GNTXT,01,01,01,More than 100 frame errors, UART RX was disabled*70
b0@ 89=>~"m
"
&","&Wm
I{4V_:R 
Y
pDUE<FI/KJNOPG@ST8UYb U
4P$GNRMC,054330.00,A,0419.89832,S,05539.61477,E,0.429,,280525,,,A*78
$GNVTG,,T,,M,0.429,N,0.794,K,A*38
$GNGNS,054330.00,0419.89832,S,05539.61477,E,AA,13,0.77,14.2,-47.6,,*64
$GNGGA,054330.00,0419.89832,S,05539.61477,E,1,12,0.77,14.2,M,-47.6,M,,*4F
$GNGSA,A,3,24,05,20,15,12,18,29,25,23,,,,1.54,0.77,1.33*1F
$GNGSA,A,3,80,69,73,85,,,,,,,,,1.54,0.77,1.33*13
$GPGSV,4,1,15,05,56,057,21,12,61,029,28,13,15,126,,15,34,159,25*70
$GPGSV,4,2,15,18,34,266,26,20,24,038,14,23,27,206,20,24,44,194,22*71
$GPGSV,4,3,15,25,38,343,34,29,10,329,25,36,52,277,,40,86,351,*7D
$GPGSV,4,4,15,41,58,082,,49,32,274,,50,10,089,*47
$GLGSV,3,1,10,68,16,085,,69,29,136,18,70,08,199,,73,47,331,30*60
$GLGSV,3,2,10,74,04,334,,79,16,154,,80,71,154,19,83,08,004,*6E
$GLGSV,3,3,10,84,23,312,,85,11,262,12*61
$GNGLL,0419.89832,S,05539.61477,E,054330.00,A,A*66
$GNGRS,054330.00,1,7.7,-5.8,-17.6,-1.5,-1.9,-2.4,-0.5,1.1,-1.0,,,*61
$GNGRS,054330.00,1,10.9,5.7,-3.0,-8.1,,,,,,,,*61
$GNGST,054330.00,83147,,,,3.2,5.8,10*52
$GNZDA,054330.00,28,05,2025,00,00*73
$GNGBS,054330.00,3.2,5.8,10.0,,,,*63
$GNTXT,01,01,01,More than 100 frame errors, UART RX was disabled*70
b0@89 =4~"
"
&,%&Wq
I{4V_:R 
Y
pDUEFFI"/K&JNOPGST8UmbU
8PX$GNRMC,054331.00,A,0419.89826,S,05539.61479,E,0.256,,280525,,,A*7C
$GNVTG,,T,,M,0.256,N,0.475,K,A*3A
$GNGNS,054331.00,0419.89826,S,05539.61479,E,AA,13,0.77,14.0,-47.6,,*6C
$GNGGA,054331.00,0419.89826,S,05539.61479,E,1,12,0.77,14.0,M,-47.6,M,,*47
$GNGSA,A,3,24,05,20,15,12,18,29,25,23,,,,1.54,0.77,1.33*1F
$GNGSA,A,3,80,69,73,85,,,,,,,,,1.54,0.77,1.33*13
$GPGSV,4,1,15,05,56,057,22,12,61,029,32,13,15,126,,15,34,159,31*7D
$GPGSV,4,2,15,18,34,266,25,20,24,038,14,23,27,206,22,24,44,194,20*72
$GPGSV,4,3,15,25,38,343,37,29,10,329,26,36,52,277,,40,86,351,*7D
$GPGSV,4,4,15,41,58,082,,49,32,274,,50,10,089,*47
$GLGSV,3,1,10,68,16,085,,69,29,136,19,70,08,199,,73,47,331,34*65
$GLGSV,3,2,10,74,04,334,,79,16,154,,80,71,154,19,83,08,004,*6E
$GLGSV,3,3,10,84,23,312,,85,11,262,19*6A
$GNGLL,0419.89826,S,05539.61479,E,054331.00,A,A*6C
$GNGRS,054331.00,1,6.8,-8.9,-13.1,-3.5,-4.6,-2.8,-0.4,1.1,-0.2,,,*67
$GNGRS,054331.00,1,10.3,3.3,-4.7,-8.4,,,,,,,,*6D
$GNGST,054331.00,83147,,,,3.2,5.9,10*52
$GNZDA,054331.00,28,05,2025,00,00*72
$GNGBS,054331.00,3.2,5.9,10.0,,,,*63
$GNTXT,01,01,01,More than 100 frame errors, UART RX was disabled*70
b0@89=~"k
"
&,%&Wu
I{4V_:R 
Y
pDUEFI"/KqJNOPGST8U@0bU
<P$GNRMC,054332.00,A,0419.89821,S,05539.61489,E,0.301,,280525,,,A*74
$GNVTG,,T,,M,0.301,N,0.557,K,A*38
$GNGNS,054332.00,0419.89821,S,05539.61489,E,AA,13,0.77,14.0,-47.6,,*67
$GNGGA,054332.00,0419.89821,S,05539.61489,E,1,12,0.77,14.0,M,-47.6,M,,*4C
$GNGSA,A,3,24,05,20,15,12,18,29,25,23,,,,1.54,0.77,1.33*1F
$GNGSA,A,3,80,69,73,85,,,,,,,,,1.54,0.77,1.33*13
$GPGSV,4,1,15,05,56,057,22,12,61,029,26,13,15,126,,15,34,159,26*7E
$GPGSV,4,2,15,18,34,266,31,20,24,038,14,23,27,206,19,24,44,194,20*7F
$GPGSV,4,3,15,25,38,343,37,29,10,329,26,36,52,277,,40,86,351,*7D
$GPGSV,4,4,15,41,58,082,,49,32,274,,50,10,089,*47
$GLGSV,3,1,10,68,16,085,,69,29,136,22,70,08,199,,73,47,331,34*6D
$GLGSV,3,2,10,74,04,334,,79,16,154,,80,71,154,21,83,08,004,*65
$GLGSV,3,3,10,84,23,312,,85,11,262,18*6B
$GNGLL,0419.89821,S,05539.61489,E,054332.00,A,A*67
$GNGRS,054332.00,1,5.3,-8.9,-11.4,-4.0,-0.7,-3.0,-0.9,1.2,0.3,,,*47
$GNGRS,054332.00,1,9.7,1.7,-4.0,-8.1,,,,,,,,*56
$GNGST,054332.00,46,,,,3.2,5.8,10*6B
$GNZDA,054332.00,28,05,2025,00,00*71
$GNGBS,054332.00,3.2,5.8,10.0,,,,*61
$GNTXT,01,01,01,More than 100 frame errors, UART RX was disabled*70
b0@89=e~",
"
&v9, #&Wo
I{4V_:R 
Y
pDUEFI/KJNOPGST8UbU
@P$GNRMC,054333.00,A,0419.89824,S,05539.61480,E,0.112,,280525,,,A*79
$GNVTG,,T,,M,0.112,N,0.208,K,A*35
$GNGNS,054333.00,0419.89824,S,05539.61480,E,AA,13,0.77,14.0,-47.6,,*6A
$GNGGA,054333.00,0419.89824,S,05539.61480,E,1,12,0.77,14.0,M,-47.6,M,,*41
$GNGSA,A,3,24,05,20,15,12,18,29,25,23,,,,1.54,0.77,1.33*1F
$GNGSA,A,3,80,69,73,85,,,,,,,,,1.54,0.77,1.33*13
$GPGSV,4,1,15,05,56,057,21,12,61,029,27,13,15,126,,15,34,159,25*7F
$GPGSV,4,2,15,18,34,266,26,20,24,038,13,23,27,206,19,24,44,194,22*7C
$GPGSV,4,3,15,25,38,343,35,29,10,329,26,36,52,277,,40,86,351,*7F
$GPGSV,4,4,15,41,58,082,,49,32,274,,50,10,089,*47
$GLGSV,3,1,10,68,16,085,,69,29,136,21,70,08,199,,73,47,331,30*6A
$GLGSV,3,2,10,74,04,334,,79,16,154,,80,71,154,21,83,08,004,*65
$GLGSV,3,3,10,84,23,312,,85,11,262,15*66
$GNGLL,0419.89824,S,05539.61480,E,054333.00,A,A*6A
$GNGRS,054333.00,1,5.4,-8.5,-11.6,-2.1,-1.6,1.6,0.2,1.1,3.1,,,*45
$GNGRS,054333.00,1,7.1,1.5,-2.6,-7.7,,,,,,,,*54
$GNGST,054333.00,83147,,,,3.2,5.8,10*51
$GNZDA,054333.00,28,05,2025,00,00*70
$GNGBS,054333.00,3.2,5.8,10.0,,,,*60
$GNTXT,01,01,01,More than 100 frame errors, UART RX was disabled*70
b0@89!=~"
"
&t,%&Wh
I{4V_:R 
Y
pDUEFI/KJNOPGST8UBbU
rDPc$GNRMC,054334.00,A,0419.89824,S,05539.61470,E,0.147,,280525,,,A*71
$GNVTG,,T,,M,0.147,N,0.272,K,A*38
$GNGNS,054334.00,0419.89824,S,05539.61470,E,AA,13,0.77,14.1,-47.6,,*63
$GNGGA,054334.00,0419.89824,S,05539.61470,E,1,12,0.77,14.1,M,-47.6,M,,*48
$GNGSA,A,3,24,05,20,15,12,18,29,25,23,,,,1.54,0.77,1.33*1F
$GNGSA,A,3,80,69,73,85,,,,,,,,,1.54,0.77,1.33*13
$GPGSV,4,1,15,05,56,057,21,12,61,029,33,13,15,126,,15,34,159,23*7C
$GPGSV,4,2,15,18,34,266,26,20,24,038,11,23,27,206,19,24,44,194,25*79
$GPGSV,4,3,15,25,38,343,37,29,10,329,26,36,52,277,,40,86,351,*7D
$GPGSV,4,4,15,41,58,082,,49,32,274,,50,10,089,*47
$GLGSV,3,1,10,68,16,085,,69,29,136,21,70,08,199,,73,47,331,30*6A
$GLGSV,3,2,10,74,04,334,,79,16,154,,80,71,154,21,83,08,004,*65
$GLGSV,3,3,10,84,23,312,,85,11,262,09*6B
$GNGLL,0419.89824,S,05539.61470,E,054334.00,A,A*62
$GNGRS,054334.00,1,3.9,-8.3,-11.2,-2.7,1.4,2.0,1.5,1.0,3.7,,,*66
$GNGRS,054334.00,1,8.0,-0.4,-0.4,-8.2,,,,,,,,*7A
$GNGST,054334.00,83147,,,,3.2,5.8,10*56
$GNZDA,054334.00,28,05,2025,00,00*77
$GNGBS,054334.00,3.2,5.8,10.0,,,,*67
$GNTXT,01,01,01,More than 100 frame errors, UART RX was disabled*70
b0@89#=~"e
"
&q,$&Wj
I{4V_:R 
Y
pDUEFI/KJNOPG8ST8UuUbU
ZHP;$GNRMC,054335.00,A,0419.89824,S,05539.61459,E,0.081,,280525,,,A*70
$GNVTG,,T,,M,0.081,N,0.151,K,A*31
$GNGNS,054335.00,0419.89824,S,05539.61459,E,AA,13,0.77,14.3,-47.6,,*6B
$GNGGA,054335.00,0419.89824,S,05539.61459,E,1,12,0.77,14.3,M,-47.6,M,,*40
$GNGSA,A,3,24,05,20,15,12,18,29,25,23,,,,1.54,0.77,1.33*1F
$GNGSA,A,3,80,69,73,85,,,,,,,,,1.54,0.77,1.33*13
$GPGSV,4,1,15,05,56,057,22,12,61,029,30,13,15,126,,15,34,159,23*7C
$GPGSV,4,2,15,18,34,266,26,20,24,038,12,23,27,206,19,24,44,194,25*7A
$GPGSV,4,3,15,25,38,343,36,29,10,329,26,36,52,277,,40,86,351,*7C
$GPGSV,4,4,15,41,58,082,,49,32,274,,50,10,089,*47
$GLGSV,3,1,10,68,16,085,,69,29,136,19,70,08,199,,73,47,331,31*60
$GLGSV,3,2,10,74,04,334,,79,16,154,,80,71,154,22,83,08,004,*66
$GLGSV,3,3,10,84,23,312,,85,11,262,12*61
$GNGLL,0419.89824,S,05539.61459,E,054335.00,A,A*68
$GNGRS,054335.00,1,4.6,-7.3,-9.1,1.0,0.2,2.4,1.7,1.1,4.8,,,*7B
$GNGRS,054335.00,1,8.2,0.2,-0.5,6.9,,,,,,,,*7B
$GNGST,054335.00,51,,,,3.3,5.8,10*6B
$GNZDA,054335.00,28,05,2025,00,00*76
$GNGBS,054335.00,3.3,5.8,10.0,,,,*67
$GNTXT,01,01,01,More than 100 frame errors, UART RX was disabled*70
b0@89=~"
"
&+0,u!&Ws
I{4V_:R 
Y
pDUE&FI /KJNOPGjST8UJlbU
BLPQ$GNRMC,054336.00,A,0419.89836,S,05539.61458,E,0.164,,280525,,,A*7B
$GNVTG,,T,,M,0.164,N,0.304,K,A*39
$GNGNS,054336.00,0419.89836,S,05539.61458,E,AA,13,0.77,14.5,-47.6,,*6C
$GNGGA,054336.00,0419.89836,S,05539.61458,E,1,12,0.77,14.5,M,-47.6,M,,*47
$GNGSA,A,3,24,05,20,15,12,18,29,25,23,,,,1.54,0.77,1.33*1F
$GNGSA,A,3,80,69,73,85,,,,,,,,,1.54,0.77,1.33*13
$GPGSV,4,1,15,05,56,057,20,12,61,029,28,13,15,126,,15,34,159,23*77
$GPGSV,4,2,15,18,34,266,26,20,24,038,14,23,27,206,18,24,44,194,25*7D
$GPGSV,4,3,15,25,38,343,33,29,10,329,26,36,52,277,,40,86,351,*79
$GPGSV,4,4,15,41,58,082,,49,32,274,,50,10,089,*47
$GLGSV,3,1,10,68,16,085,,69,29,136,19,70,08,199,,73,47,331,32*63
$GLGSV,3,2,10,74,04,334,,79,16,154,,80,71,154,24,83,08,004,*60
$GLGSV,3,3,10,84,23,312,,85,11,262,12*61
$GNGLL,0419.89836,S,05539.61458,E,054336.00,A,A*69
$GNGRS,054336.00,1,3.7,-8.1,-9.8,4.4,4.4,-0.7,-0.4,1.2,5.6,,,*76
$GNGRS,054336.00,1,8.7,0.4,4.0,16.1,,,,,,,,*6E
$GNGST,054336.00,179599,,,,3.3,5.8,10*66
$GNZDA,054336.00,28,05,2025,00,00*75
$GNGBS,054336.00,3.3,5.8,10.0,,,,*64
$GNTXT,01,01,01,More than 100 frame errors, UART RX was disabled*70
b0@x89!=~"5
"
&,B%&W
Ij{4V_:R 
Y
pDUE<FI"/KiJNOPGST8U@,bxU
*PP$GNRMC,054337.00,A,0419.89843,S,05539.61467,E,0.136,,280525,,,A*73
$GNVTG,,T,,M,0.136,N,0.251,K,A*3F
$GNGNS,054337.00,0419.89843,S,05539.61467,E,AA,13,0.77,14.2,-47.6,,*64
$GNGGA,054337.00,0419.89843,S,05539.61467,E,1,12,0.77,14.2,M,-47.6,M,,*4F
$GNGSA,A,3,24,05,20,15,12,18,29,25,23,,,,1.54,0.77,1.33*1F
$GNGSA,A,3,80,69,73,85,,,,,,,,,1.54,0.77,1.33*13
$GPGSV,4,1,15,05,56,057,22,12,61,029,33,13,15,126,,15,34,159,22*7E
$GPGSV,4,2,15,18,34,266,28,20,24,038,14,23,27,206,17,24,44,194,25*7C
$GPGSV,4,3,15,25,38,343,37,29,10,329,28,36,52,277,,40,86,351,*73
$GPGSV,4,4,15,41,58,082,,49,32,274,,50,10,089,*47
$GLGSV,3,1,10,68,16,085,,69,29,136,21,70,08,199,,73,47,331,34*6E
$GLGSV,3,2,10,74,04,334,,79,16,154,,80,71,154,22,83,08,004,*66
$GLGSV,3,3,10,84,23,312,,85,11,262,20*60
$GNGLL,0419.89843,S,05539.61467,E,054337.00,A,A*66
$GNGRS,054337.00,1,5.8,-8.3,-8.8,3.1,2.2,-0.8,1.1,1.3,6.5,,,*58
$GNGRS,054337.00,1,7.7,0.6,-4.1,16.0,,,,,,,,*4F
$GNGST,054337.00,3299292,,,,3.3,5.8,10*55
$GNZDA,054337.00,28,05,2025,00,00*74
$GNGBS,054337.00,3.3,5.8,10.0,,,,*65
$GNTXT,01,01,01,More than 100 frame errors, UART RX was disabled*70
b0@`89 =~"H
"
Z&,)%&Wy
I{4V_:R 
Y
pDUEFI"/KJNOPGST8Ub`U
TP!$GNRMC,054338.00,A,0419.89848,S,05539.61461,E,0.251,,280525,,,A*73
$GNVTG,,T,,M,0.251,N,0.466,K,A*3F
$GNGNS,054338.00,0419.89848,S,05539.61461,E,AA,13,0.77,14.2,-47.6,,*66
$GNGGA,054338.00,0419.89848,S,05539.61461,E,1,12,0.77,14.2,M,-47.6,M,,*4D
$GNGSA,A,3,24,05,20,15,12,18,29,25,23,,,,1.54,0.77,1.33*1F
$GNGSA,A,3,80,69,73,85,,,,,,,,,1.54,0.77,1.33*13
$GPGSV,4,1,15,05,56,057,24,12,61,029,32,13,15,126,,15,34,159,23*78
$GPGSV,4,2,15,18,34,266,30,20,24,038,17,23,27,206,16,24,44,194,26*74
$GPGSV,4,3,15,25,38,343,37,29,10,329,27,36,52,277,,40,86,351,*7C
$GPGSV,4,4,15,41,58,082,27,49,32,274,,50,10,089,*42
$GLGSV,3,1,10,68,16,085,,69,29,136,24,70,08,199,,73,47,331,34*6B
$GLGSV,3,2,10,74,04,334,,79,16,154,,80,71,154,22,83,08,004,*66
$GLGSV,3,3,10,84,23,312,,85,11,262,16*65
$GNGLL,0419.89848,S,05539.61461,E,054338.00,A,A*64
$GNGRS,054338.00,1,5.5,-8.7,-8.7,0.7,-0.2,-1.7,1.7,1.2,12.5,,,*47
$GNGRS,054338.00,1,4.2,-0.5,-1.1,-7.9,,,,,,,,*79
$GNGST,054338.00,43,,,,3.3,5.7,9.9*45
$GNZDA,054338.00,28,05,2025,00,00*7B
$GNGBS,054338.00,3.3,5.7,9.9,,,,*54
$GNTXT,01,01,01,More than 100 frame errors, UART RX was disabled*70
b0@H89P!=f~"
"
&2,H%&WR
I{4V_:R 
Y
pDUEFI /KJNOPG^ST8UY^bHU
WP$GNRMC,054339.00,A,0419.89847,S,05539.61435,E,0.217,,280525,,,A*7E
$GNVTG,,T,,M,0.217,N,0.402,K,A*3F
$GNGNS,054339.00,0419.89847,S,05539.61435,E,AA,13,0.77,14.8,-47.6,,*63
$GNGGA,054339.00,0419.89847,S,05539.61435,E,1,12,0.77,14.8,M,-47.6,M,,*48
$GNGSA,A,3,24,05,20,15,12,18,29,25,23,,,,1.54,0.77,1.33*1F
$GNGSA,A,3,80,69,73,85,,,,,,,,,1.54,0.77,1.33*13
$GPGSV,4,1,15,05,56,057,29,12,61,029,33,13,15,126,,15,34,159,24*73
$GPGSV,4,2,15,18,34,266,28,20,24,038,19,23,27,206,16,24,44,194,27*72
$GPGSV,4,3,15,25,38,343,37,29,10,329,26,36,52,277,,40,86,351,*7D
$GPGSV,4,4,15,41,58,082,27,49,32,274,,50,10,089,*42
$GLGSV,3,1,10,68,16,085,,69,29,136,22,70,08,199,,73,47,331,32*6B
$GLGSV,3,2,10,74,04,334,,79,16,154,,80,71,154,22,83,08,004,*66
$GLGSV,3,3,10,84,23,312,,85,11,262,15*66
$GNGLL,0419.89847,S,05539.61435,E,054339.00,A,A*6B
$GNGRS,054339.00,1,3.3,-6.9,-10.1,-0.1,1.0,-3.7,1.5,0.8,13.3,,,*70
$GNGRS,054339.00,1,3.5,0.0,1.7,16.3,,,,,,,,*6C
$GNGST,054339.00,3299292,,,,3.3,5.7,9.8*7A
$GNZDA,054339.00,28,05,2025,00,00*7A
$GNGBS,054339.00,3.3,5.7,9.8,,,,*54
$GNTXT,01,01,01,More than 100 frame errors, UART RX was disabled*70
b0@089/!=~"B
"
w&,S%&WU
Ie{4V_:R 
Y
pDUEGFI"/KdJNOPG4ST8UOmb0U
[Pr$GNRMC,054340.00,A,0419.89851,S,05539.61426,E,0.046,,280525,,,A*73
$GNVTG,,T,,M,0.046,N,0.085,K,A*32
$GNGNS,054340.00,0419.89851,S,05539.61426,E,AA,13,0.77,14.7,-47.6,,*67
$GNGGA,054340.00,0419.89851,S,05539.61426,E,1,12,0.77,14.7,M,-47.6,M,,*4C
$GNGSA,A,3,24,05,20,15,12,18,29,25,23,,,,1.54,0.77,1.33*1F
$GNGSA,A,3,80,69,73,85,,,,,,,,,1.54,0.77,1.33*13
$GPGSV,4,1,15,05,56,057,20,12,61,029,33,13,15,126,,15,34,159,25*7B
$GPGSV,4,2,15,18,34,266,28,20,24,038,17,23,27,206,22,24,44,194,29*75
$GPGSV,4,3,15,25,38,343,37,29,10,329,26,36,52,277,,40,86,351,*7D
$GPGSV,4,4,15,41,58,082,,49,32,274,,50,10,089,*47
$GLGSV,3,1,10,68,16,085,,69,29,136,21,70,08,199,,73,47,331,34*6E
$GLGSV,3,2,10,74,04,334,,79,16,154,,80,71,154,22,83,08,004,*66
$GLGSV,3,3,10,84,23,312,,85,11,262,16*65
$GNGLL,0419.89851,S,05539.61426,E,054340.00,A,A*60
$GNGRS,054340.00,1,0.8,-7.2,-11.4,0.7,-3.6,1.2,1.0,0.8,9.8,,,*65
$GNGRS,054340.00,1,3.1,-1.9,-1.6,16.2,,,,,,,,*6E
$GNGST,054340.00,3299292,,,,3.2,5.6,9.8*74
$GNZDA,054340.00,28,05,2025,00,00*74
$GNGBS,054340.00,3.2,5.6,9.8,,,,*5A
$GNTXT,01,01,01,More than 100 frame errors, UART RX was disabled*70
b0@89&!=F~"
"
J&-,%&WC
I{4V_:R 
Y
pDUEFI /KJNOPGST8UAbU
_PKd$GNRMC,054341.00,A,0419.89865,S,05539.61401,E,0.169,,280525,,,A*7C
$GNVTG,,T,,M,0.169,N,0.313,K,A*32
$GNGNS,054341.00,0419.89865,S,05539.61401,E,AA,13,0.77,14.8,-47.6,,*6B
$GNGGA,054341.00,0419.89865,S,05539.61401,E,1,12,0.77,14.8,M,-47.6,M,,*40
$GNGSA,A,3,24,05,20,15,12,18,29,25,23,,,,1.54,0.77,1.33*1F
$GNGSA,A,3,80,69,73,85,,,,,,,,,1.54,0.77,1.33*13
$GPGSV,4,1,15,05,56,057,28,12,61,029,33,13,15,126,,15,34,159,25*73
$GPGSV,4,2,15,18,34,266,27,20,24,038,16,23,27,206,23,24,44,194,31*73
$GPGSV,4,3,15,25,38,343,37,29,10,329,26,36,52,277,,40,86,351,*7D
$GPGSV,4,4,15,41,58,082,,49,32,274,,50,10,089,*47
$GLGSV,3,1,10,68,16,085,,69,29,136,19,70,08,199,,73,47,331,32*63
$GLGSV,3,2,10,74,04,334,,79,16,154,,80,71,154,23,83,08,004,*67
$GLGSV,3,3,10,84,23,312,,85,11,262,18*6B
$GNGLL,0419.89865,S,05539.61401,E,054341.00,A,A*63
$GNGRS,054341.00,1,4.3,-7.3,-12.4,2.2,0.7,11.0,0.0,0.7,9.6,,,*72
$GNGRS,054341.00,1,1.5,-3.6,-3.9,15.2,,,,,,,,*6A
$GNGST,054341.00,39,,,,3.2,5.6,9.8*47
$GNZDA,054341.00,28,05,2025,00,00*75
$GNGBS,054341.00,3.2,5.6,9.8,,,,*5B
$GNTXT,01,01,01,More than 100 frame errors, UART RX was disabled*70
b0@89!=~"
"
&j,$&WB
I{4V_:R 
Y
pDUE:FI!/KJNOPGST8U&MRbU
cP#$GNRMC,054342.00,A,0419.89872,S,05539.61376,E,0.228,,280525,,,A*78
$GNVTG,,T,,M,0.228,N,0.423,K,A*30
$GNGNS,054342.00,0419.89872,S,05539.61376,E,AA,13,0.77,15.1,-47.6,,*61
