$GNRMC,095947.00,A,0419.72797,S,05539.92434,E,0.041,,030625,,,A*70
$GNVTG,,T,,M,0.041,N,0.075,K,A*3A
$GNGGA,095947.00,0419.72797,S,05539.92434,E,1,12,0.55,8.9,M,-47.6,M,,*71
$GNGSA,A,3,32,29,10,26,28,18,16,23,25,24,27,,1.16,0.55,1.03*16
$GNGSA,A,3,69,83,82,80,73,68,,,,,,,1.16,0.55,1.03*14
$GPGSV,5,1,17,10,34,326,40,16,20,286,33,18,23,037,28,23,17,009,33*7F
$GPGSV,5,2,17,24,07,079,26,25,16,153,37,26,31,255,34,27,08,328,29*7C
$GPGSV,5,3,17,28,26,191,29,29,48,126,41,31,12,216,17,32,74,200,39*7A
$GPGSV,5,4,17,36,52,277,36,40,85,353,41,41,58,082,37,49,32,274,*79
$GPGSV,5,5,17,50,10,089,*4A
$GLGSV,3,1,09,68,14,018,24,69,61,353,39,70,40,224,,73,16,239,22*61
$GLGSV,3,2,09,80,18,184,25,81,03,131,14,82,26,090,27,83,28,033,31*6B
$GLGSV,3,3,09,84,01,346,*50
$GNGLL,0419.72797,S,05539.92434,E,095947.00,A,A*6E
$GNRMC,095948.00,A,0419.72794,S,05539.92435,E,0.014,,030625,,,A*7D
$GNVTG,,T,,M,0.014,N,0.026,K,A*3C
$GNGGA,095948.00,0419.72794,S,05539.92435,E,1,12,0.55,8.9,M,-47.6,M,,*7C
$GNGSA,A,3,32,29,10,26,28,18,16,23,25,24,27,,1.16,0.55,1.03*16
$GNGSA,A,3,69,83,82,80,73,68,,,,,,,1.16,0.55,1.03*14
$GPGSV,5,1,17,10,34,326,41,16,20,286,34,18,23,037,28,23,17,009,34*7E
$GPGSV,5,2,17,24,07,079,25,25,16,153,37,26,31,255,34,27,08,328,22*74
$GPGSV,5,3,17,28,26,191,29,29,48,126,39,31,12,216,17,32,74,200,38*74
$GPGSV,5,4,17,36,52,277,36,40,85,353,41,41,58,082,39,49,32,274,*77
$GPGSV,5,5,17,50,10,089,*4A
$GLGSV,3,1,09,68,14,018,22,69,61,353,39,70,40,224,,73,16,239,22*67
$GLGSV,3,2,09,80,18,184,24,81,03,131,14,82,26,091,25,83,28,033,27*6E
$GLGSV,3,3,09,84,01,346,*50
$GNGLL,0419.72794,S,05539.92435,E,095948.00,A,A*63
$GNRMC,095949.00,A,0419.72792,S,05539.92436,E,0.021,,030625,,,A*7F
$GNVTG,,T,,M,0.021,N,0.039,K,A*34
$GNGGA,095949.00,0419.72792,S,05539.92436,E,1,12,0.55,8.9,M,-47.6,M,,*78
$GNGSA,A,3,32,29,10,26,28,18,16,23,25,24,27,,1.16,0.55,1.03*16
$GNGSA,A,3,69,83,82,80,73,68,,,,,,,1.16,0.55,1.03*14
$GPGSV,5,1,17,10,34,326,38,16,20,286,36,18,23,037,29,23,17,009,26*70
$GPGSV,5,2,17,24,07,079,24,25,16,153,37,26,31,255,33,27,08,328,29*79
$GPGSV,5,3,17,28,26,191,28,29,48,126,40,31,12,216,15,32,74,200,38*79
$GPGSV,5,4,17,36,52,277,39,40,85,353,40,41,58,082,39,49,32,274,*79
$GPGSV,5,5,17,50,10,089,*4A
$GLGSV,3,1,09,68,14,018,23,69,61,353,42,70,40,224,,73,16,239,29*61
$GLGSV,3,2,09,80,18,184,24,81,03,131,14,82,26,091,31,83,28,033,33*6E
$GLGSV,3,3,09,84,01,346,*50
$GNGLL,0419.72792,S,05539.92436,E,095949.00,A,A*67
$GNRMC,095950.00,A,0419.72790,S,05539.92437,E,0.032,,030625,,,A*76
$GNVTG,,T,,M,0.032,N,0.059,K,A*30
$GNGGA,095950.00,0419.72790,S,05539.92437,E,1,12,0.55,9.0,M,-47.6,M,,*7B
$GNGSA,A,3,32,29,10,26,28,18,16,23,25,24,27,,1.16,0.55,1.03*16
$GNGSA,A,3,69,83,82,80,73,68,,,,,,,1.16,0.55,1.03*14
$GPGSV,5,1,17,10,34,326,35,16,20,286,38,18,23,037,29,23,17,009,32*76
$GPGSV,5,2,17,24,07,079,25,25,16,153,37,26,31,255,32,27,08,328,29*79
$GPGSV,5,3,17,28,26,191,28,29,48,126,40,31,12,216,17,32,74,200,33*70
$GPGSV,5,4,17,36,52,277,28,40,85,353,36,41,58,082,38,49,32,274,*79
$GPGSV,5,5,17,50,10,089,*4A
$GLGSV,3,1,09,68,14,018,25,69,61,353,38,70,40,224,,73,16,239,27*64
$GLGSV,3,2,09,80,18,184,23,81,03,131,14,82,26,091,31,83,28,033,34*6E
$GLGSV,3,3,09,84,02,347,*52
$GNGLL,0419.72790,S,05539.92437,E,095950.00,A,A*6C
$GNRMC,095951.00,A,0419.72788,S,05539.92439,E,0.034,,030625,,,A*76
$GNVTG,,T,,M,0.034,N,0.063,K,A*3F
$GNGGA,095951.00,0419.72788,S,05539.92439,E,1,12,0.55,9.0,M,-47.6,M,,*7D
$GNGSA,A,3,32,29,10,26,28,18,16,23,25,24,27,,1.16,0.55,1.03*16
$GNGSA,A,3,69,83,82,80,73,68,,,,,,,1.16,0.55,1.03*14
$GPGSV,5,1,17,10,34,326,39,16,20,286,35,18,23,037,29,23,17,009,32*77
$GPGSV,5,2,17,24,07,079,24,25,16,153,37,26,31,255,36,27,08,328,29*7C
$GPGSV,5,3,17,28,26,191,28,29,48,126,40,31,12,216,18,32,74,200,39*75
$GPGSV,5,4,17,36,52,277,40,40,85,353,40,41,58,082,39,49,32,274,*77
$GPGSV,5,5,17,50,10,089,*4A
$GLGSV,3,1,09,68,14,018,26,69,61,353,41,70,40,224,,73,16,239,27*69
$GLGSV,3,2,09,80,18,184,22,81,03,131,17,82,26,091,31,83,28,033,31*69
$GLGSV,3,3,09,84,02,347,*52
$GNGLL,0419.72788,S,05539.92439,E,095951.00,A,A*6A
$GNRMC,095952.00,A,0419.72788,S,05539.92438,E,0.006,,030625,,,A*75
$GNVTG,,T,,M,0.006,N,0.010,K,A*3A
$GNGGA,095952.00,0419.72788,S,05539.92438,E,1,12,0.55,9.1,M,-47.6,M,,*7E
$GNGSA,A,3,32,29,10,26,28,18,16,23,25,24,27,,1.16,0.55,1.03*16
$GNGSA,A,3,69,83,82,80,73,68,,,,,,,1.16,0.55,1.03*14
$GPGSV,5,1,17,10,34,326,40,16,20,286,37,18,23,037,29,23,17,009,31*78
$GPGSV,5,2,17,24,07,079,23,25,16,153,36,26,31,255,36,27,08,328,28*7B
$GPGSV,5,3,17,28,26,191,27,29,48,126,41,31,12,216,28,32,74,200,40*76
$GPGSV,5,4,17,36,52,277,39,40,85,353,41,41,58,082,38,49,32,274,*79
$GPGSV,5,5,17,50,10,089,*4A
$GLGSV,3,1,09,68,14,018,26,69,61,353,41,70,40,224,,73,16,239,32*6D
$GLGSV,3,2,09,80,18,184,30,81,03,131,17,82,26,091,29,83,28,033,34*66
$GLGSV,3,3,09,84,02,347,*52
$GNGLL,0419.72788,S,05539.92438,E,095952.00,A,A*68
$GNRMC,095953.00,A,0419.72785,S,05539.92438,E,0.032,,030625,,,A*7E
$GNVTG,,T,,M,0.032,N,0.059,K,A*30
$GNGGA,095953.00,0419.72785,S,05539.92438,E,1,12,0.55,9.2,M,-47.6,M,,*71
$GNGSA,A,3,32,29,10,26,28,18,16,23,25,24,27,,1.16,0.55,1.03*16
$GNGSA,A,3,69,83,82,80,73,68,,,,,,,1.16,0.55,1.03*14
$GPGSV,5,1,17,10,34,326,41,16,20,286,39,18,23,037,34,23,17,009,33*79
$GPGSV,5,2,17,24,07,079,22,25,16,153,37,26,31,255,37,27,08,328,29*7B
$GPGSV,5,3,17,28,26,191,27,29,48,126,40,31,12,216,29,32,74,200,41*77
$GPGSV,5,4,17,36,52,277,40,40,85,353,42,41,58,082,39,49,32,274,*75
$GPGSV,5,5,17,50,10,089,*4A
$GLGSV,3,1,09,68,14,018,26,69,61,353,41,70,40,224,,73,16,239,31*6E
$GLGSV,3,2,09,80,18,184,30,81,03,131,17,82,26,091,29,83,28,033,34*66
$GLGSV,3,3,09,84,02,347,*52
$GNGLL,0419.72785,S,05539.92438,E,095953.00,A,A*64
$GNRMC,095954.00,A,0419.72784,S,05539.92438,E,0.025,,030625,,,A*7E
$GNVTG,,T,,M,0.025,N,0.046,K,A*38
$GNGGA,095954.00,0419.72784,S,05539.92438,E,1,12,0.55,9.2,M,-47.6,M,,*77
$GNGSA,A,3,32,29,10,26,28,18,16,23,25,24,27,,1.16,0.55,1.03*16
$GNGSA,A,3,69,83,82,80,73,68,,,,,,,1.16,0.55,1.03*14
$GPGSV,5,1,17,10,34,326,41,16,20,286,39,18,23,037,31,23,17,009,32*7D
$GPGSV,5,2,17,24,07,079,23,25,16,153,37,26,31,255,37,27,08,328,29*7A
$GPGSV,5,3,17,28,26,191,27,29,48,126,40,31,12,216,30,32,74,200,41*7F
$GPGSV,5,4,17,36,52,277,40,40,85,353,42,41,58,082,39,49,32,274,*75
$GPGSV,5,5,17,50,10,089,*4A
$GLGSV,3,1,09,68,14,018,27,69,61,353,41,70,40,224,,73,16,239,31*6F
$GLGSV,3,2,09,80,18,184,29,81,03,131,17,82,26,091,29,83,28,033,34*6E
$GLGSV,3,3,09,84,02,347,*52
$GNGLL,0419.72784,S,05539.92438,E,095954.00,A,A*62
$GNRMC,095955.00,A,0419.72782,S,05539.92438,E,0.033,,030625,,,A*7E
$GNVTG,,T,,M,0.033,N,0.061,K,A*3A
$GNGGA,095955.00,0419.72782,S,05539.92438,E,1,12,0.55,9.3,M,-47.6,M,,*71
$GNGSA,A,3,32,29,10,26,28,18,16,23,25,24,27,,1.16,0.55,1.03*16
$GNGSA,A,3,69,83,82,80,73,68,,,,,,,1.16,0.55,1.03*14
$GPGSV,5,1,17,10,34,326,41,16,20,286,38,18,23,037,35,23,17,009,32*78
$GPGSV,5,2,17,24,07,079,24,25,16,153,37,26,31,255,37,27,08,328,29*7D
$GPGSV,5,3,17,28,26,191,33,29,48,126,42,31,12,216,21,32,74,200,41*78
$GPGSV,5,4,17,36,52,277,41,40,85,353,41,41,58,082,40,49,32,274,*79
$GPGSV,5,5,17,50,10,089,*4A
$GLGSV,3,1,09,68,14,018,28,69,61,353,41,70,40,224,,73,16,239,30*61
$GLGSV,3,2,09,80,18,184,27,81,03,131,11,82,26,091,28,83,28,033,33*60
$GLGSV,3,3,09,84,02,347,*52
$GNGLL,0419.72782,S,05539.92438,E,095955.00,A,A*65
$GNRMC,095956.00,A,0419.72780,S,05539.92439,E,0.013,,030625,,,A*7C
$GNVTG,,T,,M,0.013,N,0.024,K,A*39
$GNGGA,095956.00,0419.72780,S,05539.92439,E,1,12,0.55,9.4,M,-47.6,M,,*76
$GNGSA,A,3,32,29,10,26,28,18,16,23,25,24,27,,1.16,0.55,1.03*16
$GNGSA,A,3,69,83,82,80,73,68,,,,,,,1.16,0.55,1.03*14
$GPGSV,5,1,17,10,34,326,41,16,20,286,38,18,23,037,31,23,17,009,33*7D
$GPGSV,5,2,17,24,07,079,24,25,16,153,38,26,31,255,37,27,08,328,30*7A
$GPGSV,5,3,17,28,26,191,28,29,48,126,40,31,12,216,21,32,74,200,40*71
$GPGSV,5,4,17,36,52,277,41,40,85,353,41,41,58,082,40,49,32,274,*79
$GPGSV,5,5,17,50,10,089,*4A
$GLGSV,3,1,09,68,14,018,26,69,61,353,41,70,40,224,,73,16,239,30*6F
$GLGSV,3,2,09,80,18,184,28,81,03,131,11,82,26,091,29,83,28,033,32*6F
$GLGSV,3,3,09,84,02,347,*52
$GNGLL,0419.72780,S,05539.92439,E,095956.00,A,A*65
$GNRMC,095957.00,A,0419.72777,S,05539.92438,E,0.045,,030625,,,A*77
$GNVTG,,T,,M,0.045,N,0.084,K,A*30
$GNGGA,095957.00,0419.72777,S,05539.92438,E,1,12,0.55,9.5,M,-47.6,M,,*7F
$GNGSA,A,3,32,29,10,26,28,18,16,23,25,24,27,,1.16,0.55,1.03*16
$GNGSA,A,3,69,83,82,80,73,68,,,,,,,1.16,0.55,1.03*14
$GPGSV,5,1,17,10,34,326,40,16,20,286,38,18,23,037,30,23,17,009,33*7D
$GPGSV,5,2,17,24,07,079,23,25,16,153,38,26,31,255,36,27,08,328,29*74
$GPGSV,5,3,17,28,26,191,27,29,48,126,38,31,12,216,20,32,74,200,39*7E
$GPGSV,5,4,17,36,52,277,40,40,85,353,40,41,58,082,38,49,32,274,*76
$GPGSV,5,5,17,50,10,089,*4A
$GLGSV,3,1,09,68,14,018,25,69,61,353,39,70,40,224,,73,16,239,28*6A
$GLGSV,3,2,09,80,18,184,27,81,03,131,09,82,26,091,27,83,28,033,28*6C
$GLGSV,3,3,09,84,02,347,*52
$GNGLL,0419.72777,S,05539.92438,E,095957.00,A,A*6D
$GNRMC,095958.00,A,0419.72775,S,05539.92437,E,0.064,,030625,,,A*76
$GNVTG,,T,,M,0.064,N,0.119,K,A*36
$GNGGA,095958.00,0419.72775,S,05539.92437,E,1,12,0.55,9.5,M,-47.6,M,,*7D
$GNGSA,A,3,32,29,10,26,28,18,16,23,25,24,27,,1.16,0.55,1.03*16
$GNGSA,A,3,69,83,82,80,73,68,,,,,,,1.16,0.55,1.03*14
$GPGSV,5,1,17,10,34,326,39,16,20,286,34,18,23,037,29,23,17,009,32*76
$GPGSV,5,2,17,24,07,079,22,25,16,153,36,26,31,255,30,27,08,328,28*7C
$GPGSV,5,3,17,28,26,191,27,29,48,126,38,31,12,216,20,32,74,200,40*70
$GPGSV,5,4,17,36,52,277,40,40,85,353,41,41,58,082,37,49,32,274,*78
$GPGSV,5,5,17,50,10,089,*4A
$GLGSV,3,1,09,68,14,018,26,69,61,353,41,70,40,224,,73,16,239,26*68
$GLGSV,3,2,09,80,18,184,26,81,03,131,,82,26,091,28,83,28,033,33*61
$GLGSV,3,3,09,84,02,347,*52
$GNGLL,0419.72775,S,05539.92437,E,095958.00,A,A*6F
$GNRMC,095959.00,A,0419.72771,S,05539.92437,E,0.036,,030625,,,A*74
$GNVTG,,T,,M,0.036,N,0.067,K,A*39
$GNGGA,095959.00,0419.72771,S,05539.92437,E,1,12,0.55,9.6,M,-47.6,M,,*7B
$GNGSA,A,3,32,29,10,26,28,18,16,23,25,24,27,,1.16,0.55,1.03*16
$GNGSA,A,3,69,83,82,80,73,68,,,,,,,1.16,0.55,1.03*14
$GPGSV,5,1,17,10,34,326,41,16,20,286,38,18,23,037,33,23,17,009,29*74
$GPGSV,5,2,17,24,07,079,22,25,16,153,39,26,31,255,37,27,08,328,27*7B
$GPGSV,5,3,17,28,26,191,26,29,48,126,36,31,12,216,20,32,74,200,40*7F
$GPGSV,5,4,17,36,52,277,42,40,85,353,42,41,58,082,40,49,32,274,*79
$GPGSV,5,5,17,50,10,089,*4A
$GLGSV,3,1,09,68,14,018,30,69,61,353,43,70,40,224,,73,16,239,32*68
$GLGSV,3,2,09,80,18,184,28,81,03,131,,82,26,091,30,83,28,033,34*61
$GLGSV,3,3,09,84,02,347,*52
$GNGLL,0419.72771,S,05539.92437,E,095959.00,A,A*6A
$GNRMC,100000.00,A,0419.72769,S,05539.92438,E,0.011,,030625,,,A*7F
$GNVTG,,T,,M,0.011,N,0.020,K,A*3F
$GNGGA,100000.00,0419.72769,S,05539.92438,E,1,12,0.55,9.7,M,-47.6,M,,*74
$GNGSA,A,3,32,29,10,26,28,18,16,23,25,24,27,,1.16,0.55,1.03*16
$GNGSA,A,3,69,83,82,80,73,68,,,,,,,1.16,0.55,1.03*14
$GPGSV,5,1,17,10,34,326,40,16,20,286,37,18,23,037,28,23,17,009,29*70
$GPGSV,5,2,17,24,07,079,22,25,16,153,38,26,31,255,35,27,08,328,26*79
$GPGSV,5,3,17,28,26,191,24,29,48,126,38,31,12,216,19,32,74,200,38*76
$GPGSV,5,4,17,36,52,277,40,40,85,353,40,41,58,082,38,49,32,274,*76
$GPGSV,5,5,17,50,10,089,*4A
$GLGSV,3,1,09,68,14,018,22,69,61,353,38,70,40,224,,73,16,239,30*65
$GLGSV,3,2,09,80,18,184,27,81,03,131,,82,26,091,21,83,28,033,30*6A
$GLGSV,3,3,09,84,02,347,*52
$GNGLL,0419.72769,S,05539.92438,E,100000.00,A,A*64
$GNRMC,100001.00,A,0419.72769,S,05539.92436,E,0.135,,030625,,,A*77
$GNVTG,,T,,M,0.135,N,0.250,K,A*3D
$GNGGA,100001.00,0419.72769,S,05539.92436,E,1,12,0.55,9.8,M,-47.6,M,,*74
$GNGSA,A,3,32,29,10,26,28,18,16,23,25,24,27,,1.16,0.55,1.03*16
$GNGSA,A,3,69,83,82,80,73,68,,,,,,,1.16,0.55,1.03*14
$GPGSV,5,1,17,10,33,327,39,16,21,285,37,18,23,037,30,23,17,009,29*73
$GPGSV,5,2,17,24,07,079,21,25,16,152,38,26,31,254,35,27,08,328,25*79
$GPGSV,5,3,17,28,26,191,25,29,47,127,38,31,12,216,19,32,75,201,39*78
$GPGSV,5,4,17,36,52,277,40,40,85,353,40,41,58,082,38,49,32,274,*76
$GPGSV,5,5,17,50,10,089,*4A
$GLGSV,3,1,09,68,14,018,23,69,61,353,43,70,40,224,,73,16,239,30*68
$GLGSV,3,2,09,80,18,184,27,81,03,131,,82,26,091,23,83,28,033,34*6C
$GLGSV,3,3,09,84,02,347,*52
$GNGLL,0419.72769,S,05539.92436,E,100001.00,A,A*6B
$GNRMC,100002.00,A,0419.72767,S,05539.92436,E,0.018,,030625,,,A*74
$GNVTG,,T,,M,0.018,N,0.032,K,A*35
$GNGGA,100002.00,0419.72767,S,05539.92436,E,1,12,0.55,9.9,M,-47.6,M,,*78
$GNGSA,A,3,32,29,10,26,28,18,16,23,25,24,27,,1.16,0.55,1.03*16
$GNGSA,A,3,69,83,82,80,73,68,,,,,,,1.16,0.55,1.03*14
$GPGSV,5,1,17,10,33,327,40,16,21,285,38,18,23,037,32,23,17,009,30*78
$GPGSV,5,2,17,24,07,079,20,25,16,152,38,26,31,254,36,27,08,328,27*79
$GPGSV,5,3,17,28,26,191,27,29,47,127,41,31,12,216,19,32,75,201,40*7A
$GPGSV,5,4,17,36,52,277,42,40,85,353,41,41,58,082,39,49,32,274,*74
$GPGSV,5,5,17,50,10,089,*4A
$GLGSV,3,1,09,68,14,018,26,69,61,353,42,70,40,224,,73,16,239,29*64
$GLGSV,3,2,09,80,18,184,27,81,03,131,,82,26,091,26,83,28,033,33*6E
$GLGSV,3,3,09,84,02,347,*52
$GNGLL,0419.72767,S,05539.92436,E,100002.00,A,A*66
$GNRMC,100003.00,A,0419.72764,S,05539.92437,E,0.036,,030625,,,A*7B
$GNVTG,,T,,M,0.036,N,0.066,K,A*38
$GNGGA,100003.00,0419.72764,S,05539.92437,E,1,12,0.55,9.9,M,-47.6,M,,*7B
$GNGSA,A,3,32,29,10,26,28,18,16,23,25,24,27,,1.16,0.55,1.03*16
$GNGSA,A,3,69,83,82,80,73,68,,,,,,,1.16,0.55,1.03*14
$GPGSV,5,1,17,10,33,327,40,16,21,285,35,18,23,037,36,23,17,009,32*73
$GPGSV,5,2,17,24,07,079,19,25,16,152,38,26,31,254,32,27,08,328,30*71
$GPGSV,5,3,17,28,26,191,29,29,47,127,40,31,12,216,23,32,75,201,38*73
$GPGSV,5,4,17,36,52,277,39,40,85,353,41,41,58,082,39,49,32,274,*78
$GPGSV,5,5,17,50,10,089,*4A
$GLGSV,3,1,09,68,14,018,24,69,61,353,40,70,40,224,,73,16,239,26*6B
$GLGSV,3,2,09,80,18,184,27,81,03,131,,82,26,091,28,83,28,033,36*65
$GLGSV,3,3,09,84,02,347,*52
$GNGLL,0419.72764,S,05539.92437,E,100003.00,A,A*65
$GNRMC,100004.00,A,0419.72762,S,05539.92437,E,0.038,,030625,,,A*74
$GNVTG,,T,,M,0.038,N,0.071,K,A*30
$GNGGA,100004.00,0419.72762,S,05539.92437,E,1,12,0.55,10.0,M,-47.6,M,,*4B
$GNGSA,A,3,32,29,10,26,28,18,16,23,25,24,27,,1.16,0.55,1.03*16
$GNGSA,A,3,69,83,82,80,73,68,,,,,,,1.16,0.55,1.03*14
$GPGSV,5,1,17,10,33,327,40,16,21,285,37,18,23,037,32,23,17,009,32*75
$GPGSV,5,2,17,24,07,079,22,25,16,152,38,26,31,254,31,27,08,328,29*72
$GPGSV,5,3,17,28,26,191,29,29,47,127,42,31,12,216,25,32,75,201,35*7A
$GPGSV,5,4,17,36,52,277,39,40,85,353,40,41,58,082,39,49,32,274,*79
$GPGSV,5,5,17,50,10,089,*4A
$GLGSV,3,1,09,68,14,018,26,69,61,353,42,70,40,224,,73,16,239,28*65
$GLGSV,3,2,09,80,18,184,27,81,03,131,,82,26,091,26,83,28,033,33*6E
$GLGSV,3,3,09,84,02,347,*52
$GNGLL,0419.72762,S,05539.92437,E,100004.00,A,A*64
$GNRMC,100005.00,A,0419.72759,S,05539.92437,E,0.023,,030625,,,A*77
$GNVTG,,T,,M,0.023,N,0.043,K,A*3B
$GNGGA,100005.00,0419.72759,S,05539.92437,E,1,12,0.55,10.0,M,-47.6,M,,*42
$GNGSA,A,3,32,29,10,26,28,18,16,23,25,24,27,,1.16,0.55,1.03*16
$GNGSA,A,3,69,83,82,80,73,68,,,,,,,1.16,0.55,1.03*14
$GPGSV,5,1,17,10,33,327,41,16,21,285,39,18,23,037,26,23,17,009,31*7C
$GPGSV,5,2,17,24,07,079,22,25,16,152,35,26,31,254,33,27,08,328,29*7D
$GPGSV,5,3,17,28,26,191,37,29,47,127,42,31,12,216,26,32,75,201,39*7A
$GPGSV,5,4,17,36,52,277,38,40,85,353,42,41,58,082,38,49,32,274,*7B
$GPGSV,5,5,17,50,10,089,*4A
$GLGSV,3,1,09,68,14,018,25,69,61,353,41,70,40,224,,73,16,239,22*6F
$GLGSV,3,2,09,80,18,184,33,81,03,131,05,82,26,091,25,83,28,033,32*6C
$GLGSV,3,3,09,84,02,347,*52
$GNGLL,0419.72759,S,05539.92437,E,100005.00,A,A*6D
$GNRMC,100006.00,A,0419.72759,S,05539.92436,E,0.045,,030625,,,A*75
$GNVTG,,T,,M,0.045,N,0.083,K,A*37
$GNGGA,100006.00,0419.72759,S,05539.92436,E,1,12,0.55,10.0,M,-47.6,M,,*40
$GNGSA,A,3,32,29,10,26,28,18,16,23,25,24,27,,1.16,0.55,1.03*16
$GNGSA,A,3,69,83,82,80,73,68,,,,,,,1.16,0.55,1.03*14
$GPGSV,5,1,17,10,33,327,40,16,21,285,36,18,23,037,31,23,17,009,31*74
$GPGSV,5,2,17,24,07,079,25,25,16,152,35,26,31,254,36,27,08,328,28*7E
$GPGSV,5,3,17,28,26,191,37,29,47,127,43,31,12,216,24,32,75,201,40*77
$GPGSV,5,4,17,36,52,277,38,40,85,353,42,41,58,082,36,49,32,274,*75
$GPGSV,5,5,17,50,10,089,*4A
$GLGSV,3,1,09,68,14,018,26,69,61,353,41,70,40,224,,73,16,239,33*6C
$GLGSV,3,2,09,80,18,184,34,81,03,131,,82,26,091,32,83,28,033,28*63
$GLGSV,3,3,09,84,02,347,*52
$GNGLL,0419.72759,S,05539.92436,E,100006.00,A,A*6F
$GNRMC,100007.00,A,0419.72756,S,05539.92438,E,0.014,,030625,,,A*71
$GNVTG,,T,,M,0.014,N,0.025,K,A*3F
$GNGGA,100007.00,0419.72756,S,05539.92438,E,1,12,0.55,10.0,M,-47.6,M,,*40
$GNGSA,A,3,32,29,10,26,28,18,16,23,25,24,27,,1.16,0.55,1.03*16
$GNGSA,A,3,69,83,82,80,73,68,,,,,,,1.16,0.55,1.03*14
$GPGSV,5,1,17,10,33,327,41,16,21,285,36,18,23,037,30,23,17,009,30*75
$GPGSV,5,2,17,24,07,079,26,25,16,152,36,26,31,254,37,27,08,328,28*7F
$GPGSV,5,3,17,28,26,191,38,29,47,127,41,31,12,216,23,32,75,201,40*7D
$GPGSV,5,4,17,36,52,277,39,40,85,353,42,41,58,082,39,49,32,274,*7B
$GPGSV,5,5,17,50,10,089,*4A
$GLGSV,3,1,09,68,14,018,27,69,61,353,41,70,40,224,,73,16,239,30*6E
$GLGSV,3,2,09,80,18,184,33,81,03,131,22,82,26,091,32,83,28,033,33*6E
$GLGSV,3,3,09,84,02,347,*52
$GNGLL,0419.72756,S,05539.92438,E,100007.00,A,A*6F
$GNRMC,100008.00,A,0419.72755,S,05539.92439,E,0.018,,030625,,,A*70
$GNVTG,,T,,M,0.018,N,0.033,K,A*34
$GNGGA,100008.00,0419.72755,S,05539.92439,E,1,12,0.55,10.0,M,-47.6,M,,*4D
$GNGSA,A,3,32,29,10,26,28,18,16,23,25,24,27,,1.16,0.55,1.03*16
$GNGSA,A,3,69,83,82,80,73,68,,,,,,,1.16,0.55,1.03*14
$GPGSV,5,1,17,10,33,327,40,16,21,285,36,18,23,037,29,23,17,009,31*7D
$GPGSV,5,2,17,24,07,079,26,25,16,152,36,26,31,254,36,27,08,328,29*7F
$GPGSV,5,3,17,28,26,191,38,29,47,127,41,31,12,216,21,32,75,201,41*7E
$GPGSV,5,4,17,36,52,277,39,40,85,353,41,41,58,082,38,49,32,274,*79
$GPGSV,5,5,17,50,10,089,*4A
$GLGSV,3,1,09,68,14,018,26,69,61,353,41,70,40,224,,73,16,239,30*6F
$GLGSV,3,2,09,80,18,184,33,81,03,131,21,82,26,091,33,83,28,033,34*6B
$GLGSV,3,3,09,84,02,347,*52
$GNGLL,0419.72755,S,05539.92439,E,100008.00,A,A*62
$GNRMC,100009.00,A,0419.72754,S,05539.92441,E,0.018,,030625,,,A*7F
$GNVTG,,T,,M,0.018,N,0.033,K,A*34
$GNGGA,100009.00,0419.72754,S,05539.92441,E,1,12,0.55,10.1,M,-47.6,M,,*43
$GNGSA,A,3,32,29,10,26,28,18,16,23,25,24,27,,1.16,0.55,1.03*16
$GNGSA,A,3,69,83,82,80,73,68,,,,,,,1.16,0.55,1.03*14
$GPGSV,5,1,17,10,33,327,41,16,21,285,36,18,23,037,30,23,17,009,31*74
$GPGSV,5,2,17,24,07,079,26,25,16,152,35,26,31,254,36,27,08,328,29*7C
$GPGSV,5,3,17,28,26,191,37,29,47,127,41,31,12,216,19,32,75,201,40*7B
$GPGSV,5,4,17,36,52,277,38,40,85,353,42,41,58,082,38,49,32,274,*7B
$GPGSV,5,5,17,50,10,089,*4A
$GLGSV,3,1,09,68,14,018,25,69,61,353,41,70,40,224,,73,16,239,31*6D
$GLGSV,3,2,09,80,18,184,34,81,03,131,21,82,26,091,32,83,28,033,35*6C
$GLGSV,3,3,09,84,02,347,*52
$GNGLL,0419.72754,S,05539.92441,E,100009.00,A,A*6D
$GNRMC,100010.00,A,0419.72752,S,05539.92442,E,0.035,,030625,,,A*7D
$GNVTG,,T,,M,0.035,N,0.065,K,A*38
$GNGGA,100010.00,0419.72752,S,05539.92442,E,1,12,0.55,10.0,M,-47.6,M,,*4F
$GNGSA,A,3,32,29,10,26,28,18,16,23,25,24,27,,1.16,0.55,1.03*16
$GNGSA,A,3,69,83,82,80,73,68,,,,,,,1.16,0.55,1.03*14
$GPGSV,5,1,17,10,33,327,41,16,21,285,36,18,23,037,29,23,17,009,30*7D
$GPGSV,5,2,17,24,07,079,25,25,16,152,36,26,31,254,36,27,08,328,29*7C
$GPGSV,5,3,17,28,26,191,37,29,47,127,42,31,12,216,21,32,75,201,41*72
$GPGSV,5,4,17,36,52,277,38,40,85,353,41,41,58,082,38,49,32,274,*78
$GPGSV,5,5,17,50,10,089,*4A
$GLGSV,3,1,09,68,14,018,25,69,61,353,41,70,40,224,,73,16,239,32*6E
$GLGSV,3,2,09,80,18,184,34,81,03,131,20,82,26,091,32,83,28,033,34*6C
$GLGSV,3,3,09,84,02,347,*52
$GNGLL,0419.72752,S,05539.92442,E,100010.00,A,A*60
$GNRMC,100011.00,A,0419.72750,S,05539.92444,E,0.009,,030625,,,A*77
$GNVTG,,T,,M,0.009,N,0.016,K,A*33
$GNGGA,100011.00,0419.72750,S,05539.92444,E,1,12,0.55,10.0,M,-47.6,M,,*4A
$GNGSA,A,3,32,29,10,26,28,18,16,23,25,24,27,,1.16,0.55,1.03*16
$GNGSA,A,3,69,83,82,80,73,68,,,,,,,1.16,0.55,1.03*14
$GPGSV,5,1,17,10,33,327,41,16,21,285,36,18,23,037,29,23,17,009,30*7D
$GPGSV,5,2,17,24,07,079,23,25,16,152,35,26,31,254,36,27,08,328,28*78
$GPGSV,5,3,17,28,26,191,37,29,47,127,42,31,12,216,22,32,75,201,41*71
$GPGSV,5,4,17,36,52,277,38,40,85,353,41,41,58,082,38,49,32,274,*78
$GPGSV,5,5,17,50,10,089,*4A
$GLGSV,3,1,09,68,14,018,25,69,61,353,41,70,40,224,,73,16,239,32*6E
$GLGSV,3,2,09,80,18,184,34,81,03,131,20,82,26,091,32,83,28,033,34*6C
$GLGSV,3,3,09,84,02,347,*52
$GNGLL,0419.72750,S,05539.92444,E,100011.00,A,A*65
$GNRMC,100012.00,A,0419.72748,S,05539.92446,E,0.016,,030625,,,A*71
$GNVTG,,T,,M,0.016,N,0.030,K,A*39
$GNGGA,100012.00,0419.72748,S,05539.92446,E,1,12,0.55,10.0,M,-47.6,M,,*42
$GNGSA,A,3,32,29,10,26,28,18,16,23,25,24,27,,1.16,0.55,1.03*16
$GNGSA,A,3,69,83,82,80,73,68,,,,,,,1.16,0.55,1.03*14
$GPGSV,5,1,17,10,33,327,40,16,21,285,35,18,23,037,29,23,17,009,29*77
$GPGSV,5,2,17,24,07,079,22,25,16,152,35,26,31,254,36,27,08,328,28*79
$GPGSV,5,3,17,28,26,191,38,29,47,127,42,31,12,216,23,32,75,201,41*7F
$GPGSV,5,4,17,36,52,277,38,40,85,353,41,41,58,082,38,49,32,274,*78
$GPGSV,5,5,17,50,10,089,*4A
$GLGSV,3,1,09,68,14,018,25,69,61,353,41,70,40,224,,73,16,239,32*6E
$GLGSV,3,2,09,80,18,184,34,81,03,131,20,82,26,091,32,83,28,033,34*6C
$GLGSV,3,3,09,84,02,347,*52
$GNGLL,0419.72748,S,05539.92446,E,100012.00,A,A*6D
$GNRMC,100013.00,A,0419.72746,S,05539.92447,E,0.012,,030625,,,A*7B
$GNVTG,,T,,M,0.012,N,0.022,K,A*3E
$GNGGA,100013.00,0419.72746,S,05539.92447,E,1,12,0.55,10.0,M,-47.6,M,,*4C
$GNGSA,A,3,32,29,10,26,28,18,16,23,25,24,27,,1.16,0.55,1.03*16
$GNGSA,A,3,69,83,82,80,73,68,,,,,,,1.16,0.55,1.03*14
$GPGSV,5,1,17,10,33,327,41,16,21,285,35,18,23,037,30,23,17,009,29*7E
$GPGSV,5,2,17,24,07,079,23,25,16,152,35,26,31,254,36,27,08,328,28*78
$GPGSV,5,3,17,28,26,191,38,29,47,127,42,31,12,216,24,32,75,201,41*78
$GPGSV,5,4,17,36,52,277,38,40,85,353,41,41,58,082,38,49,32,274,*78
$GPGSV,5,5,17,50,10,089,*4A
$GLGSV,3,1,09,68,14,018,26,69,61,353,41,70,40,224,,73,16,239,31*6E
$GLGSV,3,2,09,80,18,184,34,81,03,131,20,82,26,091,33,83,28,033,33*6A
$GLGSV,3,3,09,84,02,347,*52
$GNGLL,0419.72746,S,05539.92447,E,100013.00,A,A*63
$GNRMC,100014.00,A,0419.72744,S,05539.92449,E,0.021,,030625,,,A*70
$GNVTG,,T,,M,0.021,N,0.039,K,A*34
$GNGGA,100014.00,0419.72744,S,05539.92449,E,1,12,0.55,10.0,M,-47.6,M,,*47
$GNGSA,A,3,32,29,10,26,28,18,16,23,25,24,27,,1.16,0.55,1.03*16
$GNGSA,A,3,69,83,82,80,73,68,,,,,,,1.16,0.55,1.03*14
$GPGSV,5,1,17,10,33,327,40,16,21,285,36,18,23,037,29,23,17,009,29*74
$GPGSV,5,2,17,24,07,079,24,25,16,152,35,26,31,254,36,27,08,328,28*7F
$GPGSV,5,3,17,28,26,191,37,29,47,127,42,31,12,216,22,32,75,201,41*71
$GPGSV,5,4,17,36,52,277,38,40,85,353,41,41,58,082,38,49,32,274,*78
$GPGSV,5,5,17,50,10,089,*4A
$GLGSV,3,1,09,68,14,018,26,69,61,353,40,70,40,224,,73,16,239,31*6F
$GLGSV,3,2,09,80,18,184,34,81,03,131,20,82,26,091,33,83,28,033,34*6D
$GLGSV,3,3,09,84,02,347,*52
$GNGLL,0419.72744,S,05539.92449,E,100014.00,A,A*68
$GNRMC,100015.00,A,0419.72742,S,05539.92450,E,0.012,,030625,,,A*7F
$GNVTG,,T,,M,0.012,N,0.022,K,A*3E
$GNGGA,100015.00,0419.72742,S,05539.92450,E,1,12,0.55,10.1,M,-47.6,M,,*49
$GNGSA,A,3,32,29,10,26,28,18,16,23,25,24,27,,1.16,0.55,1.03*16
$GNGSA,A,3,69,83,82,80,73,68,,,,,,,1.16,0.55,1.03*14
$GPGSV,5,1,17,10,33,327,41,16,21,285,37,18,23,037,30,23,17,009,29*7C
$GPGSV,5,2,17,24,07,079,24,25,16,152,35,26,31,254,38,27,08,328,29*70
$GPGSV,5,3,17,28,26,191,37,29,47,127,42,31,12,216,23,32,75,201,39*7F
$GPGSV,5,4,17,36,52,277,40,40,85,353,42,41,58,082,38,49,32,274,*74
$GPGSV,5,5,17,50,10,089,*4A
$GLGSV,3,1,09,68,14,018,26,69,61,353,42,70,40,224,,73,16,239,30*6C
$GLGSV,3,2,09,80,18,184,33,81,03,131,20,82,26,091,32,83,28,033,34*6B
$GLGSV,3,3,09,84,02,347,*52
$GNGLL,0419.72742,S,05539.92450,E,100015.00,A,A*67
$GNRMC,100016.00,A,0419.72740,S,05539.92452,E,0.036,,030625,,,A*7A
$GNVTG,,T,,M,0.036,N,0.067,K,A*39
$GNGGA,100016.00,0419.72740,S,05539.92452,E,1,12,0.55,10.1,M,-47.6,M,,*4A
$GNGSA,A,3,32,29,10,26,28,18,16,23,25,24,27,,1.16,0.55,1.03*16
$GNGSA,A,3,69,83,82,80,73,68,,,,,,,1.16,0.55,1.03*14
$GPGSV,5,1,17,10,33,327,40,16,21,285,37,18,23,037,30,23,17,009,29*7D
$GPGSV,5,2,17,24,07,079,24,25,16,152,35,26,31,254,38,27,08,328,29*70
$GPGSV,5,3,17,28,26,191,37,29,47,127,42,31,12,216,23,32,75,201,40*71
$GPGSV,5,4,17,36,52,277,40,40,85,353,42,41,58,082,38,49,32,274,*74
$GPGSV,5,5,17,50,10,089,*4A
$GLGSV,3,1,09,68,14,018,26,69,61,353,41,70,40,224,,73,16,239,29*67
$GLGSV,3,2,09,80,18,184,33,81,03,131,19,82,26,091,32,83,28,033,33*66
$GLGSV,3,3,09,84,02,347,*52
$GNGLL,0419.72740,S,05539.92452,E,100016.00,A,A*64
$GNRMC,100017.00,A,0419.72739,S,05539.92453,E,0.016,,030625,,,A*76
$GNVTG,,T,,M,0.016,N,0.030,K,A*39
$GNGGA,100017.00,0419.72739,S,05539.92453,E,1,12,0.55,10.1,M,-47.6,M,,*44
$GNGSA,A,3,32,29,10,26,28,18,16,23,25,24,27,,1.16,0.55,1.03*16
$GNGSA,A,3,69,83,82,80,73,68,,,,,,,1.16,0.55,1.03*14
$GPGSV,5,1,17,10,33,327,41,16,21,285,37,18,23,037,30,23,17,009,29*7C
$GPGSV,5,2,17,24,07,078,24,25,16,152,35,26,31,254,38,27,08,328,29*71
$GPGSV,5,3,17,28,26,191,37,29,47,127,42,31,12,216,24,32,75,201,40*76
$GPGSV,5,4,17,36,52,277,40,40,85,353,42,41,58,082,38,49,32,274,*74
$GPGSV,5,5,17,50,10,089,*4A
$GLGSV,3,1,09,68,14,018,26,69,61,353,41,70,40,224,,73,16,239,29*67
$GLGSV,3,2,09,80,18,184,33,81,03,131,20,82,26,091,32,83,28,033,33*6C
$GLGSV,3,3,09,84,02,347,*52
$GNGLL,0419.72739,S,05539.92453,E,100017.00,A,A*6A
$GNRMC,100018.00,A,0419.72737,S,05539.92453,E,0.011,,030625,,,A*70
$GNVTG,,T,,M,0.011,N,0.020,K,A*3F
$GNGGA,100018.00,0419.72737,S,05539.92453,E,1,12,0.55,10.1,M,-47.6,M,,*45
$GNGSA,A,3,32,29,10,26,28,18,16,23,25,24,27,,1.16,0.55,1.03*16
$GNGSA,A,3,69,83,82,80,73,68,,,,,,,1.16,0.55,1.03*14
$GPGSV,5,1,17,10,33,327,40,16,21,285,36,18,23,037,30,23,17,009,29*7C
$GPGSV,5,2,17,24,07,078,24,25,16,152,35,26,31,254,37,27,08,328,29*7E
$GPGSV,5,3,17,28,26,191,37,29,47,127,42,31,12,216,25,32,75,201,40*77
$GPGSV,5,4,17,36,52,277,39,40,85,353,41,41,58,082,39,49,32,274,*78
$GPGSV,5,5,17,50,10,089,*4A
$GLGSV,3,1,09,68,14,018,26,69,61,353,41,70,40,224,,73,16,239,29*67
$GLGSV,3,2,09,80,18,184,33,81,03,131,19,82,26,091,32,83,28,033,34*61
$GLGSV,3,3,09,84,02,347,*52
$GNGLL,0419.72737,S,05539.92453,E,100018.00,A,A*6B
$GNRMC,100019.00,A,0419.72736,S,05539.92454,E,0.011,,030625,,,A*77
$GNVTG,,T,,M,0.011,N,0.020,K,A*3F
$GNGGA,100019.00,0419.72736,S,05539.92454,E,1,12,0.55,10.1,M,-47.6,M,,*42
$GNGSA,A,3,32,29,10,26,28,18,16,23,25,24,27,,1.16,0.55,1.03*16
$GNGSA,A,3,69,83,82,80,73,68,,,,,,,1.16,0.55,1.03*14
$GPGSV,5,1,17,10,33,327,41,16,21,285,35,18,23,037,29,23,17,009,29*76
$GPGSV,5,2,17,24,07,078,24,25,16,152,35,26,31,254,37,27,08,328,28*7F
$GPGSV,5,3,17,28,26,191,37,29,47,127,41,31,12,216,25,32,75,201,41*75
$GPGSV,5,4,17,36,52,277,37,40,85,353,41,41,58,082,39,49,32,274,*76
$GPGSV,5,5,17,50,10,089,*4A
$GLGSV,3,1,09,68,14,018,26,69,61,353,41,70,40,224,,73,16,239,30*6F
$GLGSV,3,2,09,80,18,184,34,81,03,131,19,82,26,091,32,83,28,033,34*66
$GLGSV,3,3,09,84,02,347,*52
$GNGLL,0419.72736,S,05539.92454,E,100019.00,A,A*6C
$GNRMC,100020.00,A,0419.72734,S,05539.92455,E,0.007,,030625,,,A*79
$GNVTG,,T,,M,0.007,N,0.013,K,A*38
$GNGGA,100020.00,0419.72734,S,05539.92455,E,1,12,0.55,10.2,M,-47.6,M,,*48
$GNGSA,A,3,32,29,10,26,28,18,16,23,25,24,27,,1.16,0.55,1.03*16
$GNGSA,A,3,69,83,82,80,73,68,,,,,,,1.16,0.55,1.03*14
$GPGSV,5,1,17,10,33,327,41,16,21,285,35,18,23,037,29,23,17,009,29*76
$GPGSV,5,2,17,24,07,078,26,25,16,152,35,26,31,254,36,27,09,328,28*7D
$GPGSV,5,3,17,28,26,191,37,29,47,127,42,31,12,216,24,32,75,201,41*77
$GPGSV,5,4,17,36,52,277,38,40,85,353,41,41,58,082,38,49,32,274,*78
$GPGSV,5,5,17,50,10,089,*4A
$GLGSV,3,1,09,68,14,018,26,69,61,353,41,70,40,224,,73,16,239,31*6E
$GLGSV,3,2,09,80,18,184,34,81,03,131,19,82,26,091,32,83,28,033,34*66
$GLGSV,3,3,09,84,02,347,*52
$GNGLL,0419.72734,S,05539.92455,E,100020.00,A,A*65
$GNRMC,100021.00,A,0419.72733,S,05539.92456,E,0.025,,030625,,,A*7C
$GNVTG,,T,,M,0.025,N,0.047,K,A*39
$GNGGA,100021.00,0419.72733,S,05539.92456,E,1,12,0.55,10.2,M,-47.6,M,,*4D
$GNGSA,A,3,32,29,10,26,28,18,16,23,25,24,27,,1.16,0.55,1.03*16
$GNGSA,A,3,69,83,82,80,73,68,,,,,,,1.16,0.55,1.03*14
$GPGSV,5,1,17,10,33,327,41,16,21,285,36,18,23,037,29,23,17,009,29*75
$GPGSV,5,2,17,24,07,078,26,25,16,152,35,26,31,254,36,27,09,328,29*7C
$GPGSV,5,3,17,28,26,190,37,29,47,127,41,31,12,216,23,32,75,201,40*73
$GPGSV,5,4,17,36,52,277,39,40,85,353,41,41,58,082,38,49,32,274,*79
$GPGSV,5,5,17,50,10,089,*4A
$GLGSV,3,1,09,68,14,018,25,69,61,353,41,70,40,224,,73,16,239,31*6D
$GLGSV,3,2,09,80,18,184,33,81,03,131,17,82,26,091,32,83,28,033,34*6F
$GLGSV,3,3,09,84,02,347,*52
$GNGLL,0419.72733,S,05539.92456,E,100021.00,A,A*60
$GNRMC,100022.00,A,0419.72732,S,05539.92456,E,0.023,,030625,,,A*78
$GNVTG,,T,,M,0.023,N,0.043,K,A*3B
$GNGGA,100022.00,0419.72732,S,05539.92456,E,1,12,0.55,10.2,M,-47.6,M,,*4F
$GNGSA,A,3,32,29,10,26,28,18,16,23,25,24,27,,1.16,0.55,1.03*16
$GNGSA,A,3,69,83,82,80,73,68,,,,,,,1.16,0.55,1.03*14
$GPGSV,5,1,17,10,33,327,41,16,21,285,36,18,23,037,29,23,17,009,30*7D
$GPGSV,5,2,17,24,07,078,26,25,16,152,35,26,31,254,36,27,09,328,29*7C
$GPGSV,5,3,17,28,26,190,37,29,47,127,41,31,12,216,23,32,75,201,40*73
$GPGSV,5,4,17,36,52,277,39,40,85,353,41,41,58,082,38,49,32,274,*79
$GPGSV,5,5,17,50,10,089,*4A
$GLGSV,3,1,09,68,14,018,26,69,61,353,41,70,40,224,,73,16,239,31*6E
$GLGSV,3,2,09,80,18,184,33,81,03,131,16,82,26,091,32,83,28,033,34*6E
$GLGSV,3,3,09,84,02,347,*52
$GNGLL,0419.72732,S,05539.92456,E,100022.00,A,A*62
$GNRMC,100023.00,A,0419.72731,S,05539.92456,E,0.023,,030625,,,A*7A
$GNVTG,,T,,M,0.023,N,0.042,K,A*3A
$GNGGA,100023.00,0419.72731,S,05539.92456,E,1,12,0.55,10.3,M,-47.6,M,,*4C
$GNGSA,A,3,32,29,10,26,28,18,16,23,25,24,27,,1.16,0.55,1.03*16
$GNGSA,A,3,69,83,82,80,73,68,,,,,,,1.16,0.55,1.03*14
$GPGSV,5,1,17,10,33,327,41,16,21,285,36,18,23,037,29,23,17,009,29*75
$GPGSV,5,2,17,24,07,078,26,25,16,152,35,26,31,254,36,27,09,328,29*7C
$GPGSV,5,3,17,28,26,190,37,29,47,127,42,31,12,216,23,32,75,201,40*70
$GPGSV,5,4,17,36,52,277,39,40,85,353,41,41,58,082,38,49,32,274,*79
$GPGSV,5,5,17,50,10,089,*4A
$GLGSV,3,1,09,68,14,018,25,69,61,353,41,70,40,224,,73,16,239,31*6D
$GLGSV,3,2,09,80,18,184,33,81,03,131,17,82,26,091,33,83,28,033,34*6E
$GLGSV,3,3,09,84,02,347,*52
$GNGLL,0419.72731,S,05539.92456,E,100023.00,A,A*60
$GNRMC,100024.00,A,0419.72731,S,05539.92456,E,0.018,,030625,,,A*75
$GNVTG,,T,,M,0.018,N,0.033,K,A*34
$GNGGA,100024.00,0419.72731,S,05539.92456,E,1,12,0.55,10.3,M,-47.6,M,,*4B
$GNGSA,A,3,32,29,10,26,28,18,16,23,25,24,27,,1.16,0.55,1.03*16
$GNGSA,A,3,69,83,82,80,73,68,,,,,,,1.16,0.55,1.03*14
$GPGSV,5,1,17,10,33,327,41,16,21,285,36,18,23,037,29,23,17,009,29*75
$GPGSV,5,2,17,24,07,078,26,25,16,152,35,26,31,254,36,27,09,328,29*7C
$GPGSV,5,3,17,28,26,190,37,29,47,127,41,31,13,215,23,32,75,201,40*71
$GPGSV,5,4,17,36,52,277,39,40,85,353,41,41,58,082,38,49,32,274,*79
$GPGSV,5,5,17,50,10,089,*4A
$GLGSV,3,1,09,68,14,018,26,69,61,353,41,70,40,224,,73,16,239,31*6E
$GLGSV,3,2,09,80,18,184,33,81,03,131,18,82,26,091,33,83,28,033,34*61
$GLGSV,3,3,09,84,02,347,*52
$GNGLL,0419.72731,S,05539.92456,E,100024.00,A,A*67
$GNRMC,100025.00,A,0419.72729,S,05539.92456,E,0.049,,030625,,,A*79
$GNVTG,,T,,M,0.049,N,0.090,K,A*39
$GNGGA,100025.00,0419.72729,S,05539.92456,E,1,12,0.55,10.3,M,-47.6,M,,*43
$GNGSA,A,3,32,29,10,26,28,18,16,23,25,24,27,,1.16,0.55,1.03*16
$GNGSA,A,3,69,83,82,80,73,68,,,,,,,1.16,0.55,1.03*14
$GPGSV,5,1,17,10,33,327,41,16,21,285,35,18,23,037,29,23,17,009,29*76
$GPGSV,5,2,17,24,07,078,25,25,16,152,36,26,31,254,36,27,09,328,28*7D
$GPGSV,5,3,17,28,26,190,37,29,47,127,42,31,13,215,25,32,75,201,41*75
$GPGSV,5,4,17,36,52,277,38,40,85,353,41,41,58,082,39,49,32,274,*79
$GPGSV,5,5,17,50,10,089,*4A
$GLGSV,3,1,09,68,14,018,26,69,61,353,42,70,40,224,,73,16,239,29*64
$GLGSV,3,2,09,80,18,184,33,81,03,131,21,82,26,091,32,83,28,033,34*6A
$GLGSV,3,3,09,84,02,347,*52
$GNGLL,0419.72729,S,05539.92456,E,100025.00,A,A*6F
$GNRMC,100026.00,A,0419.72728,S,05539.92457,E,0.055,,030625,,,A*77
$GNVTG,,T,,M,0.055,N,0.103,K,A*3F
$GNGGA,100026.00,0419.72728,S,05539.92457,E,1,12,0.55,10.3,M,-47.6,M,,*40
$GNGSA,A,3,32,29,10,26,28,18,16,23,25,24,27,,1.16,0.55,1.03*16
$GNGSA,A,3,69,83,82,80,73,68,,,,,,,1.16,0.55,1.03*14
$GPGSV,5,1,17,10,33,327,41,16,21,285,35,18,23,037,30,23,17,009,29*7E
$GPGSV,5,2,17,24,07,078,25,25,16,152,36,26,31,254,36,27,09,328,28*7D
$GPGSV,5,3,17,28,26,190,37,29,47,127,42,31,13,215,26,32,75,201,40*77
$GPGSV,5,4,17,36,52,277,38,40,85,353,40,41,58,082,38,49,32,274,*79
$GPGSV,5,5,17,50,10,089,*4A
$GLGSV,3,1,09,68,14,018,27,69,61,353,41,70,40,224,,73,16,239,30*6E
$GLGSV,3,2,09,80,18,184,33,81,03,131,20,82,26,091,33,83,28,033,33*6D
$GLGSV,3,3,09,84,02,347,*52
$GNGLL,0419.72728,S,05539.92457,E,100026.00,A,A*6C
$GNRMC,100027.00,A,0419.72728,S,05539.92457,E,0.006,,030625,,,A*70
$GNVTG,,T,,M,0.006,N,0.011,K,A*3B
$GNGGA,100027.00,0419.72728,S,05539.92457,E,1,12,0.55,10.3,M,-47.6,M,,*41
$GNGSA,A,3,32,29,10,26,28,18,16,23,25,24,27,,1.16,0.55,1.03*16
$GNGSA,A,3,69,83,82,80,73,68,,,,,,,1.16,0.55,1.03*14
$GPGSV,5,1,17,10,33,327,41,16,21,285,36,18,23,037,29,23,17,009,29*75
$GPGSV,5,2,17,24,07,078,24,25,16,152,35,26,31,254,36,27,09,328,28*7F
$GPGSV,5,3,17,28,26,190,36,29,47,127,41,31,13,215,27,32,75,201,39*7A
$GPGSV,5,4,17,36,52,277,39,40,85,353,41,41,58,082,39,49,32,274,*78
$GPGSV,5,5,17,50,10,089,*4A
$GLGSV,3,1,09,68,14,018,26,69,61,353,41,70,40,224,,73,16,239,30*6F
$GLGSV,3,2,09,80,18,184,32,81,03,131,21,82,26,091,34,83,28,033,33*6A
$GLGSV,3,3,09,84,02,347,*52
$GNGLL,0419.72728,S,05539.92457,E,100027.00,A,A*6D
$GNRMC,100028.00,A,0419.72728,S,05539.92456,E,0.019,,030625,,,A*70
$GNVTG,,T,,M,0.019,N,0.035,K,A*33
$GNGGA,100028.00,0419.72728,S,05539.92456,E,1,12,0.57,10.3,M,-47.6,M,,*4D
$GNGSA,A,3,32,29,10,26,28,18,16,23,25,24,27,,1.20,0.57,1.06*14
$GNGSA,A,3,69,83,82,80,73,68,,,,,,,1.20,0.57,1.06*16
$GPGSV,5,1,17,10,33,327,41,16,21,285,36,18,23,037,29,23,17,009,30*7D
$GPGSV,5,2,17,24,07,078,24,25,16,152,35,26,31,254,36,27,09,328,29*7E
$GPGSV,5,3,17,28,26,190,37,29,47,127,41,31,13,215,27,32,75,201,40*75
$GPGSV,5,4,17,36,52,277,39,40,85,353,41,41,58,082,39,49,32,274,*78
$GPGSV,5,5,17,50,10,089,*4A
$GLGSV,3,1,09,68,14,018,25,69,61,353,41,70,40,224,,73,16,239,30*6C
$GLGSV,3,2,09,80,18,184,32,81,03,131,21,82,26,091,33,83,28,033,34*6A
$GLGSV,3,3,09,84,02,347,*52
$GNGLL,0419.72728,S,05539.92456,E,100028.00,A,A*63
$GNRMC,100029.00,A,0419.72728,S,05539.92456,E,0.007,,030625,,,A*7E
$GNVTG,,T,,M,0.007,N,0.013,K,A*38
$GNGGA,100029.00,0419.72728,S,05539.92456,E,1,12,0.57,10.3,M,-47.6,M,,*4C
$GNGSA,A,3,32,29,10,26,28,18,16,23,25,24,27,,1.20,0.57,1.06*14
$GNGSA,A,3,69,83,82,80,73,68,,,,,,,1.20,0.57,1.06*16
$GPGSV,5,1,17,10,33,327,41,16,21,285,36,18,23,037,30,23,17,009,30*75
$GPGSV,5,2,17,24,07,078,24,25,16,152,35,26,31,254,36,27,09,328,30*76
$GPGSV,5,3,17,28,26,190,37,29,47,127,41,31,13,215,26,32,75,201,40*74
$GPGSV,5,4,17,36,52,277,39,40,85,353,42,41,58,082,39,49,32,274,*7B
$GPGSV,5,5,17,50,10,089,*4A
$GLGSV,3,1,09,68,14,018,25,69,61,353,41,70,40,224,,73,16,239,30*6C
$GLGSV,3,2,09,80,18,184,33,81,03,131,20,82,26,091,32,83,28,033,35*6A
$GLGSV,3,3,09,84,02,347,*52
$GNGLL,0419.72728,S,05539.92456,E,100029.00,A,A*62
$GNRMC,100030.00,A,0419.72727,S,05539.92455,E,0.020,,030625,,,A*7F
$GNVTG,,T,,M,0.020,N,0.037,K,A*3B
$GNGGA,100030.00,0419.72727,S,05539.92455,E,1,12,0.55,10.3,M,-47.6,M,,*4A
$GNGSA,A,3,32,29,10,26,28,18,16,23,25,24,27,,1.16,0.55,1.03*16
$GNGSA,A,3,69,83,82,80,73,68,,,,,,,1.16,0.55,1.03*14
$GPGSV,5,1,17,10,33,327,41,16,21,285,36,18,23,037,30,23,17,009,30*75
$GPGSV,5,2,17,24,07,078,23,25,16,152,35,26,31,254,35,27,09,328,30*72
$GPGSV,5,3,17,28,26,190,37,29,47,127,41,31,13,215,25,32,75,201,40*77
$GPGSV,5,4,17,36,52,277,39,40,85,353,42,41,58,082,38,49,32,274,*7A
$GPGSV,5,5,17,50,10,089,*4A
$GLGSV,3,1,09,68,14,018,24,69,61,353,41,70,40,224,,73,16,239,31*6C
$GLGSV,3,2,09,80,18,184,33,81,03,131,19,82,26,091,31,83,28,033,35*63
$GLGSV,3,3,09,84,02,347,*52
$GNGLL,0419.72727,S,05539.92455,E,100030.00,A,A*66
$GNRMC,100031.00,A,0419.72727,S,05539.92455,E,0.002,,030625,,,A*7E
$GNVTG,,T,,M,0.002,N,0.003,K,A*3C
$GNGGA,100031.00,0419.72727,S,05539.92455,E,1,12,0.55,10.3,M,-47.6,M,,*4B
$GNGSA,A,3,32,29,10,26,28,18,16,23,25,24,27,,1.16,0.55,1.03*16
$GNGSA,A,3,69,83,82,80,73,68,,,,,,,1.16,0.55,1.03*14
$GPGSV,5,1,17,10,33,327,41,16,21,285,36,18,23,037,30,23,17,009,30*75
$GPGSV,5,2,17,24,07,078,25,25,16,152,35,26,31,254,35,27,09,328,30*74
$GPGSV,5,3,17,28,26,190,37,29,47,127,41,31,13,215,25,32,75,201,40*77
$GPGSV,5,4,17,36,52,277,39,40,85,353,41,41,58,082,38,49,32,274,*79
$GPGSV,5,5,17,50,10,089,*4A
$GLGSV,3,1,09,68,14,018,24,69,61,353,41,70,40,224,,73,16,239,31*6C
$GLGSV,3,2,09,80,18,184,33,81,03,131,20,82,26,091,32,83,28,033,34*6B
$GLGSV,3,3,09,84,02,347,*52
$GNGLL,0419.72727,S,05539.92455,E,100031.00,A,A*67
$GNRMC,100032.00,A,0419.72726,S,05539.92455,E,0.021,,030625,,,A*7D
$GNVTG,,T,,M,0.021,N,0.038,K,A*35
$GNGGA,100032.00,0419.72726,S,05539.92455,E,1,12,0.55,10.4,M,-47.6,M,,*4E
$GNGSA,A,3,32,29,10,26,28,18,16,23,25,24,27,,1.16,0.55,1.03*16
$GNGSA,A,3,69,83,82,80,73,68,,,,,,,1.16,0.55,1.03*14
$GPGSV,5,1,17,10,33,327,41,16,21,285,36,18,23,037,30,23,17,009,30*75
$GPGSV,5,2,17,24,07,078,25,25,16,152,35,26,31,254,35,27,09,328,29*7C
$GPGSV,5,3,17,28,26,190,37,29,47,127,41,31,13,215,25,32,75,201,40*77
$GPGSV,5,4,17,36,52,277,39,40,85,353,42,41,58,082,38,49,32,274,*7A
$GPGSV,5,5,17,50,10,089,*4A
$GLGSV,3,1,09,68,14,018,24,69,61,353,41,70,40,224,,73,16,239,31*6C
$GLGSV,3,2,09,80,18,184,33,81,03,131,19,82,26,091,32,83,28,033,35*60
$GLGSV,3,3,09,84,02,347,*52
$GNGLL,0419.72726,S,05539.92455,E,100032.00,A,A*65
$GNRMC,100033.00,A,0419.72726,S,05539.92455,E,0.009,,030625,,,A*76
$GNVTG,,T,,M,0.009,N,0.016,K,A*33
$GNGGA,100033.00,0419.72726,S,05539.92455,E,1,12,0.55,10.4,M,-47.6,M,,*4F
$GNGSA,A,3,32,29,10,26,28,18,16,23,25,24,27,,1.16,0.55,1.03*16
$GNGSA,A,3,69,83,82,80,73,68,,,,,,,1.16,0.55,1.03*14
$GPGSV,5,1,17,10,33,327,41,16,21,285,35,18,23,037,30,23,17,009,30*76
$GPGSV,5,2,17,24,07,078,24,25,16,152,35,26,31,254,35,27,09,328,29*7D
$GPGSV,5,3,17,28,26,190,37,29,47,127,41,31,13,215,24,32,75,201,40*76
$GPGSV,5,4,17,36,52,277,39,40,85,353,42,41,58,082,38,49,32,274,*7A
$GPGSV,5,5,17,50,10,089,*4A
$GLGSV,3,1,09,68,14,018,24,69,61,353,41,70,40,224,,73,16,239,31*6C
$GLGSV,3,2,09,80,18,184,33,81,03,131,19,82,26,091,31,83,29,033,35*62
$GLGSV,3,3,09,84,02,347,*52
$GNGLL,0419.72726,S,05539.92455,E,100033.00,A,A*64
$GNRMC,100034.00,A,0419.72725,S,05539.92455,E,0.013,,030625,,,A*79
$GNVTG,,T,,M,0.013,N,0.024,K,A*39
$GNGGA,100034.00,0419.72725,S,05539.92455,E,1,12,0.55,10.4,M,-47.6,M,,*4B
$GNGSA,A,3,32,29,10,26,28,18,16,23,25,24,27,,1.16,0.55,1.03*16
$GNGSA,A,3,69,83,82,80,73,68,,,,,,,1.16,0.55,1.03*14
$GPGSV,5,1,17,10,33,327,41,16,21,285,35,18,23,037,30,23,17,009,30*76
$GPGSV,5,2,17,24,07,078,23,25,16,152,35,26,31,254,35,27,09,328,29*7A
$GPGSV,5,3,17,28,26,190,36,29,47,127,41,31,13,215,23,32,75,201,40*70
$GPGSV,5,4,17,36,52,277,39,40,85,353,42,41,58,082,38,49,32,274,*7A
$GPGSV,5,5,17,50,10,089,*4A
$GLGSV,3,1,09,68,14,018,23,69,61,353,41,70,40,224,,73,16,239,30*6A
$GLGSV,3,2,09,80,18,184,33,81,03,131,20,82,26,091,30,83,29,033,35*69
$GLGSV,3,3,09,84,02,347,*52
$GNGLL,0419.72725,S,05539.92455,E,100034.00,A,A*60
$GNRMC,100035.00,A,0419.72725,S,05539.92454,E,0.019,,030625,,,A*73
$GNVTG,,T,,M,0.019,N,0.035,K,A*33
$GNGGA,100035.00,0419.72725,S,05539.92454,E,1,12,0.55,10.4,M,-47.6,M,,*4B
$GNGSA,A,3,32,29,10,26,28,18,16,23,25,24,27,,1.16,0.55,1.03*16
$GNGSA,A,3,69,83,82,80,73,68,,,,,,,1.16,0.55,1.03*14
$GPGSV,5,1,17,10,33,327,41,16,21,285,35,18,23,037,30,23,17,009,30*76
$GPGSV,5,2,17,24,07,078,22,25,16,152,35,26,31,254,35,27,09,328,29*7B
$GPGSV,5,3,17,28,26,190,36,29,47,127,41,31,13,215,23,32,75,201,40*70
$GPGSV,5,4,17,36,52,277,39,40,85,353,42,41,58,082,38,49,32,274,*7A
$GPGSV,5,5,17,50,10,089,*4A
$GLGSV,3,1,09,68,14,018,23,69,61,353,41,70,40,224,,73,16,239,31*6B
$GLGSV,3,2,09,80,18,184,33,81,03,131,19,82,26,091,31,83,29,033,35*62
$GLGSV,3,3,09,84,02,347,*52
$GNGLL,0419.72725,S,05539.92454,E,100035.00,A,A*60
$GNRMC,100036.00,A,0419.72723,S,05539.92455,E,0.033,,030625,,,A*7F
$GNVTG,,T,,M,0.033,N,0.062,K,A*39
$GNGGA,100036.00,0419.72723,S,05539.92455,E,1,12,0.55,10.4,M,-47.6,M,,*4F
$GNGSA,A,3,32,29,10,26,28,18,16,23,25,24,27,,1.16,0.55,1.03*16
$GNGSA,A,3,69,83,82,80,73,68,,,,,,,1.16,0.55,1.03*14
$GPGSV,5,1,17,10,33,327,41,16,21,285,35,18,23,037,29,23,17,009,30*7E
$GPGSV,5,2,17,24,07,078,23,25,16,152,35,26,31,254,35,27,09,328,29*7A
$GPGSV,5,3,17,28,26,190,37,29,47,127,41,31,13,215,23,32,75,201,40*71
$GPGSV,5,4,17,36,52,277,39,40,85,353,41,41,58,082,38,49,32,274,*79
$GPGSV,5,5,17,50,10,089,*4A
$GLGSV,3,1,09,68,14,018,23,69,61,353,41,70,40,224,,73,16,239,31*6B
$GLGSV,3,2,09,80,18,184,33,81,03,131,19,82,26,091,31,83,29,033,35*62
$GLGSV,3,3,09,84,02,347,*52
$GNGLL,0419.72723,S,05539.92455,E,100036.00,A,A*64
$GNRMC,100037.00,A,0419.72722,S,05539.92456,E,0.015,,030625,,,A*78
$GNVTG,,T,,M,0.015,N,0.028,K,A*33
$GNGGA,100037.00,0419.72722,S,05539.92456,E,1,12,0.55,10.4,M,-47.6,M,,*4C
$GNGSA,A,3,32,29,10,26,28,18,16,23,25,24,27,,1.16,0.55,1.03*16
$GNGSA,A,3,69,83,82,80,73,68,,,,,,,1.16,0.55,1.03*14
$GPGSV,5,1,17,10,33,327,40,16,21,285,35,18,23,037,29,23,17,009,29*77
$GPGSV,5,2,17,24,07,078,23,25,16,152,35,26,31,254,35,27,09,328,29*7A
$GPGSV,5,3,17,28,26,190,36,29,47,127,40,31,13,215,24,32,75,201,39*78
$GPGSV,5,4,17,36,52,277,38,40,85,353,40,41,58,082,37,49,32,274,*76
$GPGSV,5,5,17,50,10,089,*4A
$GLGSV,3,1,09,68,14,018,23,69,61,353,41,70,40,224,,73,16,239,31*6B
$GLGSV,3,2,09,80,18,184,33,81,03,131,19,82,26,091,31,83,29,033,35*62
$GLGSV,3,3,09,84,02,347,*52
$GNGLL,0419.72722,S,05539.92456,E,100037.00,A,A*67
$GNRMC,100038.00,A,0419.72722,S,05539.92456,E,0.006,,030625,,,A*75
$GNVTG,,T,,M,0.006,N,0.011,K,A*3B
$GNGGA,100038.00,0419.72722,S,05539.92456,E,1,12,0.55,10.4,M,-47.6,M,,*43
$GNGSA,A,3,32,29,10,26,28,18,16,23,25,24,27,,1.16,0.55,1.03*16
$GNGSA,A,3,69,83,82,80,73,68,,,,,,,1.16,0.55,1.03*14
$GPGSV,5,1,17,10,33,327,40,16,21,285,35,18,23,037,30,23,17,009,30*77
$GPGSV,5,2,17,24,07,078,23,25,16,152,35,26,31,254,35,27,09,328,29*7A
$GPGSV,5,3,17,28,26,190,36,29,47,127,41,31,13,215,22,32,75,201,40*71
$GPGSV,5,4,17,36,52,277,38,40,85,353,42,41,58,082,38,49,32,274,*7B
$GPGSV,5,5,17,50,10,089,*4A
$GLGSV,3,1,09,68,14,018,23,69,61,353,41,70,40,224,,73,16,239,30*6A
$GLGSV,3,2,09,80,18,184,33,81,03,131,19,82,26,091,31,83,29,033,35*62
$GLGSV,3,3,09,84,02,347,*52
$GNGLL,0419.72722,S,05539.92456,E,100038.00,A,A*68
$GNRMC,100039.00,A,0419.72720,S,05539.92457,E,0.018,,030625,,,A*78
$GNVTG,,T,,M,0.018,N,0.034,K,A*33
$GNGGA,100039.00,0419.72720,S,05539.92457,E,1,12,0.55,10.4,M,-47.6,M,,*41
$GNGSA,A,3,32,29,10,26,28,18,16,23,25,24,27,,1.16,0.55,1.03*16
$GNGSA,A,3,69,83,82,80,73,68,,,,,,,1.16,0.55,1.03*14
$GPGSV,5,1,17,10,33,327,40,16,21,285,35,18,23,037,30,23,17,009,30*77
$GPGSV,5,2,17,24,07,078,24,25,16,152,35,26,31,254,35,27,09,328,29*7D
$GPGSV,5,3,17,28,26,190,37,29,47,127,41,31,13,215,22,32,75,201,40*70
$GPGSV,5,4,17,36,52,277,38,40,85,353,41,41,58,082,38,49,32,274,*78
$GPGSV,5,5,17,50,10,089,*4A
$GLGSV,3,1,09,68,14,018,24,69,61,353,41,70,40,224,,73,16,239,31*6C
$GLGSV,3,2,09,80,18,184,33,81,03,131,18,82,26,091,31,83,29,033,35*63
$GLGSV,3,3,09,84,02,347,*52
$GNGLL,0419.72720,S,05539.92457,E,100039.00,A,A*6A
$GNRMC,100040.00,A,0419.72719,S,05539.92457,E,0.007,,030625,,,A*72
$GNVTG,,T,,M,0.007,N,0.014,K,A*3F
$GNGGA,100040.00,0419.72719,S,05539.92457,E,1,12,0.55,10.5,M,-47.6,M,,*44
$GNGSA,A,3,32,29,10,26,28,18,16,23,25,24,27,,1.16,0.55,1.03*16
$GNGSA,A,3,69,83,82,80,73,68,,,,,,,1.16,0.55,1.03*14
$GPGSV,5,1,17,10,33,327,40,16,21,285,35,18,23,037,30,23,17,009,30*77
$GPGSV,5,2,17,24,07,078,24,25,16,152,36,26,31,254,35,27,09,328,29*7E
$GPGSV,5,3,17,28,26,190,37,29,47,127,41,31,13,215,22,32,75,201,40*70
$GPGSV,5,4,17,36,52,277,38,40,85,353,41,41,58,082,38,49,32,274,*78
$GPGSV,5,5,17,50,10,089,*4A
$GLGSV,3,1,09,68,14,018,25,69,61,353,40,70,40,224,,73,16,239,30*6D
$GLGSV,3,2,09,80,18,184,33,81,03,131,18,82,26,091,32,83,29,033,34*61
$GLGSV,3,3,09,84,02,347,*52
$GNGLL,0419.72719,S,05539.92457,E,100040.00,A,A*6E
$GNRMC,100041.00,A,0419.72718,S,05539.92458,E,0.029,,030625,,,A*71
$GNVTG,,T,,M,0.029,N,0.053,K,A*30
$GNGGA,100041.00,0419.72718,S,05539.92458,E,1,12,0.55,10.5,M,-47.6,M,,*4B
$GNGSA,A,3,32,29,10,26,28,18,16,23,25,24,27,,1.16,0.55,1.03*16
$GNGSA,A,3,69,83,82,80,73,68,,,,,,,1.16,0.55,1.03*14
$GPGSV,5,1,17,10,33,327,40,16,21,285,34,18,23,037,29,23,17,009,28*77
$GPGSV,5,2,17,24,07,078,24,25,16,152,35,26,31,254,34,27,09,328,28*7D
$GPGSV,5,3,17,28,26,190,36,29,47,127,40,31,13,215,22,32,75,201,40*70
$GPGSV,5,4,17,36,52,277,37,40,85,353,40,41,58,082,37,49,32,274,*79
$GPGSV,5,5,17,50,10,089,*4A
$GLGSV,3,1,09,68,14,018,26,69,61,353,41,70,40,224,,73,16,239,30*6F
$GLGSV,3,2,09,80,18,184,33,81,03,131,17,82,26,091,33,83,29,033,31*6A
$GLGSV,3,3,09,84,02,347,*52
$GNGLL,0419.72718,S,05539.92458,E,100041.00,A,A*61
$GNRMC,100042.00,A,0419.72717,S,05539.92458,E,0.010,,030625,,,A*77
$GNVTG,,T,,M,0.010,N,0.018,K,A*35
$GNGGA,100042.00,0419.72717,S,05539.92458,E,1,12,0.54,10.5,M,-47.6,M,,*46
$GNGSA,A,3,32,29,10,26,28,18,16,23,25,24,27,41,1.08,0.54,0.94*12
$GNGSA,A,3,69,83,82,80,73,68,,,,,,,1.08,0.54,0.94*15
$GPGSV,5,1,17,10,33,327,39,16,21,285,34,18,23,037,28,23,17,009,28*78
$GPGSV,5,2,17,24,07,078,25,25,16,152,35,26,31,254,34,27,09,328,27*73
$GPGSV,5,3,17,28,26,190,36,29,47,127,40,31,13,215,22,32,75,201,40*70
$GPGSV,5,4,17,36,52,277,36,40,85,353,40,41,58,082,37,49,32,274,*78
$GPGSV,5,5,17,50,10,089,*4A
$GLGSV,3,1,09,68,14,018,27,69,61,353,40,70,40,224,,73,16,239,31*6E
$GLGSV,3,2,09,80,18,184,34,81,03,131,18,82,26,091,33,83,29,033,33*60
$GLGSV,3,3,09,84,02,347,*52
$GNGLL,0419.72717,S,05539.92458,E,100042.00,A,A*6D
$GNRMC,100043.00,A,0419.72716,S,05539.92458,E,0.029,,030625,,,A*7D
$GNVTG,,T,,M,0.029,N,0.054,K,A*37
$GNGGA,100043.00,0419.72716,S,05539.92458,E,1,12,0.54,10.4,M,-47.6,M,,*47
$GNGSA,A,3,32,29,10,26,28,18,16,23,25,24,27,41,1.08,0.54,0.94*12
$GNGSA,A,3,69,83,82,80,73,68,,,,,,,1.08,0.54,0.94*15
$GPGSV,5,1,17,10,33,327,39,16,21,285,34,18,23,037,28,23,17,009,28*78
$GPGSV,5,2,17,24,07,078,24,25,16,152,34,26,31,254,35,27,09,328,27*72
$GPGSV,5,3,17,28,26,190,36,29,47,127,40,31,13,215,22,32,75,201,40*70
$GPGSV,5,4,17,36,52,277,36,40,85,353,40,41,58,082,37,49,32,274,*78
$GPGSV,5,5,17,50,10,089,*4A
$GLGSV,3,1,09,68,14,018,26,69,61,353,40,70,40,224,,73,16,239,30*6E
$GLGSV,3,2,09,80,18,184,34,81,03,131,18,82,26,091,32,83,29,033,34*66
$GLGSV,3,3,09,84,02,347,*52
$GNGLL,0419.72716,S,05539.92458,E,100043.00,A,A*6D
$GNRMC,100044.00,A,0419.72715,S,05539.92459,E,0.011,,030625,,,A*73
$GNVTG,,T,,M,0.011,N,0.021,K,A*3E
$GNGGA,100044.00,0419.72715,S,05539.92459,E,1,12,0.54,10.4,M,-47.6,M,,*42
$GNGSA,A,3,32,29,10,26,28,18,16,23,25,24,27,41,1.08,0.54,0.94*12
$GNGSA,A,3,69,83,82,80,73,68,,,,,,,1.08,0.54,0.94*15
$GPGSV,5,1,17,10,33,327,39,16,21,285,35,18,23,037,29,23,17,009,28*78
$GPGSV,5,2,17,24,07,078,22,25,16,152,35,26,31,254,36,27,09,328,27*76
$GPGSV,5,3,17,28,26,190,36,29,47,127,41,31,13,215,23,32,75,201,40*70
$GPGSV,5,4,17,36,52,277,37,40,85,353,41,41,58,082,39,49,32,274,*76
$GPGSV,5,5,17,50,10,089,*4A
$GLGSV,3,1,09,68,14,018,25,69,61,353,41,70,40,224,,73,16,239,30*6C
$GLGSV,3,2,09,80,18,184,34,81,03,131,18,82,26,091,31,83,29,033,36*67
$GLGSV,3,3,09,84,02,347,*52
$GNGLL,0419.72715,S,05539.92459,E,100044.00,A,A*68
$GNRMC,100045.00,A,0419.72715,S,05539.92460,E,0.007,,030625,,,A*7F
$GNVTG,,T,,M,0.007,N,0.014,K,A*3F
$GNGGA,100045.00,0419.72715,S,05539.92460,E,1,12,0.54,10.5,M,-47.6,M,,*48
$GNGSA,A,3,32,29,10,26,28,18,16,23,25,24,27,41,1.08,0.54,0.94*12
$GNGSA,A,3,69,83,82,80,73,68,,,,,,,1.08,0.54,0.94*15
$GPGSV,5,1,17,10,33,327,39,16,21,285,35,18,23,037,30,23,17,009,29*71
$GPGSV,5,2,17,24,07,078,22,25,16,152,35,26,31,254,35,27,09,328,28*7A
$GPGSV,5,3,17,28,26,190,36,29,47,127,41,31,13,215,24,32,75,201,40*77
$GPGSV,5,4,17,36,52,277,37,40,85,353,41,41,58,082,38,49,32,274,*77
$GPGSV,5,5,17,50,10,089,*4A
$GLGSV,3,1,09,68,14,018,25,69,61,353,40,70,40,224,,73,16,239,30*6D
$GLGSV,3,2,09,80,18,184,34,81,03,131,17,82,26,091,31,83,29,033,35*6B
$GLGSV,3,3,09,84,02,347,*52
$GNGLL,0419.72715,S,05539.92460,E,100045.00,A,A*63
$GNRMC,100046.00,A,0419.72715,S,05539.92460,E,0.016,,030625,,,A*7C
$GNVTG,,T,,M,0.016,N,0.030,K,A*39
$GNGGA,100046.00,0419.72715,S,05539.92460,E,1,12,0.54,10.5,M,-47.6,M,,*4B
$GNGSA,A,3,32,29,10,26,28,18,16,23,25,24,27,41,1.08,0.54,0.94*12
$GNGSA,A,3,69,83,82,80,73,68,,,,,,,1.08,0.54,0.94*15
$GPGSV,5,1,17,10,33,327,41,16,21,285,36,18,23,037,33,23,17,009,29*7E
$GPGSV,5,2,17,24,07,078,21,25,16,152,35,26,31,254,36,27,09,328,28*7A
$GPGSV,5,3,17,28,26,190,36,29,47,127,41,31,13,215,24,32,75,201,39*79
$GPGSV,5,4,17,36,52,277,39,40,85,353,42,41,58,082,39,49,32,274,*7B
$GPGSV,5,5,17,50,10,089,*4A
$GLGSV,3,1,09,68,14,018,25,69,61,353,40,70,40,224,,73,16,239,29*65
$GLGSV,3,2,09,80,18,184,33,81,03,131,18,82,26,091,31,83,29,033,35*63
$GLGSV,3,3,09,84,02,347,*52
$GNGLL,0419.72715,S,05539.92460,E,100046.00,A,A*60
$GNRMC,100047.00,A,0419.72715,S,05539.92460,E,0.022,,030625,,,A*7A
$GNVTG,,T,,M,0.022,N,0.040,K,A*39
$GNGGA,100047.00,0419.72715,S,05539.92460,E,1,12,0.54,10.5,M,-47.6,M,,*4A
$GNGSA,A,3,32,29,10,26,28,18,16,23,25,24,27,41,1.08,0.54,0.94*12
$GNGSA,A,3,69,83,82,80,73,68,,,,,,,1.08,0.54,0.94*15
$GPGSV,5,1,17,10,33,327,40,16,21,285,36,18,23,037,32,23,17,009,29*7E
$GPGSV,5,2,17,24,07,078,20,25,16,152,36,26,31,254,36,27,09,328,28*78
$GPGSV,5,3,17,28,26,190,36,29,47,127,41,31,13,215,25,32,75,201,39*78
$GPGSV,5,4,17,36,52,277,39,40,85,353,42,41,58,082,39,49,32,274,*7B
$GPGSV,5,5,17,50,10,089,*4A
$GLGSV,3,1,09,68,14,018,25,69,61,353,40,70,40,224,,73,16,239,28*64
$GLGSV,3,2,09,80,18,184,33,81,03,131,18,82,26,091,30,83,29,033,35*62
$GLGSV,3,3,09,84,02,347,*52
$GNGLL,0419.72715,S,05539.92460,E,100047.00,A,A*61
$GNRMC,100048.00,A,0419.72714,S,05539.92460,E,0.019,,030625,,,A*7C
$GNVTG,,T,,M,0.019,N,0.035,K,A*33
$GNGGA,100048.00,0419.72714,S,05539.92460,E,1,12,0.54,10.6,M,-47.6,M,,*47
$GNGSA,A,3,32,29,10,26,28,18,16,23,25,24,27,41,1.08,0.54,0.94*12
$GNGSA,A,3,69,83,82,80,73,68,,,,,,,1.08,0.54,0.94*15
$GPGSV,5,1,17,10,33,327,40,16,21,285,36,18,23,037,32,23,17,009,29*7E
$GPGSV,5,2,17,24,07,078,20,25,16,152,36,26,31,254,36,27,09,328,29*79
$GPGSV,5,3,17,28,26,190,36,29,47,127,41,31,13,215,26,32,75,201,39*7B
$GPGSV,5,4,17,36,52,277,39,40,85,353,42,41,58,082,39,49,32,274,*7B
$GPGSV,5,5,17,50,10,089,*4A
$GLGSV,3,1,09,68,14,018,25,69,61,353,40,70,40,224,,73,16,239,28*64
$GLGSV,3,2,09,80,18,184,33,81,03,131,18,82,26,091,31,83,29,033,35*63
$GLGSV,3,3,09,84,02,347,*52
$GNGLL,0419.72714,S,05539.92460,E,100048.00,A,A*6F
$GNRMC,100049.00,A,0419.72714,S,05539.92460,E,0.010,,030625,,,A*74
$GNVTG,,T,,M,0.010,N,0.019,K,A*34
$GNGGA,100049.00,0419.72714,S,05539.92460,E,1,12,0.54,10.6,M,-47.6,M,,*46
$GNGSA,A,3,32,29,10,26,28,18,16,23,25,24,27,41,1.08,0.54,0.94*12
$GNGSA,A,3,69,83,82,80,73,68,,,,,,,1.08,0.54,0.94*15
$GPGSV,5,1,17,10,33,327,40,16,21,285,36,18,23,037,32,23,17,009,30*76
$GPGSV,5,2,17,24,07,078,20,25,16,152,36,26,31,254,36,27,09,328,29*79
$GPGSV,5,3,17,28,26,190,36,29,47,127,41,31,13,215,26,32,75,201,39*7B
$GPGSV,5,4,17,36,52,277,39,40,85,353,42,41,58,082,39,49,32,274,*7B
$GPGSV,5,5,17,50,10,089,*4A
$GLGSV,3,1,09,68,13,018,25,69,61,353,40,70,40,224,,73,16,239,28*63
$GLGSV,3,2,09,80,18,184,33,81,03,131,18,82,26,091,31,83,29,033,35*63
$GLGSV,3,3,09,84,02,347,*52
$GNGLL,0419.72714,S,05539.92460,E,100049.00,A,A*6E
$GNRMC,100050.00,A,0419.72714,S,05539.92461,E,0.005,,030625,,,A*79
$GNVTG,,T,,M,0.005,N,0.010,K,A*39
$GNGGA,100050.00,0419.72714,S,05539.92461,E,1,12,0.54,10.6,M,-47.6,M,,*4F
$GNGSA,A,3,32,29,10,26,28,18,16,23,25,24,27,41,1.08,0.54,0.94*12
$GNGSA,A,3,69,83,82,80,73,68,,,,,,,1.08,0.54,0.94*15
$GPGSV,5,1,17,10,33,327,40,16,21,285,36,18,23,037,31,23,17,009,30*75
$GPGSV,5,2,17,24,07,078,20,25,16,152,35,26,31,254,36,27,09,328,29*7A
$GPGSV,5,3,17,28,26,190,36,29,47,127,41,31,13,215,25,32,75,201,40*76
$GPGSV,5,4,17,36,52,277,39,40,85,353,42,41,58,082,38,49,32,274,*7A
$GPGSV,5,5,17,50,10,089,*4A
$GLGSV,3,1,09,68,13,018,25,69,60,353,40,70,40,224,,73,16,239,29*63
$GLGSV,3,2,09,80,18,184,33,81,03,131,17,82,26,091,31,83,29,033,35*6C
$GLGSV,3,3,09,84,02,347,*52
$GNGLL,0419.72714,S,05539.92461,E,100050.00,A,A*67
$GNRMC,100051.00,A,0419.72713,S,05539.92461,E,0.028,,030625,,,A*70
$GNVTG,,T,,M,0.028,N,0.052,K,A*30
$GNGGA,100051.00,0419.72713,S,05539.92461,E,1,12,0.54,10.7,M,-47.6,M,,*48
$GNGSA,A,3,32,29,10,26,28,18,16,23,25,24,27,41,1.08,0.54,0.94*12
$GNGSA,A,3,69,83,82,80,73,68,,,,,,,1.08,0.54,0.94*15
$GPGSV,5,1,17,10,33,327,40,16,21,285,36,18,23,037,31,23,17,009,30*75
$GPGSV,5,2,17,24,07,078,20,25,16,152,36,26,31,254,36,27,09,328,29*79
$GPGSV,5,3,17,28,26,190,37,29,47,127,42,31,13,215,24,32,75,201,41*74
$GPGSV,5,4,17,36,52,277,39,40,85,353,42,41,58,082,39,49,32,274,*7B
$GPGSV,5,5,17,50,10,089,*4A
$GLGSV,3,1,09,68,13,018,25,69,60,353,40,70,41,224,,73,16,239,30*6A
$GLGSV,3,2,09,80,18,184,34,81,03,131,16,82,26,091,31,83,29,033,35*6A
$GLGSV,3,3,09,84,02,347,*52
$GNGLL,0419.72713,S,05539.92461,E,100051.00,A,A*61
$GNRMC,100052.00,A,0419.72713,S,05539.92461,E,0.023,,030625,,,A*78
$GNVTG,,T,,M,0.023,N,0.042,K,A*3A
$GNGGA,100052.00,0419.72713,S,05539.92461,E,1,12,0.54,10.7,M,-47.6,M,,*4B
$GNGSA,A,3,32,29,10,26,28,18,16,23,25,24,27,41,1.08,0.54,0.94*12
$GNGSA,A,3,69,83,82,80,73,68,,,,,,,1.08,0.54,0.94*15
$GPGSV,5,1,17,10,33,327,39,16,21,285,35,18,23,037,32,23,17,009,30*7B
$GPGSV,5,2,17,24,07,078,20,25,16,152,36,26,31,254,33,27,09,328,29*7C
$GPGSV,5,3,17,28,26,190,36,29,47,127,41,31,13,215,23,32,75,201,39*7E
$GPGSV,5,4,17,36,52,277,37,40,85,353,42,41,58,082,38,49,32,274,*74
$GPGSV,5,5,17,50,10,089,*4A
$GLGSV,3,1,09,68,13,018,26,69,60,353,41,70,41,224,,73,16,239,22*6B
$GLGSV,3,2,09,80,18,184,34,81,03,131,18,82,26,091,35,83,29,033,35*60
$GLGSV,3,3,09,84,02,347,*52
$GNGLL,0419.72713,S,05539.92461,E,100052.00,A,A*62
