$GNRMC,110429.00,A,0419.96118,S,05539.68925,E,0.083,,260525,,,A*70
$GNVTG,,T,,M,0.083,N,0.153,K,A*31
$GNGGA,110429.00,0419.96118,S,05539.68925,E,1,11,1.06,36.1,M,-47.6,M,,*4A
$GNGSA,A,3,32,29,26,28,31,,,,,,,,2.03,1.06,1.73*19
$GNGSA,A,3,69,82,70,80,73,71,,,,,,,2.03,1.06,1.73*17
$GPGSV,5,1,17,10,26,340,,16,24,270,,18,27,052,,23,10,020,*74
$GPGSV,5,2,17,24,02,066,,25,09,143,,26,31,238,30,27,21,326,*79
$GPGSV,5,3,17,28,33,178,35,29,36,139,38,31,18,205,30,32,86,293,19*75
$GNRMC,110436.00,A,0419.96118,S,05539.68951,E,0.091,,260525,,,A*7E
$GNVTG,,T,,M,0.091,N,0.168,K,A*3A
$GNGGA,110436.00,0419.96118,S,05539.68951,E,1,12,0.93,36.0,M,-47.6,M,,*48
$GNGSA,A,3,32,29,26,10,28,31,25,16,,,,,1.78,0.93,1.52*19
$GNGSA,A,3,69,82,70,80,73,71,,,,,,,1.78,0.93,1.52*16
$GPGSV,5,1,17,10,26,340,19,16,24,270,19,18,27,052,,23,10,020,*74
$GPGSV,5,2,17,24,02,066,,25,09,143,15,26,31,238,33,27,21,326,17*78
$GPGSV,5,3,17,28,33,178,37,29,36,140,31,31,19,204,34,32,85,301,31*77
$GPGSV,5,4,17,36,52,277,,40,84,353,,41,58,082,27,49,32,274,*79
$GPGSV,5,5,17,50,10,089,*4A
$GLGSV,3,1,10,68,00,019,,69,42,357,26,70,49,246,25,71,11,215,25*66
$GLGSV,3,2,10,73,14,223,25,80,14,169,28,82,26,111,21,83,39,050,*61
$GLGSV,3,3,10,84,12,357,,,,,24*5C
$GNGLL,0419.96118,S,05539.68951,E,110436.00,A,A*69
$GNRMC,110438.00,A,0419.96117,S,05539.68952,E,0.079,,260525,,,A*7A
$GNVTG,,T,,M,0.079,N,0.145,K,A*33
$GNGGA,110438.00,0419.96117,S,05539.68952,E,1,12,0.76,36.2,M,-47.6,M,,*43
$GNGSA,A,3,32,29,26,10,28,31,25,16,,,,,1.54,0.76,1.34*1C
$GNGSA,A,3,69,82,70,80,73,71,,,,,,,1.54,0.76,1.34*13
$GPGSV,5,1,17,10,26,340,22,16,24,270,19,18,27,052,,23,10,020,*7C
$GPGSV,5,2,17,24,02,066,,25,09,143,12,26,31,238,35,27,21,326,16*78
$GPGSV,5,3,17,28,33,178,37,29,36,140,37,31,19,204,34,32,85,301,33*73
$GPGSV,5,4,17,36,52,277,,40,84,353,,41,58,082,,49,32,274,*7C
$GPGSV,5,5,17,50,10,089,*4A
$GLGSV,3,1,10,68,00,019,,69,42,357,23,70,49,246,26,71,11,215,25*60
$GLGSV,3,2,10,73,14,223,26,80,14,169,31,82,26,111,22,83,39,050,*69
$GLGSV,3,3,10,84,12,357,,,,,31*58
$GNGLL,0419.96117,S,05539.68952,E,110438.00,A,A*6B
$GNRMC,110443.00,A,0419.96142,S,05539.68958,E,0.118,,260525,,,A*7A
$GNVTG,,T,,M,0.118,N,0.218,K,A*3E
$GNGGA,110443.00,0419.96142,S,05539.68958,E,1,12,0.76,37.0,M,-47.6,M,,*46
$GNGSA,A,3,32,29,26,10,28,31,25,16,,,,,1.54,0.76,1.34*1C
$GNGSA,A,3,69,82,70,80,73,71,,,,,,,1.54,0.76,1.34*13
$GPGSV,5,1,17,10,26,340,20,16,24,270,20,18,27,052,,23,10,020,*74
$GPGSV,5,2,17,24,02,066,,25,09,143,16,26,31,238,35,27,21,326,14*7E
$GPGSV,5,3,17,28,33,178,38,29,36,140,35,31,19,204,34,32,85,301,35*78
$GPGSV,5,4,17,36,52,277,,40,84,353,,41,58,082,,49,32,274,*7C
$GPGSV,5,5,17,50,10,089,*4A
$GLGSV,3,1,10,68,00,019,,69,42,357,21,70,49,246,25,71,11,215,27*63
$GLGSV,3,2,10,73,14,223,31,80,14,169,30,82,26,111,20,83,39,050,*6C
$GLGSV,3,3,10,84,12,357,,,,,26*5E
$GNGLL,0419.96142,S,05539.68958,E,110443.00,A,A*6D
$GNRMC,110444.00,A,0419.96137,S,05539.68961,E,0.111,,260525,,,A*7C
$GNVTG,,T,,M,0.111,N,0.205,K,A*3B
$GNGGA,110444.00,0419.96137,S,05539.68961,E,1,12,0.76,37.0,M,-47.6,M,,*49
$GNGSA,A,3,32,29,26,10,28,31,25,16,,,,,1.54,0.76,1.34*1C
$GNGSA,A,3,69,82,70,80,73,71,,,,,,,1.54,0.76,1.34*13
$GPGSV,5,1,17,10,26,340,21,16,24,270,21,18,27,052,,23,10,020,*74
$GPGSV,5,2,17,24,02,066,,25,09,143,16,26,31,238,35,27,21,326,16*7C
$GPGSV,5,3,17,28,33,178,38,29,36,140,39,31,19,204,34,32,85,301,30*71
$GPGSV,5,4,17,36,52,277,,40,84,353,,41,58,082,,49,32,274,*7C
$GPGSV,5,5,17,50,10,089,*4A
$GLGSV,3,1,10,68,00,019,,69,42,357,23,70,49,246,24,71,11,215,26*61
$GLGSV,3,2,10,73,14,223,24,80,14,169,28,82,26,111,21,83,39,050,*60
$GLGSV,3,3,10,84,12,357,,,,,26*5E
$GNGLL,0419.96137,S,05539.68961,E,110444.00,A,A*62
$GNRMC,110447.00,A,0419.96104,S,05539.68964,E,0.206,,260525,,,A*7F
$GNVTG,,T,,M,0.206,N,0.382,K,A*30
$GNGGA,110447.00,0419.96104,S,05539.68964,E,1,12,0.76,36.6,M,-47.6,M,,*48
$GNGSA,A,3,32,29,26,10,28,31,25,16,,,,,1.54,0.76,1.34*1C
$GNGSA,A,3,69,82,70,80,73,71,,,,,,,1.54,0.76,1.34*13
$GPGSV,5,1,17,10,26,340,22,16,24,270,22,18,27,052,,23,10,020,*74
$GPGSV,5,2,17,24,02,066,,25,09,143,16,26,31,238,32,27,21,326,16*7B
$GPGSV,5,3,17,28,33,178,38,29,36,140,38,31,19,204,37,32,85,301,31*72
$GPGSV,5,4,17,36,52,277,,40,84,353,,41,58,082,29,49,32,274,*77
$GPGSV,5,5,17,50,10,089,*4A
$GLGSV,3,1,10,68,00,019,,69,42,357,25,70,49,246,23,71,11,215,23*65
$GLGSV,3,2,10,73,14,223,26,80,14,169,28,82,26,111,22,83,39,050,22*61
$GLGSV,3,3,10,84,12,357,,,,,25*5D
$GNGLL,0419.96104,S,05539.68964,E,110447.00,A,A*64
$GNRMC,110448.00,A,0419.96102,S,05539.68967,E,0.075,,260525,,,A*73
$GNVTG,,T,,M,0.075,N,0.138,K,A*35
$GNGGA,110448.00,0419.96102,S,05539.68967,E,1,12,0.76,36.3,M,-47.6,M,,*47
$GNGSA,A,3,32,29,26,10,28,31,25,16,,,,,1.54,0.76,1.34*1C
$GNGSA,A,3,69,82,70,80,73,71,,,,,,,1.54,0.76,1.34*13
$GPGSV,5,1,17,10,26,340,21,16,24,270,20,18,27,052,,23,10,020,*75
$GPGSV,5,2,17,24,02,066,,25,09,143,16,26,31,238,36,27,21,326,16*7F
$GPGSV,5,3,17,28,33,178,36,29,36,140,37,31,19,204,35,32,85,301,35*75
$GPGSV,5,4,17,36,52,277,,40,84,353,,41,58,082,29,49,32,274,*77
$GPGSV,5,5,17,50,10,089,*4A
$GLGSV,3,1,10,68,00,019,,69,42,357,25,70,49,246,24,71,11,215,24*65
$GLGSV,3,2,10,73,14,223,26,80,14,169,27,82,26,111,20,83,39,050,20*6E
$GLGSV,3,3,10,84,12,357,,,,,31*58
$GNGLL,0419.96102,S,05539.68967,E,110448.00,A,A*6E
$GNRMC,110449.00,A,0419.96095,S,05539.68965,E,0.037,,260525,,,A*79
$GNVTG,,T,,M,0.037,N,0.069,K,A*36
$GNGGA,110449.00,0419.96095,S,05539.68965,E,1,12,0.76,36.0,M,-47.6,M,,*48
$GNGSA,A,3,32,29,26,10,28,31,25,16,,,,,1.54,0.76,1.34*1C
$GNGSA,A,3,69,82,70,80,73,71,,,,,,,1.54,0.76,1.34*13
$GPGSV,5,1,17,10,26,340,21,16,24,270,19,18,27,052,,23,10,020,*7F
$GPGSV,5,2,17,24,02,066,,25,09,143,16,26,31,238,35,27,21,326,15*7F
$GPGSV,5,3,17,28,33,178,37,29,36,140,37,31,19,204,34,32,85,301,35*75
$GPGSV,5,4,17,36,52,277,,40,84,353,,41,58,082,28,49,32,274,*76
$GPGSV,5,5,17,50,10,089,*4A
$GLGSV,3,1,10,68,00,019,,69,42,357,24,70,49,246,25,71,11,215,25*64
$GLGSV,3,2,10,73,14,223,28,80,14,169,27,82,26,111,20,83,39,050,19*6A
$GLGSV,3,3,10,84,12,357,,,,,29*51
$GNGLL,0419.96095,S,05539.68965,E,110449.00,A,A*62
$GNRMC,110450.00,A,0419.96095,S,05539.68963,E,0.088,,260525,,,A*73
$GNVTG,,T,,M,0.088,N,0.164,K,A*3E
$GNGGA,110450.00,0419.96095,S,05539.68963,E,1,12,0.76,36.0,M,-47.6,M,,*46
$GNGSA,A,3,32,29,26,10,28,31,25,16,,,,,1.54,0.76,1.34*1C
$GNGSA,A,3,69,82,70,80,73,71,,,,,,,1.54,0.76,1.34*13
$GPGSV,5,1,17,10,26,340,21,16,24,270,22,18,27,052,,23,10,020,*77
$GPGSV,5,2,17,24,02,066,,25,09,143,18,26,31,238,35,27,21,326,15*71
$GPGSV,5,3,17,28,33,178,37,29,36,140,38,31,19,204,34,32,85,301,35*7A
$GPGSV,5,4,17,36,52,277,,40,84,353,,41,58,082,27,49,32,274,*79
$GPGSV,5,5,17,50,10,089,*4A
$GLGSV,3,1,10,68,00,019,,69,42,357,24,70,49,246,25,71,11,215,25*64
$GLGSV,3,2,10,73,14,223,28,80,14,169,26,82,26,111,19,83,39,050,18*60
$GLGSV,3,3,10,84,12,357,,,,,34*5D
$GNGLL,0419.96095,S,05539.68963,E,110450.00,A,A*6C
$GNRMC,110453.00,A,0419.96077,S,05539.68963,E,0.130,,260525,,,A*7E
$GNVTG,,T,,M,0.130,N,0.241,K,A*38
$GNGGA,110453.00,0419.96077,S,05539.68963,E,1,12,0.76,35.6,M,-47.6,M,,*4C
$GNGSA,A,3,32,29,26,10,28,31,25,16,,,,,1.54,0.76,1.34*1C
$GNGSA,A,3,69,82,70,80,73,71,,,,,,,1.54,0.76,1.34*13
$GPGSV,5,1,17,10,26,340,23,16,24,270,22,18,27,052,15,23,10,020,*71
$GPGSV,5,2,17,24,02,066,,25,09,143,18,26,31,238,36,27,21,326,11*76
$GPGSV,5,3,17,28,33,178,37,29,36,140,37,31,19,204,33,32,85,301,33*74
$GPGSV,5,4,17,36,52,277,35,40,84,353,,41,58,082,,49,32,274,*7A
$GPGSV,5,5,17,50,10,089,*4A
$GLGSV,3,1,10,68,00,019,,69,42,357,16,70,49,246,25,71,11,215,28*68
$GLGSV,3,2,10,73,14,223,28,80,14,169,27,82,26,111,23,83,39,050,22*61
$GLGSV,3,3,10,84,12,357,,,,,30*59
$GNGLL,0419.96077,S,05539.68963,E,110453.00,A,A*63
$GNRMC,110454.00,A,0419.96071,S,05539.68965,E,0.174,,260525,,,A*79
$GNVTG,,T,,M,0.174,N,0.322,K,A*3C
$GNGGA,110454.00,0419.96071,S,05539.68965,E,1,12,0.76,35.4,M,-47.6,M,,*49
$GNGSA,A,3,32,29,26,10,28,31,25,16,,,,,1.54,0.76,1.34*1C
$GNGSA,A,3,69,82,70,80,73,71,,,,,,,1.54,0.76,1.34*13
$GPGSV,5,1,17,10,26,340,23,16,24,270,20,18,27,052,14,23,10,020,*72
$GPGSV,5,2,17,24,02,066,,25,09,143,19,26,31,238,36,27,21,326,10*76
$GPGSV,5,3,17,28,33,178,36,29,36,140,37,31,19,204,33,32,85,301,35*73
$GPGSV,5,4,17,36,52,277,35,40,84,353,,41,58,082,,49,32,274,*7A
$GPGSV,5,5,17,50,10,089,*4A
$GLGSV,3,1,10,68,00,019,,69,42,357,16,70,49,246,24,71,11,215,27*66
$GLGSV,3,2,10,73,14,223,28,80,14,169,27,82,26,111,22,83,39,050,20*62
$GLGSV,3,3,10,84,12,357,,,,,31*58
$GNGLL,0419.96071,S,05539.68965,E,110454.00,A,A*64
$GNRMC,110455.00,A,0419.96070,S,05539.68965,E,0.124,,260525,,,A*7C
$GNVTG,,T,,M,0.124,N,0.229,K,A*33
$GNGGA,110455.00,0419.96070,S,05539.68965,E,1,12,0.76,35.3,M,-47.6,M,,*4E
$GNGSA,A,3,32,29,26,10,28,31,25,16,,,,,1.54,0.76,1.34*1C
$GNGSA,A,3,69,82,70,80,73,71,,,,,,,1.54,0.76,1.34*13
$GPGSV,5,1,17,10,26,340,23,16,24,270,22,18,27,052,15,23,10,020,*71
$GPGSV,5,2,17,24,02,066,,25,09,143,20,26,31,238,38,27,21,326,*73
$GPGSV,5,3,17,28,33,178,38,29,36,140,39,31,19,204,36,32,85,301,33*70
$GPGSV,5,4,17,36,52,277,36,40,84,353,,41,58,082,29,49,32,274,*72
$GPGSV,5,5,17,50,10,089,*4A
$GLGSV,3,1,10,68,00,019,,69,42,357,15,70,49,246,24,71,11,215,28*6A
$GLGSV,3,2,10,73,14,223,27,80,14,169,28,82,26,111,23,83,39,050,*61
$GLGSV,3,3,10,84,12,357,,,,,35*5C
$GNGLL,0419.96070,S,05539.68965,E,110455.00,A,A*64
$GNRMC,110456.00,A,0419.96064,S,05539.68966,E,0.120,,260525,,,A*7D
$GNVTG,,T,,M,0.120,N,0.223,K,A*3D
$GNGGA,110456.00,0419.96064,S,05539.68966,E,1,12,0.76,35.0,M,-47.6,M,,*48
$GNGSA,A,3,32,29,26,10,28,31,25,16,,,,,1.54,0.76,1.34*1C
$GNGSA,A,3,69,82,70,80,73,71,,,,,,,1.54,0.76,1.34*13
$GPGSV,5,1,17,10,26,340,23,16,24,270,22,18,27,052,15,23,10,020,*71
$GPGSV,5,2,17,24,02,066,,25,09,143,18,26,31,238,36,27,21,326,*76
$GPGSV,5,3,17,28,33,178,38,29,36,140,38,31,19,204,34,32,85,301,36*76
$GPGSV,5,4,17,36,52,277,36,40,84,353,,41,58,082,30,49,32,274,*7A
$GPGSV,5,5,17,50,10,089,*4A
$GLGSV,3,1,10,68,00,019,,69,42,357,14,70,49,246,25,71,11,215,27*65
$GLGSV,3,2,10,73,14,223,26,80,14,169,26,82,26,111,23,83,39,050,*6E
$GLGSV,3,3,10,84,12,357,,,,,30*59
$GNGLL,0419.96064,S,05539.68966,E,110456.00,A,A*61
$GPGSV,5,5,17,50,10,089,*4A
$GLGSV,3,1,10,68,00,019,,69,42,357,17,70,49,246,23,71,11,215,26*61
$GLGSV,3,2,10,73,14,223,27,80,14,169,26,82,26,111,22,83,39,050,*6E
$GLGSV,3,3,10,84,12,357,,,,,31*58
$GNGLL,0419.96070,S,05539.68965,E,110457.00,A,A*66
$GLGSV,3,2,10,73,14,223,26,80,14,169,27,82,26,111,22,83,39,050,*6E
$GLGSV,3,3,10,84,12,357,,,,,31*58
$GNGLL,0419.96061,S,05539.68967,E,110458.00,A,A*6B
$GNRMC,110500.00,A,0419.96083,S,05539.68966,E,0.256,,260525,,,A*74
$GNVTG,,T,,M,0.256,N,0.474,K,A*3B
$GNGGA,110500.00,0419.96083,S,05539.68966,E,1,12,0.68,35.6,M,-47.6,M,,*4A
$GNGSA,A,3,32,29,26,10,28,18,31,25,16,,,,1.48,0.68,1.31*12
$GNGSA,A,3,69,82,70,80,73,71,,,,,,,1.48,0.68,1.31*14
$GPGSV,5,1,17,10,26,340,20,16,24,270,24,18,27,052,14,23,10,020,*75
$GPGSV,5,2,17,24,02,066,,25,09,143,20,26,31,238,35,27,21,326,15*7A
$GPGSV,5,3,17,28,33,178,30,29,36,140,27,31,19,204,28,32,85,301,23*79
$GPGSV,5,4,17,36,52,277,30,40,84,353,,41,58,082,,49,32,274,*7F
$GPGSV,5,5,17,50,10,089,*4A
$GLGSV,3,1,09,69,42,357,19,70,49,246,21,71,11,215,22,73,14,223,25*62
$GLGSV,3,2,09,80,14,169,15,82,26,111,19,83,39,050,,84,12,357,*67
$GLGSV,3,3,09,,,,26*68
$GNGLL,0419.96083,S,05539.68966,E,110500.00,A,A*6A
$GNRMC,110502.00,A,0419.96094,S,05539.68965,E,0.195,,260525,,,A*7F
$GNVTG,,T,,M,0.195,N,0.361,K,A*34
$GNGGA,110502.00,0419.96094,S,05539.68965,E,1,12,0.76,35.6,M,-47.6,M,,*42
$GNGSA,A,3,32,29,26,10,28,31,25,16,,,,,1.54,0.76,1.34*1C
$GNGSA,A,3,69,82,70,80,73,71,,,,,,,1.54,0.76,1.34*13
$GPGSV,5,1,17,10,26,340,17,16,24,270,21,18,27,052,09,23,10,020,*78
$GPGSV,5,2,17,24,02,066,,25,09,143,18,26,31,238,31,27,21,326,10*70
$GPGSV,5,3,17,28,33,178,34,29,36,140,31,31,19,204,28,32,85,301,20*79
$GPGSV,5,4,17,36,52,277,27,40,84,353,,41,58,082,,49,32,274,*79
$GPGSV,5,5,17,50,10,089,*4A
$GLGSV,3,1,09,69,42,357,20,70,50,247,23,71,12,215,29,73,14,223,23*6D
$GLGSV,3,2,09,80,14,169,18,82,26,111,18,83,39,050,,84,12,357,*6B
$GLGSV,3,3,09,,,,27*69
$GNGLL,0419.96094,S,05539.68965,E,110502.00,A,A*6D
$GNRMC,110503.00,A,0419.96089,S,05539.68964,E,0.201,,260525,,,A*7D
$GNVTG,,T,,M,0.201,N,0.373,K,A*39
$GNGGA,110503.00,0419.96089,S,05539.68964,E,1,12,0.76,35.4,M,-47.6,M,,*4C
$GNGSA,A,3,32,29,26,10,28,31,25,16,,,,,1.54,0.76,1.34*1C
$GNGSA,A,3,69,82,70,80,73,71,,,,,,,1.54,0.76,1.34*13
$GPGSV,5,1,17,10,26,340,19,16,24,270,21,18,27,052,08,23,10,020,*77
$GPGSV,5,2,17,24,02,066,,25,09,143,18,26,31,238,33,27,21,326,08*7B
$GPGSV,5,3,17,28,33,178,34,29,36,140,34,31,19,204,30,32,85,301,21*74
$GPGSV,5,4,17,36,52,277,27,40,84,353,,41,58,082,,49,32,274,*79
$GPGSV,5,5,17,50,10,089,*4A
$GLGSV,3,1,09,69,42,357,19,70,50,247,25,71,12,215,29,73,14,223,26*64
$GLGSV,3,2,09,80,14,169,23,82,26,111,17,83,39,050,,84,12,357,*6C
$GLGSV,3,3,09,,,,17*6A
$GNGLL,0419.96089,S,05539.68964,E,110503.00,A,A*61
$GNRMC,110504.00,A,0419.96092,S,05539.68957,E,0.170,,260525,,,A*75
$GNVTG,,T,,M,0.170,N,0.314,K,A*3D
$GNGGA,110504.00,0419.96092,S,05539.68957,E,1,12,0.76,35.3,M,-47.6,M,,*46
$GNGSA,A,3,32,29,26,10,28,31,25,16,,,,,1.54,0.76,1.34*1C
$GNGSA,A,3,69,82,70,80,73,71,,,,,,,1.54,0.76,1.34*13
$GPGSV,5,1,17,10,26,340,20,16,24,270,20,18,27,052,09,23,10,020,*7D
$GPGSV,5,2,17,24,02,066,,25,09,143,19,26,31,238,35,27,21,326,07*73
$GPGSV,5,3,17,28,33,178,35,29,36,140,35,31,19,204,32,32,85,301,26*71
$GPGSV,5,4,17,36,52,277,,40,84,353,,41,58,082,,49,32,274,*7C
$GPGSV,5,5,17,50,10,089,*4A
$GLGSV,3,1,09,69,42,357,21,70,50,247,25,71,12,215,28,73,14,222,27*6E
$GLGSV,3,2,09,80,14,169,23,82,26,111,20,83,39,050,,84,12,357,*68
$GLGSV,3,3,09,,,,18*65
$GNGLL,0419.96092,S,05539.68957,E,110504.00,A,A*6C
$GNRMC,110506.00,A,0419.96103,S,05539.68953,E,0.109,,260525,,,A*74
$GNVTG,,T,,M,0.109,N,0.203,K,A*34
$GNGGA,110506.00,0419.96103,S,05539.68953,E,1,12,0.76,35.4,M,-47.6,M,,*4E
$GNGSA,A,3,32,29,26,10,28,18,31,25,16,,,,1.54,0.76,1.34*15
$GNGSA,A,3,69,82,70,80,73,71,,,,,,,1.54,0.76,1.34*13
$GPGSV,5,1,17,10,26,340,19,16,24,270,18,18,27,052,08,23,10,020,*7D
$GPGSV,5,2,17,24,02,066,,25,09,143,16,26,31,238,30,27,21,326,07*79
$GPGSV,5,3,17,28,33,178,33,29,36,140,33,31,19,204,27,32,85,301,23*70
$GPGSV,5,4,17,36,52,277,,40,84,353,,41,58,082,,49,32,274,*7C
$GPGSV,5,5,17,50,10,089,*4A
$GLGSV,3,1,09,69,42,357,24,70,50,247,25,71,12,215,26,73,14,222,26*64
$GLGSV,3,2,09,80,14,169,21,82,26,111,18,83,39,050,,84,12,357,*61
$GLGSV,3,3,09,,,,29*67
$GNGLL,0419.96103,S,05539.68953,E,110506.00,A,A*63
$GNRMC,110507.00,A,0419.96104,S,05539.68952,E,0.179,,260525,,,A*74
$GNVTG,,T,,M,0.179,N,0.332,K,A*30
$GNGGA,110507.00,0419.96104,S,05539.68952,E,1,12,0.76,35.3,M,-47.6,M,,*4E
$GNGSA,A,3,32,29,26,10,28,31,25,16,,,,,1.54,0.76,1.34*1C
$GNGSA,A,3,69,82,70,80,73,71,,,,,,,1.54,0.76,1.34*13
$GPGSV,5,1,17,10,26,340,19,16,24,270,20,18,27,052,08,23,10,020,*76
$GPGSV,5,2,17,24,02,066,,25,09,143,12,26,31,238,34,27,21,326,07*79
$GPGSV,5,3,17,28,33,178,36,29,36,140,33,31,19,204,33,32,85,301,29*7A
$GPGSV,5,4,17,36,52,277,,40,84,353,,41,58,082,,49,32,274,*7C
$GPGSV,5,5,17,50,10,089,*4A
$GLGSV,3,1,09,69,42,357,23,70,50,247,25,71,12,215,25,73,14,222,26*60
$GLGSV,3,2,09,80,14,169,21,82,26,111,18,83,39,050,,84,12,357,*61
$GLGSV,3,3,09,,,,20*6E
$GNGLL,0419.96104,S,05539.68952,E,110507.00,A,A*64
$GNRMC,110510.00,A,0419.96117,S,05539.68939,E,0.127,,260525,,,A*76
$GNVTG,,T,,M,0.127,N,0.235,K,A*3D
$GNGGA,110510.00,0419.96117,S,05539.68939,E,1,12,0.68,36.2,M,-47.6,M,,*4A
$GNGSA,A,3,32,29,26,10,28,18,31,25,16,,,,1.48,0.68,1.31*12
$GNGSA,A,3,69,82,70,80,73,71,,,,,,,1.48,0.68,1.31*14
$GPGSV,5,1,17,10,26,340,21,16,24,270,17,18,27,052,11,23,10,020,*71
$GPGSV,5,2,17,24,02,066,,25,09,143,19,26,31,238,35,27,21,326,09*7D
$GPGSV,5,3,17,28,33,178,37,29,36,140,34,31,19,204,33,32,85,301,28*7D
$GPGSV,5,4,17,36,52,277,,40,84,353,,41,58,082,,49,32,274,*7C
$GPGSV,5,5,17,50,10,089,*4A
$GLGSV,3,1,09,69,42,357,17,70,50,247,23,71,12,215,26,73,14,222,24*60
$GLGSV,3,2,09,80,14,169,25,82,26,111,16,83,39,050,,84,12,357,*6B
$GLGSV,3,3,09,,,,31*6E
$GNGLL,0419.96117,S,05539.68939,E,110510.00,A,A*6D
$GNRMC,110512.00,A,0419.96117,S,05539.68941,E,0.052,,260525,,,A*78
$GNVTG,,T,,M,0.052,N,0.097,K,A*34
$GNGGA,110512.00,0419.96117,S,05539.68941,E,1,12,0.71,36.3,M,-47.6,M,,*4E
$GNGSA,A,3,32,29,26,10,28,18,31,25,16,,,,1.56,0.71,1.39*1D
$GNGSA,A,3,69,82,70,80,73,71,,,,,,,1.56,0.71,1.39*1B
$GPGSV,5,1,17,10,26,340,21,16,24,270,21,18,27,052,10,23,10,020,*75
$GPGSV,5,2,17,24,02,066,,25,09,143,18,26,31,238,34,27,21,326,*74
$GPGSV,5,3,17,28,33,178,32,29,36,140,35,31,19,204,29,32,85,301,20*7A
$GPGSV,5,4,17,36,52,277,,40,84,353,,41,58,082,,49,32,274,*7C
$GPGSV,5,5,17,50,10,089,*4A
$GLGSV,3,1,09,69,42,357,16,70,50,247,25,71,12,215,28,73,14,222,25*68
$GLGSV,3,2,09,80,14,168,25,82,26,111,16,83,39,050,,84,12,357,*6A
$GLGSV,3,3,09,,,,24*6A
$GNGLL,0419.96117,S,05539.68941,E,110512.00,A,A*60
$GNRMC,110516.00,A,0419.96111,S,05539.68938,E,0.291,,260525,,,A*79
$GNVTG,,T,,M,0.291,N,0.538,K,A*39
$GNGGA,110516.00,0419.96111,S,05539.68938,E,1,12,0.76,36.0,M,-47.6,M,,*46
$GNGSA,A,3,32,29,26,10,28,18,31,25,,,,,1.60,0.76,1.41*17
$GNGSA,A,3,69,82,70,80,73,71,,,,,,,1.60,0.76,1.41*16
$GPGSV,5,1,17,10,26,340,16,16,24,270,22,18,27,052,11,23,10,020,*73
$GPGSV,5,2,17,24,02,066,,25,09,143,16,26,31,238,31,27,21,326,*7F
$GPGSV,5,3,17,28,33,178,35,29,36,140,41,31,19,204,22,32,85,301,26*73
$GPGSV,5,4,17,36,52,277,,40,84,353,,41,58,082,29,49,32,274,*77
$GPGSV,5,5,17,50,10,089,*4A
$GLGSV,3,1,09,69,42,357,21,70,50,247,20,71,12,215,18,73,14,222,21*6E
$GLGSV,3,2,09,80,14,168,20,82,26,112,19,83,39,051,,84,13,357,*63
$GLGSV,3,3,09,,,,22*6C
$GNGLL,0419.96111,S,05539.68938,E,110516.00,A,A*6C
$GNRMC,110517.00,A,0419.96115,S,05539.68938,E,0.267,,260525,,,A*75
$GNVTG,,T,,M,0.267,N,0.495,K,A*36
$GNGGA,110517.00,0419.96115,S,05539.68938,E,1,12,0.71,35.5,M,-47.6,M,,*42
$GNGSA,A,3,32,29,26,10,28,18,31,16,,,,,1.56,0.71,1.39*1A
$GNGSA,A,3,69,82,70,80,73,71,,,,,,,1.56,0.71,1.39*1B
$GPGSV,5,1,17,10,26,340,18,16,24,270,24,18,27,052,11,23,10,020,*7B
$GPGSV,5,2,17,24,02,066,,25,09,143,20,26,31,238,32,27,21,326,*79
$GPGSV,5,3,17,28,33,178,35,29,36,140,39,31,19,204,31,32,85,301,28*70
$GPGSV,5,4,17,36,52,277,,40,84,353,,41,58,082,29,49,32,274,*77
$GPGSV,5,5,17,50,10,089,*4A
$GLGSV,3,1,09,69,42,357,23,70,50,247,22,71,12,215,15,73,14,222,21*63
$GLGSV,3,2,09,80,14,168,20,82,26,112,17,83,39,051,,84,13,357,*6D
$GLGSV,3,3,09,,,,24*6A
$GNGLL,0419.96115,S,05539.68938,E,110517.00,A,A*69
$GNRMC,110518.00,A,0419.96116,S,05539.68937,E,0.232,,260525,,,A*76
$GNVTG,,T,,M,0.232,N,0.430,K,A*39
$GNGGA,110518.00,0419.96116,S,05539.68937,E,1,12,0.71,35.1,M,-47.6,M,,*45
$GNGSA,A,3,32,29,26,10,28,18,31,16,,,,,1.56,0.71,1.39*1A
$GNGSA,A,3,69,82,70,80,73,71,,,,,,,1.56,0.71,1.39*1B
$GPGSV,5,1,17,10,26,340,19,16,24,270,25,18,27,052,11,23,10,020,*7B
$GPGSV,5,2,17,24,02,066,,25,09,143,18,26,31,238,31,27,21,326,*71
$GPGSV,5,3,17,28,33,178,35,29,36,140,39,31,19,204,33,32,85,301,16*7F
$GPGSV,5,4,17,36,52,277,,40,84,353,,41,58,082,27,49,32,274,*79
$GPGSV,5,5,17,50,10,089,*4A
$GLGSV,3,1,09,69,42,357,22,70,50,247,24,71,12,215,17,73,14,222,22*65
$GLGSV,3,2,09,80,14,168,21,82,26,112,15,83,39,051,,84,13,357,*6E
$GLGSV,3,3,09,,,,24*6A
$GNGLL,0419.96116,S,05539.68937,E,110518.00,A,A*6A
$GNRMC,110520.00,A,0419.96087,S,05539.68946,E,0.187,,260525,,,A*7F
$GNVTG,,T,,M,0.187,N,0.347,K,A*33
$GNGGA,110520.00,0419.96087,S,05539.68946,E,1,12,0.71,33.9,M,-47.6,M,,*4F
$GNGSA,A,3,32,29,26,10,28,18,31,16,,,,,1.56,0.71,1.39*1A
$GNGSA,A,3,69,82,70,80,73,71,,,,,,,1.56,0.71,1.39*1B
$GPGSV,5,1,17,10,26,340,18,16,24,270,22,18,27,052,11,23,10,020,*7D
$GPGSV,5,2,17,24,02,066,,25,09,143,14,26,31,238,30,27,21,326,18*75
$GPGSV,5,3,17,28,33,178,28,29,36,140,39,31,19,204,24,32,85,301,20*70
$GPGSV,5,4,17,36,52,277,,40,84,353,,41,58,082,,49,32,274,*7C
$GPGSV,5,5,17,50,10,089,*4A
$GLGSV,3,1,09,69,42,357,23,70,50,247,23,71,12,215,19,73,14,222,23*6C
$GLGSV,3,2,09,80,14,168,20,82,26,112,10,83,39,051,,84,13,357,*6A
$GLGSV,3,3,09,,,,22*6C
$GNGLL,0419.96087,S,05539.68946,E,110520.00,A,A*6E
$GNRMC,110521.00,A,0419.96080,S,05539.68947,E,0.399,,260525,,,A*75
$GNVTG,,T,,M,0.399,N,0.739,K,A*33
$GNGGA,110521.00,0419.96080,S,05539.68947,E,1,12,0.71,33.9,M,-47.6,M,,*48
$GNGSA,A,3,32,29,26,10,28,18,31,16,,,,,1.56,0.71,1.39*1A
$GNGSA,A,3,69,82,70,80,73,71,,,,,,,1.56,0.71,1.39*1B
$GPGSV,5,1,17,10,26,340,19,16,24,270,22,18,27,052,11,23,10,020,*7C
$GPGSV,5,2,17,24,02,066,,25,09,143,13,26,31,238,30,27,21,326,15*7F
$GPGSV,5,3,17,28,33,178,33,29,36,140,40,31,19,204,26,32,85,301,34*73
$GPGSV,5,4,17,36,52,277,,40,84,353,,41,58,082,,49,32,274,*7C
$GPGSV,5,5,17,50,10,089,*4A
$GLGSV,3,1,09,69,42,357,23,70,50,247,22,71,12,215,18,73,14,222,22*6D
$GLGSV,3,2,09,80,14,168,21,82,26,112,09,83,39,051,,84,13,357,*63
$GLGSV,3,3,09,,,,21*6F
$GNGLL,0419.96080,S,05539.68947,E,110521.00,A,A*69
$GNRMC,110524.00,A,0419.96101,S,05539.68936,E,0.289,,260525,,,A*7E
$GNVTG,,T,,M,0.289,N,0.535,K,A*3D
$GNGGA,110524.00,0419.96101,S,05539.68936,E,1,12,0.68,34.3,M,-47.6,M,,*46
$GNGSA,A,3,32,29,26,10,28,18,31,25,16,,,,1.48,0.68,1.31*12
$GNGSA,A,3,69,82,70,80,73,71,,,,,,,1.48,0.68,1.31*14
$GPGSV,5,1,17,10,26,340,17,16,24,270,23,18,27,052,11,23,10,020,*73
$GPGSV,5,2,17,24,02,066,,25,09,143,15,26,31,238,31,27,21,326,16*7B
$GPGSV,5,3,17,28,33,178,33,29,36,140,39,31,19,204,26,32,85,301,17*7C
$GPGSV,5,4,17,36,52,277,,40,84,353,,41,58,082,,49,32,274,*7C
$GPGSV,5,5,17,50,10,089,*4A
$GLGSV,3,1,09,69,42,357,22,70,50,247,22,71,12,215,18,73,14,222,24*6A
$GLGSV,3,2,09,80,14,168,23,82,26,112,18,83,39,051,,84,13,357,*61
$GLGSV,3,3,09,,,,21*6F
$GNGLL,0419.96101,S,05539.68936,E,110524.00,A,A*62
$GNRMC,110525.00,A,0419.96110,S,05539.68933,E,0.164,,260525,,,A*7A
$GNVTG,,T,,M,0.164,N,0.304,K,A*39
$GNGGA,110525.00,0419.96110,S,05539.68933,E,1,12,0.68,34.4,M,-47.6,M,,*45
$GNGSA,A,3,32,29,26,10,28,18,31,25,16,,,,1.48,0.68,1.31*12
$GNGSA,A,3,69,82,70,80,73,71,,,,,,,1.48,0.68,1.31*14
$GPGSV,5,1,17,10,26,340,17,16,24,270,23,18,27,052,11,23,10,020,*73
$GPGSV,5,2,17,24,02,066,,25,09,143,13,26,31,238,30,27,21,326,16*7C
$GPGSV,5,3,17,28,33,178,34,29,36,140,39,31,19,204,26,32,85,301,20*7F
$GPGSV,5,4,17,36,52,277,,40,84,353,,41,58,082,29,49,32,274,*77
$GPGSV,5,5,17,50,10,089,*4A
$GLGSV,3,1,09,69,42,357,21,70,50,247,23,71,12,215,18,73,14,222,24*68
$GLGSV,3,2,09,80,14,168,20,82,26,112,12,83,39,051,,84,13,357,*68
$GLGSV,3,3,09,,,,20*6E
$GNGLL,0419.96110,S,05539.68933,E,110525.00,A,A*66
$GNRMC,110527.00,A,0419.96100,S,05539.68932,E,0.205,,260525,,,A*7C
$GNVTG,,T,,M,0.205,N,0.379,K,A*37
$GNGGA,110527.00,0419.96100,S,05539.68932,E,1,12,0.71,34.4,M,-47.6,M,,*4F
$GNGSA,A,3,32,29,26,10,28,18,31,16,,,,,1.56,0.71,1.39*1A
$GNGSA,A,3,69,82,70,80,73,71,,,,,,,1.56,0.71,1.39*1B
$GPGSV,5,1,17,10,26,340,17,16,24,270,21,18,27,052,15,23,10,020,*75
$GPGSV,5,2,17,24,02,066,,25,09,143,08,26,31,238,30,27,21,326,11*71
$GPGSV,5,3,17,28,33,178,31,29,36,140,39,31,19,204,27,32,85,301,22*79
$GPGSV,5,4,17,36,52,277,,40,84,353,,41,58,082,27,49,32,274,*79
$GPGSV,5,5,17,50,10,089,*4A
$GLGSV,3,1,09,69,42,357,21,70,50,247,22,71,12,215,20,73,14,222,23*65
$GLGSV,3,2,09,80,14,168,17,82,26,112,12,83,39,051,,84,13,357,*6C
$GLGSV,3,3,09,,,,21*6F
$GNGLL,0419.96100,S,05539.68932,E,110527.00,A,A*64
$GNRMC,110529.00,A,0419.96109,S,05539.68930,E,0.134,,260525,,,A*78
$GNVTG,,T,,M,0.134,N,0.249,K,A*34
$GNGGA,110529.00,0419.96109,S,05539.68930,E,1,12,0.78,34.3,M,-47.6,M,,*44
$GNGSA,A,3,32,29,26,10,28,18,31,16,,,,,1.60,0.78,1.40*18
$GNGSA,A,3,69,70,80,73,71,,,,,,,,1.60,0.78,1.40*13
$GPGSV,5,1,17,10,26,341,16,16,24,270,21,18,27,052,15,23,10,020,*75
$GPGSV,5,2,17,24,02,066,,25,09,143,10,26,31,238,30,27,21,326,13*7A
$GPGSV,5,3,17,28,33,178,32,29,36,140,39,31,19,204,27,32,85,301,28*70
$GPGSV,5,4,17,36,52,277,,40,84,353,,41,58,082,28,49,32,274,*76
$GPGSV,5,5,17,50,10,089,*4A
$GLGSV,3,1,09,69,42,357,19,70,50,247,23,71,12,215,20,73,14,222,20*6C
$GLGSV,3,2,09,80,14,168,19,82,26,112,,83,39,051,,84,13,357,*61
$GLGSV,3,3,09,,,,28*66
$GNGLL,0419.96109,S,05539.68930,E,110529.00,A,A*61
$GNRMC,110530.00,A,0419.96093,S,05539.68932,E,0.108,,260525,,,A*7F
$GNVTG,,T,,M,0.108,N,0.200,K,A*36
$GNGGA,110530.00,0419.96093,S,05539.68932,E,1,12,0.78,33.9,M,-47.6,M,,*41
$GNGSA,A,3,32,29,26,10,28,18,31,25,16,,,,1.60,0.78,1.40*1F
$GNGSA,A,3,69,70,80,73,71,,,,,,,,1.60,0.78,1.40*13
$GPGSV,5,1,17,10,26,341,15,16,24,270,22,18,27,052,15,23,10,020,*75
$GPGSV,5,2,17,24,02,066,,25,09,143,12,26,31,238,29,27,21,326,14*77
$GPGSV,5,3,17,28,33,178,32,29,36,140,37,31,19,204,26,32,85,301,14*70
$GPGSV,5,4,17,36,52,277,,40,84,353,,41,58,082,28,49,32,274,*76
$GPGSV,5,5,17,50,10,089,*4A
$GLGSV,3,1,09,69,42,357,19,70,50,247,22,71,12,215,19,73,14,222,20*67
$GLGSV,3,2,09,80,14,168,19,82,26,112,,83,39,051,,84,13,357,*61
$GLGSV,3,3,09,,,,22*6C
$GNGLL,0419.96093,S,05539.68932,E,110530.00,A,A*69
$GNRMC,110531.00,A,0419.96110,S,05539.68932,E,0.239,,260525,,,A*75
$GNVTG,,T,,M,0.239,N,0.442,K,A*37
$GNGGA,110531.00,0419.96110,S,05539.68932,E,1,12,0.93,33.9,M,-47.6,M,,*4F
$GNGSA,A,3,32,29,26,10,28,31,25,16,,,,,1.76,0.93,1.50*15
$GNGSA,A,3,69,70,80,73,71,,,,,,,,1.76,0.93,1.50*10
$GPGSV,5,1,17,10,26,341,14,16,24,270,22,18,27,052,,23,10,020,*70
$GPGSV,5,2,17,24,02,066,,25,09,143,12,26,31,238,29,27,21,326,15*76
$GPGSV,5,3,17,28,33,178,33,29,36,140,39,31,19,204,26,32,85,301,21*79
$GPGSV,5,4,17,36,52,277,,40,84,353,,41,58,082,27,49,32,274,*79
$GPGSV,5,5,17,50,10,089,*4A
$GLGSV,3,1,09,69,42,357,19,70,50,247,22,71,12,215,18,73,14,222,21*67
$GLGSV,3,2,09,80,14,168,19,82,26,112,,83,39,051,,84,13,357,*61
$GLGSV,3,3,09,,,,20*6E
$GNGLL,0419.96110,S,05539.68932,E,110531.00,A,A*62
$GNGLL,0419.96115,S,05539.68930,E,110532.00,A,A*66
$GNRMC,110533.00,A,0419.96096,S,05539.68931,E,0.210,,260525,,,A*70
$GNVTG,,T,,M,0.210,N,0.388,K,A*3D
$GNGGA,110533.00,0419.96096,S,05539.68931,E,1,12,0.83,33.8,M,-47.6,M,,*41
$GNGSA,A,3,32,29,26,10,28,31,25,16,,,,,1.58,0.83,1.35*1B
$GNGSA,A,3,69,70,80,73,71,,,,,,,,1.58,0.83,1.35*1E
$GPGSV,5,1,17,10,26,341,13,16,24,270,23,18,27,052,05,23,10,020,*73
$GPGSV,5,2,17,24,02,066,04,25,09,143,11,26,31,238,28,27,21,326,13*76
$GPGSV,5,3,17,28,33,178,32,29,36,140,40,31,19,204,26,32,85,301,19*7D
$GPGSV,5,4,17,36,52,277,,40,84,353,,41,58,082,28,49,32,274,*76
$GPGSV,5,5,17,50,10,089,*4A
$GLGSV,3,1,09,69,42,357,20,70,50,247,21,71,12,215,18,73,14,222,21*6E
$GLGSV,3,2,09,80,14,168,19,82,26,112,,83,39,051,,84,13,357,*61
$GLGSV,3,3,09,,,,20*6E
$GNGLL,0419.96096,S,05539.68931,E,110533.00,A,A*6C
$GNRMC,110535.00,A,0419.96075,S,05539.68923,E,0.537,,260525,,,A*7A
$GNVTG,,T,,M,0.537,N,0.994,K,A*38
$GNGGA,110535.00,0419.96075,S,05539.68923,E,1,12,0.83,34.3,M,-47.6,M,,*45
$GNGSA,A,3,32,29,26,10,28,31,25,16,,,,,1.58,0.83,1.35*1B
$GNGSA,A,3,69,70,80,73,71,,,,,,,,1.58,0.83,1.35*1E
$GPGSV,5,1,17,10,26,341,13,16,24,269,21,18,27,052,09,23,10,020,*75
$GPGSV,5,2,17,24,02,066,09,25,09,143,12,26,31,238,27,27,21,326,*75
$GPGSV,5,3,17,28,33,178,34,29,36,140,39,31,19,204,25,32,85,301,18*77
$GPGSV,5,4,17,36,52,277,,40,84,353,,41,58,082,27,49,32,274,*79
$GPGSV,5,5,17,50,10,089,*4A
$GLGSV,3,1,09,69,42,357,22,70,50,247,23,71,12,215,20,73,14,222,22*66
$GLGSV,3,2,09,80,14,168,21,82,26,112,,83,39,051,,84,13,357,*6A
$GLGSV,3,3,09,,,,21*6F
$GNGLL,0419.96075,S,05539.68923,E,110535.00,A,A*64
$GNRMC,110536.00,A,0419.96067,S,05539.68923,E,0.239,,260525,,,A*73
$GNVTG,,T,,M,0.239,N,0.442,K,A*37
$GNGGA,110536.00,0419.96067,S,05539.68923,E,1,12,0.83,34.2,M,-47.6,M,,*44
$GNGSA,A,3,32,29,26,10,28,31,25,16,,,,,1.58,0.83,1.35*1B
$GNGSA,A,3,69,70,80,73,71,,,,,,,,1.58,0.83,1.35*1E
$GPGSV,5,1,17,10,26,341,16,16,24,269,22,18,27,052,15,23,10,020,*7E
$GPGSV,5,2,17,24,02,066,10,25,09,143,17,26,31,238,27,27,21,326,*78
$GPGSV,5,3,17,28,33,178,34,29,36,140,39,31,19,204,27,32,85,301,22*7C
$GPGSV,5,4,17,36,52,277,,40,84,353,,41,58,082,28,49,32,274,*76
$GPGSV,5,5,17,50,10,089,*4A
$GLGSV,3,1,09,69,42,357,23,70,50,247,23,71,12,215,18,73,14,222,22*6C
$GLGSV,3,2,09,80,14,168,21,82,26,112,,83,39,051,,84,13,357,*6A
$GLGSV,3,3,09,,,,23*6D
$GNGLL,0419.96067,S,05539.68923,E,110536.00,A,A*64
$GNRMC,110538.00,A,0419.96070,S,05539.68913,E,0.090,,260525,,,A*79
$GNVTG,,T,,M,0.090,N,0.166,K,A*35
$GNGGA,110538.00,0419.96070,S,05539.68913,E,1,12,0.73,34.5,M,-47.6,M,,*47
$GNGSA,A,3,32,29,26,10,28,18,31,25,16,,,,1.50,0.73,1.31*11
$GNGSA,A,3,69,70,80,73,71,,,,,,,,1.50,0.73,1.31*1D
$GPGSV,5,1,17,10,26,341,17,16,24,269,22,18,28,053,12,23,10,020,*76
$GPGSV,5,2,17,24,02,066,11,25,09,143,13,26,31,238,30,27,21,326,18*72
$GPGSV,5,3,17,28,33,178,23,29,36,140,37,31,19,204,27,32,85,301,23*75
$GPGSV,5,4,17,36,52,277,,40,84,353,,41,58,082,,49,32,274,*7C
$GPGSV,5,5,17,50,10,089,*4A
$GLGSV,3,1,09,69,42,357,22,70,50,247,24,71,12,215,20,73,14,222,22*61
$GLGSV,3,2,09,80,14,168,23,82,26,112,,83,39,051,,84,13,357,*68
$GLGSV,3,3,09,,,,19*64
$GNGLL,0419.96070,S,05539.68913,E,110538.00,A,A*6F
$GNRMC,110541.00,A,0419.96047,S,05539.68910,E,0.452,,260525,,,A*7A
$GNVTG,,T,,M,0.452,N,0.836,K,A*33
$GNGGA,110541.00,0419.96047,S,05539.68910,E,1,12,0.73,33.8,M,-47.6,M,,*44
$GNGSA,A,3,32,29,26,10,28,18,31,25,16,,,,1.50,0.73,1.31*11
$GNGSA,A,3,69,70,80,73,71,,,,,,,,1.50,0.73,1.31*1D
$GPGSV,5,1,17,10,26,341,16,16,24,269,22,18,28,053,10,23,10,020,*75
$GPGSV,5,2,17,24,02,066,09,25,09,143,13,26,31,238,29,27,21,326,13*78
$GPGSV,5,3,17,28,33,178,29,29,36,140,38,31,19,204,25,32,85,301,30*70
$GPGSV,5,4,17,36,52,277,,40,84,353,,41,58,082,,49,32,274,*7C
$GPGSV,5,5,17,50,10,089,*4A
$GLGSV,3,1,09,69,42,357,18,70,50,247,23,71,12,215,22,73,14,222,21*6E
$GLGSV,3,2,09,80,14,168,22,82,26,112,,83,39,051,,84,13,357,*69
$GLGSV,3,3,09,,,,23*6D
$GNGLL,0419.96047,S,05539.68910,E,110541.00,A,A*66
$GNRMC,110542.00,A,0419.96078,S,05539.68897,E,0.038,,260525,,,A*73
$GNVTG,,T,,M,0.038,N,0.071,K,A*30
$GNGGA,110542.00,0419.96078,S,05539.68897,E,1,12,0.73,35.1,M,-47.6,M,,*4A
$GNGSA,A,3,32,29,26,10,28,18,31,25,16,,,,1.50,0.73,1.31*11
$GNGSA,A,3,69,70,80,73,71,,,,,,,,1.50,0.73,1.31*1D
$GPGSV,5,1,17,10,26,341,16,16,24,269,24,18,28,053,10,23,10,020,*73
$GPGSV,5,2,17,24,02,065,11,25,09,143,12,26,31,238,29,27,21,326,17*77
$GPGSV,5,3,17,28,33,178,35,29,36,140,37,31,19,204,26,32,85,301,31*70
$GPGSV,5,4,17,36,52,277,,40,84,353,,41,58,082,,49,32,274,*7C
$GPGSV,5,5,17,50,10,089,*4A
$GLGSV,3,1,09,69,42,357,20,70,50,247,23,71,12,215,23,73,14,222,23*66
$GLGSV,3,2,09,80,14,168,23,82,26,112,,83,39,051,,84,13,357,*68
$GLGSV,3,3,09,,,,31*6E
$GNGLL,0419.96078,S,05539.68897,E,110542.00,A,A*67
$GNRMC,110543.00,A,0419.96084,S,05539.68893,E,0.185,,260525,,,A*72
$GNVTG,,T,,M,0.185,N,0.343,K,A*35
$GNGGA,110543.00,0419.96084,S,05539.68893,E,1,12,0.93,35.6,M,-47.6,M,,*45
$GNGSA,A,3,32,29,26,10,28,18,31,25,16,,,,1.76,0.93,1.50*1C
$GNGSA,A,3,69,70,80,73,71,,,,,,,,1.76,0.93,1.50*10
$GPGSV,5,1,17,10,26,341,15,16,24,269,24,18,28,053,08,23,10,020,*79
$GPGSV,5,2,17,24,02,065,10,25,08,142,11,26,31,238,30,27,21,326,19*73
$GPGSV,5,3,17,28,33,178,35,29,36,140,41,31,19,204,26,32,85,301,25*74
$GPGSV,5,4,17,36,52,277,,40,84,353,,41,58,082,,49,32,274,*7C
$GPGSV,5,5,17,50,10,089,*4A
$GLGSV,3,1,09,69,42,357,19,70,50,247,23,71,12,215,22,73,14,222,24*6A
$GLGSV,3,2,09,80,14,168,22,82,26,112,05,83,39,051,,84,13,357,*6C
$GLGSV,3,3,09,,,,22*6C
$GNGLL,0419.96084,S,05539.68893,E,110543.00,A,A*61
$GNRMC,110545.00,A,0419.96067,S,05539.68889,E,0.115,,260525,,,A*7B
$GNVTG,,T,,M,0.115,N,0.213,K,A*38
$GNGGA,110545.00,0419.96067,S,05539.68889,E,1,12,0.78,36.0,M,-47.6,M,,*45
$GNGSA,A,3,32,29,26,10,28,18,31,25,,,,,1.55,0.78,1.34*1D
$GNGSA,A,3,69,70,80,73,71,,,,,,,,1.55,0.78,1.34*16
$GPGSV,5,1,17,10,26,341,15,16,24,269,20,18,28,053,08,23,10,020,*7D
$GPGSV,5,2,17,24,02,065,10,25,08,142,18,26,30,237,24,27,22,326,14*7F
$GPGSV,5,3,17,28,33,178,31,29,36,140,37,31,19,204,25,32,85,301,25*72
$GPGSV,5,4,17,36,52,277,,40,84,353,,41,58,082,,49,32,274,*7C
$GPGSV,5,5,17,50,10,089,*4A
$GLGSV,3,1,09,69,42,357,21,70,50,247,20,71,12,215,21,73,14,222,20*65
$GLGSV,3,2,09,80,14,168,21,82,26,112,08,83,39,051,,84,13,357,*62
$GLGSV,3,3,09,,,,18*65
$GNGLL,0419.96067,S,05539.68889,E,110545.00,A,A*61
$GNRMC,110546.00,A,0419.96073,S,05539.68879,E,0.145,,260525,,,A*77
$GNVTG,,T,,M,0.145,N,0.269,K,A*30
$GNGGA,110546.00,0419.96073,S,05539.68879,E,1,12,0.88,37.1,M,-47.6,M,,*43
$GNGSA,A,3,32,29,26,10,28,18,31,25,,,,,1.62,0.88,1.37*15
$GNGSA,A,3,69,70,80,73,71,,,,,,,,1.62,0.88,1.37*1E
$GPGSV,5,1,17,10,26,341,15,16,24,269,22,18,28,053,08,23,10,020,*7F
$GPGSV,5,2,17,24,02,065,10,25,08,142,20,26,30,237,31,27,22,326,14*70
$GPGSV,5,3,17,28,33,177,31,29,36,140,41,31,19,204,23,32,85,301,30*7E
$GPGSV,5,4,17,36,52,277,,40,84,353,,41,58,082,,49,32,274,*7C
$GPGSV,5,5,17,50,10,089,*4A
$GLGSV,3,1,09,69,42,357,21,70,50,247,20,71,12,215,20,73,14,222,20*64
$GLGSV,3,2,09,80,14,168,20,82,26,112,08,83,39,051,,84,13,357,*63
$GLGSV,3,3,09,,,,19*64
$GNGLL,0419.96073,S,05539.68879,E,110546.00,A,A*68
$GNRMC,110547.00,A,0419.96069,S,05539.68873,E,0.282,,260525,,,A*7F
$GNVTG,,T,,M,0.282,N,0.522,K,A*30
$GNGGA,110547.00,0419.96069,S,05539.68873,E,1,12,0.78,37.6,M,-47.6,M,,*4B
$GNGSA,A,3,32,29,26,10,28,18,31,25,,,,,1.55,0.78,1.34*1D
$GNGSA,A,3,69,70,80,73,71,,,,,,,,1.55,0.78,1.34*16
$GPGSV,5,1,17,10,26,341,17,16,24,269,21,18,28,053,08,23,10,020,*7E
$GPGSV,5,2,17,24,02,065,10,25,08,142,18,26,30,237,31,27,22,326,16*79
$GPGSV,5,3,17,28,33,177,33,29,35,140,39,31,19,204,26,32,85,301,30*75
$GPGSV,5,4,17,36,52,277,,40,84,353,,41,58,082,,49,32,274,*7C
$GPGSV,5,5,17,50,10,089,*4A
$GLGSV,3,1,09,69,42,357,20,70,50,247,24,71,12,215,20,73,14,222,22*63
$GLGSV,3,2,09,80,14,168,21,82,26,112,10,83,39,051,,84,13,357,*6B
$GLGSV,3,3,09,,,,23*6D
$GNGLL,0419.96069,S,05539.68873,E,110547.00,A,A*68
$GNRMC,110555.00,A,0419.96046,S,05539.68854,E,0.472,,260525,,,A*7D
$GNVTG,,T,,M,0.472,N,0.874,K,A*37
$GNGGA,110555.00,0419.96046,S,05539.68854,E,1,12,0.83,37.9,M,-47.6,M,,*4B
$GNGSA,A,3,32,29,26,10,28,18,31,25,16,,,,1.58,0.83,1.35*12
$GNGSA,A,3,69,70,80,73,71,,,,,,,,1.58,0.83,1.35*1E
$GPGSV,5,1,17,10,26,341,13,16,24,269,20,18,28,053,09,23,10,020,*7A
$GPGSV,5,2,17,24,02,065,10,25,08,142,22,26,30,237,25,27,22,326,14*77
$GPGSV,5,3,17,28,33,177,30,29,35,140,39,31,19,204,21,32,85,308,20*79
$GPGSV,5,4,17,36,52,277,,40,84,353,,41,58,082,,49,32,274,*7C
$GPGSV,5,5,17,50,10,089,*4A
$GLGSV,3,1,09,69,42,357,22,70,50,247,16,71,12,215,18,73,14,222,18*62
$GLGSV,3,2,09,80,14,168,16,82,26,112,08,83,39,051,,84,13,357,*66
$GLGSV,3,3,09,,,,21*6F
$GNGLL,0419.96046,S,05539.68854,E,110555.00,A,A*63
$GNRMC,110556.00,A,0419.96049,S,05539.68851,E,0.130,,260525,,,A*77
$GNVTG,,T,,M,0.130,N,0.241,K,A*38
$GNGGA,110556.00,0419.96049,S,05539.68851,E,1,12,0.73,38.1,M,-47.6,M,,*4A
$GNGSA,A,3,32,29,26,10,28,18,31,25,16,,,,1.50,0.73,1.32*12
$GNGSA,A,3,69,82,70,80,73,71,,,,,,,1.50,0.73,1.32*14
$GPGSV,5,1,17,10,26,341,16,16,24,269,19,18,28,053,08,23,10,020,*74
$GPGSV,5,2,17,24,02,065,10,25,08,142,21,26,30,237,30,27,22,326,11*75
$GPGSV,5,3,17,28,33,177,30,29,35,140,35,31,19,204,25,32,85,308,29*78
$GPGSV,5,4,17,36,52,277,,40,84,353,,41,58,082,,49,32,274,*7C
$GPGSV,5,5,17,50,10,089,*4A
$GLGSV,3,1,09,69,42,357,20,70,50,247,21,71,12,215,21,73,14,222,23*66
$GLGSV,3,2,09,80,14,168,17,82,26,112,10,83,39,051,,84,13,357,*6E
$GLGSV,3,3,09,,,,23*6D
$GNGLL,0419.96049,S,05539.68851,E,110556.00,A,A*6A
$GNRMC,110557.00,A,0419.96037,S,05539.68855,E,0.279,,260525,,,A*75
$GNVTG,,T,,M,0.279,N,0.517,K,A*32
$GNGGA,110557.00,0419.96037,S,05539.68855,E,1,12,0.73,36.9,M,-47.6,M,,*40
$GNGSA,A,3,32,29,26,10,28,18,31,25,16,,,,1.50,0.73,1.32*12
$GNGSA,A,3,69,70,80,73,71,,,,,,,,1.50,0.73,1.32*1E
$GPGSV,5,1,17,10,26,341,19,16,24,269,20,18,28,053,08,23,10,020,11*71
$GPGSV,5,2,17,24,02,065,10,25,08,142,21,26,30,237,21,27,22,326,16*72
$GPGSV,5,3,17,28,33,177,30,29,35,140,37,31,19,204,23,32,85,308,35*71
$GPGSV,5,4,17,36,52,277,,40,84,353,,41,58,082,,49,32,274,*7C
$GPGSV,5,5,17,50,10,089,*4A
$GLGSV,3,1,09,69,42,357,22,70,50,247,21,71,12,215,20,73,14,222,20*66
$GLGSV,3,2,09,80,14,168,23,82,26,112,09,83,39,051,,84,13,357,*61
$GLGSV,3,3,09,,,,34*6B
$GNGLL,0419.96037,S,05539.68855,E,110557.00,A,A*66
$GNRMC,110558.00,A,0419.96037,S,05539.68858,E,0.348,,260525,,,A*74
$GNVTG,,T,,M,0.348,N,0.644,K,A*34
$GNGGA,110558.00,0419.96037,S,05539.68858,E,1,12,0.83,37.0,M,-47.6,M,,*45
$GNGSA,A,3,32,29,26,10,28,31,25,16,,,,,1.58,0.83,1.35*1B
$GNGSA,A,3,69,70,80,73,71,,,,,,,,1.58,0.83,1.35*1E
$GPGSV,5,1,17,10,26,341,19,16,24,269,22,18,28,053,,23,10,020,09*72
$GPGSV,5,2,17,24,02,065,,25,08,142,20,26,30,237,28,27,22,326,17*7A
$GPGSV,5,3,17,28,33,177,25,29,35,140,42,31,19,204,22,32,85,308,32*71
$GPGSV,5,4,17,36,52,277,,40,84,353,,41,58,082,30,49,32,274,*7F
$GPGSV,5,5,17,50,10,089,*4A
$GLGSV,3,1,09,69,42,357,19,70,50,247,19,71,12,215,19,73,14,222,19*65
$GLGSV,3,2,09,80,14,168,23,82,26,112,08,83,39,051,,84,13,357,*60
$GLGSV,3,3,09,,,,24*6A
$GNGLL,0419.96037,S,05539.68858,E,110558.00,A,A*64
$GNRMC,110603.00,A,0419.95994,S,05539.68880,E,0.441,,260525,,,A*71
$GNVTG,,T,,M,0.441,N,0.816,K,A*33
$GNGGA,110603.00,0419.95994,S,05539.68880,E,1,12,0.88,33.6,M,-47.6,M,,*47
$GNGSA,A,3,32,29,26,10,28,31,25,,,,,,1.62,0.88,1.37*1C
$GNGSA,A,3,69,70,80,73,71,,,,,,,,1.62,0.88,1.37*1E
$GPGSV,5,1,17,10,26,341,12,16,24,269,28,18,28,053,,23,10,020,08*72
$GPGSV,5,2,17,24,02,065,07,25,08,142,13,26,30,237,21,27,22,326,14*77
$GPGSV,5,3,17,28,33,177,28,29,35,140,40,31,19,204,21,32,85,308,34*7B
$GPGSV,5,4,17,36,52,277,,40,84,353,,41,58,082,27,49,32,274,*79
$GPGSV,5,5,17,50,10,089,*4A
$GLGSV,3,1,09,69,42,357,21,70,50,247,13,71,12,215,20,73,14,222,16*61
$GLGSV,3,2,09,80,14,168,19,82,26,112,10,83,39,051,,84,13,357,*60
$GLGSV,3,3,09,,,,25*6B
$GNGLL,0419.95994,S,05539.68880,E,110603.00,A,A*6F
$GNRMC,110604.00,A,0419.95993,S,05539.68863,E,0.765,,260525,,,A*79
$GNVTG,,T,,M,0.765,N,1.416,K,A*3B
$GNGGA,110604.00,0419.95993,S,05539.68863,E,1,12,1.08,32.7,M,-47.6,M,,*43
$GNGSA,A,3,32,29,26,28,31,25,,,,,,,1.95,1.08,1.62*1C
$GNGSA,A,3,69,82,70,80,73,71,,,,,,,1.95,1.08,1.62*15
$GPGSV,5,1,17,10,26,341,10,16,24,269,26,18,28,053,,23,10,020,08*7E
$GPGSV,5,2,17,24,02,065,06,25,08,142,13,26,30,237,22,27,22,326,12*73
$GPGSV,5,3,17,28,33,177,28,29,35,140,38,31,19,204,19,32,85,308,34*7F
$GPGSV,5,4,17,36,52,277,,40,84,353,,41,58,082,27,49,32,274,*79
$GPGSV,5,5,17,50,10,089,*4A
$GLGSV,3,1,09,69,42,357,18,70,50,247,17,71,12,215,18,73,14,222,14*66
$GLGSV,3,2,09,80,14,168,16,82,26,112,11,83,39,051,,84,13,357,*6E
$GLGSV,3,3,09,,,,24*6A
$GNGLL,0419.95993,S,05539.68863,E,110604.00,A,A*62
$GNRMC,110605.00,A,0419.96014,S,05539.68840,E,0.727,,260525,,,A*7A
$GNVTG,,T,,M,0.727,N,1.347,K,A*3E
$GNGGA,110605.00,0419.96014,S,05539.68840,E,1,12,0.83,33.2,M,-47.6,M,,*40
$GNGSA,A,3,32,29,26,10,28,31,25,16,,,,,1.58,0.83,1.35*1B
$GNGSA,A,3,69,70,80,73,71,,,,,,,,1.58,0.83,1.35*1E
$GPGSV,5,1,17,10,26,341,14,16,24,269,26,18,28,053,,23,10,020,08*7A
$GPGSV,5,2,17,24,02,065,06,25,08,142,15,26,30,237,24,27,22,326,15*74
$GPGSV,5,3,17,28,33,177,26,29,35,140,38,31,19,204,17,32,85,308,35*7E
$GPGSV,5,4,17,36,52,277,,40,84,353,,41,58,082,27,49,32,274,*79
$GPGSV,5,5,17,50,10,089,*4A
$GLGSV,3,1,09,69,42,357,15,70,50,247,19,71,12,215,16,73,14,222,13*6C
$GLGSV,3,2,09,80,14,168,12,82,26,112,09,83,39,051,,84,13,357,*63
$GLGSV,3,3,09,,,,26*68
$GNGLL,0419.96014,S,05539.68840,E,110605.00,A,A*67
$GNRMC,110606.00,A,0419.96058,S,05539.68819,E,0.336,,260525,,,A*79
$GNVTG,,T,,M,0.336,N,0.623,K,A*3C
$GNGGA,110606.00,0419.96058,S,05539.68819,E,1,12,0.77,34.6,M,-47.6,M,,*4F
$GNGSA,A,3,32,29,26,10,28,31,25,16,,,,,1.58,0.77,1.38*1D
$GNGSA,A,3,69,82,70,80,73,,,,,,,,1.58,0.77,1.38*14
$GPGSV,5,1,17,10,26,341,17,16,24,269,26,18,28,053,,23,10,020,08*79
$GPGSV,5,2,17,24,02,065,06,25,08,142,15,26,30,237,25,27,22,326,16*76
$GPGSV,5,3,17,28,33,177,26,29,35,140,39,31,19,204,17,32,85,308,35*7F
$GPGSV,5,4,17,36,52,277,,40,84,353,,41,58,082,28,49,32,274,*76
$GPGSV,5,5,17,50,10,089,*4A
$GLGSV,3,1,09,69,42,357,13,70,50,247,19,71,12,215,,73,14,222,15*6B
$GLGSV,3,2,09,80,14,168,15,82,26,112,11,83,39,051,,84,13,357,*6D
$GLGSV,3,3,09,,,,26*68
$GNGLL,0419.96058,S,05539.68819,E,110606.00,A,A*60
$GNRMC,110607.00,A,0419.96086,S,05539.68812,E,0.078,,260525,,,A*79
$GNVTG,,T,,M,0.078,N,0.144,K,A*33
$GNGGA,110607.00,0419.96086,S,05539.68812,E,1,12,0.84,35.4,M,-47.6,M,,*49
$GNGSA,A,3,32,29,26,10,28,31,25,16,,,,,1.62,0.84,1.39*19
$GNGSA,A,3,69,82,70,80,73,,,,,,,,1.62,0.84,1.39*10
$GPGSV,5,1,17,10,26,341,19,16,24,269,26,18,28,053,,23,10,020,08*77
$GPGSV,5,2,17,24,02,065,06,25,08,142,17,26,30,237,25,27,22,326,18*7A
$GPGSV,5,3,17,28,33,177,31,29,35,140,40,31,19,204,19,32,85,308,34*78
$GPGSV,5,4,17,36,52,277,,40,84,353,,41,58,082,28,49,32,274,*76
$GPGSV,5,5,17,50,10,089,*4A
$GLGSV,3,1,09,69,42,357,16,70,50,247,19,71,12,215,,73,14,222,15*6E
$GLGSV,3,2,09,80,14,168,11,82,26,112,12,83,39,051,,84,13,357,*6A
$GLGSV,3,3,09,,,,25*6B
$GNGLL,0419.96086,S,05539.68812,E,110607.00,A,A*69
$GNRMC,110608.00,A,0419.96119,S,05539.68804,E,0.169,,260525,,,A*77
$GNVTG,,T,,M,0.169,N,0.314,K,A*35
$GNGGA,110608.00,0419.96119,S,05539.68804,E,1,12,0.77,36.3,M,-47.6,M,,*4E
$GNGSA,A,3,32,29,26,10,28,31,25,16,,,,,1.58,0.77,1.38*1D
$GNGSA,A,3,69,82,70,80,73,,,,,,,,1.58,0.77,1.38*14
$GPGSV,5,1,17,10,26,341,18,16,24,269,27,18,28,053,,23,10,020,12*7C
$GPGSV,5,2,17,24,02,065,09,25,08,142,19,26,30,237,24,27,22,326,19*7B
$GPGSV,5,3,17,28,33,177,30,29,35,140,36,31,19,204,20,32,85,308,32*74
$GPGSV,5,4,17,36,52,277,,40,84,353,,41,58,082,29,49,32,274,*77
$GPGSV,5,5,17,50,10,089,*4A
$GLGSV,3,1,09,69,42,357,16,70,50,247,19,71,12,215,20,73,14,222,16*6F
$GLGSV,3,2,09,80,14,168,14,82,26,112,12,83,39,051,,84,13,357,*6F
$GLGSV,3,3,09,,,,23*6D
$GNGLL,0419.96119,S,05539.68804,E,110608.00,A,A*66
$GPGSV,5,3,17,28,33,177,26,29,35,140,39,31,19,204,17,32,85,308,32*78
$GPGSV,5,4,17,36,52,277,,40,84,353,,41,58,082,29,49,32,274,*77
$GPGSV,5,5,17,50,10,089,*4A
$GLGSV,3,1,09,69,42,357,12,70,50,247,18,71,12,215,,73,14,222,17*69
$GLGSV,3,2,09,80,14,168,18,82,26,112,13,83,39,051,,84,13,357,*62
$GLGSV,3,3,09,,,,20*6E
$GNGLL,0419.96122,S,05539.68803,E,110610.00,A,A*60
$GNRMC,110612.00,A,0419.96187,S,05539.68783,E,0.094,,260525,,,A*78
$GNVTG,,T,,M,0.094,N,0.175,K,A*33
$GNGGA,110612.00,0419.96187,S,05539.68783,E,1,12,0.68,37.3,M,-47.6,M,,*4D
$GNGSA,A,3,32,29,26,10,28,31,23,25,16,,,,1.37,0.68,1.19*18
$GNGSA,A,3,69,82,70,80,73,,,,,,,,1.37,0.68,1.19*10
$GPGSV,5,1,17,10,26,341,16,16,24,269,27,18,28,053,,23,10,020,10*70
$GPGSV,5,2,17,24,02,065,10,25,08,142,15,26,30,237,21,27,22,326,16*75
$GPGSV,5,3,17,28,33,177,26,29,35,140,39,31,19,204,16,32,85,308,34*7F
$GPGSV,5,4,17,36,52,277,,40,84,353,,41,58,082,29,49,32,274,*77
$GPGSV,5,5,17,50,10,089,*4A
$GLGSV,3,1,09,69,42,357,11,70,50,247,19,71,12,215,,73,14,222,16*6A
$GLGSV,3,2,09,80,14,168,17,82,26,112,11,83,39,051,,84,13,357,*6F
$GLGSV,3,3,09,,,,21*6F
$GNGLL,0419.96187,S,05539.68783,E,110612.00,A,A*6A
$GNRMC,110615.00,A,0419.96280,S,05539.68735,E,0.945,,260525,,,A*73
$GNVTG,,T,,M,0.945,N,1.750,K,A*36
$GNGGA,110615.00,0419.96280,S,05539.68735,E,1,12,0.73,38.9,M,-47.6,M,,*4C
$GNGSA,A,3,32,29,26,10,28,31,23,25,,,,,1.42,0.73,1.21*1C
$GNGSA,A,3,69,82,70,80,73,71,,,,,,,1.42,0.73,1.21*15
$GPGSV,5,1,17,10,26,341,16,16,24,269,21,18,28,053,,23,10,020,08*7F
$GPGSV,5,2,17,24,02,065,10,25,08,142,18,26,30,237,23,27,22,326,13*7F
$GPGSV,5,3,17,28,33,177,31,29,35,140,38,31,19,204,18,32,85,308,32*70
$GPGSV,5,4,17,36,52,277,,40,84,353,,41,58,082,28,49,32,274,*76
$GPGSV,5,5,17,50,10,089,*4A
$GLGSV,3,1,09,69,41,357,17,70,50,247,20,71,12,215,20,73,14,222,17*66
$GLGSV,3,2,09,80,14,168,14,82,26,112,12,83,39,051,,84,13,357,*6F
$GLGSV,3,3,09,,,,25*6B
$GNGLL,0419.96280,S,05539.68735,E,110615.00,A,A*64
$GNRMC,110618.00,A,0419.96252,S,05539.68759,E,0.194,,260525,,,A*7F
$GNVTG,,T,,M,0.194,N,0.360,K,A*34
$GNGGA,110618.00,0419.96252,S,05539.68759,E,1,12,0.72,38.6,M,-47.6,M,,*4A
$GNGSA,A,3,32,29,26,10,28,31,23,25,16,,,,1.36,0.72,1.15*1E
$GNGSA,A,3,69,70,80,73,71,,,,,,,,1.36,0.72,1.15*1A
$GPGSV,5,1,17,10,26,341,18,16,24,269,25,18,28,053,,23,10,020,08*75
$GPGSV,5,2,17,24,02,065,10,25,08,142,19,26,30,237,22,27,22,326,16*7A
$GPGSV,5,3,17,28,33,177,33,29,35,140,42,31,19,204,17,32,85,308,33*71
$GPGSV,5,4,17,36,52,277,,40,84,353,,41,58,082,31,49,32,274,*7E
$GPGSV,5,5,17,50,10,089,*4A
$GLGSV,3,1,09,69,41,357,13,70,50,248,21,71,12,216,15,73,14,222,17*69
$GLGSV,3,2,09,80,14,168,17,82,26,112,13,83,39,051,,84,13,357,*6D
$GLGSV,3,3,09,,,,28*66
$GNGLL,0419.96252,S,05539.68759,E,110618.00,A,A*6C
$GNRMC,110619.00,A,0419.96265,S,05539.68756,E,0.281,,260525,,,A*72
$GNVTG,,T,,M,0.281,N,0.520,K,A*31
$GNGGA,110619.00,0419.96265,S,05539.68756,E,1,12,0.82,39.0,M,-47.6,M,,*48
$GNGSA,A,3,32,29,26,10,28,31,25,16,,,,,1.58,0.82,1.35*1A
$GNGSA,A,3,69,70,80,73,71,,,,,,,,1.58,0.82,1.35*1F
$GPGSV,5,1,17,10,26,341,20,16,24,269,25,18,28,053,,23,10,020,08*7E
$GPGSV,5,2,17,24,02,065,10,25,08,142,16,26,30,237,24,27,22,326,18*7D
$GPGSV,5,3,17,28,33,177,31,29,35,140,42,31,19,204,21,32,85,308,33*76
$GPGSV,5,4,17,36,52,277,,40,84,353,,41,58,082,32,49,32,274,*7D
$GPGSV,5,5,17,50,10,089,*4A
$GLGSV,3,1,09,69,41,357,11,70,50,248,21,71,12,216,13,73,14,221,18*61
$GLGSV,3,2,09,80,14,168,19,82,26,112,12,83,39,051,,84,13,357,*62
$GLGSV,3,3,09,,,,27*69
$GNGLL,0419.96265,S,05539.68756,E,110619.00,A,A*66
$GNRMC,110621.00,A,0419.96244,S,05539.68759,E,0.266,,260525,,,A*7C
$GNVTG,,T,,M,0.266,N,0.492,K,A*30
$GNGGA,110621.00,0419.96244,S,05539.68759,E,1,12,0.84,38.3,M,-47.6,M,,*4B
$GNGSA,A,3,32,29,26,10,28,31,25,16,,,,,1.62,0.84,1.39*19
$GNGSA,A,3,69,70,80,73,,,,,,,,,1.62,0.84,1.39*1A
$GPGSV,5,1,17,10,26,341,18,16,24,269,26,18,28,053,12,23,10,020,08*75
$GPGSV,5,2,17,24,02,065,10,25,08,142,19,26,30,237,22,27,22,326,17*7B
$GPGSV,5,3,17,28,33,177,34,29,35,140,39,31,19,204,21,32,85,308,30*7C
$GPGSV,5,4,17,36,52,277,,40,84,353,,41,58,082,30,49,32,274,*7F
$GPGSV,5,5,17,50,10,089,*4A
$GLGSV,3,1,09,69,41,357,17,70,50,248,20,71,12,216,10,73,14,221,21*6F
$GLGSV,3,2,09,80,14,168,21,82,26,112,11,83,39,051,,84,13,357,*6A
$GLGSV,3,3,09,,,,24*6A
$GNGLL,0419.96244,S,05539.68759,E,110621.00,A,A*61
$GNRMC,110622.00,A,0419.96285,S,05539.68750,E,0.474,,260525,,,A*7E
$GNVTG,,T,,M,0.474,N,0.879,K,A*3C
$GNGGA,110622.00,0419.96285,S,05539.68750,E,1,12,0.82,39.4,M,-47.6,M,,*4C
$GNGSA,A,3,32,29,26,10,28,31,25,16,,,,,1.58,0.82,1.35*1A
$GNGSA,A,3,69,70,80,73,71,,,,,,,,1.58,0.82,1.35*1F
$GPGSV,5,1,17,10,26,341,19,16,24,269,22,18,28,053,11,23,10,020,08*73
$GPGSV,5,2,17,24,02,065,10,25,08,142,18,26,30,237,21,27,22,326,18*76
$GPGSV,5,3,17,28,33,177,34,29,35,140,38,31,19,204,21,32,85,308,40*7A
$GPGSV,5,4,17,36,52,277,,40,84,353,,41,58,082,27,49,32,274,*79
$GPGSV,5,5,17,50,10,089,*4A
$GLGSV,3,1,09,69,41,357,17,70,50,248,19,71,12,216,13,73,14,221,23*64
$GLGSV,3,2,09,80,14,168,22,82,26,112,10,83,39,051,,84,13,357,*68
$GLGSV,3,3,09,,,,24*6A
$GNGLL,0419.96285,S,05539.68750,E,110622.00,A,A*66
$GNRMC,110625.00,A,0419.96294,S,05539.68684,E,0.124,,260525,,,A*71
$GNVTG,,T,,M,0.124,N,0.229,K,A*33
$GNGGA,110625.00,0419.96294,S,05539.68684,E,1,12,0.82,38.1,M,-47.6,M,,*47
$GNGSA,A,3,32,29,26,10,28,31,25,,,,,,1.64,0.82,1.42*12
$GNGSA,A,3,69,82,70,80,73,,,,,,,,1.64,0.82,1.42*1C
$GPGSV,5,1,17,10,26,341,15,16,24,269,21,18,28,053,10,23,10,020,08*7D
$GPGSV,5,2,17,24,02,065,10,25,08,142,18,26,30,237,20,27,22,326,17*78
$GPGSV,5,3,17,28,33,177,37,29,35,140,41,31,19,204,22,32,85,308,41*75
$GPGSV,5,4,17,36,52,277,,40,84,353,,41,58,082,,49,32,274,*7C
$GPGSV,5,5,17,50,10,089,*4A
$GLGSV,3,1,09,69,41,357,12,70,50,248,15,71,12,216,10,73,14,221,20*6D
$GLGSV,3,2,09,80,14,168,20,82,26,112,10,83,39,051,,84,13,357,*6A
$GLGSV,3,3,09,,,,26*68
$GNGLL,0419.96294,S,05539.68684,E,110625.00,A,A*69
$GNRMC,110627.00,A,0419.96286,S,05539.68684,E,0.097,,260525,,,A*79
$GNVTG,,T,,M,0.097,N,0.180,K,A*3A
$GNGGA,110627.00,0419.96286,S,05539.68684,E,1,11,0.90,38.2,M,-47.6,M,,*45
$GNGSA,A,3,32,29,26,10,28,31,25,,,,,,1.68,0.90,1.42*1D
$GNGSA,A,3,82,70,80,73,,,,,,,,,1.68,0.90,1.42*1C
$GPGSV,5,1,17,10,26,341,17,16,24,269,20,18,28,053,10,23,10,020,08*7E
$GPGSV,5,2,17,24,02,065,10,25,08,142,15,26,30,237,22,27,22,326,15*75
$GPGSV,5,3,17,28,33,177,23,29,35,140,36,31,19,204,19,32,85,308,35*7B
$GPGSV,5,4,17,36,52,277,,40,84,353,,41,58,082,,49,32,274,*7C
$GPGSV,5,5,17,50,10,089,*4A
$GLGSV,3,1,09,69,41,357,09,70,50,248,12,71,12,216,08,73,14,221,20*69
$GLGSV,3,2,09,80,14,168,22,82,26,112,11,83,39,051,,84,13,357,*69
$GLGSV,3,3,09,,,,24*6A
$GNGLL,0419.96286,S,05539.68684,E,110627.00,A,A*68
$GNRMC,110628.00,A,0419.96294,S,05539.68670,E,0.581,,260525,,,A*7C
$GNVTG,,T,,M,0.581,N,1.075,K,A*32
$GNGGA,110628.00,0419.96294,S,05539.68670,E,1,12,0.77,38.4,M,-47.6,M,,*4E
$GNGSA,A,3,32,29,26,10,28,31,25,16,,,,,1.58,0.77,1.38*1D
$GNGSA,A,3,69,82,70,80,73,,,,,,,,1.58,0.77,1.38*14
$GPGSV,5,1,17,10,26,341,14,16,24,269,20,18,28,053,10,23,10,020,*75
$GPGSV,5,2,17,24,02,065,,25,08,142,13,26,30,237,20,27,22,326,15*70
$GPGSV,5,3,17,28,33,177,22,29,35,140,40,31,19,204,19,32,85,308,40*79
$GPGSV,5,4,17,36,52,277,,40,84,353,,41,58,082,,49,32,274,*7C
$GPGSV,5,5,17,50,10,089,*4A
$GLGSV,3,1,09,69,41,357,08,70,50,248,12,71,12,216,07,73,14,221,19*6D
$GLGSV,3,2,09,80,14,168,20,82,26,112,10,83,39,051,,84,13,357,*6A
$GLGSV,3,3,09,,,,24*6A
$GNGLL,0419.96294,S,05539.68670,E,110628.00,A,A*6F
$GNRMC,110629.00,A,0419.96285,S,05539.68685,E,0.637,,260525,,,A*79
$GNVTG,,T,,M,0.637,N,1.180,K,A*37
$GNGGA,110629.00,0419.96285,S,05539.68685,E,1,12,0.77,38.5,M,-47.6,M,,*44
$GNGSA,A,3,32,29,26,10,28,31,25,16,,,,,1.58,0.77,1.38*1D
$GNGSA,A,3,69,82,70,80,73,,,,,,,,1.58,0.77,1.38*14
$GPGSV,5,1,17,10,26,341,10,16,24,269,20,18,28,053,10,23,10,020,*71
$GPGSV,5,2,17,24,02,065,,25,08,142,16,26,30,237,19,27,22,326,15*7F
$GPGSV,5,3,17,28,33,177,25,29,35,140,39,31,19,204,20,32,85,308,40*7A
$GPGSV,5,4,17,36,52,277,,40,84,353,,41,58,082,,49,32,274,*7C
$GPGSV,5,5,17,50,10,089,*4A
$GLGSV,3,1,09,69,41,357,14,70,50,248,12,71,12,216,07,73,14,221,18*61
$GLGSV,3,2,09,80,14,168,20,82,26,112,10,83,39,051,,84,13,357,*6A
$GLGSV,3,3,09,,,,26*68
$GNGLL,0419.96285,S,05539.68685,E,110629.00,A,A*64
$GNRMC,110631.00,A,0419.96315,S,05539.68685,E,0.282,,260525,,,A*72
$GNVTG,,T,,M,0.282,N,0.523,K,A*31
$GNGGA,110631.00,0419.96315,S,05539.68685,E,1,12,0.82,39.1,M,-47.6,M,,*4A
$GNGSA,A,3,32,29,26,10,28,31,25,16,,,,,1.58,0.82,1.35*1A
$GNGSA,A,3,69,70,80,73,71,,,,,,,,1.58,0.82,1.35*1F
$GPGSV,5,1,17,10,26,341,13,16,24,269,21,18,28,053,09,23,10,020,*7B
$GPGSV,5,2,17,24,02,065,,25,08,142,17,26,30,237,19,27,22,326,19*72
$GPGSV,5,3,17,28,33,177,27,29,35,140,38,31,19,204,19,32,85,308,37*73
$GPGSV,5,4,17,36,52,277,,40,84,353,,41,58,082,,49,32,274,*7C
$GPGSV,5,5,17,50,10,089,*4A
$GLGSV,3,1,09,69,41,357,07,70,50,248,11,71,12,216,12,73,14,221,19*65
$GLGSV,3,2,09,80,14,168,20,82,26,112,10,83,39,051,,84,13,357,*6A
$GLGSV,3,3,09,,,,28*66
$GNGLL,0419.96315,S,05539.68685,E,110631.00,A,A*65
$GNRMC,110634.00,A,0419.96339,S,05539.68621,E,0.303,,260525,,,A*7F
$GNVTG,,T,,M,0.303,N,0.562,K,A*3C
$GNGGA,110634.00,0419.96339,S,05539.68621,E,1,12,0.68,37.8,M,-47.6,M,,*4C
$GNGSA,A,3,32,29,26,10,28,18,31,25,16,,,,1.48,0.68,1.32*11
$GNGSA,A,3,69,82,70,80,73,71,,,,,,,1.48,0.68,1.32*17
$GPGSV,5,1,17,10,26,341,16,16,24,269,20,18,28,053,09,23,10,020,*7F
$GPGSV,5,2,17,24,02,065,,25,08,142,11,26,30,237,13,27,22,326,19*7E
$GPGSV,5,3,17,28,33,177,27,29,35,140,37,31,19,204,16,32,85,308,38*7C
$GPGSV,5,4,17,36,52,277,,40,84,353,,41,58,082,27,49,32,274,*79
$GPGSV,5,5,17,50,10,089,*4A
$GLGSV,3,1,09,69,41,357,11,70,50,248,08,71,12,216,17,73,14,221,19*6F
$GLGSV,3,2,09,80,14,168,20,82,26,112,14,83,39,051,,84,13,357,*6E
$GLGSV,3,3,09,,,,27*69
$GNGLL,0419.96339,S,05539.68621,E,110634.00,A,A*60
$GNRMC,110635.00,A,0419.96351,S,05539.68611,E,0.151,,260525,,,A*76
$GNVTG,,T,,M,0.151,N,0.279,K,A*34
$GNGGA,110635.00,0419.96351,S,05539.68611,E,1,12,0.73,37.8,M,-47.6,M,,*4A
$GNGSA,A,3,32,29,26,10,28,18,31,16,,,,,1.71,0.73,1.55*17
$GNGSA,A,3,69,82,80,73,71,,,,,,,,1.71,0.73,1.55*11
$GPGSV,5,1,17,10,26,341,15,16,24,269,20,18,28,053,11,23,10,020,*75
$GPGSV,5,2,17,24,02,065,,25,08,142,,26,30,237,10,27,22,326,19*7D
$GPGSV,5,3,17,28,33,177,27,29,35,140,37,31,19,204,17,32,85,308,38*7D
$GPGSV,5,4,17,36,52,277,,40,84,353,,41,58,082,27,49,32,274,*79
$GPGSV,5,5,17,50,10,089,*4A
$GLGSV,3,1,09,69,41,357,10,70,50,248,06,71,12,216,15,73,14,221,20*68
$GLGSV,3,2,09,80,14,168,20,82,26,112,14,83,39,051,,84,13,357,*6E
$GLGSV,3,3,09,,,,26*68
$GNGLL,0419.96351,S,05539.68611,E,110635.00,A,A*6C
$GLGSV,3,1,09,69,41,357,09,70,50,248,15,71,12,216,15,73,14,221,20*62
$GLGSV,3,2,09,80,14,168,19,82,26,112,14,83,39,051,,84,13,357,*64
$GLGSV,3,3,09,,,,25*6B
$GNGLL,0419.96365,S,05539.68604,E,110636.00,A,A*6C
$GNRMC,110638.00,A,0419.96394,S,05539.68593,E,0.180,,260525,,,A*77
$GNVTG,,T,,M,0.180,N,0.333,K,A*37
$GNGGA,110638.00,0419.96394,S,05539.68593,E,1,12,0.71,38.7,M,-47.6,M,,*45
$GNGSA,A,3,32,29,26,10,28,18,31,16,,,,,1.57,0.71,1.40*15
$GNGSA,A,3,69,82,70,80,73,71,,,,,,,1.57,0.71,1.40*14
$GPGSV,5,1,17,10,26,341,10,16,24,269,20,18,28,053,11,23,10,020,16*77
$GPGSV,5,2,17,24,02,065,,25,08,142,05,26,30,237,12,27,22,326,17*74
$GPGSV,5,3,17,28,33,177,25,29,35,140,39,31,19,204,15,32,85,308,39*72
$GPGSV,5,4,17,36,52,277,,40,84,353,,41,58,082,,49,32,274,*7C
$GPGSV,5,5,17,50,10,089,*4A
$GLGSV,3,1,09,69,41,357,12,70,50,248,11,71,12,216,15,73,14,221,19*66
$GLGSV,3,2,09,80,14,168,19,82,26,112,13,83,39,051,,84,13,357,*63
$GLGSV,3,3,09,,,,25*6B
$GNGLL,0419.96394,S,05539.68593,E,110638.00,A,A*61
$GNRMC,110639.00,A,0419.96406,S,05539.68574,E,0.141,,260525,,,A*7E
$GNVTG,,T,,M,0.141,N,0.261,K,A*3C
$GNGGA,110639.00,0419.96406,S,05539.68574,E,1,12,0.71,38.5,M,-47.6,M,,*43
$GNGSA,A,3,32,29,26,10,28,18,31,16,,,,,1.57,0.71,1.40*15
$GNGSA,A,3,69,82,70,80,73,71,,,,,,,1.57,0.71,1.40*14
$GPGSV,5,1,17,10,26,341,17,16,24,269,21,18,28,053,13,23,10,020,13*76
$GPGSV,5,2,17,24,02,065,,25,08,142,08,26,30,237,14,27,22,326,18*70
$GPGSV,5,3,17,28,33,177,23,29,35,140,35,31,19,204,16,32,85,308,36*74
$GPGSV,5,4,17,36,52,277,,40,84,353,,41,58,082,27,49,32,274,*79
$GPGSV,5,5,17,50,10,089,*4A
$GLGSV,3,1,09,69,41,357,13,70,50,248,11,71,12,216,17,73,14,221,18*64
$GLGSV,3,2,09,80,14,168,21,82,26,112,10,83,39,051,,84,13,357,*6B
$GLGSV,3,3,09,,,,30*6F
$GNGLL,0419.96406,S,05539.68574,E,110639.00,A,A*65
$GNRMC,110641.00,A,0419.96400,S,05539.68566,E,0.249,,260525,,,A*7F
$GNVTG,,T,,M,0.249,N,0.461,K,A*31
$GNGGA,110641.00,0419.96400,S,05539.68566,E,1,12,0.71,38.1,M,-47.6,M,,*4D
$GNGSA,A,3,32,29,26,10,28,18,31,16,,,,,1.57,0.71,1.40*15
$GNGSA,A,3,69,82,70,80,73,71,,,,,,,1.57,0.71,1.40*14
$GPGSV,5,1,17,10,26,341,08,16,24,269,20,18,28,053,10,23,10,020,10*79
$GPGSV,5,2,17,24,02,065,,25,08,142,13,26,30,237,07,27,22,326,20*73
$GPGSV,5,3,17,28,33,177,24,29,35,140,39,31,19,204,19,32,85,308,38*7E
$GPGSV,5,4,17,36,52,277,,40,84,353,,41,58,082,28,49,32,274,*76
$GPGSV,5,5,17,50,10,089,*4A
$GLGSV,3,1,09,69,41,357,11,70,50,248,13,71,12,216,17,73,14,221,19*65
$GLGSV,3,2,09,80,14,168,21,82,26,112,16,83,39,051,,84,13,357,*6D
$GLGSV,3,3,09,,,,28*66
$GNGLL,0419.96400,S,05539.68566,E,110641.00,A,A*6F
$GNRMC,110645.00,A,0419.96400,S,05539.68528,E,0.321,,260525,,,A*7E
$GNVTG,,T,,M,0.321,N,0.595,K,A*34
$GNGGA,110645.00,0419.96400,S,05539.68528,E,1,12,0.79,37.0,M,-47.6,M,,*45
$GNGSA,A,3,32,29,26,10,28,31,25,,,,,,1.58,0.79,1.36*1A
$GNGSA,A,3,69,82,70,80,73,71,,,,,,,1.58,0.79,1.36*12
$GPGSV,5,1,17,10,25,341,15,16,24,269,21,18,28,053,09,23,10,020,09*77
$GPGSV,5,2,17,24,02,065,,25,08,142,17,26,30,237,14,27,22,326,19*7F
$GPGSV,5,3,17,28,33,177,25,29,35,140,40,31,19,204,17,32,85,308,41*71
$GPGSV,5,4,17,36,52,277,,40,84,353,37,41,58,082,,49,32,274,*78
$GPGSV,5,5,17,50,10,089,*4A
$GLGSV,3,1,09,69,41,357,11,70,50,248,08,71,12,216,14,73,14,221,12*67
$GLGSV,3,2,09,80,14,168,22,82,26,112,15,83,39,051,,84,13,357,*6D
$GLGSV,3,3,09,,,,28*66
$GNGLL,0419.96400,S,05539.68528,E,110645.00,A,A*61
$GPGSV,5,3,17,28,33,177,31,29,35,140,39,31,19,204,16,32,85,308,37*7A
$GNRMC,110648.00,A,0419.96434,S,05539.68488,E,0.461,,260525,,,A*7C
$GNVTG,,T,,M,0.461,N,0.853,K,A*30
$GNGGA,110648.00,0419.96434,S,05539.68488,E,1,12,0.73,37.4,M,-47.6,M,,*4A
$GNGSA,A,3,32,29,26,10,28,18,31,25,,,,,1.52,0.73,1.34*11
$GNGSA,A,3,69,82,70,80,73,71,,,,,,,1.52,0.73,1.34*10
$GPGSV,5,1,17,10,25,341,10,16,24,269,17,18,28,053,09,23,10,020,*7E
$GPGSV,5,2,17,24,02,065,,25,08,142,17,26,30,237,17,27,22,326,18*7D
$GPGSV,5,3,17,28,33,177,30,29,35,140,38,31,19,204,16,32,85,308,37*7A
$GPGSV,5,4,17,36,52,277,,40,84,353,35,41,58,082,,49,32,274,*7A
$GPGSV,5,5,17,50,10,089,*4A
$GLGSV,3,1,09,69,41,357,15,70,50,248,08,71,12,216,15,73,14,221,13*63
$GLGSV,3,2,09,80,14,168,18,82,26,112,10,83,39,051,,84,13,357,*61
$GLGSV,3,3,09,,,,27*69
$GNGLL,0419.96434,S,05539.68488,E,110648.00,A,A*60
$GNRMC,110649.00,A,0419.96497,S,05539.68498,E,0.521,,260525,,,A*70
$GNVTG,,T,,M,0.521,N,0.964,K,A*30
$GNGGA,110649.00,0419.96497,S,05539.68498,E,1,12,0.79,39.8,M,-47.6,M,,*4B
$GNGSA,A,3,32,29,26,10,28,31,25,,,,,,1.58,0.79,1.36*1A
$GNGSA,A,3,69,82,70,80,73,71,,,,,,,1.58,0.79,1.36*12
$GPGSV,5,1,17,10,25,341,15,16,24,269,20,18,28,053,09,23,10,020,*7F
$GPGSV,5,2,17,24,02,065,,25,08,142,17,26,30,237,17,27,22,326,19*7C
$GPGSV,5,3,17,28,33,177,30,29,35,140,39,31,19,204,16,32,85,308,39*75
$GPGSV,5,4,17,36,52,277,,40,84,353,37,41,58,082,,49,32,274,*78
$GPGSV,5,5,17,50,10,089,*4A
$GLGSV,3,1,09,69,41,357,12,70,50,248,13,71,12,216,12,73,14,221,14*6E
$GLGSV,3,2,09,80,14,168,16,82,26,112,14,83,39,051,,84,13,357,*6B
$GLGSV,3,3,09,,,,26*68
$GNGLL,0419.96497,S,05539.68498,E,110649.00,A,A*69
$GNRMC,110650.00,A,0419.96466,S,05539.68491,E,0.441,,260525,,,A*78
$GNVTG,,T,,M,0.441,N,0.817,K,A*32
$GNGGA,110650.00,0419.96466,S,05539.68491,E,1,12,0.79,38.9,M,-47.6,M,,*44
$GNGSA,A,3,32,29,26,10,28,31,25,,,,,,1.58,0.79,1.36*1A
$GNGSA,A,3,69,82,70,80,73,71,,,,,,,1.58,0.79,1.36*12
$GPGSV,5,1,17,10,25,341,12,16,24,268,20,18,28,053,09,23,10,020,*79
$GPGSV,5,2,17,24,02,065,,25,08,142,16,26,30,237,17,27,22,326,21*76
$GPGSV,5,3,17,28,33,177,30,29,35,140,39,31,19,204,17,32,85,308,40*7A
$GPGSV,5,4,17,36,52,277,,40,84,353,36,41,58,082,,49,32,274,*79
$GPGSV,5,5,17,50,10,089,*4A
$GLGSV,3,1,09,69,41,357,13,70,50,248,12,71,12,216,12,73,14,221,16*6C
$GLGSV,3,2,09,80,14,168,19,82,26,112,11,83,39,051,,84,13,357,*61
$GLGSV,3,3,09,,,,26*68
$GNGLL,0419.96466,S,05539.68491,E,110650.00,A,A*66
$GNRMC,110658.00,A,0419.96569,S,05539.68550,E,0.887,,260525,,,A*74
$GNVTG,,T,,M,0.887,N,1.643,K,A*3A
$GNGGA,110658.00,0419.96569,S,05539.68550,E,1,12,0.79,43.8,M,-47.6,M,,*43
$GNGSA,A,3,32,29,26,10,28,31,25,16,,,,,1.70,0.79,1.50*17
$GNGSA,A,3,69,82,80,73,,,,,,,,,1.70,0.79,1.50*19
$GPGSV,5,1,17,10,25,341,11,16,24,268,18,18,28,054,,23,09,020,*77
$GPGSV,5,2,17,24,02,065,,25,08,142,16,26,30,237,21,27,22,326,18*79
$GPGSV,5,3,17,28,33,177,26,29,35,140,38,31,19,204,18,32,85,308,37*73
$GPGSV,5,4,17,36,52,277,,40,84,353,37,41,58,082,,49,32,274,*78
$GPGSV,5,5,17,50,10,089,*4A
$GLGSV,3,1,09,69,41,357,12,70,50,248,06,71,12,216,,73,14,221,15*68
$GLGSV,3,2,09,80,14,168,20,82,26,112,08,83,39,051,,84,13,357,*63
$GLGSV,3,3,09,,,,28*66
$GNRMC,110659.00,A,0419.96563,S,05539.68575,E,0.390,,260525,,,A*75
$GNVTG,,T,,M,0.390,N,0.722,K,A*30
$GNGGA,110659.00,0419.96563,S,05539.68575,E,1,12,0.94,44.2,M,-47.6,M,,*41
$GNGSA,A,3,32,29,26,28,31,25,16,,,,,,1.82,0.94,1.56*1E
$GNGSA,A,3,69,82,70,80,73,,,,,,,,1.82,0.94,1.56*16
$GPGSV,5,1,17,10,25,341,09,16,24,268,19,18,28,054,,23,09,020,*7F
$GPGSV,5,2,17,24,02,065,,25,08,142,15,26,30,237,19,27,22,326,17*7E
$GPGSV,5,3,17,28,33,177,25,29,35,140,38,31,19,204,15,32,85,308,38*72
$GPGSV,5,4,17,36,52,277,,40,84,353,36,41,58,082,,49,32,274,*79
$GPGSV,5,5,17,50,10,089,*4A
$GNRMC,110703.00,A,0419.96556,S,05539.68615,E,0.397,,260525,,,A*7F
$GNVTG,,T,,M,0.397,N,0.736,K,A*32
