b0LR
8
 a2}+2(7E* />{4Ta:R 
YoA
B&DCLMNQVV
W.xX2ZbRq($GNRMC,124112.00,A,0419.81186,S,05539.77784,E,0.315,,220525,,,A*78
$GNVTG,,T,,M,0.315,N,0.583,K,A*34
$GNGNS,124112.00,0419.81186,S,05539.77784,E,AA,14,0.83,10.9,-47.6,,*65
$GNGGA,124112.00,0419.81186,S,05539.77784,E,1,12,0.83,10.9,M,-47.6,M,,*49
$GNGSA,A,3,32,28,27,18,26,31,16,10,08,,,,2.16,0.83,1.99*1C
$GNGSA,A,3,66,87,88,67,76,,,,,,,,2.16,0.83,1.99*1C
$GPGSV,4,1,16,08,15,312,16,10,14,012,13,16,24,230,27,18,32,097,14*73
$GPGSV,4,2,16,23,01,050,08,26,28,200,23,27,50,296,28,28,55,135,31*70
$GPGSV,4,3,16,29,05,147,,31,42,179,23,32,47,002,17,36,52,277,*79
$GPGSV,4,4,16,40,84,353,,41,58,082,,49,32,274,,50,10,089,*79
$GLGSV,3,1,10,65,10,008,,66,38,324,27,67,31,255,27,76,13,130,11*62
$GLGSV,3,2,10,77,17,176,,78,00,227,,81,04,342,,86,08,145,10*64
$GLGSV,3,3,10,87,46,120,15,88,50,012,27*6D
$GNGLL,0419.81186,S,05539.77784,E,124112.00,A,A*64
$GNGRS,124112.00,1,-14.7,-4.4,-13.7,9.0,-7.2,9.7,4.1,22.4,21.7,,,*7B
$GNGRS,124112.00,1,-2.9,-7.8,-16.5,-5.5,7.9,,,,,,,*43
$GNGST,124112.00,3434011,,,,4.8,6.1,22*59
$GNZDA,124112.00,22,05,2025,00,00*7D
$GNGBS,124112.00,4.8,6.1,21.7,,,,*65
$GNTXT,01,01,01,More than 100 frame errors, UART RX was disabled*70
b0LxR
8A

< b22(U7*D /{4Ta:R 
YoA
B&DCLMNQVV(W.xIX2ZbxRY(2$GNRMC,124113.00,A,0419.81177,S,05539.77815,E,0.660,,220525,,,A*77
$GNVTG,,T,,M,0.660,N,1.222,K,A*3E
$GNGNS,124113.00,0419.81177,S,05539.77815,E,AA,14,0.83,8.1,-47.6,,*5C
$GNGGA,124113.00,0419.81177,S,05539.77815,E,1,12,0.83,8.1,M,-47.6,M,,*70
$GNGSA,A,3,32,28,27,18,26,31,16,10,08,,,,2.15,0.83,1.99*1F
$GNGSA,A,3,66,87,88,67,76,,,,,,,,2.15,0.83,1.99*1F
$GPGSV,4,1,16,08,15,312,09,10,14,012,10,16,24,230,26,18,32,098,17*73
$GPGSV,4,2,16,23,01,050,09,26,28,200,22,27,50,296,27,28,55,135,30*7E
$GPGSV,4,3,16,29,05,147,,31,42,179,24,32,47,002,15,36,52,277,*7C
$GPGSV,4,4,16,40,84,353,,41,58,082,28,49,32,274,,50,10,089,*73
$GLGSV,3,1,10,65,10,008,,66,38,324,27,67,31,255,26,76,13,130,12*60
$GLGSV,3,2,10,77,17,176,,78,00,227,,81,04,342,,86,08,145,07*62
$GLGSV,3,3,10,87,46,120,16,88,50,012,25*6C
$GNGLL,0419.81177,S,05539.77815,E,124113.00,A,A*6C
$GNGRS,124113.00,1,-15.9,-10.0,-14.5,7.5,-5.8,8.4,4.8,21.1,21.1,,,*49
$GNGRS,124113.00,1,-2.6,-7.0,-14.5,-3.6,6.6,,,,,,,*4C
$GNGST,124113.00,3434011,,,,4.8,6.2,22*5B
$GNZDA,124113.00,22,05,2025,00,00*7C
$GNGBS,124113.00,4.8,6.2,21.9,,,,*69
$GNTXT,01,01,01,More than 100 frame errors, UART RX was disabled*70
b0L`R
8
L b22(. 77* /{4Ta:R 
YoA
B&DCLMNQVV{W.xX2bbb`RA($GNRMC,124114.00,A,0419.81181,S,05539.77808,E,0.458,,220525,,,A*7C
$GNVTG,,T,,M,0.458,N,0.849,K,A*31
$GNGNS,124114.00,0419.81181,S,05539.77808,E,AA,15,0.75,8.7,-47.6,,*50
$GNGGA,124114.00,0419.81181,S,05539.77808,E,1,12,0.75,8.7,M,-47.6,M,,*7D
$GNGSA,A,3,32,28,27,18,26,31,16,10,08,,,,1.74,0.75,1.57*10
$GNGSA,A,3,66,87,88,67,86,76,,,,,,,1.74,0.75,1.57*1E
$GPGSV,4,1,16,08,15,312,11,10,14,012,11,16,24,230,26,18,32,098,15*79
$GPGSV,4,2,16,23,01,050,07,26,28,200,22,27,50,296,28,28,55,135,32*7D
$GPGSV,4,3,16,29,05,147,,31,42,179,23,32,47,002,14,36,52,277,*7A
$GPGSV,4,4,16,40,84,353,,41,58,082,28,49,32,274,,50,10,089,*73
$GLGSV,3,1,10,65,10,008,,66,38,324,27,67,31,255,29,76,13,130,16*6B
$GLGSV,3,2,10,77,17,176,,78,00,227,,81,04,342,,86,08,145,07*62
$GLGSV,3,3,10,87,46,120,16,88,50,012,26*6F
$GNGLL,0419.81181,S,05539.77808,E,124114.00,A,A*6E
$GNGRS,124114.00,1,-13.5,-7.1,-4.7,6.5,-5.5,7.4,4.0,31.5,-19.0,,,*69
$GNGRS,124114.00,1,-2.6,-5.1,-14.4,-11.2,-73.0,-2.6,,,,,,*60
$GNGST,124114.00,55,,,,4.8,6.1,21*6C
$GNZDA,124114.00,22,05,2025,00,00*7B
$GNGBS,124114.00,4.8,6.1,21.5,,,,*61
$GNTXT,01,01,01,More than 100 frame errors, UART RX was disabled*70
b0LHR
8v
K b2xh2(!7* /{4Ta":R 
YoA
B&DC;LMNQVVW.xiX2AAbHR)(Z$GNRMC,124115.00,A,0419.81185,S,05539.77826,E,0.368,,220525,,,A*71
$GNVTG,,T,,M,0.368,N,0.681,K,A*3F
$GNGNS,124115.00,0419.81185,S,05539.77826,E,AA,15,0.82,7.6,-47.6,,*5F
$GNGGA,124115.00,0419.81185,S,05539.77826,E,1,12,0.82,7.6,M,-47.6,M,,*72
$GNGSA,A,3,32,28,27,18,26,31,16,10,08,,,,1.85,0.82,1.66*14
$GNGSA,A,3,66,87,88,67,86,76,,,,,,,1.85,0.82,1.66*1A
$GPGSV,4,1,16,08,15,312,12,10,14,012,08,16,24,230,24,18,32,098,14*71
$GPGSV,4,2,16,23,01,050,09,26,28,200,22,27,50,296,27,28,55,135,33*7D
$GPGSV,4,3,16,29,05,147,,31,42,179,23,32,47,002,17,36,52,277,*79
$GPGSV,4,4,16,40,84,353,,41,58,082,34,49,32,274,,50,10,089,*7E
$GLGSV,3,1,10,65,10,008,,66,38,324,26,67,31,255,29,76,13,130,15*69
$GLGSV,3,2,10,77,17,176,,78,00,227,,81,04,342,,86,08,145,08*6D
$GLGSV,3,3,10,87,46,120,17,88,50,012,27*6F
$GNGLL,0419.81185,S,05539.77826,E,124115.00,A,A*67
$GNGRS,124115.00,1,-14.0,-3.7,-10.0,7.5,-6.6,7.5,3.3,22.5,21.7,,,*7D
$GNGRS,124115.00,1,-2.9,-4.1,-14.7,-12.2,14.1,7.7,,,,,,*6B
$GNGST,124115.00,201100,,,,4.7,6.1,21*60
$GNZDA,124115.00,22,05,2025,00,00*7A
$GNGBS,124115.00,4.7,6.1,21.4,,,,*6E
$GNTXT,01,01,01,More than 100 frame errors, UART RX was disabled*70
b0L0R
8
Y b@2Y2( 7* /{4Ta :R 
YoA
B&DCeLMNQVV
\W.xX2tb0R(2j$GNRMC,124116.00,A,0419.81190,S,05539.77841,E,0.395,,220525,,,A*75
$GNVTG,,T,,M,0.395,N,0.732,K,A*34
$GNGNS,124116.00,0419.81190,S,05539.77841,E,AA,15,0.82,6.9,-47.6,,*57
$GNGGA,124116.00,0419.81190,S,05539.77841,E,1,12,0.82,6.9,M,-47.6,M,,*7A
$GNGSA,A,3,32,28,27,18,26,31,16,10,08,,,,1.85,0.82,1.66*14
$GNGSA,A,3,66,87,88,67,86,76,,,,,,,1.85,0.82,1.66*1A
$GPGSV,4,1,16,08,15,312,13,10,14,012,08,16,24,230,24,18,32,098,11*75
$GPGSV,4,2,16,23,01,050,06,26,28,200,23,27,50,296,27,28,55,135,32*72
$GPGSV,4,3,16,29,05,147,,31,42,179,24,32,47,002,18,36,52,277,*71
$GPGSV,4,4,16,40,84,353,,41,58,082,32,49,32,274,,50,10,089,*78
$GLGSV,3,1,10,65,10,008,,66,38,324,25,67,31,255,29,76,13,130,13*6C
$GLGSV,3,2,10,77,17,176,,78,00,227,,81,04,342,,86,08,145,10*64
$GLGSV,3,3,10,87,46,120,16,88,50,012,27*6E
$GNGLL,0419.81190,S,05539.77841,E,124116.00,A,A*61
$GNTXT,01,01,01,More than 100 frame errors, UART RX was disabled*70
$GNGRS,124116.00,1,-13.9,-3.6,-8.3,10.9,-4.2,6.4,0.9,22.9,22.0,,,*76
$GNGRS,124116.00,1,-3.1,-5.7,-16.4,-11.8,13.7,7.3,,,,,,*6B
$GNGST,124116.00,3303821,,,,4.7,6.1,21*59
$GNZDA,124116.00,22,05,2025,00,00*79
$GNGBS,124116.00,4.7,6.1,21.4,,,,*6D
b0LR
8;
k b[22( 7* /X{4Ta :R 
YoA
B&DC8LMNQVV
iW.xX2bR($GNRMC,124117.00,A,0419.81195,S,05539.77847,E,0.266,,220525,,,A*7A
$GNVTG,,T,,M,0.266,N,0.493,K,A*31
$GNGNS,124117.00,0419.81195,S,05539.77847,E,AA,15,0.83,6.3,-47.6,,*5E
$GNGGA,124117.00,0419.81195,S,05539.77847,E,1,12,0.83,6.3,M,-47.6,M,,*73
$GNGSA,A,3,32,28,27,18,26,31,16,10,08,,,,2.15,0.83,1.99*1F
$GNGSA,A,3,66,87,88,67,86,76,,,,,,,2.15,0.83,1.99*11
$GPGSV,4,1,16,08,15,312,15,10,14,012,09,16,24,230,25,18,32,098,08*7B
$GPGSV,4,2,16,23,01,050,09,26,28,200,23,27,50,296,28,28,55,135,32*72
$GPGSV,4,3,16,29,05,147,,31,42,179,23,32,47,002,17,36,52,277,*79
$GPGSV,4,4,16,40,84,353,,41,58,082,32,49,32,274,,50,10,089,*78
$GLGSV,3,1,10,65,10,008,,66,38,324,26,67,31,255,30,76,13,130,16*62
$GLGSV,3,2,10,77,17,176,,78,00,227,,81,04,342,,86,08,145,10*64
$GLGSV,3,3,10,87,46,120,15,88,50,012,27*6D
$GNGLL,0419.81195,S,05539.77847,E,124117.00,A,A*63
$GNGRS,124117.00,1,-11.9,-3.7,-8.8,13.7,-5.2,6.8,1.1,-46.9,-19.9,,,*75
$GNGRS,124117.00,1,-2.7,-8.2,-13.4,-4.6,-47.6,-0.5,,,,,,*5B
$GNGST,124117.00,54,,,,4.7,6.0,21*60
$GNZDA,124117.00,22,05,2025,00,00*78
$GNGBS,124117.00,4.7,6.0,21.3,,,,*6A
$GNTXT,01,01,01,More than 100 frame errors, UART RX was disabled*70
b0LR
8|
 bo22($7`* /!{4Ta :R 
YoA
B&D}C[LFMNQVVW.xAX2LRbR(7$GNRMC,124118.00,A,0419.81204,S,05539.77844,E,0.215,,220525,,,A*79
$GNVTG,,T,,M,0.215,N,0.398,K,A*39
$GNGNS,124118.00,0419.81204,S,05539.77844,E,AA,15,0.82,6.6,-47.6,,*5D
$GNGGA,124118.00,0419.81204,S,05539.77844,E,1,12,0.82,6.6,M,-47.6,M,,*70
$GNGSA,A,3,32,28,27,18,26,31,16,10,08,,,,1.85,0.82,1.66*14
$GNGSA,A,3,66,87,88,67,86,76,,,,,,,1.85,0.82,1.66*1A
$GPGSV,4,1,16,08,15,312,09,10,14,012,11,16,24,230,26,18,32,098,17*72
$GPGSV,4,2,16,23,01,050,09,26,28,200,22,27,50,296,28,28,55,135,31*70
$GPGSV,4,3,16,29,05,147,,31,42,179,24,32,47,002,14,36,52,277,*7D
$GPGSV,4,4,16,40,84,353,,41,58,082,32,49,32,274,,50,10,089,*78
$GLGSV,3,1,10,65,10,008,,66,38,324,26,67,31,255,30,76,13,130,12*66
$GLGSV,3,2,10,77,17,176,,78,00,227,,81,04,342,,86,08,145,08*6D
$GLGSV,3,3,10,87,46,120,14,88,50,012,27*6C
$GNGLL,0419.81204,S,05539.77844,E,124118.00,A,A*64
$GNGRS,124118.00,1,-12.5,1.0,-4.8,13.9,-5.2,6.5,1.6,22.9,21.7,,,*52
$GNTXT,01,01,01,More than 100 frame errors, UART RX was disabled*70
$GNGRS,124118.00,1,-3.9,-4.5,-12.0,-4.2,15.0,8.4,,,,,,*59
$GNGST,124118.00,3301472,,,,4.7,6.1,22*5C
$GNZDA,124118.00,22,05,2025,00,00*77
$GNGBS,124118.00,4.7,6.1,21.5,,,,*62
b0LR
8
2N b{2CQ2( 7*y /e{4Ta:R 
YoA
B&DC3L_MNQVVW.xLX2q(bR($GNRMC,124119.00,A,0419.81212,S,05539.77838,E,0.152,,220525,,,A*74
$GNVTG,,T,,M,0.152,N,0.282,K,A*33
$GNGNS,124119.00,0419.81212,S,05539.77838,E,AA,15,0.82,7.0,-47.6,,*57
$GNGGA,124119.00,0419.81212,S,05539.77838,E,1,12,0.82,7.0,M,-47.6,M,,*7A
$GNGSA,A,3,32,28,27,18,26,31,16,10,08,,,,1.85,0.82,1.66*14
$GNGSA,A,3,66,87,88,67,86,76,,,,,,,1.85,0.82,1.66*1A
$GPGSV,4,1,16,08,15,312,12,10,14,012,12,16,24,230,27,18,32,098,09*75
$GPGSV,4,2,16,23,01,050,09,26,28,200,22,27,50,296,28,28,55,135,32*73
$GPGSV,4,3,16,29,05,147,07,31,42,179,25,32,47,002,13,36,52,277,*7C
$GPGSV,4,4,16,40,84,353,,41,58,082,30,49,32,274,,50,10,089,*7A
$GLGSV,3,1,10,65,10,008,,66,38,324,28,67,31,255,30,76,13,130,18*62
$GLGSV,3,2,10,77,17,176,,78,00,227,,81,04,342,,86,08,145,09*6C
$GLGSV,3,3,10,87,46,120,13,88,50,012,27*6B
$GNTXT,01,01,01,More than 100 frame errors, UART RX was disabled*70
$GNGLL,0419.81212,S,05539.77838,E,124119.00,A,A*69
$GNGRS,124119.00,1,-16.9,-0.5,-2.3,14.0,-4.3,6.3,0.8,23.5,21.9,,,*7B
$GNGRS,124119.00,1,-3.2,-4.4,-11.7,-2.1,15.6,8.6,,,,,,*57
$GNGST,124119.00,3302758,,,,4.7,6.1,22*55
$GNZDA,124119.00,22,05,2025,00,00*76
$GNGBS,124119.00,4.7,6.1,21.6,,,,*60
b0LR
8/

 b2$2(C!7R* /{4Ta":R 
YoA
B&D"CL
MNQVV6W.xRX29bR($GNRMC,124120.00,A,0419.81219,S,05539.77836,E,0.076,,220525,,,A*7C
$GNVTG,,T,,M,0.076,N,0.140,K,A*39
$GNGNS,124120.00,0419.81219,S,05539.77836,E,AA,15,0.71,7.0,-47.6,,*54
$GNGGA,124120.00,0419.81219,S,05539.77836,E,1,12,0.71,7.0,M,-47.6,M,,*79
$GNGSA,A,3,32,28,27,18,26,31,16,10,08,,,,1.64,0.71,1.48*1B
$GNGSA,A,3,66,87,88,67,86,76,,,,,,,1.64,0.71,1.48*15
$GPGSV,4,1,16,08,15,312,07,10,14,012,10,16,24,230,26,18,32,098,14*7E
$GPGSV,4,2,16,23,01,050,08,26,28,200,21,27,50,296,29,28,55,135,33*71
$GPGSV,4,3,16,29,05,147,07,31,42,179,24,32,47,002,15,36,52,277,*7B
$GPGSV,4,4,16,40,84,353,,41,58,082,34,49,32,274,,50,10,089,*7E
$GLGSV,3,1,10,65,10,008,,66,38,324,27,67,31,255,29,76,13,130,10*6D
$GLGSV,3,2,10,77,17,176,,78,00,227,,81,04,342,,86,08,145,08*6D
$GLGSV,3,3,10,87,46,120,13,88,50,012,28*64
$GNGLL,0419.81219,S,05539.77836,E,124120.00,A,A*66
$GNGRS,124120.00,1,-19.1,-1.7,0.7,7.8,-5.2,6.7,-3.3,4.2,122,,,*52
$GNGRS,124120.00,1,-2.2,-1.7,-10.2,-0.2,140,10.5,,,,,,*4C
$GNGST,124120.00,63,,,,4.7,6.1,21*61
$GNZDA,124120.00,22,05,2025,00,00*7C
$GNGBS,124120.00,4.7,6.1,21.4,,,,*68
$GNTXT,01,01,01,More than 100 frame errors, UART RX was disabled*70
b0LR
8p
 b22(i!7}*Q /,{4Ta!:R 
YoA
B&DCLUMNQVVW.xqX2bR(h`$GNRMC,124121.00,A,0419.81228,S,05539.77831,E,0.115,,220525,,,A*7C
$GNVTG,,T,,M,0.115,N,0.212,K,A*39
$GNGNS,124121.00,0419.81228,S,05539.77831,E,AA,13,0.85,7.3,-47.6,,*5E
$GNGGA,124121.00,0419.81228,S,05539.77831,E,1,12,0.85,7.3,M,-47.6,M,,*75
$GNGSA,A,3,32,28,27,18,26,31,16,08,,,,,1.97,0.85,1.78*1E
$GNGSA,A,3,66,88,67,86,76,,,,,,,,1.97,0.85,1.78*1E
$GPGSV,4,1,16,08,15,312,09,10,14,012,06,16,24,230,25,18,32,098,18*78
$GPGSV,4,2,16,23,01,050,09,26,28,200,20,27,50,296,31,28,55,135,33*78
$GPGSV,4,3,16,29,05,147,08,31,42,179,24,32,47,002,15,36,52,277,*74
$GPGSV,4,4,16,40,84,353,,41,58,082,33,49,32,274,,50,10,089,*79
$GLGSV,3,1,10,65,10,008,,66,38,324,26,67,31,255,30,76,13,130,15*61
$GLGSV,3,2,10,77,17,176,,78,00,227,,81,04,342,,86,08,145,12*66
$GLGSV,3,3,10,87,46,120,11,88,50,012,28*66
$GNGLL,0419.81228,S,05539.77831,E,124121.00,A,A*62
$GNGRS,124121.00,1,-17.5,-1.3,1.1,12.0,-5.2,8.5,-3.4,21.6,,,,*6F
$GNGRS,124121.00,1,-0.2,-7.4,-1.3,14.8,8.5,,,,,,,*65
$GNGST,124121.00,3434844,,,,4.7,6.1,21*5D
$GNZDA,124121.00,22,05,2025,00,00*7D
$GNGBS,124121.00,4.7,6.1,21.4,87,,-3.7,82.4*71
$GNTXT,01,01,01,More than 100 frame errors, UART RX was disabled*70
b0LR
8u
< b
22( 7e*! /{4Ta:R 
YoA
B&D$CLkMNQVV
W.xX22bR(@$GNRMC,124122.00,A,0419.81232,S,05539.77830,E,0.197,,220525,,,A*7F
$GNVTG,,T,,M,0.197,N,0.365,K,A*32
$GNGNS,124122.00,0419.81232,S,05539.77830,E,AA,14,0.85,7.5,-47.6,,*56
$GNGGA,124122.00,0419.81232,S,05539.77830,E,1,12,0.85,7.5,M,-47.6,M,,*7A
$GNGSA,A,3,32,28,27,18,26,31,16,10,08,,,,1.97,0.85,1.78*1F
$GNGSA,A,3,66,88,67,86,76,,,,,,,,1.97,0.85,1.78*1E
$GPGSV,4,1,16,08,15,312,09,10,14,012,13,16,24,230,26,18,32,098,18*7F
$GPGSV,4,2,16,23,01,050,10,26,28,200,19,27,50,296,31,28,55,135,32*7B
$GPGSV,4,3,16,29,05,147,09,31,42,179,23,32,47,002,14,36,52,277,*73
$GPGSV,4,4,16,40,84,353,,41,58,082,31,49,32,274,,50,10,089,*7B
$GLGSV,3,1,10,65,10,008,,66,38,324,27,67,31,255,29,76,13,130,13*6E
$GLGSV,3,2,10,77,17,176,,78,00,227,,81,04,342,,86,08,145,10*64
$GLGSV,3,3,10,87,46,120,,88,50,012,27*69
$GNGLL,0419.81232,S,05539.77830,E,124122.00,A,A*6B
$GNGRS,124122.00,1,-15.7,-1.5,-1.0,11.9,-4.8,8.0,-2.0,22.8,21.7,,,*50
$GNGRS,124122.00,1,-4.8,-5.6,0.2,14.9,8.7,,,,,,,*46
$GNGST,124122.00,3435829,,,,4.7,6.1,22*57
$GNZDA,124122.00,22,05,2025,00,00*7E
$GNGBS,124122.00,4.7,6.1,21.5,,,,*6B
$GNTXT,01,01,01,More than 100 frame errors, UART RX was disabled*70
b0LR

8i

 b`2F2( 7@
*P /{4Ta:R 
YoA
B&DCLMNQVVW.xX2bRi(0$GNRMC,124123.00,A,0419.81236,S,05539.77830,E,0.075,,220525,,,A*77
$GNVTG,,T,,M,0.075,N,0.140,K,A*3A
$GNGNS,124123.00,0419.81236,S,05539.77830,E,AA,14,0.85,7.6,-47.6,,*50
$GNGGA,124123.00,0419.81236,S,05539.77830,E,1,12,0.85,7.6,M,-47.6,M,,*7C
$GNGSA,A,3,32,28,27,18,26,31,16,10,08,,,,1.97,0.85,1.78*1F
$GNGSA,A,3,66,88,67,86,76,,,,,,,,1.97,0.85,1.78*1E
$GPGSV,4,1,16,08,15,312,10,10,14,012,12,16,24,230,26,18,32,098,13*7D
$GPGSV,4,2,16,23,01,050,11,26,28,200,19,27,50,296,30,28,55,135,32*7B
$GPGSV,4,3,16,29,05,147,10,31,42,179,22,32,47,002,12,36,52,277,*7C
$GPGSV,4,4,16,40,84,353,,41,58,082,31,49,32,274,,50,10,089,*7B
$GLGSV,3,1,10,65,10,008,,66,38,324,27,67,31,255,28,76,13,130,12*6E
$GLGSV,3,2,10,77,17,176,,78,00,227,,81,04,342,,86,08,145,15*61
$GLGSV,3,3,10,87,46,120,,88,50,012,28*66
$GNGLL,0419.81236,S,05539.77830,E,124123.00,A,A*6E
$GNGRS,124123.00,1,-13.7,-1.9,-2.3,11.2,-5.3,8.5,-2.7,-93.4,26.6,,,*75
$GNGRS,124123.00,1,-5.0,-3.4,-2.3,-8.0,9.0,,,,,,,*7B
$GNGST,124123.00,61,,,,4.7,6.0,21*61
$GNZDA,124123.00,22,05,2025,00,00*7F
$GNGBS,124123.00,4.7,6.0,21.3,,,,*6D
$GNTXT,01,01,01,More than 100 frame errors, UART RX was disabled*70
b0LpR

8]

 bS2#2(7a
1*p /{4Ta :R 
YoA
B&D`C0L+MNQVVW.xX2NbpRQ($GNRMC,124124.00,A,0419.81238,S,05539.77837,E,0.158,,220525,,,A*77
$GNVTG,,T,,M,0.158,N,0.292,K,A*38
$GNGNS,124124.00,0419.81238,S,05539.77837,E,AA,14,0.85,7.4,-47.6,,*5C
$GNGGA,124124.00,0419.81238,S,05539.77837,E,1,12,0.85,7.4,M,-47.6,M,,*70
$GNGSA,A,3,32,28,27,18,26,31,16,10,08,,,,1.97,0.85,1.78*1F
$GNGSA,A,3,66,88,67,86,76,,,,,,,,1.97,0.85,1.78*1E
$GPGSV,4,1,16,08,15,312,10,10,14,012,10,16,24,230,26,18,32,098,18*74
$GPGSV,4,2,16,23,01,050,11,26,28,200,18,27,50,296,29,28,55,135,31*71
$GPGSV,4,3,16,29,05,147,10,31,42,179,22,32,47,002,13,36,52,277,*7D
$GPGSV,4,4,16,40,84,353,,41,58,082,32,49,32,274,,50,10,089,*78
$GLGSV,3,1,10,65,10,008,,66,38,324,24,67,31,255,28,76,13,130,15*6A
$GLGSV,3,2,10,77,17,176,,78,00,227,,81,04,342,,86,08,145,12*66
$GLGSV,3,3,10,87,46,120,,88,50,012,27*69
$GNGLL,0419.81238,S,05539.77837,E,124124.00,A,A*60
$GNGRS,124124.00,1,-13.4,-1.6,1.3,8.5,-4.8,8.8,-3.2,22.3,21.4,,,*49
$GNGRS,124124.00,1,-6.7,0.1,0.5,14.6,8.1,,,,,,,*6C
$GNGST,124124.00,3435102,,,,4.7,6.0,21*53
$GNZDA,124124.00,22,05,2025,00,00*78
$GNGBS,124124.00,4.7,6.0,21.1,,,,*68
$GNTXT,01,01,01,More than 100 frame errors, UART RX was disabled*70
b0LXR
86
{X bp262(7
*) /{4Ta :R 
YoA
B&DCPLMNQVVtW.xX2(bXR9($GNRMC,124125.00,A,0419.81236,S,05539.77852,E,0.096,,220525,,,A*78
$GNVTG,,T,,M,0.096,N,0.177,K,A*33
$GNGNS,124125.00,0419.81236,S,05539.77852,E,AA,14,0.85,6.3,-47.6,,*56
$GNGGA,124125.00,0419.81236,S,05539.77852,E,1,12,0.85,6.3,M,-47.6,M,,*7A
$GNGSA,A,3,32,28,27,18,26,31,16,10,08,,,,1.97,0.85,1.78*1F
$GNGSA,A,3,66,88,67,86,76,,,,,,,,1.97,0.85,1.78*1E
$GPGSV,4,1,16,08,15,312,11,10,14,012,13,16,24,230,26,18,32,098,19*77
$GPGSV,4,2,16,23,01,050,09,26,28,200,18,27,50,296,29,28,55,135,31*78
$GPGSV,4,3,16,29,05,147,10,31,42,179,21,32,47,002,15,36,52,277,*78
$GPGSV,4,4,16,40,84,353,,41,58,082,32,49,32,274,,50,10,089,*78
$GLGSV,3,1,10,65,10,008,,66,38,324,24,67,31,255,27,76,13,130,17*67
$GLGSV,3,2,10,77,17,176,,78,00,227,,81,04,342,,86,08,145,09*6C
$GLGSV,3,3,10,87,46,120,,88,50,012,27*69
$GNGLL,0419.81236,S,05539.77852,E,124125.00,A,A*6C
$GNGRS,124125.00,1,-14.0,-2.8,-3.6,6.2,-2.5,8.1,-4.2,21.7,21.0,,,*63
$GNGRS,124125.00,1,-8.7,-2.2,-1.8,14.0,7.9,,,,,,,*6F
$GNGST,124125.00,3434011,,,,4.7,5.9,21*5A
$GNZDA,124125.00,22,05,2025,00,00*79
$GNGBS,124125.00,4.7,5.9,20.9,,,,*6A
$GNTXT,01,01,01,More than 100 frame errors, UART RX was disabled*70
b0L@R
8

) b22(7G*J /{4Ta:R 
YoA
B&DCLMNQVVHW.xX2Zb@R!(h$GNRMC,124126.00,A,0419.81243,S,05539.77861,E,0.149,,220525,,,A*7A
$GNVTG,,T,,M,0.149,N,0.275,K,A*31
$GNGNS,124126.00,0419.81243,S,05539.77861,E,AA,14,0.85,6.0,-47.6,,*54
$GNGGA,124126.00,0419.81243,S,05539.77861,E,1,12,0.85,6.0,M,-47.6,M,,*78
$GNGSA,A,3,32,28,27,18,26,31,16,10,08,,,,1.97,0.85,1.78*1F
$GNGSA,A,3,66,88,67,86,76,,,,,,,,1.97,0.85,1.78*1E
$GPGSV,4,1,16,08,15,312,08,10,14,012,10,16,24,230,25,18,32,098,17*71
$GPGSV,4,2,16,23,01,050,07,26,28,200,19,27,50,296,27,28,55,135,30*78
$GPGSV,4,3,16,29,05,147,11,31,42,179,21,32,47,002,16,36,52,277,*7A
$GPGSV,4,4,16,40,84,353,,41,58,082,31,49,32,274,,50,10,089,*7B
$GLGSV,3,1,10,65,10,008,,66,38,324,22,67,31,255,26,76,13,130,16*61
$GLGSV,3,2,10,77,17,176,,78,00,227,,81,04,342,,86,08,145,09*6C
$GLGSV,3,3,10,87,46,120,,88,50,012,27*69
$GNGLL,0419.81243,S,05539.77861,E,124126.00,A,A*6D
$GNGRS,124126.00,1,-15.5,0.7,1.8,4.7,-2.9,11.0,-5.9,105,-126,,,*76
$GNGRS,124126.00,1,-8.4,-5.5,-5.6,-12.1,9.3,,,,,,,*4B
$GNGST,124126.00,58,,,,4.7,5.9,21*64
$GNZDA,124126.00,22,05,2025,00,00*7A
$GNGBS,124126.00,4.7,5.9,20.7,,,,*67
$GNTXT,01,01,01,More than 100 frame errors, UART RX was disabled*70
b0L(R
8M

` bi29?2(7"* /I{4Ta:R 
YoAB&DCbLQMNQVVW.xX2\F!b(R(x$GNRMC,124127.00,A,0419.81243,S,05539.77880,E,0.302,,220525,,,A*79
$GNVTG,,T,,M,0.302,N,0.559,K,A*35
$GNGNS,124127.00,0419.81243,S,05539.77880,E,AA,14,0.85,5.1,-47.6,,*58
$GNGGA,124127.00,0419.81243,S,05539.77880,E,1,12,0.85,5.1,M,-47.6,M,,*74
$GNGSA,A,3,32,28,27,18,26,31,16,10,08,,,,1.97,0.85,1.78*1F
$GNGSA,A,3,66,88,67,86,76,,,,,,,,1.97,0.85,1.78*1E
$GPGSV,4,1,16,08,15,312,07,10,14,012,10,16,24,230,25,18,32,098,16*7F
$GPGSV,4,2,16,23,01,050,07,26,28,200,19,27,50,296,27,28,55,135,31*79
$GPGSV,4,3,16,29,05,147,11,31,42,179,21,32,47,002,17,36,52,277,*7B
$GPGSV,4,4,16,40,84,353,,41,58,082,31,49,32,274,,50,10,089,*7B
$GLGSV,3,1,10,65,09,008,,66,38,324,21,67,31,255,26,76,13,130,14*68
$GLGSV,3,2,10,77,17,176,,78,00,227,,81,04,342,,86,08,145,17*63
$GLGSV,3,3,10,87,46,120,,88,50,012,26*68
$GNGLL,0419.81243,S,05539.77880,E,124127.00,A,A*63
$GNGRS,124127.00,1,-19.7,-1.1,0.0,3.6,-1.9,11.7,-6.7,21.9,21.3,,,*73
$GNGRS,124127.00,1,-8.8,-6.8,-9.3,14.2,11.0,,,,,,,*53
$GNGST,124127.00,3434011,,,,4.8,5.8,21*56
$GNZDA,124127.00,22,05,2025,00,00*7B
$GNGBS,124127.00,4.8,5.8,20.6,,,,*69
$GNTXT,01,01,01,More than 100 frame errors, UART RX was disabled*70
b0LR
81
g@ b2u2( 7*m /{4Ta:R 
YoAB&EmCLMNQVVlW.xX2bR(O5$GNRMC,124128.00,A,0419.81239,S,05539.77893,E,0.315,,220525,,,A*7F
$GNVTG,,T,,M,0.315,N,0.584,K,A*33
$GNGNS,124128.00,0419.81239,S,05539.77893,E,AA,14,0.85,4.2,-47.6,,*5A
$GNGGA,124128.00,0419.81239,S,05539.77893,E,1,12,0.85,4.2,M,-47.6,M,,*76
$GNGSA,A,3,32,28,27,18,26,31,16,10,08,,,,1.97,0.85,1.77*10
$GNGSA,A,3,66,88,67,86,76,,,,,,,,1.97,0.85,1.77*11
$GPGSV,4,1,16,08,15,312,09,10,14,012,09,16,24,230,25,18,32,098,15*7A
$GPGSV,4,2,16,23,01,050,09,26,28,200,19,27,50,296,27,28,55,135,32*74
$GPGSV,4,3,16,29,05,147,11,31,42,179,23,32,47,002,17,36,52,277,*79
$GPGSV,4,4,16,40,84,353,,41,58,082,31,49,32,274,,50,10,089,*7B
$GLGSV,3,1,10,65,09,008,,66,38,325,20,67,31,255,27,76,13,130,14*69
$GLGSV,3,2,10,77,17,176,,78,00,227,,81,04,342,,86,08,145,14*60
$GLGSV,3,3,10,87,46,120,,88,50,012,26*68
$GNGLL,0419.81239,S,05539.77893,E,124128.00,A,A*63
$GNGRS,124128.00,1,-20.7,-6.2,-0.3,2.2,1.2,11.3,-7.0,21.5,21.0,,,*72
$GNGRS,124128.00,1,-6.6,-8.0,-5.5,13.9,10.2,,,,,,,*5F
$GNGST,124128.00,3434011,,,,4.9,5.8,20*59
$GNZDA,124128.00,22,05,2025,00,00*74
$GNGBS,124128.00,4.9,5.8,20.5,,,,*64
$GNTXT,01,01,01,More than 100 frame errors, UART RX was disabled*70
b0LR
8J

A b
22( 73* /{4Ta :R 
YoAB&ECLMNQVVW.xX2e3bR(&$GNRMC,124129.00,A,0419.81235,S,05539.77900,E,0.242,,220525,,,A*7A
$GNVTG,,T,,M,0.242,N,0.448,K,A*31
$GNGNS,124129.00,0419.81235,S,05539.77900,E,AA,14,0.67,3.7,-47.6,,*52
$GNGGA,124129.00,0419.81235,S,05539.77900,E,1,12,0.67,3.7,M,-47.6,M,,*7E
$GNGSA,A,3,32,28,27,18,26,31,16,10,08,,,,1.41,0.67,1.24*11
$GNGSA,A,3,66,88,67,86,76,,,,,,,,1.41,0.67,1.24*10
$GPGSV,4,1,16,08,15,312,07,10,14,012,10,16,24,230,25,18,32,098,15*7C
$GPGSV,4,2,16,23,01,050,10,26,28,200,19,27,50,296,28,28,55,135,32*73
$GPGSV,4,3,16,29,05,147,11,31,42,179,24,32,47,002,16,36,52,277,*7F
$GPGSV,4,4,16,40,84,353,,41,58,082,32,49,32,274,,50,10,089,*78
$GLGSV,3,1,10,65,09,008,,66,38,325,19,67,31,256,27,76,13,130,15*61
$GLGSV,3,2,10,77,17,176,,78,00,227,,81,04,342,,86,08,145,15*61
$GLGSV,3,3,10,87,46,120,,88,50,012,26*68
$GNGLL,0419.81235,S,05539.77900,E,124129.00,A,A*65
$GNGRS,124129.00,1,-19.1,-4.6,-1.2,1.5,-1.0,13.1,-8.6,168,18.7,,,*71
$GNGRS,124129.00,1,-3.6,-6.7,-6.3,-2.4,7.3,,,,,,,*70
$GNGST,124129.00,79,,,,4.9,5.8,20*66
$GNZDA,124129.00,22,05,2025,00,00*75
$GNGBS,124129.00,4.9,5.8,20.2,,,,*62
$GNTXT,01,01,01,More than 100 frame errors, UART RX was disabled*70
b0XR
8b
 b22(77Ng* /{4Ta :R 
YoAB&ECRDLMNQVV
W.xX2|bR($GNRMC,124130.00,A,0419.81237,S,05539.77904,E,0.138,,220525,,,A*7A
$GNVTG,,T,,M,0.138,N,0.256,K,A*36
$GNGNS,124130.00,0419.81237,S,05539.77904,E,AA,14,0.69,3.6,-47.6,,*53
$GNGGA,124130.00,0419.81237,S,05539.77904,E,1,12,0.69,3.6,M,-47.6,M,,*7F
$GNGSA,A,3,32,28,27,18,26,31,16,10,08,,,,1.45,0.69,1.28*17
$GNGSA,A,3,66,88,67,86,76,,,,,,,,1.45,0.69,1.28*16
$GPGSV,4,1,16,08,15,312,11,10,14,012,15,16,24,230,26,18,32,098,15*7D
$GPGSV,4,2,16,23,01,050,09,26,28,200,20,27,50,296,31,28,55,135,31*7A
$GPGSV,4,3,16,29,05,147,11,31,42,179,24,32,47,002,14,36,52,277,*7D
$GPGSV,4,4,16,40,84,353,,41,58,082,32,49,32,274,,50,10,089,*78
$GLGSV,3,1,11,65,09,008,,66,38,325,19,67,31,256,26,68,00,219,*60
$GLGSV,3,2,11,76,13,130,15,77,17,176,,78,00,227,,81,04,342,*67
$GLGSV,3,3,11,86,08,145,10,87,46,120,,88,50,012,27*5F
$GNGLL,0419.81237,S,05539.77904,E,124130.00,A,A*6B
$GNGRS,124130.00,1,-21.3,-1.8,0.6,2.3,-2.3,11.9,-7.5,22.4,21.5,,,*7D
$GNGRS,124130.00,1,-3.6,-7.6,-6.9,14.7,3.9,,,,,,,*65
$GNGST,124130.00,465257,,,,4.9,5.7,20*68
$GNZDA,124130.00,22,05,2025,00,00*7D
$GNGBS,124130.00,4.9,5.7,20.0,,,,*67
$GNTXT,01,01,01,More than 100 frame errors, UART RX was disabled*70
b0XR
8m
 b2K2(7*' /[{4Ta!:R 
YoAB&ECDLMNQVV
W.xX2AbR(^$GNRMC,124131.00,A,0419.81244,S,05539.77900,E,0.073,,220525,,,A*75
$GNVTG,,T,,M,0.073,N,0.135,K,A*3E
$GNGNS,124131.00,0419.81244,S,05539.77900,E,AA,14,0.85,3.9,-47.6,,*5F
$GNGGA,124131.00,0419.81244,S,05539.77900,E,1,12,0.85,3.9,M,-47.6,M,,*73
$GNGSA,A,3,32,28,27,18,26,31,16,10,08,,,,1.97,0.85,1.77*10
$GNGSA,A,3,66,88,67,86,76,,,,,,,,1.97,0.85,1.77*11
$GPGSV,4,1,16,08,15,312,09,10,14,012,14,16,24,230,26,18,32,098,13*73
$GPGSV,4,2,16,23,01,050,08,26,28,200,21,27,50,296,29,28,55,135,31*73
$GPGSV,4,3,16,29,05,147,11,31,42,179,25,32,47,002,11,36,52,277,*79
$GPGSV,4,4,16,40,84,353,,41,58,082,33,49,32,274,,50,10,089,*79
$GLGSV,3,1,11,65,09,008,,66,38,325,18,67,31,256,26,68,00,219,*61
$GLGSV,3,2,11,76,13,130,15,77,17,176,,78,00,227,,81,04,342,*67
$GLGSV,3,3,11,86,08,145,10,87,46,120,,88,50,012,28*50
$GNGLL,0419.81244,S,05539.77900,E,124131.00,A,A*6A
$GNGRS,124131.00,1,-19.6,-2.8,2.3,2.4,-1.8,13.2,-8.0,22.9,21.6,,,*74
$GNGRS,124131.00,1,-3.8,-7.8,-3.6,14.9,2.0,,,,,,,*68
$GNTXT,01,01,01,More than 100 frame errors, UART RX was disabled*70
$GNGST,124131.00,3434011,,,,4.9,5.7,20*5E
$GNZDA,124131.00,22,05,2025,00,00*7C
$GNGBS,124131.00,4.9,5.7,19.9,,,,*65
b0XR
85
hO b2%02(7\*7 
/{4Ta :R 
YoAB&ECDLMNQVV
W.xX28bR($GNRMC,124132.00,A,0419.81253,S,05539.77898,E,0.080,,220525,,,A*7C
$GNVTG,,T,,M,0.080,N,0.148,K,A*38
$GNGNS,124132.00,0419.81253,S,05539.77898,E,AA,14,0.85,4.0,-47.6,,*54
$GNGGA,124132.00,0419.81253,S,05539.77898,E,1,12,0.85,4.0,M,-47.6,M,,*78
$GNGSA,A,3,32,28,27,18,26,31,16,10,08,,,,1.97,0.85,1.77*10
$GNGSA,A,3,66,88,67,86,76,,,,,,,,1.97,0.85,1.77*11
$GPGSV,4,1,16,08,15,312,11,10,14,012,15,16,24,230,25,18,32,098,12*79
$GPGSV,4,2,16,23,01,050,09,26,28,200,21,27,50,296,29,28,55,135,31*72
$GPGSV,4,3,16,29,05,147,11,31,42,179,26,32,47,002,10,36,52,277,*7B
$GPGSV,4,4,16,40,84,353,,41,58,082,32,49,32,274,,50,10,089,*78
$GLGSV,3,1,11,65,09,008,,66,38,325,19,67,31,256,27,68,00,219,*61
$GLGSV,3,2,11,76,13,130,15,77,17,176,,78,00,227,,81,04,342,*67
$GLGSV,3,3,11,86,08,145,10,87,46,120,,88,50,012,28*50
$GNGLL,0419.81253,S,05539.77898,E,124132.00,A,A*6F
$GNGRS,124132.00,1,-20.7,-3.4,-1.3,1.7,-0.1,13.4,-9.5,-37.4,-19.9,,,*58
$GNGRS,124132.00,1,-3.5,-10.1,-2.6,-7.6,2.9,,,,,,,*41
$GNGST,124132.00,60,,,,4.9,5.7,20*6B
$GNTXT,01,01,01,More than 100 frame errors, UART RX was disabled*70
$GNZDA,124132.00,22,05,2025,00,00*7F
$GNGBS,124132.00,4.9,5.7,19.8,,,,*67
b0XR
8l
j b22( 7p* /{4Ta:R 
YoAB&ENCXDL9MNQVV
W.xX2R-bRy(.$GNRMC,124133.00,A,0419.81264,S,05539.77898,E,0.111,,220525,,,A*70
$GNVTG,,T,,M,0.111,N,0.205,K,A*3B
$GNGNS,124133.00,0419.81264,S,05539.77898,E,AA,14,0.85,4.2,-47.6,,*53
$GNGGA,124133.00,0419.81264,S,05539.77898,E,1,12,0.85,4.2,M,-47.6,M,,*7F
$GNGSA,A,3,32,28,27,18,26,31,16,10,08,,,,1.96,0.85,1.77*11
$GNGSA,A,3,66,88,67,86,76,,,,,,,,1.96,0.85,1.77*10
$GPGSV,4,1,16,08,15,312,14,10,14,012,09,16,24,230,24,18,32,098,13*71
$GPGSV,4,2,16,23,01,050,07,26,28,200,21,27,50,296,28,28,55,135,32*7E
$GPGSV,4,3,16,29,05,147,09,31,42,179,25,32,47,002,15,36,52,277,*74
$GPGSV,4,4,16,40,84,353,,41,58,082,31,49,32,274,,50,10,089,*7B
$GLGSV,3,1,11,65,09,008,,66,38,325,19,67,31,256,27,68,00,219,*61
$GLGSV,3,2,11,76,13,130,16,77,17,176,,78,00,227,,81,04,342,*64
$GLGSV,3,3,11,86,08,145,10,87,46,120,,88,50,012,29*51
$GNGLL,0419.81264,S,05539.77898,E,124133.00,A,A*6A
$GNGRS,124133.00,1,-20.4,1.6,-0.2,4.7,1.4,17.0,-9.2,22.5,21.6,,,*5D
$GNGRS,124133.00,1,-1.8,-10.4,-1.7,14.8,3.1,,,,,,,*50
$GNTXT,01,01,01,More than 100 frame errors, UART RX was disabled*70
$GNGST,124133.00,3434011,,,,4.9,5.6,20*5D
$GNZDA,124133.00,22,05,2025,00,00*7E
$GNGBS,124133.00,4.9,5.6,19.7,,,,*68
b0XR
8e
 b
22("7L* /;{4Ta!:R 
YoAB&EC4DLMNQVV
W.xX2:gbRa(^$GNRMC,124134.00,A,0419.81270,S,05539.77905,E,0.185,,220525,,,A*7A
$GNVTG,,T,,M,0.185,N,0.343,K,A*35
$GNGNS,124134.00,0419.81270,S,05539.77905,E,AA,14,0.85,3.7,-47.6,,*56
$GNGGA,124134.00,0419.81270,S,05539.77905,E,1,12,0.85,3.7,M,-47.6,M,,*7A
$GNGSA,A,3,32,28,27,18,26,31,16,10,08,,,,1.96,0.85,1.77*11
$GNGSA,A,3,66,88,67,86,76,,,,,,,,1.96,0.85,1.77*10
$GPGSV,4,1,16,08,15,312,07,10,14,012,08,16,24,230,24,18,32,098,16*77
$GPGSV,4,2,16,23,01,050,10,26,28,200,21,27,50,296,27,28,55,135,31*74
$GPGSV,4,3,16,29,05,147,08,31,42,179,23,32,47,002,17,36,52,277,*71
$GPGSV,4,4,16,40,84,353,,41,58,082,33,49,32,274,,50,10,089,*79
$GLGSV,3,1,11,65,09,008,,66,38,325,18,67,31,256,27,68,00,219,*60
$GLGSV,3,2,11,76,13,130,16,77,17,176,,78,00,227,,81,04,342,*64
$GLGSV,3,3,11,86,08,145,10,87,46,120,,88,50,012,27*5F
$GNGLL,0419.81270,S,05539.77905,E,124134.00,A,A*6D
$GNGRS,124134.00,1,-22.5,-3.6,0.3,5.3,5.4,17.4,-8.4,22.3,21.5,,,*5D
$GNGRS,124134.00,1,-0.9,-9.7,-2.0,14.6,1.9,,,,,,,*6C
$GNGST,124134.00,3434011,,,,4.9,5.6,20*5A
$GNZDA,124134.00,22,05,2025,00,00*79
$GNGBS,124134.00,4.9,5.6,19.6,,,,*6E
$GNTXT,01,01,01,More than 100 frame errors, UART RX was disabled*70
b0XhR
8

 b]2[2( 7
* /B{4Ta!:R 
YoAB&E/CdDLMNQVV
W.xX2J8bhRI(6$GNRMC,124135.00,A,0419.81276,S,05539.77906,E,0.214,,220525,,,A*75
$GNVTG,,T,,M,0.214,N,0.396,K,A*36
$GNGNS,124135.00,0419.81276,S,05539.77906,E,AA,14,0.67,3.8,-47.6,,*51
$GNGGA,124135.00,0419.81276,S,05539.77906,E,1,12,0.67,3.8,M,-47.6,M,,*7D
$GNGSA,A,3,32,28,27,18,26,31,16,10,08,,,,1.41,0.67,1.24*11
$GNGSA,A,3,66,88,67,86,76,,,,,,,,1.41,0.67,1.24*10
$GPGSV,4,1,16,08,15,312,15,10,14,012,10,16,24,230,26,18,32,098,20*7A
$GPGSV,4,2,16,23,01,050,09,26,28,200,21,27,50,296,27,28,55,135,32*7F
$GPGSV,4,3,16,29,05,147,10,31,42,179,20,32,47,002,19,36,52,277,*75
$GPGSV,4,4,16,40,84,353,,41,58,082,33,49,32,274,,50,10,089,*79
$GLGSV,3,1,11,65,09,008,,66,38,325,19,67,31,256,27,68,00,219,*61
$GLGSV,3,2,11,76,13,130,17,77,17,176,,78,00,227,,81,04,342,*65
$GLGSV,3,3,11,86,08,145,10,87,46,120,,88,50,012,29*51
$GNGLL,0419.81276,S,05539.77906,E,124135.00,A,A*69
$GNGRS,124135.00,1,-22.4,-2.5,6.5,6.1,6.0,18.1,-8.1,12.2,-18.8,,,*7E
$GNGRS,124135.00,1,0.5,-6.3,-1.6,2.3,1.6,,,,,,,*7F
$GNGST,124135.00,66,,,,4.9,5.5,19*62
$GNZDA,124135.00,22,05,2025,00,00*78
$GNGBS,124135.00,4.9,5.5,19.2,,,,*68
$GNTXT,01,01,01,More than 100 frame errors, UART RX was disabled*70
$GNTXT,01,01,01,More than 100 frame errors, UART RX was disabled*70
b0XPR
8i
 bO22(Q 7r
k* /{4Ta!:R 
YoAB&ECDLMNQVV
W.xX2bPR1(f$GNRMC,124136.00,A,0419.81284,S,05539.77908,E,0.187,,220525,,,A*7C
$GNVTG,,T,,M,0.187,N,0.347,K,A*33
$GNGNS,124136.00,0419.81284,S,05539.77908,E,AA,14,0.85,3.7,-47.6,,*52
$GNGGA,124136.00,0419.81284,S,05539.77908,E,1,12,0.85,3.7,M,-47.6,M,,*7E
$GNGSA,A,3,32,28,27,18,26,31,16,10,08,,,,1.96,0.85,1.77*11
$GNGSA,A,3,66,88,67,86,76,,,,,,,,1.96,0.85,1.77*10
$GPGSV,4,1,16,08,15,312,11,10,14,012,12,16,24,230,26,18,32,098,19*76
$GPGSV,4,2,16,23,01,050,09,26,28,200,21,27,50,296,26,28,55,135,32*7E
$GPGSV,4,3,16,29,05,147,10,31,42,179,19,32,47,002,19,36,52,277,*7F
$GPGSV,4,4,16,40,84,353,,41,58,082,33,49,32,274,,50,10,089,*79
$GLGSV,3,1,11,65,09,008,,66,38,325,20,67,31,256,27,68,00,219,*6B
$GLGSV,3,2,11,76,13,130,17,77,17,176,,78,00,227,,81,04,342,*65
$GLGSV,3,3,11,86,08,145,10,87,46,120,,88,50,012,30*59
$GNGLL,0419.81284,S,05539.77908,E,124136.00,A,A*69
$GNGRS,124136.00,1,-24.1,-1.4,5.9,5.9,5.3,16.7,-7.9,22.7,21.5,,,*5B
$GNGRS,124136.00,1,2.3,-11.2,-0.6,14.7,2.3,,,,,,,*7B
$GNGST,124136.00,145392,,,,4.9,5.5,19*69
$GNZDA,124136.00,22,05,2025,00,00*7B
$GNGBS,124136.00,4.9,5.5,19.1,,,,*68
b0X8R
8:
| b2*,2(!7
* /{4Ta#:R 
YoAB&EC(DLyMNQVVIW.xX2krb8R($GNRMC,124137.00,A,0419.81284,S,05539.77929,E,0.269,,220525,,,A*7D
$GNVTG,,T,,M,0.269,N,0.499,K,A*34
$GNGNS,124137.00,0419.81284,S,05539.77929,E,AA,14,0.85,2.2,-47.6,,*54
$GNGGA,124137.00,0419.81284,S,05539.77929,E,1,12,0.85,2.2,M,-47.6,M,,*78
$GNGSA,A,3,32,28,27,18,26,31,16,10,08,,,,1.96,0.85,1.77*11
$GNGSA,A,3,66,88,67,86,76,,,,,,,,1.96,0.85,1.77*10
$GPGSV,4,1,16,08,15,312,15,10,14,012,13,16,24,230,26,18,32,098,18*72
$GPGSV,4,2,16,23,01,050,09,26,28,200,22,27,50,296,27,28,55,135,33*7D
$GPGSV,4,3,16,29,05,147,10,31,42,179,21,32,47,002,18,36,52,277,*75
$GPGSV,4,4,16,40,84,353,,41,58,082,35,49,32,274,,50,10,089,*7F
$GLGSV,3,1,11,65,09,008,,66,38,325,22,67,31,256,26,68,00,219,*68
$GLGSV,3,2,11,76,13,130,16,77,17,176,,78,00,227,,81,04,342,*64
$GLGSV,3,3,11,86,08,145,17,87,46,120,,88,50,012,30*5E
$GNGLL,0419.81284,S,05539.77929,E,124137.00,A,A*6B
$GNGRS,124137.00,1,-26.1,-0.6,7.4,7.0,5.6,14.8,-6.4,22.1,21.1,,,*59
$GNGRS,124137.00,1,4.2,-2.6,0.4,13.5,3.8,,,,,,,*6B
$GNGST,124137.00,3434011,,,,4.9,5.5,19*50
$GNZDA,124137.00,22,05,2025,00,00*7A
$GNGBS,124137.00,4.9,5.5,19.0,,,,*68
$GNTXT,01,01,01,More than 100 frame errors, UART RX was disabled*70
b0X S

8

t b2V2(7m)* /{4Ta!:R 
YoAB&EC(DLMNQVVW.xX2nb S(D$GNRMC,124138.00,A,0419.81293,S,05539.77921,E,0.084,,220525,,,A*7D
$GNVTG,,T,,M,0.084,N,0.155,K,A*30
$GNGNS,124138.00,0419.81293,S,05539.77921,E,AA,14,0.77,2.7,-47.6,,*5D
$GNGGA,124138.00,0419.81293,S,05539.77921,E,1,12,0.77,2.7,M,-47.6,M,,*71
$GNGSA,A,3,32,28,27,18,26,31,16,10,08,,,,1.78,0.77,1.60*1A
$GNGSA,A,3,66,88,67,86,76,,,,,,,,1.78,0.77,1.60*1B
$GPGSV,4,1,16,08,15,312,10,10,14,012,10,16,24,230,26,18,32,098,19*75
$GPGSV,4,2,16,23,01,050,09,26,28,200,22,27,50,296,27,28,55,135,31*7F
$GPGSV,4,3,16,29,05,147,08,31,42,179,22,32,47,002,16,36,52,277,*71
$GPGSV,4,4,16,40,84,353,,41,58,082,33,49,32,274,,50,10,089,*79
$GLGSV,3,1,11,65,09,008,,66,38,325,23,67,31,256,26,68,00,219,*69
$GLGSV,3,2,11,76,13,129,16,77,17,176,,78,00,227,,81,04,342,*6C
$GLGSV,3,3,11,86,08,145,17,87,46,120,,88,50,012,29*56
$GNGLL,0419.81293,S,05539.77921,E,124138.00,A,A*6A
$GNGRS,124138.00,1,-29.2,-4.0,9.1,6.7,6.8,15.1,-6.5,-48.5,-8.0,,,*63
$GNGRS,124138.00,1,5.2,-1.5,0.4,-29.1,2.6,,,,,,,*4A
$GNGST,124138.00,57,,,,4.9,5.4,19*6C
$GNZDA,124138.00,22,05,2025,00,00*75
$GNGBS,124138.00,4.9,5.4,18.9,,,,*6E
$GNTXT,01,01,01,More than 100 frame errors, UART RX was disabled*70
b0XS
8u
 bR22(7o* /A{4Ta:R 
YoAB&ECDLMNQVVW.xX2SbS($GNRMC,124139.00,A,0419.81302,S,05539.77910,E,0.085,,220525,,,A*76
$GNVTG,,T,,M,0.085,N,0.158,K,A*3C
$GNGNS,124139.00,0419.81302,S,05539.77910,E,AA,14,0.85,3.2,-47.6,,*5E
$GNGGA,124139.00,0419.81302,S,05539.77910,E,1,12,0.85,3.2,M,-47.6,M,,*72
$GNGSA,A,3,32,28,27,18,26,31,16,10,08,,,,1.96,0.85,1.77*11
$GNGSA,A,3,66,88,67,86,76,,,,,,,,1.96,0.85,1.77*10
$GPGSV,4,1,16,08,15,312,14,10,14,012,11,16,24,230,27,18,32,098,19*71
$GPGSV,4,2,16,23,01,050,12,26,28,200,22,27,50,296,27,28,55,135,30*74
$GNTXT,01,01,01,More than 100 frame errors, UART RX was disabled*70
$GPGSV,4,3,16,29,05,147,11,31,42,179,24,32,47,002,19,36,52,277,*70
$GPGSV,4,4,16,40,84,353,,41,58,082,30,49,32,274,,50,10,089,*7A
$GLGSV,3,1,11,65,09,008,,66,38,325,22,67,31,256,27,68,00,219,*69
$GLGSV,3,2,11,76,13,129,17,77,17,175,,78,00,227,,81,04,342,*6E
$GLGSV,3,3,11,86,08,145,17,87,46,120,,88,50,012,26*59
$GNGLL,0419.81302,S,05539.77910,E,124139.00,A,A*60
$GNGRS,124139.00,1,-27.5,-9.1,10.0,8.5,6.8,12.3,-5.3,22.8,21.6,,,*6E
$GNGRS,124139.00,1,5.2,-6.2,-0.5,15.2,-0.7,,,,,,,*68
$GNGST,124139.00,3434011,,,,4.9,5.4,19*5F
$GNZDA,124139.00,22,05,2025,00,00*74
$GNGBS,124139.00,4.9,5.4,18.8,,,,*6E
b0XS
8w
 b202(<70* /f{4Ta:R 
YoAB&ECDLGMNQVVW.xX2k:bS(m$GNRMC,124140.00,A,0419.81310,S,05539.77904,E,0.041,,220525,,,A*76
$GNVTG,,T,,M,0.041,N,0.076,K,A*39
$GNGNS,124140.00,0419.81310,S,05539.77904,E,AA,14,0.85,3.2,-47.6,,*56
$GNGGA,124140.00,0419.81310,S,05539.77904,E,1,12,0.85,3.2,M,-47.6,M,,*7A
$GNGSA,A,3,32,28,27,18,26,31,16,10,08,,,,1.96,0.85,1.77*11
$GNGSA,A,3,66,88,67,86,76,,,,,,,,1.96,0.85,1.77*10
$GPGSV,4,1,16,08,15,312,08,10,14,012,11,16,24,230,27,18,32,098,19*7C
$GPGSV,4,2,16,23,01,050,08,26,28,200,22,27,50,296,27,28,55,135,30*7F
$GPGSV,4,3,16,29,05,147,11,31,42,179,25,32,47,002,20,36,52,277,*7B
$GPGSV,4,4,16,40,84,353,,41,58,082,30,49,32,274,,50,10,089,*7A
$GLGSV,3,1,11,65,09,008,,66,38,325,21,67,31,256,27,68,00,219,*6A
$GLGSV,3,2,11,76,13,129,16,77,17,175,,78,00,227,,81,04,342,*6F
$GLGSV,3,3,11,86,08,145,17,87,46,120,,88,50,012,25*5A
$GNGLL,0419.81310,S,05539.77904,E,124140.00,A,A*68
$GNTXT,01,01,01,More than 100 frame errors, UART RX was disabled*70
$GNGRS,124140.00,1,-27.1,-7.2,10.8,7.6,5.6,9.1,-3.8,22.9,21.7,,,*55
$GNGRS,124140.00,1,4.4,-4.1,-0.4,15.3,0.7,,,,,,,*4D
$GNGST,124140.00,3434011,,,,4.9,5.4,19*51
$GNZDA,124140.00,22,05,2025,00,00*7A
$GNGBS,124140.00,4.9,5.4,18.7,,,,*6F
b0XS
8
ds bK
2+Wd2(7"* /{4Ta:R 
YoAB&ENCDLdMNQVVW.xX2bS(Ej$GNRMC,124141.00,A,0419.81317,S,05539.77912,E,0.149,,220525,,,A*7E
$GNVTG,,T,,M,0.149,N,0.276,K,A*32
$GNGNS,124141.00,0419.81317,S,05539.77912,E,AA,14,0.85,2.3,-47.6,,*57
$GNGGA,124141.00,0419.81317,S,05539.77912,E,1,12,0.85,2.3,M,-47.6,M,,*7B
$GNGSA,A,3,32,28,27,18,26,31,16,10,08,,,,1.96,0.85,1.77*11
$GNGSA,A,3,66,88,67,86,76,,,,,,,,1.96,0.85,1.77*10
$GPGSV,4,1,16,08,15,312,09,10,14,012,08,16,24,230,27,18,32,098,20*7F
$GPGSV,4,2,16,23,01,050,10,26,28,200,21,27,50,296,27,28,55,135,29*7D
$GPGSV,4,3,16,29,05,147,09,31,42,179,25,32,47,002,20,36,52,277,*72
$GPGSV,4,4,16,40,84,353,,41,58,082,30,49,32,274,,50,10,089,*7A
$GLGSV,3,1,11,65,09,008,,66,38,325,20,67,31,256,26,68,00,219,*6A
$GLGSV,3,2,11,76,13,129,13,77,17,175,,78,00,227,,81,04,342,*6A
$GLGSV,3,3,11,86,08,145,12,87,46,120,,88,50,012,24*5E
$GNGLL,0419.81317,S,05539.77912,E,124141.00,A,A*69
$GNGRS,124141.00,1,-28.2,-3.4,9.1,8.4,8.7,9.8,-4.0,-78.4,-57.2,,,*6A
$GNGRS,124141.00,1,5.9,-8.2,-1.2,9.9,3.6,,,,,,,*7D
$GNGST,124141.00,57,,,,5.0,5.4,19*6A
$GNZDA,124141.00,22,05,2025,00,00*7B
$GNGBS,124141.00,5.0,5.4,18.7,,,,*66
$GNTXT,01,01,01,More than 100 frame errors, UART RX was disabled*70
$GNTXT,01,01,01,More than 100 frame errors, UART RX was disabled*70
b0XS
8v

 bH2M2(7*k /{4Ta:R 
YoAB&EXCDL[MNQVV
W.xX21bS($GNRMC,124142.00,A,0419.81339,S,05539.77908,E,0.346,,220525,,,A*77
$GNVTG,,T,,M,0.346,N,0.641,K,A*3F
$GNGNS,124142.00,0419.81339,S,05539.77908,E,AA,14,0.85,2.5,-47.6,,*55
$GNGGA,124142.00,0419.81339,S,05539.77908,E,1,12,0.85,2.5,M,-47.6,M,,*79
$GNGSA,A,3,32,28,27,18,26,31,16,10,08,,,,1.96,0.85,1.77*11
$GNGSA,A,3,66,88,67,86,76,,,,,,,,1.96,0.85,1.77*10
$GPGSV,4,1,16,08,15,312,18,10,14,012,10,16,24,230,27,18,32,098,21*77
$GPGSV,4,2,16,23,01,050,12,26,28,200,21,27,50,296,27,28,55,135,29*7F
$GPGSV,4,3,16,29,05,147,12,31,42,179,26,32,47,002,20,36,52,277,*7B
$GPGSV,4,4,16,40,84,353,,41,58,082,28,49,32,274,,50,10,089,*73
$GLGSV,3,1,11,65,09,008,,66,38,325,19,67,31,256,25,68,00,219,*63
$GLGSV,3,2,11,76,13,129,09,77,17,175,,78,00,227,,81,04,342,*61
$GLGSV,3,3,11,86,08,145,10,87,46,120,,88,50,012,24*5C
$GNGLL,0419.81339,S,05539.77908,E,124142.00,A,A*6D
$GNGRS,124142.00,1,-28.3,-5.2,9.1,8.4,8.5,8.8,-3.2,22.9,21.7,,,*68
$GNGRS,124142.00,1,6.0,-8.7,-2.4,14.9,3.5,,,,,,,*4B
$GNGST,124142.00,102749,,,,5.0,5.4,19*62
$GNZDA,124142.00,22,05,2025,00,00*78
$GNGBS,124142.00,5.0,5.4,18.8,,,,*6A
b0XS
8
 b9
2f2(<7*s /{4Ta:R 
Yo1AB&ECDL]MNQVVW.xX2bS(:$GNRMC,124143.00,A,0419.81354,S,05539.77908,E,0.217,,220525,,,A*78
$GNVTG,,T,,M,0.217,N,0.402,K,A*3F
$GNGNS,124143.00,0419.81354,S,05539.77908,E,AA,14,0.85,2.7,-47.6,,*5D
$GNGGA,124143.00,0419.81354,S,05539.77908,E,1,12,0.85,2.7,M,-47.6,M,,*71
$GNGSA,A,3,32,28,27,18,26,31,16,10,08,,,,1.96,0.85,1.77*11
$GNGSA,A,3,66,88,67,86,76,,,,,,,,1.96,0.85,1.77*10
$GPGSV,4,1,16,08,15,312,18,10,14,012,17,16,24,230,26,18,32,098,21*71
$GPGSV,4,2,16,23,01,050,10,26,28,200,20,27,50,296,26,28,55,135,28*7C
$GPGSV,4,3,16,29,05,147,12,31,42,179,26,32,47,002,19,36,52,277,*71
$GPGSV,4,4,16,40,84,353,,41,58,082,,49,32,274,,50,10,089,*79
$GLGSV,3,1,11,65,09,008,,66,38,325,17,67,31,256,26,68,00,219,*6E
$GLGSV,3,2,11,76,13,129,13,77,17,175,,78,00,227,,81,04,342,*6A
$GLGSV,3,3,11,86,08,145,11,87,46,120,,88,50,012,24*5D
$GNGLL,0419.81354,S,05539.77908,E,124143.00,A,A*67
$GNGRS,124143.00,1,-25.6,4.6,10.8,5.7,11.3,6.3,-0.9,23.2,21.9,,,*41
$GNGRS,124143.00,1,4.0,-8.7,-5.2,15.0,3.5,,,,,,,*41
$GNTXT,01,01,01,More than 100 frame errors, UART RX was disabled*70
$GNGST,124143.00,119967,,,,5.1,5.4,19*6A
$GNZDA,124143.00,22,05,2025,00,00*79
$GNGBS,124143.00,5.1,5.4,18.9,,,,*6B
b0XS
8
) b0292(7I* /"{4Ta:R 
Yo\AB&ECDLMNQVVW.xX2VbSq)$GNRMC,124144.00,A,0419.81371,S,05539.77900,E,0.149,,220525,,,A*78
$GNVTG,,T,,M,0.149,N,0.276,K,A*32
$GNGNS,124144.00,0419.81371,S,05539.77900,E,AA,13,0.88,3.4,-47.6,,*5D
$GNGGA,124144.00,0419.81371,S,05539.77900,E,1,12,0.88,3.4,M,-47.6,M,,*76
$GNGSA,A,3,32,28,27,18,26,31,16,10,,,,,2.11,0.88,1.92*13
$GNGSA,A,3,66,88,67,86,76,,,,,,,,2.11,0.88,1.92*1A
$GPGSV,4,1,16,08,15,312,07,10,14,012,11,16,24,230,26,18,32,098,21*79
$GPGSV,4,2,16,23,01,050,08,26,28,200,19,27,50,296,26,28,55,135,28*7F
$GPGSV,4,3,16,29,05,147,12,31,42,179,25,32,47,002,18,36,52,277,*73
$GPGSV,4,4,16,40,84,353,,41,58,082,,49,32,274,,50,10,089,*79
$GLGSV,3,1,11,65,09,008,,66,38,325,17,67,31,256,27,68,00,219,*6F
$GLGSV,3,2,11,76,13,129,09,77,17,175,,78,00,227,,81,04,342,*61
$GLGSV,3,3,11,86,08,145,11,87,46,120,,88,50,012,25*5C
$GNGLL,0419.81371,S,05539.77900,E,124144.00,A,A*6F
$GNGRS,124144.00,1,-22.7,4.1,9.5,3.0,9.5,4.3,-2.5,64.4,,,,*51
$GNGRS,124144.00,1,4.9,-9.4,-2.9,-8.8,41.2,,,,,,,*69
$GNTXT,01,01,01,More than 100 frame errors, UART RX was disabled*70
$GNGST,124144.00,55,,,,5.1,5.4,19*6C
$GNZDA,124144.00,22,05,2025,00,00*7E
$GNGBS,124144.00,5.1,5.4,18.9,,,,*6C
b0XxS
8
 bX22(7&* /{4Ta:R 
YoAB&ECxDLFMNQVVW.xX2bxSY)$GNRMC,124145.00,A,0419.81384,S,05539.77892,E,0.036,,220525,,,A*70
$GNVTG,,T,,M,0.036,N,0.066,K,A*38
$GNGNS,124145.00,0419.81384,S,05539.77892,E,AA,12,0.88,3.8,-47.6,,*51
$GNGGA,124145.00,0419.81384,S,05539.77892,E,1,12,0.88,3.8,M,-47.6,M,,*7B
$GNGSA,A,3,32,28,27,18,26,31,16,10,,,,,2.11,0.88,1.92*13
$GNGSA,A,3,66,88,67,86,,,,,,,,,2.11,0.88,1.92*1B
$GPGSV,4,1,16,08,15,312,08,10,14,012,09,16,24,230,26,18,32,098,19*74
$GPGSV,4,2,16,23,01,050,11,26,28,200,19,27,50,296,25,28,55,135,29*75
$GPGSV,4,3,16,29,05,147,12,31,42,179,25,32,47,002,20,36,52,277,*78
$GPGSV,4,4,16,40,84,353,,41,58,082,,49,32,274,,50,10,089,*79
$GLGSV,3,1,11,65,09,008,,66,38,325,19,67,31,256,27,68,00,219,*61
$GLGSV,3,2,11,76,13,129,07,77,17,175,,78,00,227,,81,04,342,*6F
$GLGSV,3,3,11,86,08,145,09,87,46,120,,88,50,012,25*55
$GNGLL,0419.81384,S,05539.77892,E,124145.00,A,A*6E
$GNGRS,124145.00,1,-24.1,0.4,7.3,3.4,8.0,5.1,-0.6,22.7,,,,*5A
$GNGRS,124145.00,1,4.1,-9.9,-3.9,15.2,,,,,,,,*6E
$GNGST,124145.00,3586708,,,,5.2,5.5,19*58
$GNZDA,124145.00,22,05,2025,00,00*7F
$GNGBS,124145.00,5.2,5.5,19.0,,,,*67
$GNTXT,01,01,01,More than 100 frame errors, UART RX was disabled*70
b0X`!S
8

 b22(?7_*2 /|{4Ta:R 
YoAB&E7CDLbMNQVV&W.xX2Pqb`!SA)~t$GNRMC,124146.00,A,0419.81402,S,05539.77880,E,0.062,,220525,,,A*78
$GNVTG,,T,,M,0.062,N,0.115,K,A*3C
$GNGNS,124146.00,0419.81402,S,05539.77880,E,AA,13,0.85,4.3,-47.6,,*58
$GNGGA,124146.00,0419.81402,S,05539.77880,E,1,12,0.85,4.3,M,-47.6,M,,*73
$GNGSA,A,3,32,28,27,18,26,31,16,10,,,,,1.96,0.85,1.77*19
$GNGSA,A,3,66,88,67,86,76,,,,,,,,1.96,0.85,1.77*10
$GPGSV,4,1,16,08,15,312,09,10,14,012,10,16,24,230,26,18,32,098,16*72
$GPGSV,4,2,16,23,01,050,09,26,28,200,20,27,50,296,25,28,55,135,28*77
$GPGSV,4,3,16,29,05,147,12,31,42,179,26,32,47,002,24,36,52,277,*7F
$GPGSV,4,4,16,40,84,353,,41,58,082,,49,32,274,,50,10,089,*79
$GLGSV,3,1,11,65,09,008,,66,38,325,21,67,31,256,28,68,00,219,*65
$GLGSV,3,2,11,76,13,129,08,77,17,175,,78,00,227,,81,04,342,*60
$GLGSV,3,3,11,86,08,145,08,87,46,120,,88,50,012,24*55
$GNGLL,0419.81402,S,05539.77880,E,124146.00,A,A*67
$GNGRS,124146.00,1,-21.8,-1.6,5.7,2.6,7.1,3.1,-0.5,23.1,,,,*72
$GNGRS,124146.00,1,5.7,-9.4,-3.1,15.7,8.7,,,,,,,*4B
$GNGST,124146.00,4856426,,,,5.2,5.5,19*53
$GNZDA,124146.00,22,05,2025,00,00*7C
$GNGBS,124146.00,5.2,5.5,19.2,,,,*66
$GNTXT,01,01,01,More than 100 frame errors, UART RX was disabled*70
b0XH%S

8
 bN2P 2(N7"* /{4Ta:R 
YoAB&E|CDL,MNQVVW.xX2E_#bH%S))V$GNRMC,124147.00,A,0419.81411,S,05539.77874,E,0.016,,220525,,,A*73
$GNVTG,,T,,M,0.016,N,0.029,K,A*31
$GNGNS,124147.00,0419.81411,S,05539.77874,E,AA,14,0.96,4.5,-47.6,,*53
$GNGGA,124147.00,0419.81411,S,05539.77874,E,1,12,0.96,4.5,M,-47.6,M,,*7F
$GNGSA,A,3,32,28,27,18,26,31,16,10,08,,,,3.06,0.96,2.91*13
$GNGSA,A,3,66,88,67,86,76,,,,,,,,3.06,0.96,2.91*12
$GPGSV,4,1,16,08,15,312,10,10,14,012,12,16,24,230,26,18,32,098,17*79
$GPGSV,4,2,16,23,01,050,11,26,28,200,22,27,50,296,25,28,55,135,27*73
$GPGSV,4,3,16,29,05,147,12,31,42,179,27,32,47,002,24,36,52,277,*7E
$GPGSV,4,4,16,40,84,353,,41,58,082,30,49,32,274,,50,10,089,*7A
$GLGSV,3,1,11,65,09,008,,66,38,325,23,67,31,256,28,68,00,219,*67
$GLGSV,3,2,11,76,13,129,09,77,17,175,,78,00,227,,81,04,342,*61
$GLGSV,3,3,11,86,08,145,07,87,46,120,,88,50,012,25*5B
$GNGLL,0419.81411,S,05539.77874,E,124147.00,A,A*6F
$GNGRS,124147.00,1,-18.8,-2.2,3.3,0.8,2.9,2.1,-0.5,-56.1,20.6,,,*49
$GNGRS,124147.00,1,6.4,-9.5,-3.7,-58.7,113,,,,,,,*7B
$GNGST,124147.00,46,,,,5.3,5.6,19*6D
$GNZDA,124147.00,22,05,2025,00,00*7D
$GNGBS,124147.00,5.3,5.6,19.3,,,,*64
$GNTXT,01,01,01,More than 100 frame errors, UART RX was disabled*70
b0X0)S
8
 bn2!2(7* /<{4Ta:R 
YoAB&ECDL
$MNQVV
W.xX2`b0)S).D$GNRMC,124148.00,A,0419.81421,S,05539.77868,E,0.043,,220525,,,A*72
$GNVTG,,T,,M,0.043,N,0.080,K,A*32
$GNGNS,124148.00,0419.81421,S,05539.77868,E,AA,14,0.85,4.6,-47.6,,*53
$GNGGA,124148.00,0419.81421,S,05539.77868,E,1,12,0.85,4.6,M,-47.6,M,,*7F
$GNGSA,A,3,32,28,27,18,26,31,16,10,08,,,,1.96,0.85,1.77*11
$GNGSA,A,3,66,88,67,86,76,,,,,,,,1.96,0.85,1.77*10
$GPGSV,4,1,16,08,15,312,15,10,14,012,09,16,24,230,27,18,32,098,19*79
$GPGSV,4,2,16,23,01,050,,26,28,200,22,27,50,296,24,28,55,135,25*70
$GPGSV,4,3,16,29,05,147,12,31,42,179,28,32,47,002,25,36,52,277,*70
$GPGSV,4,4,16,40,84,353,,41,58,082,31,49,32,274,,50,10,089,*7B
$GLGSV,3,1,11,65,09,008,,66,38,325,23,67,31,256,27,68,00,219,*68
$GLGSV,3,2,11,76,13,129,10,77,17,175,,78,00,227,,81,04,342,*69
$GLGSV,3,3,11,86,07,145,10,87,46,120,,88,50,012,25*52
$GNGLL,0419.81421,S,05539.77868,E,124148.00,A,A*6E
$GNGRS,124148.00,1,-17.3,-0.7,2.8,-1.5,2.9,2.8,0.1,22.5,20.7,,,*65
$GNGRS,124148.00,1,9.4,-11.8,-5.7,15.0,8.0,,,,,,,*7F
$GNGST,124148.00,3434055,,,,5.3,5.6,19*50
$GNZDA,124148.00,22,05,2025,00,00*72
$GNGBS,124148.00,5.3,5.6,19.4,,,,*6C
$GNTXT,01,01,01,More than 100 frame errors, UART RX was disabled*70
b0X-S
8
 b22(R7,*= /l{4Ta:R 
YoAB&EC^DL
MNQVVW.yX2Ab-S)$GNRMC,124149.00,A,0419.81433,S,05539.77864,E,0.104,,220525,,,A*7E
$GNVTG,,T,,M,0.104,N,0.192,K,A*32
$GNGNS,124149.00,0419.81433,S,05539.77864,E,AA,14,0.85,4.8,-47.6,,*53
$GNGGA,124149.00,0419.81433,S,05539.77864,E,1,12,0.85,4.8,M,-47.6,M,,*7F
$GNGSA,A,3,32,28,27,18,26,31,16,10,08,,,,1.96,0.85,1.77*11
$GNGSA,A,3,66,88,67,86,76,,,,,,,,1.96,0.85,1.77*10
$GPGSV,4,1,16,08,15,312,09,10,14,012,14,16,24,230,26,18,32,098,19*79
$GPGSV,4,2,16,23,01,050,,26,28,200,21,27,50,296,24,28,55,135,26*70
$GPGSV,4,3,16,29,05,147,12,31,42,179,26,32,47,002,24,36,52,277,*7F
$GPGSV,4,4,16,40,84,353,,41,58,082,30,49,32,274,,50,10,089,*7A
$GLGSV,3,1,11,65,09,008,,66,38,325,21,67,31,256,27,68,00,219,*6A
$GLGSV,3,2,11,76,13,129,09,77,17,175,,78,00,227,,81,04,342,*61
$GLGSV,3,3,11,86,07,145,08,87,46,121,,88,50,012,26*59
$GNGLL,0419.81433,S,05539.77864,E,124149.00,A,A*60
$GNGRS,124149.00,1,-16.8,0.4,3.4,-2.9,5.3,5.7,0.2,22.8,20.7,,,*49
$GNGRS,124149.00,1,11.9,-13.8,-6.7,15.1,7.8,,,,,,,*4D
$GNGST,124149.00,3434110,,,,5.3,5.6,20*5B
$GNZDA,124149.00,22,05,2025,00,00*73
$GNGBS,124149.00,5.3,5.6,19.6,,,,*6F
$GNTXT,01,01,01,More than 100 frame errors, UART RX was disabled*70
b0X1S
8

 b22(7* /{4Ta:R 
YoAB&ECDLMNQVV{W.yX3b1S)$GNRMC,124150.00,A,0419.81448,S,05539.77855,E,0.071,,220525,,,A*7B
$GNVTG,,T,,M,0.071,N,0.131,K,A*38
$GNGNS,124150.00,0419.81448,S,05539.77855,E,AA,14,0.78,5.3,-47.6,,*5D
$GNGGA,124150.00,0419.81448,S,05539.77855,E,1,12,0.78,5.3,M,-47.6,M,,*71
$GNGSA,A,3,32,28,27,18,26,31,16,10,08,,,,1.79,0.78,1.61*15
$GNGSA,A,3,66,88,67,86,76,,,,,,,,1.79,0.78,1.61*14
$GPGSV,4,1,16,08,15,312,13,10,14,012,10,16,24,230,26,18,32,098,18*77
$GPGSV,4,2,16,23,01,050,,26,28,200,22,27,50,296,26,28,55,135,26*71
$GPGSV,4,3,16,29,05,147,08,31,42,179,25,32,47,002,24,36,52,277,*77
$GPGSV,4,4,16,40,84,353,,41,58,082,28,49,32,274,,50,10,089,*73
$GLGSV,3,1,11,65,09,008,,66,38,325,20,67,31,256,28,68,00,219,*64
$GLGSV,3,2,11,76,13,129,12,77,17,175,,78,00,227,,81,04,342,*6B
$GLGSV,3,3,11,86,07,145,12,87,46,121,,88,51,012,24*51
$GNGLL,0419.81448,S,05539.77855,E,124150.00,A,A*66
$GNGRS,124150.00,1,-13.1,1.9,2.9,-2.4,4.1,7.1,2.0,-7.7,-5.6,,,*49
$GNGRS,124150.00,1,12.5,-15.1,-6.1,49.9,-139,,,,,,,*75
$GNGST,124150.00,57,,,,5.2,5.7,20*61
$GNZDA,124150.00,22,05,2025,00,00*7B
$GNGBS,124150.00,5.2,5.7,19.5,,,,*64
$GNTXT,01,01,01,More than 100 frame errors, UART RX was disabled*70
b0X4S
8R
 bB22(>7*, /{4Ta:R 
YoAB&ECDL MNQVV
W.yX3Kb4S)j$GNRMC,124151.00,A,0419.81451,S,05539.77855,E,0.055,,220525,,,A*74
$GNVTG,,T,,M,0.055,N,0.101,K,A*3D
$GNGNS,124151.00,0419.81451,S,05539.77855,E,AA,14,0.85,5.2,-47.6,,*57
$GNGGA,124151.00,0419.81451,S,05539.77855,E,1,12,0.85,5.2,M,-47.6,M,,*7B
$GNGSA,A,3,32,28,27,18,26,31,16,10,08,,,,1.96,0.85,1.76*10
$GNGSA,A,3,66,88,67,86,76,,,,,,,,1.96,0.85,1.76*11
$GPGSV,4,1,16,08,15,312,13,10,14,012,11,16,24,230,26,18,32,098,20*7D
$GPGSV,4,2,16,23,01,050,,26,28,200,24,27,50,296,24,28,55,135,27*74
$GPGSV,4,3,16,29,05,147,08,31,42,179,27,32,47,002,26,36,52,277,*77
$GPGSV,4,4,16,40,84,353,,41,58,082,28,49,32,274,,50,10,089,*73
$GLGSV,3,1,11,65,09,008,,66,38,325,19,67,31,256,29,68,00,219,*6F
$GLGSV,3,2,11,76,13,129,13,77,17,175,,78,00,227,,81,04,342,*6A
$GLGSV,3,3,11,86,07,145,10,87,46,121,,88,51,012,22*55
$GNGLL,0419.81451,S,05539.77855,E,124151.00,A,A*6F
$GNGRS,124151.00,1,-12.5,1.5,3.2,-1.9,1.7,8.1,2.1,22.3,21.3,,,*48
$GNGRS,124151.00,1,11.6,-14.6,-5.8,15.0,8.0,,,,,,,*48
$GNGST,124151.00,3434013,,,,5.3,5.7,20*51
$GNZDA,124151.00,22,05,2025,00,00*7A
$GNGBS,124151.00,5.3,5.7,19.6,,,,*67
$GNTXT,01,01,01,More than 100 frame errors, UART RX was disabled*70
b0X8S
8Y
 b22(7S* /{4Ta:R 
YoAB&E&CDLMNQVVW.yX3b8S")$GNRMC,124152.00,A,0419.81457,S,05539.77849,E,0.037,,220525,,,A*78
$GNVTG,,T,,M,0.037,N,0.068,K,A*37
$GNGNS,124152.00,0419.81457,S,05539.77849,E,AA,14,0.85,5.4,-47.6,,*59
$GNGGA,124152.00,0419.81457,S,05539.77849,E,1,12,0.85,5.4,M,-47.6,M,,*75
$GNGSA,A,3,32,28,27,18,26,31,16,10,08,,,,1.96,0.85,1.76*10
$GNGSA,A,3,66,88,67,86,76,,,,,,,,1.96,0.85,1.76*11
$GPGSV,4,1,16,08,15,312,11,10,14,012,14,16,24,230,26,18,32,098,23*79
$GPGSV,4,2,16,23,01,050,,26,28,200,24,27,50,296,23,28,55,135,27*73
$GPGSV,4,3,16,29,05,147,08,31,42,179,28,32,47,002,26,36,52,277,*78
$GPGSV,4,4,16,40,84,353,,41,58,082,29,49,32,274,,50,10,089,*72
$GLGSV,3,1,11,65,09,008,,66,38,325,20,67,31,256,29,68,00,219,*65
$GLGSV,3,2,11,76,13,129,11,77,17,175,,78,00,227,,81,04,342,*68
$GLGSV,3,3,11,86,07,145,12,87,46,121,,88,51,012,21*54
$GNGLL,0419.81457,S,05539.77849,E,124152.00,A,A*67
$GNGRS,124152.00,1,-8.6,-1.7,5.2,-2.7,-0.3,5.4,2.2,22.3,21.4,,,*73
$GNGRS,124152.00,1,10.6,-13.2,-2.5,15.1,8.0,,,,,,,*42
$GNGST,124152.00,3434015,,,,5.2,5.7,20*55
$GNZDA,124152.00,22,05,2025,00,00*79
$GNGBS,124152.00,5.2,5.7,19.7,,,,*64
$GNTXT,01,01,01,More than 100 frame errors, UART RX was disabled*70
b0X<S

8
B bf22(7~* /{4Ta:R 
YoAB&EC@DL
2MNQVVW.yX3b<S&)d:$GNRMC,124153.00,A,0419.81467,S,05539.77839,E,0.105,,220525,,,A*7D
$GNVTG,,T,,M,0.105,N,0.195,K,A*34
$GNGNS,124153.00,0419.81467,S,05539.77839,E,AA,14,0.81,5.7,-47.6,,*5B
$GNGGA,124153.00,0419.81467,S,05539.77839,E,1,12,0.81,5.7,M,-47.6,M,,*77
$GNGSA,A,3,32,28,27,18,26,31,16,10,08,,,,1.95,0.81,1.78*19
$GNGSA,A,3,66,88,67,86,76,,,,,,,,1.95,0.81,1.78*18
$GPGSV,4,1,16,08,15,312,10,10,14,012,14,16,24,230,24,18,32,098,23*7A
$GPGSV,4,2,16,23,01,050,,26,28,200,23,27,50,296,23,28,55,135,27*74
$GPGSV,4,3,16,29,05,147,08,31,42,179,27,32,47,002,24,36,52,277,*75
$GPGSV,4,4,16,40,84,353,,41,58,082,29,49,32,274,,50,10,089,*72
$GLGSV,3,1,11,65,09,008,,66,38,325,20,67,31,256,29,68,00,219,*65
$GLGSV,3,2,11,76,13,129,10,77,17,175,,78,00,227,,81,04,342,*69
$GLGSV,3,3,11,86,07,145,08,87,46,121,,88,51,012,21*5F
$GNGLL,0419.81467,S,05539.77839,E,124153.00,A,A*62
$GNGRS,124153.00,1,-7.7,1.8,7.7,-6.7,-0.7,4.5,3.2,9.7,-41.2,,,*48
$GNGRS,124153.00,1,11.5,-13.8,-4.5,-64.4,36.3,,,,,,,*5D
$GNGST,124153.00,53,,,,5.2,5.7,20*66
$GNZDA,124153.00,22,05,2025,00,00*78
$GNGBS,124153.00,5.2,5.7,19.7,,,,*65
$GNTXT,01,01,01,More than 100 frame errors, UART RX was disabled*70
b0X@S
8c
 b22(7* /M{4Ta:R 
YoAB&ECDL:MNQVV
W.yX3Ob@S*)<$GNRMC,124154.00,A,0419.81473,S,05539.77831,E,0.016,,220525,,,A*74
$GNVTG,,T,,M,0.016,N,0.030,K,A*39
$GNGNS,124154.00,0419.81473,S,05539.77831,E,AA,13,0.88,6.0,-47.6,,*5B
$GNGGA,124154.00,0419.81473,S,05539.77831,E,1,12,0.88,6.0,M,-47.6,M,,*70
$GNGSA,A,3,32,28,27,18,26,31,16,10,08,,,,2.10,0.88,1.91*19
$GNGSA,A,3,66,88,67,86,,,,,,,,,2.10,0.88,1.91*19
$GPGSV,4,1,16,08,15,312,07,10,14,012,11,16,24,230,24,18,32,098,24*7E
$GPGSV,4,2,16,23,01,050,,26,28,200,21,27,50,296,20,28,55,135,27*75
$GPGSV,4,3,16,29,05,147,08,31,42,179,24,32,47,002,21,36,52,277,*73
$GPGSV,4,4,16,40,84,353,,41,58,082,30,49,32,274,,50,10,089,*7A
$GLGSV,3,1,11,65,09,008,,66,38,325,23,67,31,256,28,68,00,219,*67
$GLGSV,3,2,11,76,13,129,07,77,17,175,,78,00,227,,81,04,342,*6F
$GLGSV,3,3,11,86,07,145,10,87,46,121,,88,51,012,24*53
$GNGLL,0419.81473,S,05539.77831,E,124154.00,A,A*68
$GNGRS,124154.00,1,-6.9,0.1,9.2,-7.9,-0.4,4.3,1.5,22.5,21.5,,,*5B
$GNGRS,124154.00,1,10.1,-15.1,-3.7,15.4,,,,,,,,*66
$GNGST,124154.00,83160,,,,5.3,5.7,20*5A
$GNZDA,124154.00,22,05,2025,00,00*7F
$GNGBS,124154.00,5.3,5.7,19.8,,,,*6C
$GNTXT,01,01,01,More than 100 frame errors, UART RX was disabled*70
b0XDS
8l
 b2<2(7*O /{4Ta:R 
YoAB&ECDL;MNQVV
#W.yX3JbDSi.)
$GNRMC,124155.00,A,0419.81478,S,05539.77824,E,0.047,,220525,,,A*7E
$GNVTG,,T,,M,0.047,N,0.087,K,A*31
$GNGNS,124155.00,0419.81478,S,05539.77824,E,AA,14,0.85,6.3,-47.6,,*5C
$GNGGA,124155.00,0419.81478,S,05539.77824,E,1,12,0.85,6.3,M,-47.6,M,,*70
$GNGSA,A,3,32,28,27,18,26,31,16,10,08,,,,1.96,0.85,1.76*10
$GNGSA,A,3,66,88,67,86,76,,,,,,,,1.96,0.85,1.76*11
$GPGSV,4,1,16,08,15,312,09,10,14,012,13,16,24,230,25,18,32,098,23*74
$GPGSV,4,2,16,23,01,050,,26,28,200,19,27,50,296,19,28,55,135,27*74
$GPGSV,4,3,16,29,05,147,08,31,42,179,24,32,47,002,18,36,52,277,*79
$GPGSV,4,4,16,40,84,353,,41,58,082,30,49,32,274,,50,10,089,*7A
$GLGSV,3,1,11,65,09,008,,66,38,325,24,67,31,256,28,68,00,219,*60
$GLGSV,3,2,11,76,13,129,12,77,17,175,,78,00,227,,81,04,342,*6B
$GLGSV,3,3,11,86,07,145,10,87,46,121,,88,51,012,26*51
$GNGLL,0419.81478,S,05539.77824,E,124155.00,A,A*66
$GNGRS,124155.00,1,-5.2,-0.1,9.4,-5.3,0.6,3.3,1.3,22.7,21.6,,,*5E
$GNGRS,124155.00,1,9.8,-16.4,-5.5,15.7,8.3,,,,,,,*72
$GNGST,124155.00,3436028,,,,5.3,5.7,20*5F
$GNZDA,124155.00,22,05,2025,00,00*7E
$GNGBS,124155.00,5.3,5.7,19.9,,,,*6C
$GNTXT,01,01,01,More than 100 frame errors, UART RX was disabled*70
b0XpHS
8w
V bq2&2(z7+* /-{4Ta:R 
YoAB&ECDLMNQVV7W.ynX3hbpHSQ2)r$GNRMC,124156.00,A,0419.81491,S,05539.77816,E,0.146,,220525,,,A*7B
$GNVTG,,T,,M,0.146,N,0.270,K,A*3B
$GNGNS,124156.00,0419.81491,S,05539.77816,E,AA,14,0.72,6.6,-47.6,,*54
$GNGGA,124156.00,0419.81491,S,05539.77816,E,1,12,0.72,6.6,M,-47.6,M,,*78
$GNGSA,A,3,32,28,27,18,26,31,16,10,08,,,,1.56,0.72,1.38*1E
$GNGSA,A,3,66,88,67,86,76,,,,,,,,1.56,0.72,1.38*1F
$GPGSV,4,1,16,08,15,312,12,10,14,012,14,16,24,230,25,18,32,098,21*7B
$GPGSV,4,2,16,23,01,050,,26,28,200,16,27,50,296,19,28,55,135,27*7B
$GPGSV,4,3,16,29,05,147,08,31,42,179,23,32,47,002,14,36,52,277,*72
$GPGSV,4,4,16,40,84,353,,41,58,082,29,49,32,274,,50,10,089,*72
$GLGSV,3,1,11,65,09,008,,66,38,325,25,67,31,256,29,68,00,219,*60
$GLGSV,3,2,11,76,13,129,11,77,17,175,,78,00,227,,81,04,342,*68
$GLGSV,3,3,11,86,07,145,13,87,46,121,21,88,51,012,26*51
$GNGLL,0419.81491,S,05539.77816,E,124156.00,A,A*63
$GNGRS,124156.00,1,-9.8,-2.1,11.5,-4.0,0.4,1.6,0.9,-13.4,-27.0,,,*6C
$GNGRS,124156.00,1,7.6,-15.9,-5.1,-2.0,12.2,,,,,,,*5D
$GNGST,124156.00,66,,,,5.4,5.7,20*63
$GNZDA,124156.00,22,05,2025,00,00*7D
$GNGBS,124156.00,5.4,5.7,19.8,,,,*69
$GNTXT,01,01,01,More than 100 frame errors, UART RX was disabled*70
b0XXLS

88
 b2N2(7$*r /;{4Ta:R 
YoAB&ECC=DL7MNQVVW.yX3bXLS96)$GNRMC,124157.00,A,0419.81495,S,05539.77804,E,0.071,,220525,,,A*78
$GNVTG,,T,,M,0.071,N,0.132,K,A*3B
$GNGNS,124157.00,0419.81495,S,05539.77804,E,AA,14,0.85,6.8,-47.6,,*54
$GNGGA,124157.00,0419.81495,S,05539.77804,E,1,12,0.85,6.8,M,-47.6,M,,*78
$GNGSA,A,3,32,28,27,18,26,31,16,10,08,,,,1.96,0.85,1.76*10
$GNGSA,A,3,66,88,67,86,76,,,,,,,,1.96,0.85,1.76*11
$GPGSV,4,1,16,08,15,312,10,10,14,012,13,16,24,230,24,18,32,098,21*7F
$GPGSV,4,2,16,23,01,050,,26,28,200,18,27,50,296,17,28,55,135,26*7A
$GPGSV,4,3,16,29,05,147,08,31,42,179,24,32,47,002,12,36,52,277,*73
$GPGSV,4,4,16,40,84,353,,41,58,082,29,49,32,274,,50,10,089,*72
$GLGSV,3,1,11,65,09,008,,66,38,325,25,67,31,256,30,68,00,219,*68
$GLGSV,3,2,11,76,13,129,11,77,17,175,,78,00,227,,81,04,342,*68
$GLGSV,3,3,11,86,07,145,18,87,46,121,19,88,51,012,24*53
$GNGLL,0419.81495,S,05539.77804,E,124157.00,A,A*65
$GNGRS,124157.00,1,-12.2,-2.2,12.0,-3.4,0.8,1.1,2.8,22.2,21.0,,,*51
$GNGRS,124157.00,1,5.8,-18.5,3.2,15.2,8.2,,,,,,,*5B
$GNGST,124157.00,219293,,,,5.5,5.7,20*61
$GNZDA,124157.00,22,05,2025,00,00*7C
$GNGBS,124157.00,5.5,5.7,19.9,,,,*68
$GNTXT,01,01,01,More than 100 frame errors, UART RX was disabled*70
b0X@PS

8'
r b22(17*J 
/y{4Ta:R 
YoAB&EC.DL
MNQVVW.yX3Ub@PS!:)B$GNRMC,124158.00,A,0419.81509,S,05539.77805,E,0.206,,220525,,,A*70
$GNVTG,,T,,M,0.206,N,0.382,K,A*30
$GNGNS,124158.00,0419.81509,S,05539.77805,E,AA,14,0.85,6.5,-47.6,,*53
$GNGGA,124158.00,0419.81509,S,05539.77805,E,1,12,0.85,6.5,M,-47.6,M,,*7F
$GNGSA,A,3,32,28,27,18,26,31,16,10,08,,,,1.95,0.85,1.76*13
$GNGSA,A,3,66,88,67,86,76,,,,,,,,1.95,0.85,1.76*12
$GPGSV,4,1,16,08,15,312,10,10,14,012,13,16,24,230,24,18,32,098,20*7E
$GPGSV,4,2,16,23,01,050,,26,28,200,21,27,50,296,16,28,55,135,24*73
$GPGSV,4,3,16,29,05,147,08,31,42,179,24,32,47,002,10,36,52,277,*71
$GPGSV,4,4,16,40,84,353,,41,58,082,28,49,32,274,,50,10,089,*73
$GLGSV,3,1,11,65,09,008,,66,38,325,23,67,31,256,29,68,00,219,*66
$GLGSV,3,2,11,76,13,129,07,77,17,175,,78,00,227,,81,04,342,*6F
$GLGSV,3,3,11,86,07,145,11,87,46,121,16,88,51,012,23*52
$GNGLL,0419.81509,S,05539.77805,E,124158.00,A,A*6F
$GNGRS,124158.00,1,-14.2,-0.3,10.7,-0.9,-0.3,5.9,3.7,22.1,20.9,,,*7F
$GNGRS,124158.00,1,4.7,-19.6,-2.1,14.9,7.8,,,,,,,*78
$GNGST,124158.00,3434641,,,,5.6,5.8,20*53
$GNZDA,124158.00,22,05,2025,00,00*73
$GNGBS,124158.00,5.6,5.8,20.0,,,,*68
$GNTXT,01,01,01,More than 100 frame errors, UART RX was disabled*70
b0X(TS
8,
c bx2C2(,7* /{4Ta:R 
YoAB&EXC!DLMNQVVW.yX3Gxb(TS>)t$GNRMC,124159.00,A,0419.81513,S,05539.77798,E,0.023,,220525,,,A*74
$GNVTG,,T,,M,0.023,N,0.043,K,A*3B
$GNGNS,124159.00,0419.81513,S,05539.77798,E,AA,14,0.85,6.6,-47.6,,*51
$GNGGA,124159.00,0419.81513,S,05539.77798,E,1,12,0.85,6.6,M,-47.6,M,,*7D
$GNGSA,A,3,32,28,27,18,26,31,16,10,08,,,,1.95,0.85,1.76*13
$GNGSA,A,3,66,88,67,86,76,,,,,,,,1.95,0.85,1.76*12
$GPGSV,4,1,16,08,15,312,09,10,14,012,16,16,24,230,23,18,32,098,20*74
$GPGSV,4,2,16,23,01,050,,26,28,200,21,27,50,296,18,28,55,135,26*7F
$GPGSV,4,3,16,29,05,147,,31,42,179,22,32,47,002,14,36,52,277,*7B
$GPGSV,4,4,16,40,84,353,,41,58,082,29,49,32,274,,50,10,089,*72
$GLGSV,3,1,11,65,09,008,,66,38,325,25,67,31,256,29,68,00,219,*60
$GLGSV,3,2,11,76,13,129,14,77,17,175,,78,00,227,,81,04,342,*6D
$GLGSV,3,3,11,86,07,145,15,87,46,121,12,88,51,012,23*52
$GNGLL,0419.81513,S,05539.77798,E,124159.00,A,A*6E
$GNGRS,124159.00,1,-14.0,-2.8,10.7,1.2,-1.9,5.4,6.1,-28.0,-53.3,,,*52
$GNGRS,124159.00,1,3.4,-17.9,-2.2,6.6,-0.6,,,,,,,*67
$GNGST,124159.00,61,,,,5.7,5.8,20*67
$GNZDA,124159.00,22,05,2025,00,00*72
$GNGBS,124159.00,5.7,5.8,19.9,,,,*6B
$GNTXT,01,01,01,More than 100 frame errors, UART RX was disabled*70
b0XXS
8I
 b22(h7* /v{4Ta:R 
YoAB&E"ClDL
MNQVV
W.y
X3bXSA)K$GNRMC,124200.00,A,0419.81523,S,05539.77794,E,0.165,,220525,,,A*77
