b0@N
:

!_v01+6=)B 1#{4Ta:R 
YnAB(BCLMQVVW/uX0E[bN$Jj$GNRMC,123654.00,A,0419.81636,S,05539.77459,E,1.000,,220525,,,A*73
$GNVTG,,T,,M,1.000,N,1.853,K,A*33
$GNGNS,123654.00,0419.81636,S,05539.77459,E,AA,15,0.82,22.8,-47.6,,*68
$GNGGA,123654.00,0419.81636,S,05539.77459,E,1,12,0.82,22.8,M,-47.6,M,,*45
$GNGSA,A,3,32,28,27,18,26,31,16,10,08,,,,1.93,0.82,1.75*11
$GNGSA,A,3,66,87,88,67,86,76,,,,,,,1.93,0.82,1.75*1F
$GPGSV,4,1,16,08,13,314,12,10,14,010,09,16,24,233,18,18,33,095,22*77
$GPGSV,4,2,16,23,01,048,11,26,28,202,21,27,49,299,20,28,54,138,21*73
$GPGSV,4,3,16,29,06,147,,31,41,180,16,32,49,002,25,36,52,277,*76
$GPGSV,4,4,16,40,84,353,29,41,58,082,,49,32,274,,50,10,089,*72
$GLGSV,3,1,09,65,11,007,,66,40,322,11,67,30,252,16,76,13,132,09*67
$GLGSV,3,2,09,77,17,178,,81,02,342,,86,09,144,08,87,47,117,23*6F
$GLGSV,3,3,09,88,48,011,24*56
$GNGLL,0419.81636,S,05539.77459,E,123654.00,A,A*69
$GNGRS,123654.00,1,0.3,-14.8,-3.0,-3.9,1.3,-7.0,7.1,22.2,22.5,,,*4A
$GNGRS,123654.00,1,0.0,2.0,-9.5,-10.5,12.5,9.2,,,,,,*50
$GNGST,123654.00,4666644,,,,5.0,7.1,22*57
$GNZDA,123654.00,22,05,2025,00,00*7F
$GNGBS,123654.00,5.0,7.1,22.0,,,,*6B
$GNTXT,01,01,01,More than 100 frame errors, UART RX was disabled*70
b0@N
:

t!_201+6) '1{4*Ta:R 
YnAB(BCLMQVV
W/uX0ibN$"$GNRMC,123655.00,A,0419.81626,S,05539.77427,E,0.984,,220525,,,A*7E
$GNVTG,,T,,M,0.984,N,1.823,K,A*30
$GNGNS,123655.00,0419.81626,S,05539.77427,E,AA,13,0.97,22.1,-47.6,,*6A
$GNGGA,123655.00,0419.81626,S,05539.77427,E,1,12,0.97,22.1,M,-47.6,M,,*41
$GNGSA,A,3,32,28,27,18,26,16,10,08,,,,,2.20,0.97,1.97*10
$GNGSA,A,3,87,88,67,86,76,,,,,,,,2.20,0.97,1.97*1C
$GPGSV,4,1,16,08,13,314,11,10,14,010,09,16,24,233,19,18,33,095,29*7E
$GPGSV,4,2,16,23,01,048,11,26,28,202,21,27,49,299,20,28,54,138,19*78
$GPGSV,4,3,16,29,06,147,,31,41,180,,32,49,002,39,36,52,277,*7C
$GPGSV,4,4,16,40,84,353,42,41,58,082,,49,32,274,,50,10,089,*7F
$GLGSV,3,1,09,65,11,007,,66,40,322,06,67,30,252,12,76,13,132,09*65
$GLGSV,3,2,09,77,17,178,,81,02,342,,86,09,144,10,87,47,117,21*64
$GLGSV,3,3,09,88,48,011,23*51
$GNGLL,0419.81626,S,05539.77427,E,123655.00,A,A*60
$GNGRS,123655.00,1,-0.7,-16.0,-2.7,-4.6,2.5,8.8,21.9,22.0,,,,*6C
$GNGRS,123655.00,1,2.4,-8.8,-7.9,12.8,9.2,,,,,,,*40
$GNGST,123655.00,5072371,,,,5.1,7.1,22*56
$GNZDA,123655.00,22,05,2025,00,00*7E
$GNGBS,123655.00,5.1,7.1,22.3,,,,*68
$GNTXT,01,01,01,More than 100 frame errors, UART RX was disabled*70
b0@N
:

8[!_01+6) %1
{4(Ta:R 
YnAB(BCL
MQVV$W/uiX#04bNq$:$GNRMC,123656.00,A,0419.81628,S,05539.77427,E,0.426,,220525,,,A*76
$GNVTG,,T,,M,0.426,N,0.790,K,A*33
$GNGNS,123656.00,0419.81628,S,05539.77427,E,AA,14,1.20,22.2,-47.6,,*6E
$GNGGA,123656.00,0419.81628,S,05539.77427,E,1,12,1.20,22.2,M,-47.6,M,,*42
$GNGSA,A,3,32,28,27,18,26,16,10,08,,,,,4.52,1.20,4.36*10
$GNGSA,A,3,66,87,88,67,86,76,,,,,,,4.52,1.20,4.36*1C
$GPGSV,4,1,16,08,13,314,11,10,14,010,14,16,24,233,22,18,33,095,28*7B
$GPGSV,4,2,16,23,01,048,,26,28,202,24,27,49,299,23,28,54,138,16*71
$GPGSV,4,3,16,29,06,147,,31,41,180,27,32,49,002,37,36,52,277,*77
$GPGSV,4,4,16,40,84,353,40,41,58,082,,49,32,274,,50,10,089,*7D
$GLGSV,3,1,09,65,11,007,,66,40,322,16,67,30,252,16,76,13,132,10*68
$GLGSV,3,2,09,77,17,178,,81,02,342,,86,09,144,11,87,47,117,29*6D
$GLGSV,3,3,09,88,48,011,35*56
$GNGLL,0419.81628,S,05539.77427,E,123656.00,A,A*6D
$GNGRS,123656.00,1,-2.5,-21.0,-0.1,-5.9,-1.2,8.6,74.8,-35.8,,,,*64
$GNGRS,123656.00,1,-15.4,1.0,-2.8,-8.8,92.4,-114,,,,,,*4B
$GNGST,123656.00,46,,,,5.2,7.1,23*60
$GNZDA,123656.00,22,05,2025,00,00*7D
$GNGBS,123656.00,5.2,7.1,22.5,,,,*6E
$GNTXT,01,01,01,More than 100 frame errors, UART RX was disabled*70
b0@xN
:

Y!_0O1+6) %1{4(Ta:R 
YnAB(BCL:MQVV
vW/uX 0bxNY$$GNRMC,123657.00,A,0419.81635,S,05539.77423,E,0.112,,220525,,,A*7D
$GNVTG,,T,,M,0.112,N,0.208,K,A*35
$GNGNS,123657.00,0419.81635,S,05539.77423,E,AA,15,0.89,22.5,-47.6,,*63
$GNGGA,123657.00,0419.81635,S,05539.77423,E,1,12,0.89,22.5,M,-47.6,M,,*4E
$GNGSA,A,3,32,28,27,18,26,31,16,10,08,,,,2.29,0.89,2.11*19
$GNGSA,A,3,66,87,88,67,86,76,,,,,,,2.29,0.89,2.11*17
$GPGSV,4,1,16,08,13,314,13,10,14,010,08,16,24,233,23,18,33,095,26*7B
$GPGSV,4,2,16,23,01,048,,26,28,202,25,27,49,299,23,28,54,138,13*75
$GPGSV,4,3,16,29,06,147,,31,41,180,27,32,49,002,37,36,52,277,*77
$GPGSV,4,4,16,40,84,353,40,41,58,082,,49,32,274,,50,10,089,*7D
$GLGSV,3,1,09,65,11,007,,66,40,322,13,67,30,252,18,76,13,132,11*62
$GLGSV,3,2,09,77,17,178,,81,02,342,,86,09,144,10,87,47,117,28*6D
$GLGSV,3,3,09,88,48,011,32*51
$GNGLL,0419.81635,S,05539.77423,E,123657.00,A,A*64
$GNGRS,123657.00,1,-1.0,-23.4,2.1,-5.3,-1.8,2.7,8.6,22.3,23.1,,,*4A
$GNGRS,123657.00,1,-3.2,1.4,-3.2,-8.8,11.4,8.3,,,,,,*43
$GNGST,123657.00,3439864,,,,5.2,7.0,23*55
$GNZDA,123657.00,22,05,2025,00,00*7C
$GNGBS,123657.00,5.2,7.0,22.7,,,,*6C
$GNTXT,01,01,01,More than 100 frame errors, UART RX was disabled*70
b0@`N
9#

!_0m1+|6)$ '1{4*Ta:R 
YnAB(BCL/MQVVQW/uwX 0,lb`NA$
$GNRMC,123658.00,A,0419.81666,S,05539.77397,E,0.505,,220525,,,A*7E
$GNVTG,,T,,M,0.505,N,0.935,K,A*32
$GNGNS,123658.00,0419.81666,S,05539.77397,E,AA,15,0.89,23.4,-47.6,,*62
$GNGGA,123658.00,0419.81666,S,05539.77397,E,1,12,0.89,23.4,M,-47.6,M,,*4F
$GNGSA,A,3,32,28,27,18,26,31,16,10,08,,,,2.29,0.89,2.11*19
$GNGSA,A,3,66,87,88,67,86,76,,,,,,,2.29,0.89,2.11*17
$GPGSV,4,1,16,08,14,313,12,10,14,010,12,16,24,233,23,18,33,095,24*73
$GPGSV,4,2,16,23,01,048,,26,28,202,25,27,49,299,25,28,54,138,12*72
$GPGSV,4,3,16,29,06,147,17,31,41,180,29,32,49,002,39,36,52,277,*71
$GPGSV,4,4,16,40,84,353,42,41,58,082,,49,32,274,,50,10,089,*7F
$GLGSV,3,1,09,65,11,007,,66,40,322,13,67,30,252,18,76,13,132,15*66
$GLGSV,3,2,09,77,17,178,,81,02,342,,86,09,144,11,87,47,117,28*6C
$GLGSV,3,3,09,88,48,011,32*51
$GNGLL,0419.81666,S,05539.77397,E,123658.00,A,A*65
$GNGRS,123658.00,1,-5.0,-23.4,1.2,-6.4,-4.0,5.5,7.3,22.9,23.4,,,*48
$GNGRS,123658.00,1,-3.2,3.8,-4.7,-10.3,11.1,8.1,,,,,,*75
$GNGST,123658.00,4857611,,,,5.2,7.0,23*55
$GNZDA,123658.00,22,05,2025,00,00*73
$GNGBS,123658.00,5.2,7.0,23.0,,,,*65
$GNTXT,01,01,01,More than 100 frame errors, UART RX was disabled*70
b0@HN
9

>!_01+c6) '1P{4)Ta:R 
YnAB(BCL/MQVVc=W/uX!0XbHN)$r$GNRMC,123659.00,A,0419.81669,S,05539.77403,E,0.141,,220525,,,A*7E
$GNVTG,,T,,M,0.141,N,0.261,K,A*3C
$GNGNS,123659.00,0419.81669,S,05539.77403,E,AA,14,0.75,23.5,-47.6,,*65
$GNGGA,123659.00,0419.81669,S,05539.77403,E,1,12,0.75,23.5,M,-47.6,M,,*49
$GNGSA,A,3,32,28,27,18,26,31,16,08,,,,,1.73,0.75,1.56*17
$GNGSA,A,3,66,87,88,67,86,76,,,,,,,1.73,0.75,1.56*18
$GPGSV,4,1,16,08,14,313,14,10,14,010,,16,24,233,22,18,33,095,23*70
$GPGSV,4,2,16,23,01,048,,26,28,202,25,27,49,299,25,28,54,138,12*72
$GPGSV,4,3,16,29,06,147,,31,41,180,30,32,49,002,39,36,52,277,*7F
$GPGSV,4,4,16,40,84,353,41,41,58,082,,49,32,274,,50,10,089,*7C
$GLGSV,3,1,09,65,11,007,,66,40,322,14,67,30,252,19,76,13,132,11*64
$GLGSV,3,2,09,77,17,178,,81,02,342,,86,09,144,08,87,47,117,29*65
$GLGSV,3,3,09,88,48,011,33*50
$GNGLL,0419.81669,S,05539.77403,E,123659.00,A,A*61
$GNGRS,123659.00,1,-1.8,-16.2,1.0,-6.1,-5.6,4.4,8.3,-16.4,,,,*76
$GNGRS,123659.00,1,-10.0,3.9,-3.3,-13.1,157,13.3,,,,,,*53
$GNGST,123659.00,69,,,,5.1,6.9,23*68
$GNZDA,123659.00,22,05,2025,00,00*72
$GNGBS,123659.00,5.1,6.9,23.1,,,,*6E
$GNTXT,01,01,01,More than 100 frame errors, UART RX was disabled*70
b0@0N
9

!_01+46V) $1u{4'Ta:R 
YnAB
(BCLOMQVVW/uX0dOb0N$Z$GNRMC,123700.00,A,0419.81664,S,05539.77406,E,0.035,,220525,,,A*79
$GNVTG,,T,,M,0.035,N,0.065,K,A*38
$GNGNS,123700.00,0419.81664,S,05539.77406,E,AA,14,0.73,23.4,-47.6,,*67
$GNGGA,123700.00,0419.81664,S,05539.77406,E,1,12,0.73,23.4,M,-47.6,M,,*4B
$GNGSA,A,3,32,28,27,18,26,31,16,08,,,,,1.55,0.73,1.37*12
$GNGSA,A,3,66,87,88,67,86,76,,,,,,,1.55,0.73,1.37*1D
$GPGSV,4,1,16,08,14,313,11,10,14,010,,16,24,233,21,18,33,095,20*75
$GPGSV,4,2,16,23,01,048,,26,28,202,24,27,49,299,26,28,54,138,12*70
$GPGSV,4,3,16,29,06,147,16,31,41,180,29,32,49,002,36,36,52,277,*7F
$GPGSV,4,4,16,40,84,353,39,41,58,082,,49,32,274,,50,10,089,*73
$GLGSV,3,1,09,65,11,007,,66,40,322,10,67,30,252,20,76,13,132,11*6A
$GLGSV,3,2,09,77,17,178,,81,02,342,,86,09,144,13,87,47,117,28*6E
$GLGSV,3,3,09,88,48,011,31*52
$GNGLL,0419.81664,S,05539.77406,E,123700.00,A,A*64
$GNGRS,123700.00,1,-1.4,-16.0,0.5,-6.0,-5.0,0.0,9.6,23.0,,,,*5D
$GNGRS,123700.00,1,-3.2,-0.5,1.0,-12.6,11.8,8.5,,,,,,*7F
$GNGST,123700.00,3180792,,,,5.1,6.8,23*5D
$GNZDA,123700.00,22,05,2025,00,00*7F
$GNGBS,123700.00,5.1,6.8,23.3,,,,*60
$GNTXT,01,01,01,More than 100 frame errors, UART RX was disabled*70
b0@N
9

!_`0e1+(6) $1{4(Ta:R 
YnAB(BCL>MQVVW/uJX0bN$1?$GNRMC,123701.00,A,0419.81667,S,05539.77403,E,0.134,,220525,,,A*7E
$GNVTG,,T,,M,0.134,N,0.247,K,A*3A
$GNGNS,123701.00,0419.81667,S,05539.77403,E,AA,14,0.82,23.2,-47.6,,*68
$GNGGA,123701.00,0419.81667,S,05539.77403,E,1,12,0.82,23.2,M,-47.6,M,,*44
$GNGSA,A,3,32,28,27,18,26,31,16,08,,,,,1.93,0.82,1.75*10
$GNGSA,A,3,66,87,88,67,86,76,,,,,,,1.93,0.82,1.75*1F
$GPGSV,4,1,16,08,14,313,11,10,14,010,,16,24,233,20,18,33,095,20*74
$GPGSV,4,2,16,23,01,048,,26,28,202,24,27,49,299,26,28,54,138,12*70
$GPGSV,4,3,16,29,06,147,13,31,41,180,28,32,49,002,36,36,52,277,*7B
$GPGSV,4,4,16,40,84,353,40,41,58,082,,49,32,274,,50,10,089,*7D
$GLGSV,3,1,09,65,11,007,,66,40,322,11,67,30,252,21,76,13,132,11*6A
$GLGSV,3,2,09,77,17,178,,81,02,342,,86,09,144,13,87,47,117,28*6E
$GLGSV,3,3,09,88,48,011,31*52
$GNGLL,0419.81667,S,05539.77403,E,123701.00,A,A*63
$GNGRS,123701.00,1,-1.1,-16.4,0.4,-6.7,-4.1,4.5,10.2,22.9,,,,*6E
$GNGRS,123701.00,1,-3.2,3.3,-3.1,-12.8,11.8,8.3,,,,,,*70
$GNGST,123701.00,151766,,,,5.0,6.8,24*6E
$GNZDA,123701.00,22,05,2025,00,00*7E
$GNGBS,123701.00,5.0,6.8,23.5,,,,*66
$GNTXT,01,01,01,More than 100 frame errors, UART RX was disabled*70
b0@N
9

1!_101+l6s)< %1#{4(Ta:R 
YnAB(BbCL
MQVVPW/uX0IbN$$GNRMC,123702.00,A,0419.81670,S,05539.77404,E,0.041,,220525,,,A*7F
$GNVTG,,T,,M,0.041,N,0.075,K,A*3A
$GNGNS,123702.00,0419.81670,S,05539.77404,E,AA,14,0.90,23.1,-47.6,,*6A
$GNGGA,123702.00,0419.81670,S,05539.77404,E,1,12,0.90,23.1,M,-47.6,M,,*46
$GNGSA,A,3,32,28,27,18,26,31,16,08,,,,,2.28,0.90,2.10*10
$GNGSA,A,3,66,87,88,67,86,76,,,,,,,2.28,0.90,2.10*1F
$GPGSV,4,1,16,08,14,313,12,10,14,010,,16,24,233,20,18,33,095,20*77
$GPGSV,4,2,16,23,01,048,,26,28,202,24,27,49,299,25,28,54,138,14*75
$GPGSV,4,3,16,29,06,147,11,31,41,180,29,32,49,002,37,36,52,277,*79
$GPGSV,4,4,16,40,84,353,40,41,58,082,,49,32,274,,50,10,089,*7D
$GLGSV,3,1,09,65,11,007,,66,40,322,14,67,30,252,22,76,13,132,10*6D
$GLGSV,3,2,09,77,17,178,,81,02,342,,86,09,144,13,87,47,117,27*61
$GLGSV,3,3,09,88,48,011,30*53
$GNGLL,0419.81670,S,05539.77404,E,123702.00,A,A*61
$GNGRS,123702.00,1,-2.2,-16.8,3.6,-7.2,-2.8,5.7,8.2,-20.6,,,,*71
$GNGRS,123702.00,1,-27.2,5.3,3.3,-13.4,-135,13.0,,,,,,*54
$GNGST,123702.00,59,,,,5.0,6.7,24*6C
$GNZDA,123702.00,22,05,2025,00,00*7D
$GNGBS,123702.00,5.0,6.7,23.7,,,,*68
$GNTXT,01,01,01,More than 100 frame errors, UART RX was disabled*70
b0@N

9

%!_=01+
6)0 %1Q{4)Ta:R 
YnAB
(BCL
RMQVVW/uX0QbN$$GNRMC,123703.00,A,0419.81671,S,05539.77395,E,0.160,,220525,,,A*72
$GNVTG,,T,,M,0.160,N,0.297,K,A*36
$GNGNS,123703.00,0419.81671,S,05539.77395,E,AA,14,0.82,23.2,-47.6,,*65
$GNGGA,123703.00,0419.81671,S,05539.77395,E,1,12,0.82,23.2,M,-47.6,M,,*49
$GNGSA,A,3,32,28,27,18,26,31,16,08,,,,,1.93,0.82,1.74*11
$GNGSA,A,3,66,87,88,67,86,76,,,,,,,1.93,0.82,1.74*1E
$GPGSV,4,1,16,08,14,313,10,10,14,010,,16,24,233,20,18,33,095,22*77
$GPGSV,4,2,16,23,01,048,,26,28,202,24,27,49,299,24,28,54,138,16*76
$GPGSV,4,3,16,29,06,147,,31,41,180,30,32,49,002,37,36,52,277,*71
$GPGSV,4,4,16,40,84,353,41,41,58,082,,49,32,274,,50,10,089,*7C
$GLGSV,3,1,09,65,11,007,,66,40,322,10,67,30,252,22,76,13,132,10*69
$GLGSV,3,2,09,77,17,178,,81,02,342,,86,09,144,13,87,47,117,27*61
$GLGSV,3,3,09,88,48,011,30*53
$GNGLL,0419.81671,S,05539.77395,E,123703.00,A,A*6E
$GNGRS,123703.00,1,-1.8,-15.5,5.2,-9.6,-0.8,0.5,8.1,22.7,,,,*57
$GNGRS,123703.00,1,-3.5,4.5,2.1,-13.1,11.7,8.5,,,,,,*59
$GNGST,123703.00,3299778,,,,5.0,6.7,24*58
$GNZDA,123703.00,22,05,2025,00,00*7C
$GNGBS,123703.00,5.0,6.7,23.9,,,,*67
$GNTXT,01,01,01,More than 100 frame errors, UART RX was disabled*70
b0@N

9

!_0b1+6) $1R{4)Ta:R 
YnAB(BCL
DMQVVW/uX0=YbN$h$GNRMC,123704.00,A,0419.81663,S,05539.77399,E,0.054,,220525,,,A*7C
$GNVTG,,T,,M,0.054,N,0.100,K,A*3D
$GNGNS,123704.00,0419.81663,S,05539.77399,E,AA,14,0.82,22.9,-47.6,,*67
$GNGGA,123704.00,0419.81663,S,05539.77399,E,1,12,0.82,22.9,M,-47.6,M,,*4B
$GNGSA,A,3,32,28,27,18,26,31,16,08,,,,,1.93,0.82,1.74*11
$GNGSA,A,3,66,87,88,67,86,76,,,,,,,1.93,0.82,1.74*1E
$GPGSV,4,1,16,08,14,313,10,10,14,010,,16,24,233,21,18,33,095,23*77
$GPGSV,4,2,16,23,01,048,,26,28,202,25,27,49,299,24,28,54,138,18*79
$GPGSV,4,3,16,29,06,147,,31,41,180,31,32,49,002,36,36,52,277,*71
$GPGSV,4,4,16,40,84,353,41,41,58,082,,49,32,274,,50,10,089,*7C
$GLGSV,3,1,09,65,11,007,18,66,40,322,16,67,30,252,22,76,13,132,10*66
$GLGSV,3,2,09,77,17,178,,81,02,342,,86,09,144,13,87,47,117,27*61
$GLGSV,3,3,09,88,48,011,31*52
$GNGLL,0419.81663,S,05539.77399,E,123704.00,A,A*66
$GNGRS,123704.00,1,-1.7,-12.7,4.7,-7.8,-1.6,-6.2,6.7,22.5,,,,*77
$GNGRS,123704.00,1,-3.6,4.8,2.0,-13.3,11.6,8.4,,,,,,*53
$GNGST,123704.00,3300343,,,,4.9,6.6,24*5B
$GNZDA,123704.00,22,05,2025,00,00*7B
$GNGBS,123704.00,4.9,6.6,24.1,,,,*66
$GNTXT,01,01,01,More than 100 frame errors, UART RX was disabled*70
b0@N
9

 !_~01+6q) %1F{4)Ta:R 
YnAB
(BCLMQVVW/u9X 0N6bN$$GNRMC,123705.00,A,0419.81658,S,05539.77402,E,0.131,,220525,,,A*72
$GNVTG,,T,,M,0.131,N,0.243,K,A*3B
$GNGNS,123705.00,0419.81658,S,05539.77402,E,AA,14,0.84,22.9,-47.6,,*6D
$GNGGA,123705.00,0419.81658,S,05539.77402,E,1,12,0.84,22.9,M,-47.6,M,,*41
$GNGSA,A,3,32,28,27,18,26,31,16,08,,,,,2.22,0.84,2.06*18
$GNGSA,A,3,66,87,88,67,86,76,,,,,,,2.22,0.84,2.06*17
$GPGSV,4,1,16,08,14,313,09,10,14,010,,16,24,233,22,18,33,095,22*7D
$GPGSV,4,2,16,23,01,048,,26,28,202,25,27,49,299,25,28,54,138,20*73
$GPGSV,4,3,16,29,06,147,,31,41,180,31,32,49,002,37,36,52,277,*70
$GPGSV,4,4,16,40,84,353,41,41,58,082,,49,32,274,,50,10,089,*7C
$GLGSV,3,1,09,65,11,007,17,66,40,322,10,67,30,252,23,76,13,132,09*66
$GLGSV,3,2,09,77,17,178,,81,02,342,,86,09,144,08,87,47,117,27*6B
$GLGSV,3,3,09,88,48,011,32*51
$GNGLL,0419.81658,S,05539.77402,E,123705.00,A,A*6A
$GNGRS,123705.00,1,-1.9,-11.7,4.1,-6.4,-2.7,-2.6,2.9,-6.4,,,,*62
$GNGRS,123705.00,1,-10.1,0.6,0.8,-13.7,-85.5,-138,,,,,,*75
$GNGST,123705.00,61,,,,4.9,6.6,24*69
$GNZDA,123705.00,22,05,2025,00,00*7A
$GNGBS,123705.00,4.9,6.6,24.1,,,,*67
$GNTXT,01,01,01,More than 100 frame errors, UART RX was disabled*70
b0@N

9

E!_0E1+)6) %1?{4)Ta:R 
YnAB(BCLDMQVVW/u,X0bN$h8$GNRMC,123706.00,A,0419.81651,S,05539.77401,E,0.065,,220525,,,A*7B
$GNVTG,,T,,M,0.065,N,0.120,K,A*3D
$GNGNS,123706.00,0419.81651,S,05539.77401,E,AA,14,0.82,22.6,-47.6,,*6D
$GNGGA,123706.00,0419.81651,S,05539.77401,E,1,12,0.82,22.6,M,-47.6,M,,*41
$GNGSA,A,3,32,28,27,18,26,31,16,08,,,,,1.93,0.82,1.74*11
$GNGSA,A,3,66,87,88,67,86,76,,,,,,,1.93,0.82,1.74*1E
$GPGSV,4,1,16,08,14,313,10,10,14,010,,16,24,232,21,18,33,095,22*77
$GPGSV,4,2,16,23,01,048,,26,28,202,25,27,49,299,24,28,54,138,21*73
$GPGSV,4,3,16,29,06,147,,31,41,180,31,32,49,002,37,36,52,277,*70
$GPGSV,4,4,16,40,84,353,41,41,58,082,,49,32,274,,50,10,089,*7C
$GLGSV,3,1,09,65,11,007,16,66,40,322,09,67,30,252,23,76,13,132,09*6F
$GLGSV,3,2,09,77,17,178,,81,02,342,,86,09,144,08,87,47,117,28*64
$GLGSV,3,3,09,88,48,011,31*52
$GNGLL,0419.81651,S,05539.77401,E,123706.00,A,A*63
$GNGRS,123706.00,1,-1.9,-13.5,3.0,-6.2,-4.4,-2.6,3.3,22.5,,,,*75
$GNGRS,123706.00,1,-3.5,0.4,2.0,-15.2,11.7,8.4,,,,,,*5C
$GNGST,123706.00,3300104,,,,4.8,6.6,24*59
$GNZDA,123706.00,22,05,2025,00,00*79
$GNGBS,123706.00,4.8,6.6,24.3,,,,*67
$GNTXT,01,01,01,More than 100 frame errors, UART RX was disabled*70
$GNTXT,01,01,01,More than 100 frame errors, UART RX was disabled*70
b0@N
9

`!_021+6) %1{4)Ta:R 
YnA&B(BCEL5MQVV~W/uX04@bNi$B$GNRMC,123707.00,A,0419.81645,S,05539.77406,E,0.031,,220525,,,D*7C
$GNVTG,,T,,M,0.031,N,0.057,K,D*38
$GNGNS,123707.00,0419.81645,S,05539.77406,E,DA,14,0.82,22.3,-47.6,,0000*6E
$GNGGA,123707.00,0419.81645,S,05539.77406,E,2,12,0.82,22.3,M,-47.6,M,,0000*44
$GNGSA,A,3,32,28,27,18,26,31,16,08,,,,,1.93,0.82,1.74*11
$GNGSA,A,3,66,87,88,67,86,76,,,,,,,1.93,0.82,1.74*1E
$GPGSV,4,1,16,08,14,313,12,10,14,010,,16,24,232,21,18,33,095,23*74
$GPGSV,4,2,16,23,01,048,,26,28,202,24,27,49,299,23,28,54,138,19*7E
$GPGSV,4,3,16,29,06,147,15,31,41,180,31,32,49,002,37,36,52,277,*74
$GPGSV,4,4,16,40,84,353,41,41,58,082,,49,32,274,,50,10,089,*7C
$GLGSV,3,1,09,65,11,007,11,66,40,322,13,67,30,252,22,76,13,132,12*68
$GLGSV,3,2,09,77,17,178,,81,02,342,,86,09,144,13,87,47,117,26*60
$GLGSV,3,3,09,88,48,011,30*53
$GNGLL,0419.81645,S,05539.77406,E,123707.00,A,D*65
$GNGRS,123707.00,1,-1.2,-11.3,2.0,-5.2,-4.6,-1.2,1.0,24.8,,,,*76
$GNGRS,123707.00,1,-3.6,0.1,-1.2,-14.7,11.5,8.2,,,,,,*77
$GNGST,123707.00,3301011,,,,4.8,6.6,24*5C
$GNZDA,123707.00,22,05,2025,00,00*78
$GNGBS,123707.00,4.8,6.6,24.5,,,,*60
b0@pN

9

M _'0e1+6#) &1{4*Ta:R 
YnA}B(BCCgLMQVV+W/uX0KvbpNQ$$GNRMC,123708.00,A,0419.81638,S,05539.77418,E,0.136,,220525,,,D*70
$GNVTG,,T,,M,0.136,N,0.252,K,D*39
$GNGNS,123708.00,0419.81638,S,05539.77418,E,DA,14,0.84,22.0,-47.6,,0000*61
$GNGGA,123708.00,0419.81638,S,05539.77418,E,2,12,0.84,22.0,M,-47.6,M,,0000*4B
$GNGSA,A,3,32,28,27,18,26,31,16,08,,,,,2.22,0.84,2.06*18
$GNGSA,A,3,66,87,88,67,86,76,,,,,,,2.22,0.84,2.06*17
$GPGSV,4,1,16,08,14,313,10,10,14,010,,16,24,232,21,18,32,095,22*76
$GPGSV,4,2,16,23,01,048,,26,28,202,24,27,49,299,23,28,54,138,18*7F
$GPGSV,4,3,16,29,06,147,,31,41,180,35,32,49,002,38,36,52,277,*7B
$GPGSV,4,4,16,40,84,353,42,41,58,082,,49,32,274,,50,10,089,*7F
$GLGSV,3,1,09,65,11,007,08,66,40,322,09,67,30,252,22,76,13,132,12*6B
$GLGSV,3,2,09,77,17,178,,81,02,342,,86,09,144,13,87,47,117,26*60
$GLGSV,3,3,09,88,48,011,31*52
$GNGLL,0419.81638,S,05539.77418,E,123708.00,A,D*6F
$GNGRS,123708.00,1,-1.0,-8.0,2.3,-4.7,-4.1,-2.3,-1.8,23.0,,,,*68
$GNGRS,123708.00,1,-9.6,1.5,-1.8,-14.3,112,17.9,,,,,,*65
$GNGST,123708.00,62,,,,4.7,6.5,25*6B
$GNZDA,123708.00,22,05,2025,00,00*77
$GNGBS,123708.00,4.7,6.5,24.5,,,,*63
$GNTXT,01,01,01,More than 100 frame errors, UART RX was disabled*70
$GNTXT,01,01,01,More than 100 frame errors, UART RX was disabled*70
b0@XN
9

 _01+6< ) $1{4)Ta:R 
YnAB(BCLhMQVVW/uX0E.bXN9$$GNRMC,123709.00,A,0419.81635,S,05539.77431,E,0.190,,220525,,,D*7B
$GNVTG,,T,,M,0.190,N,0.351,K,D*37
$GNGNS,123709.00,0419.81635,S,05539.77431,E,DA,14,0.82,22.6,-47.6,,0000*66
$GNGGA,123709.00,0419.81635,S,05539.77431,E,2,12,0.82,22.6,M,-47.6,M,,0000*4C
$GNGSA,A,3,32,28,27,18,26,31,16,08,,,,,1.93,0.82,1.74*11
$GNGSA,A,3,66,87,88,67,86,76,,,,,,,1.93,0.82,1.74*1E
$GPGSV,4,1,16,08,14,313,14,10,14,010,,16,24,232,20,18,32,095,22*73
$GPGSV,4,2,16,23,01,048,,26,28,202,24,27,49,299,23,28,54,138,19*7E
$GPGSV,4,3,16,29,06,147,,31,41,180,32,32,49,002,36,36,52,277,*72
$GPGSV,4,4,16,40,84,353,41,41,58,082,,49,32,274,,50,10,089,*7C
$GLGSV,3,1,09,65,11,007,08,66,40,322,11,67,30,252,22,76,13,132,12*62
$GLGSV,3,2,09,77,17,178,,81,02,342,,86,09,144,13,87,47,117,25*63
$GLGSV,3,3,09,88,48,011,31*52
$GNGLL,0419.81635,S,05539.77431,E,123709.00,A,D*68
$GNGRS,123709.00,1,-0.7,-4.5,2.6,-0.4,-5.4,-3.8,-1.2,22.6,,,,*67
$GNGRS,123709.00,1,-3.0,2.1,-2.3,-18.7,12.2,8.7,,,,,,*72
$GNGST,123709.00,3301899,,,,4.7,6.5,25*57
$GNZDA,123709.00,22,05,2025,00,00*76
$GNGBS,123709.00,4.7,6.5,24.7,,,,*60
b0@@N
9

 _01+6 ) #1{4)Ta:R 
YnAB(BC/LvMQVVW/uX0S
b@N!$$GNRMC,123710.00,A,0419.81634,S,05539.77432,E,0.072,,220525,,,D*7C
$GNVTG,,T,,M,0.072,N,0.134,K,D*3B
$GNGNS,123710.00,0419.81634,S,05539.77432,E,DA,14,0.87,22.6,-47.6,,0000*69
$GNGGA,123710.00,0419.81634,S,05539.77432,E,2,12,0.87,22.6,M,-47.6,M,,0000*43
$GNGSA,A,3,32,28,27,18,26,31,16,08,,,,,1.96,0.87,1.76*13
$GNGSA,A,3,66,87,88,67,86,76,,,,,,,1.96,0.87,1.76*1C
$GPGSV,4,1,16,08,14,313,09,10,14,010,,16,24,232,19,18,32,095,22*75
$GPGSV,4,2,16,23,01,048,,26,28,202,23,27,49,299,21,28,54,138,19*7B
$GPGSV,4,3,16,29,06,147,,31,41,180,32,32,49,002,35,36,52,277,*71
$GPGSV,4,4,16,40,84,353,41,41,58,082,,49,32,274,,50,10,089,*7C
$GLGSV,3,1,09,65,11,007,08,66,40,322,09,67,30,252,22,76,13,132,12*6B
$GLGSV,3,2,09,77,17,178,,81,02,342,,86,09,144,13,87,47,117,24*62
$GLGSV,3,3,09,88,48,011,31*52
$GNGLL,0419.81634,S,05539.77432,E,123710.00,A,D*62
$GNGRS,123710.00,1,-0.7,-0.5,3.9,-1.2,-5.6,-2.3,-2.9,22.5,,,,*61
$GNGRS,123710.00,1,-2.9,2.7,0.8,-20.0,12.5,8.9,,,,,,*55
$GNGST,123710.00,3439939,,,,4.6,6.5,25*59
$GNZDA,123710.00,22,05,2025,00,00*7E
$GNGBS,123710.00,4.6,6.5,24.9,,,,*67
$GNTXT,01,01,01,More than 100 frame errors, UART RX was disabled*70
$GNTXT,01,01,01,More than 100 frame errors, UART RX was disabled*70
b0@(N
9

. _091+86!) #1a{4)Ta:R 
YnAnB(B5CLMQVVW/uX0Rb(N$V$GNRMC,123711.00,A,0419.81632,S,05539.77446,E,0.214,,220525,,,D*7A
$GNVTG,,T,,M,0.214,N,0.396,K,D*33
$GNGNS,123711.00,0419.81632,S,05539.77446,E,DA,14,0.95,22.5,-47.6,,0000*6D
$GNGGA,123711.00,0419.81632,S,05539.77446,E,2,12,0.95,22.5,M,-47.6,M,,0000*47
$GNGSA,A,3,32,28,27,18,26,31,16,08,,,,,2.34,0.95,2.14*1C
$GNGSA,A,3,66,87,88,67,86,76,,,,,,,2.34,0.95,2.14*13
$GPGSV,4,1,16,08,14,313,11,10,14,010,,16,24,232,18,18,32,095,23*7C
$GPGSV,4,2,16,23,01,048,,26,28,202,21,27,49,299,21,28,54,138,19*79
$GPGSV,4,3,16,29,06,147,19,31,41,180,33,32,49,002,35,36,52,277,*78
$GPGSV,4,4,16,40,84,353,41,41,58,082,,49,32,274,,50,10,089,*7C
$GLGSV,3,1,09,65,11,007,09,66,40,322,11,67,30,252,23,76,13,132,14*64
$GLGSV,3,2,09,77,17,178,,81,02,342,,86,09,144,12,87,47,117,23*64
$GLGSV,3,3,09,88,48,011,31*52
$GNGLL,0419.81632,S,05539.77446,E,123711.00,A,D*66
$GNGRS,123711.00,1,1.0,2.6,3.1,-0.4,-7.1,-2.8,-2.1,-124,,,,*6F
$GNGRS,123711.00,1,-43.0,4.2,1.7,-20.2,-134,17.6,,,,,,*55
$GNGST,123711.00,53,,,,4.6,6.6,25*63
$GNZDA,123711.00,22,05,2025,00,00*7F
$GNGBS,123711.00,4.6,6.6,24.9,,,,*65
b0@N
9

 _01+h6i!)O "1{4)Ta:R 
YnA
B(BCLMQVVaW/uX0bN$y$GNRMC,123712.00,A,0419.81627,S,05539.77467,E,0.421,,220525,,,D*7E
$GNVTG,,T,,M,0.421,N,0.780,K,D*30
$GNGNS,123712.00,0419.81627,S,05539.77467,E,DA,14,0.87,21.6,-47.6,,0000*6A
$GNGGA,123712.00,0419.81627,S,05539.77467,E,2,12,0.87,21.6,M,-47.6,M,,0000*40
$GNGSA,A,3,32,28,27,18,26,31,16,08,,,,,1.96,0.87,1.76*13
$GNGSA,A,3,66,87,88,67,86,76,,,,,,,1.96,0.87,1.76*1C
$GPGSV,4,1,16,08,14,313,11,10,14,010,,16,24,232,18,18,32,095,24*7B
$GPGSV,4,2,16,23,01,048,,26,28,202,21,27,49,299,22,28,54,138,18*7B
$GPGSV,4,3,16,29,06,147,17,31,41,180,33,32,49,002,34,36,52,277,*77
$GPGSV,4,4,16,40,84,353,41,41,58,082,,49,32,274,,50,10,089,*7C
$GLGSV,3,1,09,65,11,007,10,66,40,322,14,67,30,252,23,76,13,132,15*68
$GLGSV,3,2,09,77,17,178,,81,02,342,,86,09,144,08,87,47,117,22*6E
$GLGSV,3,3,09,88,48,011,30*53
$GNGLL,0419.81627,S,05539.77467,E,123712.00,A,D*62
$GNGRS,123712.00,1,0.2,3.6,1.0,1.5,-5.5,-1.8,-0.2,22.0,,,,*40
$GNGRS,123712.00,1,-3.3,4.6,1.4,-21.3,11.2,7.9,,,,,,*5F
$GNGST,123712.00,3435583,,,,4.6,6.7,25*58
$GNZDA,123712.00,22,05,2025,00,00*7C
$GNGBS,123712.00,4.6,6.7,25.1,,,,*6E
$GNTXT,01,01,01,More than 100 frame errors, UART RX was disabled*70
$GNTXT,01,01,01,More than 100 frame errors, UART RX was disabled*70
b0@N
9

p _0x1+N6
)U "1i{4(Ta:R 
YnA
B(BCLMQVVRW/uX0WbN$P$GNRMC,123713.00,A,0419.81628,S,05539.77486,E,0.320,,220525,,,D*79
$GNVTG,,T,,M,0.320,N,0.593,K,D*36
$GNGNS,123713.00,0419.81628,S,05539.77486,E,DA,14,0.84,21.5,-47.6,,0000*6B
$GNGGA,123713.00,0419.81628,S,05539.77486,E,2,12,0.84,21.5,M,-47.6,M,,0000*41
$GNGSA,A,3,32,28,27,18,26,31,16,08,,,,,2.22,0.84,2.06*18
$GNGSA,A,3,66,87,65,88,67,76,,,,,,,2.22,0.84,2.06*1A
$GPGSV,4,1,16,08,14,313,12,10,14,010,,16,24,232,17,18,32,095,22*71
$GPGSV,4,2,16,23,01,048,,26,28,202,21,27,49,299,21,28,54,138,18*78
$GPGSV,4,3,16,29,06,147,17,31,41,180,30,32,49,002,34,36,52,277,*74
$GPGSV,4,4,16,40,84,353,40,41,58,082,,49,32,274,,50,10,089,*7D
$GLGSV,3,1,09,65,11,007,10,66,40,322,13,67,30,252,23,76,13,132,19*63
$GLGSV,3,2,09,77,17,178,,81,02,342,,86,09,144,07,87,47,117,20*63
$GLGSV,3,3,09,88,48,011,30*53
$GNGLL,0419.81628,S,05539.77486,E,123713.00,A,D*63
$GNGRS,123713.00,1,-1.5,7.5,-1.8,0.0,-3.9,-1.7,1.1,22.1,,,,*67
$GNGRS,123713.00,1,-3.3,2.2,-274,-0.6,-19.1,7.6,,,,,,*74
$GNGST,123713.00,3437388,,,,4.6,6.8,25*59
$GNZDA,123713.00,22,05,2025,00,00*7D
$GNGBS,123713.00,4.6,6.8,25.2,65,,274.1,93.6*5C
b0@N
9?

 _01+n6j
 ) #1{4(Ta:R 
YnAB(BCLMQVV=W/uX0+bN$(|$GNRMC,123714.00,A,0419.81629,S,05539.77484,E,0.087,,220525,,,D*73
$GNVTG,,T,,M,0.087,N,0.160,K,D*30
$GNGNS,123714.00,0419.81629,S,05539.77484,E,DA,14,0.75,22.1,-47.6,,0000*66
$GNGGA,123714.00,0419.81629,S,05539.77484,E,2,12,0.75,22.1,M,-47.6,M,,0000*4C
$GNGSA,A,3,32,28,27,18,26,31,16,08,,,,,1.73,0.75,1.56*17
$GNGSA,A,3,66,87,88,67,86,76,,,,,,,1.73,0.75,1.56*18
$GPGSV,4,1,16,08,14,313,12,10,14,010,,16,24,232,18,18,32,095,21*7D
$GPGSV,4,2,16,23,01,048,,26,28,202,22,27,49,299,21,28,54,138,18*7B
$GPGSV,4,3,16,29,06,147,16,31,41,180,32,32,49,002,35,36,52,277,*76
$GPGSV,4,4,16,40,84,353,40,41,58,082,,49,32,274,,50,10,089,*7D
$GLGSV,3,1,09,65,11,007,,66,40,322,17,67,30,252,24,76,13,132,17*6F
$GLGSV,3,2,09,77,17,178,,81,02,342,,86,09,144,12,87,47,117,19*6D
$GLGSV,3,3,09,88,48,011,29*5B
$GNGLL,0419.81629,S,05539.77484,E,123714.00,A,D*67
$GNGRS,123714.00,1,-0.9,4.8,-4.0,-2.7,-3.1,-0.5,2.0,3.2,,,,*7F
$GNGRS,123714.00,1,-6.3,1.6,-0.4,-21.1,158,6.5,,,,,,*5A
$GNGST,123714.00,64,,,,4.5,6.8,25*6F
$GNZDA,123714.00,22,05,2025,00,00*7A
$GNGBS,123714.00,4.5,6.8,25.1,,,,*64
$GNTXT,01,01,01,More than 100 frame errors, UART RX was disabled*70
$GNTXT,01,01,01,More than 100 frame errors, UART RX was disabled*70
b0@N
9

 _01+6. ) #1T{4&Ta:R 
YnAB(BC"L^MQVVW/u2X08bN$$GNRMC,123715.00,A,0419.81628,S,05539.77480,E,0.454,,220525,,,D*7D
$GNVTG,,T,,M,0.454,N,0.841,K,D*30
$GNGNS,123715.00,0419.81628,S,05539.77480,E,DA,15,0.72,22.2,-47.6,,0000*67
$GNGGA,123715.00,0419.81628,S,05539.77480,E,2,12,0.72,22.2,M,-47.6,M,,0000*4C
$GNGSA,A,3,32,28,27,18,26,31,16,29,08,,,,1.44,0.72,1.24*1A
$GNGSA,A,3,66,87,88,67,86,76,,,,,,,1.44,0.72,1.24*1E
$GPGSV,4,1,16,08,14,313,09,10,14,010,,16,24,232,19,18,32,095,21*76
$GPGSV,4,2,16,23,01,048,,26,28,201,21,27,49,299,20,28,54,138,16*74
$GPGSV,4,3,16,29,06,147,16,31,41,180,32,32,49,002,35,36,52,277,*76
$GPGSV,4,4,16,40,84,353,38,41,58,082,,49,32,274,,50,10,089,*72
$GLGSV,3,1,09,65,11,007,,66,40,322,20,67,30,252,23,76,13,132,21*69
$GLGSV,3,2,09,77,17,178,,81,02,342,,86,09,144,09,87,47,117,20*6D
$GLGSV,3,3,09,88,48,011,29*5B
$GNGLL,0419.81628,S,05539.77480,E,123715.00,A,D*63
$GNGRS,123715.00,1,0.8,3.0,-4.9,-2.8,-3.5,1.8,4.0,16.8,19.6,,,*56
$GNGRS,123715.00,1,-3.8,3.1,0.6,-22.7,11.8,6.1,,,,,,*54
$GNGST,123715.00,3071475,,,,4.5,6.8,25*5F
$GNZDA,123715.00,22,05,2025,00,00*7B
$GNGBS,123715.00,4.5,6.8,24.7,,,,*62
b0@O

9p

0 _0|1+6$) %1{4)Ta:R 
YnAB(BCLMQVVlW/ubX0c7bO$Z$GNRMC,123716.00,A,0419.81623,S,05539.77476,E,0.464,,220525,,,D*7F
$GNVTG,,T,,M,0.464,N,0.858,K,D*3B
$GNGNS,123716.00,0419.81623,S,05539.77476,E,DA,15,0.77,21.2,-47.6,,0000*60
$GNGGA,123716.00,0419.81623,S,05539.77476,E,2,12,0.77,21.2,M,-47.6,M,,0000*4B
$GNGSA,A,3,32,28,27,18,26,31,16,29,08,,,,1.46,0.77,1.24*1D
$GNGSA,A,3,66,87,88,67,86,76,,,,,,,1.46,0.77,1.24*19
$GPGSV,4,1,16,08,14,313,10,10,14,010,,16,24,232,19,18,32,095,22*7D
$GPGSV,4,2,16,23,01,048,,26,28,201,21,27,49,299,21,28,54,138,14*77
$GPGSV,4,3,16,29,06,147,16,31,41,180,36,32,49,002,37,36,52,277,*70
$GPGSV,4,4,16,40,84,353,41,41,58,082,,49,32,274,,50,10,089,*7C
$GLGSV,3,1,09,65,11,007,,66,40,322,22,67,30,252,22,76,13,132,20*6B
$GLGSV,3,2,09,77,17,178,,81,02,342,,86,09,144,12,87,47,117,24*63
$GLGSV,3,3,09,88,48,011,29*5B
$GNGLL,0419.81623,S,05539.77476,E,123716.00,A,D*62
$GNGRS,123716.00,1,-1.0,1.8,-5.0,-2.3,-3.9,-2.4,5.6,14.2,19.0,,,*5F
$GNGRS,123716.00,1,-6.0,1.0,1.0,-24.0,11.3,4.5,,,,,,*52
$GNGST,123716.00,3179280,,,,4.4,6.8,24*59
$GNZDA,123716.00,22,05,2025,00,00*78
$GNGBS,123716.00,4.4,6.8,24.2,,,,*65
$GNTXT,01,01,01,More than 100 frame errors, UART RX was disabled*70
$GNTXT,01,01,01,More than 100 frame errors, UART RX was disabled*70
b0@O
9

e
 _B01+)6H!) #1{4'Ta:R 
YnAB(BVCHLMQVV3W/uX0\bOy$$GNRMC,123717.00,A,0419.81622,S,05539.77489,E,0.100,,220525,,,D*78
$GNVTG,,T,,M,0.100,N,0.185,K,D*35
$GNGNS,123717.00,0419.81622,S,05539.77489,E,DA,14,0.88,20.8,-47.6,,0000*6A
$GNGGA,123717.00,0419.81622,S,05539.77489,E,2,12,0.88,20.8,M,-47.6,M,,0000*40
$GNGSA,A,3,32,28,27,18,26,31,16,29,08,,,,1.86,0.88,1.64*15
$GNGSA,A,3,66,87,88,67,86,,,,,,,,1.86,0.88,1.64*10
$GPGSV,4,1,16,08,14,313,11,10,14,010,22,16,24,232,18,18,32,095,22*7D
$GPGSV,4,2,16,23,01,048,,26,28,201,22,27,49,299,21,28,54,137,17*78
$GPGSV,4,3,16,29,06,147,15,31,41,180,33,32,49,002,35,36,52,277,*74
$GPGSV,4,4,16,40,84,353,39,41,58,082,,49,32,274,,50,10,089,*73
$GLGSV,3,1,09,65,11,007,,66,40,322,22,67,30,252,21,76,13,132,*6A
$GLGSV,3,2,09,77,17,178,,81,02,342,,86,09,144,11,87,47,117,24*60
$GLGSV,3,3,09,88,48,011,28*5A
$GNGLL,0419.81622,S,05539.77489,E,123717.00,A,D*62
$GNGRS,123717.00,1,-0.1,4.5,-7.3,-1.9,-4.9,-0.3,5.4,3.3,53.1,,,*66
$GNGRS,123717.00,1,-6.8,-0.2,2.3,-22.3,0.5,,,,,,,*69
$GNGST,123717.00,58,,,,4.4,6.9,24*62
$GNZDA,123717.00,22,05,2025,00,00*79
$GNGBS,123717.00,4.4,6.9,24.0,,,,*67
b0@
O

9

l _`0p1+6_!)& #1{4'Ta:R 
YnAB(BCLLMQVVW/uNX0bb
Oa$*$GNRMC,123718.00,A,0419.81626,S,05539.77493,E,0.058,,220525,,,D*74
$GNVTG,,T,,M,0.058,N,0.107,K,D*33
$GNGNS,123718.00,0419.81626,S,05539.77493,E,DA,14,0.88,20.9,-47.6,,0000*6B
$GNGGA,123718.00,0419.81626,S,05539.77493,E,2,12,0.88,20.9,M,-47.6,M,,0000*41
$GNGSA,A,3,32,28,27,18,26,31,16,29,08,,,,1.86,0.88,1.64*15
$GNGSA,A,3,66,87,88,67,86,,,,,,,,1.86,0.88,1.64*10
$GPGSV,4,1,16,08,14,313,10,10,14,010,20,16,24,232,17,18,32,095,23*70
$GPGSV,4,2,16,23,01,048,,26,28,201,22,27,49,299,22,28,54,137,21*7E
$GPGSV,4,3,16,29,06,147,12,31,41,180,33,32,49,002,35,36,52,277,*73
$GPGSV,4,4,16,40,84,353,39,41,58,082,,49,32,274,,50,10,089,*73
$GLGSV,3,1,09,65,11,007,,66,40,322,22,67,30,252,20,76,13,132,*6B
$GLGSV,3,2,09,77,17,178,,81,02,342,,86,09,144,14,87,47,117,26*67
$GLGSV,3,3,09,88,48,011,28*5A
$GNGLL,0419.81626,S,05539.77493,E,123718.00,A,D*62
$GNGRS,123718.00,1,0.1,6.1,-5.9,-4.2,-4.0,0.4,6.2,-2.6,22.9,,,*45
$GNGRS,123718.00,1,-8.9,-1.8,2.6,-22.3,11.7,,,,,,,*55
$GNGST,123718.00,124621,,,,4.4,6.9,24*62
$GNZDA,123718.00,22,05,2025,00,00*76
$GNGBS,123718.00,4.4,6.9,24.0,,,,*68
$GNTXT,01,01,01,More than 100 frame errors, UART RX was disabled*70
b0@hO
9 

Y _01+6!)9 "17{4*Ta:R 
YnAB(BCLMQVVW/u@X0DwbhOI$a$GNRMC,123719.00,A,0419.81633,S,05539.77503,E,0.213,,220525,,,D*74
$GNVTG,,T,,M,0.213,N,0.395,K,D*37
$GNGNS,123719.00,0419.81633,S,05539.77503,E,DA,15,0.76,21.7,-47.6,,0000*69
$GNGGA,123719.00,0419.81633,S,05539.77503,E,2,12,0.76,21.7,M,-47.6,M,,0000*42
$GNGSA,A,3,32,28,27,18,26,31,16,29,10,08,,,1.49,0.76,1.28*1E
$GNGSA,A,3,66,87,88,67,86,,,,,,,,1.49,0.76,1.28*1A
$GPGSV,4,1,16,08,14,313,11,10,14,010,21,16,24,232,18,18,32,095,24*78
$GPGSV,4,2,16,23,01,048,,26,28,201,22,27,49,299,23,28,54,137,25*7B
$GPGSV,4,3,16,29,06,147,11,31,41,180,33,32,49,002,34,36,52,277,*71
$GPGSV,4,4,16,40,84,353,42,41,58,082,,49,32,274,,50,10,089,*7F
$GLGSV,3,1,09,65,11,007,,66,40,322,21,67,30,252,19,76,13,132,*62
$GLGSV,3,2,09,77,17,178,,81,02,342,,86,09,144,13,87,47,117,26*60
$GLGSV,3,3,09,88,48,011,27*55
$GNGLL,0419.81633,S,05539.77503,E,123719.00,A,D*6F
$GNGRS,123719.00,1,0.5,6.8,-5.5,-5.3,-5.3,0.6,6.0,-5.0,-6.0,23.4,,*4F
$GNGRS,123719.00,1,-11.4,-1.9,-1.9,-23.3,11.9,,,,,,,*4E
$GNGST,123719.00,179599,,,,4.3,7.0,24*64
$GNZDA,123719.00,22,05,2025,00,00*77
$GNGBS,123719.00,4.3,7.0,23.5,,,,*64
$GNTXT,01,01,01,More than 100 frame errors, UART RX was disabled*70
b0@PO
9{.

W _.01+6C ) 1{4(Ta:R 
YnHAB(BCGLMQVV
W/uX0bPO1$9$GNRMC,123720.00,A,0419.81643,S,05539.77501,E,0.101,,220525,,,D*7B
$GNVTG,,T,,M,0.101,N,0.188,K,D*39
$GNGNS,123720.00,0419.81643,S,05539.77501,E,DA,15,0.76,23.0,-47.6,,0000*63
$GNGGA,123720.00,0419.81643,S,05539.77501,E,2,12,0.76,23.0,M,-47.6,M,,0000*48
$GNGSA,A,3,32,28,27,18,26,31,16,29,10,08,,,1.49,0.76,1.28*1E
$GNGSA,A,3,66,87,88,67,86,,,,,,,,1.49,0.76,1.28*1A
$GPGSV,4,1,16,08,14,313,09,10,14,010,21,16,24,232,18,18,32,095,23*76
$GPGSV,4,2,16,23,01,048,,26,28,201,19,27,49,299,23,28,54,137,25*73
$GPGSV,4,3,16,29,06,147,11,31,41,180,32,32,49,002,31,36,52,277,*75
$GPGSV,4,4,16,40,84,353,40,41,58,082,,49,32,274,,50,10,089,*7D
$GLGSV,3,1,09,65,11,007,,66,40,322,21,67,30,252,19,76,13,132,*62
$GLGSV,3,2,09,77,17,178,,81,02,342,,86,09,144,10,87,47,117,27*62
$GLGSV,3,3,09,88,48,011,27*55
$GNGLL,0419.81643,S,05539.77501,E,123720.00,A,D*60
$GNGRS,123720.00,1,4.6,9.3,-3.5,-4.7,-10.5,1.7,6.0,-4.5,-8.4,119,,*5B
$GNGRS,123720.00,1,-11.3,-3.1,-3.0,-22.3,14.5,,,,,,,*4A
$GNGST,123720.00,56,,,,4.2,6.9,23*69
$GNZDA,123720.00,22,05,2025,00,00*7D
$GNGBS,123720.00,4.2,6.9,22.9,,,,*6A
$GNTXT,01,01,01,More than 100 frame errors, UART RX was disabled*70
b0@8O
9'

 _01+.6
) 1{4'Ta:R 
Y
n0AB(BRCLMQVVW/uX08b8O%d$GNRMC,123721.00,A,0419.81653,S,05539.77495,E,0.026,,220525,,,D*73
$GNVTG,,T,,M,0.026,N,0.049,K,D*31
$GNGNS,123721.00,0419.81653,S,05539.77495,E,DA,15,0.76,24.4,-47.6,,0000*6C
$GNGGA,123721.00,0419.81653,S,05539.77495,E,2,12,0.76,24.4,M,-47.6,M,,0000*47
$GNGSA,A,3,32,28,27,18,26,31,16,29,10,08,,,1.49,0.76,1.28*1E
$GNGSA,A,3,66,87,88,67,86,,,,,,,,1.49,0.76,1.28*1A
$GPGSV,4,1,16,08,14,313,08,10,14,010,20,16,24,232,16,18,32,095,22*79
$GPGSV,4,2,16,23,01,048,,26,28,201,18,27,49,299,23,28,54,137,22*75
$GPGSV,4,3,16,29,06,147,12,31,41,180,31,32,49,002,30,36,52,277,*74
$GPGSV,4,4,16,40,84,353,39,41,58,082,,49,32,274,,50,10,089,*73
$GLGSV,3,1,09,65,11,007,,66,40,322,23,67,30,252,18,76,13,132,*61
$GLGSV,3,2,09,77,17,178,,81,02,342,,86,09,144,14,87,47,117,28*69
$GLGSV,3,3,09,88,48,011,28*5A
$GNGLL,0419.81653,S,05539.77495,E,123721.00,A,D*6C
$GNGRS,123721.00,1,5.0,10.3,-2.1,-5.4,-10.3,1.9,4.9,-2.7,-15.1,23.4,,*7E
$GNGRS,123721.00,1,-12.0,-5.9,-0.8,-21.2,12.6,,,,,,,*49
$GNGST,123721.00,23281,,,,4.2,6.9,22*50
$GNZDA,123721.00,22,05,2025,00,00*7C
$GNGBS,123721.00,4.2,6.9,22.5,,,,*67
$GNTXT,01,01,01,More than 100 frame errors, UART RX was disabled*70
b0@ O
9~

, _01+6
7 ) 1Z{4)Ta:R 
YnAB(BCLMQVVQW/u5X0Jb O%$GNRMC,123722.00,A,0419.81667,S,05539.77485,E,0.103,,220525,,,D*70
$GNVTG,,T,,M,0.103,N,0.191,K,D*33
$GNGNS,123722.00,0419.81667,S,05539.77485,E,DA,15,0.76,26.5,-47.6,,0000*6A
$GNGGA,123722.00,0419.81667,S,05539.77485,E,2,12,0.76,26.5,M,-47.6,M,,0000*41
$GNGSA,A,3,32,28,27,18,26,31,16,29,10,08,,,1.49,0.76,1.28*1E
$GNGSA,A,3,66,87,88,67,86,,,,,,,,1.49,0.76,1.28*1A
$GPGSV,4,1,16,08,14,313,08,10,14,010,19,16,24,232,17,18,32,095,22*72
$GPGSV,4,2,16,23,01,048,,26,28,201,16,27,49,299,22,28,54,137,21*79
$GPGSV,4,3,16,29,06,147,10,31,41,180,32,32,49,002,31,36,52,277,*74
$GPGSV,4,4,16,40,84,353,41,41,58,082,,49,32,274,,50,10,089,*7C
$GLGSV,3,1,09,65,11,007,,66,40,322,25,67,30,252,17,76,13,132,*68
$GLGSV,3,2,09,77,17,178,,81,02,342,,86,09,144,12,87,47,117,28*6F
$GLGSV,3,3,09,88,48,011,28*5A
$GNGLL,0419.81667,S,05539.77485,E,123722.00,A,D*69
$GNGRS,123722.00,1,6.0,12.7,-0.6,-6.0,-10.9,2.2,4.2,-4.6,-17.5,24.3,,*72
$GNGRS,123722.00,1,-10.7,-4.6,1.5,-24.1,13.6,,,,,,,*67
$GNGST,123722.00,34922,,,,4.1,6.8,22*55
$GNZDA,123722.00,22,05,2025,00,00*7F
$GNGBS,123722.00,4.1,6.8,22.1,,,,*62
$GNTXT,01,01,01,More than 100 frame errors, UART RX was disabled*70
b0@O
9

 _P01+h6? ) 1{4)Ta:R 
YnAB(B6CLMQVVJW/uX0fbO%1$GNRMC,123723.00,A,0419.81680,S,05539.77481,E,0.123,,220525,,,D*7E
$GNVTG,,T,,M,0.123,N,0.227,K,D*3F
$GNGNS,123723.00,0419.81680,S,05539.77481,E,DA,15,0.73,28.3,-47.6,,0000*6B
$GNGGA,123723.00,0419.81680,S,05539.77481,E,2,12,0.73,28.3,M,-47.6,M,,0000*40
$GNGSA,A,3,32,28,27,18,26,31,16,29,10,08,,,1.44,0.73,1.24*1A
$GNGSA,A,3,66,87,88,67,86,,,,,,,,1.44,0.73,1.24*1E
$GPGSV,4,1,16,08,14,313,11,10,14,010,20,16,24,232,20,18,32,095,20*76
$GPGSV,4,2,16,23,01,048,,26,28,201,15,27,49,299,22,28,54,137,20*7B
$GPGSV,4,3,16,29,06,147,12,31,41,180,32,32,49,002,31,36,52,277,*76
$GPGSV,4,4,16,40,84,353,41,41,58,082,,49,32,274,,50,10,089,*7C
$GLGSV,3,1,09,65,11,007,,66,40,322,25,67,30,252,14,76,13,132,*6B
$GLGSV,3,2,09,77,17,178,,81,02,342,,86,09,144,11,87,47,117,27*63
$GLGSV,3,3,09,88,48,011,28*5A
$GNGLL,0419.81680,S,05539.77481,E,123723.00,A,D*65
$GNGRS,123723.00,1,6.8,14.8,1.0,-6.9,-11.0,2.1,1.9,-4.5,-18.7,-89.5,,*76
$GNGRS,123723.00,1,-12.3,-3.6,7.2,-25.4,16.1,,,,,,,*60
$GNGST,123723.00,59,,,,4.1,6.8,22*66
$GNZDA,123723.00,22,05,2025,00,00*7E
$GNGBS,123723.00,4.1,6.8,21.5,,,,*64
$GNTXT,01,01,01,More than 100 frame errors, UART RX was disabled*70
$GNTXT,01,01,01,More than 100 frame errors, UART RX was disabled*70
b0@!O
9Q

; _10I1+F6!) 1{4)Ta:R 
YnAB(BnCLMQVV
W/uX04b!O%$GNRMC,123724.00,A,0419.81699,S,05539.77472,E,0.216,,220525,,,D*78
$GNVTG,,T,,M,0.216,N,0.401,K,D*38
$GNGNS,123724.00,0419.81699,S,05539.77472,E,DA,15,0.73,30.7,-47.6,,0000*65
$GNGGA,123724.00,0419.81699,S,05539.77472,E,2,12,0.73,30.7,M,-47.6,M,,0000*4E
$GNGSA,A,3,32,28,27,18,26,31,16,29,10,08,,,1.44,0.73,1.24*1A
$GNGSA,A,3,66,87,88,67,86,,,,,,,,1.44,0.73,1.24*1E
$GPGSV,4,1,16,08,14,313,17,10,14,010,21,16,24,232,22,18,32,095,19*79
$GPGSV,4,2,16,23,01,048,,26,28,201,15,27,49,299,23,28,54,137,20*7A
$GPGSV,4,3,16,29,06,147,11,31,41,180,33,32,49,002,31,36,52,277,*74
$GPGSV,4,4,16,40,84,353,41,41,58,082,,49,32,274,,50,10,089,*7C
$GLGSV,3,1,09,65,11,007,,66,40,322,24,67,30,252,11,76,13,132,*6F
$GLGSV,3,2,09,77,17,178,,81,02,342,,86,09,144,10,87,47,117,26*63
$GLGSV,3,3,09,88,48,011,27*55
$GNGLL,0419.81699,S,05539.77472,E,123724.00,A,D*66
$GNGRS,123724.00,1,4.1,15.6,0.7,-7.2,-9.5,2.0,0.3,-3.8,-17.3,23.8,,*6E
$GNGRS,123724.00,1,-14.3,-2.9,0.2,-21.7,12.9,,,,,,,*63
$GNGST,123724.00,16025,,,,4.0,6.7,21*50
$GNZDA,123724.00,22,05,2025,00,00*79
$GNGBS,123724.00,4.0,6.7,21.0,,,,*68
b0@%O
9

 _081+?6U!) 15{4*Ta:R 
Y
nAB(BCQLMQVVTW/uX0ib%O%p$GNRMC,123725.00,A,0419.81712,S,05539.77469,E,0.179,,220525,,,D*7B
$GNVTG,,T,,M,0.179,N,0.331,K,D*36
$GNGNS,123725.00,0419.81712,S,05539.77469,E,DA,15,0.68,32.7,-47.6,,0000*64
$GNGGA,123725.00,0419.81712,S,05539.77469,E,2,12,0.68,32.7,M,-47.6,M,,0000*4F
$GNGSA,A,3,32,28,27,18,26,31,16,29,10,08,,,1.40,0.68,1.23*13
$GNGSA,A,3,66,87,88,67,86,,,,,,,,1.40,0.68,1.23*17
$GPGSV,4,1,16,08,14,313,18,10,14,010,21,16,24,232,21,18,32,095,20*7F
$GPGSV,4,2,16,23,01,048,,26,28,201,14,27,49,299,24,28,54,137,29*75
$GPGSV,4,3,16,29,06,147,13,31,41,180,33,32,49,002,31,36,52,277,*76
$GPGSV,4,4,16,40,84,353,42,41,58,082,,49,32,274,,50,10,089,*7F
$GLGSV,3,1,09,65,11,007,,66,40,322,23,67,30,252,09,76,13,132,*61
$GLGSV,3,2,09,77,17,178,,81,02,342,,86,09,144,14,87,47,117,26*67
$GLGSV,3,3,09,88,48,011,27*55
$GNGLL,0419.81712,S,05539.77469,E,123725.00,A,D*6F
$GNGRS,123725.00,1,5.7,13.6,0.6,-6.1,-9.7,1.8,-0.2,-8.0,-11.2,24.8,,*4B
$GNGRS,123725.00,1,-15.4,-5.7,1.0,-19.7,13.6,,,,,,,*6B
$GNGST,123725.00,23222,,,,4.0,6.7,21*52
$GNZDA,123725.00,22,05,2025,00,00*78
$GNGBS,123725.00,4.0,6.7,20.6,,,,*6E
$GNTXT,01,01,01,More than 100 frame errors, UART RX was disabled*70
b0@)O
9q

% _01+36>!) !1{4*Ta:R 
YnMAB(BICLMQVV8W/uX0Ab)O%HZ$GNRMC,123726.00,A,0419.81718,S,05539.77466,E,0.243,,220525,,,D*77
$GNVTG,,T,,M,0.243,N,0.449,K,D*34
$GNGNS,123726.00,0419.81718,S,05539.77466,E,DA,14,0.71,33.8,-47.6,,0000*65
$GNGGA,123726.00,0419.81718,S,05539.77466,E,2,12,0.71,33.8,M,-47.6,M,,0000*4F
$GNGSA,A,3,32,28,27,18,31,16,29,10,08,,,,1.42,0.71,1.23*1D
$GNGSA,A,3,66,87,88,67,86,,,,,,,,1.42,0.71,1.23*1D
$GPGSV,4,1,16,08,14,313,11,10,14,010,21,16,24,232,21,18,32,095,20*76
$GPGSV,4,2,16,23,01,048,,26,28,201,,27,49,299,25,28,54,137,28*70
$GPGSV,4,3,16,29,06,147,14,31,41,180,33,32,49,002,33,36,52,277,*73
$GPGSV,4,4,16,40,84,353,42,41,58,082,,49,32,274,,50,10,089,*7F
$GLGSV,3,1,09,65,11,007,,66,40,322,24,67,30,252,09,76,13,132,*66
$GLGSV,3,2,09,77,17,178,,81,02,342,,86,09,144,08,87,47,117,26*6A
$GLGSV,3,3,09,88,48,011,26*54
$GNGLL,0419.81718,S,05539.77466,E,123726.00,A,D*69
$GNGRS,123726.00,1,4.3,9.9,-2.1,-5.4,1.9,-2.3,-7.1,-4.7,24.2,,,*6D
$GNGRS,123726.00,1,-17.2,-7.5,5.8,-16.3,15.9,,,,,,,*62
$GNGST,123726.00,65,,,,3.9,6.6,20*6F
$GNZDA,123726.00,22,05,2025,00,00*7B
$GNGBS,123726.00,3.9,6.6,20.1,,,,*65
$GNTXT,01,01,01,More than 100 frame errors, UART RX was disabled*70
b0@-O
9f


Ax _Q01+6>)  1[{4(Ta:R 
Y
nrAB(B`CLMQVVW/uX0.\b-O% $GNRMC,123727.00,A,0419.81720,S,05539.77468,E,0.090,,220525,,,D*7F
$GNVTG,,T,,M,0.090,N,0.167,K,D*31
$GNGNS,123727.00,0419.81720,S,05539.77468,E,DA,13,0.71,34.4,-47.6,,0000*6D
$GNGGA,123727.00,0419.81720,S,05539.77468,E,2,12,0.71,34.4,M,-47.6,M,,0000*40
$GNGSA,A,3,32,28,27,18,31,16,29,10,,,,,1.42,0.71,1.23*15
$GNGSA,A,3,66,87,88,67,86,,,,,,,,1.42,0.71,1.23*1D
$GPGSV,4,1,16,08,14,313,08,10,14,010,19,16,24,232,19,18,32,095,18*75
$GPGSV,4,2,16,23,01,048,,26,28,201,,27,49,299,24,28,54,137,25*7C
$GPGSV,4,3,16,29,06,147,13,31,41,180,28,32,49,002,32,36,52,277,*7F
$GPGSV,4,4,16,40,84,353,40,41,58,082,,49,32,274,,50,10,089,*7D
$GLGSV,3,1,09,65,11,007,,66,40,322,23,67,30,252,12,76,13,132,*6B
$GLGSV,3,2,09,77,17,178,,81,02,342,,86,09,144,12,87,47,117,26*61
$GLGSV,3,3,09,88,48,011,25*57
$GNGLL,0419.81720,S,05539.77468,E,123727.00,A,D*6D
$GNGRS,123727.00,1,3.5,8.3,-0.3,-4.3,1.9,-1.4,-8.1,-4.5,,,,*73
$GNGRS,123727.00,1,-17.0,-5.5,-0.1,-16.3,12.0,,,,,,,*4C
$GNGST,123727.00,82398,,,,3.9,6.6,20*55
$GNZDA,123727.00,22,05,2025,00,00*7A
$GNGBS,123727.00,3.9,6.6,19.8,,,,*67
$GNTXT,01,01,01,More than 100 frame errors, UART RX was disabled*70
b0@1O
9

 _10c1+6Q)  1y{4(Ta:R 
Yn/AB(BeCLMQVVW/uX0t8b1Oq%*$GNRMC,123728.00,A,0419.81724,S,05539.77466,E,0.132,,220525,,,D*73
$GNVTG,,T,,M,0.132,N,0.244,K,D*3A
$GNGNS,123728.00,0419.81724,S,05539.77466,E,DA,14,0.73,35.4,-47.6,,0000*6C
$GNGGA,123728.00,0419.81724,S,05539.77466,E,2,12,0.73,35.4,M,-47.6,M,,0000*46
$GNGSA,A,3,32,28,27,18,31,16,29,10,08,,,,1.47,0.73,1.27*1E
$GNGSA,A,3,66,87,88,67,86,,,,,,,,1.47,0.73,1.27*1E
$GPGSV,4,1,16,08,14,313,08,10,14,010,17,16,24,232,18,18,32,095,15*77
$GPGSV,4,2,16,23,01,048,,26,28,201,16,27,49,299,23,28,54,137,21*78
$GPGSV,4,3,16,29,06,147,11,31,41,180,29,32,49,002,32,36,52,277,*7C
$GPGSV,4,4,16,40,84,353,40,41,58,082,,49,32,274,,50,10,089,*7D
$GLGSV,3,1,09,65,11,007,,66,40,322,23,67,30,252,13,76,13,132,*6A
$GLGSV,3,2,09,77,17,178,,81,02,342,,86,09,144,11,87,47,117,25*61
$GLGSV,3,3,09,88,48,011,25*57
$GNGLL,0419.81724,S,05539.77466,E,123728.00,A,D*68
$GNGRS,123728.00,1,3.8,7.4,0.0,-4.6,2.2,-3.6,-9.4,-3.1,33.1,,,*42
$GNGRS,123728.00,1,-16.9,-3.7,3.7,-16.2,12.2,,,,,,,*64
$GNGST,123728.00,88371,,,,3.9,6.6,20*57
$GNZDA,123728.00,22,05,2025,00,00*75
$GNGBS,123728.00,3.9,6.6,19.6,,,,*66
$GNTXT,01,01,01,More than 100 frame errors, UART RX was disabled*70
b0@x5O
9

S _01+6) !1{4)Ta:R 
YnAB(BRCLMQVV_W/uX0kbx5OY%$GNRMC,123729.00,A,0419.81725,S,05539.77471,E,0.120,,220525,,,D*76
$GNVTG,,T,,M,0.120,N,0.222,K,D*39
$GNGNS,123729.00,0419.81725,S,05539.77471,E,DA,14,0.73,36.0,-47.6,,0000*6D
$GNGGA,123729.00,0419.81725,S,05539.77471,E,2,12,0.73,36.0,M,-47.6,M,,0000*47
$GNGSA,A,3,32,28,27,18,31,16,29,10,08,,,,1.47,0.73,1.27*1E
$GNGSA,A,3,66,87,88,67,86,,,,,,,,1.47,0.73,1.27*1E
$GPGSV,4,1,16,08,14,313,08,10,14,010,16,16,24,232,19,18,32,095,12*70
$GPGSV,4,2,16,23,01,048,,26,28,201,17,27,49,299,22,28,54,137,18*72
$GPGSV,4,3,16,29,06,147,08,31,41,180,30,32,49,002,33,36,52,277,*7D
$GPGSV,4,4,16,40,84,353,41,41,58,082,,49,32,274,,50,10,089,*7C
$GLGSV,3,1,09,65,11,007,,66,40,322,24,67,30,252,16,76,13,132,*68
$GLGSV,3,2,09,77,17,178,,81,02,342,,86,09,144,11,87,47,117,25*61
$GLGSV,3,3,09,88,48,011,25*57
$GNGLL,0419.81725,S,05539.77471,E,123729.00,A,D*6E
$GNGRS,123729.00,1,4.7,11.9,-0.2,-3.8,1.4,-3.4,-8.8,-1.7,40.5,,,*59
$GNGRS,123729.00,1,-17.1,-4.9,3.6,-15.4,-9.3,,,,,,,*77
$GNGST,123729.00,62,,,,3.9,6.6,19*6D
$GNZDA,123729.00,22,05,2025,00,00*74
$GNGBS,123729.00,3.9,6.6,19.5,,,,*64
$GNTXT,01,01,01,More than 100 frame errors, UART RX was disabled*70
b0@`9O
9

V _u01+36)  1P{4(Ta:R 
YnAB(BCLMQVVW/uFX0/b`9OA#%$GNRMC,123730.00,A,0419.81731,S,05539.77471,E,0.187,,220525,,,D*76
$GNVTG,,T,,M,0.187,N,0.347,K,D*36
$GNGNS,123730.00,0419.81731,S,05539.77471,E,DA,13,0.75,36.7,-47.6,,0000*66
$GNGGA,123730.00,0419.81731,S,05539.77471,E,2,12,0.75,36.7,M,-47.6,M,,0000*4B
$GNGSA,A,3,32,28,27,18,31,16,10,08,,,,,1.62,0.75,1.44*11
$GNGSA,A,3,66,87,88,67,86,,,,,,,,1.62,0.75,1.44*1A
$GPGSV,4,1,16,08,14,313,12,10,14,010,16,16,24,232,19,18,32,095,13*7A
$GPGSV,4,2,16,23,01,048,,26,28,201,16,27,49,299,23,28,54,137,17*7D
$GPGSV,4,3,16,29,06,147,08,31,41,180,29,32,49,002,32,36,52,277,*74
$GPGSV,4,4,16,40,84,353,40,41,58,082,,49,32,274,,50,10,089,*7D
$GLGSV,3,1,09,65,11,007,,66,40,322,24,67,30,252,17,76,13,132,*69
$GLGSV,3,2,09,77,17,178,,81,02,342,,86,09,144,08,87,47,117,26*6A
$GLGSV,3,3,09,88,48,011,24*56
$GNGLL,0419.81731,S,05539.77471,E,123730.00,A,D*63
$GNGRS,123730.00,1,3.4,11.7,0.5,-4.0,7.8,-1.7,-3.1,40.8,,,,*7F
$GNGRS,123730.00,1,-17.8,-4.4,1.9,7.7,12.1,,,,,,,*7E
$GNGST,123730.00,3435104,,,,3.9,6.6,19*55
$GNZDA,123730.00,22,05,2025,00,00*7C
$GNGBS,123730.00,3.9,6.6,19.5,,,,*6C
$GNTXT,01,01,01,More than 100 frame errors, UART RX was disabled*70
b0@H=O
9"

 _g01+6)  1{4(Ta:R 
YnAB(BwC
LMQVVW/uX0wmbH=O)'%b$GNRMC,123731.00,A,0419.81738,S,05539.77474,E,0.104,,220525,,,D*70
$GNVTG,,T,,M,0.104,N,0.192,K,D*37
$GNGNS,123731.00,0419.81738,S,05539.77474,E,DA,13,0.75,37.5,-47.6,,0000*68
$GNGGA,123731.00,0419.81738,S,05539.77474,E,2,12,0.75,37.5,M,-47.6,M,,0000*45
$GNGSA,A,3,32,28,27,18,31,16,10,08,,,,,1.62,0.75,1.44*11
$GNGSA,A,3,66,87,88,67,86,,,,,,,,1.62,0.75,1.44*1A
$GPGSV,4,1,16,08,14,313,11,10,14,010,16,16,24,232,20,18,32,095,12*72
$GPGSV,4,2,16,23,01,048,,26,28,201,15,27,49,299,25,28,54,137,17*78
$GPGSV,4,3,16,29,06,147,08,31,41,180,29,32,49,002,32,36,52,277,*74
$GPGSV,4,4,16,40,84,353,40,41,58,082,,49,32,274,,50,10,089,*7D
$GLGSV,3,1,09,65,11,007,,66,40,322,23,67,30,252,10,76,13,132,*69
$GLGSV,3,2,09,77,17,178,,81,02,342,,86,09,144,08,87,47,117,25*69
$GLGSV,3,3,09,88,48,011,22*50
$GNGLL,0419.81738,S,05539.77474,E,123731.00,A,D*6E
$GNGRS,123731.00,1,4.0,12.5,-0.7,-4.1,9.3,-1.3,-3.6,41.3,,,,*5E
$GNGRS,123731.00,1,-19.3,-4.8,5.2,7.6,12.2,,,,,,,*7B
$GNGST,123731.00,3435106,,,,3.9,6.6,19*56
$GNZDA,123731.00,22,05,2025,00,00*7D
$GNGBS,123731.00,3.9,6.6,19.5,,,,*6D
$GNTXT,01,01,01,More than 100 frame errors, UART RX was disabled*70
b0@0AO

9

;o _M01+6S) 1{4(Ta:R 
YnAB(BjCNLMQVVDW/uX0U
b0AO+%X$GNRMC,123732.00,A,0419.81741,S,05539.77479,E,0.040,,220525,,,D*71
$GNVTG,,T,,M,0.040,N,0.074,K,D*3F
$GNGNS,123732.00,0419.81741,S,05539.77479,E,DA,14,0.71,38.1,-47.6,,0000*60
$GNGGA,123732.00,0419.81741,S,05539.77479,E,2,12,0.71,38.1,M,-47.6,M,,0000*4A
$GNGSA,A,3,32,28,27,18,26,31,16,10,08,,,,1.60,0.71,1.43*14
$GNGSA,A,3,66,87,88,67,86,,,,,,,,1.60,0.71,1.43*1B
$GPGSV,4,1,16,08,14,313,10,10,14,010,17,16,24,232,21,18,32,095,09*79
$GPGSV,4,2,16,23,01,048,,26,28,201,16,27,49,299,26,28,54,137,20*7C
$GPGSV,4,3,16,29,06,147,,31,41,180,30,32,49,002,31,36,52,277,*77
$GPGSV,4,4,16,40,84,353,40,41,58,082,,49,32,274,,50,10,089,*7D
$GLGSV,3,1,09,65,11,007,,66,40,322,24,67,30,252,12,76,13,132,*6C
$GLGSV,3,2,09,77,17,178,,81,02,342,,86,09,144,08,87,47,117,26*6A
$GLGSV,3,3,09,88,48,011,23*51
$GNGLL,0419.81741,S,05539.77479,E,123732.00,A,D*6E
$GNGRS,123732.00,1,6.5,11.1,-3.0,-35.1,-3.5,4.0,-1.5,-4.5,-28.9,,,*4A
$GNGRS,123732.00,1,-16.9,-5.9,7.4,-12.0,16.0,,,,,,,*60
$GNGST,123732.00,64,,,,3.9,6.6,19*61
$GNZDA,123732.00,22,05,2025,00,00*7E
$GNGBS,123732.00,3.9,6.6,19.4,,,,*6F
$GNTXT,01,01,01,More than 100 frame errors, UART RX was disabled*70
b0@EO
9

+ _0r1+6 )2  1e{4'Ta:R 
YnAB(BCLMQVVW/uX0
bEO.%//$GNRMC,123733.00,A,0419.81743,S,05539.77486,E,0.038,,220525,,,D*7D
$GNVTG,,T,,M,0.038,N,0.070,K,D*34
$GNGNS,123733.00,0419.81743,S,05539.77486,E,DA,14,0.71,38.1,-47.6,,0000*63
$GNGGA,123733.00,0419.81743,S,05539.77486,E,2,12,0.71,38.1,M,-47.6,M,,0000*49
$GNGSA,A,3,32,28,27,18,26,31,16,10,08,,,,1.60,0.71,1.43*14
$GNGSA,A,3,66,87,88,67,86,,,,,,,,1.60,0.71,1.43*1B
$GPGSV,4,1,16,08,14,313,09,10,14,010,17,16,24,232,21,18,32,095,15*7C
$GPGSV,4,2,16,23,01,048,,26,28,201,14,27,49,299,26,28,54,137,22*7C
$GPGSV,4,3,16,29,06,147,,31,41,180,32,32,49,002,32,36,52,277,*76
$GPGSV,4,4,16,40,84,353,39,41,58,082,,49,32,274,,50,10,089,*73
$GLGSV,3,1,09,65,11,007,,66,40,322,25,67,30,252,13,76,13,132,*6C
$GLGSV,3,2,09,77,17,178,,81,02,342,,86,09,144,08,87,47,117,26*6A
$GLGSV,3,3,09,88,48,011,25*57
$GNGLL,0419.81743,S,05539.77486,E,123733.00,A,D*6D
$GNGRS,123733.00,1,6.1,11.9,-5.2,11.8,-1.4,5.6,0.4,-3.1,24.8,,,*6B
$GNGRS,123733.00,1,-16.4,-6.1,5.2,7.7,11.8,,,,,,,*72
$GNGST,123733.00,4666074,,,,3.9,6.6,19*53
$GNZDA,123733.00,22,05,2025,00,00*7F
$GNGBS,123733.00,3.9,6.6,19.3,,,,*69
$GNTXT,01,01,01,More than 100 frame errors, UART RX was disabled*70
b0@IO
9

u _01+X6 ) $1B{4)Ta:R 
YnAB(BCLMQVVW/uX0KbbIO2%$GNRMC,123734.00,A,0419.81742,S,05539.77493,E,0.058,,220525,,,D*79
$GNVTG,,T,,M,0.058,N,0.107,K,D*33
$GNGNS,123734.00,0419.81742,S,05539.77493,E,DA,14,0.71,38.6,-47.6,,0000*66
$GNGGA,123734.00,0419.81742,S,05539.77493,E,2,12,0.71,38.6,M,-47.6,M,,0000*4C
$GNGSA,A,3,32,28,27,18,26,31,16,10,08,,,,1.60,0.71,1.43*14
$GNGSA,A,3,66,87,88,67,86,,,,,,,,1.60,0.71,1.43*1B
$GPGSV,4,1,16,08,14,313,09,10,14,010,16,16,24,232,22,18,32,095,08*72
$GPGSV,4,2,16,23,01,048,,26,28,201,12,27,49,299,26,28,54,137,21*79
$GPGSV,4,3,16,29,06,147,,31,41,180,32,32,49,002,36,36,52,277,*72
$GPGSV,4,4,16,40,84,353,41,41,58,082,,49,32,274,,50,10,089,*7C
$GLGSV,3,1,09,65,11,007,,66,40,322,25,67,30,252,08,76,13,132,*66
$GLGSV,3,2,09,77,17,178,,81,02,342,,86,09,144,08,87,47,117,26*6A
$GLGSV,3,3,09,88,48,011,25*57
$GNGLL,0419.81742,S,05539.77493,E,123734.00,A,D*6F
$GNGRS,123734.00,1,5.8,11.9,-4.2,11.7,-0.1,1.9,1.4,-4.0,24.6,,,*6E
$GNGRS,123734.00,1,-15.5,-5.1,3.3,7.8,11.9,,,,,,,*7D
$GNGST,123734.00,4666287,,,,3.8,6.5,19*58
$GNZDA,123734.00,22,05,2025,00,00*78
$GNGBS,123734.00,3.8,6.5,19.3,,,,*6C
$GNTXT,01,01,01,More than 100 frame errors, UART RX was disabled*70
b0@LO

9U

+ _^0
1+r6) !1{4'Ta:R 
YnAB(BCLMQVVW/uX0bLO6%$GNRMC,123735.00,A,0419.81747,S,05539.77504,E,0.061,,220525,,,D*78
$GNVTG,,T,,M,0.061,N,0.113,K,D*3C
$GNGNS,123735.00,0419.81747,S,05539.77504,E,DA,13,0.71,39.1,-47.6,,0000*6C
$GNGGA,123735.00,0419.81747,S,05539.77504,E,2,12,0.71,39.1,M,-47.6,M,,0000*41
$GNGSA,A,3,32,28,27,18,31,16,10,08,,,,,1.48,0.71,1.29*16
$GNGSA,A,3,66,87,88,67,86,,,,,,,,1.48,0.71,1.29*1D
$GPGSV,4,1,16,08,14,313,10,10,14,010,16,16,24,232,22,18,32,095,14*77
$GPGSV,4,2,16,23,01,048,,26,28,201,10,27,49,299,27,28,54,137,19*71
$GPGSV,4,3,16,29,06,147,,31,41,180,30,32,49,002,33,36,52,277,*75
$GPGSV,4,4,16,40,84,353,39,41,58,082,,49,32,274,,50,10,089,*73
$GLGSV,3,1,09,65,11,007,,66,40,322,24,67,30,252,14,76,13,132,*6A
$GLGSV,3,2,09,77,17,178,,81,02,342,,86,09,144,16,87,47,117,27*64
$GLGSV,3,3,09,88,48,011,26*54
$GNGLL,0419.81747,S,05539.77504,E,123735.00,A,D*64
$GNGRS,123735.00,1,5.3,12.6,-4.0,13.7,7.9,3.0,-2.3,-6.8,,,,*7C
$GNGRS,123735.00,1,-15.9,-7.5,5.1,-3.1,7.3,,,,,,,*6F
$GNGST,123735.00,61,,,,3.8,6.5,19*61
$GNZDA,123735.00,22,05,2025,00,00*79
$GNGBS,123735.00,3.8,6.5,19.2,,,,*6C
$GNTXT,01,01,01,More than 100 frame errors, UART RX was disabled*70
b0@PO
9

S _0
1+96')v  1&{4(Ta:R 
YnAB(BCLMQVVW/uRX0/GbPO:%X$GNRMC,123736.00,A,0419.81752,S,05539.77507,E,0.015,,220525,,,D*7F
$GNVTG,,T,,M,0.015,N,0.028,K,D*36
$GNGNS,123736.00,0419.81752,S,05539.77507,E,DA,14,0.71,39.5,-47.6,,0000*6B
$GNGGA,123736.00,0419.81752,S,05539.77507,E,2,12,0.71,39.5,M,-47.6,M,,0000*41
$GNGSA,A,3,32,28,27,18,26,31,16,10,08,,,,1.60,0.71,1.43*14
$GNGSA,A,3,66,87,88,67,86,,,,,,,,1.60,0.71,1.43*1B
$GPGSV,4,1,16,08,14,313,09,10,14,010,15,16,24,232,21,18,32,095,09*73
$GPGSV,4,2,16,23,01,048,,26,28,201,10,27,49,299,29,28,54,137,21*74
$GPGSV,4,3,16,29,06,147,,31,41,180,29,32,49,002,32,36,52,277,*7C
$GPGSV,4,4,16,40,84,353,40,41,58,082,,49,32,274,,50,10,089,*7D
$GLGSV,3,1,09,65,11,007,,66,40,322,24,67,30,252,13,76,13,132,*6D
$GLGSV,3,2,09,77,17,178,,81,02,342,,86,09,144,16,87,47,117,27*64
$GLGSV,3,3,09,88,48,011,25*57
$GNGLL,0419.81752,S,05539.77507,E,123736.00,A,D*60
$GNGRS,123736.00,1,5.5,13.2,-2.0,11.8,-0.3,8.9,3.8,-1.7,21.8,,,*6F
$GNGRS,123736.00,1,-16.3,-6.9,5.6,7.8,12.1,,,,,,,*79
$GNGST,123736.00,137854,,,,3.8,6.4,19*68
$GNZDA,123736.00,22,05,2025,00,00*7A
$GNGBS,123736.00,3.8,6.4,19.2,,,,*6E
$GNTXT,01,01,01,More than 100 frame errors, UART RX was disabled*70
b0@TO
9x

y _01+6) 1M{4(Ta:R 
YnAB(BCLMQVVW/uWX02bTO>%$GNRMC,123737.00,A,0419.81753,S,05539.77515,E,0.132,,220525,,,D*78
$GNVTG,,T,,M,0.132,N,0.245,K,D*3B
$GNGNS,123737.00,0419.81753,S,05539.77515,E,DA,14,0.71,39.7,-47.6,,0000*6A
$GNGGA,123737.00,0419.81753,S,05539.77515,E,2,12,0.71,39.7,M,-47.6,M,,0000*40
$GNGSA,A,3,32,28,27,18,26,31,16,10,08,,,,1.60,0.71,1.43*14
$GNGSA,A,3,66,87,88,67,86,,,,,,,,1.60,0.71,1.43*1B
$GPGSV,4,1,16,08,14,313,15,10,14,010,14,16,24,232,20,18,32,095,14*72
$GPGSV,4,2,16,23,01,048,,26,28,201,14,27,49,299,29,28,54,137,23*72
$GPGSV,4,3,16,29,06,147,,31,41,180,29,32,49,002,31,36,52,277,*7F
$GPGSV,4,4,16,40,84,353,40,41,58,082,,49,32,274,,50,10,089,*7D
$GLGSV,3,1,09,65,11,007,,66,40,322,24,67,30,252,14,76,13,132,*6A
$GLGSV,3,2,09,77,17,178,,81,02,342,,86,09,144,12,87,47,117,27*60
$GLGSV,3,3,09,88,48,011,25*57
$GNGLL,0419.81753,S,05539.77515,E,123737.00,A,D*63
$GNGRS,123737.00,1,5.9,10.5,-6.0,11.6,-0.6,6.9,6.3,-0.1,21.7,,,*61
$GNGRS,123737.00,1,-15.6,-9.4,5.3,7.9,12.1,,,,,,,*78
$GNGST,123737.00,203132,,,,3.8,6.4,19*64
$GNZDA,123737.00,22,05,2025,00,00*7B
$GNGBS,123737.00,3.8,6.4,19.2,,,,*6F
$GNTXT,01,01,01,More than 100 frame errors, UART RX was disabled*70
b0@XO
9

i> _01+6)  19{4)Ta:R 
YnAB(BCeLMQVVW/uX0PbXOB%f($GNRMC,123738.00,A,0419.81754,S,05539.77512,E,0.137,,220525,,,D*72
$GNVTG,,T,,M,0.137,N,0.254,K,D*3E
$GNGNS,123738.00,0419.81754,S,05539.77512,E,DA,14,0.68,40.5,-47.6,,0000*61
$GNGGA,123738.00,0419.81754,S,05539.77512,E,2,12,0.68,40.5,M,-47.6,M,,0000*4B
$GNGSA,A,3,32,28,27,18,26,31,16,10,08,,,,1.46,0.68,1.29*14
$GNGSA,A,3,66,87,88,67,86,,,,,,,,1.46,0.68,1.29*1B
$GPGSV,4,1,16,08,14,313,12,10,14,010,14,16,24,232,19,18,32,095,13*78
$GPGSV,4,2,16,23,01,048,,26,28,201,17,27,49,299,28,28,54,137,22*71
$GPGSV,4,3,16,29,06,147,,31,41,180,31,32,49,002,32,36,52,277,*75
$GPGSV,4,4,16,40,84,353,41,41,58,082,,49,32,274,,50,10,089,*7C
$GLGSV,3,1,09,65,11,007,,66,40,322,22,67,30,252,14,76,13,132,*6C
$GLGSV,3,2,09,77,17,178,,81,02,342,,86,09,144,12,87,47,117,27*60
$GLGSV,3,3,09,88,48,011,27*55
$GNGLL,0419.81754,S,05539.77512,E,123738.00,A,D*6C
$GNGRS,123738.00,1,5.7,10.2,-3.1,-43.5,-2.5,6.9,3.2,1.0,-2.8,,,*71
$GNGRS,123738.00,1,-16.5,-10.5,3.4,-1.6,-3.7,,,,,,,*70
$GNGST,123738.00,62,,,,3.8,6.4,19*6E
$GNZDA,123738.00,22,05,2025,00,00*74
$GNGBS,123738.00,3.8,6.4,19.1,,,,*63
$GNTXT,01,01,01,More than 100 frame errors, UART RX was disabled*70
b0@\O
9

u _01+6 ){  1{4(Ta:R 
YnAB(B~CLMQVVW/unX0?lb\OiF%>$GNRMC,123739.00,A,0419.81755,S,05539.77515,E,0.158,,220525,,,D*7C
$GNVTG,,T,,M,0.158,N,0.293,K,D*3C
$GNGNS,123739.00,0419.81755,S,05539.77515,E,DA,14,0.71,41.3,-47.6,,0000*69
$GNGGA,123739.00,0419.81755,S,05539.77515,E,2,12,0.71,41.3,M,-47.6,M,,0000*43
$GNGSA,A,3,32,28,27,18,26,31,16,10,08,,,,1.60,0.71,1.43*14
$GNGSA,A,3,66,87,88,67,86,,,,,,,,1.60,0.71,1.43*1B
$GPGSV,4,1,16,08,14,313,11,10,14,010,11,16,24,232,20,18,32,095,11*76
$GPGSV,4,2,16,23,01,048,,26,28,201,18,27,49,299,28,28,54,137,22*7E
$GPGSV,4,3,16,29,06,147,,31,41,180,32,32,49,002,32,36,52,277,*76
$GPGSV,4,4,16,40,84,353,40,41,58,082,,49,32,274,,50,10,089,*7D
$GLGSV,3,1,09,65,11,007,,66,40,322,21,67,30,252,14,76,13,132,*6F
$GLGSV,3,2,09,77,17,178,,81,02,342,,86,09,144,12,87,47,117,27*60
$GLGSV,3,3,09,88,48,011,26*54
$GNGLL,0419.81755,S,05539.77515,E,123739.00,A,D*6B
$GNGRS,123739.00,1,9.1,10.5,2.5,11.9,-2.4,1.2,2.3,-1.4,22.1,,,*41
$GNGRS,123739.00,1,-16.7,-9.1,1.9,7.7,12.2,,,,,,,*72
$GNGST,123739.00,3306258,,,,3.8,6.3,19*55
$GNZDA,123739.00,22,05,2025,00,00*75
$GNGBS,123739.00,3.8,6.3,19.1,,,,*65
$GNTXT,01,01,01,More than 100 frame errors, UART RX was disabled*70
b0@p`O
9


 _051+6 ) 1{4(Ta:R 
YnAB(B'CLMQVVW/uX0Mbp`OQJ%$GNRMC,123740.00,A,0419.81757,S,05539.77514,E,0.111,,220525,,,D*7C
$GNVTG,,T,,M,0.111,N,0.206,K,D*3D
$GNGNS,123740.00,0419.81757,S,05539.77514,E,DA,14,0.71,42.1,-47.6,,0000*65
$GNGGA,123740.00,0419.81757,S,05539.77514,E,2,12,0.71,42.1,M,-47.6,M,,0000*4F
$GNGSA,A,3,32,28,27,18,26,31,16,10,08,,,,1.60,0.71,1.43*14
$GNGSA,A,3,66,87,88,67,86,,,,,,,,1.60,0.71,1.43*1B
$GPGSV,4,1,16,08,14,313,08,10,14,010,08,16,24,232,20,18,32,095,10*77
$GPGSV,4,2,16,23,01,048,,26,28,201,17,27,49,299,27,28,54,137,22*7E
$GPGSV,4,3,16,29,06,147,,31,41,180,32,32,49,002,31,36,52,277,*75
$GPGSV,4,4,16,40,84,353,40,41,58,082,,49,32,274,,50,10,089,*7D
$GLGSV,3,1,09,65,11,007,,66,40,322,22,67,30,252,11,76,13,132,*69
$GLGSV,3,2,09,77,17,178,,81,02,342,,86,09,144,12,87,47,117,27*60
$GLGSV,3,3,09,88,48,011,26*54
$GNGLL,0419.81757,S,05539.77514,E,123740.00,A,D*66
$GNGRS,123740.00,1,9.2,7.6,6.9,12.1,-2.0,-1.0,4.0,-5.3,22.2,,,*54
$GNGRS,123740.00,1,-17.5,-8.0,0.8,7.4,12.5,,,,,,,*7B
$GNGST,123740.00,4668633,,,,3.8,6.3,19*58
$GNZDA,123740.00,22,05,2025,00,00*7B
$GNGBS,123740.00,3.8,6.3,19.2,,,,*68
$GNTXT,01,01,01,More than 100 frame errors, UART RX was disabled*70
b0@XdO
9

 _01+6 ) 1P{4(Ta:R 
YnAB(BCLMQVVW/u\X0qbbXdO9N%`$GNRMC,123741.00,A,0419.81759,S,05539.77499,E,0.198,,220525,,,D*76
$GNVTG,,T,,M,0.198,N,0.368,K,D*35
$GNGNS,123741.00,0419.81759,S,05539.77499,E,DA,14,0.68,42.6,-47.6,,0000*61
$GNGGA,123741.00,0419.81759,S,05539.77499,E,2,12,0.68,42.6,M,-47.6,M,,0000*4B
$GNGSA,A,3,32,28,27,18,26,31,16,10,08,,,,1.46,0.68,1.29*14
$GNGSA,A,3,66,87,88,67,86,,,,,,,,1.46,0.68,1.29*1B
$GPGSV,4,1,16,08,14,313,08,10,14,010,08,16,24,232,21,18,32,095,15*73
$GPGSV,4,2,16,23,01,048,,26,28,201,17,27,49,299,27,28,54,137,23*7F
$GPGSV,4,3,16,29,06,147,,31,41,180,32,32,49,002,31,36,52,277,*75
$GPGSV,4,4,16,40,84,353,40,41,58,082,,49,32,274,,50,10,089,*7D
$GLGSV,3,1,09,65,11,007,,66,40,322,23,67,30,252,14,76,13,132,*6D
$GLGSV,3,2,09,77,17,178,,81,02,342,,86,09,144,15,87,47,117,27*67
$GLGSV,3,3,09,88,48,011,26*54
$GNGLL,0419.81759,S,05539.77499,E,123741.00,A,D*6D
$GNGRS,123741.00,1,8.5,7.3,8.9,-18.3,-0.1,-3.3,4.0,-10.1,-18.2,,,*6D
$GNGRS,123741.00,1,-18.2,-9.3,-0.6,6.6,9.1,,,,,,,*6E
$GNGST,123741.00,67,,,,3.8,6.3,19*62
$GNZDA,123741.00,22,05,2025,00,00*7A
$GNGBS,123741.00,3.8,6.3,19.2,,,,*69
$GNTXT,01,01,01,More than 100 frame errors, UART RX was disabled*70
b0@@hO
9

 _01+:6/!); 1{4(Ta:R 
YnAB(BCLMQVV
W/uX0Cl}b@hO!R%$GNRMC,123742.00,A,0419.81763,S,05539.77493,E,0.108,,220525,,,D*7F
$GNVTG,,T,,M,0.108,N,0.200,K,D*33
$GNGNS,123742.00,0419.81763,S,05539.77493,E,DA,13,0.85,43.1,-47.6,,0000*63
$GNGGA,123742.00,0419.81763,S,05539.77493,E,2,12,0.85,43.1,M,-47.6,M,,0000*4E
$GNGSA,A,3,32,28,27,18,26,31,16,08,,,,,2.12,0.85,1.94*12
$GNGSA,A,3,66,87,88,67,86,,,,,,,,2.12,0.85,1.94*1C
$GPGSV,4,1,16,08,14,313,13,10,14,010,,16,24,232,21,18,32,095,20*77
$GPGSV,4,2,16,23,01,048,,26,28,201,18,27,49,299,26,28,54,137,24*76
$GPGSV,4,3,16,29,06,147,16,31,41,180,33,32,49,002,31,36,52,277,*73
$GPGSV,4,4,16,40,84,353,40,41,58,082,,49,32,274,,50,10,089,*7D
$GLGSV,3,1,09,65,11,007,,66,40,322,23,67,30,252,17,76,13,132,*6E
$GLGSV,3,2,09,77,17,178,,81,02,342,,86,09,144,10,87,47,117,26*63
