$GNRMC,135002.00,A,0419.72372,S,05539.76556,E,0.485,,200525,,,D*78
$GNVTG,,T,,M,0.485,N,0.898,K,D*38
$GNGGA,135002.00,0419.72372,S,05539.76556,E,2,12,0.70,17.1,M,-47.6,M,,0000*40
$GNGSA,A,3,32,18,10,28,26,16,27,31,40,08,04,02,1.22,0.70,1.00*16
$GNGSA,A,3,85,72,86,65,87,76,66,,,,,,1.22,0.70,1.00*10
$GPGSV,5,1,17,02,14,335,26,04,15,236,13,08,30,289,32,10,13,036,22*77
$GPGSV,5,2,17,16,24,203,16,18,22,127,12,23,01,075,,26,30,172,10*71
$GPGSV,5,3,17,27,55,246,34,28,58,076,27,31,66,147,19,32,23,013,20*70
$GPGSV,5,4,17,36,52,277,30,40,84,353,28,41,58,082,,49,32,274,*75
$GPGSV,5,5,17,50,10,089,*4A
$GLGSV,3,1,09,65,24,293,22,66,09,246,12,72,16,350,15,74,15,093,09*6D
$GLGSV,3,2,09,75,26,145,,76,08,201,10,85,27,150,11,86,79,074,22*6F
$GLGSV,3,3,09,87,41,346,28*5D
$GNGLL,0419.72372,S,05539.76556,E,135002.00,A,D*68
$GNRMC,135003.00,A,0419.72336,S,05539.76544,E,0.685,,200525,,,D*78
$GNVTG,,T,,M,0.685,N,1.268,K,D*3E
$GNGGA,135003.00,0419.72336,S,05539.76544,E,2,12,0.60,18.0,M,-47.6,M,,0000*4D
$GNGSA,A,3,32,18,10,28,26,16,27,31,40,08,04,02,1.05,0.60,0.87*1C
$GNGSA,A,3,85,72,86,65,87,76,66,,,,,,1.05,0.60,0.87*1A
$GPGSV,5,1,17,02,14,335,24,04,15,236,15,08,30,289,31,10,13,036,21*73
$GPGSV,5,2,17,16,24,203,13,18,22,127,07,23,01,075,,26,30,172,09*78
$GPGSV,5,3,17,27,55,246,33,28,58,076,27,31,66,147,16,32,23,013,21*79
$GPGSV,5,4,17,36,52,277,30,40,84,353,30,41,58,082,,49,32,274,*7C
$GPGSV,5,5,17,50,10,089,*4A
$GLGSV,3,1,09,65,24,293,19,66,09,246,10,72,16,350,13,74,15,093,06*6E
$GLGSV,3,2,09,75,26,145,,76,08,201,08,85,27,150,07,86,79,074,22*61
$GLGSV,3,3,09,87,41,346,28*5D
$GNGLL,0419.72336,S,05539.76544,E,135003.00,A,D*6A
$GNRMC,135004.00,A,0419.72321,S,05539.76529,E,0.171,,200525,,,D*7E
$GNVTG,,T,,M,0.171,N,0.316,K,D*3B
$GNGGA,135004.00,0419.72321,S,05539.76529,E,2,12,0.71,18.9,M,-47.6,M,,0000*4E
$GNGSA,A,3,32,18,10,28,26,27,31,40,08,04,02,,1.21,0.71,0.97*1C
$GNGSA,A,3,72,86,65,87,76,66,,,,,,,1.21,0.71,0.97*10
$GPGSV,5,1,17,02,14,335,24,04,15,236,08,08,30,289,32,10,13,036,20*7D
$GPGSV,5,2,17,16,24,203,09,18,22,127,08,23,01,075,,26,30,172,09*7C
$GPGSV,5,3,17,27,55,246,35,28,58,076,30,31,66,147,17,32,23,013,23*7A
$GPGSV,5,4,17,36,52,277,31,40,84,353,32,41,58,082,,49,32,274,*7F
$GPGSV,5,5,17,50,10,089,*4A
$GLGSV,3,1,09,65,24,293,19,66,09,246,09,72,16,350,14,74,15,093,06*61
$GLGSV,3,2,09,75,26,145,,76,08,201,07,85,26,150,06,86,79,074,30*6D
$GLGSV,3,3,09,87,41,346,33*57
$GNGLL,0419.72321,S,05539.76529,E,135004.00,A,D*60
$GNRMC,135005.00,A,0419.72277,S,05539.76504,E,0.145,,200525,,,D*75
$GNVTG,,T,,M,0.145,N,0.269,K,D*35
$GNGGA,135005.00,0419.72277,S,05539.76504,E,2,12,0.93,20.1,M,-47.6,M,,0000*4D
$GNGSA,A,3,32,18,10,28,16,27,31,40,08,04,02,,1.56,0.93,1.26*18
$GNGSA,A,3,85,72,86,65,87,66,,,,,,,1.56,0.93,1.26*1B
$GPGSV,5,1,17,02,14,335,23,04,15,236,09,08,30,289,33,10,13,036,20*7A
$GPGSV,5,2,17,16,24,203,10,18,22,127,12,23,01,075,,26,30,172,06*70
$GPGSV,5,3,17,27,55,246,36,28,58,076,32,31,66,147,18,32,23,013,24*73
$GPGSV,5,4,17,36,52,277,30,40,84,353,33,41,58,082,,49,32,274,*7F
$GPGSV,5,5,17,50,10,089,*4A
$GLGSV,3,1,09,65,24,293,24,66,09,246,08,72,16,350,16,74,15,093,08*62
$GLGSV,3,2,09,75,26,145,,76,08,201,05,85,26,150,11,86,79,078,31*64
$GLGSV,3,3,09,87,41,346,36*52
$GNGLL,0419.72277,S,05539.76504,E,135005.00,A,D*6C
$GNRMC,135006.00,A,0419.72252,S,05539.76487,E,0.162,,200525,,,D*7E
$GNVTG,,T,,M,0.162,N,0.300,K,D*3E
$GNGGA,135006.00,0419.72252,S,05539.76487,E,2,12,0.60,21.2,M,-47.6,M,,0000*4D
$GNGSA,A,3,32,18,10,28,26,16,27,31,40,08,04,02,1.05,0.60,0.87*1C
$GNGSA,A,3,85,72,86,65,87,76,66,,,,,,1.05,0.60,0.87*1A
$GPGSV,5,1,17,02,14,335,26,04,15,236,10,08,30,289,34,10,13,036,20*70
$GPGSV,5,2,17,16,24,203,13,18,22,127,10,23,01,075,,26,30,172,10*76
$GPGSV,5,3,17,27,55,246,37,28,58,076,32,31,66,147,20,32,23,013,25*78
$GPGSV,5,4,17,36,52,277,30,40,84,353,34,41,58,082,,49,32,274,*78
$GPGSV,5,5,17,50,10,089,*4A
$GLGSV,3,1,09,65,24,293,26,66,09,246,10,72,16,350,18,74,15,093,10*6E
$GLGSV,3,2,09,75,26,145,,76,08,201,09,85,26,150,12,86,79,078,31*6B
$GLGSV,3,3,09,87,42,346,36*51
$GNGLL,0419.72252,S,05539.76487,E,135006.00,A,D*62
$GNRMC,135007.00,A,0419.72231,S,05539.76473,E,0.223,,200525,,,D*77
$GNVTG,,T,,M,0.223,N,0.412,K,D*3C
$GNGGA,135007.00,0419.72231,S,05539.76473,E,2,12,0.62,22.1,M,-47.6,M,,0000*40
$GNGSA,A,3,32,18,10,28,26,16,27,31,40,08,04,02,1.07,0.62,0.87*1C
$GNGSA,A,3,85,72,86,65,87,76,66,,,,,,1.07,0.62,0.87*1A
$GPGSV,5,1,17,02,14,335,26,04,15,236,14,08,30,289,34,10,13,036,21*75
$GPGSV,5,2,17,16,24,203,12,18,22,127,10,23,01,075,,26,30,172,08*7E
$GPGSV,5,3,17,27,55,246,37,28,58,076,33,31,66,147,20,32,23,013,25*79
$GPGSV,5,4,17,36,52,277,31,40,84,353,34,41,58,082,,49,32,274,*79
$GPGSV,5,5,17,50,10,089,*4A
$GLGSV,3,1,09,65,24,293,27,66,09,246,10,72,16,350,19,74,15,093,08*67
$GLGSV,3,2,09,75,26,145,,76,08,201,08,85,26,150,15,86,79,078,31*6D
$GLGSV,3,3,09,87,42,346,35*52
$GNGLL,0419.72231,S,05539.76473,E,135007.00,A,D*6D
$GNRMC,135008.00,A,0419.72216,S,05539.76463,E,0.108,,200525,,,D*76
$GNVTG,,T,,M,0.108,N,0.200,K,D*33
$GNGGA,135008.00,0419.72216,S,05539.76463,E,2,12,0.73,22.7,M,-47.6,M,,0000*4D
$GNGSA,A,3,32,18,10,28,26,27,31,40,08,04,02,,1.26,0.73,1.03*15
$GNGSA,A,3,85,72,86,65,87,76,66,,,,,,1.26,0.73,1.03*14
$GPGSV,5,1,17,02,14,335,25,04,15,236,15,08,30,289,34,10,13,036,22*74
$GPGSV,5,2,17,16,24,203,,18,22,127,08,23,01,075,,26,30,172,09*75
$GPGSV,5,3,17,27,55,246,38,28,58,076,33,31,66,147,19,32,23,013,25*7C
$GPGSV,5,4,17,36,52,277,32,40,84,353,34,41,58,082,,49,32,274,*7A
$GPGSV,5,5,17,50,10,089,*4A
$GLGSV,3,1,09,65,24,293,27,66,09,246,12,72,16,350,20,74,15,093,07*60
$GLGSV,3,2,09,75,26,145,,76,08,201,09,85,26,150,09,86,79,078,30*60
$GLGSV,3,3,09,87,42,346,36*51
$GNGLL,0419.72216,S,05539.76463,E,135008.00,A,D*66
$GNRMC,135009.00,A,0419.72184,S,05539.76445,E,0.138,,200525,,,D*78
$GNVTG,,T,,M,0.138,N,0.256,K,D*33
$GNGGA,135009.00,0419.72184,S,05539.76445,E,2,12,0.61,23.8,M,-47.6,M,,0000*4D
$GNGSA,A,3,32,18,10,28,26,27,31,40,08,04,02,,1.06,0.61,0.87*19
$GNGSA,A,3,85,72,86,65,87,76,66,,,,,,1.06,0.61,0.87*18
$GPGSV,5,1,17,02,15,335,24,04,15,236,17,08,30,289,34,10,13,036,21*75
$GPGSV,5,2,17,16,24,203,,18,22,127,10,23,01,075,,26,30,172,11*75
$GPGSV,5,3,17,27,55,246,37,28,58,076,32,31,66,147,20,32,23,013,25*78
$GPGSV,5,4,17,36,52,277,32,40,84,353,34,41,58,082,,49,32,274,*7A
$GPGSV,5,5,17,50,10,089,*4A
$GLGSV,3,1,09,65,24,293,26,66,09,246,10,72,16,350,19,74,15,093,10*6F
$GLGSV,3,2,09,75,26,145,,76,08,201,09,85,26,150,10,86,79,078,30*68
$GLGSV,3,3,09,87,42,346,37*50
$GNGLL,0419.72184,S,05539.76445,E,135009.00,A,D*6B
$GNRMC,135010.00,A,0419.72162,S,05539.76432,E,0.133,,200525,,,D*73
$GNVTG,,T,,M,0.133,N,0.247,K,D*38
$GNGGA,135010.00,0419.72162,S,05539.76432,E,2,12,0.61,24.8,M,-47.6,M,,0000*4A
$GNGSA,A,3,32,18,10,28,26,27,31,40,08,04,02,,1.06,0.61,0.87*19
$GNGSA,A,3,85,72,86,65,87,76,66,,,,,,1.06,0.61,0.87*18
$GPGSV,5,1,17,02,15,335,25,04,15,236,14,08,30,289,34,10,13,036,21*77
$GPGSV,5,2,17,16,24,203,,18,22,127,07,23,01,075,,26,30,172,10*72
$GPGSV,5,3,17,27,55,246,38,28,58,076,32,31,66,147,20,32,23,013,26*74
$GPGSV,5,4,17,36,52,277,32,40,84,353,35,41,58,082,,49,32,274,*7B
$GPGSV,5,5,17,50,10,089,*4A
$GLGSV,3,1,09,65,24,293,26,66,09,246,11,72,16,350,19,74,15,093,10*6E
$GLGSV,3,2,09,75,26,145,,76,08,201,10,85,26,150,08,86,79,078,30*69
$GLGSV,3,3,09,87,42,346,37*50
$GNGLL,0419.72162,S,05539.76432,E,135010.00,A,D*6B
$GNRMC,135011.00,A,0419.72139,S,05539.76418,E,0.079,,200525,,,D*7B
$GNVTG,,T,,M,0.079,N,0.146,K,D*35
$GNGGA,135011.00,0419.72139,S,05539.76418,E,2,12,0.96,25.8,M,-47.6,M,,0000*44
$GNGSA,A,3,32,18,10,28,26,27,31,40,08,04,02,,1.50,0.96,1.15*18
$GNGSA,A,3,85,72,86,65,87,76,66,,,,,,1.50,0.96,1.15*19
$GPGSV,5,1,17,02,15,335,26,04,15,236,15,08,30,289,33,10,13,036,20*73
$GPGSV,5,2,17,16,24,203,,18,22,127,09,23,01,075,,26,30,172,08*75
$GPGSV,5,3,17,27,55,246,38,28,58,076,32,31,66,147,21,32,23,013,27*74
$GPGSV,5,4,17,36,52,277,32,40,84,353,34,41,58,082,,49,32,274,*7A
$GPGSV,5,5,17,50,10,089,*4A
$GLGSV,3,1,09,65,24,293,25,66,09,246,09,72,16,350,17,74,15,093,10*6A
$GLGSV,3,2,09,75,26,145,,76,08,201,11,85,26,150,13,86,79,078,30*62
$GLGSV,3,3,09,87,42,346,37*50
$GNGLL,0419.72139,S,05539.76418,E,135011.00,A,D*6C
$GNRMC,135012.00,A,0419.72120,S,05539.76407,E,0.172,,200525,,,D*74
$GNVTG,,T,,M,0.172,N,0.318,K,D*36
$GNGGA,135012.00,0419.72120,S,05539.76407,E,2,12,0.61,26.6,M,-47.6,M,,0000*44
$GNGSA,A,3,32,18,10,28,26,27,31,40,08,04,02,,1.06,0.61,0.87*19
$GNGSA,A,3,85,72,86,65,87,76,66,,,,,,1.06,0.61,0.87*18
$GPGSV,5,1,17,02,15,335,26,04,15,236,15,08,30,289,33,10,13,036,19*79
$GPGSV,5,2,17,16,24,203,,18,22,127,09,23,01,075,,26,30,172,11*7D
$GPGSV,5,3,17,27,55,246,37,28,58,076,32,31,66,147,21,32,23,013,27*7B
$GPGSV,5,4,17,36,52,277,32,40,84,353,34,41,58,082,,49,32,274,*7A
$GPGSV,5,5,17,50,10,089,*4A
$GLGSV,3,1,09,65,24,293,24,66,09,246,08,72,16,350,15,74,15,093,11*69
$GLGSV,3,2,09,75,26,145,,76,08,201,09,85,26,150,11,86,79,078,31*68
$GLGSV,3,3,09,87,42,346,37*50
$GNGLL,0419.72120,S,05539.76407,E,135012.00,A,D*69
$GNRMC,135013.00,A,0419.72094,S,05539.76395,E,0.038,,200525,,,D*78
$GNVTG,,T,,M,0.038,N,0.070,K,D*34
$GNGGA,135013.00,0419.72094,S,05539.76395,E,2,12,0.70,27.7,M,-47.6,M,,0000*47
$GNGSA,A,3,32,10,28,27,31,40,08,04,02,,,,1.15,0.70,0.91*11
$GNGSA,A,3,85,72,86,65,87,76,66,,,,,,1.15,0.70,0.91*1D
$GPGSV,5,1,17,02,15,335,26,04,15,236,18,08,30,289,28,10,13,036,21*75
$GPGSV,5,2,17,16,24,203,,18,22,127,07,23,01,075,,26,30,172,07*74
$GPGSV,5,3,17,27,55,246,37,28,58,076,30,31,66,147,23,32,23,013,27*7B
$GPGSV,5,4,17,36,52,277,31,40,84,353,34,41,58,082,,49,32,274,*79
$GPGSV,5,5,17,50,10,089,*4A
$GLGSV,3,1,09,65,24,293,23,66,09,246,09,72,16,350,16,74,15,093,09*65
$GLGSV,3,2,09,75,26,145,,76,08,201,10,85,26,150,09,86,79,078,30*68
$GLGSV,3,3,09,87,42,346,38*5F
$GNGLL,0419.72094,S,05539.76395,E,135013.00,A,D*6A
$GNRMC,135014.00,A,0419.72068,S,05539.76378,E,0.025,,200525,,,D*73
$GNVTG,,T,,M,0.025,N,0.046,K,D*3D
$GNGGA,135014.00,0419.72068,S,05539.76378,E,2,12,0.78,29.0,M,-47.6,M,,0000*41
$GNGSA,A,3,32,18,10,28,26,27,31,40,08,04,02,,1.33,0.78,1.07*1E
$GNGSA,A,3,85,72,86,65,87,76,,,,,,,1.33,0.78,1.07*1F
$GPGSV,5,1,17,02,15,335,25,04,15,236,15,08,30,289,27,10,13,036,21*74
$GPGSV,5,2,17,16,24,203,17,18,22,127,10,23,01,075,,26,30,172,11*73
$GPGSV,5,3,17,27,55,246,38,28,58,076,30,31,66,147,24,32,23,013,28*7C
$GPGSV,5,4,17,36,52,277,29,40,84,353,33,41,58,082,,49,32,274,*77
$GPGSV,5,5,17,50,10,089,*4A
$GLGSV,3,1,09,65,24,293,21,66,09,246,07,72,16,350,16,74,15,093,09*69
$GLGSV,3,2,09,75,26,145,,76,08,201,09,85,26,150,09,86,79,078,30*60
$GLGSV,3,3,09,87,42,346,38*5F
$GNGLL,0419.72068,S,05539.76378,E,135014.00,A,D*6D
$GNRMC,135015.00,A,0419.72056,S,05539.76368,E,0.138,,200525,,,D*73
$GNVTG,,T,,M,0.138,N,0.255,K,D*30
$GNGGA,135015.00,0419.72056,S,05539.76368,E,2,12,0.61,29.5,M,-47.6,M,,0000*41
$GNGSA,A,3,32,18,10,28,26,27,31,40,08,04,02,,1.06,0.61,0.87*19
$GNGSA,A,3,85,72,86,65,87,76,66,,,,,,1.06,0.61,0.87*18
$GPGSV,5,1,17,02,15,335,23,04,15,236,14,08,30,288,28,10,13,036,21*7D
$GPGSV,5,2,17,16,24,203,15,18,22,127,09,23,01,075,,26,30,172,09*70
$GPGSV,5,3,17,27,55,246,37,28,58,076,30,31,66,147,25,32,23,013,28*72
$GPGSV,5,4,17,36,52,277,28,40,84,353,34,41,58,082,,49,32,274,*71
$GPGSV,5,5,17,50,10,089,*4A
$GLGSV,3,1,09,65,24,293,19,66,09,246,08,72,16,350,14,74,15,093,10*67
$GLGSV,3,2,09,75,26,145,,76,08,201,12,85,26,150,11,86,79,078,30*63
$GLGSV,3,3,09,87,42,346,37*50
$GNGLL,0419.72056,S,05539.76368,E,135015.00,A,D*60
$GNRMC,135016.00,A,0419.72036,S,05539.76360,E,0.086,,200525,,,D*7A
$GNVTG,,T,,M,0.086,N,0.159,K,D*3B
$GNGGA,135016.00,0419.72036,S,05539.76360,E,2,12,0.61,30.6,M,-47.6,M,,0000*47
$GNGSA,A,3,32,18,10,28,26,27,31,40,08,04,02,,1.06,0.61,0.87*19
$GNGSA,A,3,85,72,86,65,87,76,66,,,,,,1.06,0.61,0.87*18
$GPGSV,5,1,17,02,15,335,22,04,15,236,14,08,30,288,33,10,13,036,22*75
$GPGSV,5,2,17,16,24,203,11,18,22,127,08,23,01,075,,26,30,172,09*75
$GPGSV,5,3,17,27,55,246,36,28,58,076,31,31,66,147,25,32,23,013,27*7D
$GPGSV,5,4,17,36,52,277,34,40,84,353,33,41,58,082,,49,32,274,*7B
$GPGSV,5,5,17,50,10,089,*4A
$GLGSV,3,1,09,65,24,293,19,66,09,246,08,72,16,350,13,74,15,093,09*68
$GLGSV,3,2,09,75,26,145,,76,08,201,11,85,26,150,12,86,79,078,34*67
$GLGSV,3,3,09,87,42,346,37*50
$GNGLL,0419.72036,S,05539.76360,E,135016.00,A,D*6D
$GNRMC,135017.00,A,0419.72032,S,05539.76355,E,0.062,,200525,,,D*73
$GNVTG,,T,,M,0.062,N,0.114,K,D*38
$GNGGA,135017.00,0419.72032,S,05539.76355,E,2,12,1.03,31.0,M,-47.6,M,,0000*46
$GNGSA,A,3,32,18,10,28,26,27,31,40,08,04,02,,1.67,1.03,1.31*17
$GNGSA,A,3,85,72,86,65,87,76,66,,,,,,1.67,1.03,1.31*16
$GPGSV,5,1,17,02,15,335,25,04,15,236,11,08,30,288,34,10,13,037,21*72
$GPGSV,5,2,17,16,24,203,11,18,22,127,09,23,01,075,,26,30,172,13*7F
$GPGSV,5,3,17,27,55,246,38,28,58,076,31,31,66,147,25,32,23,013,25*71
$GPGSV,5,4,17,36,52,277,34,40,84,353,33,41,58,082,,49,32,274,*7B
$GPGSV,5,5,17,50,10,089,*4A
$GLGSV,3,1,09,65,24,293,20,66,09,246,10,72,16,350,15,74,15,093,07*63
$GLGSV,3,2,09,75,26,145,,76,08,201,09,85,26,150,08,86,79,078,33*62
$GLGSV,3,3,09,87,42,346,34*53
$GNGLL,0419.72032,S,05539.76355,E,135017.00,A,D*6E
$GNRMC,135018.00,A,0419.72021,S,05539.76353,E,0.219,,200525,,,D*76
$GNVTG,,T,,M,0.219,N,0.405,K,D*33
$GNGGA,135018.00,0419.72021,S,05539.76353,E,2,12,0.61,31.2,M,-47.6,M,,0000*4A
$GNGSA,A,3,32,18,10,28,26,27,31,40,08,04,02,,1.06,0.61,0.87*19
$GNGSA,A,3,85,72,86,65,87,76,66,,,,,,1.06,0.61,0.87*18
$GPGSV,5,1,17,02,15,335,27,04,15,236,08,08,30,288,35,10,13,037,21*79
$GPGSV,5,2,17,16,24,203,11,18,22,127,10,23,01,075,,26,30,172,16*72
$GPGSV,5,3,17,27,55,246,37,28,58,076,32,31,66,147,25,32,23,013,25*7D
$GPGSV,5,4,17,36,52,277,35,40,84,353,34,41,58,082,,49,32,274,*7D
$GPGSV,5,5,17,50,10,089,*4A
$GLGSV,3,1,09,65,24,293,20,66,09,246,11,72,16,350,17,74,15,093,05*62
$GLGSV,3,2,09,75,26,145,,76,08,201,09,85,26,150,11,86,79,078,32*6B
$GLGSV,3,3,09,87,42,346,35*52
$GNGLL,0419.72021,S,05539.76353,E,135018.00,A,D*65
$GNRMC,135019.00,A,0419.72009,S,05539.76347,E,0.102,,200525,,,D*71
$GNVTG,,T,,M,0.102,N,0.188,K,D*3A
$GNGGA,135019.00,0419.72009,S,05539.76347,E,2,12,0.61,31.7,M,-47.6,M,,0000*41
$GNGSA,A,3,32,18,10,28,26,27,31,40,08,04,02,,1.06,0.61,0.87*19
$GNGSA,A,3,85,72,86,65,87,76,66,,,,,,1.06,0.61,0.87*18
$GPGSV,5,1,17,02,15,335,26,04,15,236,11,08,30,288,35,10,13,037,19*7B
$GPGSV,5,2,17,16,24,203,09,18,22,127,12,23,01,075,,26,30,172,10*7F
$GPGSV,5,3,17,27,55,246,36,28,58,076,32,31,66,147,24,32,23,013,26*7E
$GPGSV,5,4,17,36,52,277,35,40,84,353,34,41,58,082,,49,32,274,*7D
$GPGSV,5,5,17,50,10,089,*4A
$GLGSV,3,1,09,65,24,293,23,66,09,246,08,72,16,350,18,74,15,093,12*60
$GLGSV,3,2,09,75,26,145,,76,08,201,10,85,26,150,11,86,79,078,32*63
$GLGSV,3,3,09,87,42,346,35*52
$GNGLL,0419.72009,S,05539.76347,E,135019.00,A,D*6B
$GNRMC,135020.00,A,0419.72004,S,05539.76346,E,0.126,,200525,,,D*71
$GNVTG,,T,,M,0.126,N,0.233,K,D*3F
$GNGGA,135020.00,0419.72004,S,05539.76346,E,2,12,0.83,31.8,M,-47.6,M,,0000*44
$GNGSA,A,3,32,18,10,28,26,27,31,40,08,04,02,,1.40,0.83,1.13*1B
$GNGSA,A,3,85,72,86,65,87,66,,,,,,,1.40,0.83,1.13*1B
$GPGSV,5,1,17,02,15,335,24,04,15,236,10,08,30,288,35,10,13,037,18*79
$GPGSV,5,2,17,16,24,203,08,18,22,127,09,23,01,075,,26,30,172,11*75
$GPGSV,5,3,17,27,55,246,36,28,58,076,31,31,66,147,25,32,23,013,26*7C
$GPGSV,5,4,17,36,52,277,35,40,84,353,34,41,58,082,,49,32,274,*7D
$GPGSV,5,5,17,50,10,089,*4A
$GLGSV,3,1,09,65,24,293,24,66,09,246,11,72,16,350,18,74,15,093,08*64
$GLGSV,3,2,09,75,26,145,,76,08,201,07,85,26,150,08,86,79,078,31*6E
$GLGSV,3,3,09,87,42,346,34*53
$GNGLL,0419.72004,S,05539.76346,E,135020.00,A,D*6D
$GNRMC,135021.00,A,0419.71998,S,05539.76343,E,0.062,,200525,,,D*7B
$GNVTG,,T,,M,0.062,N,0.115,K,D*39
$GNGGA,135021.00,0419.71998,S,05539.76343,E,2,12,0.61,32.1,M,-47.6,M,,0000*49
$GNGSA,A,3,32,18,10,28,26,27,31,40,08,04,02,,1.06,0.61,0.87*19
$GNGSA,A,3,85,72,86,65,87,76,66,,,,,,1.06,0.61,0.87*18
$GPGSV,5,1,17,02,15,335,22,04,15,236,11,08,30,288,34,10,13,037,19*7E
$GPGSV,5,2,17,16,24,203,08,18,22,127,10,23,01,075,,26,30,172,08*75
$GPGSV,5,3,17,27,55,246,36,28,58,076,31,31,66,147,24,32,23,013,27*7C
$GPGSV,5,4,17,36,52,277,35,40,84,353,35,41,58,082,,49,32,274,*7C
$GPGSV,5,5,17,50,10,089,*4A
$GLGSV,3,1,09,65,24,293,24,66,09,246,11,72,16,350,19,74,15,093,07*6A
$GLGSV,3,2,09,75,26,145,,76,08,201,09,85,26,150,11,86,79,078,31*68
$GLGSV,3,3,09,87,42,346,34*53
$GNGLL,0419.71998,S,05539.76343,E,135021.00,A,D*66
$GNRMC,135022.00,A,0419.71991,S,05539.76340,E,0.043,,200525,,,D*71
$GNVTG,,T,,M,0.043,N,0.080,K,D*37
$GNGGA,135022.00,0419.71991,S,05539.76340,E,2,12,0.61,32.4,M,-47.6,M,,0000*45
$GNGSA,A,3,32,18,10,28,26,27,31,40,08,04,02,,1.06,0.61,0.87*19
$GNGSA,A,3,85,72,86,65,87,76,66,,,,,,1.06,0.61,0.87*18
$GPGSV,5,1,17,02,15,335,21,04,15,236,14,08,30,288,33,10,13,037,18*7E
$GPGSV,5,2,17,16,24,203,08,18,22,127,16,23,01,075,,26,30,172,11*7B
$GPGSV,5,3,17,27,55,246,36,28,58,076,31,31,66,147,23,32,23,013,27*7B
$GPGSV,5,4,17,36,52,277,35,40,84,353,35,41,58,082,,49,32,274,*7C
$GPGSV,5,5,17,50,10,089,*4A
$GLGSV,3,1,09,65,24,293,23,66,09,246,11,72,16,350,20,74,15,093,09*69
$GLGSV,3,2,09,75,26,145,,76,08,201,09,85,26,150,10,86,79,078,31*69
$GLGSV,3,3,09,87,42,346,34*53
$GNGLL,0419.71991,S,05539.76340,E,135022.00,A,D*6F
$GNRMC,135023.00,A,0419.71985,S,05539.76338,E,0.059,,200525,,,D*71
$GNVTG,,T,,M,0.059,N,0.110,K,D*34
$GNGGA,135023.00,0419.71985,S,05539.76338,E,2,12,0.83,32.6,M,-47.6,M,,0000*40
$GNGSA,A,3,32,18,10,28,26,27,31,40,08,04,02,,1.40,0.83,1.13*1B
$GNGSA,A,3,85,72,86,65,87,76,66,,,,,,1.40,0.83,1.13*1A
$GPGSV,5,1,17,02,15,335,22,04,15,236,10,08,30,288,34,10,13,037,19*7F
$GPGSV,5,2,17,16,24,203,09,18,22,127,09,23,01,075,,26,30,172,10*75
$GPGSV,5,3,17,27,55,246,36,28,58,076,31,31,66,147,23,32,23,013,26*7A
$GPGSV,5,4,17,36,52,277,35,40,84,353,35,41,58,082,,49,32,274,*7C
$GPGSV,5,5,17,50,10,089,*4A
$GLGSV,3,1,09,65,24,293,23,66,09,246,09,72,16,350,21,74,15,093,05*6D
$GLGSV,3,2,09,75,26,145,,76,08,201,10,85,26,150,12,86,79,078,31*63
$GLGSV,3,3,09,87,42,346,34*53
$GNGLL,0419.71985,S,05539.76338,E,135023.00,A,D*64
$GNRMC,135024.00,A,0419.71973,S,05539.76333,E,0.087,,200525,,,D*77
$GNVTG,,T,,M,0.087,N,0.161,K,D*31
$GNGGA,135024.00,0419.71973,S,05539.76333,E,2,12,0.63,33.2,M,-47.6,M,,0000*4E
$GNGSA,A,3,32,18,10,28,26,16,27,31,40,08,02,,1.08,0.63,0.88*19
$GNGSA,A,3,85,72,86,65,87,76,66,,,,,,1.08,0.63,0.88*1B
$GPGSV,5,1,17,02,15,335,23,04,15,236,07,08,30,288,34,10,13,037,19*78
$GPGSV,5,2,17,16,24,203,11,18,22,127,08,23,01,075,,26,30,172,14*79
$GPGSV,5,3,17,27,55,246,36,28,58,076,32,31,66,147,25,32,23,013,26*7F
$GPGSV,5,4,17,36,52,277,35,40,84,353,35,41,58,082,,49,32,274,*7C
$GPGSV,5,5,17,50,10,089,*4A
$GLGSV,3,1,09,65,24,293,23,66,09,246,10,72,16,350,22,74,15,093,07*64
$GLGSV,3,2,09,75,26,145,,76,08,201,10,85,26,150,07,86,79,078,31*67
$GLGSV,3,3,09,87,42,346,34*53
$GNGLL,0419.71973,S,05539.76333,E,135024.00,A,D*61
$GNRMC,135025.00,A,0419.71963,S,05539.76326,E,0.051,,200525,,,D*78
$GNVTG,,T,,M,0.051,N,0.094,K,D*31
$GNGGA,135025.00,0419.71963,S,05539.76326,E,2,12,0.61,33.8,M,-47.6,M,,0000*42
$GNGSA,A,3,32,18,10,28,26,16,27,31,40,08,04,02,1.06,0.61,0.87*1E
$GNGSA,A,3,85,72,86,65,87,76,66,,,,,,1.06,0.61,0.87*18
$GPGSV,5,1,17,02,15,335,24,04,15,236,11,08,30,288,34,10,13,037,20*72
$GPGSV,5,2,17,16,24,203,11,18,21,128,10,23,01,075,,26,30,172,11*79
$GPGSV,5,3,17,27,55,246,36,28,58,076,31,31,66,147,24,32,23,013,26*7D
$GPGSV,5,4,17,36,52,277,35,40,84,353,35,41,58,082,,49,32,274,*7C
$GPGSV,5,5,17,50,10,089,*4A
$GLGSV,3,1,09,65,24,293,24,66,09,246,13,72,16,350,22,74,15,093,05*62
$GLGSV,3,2,09,75,26,145,,76,08,201,09,85,26,150,10,86,79,078,31*69
$GLGSV,3,3,09,87,42,346,34*53
$GNGLL,0419.71963,S,05539.76326,E,135025.00,A,D*65
$GNRMC,135026.00,A,0419.71950,S,05539.76319,E,0.082,,200525,,,D*79
$GNVTG,,T,,M,0.082,N,0.151,K,D*37
$GNGGA,135026.00,0419.71950,S,05539.76319,E,2,12,0.96,34.3,M,-47.6,M,,0000*49
$GNGSA,A,3,32,18,10,28,26,27,31,40,08,04,02,,1.50,0.96,1.15*18
$GNGSA,A,3,85,72,86,65,87,76,66,,,,,,1.50,0.96,1.15*19
$GPGSV,5,1,17,02,15,335,26,04,15,236,10,08,30,288,34,10,13,037,20*71
$GPGSV,5,2,17,16,24,203,09,18,21,128,12,23,01,075,,26,30,172,09*7B
$GPGSV,5,3,17,27,55,246,36,28,58,076,31,31,66,147,24,32,23,013,26*7D
$GPGSV,5,4,17,36,52,277,35,40,84,353,35,41,58,082,,49,32,274,*7C
$GPGSV,5,5,17,50,10,089,*4A
$GLGSV,3,1,09,65,24,293,24,66,09,246,09,72,16,350,22,74,15,093,09*65
$GLGSV,3,2,09,75,26,145,,76,08,201,08,85,26,150,12,86,79,078,32*69
$GLGSV,3,3,09,87,42,346,34*53
$GNGLL,0419.71950,S,05539.76319,E,135026.00,A,D*6A
$GNRMC,135027.00,A,0419.71939,S,05539.76312,E,0.079,,200525,,,D*78
$GNVTG,,T,,M,0.079,N,0.146,K,D*35
$GNGGA,135027.00,0419.71939,S,05539.76312,E,2,12,0.63,34.9,M,-47.6,M,,0000*4C
$GNGSA,A,3,32,18,10,28,26,27,31,40,08,04,02,,1.11,0.63,0.92*19
$GNGSA,A,3,85,72,86,65,87,66,,,,,,,1.11,0.63,0.92*19
$GPGSV,5,1,17,02,15,335,26,04,15,236,08,08,30,288,34,10,13,037,20*78
$GPGSV,5,2,17,16,24,203,08,18,21,128,07,23,01,075,,26,30,172,11*77
$GPGSV,5,3,17,27,55,246,36,28,58,076,31,31,66,147,23,32,23,013,26*7A
$GPGSV,5,4,17,36,52,277,35,40,84,353,35,41,58,082,,49,32,274,*7C
$GPGSV,5,5,17,50,10,089,*4A
$GLGSV,3,1,09,65,24,293,24,66,09,246,12,72,16,350,23,74,15,093,10*66
$GLGSV,3,2,09,75,26,145,,76,08,201,06,85,26,150,09,86,79,078,31*6E
$GLGSV,3,3,09,87,42,346,34*53
$GNGLL,0419.71939,S,05539.76312,E,135027.00,A,D*6F
$GNRMC,135028.00,A,0419.71930,S,05539.76306,E,0.141,,200525,,,D*71
$GNVTG,,T,,M,0.141,N,0.262,K,D*3A
$GNGGA,135028.00,0419.71930,S,05539.76306,E,2,12,0.61,35.2,M,-47.6,M,,0000*47
$GNGSA,A,3,32,18,10,28,26,27,31,40,08,04,02,,1.06,0.61,0.87*19
$GNGSA,A,3,85,72,86,65,87,76,66,,,,,,1.06,0.61,0.87*18
$GPGSV,5,1,17,02,15,335,26,04,15,236,11,08,30,288,34,10,13,037,20*70
$GPGSV,5,2,17,16,24,203,,18,21,128,08,23,01,075,,26,30,172,14*75
$GPGSV,5,3,17,27,55,246,36,28,58,076,31,31,66,147,23,32,23,013,26*7A
$GPGSV,5,4,17,36,52,277,34,40,84,353,35,41,58,082,,49,32,274,*7D
$GPGSV,5,5,17,50,10,089,*4A
$GLGSV,3,1,09,65,24,293,24,66,09,246,08,72,16,350,23,74,15,093,08*64
$GLGSV,3,2,09,75,26,145,,76,08,201,09,85,26,150,11,86,79,078,31*68
$GLGSV,3,3,09,87,42,346,34*53
$GNGLL,0419.71930,S,05539.76306,E,135028.00,A,D*6C
$GNRMC,135029.00,A,0419.71920,S,05539.76304,E,0.120,,200525,,,D*74
$GNVTG,,T,,M,0.120,N,0.222,K,D*39
$GNGGA,135029.00,0419.71920,S,05539.76304,E,2,12,0.91,35.5,M,-47.6,M,,0000*4D
$GNGSA,A,3,32,18,10,28,26,27,31,40,08,04,02,,1.57,0.91,1.28*16
$GNGSA,A,3,85,72,86,65,87,66,,,,,,,1.57,0.91,1.28*16
$GPGSV,5,1,17,02,15,335,24,04,15,236,12,08,30,288,35,10,13,037,19*7A
$GPGSV,5,2,17,16,24,203,,18,21,128,10,23,01,075,,26,30,172,10*78
$GPGSV,5,3,17,27,55,246,37,28,58,076,31,31,66,147,25,32,23,013,27*7C
$GPGSV,5,4,17,36,52,277,37,40,84,353,34,41,58,082,,49,32,274,*7F
$GPGSV,5,5,17,50,10,089,*4A
$GLGSV,3,1,09,65,24,293,23,66,09,246,10,72,16,350,22,74,15,093,10*62
$GLGSV,3,2,09,75,26,145,,76,08,201,08,85,26,150,09,86,79,078,31*60
$GLGSV,3,3,09,87,42,346,35*52
$GNGLL,0419.71920,S,05539.76304,E,135029.00,A,D*6E
$GNRMC,135030.00,A,0419.71908,S,05539.76303,E,0.125,,200525,,,D*74
$GNVTG,,T,,M,0.125,N,0.231,K,D*3E
$GNGGA,135030.00,0419.71908,S,05539.76303,E,2,12,0.63,35.8,M,-47.6,M,,0000*48
$GNGSA,A,3,32,18,10,28,26,27,31,40,08,04,02,,1.11,0.63,0.92*19
$GNGSA,A,3,85,72,86,65,87,66,,,,,,,1.11,0.63,0.92*19
$GPGSV,5,1,17,02,15,335,22,04,15,236,09,08,30,288,34,10,13,037,19*77
$GPGSV,5,2,17,16,24,203,,18,21,128,13,23,01,075,,26,30,172,10*7B
$GPGSV,5,3,17,27,55,246,37,28,58,076,31,31,66,147,26,32,23,013,28*70
$GPGSV,5,4,17,36,52,277,37,40,84,353,33,41,58,082,,49,32,274,*78
$GPGSV,5,5,17,50,10,089,*4A
$GLGSV,3,1,09,65,24,293,21,66,09,246,09,72,16,350,21,74,15,093,10*6B
$GLGSV,3,2,09,75,26,145,,76,08,201,08,85,26,150,09,86,79,078,30*61
$GLGSV,3,3,09,87,42,346,36*51
$GNGLL,0419.71908,S,05539.76303,E,135030.00,A,D*6B
$GNRMC,135031.00,A,0419.71896,S,05539.76297,E,0.052,,200525,,,D*7E
$GNVTG,,T,,M,0.052,N,0.095,K,D*33
$GNGGA,135031.00,0419.71896,S,05539.76297,E,2,12,0.63,36.3,M,-47.6,M,,0000*4B
$GNGSA,A,3,32,18,10,28,26,27,31,40,08,04,02,,1.11,0.63,0.92*19
$GNGSA,A,3,85,72,86,65,87,66,,,,,,,1.11,0.63,0.92*19
$GPGSV,5,1,17,02,15,335,22,04,15,236,10,08,30,288,34,10,13,037,18*7E
$GPGSV,5,2,17,16,24,203,,18,21,128,09,23,01,075,,26,30,172,12*72
$GPGSV,5,3,17,27,55,246,37,28,58,076,31,31,66,147,26,32,23,013,27*7F
$GPGSV,5,4,17,36,52,277,36,40,84,353,32,41,58,082,,49,32,274,*78
$GPGSV,5,5,17,50,10,089,*4A
$GLGSV,3,1,09,65,24,293,20,66,09,246,10,72,16,350,21,74,15,093,07*64
$GLGSV,3,2,09,75,26,145,,76,08,201,10,85,26,150,12,86,79,078,30*62
$GLGSV,3,3,09,87,42,346,35*52
$GNGLL,0419.71896,S,05539.76297,E,135031.00,A,D*60
$GNRMC,135032.00,A,0419.71886,S,05539.76293,E,0.045,,200525,,,D*7E
$GNVTG,,T,,M,0.045,N,0.083,K,D*32
$GNGGA,135032.00,0419.71886,S,05539.76293,E,2,12,0.77,36.7,M,-47.6,M,,0000*4C
$GNGSA,A,3,32,18,10,28,26,27,31,40,08,04,02,,1.29,0.77,1.04*19
$GNGSA,A,3,85,72,86,65,87,,,,,,,,1.29,0.77,1.04*19
$GPGSV,5,1,17,02,15,335,24,04,15,236,15,08,30,288,34,10,13,037,19*7C
$GPGSV,5,2,17,16,24,203,,18,21,128,09,23,01,075,,26,30,172,10*70
$GPGSV,5,3,17,27,55,246,37,28,58,076,31,31,66,147,27,32,23,013,27*7E
$GPGSV,5,4,17,36,52,277,36,40,84,353,33,41,58,082,,49,32,274,*79
$GPGSV,5,5,17,50,10,089,*4A
$GLGSV,3,1,09,65,24,293,20,66,09,246,06,72,16,350,20,74,15,093,05*60
$GLGSV,3,2,09,75,26,145,,76,08,201,13,85,26,150,11,86,79,078,30*62
$GLGSV,3,3,09,87,42,346,35*52
$GNGLL,0419.71886,S,05539.76293,E,135032.00,A,D*66
$GNRMC,135033.00,A,0419.71873,S,05539.76282,E,0.075,,200525,,,D*76
$GNVTG,,T,,M,0.075,N,0.140,K,D*3F
$GNGGA,135033.00,0419.71873,S,05539.76282,E,2,12,0.63,37.2,M,-47.6,M,,0000*46
$GNGSA,A,3,32,18,10,28,26,27,31,40,08,04,02,,1.11,0.63,0.92*19
$GNGSA,A,3,85,72,86,65,87,66,,,,,,,1.11,0.63,0.92*19
$GPGSV,5,1,17,02,15,335,24,04,15,236,15,08,30,288,34,10,13,037,19*7C
$GPGSV,5,2,17,16,24,203,,18,21,128,14,23,01,075,,26,30,172,11*7D
$GPGSV,5,3,17,27,54,245,37,28,58,076,31,31,66,147,27,32,23,013,29*72
$GPGSV,5,4,17,36,52,277,36,40,84,353,33,41,58,082,,49,32,274,*79
$GPGSV,5,5,17,50,10,089,*4A
$GLGSV,3,1,09,65,24,293,21,66,09,246,08,72,16,350,21,74,15,093,07*6C
$GLGSV,3,2,09,75,26,145,,76,08,201,05,85,26,150,09,86,79,078,31*6D
$GLGSV,3,3,09,87,42,346,36*51
$GNGLL,0419.71873,S,05539.76282,E,135033.00,A,D*6D
$GNRMC,135034.00,A,0419.71863,S,05539.76273,E,0.038,,200525,,,D*77
$GNVTG,,T,,M,0.038,N,0.070,K,D*34
$GNGGA,135034.00,0419.71863,S,05539.76273,E,2,12,0.67,37.5,M,-47.6,M,,0000*4D
$GNGSA,A,3,32,18,10,28,26,27,31,40,08,04,02,,1.16,0.67,0.94*1C
$GNGSA,A,3,72,86,65,87,66,,,,,,,,1.16,0.67,0.94*11
$GPGSV,5,1,17,02,15,335,24,04,15,236,15,08,30,288,34,10,13,037,18*7D
$GPGSV,5,2,17,16,24,203,,18,21,128,09,23,01,075,,26,30,172,10*70
$GPGSV,5,3,17,27,54,245,37,28,58,075,31,31,66,147,26,32,23,013,29*70
$GPGSV,5,4,17,36,52,277,35,40,84,353,33,41,58,082,,49,32,274,*7A
$GPGSV,5,5,17,50,10,089,*4A
$GLGSV,3,1,09,65,24,293,22,66,09,246,08,72,16,350,21,74,15,093,09*61
$GLGSV,3,2,09,75,26,145,,76,08,201,12,85,26,150,06,86,79,078,32*67
$GLGSV,3,3,09,87,42,346,35*52
$GNGLL,0419.71863,S,05539.76273,E,135034.00,A,D*65
$GNRMC,135035.00,A,0419.71855,S,05539.76265,E,0.133,,200525,,,D*7E
$GNVTG,,T,,M,0.133,N,0.246,K,D*39
$GNGGA,135035.00,0419.71855,S,05539.76265,E,2,12,0.83,37.8,M,-47.6,M,,0000*49
$GNGSA,A,3,32,18,10,28,26,27,31,40,08,02,,,1.37,0.83,1.10*1C
$GNGSA,A,3,85,72,86,65,87,66,,,,,,,1.37,0.83,1.10*18
$GPGSV,5,1,17,02,15,335,24,04,15,236,09,08,30,288,34,10,13,037,17*7F
$GPGSV,5,2,17,16,24,203,14,18,21,128,13,23,01,075,,26,30,172,12*7C
$GPGSV,5,3,17,27,54,245,37,28,58,075,31,31,66,147,26,32,23,013,29*70
$GPGSV,5,4,17,36,52,277,36,40,84,353,33,41,58,082,,49,32,274,*79
$GPGSV,5,5,17,50,10,089,*4A
$GLGSV,3,1,09,65,24,293,23,66,09,246,11,72,16,350,21,74,15,093,08*69
$GLGSV,3,2,09,75,26,145,,76,08,201,08,85,26,150,10,86,79,078,31*68
$GLGSV,3,3,09,87,42,346,35*52
$GNGLL,0419.71855,S,05539.76265,E,135035.00,A,D*66
$GNRMC,135036.00,A,0419.71851,S,05539.76261,E,0.131,,200525,,,D*7F
$GNVTG,,T,,M,0.131,N,0.242,K,D*3F
$GNGGA,135036.00,0419.71851,S,05539.76261,E,2,12,0.67,37.9,M,-47.6,M,,0000*41
$GNGSA,A,3,32,18,10,28,26,27,31,40,08,02,,,1.15,0.67,0.94*1B
$GNGSA,A,3,85,72,86,65,87,66,,,,,,,1.15,0.67,0.94*1F
$GPGSV,5,1,17,02,15,335,24,04,15,236,10,08,30,288,35,10,13,037,15*74
$GPGSV,5,2,17,16,24,203,,18,21,128,11,23,01,075,,26,30,172,09*71
$GPGSV,5,3,17,27,54,245,37,28,58,075,31,31,66,147,27,32,23,013,29*71
$GPGSV,5,4,17,36,52,277,36,40,84,353,33,41,58,082,,49,32,274,*79
$GPGSV,5,5,17,50,10,089,*4A
$GLGSV,3,1,09,65,24,293,23,66,09,246,09,72,16,350,21,74,15,093,10*69
$GLGSV,3,2,09,75,26,145,,76,08,201,08,85,26,150,09,86,79,078,31*60
$GLGSV,3,3,09,87,42,346,35*52
$GNGLL,0419.71851,S,05539.76261,E,135036.00,A,D*65
$GNRMC,135037.00,A,0419.71845,S,05539.76258,E,0.103,,200525,,,D*70
$GNVTG,,T,,M,0.103,N,0.191,K,D*33
$GNGGA,135037.00,0419.71845,S,05539.76258,E,2,12,0.67,38.1,M,-47.6,M,,0000*48
$GNGSA,A,3,32,18,10,28,26,27,31,40,08,04,02,,1.15,0.67,0.94*1F
$GNGSA,A,3,85,72,86,65,87,66,,,,,,,1.15,0.67,0.94*1F
$GPGSV,5,1,17,02,15,335,25,04,15,236,11,08,30,288,33,10,13,037,14*73
$GPGSV,5,2,17,16,24,203,,18,21,128,09,23,01,075,,26,30,172,10*70
$GPGSV,5,3,17,27,54,245,34,28,58,075,31,31,66,146,27,32,23,013,28*72
$GPGSV,5,4,17,36,52,277,34,40,84,353,34,41,58,082,,49,32,274,*7C
$GPGSV,5,5,17,50,10,089,*4A
$GLGSV,3,1,09,65,24,293,22,66,09,246,08,72,16,350,21,74,15,093,07*6F
$GLGSV,3,2,09,75,26,145,,76,08,201,07,85,26,150,09,86,79,078,33*6D
$GLGSV,3,3,09,87,42,346,36*51
$GNGLL,0419.71845,S,05539.76258,E,135037.00,A,D*6B
$GNRMC,135038.00,A,0419.71845,S,05539.76258,E,0.068,,200525,,,D*73
$GNVTG,,T,,M,0.068,N,0.127,K,D*32
$GNGGA,135038.00,0419.71845,S,05539.76258,E,2,12,0.80,38.1,M,-47.6,M,,0000*4E
$GNGSA,A,3,32,18,10,28,26,27,31,40,08,04,02,,1.37,0.80,1.11*1A
$GNGSA,A,3,85,72,86,65,87,76,66,,,,,,1.37,0.80,1.11*1B
$GPGSV,5,1,17,02,15,335,26,04,15,236,13,08,30,288,29,10,13,037,15*78
$GPGSV,5,2,17,16,24,203,14,18,21,128,09,23,01,075,,26,30,172,10*75
$GPGSV,5,3,17,27,54,245,36,28,58,075,31,31,66,146,26,32,22,013,26*7E
$GPGSV,5,4,17,36,52,277,33,40,84,353,33,41,58,082,,49,32,274,*7C
$GPGSV,5,5,17,50,10,089,*4A
$GLGSV,3,1,09,65,24,293,21,66,09,246,09,72,16,350,20,74,15,093,09*62
$GLGSV,3,2,09,75,26,145,,76,08,201,09,85,26,150,10,86,79,078,32*6A
$GLGSV,3,3,09,87,42,346,36*51
$GNGLL,0419.71845,S,05539.76258,E,135038.00,A,D*64
$GNRMC,135039.00,A,0419.71838,S,05539.76253,E,0.046,,200525,,,D*7F
$GNVTG,,T,,M,0.046,N,0.085,K,D*37
$GNGGA,135039.00,0419.71838,S,05539.76253,E,2,12,0.61,38.5,M,-47.6,M,,0000*45
$GNGSA,A,3,32,18,10,28,26,27,31,40,08,04,02,,1.06,0.61,0.87*19
$GNGSA,A,3,85,72,86,65,87,76,66,,,,,,1.06,0.61,0.87*18
$GPGSV,5,1,17,02,15,335,26,04,15,236,12,08,30,288,34,10,13,037,14*74
$GPGSV,5,2,17,16,24,203,15,18,21,128,14,23,01,075,,26,30,172,18*70
$GPGSV,5,3,17,27,54,245,36,28,58,075,31,31,66,146,27,32,22,013,26*7F
$GPGSV,5,4,17,36,52,277,34,40,84,353,33,41,58,082,,49,32,274,*7B
$GPGSV,5,5,17,50,10,089,*4A
$GLGSV,3,1,09,65,24,293,20,66,09,246,12,72,16,350,19,74,15,093,07*6D
$GLGSV,3,2,09,75,26,145,,76,08,201,08,85,26,150,09,86,79,078,32*63
$GLGSV,3,3,09,87,42,346,36*51
$GNGLL,0419.71838,S,05539.76253,E,135039.00,A,D*64
$GNRMC,135040.00,A,0419.71832,S,05539.76250,E,0.016,,200525,,,D*7D
$GNVTG,,T,,M,0.016,N,0.030,K,D*3C
$GNGGA,135040.00,0419.71832,S,05539.76250,E,2,12,0.61,38.8,M,-47.6,M,,0000*4F
$GNGSA,A,3,32,18,10,28,26,27,31,40,08,04,02,,1.06,0.61,0.87*19
$GNGSA,A,3,85,72,86,65,87,76,66,,,,,,1.06,0.61,0.87*18
$GPGSV,5,1,17,02,15,335,27,04,15,236,10,08,30,288,33,10,13,037,16*72
$GPGSV,5,2,17,16,24,203,15,18,21,128,09,23,01,075,,26,30,172,16*72
$GPGSV,5,3,17,27,54,245,34,28,58,075,31,31,66,146,26,32,22,013,25*7F
$GPGSV,5,4,17,36,52,277,34,40,84,353,34,41,58,082,,49,32,274,*7C
$GPGSV,5,5,17,50,10,089,*4A
$GLGSV,3,1,09,65,24,293,20,66,09,246,10,72,16,350,19,74,15,093,09*61
$GLGSV,3,2,09,75,26,145,,76,08,201,08,85,26,150,10,86,79,078,30*69
$GLGSV,3,3,09,87,42,346,36*51
$GNGLL,0419.71832,S,05539.76250,E,135040.00,A,D*63
$GNRMC,135041.00,A,0419.71830,S,05539.76248,E,0.079,,200525,,,D*7E
$GNVTG,,T,,M,0.079,N,0.146,K,D*35
$GNGGA,135041.00,0419.71830,S,05539.76248,E,2,12,0.79,39.0,M,-47.6,M,,0000*45
$GNGSA,A,3,32,18,10,28,26,27,31,40,08,02,,,1.26,0.79,0.98*18
$GNGSA,A,3,85,72,86,65,87,76,66,,,,,,1.26,0.79,0.98*1D
$GPGSV,5,1,17,02,15,335,28,04,15,236,08,08,30,288,29,10,13,037,16*7F
$GPGSV,5,2,17,16,24,203,15,18,21,128,13,23,01,075,,26,30,172,11*7E
$GPGSV,5,3,17,27,54,245,33,28,58,075,31,31,66,146,26,32,22,013,24*79
$GPGSV,5,4,17,36,52,277,32,40,84,353,34,41,58,082,,49,32,274,*7A
$GPGSV,5,5,17,50,10,089,*4A
$GLGSV,3,1,09,65,24,293,18,66,09,246,10,72,16,350,20,74,15,093,07*6E
$GLGSV,3,2,09,75,26,145,,76,08,201,07,85,26,150,10,86,79,078,31*67
$GLGSV,3,3,09,87,42,346,34*53
$GNGLL,0419.71830,S,05539.76248,E,135041.00,A,D*69
$GNRMC,135042.00,A,0419.71821,S,05539.76242,E,0.138,,200525,,,D*73
$GNVTG,,T,,M,0.138,N,0.256,K,D*33
$GNGGA,135042.00,0419.71821,S,05539.76242,E,2,12,0.61,39.4,M,-47.6,M,,0000*41
$GNGSA,A,3,32,18,10,28,26,16,27,31,40,08,04,02,1.10,0.61,0.91*1E
$GNGSA,A,3,85,72,86,65,87,66,,,,,,,1.10,0.61,0.91*19
$GPGSV,5,1,17,02,15,335,27,04,15,236,08,08,30,288,29,10,13,037,18*7E
$GPGSV,5,2,17,16,24,203,15,18,21,128,09,23,01,075,,26,30,172,12*76
$GPGSV,5,3,17,27,54,245,35,28,58,075,31,31,66,146,24,32,22,013,24*7D
$GPGSV,5,4,17,36,52,277,35,40,84,353,31,41,58,082,35,49,32,274,*7E
$GPGSV,5,5,17,50,10,089,*4A
$GLGSV,3,1,09,65,24,293,16,66,09,246,09,72,16,350,19,74,15,093,08*6D
$GLGSV,3,2,09,75,26,145,,76,08,201,07,85,26,150,10,86,79,078,26*61
$GLGSV,3,3,09,87,42,346,31*56
$GNGLL,0419.71821,S,05539.76242,E,135042.00,A,D*60
$GNRMC,135043.00,A,0419.71819,S,05539.76239,E,0.153,,200525,,,D*78
$GNVTG,,T,,M,0.153,N,0.283,K,D*36
$GNGGA,135043.00,0419.71819,S,05539.76239,E,2,12,0.61,39.4,M,-47.6,M,,0000*47
$GNGSA,A,3,32,18,10,28,26,16,27,31,40,08,04,02,1.10,0.61,0.91*1E
$GNGSA,A,3,85,72,86,65,87,66,,,,,,,1.10,0.61,0.91*19
$GPGSV,5,1,17,02,15,335,27,04,15,236,12,08,30,288,33,10,13,037,19*7F
$GPGSV,5,2,17,16,24,203,14,18,21,128,09,23,01,075,,26,30,172,13*76
$GPGSV,5,3,17,27,54,245,35,28,58,075,31,31,66,146,25,32,22,013,26*7E
$GPGSV,5,4,17,36,52,277,34,40,84,353,33,41,58,082,34,49,32,274,*7C
$GPGSV,5,5,17,50,10,089,*4A
$GLGSV,3,1,09,65,24,293,15,66,09,246,07,72,16,350,18,74,15,093,07*6E
$GLGSV,3,2,09,75,26,145,,76,08,201,07,85,26,150,08,86,79,078,27*69
$GLGSV,3,3,09,87,42,346,31*56
$GNGLL,0419.71819,S,05539.76239,E,135043.00,A,D*66
$GNRMC,135044.00,A,0419.71831,S,05539.76243,E,0.127,,200525,,,D*7B
$GNVTG,,T,,M,0.127,N,0.235,K,D*38
$GNGGA,135044.00,0419.71831,S,05539.76243,E,2,12,0.77,39.0,M,-47.6,M,,0000*44
$GNGSA,A,3,32,18,10,28,26,16,27,31,40,08,04,02,1.30,0.77,1.04*16
$GNGSA,A,3,85,72,86,65,87,66,,,,,,,1.30,0.77,1.04*11
$GPGSV,5,1,17,02,15,335,27,04,15,236,11,08,30,288,33,10,13,037,18*7D
$GPGSV,5,2,17,16,24,203,13,18,21,128,09,23,01,075,,26,30,172,14*76
$GPGSV,5,3,17,27,54,245,36,28,58,075,30,31,66,146,26,32,22,013,27*7E
$GPGSV,5,4,17,36,52,277,34,40,84,353,32,41,58,082,35,49,32,274,*7C
$GPGSV,5,5,17,50,10,089,*4A
$GLGSV,3,1,09,65,24,293,18,66,09,246,09,72,16,350,18,74,15,093,07*6D
$GLGSV,3,2,09,75,26,145,,76,08,201,10,85,26,150,10,86,79,078,29*68
$GLGSV,3,3,09,87,42,346,32*55
$GNGLL,0419.71831,S,05539.76243,E,135044.00,A,D*66
$GNRMC,135045.00,A,0419.71822,S,05539.76234,E,0.097,,200525,,,D*72
$GNVTG,,T,,M,0.097,N,0.180,K,D*3F
$GNGGA,135045.00,0419.71822,S,05539.76234,E,2,12,0.61,39.5,M,-47.6,M,,0000*45
$GNGSA,A,3,32,18,10,28,26,16,27,31,40,08,04,02,1.18,0.61,1.01*1E
$GNGSA,A,3,85,72,86,65,87,66,,,,,,,1.18,0.61,1.01*19
$GPGSV,5,1,17,02,15,335,27,04,15,236,12,08,30,288,33,10,13,037,15*73
$GPGSV,5,2,17,16,24,203,13,18,21,128,08,23,01,075,,26,30,172,15*76
$GPGSV,5,3,17,27,54,245,35,28,58,075,29,31,66,146,25,32,22,013,27*76
$GPGSV,5,4,17,36,52,277,34,40,84,353,31,41,58,082,34,49,32,274,*7E
$GPGSV,5,5,17,50,10,089,*4A
$GLGSV,3,1,09,65,24,293,20,66,09,246,13,72,16,350,18,74,15,093,11*6A
$GLGSV,3,2,09,75,26,145,,76,08,201,11,85,26,150,11,86,79,078,29*68
$GLGSV,3,3,09,87,42,346,32*55
$GNGLL,0419.71822,S,05539.76234,E,135045.00,A,D*65
$GNRMC,135046.00,A,0419.71823,S,05539.76233,E,0.074,,200525,,,D*7A
$GNVTG,,T,,M,0.074,N,0.137,K,D*3E
$GNGGA,135046.00,0419.71823,S,05539.76233,E,2,12,0.61,39.6,M,-47.6,M,,0000*43
$GNGSA,A,3,32,18,10,28,26,16,27,31,40,08,04,02,1.10,0.61,0.91*1E
$GNGSA,A,3,85,72,86,65,87,66,,,,,,,1.10,0.61,0.91*19
$GPGSV,5,1,17,02,15,335,28,04,15,236,13,08,30,288,33,10,13,037,11*79
$GPGSV,5,2,17,16,24,203,11,18,21,128,12,23,01,075,,26,30,172,14*7E
$GPGSV,5,3,17,27,54,245,35,28,58,075,29,31,66,146,25,32,22,013,27*76
$GPGSV,5,4,17,36,52,277,34,40,84,353,31,41,58,082,34,49,32,274,*7E
$GPGSV,5,5,17,50,10,089,*4A
$GLGSV,3,1,09,65,24,293,20,66,09,246,11,72,16,350,17,74,15,093,10*66
$GLGSV,3,2,09,75,26,145,,76,08,201,10,85,26,150,11,86,79,078,28*68
$GLGSV,3,3,09,87,42,346,32*55
$GNGLL,0419.71823,S,05539.76233,E,135046.00,A,D*60
$GNRMC,135047.00,A,0419.71858,S,05539.76252,E,0.372,,200525,,,D*75
$GNVTG,,T,,M,0.372,N,0.689,K,D*39
$GNGGA,135047.00,0419.71858,S,05539.76252,E,2,12,0.74,38.5,M,-47.6,M,,0000*4F
$GNGSA,A,3,32,18,10,28,26,16,27,31,40,08,04,02,1.20,0.74,0.95*1D
$GNGSA,A,3,72,86,65,87,76,66,,,,,,,1.20,0.74,0.95*16
$GPGSV,5,1,17,02,15,335,29,04,15,236,09,08,30,288,33,10,13,037,08*7B
$GPGSV,5,2,17,16,24,203,12,18,21,128,11,23,01,075,,26,30,172,13*79
$GPGSV,5,3,17,27,54,245,35,28,58,075,29,31,66,146,26,32,22,013,27*75
$GPGSV,5,4,17,36,52,277,35,40,84,353,31,41,58,082,34,49,32,274,*7F
$GPGSV,5,5,17,50,10,089,*4A
$GLGSV,3,1,09,65,24,293,21,66,09,246,12,72,16,350,18,74,15,093,08*62
$GLGSV,3,2,09,75,26,145,,76,08,201,08,85,26,150,06,86,79,078,28*67
$GLGSV,3,3,09,87,42,346,32*55
$GNGLL,0419.71858,S,05539.76252,E,135047.00,A,D*6A
$GNRMC,135048.00,A,0419.71855,S,05539.76249,E,0.112,,200525,,,D*79
$GNVTG,,T,,M,0.112,N,0.207,K,D*3F
$GNGGA,135048.00,0419.71855,S,05539.76249,E,2,12,0.63,38.8,M,-47.6,M,,0000*4C
$GNGSA,A,3,32,18,10,28,26,27,31,40,08,04,02,,1.15,0.63,0.96*19
$GNGSA,A,3,85,72,86,65,87,76,66,,,,,,1.15,0.63,0.96*18
$GPGSV,5,1,17,02,15,335,29,04,15,236,10,08,30,288,33,10,13,037,10*7A
$GPGSV,5,2,17,16,24,203,12,18,21,128,11,23,01,075,,26,30,172,12*78
$GPGSV,5,3,17,27,54,245,35,28,58,075,29,31,66,146,26,32,22,013,26*74
$GPGSV,5,4,17,36,52,277,35,40,84,353,31,41,58,082,34,49,32,274,*7F
$GPGSV,5,5,17,50,10,089,*4A
$GLGSV,3,1,09,65,24,293,21,66,09,246,12,72,16,350,19,74,15,093,11*6B
$GLGSV,3,2,09,75,26,145,,76,08,201,09,85,26,150,09,86,79,078,31*61
$GLGSV,3,3,09,87,42,346,34*53
$GNGLL,0419.71855,S,05539.76249,E,135048.00,A,D*62
$GNRMC,135049.00,A,0419.71857,S,05539.76251,E,0.137,,200525,,,D*74
$GNVTG,,T,,M,0.137,N,0.254,K,D*3E
$GNGGA,135049.00,0419.71857,S,05539.76251,E,2,12,0.63,38.9,M,-47.6,M,,0000*47
$GNGSA,A,3,32,18,10,28,26,27,31,40,08,04,02,,1.15,0.63,0.96*19
$GNGSA,A,3,85,72,86,65,87,76,66,,,,,,1.15,0.63,0.96*18
$GPGSV,5,1,17,02,15,335,28,04,15,236,08,08,30,288,31,10,13,037,13*73
$GPGSV,5,2,17,16,24,203,11,18,21,128,08,23,01,075,,26,30,172,14*75
$GPGSV,5,3,17,27,54,245,31,28,58,075,30,31,66,146,25,32,22,013,25*78
$GPGSV,5,4,17,36,52,277,32,40,84,353,32,41,58,082,34,49,32,274,*7B
$GPGSV,5,5,17,50,10,089,*4A
$GLGSV,3,1,09,65,24,293,20,66,09,246,12,72,16,350,19,74,15,093,08*62
$GLGSV,3,2,09,75,26,145,,76,08,201,07,85,26,150,10,86,79,078,31*67
$GLGSV,3,3,09,87,42,346,33*54
$GNGLL,0419.71857,S,05539.76251,E,135049.00,A,D*68
$GNRMC,135050.00,A,0419.71856,S,05539.76251,E,0.108,,200525,,,D*71
$GNVTG,,T,,M,0.108,N,0.200,K,D*33
$GNGGA,135050.00,0419.71856,S,05539.76251,E,2,12,0.93,39.1,M,-47.6,M,,0000*48
$GNGSA,A,3,32,18,10,28,26,16,27,31,40,08,04,02,1.56,0.93,1.25*1F
$GNGSA,A,3,85,72,86,65,87,66,,,,,,,1.56,0.93,1.25*18
$GPGSV,5,1,17,02,15,335,28,04,15,236,14,08,30,288,31,10,13,037,12*7F
$GPGSV,5,2,17,16,24,203,12,18,21,128,13,23,01,075,,26,30,172,15*7D
$GPGSV,5,3,17,27,54,245,32,28,58,075,31,31,66,146,26,32,22,013,26*7A
$GPGSV,5,4,17,36,52,277,32,40,84,353,35,41,58,082,35,49,32,274,*7D
$GPGSV,5,5,17,50,10,089,*4A
$GLGSV,3,1,09,65,24,293,20,66,09,246,08,72,16,350,20,74,15,093,05*6E
$GLGSV,3,2,09,75,26,145,,76,08,201,11,85,26,150,11,86,79,078,31*61
$GLGSV,3,3,09,87,42,346,33*54
$GNGLL,0419.71856,S,05539.76251,E,135050.00,A,D*61
$GNRMC,135051.00,A,0419.71860,S,05539.76249,E,0.152,,200525,,,D*73
$GNVTG,,T,,M,0.152,N,0.281,K,D*35
$GNGGA,135051.00,0419.71860,S,05539.76249,E,2,12,0.63,39.1,M,-47.6,M,,0000*4A
$GNGSA,A,3,32,18,10,28,26,16,27,31,40,08,04,02,1.11,0.63,0.91*1D
$GNGSA,A,3,85,72,86,65,87,66,,,,,,,1.11,0.63,0.91*1A
$GPGSV,5,1,17,02,15,335,29,04,15,236,11,08,30,288,34,10,13,037,15*79
$GPGSV,5,2,17,16,24,203,15,18,21,128,09,23,01,075,,26,30,172,16*72
$GPGSV,5,3,17,27,54,245,36,28,58,075,31,31,66,146,25,32,22,013,24*7F
$GPGSV,5,4,17,36,52,277,33,40,84,353,35,41,58,082,35,49,32,274,*7C
$GPGSV,5,5,17,50,10,089,*4A
$GLGSV,3,1,09,65,24,293,19,66,09,246,09,72,16,350,21,74,15,093,10*60
$GLGSV,3,2,09,75,26,145,,76,08,201,10,85,26,150,12,86,79,078,31*63
$GLGSV,3,3,09,87,42,346,32*55
$GNGLL,0419.71860,S,05539.76249,E,135051.00,A,D*6C
$GNRMC,135052.00,A,0419.71852,S,05539.76243,E,0.143,,200525,,,D*7B
$GNVTG,,T,,M,0.143,N,0.264,K,D*3E
$GNGGA,135052.00,0419.71852,S,05539.76243,E,2,12,0.63,39.4,M,-47.6,M,,0000*47
$GNGSA,A,3,32,18,10,28,26,16,27,31,40,08,04,02,1.11,0.63,0.91*1D
$GNGSA,A,3,85,72,86,65,87,66,,,,,,,1.11,0.63,0.91*1A
$GPGSV,5,1,17,02,15,335,28,04,15,236,15,08,30,288,35,10,13,037,16*7E
$GPGSV,5,2,17,16,24,203,15,18,21,128,11,23,01,075,,26,30,172,16*7B
$GPGSV,5,3,17,27,54,245,34,28,58,075,31,31,66,146,25,32,22,013,23*7A
$GPGSV,5,4,17,36,52,277,33,40,84,353,35,41,58,082,36,49,32,274,*7F
$GPGSV,5,5,17,50,10,089,*4A
$GLGSV,3,1,09,65,24,293,21,66,09,246,09,72,16,350,21,74,15,093,07*6D
$GLGSV,3,2,09,75,26,145,,76,08,201,06,85,26,150,08,86,79,078,30*6E
$GLGSV,3,3,09,87,42,346,34*53
$GNGLL,0419.71852,S,05539.76243,E,135052.00,A,D*64
$GNRMC,135053.00,A,0419.71844,S,05539.76238,E,0.053,,200525,,,D*71
$GNVTG,,T,,M,0.053,N,0.098,K,D*3F
$GNGGA,135053.00,0419.71844,S,05539.76238,E,2,12,1.07,39.8,M,-47.6,M,,0000*42
$GNGSA,A,3,32,18,28,26,16,27,31,40,08,04,02,,1.82,1.07,1.47*1F
$GNGSA,A,3,85,72,86,65,87,66,,,,,,,1.82,1.07,1.47*19
$GPGSV,5,1,17,02,15,335,31,04,15,236,13,08,30,288,34,10,13,037,03*75
$GPGSV,5,2,17,16,24,203,14,18,21,128,07,23,01,075,,26,30,172,15*7E
$GPGSV,5,3,17,27,54,245,35,28,58,075,31,31,66,146,25,32,22,013,24*7C
$GPGSV,5,4,17,36,52,277,33,40,84,353,36,41,58,082,36,49,32,274,*7C
$GPGSV,5,5,17,50,10,089,*4A
$GLGSV,3,1,09,65,24,293,23,66,09,246,09,72,16,350,21,74,15,093,08*60
$GLGSV,3,2,09,75,26,145,,76,08,201,08,85,26,150,11,86,79,078,31*69
$GLGSV,3,3,09,87,42,346,36*51
$GNGLL,0419.71844,S,05539.76238,E,135053.00,A,D*6E
$GNRMC,135054.00,A,0419.71836,S,05539.76230,E,0.052,,200525,,,D*7A
$GNVTG,,T,,M,0.052,N,0.097,K,D*31
$GNGGA,135054.00,0419.71836,S,05539.76230,E,2,12,0.68,40.1,M,-47.6,M,,0000*47
$GNGSA,A,3,32,18,28,26,16,27,31,40,08,04,02,,1.20,0.68,0.98*1C
$GNGSA,A,3,85,72,86,65,87,66,,,,,,,1.20,0.68,0.98*1A
$GPGSV,5,1,17,02,15,335,30,04,15,236,15,08,30,288,31,10,13,037,08*7C
$GPGSV,5,2,17,16,24,203,13,18,21,128,07,23,01,075,,26,30,172,14*78
$GPGSV,5,3,17,27,54,245,35,28,58,075,32,31,66,146,24,32,22,013,25*7F
$GPGSV,5,4,17,36,52,277,35,40,84,353,36,41,58,082,36,49,32,274,*7A
$GPGSV,5,5,17,50,10,089,*4A
$GLGSV,3,1,09,65,24,293,22,66,09,246,09,72,16,350,20,74,15,093,12*6B
$GLGSV,3,2,09,75,26,145,,76,08,201,09,85,26,150,10,86,79,078,31*69
$GLGSV,3,3,09,87,42,346,36*51
$GNGLL,0419.71836,S,05539.76230,E,135054.00,A,D*64
$GNRMC,135055.00,A,0419.71829,S,05539.76225,E,0.040,,200525,,,D*72
$GNVTG,,T,,M,0.040,N,0.073,K,D*38
$GNGGA,135055.00,0419.71829,S,05539.76225,E,2,12,0.63,40.3,M,-47.6,M,,0000*45
$GNGSA,A,3,32,18,10,28,26,16,27,31,40,08,04,02,1.11,0.63,0.91*1D
$GNGSA,A,3,85,72,86,65,87,66,,,,,,,1.11,0.63,0.91*1A
$GPGSV,5,1,17,02,15,335,29,04,15,236,13,08,30,288,30,10,13,037,12*78
$GPGSV,5,2,17,16,24,203,13,18,21,128,10,23,01,075,,26,30,172,16*7C
$GPGSV,5,3,17,27,54,245,35,28,58,075,32,31,66,146,24,32,22,013,26*7C
$GPGSV,5,4,17,36,52,277,36,40,84,353,35,41,58,082,36,49,32,274,*7A
$GPGSV,5,5,17,50,10,089,*4A
$GLGSV,3,1,09,65,24,293,19,66,09,246,09,72,16,350,20,74,15,093,11*60
$GLGSV,3,2,09,75,26,145,,76,08,201,11,85,26,150,09,86,79,078,30*69
$GLGSV,3,3,09,87,42,346,35*52
$GNGLL,0419.71829,S,05539.76225,E,135055.00,A,D*6F
$GNRMC,135056.00,A,0419.71825,S,05539.76223,E,0.124,,200525,,,D*78
$GNVTG,,T,,M,0.124,N,0.229,K,D*36
$GNGGA,135056.00,0419.71825,S,05539.76223,E,2,12,0.87,40.4,M,-47.6,M,,0000*41
$GNGSA,A,3,32,18,10,28,26,16,27,31,40,08,04,02,1.43,0.87,1.14*1C
$GNGSA,A,3,85,72,86,65,87,76,66,,,,,,1.43,0.87,1.14*1A
$GPGSV,5,1,17,02,15,335,27,04,15,236,10,08,30,288,30,10,13,037,15*72
$GPGSV,5,2,17,16,24,203,13,18,21,128,09,23,01,075,,26,30,172,16*74
$GPGSV,5,3,17,27,54,245,35,28,58,075,31,31,66,146,24,32,22,013,26*7F
$GPGSV,5,4,17,36,52,277,33,40,84,353,35,41,58,082,35,49,32,274,*7C
$GPGSV,5,5,17,50,10,089,*4A
$GLGSV,3,1,09,65,24,293,19,66,09,246,08,72,16,350,21,74,15,093,06*66
$GLGSV,3,2,09,75,26,145,,76,08,201,09,85,26,150,09,86,79,078,31*61
$GLGSV,3,3,09,87,42,346,35*52
$GNGLL,0419.71825,S,05539.76223,E,135056.00,A,D*66
$GNRMC,135057.00,A,0419.71822,S,05539.76220,E,0.075,,200525,,,D*78
$GNVTG,,T,,M,0.075,N,0.138,K,D*30
$GNGGA,135057.00,0419.71822,S,05539.76220,E,2,12,0.61,40.4,M,-47.6,M,,0000*4C
$GNGSA,A,3,32,18,10,28,26,16,27,31,40,08,04,02,1.06,0.61,0.87*1E
$GNGSA,A,3,85,72,86,65,87,76,66,,,,,,1.06,0.61,0.87*18
$GPGSV,5,1,17,02,15,335,26,04,15,236,11,08,30,288,30,10,13,037,14*73
$GPGSV,5,2,17,16,24,203,11,18,21,128,10,23,01,075,,26,30,172,16*7E
$GPGSV,5,3,17,27,54,245,35,28,58,075,31,31,66,146,23,32,22,013,27*79
$GPGSV,5,4,17,36,52,277,34,40,84,353,35,41,58,082,36,49,32,274,*78
$GPGSV,5,5,17,50,10,089,*4A
$GLGSV,3,1,09,65,24,293,19,66,09,246,11,72,16,350,21,74,15,093,10*69
$GLGSV,3,2,09,75,26,145,08,76,08,201,10,85,26,150,08,86,79,078,32*63
$GLGSV,3,3,09,87,42,346,36*51
$GNGLL,0419.71822,S,05539.76220,E,135057.00,A,D*63
$GNRMC,135058.00,A,0419.71824,S,05539.76223,E,0.007,,200525,,,D*77
$GNVTG,,T,,M,0.007,N,0.013,K,D*3D
$GNGGA,135058.00,0419.71824,S,05539.76223,E,2,12,0.61,40.3,M,-47.6,M,,0000*41
$GNGSA,A,3,32,18,10,28,26,16,27,31,40,08,04,02,1.06,0.61,0.87*1E
$GNGSA,A,3,85,72,86,65,87,76,66,,,,,,1.06,0.61,0.87*18
$GPGSV,5,1,17,02,15,335,26,04,15,236,11,08,30,288,29,10,13,037,15*7A
$GPGSV,5,2,17,16,24,203,13,18,21,128,09,23,01,075,,26,30,172,16*74
$GPGSV,5,3,17,27,54,245,34,28,58,075,31,31,66,146,22,32,22,013,27*79
$GPGSV,5,4,17,36,52,277,34,40,84,353,35,41,58,082,36,49,32,274,*78
$GPGSV,5,5,17,50,10,089,*4A
$GLGSV,3,1,09,65,24,293,18,66,09,246,11,72,16,350,21,74,15,093,08*61
$GLGSV,3,2,09,75,26,145,11,76,08,201,10,85,26,150,10,86,79,078,32*62
$GLGSV,3,3,09,87,42,346,36*51
$GNGLL,0419.71824,S,05539.76223,E,135058.00,A,D*69
$GNRMC,135059.00,A,0419.71820,S,05539.76220,E,0.020,,200525,,,D*74
$GNVTG,,T,,M,0.020,N,0.038,K,D*31
$GNGGA,135059.00,0419.71820,S,05539.76220,E,2,12,1.21,40.4,M,-47.6,M,,0000*45
$GNGSA,A,3,32,18,28,26,27,31,40,08,04,02,,,2.02,1.21,1.62*10
$GNGSA,A,3,85,72,86,65,87,76,66,,,,,,2.02,1.21,1.62*10
$GPGSV,5,1,17,02,15,335,27,04,15,236,14,08,30,288,30,10,13,037,*72
$GPGSV,5,2,17,16,24,203,12,18,21,128,10,23,01,075,,26,30,172,17*7C
$GPGSV,5,3,17,27,54,245,36,28,58,075,32,31,66,146,22,32,22,013,27*78
$GPGSV,5,4,17,36,52,277,35,40,84,353,36,41,58,082,37,49,32,274,*7B
$GPGSV,5,5,17,50,10,089,*4A
$GLGSV,3,1,09,65,23,293,18,66,09,246,10,72,16,350,21,74,15,093,09*66
$GLGSV,3,2,09,75,26,145,12,76,08,201,10,85,26,150,12,86,79,078,32*63
$GLGSV,3,3,09,87,42,346,36*51
$GNGLL,0419.71820,S,05539.76220,E,135059.00,A,D*6F
$GNRMC,135100.00,A,0419.71817,S,05539.76218,E,0.043,,200525,,,D*73
$GNVTG,,T,,M,0.043,N,0.080,K,D*37
$GNGGA,135100.00,0419.71817,S,05539.76218,E,2,12,0.67,40.6,M,-47.6,M,,0000*46
$GNGSA,A,3,32,18,28,26,16,27,31,40,08,04,02,,1.15,0.67,0.94*19
$GNGSA,A,3,85,72,86,65,87,76,66,,,,,,1.15,0.67,0.94*1E
$GPGSV,5,1,17,02,15,335,28,04,15,236,17,08,30,288,29,10,13,037,17*70
$GPGSV,5,2,17,16,24,203,13,18,21,128,11,23,01,075,,26,30,172,16*7D
$GPGSV,5,3,17,27,54,245,36,28,58,075,32,31,66,146,23,32,22,013,27*79
$GPGSV,5,4,17,36,52,277,36,40,84,353,36,41,58,082,37,49,32,274,*78
$GPGSV,5,5,17,50,10,089,*4A
$GLGSV,3,1,09,65,23,293,18,66,09,246,08,72,16,350,21,74,15,093,08*6E
$GLGSV,3,2,09,75,26,145,14,76,08,201,09,85,26,150,09,86,79,078,32*67
$GLGSV,3,3,09,87,42,346,36*51
$GNGLL,0419.71817,S,05539.76218,E,135100.00,A,D*6D
$GNRMC,135101.00,A,0419.71830,S,05539.76224,E,0.123,,200525,,,D*7F
$GNVTG,,T,,M,0.123,N,0.227,K,D*3F
$GNGGA,135101.00,0419.71830,S,05539.76224,E,2,12,0.63,40.1,M,-47.6,M,,0000*4E
$GNGSA,A,3,32,18,28,26,16,27,31,40,08,04,02,,1.12,0.63,0.92*1C
$GNGSA,A,3,85,72,75,86,65,87,76,66,,,,,1.12,0.63,0.92*19
$GPGSV,5,1,17,02,15,335,27,04,15,236,10,08,30,288,28,10,13,037,16*78
$GPGSV,5,2,17,16,24,203,11,18,21,128,11,23,01,075,13,26,30,172,15*7E
$GPGSV,5,3,17,27,54,245,35,28,58,075,32,31,66,146,23,32,22,013,26*7B
$GPGSV,5,4,17,36,52,277,35,40,84,353,35,41,58,082,36,49,32,274,*79
$GPGSV,5,5,17,50,10,089,*4A
$GLGSV,3,1,09,65,23,293,18,66,09,246,08,72,16,350,19,74,15,093,06*6B
$GLGSV,3,2,09,75,26,145,15,76,08,201,09,85,26,150,11,86,79,078,31*6C
$GLGSV,3,3,09,87,42,346,35*52
$GNGLL,0419.71830,S,05539.76224,E,135101.00,A,D*66
$GNRMC,135102.00,A,0419.71829,S,05539.76224,E,0.069,,200525,,,D*7B
$GNVTG,,T,,M,0.069,N,0.127,K,D*33
$GNGGA,135102.00,0419.71829,S,05539.76224,E,2,12,0.76,40.1,M,-47.6,M,,0000*41
$GNGSA,A,3,32,18,28,26,16,27,31,40,08,04,02,,1.29,0.76,1.04*1E
$GNGSA,A,3,85,72,75,86,65,87,66,,,,,,1.29,0.76,1.04*1A
$GPGSV,5,1,17,02,15,335,27,04,15,236,16,08,30,288,28,10,13,037,16*7E
$GPGSV,5,2,17,16,24,203,11,18,21,128,11,23,01,075,12,26,30,172,14*7E
$GPGSV,5,3,17,27,54,245,35,28,58,075,32,31,66,146,22,32,22,013,26*7A
$GPGSV,5,4,17,36,52,277,35,40,84,353,35,41,58,082,36,49,32,274,*79
$GPGSV,5,5,17,50,10,089,*4A
$GLGSV,3,1,09,65,23,293,19,66,09,246,11,72,16,350,18,74,15,093,08*6D
$GLGSV,3,2,09,75,26,145,14,76,08,201,07,85,26,150,09,86,79,078,31*6A
$GLGSV,3,3,09,87,42,346,35*52
$GNGLL,0419.71829,S,05539.76224,E,135102.00,A,D*6D
$GNRMC,135103.00,A,0419.71835,S,05539.76228,E,0.114,,200525,,,D*70
$GNVTG,,T,,M,0.114,N,0.212,K,D*3D
$GNGGA,135103.00,0419.71835,S,05539.76228,E,2,12,0.70,39.9,M,-47.6,M,,0000*41
$GNGSA,A,3,32,18,28,26,16,27,31,40,08,04,02,,1.25,0.70,1.04*14
$GNGSA,A,3,85,72,75,86,65,87,,,,,,,1.25,0.70,1.04*10
$GPGSV,5,1,17,02,15,335,27,04,15,236,10,08,30,288,29,10,13,037,14*7B
$GPGSV,5,2,17,16,24,203,11,18,21,128,08,23,01,075,10,26,30,172,13*73
$GPGSV,5,3,17,27,54,245,35,28,58,075,32,31,66,146,22,32,22,013,27*7B
$GPGSV,5,4,17,36,52,277,35,40,84,353,35,41,58,082,36,49,32,274,*79
$GPGSV,5,5,17,50,10,089,*4A
$GLGSV,3,1,09,65,23,293,18,66,09,246,07,72,16,350,18,74,15,093,08*6B
$GLGSV,3,2,09,75,26,145,13,76,08,201,10,85,26,150,09,86,79,078,32*68
$GLGSV,3,3,09,87,42,346,35*52
$GNGLL,0419.71835,S,05539.76228,E,135103.00,A,D*6D
$GNRMC,135104.00,A,0419.71848,S,05539.76235,E,0.133,,200525,,,D*74
$GNVTG,,T,,M,0.133,N,0.247,K,D*38
$GNGGA,135104.00,0419.71848,S,05539.76235,E,2,12,0.63,39.3,M,-47.6,M,,0000*48
$GNGSA,A,3,32,18,10,28,26,16,27,31,40,08,04,02,1.12,0.63,0.93*1C
$GNGSA,A,3,72,75,86,65,87,66,,,,,,,1.12,0.63,0.93*14
$GPGSV,5,1,17,02,15,335,28,04,15,236,13,08,30,288,30,10,13,037,16*7D
$GPGSV,5,2,17,16,24,203,12,18,21,128,09,23,01,075,09,26,30,172,13*79
$GPGSV,5,3,17,27,54,245,35,28,58,075,32,31,66,146,21,32,22,013,27*78
$GPGSV,5,4,17,36,52,277,35,40,84,353,35,41,58,082,36,49,32,274,*79
$GPGSV,5,5,17,50,10,089,*4A
$GLGSV,3,1,09,65,23,293,19,66,09,246,10,72,16,350,17,74,15,093,06*6D
$GLGSV,3,2,09,75,26,145,12,76,08,201,10,85,26,150,06,86,79,078,32*66
$GLGSV,3,3,09,87,42,346,35*52
$GNGLL,0419.71848,S,05539.76235,E,135104.00,A,D*6C
$GNRMC,135105.00,A,0419.71861,S,05539.76242,E,0.110,,200525,,,D*7F
$GNVTG,,T,,M,0.110,N,0.203,K,D*39
$GNGGA,135105.00,0419.71861,S,05539.76242,E,2,12,0.68,38.6,M,-47.6,M,,0000*4D
$GNGSA,A,3,32,18,10,28,26,16,27,31,40,08,04,02,1.19,0.68,0.98*17
$GNGSA,A,3,85,72,75,86,65,87,76,66,,,,,1.19,0.68,0.98*13
$GPGSV,5,1,17,02,15,335,28,04,15,236,10,08,30,288,30,10,13,037,16*7E
$GPGSV,5,2,17,16,24,203,16,18,21,128,13,23,01,075,09,26,30,172,14*71
$GPGSV,5,3,17,27,54,245,35,28,58,075,32,31,66,146,21,32,22,013,27*78
$GPGSV,5,4,17,36,52,277,34,40,84,353,35,41,58,082,36,49,32,274,*78
$GPGSV,5,5,17,50,10,089,*4A
$GLGSV,3,1,09,65,23,293,19,66,09,246,10,72,16,350,18,74,15,093,11*64
$GLGSV,3,2,09,75,26,145,10,76,08,201,10,85,26,150,10,86,79,078,32*63
$GLGSV,3,3,09,87,42,346,35*52
$GNGLL,0419.71861,S,05539.76242,E,135105.00,A,D*66
$GNRMC,135106.00,A,0419.71870,S,05539.76248,E,0.122,,200525,,,D*77
$GNVTG,,T,,M,0.122,N,0.226,K,D*3F
$GNGGA,135106.00,0419.71870,S,05539.76248,E,2,12,0.60,38.3,M,-47.6,M,,0000*49
$GNGSA,A,3,32,18,10,28,26,16,27,31,40,08,04,02,1.06,0.60,0.88*10
$GNGSA,A,3,85,72,75,86,65,87,76,,,,,,1.06,0.60,0.88*14
$GPGSV,5,1,17,02,15,335,27,04,15,236,11,08,30,288,31,10,13,037,18*7F
$GPGSV,5,2,17,16,24,203,13,18,21,128,10,23,01,075,10,26,30,172,16*7D
$GPGSV,5,3,17,27,54,245,35,28,58,075,32,31,66,146,21,32,22,013,27*78
$GPGSV,5,4,17,36,52,277,35,40,84,353,35,41,58,082,36,49,32,274,*79
$GPGSV,5,5,17,50,10,089,*4A
$GLGSV,3,1,09,65,23,293,20,66,09,246,07,72,16,351,18,74,15,093,08*61
$GLGSV,3,2,09,75,26,145,10,76,08,201,11,85,26,150,10,86,79,078,32*62
$GLGSV,3,3,09,87,42,346,35*52
$GNGLL,0419.71870,S,05539.76248,E,135106.00,A,D*6F
$GNRMC,135107.00,A,0419.71878,S,05539.76254,E,0.105,,200525,,,D*76
$GNVTG,,T,,M,0.105,N,0.194,K,D*30
$GNGGA,135107.00,0419.71878,S,05539.76254,E,2,12,0.59,37.9,M,-47.6,M,,0000*42
$GNGSA,A,3,32,18,10,28,26,16,27,31,40,08,04,02,1.06,0.59,0.88*1A
$GNGSA,A,3,85,72,75,86,65,87,76,66,,,,,1.06,0.59,0.88*1E
$GPGSV,5,1,17,02,15,335,27,04,15,236,07,08,30,288,31,10,13,037,18*78
$GPGSV,5,2,17,16,24,203,14,18,21,128,12,23,01,075,09,26,30,172,16*70
$GPGSV,5,3,17,27,54,245,35,28,58,075,32,31,66,146,21,32,22,013,27*78
$GPGSV,5,4,17,36,52,277,35,40,84,353,36,41,58,082,36,49,32,274,*7A
$GPGSV,5,5,17,50,10,089,*4A
$GLGSV,3,1,09,65,23,293,20,66,09,246,15,72,16,351,18,74,15,093,08*62
$GLGSV,3,2,09,75,26,145,11,76,08,201,09,85,26,150,08,86,79,078,32*63
$GLGSV,3,3,09,87,42,346,35*52
$GNGLL,0419.71878,S,05539.76254,E,135107.00,A,D*6B
$GNRMC,135108.00,A,0419.71889,S,05539.76261,E,0.121,,200525,,,D*77
$GNVTG,,T,,M,0.121,N,0.225,K,D*3F
$GNGGA,135108.00,0419.71889,S,05539.76261,E,2,12,0.74,37.4,M,-47.6,M,,0000*47
$GNGSA,A,3,32,18,10,28,26,16,27,31,40,08,04,02,1.28,0.74,1.05*1D
$GNGSA,A,3,85,72,75,86,65,87,76,66,,,,,1.28,0.74,1.05*19
$GPGSV,5,1,17,02,15,335,27,04,15,236,11,08,30,288,31,10,13,037,18*7F
$GPGSV,5,2,17,16,24,203,10,18,21,128,10,23,01,075,08,26,30,172,16*77
$GPGSV,5,3,17,27,54,245,35,28,58,075,32,31,66,146,21,32,22,013,27*78
$GPGSV,5,4,17,36,52,277,35,40,84,353,36,41,58,082,36,49,32,274,*7A
$GPGSV,5,5,17,50,10,089,*4A
$GLGSV,3,1,09,65,23,293,20,66,09,246,08,72,16,351,18,74,15,092,09*6E
$GLGSV,3,2,09,75,26,145,13,76,08,201,10,85,26,150,08,86,79,078,32*69
$GLGSV,3,3,09,87,42,346,35*52
$GNGLL,0419.71889,S,05539.76261,E,135108.00,A,D*6C
$GNRMC,135109.00,A,0419.71898,S,05539.76269,E,0.075,,200525,,,D*7E
$GNVTG,,T,,M,0.075,N,0.138,K,D*30
$GNGGA,135109.00,0419.71898,S,05539.76269,E,2,12,0.59,37.0,M,-47.6,M,,0000*45
$GNGSA,A,3,32,18,10,28,26,16,27,31,40,08,04,02,1.06,0.59,0.88*1A
$GNGSA,A,3,85,72,75,86,65,87,76,66,,,,,1.06,0.59,0.88*1E
$GPGSV,5,1,17,02,15,335,27,04,15,236,10,08,30,288,31,10,13,037,17*71
$GPGSV,5,2,17,16,24,203,11,18,21,128,10,23,01,075,,26,30,172,17*7F
$GPGSV,5,3,17,27,54,245,35,28,58,075,32,31,66,146,21,32,22,013,27*78
$GPGSV,5,4,17,36,52,277,35,40,84,353,36,41,58,082,36,49,32,274,*7A
$GPGSV,5,5,17,50,10,089,*4A
$GLGSV,3,1,09,65,23,293,20,66,09,246,13,72,16,351,18,74,15,092,08*65
$GLGSV,3,2,09,75,26,144,12,76,08,201,10,85,26,150,09,86,79,078,32*68
$GLGSV,3,3,09,87,42,346,35*52
$GNGLL,0419.71898,S,05539.76269,E,135109.00,A,D*65
$GNRMC,135110.00,A,0419.71910,S,05539.76276,E,0.151,,200525,,,D*7E
$GNVTG,,T,,M,0.151,N,0.280,K,D*37
$GNGGA,135110.00,0419.71910,S,05539.76276,E,2,12,0.59,36.4,M,-47.6,M,,0000*47
$GNGSA,A,3,32,18,10,28,26,16,27,31,40,08,04,02,1.06,0.59,0.88*1A
$GNGSA,A,3,85,72,75,86,65,87,76,66,,,,,1.06,0.59,0.88*1E
$GPGSV,5,1,17,02,15,335,27,04,15,236,13,08,30,288,31,10,13,037,18*7D
$GPGSV,5,2,17,16,24,203,17,18,21,128,13,23,01,075,,26,30,172,17*7A
$GPGSV,5,3,17,27,54,245,35,28,58,075,32,31,66,146,21,32,22,013,26*79
$GPGSV,5,4,17,36,52,277,35,40,84,353,36,41,58,082,36,49,32,274,*7A
$GPGSV,5,5,17,50,10,089,*4A
$GLGSV,3,1,09,65,23,293,20,66,09,246,11,72,16,351,17,74,15,092,09*69
$GLGSV,3,2,09,75,26,144,12,76,08,200,10,85,26,150,09,86,79,078,32*69
$GLGSV,3,3,09,87,42,346,35*52
$GNGLL,0419.71910,S,05539.76276,E,135110.00,A,D*62
$GNRMC,135111.00,A,0419.71922,S,05539.76283,E,0.143,,200525,,,D*77
$GNVTG,,T,,M,0.143,N,0.265,K,D*3F
$GNGGA,135111.00,0419.71922,S,05539.76283,E,2,12,0.70,35.8,M,-47.6,M,,0000*49
$GNGSA,A,3,32,18,10,28,26,16,27,31,40,08,04,02,1.16,0.70,0.93*1A
$GNGSA,A,3,85,72,75,86,65,87,76,66,,,,,1.16,0.70,0.93*1E
$GPGSV,5,1,17,02,15,335,27,04,15,236,10,08,30,288,30,10,13,037,20*74
$GPGSV,5,2,17,16,24,203,12,18,21,128,08,23,01,075,,26,30,172,17*75
$GPGSV,5,3,17,27,54,245,35,28,58,075,32,31,66,146,20,32,22,013,26*78
$GPGSV,5,4,17,36,52,277,35,40,84,353,35,41,58,082,36,49,32,274,*79
$GPGSV,5,5,17,50,10,089,*4A
$GLGSV,3,1,09,65,23,293,21,66,09,246,11,72,16,351,16,74,15,092,09*69
$GLGSV,3,2,09,75,26,144,13,76,08,200,09,85,26,150,07,86,79,078,32*6E
$GLGSV,3,3,09,87,42,346,35*52
$GNGLL,0419.71922,S,05539.76283,E,135111.00,A,D*68
$GNRMC,135112.00,A,0419.71930,S,05539.76286,E,0.094,,200525,,,D*79
$GNVTG,,T,,M,0.094,N,0.175,K,D*36
$GNGGA,135112.00,0419.71930,S,05539.76286,E,2,12,0.59,35.4,M,-47.6,M,,0000*4B
$GNGSA,A,3,32,18,10,28,26,16,27,31,40,08,04,02,1.06,0.59,0.88*1A
$GNGSA,A,3,85,72,75,86,65,87,76,66,,,,,1.06,0.59,0.88*1E
$GPGSV,5,1,17,02,15,335,26,04,15,236,13,08,30,288,30,10,13,037,19*7C
$GPGSV,5,2,17,16,24,203,12,18,21,128,11,23,01,075,,26,30,172,17*7D
$GPGSV,5,3,17,27,54,245,35,28,58,075,32,31,66,146,20,32,22,013,27*79
$GPGSV,5,4,17,36,52,277,35,40,84,353,35,41,58,082,36,49,32,274,*79
$GPGSV,5,5,17,50,10,089,*4A
$GLGSV,3,1,09,65,23,293,21,66,09,246,08,72,16,351,17,74,15,092,08*61
$GLGSV,3,2,09,75,26,144,14,76,08,200,09,85,26,150,08,86,79,078,32*66
$GLGSV,3,3,09,87,42,346,35*52
$GNGLL,0419.71930,S,05539.76286,E,135112.00,A,D*6D
$GNRMC,135113.00,A,0419.71940,S,05539.76291,E,0.159,,200525,,,D*79
$GNVTG,,T,,M,0.159,N,0.295,K,D*3B
$GNGGA,135113.00,0419.71940,S,05539.76291,E,2,12,0.59,35.0,M,-47.6,M,,0000*4F
$GNGSA,A,3,32,18,10,28,26,16,27,31,40,08,04,02,1.06,0.59,0.88*1A
$GNGSA,A,3,85,72,75,86,65,87,76,66,,,,,1.06,0.59,0.88*1E
$GPGSV,5,1,17,02,15,335,27,04,15,236,14,08,30,288,30,10,13,037,20*70
$GPGSV,5,2,17,16,24,203,10,18,21,128,09,23,01,075,,26,30,172,16*77
$GPGSV,5,3,17,27,54,245,35,28,58,075,32,31,66,146,20,32,22,013,26*78
$GPGSV,5,4,17,36,52,277,35,40,84,353,35,41,58,082,36,49,32,274,*79
$GPGSV,5,5,17,50,10,089,*4A
$GLGSV,3,1,09,65,23,293,22,66,09,246,08,72,16,351,16,74,15,092,09*62
$GLGSV,3,2,09,75,26,144,13,76,08,200,08,85,26,150,10,86,79,078,32*69
$GLGSV,3,3,09,87,42,346,35*52
$GNGLL,0419.71940,S,05539.76291,E,135113.00,A,D*6D
$GNRMC,135114.00,A,0419.71958,S,05539.76301,E,0.228,,200525,,,D*7A
$GNVTG,,T,,M,0.228,N,0.423,K,D*35
$GNGGA,135114.00,0419.71958,S,05539.76301,E,2,12,0.70,34.2,M,-47.6,M,,0000*41
$GNGSA,A,3,32,18,10,28,26,16,27,31,40,08,04,02,1.18,0.70,0.95*12
$GNGSA,A,3,85,72,75,86,65,87,76,66,,,,,1.18,0.70,0.95*16
$GPGSV,5,1,17,02,15,335,27,04,15,236,13,08,30,288,31,10,13,037,21*77
$GPGSV,5,2,17,16,24,203,13,18,21,128,10,23,01,075,,26,30,172,16*7C
