$GNRMC,134544.00,A,0419.71124,S,05539.76707,E,0.071,,200525,,,D*75
$GNVTG,,T,,M,0.071,N,0.131,K,D*3D
$GNGGA,134544.00,0419.71124,S,05539.76707,E,2,12,0.54,13.8,M,-47.6,M,,0000*49
$GNGSA,A,3,32,18,10,28,26,16,27,31,40,08,04,02,0.98,0.54,0.82*1B
$GNGSA,A,3,85,72,75,86,65,87,76,66,,,,,0.98,0.54,0.82*1F
$GPGSV,5,1,17,02,13,334,29,04,14,235,33,08,29,290,31,10,13,035,25*79
$GPGSV,5,2,17,16,24,205,22,18,23,126,29,23,01,073,,26,30,174,20*7B
$GPGSV,5,3,17,27,55,249,31,28,59,080,27,31,64,150,30,32,24,012,31*7B
$GPGSV,5,4,17,36,52,277,28,40,84,353,31,41,58,082,,49,32,274,*74
$GPGSV,5,5,17,50,10,089,*4A
$GLGSV,3,1,09,65,25,290,31,66,08,243,37,72,18,348,32,74,15,096,06*66
$GLGSV,3,2,09,75,25,148,25,76,07,203,09,85,28,149,28,86,78,063,33*69
$GLGSV,3,3,09,87,39,346,33*58
$GNGLL,0419.71124,S,05539.76707,E,134544.00,A,D*6A
$GNRMC,134545.00,A,0419.71129,S,05539.76701,E,0.037,,200525,,,D*7D
$GNVTG,,T,,M,0.037,N,0.068,K,D*32
$GNGGA,134545.00,0419.71129,S,05539.76701,E,2,12,0.58,13.5,M,-47.6,M,,0000*42
$GNGSA,A,3,32,18,10,28,26,16,27,31,40,08,04,02,1.04,0.58,0.87*16
$GNGSA,A,3,85,72,75,86,65,87,76,66,,,,,1.04,0.58,0.87*12
$GPGSV,5,1,17,02,13,334,32,04,14,235,38,08,29,290,34,10,13,035,31*78
$GPGSV,5,2,17,16,24,205,29,18,23,126,30,23,01,073,,26,30,174,21*79
$GPGSV,5,3,17,27,55,249,35,28,59,080,32,31,64,150,34,32,24,012,34*7A
$GPGSV,5,4,17,36,52,277,32,40,84,353,37,41,58,082,,49,32,274,*79
$GPGSV,5,5,17,50,10,089,*4A
$GLGSV,3,1,09,65,25,290,36,66,08,243,40,72,18,348,35,74,15,096,09*69
$GLGSV,3,2,09,75,25,148,26,76,07,203,14,85,28,149,27,86,78,063,39*63
$GLGSV,3,3,09,87,39,346,36*5D
$GNGLL,0419.71129,S,05539.76701,E,134545.00,A,D*60
$GNRMC,134546.00,A,0419.71128,S,05539.76701,E,0.104,,200525,,,D*7E
$GNVTG,,T,,M,0.104,N,0.193,K,D*36
$GNGGA,134546.00,0419.71128,S,05539.76701,E,2,12,0.58,13.1,M,-47.6,M,,0000*44
$GNGSA,A,3,32,18,10,28,26,16,27,31,40,08,04,02,1.04,0.58,0.87*16
$GNGSA,A,3,85,72,75,86,65,87,76,66,,,,,1.04,0.58,0.87*12
$GPGSV,5,1,17,02,13,334,35,04,14,235,40,08,29,290,41,10,13,035,35*76
$GPGSV,5,2,17,16,24,205,28,18,23,126,31,23,01,073,,26,30,174,30*79
$GPGSV,5,3,17,27,55,249,41,28,59,080,26,31,64,150,37,32,24,012,35*7E
$GPGSV,5,4,17,36,52,277,38,40,84,353,43,41,58,082,,49,32,274,*70
$GPGSV,5,5,17,50,10,089,*4A
$GLGSV,3,1,09,65,25,290,36,66,08,243,40,72,18,348,34,74,15,096,06*67
$GLGSV,3,2,09,75,25,148,25,76,07,203,12,85,28,149,25,86,78,063,39*64
$GLGSV,3,3,09,87,39,346,36*5D
$GNGLL,0419.71128,S,05539.76701,E,134546.00,A,D*62
$GNRMC,134547.00,A,0419.71129,S,05539.76700,E,0.063,,200525,,,D*7F
$GNVTG,,T,,M,0.063,N,0.117,K,D*3A
$GNGGA,134547.00,0419.71129,S,05539.76700,E,2,12,0.58,12.9,M,-47.6,M,,0000*4C
$GNGSA,A,3,32,18,10,28,26,16,27,31,40,08,04,02,1.04,0.58,0.87*16
$GNGSA,A,3,85,72,75,86,65,87,76,66,,,,,1.04,0.58,0.87*12
$GPGSV,5,1,17,02,13,334,34,04,14,235,42,08,29,290,38,10,13,035,24*7B
$GPGSV,5,2,17,16,24,205,28,18,23,126,29,23,01,073,,26,30,174,21*70
$GPGSV,5,3,17,27,55,249,40,28,59,080,28,31,64,150,37,32,24,012,38*7C
$GPGSV,5,4,17,36,52,277,33,40,84,353,41,41,58,082,36,49,32,274,*7C
$GPGSV,5,5,17,50,10,089,*4A
$GLGSV,3,1,09,65,25,290,35,66,08,243,40,72,18,348,35,74,15,096,08*6B
$GLGSV,3,2,09,75,25,148,23,76,07,203,16,85,28,149,22,86,78,063,35*6D
$GLGSV,3,3,09,87,39,346,39*52
$GNGLL,0419.71129,S,05539.76700,E,134547.00,A,D*63
$GNRMC,134548.00,A,0419.71133,S,05539.76698,E,0.072,,200525,,,D*7B
$GNVTG,,T,,M,0.072,N,0.134,K,D*3B
$GNGGA,134548.00,0419.71133,S,05539.76698,E,2,12,0.58,12.9,M,-47.6,M,,0000*48
$GNGSA,A,3,32,18,10,28,26,16,27,31,40,08,04,02,1.04,0.58,0.87*16
$GNGSA,A,3,85,72,75,86,65,87,76,66,,,,,1.04,0.58,0.87*12
$GPGSV,5,1,17,02,13,334,35,04,14,235,43,08,29,290,36,10,13,035,24*75
$GPGSV,5,2,17,16,24,205,32,18,23,126,26,23,01,073,,26,30,174,20*75
$GPGSV,5,3,17,27,55,249,36,28,59,080,32,31,64,150,37,32,24,012,35*7B
$GPGSV,5,4,17,36,52,277,38,40,84,353,41,41,58,082,35,49,32,274,*74
$GPGSV,5,5,17,50,10,089,*4A
$GLGSV,3,1,09,65,25,290,35,66,08,243,41,72,18,348,34,74,15,096,07*64
$GLGSV,3,2,09,75,25,148,21,76,07,203,16,85,28,149,20,86,78,063,37*6F
$GLGSV,3,3,09,87,39,346,37*5C
$GNGLL,0419.71133,S,05539.76698,E,134548.00,A,D*67
$GNRMC,134549.00,A,0419.71133,S,05539.76697,E,0.017,,200525,,,D*76
$GNVTG,,T,,M,0.017,N,0.031,K,D*3C
$GNGGA,134549.00,0419.71133,S,05539.76697,E,2,12,0.58,12.9,M,-47.6,M,,0000*46
$GNGSA,A,3,32,18,10,28,26,16,27,31,40,08,04,02,1.04,0.58,0.87*16
$GNGSA,A,3,85,72,75,86,65,87,76,66,,,,,1.04,0.58,0.87*12
$GPGSV,5,1,17,02,13,334,37,04,14,235,44,08,29,290,35,10,13,035,25*72
$GPGSV,5,2,17,16,24,205,36,18,23,126,35,23,01,073,,26,30,174,30*72
$GPGSV,5,3,17,27,55,249,36,28,59,080,35,31,64,150,37,32,24,012,38*71
$GPGSV,5,4,17,36,52,277,38,40,84,353,37,41,58,082,29,49,32,274,*78
$GPGSV,5,5,17,50,10,089,*4A
$GLGSV,3,1,09,65,25,290,36,66,08,243,42,72,18,348,36,74,15,096,07*66
$GLGSV,3,2,09,75,25,148,21,76,07,203,12,85,28,149,19,86,78,063,40*61
$GLGSV,3,3,09,87,39,346,37*5C
$GNGLL,0419.71133,S,05539.76697,E,134549.00,A,D*69
$GNRMC,134550.00,A,0419.71130,S,05539.76695,E,0.107,,200525,,,D*7F
$GNVTG,,T,,M,0.107,N,0.197,K,D*31
$GNGGA,134550.00,0419.71130,S,05539.76695,E,2,12,0.59,12.7,M,-47.6,M,,0000*40
$GNGSA,A,3,32,18,10,28,26,16,27,31,40,08,04,02,1.08,0.59,0.91*1C
$GNGSA,A,3,85,72,75,86,65,87,76,66,,,,,1.08,0.59,0.91*18
$GPGSV,5,1,17,02,13,334,31,04,14,235,42,08,29,290,40,10,13,035,30*74
$GPGSV,5,2,17,16,24,205,29,18,23,126,34,23,01,073,,26,30,174,28*74
$GPGSV,5,3,17,27,55,249,38,28,59,080,27,31,64,150,39,32,24,012,35*7F
$GPGSV,5,4,17,36,52,277,39,40,84,353,42,41,58,082,29,49,32,274,*7B
$GPGSV,5,5,17,50,10,089,*4A
$GLGSV,3,1,09,65,25,290,38,66,08,243,41,72,18,348,33,74,15,096,08*61
$GLGSV,3,2,09,75,25,148,22,76,07,203,10,85,28,149,24,86,78,063,38*61
$GLGSV,3,3,09,87,39,346,35*5E
$GNGLL,0419.71130,S,05539.76695,E,134550.00,A,D*60
$GNRMC,134551.00,A,0419.71130,S,05539.76700,E,0.121,,200525,,,D*77
$GNVTG,,T,,M,0.121,N,0.224,K,D*3E
$GNGGA,134551.00,0419.71130,S,05539.76700,E,2,12,0.58,12.6,M,-47.6,M,,0000*4C
$GNGSA,A,3,32,18,10,28,26,16,27,31,40,08,04,02,1.04,0.58,0.87*16
$GNGSA,A,3,85,72,75,86,65,87,76,66,,,,,1.04,0.58,0.87*12
$GPGSV,5,1,17,02,13,334,34,04,14,235,45,08,29,290,38,10,13,035,31*78
$GPGSV,5,2,17,16,24,205,27,18,23,126,29,23,01,073,,26,30,174,28*76
$GPGSV,5,3,17,27,55,249,40,28,59,080,32,31,64,150,33,32,24,012,25*7F
$GPGSV,5,4,17,36,52,277,37,40,84,353,39,41,58,082,36,49,32,274,*77
$GPGSV,5,5,17,50,10,089,*4A
$GLGSV,3,1,09,65,25,290,36,66,08,243,43,72,18,348,31,74,15,096,09*6E
$GLGSV,3,2,09,75,25,148,30,76,07,203,08,85,28,149,24,86,78,063,39*6A
$GLGSV,3,3,09,87,39,346,34*5F
$GNGLL,0419.71130,S,05539.76700,E,134551.00,A,D*6C
$GNRMC,134552.00,A,0419.71130,S,05539.76704,E,0.065,,200525,,,D*71
$GNVTG,,T,,M,0.065,N,0.121,K,D*39
$GNGGA,134552.00,0419.71130,S,05539.76704,E,2,12,0.58,12.5,M,-47.6,M,,0000*48
$GNGSA,A,3,32,18,10,28,26,16,27,31,40,08,04,02,1.04,0.58,0.87*16
$GNGSA,A,3,85,72,75,86,65,87,76,66,,,,,1.04,0.58,0.87*12
$GPGSV,5,1,17,02,13,334,35,04,14,235,45,08,29,290,39,10,13,035,32*7B
$GPGSV,5,2,17,16,24,205,24,18,23,126,33,23,01,073,,26,30,174,29*7F
$GPGSV,5,3,17,27,55,249,39,28,59,080,35,31,64,150,37,32,24,012,27*70
$GPGSV,5,4,17,36,52,277,38,40,84,353,40,41,58,082,35,49,32,274,*75
$GPGSV,5,5,17,50,10,089,*4A
$GLGSV,3,1,09,65,25,290,37,66,08,243,43,72,18,348,31,74,15,096,11*66
$GLGSV,3,2,09,75,25,148,29,76,07,203,10,85,28,149,21,86,78,063,41*61
$GLGSV,3,3,09,87,39,346,34*5F
$GNGLL,0419.71130,S,05539.76704,E,134552.00,A,D*6B
$GNRMC,134553.00,A,0419.71130,S,05539.76705,E,0.010,,200525,,,D*73
$GNVTG,,T,,M,0.010,N,0.019,K,D*31
$GNGGA,134553.00,0419.71130,S,05539.76705,E,2,12,0.59,12.4,M,-47.6,M,,0000*48
$GNGSA,A,3,32,18,10,28,26,16,27,31,40,08,04,02,1.08,0.59,0.91*1C
$GNGSA,A,3,85,72,75,86,65,87,76,66,,,,,1.08,0.59,0.91*18
$GPGSV,5,1,17,02,13,334,36,04,14,235,45,08,29,290,38,10,13,035,32*79
$GPGSV,5,2,17,16,24,205,25,18,23,126,34,23,01,073,,26,30,174,29*79
$GPGSV,5,3,17,27,55,249,41,28,59,080,34,31,64,150,39,32,24,012,28*7F
$GPGSV,5,4,17,36,52,277,38,40,84,353,43,41,58,082,31,49,32,274,*72
$GPGSV,5,5,17,50,10,089,*4A
$GLGSV,3,1,09,65,25,290,37,66,08,243,44,72,18,348,31,74,15,096,09*68
$GLGSV,3,2,09,75,25,148,29,76,07,203,14,85,28,149,22,86,78,063,41*66
$GLGSV,3,3,09,87,39,346,35*5E
$GNGLL,0419.71130,S,05539.76705,E,134553.00,A,D*6B
$GNRMC,134554.00,A,0419.71129,S,05539.76708,E,0.031,,200525,,,D*72
$GNVTG,,T,,M,0.031,N,0.057,K,D*38
$GNGGA,134554.00,0419.71129,S,05539.76708,E,2,12,0.58,12.3,M,-47.6,M,,0000*4C
$GNGSA,A,3,32,18,10,28,26,16,27,31,40,08,04,02,1.04,0.58,0.87*16
$GNGSA,A,3,85,72,75,86,65,87,76,66,,,,,1.04,0.58,0.87*12
$GPGSV,5,1,17,02,13,334,35,04,14,235,46,08,29,290,38,10,13,035,33*78
$GPGSV,5,2,17,16,24,205,28,18,23,126,33,23,01,073,,26,30,174,30*7B
$GPGSV,5,3,17,27,55,249,41,28,59,080,34,31,64,150,39,32,24,012,29*7E
$GPGSV,5,4,17,36,52,277,38,40,84,353,44,41,58,082,31,49,32,274,*75
$GPGSV,5,5,17,50,10,089,*4A
$GLGSV,3,1,09,65,25,290,37,66,08,243,44,72,18,348,32,74,15,096,11*62
$GLGSV,3,2,09,75,25,148,29,76,07,203,11,85,28,149,21,86,78,063,43*62
$GLGSV,3,3,09,87,39,346,35*5E
$GNGLL,0419.71129,S,05539.76708,E,134554.00,A,D*69
$GNRMC,134555.00,A,0419.71131,S,05539.76708,E,0.110,,200525,,,D*78
$GNVTG,,T,,M,0.110,N,0.204,K,D*3E
$GNGGA,134555.00,0419.71131,S,05539.76708,E,2,12,0.58,12.2,M,-47.6,M,,0000*45
$GNGSA,A,3,32,18,10,28,26,16,27,31,40,08,04,02,1.04,0.58,0.87*16
$GNGSA,A,3,85,72,75,86,65,87,76,66,,,,,1.04,0.58,0.87*12
$GPGSV,5,1,17,02,13,334,36,04,14,235,46,08,29,290,38,10,13,035,34*7C
$GPGSV,5,2,17,16,24,205,36,18,23,126,34,23,01,073,,26,30,174,30*73
$GPGSV,5,3,17,27,55,249,41,28,59,080,37,31,64,150,41,32,24,012,30*7A
$GPGSV,5,4,17,36,52,277,39,40,84,353,44,41,58,082,32,49,32,274,*77
$GPGSV,5,5,17,50,10,089,*4A
$GLGSV,3,1,09,65,25,290,37,66,08,243,43,72,18,348,33,74,15,096,08*6C
$GLGSV,3,2,09,75,25,148,29,76,07,203,12,85,28,149,23,86,78,063,42*62
$GLGSV,3,3,09,87,39,346,36*5D
$GNGLL,0419.71131,S,05539.76708,E,134555.00,A,D*61
$GNRMC,134556.00,A,0419.71127,S,05539.76711,E,0.105,,200525,,,D*70
$GNVTG,,T,,M,0.105,N,0.194,K,D*30
$GNGGA,134556.00,0419.71127,S,05539.76711,E,2,12,0.59,12.1,M,-47.6,M,,0000*4B
$GNGSA,A,3,32,18,10,28,26,16,27,31,40,08,04,02,1.08,0.59,0.91*1C
$GNGSA,A,3,85,72,75,86,65,87,76,66,,,,,1.08,0.59,0.91*18
$GPGSV,5,1,17,02,13,334,19,04,14,235,46,08,29,290,40,10,13,035,28*73
$GPGSV,5,2,17,16,24,205,38,18,23,126,37,23,01,073,,26,30,174,29*76
$GPGSV,5,3,17,27,55,249,43,28,59,080,37,31,64,150,39,32,24,012,30*77
$GPGSV,5,4,17,36,52,277,41,40,84,353,42,41,58,082,36,49,32,274,*7A
$GPGSV,5,5,17,50,10,089,*4A
$GLGSV,3,1,09,65,25,290,37,66,08,243,44,72,18,348,31,74,15,096,10*60
$GLGSV,3,2,09,75,25,148,18,76,07,203,11,85,28,149,25,86,78,063,40*67
$GLGSV,3,3,09,87,39,346,32*59
$GNGLL,0419.71127,S,05539.76711,E,134556.00,A,D*6D
$GNRMC,134557.00,A,0419.71126,S,05539.76712,E,0.012,,200525,,,D*74
$GNVTG,,T,,M,0.012,N,0.022,K,D*3B
$GNGGA,134557.00,0419.71126,S,05539.76712,E,2,12,0.58,12.0,M,-47.6,M,,0000*48
$GNGSA,A,3,32,18,10,28,26,16,27,31,40,08,04,02,1.04,0.58,0.87*16
$GNGSA,A,3,85,72,75,86,65,87,76,66,,,,,1.04,0.58,0.87*12
$GPGSV,5,1,17,02,13,334,22,04,14,235,45,08,29,290,39,10,13,035,28*76
$GPGSV,5,2,17,16,24,205,37,18,23,126,36,23,01,073,,26,30,174,30*70
$GPGSV,5,3,17,27,55,249,43,28,59,080,36,31,64,150,39,32,24,012,30*76
$GPGSV,5,4,17,36,52,277,40,40,84,353,41,41,58,082,37,49,32,274,*79
$GPGSV,5,5,17,50,10,089,*4A
$GLGSV,3,1,09,65,25,290,38,66,08,243,44,72,18,348,31,74,15,096,09*67
$GLGSV,3,2,09,75,25,148,19,76,07,203,11,85,28,149,25,86,78,063,40*66
$GLGSV,3,3,09,87,39,346,32*59
$GNGLL,0419.71126,S,05539.76712,E,134557.00,A,D*6E
$GNRMC,134558.00,A,0419.71127,S,05539.76711,E,0.095,,200525,,,D*76
$GNVTG,,T,,M,0.095,N,0.176,K,D*34
$GNGGA,134558.00,0419.71127,S,05539.76711,E,2,12,0.58,11.9,M,-47.6,M,,0000*4F
$GNGSA,A,3,32,18,10,28,26,16,27,31,40,08,04,02,1.04,0.58,0.87*16
$GNGSA,A,3,85,72,75,86,65,87,76,66,,,,,1.04,0.58,0.87*12
$GPGSV,5,1,17,02,13,334,25,04,14,235,45,08,29,290,39,10,13,035,32*7A
$GPGSV,5,2,17,16,24,205,34,18,23,126,35,23,01,073,,26,30,174,28*79
$GPGSV,5,3,17,27,55,249,44,28,59,080,35,31,64,150,41,32,24,012,28*74
$GPGSV,5,4,17,36,52,277,41,40,84,353,42,41,58,082,35,49,32,274,*79
$GPGSV,5,5,17,50,10,089,*4A
$GLGSV,3,1,09,65,25,290,30,66,08,243,38,72,18,348,28,74,15,096,12*66
$GLGSV,3,2,09,75,25,148,19,76,07,203,13,85,28,149,25,86,78,063,35*66
$GLGSV,3,3,09,87,39,346,28*52
$GNGLL,0419.71127,S,05539.76711,E,134558.00,A,D*63
$GNRMC,134559.00,A,0419.71128,S,05539.76711,E,0.032,,200525,,,D*75
$GNVTG,,T,,M,0.032,N,0.059,K,D*35
$GNGGA,134559.00,0419.71128,S,05539.76711,E,2,12,0.58,11.8,M,-47.6,M,,0000*40
$GNGSA,A,3,32,18,10,28,26,16,27,31,40,08,04,02,1.04,0.58,0.87*16
$GNGSA,A,3,85,72,75,86,65,87,76,66,,,,,1.04,0.58,0.87*12
$GPGSV,5,1,17,02,13,334,28,04,14,235,40,08,29,290,36,10,13,035,26*78
$GPGSV,5,2,17,16,24,205,27,18,23,126,29,23,01,073,,26,30,174,22*7C
$GPGSV,5,3,17,27,55,249,41,28,59,080,33,31,64,150,34,32,24,012,26*7B
$GPGSV,5,4,17,36,52,277,36,40,84,353,40,41,58,082,31,49,32,274,*7F
$GPGSV,5,5,17,50,10,089,*4A
$GLGSV,3,1,09,65,24,291,35,66,08,243,39,72,18,348,27,74,15,096,08*66
$GLGSV,3,2,09,75,25,148,17,76,07,203,13,85,28,149,20,86,78,063,36*6E
$GLGSV,3,3,09,87,39,346,32*59
$GNGLL,0419.71128,S,05539.76711,E,134559.00,A,D*6D
$GNRMC,134600.00,A,0419.71126,S,05539.76712,E,0.068,,200525,,,D*78
$GNVTG,,T,,M,0.068,N,0.126,K,D*33
$GNGGA,134600.00,0419.71126,S,05539.76712,E,2,12,0.58,11.6,M,-47.6,M,,0000*4C
$GNGSA,A,3,32,18,10,28,26,16,27,31,40,08,04,02,1.04,0.58,0.87*16
$GNGSA,A,3,85,72,75,86,65,87,76,66,,,,,1.04,0.58,0.87*12
$GPGSV,5,1,17,02,13,334,29,04,14,235,42,08,29,290,35,10,13,035,24*7A
$GPGSV,5,2,17,16,24,205,25,18,23,126,29,23,01,073,,26,30,174,22*7E
$GPGSV,5,3,17,27,55,249,42,28,59,080,34,31,64,150,34,32,24,012,32*7A
$GPGSV,5,4,17,36,52,277,36,40,84,353,40,41,58,082,,49,32,274,*7D
$GPGSV,5,5,17,50,10,089,*4A
$GLGSV,3,1,09,65,24,291,40,66,09,244,43,72,18,348,27,74,15,096,10*66
$GLGSV,3,2,09,75,25,148,17,76,07,203,10,85,28,149,17,86,78,063,39*66
$GLGSV,3,3,09,87,39,346,35*5E
$GNGLL,0419.71126,S,05539.76712,E,134600.00,A,D*6F
$GNRMC,134601.00,A,0419.71123,S,05539.76717,E,0.050,,200525,,,D*72
$GNVTG,,T,,M,0.050,N,0.093,K,D*37
$GNGGA,134601.00,0419.71123,S,05539.76717,E,2,12,0.58,11.3,M,-47.6,M,,0000*48
$GNGSA,A,3,32,18,10,28,26,16,27,31,40,08,04,02,1.04,0.58,0.87*16
$GNGSA,A,3,85,72,75,86,65,87,76,66,,,,,1.04,0.58,0.87*12
$GPGSV,5,1,17,02,13,334,30,04,14,235,41,08,29,290,34,10,13,035,24*70
$GPGSV,5,2,17,16,24,205,27,18,23,126,28,23,01,073,,26,30,174,22*7D
$GPGSV,5,3,17,27,55,249,41,28,59,080,37,31,64,150,29,32,24,012,33*77
$GPGSV,5,4,17,36,52,277,36,40,84,353,38,41,58,082,,49,32,274,*72
$GPGSV,5,5,17,50,10,089,*4A
$GLGSV,3,1,09,65,24,291,34,66,09,244,38,72,18,348,27,74,15,096,09*61
$GLGSV,3,2,09,75,25,148,24,76,07,203,14,85,28,149,17,86,78,063,34*6F
$GLGSV,3,3,09,87,39,346,32*59
$GNGLL,0419.71123,S,05539.76717,E,134601.00,A,D*6E
$GNRMC,134602.00,A,0419.71118,S,05539.76720,E,0.096,,200525,,,D*77
$GNVTG,,T,,M,0.096,N,0.178,K,D*39
$GNGGA,134602.00,0419.71118,S,05539.76720,E,2,12,0.58,11.2,M,-47.6,M,,0000*46
$GNGSA,A,3,32,18,10,28,26,16,27,31,40,08,04,02,1.04,0.58,0.87*16
$GNGSA,A,3,85,72,75,86,65,87,76,66,,,,,1.04,0.58,0.87*12
$GPGSV,5,1,17,02,13,334,28,04,14,235,39,08,29,290,32,10,13,035,23*77
$GPGSV,5,2,17,16,24,205,28,18,23,126,27,23,01,073,,26,30,174,21*7E
$GPGSV,5,3,17,27,55,249,39,28,59,080,33,31,64,150,30,32,24,012,27*71
$GPGSV,5,4,17,36,52,277,34,40,84,353,38,41,58,082,,49,32,274,*70
$GPGSV,5,5,17,50,10,089,*4A
$GLGSV,3,1,09,65,24,291,34,66,09,244,41,72,18,348,27,74,15,096,06*60
$GLGSV,3,2,09,75,25,148,23,76,07,203,09,85,28,149,17,86,78,063,33*63
$GLGSV,3,3,09,87,39,346,35*5E
$GNGLL,0419.71118,S,05539.76720,E,134602.00,A,D*61
$GNRMC,134603.00,A,0419.71113,S,05539.76724,E,0.067,,200525,,,D*77
$GNVTG,,T,,M,0.067,N,0.124,K,D*3E
$GNGGA,134603.00,0419.71113,S,05539.76724,E,2,12,0.58,11.0,M,-47.6,M,,0000*4A
$GNGSA,A,3,32,18,10,28,26,16,27,31,40,08,04,02,1.04,0.58,0.87*16
$GNGSA,A,3,85,72,75,86,65,87,76,66,,,,,1.04,0.58,0.87*12
$GPGSV,5,1,17,02,13,334,29,04,14,235,44,08,29,290,38,10,13,035,23*76
$GPGSV,5,2,17,16,24,205,27,18,23,126,28,23,01,073,,26,30,174,21*7E
$GPGSV,5,3,17,27,55,249,43,28,59,080,35,31,64,150,32,32,24,012,26*79
$GPGSV,5,4,17,36,52,277,39,40,84,353,37,41,58,082,,49,32,274,*72
$GPGSV,5,5,17,50,10,089,*4A
$GLGSV,3,1,09,65,24,291,37,66,09,244,44,72,18,348,28,74,15,096,08*67
$GLGSV,3,2,09,75,25,148,22,76,07,203,09,85,28,149,24,86,78,063,35*64
$GLGSV,3,3,09,87,39,346,35*5E
$GNGLL,0419.71113,S,05539.76724,E,134603.00,A,D*6F
$GNRMC,134604.00,A,0419.71113,S,05539.76726,E,0.087,,200525,,,D*7C
$GNVTG,,T,,M,0.087,N,0.161,K,D*31
$GNGGA,134604.00,0419.71113,S,05539.76726,E,2,12,0.58,10.8,M,-47.6,M,,0000*46
$GNGSA,A,3,32,18,10,28,26,16,27,31,40,08,04,02,1.04,0.58,0.87*16
$GNGSA,A,3,85,72,75,86,65,87,76,66,,,,,1.04,0.58,0.87*12
$GPGSV,5,1,17,02,13,334,30,04,14,235,42,08,29,290,35,10,13,035,26*70
$GPGSV,5,2,17,16,24,205,30,18,23,126,28,23,01,073,,26,30,174,23*7A
$GPGSV,5,3,17,27,55,249,40,28,59,080,33,31,64,150,28,32,24,012,27*76
$GPGSV,5,4,17,36,52,277,37,40,84,353,32,41,58,082,,49,32,274,*79
$GPGSV,5,5,17,50,10,089,*4A
$GLGSV,3,1,09,65,24,291,34,66,09,244,40,72,18,348,28,74,15,096,09*61
$GLGSV,3,2,09,75,25,148,22,76,07,203,13,85,28,149,26,86,78,063,32*6A
$GLGSV,3,3,09,87,39,346,32*59
$GNGLL,0419.71113,S,05539.76726,E,134604.00,A,D*6A
$GNRMC,134605.00,A,0419.71112,S,05539.76730,E,0.038,,200525,,,D*7F
$GNVTG,,T,,M,0.038,N,0.071,K,D*35
$GNGGA,134605.00,0419.71112,S,05539.76730,E,2,12,0.58,10.6,M,-47.6,M,,0000*4F
$GNGSA,A,3,32,18,10,28,26,16,27,31,40,08,04,02,1.04,0.58,0.87*16
$GNGSA,A,3,85,72,75,86,65,87,76,66,,,,,1.04,0.58,0.87*12
$GPGSV,5,1,17,02,13,334,30,04,14,235,45,08,29,290,37,10,13,035,32*70
$GPGSV,5,2,17,16,24,205,32,18,23,126,28,23,01,073,,26,30,174,26*7D
$GPGSV,5,3,17,27,55,249,42,28,59,080,37,31,64,150,30,32,24,012,29*77
$GPGSV,5,4,17,36,52,277,38,40,84,353,34,41,58,082,,49,32,274,*70
$GPGSV,5,5,17,50,10,089,*4A
$GLGSV,3,1,09,65,24,291,37,66,09,244,44,72,18,348,28,74,15,096,09*66
$GLGSV,3,2,09,75,25,148,23,76,07,203,11,85,28,149,26,86,78,063,31*6A
$GLGSV,3,3,09,87,39,346,32*59
$GNGLL,0419.71112,S,05539.76730,E,134605.00,A,D*6D
$GNRMC,134606.00,A,0419.71110,S,05539.76732,E,0.052,,200525,,,D*70
$GNVTG,,T,,M,0.052,N,0.096,K,D*30
$GNGGA,134606.00,0419.71110,S,05539.76732,E,2,12,0.58,10.4,M,-47.6,M,,0000*4E
$GNGSA,A,3,32,18,10,28,26,16,27,31,40,08,04,02,1.04,0.58,0.87*16
$GNGSA,A,3,85,72,75,86,65,87,76,66,,,,,1.04,0.58,0.87*12
$GPGSV,5,1,17,02,13,334,31,04,14,235,45,08,29,290,37,10,13,035,26*74
$GPGSV,5,2,17,16,24,205,32,18,23,126,28,23,01,073,,26,30,174,26*7D
$GPGSV,5,3,17,27,55,249,43,28,59,080,37,31,64,150,30,32,24,012,33*7D
$GPGSV,5,4,17,36,52,277,39,40,84,353,36,41,58,082,,49,32,274,*73
$GPGSV,5,5,17,50,10,089,*4A
$GLGSV,3,1,09,65,24,291,35,66,09,244,42,72,17,349,29,74,15,096,07*63
$GLGSV,3,2,09,75,25,148,22,76,07,203,11,85,28,149,26,86,78,063,30*6A
$GLGSV,3,3,09,87,39,346,33*58
$GNGLL,0419.71110,S,05539.76732,E,134606.00,A,D*6E
$GNRMC,134607.00,A,0419.71109,S,05539.76735,E,0.040,,200525,,,D*7D
$GNVTG,,T,,M,0.040,N,0.074,K,D*3F
$GNGGA,134607.00,0419.71109,S,05539.76735,E,2,12,0.58,10.2,M,-47.6,M,,0000*46
$GNGSA,A,3,32,18,10,28,26,16,27,31,40,08,04,02,1.04,0.58,0.87*16
$GNGSA,A,3,85,72,75,86,65,87,76,66,,,,,1.04,0.58,0.87*12
$GPGSV,5,1,17,02,13,334,30,04,14,235,44,08,29,290,37,10,13,035,31*72
$GPGSV,5,2,17,16,24,205,30,18,23,126,28,23,01,073,,26,30,174,25*7C
$GPGSV,5,3,17,27,55,249,43,28,59,080,37,31,64,150,30,32,24,012,31*7F
$GPGSV,5,4,17,36,52,277,39,40,84,353,39,41,58,082,,49,32,274,*7C
$GPGSV,5,5,17,50,10,089,*4A
$GLGSV,3,1,09,65,24,291,35,66,09,244,44,72,17,349,28,74,15,096,09*6A
$GLGSV,3,2,09,75,25,148,23,76,07,203,16,85,28,149,27,86,78,063,37*6A
$GLGSV,3,3,09,87,39,346,33*58
$GNGLL,0419.71109,S,05539.76735,E,134607.00,A,D*60
$GNRMC,134608.00,A,0419.71109,S,05539.76734,E,0.012,,200525,,,D*74
$GNVTG,,T,,M,0.012,N,0.022,K,D*3B
$GNGGA,134608.00,0419.71109,S,05539.76734,E,2,12,0.58,10.1,M,-47.6,M,,0000*4B
$GNGSA,A,3,32,18,10,28,26,16,27,31,40,08,04,02,1.04,0.58,0.87*16
$GNGSA,A,3,85,72,75,86,65,87,76,66,,,,,1.04,0.58,0.87*12
$GPGSV,5,1,17,02,13,334,31,04,14,235,45,08,29,290,38,10,13,035,30*7C
$GPGSV,5,2,17,16,24,205,31,18,23,126,29,23,01,073,,26,30,174,25*7C
$GPGSV,5,3,17,27,55,249,42,28,59,080,39,31,64,150,30,32,24,012,33*72
$GPGSV,5,4,17,36,52,277,39,40,84,353,38,41,58,082,,49,32,274,*7D
$GPGSV,5,5,17,50,10,089,*4A
$GLGSV,3,1,09,65,24,291,37,66,09,244,43,72,17,349,29,74,15,095,11*64
$GLGSV,3,2,09,75,25,148,24,76,07,203,13,85,28,149,27,86,78,063,35*6A
$GLGSV,3,3,09,87,39,346,33*58
$GNGLL,0419.71109,S,05539.76734,E,134608.00,A,D*6E
$GNRMC,134609.00,A,0419.71108,S,05539.76737,E,0.016,,200525,,,D*73
$GNVTG,,T,,M,0.016,N,0.029,K,D*34
$GNGGA,134609.00,0419.71108,S,05539.76737,E,2,12,0.58,9.9,M,-47.6,M,,0000*78
$GNGSA,A,3,32,18,10,28,26,16,27,31,40,08,04,02,1.04,0.58,0.87*16
$GNGSA,A,3,85,72,75,86,65,87,76,66,,,,,1.04,0.58,0.87*12
$GPGSV,5,1,17,02,13,334,29,04,14,235,44,08,29,290,38,10,13,035,29*7C
$GPGSV,5,2,17,16,24,205,30,18,23,126,29,23,01,073,,26,30,174,25*7D
$GPGSV,5,3,17,27,55,249,42,28,59,080,37,31,64,150,29,32,24,012,33*74
$GPGSV,5,4,17,36,52,277,38,40,84,353,38,41,58,082,,49,32,274,*7C
$GPGSV,5,5,17,50,10,089,*4A
$GLGSV,3,1,09,65,24,291,34,66,09,244,41,72,17,349,28,74,15,095,11*64
$GLGSV,3,2,09,75,25,147,24,76,07,203,14,85,28,149,26,86,78,063,34*62
$GLGSV,3,3,09,87,39,346,32*59
$GNGLL,0419.71108,S,05539.76737,E,134609.00,A,D*6D
$GNRMC,134610.00,A,0419.71108,S,05539.76736,E,0.046,,200525,,,D*7F
$GNVTG,,T,,M,0.046,N,0.085,K,D*37
$GNGGA,134610.00,0419.71108,S,05539.76736,E,2,12,0.58,9.8,M,-47.6,M,,0000*70
$GNGSA,A,3,32,18,10,28,26,16,27,31,40,08,04,02,1.04,0.58,0.87*16
$GNGSA,A,3,85,72,75,86,65,87,76,66,,,,,1.04,0.58,0.87*12
$GPGSV,5,1,17,02,13,334,28,04,14,235,44,08,29,290,37,10,13,035,27*7C
$GPGSV,5,2,17,16,24,205,35,18,23,126,29,23,01,073,,26,30,174,26*7B
$GPGSV,5,3,17,27,55,249,39,28,59,080,38,31,64,150,31,32,24,012,34*79
$GPGSV,5,4,17,36,52,277,37,40,84,353,32,41,58,082,,49,32,274,*79
$GPGSV,5,5,17,50,10,089,*4A
$GLGSV,3,1,09,65,24,291,39,66,09,244,43,72,17,349,28,74,15,095,08*63
$GLGSV,3,2,09,75,25,147,24,76,07,202,11,85,28,149,25,86,78,063,30*61
$GLGSV,3,3,09,87,39,346,31*5A
$GNGLL,0419.71108,S,05539.76736,E,134610.00,A,D*64
$GNRMC,134611.00,A,0419.71110,S,05539.76736,E,0.045,,200525,,,D*74
$GNVTG,,T,,M,0.045,N,0.084,K,D*35
$GNGGA,134611.00,0419.71110,S,05539.76736,E,2,12,0.59,9.6,M,-47.6,M,,0000*77
$GNGSA,A,3,32,18,10,28,26,16,27,31,40,08,04,02,1.08,0.59,0.91*1C
$GNGSA,A,3,85,72,75,86,65,87,76,66,,,,,1.08,0.59,0.91*18
$GPGSV,5,1,17,02,13,334,31,04,14,235,45,08,29,290,38,10,13,035,27*7A
$GPGSV,5,2,17,16,24,205,36,18,23,126,28,23,01,073,,26,30,174,27*78
$GPGSV,5,3,17,27,55,249,39,28,59,080,39,31,64,150,34,32,24,012,34*7D
$GPGSV,5,4,17,36,52,277,37,40,84,353,32,41,58,082,,49,32,274,*79
$GPGSV,5,5,17,50,10,089,*4A
$GLGSV,3,1,09,65,24,291,38,66,09,244,42,72,17,349,30,74,15,095,05*67
$GLGSV,3,2,09,75,25,147,26,76,07,202,10,85,28,149,26,86,78,063,25*65
$GLGSV,3,3,09,87,39,346,31*5A
$GNGLL,0419.71110,S,05539.76736,E,134611.00,A,D*6C
$GNRMC,134612.00,A,0419.71111,S,05539.76738,E,0.042,,200525,,,D*7F
$GNVTG,,T,,M,0.042,N,0.078,K,D*31
$GNGGA,134612.00,0419.71111,S,05539.76738,E,2,12,0.58,9.5,M,-47.6,M,,0000*79
$GNGSA,A,3,32,18,10,28,26,16,27,31,40,08,04,02,1.04,0.58,0.87*16
$GNGSA,A,3,85,72,75,86,65,87,76,66,,,,,1.04,0.58,0.87*12
$GPGSV,5,1,17,02,13,334,31,04,14,235,45,08,29,290,38,10,13,035,28*75
$GPGSV,5,2,17,16,24,205,35,18,23,126,28,23,01,073,,26,30,174,26*7A
$GPGSV,5,3,17,27,55,249,39,28,59,080,38,31,64,150,33,32,24,012,33*7C
$GPGSV,5,4,17,36,52,277,37,40,84,353,35,41,58,082,,49,32,274,*7E
$GPGSV,5,5,17,50,10,089,*4A
$GLGSV,3,1,09,65,24,291,37,66,09,244,43,72,17,349,30,74,15,095,09*65
$GLGSV,3,2,09,75,25,147,25,76,07,202,11,85,28,149,26,86,78,063,26*64
$GLGSV,3,3,09,87,39,346,31*5A
$GNGLL,0419.71111,S,05539.76738,E,134612.00,A,D*60
$GNRMC,134613.00,A,0419.71112,S,05539.76737,E,0.027,,200525,,,D*71
$GNVTG,,T,,M,0.027,N,0.050,K,D*38
$GNGGA,134613.00,0419.71112,S,05539.76737,E,2,12,0.58,9.4,M,-47.6,M,,0000*75
$GNGSA,A,3,32,18,10,28,26,16,27,31,40,08,04,02,1.04,0.58,0.87*16
$GNGSA,A,3,85,72,75,86,65,87,76,66,,,,,1.04,0.58,0.87*12
$GPGSV,5,1,17,02,13,334,30,04,14,235,43,08,29,290,36,10,13,035,27*73
$GPGSV,5,2,17,16,24,205,32,18,23,126,28,23,01,073,,26,30,174,26*7D
$GPGSV,5,3,17,27,55,249,37,28,59,080,38,31,64,150,33,32,24,012,32*73
$GPGSV,5,4,17,36,52,277,36,40,84,353,32,41,58,082,,49,32,274,*78
$GPGSV,5,5,17,50,10,089,*4A
$GLGSV,3,1,09,65,24,291,36,66,09,244,40,72,17,349,29,74,15,095,09*6F
$GLGSV,3,2,09,75,25,147,24,76,07,202,11,85,28,149,26,86,78,063,26*65
$GLGSV,3,3,09,87,39,346,30*5B
$GNGLL,0419.71112,S,05539.76737,E,134613.00,A,D*6D
$GNRMC,134614.00,A,0419.71112,S,05539.76738,E,0.008,,200525,,,D*74
$GNVTG,,T,,M,0.008,N,0.014,K,D*35
$GNGGA,134614.00,0419.71112,S,05539.76738,E,2,12,0.59,9.3,M,-47.6,M,,0000*7B
$GNGSA,A,3,32,18,10,28,26,16,27,31,40,08,04,02,1.08,0.59,0.91*1C
$GNGSA,A,3,85,72,75,86,65,87,66,,,,,,1.08,0.59,0.91*19
$GPGSV,5,1,17,02,13,334,29,04,14,235,43,08,29,290,36,10,13,035,26*7A
$GPGSV,5,2,17,16,24,205,33,18,23,126,28,23,01,073,,26,30,174,24*7E
$GPGSV,5,3,17,27,55,249,37,28,59,080,35,31,64,150,32,32,24,012,30*7D
$GPGSV,5,4,17,36,52,277,35,40,84,353,32,41,58,082,,49,32,274,*7B
$GPGSV,5,5,17,50,10,089,*4A
$GLGSV,3,1,09,65,24,291,34,66,09,244,39,72,17,349,27,74,15,095,08*6C
$GLGSV,3,2,09,75,25,147,22,76,07,202,06,85,28,149,25,86,78,063,24*64
$GLGSV,3,3,09,87,39,346,29*53
$GNGLL,0419.71112,S,05539.76738,E,134614.00,A,D*65
$GNRMC,134615.00,A,0419.71110,S,05539.76740,E,0.038,,200525,,,D*7B
$GNVTG,,T,,M,0.038,N,0.071,K,D*35
$GNGGA,134615.00,0419.71110,S,05539.76740,E,2,12,0.58,9.2,M,-47.6,M,,0000*77
$GNGSA,A,3,32,18,10,28,26,16,27,31,40,08,04,02,1.04,0.58,0.87*16
$GNGSA,A,3,85,72,75,86,65,87,76,66,,,,,1.04,0.58,0.87*12
$GPGSV,5,1,17,02,13,334,28,04,14,235,44,08,29,290,36,10,13,035,25*7F
$GPGSV,5,2,17,16,24,205,33,18,23,126,28,23,01,073,,26,30,174,24*7E
$GPGSV,5,3,17,27,55,249,39,28,59,080,36,31,64,150,32,32,24,012,31*71
$GPGSV,5,4,17,36,52,277,38,40,84,353,34,41,58,082,,49,32,274,*70
$GPGSV,5,5,17,50,10,089,*4A
$GLGSV,3,1,09,65,24,291,36,66,09,244,42,72,17,349,26,74,15,095,09*62
$GLGSV,3,2,09,75,25,147,20,76,07,202,11,85,28,149,25,86,78,063,31*64
$GLGSV,3,3,09,87,39,346,30*5B
$GNGLL,0419.71110,S,05539.76740,E,134615.00,A,D*69
$GNRMC,134616.00,A,0419.71106,S,05539.76746,E,0.646,6.85,200525,,,D*63
$GNVTG,6.85,T,,M,0.646,N,1.196,K,D*26
$GNGGA,134616.00,0419.71106,S,05539.76746,E,2,12,0.58,9.4,M,-47.6,M,,0000*73
$GNGSA,A,3,32,18,10,28,26,16,27,31,40,08,04,02,1.04,0.58,0.87*16
$GNGSA,A,3,85,72,75,86,65,87,76,66,,,,,1.04,0.58,0.87*12
$GPGSV,5,1,17,02,13,334,26,04,14,235,39,08,29,290,39,10,13,035,30*70
$GPGSV,5,2,17,16,24,205,29,18,23,126,34,23,01,073,,26,30,174,31*7C
$GPGSV,5,3,17,27,55,249,32,28,59,080,29,31,64,150,38,32,24,012,39*76
$GPGSV,5,4,17,36,52,277,35,40,84,353,40,41,58,082,,49,32,274,*7E
$GPGSV,5,5,17,50,10,089,*4A
$GLGSV,3,1,09,65,24,291,39,66,09,244,39,72,17,349,30,74,15,095,09*66
$GLGSV,3,2,09,75,25,147,23,76,07,202,12,85,28,149,35,86,78,063,38*6C
$GLGSV,3,3,09,87,39,346,37*5C
$GNGLL,0419.71106,S,05539.76746,E,134616.00,A,D*6B
$GNRMC,134617.00,A,0419.71102,S,05539.76740,E,0.544,333.55,200525,,,D*69
$GNVTG,333.55,T,,M,0.544,N,1.008,K,D*29
$GNGGA,134617.00,0419.71102,S,05539.76740,E,2,12,0.59,9.3,M,-47.6,M,,0000*76
$GNGSA,A,3,32,18,10,28,26,16,27,31,40,08,04,02,1.08,0.59,0.91*1C
$GNGSA,A,3,85,72,75,86,65,87,76,66,,,,,1.08,0.59,0.91*18
$GPGSV,5,1,17,02,13,334,29,04,14,235,39,08,29,290,40,10,13,035,22*72
$GPGSV,5,2,17,16,24,205,23,18,23,126,36,23,01,073,,26,30,174,27*73
$GPGSV,5,3,17,27,55,249,35,28,59,080,33,31,64,150,35,32,24,012,39*77
$GPGSV,5,4,17,36,52,277,36,40,84,353,41,41,58,082,,49,32,274,*7C
$GPGSV,5,5,17,50,10,089,*4A
$GLGSV,3,1,09,65,24,291,39,66,09,244,42,72,17,349,31,74,15,095,10*63
$GLGSV,3,2,09,75,25,147,22,76,07,202,10,85,28,149,35,86,78,063,37*60
$GLGSV,3,3,09,87,39,346,37*5C
$GNGLL,0419.71102,S,05539.76740,E,134617.00,A,D*68
$GNRMC,134618.00,A,0419.71103,S,05539.76737,E,0.046,,200525,,,D*7D
$GNVTG,,T,,M,0.046,N,0.086,K,D*34
$GNGGA,134618.00,0419.71103,S,05539.76737,E,2,12,0.58,9.2,M,-47.6,M,,0000*78
$GNGSA,A,3,32,18,10,28,26,16,27,31,40,08,04,02,1.04,0.58,0.87*16
$GNGSA,A,3,85,72,75,86,65,87,76,66,,,,,1.04,0.58,0.87*12
$GPGSV,5,1,17,02,13,334,33,04,14,235,44,08,29,290,34,10,13,035,23*71
$GPGSV,5,2,17,16,24,205,35,18,23,126,33,23,01,073,,26,30,174,26*70
$GPGSV,5,3,17,27,55,249,42,28,59,080,38,31,64,150,32,32,24,012,36*74
$GPGSV,5,4,17,36,52,277,36,40,84,353,39,41,58,082,,49,32,274,*73
$GPGSV,5,5,17,50,10,089,*4A
$GLGSV,3,1,09,65,24,291,34,66,09,244,44,72,17,349,33,74,15,095,08*63
$GLGSV,3,2,09,75,25,147,23,76,07,202,12,85,28,149,26,86,78,063,36*60
$GLGSV,3,3,09,87,39,346,37*5C
$GNGLL,0419.71103,S,05539.76737,E,134618.00,A,D*66
$GNRMC,134619.00,A,0419.71104,S,05539.76739,E,0.069,,200525,,,D*78
$GNVTG,,T,,M,0.069,N,0.128,K,D*3C
$GNGGA,134619.00,0419.71104,S,05539.76739,E,2,12,0.58,9.2,M,-47.6,M,,0000*70
$GNGSA,A,3,32,18,10,28,26,16,27,31,40,08,04,02,1.04,0.58,0.87*16
$GNGSA,A,3,85,72,75,86,65,87,76,66,,,,,1.04,0.58,0.87*12
$GPGSV,5,1,17,02,13,334,33,04,14,235,40,08,29,290,31,10,13,035,22*71
$GPGSV,5,2,17,16,24,205,31,18,23,126,27,23,01,073,,26,30,174,26*71
$GPGSV,5,3,17,27,55,249,39,28,59,080,36,31,64,150,25,32,24,012,32*74
$GPGSV,5,4,17,36,52,277,29,40,84,353,35,41,58,082,,49,32,274,*71
$GPGSV,5,5,17,50,10,089,*4A
$GLGSV,3,1,09,65,24,291,32,66,09,244,36,72,17,349,27,74,15,095,10*6C
$GLGSV,3,2,09,75,25,147,24,76,07,202,10,85,28,149,24,86,78,063,33*62
$GLGSV,3,3,09,87,39,346,31*5A
$GNGLL,0419.71104,S,05539.76739,E,134619.00,A,D*6E
$GNRMC,134620.00,A,0419.71105,S,05539.76740,E,0.032,,200525,,,D*73
$GNVTG,,T,,M,0.032,N,0.059,K,D*35
$GNGGA,134620.00,0419.71105,S,05539.76740,E,2,12,0.59,9.1,M,-47.6,M,,0000*77
$GNGSA,A,3,32,18,10,28,26,16,27,31,40,08,04,02,1.08,0.59,0.91*1C
$GNGSA,A,3,85,72,75,86,65,87,76,66,,,,,1.08,0.59,0.91*18
$GPGSV,5,1,17,02,13,334,32,04,14,235,40,08,29,290,30,10,13,035,21*72
$GPGSV,5,2,17,16,24,205,26,18,23,126,27,23,01,073,14,26,30,174,25*71
$GPGSV,5,3,17,27,55,249,39,28,59,080,37,31,64,150,25,32,24,012,35*72
$GPGSV,5,4,17,36,52,277,29,40,84,353,31,41,58,082,,49,32,274,*75
$GPGSV,5,5,17,50,10,089,*4A
$GLGSV,3,1,09,65,24,291,33,66,09,244,34,72,17,349,26,74,15,095,10*6E
$GLGSV,3,2,09,75,25,147,23,76,07,202,08,85,28,149,20,86,78,066,33*6D
$GLGSV,3,3,09,87,39,346,32*59
$GNGLL,0419.71105,S,05539.76740,E,134620.00,A,D*6B
$GNRMC,134621.00,A,0419.71103,S,05539.76742,E,0.015,,200525,,,D*73
$GNVTG,,T,,M,0.015,N,0.027,K,D*39
$GNGGA,134621.00,0419.71103,S,05539.76742,E,2,12,0.58,8.9,M,-47.6,M,,0000*7A
$GNGSA,A,3,32,18,10,28,26,16,27,31,40,08,04,02,1.04,0.58,0.87*16
$GNGSA,A,3,85,72,75,86,65,87,76,66,,,,,1.04,0.58,0.87*12
$GPGSV,5,1,17,02,13,334,27,04,14,235,44,08,29,290,35,10,13,035,30*77
$GPGSV,5,2,17,16,24,205,31,18,23,126,33,23,01,073,12,26,30,174,25*74
$GPGSV,5,3,17,27,55,249,42,28,59,080,38,31,64,150,32,32,24,012,34*76
$GPGSV,5,4,17,36,52,277,36,40,84,353,38,41,58,082,,49,32,274,*72
$GPGSV,5,5,17,50,10,089,*4A
$GLGSV,3,1,09,65,24,291,35,66,09,244,40,72,17,349,28,74,15,095,10*65
$GLGSV,3,2,09,75,25,147,22,76,07,202,14,85,28,149,16,86,78,066,36*61
$GLGSV,3,3,09,87,40,346,33*56
$GNGLL,0419.71103,S,05539.76742,E,134621.00,A,D*6E
$GNRMC,134622.00,A,0419.71101,S,05539.76742,E,0.076,,200525,,,D*77
$GNVTG,,T,,M,0.076,N,0.141,K,D*3D
$GNGGA,134622.00,0419.71101,S,05539.76742,E,2,12,0.59,8.8,M,-47.6,M,,0000*7B
$GNGSA,A,3,32,18,10,28,26,16,27,31,40,08,04,02,1.08,0.59,0.91*1C
$GNGSA,A,3,85,72,75,86,65,87,66,,,,,,1.08,0.59,0.91*19
$GPGSV,5,1,17,02,13,334,30,04,14,235,45,08,29,290,36,10,13,035,23*71
$GPGSV,5,2,17,16,24,205,31,18,23,126,33,23,01,073,10,26,30,174,25*76
$GPGSV,5,3,17,27,55,249,40,28,59,080,38,31,64,150,32,32,24,012,35*75
$GPGSV,5,4,17,36,52,277,33,40,84,353,40,41,58,082,,49,32,274,*78
$GPGSV,5,5,17,50,10,089,*4A
$GLGSV,3,1,09,65,24,291,37,66,09,244,43,72,17,349,28,74,15,095,07*62
$GLGSV,3,2,09,75,25,147,20,76,07,202,06,85,28,149,13,86,78,066,39*6A
$GLGSV,3,3,09,87,40,346,33*56
$GNGLL,0419.71101,S,05539.76742,E,134622.00,A,D*6F
$GNRMC,134623.00,A,0419.71099,S,05539.76742,E,0.011,,200525,,,D*77
$GNVTG,,T,,M,0.011,N,0.021,K,D*3B
$GNGGA,134623.00,0419.71099,S,05539.76742,E,2,12,0.58,8.7,M,-47.6,M,,0000*74
$GNGSA,A,3,32,18,10,28,26,16,27,31,40,08,04,02,1.04,0.58,0.87*16
$GNGSA,A,3,85,72,75,86,65,87,76,66,,,,,1.04,0.58,0.87*12
$GPGSV,5,1,17,02,13,334,31,04,14,235,44,08,29,290,35,10,13,035,24*75
$GPGSV,5,2,17,16,24,205,32,18,23,126,30,23,01,073,09,26,30,174,26*7D
$GPGSV,5,3,17,27,55,249,42,28,59,080,38,31,64,150,32,32,24,012,36*74
$GPGSV,5,4,17,36,52,277,34,40,84,353,39,41,58,082,,49,32,274,*71
$GPGSV,5,5,17,50,10,089,*4A
$GLGSV,3,1,09,65,24,291,31,66,09,244,36,72,17,349,21,74,15,095,08*60
$GLGSV,3,2,09,75,25,147,17,76,07,202,08,85,28,149,11,86,78,066,32*69
$GLGSV,3,3,09,87,40,346,28*5C
$GNGLL,0419.71099,S,05539.76742,E,134623.00,A,D*6E
$GNRMC,134624.00,A,0419.71102,S,05539.76741,E,0.076,,200525,,,D*71
$GNVTG,,T,,M,0.076,N,0.140,K,D*3C
$GNGGA,134624.00,0419.71102,S,05539.76741,E,2,12,0.58,8.7,M,-47.6,M,,0000*73
$GNGSA,A,3,32,18,10,28,26,16,27,31,40,08,04,02,1.04,0.58,0.87*16
$GNGSA,A,3,85,72,75,86,65,87,76,66,,,,,1.04,0.58,0.87*12
$GPGSV,5,1,17,02,13,335,35,04,14,235,45,08,29,290,35,10,13,035,23*76
$GPGSV,5,2,17,16,24,205,35,18,23,126,32,23,01,073,12,26,30,174,27*73
$GPGSV,5,3,17,27,55,249,43,28,59,080,38,31,64,150,32,32,24,012,36*75
$GPGSV,5,4,17,36,52,277,34,40,84,353,40,41,58,082,,49,32,274,*7F
$GPGSV,5,5,17,50,10,089,*4A
$GLGSV,3,1,09,65,24,291,35,66,09,244,40,72,17,349,30,74,15,095,08*65
$GLGSV,3,2,09,75,25,147,19,76,07,202,07,85,28,149,12,86,78,066,37*6E
$GLGSV,3,3,09,87,40,346,33*56
$GNGLL,0419.71102,S,05539.76741,E,134624.00,A,D*69
$GNRMC,134625.00,A,0419.71105,S,05539.76740,E,0.065,,200525,,,D*74
$GNVTG,,T,,M,0.065,N,0.121,K,D*39
$GNGGA,134625.00,0419.71105,S,05539.76740,E,2,12,0.58,8.6,M,-47.6,M,,0000*75
$GNGSA,A,3,32,18,10,28,26,16,27,31,40,08,04,02,1.04,0.58,0.87*16
$GNGSA,A,3,85,72,75,86,65,87,76,66,,,,,1.04,0.58,0.87*12
$GPGSV,5,1,17,02,13,335,36,04,14,235,44,08,29,290,34,10,13,035,21*77
$GPGSV,5,2,17,16,24,205,32,18,23,126,31,23,01,073,11,26,30,174,27*74
$GPGSV,5,3,17,27,55,249,42,28,59,080,36,31,64,150,30,32,24,012,37*79
$GPGSV,5,4,17,36,52,277,33,40,84,353,39,41,58,082,,49,32,274,*76
$GPGSV,5,5,17,50,10,089,*4A
$GLGSV,3,1,09,65,24,291,37,66,09,244,42,72,17,349,29,74,15,095,09*6C
$GLGSV,3,2,09,75,25,147,21,76,07,202,07,85,28,149,20,86,78,066,38*6B
$GLGSV,3,3,09,87,40,346,32*57
$GNGLL,0419.71105,S,05539.76740,E,134625.00,A,D*6E
$GNRMC,134626.00,A,0419.71108,S,05539.76739,E,0.047,,200525,,,D*74
$GNVTG,,T,,M,0.047,N,0.088,K,D*3B
$GNGGA,134626.00,0419.71108,S,05539.76739,E,2,12,0.59,8.6,M,-47.6,M,,0000*74
$GNGSA,A,3,32,18,10,28,26,16,27,31,40,08,04,02,1.08,0.59,0.91*1C
$GNGSA,A,3,85,72,75,86,65,87,76,66,,,,,1.08,0.59,0.91*18
$GPGSV,5,1,17,02,13,335,32,04,15,235,44,08,29,290,34,10,13,035,31*73
$GPGSV,5,2,17,16,24,205,27,18,23,126,32,23,01,073,10,26,30,174,25*70
$GPGSV,5,3,17,27,55,249,43,28,59,080,28,31,64,150,34,32,24,012,37*73
$GPGSV,5,4,17,36,52,277,33,40,84,353,40,41,58,082,,49,32,274,*78
$GPGSV,5,5,17,50,10,089,*4A
$GLGSV,3,1,09,65,24,291,33,66,09,244,40,72,17,349,26,74,15,095,06*6A
$GLGSV,3,2,09,75,25,147,20,76,07,202,11,85,28,149,20,86,78,066,37*62
$GLGSV,3,3,09,87,40,346,32*57
$GNGLL,0419.71108,S,05539.76739,E,134626.00,A,D*6E
$GNRMC,134627.00,A,0419.71110,S,05539.76739,E,0.018,,200525,,,D*76
$GNVTG,,T,,M,0.018,N,0.033,K,D*31
$GNGGA,134627.00,0419.71110,S,05539.76739,E,2,12,0.58,8.6,M,-47.6,M,,0000*7D
$GNGSA,A,3,32,18,10,28,26,16,27,31,40,08,04,02,1.04,0.58,0.87*16
$GNGSA,A,3,85,72,75,86,65,87,76,66,,,,,1.04,0.58,0.87*12
$GPGSV,5,1,17,02,13,335,30,04,15,235,40,08,29,290,34,10,13,035,30*74
$GPGSV,5,2,17,16,24,205,27,18,23,126,31,23,01,073,12,26,30,174,22*76
$GPGSV,5,3,17,27,55,249,39,28,59,080,28,31,64,150,34,32,24,012,35*7C
$GPGSV,5,4,17,36,52,277,34,40,84,353,38,41,58,082,,49,32,274,*70
$GPGSV,5,5,17,50,10,089,*4A
$GLGSV,3,1,09,65,24,291,33,66,09,244,36,72,17,349,26,74,15,095,10*6C
$GLGSV,3,2,09,75,25,147,18,76,07,202,08,85,28,149,20,86,78,066,36*60
$GLGSV,3,3,09,87,40,346,31*54
$GNGLL,0419.71110,S,05539.76739,E,134627.00,A,D*66
$GNRMC,134628.00,A,0419.71111,S,05539.76739,E,0.053,,200525,,,D*77
$GNVTG,,T,,M,0.053,N,0.098,K,D*3F
$GNGGA,134628.00,0419.71111,S,05539.76739,E,2,12,0.58,8.5,M,-47.6,M,,0000*70
$GNGSA,A,3,32,18,10,28,26,16,27,31,40,08,04,02,1.04,0.58,0.87*16
$GNGSA,A,3,85,72,75,86,65,87,76,66,,,,,1.04,0.58,0.87*12
$GPGSV,5,1,17,02,13,335,33,04,15,235,45,08,29,290,37,10,13,035,28*78
$GPGSV,5,2,17,16,24,205,26,18,23,126,35,23,01,073,,26,30,174,21*73
$GPGSV,5,3,17,27,55,249,43,28,59,080,33,31,64,150,37,32,24,012,36*7B
$GPGSV,5,4,17,36,52,277,38,40,84,353,40,41,58,082,,49,32,274,*73
$GPGSV,5,5,17,50,10,089,*4A
$GLGSV,3,1,09,65,24,291,38,66,09,244,44,72,17,349,26,74,15,095,08*6B
$GLGSV,3,2,09,75,25,147,16,76,07,202,10,85,28,149,20,86,78,066,33*62
$GLGSV,3,3,09,87,40,346,35*50
$GNGLL,0419.71111,S,05539.76739,E,134628.00,A,D*68
$GNRMC,134629.00,A,0419.71111,S,05539.76741,E,0.122,,200525,,,D*7E
$GNVTG,,T,,M,0.122,N,0.225,K,D*3C
$GNGGA,134629.00,0419.71111,S,05539.76741,E,2,12,0.58,8.6,M,-47.6,M,,0000*7D
$GNGSA,A,3,32,18,10,28,26,16,27,31,40,08,04,02,1.04,0.58,0.87*16
$GNGSA,A,3,85,72,75,86,65,87,76,66,,,,,1.04,0.58,0.87*12
$GPGSV,5,1,17,02,13,335,32,04,15,235,37,08,29,290,32,10,13,035,26*77
$GPGSV,5,2,17,16,24,205,31,18,23,126,32,23,01,073,,26,30,174,22*71
$GPGSV,5,3,17,27,55,249,32,28,59,080,40,31,64,150,29,32,24,012,36*76
$GPGSV,5,4,17,36,52,277,34,40,84,353,37,41,58,082,,49,32,274,*7F
$GPGSV,5,5,17,50,10,089,*4A
$GLGSV,3,1,09,65,24,291,23,66,09,244,33,72,17,349,27,74,15,095,09*61
$GLGSV,3,2,09,75,25,147,16,76,07,202,10,85,28,149,21,86,78,066,32*62
$GLGSV,3,3,09,87,40,346,25*51
$GNGLL,0419.71111,S,05539.76741,E,134629.00,A,D*66
$GNRMC,134630.00,A,0419.71113,S,05539.76740,E,0.094,,200525,,,D*79
$GNVTG,,T,,M,0.094,N,0.174,K,D*37
$GNGGA,134630.00,0419.71113,S,05539.76740,E,2,12,0.60,8.6,M,-47.6,M,,0000*7D
$GNGSA,A,3,32,18,10,28,26,16,27,31,40,08,04,02,1.06,0.60,0.87*1F
$GNGSA,A,3,85,72,75,86,65,87,76,66,,,,,1.06,0.60,0.87*1B
$GPGSV,5,1,17,02,13,335,33,04,15,235,43,08,29,290,35,10,13,035,25*71
$GPGSV,5,2,17,16,24,205,30,18,23,126,32,23,01,073,,26,30,174,24*76
$GPGSV,5,3,17,27,55,249,34,28,59,080,28,31,64,150,37,32,24,012,30*77
$GPGSV,5,4,17,36,52,277,30,40,84,353,37,41,58,082,,49,32,274,*7B
$GPGSV,5,5,17,50,10,089,*4A
$GLGSV,3,1,09,65,24,291,35,66,09,244,43,72,17,349,32,74,15,095,09*65
$GLGSV,3,2,09,75,25,147,18,76,07,202,11,85,28,149,30,86,78,066,35*6A
$GLGSV,3,3,09,87,40,346,35*50
$GNGLL,0419.71113,S,05539.76740,E,134630.00,A,D*6D
$GNRMC,134631.00,A,0419.71119,S,05539.76732,E,0.235,,200525,,,D*7E
$GNVTG,,T,,M,0.235,N,0.435,K,D*3E
$GNGGA,134631.00,0419.71119,S,05539.76732,E,2,12,0.58,8.6,M,-47.6,M,,0000*78
$GNGSA,A,3,32,18,10,28,26,16,27,31,40,08,04,02,1.04,0.58,0.87*16
$GNGSA,A,3,85,72,75,86,65,87,76,66,,,,,1.04,0.58,0.87*12
$GPGSV,5,1,17,02,13,335,33,04,15,235,47,08,29,290,35,10,13,035,32*73
$GPGSV,5,2,17,16,24,205,31,18,23,126,35,23,01,073,,26,30,174,25*71
$GPGSV,5,3,17,27,55,249,37,28,59,080,39,31,64,150,39,32,24,012,37*7D
$GPGSV,5,4,17,36,52,277,34,40,84,353,36,41,58,082,,49,32,274,*7E
$GPGSV,5,5,17,50,10,089,*4A
$GLGSV,3,1,09,65,24,291,36,66,09,244,42,72,17,349,32,74,15,095,10*6F
$GLGSV,3,2,09,75,25,147,20,76,07,202,11,85,28,149,30,86,78,066,35*61
$GLGSV,3,3,09,87,40,346,34*51
$GNGLL,0419.71119,S,05539.76732,E,134631.00,A,D*63
$GNRMC,134632.00,A,0419.71121,S,05539.76730,E,0.201,,200525,,,D*73
$GNVTG,,T,,M,0.201,N,0.372,K,D*3D
$GNGGA,134632.00,0419.71121,S,05539.76730,E,2,12,0.59,8.7,M,-47.6,M,,0000*72
$GNGSA,A,3,32,18,10,28,26,16,27,31,40,08,04,02,1.08,0.59,0.91*1C
$GNGSA,A,3,85,72,75,86,65,87,76,66,,,,,1.08,0.59,0.91*18
$GPGSV,5,1,17,02,13,335,33,04,15,235,47,08,29,290,35,10,13,035,35*74
$GPGSV,5,2,17,16,24,205,25,18,23,126,34,23,01,073,,26,30,174,26*76
$GPGSV,5,3,17,27,55,249,35,28,59,080,40,31,64,150,39,32,24,012,33*75
$GPGSV,5,4,17,36,52,277,34,40,84,353,36,41,58,082,,49,32,274,*7E
$GPGSV,5,5,17,50,10,089,*4A
$GLGSV,3,1,09,65,24,291,36,66,09,244,42,72,17,349,31,74,15,095,11*6D
$GLGSV,3,2,09,75,25,147,21,76,07,202,10,85,28,149,29,86,78,066,35*69
$GLGSV,3,3,09,87,40,346,32*57
$GNGLL,0419.71121,S,05539.76730,E,134632.00,A,D*69
$GNRMC,134633.00,A,0419.71124,S,05539.76719,E,0.342,,200525,,,D*7A
$GNVTG,,T,,M,0.342,N,0.633,K,D*3B
$GNGGA,134633.00,0419.71124,S,05539.76719,E,2,12,0.58,8.8,M,-47.6,M,,0000*73
$GNGSA,A,3,32,18,10,28,26,16,27,31,40,08,04,02,1.04,0.58,0.87*16
$GNGSA,A,3,85,72,75,86,65,87,76,66,,,,,1.04,0.58,0.87*12
$GPGSV,5,1,17,02,13,335,32,04,15,235,45,08,29,290,35,10,13,035,25*76
$GPGSV,5,2,17,16,24,205,24,18,23,126,31,23,01,073,,26,30,174,34*71
$GPGSV,5,3,17,27,55,249,32,28,59,080,41,31,64,150,35,32,24,012,35*79
$GPGSV,5,4,17,36,52,277,39,40,84,353,37,41,58,082,,49,32,274,*72
$GPGSV,5,5,17,50,10,089,*4A
$GLGSV,3,1,09,65,24,291,37,66,09,244,44,72,17,349,26,74,15,095,09*65
$GLGSV,3,2,09,75,25,147,29,76,07,202,10,85,28,149,36,86,78,066,34*6E
$GLGSV,3,3,09,87,40,346,26*52
$GNGLL,0419.71124,S,05539.76719,E,134633.00,A,D*66
$GNRMC,134634.00,A,0419.71124,S,05539.76722,E,0.430,9.45,200525,,,D*61
$GNVTG,9.45,T,,M,0.430,N,0.796,K,D*21
$GNGGA,134634.00,0419.71124,S,05539.76722,E,2,12,0.58,8.6,M,-47.6,M,,0000*72
$GNGSA,A,3,32,18,10,28,26,16,27,31,40,08,04,02,1.04,0.58,0.87*16
$GNGSA,A,3,85,72,75,86,65,87,76,66,,,,,1.04,0.58,0.87*12
$GPGSV,5,1,17,02,13,335,31,04,15,235,46,08,29,290,36,10,13,035,34*75
$GPGSV,5,2,17,16,24,205,21,18,23,126,34,23,01,073,,26,30,174,31*74
$GPGSV,5,3,17,27,55,249,33,28,59,080,40,31,64,150,36,32,24,012,31*7E
$GPGSV,5,4,17,36,52,277,39,40,84,353,39,41,58,082,,49,32,274,*7C
$GPGSV,5,5,17,50,10,089,*4A
$GLGSV,3,1,09,65,24,291,39,66,09,244,44,72,17,349,28,74,15,095,11*6C
$GLGSV,3,2,09,75,25,147,31,76,07,202,12,85,28,149,33,86,78,066,33*67
$GLGSV,3,3,09,87,40,346,27*53
$GNGLL,0419.71124,S,05539.76722,E,134634.00,A,D*69
$GNRMC,134635.00,A,0419.71120,S,05539.76726,E,0.182,,200525,,,D*7A
$GNVTG,,T,,M,0.182,N,0.337,K,D*34
$GNGGA,134635.00,0419.71120,S,05539.76726,E,2,12,0.58,8.2,M,-47.6,M,,0000*77
$GNGSA,A,3,32,18,10,28,26,16,27,31,40,08,04,02,1.04,0.58,0.87*16
$GNGSA,A,3,85,72,75,86,65,87,76,66,,,,,1.04,0.58,0.87*12
$GPGSV,5,1,17,02,13,335,29,04,15,235,45,08,29,290,37,10,13,035,36*7C
$GPGSV,5,2,17,16,24,205,30,18,23,126,34,23,01,073,,26,30,174,34*71
$GPGSV,5,3,17,27,55,249,41,28,59,080,42,31,64,150,33,32,24,012,24*78
$GPGSV,5,4,17,36,52,277,40,40,84,353,41,41,58,082,,49,32,274,*7D
$GPGSV,5,5,17,50,10,089,*4A
$GLGSV,3,1,09,65,24,291,37,66,09,244,44,72,17,349,28,74,15,095,11*62
$GLGSV,3,2,09,75,25,147,24,76,07,202,12,85,28,149,33,86,78,066,38*68
$GLGSV,3,3,09,87,40,346,31*54
$GNGLL,0419.71120,S,05539.76726,E,134635.00,A,D*68
$GNRMC,134636.00,A,0419.71117,S,05539.76728,E,0.044,,200525,,,D*78
$GNVTG,,T,,M,0.044,N,0.082,K,D*32
$GNGGA,134636.00,0419.71117,S,05539.76728,E,2,12,0.58,8.0,M,-47.6,M,,0000*7C
$GNGSA,A,3,32,18,10,28,26,16,27,31,40,08,04,02,1.04,0.58,0.87*16
$GNGSA,A,3,85,72,75,86,65,87,76,66,,,,,1.04,0.58,0.87*12
$GPGSV,5,1,17,02,13,335,29,04,15,235,43,08,29,290,36,10,13,035,33*7E
$GPGSV,5,2,17,16,24,205,33,18,23,126,33,23,01,073,,26,30,174,34*75
$GPGSV,5,3,17,27,55,249,41,28,59,080,43,31,64,150,32,32,24,012,25*79
$GPGSV,5,4,17,36,52,277,40,40,84,353,42,41,58,082,,49,32,274,*7E
$GPGSV,5,5,17,50,10,089,*4A
$GLGSV,3,1,09,65,24,291,38,66,09,244,44,72,17,349,26,74,15,095,11*63
$GLGSV,3,2,09,75,25,147,25,76,07,202,07,85,28,149,34,86,78,066,39*6B
$GLGSV,3,3,09,87,40,346,30*55
$GNGLL,0419.71117,S,05539.76728,E,134636.00,A,D*61
$GNRMC,134637.00,A,0419.71117,S,05539.76727,E,0.101,,200525,,,D*76
$GNVTG,,T,,M,0.101,N,0.187,K,D*36
$GNGGA,134637.00,0419.71117,S,05539.76727,E,2,12,0.58,7.9,M,-47.6,M,,0000*74
$GNGSA,A,3,32,18,10,28,26,16,27,31,40,08,04,02,1.04,0.58,0.87*16
$GNGSA,A,3,85,72,75,86,65,87,76,66,,,,,1.04,0.58,0.87*12
$GPGSV,5,1,17,02,13,335,29,04,15,235,43,08,29,290,35,10,13,035,32*7C
$GPGSV,5,2,17,16,24,205,34,18,23,126,31,23,01,073,,26,30,174,35*71
$GPGSV,5,3,17,27,55,249,40,28,59,080,43,31,64,150,31,32,24,012,27*79
$GPGSV,5,4,17,36,52,277,40,40,84,353,40,41,58,082,,49,32,274,*7C
$GPGSV,5,5,17,50,10,089,*4A
$GLGSV,3,1,09,65,24,291,38,66,09,244,45,72,17,349,26,74,15,095,07*65
$GLGSV,3,2,09,75,25,147,25,76,07,202,11,85,28,149,34,86,78,066,36*63
$GLGSV,3,3,09,87,40,346,31*54
$GNGLL,0419.71117,S,05539.76727,E,134637.00,A,D*6F
$GNRMC,134638.00,A,0419.71118,S,05539.76724,E,0.027,,200525,,,D*70
$GNVTG,,T,,M,0.027,N,0.050,K,D*38
$GNGGA,134638.00,0419.71118,S,05539.76724,E,2,12,0.59,8.0,M,-47.6,M,,0000*70
$GNGSA,A,3,32,18,10,28,26,16,27,31,40,08,04,02,1.08,0.59,0.91*1C
$GNGSA,A,3,85,72,75,86,65,87,76,66,,,,,1.08,0.59,0.91*18
$GPGSV,5,1,17,02,13,335,26,04,15,235,42,08,29,290,35,10,13,035,31*71
$GPGSV,5,2,17,16,24,204,36,18,23,126,24,23,01,073,,26,30,174,35*76
$GPGSV,5,3,17,27,55,249,41,28,59,080,43,31,64,150,31,32,24,012,28*77
$GPGSV,5,4,17,36,52,277,40,40,84,353,41,41,58,082,,49,32,274,*7D
$GPGSV,5,5,17,50,10,089,*4A
$GLGSV,3,1,09,65,24,291,38,66,09,244,45,72,17,349,27,74,15,095,09*6A
$GLGSV,3,2,09,75,25,147,23,76,07,202,13,85,28,149,32,86,78,066,36*61
$GLGSV,3,3,09,87,40,346,31*54
$GNGLL,0419.71118,S,05539.76724,E,134638.00,A,D*6C
$GNRMC,134639.00,A,0419.71115,S,05539.76724,E,0.053,,200525,,,D*7F
$GNVTG,,T,,M,0.053,N,0.099,K,D*3E
$GNGGA,134639.00,0419.71115,S,05539.76724,E,2,12,0.58,7.9,M,-47.6,M,,0000*7B
$GNGSA,A,3,32,18,10,28,26,16,27,31,40,08,04,02,1.04,0.58,0.87*16
$GNGSA,A,3,85,72,75,86,65,87,76,66,,,,,1.04,0.58,0.87*12
$GPGSV,5,1,17,02,13,335,25,04,15,235,42,08,29,290,34,10,13,035,29*7A
$GPGSV,5,2,17,16,24,204,37,18,23,126,22,23,01,073,,26,30,174,36*72
$GPGSV,5,3,17,27,55,249,41,28,59,080,43,31,64,150,32,32,24,012,30*7D
$GPGSV,5,4,17,36,52,277,39,40,84,353,41,41,58,082,,49,32,274,*73
$GPGSV,5,5,17,50,10,089,*4A
$GLGSV,3,1,09,65,24,291,38,66,09,244,45,72,17,349,27,74,15,095,09*6A
$GLGSV,3,2,09,75,25,147,21,76,07,202,09,85,28,149,32,86,78,066,37*69
$GLGSV,3,3,09,87,40,346,30*55
$GNGLL,0419.71115,S,05539.76724,E,134639.00,A,D*60
$GNRMC,134640.00,A,0419.71113,S,05539.76721,E,0.021,,200525,,,D*77
$GNVTG,,T,,M,0.021,N,0.039,K,D*31
$GNGGA,134640.00,0419.71113,S,05539.76721,E,2,12,0.58,7.9,M,-47.6,M,,0000*76
$GNGSA,A,3,32,18,10,28,26,16,27,31,40,08,04,02,1.04,0.58,0.87*16
$GNGSA,A,3,85,72,75,86,65,87,76,66,,,,,1.04,0.58,0.87*12
$GPGSV,5,1,17,02,13,335,26,04,15,235,42,08,29,290,34,10,13,035,28*78
$GPGSV,5,2,17,16,24,204,36,18,22,126,22,23,01,073,,26,30,174,36*72
$GPGSV,5,3,17,27,55,249,40,28,59,080,43,31,64,150,32,32,24,012,30*7C
$GPGSV,5,4,17,36,52,277,40,40,84,353,38,41,58,082,,49,32,274,*73
$GPGSV,5,5,17,50,10,089,*4A
$GLGSV,3,1,09,65,24,291,38,66,09,244,45,72,17,349,27,74,15,095,06*65
$GLGSV,3,2,09,75,25,147,22,76,07,202,11,85,28,149,33,86,78,066,30*65
$GLGSV,3,3,09,87,40,346,30*55
$GNGLL,0419.71113,S,05539.76721,E,134640.00,A,D*6D
$GNRMC,134641.00,A,0419.71110,S,05539.76718,E,0.054,,200525,,,D*7D
$GNVTG,,T,,M,0.054,N,0.101,K,D*39
$GNGGA,134641.00,0419.71110,S,05539.76718,E,2,12,0.59,7.9,M,-47.6,M,,0000*7F
$GNGSA,A,3,32,18,10,28,26,16,27,31,40,08,04,02,1.08,0.59,0.91*1C
$GNGSA,A,3,85,72,75,86,65,87,76,66,,,,,1.08,0.59,0.91*18
$GPGSV,5,1,17,02,13,335,27,04,15,235,43,08,29,290,33,10,13,035,27*70
$GPGSV,5,2,17,16,24,204,35,18,22,126,23,23,01,073,,26,30,174,35*73
$GPGSV,5,3,17,27,55,249,35,28,59,080,42,31,64,150,32,32,24,012,30*7F
$GPGSV,5,4,17,36,52,277,39,40,84,353,38,41,58,082,,49,32,274,*7D
$GPGSV,5,5,17,50,10,089,*4A
$GLGSV,3,1,09,65,24,291,38,66,09,244,44,72,17,349,27,74,15,095,09*6B
$GLGSV,3,2,09,75,25,147,26,76,07,202,09,85,28,149,34,86,78,066,30*6F
$GLGSV,3,3,09,87,40,346,30*55
$GNGLL,0419.71110,S,05539.76718,E,134641.00,A,D*65
$GNRMC,134642.00,A,0419.71110,S,05539.76716,E,0.104,,200525,,,D*74
$GNVTG,,T,,M,0.104,N,0.193,K,D*36
$GNGGA,134642.00,0419.71110,S,05539.76716,E,2,12,0.58,7.9,M,-47.6,M,,0000*73
$GNGSA,A,3,32,18,10,28,26,16,27,31,40,08,04,02,1.04,0.58,0.87*16
$GNGSA,A,3,85,72,75,86,65,87,76,66,,,,,1.04,0.58,0.87*12
$GPGSV,5,1,17,02,13,335,28,04,15,235,43,08,29,290,33,10,13,035,29*71
$GPGSV,5,2,17,16,24,204,31,18,22,126,23,23,01,073,,26,30,174,34*76
$GPGSV,5,3,17,27,55,249,31,28,59,080,40,31,64,150,36,32,24,012,22*7E
$GPGSV,5,4,17,36,52,277,38,40,84,353,38,41,58,082,,49,32,274,*7C
$GPGSV,5,5,17,50,10,089,*4A
$GLGSV,3,1,09,65,24,291,38,66,09,244,44,72,17,349,28,74,15,095,08*65
$GLGSV,3,2,09,75,25,147,27,76,07,202,09,85,28,149,32,86,78,066,26*6F
$GLGSV,3,3,09,87,40,346,29*5D
$GNGLL,0419.71110,S,05539.76716,E,134642.00,A,D*68
$GNRMC,134643.00,A,0419.71110,S,05539.76714,E,0.065,,200525,,,D*71
$GNVTG,,T,,M,0.065,N,0.120,K,D*38
$GNGGA,134643.00,0419.71110,S,05539.76714,E,2,12,0.58,7.9,M,-47.6,M,,0000*70
$GNGSA,A,3,32,18,10,28,26,16,27,31,40,08,04,02,1.04,0.58,0.87*16
$GNGSA,A,3,85,72,75,86,65,87,76,66,,,,,1.04,0.58,0.87*12
$GPGSV,5,1,17,02,13,335,27,04,15,235,43,08,29,290,34,10,13,035,30*71
$GPGSV,5,2,17,16,24,204,30,18,22,126,23,23,01,073,,26,30,174,36*75
$GPGSV,5,3,17,27,55,249,30,28,59,080,39,31,64,150,37,32,24,012,30*73
$GPGSV,5,4,17,36,52,277,38,40,84,353,39,41,58,082,,49,32,274,*7D
$GPGSV,5,5,17,50,10,089,*4A
$GLGSV,3,1,09,65,24,291,37,66,09,244,44,72,17,349,27,74,15,095,08*65
$GLGSV,3,2,09,75,25,147,26,76,07,202,10,85,28,149,32,86,78,066,27*67
$GLGSV,3,3,09,87,40,346,29*5D
$GNGLL,0419.71110,S,05539.76714,E,134643.00,A,D*6B
$GNRMC,134644.00,A,0419.71111,S,05539.76710,E,0.042,,200525,,,D*76
$GNVTG,,T,,M,0.042,N,0.078,K,D*31
$GNGGA,134644.00,0419.71111,S,05539.76710,E,2,12,0.58,8.0,M,-47.6,M,,0000*74
$GNGSA,A,3,32,18,10,28,26,16,27,31,40,08,04,02,1.04,0.58,0.87*16
$GNGSA,A,3,85,72,75,86,65,87,76,66,,,,,1.04,0.58,0.87*12
$GPGSV,5,1,17,02,13,335,25,04,15,235,44,08,29,290,33,10,13,035,28*7A
$GPGSV,5,2,17,16,24,204,31,18,22,126,20,23,01,074,,26,30,174,37*71
$GPGSV,5,3,17,27,55,249,30,28,59,080,39,31,64,150,38,32,24,012,30*7C
$GPGSV,5,4,17,36,52,277,37,40,84,353,40,41,58,082,,49,32,274,*7C
$GPGSV,5,5,17,50,10,089,*4A
$GLGSV,3,1,09,65,24,291,37,66,09,244,44,72,17,349,28,74,15,095,08*6A
$GLGSV,3,2,09,75,25,147,25,76,07,202,10,85,28,149,32,86,78,066,32*60
$GLGSV,3,3,09,87,40,346,27*53
$GNGLL,0419.71111,S,05539.76710,E,134644.00,A,D*69
$GNRMC,134645.00,A,0419.71109,S,05539.76706,E,0.046,,200525,,,D*7D
$GNVTG,,T,,M,0.046,N,0.086,K,D*34
$GNGGA,134645.00,0419.71109,S,05539.76706,E,2,12,0.58,8.1,M,-47.6,M,,0000*7A
$GNGSA,A,3,32,18,10,28,26,16,27,31,40,08,04,02,1.04,0.58,0.87*16
$GNGSA,A,3,85,72,75,86,65,87,76,66,,,,,1.04,0.58,0.87*12
$GPGSV,5,1,17,02,13,335,25,04,15,235,44,08,29,290,34,10,13,035,26*73
$GPGSV,5,2,17,16,24,204,30,18,22,126,17,23,01,074,,26,30,174,37*74
$GPGSV,5,3,17,27,55,249,29,28,59,080,37,31,64,150,39,32,24,012,31*7A
$GPGSV,5,4,17,36,52,277,34,40,84,353,42,41,58,082,,49,32,274,*7D
$GPGSV,5,5,17,50,10,089,*4A
$GLGSV,3,1,09,65,24,291,37,66,09,244,44,72,17,349,28,74,15,095,07*65
$GLGSV,3,2,09,75,25,147,26,76,07,202,10,85,28,149,32,86,78,066,33*62
$GLGSV,3,3,09,87,40,346,25*51
$GNGLL,0419.71109,S,05539.76706,E,134645.00,A,D*66
$GNRMC,134646.00,A,0419.71109,S,05539.76703,E,0.024,,200525,,,D*7F
$GNVTG,,T,,M,0.024,N,0.045,K,D*3F
$GNGGA,134646.00,0419.71109,S,05539.76703,E,2,12,0.58,8.1,M,-47.6,M,,0000*7C
$GNGSA,A,3,32,18,10,28,26,16,27,31,40,08,04,02,1.04,0.58,0.87*16
$GNGSA,A,3,85,72,75,86,65,87,76,66,,,,,1.04,0.58,0.87*12
$GPGSV,5,1,17,02,13,335,24,04,15,235,44,08,29,290,34,10,13,035,25*71
$GPGSV,5,2,17,16,24,204,29,18,22,126,19,23,01,074,,26,30,174,37*72
$GPGSV,5,3,17,27,55,249,29,28,59,080,37,31,64,150,38,32,24,012,30*7A
$GPGSV,5,4,17,36,52,277,34,40,84,353,42,41,58,082,,49,32,274,*7D
$GPGSV,5,5,17,50,10,089,*4A
$GLGSV,3,1,09,65,24,291,37,66,09,244,44,72,17,349,28,74,15,095,08*6A
$GLGSV,3,2,09,75,25,147,26,76,07,202,09,85,28,149,32,86,78,066,33*6A
$GLGSV,3,3,09,87,40,346,23*57
$GNGLL,0419.71109,S,05539.76703,E,134646.00,A,D*60
$GNRMC,134647.00,A,0419.71108,S,05539.76701,E,0.024,,200525,,,D*7D
$GNVTG,,T,,M,0.024,N,0.044,K,D*3E
$GNGGA,134647.00,0419.71108,S,05539.76701,E,2,12,0.59,8.2,M,-47.6,M,,0000*7C
$GNGSA,A,3,32,18,10,28,26,16,27,31,40,08,04,02,1.08,0.59,0.91*1C
$GNGSA,A,3,85,72,75,86,65,87,76,66,,,,,1.08,0.59,0.91*18
$GPGSV,5,1,17,02,13,335,24,04,15,235,45,08,29,290,35,10,13,035,25*71
$GPGSV,5,2,17,16,24,204,27,18,22,126,20,23,01,074,,26,30,173,36*70
$GPGSV,5,3,17,27,55,249,31,28,59,080,36,31,64,150,38,32,24,012,28*7B
$GPGSV,5,4,17,36,52,277,33,40,84,353,42,41,58,082,,49,32,274,*7A
$GPGSV,5,5,17,50,10,089,*4A
$GLGSV,3,1,09,65,24,291,37,66,09,244,44,72,17,349,27,74,15,095,06*6B
$GLGSV,3,2,09,75,25,147,26,76,07,202,09,85,28,149,32,86,78,066,34*6D
$GLGSV,3,3,09,87,40,346,23*57
$GNGLL,0419.71108,S,05539.76701,E,134647.00,A,D*62
$GNRMC,134648.00,A,0419.71106,S,05539.76700,E,0.015,,200525,,,D*7F
$GNVTG,,T,,M,0.015,N,0.028,K,D*36
$GNGGA,134648.00,0419.71106,S,05539.76700,E,2,12,0.58,8.2,M,-47.6,M,,0000*7D
$GNGSA,A,3,32,18,10,28,26,16,27,31,40,08,04,02,1.04,0.58,0.87*16
$GNGSA,A,3,85,72,75,86,65,87,76,66,,,,,1.04,0.58,0.87*12
$GPGSV,5,1,17,02,13,335,24,04,15,235,45,08,29,290,36,10,13,035,27*70
$GPGSV,5,2,17,16,24,204,24,18,22,126,20,23,01,074,,26,30,173,35*70
$GPGSV,5,3,17,27,55,248,34,28,59,080,35,31,64,150,38,32,24,012,26*72
$GPGSV,5,4,17,36,52,277,33,40,84,353,43,41,58,082,,49,32,274,*7B
$GPGSV,5,5,17,50,10,089,*4A
$GLGSV,3,1,09,65,24,291,36,66,09,244,44,72,17,349,27,74,15,095,06*6A
$GLGSV,3,2,09,75,25,147,26,76,07,202,10,85,28,149,31,86,78,066,35*67
$GLGSV,3,3,09,87,40,346,23*57
$GNGLL,0419.71106,S,05539.76700,E,134648.00,A,D*62
$GNRMC,134649.00,A,0419.71106,S,05539.76701,E,0.040,,200525,,,D*7F
$GNVTG,,T,,M,0.040,N,0.075,K,D*3E
$GNGGA,134649.00,0419.71106,S,05539.76701,E,2,12,0.58,8.2,M,-47.6,M,,0000*7D
$GNGSA,A,3,32,18,10,28,26,16,27,31,40,08,04,02,1.04,0.58,0.87*16
$GNGSA,A,3,85,72,75,86,65,87,76,66,,,,,1.04,0.58,0.87*12
$GPGSV,5,1,17,02,13,335,24,04,15,235,45,08,29,290,36,10,13,035,28*7F
$GPGSV,5,2,17,16,24,204,22,18,22,126,20,23,01,074,,26,30,173,34*77
$GPGSV,5,3,17,27,55,248,34,28,59,079,33,31,64,150,38,32,24,012,23*77
$GPGSV,5,4,17,36,52,277,34,40,84,353,44,41,58,082,,49,32,274,*7B
$GPGSV,5,5,17,50,10,089,*4A
$GLGSV,3,1,09,65,24,291,36,66,09,244,44,72,17,349,27,74,15,095,07*6B
$GLGSV,3,2,09,75,25,147,27,76,07,202,13,85,28,149,31,86,78,066,36*66
$GLGSV,3,3,09,87,40,346,23*57
$GNGLL,0419.71106,S,05539.76701,E,134649.00,A,D*62
$GNRMC,134650.00,A,0419.71105,S,05539.76700,E,0.055,,200525,,,D*71
$GNVTG,,T,,M,0.055,N,0.102,K,D*3B
$GNGGA,134650.00,0419.71105,S,05539.76700,E,2,12,0.58,8.2,M,-47.6,M,,0000*77
$GNGSA,A,3,32,18,10,28,26,16,27,31,40,08,04,02,1.04,0.58,0.87*16
$GNGSA,A,3,85,72,75,86,65,87,76,66,,,,,1.04,0.58,0.87*12
$GPGSV,5,1,17,02,13,335,22,04,15,235,45,08,29,290,36,10,13,035,28*79
$GPGSV,5,2,17,16,24,204,21,18,22,126,21,23,01,074,,26,30,173,34*75
$GPGSV,5,3,17,27,55,248,35,28,59,079,30,31,64,150,38,32,24,012,20*76
$GPGSV,5,4,17,36,52,277,33,40,84,353,44,41,58,082,,49,32,274,*7C
$GPGSV,5,5,17,50,10,089,*4A
$GLGSV,3,1,09,65,24,291,36,66,09,244,44,72,17,349,26,74,15,095,07*6A
$GLGSV,3,2,09,75,25,147,27,76,07,202,10,85,28,149,31,86,78,066,36*65
$GLGSV,3,3,09,87,40,346,24*50
$GNGLL,0419.71105,S,05539.76700,E,134650.00,A,D*68
$GNRMC,134651.00,A,0419.71105,S,05539.76699,E,0.020,,200525,,,D*73
$GNVTG,,T,,M,0.020,N,0.038,K,D*31
$GNGGA,134651.00,0419.71105,S,05539.76699,E,2,12,0.58,8.3,M,-47.6,M,,0000*76
$GNGSA,A,3,32,18,10,28,26,16,27,31,40,08,04,02,1.04,0.58,0.87*16
$GNGSA,A,3,85,72,75,86,65,87,76,66,,,,,1.04,0.58,0.87*12
$GPGSV,5,1,17,02,13,335,23,04,15,235,45,08,29,290,36,10,13,035,28*78
$GPGSV,5,2,17,16,24,204,23,18,22,126,20,23,01,074,,26,30,173,34*76
$GPGSV,5,3,17,27,55,248,33,28,59,079,29,31,64,150,38,32,24,012,17*7C
$GPGSV,5,4,17,36,52,277,34,40,84,353,44,41,58,082,,49,32,274,*7B
$GPGSV,5,5,17,50,10,089,*4A
$GLGSV,3,1,09,65,24,291,35,66,09,244,43,72,17,349,27,74,15,095,08*60
$GLGSV,3,2,09,75,25,147,27,76,07,202,10,85,28,149,31,86,78,066,37*64
$GLGSV,3,3,09,87,40,346,25*51
$GNGLL,0419.71105,S,05539.76699,E,134651.00,A,D*68
$GNRMC,134652.00,A,0419.71105,S,05539.76699,E,0.008,,200525,,,D*7A
$GNVTG,,T,,M,0.008,N,0.015,K,D*34
$GNGGA,134652.00,0419.71105,S,05539.76699,E,2,12,0.58,8.3,M,-47.6,M,,0000*75
$GNGSA,A,3,32,18,10,28,26,16,27,31,40,08,04,02,1.04,0.58,0.87*16
$GNGSA,A,3,85,72,75,86,65,87,76,66,,,,,1.04,0.58,0.87*12
$GPGSV,5,1,17,02,13,335,24,04,15,235,45,08,29,290,36,10,13,035,28*7F
$GPGSV,5,2,17,16,24,204,23,18,22,126,17,23,01,074,,26,30,173,34*72
$GPGSV,5,3,17,27,55,248,35,28,59,079,26,31,65,149,38,32,24,012,17*7C
$GPGSV,5,4,17,36,52,277,33,40,84,353,45,41,58,082,,49,32,274,*7D
$GPGSV,5,5,17,50,10,089,*4A
$GLGSV,3,1,09,65,24,291,34,66,09,244,43,72,17,349,27,74,15,095,08*61
$GLGSV,3,2,09,75,25,147,27,76,07,202,10,85,28,149,31,86,78,066,39*6A
$GLGSV,3,3,09,87,40,346,26*52
$GNGLL,0419.71105,S,05539.76699,E,134652.00,A,D*6B
$GNRMC,134653.00,A,0419.71106,S,05539.76699,E,0.015,,200525,,,D*74
$GNVTG,,T,,M,0.015,N,0.028,K,D*36
$GNGGA,134653.00,0419.71106,S,05539.76699,E,2,12,0.58,8.3,M,-47.6,M,,0000*77
$GNGSA,A,3,32,18,10,28,26,16,27,31,40,08,04,02,1.04,0.58,0.87*16
$GNGSA,A,3,85,72,75,86,65,87,76,66,,,,,1.04,0.58,0.87*12
$GPGSV,5,1,17,02,13,335,24,04,15,235,45,08,29,290,37,10,13,035,33*74
$GPGSV,5,2,17,16,24,204,22,18,22,126,17,23,01,074,,26,30,173,33*74
$GPGSV,5,3,17,27,55,248,36,28,59,079,24,31,65,149,38,32,23,012,17*7A
$GPGSV,5,4,17,36,52,277,32,40,84,353,45,41,58,082,,49,32,274,*7C
$GPGSV,5,5,17,50,10,089,*4A
$GLGSV,3,1,09,65,24,291,34,66,09,244,43,72,17,349,27,74,15,095,07*6E
$GLGSV,3,2,09,75,25,147,27,76,07,202,11,85,28,149,30,86,78,066,38*6B
$GLGSV,3,3,09,87,40,346,27*53
$GNGLL,0419.71106,S,05539.76699,E,134653.00,A,D*69
$GNRMC,134654.00,A,0419.71105,S,05539.76703,E,0.023,,200525,,,D*77
$GNVTG,,T,,M,0.023,N,0.042,K,D*3F
$GNGGA,134654.00,0419.71105,S,05539.76703,E,2,12,0.58,8.2,M,-47.6,M,,0000*70
$GNGSA,A,3,32,18,10,28,26,16,27,31,40,08,04,02,1.04,0.58,0.87*16
$GNGSA,A,3,85,72,75,86,65,87,76,66,,,,,1.04,0.58,0.87*12
$GPGSV,5,1,17,02,13,335,22,04,15,235,45,08,29,290,37,10,13,035,28*78
$GPGSV,5,2,17,16,24,204,22,18,22,126,21,23,01,074,,26,30,173,33*71
$GPGSV,5,3,17,27,55,248,39,28,59,079,24,31,65,149,38,32,23,012,19*7B
$GPGSV,5,4,17,36,52,277,30,40,84,353,45,41,58,082,,49,32,274,*7E
$GPGSV,5,5,17,50,10,089,*4A
$GLGSV,3,1,09,65,24,291,35,66,09,244,43,72,17,349,26,74,15,095,10*68
$GLGSV,3,2,09,75,25,147,28,76,07,202,11,85,28,149,30,86,78,066,39*65
$GLGSV,3,3,09,87,40,346,27*53
$GNGLL,0419.71105,S,05539.76703,E,134654.00,A,D*6F
$GNRMC,134655.00,A,0419.71104,S,05539.76706,E,0.045,,200525,,,D*72
$GNVTG,,T,,M,0.045,N,0.083,K,D*32
$GNGGA,134655.00,0419.71104,S,05539.76706,E,2,12,0.58,8.1,M,-47.6,M,,0000*76
$GNGSA,A,3,32,18,10,28,26,16,27,31,40,08,04,02,1.04,0.58,0.87*16
$GNGSA,A,3,85,72,75,86,65,87,76,66,,,,,1.04,0.58,0.87*12
$GPGSV,5,1,17,02,13,335,19,04,15,235,45,08,29,290,37,10,13,035,29*71
$GPGSV,5,2,17,16,24,204,24,18,22,126,25,23,01,074,,26,30,173,34*74
$GPGSV,5,3,17,27,55,248,39,28,59,079,32,31,65,149,38,32,23,012,21*77
$GPGSV,5,4,17,36,52,277,,40,84,353,46,41,58,082,,49,32,274,*7E
$GPGSV,5,5,17,50,10,089,*4A
$GLGSV,3,1,09,65,24,291,35,66,09,244,43,72,17,349,27,74,15,095,08*60
$GLGSV,3,2,09,75,25,147,28,76,07,202,13,85,28,149,30,86,78,066,39*67
$GLGSV,3,3,09,87,40,346,27*53
$GNGLL,0419.71104,S,05539.76706,E,134655.00,A,D*6A
$GNRMC,134656.00,A,0419.71103,S,05539.76710,E,0.035,,200525,,,D*76
