$GNRMC,115518.00,A,0419.76035,S,05539.82212,E,1.029,,270525,,,A*7D
$GNVTG,,T,,M,1.029,N,1.906,K,A*39
$GNGGA,115518.00,0419.76035,S,05539.82212,E,1,09,0.96,19.3,M,-47.6,M,,*49
$GNGSA,A,3,32,28,27,18,31,16,,,,,,,3.09,0.96,2.94*14
$GNGSA,A,3,84,71,85,,,,,,,,,,3.09,0.96,2.94*11
$GPGSV,5,1,17,08,07,318,,10,16,002,,16,25,243,20,18,33,082,23*7F
$GPGSV,5,2,17,23,02,039,,25,00,124,,26,29,211,08,27,42,311,24*72
$GPGSV,5,3,17,28,48,152,21,29,14,148,,31,33,187,14,32,59,358,21*70
$GPGSV,5,4,17,36,52,277,,40,84,353,,41,58,082,30,49,32,274,*7F
$GPGSV,5,5,17,50,10,089,*4A
$GLGSV,3,1,09,70,23,358,,71,48,306,19,72,29,241,,73,15,144,*69
$GLGSV,3,2,09,74,15,190,,75,00,235,,83,12,139,,84,50,090,17*61
$GLGSV,3,3,09,85,39,011,13*59
$GNGLL,0419.76035,S,05539.82212,E,115518.00,A,A*69
$GNRMC,115519.00,A,0419.76042,S,05539.82226,E,0.811,,270525,,,A*79
$GNVTG,,T,,M,0.811,N,1.501,K,A*30
$GNGGA,115519.00,0419.76042,S,05539.82226,E,1,08,1.11,19.6,M,-47.6,M,,*45
$GNGSA,A,3,32,28,27,18,31,16,,,,,,,3.38,1.11,3.20*16
$GNGSA,A,3,84,71,,,,,,,,,,,3.38,1.11,3.20*1E
$GPGSV,5,1,17,08,07,318,,10,16,002,,16,25,243,20,18,33,082,22*7E
$GPGSV,5,2,17,23,02,039,,25,00,124,,26,29,211,08,27,42,311,25*73
$GPGSV,5,3,17,28,48,152,25,29,14,148,,31,33,187,11,32,59,358,29*79
$GPGSV,5,4,17,36,52,277,,40,84,353,,41,58,082,37,49,32,274,*78
$GPGSV,5,5,17,50,10,089,*4A
$GLGSV,3,1,09,70,23,358,,71,48,306,19,72,29,241,,73,15,144,*69
$GLGSV,3,2,09,74,15,190,,75,00,235,,83,12,139,,84,50,090,18*6E
$GLGSV,3,3,09,85,39,011,09*52
$GNGLL,0419.76042,S,05539.82226,E,115519.00,A,A*6F
$GNRMC,115520.00,A,0419.76065,S,05539.82209,E,0.453,,270525,,,A*71
$GNVTG,,T,,M,0.453,N,0.838,K,A*3C
$GNGGA,115520.00,0419.76065,S,05539.82209,E,1,09,1.07,18.7,M,-47.6,M,,*41
$GNGSA,A,3,32,28,27,18,31,26,16,,,,,,3.35,1.07,3.17*1C
$GNGSA,A,3,84,71,,,,,,,,,,,3.35,1.07,3.17*10
$GPGSV,5,1,17,08,07,318,,10,16,002,,16,25,243,20,18,33,082,23*7F
$GPGSV,5,2,17,23,02,039,,25,00,124,,26,29,211,17,27,42,311,28*70
$GPGSV,5,3,17,28,48,152,27,29,14,148,,31,33,187,20,32,59,358,28*78
$GPGSV,5,4,17,36,52,277,,40,84,353,,41,58,082,37,49,32,274,*78
$GPGSV,5,5,17,50,10,089,*4A
$GLGSV,3,1,09,70,23,358,,71,48,306,22,72,29,241,,73,15,144,*61
$GLGSV,3,2,09,74,15,190,,75,00,235,,83,12,139,,84,50,090,19*6F
$GLGSV,3,3,09,85,39,011,07*5C
$GNGLL,0419.76065,S,05539.82209,E,115520.00,A,A*6D
$GNRMC,115521.00,A,0419.76056,S,05539.82217,E,0.367,,270525,,,A*7F
$GNVTG,,T,,M,0.367,N,0.679,K,A*37
$GNGGA,115521.00,0419.76056,S,05539.82217,E,1,10,0.93,19.0,M,-47.6,M,,*4D
$GNGSA,A,3,32,28,27,18,31,26,16,,,,,,3.04,0.93,2.90*1C
$GNGSA,A,3,84,71,85,,,,,,,,,,3.04,0.93,2.90*1D
$GPGSV,5,1,17,08,07,318,,10,16,002,,16,25,243,20,18,33,082,23*7F
$GPGSV,5,2,17,23,02,039,,25,00,124,,26,29,211,18,27,42,311,30*76
$GPGSV,5,3,17,28,48,152,28,29,14,148,07,31,33,187,20,32,59,358,25*7D
$GPGSV,5,4,17,36,52,277,,40,84,353,,41,58,082,36,49,32,274,*79
$GPGSV,5,5,17,50,10,089,*4A
$GLGSV,3,1,09,70,23,358,,71,48,306,25,72,29,241,,73,15,144,*66
$GLGSV,3,2,09,74,15,190,,75,00,235,,83,12,139,,84,50,090,19*6F
$GLGSV,3,3,09,85,39,011,12*58
$GNGLL,0419.76056,S,05539.82217,E,115521.00,A,A*63
$GNRMC,115522.00,A,0419.76053,S,05539.82218,E,0.407,,270525,,,A*77
$GNVTG,,T,,M,0.407,N,0.754,K,A*38
$GNGGA,115522.00,0419.76053,S,05539.82218,E,1,10,0.93,19.4,M,-47.6,M,,*40
$GNGSA,A,3,32,28,27,18,31,26,16,,,,,,3.04,0.93,2.90*1C
$GNGSA,A,3,84,71,85,,,,,,,,,,3.04,0.93,2.90*1D
$GPGSV,5,1,17,08,07,318,,10,16,002,,16,25,243,19,18,33,082,22*74
$GPGSV,5,2,17,23,02,039,,25,00,124,,26,29,211,18,27,42,311,30*76
$GPGSV,5,3,17,28,48,152,30,29,14,148,10,31,33,187,19,32,59,358,22*7F
$GPGSV,5,4,17,36,52,277,,40,84,353,,41,58,082,37,49,32,274,*78
$GPGSV,5,5,17,50,10,089,*4A
$GLGSV,3,1,09,70,23,358,,71,48,306,27,72,29,241,,73,15,144,*64
$GLGSV,3,2,09,74,15,190,,75,00,235,,83,12,139,,84,50,090,20*65
$GLGSV,3,3,09,85,39,011,15*5F
$GNGLL,0419.76053,S,05539.82218,E,115522.00,A,A*6A
$GNRMC,115523.00,A,0419.76075,S,05539.82201,E,0.185,,270525,,,A*75
$GNVTG,,T,,M,0.185,N,0.344,K,A*32
$GNGGA,115523.00,0419.76075,S,05539.82201,E,1,09,1.07,20.0,M,-47.6,M,,*47
$GNGSA,A,3,32,28,27,18,31,26,16,,,,,,3.35,1.07,3.18*13
$GNGSA,A,3,84,71,,,,,,,,,,,3.35,1.07,3.18*1F
$GPGSV,5,1,17,08,07,318,,10,16,002,,16,25,243,20,18,33,082,21*7D
$GPGSV,5,2,17,23,02,039,,25,00,124,,26,29,211,16,27,42,311,29*70
$GPGSV,5,3,17,28,48,152,31,29,14,148,14,31,33,187,21,32,59,358,29*7A
$GPGSV,5,4,17,36,52,277,,40,84,353,,41,58,082,37,49,32,274,*78
$GPGSV,5,5,17,50,10,089,*4A
$GLGSV,3,1,09,70,23,358,,71,48,306,27,72,29,241,,73,15,144,*64
$GLGSV,3,2,09,74,15,190,,75,00,235,,83,12,139,,84,50,090,20*65
$GLGSV,3,3,09,85,39,011,*5B
$GNGLL,0419.76075,S,05539.82201,E,115523.00,A,A*67
$GNRMC,115524.00,A,0419.76101,S,05539.82172,E,0.692,,270525,,,A*76
$GNVTG,,T,,M,0.692,N,1.281,K,A*3A
$GNGGA,115524.00,0419.76101,S,05539.82172,E,1,09,1.07,19.5,M,-47.6,M,,*4A
$GNGSA,A,3,32,28,27,18,31,26,16,,,,,,3.35,1.07,3.18*13
$GNGSA,A,3,84,71,,,,,,,,,,,3.35,1.07,3.18*1F
$GPGSV,5,1,17,08,07,318,,10,16,002,,16,25,242,20,18,33,082,19*77
$GPGSV,5,2,17,23,02,039,,25,00,124,,26,29,211,16,27,42,311,29*70
$GPGSV,5,3,17,28,48,152,30,29,14,148,15,31,33,187,20,32,59,358,28*7A
$GPGSV,5,4,17,36,52,277,,40,84,353,,41,58,082,37,49,32,274,*78
$GPGSV,5,5,17,50,10,089,*4A
$GLGSV,3,1,09,70,23,358,,71,48,306,28,72,29,241,,73,15,144,*6B
$GLGSV,3,2,09,74,15,190,,75,00,235,,83,12,139,,84,50,090,20*65
$GLGSV,3,3,09,85,39,011,21*58
$GNGLL,0419.76101,S,05539.82172,E,115524.00,A,A*65
$GNRMC,115525.00,A,0419.76112,S,05539.82158,E,0.444,,270525,,,A*74
$GNVTG,,T,,M,0.444,N,0.822,K,A*31
$GNGGA,115525.00,0419.76112,S,05539.82158,E,1,10,1.01,20.9,M,-47.6,M,,*49
$GNGSA,A,3,32,28,27,18,31,26,16,29,,,,,2.60,1.01,2.40*13
$GNGSA,A,3,84,71,,,,,,,,,,,2.60,1.01,2.40*14
$GPGSV,5,1,17,08,07,318,,10,16,002,17,16,25,242,20,18,33,082,18*70
$GPGSV,5,2,17,23,02,039,,25,00,124,,26,29,211,17,27,42,311,31*78
$GPGSV,5,3,17,28,48,152,29,29,14,148,16,31,33,187,17,32,59,358,30*7C
$GPGSV,5,4,17,36,52,277,,40,84,353,,41,58,082,37,49,32,274,*78
$GPGSV,5,5,17,50,10,089,*4A
$GLGSV,3,1,09,70,23,358,,71,48,306,27,72,29,241,,73,15,144,*64
$GLGSV,3,2,09,74,15,190,,75,00,235,,83,12,139,,84,50,090,21*64
$GLGSV,3,3,09,85,39,011,21*58
$GNGLL,0419.76112,S,05539.82158,E,115525.00,A,A*6E
$GNRMC,115526.00,A,0419.76119,S,05539.82147,E,0.260,,270525,,,A*72
$GNVTG,,T,,M,0.260,N,0.481,K,A*34
$GNGGA,115526.00,0419.76119,S,05539.82147,E,1,10,1.01,20.4,M,-47.6,M,,*42
$GNGSA,A,3,32,28,27,18,31,26,16,29,,,,,2.60,1.01,2.40*13
$GNGSA,A,3,84,71,,,,,,,,,,,2.60,1.01,2.40*14
$GPGSV,5,1,17,08,07,318,,10,16,002,16,16,25,242,19,18,33,083,18*7A
$GPGSV,5,2,17,23,02,039,,25,00,124,,26,29,211,19,27,42,311,30*77
$GPGSV,5,3,17,28,48,152,29,29,14,148,16,31,33,187,13,32,59,358,34*7C
$GPGSV,5,4,17,36,52,277,,40,84,353,,41,58,082,35,49,32,274,*7A
$GPGSV,5,5,17,50,10,089,*4A
$GLGSV,3,1,09,70,23,358,,71,48,306,26,72,29,241,,73,15,144,*65
$GLGSV,3,2,09,74,15,190,,75,00,235,,83,12,139,,84,50,090,21*64
$GLGSV,3,3,09,85,39,011,21*58
$GNGLL,0419.76119,S,05539.82147,E,115526.00,A,A*68
$GNRMC,115527.00,A,0419.76135,S,05539.82138,E,0.219,,270525,,,A*7B
$GNVTG,,T,,M,0.219,N,0.406,K,A*35
$GNGGA,115527.00,0419.76135,S,05539.82138,E,1,11,0.89,20.6,M,-47.6,M,,*47
$GNGSA,A,3,32,28,27,18,31,26,16,29,,,,,2.40,0.89,2.23*15
$GNGSA,A,3,84,71,85,,,,,,,,,,2.40,0.89,2.23*1F
$GPGSV,5,1,17,08,07,318,,10,16,002,14,16,25,242,19,18,33,083,17*77
$GPGSV,5,2,17,23,02,039,,25,00,124,,26,29,211,18,27,42,311,29*7E
$GPGSV,5,3,17,28,48,152,28,29,14,148,14,31,33,187,13,32,59,358,35*7E
$GPGSV,5,4,17,36,52,277,,40,84,353,,41,58,082,35,49,32,274,*7A
$GPGSV,5,5,17,50,10,089,*4A
$GLGSV,3,1,09,70,23,358,,71,48,306,25,72,29,241,,73,15,144,*66
$GLGSV,3,2,09,74,15,190,,75,00,235,,83,12,139,,84,50,090,20*65
$GLGSV,3,3,09,85,39,011,23*5A
$GNGLL,0419.76135,S,05539.82138,E,115527.00,A,A*6F
$GNRMC,115528.00,A,0419.76152,S,05539.82130,E,0.236,,270525,,,A*70
$GNVTG,,T,,M,0.236,N,0.438,K,A*35
$GNGGA,115528.00,0419.76152,S,05539.82130,E,1,10,0.93,20.9,M,-47.6,M,,*44
$GNGSA,A,3,32,28,27,18,31,26,16,,,,,,3.05,0.93,2.90*1D
$GNGSA,A,3,84,71,85,,,,,,,,,,3.05,0.93,2.90*1C
$GPGSV,5,1,17,08,07,318,,10,16,002,10,16,25,242,20,18,33,083,16*78
$GPGSV,5,2,17,23,02,039,,25,00,124,,26,29,211,19,27,42,311,30*77
$GPGSV,5,3,17,28,48,152,27,29,14,148,09,31,33,187,16,32,59,358,33*7E
$GPGSV,5,4,17,36,52,277,,40,84,353,,41,58,082,38,49,32,274,*77
$GPGSV,5,5,17,50,10,089,*4A
$GLGSV,3,1,09,70,23,358,,71,48,306,25,72,29,241,,73,15,144,*66
$GLGSV,3,2,09,74,15,190,,75,00,235,,83,12,139,,84,50,090,20*65
$GLGSV,3,3,09,85,39,011,24*5D
$GNGLL,0419.76152,S,05539.82130,E,115528.00,A,A*69
$GNRMC,115529.00,A,0419.76165,S,05539.82129,E,0.067,,270525,,,A*7B
$GNVTG,,T,,M,0.067,N,0.125,K,A*3A
$GNGGA,115529.00,0419.76165,S,05539.82129,E,1,10,0.93,21.5,M,-47.6,M,,*44
$GNGSA,A,3,32,28,27,18,31,26,16,,,,,,3.05,0.93,2.90*1D
$GNGSA,A,3,84,71,85,,,,,,,,,,3.05,0.93,2.90*1C
$GPGSV,5,1,17,08,07,318,,10,16,002,08,16,25,242,20,18,33,083,15*72
$GPGSV,5,2,17,23,02,039,,25,00,124,,26,29,211,21,27,42,311,31*7D
$GPGSV,5,3,17,28,48,152,27,29,14,148,07,31,33,187,17,32,59,358,31*73
$GPGSV,5,4,17,36,52,277,,40,84,353,,41,58,082,36,49,32,274,*79
$GPGSV,5,5,17,50,10,089,*4A
$GLGSV,3,1,09,70,23,358,,71,48,306,24,72,29,241,,73,15,144,*67
$GLGSV,3,2,09,74,15,190,,75,00,235,,83,12,139,,84,50,090,21*64
$GLGSV,3,3,09,85,39,011,22*5B
$GNGLL,0419.76165,S,05539.82129,E,115529.00,A,A*64
$GNRMC,115530.00,A,0419.76180,S,05539.82111,E,0.269,,270525,,,A*7F
$GNVTG,,T,,M,0.269,N,0.499,K,A*34
$GNGGA,115530.00,0419.76180,S,05539.82111,E,1,10,0.84,22.3,M,-47.6,M,,*4F
$GNGSA,A,3,32,28,27,18,31,26,16,,,,,,2.12,0.84,1.95*1A
$GNGSA,A,3,84,71,85,,,,,,,,,,2.12,0.84,1.95*1B
$GPGSV,5,1,17,08,07,318,,10,16,002,08,16,25,242,20,18,33,083,14*73
$GPGSV,5,2,17,23,02,040,,25,00,124,,26,29,211,22,27,42,311,30*71
$GPGSV,5,3,17,28,48,152,33,29,14,148,06,31,33,187,19,32,59,358,36*7E
$GPGSV,5,4,17,36,52,277,,40,84,353,,41,58,082,37,49,32,274,*78
$GPGSV,5,5,17,50,10,089,*4A
$GLGSV,3,1,09,70,23,358,,71,48,306,24,72,29,241,,73,15,144,*67
$GLGSV,3,2,09,74,15,190,,75,00,235,,83,12,139,,84,50,090,21*64
$GLGSV,3,3,09,85,39,011,23*5A
$GNGLL,0419.76180,S,05539.82111,E,115530.00,A,A*6C
$GNRMC,115531.00,A,0419.76182,S,05539.82102,E,0.262,,270525,,,A*75
$GNVTG,,T,,M,0.262,N,0.485,K,A*32
$GNGGA,115531.00,0419.76182,S,05539.82102,E,1,11,0.84,22.7,M,-47.6,M,,*4B
$GNGSA,A,3,32,28,27,18,31,26,16,10,,,,,2.12,0.84,1.95*1B
$GNGSA,A,3,84,71,85,,,,,,,,,,2.12,0.84,1.95*1B
$GPGSV,5,1,17,08,07,318,,10,16,002,10,16,25,242,19,18,33,083,12*76
$GPGSV,5,2,17,23,02,040,,25,00,124,,26,29,211,21,27,42,311,28*7B
$GPGSV,5,3,17,28,48,152,31,29,14,148,06,31,33,187,20,32,59,358,36*76
$GPGSV,5,4,17,36,52,277,,40,84,353,34,41,58,082,38,49,32,274,*70
$GPGSV,5,5,17,50,10,089,*4A
$GLGSV,3,1,09,70,23,358,,71,48,306,25,72,29,241,,73,15,144,*66
$GLGSV,3,2,09,74,15,190,,75,00,235,,83,12,139,,84,50,090,21*64
$GLGSV,3,3,09,85,39,011,24*5D
$GNGLL,0419.76182,S,05539.82102,E,115531.00,A,A*6D
$GNRMC,115532.00,A,0419.76188,S,05539.82101,E,0.114,,270525,,,A*7D
$GNVTG,,T,,M,0.114,N,0.211,K,A*3B
$GNGGA,115532.00,0419.76188,S,05539.82101,E,1,11,0.84,23.0,M,-47.6,M,,*47
$GNGSA,A,3,32,28,27,18,31,26,16,10,,,,,2.12,0.84,1.95*1B
$GNGSA,A,3,84,71,85,,,,,,,,,,2.12,0.84,1.95*1B
$GPGSV,5,1,17,08,07,318,,10,16,002,10,16,25,242,21,18,33,083,11*7E
$GPGSV,5,2,17,23,02,040,,25,00,123,,26,29,211,22,27,42,311,28*7F
$GPGSV,5,3,17,28,48,152,29,29,14,148,13,31,33,187,19,32,59,358,35*72
$GPGSV,5,4,17,36,52,277,,40,84,353,34,41,58,082,39,49,32,274,*71
$GPGSV,5,5,17,50,10,089,*4A
$GLGSV,3,1,09,70,23,358,,71,48,306,25,72,29,241,,73,15,144,*66
$GLGSV,3,2,09,74,15,190,,75,00,235,,83,12,139,,84,50,090,20*65
$GLGSV,3,3,09,85,39,011,24*5D
$GNGLL,0419.76188,S,05539.82101,E,115532.00,A,A*67
$GNRMC,115533.00,A,0419.76183,S,05539.82111,E,0.055,,270525,,,A*72
$GNVTG,,T,,M,0.055,N,0.102,K,A*3E
$GNGGA,115533.00,0419.76183,S,05539.82111,E,1,12,0.73,21.9,M,-47.6,M,,*4C
$GNGSA,A,3,32,28,27,18,31,26,16,10,29,,,,1.71,0.73,1.54*13
$GNGSA,A,3,84,71,85,,,,,,,,,,1.71,0.73,1.54*18
$GPGSV,5,1,17,08,07,318,,10,16,002,10,16,25,242,21,18,33,083,14*7B
$GPGSV,5,2,17,23,02,040,,25,00,123,,26,29,211,23,27,42,311,31*76
$GPGSV,5,3,17,28,48,152,27,29,14,148,13,31,33,187,17,32,59,358,31*76
$GPGSV,5,4,17,36,52,277,,40,84,353,32,41,58,082,37,49,32,274,*79
$GPGSV,5,5,17,50,10,089,*4A
$GLGSV,3,1,09,70,23,358,,71,48,306,25,72,29,241,,73,15,144,*66
$GLGSV,3,2,09,74,15,190,,75,00,235,,83,12,139,,84,50,090,19*6F
$GLGSV,3,3,09,85,39,011,23*5A
$GNGLL,0419.76183,S,05539.82111,E,115533.00,A,A*6C
$GNRMC,115534.00,A,0419.76178,S,05539.82118,E,0.132,,270525,,,A*78
$GNVTG,,T,,M,0.132,N,0.244,K,A*3F
$GNGGA,115534.00,0419.76178,S,05539.82118,E,1,12,0.73,21.0,M,-47.6,M,,*4F
$GNGSA,A,3,32,28,27,18,31,26,16,10,29,,,,1.71,0.73,1.54*13
$GNGSA,A,3,84,71,85,,,,,,,,,,1.71,0.73,1.54*18
$GPGSV,5,1,17,08,07,318,,10,16,002,12,16,25,242,20,18,33,083,18*74
$GPGSV,5,2,17,23,02,040,,25,00,123,,26,29,211,22,27,42,310,31*76
$GPGSV,5,3,17,28,48,152,27,29,14,148,13,31,33,187,16,32,59,358,23*74
$GPGSV,5,4,17,36,52,277,,40,84,353,31,41,58,082,37,49,32,274,*7A
$GPGSV,5,5,17,50,10,089,*4A
$GLGSV,3,1,09,70,23,358,,71,48,306,26,72,29,241,,73,15,144,*65
$GLGSV,3,2,09,74,15,190,,75,00,235,,83,12,139,,84,50,090,19*6F
$GLGSV,3,3,09,85,39,011,23*5A
$GNGLL,0419.76178,S,05539.82118,E,115534.00,A,A*66
$GNRMC,115535.00,A,0419.76179,S,05539.82122,E,0.168,,270525,,,A*7E
$GNVTG,,T,,M,0.168,N,0.312,K,A*32
$GNGGA,115535.00,0419.76179,S,05539.82122,E,1,12,0.71,20.8,M,-47.6,M,,*4D
$GNGSA,A,3,32,28,27,18,31,26,16,10,29,,,,1.61,0.71,1.45*10
$GNGSA,A,3,84,71,85,,,,,,,,,,1.61,0.71,1.45*1B
$GPGSV,5,1,17,08,07,318,,10,16,002,13,16,25,242,20,18,33,083,22*7C
$GPGSV,5,2,17,23,02,040,,25,00,123,,26,29,211,20,27,42,310,30*75
$GPGSV,5,3,17,28,48,151,26,29,14,148,13,31,33,187,18,32,59,358,24*7F
$GPGSV,5,4,17,36,52,277,,40,84,353,32,41,58,082,38,49,32,274,*76
$GPGSV,5,5,17,50,10,089,*4A
$GLGSV,3,1,09,70,23,358,,71,48,306,26,72,29,241,,73,15,144,*65
$GLGSV,3,2,09,74,15,190,,75,00,235,,83,12,139,,84,50,090,20*65
$GLGSV,3,3,09,85,39,011,21*58
$GNGLL,0419.76179,S,05539.82122,E,115535.00,A,A*6F
$GNRMC,115536.00,A,0419.76188,S,05539.82113,E,0.405,,270525,,,A*7F
$GNVTG,,T,,M,0.405,N,0.750,K,A*3E
$GNGGA,115536.00,0419.76188,S,05539.82113,E,1,12,0.71,20.3,M,-47.6,M,,*49
$GNGSA,A,3,32,28,27,18,31,26,16,10,29,,,,1.61,0.71,1.45*10
$GNGSA,A,3,84,71,85,,,,,,,,,,1.61,0.71,1.45*1B
$GPGSV,5,1,17,08,07,318,,10,16,002,12,16,25,242,22,18,33,083,22*7F
$GPGSV,5,2,17,23,02,040,,25,00,123,,26,29,211,20,27,42,310,30*75
$GPGSV,5,3,17,28,48,151,26,29,14,148,13,31,33,187,20,32,59,358,26*76
$GPGSV,5,4,17,36,52,277,,40,84,353,32,41,58,082,38,49,32,274,*76
$GPGSV,5,5,17,50,10,089,*4A
$GLGSV,3,1,09,70,23,358,,71,48,306,26,72,29,241,,73,15,144,*65
$GLGSV,3,2,09,74,15,190,,75,00,235,,83,12,139,,84,50,090,20*65
$GLGSV,3,3,09,85,39,011,19*53
$GNGLL,0419.76188,S,05539.82113,E,115536.00,A,A*60
$GNRMC,115537.00,A,0419.76186,S,05539.82117,E,0.104,,270525,,,A*70
$GNVTG,,T,,M,0.104,N,0.193,K,A*33
$GNGGA,115537.00,0419.76186,S,05539.82117,E,1,12,0.71,20.6,M,-47.6,M,,*47
$GNGSA,A,3,32,28,27,18,31,26,16,10,29,,,,1.61,0.71,1.45*10
$GNGSA,A,3,84,71,85,,,,,,,,,,1.61,0.71,1.45*1B
$GPGSV,5,1,17,08,07,318,,10,16,002,10,16,25,242,22,18,33,083,19*75
$GPGSV,5,2,17,23,02,040,,25,00,123,,26,29,211,19,27,42,310,30*7F
$GPGSV,5,3,17,28,48,151,27,29,14,148,13,31,33,187,19,32,59,358,25*7E
$GPGSV,5,4,17,36,52,277,,40,84,353,32,41,58,082,38,49,32,274,*76
$GPGSV,5,5,17,50,10,089,*4A
$GLGSV,3,1,09,70,23,358,,71,48,306,25,72,29,241,,73,15,144,*66
$GLGSV,3,2,09,74,15,190,,75,00,235,,83,12,139,,84,50,090,20*65
$GLGSV,3,3,09,85,39,011,15*5F
$GNGLL,0419.76186,S,05539.82117,E,115537.00,A,A*6B
$GNRMC,115538.00,A,0419.76204,S,05539.82099,E,0.469,,270525,,,A*7F
$GNVTG,,T,,M,0.469,N,0.868,K,A*30
$GNGGA,115538.00,0419.76204,S,05539.82099,E,1,11,0.83,21.0,M,-47.6,M,,*4F
$GNGSA,A,3,32,28,27,18,31,26,16,29,,,,,2.01,0.83,1.83*13
$GNGSA,A,3,84,71,85,,,,,,,,,,2.01,0.83,1.83*19
$GPGSV,5,1,17,08,07,318,,10,16,002,09,16,25,242,22,18,33,083,17*73
$GPGSV,5,2,17,23,02,040,,25,00,123,,26,29,211,19,27,42,310,31*7E
$GPGSV,5,3,17,28,48,151,27,29,14,148,15,31,34,187,20,32,59,358,27*77
$GPGSV,5,4,17,36,52,277,,40,84,353,33,41,58,082,37,49,32,274,*78
$GPGSV,5,5,17,50,10,089,*4A
$GLGSV,3,1,09,70,23,358,,71,48,306,25,72,29,241,21,73,15,144,*65
$GLGSV,3,2,09,74,15,190,,75,00,235,,83,12,139,,84,50,090,20*65
$GLGSV,3,3,09,85,39,011,10*5A
$GNGLL,0419.76204,S,05539.82099,E,115538.00,A,A*6A
$GNRMC,115539.00,A,0419.76211,S,05539.82100,E,0.234,,270525,,,A*75
$GNVTG,,T,,M,0.234,N,0.434,K,A*3B
$GNGGA,115539.00,0419.76211,S,05539.82100,E,1,11,0.83,20.9,M,-47.6,M,,*43
$GNGSA,A,3,32,28,27,18,31,26,16,29,,,,,2.01,0.83,1.83*13
$GNGSA,A,3,84,71,85,,,,,,,,,,2.01,0.83,1.83*19
$GPGSV,5,1,17,08,07,318,,10,16,002,10,16,25,242,23,18,33,083,20*7E
$GPGSV,5,2,17,23,02,040,,25,00,123,,26,29,211,19,27,42,310,29*77
$GPGSV,5,3,17,28,48,151,24,29,14,148,15,31,34,187,22,32,59,358,26*77
$GPGSV,5,4,17,36,52,277,,40,84,353,33,41,58,082,37,49,32,274,*78
$GPGSV,5,5,17,50,10,089,*4A
$GLGSV,3,1,09,70,23,358,,71,48,306,25,72,29,241,20,73,15,144,*64
$GLGSV,3,2,09,74,15,190,,75,00,235,,83,12,139,,84,50,090,21*64
$GLGSV,3,3,09,85,39,011,09*52
$GNGLL,0419.76211,S,05539.82100,E,115539.00,A,A*6E
$GNRMC,115540.00,A,0419.76217,S,05539.82102,E,0.125,,270525,,,A*7C
$GNVTG,,T,,M,0.125,N,0.231,K,A*3B
$GNGGA,115540.00,0419.76217,S,05539.82102,E,1,11,0.83,21.4,M,-47.6,M,,*45
$GNGSA,A,3,32,28,27,18,31,26,16,29,,,,,2.01,0.83,1.83*13
$GNGSA,A,3,84,71,85,,,,,,,,,,2.01,0.83,1.83*19
$GPGSV,5,1,17,08,07,318,,10,16,002,09,16,25,242,23,18,33,083,22*74
$GPGSV,5,2,17,23,02,040,,25,00,123,,26,29,211,18,27,42,310,29*76
$GPGSV,5,3,17,28,48,151,25,29,14,148,15,31,34,187,26,32,59,358,25*71
$GPGSV,5,4,17,36,52,277,,40,84,353,34,41,58,082,38,49,32,274,*70
$GPGSV,5,5,17,50,10,089,*4A
$GLGSV,3,1,09,70,23,358,,71,48,306,24,72,29,241,20,73,15,144,*65
$GLGSV,3,2,09,74,15,190,,75,00,235,,83,12,139,,84,50,090,21*64
$GLGSV,3,3,09,85,39,011,11*5B
$GNGLL,0419.76217,S,05539.82102,E,115540.00,A,A*64
$GNRMC,115541.00,A,0419.76211,S,05539.82113,E,0.197,,270525,,,A*72
$GNVTG,,T,,M,0.197,N,0.365,K,A*32
$GNGGA,115541.00,0419.76211,S,05539.82113,E,1,12,0.71,20.8,M,-47.6,M,,*41
$GNGSA,A,3,32,28,27,18,31,26,16,10,29,,,,1.61,0.71,1.44*11
$GNGSA,A,3,84,71,85,,,,,,,,,,1.61,0.71,1.44*1A
$GPGSV,5,1,17,08,07,318,,10,16,002,11,16,25,242,21,18,33,083,20*7D
$GPGSV,5,2,17,23,02,040,,25,00,123,,26,29,211,19,27,42,310,30*7F
$GPGSV,5,3,17,28,48,151,26,29,14,148,15,31,34,187,30,32,59,358,26*76
$GPGSV,5,4,17,36,52,277,,40,84,353,34,41,58,082,38,49,32,274,*70
$GPGSV,5,5,17,50,10,089,*4A
$GLGSV,3,1,09,70,23,358,,71,48,306,25,72,29,241,19,73,15,144,*6E
$GLGSV,3,2,09,74,15,190,,75,00,235,,83,12,139,,84,50,090,21*64
$GLGSV,3,3,09,85,39,011,13*59
$GNGLL,0419.76211,S,05539.82113,E,115541.00,A,A*63
$GNRMC,115542.00,A,0419.76206,S,05539.82130,E,0.536,,270525,,,A*79
$GNVTG,,T,,M,0.536,N,0.993,K,A*3E
$GNGGA,115542.00,0419.76206,S,05539.82130,E,1,11,0.83,20.8,M,-47.6,M,,*4B
$GNGSA,A,3,32,28,27,18,31,26,16,29,,,,,2.01,0.83,1.83*13
$GNGSA,A,3,84,71,85,,,,,,,,,,2.01,0.83,1.83*19
$GPGSV,5,1,17,08,07,318,,10,16,002,,16,25,242,21,18,33,083,17*79
$GPGSV,5,2,17,23,02,040,,25,00,123,,26,29,211,18,27,42,310,30*7E
$GPGSV,5,3,17,28,48,151,26,29,14,148,15,31,34,187,30,32,59,358,31*70
$GPGSV,5,4,17,36,52,277,,40,84,353,35,41,58,082,37,49,32,274,*7E
$GPGSV,5,5,17,50,10,089,*4A
$GLGSV,3,1,09,70,23,358,,71,48,306,26,72,29,241,20,73,15,144,*67
$GLGSV,3,2,09,74,15,190,,75,00,235,,83,12,139,,84,50,090,21*64
$GLGSV,3,3,09,85,39,011,13*59
$GNGLL,0419.76206,S,05539.82130,E,115542.00,A,A*67
$GNRMC,115543.00,A,0419.76208,S,05539.82133,E,0.235,,270525,,,A*71
$GNVTG,,T,,M,0.235,N,0.435,K,A*3B
$GNGGA,115543.00,0419.76208,S,05539.82133,E,1,11,0.83,20.2,M,-47.6,M,,*4D
$GNGSA,A,3,32,28,27,18,31,26,16,29,,,,,2.01,0.83,1.83*13
$GNGSA,A,3,84,71,85,,,,,,,,,,2.01,0.83,1.83*19
$GPGSV,5,1,17,08,07,318,,10,16,002,16,16,25,242,21,18,33,083,17*7E
$GPGSV,5,2,17,23,02,040,,25,00,123,,26,29,211,19,27,42,310,30*7F
$GPGSV,5,3,17,28,48,151,26,29,14,148,15,31,34,187,30,32,59,358,31*70
$GPGSV,5,4,17,36,52,277,,40,84,353,35,41,58,082,37,49,32,274,*7E
$GPGSV,5,5,17,50,10,089,*4A
$GLGSV,3,1,09,70,23,358,,71,48,306,27,72,29,241,20,73,15,144,*66
$GLGSV,3,2,09,74,15,190,,75,00,235,,83,12,139,,84,50,090,20*65
$GLGSV,3,3,09,85,39,011,14*5E
$GNGLL,0419.76208,S,05539.82133,E,115543.00,A,A*6B
$GNRMC,115544.00,A,0419.76209,S,05539.82139,E,0.273,,270525,,,A*7F
$GNVTG,,T,,M,0.273,N,0.505,K,A*3B
$GNGGA,115544.00,0419.76209,S,05539.82139,E,1,11,0.93,20.1,M,-47.6,M,,*43
$GNGSA,A,3,32,28,27,18,31,26,16,29,,,,,3.06,0.93,2.91*14
$GNGSA,A,3,84,71,85,,,,,,,,,,3.06,0.93,2.91*1E
$GPGSV,5,1,17,08,07,318,,10,16,002,15,16,25,242,22,18,33,083,17*7E
$GPGSV,5,2,17,23,02,040,,25,00,123,,26,29,211,19,27,42,310,30*7F
$GPGSV,5,3,17,28,48,151,24,29,14,148,12,31,34,187,31,32,59,358,29*7D
$GPGSV,5,4,17,36,52,277,,40,84,353,34,41,58,082,38,49,32,274,*70
$GPGSV,5,5,17,50,10,089,*4A
$GLGSV,3,1,09,70,23,358,,71,48,306,27,72,29,241,22,73,15,144,*64
$GLGSV,3,2,09,74,15,190,,75,00,235,,83,12,139,,84,50,090,21*64
$GLGSV,3,3,09,85,39,011,14*5E
$GNGLL,0419.76209,S,05539.82139,E,115544.00,A,A*67
$GNRMC,115545.00,A,0419.76216,S,05539.82140,E,0.221,,270525,,,A*79
$GNVTG,,T,,M,0.221,N,0.410,K,A*39
$GNGGA,115545.00,0419.76216,S,05539.82140,E,1,10,0.93,20.2,M,-47.6,M,,*40
$GNGSA,A,3,32,28,27,18,31,26,16,,,,,,3.06,0.93,2.91*1F
$GNGSA,A,3,84,71,85,,,,,,,,,,3.06,0.93,2.91*1E
$GPGSV,5,1,17,08,07,318,,10,16,002,12,16,25,242,21,18,33,083,16*7B
$GPGSV,5,2,17,23,02,040,,25,00,123,,26,29,211,19,27,42,310,29*77
$GPGSV,5,3,17,28,48,151,25,29,14,148,,31,34,187,28,32,59,358,26*78
$GPGSV,5,4,17,36,52,277,,40,84,353,30,41,58,082,36,49,32,274,*7A
$GPGSV,5,5,17,50,10,089,*4A
$GLGSV,3,1,09,70,23,358,,71,48,306,26,72,29,241,22,73,15,144,*65
$GLGSV,3,2,09,74,15,190,,75,00,235,,83,12,139,,84,50,090,20*65
$GLGSV,3,3,09,85,39,011,16*5C
$GNGLL,0419.76216,S,05539.82140,E,115545.00,A,A*66
$GNRMC,115546.00,A,0419.76231,S,05539.82124,E,0.211,,270525,,,A*7E
$GNVTG,,T,,M,0.211,N,0.390,K,A*35
$GNGGA,115546.00,0419.76231,S,05539.82124,E,1,10,0.84,20.6,M,-47.6,M,,*46
$GNGSA,A,3,32,28,27,18,31,26,16,,,,,,2.13,0.84,1.95*1B
$GNGSA,A,3,84,71,85,,,,,,,,,,2.13,0.84,1.95*1A
$GPGSV,5,1,17,08,07,318,,10,16,002,09,16,25,242,22,18,33,083,16*72
$GPGSV,5,2,17,23,02,040,,25,00,123,,26,29,211,18,27,42,310,30*7E
$GPGSV,5,3,17,28,48,151,25,29,14,148,,31,34,187,26,32,59,358,23*73
$GPGSV,5,4,17,36,52,277,,40,84,353,30,41,58,082,37,49,32,274,*7B
$GPGSV,5,5,17,50,10,089,*4A
$GLGSV,3,1,09,70,23,358,,71,48,306,26,72,29,241,22,73,15,144,*65
$GLGSV,3,2,09,74,15,190,,75,00,235,,83,12,139,,84,50,090,21*64
$GLGSV,3,3,09,85,39,011,16*5C
$GNGLL,0419.76231,S,05539.82124,E,115546.00,A,A*62
$GNRMC,115547.00,A,0419.76237,S,05539.82127,E,0.100,,270525,,,A*79
$GNVTG,,T,,M,0.100,N,0.186,K,A*33
$GNGGA,115547.00,0419.76237,S,05539.82127,E,1,10,0.84,20.5,M,-47.6,M,,*41
$GNGSA,A,3,32,28,27,18,31,26,16,,,,,,2.13,0.84,1.95*1B
$GNGSA,A,3,84,71,85,,,,,,,,,,2.13,0.84,1.95*1A
$GPGSV,5,1,17,08,07,318,,10,16,002,08,16,25,242,21,18,33,083,16*70
$GPGSV,5,2,17,23,02,040,,25,00,123,,26,29,211,17,27,42,310,30*71
$GPGSV,5,3,17,28,48,151,24,29,14,148,,31,34,187,27,32,59,358,28*78
$GPGSV,5,4,17,36,52,277,,40,84,353,31,41,58,082,37,49,32,274,*7A
$GPGSV,5,5,17,50,10,089,*4A
$GLGSV,3,1,09,70,23,358,,71,48,306,27,72,29,241,22,73,15,144,*64
$GLGSV,3,2,09,74,15,190,,75,00,235,,83,12,139,,84,50,090,21*64
$GLGSV,3,3,09,85,39,011,17*5D
$GNGLL,0419.76237,S,05539.82127,E,115547.00,A,A*66
$GNRMC,115548.00,A,0419.76249,S,05539.82120,E,0.018,,270525,,,A*70
$GNVTG,,T,,M,0.018,N,0.034,K,A*33
$GNGGA,115548.00,0419.76249,S,05539.82120,E,1,11,0.73,20.7,M,-47.6,M,,*4B
$GNGSA,A,3,32,28,27,18,31,26,16,10,,,,,1.71,0.73,1.54*18
$GNGSA,A,3,84,71,85,,,,,,,,,,1.71,0.73,1.54*18
$GPGSV,5,1,17,08,07,318,,10,16,002,13,16,25,242,22,18,33,083,20*7C
$GPGSV,5,2,17,23,02,040,,25,00,123,,26,29,211,21,27,42,310,31*75
$GPGSV,5,3,17,28,48,151,25,29,14,148,06,31,34,187,32,32,59,358,30*72
$GPGSV,5,4,17,36,52,277,,40,84,353,32,41,58,082,39,49,32,274,*77
$GPGSV,5,5,17,50,10,089,*4A
$GLGSV,3,1,09,70,23,358,,71,48,306,26,72,29,241,22,73,15,144,*65
$GLGSV,3,2,09,74,15,190,,75,00,235,,83,12,139,,84,50,090,21*64
$GLGSV,3,3,09,85,39,011,17*5D
$GNGLL,0419.76249,S,05539.82120,E,115548.00,A,A*67
$GNRMC,115549.00,A,0419.76262,S,05539.82106,E,0.340,,270525,,,A*72
$GNVTG,,T,,M,0.340,N,0.630,K,A*3F
$GNGGA,115549.00,0419.76262,S,05539.82106,E,1,11,0.73,20.4,M,-47.6,M,,*44
$GNGSA,A,3,32,28,27,18,31,26,16,10,,,,,1.71,0.73,1.54*18
$GNGSA,A,3,84,71,85,,,,,,,,,,1.71,0.73,1.54*18
$GPGSV,5,1,17,08,07,318,,10,16,002,14,16,25,242,21,18,33,083,19*72
$GPGSV,5,2,17,23,02,040,,25,00,123,,26,29,211,23,27,42,310,32*74
$GPGSV,5,3,17,28,48,151,26,29,14,148,09,31,34,187,30,32,59,358,29*74
$GPGSV,5,4,17,36,52,277,,40,84,353,31,41,58,082,38,49,32,274,*75
$GPGSV,5,5,17,50,10,089,*4A
$GLGSV,3,1,09,70,23,358,,71,48,306,26,72,29,241,23,73,15,144,*64
$GLGSV,3,2,09,74,15,190,,75,00,235,,83,12,139,,84,50,090,22*67
$GLGSV,3,3,09,85,39,011,17*5D
$GNGLL,0419.76262,S,05539.82106,E,115549.00,A,A*6B
$GNRMC,115550.00,A,0419.76266,S,05539.82131,E,0.315,,270525,,,A*7A
$GNVTG,,T,,M,0.315,N,0.583,K,A*34
$GNGGA,115550.00,0419.76266,S,05539.82131,E,1,11,0.73,20.0,M,-47.6,M,,*48
$GNGSA,A,3,32,28,27,18,31,26,16,10,,,,,1.71,0.73,1.54*18
$GNGSA,A,3,84,71,85,,,,,,,,,,1.71,0.73,1.54*18
$GPGSV,5,1,17,08,07,318,,10,16,002,11,16,25,242,21,18,33,083,18*76
$GPGSV,5,2,17,23,02,040,,25,00,123,,26,29,211,23,27,42,310,32*74
$GPGSV,5,3,17,28,48,151,27,29,14,148,13,31,34,187,30,32,59,358,27*70
$GPGSV,5,4,17,36,52,277,,40,84,353,31,41,58,082,37,49,32,274,*7A
$GPGSV,5,5,17,50,10,089,*4A
$GLGSV,3,1,09,70,23,358,,71,48,306,26,72,29,241,22,73,15,144,*65
$GLGSV,3,2,09,74,15,190,,75,00,235,,83,12,139,,84,50,090,21*64
$GLGSV,3,3,09,85,39,011,17*5D
$GNGLL,0419.76266,S,05539.82131,E,115550.00,A,A*63
$GNRMC,115551.00,A,0419.76258,S,05539.82161,E,0.509,,270525,,,A*78
$GNVTG,,T,,M,0.509,N,0.943,K,A*3F
$GNGGA,115551.00,0419.76258,S,05539.82161,E,1,10,0.84,19.1,M,-47.6,M,,*43
$GNGSA,A,3,32,28,27,18,31,26,16,,,,,,2.13,0.84,1.95*1B
$GNGSA,A,3,84,71,85,,,,,,,,,,2.13,0.84,1.95*1A
$GPGSV,5,1,17,08,07,318,,10,16,002,09,16,25,242,22,18,33,083,17*73
$GPGSV,5,2,17,23,02,040,,25,00,123,,26,29,211,23,27,42,310,32*74
$GPGSV,5,3,17,28,48,151,27,29,14,148,14,31,34,187,29,32,59,358,25*7D
$GPGSV,5,4,17,36,52,277,,40,84,353,32,41,58,082,37,49,32,274,*79
$GPGSV,5,5,17,50,10,089,*4A
$GLGSV,3,1,09,70,23,358,,71,48,306,27,72,29,241,23,73,15,144,*65
$GLGSV,3,2,09,74,15,190,,75,00,235,,83,12,139,,84,50,090,21*64
$GLGSV,3,3,09,85,39,011,10*5A
$GNGLL,0419.76258,S,05539.82161,E,115551.00,A,A*6A
$GNRMC,115552.00,A,0419.76256,S,05539.82178,E,0.416,,270525,,,A*72
$GNVTG,,T,,M,0.416,N,0.770,K,A*3E
$GNGGA,115552.00,0419.76256,S,05539.82178,E,1,11,0.83,18.7,M,-47.6,M,,*47
$GNGSA,A,3,32,28,27,18,31,26,16,29,,,,,2.01,0.83,1.83*13
$GNGSA,A,3,84,71,85,,,,,,,,,,2.01,0.83,1.83*19
$GPGSV,5,1,17,08,07,318,,10,16,002,09,16,25,242,23,18,33,083,16*73
$GPGSV,5,2,17,23,02,040,,25,00,123,,26,29,211,24,27,42,310,32*73
$GPGSV,5,3,17,28,48,151,27,29,14,148,15,31,34,187,31,32,59,358,25*75
$GPGSV,5,4,17,36,52,277,,40,84,353,33,41,58,082,38,49,32,274,*77
$GPGSV,5,5,17,50,10,089,*4A
$GLGSV,3,1,09,70,23,358,,71,48,306,27,72,29,241,24,73,15,144,*62
$GLGSV,3,2,09,74,15,190,,75,00,235,,83,12,139,,84,50,090,21*64
$GLGSV,3,3,09,85,39,011,10*5A
$GNGLL,0419.76256,S,05539.82178,E,115552.00,A,A*6F
$GNRMC,115553.00,A,0419.76266,S,05539.82170,E,0.113,,270525,,,A*78
$GNVTG,,T,,M,0.113,N,0.210,K,A*3D
$GNGGA,115553.00,0419.76266,S,05539.82170,E,1,11,0.83,18.9,M,-47.6,M,,*43
$GNGSA,A,3,32,28,27,18,31,26,16,29,,,,,2.01,0.83,1.83*13
$GNGSA,A,3,84,71,85,,,,,,,,,,2.01,0.83,1.83*19
$GPGSV,5,1,17,08,07,318,,10,16,002,10,16,25,242,24,18,33,083,19*73
$GPGSV,5,2,17,23,02,040,,25,00,123,,26,29,211,24,27,42,310,31*70
$GPGSV,5,3,17,28,48,151,27,29,14,148,15,31,34,187,31,32,59,358,29*79
$GPGSV,5,4,17,36,52,277,,40,84,353,32,41,58,082,37,49,32,274,*79
$GPGSV,5,5,17,50,10,089,*4A
$GLGSV,3,1,09,70,23,358,,71,48,306,27,72,29,241,24,73,15,144,*62
$GLGSV,3,2,09,74,15,190,,75,00,235,,83,12,139,,84,50,090,22*67
$GLGSV,3,3,09,85,39,011,16*5C
$GNGLL,0419.76266,S,05539.82170,E,115553.00,A,A*65
$GNRMC,115554.00,A,0419.76265,S,05539.82181,E,0.092,,270525,,,A*7A
$GNVTG,,T,,M,0.092,N,0.170,K,A*30
$GNGGA,115554.00,0419.76265,S,05539.82181,E,1,11,0.83,18.0,M,-47.6,M,,*40
$GNGSA,A,3,32,28,27,18,31,26,16,29,,,,,2.01,0.83,1.83*13
$GNGSA,A,3,84,71,85,,,,,,,,,,2.01,0.83,1.83*19
$GPGSV,5,1,17,08,07,318,,10,16,002,08,16,25,242,23,18,33,083,20*77
$GPGSV,5,2,17,23,02,040,,25,00,123,,26,29,211,23,27,42,310,31*77
$GPGSV,5,3,17,28,48,151,28,29,14,148,14,31,34,187,31,32,59,358,31*7E
$GPGSV,5,4,17,36,52,277,,40,84,353,31,41,58,082,37,49,32,274,*7A
$GPGSV,5,5,17,50,10,089,*4A
$GLGSV,3,1,09,70,23,358,,71,48,306,28,72,29,241,24,73,15,144,20*6F
$GLGSV,3,2,09,74,15,190,,75,00,235,,83,12,139,,84,50,090,23*66
$GLGSV,3,3,09,85,39,011,16*5C
$GNGLL,0419.76265,S,05539.82181,E,115554.00,A,A*6F
$GNRMC,115555.00,A,0419.76261,S,05539.82200,E,0.240,,270525,,,A*78
$GNVTG,,T,,M,0.240,N,0.445,K,A*3E
$GNGGA,115555.00,0419.76261,S,05539.82200,E,1,11,0.83,16.7,M,-47.6,M,,*46
$GNGSA,A,3,32,28,27,18,31,26,16,29,,,,,2.01,0.83,1.83*13
$GNGSA,A,3,84,71,85,,,,,,,,,,2.01,0.83,1.83*19
$GPGSV,5,1,17,08,07,318,,10,16,002,09,16,25,242,23,18,33,083,20*76
$GPGSV,5,2,17,23,02,040,,25,00,123,,26,29,211,23,27,42,310,31*77
$GPGSV,5,3,17,28,48,151,31,29,14,148,13,31,34,187,30,32,59,358,32*73
$GPGSV,5,4,17,36,52,277,,40,84,353,32,41,58,082,37,49,32,274,*79
$GPGSV,5,5,17,50,10,089,*4A
$GLGSV,3,1,09,70,23,358,,71,48,306,28,72,29,241,23,73,15,144,18*63
$GLGSV,3,2,09,74,15,190,,75,00,235,,83,12,139,,84,50,090,23*66
$GLGSV,3,3,09,85,39,011,16*5C
$GNGLL,0419.76261,S,05539.82200,E,115555.00,A,A*60
$GNRMC,115556.00,A,0419.76266,S,05539.82194,E,0.057,,270525,,,A*76
$GNVTG,,T,,M,0.057,N,0.106,K,A*38
$GNGGA,115556.00,0419.76266,S,05539.82194,E,1,11,0.83,16.8,M,-47.6,M,,*43
$GNGSA,A,3,32,28,27,18,31,26,16,29,,,,,2.01,0.83,1.83*13
$GNGSA,A,3,84,71,85,,,,,,,,,,2.01,0.83,1.83*19
$GPGSV,5,1,17,08,07,318,,10,16,002,09,16,25,242,22,18,33,083,19*7D
$GPGSV,5,2,17,23,02,040,,25,00,123,,26,29,211,23,27,42,310,30*76
$GPGSV,5,3,17,28,48,151,31,29,14,148,11,31,34,187,31,32,59,358,32*70
$GPGSV,5,4,17,36,52,277,,40,84,353,32,41,58,082,37,49,32,274,*79
$GPGSV,5,5,17,50,10,089,*4A
$GLGSV,3,1,09,70,23,358,,71,48,306,28,72,29,241,22,73,15,144,16*6C
$GLGSV,3,2,09,74,15,190,,75,00,235,,83,12,139,,84,50,090,22*67
$GLGSV,3,3,09,85,39,011,16*5C
$GNGLL,0419.76266,S,05539.82194,E,115556.00,A,A*6A
$GNRMC,115557.00,A,0419.76271,S,05539.82186,E,0.031,,270525,,,A*72
$GNVTG,,T,,M,0.031,N,0.057,K,A*3D
$GNGGA,115557.00,0419.76271,S,05539.82186,E,1,11,0.83,17.5,M,-47.6,M,,*4B
$GNGSA,A,3,32,28,27,18,31,26,16,29,,,,,2.01,0.83,1.83*13
$GNGSA,A,3,84,71,85,,,,,,,,,,2.01,0.83,1.83*19
$GPGSV,5,1,17,08,07,318,,10,16,002,09,16,25,242,21,18,33,083,21*75
$GPGSV,5,2,17,23,02,040,,25,00,123,,26,29,211,25,27,42,310,30*70
$GPGSV,5,3,17,28,48,151,31,29,14,148,13,31,34,187,31,32,59,358,33*73
$GPGSV,5,4,17,36,52,277,,40,84,353,31,41,58,082,38,49,32,274,*75
$GPGSV,5,5,17,50,10,089,*4A
$GLGSV,3,1,09,70,23,358,,71,48,306,29,72,29,241,22,73,15,144,14*6F
$GLGSV,3,2,09,74,15,190,,75,00,235,,83,12,139,,84,50,090,22*67
$GLGSV,3,3,09,85,39,011,16*5C
$GNGLL,0419.76271,S,05539.82186,E,115557.00,A,A*6E
$GNRMC,115558.00,A,0419.76277,S,05539.82187,E,0.073,,270525,,,A*7C
$GNVTG,,T,,M,0.073,N,0.135,K,A*3E
$GNGGA,115558.00,0419.76277,S,05539.82187,E,1,12,0.71,17.9,M,-47.6,M,,*41
$GNGSA,A,3,32,28,27,18,31,26,16,10,29,,,,1.61,0.71,1.44*11
$GNGSA,A,3,84,71,85,,,,,,,,,,1.61,0.71,1.44*1A
$GPGSV,5,1,17,08,07,318,,10,16,002,12,16,25,242,21,18,33,083,21*7F
$GPGSV,5,2,17,23,02,040,,25,00,123,,26,29,211,24,27,42,310,30*71
$GPGSV,5,3,17,28,48,151,29,29,14,148,16,31,34,187,29,32,59,358,33*76
$GPGSV,5,4,17,36,52,277,,40,84,353,30,41,58,082,38,49,32,274,*74
$GPGSV,5,5,17,50,10,089,*4A
$GLGSV,3,1,09,70,23,358,,71,48,306,28,72,29,241,21,73,15,144,15*6C
$GLGSV,3,2,09,74,15,190,,75,00,235,,83,12,139,,84,50,090,22*67
$GLGSV,3,3,09,85,39,011,18*52
$GNGLL,0419.76277,S,05539.82187,E,115558.00,A,A*66
$GNRMC,115559.00,A,0419.76281,S,05539.82186,E,0.051,,270525,,,A*75
$GNVTG,,T,,M,0.051,N,0.095,K,A*35
$GNGGA,115559.00,0419.76281,S,05539.82186,E,1,12,0.71,18.3,M,-47.6,M,,*4D
$GNGSA,A,3,32,28,27,18,31,26,16,10,29,,,,1.61,0.71,1.44*11
$GNGSA,A,3,84,71,85,,,,,,,,,,1.61,0.71,1.44*1A
$GPGSV,5,1,17,08,07,318,,10,16,002,13,16,25,242,21,18,33,083,20*7F
$GPGSV,5,2,17,23,02,040,,25,00,123,,26,29,211,23,27,42,310,29*7E
$GPGSV,5,3,17,28,48,151,30,29,14,148,14,31,34,187,29,32,59,358,33*7C
$GPGSV,5,4,17,36,52,277,,40,84,353,31,41,58,082,39,49,32,274,*74
$GPGSV,5,5,17,50,10,089,*4A
$GLGSV,3,1,09,70,23,358,,71,48,306,29,72,29,241,20,73,15,144,15*6C
$GLGSV,3,2,09,74,15,190,,75,00,235,,83,12,139,,84,50,090,22*67
$GLGSV,3,3,09,85,39,011,18*52
$GNGLL,0419.76281,S,05539.82186,E,115559.00,A,A*6F
$GNRMC,115600.00,A,0419.76292,S,05539.82181,E,0.053,,270525,,,A*7D
$GNVTG,,T,,M,0.053,N,0.099,K,A*3B
$GNGGA,115600.00,0419.76292,S,05539.82181,E,1,12,0.71,19.0,M,-47.6,M,,*45
$GNGSA,A,3,32,28,27,18,31,26,16,10,29,,,,1.61,0.71,1.44*11
$GNGSA,A,3,84,71,85,,,,,,,,,,1.61,0.71,1.44*1A
$GPGSV,5,1,17,08,07,318,,10,16,002,12,16,25,242,21,18,33,083,21*7F
$GPGSV,5,2,17,23,02,040,,25,00,123,,26,29,211,23,27,42,310,29*7E
$GPGSV,5,3,17,28,48,151,31,29,14,148,10,31,34,187,29,32,59,358,33*79
$GPGSV,5,4,17,36,52,277,,40,84,353,30,41,58,082,38,49,32,274,*74
$GPGSV,5,5,17,50,10,089,*4A
$GLGSV,3,1,09,70,23,358,,71,48,306,29,72,29,241,20,73,15,144,14*6D
$GLGSV,3,2,09,74,15,190,,75,00,235,,83,12,139,,84,50,090,23*66
$GLGSV,3,3,09,85,39,011,18*52
$GNGLL,0419.76292,S,05539.82181,E,115600.00,A,A*65
$GNRMC,115601.00,A,0419.76296,S,05539.82184,E,0.217,,270525,,,A*7F
$GNVTG,,T,,M,0.217,N,0.402,K,A*3F
$GNGGA,115601.00,0419.76296,S,05539.82184,E,1,11,0.74,19.4,M,-47.6,M,,*47
$GNGSA,A,3,32,28,27,18,31,26,16,10,,,,,1.71,0.74,1.54*1F
$GNGSA,A,3,84,71,85,,,,,,,,,,1.71,0.74,1.54*1F
$GPGSV,5,1,17,08,07,318,,10,16,002,11,16,25,242,20,18,33,083,22*7E
$GPGSV,5,2,17,23,02,040,,25,00,123,,26,29,211,23,27,42,310,29*7E
$GPGSV,5,3,17,28,48,151,31,29,14,148,08,31,34,187,29,32,59,358,32*71
$GPGSV,5,4,17,36,52,277,,40,84,353,30,41,58,082,38,49,32,274,*74
$GPGSV,5,5,17,50,10,089,*4A
$GLGSV,3,1,09,70,23,358,,71,48,306,29,72,29,241,20,73,15,144,13*6A
$GLGSV,3,2,09,74,15,190,,75,00,235,,83,12,139,,84,50,090,22*67
$GLGSV,3,3,09,85,39,011,19*53
$GNGLL,0419.76296,S,05539.82184,E,115601.00,A,A*65
$GNRMC,115602.00,A,0419.76290,S,05539.82193,E,0.137,,270525,,,A*7D
$GNVTG,,T,,M,0.137,N,0.254,K,A*3B
$GNGGA,115602.00,0419.76290,S,05539.82193,E,1,11,0.84,18.9,M,-47.6,M,,*47
$GNGSA,A,3,32,28,27,18,31,26,16,29,,,,,2.13,0.84,1.95*10
$GNGSA,A,3,84,71,85,,,,,,,,,,2.13,0.84,1.95*1A
$GPGSV,5,1,17,08,07,318,,10,16,002,09,16,25,242,18,18,33,083,23*7D
$GPGSV,5,2,17,23,02,040,,25,00,123,,26,29,211,24,27,42,310,29*79
$GPGSV,5,3,17,28,48,151,32,29,14,148,12,31,34,187,29,32,59,358,32*79
$GPGSV,5,4,17,36,52,277,,40,84,353,30,41,58,082,38,49,32,274,*74
$GPGSV,5,5,17,50,10,089,*4A
$GLGSV,3,1,09,70,23,358,,71,48,306,30,72,29,241,20,73,15,144,12*63
$GLGSV,3,2,09,74,15,190,,75,00,235,,83,12,139,,84,50,090,22*67
$GLGSV,3,3,09,85,39,011,19*53
$GNGLL,0419.76290,S,05539.82193,E,115602.00,A,A*66
$GNRMC,115603.00,A,0419.76297,S,05539.82189,E,0.102,,270525,,,A*76
$GNVTG,,T,,M,0.102,N,0.190,K,A*36
$GNGGA,115603.00,0419.76297,S,05539.82189,E,1,12,0.82,19.2,M,-47.6,M,,*45
$GNGSA,A,3,32,28,27,18,31,26,16,29,41,,,,1.96,0.82,1.78*1E
$GNGSA,A,3,84,71,85,,,,,,,,,,1.96,0.82,1.78*11
$GPGSV,5,1,17,08,07,318,,10,16,002,08,16,25,242,18,18,33,083,23*7C
$GPGSV,5,2,17,23,02,040,,25,00,123,,26,29,211,25,27,42,310,30*70
$GPGSV,5,3,17,28,48,151,32,29,14,148,12,31,34,187,28,32,59,358,32*78
$GPGSV,5,4,17,36,52,277,,40,84,353,31,41,58,082,38,49,32,274,*75
$GPGSV,5,5,17,50,10,089,*4A
$GLGSV,3,1,09,70,23,358,,71,48,306,29,72,29,241,19,73,15,144,08*6A
$GLGSV,3,2,09,74,15,190,,75,00,235,,83,12,139,,84,50,090,22*67
$GLGSV,3,3,09,85,39,011,19*53
$GNGLL,0419.76297,S,05539.82189,E,115603.00,A,A*6B
$GNRMC,115604.00,A,0419.76301,S,05539.82184,E,0.095,,270525,,,A*7D
$GNVTG,,T,,M,0.095,N,0.176,K,A*31
$GNGGA,115604.00,0419.76301,S,05539.82184,E,1,12,0.72,19.4,M,-47.6,M,,*48
$GNGSA,A,3,32,28,27,18,31,26,16,10,29,41,,,1.59,0.72,1.42*1A
$GNGSA,A,3,84,71,85,,,,,,,,,,1.59,0.72,1.42*14
$GPGSV,5,1,17,08,07,318,,10,16,002,10,16,25,242,18,18,33,083,23*75
$GPGSV,5,2,17,23,02,040,,25,00,123,,26,29,211,25,27,42,310,30*70
$GPGSV,5,3,17,28,48,151,31,29,14,148,12,31,34,187,29,32,59,358,31*79
$GPGSV,5,4,17,36,52,277,,40,84,353,30,41,58,082,39,49,32,274,*75
$GPGSV,5,5,17,50,10,089,*4A
$GLGSV,3,1,09,70,23,358,,71,48,306,29,72,29,241,17,73,15,144,08*64
$GLGSV,3,2,09,74,15,190,,75,00,235,,83,12,139,,84,50,090,21*64
$GLGSV,3,3,09,85,39,011,21*58
$GNGLL,0419.76301,S,05539.82184,E,115604.00,A,A*6F
$GNRMC,115605.00,A,0419.76298,S,05539.82193,E,0.097,,270525,,,A*79
$GNVTG,,T,,M,0.097,N,0.180,K,A*3A
$GNGGA,115605.00,0419.76298,S,05539.82193,E,1,12,0.82,19.3,M,-47.6,M,,*46
$GNGSA,A,3,32,28,27,18,31,26,16,29,41,,,,1.96,0.82,1.78*1E
$GNGSA,A,3,84,71,85,,,,,,,,,,1.96,0.82,1.78*11
$GPGSV,5,1,17,08,07,318,,10,16,002,09,16,25,242,18,18,33,083,24*7A
$GPGSV,5,2,17,23,02,040,,25,00,123,,26,29,211,24,27,42,310,31*70
$GPGSV,5,3,17,28,48,151,30,29,14,148,12,31,34,187,31,32,59,358,30*70
$GPGSV,5,4,17,36,52,277,,40,84,353,30,41,58,082,38,49,32,274,*74
$GPGSV,5,5,17,50,10,089,*4A
$GLGSV,3,1,09,70,23,358,,71,48,306,29,72,29,241,15,73,15,144,07*69
$GLGSV,3,2,09,74,15,190,,75,00,235,,83,12,139,,84,50,090,21*64
$GLGSV,3,3,09,85,39,011,23*5A
$GNGLL,0419.76298,S,05539.82193,E,115605.00,A,A*69
$GNRMC,115606.00,A,0419.76301,S,05539.82192,E,0.085,,270525,,,A*79
$GNVTG,,T,,M,0.085,N,0.157,K,A*33
$GNGGA,115606.00,0419.76301,S,05539.82192,E,1,12,0.82,19.7,M,-47.6,M,,*41
$GNGSA,A,3,32,28,27,18,31,26,16,29,41,,,,1.96,0.82,1.78*1E
$GNGSA,A,3,84,71,85,,,,,,,,,,1.96,0.82,1.78*11
$GPGSV,5,1,17,08,07,318,,10,16,002,08,16,25,242,17,18,33,083,25*75
$GPGSV,5,2,17,23,02,040,,25,00,123,,26,29,211,24,27,42,310,31*70
$GPGSV,5,3,17,28,48,151,31,29,14,148,12,31,34,187,32,32,59,358,31*73
$GPGSV,5,4,17,36,52,277,,40,84,353,31,41,58,082,38,49,32,274,*75
$GPGSV,5,5,17,50,10,089,*4A
$GLGSV,3,1,09,70,23,358,,71,47,306,30,72,29,241,14,73,15,144,08*60
$GLGSV,3,2,09,74,15,190,,75,00,235,,83,12,139,,84,50,090,20*65
$GLGSV,3,3,09,85,39,011,24*5D
$GNGLL,0419.76301,S,05539.82192,E,115606.00,A,A*6A
$GNRMC,115607.00,A,0419.76301,S,05539.82193,E,0.098,,270525,,,A*75
$GNVTG,,T,,M,0.098,N,0.182,K,A*37
$GNGGA,115607.00,0419.76301,S,05539.82193,E,1,12,0.82,19.8,M,-47.6,M,,*4E
$GNGSA,A,3,32,28,27,18,31,26,16,29,41,,,,1.97,0.82,1.78*1F
$GNGSA,A,3,84,71,85,,,,,,,,,,1.97,0.82,1.78*10
$GPGSV,5,1,17,08,07,318,,10,16,002,08,16,25,242,17,18,33,083,25*75
$GPGSV,5,2,17,23,02,040,,25,00,123,,26,29,211,24,27,42,310,31*70
$GPGSV,5,3,17,28,48,151,31,29,14,148,12,31,34,187,31,32,59,358,30*71
$GPGSV,5,4,17,36,52,277,,40,84,353,31,41,58,082,38,49,32,274,*75
$GPGSV,5,5,17,50,10,089,*4A
$GLGSV,3,1,09,70,23,358,,71,47,306,30,72,29,242,16,73,15,144,07*6E
$GLGSV,3,2,09,74,15,190,,75,00,235,,83,12,139,,84,50,090,19*6F
$GLGSV,3,3,09,85,39,011,23*5A
$GNGLL,0419.76301,S,05539.82193,E,115607.00,A,A*6A
$GNRMC,115608.00,A,0419.76300,S,05539.82198,E,0.065,,270525,,,A*72
$GNVTG,,T,,M,0.065,N,0.120,K,A*3D
$GNGGA,115608.00,0419.76300,S,05539.82198,E,1,12,0.81,19.5,M,-47.6,M,,*45
$GNGSA,A,3,32,28,27,18,31,26,16,29,41,,,,1.85,0.81,1.66*10
$GNGSA,A,3,84,71,85,,,,,,,,,,1.85,0.81,1.66*1F
$GPGSV,5,1,17,08,07,318,,10,16,002,09,16,25,242,17,18,33,083,25*74
$GPGSV,5,2,17,23,02,040,,25,00,123,,26,29,211,25,27,42,310,30*70
$GPGSV,5,3,17,28,48,151,32,29,14,148,14,31,34,187,30,32,59,358,30*75
$GPGSV,5,4,17,36,52,277,,40,84,353,32,41,58,082,38,49,32,274,*76
$GPGSV,5,5,17,50,10,089,*4A
$GLGSV,3,1,09,70,23,358,,71,47,306,29,72,29,242,17,73,15,143,07*60
$GLGSV,3,2,09,74,15,190,,75,00,235,,83,12,139,,84,50,090,20*65
$GLGSV,3,3,09,85,39,011,24*5D
$GNGLL,0419.76300,S,05539.82198,E,115608.00,A,A*6F
$GNRMC,115609.00,A,0419.76298,S,05539.82195,E,0.112,,270525,,,A*7F
$GNVTG,,T,,M,0.112,N,0.207,K,A*3A
$GNGGA,115609.00,0419.76298,S,05539.82195,E,1,12,0.82,19.7,M,-47.6,M,,*48
$GNGSA,A,3,32,28,27,18,31,26,16,29,41,,,,1.97,0.82,1.78*1F
$GNGSA,A,3,84,71,85,,,,,,,,,,1.97,0.82,1.78*10
$GPGSV,5,1,17,08,07,318,,10,16,002,,16,25,242,16,18,33,083,27*7E
$GPGSV,5,2,17,23,02,040,,25,00,123,,26,29,211,26,27,42,310,29*7B
$GPGSV,5,3,17,28,48,151,32,29,14,148,14,31,34,187,30,32,59,358,30*75
$GPGSV,5,4,17,36,52,277,,40,84,353,31,41,58,082,38,49,32,274,*75
$GPGSV,5,5,17,50,10,089,*4A
$GLGSV,3,1,09,70,23,358,,71,47,306,29,72,29,242,18,73,15,143,07*6F
$GLGSV,3,2,09,74,15,189,,75,00,235,,83,12,139,,84,50,090,19*67
$GLGSV,3,3,09,85,39,011,23*5A
$GNGLL,0419.76298,S,05539.82195,E,115609.00,A,A*63
$GNRMC,115610.00,A,0419.76295,S,05539.82193,E,0.096,,270525,,,A*71
$GNVTG,,T,,M,0.096,N,0.177,K,A*33
$GNGGA,115610.00,0419.76295,S,05539.82193,E,1,12,0.82,19.8,M,-47.6,M,,*44
$GNGSA,A,3,32,28,27,18,31,26,16,29,41,,,,1.97,0.82,1.79*1E
$GNGSA,A,3,84,71,85,,,,,,,,,,1.97,0.82,1.79*11
$GPGSV,5,1,17,08,07,318,,10,16,002,,16,25,242,16,18,33,083,27*7E
$GPGSV,5,2,17,23,02,040,,25,00,123,,26,29,211,25,27,42,310,28*79
$GPGSV,5,3,17,28,48,151,32,29,14,148,14,31,34,187,29,32,59,358,31*7C
$GPGSV,5,4,17,36,52,277,,40,84,353,31,41,58,082,38,49,32,274,*75
$GPGSV,5,5,17,50,10,089,*4A
$GLGSV,3,1,09,70,23,358,,71,47,306,29,72,29,242,16,73,15,143,07*61
$GLGSV,3,2,09,74,15,189,,75,01,234,,83,12,139,,84,50,090,20*6D
$GLGSV,3,3,09,85,39,011,23*5A
$GNGLL,0419.76295,S,05539.82193,E,115610.00,A,A*60
$GNRMC,115611.00,A,0419.76294,S,05539.82190,E,0.037,,270525,,,A*79
$GNVTG,,T,,M,0.037,N,0.069,K,A*36
$GNGGA,115611.00,0419.76294,S,05539.82190,E,1,12,0.82,20.1,M,-47.6,M,,*44
$GNGSA,A,3,32,28,27,18,31,26,16,29,41,,,,1.97,0.82,1.79*1E
$GNGSA,A,3,84,71,85,,,,,,,,,,1.97,0.82,1.79*11
$GPGSV,5,1,17,08,07,318,,10,16,002,04,16,25,242,13,18,33,083,27*7F
$GPGSV,5,2,17,23,02,040,,25,00,123,,26,29,211,25,27,42,310,27*76
$GPGSV,5,3,17,28,48,151,31,29,14,148,14,31,34,187,29,32,59,358,31*7F
$GPGSV,5,4,17,36,52,277,,40,84,353,31,41,58,082,38,49,32,274,*75
$GPGSV,5,5,17,50,10,089,*4A
$GLGSV,3,1,09,70,23,358,,71,47,306,29,72,29,242,17,73,15,143,07*60
$GLGSV,3,2,09,74,15,189,,75,01,234,,83,12,139,,84,50,090,19*67
$GLGSV,3,3,09,85,39,011,23*5A
$GNGLL,0419.76294,S,05539.82190,E,115611.00,A,A*63
$GNRMC,115612.00,A,0419.76290,S,05539.82188,E,0.052,,270525,,,A*74
$GNVTG,,T,,M,0.052,N,0.096,K,A*35
$GNGGA,115612.00,0419.76290,S,05539.82188,E,1,12,0.82,20.0,M,-47.6,M,,*4B
$GNGSA,A,3,32,28,27,18,31,26,16,29,41,,,,1.97,0.82,1.79*1E
$GNGSA,A,3,84,71,85,,,,,,,,,,1.97,0.82,1.79*11
$GPGSV,5,1,17,08,07,318,,10,16,002,08,16,25,242,12,18,33,083,26*73
$GPGSV,5,2,17,23,02,040,,25,00,123,,26,29,211,24,27,42,310,26*76
$GPGSV,5,3,17,28,48,151,30,29,14,148,14,31,34,187,29,32,59,358,31*7E
$GPGSV,5,4,17,36,52,277,,40,84,353,31,41,58,082,38,49,32,274,*75
$GPGSV,5,5,17,50,10,089,*4A
$GLGSV,3,1,09,70,23,358,,71,47,306,28,72,29,242,16,73,15,143,07*60
$GLGSV,3,2,09,74,15,189,,75,01,234,,83,12,139,,84,50,090,20*6D
$GLGSV,3,3,09,85,39,011,22*5B
$GNGLL,0419.76290,S,05539.82188,E,115612.00,A,A*6D
$GNRMC,115613.00,A,0419.76289,S,05539.82185,E,0.083,,270525,,,A*7C
$GNVTG,,T,,M,0.083,N,0.153,K,A*31
$GNGGA,115613.00,0419.76289,S,05539.82185,E,1,12,0.81,20.0,M,-47.6,M,,*4C
$GNGSA,A,3,32,28,27,18,31,26,16,29,41,,,,1.85,0.81,1.66*10
$GNGSA,A,3,84,71,85,,,,,,,,,,1.85,0.81,1.66*1F
$GPGSV,5,1,17,08,07,318,,10,16,002,11,16,25,242,12,18,33,083,24*79
$GPGSV,5,2,17,23,02,040,,25,00,123,,26,29,211,22,27,42,310,26*70
$GPGSV,5,3,17,28,48,151,28,29,14,148,14,31,34,187,29,32,59,358,30*76
$GPGSV,5,4,17,36,52,277,,40,84,353,29,41,58,082,37,49,32,274,*73
$GPGSV,5,5,17,50,10,089,*4A
$GLGSV,3,1,09,70,23,358,,71,47,306,29,72,29,242,14,73,15,143,08*6C
$GLGSV,3,2,09,74,15,189,,75,01,234,,83,12,139,,84,50,090,20*6D
$GLGSV,3,3,09,85,39,011,21*58
$GNGLL,0419.76289,S,05539.82185,E,115613.00,A,A*69
$GNRMC,115614.00,A,0419.76292,S,05539.82178,E,0.165,,270525,,,A*7A
$GNVTG,,T,,M,0.165,N,0.305,K,A*39
$GNGGA,115614.00,0419.76292,S,05539.82178,E,1,12,0.81,19.8,M,-47.6,M,,*41
$GNGSA,A,3,32,28,27,18,31,26,16,29,41,,,,1.85,0.81,1.66*10
$GNGSA,A,3,84,71,85,,,,,,,,,,1.85,0.81,1.66*1F
$GPGSV,5,1,17,08,07,318,,10,16,002,11,16,25,242,14,18,33,083,23*78
$GPGSV,5,2,17,23,02,040,,25,00,123,,26,29,211,22,27,42,310,26*70
$GPGSV,5,3,17,28,48,151,30,29,14,148,12,31,34,187,30,32,59,358,29*79
$GPGSV,5,4,17,36,52,277,,40,84,353,32,41,58,082,38,49,32,274,*76
$GPGSV,5,5,17,50,10,089,*4A
$GLGSV,3,1,09,70,23,358,,71,47,306,29,72,29,242,13,73,15,143,*63
$GLGSV,3,2,09,74,15,189,,75,01,234,,83,12,139,,84,50,090,20*6D
$GLGSV,3,3,09,85,39,011,19*53
$GNGLL,0419.76292,S,05539.82178,E,115614.00,A,A*66
$GNRMC,115615.00,A,0419.76297,S,05539.82167,E,0.290,,270525,,,A*79
$GNVTG,,T,,M,0.290,N,0.537,K,A*37
$GNGGA,115615.00,0419.76297,S,05539.82167,E,1,11,0.82,20.1,M,-47.6,M,,*48
$GNGSA,A,3,32,28,27,18,31,26,16,41,,,,,1.97,0.82,1.79*15
$GNGSA,A,3,84,71,85,,,,,,,,,,1.97,0.82,1.79*11
$GPGSV,5,1,17,08,07,318,,10,16,002,10,16,25,242,14,18,33,083,21*7B
$GPGSV,5,2,17,23,02,040,,25,00,123,,26,29,211,22,27,42,310,26*70
$GPGSV,5,3,17,28,48,151,31,29,14,148,,31,34,187,32,32,59,358,27*77
$GPGSV,5,4,17,36,52,277,,40,84,353,31,41,58,082,37,49,32,274,*7A
$GPGSV,5,5,17,50,10,089,*4A
$GLGSV,3,1,09,70,23,358,,71,47,306,30,72,29,242,14,73,15,143,*6C
$GLGSV,3,2,09,74,15,189,,75,01,234,,83,12,139,,84,50,090,20*6D
$GLGSV,3,3,09,85,39,011,20*59
$GNGLL,0419.76297,S,05539.82167,E,115615.00,A,A*6C
$GNRMC,115616.00,A,0419.76302,S,05539.82153,E,0.430,,270525,,,A*7C
$GNVTG,,T,,M,0.430,N,0.796,K,A*32
$GNGGA,115616.00,0419.76302,S,05539.82153,E,1,11,0.82,20.2,M,-47.6,M,,*42
$GNGSA,A,3,32,28,27,18,31,26,16,41,,,,,1.97,0.82,1.79*15
$GNGSA,A,3,84,71,85,,,,,,,,,,1.97,0.82,1.79*11
$GPGSV,5,1,17,08,07,318,,10,16,002,10,16,25,242,14,18,33,083,21*7B
$GPGSV,5,2,17,23,02,040,,25,00,123,,26,29,211,24,27,42,310,27*77
$GPGSV,5,3,17,28,48,151,31,29,14,148,,31,34,187,32,32,59,358,25*75
$GPGSV,5,4,17,36,52,277,,40,84,353,33,41,58,082,36,49,32,274,*79
$GPGSV,5,5,17,50,10,089,*4A
$GLGSV,3,1,09,70,23,358,,71,47,306,30,72,29,242,16,73,15,143,*6E
$GLGSV,3,2,09,74,15,189,,75,01,234,,83,12,139,,84,50,090,19*67
$GLGSV,3,3,09,85,39,011,21*58
$GNGLL,0419.76302,S,05539.82153,E,115616.00,A,A*65
$GNRMC,115617.00,A,0419.76298,S,05539.82145,E,0.226,,270525,,,A*79
$GNVTG,,T,,M,0.226,N,0.418,K,A*36
$GNGGA,115617.00,0419.76298,S,05539.82145,E,1,11,0.82,19.8,M,-47.6,M,,*46
$GNGSA,A,3,32,28,27,18,31,26,16,41,,,,,1.97,0.82,1.79*15
$GNGSA,A,3,84,71,85,,,,,,,,,,1.97,0.82,1.79*11
$GPGSV,5,1,17,08,07,318,,10,16,002,10,16,25,242,14,18,33,083,20*7A
$GPGSV,5,2,17,23,02,040,,25,00,123,,26,29,211,25,27,42,310,26*77
$GPGSV,5,3,17,28,48,151,25,29,14,148,15,31,34,187,27,32,59,358,25*70
$GPGSV,5,4,17,36,52,277,,40,84,353,29,41,58,082,34,49,32,274,*70
$GPGSV,5,5,17,50,10,089,*4A
$GLGSV,3,1,09,70,23,358,,71,47,306,22,72,29,242,17,73,15,143,*6C
$GLGSV,3,2,09,74,15,189,,75,01,234,,83,12,139,,84,50,090,17*69
$GLGSV,3,3,09,85,39,011,19*53
$GNGLL,0419.76298,S,05539.82145,E,115617.00,A,A*61
$GNRMC,115618.00,A,0419.76309,S,05539.82132,E,0.638,,270525,,,A*74
$GNVTG,,T,,M,0.638,N,1.181,K,A*39
$GNGGA,115618.00,0419.76309,S,05539.82132,E,1,12,0.80,19.5,M,-47.6,M,,*4C
$GNGSA,A,3,32,28,27,18,31,26,16,10,41,,,,1.96,0.80,1.79*17
$GNGSA,A,3,84,71,85,,,,,,,,,,1.96,0.80,1.79*12
$GPGSV,5,1,17,08,07,318,,10,16,002,10,16,25,242,14,18,33,083,18*71
$GPGSV,5,2,17,23,02,040,,25,00,123,,26,29,211,21,27,42,310,22*77
$GPGSV,5,3,17,28,48,151,24,29,14,148,11,31,34,187,26,32,59,358,26*77
$GPGSV,5,4,17,36,52,277,,40,84,353,29,41,58,082,31,49,32,274,*75
$GPGSV,5,5,17,50,10,089,*4A
$GLGSV,3,1,09,70,23,358,,71,47,306,22,72,29,242,16,73,15,143,*6D
$GLGSV,3,2,09,74,15,189,,75,01,234,,83,12,139,,84,50,090,14*6A
$GLGSV,3,3,09,85,39,011,17*5D
$GNGLL,0419.76309,S,05539.82132,E,115618.00,A,A*67
$GNRMC,115619.00,A,0419.76330,S,05539.82105,E,1.231,,270525,,,A*77
$GNVTG,,T,,M,1.231,N,2.279,K,A*32
$GNGGA,115619.00,0419.76330,S,05539.82105,E,1,12,0.80,19.5,M,-47.6,M,,*43
$GNGSA,A,3,32,28,27,18,31,26,16,10,41,,,,1.96,0.80,1.79*17
$GNGSA,A,3,84,71,85,,,,,,,,,,1.96,0.80,1.79*12
$GPGSV,5,1,17,08,07,318,,10,16,002,12,16,25,242,15,18,33,083,20*79
$GPGSV,5,2,17,23,02,040,,25,00,123,,26,29,211,19,27,42,310,20*7E
$GPGSV,5,3,17,28,48,151,25,29,14,148,10,31,34,187,26,32,59,358,27*76
$GPGSV,5,4,17,36,52,277,,40,84,353,29,41,58,082,31,49,32,274,*75
$GPGSV,5,5,17,50,10,089,*4A
$GLGSV,3,1,09,70,23,358,,71,47,306,23,72,29,242,15,73,15,143,*6F
$GLGSV,3,2,09,74,15,189,,75,01,234,,83,12,139,,84,50,091,15*6A
$GLGSV,3,3,09,85,39,011,16*5C
$GNGLL,0419.76330,S,05539.82105,E,115619.00,A,A*68
$GNRMC,115620.00,A,0419.76339,S,05539.82106,E,0.780,,270525,,,A*79
$GNVTG,,T,,M,0.780,N,1.444,K,A*37
$GNGGA,115620.00,0419.76339,S,05539.82106,E,1,12,0.80,19.4,M,-47.6,M,,*42
$GNGSA,A,3,32,28,27,18,31,26,16,10,41,,,,1.96,0.80,1.79*17
$GNGSA,A,3,84,71,85,,,,,,,,,,1.96,0.80,1.79*12
$GPGSV,5,1,17,08,07,318,,10,16,002,11,16,25,242,10,18,33,083,23*7C
$GPGSV,5,2,17,23,02,040,,25,00,123,,26,29,211,17,27,42,310,20*70
$GPGSV,5,3,17,28,48,151,30,29,14,148,13,31,34,187,24,32,59,358,26*72
$GPGSV,5,4,17,36,52,277,,40,84,353,33,41,58,082,32,49,32,274,*7D
$GPGSV,5,5,17,50,10,089,*4A
$GLGSV,3,1,09,70,23,358,,71,47,306,25,72,29,242,14,73,15,143,*68
$GLGSV,3,2,09,74,15,189,,75,01,234,,83,12,139,,84,50,091,16*69
$GLGSV,3,3,09,85,40,011,20*57
$GNGLL,0419.76339,S,05539.82106,E,115620.00,A,A*68
$GNRMC,115621.00,A,0419.76336,S,05539.82087,E,0.643,,270525,,,A*71
$GNVTG,,T,,M,0.643,N,1.191,K,A*34
$GNGGA,115621.00,0419.76336,S,05539.82087,E,1,12,0.80,19.2,M,-47.6,M,,*42
$GNGSA,A,3,32,28,27,18,31,26,16,10,41,,,,1.96,0.80,1.79*17
$GNGSA,A,3,84,71,85,,,,,,,,,,1.96,0.80,1.79*12
$GPGSV,5,1,17,08,07,318,,10,16,002,11,16,25,242,10,18,33,083,22*7D
$GPGSV,5,2,17,23,02,040,,25,00,123,,26,29,211,20,27,42,310,22*76
$GPGSV,5,3,17,28,48,151,23,29,14,148,13,31,34,187,22,32,59,358,25*75
$GPGSV,5,4,17,36,52,277,,40,84,353,29,41,58,082,31,49,32,274,*75
$GPGSV,5,5,17,50,10,089,*4A
$GLGSV,3,1,09,70,23,358,,71,47,306,26,72,29,242,15,73,15,143,*6A
$GLGSV,3,2,09,74,15,189,,75,01,234,,83,12,139,,84,50,091,18*67
$GLGSV,3,3,09,85,40,011,20*57
$GNGLL,0419.76336,S,05539.82087,E,115621.00,A,A*6E
$GNRMC,115622.00,A,0419.76328,S,05539.82089,E,0.304,,270525,,,A*75
$GNVTG,,T,,M,0.304,N,0.563,K,A*3A
$GNGGA,115622.00,0419.76328,S,05539.82089,E,1,12,0.87,19.3,M,-47.6,M,,*46
$GNGSA,A,3,32,28,27,18,31,26,16,10,29,41,,,2.24,0.87,2.07*1B
$GNGSA,A,3,84,71,85,,,,,,,,,,2.24,0.87,2.07*15
$GPGSV,5,1,17,08,07,318,,10,16,002,11,16,25,242,10,18,33,083,22*7D
$GPGSV,5,2,17,23,02,040,,25,00,123,,26,29,211,20,27,42,310,23*77
$GPGSV,5,3,17,28,48,151,22,29,14,148,11,31,34,187,22,32,59,358,25*76
$GPGSV,5,4,17,36,52,277,,40,84,353,29,41,58,082,30,49,32,274,*74
$GPGSV,5,5,17,50,10,089,*4A
$GLGSV,3,1,09,70,23,358,,71,47,306,26,72,29,242,,73,15,143,*6E
$GLGSV,3,2,09,74,15,189,,75,01,234,,83,12,139,,84,50,091,14*6B
$GLGSV,3,3,09,85,40,011,19*5D
$GNGLL,0419.76328,S,05539.82089,E,115622.00,A,A*6C
$GNRMC,115623.00,A,0419.76354,S,05539.82094,E,0.680,,270525,,,A*7A
$GNVTG,,T,,M,0.680,N,1.259,K,A*3C
$GNGGA,115623.00,0419.76354,S,05539.82094,E,1,12,0.87,19.5,M,-47.6,M,,*46
$GNGSA,A,3,32,28,27,18,31,26,16,10,29,41,,,2.24,0.87,2.07*1B
$GNGSA,A,3,84,71,85,,,,,,,,,,2.24,0.87,2.07*15
$GPGSV,5,1,17,08,07,318,,10,16,002,11,16,25,242,10,18,33,083,21*7E
$GPGSV,5,2,17,23,02,040,,25,00,123,,26,29,211,19,27,42,310,21*7F
$GPGSV,5,3,17,28,48,151,21,29,14,148,13,31,34,187,20,32,59,358,26*76
$GPGSV,5,4,17,36,52,277,,40,84,353,28,41,58,082,31,49,32,274,*74
$GPGSV,5,5,17,50,10,089,*4A
$GLGSV,3,1,09,70,23,358,,71,47,306,23,72,29,242,,73,15,143,*6B
$GLGSV,3,2,09,74,15,189,,75,01,234,,83,12,139,,84,50,091,10*6F
$GLGSV,3,3,09,85,40,011,18*5C
$GNGLL,0419.76354,S,05539.82094,E,115623.00,A,A*6A
$GNRMC,115624.00,A,0419.76355,S,05539.82132,E,0.649,,270525,,,A*74
$GNVTG,,T,,M,0.649,N,1.201,K,A*34
$GNGGA,115624.00,0419.76355,S,05539.82132,E,1,12,0.87,19.4,M,-47.6,M,,*4C
$GNGSA,A,3,32,28,27,18,31,26,16,10,29,41,,,2.24,0.87,2.07*1B
$GNGSA,A,3,84,71,85,,,,,,,,,,2.24,0.87,2.07*15
$GPGSV,5,1,17,08,07,318,,10,16,002,11,16,25,242,10,18,33,083,20*7F
$GPGSV,5,2,17,23,02,040,,25,00,123,,26,29,211,20,27,42,310,22*76
$GPGSV,5,3,17,28,48,151,23,29,14,148,12,31,34,187,20,32,59,358,26*75
$GPGSV,5,4,17,36,52,277,,40,84,353,27,41,58,082,35,49,32,274,*7F
$GPGSV,5,5,17,50,10,089,*4A
$GLGSV,3,1,09,70,23,358,,71,47,306,26,72,29,242,,73,15,143,*6E
$GLGSV,3,2,09,74,15,189,,75,01,234,,83,12,139,,84,50,091,14*6B
$GLGSV,3,3,09,85,40,011,17*53
$GNGLL,0419.76355,S,05539.82132,E,115624.00,A,A*61
$GNRMC,115625.00,A,0419.76351,S,05539.82127,E,0.250,,270525,,,A*79
$GNVTG,,T,,M,0.250,N,0.463,K,A*3B
$GNGGA,115625.00,0419.76351,S,05539.82127,E,1,12,0.87,19.6,M,-47.6,M,,*4F
$GNGSA,A,3,32,28,27,18,31,26,16,10,29,41,,,2.24,0.87,2.07*1B
$GNGSA,A,3,84,71,85,,,,,,,,,,2.24,0.87,2.07*15
$GPGSV,5,1,17,08,07,318,,10,16,002,11,16,25,242,10,18,33,083,19*75
$GPGSV,5,2,17,23,02,040,08,25,00,123,,26,29,211,20,27,42,310,20*7C
$GPGSV,5,3,17,28,48,151,26,29,14,148,13,31,34,187,20,32,59,358,24*73
$GPGSV,5,4,17,36,52,277,,40,84,353,,41,58,082,33,49,32,274,*7C
$GPGSV,5,5,17,50,10,089,*4A
$GLGSV,3,1,09,70,23,358,,71,47,306,27,72,29,242,,73,15,143,*6F
$GLGSV,3,2,09,74,15,189,,75,01,234,,83,12,139,,84,50,091,18*67
$GLGSV,3,3,09,85,40,011,19*5D
$GNGLL,0419.76351,S,05539.82127,E,115625.00,A,A*60
$GNRMC,115626.00,A,0419.76311,S,05539.82147,E,0.533,,270525,,,A*7A
$GNVTG,,T,,M,0.533,N,0.988,K,A*31
$GNGGA,115626.00,0419.76311,S,05539.82147,E,1,12,0.74,19.9,M,-47.6,M,,*4D
$GNGSA,A,3,32,28,27,18,31,26,16,10,29,41,,,1.66,0.74,1.49*1B
$GNGSA,A,3,84,71,85,,,,,,,,,,1.66,0.74,1.49*15
$GPGSV,5,1,17,08,07,318,,10,16,002,12,16,25,242,16,18,33,083,21*7B
$GPGSV,5,2,17,23,02,040,08,25,00,123,16,26,29,211,18,27,42,310,21*71
$GPGSV,5,3,17,28,48,151,27,29,14,148,14,31,34,187,23,32,59,358,21*73
$GPGSV,5,4,17,36,52,277,,40,84,353,,41,58,082,31,49,32,274,*7E
$GPGSV,5,5,17,50,10,089,*4A
$GLGSV,3,1,09,70,23,358,,71,47,306,26,72,29,242,,73,15,143,*6E
$GLGSV,3,2,09,74,15,189,,75,01,234,,83,12,139,,84,50,091,18*67
$GLGSV,3,3,09,85,40,011,19*5D
$GNGLL,0419.76311,S,05539.82147,E,115626.00,A,A*61
$GNRMC,115627.00,A,0419.76316,S,05539.82138,E,0.074,,270525,,,A*72
$GNVTG,,T,,M,0.074,N,0.137,K,A*3B
$GNGGA,115627.00,0419.76316,S,05539.82138,E,1,12,0.87,20.5,M,-47.6,M,,*49
$GNGSA,A,3,32,28,27,18,31,26,16,10,29,41,,,2.24,0.87,2.07*1B
$GNGSA,A,3,84,71,85,,,,,,,,,,2.24,0.87,2.07*15
$GPGSV,5,1,17,08,07,318,,10,16,002,12,16,25,242,16,18,33,083,24*7E
$GPGSV,5,2,17,23,02,040,08,25,00,123,14,26,29,211,19,27,42,310,18*78
$GPGSV,5,3,17,28,48,151,29,29,14,148,14,31,34,187,24,32,59,358,30*7A
$GPGSV,5,4,17,36,52,277,,40,84,353,,41,58,082,35,49,32,274,*7A
$GPGSV,5,5,17,50,10,089,*4A
$GLGSV,3,1,09,70,23,358,,71,47,306,25,72,29,242,,73,15,143,*6D
$GLGSV,3,2,09,74,15,189,,75,01,234,,83,12,139,,84,50,091,19*66
$GLGSV,3,3,09,85,40,011,19*5D
$GNGLL,0419.76316,S,05539.82138,E,115627.00,A,A*6F
$GNRMC,115628.00,A,0419.76316,S,05539.82137,E,0.097,,270525,,,A*7F
$GNVTG,,T,,M,0.097,N,0.180,K,A*3A
$GNGGA,115628.00,0419.76316,S,05539.82137,E,1,12,0.87,21.1,M,-47.6,M,,*4C
$GNGSA,A,3,32,28,27,18,31,26,16,10,29,41,,,2.24,0.87,2.07*1B
$GNGSA,A,3,84,71,85,,,,,,,,,,2.24,0.87,2.07*15
$GPGSV,5,1,17,08,07,318,,10,16,002,13,16,25,242,16,18,33,083,24*7F
$GPGSV,5,2,17,23,02,040,08,25,00,123,11,26,29,211,20,27,42,310,20*7C
$GPGSV,5,3,17,28,48,151,29,29,14,148,13,31,34,187,23,32,59,358,31*7B
$GPGSV,5,4,17,36,52,277,,40,84,353,,41,58,082,35,49,32,274,*7A
$GPGSV,5,5,17,50,10,089,*4A
$GLGSV,3,1,09,70,23,358,,71,47,306,26,72,29,242,,73,15,143,*6E
$GLGSV,3,2,09,74,15,189,,75,01,234,,83,12,139,,84,50,091,20*6C
$GLGSV,3,3,09,85,40,011,19*5D
$GNGLL,0419.76316,S,05539.82137,E,115628.00,A,A*6F
$GNRMC,115629.00,A,0419.76314,S,05539.82143,E,0.146,,270525,,,D*77
$GNVTG,,T,,M,0.146,N,0.270,K,D*3E
$GNGGA,115629.00,0419.76314,S,05539.82143,E,2,11,1.04,21.3,M,-47.6,M,,0000*44
$GNGSA,A,3,32,28,27,18,31,26,10,29,41,,,,2.55,1.04,2.33*17
$GNGSA,A,3,84,71,,,,,,,,,,,2.55,1.04,2.33*13
$GPGSV,5,1,17,08,07,318,,10,16,002,13,16,25,242,,18,33,083,24*78
$GPGSV,5,2,17,23,02,040,07,25,00,123,09,26,29,211,21,27,42,310,23*78
$GPGSV,5,3,17,28,48,151,29,29,14,148,12,31,34,187,23,32,59,358,25*7F
$GPGSV,5,4,17,36,52,277,,40,84,353,,41,58,082,35,49,32,274,*7A
$GPGSV,5,5,17,50,10,089,*4A
$GLGSV,3,1,09,70,23,358,,71,47,306,28,72,29,242,,73,15,143,*60
$GLGSV,3,2,09,74,15,189,,75,01,234,,83,12,139,,84,50,091,19*66
$GLGSV,3,3,09,85,40,011,23*54
$GNGLL,0419.76314,S,05539.82143,E,115629.00,A,D*6A
$GNRMC,115630.00,A,0419.76308,S,05539.82149,E,0.047,,270525,,,D*78
$GNVTG,,T,,M,0.047,N,0.087,K,D*34
$GNGGA,115630.00,0419.76308,S,05539.82149,E,2,11,1.04,21.4,M,-47.6,M,,0000*4C
$GNGSA,A,3,32,28,27,18,31,26,10,29,41,,,,2.55,1.04,2.33*17
$GNGSA,A,3,84,71,,,,,,,,,,,2.55,1.04,2.33*13
$GPGSV,5,1,17,08,07,318,,10,16,002,12,16,25,242,21,18,33,083,23*7D
$GPGSV,5,2,17,23,02,040,08,25,00,123,10,26,29,211,21,27,42,310,22*7E
$GPGSV,5,3,17,28,48,151,29,29,14,148,10,31,34,187,26,32,59,358,25*78
$GPGSV,5,4,17,36,52,277,,40,84,353,,41,58,082,36,49,32,274,*79
$GPGSV,5,5,17,50,10,089,*4A
$GLGSV,3,1,09,70,23,358,,71,47,306,30,72,29,242,,73,15,143,*69
$GLGSV,3,2,09,74,15,189,,75,01,234,,83,12,139,21,84,50,091,20*6F
$GLGSV,3,3,09,85,40,011,*55
$GNGLL,0419.76308,S,05539.82149,E,115630.00,A,D*65
$GNRMC,115631.00,A,0419.76309,S,05539.82142,E,0.173,,270525,,,D*75
$GNVTG,,T,,M,0.173,N,0.321,K,D*3D
$GNGGA,115631.00,0419.76309,S,05539.82142,E,2,11,1.04,21.8,M,-47.6,M,,0000*4B
$GNGSA,A,3,32,28,27,18,31,26,10,29,41,,,,2.55,1.04,2.33*17
$GNGSA,A,3,84,71,,,,,,,,,,,2.55,1.04,2.33*13
$GPGSV,5,1,17,08,07,318,,10,16,002,12,16,25,242,17,18,33,083,26*7D
$GPGSV,5,2,17,23,02,040,09,25,00,123,09,26,29,211,22,27,42,310,21*77
$GPGSV,5,3,17,28,48,151,30,29,14,148,13,31,34,187,26,32,59,358,24*72
$GPGSV,5,4,17,36,52,277,,40,84,353,,41,58,082,37,49,32,274,*78
$GPGSV,5,5,17,50,10,089,*4A
$GLGSV,3,1,09,70,23,358,,71,47,306,31,72,29,242,,73,15,143,*68
$GLGSV,3,2,09,74,15,189,,75,01,234,,83,12,139,19,84,50,091,19*6E
$GLGSV,3,3,09,85,40,011,*55
$GNGLL,0419.76309,S,05539.82142,E,115631.00,A,D*6E
$GNRMC,115632.00,A,0419.76292,S,05539.82160,E,0.527,,270525,,,D*70
$GNVTG,,T,,M,0.527,N,0.975,K,D*33
$GNGGA,115632.00,0419.76292,S,05539.82160,E,2,10,1.04,22.4,M,-47.6,M,,0000*45
$GNGSA,A,3,32,28,27,18,31,26,29,41,,,,,2.55,1.04,2.33*16
$GNGSA,A,3,84,71,,,,,,,,,,,2.55,1.04,2.33*13
$GPGSV,5,1,17,08,07,318,,10,16,002,,16,25,242,19,18,33,083,28*7E
$GPGSV,5,2,17,23,02,040,09,25,00,123,10,26,29,211,21,27,42,310,21*7C
$GPGSV,5,3,17,28,48,151,32,29,14,148,15,31,34,187,29,32,59,358,25*78
$GPGSV,5,4,17,36,52,277,,40,84,353,,41,58,082,37,49,32,274,*78
$GPGSV,5,5,17,50,10,089,*4A
$GLGSV,3,1,09,70,23,358,,71,47,306,30,72,29,242,,73,15,143,*69
$GLGSV,3,2,09,74,15,189,,75,01,234,,83,12,139,16,84,50,091,18*60
$GLGSV,3,3,09,85,40,011,*55
$GNGLL,0419.76292,S,05539.82160,E,115632.00,A,D*6E
$GNRMC,115633.00,A,0419.76289,S,05539.82159,E,0.092,,270525,,,D*7A
$GNVTG,,T,,M,0.092,N,0.171,K,D*34
$GNGGA,115633.00,0419.76289,S,05539.82159,E,2,11,1.00,22.7,M,-47.6,M,,0000*42
$GNGSA,A,3,32,28,27,18,31,26,16,29,41,,,,2.45,1.00,2.24*12
$GNGSA,A,3,84,71,,,,,,,,,,,2.45,1.00,2.24*10
