$GNRMC,115908.00,A,0419.76051,S,05539.82709,E,0.270,,270525,,,A*72
$GNVTG,,T,,M,0.270,N,0.499,K,A*3C
$GNGGA,115908.00,0419.76051,S,05539.82709,E,1,11,0.75,33.1,M,-47.6,M,,*47
$GNGSA,A,3,32,28,27,18,31,26,16,10,29,,,,1.73,0.75,1.56*15
$GNGSA,A,3,71,85,,,,,,,,,,,1.73,0.75,1.56*12
$GPGSV,5,1,17,08,08,317,,10,16,003,14,16,25,241,17,18,33,084,18*73
$GPGSV,5,2,17,23,02,041,,25,00,122,09,26,29,210,19,27,43,309,22*7D
$GPGSV,5,3,17,28,49,150,23,29,13,148,11,31,34,186,17,32,58,359,35*76
$GPGSV,5,4,17,36,52,277,,40,84,353,,41,58,082,,49,32,274,*7C
$GPGSV,5,5,17,50,10,089,*4A
$GLGSV,3,1,09,70,22,359,,71,47,308,21,72,30,243,18,73,15,142,*66
$GLGSV,3,2,09,74,15,188,,75,01,233,,83,11,140,,84,50,093,06*61
$GLGSV,3,3,09,85,41,012,21*54
$GNGLL,0419.76051,S,05539.82709,E,115908.00,A,A*69
$GNRMC,115909.00,A,0419.76046,S,05539.82730,E,0.304,,270525,,,A*7D
$GNVTG,,T,,M,0.304,N,0.563,K,A*3A
$GNGGA,115909.00,0419.76046,S,05539.82730,E,1,11,0.77,33.5,M,-47.6,M,,*4C
$GNGSA,A,3,32,28,27,18,31,26,16,10,29,,,,1.83,0.77,1.66*1B
$GNGSA,A,3,71,85,,,,,,,,,,,1.83,0.77,1.66*1C
$GPGSV,5,1,17,08,08,317,,10,16,003,10,16,25,240,15,18,33,084,17*7B
$GPGSV,5,2,17,23,02,041,,25,00,122,09,26,29,210,20,27,43,309,22*77
$GPGSV,5,3,17,28,49,150,21,29,13,148,11,31,34,186,18,32,58,359,36*78
$GPGSV,5,4,17,36,52,277,,40,84,353,,41,58,082,,49,32,274,*7C
$GPGSV,5,5,17,50,10,089,*4A
$GLGSV,3,1,09,70,22,359,,71,47,308,21,72,30,243,20,73,15,142,*6D
$GLGSV,3,2,09,74,15,188,,75,01,233,,83,11,140,,84,50,093,*67
$GLGSV,3,3,09,85,41,012,23*56
$GNGLL,0419.76046,S,05539.82730,E,115909.00,A,A*64
$GNRMC,115910.00,A,0419.76055,S,05539.82752,E,0.488,,270525,,,A*70
$GNVTG,,T,,M,0.488,N,0.903,K,A*33
$GNGGA,115910.00,0419.76055,S,05539.82752,E,1,09,1.06,33.9,M,-47.6,M,,*40
$GNGSA,A,3,32,28,27,18,31,26,29,,,,,,3.85,1.06,3.70*1B
$GNGSA,A,3,71,85,,,,,,,,,,,3.85,1.06,3.70*1A
$GPGSV,5,1,17,08,08,317,,10,16,003,09,16,25,240,09,18,33,084,17*7E
$GPGSV,5,2,17,23,02,041,,25,00,122,09,26,29,210,18,27,43,309,23*7D
$GPGSV,5,3,17,28,49,150,21,29,13,148,11,31,34,186,17,32,58,359,38*79
$GPGSV,5,4,17,36,52,277,,40,84,353,,41,58,082,,49,32,274,*7C
$GPGSV,5,5,17,50,10,089,*4A
$GLGSV,3,1,09,70,22,359,,71,47,308,23,72,30,243,23,73,15,142,*6C
$GLGSV,3,2,09,74,15,188,,75,01,233,,83,11,140,,84,50,093,*67
$GLGSV,3,3,09,85,41,012,24*51
$GNGLL,0419.76055,S,05539.82752,E,115910.00,A,A*6A
$GNRMC,115911.00,A,0419.76045,S,05539.82759,E,0.215,,270525,,,A*79
$GNVTG,,T,,M,0.215,N,0.397,K,A*36
$GNGGA,115911.00,0419.76045,S,05539.82759,E,1,10,1.06,34.1,M,-47.6,M,,*4C
$GNGSA,A,3,32,28,27,18,31,26,10,29,,,,,3.85,1.06,3.70*1A
$GNGSA,A,3,71,85,,,,,,,,,,,3.85,1.06,3.70*1A
$GPGSV,5,1,17,08,08,317,,10,16,003,11,16,25,240,07,18,33,085,16*79
$GPGSV,5,2,17,23,02,041,,25,00,122,10,26,29,210,17,27,43,309,23*7A
$GPGSV,5,3,17,28,49,150,21,29,13,148,11,31,34,186,18,32,58,359,39*77
$GPGSV,5,4,17,36,52,277,,40,84,353,,41,58,082,,49,32,274,*7C
$GPGSV,5,5,17,50,10,089,*4A
$GLGSV,3,1,09,70,22,359,,71,47,308,24,72,30,243,24,73,15,142,*6C
$GLGSV,3,2,09,74,15,188,,75,01,233,,83,11,140,,84,50,093,*67
$GLGSV,3,3,09,85,41,012,26*53
$GNGLL,0419.76045,S,05539.82759,E,115911.00,A,A*61
$GNRMC,115912.00,A,0419.76035,S,05539.82765,E,0.095,,270525,,,A*78
$GNVTG,,T,,M,0.095,N,0.176,K,A*31
$GNGGA,115912.00,0419.76035,S,05539.82765,E,1,10,0.91,34.3,M,-47.6,M,,*4A
$GNGSA,A,3,32,28,27,18,31,26,10,29,,,,,1.97,0.91,1.75*13
$GNGSA,A,3,71,85,,,,,,,,,,,1.97,0.91,1.75*13
$GPGSV,5,1,17,08,08,317,,10,16,003,12,16,25,240,07,18,33,085,19*75
$GPGSV,5,2,17,23,02,041,,25,00,122,10,26,29,210,19,27,43,309,24*73
$GPGSV,5,3,17,28,49,150,22,29,13,148,11,31,34,186,21,32,58,359,41*71
$GPGSV,5,4,17,36,52,277,,40,84,353,,41,58,082,,49,32,274,*7C
$GPGSV,5,5,17,50,10,089,*4A
$GLGSV,3,1,09,70,22,359,,71,47,308,25,72,30,243,24,73,15,142,*6D
$GLGSV,3,2,09,74,15,188,,75,01,233,,83,11,140,,84,50,093,*67
$GLGSV,3,3,09,85,41,012,26*53
$GNGLL,0419.76035,S,05539.82765,E,115912.00,A,A*6A
$GNRMC,115913.00,A,0419.76040,S,05539.82749,E,0.320,,270525,,,A*78
$GNVTG,,T,,M,0.320,N,0.592,K,A*32
$GNGGA,115913.00,0419.76040,S,05539.82749,E,1,10,1.06,34.4,M,-47.6,M,,*4F
$GNGSA,A,3,32,28,27,18,31,26,10,29,,,,,3.85,1.06,3.71*1B
$GNGSA,A,3,71,85,,,,,,,,,,,3.85,1.06,3.71*1B
$GPGSV,5,1,17,08,08,317,,10,16,003,12,16,25,240,07,18,33,085,20*7F
$GPGSV,5,2,17,23,02,041,,25,00,122,10,26,29,210,19,27,43,309,25*72
$GPGSV,5,3,17,28,49,150,25,29,13,148,11,31,34,186,22,32,58,359,41*75
$GPGSV,5,4,17,36,52,277,,40,84,353,,41,58,082,28,49,32,274,*76
$GPGSV,5,5,17,50,10,089,*4A
$GLGSV,3,1,09,70,22,359,,71,47,308,25,72,30,243,25,73,15,142,*6C
$GLGSV,3,2,09,74,15,188,,75,01,233,,83,11,140,,84,50,093,*67
$GLGSV,3,3,09,85,41,012,26*53
$GNGLL,0419.76040,S,05539.82749,E,115913.00,A,A*67
$GNRMC,115914.00,A,0419.76036,S,05539.82771,E,0.067,,270525,,,A*75
$GNVTG,,T,,M,0.067,N,0.125,K,A*3A
$GNGGA,115914.00,0419.76036,S,05539.82771,E,1,12,0.97,34.3,M,-47.6,M,,*4E
$GNGSA,A,3,32,28,27,18,31,26,16,10,29,41,,,3.03,0.97,2.87*16
$GNGSA,A,3,71,85,,,,,,,,,,,3.03,0.97,2.87*14
$GPGSV,5,1,17,08,08,317,,10,16,003,16,16,25,240,14,18,33,085,19*73
$GPGSV,5,2,17,23,02,041,,25,00,122,10,26,29,210,20,27,43,309,25*78
$GPGSV,5,3,17,28,49,150,26,29,13,148,17,31,34,186,21,32,58,359,41*73
$GPGSV,5,4,17,36,52,277,,40,84,353,,41,58,082,29,49,32,274,*77
$GPGSV,5,5,17,50,10,089,*4A
$GLGSV,3,1,09,70,22,359,,71,47,308,25,72,30,243,25,73,15,142,*6C
$GLGSV,3,2,09,74,15,188,,75,01,233,,83,11,140,,84,50,093,*67
$GLGSV,3,3,09,85,41,012,28*5D
$GNGLL,0419.76036,S,05539.82771,E,115914.00,A,A*6A
$GNRMC,115915.00,A,0419.76039,S,05539.82769,E,0.189,,270525,,,A*73
$GNVTG,,T,,M,0.189,N,0.350,K,A*3B
$GNGGA,115915.00,0419.76039,S,05539.82769,E,1,12,0.77,34.1,M,-47.6,M,,*45
$GNGSA,A,3,32,28,27,18,31,26,16,10,29,41,,,1.83,0.77,1.66*1E
$GNGSA,A,3,71,85,,,,,,,,,,,1.83,0.77,1.66*1C
$GPGSV,5,1,17,08,08,317,,10,16,003,16,16,25,240,15,18,33,085,18*73
$GPGSV,5,2,17,23,02,041,,25,00,122,10,26,29,210,20,27,43,309,25*78
$GPGSV,5,3,17,28,49,150,27,29,13,148,17,31,34,186,22,32,58,359,41*71
$GPGSV,5,4,17,36,52,277,,40,84,353,,41,58,082,28,49,32,274,*76
$GPGSV,5,5,17,50,10,089,*4A
$GLGSV,3,1,09,70,22,359,,71,47,308,23,72,30,243,25,73,15,142,*6A
$GLGSV,3,2,09,74,15,188,,75,01,233,,83,11,140,,84,50,093,*67
$GLGSV,3,3,09,85,41,012,29*5C
$GNGLL,0419.76039,S,05539.82769,E,115915.00,A,A*6D
$GNRMC,115916.00,A,0419.76040,S,05539.82765,E,0.193,,270525,,,A*79
$GNVTG,,T,,M,0.193,N,0.357,K,A*37
$GNGGA,115916.00,0419.76040,S,05539.82765,E,1,10,1.00,34.1,M,-47.6,M,,*47
$GNGSA,A,3,32,28,27,18,31,26,10,29,,,,,2.65,1.00,2.46*17
$GNGSA,A,3,71,85,,,,,,,,,,,2.65,1.00,2.46*17
$GPGSV,5,1,17,08,08,317,,10,16,003,16,16,25,240,11,18,33,085,22*7E
$GPGSV,5,2,17,23,02,041,,25,00,122,10,26,29,210,20,27,43,309,23*7E
$GPGSV,5,3,17,28,49,150,26,29,13,148,17,31,34,186,22,32,58,359,42*73
$GPGSV,5,4,17,36,52,277,,40,84,353,,41,58,082,,49,32,274,*7C
$GPGSV,5,5,17,50,10,089,*4A
$GLGSV,3,1,09,70,22,359,,71,47,308,21,72,30,243,25,73,15,142,*68
$GLGSV,3,2,09,74,15,188,,75,01,233,,83,11,140,,84,50,093,*67
$GLGSV,3,3,09,85,41,012,28*5D
$GNGLL,0419.76040,S,05539.82765,E,115916.00,A,A*6C
$GNRMC,115917.00,A,0419.76052,S,05539.82776,E,0.129,,270525,,,A*78
$GNVTG,,T,,M,0.129,N,0.240,K,A*31
$GNGGA,115917.00,0419.76052,S,05539.82776,E,1,10,1.00,35.0,M,-47.6,M,,*47
$GNGSA,A,3,32,28,27,18,31,26,10,29,,,,,2.65,1.00,2.46*17
$GNGSA,A,3,71,85,,,,,,,,,,,2.65,1.00,2.46*17
$GPGSV,5,1,17,08,08,317,,10,16,003,16,16,25,240,,18,33,085,24*78
$GPGSV,5,2,17,23,02,041,,25,00,122,10,26,29,210,21,27,43,309,26*7A
$GPGSV,5,3,17,28,49,150,24,29,13,148,17,31,34,186,20,32,58,359,41*70
$GPGSV,5,4,17,36,52,277,,40,84,353,,41,58,082,,49,32,274,*7C
$GPGSV,5,5,17,50,10,089,*4A
$GLGSV,3,1,09,70,22,359,,71,47,308,19,72,30,243,25,73,15,142,*63
$GLGSV,3,2,09,74,15,188,,75,01,233,,83,11,140,18,84,50,093,*6E
$GLGSV,3,3,09,85,41,012,28*5D
$GNGLL,0419.76052,S,05539.82776,E,115917.00,A,A*6C
$GNRMC,115918.00,A,0419.76047,S,05539.82806,E,0.286,,270525,,,A*7D
$GNVTG,,T,,M,0.286,N,0.529,K,A*3F
$GNGGA,115918.00,0419.76047,S,05539.82806,E,1,11,0.83,35.2,M,-47.6,M,,*4D
$GNGSA,A,3,32,28,27,18,31,26,10,29,41,,,,1.77,0.83,1.57*1B
$GNGSA,A,3,71,85,,,,,,,,,,,1.77,0.83,1.57*1E
$GPGSV,5,1,17,08,08,317,,10,16,003,16,16,25,240,,18,33,085,23*7F
$GPGSV,5,2,17,23,02,041,,25,00,122,10,26,29,209,24,27,43,309,27*76
$GPGSV,5,3,17,28,49,150,23,29,13,148,17,31,34,186,21,32,58,359,40*77
$GPGSV,5,4,17,36,52,277,,40,84,353,,41,58,082,30,49,32,274,*7F
$GPGSV,5,5,17,50,10,089,*4A
$GLGSV,3,1,09,70,22,359,,71,47,308,19,72,30,243,25,73,15,142,*63
$GLGSV,3,2,09,74,15,188,,75,01,233,,83,11,140,,84,50,093,*67
$GLGSV,3,3,09,85,41,012,28*5D
$GNGLL,0419.76047,S,05539.82806,E,115918.00,A,A*6F
$GNRMC,115919.00,A,0419.76047,S,05539.82802,E,0.320,,270525,,,A*75
$GNVTG,,T,,M,0.320,N,0.592,K,A*32
$GNGGA,115919.00,0419.76047,S,05539.82802,E,1,11,0.92,35.4,M,-47.6,M,,*4E
$GNGSA,A,3,32,28,27,18,31,26,10,29,41,,,,2.25,0.92,2.05*1B
$GNGSA,A,3,71,85,,,,,,,,,,,2.25,0.92,2.05*1E
$GPGSV,5,1,17,08,08,317,,10,16,003,16,16,25,240,06,18,33,085,21*7B
$GPGSV,5,2,17,23,02,041,,25,00,122,10,26,29,209,24,27,44,308,25*72
$GPGSV,5,3,17,28,49,150,26,29,13,148,17,31,34,186,22,32,58,359,40*71
$GPGSV,5,4,17,36,52,277,,40,84,353,,41,58,082,30,49,32,274,*7F
$GPGSV,5,5,17,50,10,089,*4A
$GLGSV,3,1,09,70,22,359,,71,47,308,20,72,30,243,24,73,15,142,*68
$GLGSV,3,2,09,74,15,188,,75,01,233,,83,11,140,,84,50,093,*67
$GLGSV,3,3,09,85,41,012,29*5C
$GNGLL,0419.76047,S,05539.82802,E,115919.00,A,A*6A
$GNRMC,115920.00,A,0419.76050,S,05539.82790,E,0.639,,270525,,,A*70
$GNVTG,,T,,M,0.639,N,1.183,K,A*3A
$GNGGA,115920.00,0419.76050,S,05539.82790,E,1,11,0.92,35.5,M,-47.6,M,,*47
$GNGSA,A,3,32,28,27,18,31,26,10,29,41,,,,2.25,0.92,2.05*1B
$GNGSA,A,3,71,85,,,,,,,,,,,2.25,0.92,2.05*1E
$GPGSV,5,1,17,08,08,317,,10,16,003,18,16,25,240,10,18,33,085,21*72
$GPGSV,5,2,17,23,02,041,,25,00,122,10,26,29,209,22,27,44,308,23*72
$GPGSV,5,3,17,28,49,149,27,29,13,148,10,31,34,186,22,32,58,359,41*7E
$GPGSV,5,4,17,36,52,277,,40,84,353,,41,58,082,30,49,32,274,*7F
$GPGSV,5,5,17,50,10,089,*4A
$GLGSV,3,1,09,70,22,359,,71,47,308,21,72,30,243,25,73,15,142,*68
$GLGSV,3,2,09,74,15,188,,75,01,233,,83,11,140,,84,50,093,*67
$GLGSV,3,3,09,85,41,012,30*54
$GNGLL,0419.76050,S,05539.82790,E,115920.00,A,A*62
$GNRMC,115921.00,A,0419.76048,S,05539.82790,E,0.437,,270525,,,A*74
$GNVTG,,T,,M,0.437,N,0.810,K,A*34
$GNGGA,115921.00,0419.76048,S,05539.82790,E,1,11,0.83,35.6,M,-47.6,M,,*4C
$GNGSA,A,3,32,28,27,18,31,26,10,29,41,,,,1.77,0.83,1.57*1B
$GNGSA,A,3,71,85,,,,,,,,,,,1.77,0.83,1.57*1E
$GPGSV,5,1,17,08,08,317,,10,16,003,18,16,25,240,15,18,33,085,20*76
$GPGSV,5,2,17,23,02,041,,25,00,122,09,26,29,209,21,27,44,308,22*78
$GPGSV,5,3,17,28,49,149,26,29,12,148,10,31,34,186,22,32,58,359,41*7E
$GPGSV,5,4,17,36,52,277,,40,84,353,,41,58,082,30,49,32,274,*7F
$GPGSV,5,5,17,50,10,089,*4A
$GLGSV,3,1,09,70,22,359,,71,47,308,19,72,30,243,25,73,15,142,*63
$GLGSV,3,2,09,74,15,188,,75,01,233,,83,11,140,,84,50,093,*67
$GLGSV,3,3,09,85,41,012,29*5C
$GNGLL,0419.76048,S,05539.82790,E,115921.00,A,A*6A
$GNRMC,115922.00,A,0419.76040,S,05539.82785,E,0.542,,270525,,,A*78
$GNVTG,,T,,M,0.542,N,1.004,K,A*3B
$GNGGA,115922.00,0419.76040,S,05539.82785,E,1,11,0.92,36.0,M,-47.6,M,,*46
$GNGSA,A,3,32,28,27,18,31,26,10,29,41,,,,2.25,0.92,2.05*1B
$GNGSA,A,3,71,85,,,,,,,,,,,2.25,0.92,2.05*1E
$GPGSV,5,1,17,08,08,317,,10,16,003,18,16,25,240,15,18,33,085,20*76
$GPGSV,5,2,17,23,02,041,,25,00,122,09,26,29,209,23,27,44,308,24*7C
$GPGSV,5,3,17,28,49,149,24,29,12,148,10,31,34,186,22,32,58,359,41*7C
$GPGSV,5,4,17,36,52,277,,40,84,353,,41,58,082,29,49,32,274,*77
$GPGSV,5,5,17,50,10,089,*4A
$GLGSV,3,1,09,70,22,359,,71,47,308,16,72,30,243,23,73,15,142,*6A
$GLGSV,3,2,09,74,15,188,,75,01,233,,83,11,140,,84,50,093,*67
$GLGSV,3,3,09,85,41,012,29*5C
$GNGLL,0419.76040,S,05539.82785,E,115922.00,A,A*65
$GNRMC,115923.00,A,0419.76032,S,05539.82799,E,0.180,,270525,,,A*7B
$GNVTG,,T,,M,0.180,N,0.334,K,A*30
$GNGGA,115923.00,0419.76032,S,05539.82799,E,1,12,0.92,36.3,M,-47.6,M,,*4F
$GNGSA,A,3,32,28,27,18,31,26,16,10,29,41,,,2.25,0.92,2.05*1C
$GNGSA,A,3,71,85,,,,,,,,,,,2.25,0.92,2.05*1E
$GPGSV,5,1,17,08,08,317,,10,16,003,18,16,25,240,15,18,33,085,21*77
$GPGSV,5,2,17,23,02,041,,25,00,122,09,26,29,209,25,27,44,308,26*78
$GPGSV,5,3,17,28,49,149,24,29,12,148,10,31,35,186,20,32,58,359,41*7F
$GPGSV,5,4,17,36,52,277,,40,84,353,,41,58,082,30,49,32,274,*7F
$GPGSV,5,5,17,50,10,089,*4A
$GLGSV,3,1,09,70,22,359,,71,47,308,11,72,30,243,22,73,15,142,*6C
$GLGSV,3,2,09,74,15,188,,75,01,233,,83,11,140,,84,50,093,*67
$GLGSV,3,3,09,85,41,012,30*54
$GNGLL,0419.76032,S,05539.82799,E,115923.00,A,A*6C
$GNRMC,115924.00,A,0419.76022,S,05539.82815,E,0.183,,270525,,,A*75
$GNVTG,,T,,M,0.183,N,0.339,K,A*3E
$GNGGA,115924.00,0419.76022,S,05539.82815,E,1,10,0.87,36.4,M,-47.6,M,,*43
$GNGSA,A,3,32,28,27,18,31,26,16,10,41,,,,1.80,0.87,1.57*1B
$GNGSA,A,3,85,,,,,,,,,,,,1.80,0.87,1.57*14
$GPGSV,5,1,17,08,08,317,,10,16,003,18,16,25,240,18,18,33,085,21*7A
$GPGSV,5,2,17,23,02,041,,25,00,122,,26,29,209,23,27,44,308,31*71
$GPGSV,5,3,17,28,49,149,27,29,12,148,,31,35,186,19,32,57,359,41*78
$GPGSV,5,4,17,36,52,277,,40,84,353,,41,58,082,30,49,32,274,*7F
$GPGSV,5,5,17,50,10,089,*4A
$GLGSV,3,1,09,70,22,359,,71,47,308,10,72,30,243,21,73,15,142,*6E
$GLGSV,3,2,09,74,15,188,,75,01,233,,83,11,140,,84,50,093,*67
$GLGSV,3,3,09,85,41,012,29*5C
$GNGLL,0419.76022,S,05539.82815,E,115924.00,A,A*61
$GNRMC,115925.00,A,0419.76014,S,05539.82830,E,0.256,,270525,,,A*7D
$GNVTG,,T,,M,0.256,N,0.475,K,A*3A
$GNGGA,115925.00,0419.76014,S,05539.82830,E,1,11,0.92,37.2,M,-47.6,M,,*42
$GNGSA,A,3,32,28,27,18,31,26,16,10,41,,,,2.25,0.92,2.06*14
$GNGSA,A,3,71,85,,,,,,,,,,,2.25,0.92,2.06*1D
$GPGSV,5,1,17,08,08,317,,10,16,003,18,16,25,240,20,18,33,085,21*71
$GPGSV,5,2,17,23,02,041,,25,00,122,,26,29,209,22,27,44,308,30*71
$GPGSV,5,3,17,28,49,149,26,29,12,148,16,31,35,186,19,32,57,359,41*7E
$GPGSV,5,4,17,36,52,277,,40,84,353,,41,58,082,31,49,32,274,*7E
$GPGSV,5,5,17,50,10,089,*4A
$GLGSV,3,1,09,70,22,359,,71,47,308,10,72,30,243,21,73,15,142,*6E
$GLGSV,3,2,09,74,15,188,,75,01,233,,83,11,140,,84,50,093,*67
$GLGSV,3,3,09,85,41,012,28*5D
$GNGLL,0419.76014,S,05539.82830,E,115925.00,A,A*62
$GNRMC,115926.00,A,0419.76007,S,05539.82847,E,0.116,,270525,,,A*7B
$GNVTG,,T,,M,0.116,N,0.216,K,A*3E
$GNGGA,115926.00,0419.76007,S,05539.82847,E,1,11,0.85,37.3,M,-47.6,M,,*44
$GNGSA,A,3,32,28,27,18,31,26,16,10,41,,,,2.08,0.85,1.90*11
$GNGSA,A,3,71,85,,,,,,,,,,,2.08,0.85,1.90*18
$GPGSV,5,1,17,08,08,317,,10,16,003,19,16,25,240,20,18,33,085,22*73
$GPGSV,5,2,17,23,02,041,,25,00,122,,26,29,209,21,27,44,308,28*7B
$GPGSV,5,3,17,28,49,149,25,29,12,148,16,31,35,186,20,32,57,359,41*77
$GPGSV,5,4,17,36,52,277,,40,84,353,,41,58,082,29,49,32,274,*77
$GPGSV,5,5,17,50,10,089,*4A
$GLGSV,3,1,09,70,22,359,,71,47,308,09,72,30,243,21,73,15,142,*66
$GLGSV,3,2,09,74,15,188,,75,01,233,,83,11,140,,84,50,093,*67
$GLGSV,3,3,09,85,41,012,28*5D
$GNGLL,0419.76007,S,05539.82847,E,115926.00,A,A*63
$GNRMC,115927.00,A,0419.75992,S,05539.82866,E,0.151,,270525,,,A*7C
$GNVTG,,T,,M,0.151,N,0.279,K,A*34
$GNGGA,115927.00,0419.75992,S,05539.82866,E,1,11,0.77,37.1,M,-47.6,M,,*4F
$GNGSA,A,3,32,28,27,18,31,26,16,10,41,,,,1.69,0.77,1.50*14
$GNGSA,A,3,71,85,,,,,,,,,,,1.69,0.77,1.50*1D
$GPGSV,5,1,17,08,08,317,,10,16,003,22,16,25,240,20,18,33,085,22*7B
$GPGSV,5,2,17,23,02,041,,25,00,122,,26,29,209,25,27,44,308,28*7F
$GPGSV,5,3,17,28,49,149,26,29,12,148,17,31,35,186,21,32,57,359,41*74
$GPGSV,5,4,17,36,52,277,,40,84,353,,41,58,082,29,49,32,274,*77
$GPGSV,5,5,17,50,10,089,*4A
$GLGSV,3,1,09,70,22,359,,71,47,308,11,72,30,243,21,73,15,142,*6F
$GLGSV,3,2,09,74,15,188,,75,01,233,,83,11,140,,84,50,093,*67
$GLGSV,3,3,09,85,41,012,29*5C
$GNGLL,0419.75992,S,05539.82866,E,115927.00,A,A*67
$GNRMC,115928.00,A,0419.75972,S,05539.82901,E,0.360,,270525,,,A*7D
$GNVTG,,T,,M,0.360,N,0.666,K,A*3E
$GNGGA,115928.00,0419.75972,S,05539.82901,E,1,11,0.77,37.1,M,-47.6,M,,*4E
$GNGSA,A,3,32,28,27,18,31,26,16,10,41,,,,1.69,0.77,1.50*14
$GNGSA,A,3,71,85,,,,,,,,,,,1.69,0.77,1.50*1D
$GPGSV,5,1,17,08,08,317,,10,16,003,22,16,25,240,20,18,33,085,22*7B
$GPGSV,5,2,17,23,02,041,,25,00,122,,26,29,209,24,27,44,308,27*71
$GPGSV,5,3,17,28,49,149,24,29,12,148,15,31,35,186,20,32,57,359,41*75
$GPGSV,5,4,17,36,52,277,,40,84,353,,41,58,082,30,49,32,274,*7F
$GPGSV,5,5,17,50,10,089,*4A
$GLGSV,3,1,09,70,22,359,,71,47,308,17,72,30,243,21,73,15,142,*69
$GLGSV,3,2,09,74,15,188,,75,01,233,,83,11,140,,84,50,093,*67
$GLGSV,3,3,09,85,41,012,29*5C
$GNGLL,0419.75972,S,05539.82901,E,115928.00,A,A*66
$GNRMC,115929.00,A,0419.75962,S,05539.82926,E,0.313,,270525,,,A*7C
$GNVTG,,T,,M,0.313,N,0.579,K,A*37
$GNGGA,115929.00,0419.75962,S,05539.82926,E,1,11,0.74,36.6,M,-47.6,M,,*4E
$GNGSA,A,3,32,28,27,18,31,26,16,10,41,,,,1.66,0.74,1.48*11
$GNGSA,A,3,71,85,,,,,,,,,,,1.66,0.74,1.48*18
$GPGSV,5,1,17,08,08,317,,10,16,003,22,16,25,240,18,18,33,085,23*71
$GPGSV,5,2,17,23,02,041,,25,00,122,,26,29,209,22,27,44,308,26*76
$GPGSV,5,3,17,28,49,149,26,29,12,148,12,31,35,186,19,32,57,359,41*7A
$GPGSV,5,4,17,36,52,277,,40,84,353,,41,58,082,30,49,32,274,*7F
$GPGSV,5,5,17,50,10,089,*4A
$GLGSV,3,1,09,70,22,359,,71,47,308,19,72,30,243,19,73,15,142,*6C
$GLGSV,3,2,09,74,15,188,,75,01,233,,83,11,140,,84,50,093,*67
$GLGSV,3,3,09,85,41,012,29*5C
$GNGLL,0419.75962,S,05539.82926,E,115929.00,A,A*63
$GNRMC,115930.00,A,0419.75943,S,05539.82934,E,0.182,,270525,,,A*7E
$GNVTG,,T,,M,0.182,N,0.336,K,A*30
$GNGGA,115930.00,0419.75943,S,05539.82934,E,1,11,0.81,36.2,M,-47.6,M,,*48
$GNGSA,A,3,32,28,27,18,31,26,10,29,41,,,,1.65,0.81,1.43*1F
$GNGSA,A,3,71,85,,,,,,,,,,,1.65,0.81,1.43*1A
$GPGSV,5,1,17,08,08,317,,10,16,003,23,16,25,240,,18,33,085,21*7B
$GPGSV,5,2,17,23,02,041,,25,00,122,,26,29,209,22,27,44,308,25*75
$GPGSV,5,3,17,28,49,149,27,29,12,148,13,31,35,186,19,32,57,359,41*7A
$GPGSV,5,4,17,36,52,277,,40,84,353,,41,58,082,29,49,32,274,*77
$GPGSV,5,5,17,50,10,089,*4A
$GLGSV,3,1,09,70,22,359,,71,47,308,14,72,30,243,17,73,15,142,*6F
$GLGSV,3,2,09,74,15,188,,75,01,233,,83,11,140,,84,50,093,*67
$GLGSV,3,3,09,85,41,012,29*5C
$GNGLL,0419.75943,S,05539.82934,E,115930.00,A,A*6B
$GNRMC,115931.00,A,0419.75932,S,05539.82931,E,0.038,,270525,,,A*7C
$GNVTG,,T,,M,0.038,N,0.070,K,A*31
$GNGGA,115931.00,0419.75932,S,05539.82931,E,1,11,0.81,36.0,M,-47.6,M,,*48
$GNGSA,A,3,32,28,27,18,31,26,10,29,41,,,,1.65,0.81,1.43*1F
$GNGSA,A,3,71,85,,,,,,,,,,,1.65,0.81,1.43*1A
$GPGSV,5,1,17,08,08,317,,10,16,003,23,16,25,240,,18,33,085,20*7A
$GPGSV,5,2,17,23,02,041,,25,00,122,,26,29,209,22,27,44,308,25*75
$GPGSV,5,3,17,28,49,149,27,29,12,148,16,31,35,186,19,32,57,359,41*7F
$GPGSV,5,4,17,36,52,277,,40,84,353,,41,58,082,29,49,32,274,*77
$GPGSV,5,5,17,50,10,089,*4A
$GLGSV,3,1,09,70,22,359,,71,47,308,16,72,30,243,16,73,15,142,*6C
$GLGSV,3,2,09,74,15,188,,75,01,233,,83,11,140,,84,50,093,*67
$GLGSV,3,3,09,85,41,012,29*5C
$GNGLL,0419.75932,S,05539.82931,E,115931.00,A,A*69
$GNRMC,115932.00,A,0419.75924,S,05539.82930,E,0.044,,270525,,,A*72
$GNVTG,,T,,M,0.044,N,0.081,K,A*34
$GNGGA,115932.00,0419.75924,S,05539.82930,E,1,11,0.81,35.8,M,-47.6,M,,*46
$GNGSA,A,3,32,28,27,18,31,26,10,29,41,,,,1.65,0.81,1.43*1F
$GNGSA,A,3,71,85,,,,,,,,,,,1.65,0.81,1.43*1A
$GPGSV,5,1,17,08,08,317,,10,16,003,23,16,25,240,,18,33,085,18*71
$GPGSV,5,2,17,23,02,041,,25,00,122,,26,29,209,23,27,44,308,25*74
$GPGSV,5,3,17,28,49,149,28,29,12,148,16,31,35,186,18,32,57,359,41*71
$GPGSV,5,4,17,36,52,277,,40,84,353,,41,58,082,29,49,32,274,*77
$GPGSV,5,5,17,50,10,089,*4A
$GLGSV,3,1,09,70,22,359,,71,47,308,16,72,30,243,15,73,15,142,*6F
$GLGSV,3,2,09,74,15,188,,75,01,233,,83,11,140,,84,50,093,*67
$GLGSV,3,3,09,85,41,012,28*5D
$GNGLL,0419.75924,S,05539.82930,E,115932.00,A,A*6C
$GNRMC,115933.00,A,0419.75923,S,05539.82930,E,0.106,,270525,,,A*73
$GNVTG,,T,,M,0.106,N,0.196,K,A*34
$GNGGA,115933.00,0419.75923,S,05539.82930,E,1,11,0.81,35.9,M,-47.6,M,,*41
$GNGSA,A,3,32,28,27,18,31,26,10,29,41,,,,1.65,0.81,1.43*1F
$GNGSA,A,3,71,85,,,,,,,,,,,1.65,0.81,1.43*1A
$GPGSV,5,1,17,08,08,317,,10,16,003,22,16,25,240,,18,33,085,19*71
$GPGSV,5,2,17,23,02,041,,25,00,122,,26,29,209,22,27,44,308,25*75
$GPGSV,5,3,17,28,49,149,27,29,12,148,16,31,35,186,18,32,57,359,41*7E
$GPGSV,5,4,17,36,52,277,,40,84,353,,41,58,082,29,49,32,274,*77
$GPGSV,5,5,17,50,10,089,*4A
$GLGSV,3,1,09,70,22,359,,71,47,308,18,72,30,243,12,73,15,142,*66
$GLGSV,3,2,09,74,15,188,,75,01,233,,83,11,140,,84,50,093,*67
$GLGSV,3,3,09,85,41,012,27*52
$GNGLL,0419.75923,S,05539.82930,E,115933.00,A,A*6A
$GNRMC,115934.00,A,0419.75921,S,05539.82932,E,0.101,,270525,,,A*73
$GNVTG,,T,,M,0.101,N,0.188,K,A*3C
$GNGGA,115934.00,0419.75921,S,05539.82932,E,1,11,0.81,36.1,M,-47.6,M,,*4D
$GNGSA,A,3,32,28,27,18,31,26,10,29,41,,,,1.65,0.81,1.43*1F
$GNGSA,A,3,71,85,,,,,,,,,,,1.65,0.81,1.43*1A
$GPGSV,5,1,17,08,08,317,,10,16,003,21,16,25,240,,18,33,085,18*73
$GPGSV,5,2,17,23,02,041,,25,00,122,,26,29,209,22,27,44,308,25*75
$GPGSV,5,3,17,28,49,149,26,29,12,148,14,31,35,186,20,32,57,359,41*76
$GPGSV,5,4,17,36,52,277,,40,84,353,,41,58,082,29,49,32,274,*77
$GPGSV,5,5,17,50,10,089,*4A
$GLGSV,3,1,09,70,22,359,,71,47,308,20,72,30,243,11,73,15,142,*6E
$GLGSV,3,2,09,74,15,188,,75,01,233,,83,11,140,,84,50,093,*67
$GLGSV,3,3,09,85,41,012,28*5D
$GNGLL,0419.75921,S,05539.82932,E,115934.00,A,A*6D
$GNRMC,115935.00,A,0419.75922,S,05539.82927,E,0.216,,270525,,,A*70
$GNVTG,,T,,M,0.216,N,0.400,K,A*3C
$GNGGA,115935.00,0419.75922,S,05539.82927,E,1,11,0.81,35.9,M,-47.6,M,,*40
$GNGSA,A,3,32,28,27,18,31,26,10,29,41,,,,1.65,0.81,1.43*1F
$GNGSA,A,3,71,85,,,,,,,,,,,1.65,0.81,1.43*1A
$GPGSV,5,1,17,08,08,317,,10,16,003,21,16,25,240,,18,33,085,17*7C
$GPGSV,5,2,17,23,02,041,,25,00,122,,26,29,209,22,27,44,308,26*76
$GPGSV,5,3,17,28,49,149,28,29,12,148,12,31,35,186,20,32,57,359,41*7E
$GPGSV,5,4,17,36,52,277,,40,84,353,,41,58,082,28,49,32,274,*76
$GPGSV,5,5,17,50,10,089,*4A
$GLGSV,3,1,09,70,22,359,,71,47,308,20,72,30,243,15,73,15,142,*6A
$GLGSV,3,2,09,74,15,188,,75,01,233,,83,11,140,,84,50,093,*67
$GLGSV,3,3,09,85,41,012,29*5C
$GNGLL,0419.75922,S,05539.82927,E,115935.00,A,A*6B
$GNRMC,115936.00,A,0419.75920,S,05539.82921,E,0.163,,270525,,,A*76
$GNVTG,,T,,M,0.163,N,0.303,K,A*39
$GNGGA,115936.00,0419.75920,S,05539.82921,E,1,11,0.81,36.5,M,-47.6,M,,*48
$GNGSA,A,3,32,28,27,18,31,26,10,29,41,,,,1.65,0.81,1.43*1F
$GNGSA,A,3,71,85,,,,,,,,,,,1.65,0.81,1.43*1A
$GPGSV,5,1,17,08,08,317,,10,16,003,23,16,25,240,18,18,33,085,15*75
$GPGSV,5,2,17,23,02,041,,25,00,122,,26,29,209,22,27,44,308,25*75
$GPGSV,5,3,17,28,49,149,27,29,12,148,14,31,35,186,18,32,57,359,40*7D
$GPGSV,5,4,17,36,52,277,,40,84,353,,41,58,082,28,49,32,274,*76
$GPGSV,5,5,17,50,10,089,*4A
$GLGSV,3,1,09,70,22,359,,71,47,308,20,72,30,243,14,73,15,142,*6B
$GLGSV,3,2,09,74,15,188,,75,01,233,,83,11,140,,84,50,093,*67
$GLGSV,3,3,09,85,41,012,30*54
$GNGLL,0419.75920,S,05539.82921,E,115936.00,A,A*6C
$GNRMC,115937.00,A,0419.75915,S,05539.82918,E,0.199,,270525,,,A*7E
$GNVTG,,T,,M,0.199,N,0.368,K,A*31
$GNGGA,115937.00,0419.75915,S,05539.82918,E,1,11,0.81,36.4,M,-47.6,M,,*44
$GNGSA,A,3,32,28,27,18,31,26,10,29,41,,,,1.65,0.81,1.43*1F
$GNGSA,A,3,71,85,,,,,,,,,,,1.65,0.81,1.43*1A
$GPGSV,5,1,17,08,08,317,,10,16,003,22,16,25,240,17,18,33,085,15*7B
$GPGSV,5,2,17,23,02,041,,25,00,122,,26,29,209,22,27,44,308,23*73
$GPGSV,5,3,17,28,49,149,26,29,12,148,15,31,35,186,17,32,57,359,40*72
$GPGSV,5,4,17,36,52,277,,40,84,353,,41,58,082,29,49,32,274,*77
$GPGSV,5,5,17,50,10,089,*4A
$GLGSV,3,1,09,70,22,359,,71,47,308,19,72,30,243,14,73,15,142,*61
$GLGSV,3,2,09,74,15,188,,75,01,233,,83,11,140,,84,50,093,*67
$GLGSV,3,3,09,85,41,012,29*5C
$GNGLL,0419.75915,S,05539.82918,E,115937.00,A,A*61
$GNRMC,115938.00,A,0419.75913,S,05539.82925,E,0.143,,270525,,,A*7E
$GNVTG,,T,,M,0.143,N,0.265,K,A*3A
$GNGGA,115938.00,0419.75913,S,05539.82925,E,1,11,0.81,37.0,M,-47.6,M,,*46
$GNGSA,A,3,32,28,27,18,31,26,10,29,41,,,,1.65,0.81,1.43*1F
$GNGSA,A,3,71,85,,,,,,,,,,,1.65,0.81,1.43*1A
$GPGSV,5,1,17,08,08,317,,10,16,003,20,16,25,240,16,18,33,085,16*7B
$GPGSV,5,2,17,23,02,041,,25,00,122,,26,29,209,23,27,44,308,22*73
$GPGSV,5,3,17,28,49,149,27,29,12,148,15,31,35,186,18,32,57,359,41*7D
$GPGSV,5,4,17,36,52,277,,40,84,353,,41,58,082,30,49,32,274,*7F
$GPGSV,5,5,17,50,10,089,*4A
$GLGSV,3,1,09,70,22,359,,71,47,308,19,72,30,243,13,73,15,142,*66
$GLGSV,3,2,09,74,15,188,,75,01,233,,83,11,140,,84,50,093,*67
$GLGSV,3,3,09,85,41,012,28*5D
$GNGLL,0419.75913,S,05539.82925,E,115938.00,A,A*66
$GNRMC,115939.00,A,0419.75907,S,05539.82911,E,0.150,,270525,,,A*7F
$GNVTG,,T,,M,0.150,N,0.278,K,A*34
$GNGGA,115939.00,0419.75907,S,05539.82911,E,1,10,0.87,36.6,M,-47.6,M,,*45
$GNGSA,A,3,32,28,27,31,26,10,29,41,,,,,1.69,0.87,1.44*1B
$GNGSA,A,3,71,85,,,,,,,,,,,1.69,0.87,1.44*17
$GPGSV,5,1,17,08,08,317,,10,16,003,19,16,25,240,14,18,33,085,*74
$GPGSV,5,2,17,23,02,041,,25,00,122,,26,29,209,23,27,44,308,22*73
$GPGSV,5,3,17,28,49,149,28,29,12,148,14,31,35,186,20,32,57,359,41*78
$GPGSV,5,4,17,36,52,277,,40,84,353,,41,58,082,30,49,32,274,*7F
$GPGSV,5,5,17,50,10,089,*4A
$GLGSV,3,1,09,70,22,359,,71,47,308,18,72,30,243,13,73,15,142,*67
$GLGSV,3,2,09,74,15,188,,75,01,233,,83,11,140,,84,50,093,*67
$GLGSV,3,3,09,85,41,012,29*5C
$GNGLL,0419.75907,S,05539.82911,E,115939.00,A,A*65
$GNRMC,115940.00,A,0419.75910,S,05539.82895,E,0.360,,270525,,,A*7B
$GNVTG,,T,,M,0.360,N,0.667,K,A*3F
$GNGGA,115940.00,0419.75910,S,05539.82895,E,1,10,0.87,37.0,M,-47.6,M,,*47
$GNGSA,A,3,32,28,27,31,26,10,29,41,,,,,1.69,0.87,1.44*1B
$GNGSA,A,3,71,85,,,,,,,,,,,1.69,0.87,1.44*17
$GPGSV,5,1,17,08,08,317,,10,16,003,19,16,25,240,13,18,33,085,*73
$GPGSV,5,2,17,23,02,041,,25,00,122,,26,29,209,22,27,44,308,22*72
$GPGSV,5,3,17,28,49,149,27,29,12,148,15,31,35,186,20,32,57,359,41*76
$GPGSV,5,4,17,36,52,277,,40,84,353,,41,58,082,29,49,32,274,*77
$GPGSV,5,5,17,50,10,089,*4A
$GLGSV,3,1,09,70,22,359,,71,47,308,19,72,30,243,11,73,15,142,*64
$GLGSV,3,2,09,74,15,188,,75,01,233,,83,11,140,,84,50,093,*67
$GLGSV,3,3,09,85,41,012,29*5C
$GNGLL,0419.75910,S,05539.82895,E,115940.00,A,A*60
$GNRMC,115941.00,A,0419.75905,S,05539.82890,E,0.352,,270525,,,A*7A
$GNVTG,,T,,M,0.352,N,0.652,K,A*38
$GNGGA,115941.00,0419.75905,S,05539.82890,E,1,11,0.77,37.2,M,-47.6,M,,*4B
$GNGSA,A,3,32,28,27,31,26,16,10,29,41,,,,1.58,0.77,1.38*1A
$GNGSA,A,3,71,85,,,,,,,,,,,1.58,0.77,1.38*11
$GPGSV,5,1,17,08,08,317,,10,16,003,18,16,25,240,13,18,33,085,08*7A
$GPGSV,5,2,17,23,02,041,,25,00,122,,26,29,209,20,27,44,308,22*70
$GPGSV,5,3,17,28,49,149,27,29,12,148,17,31,35,186,18,32,57,359,40*7E
$GPGSV,5,4,17,36,52,277,,40,84,353,,41,58,082,28,49,32,274,*76
$GPGSV,5,5,17,50,10,089,*4A
$GLGSV,3,1,09,70,22,359,,71,47,308,21,72,30,243,,73,15,142,*6F
$GLGSV,3,2,09,74,15,188,,75,01,233,,83,11,140,,84,50,093,*67
$GLGSV,3,3,09,85,41,012,28*5D
$GNGLL,0419.75905,S,05539.82890,E,115941.00,A,A*60
$GNRMC,115942.00,A,0419.75900,S,05539.82910,E,0.139,,270525,,,A*7A
$GNVTG,,T,,M,0.139,N,0.257,K,A*36
$GNGGA,115942.00,0419.75900,S,05539.82910,E,1,10,0.80,38.5,M,-47.6,M,,*45
$GNGSA,A,3,32,28,27,26,16,10,29,41,,,,,1.60,0.80,1.39*1A
$GNGSA,A,3,71,85,,,,,,,,,,,1.60,0.80,1.39*13
$GPGSV,5,1,17,08,08,317,,10,16,003,19,16,25,240,12,18,33,085,12*71
$GPGSV,5,2,17,23,02,041,,25,00,122,,26,29,209,19,27,44,308,22*7A
$GPGSV,5,3,17,28,49,149,28,29,12,148,17,31,35,186,,32,57,359,39*76
$GPGSV,5,4,17,36,52,277,,40,84,353,,41,58,082,28,49,32,274,*76
$GPGSV,5,5,17,50,10,089,*4A
$GLGSV,3,1,09,70,22,359,,71,47,308,21,72,30,243,,73,15,142,*6F
$GLGSV,3,2,09,74,15,188,,75,01,233,,83,11,140,,84,50,093,*67
$GLGSV,3,3,09,85,41,012,28*5D
$GNGLL,0419.75900,S,05539.82910,E,115942.00,A,A*6F
$GNRMC,115943.00,A,0419.75895,S,05539.82919,E,0.226,,270525,,,A*72
$GNVTG,,T,,M,0.226,N,0.418,K,A*36
$GNGGA,115943.00,0419.75895,S,05539.82919,E,1,09,0.92,38.8,M,-47.6,M,,*46
$GNGSA,A,3,32,28,27,26,10,29,41,,,,,,1.71,0.92,1.44*14
$GNGSA,A,3,71,85,,,,,,,,,,,1.71,0.92,1.44*1A
$GPGSV,5,1,17,08,08,317,,10,16,003,18,16,25,240,10,18,33,085,18*78
$GPGSV,5,2,17,23,02,041,,25,00,122,,26,29,209,19,27,44,308,22*7A
$GPGSV,5,3,17,28,49,149,28,29,12,148,16,31,35,186,17,32,57,359,40*7F
$GPGSV,5,4,17,36,52,277,,40,84,353,,41,58,082,29,49,32,274,*77
$GPGSV,5,5,17,50,10,089,*4A
$GLGSV,3,1,09,70,22,359,,71,47,308,19,72,30,243,,73,15,142,*64
$GLGSV,3,2,09,74,15,188,,75,01,233,,83,11,140,,84,50,093,*67
$GLGSV,3,3,09,85,41,012,28*5D
$GNGLL,0419.75895,S,05539.82919,E,115943.00,A,A*6A
$GNRMC,115944.00,A,0419.75891,S,05539.82899,E,0.062,,270525,,,A*7A
$GNVTG,,T,,M,0.062,N,0.114,K,A*3D
$GNGGA,115944.00,0419.75891,S,05539.82899,E,1,11,0.76,38.9,M,-47.6,M,,*4E
$GNGSA,A,3,32,28,27,18,26,16,10,29,41,,,,1.58,0.76,1.39*11
$GNGSA,A,3,71,85,,,,,,,,,,,1.58,0.76,1.39*11
$GPGSV,5,1,17,08,08,317,,10,16,003,17,16,25,240,11,18,33,085,21*7C
$GPGSV,5,2,17,23,02,041,,25,00,122,,26,29,209,21,27,44,308,20*73
$GPGSV,5,3,17,28,49,149,28,29,12,148,15,31,35,186,19,32,57,359,40*72
$GPGSV,5,4,17,36,52,277,,40,84,353,,41,58,082,28,49,32,274,*76
$GPGSV,5,5,17,50,10,089,*4A
$GLGSV,3,1,09,70,22,359,,71,47,308,17,72,30,243,,73,15,142,*6A
$GLGSV,3,2,09,74,15,188,,75,01,233,,83,11,140,,84,50,093,*67
$GLGSV,3,3,09,85,41,012,27*52
$GNGLL,0419.75891,S,05539.82899,E,115944.00,A,A*60
$GNRMC,115945.00,A,0419.75882,S,05539.82882,E,0.250,,270525,,,A*70
$GNVTG,,T,,M,0.250,N,0.464,K,A*3C
$GNGGA,115945.00,0419.75882,S,05539.82882,E,1,11,0.76,39.7,M,-47.6,M,,*48
$GNGSA,A,3,32,28,27,18,26,16,10,29,41,,,,1.58,0.76,1.39*11
$GNGSA,A,3,71,85,,,,,,,,,,,1.58,0.76,1.39*11
$GPGSV,5,1,17,08,08,317,,10,16,003,16,16,25,240,13,18,33,085,21*7F
$GPGSV,5,2,17,23,02,041,,25,00,122,,26,29,209,23,27,44,308,20*71
$GPGSV,5,3,17,28,49,149,28,29,12,148,15,31,35,186,20,32,57,359,40*78
$GPGSV,5,4,17,36,52,277,,40,84,353,,41,58,082,28,49,32,274,*76
$GPGSV,5,5,17,50,10,089,*4A
$GLGSV,3,1,09,70,22,359,,71,47,308,15,72,30,243,,73,15,142,*68
$GLGSV,3,2,09,74,15,188,,75,01,233,,83,11,140,,84,50,093,*67
$GLGSV,3,3,09,85,41,012,26*53
$GNGLL,0419.75882,S,05539.82882,E,115945.00,A,A*69
$GNRMC,115946.00,A,0419.75875,S,05539.82867,E,0.227,,270525,,,A*70
$GNVTG,,T,,M,0.227,N,0.420,K,A*3C
$GNGGA,115946.00,0419.75875,S,05539.82867,E,1,11,0.76,40.5,M,-47.6,M,,*44
$GNGSA,A,3,32,28,27,18,26,16,10,29,41,,,,1.58,0.76,1.39*11
$GNGSA,A,3,71,85,,,,,,,,,,,1.58,0.76,1.39*11
$GPGSV,5,1,17,08,08,317,,10,16,003,16,16,25,240,13,18,33,085,18*75
$GPGSV,5,2,17,23,02,041,,25,00,122,,26,29,209,24,27,44,308,20*76
$GPGSV,5,3,17,28,49,149,27,29,12,148,16,31,35,186,19,32,57,359,40*7E
$GPGSV,5,4,17,36,52,277,,40,84,353,,41,58,082,28,49,32,274,*76
$GPGSV,5,5,17,50,10,089,*4A
$GLGSV,3,1,09,70,22,359,,71,47,308,12,72,30,243,,73,15,142,*6F
$GLGSV,3,2,09,74,15,188,,75,01,233,,83,11,140,,84,50,093,*67
$GLGSV,3,3,09,85,41,012,26*53
$GNGLL,0419.75875,S,05539.82867,E,115946.00,A,A*69
$GNRMC,115947.00,A,0419.75866,S,05539.82861,E,0.116,,270525,,,A*74
$GNVTG,,T,,M,0.116,N,0.214,K,A*3C
$GNGGA,115947.00,0419.75866,S,05539.82861,E,1,12,0.72,41.0,M,-47.6,M,,*42
$GNGSA,A,3,32,28,27,18,31,26,16,10,29,41,,,1.55,0.72,1.38*1B
$GNGSA,A,3,71,85,,,,,,,,,,,1.55,0.72,1.38*19
$GPGSV,5,1,17,08,08,317,,10,16,003,17,16,25,240,12,18,33,085,17*7A
$GPGSV,5,2,17,23,02,041,,25,00,122,,26,29,209,23,27,44,308,20*71
$GPGSV,5,3,17,28,49,149,27,29,12,148,17,31,35,186,19,32,57,359,40*7F
$GPGSV,5,4,17,36,52,277,,40,84,353,,41,58,082,29,49,32,274,*77
$GPGSV,5,5,17,50,10,089,*4A
$GLGSV,3,1,09,70,22,359,,71,47,308,11,72,30,243,,73,15,142,*6C
$GLGSV,3,2,09,74,15,188,,75,01,233,,83,11,140,,84,50,093,*67
$GLGSV,3,3,09,85,41,012,26*53
$GNGLL,0419.75866,S,05539.82861,E,115947.00,A,A*6C
$GNRMC,115948.00,A,0419.75870,S,05539.82832,E,0.326,,270525,,,A*7B
$GNVTG,,T,,M,0.326,N,0.604,K,A*38
$GNGGA,115948.00,0419.75870,S,05539.82832,E,1,12,0.77,42.0,M,-47.6,M,,*4A
$GNGSA,A,3,32,28,27,18,31,26,16,10,29,41,,,1.69,0.77,1.51*1E
$GNGSA,A,3,71,85,,,,,,,,,,,1.69,0.77,1.51*1C
$GPGSV,5,1,17,08,08,317,,10,16,003,17,16,25,240,10,18,33,085,17*78
$GPGSV,5,2,17,23,02,041,,25,00,122,,26,29,209,23,27,44,308,19*7B
$GPGSV,5,3,17,28,49,149,27,29,12,148,17,31,35,186,18,32,57,359,40*7E
$GPGSV,5,4,17,36,52,277,,40,84,353,,41,58,082,30,49,32,274,*7F
$GPGSV,5,5,17,50,10,089,*4A
$GLGSV,3,1,09,70,22,359,,71,47,308,11,72,30,243,,73,15,142,*6C
$GLGSV,3,2,09,74,15,188,,75,01,233,,83,11,140,,84,50,093,*67
$GLGSV,3,3,09,85,41,012,25*50
$GNGLL,0419.75870,S,05539.82832,E,115948.00,A,A*62
$GNRMC,115949.00,A,0419.75865,S,05539.82822,E,0.170,,270525,,,A*7E
$GNVTG,,T,,M,0.170,N,0.314,K,A*3D
$GNGGA,115949.00,0419.75865,S,05539.82822,E,1,11,0.80,42.5,M,-47.6,M,,*40
$GNGSA,A,3,32,28,27,18,31,26,16,10,29,41,,,1.73,0.80,1.53*1F
$GNGSA,A,3,85,,,,,,,,,,,,1.73,0.80,1.53*1B
$GPGSV,5,1,17,08,08,317,,10,16,003,17,16,25,240,11,18,33,085,17*79
$GPGSV,5,2,17,23,02,041,,25,00,122,,26,29,209,23,27,44,308,19*7B
$GPGSV,5,3,17,28,49,149,28,29,12,148,17,31,35,186,19,32,57,359,40*70
$GPGSV,5,4,17,36,52,277,,40,84,353,,41,58,082,29,49,32,274,*77
$GPGSV,5,5,17,50,10,089,*4A
$GLGSV,3,1,09,70,22,359,,71,47,308,09,72,30,243,,73,15,142,*65
$GLGSV,3,2,09,74,15,188,,75,01,233,,83,11,140,,84,50,093,*67
$GLGSV,3,3,09,85,41,012,24*51
$GNGLL,0419.75865,S,05539.82822,E,115949.00,A,A*66
$GNRMC,115950.00,A,0419.75862,S,05539.82802,E,0.189,,270525,,,A*75
$GNVTG,,T,,M,0.189,N,0.349,K,A*33
$GNGGA,115950.00,0419.75862,S,05539.82802,E,1,10,0.97,43.1,M,-47.6,M,,*4F
$GNGSA,A,3,32,28,27,18,31,26,10,29,41,,,,2.00,0.97,1.75*1D
$GNGSA,A,3,85,,,,,,,,,,,,2.00,0.97,1.75*1E
$GPGSV,5,1,17,08,08,317,,10,16,003,16,16,25,240,,18,33,085,16*79
$GPGSV,5,2,17,23,02,041,,25,00,122,,26,29,209,23,27,44,308,18*7A
$GPGSV,5,3,17,28,49,149,28,29,12,148,17,31,35,186,19,32,57,359,40*70
$GPGSV,5,4,17,36,52,277,,40,84,353,,41,58,082,27,49,32,274,*79
$GPGSV,5,5,17,50,10,089,*4A
$GLGSV,3,1,09,70,21,359,,71,47,308,10,72,30,243,,73,15,142,*6E
$GLGSV,3,2,09,74,15,188,,75,01,233,,83,11,140,,84,50,093,*67
$GLGSV,3,3,09,85,41,012,24*51
$GNGLL,0419.75862,S,05539.82802,E,115950.00,A,A*6B
$GNRMC,115951.00,A,0419.75859,S,05539.82775,E,0.252,,270525,,,A*76
$GNVTG,,T,,M,0.252,N,0.466,K,A*3C
$GNGGA,115951.00,0419.75859,S,05539.82775,E,1,09,0.97,43.2,M,-47.6,M,,*42
$GNGSA,A,3,32,28,27,18,31,26,10,29,,,,,2.00,0.97,1.75*18
$GNGSA,A,3,85,,,,,,,,,,,,2.00,0.97,1.75*1E
$GPGSV,5,1,17,08,08,317,,10,16,003,14,16,25,240,,18,33,085,16*7B
$GPGSV,5,2,17,23,02,041,,25,00,122,,26,29,209,23,27,44,308,18*7A
$GPGSV,5,3,17,28,49,149,28,29,12,148,16,31,35,186,19,32,57,359,39*7F
$GPGSV,5,4,17,36,52,277,,40,84,353,,41,58,082,,49,32,274,*7C
$GPGSV,5,5,17,50,10,089,*4A
$GLGSV,3,1,09,70,21,359,,71,46,309,10,72,30,243,,73,15,142,*6E
$GLGSV,3,2,09,74,15,188,,75,01,233,,83,11,140,,84,50,093,*67
$GLGSV,3,3,09,85,41,012,23*56
$GNGLL,0419.75859,S,05539.82775,E,115951.00,A,A*6D
$GNRMC,115952.00,A,0419.75848,S,05539.82767,E,0.132,,270525,,,A*73
$GNVTG,,T,,M,0.132,N,0.244,K,A*3F
$GNGGA,115952.00,0419.75848,S,05539.82767,E,1,10,0.91,43.3,M,-47.6,M,,*4D
$GNGSA,A,3,32,28,27,18,31,26,10,29,,,,,1.97,0.91,1.74*12
$GNGSA,A,3,71,85,,,,,,,,,,,1.97,0.91,1.74*12
$GPGSV,5,1,17,08,08,317,,10,16,003,11,16,25,240,,18,33,085,17*7F
$GPGSV,5,2,17,23,02,041,,25,00,122,,26,29,209,23,27,44,308,19*7B
$GPGSV,5,3,17,28,49,149,27,29,12,148,16,31,35,186,19,32,57,359,39*70
$GPGSV,5,4,17,36,52,277,,40,84,353,,41,58,082,,49,32,274,*7C
$GPGSV,5,5,17,50,10,089,*4A
$GLGSV,3,1,09,70,21,359,,71,46,309,13,72,30,244,,73,15,142,*6A
$GLGSV,3,2,09,74,15,188,,75,01,233,,83,11,140,,84,50,093,*67
$GLGSV,3,3,09,85,41,012,23*56
$GNGLL,0419.75848,S,05539.82767,E,115952.00,A,A*6D
$GNRMC,115953.00,A,0419.75844,S,05539.82741,E,0.303,,270525,,,A*7A
$GNVTG,,T,,M,0.303,N,0.562,K,A*3C
$GNGGA,115953.00,0419.75844,S,05539.82741,E,1,09,1.04,43.5,M,-47.6,M,,*47
$GNGSA,A,3,32,28,27,18,31,26,29,,,,,,2.77,1.04,2.56*10
$GNGSA,A,3,71,85,,,,,,,,,,,2.77,1.04,2.56*11
$GPGSV,5,1,17,08,08,317,,10,16,003,09,16,25,240,,18,33,085,18*79
$GPGSV,5,2,17,23,02,041,,25,00,122,,26,29,209,24,27,44,308,18*7D
$GPGSV,5,3,17,28,49,149,27,29,12,148,17,31,35,186,18,32,57,359,39*70
$GPGSV,5,4,17,36,52,277,,40,84,353,,41,58,082,,49,32,274,*7C
$GPGSV,5,5,17,50,10,089,*4A
$GLGSV,3,1,09,70,21,359,,71,46,309,12,72,30,244,,73,15,141,*68
$GLGSV,3,2,09,74,15,188,,75,01,233,,83,11,140,,84,50,093,*67
$GLGSV,3,3,09,85,41,012,24*51
$GNGLL,0419.75844,S,05539.82741,E,115953.00,A,A*64
$GNRMC,115954.00,A,0419.75833,S,05539.82730,E,0.159,,270525,,,A*76
$GNVTG,,T,,M,0.159,N,0.294,K,A*3F
$GNGGA,115954.00,0419.75833,S,05539.82730,E,1,09,0.99,44.1,M,-47.6,M,,*40
$GNGSA,A,3,32,28,27,18,31,26,29,,,,,,2.43,0.99,2.22*11
$GNGSA,A,3,71,85,,,,,,,,,,,2.43,0.99,2.22*10
$GPGSV,5,1,17,08,08,317,,10,16,003,08,16,25,240,,18,33,085,18*78
$GPGSV,5,2,17,23,02,041,,25,00,122,,26,29,209,25,27,44,308,18*7C
$GPGSV,5,3,17,28,49,149,26,29,12,148,16,31,35,186,19,32,57,359,39*71
$GPGSV,5,4,17,36,52,277,,40,84,353,,41,58,082,,49,32,274,*7C
$GPGSV,5,5,17,50,10,089,*4A
$GLGSV,3,1,09,70,21,359,,71,46,309,11,72,30,244,,73,15,141,*6B
$GLGSV,3,2,09,74,15,187,,75,01,233,,83,11,140,,84,50,093,*68
$GLGSV,3,3,09,85,41,012,24*51
$GNGLL,0419.75833,S,05539.82730,E,115954.00,A,A*65
$GNRMC,115955.00,A,0419.75826,S,05539.82720,E,0.039,,270525,,,A*75
$GNVTG,,T,,M,0.039,N,0.072,K,A*32
$GNGGA,115955.00,0419.75826,S,05539.82720,E,1,09,1.04,44.2,M,-47.6,M,,*42
$GNGSA,A,3,32,28,27,18,31,26,29,,,,,,2.77,1.04,2.56*10
$GNGSA,A,3,71,85,,,,,,,,,,,2.77,1.04,2.56*11
$GPGSV,5,1,17,08,08,317,,10,16,003,08,16,25,240,,18,33,085,18*78
$GPGSV,5,2,17,23,02,041,,25,00,122,,26,29,209,26,27,44,308,19*7E
$GPGSV,5,3,17,28,49,149,27,29,12,148,14,31,35,186,19,32,57,359,39*72
$GPGSV,5,4,17,36,52,277,,40,84,353,,41,58,082,,49,32,274,*7C
$GPGSV,5,5,17,50,10,089,*4A
$GLGSV,3,1,09,70,21,359,,71,46,309,11,72,30,244,,73,15,141,*6B
$GLGSV,3,2,09,74,15,187,,75,01,232,,83,11,140,,84,50,093,*69
$GLGSV,3,3,09,85,41,012,24*51
$GNGLL,0419.75826,S,05539.82720,E,115955.00,A,A*61
$GNRMC,115956.00,A,0419.75818,S,05539.82708,E,0.099,,270525,,,A*7B
$GNVTG,,T,,M,0.099,N,0.184,K,A*30
$GNGGA,115956.00,0419.75818,S,05539.82708,E,1,10,0.91,44.2,M,-47.6,M,,*43
$GNGSA,A,3,32,28,27,18,31,26,10,29,,,,,1.97,0.91,1.74*12
$GNGSA,A,3,71,85,,,,,,,,,,,1.97,0.91,1.74*12
$GPGSV,5,1,17,08,08,317,,10,16,003,10,16,25,240,,18,33,085,17*7E
$GPGSV,5,2,17,23,02,041,,25,00,122,,26,29,209,26,27,44,308,21*75
$GPGSV,5,3,17,28,49,149,26,29,12,148,14,31,35,186,20,32,57,359,38*78
$GPGSV,5,4,17,36,52,277,,40,84,353,,41,58,082,,49,32,274,*7C
$GPGSV,5,5,17,50,10,089,*4A
$GLGSV,3,1,09,70,21,359,,71,46,309,12,72,30,244,,73,15,141,*68
$GLGSV,3,2,09,74,15,187,,75,01,232,,83,11,140,,84,50,093,*69
$GLGSV,3,3,09,85,41,012,23*56
$GNGLL,0419.75818,S,05539.82708,E,115956.00,A,A*65
$GNRMC,115957.00,A,0419.75824,S,05539.82680,E,0.203,,270525,,,A*75
$GNVTG,,T,,M,0.203,N,0.376,K,A*3E
$GNGGA,115957.00,0419.75824,S,05539.82680,E,1,10,0.91,44.9,M,-47.6,M,,*47
$GNGSA,A,3,32,28,27,18,31,26,10,29,,,,,1.97,0.91,1.74*12
$GNGSA,A,3,71,85,,,,,,,,,,,1.97,0.91,1.74*12
$GPGSV,5,1,17,08,08,317,,10,16,003,10,16,25,240,,18,33,085,18*71
$GPGSV,5,2,17,23,02,041,,25,00,122,,26,29,209,26,27,44,308,22*76
$GPGSV,5,3,17,28,49,149,26,29,12,148,14,31,35,186,20,32,57,359,38*78
$GPGSV,5,4,17,36,52,277,,40,84,353,,41,58,082,27,49,32,274,*79
$GPGSV,5,5,17,50,10,089,*4A
$GLGSV,3,1,09,70,21,359,,71,46,309,14,72,30,244,,73,15,141,*6E
$GLGSV,3,2,09,74,15,187,,75,01,232,,83,11,140,,84,50,093,*69
$GLGSV,3,3,09,85,41,012,23*56
$GNGLL,0419.75824,S,05539.82680,E,115957.00,A,A*6A
$GNRMC,115958.00,A,0419.75824,S,05539.82647,E,0.469,,270525,,,A*7B
$GNVTG,,T,,M,0.469,N,0.868,K,A*30
$GNGGA,115958.00,0419.75824,S,05539.82647,E,1,11,0.85,45.0,M,-47.6,M,,*4F
$GNGSA,A,3,32,28,27,18,31,26,10,29,41,,,,1.77,0.85,1.55*1F
$GNGSA,A,3,71,85,,,,,,,,,,,1.77,0.85,1.55*1A
$GPGSV,5,1,17,08,08,317,,10,16,003,10,16,25,240,,18,33,085,17*7E
$GPGSV,5,2,17,23,02,041,,25,00,122,,26,29,209,26,27,44,308,23*77
$GPGSV,5,3,17,28,49,149,26,29,12,148,14,31,35,186,19,32,57,359,38*72
$GPGSV,5,4,17,36,52,277,,40,84,353,,41,58,082,27,49,32,274,*79
$GPGSV,5,5,17,50,10,089,*4A
$GLGSV,3,1,09,70,21,359,,71,46,309,16,72,30,244,,73,15,141,*6C
$GLGSV,3,2,09,74,15,187,,75,01,232,,83,11,140,,84,50,093,*69
$GLGSV,3,3,09,85,41,012,23*56
$GNGLL,0419.75824,S,05539.82647,E,115958.00,A,A*6E
$GNRMC,115959.00,A,0419.75817,S,05539.82658,E,0.057,,270525,,,A*7D
$GNVTG,,T,,M,0.057,N,0.105,K,A*3B
$GNGGA,115959.00,0419.75817,S,05539.82658,E,1,11,0.81,44.8,M,-47.6,M,,*4D
$GNGSA,A,3,32,28,27,18,31,26,10,29,41,,,,1.64,0.81,1.43*1E
$GNGSA,A,3,71,85,,,,,,,,,,,1.64,0.81,1.43*1B
$GPGSV,5,1,17,08,08,317,,10,16,003,10,16,25,240,,18,33,085,17*7E
$GPGSV,5,2,17,23,02,041,,25,00,122,,26,29,209,26,27,44,308,23*77
$GPGSV,5,3,17,28,49,149,27,29,12,148,14,31,35,186,17,32,57,359,38*7D
$GPGSV,5,4,17,36,52,277,,40,84,353,,41,58,082,27,49,32,274,*79
$GPGSV,5,5,17,50,10,089,*4A
$GLGSV,3,1,09,70,21,359,,71,46,309,15,72,30,244,,73,15,141,*6F
$GLGSV,3,2,09,74,15,187,,75,01,232,,83,11,140,,84,50,093,*69
$GLGSV,3,3,09,85,41,012,23*56
$GNGLL,0419.75817,S,05539.82658,E,115959.00,A,A*61
$GNRMC,120000.00,A,0419.75810,S,05539.82636,E,0.240,,270525,,,A*75
$GNVTG,,T,,M,0.240,N,0.445,K,A*3E
$GNGGA,120000.00,0419.75810,S,05539.82636,E,1,11,0.81,44.1,M,-47.6,M,,*48
$GNGSA,A,3,32,28,27,18,31,26,10,29,41,,,,1.64,0.81,1.43*1E
$GNGSA,A,3,71,85,,,,,,,,,,,1.64,0.81,1.43*1B
$GPGSV,5,1,17,08,08,317,,10,16,003,10,16,25,240,,18,33,085,18*71
$GPGSV,5,2,17,23,02,041,,25,00,122,,26,29,209,26,27,44,308,23*77
$GPGSV,5,3,17,28,49,149,27,29,12,148,14,31,35,186,17,32,57,359,38*7D
$GPGSV,5,4,17,36,52,277,,40,84,353,,41,58,082,28,49,32,274,*76
$GPGSV,5,5,17,50,10,089,*4A
$GLGSV,3,1,09,70,21,359,,71,46,309,14,72,30,244,20,73,15,141,*6C
$GLGSV,3,2,09,74,15,187,,75,01,232,,83,11,140,,84,50,093,*69
$GLGSV,3,3,09,85,41,012,23*56
$GNGLL,0419.75810,S,05539.82636,E,120000.00,A,A*6D
$GNRMC,120001.00,A,0419.75807,S,05539.82623,E,0.160,,270525,,,A*77
$GNVTG,,T,,M,0.160,N,0.297,K,A*36
$GNGGA,120001.00,0419.75807,S,05539.82623,E,1,11,0.81,44.2,M,-47.6,M,,*48
$GNGSA,A,3,32,28,27,18,31,26,10,29,41,,,,1.64,0.81,1.43*1E
$GNGSA,A,3,71,85,,,,,,,,,,,1.64,0.81,1.43*1B
$GPGSV,5,1,17,08,08,317,,10,16,003,10,16,25,240,,18,33,085,18*71
$GPGSV,5,2,17,23,02,041,,25,00,122,,26,29,209,26,27,44,308,22*76
$GPGSV,5,3,17,28,50,149,27,29,12,148,13,31,35,186,19,32,57,359,38*7C
$GPGSV,5,4,17,36,52,277,,40,84,353,,41,58,082,29,49,32,274,*77
$GPGSV,5,5,17,50,10,089,*4A
$GLGSV,3,1,09,70,21,359,,71,46,309,14,72,30,244,17,73,15,141,*68
$GLGSV,3,2,09,74,15,187,,75,01,232,,83,11,140,,84,50,093,*69
$GLGSV,3,3,09,85,41,012,23*56
$GNGLL,0419.75807,S,05539.82623,E,120001.00,A,A*6E
$GNRMC,120002.00,A,0419.75804,S,05539.82619,E,0.109,,270525,,,A*71
$GNVTG,,T,,M,0.109,N,0.202,K,A*35
$GNGGA,120002.00,0419.75804,S,05539.82619,E,1,11,0.81,44.3,M,-47.6,M,,*40
$GNGSA,A,3,32,28,27,18,31,26,10,29,41,,,,1.64,0.81,1.43*1E
$GNGSA,A,3,71,85,,,,,,,,,,,1.64,0.81,1.43*1B
$GPGSV,5,1,17,08,08,317,,10,16,003,11,16,25,240,20,18,33,085,19*73
$GPGSV,5,2,17,23,02,041,,25,00,122,,26,29,209,26,27,44,308,20*74
$GPGSV,5,3,17,28,50,149,26,29,12,148,13,31,35,186,18,32,57,359,38*7C
$GPGSV,5,4,17,36,52,277,,40,84,353,,41,58,082,30,49,32,274,*7F
$GPGSV,5,5,17,50,10,089,*4A
$GLGSV,3,1,09,70,21,359,,71,46,309,16,72,30,244,15,73,15,141,*68
$GLGSV,3,2,09,74,15,187,,75,01,232,,83,11,140,,84,50,093,*69
$GLGSV,3,3,09,85,41,012,24*51
$GNGLL,0419.75804,S,05539.82619,E,120002.00,A,A*67
$GNRMC,120003.00,A,0419.75808,S,05539.82606,E,0.199,,270525,,,A*7B
$GNVTG,,T,,M,0.199,N,0.368,K,A*31
$GNGGA,120003.00,0419.75808,S,05539.82606,E,1,11,0.81,45.1,M,-47.6,M,,*40
$GNGSA,A,3,32,28,27,18,31,26,10,29,41,,,,1.64,0.81,1.43*1E
$GNGSA,A,3,71,85,,,,,,,,,,,1.64,0.81,1.43*1B
$GPGSV,5,1,17,08,08,317,,10,16,003,11,16,25,240,18,18,33,085,19*78
$GPGSV,5,2,17,23,02,041,,25,00,122,,26,29,209,27,27,44,308,20*75
$GPGSV,5,3,17,28,50,149,27,29,12,148,13,31,35,186,19,32,57,359,38*7C
$GPGSV,5,4,17,36,52,277,,40,84,353,,41,58,082,30,49,32,274,*7F
$GPGSV,5,5,17,50,10,089,*4A
$GLGSV,3,1,09,70,21,359,,71,46,309,17,72,30,244,13,73,15,141,*6F
$GLGSV,3,2,09,74,15,187,,75,01,232,,83,11,140,,84,50,093,*69
$GLGSV,3,3,09,85,41,012,24*51
$GNGLL,0419.75808,S,05539.82606,E,120003.00,A,A*64
$GNRMC,120004.00,A,0419.75810,S,05539.82603,E,0.111,,270525,,,A*70
$GNVTG,,T,,M,0.111,N,0.206,K,A*38
$GNGGA,120004.00,0419.75810,S,05539.82603,E,1,11,0.85,45.4,M,-47.6,M,,*4A
$GNGSA,A,3,32,28,27,18,31,26,10,29,41,,,,1.77,0.85,1.55*1F
$GNGSA,A,3,71,85,,,,,,,,,,,1.77,0.85,1.55*1A
$GPGSV,5,1,17,08,08,317,,10,16,003,11,16,25,240,16,18,33,085,17*78
$GPGSV,5,2,17,23,02,041,,25,00,122,,26,29,209,27,27,44,308,19*7F
$GPGSV,5,3,17,28,50,149,26,29,12,148,13,31,35,186,19,32,57,359,38*7D
$GPGSV,5,4,17,36,52,277,,40,84,353,,41,58,082,30,49,32,274,*7F
$GPGSV,5,5,17,50,10,089,*4A
$GLGSV,3,1,09,70,21,359,,71,46,309,16,72,30,244,11,73,15,141,*6C
$GLGSV,3,2,09,74,15,187,,75,01,232,,83,11,140,,84,50,094,*6E
$GLGSV,3,3,09,85,41,012,23*56
$GNGLL,0419.75810,S,05539.82603,E,120004.00,A,A*6F
$GNRMC,120005.00,A,0419.75813,S,05539.82594,E,0.187,,270525,,,A*70
$GNVTG,,T,,M,0.187,N,0.346,K,A*32
$GNGGA,120005.00,0419.75813,S,05539.82594,E,1,11,0.81,45.7,M,-47.6,M,,*42
$GNGSA,A,3,32,28,27,18,31,26,10,29,41,,,,1.64,0.81,1.43*1E
$GNGSA,A,3,71,85,,,,,,,,,,,1.64,0.81,1.43*1B
$GPGSV,5,1,17,08,08,317,,10,16,003,11,16,25,240,,18,33,085,18*70
$GPGSV,5,2,17,23,02,041,,25,00,122,,26,29,209,26,27,44,308,19*7E
$GPGSV,5,3,17,28,50,149,25,29,12,148,13,31,35,186,19,32,57,359,39*7F
$GPGSV,5,4,17,36,52,277,,40,84,353,,41,58,082,29,49,32,274,*77
$GPGSV,5,5,17,50,10,089,*4A
$GLGSV,3,1,09,70,21,359,,71,46,309,15,72,30,244,11,73,15,141,*6F
$GLGSV,3,2,09,74,15,187,,75,01,232,,83,11,140,,84,50,094,*6E
$GLGSV,3,3,09,85,42,013,22*55
$GNGLL,0419.75813,S,05539.82594,E,120005.00,A,A*60
$GNRMC,120006.00,A,0419.75811,S,05539.82588,E,0.140,,270525,,,A*77
$GNVTG,,T,,M,0.140,N,0.259,K,A*36
$GNGGA,120006.00,0419.75811,S,05539.82588,E,1,11,0.81,45.3,M,-47.6,M,,*4A
$GNGSA,A,3,32,28,27,18,31,26,10,29,41,,,,1.64,0.81,1.43*1E
$GNGSA,A,3,71,85,,,,,,,,,,,1.64,0.81,1.43*1B
$GPGSV,5,1,17,08,08,317,,10,16,003,11,16,25,240,16,18,33,085,19*76
$GPGSV,5,2,17,23,02,041,,25,00,122,,26,29,209,25,27,44,308,19*7D
$GPGSV,5,3,17,28,50,149,22,29,12,148,13,31,35,186,21,32,57,359,38*72
$GPGSV,5,4,17,36,52,277,,40,84,353,,41,58,082,28,49,32,274,*76
$GPGSV,5,5,17,50,10,089,*4A
$GLGSV,3,1,09,70,21,359,,71,46,309,13,72,30,244,12,73,15,141,*6A
$GLGSV,3,2,09,74,15,187,,75,01,232,,83,11,140,,84,50,094,*6E
$GLGSV,3,3,09,85,42,013,22*55
$GNGLL,0419.75811,S,05539.82588,E,120006.00,A,A*6C
$GNRMC,120007.00,A,0419.75811,S,05539.82605,E,0.277,,270525,,,A*77
$GNVTG,,T,,M,0.277,N,0.513,K,A*38
$GNGGA,120007.00,0419.75811,S,05539.82605,E,1,11,0.81,44.9,M,-47.6,M,,*46
$GNGSA,A,3,32,28,27,18,31,26,10,29,41,,,,1.64,0.81,1.43*1E
$GNGSA,A,3,71,85,,,,,,,,,,,1.64,0.81,1.43*1B
$GPGSV,5,1,17,08,08,317,,10,16,003,11,16,25,240,15,18,33,085,20*7F
$GPGSV,5,2,17,23,02,041,,25,00,122,,26,29,209,25,27,44,308,19*7D
$GPGSV,5,3,17,28,50,149,22,29,12,148,13,31,35,186,24,32,57,359,37*78
$GPGSV,5,4,17,36,52,277,,40,84,353,,41,58,082,29,49,32,274,*77
$GPGSV,5,5,17,50,10,089,*4A
$GLGSV,3,1,09,70,21,359,,71,46,309,12,72,30,244,13,73,15,141,*6A
$GLGSV,3,2,09,74,15,187,,75,01,232,,83,11,140,,84,50,094,*6E
$GLGSV,3,3,09,85,42,013,23*54
$GNGLL,0419.75811,S,05539.82605,E,120007.00,A,A*6B
$GNRMC,120008.00,A,0419.75807,S,05539.82590,E,0.188,,270525,,,A*73
$GNVTG,,T,,M,0.188,N,0.347,K,A*3C
$GNGGA,120008.00,0419.75807,S,05539.82590,E,1,11,0.81,44.8,M,-47.6,M,,*40
$GNGSA,A,3,32,28,27,18,31,26,10,29,41,,,,1.64,0.81,1.43*1E
$GNGSA,A,3,71,85,,,,,,,,,,,1.64,0.81,1.43*1B
$GPGSV,5,1,17,08,08,317,,10,16,003,12,16,25,240,13,18,33,085,19*70
$GPGSV,5,2,17,23,02,041,,25,00,122,,26,29,209,25,27,44,308,19*7D
$GPGSV,5,3,17,28,50,149,20,29,12,148,15,31,35,186,27,32,57,359,36*7E
$GPGSV,5,4,17,36,52,277,,40,84,353,,41,58,082,29,49,32,274,*77
$GPGSV,5,5,17,50,10,089,*4A
$GLGSV,3,1,09,70,21,359,,71,46,309,11,72,30,244,11,73,15,141,*6B
$GLGSV,3,2,09,74,15,187,,75,01,232,,83,11,140,,84,50,094,*6E
$GLGSV,3,3,09,85,42,013,23*54
$GNGLL,0419.75807,S,05539.82590,E,120008.00,A,A*6C
$GNRMC,120009.00,A,0419.75813,S,05539.82576,E,0.318,,270525,,,A*74
$GNVTG,,T,,M,0.318,N,0.588,K,A*32
$GNGGA,120009.00,0419.75813,S,05539.82576,E,1,10,0.92,45.3,M,-47.6,M,,*45
$GNGSA,A,3,32,28,27,18,31,26,29,41,,,,,2.08,0.92,1.86*1D
$GNGSA,A,3,71,85,,,,,,,,,,,2.08,0.92,1.86*19
$GPGSV,5,1,17,08,08,317,,10,16,003,,16,25,240,11,18,33,085,18*70
$GPGSV,5,2,17,23,02,041,,25,00,122,,26,29,209,24,27,44,308,20*76
$GPGSV,5,3,17,28,50,149,22,29,12,148,15,31,35,186,26,32,57,359,36*7D
$GPGSV,5,4,17,36,52,277,,40,84,353,,41,58,082,28,49,32,274,*76
$GPGSV,5,5,17,50,10,089,*4A
$GLGSV,3,1,09,70,21,359,,71,46,309,11,72,30,244,09,73,15,141,*62
$GLGSV,3,2,09,74,15,187,,75,01,232,,83,11,140,,84,50,094,*6E
$GLGSV,3,3,09,85,42,013,24*53
$GNGLL,0419.75813,S,05539.82576,E,120009.00,A,A*60
$GNRMC,120010.00,A,0419.75814,S,05539.82541,E,0.771,,270525,,,A*74
$GNVTG,,T,,M,0.771,N,1.429,K,A*32
$GNGGA,120010.00,0419.75814,S,05539.82541,E,1,09,0.99,45.4,M,-47.6,M,,*4A
$GNGSA,A,3,32,28,27,18,31,26,29,41,,,,,2.12,0.99,1.88*13
$GNGSA,A,3,85,,,,,,,,,,,,2.12,0.99,1.88*11
$GPGSV,5,1,17,08,08,317,,10,16,003,,16,25,240,09,18,33,085,20*72
$GPGSV,5,2,17,23,02,041,,25,00,122,,26,29,209,23,27,44,308,20*71
$GPGSV,5,3,17,28,50,149,22,29,12,148,15,31,35,186,25,32,57,359,36*7E
$GPGSV,5,4,17,36,52,277,,40,84,353,,41,58,082,29,49,32,274,*77
$GPGSV,5,5,17,50,10,089,*4A
$GLGSV,3,1,09,70,21,359,,71,46,309,10,72,30,244,09,73,15,141,*63
$GLGSV,3,2,09,74,15,187,,75,01,232,,83,11,140,,84,50,094,*6E
$GLGSV,3,3,09,85,42,013,24*53
$GNGLL,0419.75814,S,05539.82541,E,120010.00,A,A*6B
$GNRMC,120011.00,A,0419.75816,S,05539.82518,E,0.813,,270525,,,A*70
$GNVTG,,T,,M,0.813,N,1.505,K,A*36
$GNGGA,120011.00,0419.75816,S,05539.82518,E,1,10,0.98,45.8,M,-47.6,M,,*40
$GNGSA,A,3,32,28,27,18,31,26,29,41,,,,,2.42,0.98,2.22*14
$GNGSA,A,3,71,85,,,,,,,,,,,2.42,0.98,2.22*10
$GPGSV,5,1,17,08,08,317,,10,16,003,07,16,25,240,08,18,33,085,21*75
$GPGSV,5,2,17,23,02,041,,25,00,122,,26,29,209,23,27,44,308,20*71
$GPGSV,5,3,17,28,50,149,19,29,12,148,15,31,35,186,26,32,57,359,37*74
$GPGSV,5,4,17,36,52,277,,40,84,353,,41,58,082,29,49,32,274,*77
$GPGSV,5,5,17,50,10,089,*4A
$GLGSV,3,1,09,70,21,359,,71,46,309,09,72,30,244,09,73,15,141,*6B
$GLGSV,3,2,09,74,15,187,,75,01,232,,83,11,140,,84,50,094,*6E
$GLGSV,3,3,09,85,42,013,24*53
$GNGLL,0419.75816,S,05539.82518,E,120011.00,A,A*64
$GNRMC,120012.00,A,0419.75817,S,05539.82526,E,0.443,,270525,,,A*76
$GNVTG,,T,,M,0.443,N,0.821,K,A*35
$GNGGA,120012.00,0419.75817,S,05539.82526,E,1,08,1.08,46.0,M,-47.6,M,,*45
$GNGSA,A,3,32,28,27,18,31,26,41,,,,,,3.39,1.08,3.21*18
$GNGSA,A,3,85,,,,,,,,,,,,3.39,1.08,3.21*11
$GPGSV,5,1,17,08,08,317,,10,16,003,11,16,25,240,08,18,33,085,23*70
$GPGSV,5,2,17,23,02,041,,25,00,122,,26,29,209,24,27,44,308,20*76
$GPGSV,5,3,17,28,50,149,17,29,12,148,,31,35,186,26,32,57,359,38*71
$GPGSV,5,4,17,36,52,277,,40,84,353,,41,58,082,30,49,32,274,*7F
$GPGSV,5,5,17,50,10,089,*4A
$GLGSV,3,1,09,70,21,359,,71,46,309,08,72,30,244,09,73,15,141,*6A
$GLGSV,3,2,09,74,15,187,,75,01,232,,83,11,140,,84,50,094,*6E
$GLGSV,3,3,09,85,42,013,25*52
$GNGLL,0419.75817,S,05539.82526,E,120012.00,A,A*6B
$GNRMC,120013.00,A,0419.75826,S,05539.82504,E,0.758,,270525,,,A*7C
$GNVTG,,T,,M,0.758,N,1.403,K,A*31
$GNGGA,120013.00,0419.75826,S,05539.82504,E,1,09,1.01,45.8,M,-47.6,M,,*45
$GNGSA,A,3,32,28,27,18,31,26,41,,,,,,3.36,1.01,3.21*1E
$GNGSA,A,3,71,85,,,,,,,,,,,3.36,1.01,3.21*11
$GPGSV,5,1,17,08,08,317,,10,16,003,16,16,25,240,,18,33,085,24*78
$GPGSV,5,2,17,23,02,041,,25,00,122,,26,29,209,22,27,44,308,20*70
$GPGSV,5,3,17,28,50,149,14,29,12,148,,31,35,186,27,32,57,359,39*72
$GPGSV,5,4,17,36,52,277,,40,84,353,,41,58,082,30,49,32,274,*7F
$GPGSV,5,5,17,50,10,089,*4A
$GLGSV,3,1,09,70,21,359,,71,46,309,18,72,30,244,07,73,15,141,*65
$GLGSV,3,2,09,74,15,187,,75,01,232,,83,11,140,,84,50,094,*6E
$GLGSV,3,3,09,85,42,013,26*51
$GNGLL,0419.75826,S,05539.82504,E,120013.00,A,A*68
$GNRMC,120014.00,A,0419.75833,S,05539.82552,E,0.206,,270525,,,A*72
$GNVTG,,T,,M,0.206,N,0.382,K,A*30
$GNGGA,120014.00,0419.75833,S,05539.82552,E,1,09,1.01,45.8,M,-47.6,M,,*45
$GNGSA,A,3,32,28,27,18,31,26,41,,,,,,3.36,1.01,3.21*1E
$GNGSA,A,3,71,85,,,,,,,,,,,3.36,1.01,3.21*11
$GPGSV,5,1,17,08,08,317,,10,16,003,15,16,25,240,,18,33,085,24*7B
$GPGSV,5,2,17,23,02,041,,25,00,122,,26,29,209,22,27,44,308,19*7A
$GPGSV,5,3,17,28,50,149,16,29,12,148,,31,35,186,26,32,57,359,38*70
$GPGSV,5,4,17,36,52,277,,40,84,353,,41,58,082,29,49,32,274,*77
$GPGSV,5,5,17,50,10,089,*4A
$GLGSV,3,1,09,70,21,359,,71,46,309,08,72,30,244,12,73,15,141,*60
$GLGSV,3,2,09,74,15,187,,75,01,232,,83,11,140,,84,50,094,*6E
$GLGSV,3,3,09,85,42,013,27*50
$GNGLL,0419.75833,S,05539.82552,E,120014.00,A,A*68
$GNRMC,120015.00,A,0419.75847,S,05539.82575,E,0.402,,270525,,,A*77
$GNVTG,,T,,M,0.402,N,0.745,K,A*3D
$GNGGA,120015.00,0419.75847,S,05539.82575,E,1,10,0.90,46.3,M,-47.6,M,,*4B
$GNGSA,A,3,32,28,27,18,31,26,10,41,,,,,2.10,0.90,1.90*1B
$GNGSA,A,3,71,85,,,,,,,,,,,2.10,0.90,1.90*15
$GPGSV,5,1,17,08,08,317,,10,16,003,15,16,25,240,,18,33,085,23*7C
$GPGSV,5,2,17,23,02,041,,25,00,122,,26,29,209,19,27,44,308,18*73
$GPGSV,5,3,17,28,50,149,20,29,12,148,13,31,35,186,23,32,57,359,36*7C
$GPGSV,5,4,17,36,52,277,,40,84,353,,41,58,082,29,49,32,274,*77
$GPGSV,5,5,17,50,10,089,*4A
$GLGSV,3,1,09,70,21,359,,71,46,309,11,72,30,244,14,73,15,141,*6E
$GLGSV,3,2,09,74,15,187,,75,01,232,,83,11,140,,84,50,094,*6E
$GLGSV,3,3,09,85,42,013,27*50
$GNGLL,0419.75847,S,05539.82575,E,120015.00,A,A*6F
$GNRMC,120016.00,A,0419.75851,S,05539.82594,E,0.413,,270525,,,A*7C
$GNVTG,,T,,M,0.413,N,0.764,K,A*3E
$GNGGA,120016.00,0419.75851,S,05539.82594,E,1,10,0.90,46.5,M,-47.6,M,,*46
$GNGSA,A,3,32,28,27,18,31,26,10,41,,,,,2.10,0.90,1.90*1B
$GNGSA,A,3,71,85,,,,,,,,,,,2.10,0.90,1.90*15
$GPGSV,5,1,17,08,09,317,,10,16,003,17,16,25,240,19,18,33,085,21*75
$GPGSV,5,2,17,23,02,041,,25,00,122,,26,29,209,20,27,44,308,16*77
$GPGSV,5,3,17,28,50,149,19,29,12,148,13,31,35,186,24,32,57,359,36*71
$GPGSV,5,4,17,36,52,277,,40,84,353,,41,58,082,29,49,32,274,*77
$GPGSV,5,5,17,50,10,089,*4A
$GLGSV,3,1,09,70,21,359,,71,46,309,12,72,30,244,14,73,15,141,*6D
$GLGSV,3,2,09,74,15,187,,75,01,232,,83,11,140,,84,50,094,*6E
$GLGSV,3,3,09,85,42,013,27*50
$GNGLL,0419.75851,S,05539.82594,E,120016.00,A,A*64
$GNRMC,120017.00,A,0419.75838,S,05539.82592,E,0.065,,270525,,,A*71
$GNVTG,,T,,M,0.065,N,0.120,K,A*3D
$GNGGA,120017.00,0419.75838,S,05539.82592,E,1,10,0.90,46.3,M,-47.6,M,,*48
$GNGSA,A,3,32,28,27,18,31,26,10,41,,,,,2.10,0.90,1.90*1B
$GNGSA,A,3,71,85,,,,,,,,,,,2.10,0.90,1.90*15
$GPGSV,5,1,17,08,09,317,,10,16,003,17,16,25,240,17,18,33,085,21*7B
$GPGSV,5,2,17,23,02,041,,25,00,122,,26,29,209,24,27,44,308,16*73
$GPGSV,5,3,17,28,50,149,16,29,12,148,12,31,35,186,27,32,57,359,39*73
$GPGSV,5,4,17,36,52,277,,40,84,353,,41,58,082,29,49,32,274,*77
$GPGSV,5,5,17,50,10,089,*4A
$GLGSV,3,1,09,70,21,359,,71,46,309,17,72,30,244,12,73,15,141,*6E
$GLGSV,3,2,09,74,15,187,,75,01,232,,83,11,140,,84,50,094,*6E
$GLGSV,3,3,09,85,42,013,27*50
$GNGLL,0419.75838,S,05539.82592,E,120017.00,A,A*6C
$GNRMC,120018.00,A,0419.75843,S,05539.82630,E,0.448,,270525,,,A*72
$GNVTG,,T,,M,0.448,N,0.830,K,A*3E
$GNGGA,120018.00,0419.75843,S,05539.82630,E,1,11,0.85,47.3,M,-47.6,M,,*44
$GNGSA,A,3,32,28,27,18,31,26,10,29,41,,,,1.77,0.85,1.55*1F
$GNGSA,A,3,71,85,,,,,,,,,,,1.77,0.85,1.55*1A
$GPGSV,5,1,17,08,09,317,,10,16,004,17,16,25,240,17,18,33,085,22*7F
$GPGSV,5,2,17,23,02,041,,25,00,122,,26,29,209,25,27,44,308,21*76
$GPGSV,5,3,17,28,50,149,18,29,12,148,09,31,35,186,29,32,57,359,37*77
$GPGSV,5,4,17,36,52,277,,40,84,353,,41,58,082,28,49,32,274,*76
$GPGSV,5,5,17,50,10,089,*4A
$GLGSV,3,1,09,70,21,359,,71,46,309,15,72,30,244,09,73,15,141,*66
$GLGSV,3,2,09,74,15,187,,75,01,232,,83,11,140,,84,50,094,*6E
$GLGSV,3,3,09,85,42,013,29*5E
$GNGLL,0419.75843,S,05539.82630,E,120018.00,A,A*64
$GNRMC,120019.00,A,0419.75845,S,05539.82660,E,0.622,,270525,,,A*7E
$GNVTG,,T,,M,0.622,N,1.152,K,A*3C
$GNGGA,120019.00,0419.75845,S,05539.82660,E,1,11,0.83,47.4,M,-47.6,M,,*47
$GNGSA,A,3,32,28,27,18,31,26,16,10,41,,,,1.99,0.83,1.81*1C
$GNGSA,A,3,71,85,,,,,,,,,,,1.99,0.83,1.81*15
$GPGSV,5,1,17,08,09,317,,10,16,004,17,16,25,240,19,18,33,085,23*70
$GPGSV,5,2,17,23,02,041,,25,00,122,,26,29,209,26,27,44,308,24*70
$GPGSV,5,3,17,28,50,149,12,29,12,148,08,31,35,186,28,32,57,359,37*7D
$GPGSV,5,4,17,36,52,277,,40,84,353,,41,58,082,28,49,32,274,*76
$GPGSV,5,5,17,50,10,089,*4A
$GLGSV,3,1,09,70,21,359,,71,46,309,15,72,30,244,10,73,15,141,*6E
$GLGSV,3,2,09,74,15,187,,75,01,232,,83,11,140,,84,50,094,*6E
$GLGSV,3,3,09,85,42,013,29*5E
$GNGLL,0419.75845,S,05539.82660,E,120019.00,A,A*66
$GNRMC,120020.00,A,0419.75850,S,05539.82676,E,0.420,,270525,,,A*77
$GNVTG,,T,,M,0.420,N,0.777,K,A*3C
$GNGGA,120020.00,0419.75850,S,05539.82676,E,1,11,0.83,47.9,M,-47.6,M,,*43
$GNGSA,A,3,32,28,27,18,31,26,16,10,41,,,,1.99,0.83,1.81*1C
$GNGSA,A,3,71,85,,,,,,,,,,,1.99,0.83,1.81*15
$GPGSV,5,1,17,08,09,317,,10,16,004,17,16,25,240,20,18,33,085,22*7B
$GPGSV,5,2,17,23,02,041,,25,00,122,,26,29,209,23,27,44,308,23*72
$GPGSV,5,3,17,28,50,149,23,29,12,148,09,31,35,186,29,32,57,359,37*7F
$GPGSV,5,4,17,36,52,277,,40,84,353,,41,58,082,28,49,32,274,*76
$GPGSV,5,5,17,50,10,089,*4A
$GLGSV,3,1,09,70,21,359,,71,46,309,14,72,30,244,,73,15,141,*6E
$GLGSV,3,2,09,74,15,187,,75,01,232,,83,11,140,,84,50,094,*6E
$GLGSV,3,3,09,85,42,013,28*5F
$GNGLL,0419.75850,S,05539.82676,E,120020.00,A,A*6F
$GNRMC,120021.00,A,0419.75857,S,05539.82702,E,0.425,,270525,,,A*76
$GNVTG,,T,,M,0.425,N,0.786,K,A*37
$GNGGA,120021.00,0419.75857,S,05539.82702,E,1,12,0.77,48.2,M,-47.6,M,,*4B
$GNGSA,A,3,32,28,27,18,31,26,16,10,29,41,,,1.69,0.77,1.50*1F
$GNGSA,A,3,71,85,,,,,,,,,,,1.69,0.77,1.50*1D
$GPGSV,5,1,17,08,09,317,,10,16,004,14,16,25,240,19,18,33,085,20*70
$GPGSV,5,2,17,23,02,041,,25,00,122,,26,29,209,23,27,44,308,19*7B
$GPGSV,5,3,17,28,50,149,23,29,12,148,11,31,35,186,29,32,57,359,38*79
$GPGSV,5,4,17,36,52,277,,40,84,353,,41,58,082,28,49,32,274,*76
$GPGSV,5,5,17,50,10,089,*4A
$GLGSV,3,1,09,70,21,359,,71,46,309,13,72,30,244,,73,15,141,*69
$GLGSV,3,2,09,74,15,187,,75,01,232,,83,11,140,,84,50,094,*6E
$GLGSV,3,3,09,85,42,013,27*50
$GNGLL,0419.75857,S,05539.82702,E,120021.00,A,A*6B
$GNRMC,120022.00,A,0419.75860,S,05539.82728,E,0.370,,270525,,,A*7E
$GNVTG,,T,,M,0.370,N,0.686,K,A*31
$GNGGA,120022.00,0419.75860,S,05539.82728,E,1,12,0.77,48.4,M,-47.6,M,,*42
$GNGSA,A,3,32,28,27,18,31,26,16,10,29,41,,,1.69,0.77,1.50*1F
$GNGSA,A,3,71,85,,,,,,,,,,,1.69,0.77,1.50*1D
$GPGSV,5,1,17,08,09,317,,10,16,004,13,16,25,240,19,18,33,085,18*7C
$GPGSV,5,2,17,23,02,041,,25,00,122,,26,29,209,22,27,44,308,14*77
$GPGSV,5,3,17,28,50,149,23,29,12,148,12,31,35,186,28,32,57,359,38*7B
$GPGSV,5,4,17,36,52,277,,40,84,353,,41,58,082,29,49,32,274,*77
$GPGSV,5,5,17,50,10,089,*4A
$GLGSV,3,1,09,70,21,359,,71,46,309,15,72,30,244,,73,15,141,*6F
$GLGSV,3,2,09,74,15,187,,75,01,232,,83,11,140,,84,50,094,*6E
$GLGSV,3,3,09,85,42,013,27*50
$GNGLL,0419.75860,S,05539.82728,E,120022.00,A,A*64
$GNRMC,120023.00,A,0419.75855,S,05539.82777,E,0.532,,270525,,,A*73
$GNVTG,,T,,M,0.532,N,0.985,K,A*3D
$GNGGA,120023.00,0419.75855,S,05539.82777,E,1,12,0.74,47.8,M,-47.6,M,,*4F
$GNGSA,A,3,32,28,27,18,31,26,16,10,29,41,,,1.65,0.74,1.48*19
$GNGSA,A,3,71,85,,,,,,,,,,,1.65,0.74,1.48*1B
$GPGSV,5,1,17,08,09,317,,10,16,004,11,16,25,240,19,18,33,085,20*75
$GPGSV,5,2,17,23,02,041,,25,00,122,,26,29,209,19,27,44,308,14*7F
$GPGSV,5,3,17,28,50,149,23,29,12,148,12,31,35,186,27,32,57,359,38*74
$GPGSV,5,4,17,36,52,277,,40,84,353,,41,58,082,29,49,32,274,*77
$GPGSV,5,5,17,50,10,089,*4A
$GLGSV,3,1,09,70,21,359,,71,46,309,16,72,30,244,,73,15,141,*6C
$GLGSV,3,2,09,74,15,187,,75,01,232,,83,11,140,,84,50,094,*6E
$GLGSV,3,3,09,85,42,013,24*53
