$GNRMC,122836.00,A,0419.72660,S,05539.92668,E,0.044,,030625,,,A*7D
$GNVTG,,T,,M,0.044,N,0.081,K,A*34
$GNGGA,122836.00,0419.72660,S,05539.92668,E,1,12,0.69,13.1,M,-47.6,M,,*44
$GNGSA,A,3,28,31,27,32,26,18,08,16,10,,,,1.53,0.69,1.37*1E
$GNGSA,A,3,83,71,70,80,,,,,,,,,1.53,0.69,1.37*13
$GPGSV,5,1,17,02,06,332,27,04,10,228,,08,26,299,32,10,13,026,22*7D
$GPGSV,5,2,17,16,24,214,23,18,27,117,38,23,01,065,,26,29,182,30*7B
$GPGSV,5,3,17,27,55,267,34,28,60,099,35,31,57,163,31,32,31,008,31*7D
$GPGSV,5,4,17,36,52,277,34,40,84,353,35,41,58,082,33,49,32,274,*7D
$GPGSV,5,5,17,50,10,089,*4A
$GLGSV,3,1,09,70,26,332,22,71,29,278,33,72,06,234,,73,22,166,31*6E
$GLGSV,3,2,09,74,05,208,,80,15,111,27,83,36,139,33,84,69,041,21*69
$GLGSV,3,3,09,85,26,346,34*53
$GNGLL,0419.72660,S,05539.92668,E,122836.00,A,A*66
$GNRMC,122837.00,A,0419.72659,S,05539.92666,E,0.045,,030625,,,A*79
$GNVTG,,T,,M,0.045,N,0.084,K,A*30
$GNGGA,122837.00,0419.72659,S,05539.92666,E,1,12,0.66,13.2,M,-47.6,M,,*4D
$GNGSA,A,3,28,31,27,32,26,18,08,16,10,,,,1.52,0.66,1.37*10
$GNGSA,A,3,83,71,70,80,85,,,,,,,,1.52,0.66,1.37*10
$GPGSV,5,1,17,02,06,332,28,04,10,228,,08,26,299,33,10,13,026,23*72
$GPGSV,5,2,17,16,24,214,23,18,27,117,39,23,01,065,,26,29,182,30*7A
$GPGSV,5,3,17,27,55,267,33,28,60,099,37,31,57,163,35,32,31,008,32*7F
$GPGSV,5,4,17,36,52,277,34,40,84,353,37,41,58,082,34,49,32,274,*78
$GPGSV,5,5,17,50,10,089,*4A
$GLGSV,3,1,09,70,26,332,22,71,29,279,33,72,06,234,,73,22,166,28*67
$GLGSV,3,2,09,74,05,208,,80,15,111,26,83,36,140,32,84,69,041,20*66
$GLGSV,3,3,09,85,26,346,31*56
$GNGLL,0419.72659,S,05539.92666,E,122837.00,A,A*63
$GNRMC,122838.00,A,0419.72661,S,05539.92665,E,0.034,,030625,,,A*78
$GNVTG,,T,,M,0.034,N,0.063,K,A*3F
$GNGGA,122838.00,0419.72661,S,05539.92665,E,1,12,0.66,13.1,M,-47.6,M,,*49
$GNGSA,A,3,28,31,27,32,26,18,08,16,10,,,,1.52,0.66,1.37*10
$GNGSA,A,3,83,71,70,80,85,,,,,,,,1.52,0.66,1.37*10
$GPGSV,5,1,17,02,06,332,29,04,10,228,,08,26,299,34,10,13,026,22*75
$GPGSV,5,2,17,16,24,214,25,18,27,117,39,23,01,065,,26,29,182,31*7D
$GPGSV,5,3,17,27,55,267,34,28,60,099,37,31,57,163,35,32,31,008,33*79
$GPGSV,5,4,17,36,52,277,35,40,84,353,37,41,58,082,37,49,32,274,*7A
$GPGSV,5,5,17,50,10,089,*4A
$GLGSV,3,1,09,70,26,332,22,71,29,279,39,72,06,234,,73,22,166,32*66
$GLGSV,3,2,09,74,05,208,,80,15,111,27,83,36,140,35,84,69,041,22*62
$GLGSV,3,3,09,85,26,346,37*50
$GNGLL,0419.72661,S,05539.92665,E,122838.00,A,A*64
$GNRMC,122839.00,A,0419.72663,S,05539.92663,E,0.029,,030625,,,A*71
$GNVTG,,T,,M,0.029,N,0.053,K,A*30
$GNGGA,122839.00,0419.72663,S,05539.92663,E,1,12,0.64,13.1,M,-47.6,M,,*4E
$GNGSA,A,3,28,31,27,32,26,18,08,16,10,,,,1.48,0.64,1.34*1A
$GNGSA,A,3,83,71,70,80,85,73,,,,,,,1.48,0.64,1.34*1E
$GPGSV,5,1,17,02,06,332,27,04,10,228,,08,26,299,35,10,13,026,21*79
$GPGSV,5,2,17,16,24,214,25,18,27,117,39,23,01,065,,26,29,182,31*7D
$GPGSV,5,3,17,27,55,267,33,28,60,099,37,31,57,163,33,32,31,008,33*78
$GPGSV,5,4,17,36,52,277,35,40,84,353,37,41,58,082,37,49,32,274,*7A
$GPGSV,5,5,17,50,10,089,*4A
$GLGSV,3,1,09,70,26,332,22,71,29,279,37,72,06,234,,73,22,166,32*68
$GLGSV,3,2,09,74,05,208,,80,15,110,28,83,36,140,34,84,69,041,23*6C
$GLGSV,3,3,09,85,26,346,35*52
$GNGLL,0419.72663,S,05539.92663,E,122839.00,A,A*61
$GNRMC,122840.00,A,0419.72666,S,05539.92660,E,0.015,,030625,,,A*76
$GNVTG,,T,,M,0.015,N,0.028,K,A*33
$GNGGA,122840.00,0419.72666,S,05539.92660,E,1,12,0.64,13.1,M,-47.6,M,,*46
$GNGSA,A,3,28,31,27,32,26,18,08,16,10,,,,1.48,0.64,1.34*1A
$GNGSA,A,3,83,71,70,80,85,73,,,,,,,1.48,0.64,1.34*1E
$GPGSV,5,1,17,02,06,332,27,04,10,228,,08,26,299,36,10,13,026,18*70
$GPGSV,5,2,17,16,24,214,24,18,27,117,39,23,01,065,,26,29,182,29*75
$GPGSV,5,3,17,27,55,267,37,28,60,099,37,31,57,163,34,32,31,008,33*7B
$GPGSV,5,4,17,36,52,277,37,40,84,353,38,41,58,082,37,49,32,274,*77
$GPGSV,5,5,17,50,10,089,*4A
$GLGSV,3,1,09,70,26,332,23,71,29,279,39,72,06,234,,73,22,166,31*64
$GLGSV,3,2,09,74,05,208,,80,15,110,27,83,36,140,37,84,69,041,23*60
$GLGSV,3,3,09,85,26,346,35*52
$GNGLL,0419.72666,S,05539.92660,E,122840.00,A,A*69
$GNRMC,122841.00,A,0419.72672,S,05539.92657,E,0.005,,030625,,,A*77
$GNVTG,,T,,M,0.005,N,0.009,K,A*31
$GNGGA,122841.00,0419.72672,S,05539.92657,E,1,12,0.64,13.1,M,-47.6,M,,*46
$GNGSA,A,3,28,31,27,32,26,18,08,16,10,,,,1.48,0.64,1.34*1A
$GNGSA,A,3,83,71,70,80,85,73,,,,,,,1.48,0.64,1.34*1E
$GPGSV,5,1,17,02,06,332,27,04,10,228,,08,26,299,36,10,13,026,15*7D
$GPGSV,5,2,17,16,24,214,22,18,27,117,38,23,01,065,,26,29,182,27*7C
$GPGSV,5,3,17,27,55,267,37,28,60,099,36,31,57,163,34,32,31,008,33*7A
$GPGSV,5,4,17,36,52,277,37,40,84,353,38,41,58,082,37,49,32,274,*77
$GPGSV,5,5,17,50,10,089,*4A
$GLGSV,3,1,09,70,26,332,24,71,29,279,39,72,06,234,,73,22,166,31*63
$GLGSV,3,2,09,74,05,208,,80,15,110,27,83,36,140,36,84,69,041,24*66
$GLGSV,3,3,09,85,26,346,36*51
$GNGLL,0419.72672,S,05539.92657,E,122841.00,A,A*69
$GNRMC,122842.00,A,0419.72678,S,05539.92654,E,0.063,,030625,,,A*7D
$GNVTG,,T,,M,0.063,N,0.117,K,A*3F
$GNGGA,122842.00,0419.72678,S,05539.92654,E,1,12,0.64,13.1,M,-47.6,M,,*4C
$GNGSA,A,3,28,31,27,32,26,18,08,16,10,,,,1.48,0.64,1.34*1A
$GNGSA,A,3,83,71,70,80,85,73,,,,,,,1.48,0.64,1.34*1E
$GPGSV,5,1,17,02,06,332,26,04,10,228,,08,26,299,36,10,13,026,13*7A
$GPGSV,5,2,17,16,24,214,22,18,27,117,38,23,01,065,,26,29,182,27*7C
$GPGSV,5,3,17,27,55,267,37,28,60,099,36,31,57,163,34,32,31,008,33*7A
$GPGSV,5,4,17,36,52,277,37,40,84,353,38,41,58,082,37,49,32,274,*77
$GPGSV,5,5,17,50,10,089,*4A
$GLGSV,3,1,09,70,26,332,24,71,29,279,39,72,06,234,,73,22,166,31*63
$GLGSV,3,2,09,74,05,208,,80,15,110,28,83,36,140,36,84,69,041,23*6E
$GLGSV,3,3,09,85,26,346,36*51
$GNGLL,0419.72678,S,05539.92654,E,122842.00,A,A*63
$GNRMC,122843.00,A,0419.72684,S,05539.92652,E,0.017,,030625,,,A*7A
$GNVTG,,T,,M,0.017,N,0.031,K,A*39
$GNGGA,122843.00,0419.72684,S,05539.92652,E,1,12,0.64,13.1,M,-47.6,M,,*48
$GNGSA,A,3,28,31,27,32,26,18,08,16,10,,,,1.48,0.64,1.34*1A
$GNGSA,A,3,83,71,70,80,85,73,,,,,,,1.48,0.64,1.34*1E
$GPGSV,5,1,17,02,06,332,26,04,10,228,,08,26,299,36,10,13,026,13*7A
$GPGSV,5,2,17,16,24,214,23,18,27,117,38,23,01,065,,26,29,182,31*7A
$GPGSV,5,3,17,27,55,267,34,28,60,099,37,31,57,163,37,32,31,008,34*7C
$GPGSV,5,4,17,36,52,277,36,40,84,353,38,41,58,082,37,49,32,274,*76
$GPGSV,5,5,17,50,10,089,*4A
$GLGSV,3,1,09,70,26,332,24,71,29,279,38,72,06,234,,73,22,166,32*61
$GLGSV,3,2,09,74,05,208,,80,15,110,29,83,36,140,35,84,69,041,23*6C
$GLGSV,3,3,09,85,26,346,33*54
$GNGLL,0419.72684,S,05539.92652,E,122843.00,A,A*67
$GNRMC,122844.00,A,0419.72690,S,05539.92649,E,0.058,,030625,,,A*79
$GNVTG,,T,,M,0.058,N,0.107,K,A*36
$GNGGA,122844.00,0419.72690,S,05539.92649,E,1,12,0.64,13.1,M,-47.6,M,,*40
$GNGSA,A,3,28,31,27,32,26,18,08,16,10,,,,1.48,0.64,1.34*1A
$GNGSA,A,3,83,71,70,80,85,73,,,,,,,1.48,0.64,1.34*1E
$GPGSV,5,1,17,02,06,332,25,04,10,228,,08,26,299,36,10,13,026,21*78
$GPGSV,5,2,17,16,24,214,25,18,27,117,40,23,01,065,,26,29,182,34*76
$GPGSV,5,3,17,27,55,267,37,28,60,099,36,31,57,163,37,32,31,008,34*7E
$GPGSV,5,4,17,36,52,277,37,40,84,353,40,41,58,082,37,49,32,274,*78
$GPGSV,5,5,17,50,10,089,*4A
$GLGSV,3,1,09,70,26,332,25,71,29,279,40,72,06,234,,73,22,166,34*69
$GLGSV,3,2,09,74,05,208,,80,15,110,19,83,36,140,32,84,69,041,22*69
$GLGSV,3,3,09,85,26,346,34*53
$GNGLL,0419.72690,S,05539.92649,E,122844.00,A,A*6F
$GNRMC,122845.00,A,0419.72695,S,05539.92647,E,0.015,,030625,,,A*7A
$GNVTG,,T,,M,0.015,N,0.028,K,A*33
$GNGGA,122845.00,0419.72695,S,05539.92647,E,1,12,0.64,13.0,M,-47.6,M,,*4B
$GNGSA,A,3,28,31,27,32,26,18,08,16,10,,,,1.48,0.64,1.34*1A
$GNGSA,A,3,83,71,70,80,85,73,,,,,,,1.48,0.64,1.34*1E
$GPGSV,5,1,17,02,06,332,25,04,10,228,,08,26,299,36,10,13,026,25*7C
$GPGSV,5,2,17,16,24,214,26,18,27,117,39,23,01,065,,26,29,182,33*7C
$GPGSV,5,3,17,27,55,267,38,28,60,099,36,31,57,163,38,32,31,008,33*79
$GPGSV,5,4,17,36,52,277,37,40,84,353,38,41,58,082,38,49,32,274,*78
$GPGSV,5,5,17,50,10,089,*4A
$GLGSV,3,1,09,70,26,332,25,71,29,279,39,72,06,234,,73,22,166,34*67
$GLGSV,3,2,09,74,05,208,,80,15,110,31,83,36,140,33,84,69,041,22*62
$GLGSV,3,3,09,85,26,346,34*53
$GNGLL,0419.72695,S,05539.92647,E,122845.00,A,A*65
$GNRMC,122846.00,A,0419.72698,S,05539.92645,E,0.003,,030625,,,A*71
$GNVTG,,T,,M,0.003,N,0.006,K,A*38
$GNGGA,122846.00,0419.72698,S,05539.92645,E,1,12,0.64,13.0,M,-47.6,M,,*47
$GNGSA,A,3,28,31,27,32,26,18,08,16,10,,,,1.48,0.64,1.34*1A
$GNGSA,A,3,83,71,70,80,85,73,,,,,,,1.48,0.64,1.34*1E
$GPGSV,5,1,17,02,06,332,24,04,10,228,,08,26,299,37,10,13,026,26*7F
$GPGSV,5,2,17,16,24,214,26,18,27,117,39,23,01,065,,26,29,182,33*7C
$GPGSV,5,3,17,27,55,267,38,28,60,099,36,31,57,163,37,32,31,008,34*71
$GPGSV,5,4,17,36,52,277,37,40,84,353,38,41,58,082,37,49,32,274,*77
$GPGSV,5,5,17,50,10,089,*4A
$GLGSV,3,1,09,70,26,332,26,71,29,279,39,72,06,234,,73,22,166,33*63
$GLGSV,3,2,09,74,05,208,,80,15,110,32,83,36,140,33,84,69,041,22*61
$GLGSV,3,3,09,85,26,346,34*53
$GNGLL,0419.72698,S,05539.92645,E,122846.00,A,A*69
$GNRMC,122847.00,A,0419.72702,S,05539.92641,E,0.028,,030625,,,A*7F
$GNVTG,,T,,M,0.028,N,0.052,K,A*30
$GNGGA,122847.00,0419.72702,S,05539.92641,E,1,12,0.64,13.0,M,-47.6,M,,*40
$GNGSA,A,3,28,31,27,32,26,18,08,16,10,,,,1.48,0.64,1.34*1A
$GNGSA,A,3,83,71,70,80,85,73,,,,,,,1.48,0.64,1.34*1E
$GPGSV,5,1,17,02,06,332,25,04,10,228,,08,26,299,37,10,13,026,26*7E
$GPGSV,5,2,17,16,24,214,27,18,27,117,39,23,01,065,,26,29,182,33*7D
$GPGSV,5,3,17,27,55,267,37,28,60,099,36,31,57,163,37,32,31,008,33*79
$GPGSV,5,4,17,36,52,277,37,40,84,353,38,41,58,082,38,49,32,274,*78
$GPGSV,5,5,17,50,10,089,*4A
$GLGSV,3,1,09,70,26,332,26,71,29,279,39,72,06,234,,73,22,166,33*63
$GLGSV,3,2,09,74,05,208,,80,15,110,32,83,36,140,33,84,69,041,22*61
$GLGSV,3,3,09,85,26,346,34*53
$GNGLL,0419.72702,S,05539.92641,E,122847.00,A,A*6E
$GNRMC,122848.00,A,0419.72706,S,05539.92640,E,0.027,,030625,,,A*7A
$GNVTG,,T,,M,0.027,N,0.050,K,A*3D
$GNGGA,122848.00,0419.72706,S,05539.92640,E,1,12,0.64,13.0,M,-47.6,M,,*4A
$GNGSA,A,3,28,31,27,32,26,18,08,16,10,,,,1.48,0.64,1.34*1A
$GNGSA,A,3,83,71,70,80,85,73,,,,,,,1.48,0.64,1.34*1E
$GPGSV,5,1,17,02,06,332,26,04,10,228,,08,26,299,37,10,13,026,24*7F
$GPGSV,5,2,17,16,24,214,27,18,27,117,39,23,01,065,,26,29,182,32*7C
$GPGSV,5,3,17,27,55,267,37,28,60,099,36,31,57,163,37,32,31,008,33*79
$GPGSV,5,4,17,36,52,277,37,40,84,353,39,41,58,082,37,49,32,274,*76
$GPGSV,5,5,17,50,10,089,*4A
$GLGSV,3,1,09,70,26,332,26,71,29,279,38,72,06,234,,73,22,166,33*62
$GLGSV,3,2,09,74,05,208,,80,15,110,31,83,36,140,33,84,69,041,21*61
$GLGSV,3,3,09,85,26,346,34*53
$GNGLL,0419.72706,S,05539.92640,E,122848.00,A,A*64
$GNRMC,122849.00,A,0419.72709,S,05539.92639,E,0.021,,030625,,,A*7C
$GNVTG,,T,,M,0.021,N,0.040,K,A*3A
$GNGGA,122849.00,0419.72709,S,05539.92639,E,1,12,0.64,12.9,M,-47.6,M,,*42
$GNGSA,A,3,28,31,27,32,26,18,08,16,10,,,,1.48,0.64,1.34*1A
$GNGSA,A,3,83,71,70,80,85,73,,,,,,,1.48,0.64,1.34*1E
$GPGSV,5,1,17,02,06,332,26,04,10,228,,08,26,299,37,10,13,026,23*78
$GPGSV,5,2,17,16,24,214,27,18,27,117,39,23,01,065,,26,29,182,32*7C
$GPGSV,5,3,17,27,55,267,37,28,60,099,36,31,57,163,37,32,31,008,33*79
$GPGSV,5,4,17,36,52,277,37,40,84,353,39,41,58,082,38,49,32,274,*79
$GPGSV,5,5,17,50,10,089,*4A
$GLGSV,3,1,09,70,26,332,26,71,29,279,38,72,06,234,,73,22,166,33*62
$GLGSV,3,2,09,74,05,208,,80,15,110,31,83,36,140,34,84,69,041,21*66
$GLGSV,3,3,09,85,26,346,34*53
$GNGLL,0419.72709,S,05539.92639,E,122849.00,A,A*64
$GNRMC,122850.00,A,0419.72711,S,05539.92637,E,0.012,,030625,,,A*73
$GNVTG,,T,,M,0.012,N,0.022,K,A*3E
$GNGGA,122850.00,0419.72711,S,05539.92637,E,1,12,0.64,12.9,M,-47.6,M,,*4D
$GNGSA,A,3,28,31,27,32,26,18,08,16,10,,,,1.48,0.64,1.34*1A
$GNGSA,A,3,83,71,70,80,85,73,,,,,,,1.48,0.64,1.34*1E
$GPGSV,5,1,17,02,06,332,26,04,10,228,,08,26,299,37,10,13,026,24*7F
$GPGSV,5,2,17,16,24,214,27,18,27,117,39,23,01,065,,26,29,182,32*7C
$GPGSV,5,3,17,27,55,267,37,28,60,099,36,31,57,163,37,32,31,008,34*7E
$GPGSV,5,4,17,36,52,277,37,40,84,353,39,41,58,082,37,49,32,274,*76
$GPGSV,5,5,17,50,10,089,*4A
$GLGSV,3,1,09,70,26,332,26,71,29,279,38,72,06,234,,73,22,166,33*62
$GLGSV,3,2,09,74,05,208,,80,15,110,31,83,36,140,34,84,69,041,21*66
$GLGSV,3,3,09,85,26,346,35*52
$GNGLL,0419.72711,S,05539.92637,E,122850.00,A,A*6B
$GNRMC,122851.00,A,0419.72714,S,05539.92636,E,0.028,,030625,,,A*7F
$GNVTG,,T,,M,0.028,N,0.052,K,A*30
$GNGGA,122851.00,0419.72714,S,05539.92636,E,1,12,0.64,12.9,M,-47.6,M,,*48
$GNGSA,A,3,28,31,27,32,26,18,08,16,10,,,,1.48,0.64,1.34*1A
$GNGSA,A,3,83,71,70,80,85,73,,,,,,,1.48,0.64,1.34*1E
$GPGSV,5,1,17,02,06,332,26,04,10,228,,08,26,299,37,10,13,026,23*78
$GPGSV,5,2,17,16,24,214,27,18,27,117,39,23,01,065,,26,29,182,32*7C
$GPGSV,5,3,17,27,55,267,37,28,60,099,36,31,57,163,37,32,31,008,33*79
$GPGSV,5,4,17,36,52,277,37,40,84,353,38,41,58,082,37,49,32,274,*77
$GPGSV,5,5,17,50,10,089,*4A
$GLGSV,3,1,09,70,26,332,26,71,29,279,38,72,06,234,,73,22,166,33*62
$GLGSV,3,2,09,74,05,208,,80,15,110,31,83,36,140,33,84,69,041,21*61
$GLGSV,3,3,09,85,26,346,34*53
$GNGLL,0419.72714,S,05539.92636,E,122851.00,A,A*6E
$GNRMC,122852.00,A,0419.72715,S,05539.92635,E,0.031,,030625,,,A*76
$GNVTG,,T,,M,0.031,N,0.057,K,A*3D
$GNGGA,122852.00,0419.72715,S,05539.92635,E,1,12,0.64,12.9,M,-47.6,M,,*49
$GNGSA,A,3,28,31,27,32,26,18,08,16,10,,,,1.48,0.64,1.34*1A
$GNGSA,A,3,83,71,70,80,85,73,,,,,,,1.48,0.64,1.34*1E
$GPGSV,5,1,17,02,06,332,26,04,10,228,,08,26,299,37,10,13,026,23*78
$GPGSV,5,2,17,16,24,214,27,18,27,117,39,23,01,065,,26,29,182,32*7C
$GPGSV,5,3,17,27,55,267,37,28,60,099,36,31,57,163,37,32,31,008,33*79
$GPGSV,5,4,17,36,52,277,37,40,84,353,38,41,58,082,37,49,32,274,*77
$GPGSV,5,5,17,50,10,089,*4A
$GLGSV,3,1,09,70,26,332,25,71,29,279,37,72,06,234,,73,22,166,32*6F
$GLGSV,3,2,09,74,05,208,,80,15,110,30,83,36,140,32,84,69,041,21*61
$GLGSV,3,3,09,85,26,346,33*54
$GNGLL,0419.72715,S,05539.92635,E,122852.00,A,A*6F
$GNRMC,122853.00,A,0419.72716,S,05539.92635,E,0.005,,030625,,,A*73
$GNVTG,,T,,M,0.005,N,0.008,K,A*30
$GNGGA,122853.00,0419.72716,S,05539.92635,E,1,12,0.64,12.9,M,-47.6,M,,*4B
$GNGSA,A,3,28,31,27,32,26,18,08,16,10,,,,1.48,0.64,1.34*1A
$GNGSA,A,3,83,71,70,80,85,73,,,,,,,1.48,0.64,1.34*1E
$GPGSV,5,1,17,02,06,332,26,04,10,228,,08,26,299,37,10,13,026,22*79
$GPGSV,5,2,17,16,24,214,27,18,27,117,39,23,01,065,,26,29,182,32*7C
$GPGSV,5,3,17,27,55,267,37,28,60,099,36,31,57,163,37,32,31,008,33*79
$GPGSV,5,4,17,36,52,277,37,40,84,353,39,41,58,082,37,49,32,274,*76
$GPGSV,5,5,17,50,10,089,*4A
$GLGSV,3,1,09,70,26,332,25,71,29,279,37,72,06,234,,73,22,166,32*6F
$GLGSV,3,2,09,74,05,208,,80,15,110,29,83,36,140,32,84,69,041,20*68
$GLGSV,3,3,09,85,26,346,33*54
$GNGLL,0419.72716,S,05539.92635,E,122853.00,A,A*6D
$GNRMC,122854.00,A,0419.72717,S,05539.92634,E,0.016,,030625,,,A*76
$GNVTG,,T,,M,0.016,N,0.029,K,A*31
$GNGGA,122854.00,0419.72717,S,05539.92634,E,1,12,0.64,12.9,M,-47.6,M,,*4C
$GNGSA,A,3,28,31,27,32,26,18,08,16,10,,,,1.48,0.64,1.34*1A
$GNGSA,A,3,83,71,70,80,85,73,,,,,,,1.48,0.64,1.34*1E
$GPGSV,5,1,17,02,06,332,25,04,10,228,,08,26,299,37,10,13,026,22*7A
$GPGSV,5,2,17,16,24,214,26,18,27,117,39,23,01,065,,26,29,182,33*7C
$GPGSV,5,3,17,27,55,267,37,28,60,099,37,31,57,163,37,32,31,008,34*7F
$GPGSV,5,4,17,36,52,277,37,40,84,353,39,41,58,082,37,49,32,274,*76
$GPGSV,5,5,17,50,10,089,*4A
$GLGSV,3,1,09,70,26,332,25,71,29,279,37,72,06,234,,73,22,166,32*6F
$GLGSV,3,2,09,74,05,208,,80,15,110,30,83,36,140,31,84,69,041,20*63
$GLGSV,3,3,09,85,26,346,33*54
$GNGLL,0419.72717,S,05539.92634,E,122854.00,A,A*6A
$GNRMC,122855.00,A,0419.72718,S,05539.92634,E,0.011,,030625,,,A*7F
$GNVTG,,T,,M,0.011,N,0.020,K,A*3F
$GNGGA,122855.00,0419.72718,S,05539.92634,E,1,12,0.64,12.9,M,-47.6,M,,*42
$GNGSA,A,3,28,31,27,32,26,18,08,16,10,,,,1.48,0.64,1.34*1A
$GNGSA,A,3,83,71,70,80,85,73,,,,,,,1.48,0.64,1.34*1E
$GPGSV,5,1,17,02,06,332,25,04,10,228,,08,26,299,37,10,13,026,24*7C
$GPGSV,5,2,17,16,24,214,26,18,27,117,39,23,01,065,,26,29,182,33*7C
$GPGSV,5,3,17,27,55,267,37,28,60,099,37,31,57,163,37,32,31,008,34*7F
$GPGSV,5,4,17,36,52,277,38,40,84,353,40,41,58,082,37,49,32,274,*77
$GPGSV,5,5,17,50,10,089,*4A
$GLGSV,3,1,09,70,26,332,26,71,29,279,38,72,06,234,,73,22,166,33*62
$GLGSV,3,2,09,74,05,208,,80,15,110,31,83,36,140,36,84,69,041,21*64
$GLGSV,3,3,09,85,26,346,34*53
$GNGLL,0419.72718,S,05539.92634,E,122855.00,A,A*64
$GNRMC,122856.00,A,0419.72721,S,05539.92632,E,0.063,,030625,,,A*75
$GNVTG,,T,,M,0.063,N,0.117,K,A*3F
$GNGGA,122856.00,0419.72721,S,05539.92632,E,1,12,0.64,12.9,M,-47.6,M,,*4D
$GNGSA,A,3,28,31,27,32,26,18,08,16,10,,,,1.48,0.64,1.34*1A
$GNGSA,A,3,83,71,70,80,85,73,,,,,,,1.48,0.64,1.34*1E
$GPGSV,5,1,17,02,06,332,24,04,10,228,,08,26,299,37,10,13,026,23*7A
$GPGSV,5,2,17,16,24,214,23,18,27,117,39,23,01,065,,26,29,182,35*7F
$GPGSV,5,3,17,27,55,267,38,28,60,099,37,31,57,163,37,32,31,008,34*70
$GPGSV,5,4,17,36,52,277,37,40,84,353,38,41,58,082,37,49,32,274,*77
$GPGSV,5,5,17,50,10,089,*4A
$GLGSV,3,1,09,70,26,332,25,71,29,279,39,72,06,234,,73,22,166,33*60
$GLGSV,3,2,09,74,06,207,,80,15,110,30,83,36,140,38,84,69,041,22*64
$GLGSV,3,3,09,85,26,346,35*52
$GNGLL,0419.72721,S,05539.92632,E,122856.00,A,A*6B
$GNRMC,122857.00,A,0419.72724,S,05539.92631,E,0.032,,030625,,,A*76
$GNVTG,,T,,M,0.032,N,0.059,K,A*30
$GNGGA,122857.00,0419.72724,S,05539.92631,E,1,12,0.64,13.0,M,-47.6,M,,*42
$GNGSA,A,3,28,31,27,32,26,18,08,16,10,,,,1.48,0.64,1.34*1A
$GNGSA,A,3,83,71,70,80,85,73,,,,,,,1.48,0.64,1.34*1E
$GPGSV,5,1,17,02,06,332,22,04,10,228,,08,26,299,37,10,13,026,22*7D
$GPGSV,5,2,17,16,24,214,22,18,27,117,40,23,01,065,,26,29,182,35*70
$GPGSV,5,3,17,27,55,267,38,28,60,099,37,31,57,163,37,32,31,008,33*77
$GPGSV,5,4,17,36,52,277,37,40,84,353,38,41,58,082,37,49,32,274,*77
$GPGSV,5,5,17,50,10,089,*4A
$GLGSV,3,1,09,70,26,332,25,71,29,279,39,72,06,234,,73,22,166,33*60
$GLGSV,3,2,09,74,06,207,,80,15,110,30,83,36,140,37,84,69,041,22*6B
$GLGSV,3,3,09,85,26,346,35*52
$GNGLL,0419.72724,S,05539.92631,E,122857.00,A,A*6C
$GNRMC,122858.00,A,0419.72726,S,05539.92630,E,0.002,,030625,,,A*79
$GNVTG,,T,,M,0.002,N,0.004,K,A*3B
$GNGGA,122858.00,0419.72726,S,05539.92630,E,1,12,0.64,13.0,M,-47.6,M,,*4E
$GNGSA,A,3,28,31,27,32,26,18,08,16,10,,,,1.48,0.64,1.34*1A
$GNGSA,A,3,83,71,70,80,85,73,,,,,,,1.48,0.64,1.34*1E
$GPGSV,5,1,17,02,06,332,21,04,10,228,,08,26,299,37,10,13,026,22*7E
$GPGSV,5,2,17,16,24,214,20,18,27,117,40,23,01,065,,26,29,182,35*72
$GPGSV,5,3,17,27,55,267,38,28,60,099,37,31,57,163,37,32,31,008,33*77
$GPGSV,5,4,17,36,52,277,37,40,84,353,38,41,58,082,37,49,32,274,*77
$GPGSV,5,5,17,50,10,089,*4A
$GLGSV,3,1,09,70,26,332,25,71,29,279,39,72,06,234,,73,22,166,33*60
$GLGSV,3,2,09,74,06,207,,80,15,110,30,83,36,140,36,84,69,041,22*6A
$GLGSV,3,3,09,85,26,346,35*52
$GNGLL,0419.72726,S,05539.92630,E,122858.00,A,A*60
$GNRMC,122859.00,A,0419.72727,S,05539.92630,E,0.013,,030625,,,A*79
$GNVTG,,T,,M,0.013,N,0.024,K,A*39
$GNGGA,122859.00,0419.72727,S,05539.92630,E,1,12,0.64,13.0,M,-47.6,M,,*4E
$GNGSA,A,3,28,31,27,32,26,18,08,16,10,,,,1.48,0.64,1.34*1A
$GNGSA,A,3,83,71,70,80,85,73,,,,,,,1.48,0.64,1.34*1E
$GPGSV,5,1,17,02,06,332,20,04,10,228,,08,26,299,37,10,13,026,23*7E
$GPGSV,5,2,17,16,24,214,19,18,27,117,39,23,01,065,,26,29,182,35*76
$GPGSV,5,3,17,27,55,267,38,28,60,099,37,31,57,163,37,32,31,008,34*70
$GPGSV,5,4,17,36,52,277,37,40,84,353,38,41,58,082,37,49,32,274,*77
$GPGSV,5,5,17,50,10,089,*4A
$GLGSV,3,1,09,70,26,332,25,71,29,279,39,72,06,234,,73,22,166,34*67
$GLGSV,3,2,09,74,06,207,,80,15,110,28,83,36,140,36,84,69,041,22*63
$GLGSV,3,3,09,85,26,346,35*52
$GNGLL,0419.72727,S,05539.92630,E,122859.00,A,A*60
$GNRMC,122900.00,A,0419.72729,S,05539.92629,E,0.025,,030625,,,A*77
$GNVTG,,T,,M,0.025,N,0.047,K,A*39
$GNGGA,122900.00,0419.72729,S,05539.92629,E,1,12,0.64,13.0,M,-47.6,M,,*45
$GNGSA,A,3,28,31,27,32,26,18,08,16,10,,,,1.48,0.64,1.34*1A
$GNGSA,A,3,83,71,70,80,85,73,,,,,,,1.48,0.64,1.34*1E
$GPGSV,5,1,17,02,06,332,20,04,10,228,,08,26,299,36,10,13,026,22*7E
$GPGSV,5,2,17,16,24,214,19,18,27,117,40,23,01,065,,26,29,182,35*78
$GPGSV,5,3,17,27,55,267,38,28,60,099,36,31,57,163,37,32,31,008,33*76
$GPGSV,5,4,17,36,52,277,37,40,84,353,38,41,58,082,38,49,32,274,*78
$GPGSV,5,5,17,50,10,089,*4A
$GLGSV,3,1,09,70,26,332,25,71,29,279,39,72,06,234,,73,22,166,34*67
$GLGSV,3,2,09,74,06,207,,80,15,110,26,83,36,140,35,84,69,041,21*6D
$GLGSV,3,3,09,85,26,346,34*53
$GNGLL,0419.72729,S,05539.92629,E,122900.00,A,A*6B
$GNRMC,122901.00,A,0419.72731,S,05539.92628,E,0.041,,030625,,,A*7C
$GNVTG,,T,,M,0.041,N,0.075,K,A*3A
$GNGGA,122901.00,0419.72731,S,05539.92628,E,1,12,0.64,12.9,M,-47.6,M,,*44
$GNGSA,A,3,28,31,27,32,26,18,08,16,10,,,,1.48,0.64,1.34*1A
$GNGSA,A,3,83,71,70,80,85,73,,,,,,,1.48,0.64,1.34*1E
$GPGSV,5,1,17,02,06,332,20,04,10,228,,08,26,299,36,10,13,026,22*7E
$GPGSV,5,2,17,16,24,214,19,18,27,117,39,23,01,065,,26,29,182,35*76
$GPGSV,5,3,17,27,55,267,38,28,60,099,37,31,57,163,37,32,31,008,33*77
$GPGSV,5,4,17,36,52,277,37,40,84,353,38,41,58,082,37,49,32,274,*77
$GPGSV,5,5,17,50,10,089,*4A
$GLGSV,3,1,09,70,26,332,25,71,29,279,39,72,06,234,,73,22,166,34*67
$GLGSV,3,2,09,74,06,207,,80,15,110,25,83,36,140,35,84,69,041,21*6E
$GLGSV,3,3,09,85,26,346,34*53
$GNGLL,0419.72731,S,05539.92628,E,122901.00,A,A*62
$GNRMC,122902.00,A,0419.72733,S,05539.92627,E,0.005,,030625,,,A*72
$GNVTG,,T,,M,0.005,N,0.010,K,A*39
$GNGGA,122902.00,0419.72733,S,05539.92627,E,1,12,0.64,13.0,M,-47.6,M,,*42
$GNGSA,A,3,28,31,27,32,26,18,08,16,10,,,,1.48,0.64,1.34*1A
$GNGSA,A,3,83,71,70,80,85,73,,,,,,,1.48,0.64,1.34*1E
$GPGSV,5,1,17,02,06,332,19,04,10,228,,08,26,299,36,10,13,026,22*74
$GPGSV,5,2,17,16,24,214,18,18,27,117,39,23,01,065,,26,29,182,35*77
$GPGSV,5,3,17,27,55,267,38,28,60,099,37,31,57,163,37,32,31,008,33*77
$GPGSV,5,4,17,36,52,277,37,40,84,353,38,41,58,082,37,49,32,274,*77
$GPGSV,5,5,17,50,10,089,*4A
$GLGSV,3,1,09,70,26,332,25,71,29,279,39,72,06,234,,73,22,166,34*67
$GLGSV,3,2,09,74,06,207,,80,15,110,26,83,36,140,35,84,69,041,21*6D
$GLGSV,3,3,09,85,26,346,34*53
$GNGLL,0419.72733,S,05539.92627,E,122902.00,A,A*6C
$GNRMC,122903.00,A,0419.72733,S,05539.92626,E,0.031,,030625,,,A*75
$GNVTG,,T,,M,0.031,N,0.058,K,A*32
$GNGGA,122903.00,0419.72733,S,05539.92626,E,1,12,0.64,13.0,M,-47.6,M,,*42
$GNGSA,A,3,28,31,27,32,26,18,08,16,10,,,,1.48,0.64,1.34*1A
$GNGSA,A,3,83,71,70,80,85,73,,,,,,,1.48,0.64,1.34*1E
$GPGSV,5,1,17,02,06,332,19,04,10,228,,08,26,299,37,10,13,026,22*75
$GPGSV,5,2,17,16,24,214,17,18,27,117,39,23,01,065,,26,29,182,35*78
$GPGSV,5,3,17,27,55,267,38,28,60,099,37,31,57,163,37,32,31,008,33*77
$GPGSV,5,4,17,36,52,277,37,40,84,353,38,41,58,082,37,49,32,274,*77
$GPGSV,5,5,17,50,10,089,*4A
$GLGSV,3,1,09,70,26,332,25,71,29,279,39,72,06,234,,73,22,166,34*67
$GLGSV,3,2,09,74,06,207,,80,15,110,26,83,36,140,35,84,69,041,22*6E
$GLGSV,3,3,09,85,26,346,34*53
$GNGLL,0419.72733,S,05539.92626,E,122903.00,A,A*6C
$GNRMC,122904.00,A,0419.72734,S,05539.92626,E,0.004,,030625,,,A*73
$GNVTG,,T,,M,0.004,N,0.007,K,A*3E
$GNGGA,122904.00,0419.72734,S,05539.92626,E,1,12,0.64,13.0,M,-47.6,M,,*42
$GNGSA,A,3,28,31,27,32,26,18,08,16,10,,,,1.48,0.64,1.34*1A
$GNGSA,A,3,83,71,70,80,85,73,,,,,,,1.48,0.64,1.34*1E
$GPGSV,5,1,17,02,06,332,20,04,10,228,,08,26,299,37,10,13,026,22*7F
$GPGSV,5,2,17,16,24,214,17,18,27,117,39,23,01,065,,26,29,182,35*78
$GPGSV,5,3,17,27,55,267,38,28,60,099,37,31,57,163,36,32,31,008,33*76
$GPGSV,5,4,17,36,52,277,37,40,84,353,38,41,58,082,36,49,32,274,*76
$GPGSV,5,5,17,50,10,089,*4A
$GLGSV,3,1,09,70,26,332,25,71,29,279,39,72,06,234,,73,22,166,33*60
$GLGSV,3,2,09,74,06,207,,80,15,110,26,83,36,140,35,84,69,041,21*6D
$GLGSV,3,3,09,85,26,346,34*53
$GNGLL,0419.72734,S,05539.92626,E,122904.00,A,A*6C
$GNRMC,122905.00,A,0419.72734,S,05539.92626,E,0.031,,030625,,,A*74
$GNVTG,,T,,M,0.031,N,0.057,K,A*3D
$GNGGA,122905.00,0419.72734,S,05539.92626,E,1,12,0.64,13.0,M,-47.6,M,,*43
$GNGSA,A,3,28,31,27,32,26,18,08,16,10,,,,1.48,0.64,1.34*1A
$GNGSA,A,3,83,71,70,80,85,73,,,,,,,1.48,0.64,1.34*1E
$GPGSV,5,1,17,02,06,332,19,04,10,228,,08,26,299,37,10,13,026,21*76
$GPGSV,5,2,17,16,24,214,18,18,27,117,39,23,01,065,,26,29,182,34*76
$GPGSV,5,3,17,27,55,267,38,28,60,099,37,31,57,163,36,32,31,008,33*76
$GPGSV,5,4,17,36,52,277,37,40,84,353,38,41,58,082,37,49,32,274,*77
$GPGSV,5,5,17,50,10,089,*4A
$GLGSV,3,1,09,70,26,332,24,71,29,279,38,72,06,234,,73,22,166,33*60
$GLGSV,3,2,09,74,06,207,,80,15,110,26,83,35,140,35,84,69,041,20*6F
$GLGSV,3,3,09,85,26,346,33*54
$GNGLL,0419.72734,S,05539.92626,E,122905.00,A,A*6D
$GNRMC,122906.00,A,0419.72735,S,05539.92625,E,0.014,,030625,,,A*72
$GNVTG,,T,,M,0.014,N,0.027,K,A*3D
$GNGGA,122906.00,0419.72735,S,05539.92625,E,1,12,0.64,13.0,M,-47.6,M,,*42
$GNGSA,A,3,28,31,27,32,26,18,08,16,10,,,,1.48,0.64,1.34*1A
$GNGSA,A,3,83,71,70,80,85,73,,,,,,,1.48,0.64,1.34*1E
$GPGSV,5,1,17,02,06,332,20,04,10,228,,08,26,299,37,10,13,026,20*7D
$GPGSV,5,2,17,16,24,214,18,18,27,117,40,23,01,065,,26,29,182,34*78
$GPGSV,5,3,17,27,55,267,38,28,60,099,37,31,57,163,37,32,31,008,33*77
$GPGSV,5,4,17,36,52,277,37,40,84,353,38,41,58,082,37,49,32,274,*77
$GPGSV,5,5,17,50,10,089,*4A
$GLGSV,3,1,09,70,26,332,25,71,29,279,39,72,06,234,,73,22,166,33*60
$GLGSV,3,2,09,74,06,207,,80,15,110,26,83,35,140,36,84,70,042,20*67
$GLGSV,3,3,09,85,26,346,34*53
$GNGLL,0419.72735,S,05539.92625,E,122906.00,A,A*6C
$GNRMC,122907.00,A,0419.72736,S,05539.92624,E,0.022,,030625,,,A*74
$GNVTG,,T,,M,0.022,N,0.041,K,A*38
$GNGGA,122907.00,0419.72736,S,05539.92624,E,1,12,0.64,13.0,M,-47.6,M,,*41
$GNGSA,A,3,28,31,27,32,26,18,08,16,10,,,,1.48,0.64,1.34*1A
$GNGSA,A,3,83,71,70,80,85,73,,,,,,,1.48,0.64,1.34*1E
$GPGSV,5,1,17,02,06,332,21,04,10,228,,08,26,299,37,10,13,026,21*7D
$GPGSV,5,2,17,16,24,214,16,18,27,117,39,23,01,065,,26,29,182,34*78
$GPGSV,5,3,17,27,55,267,38,28,60,099,37,31,57,163,37,32,31,008,32*76
$GPGSV,5,4,17,36,52,277,37,40,84,353,38,41,58,082,36,49,32,274,*76
$GPGSV,5,5,17,50,10,089,*4A
$GLGSV,3,1,09,70,26,332,25,71,29,279,39,72,06,234,,73,22,166,33*60
$GLGSV,3,2,09,74,06,207,,80,15,110,26,83,35,140,36,84,70,042,22*65
$GLGSV,3,3,09,85,26,346,34*53
$GNGLL,0419.72736,S,05539.92624,E,122907.00,A,A*6F
$GNRMC,122908.00,A,0419.72736,S,05539.92624,E,0.015,,030625,,,A*7F
$GNVTG,,T,,M,0.015,N,0.027,K,A*3C
$GNGGA,122908.00,0419.72736,S,05539.92624,E,1,12,0.64,13.0,M,-47.6,M,,*4E
$GNGSA,A,3,28,31,27,32,26,18,08,16,10,,,,1.48,0.64,1.34*1A
$GNGSA,A,3,83,71,70,80,85,73,,,,,,,1.48,0.64,1.34*1E
$GPGSV,5,1,17,02,06,332,21,04,10,228,,08,26,299,37,10,13,026,21*7D
$GPGSV,5,2,17,16,24,214,16,18,27,117,40,23,01,065,,26,29,182,35*77
$GPGSV,5,3,17,27,55,267,37,28,60,099,37,31,57,163,37,32,31,008,33*78
$GPGSV,5,4,17,36,52,277,37,40,84,353,38,41,58,082,36,49,32,274,*76
$GPGSV,5,5,17,50,10,089,*4A
$GLGSV,3,1,09,70,26,332,25,71,29,279,39,72,06,234,,73,22,166,33*60
$GLGSV,3,2,09,74,06,207,,80,15,110,26,83,35,140,36,84,70,042,22*65
$GLGSV,3,3,09,85,26,346,34*53
$GNGLL,0419.72736,S,05539.92624,E,122908.00,A,A*60
$GNRMC,122909.00,A,0419.72736,S,05539.92623,E,0.006,,030625,,,A*7B
$GNVTG,,T,,M,0.006,N,0.010,K,A*3A
$GNGGA,122909.00,0419.72736,S,05539.92623,E,1,12,0.64,13.0,M,-47.6,M,,*48
$GNGSA,A,3,28,31,27,32,26,18,08,16,10,,,,1.48,0.64,1.34*1A
$GNGSA,A,3,83,71,70,80,85,73,,,,,,,1.48,0.64,1.34*1E
$GPGSV,5,1,17,02,06,332,22,04,10,228,,08,26,299,37,10,13,026,21*7E
$GPGSV,5,2,17,16,24,214,17,18,27,117,40,23,01,065,,26,29,182,35*76
$GPGSV,5,3,17,27,55,267,38,28,60,099,37,31,57,163,37,32,31,008,33*77
$GPGSV,5,4,17,36,52,277,37,40,84,353,38,41,58,082,37,49,32,274,*77
$GPGSV,5,5,17,50,10,089,*4A
$GLGSV,3,1,09,70,26,332,26,71,29,279,39,72,06,234,,73,22,166,34*64
$GLGSV,3,2,09,74,06,207,,80,15,110,27,83,35,140,35,84,70,042,22*67
$GLGSV,3,3,09,85,26,346,34*53
$GNGLL,0419.72736,S,05539.92623,E,122909.00,A,A*66
$GNRMC,122910.00,A,0419.72737,S,05539.92622,E,0.022,,030625,,,A*75
$GNVTG,,T,,M,0.022,N,0.041,K,A*38
$GNGGA,122910.00,0419.72737,S,05539.92622,E,1,12,0.64,13.0,M,-47.6,M,,*40
$GNGSA,A,3,28,31,27,32,26,18,08,16,10,,,,1.48,0.64,1.34*1A
$GNGSA,A,3,83,71,70,80,85,73,,,,,,,1.48,0.64,1.34*1E
$GPGSV,5,1,17,02,06,332,22,04,10,228,,08,26,299,37,10,13,026,22*7D
$GPGSV,5,2,17,16,24,214,17,18,27,117,40,23,01,065,,26,29,182,35*76
$GPGSV,5,3,17,27,55,267,38,28,60,099,37,31,57,163,37,32,31,008,33*77
$GPGSV,5,4,17,36,52,277,36,40,84,353,38,41,58,082,37,49,32,274,*76
$GPGSV,5,5,17,50,10,089,*4A
$GLGSV,3,1,09,70,26,332,26,71,29,279,39,72,06,234,,73,22,166,34*64
$GLGSV,3,2,09,74,06,207,,80,15,110,28,83,35,140,35,84,70,042,21*6B
$GLGSV,3,3,09,85,26,346,34*53
$GNGLL,0419.72737,S,05539.92622,E,122910.00,A,A*6E
$GNRMC,122911.00,A,0419.72737,S,05539.92621,E,0.013,,030625,,,A*75
$GNVTG,,T,,M,0.013,N,0.024,K,A*39
$GNGGA,122911.00,0419.72737,S,05539.92621,E,1,12,0.64,13.0,M,-47.6,M,,*42
$GNGSA,A,3,28,31,27,32,26,18,08,16,10,,,,1.48,0.64,1.34*1A
$GNGSA,A,3,83,71,70,80,85,73,,,,,,,1.48,0.64,1.34*1E
$GPGSV,5,1,17,02,06,332,22,04,10,228,,08,26,299,37,10,13,026,21*7E
$GPGSV,5,2,17,16,24,214,17,18,27,117,40,23,01,065,,26,29,182,35*76
$GPGSV,5,3,17,27,55,267,38,28,60,099,37,31,57,163,37,32,31,008,33*77
$GPGSV,5,4,17,36,52,277,37,40,84,353,38,41,58,082,36,49,32,274,*76
$GPGSV,5,5,17,50,10,089,*4A
$GLGSV,3,1,09,70,26,332,26,71,29,279,39,72,06,234,,73,22,166,33*63
$GLGSV,3,2,09,74,06,207,,80,15,110,27,83,35,140,35,84,70,042,22*67
$GLGSV,3,3,09,85,26,346,34*53
$GNGLL,0419.72737,S,05539.92621,E,122911.00,A,A*6C
$GNRMC,122912.00,A,0419.72737,S,05539.92620,E,0.018,,030625,,,A*7C
$GNVTG,,T,,M,0.018,N,0.034,K,A*33
$GNGGA,122912.00,0419.72737,S,05539.92620,E,1,12,0.64,13.0,M,-47.6,M,,*40
$GNGSA,A,3,28,31,27,32,26,18,08,16,10,,,,1.48,0.64,1.34*1A
$GNGSA,A,3,83,71,70,80,85,73,,,,,,,1.48,0.64,1.34*1E
$GPGSV,5,1,17,02,06,333,23,04,10,228,,08,26,299,37,10,13,026,20*7F
$GPGSV,5,2,17,16,24,214,18,18,27,117,39,23,01,065,,26,29,182,35*77
$GPGSV,5,3,17,27,55,267,38,28,60,099,37,31,57,163,37,32,31,008,33*77
$GPGSV,5,4,17,36,52,277,37,40,84,353,38,41,58,082,36,49,32,274,*76
$GPGSV,5,5,17,50,10,089,*4A
$GLGSV,3,1,09,70,26,332,26,71,29,279,39,72,06,234,,73,22,166,33*63
$GLGSV,3,2,09,74,06,207,,80,15,110,27,83,35,140,35,84,70,042,22*67
$GLGSV,3,3,09,85,26,346,34*53
$GNGLL,0419.72737,S,05539.92620,E,122912.00,A,A*6E
$GNRMC,122913.00,A,0419.72738,S,05539.92619,E,0.010,,030625,,,A*70
$GNVTG,,T,,M,0.010,N,0.019,K,A*34
$GNGGA,122913.00,0419.72738,S,05539.92619,E,1,12,0.64,13.0,M,-47.6,M,,*44
$GNGSA,A,3,28,31,27,32,26,18,08,16,10,,,,1.48,0.64,1.34*1A
$GNGSA,A,3,83,71,70,80,85,73,,,,,,,1.48,0.64,1.34*1E
$GPGSV,5,1,17,02,06,333,23,04,10,228,,08,26,299,36,10,13,026,20*7E
$GPGSV,5,2,17,16,24,214,17,18,27,117,39,23,01,065,,26,29,182,35*78
$GPGSV,5,3,17,27,55,267,38,28,60,099,36,31,57,163,37,32,31,008,33*76
$GPGSV,5,4,17,36,52,277,37,40,84,353,38,41,58,082,37,49,32,274,*77
$GPGSV,5,5,17,50,10,089,*4A
$GLGSV,3,1,09,70,26,332,25,71,29,279,39,72,06,234,,73,22,166,34*67
$GLGSV,3,2,09,74,06,207,,80,15,110,27,83,35,140,35,84,70,042,23*66
$GLGSV,3,3,09,85,26,346,34*53
$GNGLL,0419.72738,S,05539.92619,E,122913.00,A,A*6A
$GNRMC,122914.00,A,0419.72739,S,05539.92618,E,0.030,,030625,,,A*75
$GNVTG,,T,,M,0.030,N,0.055,K,A*3E
$GNGGA,122914.00,0419.72739,S,05539.92618,E,1,12,0.64,13.0,M,-47.6,M,,*43
$GNGSA,A,3,28,31,27,32,26,18,08,16,10,,,,1.48,0.64,1.34*1A
$GNGSA,A,3,83,71,70,80,85,73,,,,,,,1.48,0.64,1.34*1E
$GPGSV,5,1,17,02,06,333,26,04,10,228,,08,26,299,36,10,13,026,18*70
$GPGSV,5,2,17,16,24,214,16,18,27,117,39,23,01,065,,26,29,182,35*79
$GPGSV,5,3,17,27,55,267,37,28,60,099,35,31,57,163,38,32,31,008,33*75
$GPGSV,5,4,17,36,52,277,37,40,84,353,38,41,58,082,37,49,32,274,*77
$GPGSV,5,5,17,50,10,089,*4A
$GLGSV,3,1,09,70,26,332,25,71,29,279,39,72,06,234,,73,22,166,34*67
$GLGSV,3,2,09,74,06,207,,80,15,110,26,83,35,140,34,84,70,042,22*67
$GLGSV,3,3,09,85,26,346,34*53
$GNGLL,0419.72739,S,05539.92618,E,122914.00,A,A*6D
$GNRMC,122915.00,A,0419.72740,S,05539.92617,E,0.023,,030625,,,A*77
$GNVTG,,T,,M,0.023,N,0.042,K,A*3A
$GNGGA,122915.00,0419.72740,S,05539.92617,E,1,12,0.64,13.0,M,-47.6,M,,*43
$GNGSA,A,3,28,31,27,32,26,18,08,16,10,,,,1.48,0.64,1.34*1A
$GNGSA,A,3,83,71,70,80,85,73,,,,,,,1.48,0.64,1.34*1E
$GPGSV,5,1,17,02,06,333,26,04,10,228,,08,26,299,36,10,13,026,18*70
$GPGSV,5,2,17,16,24,214,16,18,27,117,39,23,01,065,,26,29,182,35*79
$GPGSV,5,3,17,27,55,267,36,28,60,099,34,31,57,163,38,32,31,008,33*75
$GPGSV,5,4,17,36,52,277,37,40,84,353,39,41,58,082,38,49,32,274,*79
$GPGSV,5,5,17,50,10,089,*4A
$GLGSV,3,1,09,70,26,332,24,71,29,279,38,72,06,234,,73,22,166,33*60
$GLGSV,3,2,09,74,06,207,,80,15,110,27,83,35,140,34,84,70,042,23*67
$GLGSV,3,3,09,85,26,346,33*54
$GNGLL,0419.72740,S,05539.92617,E,122915.00,A,A*6D
$GNRMC,122916.00,A,0419.72741,S,05539.92616,E,0.027,,030625,,,A*70
$GNVTG,,T,,M,0.027,N,0.050,K,A*3D
$GNGGA,122916.00,0419.72741,S,05539.92616,E,1,12,0.64,13.1,M,-47.6,M,,*41
$GNGSA,A,3,28,31,27,32,26,18,08,16,10,,,,1.48,0.64,1.34*1A
$GNGSA,A,3,83,71,70,80,85,73,,,,,,,1.48,0.64,1.34*1E
$GPGSV,5,1,17,02,06,333,25,04,10,228,,08,26,299,35,10,13,026,15*7D
$GPGSV,5,2,17,16,24,214,17,18,27,117,40,23,01,065,,26,29,182,35*76
$GPGSV,5,3,17,27,55,267,36,28,60,099,35,31,57,163,38,32,31,008,33*74
$GPGSV,5,4,17,36,52,277,37,40,84,353,39,41,58,082,38,49,32,274,*79
$GPGSV,5,5,17,50,10,089,*4A
$GLGSV,3,1,09,70,26,332,24,71,29,279,38,72,06,234,,73,22,166,33*60
$GLGSV,3,2,09,74,06,207,,80,15,110,27,83,35,140,34,84,70,042,22*66
$GLGSV,3,3,09,85,26,346,33*54
$GNGLL,0419.72741,S,05539.92616,E,122916.00,A,A*6E
$GNRMC,122917.00,A,0419.72742,S,05539.92615,E,0.005,,030625,,,A*71
$GNVTG,,T,,M,0.005,N,0.010,K,A*39
$GNGGA,122917.00,0419.72742,S,05539.92615,E,1,12,0.64,13.1,M,-47.6,M,,*40
$GNGSA,A,3,28,31,27,32,26,18,08,16,10,,,,1.48,0.64,1.34*1A
$GNGSA,A,3,83,71,70,80,85,73,,,,,,,1.48,0.64,1.34*1E
$GPGSV,5,1,17,02,06,333,25,04,10,228,,08,26,299,36,10,13,026,15*7E
$GPGSV,5,2,17,16,24,214,18,18,27,117,40,23,01,065,,26,29,182,36*7A
$GPGSV,5,3,17,27,55,267,36,28,60,099,35,31,57,163,36,32,31,008,33*7A
$GPGSV,5,4,17,36,52,277,36,40,84,353,39,41,58,082,37,49,32,274,*77
$GPGSV,5,5,17,50,10,089,*4A
$GLGSV,3,1,09,70,26,332,24,71,29,279,38,72,06,234,,73,22,166,32*61
$GLGSV,3,2,09,74,06,207,,80,15,110,27,83,35,140,33,84,70,042,22*61
$GLGSV,3,3,09,85,26,346,33*54
$GNGLL,0419.72742,S,05539.92615,E,122917.00,A,A*6F
$GNRMC,122918.00,A,0419.72742,S,05539.92614,E,0.017,,030625,,,A*7C
$GNVTG,,T,,M,0.017,N,0.031,K,A*39
$GNGGA,122918.00,0419.72742,S,05539.92614,E,1,12,0.64,13.1,M,-47.6,M,,*4E
$GNGSA,A,3,28,31,27,32,26,18,08,16,10,,,,1.48,0.64,1.34*1A
$GNGSA,A,3,83,71,70,80,85,73,,,,,,,1.48,0.64,1.34*1E
$GPGSV,5,1,17,02,06,333,23,04,10,228,,08,26,299,36,10,13,026,16*7B
$GPGSV,5,2,17,16,24,214,19,18,27,117,40,23,01,065,,26,29,182,36*7B
$GPGSV,5,3,17,27,55,267,36,28,60,099,35,31,57,163,37,32,31,008,33*7B
$GPGSV,5,4,17,36,52,277,36,40,84,353,38,41,58,082,37,49,32,274,*76
$GPGSV,5,5,17,50,10,089,*4A
$GLGSV,3,1,09,70,26,332,24,71,29,279,38,72,06,234,,73,22,166,32*61
$GLGSV,3,2,09,74,06,207,,80,15,110,26,83,35,140,35,84,70,042,22*66
$GLGSV,3,3,09,85,26,346,34*53
$GNGLL,0419.72742,S,05539.92614,E,122918.00,A,A*61
$GNRMC,122919.00,A,0419.72743,S,05539.92613,E,0.020,,030625,,,A*7F
$GNVTG,,T,,M,0.020,N,0.037,K,A*3B
$GNGGA,122919.00,0419.72743,S,05539.92613,E,1,12,0.64,13.1,M,-47.6,M,,*49
$GNGSA,A,3,28,31,27,32,26,18,08,16,10,,,,1.48,0.64,1.34*1A
$GNGSA,A,3,83,71,70,80,85,73,,,,,,,1.48,0.64,1.34*1E
$GPGSV,5,1,17,02,06,333,22,04,10,228,,08,26,299,36,10,13,026,16*7A
$GPGSV,5,2,17,16,24,214,19,18,27,117,40,23,01,065,,26,29,182,36*7B
$GPGSV,5,3,17,27,55,267,35,28,60,099,35,31,57,163,37,32,31,008,32*79
$GPGSV,5,4,17,36,52,277,36,40,84,353,38,41,58,082,37,49,32,274,*76
$GPGSV,5,5,17,50,10,089,*4A
$GLGSV,3,1,09,70,26,332,23,71,29,279,38,72,06,234,,73,22,166,33*67
$GLGSV,3,2,09,74,06,207,,80,15,110,26,83,35,140,36,84,70,042,22*65
$GLGSV,3,3,09,85,26,346,34*53
$GNGLL,0419.72743,S,05539.92613,E,122919.00,A,A*66
$GNRMC,122920.00,A,0419.72744,S,05539.92612,E,0.015,,030625,,,A*75
$GNVTG,,T,,M,0.015,N,0.027,K,A*3C
$GNGGA,122920.00,0419.72744,S,05539.92612,E,1,12,0.64,13.2,M,-47.6,M,,*46
$GNGSA,A,3,28,31,27,32,26,18,08,16,10,,,,1.48,0.64,1.34*1A
$GNGSA,A,3,83,71,70,80,85,73,,,,,,,1.48,0.64,1.34*1E
$GPGSV,5,1,17,02,06,333,22,04,10,228,,08,26,299,36,10,13,027,17*7A
$GPGSV,5,2,17,16,24,214,18,18,27,117,40,23,01,065,,26,29,182,36*7A
$GPGSV,5,3,17,27,55,267,36,28,60,099,35,31,57,163,37,32,31,008,32*7A
$GPGSV,5,4,17,36,52,277,36,40,84,353,38,41,58,082,38,49,32,274,*79
$GPGSV,5,5,17,50,10,089,*4A
$GLGSV,3,1,09,70,26,332,23,71,29,279,38,72,06,234,,73,22,166,33*67
$GLGSV,3,2,09,74,06,207,,80,15,110,26,83,35,140,36,84,70,042,22*65
$GLGSV,3,3,09,85,26,346,34*53
$GNGLL,0419.72744,S,05539.92612,E,122920.00,A,A*6A
$GNRMC,122921.00,A,0419.72745,S,05539.92611,E,0.015,,030625,,,A*76
$GNVTG,,T,,M,0.015,N,0.027,K,A*3C
$GNGGA,122921.00,0419.72745,S,05539.92611,E,1,12,0.64,13.2,M,-47.6,M,,*45
$GNGSA,A,3,28,31,27,32,26,18,08,16,10,,,,1.48,0.64,1.34*1A
$GNGSA,A,3,83,71,70,80,85,73,,,,,,,1.48,0.64,1.34*1E
$GPGSV,5,1,17,02,06,333,22,04,10,228,,08,26,299,36,10,13,027,16*7B
$GPGSV,5,2,17,16,24,214,19,18,27,117,40,23,01,065,,26,29,182,36*7B
$GPGSV,5,3,17,27,55,267,36,28,60,099,35,31,57,163,37,32,31,008,33*7B
$GPGSV,5,4,17,36,52,277,36,40,84,353,38,41,58,082,38,49,32,274,*79
$GPGSV,5,5,17,50,10,089,*4A
$GLGSV,3,1,10,70,26,332,23,71,29,279,38,72,06,234,,73,22,166,33*6F
$GLGSV,3,2,10,74,06,207,,80,15,110,26,83,35,140,36,84,70,042,23*6C
$GLGSV,3,3,10,85,26,346,34,,,,35*5D
$GNGLL,0419.72745,S,05539.92611,E,122921.00,A,A*69
$GNRMC,122922.00,A,0419.72745,S,05539.92611,E,0.009,,030625,,,A*78
$GNVTG,,T,,M,0.009,N,0.017,K,A*32
$GNGGA,122922.00,0419.72745,S,05539.92611,E,1,12,0.64,13.2,M,-47.6,M,,*46
$GNGSA,A,3,28,31,27,32,26,18,08,16,10,,,,1.48,0.64,1.34*1A
$GNGSA,A,3,83,71,70,80,85,73,,,,,,,1.48,0.64,1.34*1E
$GPGSV,5,1,17,02,06,333,24,04,10,228,,08,26,299,37,10,13,027,16*7C
$GPGSV,5,2,17,16,24,214,20,18,27,117,41,23,01,065,,26,29,182,37*71
$GPGSV,5,3,17,27,55,267,36,28,60,099,35,31,57,163,38,32,31,008,33*74
$GPGSV,5,4,17,36,52,277,37,40,84,353,39,41,58,082,38,49,32,274,*79
$GPGSV,5,5,17,50,10,089,*4A
$GLGSV,3,1,10,70,26,332,24,71,29,279,38,72,06,234,,73,22,166,33*68
$GLGSV,3,2,10,74,06,207,,80,15,110,26,83,35,140,36,84,70,042,22*6D
$GLGSV,3,3,10,85,26,346,34,,,,34*5C
$GNGLL,0419.72745,S,05539.92611,E,122922.00,A,A*6A
$GNRMC,122923.00,A,0419.72745,S,05539.92610,E,0.021,,030625,,,A*72
$GNVTG,,T,,M,0.021,N,0.040,K,A*3A
$GNGGA,122923.00,0419.72745,S,05539.92610,E,1,12,0.64,13.2,M,-47.6,M,,*46
$GNGSA,A,3,28,31,27,32,26,18,08,16,10,,,,1.48,0.64,1.34*1A
$GNGSA,A,3,83,71,70,80,85,73,,,,,,,1.48,0.64,1.34*1E
$GPGSV,5,1,17,02,06,333,25,04,10,228,,08,26,299,37,10,13,027,16*7D
$GPGSV,5,2,17,16,24,214,20,18,27,117,41,23,01,065,,26,29,182,37*71
$GPGSV,5,3,17,27,55,267,37,28,60,099,36,31,57,163,38,32,31,008,33*76
$GPGSV,5,4,17,36,52,277,36,40,84,353,39,41,58,082,38,49,32,274,*78
$GPGSV,5,5,17,50,10,089,*4A
$GLGSV,3,1,10,70,26,332,24,71,29,279,38,72,06,234,,73,22,166,33*68
$GLGSV,3,2,10,74,06,207,,80,15,110,26,83,35,140,36,84,70,042,22*6D
$GLGSV,3,3,10,85,26,346,34,,,,34*5C
$GNGLL,0419.72745,S,05539.92610,E,122923.00,A,A*6A
$GNRMC,122924.00,A,0419.72746,S,05539.92609,E,0.022,,030625,,,A*7D
$GNVTG,,T,,M,0.022,N,0.040,K,A*39
$GNGGA,122924.00,0419.72746,S,05539.92609,E,1,12,0.64,13.2,M,-47.6,M,,*4A
$GNGSA,A,3,28,31,27,32,26,18,08,16,10,,,,1.48,0.64,1.34*1A
$GNGSA,A,3,83,71,70,80,85,73,,,,,,,1.48,0.64,1.34*1E
$GPGSV,5,1,17,02,06,333,26,04,10,228,,08,26,299,37,10,13,027,16*7E
$GPGSV,5,2,17,16,24,214,20,18,27,117,41,23,01,065,,26,29,182,37*71
$GPGSV,5,3,17,27,55,267,37,28,60,099,36,31,57,163,38,32,31,008,33*76
$GPGSV,5,4,17,36,52,277,36,40,84,353,39,41,58,082,38,49,32,274,*78
$GPGSV,5,5,17,50,10,089,*4A
$GLGSV,3,1,10,70,26,332,23,71,29,279,38,72,06,234,,73,22,166,33*6F
$GLGSV,3,2,10,74,06,207,,80,15,110,27,83,35,140,36,84,70,042,22*6C
$GLGSV,3,3,10,85,26,346,34,,,,33*5B
$GNGLL,0419.72746,S,05539.92609,E,122924.00,A,A*66
$GNRMC,122925.00,A,0419.72745,S,05539.92609,E,0.010,,030625,,,A*7E
$GNVTG,,T,,M,0.010,N,0.019,K,A*34
$GNGGA,122925.00,0419.72745,S,05539.92609,E,1,12,0.64,13.2,M,-47.6,M,,*48
$GNGSA,A,3,28,31,27,32,26,18,08,16,10,,,,1.48,0.64,1.34*1A
$GNGSA,A,3,83,71,70,80,85,73,,,,,,,1.48,0.64,1.34*1E
$GPGSV,5,1,17,02,06,333,26,04,10,228,,08,26,299,37,10,13,027,16*7E
$GPGSV,5,2,17,16,24,214,19,18,27,117,41,23,01,065,,26,29,182,37*7B
$GPGSV,5,3,17,27,55,267,37,28,60,099,35,31,57,163,38,32,31,008,33*75
$GPGSV,5,4,17,36,52,277,36,40,84,353,39,41,58,082,38,49,32,274,*78
$GPGSV,5,5,17,50,10,089,*4A
$GLGSV,3,1,10,70,26,332,24,71,29,279,38,72,06,234,,73,22,166,33*68
$GLGSV,3,2,10,74,06,207,,80,15,110,26,83,35,140,36,84,70,042,22*6D
$GLGSV,3,3,10,85,26,346,34,,,,34*5C
$GNGLL,0419.72745,S,05539.92609,E,122925.00,A,A*64
$GNRMC,122926.00,A,0419.72746,S,05539.92608,E,0.020,,030625,,,A*7C
$GNVTG,,T,,M,0.020,N,0.037,K,A*3B
$GNGGA,122926.00,0419.72746,S,05539.92608,E,1,12,0.64,13.3,M,-47.6,M,,*48
$GNGSA,A,3,28,31,27,32,26,18,08,16,10,,,,1.48,0.64,1.34*1A
$GNGSA,A,3,83,71,70,80,85,73,,,,,,,1.48,0.64,1.34*1E
$GPGSV,5,1,17,02,06,333,26,04,10,228,,08,26,299,37,10,13,027,17*7F
$GPGSV,5,2,17,16,24,213,20,18,27,117,40,23,01,065,,26,29,182,37*77
$GPGSV,5,3,17,27,55,267,37,28,60,099,35,31,57,163,38,32,31,008,33*75
$GPGSV,5,4,17,36,52,277,36,40,84,353,39,41,58,082,38,49,32,274,*78
$GPGSV,5,5,17,50,10,089,*4A
$GLGSV,3,1,10,70,26,332,24,71,29,279,38,72,06,234,,73,22,166,33*68
$GLGSV,3,2,10,74,06,207,,80,15,110,27,83,35,140,36,84,70,042,22*6C
$GLGSV,3,3,10,85,26,346,34,,,,34*5C
$GNGLL,0419.72746,S,05539.92608,E,122926.00,A,A*65
$GNRMC,122927.00,A,0419.72746,S,05539.92607,E,0.014,,030625,,,A*75
$GNVTG,,T,,M,0.014,N,0.026,K,A*3C
$GNGGA,122927.00,0419.72746,S,05539.92607,E,1,12,0.64,13.3,M,-47.6,M,,*46
$GNGSA,A,3,28,31,27,32,26,18,08,16,10,,,,1.48,0.64,1.34*1A
$GNGSA,A,3,83,71,70,80,85,73,,,,,,,1.48,0.64,1.34*1E
$GPGSV,5,1,17,02,06,333,26,04,10,228,,08,26,299,37,10,13,027,17*7F
$GPGSV,5,2,17,16,24,213,20,18,27,117,40,23,01,065,,26,29,182,37*77
$GPGSV,5,3,17,27,55,267,37,28,60,099,35,31,57,163,38,32,31,008,33*75
$GPGSV,5,4,17,36,52,277,37,40,84,353,39,41,58,082,38,49,32,274,*79
$GPGSV,5,5,17,50,10,089,*4A
$GLGSV,3,1,10,70,26,332,24,71,29,279,38,72,06,234,,73,22,166,33*68
$GLGSV,3,2,10,74,06,207,,80,15,110,27,83,35,140,36,84,70,042,23*6D
$GLGSV,3,3,10,85,26,346,34,,,,34*5C
$GNGLL,0419.72746,S,05539.92607,E,122927.00,A,A*6B
$GNRMC,122928.00,A,0419.72746,S,05539.92606,E,0.036,,030625,,,A*7B
$GNVTG,,T,,M,0.036,N,0.066,K,A*38
$GNGGA,122928.00,0419.72746,S,05539.92606,E,1,12,0.64,13.4,M,-47.6,M,,*4F
$GNGSA,A,3,28,31,27,32,26,18,08,16,10,,,,1.48,0.64,1.34*1A
$GNGSA,A,3,83,71,70,80,85,73,,,,,,,1.48,0.64,1.34*1E
$GPGSV,5,1,17,02,06,333,26,04,10,228,,08,26,299,37,10,13,027,17*7F
$GPGSV,5,2,17,16,24,213,20,18,27,117,40,23,01,065,,26,29,182,37*77
$GPGSV,5,3,17,27,55,267,37,28,60,099,35,31,57,163,38,32,31,008,33*75
$GPGSV,5,4,17,36,52,277,36,40,84,353,39,41,58,082,38,49,32,274,*78
$GPGSV,5,5,17,50,10,089,*4A
$GLGSV,3,1,10,70,26,332,24,71,29,279,38,72,06,234,,73,22,166,33*68
$GLGSV,3,2,10,74,06,207,,80,15,110,27,83,35,140,36,84,70,042,23*6D
$GLGSV,3,3,10,85,26,346,34,,,,33*5B
$GNGLL,0419.72746,S,05539.92606,E,122928.00,A,A*65
$GNRMC,122929.00,A,0419.72745,S,05539.92606,E,0.012,,030625,,,A*7F
$GNVTG,,T,,M,0.012,N,0.022,K,A*3E
$GNGGA,122929.00,0419.72745,S,05539.92606,E,1,12,0.64,13.4,M,-47.6,M,,*4D
$GNGSA,A,3,28,31,27,32,26,18,08,16,10,,,,1.48,0.64,1.34*1A
$GNGSA,A,3,83,71,70,80,85,73,,,,,,,1.48,0.64,1.34*1E
$GPGSV,5,1,17,02,06,333,26,04,10,228,,08,26,299,37,10,13,027,18*70
$GPGSV,5,2,17,16,24,213,19,18,27,117,40,23,01,065,,26,29,182,37*7D
$GPGSV,5,3,17,27,55,267,37,28,60,099,36,31,57,163,38,32,31,008,33*76
$GPGSV,5,4,17,36,52,277,37,40,84,353,39,41,58,082,38,49,32,274,*79
$GPGSV,5,5,17,50,10,089,*4A
$GLGSV,3,1,10,70,26,332,24,71,29,279,38,72,06,234,,73,22,166,33*68
$GLGSV,3,2,10,74,06,207,,80,15,110,27,83,35,140,36,84,70,042,24*6A
$GLGSV,3,3,10,85,26,346,34,,,,34*5C
$GNGLL,0419.72745,S,05539.92606,E,122929.00,A,A*67
$GNRMC,122930.00,A,0419.72745,S,05539.92606,E,0.007,,030625,,,A*73
$GNVTG,,T,,M,0.007,N,0.013,K,A*38
$GNGGA,122930.00,0419.72745,S,05539.92606,E,1,12,0.64,13.4,M,-47.6,M,,*45
$GNGSA,A,3,28,31,27,32,26,18,08,16,10,,,,1.48,0.64,1.34*1A
$GNGSA,A,3,83,71,70,80,85,73,,,,,,,1.48,0.64,1.34*1E
$GPGSV,5,1,17,02,06,333,26,04,10,228,,08,26,299,37,10,13,027,18*70
$GPGSV,5,2,17,16,24,213,20,18,27,117,40,23,01,065,,26,29,182,37*77
$GPGSV,5,3,17,27,55,267,37,28,60,099,35,31,57,163,38,32,31,008,34*72
$GPGSV,5,4,17,36,52,277,37,40,84,353,39,41,58,082,38,49,32,274,*79
$GPGSV,5,5,17,50,10,089,*4A
$GLGSV,3,1,10,70,26,332,24,71,29,279,38,72,06,234,,73,22,166,33*68
$GLGSV,3,2,10,74,06,207,,80,15,110,27,83,35,140,36,84,70,042,24*6A
$GLGSV,3,3,10,85,26,346,34,,,,34*5C
$GNGLL,0419.72745,S,05539.92606,E,122930.00,A,A*6F
$GNRMC,122931.00,A,0419.72745,S,05539.92606,E,0.019,,030625,,,A*7D
$GNVTG,,T,,M,0.019,N,0.035,K,A*33
$GNGGA,122931.00,0419.72745,S,05539.92606,E,1,12,0.64,13.5,M,-47.6,M,,*45
$GNGSA,A,3,28,31,27,32,26,18,08,16,10,,,,1.48,0.64,1.34*1A
$GNGSA,A,3,83,71,70,80,85,73,,,,,,,1.48,0.64,1.34*1E
$GPGSV,5,1,17,02,06,333,26,04,10,228,,08,26,299,37,10,13,027,18*70
$GPGSV,5,2,17,16,24,213,19,18,27,117,40,23,01,065,,26,29,182,36*7C
$GPGSV,5,3,17,27,55,267,36,28,60,099,36,31,57,163,39,32,31,008,33*76
$GPGSV,5,4,17,36,52,277,37,40,84,353,39,41,58,082,38,49,32,274,*79
$GPGSV,5,5,17,50,10,089,*4A
$GLGSV,3,1,10,70,26,332,24,71,29,279,38,72,06,234,,73,22,166,33*68
$GLGSV,3,2,10,74,06,207,,80,15,110,28,83,35,140,36,84,70,042,24*65
$GLGSV,3,3,10,85,26,346,34,,,,33*5B
$GNGLL,0419.72745,S,05539.92606,E,122931.00,A,A*6E
$GNRMC,122932.00,A,0419.72745,S,05539.92606,E,0.022,,030625,,,A*76
$GNVTG,,T,,M,0.022,N,0.040,K,A*39
$GNGGA,122932.00,0419.72745,S,05539.92606,E,1,12,0.64,13.5,M,-47.6,M,,*46
$GNGSA,A,3,28,31,27,32,26,18,08,16,10,,,,1.48,0.64,1.34*1A
$GNGSA,A,3,83,71,70,80,85,73,,,,,,,1.48,0.64,1.34*1E
$GPGSV,5,1,17,02,06,333,26,04,10,228,,08,26,299,38,10,13,027,23*77
$GPGSV,5,2,17,16,24,213,19,18,27,117,41,23,01,065,,26,29,182,34*7F
$GPGSV,5,3,17,27,55,267,33,28,60,099,38,31,57,163,38,32,31,008,34*7B
$GPGSV,5,4,17,36,52,277,36,40,84,353,39,41,58,082,38,49,32,274,*78
$GPGSV,5,5,17,50,10,089,*4A
$GLGSV,3,1,10,70,26,332,24,71,29,279,38,72,06,234,,73,22,166,34*6F
$GLGSV,3,2,10,74,06,207,,80,15,110,27,83,35,140,33,84,70,042,23*68
$GLGSV,3,3,10,85,26,346,34,,,,34*5C
$GNGLL,0419.72745,S,05539.92606,E,122932.00,A,A*6D
$GNRMC,122933.00,A,0419.72745,S,05539.92606,E,0.022,,030625,,,A*77
$GNVTG,,T,,M,0.022,N,0.040,K,A*39
$GNGGA,122933.00,0419.72745,S,05539.92606,E,1,12,0.64,13.5,M,-47.6,M,,*47
$GNGSA,A,3,28,31,27,32,26,18,08,16,10,,,,1.48,0.64,1.34*1A
$GNGSA,A,3,83,71,70,80,85,73,,,,,,,1.48,0.64,1.34*1E
$GPGSV,5,1,17,02,06,333,27,04,10,228,,08,26,299,38,10,13,027,22*77
$GPGSV,5,2,17,16,24,213,19,18,27,117,40,23,01,065,,26,29,182,33*79
$GPGSV,5,3,17,27,55,267,31,28,60,099,37,31,57,163,35,32,31,008,33*7C
$GPGSV,5,4,17,36,52,277,34,40,84,353,38,41,58,082,37,49,32,274,*74
$GPGSV,5,5,17,50,10,089,*4A
$GLGSV,3,1,10,70,26,332,23,71,29,279,37,72,06,234,,73,22,166,34*67
$GLGSV,3,2,10,74,06,207,,80,15,110,27,83,35,140,35,84,70,042,23*6E
$GLGSV,3,3,10,85,26,346,35,,,,34*5D
$GNGLL,0419.72745,S,05539.92606,E,122933.00,A,A*6C
$GNRMC,122934.00,A,0419.72745,S,05539.92605,E,0.049,,030625,,,A*7E
$GNVTG,,T,,M,0.049,N,0.090,K,A*39
$GNGGA,122934.00,0419.72745,S,05539.92605,E,1,12,0.64,13.5,M,-47.6,M,,*43
$GNGSA,A,3,28,31,27,32,26,18,08,16,10,,,,1.48,0.64,1.34*1A
$GNGSA,A,3,83,71,70,80,85,73,,,,,,,1.48,0.64,1.34*1E
$GPGSV,5,1,17,02,06,333,26,04,10,228,,08,26,299,38,10,13,027,20*74
$GPGSV,5,2,17,16,24,213,18,18,27,117,40,23,01,065,,26,29,182,33*78
$GPGSV,5,3,17,27,55,267,31,28,60,099,37,31,57,163,35,32,31,008,36*79
$GPGSV,5,4,17,36,52,277,34,40,84,353,38,41,58,082,38,49,32,274,*7B
$GPGSV,5,5,17,50,10,089,*4A
$GLGSV,3,1,10,70,26,332,23,71,29,279,37,72,06,234,,73,22,166,34*67
$GLGSV,3,2,10,74,06,207,,80,15,110,26,83,35,140,34,84,70,042,22*6F
$GLGSV,3,3,10,85,26,346,34,,,,34*5C
$GNGLL,0419.72745,S,05539.92605,E,122934.00,A,A*68
$GNRMC,122935.00,A,0419.72744,S,05539.92606,E,0.026,,030625,,,A*74
$GNVTG,,T,,M,0.026,N,0.049,K,A*34
$GNGGA,122935.00,0419.72744,S,05539.92606,E,1,12,0.64,13.4,M,-47.6,M,,*41
$GNGSA,A,3,28,31,27,32,26,18,08,16,10,,,,1.48,0.64,1.34*1A
$GNGSA,A,3,83,71,70,80,85,73,,,,,,,1.48,0.64,1.34*1E
$GPGSV,5,1,17,02,06,333,26,04,10,228,,08,26,299,37,10,13,027,22*79
$GPGSV,5,2,17,16,24,213,19,18,27,117,40,23,01,065,,26,29,182,34*7E
$GPGSV,5,3,17,27,55,267,35,28,60,099,35,31,57,163,38,32,31,008,35*71
$GPGSV,5,4,17,36,52,277,37,40,84,353,40,41,58,082,36,49,32,274,*79
$GPGSV,5,5,17,50,10,089,*4A
$GLGSV,3,1,10,70,26,332,22,71,29,279,37,72,06,234,,73,22,166,33*61
$GLGSV,3,2,10,74,06,207,,80,15,110,27,83,35,140,34,84,70,042,22*6E
$GLGSV,3,3,10,85,26,346,34,,,,34*5C
$GNGLL,0419.72744,S,05539.92606,E,122935.00,A,A*6B
$GNRMC,122936.00,A,0419.72742,S,05539.92607,E,0.024,,030625,,,A*72
$GNVTG,,T,,M,0.024,N,0.045,K,A*3A
$GNGGA,122936.00,0419.72742,S,05539.92607,E,1,12,0.64,13.5,M,-47.6,M,,*44
$GNGSA,A,3,28,31,27,32,26,18,08,16,10,,,,1.48,0.64,1.34*1A
$GNGSA,A,3,83,71,70,80,85,73,,,,,,,1.48,0.64,1.34*1E
$GPGSV,5,1,17,02,06,333,24,04,10,228,,08,26,299,38,10,13,027,25*73
$GPGSV,5,2,17,16,24,213,17,18,27,117,40,23,01,065,,26,29,182,35*71
$GPGSV,5,3,17,27,55,266,36,28,60,099,35,31,57,163,39,32,31,008,35*72
$GPGSV,5,4,17,36,52,277,36,40,84,353,38,41,58,082,38,49,32,274,*79
$GPGSV,5,5,17,50,10,089,*4A
$GLGSV,3,1,10,70,26,332,22,71,29,279,37,72,06,234,,73,22,166,32*60
$GLGSV,3,2,10,74,06,207,,80,15,110,26,83,35,140,34,84,70,042,22*6F
$GLGSV,3,3,10,85,26,346,34,,,,34*5C
$GNGLL,0419.72742,S,05539.92607,E,122936.00,A,A*6F
$GNRMC,122937.00,A,0419.72741,S,05539.92608,E,0.023,,030625,,,A*78
$GNVTG,,T,,M,0.023,N,0.043,K,A*3B
$GNGGA,122937.00,0419.72741,S,05539.92608,E,1,12,0.64,13.5,M,-47.6,M,,*49
$GNGSA,A,3,28,31,27,32,26,18,08,16,10,,,,1.48,0.64,1.34*1A
$GNGSA,A,3,83,71,70,80,85,73,,,,,,,1.48,0.64,1.34*1E
$GPGSV,5,1,17,02,06,333,23,04,10,228,,08,26,299,38,10,13,027,27*76
$GPGSV,5,2,17,16,24,213,15,18,27,117,40,23,01,065,,26,29,182,35*73
$GPGSV,5,3,17,27,55,266,36,28,60,098,36,31,57,163,39,32,31,008,35*70
$GPGSV,5,4,17,36,52,277,36,40,84,353,38,41,58,082,38,49,32,274,*79
$GPGSV,5,5,17,50,10,089,*4A
$GLGSV,3,1,10,70,26,332,22,71,29,279,37,72,06,234,,73,22,166,32*60
$GLGSV,3,2,10,74,06,207,,80,15,110,27,83,35,140,35,84,70,042,22*6F
$GLGSV,3,3,10,85,26,346,34,,,,35*5D
$GNGLL,0419.72741,S,05539.92608,E,122937.00,A,A*62
$GNRMC,122938.00,A,0419.72740,S,05539.92609,E,0.014,,030625,,,A*73
$GNVTG,,T,,M,0.014,N,0.026,K,A*3C
$GNGGA,122938.00,0419.72740,S,05539.92609,E,1,12,0.64,13.4,M,-47.6,M,,*47
$GNGSA,A,3,28,31,27,32,26,18,08,16,10,,,,1.48,0.64,1.34*1A
$GNGSA,A,3,83,71,70,80,85,73,,,,,,,1.48,0.64,1.34*1E
$GPGSV,5,1,17,02,06,333,23,04,10,228,,08,26,299,38,10,13,027,26*77
$GPGSV,5,2,17,16,24,213,13,18,27,117,40,23,01,065,,26,29,182,35*75
$GPGSV,5,3,17,27,55,266,37,28,60,098,36,31,57,163,39,32,31,008,35*71
$GPGSV,5,4,17,36,52,277,36,40,84,353,38,41,58,082,38,49,32,274,*79
$GPGSV,5,5,17,50,10,089,*4A
$GLGSV,3,1,10,70,26,332,22,71,29,279,37,72,06,234,,73,22,166,32*60
$GLGSV,3,2,10,74,06,207,,80,15,110,26,83,35,140,35,84,70,042,22*6E
$GLGSV,3,3,10,85,26,346,35,,,,34*5D
$GNGLL,0419.72740,S,05539.92609,E,122938.00,A,A*6D
$GNRMC,122939.00,A,0419.72739,S,05539.92610,E,0.007,,030625,,,A*76
$GNVTG,,T,,M,0.007,N,0.013,K,A*38
$GNGGA,122939.00,0419.72739,S,05539.92610,E,1,12,0.64,13.4,M,-47.6,M,,*40
$GNGSA,A,3,28,31,27,32,26,18,08,16,10,,,,1.48,0.64,1.34*1A
$GNGSA,A,3,83,71,70,80,85,73,,,,,,,1.48,0.64,1.34*1E
$GPGSV,5,1,17,02,06,333,23,04,10,228,,08,26,299,36,10,13,027,25*7A
$GPGSV,5,2,17,16,24,213,17,18,27,117,39,23,01,065,,26,29,182,34*7E
$GPGSV,5,3,17,27,55,266,36,28,60,098,36,31,57,163,39,32,31,008,34*71
$GPGSV,5,4,17,36,52,277,37,40,84,353,39,41,58,082,38,49,32,274,*79
$GPGSV,5,5,17,50,10,089,*4A
$GLGSV,3,1,10,70,26,332,22,71,29,279,37,72,06,234,,73,22,166,32*60
$GLGSV,3,2,10,74,06,207,,80,15,110,26,83,35,140,34,84,70,042,22*6F
$GLGSV,3,3,10,85,26,346,34,,,,34*5C
$GNGLL,0419.72739,S,05539.92610,E,122939.00,A,A*6A
$GNRMC,122940.00,A,0419.72737,S,05539.92611,E,0.016,,030625,,,A*77
$GNVTG,,T,,M,0.016,N,0.029,K,A*31
$GNGGA,122940.00,0419.72737,S,05539.92611,E,1,12,0.64,13.4,M,-47.6,M,,*41
$GNGSA,A,3,28,31,27,32,26,18,08,16,10,,,,1.48,0.64,1.34*1A
$GNGSA,A,3,83,71,70,80,85,73,,,,,,,1.48,0.64,1.34*1E
$GPGSV,5,1,17,02,06,333,23,04,10,228,,08,26,299,36,10,13,027,30*7E
$GPGSV,5,2,17,16,24,213,17,18,27,117,35,23,01,065,,26,29,182,30*76
$GPGSV,5,3,17,27,55,266,36,28,60,098,33,31,57,163,32,32,31,008,35*7E
$GPGSV,5,4,17,36,52,277,34,40,84,353,41,41,58,082,37,49,32,274,*7A
$GPGSV,5,5,17,50,10,089,*4A
$GLGSV,3,1,10,70,26,332,22,71,29,279,37,72,06,234,,73,22,166,26*65
$GLGSV,3,2,10,74,06,207,,80,15,110,26,83,35,140,34,84,70,042,21*6C
$GLGSV,3,3,10,85,26,346,34,,,,34*5C
$GNGLL,0419.72737,S,05539.92611,E,122940.00,A,A*6B
