$GNRMC,074357.00,A,0419.82876,S,05539.90813,E,0.089,,280525,,,A*7E
$GNVTG,,T,,M,0.089,N,0.165,K,A*3E
$GNGGA,074357.00,0419.82876,S,05539.90813,E,1,12,0.86,16.6,M,-47.6,M,,*4F
$GNGSA,A,3,25,23,12,15,18,24,29,05,13,10,,,1.57,0.86,1.32*12
$GNGSA,A,3,73,69,,,,,,,,,,,1.57,0.86,1.32*1A
$GPGSV,5,1,17,05,07,028,19,10,35,226,30,12,47,151,31,13,07,072,25*79
$GPGSV,5,2,17,15,43,087,31,18,22,329,25,23,70,278,29,24,19,147,17*7A
$GPGSV,5,3,17,25,78,209,32,28,12,259,,29,30,015,25,32,06,213,*70
$GPGSV,5,4,17,36,52,277,,40,85,352,,41,58,082,30,49,32,274,*7F
$GPGSV,5,5,17,50,10,089,*4A
$GLGSV,3,1,10,69,31,055,24,70,56,153,,71,19,193,09,73,49,205,18*65
$GLGSV,3,2,10,74,45,281,24,75,06,318,,80,09,161,,84,05,008,*62
$GLGSV,3,3,10,85,01,322,,,,,32*5A
$GNGLL,0419.82876,S,05539.90813,E,074357.00,A,A*6E
$GNRMC,074358.00,A,0419.82866,S,05539.90807,E,0.401,,280525,,,A*71
$GNVTG,,T,,M,0.401,N,0.743,K,A*38
$GNGGA,074358.00,0419.82866,S,05539.90807,E,1,12,0.86,16.8,M,-47.6,M,,*4A
$GNGSA,A,3,25,23,12,15,18,24,29,05,13,10,,,1.57,0.86,1.32*12
$GNGSA,A,3,73,69,,,,,,,,,,,1.57,0.86,1.32*1A
$GPGSV,5,1,17,05,07,028,18,10,35,226,24,12,47,151,29,13,07,072,22*73
$GPGSV,5,2,17,15,43,087,27,18,22,329,23,23,70,278,27,24,19,147,17*75
$GPGSV,5,3,17,25,78,207,27,28,12,259,,29,30,015,23,32,06,213,*7C
$GPGSV,5,4,17,36,52,277,,40,85,352,,41,58,082,28,49,32,274,*76
$GPGSV,5,5,17,50,10,089,*4A
$GLGSV,3,1,10,69,31,055,23,70,56,153,,71,19,193,08,73,49,205,20*68
$GLGSV,3,2,10,74,45,281,22,75,06,318,,80,09,161,,84,05,008,*64
$GLGSV,3,3,10,85,01,322,,,,,26*5F
$GNGLL,0419.82866,S,05539.90807,E,074358.00,A,A*65
$GNRMC,074359.00,A,0419.82849,S,05539.90811,E,0.060,,280525,,,A*79
$GNVTG,,T,,M,0.060,N,0.111,K,A*3A
$GNGGA,074359.00,0419.82849,S,05539.90811,E,1,11,0.87,16.9,M,-47.6,M,,*42
$GNGSA,A,3,25,23,12,15,18,24,29,13,10,,,,1.66,0.87,1.41*10
$GNGSA,A,3,73,69,,,,,,,,,,,1.66,0.87,1.41*1D
$GPGSV,5,1,18,05,07,028,,10,35,226,31,12,47,151,36,13,07,072,22*7F
$GPGSV,5,2,18,15,43,087,36,18,22,329,25,23,70,278,32,24,19,147,18*77
$GPGSV,5,3,18,25,78,207,36,26,00,318,,28,12,259,,29,30,015,30*78
$GPGSV,5,4,18,32,06,213,,36,52,277,,40,85,352,,41,58,082,33*79
$GPGSV,5,5,18,49,32,274,,50,10,089,*78
$GLGSV,3,1,10,69,31,055,21,70,56,153,,71,19,193,08,73,49,205,21*6B
$GLGSV,3,2,10,74,45,281,22,75,06,318,,80,09,161,,84,05,008,*64
$GLGSV,3,3,10,85,01,322,,,,,32*5A
$GNGLL,0419.82849,S,05539.90811,E,074359.00,A,A*6E
$GNRMC,074400.00,A,0419.82843,S,05539.90815,E,0.031,,280525,,,A*78
$GNVTG,,T,,M,0.031,N,0.058,K,A*32
$GNGGA,074400.00,0419.82843,S,05539.90815,E,1,11,0.87,17.0,M,-47.6,M,,*4F
$GNGSA,A,3,25,23,12,15,18,24,29,13,10,,,,1.66,0.87,1.41*10
$GNGSA,A,3,73,69,,,,,,,,,,,1.66,0.87,1.41*1D
$GPGSV,5,1,18,05,07,028,17,10,35,226,33,12,47,151,38,13,07,072,22*75
$GPGSV,5,2,18,15,43,087,32,18,22,329,25,23,70,278,31,24,19,147,20*7B
$GPGSV,5,3,18,25,78,207,28,26,00,318,,28,12,259,,29,30,015,29*7F
$GPGSV,5,4,18,32,06,213,,36,52,277,,40,85,352,,41,58,082,33*79
$GPGSV,5,5,18,49,32,274,,50,10,089,*78
$GLGSV,3,1,10,69,31,055,23,70,56,153,,71,19,193,,73,49,205,30*61
$GLGSV,3,2,10,74,45,281,24,75,06,318,,80,09,161,,84,05,008,*62
$GLGSV,3,3,10,85,01,322,,,,,33*5B
$GNGLL,0419.82843,S,05539.90815,E,074400.00,A,A*6B
$GNRMC,074401.00,A,0419.82840,S,05539.90825,E,0.080,,280525,,,A*73
$GNVTG,,T,,M,0.080,N,0.148,K,A*38
$GNGGA,074401.00,0419.82840,S,05539.90825,E,1,11,0.87,17.2,M,-47.6,M,,*4C
$GNGSA,A,3,25,23,12,15,18,24,29,13,10,,,,1.66,0.87,1.41*10
$GNGSA,A,3,73,69,,,,,,,,,,,1.66,0.87,1.41*1D
$GPGSV,5,1,18,05,07,028,21,10,35,226,35,12,47,151,36,13,07,072,30*7B
$GPGSV,5,2,18,15,43,087,28,18,22,329,25,23,70,278,26,24,19,147,22*74
$GPGSV,5,3,18,25,78,207,27,26,00,318,,28,12,258,,29,30,015,20*78
$GPGSV,5,4,18,32,06,213,,36,52,277,,40,85,352,,41,58,082,27*7C
$GPGSV,5,5,18,49,32,274,,50,10,089,*78
$GLGSV,3,1,10,69,31,055,22,70,56,153,,71,19,193,,73,49,205,28*69
$GLGSV,3,2,10,74,45,281,22,75,06,318,,80,09,161,,84,05,008,*64
$GLGSV,3,3,10,85,01,322,,,,,29*50
$GNGLL,0419.82840,S,05539.90825,E,074401.00,A,A*6A
$GNRMC,074402.00,A,0419.82841,S,05539.90827,E,0.150,,280525,,,A*7F
$GNVTG,,T,,M,0.150,N,0.277,K,A*3B
$GNGGA,074402.00,0419.82841,S,05539.90827,E,1,11,0.87,17.1,M,-47.6,M,,*4F
$GNGSA,A,3,25,23,12,15,18,24,29,13,10,,,,1.66,0.87,1.41*10
$GNGSA,A,3,73,69,,,,,,,,,,,1.66,0.87,1.41*1D
$GPGSV,5,1,18,05,07,028,20,10,35,226,30,12,47,151,34,13,07,072,29*75
$GPGSV,5,2,18,15,43,087,30,18,22,329,24,23,70,278,28,24,19,147,22*72
$GPGSV,5,3,18,25,78,207,32,26,00,318,,28,12,258,,29,31,016,22*7C
$GPGSV,5,4,18,32,06,213,,36,52,277,,40,85,352,,41,58,082,27*7C
$GPGSV,5,5,18,49,32,274,,50,10,089,*78
$GLGSV,3,1,10,69,31,055,24,70,56,153,,71,19,193,,73,49,205,32*64
$GLGSV,3,2,10,74,45,281,22,75,06,318,,80,09,161,,84,05,008,*64
$GLGSV,3,3,10,85,01,322,,,,,34*5C
$GNGLL,0419.82841,S,05539.90827,E,074402.00,A,A*6A
$GNRMC,074403.00,A,0419.82839,S,05539.90836,E,0.090,,280525,,,A*7C
$GNVTG,,T,,M,0.090,N,0.167,K,A*34
$GNGGA,074403.00,0419.82839,S,05539.90836,E,1,12,0.86,17.4,M,-47.6,M,,*46
$GNGSA,A,3,25,23,12,15,18,24,29,05,13,10,,,1.57,0.86,1.32*12
$GNGSA,A,3,73,69,,,,,,,,,,,1.57,0.86,1.32*1A
$GPGSV,5,1,18,05,07,028,20,10,35,226,29,12,47,151,34,13,07,072,29*7D
$GPGSV,5,2,18,15,43,087,31,18,22,329,24,23,70,278,28,24,19,147,20*71
$GPGSV,5,3,18,25,78,207,33,26,00,318,,28,12,258,,29,31,016,23*7C
$GPGSV,5,4,18,32,06,213,,36,52,277,,40,85,352,,41,58,082,28*73
$GPGSV,5,5,18,49,32,274,,50,10,089,*78
$GLGSV,3,1,10,69,31,055,26,70,56,153,,71,19,193,,73,49,205,32*66
$GLGSV,3,2,10,74,45,281,20,75,06,318,,80,09,161,,84,05,008,*66
$GLGSV,3,3,10,85,01,322,,,,,33*5B
$GNGLL,0419.82839,S,05539.90836,E,074403.00,A,A*64
$GNRMC,074404.00,A,0419.82838,S,05539.90844,E,0.086,,280525,,,A*78
$GNVTG,,T,,M,0.086,N,0.159,K,A*3E
$GNGGA,074404.00,0419.82838,S,05539.90844,E,1,12,0.86,17.8,M,-47.6,M,,*49
$GNGSA,A,3,25,23,12,15,18,24,29,05,13,10,,,1.57,0.86,1.32*12
$GNGSA,A,3,73,69,,,,,,,,,,,1.57,0.86,1.32*1A
$GPGSV,5,1,18,05,07,028,20,10,35,226,30,12,47,151,33,13,07,072,29*72
$GPGSV,5,2,18,15,43,087,30,18,22,329,25,23,70,278,27,24,19,147,18*75
$GPGSV,5,3,18,25,78,207,33,26,00,318,,28,12,258,,29,31,016,23*7C
$GPGSV,5,4,18,32,06,213,,36,52,277,,40,85,352,,41,58,082,28*73
$GPGSV,5,5,18,49,32,274,,50,10,089,*78
$GLGSV,3,1,10,69,31,055,26,70,56,153,,71,19,193,20,73,49,205,31*67
$GLGSV,3,2,10,74,45,281,19,75,06,318,,80,09,161,,84,05,008,*6C
$GLGSV,3,3,10,85,01,322,,,,,35*5D
$GNGLL,0419.82838,S,05539.90844,E,074404.00,A,A*67
$GNRMC,074405.00,A,0419.82836,S,05539.90846,E,0.084,,280525,,,A*77
$GNVTG,,T,,M,0.084,N,0.156,K,A*33
$GNGGA,074405.00,0419.82836,S,05539.90846,E,1,12,0.86,17.8,M,-47.6,M,,*44
$GNGSA,A,3,25,23,12,15,18,24,29,05,13,10,,,1.57,0.86,1.32*12
$GNGSA,A,3,73,69,,,,,,,,,,,1.57,0.86,1.32*1A
$GPGSV,5,1,18,05,07,028,20,10,35,226,29,12,47,151,33,13,07,072,29*7A
$GPGSV,5,2,18,15,43,087,30,18,22,329,24,23,70,278,28,24,19,147,16*75
$GPGSV,5,3,18,25,78,207,30,26,00,318,,28,12,258,,29,31,016,21*7D
$GPGSV,5,4,18,32,07,213,,36,52,277,,40,85,352,,41,58,082,28*72
$GPGSV,5,5,18,49,32,274,,50,10,089,*78
$GLGSV,3,1,10,69,31,055,25,70,56,153,,71,19,193,19,73,49,205,30*6F
$GLGSV,3,2,10,74,45,281,18,75,06,318,,80,09,161,,84,05,008,*6D
$GLGSV,3,3,10,85,01,322,,,,,31*59
$GNGLL,0419.82836,S,05539.90846,E,074405.00,A,A*6A
$GNRMC,074406.00,A,0419.82839,S,05539.90847,E,0.098,,280525,,,A*77
$GNVTG,,T,,M,0.098,N,0.181,K,A*34
$GNGGA,074406.00,0419.82839,S,05539.90847,E,1,12,0.86,17.7,M,-47.6,M,,*46
$GNGSA,A,3,25,23,12,15,18,24,29,05,13,10,,,1.57,0.86,1.32*12
$GNGSA,A,3,73,69,,,,,,,,,,,1.57,0.86,1.32*1A
$GPGSV,5,1,18,05,07,028,19,10,35,226,29,12,47,151,34,13,07,072,28*76
$GPGSV,5,2,18,15,43,087,30,18,22,329,24,23,70,278,27,24,19,147,14*78
$GPGSV,5,3,18,25,78,207,32,26,00,318,,28,12,258,,29,31,016,24*7A
$GPGSV,5,4,18,32,07,213,,36,52,277,,40,85,352,,41,58,082,29*73
$GPGSV,5,5,18,49,32,274,,50,10,089,*78
$GLGSV,3,1,10,69,31,055,26,70,56,153,,71,19,193,18,73,49,205,31*6C
$GLGSV,3,2,10,74,45,281,19,75,06,318,,80,09,161,16,84,05,008,*6B
$GLGSV,3,3,10,85,01,322,,,,,33*5B
$GNGLL,0419.82839,S,05539.90847,E,074406.00,A,A*67
$GNRMC,074407.00,A,0419.82842,S,05539.90851,E,0.026,,280525,,,A*78
$GNVTG,,T,,M,0.026,N,0.049,K,A*34
$GNGGA,074407.00,0419.82842,S,05539.90851,E,1,12,0.86,17.7,M,-47.6,M,,*4C
$GNGSA,A,3,25,23,12,15,18,24,29,05,13,10,,,1.57,0.86,1.32*12
$GNGSA,A,3,73,69,,,,,,,,,,,1.57,0.86,1.32*1A
$GPGSV,5,1,18,05,07,028,17,10,35,226,34,12,47,151,34,13,07,072,28*74
$GPGSV,5,2,18,15,43,087,30,18,22,329,23,23,70,278,26,24,19,147,15*7F
$GPGSV,5,3,18,25,78,207,34,26,00,318,,28,12,258,,29,31,016,25*7D
$GPGSV,5,4,18,32,07,213,,36,52,277,,40,85,352,,41,58,082,32*79
$GPGSV,5,5,18,49,32,274,,50,10,089,*78
$GLGSV,3,1,10,69,31,055,26,70,56,153,,71,19,193,18,73,49,205,30*6D
$GLGSV,3,2,10,74,45,281,20,75,06,318,,80,09,161,21,84,05,008,*65
$GLGSV,3,3,10,85,01,322,,,,,33*5B
$GNGLL,0419.82842,S,05539.90851,E,074407.00,A,A*6D
$GNRMC,074408.00,A,0419.82844,S,05539.90862,E,0.131,,280525,,,A*76
$GNVTG,,T,,M,0.131,N,0.243,K,A*3B
$GNGGA,074408.00,0419.82844,S,05539.90862,E,1,12,0.86,18.0,M,-47.6,M,,*4D
$GNGSA,A,3,25,23,12,15,18,24,29,05,13,10,,,1.57,0.86,1.32*12
$GNGSA,A,3,73,69,,,,,,,,,,,1.57,0.86,1.32*1A
$GPGSV,5,1,18,05,07,028,16,10,35,226,29,12,47,151,35,13,07,072,28*78
$GPGSV,5,2,18,15,43,087,30,18,22,329,23,23,70,278,26,24,19,147,16*7C
$GPGSV,5,3,18,25,78,207,29,26,00,318,,28,12,258,,29,31,016,23*77
$GPGSV,5,4,18,32,07,213,,36,52,277,,40,85,352,,41,58,082,30*7B
$GPGSV,5,5,18,49,32,274,,50,10,089,*78
$GLGSV,3,1,10,69,31,055,27,70,56,153,,71,19,193,17,73,49,205,31*62
$GLGSV,3,2,10,74,45,281,20,75,06,318,,80,09,161,22,84,05,008,*66
$GLGSV,3,3,10,85,01,322,,,,,32*5A
$GNGLL,0419.82844,S,05539.90862,E,074408.00,A,A*64
$GNRMC,074409.00,A,0419.82841,S,05539.90866,E,0.109,,280525,,,A*7D
$GNVTG,,T,,M,0.109,N,0.202,K,A*35
$GNGGA,074409.00,0419.82841,S,05539.90866,E,1,12,0.86,18.1,M,-47.6,M,,*4C
$GNGSA,A,3,25,23,12,15,18,24,29,05,13,10,,,1.57,0.86,1.32*12
$GNGSA,A,3,73,69,,,,,,,,,,,1.57,0.86,1.32*1A
$GPGSV,5,1,18,05,07,028,14,10,35,226,28,12,47,151,34,13,07,072,28*7A
$GPGSV,5,2,18,15,43,087,31,18,22,329,24,23,70,278,27,24,19,147,17*7A
$GPGSV,5,3,18,25,78,207,30,26,00,318,,28,12,258,,29,31,016,22*7E
$GPGSV,5,4,18,32,07,213,,36,52,277,,40,85,352,,41,58,082,29*73
$GPGSV,5,5,18,49,32,274,,50,10,089,*78
$GLGSV,3,1,10,69,31,055,26,70,56,153,,71,19,193,16,73,49,205,31*62
$GLGSV,3,2,10,74,45,281,20,75,06,318,,80,09,161,18,84,05,008,*6F
$GLGSV,3,3,10,85,01,322,,,,,30*58
$GNGLL,0419.82841,S,05539.90866,E,074409.00,A,A*64
$GNRMC,074410.00,A,0419.82838,S,05539.90872,E,0.021,,280525,,,A*75
$GNVTG,,T,,M,0.021,N,0.039,K,A*34
$GNGGA,074410.00,0419.82838,S,05539.90872,E,1,12,0.86,18.2,M,-47.6,M,,*4C
$GNGSA,A,3,25,23,12,15,18,24,29,05,13,10,,,1.57,0.86,1.32*12
$GNGSA,A,3,73,69,,,,,,,,,,,1.57,0.86,1.32*1A
$GPGSV,5,1,18,05,07,028,16,10,35,226,28,12,47,151,33,13,07,072,28*7F
$GPGSV,5,2,18,15,43,087,31,18,22,329,25,23,70,278,27,24,19,147,18*74
$GPGSV,5,3,18,25,78,207,34,26,00,318,,28,12,258,,29,31,016,23*7B
$GPGSV,5,4,18,32,07,213,,36,52,277,,40,85,352,,41,58,082,33*78
$GPGSV,5,5,18,49,32,274,,50,10,089,*78
$GLGSV,3,1,10,69,31,055,25,70,56,153,,71,19,193,19,73,49,205,32*6D
$GLGSV,3,2,10,74,45,281,19,75,06,318,,80,09,161,12,84,05,008,*6F
$GLGSV,3,3,10,85,01,322,,,,,32*5A
$GNGLL,0419.82838,S,05539.90872,E,074410.00,A,A*67
$GNRMC,074411.00,A,0419.82838,S,05539.90875,E,0.075,,280525,,,A*72
$GNVTG,,T,,M,0.075,N,0.140,K,A*3A
$GNGGA,074411.00,0419.82838,S,05539.90875,E,1,12,0.86,18.3,M,-47.6,M,,*4B
$GNGSA,A,3,25,23,12,15,18,24,29,05,13,10,,,1.57,0.86,1.32*12
$GNGSA,A,3,73,69,,,,,,,,,,,1.57,0.86,1.32*1A
$GPGSV,5,1,18,05,07,028,17,10,35,226,29,12,47,151,34,13,07,072,28*78
$GPGSV,5,2,18,15,43,087,32,18,22,329,26,23,70,278,28,24,19,147,19*7A
$GPGSV,5,3,18,25,78,207,32,26,00,318,,28,12,258,,29,31,016,24*7A
$GPGSV,5,4,18,32,07,213,,36,52,277,,40,85,352,,41,58,082,29*73
$GPGSV,5,5,18,49,32,274,,50,10,089,*78
$GLGSV,3,1,10,69,31,055,26,70,56,153,,71,19,193,19,73,49,205,31*6D
$GLGSV,3,2,10,74,45,281,17,75,06,318,,80,09,161,07,84,05,008,*65
$GLGSV,3,3,10,85,01,322,,,,,31*59
$GNGLL,0419.82838,S,05539.90875,E,074411.00,A,A*61
$GNRMC,074412.00,A,0419.82838,S,05539.90878,E,0.114,,280525,,,A*7A
$GNVTG,,T,,M,0.114,N,0.210,K,A*3A
$GNGGA,074412.00,0419.82838,S,05539.90878,E,1,12,0.86,18.4,M,-47.6,M,,*42
$GNGSA,A,3,25,23,12,15,18,24,29,05,13,10,,,1.57,0.86,1.32*12
$GNGSA,A,3,73,69,,,,,,,,,,,1.57,0.86,1.32*1A
$GPGSV,5,1,18,05,07,028,17,10,35,226,29,12,47,151,34,13,07,072,28*78
$GPGSV,5,2,18,15,43,087,31,18,22,329,24,23,70,278,27,24,19,147,20*7E
$GPGSV,5,3,18,25,78,207,26,26,00,318,,28,12,258,,29,31,016,23*78
$GPGSV,5,4,18,32,07,213,,36,52,277,,40,85,352,,41,58,082,28*72
$GPGSV,5,5,18,49,32,274,,50,10,089,*78
$GLGSV,3,1,10,69,31,055,26,70,56,153,,71,19,193,17,73,49,205,30*62
$GLGSV,3,2,10,74,45,281,18,75,06,318,,80,09,161,06,84,05,008,*6B
$GLGSV,3,3,10,85,01,322,,,,,31*59
$GNGLL,0419.82838,S,05539.90878,E,074412.00,A,A*6F
$GNRMC,074413.00,A,0419.82837,S,05539.90884,E,0.023,,280525,,,A*72
$GNVTG,,T,,M,0.023,N,0.043,K,A*3B
$GNGGA,074413.00,0419.82837,S,05539.90884,E,1,12,0.86,18.6,M,-47.6,M,,*4D
$GNGSA,A,3,25,23,12,15,18,24,29,05,13,10,,,1.57,0.86,1.32*12
$GNGSA,A,3,73,69,,,,,,,,,,,1.57,0.86,1.32*1A
$GPGSV,5,1,18,05,07,028,18,10,35,226,28,12,47,151,34,13,07,072,27*79
$GPGSV,5,2,18,15,43,087,30,18,22,329,24,23,70,278,27,24,19,147,21*7E
$GPGSV,5,3,18,25,78,207,26,26,00,318,,28,12,258,,29,31,016,24*7F
$GPGSV,5,4,18,32,07,213,,36,52,277,,40,85,352,,41,58,082,28*72
$GPGSV,5,5,18,49,32,274,,50,10,089,*78
$GLGSV,3,1,10,69,31,055,25,70,56,153,,71,19,193,16,73,49,205,29*68
$GLGSV,3,2,10,74,45,281,20,75,06,318,,80,09,161,04,84,05,008,*62
$GLGSV,3,3,10,85,01,322,,,,,32*5A
$GNGLL,0419.82837,S,05539.90884,E,074413.00,A,A*62
$GNRMC,074414.00,A,0419.82846,S,05539.90890,E,0.296,,280525,,,A*7A
$GNVTG,,T,,M,0.296,N,0.549,K,A*38
$GNGGA,074414.00,0419.82846,S,05539.90890,E,1,12,0.86,19.0,M,-47.6,M,,*4E
$GNGSA,A,3,25,23,12,15,18,24,29,05,13,10,,,1.57,0.86,1.32*12
$GNGSA,A,3,73,69,,,,,,,,,,,1.57,0.86,1.32*1A
$GPGSV,5,1,18,05,07,028,17,10,35,226,27,12,47,151,34,13,07,072,26*78
$GPGSV,5,2,18,15,43,087,30,18,22,329,23,23,70,278,26,24,19,147,19*73
$GPGSV,5,3,18,25,78,207,27,26,00,318,,28,12,258,,29,31,016,21*7B
$GPGSV,5,4,18,32,07,213,,36,52,277,,40,85,352,,41,58,082,27*7D
$GPGSV,5,5,18,49,32,274,,50,10,089,*78
$GLGSV,3,1,10,69,31,055,26,70,56,153,,71,19,193,15,73,49,205,29*68
$GLGSV,3,2,10,74,45,281,20,75,06,318,,80,09,161,07,84,05,008,*61
$GLGSV,3,3,10,85,01,322,,,,,32*5A
$GNGLL,0419.82846,S,05539.90890,E,074414.00,A,A*66
$GNRMC,074415.00,A,0419.82843,S,05539.90880,E,0.593,,280525,,,A*7D
$GNVTG,,T,,M,0.593,N,1.098,K,A*32
$GNGGA,074415.00,0419.82843,S,05539.90880,E,1,12,0.86,19.2,M,-47.6,M,,*49
$GNGSA,A,3,25,23,12,15,18,24,29,05,13,10,,,1.57,0.86,1.32*12
$GNGSA,A,3,73,69,,,,,,,,,,,1.57,0.86,1.32*1A
$GPGSV,5,1,18,05,07,028,15,10,35,226,26,12,47,151,30,13,07,072,24*7D
$GPGSV,5,2,18,15,43,087,24,18,22,329,22,23,70,278,25,24,19,147,19*74
$GPGSV,5,3,18,25,78,207,27,26,00,318,,28,12,258,,29,31,016,19*70
$GPGSV,5,4,18,32,07,213,,36,52,277,,40,85,352,,41,58,082,26*7C
$GPGSV,5,5,18,49,32,274,,50,10,089,*78
$GLGSV,3,1,10,69,31,055,25,70,56,153,,71,19,193,15,73,49,205,19*68
$GLGSV,3,2,10,74,45,281,20,75,06,318,,80,09,161,04,84,05,008,*62
$GLGSV,3,3,10,85,01,322,,,,,29*50
$GNGLL,0419.82843,S,05539.90880,E,074415.00,A,A*63
$GNRMC,074416.00,A,0419.82843,S,05539.90878,E,0.151,,280525,,,A*73
$GNVTG,,T,,M,0.151,N,0.279,K,A*34
$GNGGA,074416.00,0419.82843,S,05539.90878,E,1,12,0.86,19.2,M,-47.6,M,,*4D
$GNGSA,A,3,25,23,12,15,18,24,29,05,13,10,,,1.58,0.86,1.32*1D
$GNGSA,A,3,73,69,,,,,,,,,,,1.58,0.86,1.32*15
$GPGSV,5,1,18,05,07,028,12,10,35,226,30,12,47,151,30,13,07,072,24*7D
$GPGSV,5,2,18,15,43,087,26,18,22,329,22,23,70,278,25,24,19,147,18*77
$GPGSV,5,3,18,25,78,207,27,26,00,318,,28,12,258,,29,31,016,18*71
$GPGSV,5,4,18,32,07,213,,36,52,277,,40,85,352,,41,58,082,27*7D
$GPGSV,5,5,18,49,32,274,,50,10,089,*78
$GLGSV,3,1,10,69,31,055,24,70,56,153,,71,19,193,13,73,49,205,20*65
$GLGSV,3,2,10,74,45,281,18,75,06,318,,80,09,161,,84,05,008,*6D
$GLGSV,3,3,10,85,01,322,,,,,29*50
$GNGLL,0419.82843,S,05539.90878,E,074416.00,A,A*67
$GNRMC,074417.00,A,0419.82855,S,05539.90966,E,4.089,47.97,280525,,,A*58
$GNVTG,47.97,T,,M,4.089,N,7.573,K,A*1D
$GNGGA,074417.00,0419.82855,S,05539.90966,E,1,11,0.87,19.2,M,-47.6,M,,*47
$GNGSA,A,3,25,23,12,15,18,24,29,13,10,,,,1.66,0.87,1.41*10
$GNGSA,A,3,73,69,,,,,,,,,,,1.66,0.87,1.41*1D
$GPGSV,5,1,18,05,07,028,10,10,35,226,21,12,47,151,22,13,07,072,22*7A
$GPGSV,5,2,18,15,43,087,25,18,22,329,19,23,70,278,24,24,19,147,16*73
$GPGSV,5,3,18,25,78,207,25,26,00,318,,28,12,258,,29,31,016,17*7C
$GPGSV,5,4,18,32,07,213,,36,52,277,,40,85,352,,41,58,082,*78
$GPGSV,5,5,18,49,32,274,,50,10,089,*78
$GLGSV,3,1,10,69,31,055,20,70,56,153,,71,19,193,10,73,49,205,19*68
$GLGSV,3,2,10,74,45,281,15,75,06,318,,80,09,161,07,84,05,008,*67
$GLGSV,3,3,10,85,01,322,,,,,21*58
$GNGLL,0419.82855,S,05539.90966,E,074417.00,A,A*6F
$GNRMC,074418.00,A,0419.82878,S,05539.91006,E,1.636,,280525,,,A*72
$GNVTG,,T,,M,1.636,N,3.030,K,A*3F
$GNGGA,074418.00,0419.82878,S,05539.91006,E,1,12,0.86,19.2,M,-47.6,M,,*4B
$GNGSA,A,3,25,23,12,15,18,24,29,05,13,10,,,1.58,0.86,1.32*1D
$GNGSA,A,3,73,69,,,,,,,,,,,1.58,0.86,1.32*15
$GPGSV,5,1,18,05,07,028,12,10,35,226,21,12,47,151,22,13,07,072,21*7B
$GPGSV,5,2,18,15,43,087,26,18,22,329,19,23,70,278,23,24,19,147,17*76
$GPGSV,5,3,18,25,78,207,25,26,00,318,,28,12,258,,29,31,016,17*7C
$GPGSV,5,4,18,32,07,213,,36,52,277,,40,85,352,,41,58,082,*78
$GPGSV,5,5,18,49,32,274,,50,10,089,*78
$GLGSV,3,1,10,69,31,055,19,70,56,153,,71,19,193,09,73,49,205,19*6A
$GLGSV,3,2,10,74,45,281,,75,06,318,,80,09,161,20,84,05,008,*66
$GLGSV,3,3,10,85,01,322,,,,,23*5A
$GNGLL,0419.82878,S,05539.91006,E,074418.00,A,A*61
$GNRMC,074419.00,A,0419.82866,S,05539.91010,E,0.274,,280525,,,A*78
$GNVTG,,T,,M,0.274,N,0.508,K,A*31
$GNGGA,074419.00,0419.82866,S,05539.91010,E,1,12,0.86,19.5,M,-47.6,M,,*45
$GNGSA,A,3,25,23,12,15,18,24,29,05,13,10,,,1.58,0.86,1.32*1D
$GNGSA,A,3,73,69,,,,,,,,,,,1.58,0.86,1.32*15
$GPGSV,5,1,18,05,07,028,13,10,35,226,25,12,47,151,23,13,07,072,21*7F
$GPGSV,5,2,18,15,43,087,26,18,22,329,19,23,70,278,22,24,19,147,14*74
$GPGSV,5,3,18,25,78,207,25,26,00,318,,28,12,258,,29,31,016,17*7C
$GPGSV,5,4,18,32,07,213,,36,52,277,,40,85,352,,41,58,082,*78
$GPGSV,5,5,18,49,32,274,,50,10,089,*78
$GLGSV,3,1,10,69,31,055,19,70,56,153,,71,19,193,09,73,49,205,20*60
$GLGSV,3,2,10,74,45,281,,75,06,318,,80,09,161,,84,05,008,*64
$GLGSV,3,3,10,85,01,322,,,,,25*5C
$GNGLL,0419.82866,S,05539.91010,E,074419.00,A,A*68
$GNRMC,074420.00,A,0419.82867,S,05539.91001,E,0.131,,280525,,,A*71
$GNVTG,,T,,M,0.131,N,0.242,K,A*3A
$GNGGA,074420.00,0419.82867,S,05539.91001,E,1,12,0.86,19.4,M,-47.6,M,,*4F
$GNGSA,A,3,25,23,12,15,18,24,29,05,13,10,,,1.58,0.86,1.32*1D
$GNGSA,A,3,73,69,,,,,,,,,,,1.58,0.86,1.32*15
$GPGSV,5,1,18,05,07,028,12,10,35,226,24,12,47,151,25,13,07,072,21*79
$GPGSV,5,2,18,15,43,087,26,18,22,329,18,23,70,278,21,24,19,147,13*71
$GPGSV,5,3,18,25,78,207,24,26,00,318,,28,12,258,,29,31,016,18*72
$GPGSV,5,4,18,32,07,213,,36,52,277,,40,85,352,,41,58,082,*78
$GPGSV,5,5,18,49,32,274,,50,10,089,*78
$GLGSV,3,1,10,69,31,055,21,70,56,153,,71,19,193,,73,49,205,28*6A
$GLGSV,3,2,10,74,45,281,,75,06,318,,80,09,161,,84,05,008,*64
$GLGSV,3,3,10,85,01,322,,,,,34*5C
$GNGLL,0419.82867,S,05539.91001,E,074420.00,A,A*63
$GNRMC,074421.00,A,0419.82859,S,05539.90991,E,0.388,,280525,,,A*7C
$GNVTG,,T,,M,0.388,N,0.718,K,A*30
$GNGGA,074421.00,0419.82859,S,05539.90991,E,1,12,0.86,19.6,M,-47.6,M,,*40
$GNGSA,A,3,25,23,12,15,18,24,29,05,13,10,,,1.58,0.86,1.32*1D
$GNGSA,A,3,73,69,,,,,,,,,,,1.58,0.86,1.32*15
$GPGSV,5,1,18,05,07,028,11,10,35,226,24,12,47,151,27,13,07,072,22*7B
$GPGSV,5,2,18,15,43,087,27,18,22,329,19,23,70,278,21,24,19,147,13*71
$GPGSV,5,3,18,25,78,207,24,26,00,318,,28,12,258,,29,31,016,18*72
$GPGSV,5,4,18,32,07,213,,36,52,277,,40,85,352,,41,58,082,*78
$GPGSV,5,5,18,49,32,274,,50,10,089,*78
$GLGSV,3,1,10,69,31,055,22,70,56,153,,71,19,193,,73,49,205,22*63
$GLGSV,3,2,10,74,45,281,20,75,06,318,,80,09,161,,84,05,008,*66
$GLGSV,3,3,10,85,01,322,,,,,29*50
$GNGLL,0419.82859,S,05539.90991,E,074421.00,A,A*6E
$GNRMC,074422.00,A,0419.82879,S,05539.90985,E,0.778,,280525,,,A*73
$GNVTG,,T,,M,0.778,N,1.440,K,A*34
$GNGGA,074422.00,0419.82879,S,05539.90985,E,1,12,0.86,19.5,M,-47.6,M,,*47
$GNGSA,A,3,25,23,12,15,18,24,29,05,13,10,,,1.58,0.86,1.32*1D
$GNGSA,A,3,73,69,,,,,,,,,,,1.58,0.86,1.32*15
$GPGSV,5,1,18,05,07,028,09,10,35,226,23,12,47,151,33,13,07,072,23*71
$GPGSV,5,2,18,15,43,087,27,18,22,329,21,23,70,278,21,24,19,147,12*7B
$GPGSV,5,3,18,25,78,207,24,26,00,318,,28,12,258,,29,31,016,20*79
$GPGSV,5,4,18,32,07,213,,36,52,277,,40,85,352,,41,58,082,*78
$GPGSV,5,5,18,49,32,274,,50,10,089,*78
$GLGSV,3,1,10,69,31,055,19,70,56,153,,71,19,193,,73,49,205,20*69
$GLGSV,3,2,10,74,45,281,,75,06,318,,80,09,161,,84,05,008,*64
$GLGSV,3,3,10,85,01,322,,,,,24*5D
$GNGLL,0419.82879,S,05539.90985,E,074422.00,A,A*6A
$GNRMC,074423.00,A,0419.82878,S,05539.90979,E,0.180,,280525,,,A*71
$GNVTG,,T,,M,0.180,N,0.333,K,A*37
$GNGGA,074423.00,0419.82878,S,05539.90979,E,1,12,0.86,19.7,M,-47.6,M,,*46
$GNGSA,A,3,25,23,12,15,18,24,29,05,13,10,,,1.58,0.86,1.32*1D
$GNGSA,A,3,73,69,,,,,,,,,,,1.58,0.86,1.32*15
$GPGSV,5,1,18,05,07,028,17,10,35,226,25,12,47,151,33,13,07,072,25*7E
$GPGSV,5,2,18,15,43,087,33,18,22,329,24,23,70,278,24,24,19,147,16*7A
$GPGSV,5,3,18,25,78,207,31,26,00,318,,28,12,258,,29,31,016,21*7C
$GPGSV,5,4,18,32,07,213,,36,52,277,,40,85,352,,41,58,082,*78
$GPGSV,5,5,18,49,32,274,,50,10,089,*78
$GLGSV,3,1,10,69,31,055,21,70,56,153,,71,19,193,,73,49,205,29*6B
$GLGSV,3,2,10,74,45,281,,75,06,318,,80,09,161,,84,05,008,*64
$GLGSV,3,3,10,85,01,322,,,,,28*51
$GNGLL,0419.82878,S,05539.90979,E,074423.00,A,A*69
$GNRMC,074424.00,A,0419.82876,S,05539.90968,E,0.156,,280525,,,A*73
$GNVTG,,T,,M,0.156,N,0.288,K,A*3D
$GNGGA,074424.00,0419.82876,S,05539.90968,E,1,12,0.87,19.6,M,-47.6,M,,*4F
$GNGSA,A,3,25,23,12,15,18,24,29,05,13,10,,,1.66,0.87,1.41*15
$GNGSA,A,3,73,69,,,,,,,,,,,1.66,0.87,1.41*1D
$GPGSV,5,1,18,05,07,028,16,10,35,226,27,12,47,151,33,13,07,072,27*7F
$GPGSV,5,2,18,15,43,087,33,18,22,329,24,23,70,278,26,24,19,147,19*77
$GPGSV,5,3,18,25,78,207,34,26,00,318,,28,12,258,,29,31,016,22*7A
$GPGSV,5,4,18,32,07,213,,36,52,277,,40,85,352,,41,58,082,30*7B
$GPGSV,5,5,18,49,32,274,,50,10,089,*78
$GLGSV,3,1,10,69,31,055,24,70,56,153,,71,19,193,,73,49,205,34*62
$GLGSV,3,2,10,74,45,281,,75,06,318,,80,09,161,,84,05,008,*64
$GLGSV,3,3,10,85,01,322,,,,,29*50
$GNGLL,0419.82876,S,05539.90968,E,074424.00,A,A*60
$GNRMC,074425.00,A,0419.82878,S,05539.90967,E,0.116,,280525,,,A*77
$GNVTG,,T,,M,0.116,N,0.215,K,A*3D
$GNGGA,074425.00,0419.82878,S,05539.90967,E,1,12,0.87,19.8,M,-47.6,M,,*41
$GNGSA,A,3,25,23,12,15,18,24,29,05,13,10,,,1.66,0.87,1.41*15
$GNGSA,A,3,73,69,,,,,,,,,,,1.66,0.87,1.41*1D
$GPGSV,5,1,18,05,07,028,19,10,35,226,27,12,47,151,33,13,07,072,28*7F
$GPGSV,5,2,18,15,43,087,33,18,22,329,25,23,70,278,27,24,19,147,19*77
$GPGSV,5,3,18,25,78,207,31,26,00,318,,28,12,258,,29,31,016,22*7F
$GPGSV,5,4,18,32,07,213,,36,52,277,,40,85,352,,41,58,082,31*7A
$GPGSV,5,5,18,49,32,274,,50,10,089,*78
$GLGSV,3,1,10,69,31,055,24,70,56,153,,71,19,193,,73,49,205,31*67
$GLGSV,3,2,10,74,45,281,,75,06,318,,80,09,161,,84,05,008,*64
$GLGSV,3,3,10,85,01,322,,,,,29*50
$GNGLL,0419.82878,S,05539.90967,E,074425.00,A,A*60
$GNRMC,074426.00,A,0419.82871,S,05539.90959,E,0.041,,280525,,,A*73
$GNVTG,,T,,M,0.041,N,0.076,K,A*39
$GNGGA,074426.00,0419.82871,S,05539.90959,E,1,12,0.87,19.8,M,-47.6,M,,*46
$GNGSA,A,3,25,23,12,15,18,24,29,05,13,10,,,1.66,0.87,1.41*15
$GNGSA,A,3,73,69,,,,,,,,,,,1.66,0.87,1.41*1D
$GPGSV,5,1,18,05,07,028,17,10,35,226,26,12,47,151,34,13,07,072,29*76
$GPGSV,5,2,18,15,43,087,35,18,22,329,26,23,70,278,27,24,19,147,20*78
$GPGSV,5,3,18,25,78,207,31,26,00,318,,28,12,258,,29,31,016,24*79
$GPGSV,5,4,18,32,07,213,,36,52,277,,40,85,352,,41,58,082,31*7A
$GPGSV,5,5,18,49,32,274,,50,10,089,*78
$GLGSV,3,1,10,69,31,055,24,70,56,153,,71,19,193,,73,49,205,30*66
$GLGSV,3,2,10,74,45,281,,75,06,318,,80,09,161,,84,05,008,*64
$GLGSV,3,3,10,85,01,322,,,,,29*50
$GNGLL,0419.82871,S,05539.90959,E,074426.00,A,A*67
$GNRMC,074427.00,A,0419.82868,S,05539.90955,E,0.025,,280525,,,A*74
$GNVTG,,T,,M,0.025,N,0.046,K,A*38
$GNGGA,074427.00,0419.82868,S,05539.90955,E,1,12,0.87,20.0,M,-47.6,M,,*41
$GNGSA,A,3,25,23,12,15,18,24,29,05,13,10,,,1.66,0.87,1.41*15
$GNGSA,A,3,73,69,,,,,,,,,,,1.66,0.87,1.41*1D
$GPGSV,5,1,18,05,07,028,16,10,35,226,26,12,47,151,31,13,07,072,28*73
$GPGSV,5,2,18,15,43,087,31,18,22,329,25,23,70,278,27,24,19,147,19*75
$GPGSV,5,3,18,25,78,207,29,26,00,318,,28,12,258,,29,31,016,24*70
$GPGSV,5,4,18,32,07,213,,36,52,277,,40,85,352,,41,58,082,29*73
$GPGSV,5,5,18,49,32,274,,50,10,089,*78
$GLGSV,3,1,10,69,31,055,23,70,56,153,,71,19,193,,73,49,205,29*69
$GLGSV,3,2,10,74,45,281,,75,06,318,,80,09,161,,84,05,008,*64
$GLGSV,3,3,10,85,01,322,,,,,29*50
$GNGLL,0419.82868,S,05539.90955,E,074427.00,A,A*62
$GNRMC,074428.00,A,0419.82868,S,05539.90950,E,0.144,,280525,,,A*78
$GNVTG,,T,,M,0.144,N,0.266,K,A*3E
$GNGGA,074428.00,0419.82868,S,05539.90950,E,1,12,0.87,19.7,M,-47.6,M,,*46
$GNGSA,A,3,25,23,12,15,18,24,29,05,13,10,,,1.66,0.87,1.41*15
$GNGSA,A,3,73,69,,,,,,,,,,,1.66,0.87,1.41*1D
$GPGSV,5,1,18,05,07,028,15,10,35,226,28,12,47,151,33,13,07,072,28*7C
$GPGSV,5,2,18,15,43,087,30,18,22,329,25,23,70,278,28,24,19,147,20*71
$GPGSV,5,3,18,25,78,207,30,26,00,318,,28,12,258,,29,31,016,23*7F
$GPGSV,5,4,18,32,07,213,,36,52,277,,40,85,352,,41,58,082,31*7A
$GPGSV,5,5,18,49,32,274,,50,10,089,*78
$GLGSV,3,1,10,69,31,055,22,70,56,153,,71,19,193,,73,49,205,29*68
$GLGSV,3,2,10,74,45,281,,75,06,318,,80,09,161,,84,05,008,*64
$GLGSV,3,3,10,85,01,322,,,,,30*58
$GNGLL,0419.82868,S,05539.90950,E,074428.00,A,A*68
$GNRMC,074429.00,A,0419.82871,S,05539.90943,E,0.040,,280525,,,A*76
$GNVTG,,T,,M,0.040,N,0.074,K,A*3A
$GNGGA,074429.00,0419.82871,S,05539.90943,E,1,12,0.87,19.5,M,-47.6,M,,*4F
$GNGSA,A,3,25,23,12,15,18,24,29,05,13,10,,,1.66,0.87,1.42*16
$GNGSA,A,3,73,69,,,,,,,,,,,1.66,0.87,1.42*1E
$GPGSV,5,1,18,05,07,028,15,10,35,226,30,12,47,151,33,13,07,072,28*75
$GPGSV,5,2,18,15,43,087,31,18,22,329,25,23,70,278,30,24,19,147,19*73
$GPGSV,5,3,18,25,78,207,31,26,00,318,,28,12,258,,29,31,016,25*78
$GPGSV,5,4,18,32,07,213,,36,52,277,,40,85,352,,41,58,082,32*79
$GPGSV,5,5,18,49,32,274,,50,10,089,*78
$GLGSV,3,1,10,69,31,055,20,70,56,153,,71,19,193,,73,49,205,30*62
$GLGSV,3,2,10,74,45,281,,75,06,318,,80,09,161,,84,05,008,*64
$GLGSV,3,3,10,85,01,322,,,,,33*5B
$GNGLL,0419.82871,S,05539.90943,E,074429.00,A,A*63
$GNRMC,074430.00,A,0419.82861,S,05539.90937,E,0.273,,280525,,,A*7E
$GNVTG,,T,,M,0.273,N,0.505,K,A*3B
$GNGGA,074430.00,0419.82861,S,05539.90937,E,1,12,0.87,19.5,M,-47.6,M,,*45
$GNGSA,A,3,25,23,12,15,18,24,29,05,13,10,,,1.66,0.87,1.42*16
$GNGSA,A,3,73,69,,,,,,,,,,,1.66,0.87,1.42*1E
$GPGSV,5,1,18,05,07,028,15,10,35,226,30,12,47,151,35,13,07,072,28*73
$GPGSV,5,2,18,15,43,087,31,18,22,329,25,23,70,278,30,24,19,147,20*79
$GPGSV,5,3,18,25,78,207,30,26,00,318,,28,12,258,,29,31,016,23*7F
$GPGSV,5,4,18,32,07,213,,36,52,277,,40,85,352,,41,58,082,32*79
$GPGSV,5,5,18,49,32,274,,50,10,089,*78
$GLGSV,3,1,10,69,31,054,19,70,56,153,,71,19,193,,73,49,205,30*69
$GLGSV,3,2,10,74,45,281,,75,06,318,,80,09,161,,84,05,008,*64
$GLGSV,3,3,10,85,01,322,,,,,31*59
$GNGLL,0419.82861,S,05539.90937,E,074430.00,A,A*69
$GNRMC,074431.00,A,0419.82857,S,05539.90937,E,0.328,,280525,,,A*75
$GNVTG,,T,,M,0.328,N,0.608,K,A*3A
$GNGGA,074431.00,0419.82857,S,05539.90937,E,1,12,0.87,19.5,M,-47.6,M,,*41
$GNGSA,A,3,25,23,12,15,18,24,29,05,13,10,,,1.66,0.87,1.42*16
$GNGSA,A,3,73,69,,,,,,,,,,,1.66,0.87,1.42*1E
$GPGSV,5,1,18,05,07,028,15,10,35,226,31,12,47,151,31,13,07,072,28*76
$GPGSV,5,2,18,15,43,087,30,18,22,329,26,23,70,278,31,24,19,147,21*7B
$GPGSV,5,3,18,25,78,207,31,26,00,318,,28,12,258,,29,31,016,25*78
$GPGSV,5,4,18,32,07,213,,36,52,277,,40,85,352,,41,58,082,32*79
$GPGSV,5,5,18,49,32,274,,50,10,089,*78
$GLGSV,3,1,10,69,31,054,19,70,57,153,,71,19,193,,73,49,205,30*68
$GLGSV,3,2,10,74,45,281,,75,06,318,,80,09,161,,84,05,008,*64
$GLGSV,3,3,10,85,01,322,,,,,30*58
$GNGLL,0419.82857,S,05539.90937,E,074431.00,A,A*6D
$GNRMC,074432.00,A,0419.82860,S,05539.90932,E,0.149,,280525,,,A*72
$GNVTG,,T,,M,0.149,N,0.276,K,A*32
$GNGGA,074432.00,0419.82860,S,05539.90932,E,1,12,0.87,19.2,M,-47.6,M,,*44
$GNGSA,A,3,25,23,12,15,18,24,29,05,13,10,,,1.66,0.87,1.42*16
$GNGSA,A,3,73,69,,,,,,,,,,,1.66,0.87,1.42*1E
$GPGSV,5,1,18,05,07,028,17,10,35,226,30,12,47,151,32,13,07,072,27*79
$GPGSV,5,2,18,15,43,087,29,18,22,329,25,23,70,278,30,24,19,147,21*71
$GPGSV,5,3,18,25,78,207,33,26,00,318,,28,12,258,,29,31,016,25*7A
$GPGSV,5,4,18,32,07,213,,36,52,277,,40,85,352,,41,58,082,30*7B
$GPGSV,5,5,18,49,32,274,,50,10,089,*78
$GLGSV,3,1,10,69,31,054,21,70,57,153,,71,20,193,21,73,49,205,34*6E
$GLGSV,3,2,10,74,45,281,,75,06,318,,80,09,161,,84,05,008,*64
$GLGSV,3,3,10,85,01,322,,,,,34*5C
$GNGLL,0419.82860,S,05539.90932,E,074432.00,A,A*6F
$GNRMC,074433.00,A,0419.82852,S,05539.90928,E,0.096,,280525,,,A*7A
$GNVTG,,T,,M,0.096,N,0.178,K,A*3C
$GNGGA,074433.00,0419.82852,S,05539.90928,E,1,12,0.87,19.3,M,-47.6,M,,*4E
$GNGSA,A,3,25,23,12,15,18,24,29,05,13,10,,,1.66,0.87,1.42*16
$GNGSA,A,3,73,69,,,,,,,,,,,1.66,0.87,1.42*1E
$GPGSV,5,1,18,05,07,028,18,10,35,226,30,12,47,151,35,13,07,072,28*7E
$GPGSV,5,2,18,15,43,087,29,18,22,329,24,23,70,278,29,24,19,147,20*79
$GPGSV,5,3,18,25,78,207,33,26,00,318,,28,12,258,,29,31,016,26*79
$GPGSV,5,4,18,32,07,213,,36,52,277,,40,85,352,,41,58,082,31*7A
$GPGSV,5,5,18,49,32,274,,50,10,089,*78
$GLGSV,3,1,10,69,31,054,24,70,57,153,,71,20,193,21,73,49,205,33*6C
$GLGSV,3,2,10,74,45,281,,75,06,318,,80,09,161,,84,05,008,*64
$GLGSV,3,3,10,85,01,322,,,,,34*5C
$GNGLL,0419.82852,S,05539.90928,E,074433.00,A,A*64
$GNRMC,074434.00,A,0419.82851,S,05539.90928,E,0.170,,280525,,,A*77
$GNVTG,,T,,M,0.170,N,0.316,K,A*3F
$GNGGA,074434.00,0419.82851,S,05539.90928,E,1,12,0.87,19.3,M,-47.6,M,,*4A
$GNGSA,A,3,25,23,12,15,18,24,29,05,13,10,,,1.66,0.87,1.42*16
$GNGSA,A,3,73,69,,,,,,,,,,,1.66,0.87,1.42*1E
$GPGSV,5,1,18,05,07,028,18,10,35,226,29,12,47,151,35,13,07,072,26*78
$GPGSV,5,2,18,15,43,087,29,18,22,329,25,23,70,278,28,24,19,147,19*73
$GPGSV,5,3,18,25,78,207,33,26,00,318,,28,12,258,,29,31,016,26*79
$GPGSV,5,4,18,32,07,213,,36,52,277,,40,85,352,,41,58,082,30*7B
$GPGSV,5,5,18,49,32,274,,50,10,089,*78
$GLGSV,3,1,10,69,31,054,26,70,57,153,,71,20,193,19,73,48,204,32*64
$GLGSV,3,2,10,74,45,281,,75,06,318,,80,09,161,,84,05,008,*64
$GLGSV,3,3,10,85,01,322,,,,,31*59
$GNGLL,0419.82851,S,05539.90928,E,074434.00,A,A*60
$GNRMC,074435.00,A,0419.82857,S,05539.90927,E,0.038,,280525,,,A*72
$GNVTG,,T,,M,0.038,N,0.070,K,A*31
$GNGGA,074435.00,0419.82857,S,05539.90927,E,1,12,0.87,19.3,M,-47.6,M,,*42
$GNGSA,A,3,25,23,12,15,18,24,29,05,13,10,,,1.66,0.87,1.42*16
$GNGSA,A,3,73,69,,,,,,,,,,,1.66,0.87,1.42*1E
$GPGSV,5,1,18,05,07,028,20,10,35,226,29,12,47,151,37,13,07,072,25*72
$GPGSV,5,2,18,15,43,087,30,18,22,329,25,23,70,278,28,24,19,147,17*75
$GPGSV,5,3,18,25,78,207,33,26,00,318,,28,12,258,,29,31,016,25*7A
$GPGSV,5,4,18,32,07,213,,36,52,277,,40,85,352,,41,58,082,33*78
$GPGSV,5,5,18,49,32,274,,50,10,089,*78
$GLGSV,3,1,10,69,31,054,26,70,57,153,,71,20,193,18,73,48,204,31*66
$GLGSV,3,2,10,74,45,280,,75,06,318,,80,09,161,,84,05,008,*65
$GLGSV,3,3,10,85,01,322,,,,,33*5B
$GNGLL,0419.82857,S,05539.90927,E,074435.00,A,A*68
$GNRMC,074436.00,A,0419.82854,S,05539.90923,E,0.091,,280525,,,A*75
$GNVTG,,T,,M,0.091,N,0.169,K,A*3B
$GNGGA,074436.00,0419.82854,S,05539.90923,E,1,12,0.86,18.8,M,-47.6,M,,*4D
$GNGSA,A,3,25,23,12,15,18,24,29,05,13,10,,,1.58,0.86,1.32*1D
$GNGSA,A,3,73,69,,,,,,,,,,,1.58,0.86,1.32*15
$GPGSV,5,1,18,05,07,028,21,10,35,226,29,12,47,151,34,13,07,072,26*73
$GPGSV,5,2,18,15,43,087,31,18,22,329,26,23,70,278,28,24,19,147,18*78
$GPGSV,5,3,18,25,78,207,36,26,00,318,,28,12,258,,29,31,016,26*7C
$GPGSV,5,4,18,32,07,213,,36,52,277,,40,85,352,,41,58,082,31*7A
$GPGSV,5,5,18,49,32,274,,50,10,089,*78
$GLGSV,3,1,10,69,31,054,24,70,57,153,,71,20,193,16,73,48,204,31*6A
$GLGSV,3,2,10,74,45,280,,75,07,317,,80,09,161,,84,05,008,*6B
$GLGSV,3,3,10,85,01,322,,,,,33*5B
$GNGLL,0419.82854,S,05539.90923,E,074436.00,A,A*6C
$GNRMC,074437.00,A,0419.82855,S,05539.90918,E,0.117,,280525,,,A*72
$GNVTG,,T,,M,0.117,N,0.216,K,A*3F
$GNGGA,074437.00,0419.82855,S,05539.90918,E,1,12,0.86,18.3,M,-47.6,M,,*4E
$GNGSA,A,3,25,23,12,15,18,24,29,05,13,10,,,1.58,0.86,1.32*1D
$GNGSA,A,3,73,69,,,,,,,,,,,1.58,0.86,1.32*15
$GPGSV,5,1,18,05,07,028,20,10,35,226,31,12,47,151,34,13,07,072,27*7A
$GPGSV,5,2,18,15,43,087,31,18,22,329,25,23,70,278,29,24,19,147,18*7A
$GPGSV,5,3,18,25,78,207,32,26,00,318,,28,12,258,,29,31,016,27*79
$GPGSV,5,4,18,32,07,213,,36,52,277,,40,85,352,,41,58,082,31*7A
$GPGSV,5,5,18,49,32,274,,50,10,089,*78
$GLGSV,3,1,10,69,31,054,24,70,57,153,,71,20,193,14,73,48,204,31*68
$GLGSV,3,2,10,74,45,280,,75,07,317,,80,09,161,,84,05,008,*6B
$GLGSV,3,3,10,85,01,322,,,,,27*5E
$GNGLL,0419.82855,S,05539.90918,E,074437.00,A,A*64
$GNRMC,074438.00,A,0419.82853,S,05539.90915,E,0.011,,280525,,,A*71
$GNVTG,,T,,M,0.011,N,0.020,K,A*3F
$GNGGA,074438.00,0419.82853,S,05539.90915,E,1,12,0.86,18.1,M,-47.6,M,,*48
$GNGSA,A,3,25,23,12,15,18,24,29,05,13,10,,,1.58,0.86,1.32*1D
$GNGSA,A,3,73,69,,,,,,,,,,,1.58,0.86,1.32*15
$GPGSV,5,1,18,05,07,028,18,10,35,226,31,12,47,151,34,13,07,072,27*71
$GPGSV,5,2,18,15,43,087,30,18,22,329,26,23,70,278,28,24,19,147,18*79
$GPGSV,5,3,18,25,78,207,32,26,00,318,,28,12,258,,29,31,016,25*7B
$GPGSV,5,4,18,32,07,213,,36,52,277,,40,85,352,,41,58,082,31*7A
$GPGSV,5,5,18,49,32,274,,50,10,089,*78
$GLGSV,3,1,10,69,31,054,25,70,57,153,,71,20,193,15,73,48,204,34*6D
$GLGSV,3,2,10,74,45,280,,75,07,317,,80,09,161,,84,05,008,*6B
$GLGSV,3,3,10,85,01,322,,,,,33*5B
$GNGLL,0419.82853,S,05539.90915,E,074438.00,A,A*60
$GNRMC,074439.00,A,0419.82848,S,05539.90909,E,0.098,,280525,,,A*76
$GNVTG,,T,,M,0.098,N,0.182,K,A*37
$GNGGA,074439.00,0419.82848,S,05539.90909,E,1,12,0.86,18.0,M,-47.6,M,,*4F
$GNGSA,A,3,25,23,12,15,18,24,29,05,13,10,,,1.58,0.86,1.32*1D
$GNGSA,A,3,73,69,,,,,,,,,,,1.58,0.86,1.32*15
$GPGSV,5,1,18,05,07,028,19,10,35,226,31,12,47,151,34,13,07,072,26*71
$GPGSV,5,2,18,15,43,087,30,18,22,329,26,23,70,278,27,24,19,147,20*7D
$GPGSV,5,3,18,25,78,207,34,26,00,318,,28,12,258,,29,31,016,26*7E
$GPGSV,5,4,18,32,07,213,,36,52,277,,40,85,352,,41,58,082,32*79
$GPGSV,5,5,18,49,32,274,,50,10,089,*78
$GLGSV,3,1,10,69,31,054,25,70,57,153,,71,20,193,15,73,48,204,33*6A
$GLGSV,3,2,10,74,45,280,,75,07,317,,80,09,161,,84,05,008,*6B
$GLGSV,3,3,10,85,01,322,,,,,32*5A
$GNGLL,0419.82848,S,05539.90909,E,074439.00,A,A*66
$GNRMC,074440.00,A,0419.82845,S,05539.90905,E,0.071,,280525,,,A*7E
$GNVTG,,T,,M,0.071,N,0.131,K,A*38
$GNGGA,074440.00,0419.82845,S,05539.90905,E,1,12,0.86,17.9,M,-47.6,M,,*46
$GNGSA,A,3,25,23,12,15,18,24,29,05,13,10,,,1.58,0.86,1.32*1D
$GNGSA,A,3,73,69,,,,,,,,,,,1.58,0.86,1.32*15
$GPGSV,5,1,18,05,07,028,18,10,35,226,31,12,47,151,34,13,07,072,26*70
$GPGSV,5,2,18,15,43,087,31,18,22,329,25,23,70,278,27,24,19,147,21*7E
$GPGSV,5,3,18,25,78,207,33,26,00,318,,28,12,258,,29,31,016,27*78
$GPGSV,5,4,18,32,07,213,,36,52,277,,40,85,352,,41,58,082,31*7A
$GPGSV,5,5,18,49,32,274,,50,10,089,*78
$GLGSV,3,1,10,69,31,054,23,70,57,153,,71,20,193,15,73,48,204,29*67
$GLGSV,3,2,10,74,45,280,,75,07,317,,80,09,161,,84,05,008,*6B
$GLGSV,3,3,10,85,01,322,,,,,31*59
$GNGLL,0419.82845,S,05539.90905,E,074440.00,A,A*69
$GNRMC,074441.00,A,0419.82842,S,05539.90900,E,0.137,,280525,,,A*7E
$GNVTG,,T,,M,0.137,N,0.253,K,A*3C
$GNGGA,074441.00,0419.82842,S,05539.90900,E,1,12,0.86,17.9,M,-47.6,M,,*45
$GNGSA,A,3,25,23,12,15,18,24,29,05,13,10,,,1.58,0.86,1.32*1D
$GNGSA,A,3,73,69,,,,,,,,,,,1.58,0.86,1.32*15
$GPGSV,5,1,18,05,07,028,20,10,35,226,30,12,47,151,34,13,07,072,27*7B
$GPGSV,5,2,18,15,43,087,30,18,22,329,24,23,70,278,26,24,19,147,21*7F
$GPGSV,5,3,18,25,78,207,30,26,00,318,,28,12,258,,29,31,016,27*7B
$GPGSV,5,4,18,32,07,213,,36,52,277,,40,85,352,,41,58,082,31*7A
$GPGSV,5,5,18,49,32,274,,50,10,089,*78
$GLGSV,3,1,10,69,31,054,22,70,57,153,,71,20,193,15,73,48,204,33*6D
$GLGSV,3,2,10,74,45,280,,75,07,317,,80,08,161,,84,05,008,*6A
$GLGSV,3,3,10,85,01,322,,,,,31*59
$GNGLL,0419.82842,S,05539.90900,E,074441.00,A,A*6A
$GNRMC,074442.00,A,0419.82831,S,05539.90900,E,0.079,,280525,,,A*72
$GNVTG,,T,,M,0.079,N,0.146,K,A*30
$GNGGA,074442.00,0419.82831,S,05539.90900,E,1,12,0.86,18.2,M,-47.6,M,,*46
$GNGSA,A,3,25,23,12,15,18,24,29,05,13,10,,,1.58,0.86,1.32*1D
$GNGSA,A,3,73,69,,,,,,,,,,,1.58,0.86,1.32*15
$GPGSV,5,1,18,05,07,028,22,10,35,226,31,12,47,151,34,13,07,072,28*77
$GPGSV,5,2,18,15,43,087,29,18,22,329,25,23,70,278,25,24,19,147,21*75
$GPGSV,5,3,18,25,78,207,32,26,00,318,,28,12,258,,29,31,016,27*79
$GPGSV,5,4,18,32,07,213,,36,52,277,,40,85,352,,41,58,082,30*7B
$GPGSV,5,5,18,49,32,274,,50,10,089,*78
$GLGSV,3,1,10,69,31,054,20,70,57,153,,71,20,193,17,73,48,204,32*6C
$GLGSV,3,2,10,74,45,280,,75,07,317,,80,08,161,,84,05,008,*6A
$GLGSV,3,3,10,85,01,322,,,,,31*59
$GNGLL,0419.82831,S,05539.90900,E,074442.00,A,A*6D
$GNRMC,074443.00,A,0419.82826,S,05539.90901,E,0.083,,280525,,,A*71
$GNVTG,,T,,M,0.083,N,0.154,K,A*36
$GNGGA,074443.00,0419.82826,S,05539.90901,E,1,12,0.86,18.6,M,-47.6,M,,*44
$GNGSA,A,3,25,23,12,15,18,24,29,05,13,10,,,1.58,0.86,1.32*1D
$GNGSA,A,3,73,69,,,,,,,,,,,1.58,0.86,1.32*15
$GPGSV,5,1,18,05,07,028,21,10,35,226,32,12,47,151,34,13,07,072,31*7F
$GPGSV,5,2,18,15,43,087,29,18,22,329,24,23,70,278,25,24,19,147,20*75
$GPGSV,5,3,18,25,78,207,32,26,00,318,,28,12,258,,29,31,016,27*79
$GPGSV,5,4,18,32,07,213,,36,52,277,,40,85,352,,41,58,082,30*7B
$GPGSV,5,5,18,49,32,274,,50,10,089,*78
$GLGSV,3,1,10,69,31,054,20,70,57,153,,71,20,193,17,73,48,204,30*6E
$GLGSV,3,2,10,74,45,280,,75,07,317,,80,08,161,,84,05,008,*6A
$GLGSV,3,3,10,85,01,322,,,,,30*58
$GNGLL,0419.82826,S,05539.90901,E,074443.00,A,A*6B
$GNRMC,074444.00,A,0419.82832,S,05539.90902,E,0.167,,280525,,,A*7B
$GNVTG,,T,,M,0.167,N,0.310,K,A*3F
$GNGGA,074444.00,0419.82832,S,05539.90902,E,1,12,0.86,18.3,M,-47.6,M,,*40
$GNGSA,A,3,25,23,12,15,18,24,29,05,13,10,,,1.58,0.86,1.32*1D
$GNGSA,A,3,73,69,,,,,,,,,,,1.58,0.86,1.32*15
$GPGSV,5,1,18,05,07,028,20,10,35,226,35,12,47,151,36,13,07,072,30*7A
$GPGSV,5,2,18,15,43,087,30,18,22,329,25,23,70,278,25,24,19,147,18*77
$GPGSV,5,3,18,25,78,207,32,26,00,318,,28,12,258,,29,31,016,27*79
$GPGSV,5,4,18,32,07,213,,36,52,277,,40,85,352,,41,58,082,31*7A
$GPGSV,5,5,18,49,32,274,,50,10,089,*78
$GLGSV,3,1,10,69,31,054,20,70,57,153,,71,20,193,18,73,48,204,31*60
$GLGSV,3,2,10,74,45,280,,75,07,317,,80,08,161,,84,05,008,*6A
$GLGSV,3,3,10,85,01,322,,,,,31*59
$GNGLL,0419.82832,S,05539.90902,E,074444.00,A,A*6A
$GNRMC,074445.00,A,0419.82835,S,05539.90901,E,0.052,,280525,,,A*79
$GNVTG,,T,,M,0.052,N,0.097,K,A*34
$GNGGA,074445.00,0419.82835,S,05539.90901,E,1,12,0.86,18.4,M,-47.6,M,,*42
$GNGSA,A,3,25,23,12,15,18,24,29,05,13,10,,,1.58,0.86,1.32*1D
$GNGSA,A,3,73,69,,,,,,,,,,,1.58,0.86,1.32*15
$GPGSV,5,1,18,05,07,028,22,10,35,226,33,12,47,151,33,13,07,072,28*72
$GPGSV,5,2,18,15,43,087,29,18,22,329,25,23,70,278,27,24,19,147,18*7D
$GPGSV,5,3,18,25,78,207,32,26,00,318,,28,12,258,,29,31,016,28*76
$GPGSV,5,4,18,32,07,213,,36,52,277,,40,85,352,,41,58,082,30*7B
$GPGSV,5,5,18,49,32,274,,50,10,089,*78
$GLGSV,3,1,10,69,31,054,21,70,57,153,,71,20,193,18,73,48,204,32*62
$GLGSV,3,2,10,74,45,280,,75,07,317,,80,08,161,,84,05,009,*6B
$GLGSV,3,3,10,85,01,322,,,,,30*58
$GNGLL,0419.82835,S,05539.90901,E,074445.00,A,A*6F
$GNRMC,074446.00,A,0419.82837,S,05539.90899,E,0.027,,280525,,,A*7A
$GNVTG,,T,,M,0.027,N,0.049,K,A*35
$GNGGA,074446.00,0419.82837,S,05539.90899,E,1,12,0.86,18.3,M,-47.6,M,,*44
$GNGSA,A,3,25,23,12,15,18,24,29,05,13,10,,,1.58,0.86,1.32*1D
$GNGSA,A,3,73,69,,,,,,,,,,,1.58,0.86,1.32*15
$GPGSV,5,1,18,05,07,028,21,10,35,226,30,12,47,151,33,13,07,072,27*7D
$GPGSV,5,2,18,15,43,087,29,18,22,329,25,23,70,278,26,24,19,147,20*77
$GPGSV,5,3,18,25,78,207,33,26,00,318,,28,12,258,,29,31,016,28*77
$GPGSV,5,4,18,32,07,213,,36,52,277,,40,85,352,,41,58,082,30*7B
$GPGSV,5,5,18,49,32,274,,50,10,089,*78
$GLGSV,3,1,10,69,31,054,21,70,57,153,,71,20,193,17,73,48,204,31*6E
$GLGSV,3,2,10,74,45,280,,75,07,317,,80,08,161,,84,05,009,*6B
$GLGSV,3,3,10,85,01,323,,,,,30*59
$GNGLL,0419.82837,S,05539.90899,E,074446.00,A,A*6E
$GNRMC,074447.00,A,0419.82834,S,05539.90897,E,0.070,,280525,,,A*74
$GNVTG,,T,,M,0.070,N,0.129,K,A*30
$GNGGA,074447.00,0419.82834,S,05539.90897,E,1,12,0.86,18.3,M,-47.6,M,,*48
$GNGSA,A,3,25,23,12,15,18,24,29,05,13,10,,,1.58,0.86,1.32*1D
$GNGSA,A,3,73,69,,,,,,,,,,,1.58,0.86,1.32*15
$GPGSV,5,1,18,05,07,028,19,10,35,226,34,12,47,151,32,13,07,072,27*73
$GPGSV,5,2,18,15,43,087,28,18,22,329,25,23,70,278,26,24,19,147,20*76
$GPGSV,5,3,18,25,78,207,33,26,00,318,,28,12,258,,29,31,016,27*78
$GPGSV,5,4,18,32,07,213,,36,52,277,,40,85,352,,41,58,082,30*7B
$GPGSV,5,5,18,49,32,274,,50,10,089,*78
$GLGSV,3,1,10,69,31,054,22,70,57,153,,71,20,193,15,73,48,204,30*6E
$GLGSV,3,2,10,74,45,280,,75,07,317,,80,08,161,,84,05,009,*6B
$GLGSV,3,3,10,85,01,323,,,,,30*59
$GNGLL,0419.82834,S,05539.90897,E,074447.00,A,A*62
$GNRMC,074448.00,A,0419.82831,S,05539.90896,E,0.099,,280525,,,A*78
$GNVTG,,T,,M,0.099,N,0.183,K,A*37
$GNGGA,074448.00,0419.82831,S,05539.90896,E,1,12,0.86,18.4,M,-47.6,M,,*44
$GNGSA,A,3,25,23,12,15,18,24,29,05,13,10,,,1.58,0.86,1.32*1D
$GNGSA,A,3,73,69,,,,,,,,,,,1.58,0.86,1.32*15
$GPGSV,5,1,18,05,07,028,18,10,35,226,32,12,47,151,32,13,07,072,26*75
$GPGSV,5,2,18,15,43,087,27,18,22,329,25,23,70,278,25,24,19,147,18*71
$GPGSV,5,3,18,25,78,207,33,26,00,318,,28,12,258,,29,31,016,27*78
$GPGSV,5,4,18,32,07,213,,36,52,277,,40,85,352,,41,58,082,29*73
$GPGSV,5,5,18,49,32,274,,50,10,089,*78
$GLGSV,3,1,10,69,31,054,21,70,57,153,,71,20,193,12,73,48,204,31*6B
$GLGSV,3,2,10,74,45,280,,75,07,317,,80,08,161,,84,05,009,*6B
$GLGSV,3,3,10,85,01,323,,,,,29*51
$GNGLL,0419.82831,S,05539.90896,E,074448.00,A,A*69
$GNRMC,074449.00,A,0419.82831,S,05539.90898,E,0.071,,280525,,,A*71
$GNVTG,,T,,M,0.071,N,0.132,K,A*3B
$GNGGA,074449.00,0419.82831,S,05539.90898,E,1,12,0.86,18.5,M,-47.6,M,,*4A
$GNGSA,A,3,25,23,12,15,18,24,29,05,13,10,,,1.58,0.86,1.32*1D
$GNGSA,A,3,73,69,,,,,,,,,,,1.58,0.86,1.32*15
$GPGSV,5,1,18,05,07,028,18,10,35,226,32,12,47,151,35,13,07,072,27*73
$GPGSV,5,2,18,15,43,087,27,18,22,329,26,23,70,278,26,24,19,147,20*7A
$GPGSV,5,3,18,25,78,207,34,26,00,318,,28,12,258,,29,31,016,27*7F
$GPGSV,5,4,18,32,07,213,,36,52,277,,40,85,352,,41,58,082,31*7A
$GPGSV,5,5,18,49,32,274,,50,10,089,*78
$GLGSV,3,1,10,69,31,054,20,70,57,153,,71,20,193,13,73,48,204,30*6A
$GLGSV,3,2,10,74,45,280,,75,07,317,,80,08,161,,84,05,009,*6B
$GLGSV,3,3,10,85,01,323,,,,,29*51
$GNGLL,0419.82831,S,05539.90898,E,074449.00,A,A*66
$GNRMC,074450.00,A,0419.82832,S,05539.90900,E,0.208,,280525,,,A*76
$GNVTG,,T,,M,0.208,N,0.384,K,A*38
$GNGGA,074450.00,0419.82832,S,05539.90900,E,1,12,0.86,18.8,M,-47.6,M,,*4C
$GNGSA,A,3,25,23,12,15,18,24,29,05,13,10,,,1.58,0.86,1.32*1D
$GNGSA,A,3,73,69,,,,,,,,,,,1.58,0.86,1.32*15
$GPGSV,5,1,18,05,07,028,18,10,35,226,31,12,47,151,32,13,07,072,27*77
$GPGSV,5,2,18,15,43,087,26,18,22,329,26,23,70,278,25,24,19,147,21*79
$GPGSV,5,3,18,25,78,207,33,26,00,318,,28,12,258,,29,31,016,27*78
$GPGSV,5,4,18,32,07,213,,36,52,277,,40,85,352,,41,58,082,30*7B
$GPGSV,5,5,18,49,32,274,,50,10,089,*78
$GLGSV,3,1,10,69,31,054,23,70,57,153,,71,20,193,14,73,48,204,30*6E
$GLGSV,3,2,10,74,45,280,,75,07,317,,80,08,161,,84,05,009,*6B
$GLGSV,3,3,10,85,01,323,,,,,31*58
$GNGLL,0419.82832,S,05539.90900,E,074450.00,A,A*6D
$GNRMC,074451.00,A,0419.82831,S,05539.90904,E,0.086,,280525,,,A*74
$GNVTG,,T,,M,0.086,N,0.160,K,A*34
$GNGGA,074451.00,0419.82831,S,05539.90904,E,1,12,0.86,19.1,M,-47.6,M,,*42
$GNGSA,A,3,25,23,12,15,18,24,29,05,13,10,,,1.58,0.86,1.32*1D
$GNGSA,A,3,73,69,,,,,,,,,,,1.58,0.86,1.32*15
$GPGSV,5,1,18,05,07,028,19,10,35,226,30,12,47,151,33,13,07,072,27*76
$GPGSV,5,2,18,15,43,087,26,18,22,329,25,23,70,278,25,24,19,147,20*7B
$GPGSV,5,3,18,25,78,207,33,26,00,318,,28,12,258,,29,31,016,26*79
$GPGSV,5,4,18,32,07,213,,36,52,277,,40,85,352,,41,58,082,30*7B
$GPGSV,5,5,18,49,32,274,,50,10,089,*78
$GLGSV,3,1,10,69,31,054,24,70,57,153,,71,20,193,14,73,48,204,30*69
$GLGSV,3,2,10,74,45,280,,75,07,317,,80,08,161,,84,05,009,*6B
$GLGSV,3,3,10,85,01,323,,,,,32*5B
$GNGLL,0419.82831,S,05539.90904,E,074451.00,A,A*6B
$GNRMC,074452.00,A,0419.82831,S,05539.90904,E,0.034,,280525,,,A*7E
$GNVTG,,T,,M,0.034,N,0.064,K,A*38
$GNGGA,074452.00,0419.82831,S,05539.90904,E,1,12,0.86,19.3,M,-47.6,M,,*43
$GNGSA,A,3,25,23,12,15,18,24,29,05,13,10,,,1.58,0.86,1.32*1D
$GNGSA,A,3,73,69,,,,,,,,,,,1.58,0.86,1.32*15
$GPGSV,5,1,18,05,07,028,20,10,35,226,29,12,47,151,33,13,07,072,26*75
$GPGSV,5,2,18,15,43,087,25,18,22,329,25,23,70,278,25,24,19,147,18*73
$GPGSV,5,3,18,25,78,207,32,26,00,318,,28,12,258,,29,31,016,25*7B
$GPGSV,5,4,18,32,07,213,,36,52,277,,40,85,352,,41,58,082,30*7B
$GPGSV,5,5,18,49,32,274,,50,10,089,*78
$GLGSV,3,1,10,69,31,054,26,70,57,153,,71,20,193,16,73,48,204,30*69
$GLGSV,3,2,10,74,45,280,,75,07,317,,80,08,161,,84,05,009,*6B
$GLGSV,3,3,10,85,01,323,,,,,31*58
$GNGLL,0419.82831,S,05539.90904,E,074452.00,A,A*68
$GNRMC,074453.00,A,0419.82830,S,05539.90902,E,0.048,,280525,,,A*73
$GNVTG,,T,,M,0.048,N,0.089,K,A*30
$GNGGA,074453.00,0419.82830,S,05539.90902,E,1,12,0.86,19.5,M,-47.6,M,,*43
$GNGSA,A,3,25,23,12,15,18,24,29,05,13,10,,,1.58,0.86,1.32*1D
$GNGSA,A,3,73,69,,,,,,,,,,,1.58,0.86,1.32*15
$GPGSV,5,1,18,05,07,028,18,10,35,226,23,12,47,151,30,13,07,072,26*77
$GPGSV,5,2,18,15,43,087,26,18,22,329,25,23,70,278,24,24,19,147,17*7E
$GPGSV,5,3,18,25,78,207,32,26,00,318,,28,12,258,,29,31,016,26*78
$GPGSV,5,4,18,32,07,213,,36,52,277,,40,85,352,,41,58,082,31*7A
$GPGSV,5,5,18,49,32,274,,50,10,089,*78
$GLGSV,3,1,10,69,31,054,26,70,57,153,,71,20,193,15,73,48,204,30*6A
$GLGSV,3,2,10,74,45,280,,75,07,317,,80,08,161,,84,05,009,*6B
$GLGSV,3,3,10,85,01,323,,,,,32*5B
$GNGLL,0419.82830,S,05539.90902,E,074453.00,A,A*6E
$GNRMC,074454.00,A,0419.82829,S,05539.90900,E,0.062,,280525,,,A*76
$GNVTG,,T,,M,0.062,N,0.114,K,A*3D
$GNGGA,074454.00,0419.82829,S,05539.90900,E,1,12,0.86,19.6,M,-47.6,M,,*4D
$GNGSA,A,3,25,23,12,15,18,24,29,05,13,10,,,1.58,0.86,1.32*1D
$GNGSA,A,3,73,69,,,,,,,,,,,1.58,0.86,1.32*15
$GPGSV,5,1,18,05,07,028,18,10,35,226,25,12,47,151,32,13,07,072,25*70
$GPGSV,5,2,18,15,43,087,26,18,22,329,25,23,70,278,24,24,19,147,17*7E
$GPGSV,5,3,18,25,78,207,33,26,00,318,,28,12,258,,29,31,016,27*78
$GPGSV,5,4,18,32,07,213,,36,52,277,,40,85,352,,41,58,082,30*7B
$GPGSV,5,5,18,49,32,274,,50,10,089,*78
$GLGSV,3,1,10,69,31,054,26,70,57,153,,71,20,193,17,73,48,204,30*68
$GLGSV,3,2,10,74,45,280,,75,07,317,,80,08,161,,84,05,009,*6B
$GLGSV,3,3,10,85,01,323,,,,,31*58
$GNGLL,0419.82829,S,05539.90900,E,074454.00,A,A*63
$GNRMC,074455.00,A,0419.82824,S,05539.90895,E,0.044,,280525,,,A*73
$GNVTG,,T,,M,0.044,N,0.081,K,A*34
$GNGGA,074455.00,0419.82824,S,05539.90895,E,1,12,0.86,19.8,M,-47.6,M,,*42
$GNGSA,A,3,25,23,12,15,18,24,29,05,13,10,,,1.58,0.86,1.32*1D
$GNGSA,A,3,73,69,,,,,,,,,,,1.58,0.86,1.32*15
$GPGSV,5,1,18,05,07,028,20,10,35,226,24,12,47,151,32,13,07,072,25*7A
$GPGSV,5,2,18,15,43,087,26,18,22,329,25,23,70,278,24,24,19,147,18*71
$GPGSV,5,3,18,25,78,207,33,26,00,318,,28,12,258,,29,31,016,30*7E
$GPGSV,5,4,18,32,07,213,,36,52,277,,40,85,352,,41,58,082,29*73
$GPGSV,5,5,18,49,32,274,,50,10,089,*78
$GLGSV,3,1,10,69,31,054,25,70,57,153,,71,20,193,18,73,48,204,28*6D
$GLGSV,3,2,10,74,45,280,,75,07,317,,80,08,161,,84,05,009,*6B
$GLGSV,3,3,10,85,01,323,,,,,30*59
$GNGLL,0419.82824,S,05539.90895,E,074455.00,A,A*62
$GNRMC,074456.00,A,0419.82825,S,05539.90887,E,0.124,,280525,,,A*75
$GNVTG,,T,,M,0.124,N,0.230,K,A*3B
$GNGGA,074456.00,0419.82825,S,05539.90887,E,1,12,0.86,19.8,M,-47.6,M,,*43
$GNGSA,A,3,25,23,12,15,18,24,29,05,13,10,,,1.58,0.86,1.32*1D
$GNGSA,A,3,73,69,,,,,,,,,,,1.58,0.86,1.32*15
$GPGSV,5,1,18,05,07,028,21,10,35,226,23,12,47,151,31,13,07,072,25*7F
$GPGSV,5,2,18,15,43,087,25,18,22,329,24,23,70,278,24,24,19,147,16*7D
$GPGSV,5,3,18,25,78,207,31,26,00,318,,28,12,258,,29,31,016,29*74
$GPGSV,5,4,18,32,07,213,,36,52,277,,40,85,352,,41,58,082,29*73
$GPGSV,5,5,18,49,32,274,,50,10,089,*78
$GLGSV,3,1,10,69,31,054,26,70,57,153,,71,20,193,18,73,48,204,28*6E
$GLGSV,3,2,10,74,45,280,,75,07,317,,80,08,161,,84,05,009,*6B
$GLGSV,3,3,10,85,01,323,,,,,30*59
$GNGLL,0419.82825,S,05539.90887,E,074456.00,A,A*63
$GNRMC,074457.00,A,0419.82824,S,05539.90884,E,0.195,,280525,,,A*7C
$GNVTG,,T,,M,0.195,N,0.362,K,A*37
$GNGGA,074457.00,0419.82824,S,05539.90884,E,1,12,0.86,19.9,M,-47.6,M,,*41
$GNGSA,A,3,25,23,12,15,18,24,29,05,13,10,,,1.58,0.86,1.32*1D
$GNGSA,A,3,73,69,,,,,,,,,,,1.58,0.86,1.32*15
$GPGSV,5,1,18,05,07,028,22,10,35,226,22,12,47,151,30,13,07,072,26*7F
$GPGSV,5,2,18,15,43,087,25,18,22,329,24,23,70,278,24,24,19,147,13*78
$GPGSV,5,3,18,25,78,207,30,26,00,318,,28,12,258,,29,31,016,27*7B
$GPGSV,5,4,18,32,07,213,,36,52,277,,40,85,352,,41,58,082,28*72
$GPGSV,5,5,18,49,32,274,,50,10,089,*78
$GLGSV,3,1,10,69,31,054,26,70,57,153,,71,20,193,18,73,48,204,28*6E
$GLGSV,3,2,10,74,45,280,,75,07,317,,80,08,161,,84,05,009,*6B
$GLGSV,3,3,10,85,01,323,,,,,30*59
$GNGLL,0419.82824,S,05539.90884,E,074457.00,A,A*60
$GNRMC,074458.00,A,0419.82815,S,05539.90877,E,0.072,,280525,,,A*75
$GNVTG,,T,,M,0.072,N,0.133,K,A*39
$GNGGA,074458.00,0419.82815,S,05539.90877,E,1,12,0.86,20.1,M,-47.6,M,,*42
$GNGSA,A,3,25,23,12,15,18,24,29,05,13,10,,,1.58,0.86,1.32*1D
$GNGSA,A,3,73,69,,,,,,,,,,,1.58,0.86,1.32*15
$GPGSV,5,1,18,05,07,028,23,10,35,226,25,12,47,151,35,13,07,072,26*7C
$GPGSV,5,2,18,15,43,087,25,18,22,329,25,23,70,278,23,24,19,147,13*7E
$GPGSV,5,3,18,25,78,207,33,26,00,318,,28,12,258,,29,31,016,29*76
$GPGSV,5,4,18,32,07,213,,36,52,277,,40,85,352,,41,58,082,30*7B
$GPGSV,5,5,18,49,32,274,,50,10,089,*78
$GLGSV,3,1,10,69,31,054,24,70,57,153,,71,20,193,17,73,48,204,29*62
$GLGSV,3,2,10,74,45,280,,75,07,317,,80,08,161,,84,05,009,*6B
$GLGSV,3,3,10,85,01,323,,,,,31*58
$GNGLL,0419.82815,S,05539.90877,E,074458.00,A,A*61
$GNRMC,074459.00,A,0419.82814,S,05539.90872,E,0.034,,280525,,,A*72
$GNVTG,,T,,M,0.034,N,0.063,K,A*3F
$GNGGA,074459.00,0419.82814,S,05539.90872,E,1,11,0.97,20.0,M,-47.6,M,,*45
$GNGSA,A,3,25,23,12,15,18,29,05,13,10,,,,1.79,0.97,1.50*1C
$GNGSA,A,3,73,69,,,,,,,,,,,1.79,0.97,1.50*12
$GPGSV,5,1,18,05,07,028,21,10,35,227,29,12,47,151,31,13,07,072,25*74
$GPGSV,5,2,18,15,43,087,24,18,22,329,25,23,70,278,23,24,19,147,09*74
$GPGSV,5,3,18,25,78,207,31,26,00,318,,28,12,258,,29,31,016,28*75
$GPGSV,5,4,18,32,07,213,,36,52,277,,40,85,352,,41,58,082,29*73
$GPGSV,5,5,18,49,32,274,,50,10,089,*78
$GLGSV,3,1,10,69,31,054,23,70,57,153,,71,20,193,14,73,48,204,28*67
$GLGSV,3,2,10,74,45,280,,75,07,317,,80,08,161,,84,05,009,*6B
$GLGSV,3,3,10,85,01,323,,,,,28*50
$GNGLL,0419.82814,S,05539.90872,E,074459.00,A,A*64
$GNRMC,074500.00,A,0419.82814,S,05539.90869,E,0.061,,280525,,,A*75
$GNVTG,,T,,M,0.061,N,0.114,K,A*3E
$GNGGA,074500.00,0419.82814,S,05539.90869,E,1,11,0.97,20.1,M,-47.6,M,,*43
$GNGSA,A,3,25,23,12,15,18,29,05,13,10,,,,1.79,0.97,1.50*1C
$GNGSA,A,3,73,69,,,,,,,,,,,1.79,0.97,1.50*12
$GPGSV,5,1,18,05,07,028,21,10,35,227,28,12,47,151,30,13,07,072,25*74
$GPGSV,5,2,18,15,43,087,25,18,22,329,25,23,70,278,22,24,19,147,08*75
$GPGSV,5,3,18,25,78,207,33,26,00,318,,28,12,258,,29,31,016,28*77
$GPGSV,5,4,18,32,07,213,,36,52,277,,40,85,352,,41,58,082,29*73
$GPGSV,5,5,18,49,32,274,,50,10,089,*78
$GLGSV,3,1,10,69,31,054,23,70,57,153,,71,20,193,13,73,48,204,29*61
$GLGSV,3,2,10,74,45,280,,75,07,317,,80,08,161,,84,05,009,*6B
$GLGSV,3,3,10,85,01,323,,,,,31*58
$GNGLL,0419.82814,S,05539.90869,E,074500.00,A,A*63
$GNRMC,074501.00,A,0419.82812,S,05539.90861,E,0.279,,280525,,,A*71
$GNVTG,,T,,M,0.279,N,0.517,K,A*32
$GNGGA,074501.00,0419.82812,S,05539.90861,E,1,12,0.86,20.2,M,-47.6,M,,*4C
$GNGSA,A,3,25,23,12,15,18,24,29,05,13,10,,,1.58,0.86,1.32*1D
$GNGSA,A,3,73,69,,,,,,,,,,,1.58,0.86,1.32*15
$GPGSV,5,1,18,05,07,028,21,10,35,227,26,12,47,151,31,13,07,072,25*7B
$GPGSV,5,2,18,15,43,087,26,18,22,329,25,23,70,278,22,24,19,147,14*7B
$GPGSV,5,3,18,25,78,207,33,26,00,318,,28,12,258,,29,31,016,29*76
$GPGSV,5,4,18,32,07,213,,36,52,277,,40,85,352,,41,58,082,30*7B
$GPGSV,5,5,18,49,32,274,,50,10,089,*78
$GLGSV,3,1,10,69,31,054,23,70,57,153,20,71,20,193,14,73,48,204,29*64
$GLGSV,3,2,10,74,45,280,,75,07,317,,80,08,161,,84,05,009,*6B
$GLGSV,3,3,10,85,01,323,,,,,31*58
$GNGLL,0419.82812,S,05539.90861,E,074501.00,A,A*6C
$GNRMC,074502.00,A,0419.82806,S,05539.90858,E,0.073,,280525,,,A*75
$GNVTG,,T,,M,0.073,N,0.135,K,A*3E
$GNGGA,074502.00,0419.82806,S,05539.90858,E,1,12,0.86,20.3,M,-47.6,M,,*41
$GNGSA,A,3,25,23,12,15,18,24,29,05,13,10,,,1.58,0.86,1.32*1D
$GNGSA,A,3,73,69,,,,,,,,,,,1.58,0.86,1.32*15
$GPGSV,5,1,18,05,07,028,21,10,35,227,26,12,47,151,31,13,07,071,25*78
$GPGSV,5,2,18,15,43,087,25,18,22,329,25,23,70,278,21,24,19,147,08*76
$GPGSV,5,3,18,25,78,207,32,26,00,318,,28,12,258,,29,31,016,30*7F
$GPGSV,5,4,18,32,07,213,,36,52,277,,40,85,352,,41,58,082,29*73
$GPGSV,5,5,18,49,32,274,,50,10,089,*78
$GLGSV,3,1,10,69,31,054,23,70,57,153,19,71,20,193,15,73,48,204,30*67
$GLGSV,3,2,10,74,45,280,,75,07,317,,80,08,161,,84,05,009,*6B
$GLGSV,3,3,10,85,01,323,,,,,31*58
$GNGLL,0419.82806,S,05539.90858,E,074502.00,A,A*60
$GNRMC,074503.00,A,0419.82803,S,05539.90854,E,0.164,,280525,,,A*7A
$GNVTG,,T,,M,0.164,N,0.303,K,A*3E
$GNGGA,074503.00,0419.82803,S,05539.90854,E,1,12,0.86,20.4,M,-47.6,M,,*4E
$GNGSA,A,3,25,23,12,15,18,24,29,05,13,10,,,1.58,0.86,1.32*1D
$GNGSA,A,3,73,69,,,,,,,,,,,1.58,0.86,1.32*15
$GPGSV,5,1,18,05,07,028,21,10,35,227,26,12,47,151,30,13,07,071,23*7F
$GPGSV,5,2,18,15,43,087,24,18,22,329,26,23,70,278,22,24,19,147,09*76
$GPGSV,5,3,18,25,78,207,33,26,00,318,,28,12,258,,29,31,016,29*76
$GPGSV,5,4,18,32,07,213,,36,52,277,,40,85,352,,41,58,082,30*7B
$GPGSV,5,5,18,49,32,274,,50,10,089,*78
$GLGSV,3,1,10,69,31,054,23,70,57,153,19,71,20,193,16,73,48,204,30*64
$GLGSV,3,2,10,74,45,280,,75,07,317,,80,08,161,,84,05,009,*6B
$GLGSV,3,3,10,85,01,323,,,,,31*58
$GNGLL,0419.82803,S,05539.90854,E,074503.00,A,A*68
$GNRMC,074504.00,A,0419.82802,S,05539.90860,E,0.151,,280525,,,A*7D
$GNVTG,,T,,M,0.151,N,0.280,K,A*32
$GNGGA,074504.00,0419.82802,S,05539.90860,E,1,12,0.86,20.4,M,-47.6,M,,*4F
$GNGSA,A,3,25,23,12,15,18,24,29,05,13,10,,,1.58,0.86,1.32*1D
$GNGSA,A,3,73,69,,,,,,,,,,,1.58,0.86,1.32*15
$GPGSV,5,1,18,05,07,028,22,10,35,227,27,12,47,151,34,13,07,071,29*73
$GPGSV,5,2,18,15,43,086,26,18,22,329,26,23,70,278,23,24,19,147,08*75
$GPGSV,5,3,18,25,78,207,34,26,00,318,,28,12,258,,29,31,016,33*7A
$GPGSV,5,4,18,32,07,213,,36,52,277,,40,85,352,,41,58,082,33*78
$GPGSV,5,5,18,49,32,274,,50,10,089,*78
$GLGSV,3,1,10,69,31,054,23,70,57,153,19,71,20,193,17,73,48,204,30*65
$GLGSV,3,2,10,74,45,280,,75,07,317,,80,08,161,,84,05,009,*6B
$GLGSV,3,3,10,85,01,323,,,,,30*59
$GNGLL,0419.82802,S,05539.90860,E,074504.00,A,A*69
$GNRMC,074505.00,A,0419.82804,S,05539.90863,E,0.013,,280525,,,A*7E
$GNVTG,,T,,M,0.013,N,0.024,K,A*39
$GNGGA,074505.00,0419.82804,S,05539.90863,E,1,12,0.86,20.2,M,-47.6,M,,*4D
$GNGSA,A,3,25,23,12,15,18,24,29,05,13,10,,,1.58,0.86,1.32*1D
$GNGSA,A,3,73,69,,,,,,,,,,,1.58,0.86,1.32*15
$GPGSV,5,1,18,05,07,028,24,10,35,227,28,12,47,151,31,13,07,071,29*7F
$GPGSV,5,2,18,15,43,086,25,18,22,329,25,23,70,278,22,24,19,147,12*7F
$GPGSV,5,3,18,25,78,207,34,26,00,318,,28,12,258,,29,31,016,29*71
$GPGSV,5,4,18,32,07,213,,36,52,277,,40,85,352,,41,58,082,29*73
$GPGSV,5,5,18,49,32,274,,50,10,089,*78
$GLGSV,3,1,10,69,31,054,21,70,57,153,19,71,20,193,16,73,48,204,31*67
$GLGSV,3,2,10,74,45,280,,75,07,317,,80,08,161,,84,05,009,*6B
$GLGSV,3,3,10,85,01,323,,,,,31*58
$GNGLL,0419.82804,S,05539.90863,E,074505.00,A,A*6D
$GNRMC,074506.00,A,0419.82801,S,05539.90867,E,0.102,,280525,,,A*7D
$GNVTG,,T,,M,0.102,N,0.189,K,A*3E
$GNGGA,074506.00,0419.82801,S,05539.90867,E,1,12,0.86,20.3,M,-47.6,M,,*4E
$GNGSA,A,3,25,23,12,15,18,24,29,05,13,10,,,1.58,0.86,1.32*1D
$GNGSA,A,3,73,69,,,,,,,,,,,1.58,0.86,1.32*15
$GPGSV,5,1,18,05,07,028,23,10,35,227,26,12,47,151,29,13,07,071,27*71
$GPGSV,5,2,18,15,43,086,22,18,22,329,23,23,70,278,20,24,19,147,10*7E
$GPGSV,5,3,18,25,78,207,32,26,00,318,,28,12,258,,29,31,016,28*76
$GPGSV,5,4,18,32,07,213,,36,52,277,,40,85,352,,41,58,082,30*7B
$GPGSV,5,5,18,49,32,274,,50,10,089,*78
$GLGSV,3,1,10,69,31,054,22,70,57,153,18,71,20,193,15,73,48,204,30*67
$GLGSV,3,2,10,74,45,280,,75,07,317,,80,08,161,,84,05,009,*6B
$GLGSV,3,3,10,85,01,323,,,,,31*58
$GNGLL,0419.82801,S,05539.90867,E,074506.00,A,A*6F
$GNRMC,074507.00,A,0419.82801,S,05539.90870,E,0.100,,280525,,,A*78
$GNVTG,,T,,M,0.100,N,0.185,K,A*30
$GNGGA,074507.00,0419.82801,S,05539.90870,E,1,12,0.86,20.3,M,-47.6,M,,*49
$GNGSA,A,3,25,23,12,15,18,24,29,05,13,10,,,1.58,0.86,1.32*1D
$GNGSA,A,3,73,69,,,,,,,,,,,1.58,0.86,1.32*15
$GPGSV,5,1,18,05,07,028,22,10,35,227,26,12,47,151,30,13,07,071,27*78
$GPGSV,5,2,18,15,43,086,21,18,22,329,24,23,70,278,18,24,19,147,12*73
$GPGSV,5,3,18,25,78,207,33,26,00,318,,28,12,258,,29,31,016,32*7C
$GPGSV,5,4,18,32,07,213,,36,52,277,,40,85,352,,41,58,082,30*7B
$GPGSV,5,5,18,49,32,274,,50,10,089,*78
$GLGSV,3,1,10,69,31,054,24,70,57,153,18,71,20,193,14,73,48,204,30*60
$GLGSV,3,2,10,74,45,280,,75,07,317,,80,08,161,,84,05,009,*6B
$GLGSV,3,3,10,85,01,323,,,,,31*58
$GNGLL,0419.82801,S,05539.90870,E,074507.00,A,A*68
$GNRMC,074508.00,A,0419.82802,S,05539.90878,E,0.208,,280525,,,A*77
$GNVTG,,T,,M,0.208,N,0.385,K,A*39
$GNGGA,074508.00,0419.82802,S,05539.90878,E,1,11,0.97,20.2,M,-47.6,M,,*4F
$GNGSA,A,3,25,23,12,15,18,29,05,13,10,,,,1.79,0.97,1.50*1C
$GNGSA,A,3,73,69,,,,,,,,,,,1.79,0.97,1.50*12
$GPGSV,5,1,18,05,07,028,21,10,35,227,25,12,47,151,30,13,07,071,26*79
$GPGSV,5,2,18,15,43,086,23,18,22,329,25,23,70,278,18,24,19,147,07*74
$GPGSV,5,3,18,25,78,207,35,26,00,318,,28,12,258,,29,31,016,28*71
$GPGSV,5,4,18,32,07,213,,36,52,277,,40,85,352,,41,58,082,30*7B
$GPGSV,5,5,18,49,32,274,,50,10,089,*78
$GLGSV,3,1,10,69,31,054,25,70,57,153,19,71,20,193,16,73,48,204,30*62
$GLGSV,3,2,10,74,45,280,,75,07,317,,80,08,161,,84,05,009,*6B
$GLGSV,3,3,10,85,01,323,,,,,31*58
$GNGLL,0419.82802,S,05539.90878,E,074508.00,A,A*6C
$GNRMC,074509.00,A,0419.82801,S,05539.90882,E,0.136,,280525,,,A*7E
$GNVTG,,T,,M,0.136,N,0.251,K,A*3F
$GNGGA,074509.00,0419.82801,S,05539.90882,E,1,12,0.86,19.9,M,-47.6,M,,*4A
$GNGSA,A,3,25,23,12,15,18,24,29,05,13,10,,,1.58,0.86,1.32*1D
$GNGSA,A,3,73,69,,,,,,,,,,,1.58,0.86,1.32*15
$GPGSV,5,1,18,05,07,028,20,10,35,227,26,12,47,151,30,13,07,071,27*7A
$GPGSV,5,2,18,15,43,086,25,18,22,329,25,23,70,278,23,24,19,147,16*7A
$GPGSV,5,3,18,25,78,207,35,26,00,318,,28,12,258,,29,31,016,28*71
$GPGSV,5,4,18,32,07,213,,36,52,277,,40,85,352,,41,58,082,31*7A
$GPGSV,5,5,18,49,32,274,,50,10,089,*78
$GLGSV,3,1,10,69,31,054,26,70,57,153,18,71,20,193,16,73,48,204,30*60
$GLGSV,3,2,10,74,45,280,,75,07,317,,80,08,161,,84,05,009,*6B
$GLGSV,3,3,10,85,01,323,,,,,30*59
$GNGLL,0419.82801,S,05539.90882,E,074509.00,A,A*6B
$GNRMC,074510.00,A,0419.82803,S,05539.90886,E,0.144,,280525,,,A*75
$GNVTG,,T,,M,0.144,N,0.266,K,A*3E
$GNGGA,074510.00,0419.82803,S,05539.90886,E,1,12,0.86,19.8,M,-47.6,M,,*45
$GNGSA,A,3,25,23,12,15,18,24,29,05,13,10,,,1.58,0.86,1.32*1D
$GNGSA,A,3,73,69,,,,,,,,,,,1.58,0.86,1.32*15
$GPGSV,5,1,18,05,07,028,21,10,35,227,25,12,47,151,30,13,07,071,25*7A
$GPGSV,5,2,18,15,43,086,24,18,22,329,25,23,70,278,21,24,19,147,13*7C
$GPGSV,5,3,18,25,78,207,34,26,00,318,,28,12,258,,29,31,016,29*71
$GPGSV,5,4,18,32,07,213,,36,52,277,,40,85,352,,41,58,082,31*7A
$GPGSV,5,5,18,49,32,274,,50,10,089,*78
