$GNRMC,074007.00,A,0419.83268,S,05539.90712,E,0.115,,280525,,,A*76
$GNVTG,,T,,M,0.115,N,0.212,K,A*39
$GNGGA,074007.00,0419.83268,S,05539.90712,E,1,12,0.88,25.5,M,-47.6,M,,*4E
$GNGSA,A,3,25,23,12,15,18,24,29,05,13,10,,,1.65,0.88,1.40*18
$GNGSA,A,3,73,69,,,,,,,,,,,1.65,0.88,1.40*10
$GPGSV,5,1,17,05,09,028,23,10,33,225,28,12,49,150,23,13,08,074,11*70
$GPGSV,5,2,17,15,43,089,32,18,22,327,24,23,70,270,16,24,20,149,09*77
$GPGSV,5,3,17,25,80,215,25,28,11,260,,29,29,014,25,32,05,214,*78
$GPGSV,5,4,17,36,52,277,,40,86,352,,41,58,082,,49,32,274,*7F
$GPGSV,5,5,17,50,10,089,*4A
$GLGSV,3,1,10,69,32,057,28,70,55,156,19,71,17,194,,73,50,207,23*64
$GLGSV,3,2,10,74,45,284,19,75,05,319,,80,10,162,,84,05,006,*6E
$GLGSV,3,3,10,85,01,321,,,,,30*5B
$GNGLL,0419.83268,S,05539.90712,E,074007.00,A,A*62
$GNRMC,074008.00,A,0419.83292,S,05539.90703,E,1.362,,280525,,,A*7F
$GNVTG,,T,,M,1.362,N,2.523,K,A*3D
$GNGGA,074008.00,0419.83292,S,05539.90703,E,1,11,1.05,26.7,M,-47.6,M,,*42
$GNGSA,A,3,25,23,12,15,18,29,05,13,10,,,,2.06,1.05,1.77*18
$GNGSA,A,3,73,69,,,,,,,,,,,2.06,1.05,1.77*16
$GPGSV,5,1,17,05,09,028,21,10,33,225,25,12,49,150,22,13,08,074,11*7E
$GPGSV,5,2,17,15,43,089,26,18,22,327,21,23,70,270,14,24,20,149,07*7B
$GPGSV,5,3,17,25,80,215,22,28,11,260,,29,29,014,22,32,05,214,*78
$GPGSV,5,4,17,36,52,277,,40,86,352,,41,58,082,,49,32,274,*7F
$GPGSV,5,5,17,50,10,089,*4A
$GLGSV,3,1,10,69,32,057,26,70,55,156,17,71,17,194,,73,50,207,19*6D
$GLGSV,3,2,10,74,45,284,18,75,05,319,,80,10,162,,84,05,006,*6F
$GLGSV,3,3,10,85,01,321,,,,,21*5B
$GNGLL,0419.83292,S,05539.90703,E,074008.00,A,A*68
$GNRMC,074009.00,A,0419.83308,S,05539.90691,E,0.364,,280525,,,A*71
$GNVTG,,T,,M,0.364,N,0.674,K,A*39
$GNGGA,074009.00,0419.83308,S,05539.90691,E,1,11,1.05,27.1,M,-47.6,M,,*4C
$GNGSA,A,3,25,23,12,15,18,29,05,13,10,,,,2.06,1.05,1.77*18
$GNGSA,A,3,73,69,,,,,,,,,,,2.06,1.05,1.77*16
$GPGSV,5,1,17,05,09,028,18,10,33,225,24,12,49,150,22,13,08,074,11*75
$GPGSV,5,2,17,15,43,089,27,18,22,327,22,23,70,270,17,24,20,149,07*7A
$GPGSV,5,3,17,25,80,215,22,28,11,260,,29,29,014,21,32,05,214,*7B
$GPGSV,5,4,17,36,52,277,,40,86,352,,41,58,082,,49,32,274,*7F
$GPGSV,5,5,17,50,10,089,*4A
$GLGSV,3,1,10,69,32,057,26,70,55,156,17,71,17,194,,73,50,207,17*63
$GLGSV,3,2,10,74,45,284,17,75,05,319,,80,10,162,,84,05,006,*60
$GLGSV,3,3,10,85,01,321,,,,,23*59
$GNGLL,0419.83308,S,05539.90691,E,074009.00,A,A*61
$GNRMC,074010.00,A,0419.83324,S,05539.90685,E,0.181,,280525,,,A*7B
$GNVTG,,T,,M,0.181,N,0.335,K,A*30
$GNGGA,074010.00,0419.83324,S,05539.90685,E,1,12,0.88,27.2,M,-47.6,M,,*4B
$GNGSA,A,3,25,23,12,15,18,24,29,05,13,10,,,1.65,0.88,1.40*18
$GNGSA,A,3,73,69,,,,,,,,,,,1.65,0.88,1.40*10
$GPGSV,5,1,17,05,09,028,16,10,33,225,23,12,49,150,23,13,08,074,11*7D
$GPGSV,5,2,17,15,43,089,28,18,22,327,24,23,70,270,20,24,20,149,07*77
$GPGSV,5,3,17,25,80,215,24,28,11,260,,29,29,014,23,32,05,214,*7F
$GPGSV,5,4,17,36,52,277,,40,86,352,,41,58,082,,49,32,274,*7F
$GPGSV,5,5,17,50,10,089,*4A
$GLGSV,3,1,10,69,32,057,28,70,55,156,17,71,17,194,,73,50,207,23*6A
$GLGSV,3,2,10,74,45,284,15,75,05,319,,80,10,162,,84,05,006,*62
$GLGSV,3,3,10,85,01,321,,,,,25*5F
$GNGLL,0419.83324,S,05539.90685,E,074010.00,A,A*62
$GNRMC,074011.00,A,0419.83351,S,05539.90680,E,0.029,,280525,,,A*7E
$GNVTG,,T,,M,0.029,N,0.053,K,A*30
$GNGGA,074011.00,0419.83351,S,05539.90680,E,1,11,1.05,26.8,M,-47.6,M,,*41
$GNGSA,A,3,25,23,12,15,18,29,05,13,10,,,,2.06,1.05,1.77*18
$GNGSA,A,3,73,69,,,,,,,,,,,2.06,1.05,1.77*16
$GPGSV,5,1,17,05,09,028,19,10,33,225,30,12,49,150,22,13,08,074,11*71
$GPGSV,5,2,17,15,43,089,28,18,22,327,25,23,70,272,20,24,20,149,*73
$GPGSV,5,3,17,25,80,215,25,28,11,260,,29,29,014,25,32,05,214,*78
$GPGSV,5,4,17,36,52,277,,40,86,352,,41,58,082,,49,32,274,*7F
$GPGSV,5,5,17,50,10,089,*4A
$GLGSV,3,1,10,69,32,057,29,70,55,156,19,71,17,194,,73,50,207,25*63
$GLGSV,3,2,10,74,45,284,16,75,05,319,,80,10,162,,84,05,006,*61
$GLGSV,3,3,10,85,01,321,,,,,28*52
$GNGLL,0419.83351,S,05539.90680,E,074011.00,A,A*64
$GNRMC,074012.00,A,0419.83370,S,05539.90682,E,0.014,,280525,,,A*72
$GNVTG,,T,,M,0.014,N,0.026,K,A*3C
$GNGGA,074012.00,0419.83370,S,05539.90682,E,1,11,0.96,26.8,M,-47.6,M,,*48
$GNGSA,A,3,25,23,12,15,18,29,05,13,10,,,,1.79,0.96,1.50*1D
$GNGSA,A,3,73,69,,,,,,,,,,,1.79,0.96,1.50*13
$GPGSV,5,1,17,05,09,028,21,10,33,225,31,12,49,150,19,13,08,074,11*73
$GPGSV,5,2,17,15,43,089,33,18,22,327,25,23,70,272,20,24,19,149,*73
$GPGSV,5,3,17,25,80,215,25,28,11,260,,29,29,014,26,32,05,214,*7B
$GPGSV,5,4,17,36,52,277,,40,86,352,,41,58,082,,49,32,274,*7F
$GPGSV,5,5,17,50,10,089,*4A
$GLGSV,3,1,10,69,32,057,30,70,55,156,19,71,17,194,,73,50,207,26*68
$GLGSV,3,2,10,74,45,284,17,75,05,319,,80,10,162,,84,05,006,*60
$GLGSV,3,3,10,85,01,321,,,,,28*52
$GNGLL,0419.83370,S,05539.90682,E,074012.00,A,A*66
$GNRMC,074013.00,A,0419.83393,S,05539.90693,E,0.189,,280525,,,A*7B
$GNVTG,,T,,M,0.189,N,0.350,K,A*3B
$GNGGA,074013.00,0419.83393,S,05539.90693,E,1,11,1.05,26.6,M,-47.6,M,,*41
$GNGSA,A,3,25,23,12,15,18,29,05,13,10,,,,2.06,1.05,1.77*18
$GNGSA,A,3,73,69,,,,,,,,,,,2.06,1.05,1.77*16
$GPGSV,5,1,17,05,09,028,22,10,33,225,31,12,49,150,20,13,08,074,14*7F
$GPGSV,5,2,17,15,43,089,33,18,22,327,25,23,70,272,20,24,19,149,15*77
$GPGSV,5,3,17,25,79,213,27,28,11,260,,29,29,014,29,32,05,214,*76
$GPGSV,5,4,17,36,52,277,,40,86,352,,41,58,082,,49,32,274,*7F
$GPGSV,5,5,17,50,10,089,*4A
$GLGSV,3,1,10,69,32,057,30,70,55,156,18,71,17,194,,73,50,207,27*68
$GLGSV,3,2,10,74,45,284,18,75,05,319,,80,10,162,,84,05,006,*6F
$GLGSV,3,3,10,85,01,321,,,,,25*5F
$GNGLL,0419.83393,S,05539.90693,E,074013.00,A,A*6A
$GNRMC,074014.00,A,0419.83405,S,05539.90693,E,0.150,,280525,,,A*70
$GNVTG,,T,,M,0.150,N,0.277,K,A*3B
$GNGGA,074014.00,0419.83405,S,05539.90693,E,1,11,1.05,26.6,M,-47.6,M,,*4E
$GNGSA,A,3,25,23,12,15,18,29,05,13,10,,,,2.06,1.05,1.77*18
$GNGSA,A,3,73,69,,,,,,,,,,,2.06,1.05,1.77*16
$GPGSV,5,1,17,05,09,028,22,10,33,225,30,12,49,150,21,13,08,074,16*7D
$GPGSV,5,2,17,15,43,089,29,18,22,327,26,23,70,272,18,24,19,149,14*75
$GPGSV,5,3,17,25,79,213,27,28,11,260,,29,29,014,27,32,05,214,*78
$GPGSV,5,4,17,36,52,277,,40,86,352,,41,58,082,,49,32,274,*7F
$GPGSV,5,5,17,50,10,089,*4A
$GLGSV,3,1,10,69,32,057,30,70,55,156,21,71,17,194,,73,50,207,28*6D
$GLGSV,3,2,10,74,45,284,18,75,05,319,,80,10,162,,84,05,006,*6F
$GLGSV,3,3,10,85,01,321,,,,,26*5C
$GNGLL,0419.83405,S,05539.90693,E,074014.00,A,A*65
$GNRMC,074015.00,A,0419.83413,S,05539.90695,E,0.153,,280525,,,A*73
$GNVTG,,T,,M,0.153,N,0.284,K,A*34
$GNGGA,074015.00,0419.83413,S,05539.90695,E,1,11,1.05,26.3,M,-47.6,M,,*4B
$GNGSA,A,3,25,23,12,15,18,29,05,13,10,,,,2.06,1.05,1.77*18
$GNGSA,A,3,73,69,,,,,,,,,,,2.06,1.05,1.77*16
$GPGSV,5,1,17,05,09,028,23,10,33,225,27,12,49,150,21,13,08,074,11*7D
$GPGSV,5,2,17,15,43,089,30,18,22,327,26,23,70,272,16,24,19,149,11*76
$GPGSV,5,3,17,25,79,213,25,28,11,260,,29,29,014,26,32,05,214,*7B
$GPGSV,5,4,17,36,52,277,,40,86,352,,41,58,082,,49,32,274,*7F
$GPGSV,5,5,17,50,10,089,*4A
$GLGSV,3,1,10,69,32,057,30,70,55,156,21,71,17,194,23,73,50,207,27*63
$GLGSV,3,2,10,74,45,284,17,75,05,319,,80,10,162,,84,05,006,*60
$GLGSV,3,3,10,85,01,321,,,,,26*5C
$GNGLL,0419.83413,S,05539.90695,E,074015.00,A,A*65
$GNRMC,074016.00,A,0419.83425,S,05539.90703,E,0.097,,280525,,,A*72
$GNVTG,,T,,M,0.097,N,0.180,K,A*3A
$GNGGA,074016.00,0419.83425,S,05539.90703,E,1,11,1.05,26.1,M,-47.6,M,,*41
$GNGSA,A,3,25,23,12,15,18,29,05,13,10,,,,2.06,1.05,1.77*18
$GNGSA,A,3,73,69,,,,,,,,,,,2.06,1.05,1.77*16
$GPGSV,5,1,17,05,09,028,25,10,33,225,26,12,49,150,22,13,08,074,14*7C
$GPGSV,5,2,17,15,43,089,34,18,22,327,25,23,70,272,14,24,19,149,09*7A
$GPGSV,5,3,17,25,79,213,24,28,11,260,,29,29,014,26,32,05,214,*7A
$GPGSV,5,4,17,36,52,277,,40,86,352,,41,58,082,,49,32,274,*7F
$GPGSV,5,5,17,50,10,089,*4A
$GLGSV,3,1,10,69,32,057,29,70,55,156,21,71,17,194,19,73,50,207,27*62
$GLGSV,3,2,10,74,45,284,16,75,05,319,,80,10,162,,84,05,006,*61
$GLGSV,3,3,10,85,01,321,,,,,25*5F
$GNGLL,0419.83425,S,05539.90703,E,074016.00,A,A*6D
$GNRMC,074017.00,A,0419.83426,S,05539.90708,E,0.053,,280525,,,A*73
$GNVTG,,T,,M,0.053,N,0.098,K,A*3A
$GNGGA,074017.00,0419.83426,S,05539.90708,E,1,12,1.05,25.9,M,-47.6,M,,*40
$GNGSA,A,3,25,23,12,15,18,24,29,05,13,10,,,2.06,1.05,1.77*1E
$GNGSA,A,3,73,69,,,,,,,,,,,2.06,1.05,1.77*16
$GPGSV,5,1,17,05,09,028,23,10,33,225,26,12,49,150,22,13,08,074,13*7D
$GPGSV,5,2,17,15,43,089,30,18,22,327,32,23,70,272,15,24,19,149,09*79
$GPGSV,5,3,17,25,79,213,31,28,11,260,,29,30,014,25,32,05,214,*75
$GPGSV,5,4,17,36,52,277,,40,86,352,,41,58,082,,49,32,274,*7F
$GPGSV,5,5,17,50,10,089,*4A
$GLGSV,3,1,10,69,32,057,30,70,55,156,21,71,17,194,16,73,50,207,29*6B
$GLGSV,3,2,10,74,45,284,18,75,05,319,,80,10,162,,84,05,006,*6F
$GLGSV,3,3,10,85,01,321,,,,,26*5C
$GNGLL,0419.83426,S,05539.90708,E,074017.00,A,A*64
$GNRMC,074018.00,A,0419.83438,S,05539.90724,E,0.192,,280525,,,A*71
$GNVTG,,T,,M,0.192,N,0.356,K,A*37
$GNGGA,074018.00,0419.83438,S,05539.90724,E,1,12,1.05,25.2,M,-47.6,M,,*45
$GNGSA,A,3,25,23,12,15,18,24,29,05,13,10,,,2.06,1.05,1.77*1E
$GNGSA,A,3,73,69,,,,,,,,,,,2.06,1.05,1.77*16
$GPGSV,5,1,17,05,09,028,22,10,33,225,28,12,49,150,20,13,08,074,10*73
$GPGSV,5,2,17,15,43,089,32,18,22,327,30,23,70,272,17,24,19,149,14*77
$GPGSV,5,3,17,25,79,213,30,28,11,260,,29,30,014,26,32,05,214,*77
$GPGSV,5,4,17,36,52,277,,40,86,352,,41,58,082,,49,32,274,*7F
$GPGSV,5,5,17,50,10,089,*4A
$GLGSV,3,1,10,69,32,057,30,70,55,156,20,71,17,194,14,73,50,207,30*60
$GLGSV,3,2,10,74,45,284,18,75,05,319,,80,10,162,,84,05,006,*6F
$GLGSV,3,3,10,85,01,321,,,,,27*5D
$GNGLL,0419.83438,S,05539.90724,E,074018.00,A,A*6A
$GNRMC,074019.00,A,0419.83440,S,05539.90732,E,0.110,,280525,,,A*72
$GNVTG,,T,,M,0.110,N,0.203,K,A*3C
$GNGGA,074019.00,0419.83440,S,05539.90732,E,1,12,1.05,25.3,M,-47.6,M,,*4D
$GNGSA,A,3,25,23,12,15,18,24,29,05,13,10,,,2.06,1.05,1.77*1E
$GNGSA,A,3,73,69,,,,,,,,,,,2.06,1.05,1.77*16
$GPGSV,5,1,17,05,09,028,21,10,33,225,11,12,49,150,17,13,08,074,12*7C
$GPGSV,5,2,17,15,43,089,32,18,22,327,27,23,70,272,19,24,19,149,08*72
$GPGSV,5,3,17,25,79,213,22,28,11,260,,29,30,014,25,32,05,214,*77
$GPGSV,5,4,17,36,52,277,,40,86,352,,41,58,082,,49,32,274,*7F
$GPGSV,5,5,17,50,10,089,*4A
$GLGSV,3,1,10,69,32,057,29,70,55,156,20,71,17,194,15,73,50,207,28*60
$GLGSV,3,2,10,74,45,284,16,75,05,319,,80,10,162,,84,05,006,*61
$GLGSV,3,3,10,85,01,321,,,,,26*5C
$GNGLL,0419.83440,S,05539.90732,E,074019.00,A,A*63
$GNRMC,074020.00,A,0419.83482,S,05539.90759,E,1.234,,280525,,,A*7F
$GNVTG,,T,,M,1.234,N,2.284,K,A*35
$GNGGA,074020.00,0419.83482,S,05539.90759,E,1,12,1.05,24.6,M,-47.6,M,,*40
$GNGSA,A,3,25,23,12,15,18,24,29,05,13,10,,,2.06,1.05,1.77*1E
$GNGSA,A,3,73,69,,,,,,,,,,,2.06,1.05,1.77*16
$GPGSV,5,1,17,05,09,028,20,10,33,225,13,12,49,150,14,13,08,074,10*7E
$GPGSV,5,2,17,15,43,089,26,18,22,327,24,23,70,272,22,24,19,149,11*74
$GPGSV,5,3,17,25,79,213,22,28,11,260,,29,30,014,25,32,06,214,*74
$GPGSV,5,4,17,36,52,277,,40,86,352,,41,58,082,,49,32,274,*7F
$GPGSV,5,5,17,50,10,089,*4A
$GLGSV,3,1,10,69,32,057,21,70,55,156,18,71,17,194,15,73,50,207,18*60
$GLGSV,3,2,10,74,45,284,14,75,05,319,,80,10,162,,84,05,006,*63
$GLGSV,3,3,10,85,01,321,,,,,25*5F
$GNGLL,0419.83482,S,05539.90759,E,074020.00,A,A*6A
$GNRMC,074021.00,A,0419.83497,S,05539.90763,E,0.044,,280525,,,A*77
$GNVTG,,T,,M,0.044,N,0.082,K,A*37
$GNGGA,074021.00,0419.83497,S,05539.90763,E,1,12,1.05,24.4,M,-47.6,M,,*4E
$GNGSA,A,3,25,23,12,15,18,24,29,05,13,10,,,2.06,1.05,1.77*1E
$GNGSA,A,3,73,69,,,,,,,,,,,2.06,1.05,1.77*16
$GPGSV,5,1,17,05,09,028,20,10,33,225,15,12,49,150,13,13,08,074,14*7B
$GPGSV,5,2,17,15,43,089,27,18,22,327,22,23,70,272,24,24,19,149,11*75
$GPGSV,5,3,17,25,79,213,24,28,11,260,,29,30,014,26,32,06,214,*71
$GPGSV,5,4,17,36,52,277,,40,86,352,,41,58,082,,49,32,274,*7F
$GPGSV,5,5,17,50,10,089,*4A
$GLGSV,3,1,10,69,32,057,24,70,55,156,14,71,17,194,13,73,50,207,22*66
$GLGSV,3,2,10,74,45,284,12,75,05,319,,80,10,162,,84,05,006,*65
$GLGSV,3,3,10,85,01,321,,,,,22*58
$GNGLL,0419.83497,S,05539.90763,E,074021.00,A,A*66
$GNRMC,074022.00,A,0419.83485,S,05539.90802,E,1.259,,280525,,,A*70
$GNVTG,,T,,M,1.259,N,2.332,K,A*32
$GNGGA,074022.00,0419.83485,S,05539.90802,E,1,12,0.88,25.2,M,-47.6,M,,*45
$GNGSA,A,3,25,23,12,15,18,24,29,05,13,10,,,1.65,0.88,1.40*18
$GNGSA,A,3,73,69,,,,,,,,,,,1.65,0.88,1.40*10
$GPGSV,5,1,17,05,09,028,18,10,33,225,14,12,49,150,13,13,08,074,10*75
$GPGSV,5,2,17,15,43,089,26,18,22,327,19,23,70,272,22,24,19,149,11*7A
$GPGSV,5,3,17,25,79,213,22,28,11,260,,29,30,014,24,32,06,214,*75
$GPGSV,5,4,17,36,52,277,,40,86,352,,41,58,082,,49,32,274,*7F
$GPGSV,5,5,17,50,10,089,*4A
$GLGSV,3,1,10,69,32,057,23,70,55,156,,71,17,194,12,73,50,207,23*64
$GLGSV,3,2,10,74,45,284,13,75,05,319,,80,10,162,,84,05,006,*64
$GLGSV,3,3,10,85,01,321,,,,,21*5B
$GNGLL,0419.83485,S,05539.90802,E,074022.00,A,A*6E
$GNRMC,074023.00,A,0419.83496,S,05539.90811,E,0.361,,280525,,,A*7A
$GNVTG,,T,,M,0.361,N,0.668,K,A*31
$GNGGA,074023.00,0419.83496,S,05539.90811,E,1,12,0.88,24.9,M,-47.6,M,,*4E
$GNGSA,A,3,25,23,12,15,18,24,29,05,13,10,,,1.65,0.88,1.40*18
$GNGSA,A,3,73,69,,,,,,,,,,,1.65,0.88,1.40*10
$GPGSV,5,1,17,05,09,028,17,10,33,225,15,12,49,150,15,13,08,074,12*7F
$GPGSV,5,2,17,15,43,089,29,18,22,327,18,23,70,272,23,24,19,149,12*76
$GPGSV,5,3,17,25,79,213,25,28,11,260,,29,30,014,24,32,06,214,*72
$GPGSV,5,4,17,36,52,277,,40,86,352,,41,58,082,,49,32,274,*7F
$GPGSV,5,5,17,50,10,089,*4A
$GLGSV,3,1,10,69,32,057,29,70,55,156,,71,17,194,12,73,50,207,24*69
$GLGSV,3,2,10,74,45,284,14,75,05,319,,80,10,162,,84,05,006,*63
$GLGSV,3,3,10,85,01,321,,,,,21*5B
$GNGLL,0419.83496,S,05539.90811,E,074023.00,A,A*6F
$GNRMC,074024.00,A,0419.83504,S,05539.90804,E,0.534,,280525,,,A*75
$GNVTG,,T,,M,0.534,N,0.989,K,A*37
$GNGGA,074024.00,0419.83504,S,05539.90804,E,1,11,1.05,25.6,M,-47.6,M,,*4E
$GNGSA,A,3,25,23,12,15,18,29,05,13,10,,,,2.06,1.05,1.77*18
$GNGSA,A,3,73,69,,,,,,,,,,,2.06,1.05,1.77*16
$GPGSV,5,1,17,05,09,028,16,10,33,225,15,12,49,150,11,13,08,074,07*7E
$GPGSV,5,2,17,15,43,089,28,18,22,327,15,23,70,272,23,24,19,149,12*7A
$GPGSV,5,3,17,25,79,213,25,28,11,260,,29,30,014,22,32,06,214,*74
$GPGSV,5,4,17,36,52,277,,40,86,352,,41,58,082,,49,32,274,*7F
$GPGSV,5,5,17,50,10,089,*4A
$GLGSV,3,1,10,69,32,057,28,70,55,156,,71,17,194,13,73,50,207,24*69
$GLGSV,3,2,10,74,45,284,14,75,05,319,,80,10,162,,84,05,006,*63
$GLGSV,3,3,10,85,01,321,,,,,20*5A
$GNGLL,0419.83504,S,05539.90804,E,074024.00,A,A*66
$GNRMC,074025.00,A,0419.83513,S,05539.90819,E,0.349,,280525,,,A*72
$GNVTG,,T,,M,0.349,N,0.647,K,A*36
$GNGGA,074025.00,0419.83513,S,05539.90819,E,1,10,1.05,25.4,M,-47.6,M,,*46
$GNGSA,A,3,25,23,12,15,18,29,05,10,,,,,2.06,1.05,1.77*1A
$GNGSA,A,3,73,69,,,,,,,,,,,2.06,1.05,1.77*16
$GPGSV,5,1,17,05,09,028,17,10,33,225,19,12,49,150,10,13,08,074,*75
$GPGSV,5,2,17,15,43,089,28,18,22,327,16,23,70,272,24,24,19,149,09*74
$GPGSV,5,3,17,25,79,213,25,28,11,260,,29,30,014,23,32,06,214,*75
$GPGSV,5,4,17,36,52,277,,40,86,352,,41,58,082,,49,32,274,*7F
$GPGSV,5,5,17,50,10,089,*4A
$GLGSV,3,1,10,69,32,057,26,70,55,156,,71,17,194,13,73,50,207,23*60
$GLGSV,3,2,10,74,45,284,11,75,05,319,,80,10,162,,84,05,006,*66
$GLGSV,3,3,10,85,01,321,,,,,19*50
$GNGLL,0419.83513,S,05539.90819,E,074025.00,A,A*6D
$GNRMC,074026.00,A,0419.83527,S,05539.90850,E,1.075,,280525,,,A*76
$GNVTG,,T,,M,1.075,N,1.991,K,A*3E
$GNGGA,074026.00,0419.83527,S,05539.90850,E,1,10,1.05,24.8,M,-47.6,M,,*42
$GNGSA,A,3,25,23,12,15,18,29,05,10,,,,,2.06,1.05,1.77*1A
$GNGSA,A,3,73,69,,,,,,,,,,,2.06,1.05,1.77*16
$GPGSV,5,1,17,05,09,028,16,10,33,225,20,12,49,150,11,13,08,074,*7F
$GPGSV,5,2,17,15,43,089,28,18,22,327,17,23,70,272,24,24,19,149,10*7D
$GPGSV,5,3,17,25,79,213,24,28,11,260,,29,30,014,23,32,06,214,*74
$GPGSV,5,4,17,36,52,277,,40,86,352,,41,58,082,,49,32,274,*7F
$GPGSV,5,5,17,50,10,089,*4A
$GLGSV,3,1,10,69,32,057,25,70,55,156,,71,17,194,12,73,50,207,23*62
$GLGSV,3,2,10,74,45,284,08,75,05,319,,80,10,162,,84,05,006,*6E
$GLGSV,3,3,10,85,01,321,,,,,17*5E
$GNGLL,0419.83527,S,05539.90850,E,074026.00,A,A*64
$GNRMC,074027.00,A,0419.83558,S,05539.90886,E,1.026,,280525,,,A*72
$GNVTG,,T,,M,1.026,N,1.901,K,A*31
$GNGGA,074027.00,0419.83558,S,05539.90886,E,1,11,1.05,22.4,M,-47.6,M,,*4B
$GNGSA,A,3,25,23,12,15,18,24,29,05,10,,,,2.06,1.05,1.77*1C
$GNGSA,A,3,73,69,,,,,,,,,,,2.06,1.05,1.77*16
$GPGSV,5,1,17,05,09,028,17,10,33,225,20,12,49,150,11,13,08,074,*7E
$GPGSV,5,2,17,15,43,089,28,18,22,327,18,23,70,272,22,24,19,149,09*7C
$GPGSV,5,3,17,25,79,213,24,28,11,260,,29,30,014,23,32,06,214,*74
$GPGSV,5,4,17,36,52,277,,40,86,352,,41,58,082,,49,32,274,*7F
$GPGSV,5,5,17,50,10,089,*4A
$GLGSV,3,1,10,69,32,057,24,70,55,156,,71,17,194,12,73,50,207,24*64
$GLGSV,3,2,10,74,45,284,08,75,05,319,,80,10,162,,84,05,006,*6E
$GLGSV,3,3,10,85,01,321,,,,,16*5F
$GNGLL,0419.83558,S,05539.90886,E,074027.00,A,A*66
$GNRMC,074028.00,A,0419.83530,S,05539.90883,E,0.472,,280525,,,A*72
$GNVTG,,T,,M,0.472,N,0.874,K,A*37
$GNGGA,074028.00,0419.83530,S,05539.90883,E,1,10,1.05,23.0,M,-47.6,M,,*4B
$GNGSA,A,3,25,23,12,15,18,29,05,10,,,,,2.06,1.05,1.77*1A
$GNGSA,A,3,73,69,,,,,,,,,,,2.06,1.05,1.77*16
$GPGSV,5,1,17,05,09,028,18,10,33,225,21,12,49,150,09,13,08,074,*79
$GPGSV,5,2,17,15,43,089,33,18,22,327,18,23,70,272,22,24,19,149,*7F
$GPGSV,5,3,17,25,79,213,30,28,11,260,,29,30,014,23,32,06,214,*71
$GPGSV,5,4,17,36,52,277,,40,86,352,,41,58,082,,49,32,274,*7F
$GPGSV,5,5,17,50,10,089,*4A
$GLGSV,3,1,10,69,32,057,24,70,55,156,,71,17,194,08,73,50,207,24*6F
$GLGSV,3,2,10,74,45,284,,75,05,319,,80,10,162,,84,05,006,*66
$GLGSV,3,3,10,85,01,321,,,,,15*5C
$GNGLL,0419.83530,S,05539.90883,E,074028.00,A,A*62
$GNRMC,074029.00,A,0419.83511,S,05539.90896,E,0.261,,280525,,,A*70
$GNVTG,,T,,M,0.261,N,0.483,K,A*37
$GNGGA,074029.00,0419.83511,S,05539.90896,E,1,10,1.05,24.1,M,-47.6,M,,*4B
$GNGSA,A,3,25,23,12,15,18,29,05,10,,,,,2.06,1.05,1.77*1A
$GNGSA,A,3,73,69,,,,,,,,,,,2.06,1.05,1.77*16
$GPGSV,5,1,17,05,09,028,20,10,33,225,19,12,49,150,13,13,08,074,*72
$GPGSV,5,2,17,15,43,089,30,18,22,327,16,23,70,272,28,24,19,149,*78
$GPGSV,5,3,17,25,79,213,29,28,11,260,,29,30,014,24,32,06,214,*7E
$GPGSV,5,4,17,36,52,277,,40,86,352,,41,58,082,,49,32,274,*7F
$GPGSV,5,5,17,50,10,089,*4A
$GLGSV,3,1,10,69,32,057,26,70,55,156,,71,17,194,08,73,50,207,25*6C
$GLGSV,3,2,10,74,45,284,,75,05,319,,80,10,162,,84,05,006,*66
$GLGSV,3,3,10,85,01,321,,,,,16*5F
$GNGLL,0419.83511,S,05539.90896,E,074029.00,A,A*64
$GNRMC,074030.00,A,0419.83480,S,05539.90898,E,0.137,,280525,,,A*7F
$GNVTG,,T,,M,0.137,N,0.255,K,A*3A
$GNGGA,074030.00,0419.83480,S,05539.90898,E,1,10,1.05,24.7,M,-47.6,M,,*42
$GNGSA,A,3,25,23,12,15,18,29,05,10,,,,,2.06,1.05,1.77*1A
$GNGSA,A,3,73,69,,,,,,,,,,,2.06,1.05,1.77*16
$GPGSV,5,1,17,05,09,028,20,10,33,225,17,12,49,150,13,13,08,074,*7C
$GPGSV,5,2,17,15,43,089,34,18,22,327,16,23,70,272,26,24,19,149,*72
$GPGSV,5,3,17,25,79,213,28,28,11,260,,29,30,014,25,32,06,214,*7E
$GPGSV,5,4,17,36,52,277,,40,86,352,,41,58,082,,49,32,274,*7F
$GPGSV,5,5,17,50,10,089,*4A
$GLGSV,3,1,10,69,32,057,29,70,55,156,,71,17,194,09,73,50,207,31*67
$GLGSV,3,2,10,74,45,284,,75,05,319,,80,10,162,,84,05,006,*66
$GLGSV,3,3,10,85,01,321,,,,,17*5E
$GNGLL,0419.83480,S,05539.90898,E,074030.00,A,A*6B
$GNRMC,074031.00,A,0419.83461,S,05539.90883,E,0.358,,280525,,,A*70
$GNVTG,,T,,M,0.358,N,0.662,K,A*31
$GNGGA,074031.00,0419.83461,S,05539.90883,E,1,10,1.05,25.2,M,-47.6,M,,*42
$GNGSA,A,3,25,23,12,15,18,29,05,10,,,,,2.06,1.05,1.77*1A
$GNGSA,A,3,73,69,,,,,,,,,,,2.06,1.05,1.77*16
$GPGSV,5,1,17,05,09,028,19,10,33,225,16,12,49,150,09,13,08,074,*7C
$GPGSV,5,2,17,15,43,089,34,18,22,327,15,23,70,272,25,24,19,149,*72
$GPGSV,5,3,17,25,79,213,25,28,11,260,,29,30,014,25,32,06,214,*73
$GPGSV,5,4,17,36,52,277,,40,86,352,,41,58,082,,49,32,274,*7F
$GPGSV,5,5,17,50,10,089,*4A
$GLGSV,3,1,10,69,32,057,27,70,55,156,,71,17,194,13,73,50,207,30*63
$GLGSV,3,2,10,74,45,284,,75,05,319,,80,10,162,,84,05,006,*66
$GLGSV,3,3,10,85,01,321,,,,,18*51
$GNGLL,0419.83461,S,05539.90883,E,074031.00,A,A*6F
$GNRMC,074032.00,A,0419.83420,S,05539.90867,E,1.974,339.88,280525,,,A*6E
$GNVTG,339.88,T,,M,1.974,N,3.656,K,A*27
$GNGGA,074032.00,0419.83420,S,05539.90867,E,1,10,1.05,24.7,M,-47.6,M,,*4A
$GNGSA,A,3,25,23,12,15,18,29,05,10,,,,,2.06,1.05,1.77*1A
$GNGSA,A,3,73,69,,,,,,,,,,,2.06,1.05,1.77*16
$GPGSV,5,1,17,05,09,028,18,10,33,225,19,12,49,150,09,13,08,074,*72
$GPGSV,5,2,17,15,43,089,34,18,22,327,14,23,70,272,30,24,19,149,*77
$GPGSV,5,3,17,25,79,213,30,28,11,260,,29,30,014,26,32,06,214,*74
$GPGSV,5,4,17,36,52,277,,40,86,352,,41,58,082,,49,32,274,*7F
$GPGSV,5,5,17,50,10,089,*4A
$GLGSV,3,1,10,69,32,057,22,70,55,156,,71,17,194,12,73,50,207,24*62
$GLGSV,3,2,10,74,45,284,,75,05,319,,80,10,162,,84,05,006,*66
$GLGSV,3,3,10,85,01,321,,,,,17*5E
$GNGLL,0419.83420,S,05539.90867,E,074032.00,A,A*63
$GNRMC,074033.00,A,0419.83407,S,05539.90879,E,0.096,,280525,,,A*76
$GNVTG,,T,,M,0.096,N,0.179,K,A*3D
$GNGGA,074033.00,0419.83407,S,05539.90879,E,1,10,1.16,24.8,M,-47.6,M,,*4C
$GNGSA,A,3,25,23,12,15,18,29,05,10,,,,,2.13,1.16,1.79*12
$GNGSA,A,3,73,69,,,,,,,,,,,2.13,1.16,1.79*1E
$GPGSV,5,1,17,05,09,028,20,10,33,225,23,12,49,150,19,13,08,074,*71
$GPGSV,5,2,17,15,43,089,34,18,22,327,16,23,70,272,29,24,19,149,*7D
$GPGSV,5,3,17,25,79,213,29,28,11,260,,29,30,014,27,32,06,214,*7D
$GPGSV,5,4,17,36,52,277,,40,86,352,,41,58,082,,49,32,274,*7F
$GPGSV,5,5,17,50,10,089,*4A
$GLGSV,3,1,10,69,32,057,30,70,55,156,,71,17,194,09,73,50,207,31*6F
$GLGSV,3,2,10,74,45,284,,75,05,319,,80,10,162,,84,05,006,*66
$GLGSV,3,3,10,85,01,321,,,,,18*51
$GNGLL,0419.83407,S,05539.90879,E,074033.00,A,A*68
$GNRMC,074034.00,A,0419.83402,S,05539.90878,E,0.378,,280525,,,A*76
$GNVTG,,T,,M,0.378,N,0.700,K,A*36
$GNGGA,074034.00,0419.83402,S,05539.90878,E,1,10,1.05,24.7,M,-47.6,M,,*42
$GNGSA,A,3,25,23,12,15,18,29,05,10,,,,,2.06,1.05,1.77*1A
$GNGSA,A,3,73,69,,,,,,,,,,,2.06,1.05,1.77*16
$GPGSV,5,1,17,05,09,028,19,10,33,225,21,12,49,150,13,13,08,074,06*75
$GPGSV,5,2,17,15,43,089,30,18,22,327,17,23,70,272,20,24,19,149,12*72
$GPGSV,5,3,17,25,79,213,19,28,11,260,,29,30,014,26,32,06,214,*7F
$GPGSV,5,4,17,36,52,277,,40,86,352,,41,58,082,,49,32,274,*7F
$GPGSV,5,5,17,50,10,089,*4A
$GLGSV,3,1,10,69,32,057,24,70,55,156,,71,17,194,,73,50,207,24*67
$GLGSV,3,2,10,74,45,284,,75,05,319,,80,10,162,,84,05,006,*66
$GLGSV,3,3,10,85,01,321,,,,,19*50
$GNGLL,0419.83402,S,05539.90878,E,074034.00,A,A*6B
$GNRMC,074035.00,A,0419.83376,S,05539.90864,E,0.492,,280525,,,A*7D
$GNVTG,,T,,M,0.492,N,0.910,K,A*3A
$GNGGA,074035.00,0419.83376,S,05539.90864,E,1,10,1.05,25.6,M,-47.6,M,,*4A
$GNGSA,A,3,25,23,12,15,18,29,05,10,,,,,2.06,1.05,1.77*1A
$GNGSA,A,3,73,69,,,,,,,,,,,2.06,1.05,1.77*16
$GPGSV,5,1,17,05,09,028,20,10,33,225,21,12,49,150,10,13,08,074,*7A
$GPGSV,5,2,17,15,43,089,36,18,22,327,17,23,70,272,29,24,19,149,*7E
$GPGSV,5,3,17,25,79,213,28,28,11,260,,29,30,014,26,32,06,214,*7D
$GPGSV,5,4,17,36,52,277,,40,86,352,,41,58,082,,49,32,274,*7F
$GPGSV,5,5,17,50,10,089,*4A
$GLGSV,3,1,10,69,32,057,23,70,55,156,,71,17,194,,73,50,207,23*67
$GLGSV,3,2,10,74,45,284,,75,05,319,,80,10,162,,84,05,006,*66
$GLGSV,3,3,10,85,01,321,,,,,18*51
$GNGLL,0419.83376,S,05539.90864,E,074035.00,A,A*63
$GNRMC,074036.00,A,0419.83371,S,05539.90882,E,0.175,,280525,,,A*7D
$GNVTG,,T,,M,0.175,N,0.324,K,A*3B
$GNGGA,074036.00,0419.83371,S,05539.90882,E,1,10,1.05,25.8,M,-47.6,M,,*48
$GNGSA,A,3,25,23,12,15,18,29,05,10,,,,,2.06,1.05,1.77*1A
$GNGSA,A,3,73,69,,,,,,,,,,,2.06,1.05,1.77*16
$GPGSV,5,1,17,05,09,028,23,10,33,225,21,12,49,150,13,13,08,074,*7A
$GPGSV,5,2,17,15,43,089,35,18,22,327,18,23,70,272,29,24,19,149,18*7B
$GPGSV,5,3,17,25,79,213,29,28,11,260,,29,30,014,28,32,06,214,*72
$GPGSV,5,4,17,36,52,277,,40,86,352,,41,58,082,,49,32,274,*7F
$GPGSV,5,5,17,50,10,089,*4A
$GLGSV,3,1,10,69,32,057,26,70,55,156,,71,17,194,,73,50,207,27*66
$GLGSV,3,2,10,74,45,284,,75,05,319,,80,10,162,,84,05,006,*66
$GLGSV,3,3,10,85,01,321,,,,,19*50
$GNGLL,0419.83371,S,05539.90882,E,074036.00,A,A*6F
$GNRMC,074037.00,A,0419.83365,S,05539.90894,E,0.190,,280525,,,A*75
$GNVTG,,T,,M,0.190,N,0.351,K,A*32
$GNGGA,074037.00,0419.83365,S,05539.90894,E,1,10,1.05,25.9,M,-47.6,M,,*4A
$GNGSA,A,3,25,23,12,15,18,29,05,10,,,,,2.06,1.05,1.77*1A
$GNGSA,A,3,73,69,,,,,,,,,,,2.06,1.05,1.77*16
$GPGSV,5,1,17,05,09,028,22,10,33,225,22,12,49,150,16,13,08,074,*7D
$GPGSV,5,2,17,15,43,089,33,18,22,327,20,23,70,272,27,24,19,149,18*78
$GPGSV,5,3,17,25,79,213,29,28,11,260,,29,30,014,28,32,06,214,*72
$GPGSV,5,4,17,36,52,277,,40,86,352,,41,58,082,,49,32,274,*7F
$GPGSV,5,5,17,50,10,089,*4A
$GLGSV,3,1,10,69,32,057,28,70,55,156,,71,17,194,,73,50,207,29*66
$GLGSV,3,2,10,74,45,284,,75,05,319,,80,10,162,,84,05,006,*66
$GLGSV,3,3,10,85,01,321,,,,,20*5A
$GNGLL,0419.83365,S,05539.90894,E,074037.00,A,A*6C
$GNRMC,074038.00,A,0419.83341,S,05539.90909,E,0.257,,280525,,,A*71
$GNVTG,,T,,M,0.257,N,0.476,K,A*38
$GNGGA,074038.00,0419.83341,S,05539.90909,E,1,10,1.05,26.7,M,-47.6,M,,*4B
$GNGSA,A,3,25,23,12,15,18,29,05,10,,,,,2.06,1.05,1.77*1A
$GNGSA,A,3,73,69,,,,,,,,,,,2.06,1.05,1.77*16
$GPGSV,5,1,17,05,09,028,22,10,33,225,22,12,49,150,15,13,08,074,*7E
$GPGSV,5,2,17,15,43,089,34,18,22,327,20,23,70,272,26,24,19,149,16*70
$GPGSV,5,3,17,25,79,213,29,28,11,260,,29,30,014,28,32,06,214,*72
$GPGSV,5,4,17,36,52,277,,40,86,352,,41,58,082,,49,32,274,*7F
$GPGSV,5,5,17,50,10,089,*4A
$GLGSV,3,1,10,69,32,057,28,70,55,156,,71,17,194,,73,50,207,30*6E
$GLGSV,3,2,10,74,45,284,,75,05,319,,80,10,162,,84,05,006,*66
$GLGSV,3,3,10,85,01,321,,,,,23*59
$GNGLL,0419.83341,S,05539.90909,E,074038.00,A,A*60
$GNRMC,074039.00,A,0419.83342,S,05539.90919,E,0.048,,280525,,,A*7E
$GNVTG,,T,,M,0.048,N,0.090,K,A*38
$GNGGA,074039.00,0419.83342,S,05539.90919,E,1,11,0.91,26.2,M,-47.6,M,,*40
$GNGSA,A,3,25,23,12,15,18,24,29,05,10,,,,1.68,0.91,1.42*1D
$GNGSA,A,3,73,69,,,,,,,,,,,1.68,0.91,1.42*17
$GPGSV,5,1,17,05,09,028,23,10,33,225,19,12,49,150,14,13,08,074,*76
$GPGSV,5,2,17,15,43,089,34,18,22,327,19,23,70,272,26,24,19,149,17*7B
$GPGSV,5,3,17,25,79,213,29,28,11,260,,29,30,014,29,32,06,214,*73
$GPGSV,5,4,17,36,52,277,31,40,86,352,,41,58,082,,49,32,274,*7D
$GPGSV,5,5,17,50,10,089,*4A
$GLGSV,3,1,10,69,32,057,29,70,55,156,,71,17,194,,73,50,207,30*6F
$GLGSV,3,2,10,74,45,284,,75,05,319,,80,10,162,,84,05,006,*66
$GLGSV,3,3,10,85,01,321,,,,,22*58
$GNGLL,0419.83342,S,05539.90919,E,074039.00,A,A*63
$GNRMC,074040.00,A,0419.83312,S,05539.90919,E,0.939,,280525,,,A*7A
$GNVTG,,T,,M,0.939,N,1.739,K,A*32
$GNGGA,074040.00,0419.83312,S,05539.90919,E,1,11,0.88,25.8,M,-47.6,M,,*4A
$GNGSA,A,3,25,23,12,15,18,24,29,05,10,,,,1.66,0.88,1.40*19
$GNGSA,A,3,73,69,,,,,,,,,,,1.66,0.88,1.40*13
$GPGSV,5,1,17,05,09,028,21,10,33,225,15,12,49,150,11,13,08,074,*7D
$GPGSV,5,2,17,15,43,089,29,18,22,327,17,23,70,272,25,24,19,149,16*7B
$GPGSV,5,3,17,25,79,213,28,28,11,260,,29,30,014,27,32,06,214,*7C
$GPGSV,5,4,17,36,52,277,29,40,86,352,,41,58,082,,49,32,274,*74
$GPGSV,5,5,17,50,10,089,*4A
$GLGSV,3,1,10,69,32,057,27,70,55,156,,71,17,194,,73,50,207,28*68
$GLGSV,3,2,10,74,45,284,,75,05,319,,80,10,162,,84,05,006,*66
$GLGSV,3,3,10,85,01,321,,,,,21*5B
$GNGLL,0419.83312,S,05539.90919,E,074040.00,A,A*68
$GNRMC,074041.00,A,0419.83282,S,05539.90918,E,0.684,,280525,,,A*7B
$GNVTG,,T,,M,0.684,N,1.267,K,A*35
$GNGGA,074041.00,0419.83282,S,05539.90918,E,1,11,0.88,26.0,M,-47.6,M,,*49
$GNGSA,A,3,25,23,12,15,18,24,29,05,10,,,,1.66,0.88,1.40*19
$GNGSA,A,3,73,69,,,,,,,,,,,1.66,0.88,1.40*13
$GPGSV,5,1,17,05,09,028,18,10,33,225,14,12,49,150,09,13,08,074,*7F
$GPGSV,5,2,17,15,43,089,28,18,22,327,14,23,70,272,21,24,19,149,15*7E
$GPGSV,5,3,17,25,79,213,25,28,11,260,,29,30,014,25,32,06,214,*73
$GPGSV,5,4,17,36,52,277,28,40,86,352,,41,58,082,,49,32,274,*75
$GPGSV,5,5,17,50,10,089,*4A
$GLGSV,3,1,10,69,32,057,25,70,55,156,,71,17,194,,73,50,207,27*65
$GLGSV,3,2,10,74,45,284,,75,05,319,,80,10,162,,84,05,006,*66
$GLGSV,3,3,10,85,01,321,,,,,19*50
$GNGLL,0419.83282,S,05539.90918,E,074041.00,A,A*60
$GNRMC,074042.00,A,0419.83259,S,05539.90916,E,0.870,,280525,,,A*75
$GNVTG,,T,,M,0.870,N,1.612,K,A*36
$GNGGA,074042.00,0419.83259,S,05539.90916,E,1,10,1.03,26.1,M,-47.6,M,,*40
$GNGSA,A,3,25,23,12,15,24,29,05,10,,,,,1.81,1.03,1.49*12
$GNGSA,A,3,73,69,,,,,,,,,,,1.81,1.03,1.49*11
$GPGSV,5,1,17,05,09,028,17,10,33,225,12,12,49,150,09,13,08,074,*76
$GPGSV,5,2,17,15,43,089,33,18,22,327,10,23,70,272,18,24,19,149,12*7D
$GPGSV,5,3,17,25,79,213,25,28,11,260,,29,30,014,25,32,06,214,*73
$GPGSV,5,4,17,36,52,277,32,40,86,352,,41,58,082,,49,32,274,*7E
$GPGSV,5,5,17,50,10,089,*4A
$GLGSV,3,1,10,69,32,057,24,70,55,156,,71,17,194,,73,50,207,26*65
$GLGSV,3,2,10,74,45,284,,75,05,319,,80,10,162,,84,05,006,*66
$GLGSV,3,3,10,85,01,321,,,,,20*5A
$GNGLL,0419.83259,S,05539.90916,E,074042.00,A,A*6B
$GNRMC,074043.00,A,0419.83244,S,05539.90919,E,0.476,,280525,,,A*7D
$GNVTG,,T,,M,0.476,N,0.882,K,A*3A
$GNGGA,074043.00,0419.83244,S,05539.90919,E,1,11,0.88,26.1,M,-47.6,M,,*41
$GNGSA,A,3,25,23,12,15,18,24,29,05,10,,,,1.66,0.88,1.40*19
$GNGSA,A,3,73,69,,,,,,,,,,,1.66,0.88,1.40*13
$GPGSV,5,1,17,05,09,028,18,10,33,225,15,12,49,150,10,13,08,074,*76
$GPGSV,5,2,17,15,43,089,28,18,22,327,15,23,70,272,20,24,19,149,11*7A
$GPGSV,5,3,17,25,79,213,26,28,11,260,,29,30,014,25,32,06,214,*70
$GPGSV,5,4,17,36,52,277,29,40,86,352,,41,58,082,,49,32,274,*74
$GPGSV,5,5,17,50,10,089,*4A
$GLGSV,3,1,10,69,32,057,24,70,55,156,,71,17,194,,73,50,207,25*66
$GLGSV,3,2,10,74,45,284,,75,05,319,,80,10,162,,84,05,006,*66
$GLGSV,3,3,10,85,01,321,,,,,20*5A
$GNGLL,0419.83244,S,05539.90919,E,074043.00,A,A*69
$GNRMC,074044.00,A,0419.83252,S,05539.90935,E,0.274,,280525,,,A*77
$GNVTG,,T,,M,0.274,N,0.508,K,A*31
$GNGGA,074044.00,0419.83252,S,05539.90935,E,1,10,1.05,25.6,M,-47.6,M,,*4E
$GNGSA,A,3,25,23,12,15,18,29,05,10,,,,,2.06,1.05,1.77*1A
$GNGSA,A,3,73,69,,,,,,,,,,,2.06,1.05,1.77*16
$GPGSV,5,1,17,05,09,028,18,10,33,225,15,12,49,150,17,13,08,074,*71
$GPGSV,5,2,17,15,43,089,33,18,22,327,18,23,70,272,20,24,19,149,10*7C
$GPGSV,5,3,17,25,79,213,27,28,11,260,,29,30,014,26,32,06,214,*72
$GPGSV,5,4,17,36,52,277,32,40,86,352,,41,58,082,,49,32,274,*7E
$GPGSV,5,5,17,50,10,089,*4A
$GLGSV,3,1,10,69,32,057,31,70,55,156,,71,17,194,,73,50,207,31*67
$GLGSV,3,2,10,74,45,284,,75,05,319,,80,10,162,,84,05,006,*66
$GLGSV,3,3,10,85,01,321,,,,,20*5A
$GNGLL,0419.83252,S,05539.90935,E,074044.00,A,A*67
$GNRMC,074045.00,A,0419.83248,S,05539.90942,E,0.172,,280525,,,A*78
$GNVTG,,T,,M,0.172,N,0.318,K,A*33
$GNGGA,074045.00,0419.83248,S,05539.90942,E,1,10,1.03,25.7,M,-47.6,M,,*43
$GNGSA,A,3,25,23,12,15,24,29,05,10,,,,,1.81,1.03,1.49*12
$GNGSA,A,3,73,69,,,,,,,,,,,1.81,1.03,1.49*11
$GPGSV,5,1,17,05,09,028,17,10,33,225,18,12,49,150,17,13,08,074,*73
$GPGSV,5,2,17,15,43,089,27,18,22,327,05,23,70,272,20,24,19,149,13*76
$GPGSV,5,3,17,25,79,213,26,28,11,260,,29,30,014,24,32,06,214,*71
$GPGSV,5,4,17,36,52,277,28,40,86,352,,41,58,082,,49,32,274,*75
$GPGSV,5,5,17,50,10,089,*4A
$GLGSV,3,1,10,69,32,056,24,70,55,156,,71,17,194,,73,50,207,25*67
$GLGSV,3,2,10,74,45,284,,75,05,319,,80,10,162,,84,05,006,*66
$GLGSV,3,3,10,85,01,321,,,,,20*5A
$GNGLL,0419.83248,S,05539.90942,E,074045.00,A,A*6D
$GNRMC,074046.00,A,0419.83258,S,05539.90952,E,0.234,,280525,,,A*7A
$GNVTG,,T,,M,0.234,N,0.434,K,A*3B
$GNGGA,074046.00,0419.83258,S,05539.90952,E,1,10,1.03,25.0,M,-47.6,M,,*47
$GNGSA,A,3,25,23,12,15,24,29,05,10,,,,,1.81,1.03,1.49*12
$GNGSA,A,3,73,69,,,,,,,,,,,1.81,1.03,1.49*11
$GPGSV,5,1,17,05,09,028,17,10,33,225,17,12,49,150,15,13,08,074,*7E
$GPGSV,5,2,17,15,43,089,32,18,22,327,06,23,70,272,23,24,19,149,15*74
$GPGSV,5,3,17,25,79,213,31,28,11,260,,29,30,014,30,32,06,214,*72
$GPGSV,5,4,17,36,52,277,30,40,86,352,,41,58,082,,49,32,274,*7C
$GPGSV,5,5,17,50,10,089,*4A
$GLGSV,3,1,10,69,32,056,29,70,55,155,,71,17,194,,73,50,207,31*6C
$GLGSV,3,2,10,74,45,284,,75,05,319,,80,10,162,,84,05,006,*66
$GLGSV,3,3,10,85,01,321,,,,,20*5A
$GNGLL,0419.83258,S,05539.90952,E,074046.00,A,A*6E
$GNRMC,074047.00,A,0419.83251,S,05539.90952,E,0.176,,280525,,,A*77
$GNVTG,,T,,M,0.176,N,0.326,K,A*3A
$GNGGA,074047.00,0419.83251,S,05539.90952,E,1,10,1.03,25.0,M,-47.6,M,,*4F
$GNGSA,A,3,25,23,12,15,24,29,05,10,,,,,1.81,1.03,1.49*12
$GNGSA,A,3,73,69,,,,,,,,,,,1.81,1.03,1.49*11
$GPGSV,5,1,17,05,09,028,18,10,33,225,15,12,49,150,16,13,08,074,*70
$GPGSV,5,2,17,15,43,089,35,18,22,327,08,23,70,272,24,24,19,149,14*7B
$GPGSV,5,3,17,25,79,213,25,28,11,260,,29,30,014,25,32,06,214,*73
$GPGSV,5,4,17,36,52,277,30,40,86,352,,41,58,082,,49,32,274,*7C
$GPGSV,5,5,17,50,10,089,*4A
$GLGSV,3,1,10,69,32,056,22,70,55,155,,71,18,194,,73,50,207,25*6D
$GLGSV,3,2,10,74,45,284,,75,05,319,,80,10,162,,84,05,006,*66
$GLGSV,3,3,10,85,01,321,,,,,21*5B
$GNGLL,0419.83251,S,05539.90952,E,074047.00,A,A*66
$GNRMC,074048.00,A,0419.83260,S,05539.90962,E,0.043,,280525,,,A*7E
$GNVTG,,T,,M,0.043,N,0.080,K,A*32
$GNGGA,074048.00,0419.83260,S,05539.90962,E,1,10,1.03,24.9,M,-47.6,M,,*49
$GNGSA,A,3,25,23,12,15,24,29,05,10,,,,,1.81,1.03,1.49*12
$GNGSA,A,3,73,69,,,,,,,,,,,1.81,1.03,1.49*11
$GPGSV,5,1,17,05,09,028,20,10,33,225,19,12,49,150,19,13,08,074,*78
$GPGSV,5,2,17,15,43,089,35,18,22,327,08,23,70,272,25,24,19,149,15*7B
$GPGSV,5,3,17,25,79,213,32,28,11,260,,29,30,014,29,32,06,214,*79
$GPGSV,5,4,17,36,52,277,33,40,86,352,,41,58,082,,49,32,274,*7F
$GPGSV,5,5,17,50,10,089,*4A
$GLGSV,3,1,10,69,32,056,25,70,55,155,,71,18,194,,73,50,207,31*6F
$GLGSV,3,2,10,74,45,284,,75,05,319,,80,10,162,,84,05,006,*66
$GLGSV,3,3,10,85,01,321,,,,,30*5B
$GNGLL,0419.83260,S,05539.90962,E,074048.00,A,A*68
$GNRMC,074049.00,A,0419.83261,S,05539.90970,E,0.118,,280525,,,A*72
$GNVTG,,T,,M,0.118,N,0.218,K,A*3E
$GNGGA,074049.00,0419.83261,S,05539.90970,E,1,10,1.03,25.0,M,-47.6,M,,*42
$GNGSA,A,3,25,23,12,15,24,29,05,10,,,,,1.81,1.03,1.49*12
$GNGSA,A,3,73,69,,,,,,,,,,,1.81,1.03,1.49*11
$GPGSV,5,1,17,05,09,028,22,10,33,225,20,12,49,150,21,13,08,074,*7B
$GPGSV,5,2,17,15,43,089,33,18,22,327,08,23,70,272,25,24,19,149,17*7F
$GPGSV,5,3,17,25,79,213,31,28,11,260,21,29,30,014,31,32,06,214,*70
$GPGSV,5,4,17,36,52,277,33,40,86,352,,41,58,082,,49,32,274,*7F
$GPGSV,5,5,17,50,10,089,*4A
$GLGSV,3,1,10,69,32,056,27,70,55,155,,71,18,194,,73,50,207,31*6D
$GLGSV,3,2,10,74,45,284,,75,05,319,,80,10,162,,84,05,006,*66
$GLGSV,3,3,10,85,01,321,,,,,29*53
$GNGLL,0419.83261,S,05539.90970,E,074049.00,A,A*6B
$GNRMC,074050.00,A,0419.83266,S,05539.90976,E,0.036,,280525,,,A*76
$GNVTG,,T,,M,0.036,N,0.066,K,A*38
$GNGGA,074050.00,0419.83266,S,05539.90976,E,1,10,1.03,24.5,M,-47.6,M,,*4F
$GNGSA,A,3,25,23,12,15,24,29,05,10,,,,,1.81,1.03,1.49*12
$GNGSA,A,3,73,69,,,,,,,,,,,1.81,1.03,1.49*11
$GPGSV,5,1,17,05,09,028,24,10,33,225,21,12,49,150,24,13,08,074,*79
$GPGSV,5,2,17,15,43,089,33,18,22,327,10,23,70,272,26,24,19,149,18*7A
$GPGSV,5,3,17,25,79,213,31,28,11,260,18,29,30,014,31,32,06,214,*7A
$GPGSV,5,4,17,36,52,277,33,40,86,352,,41,58,082,,49,32,274,*7F
$GPGSV,5,5,17,50,10,089,*4A
$GLGSV,3,1,10,69,32,056,28,70,55,155,,71,18,194,,73,50,207,31*62
$GLGSV,3,2,10,74,45,283,,75,05,319,,80,10,162,,84,05,006,*61
$GLGSV,3,3,10,85,01,321,,,,,28*52
$GNGLL,0419.83266,S,05539.90976,E,074050.00,A,A*62
$GNRMC,074051.00,A,0419.83265,S,05539.90981,E,0.077,,280525,,,A*79
$GNVTG,,T,,M,0.077,N,0.143,K,A*3B
$GNGGA,074051.00,0419.83265,S,05539.90981,E,1,10,1.03,24.4,M,-47.6,M,,*44
$GNGSA,A,3,25,23,12,15,24,29,05,10,,,,,1.81,1.03,1.49*12
$GNGSA,A,3,73,69,,,,,,,,,,,1.81,1.03,1.49*11
$GPGSV,5,1,17,05,09,028,23,10,33,225,20,12,49,150,23,13,08,074,*78
$GPGSV,5,2,17,15,43,089,34,18,22,327,10,23,70,272,25,24,19,149,17*71
$GPGSV,5,3,17,25,79,213,31,28,11,260,15,29,30,014,30,32,06,214,*76
$GPGSV,5,4,17,36,52,277,32,40,86,352,,41,58,082,,49,32,274,*7E
$GPGSV,5,5,17,50,10,089,*4A
$GLGSV,3,1,10,69,32,056,27,70,55,155,,71,18,194,,73,50,207,30*6C
$GLGSV,3,2,10,74,45,283,,75,06,319,,80,10,162,,84,05,006,*62
$GLGSV,3,3,10,85,01,321,,,,,27*5D
$GNGLL,0419.83265,S,05539.90981,E,074051.00,A,A*68
$GNRMC,074052.00,A,0419.83263,S,05539.90990,E,0.052,,280525,,,A*7B
$GNVTG,,T,,M,0.052,N,0.097,K,A*34
$GNGGA,074052.00,0419.83263,S,05539.90990,E,1,11,1.03,24.6,M,-47.6,M,,*42
$GNGSA,A,3,25,23,12,15,18,24,29,05,10,,,,1.81,1.03,1.49*1B
$GNGSA,A,3,73,69,,,,,,,,,,,1.81,1.03,1.49*11
$GPGSV,5,1,17,05,09,028,23,10,33,225,19,12,49,150,25,13,08,074,*74
$GPGSV,5,2,17,15,43,089,35,18,22,327,10,23,70,272,26,24,19,149,17*73
$GPGSV,5,3,17,25,79,213,30,28,11,260,13,29,30,014,31,32,06,214,*70
$GPGSV,5,4,17,36,52,277,33,40,86,352,,41,58,082,,49,32,274,*7F
$GPGSV,5,5,17,50,10,089,*4A
$GLGSV,3,1,10,69,32,056,29,70,55,155,23,71,18,194,,73,50,207,31*62
$GLGSV,3,2,10,74,45,283,,75,06,319,,80,10,162,,84,05,006,*62
$GLGSV,3,3,10,85,01,321,,,,,28*52
$GNGLL,0419.83263,S,05539.90990,E,074052.00,A,A*6D
$GNRMC,074053.00,A,0419.83272,S,05539.91005,E,0.056,,280525,,,A*7A
$GNVTG,,T,,M,0.056,N,0.104,K,A*3B
$GNGGA,074053.00,0419.83272,S,05539.91005,E,1,11,1.03,24.1,M,-47.6,M,,*40
$GNGSA,A,3,25,23,12,15,18,24,29,05,10,,,,1.81,1.03,1.49*1B
$GNGSA,A,3,73,69,,,,,,,,,,,1.81,1.03,1.49*11
$GPGSV,5,1,17,05,09,028,23,10,33,225,21,12,49,150,25,13,08,074,*7F
$GPGSV,5,2,17,15,43,089,36,18,22,327,12,23,70,272,27,24,19,149,20*77
$GPGSV,5,3,17,25,79,213,34,28,11,260,17,29,30,014,32,32,06,214,*73
$GPGSV,5,4,17,36,52,277,33,40,86,352,,41,58,082,,49,32,274,*7F
$GPGSV,5,5,17,50,10,089,*4A
$GLGSV,3,1,10,69,32,056,29,70,55,155,21,71,18,194,,73,50,207,32*63
$GLGSV,3,2,10,74,45,283,,75,06,319,,80,10,162,,84,05,006,*62
$GLGSV,3,3,10,85,01,321,,,,,32*59
$GNGLL,0419.83272,S,05539.91005,E,074053.00,A,A*68
$GNRMC,074054.00,A,0419.83285,S,05539.91021,E,0.071,,280525,,,A*76
$GNVTG,,T,,M,0.071,N,0.131,K,A*38
$GNGGA,074054.00,0419.83285,S,05539.91021,E,1,11,1.03,23.8,M,-47.6,M,,*47
$GNGSA,A,3,25,23,12,15,18,24,29,05,10,,,,1.81,1.03,1.49*1B
$GNGSA,A,3,73,69,,,,,,,,,,,1.81,1.03,1.49*11
$GPGSV,5,1,17,05,09,028,24,10,33,225,23,12,49,150,25,13,08,074,*7A
$GPGSV,5,2,17,15,43,089,36,18,22,327,15,23,70,272,26,24,19,149,23*72
$GPGSV,5,3,17,25,79,213,34,28,11,260,17,29,30,014,33,32,06,214,*72
$GPGSV,5,4,17,36,52,277,34,40,86,352,,41,58,082,,49,32,274,*78
$GPGSV,5,5,17,50,10,089,*4A
$GLGSV,3,1,10,69,32,056,29,70,55,155,19,71,18,194,,73,50,207,32*68
$GLGSV,3,2,10,74,45,283,,75,06,319,,80,10,162,,84,05,006,*62
$GLGSV,3,3,10,85,01,321,,,,,26*5C
$GNGLL,0419.83285,S,05539.91021,E,074054.00,A,A*61
$GNRMC,074055.00,A,0419.83298,S,05539.91030,E,0.010,,280525,,,A*7C
$GNVTG,,T,,M,0.010,N,0.018,K,A*35
$GNGGA,074055.00,0419.83298,S,05539.91030,E,1,11,1.03,23.6,M,-47.6,M,,*44
$GNGSA,A,3,25,23,12,15,18,24,29,05,10,,,,1.81,1.03,1.49*1B
$GNGSA,A,3,73,69,,,,,,,,,,,1.81,1.03,1.49*11
$GPGSV,5,1,17,05,09,028,24,10,33,225,24,12,49,150,23,13,08,074,*7B
$GPGSV,5,2,17,15,43,089,36,18,22,327,17,23,70,272,26,24,19,149,22*71
$GPGSV,5,3,17,25,79,213,33,28,11,260,17,29,30,014,31,32,06,214,*77
$GPGSV,5,4,17,36,52,277,34,40,86,352,,41,58,082,,49,32,274,*78
$GPGSV,5,5,17,50,10,089,*4A
$GLGSV,3,1,10,69,32,056,29,70,55,155,18,71,18,194,,73,50,207,31*6A
$GLGSV,3,2,10,74,45,283,,75,06,319,,80,10,162,,84,05,006,*62
$GLGSV,3,3,10,85,01,321,,,,,24*5E
$GNGLL,0419.83298,S,05539.91030,E,074055.00,A,A*6C
$GNRMC,074056.00,A,0419.83299,S,05539.91031,E,0.174,,280525,,,A*7C
$GNVTG,,T,,M,0.174,N,0.323,K,A*3D
$GNGGA,074056.00,0419.83299,S,05539.91031,E,1,11,1.03,24.0,M,-47.6,M,,*46
$GNGSA,A,3,25,23,12,15,18,24,29,05,10,,,,1.81,1.03,1.49*1B
$GNGSA,A,3,73,69,,,,,,,,,,,1.81,1.03,1.49*11
$GPGSV,5,1,17,05,09,028,23,10,33,225,23,12,49,150,22,13,08,074,13*78
$GPGSV,5,2,17,15,43,089,36,18,22,327,15,23,70,272,32,24,19,149,22*76
$GPGSV,5,3,17,25,79,213,33,28,11,260,16,29,30,014,31,32,06,214,*76
$GPGSV,5,4,17,36,52,277,35,40,86,352,,41,58,082,,49,32,274,*79
$GPGSV,5,5,17,50,10,089,*4A
$GLGSV,3,1,10,69,32,056,28,70,55,155,18,71,18,194,,73,50,207,30*6A
$GLGSV,3,2,10,74,45,283,,75,06,319,,80,10,162,,84,05,006,*62
$GLGSV,3,3,10,85,01,321,,,,,25*5F
$GNGLL,0419.83299,S,05539.91031,E,074056.00,A,A*6F
$GNRMC,074057.00,A,0419.83319,S,05539.91025,E,0.272,,280525,,,A*74
$GNVTG,,T,,M,0.272,N,0.504,K,A*3B
$GNGGA,074057.00,0419.83319,S,05539.91025,E,1,11,0.88,23.1,M,-47.6,M,,*4F
$GNGSA,A,3,25,23,12,15,18,24,29,05,10,,,,1.66,0.88,1.40*19
$GNGSA,A,3,73,69,,,,,,,,,,,1.66,0.88,1.40*13
$GPGSV,5,1,17,05,09,028,22,10,33,225,22,12,49,150,20,13,08,074,12*7B
$GPGSV,5,2,17,15,43,089,35,18,22,327,17,23,70,272,24,24,19,149,22*70
$GPGSV,5,3,17,25,79,213,32,28,11,260,16,29,30,014,34,32,06,214,*72
$GPGSV,5,4,17,36,52,277,31,40,86,352,,41,58,082,,49,32,274,*7D
$GPGSV,5,5,17,50,10,089,*4A
$GLGSV,3,1,10,69,32,056,28,70,55,155,18,71,18,194,,73,50,207,29*62
$GLGSV,3,2,10,74,45,283,,75,06,319,,80,10,162,,84,05,006,*62
$GLGSV,3,3,10,85,01,321,,,,,27*5D
$GNGLL,0419.83319,S,05539.91025,E,074057.00,A,A*62
$GNRMC,074058.00,A,0419.83324,S,05539.91022,E,0.046,,280525,,,A*77
$GNVTG,,T,,M,0.046,N,0.085,K,A*32
$GNGGA,074058.00,0419.83324,S,05539.91022,E,1,11,0.88,22.5,M,-47.6,M,,*4C
$GNGSA,A,3,25,23,12,15,18,24,29,05,10,,,,1.66,0.88,1.40*19
$GNGSA,A,3,73,69,,,,,,,,,,,1.66,0.88,1.40*13
$GPGSV,5,1,17,05,09,028,23,10,33,225,21,12,49,150,23,13,08,074,13*7B
$GPGSV,5,2,17,15,43,089,36,18,22,327,18,23,70,272,22,24,19,149,22*7A
$GPGSV,5,3,17,25,79,213,33,28,11,260,17,29,30,014,32,32,06,214,*74
$GPGSV,5,4,17,36,52,277,31,40,86,352,,41,58,082,,49,32,274,*7D
$GPGSV,5,5,17,50,10,089,*4A
$GLGSV,3,1,10,69,32,056,27,70,55,155,17,71,18,194,,73,50,207,34*6E
$GLGSV,3,2,10,74,45,283,,75,06,319,,80,10,162,,84,05,006,*62
$GLGSV,3,3,10,85,01,321,,,,,25*5F
$GNGLL,0419.83324,S,05539.91022,E,074058.00,A,A*64
$GNRMC,074059.00,A,0419.83323,S,05539.91012,E,0.270,,280525,,,A*75
$GNVTG,,T,,M,0.270,N,0.499,K,A*3C
$GNGGA,074059.00,0419.83323,S,05539.91012,E,1,11,0.88,22.2,M,-47.6,M,,*4E
$GNGSA,A,3,25,23,12,15,18,24,29,05,10,,,,1.66,0.88,1.40*19
$GNGSA,A,3,73,69,,,,,,,,,,,1.66,0.88,1.40*13
$GPGSV,5,1,17,05,09,028,22,10,33,225,23,12,49,150,23,13,08,074,11*7A
$GPGSV,5,2,17,15,43,089,33,18,22,327,18,23,70,272,23,24,19,149,19*76
$GPGSV,5,3,17,25,79,213,29,28,11,260,15,29,30,014,30,32,06,214,*7F
$GPGSV,5,4,17,36,52,277,30,40,86,352,,41,58,082,,49,32,274,*7C
$GPGSV,5,5,17,50,10,089,*4A
$GLGSV,3,1,10,69,32,056,26,70,55,155,19,71,18,194,,73,50,207,32*67
$GLGSV,3,2,10,74,45,283,,75,06,319,,80,10,162,,84,05,006,*62
$GLGSV,3,3,10,85,01,321,,,,,21*5B
$GNGLL,0419.83323,S,05539.91012,E,074059.00,A,A*61
$GNRMC,074100.00,A,0419.83337,S,05539.91010,E,0.067,,280525,,,A*7B
$GNVTG,,T,,M,0.067,N,0.124,K,A*3B
$GNGGA,074100.00,0419.83337,S,05539.91010,E,1,11,1.03,21.8,M,-47.6,M,,*4F
$GNGSA,A,3,25,23,12,15,18,24,29,05,10,,,,1.81,1.03,1.49*1B
$GNGSA,A,3,73,69,,,,,,,,,,,1.81,1.03,1.49*11
$GPGSV,5,1,17,05,09,028,21,10,33,225,26,12,49,150,24,13,08,074,09*72
$GPGSV,5,2,17,15,43,089,35,18,22,327,20,23,70,272,25,24,19,149,19*7D
$GPGSV,5,3,17,25,79,213,30,28,11,260,14,29,30,014,31,32,06,214,*77
$GPGSV,5,4,17,36,52,277,30,40,86,352,,41,58,082,,49,32,274,*7C
$GPGSV,5,5,17,50,10,089,*4A
$GLGSV,3,1,10,69,32,056,32,70,55,155,21,71,18,194,,73,50,207,32*69
$GLGSV,3,2,10,74,45,283,,75,06,319,,80,10,162,,84,05,007,*63
$GLGSV,3,3,10,85,01,321,,,,,22*58
$GNGLL,0419.83337,S,05539.91010,E,074100.00,A,A*6B
$GNRMC,074101.00,A,0419.83354,S,05539.91013,E,0.137,,280525,,,A*78
$GNVTG,,T,,M,0.137,N,0.253,K,A*3C
$GNGGA,074101.00,0419.83354,S,05539.91013,E,1,11,1.03,20.9,M,-47.6,M,,*48
$GNGSA,A,3,25,23,12,15,18,24,29,05,10,,,,1.81,1.03,1.49*1B
$GNGSA,A,3,73,69,,,,,,,,,,,1.81,1.03,1.49*11
$GPGSV,5,1,17,05,09,028,22,10,33,225,24,12,49,150,26,13,08,074,09*71
$GPGSV,5,2,17,15,43,089,35,18,22,327,22,23,70,272,26,24,19,149,19*7C
$GPGSV,5,3,17,25,79,213,35,28,11,260,14,29,30,014,32,32,06,214,*71
$GPGSV,5,4,17,36,52,277,31,40,86,352,,41,58,082,,49,32,274,*7D
$GPGSV,5,5,17,50,10,089,*4A
$GLGSV,3,1,10,69,32,056,26,70,55,155,20,71,18,194,,73,50,207,31*6E
$GLGSV,3,2,10,74,45,283,,75,06,319,,80,10,162,,84,05,007,*63
$GLGSV,3,3,10,85,01,321,,,,,19*50
$GNGLL,0419.83354,S,05539.91013,E,074101.00,A,A*6C
$GNRMC,074102.00,A,0419.83362,S,05539.91016,E,0.071,,280525,,,A*78
$GNVTG,,T,,M,0.071,N,0.131,K,A*38
$GNGGA,074102.00,0419.83362,S,05539.91016,E,1,11,1.03,20.7,M,-47.6,M,,*45
$GNGSA,A,3,25,23,12,15,18,24,29,05,10,,,,1.81,1.03,1.49*1B
$GNGSA,A,3,73,69,,,,,,,,,,,1.81,1.03,1.49*11
$GPGSV,5,1,17,05,09,028,20,10,33,225,23,12,49,150,26,13,08,074,08*75
$GPGSV,5,2,17,15,43,089,37,18,22,327,22,23,70,272,27,24,19,149,19*7F
$GPGSV,5,3,17,25,79,213,34,28,11,260,17,29,30,014,33,32,06,214,*72
$GPGSV,5,4,17,36,52,277,32,40,86,352,,41,58,082,,49,32,274,*7E
$GPGSV,5,5,17,50,10,089,*4A
$GLGSV,3,1,10,69,32,056,27,70,55,155,20,71,18,194,,73,50,207,32*6C
$GLGSV,3,2,10,74,45,283,,75,06,319,,80,10,162,,84,05,007,*63
$GLGSV,3,3,10,85,01,321,,,,,20*5A
$GNGLL,0419.83362,S,05539.91016,E,074102.00,A,A*6F
$GNRMC,074103.00,A,0419.83370,S,05539.91013,E,0.032,,280525,,,A*78
$GNVTG,,T,,M,0.032,N,0.060,K,A*3A
$GNGGA,074103.00,0419.83370,S,05539.91013,E,1,11,1.03,20.2,M,-47.6,M,,*47
$GNGSA,A,3,25,23,12,15,18,24,29,05,10,,,,1.81,1.03,1.49*1B
$GNGSA,A,3,73,69,,,,,,,,,,,1.81,1.03,1.49*11
$GPGSV,5,1,17,05,09,028,20,10,33,225,24,12,49,150,26,13,08,074,09*73
$GPGSV,5,2,17,15,43,089,35,18,22,327,22,23,70,272,27,24,19,149,19*7D
$GPGSV,5,3,17,25,79,213,33,28,11,260,16,29,30,014,28,32,06,214,*7E
$GPGSV,5,4,17,36,52,277,32,40,86,352,,41,58,082,,49,32,274,*7E
$GPGSV,5,5,17,50,10,089,*4A
$GLGSV,3,1,10,69,32,056,27,70,55,155,20,71,18,194,,73,50,207,32*6C
$GLGSV,3,2,10,74,45,283,,75,06,319,,80,10,162,,84,05,007,*63
$GLGSV,3,3,10,85,01,321,,,,,19*50
$GNGLL,0419.83370,S,05539.91013,E,074103.00,A,A*68
$GNRMC,074104.00,A,0419.83377,S,05539.91007,E,0.096,,280525,,,A*73
$GNVTG,,T,,M,0.096,N,0.178,K,A*3C
$GNGGA,074104.00,0419.83377,S,05539.91007,E,1,12,1.03,19.9,M,-47.6,M,,*40
$GNGSA,A,3,25,23,12,15,18,24,29,05,13,10,,,1.81,1.03,1.49*19
$GNGSA,A,3,73,69,,,,,,,,,,,1.81,1.03,1.49*11
$GPGSV,5,1,17,05,09,028,21,10,33,225,25,12,49,150,26,13,08,074,12*79
$GPGSV,5,2,17,15,43,089,34,18,22,327,23,23,70,272,28,24,19,149,20*78
$GPGSV,5,3,17,25,79,213,33,28,11,260,16,29,30,014,30,32,06,214,*77
$GPGSV,5,4,17,36,52,277,32,40,86,352,,41,58,082,,49,32,274,*7E
$GPGSV,5,5,17,50,10,089,*4A
$GLGSV,3,1,10,69,32,056,28,70,55,155,21,71,18,194,,73,50,207,32*62
$GLGSV,3,2,10,74,45,283,,75,06,319,,80,10,162,,84,05,007,*63
$GLGSV,3,3,10,85,01,321,,,,,18*51
$GNGLL,0419.83377,S,05539.91007,E,074104.00,A,A*6D
$GNRMC,074105.00,A,0419.83389,S,05539.91002,E,0.082,,280525,,,A*73
$GNVTG,,T,,M,0.082,N,0.152,K,A*31
$GNGGA,074105.00,0419.83389,S,05539.91002,E,1,12,1.03,19.4,M,-47.6,M,,*48
$GNGSA,A,3,25,23,12,15,18,24,29,05,13,10,,,1.81,1.03,1.49*19
$GNGSA,A,3,73,69,,,,,,,,,,,1.81,1.03,1.49*11
$GPGSV,5,1,17,05,09,028,21,10,33,225,23,12,49,150,26,13,08,074,13*7E
$GPGSV,5,2,17,15,43,089,34,18,22,327,22,23,70,272,28,24,19,149,19*73
$GPGSV,5,3,17,25,79,213,32,28,11,260,15,29,30,014,31,32,06,214,*74
$GPGSV,5,4,17,36,52,277,30,40,86,352,,41,58,082,,49,32,274,*7C
$GPGSV,5,5,17,50,10,089,*4A
$GLGSV,3,1,10,69,32,056,28,70,55,155,21,71,18,194,,73,50,207,32*62
$GLGSV,3,2,10,74,45,283,18,75,06,319,,80,10,162,,84,05,007,*6A
$GLGSV,3,3,10,85,01,321,,,,,16*5F
$GNGLL,0419.83389,S,05539.91002,E,074105.00,A,A*68
$GNRMC,074106.00,A,0419.83398,S,05539.91000,E,0.081,,280525,,,A*71
$GNVTG,,T,,M,0.081,N,0.150,K,A*30
$GNGGA,074106.00,0419.83398,S,05539.91000,E,1,12,0.88,19.1,M,-47.6,M,,*4E
$GNGSA,A,3,25,23,12,15,18,24,29,05,13,10,,,1.66,0.88,1.40*1B
$GNGSA,A,3,73,69,,,,,,,,,,,1.66,0.88,1.40*13
$GPGSV,5,1,17,05,09,028,22,10,33,225,21,12,49,150,26,13,08,074,11*7D
$GPGSV,5,2,17,15,43,089,34,18,22,327,23,23,70,272,29,24,19,149,21*78
$GPGSV,5,3,17,25,79,213,33,28,11,260,15,29,30,014,33,32,06,214,*77
$GPGSV,5,4,17,36,52,277,31,40,86,352,,41,58,082,,49,32,274,*7D
$GPGSV,5,5,17,50,10,089,*4A
$GLGSV,3,1,10,69,32,056,28,70,55,155,22,71,18,194,,73,50,207,32*61
$GLGSV,3,2,10,74,45,283,18,75,06,319,,80,10,162,,84,05,007,*6A
$GLGSV,3,3,10,85,01,321,,,,,19*50
$GNGLL,0419.83398,S,05539.91000,E,074106.00,A,A*69
$GNRMC,074107.00,A,0419.83413,S,05539.91000,E,0.055,,280525,,,A*7D
$GNVTG,,T,,M,0.055,N,0.102,K,A*3E
$GNGGA,074107.00,0419.83413,S,05539.91000,E,1,12,1.03,19.0,M,-47.6,M,,*48
$GNGSA,A,3,25,23,12,15,18,24,29,05,13,10,,,1.81,1.03,1.49*19
$GNGSA,A,3,73,69,,,,,,,,,,,1.81,1.03,1.49*11
$GPGSV,5,1,17,05,09,028,22,10,33,225,22,12,49,150,25,13,08,074,10*7C
$GPGSV,5,2,17,15,43,089,34,18,22,327,24,23,70,272,30,24,19,149,21*77
$GPGSV,5,3,17,25,79,213,32,28,11,260,13,29,30,014,32,32,06,214,*71
$GPGSV,5,4,17,36,52,277,31,40,86,352,,41,58,082,,49,32,274,*7D
$GPGSV,5,5,17,50,10,089,*4A
$GLGSV,3,1,10,69,32,056,29,70,55,155,23,71,18,194,,73,50,207,32*61
$GLGSV,3,2,10,74,45,283,17,75,06,319,,80,10,162,,84,05,007,*65
$GLGSV,3,3,10,85,01,321,,,,,20*5A
$GNGLL,0419.83413,S,05539.91000,E,074107.00,A,A*6C
$GNRMC,074108.00,A,0419.83425,S,05539.90982,E,0.028,,280525,,,A*7F
$GNVTG,,T,,M,0.028,N,0.052,K,A*30
$GNGGA,074108.00,0419.83425,S,05539.90982,E,1,12,1.03,18.1,M,-47.6,M,,*40
$GNGSA,A,3,25,23,12,15,18,24,29,05,13,10,,,1.81,1.03,1.49*19
$GNGSA,A,3,73,69,,,,,,,,,,,1.81,1.03,1.49*11
$GPGSV,5,1,17,05,09,028,22,10,33,225,24,12,49,150,27,13,08,074,08*71
$GPGSV,5,2,17,15,43,089,39,18,22,327,23,23,70,272,33,24,19,149,21*7E
$GPGSV,5,3,17,25,79,213,35,28,11,260,14,29,30,014,32,32,06,214,*71
$GPGSV,5,4,17,36,52,277,32,40,86,352,,41,58,082,,49,32,274,*7E
$GPGSV,5,5,17,50,10,089,*4A
$GLGSV,3,1,10,69,32,056,29,70,55,155,22,71,18,194,17,73,50,207,35*61
$GLGSV,3,2,10,74,45,283,17,75,06,319,,80,10,162,,84,05,007,*65
$GLGSV,3,3,10,85,01,321,,,,,20*5A
$GNGLL,0419.83425,S,05539.90982,E,074108.00,A,A*64
$GNRMC,074109.00,A,0419.83434,S,05539.90973,E,0.087,,280525,,,A*75
$GNVTG,,T,,M,0.087,N,0.160,K,A*35
$GNGGA,074109.00,0419.83434,S,05539.90973,E,1,12,1.03,17.5,M,-47.6,M,,*44
$GNGSA,A,3,25,23,12,15,18,24,29,05,13,10,,,1.81,1.03,1.49*19
$GNGSA,A,3,73,69,,,,,,,,,,,1.81,1.03,1.49*11
$GPGSV,5,1,17,05,08,028,23,10,33,225,26,12,49,150,27,13,08,074,11*7B
$GPGSV,5,2,17,15,43,089,36,18,22,327,24,23,70,272,32,24,19,149,21*77
$GPGSV,5,3,17,25,79,213,32,28,11,260,15,29,30,014,31,32,06,214,*74
$GPGSV,5,4,17,36,52,277,31,40,86,352,,41,58,082,,49,32,274,*7D
$GPGSV,5,5,17,50,10,089,*4A
$GLGSV,3,1,10,69,32,056,29,70,55,155,21,71,18,194,,73,50,207,30*61
$GLGSV,3,2,10,74,45,283,13,75,06,319,,80,10,162,,84,05,007,*61
$GLGSV,3,3,10,85,01,321,,,,,20*5A
$GNGLL,0419.83434,S,05539.90973,E,074109.00,A,A*6B
$GNRMC,074110.00,A,0419.83448,S,05539.90947,E,0.093,,280525,,,A*74
$GNVTG,,T,,M,0.093,N,0.172,K,A*33
$GNGGA,074110.00,0419.83448,S,05539.90947,E,1,12,0.88,16.5,M,-47.6,M,,*43
$GNGSA,A,3,25,23,12,15,18,24,29,05,13,10,,,1.66,0.88,1.40*1B
$GNGSA,A,3,73,69,,,,,,,,,,,1.66,0.88,1.40*13
$GPGSV,5,1,17,05,08,028,23,10,33,225,27,12,49,150,27,13,08,074,12*79
$GPGSV,5,2,17,15,43,089,39,18,22,327,26,23,70,272,35,24,19,149,21*7D
$GPGSV,5,3,17,25,79,213,34,28,11,260,14,29,30,014,35,32,06,214,*77
$GPGSV,5,4,17,36,52,277,32,40,86,352,,41,58,082,,49,32,274,*7E
$GPGSV,5,5,17,50,10,089,*4A
$GLGSV,3,1,10,69,32,056,28,70,55,155,20,71,18,194,,73,50,207,30*61
$GLGSV,3,2,10,74,45,283,09,75,06,319,,80,10,162,,84,05,007,*6A
$GLGSV,3,3,10,85,01,321,,,,,24*5E
$GNGLL,0419.83448,S,05539.90947,E,074110.00,A,A*6F
$GNRMC,074111.00,A,0419.83451,S,05539.90928,E,0.067,,280525,,,A*7F
$GNVTG,,T,,M,0.067,N,0.124,K,A*3B
$GNGGA,074111.00,0419.83451,S,05539.90928,E,1,12,0.85,15.8,M,-47.6,M,,*40
$GNGSA,A,3,25,23,12,15,18,24,29,05,13,10,,,1.57,0.85,1.32*11
$GNGSA,A,3,73,69,,,,,,,,,,,1.57,0.85,1.32*19
$GPGSV,5,1,17,05,08,028,22,10,33,225,27,12,49,150,25,13,08,074,14*7C
$GPGSV,5,2,17,15,43,089,37,18,22,327,26,23,70,272,34,24,19,149,20*73
$GPGSV,5,3,17,25,79,213,34,28,11,260,14,29,30,014,33,32,06,214,*71
$GPGSV,5,4,17,36,52,277,33,40,86,352,,41,58,082,,49,32,274,*7F
$GPGSV,5,5,17,50,10,089,*4A
$GLGSV,3,1,10,69,32,056,28,70,55,155,19,71,18,194,,73,50,207,31*6A
$GLGSV,3,2,10,74,45,283,08,75,06,319,,80,10,162,,84,05,007,*6B
$GLGSV,3,3,10,85,01,321,,,,,24*5E
$GNGLL,0419.83451,S,05539.90928,E,074111.00,A,A*6F
$GNRMC,074112.00,A,0419.83459,S,05539.90913,E,0.081,,280525,,,A*74
$GNVTG,,T,,M,0.081,N,0.149,K,A*38
$GNGGA,074112.00,0419.83459,S,05539.90913,E,1,12,0.88,15.0,M,-47.6,M,,*46
$GNGSA,A,3,25,23,12,15,18,24,29,05,13,10,,,1.66,0.88,1.40*1B
$GNGSA,A,3,73,69,,,,,,,,,,,1.66,0.88,1.40*13
$GPGSV,5,1,17,05,08,028,23,10,33,225,28,12,49,150,25,13,08,074,11*77
$GPGSV,5,2,17,15,43,089,37,18,22,327,26,23,70,272,34,24,19,149,21*72
$GPGSV,5,3,17,25,79,213,34,28,11,260,16,29,30,014,34,32,06,214,*74
$GPGSV,5,4,17,36,52,277,33,40,86,352,,41,58,082,,49,32,274,*7F
$GPGSV,5,5,17,50,10,089,*4A
$GLGSV,3,1,10,69,32,056,28,70,55,155,18,71,18,194,,73,50,207,31*6B
$GLGSV,3,2,10,74,45,283,07,75,06,319,,80,10,162,,84,05,007,*64
$GLGSV,3,3,10,85,01,321,,,,,21*5B
$GNGLL,0419.83459,S,05539.90913,E,074112.00,A,A*6C
$GNRMC,074113.00,A,0419.83464,S,05539.90894,E,0.046,,280525,,,A*7E
$GNVTG,,T,,M,0.046,N,0.085,K,A*32
$GNGGA,074113.00,0419.83464,S,05539.90894,E,1,12,0.88,14.2,M,-47.6,M,,*44
$GNGSA,A,3,25,23,12,15,18,24,29,05,13,10,,,1.66,0.88,1.40*1B
$GNGSA,A,3,73,69,,,,,,,,,,,1.66,0.88,1.40*13
$GPGSV,5,1,17,05,08,028,22,10,33,225,28,12,49,150,27,13,08,074,08*7C
$GPGSV,5,2,17,15,43,089,36,18,22,327,26,23,70,272,34,24,19,149,21*73
$GPGSV,5,3,17,25,79,213,34,28,11,260,17,29,30,014,32,32,06,214,*73
$GPGSV,5,4,17,36,52,277,31,40,86,352,,41,58,082,,49,32,274,*7D
$GPGSV,5,5,17,50,10,089,*4A
$GLGSV,3,1,10,69,32,056,28,70,55,155,19,71,18,194,,73,50,207,29*63
$GLGSV,3,2,10,74,45,283,08,75,06,319,,80,10,162,,84,05,007,*6B
$GLGSV,3,3,10,85,01,321,,,,,21*5B
$GNGLL,0419.83464,S,05539.90894,E,074113.00,A,A*6D
$GNRMC,074114.00,A,0419.83471,S,05539.90881,E,0.163,,280525,,,A*7F
$GNVTG,,T,,M,0.163,N,0.301,K,A*3B
$GNGGA,074114.00,0419.83471,S,05539.90881,E,1,12,0.85,13.5,M,-47.6,M,,*4E
$GNGSA,A,3,25,23,12,15,18,24,29,05,13,10,,,1.57,0.85,1.32*11
$GNGSA,A,3,73,69,,,,,,,,,,,1.57,0.85,1.32*19
$GPGSV,5,1,17,05,08,028,21,10,34,225,27,12,49,150,28,13,08,074,09*79
$GPGSV,5,2,17,15,43,089,29,18,22,327,25,23,70,272,29,24,19,149,21*72
$GPGSV,5,3,17,25,79,213,29,28,11,260,16,29,30,014,28,32,06,214,*75
$GPGSV,5,4,17,36,52,277,31,40,86,352,,41,58,082,,49,32,274,*7D
$GPGSV,5,5,17,50,10,089,*4A
$GLGSV,3,1,10,69,32,056,28,70,55,155,20,71,18,194,,73,50,207,27*67
$GLGSV,3,2,10,74,45,283,11,75,06,319,,80,10,162,,84,05,007,*63
$GLGSV,3,3,10,85,01,321,,,,,21*5B
$GNGLL,0419.83471,S,05539.90881,E,074114.00,A,A*6A
$GNRMC,074115.00,A,0419.83487,S,05539.90873,E,0.116,,280525,,,A*78
$GNVTG,,T,,M,0.116,N,0.214,K,A*3C
$GNGGA,074115.00,0419.83487,S,05539.90873,E,1,12,0.88,12.9,M,-47.6,M,,*4B
$GNGSA,A,3,25,23,12,15,18,24,29,05,13,10,,,1.66,0.88,1.40*1B
$GNGSA,A,3,73,69,,,,,,,,,,,1.66,0.88,1.40*13
$GPGSV,5,1,17,05,08,028,22,10,34,225,27,12,49,150,24,13,08,074,18*76
$GPGSV,5,2,17,15,43,089,37,18,22,327,24,23,70,272,36,24,19,149,21*72
$GPGSV,5,3,17,25,79,213,33,28,11,260,14,29,30,014,34,32,06,214,*71
$GPGSV,5,4,17,36,52,277,,40,86,352,,41,58,082,,49,32,274,*7F
$GPGSV,5,5,17,50,10,089,*4A
$GLGSV,3,1,10,69,32,056,28,70,55,155,20,71,18,194,,73,50,207,28*68
$GLGSV,3,2,10,74,45,283,12,75,06,319,,80,10,162,,84,05,007,*60
$GLGSV,3,3,10,85,01,321,,,,,20*5A
$GNGLL,0419.83487,S,05539.90873,E,074115.00,A,A*6F
$GNRMC,074116.00,A,0419.83491,S,05539.90862,E,0.079,,280525,,,A*74
$GNVTG,,T,,M,0.079,N,0.146,K,A*30
$GNGGA,074116.00,0419.83491,S,05539.90862,E,1,12,0.88,12.5,M,-47.6,M,,*43
$GNGSA,A,3,25,23,12,15,18,24,29,05,13,10,,,1.66,0.88,1.40*1B
$GNGSA,A,3,73,69,,,,,,,,,,,1.66,0.88,1.40*13
$GPGSV,5,1,17,05,08,028,22,10,34,225,25,12,48,151,26,13,08,074,12*7C
$GPGSV,5,2,17,15,43,089,36,18,22,327,25,23,70,272,33,24,19,149,21*77
$GPGSV,5,3,17,25,79,213,33,28,11,260,14,29,30,014,33,32,06,214,*76
$GPGSV,5,4,17,36,52,277,,40,86,352,,41,58,082,,49,32,274,*7F
$GPGSV,5,5,17,50,10,089,*4A
$GLGSV,3,1,10,69,32,056,28,70,55,155,20,71,18,194,,73,50,207,29*69
$GLGSV,3,2,10,74,45,283,11,75,06,319,,80,10,162,,84,05,007,*63
$GLGSV,3,3,10,85,01,321,,,,,19*50
$GNGLL,0419.83491,S,05539.90862,E,074116.00,A,A*6B
$GNRMC,074117.00,A,0419.83495,S,05539.90851,E,0.129,,280525,,,A*75
$GNVTG,,T,,M,0.129,N,0.239,K,A*3F
$GNGGA,074117.00,0419.83495,S,05539.90851,E,1,12,0.88,12.0,M,-47.6,M,,*43
$GNGSA,A,3,25,23,12,15,18,24,29,05,13,10,,,1.66,0.88,1.40*1B
$GNGSA,A,3,73,69,,,,,,,,,,,1.66,0.88,1.40*13
$GPGSV,5,1,17,05,08,028,22,10,34,225,24,12,48,151,27,13,08,073,12*7B
$GPGSV,5,2,17,15,43,089,36,18,22,327,25,23,70,272,33,24,19,149,20*76
$GPGSV,5,3,17,25,79,213,33,28,11,260,14,29,30,014,32,32,06,214,*77
$GPGSV,5,4,17,36,52,277,,40,86,352,,41,58,082,,49,32,274,*7F
$GPGSV,5,5,17,50,10,089,*4A
$GLGSV,3,1,10,69,32,056,29,70,55,155,20,71,18,194,,73,50,207,30*60
$GLGSV,3,2,10,74,45,283,,75,06,319,,80,10,162,,84,05,007,*63
$GLGSV,3,3,10,85,01,321,,,,,19*50
$GNGLL,0419.83495,S,05539.90851,E,074117.00,A,A*6E
$GNRMC,074118.00,A,0419.83495,S,05539.90837,E,0.100,,280525,,,A*71
$GNVTG,,T,,M,0.100,N,0.185,K,A*30
$GNGGA,074118.00,0419.83495,S,05539.90837,E,1,12,0.88,11.6,M,-47.6,M,,*49
$GNGSA,A,3,25,23,12,15,18,24,29,05,13,10,,,1.66,0.88,1.40*1B
$GNGSA,A,3,73,69,,,,,,,,,,,1.66,0.88,1.40*13
$GPGSV,5,1,17,05,08,028,23,10,34,225,25,12,48,151,28,13,08,073,15*73
$GPGSV,5,2,17,15,43,089,35,18,22,327,25,23,70,272,33,24,19,149,20*75
$GPGSV,5,3,17,25,79,213,33,28,11,260,,29,30,014,31,32,06,214,*71
$GPGSV,5,4,17,36,52,277,,40,86,352,,41,58,082,,49,32,274,*7F
$GPGSV,5,5,17,50,10,089,*4A
$GLGSV,3,1,10,69,32,056,29,70,55,155,20,71,18,194,,73,50,207,24*65
$GLGSV,3,2,10,74,45,283,,75,06,319,,80,10,162,,84,05,007,*63
$GLGSV,3,3,10,85,01,321,,,,,17*5E
$GNGLL,0419.83495,S,05539.90837,E,074118.00,A,A*61
$GNRMC,074119.00,A,0419.83497,S,05539.90825,E,0.106,,280525,,,A*77
$GNVTG,,T,,M,0.106,N,0.196,K,A*34
$GNGGA,074119.00,0419.83497,S,05539.90825,E,1,12,0.88,11.2,M,-47.6,M,,*4D
$GNGSA,A,3,25,23,12,15,18,24,29,05,13,10,,,1.66,0.88,1.40*1B
$GNGSA,A,3,73,69,,,,,,,,,,,1.66,0.88,1.40*13
$GPGSV,5,1,17,05,08,028,23,10,34,225,25,12,48,151,28,13,08,073,13*75
$GPGSV,5,2,17,15,43,089,35,18,22,327,25,23,70,272,34,24,19,149,21*73
$GPGSV,5,3,17,25,79,213,30,28,11,260,,29,30,014,30,32,06,214,*73
$GPGSV,5,4,17,36,52,277,,40,86,352,,41,58,082,,49,32,274,*7F
$GPGSV,5,5,17,50,10,089,*4A
$GLGSV,3,1,10,69,32,056,29,70,55,155,20,71,18,194,,73,50,207,25*64
$GLGSV,3,2,10,74,45,283,,75,06,319,,80,10,162,,84,05,007,*63
$GLGSV,3,3,10,85,01,321,,,,,16*5F
$GNGLL,0419.83497,S,05539.90825,E,074119.00,A,A*61
$GNRMC,074120.00,A,0419.83502,S,05539.90812,E,0.070,,280525,,,A*74
$GNVTG,,T,,M,0.070,N,0.130,K,A*38
$GNGGA,074120.00,0419.83502,S,05539.90812,E,1,11,0.88,10.6,M,-47.6,M,,*48
$GNGSA,A,3,25,23,12,15,18,24,29,05,10,,,,1.66,0.88,1.40*19
$GNGSA,A,3,73,69,,,,,,,,,,,1.66,0.88,1.40*13
$GPGSV,5,1,17,05,08,028,21,10,34,225,26,12,48,151,27,13,08,073,*79
$GPGSV,5,2,17,15,43,089,34,18,22,327,25,23,70,272,33,24,19,149,20*74
$GPGSV,5,3,17,25,79,213,31,28,11,260,,29,30,014,29,32,06,214,*7A
$GPGSV,5,4,17,36,52,277,33,40,86,352,,41,58,082,,49,32,274,*7F
$GPGSV,5,5,17,50,10,089,*4A
$GLGSV,3,1,10,69,32,056,29,70,55,155,20,71,18,194,,73,50,207,27*66
$GLGSV,3,2,10,74,45,283,,75,06,319,,80,10,162,,84,05,007,*63
$GLGSV,3,3,10,85,01,321,,,,,17*5E
$GNGLL,0419.83502,S,05539.90812,E,074120.00,A,A*62
$GNRMC,074121.00,A,0419.83506,S,05539.90801,E,0.081,,280525,,,A*7D
$GNVTG,,T,,M,0.081,N,0.150,K,A*30
$GNGGA,074121.00,0419.83506,S,05539.90801,E,1,11,0.88,10.1,M,-47.6,M,,*48
$GNGSA,A,3,25,23,12,15,18,24,29,05,10,,,,1.66,0.88,1.40*19
$GNGSA,A,3,73,69,,,,,,,,,,,1.66,0.88,1.40*13
$GPGSV,5,1,17,05,08,028,21,10,34,225,26,12,48,151,27,13,08,073,*79
$GPGSV,5,2,17,15,43,089,34,18,22,327,25,23,70,272,34,24,19,149,20*73
$GPGSV,5,3,17,25,79,213,30,28,11,260,,29,30,014,30,32,06,214,*73
$GPGSV,5,4,17,36,52,277,32,40,86,352,,41,58,082,,49,32,274,*7E
$GPGSV,5,5,17,50,10,089,*4A
$GLGSV,3,1,10,69,32,056,29,70,55,155,20,71,18,194,,73,50,207,26*67
$GLGSV,3,2,10,74,45,283,,75,06,319,,80,10,162,,84,05,007,*63
$GLGSV,3,3,10,85,01,321,,,,,19*50
$GNGLL,0419.83506,S,05539.90801,E,074121.00,A,A*65
