$GNRMC,051148.00,A,0419.80990,S,05539.80271,E,0.087,,270525,,,A*70
$GNVTG,,T,,M,0.087,N,0.161,K,A*34
$GNGGA,051148.00,0419.80990,S,05539.80271,E,1,12,0.76,14.9,M,-47.6,M,,*42
$GNGSA,A,3,05,24,12,20,18,15,13,,,,,,1.51,0.76,1.31*16
$GNGSA,A,3,79,78,83,82,67,,,,,,,,1.51,0.76,1.31*1A
$GPGSV,5,1,17,05,63,094,17,11,10,024,12,12,46,012,25,13,16,142,20*71
$GPGSV,5,2,17,15,30,176,22,18,30,246,18,20,37,049,16,22,10,129,08*73
$GPGSV,5,3,17,23,13,208,17,24,54,214,21,25,22,341,,29,09,315,*71
$GPGSV,5,4,17,36,52,277,29,40,86,351,,41,58,082,,49,32,274,*77
$GPGSV,5,5,17,50,10,089,*4A
$GLGSV,3,1,09,67,17,107,13,68,22,158,,69,06,204,,78,33,147,10*6C
$GLGSV,3,2,09,79,79,062,24,80,30,343,18,82,18,349,16,83,31,294,32*64
$GLGSV,3,3,09,84,11,240,*56
$GNGLL,0419.80990,S,05539.80271,E,051148.00,A,A*61
$GNRMC,051149.00,A,0419.80990,S,05539.80251,E,0.367,,270525,,,A*7E
$GNVTG,,T,,M,0.367,N,0.680,K,A*31
$GNGGA,051149.00,0419.80990,S,05539.80251,E,1,12,0.76,15.6,M,-47.6,M,,*4F
$GNGSA,A,3,05,24,12,20,18,15,13,,,,,,1.51,0.76,1.31*16
$GNGSA,A,3,79,78,83,82,67,,,,,,,,1.51,0.76,1.31*1A
$GPGSV,5,1,17,05,63,094,16,11,10,024,12,12,46,012,24,13,16,142,19*7B
$GPGSV,5,2,17,15,30,176,21,18,30,246,15,20,37,049,18,22,10,129,08*73
$GPGSV,5,3,17,23,13,208,17,24,54,214,22,25,22,341,,29,09,315,*72
$GPGSV,5,4,17,36,52,277,29,40,86,351,,41,58,082,,49,32,274,*77
$GPGSV,5,5,17,50,10,089,*4A
$GLGSV,3,1,09,67,17,107,14,68,22,158,,69,06,204,,78,33,147,11*6A
$GLGSV,3,2,09,79,79,062,24,80,31,343,21,82,18,349,11,83,31,294,27*6C
$GLGSV,3,3,09,84,11,240,*56
$GNGLL,0419.80990,S,05539.80251,E,051149.00,A,A*62
$GNRMC,051150.00,A,0419.81019,S,05539.80227,E,0.105,,270525,,,A*78
$GNVTG,,T,,M,0.105,N,0.194,K,A*35
$GNGGA,051150.00,0419.81019,S,05539.80227,E,1,12,0.72,16.4,M,-47.6,M,,*4A
$GNGSA,A,3,05,24,12,20,18,15,13,11,,,,,1.38,0.72,1.17*19
$GNGSA,A,3,79,78,83,82,67,,,,,,,,1.38,0.72,1.17*15
$GPGSV,5,1,17,05,63,094,23,11,10,024,08,12,46,012,26,13,16,142,20*7E
$GPGSV,5,2,17,15,30,176,23,18,30,246,19,20,37,049,23,22,10,129,08*75
$GPGSV,5,3,17,23,13,208,19,24,54,214,30,25,22,341,,29,09,315,*7F
$GPGSV,5,4,17,36,52,277,32,40,86,351,,41,58,082,,49,32,274,*7D
$GPGSV,5,5,17,50,10,089,*4A
$GLGSV,3,1,09,67,17,107,12,68,22,158,,69,06,204,,78,33,147,12*6F
$GLGSV,3,2,09,79,79,062,26,80,31,343,24,82,18,349,13,83,31,294,29*67
$GLGSV,3,3,09,84,11,240,*56
$GNGLL,0419.81019,S,05539.80227,E,051150.00,A,A*62
$GNRMC,051151.00,A,0419.81043,S,05539.80214,E,0.144,,270525,,,A*73
$GNVTG,,T,,M,0.144,N,0.267,K,A*3F
$GNGGA,051151.00,0419.81043,S,05539.80214,E,1,12,0.76,16.4,M,-47.6,M,,*40
$GNGSA,A,3,05,24,12,20,18,15,13,11,,,,,1.51,0.76,1.31*16
$GNGSA,A,3,79,78,83,82,67,,,,,,,,1.51,0.76,1.31*1A
$GPGSV,5,1,17,05,63,094,24,11,10,024,08,12,46,012,26,13,16,142,21*78
$GPGSV,5,2,17,15,30,176,22,18,30,246,18,20,37,049,22,22,10,129,08*74
$GPGSV,5,3,17,23,13,208,20,24,54,214,30,25,22,341,,29,09,315,*75
$GPGSV,5,4,17,36,52,277,33,40,86,351,,41,58,082,,49,32,274,*7C
$GPGSV,5,5,17,50,10,089,*4A
$GLGSV,3,1,09,67,17,107,17,68,22,158,,69,06,204,,78,33,147,15*6D
$GLGSV,3,2,09,79,79,062,27,80,31,343,21,82,18,349,19,83,31,294,31*60
$GLGSV,3,3,09,84,11,240,*56
$GNGLL,0419.81043,S,05539.80214,E,051151.00,A,A*6C
$GNRMC,051152.00,A,0419.81029,S,05539.80200,E,1.019,,270525,,,A*71
$GNVTG,,T,,M,1.019,N,1.888,K,A*3D
$GNGGA,051152.00,0419.81029,S,05539.80200,E,1,12,0.76,17.0,M,-47.6,M,,*4F
$GNGSA,A,3,05,24,12,20,18,15,13,11,,,,,1.51,0.76,1.31*16
$GNGSA,A,3,79,78,83,82,67,,,,,,,,1.51,0.76,1.31*1A
$GPGSV,5,1,17,05,63,094,23,11,10,024,08,12,46,012,23,13,16,142,18*70
$GPGSV,5,2,17,15,30,176,20,18,30,246,16,20,37,049,20,22,10,129,*72
$GPGSV,5,3,17,23,13,208,18,24,54,214,22,25,22,341,,29,09,315,*7D
$GPGSV,5,4,17,36,52,277,28,40,86,351,,41,58,082,,49,32,274,*76
$GPGSV,5,5,17,50,10,089,*4A
$GLGSV,3,1,09,67,17,107,11,68,22,158,,69,06,204,,78,33,147,12*6C
$GLGSV,3,2,09,79,79,062,26,80,31,343,18,82,18,349,15,83,31,295,29*6F
$GLGSV,3,3,09,84,11,240,*56
$GNGLL,0419.81029,S,05539.80200,E,051152.00,A,A*66
$GNRMC,051153.00,A,0419.81028,S,05539.80188,E,0.319,,270525,,,A*70
$GNVTG,,T,,M,0.319,N,0.592,K,A*38
$GNGGA,051153.00,0419.81028,S,05539.80188,E,1,11,0.79,17.3,M,-47.6,M,,*43
$GNGSA,A,3,05,24,12,20,18,15,13,,,,,,1.52,0.79,1.31*1A
$GNGSA,A,3,79,83,82,67,,,,,,,,,1.52,0.79,1.31*19
$GPGSV,5,1,17,05,63,094,24,11,10,024,,12,46,012,24,13,16,142,18*78
$GPGSV,5,2,17,15,30,176,23,18,30,246,18,20,37,049,18,22,10,129,*74
$GPGSV,5,3,17,23,13,208,19,24,54,214,25,25,22,341,,29,09,315,*7B
$GPGSV,5,4,17,36,52,277,33,40,86,351,,41,58,082,33,49,32,274,*7C
$GPGSV,5,5,17,50,10,089,*4A
$GLGSV,3,1,09,67,17,107,12,68,22,158,,69,06,204,,78,33,147,07*6B
$GLGSV,3,2,09,79,79,062,26,80,31,343,19,82,18,349,12,83,31,295,30*61
$GLGSV,3,3,09,84,11,241,*57
$GNGLL,0419.81028,S,05539.80188,E,051153.00,A,A*65
$GNRMC,051154.00,A,0419.81056,S,05539.80148,E,1.339,,270525,,,A*71
$GNVTG,,T,,M,1.339,N,2.480,K,A*3B
$GNGGA,051154.00,0419.81056,S,05539.80148,E,1,12,0.76,17.7,M,-47.6,M,,*49
$GNGSA,A,3,05,24,12,20,18,15,13,,,,,,1.51,0.76,1.31*16
$GNGSA,A,3,79,78,83,82,67,,,,,,,,1.51,0.76,1.31*1A
$GPGSV,5,1,17,05,63,094,24,11,10,024,17,12,46,012,22,13,16,142,18*78
$GPGSV,5,2,17,15,30,176,23,18,30,246,21,20,37,049,19,22,10,129,*7F
$GPGSV,5,3,17,23,13,208,20,24,54,214,24,25,22,341,,29,09,315,*70
$GPGSV,5,4,17,36,52,277,27,40,86,351,,41,58,082,32,49,32,274,*78
$GPGSV,5,5,17,50,10,089,*4A
$GLGSV,3,1,09,67,17,107,13,68,22,158,,69,06,204,,78,33,147,10*6C
$GLGSV,3,2,09,79,79,062,25,80,31,343,20,82,18,349,12,83,31,295,30*68
$GLGSV,3,3,09,84,11,241,*57
$GNGLL,0419.81056,S,05539.80148,E,051154.00,A,A*67
$GNRMC,051155.00,A,0419.81063,S,05539.80128,E,0.087,,270525,,,A*77
$GNVTG,,T,,M,0.087,N,0.161,K,A*34
$GNGGA,051155.00,0419.81063,S,05539.80128,E,1,12,0.76,18.2,M,-47.6,M,,*42
$GNGSA,A,3,05,24,12,20,18,15,13,,,,,,1.51,0.76,1.31*16
$GNGSA,A,3,79,78,83,82,67,,,,,,,,1.51,0.76,1.31*1A
$GPGSV,5,1,17,05,63,094,25,11,10,024,13,12,46,012,21,13,16,142,20*75
$GPGSV,5,2,17,15,30,176,23,18,30,246,18,20,37,049,22,22,10,129,*7D
$GPGSV,5,3,17,23,13,208,19,24,54,214,24,25,22,341,,29,09,315,*7A
$GPGSV,5,4,17,36,52,277,30,40,86,351,,41,58,082,31,49,32,274,*7D
$GPGSV,5,5,17,50,10,089,*4A
$GLGSV,3,1,09,67,17,107,16,68,22,158,,69,06,204,,78,33,147,11*68
$GLGSV,3,2,09,79,79,062,26,80,31,343,22,82,18,349,17,83,31,295,31*6D
$GLGSV,3,3,09,84,11,241,*57
$GNGLL,0419.81063,S,05539.80128,E,051155.00,A,A*66
$GNRMC,051156.00,A,0419.81084,S,05539.80140,E,0.791,,270525,,,A*73
$GNVTG,,T,,M,0.791,N,1.464,K,A*35
$GNGGA,051156.00,0419.81084,S,05539.80140,E,1,11,0.84,17.6,M,-47.6,M,,*43
$GNGSA,A,3,05,24,12,20,18,15,13,,,,,,1.60,0.84,1.37*1F
$GNGSA,A,3,79,78,83,67,,,,,,,,,1.60,0.84,1.37*19
$GPGSV,5,1,17,05,63,094,23,11,10,024,10,12,46,012,20,13,16,142,19*7B
$GPGSV,5,2,17,15,30,176,22,18,30,246,15,20,37,049,21,22,10,129,*72
$GPGSV,5,3,17,23,13,208,17,24,54,214,22,25,22,341,,29,09,315,*72
$GPGSV,5,4,17,36,52,277,29,40,86,351,,41,58,082,29,49,32,274,*7C
$GPGSV,5,5,17,50,10,089,*4A
$GLGSV,3,1,09,67,17,107,13,68,22,158,,69,06,204,,78,33,147,09*64
$GLGSV,3,2,09,79,79,062,25,80,31,343,20,82,18,349,07,83,31,295,30*6C
$GLGSV,3,3,09,84,11,241,*57
$GNGLL,0419.81084,S,05539.80140,E,051156.00,A,A*62
$GNRMC,051157.00,A,0419.81090,S,05539.80143,E,0.242,,270525,,,A*7F
$GNVTG,,T,,M,0.242,N,0.448,K,A*31
$GNGGA,051157.00,0419.81090,S,05539.80143,E,1,12,0.74,17.5,M,-47.6,M,,*4B
$GNGSA,A,3,05,24,12,20,18,15,13,,,,,,1.41,0.74,1.20*15
$GNGSA,A,3,79,78,83,82,67,,,,,,,,1.41,0.74,1.20*19
$GPGSV,5,1,17,05,63,094,24,11,10,024,08,12,46,012,17,13,16,142,19*71
$GPGSV,5,2,17,15,30,176,23,18,30,246,17,20,37,049,21,22,10,129,*71
$GPGSV,5,3,17,23,13,208,15,24,54,214,21,25,22,341,,29,09,315,*73
$GPGSV,5,4,17,36,52,277,30,40,86,351,,41,58,082,29,49,32,274,*74
$GPGSV,5,5,17,50,10,089,*4A
$GLGSV,3,1,09,67,17,107,13,68,22,158,,69,06,204,,78,33,147,13*6F
$GLGSV,3,2,09,79,79,062,24,80,31,343,20,82,18,349,15,83,31,295,31*6F
$GLGSV,3,3,09,84,11,241,*57
$GNGLL,0419.81090,S,05539.80143,E,051157.00,A,A*65
$GNRMC,051158.00,A,0419.81154,S,05539.80128,E,2.129,292.63,270525,,,A*6A
$GNVTG,292.63,T,,M,2.129,N,3.943,K,A*2A
$GNGGA,051158.00,0419.81154,S,05539.80128,E,1,12,0.74,17.2,M,-47.6,M,,*47
$GNGSA,A,3,05,24,12,20,18,15,13,,,,,,1.41,0.74,1.20*15
$GNGSA,A,3,79,78,83,82,67,,,,,,,,1.41,0.74,1.20*19
$GPGSV,5,1,17,05,63,094,26,11,10,024,08,12,46,012,13,13,16,142,19*77
$GPGSV,5,2,17,15,30,176,23,18,30,246,17,20,37,049,22,22,10,129,*72
$GPGSV,5,3,17,23,13,208,17,24,54,214,21,25,22,341,,29,09,315,*71
$GPGSV,5,4,17,36,52,277,34,40,86,351,,41,58,082,29,49,32,274,*70
$GPGSV,5,5,17,50,10,089,*4A
$GLGSV,3,1,09,67,17,107,18,68,22,158,,69,06,204,,78,33,147,09*6F
$GLGSV,3,2,09,79,79,062,23,80,31,343,21,82,18,349,12,83,31,295,26*68
$GLGSV,3,3,09,84,11,241,*57
$GNGLL,0419.81154,S,05539.80128,E,051158.00,A,A*6E
$GNRMC,051159.00,A,0419.81169,S,05539.80114,E,0.134,,270525,,,A*76
$GNVTG,,T,,M,0.134,N,0.248,K,A*35
$GNGGA,051159.00,0419.81169,S,05539.80114,E,1,12,0.74,17.7,M,-47.6,M,,*42
$GNGSA,A,3,05,24,12,20,18,15,13,,,,,,1.41,0.74,1.20*15
$GNGSA,A,3,79,78,83,82,67,,,,,,,,1.41,0.74,1.20*19
$GPGSV,5,1,17,05,63,094,29,11,10,024,09,12,46,012,18,13,16,142,22*7A
$GPGSV,5,2,17,15,30,176,26,18,30,246,19,20,37,049,24,22,10,129,*7F
$GPGSV,5,3,17,23,13,208,17,24,54,214,23,25,22,341,,29,09,315,*73
$GPGSV,5,4,17,36,52,277,32,40,86,351,,41,58,082,29,49,32,274,*76
$GPGSV,5,5,17,50,10,089,*4A
$GLGSV,3,1,09,67,17,107,21,68,22,158,,69,06,204,,78,33,147,17*6A
$GLGSV,3,2,09,79,79,062,23,80,31,343,19,82,18,349,16,83,31,295,31*61
$GLGSV,3,3,09,84,11,241,*57
$GNGLL,0419.81169,S,05539.80114,E,051159.00,A,A*6E
$GNRMC,051200.00,A,0419.81165,S,05539.80116,E,0.184,,270525,,,A*7C
$GNVTG,,T,,M,0.184,N,0.340,K,A*37
$GNGGA,051200.00,0419.81165,S,05539.80116,E,1,12,0.74,16.8,M,-47.6,M,,*4D
$GNGSA,A,3,05,24,12,20,18,15,13,,,,,,1.41,0.74,1.20*15
$GNGSA,A,3,79,78,83,82,67,,,,,,,,1.41,0.74,1.20*19
$GPGSV,5,1,17,05,63,094,29,11,10,024,07,12,46,012,22,13,16,142,20*7F
$GPGSV,5,2,17,15,30,176,25,18,30,246,21,20,37,049,24,22,10,129,*77
$GPGSV,5,3,17,23,13,208,17,24,54,214,22,25,22,341,,29,09,315,*72
$GPGSV,5,4,17,36,52,277,32,40,86,351,,41,58,082,31,49,32,274,*7F
$GPGSV,5,5,17,50,10,089,*4A
$GLGSV,3,1,09,67,17,107,21,68,22,158,,69,06,204,,78,33,147,10*6D
$GLGSV,3,2,09,79,79,062,25,80,31,343,17,82,18,349,12,83,31,295,30*6C
$GLGSV,3,3,09,84,11,241,*57
$GNGLL,0419.81165,S,05539.80116,E,051200.00,A,A*6F
$GNRMC,051201.00,A,0419.81166,S,05539.80097,E,0.313,,270525,,,A*7A
$GNVTG,,T,,M,0.313,N,0.580,K,A*31
$GNGGA,051201.00,0419.81166,S,05539.80097,E,1,12,0.74,17.2,M,-47.6,M,,*4C
$GNGSA,A,3,05,24,12,20,18,15,13,,,,,,1.41,0.74,1.20*15
$GNGSA,A,3,79,78,83,82,67,,,,,,,,1.41,0.74,1.20*19
$GPGSV,5,1,17,05,63,094,33,11,10,024,09,12,46,012,22,13,16,142,20*7A
$GPGSV,5,2,17,15,30,176,23,18,30,246,20,20,37,049,22,22,10,129,*76
$GPGSV,5,3,17,23,13,208,18,24,54,214,21,25,22,341,,29,09,315,*7E
$GPGSV,5,4,17,36,52,277,33,40,86,351,,41,58,082,34,49,32,274,*7B
$GPGSV,5,5,17,50,10,089,*4A
$GLGSV,3,1,09,67,17,107,21,68,22,158,,69,06,204,,78,33,147,10*6D
$GLGSV,3,2,09,79,79,062,25,80,31,343,16,82,18,349,12,83,31,295,29*65
$GLGSV,3,3,09,84,11,241,*57
$GNGLL,0419.81166,S,05539.80097,E,051201.00,A,A*65
$GNRMC,051202.00,A,0419.81137,S,05539.80098,E,1.711,,270525,,,A*75
$GNVTG,,T,,M,1.711,N,3.169,K,A*36
$GNGGA,051202.00,0419.81137,S,05539.80098,E,1,12,0.75,17.3,M,-47.6,M,,*44
$GNGSA,A,3,05,24,12,20,18,15,13,11,,,,,1.38,0.75,1.17*1E
$GNGSA,A,3,79,78,83,82,67,,,,,,,,1.38,0.75,1.17*12
$GPGSV,5,1,17,05,63,092,28,11,10,024,10,12,46,012,21,13,16,142,20*7D
$GPGSV,5,2,17,15,30,176,23,18,30,246,20,20,37,049,23,22,10,129,*77
$GPGSV,5,3,17,23,13,208,18,24,54,214,21,25,22,341,,29,09,315,*7E
$GPGSV,5,4,17,36,52,277,28,40,86,351,,41,58,082,30,49,32,274,*75
$GPGSV,5,5,17,50,10,089,*4A
$GLGSV,3,1,09,67,17,107,20,68,22,158,20,69,06,204,,78,33,147,09*66
$GLGSV,3,2,09,79,79,062,26,80,31,343,17,82,18,349,12,83,31,295,30*6F
$GLGSV,3,3,09,84,11,241,*57
$GNGLL,0419.81137,S,05539.80098,E,051202.00,A,A*6D
$GNRMC,051203.00,A,0419.81137,S,05539.80091,E,0.119,,270525,,,A*72
$GNVTG,,T,,M,0.119,N,0.221,K,A*35
$GNGGA,051203.00,0419.81137,S,05539.80091,E,1,12,0.74,17.5,M,-47.6,M,,*4B
$GNGSA,A,3,05,24,12,20,18,15,13,,,,,,1.41,0.74,1.20*15
$GNGSA,A,3,79,78,83,82,67,,,,,,,,1.41,0.74,1.20*19
$GPGSV,5,1,17,05,63,092,29,11,10,024,09,12,46,012,21,13,16,142,21*75
$GPGSV,5,2,17,15,30,176,25,18,30,246,21,20,37,049,23,22,10,129,*70
$GPGSV,5,3,17,23,13,208,18,24,54,214,21,25,22,341,,29,09,315,*7E
$GPGSV,5,4,17,36,52,277,33,40,86,351,,41,58,082,32,49,32,274,*7D
$GPGSV,5,5,17,50,10,089,*4A
$GLGSV,3,1,09,67,17,107,20,68,22,158,18,69,06,204,,78,33,147,10*65
$GLGSV,3,2,09,79,79,062,26,80,31,343,18,82,18,349,12,83,31,295,28*69
$GLGSV,3,3,09,84,11,241,*57
$GNGLL,0419.81137,S,05539.80091,E,051203.00,A,A*65
$GNRMC,051204.00,A,0419.81147,S,05539.80069,E,0.329,,270525,,,A*74
$GNVTG,,T,,M,0.329,N,0.609,K,A*3A
$GNGGA,051204.00,0419.81147,S,05539.80069,E,1,12,0.70,17.8,M,-47.6,M,,*45
$GNGSA,A,3,05,24,12,20,18,15,13,11,,,,,1.31,0.70,1.11*14
$GNGSA,A,3,79,78,83,82,67,,,,,,,,1.31,0.70,1.11*18
$GPGSV,5,1,17,05,63,092,30,11,10,024,10,12,46,012,22,13,16,142,21*76
$GPGSV,5,2,17,15,30,176,25,18,30,246,22,20,37,049,21,22,10,129,*71
$GPGSV,5,3,17,23,13,208,20,24,54,214,21,25,22,341,,29,09,315,*75
$GPGSV,5,4,17,36,52,277,29,40,86,351,,41,58,082,32,49,32,274,*76
$GPGSV,5,5,17,50,10,089,*4A
$GLGSV,3,1,09,67,17,107,21,68,22,158,18,69,06,204,,78,33,147,10*64
$GLGSV,3,2,09,79,79,062,27,80,31,343,19,82,18,349,12,83,31,295,31*61
$GLGSV,3,3,09,84,11,241,*57
$GNGLL,0419.81147,S,05539.80069,E,051204.00,A,A*62
$GNRMC,051205.00,A,0419.81158,S,05539.80064,E,0.653,,270525,,,A*7E
$GNVTG,,T,,M,0.653,N,1.209,K,A*37
$GNGGA,051205.00,0419.81158,S,05539.80064,E,1,11,0.88,17.6,M,-47.6,M,,*4D
$GNGSA,A,3,05,24,12,20,18,15,13,,,,,,1.64,0.88,1.38*18
$GNGSA,A,3,79,83,82,67,,,,,,,,,1.64,0.88,1.38*1B
$GPGSV,5,1,17,05,63,092,29,11,10,024,,12,46,012,23,13,16,142,21*7E
$GPGSV,5,2,17,15,30,176,25,18,30,246,21,20,37,049,21,22,10,129,*72
$GPGSV,5,3,17,23,13,208,20,24,54,214,22,25,22,341,,29,09,315,*76
$GPGSV,5,4,17,36,52,277,33,40,86,351,,41,58,082,32,49,32,274,*7D
$GPGSV,5,5,17,50,10,089,*4A
$GLGSV,3,1,09,67,17,107,20,68,22,158,18,69,06,204,,78,33,147,10*65
$GLGSV,3,2,09,79,79,062,27,80,31,343,20,82,18,349,11,83,31,295,30*69
$GLGSV,3,3,09,84,11,241,*57
$GNGLL,0419.81158,S,05539.80064,E,051205.00,A,A*60
$GNRMC,051206.00,A,0419.81169,S,05539.80063,E,0.370,,270525,,,A*7C
$GNVTG,,T,,M,0.370,N,0.686,K,A*31
$GNGGA,051206.00,0419.81169,S,05539.80063,E,1,11,0.76,17.8,M,-47.6,M,,*44
$GNGSA,A,3,05,24,12,20,18,15,13,,,,,,1.43,0.76,1.21*14
$GNGSA,A,3,79,83,82,67,,,,,,,,,1.43,0.76,1.21*17
$GPGSV,5,1,17,05,63,092,29,11,10,024,,12,46,012,24,13,16,142,20*78
$GPGSV,5,2,17,15,30,176,24,18,30,246,21,20,37,049,20,22,10,129,*72
$GPGSV,5,3,17,23,13,208,19,24,54,214,23,25,22,341,,29,09,315,*7D
$GPGSV,5,4,17,36,52,277,31,40,86,351,,41,58,082,31,49,32,274,*7C
$GPGSV,5,5,17,50,10,089,*4A
$GLGSV,3,1,09,67,17,107,20,68,22,158,19,69,06,204,,78,33,147,10*64
$GLGSV,3,2,09,79,79,062,28,80,31,343,21,82,18,349,11,83,31,295,30*67
$GLGSV,3,3,09,84,11,241,*57
$GNGLL,0419.81169,S,05539.80063,E,051206.00,A,A*66
$GNRMC,051207.00,A,0419.81167,S,05539.80067,E,0.035,,270525,,,A*75
$GNVTG,,T,,M,0.035,N,0.066,K,A*3B
$GNGGA,051207.00,0419.81167,S,05539.80067,E,1,11,0.79,17.5,M,-47.6,M,,*4D
$GNGSA,A,3,05,24,12,20,18,15,13,,,,,,1.52,0.79,1.31*1A
$GNGSA,A,3,79,83,82,67,,,,,,,,,1.52,0.79,1.31*19
$GPGSV,5,1,17,05,63,092,28,11,10,024,,12,46,012,23,13,16,142,18*75
$GPGSV,5,2,17,15,30,176,21,18,30,246,21,20,37,049,18,22,10,129,*7C
$GPGSV,5,3,17,23,13,208,19,24,54,214,23,25,22,341,,29,09,315,*7D
$GPGSV,5,4,17,36,52,277,29,40,86,351,,41,58,082,,49,32,274,*77
$GPGSV,5,5,17,50,10,089,*4A
$GLGSV,3,1,09,67,17,107,20,68,22,158,20,69,06,204,,78,33,147,11*6F
$GLGSV,3,2,09,79,79,062,28,80,31,343,21,82,18,349,11,83,31,295,30*67
$GLGSV,3,3,09,84,11,241,*57
$GNGLL,0419.81167,S,05539.80067,E,051207.00,A,A*6D
$GNRMC,051208.00,A,0419.81163,S,05539.80068,E,0.060,,270525,,,A*71
$GNVTG,,T,,M,0.060,N,0.111,K,A*3A
$GNGGA,051208.00,0419.81163,S,05539.80068,E,1,12,0.84,17.8,M,-47.6,M,,*45
$GNGSA,A,3,05,24,12,20,18,15,13,,,,,,1.60,0.84,1.37*1F
$GNGSA,A,3,79,78,83,82,67,,,,,,,,1.60,0.84,1.37*13
$GPGSV,5,1,17,05,63,092,28,11,09,024,,12,46,012,24,13,16,142,18*7A
$GPGSV,5,2,17,15,30,176,21,18,30,246,23,20,37,049,20,22,10,129,*75
$GPGSV,5,3,17,23,13,208,17,24,54,214,25,25,22,341,,29,09,315,*75
$GPGSV,5,4,17,36,52,277,31,40,86,351,,41,58,082,,49,32,274,*7E
$GPGSV,5,5,17,50,10,089,*4A
$GLGSV,3,1,09,67,17,107,21,68,22,158,22,69,06,204,,78,33,147,10*6D
$GLGSV,3,2,09,79,79,062,29,80,31,343,22,82,18,349,11,83,31,295,32*67
$GLGSV,3,3,09,84,11,241,*57
$GNGLL,0419.81163,S,05539.80068,E,051208.00,A,A*69
$GNRMC,051209.00,A,0419.81155,S,05539.80063,E,0.077,,270525,,,A*78
$GNVTG,,T,,M,0.077,N,0.143,K,A*3B
$GNGGA,051209.00,0419.81155,S,05539.80063,E,1,12,0.76,18.0,M,-47.6,M,,*40
$GNGSA,A,3,05,24,12,20,18,15,13,,,,,,1.51,0.76,1.31*16
$GNGSA,A,3,79,78,83,82,67,,,,,,,,1.51,0.76,1.31*1A
$GPGSV,5,1,17,05,63,092,28,11,09,024,,12,46,012,26,13,16,142,17*77
$GPGSV,5,2,17,15,30,176,22,18,30,246,23,20,37,049,22,22,10,129,*74
$GPGSV,5,3,17,23,13,208,17,24,54,214,26,25,22,341,,29,09,315,*76
$GPGSV,5,4,17,36,52,277,32,40,86,351,,41,58,082,,49,32,274,*7D
$GPGSV,5,5,17,50,10,089,*4A
$GLGSV,3,1,09,67,17,107,20,68,22,158,21,69,06,204,,78,33,147,10*6F
$GLGSV,3,2,09,79,79,062,29,80,31,343,23,82,18,349,11,83,31,295,32*66
$GLGSV,3,3,09,84,11,241,*57
$GNGLL,0419.81155,S,05539.80063,E,051209.00,A,A*66
$GNRMC,051210.00,A,0419.81146,S,05539.80046,E,0.238,,270525,,,A*7C
$GNVTG,,T,,M,0.238,N,0.441,K,A*35
$GNGGA,051210.00,0419.81146,S,05539.80046,E,1,12,0.76,18.7,M,-47.6,M,,*4A
$GNGSA,A,3,05,24,12,20,18,15,13,,,,,,1.51,0.76,1.31*16
$GNGSA,A,3,79,78,83,82,67,,,,,,,,1.51,0.76,1.31*1A
$GPGSV,5,1,17,05,63,092,27,11,09,024,,12,46,012,25,13,16,142,15*79
$GPGSV,5,2,17,15,30,176,20,18,30,246,23,20,37,049,22,22,10,129,*76
$GPGSV,5,3,17,23,13,208,15,24,54,214,26,25,22,341,,29,09,315,*74
$GPGSV,5,4,17,36,52,277,30,40,86,351,,41,58,082,,49,32,274,*7F
$GPGSV,5,5,17,50,10,089,*4A
$GLGSV,3,1,09,67,17,107,19,68,22,158,22,69,06,204,,78,33,147,10*66
$GLGSV,3,2,09,79,79,062,33,80,31,343,23,82,18,349,11,83,31,295,32*6D
$GLGSV,3,3,09,84,11,241,*57
$GNGLL,0419.81146,S,05539.80046,E,051210.00,A,A*6B
$GNRMC,051211.00,A,0419.81126,S,05539.80047,E,0.605,,270525,,,A*70
$GNVTG,,T,,M,0.605,N,1.121,K,A*3D
$GNGGA,051211.00,0419.81126,S,05539.80047,E,1,11,0.79,18.7,M,-47.6,M,,*40
$GNGSA,A,3,05,24,12,20,18,15,13,,,,,,1.52,0.79,1.31*1A
$GNGSA,A,3,79,83,82,67,,,,,,,,,1.52,0.79,1.31*19
$GPGSV,5,1,17,05,63,092,27,11,09,024,,12,46,012,23,13,16,142,13*79
$GPGSV,5,2,17,15,30,176,17,18,30,246,21,20,37,049,22,22,10,129,*70
$GPGSV,5,3,17,23,13,208,13,24,54,214,25,25,22,341,,29,09,315,*71
$GPGSV,5,4,17,36,52,277,28,40,86,351,,41,58,082,,49,32,274,*76
$GPGSV,5,5,17,50,10,089,*4A
$GLGSV,3,1,09,67,17,107,17,68,22,158,20,69,06,204,,78,33,147,07*6C
$GLGSV,3,2,09,79,79,062,27,80,31,343,22,82,18,349,14,83,31,295,30*6E
$GLGSV,3,3,09,84,11,241,*57
$GNGLL,0419.81126,S,05539.80047,E,051211.00,A,A*6D
$GNRMC,051212.00,A,0419.81107,S,05539.80061,E,0.555,,270525,,,A*72
$GNVTG,,T,,M,0.555,N,1.028,K,A*33
$GNGGA,051212.00,0419.81107,S,05539.80061,E,1,12,0.76,18.4,M,-47.6,M,,*4B
$GNGSA,A,3,05,24,12,20,18,15,13,,,,,,1.51,0.76,1.31*16
$GNGSA,A,3,79,78,83,82,67,,,,,,,,1.51,0.76,1.31*1A
$GPGSV,5,1,17,05,63,092,25,11,09,024,,12,46,012,22,13,16,142,13*7A
$GPGSV,5,2,17,15,30,175,13,18,30,246,22,20,37,049,21,22,10,129,*77
$GPGSV,5,3,17,23,13,208,13,24,54,214,24,25,22,341,,29,09,315,*70
$GPGSV,5,4,17,36,52,277,29,40,86,351,,41,58,082,,49,32,274,*77
$GPGSV,5,5,17,50,10,089,*4A
$GLGSV,3,1,09,67,17,107,15,68,22,158,18,69,06,204,,78,33,147,08*6A
$GLGSV,3,2,09,79,79,062,26,80,31,343,21,82,18,349,08,83,31,295,29*69
$GLGSV,3,3,09,84,11,241,*57
$GNGLL,0419.81107,S,05539.80061,E,051212.00,A,A*69
$GNRMC,051213.00,A,0419.81094,S,05539.80052,E,0.370,,270525,,,A*79
$GNVTG,,T,,M,0.370,N,0.685,K,A*32
$GNGGA,051213.00,0419.81094,S,05539.80052,E,1,11,0.80,18.8,M,-47.6,M,,*47
$GNGSA,A,3,05,24,12,20,18,13,,,,,,,1.53,0.80,1.31*19
$GNGSA,A,3,79,78,83,82,67,,,,,,,,1.53,0.80,1.31*11
$GPGSV,5,1,17,05,63,092,25,11,09,024,,12,46,012,22,13,16,142,14*7D
$GPGSV,5,2,17,15,30,175,10,18,30,246,23,20,37,049,22,22,10,129,*76
$GPGSV,5,3,17,23,13,208,11,24,54,214,25,25,22,341,,29,09,315,*73
$GPGSV,5,4,17,36,52,277,30,40,86,351,,41,58,082,,49,32,274,*7F
$GPGSV,5,5,17,50,10,089,*4A
$GLGSV,3,1,09,67,17,107,17,68,22,158,19,69,06,204,,78,33,147,10*60
$GLGSV,3,2,09,79,79,062,26,80,31,343,21,82,18,349,14,83,31,295,28*65
$GLGSV,3,3,09,84,11,241,*57
$GNGLL,0419.81094,S,05539.80052,E,051213.00,A,A*63
$GNRMC,051214.00,A,0419.81085,S,05539.80041,E,0.327,,270525,,,A*7E
$GNVTG,,T,,M,0.327,N,0.605,K,A*38
$GNGGA,051214.00,0419.81085,S,05539.80041,E,1,12,0.79,19.5,M,-47.6,M,,*4B
$GNGSA,A,3,05,24,12,20,18,15,13,,,,,,1.52,0.79,1.30*1B
$GNGSA,A,3,79,78,83,82,67,,,,,,,,1.52,0.79,1.30*17
$GPGSV,5,1,17,05,63,092,27,11,09,024,,12,46,012,22,13,16,142,16*7D
$GPGSV,5,2,17,15,30,175,16,18,30,246,23,20,37,049,21,22,10,129,*73
$GPGSV,5,3,17,23,13,208,,24,54,214,31,25,22,341,,29,09,315,*76
$GPGSV,5,4,17,36,52,277,30,40,86,351,,41,58,082,,49,32,274,*7F
$GPGSV,5,5,17,50,10,089,*4A
$GLGSV,3,1,09,67,17,107,16,68,22,158,17,69,06,204,,78,33,147,10*6F
$GLGSV,3,2,09,79,79,062,25,80,31,343,20,82,18,349,14,83,31,295,29*66
$GLGSV,3,3,09,84,11,241,*57
$GNGLL,0419.81085,S,05539.80041,E,051214.00,A,A*66
$GNRMC,051215.00,A,0419.81075,S,05539.80029,E,0.353,,270525,,,A*7D
$GNVTG,,T,,M,0.353,N,0.653,K,A*38
$GNGGA,051215.00,0419.81075,S,05539.80029,E,1,12,0.76,20.4,M,-47.6,M,,*4F
$GNGSA,A,3,05,24,12,20,18,15,13,,,,,,1.51,0.76,1.30*17
$GNGSA,A,3,79,78,83,82,67,,,,,,,,1.51,0.76,1.30*1B
$GPGSV,5,1,17,05,63,092,27,11,09,024,,12,46,012,23,13,16,142,16*7C
$GPGSV,5,2,17,15,30,175,17,18,30,247,22,20,37,049,20,22,10,129,*73
$GPGSV,5,3,17,23,13,208,,24,54,214,30,25,22,341,,29,09,315,*77
$GPGSV,5,4,17,36,52,277,29,40,86,351,,41,58,082,,49,32,274,*77
$GPGSV,5,5,17,50,10,089,*4A
$GLGSV,3,1,09,67,17,107,15,68,22,158,19,69,06,204,,78,33,147,12*60
$GLGSV,3,2,09,79,79,062,26,80,31,343,21,82,18,349,13,83,31,295,29*63
$GLGSV,3,3,09,84,11,241,*57
$GNGLL,0419.81075,S,05539.80029,E,051215.00,A,A*66
$GNRMC,051216.00,A,0419.81063,S,05539.80027,E,0.274,,270525,,,A*73
$GNVTG,,T,,M,0.274,N,0.507,K,A*3E
$GNGGA,051216.00,0419.81063,S,05539.80027,E,1,12,0.76,20.9,M,-47.6,M,,*48
$GNGSA,A,3,05,24,12,20,18,15,13,,,,,,1.51,0.76,1.30*17
$GNGSA,A,3,79,78,83,82,67,,,,,,,,1.51,0.76,1.30*1B
$GPGSV,5,1,17,05,63,092,29,11,09,024,,12,46,012,24,13,16,142,16*75
$GPGSV,5,2,17,15,30,175,18,18,30,247,23,20,37,049,19,22,10,129,*77
$GPGSV,5,3,17,23,13,208,,24,54,214,22,25,22,341,,29,09,315,*74
$GPGSV,5,4,17,36,52,277,29,40,86,351,,41,58,082,,49,32,274,*77
$GPGSV,5,5,17,50,10,089,*4A
$GLGSV,3,1,09,67,17,107,15,68,22,158,18,69,06,204,,78,33,147,11*62
$GLGSV,3,2,09,79,79,062,28,80,31,343,22,82,18,349,15,83,31,295,29*68
$GLGSV,3,3,09,84,11,241,*57
$GNGLL,0419.81063,S,05539.80027,E,051216.00,A,A*6C
$GNRMC,051217.00,A,0419.81017,S,05539.80043,E,1.451,,270525,,,A*73
$GNVTG,,T,,M,1.451,N,2.687,K,A*37
$GNGGA,051217.00,0419.81017,S,05539.80043,E,1,12,0.76,20.5,M,-47.6,M,,*44
$GNGSA,A,3,05,24,12,20,18,15,13,,,,,,1.42,0.76,1.21*15
$GNGSA,A,3,79,78,83,82,67,,,,,,,,1.42,0.76,1.21*19
$GPGSV,5,1,17,05,63,092,29,11,09,024,,12,46,012,23,13,16,142,17*73
$GPGSV,5,2,17,15,30,175,16,18,30,247,23,20,36,049,18,22,10,129,*79
$GPGSV,5,3,17,23,13,208,,24,54,214,25,25,22,341,,29,09,315,*73
$GPGSV,5,4,17,36,52,277,31,40,86,351,,41,58,082,,49,32,274,*7E
$GPGSV,5,5,17,50,10,089,*4A
$GLGSV,3,1,09,67,17,107,14,68,22,158,17,69,06,204,,78,33,147,15*68
$GLGSV,3,2,09,79,79,062,28,80,31,343,23,82,18,349,11,83,31,295,29*6D
$GLGSV,3,3,09,84,11,241,*57
$GNGLL,0419.81017,S,05539.80043,E,051217.00,A,A*6C
$GNRMC,051218.00,A,0419.81033,S,05539.80056,E,1.109,,270525,,,A*76
$GNVTG,,T,,M,1.109,N,2.054,K,A*37
$GNGGA,051218.00,0419.81033,S,05539.80056,E,1,12,0.74,19.8,M,-47.6,M,,*4C
$GNGSA,A,3,05,24,12,20,18,15,13,,,,,,1.41,0.74,1.20*15
$GNGSA,A,3,79,78,83,82,67,,,,,,,,1.41,0.74,1.20*19
$GPGSV,5,1,17,05,63,092,27,11,09,024,,12,46,012,22,13,16,142,15*7E
$GPGSV,5,2,17,15,30,175,15,18,30,247,22,20,36,049,18,22,09,129,*73
$GPGSV,5,3,17,23,13,208,,24,54,214,25,25,22,341,,29,09,315,*73
$GPGSV,5,4,17,36,52,277,29,40,86,351,,41,58,082,,49,32,274,*77
$GPGSV,5,5,17,50,10,089,*4A
$GLGSV,3,1,09,67,17,107,14,68,22,158,17,69,06,204,,78,33,147,07*6B
$GLGSV,3,2,09,79,79,062,27,80,31,343,21,82,18,349,11,83,31,295,27*6E
$GLGSV,3,3,09,84,11,241,*57
$GNGLL,0419.81033,S,05539.80056,E,051218.00,A,A*61
$GNRMC,051219.00,A,0419.81028,S,05539.80071,E,0.453,,270525,,,A*73
$GNVTG,,T,,M,0.453,N,0.838,K,A*3C
$GNGGA,051219.00,0419.81028,S,05539.80071,E,1,12,0.74,19.2,M,-47.6,M,,*48
$GNGSA,A,3,05,24,12,20,18,15,13,,,,,,1.41,0.74,1.20*15
$GNGSA,A,3,79,78,83,82,67,,,,,,,,1.41,0.74,1.20*19
$GPGSV,5,1,17,05,63,092,26,11,09,024,,12,46,012,22,13,16,142,13*79
$GPGSV,5,2,17,15,30,175,11,18,30,247,22,20,36,049,16,22,09,129,*79
$GPGSV,5,3,17,23,13,208,,24,54,214,26,25,22,341,,29,09,315,*70
$GPGSV,5,4,17,36,52,277,29,40,86,351,,41,58,082,,49,32,274,*77
$GPGSV,5,5,17,50,10,089,*4A
$GLGSV,3,1,09,67,17,107,15,68,22,158,17,69,06,204,,78,33,147,09*64
$GLGSV,3,2,09,79,79,062,27,80,31,343,21,82,18,349,09,83,31,295,32*63
$GLGSV,3,3,09,84,11,241,*57
$GNGLL,0419.81028,S,05539.80071,E,051219.00,A,A*6F
$GNRMC,051220.00,A,0419.81011,S,05539.80071,E,0.094,,270525,,,A*7C
$GNVTG,,T,,M,0.094,N,0.173,K,A*35
$GNGGA,051220.00,0419.81011,S,05539.80071,E,1,12,0.89,19.5,M,-47.6,M,,*4D
$GNGSA,A,3,05,24,12,20,18,15,13,,,,,,1.77,0.89,1.52*17
$GNGSA,A,3,79,78,83,82,67,,,,,,,,1.77,0.89,1.52*1B
$GPGSV,5,1,17,05,63,092,28,11,09,024,,12,46,012,25,13,16,142,16*75
$GPGSV,5,2,17,15,30,175,15,18,30,247,23,20,36,049,16,22,09,129,*7C
$GPGSV,5,3,17,23,13,208,,24,54,213,28,25,22,341,,29,09,315,*79
$GPGSV,5,4,17,36,52,277,31,40,86,351,,41,58,082,,49,32,274,*7E
$GPGSV,5,5,17,50,10,089,*4A
$GLGSV,3,1,09,67,17,107,14,68,22,158,16,69,06,204,,78,33,147,07*6A
$GLGSV,3,2,09,79,79,062,28,80,31,343,22,82,18,349,12,83,31,295,30*67
$GLGSV,3,3,09,84,11,241,*57
$GNGLL,0419.81011,S,05539.80071,E,051220.00,A,A*6F
$GNRMC,051221.00,A,0419.80995,S,05539.80072,E,0.023,,270525,,,A*76
$GNVTG,,T,,M,0.023,N,0.043,K,A*3B
$GNGGA,051221.00,0419.80995,S,05539.80072,E,1,12,0.76,19.9,M,-47.6,M,,*47
$GNGSA,A,3,05,24,12,20,18,15,13,,,,,,1.51,0.76,1.30*17
$GNGSA,A,3,79,78,83,82,67,,,,,,,,1.51,0.76,1.30*1B
$GPGSV,5,1,17,05,63,092,28,11,09,024,,12,46,012,27,13,16,142,18*79
$GPGSV,5,2,17,15,30,175,16,18,30,247,24,20,36,049,19,22,09,129,*77
$GPGSV,5,3,17,23,13,208,,24,54,213,30,25,23,341,,29,09,315,*71
$GPGSV,5,4,17,36,52,277,31,40,86,351,,41,58,082,,49,32,274,*7E
$GPGSV,5,5,17,50,10,089,*4A
$GLGSV,3,1,09,67,17,107,15,68,22,158,16,69,06,204,,78,33,147,17*6A
$GLGSV,3,2,09,79,79,062,29,80,31,343,22,82,18,349,12,83,31,295,29*6E
$GLGSV,3,3,09,84,11,241,*57
$GNGLL,0419.80995,S,05539.80072,E,051221.00,A,A*69
$GNRMC,051222.00,A,0419.80977,S,05539.80068,E,0.063,,270525,,,A*76
$GNVTG,,T,,M,0.063,N,0.116,K,A*3E
$GNGGA,051222.00,0419.80977,S,05539.80068,E,1,12,0.76,20.0,M,-47.6,M,,*40
$GNGSA,A,3,05,24,12,20,18,15,13,,,,,,1.51,0.76,1.30*17
$GNGSA,A,3,79,78,83,82,67,,,,,,,,1.51,0.76,1.30*1B
$GPGSV,5,1,17,05,63,092,28,11,09,024,,12,46,012,27,13,16,142,19*78
$GPGSV,5,2,17,15,30,175,21,18,30,247,21,20,36,049,24,22,09,129,*78
$GPGSV,5,3,17,23,13,208,,24,54,213,31,25,23,341,,29,09,315,*70
$GPGSV,5,4,17,36,52,277,31,40,86,351,,41,58,082,,49,32,274,*7E
$GPGSV,5,5,17,50,10,089,*4A
$GLGSV,3,1,09,67,17,107,16,68,22,158,18,69,06,204,,78,33,147,20*63
$GLGSV,3,2,09,79,79,062,30,80,31,343,23,82,18,349,14,83,31,295,30*69
$GLGSV,3,3,09,84,11,241,*57
$GNGLL,0419.80977,S,05539.80068,E,051222.00,A,A*6D
$GNRMC,051223.00,A,0419.80967,S,05539.80061,E,0.190,,270525,,,A*72
$GNVTG,,T,,M,0.190,N,0.351,K,A*32
$GNGGA,051223.00,0419.80967,S,05539.80061,E,1,12,0.86,20.5,M,-47.6,M,,*43
$GNGSA,A,3,05,24,12,20,18,15,13,,,,,,1.74,0.86,1.52*1B
$GNGSA,A,3,79,78,83,82,67,,,,,,,,1.74,0.86,1.52*17
$GPGSV,5,1,17,05,63,092,27,11,09,024,,12,46,012,26,13,16,142,22*7E
$GPGSV,5,2,17,15,30,175,22,18,30,247,20,20,36,049,24,22,09,129,*7A
$GPGSV,5,3,17,23,13,208,22,24,54,213,29,25,23,341,,29,09,315,*79
$GPGSV,5,4,17,36,52,277,30,40,86,351,,41,58,082,,49,32,274,*7F
$GPGSV,5,5,17,50,10,089,*4A
$GLGSV,3,1,09,67,17,107,16,68,22,158,18,69,06,204,,78,33,147,14*64
$GLGSV,3,2,09,79,79,062,31,80,31,343,22,82,18,349,08,83,31,295,30*64
$GLGSV,3,3,09,84,11,241,*57
$GNGLL,0419.80967,S,05539.80061,E,051223.00,A,A*64
$GNRMC,051224.00,A,0419.80958,S,05539.80059,E,0.201,,270525,,,A*79
$GNVTG,,T,,M,0.201,N,0.372,K,A*38
$GNGGA,051224.00,0419.80958,S,05539.80059,E,1,12,0.76,20.7,M,-47.6,M,,*4E
$GNGSA,A,3,05,24,12,20,18,15,13,,,,,,1.51,0.76,1.30*17
$GNGSA,A,3,79,78,83,82,67,,,,,,,,1.51,0.76,1.30*1B
$GPGSV,5,1,17,05,63,092,28,11,09,024,,12,46,012,23,13,16,142,21*77
$GPGSV,5,2,17,15,30,175,20,18,30,247,21,20,36,049,23,22,09,129,*7E
$GPGSV,5,3,17,23,13,208,20,24,54,213,27,25,23,341,,29,09,315,*75
$GPGSV,5,4,17,36,52,277,30,40,86,351,,41,58,082,,49,32,274,*7F
$GPGSV,5,5,17,50,10,089,*4A
$GLGSV,3,1,09,67,17,107,15,68,22,158,19,69,06,204,,78,33,147,12*60
$GLGSV,3,2,09,79,79,062,30,80,31,343,23,82,18,349,09,83,31,295,29*6D
$GLGSV,3,3,09,84,11,241,*57
$GNGLL,0419.80958,S,05539.80059,E,051224.00,A,A*64
$GNRMC,051225.00,A,0419.80944,S,05539.80059,E,0.131,,270525,,,A*75
$GNVTG,,T,,M,0.131,N,0.243,K,A*3B
$GNGGA,051225.00,0419.80944,S,05539.80059,E,1,12,0.76,20.6,M,-47.6,M,,*43
$GNGSA,A,3,05,24,12,20,18,15,13,,,,,,1.51,0.76,1.30*17
$GNGSA,A,3,79,78,83,82,67,,,,,,,,1.51,0.76,1.30*1B
$GPGSV,5,1,17,05,63,092,28,11,09,024,,12,46,012,22,13,16,142,21*76
$GPGSV,5,2,17,15,30,175,20,18,30,247,21,20,36,049,25,22,09,129,*78
$GPGSV,5,3,17,23,13,208,21,24,54,213,28,25,23,341,,29,09,315,*7B
$GPGSV,5,4,17,36,52,277,30,40,86,351,,41,58,082,,49,32,274,*7F
$GPGSV,5,5,17,50,10,089,*4A
$GLGSV,3,1,09,67,17,107,13,68,22,158,18,69,06,204,,78,33,147,18*6D
$GLGSV,3,2,09,79,79,062,29,80,31,343,23,82,18,349,09,83,31,295,28*64
$GLGSV,3,3,09,84,11,241,*57
$GNGLL,0419.80944,S,05539.80059,E,051225.00,A,A*68
$GNRMC,051226.00,A,0419.80929,S,05539.80053,E,0.411,,270525,,,A*70
$GNVTG,,T,,M,0.411,N,0.761,K,A*39
$GNGGA,051226.00,0419.80929,S,05539.80053,E,1,12,0.86,20.3,M,-47.6,M,,*4B
$GNGSA,A,3,05,24,12,20,18,15,13,,,,,,1.74,0.86,1.52*1B
$GNGSA,A,3,79,78,83,82,67,,,,,,,,1.74,0.86,1.52*17
$GPGSV,5,1,17,05,63,092,27,11,09,024,,12,46,012,20,13,16,142,20*7A
$GPGSV,5,2,17,15,30,175,24,18,30,247,21,20,36,049,27,22,09,129,*7E
$GPGSV,5,3,17,23,13,208,21,24,54,213,33,25,23,341,,29,09,315,*71
$GPGSV,5,4,17,36,52,277,32,40,86,351,,41,58,082,,49,32,274,*7D
$GPGSV,5,5,17,50,10,089,*4A
$GLGSV,3,1,09,67,17,107,14,68,22,158,18,69,06,204,,78,33,147,17*65
$GLGSV,3,2,09,79,79,062,29,80,31,343,24,82,18,349,12,83,31,295,27*66
$GLGSV,3,3,09,84,11,241,*57
$GNGLL,0419.80929,S,05539.80053,E,051226.00,A,A*6A
$GNRMC,051227.00,A,0419.80924,S,05539.80044,E,0.159,,270525,,,A*73
$GNVTG,,T,,M,0.159,N,0.295,K,A*3E
$GNGGA,051227.00,0419.80924,S,05539.80044,E,1,12,0.76,20.0,M,-47.6,M,,*4D
$GNGSA,A,3,05,24,12,20,18,15,13,,,,,,1.51,0.76,1.30*17
$GNGSA,A,3,79,78,83,82,67,,,,,,,,1.51,0.76,1.30*1B
$GPGSV,5,1,17,05,63,092,25,11,09,024,17,12,46,012,19,13,16,142,18*7F
$GPGSV,5,2,17,15,30,175,23,18,30,247,20,20,36,049,26,22,09,129,*79
$GPGSV,5,3,17,23,13,208,20,24,54,213,27,25,23,341,,29,09,315,*75
$GPGSV,5,4,17,36,52,277,27,40,86,351,,41,58,082,,49,32,274,*79
$GPGSV,5,5,17,50,10,089,*4A
$GLGSV,3,1,09,67,17,107,13,68,22,158,17,69,06,204,,78,33,147,15*6F
$GLGSV,3,2,09,79,79,062,27,80,31,343,24,82,18,349,09,83,31,295,25*60
$GLGSV,3,3,09,84,11,241,*57
$GNGLL,0419.80924,S,05539.80044,E,051227.00,A,A*60
$GNRMC,051228.00,A,0419.80930,S,05539.80054,E,0.646,,270525,,,A*71
$GNVTG,,T,,M,0.646,N,1.197,K,A*37
$GNGGA,051228.00,0419.80930,S,05539.80054,E,1,12,0.76,19.2,M,-47.6,M,,*4E
$GNGSA,A,3,05,24,12,20,18,15,13,,,,,,1.51,0.76,1.30*17
$GNGSA,A,3,79,78,83,82,67,,,,,,,,1.51,0.76,1.30*1B
$GPGSV,5,1,17,05,63,092,25,11,09,024,14,12,46,012,19,13,16,142,17*73
$GPGSV,5,2,17,15,30,175,22,18,30,247,18,20,36,049,25,22,09,129,*70
$GPGSV,5,3,17,23,13,208,18,24,54,213,29,25,23,341,,29,09,315,*70
$GPGSV,5,4,17,36,52,277,31,40,86,351,,41,58,082,,49,32,274,*7E
$GPGSV,5,5,17,50,10,089,*4A
$GLGSV,3,1,09,67,17,107,12,68,22,158,17,69,06,204,,78,33,147,12*69
$GLGSV,3,2,09,79,79,062,29,80,31,343,22,82,18,349,10,83,31,295,25*60
$GLGSV,3,3,09,84,11,241,*57
$GNGLL,0419.80930,S,05539.80054,E,051228.00,A,A*6B
$GNRMC,051229.00,A,0419.80950,S,05539.80093,E,1.663,,270525,,,A*7B
$GNVTG,,T,,M,1.663,N,3.080,K,A*34
$GNGGA,051229.00,0419.80950,S,05539.80093,E,1,11,0.86,17.9,M,-47.6,M,,*4B
$GNGSA,A,3,05,24,12,20,18,15,13,,,,,,1.74,0.86,1.52*1B
$GNGSA,A,3,79,78,83,67,,,,,,,,,1.74,0.86,1.52*1D
$GPGSV,5,1,17,05,63,092,25,11,09,024,11,12,46,012,20,13,16,142,16*7D
$GPGSV,5,2,17,15,30,175,19,18,30,247,16,20,36,049,24,22,09,129,*77
$GPGSV,5,3,17,23,13,208,17,24,54,213,29,25,23,341,,29,09,315,*7F
$GPGSV,5,4,17,36,52,277,31,40,86,351,,41,58,082,,49,32,274,*7E
$GPGSV,5,5,17,50,10,089,*4A
$GLGSV,3,1,09,67,17,107,10,68,22,158,14,69,06,204,,78,33,147,09*62
$GLGSV,3,2,09,79,79,062,27,80,31,343,18,82,18,349,06,83,31,295,24*61
$GLGSV,3,3,09,84,11,241,*57
$GNGLL,0419.80950,S,05539.80093,E,051229.00,A,A*67
$GNRMC,051230.00,A,0419.80961,S,05539.80101,E,0.656,,270525,,,A*7C
$GNVTG,,T,,M,0.656,N,1.214,K,A*3E
$GNGGA,051230.00,0419.80961,S,05539.80101,E,1,11,0.79,17.8,M,-47.6,M,,*4A
$GNGSA,A,3,05,24,12,20,18,15,13,,,,,,1.52,0.79,1.30*1B
$GNGSA,A,3,79,83,82,67,,,,,,,,,1.52,0.79,1.30*18
$GPGSV,5,1,17,05,63,092,24,11,09,024,11,12,46,012,19,13,16,142,14*74
$GPGSV,5,2,17,15,30,175,19,18,30,247,15,20,36,049,22,22,09,129,*72
$GPGSV,5,3,17,23,13,208,16,24,54,213,28,25,23,341,,29,09,315,*7F
$GPGSV,5,4,17,36,52,277,29,40,86,351,,41,58,082,,49,32,274,*77
$GPGSV,5,5,17,50,10,089,*4A
$GLGSV,3,1,09,67,17,107,11,68,22,158,12,69,06,204,,78,33,147,07*6B
$GLGSV,3,2,09,79,79,062,26,80,31,343,18,82,18,349,13,83,31,295,23*63
$GLGSV,3,3,09,84,11,241,*57
$GNGLL,0419.80961,S,05539.80101,E,051230.00,A,A*67
$GNRMC,051231.00,A,0419.80953,S,05539.80102,E,0.179,,270525,,,A*75
$GNVTG,,T,,M,0.179,N,0.331,K,A*33
$GNGGA,051231.00,0419.80953,S,05539.80102,E,1,11,0.79,17.4,M,-47.6,M,,*45
$GNGSA,A,3,05,24,12,20,18,15,13,,,,,,1.52,0.79,1.30*1B
$GNGSA,A,3,79,83,82,67,,,,,,,,,1.52,0.79,1.30*18
$GPGSV,5,1,17,05,63,092,26,11,09,024,11,12,46,012,23,13,16,142,17*7C
$GPGSV,5,2,17,15,30,175,24,18,30,247,16,20,36,049,20,22,09,129,*7D
$GPGSV,5,3,17,23,13,208,16,24,54,213,31,25,23,341,,29,09,315,*77
$GPGSV,5,4,17,36,52,277,32,40,86,351,,41,58,082,,49,32,274,*7D
$GPGSV,5,5,17,50,10,089,*4A
$GLGSV,3,1,09,67,17,107,11,68,22,158,13,69,06,204,,78,33,147,07*6A
$GLGSV,3,2,09,79,79,062,27,80,31,343,20,82,18,349,13,83,31,295,25*6F
$GLGSV,3,3,09,84,11,241,*57
$GNGLL,0419.80953,S,05539.80102,E,051231.00,A,A*64
$GNRMC,051232.00,A,0419.80959,S,05539.80103,E,0.267,,270525,,,A*71
$GNVTG,,T,,M,0.267,N,0.494,K,A*37
$GNGGA,051232.00,0419.80959,S,05539.80103,E,1,12,0.75,17.1,M,-47.6,M,,*47
$GNGSA,A,3,05,24,12,20,18,15,13,11,,,,,1.39,0.75,1.17*1F
$GNGSA,A,3,79,83,82,67,,,,,,,,,1.39,0.75,1.17*1C
$GPGSV,5,1,17,05,63,092,25,11,09,024,12,12,46,012,24,13,16,142,18*74
$GPGSV,5,2,17,15,30,175,25,18,30,247,18,20,36,049,18,22,09,129,*79
$GPGSV,5,3,17,23,13,208,18,24,54,213,30,25,23,341,,29,09,315,*78
$GPGSV,5,4,17,36,52,277,30,40,86,351,,41,58,082,,49,32,274,*7F
$GPGSV,5,5,17,50,10,089,*4A
$GLGSV,3,1,09,67,17,107,11,68,22,158,17,69,06,204,,78,33,147,07*6E
$GLGSV,3,2,09,79,79,062,27,80,31,343,21,82,18,349,13,83,31,295,25*6E
$GLGSV,3,3,09,84,11,241,*57
$GNGLL,0419.80959,S,05539.80103,E,051232.00,A,A*6C
$GNRMC,051233.00,A,0419.80963,S,05539.80107,E,0.527,,270525,,,A*7E
$GNVTG,,T,,M,0.527,N,0.976,K,A*35
$GNGGA,051233.00,0419.80963,S,05539.80107,E,1,12,0.75,17.3,M,-47.6,M,,*49
$GNGSA,A,3,05,24,12,20,18,15,13,11,,,,,1.39,0.75,1.17*1F
$GNGSA,A,3,79,83,82,67,,,,,,,,,1.39,0.75,1.17*1C
$GPGSV,5,1,17,05,63,092,23,11,09,024,12,12,46,012,22,13,16,142,16*7A
$GPGSV,5,2,17,15,30,175,23,18,30,247,17,20,36,049,18,22,09,129,*70
$GPGSV,5,3,17,23,13,208,17,24,54,213,30,25,23,341,,29,09,315,*77
$GPGSV,5,4,17,36,52,277,27,40,86,351,,41,58,082,,49,32,274,*79
$GPGSV,5,5,17,50,10,089,*4A
$GLGSV,3,1,09,67,17,107,11,68,22,158,17,69,06,204,,78,33,147,07*6E
$GLGSV,3,2,09,79,79,062,27,80,31,343,22,82,18,349,13,83,31,295,23*6B
$GLGSV,3,3,09,84,11,241,*57
$GNGLL,0419.80963,S,05539.80107,E,051233.00,A,A*60
$GNRMC,051234.00,A,0419.80961,S,05539.80088,E,0.352,,270525,,,A*79
$GNVTG,,T,,M,0.352,N,0.652,K,A*38
$GNGGA,051234.00,0419.80961,S,05539.80088,E,1,12,0.72,17.7,M,-47.6,M,,*49
$GNGSA,A,3,05,24,12,20,18,15,13,11,,,,,1.32,0.72,1.11*15
$GNGSA,A,3,79,83,82,67,,,,,,,,,1.32,0.72,1.11*16
$GPGSV,5,1,17,05,63,092,22,11,09,024,11,12,46,012,25,13,16,142,17*7E
$GPGSV,5,2,17,15,30,175,23,18,30,247,15,20,36,049,19,22,09,129,*73
$GPGSV,5,3,17,23,13,208,17,24,54,213,31,25,23,341,,29,09,315,*76
$GPGSV,5,4,17,36,52,277,29,40,86,351,,41,58,082,,49,32,274,*77
$GPGSV,5,5,17,50,10,089,*4A
$GLGSV,3,1,09,67,17,107,11,68,22,158,16,69,06,204,,78,33,147,07*6F
$GLGSV,3,2,09,79,79,062,26,80,31,343,21,82,18,349,13,83,31,295,22*68
$GLGSV,3,3,09,84,11,241,*57
$GNGLL,0419.80961,S,05539.80088,E,051234.00,A,A*63
$GNRMC,051235.00,A,0419.80962,S,05539.80042,E,1.140,,270525,,,A*7D
$GNVTG,,T,,M,1.140,N,2.110,K,A*3B
$GNGGA,051235.00,0419.80962,S,05539.80042,E,1,12,0.79,19.1,M,-47.6,M,,*4E
$GNGSA,A,3,05,24,12,20,18,15,13,11,,,,,1.46,0.79,1.23*1C
$GNGSA,A,3,79,78,83,67,,,,,,,,,1.46,0.79,1.23*1A
$GPGSV,5,1,17,05,63,092,22,11,09,024,12,12,46,012,25,13,16,142,18*72
$GPGSV,5,2,17,15,30,175,23,18,30,247,14,20,36,049,18,22,09,129,*73
$GPGSV,5,3,17,23,13,208,17,24,54,213,31,25,23,341,,29,09,315,*76
$GPGSV,5,4,17,36,52,277,29,40,86,351,,41,58,082,,49,32,274,*77
$GPGSV,5,5,17,50,10,089,*4A
$GLGSV,3,1,09,67,17,107,14,68,22,158,14,69,06,204,,78,33,147,09*66
$GLGSV,3,2,09,79,79,062,27,80,31,343,22,82,18,349,07,83,31,295,22*6F
$GLGSV,3,3,09,84,11,241,*57
$GNGLL,0419.80962,S,05539.80042,E,051235.00,A,A*67
$GNRMC,051236.00,A,0419.80956,S,05539.80045,E,0.101,,270525,,,A*7A
$GNVTG,,T,,M,0.101,N,0.186,K,A*32
$GNGGA,051236.00,0419.80956,S,05539.80045,E,1,11,0.86,18.9,M,-47.6,M,,*47
$GNGSA,A,3,05,24,12,20,18,15,13,,,,,,1.74,0.86,1.52*1B
$GNGSA,A,3,79,78,83,67,,,,,,,,,1.74,0.86,1.52*1D
$GPGSV,5,1,17,05,63,092,23,11,09,024,09,12,46,012,24,13,16,142,17*77
$GPGSV,5,2,17,15,30,175,22,18,30,247,20,20,36,049,19,22,09,129,*74
$GPGSV,5,3,17,23,13,208,15,24,54,213,31,25,23,341,,29,09,315,*74
$GPGSV,5,4,17,36,52,277,30,40,86,351,,41,58,082,,49,32,274,*7F
$GPGSV,5,5,17,50,10,089,*4A
$GLGSV,3,1,09,67,17,107,14,68,22,158,12,69,06,204,,78,33,147,09*60
$GLGSV,3,2,09,79,79,062,27,80,31,343,24,82,18,349,07,83,31,295,23*68
$GLGSV,3,3,09,84,11,241,*57
$GNGLL,0419.80956,S,05539.80045,E,051236.00,A,A*64
$GNRMC,051237.00,A,0419.80951,S,05539.80056,E,0.370,,270525,,,A*7A
$GNVTG,,T,,M,0.370,N,0.686,K,A*31
$GNGGA,051237.00,0419.80951,S,05539.80056,E,1,11,0.86,18.9,M,-47.6,M,,*43
$GNGSA,A,3,05,24,12,20,18,15,13,,,,,,1.74,0.86,1.52*1B
$GNGSA,A,3,79,78,83,67,,,,,,,,,1.74,0.86,1.52*1D
$GPGSV,5,1,17,05,63,092,25,11,09,024,07,12,46,012,23,13,16,142,18*77
$GPGSV,5,2,17,15,30,175,24,18,30,247,21,20,36,049,19,22,09,129,*73
$GPGSV,5,3,17,23,13,208,18,24,54,213,32,25,23,341,,29,09,315,*7A
$GPGSV,5,4,17,36,52,277,31,40,86,351,,41,58,082,,49,32,274,*7E
$GPGSV,5,5,17,50,10,089,*4A
$GLGSV,3,1,09,67,17,107,15,68,22,158,09,69,06,204,,78,33,147,10*63
$GLGSV,3,2,09,79,79,062,27,80,31,343,23,82,18,349,10,83,31,295,23*69
$GLGSV,3,3,09,84,11,241,*57
$GNGLL,0419.80951,S,05539.80056,E,051237.00,A,A*60
$GNRMC,051238.00,A,0419.80957,S,05539.80068,E,0.564,,270525,,,A*7D
$GNVTG,,T,,M,0.564,N,1.045,K,A*3A
$GNGGA,051238.00,0419.80957,S,05539.80068,E,1,12,0.76,19.3,M,-47.6,M,,*40
$GNGSA,A,3,05,24,12,20,18,15,13,,,,,,1.51,0.76,1.30*17
$GNGSA,A,3,79,78,83,82,67,,,,,,,,1.51,0.76,1.30*1B
$GPGSV,5,1,17,05,63,092,25,11,09,024,,12,46,012,25,13,16,142,20*7D
$GPGSV,5,2,17,15,30,175,24,18,30,247,24,20,36,049,19,22,09,129,*76
$GPGSV,5,3,17,23,13,208,20,24,54,213,33,25,23,341,,29,09,315,*70
$GPGSV,5,4,17,36,52,277,31,40,86,351,,41,58,082,,49,32,274,*7E
$GPGSV,5,5,17,50,10,089,*4A
$GLGSV,3,1,09,67,17,107,15,68,22,158,08,69,06,204,,78,33,147,10*62
$GLGSV,3,2,09,79,79,062,28,80,31,343,23,82,18,349,10,83,31,295,22*67
$GLGSV,3,3,09,84,11,241,*57
$GNGLL,0419.80957,S,05539.80068,E,051238.00,A,A*64
$GNRMC,051239.00,A,0419.80948,S,05539.80077,E,0.234,,270525,,,A*7E
$GNVTG,,T,,M,0.234,N,0.433,K,A*3C
$GNGGA,051239.00,0419.80948,S,05539.80077,E,1,12,0.76,19.0,M,-47.6,M,,*42
$GNGSA,A,3,05,24,12,20,18,15,13,,,,,,1.51,0.76,1.30*17
$GNGSA,A,3,79,78,83,82,67,,,,,,,,1.51,0.76,1.30*1B
$GPGSV,5,1,17,05,63,092,24,11,09,024,,12,46,012,26,13,16,142,20*7F
$GPGSV,5,2,17,15,30,175,24,18,30,247,25,20,36,049,21,22,09,129,*7C
$GPGSV,5,3,17,23,13,208,22,24,54,213,33,25,23,341,,29,09,315,*72
$GPGSV,5,4,17,36,52,277,32,40,86,351,,41,58,082,,49,32,274,*7D
$GPGSV,5,5,17,50,10,089,*4A
$GLGSV,3,1,09,67,17,107,15,68,22,158,14,69,06,204,,78,33,147,10*6F
$GLGSV,3,2,09,79,79,062,28,80,31,343,25,82,18,349,10,83,31,295,23*60
$GLGSV,3,3,09,84,11,241,*57
$GNGLL,0419.80948,S,05539.80077,E,051239.00,A,A*65
$GNRMC,051240.00,A,0419.80931,S,05539.80057,E,0.675,,270525,,,A*7D
$GNVTG,,T,,M,0.675,N,1.250,K,A*3F
$GNGGA,051240.00,0419.80931,S,05539.80057,E,1,12,0.76,19.5,M,-47.6,M,,*45
$GNGSA,A,3,05,24,12,20,18,15,13,,,,,,1.51,0.76,1.30*17
$GNGSA,A,3,79,78,83,82,67,,,,,,,,1.51,0.76,1.30*1B
$GPGSV,5,1,17,05,63,092,23,11,09,024,,12,46,012,26,13,16,142,21*79
$GPGSV,5,2,17,15,30,175,26,18,30,247,23,20,36,049,23,22,09,129,*7A
$GPGSV,5,3,17,23,13,208,22,24,54,213,32,25,23,341,10,29,09,315,*72
$GPGSV,5,4,17,36,52,277,32,40,86,351,,41,58,082,,49,32,274,*7D
$GPGSV,5,5,17,50,10,089,*4A
$GLGSV,3,1,09,67,17,107,15,68,22,158,17,69,06,204,,78,33,147,10*6C
$GLGSV,3,2,09,79,79,062,28,80,31,343,25,82,18,349,10,83,31,295,24*67
$GLGSV,3,3,09,84,11,241,*57
$GNGLL,0419.80931,S,05539.80057,E,051240.00,A,A*67
$GNRMC,051241.00,A,0419.80919,S,05539.80055,E,0.081,,270525,,,A*79
$GNVTG,,T,,M,0.081,N,0.151,K,A*31
$GNGGA,051241.00,0419.80919,S,05539.80055,E,1,12,0.91,19.4,M,-47.6,M,,*44
$GNGSA,A,3,05,24,12,20,18,15,13,,,,,,1.92,0.91,1.70*15
$GNGSA,A,3,79,78,83,82,67,,,,,,,,1.92,0.91,1.70*19
$GPGSV,5,1,17,05,63,092,24,11,09,024,,12,46,012,26,13,16,142,20*7F
$GPGSV,5,2,17,15,30,175,26,18,30,247,23,20,36,049,23,22,09,129,*7A
$GPGSV,5,3,17,23,13,208,22,24,54,213,33,25,23,341,15,29,09,315,*76
$GPGSV,5,4,17,36,52,277,32,40,86,351,,41,58,082,,49,32,274,*7D
$GPGSV,5,5,17,50,10,089,*4A
$GLGSV,3,1,09,67,17,107,11,68,22,158,18,69,06,204,,78,33,147,15*62
$GLGSV,3,2,09,79,79,062,28,80,31,343,26,82,18,349,15,83,31,295,25*60
$GLGSV,3,3,09,84,11,241,*57
$GNGLL,0419.80919,S,05539.80055,E,051241.00,A,A*6E
$GNRMC,051242.00,A,0419.80912,S,05539.80038,E,0.247,,270525,,,A*72
$GNVTG,,T,,M,0.247,N,0.458,K,A*35
$GNGGA,051242.00,0419.80912,S,05539.80038,E,1,12,0.74,19.7,M,-47.6,M,,*4F
$GNGSA,A,3,05,24,12,20,18,15,13,,,,,,1.41,0.74,1.20*15
$GNGSA,A,3,79,78,83,82,67,,,,,,,,1.41,0.74,1.20*19
$GPGSV,5,1,17,05,63,092,25,11,09,024,,12,46,012,24,13,16,142,20*7C
$GPGSV,5,2,17,15,30,175,24,18,30,247,24,20,36,049,24,22,09,129,*78
$GPGSV,5,3,17,23,13,208,21,24,54,213,28,25,23,341,17,29,09,315,*7D
$GPGSV,5,4,17,36,52,277,28,40,86,351,,41,58,082,,49,32,274,*76
$GPGSV,5,5,17,50,10,089,*4A
$GLGSV,3,1,09,67,17,107,11,68,22,158,18,69,06,204,,78,33,147,21*65
$GLGSV,3,2,09,79,79,062,27,80,31,343,26,82,18,349,10,83,31,295,26*69
$GLGSV,3,3,09,84,11,241,*57
$GNGLL,0419.80912,S,05539.80038,E,051242.00,A,A*6D
$GNRMC,051243.00,A,0419.80901,S,05539.80019,E,0.584,,270525,,,A*7A
$GNVTG,,T,,M,0.584,N,1.081,K,A*3C
$GNGGA,051243.00,0419.80901,S,05539.80019,E,1,12,0.74,19.9,M,-47.6,M,,*41
$GNGSA,A,3,05,24,12,20,18,15,13,,,,,,1.41,0.74,1.20*15
$GNGSA,A,3,79,78,83,82,67,,,,,,,,1.41,0.74,1.20*19
$GPGSV,5,1,17,05,63,092,25,11,09,024,,12,46,012,23,13,16,142,19*71
$GPGSV,5,2,17,15,30,175,24,18,30,247,25,20,36,049,22,22,09,129,*7F
$GPGSV,5,3,17,23,13,208,19,24,54,213,28,25,23,341,18,29,09,315,*79
$GPGSV,5,4,17,36,52,277,31,40,86,351,,41,58,082,,49,32,274,*7E
$GPGSV,5,5,17,50,10,089,*4A
$GLGSV,3,1,09,67,17,107,11,68,22,158,19,69,06,204,,78,33,147,19*6F
$GLGSV,3,2,09,79,79,062,27,80,31,343,26,82,18,349,10,83,31,295,25*6A
$GLGSV,3,3,09,84,11,241,*57
$GNGLL,0419.80901,S,05539.80019,E,051243.00,A,A*6D
$GNRMC,051244.00,A,0419.80871,S,05539.79991,E,1.329,,270525,,,A*74
$GNVTG,,T,,M,1.329,N,2.462,K,A*36
$GNGGA,051244.00,0419.80871,S,05539.79991,E,1,12,0.84,20.7,M,-47.6,M,,*44
$GNGSA,A,3,05,24,12,20,18,15,13,,,,,,1.60,0.84,1.36*1E
$GNGSA,A,3,79,78,83,82,67,,,,,,,,1.60,0.84,1.36*12
$GPGSV,5,1,17,05,63,092,25,11,09,024,15,12,46,012,23,13,16,142,17*7B
$GPGSV,5,2,17,15,30,175,23,18,30,247,25,20,36,049,21,22,09,129,*7B
$GPGSV,5,3,17,23,13,208,19,24,54,213,28,25,23,341,16,29,09,315,*77
$GPGSV,5,4,17,36,52,277,32,40,86,351,,41,58,082,,49,32,274,*7D
$GPGSV,5,5,17,50,10,089,*4A
$GLGSV,3,1,09,67,17,107,11,68,22,158,20,69,06,204,,78,33,147,18*64
$GLGSV,3,2,09,79,79,062,27,80,31,343,26,82,18,349,10,83,31,295,24*6B
$GLGSV,3,3,09,84,11,241,*57
$GNGLL,0419.80871,S,05539.79991,E,051244.00,A,A*63
$GNRMC,051245.00,A,0419.80857,S,05539.79984,E,0.385,,270525,,,A*72
$GNVTG,,T,,M,0.385,N,0.713,K,A*36
$GNGGA,051245.00,0419.80857,S,05539.79984,E,1,12,0.74,20.8,M,-47.6,M,,*45
$GNGSA,A,3,05,24,12,20,18,15,13,,,,,,1.41,0.74,1.20*15
$GNGSA,A,3,79,78,83,82,67,,,,,,,,1.41,0.74,1.20*19
$GPGSV,5,1,17,05,63,092,23,11,09,024,14,12,46,012,25,13,16,142,17*7A
$GPGSV,5,2,17,15,30,175,23,18,30,247,23,20,36,049,23,22,09,129,*7F
$GPGSV,5,3,17,23,13,208,19,24,54,213,30,25,23,341,17,29,09,315,*7F
$GPGSV,5,4,17,36,52,277,32,40,86,351,,41,58,082,,49,32,274,*7D
$GPGSV,5,5,17,50,10,089,*4A
$GLGSV,3,1,09,67,17,107,10,68,22,158,19,69,06,204,,78,33,147,16*61
$GLGSV,3,2,09,79,79,062,26,80,31,343,24,82,18,349,11,83,31,295,22*6F
$GLGSV,3,3,09,84,11,241,*57
$GNGLL,0419.80857,S,05539.79984,E,051245.00,A,A*62
$GNRMC,051246.00,A,0419.80909,S,05539.80023,E,2.441,219.89,270525,,,A*61
$GNVTG,219.89,T,,M,2.441,N,4.521,K,A*29
$GNGGA,051246.00,0419.80909,S,05539.80023,E,1,12,0.74,21.2,M,-47.6,M,,*45
$GNGSA,A,3,05,24,12,20,18,15,13,,,,,,1.41,0.74,1.20*15
$GNGSA,A,3,79,78,83,82,67,,,,,,,,1.41,0.74,1.20*19
$GPGSV,5,1,17,05,63,092,24,11,09,024,14,12,46,012,24,13,16,142,17*7C
$GPGSV,5,2,17,15,30,175,22,18,30,247,21,20,36,049,24,22,09,129,12*78
$GPGSV,5,3,17,23,13,208,19,24,54,213,29,25,23,341,16,29,09,315,*76
$GPGSV,5,4,17,36,52,277,31,40,86,351,,41,58,082,,49,32,274,*7E
$GPGSV,5,5,17,50,10,089,*4A
$GLGSV,3,1,09,67,17,107,10,68,22,158,17,69,06,204,,78,33,147,14*6D
$GLGSV,3,2,09,79,79,062,26,80,31,343,22,82,18,349,13,83,31,295,21*68
$GLGSV,3,3,09,84,11,241,*57
$GNGLL,0419.80909,S,05539.80023,E,051246.00,A,A*69
$GNRMC,051247.00,A,0419.80920,S,05539.80035,E,0.744,,270525,,,A*7D
$GNVTG,,T,,M,0.744,N,1.378,K,A*37
$GNGGA,051247.00,0419.80920,S,05539.80035,E,1,12,0.76,21.0,M,-47.6,M,,*48
$GNGSA,A,3,05,24,12,20,18,15,13,22,,,,,1.45,0.76,1.23*10
$GNGSA,A,3,79,78,83,82,67,,,,,,,,1.45,0.76,1.23*1C
$GPGSV,5,1,17,05,63,092,24,11,09,024,12,12,46,012,22,13,16,142,16*7D
$GPGSV,5,2,17,15,30,175,22,18,30,247,20,20,36,049,25,22,09,129,08*73
$GPGSV,5,3,17,23,13,208,19,24,54,213,29,25,23,341,17,29,09,315,*77
$GPGSV,5,4,17,36,52,277,31,40,86,351,,41,58,082,,49,32,274,*7E
$GPGSV,5,5,17,50,10,089,*4A
$GLGSV,3,1,09,67,17,107,10,68,22,158,15,69,06,204,,78,33,147,16*6D
$GLGSV,3,2,09,79,79,062,25,80,31,343,20,82,18,349,12,83,31,295,20*69
$GLGSV,3,3,09,84,11,241,*57
$GNGLL,0419.80920,S,05539.80035,E,051247.00,A,A*64
$GNRMC,051248.00,A,0419.80907,S,05539.80031,E,0.383,,270525,,,A*7C
$GNVTG,,T,,M,0.383,N,0.709,K,A*3B
$GNGGA,051248.00,0419.80907,S,05539.80031,E,1,12,0.76,21.0,M,-47.6,M,,*46
$GNGSA,A,3,05,24,12,20,18,15,13,,,,,,1.51,0.76,1.30*17
$GNGSA,A,3,79,78,83,82,67,,,,,,,,1.51,0.76,1.30*1B
$GPGSV,5,1,17,05,63,092,24,11,09,024,11,12,46,012,22,13,16,142,16*7E
$GPGSV,5,2,17,15,30,175,22,18,30,247,19,20,36,049,24,22,09,129,08*78
$GPGSV,5,3,17,23,13,208,20,24,54,213,28,25,23,341,18,29,09,315,*73
$GPGSV,5,4,17,36,52,277,30,40,86,351,,41,58,082,,49,32,274,*7F
$GPGSV,5,5,17,50,10,089,*4A
$GLGSV,3,1,09,67,17,107,12,68,22,158,14,69,06,204,,78,33,147,16*6E
$GLGSV,3,2,09,79,79,062,24,80,31,343,20,82,18,349,09,83,31,295,19*68
$GLGSV,3,3,09,84,11,241,*57
$GNGLL,0419.80907,S,05539.80031,E,051248.00,A,A*6A
$GNRMC,051249.00,A,0419.80892,S,05539.80029,E,0.391,,270525,,,A*7A
$GNVTG,,T,,M,0.391,N,0.725,K,A*36
$GNGGA,051249.00,0419.80892,S,05539.80029,E,1,12,0.76,20.9,M,-47.6,M,,*4B
$GNGSA,A,3,05,24,12,20,18,15,13,,,,,,1.51,0.76,1.30*17
$GNGSA,A,3,79,78,83,82,67,,,,,,,,1.51,0.76,1.30*1B
$GPGSV,5,1,17,05,63,092,26,11,09,024,09,12,46,012,23,13,16,142,12*70
$GPGSV,5,2,17,15,30,175,23,18,30,247,21,20,36,049,26,22,09,129,08*70
$GPGSV,5,3,17,23,13,208,19,24,54,213,31,25,23,341,18,29,09,315,*71
$GPGSV,5,4,17,36,52,277,32,40,86,351,,41,58,082,,49,32,274,*7D
$GPGSV,5,5,17,50,10,089,*4A
$GLGSV,3,1,09,67,17,107,10,68,22,158,13,69,06,204,,78,33,147,19*64
$GLGSV,3,2,09,79,79,062,25,80,31,343,19,82,18,349,15,83,31,295,21*65
$GLGSV,3,3,09,84,11,241,*57
$GNGLL,0419.80892,S,05539.80029,E,051249.00,A,A*6F
$GNRMC,051250.00,A,0419.80877,S,05539.80019,E,0.454,,270525,,,A*74
$GNVTG,,T,,M,0.454,N,0.842,K,A*36
$GNGGA,051250.00,0419.80877,S,05539.80019,E,1,12,0.88,20.8,M,-47.6,M,,*4B
$GNGSA,A,3,05,24,12,20,18,15,22,,,,,,1.85,0.88,1.62*1A
$GNGSA,A,3,79,78,83,82,67,,,,,,,,1.85,0.88,1.62*14
$GPGSV,5,1,17,05,63,092,27,11,09,024,10,12,46,012,23,13,16,142,09*73
$GPGSV,5,2,17,15,30,175,22,18,30,247,24,20,36,049,26,22,09,129,10*7D
$GPGSV,5,3,17,23,13,208,20,24,54,213,29,25,23,341,17,29,09,315,*7D
$GPGSV,5,4,17,36,52,277,31,40,86,351,,41,58,082,,49,32,274,*7E
$GPGSV,5,5,17,50,10,089,*4A
$GLGSV,3,1,09,67,17,107,10,68,22,158,10,69,06,204,,78,33,147,17*69
$GLGSV,3,2,09,79,79,062,24,80,31,343,17,82,18,349,09,83,31,295,20*66
$GLGSV,3,3,09,84,11,241,*57
$GNGLL,0419.80877,S,05539.80019,E,051250.00,A,A*6F
$GNRMC,051251.00,A,0419.80878,S,05539.80024,E,0.155,,270525,,,A*70
$GNVTG,,T,,M,0.155,N,0.288,K,A*3E
$GNGGA,051251.00,0419.80878,S,05539.80024,E,1,12,0.76,20.7,M,-47.6,M,,*45
$GNGSA,A,3,05,24,12,20,18,15,13,22,,,,,1.51,0.76,1.30*17
$GNGSA,A,3,79,78,83,82,67,,,,,,,,1.51,0.76,1.30*1B
$GPGSV,5,1,17,05,63,092,27,11,09,024,09,12,46,012,25,13,16,142,10*75
$GPGSV,5,2,17,15,30,175,23,18,30,247,26,20,36,049,28,22,09,129,10*70
$GPGSV,5,3,17,23,13,208,20,24,54,213,30,25,23,341,16,29,09,315,*74
$GPGSV,5,4,17,36,52,277,31,40,86,351,,41,58,082,,49,32,274,*7E
$GPGSV,5,5,17,50,10,089,*4A
$GLGSV,3,1,09,67,17,106,11,68,22,158,08,69,06,204,,78,33,147,17*60
$GLGSV,3,2,09,79,79,062,23,80,31,343,16,82,18,349,09,83,31,295,21*61
$GLGSV,3,3,09,84,11,241,*57
$GNGLL,0419.80878,S,05539.80024,E,051251.00,A,A*6F
$GNRMC,051252.00,A,0419.80882,S,05539.80026,E,0.074,,270525,,,A*76
$GNVTG,,T,,M,0.074,N,0.136,K,A*3A
$GNGGA,051252.00,0419.80882,S,05539.80026,E,1,12,0.72,20.9,M,-47.6,M,,*4B
$GNGSA,A,3,05,24,12,20,18,15,13,11,22,,,,1.38,0.72,1.17*19
$GNGSA,A,3,79,78,83,82,67,,,,,,,,1.38,0.72,1.17*15
$GPGSV,5,1,17,05,63,092,25,11,09,024,11,12,46,012,26,13,16,142,14*79
$GPGSV,5,2,17,15,30,175,26,18,30,247,27,20,36,049,28,22,09,129,10*74
$GPGSV,5,3,17,23,13,208,21,24,54,213,29,25,23,341,16,29,09,315,*7D
$GPGSV,5,4,17,36,52,277,31,40,86,351,,41,58,082,,49,32,274,*7E
$GPGSV,5,5,17,50,10,089,*4A
$GLGSV,3,1,09,67,17,106,12,68,22,157,13,69,06,204,,78,33,147,20*62
$GLGSV,3,2,09,79,79,062,25,80,31,343,17,82,18,349,12,83,31,295,21*6C
$GLGSV,3,3,09,84,11,241,*57
$GNGLL,0419.80882,S,05539.80026,E,051252.00,A,A*6B
$GNRMC,051253.00,A,0419.80886,S,05539.80028,E,0.095,,270525,,,A*72
$GNVTG,,T,,M,0.095,N,0.177,K,A*30
$GNGGA,051253.00,0419.80886,S,05539.80028,E,1,12,0.72,21.1,M,-47.6,M,,*49
$GNGSA,A,3,05,24,12,20,18,15,13,11,22,,,,1.38,0.72,1.17*19
$GNGSA,A,3,79,78,83,82,67,,,,,,,,1.38,0.72,1.17*15
$GPGSV,5,1,17,05,63,092,26,11,09,024,11,12,46,012,26,13,16,142,16*78
$GPGSV,5,2,17,15,30,175,25,18,30,247,27,20,36,049,27,22,09,129,10*78
$GPGSV,5,3,17,23,13,208,21,24,54,213,27,25,23,341,17,29,09,315,*72
$GPGSV,5,4,17,36,52,277,30,40,86,351,,41,58,082,,49,32,274,*7F
$GPGSV,5,5,17,50,10,089,*4A
$GLGSV,3,1,09,67,17,106,07,68,22,157,15,69,06,203,,78,33,147,19*6D
$GLGSV,3,2,09,79,79,062,26,80,31,343,18,82,18,349,09,83,31,295,20*6B
$GLGSV,3,3,09,84,11,241,*57
$GNGLL,0419.80886,S,05539.80028,E,051253.00,A,A*60
$GNRMC,051254.00,A,0419.80891,S,05539.80028,E,0.096,,270525,,,A*70
$GNVTG,,T,,M,0.096,N,0.179,K,A*3D
$GNGGA,051254.00,0419.80891,S,05539.80028,E,1,12,0.76,21.0,M,-47.6,M,,*4D
$GNGSA,A,3,05,24,12,20,18,15,13,22,,,,,1.51,0.76,1.30*17
$GNGSA,A,3,79,78,83,82,67,,,,,,,,1.51,0.76,1.30*1B
$GPGSV,5,1,17,05,63,092,27,11,09,024,09,12,46,012,27,13,16,142,16*71
$GPGSV,5,2,17,15,30,175,24,18,30,247,28,20,36,049,26,22,09,129,10*77
$GPGSV,5,3,17,23,13,208,22,24,54,213,26,25,23,341,18,29,09,315,*7F
$GPGSV,5,4,17,36,52,277,30,40,86,351,,41,58,082,,49,32,274,*7F
$GPGSV,5,5,17,50,10,089,*4A
$GLGSV,3,1,09,67,17,106,12,68,22,157,,69,06,203,,78,33,147,20*67
$GLGSV,3,2,09,79,79,062,26,80,31,343,17,82,18,349,09,83,31,295,19*6E
$GLGSV,3,3,09,84,11,241,*57
$GNGLL,0419.80891,S,05539.80028,E,051254.00,A,A*61
$GNRMC,051255.00,A,0419.80897,S,05539.80024,E,0.027,,270525,,,A*71
$GNVTG,,T,,M,0.027,N,0.050,K,A*3D
$GNGGA,051255.00,0419.80897,S,05539.80024,E,1,12,0.76,21.0,M,-47.6,M,,*46
$GNGSA,A,3,05,24,12,20,18,15,13,22,,,,,1.51,0.76,1.30*17
$GNGSA,A,3,79,78,83,82,67,,,,,,,,1.51,0.76,1.30*1B
$GPGSV,5,1,17,05,63,092,25,11,09,024,08,12,46,012,28,13,16,142,15*7E
$GPGSV,5,2,17,15,30,175,26,18,30,247,28,20,36,049,25,22,09,129,10*76
$GPGSV,5,3,17,23,13,208,22,24,54,213,25,25,23,341,18,29,09,315,*7C
$GPGSV,5,4,17,36,52,277,31,40,86,351,,41,58,082,,49,32,274,*7E
$GPGSV,5,5,17,50,10,089,*4A
$GLGSV,3,1,09,67,17,106,10,68,22,157,,69,06,203,,78,33,147,21*64
$GLGSV,3,2,09,79,79,062,27,80,31,343,15,82,18,349,09,83,31,295,20*67
$GLGSV,3,3,09,84,11,241,*57
$GNGLL,0419.80897,S,05539.80024,E,051255.00,A,A*6A
$GNRMC,051256.00,A,0419.80899,S,05539.80027,E,0.081,,270525,,,A*73
$GNVTG,,T,,M,0.081,N,0.151,K,A*31
$GNGGA,051256.00,0419.80899,S,05539.80027,E,1,12,0.76,21.1,M,-47.6,M,,*49
$GNGSA,A,3,05,24,12,20,18,15,13,22,,,,,1.51,0.76,1.30*17
$GNGSA,A,3,79,78,83,82,67,,,,,,,,1.51,0.76,1.30*1B
$GPGSV,5,1,17,05,63,092,24,11,09,024,08,12,46,012,26,13,16,142,15*71
$GPGSV,5,2,17,15,30,175,27,18,30,247,30,20,36,049,26,22,09,129,11*7C
$GPGSV,5,3,17,23,13,208,22,24,54,213,25,25,23,341,18,29,09,315,*7C
$GPGSV,5,4,17,36,52,277,32,40,86,351,,41,58,082,,49,32,274,*7D
$GPGSV,5,5,17,50,10,089,*4A
$GLGSV,3,1,09,67,17,106,13,68,22,157,,69,06,203,,78,33,147,22*64
$GLGSV,3,2,09,79,79,062,28,80,31,343,17,82,18,349,13,83,31,295,23*62
$GLGSV,3,3,09,84,11,241,*57
$GNGLL,0419.80899,S,05539.80027,E,051256.00,A,A*64
$GNRMC,051257.00,A,0419.80902,S,05539.80036,E,0.260,,270525,,,A*7C
$GNVTG,,T,,M,0.260,N,0.482,K,A*37
$GNGGA,051257.00,0419.80902,S,05539.80036,E,1,12,0.76,21.0,M,-47.6,M,,*4A
$GNGSA,A,3,05,24,12,20,18,15,13,22,,,,,1.51,0.76,1.30*17
$GNGSA,A,3,79,78,83,82,67,,,,,,,,1.51,0.76,1.30*1B
$GPGSV,5,1,17,05,63,092,25,11,09,024,07,12,46,012,25,13,16,142,15*7C
$GPGSV,5,2,17,15,30,175,26,18,30,247,31,20,36,049,27,22,09,129,11*7D
$GPGSV,5,3,17,23,13,208,22,24,54,213,26,25,23,341,16,29,09,315,*71
$GPGSV,5,4,17,36,52,277,30,40,86,351,,41,58,082,,49,32,274,*7F
$GPGSV,5,5,17,50,10,089,*4A
$GLGSV,3,1,09,67,17,106,11,68,22,157,,69,06,203,,78,33,147,23*67
$GLGSV,3,2,09,79,79,062,28,80,31,343,18,82,18,349,18,83,31,295,25*60
$GLGSV,3,3,09,84,11,241,*57
$GNGLL,0419.80902,S,05539.80036,E,051257.00,A,A*66
$GNRMC,051258.00,A,0419.80904,S,05539.80047,E,0.227,,270525,,,A*70
$GNVTG,,T,,M,0.227,N,0.420,K,A*3C
$GNGGA,051258.00,0419.80904,S,05539.80047,E,1,12,0.76,20.7,M,-47.6,M,,*43
$GNGSA,A,3,05,24,12,20,18,15,13,22,,,,,1.51,0.76,1.30*17
$GNGSA,A,3,79,78,83,82,67,,,,,,,,1.51,0.76,1.30*1B
$GPGSV,5,1,17,05,63,092,26,11,09,024,08,12,46,012,26,13,16,142,14*72
$GPGSV,5,2,17,15,30,175,26,18,30,247,30,20,36,049,28,22,09,129,11*73
$GPGSV,5,3,17,23,13,208,21,24,54,213,29,25,23,341,16,29,09,315,*7D
$GPGSV,5,4,17,36,52,277,30,40,86,351,,41,58,082,,49,32,274,*7F
$GPGSV,5,5,17,50,10,089,*4A
$GLGSV,3,1,09,67,17,106,14,68,22,157,,69,06,203,,78,33,147,23*62
$GLGSV,3,2,09,79,79,062,27,80,31,343,20,82,18,349,14,83,31,295,24*69
$GLGSV,3,3,09,84,11,241,*57
$GNGLL,0419.80904,S,05539.80047,E,051258.00,A,A*69
$GNRMC,051259.00,A,0419.80905,S,05539.80052,E,0.062,,270525,,,A*77
$GNVTG,,T,,M,0.062,N,0.116,K,A*3F
$GNGGA,051259.00,0419.80905,S,05539.80052,E,1,12,0.82,20.6,M,-47.6,M,,*4D
$GNGSA,A,3,05,24,12,20,18,15,13,22,,,,,1.63,0.82,1.41*1B
$GNGSA,A,3,79,78,83,82,67,,,,,,,,1.63,0.82,1.41*17
$GPGSV,5,1,17,05,63,092,24,11,09,024,07,12,46,012,25,13,16,142,16*7E
$GPGSV,5,2,17,15,30,175,26,18,30,247,30,20,36,049,28,22,09,129,11*73
$GPGSV,5,3,17,23,13,208,21,24,54,213,30,25,23,341,15,29,09,315,*76
$GPGSV,5,4,17,36,52,277,32,40,86,351,,41,58,082,,49,32,274,*7D
$GPGSV,5,5,17,50,10,089,*4A
$GLGSV,3,1,09,67,17,106,11,68,22,157,,69,06,203,,78,33,147,20*64
$GLGSV,3,2,09,79,79,062,24,80,31,343,20,82,18,349,12,83,31,295,24*6C
$GLGSV,3,3,09,84,11,241,*57
$GNGLL,0419.80905,S,05539.80052,E,051259.00,A,A*6D
$GNRMC,051300.00,A,0419.80914,S,05539.80044,E,0.462,,270525,,,A*79
$GNVTG,,T,,M,0.462,N,0.855,K,A*35
$GNGGA,051300.00,0419.80914,S,05539.80044,E,1,12,0.84,21.4,M,-47.6,M,,*42
$GNGSA,A,3,05,24,12,20,18,15,13,22,,,,,1.60,0.84,1.36*1E
$GNGSA,A,3,79,78,83,67,,,,,,,,,1.60,0.84,1.36*18
$GPGSV,5,1,17,05,63,092,22,11,09,024,08,12,46,012,24,13,16,142,15*75
$GPGSV,5,2,17,15,30,175,26,18,30,247,28,20,36,049,29,22,09,129,11*7B
$GPGSV,5,3,17,23,13,208,19,24,54,213,29,25,23,341,15,29,09,315,*75
$GPGSV,5,4,17,36,52,277,30,40,86,351,,41,58,082,,49,32,274,*7F
$GPGSV,5,5,17,50,10,089,*4A
$GLGSV,3,1,09,67,17,106,08,68,22,157,,69,06,203,,78,33,147,18*67
$GLGSV,3,2,09,79,79,062,22,80,31,343,18,82,18,349,07,83,31,295,21*60
$GLGSV,3,3,09,84,11,241,*57
$GNGLL,0419.80914,S,05539.80044,E,051300.00,A,A*67
$GNRMC,051301.00,A,0419.80913,S,05539.80029,E,0.160,,270525,,,A*73
$GNVTG,,T,,M,0.160,N,0.297,K,A*36
$GNGGA,051301.00,0419.80913,S,05539.80029,E,1,12,0.84,22.1,M,-47.6,M,,*49
$GNGSA,A,3,05,24,12,20,18,15,13,22,,,,,1.60,0.84,1.36*1E
$GNGSA,A,3,79,78,83,67,,,,,,,,,1.60,0.84,1.36*18
$GPGSV,5,1,17,05,63,092,20,11,09,024,09,12,46,012,23,13,16,142,15*71
$GPGSV,5,2,17,15,30,175,26,18,30,247,29,20,36,049,29,22,09,129,11*7A
$GPGSV,5,3,17,23,13,208,19,24,54,213,29,25,23,341,17,29,09,315,*77
$GPGSV,5,4,17,36,52,277,30,40,86,351,,41,58,082,,49,32,274,*7F
$GPGSV,5,5,17,50,10,089,*4A
$GLGSV,3,1,09,67,17,106,08,68,22,157,,69,06,203,,78,33,147,14*6B
$GLGSV,3,2,09,79,79,062,19,80,31,343,13,82,18,349,07,83,31,295,21*63
$GLGSV,3,3,09,84,11,241,*57
$GNGLL,0419.80913,S,05539.80029,E,051301.00,A,A*6A
$GNRMC,051302.00,A,0419.80911,S,05539.80020,E,0.349,,270525,,,A*72
$GNVTG,,T,,M,0.349,N,0.646,K,A*37
$GNGGA,051302.00,0419.80911,S,05539.80020,E,1,11,0.91,22.5,M,-47.6,M,,*42
$GNGSA,A,3,05,24,12,20,18,15,13,22,,,,,1.92,0.91,1.69*1D
$GNGSA,A,3,79,78,83,,,,,,,,,,1.92,0.91,1.69*1A
$GPGSV,5,1,17,05,63,092,21,11,09,024,08,12,46,012,22,13,16,142,11*74
$GPGSV,5,2,17,15,30,175,26,18,30,247,28,20,36,049,29,22,09,129,14*7E
$GPGSV,5,3,17,23,13,208,20,24,54,213,27,25,23,341,17,29,09,315,*73
$GPGSV,5,4,17,36,52,277,28,40,86,351,,41,58,082,,49,32,274,*76
$GPGSV,5,5,17,50,10,089,*4A
