$GNRMC,050644.00,A,0419.81467,S,05539.79955,E,0.102,,270525,,,A*79
$GNVTG,,T,,M,0.102,N,0.188,K,A*3F
$GNGGA,050644.00,0419.81467,S,05539.79955,E,1,10,0.92,25.6,M,-47.6,M,,*42
$GNGSA,A,3,05,24,12,20,18,15,13,,,,,,1.98,0.92,1.75*19
$GNGSA,A,3,79,78,83,,,,,,,,,,1.98,0.92,1.75*1E
$GPGSV,5,1,17,05,63,099,31,11,11,023,07,12,44,010,19,13,17,144,26*74
$GPGSV,5,2,17,15,29,178,27,18,29,244,24,20,38,051,30,22,11,127,08*78
$GPGSV,5,3,17,23,11,209,,24,56,217,23,25,20,340,17,29,09,313,*74
$GPGSV,5,4,17,36,52,277,,40,86,350,,41,58,082,,49,32,274,*7D
$GPGSV,5,5,17,50,10,089,*4A
$GLGSV,3,1,09,67,17,110,,68,21,160,18,69,05,206,,78,36,144,16*68
$GLGSV,3,2,09,79,77,048,28,80,28,343,19,82,20,347,,83,32,291,23*62
$GLGSV,3,3,09,84,10,238,*58
$GNGLL,0419.81467,S,05539.79955,E,050644.00,A,A*64
$GNRMC,050645.00,A,0419.81477,S,05539.79956,E,0.150,,270525,,,A*7D
$GNVTG,,T,,M,0.150,N,0.279,K,A*35
$GNGGA,050645.00,0419.81477,S,05539.79956,E,1,10,0.92,25.7,M,-47.6,M,,*40
$GNGSA,A,3,05,24,12,20,18,15,13,,,,,,1.98,0.92,1.75*19
$GNGSA,A,3,79,78,83,,,,,,,,,,1.98,0.92,1.75*1E
$GPGSV,5,1,17,05,63,099,32,11,11,023,08,12,44,010,17,13,17,144,25*75
$GPGSV,5,2,17,15,29,178,26,18,29,244,23,20,38,051,25,22,11,127,12*71
$GPGSV,5,3,17,23,11,209,,24,56,217,30,25,20,340,19,29,09,313,*78
$GPGSV,5,4,17,36,52,277,,40,86,350,,41,58,082,,49,32,274,*7D
$GPGSV,5,5,17,50,10,089,*4A
$GLGSV,3,1,09,67,17,110,,68,21,160,17,69,05,206,,78,36,144,15*64
$GLGSV,3,2,09,79,77,048,27,80,28,343,18,82,20,347,,83,32,291,23*6C
$GLGSV,3,3,09,84,10,238,*58
$GNGLL,0419.81477,S,05539.79956,E,050645.00,A,A*67
$GNRMC,050646.00,A,0419.81480,S,05539.79951,E,0.165,,270525,,,A*77
$GNVTG,,T,,M,0.165,N,0.306,K,A*3A
$GNGGA,050646.00,0419.81480,S,05539.79951,E,1,10,0.92,25.5,M,-47.6,M,,*4E
$GNGSA,A,3,05,24,12,20,18,15,13,,,,,,1.98,0.92,1.75*19
$GNGSA,A,3,79,78,83,,,,,,,,,,1.98,0.92,1.75*1E
$GPGSV,5,1,17,05,63,099,32,11,11,023,09,12,44,010,16,13,17,144,26*76
$GPGSV,5,2,17,15,29,178,26,18,29,244,23,20,38,051,27,22,11,127,11*70
$GPGSV,5,3,17,23,11,209,,24,56,217,30,25,20,340,17,29,09,313,*76
$GPGSV,5,4,17,36,52,277,,40,86,350,,41,58,082,,49,32,274,*7D
$GPGSV,5,5,17,50,10,089,*4A
$GLGSV,3,1,09,67,17,110,,68,21,160,19,69,05,206,,78,36,144,13*6C
$GLGSV,3,2,09,79,77,048,28,80,28,343,19,82,20,347,20,83,32,291,25*66
$GLGSV,3,3,09,84,10,238,*58
$GNGLL,0419.81480,S,05539.79951,E,050646.00,A,A*6B
$GNRMC,050647.00,A,0419.81475,S,05539.79931,E,0.452,,270525,,,A*7B
$GNVTG,,T,,M,0.452,N,0.837,K,A*32
$GNGGA,050647.00,0419.81475,S,05539.79931,E,1,10,0.92,25.1,M,-47.6,M,,*47
$GNGSA,A,3,05,24,12,20,18,15,13,,,,,,1.98,0.92,1.75*19
$GNGSA,A,3,79,78,83,,,,,,,,,,1.98,0.92,1.75*1E
$GPGSV,5,1,17,05,63,099,33,11,11,023,10,12,44,010,18,13,17,144,26*71
$GPGSV,5,2,17,15,29,178,25,18,29,244,24,20,38,051,30,22,11,127,09*7B
$GPGSV,5,3,17,23,11,209,,24,56,217,31,25,20,340,15,29,09,313,*75
$GPGSV,5,4,17,36,52,277,,40,86,350,,41,58,082,,49,32,274,*7D
$GPGSV,5,5,17,50,10,089,*4A
$GLGSV,3,1,09,67,17,110,,68,21,160,20,69,05,206,,78,36,145,09*6C
$GLGSV,3,2,09,79,77,048,28,80,28,343,20,82,20,347,18,83,32,291,26*64
$GLGSV,3,3,09,84,10,238,*58
$GNGLL,0419.81475,S,05539.79931,E,050647.00,A,A*66
$GNRMC,050648.00,A,0419.81479,S,05539.79924,E,0.101,,270525,,,A*7F
$GNVTG,,T,,M,0.101,N,0.188,K,A*3C
$GNGGA,050648.00,0419.81479,S,05539.79924,E,1,10,0.96,25.1,M,-47.6,M,,*44
$GNGSA,A,3,05,24,12,20,18,15,13,11,,,,,2.00,0.96,1.75*1F
$GNGSA,A,3,79,83,,,,,,,,,,,2.00,0.96,1.75*17
$GPGSV,5,1,17,05,63,099,30,11,11,023,11,12,44,010,19,13,17,144,26*72
$GPGSV,5,2,17,15,29,178,24,18,29,244,23,20,38,051,30,22,11,127,09*7D
$GPGSV,5,3,17,23,11,209,,24,56,217,27,25,20,340,15,29,09,313,*72
$GPGSV,5,4,17,36,52,277,,40,86,350,,41,58,082,,49,32,274,*7D
$GPGSV,5,5,17,50,10,089,*4A
$GLGSV,3,1,09,67,17,110,,68,21,160,20,69,05,206,,78,36,145,07*62
$GLGSV,3,2,09,79,77,050,29,80,28,343,19,82,20,347,16,83,32,291,26*68
$GLGSV,3,3,09,84,10,238,*58
$GNGLL,0419.81479,S,05539.79924,E,050648.00,A,A*61
$GNRMC,050649.00,A,0419.81482,S,05539.79920,E,0.104,,270525,,,A*7B
$GNVTG,,T,,M,0.104,N,0.193,K,A*33
$GNGGA,050649.00,0419.81482,S,05539.79920,E,1,12,0.92,25.0,M,-47.6,M,,*42
$GNGSA,A,3,05,24,12,20,18,15,13,11,22,,,,1.98,0.92,1.75*19
$GNGSA,A,3,79,78,83,,,,,,,,,,1.98,0.92,1.75*1E
$GPGSV,5,1,17,05,63,099,31,11,11,023,11,12,44,010,17,13,17,144,26*7D
$GPGSV,5,2,17,15,29,178,24,18,29,244,25,20,38,051,31,22,11,127,10*72
$GPGSV,5,3,17,23,11,209,,24,56,217,26,25,20,340,16,29,09,313,*70
$GPGSV,5,4,17,36,52,277,,40,86,350,,41,58,082,,49,32,274,*7D
$GPGSV,5,5,17,50,10,089,*4A
$GLGSV,3,1,09,67,17,110,,68,21,160,20,69,05,206,,78,36,145,11*65
$GLGSV,3,2,09,79,77,050,29,80,28,343,19,82,20,347,15,83,32,291,26*6B
$GLGSV,3,3,09,84,10,238,*58
$GNGLL,0419.81482,S,05539.79920,E,050649.00,A,A*60
$GNRMC,050650.00,A,0419.81483,S,05539.79909,E,0.322,,270525,,,A*7F
$GNVTG,,T,,M,0.322,N,0.597,K,A*35
$GNGGA,050650.00,0419.81483,S,05539.79909,E,1,11,0.92,25.1,M,-47.6,M,,*42
$GNGSA,A,3,05,24,12,20,18,15,13,22,,,,,1.77,0.92,1.51*1E
$GNGSA,A,3,79,78,83,,,,,,,,,,1.77,0.92,1.51*19
$GPGSV,5,1,17,05,63,099,32,11,11,023,08,12,44,010,16,13,17,144,25*74
$GPGSV,5,2,17,15,29,178,26,18,29,244,25,20,38,051,30,22,11,127,12*73
$GPGSV,5,3,17,23,11,209,,24,56,217,31,25,20,340,19,29,09,313,*79
$GPGSV,5,4,17,36,52,277,,40,86,350,,41,58,082,,49,32,274,*7D
$GPGSV,5,5,17,50,10,089,*4A
$GLGSV,3,1,09,67,17,110,18,68,21,160,21,69,05,206,,78,36,145,11*6D
$GLGSV,3,2,09,79,77,050,32,80,28,343,17,82,20,347,13,83,32,291,25*6A
$GLGSV,3,3,09,84,10,238,*58
$GNGLL,0419.81483,S,05539.79909,E,050650.00,A,A*62
$GNRMC,050651.00,A,0419.81485,S,05539.79925,E,0.644,,270525,,,A*73
$GNVTG,,T,,M,0.644,N,1.192,K,A*30
$GNGGA,050651.00,0419.81485,S,05539.79925,E,1,12,0.92,25.4,M,-47.6,M,,*4D
$GNGSA,A,3,05,24,12,20,18,15,13,22,,,,,1.98,0.92,1.75*19
$GNGSA,A,3,79,78,83,82,,,,,,,,,1.98,0.92,1.75*14
$GPGSV,5,1,17,05,63,099,32,11,11,023,,12,44,010,14,13,17,144,25*7E
$GPGSV,5,2,17,15,29,178,27,18,29,244,25,20,38,051,30,22,11,127,12*72
$GPGSV,5,3,17,23,11,209,,24,56,217,25,25,20,340,20,29,09,313,*76
$GPGSV,5,4,17,36,52,277,,40,86,350,,41,58,082,,49,32,274,*7D
$GPGSV,5,5,17,50,10,089,*4A
$GLGSV,3,1,09,67,17,110,16,68,21,160,20,69,05,206,,78,36,145,11*62
$GLGSV,3,2,09,79,77,050,31,80,28,343,18,82,20,347,11,83,32,291,24*65
$GLGSV,3,3,09,84,10,238,*58
$GNGLL,0419.81485,S,05539.79925,E,050651.00,A,A*6B
$GNRMC,050652.00,A,0419.81477,S,05539.79920,E,0.446,,270525,,,A*78
$GNVTG,,T,,M,0.446,N,0.826,K,A*37
$GNGGA,050652.00,0419.81477,S,05539.79920,E,1,12,0.92,25.0,M,-47.6,M,,*42
$GNGSA,A,3,05,24,12,20,18,15,13,22,,,,,1.98,0.92,1.75*19
$GNGSA,A,3,79,78,83,82,,,,,,,,,1.98,0.92,1.75*14
$GPGSV,5,1,17,05,63,099,36,11,11,023,,12,44,010,13,13,17,144,25*7D
$GPGSV,5,2,17,15,29,178,32,18,29,244,24,20,38,051,30,22,11,127,12*77
$GPGSV,5,3,17,23,11,209,,24,56,217,26,25,20,340,19,29,09,313,*7F
$GPGSV,5,4,17,36,52,277,,40,86,350,,41,58,082,,49,32,274,*7D
$GPGSV,5,5,17,50,10,089,*4A
$GLGSV,3,1,09,67,17,110,12,68,21,160,19,69,05,206,,78,36,145,11*6C
$GLGSV,3,2,09,79,77,050,29,80,28,343,18,82,20,347,11,83,32,292,23*68
$GLGSV,3,3,09,84,10,238,*58
$GNGLL,0419.81477,S,05539.79920,E,050652.00,A,A*60
$GNRMC,050653.00,A,0419.81480,S,05539.79919,E,0.198,,270525,,,A*7D
$GNVTG,,T,,M,0.198,N,0.367,K,A*3F
$GNGGA,050653.00,0419.81480,S,05539.79919,E,1,11,0.88,24.8,M,-47.6,M,,*40
$GNGSA,A,3,05,24,12,20,18,15,13,22,,,,,1.73,0.88,1.49*18
$GNGSA,A,3,79,78,83,,,,,,,,,,1.73,0.88,1.49*1F
$GPGSV,5,1,17,05,63,099,32,11,11,023,06,12,44,010,15,13,17,144,25*79
$GPGSV,5,2,17,15,29,178,27,18,29,244,22,20,38,051,30,22,11,127,12*75
$GPGSV,5,3,17,23,11,209,,24,56,217,27,25,20,340,18,29,09,313,*7F
$GPGSV,5,4,17,36,52,277,,40,86,350,,41,58,082,,49,32,274,*7D
$GPGSV,5,5,17,50,10,089,*4A
$GLGSV,3,1,09,67,17,110,12,68,21,160,18,69,05,206,,78,36,145,12*6E
$GLGSV,3,2,09,79,77,050,27,80,28,343,15,82,20,347,09,83,32,292,22*63
$GLGSV,3,3,09,84,11,238,*59
$GNGLL,0419.81480,S,05539.79919,E,050653.00,A,A*63
$GNRMC,050654.00,A,0419.81481,S,05539.79909,E,0.233,,270525,,,A*78
$GNVTG,,T,,M,0.233,N,0.431,K,A*39
$GNGGA,050654.00,0419.81481,S,05539.79909,E,1,11,0.92,24.7,M,-47.6,M,,*43
$GNGSA,A,3,05,24,12,20,18,15,13,22,,,,,1.98,0.92,1.75*19
$GNGSA,A,3,79,78,83,,,,,,,,,,1.98,0.92,1.75*1E
$GPGSV,5,1,17,05,63,099,31,11,11,023,07,12,44,010,14,13,17,144,24*7B
$GPGSV,5,2,17,15,29,178,27,18,29,244,22,20,38,051,30,22,11,127,12*75
$GPGSV,5,3,17,23,11,209,,24,56,217,25,25,20,340,17,29,09,313,*72
$GPGSV,5,4,17,36,52,277,,40,86,350,,41,58,082,,49,32,274,*7D
$GPGSV,5,5,17,50,10,089,*4A
$GLGSV,3,1,09,67,17,110,09,68,21,160,18,69,05,206,,78,36,145,14*62
$GLGSV,3,2,09,79,77,050,27,80,28,343,,82,20,347,07,83,32,292,20*6B
$GLGSV,3,3,09,84,11,238,*59
$GNGLL,0419.81481,S,05539.79909,E,050654.00,A,A*64
$GNRMC,050655.00,A,0419.81472,S,05539.79896,E,0.477,,270525,,,A*74
$GNVTG,,T,,M,0.477,N,0.883,K,A*3A
$GNGGA,050655.00,0419.81472,S,05539.79896,E,1,11,0.92,24.3,M,-47.6,M,,*4D
$GNGSA,A,3,05,24,12,20,18,15,13,22,,,,,1.98,0.92,1.75*19
$GNGSA,A,3,79,78,83,,,,,,,,,,1.98,0.92,1.75*1E
$GPGSV,5,1,17,05,63,099,31,11,11,023,09,12,44,010,15,13,17,144,24*74
$GPGSV,5,2,17,15,29,178,27,18,29,244,23,20,38,051,30,22,11,127,12*74
$GPGSV,5,3,17,23,11,209,,24,56,217,25,25,20,340,16,29,09,313,*73
$GPGSV,5,4,17,36,52,277,,40,86,350,,41,58,082,,49,32,274,*7D
$GPGSV,5,5,17,50,10,089,*4A
$GLGSV,3,1,09,67,17,110,09,68,21,160,18,69,05,206,,78,36,145,11*67
$GLGSV,3,2,09,79,77,050,26,80,28,343,,82,20,347,08,83,32,292,17*61
$GLGSV,3,3,09,84,11,238,*59
$GNGLL,0419.81472,S,05539.79896,E,050655.00,A,A*6E
$GNRMC,050656.00,A,0419.81471,S,05539.79889,E,0.336,,270525,,,A*78
$GNVTG,,T,,M,0.336,N,0.622,K,A*3D
$GNGGA,050656.00,0419.81471,S,05539.79889,E,1,12,0.77,24.4,M,-47.6,M,,*4C
$GNGSA,A,3,05,24,12,20,18,15,13,11,22,,,,1.43,0.77,1.20*14
$GNGSA,A,3,79,78,83,67,,,,,,,,,1.43,0.77,1.20*12
$GPGSV,5,1,17,05,63,099,30,11,11,023,08,12,44,010,16,13,17,144,23*70
$GPGSV,5,2,17,15,29,178,27,18,29,244,23,20,38,051,29,22,11,127,12*7C
$GPGSV,5,3,17,23,11,209,,24,56,217,26,25,20,340,15,29,09,313,*73
$GPGSV,5,4,17,36,52,277,,40,86,350,,41,58,082,,49,32,274,*7D
$GPGSV,5,5,17,50,10,089,*4A
$GLGSV,3,1,09,67,17,110,10,68,21,160,16,69,05,206,,78,36,145,12*62
$GLGSV,3,2,09,79,77,050,26,80,28,343,,82,20,347,08,83,32,292,15*63
$GLGSV,3,3,09,84,11,238,*59
$GNGLL,0419.81471,S,05539.79889,E,050656.00,A,A*60
$GNRMC,050657.00,A,0419.81476,S,05539.79884,E,0.274,,270525,,,A*74
$GNVTG,,T,,M,0.274,N,0.507,K,A*3E
$GNGGA,050657.00,0419.81476,S,05539.79884,E,1,12,0.92,24.7,M,-47.6,M,,*4F
$GNGSA,A,3,05,24,12,20,18,15,13,22,,,,,1.98,0.92,1.75*19
$GNGSA,A,3,79,78,83,67,,,,,,,,,1.98,0.92,1.75*1F
$GPGSV,5,1,17,05,63,099,29,11,11,023,09,12,44,010,20,13,17,144,22*7D
$GPGSV,5,2,17,15,29,178,27,18,29,244,23,20,38,051,30,22,11,127,12*74
$GPGSV,5,3,17,23,11,209,,24,56,217,27,25,20,340,15,29,09,313,*72
$GPGSV,5,4,17,36,52,277,,40,86,350,,41,58,082,,49,32,274,*7D
$GPGSV,5,5,17,50,10,089,*4A
$GLGSV,3,1,09,67,17,110,13,68,21,160,,69,05,206,,78,36,145,16*62
$GLGSV,3,2,09,79,77,050,27,80,28,343,,82,20,347,07,83,32,292,16*6E
$GLGSV,3,3,09,84,11,238,*59
$GNGLL,0419.81476,S,05539.79884,E,050657.00,A,A*6B
$GNRMC,050658.00,A,0419.81486,S,05539.79884,E,0.079,,270525,,,A*7B
$GNVTG,,T,,M,0.079,N,0.146,K,A*30
$GNGGA,050658.00,0419.81486,S,05539.79884,E,1,12,0.81,25.0,M,-47.6,M,,*4B
$GNGSA,A,3,05,24,12,20,18,15,13,11,22,,,,1.55,0.81,1.32*19
$GNGSA,A,3,79,78,83,,,,,,,,,,1.55,0.81,1.32*1E
$GPGSV,5,1,17,05,63,099,28,11,11,023,10,12,44,010,22,13,17,144,21*75
$GPGSV,5,2,17,15,29,178,27,18,29,244,22,20,38,051,31,22,11,127,12*74
$GPGSV,5,3,17,23,11,209,,24,56,217,27,25,20,340,16,29,09,313,*71
$GPGSV,5,4,17,36,52,277,,40,86,350,,41,58,082,,49,32,274,*7D
$GPGSV,5,5,17,50,10,089,*4A
$GLGSV,3,1,09,67,17,110,10,68,21,160,,69,05,206,,78,36,145,16*61
$GLGSV,3,2,09,79,77,050,27,80,28,343,,82,20,347,08,83,32,292,17*60
$GLGSV,3,3,09,84,11,238,*59
$GNGLL,0419.81486,S,05539.79884,E,050658.00,A,A*6B
$GNRMC,050659.00,A,0419.81487,S,05539.79876,E,0.262,,270525,,,A*7E
$GNVTG,,T,,M,0.262,N,0.485,K,A*32
$GNGGA,050659.00,0419.81487,S,05539.79876,E,1,12,0.92,24.9,M,-47.6,M,,*4C
$GNGSA,A,3,05,24,12,20,18,15,13,11,22,,,,1.98,0.92,1.75*19
$GNGSA,A,3,79,78,83,,,,,,,,,,1.98,0.92,1.75*1E
$GPGSV,5,1,17,05,63,099,27,11,11,023,11,12,44,010,22,13,17,144,20*7A
$GPGSV,5,2,17,15,29,178,26,18,29,244,21,20,38,051,32,22,11,127,12*75
$GPGSV,5,3,17,23,11,209,,24,56,217,26,25,20,340,17,29,09,313,*71
$GPGSV,5,4,17,36,52,277,,40,86,350,,41,58,082,,49,32,274,*7D
$GPGSV,5,5,17,50,10,089,*4A
$GLGSV,3,1,09,67,17,110,08,68,21,160,,69,05,206,,78,36,145,14*6A
$GLGSV,3,2,09,79,77,050,28,80,28,343,,82,20,347,08,83,32,292,17*6F
$GLGSV,3,3,09,84,11,238,*59
$GNGLL,0419.81487,S,05539.79876,E,050659.00,A,A*66
$GNRMC,050700.00,A,0419.81493,S,05539.79865,E,0.274,,270525,,,A*73
$GNVTG,,T,,M,0.274,N,0.508,K,A*31
$GNGGA,050700.00,0419.81493,S,05539.79865,E,1,12,0.87,25.2,M,-47.6,M,,*48
$GNGSA,A,3,05,24,12,20,18,15,13,11,22,,,,1.77,0.87,1.54*1F
$GNGSA,A,3,79,78,83,67,,,,,,,,,1.77,0.87,1.54*19
$GPGSV,5,1,17,05,63,099,29,11,11,023,13,12,44,010,23,13,17,144,20*77
$GPGSV,5,2,17,15,29,178,26,18,29,244,22,20,38,051,32,22,11,127,12*76
$GPGSV,5,3,17,23,11,209,,24,56,217,29,25,20,340,18,29,09,313,*71
$GPGSV,5,4,17,36,52,277,,40,86,350,,41,58,082,,49,32,274,*7D
$GPGSV,5,5,17,50,10,089,*4A
$GLGSV,3,1,09,67,17,110,12,68,21,160,,69,05,206,,78,36,145,13*66
$GLGSV,3,2,09,79,77,050,28,80,28,343,,82,20,347,07,83,32,292,19*6E
$GLGSV,3,3,09,84,11,238,*59
$GNGLL,0419.81493,S,05539.79865,E,050700.00,A,A*6C
$GNRMC,050701.00,A,0419.81506,S,05539.79855,E,0.217,,270525,,,A*79
$GNVTG,,T,,M,0.217,N,0.402,K,A*3F
$GNGGA,050701.00,0419.81506,S,05539.79855,E,1,12,0.87,25.7,M,-47.6,M,,*42
$GNGSA,A,3,05,24,12,20,18,15,13,11,22,,,,1.77,0.87,1.54*1F
$GNGSA,A,3,79,78,83,67,,,,,,,,,1.77,0.87,1.54*19
$GPGSV,5,1,17,05,63,099,30,11,11,023,13,12,44,010,23,13,17,144,22*7D
$GPGSV,5,2,17,15,29,178,25,18,29,244,22,20,38,051,32,22,11,127,12*75
$GPGSV,5,3,17,23,11,209,,24,56,217,34,25,20,340,16,29,09,313,*73
$GPGSV,5,4,17,36,52,277,,40,86,350,,41,58,082,,49,32,274,*7D
$GPGSV,5,5,17,50,10,089,*4A
$GLGSV,3,1,09,67,17,110,16,68,21,160,,69,05,206,,78,36,145,12*63
$GLGSV,3,2,09,79,77,050,29,80,28,343,21,82,20,347,08,83,32,292,19*63
$GLGSV,3,3,09,84,11,238,*59
$GNGLL,0419.81506,S,05539.79855,E,050701.00,A,A*63
$GNRMC,050702.00,A,0419.81500,S,05539.79839,E,0.690,,270525,,,A*7D
$GNVTG,,T,,M,0.690,N,1.278,K,A*3E
$GNGGA,050702.00,0419.81500,S,05539.79839,E,1,11,0.96,25.8,M,-47.6,M,,*41
$GNGSA,A,3,05,24,12,20,18,15,13,22,,,,,1.99,0.96,1.75*1C
$GNGSA,A,3,79,83,67,,,,,,,,,,1.99,0.96,1.75*15
$GPGSV,5,1,17,05,63,098,30,11,11,023,,12,44,010,23,13,17,144,23*7F
$GPGSV,5,2,17,15,29,178,27,18,29,244,22,20,38,051,32,22,11,127,16*73
$GPGSV,5,3,17,23,11,209,,24,56,217,34,25,20,340,,29,09,313,*74
$GPGSV,5,4,17,36,52,277,,40,86,350,,41,58,082,,49,32,274,*7D
$GPGSV,5,5,17,50,10,089,*4A
$GLGSV,3,1,09,67,17,110,17,68,21,160,,69,05,206,,78,36,145,09*68
$GLGSV,3,2,09,79,77,050,29,80,28,343,21,82,20,347,08,83,32,292,21*68
$GLGSV,3,3,09,84,11,238,*59
$GNGLL,0419.81500,S,05539.79839,E,050702.00,A,A*6C
$GNRMC,050703.00,A,0419.81508,S,05539.79854,E,0.304,,270525,,,A*77
$GNVTG,,T,,M,0.304,N,0.562,K,A*3B
$GNGGA,050703.00,0419.81508,S,05539.79854,E,1,12,0.87,26.1,M,-47.6,M,,*4A
$GNGSA,A,3,05,24,12,20,18,15,13,22,,,,,1.77,0.87,1.54*1F
$GNGSA,A,3,79,78,83,67,,,,,,,,,1.77,0.87,1.54*19
$GPGSV,5,1,17,05,63,098,26,11,11,023,,12,44,010,22,13,17,144,23*79
$GPGSV,5,2,17,15,29,178,27,18,29,244,20,20,38,051,31,22,11,127,16*72
$GPGSV,5,3,17,23,11,209,,24,56,217,31,25,20,340,,29,09,313,*71
$GPGSV,5,4,17,36,52,277,,40,86,350,,41,58,082,,49,32,274,*7D
$GPGSV,5,5,17,50,10,089,*4A
$GLGSV,3,1,09,67,17,110,17,68,21,160,,69,05,206,,78,36,145,12*62
$GLGSV,3,2,09,79,77,050,23,80,28,343,21,82,20,347,,83,32,292,21*6A
$GLGSV,3,3,09,84,11,238,*59
$GNGLL,0419.81508,S,05539.79854,E,050703.00,A,A*6E
$GNRMC,050704.00,A,0419.81513,S,05539.79845,E,0.400,,270525,,,A*79
$GNVTG,,T,,M,0.400,N,0.740,K,A*3A
$GNGGA,050704.00,0419.81513,S,05539.79845,E,1,12,0.87,26.7,M,-47.6,M,,*41
$GNGSA,A,3,05,24,12,20,18,15,13,22,,,,,1.77,0.87,1.54*1F
$GNGSA,A,3,79,78,83,67,,,,,,,,,1.77,0.87,1.54*19
$GPGSV,5,1,17,05,63,098,32,11,11,023,,12,44,010,24,13,17,144,21*78
$GPGSV,5,2,17,15,29,178,29,18,29,244,21,20,38,051,34,22,11,127,16*78
$GPGSV,5,3,17,23,11,209,,24,56,217,35,25,20,340,,29,09,313,*75
$GPGSV,5,4,17,36,52,277,,40,86,350,,41,58,082,,49,32,274,*7D
$GPGSV,5,5,17,50,10,089,*4A
$GLGSV,3,1,09,67,17,110,17,68,21,160,,69,05,206,,78,36,145,15*65
$GLGSV,3,2,09,79,77,050,30,80,28,343,22,82,20,347,18,83,32,292,22*61
$GLGSV,3,3,09,84,11,238,*59
$GNGLL,0419.81513,S,05539.79845,E,050704.00,A,A*63
$GNRMC,050705.00,A,0419.81515,S,05539.79837,E,0.223,,270525,,,A*7C
$GNVTG,,T,,M,0.223,N,0.412,K,A*39
$GNGGA,050705.00,0419.81515,S,05539.79837,E,1,11,0.87,27.1,M,-47.6,M,,*47
$GNGSA,A,3,05,24,12,20,18,15,13,,,,,,1.77,0.87,1.54*1F
$GNGSA,A,3,79,78,83,67,,,,,,,,,1.77,0.87,1.54*19
$GPGSV,5,1,17,05,63,098,31,11,11,023,11,12,44,010,23,13,17,144,20*7D
$GPGSV,5,2,17,15,29,178,28,18,29,244,22,20,38,051,31,22,11,127,*78
$GPGSV,5,3,17,23,11,209,,24,56,217,34,25,20,340,,29,09,313,*74
$GPGSV,5,4,17,36,52,277,,40,86,350,,41,58,082,,49,32,274,*7D
$GPGSV,5,5,17,50,10,089,*4A
$GLGSV,3,1,09,67,17,110,15,68,21,160,25,69,05,206,,78,36,145,19*6C
$GLGSV,3,2,09,79,77,050,29,80,28,343,22,82,20,347,19,83,32,292,23*69
$GLGSV,3,3,09,84,11,238,*59
$GNGLL,0419.81515,S,05539.79837,E,050705.00,A,A*61
$GNRMC,050706.00,A,0419.81507,S,05539.79831,E,0.591,,270525,,,A*74
$GNVTG,,T,,M,0.591,N,1.095,K,A*3D
$GNGGA,050706.00,0419.81507,S,05539.79831,E,1,11,0.87,27.5,M,-47.6,M,,*45
$GNGSA,A,3,05,24,12,20,18,15,13,,,,,,1.77,0.87,1.54*1F
$GNGSA,A,3,79,78,83,67,,,,,,,,,1.77,0.87,1.54*19
$GPGSV,5,1,17,05,63,098,29,11,11,023,10,12,44,010,22,13,17,144,19*7E
$GPGSV,5,2,17,15,29,178,26,18,29,244,20,20,38,051,30,22,11,127,*75
$GPGSV,5,3,17,23,11,209,,24,56,217,31,25,20,340,,29,09,313,*71
$GPGSV,5,4,17,36,52,277,,40,86,350,,41,58,082,,49,32,274,*7D
$GPGSV,5,5,17,50,10,089,*4A
$GLGSV,3,1,09,67,17,110,12,68,21,160,22,69,05,206,,78,36,145,18*6D
$GLGSV,3,2,09,79,77,050,27,80,28,343,21,82,20,347,18,83,32,292,22*64
$GLGSV,3,3,09,84,11,238,*59
$GNGLL,0419.81507,S,05539.79831,E,050706.00,A,A*67
$GNRMC,050707.00,A,0419.81511,S,05539.79828,E,0.147,,270525,,,A*75
$GNVTG,,T,,M,0.147,N,0.273,K,A*39
$GNGGA,050707.00,0419.81511,S,05539.79828,E,1,11,0.87,27.7,M,-47.6,M,,*49
$GNGSA,A,3,05,24,12,20,18,15,13,,,,,,1.77,0.87,1.54*1F
$GNGSA,A,3,79,78,83,67,,,,,,,,,1.77,0.87,1.54*19
$GPGSV,5,1,17,05,63,098,29,11,11,023,12,12,44,010,22,13,17,144,20*76
$GPGSV,5,2,17,15,29,178,26,18,29,244,20,20,38,051,33,22,11,127,*76
$GPGSV,5,3,17,23,11,209,,24,56,217,35,25,20,340,,29,09,313,*75
$GPGSV,5,4,17,36,52,277,,40,86,350,,41,58,082,,49,32,274,*7D
$GPGSV,5,5,17,50,10,089,*4A
$GLGSV,3,1,09,67,17,110,12,68,21,160,19,69,05,206,,78,36,145,18*65
$GLGSV,3,2,09,79,77,050,27,80,28,343,20,82,20,347,15,83,32,292,22*68
$GLGSV,3,3,09,84,11,238,*59
$GNGLL,0419.81511,S,05539.79828,E,050707.00,A,A*69
$GNRMC,050708.00,A,0419.81513,S,05539.79826,E,0.257,,270525,,,A*74
$GNVTG,,T,,M,0.257,N,0.477,K,A*39
$GNGGA,050708.00,0419.81513,S,05539.79826,E,1,12,0.87,27.9,M,-47.6,M,,*47
$GNGSA,A,3,05,24,12,20,18,15,13,,,,,,1.77,0.87,1.54*1F
$GNGSA,A,3,79,78,83,82,67,,,,,,,,1.77,0.87,1.54*13
$GPGSV,5,1,17,05,63,098,27,11,11,024,10,12,44,010,21,13,17,144,20*7E
$GPGSV,5,2,17,15,29,178,29,18,29,244,22,20,38,051,32,22,11,127,*7A
$GPGSV,5,3,17,23,11,209,,24,56,217,35,25,20,340,,29,09,313,*75
$GPGSV,5,4,17,36,52,277,,40,86,350,,41,58,082,,49,32,274,*7D
$GPGSV,5,5,17,50,10,089,*4A
$GLGSV,3,1,09,67,17,110,14,68,21,160,16,69,05,206,,78,36,145,20*67
$GLGSV,3,2,09,79,77,050,29,80,28,343,19,82,20,347,18,83,32,292,23*60
$GLGSV,3,3,09,84,11,238,*59
$GNGLL,0419.81513,S,05539.79826,E,050708.00,A,A*6A
$GNRMC,050709.00,A,0419.81511,S,05539.79827,E,0.083,,270525,,,A*7D
$GNVTG,,T,,M,0.083,N,0.154,K,A*36
$GNGGA,050709.00,0419.81511,S,05539.79827,E,1,12,0.87,28.5,M,-47.6,M,,*46
$GNGSA,A,3,05,24,12,20,18,15,13,,,,,,1.77,0.87,1.54*1F
$GNGSA,A,3,79,78,83,82,67,,,,,,,,1.77,0.87,1.54*13
$GPGSV,5,1,17,05,63,098,24,11,11,024,08,12,44,010,20,13,17,144,18*7E
$GPGSV,5,2,17,15,29,178,30,18,29,244,21,20,38,051,31,22,11,127,*72
$GPGSV,5,3,17,23,11,209,,24,56,217,35,25,20,340,,29,09,313,*75
$GPGSV,5,4,17,36,52,277,,40,86,350,,41,58,082,,49,32,274,*7D
$GPGSV,5,5,17,50,10,089,*4A
$GLGSV,3,1,09,67,17,110,15,68,21,160,13,69,05,206,,78,36,145,21*62
$GLGSV,3,2,09,79,77,050,31,80,28,343,16,82,20,347,20,83,32,292,25*6B
$GLGSV,3,3,09,84,11,238,*59
$GNGLL,0419.81511,S,05539.79827,E,050709.00,A,A*68
$GNRMC,050710.00,A,0419.81514,S,05539.79828,E,0.058,,270525,,,A*79
$GNVTG,,T,,M,0.058,N,0.107,K,A*36
$GNGGA,050710.00,0419.81514,S,05539.79828,E,1,12,0.87,28.4,M,-47.6,M,,*45
$GNGSA,A,3,05,24,12,20,18,15,13,,,,,,1.77,0.87,1.54*1F
$GNGSA,A,3,79,78,83,82,67,,,,,,,,1.77,0.87,1.54*13
$GPGSV,5,1,17,05,63,098,21,11,11,024,07,12,44,010,23,13,17,144,17*78
$GPGSV,5,2,17,15,29,178,29,18,29,244,20,20,38,051,32,22,11,127,14*7D
$GPGSV,5,3,17,23,11,209,,24,56,217,35,25,20,340,,29,09,313,*75
$GPGSV,5,4,17,36,52,277,,40,86,350,,41,58,082,,49,32,274,*7D
$GPGSV,5,5,17,50,10,089,*4A
$GLGSV,3,1,09,67,17,110,15,68,21,160,12,69,05,206,,78,36,145,20*62
$GLGSV,3,2,09,79,77,050,31,80,28,343,15,82,20,347,20,83,32,292,26*6B
$GLGSV,3,3,09,84,11,238,*59
$GNGLL,0419.81514,S,05539.79828,E,050710.00,A,A*6A
$GNRMC,050711.00,A,0419.81511,S,05539.79825,E,0.254,,270525,,,A*7E
$GNVTG,,T,,M,0.254,N,0.471,K,A*3C
$GNGGA,050711.00,0419.81511,S,05539.79825,E,1,12,0.97,28.3,M,-47.6,M,,*4A
$GNGSA,A,3,05,24,12,20,18,15,13,,,,,,1.83,0.97,1.55*14
$GNGSA,A,3,79,78,83,82,67,,,,,,,,1.83,0.97,1.55*18
$GPGSV,5,1,17,05,63,098,19,11,11,024,07,12,44,010,22,13,17,144,18*7D
$GPGSV,5,2,17,15,29,178,28,18,29,244,19,20,38,051,32,22,11,127,15*77
$GPGSV,5,3,17,23,11,209,,24,56,217,36,25,20,340,,29,09,313,*76
$GPGSV,5,4,17,36,52,277,,40,86,350,,41,58,082,,49,32,274,*7D
$GPGSV,5,5,17,50,10,089,*4A
$GLGSV,3,1,09,67,17,110,15,68,21,160,12,69,05,206,,78,36,145,19*68
$GLGSV,3,2,09,79,77,050,30,80,28,343,13,82,20,347,20,83,32,292,26*6C
$GLGSV,3,3,09,84,11,238,*59
$GNGLL,0419.81511,S,05539.79825,E,050711.00,A,A*63
$GNRMC,050712.00,A,0419.81510,S,05539.79825,E,0.136,,270525,,,A*7B
$GNVTG,,T,,M,0.136,N,0.252,K,A*3C
$GNGGA,050712.00,0419.81510,S,05539.79825,E,1,12,0.97,28.1,M,-47.6,M,,*4A
$GNGSA,A,3,05,24,12,20,18,15,13,,,,,,1.83,0.97,1.55*14
$GNGSA,A,3,79,78,83,82,67,,,,,,,,1.83,0.97,1.55*18
$GPGSV,5,1,17,05,63,098,19,11,11,024,06,12,44,010,23,13,17,144,19*7C
$GPGSV,5,2,17,15,29,178,27,18,29,244,19,20,38,051,31,22,11,127,14*7A
$GPGSV,5,3,17,23,11,209,,24,56,217,35,25,20,340,,29,09,313,*75
$GPGSV,5,4,17,36,52,277,,40,86,350,,41,58,082,,49,32,274,*7D
$GPGSV,5,5,17,50,10,089,*4A
$GLGSV,3,1,09,67,17,110,15,68,21,160,11,69,05,206,,78,36,145,21*60
$GLGSV,3,2,09,79,77,050,30,80,28,343,15,82,20,347,19,83,32,292,25*63
$GLGSV,3,3,09,84,11,238,*59
$GNGLL,0419.81510,S,05539.79825,E,050712.00,A,A*61
$GNRMC,050713.00,A,0419.81517,S,05539.79844,E,0.362,,270525,,,A*79
$GNVTG,,T,,M,0.362,N,0.671,K,A*3A
$GNGGA,050713.00,0419.81517,S,05539.79844,E,1,12,0.97,28.4,M,-47.6,M,,*4E
$GNGSA,A,3,05,24,12,20,18,15,13,,,,,,1.83,0.97,1.55*14
$GNGSA,A,3,79,78,83,82,67,,,,,,,,1.83,0.97,1.55*18
$GPGSV,5,1,17,05,63,098,30,11,11,024,06,12,44,010,24,13,17,144,20*7A
$GPGSV,5,2,17,15,29,178,28,18,29,244,19,20,38,051,32,22,11,127,13*71
$GPGSV,5,3,17,23,11,209,,24,56,217,35,25,20,340,,29,09,313,*75
$GPGSV,5,4,17,36,52,277,,40,86,350,,41,58,082,,49,32,274,*7D
$GPGSV,5,5,17,50,10,089,*4A
$GLGSV,3,1,09,67,17,110,12,68,21,160,12,69,05,206,,78,36,145,22*67
$GLGSV,3,2,09,79,77,050,29,80,28,343,16,82,20,347,17,83,32,292,24*67
$GLGSV,3,3,09,84,11,238,*59
$GNGLL,0419.81517,S,05539.79844,E,050713.00,A,A*60
$GNRMC,050714.00,A,0419.81512,S,05539.79841,E,0.249,,270525,,,A*76
$GNVTG,,T,,M,0.249,N,0.460,K,A*30
$GNGGA,050714.00,0419.81512,S,05539.79841,E,1,12,0.97,28.1,M,-47.6,M,,*4C
$GNGSA,A,3,05,24,12,20,18,15,13,,,,,,1.83,0.97,1.55*14
$GNGSA,A,3,79,78,83,82,67,,,,,,,,1.83,0.97,1.55*18
$GPGSV,5,1,17,05,63,098,31,11,11,024,18,12,44,010,23,13,17,144,20*73
$GPGSV,5,2,17,15,29,178,29,18,29,244,17,20,38,051,31,22,11,127,10*7E
$GPGSV,5,3,17,23,11,209,,24,56,217,36,25,20,340,,29,09,313,*76
$GPGSV,5,4,17,36,52,277,,40,86,350,,41,58,082,,49,32,274,*7D
$GPGSV,5,5,17,50,10,089,*4A
$GLGSV,3,1,09,67,17,110,13,68,21,160,12,69,05,206,,78,36,145,22*66
$GLGSV,3,2,09,79,77,050,30,80,28,343,18,82,20,347,16,83,32,292,25*61
$GLGSV,3,3,09,84,11,238,*59
$GNGLL,0419.81512,S,05539.79841,E,050714.00,A,A*67
$GNRMC,050715.00,A,0419.81508,S,05539.79843,E,0.073,,270525,,,A*75
$GNVTG,,T,,M,0.073,N,0.135,K,A*3E
$GNGGA,050715.00,0419.81508,S,05539.79843,E,1,12,0.97,27.8,M,-47.6,M,,*42
$GNGSA,A,3,05,24,12,20,18,15,13,,,,,,1.83,0.97,1.55*14
$GNGSA,A,3,79,78,83,82,67,,,,,,,,1.83,0.97,1.55*18
$GPGSV,5,1,17,05,63,098,30,11,11,024,16,12,44,010,22,13,17,144,19*77
$GPGSV,5,2,17,15,29,178,29,18,29,244,20,20,38,051,32,22,11,127,09*71
$GPGSV,5,3,17,23,11,209,,24,56,217,37,25,20,340,,29,09,313,*77
$GPGSV,5,4,17,36,52,277,,40,86,350,,41,58,082,,49,32,274,*7D
$GPGSV,5,5,17,50,10,089,*4A
$GLGSV,3,1,09,67,17,110,15,68,21,160,13,69,05,206,,78,36,145,22*61
$GLGSV,3,2,09,79,77,050,31,80,28,343,20,82,20,347,16,83,32,292,25*6B
$GLGSV,3,3,09,84,11,238,*59
$GNGLL,0419.81508,S,05539.79843,E,050715.00,A,A*6F
$GNRMC,050716.00,A,0419.81513,S,05539.79848,E,0.052,,270525,,,A*74
$GNVTG,,T,,M,0.052,N,0.096,K,A*35
$GNGGA,050716.00,0419.81513,S,05539.79848,E,1,11,0.97,27.8,M,-47.6,M,,*43
$GNGSA,A,3,05,24,12,20,18,15,13,,,,,,1.83,0.97,1.55*14
$GNGSA,A,3,79,78,83,67,,,,,,,,,1.83,0.97,1.55*12
$GPGSV,5,1,17,05,63,098,29,11,11,024,15,12,44,010,22,13,17,144,18*7D
$GPGSV,5,2,17,15,29,178,28,18,29,244,21,20,38,051,31,22,11,127,08*73
$GPGSV,5,3,17,23,11,209,,24,56,217,35,25,20,340,,29,09,313,*75
$GPGSV,5,4,17,36,52,277,,40,86,350,,41,58,082,,49,32,274,*7D
$GPGSV,5,5,17,50,10,089,*4A
$GLGSV,3,1,09,67,17,110,15,68,21,160,12,69,05,206,,78,36,145,22*60
$GLGSV,3,2,09,79,77,050,30,80,28,343,20,82,20,347,13,83,32,292,22*68
$GLGSV,3,3,09,84,11,238,*59
$GNGLL,0419.81513,S,05539.79848,E,050716.00,A,A*6D
$GNRMC,050717.00,A,0419.81517,S,05539.79849,E,0.487,,270525,,,A*7C
$GNVTG,,T,,M,0.487,N,0.902,K,A*3D
$GNGGA,050717.00,0419.81517,S,05539.79849,E,1,12,0.76,27.7,M,-47.6,M,,*44
$GNGSA,A,3,05,24,12,20,18,15,13,,,,,,1.53,0.76,1.33*16
$GNGSA,A,3,79,78,83,82,67,,,,,,,,1.53,0.76,1.33*1A
$GPGSV,5,1,17,05,63,098,30,11,11,024,13,12,44,010,23,13,17,144,16*7C
$GPGSV,5,2,17,15,29,178,27,18,29,244,22,20,38,051,31,22,11,127,08*7F
$GPGSV,5,3,17,23,11,209,,24,56,217,35,25,20,340,,29,09,313,*75
$GPGSV,5,4,17,36,52,277,,40,86,350,,41,58,082,,49,32,274,*7D
$GPGSV,5,5,17,50,10,089,*4A
$GLGSV,3,1,09,67,17,110,14,68,21,160,12,69,05,206,,78,36,145,22*61
$GLGSV,3,2,09,79,77,050,31,80,28,343,22,82,20,347,14,83,32,292,21*6F
$GLGSV,3,3,09,84,11,238,*59
$GNGLL,0419.81517,S,05539.79849,E,050717.00,A,A*69
$GNRMC,050718.00,A,0419.81515,S,05539.79837,E,0.653,,270525,,,A*73
$GNVTG,,T,,M,0.653,N,1.210,K,A*3F
$GNGGA,050718.00,0419.81515,S,05539.79837,E,1,12,0.80,27.5,M,-47.6,M,,*4B
$GNGSA,A,3,05,24,12,20,18,15,13,,,,,,1.56,0.80,1.34*1D
$GNGSA,A,3,79,78,83,82,67,,,,,,,,1.56,0.80,1.34*11
$GPGSV,5,1,17,05,63,098,28,11,11,024,10,12,44,010,20,13,17,144,13*70
$GPGSV,5,2,17,15,29,178,25,18,29,244,19,20,38,051,28,22,11,127,08*7D
$GPGSV,5,3,17,23,11,209,,24,56,217,33,25,20,340,,29,09,313,*73
$GPGSV,5,4,17,36,52,277,,40,86,350,,41,58,082,,49,32,274,*7D
$GPGSV,5,5,17,50,10,089,*4A
$GLGSV,3,1,09,67,17,110,12,68,21,160,11,69,05,206,,78,36,145,21*67
$GLGSV,3,2,09,79,77,050,29,80,28,343,22,82,20,347,15,83,32,292,22*64
$GLGSV,3,3,09,84,11,238,*59
$GNGLL,0419.81515,S,05539.79837,E,050718.00,A,A*6D
$GNRMC,050719.00,A,0419.81524,S,05539.79846,E,0.024,,270525,,,A*70
$GNVTG,,T,,M,0.024,N,0.044,K,A*3B
$GNGGA,050719.00,0419.81524,S,05539.79846,E,1,12,0.80,27.1,M,-47.6,M,,*4A
$GNGSA,A,3,05,24,12,20,18,15,13,,,,,,1.56,0.80,1.34*1D
$GNGSA,A,3,79,78,83,82,67,,,,,,,,1.56,0.80,1.34*11
$GPGSV,5,1,17,05,63,098,30,11,11,024,10,12,44,010,21,13,17,144,17*7C
$GPGSV,5,2,17,15,29,178,25,18,29,244,17,20,38,051,29,22,11,127,08*72
$GPGSV,5,3,17,23,11,209,,24,56,217,36,25,20,340,23,29,09,313,*77
$GPGSV,5,4,17,36,52,277,,40,86,350,,41,58,082,,49,32,274,*7D
$GPGSV,5,5,17,50,10,089,*4A
$GLGSV,3,1,09,67,17,110,14,68,21,160,09,69,05,206,,78,36,145,22*6B
$GLGSV,3,2,09,79,77,050,33,80,28,343,22,82,20,347,16,83,32,292,26*68
$GLGSV,3,3,09,84,11,238,*59
$GNGLL,0419.81524,S,05539.79846,E,050719.00,A,A*68
$GNRMC,050720.00,A,0419.81541,S,05539.79864,E,0.144,,270525,,,A*7E
$GNVTG,,T,,M,0.144,N,0.267,K,A*3F
$GNGGA,050720.00,0419.81541,S,05539.79864,E,1,12,0.75,26.8,M,-47.6,M,,*41
$GNGSA,A,3,05,24,12,20,18,15,13,22,,,,,1.44,0.75,1.23*12
$GNGSA,A,3,79,78,83,82,67,,,,,,,,1.44,0.75,1.23*1E
$GPGSV,5,1,17,05,63,098,29,11,11,024,08,12,44,010,21,13,17,144,18*72
$GPGSV,5,2,17,15,29,178,24,18,29,244,15,20,38,051,29,22,11,127,09*70
$GPGSV,5,3,17,23,11,209,,24,55,216,34,25,20,340,20,29,09,313,*74
$GPGSV,5,4,17,36,52,277,,40,86,350,,41,58,082,,49,32,274,*7D
$GPGSV,5,5,17,50,10,089,*4A
$GLGSV,3,1,09,67,17,110,15,68,21,160,11,69,05,206,,78,36,145,23*62
$GLGSV,3,2,09,79,77,050,28,80,28,343,20,82,20,347,17,83,32,292,24*63
$GLGSV,3,3,09,84,11,238,*59
$GNGLL,0419.81541,S,05539.79864,E,050720.00,A,A*61
$GNRMC,050721.00,A,0419.81550,S,05539.79873,E,0.193,,270525,,,A*73
$GNVTG,,T,,M,0.193,N,0.358,K,A*38
$GNGGA,050721.00,0419.81550,S,05539.79873,E,1,12,0.80,26.4,M,-47.6,M,,*40
$GNGSA,A,3,05,24,12,20,18,15,13,22,,,,,1.56,0.80,1.34*1D
$GNGSA,A,3,79,78,83,82,67,,,,,,,,1.56,0.80,1.34*11
$GPGSV,5,1,17,05,63,098,30,11,11,024,08,12,44,010,22,13,17,144,19*78
$GPGSV,5,2,17,15,29,178,25,18,29,244,16,20,38,051,31,22,11,127,09*7B
$GPGSV,5,3,17,23,11,209,,24,55,216,36,25,21,340,18,29,09,313,*7C
$GPGSV,5,4,17,36,52,277,,40,86,350,,41,58,082,,49,32,274,*7D
$GPGSV,5,5,17,50,10,089,*4A
$GLGSV,3,1,09,67,17,110,13,68,21,160,16,69,05,206,,78,36,145,25*65
$GLGSV,3,2,09,79,77,050,32,80,28,343,20,82,20,347,18,83,32,292,25*66
$GLGSV,3,3,09,84,11,238,*59
$GNGLL,0419.81550,S,05539.79873,E,050721.00,A,A*66
$GNRMC,050722.00,A,0419.81555,S,05539.79879,E,0.081,,270525,,,A*7D
$GNVTG,,T,,M,0.081,N,0.149,K,A*38
$GNGGA,050722.00,0419.81555,S,05539.79879,E,1,12,0.80,26.3,M,-47.6,M,,*4B
$GNGSA,A,3,05,24,12,20,18,15,13,22,,,,,1.56,0.80,1.34*1D
$GNGSA,A,3,79,78,83,82,67,,,,,,,,1.56,0.80,1.34*11
$GPGSV,5,1,17,05,63,098,30,11,11,024,08,12,44,010,22,13,17,144,21*73
$GPGSV,5,2,17,15,29,178,25,18,29,244,16,20,38,051,31,22,11,127,09*7B
$GPGSV,5,3,17,23,11,209,,24,55,216,36,25,21,340,15,29,09,313,*71
$GPGSV,5,4,17,36,52,277,,40,86,350,,41,58,082,,49,32,274,*7D
$GPGSV,5,5,17,50,10,089,*4A
$GLGSV,3,1,09,67,17,110,10,68,21,160,18,69,05,206,,78,36,145,25*68
$GLGSV,3,2,09,79,77,050,32,80,28,343,21,82,20,347,18,83,32,292,24*66
$GLGSV,3,3,09,84,11,238,*59
$GNGLL,0419.81555,S,05539.79879,E,050722.00,A,A*6A
$GNRMC,050723.00,A,0419.81563,S,05539.79879,E,0.436,,270525,,,A*71
$GNVTG,,T,,M,0.436,N,0.808,K,A*3C
$GNGGA,050723.00,0419.81563,S,05539.79879,E,1,12,0.82,25.9,M,-47.6,M,,*44
$GNGSA,A,3,05,24,12,20,18,15,13,22,,,,,1.52,0.82,1.28*16
$GNGSA,A,3,79,78,83,82,,,,,,,,,1.52,0.82,1.28*1B
$GPGSV,5,1,17,05,63,098,27,11,11,024,08,12,44,010,21,13,17,144,20*77
$GPGSV,5,2,17,15,29,178,25,18,29,244,16,20,38,051,30,22,11,127,09*7A
$GPGSV,5,3,17,23,11,209,,24,55,216,32,25,21,340,13,29,09,313,*73
$GPGSV,5,4,17,36,52,277,,40,86,350,,41,58,082,,49,32,274,*7D
$GPGSV,5,5,17,50,10,089,*4A
$GLGSV,3,1,09,67,17,110,09,68,21,160,17,69,05,206,,78,36,145,24*6E
$GLGSV,3,2,09,79,77,050,28,80,28,343,21,82,20,347,17,83,32,292,21*67
$GLGSV,3,3,09,84,11,238,*59
$GNGLL,0419.81563,S,05539.79879,E,050723.00,A,A*6E
$GNRMC,050724.00,A,0419.81561,S,05539.79878,E,0.507,,270525,,,A*76
$GNVTG,,T,,M,0.507,N,0.939,K,A*3C
$GNGGA,050724.00,0419.81561,S,05539.79878,E,1,12,0.80,25.6,M,-47.6,M,,*4D
$GNGSA,A,3,05,24,12,20,18,15,13,22,,,,,1.56,0.80,1.34*1D
$GNGSA,A,3,79,78,83,82,67,,,,,,,,1.56,0.80,1.34*11
$GPGSV,5,1,17,05,63,098,27,11,11,024,07,12,44,010,20,13,17,144,19*73
$GPGSV,5,2,17,15,29,178,25,18,29,244,12,20,38,051,30,22,11,127,09*7E
$GPGSV,5,3,17,23,11,209,,24,55,216,34,25,21,340,10,29,09,313,*76
$GPGSV,5,4,17,36,52,277,,40,86,350,,41,58,082,,49,32,274,*7D
$GPGSV,5,5,17,50,10,089,*4A
$GLGSV,3,1,09,67,17,110,12,68,21,160,16,69,05,206,,78,36,145,25*64
$GLGSV,3,2,09,79,77,050,31,80,28,343,19,82,20,347,18,83,32,292,21*6B
$GLGSV,3,3,09,84,11,238,*59
$GNGLL,0419.81561,S,05539.79878,E,050724.00,A,A*6A
$GNRMC,050725.00,A,0419.81564,S,05539.79877,E,0.350,,270525,,,A*79
$GNVTG,,T,,M,0.350,N,0.648,K,A*31
$GNGGA,050725.00,0419.81564,S,05539.79877,E,1,12,0.80,25.4,M,-47.6,M,,*44
$GNGSA,A,3,05,24,12,20,18,15,13,22,,,,,1.56,0.80,1.34*1D
$GNGSA,A,3,79,78,83,82,67,,,,,,,,1.56,0.80,1.34*11
$GPGSV,5,1,17,05,63,098,28,11,11,024,08,12,44,010,19,13,17,144,18*78
$GPGSV,5,2,17,15,29,178,23,18,29,244,10,20,38,051,30,22,11,127,09*7A
$GPGSV,5,3,17,23,11,209,,24,55,216,35,25,21,340,12,29,09,313,*75
$GPGSV,5,4,17,36,52,277,,40,86,350,,41,58,082,,49,32,274,*7D
$GPGSV,5,5,17,50,10,089,*4A
$GLGSV,3,1,09,67,17,110,14,68,21,160,15,69,05,206,,78,36,145,25*61
$GLGSV,3,2,09,79,77,050,30,80,28,343,19,82,20,347,17,83,32,292,20*64
$GLGSV,3,3,09,84,11,238,*59
$GNGLL,0419.81564,S,05539.79877,E,050725.00,A,A*61
$GNRMC,050726.00,A,0419.81580,S,05539.79892,E,0.579,,270525,,,A*76
$GNVTG,,T,,M,0.579,N,1.072,K,A*32
$GNGGA,050726.00,0419.81580,S,05539.79892,E,1,12,0.80,25.0,M,-47.6,M,,*42
$GNGSA,A,3,05,24,12,20,18,15,13,,,,,,1.56,0.80,1.34*1D
$GNGSA,A,3,79,78,83,82,67,,,,,,,,1.56,0.80,1.34*11
$GPGSV,5,1,17,05,63,098,29,11,11,024,09,12,44,010,19,13,17,144,15*75
$GPGSV,5,2,17,15,29,178,20,18,29,244,19,20,38,051,30,22,11,127,09*70
$GPGSV,5,3,17,23,11,209,,24,55,216,35,25,21,340,11,29,09,313,*76
$GPGSV,5,4,17,36,52,277,,40,86,350,,41,58,082,,49,32,274,*7D
$GPGSV,5,5,17,50,10,089,*4A
$GLGSV,3,1,09,67,17,110,15,68,21,160,18,69,05,206,,78,36,145,25*6D
$GLGSV,3,2,09,79,77,050,32,80,28,343,20,82,20,347,15,83,32,292,22*6C
$GLGSV,3,3,09,84,11,238,*59
$GNGLL,0419.81580,S,05539.79892,E,050726.00,A,A*63
$GNRMC,050727.00,A,0419.81575,S,05539.79899,E,0.235,,270525,,,A*79
$GNVTG,,T,,M,0.235,N,0.434,K,A*3A
$GNGGA,050727.00,0419.81575,S,05539.79899,E,1,12,0.76,24.4,M,-47.6,M,,*4E
$GNGSA,A,3,05,24,12,20,18,15,13,11,,,,,1.46,0.76,1.25*15
$GNGSA,A,3,79,78,83,67,,,,,,,,,1.46,0.76,1.25*13
$GPGSV,5,1,17,05,63,098,30,11,11,024,10,12,44,010,18,13,17,144,15*74
$GPGSV,5,2,17,15,29,178,19,18,29,244,21,20,38,051,30,22,11,127,09*71
$GPGSV,5,3,17,23,11,209,,24,55,216,35,25,21,340,09,29,09,313,*7F
$GPGSV,5,4,17,36,52,277,,40,86,350,,41,58,082,,49,32,274,*7D
$GPGSV,5,5,17,50,10,089,*4A
$GLGSV,3,1,09,67,17,110,13,68,21,160,17,69,05,206,,78,36,145,24*65
$GLGSV,3,2,09,79,77,050,31,80,28,343,18,82,20,347,,83,32,292,22*60
$GLGSV,3,3,09,84,11,238,*59
$GNGLL,0419.81575,S,05539.79899,E,050727.00,A,A*63
$GNRMC,050728.00,A,0419.81566,S,05539.79893,E,0.575,,270525,,,A*7D
$GNVTG,,T,,M,0.575,N,1.064,K,A*39
$GNGGA,050728.00,0419.81566,S,05539.79893,E,1,12,0.76,23.6,M,-47.6,M,,*4C
$GNGSA,A,3,05,24,12,20,18,15,13,11,,,,,1.46,0.76,1.25*15
$GNGSA,A,3,79,78,83,67,,,,,,,,,1.46,0.76,1.25*13
$GPGSV,5,1,17,05,63,098,30,11,11,024,11,12,44,010,20,13,17,144,16*7D
$GPGSV,5,2,17,15,29,178,18,18,29,244,19,20,38,051,30,22,11,127,09*7B
$GPGSV,5,3,17,23,11,209,,24,55,216,36,25,21,340,12,29,09,313,*76
$GPGSV,5,4,17,36,52,277,,40,86,350,,41,58,082,,49,32,274,*7D
$GPGSV,5,5,17,50,10,089,*4A
$GLGSV,3,1,09,67,17,110,14,68,21,160,17,69,05,206,,78,36,145,25*63
$GLGSV,3,2,09,79,77,050,31,80,28,343,16,82,20,347,,83,32,292,22*6E
$GLGSV,3,3,09,84,11,238,*59
$GNGLL,0419.81566,S,05539.79893,E,050728.00,A,A*64
$GNRMC,050729.00,A,0419.81562,S,05539.79887,E,0.468,,270525,,,A*70
$GNVTG,,T,,M,0.468,N,0.867,K,A*3E
$GNGGA,050729.00,0419.81562,S,05539.79887,E,1,12,0.75,22.9,M,-47.6,M,,*41
$GNGSA,A,3,05,24,12,20,18,15,13,11,22,,,,1.40,0.75,1.18*1E
$GNGSA,A,3,79,78,83,67,,,,,,,,,1.40,0.75,1.18*18
$GPGSV,5,1,17,05,63,098,29,11,11,024,11,12,44,010,23,13,17,144,17*77
$GPGSV,5,2,17,15,29,178,18,18,29,244,18,20,38,051,29,22,11,127,09*72
$GPGSV,5,3,17,23,11,209,,24,55,216,33,25,21,340,15,29,09,313,*74
$GPGSV,5,4,17,36,52,277,,40,86,350,,41,58,082,,49,32,274,*7D
$GPGSV,5,5,17,50,10,089,*4A
$GLGSV,3,1,09,67,17,110,16,68,21,160,16,69,05,206,,78,36,145,25*60
$GLGSV,3,2,09,79,77,050,30,80,28,343,18,82,20,347,,83,32,292,19*69
$GLGSV,3,3,09,84,11,238,*59
$GNGLL,0419.81562,S,05539.79887,E,050729.00,A,A*64
$GNRMC,050730.00,A,0419.81550,S,05539.79871,E,0.926,,270525,,,A*77
$GNVTG,,T,,M,0.926,N,1.716,K,A*31
$GNGGA,050730.00,0419.81550,S,05539.79871,E,1,12,0.87,22.4,M,-47.6,M,,*41
$GNGSA,A,3,05,24,12,20,18,15,13,22,,,,,1.77,0.87,1.54*1F
$GNGSA,A,3,79,78,83,67,,,,,,,,,1.77,0.87,1.54*19
$GPGSV,5,1,17,05,63,098,23,11,11,024,,12,44,010,25,13,17,144,18*74
$GPGSV,5,2,17,15,29,178,19,18,29,244,17,20,38,051,29,22,11,127,09*7C
$GPGSV,5,3,17,23,11,209,,24,55,216,33,25,21,340,16,29,09,313,*77
$GPGSV,5,4,17,36,52,277,,40,86,350,,41,58,082,,49,32,274,*7D
$GPGSV,5,5,17,50,10,089,*4A
$GLGSV,3,1,09,67,17,110,17,68,21,160,19,69,05,206,,78,36,145,25*6E
$GLGSV,3,2,09,79,77,050,29,80,28,343,22,82,20,347,,83,32,292,18*69
$GLGSV,3,3,09,84,11,238,*59
$GNGLL,0419.81550,S,05539.79871,E,050730.00,A,A*64
$GNRMC,050731.00,A,0419.81534,S,05539.79857,E,1.300,314.11,270525,,,A*67
$GNVTG,314.11,T,,M,1.300,N,2.407,K,A*26
$GNGGA,050731.00,0419.81534,S,05539.79857,E,1,12,1.02,22.7,M,-47.6,M,,*49
$GNGSA,A,3,05,24,12,20,18,15,13,22,,,,,1.89,1.02,1.59*1F
$GNGSA,A,3,79,78,83,67,,,,,,,,,1.89,1.02,1.59*19
$GPGSV,5,1,17,05,63,098,25,11,11,024,,12,44,010,26,13,17,144,17*7E
$GPGSV,5,2,17,15,29,178,17,18,29,244,17,20,38,051,29,22,11,127,09*72
$GPGSV,5,3,17,23,11,209,,24,55,216,33,25,21,340,17,29,09,313,*76
$GPGSV,5,4,17,36,52,277,,40,86,350,,41,58,082,,49,32,274,*7D
$GPGSV,5,5,17,50,10,089,*4A
$GLGSV,3,1,09,67,17,110,17,68,21,160,20,69,05,206,,78,36,145,24*65
$GLGSV,3,2,09,79,77,050,28,80,28,343,21,82,20,347,,83,32,292,15*66
$GLGSV,3,3,09,84,11,238,*59
$GNGLL,0419.81534,S,05539.79857,E,050731.00,A,A*63
$GNRMC,050732.00,A,0419.81537,S,05539.79848,E,0.260,,270525,,,A*77
$GNVTG,,T,,M,0.260,N,0.481,K,A*34
$GNGGA,050732.00,0419.81537,S,05539.79848,E,1,11,1.03,22.1,M,-47.6,M,,*43
$GNGSA,A,3,05,24,12,20,18,15,13,,,,,,1.99,1.03,1.71*15
$GNGSA,A,3,79,78,83,67,,,,,,,,,1.99,1.03,1.71*13
$GPGSV,5,1,17,05,63,098,27,11,11,024,,12,44,010,27,13,17,144,16*7C
$GPGSV,5,2,17,15,29,178,18,18,29,244,17,20,38,051,34,22,11,127,*78
$GPGSV,5,3,17,23,11,209,,24,55,216,34,25,21,340,18,29,09,313,*7E
$GPGSV,5,4,17,36,52,277,,40,86,350,,41,58,082,,49,32,274,*7D
$GPGSV,5,5,17,50,10,089,*4A
$GLGSV,3,1,09,67,17,110,15,68,21,160,20,69,05,206,,78,36,145,23*60
$GLGSV,3,2,09,79,77,050,29,80,28,343,20,82,20,347,,83,32,292,11*62
$GLGSV,3,3,09,84,11,238,*59
$GNGLL,0419.81537,S,05539.79848,E,050732.00,A,A*6D
$GNRMC,050733.00,A,0419.81546,S,05539.79853,E,0.130,,270525,,,A*7C
$GNVTG,,T,,M,0.130,N,0.240,K,A*39
$GNGGA,050733.00,0419.81546,S,05539.79853,E,1,11,1.03,22.0,M,-47.6,M,,*4F
$GNGSA,A,3,05,24,12,20,18,15,13,,,,,,1.99,1.03,1.71*15
$GNGSA,A,3,79,78,83,67,,,,,,,,,1.99,1.03,1.71*13
$GPGSV,5,1,17,05,63,098,26,11,11,024,,12,44,010,27,13,17,144,16*7D
$GPGSV,5,2,17,15,29,178,21,18,29,244,15,20,38,051,33,22,11,127,*77
$GPGSV,5,3,17,23,11,209,,24,55,216,34,25,21,340,17,29,09,313,*71
$GPGSV,5,4,17,36,52,277,,40,86,350,,41,58,082,,49,32,274,*7D
$GPGSV,5,5,17,50,10,089,*4A
$GLGSV,3,1,09,67,17,110,14,68,21,160,20,69,05,206,,78,36,145,22*60
$GLGSV,3,2,09,79,77,050,30,80,28,343,16,82,20,347,,83,32,292,10*6E
$GLGSV,3,3,09,84,11,238,*59
$GNGLL,0419.81546,S,05539.79853,E,050733.00,A,A*60
$GNRMC,050734.00,A,0419.81546,S,05539.79852,E,0.324,,270525,,,A*7D
$GNVTG,,T,,M,0.324,N,0.599,K,A*3D
$GNGGA,050734.00,0419.81546,S,05539.79852,E,1,11,1.03,22.2,M,-47.6,M,,*4B
$GNGSA,A,3,05,24,12,20,18,15,13,,,,,,1.99,1.03,1.71*15
$GNGSA,A,3,79,78,83,67,,,,,,,,,1.99,1.03,1.71*13
$GPGSV,5,1,17,05,63,098,22,11,11,024,,12,44,010,26,13,17,144,17*79
$GPGSV,5,2,17,15,29,178,24,18,29,244,14,20,38,051,33,22,11,127,*73
$GPGSV,5,3,17,23,11,209,,24,55,216,34,25,21,340,16,29,09,313,*70
$GPGSV,5,4,17,36,52,277,,40,86,350,,41,58,082,,49,32,274,*7D
$GPGSV,5,5,17,50,10,089,*4A
$GLGSV,3,1,09,67,17,110,18,68,21,160,18,69,05,206,,78,36,145,22*67
$GLGSV,3,2,09,79,77,050,32,80,28,343,15,82,20,347,,83,32,292,11*6E
$GLGSV,3,3,09,84,11,238,*59
$GNGLL,0419.81546,S,05539.79852,E,050734.00,A,A*66
$GNRMC,050735.00,A,0419.81547,S,05539.79850,E,0.324,,270525,,,A*7F
$GNVTG,,T,,M,0.324,N,0.600,K,A*3E
$GNGGA,050735.00,0419.81547,S,05539.79850,E,1,11,1.03,22.0,M,-47.6,M,,*4B
$GNGSA,A,3,05,24,12,20,18,15,13,,,,,,1.99,1.03,1.71*15
$GNGSA,A,3,79,78,83,67,,,,,,,,,1.99,1.03,1.71*13
$GPGSV,5,1,17,05,63,098,22,11,11,024,,12,44,010,25,13,17,144,17*7A
$GPGSV,5,2,17,15,29,178,24,18,29,244,17,20,38,051,33,22,11,127,*70
$GPGSV,5,3,17,23,11,209,,24,55,216,33,25,21,340,17,29,09,313,*76
$GPGSV,5,4,17,36,52,277,,40,86,350,,41,58,082,,49,32,274,*7D
$GPGSV,5,5,17,50,10,089,*4A
$GLGSV,3,1,09,67,17,110,19,68,21,160,19,69,05,206,,78,36,145,24*61
$GLGSV,3,2,09,79,77,050,31,80,28,343,17,82,20,347,,83,32,292,22*6F
$GLGSV,3,3,09,84,11,238,*59
$GNGLL,0419.81547,S,05539.79850,E,050735.00,A,A*64
$GNRMC,050736.00,A,0419.81529,S,05539.79826,E,1.406,311.80,270525,,,A*66
$GNVTG,311.80,T,,M,1.406,N,2.605,K,A*2A
$GNGGA,050736.00,0419.81529,S,05539.79826,E,1,11,1.03,21.6,M,-47.6,M,,*44
$GNGSA,A,3,05,24,12,20,18,15,13,,,,,,1.99,1.03,1.71*15
$GNGSA,A,3,79,78,83,67,,,,,,,,,1.99,1.03,1.71*13
$GPGSV,5,1,17,05,63,098,21,11,11,024,,12,44,010,25,13,17,144,15*7B
$GPGSV,5,2,17,15,29,178,21,18,29,244,20,20,38,051,33,22,11,127,*71
$GPGSV,5,3,17,23,11,209,,24,55,216,33,25,21,340,16,29,09,313,*77
$GPGSV,5,4,17,36,52,277,,40,86,350,,41,58,082,,49,32,274,*7D
$GPGSV,5,5,17,50,10,089,*4A
$GLGSV,3,1,09,67,17,110,19,68,21,160,19,69,05,206,,78,36,145,23*66
$GLGSV,3,2,09,79,77,050,32,80,28,343,15,82,20,347,17,83,32,292,22*68
$GLGSV,3,3,09,84,11,238,*59
$GNGLL,0419.81529,S,05539.79826,E,050736.00,A,A*6E
$GNRMC,050737.00,A,0419.81524,S,05539.79807,E,0.299,,270525,,,A*7D
$GNVTG,,T,,M,0.299,N,0.553,K,A*3C
$GNGGA,050737.00,0419.81524,S,05539.79807,E,1,11,0.87,20.9,M,-47.6,M,,*48
$GNGSA,A,3,05,24,12,20,18,15,13,,,,,,1.77,0.87,1.54*1F
$GNGSA,A,3,79,78,83,67,,,,,,,,,1.77,0.87,1.54*19
$GPGSV,5,1,17,05,63,098,19,11,11,024,,12,44,010,26,13,17,144,16*70
$GPGSV,5,2,17,15,29,178,19,18,29,244,22,20,38,051,33,22,11,127,*78
$GPGSV,5,3,17,23,11,209,,24,55,216,30,25,21,340,16,29,09,313,*74
$GPGSV,5,4,17,36,52,277,,40,86,350,,41,58,082,,49,32,274,*7D
$GPGSV,5,5,17,50,10,089,*4A
$GLGSV,3,1,09,67,17,110,19,68,21,160,18,69,05,206,,78,36,145,23*67
$GLGSV,3,2,09,79,77,050,32,80,28,343,15,82,20,347,18,83,32,292,21*64
$GLGSV,3,3,09,84,11,238,*59
$GNGLL,0419.81524,S,05539.79807,E,050737.00,A,A*61
$GNRMC,050738.00,A,0419.81535,S,05539.79813,E,0.190,,270525,,,A*7D
$GNVTG,,T,,M,0.190,N,0.352,K,A*31
$GNGGA,050738.00,0419.81535,S,05539.79813,E,1,11,1.03,21.1,M,-47.6,M,,*46
$GNGSA,A,3,05,24,12,20,18,15,13,,,,,,1.99,1.03,1.71*15
$GNGSA,A,3,79,78,83,67,,,,,,,,,1.99,1.03,1.71*13
$GPGSV,5,1,17,05,63,098,19,11,11,024,,12,44,010,30,13,17,144,16*77
$GPGSV,5,2,17,15,29,178,15,18,29,244,21,20,38,051,33,22,11,127,*77
$GPGSV,5,3,17,23,11,209,,24,55,216,30,25,21,340,16,29,09,313,*74
$GPGSV,5,4,17,36,52,277,,40,86,350,,41,58,082,,49,32,274,*7D
$GPGSV,5,5,17,50,10,089,*4A
$GLGSV,3,1,09,67,17,110,19,68,21,160,19,69,05,206,,78,36,145,24*61
$GLGSV,3,2,09,79,77,050,30,80,28,343,18,82,20,347,18,83,32,292,21*6B
$GLGSV,3,3,09,84,11,238,*59
$GNGLL,0419.81535,S,05539.79813,E,050738.00,A,A*6B
$GNRMC,050739.00,A,0419.81536,S,05539.79805,E,0.110,,270525,,,A*70
$GNVTG,,T,,M,0.110,N,0.204,K,A*3B
$GNGGA,050739.00,0419.81536,S,05539.79805,E,1,12,0.87,20.7,M,-47.6,M,,*4A
$GNGSA,A,3,05,24,12,20,18,15,13,,,,,,1.77,0.87,1.54*1F
$GNGSA,A,3,79,78,83,82,67,,,,,,,,1.77,0.87,1.54*13
$GPGSV,5,1,17,05,63,098,20,11,11,024,,12,44,010,29,13,17,144,18*7B
$GPGSV,5,2,17,15,29,178,13,18,29,244,19,20,38,051,33,22,11,127,*7A
$GPGSV,5,3,17,23,11,209,,24,55,216,32,25,21,340,15,29,09,313,*75
$GPGSV,5,4,17,36,52,277,,40,86,350,,41,58,082,,49,32,274,*7D
$GPGSV,5,5,17,50,10,089,*4A
$GLGSV,3,1,09,67,17,110,19,68,21,160,19,69,05,206,,78,36,145,24*61
$GLGSV,3,2,09,79,77,050,29,80,28,343,16,82,20,347,19,83,32,292,23*6E
$GLGSV,3,3,09,84,11,238,*59
$GNGLL,0419.81536,S,05539.79805,E,050739.00,A,A*6E
$GNRMC,050740.00,A,0419.81538,S,05539.79805,E,0.326,,270525,,,A*77
$GNVTG,,T,,M,0.326,N,0.603,K,A*3F
$GNGGA,050740.00,0419.81538,S,05539.79805,E,1,12,0.87,20.6,M,-47.6,M,,*4B
$GNGSA,A,3,05,24,12,20,18,15,13,,,,,,1.77,0.87,1.54*1F
$GNGSA,A,3,79,78,83,82,67,,,,,,,,1.77,0.87,1.54*13
$GPGSV,5,1,17,05,63,098,29,11,11,024,,12,44,010,28,13,17,144,18*73
$GPGSV,5,2,17,15,29,178,16,18,29,244,21,20,38,051,33,22,11,127,15*70
$GPGSV,5,3,17,23,11,209,,24,55,216,33,25,21,340,15,29,09,313,*74
$GPGSV,5,4,17,36,52,277,,40,86,350,,41,58,082,,49,32,274,*7D
$GPGSV,5,5,17,50,10,089,*4A
$GLGSV,3,1,09,67,17,110,18,68,21,160,20,69,05,206,,78,36,145,23*6D
$GLGSV,3,2,09,79,77,050,30,80,28,343,,82,20,347,19,83,32,292,24*66
$GLGSV,3,3,09,84,11,238,*59
$GNGLL,0419.81538,S,05539.79805,E,050740.00,A,A*6E
$GNRMC,050741.00,A,0419.81538,S,05539.79800,E,0.223,,270525,,,A*77
$GNVTG,,T,,M,0.223,N,0.412,K,A*39
$GNGGA,050741.00,0419.81538,S,05539.79800,E,1,12,0.87,20.5,M,-47.6,M,,*4C
$GNGSA,A,3,05,24,12,20,18,15,13,,,,,,1.77,0.87,1.54*1F
$GNGSA,A,3,79,78,83,82,67,,,,,,,,1.77,0.87,1.54*13
$GPGSV,5,1,17,05,63,098,28,11,11,024,,12,44,010,27,13,17,144,17*72
$GPGSV,5,2,17,15,29,178,19,18,29,244,23,20,38,051,34,22,11,127,15*7A
$GPGSV,5,3,17,23,11,209,,24,55,216,33,25,21,340,16,29,09,313,*77
$GPGSV,5,4,17,36,52,277,,40,86,350,,41,58,082,,49,32,274,*7D
$GPGSV,5,5,17,50,10,089,*4A
$GLGSV,3,1,09,67,17,110,18,68,21,160,21,69,05,206,,78,36,145,23*6C
$GLGSV,3,2,09,79,77,050,31,80,28,343,,82,20,347,18,83,32,292,25*67
$GLGSV,3,3,09,84,11,238,*59
$GNGLL,0419.81538,S,05539.79800,E,050741.00,A,A*6A
$GNRMC,050742.00,A,0419.81523,S,05539.79791,E,0.405,,270525,,,A*7B
$GNVTG,,T,,M,0.405,N,0.750,K,A*3E
$GNGGA,050742.00,0419.81523,S,05539.79791,E,1,12,0.87,21.0,M,-47.6,M,,*46
$GNGSA,A,3,05,24,12,20,18,15,13,,,,,,1.77,0.87,1.54*1F
$GNGSA,A,3,79,78,83,82,67,,,,,,,,1.77,0.87,1.54*13
$GPGSV,5,1,17,05,63,098,28,11,11,024,,12,44,010,26,13,17,144,15*71
$GPGSV,5,2,17,15,29,178,19,18,29,244,24,20,38,051,29,22,11,127,13*77
$GPGSV,5,3,17,23,11,209,,24,55,216,32,25,21,340,18,29,09,313,*78
$GPGSV,5,4,17,36,52,277,,40,86,350,,41,58,082,,49,32,274,*7D
$GPGSV,5,5,17,50,10,089,*4A
$GLGSV,3,1,09,67,17,110,17,68,21,160,21,69,05,206,,78,36,145,24*64
$GLGSV,3,2,09,79,77,050,30,80,28,343,,82,20,347,18,83,32,292,25*66
$GLGSV,3,3,09,84,11,238,*59
$GNGLL,0419.81523,S,05539.79791,E,050742.00,A,A*64
$GNRMC,050743.00,A,0419.81511,S,05539.79782,E,0.521,,270525,,,A*7E
$GNVTG,,T,,M,0.521,N,0.965,K,A*31
$GNGGA,050743.00,0419.81511,S,05539.79782,E,1,12,0.87,21.3,M,-47.6,M,,*47
$GNGSA,A,3,05,24,12,20,18,15,13,,,,,,1.77,0.87,1.54*1F
$GNGSA,A,3,79,78,83,82,67,,,,,,,,1.77,0.87,1.54*13
$GPGSV,5,1,17,05,63,098,18,11,11,024,,12,44,010,24,13,17,144,15*70
$GPGSV,5,2,17,15,29,178,18,18,29,244,24,20,38,051,30,22,11,127,10*7D
$GPGSV,5,3,17,23,11,209,,24,55,216,32,25,21,340,16,29,09,313,*76
$GPGSV,5,4,17,36,52,277,,40,86,350,,41,58,082,,49,32,274,*7D
$GPGSV,5,5,17,50,10,089,*4A
$GLGSV,3,1,09,67,17,110,16,68,21,160,20,69,05,206,,78,36,145,23*63
$GLGSV,3,2,09,79,77,050,22,80,28,343,,82,20,347,16,83,32,292,23*6D
$GLGSV,3,3,09,84,11,238,*59
$GNGLL,0419.81511,S,05539.79782,E,050743.00,A,A*66
$GNRMC,050744.00,A,0419.81504,S,05539.79781,E,0.206,,270525,,,A*7C
$GNVTG,,T,,M,0.206,N,0.381,K,A*33
$GNGGA,050744.00,0419.81504,S,05539.79781,E,1,12,0.87,21.4,M,-47.6,M,,*40
$GNGSA,A,3,05,24,12,20,18,15,13,,,,,,1.77,0.87,1.54*1F
$GNGSA,A,3,79,78,83,82,67,,,,,,,,1.77,0.87,1.54*13
$GPGSV,5,1,17,05,63,098,17,11,11,024,,12,44,010,23,13,17,144,15*78
$GPGSV,5,2,17,15,29,178,17,18,29,244,24,20,38,051,31,22,11,127,10*73
$GPGSV,5,3,17,23,11,209,,24,55,216,35,25,21,340,14,29,09,313,*73
$GPGSV,5,4,17,36,52,277,,40,86,350,,41,58,082,,49,32,274,*7D
$GPGSV,5,5,17,50,10,089,*4A
$GLGSV,3,1,09,67,17,110,16,68,21,160,21,69,05,206,,78,36,145,20*61
$GLGSV,3,2,09,79,77,050,21,80,28,343,,82,20,347,16,83,32,292,21*6C
$GLGSV,3,3,09,84,11,238,*59
$GNGLL,0419.81504,S,05539.79781,E,050744.00,A,A*66
$GNRMC,050745.00,A,0419.81515,S,05539.79794,E,0.218,,270525,,,A*76
$GNVTG,,T,,M,0.218,N,0.404,K,A*36
$GNGGA,050745.00,0419.81515,S,05539.79794,E,1,12,0.76,21.4,M,-47.6,M,,*4B
$GNGSA,A,3,05,24,12,20,18,15,13,,,,,,1.53,0.76,1.33*16
$GNGSA,A,3,79,78,83,82,67,,,,,,,,1.53,0.76,1.33*1A
$GPGSV,5,1,17,05,63,098,16,11,11,024,,12,44,010,26,13,17,144,15*7C
$GPGSV,5,2,17,15,29,178,19,18,29,244,20,20,38,051,30,22,11,127,09*70
$GPGSV,5,3,17,23,11,209,,24,55,216,33,25,21,340,13,29,09,313,*72
$GPGSV,5,4,17,36,52,277,,40,86,350,,41,58,082,,49,32,274,*7D
$GPGSV,5,5,17,50,10,089,*4A
$GLGSV,3,1,09,67,17,110,17,68,21,160,21,69,05,206,,78,36,145,18*6B
$GLGSV,3,2,09,79,77,050,20,80,28,343,,82,20,347,17,83,32,292,20*6D
$GLGSV,3,3,09,84,11,238,*59
$GNGLL,0419.81515,S,05539.79794,E,050745.00,A,A*63
$GNRMC,050746.00,A,0419.81522,S,05539.79790,E,0.186,,270525,,,A*71
$GNVTG,,T,,M,0.186,N,0.344,K,A*31
$GNGGA,050746.00,0419.81522,S,05539.79790,E,1,12,0.87,21.0,M,-47.6,M,,*42
$GNGSA,A,3,05,24,12,20,18,15,13,,,,,,1.77,0.87,1.54*1F
$GNGSA,A,3,79,78,83,82,67,,,,,,,,1.77,0.87,1.54*13
$GPGSV,5,1,17,05,63,098,27,11,11,024,,12,44,010,27,13,17,144,15*7F
$GPGSV,5,2,17,15,29,178,21,18,29,244,18,20,38,051,30,22,11,127,08*71
$GPGSV,5,3,17,23,11,209,,24,55,216,37,25,21,340,15,29,09,313,*70
$GPGSV,5,4,17,36,52,277,,40,86,350,,41,58,082,,49,32,274,*7D
$GPGSV,5,5,17,50,10,089,*4A
$GLGSV,3,1,09,67,17,110,18,68,21,160,21,69,05,206,,78,36,145,15*69
$GLGSV,3,2,09,79,77,050,19,80,28,343,,82,20,347,18,83,32,292,18*63
$GLGSV,3,3,09,84,11,238,*59
$GNGLL,0419.81522,S,05539.79790,E,050746.00,A,A*60
$GNRMC,050747.00,A,0419.81524,S,05539.79782,E,0.287,,270525,,,A*77
$GNVTG,,T,,M,0.287,N,0.532,K,A*34
$GNGGA,050747.00,0419.81524,S,05539.79782,E,1,12,0.87,20.9,M,-47.6,M,,*4E
$GNGSA,A,3,05,24,12,20,18,15,13,,,,,,1.77,0.87,1.54*1F
$GNGSA,A,3,79,78,83,82,67,,,,,,,,1.77,0.87,1.54*13
$GPGSV,5,1,17,05,63,098,17,11,11,024,14,12,44,010,26,13,17,144,16*7B
$GPGSV,5,2,17,15,29,178,20,18,29,244,18,20,38,051,31,22,11,127,08*71
$GPGSV,5,3,17,23,11,209,,24,55,216,30,25,21,340,15,29,09,313,*77
$GPGSV,5,4,17,36,52,277,,40,86,350,,41,58,082,,49,32,274,*7D
$GPGSV,5,5,17,50,10,089,*4A
$GLGSV,3,1,09,67,17,110,17,68,21,160,19,69,05,206,,78,36,145,15*6D
$GLGSV,3,2,09,79,77,050,22,80,28,343,,82,20,347,16,83,32,292,17*6A
$GLGSV,3,3,09,84,11,238,*59
$GNGLL,0419.81524,S,05539.79782,E,050747.00,A,A*64
$GNRMC,050748.00,A,0419.81533,S,05539.79789,E,0.517,,270525,,,A*7B
$GNVTG,,T,,M,0.517,N,0.957,K,A*35
$GNGGA,050748.00,0419.81533,S,05539.79789,E,1,12,0.87,20.7,M,-47.6,M,,*42
$GNGSA,A,3,05,24,12,20,18,15,13,,,,,,1.77,0.87,1.54*1F
$GNGSA,A,3,79,78,83,82,67,,,,,,,,1.77,0.87,1.54*13
$GPGSV,5,1,17,05,63,098,20,11,11,024,12,12,44,010,25,13,17,144,17*7B
$GPGSV,5,2,17,15,29,178,21,18,29,244,19,20,38,051,34,22,11,127,08*74
$GPGSV,5,3,17,23,11,209,,24,55,216,35,25,21,340,17,29,09,313,*70
$GPGSV,5,4,17,36,52,277,,40,86,350,,41,58,082,,49,32,274,*7D
$GPGSV,5,5,17,50,10,089,*4A
$GLGSV,3,1,09,67,17,110,15,68,21,160,17,69,05,206,,78,36,145,18*6C
$GLGSV,3,2,09,79,77,050,23,80,28,343,,82,20,347,13,83,32,292,21*6B
$GLGSV,3,3,09,84,11,238,*59
$GNGLL,0419.81533,S,05539.79789,E,050748.00,A,A*66
$GNRMC,050749.00,A,0419.81548,S,05539.79803,E,0.691,,270525,,,A*76
$GNVTG,,T,,M,0.691,N,1.279,K,A*3E
$GNGGA,050749.00,0419.81548,S,05539.79803,E,1,12,0.87,20.2,M,-47.6,M,,*47
$GNGSA,A,3,05,24,12,20,18,15,13,,,,,,1.77,0.87,1.54*1F
$GNGSA,A,3,79,78,83,82,67,,,,,,,,1.77,0.87,1.54*13
$GPGSV,5,1,17,05,63,098,21,11,11,024,10,12,44,010,27,13,17,144,16*7B
$GPGSV,5,2,17,15,29,178,20,18,29,244,20,20,38,051,29,22,11,127,09*72
$GPGSV,5,3,17,23,11,209,,24,55,216,38,25,21,340,18,29,09,313,*72
$GPGSV,5,4,17,36,52,277,,40,86,350,,41,58,082,,49,32,274,*7D
$GPGSV,5,5,17,50,10,089,*4A
$GLGSV,3,1,09,67,17,110,15,68,21,160,18,69,05,206,,78,36,145,18*63
$GLGSV,3,2,09,79,77,050,25,80,28,343,,82,20,347,11,83,32,292,24*6A
$GLGSV,3,3,09,84,11,238,*59
$GNGLL,0419.81548,S,05539.79803,E,050749.00,A,A*66
$GNRMC,050750.00,A,0419.81545,S,05539.79812,E,0.124,,270525,,,A*7A
$GNVTG,,T,,M,0.124,N,0.229,K,A*33
$GNGGA,050750.00,0419.81545,S,05539.79812,E,1,12,0.86,20.7,M,-47.6,M,,*46
$GNGSA,A,3,05,24,12,20,18,15,13,22,,,,,1.65,0.86,1.41*19
$GNGSA,A,3,79,78,83,67,,,,,,,,,1.65,0.86,1.41*1F
$GPGSV,5,1,17,05,63,098,18,11,11,024,11,12,44,010,27,13,17,144,16*70
$GPGSV,5,2,17,15,29,178,18,18,29,244,18,20,38,051,33,22,11,127,10*71
$GPGSV,5,3,17,23,11,209,,24,55,216,37,25,21,340,20,29,09,313,*76
$GPGSV,5,4,17,36,52,277,,40,86,350,,41,58,082,,49,32,274,*7D
$GPGSV,5,5,17,50,10,089,*4A
$GLGSV,3,1,09,67,17,110,17,68,21,160,18,69,05,206,,78,36,145,21*6B
$GLGSV,3,2,09,79,77,050,28,80,28,343,,82,20,347,09,83,32,292,25*6F
$GLGSV,3,3,09,84,11,238,*59
$GNGLL,0419.81545,S,05539.79812,E,050750.00,A,A*63
$GNRMC,050751.00,A,0419.81549,S,05539.79820,E,0.224,,270525,,,A*75
$GNVTG,,T,,M,0.224,N,0.415,K,A*39
$GNGGA,050751.00,0419.81549,S,05539.79820,E,1,11,0.87,20.7,M,-47.6,M,,*48
$GNGSA,A,3,05,24,12,20,18,15,13,,,,,,1.77,0.87,1.54*1F
$GNGSA,A,3,79,78,83,67,,,,,,,,,1.77,0.87,1.54*19
$GPGSV,5,1,17,05,63,098,20,11,11,024,11,12,44,010,26,13,17,144,18*74
$GPGSV,5,2,17,15,29,178,18,18,29,244,19,20,38,051,32,22,11,127,*70
$GPGSV,5,3,17,23,11,209,,24,55,216,36,25,21,340,20,29,09,313,*77
$GPGSV,5,4,17,36,52,277,,40,86,350,,41,58,082,,49,32,274,*7D
$GPGSV,5,5,17,50,10,089,*4A
$GLGSV,3,1,09,67,17,109,18,68,21,160,17,69,05,206,,78,36,145,21*63
$GLGSV,3,2,09,79,77,050,29,80,28,343,25,82,20,347,08,83,32,292,24*69
$GLGSV,3,3,09,84,11,238,*59
$GNGLL,0419.81549,S,05539.79820,E,050751.00,A,A*6F
$GNRMC,050752.00,A,0419.81547,S,05539.79821,E,0.315,,270525,,,A*7A
$GNVTG,,T,,M,0.315,N,0.584,K,A*33
$GNGGA,050752.00,0419.81547,S,05539.79821,E,1,11,0.87,20.7,M,-47.6,M,,*44
$GNGSA,A,3,05,24,12,20,18,15,13,,,,,,1.77,0.87,1.54*1F
$GNGSA,A,3,79,78,83,67,,,,,,,,,1.77,0.87,1.54*19
$GPGSV,5,1,17,05,63,098,24,11,11,024,10,12,44,010,25,13,17,144,19*73
$GPGSV,5,2,17,15,29,178,16,18,29,244,20,20,38,051,31,22,11,127,*77
$GPGSV,5,3,17,23,11,209,,24,55,216,35,25,21,340,20,29,09,313,*74
$GPGSV,5,4,17,36,52,277,,40,86,350,,41,58,082,,49,32,274,*7D
$GPGSV,5,5,17,50,10,089,*4A
$GLGSV,3,1,09,67,17,109,19,68,21,160,15,69,05,206,,78,36,145,22*63
$GLGSV,3,2,09,79,77,050,30,80,28,343,22,82,20,347,08,83,32,292,25*67
$GLGSV,3,3,09,84,11,238,*59
$GNGLL,0419.81547,S,05539.79821,E,050752.00,A,A*63
$GNRMC,050753.00,A,0419.81550,S,05539.79826,E,0.077,,270525,,,A*7D
$GNVTG,,T,,M,0.077,N,0.142,K,A*3A
$GNGGA,050753.00,0419.81550,S,05539.79826,E,1,12,0.87,21.1,M,-47.6,M,,*40
$GNGSA,A,3,05,24,12,20,18,15,13,,,,,,1.77,0.87,1.54*1F
$GNGSA,A,3,79,78,83,82,67,,,,,,,,1.77,0.87,1.54*13
$GPGSV,5,1,17,05,63,098,24,11,11,024,09,12,44,010,25,13,17,144,19*7B
$GPGSV,5,2,17,15,29,178,17,18,29,244,20,20,38,051,32,22,11,127,*75
$GPGSV,5,3,17,23,11,209,,24,55,216,34,25,21,340,21,29,09,313,*74
$GPGSV,5,4,17,36,52,277,,40,86,350,,41,58,082,,49,32,274,*7D
$GPGSV,5,5,17,50,10,089,*4A
$GLGSV,3,1,09,67,17,109,18,68,21,160,17,69,05,205,,78,36,145,22*63
$GLGSV,3,2,09,79,77,050,29,80,28,343,19,82,20,347,12,83,32,292,24*6D
$GLGSV,3,3,09,84,11,238,*59
$GNGLL,0419.81550,S,05539.79826,E,050753.00,A,A*63
$GNRMC,050754.00,A,0419.81552,S,05539.79840,E,0.356,,270525,,,A*78
$GNVTG,,T,,M,0.356,N,0.659,K,A*37
$GNGGA,050754.00,0419.81552,S,05539.79840,E,1,12,0.76,21.7,M,-47.6,M,,*4D
$GNGSA,A,3,05,24,12,20,18,15,13,,,,,,1.53,0.76,1.33*16
$GNGSA,A,3,79,78,83,82,67,,,,,,,,1.53,0.76,1.33*1A
$GPGSV,5,1,17,05,63,098,22,11,11,024,08,12,44,010,26,13,17,144,19*7F
$GPGSV,5,2,17,15,29,178,20,18,29,244,20,20,38,051,32,22,11,127,*71
$GPGSV,5,3,17,23,11,209,,24,55,216,35,25,21,340,20,29,09,313,*74
$GPGSV,5,4,17,36,52,277,,40,86,350,,41,58,082,,49,32,274,*7D
$GPGSV,5,5,17,50,10,089,*4A
$GLGSV,3,1,09,67,17,109,18,68,21,160,19,69,05,205,,78,36,145,23*6C
$GLGSV,3,2,09,79,77,050,30,80,28,343,17,82,20,347,12,83,32,292,23*6C
$GLGSV,3,3,09,84,11,238,*59
$GNGLL,0419.81552,S,05539.79840,E,050754.00,A,A*66
$GNRMC,050755.00,A,0419.81549,S,05539.79846,E,0.194,,270525,,,A*79
$GNVTG,,T,,M,0.194,N,0.360,K,A*34
$GNGGA,050755.00,0419.81549,S,05539.79846,E,1,12,0.76,22.3,M,-47.6,M,,*47
$GNGSA,A,3,05,24,12,20,18,15,13,,,,,,1.53,0.76,1.33*16
$GNGSA,A,3,79,78,83,82,67,,,,,,,,1.53,0.76,1.33*1A
$GPGSV,5,1,17,05,63,098,21,11,11,024,09,12,44,010,28,13,17,144,19*73
$GPGSV,5,2,17,15,29,178,21,18,29,244,19,20,38,051,32,22,11,127,*7A
$GPGSV,5,3,17,23,11,209,,24,55,216,36,25,21,340,20,29,09,313,*77
$GPGSV,5,4,17,36,52,277,,40,86,350,,41,58,082,,49,32,274,*7D
$GPGSV,5,5,17,50,10,089,*4A
$GLGSV,3,1,09,67,17,109,16,68,21,160,19,69,05,205,,78,36,145,23*62
$GLGSV,3,2,09,79,77,050,30,80,28,343,17,82,20,347,13,83,32,292,22*6C
$GLGSV,3,3,09,84,11,238,*59
$GNGLL,0419.81549,S,05539.79846,E,050755.00,A,A*6B
$GNRMC,050756.00,A,0419.81549,S,05539.79848,E,0.232,,270525,,,A*7B
$GNVTG,,T,,M,0.232,N,0.430,K,A*39
$GNGGA,050756.00,0419.81549,S,05539.79848,E,1,12,0.87,23.2,M,-47.6,M,,*44
$GNGSA,A,3,05,24,12,20,18,15,13,11,,,,,1.77,0.87,1.54*1F
$GNGSA,A,3,79,78,83,82,67,,,,,,,,1.77,0.87,1.54*13
$GPGSV,5,1,17,05,63,098,18,11,11,024,11,12,44,010,27,13,17,144,19*7F
$GPGSV,5,2,17,15,29,178,21,18,29,244,21,20,38,051,34,22,11,127,14*72
$GPGSV,5,3,17,23,11,209,,24,55,216,36,25,21,340,22,29,09,313,*75
$GPGSV,5,4,17,36,52,277,,40,86,350,,41,58,082,,49,32,274,*7D
$GPGSV,5,5,17,50,10,089,*4A
$GLGSV,3,1,09,67,17,109,15,68,21,160,18,69,05,205,,78,36,145,23*60
$GLGSV,3,2,09,79,77,050,30,80,28,343,14,82,20,347,13,83,32,292,23*6E
$GLGSV,3,3,09,84,11,238,*59
$GNGLL,0419.81549,S,05539.79848,E,050756.00,A,A*66
$GNRMC,050757.00,A,0419.81551,S,05539.79850,E,0.085,,270525,,,A*74
$GNVTG,,T,,M,0.085,N,0.157,K,A*33
$GNGGA,050757.00,0419.81551,S,05539.79850,E,1,12,0.76,23.6,M,-47.6,M,,*4F
$GNGSA,A,3,05,24,12,20,18,15,13,11,,,,,1.53,0.76,1.33*16
$GNGSA,A,3,79,78,83,82,67,,,,,,,,1.53,0.76,1.33*1A
$GPGSV,5,1,17,05,63,098,19,11,11,024,10,12,44,010,27,13,17,144,18*7E
$GPGSV,5,2,17,15,29,178,22,18,29,244,21,20,38,051,33,22,11,127,15*77
$GPGSV,5,3,17,23,11,209,,24,55,216,36,25,21,340,22,29,09,313,*75
$GPGSV,5,4,17,36,52,277,,40,86,350,,41,58,082,,49,32,274,*7D
$GPGSV,5,5,17,50,10,089,*4A
$GLGSV,3,1,09,67,17,109,12,68,21,160,16,69,05,205,,78,36,145,22*68
$GLGSV,3,2,09,79,77,050,29,80,28,343,14,82,20,347,13,83,32,292,24*61
$GLGSV,3,3,09,84,11,238,*59
$GNGLL,0419.81551,S,05539.79850,E,050757.00,A,A*67
$GNRMC,050758.00,A,0419.81553,S,05539.79859,E,0.159,,270525,,,A*70
$GNVTG,,T,,M,0.159,N,0.294,K,A*3F
$GNGGA,050758.00,0419.81553,S,05539.79859,E,1,12,0.76,23.8,M,-47.6,M,,*45
$GNGSA,A,3,05,24,12,20,18,15,13,11,,,,,1.53,0.76,1.33*16
$GNGSA,A,3,79,78,83,82,67,,,,,,,,1.53,0.76,1.33*1A
$GPGSV,5,1,17,05,63,098,21,11,11,024,10,12,44,010,26,13,17,144,16*7A
$GPGSV,5,2,17,15,29,178,21,18,29,244,25,20,38,051,31,22,11,127,13*74
$GPGSV,5,3,17,23,11,209,,24,55,216,36,25,21,340,20,29,09,313,*77
$GPGSV,5,4,17,36,52,277,,40,86,350,,41,58,082,,49,32,274,*7D
$GPGSV,5,5,17,50,10,089,*4A
$GLGSV,3,1,09,67,17,109,13,68,21,160,15,69,05,205,,78,36,145,21*69
$GLGSV,3,2,09,79,77,050,28,80,28,343,12,82,20,347,13,83,32,292,25*67
$GLGSV,3,3,09,84,11,238,*59
$GNGLL,0419.81553,S,05539.79859,E,050758.00,A,A*63
