$GNGSA,A,3,69,82,70,80,73,71,,,,,,,1.51,0.63,1.37*11
$GPGSV,4,1,16,10,23,346,11,16,25,262,31,18,29,060,23,23,07,025,09*73
$GPGSV,4,2,16,25,06,138,18,26,30,230,27,27,27,323,25,28,37,171,39*7F
$GPGSV,4,3,16,29,30,143,28,31,22,199,30,32,79,342,37,36,52,277,34*74
$GPGSV,4,4,16,40,84,353,,41,58,082,26,49,32,274,,50,10,089,*7D
$GLGSV,3,1,09,69,34,359,17,70,51,260,19,71,16,220,15,73,14,215,18*6B
$GLGSV,3,2,09,80,13,162,21,82,24,120,24,83,43,060,22,84,18,001,*66
$GLGSV,3,3,09,,,,32*6D
$GNRMC,111947.00,A,0419.95026,S,05539.71619,E,0.046,,260525,,,A*7A
$GNVTG,,T,,M,0.046,N,0.086,K,A*31
$GNGGA,111947.00,0419.95026,S,05539.71619,E,1,12,0.63,58.9,M,-47.6,M,,*48
$GNGSA,A,3,32,29,26,10,28,18,31,25,16,27,,,1.44,0.63,1.30*11
$GNGSA,A,3,69,82,70,80,73,71,,,,,,,1.44,0.63,1.30*12
$GPGSV,4,1,16,10,23,346,11,16,25,262,35,18,29,060,32,23,07,025,10*7F
$GPGSV,4,2,16,25,06,138,21,26,30,230,33,27,27,323,26,28,37,171,43*7E
$GPGSV,4,3,16,29,30,143,36,31,22,199,31,32,79,342,40,36,52,277,39*77
$GPGSV,4,4,16,40,84,353,,41,58,082,,49,32,274,,50,10,089,*79
$GLGSV,3,1,09,69,34,359,19,70,51,260,22,71,16,220,16,73,14,215,19*6F
$GLGSV,3,2,09,80,13,162,30,82,24,120,26,83,43,060,22,84,18,001,*64
$GLGSV,3,3,09,,,,38*67
$GNGLL,0419.95026,S,05539.71619,E,111947.00,A,A*67
$GNRMC,111948.00,A,0419.95025,S,05539.71619,E,0.009,,260525,,,A*7D
$GNVTG,,T,,M,0.009,N,0.016,K,A*33
$GNGGA,111948.00,0419.95025,S,05539.71619,E,1,12,0.63,58.8,M,-47.6,M,,*45
$GNGSA,A,3,32,29,26,10,28,18,31,25,16,27,,,1.44,0.63,1.30*11
$GNGSA,A,3,69,82,70,80,73,71,,,,,,,1.44,0.63,1.30*12
$GPGSV,4,1,16,10,23,346,15,16,25,262,37,18,29,060,31,23,07,025,09*72
$GPGSV,4,2,16,25,06,138,21,26,30,230,34,27,27,323,32,28,37,171,43*7C
$GPGSV,4,3,16,29,30,143,35,31,22,199,33,32,79,342,37,36,52,277,36*79
$GPGSV,4,4,16,40,84,353,,41,58,082,,49,32,274,,50,10,089,*79
$GLGSV,3,1,09,69,34,359,20,70,51,260,25,71,16,220,18,73,14,215,21*67
$GLGSV,3,2,09,80,13,162,30,82,24,120,27,83,43,060,24,84,18,001,*63
$GLGSV,3,3,09,,,,37*68
$GNGLL,0419.95025,S,05539.71619,E,111948.00,A,A*6B
$GNRMC,111949.00,A,0419.95024,S,05539.71615,E,0.103,,260525,,,A*7A
$GNVTG,,T,,M,0.103,N,0.191,K,A*36
$GNGGA,111949.00,0419.95024,S,05539.71615,E,1,12,0.63,58.8,M,-47.6,M,,*49
$GNGSA,A,3,32,29,26,10,28,18,31,25,16,27,,,1.44,0.63,1.30*11
$GNGSA,A,3,69,82,70,80,73,71,,,,,,,1.44,0.63,1.30*12
$GPGSV,4,1,16,10,23,346,17,16,25,262,37,18,29,060,33,23,07,025,08*73
$GPGSV,4,2,16,25,06,138,23,26,30,230,33,27,27,323,34,28,37,171,44*78
$GPGSV,4,3,16,29,30,143,36,31,22,199,35,32,79,342,38,36,52,277,37*72
$GPGSV,4,4,16,40,84,353,,41,58,082,,49,32,274,,50,10,089,*79
$GLGSV,3,1,09,69,34,359,21,70,51,260,25,71,16,220,18,73,14,215,21*66
$GLGSV,3,2,09,80,13,162,28,82,24,120,25,83,43,060,24,84,18,001,*68
$GLGSV,3,3,09,,,,35*6A
$GNGLL,0419.95024,S,05539.71615,E,111949.00,A,A*67
$GLGSV,3,2,09,80,13,162,29,82,24,120,24,83,43,060,23,84,18,001,*6F
$GLGSV,3,3,09,,,,32*6D
$GNGLL,0419.95023,S,05539.71615,E,111950.00,A,A*68
$GNRMC,111951.00,A,0419.95023,S,05539.71614,E,0.025,,260525,,,A*70
$GNVTG,,T,,M,0.025,N,0.045,K,A*3B
$GNGGA,111951.00,0419.95023,S,05539.71614,E,1,12,0.63,58.6,M,-47.6,M,,*48
$GNGSA,A,3,32,29,26,10,28,18,31,25,16,27,,,1.44,0.63,1.30*11
$GNGSA,A,3,69,82,70,80,73,71,,,,,,,1.44,0.63,1.30*12
$GPGSV,4,1,16,10,23,346,18,16,25,262,38,18,29,060,33,23,07,025,08*73
$GPGSV,4,2,16,25,06,138,23,26,30,230,33,27,27,323,33,28,37,171,43*78
$GPGSV,4,3,16,29,30,143,31,31,22,199,33,32,79,342,41,36,52,277,37*7D
$GPGSV,4,4,16,40,84,353,,41,58,082,,49,32,274,,50,10,089,*79
$GLGSV,3,1,09,69,34,359,27,70,51,260,24,71,16,220,20,73,14,215,21*6A
$GLGSV,3,2,09,80,13,162,32,82,24,120,25,83,43,060,26,84,18,001,*61
$GLGSV,3,3,09,,,,33*6C
$GNGLL,0419.95023,S,05539.71614,E,111951.00,A,A*68
$GNRMC,111952.00,A,0419.95028,S,05539.71612,E,0.051,,260525,,,A*7D
$GNVTG,,T,,M,0.051,N,0.094,K,A*34
$GNGGA,111952.00,0419.95028,S,05539.71612,E,1,12,0.63,58.7,M,-47.6,M,,*47
$GNGSA,A,3,32,29,26,10,28,18,31,25,16,27,,,1.44,0.63,1.30*11
$GNGSA,A,3,69,82,70,80,73,71,,,,,,,1.44,0.63,1.30*12
$GPGSV,4,1,16,10,23,346,18,16,25,262,38,18,29,060,33,23,07,025,08*73
$GPGSV,4,2,16,25,06,138,24,26,30,230,33,27,27,323,33,28,37,171,43*7F
$GPGSV,4,3,16,29,30,143,31,31,22,199,33,32,79,342,40,36,52,277,36*7D
$GPGSV,4,4,16,40,84,353,38,41,58,082,,49,32,274,,50,10,089,*72
$GLGSV,3,1,09,69,34,359,28,70,51,260,23,71,16,220,19,73,14,215,21*68
$GLGSV,3,2,09,80,13,162,33,82,24,120,27,83,43,060,26,84,18,001,*62
$GLGSV,3,3,09,,,,33*6C
$GNGLL,0419.95028,S,05539.71612,E,111952.00,A,A*66
$GPGSV,4,2,16,25,06,138,25,26,30,230,33,27,27,323,33,28,37,171,43*7E
$GPGSV,4,3,16,29,30,143,30,31,22,199,32,32,79,342,40,36,52,277,37*7C
$GPGSV,4,4,16,40,84,353,39,41,58,082,,49,32,274,,50,10,089,*73
$GLGSV,3,1,09,69,34,359,28,70,51,260,22,71,16,220,19,73,14,215,21*69
$GLGSV,3,2,09,80,13,162,33,82,24,120,26,83,43,060,24,84,18,001,*61
$GLGSV,3,3,09,,,,33*6C
$GNGLL,0419.95029,S,05539.71612,E,111953.00,A,A*66
$GNRMC,111954.00,A,0419.95030,S,05539.71612,E,0.030,,260525,,,A*75
$GNVTG,,T,,M,0.030,N,0.056,K,A*3D
$GNGGA,111954.00,0419.95030,S,05539.71612,E,1,12,0.61,58.8,M,-47.6,M,,*45
$GNGSA,A,3,32,29,26,10,28,18,31,25,16,27,,,1.41,0.61,1.27*10
$GNGSA,A,3,69,82,70,80,73,71,,,,,,,1.41,0.61,1.27*13
$GPGSV,4,1,16,10,23,346,16,16,25,262,38,18,29,060,31,23,07,025,08*7F
$GPGSV,4,2,16,25,06,138,26,26,30,230,34,27,27,323,33,28,37,171,43*7A
$GPGSV,4,3,16,29,30,143,32,31,22,199,35,32,79,342,40,36,52,277,37*79
$GPGSV,4,4,16,40,84,353,38,41,58,082,,49,32,274,,50,10,089,*72
$GLGSV,3,1,09,69,34,359,27,70,51,260,21,71,16,220,17,73,14,215,19*60
$GLGSV,3,2,09,80,13,162,33,82,24,120,27,83,43,060,23,84,18,001,*67
$GLGSV,3,3,09,,,,34*6B
$GNGLL,0419.95030,S,05539.71612,E,111954.00,A,A*69
$GNRMC,111955.00,A,0419.95030,S,05539.71612,E,0.026,,260525,,,A*73
$GNVTG,,T,,M,0.026,N,0.048,K,A*35
$GNGGA,111955.00,0419.95030,S,05539.71612,E,1,12,0.61,58.8,M,-47.6,M,,*44
$GNGSA,A,3,32,29,26,10,28,18,31,25,16,27,,,1.41,0.61,1.27*10
$GNGSA,A,3,69,82,70,80,73,71,,,,,,,1.41,0.61,1.27*13
$GPGSV,4,1,16,10,23,346,18,16,25,262,37,18,29,060,32,23,07,025,08*7D
$GPGSV,4,2,16,25,06,138,27,26,30,230,36,27,27,323,32,28,37,171,44*7F
$GPGSV,4,3,16,29,30,143,33,31,22,199,35,32,79,342,38,36,52,277,37*77
$GPGSV,4,4,16,40,84,353,35,41,58,082,,49,32,274,,50,10,089,*7F
$GLGSV,3,1,09,69,34,359,25,70,51,260,23,71,16,220,19,73,14,215,19*6E
$GLGSV,3,2,09,80,13,162,32,82,24,120,28,83,43,060,25,84,18,001,*6F
$GLGSV,3,3,09,,,,34*6B
$GNGLL,0419.95030,S,05539.71612,E,111955.00,A,A*68
$GNRMC,111956.00,A,0419.95030,S,05539.71612,E,0.051,,260525,,,A*70
$GNVTG,,T,,M,0.051,N,0.094,K,A*34
$GNGGA,111956.00,0419.95030,S,05539.71612,E,1,12,0.61,58.9,M,-47.6,M,,*46
$GNGSA,A,3,32,29,26,10,28,18,31,25,16,27,,,1.41,0.61,1.27*10
$GNGSA,A,3,69,82,70,80,73,71,,,,,,,1.41,0.61,1.27*13
$GPGSV,4,1,16,10,23,346,19,16,25,262,38,18,29,060,31,23,07,025,11*78
$GPGSV,4,2,16,25,06,138,26,26,30,230,35,27,27,323,31,28,37,171,43*79
$GPGSV,4,3,16,29,30,143,33,31,22,199,36,32,79,342,36,36,52,277,38*75
$GPGSV,4,4,16,40,84,353,35,41,58,082,,49,32,274,,50,10,089,*7F
$GLGSV,3,1,09,69,34,359,23,70,51,260,24,71,16,220,20,73,14,215,19*65
$GLGSV,3,2,09,80,13,162,33,82,24,120,28,83,43,060,25,84,18,001,*6E
$GLGSV,3,3,09,,,,34*6B
$GNGLL,0419.95030,S,05539.71612,E,111956.00,A,A*6B
$GNRMC,111957.00,A,0419.95031,S,05539.71615,E,0.053,,260525,,,A*75
$GNVTG,,T,,M,0.053,N,0.098,K,A*3A
$GNGGA,111957.00,0419.95031,S,05539.71615,E,1,12,0.57,58.9,M,-47.6,M,,*44
$GNGSA,A,3,32,29,26,10,28,18,31,23,25,16,27,,1.29,0.57,1.15*1B
$GNGSA,A,3,69,82,70,80,73,71,,,,,,,1.29,0.57,1.15*19
$GPGSV,4,1,16,10,23,346,19,16,25,262,35,18,29,060,32,23,07,025,11*76
$GPGSV,4,2,16,25,06,138,24,26,30,230,34,27,27,323,30,28,37,171,44*7C
$GPGSV,4,3,16,29,30,143,33,31,22,199,36,32,79,342,36,36,52,277,39*74
$GPGSV,4,4,16,40,84,353,34,41,58,082,,49,32,274,,50,10,089,*7E
$GLGSV,3,1,09,69,34,359,24,70,51,260,25,71,16,220,21,73,14,215,18*63
$GLGSV,3,2,09,80,13,162,33,82,24,120,18,83,43,060,27,84,18,001,*6F
$GLGSV,3,3,09,,,,38*67
$GNGLL,0419.95031,S,05539.71615,E,111957.00,A,A*6C
$GNRMC,111958.00,A,0419.95032,S,05539.71618,E,0.011,,260525,,,A*72
$GNVTG,,T,,M,0.011,N,0.021,K,A*3E
$GNGGA,111958.00,0419.95032,S,05539.71618,E,1,12,0.61,58.9,M,-47.6,M,,*40
$GNGSA,A,3,32,29,26,10,28,18,31,23,25,16,27,,1.41,0.61,1.27*11
$GNGSA,A,3,69,82,70,80,73,71,,,,,,,1.41,0.61,1.27*13
$GPGSV,4,1,16,10,23,346,20,16,25,262,36,18,29,060,35,23,07,025,11*78
$GPGSV,4,2,16,25,06,138,22,26,30,230,34,27,27,323,32,28,37,171,43*7F
$GPGSV,4,3,16,29,30,143,32,31,22,199,34,32,79,342,36,36,52,277,36*78
$GPGSV,4,4,16,40,84,353,35,41,58,082,,49,32,274,,50,10,089,*7F
$GLGSV,3,1,09,69,34,359,27,70,51,260,26,71,16,220,23,73,14,215,21*6B
$GLGSV,3,2,09,80,13,162,33,82,24,120,22,83,43,060,24,84,18,001,*65
$GLGSV,3,3,09,,,,34*6B
$GNGLL,0419.95032,S,05539.71618,E,111958.00,A,A*6D
$GNRMC,111959.00,A,0419.95033,S,05539.71618,E,0.073,,260525,,,A*76
$GNVTG,,T,,M,0.073,N,0.136,K,A*3D
$GNGGA,111959.00,0419.95033,S,05539.71618,E,1,12,0.61,58.9,M,-47.6,M,,*40
$GNGSA,A,3,32,29,26,10,28,18,31,23,25,16,27,,1.41,0.61,1.27*11
$GNGSA,A,3,69,82,70,80,73,71,,,,,,,1.41,0.61,1.27*13
$GPGSV,4,1,16,10,23,346,22,16,25,262,37,18,29,060,31,23,07,025,11*7F
$GPGSV,4,2,16,25,06,138,21,26,30,230,34,27,27,323,34,28,37,171,44*7D
$GPGSV,4,3,16,29,30,143,37,31,22,199,36,32,79,342,37,36,52,277,37*7F
$GPGSV,4,4,16,40,84,353,34,41,58,082,,49,32,274,,50,10,089,*7E
$GLGSV,3,1,09,69,34,359,27,70,51,260,27,71,16,220,22,73,14,215,20*6A
$GLGSV,3,2,09,80,13,162,34,82,24,120,30,83,43,060,22,84,18,001,*67
$GLGSV,3,3,09,,,,35*6A
$GNGLL,0419.95033,S,05539.71618,E,111959.00,A,A*6D
$GNRMC,112000.00,A,0419.95032,S,05539.71621,E,0.062,,260525,,,A*7B
$GNVTG,,T,,M,0.062,N,0.115,K,A*3C
$GNGGA,112000.00,0419.95032,S,05539.71621,E,1,12,0.64,58.9,M,-47.6,M,,*48
$GNGSA,A,3,32,29,26,10,28,18,31,23,25,16,27,,1.46,0.64,1.32*17
$GNGSA,A,3,69,82,70,80,73,71,,,,,,,1.46,0.64,1.32*15
$GPGSV,4,1,16,10,23,346,22,16,25,262,37,18,29,060,30,23,07,025,11*7E
$GPGSV,4,2,16,25,06,138,20,26,30,230,34,27,27,323,33,28,37,171,44*7B
$GPGSV,4,3,16,29,30,143,36,31,22,199,35,32,79,342,37,36,52,277,37*7D
$GPGSV,4,4,16,40,84,353,34,41,58,082,,49,32,274,,50,10,089,*7E
$GLGSV,3,1,09,69,34,359,27,70,51,260,27,71,16,220,22,73,14,215,21*6B
$GLGSV,3,2,09,80,13,162,32,82,24,120,30,83,43,060,20,84,18,001,*63
$GLGSV,3,3,09,,,,35*6A
$GNGLL,0419.95032,S,05539.71621,E,112000.00,A,A*60
$GNRMC,112001.00,A,0419.95030,S,05539.71624,E,0.033,,260525,,,A*79
$GNVTG,,T,,M,0.033,N,0.061,K,A*3A
$GNGGA,112001.00,0419.95030,S,05539.71624,E,1,12,0.64,58.8,M,-47.6,M,,*4F
$GNGSA,A,3,32,29,26,10,28,18,31,23,25,16,27,,1.46,0.64,1.32*17
$GNGSA,A,3,69,82,70,80,73,71,,,,,,,1.46,0.64,1.32*15
$GPGSV,4,1,16,10,23,346,21,16,25,262,37,18,29,060,29,23,07,025,11*75
$GPGSV,4,2,16,25,06,138,20,26,30,230,34,27,27,323,33,28,37,171,43*7C
$GPGSV,4,3,16,29,30,143,35,31,22,199,35,32,79,342,38,36,52,277,36*70
$GPGSV,4,4,16,40,84,353,35,41,58,082,,49,32,274,,50,10,089,*7F
$GLGSV,3,1,09,69,34,359,26,70,51,261,27,71,16,220,22,73,14,215,20*6A
$GLGSV,3,2,09,80,13,162,33,82,24,120,30,83,43,060,19,84,18,001,*68
$GLGSV,3,3,09,,,,35*6A
$GNGLL,0419.95030,S,05539.71624,E,112001.00,A,A*66
$GNRMC,112003.00,A,0419.95023,S,05539.71632,E,0.022,,260525,,,A*7E
$GNVTG,,T,,M,0.022,N,0.042,K,A*3B
$GNGGA,112003.00,0419.95023,S,05539.71632,E,1,12,0.59,58.5,M,-47.6,M,,*4B
$GNGSA,A,3,32,29,26,10,28,18,31,23,25,16,27,,1.31,0.59,1.17*1E
$GNGSA,A,3,69,82,70,80,73,71,,,,,,,1.31,0.59,1.17*1C
$GPGSV,4,1,16,10,23,346,20,16,25,262,35,18,29,060,28,23,07,025,13*75
$GPGSV,4,2,16,25,06,138,20,26,30,230,36,27,27,323,27,28,37,171,43*7B
$GPGSV,4,3,16,29,30,143,37,31,22,199,32,32,79,342,41,36,52,277,37*7A
$GPGSV,4,4,16,40,84,353,37,41,58,082,,49,32,274,,50,10,089,*7D
$GLGSV,3,1,09,69,34,359,25,70,51,261,24,71,17,220,25,73,14,215,18*67
$GLGSV,3,2,09,80,13,162,32,82,24,120,30,83,43,060,22,84,18,001,*61
$GLGSV,3,3,09,,,,36*69
$GNGLL,0419.95023,S,05539.71632,E,112003.00,A,A*61
$GNRMC,112004.00,A,0419.95021,S,05539.71636,E,0.032,,260525,,,A*7E
$GNVTG,,T,,M,0.032,N,0.060,K,A*3A
$GNGGA,112004.00,0419.95021,S,05539.71636,E,1,12,0.64,58.4,M,-47.6,M,,*45
$GNGSA,A,3,32,29,26,10,28,18,31,23,25,16,27,,1.46,0.64,1.32*17
$GNGSA,A,3,69,82,70,80,73,71,,,,,,,1.46,0.64,1.32*15
$GPGSV,4,1,16,10,23,346,20,16,25,262,36,18,29,060,29,23,07,025,09*7C
$GPGSV,4,2,16,25,06,138,20,26,30,230,34,27,27,323,29,28,37,171,43*77
$GPGSV,4,3,16,29,30,143,35,31,22,199,33,32,79,342,41,36,52,277,38*76
$GPGSV,4,4,16,40,84,353,37,41,58,082,,49,32,274,,50,10,089,*7D
$GLGSV,3,1,09,69,34,359,24,70,51,261,24,71,17,220,25,73,14,214,19*66
$GLGSV,3,2,09,80,13,162,35,82,24,120,30,83,43,060,21,84,18,001,*65
$GLGSV,3,3,09,,,,35*6A
$GNGLL,0419.95021,S,05539.71636,E,112004.00,A,A*60
$GNVTG,,T,,M,0.024,N,0.045,K,A*3A
$GNGGA,112008.00,0419.95012,S,05539.71644,E,1,12,0.64,58.0,M,-47.6,M,,*48
$GNGSA,A,3,32,29,26,10,28,18,31,23,25,16,27,,1.46,0.64,1.32*17
$GNGSA,A,3,69,82,70,80,73,71,,,,,,,1.46,0.64,1.32*15
$GPGSV,4,1,16,10,23,346,21,16,25,262,36,18,29,060,30,23,07,025,11*7C
$GPGSV,4,2,16,25,06,138,22,26,30,230,34,27,27,323,32,28,37,171,44*78
$GPGSV,4,3,16,29,30,143,37,31,22,199,32,32,79,342,42,36,52,277,37*79
$GPGSV,4,4,16,40,84,353,38,41,58,082,,49,32,274,,50,10,089,*72
$GLGSV,3,1,09,69,34,359,22,70,51,261,24,71,17,220,23,73,14,214,21*6D
$GLGSV,3,2,09,80,13,162,34,82,24,120,26,83,43,060,23,84,18,001,*61
$GLGSV,3,3,09,,,,34*6B
$GNGLL,0419.95012,S,05539.71644,E,112008.00,A,A*69
$GNRMC,112009.00,A,0419.95009,S,05539.71647,E,0.032,,260525,,,A*7F
$GNVTG,,T,,M,0.032,N,0.060,K,A*3A
$GNGGA,112009.00,0419.95009,S,05539.71647,E,1,12,0.59,57.9,M,-47.6,M,,*48
$GNGSA,A,3,32,29,26,10,28,18,31,23,25,16,27,,1.31,0.59,1.17*1E
$GNGSA,A,3,69,82,70,80,73,71,,,,,,,1.31,0.59,1.17*1C
$GPGSV,4,1,16,10,23,346,21,16,25,262,35,18,29,060,29,23,07,025,13*75
$GPGSV,4,2,16,25,06,138,23,26,30,230,34,27,27,323,32,28,37,171,44*79
$GPGSV,4,3,16,29,30,143,37,31,22,199,34,32,79,342,40,36,52,277,36*7C
$GPGSV,4,4,16,40,84,353,38,41,58,082,,49,32,274,,50,10,089,*72
$GLGSV,3,1,09,69,34,359,22,70,51,261,24,71,17,220,24,73,14,214,20*6B
$GLGSV,3,2,09,80,13,162,33,82,24,120,25,83,43,060,23,84,18,001,*65
$GLGSV,3,3,09,,,,34*6B
$GNGLL,0419.95009,S,05539.71647,E,112009.00,A,A*61
$GNRMC,112010.00,A,0419.95008,S,05539.71648,E,0.006,,260525,,,A*7E
$GNVTG,,T,,M,0.006,N,0.012,K,A*38
$GNGGA,112010.00,0419.95008,S,05539.71648,E,1,12,0.64,57.8,M,-47.6,M,,*41
$GNGSA,A,3,32,29,26,10,28,18,31,23,25,16,27,,1.46,0.64,1.32*17
$GNGSA,A,3,69,82,70,80,73,71,,,,,,,1.46,0.64,1.32*15
$GPGSV,4,1,16,10,23,346,21,16,25,262,37,18,29,060,30,23,07,025,12*7E
$GPGSV,4,2,16,25,06,138,26,26,30,230,35,27,27,323,32,28,37,171,44*7D
$GPGSV,4,3,16,29,30,143,39,31,22,199,34,32,79,342,39,36,52,277,37*7D
$GPGSV,4,4,16,40,84,353,38,41,58,082,,49,32,274,,50,10,089,*72
$GLGSV,3,1,09,69,34,359,22,70,51,261,25,71,17,220,25,73,14,214,20*6B
$GLGSV,3,2,09,80,13,162,33,82,24,120,27,83,43,060,23,84,18,001,*67
$GLGSV,3,3,09,,,,38*67
$GNGLL,0419.95008,S,05539.71648,E,112010.00,A,A*67
$GNRMC,112011.00,A,0419.95006,S,05539.71650,E,0.020,,260525,,,A*7C
$GNVTG,,T,,M,0.020,N,0.036,K,A*3A
$GNGGA,112011.00,0419.95006,S,05539.71650,E,1,12,0.61,57.8,M,-47.6,M,,*42
$GNGSA,A,3,32,29,26,10,28,18,31,23,25,16,27,,1.41,0.61,1.27*11
$GNGSA,A,3,69,82,70,80,73,71,,,,,,,1.41,0.61,1.27*13
$GPGSV,4,1,16,10,23,346,20,16,25,262,37,18,29,060,30,23,07,025,11*7C
$GPGSV,4,2,16,25,06,138,23,26,30,230,36,27,27,323,32,28,37,171,44*7B
$GPGSV,4,3,16,29,30,143,36,31,22,199,33,32,79,342,40,36,52,277,38*74
$GPGSV,4,4,16,40,84,353,40,41,58,082,,49,32,274,,50,10,089,*7D
$GLGSV,3,1,09,69,34,359,22,70,51,261,24,71,17,220,26,73,14,214,18*62
$GLGSV,3,2,09,80,13,161,32,82,24,120,32,83,43,060,25,84,18,001,*67
$GLGSV,3,3,09,,,,36*69
$GNGLL,0419.95006,S,05539.71650,E,112011.00,A,A*61
$GNRMC,112018.00,A,0419.95003,S,05539.71650,E,0.052,,260525,,,A*75
$GNVTG,,T,,M,0.052,N,0.096,K,A*35
$GNGGA,112018.00,0419.95003,S,05539.71650,E,1,12,0.61,57.8,M,-47.6,M,,*4E
$GNGSA,A,3,32,29,26,10,28,18,31,25,16,27,,,1.41,0.61,1.27*10
$GNGSA,A,3,69,82,70,80,73,71,,,,,,,1.41,0.61,1.27*13
$GPGSV,4,1,16,10,23,346,22,16,25,262,36,18,29,060,32,23,07,025,16*7A
$GPGSV,4,2,16,25,06,138,22,26,30,230,36,27,27,323,31,28,37,171,43*7E
$GPGSV,4,3,16,29,30,143,33,31,22,199,35,32,79,342,37,36,52,277,38*77
$GPGSV,4,4,16,40,84,353,33,41,58,082,,49,32,274,,50,10,089,*79
$GLGSV,3,1,09,69,34,359,21,70,51,261,24,71,17,220,24,73,14,214,21*69
$GLGSV,3,2,09,80,13,161,31,82,24,120,27,83,43,061,24,84,18,001,*60
$GLGSV,3,3,09,,,,33*6C
$GNGLL,0419.95003,S,05539.71650,E,112018.00,A,A*6D
$GNRMC,112019.00,A,0419.95001,S,05539.71651,E,0.038,,260525,,,A*7B
$GNVTG,,T,,M,0.038,N,0.070,K,A*31
$GNGGA,112019.00,0419.95001,S,05539.71651,E,1,12,0.61,57.7,M,-47.6,M,,*43
$GNGSA,A,3,32,29,26,10,28,18,31,25,16,27,,,1.41,0.61,1.27*10
$GNGSA,A,3,69,82,70,80,73,71,,,,,,,1.41,0.61,1.27*13
$GPGSV,4,1,16,10,23,346,20,16,25,262,35,18,29,061,35,23,07,025,16*7D
$GPGSV,4,2,16,25,06,138,22,26,30,230,34,27,27,323,32,28,37,171,43*7F
$GPGSV,4,3,16,29,30,143,34,31,22,199,34,32,79,342,38,36,52,277,37*71
$GPGSV,4,4,16,40,84,353,32,41,58,082,,49,32,274,,50,10,089,*78
$GLGSV,3,1,09,69,34,359,28,70,51,261,22,71,17,220,22,73,14,214,21*60
$GLGSV,3,2,09,80,13,161,31,82,24,120,28,83,43,061,26,84,18,001,*6D
$GLGSV,3,3,09,,,,33*6C
$GNGLL,0419.95001,S,05539.71651,E,112019.00,A,A*6F
$GNRMC,112021.00,A,0419.95002,S,05539.71650,E,0.051,,260525,,,A*7D
$GNVTG,,T,,M,0.051,N,0.095,K,A*35
$GNGGA,112021.00,0419.95002,S,05539.71650,E,1,12,0.57,57.8,M,-47.6,M,,*40
$GNGSA,A,3,32,29,26,10,28,18,31,23,25,16,27,,1.29,0.57,1.15*1B
$GNGSA,A,3,69,82,70,80,73,71,,,,,,,1.29,0.57,1.15*19
$GPGSV,4,1,16,10,23,346,23,16,25,262,36,18,29,061,36,23,07,025,16*7E
$GPGSV,4,2,16,25,06,138,25,26,30,230,33,27,27,323,33,28,37,171,43*7E
$GPGSV,4,3,16,29,30,143,35,31,22,199,34,32,79,342,39,36,52,277,36*70
$GPGSV,4,4,16,40,84,353,35,41,58,082,,49,32,274,,50,10,089,*7F
$GLGSV,3,1,09,69,34,359,26,70,51,261,23,71,17,220,22,73,14,214,18*65
$GLGSV,3,2,09,80,13,161,34,82,24,120,28,83,43,061,28,84,18,001,*66
$GLGSV,3,3,09,,,,37*68
$GNGLL,0419.95002,S,05539.71650,E,112021.00,A,A*66
$GNRMC,112022.00,A,0419.95004,S,05539.71648,E,0.056,,260525,,,A*76
$GNVTG,,T,,M,0.056,N,0.104,K,A*3B
$GNGGA,112022.00,0419.95004,S,05539.71648,E,1,12,0.61,57.8,M,-47.6,M,,*49
$GNGSA,A,3,32,29,26,10,28,18,31,23,25,16,27,,1.41,0.61,1.27*11
$GNGSA,A,3,69,82,70,80,73,71,,,,,,,1.41,0.61,1.27*13
$GPGSV,4,1,16,10,23,346,25,16,25,262,35,18,29,061,36,23,07,025,16*7B
$GPGSV,4,2,16,25,06,138,27,26,30,230,33,27,27,323,32,28,37,171,43*7D
$GPGSV,4,3,16,29,30,143,37,31,22,199,35,32,79,342,38,36,52,277,36*72
$GPGSV,4,4,16,40,84,353,33,41,58,082,,49,32,274,,50,10,089,*79
$GLGSV,3,1,09,69,34,359,25,70,51,261,23,71,17,220,22,73,14,214,19*67
$GLGSV,3,2,09,80,13,161,32,82,24,120,27,83,43,061,20,84,18,001,*67
$GLGSV,3,3,09,,,,36*69
$GNGLL,0419.95004,S,05539.71648,E,112022.00,A,A*6A
$GNRMC,112023.00,A,0419.95005,S,05539.71648,E,0.035,,260525,,,A*73
$GNVTG,,T,,M,0.035,N,0.065,K,A*38
$GNGGA,112023.00,0419.95005,S,05539.71648,E,1,12,0.61,57.8,M,-47.6,M,,*49
$GNGSA,A,3,32,29,26,10,28,18,31,23,25,16,27,,1.41,0.61,1.27*11
$GNGSA,A,3,69,82,70,80,73,71,,,,,,,1.41,0.61,1.27*13
$GPGSV,4,1,16,10,23,346,24,16,25,262,35,18,29,061,36,23,07,025,16*7A
$GPGSV,4,2,16,25,06,138,28,26,30,230,29,27,27,323,31,28,37,171,44*7D
$GPGSV,4,3,16,29,30,143,32,31,22,199,36,32,79,342,40,36,52,277,36*7B
$GPGSV,4,4,16,40,84,353,35,41,58,082,,49,32,274,,50,10,089,*7F
$GLGSV,3,1,09,69,34,359,23,70,51,261,25,71,17,220,22,73,14,214,19*67
$GLGSV,3,2,09,80,13,161,27,82,24,120,26,83,43,061,29,84,18,001,*6B
$GLGSV,3,3,09,,,,37*68
$GNGLL,0419.95005,S,05539.71648,E,112023.00,A,A*6A
$GNRMC,112024.00,A,0419.95008,S,05539.71648,E,0.085,,260525,,,A*72
$GNVTG,,T,,M,0.085,N,0.157,K,A*33
$GNGGA,112024.00,0419.95008,S,05539.71648,E,1,12,0.61,57.7,M,-47.6,M,,*4C
$GNGSA,A,3,32,29,26,10,28,18,31,25,16,27,,,1.41,0.61,1.27*10
$GNGSA,A,3,69,82,70,80,73,71,,,,,,,1.41,0.61,1.27*13
$GPGSV,4,1,16,10,23,346,24,16,25,262,35,18,29,061,36,23,07,025,16*7A
$GPGSV,4,2,16,25,06,138,26,26,30,230,33,27,27,323,29,28,37,171,41*74
$GPGSV,4,3,16,29,30,143,37,31,22,199,32,32,79,342,39,36,52,277,34*76
$GPGSV,4,4,16,40,84,353,34,41,58,082,,49,32,274,,50,10,089,*7E
$GLGSV,3,1,09,69,34,359,21,70,51,261,24,71,17,220,20,73,14,214,19*66
$GLGSV,3,2,09,80,13,161,32,82,24,120,27,83,43,061,29,84,18,001,*6E
$GLGSV,3,3,09,,,,33*6C
$GNGLL,0419.95008,S,05539.71648,E,112024.00,A,A*60
$GNRMC,112025.00,A,0419.95008,S,05539.71650,E,0.021,,260525,,,A*74
$GNVTG,,T,,M,0.021,N,0.039,K,A*34
$GNGGA,112025.00,0419.95008,S,05539.71650,E,1,12,0.61,57.6,M,-47.6,M,,*45
$GNGSA,A,3,32,29,26,10,28,18,31,25,16,27,,,1.41,0.61,1.27*10
$GNGSA,A,3,69,82,70,80,73,71,,,,,,,1.41,0.61,1.27*13
$GPGSV,4,1,16,10,23,346,23,16,25,262,27,18,29,061,32,23,07,025,16*7A
$GPGSV,4,2,16,25,06,138,23,26,30,230,33,27,27,323,28,28,37,171,43*72
$GPGSV,4,3,16,29,30,143,38,31,22,199,35,32,79,342,34,36,52,277,30*77
$GPGSV,4,4,16,40,84,353,31,41,58,082,,49,32,274,,50,10,089,*7B
$GLGSV,3,1,09,69,34,359,22,70,51,261,22,71,17,220,17,73,14,214,19*67
$GLGSV,3,2,09,80,13,161,34,82,24,120,26,83,43,061,27,84,18,001,*67
$GLGSV,3,3,09,,,,28*66
$GNGLL,0419.95008,S,05539.71650,E,112025.00,A,A*68
$GNRMC,112027.00,A,0419.95008,S,05539.71648,E,0.013,,260525,,,A*7E
$GNVTG,,T,,M,0.013,N,0.025,K,A*38
$GNGGA,112027.00,0419.95008,S,05539.71648,E,1,12,0.61,57.5,M,-47.6,M,,*4D
$GNGSA,A,3,32,29,26,10,28,18,31,23,25,16,27,,1.41,0.61,1.27*11
$GNGSA,A,3,69,82,70,80,73,71,,,,,,,1.41,0.61,1.27*13
$GPGSV,4,1,16,10,23,346,21,16,25,262,26,18,29,061,35,23,07,025,14*7C
$GPGSV,4,2,16,25,06,138,24,26,30,230,32,27,27,323,21,28,37,171,44*7A
$GPGSV,4,3,16,29,30,143,37,31,22,199,35,32,79,342,37,36,52,277,33*78
$GPGSV,4,4,16,40,84,353,37,41,58,082,,49,32,274,,50,10,089,*7D
$GLGSV,3,1,09,69,34,359,18,70,51,261,15,71,17,220,15,73,14,214,18*69
$GLGSV,3,2,09,80,13,161,30,82,24,120,24,83,43,061,28,84,18,001,*6E
$GLGSV,3,3,09,,,,32*6D
$GNGLL,0419.95008,S,05539.71648,E,112027.00,A,A*63
$GNRMC,112030.00,A,0419.95000,S,05539.71657,E,0.053,,260525,,,A*7A
$GNVTG,,T,,M,0.053,N,0.099,K,A*3B
$GNGGA,112030.00,0419.95000,S,05539.71657,E,1,12,0.65,57.3,M,-47.6,M,,*4F
$GNGSA,A,3,32,29,26,10,28,18,31,25,16,,,,1.45,0.65,1.30*13
$GNGSA,A,3,69,82,70,80,73,71,,,,,,,1.45,0.65,1.30*15
$GPGSV,4,1,16,10,23,347,18,16,25,262,22,18,29,061,23,23,07,025,*71
$GPGSV,4,2,16,25,06,138,21,26,30,230,26,27,27,323,18,28,37,171,35*76
$GPGSV,4,3,16,29,30,143,17,31,22,199,27,32,79,342,24,36,52,277,*7B
$GPGSV,4,4,16,40,84,353,,41,58,082,,49,32,274,,50,10,089,*79
$GLGSV,3,1,09,69,34,359,15,70,51,261,14,71,17,220,16,73,14,214,16*68
$GLGSV,3,2,09,80,13,161,29,82,24,120,20,83,43,061,18,84,18,001,*61
$GLGSV,3,3,09,,,,31*6E
$GNGLL,0419.95000,S,05539.71657,E,112030.00,A,A*63
$GNRMC,112032.00,A,0419.94982,S,05539.71668,E,0.518,,260525,,,A*7C
$GNVTG,,T,,M,0.518,N,0.959,K,A*34
$GNGGA,112032.00,0419.94982,S,05539.71668,E,1,12,0.79,57.7,M,-47.6,M,,*4A
$GNGSA,A,3,32,29,26,28,18,31,25,16,,,,,1.68,0.79,1.48*1F
$GNGSA,A,3,69,82,70,80,73,71,,,,,,,1.68,0.79,1.48*18
$GPGSV,4,1,16,10,23,347,,16,25,262,21,18,29,061,23,23,07,025,*7B
$GPGSV,4,2,16,25,06,138,18,26,30,230,26,27,27,323,19,28,37,171,34*7C
$GPGSV,4,3,16,29,30,143,30,31,22,199,26,32,79,342,22,36,52,277,*79
$GPGSV,4,4,16,40,84,353,,41,58,082,,49,32,274,,50,10,089,*79
$GLGSV,3,1,09,69,34,359,16,70,51,261,15,71,17,220,15,73,14,214,16*69
$GLGSV,3,2,09,80,13,161,25,82,24,120,15,83,43,061,16,84,18,001,*65
$GLGSV,3,3,09,,,,26*68
$GNGLL,0419.94982,S,05539.71668,E,112032.00,A,A*6F
$GNRMC,112034.00,A,0419.94977,S,05539.71674,E,0.404,,260525,,,A*71
$GNVTG,,T,,M,0.404,N,0.749,K,A*37
$GNGGA,112034.00,0419.94977,S,05539.71674,E,1,12,0.70,57.0,M,-47.6,M,,*45
$GNGSA,A,3,32,29,26,28,18,31,25,16,27,,,,1.56,0.70,1.40*16
$GNGSA,A,3,69,82,70,80,73,71,,,,,,,1.56,0.70,1.40*14
$GPGSV,4,1,16,10,23,347,,16,25,262,21,18,29,061,22,23,07,025,*7A
$GPGSV,4,2,16,25,06,138,15,26,30,230,24,27,27,323,17,28,37,171,31*78
$GPGSV,4,3,16,29,30,143,27,31,22,199,24,32,79,342,22,36,52,277,*7D
$GPGSV,4,4,16,40,84,353,,41,58,082,,49,32,274,,50,10,089,*79
$GLGSV,3,1,09,69,34,359,15,70,51,261,15,71,17,220,13,73,14,214,17*6D
$GLGSV,3,2,09,80,13,161,21,82,24,120,18,83,43,061,19,84,18,001,*63
$GLGSV,3,3,09,,,,21*6F
$GNGLL,0419.94977,S,05539.71674,E,112034.00,A,A*6E
$GNRMC,112036.00,A,0419.94983,S,05539.71676,E,0.102,,260525,,,A*79
$GNVTG,,T,,M,0.102,N,0.188,K,A*3F
$GNGGA,112036.00,0419.94983,S,05539.71676,E,1,12,0.70,56.9,M,-47.6,M,,*46
$GNGSA,A,3,32,29,26,28,18,31,25,16,27,,,,1.56,0.70,1.40*16
$GNGSA,A,3,69,82,70,80,73,71,,,,,,,1.56,0.70,1.40*14
$GPGSV,4,1,16,10,23,347,05,16,25,262,34,18,29,061,31,23,07,025,*79
$GPGSV,4,2,16,25,06,138,24,26,30,230,28,27,27,323,33,28,37,171,37*76
$GPGSV,4,3,16,29,30,143,35,31,22,199,27,32,79,342,38,36,52,277,36*73
$GPGSV,4,4,16,40,84,353,34,41,58,082,,49,32,274,,50,10,089,*7E
$GLGSV,3,1,09,69,34,359,16,70,51,261,21,71,17,220,17,73,14,214,19*63
$GLGSV,3,2,09,80,13,161,28,82,24,120,20,83,43,061,25,84,18,001,*6E
$GLGSV,3,3,09,,,,38*67
$GNGLL,0419.94983,S,05539.71676,E,112036.00,A,A*65
$GNRMC,112038.00,A,0419.94977,S,05539.71679,E,0.075,,260525,,,A*72
$GNVTG,,T,,M,0.075,N,0.139,K,A*34
$GNGGA,112038.00,0419.94977,S,05539.71679,E,1,12,0.70,56.9,M,-47.6,M,,*4C
$GNGSA,A,3,32,29,26,28,18,31,25,16,27,,,,1.56,0.70,1.40*16
$GNGSA,A,3,69,82,70,80,73,71,,,,,,,1.56,0.70,1.40*14
$GPGSV,4,1,16,10,23,347,13,16,25,262,34,18,29,061,22,23,07,025,*7C
$GPGSV,4,2,16,25,06,138,22,26,30,230,32,27,27,323,21,28,37,171,39*76
$GPGSV,4,3,16,29,30,143,33,31,22,199,26,32,79,342,30,36,52,277,28*73
$GPGSV,4,4,16,40,84,353,,41,58,082,,49,32,274,,50,10,089,*79
$GLGSV,3,1,09,69,34,359,17,70,51,261,20,71,17,220,13,73,14,214,19*67
$GLGSV,3,2,09,80,13,161,25,82,24,120,23,83,43,061,23,84,18,001,*66
$GLGSV,3,3,09,,,,36*69
$GNGLL,0419.94977,S,05539.71679,E,112038.00,A,A*6F
$GNRMC,112039.00,A,0419.94975,S,05539.71675,E,0.131,,260525,,,A*7C
$GNVTG,,T,,M,0.131,N,0.243,K,A*3B
$GNGGA,112039.00,0419.94975,S,05539.71675,E,1,12,0.70,56.9,M,-47.6,M,,*43
$GNGSA,A,3,32,29,26,28,18,31,25,16,27,,,,1.56,0.70,1.40*16
$GNGSA,A,3,69,82,70,80,73,71,,,,,,,1.56,0.70,1.40*14
$GPGSV,4,1,16,10,23,347,15,16,25,262,35,18,29,061,22,23,07,025,*7B
$GPGSV,4,2,16,25,06,138,20,26,30,230,28,27,27,323,30,28,37,171,40*71
$GPGSV,4,3,16,29,30,143,33,31,22,199,28,32,79,342,36,36,52,277,36*74
$GPGSV,4,4,16,40,84,353,,41,58,082,,49,32,274,,50,10,089,*79
$GLGSV,3,1,09,69,34,359,28,70,51,261,20,71,17,220,14,73,14,214,18*6D
$GLGSV,3,2,09,80,13,161,25,82,24,120,25,83,43,061,30,84,18,001,*62
$GLGSV,3,3,09,,,,38*67
$GNGLL,0419.94975,S,05539.71675,E,112039.00,A,A*60
$GNRMC,112040.00,A,0419.94976,S,05539.71670,E,0.133,,260525,,,A*76
$GNVTG,,T,,M,0.133,N,0.246,K,A*3C
$GNGGA,112040.00,0419.94976,S,05539.71670,E,1,12,0.67,56.8,M,-47.6,M,,*4C
$GNGSA,A,3,32,29,26,10,28,18,31,25,16,27,,,1.49,0.67,1.34*1C
$GNGSA,A,3,69,82,70,80,73,71,,,,,,,1.49,0.67,1.34*1F
$GPGSV,4,1,16,10,23,347,18,16,25,262,34,18,29,061,25,23,07,025,*70
$GPGSV,4,2,16,25,06,138,19,26,30,230,28,27,27,323,28,28,37,171,38*7D
$GPGSV,4,3,16,29,30,143,37,31,22,199,27,32,79,342,37,36,52,277,31*79
$GPGSV,4,4,16,40,84,353,,41,58,082,,49,32,274,,50,10,089,*79
$GLGSV,3,1,09,69,34,359,26,70,51,261,20,71,17,220,15,73,14,214,18*62
$GLGSV,3,2,09,80,13,161,25,82,24,120,24,83,43,061,24,84,18,001,*66
$GLGSV,3,3,09,,,,36*69
$GNGLL,0419.94976,S,05539.71670,E,112040.00,A,A*68
$GNRMC,112041.00,A,0419.94977,S,05539.71665,E,0.176,,260525,,,A*73
$GNVTG,,T,,M,0.176,N,0.326,K,A*3A
$GNGGA,112041.00,0419.94977,S,05539.71665,E,1,12,0.61,56.7,M,-47.6,M,,*41
$GNGSA,A,3,32,29,26,10,28,18,31,25,16,27,,,1.41,0.61,1.27*10
$GNGSA,A,3,69,82,70,80,73,71,,,,,,,1.41,0.61,1.27*13
$GPGSV,4,1,16,10,23,347,21,16,25,262,37,18,29,061,24,23,07,025,*78
$GPGSV,4,2,16,25,06,138,19,26,30,230,29,27,27,323,27,28,37,171,40*7C
$GPGSV,4,3,16,29,30,143,37,31,22,199,28,32,79,342,36,36,52,277,31*77
$GPGSV,4,4,16,40,84,353,,41,58,082,,49,32,274,,50,10,089,*79
$GLGSV,3,1,09,69,34,359,22,70,51,261,19,71,17,220,14,73,14,214,16*63
$GLGSV,3,2,09,80,13,161,24,82,24,120,22,83,43,061,22,84,18,001,*67
$GLGSV,3,3,09,,,,35*6A
$GNGLL,0419.94977,S,05539.71665,E,112041.00,A,A*6C
$GNRMC,112042.00,A,0419.94971,S,05539.71663,E,0.065,,260525,,,A*73
$GNVTG,,T,,M,0.065,N,0.120,K,A*3D
$GNGGA,112042.00,0419.94971,S,05539.71663,E,1,12,0.61,56.8,M,-47.6,M,,*4D
$GNGSA,A,3,32,29,26,10,28,18,31,25,16,27,,,1.41,0.61,1.27*10
$GNGSA,A,3,69,82,70,80,73,71,,,,,,,1.41,0.61,1.27*13
$GPGSV,4,1,16,10,23,347,20,16,25,262,37,18,29,061,30,23,07,025,*7C
$GPGSV,4,2,16,25,06,138,17,26,30,230,31,27,27,323,33,28,37,171,42*7C
$GPGSV,4,3,16,29,30,143,34,31,22,199,29,32,79,342,41,36,52,277,42*71
$GPGSV,4,4,16,40,84,353,,41,58,082,,49,32,274,,50,10,089,*79
$GLGSV,3,1,09,69,34,359,21,70,51,261,21,71,17,220,17,73,14,214,16*68
$GLGSV,3,2,09,80,13,161,25,82,24,120,23,83,43,061,24,84,18,001,*61
$GLGSV,3,3,09,,,,41*69
$GNGLL,0419.94971,S,05539.71663,E,112042.00,A,A*6F
$GNRMC,112044.00,A,0419.94964,S,05539.71661,E,0.006,,260525,,,A*76
$GNVTG,,T,,M,0.006,N,0.012,K,A*38
$GNGGA,112044.00,0419.94964,S,05539.71661,E,1,12,0.61,56.9,M,-47.6,M,,*4C
$GNGSA,A,3,32,29,26,10,28,18,31,25,16,27,,,1.41,0.61,1.27*10
$GNGSA,A,3,69,82,70,80,73,71,,,,,,,1.41,0.61,1.27*13
$GPGSV,4,1,16,10,23,347,16,16,25,262,35,18,29,061,20,23,07,025,*7A
$GPGSV,4,2,16,25,06,137,18,26,30,230,30,27,27,323,25,28,37,171,37*78
$GPGSV,4,3,16,29,30,143,33,31,22,199,28,32,79,342,31,36,52,277,34*71
$GPGSV,4,4,16,40,84,353,,41,58,082,,49,32,274,,50,10,089,*79
$GLGSV,3,1,09,69,34,359,21,70,51,261,22,71,17,220,16,73,14,214,19*65
$GLGSV,3,2,09,80,13,161,26,82,24,120,26,83,43,061,26,84,18,001,*65
$GLGSV,3,3,09,,,,32*6D
$GNGLL,0419.94964,S,05539.71661,E,112044.00,A,A*6F
$GNRMC,112045.00,A,0419.94966,S,05539.71659,E,0.118,,260525,,,A*70
$GNVTG,,T,,M,0.118,N,0.218,K,A*3E
$GNGGA,112045.00,0419.94966,S,05539.71659,E,1,12,0.61,56.9,M,-47.6,M,,*44
$GNGSA,A,3,32,29,26,10,28,18,31,25,16,27,,,1.41,0.61,1.27*10
$GNGSA,A,3,69,82,70,80,73,71,,,,,,,1.41,0.61,1.27*13
$GPGSV,4,1,16,10,23,347,14,16,25,262,34,18,29,061,21,23,07,025,*78
$GPGSV,4,2,16,25,06,137,19,26,30,230,24,27,28,323,30,28,37,171,36*76
$GPGSV,4,3,16,29,30,143,30,31,22,199,29,32,79,342,31,36,52,277,29*7F
$GPGSV,4,4,16,40,84,353,,41,58,082,,49,32,274,,50,10,089,*79
$GLGSV,3,1,09,69,34,359,21,70,51,261,22,71,17,220,15,73,14,214,19*66
$GLGSV,3,2,09,80,13,161,23,82,24,120,26,83,43,061,27,84,18,001,*61
$GLGSV,3,3,09,,,,30*6F
$GNGLL,0419.94966,S,05539.71659,E,112045.00,A,A*67
$GNRMC,112046.00,A,0419.94958,S,05539.71667,E,0.350,,260525,,,A*7D
$GNVTG,,T,,M,0.350,N,0.649,K,A*30
$GNGGA,112046.00,0419.94958,S,05539.71667,E,1,12,0.61,56.6,M,-47.6,M,,*48
$GNGSA,A,3,32,29,26,10,28,18,31,25,16,27,,,1.41,0.61,1.27*10
$GNGSA,A,3,69,82,70,80,73,71,,,,,,,1.41,0.61,1.27*13
$GPGSV,4,1,16,10,23,347,12,16,25,262,24,18,29,061,21,23,07,025,*7F
$GPGSV,4,2,16,25,06,137,17,26,30,230,25,27,28,323,24,28,37,171,34*7E
$GPGSV,4,3,16,29,30,143,31,31,22,199,18,32,79,342,31,36,52,277,*77
$GPGSV,4,4,16,40,84,353,,41,58,082,,49,32,274,,50,10,089,*79
$GLGSV,3,1,09,69,34,359,18,70,51,261,20,71,17,220,12,73,14,214,17*67
$GLGSV,3,2,09,80,13,161,21,82,24,120,25,83,43,061,25,84,18,001,*62
$GLGSV,3,3,09,,,,30*6F
$GNGLL,0419.94958,S,05539.71667,E,112046.00,A,A*64
$GNRMC,112047.00,A,0419.94959,S,05539.71667,E,0.097,,260525,,,A*75
$GNVTG,,T,,M,0.097,N,0.180,K,A*3A
$GNGGA,112047.00,0419.94959,S,05539.71667,E,1,12,0.63,56.5,M,-47.6,M,,*49
$GNGSA,A,3,32,29,26,10,28,18,31,25,16,27,,,1.44,0.63,1.30*11
$GNGSA,A,3,69,82,70,80,73,,,,,,,,1.44,0.63,1.30*14
$GPGSV,4,1,16,10,23,347,11,16,25,262,23,18,29,061,24,23,07,025,*7E
$GPGSV,4,2,16,25,06,137,14,26,30,230,25,27,28,323,22,28,37,171,31*7E
$GPGSV,4,3,16,29,29,144,32,31,22,199,19,32,79,342,29,36,52,277,*73
$GPGSV,4,4,16,40,84,353,,41,58,082,,49,32,274,,50,10,089,*79
$GLGSV,3,1,09,69,34,359,16,70,51,261,17,71,17,220,10,73,14,214,17*6F
$GLGSV,3,2,09,80,13,161,22,82,24,120,23,83,43,061,22,84,18,001,*60
$GLGSV,3,3,09,,,,22*6C
$GNGLL,0419.94959,S,05539.71667,E,112047.00,A,A*64
$GNRMC,112048.00,A,0419.94961,S,05539.71661,E,0.254,,260525,,,A*7A
$GNVTG,,T,,M,0.254,N,0.470,K,A*3D
$GNGGA,112048.00,0419.94961,S,05539.71661,E,1,12,0.66,56.4,M,-47.6,M,,*4F
$GNGSA,A,3,32,29,26,10,28,18,31,25,16,27,,,1.49,0.66,1.34*1D
$GNGSA,A,3,69,82,70,80,73,,,,,,,,1.49,0.66,1.34*18
$GPGSV,4,1,16,10,23,347,14,16,25,262,30,18,29,061,31,23,07,025,16*7A
$GPGSV,4,2,16,25,06,137,13,26,30,230,31,27,28,323,20,28,37,171,39*76
$GPGSV,4,3,16,29,29,144,39,31,22,199,19,32,79,342,29,36,52,277,*78
$GPGSV,4,4,16,40,84,353,,41,58,082,,49,32,274,,50,10,089,*79
$GLGSV,3,1,09,69,34,359,14,70,51,261,13,71,17,220,07,73,14,214,14*6C
$GLGSV,3,2,09,80,13,161,23,82,24,120,23,83,43,061,29,84,18,001,*6A
$GLGSV,3,3,09,,,,22*6C
$GNGLL,0419.94961,S,05539.71661,E,112048.00,A,A*66
$GNRMC,112049.00,A,0419.94963,S,05539.71660,E,0.043,,260525,,,A*7C
$GNVTG,,T,,M,0.043,N,0.080,K,A*32
$GNGGA,112049.00,0419.94963,S,05539.71660,E,1,12,0.66,56.4,M,-47.6,M,,*4D
$GNGSA,A,3,32,29,26,10,28,18,31,25,16,27,,,1.49,0.66,1.34*1D
$GNGSA,A,3,69,82,70,80,73,,,,,,,,1.49,0.66,1.34*18
$GPGSV,4,1,16,10,23,347,16,16,25,262,31,18,29,061,24,23,07,025,14*7F
$GPGSV,4,2,16,25,06,137,13,26,30,230,30,27,28,323,23,28,37,171,36*7B
$GPGSV,4,3,16,29,29,144,33,31,22,199,18,32,79,342,32,36,52,277,*79
$GPGSV,4,4,16,40,84,353,,41,58,082,,49,32,274,,50,10,089,*79
$GLGSV,3,1,09,69,34,359,18,70,51,261,08,71,17,220,08,73,14,214,12*63
$GLGSV,3,2,09,80,13,161,22,82,24,120,23,83,43,061,19,84,18,001,*68
$GLGSV,3,3,09,,,,30*6F
$GNGLL,0419.94963,S,05539.71660,E,112049.00,A,A*64
$GNRMC,112053.00,A,0419.94974,S,05539.71648,E,0.124,,260525,,,A*7B
$GNVTG,,T,,M,0.124,N,0.230,K,A*3B
$GNGGA,112053.00,0419.94974,S,05539.71648,E,1,12,0.61,56.7,M,-47.6,M,,*4E
$GNGSA,A,3,32,29,26,10,28,18,31,25,16,27,,,1.41,0.61,1.28*1F
$GNGSA,A,3,69,82,70,80,73,71,,,,,,,1.41,0.61,1.28*1C
$GPGSV,4,1,16,10,23,347,14,16,25,262,29,18,29,061,21,23,07,025,10*75
$GPGSV,4,2,16,25,06,137,13,26,30,230,27,27,28,323,26,28,37,171,32*7C
$GPGSV,4,3,16,29,29,144,28,31,22,199,23,32,78,343,32,36,52,277,*7B
$GPGSV,4,4,16,40,84,353,,41,58,082,,49,32,274,,50,10,089,*79
$GLGSV,3,1,09,69,34,359,16,70,51,261,15,71,17,220,14,73,14,214,14*6A
$GLGSV,3,2,09,80,13,161,18,82,24,120,22,83,43,061,21,84,18,001,*6B
$GLGSV,3,3,09,,,,28*66
$GNGLL,0419.94974,S,05539.71648,E,112053.00,A,A*63
$GNRMC,112057.00,A,0419.94940,S,05539.71654,E,0.066,,260525,,,A*72
$GNVTG,,T,,M,0.066,N,0.122,K,A*3C
$GNGGA,112057.00,0419.94940,S,05539.71654,E,1,12,0.62,57.3,M,-47.6,M,,*46
$GNGSA,A,3,32,29,26,10,28,18,31,25,16,27,,,1.48,0.62,1.34*18
$GNGSA,A,3,69,82,70,80,73,71,,,,,,,1.48,0.62,1.34*1B
$GPGSV,4,1,16,10,23,347,19,16,25,262,36,18,29,061,28,23,07,025,08*76
$GPGSV,4,2,16,25,06,137,18,26,30,230,25,27,28,323,26,28,37,171,38*7F
$GPGSV,4,3,16,29,29,144,37,31,22,199,24,32,78,343,38,36,52,277,*78
$GPGSV,4,4,16,40,84,353,,41,58,082,,49,32,274,,50,10,089,*79
$GLGSV,3,1,09,69,34,359,17,70,51,261,20,71,17,220,18,73,14,214,17*62
$GLGSV,3,2,09,80,13,161,23,82,24,120,25,83,43,061,22,84,18,001,*67
$GLGSV,3,3,09,,,,34*6B
$GNGLL,0419.94940,S,05539.71654,E,112057.00,A,A*6D
$GNRMC,112058.00,A,0419.94938,S,05539.71649,E,0.076,,260525,,,A*7F
$GNVTG,,T,,M,0.076,N,0.141,K,A*38
$GNGGA,112058.00,0419.94938,S,05539.71649,E,1,12,0.62,57.5,M,-47.6,M,,*4C
$GNGSA,A,3,32,29,26,10,28,18,31,25,16,27,,,1.48,0.62,1.34*18
$GNGSA,A,3,69,82,70,80,73,71,,,,,,,1.48,0.62,1.34*1B
$GPGSV,4,1,16,10,23,347,21,16,25,262,33,18,29,061,30,23,07,025,*79
$GPGSV,4,2,16,25,06,137,18,26,30,230,25,27,28,323,25,28,37,171,40*73
$GPGSV,4,3,16,29,29,144,37,31,22,199,24,32,78,343,34,36,52,277,*74
$GPGSV,4,4,16,40,84,353,,41,58,082,,49,32,274,,50,10,089,*79
$GLGSV,3,1,09,69,34,359,16,70,51,261,20,71,17,220,19,73,14,214,14*61
$GLGSV,3,2,09,80,13,161,22,82,24,120,23,83,43,061,21,84,18,001,*63
$GLGSV,3,3,09,,,,30*6F
$GNGLL,0419.94938,S,05539.71649,E,112058.00,A,A*61
$GNRMC,112059.00,A,0419.94939,S,05539.71649,E,0.134,,260525,,,A*78
$GNVTG,,T,,M,0.134,N,0.248,K,A*35
$GNGGA,112059.00,0419.94939,S,05539.71649,E,1,12,0.62,57.6,M,-47.6,M,,*4F
$GNGSA,A,3,32,29,26,10,28,18,31,25,16,27,,,1.48,0.62,1.34*18
$GNGSA,A,3,69,82,70,80,73,71,,,,,,,1.48,0.62,1.34*1B
$GPGSV,4,1,16,10,23,347,21,16,25,262,34,18,29,061,24,23,07,025,*7B
$GPGSV,4,2,16,25,06,137,18,26,30,230,26,27,28,323,23,28,37,171,40*76
$GPGSV,4,3,16,29,29,144,37,31,22,199,23,32,78,343,34,36,52,277,*73
$GPGSV,4,4,16,40,84,353,,41,58,082,,49,32,274,,50,10,089,*79
$GLGSV,3,1,09,69,34,359,15,70,51,261,19,71,17,220,19,73,14,214,20*6F
$GLGSV,3,2,09,80,13,161,23,82,24,120,21,83,43,061,19,84,18,001,*6B
$GLGSV,3,3,09,,,,33*6C
$GNGLL,0419.94939,S,05539.71649,E,112059.00,A,A*61
$GNRMC,112103.00,A,0419.94926,S,05539.71650,E,0.061,,260525,,,A*71
$GNVTG,,T,,M,0.061,N,0.114,K,A*3E
$GNGGA,112103.00,0419.94926,S,05539.71650,E,1,12,0.62,57.5,M,-47.6,M,,*44
$GNGSA,A,3,32,29,26,10,28,18,31,25,16,27,,,1.48,0.62,1.34*18
$GNGSA,A,3,69,82,70,80,73,71,,,,,,,1.48,0.62,1.34*1B
$GPGSV,4,1,16,10,23,347,17,16,25,262,32,18,29,061,22,23,07,025,*7E
$GPGSV,4,2,16,25,06,137,18,26,30,230,27,27,28,323,22,28,37,171,37*76
$GPGSV,4,3,16,29,29,144,35,31,22,199,25,32,78,343,33,36,52,277,*70
$GPGSV,4,4,16,40,84,353,,41,58,082,,49,32,274,,50,10,089,*79
$GLGSV,3,1,09,69,34,359,18,70,51,261,18,71,17,220,18,73,14,214,20*62
$GLGSV,3,2,09,80,13,161,25,82,24,120,20,83,43,061,16,84,18,001,*63
$GLGSV,3,3,09,,,,29*67
$GNGLL,0419.94926,S,05539.71650,E,112103.00,A,A*69
$GNRMC,112104.00,A,0419.94944,S,05539.71641,E,0.371,,260525,,,A*70
$GNVTG,,T,,M,0.371,N,0.687,K,A*31
$GNGGA,112104.00,0419.94944,S,05539.71641,E,1,12,0.62,57.8,M,-47.6,M,,*4A
$GNGSA,A,3,32,29,26,10,28,18,31,25,16,27,,,1.48,0.62,1.34*18
$GNGSA,A,3,69,82,70,80,73,71,,,,,,,1.48,0.62,1.34*1B
$GPGSV,4,1,16,10,23,347,19,16,25,262,36,18,29,061,30,23,07,025,*77
$GPGSV,4,2,16,25,06,137,20,26,30,230,26,27,28,323,23,28,37,171,40*7D
$GPGSV,4,3,16,29,29,144,39,31,22,199,25,32,78,343,36,36,52,277,*79
$GPGSV,4,4,16,40,84,353,,41,58,082,,49,32,274,,50,10,089,*79
$GLGSV,3,1,09,69,34,359,19,70,51,261,19,71,17,220,21,73,14,214,22*6A
$GNRMC,112106.00,A,0419.94931,S,05539.71640,E,0.386,,260525,,,A*79
$GNVTG,,T,,M,0.386,N,0.714,K,A*32
$GNGGA,112106.00,0419.94931,S,05539.71640,E,1,12,0.61,58.4,M,-47.6,M,,*4B
$GNGSA,A,3,32,29,26,10,28,18,31,25,16,27,,,1.41,0.61,1.28*1F
$GNGSA,A,3,69,82,70,80,73,71,,,,,,,1.41,0.61,1.28*1C
$GPGSV,4,1,16,10,23,347,19,16,25,262,30,18,29,061,21,23,07,025,*71
$GPGSV,4,2,16,25,06,137,19,26,30,230,27,27,28,323,22,28,37,171,34*74
$GPGSV,4,3,16,29,29,144,30,31,22,199,24,32,78,343,30,36,52,277,*77
$GPGSV,4,4,16,40,84,353,30,41,58,082,,49,32,274,,50,10,089,*7A
$GLGSV,3,1,09,69,34,359,18,70,51,261,18,71,17,220,19,73,14,214,21*62
$GLGSV,3,2,09,80,13,161,22,82,24,120,19,83,43,061,,84,18,001,*69
$GLGSV,3,3,09,,,,28*66
$GNGLL,0419.94931,S,05539.71640,E,112106.00,A,A*6B
$GNRMC,112107.00,A,0419.94938,S,05539.71634,E,0.131,,260525,,,A*7C
$GNVTG,,T,,M,0.131,N,0.243,K,A*3B
$GNGGA,112107.00,0419.94938,S,05539.71634,E,1,12,0.61,58.6,M,-47.6,M,,*42
$GNGSA,A,3,32,29,26,10,28,18,31,25,16,27,,,1.41,0.61,1.28*1F
$GNGSA,A,3,69,82,70,80,73,71,,,,,,,1.41,0.61,1.28*1C
$GPGSV,4,1,16,10,23,347,19,16,25,262,31,18,29,061,22,23,07,025,*73
$GPGSV,4,2,16,25,06,137,20,26,30,230,27,27,28,323,23,28,37,171,37*7C
$GPGSV,4,3,16,29,29,144,31,31,22,199,23,32,78,343,33,36,52,277,*72
$GPGSV,4,4,16,40,84,353,34,41,58,082,,49,32,274,,50,10,089,*7E
$GLGSV,3,1,09,69,34,359,19,70,51,261,17,71,17,220,18,73,14,214,19*66
$GLGSV,3,2,09,80,13,161,22,82,24,120,19,83,43,061,,84,18,001,*69
$GLGSV,3,3,09,,,,29*67
$GNGLL,0419.94938,S,05539.71634,E,112107.00,A,A*60
$GNRMC,112109.00,A,0419.94934,S,05539.71631,E,0.169,,260525,,,A*76
$GNVTG,,T,,M,0.169,N,0.314,K,A*35
$GNGGA,112109.00,0419.94934,S,05539.71631,E,1,12,0.64,58.2,M,-47.6,M,,*44
$GNGSA,A,3,32,29,26,10,28,18,31,25,16,27,,,1.46,0.64,1.32*16
$GNGSA,A,3,69,82,70,80,73,71,,,,,,,1.46,0.64,1.32*15
$GPGSV,4,1,16,10,23,347,17,16,25,262,33,18,29,061,23,23,07,025,*7E
$GPGSV,4,2,16,25,06,137,16,26,30,230,26,27,28,323,22,28,37,171,34*7A
$GPGSV,4,3,16,29,29,144,34,31,22,199,24,32,78,343,32,36,52,277,*71
$GPGSV,4,4,16,40,84,353,34,41,58,082,,49,32,274,,50,10,089,*7E
$GLGSV,3,1,09,69,34,359,17,70,51,261,17,71,17,220,16,73,14,214,18*67
$GLGSV,3,2,09,80,13,161,23,82,24,120,21,83,43,061,,84,18,001,*63
$GLGSV,3,3,09,,,,31*6E
$GNGLL,0419.94934,S,05539.71631,E,112109.00,A,A*67
$GNRMC,112110.00,A,0419.94925,S,05539.71630,E,0.322,,260525,,,A*72
$GNVTG,,T,,M,0.322,N,0.597,K,A*35
$GNGGA,112110.00,0419.94925,S,05539.71630,E,1,12,0.64,57.9,M,-47.6,M,,*49
$GNGSA,A,3,32,29,26,10,28,18,31,25,16,27,,,1.46,0.64,1.32*16
$GNGSA,A,3,69,82,70,80,73,71,,,,,,,1.46,0.64,1.32*15
$GPGSV,4,1,16,10,23,347,16,16,25,262,29,18,29,061,28,23,07,025,*7F
$GPGSV,4,2,16,25,06,137,15,26,30,230,25,27,28,323,21,28,37,171,34*79
$GPGSV,4,3,16,29,29,144,34,31,22,199,23,32,78,343,36,36,52,277,*72
$GNVTG,,T,,M,0.010,N,0.018,K,A*35
$GNGGA,112115.00,0419.94920,S,05539.71626,E,1,12,0.66,57.6,M,-47.6,M,,*43
$GNGSA,A,3,32,29,26,10,28,18,31,25,16,27,,,1.58,0.66,1.43*1D
$GNGSA,A,3,69,82,70,80,73,71,,,,,,,1.58,0.66,1.43*1E
$GPGSV,4,1,16,10,23,347,16,16,25,262,39,18,29,061,35,23,07,025,11*72
$GPGSV,4,2,16,25,06,137,20,26,30,230,33,27,28,323,34,28,37,171,41*7E
$GPGSV,4,3,16,29,29,144,36,31,22,199,26,32,78,343,38,36,52,277,40*7F
$GPGSV,4,4,16,40,84,353,38,41,58,082,,49,32,274,,50,10,089,*72
$GLGSV,3,1,09,69,33,360,30,70,51,261,27,71,17,220,21,73,14,214,23*60
$GLGSV,3,2,09,80,13,161,27,82,24,120,23,83,43,061,29,84,18,001,*6E
$GLGSV,3,3,09,,,,37*68
$GNGLL,0419.94920,S,05539.71626,E,112115.00,A,A*69
$GLGSV,3,3,09,,,,42*6A
$GNGLL,0419.94932,S,05539.71626,E,112116.00,A,A*69
$GNRMC,112119.00,A,0419.94946,S,05539.71634,E,0.056,,260525,,,A*7A
$GNVTG,,T,,M,0.056,N,0.103,K,A*3C
$GNGGA,112119.00,0419.94946,S,05539.71634,E,1,12,0.61,57.3,M,-47.6,M,,*4E
$GNGSA,A,3,32,29,26,10,28,18,31,23,25,16,27,,1.41,0.61,1.28*1E
$GNGSA,A,3,69,82,70,80,73,71,,,,,,,1.41,0.61,1.28*1C
$GPGSV,4,1,16,10,23,347,18,16,25,262,38,18,29,061,34,23,07,025,11*7C
$GPGSV,4,2,16,25,06,137,25,26,30,230,28,27,28,323,32,28,37,171,41*77
$GPGSV,4,3,16,29,29,144,35,31,22,199,26,32,78,343,35,36,52,277,40*71
$GPGSV,4,4,16,40,84,353,38,41,58,082,,49,32,274,,50,10,089,*72
$GLGSV,3,1,09,69,33,360,33,70,51,262,27,71,17,221,21,73,14,214,20*62
$GLGSV,3,2,09,80,13,161,28,82,24,120,20,83,43,061,30,84,18,001,*6A
$GLGSV,3,3,09,,,,38*67
$GNGLL,0419.94946,S,05539.71634,E,112119.00,A,A*66
$GNRMC,112120.00,A,0419.94950,S,05539.71637,E,0.039,,260525,,,A*7D
$GNVTG,,T,,M,0.039,N,0.072,K,A*32
$GNGGA,112120.00,0419.94950,S,05539.71637,E,1,12,0.61,57.1,M,-47.6,M,,*42
$GNGSA,A,3,32,29,26,10,28,18,31,25,16,27,,,1.41,0.61,1.28*1F
$GNGSA,A,3,69,82,70,80,73,71,,,,,,,1.41,0.61,1.28*1C
$GPGSV,4,1,16,10,23,347,16,16,25,262,37,18,29,061,35,23,07,025,09*75
$GPGSV,4,2,16,25,06,137,24,26,30,230,31,27,28,323,33,28,37,171,42*7C
$GPGSV,4,3,16,29,29,144,34,31,22,199,26,32,78,343,40,36,52,277,40*72
$GPGSV,4,4,16,40,84,353,39,41,58,082,,49,32,274,,50,10,089,*73
$GLGSV,3,1,09,69,33,360,33,70,51,262,27,71,17,221,21,73,14,214,18*69
$GLGSV,3,2,09,80,13,161,29,82,24,120,19,83,43,061,30,84,18,001,*61
$GLGSV,3,3,09,,,,37*68
$GNGLL,0419.94950,S,05539.71637,E,112120.00,A,A*68
$GNRMC,112121.00,A,0419.94955,S,05539.71639,E,0.034,,260525,,,A*7A
$GNVTG,,T,,M,0.034,N,0.063,K,A*3F
$GNGGA,112121.00,0419.94955,S,05539.71639,E,1,12,0.64,56.8,M,-47.6,M,,*45
$GNGSA,A,3,32,29,26,10,28,18,31,25,16,27,,,1.47,0.64,1.32*17
$GNGSA,A,3,69,82,70,80,73,71,,,,,,,1.47,0.64,1.32*14
$GPGSV,4,1,16,10,23,347,17,16,25,262,38,18,29,061,35,23,07,025,*72
$GPGSV,4,2,16,25,06,137,24,26,30,230,31,27,28,323,34,28,37,171,41*78
$GPGSV,4,3,16,29,29,144,33,31,22,199,28,32,78,343,41,36,52,277,40*7A
$GPGSV,4,4,16,40,84,353,40,41,58,082,,49,32,274,,50,10,089,*7D
$GLGSV,3,1,09,69,33,360,36,70,51,262,26,71,17,221,21,73,14,214,20*66
$GLGSV,3,2,09,80,13,161,29,82,24,120,21,83,43,061,31,84,18,001,*6B
$GLGSV,3,3,09,,,,38*67
$GNGLL,0419.94955,S,05539.71639,E,112121.00,A,A*62
$GNRMC,112122.00,A,0419.94959,S,05539.71641,E,0.021,,260525,,,A*7E
$GNVTG,,T,,M,0.021,N,0.039,K,A*34
$GNGGA,112122.00,0419.94959,S,05539.71641,E,1,12,0.64,56.7,M,-47.6,M,,*4A
$GNGSA,A,3,32,29,26,10,28,18,31,25,16,27,,,1.47,0.64,1.32*17
$GNGSA,A,3,69,82,70,80,73,71,,,,,,,1.47,0.64,1.32*14
$GPGSV,4,1,16,10,23,347,18,16,25,262,38,18,29,061,36,23,07,025,*7E
$GPGSV,4,2,16,25,06,137,25,26,30,230,33,27,28,323,34,28,37,171,41*7B
$GPGSV,4,3,16,29,29,144,33,31,22,199,28,32,78,343,41,36,52,277,40*7A
$GPGSV,4,4,16,40,84,353,39,41,58,082,,49,32,274,,50,10,089,*73
$GLGSV,3,1,09,69,33,360,35,70,51,262,27,71,17,221,21,73,14,214,22*66
$GLGSV,3,2,09,80,13,161,29,82,24,120,22,83,43,061,30,84,18,001,*69
$GLGSV,3,3,09,,,,39*66
$GNGLL,0419.94959,S,05539.71641,E,112122.00,A,A*62
$GNRMC,112123.00,A,0419.94963,S,05539.71642,E,0.018,,260525,,,A*7F
$GNVTG,,T,,M,0.018,N,0.033,K,A*34
$GNGGA,112123.00,0419.94963,S,05539.71642,E,1,12,0.64,56.6,M,-47.6,M,,*40
$GNGSA,A,3,32,29,26,10,28,18,31,25,16,27,,,1.47,0.64,1.32*17
$GNGSA,A,3,69,82,70,80,73,71,,,,,,,1.47,0.64,1.32*14
$GPGSV,4,1,16,10,23,347,20,16,25,262,39,18,29,061,36,23,07,025,*74
$GPGSV,4,2,16,25,06,137,24,26,30,230,31,27,28,323,34,28,37,171,42*7B
$GPGSV,4,3,16,29,29,144,36,31,22,199,32,32,78,343,40,36,52,277,40*75
$GPGSV,4,4,16,40,84,353,39,41,58,082,,49,32,274,,50,10,089,*73
$GLGSV,3,1,09,69,33,360,31,70,51,262,27,71,17,221,20,73,14,214,23*62
$GLGSV,3,2,09,80,13,161,29,82,24,120,19,83,43,061,30,84,18,001,*61
$GLGSV,3,3,09,,,,37*68
$GNGLL,0419.94963,S,05539.71642,E,112123.00,A,A*69
$GNRMC,112124.00,A,0419.94968,S,05539.71644,E,0.075,,260525,,,A*7E
$GNVTG,,T,,M,0.075,N,0.139,K,A*34
$GNGGA,112124.00,0419.94968,S,05539.71644,E,1,12,0.64,56.6,M,-47.6,M,,*4A
$GNGSA,A,3,32,29,26,10,28,18,31,25,16,27,,,1.47,0.64,1.32*17
$GNGSA,A,3,69,82,70,80,73,71,,,,,,,1.47,0.64,1.32*14
$GPGSV,4,1,16,10,23,347,19,16,25,262,38,18,29,061,36,23,07,025,*7F
$GPGSV,4,2,16,25,06,137,24,26,30,230,30,27,28,323,34,28,37,171,40*78
$GPGSV,4,3,16,29,29,144,36,31,22,199,26,32,78,343,38,36,52,277,37*7F
$GPGSV,4,4,16,40,84,353,37,41,58,082,,49,32,274,,50,10,089,*7D
$GLGSV,3,1,09,69,33,360,30,70,51,262,27,71,17,221,18,73,14,214,22*69
$GLGSV,3,2,09,80,13,161,29,82,24,120,23,83,43,061,29,84,18,001,*60
$GLGSV,3,3,09,,,,39*66
$GNGLL,0419.94968,S,05539.71644,E,112124.00,A,A*63
$GNRMC,112131.00,A,0419.94995,S,05539.71641,E,0.035,,260525,,,A*79
$GNVTG,,T,,M,0.035,N,0.065,K,A*38
$GNGGA,112131.00,0419.94995,S,05539.71641,E,1,12,0.66,56.6,M,-47.6,M,,*4B
$GNGSA,A,3,32,29,26,10,28,18,31,25,16,27,,,1.49,0.66,1.34*1D
$GNGSA,A,3,69,82,70,80,73,,,,,,,,1.49,0.66,1.34*18
$GPGSV,4,1,16,10,23,347,19,16,25,262,38,18,29,061,36,23,07,025,08*77
$GPGSV,4,2,16,25,06,137,21,26,30,230,31,27,28,323,35,28,37,171,40*7D
$GPGSV,4,3,16,29,29,144,33,31,22,199,29,32,78,343,39,36,52,277,40*74
$GPGSV,4,4,16,40,84,353,39,41,58,082,37,49,32,274,,50,10,089,*77
$GLGSV,3,1,09,69,33,360,37,70,51,262,28,71,17,221,,73,14,214,21*6B
$GLGSV,3,2,09,80,13,161,29,82,24,121,27,83,44,061,25,84,19,001,*6F
$GLGSV,3,3,09,,,,41*69
$GNGLL,0419.94995,S,05539.71641,E,112131.00,A,A*60
$GNRMC,112132.00,A,0419.95000,S,05539.71640,E,0.018,,260525,,,A*70
$GNVTG,,T,,M,0.018,N,0.033,K,A*34
$GNGGA,112132.00,0419.95000,S,05539.71640,E,1,12,0.66,56.7,M,-47.6,M,,*4C
$GNGSA,A,3,32,29,26,10,28,18,31,25,16,27,,,1.49,0.66,1.34*1D
$GNGSA,A,3,69,82,70,80,73,,,,,,,,1.49,0.66,1.34*18
$GPGSV,4,1,16,10,23,347,17,16,25,262,40,18,29,061,36,23,07,025,12*7D
$GPGSV,4,2,16,25,06,137,20,26,30,230,30,27,28,323,37,28,37,171,41*7E
$GPGSV,4,3,16,29,29,144,34,31,22,199,29,32,78,343,41,36,52,277,41*7D
$GPGSV,4,4,16,40,84,353,41,41,58,082,38,49,32,274,,50,10,089,*77
$GLGSV,3,1,09,69,33,360,35,70,51,262,28,71,17,221,,73,14,214,18*63
$GLGSV,3,2,09,80,13,161,29,82,24,121,27,83,44,061,27,84,19,001,*6D
$GLGSV,3,3,09,,,,38*67
$GNGLL,0419.95000,S,05539.71640,E,112132.00,A,A*66
$GNRMC,112133.00,A,0419.95004,S,05539.71640,E,0.032,,260525,,,A*7D
$GNVTG,,T,,M,0.032,N,0.060,K,A*3A
$GNGGA,112133.00,0419.95004,S,05539.71640,E,1,12,0.66,56.6,M,-47.6,M,,*48
$GNGSA,A,3,32,29,26,10,28,18,31,25,16,27,,,1.49,0.66,1.34*1D
$GNGSA,A,3,69,82,70,80,73,,,,,,,,1.49,0.66,1.34*18
$GPGSV,4,1,16,10,23,347,14,16,25,262,38,18,29,061,36,23,07,025,12*71
$GPGSV,4,2,16,25,06,137,21,26,30,230,31,27,28,323,35,28,37,171,40*7D
$GPGSV,4,3,16,29,29,144,34,31,22,199,30,32,78,343,40,36,52,277,39*7B
$GPGSV,4,4,16,40,84,353,40,41,58,082,37,49,32,274,,50,10,089,*79
$GLGSV,3,1,09,69,33,360,34,70,51,262,28,71,17,221,,73,14,214,18*62
$GLGSV,3,2,09,80,13,161,31,82,24,121,27,83,44,061,28,84,19,001,*6B
$GLGSV,3,3,09,,,,39*66
$GNGLL,0419.95004,S,05539.71640,E,112133.00,A,A*63
$GNRMC,112134.00,A,0419.95009,S,05539.71640,E,0.013,,260525,,,A*74
$GNVTG,,T,,M,0.013,N,0.024,K,A*39
$GNGGA,112134.00,0419.95009,S,05539.71640,E,1,12,0.66,56.6,M,-47.6,M,,*42
$GNGSA,A,3,32,29,26,10,28,18,31,23,25,16,27,,1.49,0.66,1.34*1C
$GNGSA,A,3,69,82,70,80,73,,,,,,,,1.49,0.66,1.34*18
$GPGSV,4,1,16,10,23,347,12,16,25,262,38,18,29,061,38,23,07,025,12*79
$GPGSV,4,2,16,25,06,137,19,26,30,230,31,27,28,323,34,28,37,171,41*76
$GPGSV,4,3,16,29,29,144,37,31,22,199,30,32,78,343,41,36,52,277,40*77
$GPGSV,4,4,16,40,84,353,41,41,58,082,39,49,32,274,,50,10,089,*76
$GLGSV,3,1,09,69,33,360,35,70,51,262,29,71,17,221,,73,14,214,17*6D
$GLGSV,3,2,09,80,13,161,31,82,24,121,27,83,44,061,29,84,19,001,*6A
$GLGSV,3,3,09,,,,38*67
$GNGLL,0419.95009,S,05539.71640,E,112134.00,A,A*69
$GNRMC,112135.00,A,0419.95012,S,05539.71640,E,0.039,,260525,,,A*77
$GNVTG,,T,,M,0.039,N,0.071,K,A*31
$GNGGA,112135.00,0419.95012,S,05539.71640,E,1,12,0.66,56.7,M,-47.6,M,,*48
$GNGSA,A,3,32,29,26,10,28,18,31,23,25,16,27,,1.49,0.66,1.34*1C
$GNGSA,A,3,69,82,70,80,73,,,,,,,,1.49,0.66,1.34*18
$GPGSV,4,1,16,10,23,347,14,16,25,262,37,18,29,061,35,23,07,025,12*7D
$GPGSV,4,2,16,25,06,137,18,26,30,230,32,27,28,323,34,28,37,171,40*75
$GPGSV,4,3,16,29,29,144,34,31,22,199,30,32,78,343,39,36,52,277,38*74
$GPGSV,4,4,16,40,84,353,40,41,58,082,37,49,32,274,,50,10,089,*79
$GLGSV,3,1,09,69,33,360,35,70,51,262,28,71,17,221,,73,14,214,17*6C
$GLGSV,3,2,09,80,13,161,30,82,24,121,24,83,44,061,28,84,19,001,*69
$GLGSV,3,3,09,,,,38*67
$GNGLL,0419.95012,S,05539.71640,E,112135.00,A,A*62
$GNRMC,112136.00,A,0419.95015,S,05539.71640,E,0.049,,260525,,,A*74
$GNVTG,,T,,M,0.049,N,0.092,K,A*3B
$GNGGA,112136.00,0419.95015,S,05539.71640,E,1,12,0.62,56.7,M,-47.6,M,,*48
$GNGSA,A,3,32,29,26,10,28,18,31,23,25,16,27,,1.35,0.62,1.20*16
$GNGSA,A,3,69,82,70,80,73,,,,,,,,1.35,0.62,1.20*12
$GPGSV,4,1,16,10,23,347,14,16,25,262,38,18,29,061,35,23,07,025,12*72
$GPGSV,4,2,16,25,06,137,17,26,30,230,32,27,28,323,35,28,37,171,41*7A
$GPGSV,4,3,16,29,29,144,37,31,22,199,29,32,78,343,40,36,52,277,39*70
$GPGSV,4,4,16,40,84,353,40,41,58,082,39,49,32,274,,50,10,089,*77
$GLGSV,3,1,09,69,33,360,35,70,51,262,28,71,17,221,21,73,14,214,16*6E
$GLGSV,3,2,09,80,13,161,33,82,24,121,24,83,44,061,28,84,19,001,*6A
$GLGSV,3,3,09,,,,36*69
$GNGLL,0419.95015,S,05539.71640,E,112136.00,A,A*66
$GNRMC,112141.00,A,0419.95023,S,05539.71642,E,0.036,,260525,,,A*7B
$GNVTG,,T,,M,0.036,N,0.067,K,A*39
$GNGGA,112141.00,0419.95023,S,05539.71642,E,1,12,0.63,57.0,M,-47.6,M,,*48
$GNGSA,A,3,32,29,26,10,28,18,31,23,25,16,27,,1.45,0.63,1.30*11
$GNGSA,A,3,69,82,70,83,80,73,71,,,,,,1.45,0.63,1.30*18
$GPGSV,4,1,16,10,23,347,17,16,25,262,38,18,29,061,36,23,07,025,11*71
$GPGSV,4,2,16,25,06,137,18,26,30,230,32,27,28,323,32,28,37,171,40*73
$GPGSV,4,3,16,29,29,144,34,31,22,199,29,32,78,343,40,36,52,277,40*7D
$GPGSV,4,4,16,40,84,353,40,41,58,082,38,49,32,274,,50,10,089,*76
$GLGSV,3,1,09,69,33,360,34,70,51,262,28,71,17,221,15,73,14,214,19*67
$GLGSV,3,2,09,80,13,161,30,82,24,121,21,83,44,062,29,84,19,001,*6E
$GLGSV,3,3,09,,,,37*68
$GNGLL,0419.95023,S,05539.71642,E,112141.00,A,A*61
$GNRMC,112143.00,A,0419.95026,S,05539.71641,E,0.011,,260525,,,A*7A
$GNVTG,,T,,M,0.011,N,0.020,K,A*3F
$GNGGA,112143.00,0419.95026,S,05539.71641,E,1,12,0.63,57.1,M,-47.6,M,,*4D
$GNGSA,A,3,32,29,26,10,28,18,31,23,25,16,27,,1.45,0.63,1.30*11
$GNRMC,112144.00,A,0419.95027,S,05539.71640,E,0.019,,260525,,,A*75
$GNVTG,,T,,M,0.019,N,0.036,K,A*30
$GNGGA,112144.00,0419.95027,S,05539.71640,E,1,12,0.63,57.2,M,-47.6,M,,*49
$GNGSA,A,3,32,29,26,10,28,18,31,23,25,16,27,,1.45,0.63,1.30*11
$GNGSA,A,3,69,82,70,83,80,73,71,,,,,,1.45,0.63,1.30*18
$GPGSV,4,1,16,10,22,347,16,16,25,262,38,18,29,061,36,23,07,025,10*70
$GPGSV,4,2,16,25,06,137,22,26,30,230,30,27,28,323,35,28,37,171,40*7F
$GPGSV,4,3,16,29,29,144,36,31,22,199,29,32,78,343,42,36,52,277,39*73
$GPGSV,4,4,16,40,84,353,43,41,58,082,39,49,32,274,,50,10,089,*74
$GLGSV,3,1,09,69,33,360,34,70,51,262,27,71,17,221,16,73,14,214,19*6B
$GLGSV,3,2,09,80,13,161,27,82,24,121,20,83,44,062,28,84,19,001,*68
$GLGSV,3,3,09,,,,38*67
$GNGLL,0419.95027,S,05539.71640,E,112144.00,A,A*62
$GNRMC,112145.00,A,0419.95027,S,05539.71640,E,0.033,,260525,,,A*7C
$GNVTG,,T,,M,0.033,N,0.061,K,A*3A
$GNGGA,112145.00,0419.95027,S,05539.71640,E,1,12,0.63,57.3,M,-47.6,M,,*49
$GNGSA,A,3,32,29,26,10,28,18,31,23,25,16,27,,1.45,0.63,1.30*11
$GNGSA,A,3,69,82,70,83,80,73,71,,,,,,1.45,0.63,1.30*18
$GPGSV,4,1,16,10,22,347,16,16,25,262,37,18,29,061,36,23,07,025,10*7F
$GPGSV,4,2,16,25,06,137,24,26,30,230,32,27,28,323,35,28,37,171,41*7A
$GPGSV,4,3,16,29,29,144,38,31,22,199,28,32,78,343,40,36,52,277,39*7E
$GPGSV,4,4,16,40,84,353,41,41,58,082,38,49,32,274,,50,10,089,*77
$GLGSV,3,1,09,69,33,360,34,70,51,262,28,71,17,221,17,73,14,214,20*6F
$GLGSV,3,2,09,80,13,161,27,82,24,121,19,83,44,062,28,84,19,001,*62
$GNRMC,112147.00,A,0419.95028,S,05539.71641,E,0.039,,260525,,,A*7A
$GNVTG,,T,,M,0.039,N,0.072,K,A*32
$GNGGA,112147.00,0419.95028,S,05539.71641,E,1,12,0.63,57.2,M,-47.6,M,,*44
$GNGSA,A,3,32,29,26,10,28,18,31,23,25,16,27,,1.45,0.63,1.30*11
$GNGSA,A,3,69,82,70,83,80,73,71,,,,,,1.45,0.63,1.30*18
$GPGSV,4,1,16,10,22,347,18,16,25,262,38,18,29,061,36,23,07,025,10*7E
$GPGSV,4,2,16,25,06,137,23,26,30,230,32,27,28,323,35,28,37,171,40*7C
$GPGSV,4,3,16,29,29,144,38,31,22,199,30,32,78,343,40,36,52,277,41*78
$GPGSV,4,4,16,40,84,353,42,41,58,082,39,49,32,274,,50,10,089,*75
$GLGSV,3,1,09,69,33,360,33,70,51,262,27,71,17,221,18,73,14,214,19*62
$GLGSV,3,2,09,80,13,161,29,82,24,121,20,83,44,062,30,84,19,001,*6F
$GLGSV,3,3,09,,,,38*67
$GNGLL,0419.95028,S,05539.71641,E,112147.00,A,A*6F
$GNRMC,112149.00,A,0419.95028,S,05539.71639,E,0.025,,260525,,,A*76
$GNVTG,,T,,M,0.025,N,0.046,K,A*38
$GNGGA,112149.00,0419.95028,S,05539.71639,E,1,12,0.63,57.3,M,-47.6,M,,*44
$GNGSA,A,3,32,29,26,10,28,18,31,23,25,16,27,,1.45,0.63,1.30*11
$GNGSA,A,3,69,82,70,83,80,73,71,,,,,,1.45,0.63,1.30*18
$GPGSV,4,1,16,10,22,347,17,16,25,262,36,18,29,061,36,23,07,025,10*7F
$GPGSV,4,2,16,25,06,137,22,26,30,230,31,27,28,323,35,28,37,171,40*7E
$GPGSV,4,3,16,29,29,144,36,31,22,199,32,32,78,343,33,36,52,277,38*7E
$GPGSV,4,4,16,40,84,353,40,41,58,082,38,49,32,274,,50,10,089,*76
$GLGSV,3,1,09,69,33,360,32,70,51,262,27,71,17,221,19,73,14,214,17*6C
$GLGSV,3,2,09,80,13,161,29,82,24,121,19,83,44,062,29,84,19,001,*6D
$GLGSV,3,3,09,,,,38*67
$GNGLL,0419.95028,S,05539.71639,E,112149.00,A,A*6E
$GNRMC,112150.00,A,0419.95025,S,05539.71641,E,0.010,,260525,,,A*7A
$GNVTG,,T,,M,0.010,N,0.019,K,A*34
$GNGGA,112150.00,0419.95025,S,05539.71641,E,1,12,0.61,57.3,M,-47.6,M,,*4C
$GNGSA,A,3,32,29,26,10,28,18,31,23,25,16,27,,1.39,0.61,1.25*1C
$GNGSA,A,3,69,82,70,83,80,73,71,,,,,,1.39,0.61,1.25*15
$GPGSV,4,1,16,10,22,347,19,16,25,261,37,18,29,061,36,23,07,025,15*76
$GPGSV,4,2,16,25,06,137,21,26,30,230,30,27,28,323,33,28,37,171,38*75
$GPGSV,4,3,16,29,29,144,35,31,22,199,26,32,78,343,37,36,52,277,39*7D
$GPGSV,4,4,16,40,84,353,39,41,58,082,36,49,32,274,,50,10,089,*76
$GLGSV,3,1,09,69,33,360,30,70,51,262,26,71,17,221,18,73,14,214,16*6F
$GLGSV,3,2,09,80,13,161,27,82,24,121,18,83,44,062,29,84,19,001,*62
$GLGSV,3,3,09,,,,36*69
$GNGLL,0419.95025,S,05539.71641,E,112150.00,A,A*64
$GNRMC,112151.00,A,0419.95024,S,05539.71640,E,0.040,,260525,,,A*7E
$GNVTG,,T,,M,0.040,N,0.073,K,A*3D
$GNGGA,112151.00,0419.95024,S,05539.71640,E,1,12,0.57,57.3,M,-47.6,M,,*48
$GNGSA,A,3,32,29,26,10,28,18,31,23,25,16,27,,1.25,0.57,1.12*10
$GNGSA,A,3,69,82,70,83,80,73,71,,,,,,1.25,0.57,1.12*19
$GPGSV,4,1,16,10,22,347,19,16,25,261,37,18,29,061,35,23,07,025,15*75
$GPGSV,4,2,16,25,06,137,23,26,30,230,31,27,28,323,34,28,37,171,40*7E
$GPGSV,4,3,16,29,29,144,36,31,22,199,32,32,78,343,37,36,52,277,39*7B
$GPGSV,4,4,16,40,84,353,39,41,58,082,37,49,32,274,,50,10,089,*77
$GLGSV,3,1,09,69,33,360,31,70,51,262,26,71,17,221,18,73,14,214,14*6C
$GLGSV,3,2,09,80,13,161,27,82,24,121,15,83,44,062,28,84,19,001,*6E
$GLGSV,3,3,09,,,,37*68
$GNGLL,0419.95024,S,05539.71640,E,112151.00,A,A*65
$GNRMC,112154.00,A,0419.95021,S,05539.71638,E,0.011,,260525,,,A*75
$GNVTG,,T,,M,0.011,N,0.020,K,A*3F
$GNGGA,112154.00,0419.95021,S,05539.71638,E,1,12,0.61,57.3,M,-47.6,M,,*42
$GNGSA,A,3,32,29,26,10,28,18,31,25,16,27,,,1.39,0.61,1.25*1D
$GNGSA,A,3,69,82,70,83,80,73,71,,,,,,1.39,0.61,1.25*15
$GPGSV,4,1,16,10,22,347,15,16,25,261,38,18,30,061,35,23,07,025,15*7E
$GPGSV,4,2,16,25,06,137,20,26,30,230,30,27,28,323,36,28,37,171,40*7E
$GPGSV,4,3,16,29,29,144,35,31,22,199,27,32,78,343,40,36,52,277,39*7C
$GPGSV,4,4,16,40,84,353,40,41,58,082,37,49,32,274,,50,10,089,*79
$GLGSV,3,1,09,69,33,360,32,70,51,262,26,71,17,221,15,73,14,214,18*6E
$GLGSV,3,2,09,80,13,161,28,82,24,121,21,83,44,062,27,84,19,001,*69
$GLGSV,3,3,09,,,,37*68
$GNGLL,0419.95021,S,05539.71638,E,112154.00,A,A*6A
$GNRMC,112156.00,A,0419.95017,S,05539.71637,E,0.006,,260525,,,D*7E
$GNVTG,,T,,M,0.006,N,0.011,K,D*3E
$GNGGA,112156.00,0419.95017,S,05539.71637,E,2,12,0.61,57.5,M,-47.6,M,,0000*4F
$GNGSA,A,3,32,29,26,10,28,18,31,25,16,27,,,1.39,0.61,1.25*1D
$GNGSA,A,3,69,82,70,83,80,73,71,,,,,,1.39,0.61,1.25*15
$GPGSV,4,1,16,10,22,347,13,16,25,261,38,18,30,061,36,23,07,026,17*7A
$GPGSV,4,2,16,25,06,137,21,26,30,230,32,27,28,323,34,28,37,171,40*7F
$GPGSV,4,3,16,29,29,144,34,31,22,199,28,32,78,343,39,36,52,277,38*7D
$GPGSV,4,4,16,40,84,353,38,41,58,082,37,49,32,274,,50,10,089,*76
$GLGSV,3,1,09,69,33,360,31,70,51,262,26,71,17,221,18,73,14,214,18*60
$GLGSV,3,2,09,80,13,161,28,82,24,121,20,83,44,062,27,84,19,001,*68
$GLGSV,3,3,09,,,,38*67
$GNGLL,0419.95017,S,05539.71637,E,112156.00,A,D*67
$GNRMC,112201.00,A,0419.95014,S,05539.71640,E,0.069,,260525,,,D*75
$GNVTG,,T,,M,0.069,N,0.128,K,D*3C
$GNGGA,112201.00,0419.95014,S,05539.71640,E,2,12,0.61,57.6,M,-47.6,M,,0000*4E
$GNGSA,A,3,32,29,26,10,28,18,31,25,16,27,,,1.39,0.61,1.25*1D
$GNGSA,A,3,69,82,70,83,80,73,,,,,,,1.39,0.61,1.25*13
$GPGSV,4,1,16,10,22,347,23,16,25,261,40,18,30,061,39,23,07,026,*7F
$GPGSV,4,2,16,25,05,137,33,26,30,229,34,27,28,323,38,28,38,170,43*70
$GPGSV,4,3,16,29,29,144,38,31,22,199,31,32,78,343,43,36,52,277,42*79
$GPGSV,4,4,16,40,84,353,42,41,58,082,40,49,32,274,,50,10,089,*7B
$GLGSV,3,1,09,69,33,360,24,70,51,262,27,71,17,221,11,73,14,214,20*67
$GLGSV,3,2,09,80,13,161,28,82,24,121,20,83,44,062,29,84,19,001,*66
$GLGSV,3,3,09,,,,36*69
$GNGLL,0419.95014,S,05539.71640,E,112201.00,A,D*65
$GNRMC,112206.00,A,0419.95012,S,05539.71641,E,0.031,,260525,,,D*78
$GNVTG,,T,,M,0.031,N,0.057,K,D*38
$GNGGA,112206.00,0419.95012,S,05539.71641,E,2,12,0.61,57.5,M,-47.6,M,,0000*4D
$GNGSA,A,3,32,29,26,10,28,18,31,25,16,27,,,1.42,0.61,1.29*1D
$GNGSA,A,3,69,82,70,83,80,73,71,,,,,,1.42,0.61,1.29*15
$GPGSV,4,1,16,10,22,347,23,16,25,261,40,18,30,061,38,23,07,026,18*77
$GPGSV,4,2,16,25,05,137,27,26,30,229,33,27,28,323,37,28,38,170,43*7D
$GPGSV,4,3,16,29,29,144,39,31,23,199,30,32,78,345,41,36,52,277,40*7E
$GPGSV,4,4,16,40,84,353,40,41,58,082,40,49,32,274,,50,10,089,*79
$GLGSV,3,1,09,69,33,360,29,70,51,262,28,71,17,221,14,73,14,214,15*66
