$GNVTG,,T,,M,0.072,N,0.133,K,A*39
$GNGGA,112515.00,0419.95087,S,05539.72103,E,1,12,0.63,57.9,M,-47.6,M,,*4B
$GNGSA,A,3,32,29,26,10,28,18,31,16,27,,,,1.55,0.63,1.41*10
$GNGSA,A,3,69,82,70,83,80,73,71,,,,,,1.55,0.63,1.41*1F
$GPGSV,4,1,16,10,22,348,12,16,25,260,28,18,30,063,16,23,06,027,*72
$GPGSV,4,2,16,25,05,136,19,26,30,228,44,27,29,322,36,28,38,169,40*7A
$GPGSV,4,3,16,29,28,144,37,31,23,198,38,32,77,347,42,36,52,277,29*79
$GPGSV,4,4,16,40,84,353,41,41,58,082,29,49,32,274,,50,10,089,*77
$GLGSV,3,1,09,69,31,000,29,70,51,266,21,71,18,222,39,73,14,212,36*68
$GLGSV,3,2,09,80,13,159,32,82,23,123,28,83,45,064,16,84,21,002,*68
$GLGSV,3,3,09,,,,36*69
$GNGLL,0419.95087,S,05539.72103,E,112515.00,A,A*6B
$GNRMC,112523.00,A,0419.95096,S,05539.72117,E,0.105,,260525,,,A*70
$GNVTG,,T,,M,0.105,N,0.195,K,A*34
$GNGGA,112523.00,0419.95096,S,05539.72117,E,1,12,0.63,58.5,M,-47.6,M,,*48
$GNGSA,A,3,32,29,26,10,28,18,31,16,27,,,,1.55,0.63,1.41*10
$GNGSA,A,3,69,82,70,83,80,73,71,,,,,,1.55,0.63,1.41*1F
$GPGSV,4,1,16,10,22,348,19,16,25,260,30,18,30,063,29,23,06,027,*7C
$GPGSV,4,2,16,25,05,136,27,26,30,228,39,27,29,322,31,28,38,169,41*7B
$GPGSV,4,3,16,29,28,144,25,31,23,198,37,32,77,347,38,36,52,277,36*76
$GPGSV,4,4,16,40,84,353,38,41,58,082,35,49,32,274,,50,10,089,*74
$GLGSV,3,1,09,69,31,000,22,70,51,266,22,71,18,222,36,73,14,212,36*6F
$GLGSV,3,2,09,80,13,159,34,82,23,123,27,83,45,064,34,84,21,002,*61
$GLGSV,3,3,09,,,,26*68
$GNGLL,0419.95096,S,05539.72117,E,112523.00,A,A*6B
$GNRMC,112524.00,A,0419.95088,S,05539.72116,E,0.261,,260525,,,A*78
$GNVTG,,T,,M,0.261,N,0.484,K,A*30
$GNGGA,112524.00,0419.95088,S,05539.72116,E,1,12,0.63,58.5,M,-47.6,M,,*41
$GNGSA,A,3,32,29,26,10,28,18,31,16,27,,,,1.55,0.63,1.41*10
$GNGSA,A,3,69,82,70,83,80,73,71,,,,,,1.55,0.63,1.41*1F
$GPGSV,4,1,16,10,22,348,17,16,25,260,25,18,30,063,27,23,06,027,*78
$GPGSV,4,2,16,25,05,136,27,26,30,228,41,27,29,322,23,28,38,169,39*78
$GPGSV,4,3,16,29,28,144,36,31,23,198,39,32,77,347,37,36,52,277,28*7A
$GPGSV,4,4,16,40,84,353,40,41,58,082,40,49,32,274,,50,10,089,*79
$GLGSV,3,1,09,69,31,000,20,70,51,266,23,71,18,222,36,73,14,212,35*6F
$GLGSV,3,2,09,80,13,159,34,82,23,123,28,83,45,064,31,84,21,002,*6B
$GLGSV,3,3,09,,,,29*67
$GNGLL,0419.95088,S,05539.72116,E,112524.00,A,A*62
$GNRMC,112525.00,A,0419.95087,S,05539.72116,E,0.095,,260525,,,A*7F
$GNVTG,,T,,M,0.095,N,0.176,K,A*31
$GNGGA,112525.00,0419.95087,S,05539.72116,E,1,12,0.63,58.5,M,-47.6,M,,*4F
$GNGSA,A,3,32,29,26,10,28,18,31,16,27,,,,1.55,0.63,1.41*10
$GNGSA,A,3,69,82,70,83,80,73,71,,,,,,1.55,0.63,1.41*1F
$GPGSV,4,1,16,10,22,348,17,16,25,260,30,18,30,063,26,23,06,027,*7D
$GPGSV,4,2,16,25,05,136,29,26,30,228,40,27,29,322,31,28,38,169,35*78
$GPGSV,4,3,16,29,28,144,37,31,23,198,35,32,77,347,36,36,52,277,33*7C
$GPGSV,4,4,16,40,84,353,37,41,58,082,39,49,32,274,,50,10,089,*77
$GLGSV,3,1,09,69,31,000,17,70,51,266,25,71,18,222,39,73,14,212,35*62
$GLGSV,3,2,09,80,13,159,32,82,23,123,29,83,45,064,36,84,21,002,*6B
$GLGSV,3,3,09,,,,28*66
$GNGLL,0419.95087,S,05539.72116,E,112525.00,A,A*6C
$GNRMC,112526.00,A,0419.95085,S,05539.72116,E,0.091,,260525,,,A*7A
$GNVTG,,T,,M,0.091,N,0.168,K,A*3A
$GNGGA,112526.00,0419.95085,S,05539.72116,E,1,12,0.60,58.6,M,-47.6,M,,*4E
$GNGSA,A,3,32,29,26,10,28,18,31,16,27,,,,1.44,0.60,1.31*14
$GNGSA,A,3,69,82,70,83,80,73,71,,,,,,1.44,0.60,1.31*1B
$GPGSV,4,1,16,10,22,348,17,16,25,260,30,18,30,063,26,23,06,027,*7D
$GPGSV,4,2,16,25,05,136,28,26,30,228,38,27,29,322,30,28,38,169,34*76
$GPGSV,4,3,16,29,28,144,36,31,23,198,35,32,77,347,37,36,52,277,32*7D
$GPGSV,4,4,16,40,84,353,39,41,58,082,38,49,32,274,,50,10,089,*78
$GLGSV,3,1,09,69,31,000,18,70,51,266,25,71,18,222,37,73,14,212,35*63
$GLGSV,3,2,09,80,13,159,31,82,23,123,29,83,45,064,32,84,21,002,*6C
$GLGSV,3,3,09,,,,28*66
$GNGLL,0419.95085,S,05539.72116,E,112526.00,A,A*6D
$GNRMC,112527.00,A,0419.95086,S,05539.72115,E,0.089,,260525,,,A*72
$GNVTG,,T,,M,0.089,N,0.165,K,A*3E
$GNGGA,112527.00,0419.95086,S,05539.72115,E,1,12,0.63,58.5,M,-47.6,M,,*4F
$GNGSA,A,3,32,29,26,10,28,18,31,16,27,,,,1.55,0.63,1.41*10
$GNGSA,A,3,69,82,70,83,80,73,71,,,,,,1.55,0.63,1.41*1F
$GPGSV,4,1,16,10,22,348,19,16,25,260,29,18,30,063,23,23,06,027,*7E
$GPGSV,4,2,16,25,05,136,26,26,30,228,38,27,29,322,28,28,38,169,35*70
$GPGSV,4,3,16,29,28,144,40,31,23,198,36,32,77,347,36,36,52,277,27*7A
$GPGSV,4,4,16,40,84,353,39,41,58,082,38,49,32,274,,50,10,089,*78
$GLGSV,3,1,09,69,31,000,19,70,51,266,23,71,18,222,37,73,14,212,33*62
$GLGSV,3,2,09,80,13,159,31,82,23,123,18,83,45,064,30,84,21,002,*6C
$GLGSV,3,3,09,,,,25*6B
$GNGLL,0419.95086,S,05539.72115,E,112527.00,A,A*6C
$GNRMC,112528.00,A,0419.95084,S,05539.72112,E,0.055,,260525,,,A*79
$GNVTG,,T,,M,0.055,N,0.102,K,A*3E
$GNGGA,112528.00,0419.95084,S,05539.72112,E,1,12,0.60,58.4,M,-47.6,M,,*47
$GNGSA,A,3,32,29,26,10,28,18,31,16,27,,,,1.44,0.60,1.31*14
$GNGSA,A,3,69,82,70,83,80,73,71,,,,,,1.44,0.60,1.31*1B
$GPGSV,4,1,16,10,22,348,19,16,25,260,26,18,30,063,20,23,06,027,*72
$GPGSV,4,2,16,25,05,136,25,26,30,228,39,27,29,322,27,28,38,169,36*7E
$GPGSV,4,3,16,29,28,144,40,31,23,198,36,32,77,347,33,36,52,277,*7A
$GPGSV,4,4,16,40,84,353,39,41,58,082,38,49,32,274,,50,10,089,*78
$GLGSV,3,1,09,69,31,000,20,70,51,266,21,71,18,222,40,73,14,212,36*6F
$GLGSV,3,2,09,80,13,159,39,82,23,123,29,83,45,064,30,84,21,002,*66
$GLGSV,3,3,09,,,,24*6A
$GNGLL,0419.95084,S,05539.72112,E,112528.00,A,A*66
$GNRMC,112531.00,A,0419.95084,S,05539.72112,E,0.063,,260525,,,A*74
$GNVTG,,T,,M,0.063,N,0.117,K,A*3F
$GNGGA,112531.00,0419.95084,S,05539.72112,E,1,12,0.68,58.3,M,-47.6,M,,*40
$GNGSA,A,3,32,29,26,10,28,31,16,27,,,,,1.58,0.68,1.42*1C
$GNGSA,A,3,69,82,70,83,80,73,71,,,,,,1.58,0.68,1.42*1A
$GPGSV,4,1,16,10,22,349,22,16,25,260,26,18,30,063,,23,06,027,*79
$GPGSV,4,2,16,25,05,136,20,26,30,228,30,27,29,322,25,28,38,169,35*73
$GPGSV,4,3,16,29,28,144,37,31,23,198,37,32,77,347,33,36,52,277,*7B
$GPGSV,4,4,16,40,84,353,32,41,58,082,36,49,32,274,,50,10,089,*7D
$GLGSV,3,1,09,69,31,000,24,70,51,266,19,71,18,222,28,73,14,212,26*6F
$GLGSV,3,2,09,80,13,159,31,82,23,123,23,83,45,064,29,84,21,002,*6C
$GNRMC,112532.00,A,0419.95081,S,05539.72114,E,0.047,,260525,,,A*72
$GNVTG,,T,,M,0.047,N,0.087,K,A*31
$GNGGA,112532.00,0419.95081,S,05539.72114,E,1,12,0.70,58.3,M,-47.6,M,,*49
$GNGSA,A,3,32,29,26,10,28,31,16,27,,,,,1.73,0.70,1.58*17
$GNGSA,A,3,69,82,70,83,80,73,71,,,,,,1.73,0.70,1.58*11
$GPGSV,4,1,16,10,22,349,21,16,25,260,31,18,30,063,18,23,06,027,*75
$GPGSV,4,2,16,25,05,136,22,26,30,228,39,27,29,322,24,28,38,169,42*79
$GPGSV,4,3,16,29,28,144,38,31,23,198,38,32,77,347,39,36,52,277,*71
$GPGSV,4,4,16,40,84,353,38,41,58,082,40,49,32,274,,50,10,089,*76
$GLGSV,3,1,09,69,31,000,23,70,51,266,18,71,18,222,36,73,14,212,35*64
$GLGSV,3,2,09,80,13,159,39,82,23,123,27,83,45,064,29,84,21,002,*60
$GLGSV,3,3,09,,,,22*6C
$GNRMC,112533.00,A,0419.95076,S,05539.72120,E,0.174,,260525,,,A*7D
$GNVTG,,T,,M,0.174,N,0.322,K,A*3C
$GNGGA,112533.00,0419.95076,S,05539.72120,E,1,12,0.64,57.8,M,-47.6,M,,*46
$GNGSA,A,3,32,29,26,10,28,31,16,27,,,,,1.55,0.64,1.42*1D
$GNGSA,A,3,69,82,70,83,80,73,71,,,,,,1.55,0.64,1.42*1B
$GPGSV,4,1,16,10,22,349,27,16,25,260,24,18,30,063,,23,06,027,*7E
$GPGSV,4,2,16,25,05,136,29,26,30,228,36,27,29,322,24,28,38,169,40*7F
$GPGSV,4,3,16,29,28,144,41,31,23,198,38,32,77,347,43,36,52,277,*72
$GPGSV,4,4,16,40,84,353,38,41,58,082,38,49,32,274,,50,10,089,*79
$GLGSV,3,1,09,69,31,000,26,70,51,266,21,71,18,222,38,73,14,212,36*66
$GLGSV,3,2,09,80,13,159,40,82,23,123,26,83,45,064,28,84,21,002,*6E
$GLGSV,3,3,09,,,,30*6F
$GNGLL,0419.95076,S,05539.72120,E,112533.00,A,A*60
$GNGSA,A,3,32,29,26,10,28,31,16,27,,,,,1.55,0.64,1.42*1D
$GNGSA,A,3,69,82,70,83,80,73,71,,,,,,1.55,0.64,1.42*1B
$GPGSV,4,1,16,10,22,349,15,16,25,260,26,18,30,063,25,23,06,027,*7A
$GPGSV,4,2,16,25,05,136,28,26,30,228,38,27,29,322,24,28,38,169,45*75
$GPGSV,4,3,16,29,28,144,44,31,23,198,33,32,77,347,42,36,52,277,*7D
$GPGSV,4,4,16,40,84,353,40,41,58,082,37,49,32,274,,50,10,089,*79
$GLGSV,3,1,09,69,31,000,25,70,51,266,20,71,18,222,36,73,14,212,38*64
$GLGSV,3,2,09,80,13,159,37,82,23,123,28,83,45,064,27,84,21,002,*6F
$GLGSV,3,3,09,,,,25*6B
$GNGLL,0419.95074,S,05539.72122,E,112534.00,A,A*67
$GNRMC,112535.00,A,0419.95073,S,05539.72121,E,0.149,,260525,,,A*71
$GNVTG,,T,,M,0.149,N,0.276,K,A*32
$GNGGA,112535.00,0419.95073,S,05539.72121,E,1,12,0.61,57.8,M,-47.6,M,,*41
$GNGSA,A,3,32,29,26,10,28,18,31,16,27,,,,1.54,0.61,1.42*10
$GNGSA,A,3,69,82,70,83,80,73,71,,,,,,1.54,0.61,1.42*1F
$GPGSV,4,1,16,10,22,349,28,16,25,259,26,18,30,063,26,23,06,027,*7D
$GPGSV,4,2,16,25,05,136,26,26,30,228,33,27,29,322,24,28,38,169,43*76
$GPGSV,4,3,16,29,28,144,43,31,23,198,36,32,77,347,39,36,52,277,*73
$GPGSV,4,4,16,40,84,353,41,41,58,082,39,49,32,274,,50,10,089,*76
$GLGSV,3,1,09,69,31,000,23,70,51,266,23,71,18,222,38,73,14,212,35*62
$GLGSV,3,2,09,80,13,159,37,82,23,123,33,83,45,064,29,84,21,002,*6B
$GLGSV,3,3,09,,,,34*6B
$GNGLL,0419.95073,S,05539.72121,E,112535.00,A,A*62
$GNRMC,112536.00,A,0419.95071,S,05539.72119,E,0.070,,260525,,,A*70
$GNVTG,,T,,M,0.070,N,0.130,K,A*38
$GNGGA,112536.00,0419.95071,S,05539.72119,E,1,12,0.60,57.9,M,-47.6,M,,*4B
$GNGSA,A,3,32,29,26,10,28,18,31,16,27,,,,1.44,0.60,1.31*14
$GNGSA,A,3,69,82,70,83,80,73,71,,,,,,1.44,0.60,1.31*1B
$GPGSV,4,1,16,10,22,349,26,16,25,259,26,18,30,063,27,23,06,027,*72
$GPGSV,4,2,16,25,05,136,25,26,30,228,33,27,29,322,26,28,38,169,43*77
$GPGSV,4,3,16,29,28,144,43,31,23,198,32,32,77,347,38,36,52,277,*76
$GPGSV,4,4,16,40,84,353,41,41,58,082,37,49,32,274,,50,10,089,*78
$GLGSV,3,1,09,69,31,000,21,70,51,266,25,71,18,222,37,73,14,212,37*6B
$GLGSV,3,2,09,80,13,159,38,82,23,123,32,83,45,064,30,84,21,002,*6D
$GLGSV,3,3,09,,,,34*6B
$GNGLL,0419.95071,S,05539.72119,E,112536.00,A,A*68
$GNRMC,112538.00,A,0419.95067,S,05539.72110,E,0.356,,260525,,,A*77
$GNVTG,,T,,M,0.356,N,0.659,K,A*37
$GNGGA,112538.00,0419.95067,S,05539.72110,E,1,12,0.60,58.1,M,-47.6,M,,*4C
$GNGSA,A,3,32,29,26,10,28,18,31,16,27,,,,1.44,0.60,1.31*14
$GNGSA,A,3,69,82,70,83,80,73,71,,,,,,1.44,0.60,1.31*1B
$GPGSV,4,1,16,10,22,349,27,16,25,259,26,18,30,064,27,23,06,027,*74
$GPGSV,4,2,16,25,05,136,23,26,30,228,35,27,29,322,32,28,38,169,41*70
$GPGSV,4,3,16,29,28,144,44,31,23,198,34,32,77,347,39,36,52,277,35*70
$GPGSV,4,4,16,40,84,353,37,41,58,082,42,49,32,274,,50,10,089,*7B
$GLGSV,3,1,09,69,31,000,22,70,51,266,26,71,18,222,38,73,14,212,38*6B
$GLGSV,3,2,09,80,13,159,39,82,23,123,35,83,45,064,34,84,21,002,*6F
$GLGSV,3,3,09,,,,38*67
$GNGLL,0419.95067,S,05539.72110,E,112538.00,A,A*68
$GNRMC,112539.00,A,0419.95063,S,05539.72116,E,0.428,,260525,,,A*7A
$GNVTG,,T,,M,0.428,N,0.793,K,A*3E
$GNGGA,112539.00,0419.95063,S,05539.72116,E,1,12,0.60,58.0,M,-47.6,M,,*4E
$GNGSA,A,3,32,29,26,10,28,18,31,16,27,,,,1.44,0.60,1.31*14
$GNGSA,A,3,69,82,70,83,80,73,71,,,,,,1.44,0.60,1.31*1B
$GPGSV,4,1,16,10,22,349,24,16,25,259,25,18,30,064,31,23,06,027,*73
$GPGSV,4,2,16,25,05,136,21,26,30,228,39,27,29,322,30,28,38,169,41*7C
$GPGSV,4,3,16,29,28,144,40,31,23,198,33,32,77,347,39,36,52,277,38*7E
$GPGSV,4,4,16,40,84,353,36,41,58,082,33,49,32,274,,50,10,089,*7C
$GLGSV,3,1,09,69,31,000,30,70,51,266,30,71,18,222,39,73,14,212,38*6E
$GLGSV,3,2,09,80,13,159,35,82,23,123,36,83,45,064,30,84,21,002,*64
$GLGSV,3,3,09,,,,36*69
$GNGLL,0419.95063,S,05539.72116,E,112539.00,A,A*6B
$GNRMC,112540.00,A,0419.95064,S,05539.72116,E,0.221,,260525,,,A*7C
$GNVTG,,T,,M,0.221,N,0.409,K,A*31
$GNGGA,112540.00,0419.95064,S,05539.72116,E,1,12,0.60,57.9,M,-47.6,M,,*41
$GNGSA,A,3,32,29,26,10,28,18,31,16,27,,,,1.44,0.60,1.31*14
$GNGSA,A,3,69,82,70,83,80,73,71,,,,,,1.44,0.60,1.31*1B
$GPGSV,4,1,16,10,22,349,24,16,25,259,27,18,30,064,26,23,06,027,*77
$GPGSV,4,2,16,25,05,136,29,26,30,228,34,27,29,322,29,28,38,169,40*70
$GPGSV,4,3,16,29,28,144,43,31,23,198,36,32,77,347,36,36,52,277,38*77
$GPGSV,4,4,16,40,84,353,38,41,58,082,37,49,32,274,,50,10,089,*76
$GLGSV,3,1,09,69,31,000,25,70,51,266,25,71,18,222,35,73,14,212,39*63
$GLGSV,3,2,09,80,13,159,35,82,23,123,39,83,45,064,31,84,21,002,*6A
$GLGSV,3,3,09,,,,29*67
$GNGLL,0419.95064,S,05539.72116,E,112540.00,A,A*62
$GNRMC,112541.00,A,0419.95066,S,05539.72112,E,0.026,,260525,,,A*7E
$GNVTG,,T,,M,0.026,N,0.049,K,A*34
$GNGGA,112541.00,0419.95066,S,05539.72112,E,1,12,0.60,58.0,M,-47.6,M,,*40
$GNGSA,A,3,32,29,26,10,28,18,31,16,27,,,,1.44,0.60,1.31*14
$GNGSA,A,3,69,82,70,83,80,73,71,,,,,,1.44,0.60,1.31*1B
$GPGSV,4,1,16,10,22,349,23,16,25,259,26,18,30,064,26,23,06,027,*71
$GPGSV,4,2,16,25,05,136,28,26,30,228,35,27,29,322,20,28,38,169,40*79
$GPGSV,4,3,16,29,28,144,43,31,23,198,35,32,77,347,38,36,52,277,37*75
$GPGSV,4,4,16,40,84,353,38,41,58,082,37,49,32,274,,50,10,089,*76
$GLGSV,3,1,09,69,31,000,27,70,51,266,24,71,18,222,36,73,14,212,39*63
$GLGSV,3,2,09,80,13,159,36,82,23,123,39,83,45,064,31,84,21,002,*69
$GLGSV,3,3,09,,,,26*68
$GNGLL,0419.95066,S,05539.72112,E,112541.00,A,A*65
$GNRMC,112542.00,A,0419.95063,S,05539.72119,E,0.312,,260525,,,A*77
$GNVTG,,T,,M,0.312,N,0.578,K,A*37
$GNGGA,112542.00,0419.95063,S,05539.72119,E,1,12,0.63,58.0,M,-47.6,M,,*4E
$GNGSA,A,3,32,29,26,10,28,18,31,16,27,,,,1.55,0.63,1.41*10
$GNGSA,A,3,69,82,70,83,80,73,71,,,,,,1.55,0.63,1.41*1F
$GPGSV,4,1,16,10,22,349,22,16,25,259,26,18,30,064,26,23,06,027,*70
$GPGSV,4,2,16,25,05,136,29,26,30,228,37,27,29,322,30,28,38,169,41*7A
$GPGSV,4,3,16,29,28,144,42,31,23,198,32,32,77,347,35,36,52,277,32*7B
$GPGSV,4,4,16,40,84,353,38,41,58,082,37,49,32,274,,50,10,089,*76
$GLGSV,3,1,09,69,31,000,28,70,51,266,26,71,18,222,38,73,14,212,37*6E
$GLGSV,3,2,09,80,13,159,36,82,23,123,36,83,45,064,35,84,21,002,*62
$GLGSV,3,3,09,,,,32*6D
$GNGLL,0419.95063,S,05539.72119,E,112542.00,A,A*68
$GNRMC,112543.00,A,0419.95050,S,05539.72111,E,0.867,27.22,260525,,,A*5C
$GNVTG,27.22,T,,M,0.867,N,1.605,K,A*1D
$GNGGA,112543.00,0419.95050,S,05539.72111,E,1,12,0.63,57.6,M,-47.6,M,,*4E
$GNGSA,A,3,32,29,26,10,28,18,31,16,27,,,,1.55,0.63,1.41*10
$GNGSA,A,3,69,82,70,83,80,73,71,,,,,,1.55,0.63,1.41*1F
$GPGSV,4,1,16,10,22,349,22,16,25,259,27,18,30,064,25,23,06,027,*72
$GPGSV,4,2,16,25,05,136,21,26,30,228,26,27,29,322,28,28,38,169,38*75
$GPGSV,4,3,16,29,28,144,39,31,23,198,36,32,77,347,32,36,52,277,28*7F
$GPGSV,4,4,16,40,84,353,29,41,58,082,,49,32,274,,50,10,089,*72
$GLGSV,3,1,09,69,31,000,21,70,51,266,26,71,18,222,28,73,14,212,31*60
$GLGSV,3,2,09,80,13,159,38,82,23,123,35,83,45,064,31,84,21,002,*6B
$GLGSV,3,3,09,,,,29*67
$GNGLL,0419.95050,S,05539.72111,E,112543.00,A,A*61
$GNRMC,112544.00,A,0419.95043,S,05539.72101,E,0.301,,260525,,,A*78
$GNVTG,,T,,M,0.301,N,0.557,K,A*38
$GNGGA,112544.00,0419.95043,S,05539.72101,E,1,12,0.63,57.5,M,-47.6,M,,*49
$GNGSA,A,3,32,29,26,10,28,18,31,16,27,,,,1.55,0.63,1.41*10
$GNGSA,A,3,69,82,70,83,80,73,71,,,,,,1.55,0.63,1.41*1F
$GPGSV,4,1,16,10,22,349,18,16,25,259,26,18,30,064,25,23,06,027,*7A
$GPGSV,4,2,16,25,05,136,20,26,30,227,37,27,29,322,36,28,38,169,37*7B
$GPGSV,4,3,16,29,28,144,27,31,23,198,34,32,77,347,34,36,52,277,*7E
$GPGSV,4,4,16,40,84,353,29,41,58,082,,49,32,274,,50,10,089,*72
$GLGSV,3,1,09,69,31,000,21,70,51,266,25,71,18,222,32,73,14,212,37*6E
$GLGSV,3,2,09,80,13,159,29,82,23,123,26,83,45,064,25,84,21,002,*6C
$GLGSV,3,3,09,,,,36*69
$GNGLL,0419.95043,S,05539.72101,E,112544.00,A,A*65
$GNRMC,112545.00,A,0419.95042,S,05539.72104,E,0.079,,260525,,,A*71
$GNVTG,,T,,M,0.079,N,0.147,K,A*31
$GNGGA,112545.00,0419.95042,S,05539.72104,E,1,12,0.63,57.5,M,-47.6,M,,*4C
$GNGSA,A,3,32,29,26,10,28,18,31,16,27,,,,1.55,0.63,1.41*10
$GNGSA,A,3,69,82,70,83,80,73,71,,,,,,1.55,0.63,1.41*1F
$GPGSV,4,1,16,10,22,349,17,16,25,259,32,18,30,064,25,23,06,027,*70
$GPGSV,4,2,16,25,05,136,20,26,30,227,34,27,30,322,34,28,38,169,39*7C
$GPGSV,4,3,16,29,28,144,36,31,23,198,39,32,77,347,34,36,52,277,*73
$GPGSV,4,4,16,40,84,353,,41,58,082,30,49,32,274,,50,10,089,*7A
$GLGSV,3,1,09,69,31,000,21,70,51,266,26,71,18,222,31,73,14,212,37*6E
$GLGSV,3,2,09,80,13,159,27,82,23,123,26,83,45,064,23,84,21,002,*64
$GLGSV,3,3,09,,,,39*66
$GNGLL,0419.95042,S,05539.72104,E,112545.00,A,A*60
$GNRMC,112548.00,A,0419.95047,S,05539.72102,E,0.038,,260525,,,A*7A
$GNVTG,,T,,M,0.038,N,0.070,K,A*31
$GNGGA,112548.00,0419.95047,S,05539.72102,E,1,12,0.60,57.6,M,-47.6,M,,*42
$GNGSA,A,3,32,29,26,10,28,18,31,16,27,,,,1.44,0.60,1.31*14
$GNGSA,A,3,69,82,70,83,80,73,71,,,,,,1.44,0.60,1.31*1B
$GPGSV,4,1,16,10,22,349,21,16,25,259,34,18,30,064,27,23,06,027,*71
$GPGSV,4,2,16,25,05,136,21,26,30,227,37,27,30,322,36,28,39,168,40*72
$GPGSV,4,3,16,29,27,144,38,31,23,198,43,32,77,347,35,36,52,277,*7E
$GPGSV,4,4,16,40,84,353,,41,58,082,30,49,32,274,,50,10,089,*7A
$GLGSV,3,1,09,69,31,000,20,70,51,266,32,71,18,222,34,73,14,212,36*6E
$GLGSV,3,2,09,80,13,159,27,82,23,123,29,83,45,064,21,84,21,002,*69
$GNGLL,0419.95047,S,05539.72102,E,112548.00,A,A*6E
$GNRMC,112549.00,A,0419.95050,S,05539.72098,E,0.073,,260525,,,A*70
$GNVTG,,T,,M,0.073,N,0.135,K,A*3E
$GNGGA,112549.00,0419.95050,S,05539.72098,E,1,12,0.60,57.7,M,-47.6,M,,*46
$GNGSA,A,3,32,29,26,10,28,18,31,16,27,,,,1.44,0.60,1.31*14
$GNGSA,A,3,69,82,70,83,80,73,71,,,,,,1.44,0.60,1.31*1B
$GPGSV,4,1,16,10,22,349,22,16,25,259,33,18,30,064,27,23,06,027,*75
$GPGSV,4,2,16,25,05,136,20,26,30,227,38,27,30,322,38,28,39,168,41*73
$GPGSV,4,3,16,29,27,144,40,31,24,197,42,32,77,347,37,36,52,277,*7A
$GPGSV,4,4,16,40,84,353,,41,58,082,29,49,32,274,,50,10,089,*72
$GLGSV,3,1,09,69,31,000,24,70,51,266,31,71,18,222,33,73,14,212,36*6E
$GLGSV,3,2,09,80,13,159,21,82,23,123,30,83,45,064,20,84,21,002,*66
$GLGSV,3,3,09,,,,40*68
$GNGLL,0419.95050,S,05539.72098,E,112549.00,A,A*6B
$GNRMC,112550.00,A,0419.95050,S,05539.72098,E,0.011,,260525,,,A*7C
$GNVTG,,T,,M,0.011,N,0.019,K,A*35
$GNGGA,112550.00,0419.95050,S,05539.72098,E,1,12,0.60,57.8,M,-47.6,M,,*41
$GNGSA,A,3,32,29,26,10,28,18,31,16,27,,,,1.44,0.60,1.31*14
$GNGSA,A,3,69,82,70,83,80,73,71,,,,,,1.44,0.60,1.31*1B
$GPGSV,4,1,16,10,22,349,20,16,25,259,32,18,30,064,28,23,06,027,*79
$GPGSV,4,2,16,25,05,136,19,26,30,227,39,27,30,322,39,28,39,168,40*78
$GPGSV,4,3,16,29,27,144,38,31,24,197,42,32,76,347,37,36,52,277,*74
$GPGSV,4,4,16,40,84,353,,41,58,082,28,49,32,274,,50,10,089,*73
$GLGSV,3,1,09,69,31,000,24,70,51,266,31,71,18,222,31,73,14,212,36*6C
$GLGSV,3,2,09,80,13,159,28,82,23,123,31,83,45,064,19,84,21,002,*64
$GLGSV,3,3,09,,,,40*68
$GNGLL,0419.95050,S,05539.72098,E,112550.00,A,A*63
$GNRMC,112551.00,A,0419.95051,S,05539.72097,E,0.008,,260525,,,A*7B
$GNVTG,,T,,M,0.008,N,0.014,K,A*30
$GNGGA,112551.00,0419.95051,S,05539.72097,E,1,12,0.60,57.8,M,-47.6,M,,*4E
$GNGSA,A,3,32,29,26,10,28,18,31,16,27,,,,1.44,0.60,1.31*14
$GNGSA,A,3,69,82,70,83,80,73,71,,,,,,1.44,0.60,1.31*1B
$GPGSV,4,1,16,10,22,349,19,16,25,259,31,18,30,064,27,23,06,027,*7F
$GPGSV,4,2,16,25,05,136,17,26,30,227,38,27,30,322,37,28,39,168,38*76
$GPGSV,4,3,16,29,27,144,38,31,24,197,42,32,76,347,38,36,52,277,*7B
$GPGSV,4,4,16,40,84,353,,41,58,082,31,49,32,274,,50,10,089,*7B
$GLGSV,3,1,09,69,31,000,21,70,51,266,32,71,18,222,32,73,14,212,37*68
$GLGSV,3,2,09,80,13,159,26,82,23,123,29,83,45,064,18,84,21,002,*62
$GLGSV,3,3,09,,,,40*68
$GNGLL,0419.95051,S,05539.72097,E,112551.00,A,A*6C
$GNRMC,112552.00,A,0419.95051,S,05539.72098,E,0.045,,260525,,,A*7E
$GNVTG,,T,,M,0.045,N,0.084,K,A*30
$GNGGA,112552.00,0419.95051,S,05539.72098,E,1,12,0.60,57.8,M,-47.6,M,,*42
$GNGSA,A,3,32,29,26,10,28,18,31,16,27,,,,1.44,0.60,1.31*14
$GNGSA,A,3,69,82,70,83,80,73,71,,,,,,1.44,0.60,1.31*1B
$GPGSV,4,1,16,10,22,349,19,16,25,259,32,18,30,064,27,23,06,027,*7C
$GPGSV,4,2,16,25,05,136,,26,30,227,37,27,30,322,38,28,39,168,37*7F
$GPGSV,4,3,16,29,27,144,38,31,24,197,41,32,76,347,38,36,52,277,*78
$GPGSV,4,4,16,40,84,353,,41,58,082,30,49,32,274,,50,10,089,*7A
$GLGSV,3,1,09,69,31,000,21,70,51,266,32,71,18,222,31,73,14,212,37*6B
$GLGSV,3,2,09,80,13,159,26,82,23,123,30,83,45,064,18,84,21,002,*6A
$GLGSV,3,3,09,,,,40*68
$GNGLL,0419.95051,S,05539.72098,E,112552.00,A,A*60
$GNRMC,112553.00,A,0419.95053,S,05539.72098,E,0.063,,260525,,,A*79
$GNVTG,,T,,M,0.063,N,0.116,K,A*3E
$GNGGA,112553.00,0419.95053,S,05539.72098,E,1,12,0.60,57.8,M,-47.6,M,,*41
$GNGSA,A,3,32,29,26,10,28,18,31,16,27,,,,1.44,0.60,1.31*14
$GNGSA,A,3,69,82,70,83,80,73,71,,,,,,1.44,0.60,1.31*1B
$GPGSV,4,1,16,10,22,349,16,16,25,259,34,18,30,064,28,23,06,027,*7A
$GPGSV,4,2,16,25,05,136,,26,30,227,38,27,30,322,38,28,39,168,38*7F
$GPGSV,4,3,16,29,27,144,39,31,24,197,42,32,76,347,39,36,52,277,*7B
$GPGSV,4,4,16,40,84,353,,41,58,082,29,49,32,274,,50,10,089,*72
$GLGSV,3,1,09,69,31,000,22,70,51,266,32,71,18,222,31,73,14,212,37*68
$GLGSV,3,2,09,80,13,159,25,82,23,123,30,83,45,064,18,84,21,002,*69
$GLGSV,3,3,09,,,,40*68
$GNGLL,0419.95053,S,05539.72098,E,112553.00,A,A*63
$GLGSV,3,3,09,,,,40*68
$GNGLL,0419.95058,S,05539.72096,E,112555.00,A,A*60
$GNRMC,112558.00,A,0419.95064,S,05539.72092,E,0.067,,260525,,,A*78
$GNVTG,,T,,M,0.067,N,0.125,K,A*3A
$GNGGA,112558.00,0419.95064,S,05539.72092,E,1,12,0.60,57.9,M,-47.6,M,,*45
$GNGSA,A,3,32,29,26,10,28,18,31,16,27,,,,1.44,0.60,1.31*14
$GNGSA,A,3,69,82,70,83,80,73,71,,,,,,1.44,0.60,1.31*1B
$GPGSV,4,1,16,10,22,349,15,16,25,259,34,18,30,064,28,23,06,027,*79
$GPGSV,4,2,16,25,05,136,20,26,30,227,38,27,30,322,39,28,39,168,38*7C
$GPGSV,4,3,16,29,27,144,37,31,24,197,42,32,76,347,34,36,52,277,33*78
$GPGSV,4,4,16,40,84,353,,41,58,082,,49,32,274,,50,10,089,*79
$GLGSV,3,1,09,69,31,000,18,70,51,266,32,71,18,222,34,73,14,212,36*65
$GLGSV,3,2,09,80,13,159,27,82,23,123,31,83,45,064,15,84,21,002,*67
$GLGSV,3,3,09,,,,41*69
$GNGLL,0419.95064,S,05539.72092,E,112558.00,A,A*66
$GNRMC,112602.00,A,0419.95071,S,05539.72091,E,0.039,,260525,,,A*78
$GNVTG,,T,,M,0.039,N,0.073,K,A*33
$GNGGA,112602.00,0419.95071,S,05539.72091,E,1,12,0.60,58.1,M,-47.6,M,,*49
$GNGSA,A,3,32,29,26,10,28,18,31,16,27,,,,1.44,0.60,1.31*14
$GNGSA,A,3,69,82,70,83,80,73,71,,,,,,1.44,0.60,1.31*1B
$GPGSV,4,1,16,10,22,349,19,16,25,259,33,18,30,064,24,23,06,027,*7E
$GPGSV,4,2,16,25,05,136,21,26,30,227,41,27,30,322,31,28,39,168,39*7A
$GPGSV,4,3,16,29,27,144,37,31,24,197,41,32,76,347,37,36,52,277,35*7E
$GPGSV,4,4,16,40,84,353,,41,58,082,30,49,32,274,,50,10,089,*7A
$GLGSV,3,1,09,69,31,000,20,70,51,266,32,71,18,222,36,73,14,212,36*6C
$GLGSV,3,2,09,80,13,159,33,82,23,123,31,83,45,064,23,84,21,002,*67
$GLGSV,3,3,09,,,,40*68
$GNGLL,0419.95071,S,05539.72091,E,112602.00,A,A*6D
$GNRMC,112603.00,A,0419.95073,S,05539.72089,E,0.118,,260525,,,A*70
$GNVTG,,T,,M,0.118,N,0.219,K,A*3F
$GNGGA,112603.00,0419.95073,S,05539.72089,E,1,12,0.60,58.1,M,-47.6,M,,*43
$GNGSA,A,3,32,29,26,10,28,18,31,16,27,,,,1.44,0.60,1.31*14
$GNGSA,A,3,69,82,70,83,80,73,71,,,,,,1.44,0.60,1.31*1B
$GPGSV,4,1,16,10,22,349,19,16,25,259,32,18,30,064,23,23,06,027,*78
$GPGSV,4,2,16,25,05,136,22,26,30,227,42,27,30,322,28,28,39,168,37*7C
$GPGSV,4,3,16,29,27,144,37,31,24,197,37,32,76,347,37,36,52,277,35*7F
$GPGSV,4,4,16,40,84,353,,41,58,082,27,49,32,274,,50,10,089,*7C
$GLGSV,3,1,09,69,31,000,22,70,51,266,31,71,18,222,36,73,14,212,38*63
$GLGSV,3,2,09,80,13,159,31,82,23,123,30,83,45,064,24,84,21,002,*63
$GLGSV,3,3,09,,,,39*66
$GNGLL,0419.95073,S,05539.72089,E,112603.00,A,A*67
$GNRMC,112604.00,A,0419.95076,S,05539.72085,E,0.121,,260525,,,A*74
$GNVTG,,T,,M,0.121,N,0.224,K,A*3B
$GNGGA,112604.00,0419.95076,S,05539.72085,E,1,12,0.60,58.2,M,-47.6,M,,*4E
$GNGSA,A,3,32,29,26,10,28,18,31,16,27,,,,1.44,0.60,1.31*14
$GNGSA,A,3,69,82,70,83,80,73,71,,,,,,1.44,0.60,1.31*1B
$GPGSV,4,1,16,10,22,349,20,16,25,259,33,18,30,064,23,23,06,027,*73
$GPGSV,4,2,16,25,05,136,24,26,30,227,41,27,30,322,28,28,39,168,36*78
$GPGSV,4,3,16,29,27,144,38,31,24,197,38,32,76,347,36,36,52,277,35*7E
$GPGSV,4,4,16,40,84,353,,41,58,082,29,49,32,274,,50,10,089,*72
$GLGSV,3,1,09,69,31,000,21,70,51,266,31,71,18,222,35,73,14,212,35*6E
$GLGSV,3,2,09,80,13,159,30,82,23,123,29,83,45,064,23,84,21,002,*6D
$GLGSV,3,3,09,,,,39*66
$GNGLL,0419.95076,S,05539.72085,E,112604.00,A,A*69
$GNRMC,112605.00,A,0419.95076,S,05539.72085,E,0.095,,260525,,,A*7B
$GNVTG,,T,,M,0.095,N,0.176,K,A*31
$GNGGA,112605.00,0419.95076,S,05539.72085,E,1,12,0.60,58.1,M,-47.6,M,,*4C
$GNGSA,A,3,32,29,26,10,28,18,31,16,27,,,,1.44,0.60,1.31*14
$GNGSA,A,3,69,82,70,83,80,73,71,,,,,,1.44,0.60,1.31*1B
$GPGSV,4,1,16,10,22,349,18,16,25,259,33,18,30,064,23,23,06,027,*78
$GPGSV,4,2,16,25,05,136,25,26,30,227,41,27,30,322,28,28,39,168,37*78
$GPGSV,4,3,16,29,27,144,39,31,24,197,38,32,76,347,36,36,52,277,34*7E
$GPGSV,4,4,16,40,84,353,,41,58,082,27,49,32,274,,50,10,089,*7C
$GLGSV,3,1,09,69,31,000,19,70,51,266,31,71,18,222,35,73,14,212,35*65
$GLGSV,3,2,09,80,13,159,30,82,23,123,28,83,45,064,23,84,21,002,*6C
$GLGSV,3,3,09,,,,40*68
$GNGLL,0419.95076,S,05539.72085,E,112605.00,A,A*68
$GNGSA,A,3,32,29,26,10,28,18,31,16,27,,,,1.44,0.60,1.31*14
$GNGSA,A,3,69,82,70,83,80,73,71,,,,,,1.44,0.60,1.31*1B
$GPGSV,4,1,16,10,22,349,13,16,25,259,33,18,30,064,23,23,06,027,*73
$GPGSV,4,2,16,25,05,136,24,26,30,227,42,27,30,322,28,28,39,168,37*7A
$GPGSV,4,3,16,29,27,144,39,31,24,197,36,32,76,347,36,36,52,277,34*70
$GPGSV,4,4,16,40,84,353,,41,58,082,27,49,32,274,,50,10,089,*7C
$GLGSV,3,1,09,69,31,000,18,70,51,266,31,71,18,222,36,73,14,212,37*65
$GLGSV,3,2,09,80,13,159,32,82,23,123,28,83,45,064,23,84,21,002,*6E
$GLGSV,3,3,09,,,,40*68
$GNGLL,0419.95076,S,05539.72085,E,112606.00,A,A*6B
$GNRMC,112607.00,A,0419.95073,S,05539.72087,E,0.038,,260525,,,A*79
$GNVTG,,T,,M,0.038,N,0.070,K,A*31
$GNGGA,112607.00,0419.95073,S,05539.72087,E,1,12,0.60,58.0,M,-47.6,M,,*48
$GNGSA,A,3,32,29,26,10,28,18,31,16,27,,,,1.44,0.60,1.31*14
$GNGSA,A,3,69,82,70,83,80,73,71,,,,,,1.44,0.60,1.31*1B
$GPGSV,4,1,16,10,22,349,18,16,25,259,32,18,30,064,25,23,06,027,*7F
$GPGSV,4,2,16,25,05,136,23,26,30,227,40,27,30,322,26,28,39,168,39*7F
$GPGSV,4,3,16,29,27,144,39,31,24,197,38,32,76,347,37,36,52,277,34*7F
$GPGSV,4,4,16,40,84,353,,41,58,082,,49,32,274,,50,10,089,*79
$GLGSV,3,1,09,69,31,000,21,70,51,266,30,71,18,222,36,73,14,212,35*6C
$GLGSV,3,2,09,80,13,159,30,82,23,123,28,83,45,064,21,84,21,002,*6E
$GLGSV,3,3,09,,,,39*66
$GNGLL,0419.95073,S,05539.72087,E,112607.00,A,A*6D
$GNRMC,112608.00,A,0419.95075,S,05539.72087,E,0.050,,260525,,,A*7E
$GNVTG,,T,,M,0.050,N,0.092,K,A*33
$GNGGA,112608.00,0419.95075,S,05539.72087,E,1,12,0.60,58.1,M,-47.6,M,,*40
$GNGSA,A,3,32,29,26,10,28,18,31,16,27,,,,1.44,0.60,1.31*14
$GNGSA,A,3,69,82,70,83,80,73,71,,,,,,1.44,0.60,1.31*1B
$GPGSV,4,1,16,10,22,349,19,16,25,259,33,18,30,064,24,23,06,027,*7E
$GPGSV,4,2,16,25,05,136,23,26,30,227,39,27,30,322,26,28,39,168,40*7F
$GPGSV,4,3,16,29,27,144,37,31,24,197,40,32,76,347,36,36,52,277,36*7D
$GPGSV,4,4,16,40,84,353,,41,58,082,,49,32,274,,50,10,089,*79
$GLGSV,3,1,09,69,31,000,21,70,51,266,31,71,18,222,37,73,14,212,35*6C
$GLGSV,3,2,09,80,13,159,30,82,23,123,29,83,45,064,20,84,21,002,*6E
$GLGSV,3,3,09,,,,38*67
$GNGLL,0419.95075,S,05539.72087,E,112608.00,A,A*64
$GNRMC,112609.00,A,0419.95076,S,05539.72088,E,0.024,,260525,,,A*70
$GNVTG,,T,,M,0.024,N,0.045,K,A*3A
$GNGGA,112609.00,0419.95076,S,05539.72088,E,1,12,0.60,58.2,M,-47.6,M,,*4E
$GNGSA,A,3,32,29,26,10,28,18,31,16,27,,,,1.44,0.60,1.31*14
$GNGSA,A,3,69,82,70,83,80,73,71,,,,,,1.44,0.60,1.31*1B
$GPGSV,4,1,16,10,22,349,23,16,25,259,33,18,30,064,25,23,06,027,*76
$GPGSV,4,2,16,25,05,136,22,26,30,227,37,27,30,322,25,28,39,168,39*7D
$GPGSV,4,3,16,29,27,144,39,31,24,197,39,32,76,347,34,36,52,277,35*7C
$GPGSV,4,4,16,40,84,353,,41,58,082,,49,32,274,,50,10,089,*79
$GLGSV,3,1,09,69,31,000,21,70,51,266,31,71,18,222,37,73,14,212,34*6D
$GLGSV,3,2,09,80,13,159,31,82,23,123,29,83,45,064,18,84,21,002,*64
$GLGSV,3,3,09,,,,39*66
$GNGLL,0419.95076,S,05539.72088,E,112609.00,A,A*69
$GNRMC,112610.00,A,0419.95078,S,05539.72088,E,0.042,,260525,,,A*76
$GNVTG,,T,,M,0.042,N,0.078,K,A*34
$GNGGA,112610.00,0419.95078,S,05539.72088,E,1,12,0.60,58.3,M,-47.6,M,,*49
$GNGSA,A,3,32,29,26,10,28,18,31,16,27,,,,1.44,0.60,1.31*14
$GNGSA,A,3,69,82,70,83,80,73,71,,,,,,1.44,0.60,1.31*1B
$GPGSV,4,1,16,10,22,349,23,16,25,259,33,18,30,064,25,23,06,027,*76
$GPGSV,4,2,16,25,05,136,21,26,30,227,40,27,30,322,24,28,39,168,39*7F
$GPGSV,4,3,16,29,27,144,41,31,24,197,41,32,76,347,34,36,52,277,36*7F
$GPGSV,4,4,16,40,84,353,,41,58,082,,49,32,274,,50,10,089,*79
$GLGSV,3,1,09,69,31,000,21,70,51,266,31,71,18,222,37,73,14,212,35*6C
$GLGSV,3,2,09,80,13,159,31,82,23,123,29,83,45,064,18,84,21,002,*64
$GLGSV,3,3,09,,,,38*67
$GNGLL,0419.95078,S,05539.72088,E,112610.00,A,A*6F
$GNRMC,112611.00,A,0419.95082,S,05539.72090,E,0.050,,260525,,,A*78
$GNVTG,,T,,M,0.050,N,0.093,K,A*32
$GNGGA,112611.00,0419.95082,S,05539.72090,E,1,12,0.60,58.4,M,-47.6,M,,*43
$GNGSA,A,3,32,29,26,10,28,18,31,16,27,,,,1.44,0.60,1.31*14
$GNGSA,A,3,69,82,70,83,80,73,71,,,,,,1.44,0.60,1.31*1B
$GPGSV,4,1,16,10,22,349,22,16,25,259,33,18,30,064,26,23,06,027,*74
$GPGSV,4,2,16,25,05,136,23,26,30,227,40,27,30,322,23,28,39,168,39*7A
$GPGSV,4,3,16,29,27,144,39,31,24,197,42,32,76,347,37,36,52,277,32*74
$GPGSV,4,4,16,40,84,353,,41,58,082,27,49,32,274,,50,10,089,*7C
$GLGSV,3,1,09,69,31,000,19,70,51,266,30,71,18,222,37,73,14,212,35*66
$GLGSV,3,2,09,80,13,159,30,82,23,123,29,83,45,064,21,84,21,002,*6F
$GLGSV,3,3,09,,,,37*68
$GNGLL,0419.95082,S,05539.72090,E,112611.00,A,A*62
$GNRMC,112612.00,A,0419.95078,S,05539.72093,E,0.095,,260525,,,A*74
$GNVTG,,T,,M,0.095,N,0.176,K,A*31
$GNGGA,112612.00,0419.95078,S,05539.72093,E,1,12,0.60,58.3,M,-47.6,M,,*41
$GNGSA,A,3,32,29,26,10,28,18,31,16,27,,,,1.44,0.60,1.31*14
$GNGSA,A,3,69,82,70,83,80,73,71,,,,,,1.44,0.60,1.31*1B
$GPGSV,4,1,16,10,22,349,21,16,25,259,33,18,30,064,24,23,06,027,*75
$GPGSV,4,2,16,25,05,136,23,26,30,227,40,27,30,322,25,28,39,168,39*7C
$GPGSV,4,3,16,29,27,144,38,31,24,197,41,32,76,347,36,36,52,277,32*77
$GPGSV,4,4,16,40,84,353,,41,58,082,27,49,32,274,,50,10,089,*7C
$GLGSV,3,1,09,69,31,000,17,70,51,266,29,71,18,222,37,73,14,212,35*60
$GLGSV,3,2,09,80,13,159,29,82,23,123,28,83,45,064,24,84,21,002,*63
$GLGSV,3,3,09,,,,38*67
$GNGLL,0419.95078,S,05539.72093,E,112612.00,A,A*67
$GNRMC,112613.00,A,0419.95080,S,05539.72095,E,0.007,,260525,,,A*7F
$GNVTG,,T,,M,0.007,N,0.012,K,A*39
$GNGGA,112613.00,0419.95080,S,05539.72095,E,1,12,0.60,58.3,M,-47.6,M,,*41
$GNGSA,A,3,32,29,26,10,28,18,31,16,27,,,,1.44,0.60,1.31*14
$GNGSA,A,3,69,82,70,83,80,73,71,,,,,,1.44,0.60,1.31*1B
$GPGSV,4,1,16,10,22,349,21,16,25,259,34,18,30,064,23,23,06,027,*75
$GPGSV,4,2,16,25,05,136,23,26,30,227,40,27,30,322,25,28,39,168,42*70
$GPGSV,4,3,16,29,27,144,41,31,24,197,41,32,76,347,34,36,52,277,31*78
$GPGSV,4,4,16,40,84,353,,41,58,082,,49,32,274,,50,10,089,*79
$GLGSV,3,1,09,69,31,000,16,70,51,266,29,71,18,222,36,73,14,212,34*61
$GLGSV,3,2,09,80,13,159,32,82,23,123,30,83,45,064,25,84,21,002,*61
$GLGSV,3,3,09,,,,36*69
$GNGLL,0419.95080,S,05539.72095,E,112613.00,A,A*67
$GNRMC,112615.00,A,0419.95084,S,05539.72097,E,0.033,,260525,,,A*78
$GNVTG,,T,,M,0.033,N,0.062,K,A*39
$GNGGA,112615.00,0419.95084,S,05539.72097,E,1,12,0.60,58.4,M,-47.6,M,,*46
$GNGSA,A,3,32,29,26,10,28,18,31,16,27,,,,1.44,0.60,1.31*14
$GNGSA,A,3,69,82,70,83,80,73,71,,,,,,1.44,0.60,1.31*1B
$GPGSV,4,1,16,10,22,349,20,16,25,259,34,18,30,064,20,23,06,027,*77
$GPGSV,4,2,16,25,05,136,20,26,30,227,40,27,30,322,27,28,39,168,38*7C
$GPGSV,4,3,16,29,27,144,39,31,24,197,38,32,76,347,30,36,52,277,31*7D
$GPGSV,4,4,16,40,84,353,,41,58,082,,49,32,274,,50,10,089,*79
$GLGSV,3,1,09,69,30,000,17,70,51,266,27,71,18,222,34,73,14,212,33*6A
$GLGSV,3,2,09,80,13,159,30,82,23,123,23,83,45,064,20,84,21,002,*64
$GLGSV,3,3,09,,,,34*6B
$GNGLL,0419.95084,S,05539.72097,E,112615.00,A,A*67
$GNRMC,112616.00,A,0419.95090,S,05539.72094,E,0.118,,260525,,,A*75
$GNVTG,,T,,M,0.118,N,0.219,K,A*3F
$GNRMC,112618.00,A,0419.95091,S,05539.72094,E,0.123,,260525,,,A*72
$GNVTG,,T,,M,0.123,N,0.228,K,A*35
$GNGGA,112618.00,0419.95091,S,05539.72094,E,1,12,0.60,58.4,M,-47.6,M,,*4C
$GNGSA,A,3,32,29,26,10,28,18,31,16,27,,,,1.44,0.60,1.31*14
$GNGSA,A,3,69,82,70,83,80,73,71,,,,,,1.44,0.60,1.31*1B
$GPGSV,4,1,16,10,22,349,18,16,25,259,30,18,30,064,18,23,06,027,*73
$GPGSV,4,2,16,25,05,136,15,26,30,227,36,27,30,322,22,28,39,168,36*70
$GPGSV,4,3,16,29,27,144,37,31,24,197,35,32,76,347,31,36,52,277,28*77
$GPGSV,4,4,16,40,84,353,,41,58,082,29,49,32,274,,50,10,089,*72
$GLGSV,3,1,09,69,30,000,18,70,51,267,24,71,19,223,29,73,14,212,26*6F
$GLGSV,3,2,09,80,13,159,28,82,23,123,25,83,45,064,18,84,21,002,*60
$GLGSV,3,3,09,,,,27*69
$GNGLL,0419.95091,S,05539.72094,E,112618.00,A,A*6D
$GNRMC,112620.00,A,0419.95097,S,05539.72096,E,0.276,,260525,,,A*7E
$GNVTG,,T,,M,0.276,N,0.511,K,A*3B
$GNGGA,112620.00,0419.95097,S,05539.72096,E,1,12,0.63,58.6,M,-47.6,M,,*42
$GNGSA,A,3,32,29,26,10,28,18,31,16,27,,,,1.55,0.63,1.41*10
$GNGSA,A,3,69,82,70,83,80,73,71,,,,,,1.55,0.63,1.41*1F
$GPGSV,4,1,16,10,22,349,15,16,25,259,28,18,30,064,21,23,06,027,*7D
$GPGSV,4,2,16,25,05,136,18,26,30,227,27,27,30,322,25,28,39,168,27*7A
$GPGSV,4,3,16,29,27,144,32,31,24,197,31,32,76,347,28,36,52,277,29*7F
$GPGSV,4,4,16,40,84,353,,41,58,082,31,49,32,274,,50,10,089,*7B
$GLGSV,3,1,09,69,30,000,18,70,51,267,25,71,19,223,21,73,14,211,27*64
$GLGSV,3,2,09,80,13,159,28,82,23,123,22,83,45,064,21,84,21,002,*6D
$GLGSV,3,3,09,,,,33*6C
$GNGLL,0419.95097,S,05539.72096,E,112620.00,A,A*62
$GNRMC,112621.00,A,0419.95101,S,05539.72098,E,0.120,,260525,,,A*7F
$GNVTG,,T,,M,0.120,N,0.223,K,A*3D
$GNGGA,112621.00,0419.95101,S,05539.72098,E,1,12,0.63,58.5,M,-47.6,M,,*40
$GNGSA,A,3,32,29,26,10,28,18,31,16,27,,,,1.55,0.63,1.41*10
$GNGSA,A,3,69,82,70,83,80,73,71,,,,,,1.55,0.63,1.41*1F
$GPGSV,4,1,16,10,22,349,15,16,25,259,29,18,30,064,21,23,06,027,*7C
$GPGSV,4,2,16,25,05,136,20,26,30,227,38,27,30,322,25,28,39,168,40*7E
$GPGSV,4,3,16,29,27,144,38,31,24,197,37,32,76,347,30,36,52,277,31*73
$GPGSV,4,4,16,40,84,353,,41,58,082,30,49,32,274,,50,10,089,*7A
$GLGSV,3,1,09,69,30,000,18,70,51,267,26,71,19,223,31,73,14,211,31*61
$GLGSV,3,2,09,80,13,159,33,82,23,123,30,83,45,064,21,84,21,002,*64
$GLGSV,3,3,09,,,,33*6C
$GNGLL,0419.95101,S,05539.72098,E,112621.00,A,A*63
$GNRMC,112622.00,A,0419.95104,S,05539.72097,E,0.101,,260525,,,A*75
$GNVTG,,T,,M,0.101,N,0.186,K,A*32
$GNGGA,112622.00,0419.95104,S,05539.72097,E,1,12,0.63,58.5,M,-47.6,M,,*49
$GNGSA,A,3,32,29,26,10,28,18,31,16,27,,,,1.55,0.63,1.41*10
$GNGSA,A,3,69,82,70,83,80,73,71,,,,,,1.55,0.63,1.41*1F
$GPGSV,4,1,16,10,22,349,13,16,25,259,29,18,30,064,23,23,06,027,*78
$GPGSV,4,2,16,25,05,136,23,26,30,227,38,27,30,322,25,28,39,168,39*73
$GPGSV,4,3,16,29,27,144,39,31,24,197,38,32,76,347,34,36,52,277,31*79
$GPGSV,4,4,16,40,84,353,,41,58,082,30,49,32,274,,50,10,089,*7A
$GLGSV,3,1,09,69,30,000,19,70,51,267,27,71,19,223,33,73,14,211,31*63
$GLGSV,3,2,09,80,13,159,33,82,23,123,31,83,45,064,21,84,21,002,*65
$GLGSV,3,3,09,,,,32*6D
$GNGLL,0419.95104,S,05539.72097,E,112622.00,A,A*6A
$GNRMC,112623.00,A,0419.95098,S,05539.72099,E,0.049,,260525,,,A*73
$GNVTG,,T,,M,0.049,N,0.090,K,A*39
$GNGGA,112623.00,0419.95098,S,05539.72099,E,1,12,0.63,58.4,M,-47.6,M,,*43
$GNGSA,A,3,32,29,26,10,28,18,31,16,27,,,,1.55,0.63,1.41*10
$GNGSA,A,3,69,82,70,83,80,73,71,,,,,,1.55,0.63,1.41*1F
$GPGSV,4,1,16,10,22,349,10,16,25,259,30,18,30,064,25,23,06,027,*75
$GPGSV,4,2,16,25,05,136,25,26,30,227,37,27,30,322,24,28,39,168,38*7A
$GPGSV,4,3,16,29,27,144,40,31,24,197,37,32,76,347,32,36,52,277,31*7E
$GPGSV,4,4,16,40,84,353,,41,58,082,30,49,32,274,,50,10,089,*7A
$GLGSV,3,1,09,69,30,000,18,70,51,267,27,71,19,223,32,73,14,211,31*63
$GLGSV,3,2,09,80,13,159,33,82,23,123,32,83,45,064,23,84,21,002,*64
$GLGSV,3,3,09,,,,32*6D
$GNGLL,0419.95098,S,05539.72099,E,112623.00,A,A*61
$GNRMC,112626.00,A,0419.95096,S,05539.72105,E,0.041,,260525,,,A*74
$GNVTG,,T,,M,0.041,N,0.076,K,A*39
$GNGGA,112626.00,0419.95096,S,05539.72105,E,1,12,0.60,58.2,M,-47.6,M,,*49
$GNGSA,A,3,32,29,26,10,28,18,31,16,27,,,,1.44,0.60,1.31*14
$GNGSA,A,3,69,82,70,83,80,73,71,,,,,,1.44,0.60,1.31*1B
$GPGSV,4,1,16,10,22,349,17,16,25,259,31,18,30,064,22,23,06,027,*74
$GPGSV,4,2,16,25,05,136,23,26,30,227,40,27,30,322,23,28,39,168,36*75
$GPGSV,4,3,16,29,27,144,37,31,24,197,40,32,76,347,24,36,52,277,29*70
$GPGSV,4,4,16,40,84,353,,41,58,082,32,49,32,274,,50,10,089,*78
$GLGSV,3,1,09,69,30,000,20,70,51,267,27,71,19,223,34,73,14,211,36*69
$GLGSV,3,2,09,80,13,158,30,82,23,123,27,83,45,064,31,84,21,002,*61
$GLGSV,3,3,09,,,,36*69
$GNGLL,0419.95096,S,05539.72105,E,112626.00,A,A*6E
$GNRMC,112627.00,A,0419.95098,S,05539.72105,E,0.050,,260525,,,A*7B
$GNVTG,,T,,M,0.050,N,0.092,K,A*33
$GNGGA,112627.00,0419.95098,S,05539.72105,E,1,12,0.60,58.2,M,-47.6,M,,*46
$GNGSA,A,3,32,29,26,10,28,18,31,16,27,,,,1.44,0.60,1.31*14
$GNGSA,A,3,69,82,70,83,80,73,71,,,,,,1.44,0.60,1.31*1B
$GPGSV,4,1,16,10,22,349,18,16,25,259,24,18,30,064,22,23,06,027,*7F
$GPGSV,4,2,16,25,05,136,22,26,30,227,31,27,30,322,24,28,39,168,25*77
$GPGSV,4,3,16,29,27,144,33,31,24,197,31,32,76,347,30,36,52,277,28*76
$GPGSV,4,4,16,40,84,353,,41,58,082,31,49,32,274,,50,10,089,*7B
$GLGSV,3,1,09,69,30,000,19,70,51,267,26,71,19,223,22,73,14,211,28*6A
$GLGSV,3,2,09,80,13,158,29,82,23,123,25,83,45,064,25,84,21,002,*6E
$GLGSV,3,3,09,,,,31*6E
$GNGLL,0419.95098,S,05539.72105,E,112627.00,A,A*61
$GNRMC,112630.00,A,0419.95096,S,05539.72103,E,0.099,,260525,,,A*70
$GNVTG,,T,,M,0.099,N,0.183,K,A*37
$GNGGA,112630.00,0419.95096,S,05539.72103,E,1,12,0.60,58.0,M,-47.6,M,,*4A
$GNGSA,A,3,32,29,26,10,28,18,31,16,27,,,,1.44,0.60,1.31*14
$GNGSA,A,3,69,82,70,83,80,73,71,,,,,,1.44,0.60,1.31*1B
$GPGSV,4,1,16,10,22,349,15,16,25,259,26,18,30,064,23,23,06,027,*71
$GPGSV,4,2,16,25,05,136,23,26,30,227,31,27,30,322,21,28,39,168,35*72
$GPGSV,4,3,16,29,27,144,37,31,24,197,33,32,76,347,31,36,52,277,30*78
$GPGSV,4,4,16,40,84,353,,41,58,082,,49,32,274,,50,10,089,*79
$GLGSV,3,1,09,69,30,000,14,70,51,267,26,71,19,223,30,73,14,211,27*6B
$GLGSV,3,2,09,80,13,158,34,82,23,124,27,83,45,065,26,84,21,003,*64
$GLGSV,3,3,09,,,,34*6B
$GNGLL,0419.95096,S,05539.72103,E,112630.00,A,A*6F
$GNRMC,112631.00,A,0419.95095,S,05539.72103,E,0.117,,260525,,,A*75
$GNVTG,,T,,M,0.117,N,0.216,K,A*3F
$GNGGA,112631.00,0419.95095,S,05539.72103,E,1,12,0.60,58.1,M,-47.6,M,,*49
$GNGSA,A,3,32,29,26,10,28,18,31,16,27,,,,1.44,0.60,1.31*14
$GNGSA,A,3,69,82,70,83,80,73,71,,,,,,1.44,0.60,1.31*1B
$GPGSV,4,1,16,10,22,349,17,16,25,259,27,18,30,064,23,23,06,027,*72
$GPGSV,4,2,16,25,05,136,23,26,30,227,35,27,30,322,22,28,39,168,36*76
$GPGSV,4,3,16,29,27,144,39,31,24,197,36,32,76,347,31,36,52,277,29*7B
$GPGSV,4,4,16,40,84,353,,41,58,082,28,49,32,274,,50,10,089,*73
$GLGSV,3,1,09,69,30,000,12,70,51,267,25,71,19,223,29,73,14,211,27*66
$GLGSV,3,2,09,80,13,158,31,82,23,124,27,83,45,065,25,84,21,003,*62
$GLGSV,3,3,09,,,,33*6C
$GNGLL,0419.95095,S,05539.72103,E,112631.00,A,A*6D
$GNRMC,112632.00,A,0419.95105,S,05539.72104,E,0.239,,260525,,,A*76
$GNVTG,,T,,M,0.239,N,0.443,K,A*36
$GNGGA,112632.00,0419.95105,S,05539.72104,E,1,12,0.60,58.2,M,-47.6,M,,*46
$GNGSA,A,3,32,29,26,10,28,18,31,16,27,,,,1.44,0.60,1.31*14
$GNGSA,A,3,69,82,70,83,80,73,71,,,,,,1.44,0.60,1.31*1B
$GPGSV,4,1,16,10,22,349,16,16,25,259,26,18,30,064,22,23,06,027,*73
$GPGSV,4,2,16,25,05,136,24,26,30,227,28,27,30,322,23,28,39,168,29*72
$GPGSV,4,3,16,29,27,144,32,31,24,197,29,32,76,347,26,36,52,277,27*76
$GPGSV,4,4,16,40,84,353,,41,58,082,27,49,32,274,,50,10,089,*7C
$GLGSV,3,1,09,69,30,000,18,70,51,267,22,71,19,223,29,73,14,211,31*6C
$GLGSV,3,2,09,80,13,158,26,82,23,124,32,83,45,065,25,84,21,003,*60
$GLGSV,3,3,09,,,,22*6C
$GNGLL,0419.95105,S,05539.72104,E,112632.00,A,A*61
$GNRMC,112633.00,A,0419.95108,S,05539.72108,E,0.115,,260525,,,A*7B
$GNVTG,,T,,M,0.115,N,0.213,K,A*38
$GNGGA,112633.00,0419.95108,S,05539.72108,E,1,12,0.63,58.2,M,-47.6,M,,*45
$GNGSA,A,3,32,29,26,10,28,18,31,16,27,,,,1.55,0.63,1.41*10
$GNGSA,A,3,69,82,70,83,80,73,71,,,,,,1.55,0.63,1.41*1F
$GPGSV,4,1,16,10,22,349,19,16,25,259,27,18,30,064,23,23,06,027,*7C
$GPGSV,4,2,16,25,05,136,24,26,30,227,39,27,30,322,31,28,39,168,39*70
$GPGSV,4,3,16,29,27,144,41,31,24,197,36,32,76,347,42,36,52,277,29*70
$GPGSV,4,4,16,40,84,353,,41,58,082,32,49,32,274,,50,10,089,*78
$GLGSV,3,1,09,69,30,000,19,70,51,267,21,71,19,223,37,73,14,211,35*65
$GLGSV,3,2,09,80,13,158,31,82,23,124,32,83,45,065,26,84,21,003,*65
$GLGSV,3,3,09,,,,33*6C
$GNGLL,0419.95108,S,05539.72108,E,112633.00,A,A*61
$GNRMC,112634.00,A,0419.95110,S,05539.72108,E,0.038,,260525,,,A*7B
$GNVTG,,T,,M,0.038,N,0.071,K,A*30
$GNGGA,112634.00,0419.95110,S,05539.72108,E,1,12,0.63,58.2,M,-47.6,M,,*4B
$GNGSA,A,3,32,29,26,10,28,31,16,27,,,,,1.46,0.63,1.31*1C
$GNGSA,A,3,69,82,70,83,80,73,71,,,,,,1.46,0.63,1.31*1A
$GPGSV,4,1,16,10,22,349,21,16,25,259,28,18,30,064,,23,06,027,*79
$GPGSV,4,2,16,25,05,136,26,26,30,227,39,27,30,322,30,28,39,168,41*7C
$GPGSV,4,3,16,29,27,144,41,31,24,197,39,32,76,347,44,36,52,277,30*71
$GPGSV,4,4,16,40,84,353,,41,58,082,33,49,32,274,,50,10,089,*79
$GLGSV,3,1,09,69,30,000,25,70,51,267,22,71,19,223,37,73,14,211,36*6A
$GLGSV,3,2,09,80,13,158,30,82,23,124,34,83,45,065,27,84,21,003,*63
$GLGSV,3,3,09,,,,36*69
$GNGLL,0419.95110,S,05539.72108,E,112634.00,A,A*6F
$GNRMC,112635.00,A,0419.95108,S,05539.72109,E,0.029,,260525,,,A*72
$GNVTG,,T,,M,0.029,N,0.054,K,A*37
$GNGGA,112635.00,0419.95108,S,05539.72109,E,1,12,0.63,57.9,M,-47.6,M,,*46
$GNGSA,A,3,32,29,26,10,28,31,16,27,,,,,1.46,0.63,1.31*1C
$GNGSA,A,3,69,82,70,83,80,73,71,,,,,,1.46,0.63,1.31*1A
$GPGSV,4,1,16,10,22,349,23,16,25,259,29,18,30,064,,23,06,027,*7A
$GPGSV,4,2,16,25,05,136,26,26,30,227,39,27,30,322,29,28,39,168,41*74
$GPGSV,4,3,16,29,27,144,41,31,24,197,39,32,76,347,44,36,52,277,34*75
$GPGSV,4,4,16,40,84,353,,41,58,082,32,49,32,274,,50,10,089,*78
$GLGSV,3,1,09,69,30,000,25,70,51,267,23,71,19,223,37,73,14,211,38*65
$GLGSV,3,2,09,80,13,158,29,82,23,124,36,83,45,065,26,84,21,003,*68
$GLGSV,3,3,09,,,,34*6B
$GNGLL,0419.95108,S,05539.72109,E,112635.00,A,A*66
$GNRMC,112636.00,A,0419.95101,S,05539.72108,E,0.049,,260525,,,A*7F
$GNVTG,,T,,M,0.049,N,0.090,K,A*39
$GNGGA,112636.00,0419.95101,S,05539.72108,E,1,12,0.63,57.8,M,-47.6,M,,*4C
$GNGSA,A,3,32,29,26,10,28,31,16,27,,,,,1.46,0.63,1.31*1C
$GNGSA,A,3,69,82,70,83,80,73,71,,,,,,1.46,0.63,1.31*1A
$GPGSV,4,1,16,10,22,349,22,16,25,259,28,18,30,064,,23,06,027,*7A
$GPGSV,4,2,16,25,05,136,26,26,30,227,38,27,30,322,27,28,39,168,41*7B
$GPGSV,4,3,16,29,27,144,41,31,24,197,38,32,76,347,43,36,52,277,34*73
$GPGSV,4,4,16,40,84,353,,41,58,082,29,49,32,274,,50,10,089,*72
$GLGSV,3,1,09,69,30,000,24,70,51,267,24,71,19,223,37,73,14,211,37*6C
$GLGSV,3,2,09,80,13,158,30,82,23,124,33,83,45,065,26,84,21,003,*65
$GLGSV,3,3,09,,,,34*6B
$GNGLL,0419.95101,S,05539.72108,E,112636.00,A,A*6D
$GNRMC,112637.00,A,0419.95099,S,05539.72110,E,0.032,,260525,,,A*7B
$GNVTG,,T,,M,0.032,N,0.058,K,A*31
$GNGGA,112637.00,0419.95099,S,05539.72110,E,1,12,0.63,57.7,M,-47.6,M,,*4B
$GNGSA,A,3,32,29,26,10,28,31,16,27,,,,,1.46,0.63,1.31*1C
$GNGSA,A,3,69,82,70,83,80,73,71,,,,,,1.46,0.63,1.31*1A
$GPGSV,4,1,16,10,22,349,21,16,25,259,28,18,30,064,,23,06,027,*79
$GPGSV,4,2,16,25,05,136,27,26,30,227,33,27,30,322,25,28,39,168,40*72
$GPGSV,4,3,16,29,27,144,40,31,24,197,39,32,76,347,43,36,52,277,34*73
$GPGSV,4,4,16,40,84,353,,41,58,082,32,49,32,274,,50,10,089,*78
$GLGSV,3,1,09,69,30,000,23,70,51,267,24,71,19,223,37,73,14,211,37*6B
$GLGSV,3,2,09,80,13,158,31,82,23,124,34,83,45,065,24,84,21,003,*61
$GLGSV,3,3,09,,,,34*6B
$GNGLL,0419.95099,S,05539.72110,E,112637.00,A,A*65
$GNRMC,112638.00,A,0419.95095,S,05539.72112,E,0.043,,260525,,,A*7C
$GNVTG,,T,,M,0.043,N,0.080,K,A*32
$GNGGA,112638.00,0419.95095,S,05539.72112,E,1,12,0.63,57.6,M,-47.6,M,,*4B
$GNGSA,A,3,32,29,26,10,28,31,16,27,,,,,1.46,0.63,1.31*1C
$GNGSA,A,3,69,82,70,83,80,73,71,,,,,,1.46,0.63,1.31*1A
$GPGSV,4,1,16,10,22,349,22,16,25,259,28,18,30,064,,23,06,027,*7A
$GPGSV,4,2,16,25,05,136,27,26,30,227,34,27,30,322,25,28,39,168,39*7B
$GPGSV,4,3,16,29,27,144,41,31,24,197,39,32,76,347,42,36,52,277,34*73
$GPGSV,4,4,16,40,84,353,,41,58,082,31,49,32,274,,50,10,089,*7B
$GLGSV,3,1,09,69,30,000,23,70,51,267,23,71,19,223,37,73,14,211,37*6C
$GLGSV,3,2,09,80,13,158,29,82,23,124,34,83,45,065,24,84,21,003,*68
$GLGSV,3,3,09,,,,29*67
$GNGLL,0419.95095,S,05539.72112,E,112638.00,A,A*64
$GNRMC,112639.00,A,0419.95088,S,05539.72112,E,0.089,,260525,,,A*77
$GNVTG,,T,,M,0.089,N,0.165,K,A*3E
$GNGGA,112639.00,0419.95088,S,05539.72112,E,1,12,0.63,57.3,M,-47.6,M,,*43
$GNGSA,A,3,32,29,26,10,28,31,16,27,,,,,1.46,0.63,1.31*1C
$GNGSA,A,3,69,82,70,83,80,73,71,,,,,,1.46,0.63,1.31*1A
$GPGSV,4,1,16,10,22,349,22,16,25,259,28,18,30,064,,23,06,027,*7A
$GPGSV,4,2,16,25,05,136,24,26,30,227,38,27,30,322,24,28,39,168,39*75
$GPGSV,4,3,16,29,27,144,39,31,24,197,38,32,76,347,44,36,52,277,38*77
$GPGSV,4,4,16,40,84,353,42,41,58,082,29,49,32,274,,50,10,089,*74
$GLGSV,3,1,09,69,30,000,20,70,51,267,27,71,19,223,33,73,14,211,36*6E
$GLGSV,3,2,09,80,13,158,33,82,23,124,29,83,45,065,23,84,21,003,*68
$GLGSV,3,3,09,,,,37*68
$GNGLL,0419.95088,S,05539.72112,E,112639.00,A,A*69
$GNRMC,112640.00,A,0419.95086,S,05539.72111,E,0.152,,260525,,,A*73
$GNVTG,,T,,M,0.152,N,0.282,K,A*33
$GNGGA,112640.00,0419.95086,S,05539.72111,E,1,12,0.63,57.2,M,-47.6,M,,*41
$GNGSA,A,3,32,29,26,10,28,31,16,27,,,,,1.46,0.63,1.31*1C
$GNGSA,A,3,69,82,70,83,80,73,71,,,,,,1.46,0.63,1.31*1A
$GPGSV,4,1,16,10,22,349,22,16,25,259,32,18,30,064,24,23,06,027,*77
$GPGSV,4,2,16,25,05,136,23,26,30,227,36,27,30,322,25,28,39,168,34*70
$GPGSV,4,3,16,29,27,144,37,31,24,197,35,32,76,347,42,36,52,277,38*72
$GPGSV,4,4,16,40,84,353,41,41,58,082,30,49,32,274,,50,10,089,*7F
$GLGSV,3,1,09,69,30,000,18,70,51,267,28,71,19,223,33,73,14,211,35*69
$GLGSV,3,2,09,80,13,158,35,82,23,124,29,83,45,065,23,84,21,003,*6E
$GLGSV,3,3,09,,,,36*69
$GNGLL,0419.95086,S,05539.72111,E,112640.00,A,A*6A
$GNRMC,112642.00,A,0419.95079,S,05539.72111,E,0.116,,260525,,,A*71
$GNVTG,,T,,M,0.116,N,0.215,K,A*3D
$GNGGA,112642.00,0419.95079,S,05539.72111,E,1,12,0.60,56.8,M,-47.6,M,,*4B
$GNGSA,A,3,32,29,26,10,28,18,31,16,27,,,,1.45,0.60,1.31*15
$GNGSA,A,3,69,82,70,83,80,73,71,,,,,,1.45,0.60,1.31*1A
$GPGSV,4,1,16,10,22,349,19,16,25,259,31,18,30,064,23,23,06,027,*7B
$GPGSV,4,2,16,25,05,136,27,26,30,227,37,27,30,322,25,28,39,168,35*74
$GNRMC,112643.00,A,0419.95074,S,05539.72097,E,0.787,,260525,,,A*7C
$GNVTG,,T,,M,0.787,N,1.458,K,A*3D
$GNGGA,112643.00,0419.95074,S,05539.72097,E,1,12,0.60,56.9,M,-47.6,M,,*49
$GNGSA,A,3,32,29,26,10,28,18,31,16,27,,,,1.45,0.60,1.31*15
$GNGSA,A,3,69,82,70,83,80,73,71,,,,,,1.45,0.60,1.31*1A
$GPGSV,4,1,16,10,22,349,19,16,25,259,23,18,30,064,23,23,06,027,*78
$GPGSV,4,2,16,25,05,136,27,26,30,227,30,27,30,322,24,28,39,168,31*76
$GPGSV,4,3,16,29,27,144,28,31,24,197,26,32,76,347,30,36,52,277,*70
$GPGSV,4,4,16,40,84,353,35,41,58,082,,49,32,274,,50,10,089,*7F
$GLGSV,3,1,09,69,30,000,19,70,51,267,16,71,19,223,28,73,14,211,28*63
$GLGSV,3,2,09,80,13,158,28,82,23,124,22,83,45,065,23,84,21,003,*69
$GLGSV,3,3,09,,,,22*6C
$GNGLL,0419.95074,S,05539.72097,E,112643.00,A,A*6B
$GNRMC,112644.00,A,0419.95066,S,05539.72095,E,0.235,,260525,,,A*76
$GNVTG,,T,,M,0.235,N,0.436,K,A*38
$GNGGA,112644.00,0419.95066,S,05539.72095,E,1,12,0.60,56.9,M,-47.6,M,,*4F
$GNGSA,A,3,32,29,26,10,28,18,31,16,27,,,,1.45,0.60,1.31*15
$GNGSA,A,3,69,82,70,83,80,73,71,,,,,,1.45,0.60,1.31*1A
$GPGSV,4,1,16,10,21,349,17,16,25,259,22,18,30,064,20,23,06,027,*77
$GPGSV,4,2,16,25,05,136,24,26,30,227,24,27,30,322,24,28,39,168,38*79
$GPGSV,4,3,16,29,27,144,36,31,24,197,36,32,76,347,24,36,52,277,*7B
$GPGSV,4,4,16,40,84,353,,41,58,082,,49,32,274,,50,10,089,*79
$GLGSV,3,1,09,69,30,000,16,70,51,267,17,71,19,223,27,73,14,211,13*6A
$GLGSV,3,2,09,80,13,158,34,82,23,124,31,83,45,065,23,84,21,003,*66
$GLGSV,3,3,09,,,,33*6C
$GNGLL,0419.95066,S,05539.72095,E,112644.00,A,A*6D
$GNRMC,112645.00,A,0419.95072,S,05539.72094,E,0.090,,260525,,,A*7E
$GNVTG,,T,,M,0.090,N,0.167,K,A*34
$GNGGA,112645.00,0419.95072,S,05539.72094,E,1,12,0.63,57.1,M,-47.6,M,,*40
$GNGSA,A,3,32,29,26,10,28,18,31,16,27,,,,1.55,0.63,1.41*10
$GNGSA,A,3,69,82,70,83,80,73,71,,,,,,1.55,0.63,1.41*1F
$GPGSV,4,1,16,10,21,349,16,16,25,259,35,18,30,064,19,23,06,027,*7A
$GPGSV,4,2,16,25,05,136,23,26,30,227,40,27,30,322,26,28,39,168,40*71
$GPGSV,4,3,16,29,27,144,38,31,24,197,39,32,76,347,37,36,52,277,*78
$GPGSV,4,4,16,40,84,353,,41,58,082,34,49,32,274,,50,10,089,*7E
$GLGSV,3,1,09,69,30,000,22,70,51,267,33,71,19,223,38,73,14,211,35*61
$GLGSV,3,2,09,80,13,158,34,82,23,124,31,83,45,065,22,84,21,003,*67
$GLGSV,3,3,09,,,,42*6A
$GNGLL,0419.95072,S,05539.72094,E,112645.00,A,A*68
$GNRMC,112646.00,A,0419.95067,S,05539.72092,E,0.074,,260525,,,A*75
$GNVTG,,T,,M,0.074,N,0.137,K,A*3B
$GNGGA,112646.00,0419.95067,S,05539.72092,E,1,12,0.68,56.9,M,-47.6,M,,*43
$GNGSA,A,3,32,29,26,10,28,31,16,27,,,,,1.57,0.68,1.42*13
$GNGSA,A,3,69,82,70,83,80,73,71,,,,,,1.57,0.68,1.42*15
$GPGSV,4,1,16,10,21,349,16,16,25,259,37,18,30,064,,23,06,027,*70
$GPGSV,4,2,16,25,05,136,21,26,30,227,41,27,30,322,25,28,39,168,42*73
$GPGSV,4,3,16,29,27,144,42,31,24,197,39,32,76,347,38,36,52,277,*7A
$GPGSV,4,4,16,40,84,353,,41,58,082,33,49,32,274,,50,10,089,*79
$GLGSV,3,1,09,69,30,000,24,70,51,267,33,71,19,223,38,73,14,211,34*66
$GLGSV,3,2,09,80,13,158,35,82,23,124,35,83,45,065,23,84,21,003,*63
$GLGSV,3,3,09,,,,40*68
$GNGLL,0419.95067,S,05539.72092,E,112646.00,A,A*69
$GPGSV,4,1,16,10,21,349,17,16,25,259,36,18,30,064,21,23,06,027,*73
$GPGSV,4,2,16,25,05,136,22,26,30,227,38,27,30,322,23,28,39,168,41*7B
$GPGSV,4,3,16,29,27,144,40,31,24,197,39,32,76,347,41,36,52,277,*76
$GPGSV,4,4,16,40,84,353,,41,58,082,34,49,32,274,,50,10,089,*7E
$GLGSV,3,1,09,69,30,000,23,70,51,267,32,71,19,223,39,73,14,211,34*61
$GLGSV,3,2,09,80,13,158,35,82,23,124,34,83,45,065,26,84,21,003,*67
$GLGSV,3,3,09,,,,38*67
$GNGLL,0419.95069,S,05539.72093,E,112647.00,A,A*67
$GNRMC,112648.00,A,0419.95069,S,05539.72094,E,0.035,,260525,,,A*76
$GNVTG,,T,,M,0.035,N,0.065,K,A*38
$GNGGA,112648.00,0419.95069,S,05539.72094,E,1,12,0.68,56.7,M,-47.6,M,,*4B
$GNGSA,A,3,32,29,26,10,28,31,16,27,,,,,1.57,0.68,1.42*13
$GNGSA,A,3,69,82,70,83,80,73,71,,,,,,1.57,0.68,1.42*15
$GPGSV,4,1,16,10,21,349,19,16,25,259,36,18,30,064,24,23,06,027,*78
$GPGSV,4,2,16,25,05,136,22,26,30,227,39,27,30,322,29,28,39,168,42*73
$GPGSV,4,3,16,29,27,144,38,31,24,197,37,32,76,347,38,36,52,277,*79
$GPGSV,4,4,16,40,84,353,,41,58,082,35,49,32,274,,50,10,089,*7F
$GLGSV,3,1,09,69,30,000,20,70,51,267,31,71,19,223,38,73,14,211,35*61
$GLGSV,3,2,09,80,13,158,36,82,23,124,33,83,45,065,25,84,21,003,*60
$GLGSV,3,3,09,,,,39*66
$GNGLL,0419.95069,S,05539.72094,E,112648.00,A,A*6F
$GNRMC,112649.00,A,0419.95076,S,05539.72095,E,0.067,,260525,,,A*7F
$GNVTG,,T,,M,0.067,N,0.125,K,A*3A
$GNGGA,112649.00,0419.95076,S,05539.72095,E,1,12,0.63,56.8,M,-47.6,M,,*41
$GNGSA,A,3,32,29,26,10,28,18,31,16,27,,,,1.55,0.63,1.41*10
$GNGSA,A,3,69,82,70,83,80,73,71,,,,,,1.55,0.63,1.41*1F
$GPGSV,4,1,16,10,21,349,19,16,25,259,36,18,30,064,22,23,06,027,*7E
$GPGSV,4,2,16,25,05,136,22,26,30,227,38,27,30,322,28,28,39,168,42*73
$GPGSV,4,3,16,29,27,144,40,31,24,197,38,32,76,347,43,36,52,277,*75
$GPGSV,4,4,16,40,84,353,,41,58,082,37,49,32,274,,50,10,089,*7D
$GLGSV,3,1,09,69,30,000,19,70,51,267,31,71,19,223,37,73,14,211,35*64
$GLGSV,3,2,09,80,13,158,36,82,23,124,34,83,45,065,24,84,21,003,*66
$GLGSV,3,3,09,,,,41*69
$GNGLL,0419.95076,S,05539.72095,E,112649.00,A,A*61
$GNRMC,112651.00,A,0419.95084,S,05539.72094,E,0.064,,260525,,,A*79
$GNVTG,,T,,M,0.064,N,0.119,K,A*36
$GNGGA,112651.00,0419.95084,S,05539.72094,E,1,12,0.63,56.9,M,-47.6,M,,*45
$GNGSA,A,3,32,29,26,10,28,18,31,16,27,,,,1.55,0.63,1.41*10
$GNGSA,A,3,69,82,70,83,80,73,71,,,,,,1.55,0.63,1.41*1F
$GPGSV,4,1,16,10,21,349,19,16,25,258,36,18,30,064,25,23,06,027,*78
$GPGSV,4,2,16,25,05,136,26,26,30,227,42,27,30,322,24,28,39,168,42*76
$GPGSV,4,3,16,29,27,144,40,31,24,197,39,32,76,347,40,36,52,277,*77
$GPGSV,4,4,16,40,84,353,,41,58,082,33,49,32,274,,50,10,089,*79
$GLGSV,3,1,09,69,30,000,20,70,51,267,29,71,19,223,37,73,14,211,33*61
$GLGSV,3,2,09,80,13,158,37,82,23,124,33,83,45,065,26,84,21,003,*62
$GLGSV,3,3,09,,,,39*66
$GNGLL,0419.95084,S,05539.72094,E,112651.00,A,A*64
$GNRMC,112652.00,A,0419.95090,S,05539.72095,E,0.062,,260525,,,A*78
$GNVTG,,T,,M,0.062,N,0.115,K,A*3C
$GNGGA,112652.00,0419.95090,S,05539.72095,E,1,12,0.63,56.9,M,-47.6,M,,*42
$GNGSA,A,3,32,29,26,10,28,18,31,16,27,,,,1.55,0.63,1.41*10
$GNGSA,A,3,69,82,70,83,80,73,71,,,,,,1.55,0.63,1.41*1F
$GPGSV,4,1,16,10,21,349,19,16,25,258,36,18,30,064,25,23,06,027,*78
$GPGSV,4,2,16,25,05,136,27,26,30,227,43,27,30,322,19,28,39,168,42*78
$GPGSV,4,3,16,29,27,144,40,31,24,197,39,32,76,347,40,36,52,277,*77
$GPGSV,4,4,16,40,84,353,,41,58,082,33,49,32,274,,50,10,089,*79
$GLGSV,3,1,09,69,30,000,20,70,51,267,29,71,19,223,37,73,14,211,35*67
$GLGSV,3,2,09,80,13,158,37,82,23,124,33,83,45,065,27,84,21,003,*63
$GLGSV,3,3,09,,,,40*68
$GNGLL,0419.95090,S,05539.72095,E,112652.00,A,A*63
$GNRMC,112653.00,A,0419.95094,S,05539.72097,E,0.088,,260525,,,A*7B
$GNVTG,,T,,M,0.088,N,0.164,K,A*3E
$GNGGA,112653.00,0419.95094,S,05539.72097,E,1,12,0.63,57.0,M,-47.6,M,,*4D
$GNGSA,A,3,32,29,26,10,28,18,31,16,27,,,,1.55,0.63,1.41*10
$GNGSA,A,3,69,82,70,83,80,73,71,,,,,,1.55,0.63,1.41*1F
$GPGSV,4,1,16,10,21,349,21,16,25,258,36,18,30,064,25,23,06,027,*73
$GPGSV,4,2,16,25,05,136,27,26,30,227,43,27,30,322,17,28,39,168,42*76
$GPGSV,4,3,16,29,27,144,40,31,24,197,39,32,76,347,41,36,52,277,*76
$GPGSV,4,4,16,40,84,353,,41,58,082,34,49,32,274,,50,10,089,*7E
$GLGSV,3,1,09,69,30,000,20,70,51,267,29,71,19,223,37,73,14,211,34*66
$GLGSV,3,2,09,80,13,158,37,82,23,124,34,83,45,065,27,84,21,003,*64
$GLGSV,3,3,09,,,,40*68
$GNGLL,0419.95094,S,05539.72097,E,112653.00,A,A*64
$GNRMC,112654.00,A,0419.95100,S,05539.72096,E,0.099,,260525,,,A*71
$GNVTG,,T,,M,0.099,N,0.183,K,A*37
$GNGGA,112654.00,0419.95100,S,05539.72096,E,1,12,0.63,57.1,M,-47.6,M,,*46
$GNGSA,A,3,32,29,26,10,28,18,31,16,27,,,,1.55,0.63,1.41*10
$GNGSA,A,3,69,82,70,83,80,73,71,,,,,,1.55,0.63,1.41*1F
$GPGSV,4,1,16,10,21,349,21,16,25,258,36,18,30,064,25,23,06,027,*73
$GPGSV,4,2,16,25,05,136,25,26,30,227,40,27,30,322,18,28,39,168,42*78
$GPGSV,4,3,16,29,27,144,41,31,24,197,39,32,76,347,41,36,52,277,36*72
$GPGSV,4,4,16,40,84,353,,41,58,082,35,49,32,274,,50,10,089,*7F
$GLGSV,3,1,09,69,30,000,20,70,51,267,29,71,19,223,37,73,14,211,33*61
$GLGSV,3,2,09,80,13,158,36,82,23,124,33,83,45,065,25,84,21,003,*60
$GLGSV,3,3,09,,,,40*68
$GNGLL,0419.95100,S,05539.72096,E,112654.00,A,A*6E
$GNRMC,112655.00,A,0419.95099,S,05539.72096,E,0.018,,260525,,,A*78
$GNVTG,,T,,M,0.018,N,0.034,K,A*33
$GNGGA,112655.00,0419.95099,S,05539.72096,E,1,12,0.63,57.0,M,-47.6,M,,*47
$GNGSA,A,3,32,29,26,10,28,18,31,16,27,,,,1.55,0.63,1.41*10
$GNGSA,A,3,69,82,70,83,80,73,71,,,,,,1.55,0.63,1.41*1F
$GPGSV,4,1,16,10,21,349,21,16,25,258,36,18,30,064,22,23,06,027,*74
$GPGSV,4,2,16,25,05,136,24,26,30,227,39,27,30,322,21,28,39,168,44*7B
$GPGSV,4,3,16,29,27,144,41,31,24,197,40,32,76,347,41,36,52,277,37*7D
$GPGSV,4,4,16,40,84,353,,41,58,082,35,49,32,274,,50,10,089,*7F
$GLGSV,3,1,09,69,30,000,21,70,51,267,31,71,19,223,37,73,14,211,34*6E
$GLGSV,3,2,09,80,13,158,36,82,23,124,33,83,45,065,23,84,21,003,*66
$GLGSV,3,3,09,,,,42*6A
$GNGLL,0419.95099,S,05539.72096,E,112655.00,A,A*6E
$GNRMC,112656.00,A,0419.95105,S,05539.72097,E,0.100,,260525,,,A*76
$GNVTG,,T,,M,0.100,N,0.185,K,A*30
$GNGGA,112656.00,0419.95105,S,05539.72097,E,1,12,0.63,57.0,M,-47.6,M,,*41
$GNGSA,A,3,32,29,26,10,28,18,31,16,27,,,,1.55,0.63,1.41*10
$GNGSA,A,3,69,82,70,83,80,73,71,,,,,,1.55,0.63,1.41*1F
$GPGSV,4,1,16,10,21,349,21,16,25,258,36,18,30,064,21,23,06,027,*77
$GPGSV,4,2,16,25,05,136,25,26,30,227,41,27,30,322,23,28,39,168,42*71
$GPGSV,4,3,16,29,27,144,39,31,24,197,39,32,76,347,41,36,52,277,37*7C
$GPGSV,4,4,16,40,84,353,,41,58,082,35,49,32,274,,50,10,089,*7F
$GLGSV,3,1,09,69,30,000,21,70,51,267,31,71,19,223,37,73,14,211,36*6C
$GLGSV,3,2,09,80,13,158,36,82,23,124,33,83,45,065,23,84,21,003,*66
$GLGSV,3,3,09,,,,41*69
$GNGLL,0419.95105,S,05539.72097,E,112656.00,A,A*68
$GNRMC,112657.00,A,0419.95110,S,05539.72096,E,0.065,,260525,,,A*70
$GNVTG,,T,,M,0.065,N,0.121,K,A*3C
$GNGGA,112657.00,0419.95110,S,05539.72096,E,1,12,0.63,57.1,M,-47.6,M,,*44
$GNGSA,A,3,32,29,26,10,28,18,31,16,27,,,,1.55,0.63,1.41*10
$GNGSA,A,3,69,82,70,83,80,73,71,,,,,,1.55,0.63,1.41*1F
$GPGSV,4,1,16,10,21,349,25,16,25,258,38,18,30,064,23,23,06,027,*7F
$GPGSV,4,2,16,25,05,136,29,26,30,227,44,27,30,322,25,28,39,168,45*79
$GPGSV,4,3,16,29,27,144,43,31,24,197,41,32,76,347,43,36,52,277,42*7E
$GPGSV,4,4,16,40,84,353,,41,58,082,37,49,32,274,,50,10,089,*7D
$GLGSV,3,1,09,69,30,000,22,70,51,267,32,71,19,223,35,73,14,211,31*69
$GLGSV,3,2,09,80,13,158,33,82,23,124,32,83,45,065,24,84,21,003,*65
$GLGSV,3,3,09,,,,40*68
$GNGLL,0419.95110,S,05539.72096,E,112657.00,A,A*6C
$GNRMC,112658.00,A,0419.95115,S,05539.72094,E,0.105,,260525,,,A*7F
$GNVTG,,T,,M,0.105,N,0.195,K,A*34
$GNGGA,112658.00,0419.95115,S,05539.72094,E,1,12,0.68,57.2,M,-47.6,M,,*44
$GNGSA,A,3,32,29,26,10,28,31,16,27,,,,,1.57,0.68,1.42*13
$GNGSA,A,3,69,82,70,83,80,73,71,,,,,,1.57,0.68,1.42*15
$GPGSV,4,1,16,10,21,349,24,16,25,258,36,18,30,064,23,23,06,027,23*71
$GPGSV,4,2,16,25,05,135,27,26,30,227,44,27,30,322,21,28,39,168,45*70
$GPGSV,4,3,16,29,27,144,43,31,24,197,39,32,76,347,43,36,52,277,42*71
$GPGSV,4,4,16,40,84,353,,41,58,082,37,49,32,274,,50,10,089,*7D
$GLGSV,3,1,09,69,30,000,20,70,51,267,32,71,19,223,37,73,14,211,31*69
$GLGSV,3,2,09,80,13,158,34,82,23,124,32,83,45,065,23,84,21,003,*65
$GLGSV,3,3,09,,,,42*6A
$GNGLL,0419.95115,S,05539.72094,E,112658.00,A,A*64
$GNRMC,112659.00,A,0419.95118,S,05539.72095,E,0.055,,260525,,,A*76
$GNVTG,,T,,M,0.055,N,0.102,K,A*3E
$GNGGA,112659.00,0419.95118,S,05539.72095,E,1,12,0.68,57.3,M,-47.6,M,,*48
$GNGSA,A,3,32,29,26,10,28,31,16,27,,,,,1.57,0.68,1.42*13
$GNGSA,A,3,69,82,70,83,80,73,71,,,,,,1.57,0.68,1.42*15
$GPGSV,4,1,16,10,21,349,24,16,25,258,40,18,30,064,28,23,06,027,*7A
$GPGSV,4,2,16,25,05,135,25,26,30,227,44,27,30,322,20,28,39,168,46*70
$GPGSV,4,3,16,29,27,144,43,31,24,197,44,32,76,347,45,36,52,277,42*7D
$GPGSV,4,4,16,40,84,353,,41,58,082,41,49,32,274,,50,10,089,*7C
$GLGSV,3,1,09,69,30,000,19,70,51,267,31,71,19,223,38,73,14,211,32*6C
$GLGSV,3,2,09,80,13,158,35,82,23,124,33,83,45,065,22,84,21,003,*64
$GLGSV,3,3,09,,,,41*69
$GNGLL,0419.95118,S,05539.72095,E,112659.00,A,A*69
$GNRMC,112700.00,A,0419.95118,S,05539.72096,E,0.027,,260525,,,A*7D
$GNVTG,,T,,M,0.027,N,0.051,K,A*3C
$GNGGA,112700.00,0419.95118,S,05539.72096,E,1,12,0.68,57.2,M,-47.6,M,,*47
$GNGSA,A,3,32,29,26,10,28,31,16,27,,,,,1.57,0.68,1.42*13
$GNGSA,A,3,69,82,70,83,80,73,71,,,,,,1.57,0.68,1.42*15
$GPGSV,4,1,16,10,21,349,23,16,25,258,38,18,30,064,24,23,06,027,*7E
$GPGSV,4,2,16,25,05,135,24,26,30,227,43,27,30,321,20,28,39,168,45*76
$GPGSV,4,3,16,29,27,144,43,31,24,197,40,32,76,347,43,36,52,277,41*7C
$GPGSV,4,4,16,40,84,353,,41,58,082,38,49,32,274,,50,10,089,*72
$GLGSV,3,1,09,69,30,000,19,70,51,267,32,71,19,223,38,73,14,211,32*6F
$GLGSV,3,2,09,80,13,158,35,82,23,124,32,83,45,065,22,84,21,003,*65
$GLGSV,3,3,09,,,,41*69
$GNGLL,0419.95118,S,05539.72096,E,112700.00,A,A*67
$GNRMC,112701.00,A,0419.95115,S,05539.72098,E,0.014,,260525,,,A*7F
$GNVTG,,T,,M,0.014,N,0.027,K,A*3D
$GNGGA,112701.00,0419.95115,S,05539.72098,E,1,12,0.68,57.1,M,-47.6,M,,*46
$GNGSA,A,3,32,29,26,10,28,31,16,27,,,,,1.57,0.68,1.42*13
$GNGSA,A,3,69,82,70,83,80,73,71,,,,,,1.57,0.68,1.42*15
$GPGSV,4,1,16,10,21,349,22,16,25,258,38,18,30,064,22,23,06,027,*79
$GPGSV,4,2,16,25,05,135,25,26,30,227,43,27,30,321,20,28,39,168,45*77
$GPGSV,4,3,16,29,27,144,43,31,24,197,40,32,76,347,43,36,52,277,41*7C
$GPGSV,4,4,16,40,84,353,,41,58,082,38,49,32,274,,50,10,089,*72
$GLGSV,3,1,09,69,30,000,20,70,51,267,32,71,19,223,38,73,14,211,32*65
$GLGSV,3,2,09,80,13,158,35,82,23,124,32,83,45,065,22,84,21,003,*65
$GLGSV,3,3,09,,,,41*69
$GNGLL,0419.95115,S,05539.72098,E,112701.00,A,A*65
$GNRMC,112702.00,A,0419.95112,S,05539.72099,E,0.037,,260525,,,A*7B
$GNVTG,,T,,M,0.037,N,0.068,K,A*37
$GNGGA,112702.00,0419.95112,S,05539.72099,E,1,12,0.63,57.0,M,-47.6,M,,*49
$GNGSA,A,3,32,29,26,10,28,18,31,16,27,,,,1.55,0.63,1.41*10
