$GNRMC,080130.00,A,0419.81513,S,05539.64156,E,0.360,,260525,,,A*72
$GNVTG,,T,,M,0.360,N,0.667,K,A*3F
$GNGGA,080130.00,0419.81513,S,05539.64156,E,1,12,0.92,7.2,M,-47.6,M,,*78
$GNGSA,A,3,25,23,12,15,10,29,18,28,,,,,1.66,0.92,1.38*14
$GNGSA,A,3,68,80,67,82,,,,,,,,,1.66,0.92,1.38*11
$GPGSV,5,1,19,05,04,029,10,10,38,230,19,12,43,153,23,13,06,068,*75
$GPGSV,5,3,19,25,74,198,10,26,02,317,17,28,12,254,27,29,33,019,16*7C
$GPGSV,5,4,19,31,00,275,,32,09,211,07,36,52,277,,40,85,352,*72
$GPGSV,5,5,19,41,58,082,,49,32,274,,50,10,089,*4B
$GLGSV,3,1,10,67,34,052,12,68,61,125,19,69,28,188,25,73,02,316,24*64
$GLGSV,3,2,10,78,06,159,,79,44,196,19,80,44,279,21,81,00,056,*64
$GLGSV,3,3,10,82,06,013,15,83,03,327,19*68
$GNGLL,0419.81513,S,05539.64156,E,080130.00,A,A*68
$GNRMC,080131.00,A,0419.81538,S,05539.64185,E,1.007,,260525,,,A*77
$GNVTG,,T,,M,1.007,N,1.865,K,A*31
$GNGGA,080131.00,0419.81538,S,05539.64185,E,1,12,0.92,6.9,M,-47.6,M,,*74
$GNGSA,A,3,25,23,12,15,10,29,18,28,,,,,1.66,0.92,1.38*14
$GNGSA,A,3,68,80,67,82,,,,,,,,,1.66,0.92,1.38*11
$GPGSV,5,1,19,05,04,029,19,10,38,230,20,12,43,153,23,13,06,068,*76
$GPGSV,5,2,19,15,42,081,20,18,21,333,23,23,69,290,29,24,18,144,07*70
$GPGSV,5,3,19,25,74,198,13,26,02,317,17,28,12,254,27,29,33,019,15*7C
$GPGSV,5,4,19,31,00,275,,32,09,211,08,36,52,277,,40,85,352,*7D
$GPGSV,5,5,19,41,58,082,,49,32,274,,50,10,089,*4B
$GLGSV,3,1,10,67,34,052,09,68,61,125,18,69,28,188,24,73,02,316,22*68
$GLGSV,3,2,10,78,06,159,,79,44,196,16,80,44,279,19,81,00,056,*60
$GLGSV,3,3,10,82,06,013,11,83,03,327,17*62
$GNGLL,0419.81538,S,05539.64185,E,080131.00,A,A*6E
$GNRMC,080132.00,A,0419.81557,S,05539.64194,E,0.530,,260525,,,A*7D
$GNVTG,,T,,M,0.530,N,0.981,K,A*3B
$GNGGA,080132.00,0419.81557,S,05539.64194,E,1,12,0.92,7.1,M,-47.6,M,,*77
$GNGSA,A,3,25,23,12,15,10,29,18,28,,,,,1.66,0.92,1.38*14
$GNGSA,A,3,68,80,67,82,,,,,,,,,1.66,0.92,1.38*11
$GPGSV,5,1,19,05,04,029,16,10,38,230,20,12,43,153,23,13,06,068,*79
$GPGSV,5,2,19,15,42,081,22,18,21,333,21,23,69,290,29,24,18,144,07*70
$GPGSV,5,3,19,25,74,198,16,26,02,317,17,28,12,254,28,29,33,019,12*71
$GPGSV,5,4,19,31,00,275,,32,09,211,,36,52,277,,40,85,352,*75
$GPGSV,5,5,19,41,58,082,,49,32,274,,50,10,089,*4B
$GLGSV,3,1,10,67,34,052,13,68,61,125,18,69,28,188,24,73,02,316,22*63
$GLGSV,3,2,10,78,06,159,,79,44,196,14,80,44,279,19,81,00,056,*62
$GLGSV,3,3,10,82,06,013,12,83,03,327,17*61
$GNGLL,0419.81557,S,05539.64194,E,080132.00,A,A*64
$GNRMC,080134.00,A,0419.81588,S,05539.64229,E,0.630,,260525,,,A*7F
$GNVTG,,T,,M,0.630,N,1.167,K,A*39
$GNGGA,080134.00,0419.81588,S,05539.64229,E,1,12,0.87,7.0,M,-47.6,M,,*73
$GNGSA,A,3,25,23,12,15,10,29,18,28,,,,,1.63,0.87,1.38*15
$GNGSA,A,3,68,79,80,67,82,,,,,,,,1.63,0.87,1.38*1E
$GPGSV,5,1,19,05,04,029,14,10,38,230,18,12,43,153,24,13,06,068,*77
$GPGSV,5,2,19,15,42,081,21,18,21,333,23,23,69,290,30,24,18,144,07*79
$GPGSV,5,3,19,25,74,198,12,26,02,317,17,28,12,254,29,29,33,019,16*70
$GPGSV,5,4,19,31,00,275,17,32,09,211,,36,52,277,,40,85,352,*73
$GPGSV,5,5,19,41,58,082,,49,32,274,,50,10,089,*4B
$GLGSV,3,1,10,67,34,052,12,68,61,125,18,69,28,188,25,73,02,316,22*63
$GLGSV,3,2,10,78,06,159,,79,44,196,14,80,44,279,23,81,00,056,*6B
$GLGSV,3,3,10,82,06,013,11,83,03,327,20*66
$GNGLL,0419.81588,S,05539.64229,E,080134.00,A,A*65
$GNRMC,080135.00,A,0419.81630,S,05539.64245,E,1.468,,260525,,,A*7A
$GNVTG,,T,,M,1.468,N,2.719,K,A*3B
$GNGGA,080135.00,0419.81630,S,05539.64245,E,1,12,0.87,7.3,M,-47.6,M,,*7B
$GNGSA,A,3,25,23,12,15,10,29,18,28,,,,,1.63,0.87,1.38*15
$GNGSA,A,3,79,80,67,82,,,,,,,,,1.63,0.87,1.38*10
$GPGSV,5,1,19,05,04,029,15,10,38,230,16,12,43,153,24,13,06,068,*78
$GPGSV,5,2,19,15,42,081,20,18,21,333,23,23,69,292,29,24,18,144,06*73
$GPGSV,5,3,19,25,74,198,12,26,02,317,18,28,12,254,29,29,33,019,17*7E
$GPGSV,5,4,19,31,00,275,18,32,09,211,,36,52,277,,40,85,352,*7C
$GPGSV,5,5,19,41,58,082,,49,32,274,,50,10,089,*4B
$GLGSV,3,1,10,67,34,052,13,68,61,125,,69,28,188,24,73,02,316,21*69
$GLGSV,3,2,10,78,06,159,,79,44,196,13,80,44,279,24,81,00,056,*6B
$GLGSV,3,3,10,82,06,013,13,83,03,327,20*64
$GNGLL,0419.81630,S,05539.64245,E,080135.00,A,A*6E
$GNRMC,080136.00,A,0419.81687,S,05539.64266,E,1.987,200.46,260525,,,A*66
$GNVTG,200.46,T,,M,1.987,N,3.680,K,A*29
$GNGGA,080136.00,0419.81687,S,05539.64266,E,1,12,0.87,7.5,M,-47.6,M,,*73
$GNGSA,A,3,25,23,12,15,10,29,18,28,,,,,1.63,0.87,1.38*15
$GNGSA,A,3,79,80,67,82,,,,,,,,,1.63,0.87,1.38*10
$GPGSV,5,1,19,05,04,029,15,10,38,230,16,12,43,153,23,13,06,068,*7F
$GPGSV,5,2,19,15,42,081,20,18,21,333,19,23,69,292,28,24,18,143,06*7C
$GPGSV,5,3,19,25,74,198,11,26,02,317,17,28,12,254,29,29,33,019,17*72
$GPGSV,5,4,19,31,00,275,19,32,09,211,,36,52,277,,40,85,352,*7D
$GPGSV,5,5,19,41,58,082,,49,32,274,,50,10,089,*4B
$GLGSV,3,1,10,67,34,052,11,68,61,125,,69,28,188,25,73,02,316,19*61
$GLGSV,3,2,10,78,06,159,,79,44,196,10,80,44,279,22,81,00,056,*6E
$GLGSV,3,3,10,82,06,013,10,83,03,327,18*6C
$GNGLL,0419.81687,S,05539.64266,E,080136.00,A,A*60
$GNRMC,080137.00,A,0419.81706,S,05539.64268,E,0.925,,260525,,,A*76
$GNVTG,,T,,M,0.925,N,1.712,K,A*36
$GNGGA,080137.00,0419.81706,S,05539.64268,E,1,11,0.92,7.9,M,-47.6,M,,*7F
$GNGSA,A,3,25,23,12,15,10,29,18,28,,,,,1.66,0.92,1.38*14
$GNGSA,A,3,80,67,82,,,,,,,,,,1.66,0.92,1.38*1F
$GPGSV,5,1,19,05,04,029,15,10,38,230,15,12,43,153,23,13,06,068,*7C
$GPGSV,5,2,19,15,42,081,23,18,21,333,17,23,69,292,30,24,18,143,06*78
$GPGSV,5,3,19,25,73,197,13,26,02,317,18,28,12,254,30,29,33,019,19*71
$GPGSV,5,4,19,31,00,275,19,32,09,211,,36,52,277,,40,85,352,*7D
$GPGSV,5,5,19,41,58,082,,49,32,274,,50,10,089,*4B
$GLGSV,3,1,10,67,34,052,17,68,61,125,23,69,28,188,26,73,02,316,18*64
$GLGSV,3,2,10,78,06,159,,79,44,196,10,80,44,279,23,81,00,056,*6F
$GLGSV,3,3,10,82,06,013,15,83,03,327,20*62
$GNGLL,0419.81706,S,05539.64268,E,080137.00,A,A*67
$GNRMC,080138.00,A,0419.81707,S,05539.64276,E,0.191,,260525,,,A*70
$GNVTG,,T,,M,0.191,N,0.354,K,A*36
$GNGGA,080138.00,0419.81707,S,05539.64276,E,1,11,0.92,8.0,M,-47.6,M,,*78
$GNGSA,A,3,25,23,12,15,10,29,18,28,,,,,1.66,0.92,1.38*14
$GNGSA,A,3,80,67,82,,,,,,,,,,1.66,0.92,1.38*1F
$GPGSV,5,1,19,05,04,029,15,10,38,230,14,12,43,153,22,13,06,068,*7C
$GPGSV,5,2,19,15,42,081,23,18,21,333,18,23,69,292,29,24,18,143,06*7F
$GPGSV,5,3,19,25,73,197,15,26,03,317,18,28,12,254,29,29,33,019,19*7E
$GPGSV,5,4,19,31,00,275,18,32,09,211,,36,52,277,,40,85,352,*7C
$GPGSV,5,5,19,41,58,082,,49,32,274,,50,10,089,*4B
$GLGSV,3,1,10,67,34,052,09,68,61,125,20,69,28,188,25,73,02,316,16*65
$GLGSV,3,2,10,78,06,159,,79,44,196,09,80,44,279,23,81,00,056,*67
$GLGSV,3,3,10,82,06,013,16,83,03,327,19*6B
$GNGLL,0419.81707,S,05539.64276,E,080138.00,A,A*66
$GNRMC,080139.00,A,0419.81727,S,05539.64295,E,0.703,,260525,,,A*73
$GNVTG,,T,,M,0.703,N,1.301,K,A*3A
$GNGGA,080139.00,0419.81727,S,05539.64295,E,1,11,0.92,8.0,M,-47.6,M,,*76
$GNGSA,A,3,25,23,12,15,10,29,18,28,,,,,1.66,0.92,1.38*14
$GNGSA,A,3,80,67,82,,,,,,,,,,1.66,0.92,1.38*1F
$GPGSV,5,1,19,05,04,029,10,10,38,230,17,12,43,153,20,13,06,068,*78
$GPGSV,5,2,19,15,42,081,22,18,21,333,18,23,69,292,30,24,18,143,06*76
$GPGSV,5,3,19,25,73,197,15,26,03,317,19,28,12,254,28,29,33,019,20*74
$GPGSV,5,4,19,31,00,275,17,32,09,211,,36,52,277,,40,85,352,*73
$GPGSV,5,5,19,41,58,082,,49,32,274,,50,10,089,*4B
$GLGSV,3,1,10,67,34,052,14,68,61,125,20,69,28,188,25,73,02,316,15*6A
$GLGSV,3,2,10,78,06,159,,79,44,196,07,80,44,279,23,81,00,056,*69
$GLGSV,3,3,10,82,06,013,14,83,03,327,15*65
$GNGLL,0419.81727,S,05539.64295,E,080139.00,A,A*68
$GNRMC,080140.00,A,0419.81715,S,05539.64292,E,0.187,,260525,,,A*71
$GNVTG,,T,,M,0.187,N,0.346,K,A*32
$GNGGA,080140.00,0419.81715,S,05539.64292,E,1,12,0.92,7.7,M,-47.6,M,,*75
$GNGSA,A,3,25,23,12,15,10,29,18,28,,,,,1.66,0.92,1.38*14
$GNGSA,A,3,68,80,67,82,,,,,,,,,1.66,0.92,1.38*11
$GPGSV,5,1,19,05,04,029,08,10,38,230,16,12,43,153,21,13,06,068,*71
$GPGSV,5,2,19,15,42,081,21,18,21,333,18,23,69,292,31,24,18,143,06*74
$GPGSV,5,3,19,25,73,197,15,26,03,317,18,28,12,254,28,29,33,019,21*74
$GPGSV,5,4,19,31,00,275,17,32,09,211,,36,52,277,,40,85,352,*73
$GPGSV,5,5,19,41,58,082,,49,32,274,,50,10,089,*4B
$GLGSV,3,1,10,67,34,052,08,68,61,125,20,69,28,188,26,73,02,316,15*64
$GLGSV,3,2,10,78,06,159,,79,44,196,07,80,44,279,24,81,00,056,*6E
$GLGSV,3,3,10,82,06,013,18,83,03,327,11*6D
$GNGLL,0419.81715,S,05539.64292,E,080140.00,A,A*60
$GNRMC,080141.00,A,0419.81708,S,05539.64297,E,0.251,,260525,,,A*71
$GNVTG,,T,,M,0.251,N,0.465,K,A*3C
$GNGGA,080141.00,0419.81708,S,05539.64297,E,1,12,0.92,7.5,M,-47.6,M,,*7F
$GNGSA,A,3,25,23,12,15,10,29,18,28,,,,,1.66,0.92,1.38*14
$GNGSA,A,3,68,80,67,82,,,,,,,,,1.66,0.92,1.38*11
$GPGSV,5,1,19,05,04,029,10,10,38,230,18,12,43,153,23,13,06,068,*74
$GPGSV,5,2,19,15,42,081,21,18,21,333,17,23,69,292,31,24,18,143,06*7B
$GPGSV,5,3,19,25,73,197,16,26,03,317,19,28,12,254,28,29,33,019,21*76
$GPGSV,5,4,19,31,00,275,17,32,09,211,,36,52,277,,40,85,352,*73
$GPGSV,5,5,19,41,58,082,,49,32,274,,50,10,089,*4B
$GLGSV,3,1,10,67,34,052,09,68,61,125,20,69,28,188,26,73,02,316,10*60
$GLGSV,3,2,10,78,06,159,,79,44,196,08,80,44,279,25,81,00,056,*60
$GLGSV,3,3,10,82,06,013,16,83,03,327,17*65
$GNGLL,0419.81708,S,05539.64297,E,080141.00,A,A*68
$GNRMC,080142.00,A,0419.81678,S,05539.64309,E,0.679,,260525,,,A*7C
$GNVTG,,T,,M,0.679,N,1.257,K,A*34
$GNGGA,080142.00,0419.81678,S,05539.64309,E,1,12,0.92,7.0,M,-47.6,M,,*79
$GNGSA,A,3,25,23,12,15,10,29,18,28,,,,,1.66,0.92,1.38*14
$GNGSA,A,3,68,80,67,82,,,,,,,,,1.66,0.92,1.38*11
$GPGSV,5,1,19,05,04,029,12,10,38,230,21,12,43,153,25,13,06,068,*7A
$GPGSV,5,2,19,15,42,081,19,18,21,333,15,23,69,292,30,24,18,143,06*73
$GPGSV,5,3,19,25,73,197,20,26,03,317,20,28,12,254,27,29,33,019,20*77
$GPGSV,5,4,19,31,00,275,17,32,09,211,,36,52,277,,40,85,352,*73
$GPGSV,5,5,19,41,58,082,,49,32,274,,50,10,089,*4B
$GLGSV,3,1,10,67,34,052,12,68,61,125,19,69,28,188,27,73,02,316,09*69
$GLGSV,3,2,10,78,06,159,,79,44,196,08,80,44,279,23,81,00,056,*66
$GLGSV,3,3,10,82,06,013,16,83,03,327,18*6A
$GNGLL,0419.81678,S,05539.64309,E,080142.00,A,A*6B
$GNGSA,A,3,68,79,80,67,82,,,,,,,,1.66,0.92,1.38*1F
$GPGSV,5,1,19,05,04,029,09,10,38,230,19,12,43,153,24,13,06,068,*7A
$GPGSV,5,2,19,15,42,081,16,18,21,333,16,23,69,292,29,24,18,143,06*77
$GPGSV,5,3,19,25,73,197,17,26,03,317,20,28,12,254,28,29,33,019,19*76
$GPGSV,5,4,19,31,00,275,14,32,09,211,,36,52,277,,40,85,352,*70
$GPGSV,5,5,19,41,58,082,,49,32,274,,50,10,089,*4B
$GLGSV,3,1,10,67,34,052,11,68,61,125,18,69,28,188,24,73,02,316,09*68
$GLGSV,3,2,10,78,06,159,,79,44,196,15,80,44,279,22,81,00,056,*6B
$GLGSV,3,3,10,82,06,013,15,83,03,327,11*60
$GNGLL,0419.81632,S,05539.64324,E,080144.00,A,A*6C
$GPGSV,5,1,19,05,04,029,08,10,38,230,18,12,43,153,23,13,06,068,*7D
$GPGSV,5,2,19,15,42,081,14,18,21,333,16,23,69,292,29,24,18,143,07*74
$GPGSV,5,3,19,25,73,197,17,26,03,317,20,28,12,254,29,29,33,019,18*76
$GPGSV,5,4,19,31,00,275,13,32,09,211,,36,52,277,,40,85,352,*77
$GPGSV,5,5,19,41,58,082,,49,32,274,,50,10,089,*4B
$GLGSV,3,1,10,67,34,052,12,68,61,125,19,69,28,188,24,73,02,316,08*6B
$GLGSV,3,2,10,78,06,159,,79,44,196,16,80,44,279,21,81,00,056,*6B
$GLGSV,3,3,10,82,06,013,15,83,03,327,13*62
$GNGLL,0419.81627,S,05539.64330,E,080145.00,A,A*6C
$GNRMC,080150.00,A,0419.81590,S,05539.64268,E,0.547,,260525,,,A*72
$GNVTG,,T,,M,0.547,N,1.013,K,A*38
$GNGGA,080150.00,0419.81590,S,05539.64268,E,1,12,0.92,7.0,M,-47.6,M,,*79
$GNGSA,A,3,25,23,12,15,10,29,18,28,,,,,1.66,0.92,1.38*14
$GNGSA,A,3,68,80,67,82,,,,,,,,,1.66,0.92,1.38*11
$GPGSV,5,1,19,05,04,029,09,10,38,230,20,12,43,153,21,13,06,068,*75
$GPGSV,5,2,19,15,42,081,15,18,21,333,15,23,69,292,28,24,18,143,*70
$GPGSV,5,3,19,25,73,197,16,26,03,317,21,28,12,254,28,29,33,019,25*79
$GPGSV,5,4,19,31,00,275,,32,09,211,,36,52,277,,40,85,352,*75
$GPGSV,5,5,19,41,58,082,,49,32,274,,50,10,089,*4B
$GLGSV,3,1,10,67,34,052,19,68,61,125,20,69,28,188,25,73,02,316,11*63
$GLGSV,3,2,10,78,06,159,,79,44,196,23,80,44,279,21,81,00,056,*6D
$GLGSV,3,3,10,82,06,013,17,83,03,327,*62
$GNRMC,080151.00,A,0419.81575,S,05539.64257,E,0.568,,260525,,,A*79
$GNVTG,,T,,M,0.568,N,1.052,K,A*30
$GNGGA,080151.00,0419.81575,S,05539.64257,E,1,12,0.90,7.2,M,-47.6,M,,*7F
$GNGSA,A,3,25,23,12,15,10,29,18,28,,,,,1.63,0.90,1.36*1D
$GNGSA,A,3,68,80,67,82,,,,,,,,,1.63,0.90,1.36*18
$GPGSV,5,1,19,05,04,029,09,10,38,230,21,12,43,153,21,13,06,068,*74
$GPGSV,5,2,19,15,42,081,15,18,21,333,14,23,69,292,28,24,18,143,*71
$GPGSV,5,3,19,25,73,197,14,26,03,317,22,28,12,254,28,29,33,019,25*78
$GPGSV,5,4,19,31,00,275,,32,09,211,,36,52,277,,40,85,352,*75
$GPGSV,5,5,19,41,58,082,,49,32,274,,50,10,089,*4B
$GLGSV,3,1,10,67,34,052,20,68,61,125,21,69,28,188,25,73,02,316,13*6A
$GLGSV,3,2,10,78,06,159,,79,44,196,22,80,44,279,22,81,00,056,*6F
$GLGSV,3,3,10,82,06,013,18,83,03,327,19*65
$GNGLL,0419.81575,S,05539.64257,E,080151.00,A,A*6D
$GNRMC,080152.00,A,0419.81583,S,05539.64260,E,0.397,,260525,,,A*71
$GNVTG,,T,,M,0.397,N,0.736,K,A*32
$GNGGA,080152.00,0419.81583,S,05539.64260,E,1,12,0.85,7.4,M,-47.6,M,,*73
$GNGSA,A,3,25,23,12,15,10,29,18,28,,,,,1.60,0.85,1.35*19
$GNGSA,A,3,68,79,80,67,82,,,,,,,,1.60,0.85,1.35*12
$GPGSV,5,1,19,05,04,029,07,10,38,230,21,12,43,153,22,13,06,068,*79
$GPGSV,5,2,19,15,42,081,15,18,21,333,12,23,69,292,28,24,18,143,*77
$GPGSV,5,3,19,25,73,197,11,26,03,317,21,28,12,254,28,29,33,019,25*7E
$GPGSV,5,4,19,31,00,275,,32,09,211,,36,52,277,,40,85,352,*75
$GPGSV,5,5,19,41,58,082,,49,32,274,,50,10,089,*4B
$GLGSV,3,1,10,67,34,052,19,68,61,125,21,69,28,188,24,73,02,316,11*63
$GLGSV,3,2,10,78,06,159,,79,44,196,21,80,44,279,20,81,00,056,*6E
$GLGSV,3,3,10,82,06,013,15,83,03,327,17*66
$GNGLL,0419.81583,S,05539.64260,E,080152.00,A,A*63
$GNRMC,080154.00,A,0419.81592,S,05539.64258,E,0.230,,260525,,,A*70
$GNVTG,,T,,M,0.230,N,0.427,K,A*3D
$GNGGA,080154.00,0419.81592,S,05539.64258,E,1,12,0.87,7.6,M,-47.6,M,,*7E
$GNGSA,A,3,25,23,12,15,10,29,18,28,,,,,1.78,0.87,1.56*17
$GNGSA,A,3,68,79,80,67,,,,,,,,,1.78,0.87,1.56*16
$GPGSV,5,1,19,05,04,029,13,10,38,230,23,12,43,153,21,13,06,068,*7D
$GPGSV,5,2,19,15,42,081,18,18,21,333,17,23,69,292,31,24,18,143,17*71
$GPGSV,5,3,19,25,73,197,16,26,03,317,18,28,12,254,30,29,33,019,28*77
$GPGSV,5,4,19,31,00,275,,32,09,211,,36,52,277,,40,85,352,*75
$GPGSV,5,5,19,41,58,082,,49,32,274,,50,10,089,*4B
$GLGSV,3,1,10,67,34,052,18,68,61,125,21,69,28,188,23,73,02,316,10*64
$GLGSV,3,2,10,78,06,159,,79,44,196,22,80,44,279,20,81,00,056,*6D
$GLGSV,3,3,10,82,06,013,09,83,03,327,10*6C
$GNGLL,0419.81592,S,05539.64258,E,080154.00,A,A*6E
$GNRMC,080200.00,A,0419.81749,S,05539.64348,E,0.534,,260525,,,A*75
$GNVTG,,T,,M,0.534,N,0.990,K,A*3F
$GNGGA,080200.00,0419.81749,S,05539.64348,E,1,12,0.72,8.3,M,-47.6,M,,*78
$GNGSA,A,3,25,23,12,15,10,29,18,24,28,,,,1.33,0.72,1.12*14
$GNGSA,A,3,68,79,80,67,82,,,,,,,,1.33,0.72,1.12*19
$GPGSV,5,1,19,05,04,029,09,10,38,230,19,12,43,153,17,13,06,068,*7A
$GPGSV,5,2,19,15,42,081,21,18,21,333,18,23,69,292,31,24,18,143,13*70
$GPGSV,5,3,19,25,73,197,12,26,03,317,19,28,12,254,31,29,33,019,29*72
$GPGSV,5,4,19,31,00,275,20,32,09,211,09,36,52,277,,40,85,352,*7E
$GPGSV,5,5,19,41,58,082,,49,32,274,,50,10,089,*4B
$GLGSV,3,1,10,67,34,052,17,68,61,125,22,69,28,188,22,73,02,316,10*69
$GLGSV,3,2,10,78,06,159,,79,44,196,24,80,44,279,22,81,00,056,*69
$GLGSV,3,3,10,82,06,013,16,83,03,327,10*62
$GNGLL,0419.81749,S,05539.64348,E,080200.00,A,A*68
$GNRMC,080202.00,A,0419.81734,S,05539.64323,E,0.412,,260525,,,A*75
$GNRMC,080203.00,A,0419.81737,S,05539.64325,E,0.116,,260525,,,A*70
$GNVTG,,T,,M,0.116,N,0.215,K,A*3D
$GNGGA,080203.00,0419.81737,S,05539.64325,E,1,12,0.72,8.5,M,-47.6,M,,*7F
$GNGSA,A,3,25,23,12,15,10,29,18,24,28,,,,1.33,0.72,1.12*14
$GNGSA,A,3,68,79,80,67,82,,,,,,,,1.33,0.72,1.12*19
$GPGSV,5,1,19,05,04,029,,10,38,230,16,12,43,153,20,13,06,068,*78
$GPGSV,5,2,19,15,42,081,21,18,21,333,20,23,69,292,30,24,18,143,13*7A
$GPGSV,5,3,19,25,73,197,14,26,03,317,15,28,12,254,29,29,33,019,28*70
$GPGSV,5,4,19,31,00,275,22,32,09,211,08,36,52,277,,40,85,352,*7D
$GPGSV,5,5,19,41,58,082,,49,32,274,,50,10,089,*4B
$GLGSV,3,1,10,67,34,052,17,68,61,125,22,69,28,188,21,73,02,316,14*6E
$GLGSV,3,2,10,78,06,159,,79,44,196,26,80,44,279,21,81,00,056,*68
$GLGSV,3,3,10,82,06,013,15,83,03,327,*60
$GNGLL,0419.81737,S,05539.64325,E,080203.00,A,A*69
$GNRMC,080204.00,A,0419.81717,S,05539.64300,E,0.926,,260525,,,A*79
$GNVTG,,T,,M,0.926,N,1.715,K,A*32
$GNGGA,080204.00,0419.81717,S,05539.64300,E,1,12,0.85,8.7,M,-47.6,M,,*77
$GNGSA,A,3,25,23,12,15,10,29,18,24,28,,,,1.60,0.85,1.35*1F
$GNGSA,A,3,68,79,80,67,82,,,,,,,,1.60,0.85,1.35*12
$GPGSV,5,1,19,05,04,029,06,10,38,230,15,12,43,153,18,13,06,068,*76
$GPGSV,5,2,19,15,42,081,21,18,21,333,28,23,69,292,29,24,18,143,11*78
$GPGSV,5,3,19,25,73,197,18,26,03,317,14,28,12,254,28,29,33,019,27*73
$GPGSV,5,4,19,31,00,275,22,32,09,211,08,36,52,277,,40,85,352,*7D
$GPGSV,5,5,19,41,58,082,,49,32,274,,50,10,089,*4B
$GLGSV,3,1,10,67,34,052,17,68,61,125,22,69,28,188,19,73,02,316,14*65
$GLGSV,3,2,10,78,06,159,,79,44,196,26,80,44,279,20,81,00,056,*69
$GLGSV,3,3,10,82,06,013,12,83,03,327,*67
$GNGLL,0419.81717,S,05539.64300,E,080204.00,A,A*6B
$GNRMC,080205.00,A,0419.81715,S,05539.64302,E,0.240,,260525,,,A*73
$GNVTG,,T,,M,0.240,N,0.444,K,A*3F
$GNGGA,080205.00,0419.81715,S,05539.64302,E,1,12,0.85,8.6,M,-47.6,M,,*77
$GNGSA,A,3,25,23,12,15,10,29,18,28,,,,,1.60,0.85,1.35*19
$GNGSA,A,3,68,79,80,67,82,,,,,,,,1.60,0.85,1.35*12
$GPGSV,5,1,19,05,04,029,11,10,38,230,16,12,43,153,16,13,06,068,*7D
$GPGSV,5,2,19,15,42,081,21,18,21,333,28,23,69,292,30,24,18,143,09*79
$GPGSV,5,3,19,25,73,197,18,26,03,317,16,28,12,254,28,29,33,019,28*7E
$GPGSV,5,4,19,31,00,275,22,32,09,211,09,36,52,277,,40,85,352,*7C
$GPGSV,5,5,19,41,58,082,,49,32,274,,50,10,089,*4B
$GLGSV,3,1,10,67,34,052,16,68,61,125,21,69,28,188,16,73,02,316,11*6D
$GLGSV,3,2,10,78,06,159,,79,44,196,26,80,44,279,19,81,00,056,*63
$GLGSV,3,3,10,82,06,013,12,83,03,327,*67
$GNGLL,0419.81715,S,05539.64302,E,080205.00,A,A*6A
$GNRMC,080207.00,A,0419.81748,S,05539.64320,E,0.039,,260525,,,A*75
$GNVTG,,T,,M,0.039,N,0.073,K,A*33
$GNGGA,080207.00,0419.81748,S,05539.64320,E,1,12,0.85,8.6,M,-47.6,M,,*7D
$GNGSA,A,3,25,23,12,15,10,29,18,28,,,,,1.60,0.85,1.35*19
$GNGSA,A,3,68,79,80,67,82,,,,,,,,1.60,0.85,1.35*12
$GPGSV,5,1,19,05,04,029,,10,38,230,15,12,43,153,13,13,06,068,*7B
$GPGSV,5,2,19,15,42,081,21,18,21,333,28,23,69,292,30,24,18,143,09*79
$GPGSV,5,3,19,25,73,197,20,26,03,317,17,28,12,254,30,29,33,019,28*7D
$GPGSV,5,4,19,31,00,275,24,32,09,211,,36,52,277,,40,85,352,*73
$GPGSV,5,5,19,41,58,082,,49,32,274,,50,10,089,*4B
$GLGSV,3,1,10,67,33,052,21,68,61,125,21,69,28,188,13,73,02,316,16*6C
$GLGSV,3,2,10,78,06,159,,79,44,196,27,80,44,279,18,81,00,056,*63
$GLGSV,3,3,10,82,06,013,18,83,03,327,*6D
$GNGLL,0419.81748,S,05539.64320,E,080207.00,A,A*60
$GNRMC,080208.00,A,0419.81751,S,05539.64317,E,0.009,,260525,,,A*75
$GNVTG,,T,,M,0.009,N,0.016,K,A*33
$GNGGA,080208.00,0419.81751,S,05539.64317,E,1,12,0.87,8.6,M,-47.6,M,,*7C
$GNGSA,A,3,25,23,12,15,10,29,18,28,,,,,1.78,0.87,1.56*17
$GNGSA,A,3,68,79,80,67,,,,,,,,,1.78,0.87,1.56*16
$GPGSV,5,1,19,05,04,029,,10,38,230,21,12,43,153,16,13,06,068,*79
$GPGSV,5,2,19,15,42,081,19,18,21,333,26,23,69,292,30,24,18,143,08*7D
$GPGSV,5,3,19,25,73,197,19,26,03,317,19,28,12,254,29,29,33,019,28*71
$GPGSV,5,4,19,31,00,275,24,32,09,211,,36,52,277,,40,85,352,*73
$GPGSV,5,5,19,41,58,082,,49,32,274,,50,10,089,*4B
$GLGSV,3,1,10,67,33,052,19,68,61,124,22,69,28,188,15,73,02,316,15*60
$GLGSV,3,2,10,78,06,159,,79,44,196,26,80,44,279,17,81,00,056,*6D
$GLGSV,3,3,10,82,06,013,07,83,03,327,*63
$GNGLL,0419.81751,S,05539.64317,E,080208.00,A,A*63
$GNRMC,080209.00,A,0419.81764,S,05539.64328,E,0.160,,260525,,,A*70
$GNVTG,,T,,M,0.160,N,0.296,K,A*37
$GNGGA,080209.00,0419.81764,S,05539.64328,E,1,12,0.85,8.3,M,-47.6,M,,*70
$GNGSA,A,3,25,23,12,15,10,29,18,28,,,,,1.60,0.85,1.35*19
$GNGSA,A,3,68,79,80,67,82,,,,,,,,1.60,0.85,1.35*12
$GPGSV,5,1,19,05,04,029,,10,38,230,25,12,43,153,18,13,06,068,*73
$GPGSV,5,2,19,15,42,081,17,18,21,333,24,23,69,292,31,24,18,143,08*70
$GPGSV,5,3,19,25,73,197,20,26,03,317,21,28,12,254,29,29,33,019,28*70
$GPGSV,5,4,19,31,00,275,25,32,09,211,,36,52,277,,40,85,352,*72
$GPGSV,5,5,19,41,58,082,,49,32,274,,50,10,089,*4B
$GLGSV,3,1,10,67,33,052,21,68,61,124,22,69,29,188,16,73,02,316,15*69
$GLGSV,3,2,10,78,06,159,,79,44,196,27,80,44,279,19,81,00,056,*62
$GLGSV,3,3,10,82,06,013,19,83,03,327,*6C
$GNGLL,0419.81764,S,05539.64328,E,080209.00,A,A*68
$GNRMC,080210.00,A,0419.81767,S,05539.64331,E,0.039,,260525,,,A*7E
$GNVTG,,T,,M,0.039,N,0.072,K,A*32
$GNGGA,080210.00,0419.81767,S,05539.64331,E,1,12,0.85,8.5,M,-47.6,M,,*75
$GNGSA,A,3,25,23,12,15,10,29,18,24,28,,,,1.60,0.85,1.35*1F
$GNGSA,A,3,68,79,80,67,82,,,,,,,,1.60,0.85,1.35*12
$GPGSV,5,1,19,05,04,029,,10,38,230,25,12,43,153,19,13,06,068,*72
$GPGSV,5,2,19,15,42,081,17,18,21,333,26,23,69,292,31,24,18,143,11*7A
$GPGSV,5,3,19,25,73,197,20,26,03,317,24,28,12,254,28,29,33,019,28*74
$GPGSV,5,4,19,31,00,275,26,32,09,211,,36,52,277,,40,85,352,*71
$GPGSV,5,5,19,41,58,082,,49,32,274,,50,10,089,*4B
$GLGSV,3,1,10,67,33,052,21,68,61,124,23,69,29,188,18,73,02,316,14*67
$GLGSV,3,2,10,78,06,159,,79,44,196,27,80,44,279,19,81,00,056,*62
$GLGSV,3,3,10,82,06,013,15,83,03,327,*60
$GNGLL,0419.81767,S,05539.64331,E,080210.00,A,A*6B
$GNRMC,080211.00,A,0419.81766,S,05539.64334,E,0.056,,260525,,,A*72
$GNVTG,,T,,M,0.056,N,0.103,K,A*3C
$GNGGA,080211.00,0419.81766,S,05539.64334,E,1,12,0.85,8.4,M,-47.6,M,,*71
$GNGSA,A,3,25,23,12,15,10,29,18,24,28,,,,1.60,0.85,1.35*1F
$GNGSA,A,3,68,79,80,67,82,,,,,,,,1.60,0.85,1.35*12
$GPGSV,5,1,19,05,04,029,13,10,38,230,26,12,43,153,19,13,06,068,*73
$GPGSV,5,2,19,15,42,081,20,18,21,333,27,23,69,292,30,24,18,143,11*7E
$GPGSV,5,3,19,25,73,197,19,26,03,317,25,28,12,254,29,29,33,019,28*7E
$GPGSV,5,4,19,31,00,275,25,32,09,211,,36,52,277,,40,85,352,*72
$GPGSV,5,5,19,41,58,082,,49,32,274,,50,10,089,*4B
$GLGSV,3,1,10,67,33,052,23,68,61,124,21,69,29,188,18,73,02,316,16*65
$GLGSV,3,2,10,78,06,159,,79,44,196,28,80,44,279,17,81,00,056,*63
$GLGSV,3,3,10,82,06,013,17,83,03,327,20*60
$GNGLL,0419.81766,S,05539.64334,E,080211.00,A,A*6E
$GNRMC,080216.00,A,0419.81751,S,05539.64349,E,0.169,,260525,,,A*76
$GNVTG,,T,,M,0.169,N,0.314,K,A*35
$GNGGA,080216.00,0419.81751,S,05539.64349,E,1,12,0.87,7.1,M,-47.6,M,,*70
$GNGSA,A,3,25,23,12,15,10,29,18,24,28,,,,1.78,0.87,1.55*12
$GNGSA,A,3,68,79,80,67,82,,,,,,,,1.78,0.87,1.55*1F
$GPGSV,5,1,19,05,04,029,,10,38,230,28,12,43,153,16,13,06,068,*70
$GPGSV,5,2,19,15,42,081,23,18,21,333,22,23,69,292,31,24,18,143,12*7A
$GPGSV,5,3,19,25,73,197,21,26,03,317,25,28,12,254,29,29,33,019,25*78
$GPGSV,5,4,19,31,00,275,24,32,09,211,,36,52,277,,40,85,352,*73
$GPGSV,5,5,19,41,58,082,,49,32,274,,50,10,089,*4B
$GLGSV,3,1,10,67,33,052,22,68,61,124,18,69,29,188,18,73,03,316,12*6B
$GLGSV,3,2,10,78,06,159,,79,44,196,28,80,44,279,11,81,00,056,*65
$GLGSV,3,3,10,82,06,013,16,83,03,327,21*60
$GNGLL,0419.81751,S,05539.64349,E,080216.00,A,A*67
$GNRMC,080218.00,A,0419.81755,S,05539.64340,E,0.330,,260525,,,A*7B
$GNVTG,,T,,M,0.330,N,0.611,K,A*3B
$GNGGA,080218.00,0419.81755,S,05539.64340,E,1,12,0.85,7.2,M,-47.6,M,,*72
$GNGSA,A,3,25,23,12,15,10,29,18,28,,,,,1.60,0.85,1.35*19
$GNGSA,A,3,68,79,80,67,82,,,,,,,,1.60,0.85,1.35*12
$GPGSV,5,1,19,05,04,029,08,10,38,230,27,12,43,153,20,13,06,068,*72
$GPGSV,5,2,19,15,42,081,24,18,21,333,23,23,69,292,30,24,18,143,09*77
$GPGSV,5,3,19,25,73,197,22,26,03,317,24,28,12,254,30,29,33,019,26*71
$GPGSV,5,4,19,31,00,275,21,32,09,211,,36,52,277,,40,85,352,*76
$GPGSV,5,5,19,41,58,082,,49,32,274,,50,10,089,*4B
$GLGSV,3,1,10,67,33,052,22,68,61,124,19,69,29,188,22,73,03,316,16*67
$GLGSV,3,2,10,78,05,158,,79,44,196,27,80,44,279,14,81,00,056,*6D
$GLGSV,3,3,10,82,06,013,16,83,03,327,21*60
$GNGLL,0419.81755,S,05539.64340,E,080218.00,A,A*64
$GNRMC,080221.00,A,0419.81747,S,05539.64343,E,0.063,,260525,,,A*74
$GNVTG,,T,,M,0.063,N,0.117,K,A*3F
$GNGGA,080221.00,0419.81747,S,05539.64343,E,1,12,0.85,7.0,M,-47.6,M,,*7A
$GNGSA,A,3,25,23,12,15,10,29,18,28,,,,,1.60,0.85,1.35*19
$GNGSA,A,3,68,79,80,67,82,,,,,,,,1.60,0.85,1.35*12
$GPGSV,5,1,19,05,04,029,14,10,38,230,19,12,43,153,22,13,06,068,*70
$GPGSV,5,2,19,15,42,081,23,18,21,333,28,23,69,292,27,24,18,143,08*7C
$GPGSV,5,3,19,25,73,197,19,26,03,317,24,28,12,254,31,29,33,019,26*78
$GPGSV,5,4,19,31,00,275,21,32,09,211,,36,52,277,,40,85,352,*76
$GPGSV,5,5,19,41,58,082,,49,32,274,,50,10,089,*4B
$GLGSV,3,1,10,67,33,052,19,68,61,124,23,69,29,188,24,73,03,316,22*67
$GLGSV,3,2,10,78,05,158,,79,43,196,28,80,44,278,17,81,00,056,*67
$GLGSV,3,3,10,82,06,013,14,83,03,327,20*63
$GNGLL,0419.81747,S,05539.64343,E,080221.00,A,A*6E
$GNRMC,080222.00,A,0419.81730,S,05539.64322,E,0.168,,260525,,,A*7A
$GNVTG,,T,,M,0.168,N,0.310,K,A*30
$GNGGA,080222.00,0419.81730,S,05539.64322,E,1,12,0.85,7.5,M,-47.6,M,,*7B
$GNGSA,A,3,25,23,12,15,10,29,18,28,,,,,1.60,0.85,1.35*19
$GNGSA,A,3,68,79,80,67,82,,,,,,,,1.60,0.85,1.35*12
$GPGSV,5,1,19,05,04,029,15,10,38,230,21,12,43,153,25,13,06,068,*7D
$GPGSV,5,2,19,15,42,081,24,18,21,333,28,23,69,292,27,24,18,143,08*7B
$GPGSV,5,3,19,25,73,197,19,26,03,317,23,28,12,254,32,29,33,019,27*7D
$GPGSV,5,4,19,31,00,275,20,32,09,211,,36,52,277,29,40,85,352,*7C
$GPGSV,5,5,19,41,58,082,,49,32,274,,50,10,089,*4B
$GLGSV,3,1,10,67,33,052,20,68,61,124,23,69,29,188,24,73,03,316,24*6B
$GLGSV,3,2,10,78,05,158,,79,43,196,32,80,44,278,16,81,00,056,*6D
$GLGSV,3,3,10,82,06,014,13,83,03,327,19*69
$GNGLL,0419.81730,S,05539.64322,E,080222.00,A,A*6A
$GNRMC,080225.00,A,0419.81701,S,05539.64287,E,0.276,,260525,,,A*7D
$GNVTG,,T,,M,0.276,N,0.511,K,A*3B
$GNGGA,080225.00,0419.81701,S,05539.64287,E,1,12,0.85,8.1,M,-47.6,M,,*7B
$GNGSA,A,3,25,23,12,15,10,29,18,28,,,,,1.59,0.85,1.35*13
$GNGSA,A,3,68,79,80,67,82,,,,,,,,1.59,0.85,1.35*18
$GPGSV,5,1,19,05,04,029,15,10,38,230,23,12,43,153,16,13,06,068,*7F
$GPGSV,5,2,19,15,42,081,26,18,21,333,22,23,69,292,26,24,18,143,08*72
$GPGSV,5,3,19,25,73,197,17,26,03,317,18,28,12,254,29,29,33,019,25*73
$GPGSV,5,4,19,31,00,275,09,32,09,211,,36,52,277,30,40,85,352,*7F
$GPGSV,5,5,19,41,58,082,,49,32,274,,50,10,089,*4B
$GLGSV,3,1,10,67,33,052,19,68,61,124,20,69,29,188,16,73,03,316,22*65
$GLGSV,3,2,10,78,05,158,,79,43,196,25,80,44,278,18,81,00,056,*65
$GLGSV,3,3,10,82,06,014,13,83,03,327,15*65
$GNGLL,0419.81701,S,05539.64287,E,080225.00,A,A*61
$GNRMC,080226.00,A,0419.81691,S,05539.64278,E,0.087,,260525,,,A*7A
$GNVTG,,T,,M,0.087,N,0.160,K,A*35
$GNGGA,080226.00,0419.81691,S,05539.64278,E,1,12,0.85,8.2,M,-47.6,M,,*73
$GNGSA,A,3,25,23,12,15,10,29,18,28,,,,,1.59,0.85,1.35*13
$GNGSA,A,3,68,79,80,67,82,,,,,,,,1.59,0.85,1.35*18
$GPGSV,5,1,19,05,04,029,17,10,38,230,25,12,43,153,14,13,06,068,*79
$GPGSV,5,2,19,15,42,081,26,18,21,333,22,23,69,292,26,24,18,143,08*72
$GPGSV,5,3,19,25,73,197,15,26,03,317,20,28,12,254,31,29,33,019,25*73
$GPGSV,5,4,19,31,00,275,,32,09,211,,36,52,277,30,40,85,352,*76
$GPGSV,5,5,19,41,58,082,,49,32,274,,50,10,089,*4B
$GLGSV,3,1,10,67,33,052,18,68,61,124,22,69,29,188,14,73,03,316,22*64
$GLGSV,3,2,10,78,05,158,,79,43,196,26,80,44,278,18,81,00,056,*66
$GLGSV,3,3,10,82,06,014,16,83,03,327,16*63
$GNGLL,0419.81691,S,05539.64278,E,080226.00,A,A*6A
$GNRMC,080227.00,A,0419.81674,S,05539.64270,E,0.260,,260525,,,A*73
$GNVTG,,T,,M,0.260,N,0.482,K,A*37
$GNGGA,080227.00,0419.81674,S,05539.64270,E,1,12,0.85,8.6,M,-47.6,M,,*75
$GNGSA,A,3,25,23,12,15,10,29,18,28,,,,,1.59,0.85,1.35*13
$GNGSA,A,3,68,79,80,67,82,,,,,,,,1.59,0.85,1.35*18
$GPGSV,5,1,19,05,04,029,15,10,38,230,23,12,43,153,14,13,06,068,*7D
$GPGSV,5,2,19,15,42,081,25,18,21,333,23,23,69,292,26,24,18,143,08*70
$GPGSV,5,3,19,25,73,197,14,26,03,317,21,28,12,254,29,29,33,019,22*7D
$GPGSV,5,4,19,31,00,275,,32,09,211,,36,52,277,28,40,85,352,*7F
$GPGSV,5,5,19,41,58,082,,49,32,274,,50,10,089,*4B
$GLGSV,3,1,10,67,33,052,17,68,61,124,22,69,29,188,12,73,03,316,20*6F
$GLGSV,3,2,10,78,05,158,,79,43,196,25,80,44,278,16,81,00,056,*6B
$GLGSV,3,3,10,82,06,014,16,83,03,327,17*62
$GNGLL,0419.81674,S,05539.64270,E,080227.00,A,A*68
$GNRMC,080228.00,A,0419.81657,S,05539.64264,E,0.388,,260525,,,A*7F
$GNVTG,,T,,M,0.388,N,0.719,K,A*31
$GNGGA,080228.00,0419.81657,S,05539.64264,E,1,12,0.85,8.4,M,-47.6,M,,*7C
$GNGSA,A,3,25,23,12,15,10,29,18,28,,,,,1.59,0.85,1.35*13
$GNGSA,A,3,68,79,80,67,82,,,,,,,,1.59,0.85,1.35*18
$GPGSV,5,1,19,05,04,029,15,10,38,230,21,12,43,153,15,13,06,068,*7E
$GPGSV,5,2,19,15,42,081,25,18,21,333,24,23,69,292,27,24,18,143,09*77
$GPGSV,5,3,19,25,73,197,13,26,03,317,22,28,12,254,29,29,33,019,22*79
$GPGSV,5,4,19,31,00,275,,32,09,211,,36,52,277,28,40,85,352,*7F
$GPGSV,5,5,19,41,58,082,,49,32,274,,50,10,089,*4B
$GLGSV,3,1,10,67,33,052,19,68,61,124,23,69,29,188,11,73,03,316,15*65
$GLGSV,3,2,10,78,05,158,,79,43,196,26,80,44,278,16,81,00,056,*68
$GLGSV,3,3,10,82,06,014,17,83,03,327,21*66
$GNGLL,0419.81657,S,05539.64264,E,080228.00,A,A*63
$GNRMC,080229.00,A,0419.81648,S,05539.64264,E,0.223,,260525,,,A*70
$GNVTG,,T,,M,0.223,N,0.412,K,A*39
$GNGGA,080229.00,0419.81648,S,05539.64264,E,1,12,0.85,8.2,M,-47.6,M,,*75
$GNGSA,A,3,25,23,12,15,10,29,18,28,,,,,1.59,0.85,1.35*13
$GNGSA,A,3,68,79,80,67,82,,,,,,,,1.59,0.85,1.35*18
$GPGSV,5,1,19,05,04,029,15,10,38,230,17,12,43,153,16,13,06,068,*78
$GPGSV,5,2,19,15,42,081,26,18,21,333,23,23,69,292,27,24,18,143,10*7B
$GPGSV,5,3,19,25,73,197,17,26,03,317,24,28,12,254,29,29,33,019,22*7B
$GPGSV,5,4,19,31,00,275,08,32,09,211,,36,52,277,27,40,85,352,*78
$GPGSV,5,5,19,41,58,082,,49,32,274,,50,10,089,*4B
$GLGSV,3,1,10,67,33,052,21,68,61,124,23,69,29,188,10,73,03,316,12*68
$GLGSV,3,2,10,78,05,158,,79,43,196,26,80,44,278,16,81,00,056,*68
$GLGSV,3,3,10,82,06,014,17,83,03,327,23*64
$GNGLL,0419.81648,S,05539.64264,E,080229.00,A,A*6C
$GNRMC,080231.00,A,0419.81598,S,05539.64257,E,1.254,79.05,260525,,,A*53
$GNVTG,79.05,T,,M,1.254,N,2.322,K,A*1B
$GNGGA,080231.00,0419.81598,S,05539.64257,E,1,12,0.85,7.7,M,-47.6,M,,*78
$GNGSA,A,3,25,23,12,15,10,29,18,28,,,,,1.59,0.85,1.35*13
$GNGSA,A,3,68,79,80,67,82,,,,,,,,1.59,0.85,1.35*18
$GPGSV,5,1,19,05,04,029,16,10,38,230,17,12,43,153,16,13,06,068,*7B
$GPGSV,5,2,19,15,42,081,27,18,21,333,23,23,69,292,26,24,18,143,10*7B
$GPGSV,5,3,19,25,73,197,21,26,03,317,23,28,12,254,29,29,33,019,22*79
$GPGSV,5,4,19,31,00,275,20,32,09,211,17,36,52,277,27,40,85,352,*74
$GPGSV,5,5,19,41,58,082,,49,32,274,,50,10,089,*4B
$GLGSV,3,1,10,67,33,052,20,68,61,124,21,69,29,188,09,73,03,316,07*67
$GLGSV,3,2,10,78,05,158,,79,43,196,24,80,44,278,17,81,00,056,*6B
$GLGSV,3,3,10,82,06,014,16,83,03,327,20*66
$GNGLL,0419.81598,S,05539.64257,E,080231.00,A,A*6B
$GNRMC,080234.00,A,0419.81566,S,05539.64246,E,0.270,,260525,,,A*75
$GNVTG,,T,,M,0.270,N,0.500,K,A*3D
$GNGGA,080234.00,0419.81566,S,05539.64246,E,1,12,0.85,7.7,M,-47.6,M,,*7C
$GNGSA,A,3,25,23,12,15,10,29,18,24,28,,,,1.59,0.85,1.35*15
$GNGSA,A,3,68,79,80,67,82,,,,,,,,1.59,0.85,1.35*18
$GPGSV,5,1,19,05,03,029,18,10,38,230,25,12,43,153,19,13,06,068,*7C
$GPGSV,5,2,19,15,42,081,25,18,21,333,24,23,69,292,33,24,18,143,11*7B
$GPGSV,5,3,19,25,73,197,24,26,03,317,23,28,12,254,30,29,33,019,20*76
$GPGSV,5,4,19,31,00,275,27,32,09,211,10,36,52,277,,40,85,352,*71
$GPGSV,5,5,19,41,58,082,,49,32,274,,50,10,089,*4B
$GLGSV,3,1,10,67,33,052,20,68,61,124,22,69,29,188,,73,03,316,11*6A
$GLGSV,3,2,10,78,05,158,,79,43,196,23,80,44,278,23,81,00,056,*6B
$GLGSV,3,3,10,82,06,014,18,83,03,327,20*68
$GNGLL,0419.81566,S,05539.64246,E,080234.00,A,A*6F
$GNRMC,080235.00,A,0419.81556,S,05539.64242,E,0.187,,260525,,,A*78
$GNVTG,,T,,M,0.187,N,0.346,K,A*32
$GNGGA,080235.00,0419.81556,S,05539.64242,E,1,12,0.72,7.4,M,-47.6,M,,*71
$GNGSA,A,3,25,23,12,15,10,29,18,24,28,,,,1.33,0.72,1.12*14
$GNGSA,A,3,68,79,80,67,82,,,,,,,,1.33,0.72,1.12*19
$GPGSV,5,1,19,05,03,029,19,10,38,230,26,12,43,153,20,13,06,068,18*7D
$GPGSV,5,2,19,15,42,081,25,18,21,333,25,23,69,292,32,24,18,143,10*7A
$GPGSV,5,3,19,25,73,197,26,26,03,317,26,28,12,254,30,29,33,019,22*73
$GPGSV,5,4,19,31,00,275,28,32,09,211,12,36,52,277,,40,85,352,*7C
$GPGSV,5,5,19,41,58,082,,49,32,274,,50,10,089,*4B
$GLGSV,3,1,10,67,33,052,23,68,61,124,22,69,29,188,,73,03,316,11*69
$GLGSV,3,2,10,78,05,158,,79,43,196,24,80,44,278,22,81,00,056,*6D
$GLGSV,3,3,10,82,06,014,18,83,03,327,21*69
$GNGLL,0419.81556,S,05539.64242,E,080235.00,A,A*69
$GNRMC,080237.00,A,0419.81535,S,05539.64229,E,0.055,,260525,,,A*7C
$GNVTG,,T,,M,0.055,N,0.103,K,A*3F
$GNGGA,080237.00,0419.81535,S,05539.64229,E,1,12,0.72,7.1,M,-47.6,M,,*7E
$GNGSA,A,3,25,23,12,15,10,29,18,24,28,,,,1.33,0.72,1.12*14
$GNGSA,A,3,68,79,80,67,82,,,,,,,,1.33,0.72,1.12*19
$GPGSV,5,1,19,05,03,029,18,10,38,230,26,12,43,153,25,13,06,068,12*73
$GPGSV,5,2,19,15,42,081,25,18,21,333,27,23,69,292,29,24,18,143,12*70
$GPGSV,5,3,19,25,73,197,27,26,03,317,23,28,12,254,31,29,33,019,22*76
$GPGSV,5,4,19,31,00,275,27,32,09,211,10,36,52,277,,40,85,352,*71
$GPGSV,5,5,19,41,58,082,,49,32,274,,50,10,089,*4B
$GLGSV,3,1,10,67,33,052,20,68,61,124,21,69,29,188,,73,03,316,16*6E
$GLGSV,3,2,10,78,05,158,,79,43,196,25,80,44,278,22,81,00,056,*6C
$GLGSV,3,3,10,82,06,014,17,83,03,327,19*6D
$GNGLL,0419.81535,S,05539.64229,E,080237.00,A,A*63
$GNRMC,080239.00,A,0419.81517,S,05539.64229,E,0.037,,260525,,,A*76
$GNVTG,,T,,M,0.037,N,0.068,K,A*37
$GNGGA,080239.00,0419.81517,S,05539.64229,E,1,12,0.72,6.7,M,-47.6,M,,*77
$GNGSA,A,3,25,23,12,15,10,29,18,24,28,,,,1.33,0.72,1.12*14
$GNGSA,A,3,68,79,80,67,82,,,,,,,,1.33,0.72,1.12*19
$GPGSV,5,1,19,05,03,029,20,10,38,231,34,12,43,153,25,13,06,068,07*7E
$GPGSV,5,2,19,15,42,081,26,18,21,333,23,23,69,292,25,24,18,143,17*7E
$GPGSV,5,3,19,25,73,197,25,26,03,317,24,28,12,254,30,29,33,019,27*77
$GPGSV,5,4,19,31,00,275,26,32,09,211,08,36,52,277,,40,85,352,*79
$GPGSV,5,5,19,41,58,082,,49,32,274,,50,10,089,*4B
$GLGSV,3,1,10,67,33,052,19,68,61,124,22,69,29,188,,73,03,316,18*69
$GLGSV,3,2,10,78,05,158,,79,43,196,27,80,44,278,23,81,00,056,*6F
$GLGSV,3,3,10,82,06,014,15,83,03,327,18*6E
$GNGLL,0419.81517,S,05539.64229,E,080239.00,A,A*6D
$GPGSV,5,4,19,31,00,275,31,32,09,211,08,36,52,277,,40,85,352,*7F
$GPGSV,5,5,19,41,58,082,,49,32,274,,50,10,089,*4B
$GLGSV,3,1,10,67,33,052,19,68,61,124,22,69,29,188,,73,03,316,12*63
$GLGSV,3,2,10,78,05,158,,79,43,196,27,80,44,278,24,81,00,056,*68
$GLGSV,3,3,10,82,06,014,13,83,03,327,20*63
$GNGLL,0419.81521,S,05539.64225,E,080240.00,A,A*6A
$GNRMC,080241.00,A,0419.81531,S,05539.64222,E,0.046,,260525,,,A*70
$GNVTG,,T,,M,0.046,N,0.085,K,A*32
$GNGGA,080241.00,0419.81531,S,05539.64222,E,1,12,0.72,6.7,M,-47.6,M,,*77
$GNGSA,A,3,25,23,12,15,10,29,18,24,28,,,,1.33,0.72,1.12*14
$GNGSA,A,3,68,79,80,67,82,,,,,,,,1.33,0.72,1.12*19
$GPGSV,5,1,19,05,03,029,18,10,38,231,22,12,42,153,27,13,06,067,07*7E
$GPGSV,5,2,19,15,42,081,25,18,21,333,23,23,69,292,26,24,18,143,11*78
$GPGSV,5,3,19,25,73,197,25,26,03,317,26,28,12,254,25,29,33,019,26*70
$GPGSV,5,4,19,31,00,275,25,32,09,211,08,36,52,277,,40,85,352,*7A
$GPGSV,5,5,19,41,58,082,,49,32,274,,50,10,089,*4B
$GLGSV,3,1,10,67,33,052,19,68,61,124,22,69,29,188,,73,03,316,10*61
$GLGSV,3,2,10,78,05,158,,79,43,196,32,80,44,278,22,81,00,056,*6A
$GLGSV,3,3,10,82,06,014,10,83,03,327,22*62
$GNGLL,0419.81531,S,05539.64222,E,080241.00,A,A*6D
$GNRMC,080242.00,A,0419.81544,S,05539.64222,E,0.064,,260525,,,A*71
$GNVTG,,T,,M,0.064,N,0.118,K,A*37
$GNGGA,080242.00,0419.81544,S,05539.64222,E,1,12,0.72,6.8,M,-47.6,M,,*79
$GNGSA,A,3,25,23,12,15,10,29,18,24,28,,,,1.33,0.72,1.12*14
$GNGSA,A,3,68,79,80,67,82,,,,,,,,1.33,0.72,1.12*19
$GPGSV,5,1,19,05,03,029,19,10,38,231,25,12,42,153,26,13,06,067,07*79
$GPGSV,5,2,19,15,42,081,25,18,21,333,26,23,69,292,24,24,18,143,15*7B
$GPGSV,5,3,19,25,73,197,22,26,03,317,26,28,12,254,26,29,33,019,25*77
$GPGSV,5,4,19,31,00,275,23,32,09,211,08,36,52,277,,40,85,352,*7C
$GPGSV,5,5,19,41,58,082,,49,32,274,,50,10,089,*4B
$GLGSV,3,1,10,67,33,052,17,68,61,124,23,69,29,188,,73,03,316,15*6B
$GLGSV,3,2,10,78,05,158,,79,43,196,31,80,44,278,20,81,00,056,*6B
$GLGSV,3,3,10,82,06,014,10,83,03,327,22*62
$GNGLL,0419.81544,S,05539.64222,E,080242.00,A,A*6C
$GNRMC,080243.00,A,0419.81551,S,05539.64222,E,0.035,,260525,,,A*70
$GNVTG,,T,,M,0.035,N,0.065,K,A*38
$GNGGA,080243.00,0419.81551,S,05539.64222,E,1,12,0.75,6.9,M,-47.6,M,,*7A
$GNGSA,A,3,25,23,12,15,10,29,18,24,28,,,,1.47,0.75,1.27*16
$GNGSA,A,3,68,79,80,67,82,,,,,,,,1.47,0.75,1.27*1B
$GPGSV,5,1,19,05,03,029,19,10,38,231,26,12,42,153,25,13,06,067,07*79
$GPGSV,5,2,19,15,41,080,26,18,21,333,27,23,69,292,24,24,18,143,11*7F
$GPGSV,5,3,19,25,73,197,20,26,03,317,25,28,12,254,27,29,33,019,25*77
$GPGSV,5,4,19,31,00,275,26,32,09,211,07,36,52,277,,40,85,352,*76
$GPGSV,5,5,19,41,58,082,,49,32,274,,50,10,089,*4B
$GLGSV,3,1,10,67,33,052,16,68,61,124,21,69,29,188,,73,03,316,18*65
$GLGSV,3,2,10,78,05,158,,79,43,196,32,80,44,278,20,81,00,056,*68
$GLGSV,3,3,10,82,06,014,07,83,03,327,23*65
$GNGLL,0419.81551,S,05539.64222,E,080243.00,A,A*69
$GNRMC,080244.00,A,0419.81560,S,05539.64220,E,0.021,,260525,,,A*72
$GNVTG,,T,,M,0.021,N,0.038,K,A*35
$GNGGA,080244.00,0419.81560,S,05539.64220,E,1,12,0.75,6.9,M,-47.6,M,,*7D
$GNGSA,A,3,25,23,12,15,10,29,18,24,28,,,,1.47,0.75,1.27*16
$GNGSA,A,3,68,79,80,67,82,,,,,,,,1.47,0.75,1.27*1B
$GPGSV,5,1,19,05,03,029,18,10,38,231,26,12,42,153,26,13,06,067,07*7B
$GPGSV,5,2,19,15,41,080,26,18,21,333,27,23,69,292,23,24,18,143,11*78
$GPGSV,5,3,19,25,73,197,18,26,03,317,23,28,12,254,28,29,33,019,27*77
$GPGSV,5,4,19,31,00,275,26,32,09,211,08,36,52,277,,40,85,352,*79
$GPGSV,5,5,19,41,58,082,,49,32,274,,50,10,089,*4B
$GLGSV,3,1,10,67,33,052,17,68,61,124,20,69,29,188,,73,03,316,16*6B
$GLGSV,3,2,10,78,05,158,,79,43,196,32,80,44,278,20,81,00,056,*68
$GLGSV,3,3,10,82,06,014,09,83,03,327,22*6A
$GNGLL,0419.81560,S,05539.64220,E,080244.00,A,A*6E
$GNRMC,080247.00,A,0419.81580,S,05539.64219,E,0.098,,260525,,,A*77
$GNVTG,,T,,M,0.098,N,0.181,K,A*34
$GNGGA,080247.00,0419.81580,S,05539.64219,E,1,12,0.75,7.3,M,-47.6,M,,*71
$GNGSA,A,3,25,23,12,15,10,29,18,24,28,,,,1.47,0.75,1.27*16
$GNGSA,A,3,68,79,80,67,82,,,,,,,,1.47,0.75,1.27*1B
$GPGSV,5,1,19,05,03,029,18,10,38,231,26,12,42,153,27,13,06,067,*7D
$GPGSV,5,2,19,15,41,080,26,18,20,334,27,23,69,292,20,24,18,143,11*7D
$GPGSV,5,3,19,25,73,197,22,26,03,317,27,28,12,254,28,29,33,019,27*7A
$GPGSV,5,4,19,31,00,275,24,32,09,211,,36,52,277,,40,85,352,*73
$GPGSV,5,5,19,41,58,082,,49,32,274,,50,10,089,*4B
$GLGSV,3,1,10,67,33,052,14,68,61,124,16,69,29,188,,73,03,316,17*6C
$GLGSV,3,2,10,78,05,158,,79,43,196,33,80,44,278,21,81,00,056,*68
$GLGSV,3,3,10,82,06,014,11,83,03,327,24*65
$GNGLL,0419.81580,S,05539.64219,E,080247.00,A,A*69
$GNRMC,080248.00,A,0419.81588,S,05539.64223,E,0.036,,260525,,,A*7D
$GNVTG,,T,,M,0.036,N,0.067,K,A*39
$GNGGA,080248.00,0419.81588,S,05539.64223,E,1,12,0.75,7.2,M,-47.6,M,,*7E
$GNGSA,A,3,25,23,12,15,10,29,18,24,28,,,,1.47,0.75,1.27*16
$GNGSA,A,3,68,79,80,67,82,,,,,,,,1.47,0.75,1.27*1B
$GPGSV,5,1,19,05,03,029,17,10,38,231,25,12,42,153,27,13,06,067,*71
$GPGSV,5,2,19,15,41,080,26,18,20,334,28,23,69,292,19,24,18,143,11*78
$GPGSV,5,3,19,25,73,197,22,26,03,317,27,28,12,254,29,29,33,019,28*74
$GPGSV,5,4,19,31,00,275,24,32,09,211,,36,52,277,,40,85,352,*73
$GPGSV,5,5,19,41,58,082,,49,32,274,,50,10,089,*4B
$GLGSV,3,1,10,67,33,052,12,68,61,124,16,69,29,188,,73,03,316,19*64
$GLGSV,3,2,10,78,05,158,,79,43,196,33,80,44,278,20,81,00,056,*69
$GLGSV,3,3,10,82,06,014,13,83,03,327,24*67
$GNGLL,0419.81588,S,05539.64223,E,080248.00,A,A*67
$GNRMC,080249.00,A,0419.81595,S,05539.64223,E,0.068,,260525,,,A*7B
$GNVTG,,T,,M,0.068,N,0.126,K,A*36
$GNGGA,080249.00,0419.81595,S,05539.64223,E,1,12,0.85,7.4,M,-47.6,M,,*7A
$GNGSA,A,3,25,23,12,15,10,29,18,24,28,,,,1.59,0.85,1.35*15
$GNGSA,A,3,68,79,80,67,82,,,,,,,,1.59,0.85,1.35*18
$GPGSV,5,1,19,05,03,029,16,10,38,231,23,12,42,153,27,13,06,067,*76
$GPGSV,5,2,19,15,41,080,25,18,20,334,30,23,69,292,20,24,18,143,11*78
$GPGSV,5,3,19,25,73,197,23,26,03,317,27,28,12,254,29,29,33,019,28*75
$GPGSV,5,4,19,31,00,275,25,32,09,211,,36,52,277,,40,85,352,*72
$GPGSV,5,5,19,41,58,082,,49,32,274,,50,10,089,*4B
$GLGSV,3,1,10,67,33,052,11,68,61,124,17,69,29,188,,73,03,316,23*6F
$GLGSV,3,2,10,78,05,158,,79,43,196,32,80,44,278,21,81,00,056,*69
$GLGSV,3,3,10,82,06,014,10,83,03,327,24*64
$GNGLL,0419.81595,S,05539.64223,E,080249.00,A,A*6A
$GNRMC,080250.00,A,0419.81599,S,05539.64225,E,0.122,,260525,,,A*76
$GNVTG,,T,,M,0.122,N,0.226,K,A*3A
$GNGGA,080250.00,0419.81599,S,05539.64225,E,1,12,0.72,7.3,M,-47.6,M,,*77
$GNGSA,A,3,25,23,12,15,10,29,18,24,28,,,,1.33,0.72,1.12*14
$GNGSA,A,3,68,79,80,67,82,,,,,,,,1.33,0.72,1.12*19
$GPGSV,5,1,19,05,03,029,14,10,38,231,23,12,42,153,25,13,06,067,*76
$GPGSV,5,2,19,15,41,080,23,18,20,334,28,23,69,294,20,24,18,143,11*71
$GPGSV,5,3,19,25,73,197,23,26,03,317,26,28,12,254,31,29,33,019,27*72
$GPGSV,5,4,19,31,00,275,25,32,09,211,,36,52,277,,40,85,352,*72
$GPGSV,5,5,19,41,58,082,,49,32,274,,50,10,089,*4B
$GLGSV,3,1,10,67,33,052,13,68,61,124,17,69,29,188,,73,03,316,22*6C
$GLGSV,3,2,10,78,05,158,,79,43,196,32,80,44,278,20,81,00,056,*68
$GLGSV,3,3,10,82,06,014,09,83,03,327,26*6E
$GNGLL,0419.81599,S,05539.64225,E,080250.00,A,A*68
$GNRMC,080251.00,A,0419.81603,S,05539.64228,E,0.236,,260525,,,A*7C
$GNVTG,,T,,M,0.236,N,0.437,K,A*3A
$GNGGA,080251.00,0419.81603,S,05539.64228,E,1,12,0.75,7.4,M,-47.6,M,,*7B
$GNGSA,A,3,25,23,12,15,10,29,18,24,28,,,,1.47,0.75,1.27*16
$GNGSA,A,3,68,79,80,67,,,,,,,,,1.47,0.75,1.27*11
$GPGSV,5,1,19,05,03,029,09,10,38,231,23,12,42,153,23,13,06,067,*7C
$GPGSV,5,2,19,15,41,080,24,18,20,334,28,23,69,294,23,24,18,143,11*75
$GPGSV,5,3,19,25,73,197,22,26,03,317,25,28,12,254,30,29,33,019,27*71
$GPGSV,5,4,19,31,00,275,25,32,09,211,,36,52,277,,40,85,352,*72
$GPGSV,5,5,19,41,58,082,,49,32,274,,50,10,089,*4B
$GLGSV,3,1,10,67,33,052,16,68,61,124,18,69,29,188,,73,03,316,21*65
$GLGSV,3,2,10,78,05,158,,79,43,196,31,80,44,278,22,81,00,056,*69
$GLGSV,3,3,10,82,06,014,06,83,03,327,27*60
$GNGLL,0419.81603,S,05539.64228,E,080251.00,A,A*64
$GNRMC,080252.00,A,0419.81588,S,05539.64194,E,0.427,,260525,,,A*7D
$GNVTG,,T,,M,0.427,N,0.791,K,A*33
$GNGGA,080252.00,0419.81588,S,05539.64194,E,1,12,0.72,9.1,M,-47.6,M,,*70
$GNGSA,A,3,25,23,12,15,10,29,18,24,28,,,,1.33,0.72,1.12*14
$GNGSA,A,3,68,79,80,67,82,,,,,,,,1.33,0.72,1.12*19
$GPGSV,5,1,19,05,03,029,08,10,38,231,24,12,42,153,21,13,06,067,*78
$GPGSV,5,2,19,15,41,080,23,18,20,334,27,23,69,294,25,24,18,143,11*7B
$GPGSV,5,3,19,25,73,196,21,26,03,317,23,28,12,254,31,29,33,019,26*75
$GPGSV,5,4,19,31,00,275,26,32,09,211,,36,52,277,,40,85,352,*71
$GPGSV,5,5,19,41,58,082,,49,32,274,,50,10,089,*4B
$GLGSV,3,1,10,67,33,052,15,68,61,124,20,69,29,188,,73,03,316,23*6F
$GLGSV,3,2,10,78,05,158,,79,43,196,32,80,44,278,24,81,00,056,*6C
$GLGSV,3,3,10,82,06,014,18,83,03,327,27*6F
$GNGLL,0419.81588,S,05539.64194,E,080252.00,A,A*63
$GNRMC,080253.00,A,0419.81593,S,05539.64201,E,0.106,,260525,,,A*7F
$GNVTG,,T,,M,0.106,N,0.197,K,A*35
$GNGGA,080253.00,0419.81593,S,05539.64201,E,1,12,0.72,8.9,M,-47.6,M,,*7D
$GNGSA,A,3,25,23,12,15,10,29,18,24,28,,,,1.33,0.72,1.12*14
$GNGSA,A,3,68,79,80,67,82,,,,,,,,1.33,0.72,1.12*19
$GPGSV,5,1,19,05,03,029,10,10,38,231,26,12,42,153,19,13,06,067,*78
$GPGSV,5,2,19,15,41,080,24,18,20,334,27,23,69,294,25,24,18,143,11*7C
$GPGSV,5,3,19,25,73,196,23,26,03,316,22,28,12,254,31,29,33,019,26*77
$GPGSV,5,4,19,31,00,275,26,32,09,211,,36,52,277,,40,85,352,*71
$GPGSV,5,5,19,41,58,082,,49,32,274,,50,10,089,*4B
$GLGSV,3,1,10,67,33,052,16,68,61,124,21,69,29,188,,73,03,316,23*6D
$GLGSV,3,2,10,78,05,158,,79,43,196,33,80,44,278,22,81,00,056,*6B
$GLGSV,3,3,10,82,06,014,13,83,03,327,27*64
$GNGLL,0419.81593,S,05539.64201,E,080253.00,A,A*67
$GNRMC,080254.00,A,0419.81593,S,05539.64200,E,0.079,,260525,,,A*70
$GNVTG,,T,,M,0.079,N,0.146,K,A*30
$GNGGA,080254.00,0419.81593,S,05539.64200,E,1,12,0.80,9.5,M,-47.6,M,,*7B
$GNGSA,A,3,25,23,12,15,10,29,18,24,28,,,,1.51,0.80,1.28*14
$GNGSA,A,3,68,79,80,82,,,,,,,,,1.51,0.80,1.28*18
$GPGSV,5,1,19,05,03,029,12,10,38,231,26,12,42,153,18,13,06,067,*7B
$GPGSV,5,2,19,15,41,080,25,18,20,334,26,23,69,294,25,24,18,143,11*7C
$GPGSV,5,3,19,25,73,196,25,26,03,316,23,28,12,254,30,29,33,019,25*72
$GPGSV,5,4,19,31,00,275,26,32,09,211,,36,52,277,,40,85,352,*71
$GPGSV,5,5,19,41,58,082,,49,32,274,,50,10,089,*4B
$GLGSV,3,1,10,67,33,052,,68,61,124,21,69,29,188,,73,03,316,24*6D
$GLGSV,3,2,10,78,05,158,,79,43,196,32,80,44,278,22,81,00,056,*6A
$GLGSV,3,3,10,82,06,014,16,83,03,327,28*6E
$GNGLL,0419.81593,S,05539.64200,E,080254.00,A,A*61
$GNRMC,080255.00,A,0419.81592,S,05539.64198,E,0.293,,260525,,,A*74
$GNVTG,,T,,M,0.293,N,0.543,K,A*37
$GNGGA,080255.00,0419.81592,S,05539.64198,E,1,12,0.93,9.7,M,-47.6,M,,*79
$GNGSA,A,3,25,23,12,15,10,29,18,24,28,,,,1.85,0.93,1.60*13
$GNGSA,A,3,68,79,80,82,,,,,,,,,1.85,0.93,1.60*1F
$GPGSV,5,1,19,05,03,029,11,10,38,231,27,12,42,153,18,13,06,067,*79
$GPGSV,5,2,19,15,41,080,25,18,20,334,25,23,69,294,25,24,18,143,11*7F
$GPGSV,5,3,19,25,73,196,25,26,03,316,23,28,12,253,31,29,33,019,25*74
$GPGSV,5,4,19,31,00,275,25,32,09,211,,36,52,277,,40,85,352,*72
$GPGSV,5,5,19,41,58,082,,49,32,274,,50,10,089,*4B
$GLGSV,3,1,10,67,33,052,19,68,61,124,23,69,29,188,,73,03,316,24*67
$GLGSV,3,2,10,78,05,158,,79,43,196,32,80,44,278,21,81,00,056,*69
$GLGSV,3,3,10,82,06,014,17,83,03,327,28*6F
$GNGLL,0419.81592,S,05539.64198,E,080255.00,A,A*63
$GNRMC,080256.00,A,0419.81606,S,05539.64205,E,0.136,,260525,,,A*72
$GNVTG,,T,,M,0.136,N,0.252,K,A*3C
$GNGGA,080256.00,0419.81606,S,05539.64205,E,1,12,0.84,9.6,M,-47.6,M,,*74
$GNGSA,A,3,25,23,12,15,10,29,18,24,28,,,,1.53,0.84,1.28*12
$GNGSA,A,3,68,79,80,82,,,,,,,,,1.53,0.84,1.28*1E
$GPGSV,5,1,19,05,03,029,08,10,38,231,25,12,42,153,19,13,06,067,*72
$GPGSV,5,2,19,15,41,080,26,18,20,334,32,23,69,294,25,24,18,143,11*7A
$GPGSV,5,3,19,25,73,196,25,26,03,316,25,28,12,253,29,29,34,020,25*76
$GPGSV,5,4,19,31,00,275,25,32,09,211,,36,52,277,,40,85,352,*72
$GPGSV,5,5,19,41,58,082,,49,32,274,,50,10,089,*4B
$GLGSV,3,1,10,67,33,052,18,68,61,124,24,69,29,188,,73,03,316,23*66
$GLGSV,3,2,10,78,05,158,,79,43,196,33,80,44,278,20,81,00,056,*69
$GLGSV,3,3,10,82,06,014,16,83,03,327,30*67
$GNGLL,0419.81606,S,05539.64205,E,080256.00,A,A*69
$GNRMC,080257.00,A,0419.81607,S,05539.64199,E,0.053,,260525,,,A*76
$GNVTG,,T,,M,0.053,N,0.098,K,A*3A
$GNGGA,080257.00,0419.81607,S,05539.64199,E,1,12,0.80,10.2,M,-47.6,M,,*4A
$GNGSA,A,3,25,23,12,15,10,29,18,24,28,,,,1.51,0.80,1.28*14
$GNGSA,A,3,68,79,80,82,,,,,,,,,1.51,0.80,1.28*18
$GPGSV,5,1,19,05,03,029,10,10,38,231,24,12,42,153,24,13,06,067,*74
$GPGSV,5,2,19,15,41,080,27,18,20,334,30,23,69,294,24,24,18,143,11*78
$GPGSV,5,3,19,25,73,196,26,26,03,316,25,28,12,253,30,29,34,020,26*7E
$GPGSV,5,4,19,31,00,275,26,32,09,211,,36,52,277,,40,85,352,*71
$GPGSV,5,5,19,41,58,082,,49,32,274,,50,10,089,*4B
$GLGSV,3,1,10,67,33,052,15,68,61,124,23,69,29,188,,73,03,316,22*6D
$GLGSV,3,2,10,78,05,158,,79,43,196,32,80,44,278,18,81,00,056,*63
$GLGSV,3,3,10,82,06,014,13,83,03,327,31*63
$GNGLL,0419.81607,S,05539.64199,E,080257.00,A,A*6F
$GNRMC,080301.00,A,0419.81605,S,05539.64177,E,0.094,,260525,,,A*7D
$GNVTG,,T,,M,0.094,N,0.174,K,A*32
$GNGGA,080301.00,0419.81605,S,05539.64177,E,1,12,0.93,11.7,M,-47.6,M,,*4C
$GNGSA,A,3,25,23,12,15,10,29,18,28,,,,,1.84,0.93,1.60*14
$GNGSA,A,3,68,79,80,67,82,,,,,,,,1.84,0.93,1.60*1F
$GPGSV,5,1,19,05,03,029,12,10,38,231,24,12,42,153,25,13,06,067,*77
$GPGSV,5,2,19,15,41,080,30,18,20,334,27,23,69,294,28,24,18,143,05*71
$GPGSV,5,3,19,25,73,196,24,26,03,316,19,28,12,253,29,29,34,020,28*75
$GPGSV,5,4,19,31,00,274,28,32,10,210,,36,52,277,,40,85,352,*77
$GPGSV,5,5,19,41,58,082,,49,32,274,,50,10,089,*4B
$GLGSV,3,1,10,67,33,052,20,68,61,124,19,69,29,188,,73,03,316,23*63
$GLGSV,3,2,10,78,05,158,,79,43,196,34,80,44,278,23,81,00,056,*6D
$GLGSV,3,3,10,82,06,014,15,83,03,327,28*6D
$GNGLL,0419.81605,S,05539.64177,E,080301.00,A,A*6F
$GNRMC,080302.00,A,0419.81610,S,05539.64182,E,0.127,,260525,,,A*79
$GNVTG,,T,,M,0.127,N,0.235,K,A*3D
$GNGGA,080302.00,0419.81610,S,05539.64182,E,1,12,0.93,11.4,M,-47.6,M,,*42
$GNGSA,A,3,25,23,12,15,10,29,18,28,,,,,1.84,0.93,1.60*14
$GNGSA,A,3,68,79,80,67,82,,,,,,,,1.84,0.93,1.60*1F
$GPGSV,5,1,19,05,03,029,10,10,38,231,21,12,42,153,25,13,06,067,*70
$GPGSV,5,2,19,15,41,080,30,18,20,334,29,23,69,294,26,24,18,143,06*72
$GPGSV,5,3,19,25,73,196,25,26,03,316,21,28,12,253,28,29,34,020,27*71
$GPGSV,5,4,19,31,00,274,27,32,10,210,,36,52,277,,40,85,352,*78
$GPGSV,5,5,19,41,58,082,,49,32,274,,50,10,089,*4B
$GLGSV,3,1,10,67,33,052,20,68,61,124,19,69,29,188,,73,03,316,22*62
$GLGSV,3,2,10,78,05,158,,79,43,196,33,80,44,278,20,81,00,056,*69
$GLGSV,3,3,10,82,06,014,18,83,03,327,30*69
$GNGLL,0419.81610,S,05539.64182,E,080302.00,A,A*62
$GNRMC,080303.00,A,0419.81610,S,05539.64175,E,0.107,,260525,,,A*72
$GNVTG,,T,,M,0.107,N,0.199,K,A*3A
$GNGGA,080303.00,0419.81610,S,05539.64175,E,1,12,0.93,11.5,M,-47.6,M,,*4A
$GNGSA,A,3,25,23,12,15,10,29,18,28,,,,,1.84,0.93,1.60*14
$GNGSA,A,3,68,79,80,67,82,,,,,,,,1.84,0.93,1.60*1F
$GPGSV,5,1,19,05,03,029,10,10,38,231,18,12,42,153,26,13,06,067,*79
$GPGSV,5,2,19,15,41,080,30,18,20,334,29,23,69,294,25,24,18,143,*77
$GPGSV,5,3,19,25,73,196,24,26,03,316,23,28,12,253,29,29,34,020,27*73
$GPGSV,5,4,19,31,00,274,26,32,10,210,,36,52,277,,40,85,352,*79
$GPGSV,5,5,19,41,58,082,,49,32,274,,50,10,089,*4B
$GLGSV,3,1,10,67,33,052,19,68,61,124,18,69,29,188,,73,03,316,22*69
$GLGSV,3,2,10,78,05,158,,79,43,196,33,80,44,278,19,81,00,057,*62
$GLGSV,3,3,10,82,06,014,18,83,03,327,30*69
$GNGLL,0419.81610,S,05539.64175,E,080303.00,A,A*6B
$GNRMC,080304.00,A,0419.81609,S,05539.64166,E,0.064,,260525,,,A*7B
$GNVTG,,T,,M,0.064,N,0.119,K,A*36
$GNGGA,080304.00,0419.81609,S,05539.64166,E,1,12,0.94,11.7,M,-47.6,M,,*42
$GNGSA,A,3,25,23,12,15,10,29,18,28,,,,,1.88,0.94,1.62*1D
$GNGSA,A,3,68,79,80,67,82,,,,,,,,1.88,0.94,1.62*16
$GPGSV,5,1,19,05,03,029,07,10,38,231,17,12,42,153,27,13,06,067,*71
$GPGSV,5,2,19,15,41,080,29,18,20,334,20,23,69,294,23,24,18,143,*70
$GPGSV,5,3,19,25,73,196,23,26,03,316,24,28,12,253,30,29,34,020,28*74
$GPGSV,5,4,19,31,00,274,26,32,10,210,,36,52,277,,40,85,352,*79
$GPGSV,5,5,19,41,58,082,,49,32,274,,50,10,089,*4B
$GLGSV,3,1,10,67,33,052,18,68,61,124,19,69,29,188,,73,03,316,22*69
$GLGSV,3,2,10,78,05,158,,79,43,196,33,80,44,278,16,81,00,057,*6D
$GLGSV,3,3,10,82,06,014,19,83,03,327,30*68
$GNGLL,0419.81609,S,05539.64166,E,080304.00,A,A*66
$GNRMC,080305.00,A,0419.81602,S,05539.64149,E,0.120,,260525,,,A*7D
$GNVTG,,T,,M,0.120,N,0.221,K,A*3F
$GNGGA,080305.00,0419.81602,S,05539.64149,E,1,12,0.93,12.1,M,-47.6,M,,*47
$GNGSA,A,3,25,23,12,15,10,29,18,28,,,,,1.84,0.93,1.60*14
$GNGSA,A,3,68,79,80,67,82,,,,,,,,1.84,0.93,1.60*1F
$GPGSV,5,1,19,05,03,029,08,10,38,231,22,12,42,153,29,13,06,067,*76
$GPGSV,5,2,19,15,41,080,29,18,20,334,22,23,69,294,22,24,18,143,*73
$GPGSV,5,3,19,25,73,196,22,26,03,316,25,28,12,253,32,29,34,020,28*76
$GPGSV,5,4,19,31,00,274,32,32,10,210,,36,52,277,,40,85,352,*7C
$GPGSV,5,5,19,41,58,082,,49,32,274,,50,10,089,*4B
$GLGSV,3,1,10,67,33,052,17,68,61,124,19,69,29,188,,73,03,316,20*64
$GLGSV,3,2,10,78,05,158,,79,43,196,33,80,44,278,18,81,00,057,*63
$GLGSV,3,3,10,82,06,014,20,83,03,327,30*62
$GNGLL,0419.81602,S,05539.64149,E,080305.00,A,A*61
$GNRMC,080307.00,A,0419.81596,S,05539.64135,E,0.120,,260525,,,A*7A
$GNVTG,,T,,M,0.120,N,0.221,K,A*3F
$GNGGA,080307.00,0419.81596,S,05539.64135,E,1,12,0.90,12.5,M,-47.6,M,,*47
$GNGSA,A,3,25,23,12,15,10,29,18,28,,,,,1.64,0.90,1.37*1B
$GNGSA,A,3,68,79,80,67,82,,,,,,,,1.64,0.90,1.37*10
$GPGSV,5,1,19,05,03,029,13,10,38,231,26,12,42,153,30,13,06,067,*70
$GPGSV,5,2,19,15,41,080,29,18,20,334,24,23,69,294,23,24,18,143,*74
$GPGSV,5,3,19,25,73,196,22,26,03,316,27,28,12,253,32,29,34,020,27*7B
$GPGSV,5,4,19,31,00,274,30,32,10,210,,36,52,277,,40,85,352,*7E
$GPGSV,5,5,19,41,58,082,,49,32,274,,50,10,089,*4B
$GLGSV,3,1,10,67,33,052,16,68,61,124,18,69,29,188,,73,03,316,21*65
$GLGSV,3,2,10,78,05,158,,79,43,196,32,80,44,278,25,81,00,057,*6C
$GLGSV,3,3,10,82,06,014,19,83,03,327,30*68
$GNGLL,0419.81596,S,05539.64135,E,080307.00,A,A*66
$GNGSA,A,3,68,79,80,67,82,,,,,,,,1.64,0.90,1.37*10
$GPGSV,5,1,19,05,03,029,09,10,38,231,26,12,42,153,30,13,06,067,*7B
$GPGSV,5,2,19,15,41,080,30,18,20,334,24,23,69,294,25,24,18,143,*7A
$GPGSV,5,3,19,25,73,196,23,26,03,316,26,28,12,253,33,29,34,020,27*7A
$GPGSV,5,4,19,31,00,274,29,32,10,210,,36,52,277,,40,85,352,*76
$GPGSV,5,5,19,41,58,082,,49,32,274,,50,10,089,*4B
$GLGSV,3,1,10,67,33,052,14,68,61,124,19,69,29,188,,73,03,316,22*65
$GLGSV,3,2,10,78,05,158,,79,43,196,32,80,44,278,25,81,00,057,*6C
$GLGSV,3,3,10,82,06,014,18,83,03,327,29*61
$GNGLL,0419.81599,S,05539.64136,E,080308.00,A,A*65
$GNRMC,080309.00,A,0419.81602,S,05539.64135,E,0.029,,260525,,,A*72
$GNVTG,,T,,M,0.029,N,0.054,K,A*37
$GNGGA,080309.00,0419.81602,S,05539.64135,E,1,12,0.90,12.2,M,-47.6,M,,*40
$GNGSA,A,3,25,23,12,15,10,29,18,28,,,,,1.64,0.90,1.37*1B
$GNGSA,A,3,68,79,80,67,82,,,,,,,,1.64,0.90,1.37*10
$GPGSV,5,1,19,05,03,029,11,10,38,231,24,12,42,153,30,13,06,067,*70
$GPGSV,5,2,19,15,41,080,30,18,20,334,22,23,69,294,24,24,18,143,*7D
$GPGSV,5,3,19,25,73,196,24,26,03,316,24,28,12,253,32,29,34,020,26*7F
$GPGSV,5,4,19,31,00,274,29,32,10,210,,36,52,277,,40,85,352,*76
$GPGSV,5,5,19,41,58,082,,49,32,274,,50,10,089,*4B
$GLGSV,3,1,10,67,33,052,12,68,61,124,19,69,29,188,,73,03,316,24*65
$GLGSV,3,2,10,78,05,158,,79,43,196,32,80,44,278,27,81,00,057,*6E
$GLGSV,3,3,10,82,06,014,16,83,03,327,29*6F
$GNGLL,0419.81602,S,05539.64135,E,080309.00,A,A*66
$GNVTG,,T,,M,0.040,N,0.075,K,A*3B
$GNGGA,080310.00,0419.81601,S,05539.64133,E,1,12,0.90,12.2,M,-47.6,M,,*4D
$GNGSA,A,3,25,23,12,15,10,29,18,28,,,,,1.64,0.90,1.37*1B
$GNGSA,A,3,68,79,80,67,82,,,,,,,,1.64,0.90,1.37*10
$GPGSV,5,1,19,05,03,029,09,10,38,231,23,12,42,153,30,13,06,067,*7E
$GPGSV,5,2,19,15,41,080,30,18,20,334,22,23,69,294,25,24,18,143,*7C
$GPGSV,5,3,19,25,73,196,24,26,03,316,24,28,12,253,32,29,34,020,26*7F
$GPGSV,5,4,19,31,00,274,27,32,10,210,,36,52,277,,40,85,352,*78
$GPGSV,5,5,19,41,58,082,,49,32,274,,50,10,089,*4B
$GLGSV,3,1,10,67,33,052,10,68,61,124,20,69,29,188,,73,03,316,24*6D
$GLGSV,3,2,10,78,05,158,,79,43,196,32,80,44,278,26,81,00,057,*6F
$GLGSV,3,3,10,82,06,014,16,83,03,327,29*6F
$GNGLL,0419.81601,S,05539.64133,E,080310.00,A,A*6B
$GNRMC,080311.00,A,0419.81602,S,05539.64130,E,0.080,,260525,,,A*7D
$GNVTG,,T,,M,0.080,N,0.149,K,A*39
$GNGGA,080311.00,0419.81602,S,05539.64130,E,1,12,0.90,12.2,M,-47.6,M,,*4C
$GNGSA,A,3,25,23,12,15,10,29,18,28,,,,,1.64,0.90,1.37*1B
$GNGSA,A,3,68,79,80,67,82,,,,,,,,1.64,0.90,1.37*10
$GPGSV,5,1,19,05,03,029,08,10,38,231,21,12,42,153,30,13,06,067,*7D
$GPGSV,5,2,19,15,41,080,30,18,20,334,23,23,69,294,26,24,18,143,*7E
$GPGSV,5,3,19,25,73,196,24,26,03,316,26,28,12,253,33,29,34,020,27*7D
$GPGSV,5,4,19,31,00,274,28,32,10,210,,36,52,277,,40,85,352,*77
$GPGSV,5,5,19,41,58,082,,49,32,274,,50,10,089,*4B
$GLGSV,3,1,10,67,33,052,12,68,61,124,22,69,29,188,,73,03,316,22*6B
$GLGSV,3,2,10,78,05,158,,79,43,196,32,80,44,278,26,81,00,057,*6F
$GLGSV,3,3,10,82,06,014,16,83,03,327,29*6F
$GNGLL,0419.81602,S,05539.64130,E,080311.00,A,A*6A
$GNRMC,080314.00,A,0419.81606,S,05539.64115,E,0.054,,260525,,,A*72
$GNVTG,,T,,M,0.054,N,0.100,K,A*3D
$GNGGA,080314.00,0419.81606,S,05539.64115,E,1,12,0.85,12.3,M,-47.6,M,,*4F
$GNGSA,A,3,25,23,12,15,10,29,18,28,,,,,1.59,0.85,1.34*12
$GNGSA,A,3,68,79,80,67,82,,,,,,,,1.59,0.85,1.34*19
$GPGSV,5,1,19,05,03,029,12,10,38,231,20,12,42,153,30,13,06,067,*77
$GPGSV,5,2,19,15,41,080,30,18,20,334,26,23,69,294,26,24,18,143,*7B
$GPGSV,5,3,19,25,73,196,22,26,03,316,25,28,12,253,33,29,34,020,27*78
$GPGSV,5,4,19,31,00,274,29,32,10,210,,36,52,277,,40,85,352,*76
$GPGSV,5,5,19,41,58,082,,49,32,274,,50,10,089,*4B
$GLGSV,3,1,10,67,33,052,09,68,61,124,20,69,29,188,,73,03,316,21*60
$GLGSV,3,2,10,78,05,158,,79,43,196,33,80,44,278,26,81,00,057,*6E
$GLGSV,3,3,10,82,06,014,15,83,03,327,27*62
$GNGLL,0419.81606,S,05539.64115,E,080314.00,A,A*6C
$GNRMC,080316.00,A,0419.81611,S,05539.64119,E,0.032,,260525,,,A*7A
$GNVTG,,T,,M,0.032,N,0.059,K,A*30
$GNGGA,080316.00,0419.81611,S,05539.64119,E,1,12,0.85,12.0,M,-47.6,M,,*44
$GNGSA,A,3,25,23,12,15,10,29,18,28,,,,,1.59,0.85,1.34*12
$GNGSA,A,3,68,79,80,67,82,,,,,,,,1.59,0.85,1.34*19
$GPGSV,5,1,19,05,03,029,12,10,38,231,14,12,42,153,30,13,06,067,*70
$GPGSV,5,2,19,15,41,080,29,18,20,334,27,23,69,294,27,24,18,143,*73
$GPGSV,5,3,19,25,73,196,21,26,03,316,26,28,12,253,33,29,34,020,27*78
$GPGSV,5,4,19,31,00,274,30,32,10,210,,36,52,277,,40,85,352,*7E
$GPGSV,5,5,19,41,58,082,,49,32,274,,50,10,089,*4B
$GLGSV,3,1,10,67,33,052,17,68,61,124,18,69,29,188,,73,03,316,19*6F
$GLGSV,3,2,10,78,05,158,,79,43,196,33,80,44,278,27,81,00,057,*6F
$GLGSV,3,3,10,82,06,014,11,83,03,327,27*66
$GNGLL,0419.81611,S,05539.64119,E,080316.00,A,A*64
$GNRMC,080317.00,A,0419.81612,S,05539.64116,E,0.029,,260525,,,A*7D
$GNVTG,,T,,M,0.029,N,0.053,K,A*30
$GNGGA,080317.00,0419.81612,S,05539.64116,E,1,12,0.87,12.1,M,-47.6,M,,*4A
$GNGSA,A,3,25,23,12,15,10,29,18,28,,,,,1.78,0.87,1.55*14
$GNGSA,A,3,68,79,80,67,,,,,,,,,1.78,0.87,1.55*15
$GPGSV,5,1,19,05,03,029,11,10,38,231,11,12,42,153,30,13,06,067,*76
$GPGSV,5,2,19,15,41,080,29,18,20,334,26,23,69,294,28,24,18,143,*7D
$GPGSV,5,3,19,25,73,196,22,26,03,316,24,28,12,253,33,29,34,020,27*79
$GPGSV,5,4,19,31,00,274,29,32,10,210,,36,52,277,,40,85,352,*76
$GPGSV,5,5,19,41,58,082,,49,32,274,,50,10,089,*4B
$GLGSV,3,1,10,67,33,052,18,68,61,124,18,69,29,188,,73,03,316,17*6E
$GLGSV,3,2,10,78,05,158,,79,43,196,33,80,44,278,26,81,00,057,*6E
$GLGSV,3,3,10,82,06,014,09,83,03,327,27*6F
$GNGLL,0419.81612,S,05539.64116,E,080317.00,A,A*69
$GNRMC,080318.00,A,0419.81615,S,05539.64115,E,0.060,,260525,,,A*7B
$GNVTG,,T,,M,0.060,N,0.111,K,A*3A
$GNGGA,080318.00,0419.81615,S,05539.64115,E,1,12,0.87,12.3,M,-47.6,M,,*43
$GNGSA,A,3,25,23,12,15,10,29,18,28,,,,,1.78,0.87,1.55*14
$GNGSA,A,3,68,79,80,67,,,,,,,,,1.78,0.87,1.55*15
$GPGSV,5,1,19,05,03,029,09,10,38,231,17,12,42,153,30,13,06,067,*79
$GPGSV,5,2,19,15,41,080,28,18,20,334,25,23,69,294,28,24,18,143,*7F
$GPGSV,5,3,19,25,73,196,22,26,03,316,24,28,12,253,32,29,34,020,27*78
$GPGSV,5,4,19,31,00,274,28,32,10,210,,36,52,277,,40,85,352,*77
$GPGSV,5,5,19,41,58,082,,49,32,274,,50,10,089,*4B
$GLGSV,3,1,10,67,33,052,15,68,61,124,16,69,29,188,,73,03,316,17*6D
$GLGSV,3,2,10,78,05,158,,79,43,196,33,80,44,278,27,81,00,057,*6F
$GLGSV,3,3,10,82,06,014,,83,03,327,27*66
$GNGLL,0419.81615,S,05539.64115,E,080318.00,A,A*62
$GNRMC,080320.00,A,0419.81619,S,05539.64117,E,0.049,,260525,,,A*75
$GNVTG,,T,,M,0.049,N,0.090,K,A*39
$GNGGA,080320.00,0419.81619,S,05539.64117,E,1,12,0.87,12.4,M,-47.6,M,,*41
$GNGSA,A,3,25,23,12,15,10,29,18,28,,,,,1.78,0.87,1.55*14
$GNGSA,A,3,68,79,80,67,,,,,,,,,1.78,0.87,1.55*15
$GPGSV,5,1,19,05,03,029,10,10,38,231,16,12,42,153,30,13,06,067,*70
$GPGSV,5,2,19,15,41,080,27,18,20,334,26,23,69,294,27,24,18,143,*7C
$GPGSV,5,3,19,25,73,196,22,26,03,316,24,28,12,253,32,29,34,020,26*79
$GPGSV,5,4,19,31,00,274,28,32,10,210,,36,52,277,,40,85,352,*77
$GPGSV,5,5,19,41,58,082,,49,32,274,,50,10,089,*4B
$GLGSV,3,1,10,67,33,052,13,68,61,124,17,69,29,188,,73,03,316,15*68
$GLGSV,3,2,10,78,05,158,,79,43,196,32,80,44,278,25,81,00,057,*6C
$GLGSV,3,3,10,82,06,014,,83,03,327,24*65
$GNGLL,0419.81619,S,05539.64117,E,080320.00,A,A*67
$GNRMC,080321.00,A,0419.81623,S,05539.64120,E,0.033,,260525,,,A*74
$GNVTG,,T,,M,0.033,N,0.061,K,A*3A
$GNGGA,080321.00,0419.81623,S,05539.64120,E,1,12,0.87,12.4,M,-47.6,M,,*4D
$GNGSA,A,3,25,23,12,15,10,29,18,28,,,,,1.78,0.87,1.55*14
$GNGSA,A,3,68,79,80,67,,,,,,,,,1.78,0.87,1.55*15
$GPGSV,5,1,19,05,03,029,09,10,38,231,19,12,42,153,30,13,06,067,*77
$GPGSV,5,2,19,15,41,080,27,18,20,334,28,23,69,294,27,24,18,143,*72
$GPGSV,5,3,19,25,73,196,21,26,03,316,23,28,12,253,32,29,34,020,26*7D
$GPGSV,5,4,19,31,00,274,28,32,10,210,,36,52,277,,40,85,352,*77
$GPGSV,5,5,19,41,58,082,,49,32,274,,50,10,089,*4B
$GLGSV,3,1,10,67,33,052,17,68,61,124,15,69,29,188,,73,03,316,15*6E
$GLGSV,3,2,10,78,05,158,,79,43,196,32,80,44,278,24,81,00,057,*6D
$GLGSV,3,3,10,82,06,014,,83,03,327,25*64
