$GNVTG,,T,,M,0.024,N,0.045,K,D*3F
$GNGSA,A,3,24,20,05,13,15,12,18,25,23,40,,,1.42,0.77,1.19*1D
$GNGSA,A,3,86,74,75,71,72,76,,,,,,,1.42,0.77,1.19*1F
$GPGSV,4,1,15,05,54,051,35,12,64,035,34,13,14,123,32,15,35,156,37*7C
$GPGSV,4,2,15,18,34,271,30,20,20,037,20,23,30,206,37,24,42,191,40*7B
$GPGSV,4,3,15,25,42,343,29,29,11,333,,36,52,277,32,40,86,351,38*7B
$GPGSV,4,4,15,41,58,082,,49,32,274,,50,10,089,*47
$GLGSV,3,1,11,65,13,192,32,71,17,082,20,72,32,135,33,74,09,155,28*67
$GLGSV,3,2,11,75,60,159,39,76,54,330,33,77,09,333,,86,08,003,09*61
$GLGSV,3,3,11,87,19,321,,88,09,263,,,,,36*69
$GNGLL,0420.04412,S,05539.68590,E,061237.00,A,D*63
$GNGRS,061237.00,1,-1.1,-4.2,0.0,2.5,1.8,-0.1,-2.4,2.6,-1.2,175,,*69
$GNGRS,061237.00,1,137,16.7,2.1,10.5,-14.6,7.0,,,,,,*54
$GNGST,061237.00,1025,,,,1.6,1.8,4.1*45
$GNZDA,061237.00,23,05,2025,00,00*78
$GNGBS,061237.00,1.6,1.8,4.1,,,,*55
b0L@: 630"@#i {Q#l
"%Y"%**WM{4$V_ED:R 
Y
rAGRH! <JK$<L6JMMVWAX$xb@:r$GNRMC,061238.00,A,0420.04410,S,05539.68587,E,0.021,,230525,,,D*71
$GNVTG,,T,,M,0.021,N,0.038,K,D*30
$GNTXT,01,01,01,More than 100 frame errors, UART RX was disabled*70
b0LM%63(@#%{$#
""%5(<+* *WM{4*V_(D:R 
Y 
rA GR
H' J K*<L#6JMMV
WAX'bMrX
z$GNRMC,061243.00,A,0420.04398,S,05539.68598,E,0.039,,230525,,,D*7D
$GNVTG,,T,,M,0.039,N,0.072,K,D*37
$GNGNS,061243.00,0420.04398,S,05539.68598,E,DA,15,0.77,17.1,-47.6,,0000*69
$GNGGA,061243.00,0420.04398,S,05539.68598,E,2,12,0.77,17.1,M,-47.6,M,,0000*42
$GNGSA,A,3,24,20,05,13,15,12,18,25,23,40,,,1.42,0.77,1.19*1D
$GNGSA,A,3,74,75,71,72,76,,,,,,,,1.42,0.77,1.19*11
$GPGSV,4,1,15,05,54,051,37,12,64,035,40,13,14,123,37,15,35,156,36*79
$GPGSV,4,2,15,18,34,271,34,20,20,037,18,23,30,206,40,24,42,191,43*77
$GPGSV,4,3,15,25,42,343,32,29,11,333,,36,52,277,,40,86,351,42*7D
$GPGSV,4,4,15,41,58,082,,49,32,274,,50,10,089,*47
$GLGSV,3,1,11,65,13,192,32,71,17,082,22,72,32,135,39,74,09,155,32*64
$GLGSV,3,2,11,75,60,159,42,76,54,330,35,77,09,333,,86,08,004,10*64
$GLGSV,3,3,11,87,19,321,,88,09,264,,,,,39*61
$GNGLL,0420.04398,S,05539.68598,E,061243.00,A,D*6D
$GNGRS,061243.00,1,-0.7,3.1,-0.3,1.6,1.9,-0.3,-0.4,1.4,-2.0,174,,*6A
$GNGRS,061243.00,1,9.3,1.8,7.8,-15.2,2.0,,,,,,,*69
$GNGST,061243.00,1025,,,,1.5,1.8,3.9*4A
$GNZDA,061243.00,23,05,2025,00,00*7B
$GNGBS,061243.00,1.5,1.8,3.9,,,,*5A
$GNTXT,01,01,01,More than 100 frame errors, UART RX was disabled*70
$GNTXT,01,01,01,More than 100 frame errors, UART RX was disabled*70
b0LU$63b)@#${%#
!"%'+**W3M{4)V_D:R 
Y 
r/A!GRH$ J"K)<L!6JMMVWAX#bUr(J$GNRMC,061245.00,A,0420.04395,S,05539.68598,E,0.030,,230525,,,D*7F
$GNVTG,,T,,M,0.030,N,0.055,K,D*3B
$GNGNS,061245.00,0420.04395,S,05539.68598,E,DA,15,0.77,16.9,-47.6,,0000*6B
$GNGGA,061245.00,0420.04395,S,05539.68598,E,2,12,0.77,16.9,M,-47.6,M,,0000*40
$GNGSA,A,3,24,20,05,13,15,12,18,25,23,40,,,1.42,0.77,1.19*1D
$GNGSA,A,3,74,75,71,72,76,,,,,,,,1.42,0.77,1.19*11
$GPGSV,4,1,15,05,54,051,36,12,64,035,41,13,14,123,36,15,35,156,37*79
$GPGSV,4,2,15,18,34,271,33,20,20,037,20,23,30,206,39,24,42,191,43*75
$GPGSV,4,3,15,25,42,343,31,29,11,333,,36,52,277,,40,86,351,41*7D
$GPGSV,4,4,15,41,58,082,,49,32,274,,50,10,089,*47
$GLGSV,3,1,11,65,13,192,33,71,17,082,30,72,32,135,36,74,09,155,34*6F
$GLGSV,3,2,11,75,60,159,41,76,54,330,33,77,09,333,,86,08,004,08*68
$GLGSV,3,3,11,87,19,321,,88,09,264,,,,,35*6D
$GNGLL,0420.04395,S,05539.68598,E,061245.00,A,D*66
$GNGRS,061245.00,1,-0.8,2.6,1.0,-0.4,2.8,-1.1,-0.6,0.5,-0.4,174,,*61
$GNGRS,061245.00,1,10.3,1.8,6.7,-15.4,5.1,,,,,,,*59
$GNGST,061245.00,1025,,,,1.5,1.7,3.9*43
$GNZDA,061245.00,23,05,2025,00,00*7D
$GNGBS,061245.00,1.5,1.7,3.9,,,,*53
$GNTXT,01,01,01,More than 100 frame errors, UART RX was disabled*70
b0LY&63I'@#p${&#
!"%',**WM{#4*V_D:R 
Y 
rA!GRH$ J!K'<L"6JwMMVG+WAX'YbYr$GNRMC,061246.00,A,0420.04392,S,05539.68593,E,0.061,,230525,,,D*74
$GNVTG,,T,,M,0.061,N,0.114,K,D*3B
$GNGNS,061246.00,0420.04392,S,05539.68593,E,DA,16,0.77,16.8,-47.6,,0000*66
$GNGGA,061246.00,0420.04392,S,05539.68593,E,2,12,0.77,16.8,M,-47.6,M,,0000*4E
$GNGSA,A,3,24,20,05,13,15,12,18,25,23,40,,,1.42,0.77,1.19*1D
$GNGSA,A,3,86,74,75,71,72,76,,,,,,,1.42,0.77,1.19*1F
$GPGSV,4,1,15,05,54,051,38,12,64,035,39,13,14,123,36,15,35,156,38*77
$GPGSV,4,2,15,18,34,271,33,20,20,037,22,23,30,206,39,24,42,191,44*70
$GPGSV,4,3,15,25,42,343,31,29,11,333,,36,52,277,35,40,86,351,42*78
$GPGSV,4,4,15,41,58,082,,49,32,274,,50,10,089,*47
$GLGSV,3,1,11,65,13,192,33,71,17,082,20,72,32,135,36,74,09,155,33*69
$GLGSV,3,2,11,75,60,159,39,76,54,330,34,77,09,333,,86,08,004,11*68
$GLGSV,3,3,11,87,19,321,,88,09,264,,,,,39*61
$GNGLL,0420.04392,S,05539.68593,E,061246.00,A,D*69
$GNGRS,061246.00,1,-0.8,1.8,0.7,-0.4,2.0,-1.4,-0.6,3.8,-0.6,174,,*68
$GNGRS,061246.00,1,111,10.5,1.8,7.8,-15.3,3.7,,,,,,*64
$GNGST,061246.00,1025,,,,1.5,1.7,3.8*41
$GNZDA,061246.00,23,05,2025,00,00*7E
$GNGBS,061246.00,1.5,1.7,3.8,,,,*51
$GNTXT,01,01,01,More than 100 frame errors, UART RX was disabled*70
b0Lh]&63D%@#h${'#
!"%<',**W&M{"4*V_*D:R 
Y 
rqA!GRH$ JK(<L$6JMMV
WAX&jbh]ri$GNRMC,061247.00,A,0420.04389,S,05539.68589,E,0.036,,230525,,,D*76
$GNVTG,,T,,M,0.036,N,0.067,K,D*3C
$GNGNS,061247.00,0420.04389,S,05539.68589,E,DA,16,0.71,16.8,-47.6,,0000*60
$GNGGA,061247.00,0420.04389,S,05539.68589,E,2,12,0.71,16.8,M,-47.6,M,,0000*48
$GNGSA,A,3,24,20,05,13,15,12,18,25,23,40,,,1.22,0.71,1.00*15
$GNGSA,A,3,86,74,75,71,72,76,,,,,,,1.22,0.71,1.00*17
$GPGSV,4,1,15,05,54,051,38,12,64,035,37,13,14,123,36,15,35,156,39*78
$GPGSV,4,2,15,18,34,271,33,20,20,037,25,23,30,206,39,24,42,191,44*77
$GPGSV,4,3,15,25,42,343,30,29,11,333,,36,52,277,34,40,86,351,42*78
$GPGSV,4,4,15,41,58,082,,49,32,274,,50,10,089,*47
$GLGSV,3,1,11,65,13,192,33,71,17,082,18,72,32,135,36,74,09,155,29*69
$GLGSV,3,2,11,75,60,159,40,76,54,330,36,77,09,333,,86,08,004,10*65
$GLGSV,3,3,11,87,19,321,,88,09,264,,,,,38*60
$GNGLL,0420.04389,S,05539.68589,E,061247.00,A,D*69
$GNGRS,061247.00,1,-0.7,0.6,0.7,-0.4,2.2,-1.5,-2.7,2.9,-0.6,174,,*69
$GNGRS,061247.00,1,14.6,15.1,2.0,7.0,-15.3,4.5,,,,,,*4E
$GNGST,061247.00,2885147,,,,1.5,1.7,3.8*73
$GNZDA,061247.00,23,05,2025,00,00*7F
$GNGBS,061247.00,1.5,1.7,3.8,,,,*50
$GNTXT,01,01,01,More than 100 frame errors, UART RX was disabled*70
b0L8e#53 @#{w$#
"%$&**WM{!4#V_&D:R 
Y
reAGR)H  JK(<L#6JMMVWAX"b8er$GNRMC,061249.00,A,0420.04389,S,05539.68589,E,0.053,,230525,,,D*7B
$GNVTG,,T,,M,0.053,N,0.098,K,D*3F
$GNGNS,061249.00,0420.04389,S,05539.68589,E,DA,16,0.71,16.8,-47.6,,0000*6E
$GNGGA,061249.00,0420.04389,S,05539.68589,E,2,12,0.71,16.8,M,-47.6,M,,0000*46
$GNGSA,A,3,24,20,05,13,15,12,18,25,23,40,,,1.22,0.71,1.00*15
$GNGSA,A,3,86,74,75,71,72,76,,,,,,,1.22,0.71,1.00*17
$GPGSV,4,1,15,05,53,051,35,12,64,035,32,13,14,123,27,15,35,156,36*78
$GPGSV,4,2,15,18,34,271,31,20,20,037,25,23,30,206,36,24,42,191,38*71
$GPGSV,4,3,15,25,42,343,28,29,11,333,,36,52,277,33,40,86,351,35*76
$GPGSV,4,4,15,41,58,082,,49,32,274,,50,10,089,*47
$GLGSV,3,1,11,65,13,192,31,71,17,082,13,72,32,135,32,74,09,155,29*64
$GLGSV,3,2,11,75,60,159,40,76,54,330,35,77,09,333,,86,08,004,07*60
$GLGSV,3,3,11,87,19,321,,88,09,264,,,,,34*6C
$GNGLL,0420.04389,S,05539.68589,E,061249.00,A,D*67
$GNGRS,061249.00,1,-0.6,-3.3,-0.2,1.2,1.7,-1.2,-3.5,-3.0,-1.0,174,,*6F
$GNGRS,061249.00,1,14.3,20.4,2.0,3.0,-15.1,4.1,,,,,,*44
$GNGST,061249.00,995,,,,1.5,1.7,3.8*7D
$GNZDA,061249.00,23,05,2025,00,00*71
$GNGBS,061249.00,1.5,1.7,3.8,,,,*5E
b0L|'53$A$#{'#
 "%(m)**WM{"4(V_*D:R 
Y 
rpAGR/H% cJ"@K*<L$6J>MMVkWAX%F$b|r8(H$GNRMC,061255.00,A,0420.04373,S,05539.68579,E,0.042,,230525,,,D*7C
$GNTXT,01,01,01,More than 100 frame errors, UART RX was disabled*70
b0L'53$A$#z'#
 "%(U***WM{"4)V_6D:R 
Y
r*AGRH" J!K(<L"6J]MMVWAX$br $GNRMC,061256.00,A,0420.04374,S,05539.68583,E,0.053,,230525,,,D*7D
$GNTXT,01,01,01,More than 100 frame errors, UART RX was disabled*70
b0Lx'53%A$"z)#w
 "%(W***WpM{$4'V_DD:R 
Y
rAG
RH" J K(<L"6JUMMVWAX$bbxr$GNRMC,061257.00,A,0420.04375,S,05539.68586,E,0.049,,230525,,,D*73
$GNVTG,,T,,M,0.049,N,0.090,K,D*3C
$GNGNS,061257.00,0420.04375,S,05539.68586,E,DA,16,0.71,16.2,-47.6,,0000*67
$GNGGA,061257.00,0420.04375,S,05539.68586,E,2,12,0.71,16.2,M,-47.6,M,,0000*4F
$GNGSA,A,3,24,20,05,13,15,12,18,25,23,40,,,1.22,0.71,1.00*15
$GNGSA,A,3,86,74,75,71,72,76,,,,,,,1.22,0.71,1.00*17
$GPGSV,4,1,15,05,53,051,39,12,65,036,37,13,14,122,34,15,35,156,41*70
$GPGSV,4,2,15,18,34,271,32,20,20,037,24,23,30,206,40,24,42,191,42*7F
$GPGSV,4,3,15,25,42,343,27,29,11,333,,36,52,277,36,40,86,351,39*70
$GPGSV,4,4,15,41,58,082,,49,32,274,,50,10,089,*47
$GLGSV,3,1,11,65,13,192,30,71,17,082,10,72,32,135,34,74,09,155,32*6A
$GLGSV,3,2,11,75,60,159,40,76,54,330,34,77,09,333,,86,08,004,09*6F
$GLGSV,3,3,11,87,19,321,,88,09,264,,,,,36*6E
$GNGLL,0420.04375,S,05539.68586,E,061257.00,A,D*64
$GNGRS,061257.00,1,-0.9,-2.8,-0.9,-0.6,1.2,-1.0,-2.4,-1.4,-1.7,175,,*41
$GNGRS,061257.00,1,14.9,14.1,2.0,12.0,-13.3,3.4,,,,,,*75
$GNGST,061257.00,2885177,,,,1.4,1.6,3.8*71
$GNZDA,061257.00,23,05,2025,00,00*7E
$GNGBS,061257.00,1.4,1.6,3.8,,,,*51
b0L`$53#A$"z%#j
 "%=']'**WDM{!4(V_&D:R 
Y
rfAGR&H" J!K&<L!6J2MMV4WAX$S0b`r$GNRMC,061258.00,A,0420.04375,S,05539.68588,E,0.039,,230525,,,D*75
$GNVTG,,T,,M,0.039,N,0.073,K,D*36
$GNGNS,061258.00,0420.04375,S,05539.68588,E,DA,16,0.77,16.2,-47.6,,0000*60
$GNGGA,061258.00,0420.04375,S,05539.68588,E,2,12,0.77,16.2,M,-47.6,M,,0000*48
$GNGSA,A,3,24,20,05,13,15,12,18,25,23,40,,,1.42,0.77,1.19*1D
$GNGSA,A,3,86,74,75,71,72,76,,,,,,,1.42,0.77,1.19*1F
$GPGSV,4,1,15,05,53,051,36,12,65,036,35,13,14,122,34,15,35,155,37*7F
$GPGSV,4,2,15,18,34,271,32,20,20,037,24,23,30,206,39,24,42,191,39*7D
$GPGSV,4,3,15,25,42,343,27,29,11,333,,36,52,277,33,40,86,351,40*7B
$GPGSV,4,4,15,41,58,082,,49,32,274,,50,10,089,*47
$GLGSV,3,1,11,65,13,192,30,71,17,082,12,72,32,135,34,74,09,155,33*69
$GLGSV,3,2,11,75,60,159,38,76,54,330,33,77,09,333,,86,08,004,08*66
$GLGSV,3,3,11,87,19,321,,88,09,264,,,,,36*6E
$GNGLL,0420.04375,S,05539.68588,E,061258.00,A,D*65
$GNGRS,061258.00,1,-0.7,-4.5,-1.3,-0.6,1.1,-0.9,-2.8,0.7,-1.6,174,,*68
$GNGRS,061258.00,1,134,14.3,2.3,-9.9,-15.3,3.1,,,,,,*42
$GNGST,061258.00,1025,,,,1.4,1.6,3.8*4E
$GNZDA,061258.00,23,05,2025,00,00*71
$GNGBS,061258.00,1.4,1.6,3.8,,,,*5E
b0LH%53#A$"z&#L
 "%'r)**W=M{!4'V_0D:R 
Y
r2AGRH! J!K'<L"6J MMVWAX$bHr$GNRMC,061259.00,A,0420.04376,S,05539.68589,E,0.035,,230525,,,D*7A
$GNVTG,,T,,M,0.035,N,0.065,K,D*3D
$GNGNS,061259.00,0420.04376,S,05539.68589,E,DA,16,0.71,16.2,-47.6,,0000*65
$GNGGA,061259.00,0420.04376,S,05539.68589,E,2,12,0.71,16.2,M,-47.6,M,,0000*4D
$GNGSA,A,3,24,20,05,13,15,12,18,25,23,40,,,1.22,0.71,1.00*15
$GNGSA,A,3,86,74,75,71,72,76,,,,,,,1.22,0.71,1.00*17
$GPGSV,4,1,15,05,53,051,37,12,65,036,35,13,14,122,34,15,35,155,38*71
$GPGSV,4,2,15,18,34,271,32,20,20,037,24,23,30,206,39,24,42,191,41*72
$GPGSV,4,3,15,25,42,343,26,29,11,333,,36,52,277,33,40,86,351,39*74
$GPGSV,4,4,15,41,58,082,,49,32,274,,50,10,089,*47
$GLGSV,3,1,11,65,13,192,30,71,17,082,16,72,32,135,33,74,09,155,33*6A
$GLGSV,3,2,11,75,60,159,39,76,54,330,34,77,09,333,,86,08,004,09*61
$GLGSV,3,3,11,87,19,321,,88,09,264,,,,,36*6E
$GNGLL,0420.04376,S,05539.68589,E,061259.00,A,D*66
$GNGRS,061259.00,1,-0.7,-6.4,-1.2,-0.5,0.8,-0.8,1.6,0.6,-1.4,175,,*43
$GNGRS,061259.00,1,14.9,14.3,2.1,12.2,-15.2,2.9,,,,,,*71
$GNGST,061259.00,4080214,,,,1.5,1.6,3.8*73
$GNZDA,061259.00,23,05,2025,00,00*70
$GNGBS,061259.00,1.5,1.6,3.8,,,,*5E
b0L(53'A$&z##
 "$%'h** *WM{"4)V_2D:R 
Y!
rA"GR>H% J#]K*<L"6J&MMVWAX'X1br$GNRMC,061302.00,A,0420.04378,S,05539.68586,E,0.028,,230525,,,D*78
$GNVTG,,T,,M,0.028,N,0.053,K,D*34
$GNTXT,01,01,01,More than 100 frame errors, UART RX was disabled*70
b0LX*53*A$(z$#
$"$)i+)!*WM{$4+V_\D:R 
Y#
r=A!CGRZH% J"K*<L"6JMMVWAX&bXr-$GNRMC,061309.00,A,0420.04387,S,05539.68588,E,0.025,,230525,,,D*70
$GNVTG,,T,,M,0.025,N,0.047,K,D*3C
$GNGNS,061309.00,0420.04387,S,05539.68588,E,DA,17,0.67,15.8,-47.6,,0000*61
$GNGGA,061309.00,0420.04387,S,05539.68588,E,2,12,0.67,15.8,M,-47.6,M,,0000*48
$GNGSA,A,3,24,20,05,13,15,12,18,25,23,40,,,1.15,0.67,0.94*1A
$GNGSA,A,3,86,74,75,71,72,76,65,,,,,,1.15,0.67,0.94*1B
$GPGSV,4,1,15,05,53,051,42,12,65,036,42,13,14,122,40,15,35,155,36*7E
$GPGSV,4,2,15,18,34,272,36,20,20,036,25,23,31,206,41,24,41,190,43*7B
$GPGSV,4,3,15,25,42,343,33,29,11,333,,36,52,277,36,40,86,351,43*78
$GPGSV,4,4,15,41,58,082,,49,32,274,,50,10,089,*47
$GLGSV,3,1,11,65,13,191,33,71,17,082,25,72,32,135,37,74,09,155,34*69
$GLGSV,3,2,11,75,60,159,42,76,54,330,34,77,09,333,,86,08,004,13*66
$GLGSV,3,3,11,87,19,321,,88,09,264,,,,,38*60
$GNGLL,0420.04387,S,05539.68588,E,061309.00,A,D*6D
$GNGRS,061309.00,1,-0.4,-3.4,-0.6,-0.5,1.3,-0.6,-0.3,1.7,-1.5,175,,*68
$GNGRS,061309.00,1,14.5,15.7,2.0,6.0,-15.7,-0.8,13.5,,,,,*78
$GNGST,061309.00,12756,,,,1.4,1.6,3.7*75
$GNZDA,061309.00,23,05,2025,00,00*74
$GNGBS,061309.00,1.4,1.6,3.7,,,,*54
$GNTXT,01,01,01,More than 100 frame errors, UART RX was disabled*70
$GPGSV,4,4,15,41,58,082,,49,32,274,,50,10,089,*47
$GLGSV,3,1,11,65,13,191,33,71,17,082,25,72,32,135,37,74,09,155,33*6E
$GLGSV,3,2,11,75,60,159,42,76,54,330,34,77,09,333,,86,08,004,12*67
$GLGSV,3,3,11,87,19,321,,88,09,264,,,,,38*60
$GNGLL,0420.04387,S,05539.68586,E,061310.00,A,D*6B
$GNGRS,061310.00,1,-0.5,-5.2,-0.6,-0.1,1.5,-0.5,-0.2,3.0,-1.5,175,,*64
$GNGRS,061310.00,1,-103,15.5,1.9,5.1,-16.6,-1.9,15.6,,,,,*7C
$GNGST,061310.00,994,,,,1.4,1.6,3.7*7E
$GNZDA,061310.00,23,05,2025,00,00*7C
$GNGBS,061310.00,1.4,1.6,3.7,,,,*5C
$GNTXT,01,01,01,More than 100 frame errors, UART RX was disabled*70
b0L)53)A$+z&#x
$"$*H,) *WM{%4*V_VD:R 
Y&
r9A!9GR.H% :J$K+<L!6J>MMVv'WAX'8br=Y$GNRMC,061313.00,A,0420.04383,S,05539.68582,E,0.046,,230525,,,D*70
$GNVTG,,T,,M,0.046,N,0.085,K,D*37
$GNGNS,061313.00,0420.04383,S,05539.68582,E,DA,17,0.73,15.5,-47.6,,0000*6C
$GNGGA,061313.00,0420.04383,S,05539.68582,E,2,12,0.73,15.5,M,-47.6,M,,0000*45
$GNGSA,A,3,24,20,05,13,15,12,18,25,23,40,,,1.34,0.73,1.12*13
$GNGSA,A,3,86,74,75,71,72,76,65,,,,,,1.34,0.73,1.12*12
$GPGSV,4,1,15,05,53,051,41,12,65,036,41,13,14,122,43,15,35,155,38*73
$GPGSV,4,2,15,18,34,272,36,20,20,036,25,23,31,206,42,24,41,190,44*7F
$GPGSV,4,3,15,25,42,343,32,29,11,333,,36,52,277,37,40,86,351,42*79
$GPGSV,4,4,15,41,58,082,,49,32,274,,50,10,089,*47
$GLGSV,3,1,11,65,13,191,33,71,17,082,23,72,32,135,37,74,09,155,36*6D
$GLGSV,3,2,11,75,60,159,43,76,54,330,33,77,09,333,,86,08,004,14*67
$GLGSV,3,3,11,87,19,321,,88,09,264,,,,,39*61
$GNGLL,0420.04383,S,05539.68582,E,061313.00,A,D*68
$GNGRS,061313.00,1,-0.4,-6.3,-1.0,0.1,1.2,0.0,-2.4,2.1,-1.8,175,,*68
$GNGRS,061313.00,1,101,11.7,1.9,3.0,-17.3,0.6,10.8,,,,,*7D
$GNGST,061313.00,994,,,,1.5,1.6,3.6*7D
$GNZDA,061313.00,23,05,2025,00,00*7F
$GNGBS,061313.00,1.5,1.6,3.6,,,,*5F
$GNTXT,01,01,01,More than 100 frame errors, UART RX was disabled*70
b0L)53(A$*z.&#
#"B$*W+) *WM{"4*V_VD:R 
Y&
rNA"CGRQH& J#K*<L!6JMMVWAX'DbrpA1$GNRMC,061314.00,A,0420.04382,S,05539.68582,E,0.006,,230525,,,D*72
$GNVTG,,T,,M,0.006,N,0.012,K,D*3D
$GNGNS,061314.00,0420.04382,S,05539.68582,E,DA,17,0.67,15.5,-47.6,,0000*6F
$GNGGA,061314.00,0420.04382,S,05539.68582,E,2,12,0.67,15.5,M,-47.6,M,,0000*46
$GNGSA,A,3,24,20,05,13,15,12,18,25,23,40,,,1.15,0.67,0.94*1A
$GNGSA,A,3,86,74,75,71,72,76,65,,,,,,1.15,0.67,0.94*1B
$GPGSV,4,1,15,05,53,051,41,12,65,036,40,13,14,122,42,15,35,155,38*73
$GPGSV,4,2,15,18,34,272,35,20,20,036,25,23,31,206,42,24,41,190,43*7B
$GPGSV,4,3,15,25,42,343,32,29,11,333,,36,52,277,34,40,86,351,42*7A
$GPGSV,4,4,15,41,58,082,,49,32,274,,50,10,089,*47
$GLGSV,3,1,11,65,13,191,34,71,17,082,22,72,32,135,38,74,09,155,35*67
$GLGSV,3,2,11,75,60,159,42,76,54,330,33,77,09,333,,86,08,004,15*67
$GLGSV,3,3,11,87,19,321,,88,09,264,,,,,39*61
$GNGLL,0420.04382,S,05539.68582,E,061314.00,A,D*6E
$GNGRS,061314.00,1,-0.2,-5.9,-1.0,0.5,1.5,0.2,-4.5,-0.7,-1.7,175,,*40
$GNGRS,061314.00,1,15.0,14.4,2.2,5.9,-17.6,4.2,8.4,,,,,*61
$GNGST,061314.00,130021,,,,1.5,1.6,3.6*4F
$GNZDA,061314.00,23,05,2025,00,00*78
$GNGBS,061314.00,1.5,1.6,3.6,,,,*58
$GNTXT,01,01,01,More than 100 frame errors, UART RX was disabled*70
$GNTXT,01,01,01,More than 100 frame errors, UART RX was disabled*70
b0L*53(A$*z=$#
$"$)b+)*WM{"4*V_oD:R 
Y&
rWA!GRH& wJ!GK*<L!6JTMMVWAX(brQ$GNRMC,061318.00,A,0420.04385,S,05539.68578,E,0.024,,230525,,,D*7C
$GNVTG,,T,,M,0.024,N,0.044,K,D*3E
$GNGNS,061318.00,0420.04385,S,05539.68578,E,DA,16,0.70,15.3,-47.6,,0000*60
$GNGGA,061318.00,0420.04385,S,05539.68578,E,2,12,0.70,15.3,M,-47.6,M,,0000*48
$GNGSA,A,3,24,20,05,13,15,12,18,25,23,40,,,1.18,0.70,0.95*10
$GNGSA,A,3,86,74,75,72,76,65,,,,,,,1.18,0.70,0.95*17
$GPGSV,4,1,15,05,53,051,42,12,65,036,40,13,14,122,42,15,35,155,36*7E
$GPGSV,4,2,15,18,34,272,36,20,20,036,26,23,31,206,41,24,41,190,43*78
$GPGSV,4,3,15,25,42,343,31,29,11,333,,36,52,277,34,40,86,351,42*79
$GPGSV,4,4,15,41,58,082,,49,32,274,,50,10,089,*47
$GLGSV,3,1,11,65,13,191,33,71,17,082,,72,32,135,38,74,09,155,33*66
$GLGSV,3,2,11,75,60,159,42,76,54,330,33,77,09,333,,86,08,004,13*61
$GLGSV,3,3,11,87,19,321,,88,09,264,,,,,40*6F
$GNGLL,0420.04385,S,05539.68578,E,061318.00,A,D*60
$GNGRS,061318.00,1,-0.1,-0.5,-1.3,0.6,1.4,0.2,-3.4,0.3,-1.6,175,,*69
$GNGRS,061318.00,1,14.8,13.5,2.0,-11.6,6.0,15.7,,,,,,*7B
$GNGST,061318.00,2885147,,,,1.5,1.6,3.6*77
$GNZDA,061318.00,23,05,2025,00,00*74
$GNGBS,061318.00,1.5,1.6,3.6,,,,*54
b0Lh*53(A$I*z'#t
%"$x*^+) *W$M{#4*V_eD:R 
Y%
raA!'GRH& J!`K*<L!6JMMV|WAX(ebhrTh$GNRMC,061319.00,A,0420.04387,S,05539.68579,E,0.017,,230525,,,D*7E
$GNVTG,,T,,M,0.017,N,0.031,K,D*3C
$GNGNS,061319.00,0420.04387,S,05539.68579,E,DA,16,0.76,15.3,-47.6,,0000*64
$GNGGA,061319.00,0420.04387,S,05539.68579,E,2,12,0.76,15.3,M,-47.6,M,,0000*4C
$GNGSA,A,3,24,20,05,13,15,12,18,25,23,40,,,1.37,0.76,1.14*13
$GNGSA,A,3,86,74,75,72,76,65,,,,,,,1.37,0.76,1.14*14
$GPGSV,4,1,15,05,53,051,42,12,65,036,40,13,14,122,42,15,35,155,39*71
$GPGSV,4,2,15,18,34,272,37,20,20,036,26,23,31,206,42,24,41,190,43*7A
$GPGSV,4,3,15,25,42,343,32,29,11,333,,36,52,277,35,40,86,351,42*7B
$GPGSV,4,4,15,41,58,082,,49,32,274,,50,10,089,*47
$GLGSV,3,1,11,65,13,191,33,71,17,082,,72,32,135,38,74,09,155,33*66
$GLGSV,3,2,11,75,60,159,42,76,54,330,33,77,09,333,,86,08,004,16*64
$GLGSV,3,3,11,87,19,321,,88,09,264,,,,,40*6F
$GNGLL,0420.04387,S,05539.68579,E,061319.00,A,D*62
$GNGRS,061319.00,1,0.0,-1.4,-1.0,0.3,1.2,0.7,-5.0,-4.8,-1.6,175,,*61
$GNGRS,061319.00,1,-132,11.2,1.8,-13.4,7.1,13.2,,,,,,*79
$GNGST,061319.00,1025,,,,1.5,1.6,3.5*46
$GNZDA,061319.00,23,05,2025,00,00*75
$GNGBS,061319.00,1.5,1.6,3.5,,,,*56
$GNTXT,01,01,01,More than 100 frame errors, UART RX was disabled*70
b0LP*53'A$T*z%#S
%"$*N,) *WM{#4*V_jD:R 
Y%
rcA!GRH% J"GK*<L!6JMMVWAX'bPrX@o$GNRMC,061320.00,A,0420.04388,S,05539.68579,E,0.035,,230525,,,D*7B
$GNVTG,,T,,M,0.035,N,0.064,K,D*3C
$GNGNS,061320.00,0420.04388,S,05539.68579,E,DA,16,0.70,15.3,-47.6,,0000*67
$GNGGA,061320.00,0420.04388,S,05539.68579,E,2,12,0.70,15.3,M,-47.6,M,,0000*4F
$GNGSA,A,3,24,20,05,13,15,12,18,25,23,40,,,1.18,0.70,0.95*10
$GNGSA,A,3,86,74,75,72,76,65,,,,,,,1.18,0.70,0.95*17
$GPGSV,4,1,15,05,53,051,42,12,65,036,39,13,14,122,42,15,35,155,37*71
$GPGSV,4,2,15,18,34,272,37,20,20,036,25,23,31,206,42,24,41,190,44*7E
$GPGSV,4,3,15,25,42,343,32,29,11,333,,36,52,277,35,40,86,351,42*7B
$GPGSV,4,4,15,41,58,082,,49,32,274,,50,10,089,*47
$GLGSV,3,1,11,65,13,191,33,71,17,082,,72,32,135,37,74,09,155,34*6E
$GLGSV,3,2,11,75,60,159,42,76,54,330,33,77,09,333,,86,08,004,12*60
$GLGSV,3,3,11,87,19,321,,88,09,264,,,,,39*61
$GNGLL,0420.04388,S,05539.68579,E,061320.00,A,D*67
$GNGRS,061320.00,1,-0.3,-2.9,-0.8,0.1,0.8,0.8,-3.4,1.5,-1.8,175,,*6D
$GNGRS,061320.00,1,15.0,11.0,2.0,-13.2,5.0,19.2,,,,,,*72
$GNGST,061320.00,3074,,,,1.5,1.6,3.5*4A
$GNZDA,061320.00,23,05,2025,00,00*7F
$GNGBS,061320.00,1.5,1.6,3.5,,,,*5C
$GNTXT,01,01,01,More than 100 frame errors, UART RX was disabled*70
b0L8*53(A$G*z%#U
%"h$C*W+) *WM{#4*V_bD:R 
Y%
r]A!oGRH& J#K*<L!6JMMVWAX'nb8r\$GNRMC,061321.00,A,0420.04387,S,05539.68580,E,0.009,,230525,,,D*7C
$GNVTG,,T,,M,0.009,N,0.016,K,D*36
$GNGNS,061321.00,0420.04387,S,05539.68580,E,DA,16,0.70,15.3,-47.6,,0000*6F
$GNGGA,061321.00,0420.04387,S,05539.68580,E,2,12,0.70,15.3,M,-47.6,M,,0000*47
$GNGSA,A,3,24,20,05,13,15,12,18,25,23,40,,,1.18,0.70,0.95*10
$GNGSA,A,3,86,74,75,72,76,65,,,,,,,1.18,0.70,0.95*17
$GPGSV,4,1,15,05,53,051,42,12,65,036,40,13,14,122,42,15,35,155,37*7F
$GPGSV,4,2,15,18,34,272,37,20,20,036,25,23,31,206,42,24,41,190,43*79
$GPGSV,4,3,15,25,42,343,32,29,11,333,,36,52,277,35,40,86,351,42*7B
$GPGSV,4,4,15,41,58,082,,49,32,274,,50,10,089,*47
$GLGSV,3,1,11,65,13,191,33,71,17,082,21,72,32,135,38,74,09,155,35*63
$GLGSV,3,2,11,75,60,159,42,76,54,330,33,77,09,333,,86,08,004,14*66
$GLGSV,3,3,11,87,19,321,,88,09,264,,,,,39*61
$GNGLL,0420.04387,S,05539.68580,E,061321.00,A,D*6F
$GNGRS,061321.00,1,-0.4,-4.4,-0.7,0.2,0.9,0.7,-4.1,2.5,-1.7,175,,*6C
$GNGRS,061321.00,1,14.9,9.1,2.2,-13.3,5.2,11.3,,,,,,*4B
$GNGST,061321.00,4475,,,,1.5,1.6,3.5*49
$GNZDA,061321.00,23,05,2025,00,00*7E
$GNGBS,061321.00,1.5,1.6,3.5,,,,*5D
$GNTXT,01,01,01,More than 100 frame errors, UART RX was disabled*70
b0L *53(A$L*z&#N
%"v$]*d+)!*WM{$4*V_fD:R 
Y%
rbA!(GRH& J"K*<L 6JMMV
TWAX'P#b r`?$GNRMC,061322.00,A,0420.04387,S,05539.68579,E,0.037,,230525,,,D*74
$GNVTG,,T,,M,0.037,N,0.069,K,D*33
$GNGNS,061322.00,0420.04387,S,05539.68579,E,DA,16,0.76,15.3,-47.6,,0000*6C
$GNGGA,061322.00,0420.04387,S,05539.68579,E,2,12,0.76,15.3,M,-47.6,M,,0000*44
$GNGSA,A,3,24,20,05,13,15,12,18,25,23,40,,,1.37,0.76,1.14*13
$GNGSA,A,3,86,74,75,72,76,65,,,,,,,1.37,0.76,1.14*14
$GPGSV,4,1,15,05,53,051,42,12,65,036,40,13,14,122,42,15,35,155,38*70
$GPGSV,4,2,15,18,34,272,37,20,20,036,25,23,31,206,42,24,41,190,43*79
$GPGSV,4,3,15,25,42,343,33,29,11,333,,36,52,277,36,40,86,351,42*79
$GPGSV,4,4,15,41,58,082,,49,32,274,,50,10,089,*47
$GLGSV,3,1,11,65,13,191,33,71,17,082,20,72,32,135,38,74,09,155,34*63
$GLGSV,3,2,11,75,60,159,42,76,54,330,32,77,09,333,,86,08,004,10*63
$GLGSV,3,3,11,87,19,321,,88,09,264,,,,,39*61
$GNGLL,0420.04387,S,05539.68579,E,061322.00,A,D*6A
$GNGRS,061322.00,1,-0.4,-4.2,-0.8,0.2,0.8,0.8,-3.9,5.3,-1.6,175,,*67
$GNGRS,061322.00,1,-58.0,6.7,2.4,-13.4,6.7,10.6,,,,,,*6E
$GNGST,061322.00,1025,,,,1.5,1.6,3.5*4E
$GNZDA,061322.00,23,05,2025,00,00*7D
$GNGBS,061322.00,1.5,1.6,3.5,,,,*5E
$GNTXT,01,01,01,More than 100 frame errors, UART RX was disabled*70
b0L)53(A$B*z&#Q
#"\$\*h+) *WM{#4*V_[D:R 
Y&
rcA!GRH% J"MK*<
L 6JMMVWAX'@brh$GNRMC,061324.00,A,0420.04388,S,05539.68581,E,0.035,,230525,,,D*78
$GNVTG,,T,,M,0.035,N,0.065,K,D*3D
$GNGNS,061324.00,0420.04388,S,05539.68581,E,DA,16,0.70,15.4,-47.6,,0000*63
$GNGGA,061324.00,0420.04388,S,05539.68581,E,2,12,0.70,15.4,M,-47.6,M,,0000*4B
$GNGSA,A,3,24,20,05,13,15,12,18,25,23,40,,,1.18,0.70,0.95*10
$GNGSA,A,3,86,74,75,72,76,65,,,,,,,1.18,0.70,0.95*17
$GPGSV,4,1,15,05,53,051,41,12,65,036,40,13,14,122,42,15,35,155,38*73
$GPGSV,4,2,15,18,34,272,35,20,20,036,24,23,31,206,42,24,41,190,43*7A
$GPGSV,4,3,15,25,42,343,32,29,11,333,,36,52,277,35,40,86,351,42*7B
$GPGSV,4,4,15,41,58,082,,49,32,274,,50,10,089,*47
$GLGSV,3,1,11,65,13,191,33,71,17,082,14,72,32,135,37,74,09,155,34*6B
$GLGSV,3,2,11,75,60,159,42,76,54,330,32,77,09,333,,86,08,004,13*60
$GLGSV,3,3,11,87,19,321,,88,09,264,,,,,39*61
$GNGLL,0420.04388,S,05539.68581,E,061324.00,A,D*64
$GNGRS,061324.00,1,-0.6,-1.6,-0.9,0.1,0.8,0.7,-4.2,0.3,-1.5,175,,*65
$GNGRS,061324.00,1,14.8,8.4,2.7,-13.7,9.8,7.4,,,,,,*7C
$GNGST,061324.00,2885147,,,,1.5,1.6,3.5*7B
$GNZDA,061324.00,23,05,2025,00,00*7B
$GNGBS,061324.00,1.5,1.6,3.5,,,,*58
$GNTXT,01,01,01,More than 100 frame errors, UART RX was disabled*70
$GNTXT,01,01,01,More than 100 frame errors, UART RX was disabled*70
b0L)53'A$5)zT&#
#"^$^*`+)*WJM{#4*V_QD:R 
Y$
rA!0GRH% }J%@K)<1L 6JMMVWAX'xbr8t'8$GNRMC,061327.00,A,0420.04388,S,05539.68581,E,0.029,,230525,,,D*76
$GNVTG,,T,,M,0.029,N,0.054,K,D*32
$GNGNS,061327.00,0420.04388,S,05539.68581,E,DA,17,0.67,15.4,-47.6,,0000*67
$GNGGA,061327.00,0420.04388,S,05539.68581,E,2,12,0.67,15.4,M,-47.6,M,,0000*4E
$GNGSA,A,3,24,20,05,13,15,12,18,25,23,40,,,1.15,0.67,0.94*1A
$GNGSA,A,3,86,74,75,71,72,76,65,,,,,,1.15,0.67,0.94*1B
$GPGSV,4,1,15,05,53,051,41,12,65,036,39,13,14,122,41,15,35,155,38*7E
$GPGSV,4,2,15,18,34,272,35,20,20,036,25,23,31,206,42,24,41,190,43*7B
$GPGSV,4,3,15,25,42,343,31,29,11,333,,36,52,277,35,40,86,351,42*78
$GPGSV,4,4,15,41,58,082,,49,32,274,,50,10,089,*47
$GLGSV,3,1,11,65,13,191,33,71,17,082,15,72,32,135,37,74,09,155,37*69
$GLGSV,3,2,11,75,60,159,41,76,54,330,32,77,09,333,,86,08,004,16*66
$GLGSV,3,3,11,87,19,321,,88,09,264,,,,,39*61
$GNGLL,0420.04388,S,05539.68581,E,061327.00,A,D*67
$GNGRS,061327.00,1,-0.3,-1.6,-0.9,0.8,-0.4,0.5,-4.2,3.3,-1.6,175,,*49
$GNGRS,061327.00,1,15.1,8.3,3.0,-15.9,-14.1,2.6,10.7,,,,,*79
$GNGST,061327.00,4349,,,,1.5,1.6,3.5*47
$GNZDA,061327.00,23,05,2025,00,00*78
$GNGBS,061327.00,1.5,1.6,3.5,,,,*5B
b0Lx'53)A$(zs&#G
$"$7*S+)*WyM{#4*V_FD:R 
Y#
rmA"GRH% J"JK)<L 6J`MMVWAX&bxr|$GNRMC,061329.00,A,0420.04392,S,05539.68586,E,0.028,,230525,,,D*75
$GNVTG,,T,,M,0.028,N,0.052,K,D*35
$GNGNS,061329.00,0420.04392,S,05539.68586,E,DA,17,0.67,15.6,-47.6,,0000*67
$GNGGA,061329.00,0420.04392,S,05539.68586,E,2,12,0.67,15.6,M,-47.6,M,,0000*4E
$GNGSA,A,3,24,20,05,13,15,12,18,25,23,40,,,1.15,0.67,0.94*1A
$GNGSA,A,3,86,74,75,71,72,76,65,,,,,,1.15,0.67,0.94*1B
$GPGSV,4,1,15,05,53,051,39,12,65,036,41,13,14,122,40,15,35,155,38*7F
$GPGSV,4,2,15,18,34,272,36,20,20,036,25,23,31,206,42,24,41,190,43*78
$GPGSV,4,3,15,25,42,343,31,29,11,333,,36,52,277,35,40,86,351,42*78
$GPGSV,4,4,15,41,58,082,,49,32,274,,50,10,089,*47
$GLGSV,3,1,11,65,13,191,34,71,17,082,24,72,32,135,37,74,09,155,34*6F
$GLGSV,3,2,11,75,60,159,41,76,54,330,32,77,09,333,,86,08,004,13*63
$GLGSV,3,3,11,87,19,321,,88,09,264,,,,,38*60
$GNGLL,0420.04392,S,05539.68586,E,061329.00,A,D*65
$GNGRS,061329.00,1,-0.1,-2.0,-0.9,1.2,0.7,0.3,-6.2,1.2,-1.7,175,,*63
$GNGRS,061329.00,1,15.2,8.4,2.7,-16.3,-11.5,3.5,6.7,,,,,*48
$GNGST,061329.00,53712,,,,1.5,1.6,3.5*71
$GNZDA,061329.00,23,05,2025,00,00*76
$GNGBS,061329.00,1.5,1.6,3.5,,,,*55
b0LH'53)A$7)z$'#+
%"$0*t+)!*W1M{#4+V_BD:R 
Y$
reA!GRH% %J"tK*<,L 6JLMMV2?WAX'#)bHr$GNRMC,061331.00,A,0420.04393,S,05539.68587,E,0.007,,230525,,,D*71
$GNVTG,,T,,M,0.007,N,0.012,K,D*3C
$GNGNS,061331.00,0420.04393,S,05539.68587,E,DA,17,0.73,15.7,-47.6,,0000*6A
$GNGGA,061331.00,0420.04393,S,05539.68587,E,2,12,0.73,15.7,M,-47.6,M,,0000*43
$GNGSA,A,3,24,20,05,13,15,12,18,25,23,40,,,1.34,0.73,1.12*13
$GNGSA,A,3,86,74,75,71,72,76,65,,,,,,1.34,0.73,1.12*12
$GPGSV,4,1,15,05,53,051,39,12,65,036,41,13,14,122,41,15,35,155,39*7F
$GPGSV,4,2,15,18,34,272,37,20,20,036,24,23,31,206,42,24,41,190,43*78
$GPGSV,4,3,15,25,42,343,33,29,11,333,,36,52,277,35,40,86,351,43*7B
$GPGSV,4,4,15,41,58,082,,49,32,274,,50,10,089,*47
$GLGSV,3,1,11,65,13,191,33,71,17,082,24,72,32,135,37,74,09,155,34*68
$GLGSV,3,2,11,75,60,159,42,76,54,330,32,77,09,333,,86,08,004,13*60
$GLGSV,3,3,11,87,19,321,,88,09,264,,,,,39*61
$GNGLL,0420.04393,S,05539.68587,E,061331.00,A,D*6C
$GNGRS,061331.00,1,-0.2,-2.1,-0.5,0.4,0.4,0.6,-2.7,0.5,-1.4,175,,*61
$GNGRS,061331.00,1,162,8.8,3.0,-15.8,-12.4,3.3,10.0,,,,,*5A
$GNGST,061331.00,994,,,,1.5,1.6,3.5*7E
$GNZDA,061331.00,23,05,2025,00,00*7F
$GNGBS,061331.00,1.5,1.6,3.5,,,,*5C
$GNTXT,01,01,01,More than 100 frame errors, UART RX was disabled*70
$GNTXT,01,01,01,More than 100 frame errors, UART RX was disabled*70
b0L)53'A$C*z$#
$"$*Y+) *WM{"4*V_kD:R 
Y$
r]A!GRH% J!K*<)L!6JMMVWAX&Ibr7$GNRMC,061333.00,A,0420.04391,S,05539.68589,E,0.009,,230525,,,D*71
$GNVTG,,T,,M,0.009,N,0.016,K,D*36
$GNGNS,061333.00,0420.04391,S,05539.68589,E,DA,17,0.67,15.7,-47.6,,0000*61
$GNGGA,061333.00,0420.04391,S,05539.68589,E,2,12,0.67,15.7,M,-47.6,M,,0000*48
$GNTXT,01,01,01,More than 100 frame errors, UART RX was disabled*70
b0L(53(A$T)z$#W
%"$*U+)!*WM{"4*V_rD:R 
Y$
r_A!GRH% J"{K)<#L!6JMMV2WAX&br$GNRMC,061334.00,A,0420.04391,S,05539.68590,E,0.016,,230525,,,D*70
$GNVTG,,T,,M,0.016,N,0.029,K,D*34
$GNGNS,061334.00,0420.04391,S,05539.68590,E,DA,17,0.73,15.8,-47.6,,0000*64
$GNGGA,061334.00,0420.04391,S,05539.68590,E,2,12,0.73,15.8,M,-47.6,M,,0000*4D
$GNGSA,A,3,24,20,05,13,15,12,18,25,23,40,,,1.34,0.73,1.12*13
$GNGSA,A,3,86,74,75,71,72,76,65,,,,,,1.34,0.73,1.12*12
$GPGSV,4,1,15,05,53,051,40,12,65,036,40,13,14,122,41,15,35,155,36*7F
$GPGSV,4,2,15,18,34,272,37,20,20,036,23,23,31,206,42,24,41,190,43*7F
$GPGSV,4,3,15,25,42,343,33,29,11,333,,36,52,277,34,40,86,351,42*7B
$GPGSV,4,4,15,41,58,082,,49,32,274,,50,10,089,*47
$GLGSV,3,1,11,65,13,191,33,71,17,082,23,72,32,135,37,74,09,155,34*6F
$GLGSV,3,2,11,75,60,159,41,76,54,330,33,77,09,333,,86,08,004,13*62
$GLGSV,3,3,11,87,19,321,,88,09,264,,,,,38*60
$GNGLL,0420.04391,S,05539.68590,E,061334.00,A,D*6D
$GNGRS,061334.00,1,-0.1,0.2,-0.1,0.2,0.9,0.8,-3.5,-1.0,-1.7,175,,*63
$GNGRS,061334.00,1,130,11.5,2.9,-15.7,-12.8,4.5,6.8,,,,,*58
$GNGST,061334.00,994,,,,1.5,1.6,3.5*7B
$GNZDA,061334.00,23,05,2025,00,00*7A
$GNGBS,061334.00,1.5,1.6,3.5,,,,*59
$GNTXT,01,01,01,More than 100 frame errors, UART RX was disabled*70
$GNTXT,01,01,01,More than 100 frame errors, UART RX was disabled*70
$GNTXT,01,01,01,More than 100 frame errors, UART RX was disabled*70
b0L$'53)A$#z))#!
$"$*R+)!*WM{"4)V_3D:R 
Y 
rA GR'H  J&6K)<L 6JMMVWAX#wb$r0n$GNRMC,061338.00,A,0420.04395,S,05539.68598,E,0.050,,230525,,,D*72
$GNVTG,,T,,M,0.050,N,0.092,K,D*36
$GNGNS,061338.00,0420.04395,S,05539.68598,E,DA,17,0.67,16.0,-47.6,,0000*6A
$GNGGA,061338.00,0420.04395,S,05539.68598,E,2,12,0.67,16.0,M,-47.6,M,,0000*43
$GNGSA,A,3,24,20,05,13,15,12,18,25,23,40,,,1.15,0.67,0.94*1A
$GNGSA,A,3,86,74,75,71,72,76,65,,,,,,1.15,0.67,0.94*1B
$GPGSV,4,1,15,05,53,051,39,12,65,036,41,13,14,122,35,15,35,155,41*73
$GPGSV,4,2,15,18,34,272,36,20,20,036,22,23,31,206,42,24,41,190,43*7F
$GPGSV,4,3,15,25,42,343,33,29,11,333,,36,52,277,34,40,86,351,41*78
$GPGSV,4,4,15,41,58,082,,49,32,274,,50,10,089,*47
$GLGSV,3,1,11,65,14,191,32,71,17,082,29,72,32,135,32,74,09,155,38*6A
$GLGSV,3,2,11,75,60,159,41,76,54,330,32,77,09,333,,86,08,004,12*62
$GLGSV,3,3,11,87,19,321,,88,09,264,,,,,29*60
$GNGLL,0420.04395,S,05539.68598,E,061338.00,A,D*6D
$GNGRS,061338.00,1,-0.3,-0.6,-0.3,0.4,0.3,0.3,-3.6,-0.7,-1.7,175,,*44
$GNGRS,061338.00,1,15.1,10.8,2.7,-12.4,-15.7,-2.3,9.0,,,,,*59
$GNGST,061338.00,2803859,,,,1.5,1.6,3.5*7E
$GNZDA,061338.00,23,05,2025,00,00*76
$GNGBS,061338.00,1.5,1.6,3.5,,,,*55
$GNTXT,01,01,01,More than 100 frame errors, UART RX was disabled*70
$GNTXT,01,01,01,More than 100 frame errors, UART RX was disabled*70
$GNTXT,01,01,01,More than 100 frame errors, UART RX was disabled*70
$GNTXT,01,01,01,More than 100 frame errors, UART RX was disabled*70
$GNTXT,01,01,01,More than 100 frame errors, UART RX was disabled*70
b0LC$535)A$%z)'#
$"$R*O*)"*WM{%4*V_5D:R 
Y#
rEA"NGRH" .J!K(;L$7JMMVWAX$d:bCrp,$GNRMC,061346.00,A,0420.04395,S,05539.68607,E,0.025,,230525,,,D*7C
$GNVTG,,T,,M,0.025,N,0.047,K,D*3C
$GNGNS,061346.00,0420.04395,S,05539.68607,E,DA,16,0.76,16.1,-47.6,,0000*66
$GNGGA,061346.00,0420.04395,S,05539.68607,E,2,12,0.76,16.1,M,-47.6,M,,0000*4E
$GNGSA,A,3,24,20,05,13,15,12,18,25,23,40,,,1.37,0.76,1.14*13
$GNGSA,A,3,86,74,75,72,76,65,,,,,,,1.37,0.76,1.14*14
$GPGSV,4,1,15,05,53,051,36,12,65,036,41,13,14,122,37,15,35,155,39*71
$GPGSV,4,2,15,18,34,272,36,20,20,036,22,23,31,206,42,24,41,190,42*7E
$GPGSV,4,3,15,25,42,343,34,29,11,333,,36,52,277,37,40,86,351,42*7F
$GPGSV,4,4,15,41,58,082,,49,32,274,,50,10,089,*47
$GLGSV,3,1,11,65,14,191,34,71,17,082,,72,32,134,34,74,08,155,33*6A
$GLGSV,3,2,11,75,59,160,40,76,55,330,36,77,09,333,,86,08,004,14*60
$GLGSV,3,3,11,87,19,321,,88,09,264,,,,,36*6E
$GNGLL,0420.04395,S,05539.68607,E,061346.00,A,D*61
$GNGRS,061346.00,1,-0.4,0.8,0.5,0.4,1.3,0.0,-3.4,-0.9,-1.8,175,,*43
$GNGRS,061346.00,1,-132,7.9,2.4,-17.5,1.5,11.0,,,,,,*47
$GNGST,061346.00,1025,,,,1.5,1.6,3.5*4C
$GNZDA,061346.00,23,05,2025,00,00*7F
$GNGBS,061346.00,1.5,1.6,3.5,,,,*5C
b0LG(537)A$&z*#Z
%"$+V*)!*WmM{$4)V_>D:R 
Y"
rA!pGRH" 7J!XK(;L"7JMMVWAX$B~bGrXB$GNRMC,061347.00,A,0420.04396,S,05539.68608,E,0.055,,230525,,,D*76
$GNVTG,,T,,M,0.055,N,0.102,K,D*3B
$GNGNS,061347.00,0420.04396,S,05539.68608,E,DA,16,0.70,16.1,-47.6,,0000*6D
$GNGGA,061347.00,0420.04396,S,05539.68608,E,2,12,0.70,16.1,M,-47.6,M,,0000*45
$GNGSA,A,3,24,20,05,13,15,12,18,25,23,40,,,1.18,0.70,0.95*10
$GNGSA,A,3,86,74,75,72,76,65,,,,,,,1.18,0.70,0.95*17
$GPGSV,4,1,15,05,53,051,40,12,65,036,41,13,14,122,38,15,35,155,42*73
$GPGSV,4,2,15,18,34,272,37,20,20,036,21,23,31,206,43,24,41,190,42*7D
$GPGSV,4,3,15,25,42,343,33,29,11,333,,36,52,277,36,40,86,351,41*7A
$GPGSV,4,4,15,41,58,082,,49,32,274,,50,10,089,*47
$GLGSV,3,1,11,65,14,191,33,71,17,082,,72,32,134,34,74,08,155,33*6D
$GLGSV,3,2,11,75,59,160,40,76,55,330,34,77,09,333,,86,08,004,13*65
$GLGSV,3,3,11,87,19,321,,88,09,264,,,,,36*6E
$GNGLL,0420.04396,S,05539.68608,E,061347.00,A,D*6C
$GNGRS,061347.00,1,-0.3,-0.7,0.5,0.1,0.9,0.0,-3.3,1.1,-1.7,175,,*45
$GNGRS,061347.00,1,15.2,6.0,2.4,-17.4,2.9,11.4,,,,,,*41
$GNGST,061347.00,3074,,,,1.5,1.6,3.5*4B
$GNZDA,061347.00,23,05,2025,00,00*7E
$GNGBS,061347.00,1.5,1.6,3.5,,,,*5D
b0LK%53&&A$#z!&#Q
""$F)f()*WM{!4'V_*D:R 
Y!
rA!GRH! +J"K';L 7JMMVWAX#0bKr@$GNRMC,061348.00,A,0420.04397,S,05539.68609,E,0.024,,230525,,,D*7F
$GNVTG,,T,,M,0.024,N,0.045,K,D*3F
$GNGNS,061348.00,0420.04397,S,05539.68609,E,DA,15,0.76,16.1,-47.6,,0000*67
$GNGGA,061348.00,0420.04397,S,05539.68609,E,2,12,0.76,16.1,M,-47.6,M,,0000*4C
$GNGSA,A,3,24,20,05,13,15,12,18,25,23,40,,,1.37,0.76,1.14*13
$GNGSA,A,3,74,75,72,76,65,,,,,,,,1.37,0.76,1.14*1A
$GPGSV,4,1,15,05,53,051,37,12,65,036,38,13,14,122,35,15,35,155,38*7D
$GPGSV,4,2,15,18,34,272,34,20,20,036,19,23,31,206,41,24,41,190,40*75
$GPGSV,4,3,15,25,42,343,30,29,11,333,,36,52,277,33,40,86,351,39*73
$GPGSV,4,4,15,41,58,082,,49,32,274,,50,10,089,*47
$GLGSV,3,1,11,65,14,191,33,71,17,082,,72,32,134,33,74,08,155,34*6D
$GLGSV,3,3,11,87,19,321,,88,09,264,,,,,35*6D
$GNGLL,0420.04397,S,05539.68609,E,061348.00,A,D*63
$GNGRS,061348.00,1,-0.2,-1.9,0.4,0.3,0.8,-0.1,-3.2,1.4,-1.5,175,,*6C
$GNGRS,061348.00,1,6.5,2.3,-17.5,4.7,12.0,,,,,,,*5A
$GNGST,061348.00,1025,,,,1.5,1.6,3.6*41
$GNZDA,061348.00,23,05,2025,00,00*71
$GNGBS,061348.00,1.5,1.6,3.6,,,,*51
$GNTXT,01,01,01,More than 100 frame errors, UART RX was disabled*70
b0LhW$53$)A$&z-$#U
$"7$*B*) *WM{"4(V_CD:R 
Y"
rA!GRH# 6J#K);L 7JXMMV
WAX&bhWrc$GNRMC,061351.00,A,0420.04398,S,05539.68614,E,0.051,,230525,,,D*76
$GNVTG,,T,,M,0.051,N,0.094,K,D*31
$GNGNS,061351.00,0420.04398,S,05539.68614,E,DA,15,0.76,16.0,-47.6,,0000*6D
$GNGGA,061351.00,0420.04398,S,05539.68614,E,2,12,0.76,16.0,M,-47.6,M,,0000*46
$GNGSA,A,3,24,20,05,13,15,12,18,25,23,40,,,1.37,0.76,1.14*13
$GNGSA,A,3,74,75,72,76,65,,,,,,,,1.37,0.76,1.14*1A
$GPGSV,4,1,15,05,53,051,36,12,65,036,41,13,14,122,38,15,35,155,36*71
$GPGSV,4,2,15,18,34,272,36,20,20,036,15,23,31,206,42,24,41,190,42*7A
$GPGSV,4,3,15,25,42,343,32,29,11,333,,36,52,277,34,40,86,351,40*78
$GPGSV,4,4,15,41,58,082,,49,32,274,,50,10,089,*47
$GLGSV,3,1,11,65,14,191,33,71,17,082,,72,32,134,35,74,08,155,35*6A
$GLGSV,3,2,11,75,59,160,41,76,55,330,32,77,09,333,,86,08,004,10*61
$GLGSV,3,3,11,87,19,321,,88,09,264,,,,,38*60
$GNGLL,0420.04398,S,05539.68614,E,061351.00,A,D*68
$GNGRS,061351.00,1,-0.5,-2.6,0.4,0.4,0.9,-0.3,-2.0,-3.6,-1.9,175,,*49
$GNGRS,061351.00,1,9.8,2.1,-12.3,-1.7,14.9,,,,,,,*76
$GNGST,061351.00,1025,,,,1.6,1.6,3.6*4A
$GNZDA,061351.00,23,05,2025,00,00*79
$GNGBS,061351.00,1.6,1.6,3.6,,,,*5A
$GNTXT,01,01,01,More than 100 frame errors, UART RX was disabled*70
$GNTXT,01,01,01,More than 100 frame errors, UART RX was disabled*70
$GNGRS,061354.00,1,10.7,1.9,-15.2,3.5,12.6,,,,,,,*6D
$GNGST,061354.00,1025,,,,1.6,1.6,3.6*4F
$GNZDA,061354.00,23,05,2025,00,00*7C
$GNGBS,061354.00,1.6,1.6,3.6,,,,*5F
$GNGST,061355.00,967,,,,1.6,1.6,3.6*70
$GNZDA,061355.00,23,05,2025,00,00*7D
$GNGBS,061355.00,1.6,1.6,3.6,,,,*5E
b0Lj&53&)A$*z(#
$"$*x+)!*WM{#4)V_OD:R 
Y#
rA!GRH% J%K);L!7J!MMVWAX(2'bjr$GNRMC,061356.00,A,0420.04398,S,05539.68617,E,0.010,,230525,,,D*77
$GNVTG,,T,,M,0.010,N,0.019,K,D*31
$GNGNS,061356.00,0420.04398,S,05539.68617,E,DA,17,0.67,15.6,-47.6,,0000*6E
$GNGGA,061356.00,0420.04398,S,05539.68617,E,2,12,0.67,15.6,M,-47.6,M,,0000*47
$GNGSA,A,3,24,20,05,13,15,12,18,25,23,40,,,1.15,0.67,0.94*1A
$GNGSA,A,3,86,74,75,71,72,76,65,,,,,,1.15,0.67,0.94*1B
$GPGSV,4,1,15,05,53,051,38,12,65,036,41,13,14,122,42,15,35,155,40*73
$GPGSV,4,2,15,18,34,272,36,20,20,036,21,23,31,206,42,24,41,190,43*7C
$GPGSV,4,3,15,25,42,343,33,29,11,333,,36,52,277,35,40,86,351,41*79
$GPGSV,4,4,15,41,58,082,,49,32,274,,50,10,089,*47
$GLGSV,3,1,11,65,14,191,33,71,17,082,23,72,32,134,37,74,08,155,37*6B
$GLGSV,3,2,11,75,59,160,41,76,55,330,33,77,09,333,,86,08,004,13*63
$GLGSV,3,3,11,87,19,321,,88,09,264,,,,,40*6F
$GNGLL,0420.04398,S,05539.68617,E,061356.00,A,D*6C
$GNGRS,061356.00,1,0.0,-0.9,0.4,0.0,0.1,0.0,-2.8,-3.6,-1.4,175,,*4C
$GNGRS,061356.00,1,15.3,10.5,2.3,-0.3,-15.1,5.4,10.1,,,,,*7C
$GNGST,061356.00,22632,,,,1.6,1.6,3.6*7C
$GNZDA,061356.00,23,05,2025,00,00*7E
$GNGBS,061356.00,1.6,1.6,3.6,,,,*5D
b0Lr&533(A$(z'#
%"$*d+) *WM{"4*V_D:R 
Y#
rA"GRH' ZJ$ K+;L!7JrMMVqWBX)*brrPJ$GNRMC,061358.00,A,0420.04398,S,05539.68614,E,0.020,,230525,,,D*79
$GNVTG,,T,,M,0.020,N,0.037,K,D*3E
$GNGNS,061358.00,0420.04398,S,05539.68614,E,DA,16,0.74,15.7,-47.6,,0000*61
$GNGGA,061358.00,0420.04398,S,05539.68614,E,2,12,0.74,15.7,M,-47.6,M,,0000*49
$GNGSA,A,3,24,20,05,13,15,12,18,25,23,40,,,1.34,0.74,1.12*14
$GNGSA,A,3,74,75,71,72,76,65,,,,,,,1.34,0.74,1.12*1B
$GPGSV,4,1,15,05,53,051,38,12,65,036,40,13,14,122,40,15,35,155,39*7E
$GPGSV,4,2,15,18,34,272,37,20,20,036,21,23,31,206,42,24,41,190,43*7D
$GPGSV,4,3,15,25,42,343,32,29,11,333,,36,52,277,34,40,86,351,42*7A
$GPGSV,4,4,15,41,58,082,,49,32,274,,50,10,089,*47
$GLGSV,3,1,11,65,14,191,34,71,17,082,24,72,32,134,39,74,08,155,36*64
$GLGSV,3,2,11,75,59,160,43,76,55,330,33,77,09,333,,86,08,004,13*61
$GLGSV,3,3,11,87,19,322,,88,09,264,,,,,41*6D
$GNGLL,0420.04398,S,05539.68614,E,061358.00,A,D*61
$GNGRS,061358.00,1,0.1,1.9,0.5,-0.1,0.0,-0.1,-2.7,-2.8,-1.6,175,,*6D
$GNGRS,061358.00,1,10.6,2.4,-3.8,-14.5,6.3,9.6,,,,,,*59
$GNGST,061358.00,994,,,,1.6,1.6,3.6*71
$GNZDA,061358.00,23,05,2025,00,00*70
$GNGBS,061358.00,1.6,1.6,3.6,,,,*53
$GNTXT,01,01,01,More than 100 frame errors, UART RX was disabled*70
$GNTXT,01,01,01,More than 100 frame errors, UART RX was disabled*70
$GNTXT,01,01,01,More than 100 frame errors, UART RX was disabled*70
b0Lx~&53(A$(z &#
%"$Q*+)!*WM{#4*V_cD:R 
Y"
rA"GRH& QJ$"K*;L 7J#MMV#?WBX)04bx~r$GNRMC,061401.00,A,0420.04399,S,05539.68611,E,0.044,,230525,,,D*74
$GNVTG,,T,,M,0.044,N,0.081,K,D*31
$GNGNS,061401.00,0420.04399,S,05539.68611,E,DA,17,0.74,15.6,-47.6,,0000*6E
$GNGGA,061401.00,0420.04399,S,05539.68611,E,2,12,0.74,15.6,M,-47.6,M,,0000*47
$GNGSA,A,3,24,20,05,13,15,12,18,25,23,40,,,1.34,0.74,1.12*14
$GNGSA,A,3,86,74,75,71,72,76,65,,,,,,1.34,0.74,1.12*15
$GPGSV,4,1,15,05,53,051,38,12,65,036,40,13,14,122,40,15,35,155,38*7F
$GPGSV,4,2,15,18,34,272,37,20,20,036,22,23,31,206,42,24,41,190,43*7E
$GPGSV,4,3,15,25,42,343,33,29,11,333,,36,52,277,35,40,86,351,42*7A
$GPGSV,4,4,15,41,58,082,,49,32,274,,50,10,089,*47
$GLGSV,3,1,11,65,14,191,34,71,17,082,29,72,32,134,38,74,08,155,36*68
$GLGSV,3,2,11,75,59,160,42,76,55,330,32,77,09,333,,86,08,004,13*61
$GLGSV,3,3,11,87,19,322,,88,09,264,,,,,41*6D
$GNGLL,0420.04399,S,05539.68611,E,061401.00,A,D*6E
$GNGRS,061401.00,1,-0.1,0.8,0.3,0.3,-0.3,-0.6,-2.7,-3.7,-1.3,175,,*40
$GNGRS,061401.00,1,162,10.6,2.4,-4.8,-14.5,2.9,12.4,,,,,*56
$GNGST,061401.00,994,,,,1.6,1.6,3.5*79
$GNZDA,061401.00,23,05,2025,00,00*7B
$GNGBS,061401.00,1.6,1.6,3.5,,,,*5B
$GNTXT,01,01,01,More than 100 frame errors, UART RX was disabled*70
b0LH&52'A$(z+&#
%"$*{+)!*WM{#4*V_bD:R 
Y"
rA GRiH% PJ!K);L7JMMV
WBX'nbHr$GNRMC,061403.00,A,0420.04401,S,05539.68613,E,0.026,,230525,,,D*76
$GNVTG,,T,,M,0.026,N,0.049,K,D*31
$GNGNS,061403.00,0420.04401,S,05539.68613,E,DA,16,0.74,15.8,-47.6,,0000*67
$GNGGA,061403.00,0420.04401,S,05539.68613,E,2,12,0.74,15.8,M,-47.6,M,,0000*4F
$GNGSA,A,3,24,20,05,13,15,12,18,25,23,40,,,1.34,0.74,1.12*14
$GNGSA,A,3,74,75,71,72,76,65,,,,,,,1.34,0.74,1.12*1B
$GPGSV,4,1,15,05,53,050,38,12,65,036,39,13,14,122,40,15,35,155,38*70
$GPGSV,4,2,15,18,34,272,37,20,20,036,21,23,31,206,42,24,41,190,43*7D
$GPGSV,4,3,15,25,42,343,33,29,11,333,,36,52,277,35,40,86,351,42*7A
$GPGSV,4,4,15,41,58,082,,49,32,274,,50,10,089,*47
$GLGSV,3,1,11,65,14,191,32,71,17,082,26,72,32,134,37,74,08,155,33*6B
$GLGSV,3,2,11,75,59,160,41,76,55,330,31,77,09,333,,86,08,004,10*62
$GLGSV,3,3,11,87,19,322,,88,09,264,,,,,39*62
$GNGLL,0420.04401,S,05539.68613,E,061403.00,A,D*68
$GNGRS,061403.00,1,-0.1,-2.7,0.1,0.4,0.0,-0.7,-3.2,-0.2,-1.3,175,,*4A
$GNGRS,061403.00,1,10.0,2.5,-4.1,-14.6,2.5,7.7,,,,,,*57
$GNGST,061403.00,994,,,,1.6,1.6,3.6*78
$GNZDA,061403.00,23,05,2025,00,00*79
$GNGBS,061403.00,1.6,1.6,3.6,,,,*5A
b0L0&52(A$)z''#
$"$a+|+) *W5M{#4*V_pD:R 
Y"
rA GR'H$ 6J UK);L7JMMV\WBX'lb0rZ$GNRMC,061404.00,A,0420.04402,S,05539.68614,E,0.058,,230525,,,D*7C
$GNVTG,,T,,M,0.058,N,0.108,K,D*3C
$GNGNS,061404.00,0420.04402,S,05539.68614,E,DA,17,0.74,15.8,-47.6,,0000*65
$GNGGA,061404.00,0420.04402,S,05539.68614,E,2,12,0.74,15.8,M,-47.6,M,,0000*4C
$GNGSA,A,3,24,20,05,13,15,12,18,25,23,40,,,1.34,0.74,1.12*14
$GNGSA,A,3,86,74,75,71,72,76,65,,,,,,1.34,0.74,1.12*15
$GPGSV,4,1,15,05,53,050,38,12,65,036,40,13,14,122,41,15,35,155,39*7E
$GPGSV,4,2,15,18,34,272,36,20,20,036,21,23,31,206,43,24,41,190,43*7D
$GPGSV,4,3,15,25,42,343,32,29,11,333,,36,52,277,35,40,86,351,42*7B
$GPGSV,4,4,15,41,58,082,,49,32,274,,50,10,089,*47
$GLGSV,3,1,11,65,14,191,32,71,17,082,27,72,32,134,36,74,08,155,32*6A
$GLGSV,3,2,11,75,59,160,41,76,55,330,31,77,09,333,,86,08,004,11*63
$GLGSV,3,3,11,87,19,322,,88,09,264,,,,,39*62
$GNGLL,0420.04402,S,05539.68614,E,061404.00,A,D*6B
$GNGRS,061404.00,1,-0.2,-1.6,-0.1,0.4,0.2,-0.6,-3.2,-2.0,-1.3,175,,*62
$GNGRS,061404.00,1,-47.7,11.1,2.6,-4.7,-14.8,2.1,6.8,,,,,*66
$GNGST,061404.00,994,,,,1.6,1.6,3.6*7F
$GNZDA,061404.00,23,05,2025,00,00*7E
$GNGBS,061404.00,1.6,1.6,3.6,,,,*5D
$GNTXT,01,01,01,More than 100 frame errors, UART RX was disabled*70
b0L&52(A$(z(#
%"$+y+)!*WM{#4+V_tD:R 
Y"
rA GRH% 5J#eK);L 7JMMV
WBX'br
$GNRMC,061406.00,A,0420.04405,S,05539.68616,E,0.048,,230525,,,D*7A
$GNVTG,,T,,M,0.048,N,0.089,K,D*35
$GNGNS,061406.00,0420.04405,S,05539.68616,E,DA,17,0.67,15.8,-47.6,,0000*60
$GNGGA,061406.00,0420.04405,S,05539.68616,E,2,12,0.67,15.8,M,-47.6,M,,0000*49
$GNGSA,A,3,24,20,05,13,15,12,18,25,23,40,,,1.15,0.67,0.94*1A
$GNGSA,A,3,86,74,75,71,72,76,65,,,,,,1.15,0.67,0.94*1B
$GPGSV,4,1,15,05,53,050,38,12,65,036,40,13,14,122,40,15,35,155,40*71
$GPGSV,4,2,15,18,34,272,37,20,20,036,19,23,31,206,43,24,41,190,43*77
$GPGSV,4,3,15,25,42,343,33,29,11,333,,36,52,277,35,40,86,351,43*7B
$GPGSV,4,4,15,41,58,082,,49,32,274,,50,10,089,*47
$GLGSV,3,1,11,65,14,191,32,71,17,082,28,72,32,134,37,74,08,155,35*63
$GLGSV,3,2,11,75,59,160,41,76,55,330,32,77,09,333,,86,08,004,10*61
$GLGSV,3,3,11,87,19,322,,88,09,264,,,,,39*62
$GNGLL,0420.04405,S,05539.68616,E,061406.00,A,D*6C
$GNGRS,061406.00,1,0.0,-2.9,0.1,0.2,-0.2,-0.5,-3.4,-2.9,-1.4,175,,*4E
$GNGRS,061406.00,1,15.2,13.8,2.2,-5.3,-14.8,2.6,10.2,,,,,*7B
$GNGST,061406.00,2803859,,,,1.6,1.6,3.6*74
$GNZDA,061406.00,23,05,2025,00,00*7C
$GNGBS,061406.00,1.6,1.6,3.6,,,,*5F
$GNTXT,01,01,01,More than 100 frame errors, UART RX was disabled*70
b0L&52(A$(z&#
$"$++)!*W/M{#4*V_[D:R 
Y"
rA GRH$ MJ$K);L7JMMVWBX'br`$GNRMC,061408.00,A,0420.04407,S,05539.68617,E,0.018,,230525,,,D*72
$GNVTG,,T,,M,0.018,N,0.034,K,D*36
$GNGNS,061408.00,0420.04407,S,05539.68617,E,DA,17,0.67,15.8,-47.6,,0000*6D
$GNGGA,061408.00,0420.04407,S,05539.68617,E,2,12,0.67,15.8,M,-47.6,M,,0000*44
$GNGSA,A,3,24,20,05,13,15,12,18,25,23,40,,,1.15,0.67,0.94*1A
$GNGSA,A,3,86,74,75,71,72,76,65,,,,,,1.15,0.67,0.94*1B
$GPGSV,4,1,15,05,53,050,38,12,65,036,40,13,14,122,40,15,35,155,38*7E
$GPGSV,4,2,15,18,34,272,36,20,20,036,22,23,31,206,43,24,41,190,43*7E
$GPGSV,4,3,15,25,42,343,33,29,11,333,,36,52,277,35,40,86,351,42*7A
$GPGSV,4,4,15,41,58,082,,49,32,274,,50,10,089,*47
$GLGSV,3,1,11,65,14,191,32,71,17,082,28,72,32,134,36,74,08,155,36*61
$GLGSV,3,2,11,75,59,160,41,76,55,330,31,77,09,333,,86,08,004,15*67
$GLGSV,3,3,11,87,19,322,,88,09,264,,,,,39*62
$GNGLL,0420.04407,S,05539.68617,E,061408.00,A,D*61
$GNGRS,061408.00,1,0.0,-3.3,0.1,0.1,-0.5,-0.3,-3.3,0.5,-1.3,175,,*6A
$GNGRS,061408.00,1,15.4,10.0,2.5,-5.3,-14.6,2.5,12.4,,,,,*76
$GNGST,061408.00,19809,,,,1.6,1.6,3.6*7E
$GNZDA,061408.00,23,05,2025,00,00*72
$GNGBS,061408.00,1.6,1.6,3.6,,,,*51
$GNTXT,01,01,01,More than 100 frame errors, UART RX was disabled*70
$GNTXT,01,01,01,More than 100 frame errors, UART RX was disabled*70
b0L&52(A%(z'#
%"$++)!*WM{#4*V_rD:R 
Y"
rnA kGRH$ ;JK);L 7J5MMV#WBX'Tbr0ix$GNRMC,061410.00,A,0420.04409,S,05539.68618,E,0.030,,230525,,,D*70
$GNVTG,,T,,M,0.030,N,0.056,K,D*38
$GNGNS,061410.00,0420.04409,S,05539.68618,E,DA,17,0.74,15.9,-47.6,,0000*66
$GNGGA,061410.00,0420.04409,S,05539.68618,E,2,12,0.74,15.9,M,-47.6,M,,0000*4F
$GNGSA,A,3,24,20,05,13,15,12,18,25,23,40,,,1.34,0.74,1.12*14
$GNGSA,A,3,86,74,75,71,72,76,65,,,,,,1.34,0.74,1.12*15
$GPGSV,4,1,15,05,53,050,38,12,65,037,40,13,14,122,40,15,35,155,39*7E
$GPGSV,4,2,15,18,34,272,37,20,20,036,21,23,31,206,43,24,41,190,43*7C
$GPGSV,4,3,15,25,42,343,33,29,11,333,,36,52,277,35,40,86,351,42*7A
$GPGSV,4,4,15,41,58,082,,49,32,274,,50,10,089,*47
$GLGSV,3,1,11,65,14,191,32,71,17,082,28,72,32,134,36,74,08,155,26*60
$GLGSV,3,2,11,75,59,160,41,76,55,330,32,77,09,333,,86,08,004,13*62
$GLGSV,3,3,11,87,19,322,,88,09,264,,,,,39*62
$GNGLL,0420.04409,S,05539.68618,E,061410.00,A,D*69
$GNGRS,061410.00,1,-0.1,-3.7,0.0,-0.1,-0.5,-0.2,-3.6,-0.2,-1.2,175,,*48
$GNGRS,061410.00,1,90.9,16.7,2.7,-7.4,-14.8,3.1,16.4,,,,,*76
$GNGST,061410.00,994,,,,1.6,1.6,3.6*7A
$GNZDA,061410.00,23,05,2025,00,00*7B
$GNGBS,061410.00,1.6,1.6,3.6,,,,*58
$GNTXT,01,01,01,More than 100 frame errors, UART RX was disabled*70
$GNGNS,061411.00,0420.04410,S,05539.68619,E,DA,17,0.67,15.9,-47.6,,0000*6C
$GNGGA,061411.00,0420.04410,S,05539.68619,E,2,12,0.67,15.9,M,-47.6,M,,0000*45
$GNGSA,A,3,24,20,05,13,15,12,18,25,23,40,,,1.15,0.67,0.94*1A
$GNGSA,A,3,86,74,75,71,72,76,65,,,,,,1.15,0.67,0.94*1B
$GPGSV,4,1,15,05,53,050,38,12,65,037,40,13,14,122,39,15,35,155,38*71
$GPGSV,4,2,15,18,34,272,36,20,20,036,21,23,31,206,43,24,41,190,43*7D
$GPGSV,4,3,15,25,42,343,33,29,11,333,,36,52,277,35,40,86,351,42*7A
$GPGSV,4,4,15,41,58,082,,49,32,274,,50,10,089,*47
$GLGSV,3,1,11,65,14,191,33,71,17,082,29,72,32,134,36,74,08,155,24*62
$GLGSV,3,2,11,75,59,160,41,76,55,330,32,77,09,333,,86,08,004,10*61
$GLGSV,3,3,11,87,19,322,,88,09,264,,,,,39*62
$GNGLL,0420.04410,S,05539.68619,E,061411.00,A,D*61
$GNGRS,061411.00,1,-0.1,-4.0,-0.1,-0.1,-0.5,-0.2,-3.6,-0.6,-1.2,175,,*61
$GNGRS,061411.00,1,15.5,15.4,2.3,-9.9,-14.7,2.6,14.7,,,,,*79
$GNGST,061411.00,22632,,,,1.6,1.6,3.6*78
$GNZDA,061411.00,23,05,2025,00,00*7A
$GNGBS,061411.00,1.6,1.6,3.6,,,,*59
$GNTXT,01,01,01,More than 100 frame errors, UART RX was disabled*70
b0Lp&52(A%'z%#
$"$+}+)!*W`M{#4*V_dD:R 
Y#
rA GRH% 5J!K(;L 7JkMMVWBX'gbpr$H$GNRMC,061412.00,A,0420.04410,S,05539.68619,E,0.037,,230525,,,D*7C
$GNVTG,,T,,M,0.037,N,0.069,K,D*33
$GNGNS,061412.00,0420.04410,S,05539.68619,E,DA,17,0.68,15.9,-47.6,,0000*60
$GNGGA,061412.00,0420.04410,S,05539.68619,E,2,12,0.68,15.9,M,-47.6,M,,0000*49
$GNGSA,A,3,24,20,05,13,15,12,18,25,23,40,,,1.19,0.68,0.98*15
$GNGSA,A,3,86,74,75,71,72,76,65,,,,,,1.19,0.68,0.98*14
$GPGSV,4,1,15,05,53,050,38,12,65,037,40,13,14,122,39,15,35,155,37*7E
$GPGSV,4,2,15,18,34,272,36,20,20,036,21,23,31,206,43,24,41,190,43*7D
$GPGSV,4,3,15,25,42,343,33,29,11,333,,36,52,277,35,40,86,351,42*7A
$GPGSV,4,4,15,41,58,082,,49,32,274,,50,10,089,*47
$GLGSV,3,1,11,65,14,191,32,71,17,082,29,72,32,134,37,74,08,155,33*64
$GLGSV,3,2,11,75,59,160,40,76,55,330,32,77,09,333,,86,08,004,12*62
$GLGSV,3,3,11,87,19,322,,88,09,264,,,,,39*62
$GNGLL,0420.04410,S,05539.68619,E,061412.00,A,D*62
$GNGRS,061412.00,1,-0.2,-3.7,-0.3,0.0,-0.7,-0.1,-3.5,1.0,-1.3,175,,*66
$GNGRS,061412.00,1,15.3,17.0,2.0,-8.3,-14.8,3.6,15.0,,,,,*7A
$GNGST,061412.00,34915,,,,1.6,1.6,3.6*76
$GNZDA,061412.00,23,05,2025,00,00*79
$GNGBS,061412.00,1.6,1.6,3.6,,,,*5A
$GNGSA,A,3,24,20,05,13,15,12,18,25,23,40,,,1.34,0.74,1.12*14
$GNTXT,01,01,01,More than 100 frame errors, UART RX was disabled*70
b0L@&52(A%(z6&#
$"$+v+)!*WM{#4*V_rD:R 
Y"
r@A ?GR&H% MJ 'K);L7JMMVWBX' b@r+$GNRMC,061414.00,A,0420.04413,S,05539.68619,E,0.101,,230525,,,D*7D
$GNVTG,,T,,M,0.101,N,0.186,K,D*37
$GNGNS,061414.00,0420.04413,S,05539.68619,E,DA,17,0.67,16.0,-47.6,,0000*60
$GNGGA,061414.00,0420.04413,S,05539.68619,E,2,12,0.67,16.0,M,-47.6,M,,0000*49
$GNGSA,A,3,24,20,05,13,15,12,18,25,23,40,,,1.15,0.67,0.94*1A
$GNGSA,A,3,86,74,75,71,72,76,65,,,,,,1.15,0.67,0.94*1B
$GPGSV,4,1,15,05,53,050,38,12,65,037,40,13,14,122,40,15,35,155,38*7F
$GNTXT,01,01,01,More than 100 frame errors, UART RX was disabled*70
b0L(&52(A%(zI'#
$"$|+z+)!*WuM{#4*V_~D:R 
Y"
ryA 7GRH% IJ!K);L 7J#MMVWBX'b(r/}$GNRMC,061415.00,A,0420.04414,S,05539.68618,E,0.039,,230525,,,D*70
$GNVTG,,T,,M,0.039,N,0.073,K,D*36
$GNGNS,061415.00,0420.04414,S,05539.68618,E,DA,17,0.67,16.0,-47.6,,0000*67
$GNGGA,061415.00,0420.04414,S,05539.68618,E,2,12,0.67,16.0,M,-47.6,M,,0000*4E
$GNGSA,A,3,24,20,05,13,15,12,18,25,23,40,,,1.15,0.67,0.94*1A
$GNTXT,01,01,01,More than 100 frame errors, UART RX was disabled*70
b0L&52(A%(z2%#
$"$++) *W8M{#4*V_D:R 
Y!
rAGRH% fJ#KK);L 7JMMV
7WBX&br3x$GNRMC,061416.00,A,0420.04415,S,05539.68618,E,0.078,,230525,,,D*77
$GNVTG,,T,,M,0.078,N,0.145,K,D*37
$GNGNS,061416.00,0420.04415,S,05539.68618,E,DA,16,0.74,15.9,-47.6,,0000*6C
$GNGGA,061416.00,0420.04415,S,05539.68618,E,2,12,0.74,15.9,M,-47.6,M,,0000*44
$GNGSA,A,3,24,20,05,13,15,12,18,25,23,40,,,1.34,0.74,1.12*14
$GNGSA,A,3,74,75,71,72,76,65,,,,,,,1.34,0.74,1.12*1B
$GPGSV,4,1,15,05,53,050,38,12,65,037,40,13,14,122,40,15,35,155,37*70
$GPGSV,4,2,15,18,34,273,36,20,20,036,21,23,31,206,43,24,41,190,43*7C
$GPGSV,4,3,15,25,42,343,32,29,11,333,,36,52,277,35,40,86,351,42*7B
$GPGSV,4,4,15,41,58,082,,49,32,274,,50,10,089,*47
$GLGSV,3,1,11,65,14,191,31,71,17,082,29,72,32,134,37,74,08,155,35*61
$GLGSV,3,2,11,75,59,160,41,76,55,330,32,77,09,333,,86,08,004,10*61
$GLGSV,3,3,11,87,19,322,,88,09,264,,,,,38*63
$GNGLL,0420.04415,S,05539.68618,E,061416.00,A,D*62
$GNGRS,061416.00,1,-0.1,-3.6,-0.1,0.5,-1.2,-0.4,-3.1,-2.0,-1.0,176,,*4C
$GNGRS,061416.00,1,16.1,2.0,-8.2,-14.3,1.9,13.1,,,,,,*67
$GNGST,061416.00,994,,,,1.6,1.6,3.6*7C
$GNZDA,061416.00,23,05,2025,00,00*7D
$GNGBS,061416.00,1.6,1.6,3.6,,,,*5E
$GNTXT,01,01,01,More than 100 frame errors, UART RX was disabled*70
b0L&52(A%)z!)#%
""$,+*)$*WOM{$4)V_D:R 
Y$
rAGR/H& VJ!K(;L 7JMMVWBX(Ibrp;'$GNRMC,061418.00,A,0420.04416,S,05539.68616,E,0.022,,230525,,,D*7B
$GNVTG,,T,,M,0.022,N,0.041,K,D*3D
$GNGNS,061418.00,0420.04416,S,05539.68616,E,DA,17,0.67,15.9,-47.6,,0000*6C
$GNGGA,061418.00,0420.04416,S,05539.68616,E,2,12,0.67,15.9,M,-47.6,M,,0000*45
$GNGSA,A,3,24,20,05,13,15,12,18,25,23,40,,,1.15,0.67,0.94*1A
$GNGSA,A,3,86,74,75,71,72,76,65,,,,,,1.15,0.67,0.94*1B
$GPGSV,4,1,15,05,53,050,38,12,65,037,40,13,14,122,41,15,35,155,41*70
$GPGSV,4,2,15,18,34,273,34,20,19,036,23,23,31,206,43,24,41,190,42*77
$GPGSV,4,3,15,25,42,343,36,29,11,333,,36,52,277,36,40,86,351,41*7F
$GPGSV,4,4,15,41,58,082,,49,32,274,,50,10,089,*47
$GLGSV,3,1,11,65,14,191,31,71,17,082,23,72,32,134,38,74,08,155,33*62
$GLGSV,3,2,11,75,59,160,40,76,55,330,32,77,09,333,,86,08,004,11*61
$GLGSV,3,3,11,87,19,322,,88,09,264,,,,,40*6C
$GNGLL,0420.04416,S,05539.68616,E,061418.00,A,D*61
$GNGRS,061418.00,1,-0.1,-2.1,0.2,0.3,0.4,-0.2,-2.5,-1.8,-0.9,176,,*46
$GNGRS,061418.00,1,15.2,12.2,2.1,-7.2,-14.5,2.2,12.9,,,,,*7F
$GNGST,061418.00,53712,,,,1.6,1.6,3.6*74
$GNZDA,061418.00,23,05,2025,00,00*73
$GNGBS,061418.00,1.6,1.6,3.6,,,,*50
$GNTXT,01,01,01,More than 100 frame errors, UART RX was disabled*70
$GNTXT,01,01,01,More than 100 frame errors, UART RX was disabled*70
$GNTXT,01,01,01,More than 100 frame errors, UART RX was disabled*70
$GNTXT,01,01,01,More than 100 frame errors, UART RX was disabled*70
$GNTXT,01,01,01,More than 100 frame errors, UART RX was disabled*70
$GNRMC,061424.00,A,0420.04420,S,05539.68615,E,0.045,,230525,,,D*73
$GNVTG,,T,,M,0.045,N,0.083,K,D*32
$GNGNS,061424.00,0420.04420,S,05539.68615,E,DA,17,0.67,15.9,-47.6,,0000*65
$GNGGA,061424.00,0420.04420,S,05539.68615,E,2,12,0.67,15.9,M,-47.6,M,,0000*4C
$GNGSA,A,3,24,20,05,13,15,12,18,25,23,40,,,1.15,0.67,0.94*1A
$GNGSA,A,3,86,74,75,71,72,76,65,,,,,,1.15,0.67,0.94*1B
$GPGSV,4,1,15,05,53,050,38,12,65,037,41,13,14,122,42,15,35,155,39*7D
$GPGSV,4,2,15,18,34,273,36,20,19,036,21,23,32,206,43,24,41,190,42*74
$GPGSV,4,3,15,25,43,343,34,29,11,333,,36,52,277,37,40,86,351,41*7D
$GPGSV,4,4,15,41,58,082,,49,32,274,,50,10,089,*47
$GLGSV,3,1,11,65,14,191,33,71,17,082,17,72,32,134,37,74,08,155,34*6F
$GLGSV,3,2,11,75,59,160,41,76,55,330,33,77,09,333,,86,08,004,13*63
$GLGSV,3,3,11,87,19,322,,88,09,264,,,,,40*6C
$GNGLL,0420.04420,S,05539.68615,E,061424.00,A,D*68
$GNGRS,061424.00,1,0.1,1.3,-0.1,-0.4,1.1,0.1,-5.1,-4.6,-1.4,176,,*62
$GNGRS,061424.00,1,15.3,14.2,2.9,-1.8,-14.0,3.2,12.4,,,,,*7A
$GNGST,061424.00,4349,,,,1.6,1.6,3.6*43
$GNZDA,061424.00,23,05,2025,00,00*7C
$GNGBS,061424.00,1.6,1.6,3.6,,,,*5F
$GNGRS,061425.00,1,13.8,2.8,0.4,-14.0,1.7,7.6,,,,,,*7F
$GNGST,061425.00,995,,,,1.6,1.6,3.6*7D
$GNZDA,061425.00,23,05,2025,00,00*7D
$GNGBS,061425.00,1.6,1.6,3.6,,,,*5E
b0L &52&)A%)z'#j
""$+ m+)#+WN{$4)V_D:R 
Y$
r"A!GR
H% sJ"K);L!7JMMVWBX(]b rZ$GNRMC,061426.00,A,0420.04422,S,05539.68617,E,0.007,,230525,,,D*77
$GNVTG,,T,,M,0.007,N,0.013,K,D*3D
$GNGNS,061426.00,0420.04422,S,05539.68617,E,DA,16,0.74,15.9,-47.6,,0000*64
$GNGGA,061426.00,0420.04422,S,05539.68617,E,2,12,0.74,15.9,M,-47.6,M,,0000*4C
$GNGSA,A,3,24,20,05,13,15,12,18,25,23,40,,,1.34,0.74,1.12*14
$GNGSA,A,3,74,75,71,72,76,65,,,,,,,1.34,0.74,1.12*1B
$GPGSV,4,1,15,05,53,050,38,12,65,037,41,13,14,122,41,15,35,155,39*7E
$GPGSV,4,2,15,18,34,273,34,20,19,036,22,23,32,206,43,24,41,190,43*74
$GPGSV,4,3,15,25,43,343,35,29,11,334,,36,52,277,36,40,86,351,41*7A
$GPGSV,4,4,15,41,58,082,,49,32,274,,50,10,089,*47
$GLGSV,3,1,11,65,14,191,33,71,17,082,15,72,32,134,37,74,08,155,34*6D
$GLGSV,3,2,11,75,59,160,41,76,55,330,33,77,09,333,,86,08,004,13*63
$GLGSV,3,3,11,87,19,322,,88,09,264,,,,,40*6C
$GNGLL,0420.04422,S,05539.68617,E,061426.00,A,D*6A
$GNGRS,061426.00,1,-0.1,1.6,0.4,0.2,1.1,-0.1,-1.2,-2.9,-1.5,176,,*69
$GNGRS,061426.00,1,12.5,2.9,0.1,-14.2,-2.3,10.3,,,,,,*6F
$GNGST,061426.00,995,,,,1.6,1.6,3.6*7E
$GNZDA,061426.00,23,05,2025,00,00*7E
$GNGBS,061426.00,1.6,1.6,3.6,,,,*5D
$GNTXT,01,01,01,More than 100 frame errors, UART RX was disabled*70
b0L&52!(A%'z
'#>
$"$F+ +)"+WN{$4)V_D:R 
Y$
rA!GR*H% bJ"K(;)L!7JMMVWBX(Sbr^K$GNRMC,061427.00,A,0420.04421,S,05539.68615,E,0.024,,230525,,,D*76
$GNVTG,,T,,M,0.024,N,0.044,K,D*3E
$GNGNS,061427.00,0420.04421,S,05539.68615,E,DA,16,0.74,15.8,-47.6,,0000*65
$GNGGA,061427.00,0420.04421,S,05539.68615,E,2,12,0.74,15.8,M,-47.6,M,,0000*4D
$GNGSA,A,3,24,20,05,13,15,12,18,25,23,40,,,1.34,0.74,1.12*14
$GNGSA,A,3,74,75,71,72,76,65,,,,,,,1.34,0.74,1.12*1B
$GPGSV,4,1,15,05,53,050,38,12,65,037,40,13,14,122,39,15,35,155,39*70
$GPGSV,4,2,15,18,34,273,36,20,19,036,23,23,32,206,43,24,41,190,43*77
$GPGSV,4,3,15,25,43,343,34,29,11,334,,36,52,277,36,40,86,351,41*7B
$GPGSV,4,4,15,41,58,082,,49,32,274,,50,10,089,*47
$GLGSV,3,1,11,65,14,191,33,71,17,082,18,72,32,134,37,74,08,155,34*60
$GLGSV,3,2,11,75,59,160,40,76,55,330,33,77,09,333,,86,08,004,13*62
$GLGSV,3,3,11,87,19,322,,88,09,264,,,,,40*6C
$GNGLL,0420.04421,S,05539.68615,E,061427.00,A,D*6A
$GNGRS,061427.00,1,-0.1,0.7,0.3,0.1,0.6,-0.3,-1.3,-0.8,-1.3,176,,*6C
$GNGRS,061427.00,1,10.1,3.0,-2.1,-14.4,2.1,14.8,,,,,,*69
$GNGST,061427.00,994,,,,1.6,1.6,3.6*7E
$GNZDA,061427.00,23,05,2025,00,00*7F
$GNGBS,061427.00,1.6,1.6,3.6,,,,*5C
$GNTXT,01,01,01,More than 100 frame errors, UART RX was disabled*70
b0L'523(A%(z&#B
%"0$+ d*)"+W+N{#4*V_D:R 
Y$
rA"bGRH% LJ sK);DL!7JMMVC?WBX&brb$GNRMC,061428.00,A,0420.04423,S,05539.68615,E,0.033,,230525,,,D*7D
$GNVTG,,T,,M,0.033,N,0.062,K,D*3C
$GNGNS,061428.00,0420.04423,S,05539.68615,E,DA,16,0.74,15.9,-47.6,,0000*69
$GNGGA,061428.00,0420.04423,S,05539.68615,E,2,12,0.74,15.9,M,-47.6,M,,0000*41
$GNGSA,A,3,24,20,05,13,15,12,18,25,23,40,,,1.34,0.74,1.12*14
$GNGSA,A,3,74,75,71,72,76,65,,,,,,,1.34,0.74,1.12*1B
$GPGSV,4,1,15,05,53,050,39,12,65,037,40,13,14,122,40,15,35,155,38*7E
$GPGSV,4,2,15,18,34,273,37,20,19,036,22,23,32,206,43,24,41,190,42*76
$GPGSV,4,3,15,25,43,343,34,29,11,334,,36,52,277,35,40,86,351,42*7B
$GPGSV,4,4,15,41,58,082,,49,32,274,,50,10,089,*47
$GLGSV,3,1,11,65,14,191,34,71,17,082,17,72,32,134,37,74,08,155,32*6E
$GLGSV,3,2,11,75,59,160,41,76,55,330,33,77,09,333,,86,08,004,13*63
$GLGSV,3,3,11,87,19,322,,88,09,264,,,,,38*63
$GNGLL,0420.04423,S,05539.68615,E,061428.00,A,D*67
$GNGRS,061428.00,1,0.1,0.0,0.5,0.0,0.7,-0.5,-2.1,-2.1,-1.6,175,,*45
$GNGRS,061428.00,1,11.4,3.2,-3.4,-14.6,-1.0,16.3,,,,,,*40
$GNGST,061428.00,995,,,,1.6,1.6,3.6*70
$GNZDA,061428.00,23,05,2025,00,00*70
$GNGBS,061428.00,1.6,1.6,3.6,,,,*53
$GNTXT,01,01,01,More than 100 frame errors, UART RX was disabled*70
b0L'52(A%%z##E
$"!$g+ o+)"+WN{$4(V_D:R 
Y"
rA"GRH% ;JZK(;>L!7J*MMVWBX'brhfm$GNRMC,061429.00,A,0420.04425,S,05539.68614,E,0.049,,230525,,,D*76
$GNVTG,,T,,M,0.049,N,0.091,K,D*3D
$GNGNS,061429.00,0420.04425,S,05539.68614,E,DA,16,0.74,15.9,-47.6,,0000*6F
$GNGGA,061429.00,0420.04425,S,05539.68614,E,2,12,0.74,15.9,M,-47.6,M,,0000*47
$GNGSA,A,3,24,20,05,13,15,12,18,25,23,40,,,1.34,0.74,1.12*14
$GNGSA,A,3,74,75,71,72,76,65,,,,,,,1.34,0.74,1.12*1B
$GPGSV,4,1,15,05,53,050,39,12,65,037,40,13,14,122,37,15,35,155,35*73
$GPGSV,4,2,15,18,34,273,36,20,19,036,22,23,32,206,43,24,41,190,43*76
$GPGSV,4,3,15,25,43,343,34,29,11,334,,36,52,277,36,40,86,351,40*7A
$GPGSV,4,4,15,41,58,082,,49,32,274,,50,10,089,*47
$GLGSV,3,1,11,65,14,191,34,71,17,082,21,72,32,134,37,74,08,155,31*68
$GLGSV,3,2,11,75,59,160,40,76,55,330,33,77,09,333,,86,08,004,14*65
$GLGSV,3,3,11,87,19,322,,88,09,264,,,,,39*62
$GNGLL,0420.04425,S,05539.68614,E,061429.00,A,D*61
$GNGRS,061429.00,1,0.2,1.0,0.3,0.0,0.7,-0.5,-2.2,-0.7,-1.4,175,,*45
$GNGRS,061429.00,1,11.1,3.2,-5.2,-14.8,0.4,12.1,,,,,,*64
$GNGST,061429.00,994,,,,1.6,1.6,3.6*70
$GNZDA,061429.00,23,05,2025,00,00*71
$GNGBS,061429.00,1.6,1.6,3.6,,,,*52
b0L'52
(A%'z&#?
#"$+ *)!+WN{$4(V_D:R 
Y"
rA!GRTH% 8J!K(;L!7JMMV
WBX'TbrPjEt$GNRMC,061430.00,A,0420.04424,S,05539.68611,E,0.014,,230525,,,D*72
$GNVTG,,T,,M,0.014,N,0.026,K,D*39
$GNGNS,061430.00,0420.04424,S,05539.68611,E,DA,16,0.74,15.9,-47.6,,0000*63
$GNGGA,061430.00,0420.04424,S,05539.68611,E,2,12,0.74,15.9,M,-47.6,M,,0000*4B
$GNGSA,A,3,24,20,05,13,15,12,18,25,23,40,,,1.34,0.74,1.12*14
$GNGSA,A,3,74,75,71,72,76,65,,,,,,,1.34,0.74,1.12*1B
$GPGSV,4,1,15,05,53,050,39,12,65,037,40,13,14,122,39,15,35,155,38*70
$GPGSV,4,2,15,18,34,273,35,20,19,036,22,23,32,206,43,24,41,190,42*74
$GPGSV,4,3,15,25,43,343,33,29,11,334,,36,52,277,36,40,86,351,40*7D
$GPGSV,4,4,15,41,58,082,,49,32,274,,50,10,089,*47
$GLGSV,3,1,11,65,14,191,33,71,17,082,25,72,32,134,37,74,08,155,33*69
$GLGSV,3,2,11,75,59,160,40,76,55,330,33,77,09,333,,86,08,004,10*61
$GLGSV,3,3,11,87,19,322,,88,09,264,,,,,39*62
