b0Lp 87(!>}!"
"0&+'W
J{4V_zE :R 
Y
qAGVHJ[K?UL3MUMNV

W>X&bprNz[$GNVTG,,T,,M,0.051,N,0.095,K,D*30
$GNGNS,060644.00,0420.04140,S,05539.68872,E,DA,15,0.73,17.0,-47.6,,0000*60
$GNGGA,060644.00,0420.04140,S,05539.68872,E,2,12,0.73,17.0,M,-47.6,M,,0000*4B
$GNGSA,A,3,24,05,13,15,12,18,25,23,40,,,,1.34,0.73,1.13*10
$GNGSA,A,3,86,74,75,71,72,76,,,,,,,1.34,0.73,1.13*10
$GPGSV,4,1,15,05,56,055,32,12,62,031,33,13,14,125,23,15,34,158,33*75
$GPGSV,4,2,15,18,34,267,30,20,23,038,12,23,28,206,27,24,43,193,23*7F
$GPGSV,4,3,15,25,39,343,24,29,10,330,,36,52,277,,40,86,351,31*70
$GNTXT,01,01,01,More than 100 frame errors, UART RX was disabled*70
b0LX87h >X} "t
"&c+'W
J{4 V_E :R 
Y
qAGVHJK?L3MMNV
qW>X
bXrQz2$GNRMC,060645.00,A,0420.04143,S,05539.68873,E,0.068,,230525,,,D*76
$GNVTG,,T,,M,0.068,N,0.125,K,D*30
$GNGNS,060645.00,0420.04143,S,05539.68873,E,DA,15,0.73,16.9,-47.6,,0000*6B
$GNGGA,060645.00,0420.04143,S,05539.68873,E,2,12,0.73,16.9,M,-47.6,M,,0000*40
$GNGSA,A,3,24,05,13,15,12,18,25,23,40,,,,1.26,0.73,1.03*12
$GNGSA,A,3,86,74,75,71,72,76,,,,,,,1.26,0.73,1.03*12
$GPGSV,4,1,15,05,56,055,30,12,62,031,32,13,14,125,23,15,34,158,32*77
$GPGSV,4,2,15,18,34,267,26,20,23,038,13,23,28,206,26,24,43,193,23*78
$GPGSV,4,3,15,25,39,343,23,29,10,330,,36,52,277,,40,86,351,32*74
$GPGSV,4,4,15,41,58,082,32,49,32,274,,50,10,089,*46
$GLGSV,3,1,11,65,11,194,18,71,18,086,26,72,30,139,21,74,12,155,13*69
$GLGSV,3,2,11,75,63,156,30,76,51,333,28,77,06,334,,86,10,001,09*6B
$GLGSV,3,3,11,87,21,318,,88,09,260,,,,,29*65
$GNGLL,0420.04143,S,05539.68873,E,060645.00,A,D*62
$GNGRS,060645.00,1,-0.8,-1.5,2.0,3.7,-1.7,-0.1,4.3,-1.6,178,,,*4F
$GNGRS,060645.00,1,11.4,12.7,1.4,-5.1,-16.1,1.8,,,,,,*6F
$GNGST,060645.00,2973941,,,,3.2,3.2,7.1*7D
$GNZDA,060645.00,23,05,2025,00,00*78
$GNGBS,060645.00,3.2,3.2,7.1,,,,*58
$GNTXT,01,01,01,More than 100 frame errors, UART RX was disabled*70
b0L@87 >}!"M
"7&U@+'WB
J{4!V_~E":R 
Y
qAG V"HJK?@L3MMNV
W>X!b@rUz
u$GNRMC,060646.00,A,0420.04147,S,05539.68867,E,0.037,,230525,,,D*7E
$GNVTG,,T,,M,0.037,N,0.069,K,D*33
$GNGNS,060646.00,0420.04147,S,05539.68867,E,DA,16,0.70,17.1,-47.6,,0000*60
$GNGGA,060646.00,0420.04147,S,05539.68867,E,2,12,0.70,17.1,M,-47.6,M,,0000*48
$GNGSA,A,3,24,20,05,13,15,12,18,25,23,40,,,1.23,0.70,1.02*17
$GNGSA,A,3,86,74,75,71,72,76,,,,,,,1.23,0.70,1.02*15
$GPGSV,4,1,15,05,56,055,29,12,62,031,32,13,14,125,23,15,34,158,33*7E
$GPGSV,4,2,15,18,34,268,29,20,23,038,18,23,28,206,27,24,43,193,22*73
$GPGSV,4,3,15,25,39,343,22,29,10,330,,36,52,277,,40,86,351,33*74
$GPGSV,4,4,15,41,58,082,34,49,32,274,,50,10,089,*40
$GLGSV,3,1,11,65,11,194,18,71,18,086,32,72,30,139,22,74,12,155,14*68
b0L(87>}!"Q
"&+'W
J{4 V_lE!:R 
Y
qAGVHHJK!?L3MMNV
W>Xb(rYz$GNRMC,060647.00,A,0420.04149,S,05539.68864,E,0.081,,230525,,,D*7F
$GNVTG,,T,,M,0.081,N,0.150,K,D*35
$GNGNS,060647.00,0420.04149,S,05539.68864,E,DA,16,0.70,17.3,-47.6,,0000*6E
$GNGGA,060647.00,0420.04149,S,05539.68864,E,2,12,0.70,17.3,M,-47.6,M,,0000*46
$GNGSA,A,3,24,20,05,13,15,12,18,25,23,40,,,1.23,0.70,1.02*17
$GNGSA,A,3,86,74,75,71,72,76,,,,,,,1.23,0.70,1.02*15
$GPGSV,4,1,15,05,56,055,27,12,62,031,31,13,14,125,23,15,34,158,33*73
$GPGSV,4,2,15,18,34,268,30,20,23,038,20,23,28,206,27,24,43,193,23*71
$GPGSV,4,3,15,25,39,343,23,29,10,330,,36,52,277,,40,86,351,32*74
$GPGSV,4,4,15,41,58,082,33,49,32,274,,50,10,089,*47
b0L87!>}X#"%
"&nm+'W
J{4V_fE :R 
Y
q1AGVHJK ?L3MEMNV
HW>X"braz$GNRMC,060649.00,A,0420.04156,S,05539.68863,E,0.054,,230525,,,D*70
$GNVTG,,T,,M,0.054,N,0.100,K,D*38
$GNGNS,060649.00,0420.04156,S,05539.68863,E,DA,16,0.76,17.8,-47.6,,0000*64
b0L87m>}#"
!"^&#+'W
J{4#V_E:R 
Y
qAGVHJK?L3MqMNV

W>X
brpezi$GNRMC,060650.00,A,0420.04158,S,05539.68861,E,0.464,,230525,,,D*73
$GNVTG,,T,,M,0.464,N,0.860,K,D*30
$GNTXT,01,01,01,More than 100 frame errors, UART RX was disabled*70
b0L#87v>}j "
"l&[+`'WD
J{4&V_E&:R 
Y
qaAGVH9JK"?,L3MMNV

|W>XbrXizAn$GNRMC,060651.00,A,0420.04155,S,05539.68852,E,0.197,,230525,,,D*76
$GNVTG,,T,,M,0.197,N,0.364,K,D*36
$GNGNS,060651.00,0420.04155,S,05539.68852,E,DA,16,0.70,18.5,-47.6,,0000*68
$GNGGA,060651.00,0420.04155,S,05539.68852,E,2,12,0.70,18.5,M,-47.6,M,,0000*40
$GNGSA,A,3,24,20,05,13,15,12,18,25,23,40,,,1.23,0.70,1.02*17
$GNGSA,A,3,86,74,75,71,72,76,,,,,,,1.23,0.70,1.02*15
$GNTXT,01,01,01,More than 100 frame errors, UART RX was disabled*70
b0L#87#>}""
"@&+s'W
J{4&V_nE%:R 
Y
qAGVHgJhK#?L3M$MNV
vW>Xbr@mz$GNRMC,060652.00,A,0420.04159,S,05539.68854,E,0.200,,230525,,,D*72
$GNVTG,,T,,M,0.200,N,0.370,K,D*3E
$GNGNS,060652.00,0420.04159,S,05539.68854,E,DA,16,0.76,18.7,-47.6,,0000*65
$GNGGA,060652.00,0420.04159,S,05539.68854,E,2,12,0.76,18.7,M,-47.6,M,,0000*4D
$GNGSA,A,3,24,20,05,13,15,12,18,25,23,40,,,1.43,0.76,1.21*16
$GNGSA,A,3,86,74,75,71,72,76,,,,,,,1.43,0.76,1.21*14
$GPGSV,4,1,15,05,56,055,35,12,62,031,31,13,14,125,23,15,34,158,34*77
$GPGSV,4,2,15,18,34,268,29,20,22,038,17,23,28,206,24,24,43,193,30*7D
$GPGSV,4,3,15,25,39,343,12,29,10,330,,36,52,277,,40,86,351,38*7C
$GPGSV,4,4,15,41,58,082,37,49,32,274,,50,10,089,*43
$GLGSV,3,1,11,65,11,194,15,71,18,086,26,72,30,139,31,74,12,155,17*61
$GLGSV,3,2,11,75,63,156,35,76,51,333,22,77,06,334,,86,10,001,12*6E
$GLGSV,3,3,11,87,21,318,,88,09,260,,,,,29*65
$GNGLL,0420.04159,S,05539.68854,E,060652.00,A,D*6A
$GNTXT,01,01,01,More than 100 frame errors, UART RX was disabled*70
b0L$87>}h""
"&+'W
J{4'V_AE&:R 
Y
qCAGVHwJK!?L3MMNV
W>XYbr(qz>$GNRMC,060653.00,A,0420.04161,S,05539.68858,E,0.109,,230525,,,D*7E
$GNVTG,,T,,M,0.109,N,0.202,K,D*30
$GNGNS,060653.00,0420.04161,S,05539.68858,E,DA,16,0.70,19.0,-47.6,,0000*63
$GNGGA,060653.00,0420.04161,S,05539.68858,E,2,12,0.70,19.0,M,-47.6,M,,0000*4B
$GNGSA,A,3,24,20,05,13,15,12,18,25,23,40,,,1.23,0.70,1.02*17
$GNGSA,A,3,86,74,75,71,72,76,,,,,,,1.23,0.70,1.02*15
$GPGSV,4,1,15,05,56,055,36,12,62,031,31,13,14,125,24,15,34,158,34*73
$GPGSV,4,2,15,18,34,268,29,20,22,038,16,23,28,206,24,24,43,193,29*74
$GPGSV,4,3,15,25,39,343,16,29,10,330,,36,52,277,,40,86,351,39*79
$GPGSV,4,4,15,41,58,082,38,49,32,274,,50,10,089,*4C
$GLGSV,3,1,11,65,11,194,13,71,18,086,25,72,30,139,30,74,12,155,15*67
$GLGSV,3,2,11,75,63,156,33,76,51,333,22,77,06,334,,86,10,001,09*62
$GLGSV,3,3,11,87,21,318,,88,09,260,,,,,29*65
$GNGLL,0420.04161,S,05539.68858,E,060653.00,A,D*6C
$GNGRS,060653.00,1,-2.7,1.3,-0.5,1.0,2.3,1.6,-6.2,4.3,-6.3,177,,*4A
$GNGRS,060653.00,1,11.7,10.4,4.0,0.2,-11.6,4.7,,,,,,*4A
$GNGST,060653.00,2886063,,,,3.0,3.0,6.8*70
$GNZDA,060653.00,23,05,2025,00,00*7F
$GNTXT,01,01,01,More than 100 frame errors, UART RX was disabled*70
$GNTXT,01,01,01,More than 100 frame errors, UART RX was disabled*70
b0Lh$87 >}%#"
"&+>'W
J{4&V_\E&:R 
Y
qAGV[HJkK ?*L3MMNV
W>Xbhrxz$GNRMC,060655.00,A,0420.04160,S,05539.68859,E,0.114,,230525,,,D*74
$GNVTG,,T,,M,0.114,N,0.211,K,D*3E
$GNGNS,060655.00,0420.04160,S,05539.68859,E,DA,16,0.72,18.7,-47.6,,0000*61
$GNGGA,060655.00,0420.04160,S,05539.68859,E,2,12,0.72,18.7,M,-47.6,M,,0000*49
$GNGSA,A,3,24,20,05,13,15,12,18,25,23,40,,,1.25,0.72,1.02*13
$GNGSA,A,3,86,74,75,71,72,76,,,,,,,1.25,0.72,1.02*11
$GPGSV,4,1,15,05,56,055,36,12,62,031,32,13,14,125,23,15,34,158,35*76
$GPGSV,4,2,15,18,34,268,28,20,22,038,16,23,28,206,22,24,43,193,30*7B
$GPGSV,4,3,15,25,39,343,12,29,10,330,,36,52,277,,40,86,351,38*7C
$GPGSV,4,4,15,41,58,082,38,49,32,274,,50,10,089,*4C
$GLGSV,3,1,11,65,11,194,08,71,18,086,23,72,30,139,29,74,12,155,15*63
$GLGSV,3,2,11,75,63,156,32,76,51,333,21,77,06,334,,86,10,001,13*6B
$GLGSV,3,3,11,87,21,318,,88,09,260,,,,,28*64
$GNGLL,0420.04160,S,05539.68859,E,060655.00,A,D*6A
$GNGRS,060655.00,1,-4.5,1.9,-0.2,2.9,2.0,-2.7,2.2,-23.0,-3.0,178,,*58
$GNGRS,060655.00,1,16.8,11.3,0.4,0.9,-11.4,4.8,,,,,,*44
$GNGST,060655.00,1026,,,,3.0,3.0,6.8*42
$GNZDA,060655.00,23,05,2025,00,00*79
$GNGBS,060655.00,3.0,3.0,6.8,,,,*51
b0LP#87Y >}*#"
"&M+'W
K{4%V_WE%:R 
Y
qAGVHLJK!?L3M|MNV
{W>XbPr|zy$GNRMC,060656.00,A,0420.04159,S,05539.68858,E,0.079,,230525,,,D*76
$GNVTG,,T,,M,0.079,N,0.147,K,D*34
$GNGNS,060656.00,0420.04159,S,05539.68858,E,DA,16,0.70,18.7,-47.6,,0000*6B
$GNGGA,060656.00,0420.04159,S,05539.68858,E,2,12,0.70,18.7,M,-47.6,M,,0000*43
$GNGSA,A,3,24,20,05,13,15,12,18,25,23,40,,,1.23,0.70,1.02*17
$GNGSA,A,3,86,74,75,71,72,76,,,,,,,1.23,0.70,1.02*15
$GPGSV,4,1,15,05,56,055,35,12,62,031,32,13,14,125,24,15,34,158,35*72
$GPGSV,4,2,15,18,34,268,28,20,22,038,15,23,28,206,23,24,43,193,30*79
$GPGSV,4,3,15,25,39,343,16,29,10,331,,36,52,277,,40,86,351,37*76
$GPGSV,4,4,15,41,58,082,37,49,32,274,,50,10,089,*43
$GNTXT,01,01,01,More than 100 frame errors, UART RX was disabled*70
b0L$87!>}#"q
"(&+''WA
K{4&V_QE&:R 
Y
qAGVHJK ?L3MMNV
W>Xbrz$GNRMC,060659.00,A,0420.04159,S,05539.68859,E,0.033,,230525,,,D*76
$GNVTG,,T,,M,0.033,N,0.060,K,D*3E
$GNGNS,060659.00,0420.04159,S,05539.68859,E,DA,15,0.72,18.6,-47.6,,0000*65
$GNGGA,060659.00,0420.04159,S,05539.68859,E,2,12,0.72,18.6,M,-47.6,M,,0000*4E
$GNGSA,A,3,24,20,05,13,15,12,18,23,40,,,,1.25,0.72,1.02*14
$GNGSA,A,3,86,74,75,71,72,76,,,,,,,1.25,0.72,1.02*11
$GPGSV,4,1,15,05,56,055,36,12,62,031,33,13,14,125,23,15,34,158,35*77
$GPGSV,4,2,15,18,34,268,28,20,22,038,14,23,28,206,22,24,43,193,31*78
$GPGSV,4,3,15,25,39,343,07,29,10,331,,36,52,277,,40,86,351,38*79
$GPGSV,4,4,15,41,58,082,38,49,32,274,,50,10,089,*4C
$GLGSV,3,1,11,65,11,194,,71,18,086,25,72,30,139,31,74,12,155,17*66
$GLGSV,3,2,11,75,63,156,32,76,51,333,20,77,06,334,,86,10,001,11*68
$GLGSV,3,3,11,87,21,318,,88,09,260,,,,,30*6D
$GNGLL,0420.04159,S,05539.68859,E,060659.00,A,D*6C
$GNGRS,060659.00,1,0.4,2.3,0.1,4.3,1.1,-0.8,-2.2,-1.2,177,,,*48
$GNGRS,060659.00,1,11.8,14.5,2.4,-2.4,-13.9,1.8,,,,,,*66
$GNGST,060659.00,2973941,,,,2.9,3.0,6.7*7F
$GNZDA,060659.00,23,05,2025,00,00*75
$GNGBS,060659.00,2.9,3.0,6.7,,,,*5A
$GNTXT,01,01,01,More than 100 frame errors, UART RX was disabled*70
b0L$87 >}#"o
"&H+H'WD
K{4&V_IE&:R 
Y
qAGVyHJK!?L3MMNV

W>Xbrz$GNRMC,060700.00,A,0420.04159,S,05539.68857,E,0.051,,230525,,,D*71
$GNVTG,,T,,M,0.051,N,0.095,K,D*30
$GNGNS,060700.00,0420.04159,S,05539.68857,E,DA,16,0.70,18.6,-47.6,,0000*67
$GNGGA,060700.00,0420.04159,S,05539.68857,E,2,12,0.70,18.6,M,-47.6,M,,0000*4F
$GNGSA,A,3,24,20,05,13,15,12,18,25,23,40,,,1.23,0.70,1.02*17
$GNGSA,A,3,86,74,75,71,72,76,,,,,,,1.23,0.70,1.02*15
$GPGSV,4,1,15,05,56,055,36,12,62,031,32,13,14,125,23,15,34,158,35*76
$GPGSV,4,2,15,18,34,268,28,20,22,038,13,23,28,206,21,24,43,193,31*7C
$GPGSV,4,3,15,25,39,343,12,29,10,331,,36,52,277,,40,86,351,38*7D
$GPGSV,4,4,15,41,58,082,38,49,32,274,,50,10,089,*4C
$GLGSV,3,1,11,65,11,194,,71,18,086,25,72,30,139,31,74,12,155,18*69
$GLGSV,3,2,11,75,63,156,33,76,51,333,20,77,06,334,,86,10,001,10*68
$GLGSV,3,3,11,87,21,318,,88,09,260,,,,,30*6D
$GNGLL,0420.04159,S,05539.68857,E,060700.00,A,D*6F
$GNGRS,060700.00,1,0.7,2.0,0.2,4.1,1.1,-2.5,-2.5,3.2,-1.8,177,,*69
$GNGRS,060700.00,1,11.7,14.3,2.5,-3.9,-12.9,1.6,,,,,,*60
$GNGST,060700.00,2885147,,,,2.9,3.0,6.7*74
$GNZDA,060700.00,23,05,2025,00,00*78
$GNGBS,060700.00,2.9,3.0,6.7,,,,*57
b0L%87  >}$"e
"&D[+'W9
K{4(V_ME(:R 
Y
qAGVHJK#?L3M.MNV

W>XCbrhzz$GNRMC,060701.00,A,0420.04162,S,05539.68859,E,0.041,,230525,,,D*77
$GNVTG,,T,,M,0.041,N,0.076,K,D*3C
$GNGNS,060701.00,0420.04162,S,05539.68859,E,DA,16,0.76,18.7,-47.6,,0000*67
$GNGGA,060701.00,0420.04162,S,05539.68859,E,2,12,0.76,18.7,M,-47.6,M,,0000*4F
$GNGSA,A,3,24,20,05,13,15,12,18,25,23,40,,,1.43,0.76,1.21*16
$GNGSA,A,3,86,74,75,71,72,76,,,,,,,1.43,0.76,1.21*14
$GPGSV,4,1,15,05,56,055,37,12,62,031,32,13,14,125,26,15,34,158,36*71
$GPGSV,4,2,15,18,34,268,29,20,22,038,16,23,28,206,24,24,43,193,31*7D
$GPGSV,4,3,15,25,39,343,15,29,10,331,,36,52,277,,40,86,351,40*75
$GPGSV,4,4,15,41,58,082,40,49,32,274,,50,10,089,*43
$GLGSV,3,1,11,65,11,194,,71,18,086,26,72,30,139,31,74,12,155,17*65
$GLGSV,3,2,11,75,63,156,35,76,51,333,20,77,06,334,,86,10,001,10*6E
$GLGSV,3,3,11,87,21,318,,88,09,260,,,,,30*6D
$GNGLL,0420.04162,S,05539.68859,E,060701.00,A,D*68
$GNGRS,060701.00,1,-1.3,3.2,0.3,2.0,1.0,-2.9,-2.9,0.6,-1.7,177,,*4C
$GNGRS,060701.00,1,71.3,14.1,2.7,-3.4,-10.7,0.5,,,,,,*60
$GNGST,060701.00,1026,,,,2.9,3.0,6.6*44
$GNZDA,060701.00,23,05,2025,00,00*79
$GNGBS,060701.00,2.9,3.0,6.6,,,,*57
$GNTXT,01,01,01,More than 100 frame errors, UART RX was disabled*70
b0L#87 >}#"T
">&@+'W
K{4%V_ E$:R 
Y
q[AGVnHsJK"?L3MrMNV
W>XUbr8z`J$GNRMC,060703.00,A,0420.04168,S,05539.68863,E,0.034,,230525,,,D*74
$GNVTG,,T,,M,0.034,N,0.062,K,D*3B
$GNGNS,060703.00,0420.04168,S,05539.68863,E,DA,16,0.70,19.0,-47.6,,0000*66
$GNGGA,060703.00,0420.04168,S,05539.68863,E,2,12,0.70,19.0,M,-47.6,M,,0000*4E
$GNGSA,A,3,24,20,05,13,15,12,18,25,23,40,,,1.23,0.70,1.02*17
$GNGSA,A,3,86,74,75,71,72,76,,,,,,,1.23,0.70,1.02*15
$GPGSV,4,1,15,05,56,055,35,12,62,031,32,13,14,125,24,15,34,158,35*72
$GPGSV,4,2,15,18,34,268,29,20,22,038,14,23,28,206,22,24,43,193,30*78
$GPGSV,4,3,15,25,39,343,15,29,10,331,,36,52,277,,40,86,351,37*75
$GPGSV,4,4,15,41,58,082,36,49,32,274,,50,10,089,*42
$GLGSV,3,1,11,65,11,194,,71,18,086,26,72,30,139,31,74,12,155,18*6A
$GLGSV,3,2,11,75,63,156,34,76,51,333,21,77,06,334,,86,10,001,09*66
$GLGSV,3,3,11,87,21,318,,88,09,260,,,,,30*6D
$GNGLL,0420.04168,S,05539.68863,E,060703.00,A,D*69
$GNGRS,060703.00,1,0.1,4.9,0.1,3.9,0.8,-0.3,-1.9,1.8,-1.9,177,,*65
$GNGRS,060703.00,1,12.0,14.2,2.6,-6.6,-11.7,1.1,,,,,,*65
$GNGST,060703.00,2885147,,,,2.9,3.0,6.5*75
$GNZDA,060703.00,23,05,2025,00,00*7B
$GNGBS,060703.00,2.9,3.0,6.5,,,,*56
$GNTXT,01,01,01,More than 100 frame errors, UART RX was disabled*70
b0L!"87>}""O
"p&+z'W;
K{4$V_E#:R 
Y
qAGVHJK!?L3M;MNV
W>Xlb!r z8$GNRMC,060704.00,A,0420.04171,S,05539.68865,E,0.124,,230525,,,D*7D
$GNVTG,,T,,M,0.124,N,0.229,K,D*36
$GNGNS,060704.00,0420.04171,S,05539.68865,E,DA,16,0.70,19.0,-47.6,,0000*6F
$GNGGA,060704.00,0420.04171,S,05539.68865,E,2,12,0.70,19.0,M,-47.6,M,,0000*47
$GNGSA,A,3,24,20,05,13,15,12,18,25,23,40,,,1.23,0.70,1.02*17
$GNGSA,A,3,86,74,75,71,72,76,,,,,,,1.23,0.70,1.02*15
$GPGSV,4,1,15,05,56,055,34,12,62,031,31,13,14,125,23,15,34,158,34*76
$GPGSV,4,2,15,18,34,268,28,20,22,038,11,23,28,206,22,24,43,193,29*74
$GPGSV,4,3,15,25,39,343,12,29,10,331,,36,52,277,,40,86,351,36*73
$GPGSV,4,4,15,41,58,082,35,49,32,274,,50,10,089,*41
$GLGSV,3,1,11,65,11,194,,71,18,086,25,72,30,139,30,74,12,155,17*67
$GLGSV,3,2,11,75,63,156,33,76,51,333,20,77,06,334,,86,10,001,09*60
$GLGSV,3,3,11,87,21,318,,88,09,260,,,,,29*65
$GNGLL,0420.04171,S,05539.68865,E,060704.00,A,D*60
$GNGRS,060704.00,1,-1.3,9.3,0.0,4.9,0.8,-3.2,-6.6,-2.0,-3.1,177,,*6B
$GNGRS,060704.00,1,6.4,14.5,2.5,-7.4,-14.0,0.6,,,,,,*50
$GNGST,060704.00,995,,,,2.9,3.0,6.5*72
$GNZDA,060704.00,23,05,2025,00,00*7C
$GNGBS,060704.00,2.9,3.0,6.5,,,,*51
b0Lx%"87>}i""=
"v&7+
'W
K{4$V_E$:R 
Y
qAGV/H4J%K!?L3MMNV

W>Xfbx%rz$GNRMC,060705.00,A,0420.04171,S,05539.68866,E,0.034,,230525,,,D*7F
$GNVTG,,T,,M,0.034,N,0.064,K,D*3D
$GNGNS,060705.00,0420.04171,S,05539.68866,E,DA,16,0.70,19.0,-47.6,,0000*6D
$GNGGA,060705.00,0420.04171,S,05539.68866,E,2,12,0.70,19.0,M,-47.6,M,,0000*45
$GNGSA,A,3,24,20,05,13,15,12,18,25,23,40,,,1.23,0.70,1.02*17
$GNGSA,A,3,86,74,75,71,72,76,,,,,,,1.23,0.70,1.02*15
$GPGSV,4,1,15,05,56,055,34,12,62,031,31,13,14,125,23,15,34,158,34*76
$GPGSV,4,2,15,18,34,268,28,20,22,038,14,23,28,206,22,24,43,193,29*71
$GPGSV,4,3,15,25,39,343,10,29,10,331,,36,52,277,,40,86,351,36*71
$GPGSV,4,4,15,41,58,082,36,49,32,274,,50,10,089,*42
$GLGSV,3,1,11,65,11,194,,71,18,086,24,72,30,139,30,74,12,155,17*66
$GLGSV,3,2,11,75,63,156,33,76,51,333,20,77,06,334,,86,10,001,10*68
$GLGSV,3,3,11,87,21,318,,88,09,260,,,,,29*65
$GNGLL,0420.04171,S,05539.68866,E,060705.00,A,D*62
$GNGRS,060705.00,1,-0.8,9.3,0.2,6.2,0.6,-1.3,-6.5,-3.1,-2.0,177,,*65
$GNGRS,060705.00,1,11.6,15.7,2.5,-7.2,-17.4,1.7,,,,,,*67
$GNGST,060705.00,116740,,,,2.9,3.0,6.5*43
$GNZDA,060705.00,23,05,2025,00,00*7D
$GNGBS,060705.00,2.9,3.0,6.5,,,,*50
b0LH-$87 >}#"[
"&++'W0
K{4$V_!E$:R 
Y
qAGVH5JZK?L3MMNV
W>XbH-rz$GNRMC,060707.00,A,0420.04172,S,05539.68868,E,0.049,,230525,,,D*7A
$GNVTG,,T,,M,0.049,N,0.091,K,D*3D
$GNGNS,060707.00,0420.04172,S,05539.68868,E,DA,16,0.82,19.0,-47.6,,0000*6F
$GNGGA,060707.00,0420.04172,S,05539.68868,E,2,12,0.82,19.0,M,-47.6,M,,0000*47
$GNGSA,A,3,24,20,05,13,15,12,18,25,23,40,,,1.52,0.82,1.28*14
$GNGSA,A,3,86,74,75,71,72,76,,,,,,,1.52,0.82,1.28*16
$GPGSV,4,1,15,05,56,055,36,12,62,031,32,13,14,125,24,15,34,158,35*71
$GPGSV,4,2,15,18,34,268,28,20,22,038,11,23,28,206,24,24,43,193,30*7A
$GPGSV,4,3,15,25,39,343,14,29,10,331,,36,52,277,,40,86,351,36*75
$GPGSV,4,4,15,41,58,082,36,49,32,274,,50,10,089,*42
$GLGSV,3,1,11,65,11,194,,71,18,086,24,72,30,139,30,74,12,155,18*69
$GLGSV,3,2,11,75,63,156,30,76,51,333,19,77,06,334,,86,10,001,09*69
$GLGSV,3,3,11,87,21,318,,88,09,260,,,,,29*65
$GNGLL,0420.04172,S,05539.68868,E,060707.00,A,D*6D
$GNGRS,060707.00,1,0.4,20.2,-0.3,4.8,0.9,-3.3,-1.3,13.3,-0.3,177,,*4B
$GNGRS,060707.00,1,-62.5,16.3,2.4,-3.0,-14.8,1.6,,,,,,*41
$GNGST,060707.00,1059,,,,2.9,3.0,6.5*49
$GNZDA,060707.00,23,05,2025,00,00*7F
$GNGBS,060707.00,2.9,3.0,6.5,,,,*52
$GNTXT,01,01,01,More than 100 frame errors, UART RX was disabled*70
b0L01#87 >}#"k
"'&<+Y'W
K{4%V_E$:R 
Y
qAGV5H,JK!?L3MMNV

W>Xb01rzO$GNRMC,060708.00,A,0420.04173,S,05539.68867,E,0.022,,230525,,,D*76
$GNVTG,,T,,M,0.022,N,0.042,K,D*3E
$GNGNS,060708.00,0420.04173,S,05539.68867,E,DA,16,0.70,19.0,-47.6,,0000*63
$GNGGA,060708.00,0420.04173,S,05539.68867,E,2,12,0.70,19.0,M,-47.6,M,,0000*4B
$GNGSA,A,3,24,20,05,13,15,12,18,25,23,40,,,1.23,0.70,1.02*17
$GNGSA,A,3,86,74,75,71,72,76,,,,,,,1.23,0.70,1.02*15
$GPGSV,4,1,15,05,56,055,35,12,62,031,32,13,14,125,24,15,34,158,35*72
$GPGSV,4,2,15,18,34,268,29,20,22,038,12,23,28,206,22,24,43,193,30*7E
$GPGSV,4,3,15,25,39,343,11,29,10,331,,36,52,277,,40,86,351,37*71
$GPGSV,4,4,15,41,58,082,36,49,32,274,,50,10,089,*42
$GLGSV,3,1,11,65,11,194,,71,18,086,23,72,30,139,29,74,12,155,17*69
$GLGSV,3,2,11,75,63,156,33,76,51,333,19,77,06,334,,86,10,001,10*62
$GLGSV,3,3,11,87,21,318,,88,09,260,,,,,28*64
$GNGLL,0420.04173,S,05539.68867,E,060708.00,A,D*6C
$GNGRS,060708.00,1,0.9,14.8,-0.3,5.0,1.1,-1.2,0.4,7.2,0.6,177,,*70
$GNGRS,060708.00,1,11.7,15.3,2.4,-2.0,-12.4,1.3,,,,,,*68
$GNGST,060708.00,196853,,,,2.9,3.0,6.5*4B
$GNZDA,060708.00,23,05,2025,00,00*70
$GNGBS,060708.00,2.9,3.0,6.5,,,,*5D
b0L5$87>}^""x
"~&D+
'W
K{4(V_E$:R 
Y
qAGVDHzJK$?L3M{MNV
W>XIb5rzo$GNRMC,060709.00,A,0420.04177,S,05539.68868,E,0.050,,230525,,,D*79
$GNVTG,,T,,M,0.050,N,0.093,K,D*37
$GNGNS,060709.00,0420.04177,S,05539.68868,E,DA,16,0.70,19.0,-47.6,,0000*69
$GNGGA,060709.00,0420.04177,S,05539.68868,E,2,12,0.70,19.0,M,-47.6,M,,0000*41
$GNGSA,A,3,24,20,05,13,15,12,18,25,23,40,,,1.23,0.70,1.02*17
$GNGSA,A,3,86,74,75,71,72,76,,,,,,,1.23,0.70,1.02*15
$GPGSV,4,1,15,05,56,055,36,12,62,031,31,13,14,125,23,15,34,158,34*74
$GPGSV,4,2,15,18,34,268,28,20,22,038,16,23,28,206,23,24,43,193,29*72
$GPGSV,4,3,15,25,39,343,10,29,10,331,,36,52,277,,40,86,351,40*70
$GPGSV,4,4,15,41,58,082,36,49,32,274,,50,10,089,*42
$GLGSV,3,1,11,65,11,194,,71,18,086,21,72,30,139,29,74,12,155,16*6A
$GLGSV,3,2,11,75,63,156,36,76,51,333,18,77,06,334,,86,10,001,08*6F
$GLGSV,3,3,11,87,21,318,,88,09,260,,,,,28*64
$GNGLL,0420.04177,S,05539.68868,E,060709.00,A,D*66
$GNGRS,060709.00,1,2.7,14.9,-0.4,6.1,1.2,-1.2,-6.4,7.0,0.7,177,,*52
$GNGRS,060709.00,1,11.6,16.7,2.6,-1.9,-11.6,1.2,,,,,,*67
$GNGST,060709.00,2890077,,,,2.9,3.0,6.5*79
$GNZDA,060709.00,23,05,2025,00,00*71
$GNGBS,060709.00,2.9,3.0,6.5,,,,*5C
$GNTXT,01,01,01,More than 100 frame errors, UART RX was disabled*70
b0L9%87 >}S%"
"1&+'W
K{4)V_E(:R 
Y
qAGVHJJK#?L3MMNV
W>Xb9rzG$GNRMC,060710.00,A,0420.04179,S,05539.68868,E,0.068,,230525,,,D*74
$GNVTG,,T,,M,0.068,N,0.125,K,D*30
$GNGNS,060710.00,0420.04179,S,05539.68868,E,DA,15,0.73,19.0,-47.6,,0000*6F
$GNGGA,060710.00,0420.04179,S,05539.68868,E,2,12,0.73,19.0,M,-47.6,M,,0000*44
$GNGSA,A,3,24,05,13,15,12,18,25,23,40,,,,1.26,0.73,1.03*12
$GNGSA,A,3,86,74,75,71,72,76,,,,,,,1.26,0.73,1.03*12
$GPGSV,4,1,15,05,56,055,37,12,62,031,32,13,14,125,24,15,34,158,37*72
$GPGSV,4,2,15,18,34,268,28,20,22,038,09,23,28,206,24,24,43,193,30*73
$GPGSV,4,3,15,25,39,343,08,29,10,331,,36,52,277,,40,86,351,41*78
$GPGSV,4,4,15,41,58,082,40,49,32,274,,50,10,089,*43
$GLGSV,3,1,11,65,11,194,,71,18,086,23,72,30,139,30,74,12,155,18*6E
$GLGSV,3,2,11,75,63,156,35,76,51,333,18,77,06,334,,86,10,001,08*6C
$GLGSV,3,3,11,87,21,318,,88,09,260,,,,,28*64
$GNGLL,0420.04179,S,05539.68868,E,060710.00,A,D*60
$GNGRS,060710.00,1,-3.2,-0.5,6.0,1.4,-1.1,-4.6,-14.1,-0.2,177,,,*52
$GNGRS,060710.00,1,1.9,16.1,2.3,-0.7,-15.5,-0.3,,,,,,*77
$GNGST,060710.00,1026,,,,2.8,3.0,6.5*46
$GNZDA,060710.00,23,05,2025,00,00*79
$GNGBS,060710.00,2.8,3.0,6.5,,,,*55
b0L<%87 >|}:$"
"&5+'W
K{4)V_E':R 
Y
qAGV@H!JK#?L3MMNV
W>X uQb<rxzx$GNRMC,060711.00,A,0420.04175,S,05539.68866,E,0.077,,230525,,,D*79
$GNVTG,,T,,M,0.077,N,0.143,K,D*3E
$GNGNS,060711.00,0420.04175,S,05539.68866,E,DA,16,0.70,18.9,-47.6,,0000*64
$GNGGA,060711.00,0420.04175,S,05539.68866,E,2,12,0.70,18.9,M,-47.6,M,,0000*4C
$GNGSA,A,3,24,20,05,13,15,12,18,25,23,40,,,1.23,0.70,1.02*17
$GNGSA,A,3,86,74,75,71,72,76,,,,,,,1.23,0.70,1.02*15
$GPGSV,4,1,15,05,56,055,37,12,62,031,32,13,14,125,25,15,34,158,36*72
$GPGSV,4,2,15,18,34,268,27,20,22,038,12,23,28,206,26,24,43,193,30*74
$GPGSV,4,3,15,25,39,343,09,29,10,331,,36,52,277,,40,86,351,41*79
$GPGSV,4,4,15,41,58,082,39,49,32,274,,50,10,089,*4D
$GLGSV,3,1,11,65,11,194,,71,18,086,23,72,30,139,33,74,12,155,19*6C
$GLGSV,3,2,11,75,63,156,35,76,51,333,16,77,06,334,,86,10,001,11*6A
$GLGSV,3,3,11,87,21,318,,88,09,260,,,,,32*6F
$GNGLL,0420.04175,S,05539.68866,E,060711.00,A,D*63
$GNGRS,060711.00,1,-2.6,17.5,-0.4,5.7,1.5,1.2,-3.3,7.3,0.5,177,,*54
$GNGRS,060711.00,1,11.6,17.3,2.2,-1.9,-15.4,0.1,,,,,,*6B
$GNGST,060711.00,2886648,,,,2.8,3.0,6.5*7C
$GNZDA,060711.00,23,05,2025,00,00*78
$GNGBS,060711.00,2.8,3.0,6.5,,,,*54
b0LD$87">c}$"v
"&+%'W\
K{4'V_E%:R 
Y 
qAAGV+HJK#?L3MMNV

=W>X}bDrHzH$GNRMC,060713.00,A,0420.04179,S,05539.68867,E,0.031,,230525,,,D*74
$GNVTG,,T,,M,0.031,N,0.057,K,D*38
$GNGNS,060713.00,0420.04179,S,05539.68867,E,DA,16,0.76,18.9,-47.6,,0000*6D
$GNGGA,060713.00,0420.04179,S,05539.68867,E,2,12,0.76,18.9,M,-47.6,M,,0000*45
$GNGSA,A,3,24,20,05,13,15,12,18,25,23,40,,,1.43,0.76,1.21*16
$GNGSA,A,3,86,74,75,71,72,76,,,,,,,1.43,0.76,1.21*14
$GPGSV,4,1,15,05,56,055,36,12,62,031,34,13,14,125,25,15,34,158,36*75
$GPGSV,4,2,15,18,34,268,28,20,22,038,16,23,28,206,27,24,43,193,31*7F
$GPGSV,4,3,15,25,39,343,17,29,10,331,,36,52,277,,40,86,351,39*79
$GPGSV,4,4,15,41,58,082,37,49,32,274,,50,10,089,*43
$GLGSV,3,1,11,65,11,194,,71,18,086,24,72,30,139,31,74,12,155,20*63
$GLGSV,3,2,11,75,63,156,35,76,51,333,17,77,06,334,,86,10,001,10*6A
$GLGSV,3,3,11,87,21,318,,88,09,260,,,,,31*6C
$GNGLL,0420.04179,S,05539.68867,E,060713.00,A,D*6C
$GNGRS,060713.00,1,0.4,19.2,0.0,3.9,1.2,-4.1,-3.7,8.6,-2.9,177,,*52
$GNGRS,060713.00,1,158,17.5,1.9,-4.7,-15.9,-0.7,,,,,,*6E
$GNGST,060713.00,1025,,,,2.8,3.0,6.4*47
$GNZDA,060713.00,23,05,2025,00,00*7A
$GNGBS,060713.00,2.8,3.0,6.4,,,,*57
$GNTXT,01,01,01,More than 100 frame errors, UART RX was disabled*70
b0LH 87>&}4"{
"&A+'W
K{4"V_D":R 
Y
qAGVCHJK"?L3MMNV
W>X
bHr0z$GNRMC,060714.00,A,0420.04177,S,05539.68871,E,0.113,,230525,,,D*7B
$GNVTG,,T,,M,0.113,N,0.209,K,D*30
$GNGNS,060714.00,0420.04177,S,05539.68871,E,DA,16,0.70,18.9,-47.6,,0000*65
$GNGGA,060714.00,0420.04177,S,05539.68871,E,2,12,0.70,18.9,M,-47.6,M,,0000*4D
$GNGSA,A,3,24,20,05,13,15,12,18,25,23,40,,,1.23,0.70,1.02*17
$GNGSA,A,3,86,74,75,71,72,76,,,,,,,1.23,0.70,1.02*15
$GPGSV,4,1,15,05,56,055,32,12,62,031,29,13,14,125,24,15,34,158,31*7B
$GPGSV,4,2,15,18,34,268,28,20,22,038,12,23,28,206,25,24,43,193,29*70
$GPGSV,4,3,15,25,39,343,08,29,10,331,,36,52,277,,40,86,351,34*7A
$GPGSV,4,4,15,41,58,082,34,49,32,274,,50,10,089,*40
$GLGSV,3,1,11,65,11,194,,71,18,086,24,72,30,139,30,74,12,155,18*69
$GLGSV,3,2,11,75,63,156,34,76,51,333,18,77,06,334,,86,10,001,11*65
$GLGSV,3,3,11,87,21,318,,88,09,260,,,,,31*6C
$GNGLL,0420.04177,S,05539.68871,E,060714.00,A,D*62
$GNGRS,060714.00,1,-0.3,16.0,0.1,3.1,1.2,0.4,-6.3,7.3,-5.5,176,,*56
$GNGRS,060714.00,1,11.8,17.6,1.7,-4.5,-13.8,2.5,,,,,,*66
$GNGST,060714.00,12033,,,,2.8,3.0,6.4*75
$GNZDA,060714.00,23,05,2025,00,00*7D
$GNGBS,060714.00,2.8,3.0,6.4,,,,*50
$GNTXT,01,01,01,More than 100 frame errors, UART RX was disabled*70
b0LL"87>}v!"t
"&+'W
K{4#V_D#:R 
Y
qAGVzHJK"?L3MMNV
W>X`vbLrz~$GNRMC,060715.00,A,0420.04178,S,05539.68874,E,0.028,,230525,,,D*79
$GNVTG,,T,,M,0.028,N,0.052,K,D*35
$GNGNS,060715.00,0420.04178,S,05539.68874,E,DA,15,0.73,19.1,-47.6,,0000*67
$GNGGA,060715.00,0420.04178,S,05539.68874,E,2,12,0.73,19.1,M,-47.6,M,,0000*4C
$GNGSA,A,3,24,05,13,15,12,18,25,23,40,,,,1.26,0.73,1.03*12
$GNGSA,A,3,86,74,75,71,72,76,,,,,,,1.26,0.73,1.03*12
$GPGSV,4,1,15,05,56,055,34,12,62,031,30,13,14,125,23,15,34,158,33*70
$GPGSV,4,2,15,18,34,268,27,20,22,038,08,23,28,206,24,24,43,193,29*75
$GPGSV,4,3,15,25,39,343,09,29,10,331,,36,52,277,,40,86,351,35*7A
$GPGSV,4,4,15,41,58,082,35,49,32,274,,50,10,089,*41
$GLGSV,3,1,11,65,11,194,,71,18,086,23,72,30,139,30,74,12,155,16*60
$GLGSV,3,2,11,75,63,156,34,76,51,333,19,77,06,334,,86,10,001,12*67
$GLGSV,3,3,11,87,21,318,,88,09,260,,,,,30*6D
$GNGLL,0420.04178,S,05539.68874,E,060715.00,A,D*69
$GNGRS,060715.00,1,-0.6,0.0,3.7,1.2,-0.7,-5.8,7.3,-5.6,177,,,*68
$GNGRS,060715.00,1,11.8,17.6,1.4,-3.9,-15.6,2.0,,,,,,*62
$GNGST,060715.00,18569,,,,2.8,3.0,6.4*74
$GNZDA,060715.00,23,05,2025,00,00*7C
$GNGBS,060715.00,2.8,3.0,6.4,,,,*51
b0LpP#87>}""z
"&+{'W
K{4%V_D$:R 
Y
qAGVVHvJGK"?L3MMNV
W>X!=bpPrzV$GNRMC,060716.00,A,0420.04178,S,05539.68873,E,0.052,,230525,,,D*70
$GNVTG,,T,,M,0.052,N,0.096,K,D*30
$GNGNS,060716.00,0420.04178,S,05539.68873,E,DA,14,0.92,19.1,-47.6,,0000*6D
$GNGGA,060716.00,0420.04178,S,05539.68873,E,2,12,0.92,19.1,M,-47.6,M,,0000*47
$GNGSA,A,3,24,05,13,15,12,18,25,23,40,,,,1.64,0.92,1.36*1D
$GNGSA,A,3,74,75,71,72,76,,,,,,,,1.64,0.92,1.36*13
$GPGSV,4,1,15,05,56,055,35,12,62,031,31,13,14,125,22,15,34,158,34*76
$GPGSV,4,2,15,18,34,268,27,20,22,038,08,23,28,206,22,24,43,193,30*7B
$GPGSV,4,3,15,25,39,343,12,29,10,331,,36,52,277,,40,86,351,37*72
$GPGSV,4,4,15,41,58,082,36,49,32,274,,50,10,089,*42
$GLGSV,3,1,11,65,11,194,,71,18,086,22,72,30,139,30,74,12,155,17*60
$GLGSV,3,2,11,75,63,156,34,76,51,333,19,77,06,334,,86,10,001,07*63
$GLGSV,3,3,11,87,21,318,,88,09,260,,,,,30*6D
$GNGLL,0420.04178,S,05539.68873,E,060716.00,A,D*6D
$GNGRS,060716.00,1,1.2,0.0,2.6,1.2,-2.9,-5.1,-23.6,-6.4,176,,,*58
$GNGRS,060716.00,1,18.6,1.4,-1.7,-16.7,2.1,,,,,,,*77
$GNGST,060716.00,1096,,,,2.8,3.0,6.4*4A
$GNZDA,060716.00,23,05,2025,00,00*7F
$GNGBS,060716.00,2.8,3.0,6.4,,,,*52
$GNTXT,01,01,01,More than 100 frame errors, UART RX was disabled*70
b0L@X#87 >C}""
"&+'W
K{4$V_D$:R 
Y
qAGV{HbJK!?L3MMNV
W>Xb@XrzM$GNRMC,060718.00,A,0420.04178,S,05539.68870,E,0.030,,230525,,,D*79
$GNVTG,,T,,M,0.030,N,0.055,K,D*3B
$GNGNS,060718.00,0420.04178,S,05539.68870,E,DA,16,0.71,19.3,-47.6,,0000*6D
$GNGGA,060718.00,0420.04178,S,05539.68870,E,2,12,0.71,19.3,M,-47.6,M,,0000*45
$GNGSA,A,3,24,20,05,13,15,12,18,25,23,40,,,1.28,0.71,1.07*18
$GNGSA,A,3,86,74,75,71,72,76,,,,,,,1.28,0.71,1.07*1A
$GPGSV,4,1,15,05,56,055,35,12,62,031,32,13,14,125,22,15,34,158,34*75
$GPGSV,4,2,15,18,34,268,28,20,22,038,14,23,28,206,22,24,43,193,30*79
$GPGSV,4,3,15,25,39,343,13,29,10,331,,36,52,277,,40,86,351,36*72
$GPGSV,4,4,15,41,58,082,36,49,32,274,,50,10,089,*42
$GLGSV,3,1,11,65,11,194,,71,18,086,23,72,30,139,30,74,12,155,16*60
$GLGSV,3,2,11,75,63,156,33,76,51,333,18,77,06,334,,86,10,001,08*6A
$GLGSV,3,3,11,87,21,318,,88,09,260,,,,,30*6D
$GNGLL,0420.04178,S,05539.68870,E,060718.00,A,D*60
$GNGRS,060718.00,1,4.9,4.9,0.1,2.1,1.4,0.7,-0.7,7.2,-9.0,176,,*4D
$GNGRS,060718.00,1,11.9,22.0,1.6,-3.9,-14.4,2.7,,,,,,*68
$GNGST,060718.00,4206456,,,,2.8,3.0,6.4*7D
$GNZDA,060718.00,23,05,2025,00,00*71
$GNGBS,060718.00,2.8,3.0,6.4,,,,*5C
b0L(\#87>v}M#"
"&]%+7'W
K{4$V_D$:R 
Y
qAGV*HJK"?L3MmMNV
I&W>Xb(\rz$GNRMC,060719.00,A,0420.04179,S,05539.68868,E,0.049,,230525,,,D*7E
$GNVTG,,T,,M,0.049,N,0.092,K,D*3E
$GNGNS,060719.00,0420.04179,S,05539.68868,E,DA,16,0.77,19.4,-47.6,,0000*65
$GNGGA,060719.00,0420.04179,S,05539.68868,E,2,12,0.77,19.4,M,-47.6,M,,0000*4D
$GNGSA,A,3,24,20,05,13,15,12,18,25,23,40,,,1.48,0.77,1.26*1B
$GNGSA,A,3,86,74,75,71,72,76,,,,,,,1.48,0.77,1.26*19
$GPGSV,4,1,15,05,56,055,35,12,62,031,31,13,14,125,23,15,34,158,35*76
$GPGSV,4,2,15,18,34,268,28,20,22,038,11,23,28,206,23,24,43,193,30*7D
$GPGSV,4,3,15,25,39,343,11,29,10,331,,36,52,277,,40,86,351,36*70
$GPGSV,4,4,15,41,58,082,36,49,32,274,,50,10,089,*42
$GLGSV,3,1,11,65,11,194,,71,18,086,23,72,30,139,30,74,12,155,16*60
$GLGSV,3,2,11,75,63,156,34,76,51,333,18,77,06,334,,86,10,001,09*6C
$GLGSV,3,3,11,87,21,318,,88,09,260,,,,,30*6D
$GNGLL,0420.04179,S,05539.68868,E,060719.00,A,D*69
$GNGRS,060719.00,1,3.1,-1.6,-0.2,3.3,1.5,-1.4,-0.4,7.4,-7.3,176,,*6F
$GNGRS,060719.00,1,98.0,22.5,1.5,-4.7,-11.5,3.7,,,,,,*6B
$GNGST,060719.00,1059,,,,2.8,3.0,6.4*46
$GNZDA,060719.00,23,05,2025,00,00*70
$GNGBS,060719.00,2.8,3.0,6.4,,,,*5D
$GNTXT,01,01,01,More than 100 frame errors, UART RX was disabled*70
b0Lk#87>}""
"&F+Z'W
K{4$V_D$:R 
Y
qAGV/HJK!?L3M7MNV
W>XwwbkrXz<F$GNRMC,060723.00,A,0420.04178,S,05539.68865,E,0.040,,230525,,,D*72
$GNVTG,,T,,M,0.040,N,0.075,K,D*3E
$GNGNS,060723.00,0420.04178,S,05539.68865,E,DA,16,0.71,19.7,-47.6,,0000*65
$GNGGA,060723.00,0420.04178,S,05539.68865,E,2,12,0.71,19.7,M,-47.6,M,,0000*4D
$GNGSA,A,3,24,20,05,13,15,12,18,25,23,40,,,1.28,0.71,1.07*18
$GNGSA,A,3,86,74,75,71,72,76,,,,,,,1.28,0.71,1.07*1A
$GPGSV,4,1,15,05,56,055,35,12,62,031,31,13,14,125,24,15,34,158,34*70
$GPGSV,4,2,15,18,34,268,28,20,22,038,14,23,28,206,23,24,43,193,30*78
$GPGSV,4,3,15,25,39,343,16,29,10,331,,36,52,277,,40,86,351,36*77
$GPGSV,4,4,15,41,58,082,36,49,32,274,,50,10,089,*42
$GLGSV,3,1,11,65,12,194,,71,18,086,20,72,30,139,29,74,12,155,15*6B
$GLGSV,3,2,11,75,63,156,33,76,51,333,13,77,06,334,,86,10,001,08*61
$GLGSV,3,3,11,87,21,318,,88,09,260,,,,,29*65
$GNGLL,0420.04178,S,05539.68865,E,060723.00,A,D*6C
$GNGRS,060723.00,1,-1.7,14.6,-0.3,-0.7,2.0,0.3,-3.8,1.9,-1.9,176,,*58
$GNGRS,060723.00,1,12.0,22.4,1.5,-4.6,-16.4,3.1,,,,,,*60
$GNGST,060723.00,2974431,,,,2.8,3.0,6.5*7D
$GNZDA,060723.00,23,05,2025,00,00*79
$GNGBS,060723.00,2.8,3.0,6.5,,,,*55
$GNTXT,01,01,01,More than 100 frame errors, UART RX was disabled*70
b0Lo#87 >L}""
"&l+W'W
K{4$V_D$:R 
Y
q+AGVHhJK"?L3MMNV
W>Xbor@z$GNRMC,060724.00,A,0420.04179,S,05539.68866,E,0.084,,230525,,,D*7F
$GNVTG,,T,,M,0.084,N,0.156,K,D*36
$GNGNS,060724.00,0420.04179,S,05539.68866,E,DA,15,0.73,19.8,-47.6,,0000*6E
$GNGGA,060724.00,0420.04179,S,05539.68866,E,2,12,0.73,19.8,M,-47.6,M,,0000*45
$GNGSA,A,3,24,20,05,13,15,12,18,25,23,40,,,1.30,0.73,1.08*1C
$GNGSA,A,3,86,74,75,71,72,,,,,,,,1.30,0.73,1.08*1F
$GPGSV,4,1,15,05,56,055,35,12,62,031,32,13,14,125,24,15,34,158,34*73
$GPGSV,4,2,15,18,34,268,28,20,22,038,15,23,28,206,23,24,43,193,31*78
$GPGSV,4,3,15,25,39,343,14,29,10,331,,36,52,277,,40,86,351,36*75
$GPGSV,4,4,15,41,58,082,36,49,32,274,,50,10,089,*42
$GLGSV,3,1,11,65,12,194,,71,18,086,20,72,30,139,29,74,12,155,17*69
$GLGSV,3,2,11,75,63,156,34,76,51,333,09,77,06,334,,86,10,001,08*6D
$GLGSV,3,3,11,87,21,318,,88,09,260,,,,,29*65
$GNGLL,0420.04179,S,05539.68866,E,060724.00,A,D*69
$GNGRS,060724.00,1,-1.7,14.6,-0.3,1.8,2.1,0.8,-3.3,1.7,-1.5,176,,*7F
$GNGRS,060724.00,1,12.0,22.5,1.4,-5.0,-22.0,,,,,,,*4F
$GNGST,060724.00,3072611,,,,2.8,3.0,6.5*74
$GNZDA,060724.00,23,05,2025,00,00*7E
$GNGBS,060724.00,2.8,3.0,6.5,,,,*52
b0Lw#87!>}""
"&+
'W
K{4%V_D%:R 
Y
qAGUH`JK#?L3MMNV
W>XAbwrz~$GNRMC,060726.00,A,0420.04177,S,05539.68867,E,0.108,,230525,,,D*77
$GNVTG,,T,,M,0.108,N,0.201,K,D*32
$GNGNS,060726.00,0420.04177,S,05539.68867,E,DA,16,0.71,19.9,-47.6,,0000*63
$GNGGA,060726.00,0420.04177,S,05539.68867,E,2,12,0.71,19.9,M,-47.6,M,,0000*4B
$GNGSA,A,3,24,20,05,13,15,12,18,25,23,40,,,1.28,0.71,1.07*18
$GNGSA,A,3,86,74,75,71,72,76,,,,,,,1.28,0.71,1.07*1A
$GPGSV,4,1,15,05,56,055,35,12,62,031,33,13,14,125,25,15,34,158,34*73
$GPGSV,4,2,15,18,34,268,29,20,22,038,16,23,28,206,22,24,43,193,30*7A
$GPGSV,4,3,15,25,39,343,10,29,10,331,,36,52,277,,40,86,351,37*70
$GPGSV,4,4,15,41,58,082,37,49,32,274,,50,10,089,*43
$GLGSV,3,1,11,65,12,194,,71,18,085,21,72,30,139,30,74,12,155,18*6C
$GLGSV,3,2,11,75,63,156,35,76,51,333,14,77,06,334,,86,10,001,12*6B
$GLGSV,3,3,11,87,21,318,,88,09,260,,,,,29*65
$GNGLL,0420.04177,S,05539.68867,E,060726.00,A,D*64
$GNGRS,060726.00,1,-0.9,14.4,0.0,2.4,2.0,-0.2,-0.1,-0.9,-2.8,176,,*5A
$GNGRS,060726.00,1,11.8,22.9,1.5,-3.1,-11.8,7.6,,,,,,*6B
$GNGST,060726.00,4206456,,,,2.8,3.0,6.4*70
$GNZDA,060726.00,23,05,2025,00,00*7C
$GNGBS,060726.00,2.8,3.0,6.4,,,,*51
$GNTXT,01,01,01,More than 100 frame errors, UART RX was disabled*70
$GNTXT,01,01,01,More than 100 frame errors, UART RX was disabled*70
b0L8"87 >}!"
"&L+
'Wk
K{4$V_D#:R 
Y
qAGUHxJ)K"?L3MMNV
W>Xb8rzK$GNRMC,060729.00,A,0420.04174,S,05539.68865,E,0.038,,230525,,,D*7B
$GNVTG,,T,,M,0.038,N,0.071,K,D*35
$GNGNS,060729.00,0420.04174,S,05539.68865,E,DA,16,0.71,19.8,-47.6,,0000*6C
$GNGGA,060729.00,0420.04174,S,05539.68865,E,2,12,0.71,19.8,M,-47.6,M,,0000*44
$GNGSA,A,3,24,20,05,13,15,12,18,25,23,40,,,1.28,0.71,1.07*18
$GNGSA,A,3,86,74,75,71,72,76,,,,,,,1.28,0.71,1.07*1A
$GPGSV,4,1,15,05,56,055,34,12,62,031,32,13,14,125,25,15,34,158,33*74
$GPGSV,4,2,15,18,34,268,28,20,22,038,12,23,28,206,23,24,43,193,28*77
$GPGSV,4,3,15,25,39,343,10,29,10,331,,36,52,277,,40,86,351,36*71
$GPGSV,4,4,15,41,58,082,35,49,32,274,,50,10,089,*41
$GLGSV,3,1,11,65,12,194,,71,18,085,22,72,31,138,29,74,11,155,18*64
$GLGSV,3,2,11,75,63,156,34,76,51,333,13,77,06,334,,86,10,001,11*6E
$GLGSV,3,3,11,87,21,318,,88,09,260,,,,,28*64
$GNGLL,0420.04174,S,05539.68865,E,060729.00,A,D*6A
$GNGRS,060729.00,1,2.6,14.4,-0.1,2.2,1.9,-1.0,2.5,8.7,-4.4,176,,*5C
$GNGRS,060729.00,1,11.9,23.5,1.3,-5.8,-16.7,10.1,,,,,,*58
$GNGST,060729.00,2982295,,,,2.9,3.0,6.5*77
$GNZDA,060729.00,23,05,2025,00,00*73
$GNGBS,060729.00,2.9,3.0,6.5,,,,*5E
b0L "87 >}""
"&z+'WK
K{4$V_D#:R 
Y
qAGUWHJK"?L3MMNV

W>X[b r{$$GNRMC,060730.00,A,0420.04171,S,05539.68864,E,0.069,,230525,,,D*73
$GNVTG,,T,,M,0.069,N,0.127,K,D*33
$GNGNS,060730.00,0420.04171,S,05539.68864,E,DA,16,0.71,19.9,-47.6,,0000*61
$GNGGA,060730.00,0420.04171,S,05539.68864,E,2,12,0.71,19.9,M,-47.6,M,,0000*49
$GNGSA,A,3,24,20,05,13,15,12,18,25,23,40,,,1.28,0.71,1.07*18
$GNGSA,A,3,86,74,75,71,72,76,,,,,,,1.28,0.71,1.07*1A
$GPGSV,4,1,15,05,56,055,34,12,62,031,32,13,14,125,25,15,34,158,34*73
$GPGSV,4,2,15,18,34,269,28,20,22,038,11,23,28,206,23,24,43,193,29*74
$GPGSV,4,3,15,25,39,343,15,29,10,331,,36,52,277,,40,86,351,36*74
$GPGSV,4,4,15,41,58,082,35,49,32,274,,50,10,089,*41
$GLGSV,3,1,11,65,12,194,,71,18,085,23,72,31,138,31,74,11,155,19*6D
$GLGSV,3,2,11,75,63,157,34,76,51,333,16,77,06,334,,86,10,001,10*6B
$GLGSV,3,3,11,87,21,318,,88,09,260,,,,,30*6D
$GNGLL,0420.04171,S,05539.68864,E,060730.00,A,D*66
$GNGRS,060730.00,1,-1.0,14.2,0.3,1.4,1.9,-1.1,-5.0,8.4,-3.9,176,,*77
$GNGRS,060730.00,1,11.8,22.7,1.4,-4.3,-14.1,12.2,,,,,,*5A
$GNGST,060730.00,5151017,,,,2.9,3.0,6.5*76
$GNZDA,060730.00,23,05,2025,00,00*7B
$GNGBS,060730.00,2.9,3.0,6.5,,,,*56
$GNTXT,01,01,01,More than 100 frame errors, UART RX was disabled*70
b0L"87 >}!"
"~&+'W
K{4$V_D#:R 
Y
qAGUHJYK!?L4MMNV

=W>Xcbr{$GNRMC,060731.00,A,0420.04172,S,05539.68863,E,0.067,,230525,,,D*78
$GNVTG,,T,,M,0.067,N,0.123,K,D*39
$GNGNS,060731.00,0420.04172,S,05539.68863,E,DA,16,0.77,19.9,-47.6,,0000*62
$GNGGA,060731.00,0420.04172,S,05539.68863,E,2,12,0.77,19.9,M,-47.6,M,,0000*4A
$GNGSA,A,3,24,20,05,13,15,12,18,25,23,40,,,1.48,0.77,1.26*1B
$GNGSA,A,3,86,74,75,71,72,76,,,,,,,1.48,0.77,1.26*19
$GPGSV,4,1,15,05,56,055,34,12,62,031,32,13,14,125,24,15,34,158,33*75
$GPGSV,4,2,15,18,34,269,28,20,22,038,16,23,28,206,22,24,43,193,29*72
$GPGSV,4,3,15,25,39,343,12,29,10,331,,36,52,277,,40,86,351,36*73
$GPGSV,4,4,15,41,58,082,35,49,32,274,,50,10,089,*41
$GLGSV,3,1,11,65,12,194,,71,18,085,23,72,31,138,29,74,11,155,19*64
$GLGSV,3,2,11,75,63,157,33,76,52,333,17,77,06,334,,86,10,001,10*6E
$GLGSV,3,3,11,87,21,318,,88,09,260,,,,,29*65
$GNGLL,0420.04172,S,05539.68863,E,060731.00,A,D*63
$GNGRS,060731.00,1,3.9,5.0,-0.1,1.5,1.6,-1.2,-3.9,-18.0,-3.1,176,,*5F
$GNGRS,060731.00,1,158,23.9,1.8,-2.4,-10.6,14.4,,,,,,*70
$GNGST,060731.00,1059,,,,2.9,3.0,6.5*4C
$GNZDA,060731.00,23,05,2025,00,00*7A
$GNGBS,060731.00,2.9,3.0,6.5,,,,*57
$GNTXT,01,01,01,More than 100 frame errors, UART RX was disabled*70
$GLGSV,3,2,11,75,63,157,35,76,52,333,10,77,06,334,,86,10,001,12*6D
$GLGSV,3,3,11,87,21,318,,88,09,260,,,,,30*6D
$GNGLL,0420.04174,S,05539.68861,E,060733.00,A,D*65
$GNGRS,060733.00,1,1.0,15.0,0.1,1.6,1.7,-1.0,-1.4,9.0,-3.8,176,,*51
$GNGRS,060733.00,1,12.0,25.0,1.8,-3.3,-10.6,21.4,,,,,,*5C
$GNGST,060733.00,3074777,,,,2.9,3.0,6.5*74
$GNZDA,060733.00,23,05,2025,00,00*78
$GNGBS,060733.00,2.9,3.0,6.5,,,,*55
b0L#87 >}*""
"&+j'W
K{4%V_D$:R 
Y
qAGUMHJK$?L4MKMNV
VW>XbrP{$GNRMC,060734.00,A,0420.04174,S,05539.68860,E,0.016,,230525,,,D*7E
$GNVTG,,T,,M,0.016,N,0.030,K,D*3C
$GNGNS,060734.00,0420.04174,S,05539.68860,E,DA,16,0.80,20.1,-47.6,,0000*68
$GNGGA,060734.00,0420.04174,S,05539.68860,E,2,12,0.80,20.1,M,-47.6,M,,0000*40
$GNGSA,A,3,24,20,05,13,15,12,18,25,23,40,,,1.49,0.80,1.26*12
$GNGSA,A,3,86,74,75,71,72,76,,,,,,,1.49,0.80,1.26*10
$GPGSV,4,1,15,05,56,055,35,12,62,031,32,13,14,125,24,15,34,158,34*73
$GPGSV,4,2,15,18,34,269,28,20,22,038,17,23,28,206,23,24,43,193,31*7B
$GPGSV,4,3,15,25,39,343,12,29,10,331,,36,52,277,,40,86,351,37*72
$GPGSV,4,4,15,41,58,082,36,49,32,274,,50,10,089,*42
$GLGSV,3,1,11,65,12,194,,71,18,085,22,72,31,138,31,74,11,155,19*6C
$GLGSV,3,2,11,75,63,157,36,76,52,333,13,77,06,334,,86,10,001,12*6D
$GLGSV,3,3,11,87,21,318,,88,09,260,,,,,31*6C
$GNGLL,0420.04174,S,05539.68860,E,060734.00,A,D*63
$GNGRS,060734.00,1,1.1,12.5,0.0,0.4,2.1,-0.7,0.1,9.0,-3.7,176,,*72
$GNGRS,060734.00,1,-135,23.0,1.5,-1.8,-8.6,21.2,,,,,,*61
$GNGST,060734.00,1096,,,,2.9,3.0,6.5*4A
$GNZDA,060734.00,23,05,2025,00,00*7F
$GNGBS,060734.00,2.9,3.0,6.5,,,,*52
b0L$87>}#"
"&+'W
K{4'V_D&:R 
Y
qAGUHJcK#?L4MXMNV
W>Xbr {3~$GNRMC,060736.00,A,0420.04176,S,05539.68863,E,0.018,,230525,,,D*73
$GNVTG,,T,,M,0.018,N,0.033,K,D*31
$GNGNS,060736.00,0420.04176,S,05539.68863,E,DA,16,0.73,20.1,-47.6,,0000*67
$GNGGA,060736.00,0420.04176,S,05539.68863,E,2,12,0.73,20.1,M,-47.6,M,,0000*4F
$GNGSA,A,3,24,20,05,13,15,12,18,25,23,40,,,1.30,0.73,1.08*1C
$GNGSA,A,3,86,74,75,71,72,76,,,,,,,1.30,0.73,1.08*1E
$GPGSV,4,1,15,05,56,055,36,12,62,031,31,13,14,125,25,15,34,158,35*73
$GPGSV,4,2,15,18,34,269,30,20,22,038,16,23,28,206,24,24,43,193,30*75
$GPGSV,4,3,15,25,39,343,14,29,10,331,,36,52,277,,40,86,351,39*7A
$GPGSV,4,4,15,41,58,082,38,49,32,274,,50,10,089,*4C
$GLGSV,3,1,11,65,12,194,,71,18,085,24,72,31,138,30,74,11,155,19*6B
$GLGSV,3,2,11,75,63,157,35,76,52,333,18,77,06,334,,86,10,001,08*6E
$GLGSV,3,3,11,87,21,318,,88,09,260,,,,,30*6D
$GNGLL,0420.04176,S,05539.68863,E,060736.00,A,D*60
$GNGRS,060736.00,1,0.1,14.8,-0.2,1.8,2.3,-0.8,-3.3,6.8,-4.9,176,,*77
$GNGRS,060736.00,1,11.9,24.0,1.5,0.0,-11.2,23.9,,,,,,*78
$GNGST,060736.00,42070,,,,2.9,3.0,6.5*77
$GNZDA,060736.00,23,05,2025,00,00*7D
$GNGBS,060736.00,2.9,3.0,6.5,,,,*50
$GNGRS,060737.00,1,-1.5,0.0,3.8,2.3,-1.4,-3.2,5.7,-5.8,176,,,*60
$GNGRS,060737.00,1,-94.9,24.1,1.4,1.2,-10.7,23.6,,,,,,*51
$GNGST,060737.00,1137,,,,2.9,3.0,6.5*43
$GNZDA,060737.00,23,05,2025,00,00*7C
$GNGBS,060737.00,2.9,3.0,6.5,,,,*51
$GNTXT,01,01,01,More than 100 frame errors, UART RX was disabled*70
b0L`$87>T}""
"&+'W
K{4%V_D$:R 
Y
qoAGU_H0JK$?L4MMNV
W>XKb`r {K$GNRMC,060738.00,A,0420.04177,S,05539.68872,E,0.012,,230525,,,D*76
$GNVTG,,T,,M,0.012,N,0.022,K,D*3B
$GNGNS,060738.00,0420.04177,S,05539.68872,E,DA,16,0.73,20.2,-47.6,,0000*6B
$GNGGA,060738.00,0420.04177,S,05539.68872,E,2,12,0.73,20.2,M,-47.6,M,,0000*43
$GNGSA,A,3,24,20,05,13,15,12,18,25,23,40,,,1.30,0.73,1.08*1C
$GNGSA,A,3,86,74,75,71,72,76,,,,,,,1.30,0.73,1.08*1E
$GPGSV,4,1,15,05,56,055,36,12,62,031,31,13,14,125,25,15,34,158,34*72
$GPGSV,4,2,15,18,34,269,28,20,22,038,14,23,28,206,25,24,43,193,29*77
$GPGSV,4,3,15,25,39,343,15,29,10,331,,36,52,277,,40,86,351,37*75
$GPGSV,4,4,15,41,58,082,36,49,32,274,,50,10,089,*42
$GLGSV,3,1,11,65,12,194,,71,18,085,26,72,31,138,30,74,11,155,17*67
$GLGSV,3,2,11,75,63,157,36,76,52,333,19,77,06,334,,86,10,001,08*6C
$GLGSV,3,3,11,87,21,318,,88,09,260,,,,,29*65
$GNGLL,0420.04177,S,05539.68872,E,060738.00,A,D*6F
$GNGRS,060738.00,1,-0.9,15.0,0.3,4.8,2.3,-1.7,-2.7,5.4,-5.3,176,,*73
$GNGRS,060738.00,1,12.1,25.0,1.4,1.0,-12.3,23.0,,,,,,*77
$GNGST,060738.00,3071473,,,,2.9,3.0,6.5*7D
$GNZDA,060738.00,23,05,2025,00,00*73
$GNGBS,060738.00,2.9,3.0,6.5,,,,*5E
$GNTXT,01,01,01,More than 100 frame errors, UART RX was disabled*70
b0LH$87>@}!"
"&l+'W
K{4&V_D$:R 
Y
qAGUHJ*
K$?L4MMNV
W>XbHr${$GNRMC,060739.00,A,0420.04175,S,05539.68873,E,0.056,,230525,,,D*74
$GNVTG,,T,,M,0.056,N,0.104,K,D*3E
$GNGNS,060739.00,0420.04175,S,05539.68873,E,DA,16,0.73,20.2,-47.6,,0000*69
$GNGGA,060739.00,0420.04175,S,05539.68873,E,2,12,0.73,20.2,M,-47.6,M,,0000*41
$GNGSA,A,3,24,20,05,13,15,12,18,25,23,40,,,1.30,0.73,1.08*1C
$GNGSA,A,3,86,74,75,71,72,76,,,,,,,1.30,0.73,1.08*1E
$GPGSV,4,1,15,05,56,055,36,12,62,031,31,13,14,125,24,15,34,158,33*74
$GPGSV,4,2,15,18,34,269,28,20,22,038,16,23,28,206,25,24,43,193,29*75
$GPGSV,4,3,15,25,39,343,14,29,10,331,,36,52,277,,40,86,351,38*7B
$GPGSV,4,4,15,41,58,082,36,49,32,274,,50,10,089,*42
$GLGSV,3,1,11,65,12,194,,71,18,085,26,72,31,138,30,74,11,155,18*68
$GLGSV,3,2,11,75,63,157,36,76,52,333,20,77,06,334,,86,10,001,09*67
$GLGSV,3,3,11,87,21,318,,88,09,260,,,,,30*6D
$GNGLL,0420.04175,S,05539.68873,E,060739.00,A,D*6D
$GNGRS,060739.00,1,-0.6,11.9,0.1,4.4,2.2,-1.9,-1.2,4.8,-4.0,176,,*78
$GNGRS,060739.00,1,11.9,26.0,1.5,0.3,-16.6,21.8,,,,,,*76
$GNGST,060739.00,3071473,,,,2.9,3.0,6.5*7C
$GNZDA,060739.00,23,05,2025,00,00*72
$GNGBS,060739.00,2.9,3.0,6.5,,,,*5F
$GNTXT,01,01,01,More than 100 frame errors, UART RX was disabled*70
$GNTXT,01,01,01,More than 100 frame errors, UART RX was disabled*70
b0L!87>}=""T
"F&+'Wf
K{4%V_D#:R 
Y
qAGUHJK#?L4MMNVW>Xbr,{j$GNRMC,060741.00,A,0420.04173,S,05539.68876,E,0.057,,230525,,,D*79
$GNVTG,,T,,M,0.057,N,0.105,K,D*3E
$GNGNS,060741.00,0420.04173,S,05539.68876,E,DA,16,0.73,20.0,-47.6,,0000*67
$GNGGA,060741.00,0420.04173,S,05539.68876,E,2,12,0.73,20.0,M,-47.6,M,,0000*4F
$GNGSA,A,3,24,20,05,13,15,12,18,25,23,40,,,1.30,0.73,1.08*1C
$GNGSA,A,3,86,74,75,71,72,76,,,,,,,1.30,0.73,1.08*1E
$GPGSV,4,1,15,05,56,055,33,12,62,031,31,13,14,125,25,15,34,158,34*77
$GPGSV,4,2,15,18,34,269,29,20,22,038,16,23,28,206,23,24,43,193,28*73
$GPGSV,4,3,15,25,39,343,11,29,10,331,,36,52,277,,40,86,351,37*71
$GPGSV,4,4,15,41,58,082,35,49,32,274,,50,10,089,*41
$GLGSV,3,1,11,65,12,194,,71,18,085,25,72,31,138,30,74,11,155,18*6B
$GLGSV,3,2,11,75,63,157,35,76,52,333,22,77,06,334,,86,09,002,11*64
$GLGSV,3,3,11,87,21,318,,88,09,260,,,,,29*65
$GNGLL,0420.04173,S,05539.68876,E,060741.00,A,D*61
$GNGRS,060741.00,1,2.6,12.4,0.0,3.2,3.4,-3.3,-1.9,6.1,-2.3,176,,*5C
$GNGRS,060741.00,1,11.9,24.4,1.7,-0.7,-15.1,21.8,,,,,,*50
$GNGST,060741.00,3071473,,,,2.9,3.0,6.5*73
$GNZDA,060741.00,23,05,2025,00,00*7D
$GNGBS,060741.00,2.9,3.0,6.5,,,,*50
$GNTXT,01,01,01,More than 100 frame errors, UART RX was disabled*70
b0L$87 >}U#"
"d&R+t'W/
K{4&V_D$:R 
Y
qAGU&HsJ/K#?L4M%MNVW?Xbr0{B$GNRMC,060742.00,A,0420.04175,S,05539.68877,E,0.047,,230525,,,D*7C
$GNVTG,,T,,M,0.047,N,0.086,K,D*35
$GNGNS,060742.00,0420.04175,S,05539.68877,E,DA,16,0.73,20.1,-47.6,,0000*62
$GNGGA,060742.00,0420.04175,S,05539.68877,E,2,12,0.73,20.1,M,-47.6,M,,0000*4A
$GNGSA,A,3,24,20,05,13,15,12,18,25,23,40,,,1.30,0.73,1.08*1C
$GNGSA,A,3,86,74,75,71,72,76,,,,,,,1.30,0.73,1.08*1E
$GPGSV,4,1,15,05,56,055,36,12,62,031,32,13,14,125,26,15,34,158,35*73
$GPGSV,4,2,15,18,34,269,30,20,22,038,17,23,28,206,23,24,43,193,29*7B
$GPGSV,4,3,15,25,39,343,14,29,10,331,,36,52,277,,40,86,351,38*7B
$GPGSV,4,4,15,41,58,082,36,49,32,274,,50,10,089,*42
$GLGSV,3,1,11,65,12,194,,71,18,085,25,72,31,138,31,74,11,155,19*6B
$GLGSV,3,2,11,75,63,157,35,76,52,333,21,77,06,334,,86,09,002,11*67
$GLGSV,3,3,11,87,20,319,,88,09,260,,,,,30*6D
$GNGLL,0420.04175,S,05539.68877,E,060742.00,A,D*65
$GNGRS,060742.00,1,-1.4,11.1,-0.1,3.4,5.0,-3.2,-1.6,3.0,-2.8,176,,*5C
$GNGRS,060742.00,1,11.9,23.5,1.6,0.4,-14.2,20.8,,,,,,*79
$GNGST,060742.00,3071473,,,,2.9,3.0,6.4*71
$GNZDA,060742.00,23,05,2025,00,00*7E
$GNGBS,060742.00,2.9,3.0,6.4,,,,*52
b0L#87>v}"
"&+'W
K{4&V_D$:R 
Y
qAGU]HJOK#?L4MMNV
W?X$brx4{D$GNRMC,060743.00,A,0420.04170,S,05539.68874,E,0.081,,230525,,,D*71
$GNVTG,,T,,M,0.081,N,0.150,K,D*35
$GNGNS,060743.00,0420.04170,S,05539.68874,E,DA,16,0.71,20.0,-47.6,,0000*66
$GNGGA,060743.00,0420.04170,S,05539.68874,E,2,12,0.71,20.0,M,-47.6,M,,0000*4E
$GNGSA,A,3,24,20,05,13,15,12,18,25,23,40,,,1.28,0.71,1.07*18
$GNGSA,A,3,86,74,75,71,72,76,,,,,,,1.28,0.71,1.07*1A
$GPGSV,4,1,15,05,56,055,35,12,62,031,31,13,14,125,25,15,34,158,31*74
$GPGSV,4,2,15,18,34,269,29,20,22,038,18,23,28,206,23,24,43,193,28*7D
$GPGSV,4,3,15,25,39,343,14,29,10,331,,36,52,277,,40,86,351,38*7B
$GPGSV,4,4,15,41,58,082,36,49,32,274,,50,10,089,*42
$GLGSV,3,1,11,65,12,194,,71,18,085,23,72,31,138,30,74,11,155,18*6D
$GLGSV,3,2,11,75,63,157,35,76,52,333,21,77,06,334,,86,09,002,10*66
$GLGSV,3,3,11,87,20,319,,88,09,261,,,,,29*64
$GNGLL,0420.04170,S,05539.68874,E,060743.00,A,D*62
$GNGRS,060743.00,1,2.0,9.5,-0.1,4.5,0.0,-1.4,-1.1,2.4,-0.9,176,,*4C
$GNGRS,060743.00,1,9.2,23.8,1.6,0.9,-15.5,19.2,,,,,,*4C
$GNGST,060743.00,1026,,,,2.9,3.0,6.4*40
$GNZDA,060743.00,23,05,2025,00,00*7F
$GNGBS,060743.00,2.9,3.0,6.4,,,,*53
$GNTXT,01,01,01,More than 100 frame errors, UART RX was disabled*70
b0L%87>m} "
"&wS+w'W
K{4(V_D&:R 
Y
qAGUzH~JtK"?L4MMNVW?X$EbrH<{$GNRMC,060745.00,A,0420.04167,S,05539.68876,E,0.048,,230525,,,D*76
$GNVTG,,T,,M,0.048,N,0.089,K,D*35
$GNGNS,060745.00,0420.04167,S,05539.68876,E,DA,16,0.71,20.0,-47.6,,0000*64
$GNGGA,060745.00,0420.04167,S,05539.68876,E,2,12,0.71,20.0,M,-47.6,M,,0000*4C
$GNGSA,A,3,24,20,05,13,15,12,18,25,23,40,,,1.28,0.71,1.07*18
$GNGSA,A,3,86,74,75,71,72,76,,,,,,,1.28,0.71,1.07*1A
$GPGSV,4,1,15,05,56,055,37,12,62,031,28,13,14,125,23,15,34,158,32*7B
$GPGSV,4,2,15,18,34,269,28,20,22,038,18,23,28,206,25,24,43,193,29*7B
$GPGSV,4,3,15,25,39,343,12,29,10,331,,36,52,277,,40,86,351,40*72
$GPGSV,4,4,15,41,58,082,38,49,32,274,,50,10,089,*4C
$GLGSV,3,1,11,65,12,194,,71,18,085,23,72,31,138,29,74,11,155,16*6B
$GLGSV,3,2,11,75,63,157,34,76,52,333,21,77,06,334,,86,09,002,09*6F
$GLGSV,3,3,11,87,20,319,,88,09,261,,,,,28*65
$GNGLL,0420.04167,S,05539.68876,E,060745.00,A,D*60
$GNGRS,060745.00,1,-1.4,8.9,-0.2,7.8,2.2,1.1,-5.8,2.3,-1.7,175,,*4E
$GNGRS,060745.00,1,11.9,24.2,1.4,1.2,-16.7,16.9,,,,,,*78
$GNGST,060745.00,35990,,,,2.9,3.0,6.4*75
$GNZDA,060745.00,23,05,2025,00,00*79
$GNGBS,060745.00,2.9,3.0,6.4,,,,*55
b0L$87>}!"}
"D&+'W_
K{4'V_qD%:R 
Y
qIAGUHJK"?vL4MMNV%2W?Xbr0@{|$GNRMC,060746.00,A,0420.04164,S,05539.68876,E,0.082,,230525,,,D*70
$GNVTG,,T,,M,0.082,N,0.152,K,D*34
$GNGNS,060746.00,0420.04164,S,05539.68876,E,DA,16,0.78,20.0,-47.6,,0000*6D
$GNGGA,060746.00,0420.04164,S,05539.68876,E,2,12,0.78,20.0,M,-47.6,M,,0000*45
$GNGSA,A,3,24,20,05,13,15,12,18,25,23,40,,,1.48,0.78,1.26*14
$GNGSA,A,3,86,74,75,71,72,76,,,,,,,1.48,0.78,1.26*16
$GPGSV,4,1,15,05,56,055,36,12,62,031,29,13,14,125,22,15,34,158,33*7B
$GPGSV,4,2,15,18,34,269,27,20,22,038,17,23,28,206,25,24,43,193,28*7A
$GPGSV,4,3,15,25,39,343,11,29,10,331,,36,52,277,,40,86,351,39*7F
$GPGSV,4,4,15,41,58,082,37,49,32,274,,50,10,089,*43
$GLGSV,3,1,11,65,12,194,,71,18,085,23,72,31,138,28,74,11,155,14*68
$GLGSV,3,2,11,75,63,157,34,76,52,333,21,77,06,334,,86,09,002,07*61
$GLGSV,3,3,11,87,20,319,,88,09,261,,,,,27*6A
$GNGLL,0420.04164,S,05539.68876,E,060746.00,A,D*60
$GNGRS,060746.00,1,-0.9,7.6,-0.7,7.7,1.3,-0.7,-4.4,0.9,-3.8,175,,*6B
$GNGRS,060746.00,1,128,23.2,1.2,1.9,-16.3,14.8,,,,,,*5A
$GNGST,060746.00,1059,,,,2.9,3.0,6.4*4D
$GNZDA,060746.00,23,05,2025,00,00*7A
$GNGBS,060746.00,2.9,3.0,6.4,,,,*56
$GNTXT,01,01,01,More than 100 frame errors, UART RX was disabled*70
b0L$87>}r!"
"&+9'W
K{4&V_YD%:R 
Y
qAGUwHJK"?zL4MMNVW?XbrD{y$GNRMC,060747.00,A,0420.04160,S,05539.68875,E,0.132,,230525,,,D*7C
$GNVTG,,T,,M,0.132,N,0.244,K,D*3A
$GNGNS,060747.00,0420.04160,S,05539.68875,E,DA,15,0.74,19.9,-47.6,,0000*67
$GNTXT,01,01,01,More than 100 frame errors, UART RX was disabled*70
$GNTXT,01,01,01,More than 100 frame errors, UART RX was disabled*70
$GNTXT,01,01,01,More than 100 frame errors, UART RX was disabled*70
$GNTXT,01,01,01,More than 100 frame errors, UART RX was disabled*70
$GNTXT,01,01,01,More than 100 frame errors, UART RX was disabled*70
$GNTXT,01,01,01,More than 100 frame errors, UART RX was disabled*70
b0L$76>}""
"x&q+'W2
K{4(V_qD%:R 
Y
qLAGUHrJ(K#?L4MwMNVW?X0[br[{B$GNRMC,060753.00,A,0420.04146,S,05539.68872,E,0.079,,230525,,,D*74
$GNVTG,,T,,M,0.079,N,0.147,K,D*34
$GNGNS,060753.00,0420.04146,S,05539.68872,E,DA,15,0.74,19.6,-47.6,,0000*6E
$GNGGA,060753.00,0420.04146,S,05539.68872,E,2,12,0.74,19.6,M,-47.6,M,,0000*45
$GNGSA,A,3,24,20,05,13,15,12,18,23,40,,,,1.30,0.74,1.07*13
$GNGSA,A,3,86,74,75,71,72,76,,,,,,,1.30,0.74,1.07*16
$GPGSV,4,1,15,05,55,054,36,12,62,031,30,13,14,125,24,15,34,158,34*70
$GPGSV,4,2,15,18,34,269,27,20,22,038,22,23,28,206,25,24,43,193,28*7C
$GPGSV,4,3,15,25,39,343,08,29,10,331,,36,52,277,,40,86,351,40*79
$GPGSV,4,4,15,41,58,082,37,49,32,274,,50,10,089,*43
$GLGSV,3,1,11,65,12,194,,71,18,085,22,72,31,138,29,74,11,155,17*6B
$GLGSV,3,2,11,75,63,157,35,76,52,333,18,77,06,334,,86,09,002,07*6A
$GLGSV,3,3,11,87,20,319,,88,09,261,,,,,28*65
$GNGLL,0420.04146,S,05539.68872,E,060753.00,A,D*60
$GNGRS,060753.00,1,2.7,3.7,-0.5,7.2,1.6,-3.3,-3.9,-1.1,175,,,*68
$GNGRS,060753.00,1,12.2,20.9,1.3,1.4,-14.2,14.0,,,,,,*75
$GNGST,060753.00,3272,,,,2.9,3.1,6.5*40
$GNZDA,060753.00,23,05,2025,00,00*7E
$GNGBS,060753.00,2.9,3.1,6.5,,,,*52
$GNTXT,01,01,01,More than 100 frame errors, UART RX was disabled*70
$GNTXT,01,01,01,More than 100 frame errors, UART RX was disabled*70
$GNTXT,01,01,01,More than 100 frame errors, UART RX was disabled*70
$GNTXT,01,01,01,More than 100 frame errors, UART RX was disabled*70
$GNTXT,01,01,01,More than 100 frame errors, UART RX was disabled*70
b0L%76? }$"
"z&;+'W
K{4)V_D':R 
Y
qAGUHpJMK%?|L4MMNVW?Xbro{J$GNRMC,060758.00,A,0420.04150,S,05539.68874,E,0.069,,230525,,,D*7F
$GNVTG,,T,,M,0.069,N,0.127,K,D*33
$GNGNS,060758.00,0420.04150,S,05539.68874,E,DA,16,0.76,19.5,-47.6,,0000*66
$GNGGA,060758.00,0420.04150,S,05539.68874,E,2,12,0.76,19.5,M,-47.6,M,,0000*4E
$GNGSA,A,3,24,20,05,13,15,12,18,25,23,40,,,1.43,0.76,1.20*17
$GNGSA,A,3,86,74,75,71,72,76,,,,,,,1.43,0.76,1.20*15
$GPGSV,4,1,15,05,55,054,37,12,63,032,30,13,14,125,26,15,34,158,36*73
$GPGSV,4,2,15,18,34,269,29,20,22,038,22,23,28,206,29,24,43,193,31*76
$GPGSV,4,3,15,25,39,343,15,29,10,331,,36,52,277,,40,86,351,41*74
$GPGSV,4,4,15,41,58,082,39,49,32,274,,50,10,089,*4D
$GLGSV,3,1,11,65,12,194,,71,18,085,24,72,31,138,30,74,11,155,18*6A
$GLGSV,3,2,11,75,63,157,37,76,52,333,15,77,06,334,,86,09,002,09*6B
$GLGSV,3,3,11,87,20,319,,88,09,261,,,,,26*6B
$GNGLL,0420.04150,S,05539.68874,E,060758.00,A,D*6A
$GNGRS,060758.00,1,-3.3,-4.5,-0.4,7.6,2.0,0.2,-3.9,1.4,-2.9,176,,*6F
$GNGRS,060758.00,1,39.9,16.1,1.2,2.2,-9.1,14.3,,,,,,*49
$GNGST,060758.00,1026,,,,2.8,3.0,6.3*4C
$GNZDA,060758.00,23,05,2025,00,00*75
$GNGBS,060758.00,2.8,3.0,6.3,,,,*5F
$GNTXT,01,01,01,More than 100 frame errors, UART RX was disabled*70
b0Lh%76? }#"
"&;+:'W
K{4)V_D':R 
Y
qGAGUHJ@K%?dL4M0MNV
W?Xzbhrr{$GNRMC,060759.00,A,0420.04146,S,05539.68874,E,0.117,,230525,,,D*71
$GNVTG,,T,,M,0.117,N,0.216,K,D*3A
$GNGNS,060759.00,0420.04146,S,05539.68874,E,DA,16,0.70,19.5,-47.6,,0000*66
$GNGGA,060759.00,0420.04146,S,05539.68874,E,2,12,0.70,19.5,M,-47.6,M,,0000*4E
$GNGSA,A,3,24,20,05,13,15,12,18,25,23,40,,,1.23,0.70,1.01*14
$GNGSA,A,3,86,74,75,71,72,76,,,,,,,1.23,0.70,1.01*16
$GPGSV,4,1,15,05,55,054,37,12,63,032,30,13,14,125,25,15,34,158,35*73
$GPGSV,4,2,15,18,34,269,29,20,22,038,23,23,28,206,29,24,43,193,30*76
$GPGSV,4,3,15,25,39,343,16,29,10,331,,36,52,277,,40,86,351,41*77
$GPGSV,4,4,15,41,58,082,39,49,32,274,,50,10,089,*4D
$GLGSV,3,1,11,65,12,194,,71,18,085,24,72,31,138,30,74,11,155,18*6A
$GLGSV,3,2,11,75,63,157,37,76,52,333,13,77,06,334,,86,09,002,10*65
$GLGSV,3,3,11,87,20,319,,88,09,261,,,,,25*68
$GNGLL,0420.04146,S,05539.68874,E,060759.00,A,D*6C
$GNGRS,060759.00,1,-2.0,-3.8,-0.4,6.5,1.9,2.8,-0.9,1.5,-4.5,176,,*6E
$GNGRS,060759.00,1,12.0,16.0,1.0,0.3,-10.5,15.8,,,,,,*7E
$GNGST,060759.00,2885147,,,,2.8,3.0,6.3*7D
$GNZDA,060759.00,23,05,2025,00,00*74
$GNGBS,060759.00,2.8,3.0,6.3,,,,*5E
b0LP%76? J}a#"
"&LL+'WB
K{4)V_D':R 
Y
quAGUHJ1K$?mL4MFMNVW?XhbPrv{n$GNRMC,060800.00,A,0420.04151,S,05539.68879,E,0.041,,230525,,,D*7B
$GNVTG,,T,,M,0.041,N,0.076,K,D*3C
$GNGNS,060800.00,0420.04151,S,05539.68879,E,DA,16,0.70,19.5,-47.6,,0000*6E
$GNGGA,060800.00,0420.04151,S,05539.68879,E,2,12,0.70,19.5,M,-47.6,M,,0000*46
$GNGSA,A,3,24,20,05,13,15,12,18,25,23,40,,,1.23,0.70,1.01*14
$GNGSA,A,3,86,74,75,71,72,76,,,,,,,1.23,0.70,1.01*16
$GPGSV,4,1,15,05,55,054,37,12,63,032,30,13,14,125,26,15,34,158,35*70
$GPGSV,4,2,15,18,34,269,29,20,22,038,22,23,28,206,29,24,43,193,30*77
$GPGSV,4,3,15,25,39,343,15,29,10,331,,36,52,277,,40,86,351,41*74
$GPGSV,4,4,15,41,58,082,39,49,32,274,,50,10,089,*4D
$GLGSV,3,1,11,65,12,194,,71,18,085,24,72,31,138,29,74,11,155,18*62
$GLGSV,3,2,11,75,63,157,36,76,52,333,14,77,06,334,,86,09,002,08*6A
$GLGSV,3,3,11,87,20,319,,88,09,261,,,,,25*68
$GNGLL,0420.04151,S,05539.68879,E,060800.00,A,D*64
$GNGRS,060800.00,1,2.1,-1.8,-0.4,6.1,1.8,-1.8,-7.6,0.7,-1.8,176,,*6B
$GNGRS,060800.00,1,12.0,15.9,1.1,2.0,-6.2,16.1,,,,,,*4D
$GNGST,060800.00,2885147,,,,2.7,3.0,6.2*70
$GNZDA,060800.00,23,05,2025,00,00*77
$GNGBS,060800.00,2.7,3.0,6.2,,,,*53
$GNTXT,01,01,01,More than 100 frame errors, UART RX was disabled*70
$GNTXT,01,01,01,More than 100 frame errors, UART RX was disabled*70
b0L$76? }|""
"%Y3+
'W>
K{4(V_D&:R 
Y
q_AGU}H:JK%?*L4MMNV ,W?X]:br{$GNRMC,060804.00,A,0420.04165,S,05539.68895,E,0.062,,230525,,,D*7B
$GNVTG,,T,,M,0.062,N,0.115,K,D*39
$GNGNS,060804.00,0420.04165,S,05539.68895,E,DA,16,0.76,19.8,-47.6,,0000*64
$GNGGA,060804.00,0420.04165,S,05539.68895,E,2,12,0.76,19.8,M,-47.6,M,,0000*4C
$GNGSA,A,3,24,20,05,13,15,12,18,25,23,40,,,1.43,0.76,1.20*17
$GNGSA,A,3,86,74,75,71,72,76,,,,,,,1.43,0.76,1.20*15
$GPGSV,4,1,15,05,55,054,36,12,63,032,30,13,14,125,25,15,34,158,34*73
$GPGSV,4,2,15,18,34,269,30,20,22,037,23,23,28,206,28,24,43,193,30*70
$GPGSV,4,3,15,25,39,343,10,29,10,331,,36,52,277,,40,86,351,40*70
$GPGSV,4,4,15,41,58,082,38,49,32,274,,50,10,089,*4C
$GLGSV,3,1,11,65,12,194,,71,18,085,23,72,31,138,29,74,11,155,17*6A
$GLGSV,3,2,11,75,63,157,37,76,52,333,16,77,06,334,,86,09,002,11*61
$GLGSV,3,3,11,87,20,319,,88,09,261,,,,,25*68
$GNGLL,0420.04165,S,05539.68895,E,060804.00,A,D*65
$GNGRS,060804.00,1,-0.7,0.9,-0.5,3.8,2.0,-3.8,-4.9,-1.9,-4.6,176,,*4A
$GNGRS,060804.00,1,113,17.7,0.4,1.2,-12.2,10.1,,,,,,*5D
$GNGST,060804.00,1026,,,,2.7,2.9,6.1*4F
$GNZDA,060804.00,23,05,2025,00,00*73
$GNGBS,060804.00,2.7,2.9,6.1,,,,*5C
$GNTXT,01,01,01,More than 100 frame errors, UART RX was disabled*70
b0L$76? }""
"%/+'W
K{4(V_D&:R 
Y
qAGU$HJK%?:L4MhMNVW?Xbrh{$GNRMC,060805.00,A,0420.04166,S,05539.68898,E,0.075,,230525,,,D*72
$GNVTG,,T,,M,0.075,N,0.138,K,D*30
$GNGNS,060805.00,0420.04166,S,05539.68898,E,DA,16,0.70,19.7,-47.6,,0000*62
$GNGGA,060805.00,0420.04166,S,05539.68898,E,2,12,0.70,19.7,M,-47.6,M,,0000*4A
$GNGSA,A,3,24,20,05,13,15,12,18,25,23,40,,,1.23,0.70,1.01*14
$GNGSA,A,3,86,74,75,71,72,76,,,,,,,1.23,0.70,1.01*16
$GPGSV,4,1,15,05,55,054,36,12,63,032,31,13,14,125,24,15,34,158,34*73
$GPGSV,4,2,15,18,34,269,29,20,22,037,24,23,29,206,28,24,43,193,31*7F
$GPGSV,4,3,15,25,39,343,17,29,10,331,,36,52,277,,40,86,351,40*77
$GPGSV,4,4,15,41,58,082,38,49,32,274,,50,10,089,*4C
$GLGSV,3,1,11,65,12,194,,71,18,085,22,72,31,138,30,74,11,155,18*6C
$GLGSV,3,2,11,75,63,157,37,76,52,333,16,77,06,334,,86,09,002,09*68
$GLGSV,3,3,11,87,20,319,,88,09,261,,,,,26*6B
$GNGLL,0420.04166,S,05539.68898,E,060805.00,A,D*6A
$GNGRS,060805.00,1,-0.9,3.0,-0.8,2.1,2.2,-3.4,-4.9,-3.2,-3.5,176,,*49
$GNGRS,060805.00,1,12.1,17.5,0.6,0.4,-14.0,8.7,,,,,,*4F
$GNGST,060805.00,2886063,,,,2.7,2.9,6.1*7A
$GNZDA,060805.00,23,05,2025,00,00*72
$GNGBS,060805.00,2.7,2.9,6.1,,,,*5D
b0L$76? Q}L!"
"K%F+'W
K{4(V_D&:R 
Y
qAGUHJK%?(L4MMNV
W?X5brP{~$GNRMC,060806.00,A,0420.04163,S,05539.68897,E,0.021,,230525,,,D*7A
$GNVTG,,T,,M,0.021,N,0.039,K,D*31
$GNGNS,060806.00,0420.04163,S,05539.68897,E,DA,16,0.70,19.6,-47.6,,0000*6A
$GNGGA,060806.00,0420.04163,S,05539.68897,E,2,12,0.70,19.6,M,-47.6,M,,0000*42
$GNGSA,A,3,24,20,05,13,15,12,18,25,23,40,,,1.23,0.70,1.01*14
$GNGSA,A,3,86,74,75,71,72,76,,,,,,,1.23,0.70,1.01*16
$GPGSV,4,1,15,05,55,054,36,12,63,032,30,13,14,125,23,15,34,158,33*72
$GPGSV,4,2,15,18,34,269,28,20,22,037,24,23,29,206,28,24,43,192,31*7F
$GPGSV,4,3,15,25,39,343,11,29,10,331,,36,52,277,,40,86,351,40*71
$GPGSV,4,4,15,41,58,082,38,49,32,274,,50,10,089,*4C
$GLGSV,3,1,11,65,12,194,,71,18,085,22,72,31,138,31,74,11,155,19*6C
$GLGSV,3,2,11,75,63,157,37,76,52,333,18,77,06,334,,86,09,002,10*6E
$GLGSV,3,3,11,87,20,319,,88,09,261,,,,,25*68
$GNGLL,0420.04163,S,05539.68897,E,060806.00,A,D*63
$GNGRS,060806.00,1,-0.5,0.7,-0.8,3.3,2.1,0.8,-1.8,-3.7,-2.7,176,,*62
$GNGRS,060806.00,1,11.9,18.2,0.4,-0.1,-18.6,7.4,,,,,,*63
$GNGST,060806.00,2886063,,,,2.7,2.9,6.1*79
$GNZDA,060806.00,23,05,2025,00,00*71
$GNGBS,060806.00,2.7,2.9,6.1,,,,*5E
$GNTXT,01,01,01,More than 100 frame errors, UART RX was disabled*70
b0L$76? }#"
"%+(Wy
K{4(V_D&:R 
Y
qAGUHJK$?AL4M'MNVW?XFbr {.V$GNRMC,060808.00,A,0420.04161,S,05539.68896,E,0.125,,230525,,,D*72
$GNVTG,,T,,M,0.125,N,0.232,K,D*3D
$GNGNS,060808.00,0420.04161,S,05539.68896,E,DA,16,0.70,19.4,-47.6,,0000*65
$GNGGA,060808.00,0420.04161,S,05539.68896,E,2,12,0.70,19.4,M,-47.6,M,,0000*4D
$GNGSA,A,3,24,20,05,13,15,12,18,25,23,40,,,1.23,0.70,1.01*14
$GNGSA,A,3,86,74,75,71,72,76,,,,,,,1.23,0.70,1.01*16
$GPGSV,4,1,15,05,55,054,36,12,63,032,29,13,14,125,26,15,34,158,35*79
$GPGSV,4,2,15,18,34,269,27,20,22,037,24,23,29,206,27,24,43,192,31*7F
$GPGSV,4,3,15,25,40,343,11,29,10,331,,36,52,277,,40,86,351,40*7F
$GPGSV,4,4,15,41,58,082,38,49,32,274,,50,10,089,*4C
$GLGSV,3,1,11,65,12,194,,71,18,085,22,72,31,138,30,74,11,155,19*6D
$GLGSV,3,2,11,75,63,157,36,76,52,333,18,77,06,334,,86,09,002,11*6E
$GLGSV,3,3,11,87,20,319,,88,09,261,,,,,25*68
$GNGLL,0420.04161,S,05539.68896,E,060808.00,A,D*6E
$GNGRS,060808.00,1,4.0,0.2,-1.1,6.4,1.5,1.7,-2.9,8.9,-1.2,176,,*6A
$GNGRS,060808.00,1,12.2,17.0,0.7,2.0,-10.1,5.5,,,,,,*49
$GNGST,060808.00,64059,,,,2.7,2.9,6.1*78
$GNZDA,060808.00,23,05,2025,00,00*7F
$GNGBS,060808.00,2.7,2.9,6.1,,,,*50
b0Lx%76? K}#"
"M%7t+G
(Ws
K{4(V_D&:R 
Y
q<AGUHsJiK$?>L4MMNVW?Xm*bxr{$GNRMC,060809.00,A,0420.04161,S,05539.68895,E,0.148,,230525,,,D*7B
$GNVTG,,T,,M,0.148,N,0.273,K,D*33
$GNGNS,060809.00,0420.04161,S,05539.68895,E,DA,16,0.70,19.5,-47.6,,0000*66
$GNGGA,060809.00,0420.04161,S,05539.68895,E,2,12,0.70,19.5,M,-47.6,M,,0000*4E
$GNGSA,A,3,24,20,05,13,15,12,18,25,23,40,,,1.23,0.70,1.01*14
