$GNRMC,075336.00,A,0419.75550,S,05539.70001,E,0.037,,260525,,,A*77
$GNVTG,,T,,M,0.037,N,0.068,K,A*37
$GNGGA,075336.00,0419.75550,S,05539.70001,E,1,12,0.71,6.6,M,-47.6,M,,*74
$GNGSA,A,3,25,23,12,15,10,29,18,24,28,05,,,1.28,0.71,1.07*1C
$GNGSA,A,3,68,79,80,67,82,,,,,,,,1.28,0.71,1.07*14
$GPGSV,5,1,18,05,07,028,44,10,35,227,14,12,47,151,25,13,07,072,07*7C
$GPGSV,5,2,18,15,43,087,26,18,22,329,28,23,70,279,24,24,19,147,13*76
$GPGSV,5,3,18,25,77,206,28,26,00,318,18,28,12,258,30,29,31,016,25*74
$GPGSV,5,4,18,32,07,213,,36,52,277,,40,85,352,,41,58,082,*78
$GPGSV,5,5,18,49,32,274,,50,10,089,*78
$GLGSV,3,1,10,67,36,057,26,68,58,133,20,69,25,189,17,73,00,319,29*6E
$GLGSV,3,2,10,78,08,160,,79,47,200,27,80,43,285,29,81,00,052,*6A
$GLGSV,3,3,10,82,06,009,30,83,03,323,18*61
$GNGLL,0419.75550,S,05539.70001,E,075336.00,A,A*6C
$GNRMC,075337.00,A,0419.75552,S,05539.70005,E,0.087,,260525,,,A*7B
$GNVTG,,T,,M,0.087,N,0.161,K,A*34
$GNGGA,075337.00,0419.75552,S,05539.70005,E,1,12,0.89,6.7,M,-47.6,M,,*75
$GNGSA,A,3,25,23,12,15,10,29,18,28,05,,,,1.58,0.89,1.31*1F
$GNGSA,A,3,68,79,80,67,82,,,,,,,,1.58,0.89,1.31*11
$GPGSV,5,1,18,05,07,028,43,10,35,227,17,12,47,151,23,13,07,072,07*7E
$GPGSV,5,2,18,15,43,087,24,18,22,329,27,23,70,279,25,24,19,147,10*79
$GPGSV,5,3,18,25,77,206,27,26,00,318,18,28,12,258,29,29,31,016,24*72
$GPGSV,5,4,18,32,07,213,,36,52,277,,40,85,352,,41,58,082,*78
$GPGSV,5,5,18,49,32,274,,50,10,089,*78
$GLGSV,3,1,10,67,36,057,26,68,58,133,18,69,25,189,16,73,00,319,29*64
$GLGSV,3,2,10,78,08,160,,79,47,200,26,80,43,285,28,81,00,052,*6A
$GLGSV,3,3,10,82,06,010,30,83,03,323,19*68
$GNGLL,0419.75552,S,05539.70005,E,075337.00,A,A*6B
$GNRMC,075338.00,A,0419.75549,S,05539.70011,E,0.260,,260525,,,A*70
$GNVTG,,T,,M,0.260,N,0.482,K,A*37
$GNGGA,075338.00,0419.75549,S,05539.70011,E,1,12,0.85,6.9,M,-47.6,M,,*77
$GNGSA,A,3,25,23,12,15,10,29,18,28,05,,,,1.53,0.85,1.28*10
$GNGSA,A,3,68,79,80,67,82,,,,,,,,1.53,0.85,1.28*1E
$GPGSV,5,1,18,05,07,028,40,10,35,227,17,12,47,151,22,13,07,072,07*7C
$GPGSV,5,2,18,15,43,087,25,18,22,329,32,23,70,279,24,24,19,147,08*74
$GPGSV,5,3,18,25,77,206,32,26,00,318,17,28,12,258,20,29,31,016,25*71
$GPGSV,5,4,18,32,07,213,,36,52,277,,40,85,352,,41,58,082,*78
$GPGSV,5,5,18,49,32,274,,50,10,089,*78
$GLGSV,3,1,10,67,36,057,32,68,58,133,20,69,25,189,14,73,00,319,29*68
$GLGSV,3,2,10,78,08,160,,79,47,200,26,80,43,285,27,81,00,052,*65
$GLGSV,3,3,10,82,06,010,29,83,03,323,21*6B
$GNGLL,0419.75549,S,05539.70011,E,075338.00,A,A*6B
$GNRMC,075339.00,A,0419.75555,S,05539.70014,E,0.121,,260525,,,A*7F
$GNVTG,,T,,M,0.121,N,0.224,K,A*3B
$GNGGA,075339.00,0419.75555,S,05539.70014,E,1,12,0.85,6.8,M,-47.6,M,,*7F
$GNGSA,A,3,25,23,12,15,10,29,18,28,05,,,,1.53,0.85,1.28*10
$GNGSA,A,3,68,79,80,67,82,,,,,,,,1.53,0.85,1.28*1E
$GPGSV,5,1,18,05,07,028,41,10,35,227,18,12,47,151,20,13,07,072,07*70
$GPGSV,5,2,18,15,43,087,31,18,22,329,33,23,70,279,24,24,19,147,08*70
$GPGSV,5,3,18,25,77,206,31,26,00,318,19,28,12,258,27,29,31,016,31*7E
$GPGSV,5,4,18,32,07,213,,36,52,277,,40,85,352,,41,58,082,*78
$GPGSV,5,5,18,49,32,274,,50,10,089,*78
$GLGSV,3,1,10,67,36,057,35,68,58,133,22,69,25,189,14,73,00,319,31*64
$GLGSV,3,2,10,78,08,160,,79,47,199,31,80,43,285,25,81,00,052,*62
$GLGSV,3,3,10,82,06,010,27,83,03,323,25*61
$GNGLL,0419.75555,S,05539.70014,E,075339.00,A,A*62
$GNRMC,075340.00,A,0419.75561,S,05539.70010,E,0.132,,260525,,,A*70
$GNVTG,,T,,M,0.132,N,0.244,K,A*3F
$GNGGA,075340.00,0419.75561,S,05539.70010,E,1,12,0.85,6.7,M,-47.6,M,,*7D
$GNGSA,A,3,25,23,12,15,10,29,18,28,05,,,,1.53,0.85,1.28*10
$GNGSA,A,3,68,79,80,67,82,,,,,,,,1.53,0.85,1.28*1E
$GPGSV,5,1,18,05,07,028,42,10,35,227,29,12,47,151,17,13,07,072,07*75
$GPGSV,5,2,18,15,43,087,31,18,22,329,33,23,70,279,25,24,19,147,08*71
$GPGSV,5,3,18,25,77,206,30,26,00,318,22,28,12,258,26,29,31,016,30*77
$GPGSV,5,4,18,32,07,213,,36,52,277,,40,85,352,,41,58,082,*78
$GPGSV,5,5,18,49,32,274,,50,10,089,*78
$GLGSV,3,1,10,67,36,057,34,68,58,133,23,69,25,189,13,73,00,319,30*62
$GLGSV,3,2,10,78,08,160,,79,47,199,30,80,43,285,23,81,00,052,*65
$GLGSV,3,3,10,82,06,010,25,83,03,323,26*60
$GNGLL,0419.75561,S,05539.70010,E,075340.00,A,A*6F
$GNRMC,075341.00,A,0419.75568,S,05539.70008,E,0.099,,260525,,,A*71
$GNVTG,,T,,M,0.099,N,0.183,K,A*37
$GNGGA,075341.00,0419.75568,S,05539.70008,E,1,12,0.85,6.6,M,-47.6,M,,*7D
$GNGSA,A,3,25,23,12,15,10,29,18,28,05,,,,1.53,0.85,1.28*10
$GNGSA,A,3,68,79,80,67,82,,,,,,,,1.53,0.85,1.28*1E
$GPGSV,5,1,18,05,07,028,41,10,35,227,30,12,47,151,17,13,07,072,07*7E
$GPGSV,5,2,18,15,43,087,31,18,22,329,33,23,70,279,26,24,19,147,08*72
$GPGSV,5,3,18,25,77,206,30,26,00,318,23,28,12,258,26,29,31,016,30*76
$GPGSV,5,4,18,32,07,213,,36,52,277,,40,85,352,,41,58,082,*78
$GPGSV,5,5,18,49,32,274,,50,10,089,*78
$GLGSV,3,1,10,67,36,057,34,68,58,133,25,69,25,189,16,73,00,319,29*69
$GLGSV,3,2,10,78,08,160,,79,47,199,32,80,43,285,21,81,00,052,*65
$GLGSV,3,3,10,82,06,010,24,83,03,323,27*60
$GNGLL,0419.75568,S,05539.70008,E,075341.00,A,A*6E
$GPGSV,5,3,18,25,77,206,31,26,00,318,21,28,12,258,26,29,31,016,31*74
$GPGSV,5,4,18,32,07,213,,36,52,277,,40,85,352,,41,58,082,*78
$GPGSV,5,5,18,49,32,274,,50,10,089,*78
$GLGSV,3,1,10,67,36,057,32,68,58,133,26,69,25,189,20,73,00,319,25*65
$GLGSV,3,2,10,78,08,160,,79,47,199,35,80,43,285,19,81,00,052,*69
$GLGSV,3,3,10,82,06,010,27,83,03,323,26*62
$GNGLL,0419.75579,S,05539.70004,E,075342.00,A,A*61
$GNGSA,A,3,25,23,12,15,10,29,18,24,28,05,,,1.28,0.71,1.07*1C
$GNGSA,A,3,68,79,80,67,82,,,,,,,,1.28,0.71,1.07*14
$GPGSV,5,1,18,05,07,028,42,10,35,227,31,12,47,151,20,13,07,072,07*78
$GPGSV,5,2,18,15,43,087,31,18,22,329,34,23,70,279,26,24,19,147,11*7D
$GPGSV,5,3,18,25,77,206,32,26,00,318,22,28,12,258,23,29,31,016,31*71
$GPGSV,5,4,18,32,07,213,,36,52,277,,40,85,352,,41,58,082,*78
$GPGSV,5,5,18,49,32,274,,50,10,089,*78
$GLGSV,3,1,10,67,36,057,30,68,58,133,26,69,25,189,21,73,00,319,22*61
$GLGSV,3,2,10,78,08,160,,79,47,199,31,80,43,285,20,81,00,052,*67
$GLGSV,3,3,10,82,06,010,28,83,03,323,26*6D
$GNGLL,0419.75577,S,05539.70003,E,075343.00,A,A*69
$GNRMC,075344.00,A,0419.75581,S,05539.70011,E,0.042,,260525,,,A*7D
$GNVTG,,T,,M,0.042,N,0.078,K,A*34
$GNGGA,075344.00,0419.75581,S,05539.70011,E,1,12,0.80,6.6,M,-47.6,M,,*72
$GNGSA,A,3,25,23,12,15,10,29,18,24,05,,,,1.47,0.80,1.23*17
$GNGSA,A,3,68,79,80,67,82,,,,,,,,1.47,0.80,1.23*15
$GPGSV,5,1,18,05,07,028,41,10,35,227,31,12,47,151,22,13,07,072,07*79
$GPGSV,5,2,18,15,43,087,29,18,22,329,34,23,70,279,27,24,19,147,12*76
$GPGSV,5,3,18,25,77,206,33,26,00,318,24,28,12,258,23,29,31,016,30*77
$GPGSV,5,4,18,32,07,213,,36,52,277,,40,85,352,,41,58,082,*78
$GPGSV,5,5,18,49,32,274,,50,10,089,*78
$GLGSV,3,1,10,67,36,057,30,68,58,133,27,69,25,189,23,73,00,319,19*6A
$GLGSV,3,2,10,78,08,160,,79,47,199,29,80,43,285,19,81,00,052,*64
$GLGSV,3,3,10,82,06,010,27,83,03,323,25*61
$GNGLL,0419.75581,S,05539.70011,E,075344.00,A,A*64
$GNRMC,075346.00,A,0419.75597,S,05539.70018,E,0.084,,260525,,,A*7B
$GNVTG,,T,,M,0.084,N,0.155,K,A*30
$GNGGA,075346.00,0419.75597,S,05539.70018,E,1,12,0.71,6.3,M,-47.6,M,,*75
$GNGSA,A,3,25,23,12,15,10,29,18,24,28,05,,,1.28,0.71,1.07*1C
$GNGSA,A,3,68,79,80,67,82,,,,,,,,1.28,0.71,1.07*14
$GPGSV,5,1,18,05,07,028,40,10,35,227,30,12,47,151,21,13,07,072,06*7B
$GPGSV,5,2,18,15,43,087,28,18,22,329,32,23,70,279,27,24,19,147,12*71
$GPGSV,5,3,18,25,77,206,34,26,00,318,21,28,12,258,21,29,31,016,29*7F
$GPGSV,5,4,18,32,07,213,,36,52,277,,40,85,352,,41,58,082,*78
$GPGSV,5,5,18,49,32,274,,50,10,089,*78
$GLGSV,3,1,10,67,36,057,28,68,58,133,27,69,25,189,24,73,00,319,21*6F
$GLGSV,3,2,10,78,08,160,,79,47,199,31,80,43,285,17,81,00,052,*63
$GLGSV,3,3,10,82,06,010,28,83,03,323,28*63
$GNGLL,0419.75597,S,05539.70018,E,075346.00,A,A*68
$GNRMC,075349.00,A,0419.75601,S,05539.70015,E,0.074,,260525,,,A*7A
$GNVTG,,T,,M,0.074,N,0.138,K,A*34
$GNGGA,075349.00,0419.75601,S,05539.70015,E,1,12,0.75,6.1,M,-47.6,M,,*7D
$GNGSA,A,3,25,23,12,15,10,29,18,24,28,05,,,1.32,0.75,1.09*1D
$GNGSA,A,3,68,79,80,67,82,,,,,,,,1.32,0.75,1.09*15
$GPGSV,5,1,18,05,07,028,39,10,35,227,29,12,47,151,17,13,07,072,07*79
$GPGSV,5,2,18,15,43,087,25,18,22,329,32,23,70,279,24,24,19,147,14*79
$GPGSV,5,3,18,25,77,206,32,26,00,318,27,28,12,258,22,29,31,016,27*72
$GPGSV,5,4,18,32,07,213,,36,52,277,,40,85,352,,41,58,082,*78
$GPGSV,5,5,18,49,32,274,,50,10,089,*78
$GLGSV,3,1,10,67,36,057,25,68,58,133,31,69,25,189,23,73,00,319,25*66
$GLGSV,3,2,10,78,08,160,,79,47,199,31,80,43,285,18,81,00,052,*6C
$GLGSV,3,3,10,82,06,010,25,83,03,323,21*67
$GNGLL,0419.75601,S,05539.70015,E,075349.00,A,A*66
$GNRMC,075351.00,A,0419.75596,S,05539.70011,E,0.029,,260525,,,A*72
$GNVTG,,T,,M,0.029,N,0.053,K,A*30
$GNGGA,075351.00,0419.75596,S,05539.70011,E,1,12,0.75,5.9,M,-47.6,M,,*76
$GNGSA,A,3,25,23,12,15,10,29,18,24,28,05,,,1.32,0.75,1.09*1D
$GNGSA,A,3,68,79,80,67,82,,,,,,,,1.32,0.75,1.09*15
$GPGSV,5,1,18,05,07,028,40,10,35,227,29,12,47,151,19,13,07,072,07*79
$GPGSV,5,2,18,15,43,087,23,18,22,329,33,23,70,279,28,24,19,147,15*73
$GPGSV,5,3,18,25,77,206,33,26,00,318,29,28,12,258,19,29,31,016,27*75
$GPGSV,5,4,18,32,07,213,,36,52,277,,40,85,352,,41,58,082,*78
$GPGSV,5,5,18,49,32,274,,50,10,089,*78
$GLGSV,3,1,10,67,36,057,26,68,58,133,30,69,25,189,21,73,00,319,25*66
$GLGSV,3,2,10,78,08,160,,79,47,199,28,80,43,285,19,81,00,052,*65
$GLGSV,3,3,10,82,06,010,24,83,03,323,23*64
$GNGLL,0419.75596,S,05539.70011,E,075351.00,A,A*66
$GLGSV,3,2,10,78,08,160,,79,47,199,26,80,43,285,16,81,00,052,*64
$GLGSV,3,3,10,82,06,010,23,83,03,323,24*64
$GNGLL,0419.75595,S,05539.70010,E,075352.00,A,A*67
$GNRMC,075353.00,A,0419.75594,S,05539.70011,E,0.065,,260525,,,A*7A
$GNVTG,,T,,M,0.065,N,0.121,K,A*3C
$GNGGA,075353.00,0419.75594,S,05539.70011,E,1,12,0.75,5.8,M,-47.6,M,,*77
$GNGSA,A,3,25,23,12,15,10,29,18,24,28,05,,,1.32,0.75,1.09*1D
$GNGSA,A,3,68,79,80,67,82,,,,,,,,1.32,0.75,1.09*15
$GPGSV,5,1,18,05,07,028,41,10,35,227,28,12,47,151,18,13,07,072,*7F
$GPGSV,5,2,18,15,43,087,19,18,22,329,34,23,70,279,29,24,19,147,13*7A
$GPGSV,5,3,18,25,77,206,34,26,00,318,26,28,12,258,22,29,31,016,27*75
$GPGSV,5,4,18,32,07,213,,36,52,277,,40,85,352,,41,58,082,*78
$GPGSV,5,5,18,49,32,274,,50,10,089,*78
$GLGSV,3,1,10,67,36,057,27,68,58,133,29,69,25,189,18,73,00,319,23*63
$GLGSV,3,2,10,78,08,160,,79,47,199,27,80,43,285,13,81,00,052,*60
$GLGSV,3,3,10,82,06,010,21,83,03,323,25*67
$GNGLL,0419.75594,S,05539.70011,E,075353.00,A,A*66
$GNRMC,075354.00,A,0419.75597,S,05539.70011,E,0.046,,260525,,,A*7F
$GNVTG,,T,,M,0.046,N,0.085,K,A*32
$GNGGA,075354.00,0419.75597,S,05539.70011,E,1,12,0.73,5.7,M,-47.6,M,,*7A
$GNGSA,A,3,25,23,15,10,29,18,24,28,05,,,,1.29,0.73,1.07*1C
$GNGSA,A,3,68,79,80,67,82,,,,,,,,1.29,0.73,1.07*17
$GPGSV,5,1,18,05,07,028,40,10,35,227,28,12,47,151,,13,07,072,*77
$GPGSV,5,3,18,25,77,206,35,26,00,318,25,28,12,258,22,29,31,016,28*78
$GPGSV,5,4,18,32,07,213,,36,52,277,,40,85,352,,41,58,082,*78
$GPGSV,5,5,18,49,32,274,,50,10,089,*78
$GLGSV,3,1,10,67,36,057,26,68,58,133,28,69,25,189,14,73,00,319,20*6C
$GLGSV,3,2,10,78,08,160,,79,47,199,28,80,43,285,14,81,00,052,*68
$GLGSV,3,3,10,82,06,010,21,83,03,323,24*66
$GNGLL,0419.75597,S,05539.70011,E,075354.00,A,A*62
$GNRMC,075356.00,A,0419.75602,S,05539.70014,E,0.057,,260525,,,A*77
$GNVTG,,T,,M,0.057,N,0.106,K,A*38
$GNGGA,075356.00,0419.75602,S,05539.70014,E,1,12,0.75,5.5,M,-47.6,M,,*76
$GNGSA,A,3,25,23,12,15,10,29,18,24,28,05,,,1.32,0.75,1.09*1D
$GNGSA,A,3,68,79,80,67,82,,,,,,,,1.32,0.75,1.09*15
$GPGSV,5,1,18,05,07,028,41,10,35,227,28,12,46,151,25,13,07,071,*73
$GPGSV,5,2,18,15,43,087,29,18,22,329,35,23,70,279,33,24,19,147,14*74
$GPGSV,5,3,18,25,77,206,35,26,00,318,27,28,12,258,22,29,31,016,32*71
$GPGSV,5,4,18,32,07,213,,36,52,277,,40,85,352,,41,58,082,*78
$GPGSV,5,5,18,49,32,274,,50,10,089,*78
$GLGSV,3,1,10,67,36,057,25,68,58,133,27,69,25,189,14,73,00,319,20*60
$GLGSV,3,2,10,78,08,160,,79,47,199,27,80,43,285,18,81,00,052,*6B
$GLGSV,3,3,10,82,06,010,24,83,03,323,21*66
$GNGLL,0419.75602,S,05539.70014,E,075356.00,A,A*6A
$GNRMC,075404.00,A,0419.75583,S,05539.69998,E,0.087,,260525,,,A*75
$GNVTG,,T,,M,0.087,N,0.162,K,A*37
$GNGGA,075404.00,0419.75583,S,05539.69998,E,1,12,0.71,5.1,M,-47.6,M,,*79
$GNGSA,A,3,25,23,12,15,10,29,18,24,28,05,,,1.28,0.71,1.06*1D
$GNGSA,A,3,68,79,80,67,82,,,,,,,,1.28,0.71,1.06*15
$GPGSV,5,1,18,05,07,028,41,10,35,227,28,12,46,151,23,13,07,071,05*70
$GPGSV,5,2,18,15,43,086,26,18,21,330,29,23,70,279,27,24,19,147,14*79
$GPGSV,5,3,18,25,77,206,35,26,00,318,33,28,12,258,29,29,31,016,28*74
$GPGSV,5,4,18,32,07,213,,36,52,277,,40,85,352,,41,58,082,*78
$GPGSV,5,5,18,49,32,274,,50,10,089,*78
$GLGSV,3,1,10,67,36,057,27,68,58,133,28,69,25,189,18,73,00,319,23*62
$GLGSV,3,2,10,78,08,160,,79,47,199,28,80,43,285,20,81,00,052,*6F
$GLGSV,3,3,10,82,06,010,25,83,03,323,24*62
$GNGLL,0419.75583,S,05539.69998,E,075404.00,A,A*65
$GNRMC,075405.00,A,0419.75580,S,05539.69994,E,0.034,,260525,,,A*73
$GNVTG,,T,,M,0.034,N,0.063,K,A*3F
$GNGGA,075405.00,0419.75580,S,05539.69994,E,1,12,0.71,5.0,M,-47.6,M,,*76
$GNGSA,A,3,25,23,12,15,10,29,18,24,28,05,,,1.28,0.71,1.06*1D
$GNGSA,A,3,68,79,80,67,82,,,,,,,,1.28,0.71,1.06*15
$GPGSV,5,1,18,05,07,028,40,10,35,227,27,12,46,151,25,13,07,071,05*78
$GPGSV,5,2,18,15,43,086,24,18,21,330,30,23,70,281,28,24,19,147,10*7F
$GPGSV,5,3,18,25,77,206,35,26,00,318,32,28,12,258,28,29,31,016,28*74
$GPGSV,5,4,18,32,07,213,,36,52,277,,40,85,352,,41,58,082,*78
$GPGSV,5,5,18,49,32,274,,50,10,089,*78
$GLGSV,3,1,10,67,36,057,27,68,58,133,28,69,25,189,19,73,00,319,25*65
$GLGSV,3,2,10,78,08,160,,79,47,199,28,80,43,285,21,81,00,052,*6E
$GLGSV,3,3,10,82,06,010,25,83,03,323,26*60
$GNGLL,0419.75580,S,05539.69994,E,075405.00,A,A*6B
$GNRMC,075406.00,A,0419.75574,S,05539.69992,E,0.062,,260525,,,A*7E
$GNVTG,,T,,M,0.062,N,0.115,K,A*3C
$GNGGA,075406.00,0419.75574,S,05539.69992,E,1,12,0.71,5.0,M,-47.6,M,,*78
$GNGSA,A,3,25,23,12,15,10,29,18,24,28,05,,,1.28,0.71,1.06*1D
$GNGSA,A,3,68,79,80,67,82,,,,,,,,1.28,0.71,1.06*15
$GPGSV,5,1,18,05,07,028,42,10,35,227,26,12,46,151,25,13,07,071,05*7B
$GPGSV,5,2,18,15,43,086,23,18,21,330,34,23,70,281,28,24,19,146,08*74
$GPGSV,5,3,18,25,77,206,36,26,00,318,31,28,12,258,27,29,31,016,33*71
$GPGSV,5,4,18,32,07,213,,36,52,277,,40,85,352,,41,58,082,*78
$GPGSV,5,5,18,49,32,274,,50,10,089,*78
$GLGSV,3,1,10,67,36,057,28,68,58,133,27,69,25,189,19,73,00,319,26*66
$GLGSV,3,2,10,78,08,160,,79,47,199,28,80,43,285,20,81,00,052,*6F
$GLGSV,3,3,10,82,06,010,26,83,03,323,32*66
$GNGLL,0419.75574,S,05539.69992,E,075406.00,A,A*65
$GNRMC,075407.00,A,0419.75569,S,05539.69987,E,0.071,,260525,,,A*75
$GNVTG,,T,,M,0.071,N,0.132,K,A*3B
$GNGGA,075407.00,0419.75569,S,05539.69987,E,1,12,0.85,5.0,M,-47.6,M,,*7A
$GNGSA,A,3,25,23,12,15,10,29,18,28,05,,,,1.53,0.85,1.27*1F
$GNGSA,A,3,68,79,80,67,82,,,,,,,,1.53,0.85,1.27*11
$GPGSV,5,1,18,05,07,028,44,10,35,227,25,12,46,151,25,13,07,071,05*7E
$GPGSV,5,2,18,15,43,086,21,18,21,330,20,23,70,281,29,24,19,146,07*7D
$GPGSV,5,3,18,25,77,205,34,26,00,318,30,28,12,258,32,29,31,016,29*7E
$GPGSV,5,4,18,32,07,213,,36,52,277,,40,85,352,,41,58,082,*78
$GPGSV,5,5,18,49,32,274,,50,10,089,*78
$GLGSV,3,1,10,67,36,057,31,68,58,133,26,69,25,189,21,73,00,319,27*65
$GLGSV,3,2,10,78,08,160,,79,47,199,32,80,43,285,24,81,00,052,*60
$GLGSV,3,3,10,82,06,010,35,83,03,323,31*67
$GNGLL,0419.75569,S,05539.69987,E,075407.00,A,A*6C
$GNRMC,075409.00,A,0419.75566,S,05539.69977,E,0.278,,260525,,,A*70
$GNVTG,,T,,M,0.278,N,0.514,K,A*30
$GNGGA,075409.00,0419.75566,S,05539.69977,E,1,12,0.71,4.9,M,-47.6,M,,*77
$GNGSA,A,3,25,23,12,15,10,29,18,24,28,05,,,1.28,0.71,1.06*1D
$GNGSA,A,3,68,79,80,67,82,,,,,,,,1.28,0.71,1.06*15
$GPGSV,5,1,18,05,07,028,40,10,35,227,21,12,46,151,21,13,07,071,12*7C
$GPGSV,5,2,18,15,43,086,21,18,21,330,32,23,70,281,21,24,19,146,18*78
$GPGSV,5,3,18,25,77,205,35,26,00,318,25,28,12,258,32,29,31,016,22*70
$GPGSV,5,4,18,32,07,213,,36,52,277,,40,85,352,,41,58,082,*78
$GPGSV,5,5,18,49,32,274,,50,10,089,*78
$GLGSV,3,1,10,67,36,057,22,68,58,133,25,69,25,189,20,73,00,319,24*66
$GLGSV,3,2,10,78,08,160,,79,47,199,29,80,43,285,24,81,00,052,*6A
$GLGSV,3,3,10,82,06,010,27,83,03,323,29*6D
$GNGLL,0419.75566,S,05539.69977,E,075409.00,A,A*62
$GNRMC,075411.00,A,0419.75559,S,05539.69972,E,0.138,,260525,,,A*77
$GNVTG,,T,,M,0.138,N,0.255,K,A*35
$GNGGA,075411.00,0419.75559,S,05539.69972,E,1,12,0.71,5.1,M,-47.6,M,,*7E
$GNGSA,A,3,25,23,12,15,10,29,18,24,28,05,,,1.28,0.71,1.06*1D
$GNGSA,A,3,68,79,80,67,82,,,,,,,,1.28,0.71,1.06*15
$GPGSV,5,1,18,05,07,028,39,10,35,227,15,12,46,151,23,13,07,071,12*77
$GPGSV,5,2,18,15,43,086,22,18,21,330,35,23,70,281,25,24,19,146,18*78
$GPGSV,5,3,18,25,77,205,38,26,00,318,29,28,12,257,22,29,31,016,25*78
$GPGSV,5,4,18,32,07,213,,36,52,277,,40,85,352,,41,58,082,*78
$GPGSV,5,5,18,49,32,274,,50,10,089,*78
$GLGSV,3,1,10,67,36,057,29,68,58,133,27,69,25,189,21,73,00,319,32*69
$GLGSV,3,2,10,78,08,160,,79,47,199,28,80,43,285,24,81,00,052,*6B
$GLGSV,3,3,10,82,06,010,33,83,03,323,27*66
$GNGLL,0419.75559,S,05539.69972,E,075411.00,A,A*62
$GNRMC,075412.00,A,0419.75561,S,05539.69971,E,0.169,,260525,,,A*78
$GNVTG,,T,,M,0.169,N,0.313,K,A*32
$GNGGA,075412.00,0419.75561,S,05539.69971,E,1,12,0.71,5.1,M,-47.6,M,,*75
$GNGSA,A,3,25,23,12,15,10,29,18,24,28,05,13,,1.28,0.71,1.06*1F
$GNGSA,A,3,68,79,80,67,82,,,,,,,,1.28,0.71,1.06*15
$GPGSV,5,1,18,05,07,028,39,10,35,227,14,12,46,151,23,13,07,071,12*76
$GPGSV,5,2,18,15,43,086,25,18,21,330,36,23,70,281,26,24,19,146,18*7F
$GPGSV,5,3,18,25,77,205,38,26,00,318,28,28,12,257,22,29,31,016,25*79
$GPGSV,5,4,18,32,07,213,,36,52,277,,40,85,352,,41,58,082,*78
$GPGSV,5,5,18,49,32,274,,50,10,089,*78
$GLGSV,3,1,10,67,36,057,28,68,58,133,28,69,25,189,22,73,00,319,31*67
$GLGSV,3,2,10,78,08,160,,79,47,199,28,80,43,285,22,81,00,052,*6D
$GLGSV,3,3,10,82,06,010,31,83,03,323,26*65
$GNGLL,0419.75561,S,05539.69971,E,075412.00,A,A*69
$GNRMC,075413.00,A,0419.75564,S,05539.69972,E,0.131,,260525,,,A*72
$GNVTG,,T,,M,0.131,N,0.242,K,A*3A
$GNGGA,075413.00,0419.75564,S,05539.69972,E,1,12,0.71,5.2,M,-47.6,M,,*71
$GNGSA,A,3,25,23,12,15,10,29,18,24,28,05,13,,1.28,0.71,1.06*1F
$GNGSA,A,3,68,79,80,67,82,,,,,,,,1.28,0.71,1.06*15
$GPGSV,5,1,18,05,07,028,39,10,35,227,15,12,46,151,24,13,07,071,12*70
$GPGSV,5,2,18,15,43,086,24,18,21,330,36,23,70,281,27,24,19,146,18*7F
$GPGSV,5,3,18,25,77,205,38,26,00,318,28,28,12,257,21,29,31,016,26*79
$GPGSV,5,4,18,32,07,213,,36,52,277,,40,85,352,,41,58,082,*78
$GPGSV,5,5,18,49,32,274,,50,10,089,*78
$GLGSV,3,1,10,67,36,057,28,68,58,133,28,69,25,189,22,73,00,319,31*67
$GLGSV,3,2,10,78,08,160,,79,47,199,29,80,43,285,22,81,00,052,*6C
$GLGSV,3,3,10,82,06,010,25,83,03,323,23*65
$GNGLL,0419.75564,S,05539.69972,E,075413.00,A,A*6E
$GNRMC,075414.00,A,0419.75564,S,05539.69973,E,0.097,,260525,,,A*79
$GNVTG,,T,,M,0.097,N,0.180,K,A*3A
$GNGGA,075414.00,0419.75564,S,05539.69973,E,1,12,0.71,5.3,M,-47.6,M,,*76
$GNGSA,A,3,25,23,12,15,10,29,18,24,28,05,13,,1.28,0.71,1.06*1F
$GNGSA,A,3,68,79,80,67,82,,,,,,,,1.28,0.71,1.06*15
$GPGSV,5,1,18,05,07,028,39,10,35,227,15,12,46,151,22,13,07,071,09*7C
$GPGSV,5,2,18,15,43,086,25,18,21,330,34,23,70,281,27,24,19,146,17*73
$GPGSV,5,3,18,25,77,205,37,26,00,318,27,28,12,257,23,29,31,016,27*7A
$GPGSV,5,4,18,32,07,213,,36,52,277,,40,85,352,,41,58,082,*78
$GPGSV,5,5,18,49,32,274,,50,10,089,*78
$GLGSV,3,1,10,67,36,057,28,68,58,133,29,69,25,189,21,73,00,319,32*66
$GLGSV,3,2,10,78,08,160,,79,47,199,29,80,43,285,20,81,00,052,*6E
$GLGSV,3,3,10,82,06,010,25,83,03,323,21*67
$GNGLL,0419.75564,S,05539.69973,E,075414.00,A,A*68
$GNRMC,075415.00,A,0419.75570,S,05539.69989,E,0.286,,260525,,,A*7A
$GNVTG,,T,,M,0.286,N,0.530,K,A*37
$GNGGA,075415.00,0419.75570,S,05539.69989,E,1,12,0.78,5.4,M,-47.6,M,,*79
$GNGSA,A,3,25,23,12,15,10,29,18,24,28,05,13,,1.36,0.78,1.12*1C
$GNGSA,A,3,68,79,80,67,82,,,,,,,,1.36,0.78,1.12*16
$GPGSV,5,1,18,05,07,028,38,10,35,227,18,12,46,151,21,13,07,071,09*73
$GPGSV,5,2,18,15,43,086,23,18,21,330,39,23,70,281,26,24,19,146,17*79
$GNRMC,075416.00,A,0419.75578,S,05539.69997,E,0.008,,260525,,,A*7A
$GNVTG,,T,,M,0.008,N,0.015,K,A*31
$GNGGA,075416.00,0419.75578,S,05539.69997,E,1,12,0.71,5.3,M,-47.6,M,,*73
$GNGSA,A,3,25,23,12,15,10,29,18,24,28,05,,,1.28,0.71,1.06*1D
$GNGSA,A,3,68,79,80,67,82,,,,,,,,1.28,0.71,1.06*15
$GPGSV,5,1,18,05,07,028,38,10,35,227,29,12,46,151,20,13,07,071,*79
$GPGSV,5,2,18,15,43,086,21,18,21,330,37,23,70,281,31,24,19,146,17*73
$GPGSV,5,3,18,25,77,205,35,26,00,318,24,28,12,257,30,29,31,016,26*78
$GPGSV,5,4,18,32,07,213,,36,52,277,,40,85,352,,41,58,082,*78
$GPGSV,5,5,18,49,32,274,,50,10,089,*78
$GLGSV,3,1,10,67,36,057,26,68,58,133,18,69,25,189,22,73,00,319,34*6F
$GLGSV,3,2,10,78,08,160,,79,47,199,33,80,43,285,22,81,00,052,*67
$GLGSV,3,3,10,82,06,010,31,83,03,323,16*66
$GNGLL,0419.75578,S,05539.69997,E,075416.00,A,A*6D
$GNRMC,075417.00,A,0419.75584,S,05539.70000,E,0.053,,260525,,,A*79
$GNVTG,,T,,M,0.053,N,0.098,K,A*3A
$GNGGA,075417.00,0419.75584,S,05539.70000,E,1,12,0.71,5.3,M,-47.6,M,,*7E
$GNGSA,A,3,25,23,12,15,10,29,18,24,28,05,,,1.28,0.71,1.06*1D
$GNGSA,A,3,68,79,80,67,82,,,,,,,,1.28,0.71,1.06*15
$GPGSV,5,1,18,05,07,028,38,10,35,227,30,12,46,151,19,13,07,071,*7B
$GPGSV,5,2,18,15,43,086,21,18,21,330,39,23,70,281,31,24,19,146,17*7D
$GPGSV,5,3,18,25,77,205,31,26,00,318,23,28,12,257,32,29,31,016,24*7B
$GPGSV,5,4,18,32,07,213,,36,52,277,,40,85,352,,41,58,082,*78
$GPGSV,5,5,18,49,32,274,,50,10,089,*78
$GLGSV,3,1,10,67,36,057,26,68,58,133,18,69,25,189,23,73,00,319,34*6E
$GLGSV,3,2,10,78,08,160,,79,47,199,32,80,43,285,23,81,00,052,*67
$GLGSV,3,3,10,82,06,010,30,83,03,323,19*68
$GNGLL,0419.75584,S,05539.70000,E,075417.00,A,A*60
$GNRMC,075418.00,A,0419.75591,S,05539.70007,E,0.065,,260525,,,A*70
$GNVTG,,T,,M,0.065,N,0.121,K,A*3C
$GNGGA,075418.00,0419.75591,S,05539.70007,E,1,12,0.85,5.2,M,-47.6,M,,*78
$GNGSA,A,3,25,23,12,15,10,29,18,24,28,05,,,1.53,0.85,1.27*19
$GNGSA,A,3,68,79,80,67,82,,,,,,,,1.53,0.85,1.27*11
$GPGSV,5,1,18,05,07,028,38,10,35,227,30,12,46,151,20,13,07,071,04*75
$GPGSV,5,2,18,15,43,086,23,18,21,330,38,23,70,281,30,24,19,146,17*7F
$GPGSV,5,3,18,25,77,205,31,26,00,318,21,28,12,257,33,29,31,016,22*7E
$GPGSV,5,4,18,32,07,213,,36,52,277,,40,85,352,,41,58,082,*78
$GPGSV,5,5,18,49,32,274,,50,10,089,*78
$GLGSV,3,1,10,67,36,057,26,68,58,133,18,69,25,189,22,73,00,319,34*6F
$GLGSV,3,2,10,78,08,160,,79,47,199,32,80,43,285,23,81,00,052,*67
$GLGSV,3,3,10,82,06,010,29,83,03,323,29*63
$GNGLL,0419.75591,S,05539.70007,E,075418.00,A,A*6C
$GNRMC,075419.00,A,0419.75591,S,05539.70009,E,0.035,,260525,,,A*7A
$GNVTG,,T,,M,0.035,N,0.064,K,A*39
$GNGGA,075419.00,0419.75591,S,05539.70009,E,1,12,0.71,5.1,M,-47.6,M,,*7F
$GNGSA,A,3,25,23,12,15,10,29,18,24,28,05,,,1.28,0.71,1.06*1D
$GNGSA,A,3,68,79,80,67,82,,,,,,,,1.28,0.71,1.06*15
$GPGSV,5,1,18,05,07,028,37,10,35,227,30,12,46,151,21,13,07,071,07*78
$GPGSV,5,2,18,15,43,086,23,18,21,330,38,23,70,281,30,24,19,146,17*7F
$GPGSV,5,3,18,25,77,205,31,26,00,318,20,28,12,257,34,29,31,016,22*78
$GPGSV,5,4,18,32,07,213,,36,52,277,,40,85,352,,41,58,082,*78
$GPGSV,5,5,18,49,32,274,,50,10,089,*78
$GLGSV,3,1,10,67,36,057,25,68,58,133,19,69,25,189,23,73,00,319,32*6A
$GLGSV,3,2,10,78,08,160,,79,47,199,33,80,43,285,23,81,00,052,*66
$GLGSV,3,3,10,82,06,010,28,83,03,323,29*62
$GNGLL,0419.75591,S,05539.70009,E,075419.00,A,A*63
$GNRMC,075421.00,A,0419.75589,S,05539.70012,E,0.099,,260525,,,A*74
$GNVTG,,T,,M,0.099,N,0.183,K,A*37
$GNGGA,075421.00,0419.75589,S,05539.70012,E,1,12,0.71,5.3,M,-47.6,M,,*75
$GNGSA,A,3,25,23,12,15,10,29,18,24,28,05,,,1.28,0.71,1.06*1D
$GNGSA,A,3,68,79,80,67,82,,,,,,,,1.28,0.71,1.06*15
$GPGSV,5,1,18,05,07,028,36,10,35,227,29,12,46,151,20,13,07,071,13*75
$GPGSV,5,2,18,15,43,086,20,18,21,330,38,23,70,281,29,24,19,146,17*74
$GPGSV,5,3,18,25,77,205,32,26,00,318,21,28,12,257,34,29,31,016,18*73
$GPGSV,5,4,18,32,07,213,,36,52,277,,40,85,352,,41,58,082,*78
$GPGSV,5,5,18,49,32,274,,50,10,089,*78
$GLGSV,3,1,10,67,36,057,25,68,58,133,17,69,25,189,22,73,00,319,29*6F
$GLGSV,3,2,10,78,08,160,,79,47,199,32,80,43,285,24,81,00,052,*60
$GLGSV,3,3,10,82,06,010,27,83,03,323,28*6C
$GNGLL,0419.75589,S,05539.70012,E,075421.00,A,A*6B
$GNRMC,075422.00,A,0419.75593,S,05539.70015,E,0.078,,260525,,,A*74
$GNVTG,,T,,M,0.078,N,0.144,K,A*33
$GNGGA,075422.00,0419.75593,S,05539.70015,E,1,12,0.71,5.3,M,-47.6,M,,*7A
$GNGSA,A,3,25,23,12,15,10,29,18,24,28,05,,,1.28,0.71,1.06*1D
$GNGSA,A,3,68,79,80,67,82,,,,,,,,1.28,0.71,1.06*15
$GPGSV,5,1,18,05,07,028,38,10,35,227,29,12,46,151,22,13,07,071,13*79
$GPGSV,5,2,18,15,43,086,18,18,21,330,38,23,70,281,30,24,19,146,17*77
$GPGSV,5,3,18,25,77,205,32,26,00,318,23,28,12,257,33,29,31,016,18*76
$GPGSV,5,4,18,32,07,213,,36,52,277,,40,85,352,,41,58,082,*78
$GPGSV,5,5,18,49,32,274,,50,10,089,*78
$GLGSV,3,1,10,67,36,057,25,68,58,133,19,69,25,189,22,73,00,319,28*60
$GLGSV,3,2,10,78,08,160,,79,47,199,31,80,43,285,23,81,00,052,*64
$GLGSV,3,3,10,82,06,010,28,83,03,323,28*63
$GNGLL,0419.75593,S,05539.70015,E,075422.00,A,A*64
$GNRMC,075423.00,A,0419.75595,S,05539.70018,E,0.058,,260525,,,A*7C
$GNVTG,,T,,M,0.058,N,0.107,K,A*36
$GNGGA,075423.00,0419.75595,S,05539.70018,E,1,12,0.68,5.3,M,-47.6,M,,*78
$GNGSA,A,3,25,23,12,15,10,29,18,24,28,05,13,,1.21,0.68,1.00*18
$GNGSA,A,3,68,79,80,67,82,,,,,,,,1.21,0.68,1.00*12
$GPGSV,5,1,18,05,07,028,38,10,35,227,29,12,46,151,24,13,07,071,14*78
$GPGSV,5,2,18,15,43,086,24,18,21,330,37,23,70,281,31,24,19,146,17*76
$GPGSV,5,3,18,25,77,205,34,26,00,318,21,28,12,257,31,29,31,016,18*70
$GPGSV,5,4,18,32,07,213,,36,52,277,,40,85,352,,41,58,082,*78
$GPGSV,5,5,18,49,32,274,,50,10,089,*78
$GLGSV,3,1,10,67,36,057,26,68,58,133,22,69,25,189,21,73,00,319,26*66
$GLGSV,3,2,10,78,08,160,,79,47,199,30,80,43,285,24,81,00,052,*62
$GLGSV,3,3,10,82,06,010,28,83,03,323,28*63
$GNGLL,0419.75595,S,05539.70018,E,075423.00,A,A*6E
$GNRMC,075424.00,A,0419.75597,S,05539.70022,E,0.044,,260525,,,A*7D
$GNVTG,,T,,M,0.044,N,0.081,K,A*34
$GNGGA,075424.00,0419.75597,S,05539.70022,E,1,12,0.78,5.3,M,-47.6,M,,*75
$GNGSA,A,3,25,23,12,15,10,29,18,28,05,13,,,1.36,0.78,1.12*1A
$GNGSA,A,3,68,79,80,67,82,,,,,,,,1.36,0.78,1.12*16
$GPGSV,5,1,18,05,07,028,40,10,35,227,28,12,46,151,23,13,07,071,14*71
$GPGSV,5,2,18,15,43,086,26,18,21,330,34,23,70,281,30,24,19,146,*70
$GPGSV,5,3,18,25,77,205,35,26,00,318,19,28,12,257,31,29,31,016,18*7A
$GPGSV,5,4,18,32,07,213,,36,52,277,,40,85,352,,41,58,082,*78
$GPGSV,5,5,18,49,32,274,,50,10,089,*78
$GLGSV,3,1,10,67,36,057,26,68,58,133,23,69,25,189,21,73,00,319,25*64
$GLGSV,3,2,10,78,08,160,,79,47,199,31,80,43,285,26,81,00,052,*61
$GLGSV,3,3,10,82,06,010,30,83,03,323,28*6A
$GNGLL,0419.75597,S,05539.70022,E,075424.00,A,A*62
$GNRMC,075430.00,A,0419.75592,S,05539.70022,E,0.105,,260525,,,A*79
$GNVTG,,T,,M,0.105,N,0.195,K,A*34
$GNGGA,075430.00,0419.75592,S,05539.70022,E,1,12,0.71,6.0,M,-47.6,M,,*7C
$GNGSA,A,3,25,23,12,15,10,29,18,24,28,05,,,1.28,0.71,1.06*1D
$GNRMC,075431.00,A,0419.75593,S,05539.70022,E,0.037,,260525,,,A*79
$GNVTG,,T,,M,0.037,N,0.068,K,A*37
$GNGGA,075431.00,0419.75593,S,05539.70022,E,1,12,0.71,6.0,M,-47.6,M,,*7C
$GNGSA,A,3,25,23,12,15,10,29,18,24,28,05,,,1.28,0.71,1.06*1D
$GNGSA,A,3,68,79,80,67,82,,,,,,,,1.28,0.71,1.06*15
$GPGSV,5,1,18,05,07,028,41,10,35,227,29,12,46,151,21,13,07,071,10*77
$GPGSV,5,2,18,15,43,086,22,18,21,330,37,23,70,281,30,24,19,146,18*7E
$GPGSV,5,3,18,25,77,205,33,26,00,318,19,28,12,257,32,29,31,016,26*72
$GPGSV,5,4,18,32,07,213,,36,52,277,,40,85,352,,41,58,082,*78
$GPGSV,5,5,18,49,32,274,,50,10,089,*78
$GNRMC,075432.00,A,0419.75594,S,05539.70021,E,0.012,,260525,,,A*79
$GNVTG,,T,,M,0.012,N,0.023,K,A*3F
$GNGGA,075432.00,0419.75594,S,05539.70021,E,1,12,0.71,6.1,M,-47.6,M,,*7A
$GNGSA,A,3,25,23,12,15,10,29,18,24,28,05,,,1.28,0.71,1.06*1D
$GNGSA,A,3,68,79,80,67,82,,,,,,,,1.28,0.71,1.06*15
$GPGSV,5,1,18,05,07,028,41,10,35,227,29,12,46,151,23,13,07,071,*74
$GPGSV,5,2,18,15,43,086,22,18,21,330,37,23,70,281,29,24,19,146,18*76
$GPGSV,5,3,18,25,77,205,34,26,00,318,19,28,12,257,32,29,31,016,27*74
$GPGSV,5,4,18,32,07,213,,36,52,277,,40,85,352,,41,58,082,*78
$GPGSV,5,5,18,49,32,274,,50,10,089,*78
$GLGSV,3,1,10,67,36,057,28,68,58,133,27,69,25,189,25,73,00,319,19*65
$GLGSV,3,2,10,78,08,160,,79,47,199,31,80,43,285,25,81,00,052,*62
$GLGSV,3,3,10,82,06,010,31,83,03,324,24*60
$GNGLL,0419.75594,S,05539.70021,E,075432.00,A,A*65
$GNRMC,075433.00,A,0419.75597,S,05539.70020,E,0.026,,260525,,,A*7D
$GNVTG,,T,,M,0.026,N,0.047,K,A*3A
$GNGGA,075433.00,0419.75597,S,05539.70020,E,1,12,0.71,6.1,M,-47.6,M,,*79
$GNGSA,A,3,25,23,12,15,10,29,18,24,28,05,,,1.28,0.71,1.06*1D
$GNGSA,A,3,68,79,80,67,82,,,,,,,,1.28,0.71,1.06*15
$GPGSV,5,1,18,05,07,028,41,10,35,227,29,12,46,151,25,13,07,071,*72
$GPGSV,5,2,18,15,43,086,20,18,21,330,36,23,70,281,30,24,19,146,16*73
$GPGSV,5,3,18,25,77,205,34,26,00,318,19,28,12,257,31,29,31,016,27*77
$GPGSV,5,4,18,32,07,213,,36,52,277,,40,85,352,,41,58,082,*78
$GPGSV,5,5,18,49,32,274,,50,10,089,*78
$GLGSV,3,1,10,67,36,057,28,68,58,133,27,69,25,189,26,73,00,319,20*6C
$GLGSV,3,2,10,78,08,160,,79,47,199,33,80,43,285,26,81,00,052,*63
$GLGSV,3,3,10,82,06,010,34,83,03,324,26*67
$GNGLL,0419.75597,S,05539.70020,E,075433.00,A,A*66
$GNGSA,A,3,25,23,12,15,10,29,18,24,28,05,,,1.28,0.71,1.06*1D
$GNGSA,A,3,68,79,80,67,82,,,,,,,,1.28,0.71,1.06*15
$GPGSV,5,1,18,05,07,028,41,10,35,227,28,12,46,151,22,13,07,071,*74
$GPGSV,5,2,18,15,43,086,21,18,21,330,34,23,70,281,29,24,19,146,15*7B
$GPGSV,5,3,18,25,77,205,34,26,00,318,20,28,12,257,27,29,31,016,26*7B
$GPGSV,5,4,18,32,07,213,,36,52,277,,40,85,352,,41,58,082,*78
$GPGSV,5,5,18,49,32,274,,50,10,089,*78
$GLGSV,3,1,10,67,36,057,31,68,58,133,28,69,25,189,25,73,00,319,20*68
$GLGSV,3,2,10,78,08,160,,79,47,199,28,80,43,285,25,81,00,052,*6A
$GLGSV,3,3,10,82,06,010,33,83,03,324,27*61
$GNGLL,0419.75597,S,05539.70017,E,075434.00,A,A*65
$GPGSV,5,2,18,15,43,086,20,18,21,330,31,23,70,281,30,24,19,146,15*77
$GPGSV,5,3,18,25,77,205,34,26,00,318,19,28,12,257,26,29,31,016,25*73
$GPGSV,5,4,18,32,07,213,,36,52,277,,40,85,352,,41,58,082,*78
$GPGSV,5,5,18,49,32,274,,50,10,089,*78
$GLGSV,3,1,10,67,36,057,29,68,58,133,30,69,25,189,23,73,00,319,17*6A
$GLGSV,3,2,10,78,08,160,,79,47,199,33,80,43,285,25,81,00,052,*60
$GLGSV,3,3,10,82,06,010,28,83,03,324,24*68
$GNGLL,0419.75597,S,05539.70017,E,075435.00,A,A*64
$GNRMC,075436.00,A,0419.75598,S,05539.70014,E,0.035,,260525,,,A*72
$GNVTG,,T,,M,0.035,N,0.065,K,A*38
$GNRMC,075437.00,A,0419.75599,S,05539.70012,E,0.024,,260525,,,A*74
$GNVTG,,T,,M,0.024,N,0.045,K,A*3A
$GNGGA,075437.00,0419.75599,S,05539.70012,E,1,12,0.71,6.1,M,-47.6,M,,*72
$GNGSA,A,3,25,23,12,15,10,29,18,24,28,05,,,1.28,0.71,1.06*1D
$GNGSA,A,3,68,79,80,67,82,,,,,,,,1.28,0.71,1.06*15
$GPGSV,5,1,18,05,07,028,39,10,35,227,29,12,46,151,25,13,07,071,*7D
$GPGSV,5,2,18,15,43,086,21,18,21,330,33,23,70,281,31,24,19,146,13*73
$GPGSV,5,3,18,25,77,205,36,26,00,318,22,28,12,257,25,29,31,016,21*7E
$GNRMC,075438.00,A,0419.75599,S,05539.70013,E,0.045,,260525,,,A*7D
$GNVTG,,T,,M,0.045,N,0.083,K,A*37
$GNGGA,075438.00,0419.75599,S,05539.70013,E,1,12,0.71,6.1,M,-47.6,M,,*7C
$GNGSA,A,3,25,23,12,15,10,29,18,24,28,05,,,1.28,0.71,1.06*1D
$GNGSA,A,3,68,79,80,67,82,,,,,,,,1.28,0.71,1.06*15
$GPGSV,5,1,18,05,07,028,39,10,35,227,29,12,46,151,26,13,07,071,*7E
$GPGSV,5,2,18,15,43,086,24,18,21,330,33,23,70,281,31,24,19,146,17*72
$GPGSV,5,3,18,25,77,205,36,26,00,318,23,28,12,257,27,29,31,016,23*7F
$GPGSV,5,4,18,32,07,213,,36,52,277,,40,85,352,,41,58,082,*78
$GPGSV,5,5,18,49,32,274,,50,10,089,*78
$GLGSV,3,1,10,67,35,056,27,68,59,132,31,69,25,189,26,73,00,319,22*64
$GLGSV,3,2,10,78,08,160,,79,47,199,32,80,43,285,24,81,00,052,*60
$GLGSV,3,3,10,82,06,010,28,83,03,324,12*6D
$GNGLL,0419.75599,S,05539.70013,E,075438.00,A,A*63
$GNRMC,075439.00,A,0419.75600,S,05539.70014,E,0.028,,260525,,,A*73
$GNVTG,,T,,M,0.028,N,0.052,K,A*30
$GNGGA,075439.00,0419.75600,S,05539.70014,E,1,12,0.71,6.1,M,-47.6,M,,*79
$GNGSA,A,3,25,23,12,15,10,29,18,24,28,05,,,1.28,0.71,1.06*1D
$GNGSA,A,3,68,79,80,67,82,,,,,,,,1.28,0.71,1.06*15
$GPGSV,5,1,18,05,07,028,39,10,35,227,30,12,46,151,28,13,07,071,*78
$GPGSV,5,2,18,15,43,086,23,18,21,330,33,23,70,281,31,24,19,146,17*75
$GPGSV,5,3,18,25,77,205,36,26,00,318,25,28,12,257,27,29,31,016,25*7F
$GPGSV,5,4,18,32,07,213,,36,52,277,,40,85,352,,41,58,082,*78
$GPGSV,5,5,18,49,32,274,,50,10,089,*78
$GLGSV,3,1,10,67,35,056,27,68,59,132,31,69,25,189,26,73,00,319,23*65
$GLGSV,3,2,10,78,08,160,,79,47,199,32,80,43,285,25,81,00,052,*61
$GLGSV,3,3,10,82,06,010,27,83,03,324,10*60
$GNGLL,0419.75600,S,05539.70014,E,075439.00,A,A*66
$GNRMC,075440.00,A,0419.75603,S,05539.70015,E,0.027,,260525,,,A*70
$GNVTG,,T,,M,0.027,N,0.050,K,A*3D
$GNGGA,075440.00,0419.75603,S,05539.70015,E,1,12,0.71,6.0,M,-47.6,M,,*74
$GNGSA,A,3,25,23,12,15,10,29,18,24,28,05,,,1.28,0.71,1.06*1D
$GNGSA,A,3,68,79,80,67,82,,,,,,,,1.28,0.71,1.06*15
$GPGSV,5,1,18,05,07,028,39,10,35,227,30,12,46,151,28,13,07,071,*78
$GPGSV,5,2,18,15,43,086,20,18,21,330,34,23,70,281,32,24,19,146,16*73
$GPGSV,5,3,18,25,77,205,36,26,00,318,27,28,12,257,28,29,31,016,25*72
$GPGSV,5,4,18,32,07,213,,36,52,277,,40,85,352,,41,58,082,*78
$GPGSV,5,5,18,49,32,274,,50,10,089,*78
$GLGSV,3,1,10,67,35,056,28,68,59,132,31,69,25,189,26,73,00,319,24*6D
$GLGSV,3,2,10,78,08,160,,79,47,199,33,80,43,285,27,81,00,052,*62
$GLGSV,3,3,10,82,06,010,28,83,03,324,12*6D
$GNGLL,0419.75603,S,05539.70015,E,075440.00,A,A*6A
$GNRMC,075441.00,A,0419.75598,S,05539.70014,E,0.079,,260525,,,A*7A
$GNVTG,,T,,M,0.079,N,0.146,K,A*30
$GNGGA,075441.00,0419.75598,S,05539.70014,E,1,12,0.71,6.1,M,-47.6,M,,*74
$GNGSA,A,3,25,23,12,15,10,29,18,24,28,05,,,1.28,0.71,1.06*1D
$GNGSA,A,3,68,79,80,67,82,,,,,,,,1.28,0.71,1.06*15
$GPGSV,5,1,18,05,07,028,39,10,35,227,31,12,46,151,28,13,07,071,*79
$GPGSV,5,2,18,15,43,086,19,18,21,330,34,23,70,281,32,24,19,146,17*78
$GPGSV,5,3,18,25,77,205,36,26,00,318,30,28,12,257,26,29,31,016,22*7D
$GPGSV,5,4,18,32,07,213,,36,52,277,,40,85,352,,41,58,082,*78
$GPGSV,5,5,18,49,32,274,,50,10,089,*78
$GLGSV,3,1,10,67,35,056,27,68,59,132,31,69,25,189,26,73,00,319,26*60
$GLGSV,3,2,10,78,08,160,,79,47,199,33,80,43,285,26,81,00,052,*63
$GLGSV,3,3,10,82,06,010,28,83,03,324,16*69
$GNGLL,0419.75598,S,05539.70014,E,075441.00,A,A*6B
$GNRMC,075442.00,A,0419.75598,S,05539.70016,E,0.050,,260525,,,A*70
$GNVTG,,T,,M,0.050,N,0.092,K,A*33
$GNGGA,075442.00,0419.75598,S,05539.70016,E,1,12,0.71,6.1,M,-47.6,M,,*75
$GNGSA,A,3,25,23,12,15,10,29,18,24,28,05,,,1.28,0.71,1.06*1D
$GNGSA,A,3,68,79,80,67,82,,,,,,,,1.28,0.71,1.06*15
$GPGSV,5,1,18,05,07,028,39,10,35,227,30,12,46,151,27,13,07,071,*77
$GPGSV,5,2,18,15,43,086,22,18,21,330,35,23,70,281,32,24,19,146,16*70
$GPGSV,5,3,18,25,77,205,36,26,00,318,31,28,12,257,26,29,31,016,19*74
$GPGSV,5,4,18,32,07,213,,36,52,277,,40,85,352,,41,58,082,*78
$GPGSV,5,5,18,49,32,274,,50,10,089,*78
$GLGSV,3,1,10,67,35,056,27,68,59,132,31,69,25,189,26,73,00,319,26*60
$GLGSV,3,2,10,78,08,160,,79,47,199,32,80,43,285,25,81,00,052,*61
$GLGSV,3,3,10,82,06,010,29,83,03,324,17*69
$GNGLL,0419.75598,S,05539.70016,E,075442.00,A,A*6A
$GNRMC,075443.00,A,0419.75597,S,05539.70018,E,0.008,,260525,,,A*7D
$GNVTG,,T,,M,0.008,N,0.016,K,A*32
$GNGGA,075443.00,0419.75597,S,05539.70018,E,1,12,0.74,6.1,M,-47.6,M,,*70
$GNGSA,A,3,25,23,12,15,10,29,18,24,28,05,,,1.30,0.74,1.07*10
$GNGSA,A,3,68,79,80,67,82,,,,,,,,1.30,0.74,1.07*18
$GPGSV,5,1,18,05,07,028,39,10,35,227,30,12,46,151,27,13,07,071,*77
$GPGSV,5,2,18,15,43,086,23,18,21,330,35,23,70,281,32,24,19,146,13*74
$GPGSV,5,3,18,25,77,205,36,26,00,318,31,28,12,257,26,29,31,016,16*7B
$GPGSV,5,4,18,32,07,213,,36,52,277,,40,85,352,,41,58,082,*78
$GPGSV,5,5,18,49,32,274,,50,10,089,*78
$GLGSV,3,1,10,67,35,056,28,68,59,132,32,69,25,189,24,73,01,318,25*6D
$GLGSV,3,2,10,78,08,160,,79,47,199,32,80,43,285,26,81,00,052,*62
$GLGSV,3,3,10,82,06,010,29,83,03,324,18*66
$GNGLL,0419.75597,S,05539.70018,E,075443.00,A,A*6A
$GPGSV,5,5,18,49,32,274,,50,10,089,*78
$GLGSV,3,1,10,67,35,056,26,68,59,132,30,69,25,189,23,73,01,318,24*67
$GLGSV,3,2,10,78,08,160,,79,47,199,33,80,43,285,23,81,00,052,*66
$GLGSV,3,3,10,82,06,010,29,83,03,324,22*6F
$GNGLL,0419.75592,S,05539.70017,E,075445.00,A,A*66
$GNRMC,075446.00,A,0419.75590,S,05539.70013,E,0.016,,260525,,,A*7B
$GNVTG,,T,,M,0.016,N,0.029,K,A*31
$GNGGA,075446.00,0419.75590,S,05539.70013,E,1,12,0.85,6.1,M,-47.6,M,,*77
$GNGSA,A,3,25,23,12,15,10,29,18,24,28,05,,,1.53,0.85,1.27*19
$GNGSA,A,3,68,79,80,67,82,,,,,,,,1.53,0.85,1.27*11
$GPGSV,5,1,18,05,07,028,40,10,35,227,30,12,46,151,28,13,07,071,*76
$GPGSV,5,2,18,15,43,086,32,18,21,330,35,23,70,281,30,24,19,146,13*76
$GPGSV,5,3,18,25,77,205,36,26,00,318,30,28,12,257,27,29,31,016,27*79
$GPGSV,5,4,18,32,07,213,,36,52,277,,40,85,352,,41,58,082,*78
$GPGSV,5,5,18,49,32,274,,50,10,089,*78
$GLGSV,3,1,10,67,35,056,28,68,59,132,31,69,25,189,24,73,01,318,22*69
$GLGSV,3,2,10,78,08,160,,79,47,199,33,80,43,285,23,81,00,052,*66
$GLGSV,3,3,10,82,06,010,28,83,03,324,19*66
$GNGLL,0419.75590,S,05539.70013,E,075446.00,A,A*63
$GNRMC,075447.00,A,0419.75590,S,05539.70010,E,0.015,,260525,,,A*7A
$GNVTG,,T,,M,0.015,N,0.028,K,A*33
$GNGGA,075447.00,0419.75590,S,05539.70010,E,1,12,0.71,6.1,M,-47.6,M,,*7E
$GNGSA,A,3,25,23,12,15,10,29,18,24,28,05,,,1.28,0.71,1.06*1D
$GNGSA,A,3,68,79,80,67,82,,,,,,,,1.28,0.71,1.06*15
$GPGSV,5,1,18,05,07,028,40,10,35,227,31,12,46,151,26,13,07,071,*79
$GPGSV,5,2,18,15,43,086,30,18,21,330,35,23,70,281,31,24,19,146,14*72
$GPGSV,5,3,18,25,77,205,37,26,00,318,31,28,12,257,26,29,31,016,27*78
$GPGSV,5,4,18,32,07,213,,36,52,277,,40,85,352,,41,58,082,*78
$GPGSV,5,5,18,49,32,274,,50,10,089,*78
$GLGSV,3,1,10,67,35,056,29,68,59,132,31,69,25,189,24,73,01,318,22*68
$GLGSV,3,2,10,78,08,160,,79,47,199,32,80,43,285,22,81,00,052,*66
$GLGSV,3,3,10,82,06,010,28,83,03,324,19*66
$GNGLL,0419.75590,S,05539.70010,E,075447.00,A,A*61
$GNRMC,075448.00,A,0419.75590,S,05539.70009,E,0.042,,260525,,,A*7F
$GNVTG,,T,,M,0.042,N,0.079,K,A*35
$GNGGA,075448.00,0419.75590,S,05539.70009,E,1,12,0.71,6.0,M,-47.6,M,,*78
$GNGSA,A,3,25,23,12,15,10,29,18,24,28,05,,,1.28,0.71,1.06*1D
$GNGSA,A,3,68,79,80,67,82,,,,,,,,1.28,0.71,1.06*15
$GPGSV,5,1,18,05,07,028,40,10,35,227,31,12,46,151,32,13,07,071,*7C
$GPGSV,5,2,18,15,43,086,29,18,21,330,35,23,70,281,31,24,19,146,14*7A
$GPGSV,5,3,18,25,77,205,36,26,00,318,30,28,12,257,26,29,31,016,26*79
$GPGSV,5,4,18,32,07,213,,36,52,277,,40,85,352,,41,58,082,*78
$GPGSV,5,5,18,49,32,274,,50,10,089,*78
$GLGSV,3,1,10,67,35,056,30,68,59,132,31,69,25,189,23,73,01,318,25*60
$GLGSV,3,2,10,78,08,160,,79,47,199,33,80,43,285,22,81,00,052,*67
$GLGSV,3,3,10,82,06,010,29,83,03,324,19*67
$GNGLL,0419.75590,S,05539.70009,E,075448.00,A,A*66
$GNRMC,075449.00,A,0419.75586,S,05539.70006,E,0.072,,260525,,,A*75
$GNVTG,,T,,M,0.072,N,0.132,K,A*38
$GNGGA,075449.00,0419.75586,S,05539.70006,E,1,12,0.71,6.1,M,-47.6,M,,*70
$GNGSA,A,3,25,23,12,15,10,29,18,24,28,05,,,1.28,0.71,1.06*1D
$GNGSA,A,3,68,79,80,67,82,,,,,,,,1.28,0.71,1.06*15
$GPGSV,5,1,18,05,07,028,40,10,35,227,31,12,46,151,30,13,07,071,*7E
$GPGSV,5,2,18,15,43,086,28,18,21,330,36,23,70,281,31,24,19,146,14*78
$GPGSV,5,3,18,25,77,205,37,26,00,318,30,28,12,257,26,29,31,016,26*78
$GPGSV,5,4,18,32,07,213,,36,52,277,,40,85,352,,41,58,082,*78
$GPGSV,5,5,18,49,32,274,,50,10,089,*78
$GLGSV,3,1,10,67,35,056,28,68,59,132,30,69,25,189,23,73,01,318,24*69
$GLGSV,3,2,10,78,08,160,,79,47,199,34,80,43,285,23,81,00,052,*61
$GLGSV,3,3,10,82,06,010,28,83,03,324,19*66
$GNGLL,0419.75586,S,05539.70006,E,075449.00,A,A*6F
$GNRMC,075450.00,A,0419.75585,S,05539.70004,E,0.030,,260525,,,A*7A
$GNVTG,,T,,M,0.030,N,0.055,K,A*3E
$GNGGA,075450.00,0419.75585,S,05539.70004,E,1,12,0.71,6.0,M,-47.6,M,,*78
$GNGSA,A,3,25,23,12,15,10,29,18,24,28,05,,,1.28,0.71,1.06*1D
$GNGSA,A,3,68,79,80,67,82,,,,,,,,1.28,0.71,1.06*15
$GPGSV,5,1,18,05,07,028,40,10,35,227,29,12,46,151,29,13,07,071,*7F
$GPGSV,5,2,18,15,43,086,28,18,21,330,35,23,70,281,32,24,19,146,14*78
$GPGSV,5,3,18,25,77,205,37,26,00,318,30,28,12,257,26,29,31,016,25*7B
$GPGSV,5,4,18,32,07,213,,36,52,277,,40,85,352,,41,58,082,*78
$GPGSV,5,5,18,49,32,274,,50,10,089,*78
$GLGSV,3,1,10,67,35,056,29,68,59,132,31,69,25,189,24,73,01,318,22*68
$GLGSV,3,2,10,78,08,160,,79,47,199,34,80,43,284,24,81,00,052,*67
$GLGSV,3,3,10,82,06,010,28,83,03,324,29*65
$GNGLL,0419.75585,S,05539.70004,E,075450.00,A,A*66
$GNRMC,075451.00,A,0419.75583,S,05539.70002,E,0.037,,260525,,,A*7C
$GNVTG,,T,,M,0.037,N,0.068,K,A*37
$GNGGA,075451.00,0419.75583,S,05539.70002,E,1,12,0.71,6.0,M,-47.6,M,,*79
$GNGSA,A,3,25,23,12,15,10,29,18,24,28,05,,,1.28,0.71,1.06*1D
$GNGSA,A,3,68,79,80,67,82,,,,,,,,1.28,0.71,1.06*15
$GPGSV,5,1,18,05,07,028,39,10,35,227,30,12,46,151,28,13,07,071,*78
$GPGSV,5,2,18,15,43,086,28,18,21,330,34,23,70,281,31,24,19,146,14*7A
$GPGSV,5,3,18,25,77,205,36,26,00,318,29,28,12,257,26,29,31,016,23*74
$GPGSV,5,4,18,32,07,213,,36,52,277,,40,85,352,,41,58,082,*78
$GPGSV,5,5,18,49,32,274,,50,10,089,*78
$GLGSV,3,1,10,67,35,056,29,68,59,132,32,69,25,189,23,73,01,318,19*64
$GLGSV,3,2,10,78,08,160,,79,47,199,35,80,43,284,22,81,00,053,*61
$GLGSV,3,3,10,82,06,010,28,83,03,324,25*69
$GNGLL,0419.75583,S,05539.70002,E,075451.00,A,A*67
$GNRMC,075453.00,A,0419.75572,S,05539.70000,E,0.267,,260525,,,A*75
$GNVTG,,T,,M,0.267,N,0.495,K,A*36
$GNGGA,075453.00,0419.75572,S,05539.70000,E,1,12,0.71,6.3,M,-47.6,M,,*74
$GNGSA,A,3,25,23,12,15,10,29,18,24,28,05,,,1.28,0.71,1.06*1D
$GNGSA,A,3,68,79,80,67,82,,,,,,,,1.28,0.71,1.06*15
$GPGSV,5,1,18,05,07,028,37,10,35,227,29,12,46,151,28,13,07,071,*7E
$GPGSV,5,2,18,15,43,086,30,18,21,330,33,23,70,281,30,24,19,146,14*75
$GPGSV,5,3,18,25,77,205,37,26,00,318,31,28,12,257,25,29,31,016,24*78
$GPGSV,5,4,18,32,07,213,,36,52,277,,40,85,352,,41,58,082,*78
$GPGSV,5,5,18,49,32,274,,50,10,089,*78
$GLGSV,3,1,10,67,35,056,29,68,59,132,32,69,25,189,24,73,01,318,17*6D
$GLGSV,3,2,10,78,08,160,,79,47,199,32,80,43,284,22,81,00,053,*66
$GLGSV,3,3,10,82,06,010,27,83,03,324,18*68
$GNGLL,0419.75572,S,05539.70000,E,075453.00,A,A*69
$GNRMC,075454.00,A,0419.75569,S,05539.69995,E,0.070,,260525,,,A*71
$GNVTG,,T,,M,0.070,N,0.129,K,A*30
$GNGGA,075454.00,0419.75569,S,05539.69995,E,1,12,0.71,6.4,M,-47.6,M,,*73
$GNGSA,A,3,25,23,12,15,10,29,18,24,28,05,,,1.28,0.71,1.06*1D
$GNGSA,A,3,68,79,80,67,82,,,,,,,,1.28,0.71,1.06*15
$GPGSV,5,1,18,05,07,028,37,10,35,227,27,12,46,151,30,13,07,071,*79
$GPGSV,5,2,18,15,43,086,30,18,21,330,33,23,70,281,30,24,19,146,14*75
$GPGSV,5,3,18,25,77,205,37,26,00,318,30,28,12,257,22,29,31,016,23*79
$GPGSV,5,4,18,32,07,213,,36,52,277,,40,85,352,,41,58,082,*78
$GPGSV,5,5,18,49,32,274,,50,10,089,*78
$GLGSV,3,1,10,67,35,056,30,68,59,132,32,69,25,189,24,73,01,318,18*6A
$GLGSV,3,2,10,78,08,160,,79,47,199,33,80,43,284,22,81,00,053,*67
$GLGSV,3,3,10,82,06,010,27,83,03,324,18*68
$GNGLL,0419.75569,S,05539.69995,E,075454.00,A,A*69
$GPGSV,5,1,18,05,07,028,37,10,35,227,28,12,46,151,29,13,07,071,*7E
$GPGSV,5,2,18,15,43,086,24,18,21,330,34,23,70,281,32,24,19,146,14*75
$GPGSV,5,3,18,25,77,205,37,26,00,318,29,28,12,257,20,29,31,016,22*72
$GPGSV,5,4,18,32,07,213,,36,52,277,,40,85,352,,41,58,082,*78
$GPGSV,5,5,18,49,32,274,,50,10,089,*78
$GLGSV,3,1,10,67,35,056,29,68,59,132,32,69,25,189,24,73,01,318,19*63
$GLGSV,3,2,10,78,08,160,,79,47,199,32,80,43,284,20,81,00,053,*64
$GLGSV,3,3,10,82,06,010,28,83,03,324,15*6A
$GNGLL,0419.75566,S,05539.69991,E,075455.00,A,A*63
$GNRMC,075456.00,A,0419.75567,S,05539.69989,E,0.034,,260525,,,A*70
$GNVTG,,T,,M,0.034,N,0.064,K,A*38
$GNGGA,075456.00,0419.75567,S,05539.69989,E,1,12,0.71,6.2,M,-47.6,M,,*74
$GNGSA,A,3,25,23,12,15,10,29,18,24,28,05,,,1.28,0.71,1.06*1D
$GNGSA,A,3,68,79,80,67,82,,,,,,,,1.28,0.71,1.06*15
$GPGSV,5,1,18,05,07,028,38,10,35,227,28,12,46,151,28,13,07,071,*70
$GPGSV,5,2,18,15,43,086,24,18,21,330,34,23,70,281,33,24,19,146,14*74
$GPGSV,5,3,18,25,77,205,36,26,00,318,29,28,12,257,19,29,31,016,22*79
$GPGSV,5,4,18,32,07,213,,36,52,277,,40,85,352,,41,58,082,*78
$GPGSV,5,5,18,49,32,274,,50,10,089,*78
$GLGSV,3,1,10,67,35,056,29,68,59,132,30,69,25,189,26,73,01,318,21*68
$GLGSV,3,2,10,78,08,160,,79,47,199,31,80,43,284,21,81,00,053,*66
$GLGSV,3,3,10,82,06,010,29,83,03,324,19*67
$GNGLL,0419.75567,S,05539.69989,E,075456.00,A,A*68
$GNRMC,075457.00,A,0419.75568,S,05539.69986,E,0.026,,260525,,,A*72
$GNVTG,,T,,M,0.026,N,0.049,K,A*34
$GNGGA,075457.00,0419.75568,S,05539.69986,E,1,12,0.71,6.2,M,-47.6,M,,*75
$GNGSA,A,3,25,23,12,15,10,29,18,24,28,05,,,1.28,0.71,1.06*1D
$GNGSA,A,3,68,79,80,67,82,,,,,,,,1.28,0.71,1.06*15
$GPGSV,5,1,18,05,07,028,38,10,35,227,29,12,46,151,15,13,07,071,*7F
$GPGSV,5,2,18,15,43,086,26,18,21,330,33,23,70,281,33,24,19,146,14*71
$GPGSV,5,3,18,25,77,205,35,26,00,318,28,28,12,257,18,29,31,016,22*7A
$GPGSV,5,4,18,32,07,213,,36,52,277,,40,85,352,,41,58,082,*78
$GPGSV,5,5,18,49,32,274,,50,10,089,*78
$GLGSV,3,1,10,67,35,056,30,68,59,132,29,69,25,189,25,73,01,318,21*6B
$GLGSV,3,2,10,78,08,160,,79,47,199,30,80,43,284,23,81,00,053,*65
$GLGSV,3,3,10,82,06,010,29,83,03,324,19*67
$GNGLL,0419.75568,S,05539.69986,E,075457.00,A,A*69
$GNRMC,075458.00,A,0419.75572,S,05539.69985,E,0.090,,260525,,,A*78
$GNVTG,,T,,M,0.090,N,0.166,K,A*35
$GNGGA,075458.00,0419.75572,S,05539.69985,E,1,12,0.71,6.0,M,-47.6,M,,*70
$GNGSA,A,3,25,23,12,15,10,29,18,24,28,05,,,1.28,0.71,1.06*1D
$GNGSA,A,3,68,79,80,67,82,,,,,,,,1.28,0.71,1.06*15
$GPGSV,5,1,18,05,07,028,38,10,35,227,29,12,46,151,23,13,07,071,*7A
$GPGSV,5,2,18,15,43,086,28,18,21,330,33,23,70,281,33,24,19,146,14*7F
$GPGSV,5,3,18,25,77,205,36,26,00,318,28,28,12,257,17,29,31,016,29*7D
$GPGSV,5,4,18,32,07,213,,36,52,277,,40,85,352,,41,58,082,*78
$GPGSV,5,5,18,49,32,274,,50,10,089,*78
$GLGSV,3,1,10,67,35,056,29,68,59,132,29,69,25,189,24,73,01,318,20*63
$GLGSV,3,2,10,78,08,160,,79,47,199,31,80,43,284,25,81,00,053,*62
$GLGSV,3,3,10,82,06,010,29,83,03,324,18*66
$GNGLL,0419.75572,S,05539.69985,E,075458.00,A,A*6E
$GNRMC,075459.00,A,0419.75576,S,05539.69985,E,0.047,,260525,,,A*77
$GNVTG,,T,,M,0.047,N,0.087,K,A*31
$GNGGA,075459.00,0419.75576,S,05539.69985,E,1,12,0.71,5.9,M,-47.6,M,,*7F
$GNGSA,A,3,25,23,12,15,10,29,18,24,28,05,,,1.28,0.71,1.06*1D
$GNGSA,A,3,68,79,80,67,82,,,,,,,,1.28,0.71,1.06*15
$GPGSV,5,1,18,05,07,028,38,10,35,227,29,12,46,151,25,13,07,071,*7C
$GPGSV,5,2,18,15,43,086,25,18,21,330,34,23,70,281,33,24,19,146,14*75
$GPGSV,5,3,18,25,77,205,35,26,00,318,29,28,12,257,17,29,31,016,26*70
$GPGSV,5,4,18,32,07,213,,36,52,277,,40,85,352,,41,58,082,*78
$GPGSV,5,5,18,49,32,274,,50,10,089,*78
$GLGSV,3,1,10,67,35,056,28,68,59,132,29,69,25,189,25,73,01,318,20*63
$GLGSV,3,2,10,78,08,160,,79,47,199,31,80,43,284,25,81,00,053,*62
$GLGSV,3,3,10,82,06,010,29,83,03,324,16*68
$GNGLL,0419.75576,S,05539.69985,E,075459.00,A,A*6B
$GNRMC,075500.00,A,0419.75580,S,05539.69987,E,0.027,,260525,,,A*77
$GNVTG,,T,,M,0.027,N,0.050,K,A*3D
$GNGGA,075500.00,0419.75580,S,05539.69987,E,1,12,0.71,5.8,M,-47.6,M,,*78
$GNGSA,A,3,25,23,12,15,10,29,18,24,28,05,,,1.28,0.71,1.06*1D
$GNGSA,A,3,68,79,80,67,82,,,,,,,,1.28,0.71,1.06*15
$GPGSV,5,1,18,05,07,028,38,10,35,227,30,12,46,151,26,13,07,071,*77
$GPGSV,5,2,18,15,43,086,23,18,21,330,34,23,70,281,32,24,19,146,14*72
$GPGSV,5,3,18,25,77,205,35,26,00,318,29,28,12,257,15,29,31,016,24*70
$GPGSV,5,4,18,32,07,213,,36,52,277,,40,85,352,,41,58,082,*78
$GPGSV,5,5,18,49,32,274,,50,10,089,*78
$GLGSV,3,1,10,67,35,056,27,68,59,132,29,69,25,189,26,73,01,318,19*65
$GLGSV,3,2,10,78,08,160,,79,47,199,32,80,43,284,25,81,00,053,*61
$GLGSV,3,3,10,82,06,010,29,83,03,324,14*6A
$GNGLL,0419.75580,S,05539.69987,E,075500.00,A,A*6D
$GNRMC,075504.00,A,0419.75590,S,05539.69991,E,0.021,,260525,,,A*73
$GNVTG,,T,,M,0.021,N,0.040,K,A*3A
$GNGGA,075504.00,0419.75590,S,05539.69991,E,1,12,0.85,5.8,M,-47.6,M,,*71
$GNGSA,A,3,25,23,12,15,10,29,18,28,05,,,,1.52,0.85,1.27*1E
$GNGSA,A,3,68,79,80,67,82,,,,,,,,1.52,0.85,1.27*10
$GPGSV,5,1,18,05,06,028,39,10,35,227,30,12,46,151,27,13,07,071,*76
$GPGSV,5,2,18,15,43,086,24,18,21,330,38,23,70,281,32,24,19,146,16*7B
$GPGSV,5,3,18,25,77,205,37,26,01,318,24,28,12,257,17,29,31,016,28*70
$GPGSV,5,4,18,32,07,213,,36,52,277,,40,85,352,,41,58,082,*78
$GPGSV,5,5,18,49,32,274,,50,10,089,*78
$GLGSV,3,1,10,67,35,056,28,68,59,132,32,69,25,189,25,73,01,318,18*62
$GLGSV,3,2,10,78,08,160,,79,47,199,31,80,43,284,21,81,00,053,*66
$GLGSV,3,3,10,82,06,010,27,83,03,324,14*64
$GNGLL,0419.75590,S,05539.69991,E,075504.00,A,A*6F
$GNRMC,075505.00,A,0419.75590,S,05539.69992,E,0.067,,260525,,,A*73
$GNVTG,,T,,M,0.067,N,0.124,K,A*3B
$GNGGA,075505.00,0419.75590,S,05539.69992,E,1,12,0.85,5.9,M,-47.6,M,,*72
$GNGSA,A,3,25,23,12,15,10,29,18,28,05,,,,1.52,0.85,1.27*1E
$GNGSA,A,3,68,79,80,67,82,,,,,,,,1.52,0.85,1.27*10
$GPGSV,5,1,18,05,06,028,39,10,35,227,30,12,46,151,27,13,07,071,*76
$GPGSV,5,2,18,15,43,086,22,18,21,330,37,23,70,281,32,24,19,146,13*77
$GPGSV,5,3,18,25,77,205,37,26,01,318,21,28,12,257,17,29,31,016,28*75
$GPGSV,5,4,18,32,07,213,,36,52,277,,40,85,352,,41,58,082,*78
$GPGSV,5,5,18,49,32,274,,50,10,089,*78
$GLGSV,3,1,10,67,35,056,28,68,59,132,33,69,25,189,25,73,01,318,22*6A
$GLGSV,3,2,10,78,08,160,,79,47,199,31,80,43,284,21,81,00,053,*66
$GLGSV,3,3,10,82,06,010,24,83,03,324,12*61
$GNGLL,0419.75590,S,05539.69992,E,075505.00,A,A*6D
$GNRMC,075506.00,A,0419.75592,S,05539.69992,E,0.005,,260525,,,A*76
$GNVTG,,T,,M,0.005,N,0.010,K,A*39
$GNGGA,075506.00,0419.75592,S,05539.69992,E,1,12,0.71,5.9,M,-47.6,M,,*78
$GNGSA,A,3,25,23,12,15,10,29,18,24,28,05,,,1.28,0.71,1.06*1D
$GNGSA,A,3,68,79,80,67,82,,,,,,,,1.28,0.71,1.06*15
$GPGSV,5,1,18,05,06,028,39,10,35,227,29,12,46,151,29,13,07,071,*70
$GPGSV,5,2,18,15,43,086,20,18,21,330,36,23,70,281,31,24,19,146,13*77
$GPGSV,5,3,18,25,77,205,36,26,01,318,17,28,12,257,15,29,31,016,27*7C
$GPGSV,5,4,18,32,07,213,,36,52,277,,40,85,352,,41,58,082,*78
$GPGSV,5,5,18,49,32,274,,50,10,089,*78
$GLGSV,3,1,10,67,35,056,28,68,59,132,33,69,25,189,24,73,01,318,23*6A
$GLGSV,3,2,10,78,08,160,,79,47,199,31,80,43,284,22,81,00,053,*65
$GLGSV,3,3,10,82,06,010,23,83,03,324,17*63
$GNGLL,0419.75592,S,05539.69992,E,075506.00,A,A*6C
$GNRMC,075507.00,A,0419.75591,S,05539.69992,E,0.094,,260525,,,A*7C
$GNVTG,,T,,M,0.094,N,0.174,K,A*32
$GNGGA,075507.00,0419.75591,S,05539.69992,E,1,12,0.71,5.9,M,-47.6,M,,*7A
$GNGSA,A,3,25,23,12,15,10,29,18,24,28,05,,,1.28,0.71,1.06*1D
$GNGSA,A,3,68,79,80,67,82,,,,,,,,1.28,0.71,1.06*15
$GPGSV,5,1,18,05,06,028,39,10,35,227,29,12,46,151,29,13,07,071,*70
$GPGSV,5,2,18,15,43,086,18,18,21,330,36,23,70,281,30,24,19,146,14*7A
$GPGSV,5,3,18,25,77,205,37,26,01,318,19,28,12,257,15,29,31,016,26*72
$GPGSV,5,4,18,32,07,213,,36,52,277,,40,85,352,,41,58,082,*78
$GPGSV,5,5,18,49,32,274,,50,10,089,*78
$GLGSV,3,1,10,67,35,056,28,68,59,132,34,69,25,189,23,73,01,318,23*6A
$GLGSV,3,2,10,78,08,160,,79,47,199,32,80,43,284,21,81,00,053,*65
$GLGSV,3,3,10,82,06,010,23,83,03,324,18*6C
$GNGLL,0419.75591,S,05539.69992,E,075507.00,A,A*6E
$GNRMC,075510.00,A,0419.75592,S,05539.69985,E,0.180,,260525,,,A*7B
$GNVTG,,T,,M,0.180,N,0.334,K,A*30
$GNGGA,075510.00,0419.75592,S,05539.69985,E,1,12,0.71,5.6,M,-47.6,M,,*76
$GNGSA,A,3,25,23,12,15,10,29,18,24,28,05,,,1.28,0.71,1.06*1D
$GNGSA,A,3,68,79,80,67,82,,,,,,,,1.28,0.71,1.06*15
$GPGSV,5,1,18,05,06,028,44,10,36,228,29,12,46,152,27,13,07,071,*7B
$GPGSV,5,2,18,15,43,086,21,18,21,330,25,23,70,281,29,24,19,146,13*7D
$GPGSV,5,3,18,25,77,205,34,26,01,318,25,28,12,257,30,29,31,016,25*7A
$GPGSV,5,4,18,32,07,213,,36,52,277,,40,85,352,,41,58,082,*78
$GPGSV,5,5,18,49,32,274,,50,10,089,*78
$GLGSV,3,1,10,67,35,056,26,68,59,131,29,69,25,189,24,73,01,318,22*6D
$GLGSV,3,2,10,78,08,160,,79,47,199,32,80,43,284,16,81,00,053,*61
$GLGSV,3,3,10,82,06,010,29,83,03,324,23*6E
$GNGLL,0419.75592,S,05539.69985,E,075510.00,A,A*6D
$GNRMC,075513.00,A,0419.75585,S,05539.69970,E,0.070,,260525,,,A*7A
$GNVTG,,T,,M,0.070,N,0.130,K,A*38
$GNGGA,075513.00,0419.75585,S,05539.69970,E,1,12,0.71,5.5,M,-47.6,M,,*7A
$GNGSA,A,3,25,23,12,15,10,29,18,24,28,05,,,1.28,0.71,1.06*1D
$GNGSA,A,3,68,79,80,67,82,,,,,,,,1.28,0.71,1.06*15
$GPGSV,5,1,18,05,06,028,43,10,36,228,31,12,46,152,27,13,07,071,*75
$GPGSV,5,2,18,15,42,085,25,18,21,330,29,23,70,281,31,24,19,146,18*75
$GPGSV,5,3,18,25,77,205,34,26,01,318,25,28,12,257,31,29,31,016,28*76
$GPGSV,5,4,18,32,07,213,,36,52,277,,40,85,352,,41,58,082,*78
$GPGSV,5,5,18,49,32,274,,50,10,089,*78
$GLGSV,3,1,10,67,35,056,27,68,59,131,30,69,25,189,23,73,01,318,21*60
$GLGSV,3,2,10,78,08,160,,79,47,199,30,80,43,284,22,81,00,053,*64
$GLGSV,3,3,10,82,06,010,29,83,03,324,27*6A
$GNGLL,0419.75585,S,05539.69970,E,075513.00,A,A*62
$GNRMC,075514.00,A,0419.75587,S,05539.69971,E,0.012,,260525,,,A*7A
$GNVTG,,T,,M,0.012,N,0.021,K,A*3D
$GNGGA,075514.00,0419.75587,S,05539.69971,E,1,12,0.71,5.3,M,-47.6,M,,*78
$GNGSA,A,3,25,23,12,15,10,29,18,24,28,05,,,1.28,0.71,1.06*1D
$GNGSA,A,3,68,79,80,67,82,,,,,,,,1.28,0.71,1.06*15
$GPGSV,5,1,18,05,06,028,43,10,36,228,30,12,46,152,26,13,07,071,*75
$GPGSV,5,2,18,15,42,085,26,18,21,330,28,23,70,281,31,24,19,146,18*77
$GPGSV,5,3,18,25,77,205,32,26,01,318,24,28,12,257,30,29,31,016,28*70
$GPGSV,5,4,18,32,07,213,,36,52,277,,40,85,352,,41,58,082,*78
$GPGSV,5,5,18,49,32,274,,50,10,089,*78
$GLGSV,3,1,10,67,35,056,28,68,59,131,30,69,25,189,23,73,01,318,18*65
$GLGSV,3,2,10,78,08,160,,79,47,199,29,80,43,284,23,81,00,053,*6D
$GLGSV,3,3,10,82,06,010,28,83,03,324,27*6B
$GNGLL,0419.75587,S,05539.69971,E,075514.00,A,A*66
$GNRMC,075515.00,A,0419.75595,S,05539.69977,E,0.534,124.21,260525,,,A*65
$GNVTG,124.21,T,,M,0.534,N,0.988,K,A*2C
$GNGGA,075515.00,0419.75595,S,05539.69977,E,1,12,0.71,5.4,M,-47.6,M,,*7B
$GNGSA,A,3,25,23,12,15,10,29,18,24,28,05,,,1.28,0.71,1.06*1D
$GNGSA,A,3,68,79,80,67,82,,,,,,,,1.28,0.71,1.06*15
$GPGSV,5,1,18,05,06,028,45,10,36,228,29,12,46,152,25,13,07,071,*78
$GPGSV,5,2,18,15,42,085,31,18,21,330,44,23,70,281,22,24,19,146,18*79
$GPGSV,5,3,18,25,77,205,32,26,01,318,22,28,12,257,33,29,31,016,38*74
$GPGSV,5,4,18,32,07,213,,36,52,277,,40,85,352,,41,58,082,*78
$GPGSV,5,5,18,49,32,274,,50,10,089,*78
$GLGSV,3,1,10,67,35,056,26,68,59,131,29,69,25,189,22,73,01,318,29*60
$GLGSV,3,2,10,78,08,160,,79,47,199,29,80,43,284,23,81,00,053,*6D
$GLGSV,3,3,10,82,06,010,34,83,03,324,33*63
$GNGLL,0419.75595,S,05539.69977,E,075515.00,A,A*62
$GNRMC,075516.00,A,0419.75581,S,05539.69974,E,0.542,46.36,260525,,,A*52
$GNVTG,46.36,T,,M,0.542,N,1.004,K,A*12
$GNGGA,075516.00,0419.75581,S,05539.69974,E,1,12,0.71,5.5,M,-47.6,M,,*7F
$GNGSA,A,3,25,23,12,15,10,29,18,24,28,05,,,1.28,0.71,1.06*1D
$GNGSA,A,3,68,79,80,67,82,,,,,,,,1.28,0.71,1.06*15
$GPGSV,5,1,18,05,06,028,46,10,36,228,29,12,46,152,25,13,07,071,*7B
$GPGSV,5,2,18,15,42,085,29,18,21,330,44,23,70,281,22,24,19,146,18*70
$GPGSV,5,3,18,25,77,205,31,26,01,318,34,28,12,257,36,29,31,016,37*7A
$GPGSV,5,4,18,32,07,213,,36,52,277,,40,85,352,,41,58,082,*78
$GPGSV,5,5,18,49,32,274,,50,10,089,*78
$GLGSV,3,1,10,67,35,056,26,68,59,131,35,69,25,189,22,73,01,318,30*65
$GLGSV,3,2,10,78,08,160,,79,47,199,23,80,43,284,23,81,00,053,*67
$GLGSV,3,3,10,82,06,010,29,83,03,324,30*6C
$GNGLL,0419.75581,S,05539.69974,E,075516.00,A,A*67
$GNRMC,075517.00,A,0419.75569,S,05539.69973,E,0.136,,260525,,,A*7C
$GNVTG,,T,,M,0.136,N,0.251,K,A*3F
$GNGGA,075517.00,0419.75569,S,05539.69973,E,1,12,0.74,5.5,M,-47.6,M,,*7A
$GNGSA,A,3,25,23,12,15,29,18,24,28,05,,,,1.30,0.74,1.07*11
$GNGSA,A,3,68,79,80,67,82,,,,,,,,1.30,0.74,1.07*18
$GPGSV,5,1,18,05,06,028,40,10,36,228,26,12,46,152,31,13,07,071,*77
$GPGSV,5,2,18,15,42,085,29,18,21,330,39,23,70,281,29,24,19,146,18*71
$GPGSV,5,3,18,25,77,205,26,26,01,318,23,28,12,257,36,29,31,016,30*7D
$GPGSV,5,4,18,32,07,213,,36,52,277,,40,85,352,,41,58,082,*78
$GPGSV,5,5,18,49,32,274,,50,10,089,*78
$GLGSV,3,1,10,67,35,056,25,68,59,131,35,69,25,189,22,73,01,318,22*65
$GLGSV,3,2,10,78,08,160,,79,47,199,23,80,43,284,23,81,00,053,*67
$GLGSV,3,3,10,82,06,010,33,83,03,324,30*67
$GNGLL,0419.75569,S,05539.69973,E,075517.00,A,A*67
$GNRMC,075519.00,A,0419.75556,S,05539.69975,E,0.036,,260525,,,A*79
$GNVTG,,T,,M,0.036,N,0.067,K,A*39
$GNGGA,075519.00,0419.75556,S,05539.69975,E,1,12,0.74,6.0,M,-47.6,M,,*78
$GNGSA,A,3,25,23,12,15,29,18,24,28,05,,,,1.30,0.74,1.07*11
$GNGSA,A,3,68,79,80,67,82,,,,,,,,1.30,0.74,1.07*18
$GPGSV,5,1,18,05,06,028,39,10,36,228,21,12,46,152,32,13,07,071,*7D
$GNRMC,075523.00,A,0419.75536,S,05539.69989,E,0.013,,260525,,,A*72
$GNVTG,,T,,M,0.013,N,0.024,K,A*39
$GNGGA,075523.00,0419.75536,S,05539.69989,E,1,12,0.91,6.8,M,-47.6,M,,*77
$GNGSA,A,3,25,23,12,15,29,18,24,28,05,,,,1.58,0.91,1.29*18
$GNGSA,A,3,68,79,80,67,82,,,,,,,,1.58,0.91,1.29*11
$GPGSV,5,1,18,05,06,028,38,10,36,228,21,12,46,152,27,13,07,071,09*71
$GPGSV,5,2,18,15,42,085,28,18,21,330,40,23,70,283,20,24,19,146,13*7E
$GPGSV,5,3,18,25,76,203,30,26,01,318,14,28,12,257,37,29,31,016,29*70
$GPGSV,5,4,18,32,07,213,,36,52,277,,40,85,352,,41,58,082,*78
$GPGSV,5,5,18,49,32,274,,50,10,089,*78
$GLGSV,3,1,10,67,35,056,20,68,59,131,25,69,25,189,14,73,01,318,17*62
$GLGSV,3,2,10,78,08,160,,79,47,199,22,80,43,284,20,81,00,053,*65
$GLGSV,3,3,10,82,06,010,24,83,03,324,28*68
$GNGLL,0419.75536,S,05539.69989,E,075523.00,A,A*6F
$GNRMC,075526.00,A,0419.75524,S,05539.69992,E,0.032,,260525,,,A*7D
$GNVTG,,T,,M,0.032,N,0.060,K,A*3A
$GNGGA,075526.00,0419.75524,S,05539.69992,E,1,12,0.85,7.3,M,-47.6,M,,*74
$GNGSA,A,3,25,23,12,15,10,29,18,28,05,13,,,1.52,0.85,1.26*1D
$GNGSA,A,3,68,79,80,67,82,,,,,,,,1.52,0.85,1.26*11
$GPGSV,5,1,18,05,06,028,39,10,36,228,19,12,46,152,30,13,07,071,11*74
$GPGSV,5,2,18,15,42,085,28,18,21,330,39,23,70,283,19,24,19,146,*78
$GPGSV,5,3,18,25,76,203,30,26,01,318,16,28,12,257,37,29,32,017,29*70
$GPGSV,5,4,18,32,07,213,,36,52,277,,40,85,352,,41,58,082,*78
$GPGSV,5,5,18,49,32,274,,50,10,089,*78
$GLGSV,3,1,10,67,35,056,25,68,59,131,28,69,25,189,21,73,01,318,15*6E
$GLGSV,3,2,10,78,08,160,,79,47,199,19,80,43,284,20,81,00,053,*6D
$GLGSV,3,3,10,82,06,010,25,83,03,324,23*62
$GNGLL,0419.75524,S,05539.69992,E,075526.00,A,A*63
$GNRMC,075528.00,A,0419.75517,S,05539.69993,E,0.074,,260525,,,A*70
$GNVTG,,T,,M,0.074,N,0.137,K,A*3B
$GNGGA,075528.00,0419.75517,S,05539.69993,E,1,12,0.88,7.8,M,-47.6,M,,*7D
$GNGSA,A,3,25,23,12,15,29,18,28,05,,,,,1.56,0.88,1.29*18
$GNGSA,A,3,68,79,80,67,82,,,,,,,,1.56,0.88,1.29*17
$GPGSV,5,1,18,05,06,028,39,10,36,228,,12,46,152,31,13,07,071,09*74
$GPGSV,5,2,18,15,42,085,29,18,21,330,40,23,70,283,20,24,19,146,*7D
$GPGSV,5,3,18,25,76,203,31,26,01,318,16,28,12,257,38,29,32,017,31*77
$GPGSV,5,4,18,32,07,213,,36,52,277,,40,85,352,,41,58,082,*78
$GPGSV,5,5,18,49,32,274,,50,10,089,*78
$GLGSV,3,1,10,67,35,056,23,68,59,131,28,69,25,189,20,73,01,318,13*6F
$GLGSV,3,2,10,78,08,160,,79,47,199,16,80,43,284,20,81,00,053,*62
$GLGSV,3,3,10,82,06,010,23,83,03,324,26*61
$GNGLL,0419.75517,S,05539.69993,E,075528.00,A,A*6C
$GNRMC,075529.00,A,0419.75515,S,05539.69993,E,0.034,,260525,,,A*77
$GNVTG,,T,,M,0.034,N,0.063,K,A*3F
$GNGGA,075529.00,0419.75515,S,05539.69993,E,1,12,0.88,7.9,M,-47.6,M,,*7F
$GNGSA,A,3,25,23,12,15,29,18,28,05,,,,,1.56,0.88,1.29*18
$GNGSA,A,3,68,79,80,67,82,,,,,,,,1.56,0.88,1.29*17
$GPGSV,5,1,18,05,06,028,37,10,36,228,,12,46,152,31,13,07,071,08*7B
$GPGSV,5,2,18,15,42,085,29,18,21,330,37,23,70,283,21,24,19,146,*7C
$GPGSV,5,3,18,25,76,203,30,26,01,318,16,28,12,257,36,29,32,017,30*79
$GPGSV,5,4,18,32,07,212,,36,52,277,,40,85,352,,41,58,082,*79
$GPGSV,5,5,18,49,32,274,,50,10,089,*78
$GLGSV,3,1,10,67,35,056,21,68,59,131,28,69,25,189,20,73,01,318,13*6D
$GLGSV,3,2,10,78,08,160,,79,47,199,14,80,43,284,19,81,00,053,*6A
$GLGSV,3,3,10,82,06,010,22,83,03,324,27*61
$GNGLL,0419.75515,S,05539.69993,E,075529.00,A,A*6F
$GNRMC,075530.00,A,0419.75513,S,05539.69993,E,0.095,,260525,,,A*72
$GNVTG,,T,,M,0.095,N,0.176,K,A*31
$GNGGA,075530.00,0419.75513,S,05539.69993,E,1,12,0.88,8.0,M,-47.6,M,,*77
$GNGSA,A,3,25,23,12,15,29,18,28,05,,,,,1.56,0.88,1.29*18
$GNGSA,A,3,68,79,80,67,82,,,,,,,,1.56,0.88,1.29*17
$GPGSV,5,1,18,05,06,028,37,10,36,228,23,12,46,152,30,13,07,071,07*74
$GPGSV,5,2,18,15,42,085,29,18,21,330,39,23,70,283,21,24,19,146,*72
