$GNRMC,090229.00,A,0419.72695,S,05539.92357,E,0.077,,030625,,,A*72
$GNVTG,,T,,M,0.077,N,0.143,K,A*3B
$GNGGA,090229.00,0419.72695,S,05539.92357,E,1,12,0.52,7.5,M,-47.6,M,,*72
$GNGSA,A,3,29,10,32,23,25,26,28,18,15,24,12,16,1.04,0.52,0.90*1B
$GNGSA,A,3,69,68,82,73,83,79,81,80,,,,,1.04,0.52,0.90*1C
$GPGSV,5,1,18,10,46,295,33,12,07,148,38,15,15,041,30,16,09,308,34*7F
$GPGSV,5,2,18,18,17,012,35,23,35,351,36,24,12,104,39,25,33,167,38*7E
$GPGSV,5,3,18,26,27,284,35,28,17,213,32,29,56,079,28,31,06,237,*7C
$GPGSV,5,4,18,32,46,195,35,36,52,277,,40,85,353,31,41,58,082,30*76
$GPGSV,5,5,18,49,32,274,,50,10,089,36*7D
$GLGSV,3,1,09,68,43,026,28,69,82,194,30,70,15,206,17,73,17,271,28*6E
$GLGSV,3,2,09,79,09,162,30,80,30,213,20,81,07,103,34,82,18,058,31*62
$GLGSV,3,3,09,83,12,008,35*5A
$GNGLL,0419.72695,S,05539.92357,E,090229.00,A,A*69
$GNRMC,090230.00,A,0419.72695,S,05539.92358,E,0.018,,030625,,,A*7C
$GNVTG,,T,,M,0.018,N,0.033,K,A*34
$GNGGA,090230.00,0419.72695,S,05539.92358,E,1,12,0.54,7.6,M,-47.6,M,,*70
$GNGSA,A,3,29,10,32,23,25,26,28,18,15,24,12,16,1.05,0.54,0.90*1C
$GNGSA,A,3,69,68,82,73,83,79,81,80,,,,,1.05,0.54,0.90*1B
$GPGSV,5,1,18,10,46,295,39,12,07,148,43,15,15,041,35,16,09,308,40*7F
$GPGSV,5,2,18,18,17,012,39,23,35,351,40,24,12,104,44,25,33,167,44*72
$GPGSV,5,3,18,26,27,284,41,28,17,213,38,29,56,079,34,31,06,237,*78
$GPGSV,5,4,18,32,46,195,42,36,52,277,,40,85,353,35,41,58,082,35*77
$GPGSV,5,5,18,49,32,274,,50,10,089,40*7C
$GLGSV,3,1,09,68,43,026,32,69,82,194,34,70,15,206,18,73,17,271,36*61
$GLGSV,3,2,09,79,09,162,37,80,30,213,31,81,07,103,41,82,18,058,40*61
$GLGSV,3,3,09,83,12,008,42*5A
$GNGLL,0419.72695,S,05539.92358,E,090230.00,A,A*6E
$GNRMC,090231.00,A,0419.72695,S,05539.92362,E,0.014,,030625,,,A*78
$GNVTG,,T,,M,0.014,N,0.025,K,A*3F
$GNGGA,090231.00,0419.72695,S,05539.92362,E,1,12,0.52,7.9,M,-47.6,M,,*71
$GNGSA,A,3,29,10,32,23,25,26,28,18,15,24,12,16,1.04,0.52,0.90*1B
$GNGSA,A,3,69,68,82,73,83,79,81,80,,,,,1.04,0.52,0.90*1C
$GPGSV,5,1,18,10,46,295,39,12,07,148,43,15,15,041,37,16,09,308,40*7D
$GPGSV,5,2,18,18,17,012,39,23,35,351,42,24,12,104,44,25,33,167,44*70
$GPGSV,5,3,18,26,27,284,41,28,17,213,37,29,56,079,38,31,06,237,*7B
$GPGSV,5,4,18,32,46,195,40,36,52,277,,40,85,353,35,41,58,082,38*78
$GPGSV,5,5,18,49,32,274,,50,10,089,40*7C
$GLGSV,3,1,09,68,43,026,32,69,82,194,35,70,15,206,20,73,17,271,36*6B
$GLGSV,3,2,09,79,09,162,37,80,30,213,29,81,07,103,41,82,18,058,41*69
$GLGSV,3,3,09,83,12,008,43*5B
$GNGLL,0419.72695,S,05539.92362,E,090231.00,A,A*66
$GNRMC,090232.00,A,0419.72695,S,05539.92365,E,0.002,,030625,,,A*7B
$GNVTG,,T,,M,0.002,N,0.004,K,A*3B
$GNGGA,090232.00,0419.72695,S,05539.92365,E,1,12,0.52,8.1,M,-47.6,M,,*72
$GNGSA,A,3,29,10,32,23,25,26,28,18,15,24,12,16,1.04,0.52,0.90*1B
$GNGSA,A,3,69,68,82,73,83,79,81,80,,,,,1.04,0.52,0.90*1C
$GPGSV,5,1,18,10,46,295,39,12,07,148,43,15,15,041,37,16,09,308,40*7D
$GPGSV,5,2,18,18,17,012,40,23,35,351,41,24,12,104,42,25,33,167,42*7D
$GPGSV,5,3,18,26,27,284,39,28,17,213,36,29,56,079,37,31,06,237,*7A
$GPGSV,5,4,18,32,46,195,37,36,52,277,,40,85,353,35,41,58,082,37*77
$GPGSV,5,5,18,49,32,274,,50,10,089,39*72
$GLGSV,3,1,09,68,43,026,32,69,82,194,35,70,15,206,20,73,17,271,35*68
$GLGSV,3,2,09,79,09,162,37,80,30,213,27,81,07,103,39,82,18,058,43*6A
$GLGSV,3,3,09,83,12,008,43*5B
$GNGLL,0419.72695,S,05539.92365,E,090232.00,A,A*62
$GNRMC,090233.00,A,0419.72694,S,05539.92367,E,0.013,,030625,,,A*79
$GNVTG,,T,,M,0.013,N,0.025,K,A*38
$GNGGA,090233.00,0419.72694,S,05539.92367,E,1,12,0.52,8.2,M,-47.6,M,,*73
$GNGSA,A,3,29,10,32,23,25,26,28,18,15,24,12,16,1.04,0.52,0.90*1B
$GNGSA,A,3,69,68,82,73,83,79,81,80,,,,,1.04,0.52,0.90*1C
$GPGSV,5,1,18,10,46,295,39,12,07,148,43,15,15,041,37,16,09,308,40*7D
$GPGSV,5,2,18,18,17,012,39,23,35,351,40,24,12,104,42,25,33,167,43*73
$GPGSV,5,3,18,26,27,284,40,28,17,213,36,29,56,079,36,31,06,237,*75
$GPGSV,5,4,18,32,46,195,37,36,52,277,,40,85,353,35,41,58,082,37*77
$GPGSV,5,5,18,49,32,274,,50,10,089,39*72
$GLGSV,3,1,09,68,43,026,32,69,82,194,35,70,15,206,19,73,17,270,35*63
$GLGSV,3,2,09,79,09,162,37,80,30,213,26,81,07,103,41,82,18,058,42*65
$GLGSV,3,3,09,83,12,008,42*5A
$GNGLL,0419.72694,S,05539.92367,E,090233.00,A,A*60
$GNRMC,090234.00,A,0419.72694,S,05539.92368,E,0.013,,030625,,,A*71
$GNVTG,,T,,M,0.013,N,0.024,K,A*39
$GNGGA,090234.00,0419.72694,S,05539.92368,E,1,12,0.52,8.3,M,-47.6,M,,*7A
$GNGSA,A,3,29,10,32,23,25,26,28,18,15,24,12,16,1.04,0.52,0.90*1B
$GNGSA,A,3,69,68,82,73,83,79,81,80,,,,,1.04,0.52,0.90*1C
$GPGSV,5,1,18,10,46,295,39,12,07,148,43,15,15,041,37,16,09,308,40*7D
$GPGSV,5,2,18,18,17,012,40,23,35,351,41,24,12,104,42,25,33,167,43*7C
$GPGSV,5,3,18,26,27,284,40,28,17,213,36,29,56,079,36,31,06,237,*75
$GPGSV,5,4,18,32,46,195,37,36,52,277,,40,85,353,35,41,58,082,37*77
$GPGSV,5,5,18,49,32,274,,50,10,089,39*72
$GLGSV,3,1,09,68,43,026,31,69,82,194,34,70,15,206,18,73,17,270,34*61
$GLGSV,3,2,09,79,09,162,35,80,30,213,25,81,07,103,39,82,18,058,40*69
$GLGSV,3,3,09,83,12,008,41*59
$GNGLL,0419.72694,S,05539.92368,E,090234.00,A,A*68
$GNRMC,090235.00,A,0419.72692,S,05539.92370,E,0.018,,030625,,,A*74
$GNVTG,,T,,M,0.018,N,0.034,K,A*33
$GNGGA,090235.00,0419.72692,S,05539.92370,E,1,12,0.52,8.5,M,-47.6,M,,*72
$GNGSA,A,3,29,10,32,23,25,26,28,18,15,24,12,16,1.04,0.52,0.90*1B
$GNGSA,A,3,69,68,82,73,83,79,81,80,,,,,1.04,0.52,0.90*1C
$GPGSV,5,1,18,10,46,295,39,12,07,148,43,15,15,041,37,16,09,308,40*7D
$GPGSV,5,2,18,18,17,012,39,23,35,351,41,24,12,104,42,25,33,167,43*72
$GPGSV,5,3,18,26,27,284,40,28,17,213,36,29,56,079,36,31,06,237,*75
$GPGSV,5,4,18,32,46,195,37,36,52,277,,40,85,353,34,41,58,082,37*76
$GPGSV,5,5,18,49,32,274,,50,10,089,39*72
$GLGSV,3,1,09,68,43,026,31,69,82,194,34,70,15,206,18,73,17,270,34*61
$GLGSV,3,2,09,79,09,162,36,80,30,213,23,81,07,103,39,82,18,058,40*6C
$GLGSV,3,3,09,83,12,008,41*59
$GNGLL,0419.72692,S,05539.92370,E,090235.00,A,A*66
$GNRMC,090236.00,A,0419.72691,S,05539.92371,E,0.023,,030625,,,D*78
$GNVTG,,T,,M,0.023,N,0.042,K,D*3F
$GNGGA,090236.00,0419.72691,S,05539.92371,E,2,12,0.52,8.5,M,-47.6,M,,0000*70
$GNGSA,A,3,29,10,32,23,25,26,28,18,15,24,12,16,1.04,0.52,0.90*1B
$GNGSA,A,3,69,68,82,73,83,79,81,80,,,,,1.04,0.52,0.90*1C
$GPGSV,5,1,18,10,46,295,37,12,07,148,43,15,15,041,34,16,09,308,39*7E
$GPGSV,5,2,18,18,17,012,38,23,35,351,39,24,12,104,43,25,33,167,43*7D
$GPGSV,5,3,18,26,27,284,39,28,17,213,37,29,56,079,33,31,06,237,*7F
$GPGSV,5,4,18,32,46,195,40,36,52,277,,40,85,353,35,41,58,082,34*74
$GPGSV,5,5,18,49,32,274,,50,10,089,39*72
$GLGSV,3,1,09,68,43,026,32,69,82,194,34,70,15,206,18,73,17,270,34*62
$GLGSV,3,2,09,79,09,162,36,80,30,213,24,81,07,103,39,82,18,058,38*64
$GLGSV,3,3,09,83,12,008,40*58
$GNGLL,0419.72691,S,05539.92371,E,090236.00,A,D*62
$GNRMC,090237.00,A,0419.72691,S,05539.92371,E,0.012,,030625,,,D*7B
$GNVTG,,T,,M,0.012,N,0.023,K,D*3A
$GNGGA,090237.00,0419.72691,S,05539.92371,E,2,12,0.52,8.6,M,-47.6,M,,0000*72
$GNGSA,A,3,29,10,32,23,25,26,28,18,15,24,12,16,1.04,0.52,0.90*1B
$GNGSA,A,3,69,68,82,73,83,79,81,80,,,,,1.04,0.52,0.90*1C
$GPGSV,5,1,18,10,46,295,37,12,07,148,42,15,15,041,34,16,09,308,39*7F
$GPGSV,5,2,18,18,17,012,37,23,35,351,39,24,12,104,43,25,33,167,43*72
$GPGSV,5,3,18,26,27,284,40,28,17,213,38,29,56,079,32,31,06,237,*7F
$GPGSV,5,4,18,32,46,195,40,36,52,277,,40,85,353,34,41,58,082,34*75
$GPGSV,5,5,18,49,32,274,,50,10,089,38*73
$GLGSV,3,1,09,68,43,026,31,69,82,194,34,70,15,206,18,73,17,270,34*61
$GLGSV,3,2,09,79,09,162,36,80,30,213,26,81,07,103,41,82,18,058,37*66
$GLGSV,3,3,09,83,12,008,41*59
$GNGLL,0419.72691,S,05539.92371,E,090237.00,A,D*63
$GNRMC,090238.00,A,0419.72691,S,05539.92371,E,0.012,,030625,,,D*74
$GNVTG,,T,,M,0.012,N,0.023,K,D*3A
$GNGGA,090238.00,0419.72691,S,05539.92371,E,2,12,0.52,8.7,M,-47.6,M,,0000*7C
$GNGSA,A,3,29,10,32,23,25,26,28,18,15,24,12,16,1.04,0.52,0.90*1B
$GNGSA,A,3,69,68,82,73,83,79,81,80,,,,,1.04,0.52,0.90*1C
$GPGSV,5,1,18,10,46,295,36,12,07,148,42,15,15,041,34,16,09,308,39*7E
$GPGSV,5,2,18,18,17,012,37,23,35,351,39,24,12,104,43,25,33,167,43*72
$GPGSV,5,3,18,26,27,284,40,28,17,213,38,29,56,079,31,31,06,237,*7C
$GPGSV,5,4,18,32,46,195,41,36,52,277,,40,85,353,35,41,58,082,33*72
$GPGSV,5,5,18,49,32,274,,50,10,089,39*72
$GLGSV,3,1,09,68,43,026,34,69,82,194,36,70,15,206,18,73,17,270,36*64
$GLGSV,3,2,09,79,09,162,38,80,30,213,31,81,07,103,41,82,18,058,39*60
$GLGSV,3,3,09,83,12,008,42*5A
$GNGLL,0419.72691,S,05539.92371,E,090238.00,A,D*6C
$GNRMC,090239.00,A,0419.72691,S,05539.92371,E,0.009,,030625,,,D*7F
$GNVTG,,T,,M,0.009,N,0.018,K,D*38
$GNGGA,090239.00,0419.72691,S,05539.92371,E,2,12,0.52,8.8,M,-47.6,M,,0000*72
$GNGSA,A,3,29,10,32,23,25,26,28,18,15,24,12,16,1.04,0.52,0.90*1B
$GNGSA,A,3,69,68,82,73,83,79,81,80,,,,,1.04,0.52,0.90*1C
$GPGSV,5,1,18,10,46,295,37,12,07,148,41,15,15,041,34,16,09,308,39*7C
$GPGSV,5,2,18,18,17,012,37,23,35,351,39,24,12,104,43,25,33,167,43*72
$GPGSV,5,3,18,26,27,284,40,28,17,213,38,29,56,079,32,31,06,237,*7F
$GPGSV,5,4,18,32,46,195,40,36,52,277,,40,85,353,35,41,58,082,34*74
$GPGSV,5,5,18,49,32,274,,50,10,089,39*72
$GLGSV,3,1,09,68,42,026,33,69,82,194,35,70,15,206,18,73,17,270,36*61
$GLGSV,3,2,09,79,09,162,38,80,30,213,30,81,07,103,42,82,18,058,38*63
$GLGSV,3,3,09,83,12,008,41*59
$GNGLL,0419.72691,S,05539.92371,E,090239.00,A,D*6D
$GNRMC,090240.00,A,0419.72690,S,05539.92372,E,0.036,,030625,,,D*7F
$GNVTG,,T,,M,0.036,N,0.066,K,D*3D
$GNGGA,090240.00,0419.72690,S,05539.92372,E,2,12,0.52,8.9,M,-47.6,M,,0000*7F
$GNGSA,A,3,29,10,32,23,25,26,28,18,15,24,12,16,1.04,0.52,0.90*1B
$GNGSA,A,3,69,68,82,73,83,79,81,80,,,,,1.04,0.52,0.90*1C
$GPGSV,5,1,18,10,46,295,35,12,07,148,41,15,15,041,35,16,09,308,39*7F
$GPGSV,5,2,18,18,17,012,38,23,35,351,39,24,12,104,43,25,33,167,43*7D
$GPGSV,5,3,18,26,27,284,39,28,17,213,38,29,56,079,33,31,06,237,*70
$GPGSV,5,4,18,32,46,195,39,36,52,277,,40,85,353,35,41,58,082,35*7B
$GPGSV,5,5,18,49,32,274,,50,10,089,39*72
$GLGSV,3,1,09,68,42,026,32,69,82,194,35,70,15,206,18,73,17,270,34*62
$GLGSV,3,2,09,79,09,162,37,80,30,212,28,81,07,103,40,82,18,058,39*67
$GLGSV,3,3,09,83,12,008,41*59
$GNGLL,0419.72690,S,05539.92372,E,090240.00,A,D*61
$GNRMC,090241.00,A,0419.72690,S,05539.92373,E,0.005,,030625,,,D*7F
$GNVTG,,T,,M,0.005,N,0.010,K,D*3C
$GNGGA,090241.00,0419.72690,S,05539.92373,E,2,12,0.52,8.9,M,-47.6,M,,0000*7F
$GNGSA,A,3,29,10,32,23,25,26,28,18,15,24,12,16,1.04,0.52,0.90*1B
$GNGSA,A,3,69,68,82,73,83,79,81,80,,,,,1.04,0.52,0.90*1C
$GPGSV,5,1,18,10,46,295,38,12,07,148,41,15,15,041,36,16,09,308,38*70
$GPGSV,5,2,18,18,17,012,37,23,35,351,39,24,12,104,42,25,33,167,42*72
$GPGSV,5,3,18,26,27,284,38,28,17,213,35,29,56,079,34,31,06,237,*7B
$GPGSV,5,4,18,32,46,195,37,36,52,277,,40,85,353,34,41,58,082,35*74
$GPGSV,5,5,18,49,32,274,,50,10,089,37*7C
$GLGSV,3,1,09,68,42,026,32,69,82,194,33,70,15,206,18,73,17,270,33*63
$GLGSV,3,2,09,79,09,162,37,80,30,212,19,81,07,103,41,82,18,058,41*6B
$GLGSV,3,3,09,83,12,008,42*5A
$GNGLL,0419.72690,S,05539.92373,E,090241.00,A,D*61
$GNRMC,090242.00,A,0419.72689,S,05539.92375,E,0.008,,030625,,,D*7F
$GNVTG,,T,,M,0.008,N,0.015,K,D*34
$GNGGA,090242.00,0419.72689,S,05539.92375,E,2,12,0.52,9.0,M,-47.6,M,,0000*7A
$GNGSA,A,3,29,10,32,23,25,26,28,18,15,24,12,16,1.04,0.52,0.90*1B
$GNGSA,A,3,69,68,82,73,83,79,81,80,,,,,1.04,0.52,0.90*1C
$GPGSV,5,1,18,10,46,295,42,12,07,148,44,15,15,041,39,16,09,308,43*7B
$GPGSV,5,2,18,18,17,012,42,23,35,351,43,24,12,104,46,25,33,167,45*7E
$GPGSV,5,3,18,26,27,284,42,28,17,213,38,29,56,079,39,31,06,237,*76
$GPGSV,5,4,18,32,46,195,41,36,52,277,,40,85,353,36,41,58,082,40*75
$GPGSV,5,5,18,49,32,274,,50,10,089,40*7C
$GLGSV,3,1,09,68,42,026,30,69,82,194,31,70,15,206,19,73,17,270,32*63
$GLGSV,3,2,09,79,09,162,35,80,30,212,20,81,07,103,38,82,19,058,38*62
$GLGSV,3,3,09,83,12,008,39*56
$GNGLL,0419.72689,S,05539.92375,E,090242.00,A,D*6C
$GNRMC,090243.00,A,0419.72689,S,05539.92376,E,0.014,,030625,,,D*70
$GNVTG,,T,,M,0.014,N,0.026,K,D*39
$GNGGA,090243.00,0419.72689,S,05539.92376,E,2,12,0.52,9.2,M,-47.6,M,,0000*7A
$GNGSA,A,3,29,10,32,23,25,26,28,18,15,24,12,16,1.04,0.52,0.90*1B
$GNGSA,A,3,69,68,82,73,83,79,81,80,,,,,1.04,0.52,0.90*1C
$GPGSV,5,1,18,10,46,295,41,12,07,148,44,15,15,041,40,16,09,308,43*76
$GPGSV,5,2,18,18,17,012,42,23,35,351,43,24,12,104,46,25,33,167,45*7E
$GPGSV,5,3,18,26,27,284,42,28,17,213,39,29,56,079,39,31,06,237,*77
$GPGSV,5,4,18,32,46,195,41,36,52,277,,40,85,353,37,41,58,082,40*74
$GPGSV,5,5,18,49,32,274,,50,10,089,41*7D
$GLGSV,3,1,09,68,42,026,29,69,82,194,31,70,15,206,18,73,17,270,33*6B
$GLGSV,3,2,09,79,09,162,36,80,30,212,20,81,07,103,39,82,19,058,39*61
$GLGSV,3,3,09,83,12,008,39*56
$GNGLL,0419.72689,S,05539.92376,E,090243.00,A,D*6E
$GNRMC,090244.00,A,0419.72688,S,05539.92377,E,0.020,,030625,,,D*70
$GNVTG,,T,,M,0.020,N,0.037,K,D*3E
$GNGGA,090244.00,0419.72688,S,05539.92377,E,2,12,0.52,9.2,M,-47.6,M,,0000*7D
$GNGSA,A,3,29,10,32,23,25,26,28,18,15,24,12,16,1.04,0.52,0.90*1B
$GNGSA,A,3,69,68,82,73,83,79,81,80,,,,,1.04,0.52,0.90*1C
$GPGSV,5,1,18,10,46,295,41,12,07,148,44,15,15,041,40,16,09,308,43*76
$GPGSV,5,2,18,18,17,012,41,23,35,351,43,24,12,104,46,25,33,167,46*7E
$GPGSV,5,3,18,26,27,284,42,28,17,213,39,29,56,079,39,31,06,237,*77
$GPGSV,5,4,18,32,46,195,41,36,52,277,,40,85,353,37,41,58,082,40*74
$GPGSV,5,5,18,49,32,274,,50,10,089,42*7E
$GLGSV,3,1,09,68,42,026,29,69,82,194,32,70,15,206,18,73,17,270,33*68
$GLGSV,3,2,09,79,09,162,36,80,30,212,20,81,07,103,39,82,19,058,39*61
$GLGSV,3,3,09,83,12,008,40*58
$GNGLL,0419.72688,S,05539.92377,E,090244.00,A,D*69
$GNRMC,090245.00,A,0419.72687,S,05539.92377,E,0.019,,030625,,,D*74
$GNVTG,,T,,M,0.019,N,0.036,K,D*35
$GNGGA,090245.00,0419.72687,S,05539.92377,E,2,12,0.52,9.2,M,-47.6,M,,0000*73
$GNGSA,A,3,29,10,32,23,25,26,28,18,15,24,12,16,1.04,0.52,0.90*1B
$GNGSA,A,3,69,68,82,73,83,79,81,80,,,,,1.04,0.52,0.90*1C
$GPGSV,5,1,18,10,46,295,40,12,07,148,43,15,15,041,39,16,09,308,42*7F
$GPGSV,5,2,18,18,17,012,41,23,35,351,43,24,12,104,45,25,33,167,45*7E
$GPGSV,5,3,18,26,27,284,42,28,17,213,38,29,56,079,38,31,06,237,*77
$GPGSV,5,4,18,32,46,195,40,36,52,277,,40,85,353,36,41,58,082,39*7A
$GPGSV,5,5,18,49,32,274,,50,10,089,41*7D
$GLGSV,3,1,09,68,42,026,30,69,82,194,32,70,15,206,17,73,17,270,33*6F
$GLGSV,3,2,09,79,09,162,36,80,30,212,20,81,07,103,39,82,19,058,39*61
$GLGSV,3,3,09,83,12,008,40*58
$GNGLL,0419.72687,S,05539.92377,E,090245.00,A,D*67
$GNRMC,090246.00,A,0419.72686,S,05539.92377,E,0.011,,030625,,,D*7E
$GNVTG,,T,,M,0.011,N,0.021,K,D*3B
$GNGGA,090246.00,0419.72686,S,05539.92377,E,2,12,0.52,9.2,M,-47.6,M,,0000*71
$GNGSA,A,3,29,10,32,23,25,26,28,18,15,24,12,16,1.04,0.52,0.90*1B
$GNGSA,A,3,69,68,82,73,83,79,81,80,,,,,1.04,0.52,0.90*1C
$GPGSV,5,1,18,10,46,295,40,12,07,148,43,15,15,041,40,16,09,308,42*71
$GPGSV,5,2,18,18,17,012,41,23,35,351,43,24,12,104,45,25,33,167,45*7E
$GPGSV,5,3,18,26,27,284,41,28,17,213,38,29,56,079,38,31,06,237,*74
$GPGSV,5,4,18,32,46,195,40,36,52,277,,40,85,353,36,41,58,082,39*7A
$GPGSV,5,5,18,49,32,274,,50,10,089,41*7D
$GLGSV,3,1,09,68,42,026,30,69,82,194,32,70,15,206,17,73,17,270,33*6F
$GLGSV,3,2,09,79,09,162,36,80,30,212,20,81,07,103,39,82,19,058,39*61
$GLGSV,3,3,09,83,12,008,40*58
$GNGLL,0419.72686,S,05539.92377,E,090246.00,A,D*65
$GNRMC,090247.00,A,0419.72686,S,05539.92378,E,0.007,,030625,,,D*77
$GNVTG,,T,,M,0.007,N,0.014,K,D*3A
$GNGGA,090247.00,0419.72686,S,05539.92378,E,2,12,0.52,9.2,M,-47.6,M,,0000*7F
$GNGSA,A,3,29,10,32,23,25,26,28,18,15,24,12,16,1.04,0.52,0.90*1B
$GNGSA,A,3,69,68,82,73,83,79,81,80,,,,,1.04,0.52,0.90*1C
$GPGSV,5,1,18,10,46,295,40,12,07,148,42,15,15,041,39,16,09,308,42*7E
$GPGSV,5,2,18,18,17,012,41,23,35,351,42,24,12,104,44,25,33,167,45*7E
$GPGSV,5,3,18,26,27,284,41,28,17,213,38,29,56,079,37,31,06,237,19*73
$GPGSV,5,4,18,32,46,195,40,36,52,277,,40,85,353,36,41,58,082,38*7B
$GPGSV,5,5,18,49,32,274,,50,10,089,40*7C
$GLGSV,3,1,09,68,42,026,30,69,82,194,33,70,15,206,17,73,17,270,33*6E
$GLGSV,3,2,09,79,09,162,36,80,30,212,19,81,07,103,39,82,19,058,39*6B
$GLGSV,3,3,09,83,12,008,40*58
$GNGLL,0419.72686,S,05539.92378,E,090247.00,A,D*6B
$GNRMC,090248.00,A,0419.72686,S,05539.92378,E,0.013,,030625,,,D*7D
$GNVTG,,T,,M,0.013,N,0.024,K,D*3C
$GNGGA,090248.00,0419.72686,S,05539.92378,E,2,12,0.52,9.2,M,-47.6,M,,0000*70
$GNGSA,A,3,29,10,32,23,25,26,28,18,15,24,12,16,1.04,0.52,0.90*1B
$GNGSA,A,3,69,68,82,73,83,79,81,80,,,,,1.04,0.52,0.90*1C
$GPGSV,5,1,18,10,46,295,40,12,07,148,42,15,15,041,39,16,09,308,42*7E
$GPGSV,5,2,18,18,17,012,41,23,35,351,42,24,12,104,45,25,33,167,45*7F
$GPGSV,5,3,18,26,27,284,41,28,17,213,38,29,56,079,37,31,06,237,16*7C
$GPGSV,5,4,18,32,46,195,40,36,52,277,,40,85,353,36,41,58,082,38*7B
$GPGSV,5,5,18,49,32,274,,50,10,089,40*7C
$GLGSV,3,1,09,68,42,026,30,69,82,194,32,70,15,206,16,73,17,270,33*6E
$GLGSV,3,2,09,79,09,162,36,80,30,212,19,81,07,103,39,82,19,058,39*6B
$GLGSV,3,3,09,83,12,008,40*58
$GNGLL,0419.72686,S,05539.92378,E,090248.00,A,D*64
$GNRMC,090249.00,A,0419.72685,S,05539.92378,E,0.006,,030625,,,D*7B
$GNVTG,,T,,M,0.006,N,0.010,K,D*3F
$GNGGA,090249.00,0419.72685,S,05539.92378,E,2,12,0.52,9.3,M,-47.6,M,,0000*73
$GNGSA,A,3,29,10,32,23,25,26,28,18,15,24,12,16,1.04,0.52,0.90*1B
$GNGSA,A,3,69,68,82,73,83,79,81,80,,,,,1.04,0.52,0.90*1C
$GPGSV,5,1,18,10,46,295,40,12,07,148,42,15,15,041,39,16,09,308,42*7E
$GPGSV,5,2,18,18,17,012,40,23,35,351,42,24,12,104,45,25,33,167,45*7E
$GPGSV,5,3,18,26,27,284,41,28,17,213,38,29,56,079,37,31,06,237,13*79
$GPGSV,5,4,18,32,46,195,40,36,52,277,,40,85,353,36,41,58,082,38*7B
$GPGSV,5,5,18,49,32,274,,50,10,089,40*7C
$GLGSV,3,1,09,68,42,026,30,69,82,194,32,70,15,206,18,73,17,270,33*60
$GLGSV,3,2,09,79,09,162,36,80,30,212,19,81,07,103,39,82,19,058,39*6B
$GLGSV,3,3,09,83,12,008,40*58
$GNGLL,0419.72685,S,05539.92378,E,090249.00,A,D*66
$GNRMC,090250.00,A,0419.72685,S,05539.92379,E,0.013,,030625,,,D*76
$GNVTG,,T,,M,0.013,N,0.023,K,D*3B
$GNGGA,090250.00,0419.72685,S,05539.92379,E,2,12,0.52,9.3,M,-47.6,M,,0000*7A
$GNGSA,A,3,29,10,32,23,25,26,28,18,15,24,12,16,1.04,0.52,0.90*1B
$GNGSA,A,3,69,68,82,73,83,79,81,80,,,,,1.04,0.52,0.90*1C
$GPGSV,5,1,18,10,46,295,40,12,07,148,42,15,15,041,38,16,09,308,42*7F
$GPGSV,5,2,18,18,17,012,40,23,35,351,42,24,12,104,45,25,33,167,45*7E
$GPGSV,5,3,18,26,27,284,41,28,17,213,38,29,56,079,37,31,06,237,12*78
$GPGSV,5,4,18,32,46,195,40,36,52,277,,40,85,353,36,41,58,082,38*7B
$GPGSV,5,5,18,49,32,274,,50,10,089,40*7C
$GLGSV,3,1,09,68,42,026,30,69,82,194,32,70,15,206,18,73,17,270,32*61
$GLGSV,3,2,09,79,09,162,36,80,30,212,19,81,07,103,39,82,19,058,39*6B
$GLGSV,3,3,09,83,12,008,40*58
$GNGLL,0419.72685,S,05539.92379,E,090250.00,A,D*6F
$GNRMC,090251.00,A,0419.72684,S,05539.92379,E,0.024,,030625,,,D*72
$GNVTG,,T,,M,0.024,N,0.044,K,D*3E
$GNGGA,090251.00,0419.72684,S,05539.92379,E,2,12,0.52,9.3,M,-47.6,M,,0000*7A
$GNGSA,A,3,29,10,32,23,25,26,28,18,15,24,12,16,1.04,0.52,0.90*1B
$GNGSA,A,3,69,68,82,73,83,79,81,80,,,,,1.04,0.52,0.90*1C
$GPGSV,5,1,18,10,46,295,40,12,07,148,42,15,15,041,38,16,09,308,41*7C
$GPGSV,5,2,18,18,17,012,39,23,35,351,41,24,12,104,44,25,33,167,44*73
$GPGSV,5,3,18,26,27,284,40,28,17,213,37,29,56,079,36,31,06,237,11*74
$GPGSV,5,4,18,32,46,195,39,36,52,277,,40,85,353,36,41,58,082,38*75
$GPGSV,5,5,18,49,32,274,,50,10,089,40*7C
$GLGSV,3,1,09,68,42,026,31,69,82,194,33,70,15,206,17,73,17,270,32*6E
$GLGSV,3,2,09,79,09,162,36,80,30,212,20,81,07,103,39,82,19,058,39*61
$GLGSV,3,3,09,83,12,008,40*58
$GNGLL,0419.72684,S,05539.92379,E,090251.00,A,D*6F
$GNRMC,090252.00,A,0419.72684,S,05539.92380,E,0.025,,030625,,,D*76
$GNVTG,,T,,M,0.025,N,0.047,K,D*3C
$GNGGA,090252.00,0419.72684,S,05539.92380,E,2,12,0.52,9.3,M,-47.6,M,,0000*7F
$GNGSA,A,3,29,10,32,23,25,26,28,18,15,24,12,16,1.04,0.52,0.90*1B
$GNGSA,A,3,69,68,82,73,83,79,81,80,,,,,1.04,0.52,0.90*1C
$GPGSV,5,1,18,10,46,295,40,12,07,148,42,15,15,041,38,16,09,308,41*7C
$GPGSV,5,2,18,18,17,012,40,23,35,351,41,24,12,104,44,25,33,167,44*7D
$GPGSV,5,3,18,26,27,284,40,28,17,213,37,29,56,079,36,31,06,237,14*71
$GPGSV,5,4,18,32,46,195,39,36,52,277,,40,85,353,35,41,58,082,37*79
$GPGSV,5,5,18,49,32,274,,50,10,089,40*7C
$GLGSV,3,1,09,68,42,026,30,69,82,194,32,70,15,206,16,73,17,270,32*6F
$GLGSV,3,2,09,79,09,162,36,80,30,212,19,81,07,103,39,82,19,058,39*6B
$GLGSV,3,3,09,83,12,008,40*58
$GNGLL,0419.72684,S,05539.92380,E,090252.00,A,D*6A
$GNRMC,090253.00,A,0419.72684,S,05539.92381,E,0.007,,030625,,,D*76
$GNVTG,,T,,M,0.007,N,0.013,K,D*3D
$GNGGA,090253.00,0419.72684,S,05539.92381,E,2,12,0.52,9.3,M,-47.6,M,,0000*7F
$GNGSA,A,3,29,10,32,23,25,26,28,18,15,24,12,16,1.04,0.52,0.90*1B
$GNGSA,A,3,69,68,82,73,83,79,81,80,,,,,1.04,0.52,0.90*1C
$GPGSV,5,1,18,10,46,295,40,12,07,148,42,15,15,041,37,16,09,308,41*73
$GPGSV,5,2,18,18,17,012,40,23,35,351,41,24,12,104,44,25,33,167,44*7D
$GPGSV,5,3,18,26,27,284,40,28,17,213,37,29,56,079,35,31,06,237,14*72
$GPGSV,5,4,18,32,46,195,39,36,52,277,,40,85,353,35,41,58,082,36*78
$GPGSV,5,5,18,49,32,274,,50,10,089,40*7C
$GLGSV,3,1,09,68,42,026,30,69,82,194,32,70,15,206,16,73,17,270,32*6F
$GLGSV,3,2,09,79,09,162,37,80,30,212,18,81,07,103,39,82,19,058,39*6B
$GLGSV,3,3,09,83,12,008,40*58
$GNGLL,0419.72684,S,05539.92381,E,090253.00,A,D*6A
$GNRMC,090254.00,A,0419.72683,S,05539.92381,E,0.010,,030625,,,D*70
$GNVTG,,T,,M,0.010,N,0.018,K,D*30
$GNGGA,090254.00,0419.72683,S,05539.92381,E,2,12,0.52,9.3,M,-47.6,M,,0000*7F
$GNGSA,A,3,29,10,32,23,25,26,28,18,15,24,12,16,1.04,0.52,0.90*1B
$GNGSA,A,3,69,68,82,73,83,79,81,80,,,,,1.04,0.52,0.90*1C
$GPGSV,5,1,18,10,46,295,40,12,07,148,42,15,15,041,38,16,09,308,41*7C
$GPGSV,5,2,18,18,17,012,39,23,35,351,41,24,12,104,44,25,33,167,44*73
$GPGSV,5,3,18,26,27,284,40,28,17,213,37,29,56,079,35,31,06,237,14*72
$GPGSV,5,4,18,32,46,195,39,36,52,277,,40,85,353,35,41,58,082,36*78
$GPGSV,5,5,18,49,32,274,,50,10,089,40*7C
$GLGSV,3,1,09,68,42,026,31,69,82,194,32,70,15,206,17,73,17,270,32*6F
$GLGSV,3,2,09,79,09,162,36,80,30,212,16,81,07,103,40,82,19,058,39*6A
$GLGSV,3,3,09,83,12,008,40*58
$GNGLL,0419.72683,S,05539.92381,E,090254.00,A,D*6A
$GNRMC,090255.00,A,0419.72682,S,05539.92382,E,0.018,,030625,,,D*7B
$GNVTG,,T,,M,0.018,N,0.033,K,D*31
$GNGGA,090255.00,0419.72682,S,05539.92382,E,2,12,0.52,9.3,M,-47.6,M,,0000*7C
$GNGSA,A,3,29,10,32,23,25,26,28,18,15,24,12,16,1.04,0.52,0.90*1B
$GNGSA,A,3,69,68,82,73,83,79,81,80,,,,,1.04,0.52,0.90*1C
$GPGSV,5,1,18,10,46,295,40,12,07,148,43,15,15,041,38,16,09,308,41*7D
$GPGSV,5,2,18,18,17,012,39,23,35,351,41,24,12,104,44,25,33,167,44*73
$GPGSV,5,3,18,26,27,284,40,28,17,213,37,29,56,079,34,31,06,237,*76
$GPGSV,5,4,18,32,46,195,38,36,52,277,,40,85,353,35,41,58,082,36*79
$GPGSV,5,5,18,49,32,274,,50,10,089,39*72
$GLGSV,3,1,09,68,42,026,31,69,82,194,31,70,15,206,16,73,17,270,32*6D
$GLGSV,3,2,09,79,09,162,36,80,30,212,14,81,07,103,40,82,19,058,39*68
$GLGSV,3,3,09,83,12,008,40*58
$GNGLL,0419.72682,S,05539.92382,E,090255.00,A,D*69
$GNRMC,090256.00,A,0419.72681,S,05539.92383,E,0.010,,030625,,,D*72
$GNVTG,,T,,M,0.010,N,0.019,K,D*31
$GNGGA,090256.00,0419.72681,S,05539.92383,E,2,12,0.54,9.4,M,-47.6,M,,0000*7C
$GNGSA,A,3,29,10,32,23,25,26,28,18,15,24,12,16,1.05,0.54,0.90*1C
$GNGSA,A,3,69,68,82,73,83,79,81,,,,,,1.05,0.54,0.90*13
$GPGSV,5,1,18,10,46,295,40,12,07,148,42,15,15,041,38,16,09,308,41*7C
$GPGSV,5,2,18,18,17,012,39,23,35,351,41,24,12,104,44,25,33,167,44*73
$GPGSV,5,3,18,26,27,284,40,28,17,213,37,29,56,079,36,31,06,237,*74
$GPGSV,5,4,18,32,46,195,39,36,52,277,,40,85,353,36,41,58,082,36*7B
$GPGSV,5,5,18,49,32,274,,50,10,089,40*7C
$GLGSV,3,1,09,68,42,026,32,69,82,194,31,70,15,206,16,73,17,270,32*6E
$GLGSV,3,2,09,79,09,162,36,80,30,212,13,81,07,103,39,82,19,058,38*60
$GLGSV,3,3,09,83,12,008,40*58
$GNGLL,0419.72681,S,05539.92383,E,090256.00,A,D*68
$GNRMC,090257.00,A,0419.72681,S,05539.92383,E,0.014,,030625,,,D*77
$GNVTG,,T,,M,0.014,N,0.026,K,D*39
$GNGGA,090257.00,0419.72681,S,05539.92383,E,2,12,0.54,9.4,M,-47.6,M,,0000*7D
$GNGSA,A,3,29,10,32,23,25,26,28,18,15,24,12,16,1.05,0.54,0.90*1C
$GNGSA,A,3,69,68,82,73,83,79,81,80,,,,,1.05,0.54,0.90*1B
$GPGSV,5,1,18,10,46,295,40,12,07,148,42,15,15,041,37,16,09,308,41*73
$GPGSV,5,2,18,18,17,012,39,23,35,351,41,24,12,104,44,25,33,167,44*73
$GPGSV,5,3,18,26,27,284,40,28,17,213,37,29,56,079,36,31,06,237,*74
$GPGSV,5,4,18,32,46,195,39,36,52,277,,40,85,353,35,41,58,082,37*79
$GPGSV,5,5,18,49,32,274,,50,10,089,40*7C
$GLGSV,3,1,09,68,42,026,31,69,82,194,32,70,15,206,16,73,17,270,33*6F
$GLGSV,3,2,09,79,09,162,36,80,30,212,17,81,07,103,39,82,19,058,38*64
$GLGSV,3,3,09,83,12,008,40*58
$GNGLL,0419.72681,S,05539.92383,E,090257.00,A,D*69
$GNRMC,090258.00,A,0419.72680,S,05539.92385,E,0.036,,030625,,,D*7F
$GNVTG,,T,,M,0.036,N,0.066,K,D*3D
$GNGGA,090258.00,0419.72680,S,05539.92385,E,2,12,0.52,9.5,M,-47.6,M,,0000*72
$GNGSA,A,3,29,10,32,23,25,26,28,18,15,24,12,16,1.04,0.52,0.90*1B
$GNGSA,A,3,69,68,82,73,83,79,81,80,,,,,1.04,0.52,0.90*1C
$GPGSV,5,1,18,10,46,295,40,12,07,148,42,15,15,041,38,16,09,308,41*7C
$GPGSV,5,2,18,18,17,012,39,23,35,351,41,24,12,104,44,25,33,167,44*73
$GPGSV,5,3,18,26,27,284,40,28,17,213,37,29,56,079,36,31,06,237,*74
$GPGSV,5,4,18,32,46,195,39,36,52,277,,40,85,353,35,41,58,082,37*79
$GPGSV,5,5,18,49,32,274,,50,10,089,40*7C
$GLGSV,3,1,09,68,42,026,31,69,82,194,33,70,15,206,18,73,17,270,33*60
$GLGSV,3,2,09,79,09,162,36,80,30,212,17,81,07,103,39,82,19,058,38*64
$GLGSV,3,3,09,83,12,008,40*58
$GNGLL,0419.72680,S,05539.92385,E,090258.00,A,D*61
$GNRMC,090259.00,A,0419.72679,S,05539.92385,E,0.012,,030625,,,D*7E
$GNVTG,,T,,M,0.012,N,0.022,K,D*3B
$GNGGA,090259.00,0419.72679,S,05539.92385,E,2,12,0.52,9.5,M,-47.6,M,,0000*75
$GNGSA,A,3,29,10,32,23,25,26,28,18,15,24,12,16,1.04,0.52,0.90*1B
$GNGSA,A,3,69,68,82,73,83,79,81,80,,,,,1.04,0.52,0.90*1C
$GPGSV,5,1,18,10,46,295,40,12,07,148,42,15,15,041,37,16,09,308,41*73
$GPGSV,5,2,18,18,17,012,39,23,35,351,41,24,12,104,44,25,33,167,44*73
$GPGSV,5,3,18,26,27,284,40,28,17,213,37,29,56,079,36,31,06,237,*74
$GPGSV,5,4,18,32,46,195,39,36,52,277,,40,85,353,36,41,58,082,37*7A
$GPGSV,5,5,18,49,32,274,,50,10,089,39*72
$GLGSV,3,1,09,68,42,026,31,69,82,194,32,70,15,206,19,73,17,270,33*60
$GLGSV,3,2,09,79,09,162,36,80,30,212,20,81,07,103,39,82,19,058,38*60
$GLGSV,3,3,09,83,12,008,40*58
$GNGLL,0419.72679,S,05539.92385,E,090259.00,A,D*66
$GNRMC,090300.00,A,0419.72679,S,05539.92386,E,0.010,,030625,,,D*72
$GNVTG,,T,,M,0.010,N,0.018,K,D*30
$GNGGA,090300.00,0419.72679,S,05539.92386,E,2,12,0.52,9.5,M,-47.6,M,,0000*7B
$GNGSA,A,3,29,10,32,23,25,26,28,18,15,24,12,16,1.04,0.52,0.90*1B
$GNGSA,A,3,69,68,82,73,83,79,81,80,,,,,1.04,0.52,0.90*1C
$GPGSV,5,1,18,10,46,295,40,12,06,148,42,15,15,041,37,16,09,308,41*72
$GPGSV,5,2,18,18,17,012,39,23,35,351,41,24,12,104,44,25,33,167,44*73
$GPGSV,5,3,18,26,27,284,40,28,17,213,37,29,56,079,36,31,06,237,*74
$GPGSV,5,4,18,32,46,195,39,36,52,277,,40,85,352,35,41,58,082,37*78
$GPGSV,5,5,18,49,32,274,,50,10,089,40*7C
$GLGSV,3,1,09,68,42,026,31,69,83,195,32,70,15,206,17,73,17,270,33*6E
$GLGSV,3,2,09,79,09,162,36,80,30,212,20,81,07,103,39,82,19,058,38*60
$GLGSV,3,3,09,83,12,008,40*58
$GNGLL,0419.72679,S,05539.92386,E,090300.00,A,D*68
$GNRMC,090301.00,A,0419.72679,S,05539.92386,E,0.011,,030625,,,D*72
$GNVTG,,T,,M,0.011,N,0.021,K,D*3B
$GNGGA,090301.00,0419.72679,S,05539.92386,E,2,12,0.52,9.6,M,-47.6,M,,0000*79
$GNGSA,A,3,29,10,32,23,25,26,28,18,15,24,12,16,1.04,0.52,0.90*1B
$GNGSA,A,3,69,68,82,73,83,79,81,80,,,,,1.04,0.52,0.90*1C
$GPGSV,5,1,18,10,46,295,39,12,06,148,42,15,15,041,37,16,09,308,41*7C
$GPGSV,5,2,18,18,17,012,39,23,35,351,41,24,12,104,44,25,33,167,44*73
$GPGSV,5,3,18,26,27,284,40,28,17,213,37,29,56,079,36,31,06,237,*74
$GPGSV,5,4,18,32,46,195,39,36,52,277,,40,85,352,36,41,58,082,37*7B
$GPGSV,5,5,18,49,32,274,,50,10,089,40*7C
$GLGSV,3,1,09,68,42,026,31,69,83,195,32,70,15,206,17,73,17,270,33*6E
$GLGSV,3,2,09,79,09,162,36,80,30,212,20,81,07,103,39,82,19,058,38*60
$GLGSV,3,3,09,83,12,008,40*58
$GNGLL,0419.72679,S,05539.92386,E,090301.00,A,D*69
$GNRMC,090302.00,A,0419.72678,S,05539.92387,E,0.013,,030625,,,D*73
$GNVTG,,T,,M,0.013,N,0.025,K,D*3D
$GNGGA,090302.00,0419.72678,S,05539.92387,E,2,12,0.52,9.6,M,-47.6,M,,0000*7A
$GNGSA,A,3,29,10,32,23,25,26,28,18,15,24,12,16,1.04,0.52,0.90*1B
$GNGSA,A,3,69,68,82,73,83,79,81,80,,,,,1.04,0.52,0.90*1C
$GPGSV,5,1,18,10,46,295,39,12,06,148,42,15,15,041,36,16,09,308,40*7C
$GPGSV,5,2,18,18,17,012,38,23,35,351,40,24,12,104,43,25,33,167,43*73
$GPGSV,5,3,18,26,27,284,40,28,17,213,37,29,56,079,35,31,06,237,*77
$GPGSV,5,4,18,32,46,195,38,36,52,277,,40,85,352,35,41,58,082,36*78
$GPGSV,5,5,18,49,32,274,,50,10,089,39*72
$GLGSV,3,1,09,68,42,026,31,69,83,195,33,70,15,206,18,73,17,270,33*60
$GLGSV,3,2,09,79,09,162,36,80,30,212,19,81,07,103,40,82,19,058,38*64
$GLGSV,3,3,09,83,12,008,40*58
$GNGLL,0419.72678,S,05539.92387,E,090302.00,A,D*6A
$GNRMC,090303.00,A,0419.72678,S,05539.92387,E,0.026,,030625,,,D*74
$GNVTG,,T,,M,0.026,N,0.047,K,D*3F
$GNGGA,090303.00,0419.72678,S,05539.92387,E,2,12,0.52,9.6,M,-47.6,M,,0000*7B
$GNGSA,A,3,29,10,32,23,25,26,28,18,15,24,12,16,1.04,0.52,0.90*1B
$GNGSA,A,3,69,68,82,73,83,79,81,80,,,,,1.04,0.52,0.90*1C
$GPGSV,5,1,18,10,46,295,39,12,06,148,42,15,14,041,36,16,09,308,40*7D
$GPGSV,5,2,18,18,17,012,38,23,35,351,40,24,12,104,43,25,33,167,43*73
$GPGSV,5,3,18,26,27,284,40,28,17,213,36,29,56,079,36,31,06,237,*75
$GPGSV,5,4,18,32,46,195,38,36,52,277,,40,85,352,35,41,58,082,37*79
$GPGSV,5,5,18,49,32,274,,50,10,089,38*73
$GLGSV,3,1,09,68,42,026,31,69,83,195,32,70,15,206,17,73,17,270,33*6E
$GLGSV,3,2,09,79,09,162,35,80,30,212,19,81,07,103,39,82,19,058,37*66
$GLGSV,3,3,09,83,12,008,39*56
$GNGLL,0419.72678,S,05539.92387,E,090303.00,A,D*6B
$GNRMC,090304.00,A,0419.72678,S,05539.92387,E,0.025,,030625,,,D*70
$GNVTG,,T,,M,0.025,N,0.047,K,D*3C
$GNGGA,090304.00,0419.72678,S,05539.92387,E,2,12,0.52,9.6,M,-47.6,M,,0000*7C
$GNGSA,A,3,29,10,32,23,25,26,28,18,15,24,12,16,1.04,0.52,0.90*1B
$GNGSA,A,3,69,68,82,73,83,79,81,80,,,,,1.04,0.52,0.90*1C
$GPGSV,5,1,18,10,46,295,39,12,06,148,42,15,14,041,36,16,09,308,40*7D
$GPGSV,5,2,18,18,17,012,38,23,35,351,40,24,12,104,43,25,33,167,43*73
$GPGSV,5,3,18,26,27,284,40,28,17,213,37,29,56,079,36,31,06,237,*74
$GPGSV,5,4,18,32,46,195,38,36,52,277,,40,85,352,35,41,58,082,36*78
$GPGSV,5,5,18,49,32,274,,50,10,089,39*72
$GLGSV,3,1,09,68,42,026,30,69,83,195,32,70,15,206,14,73,17,270,33*6C
$GLGSV,3,2,09,79,09,162,36,80,30,212,19,81,07,103,38,82,19,058,37*64
$GLGSV,3,3,09,83,12,008,39*56
$GNGLL,0419.72678,S,05539.92387,E,090304.00,A,D*6C
$GNRMC,090305.00,A,0419.72678,S,05539.92387,E,0.007,,030625,,,D*71
$GNVTG,,T,,M,0.007,N,0.013,K,D*3D
$GNGGA,090305.00,0419.72678,S,05539.92387,E,2,12,0.52,9.6,M,-47.6,M,,0000*7D
$GNGSA,A,3,29,10,32,23,25,26,28,18,15,24,12,16,1.04,0.52,0.90*1B
$GNGSA,A,3,69,68,82,73,83,79,81,80,,,,,1.04,0.52,0.90*1C
$GPGSV,5,1,18,10,46,295,39,12,06,148,42,15,14,041,36,16,09,308,40*7D
$GPGSV,5,2,18,18,17,012,38,23,35,351,40,24,12,104,43,25,33,167,43*73
$GPGSV,5,3,18,26,27,284,40,28,17,213,37,29,56,079,36,31,06,237,*74
$GPGSV,5,4,18,32,46,195,39,36,52,277,,40,85,352,35,41,58,082,36*79
$GPGSV,5,5,18,49,32,274,,50,10,089,39*72
$GLGSV,3,1,09,68,42,026,30,69,83,195,32,70,15,206,16,73,17,270,32*6F
$GLGSV,3,2,09,79,09,162,35,80,30,212,16,81,07,103,38,82,19,058,37*68
$GLGSV,3,3,09,83,12,008,39*56
$GNGLL,0419.72678,S,05539.92387,E,090305.00,A,D*6D
$GNRMC,090306.00,A,0419.72678,S,05539.92387,E,0.019,,030625,,,D*7D
$GNVTG,,T,,M,0.019,N,0.036,K,D*35
$GNGGA,090306.00,0419.72678,S,05539.92387,E,2,12,0.52,9.6,M,-47.6,M,,0000*7E
$GNGSA,A,3,29,10,32,23,25,26,28,18,15,24,12,16,1.04,0.52,0.90*1B
$GNGSA,A,3,69,68,82,73,83,79,81,80,,,,,1.04,0.52,0.90*1C
$GPGSV,5,1,18,10,46,295,39,12,06,148,42,15,14,041,37,16,09,308,40*7C
$GPGSV,5,2,18,18,17,012,39,23,35,351,40,24,12,104,43,25,33,167,43*72
$GPGSV,5,3,18,26,27,284,40,28,17,213,36,29,56,079,36,31,06,237,*75
$GPGSV,5,4,18,32,46,195,39,36,52,277,,40,85,352,35,41,58,082,37*78
$GPGSV,5,5,18,49,32,274,,50,10,089,39*72
$GLGSV,3,1,09,68,42,026,31,69,83,195,32,70,15,206,17,73,17,270,33*6E
$GLGSV,3,2,09,79,09,162,35,80,30,212,18,81,07,103,39,82,19,058,37*67
$GLGSV,3,3,09,83,12,008,39*56
$GNGLL,0419.72678,S,05539.92387,E,090306.00,A,D*6E
$GNRMC,090307.00,A,0419.72678,S,05539.92387,E,0.012,,030625,,,D*77
$GNVTG,,T,,M,0.012,N,0.023,K,D*3A
$GNGGA,090307.00,0419.72678,S,05539.92387,E,2,12,0.52,9.7,M,-47.6,M,,0000*7E
$GNGSA,A,3,29,10,32,23,25,26,28,18,15,24,12,16,1.04,0.52,0.90*1B
$GNGSA,A,3,69,68,82,73,83,79,81,80,,,,,1.04,0.52,0.90*1C
$GPGSV,5,1,18,10,46,295,39,12,06,148,42,15,14,041,37,16,09,308,40*7C
$GPGSV,5,2,18,18,17,012,39,23,35,351,40,24,12,104,43,25,33,167,43*72
$GPGSV,5,3,18,26,27,284,39,28,17,213,36,29,56,079,36,31,06,237,*7B
$GPGSV,5,4,18,32,46,195,38,36,52,277,,40,85,352,35,41,58,082,36*78
$GPGSV,5,5,18,49,32,274,,50,10,089,39*72
$GLGSV,3,1,09,68,42,026,31,69,83,195,32,70,15,206,18,73,17,270,33*61
$GLGSV,3,2,09,79,09,162,35,80,30,212,18,81,07,103,39,82,19,058,37*67
$GLGSV,3,3,09,83,12,008,39*56
$GNGLL,0419.72678,S,05539.92387,E,090307.00,A,D*6F
$GNRMC,090308.00,A,0419.72678,S,05539.92388,E,0.016,,030625,,,D*73
$GNVTG,,T,,M,0.016,N,0.030,K,D*3C
$GNGGA,090308.00,0419.72678,S,05539.92388,E,2,12,0.52,9.7,M,-47.6,M,,0000*7E
$GNGSA,A,3,29,10,32,23,25,26,28,18,15,24,12,16,1.04,0.52,0.90*1B
$GNGSA,A,3,69,68,82,73,83,79,81,80,,,,,1.04,0.52,0.90*1C
$GPGSV,5,1,18,10,46,295,39,12,06,148,42,15,14,041,36,16,09,308,40*7D
$GPGSV,5,2,18,18,17,012,38,23,35,351,40,24,12,104,43,25,33,167,43*73
$GPGSV,5,3,18,26,27,284,39,28,17,213,36,29,56,079,36,31,06,237,*7B
$GPGSV,5,4,18,32,46,195,39,36,52,277,,40,85,352,35,41,58,082,37*78
$GPGSV,5,5,18,49,32,274,,50,10,089,39*72
$GLGSV,3,1,09,68,42,026,31,69,83,195,32,70,15,206,18,73,17,270,33*61
$GLGSV,3,2,09,79,09,162,35,80,30,212,19,81,07,103,39,82,19,058,37*66
$GLGSV,3,3,09,83,12,008,39*56
$GNGLL,0419.72678,S,05539.92388,E,090308.00,A,D*6F
$GNRMC,090309.00,A,0419.72678,S,05539.92388,E,0.024,,030625,,,D*73
$GNVTG,,T,,M,0.024,N,0.045,K,D*3F
$GNGGA,090309.00,0419.72678,S,05539.92388,E,2,12,0.52,9.7,M,-47.6,M,,0000*7F
$GNGSA,A,3,29,10,32,23,25,26,28,18,15,24,12,16,1.04,0.52,0.90*1B
$GNGSA,A,3,69,68,82,73,83,79,81,80,,,,,1.04,0.52,0.90*1C
$GPGSV,5,1,18,10,46,295,39,12,06,148,42,15,14,041,37,16,09,308,40*7C
$GPGSV,5,2,18,18,17,012,38,23,35,351,40,24,12,104,43,25,33,167,43*73
$GPGSV,5,3,18,26,27,284,39,28,17,213,37,29,56,079,36,31,06,237,*7A
$GPGSV,5,4,18,32,46,195,39,36,52,277,,40,85,352,35,41,58,082,36*79
$GPGSV,5,5,18,49,32,274,,50,10,089,39*72
$GLGSV,3,1,09,68,42,026,31,69,83,195,32,70,15,206,18,73,17,270,33*61
$GLGSV,3,2,09,79,09,162,36,80,30,212,19,81,07,103,39,82,19,058,37*65
$GLGSV,3,3,09,83,12,008,39*56
$GNGLL,0419.72678,S,05539.92388,E,090309.00,A,D*6E
$GNRMC,090310.00,A,0419.72676,S,05539.92390,E,0.093,,030625,,,A*75
$GNVTG,,T,,M,0.093,N,0.172,K,A*33
$GNGGA,090310.00,0419.72676,S,05539.92390,E,1,12,0.52,9.7,M,-47.6,M,,*73
$GNGSA,A,3,29,10,32,23,25,26,28,18,15,24,12,16,1.04,0.52,0.90*1B
$GNGSA,A,3,69,68,82,73,83,79,81,80,,,,,1.04,0.52,0.90*1C
$GPGSV,5,1,18,10,46,295,39,12,06,148,42,15,14,041,36,16,09,308,40*7D
$GPGSV,5,2,18,18,17,012,38,23,35,352,40,24,12,104,43,25,33,167,43*70
$GPGSV,5,3,18,26,27,284,40,28,17,213,37,29,56,079,36,31,06,237,*74
$GPGSV,5,4,18,32,46,195,38,36,52,277,,40,85,352,35,41,58,082,36*78
$GPGSV,5,5,18,49,32,274,,50,10,089,39*72
$GLGSV,3,1,09,68,42,026,31,69,83,195,32,70,15,206,17,73,17,270,32*6F
$GLGSV,3,2,09,79,09,162,36,80,30,212,20,81,07,103,38,82,19,058,37*6E
$GLGSV,3,3,09,83,12,008,39*56
$GNGLL,0419.72676,S,05539.92390,E,090310.00,A,A*64
$GNRMC,090311.00,A,0419.72675,S,05539.92392,E,0.002,,030625,,,A*7D
$GNVTG,,T,,M,0.002,N,0.004,K,A*3B
$GNGGA,090311.00,0419.72675,S,05539.92392,E,1,12,0.52,9.8,M,-47.6,M,,*7C
$GNGSA,A,3,29,10,32,23,25,26,28,18,15,24,12,16,1.04,0.52,0.90*1B
$GNGSA,A,3,69,68,82,73,83,79,81,80,,,,,1.04,0.52,0.90*1C
$GPGSV,5,1,18,10,46,295,39,12,06,148,42,15,14,041,36,16,09,308,40*7D
$GPGSV,5,2,18,18,17,012,38,23,35,352,40,24,12,103,43,25,33,167,43*77
$GPGSV,5,3,18,26,27,284,39,28,17,213,36,29,56,079,36,31,06,237,*7B
$GPGSV,5,4,18,32,46,195,38,36,52,277,,40,85,352,35,41,58,082,36*78
$GPGSV,5,5,18,49,32,274,,50,10,089,39*72
$GLGSV,3,1,09,68,42,026,32,69,83,195,32,70,15,206,17,73,17,270,32*6C
$GLGSV,3,2,09,79,09,162,36,80,30,212,21,81,07,103,38,82,19,058,37*6F
$GLGSV,3,3,09,83,12,008,39*56
$GNGLL,0419.72675,S,05539.92392,E,090311.00,A,A*64
$GNRMC,090312.00,A,0419.72674,S,05539.92393,E,0.016,,030625,,,A*7B
$GNVTG,,T,,M,0.016,N,0.030,K,A*39
$GNGGA,090312.00,0419.72674,S,05539.92393,E,1,12,0.52,9.8,M,-47.6,M,,*7F
$GNGSA,A,3,29,10,32,23,25,26,28,18,15,24,12,16,1.04,0.52,0.90*1B
$GNGSA,A,3,69,68,82,73,83,79,81,80,,,,,1.04,0.52,0.90*1C
$GPGSV,5,1,18,10,46,295,39,12,06,148,42,15,14,041,37,16,09,308,40*7C
$GPGSV,5,2,18,18,17,012,38,23,35,352,40,24,12,103,43,25,33,167,43*77
$GPGSV,5,3,18,26,27,284,39,28,17,213,36,29,56,079,36,31,06,237,*7B
$GPGSV,5,4,18,32,46,195,38,36,52,277,,40,85,352,35,41,58,082,36*78
$GPGSV,5,5,18,49,32,274,,50,10,089,39*72
$GLGSV,3,1,09,68,42,026,31,69,83,195,32,70,15,206,18,73,17,270,32*60
$GLGSV,3,2,09,79,09,162,36,80,30,212,20,81,07,103,38,82,19,058,37*6E
$GLGSV,3,3,09,83,12,008,39*56
$GNGLL,0419.72674,S,05539.92393,E,090312.00,A,A*67
$GNRMC,090313.00,A,0419.72674,S,05539.92393,E,0.013,,030625,,,A*7F
$GNVTG,,T,,M,0.013,N,0.024,K,A*39
$GNGGA,090313.00,0419.72674,S,05539.92393,E,1,12,0.52,9.8,M,-47.6,M,,*7E
$GNGSA,A,3,29,10,32,23,25,26,28,18,15,24,12,16,1.04,0.52,0.90*1B
$GNGSA,A,3,69,68,82,73,83,79,81,80,,,,,1.04,0.52,0.90*1C
$GPGSV,5,1,18,10,46,295,39,12,06,148,42,15,14,041,36,16,09,308,40*7D
$GPGSV,5,2,18,18,17,012,38,23,35,352,40,24,12,103,43,25,33,167,43*77
$GPGSV,5,3,18,26,27,284,39,28,17,213,36,29,56,079,35,31,06,237,*78
$GPGSV,5,4,18,32,46,195,38,36,52,277,,40,85,352,35,41,58,082,36*78
$GPGSV,5,5,18,49,32,274,,50,10,089,39*72
$GLGSV,3,1,09,68,42,026,31,69,83,195,32,70,15,206,18,73,17,270,32*60
$GLGSV,3,2,09,79,09,162,36,80,30,212,20,81,07,103,38,82,19,058,37*6E
$GLGSV,3,3,09,83,12,008,39*56
$GNGLL,0419.72674,S,05539.92393,E,090313.00,A,A*66
$GNRMC,090314.00,A,0419.72673,S,05539.92394,E,0.028,,030625,,,A*70
$GNVTG,,T,,M,0.028,N,0.051,K,A*33
$GNGGA,090314.00,0419.72673,S,05539.92394,E,1,12,0.52,9.8,M,-47.6,M,,*79
$GNGSA,A,3,29,10,32,23,25,26,28,18,15,24,12,16,1.04,0.52,0.90*1B
$GNGSA,A,3,69,68,82,73,83,79,81,80,,,,,1.04,0.52,0.90*1C
$GPGSV,5,1,18,10,46,295,39,12,06,148,42,15,14,041,36,16,09,308,40*7D
$GPGSV,5,2,18,18,17,012,39,23,35,352,40,24,12,103,43,25,33,167,43*76
$GPGSV,5,3,18,26,27,284,39,28,17,213,36,29,56,079,35,31,06,237,*78
$GPGSV,5,4,18,32,46,195,38,36,52,277,,40,85,352,34,41,58,082,36*79
$GPGSV,5,5,18,49,32,274,,50,10,089,39*72
$GLGSV,3,1,09,68,42,026,31,69,83,195,32,70,15,206,19,73,17,270,32*61
$GLGSV,3,2,09,79,09,162,35,80,30,212,20,81,07,103,38,82,19,058,38*62
$GLGSV,3,3,09,83,12,008,40*58
$GNGLL,0419.72673,S,05539.92394,E,090314.00,A,A*61
$GNRMC,090315.00,A,0419.72672,S,05539.92394,E,0.019,,030625,,,A*72
$GNVTG,,T,,M,0.019,N,0.035,K,A*33
$GNGGA,090315.00,0419.72672,S,05539.92394,E,1,12,0.52,9.8,M,-47.6,M,,*79
$GNGSA,A,3,29,10,32,23,25,26,28,18,15,24,12,16,1.04,0.52,0.90*1B
$GNGSA,A,3,69,68,82,73,83,79,81,80,,,,,1.04,0.52,0.90*1C
$GPGSV,5,1,18,10,46,295,39,12,06,148,42,15,14,041,36,16,09,308,40*7D
$GPGSV,5,2,18,18,17,012,39,23,35,352,41,24,12,103,43,25,33,167,43*77
$GPGSV,5,3,18,26,27,284,39,28,17,213,36,29,56,079,35,31,06,237,*78
$GPGSV,5,4,18,32,46,195,38,36,52,277,,40,85,352,34,41,58,082,35*7A
$GPGSV,5,5,18,49,32,274,,50,10,089,38*73
$GLGSV,3,1,09,68,42,026,31,69,83,195,32,70,15,206,18,73,17,270,32*60
$GLGSV,3,2,09,79,09,162,35,80,30,212,19,81,07,103,37,82,19,058,38*67
$GLGSV,3,3,09,83,12,008,40*58
$GNGLL,0419.72672,S,05539.92394,E,090315.00,A,A*61
$GNRMC,090316.00,A,0419.72671,S,05539.92395,E,0.024,,030625,,,A*7D
$GNVTG,,T,,M,0.024,N,0.044,K,A*3B
$GNGGA,090316.00,0419.72671,S,05539.92395,E,1,12,0.52,9.8,M,-47.6,M,,*78
$GNGSA,A,3,29,10,32,23,25,26,28,18,15,24,12,16,1.04,0.52,0.90*1B
$GNGSA,A,3,69,68,82,73,83,79,81,80,,,,,1.04,0.52,0.90*1C
$GPGSV,5,1,18,10,46,295,39,12,06,148,42,15,14,041,36,16,09,308,40*7D
$GPGSV,5,2,18,18,17,012,39,23,35,352,41,24,12,103,43,25,33,167,43*77
$GPGSV,5,3,18,26,27,284,39,28,17,213,36,29,56,081,35,31,06,237,*7F
$GPGSV,5,4,18,32,46,195,38,36,52,277,,40,85,352,34,41,58,082,35*7A
$GPGSV,5,5,18,49,32,274,,50,10,089,38*73
$GLGSV,3,1,09,68,42,026,31,69,83,195,32,70,15,206,19,73,17,270,32*61
$GLGSV,3,2,09,79,09,162,35,80,30,212,19,81,07,103,37,82,19,058,38*67
$GLGSV,3,3,09,83,12,008,40*58
$GNGLL,0419.72671,S,05539.92395,E,090316.00,A,A*60
$GNRMC,090317.00,A,0419.72671,S,05539.92395,E,0.009,,030625,,,A*73
$GNVTG,,T,,M,0.009,N,0.017,K,A*32
$GNGGA,090317.00,0419.72671,S,05539.92395,E,1,12,0.52,9.8,M,-47.6,M,,*79
$GNGSA,A,3,29,10,32,23,25,26,28,18,15,24,12,16,1.04,0.52,0.90*1B
$GNGSA,A,3,69,68,82,73,83,79,81,80,,,,,1.04,0.52,0.90*1C
$GPGSV,5,1,18,10,46,295,40,12,06,148,43,15,14,041,36,16,09,308,40*72
$GPGSV,5,2,18,18,17,012,39,23,35,352,40,24,12,103,42,25,33,167,43*77
$GPGSV,5,3,18,26,27,284,39,28,17,213,36,29,56,081,34,31,06,237,*7E
$GPGSV,5,4,18,32,46,195,38,36,52,277,,40,85,352,34,41,58,082,35*7A
$GPGSV,5,5,18,49,32,274,,50,10,089,39*72
$GLGSV,3,1,09,68,42,026,31,69,83,195,32,70,15,206,19,73,17,270,32*61
$GLGSV,3,2,09,79,09,162,35,80,30,212,19,81,07,103,38,82,19,058,38*68
$GLGSV,3,3,09,83,12,008,40*58
$GNGLL,0419.72671,S,05539.92395,E,090317.00,A,A*61
$GNRMC,090318.00,A,0419.72670,S,05539.92397,E,0.014,,030625,,,A*73
$GNVTG,,T,,M,0.014,N,0.027,K,A*3D
$GNGGA,090318.00,0419.72670,S,05539.92397,E,1,12,0.52,9.9,M,-47.6,M,,*74
$GNGSA,A,3,29,10,32,23,25,26,28,18,15,24,12,16,1.04,0.52,0.90*1B
$GNGSA,A,3,69,68,82,73,83,79,81,80,,,,,1.04,0.52,0.90*1C
$GPGSV,5,1,18,10,46,295,40,12,06,148,43,15,14,041,36,16,09,308,40*72
$GPGSV,5,2,18,18,17,012,39,23,35,352,40,24,12,103,43,25,33,167,43*76
$GPGSV,5,3,18,26,27,284,40,28,17,213,36,29,56,081,35,31,06,236,*70
$GPGSV,5,4,18,32,46,195,38,36,52,277,,40,85,352,34,41,58,082,35*7A
$GPGSV,5,5,18,49,32,274,,50,10,089,39*72
$GLGSV,3,1,09,68,42,026,31,69,83,195,32,70,15,206,18,73,17,270,32*60
$GLGSV,3,2,09,79,09,162,35,80,30,212,18,81,07,103,38,82,19,058,38*69
$GLGSV,3,3,09,83,12,008,40*58
$GNGLL,0419.72670,S,05539.92397,E,090318.00,A,A*6D
$GNRMC,090319.00,A,0419.72669,S,05539.92397,E,0.005,,030625,,,A*7A
$GNVTG,,T,,M,0.005,N,0.009,K,A*31
$GNGGA,090319.00,0419.72669,S,05539.92397,E,1,12,0.52,9.9,M,-47.6,M,,*7D
$GNGSA,A,3,29,10,32,23,25,26,28,18,15,24,12,16,1.04,0.52,0.90*1B
$GNGSA,A,3,69,68,82,73,83,79,81,80,,,,,1.04,0.52,0.90*1C
$GPGSV,5,1,18,10,46,295,40,12,06,148,42,15,14,041,36,16,09,308,40*73
$GPGSV,5,2,18,18,17,012,39,23,35,352,40,24,12,103,43,25,33,167,43*76
$GPGSV,5,3,18,26,27,284,39,28,17,213,36,29,56,081,34,31,06,236,*7F
$GPGSV,5,4,18,32,46,195,38,36,52,277,,40,85,352,34,41,58,082,35*7A
$GPGSV,5,5,18,49,32,274,,50,10,089,38*73
$GLGSV,3,1,09,68,42,026,31,69,83,195,32,70,15,206,18,73,17,270,32*60
$GLGSV,3,2,09,79,09,162,35,80,30,212,16,81,07,103,38,82,19,058,38*67
$GLGSV,3,3,09,83,12,008,40*58
$GNGLL,0419.72669,S,05539.92397,E,090319.00,A,A*64
$GNRMC,090320.00,A,0419.72669,S,05539.92398,E,0.024,,030625,,,A*7C
$GNVTG,,T,,M,0.024,N,0.044,K,A*3B
$GNGGA,090320.00,0419.72669,S,05539.92398,E,1,12,0.52,9.9,M,-47.6,M,,*78
$GNGSA,A,3,29,10,32,23,25,26,28,18,15,24,12,16,1.04,0.52,0.90*1B
$GNGSA,A,3,69,68,82,73,83,79,81,80,,,,,1.04,0.52,0.90*1C
$GPGSV,5,1,18,10,46,295,40,12,06,148,42,15,14,041,37,16,09,308,40*72
$GPGSV,5,2,18,18,17,012,39,23,35,352,40,24,12,103,43,25,33,167,44*71
$GPGSV,5,3,18,26,27,284,39,28,17,213,35,29,56,081,34,31,06,236,*7C
$GPGSV,5,4,18,32,46,195,38,36,52,277,,40,85,352,34,41,58,082,35*7A
$GPGSV,5,5,18,49,32,274,,50,10,089,39*72
$GLGSV,3,1,09,68,42,026,32,69,83,195,32,70,15,206,19,73,17,270,32*62
$GLGSV,3,2,09,79,09,162,35,80,30,212,14,81,07,103,38,82,19,058,38*65
$GLGSV,3,3,09,83,12,008,40*58
$GNGLL,0419.72669,S,05539.92398,E,090320.00,A,A*61
$GNRMC,090321.00,A,0419.72669,S,05539.92399,E,0.012,,030625,,,A*79
$GNVTG,,T,,M,0.012,N,0.023,K,A*3F
$GNGGA,090321.00,0419.72669,S,05539.92399,E,1,12,0.52,9.9,M,-47.6,M,,*78
$GNGSA,A,3,29,10,32,23,25,26,28,18,15,24,12,16,1.04,0.52,0.90*1B
$GNGSA,A,3,69,68,82,73,83,79,81,80,,,,,1.04,0.52,0.90*1C
$GPGSV,5,1,18,10,46,295,39,12,06,148,42,15,14,041,36,16,09,308,40*7D
$GPGSV,5,2,18,18,17,012,38,23,35,352,40,24,12,103,43,25,33,167,43*77
$GPGSV,5,3,18,26,27,284,40,28,17,213,36,29,56,081,35,31,06,236,*70
$GPGSV,5,4,18,32,46,195,38,36,52,277,,40,85,352,35,41,58,082,36*78
$GPGSV,5,5,18,49,32,274,,50,10,089,39*72
$GLGSV,3,1,09,68,42,026,32,69,83,195,32,70,15,206,19,73,17,270,33*63
$GLGSV,3,2,09,79,09,162,35,80,30,212,16,81,07,103,38,82,19,058,38*67
$GLGSV,3,3,09,83,12,008,40*58
$GNGLL,0419.72669,S,05539.92399,E,090321.00,A,A*61
$GNRMC,090322.00,A,0419.72668,S,05539.92399,E,0.011,,030625,,,A*78
$GNVTG,,T,,M,0.011,N,0.021,K,A*3E
$GNGGA,090322.00,0419.72668,S,05539.92399,E,1,12,0.52,10.0,M,-47.6,M,,*4B
$GNGSA,A,3,29,10,32,23,25,26,28,18,15,24,12,16,1.04,0.52,0.90*1B
$GNGSA,A,3,69,68,82,73,83,79,81,80,,,,,1.04,0.52,0.90*1C
$GPGSV,5,1,18,10,46,295,39,12,06,148,42,15,14,041,36,16,09,308,40*7D
$GPGSV,5,2,18,18,17,012,39,23,35,352,40,24,12,103,43,25,33,167,43*76
$GPGSV,5,3,18,26,27,284,40,28,17,213,36,29,56,081,35,31,06,236,*70
$GPGSV,5,4,18,32,46,195,39,36,52,277,,40,85,352,35,41,58,082,36*79
$GPGSV,5,5,18,49,32,274,,50,10,089,39*72
$GLGSV,3,1,09,68,42,026,32,69,83,195,33,70,15,206,18,73,17,270,33*63
$GLGSV,3,2,09,79,09,162,34,80,30,212,21,81,07,103,39,82,19,058,38*63
$GLGSV,3,3,09,83,12,008,40*58
$GNGLL,0419.72668,S,05539.92399,E,090322.00,A,A*63
$GNRMC,090323.00,A,0419.72667,S,05539.92400,E,0.020,,030625,,,A*73
$GNVTG,,T,,M,0.020,N,0.037,K,A*3B
$GNGGA,090323.00,0419.72667,S,05539.92400,E,1,12,0.52,10.0,M,-47.6,M,,*42
$GNGSA,A,3,29,10,32,23,25,26,28,18,15,24,12,16,1.04,0.52,0.90*1B
$GNGSA,A,3,69,68,82,73,83,79,81,80,,,,,1.04,0.52,0.90*1C
$GPGSV,5,1,18,10,46,295,39,12,06,148,42,15,14,041,36,16,09,308,40*7D
$GPGSV,5,2,18,18,17,012,39,23,35,352,40,24,12,103,43,25,33,167,43*76
$GPGSV,5,3,18,26,27,284,40,28,17,213,36,29,56,081,35,31,06,236,*70
$GPGSV,5,4,18,32,46,195,39,36,52,277,,40,85,352,35,41,58,082,36*79
$GPGSV,5,5,18,49,32,274,,50,10,089,39*72
$GLGSV,3,1,09,68,42,026,31,69,83,195,33,70,15,206,17,73,17,270,33*6F
$GLGSV,3,2,09,79,09,162,35,80,30,212,23,81,07,103,39,82,19,058,37*6F
$GLGSV,3,3,09,83,12,008,40*58
$GNGLL,0419.72667,S,05539.92400,E,090323.00,A,A*6A
$GNRMC,090324.00,A,0419.72667,S,05539.92401,E,0.017,,030625,,,A*71
$GNVTG,,T,,M,0.017,N,0.031,K,A*39
$GNGGA,090324.00,0419.72667,S,05539.92401,E,1,12,0.52,10.1,M,-47.6,M,,*45
$GNGSA,A,3,29,10,32,23,25,26,28,18,15,24,12,16,1.04,0.52,0.90*1B
$GNGSA,A,3,69,68,82,73,83,79,81,80,,,,,1.04,0.52,0.90*1C
$GPGSV,5,1,18,10,46,295,39,12,06,148,42,15,14,041,36,16,09,308,40*7D
$GPGSV,5,2,18,18,17,012,39,23,35,352,40,24,12,103,43,25,33,167,43*76
$GPGSV,5,3,18,26,27,284,39,28,17,213,36,29,56,081,35,31,06,236,*7E
$GPGSV,5,4,18,32,46,195,38,36,52,277,,40,85,352,35,41,58,082,35*7B
$GPGSV,5,5,18,49,32,274,,50,10,089,39*72
$GLGSV,3,1,09,68,42,026,31,69,83,195,32,70,15,206,17,73,17,270,32*6F
$GLGSV,3,2,09,79,09,162,35,80,30,212,22,81,07,103,38,82,19,058,38*60
$GLGSV,3,3,09,83,12,008,40*58
$GNGLL,0419.72667,S,05539.92401,E,090324.00,A,A*6C
$GNRMC,090325.00,A,0419.72666,S,05539.92401,E,0.011,,030625,,,A*77
$GNVTG,,T,,M,0.011,N,0.020,K,A*3F
$GNGGA,090325.00,0419.72666,S,05539.92401,E,1,12,0.52,10.1,M,-47.6,M,,*45
$GNGSA,A,3,29,10,32,23,25,26,28,18,15,24,12,16,1.04,0.52,0.90*1B
$GNGSA,A,3,69,68,82,73,83,79,81,80,,,,,1.04,0.52,0.90*1C
$GPGSV,5,1,18,10,46,295,39,12,06,148,42,15,14,041,36,16,09,308,40*7D
$GPGSV,5,2,18,18,17,012,39,23,35,352,40,24,12,103,43,25,33,167,43*76
$GPGSV,5,3,18,26,27,284,39,28,17,213,36,29,56,081,35,31,06,236,*7E
$GPGSV,5,4,18,32,46,195,38,36,52,277,,40,85,352,34,41,58,082,35*7A
$GPGSV,5,5,18,49,32,274,,50,10,089,38*73
$GLGSV,3,1,09,68,42,026,31,69,83,195,32,70,15,206,16,73,17,270,33*6F
$GLGSV,3,2,09,79,09,162,36,80,30,212,20,81,07,103,38,82,19,058,38*61
$GLGSV,3,3,09,83,12,008,40*58
$GNGLL,0419.72666,S,05539.92401,E,090325.00,A,A*6C
$GNRMC,090326.00,A,0419.72666,S,05539.92402,E,0.010,,030625,,,A*76
$GNVTG,,T,,M,0.010,N,0.018,K,A*35
$GNGGA,090326.00,0419.72666,S,05539.92402,E,1,12,0.52,10.1,M,-47.6,M,,*45
$GNGSA,A,3,29,10,32,23,25,26,28,18,15,24,12,16,1.04,0.52,0.90*1B
$GNGSA,A,3,69,68,82,73,83,79,81,80,,,,,1.04,0.52,0.90*1C
$GPGSV,5,1,18,10,46,295,39,12,06,148,41,15,14,041,36,16,09,308,40*7E
$GPGSV,5,2,18,18,17,012,39,23,35,352,40,24,12,103,43,25,33,167,43*76
$GPGSV,5,3,18,26,27,284,39,28,17,213,36,29,56,081,35,31,06,236,*7E
$GPGSV,5,4,18,32,46,195,38,36,52,277,,40,85,352,33,41,58,082,36*7E
$GPGSV,5,5,18,49,32,274,,50,10,089,39*72
$GLGSV,3,1,09,68,42,026,31,69,83,195,32,70,15,206,17,73,17,270,33*6E
$GLGSV,3,2,09,79,09,162,36,80,30,212,18,81,07,103,38,82,19,058,38*6A
$GLGSV,3,3,09,83,12,008,40*58
$GNGLL,0419.72666,S,05539.92402,E,090326.00,A,A*6C
$GNRMC,090327.00,A,0419.72665,S,05539.92402,E,0.005,,030625,,,A*70
$GNVTG,,T,,M,0.005,N,0.010,K,A*39
$GNGGA,090327.00,0419.72665,S,05539.92402,E,1,12,0.52,10.1,M,-47.6,M,,*47
$GNGSA,A,3,29,10,32,23,25,26,28,18,15,24,12,16,1.04,0.52,0.90*1B
$GNGSA,A,3,69,68,82,73,83,79,81,80,,,,,1.04,0.52,0.90*1C
$GPGSV,5,1,18,10,46,295,39,12,06,148,41,15,14,041,37,16,09,308,40*7F
$GPGSV,5,2,18,18,17,012,39,23,35,352,40,24,12,103,43,25,33,167,43*76
$GPGSV,5,3,18,26,27,284,39,28,17,213,36,29,56,081,36,31,06,236,*7D
$GPGSV,5,4,18,32,46,195,38,36,52,277,,40,85,352,34,41,58,082,36*79
$GPGSV,5,5,18,49,32,274,,50,10,089,39*72
$GLGSV,3,1,09,68,42,026,31,69,83,195,32,70,15,206,17,73,17,270,32*6F
$GLGSV,3,2,09,79,09,162,36,80,30,212,18,81,07,103,38,82,19,058,38*6A
$GLGSV,3,3,09,83,12,008,40*58
$GNGLL,0419.72665,S,05539.92402,E,090327.00,A,A*6E
$GNRMC,090328.00,A,0419.72665,S,05539.92403,E,0.009,,030625,,,A*72
$GNVTG,,T,,M,0.009,N,0.016,K,A*33
$GNGGA,090328.00,0419.72665,S,05539.92403,E,1,12,0.52,10.2,M,-47.6,M,,*4A
$GNGSA,A,3,29,10,32,23,25,26,28,18,15,24,12,16,1.04,0.52,0.90*1B
$GNGSA,A,3,69,68,82,73,83,79,81,80,,,,,1.04,0.52,0.90*1C
$GPGSV,5,1,18,10,46,295,38,12,06,148,41,15,14,041,36,16,09,308,40*7F
$GPGSV,5,2,18,18,17,012,39,23,35,352,40,24,12,103,43,25,33,167,43*76
$GPGSV,5,3,18,26,27,284,39,28,17,213,36,29,56,081,35,31,06,236,*7E
$GPGSV,5,4,18,32,46,195,39,36,52,277,,40,85,352,35,41,58,082,36*79
$GPGSV,5,5,18,49,32,274,,50,10,089,39*72
$GLGSV,3,1,09,68,42,026,32,69,83,195,33,70,15,206,17,73,17,270,33*6C
$GLGSV,3,2,09,79,09,162,36,80,30,212,21,81,07,103,38,82,19,058,38*60
$GLGSV,3,3,09,83,12,008,40*58
$GNGLL,0419.72665,S,05539.92403,E,090328.00,A,A*60
$GNRMC,090329.00,A,0419.72664,S,05539.92404,E,0.027,,030625,,,A*79
$GNVTG,,T,,M,0.027,N,0.050,K,A*3D
$GNGGA,090329.00,0419.72664,S,05539.92404,E,1,12,0.52,10.2,M,-47.6,M,,*4D
$GNGSA,A,3,29,10,32,23,25,26,28,18,15,24,12,16,1.04,0.52,0.90*1B
$GNGSA,A,3,69,68,82,73,83,79,81,80,,,,,1.04,0.52,0.90*1C
$GPGSV,5,1,18,10,46,295,38,12,06,148,41,15,14,041,36,16,09,308,40*7F
$GPGSV,5,2,18,18,17,012,39,23,35,352,40,24,12,103,43,25,33,167,43*76
$GPGSV,5,3,18,26,27,284,40,28,17,213,37,29,56,081,36,31,06,236,*72
$GPGSV,5,4,18,32,46,195,39,36,52,277,,40,85,352,35,41,58,082,36*79
$GPGSV,5,5,18,49,32,274,,50,10,089,39*72
$GLGSV,3,1,09,68,42,026,31,69,83,195,33,70,15,206,16,73,17,270,33*6E
$GLGSV,3,2,09,79,09,162,36,80,30,212,23,81,07,103,38,82,19,058,37*6D
$GLGSV,3,3,09,83,12,008,40*58
$GNGLL,0419.72664,S,05539.92404,E,090329.00,A,A*67
$GNRMC,090330.00,A,0419.72663,S,05539.92404,E,0.005,,030625,,,A*76
$GNVTG,,T,,M,0.005,N,0.010,K,A*39
$GNGGA,090330.00,0419.72663,S,05539.92404,E,1,12,0.52,10.3,M,-47.6,M,,*43
$GNGSA,A,3,29,10,32,23,25,26,28,18,15,24,12,16,1.04,0.52,0.90*1B
$GNGSA,A,3,69,68,82,73,83,79,81,80,,,,,1.04,0.52,0.90*1C
$GPGSV,5,1,18,10,46,295,38,12,06,148,41,15,14,041,36,16,09,308,40*7F
$GPGSV,5,2,18,18,17,012,39,23,35,352,40,24,12,103,44,25,33,167,43*71
$GPGSV,5,3,18,26,27,284,40,28,17,213,37,29,56,081,35,31,06,236,*71
$GPGSV,5,4,18,32,46,195,39,36,52,277,,40,85,352,35,41,58,082,36*79
$GPGSV,5,5,18,49,32,274,,50,10,089,39*72
$GLGSV,3,1,09,68,42,026,31,69,83,195,33,70,15,206,18,73,17,270,33*60
$GLGSV,3,2,09,79,09,162,36,80,30,212,24,81,07,103,38,82,19,058,37*6A
$GLGSV,3,3,09,83,12,008,40*58
$GNGLL,0419.72663,S,05539.92404,E,090330.00,A,A*68
$GNRMC,090331.00,A,0419.72663,S,05539.92405,E,0.015,,030625,,,A*77
$GNVTG,,T,,M,0.015,N,0.027,K,A*3C
$GNGGA,090331.00,0419.72663,S,05539.92405,E,1,12,0.52,10.3,M,-47.6,M,,*43
$GNGSA,A,3,29,10,32,23,25,26,28,18,15,24,12,16,1.04,0.52,0.90*1B
$GNGSA,A,3,69,68,82,73,83,79,81,80,,,,,1.04,0.52,0.90*1C
$GPGSV,5,1,18,10,46,295,38,12,06,148,41,15,14,041,36,16,09,308,40*7F
$GPGSV,5,2,18,18,17,012,39,23,35,352,40,24,12,103,43,25,33,167,43*76
$GPGSV,5,3,18,26,27,284,40,28,17,213,37,29,56,081,35,31,06,236,*71
$GPGSV,5,4,18,32,46,195,39,36,52,277,,40,85,352,35,41,58,082,36*79
$GPGSV,5,5,18,49,32,274,,50,10,089,39*72
$GLGSV,3,1,09,68,42,026,31,69,83,195,33,70,15,206,18,73,17,270,33*60
$GLGSV,3,2,09,79,09,162,36,80,30,212,24,81,07,103,38,82,19,058,37*6A
$GLGSV,3,3,09,83,12,008,40*58
$GNGLL,0419.72663,S,05539.92405,E,090331.00,A,A*68
