$GNRMC,124854.00,A,0419.80175,S,05539.63909,E,0.137,,200525,,,A*70
$GNVTG,,T,,M,0.137,N,0.253,K,A*3C
$GNGGA,124854.00,0419.80175,S,05539.63909,E,1,12,0.67,6.4,M,-47.6,M,,*71
$GNGSA,A,3,32,18,10,28,26,16,27,31,08,,,,1.37,0.67,1.20*14
$GNGSA,A,3,85,72,71,75,86,65,87,,,,,,1.37,0.67,1.20*15
$GPGSV,4,1,16,08,14,313,22,10,14,011,29,16,24,231,35,18,32,097,25*7E
$GPGSV,4,2,16,23,01,049,,26,28,200,37,27,50,297,29,28,55,136,24*72
$GPGSV,4,3,16,29,05,147,,31,42,179,38,32,48,002,29,36,52,277,28*7B
$GPGSV,4,4,16,40,84,353,35,41,58,082,30,49,32,274,,50,10,089,*7C
$GLGSV,3,1,10,65,28,255,33,71,10,008,28,72,38,324,28,74,13,126,10*6C
$GLGSV,3,2,10,75,17,176,14,76,00,228,36,84,06,147,,85,49,118,25*6F
$GLGSV,3,3,10,86,49,014,28,87,11,346,25*61
$GNGLL,0419.80175,S,05539.63909,E,124854.00,A,A*6C
$GNRMC,124855.00,A,0419.80177,S,05539.63902,E,0.004,,200525,,,A*79
$GNVTG,,T,,M,0.004,N,0.008,K,A*31
$GNGGA,124855.00,0419.80177,S,05539.63902,E,1,12,0.67,6.5,M,-47.6,M,,*78
$GNGSA,A,3,32,18,10,28,26,16,27,31,08,,,,1.37,0.67,1.20*14
$GNGSA,A,3,85,72,71,75,86,65,87,,,,,,1.37,0.67,1.20*15
$GPGSV,4,1,16,08,14,313,30,10,14,011,30,16,24,231,38,18,32,097,25*78
$GPGSV,4,2,16,23,01,049,,26,28,200,38,27,50,297,36,28,55,136,31*77
$GPGSV,4,3,16,29,05,147,,31,42,179,39,32,48,002,31,36,52,277,29*72
$GPGSV,4,4,16,40,84,353,38,41,58,082,33,49,32,274,,50,10,089,*72
$GLGSV,3,1,10,65,28,255,34,71,10,008,27,72,38,324,33,74,13,126,08*67
$GLGSV,3,2,10,75,17,176,12,76,00,228,40,84,06,147,,85,49,118,32*6E
$GLGSV,3,3,10,86,49,014,30,87,11,346,26*6B
$GNGLL,0419.80177,S,05539.63902,E,124855.00,A,A*64
$GNRMC,124856.00,A,0419.80181,S,05539.63894,E,0.046,,200525,,,A*7B
$GNVTG,,T,,M,0.046,N,0.086,K,A*31
$GNGGA,124856.00,0419.80181,S,05539.63894,E,1,12,0.71,6.6,M,-47.6,M,,*78
$GNGSA,A,3,32,18,10,28,26,16,27,31,08,,,,1.52,0.71,1.34*15
$GNGSA,A,3,85,72,71,75,86,65,87,,,,,,1.52,0.71,1.34*14
$GPGSV,4,1,16,08,14,313,39,10,14,011,31,16,24,231,41,18,32,097,26*7D
$GPGSV,4,2,16,23,01,049,,26,28,200,41,27,50,297,38,28,55,136,34*72
$GPGSV,4,3,16,29,05,147,,31,42,179,42,32,48,002,37,36,52,277,34*74
$GPGSV,4,4,16,40,84,353,41,41,58,082,36,49,32,274,,50,10,089,*79
$GLGSV,3,1,10,65,28,255,36,71,10,008,25,72,38,324,33,74,13,126,09*66
$GLGSV,3,2,10,75,17,176,11,76,00,228,42,84,06,147,,85,49,118,31*6C
$GLGSV,3,3,10,86,49,014,35,87,11,346,27*6F
$GNGLL,0419.80181,S,05539.63894,E,124856.00,A,A*60
$GNRMC,124857.00,A,0419.80182,S,05539.63894,E,0.019,,200525,,,A*73
$GNVTG,,T,,M,0.019,N,0.035,K,A*33
$GNGGA,124857.00,0419.80182,S,05539.63894,E,1,12,0.67,6.3,M,-47.6,M,,*78
$GNGSA,A,3,32,18,10,28,26,16,27,31,08,,,,1.37,0.67,1.20*14
$GNGSA,A,3,85,72,71,75,86,65,87,,,,,,1.37,0.67,1.20*15
$GPGSV,4,1,16,08,14,313,36,10,14,011,34,16,24,231,41,18,32,097,27*76
$GPGSV,4,2,16,23,01,049,,26,28,200,41,27,50,297,38,28,55,136,35*73
$GPGSV,4,3,16,29,05,147,,31,42,179,42,32,48,002,37,36,52,277,33*73
$GPGSV,4,4,16,40,84,353,41,41,58,082,35,49,32,274,,50,10,089,*7A
$GLGSV,3,1,10,65,28,255,36,71,10,008,23,72,38,324,33,74,13,126,09*60
$GLGSV,3,2,10,75,17,176,14,76,00,228,42,84,06,147,,85,49,118,32*6A
$GLGSV,3,3,10,86,49,014,34,87,11,346,33*6B
$GNGLL,0419.80182,S,05539.63894,E,124857.00,A,A*62
$GNRMC,124858.00,A,0419.80181,S,05539.63892,E,0.027,,200525,,,A*74
$GNVTG,,T,,M,0.027,N,0.051,K,A*3C
$GNGGA,124858.00,0419.80181,S,05539.63892,E,1,12,0.67,6.2,M,-47.6,M,,*73
$GNGSA,A,3,32,18,10,28,26,16,27,31,08,,,,1.37,0.67,1.20*14
$GNGSA,A,3,85,72,71,75,86,65,87,,,,,,1.37,0.67,1.20*15
$GPGSV,4,1,16,08,14,313,33,10,14,011,27,16,24,231,40,18,32,097,27*70
$GPGSV,4,2,16,23,01,049,,26,28,200,41,27,50,297,35,28,55,136,34*7F
$GPGSV,4,3,16,29,05,147,,31,42,179,42,32,48,002,35,36,52,277,33*71
$GPGSV,4,4,16,40,84,353,40,41,58,082,35,49,32,274,,50,10,089,*7B
$GLGSV,3,1,10,65,28,255,36,71,10,008,26,72,38,324,32,74,13,126,10*6C
$GLGSV,3,2,10,75,17,176,12,76,00,228,43,84,06,147,,85,49,118,31*6E
$GLGSV,3,3,10,86,49,014,35,87,11,346,32*6B
$GNGLL,0419.80181,S,05539.63892,E,124858.00,A,A*68
$GNRMC,124859.00,A,0419.80181,S,05539.63887,E,0.071,,200525,,,A*72
$GNVTG,,T,,M,0.071,N,0.132,K,A*3B
$GNGGA,124859.00,0419.80181,S,05539.63887,E,1,12,0.67,6.3,M,-47.6,M,,*77
$GNGSA,A,3,32,18,10,28,26,16,27,31,08,,,,1.37,0.67,1.20*14
$GNGSA,A,3,85,72,71,75,86,65,87,,,,,,1.37,0.67,1.20*15
$GPGSV,4,1,16,08,14,313,33,10,14,011,25,16,24,231,39,18,32,097,26*7D
$GPGSV,4,2,16,23,01,049,,26,28,200,41,27,50,297,35,28,55,136,31*7A
$GPGSV,4,3,16,29,05,147,,31,42,179,41,32,48,002,34,36,52,277,35*75
$GPGSV,4,4,16,40,84,353,40,41,58,082,32,49,32,274,,50,10,089,*7C
$GLGSV,3,1,10,65,28,255,36,71,10,008,32,72,38,324,31,74,13,126,07*6C
$GLGSV,3,2,10,75,17,176,13,76,00,228,43,84,06,147,,85,49,118,26*69
$GLGSV,3,3,10,86,49,014,34,87,11,346,28*61
$GNGLL,0419.80181,S,05539.63887,E,124859.00,A,A*6D
$GNRMC,124900.00,A,0419.80181,S,05539.63882,E,0.018,,200525,,,A*75
$GNVTG,,T,,M,0.018,N,0.034,K,A*33
$GNGGA,124900.00,0419.80181,S,05539.63882,E,1,12,0.67,6.2,M,-47.6,M,,*7E
$GNGSA,A,3,32,18,10,28,26,16,27,31,08,,,,1.37,0.67,1.20*14
$GNGSA,A,3,85,72,71,75,86,65,87,,,,,,1.37,0.67,1.20*15
$GPGSV,4,1,16,08,15,312,36,10,14,011,30,16,24,231,39,18,32,097,26*7C
$GPGSV,4,2,16,23,01,049,,26,28,200,40,27,50,297,35,28,55,136,31*7B
$GPGSV,4,3,16,29,05,147,,31,42,179,41,32,48,002,35,36,52,277,34*75
$GPGSV,4,4,16,40,84,353,40,41,58,082,33,49,32,274,,50,10,089,*7D
$GLGSV,3,1,10,65,28,255,37,71,10,008,31,72,38,324,31,74,13,126,08*61
$GLGSV,3,2,10,75,17,176,17,76,00,228,43,84,06,147,,85,49,118,27*6C
$GLGSV,3,3,10,86,49,014,35,87,11,346,32*6B
$GNGLL,0419.80181,S,05539.63882,E,124900.00,A,A*65
$GNRMC,124901.00,A,0419.80180,S,05539.63880,E,0.094,,200525,,,A*73
$GNVTG,,T,,M,0.094,N,0.174,K,A*32
$GNGGA,124901.00,0419.80180,S,05539.63880,E,1,12,0.67,6.3,M,-47.6,M,,*7D
$GNGSA,A,3,32,18,10,28,26,16,27,31,08,,,,1.37,0.67,1.20*14
$GNGSA,A,3,85,72,71,75,86,65,87,,,,,,1.37,0.67,1.20*15
$GPGSV,4,1,16,08,15,312,27,10,14,011,23,16,24,231,36,18,32,097,23*74
$GPGSV,4,2,16,23,01,049,,26,28,200,35,27,50,297,32,28,55,136,27*79
$GPGSV,4,3,16,29,05,147,,31,42,179,35,32,48,002,33,36,52,277,31*75
$GPGSV,4,4,16,40,84,353,35,41,58,082,28,49,32,274,,50,10,089,*75
$GLGSV,3,1,10,65,28,255,31,71,10,008,23,72,38,324,25,74,13,126,07*6E
$GLGSV,3,2,10,75,17,176,14,76,00,228,36,84,06,147,,85,49,118,26*6C
$GLGSV,3,3,10,86,49,014,30,87,11,346,27*6A
$GNGLL,0419.80180,S,05539.63880,E,124901.00,A,A*67
$GNRMC,124902.00,A,0419.80179,S,05539.63876,E,0.020,,200525,,,A*70
$GNVTG,,T,,M,0.020,N,0.037,K,A*3B
$GNGGA,124902.00,0419.80179,S,05539.63876,E,1,12,0.67,6.4,M,-47.6,M,,*76
$GNGSA,A,3,32,18,10,28,26,16,27,31,08,,,,1.37,0.67,1.20*14
$GNGSA,A,3,85,72,71,75,86,65,87,,,,,,1.37,0.67,1.20*15
$GPGSV,4,1,16,08,15,312,28,10,14,012,20,16,24,231,37,18,32,097,23*7A
$GPGSV,4,2,16,23,01,049,,26,28,200,39,27,50,297,33,28,55,136,33*71
$GPGSV,4,3,16,29,05,147,,31,42,179,38,32,48,002,33,36,52,277,33*7A
$GPGSV,4,4,16,40,84,353,37,41,58,082,32,49,32,274,,50,10,089,*7C
$GLGSV,3,1,10,65,28,255,34,71,10,008,20,72,38,324,25,74,13,126,08*67
$GLGSV,3,2,10,75,17,176,13,76,00,228,39,84,06,147,,85,49,118,28*6A
$GLGSV,3,3,10,86,49,014,30,87,11,346,28*65
$GNGLL,0419.80179,S,05539.63876,E,124902.00,A,A*6B
$GNRMC,124903.00,A,0419.80176,S,05539.63877,E,0.061,,200525,,,A*7A
$GNVTG,,T,,M,0.061,N,0.113,K,A*39
$GNGGA,124903.00,0419.80176,S,05539.63877,E,1,12,0.67,6.3,M,-47.6,M,,*7E
$GNGSA,A,3,32,18,10,28,26,16,27,31,08,,,,1.37,0.67,1.20*14
$GNGSA,A,3,85,72,71,75,86,65,87,,,,,,1.37,0.67,1.20*15
$GPGSV,4,1,16,08,15,312,35,10,14,012,20,16,24,231,41,18,32,097,22*76
$GPGSV,4,2,16,23,01,049,,26,28,200,42,27,50,297,36,28,55,136,33*78
$GPGSV,4,3,16,29,05,147,,31,42,179,41,32,48,002,36,36,52,277,35*77
$GPGSV,4,4,16,40,84,353,40,41,58,082,34,49,32,274,,50,10,089,*7A
$GLGSV,3,1,10,65,28,255,31,71,10,008,18,72,38,324,26,74,13,126,07*65
$GLGSV,3,2,10,75,17,176,10,76,00,228,39,84,06,147,,85,49,118,26*67
$GLGSV,3,3,10,86,49,014,28,87,11,346,25*61
$GNGLL,0419.80176,S,05539.63877,E,124903.00,A,A*64
$GNRMC,124904.00,A,0419.80178,S,05539.63877,E,0.111,,200525,,,A*75
$GNVTG,,T,,M,0.111,N,0.205,K,A*3B
$GNGGA,124904.00,0419.80178,S,05539.63877,E,1,12,0.67,6.4,M,-47.6,M,,*70
$GNGSA,A,3,32,18,10,28,26,16,27,31,08,,,,1.37,0.67,1.20*14
$GNGSA,A,3,85,72,71,75,86,65,87,,,,,,1.37,0.67,1.20*15
$GPGSV,4,1,16,08,15,312,35,10,14,012,21,16,24,231,40,18,32,097,21*75
$GPGSV,4,2,16,23,01,049,,26,28,200,42,27,50,297,38,28,55,136,33*76
$GPGSV,4,3,16,29,05,147,,31,42,179,41,32,48,002,35,36,52,277,34*75
$GPGSV,4,4,16,40,84,353,40,41,58,082,34,49,32,274,,50,10,089,*7A
$GLGSV,3,1,10,65,28,255,33,71,10,008,19,72,38,324,27,74,13,126,09*69
$GLGSV,3,2,10,75,17,176,12,76,00,228,39,84,06,147,,85,49,118,26*65
$GLGSV,3,3,10,86,49,014,29,87,11,346,21*64
$GNGLL,0419.80178,S,05539.63877,E,124904.00,A,A*6D
$GNRMC,124905.00,A,0419.80179,S,05539.63874,E,0.066,,200525,,,A*77
$GNVTG,,T,,M,0.066,N,0.123,K,A*3D
$GNGGA,124905.00,0419.80179,S,05539.63874,E,1,12,0.69,6.5,M,-47.6,M,,*7C
$GNGSA,A,3,32,18,10,28,26,16,27,31,41,08,,,1.48,0.69,1.31*17
$GNGSA,A,3,85,72,71,75,86,65,87,,,,,,1.48,0.69,1.31*13
$GPGSV,4,1,16,08,15,312,26,10,14,012,31,16,24,231,36,18,32,097,21*77
$GPGSV,4,2,16,23,01,049,,26,28,200,38,27,50,297,33,28,55,136,30*73
$GPGSV,4,3,16,29,05,147,,31,42,179,38,32,48,002,30,36,52,277,29*72
$GPGSV,4,4,16,40,84,353,36,41,58,082,30,49,32,274,,50,10,089,*7F
$GLGSV,3,1,10,65,28,255,31,71,10,008,23,72,38,324,26,74,13,126,07*6D
$GLGSV,3,2,10,75,17,176,11,76,00,228,36,84,06,147,,85,49,118,26*69
$GLGSV,3,3,10,86,49,014,28,87,11,346,21*65
$GNGLL,0419.80179,S,05539.63874,E,124905.00,A,A*6E
$GNRMC,124906.00,A,0419.80176,S,05539.63878,E,0.154,,200525,,,A*77
$GNVTG,,T,,M,0.154,N,0.286,K,A*31
$GNGGA,124906.00,0419.80176,S,05539.63878,E,1,12,0.69,6.2,M,-47.6,M,,*7B
$GNGSA,A,3,32,18,10,28,26,16,27,31,41,08,,,1.48,0.69,1.31*17
$GNGSA,A,3,85,72,71,75,86,65,87,,,,,,1.48,0.69,1.31*13
$GPGSV,4,1,16,08,15,312,25,10,14,012,24,16,24,231,37,18,32,097,20*70
$GPGSV,4,2,16,23,01,049,,26,28,200,38,27,50,297,35,28,55,136,32*77
$GPGSV,4,3,16,29,05,147,,31,42,179,37,32,48,002,33,36,52,277,33*75
$GPGSV,4,4,16,40,84,353,37,41,58,082,32,49,32,274,,50,10,089,*7C
$GLGSV,3,1,10,65,28,255,36,71,10,008,25,72,38,324,32,74,13,126,10*6F
$GLGSV,3,2,10,75,17,176,14,76,00,228,41,84,06,147,,85,49,118,27*6D
$GLGSV,3,3,10,86,49,014,32,87,11,346,29*66
$GNGLL,0419.80176,S,05539.63878,E,124906.00,A,A*6E
$GNRMC,124907.00,A,0419.80175,S,05539.63873,E,0.036,,200525,,,A*7B
$GNVTG,,T,,M,0.036,N,0.066,K,A*38
$GNGGA,124907.00,0419.80175,S,05539.63873,E,1,12,0.67,6.5,M,-47.6,M,,*7B
$GNGSA,A,3,32,18,10,28,26,16,27,31,41,08,,,1.37,0.67,1.20*11
$GNGSA,A,3,85,72,71,75,86,65,87,,,,,,1.37,0.67,1.20*15
$GPGSV,4,1,16,08,15,312,28,10,14,012,31,16,24,231,39,18,32,097,20*77
$GPGSV,4,2,16,23,01,049,,26,28,200,40,27,50,297,36,28,55,136,33*7A
$GPGSV,4,3,16,29,05,147,,31,42,179,40,32,48,002,34,36,52,277,35*74
$GPGSV,4,4,16,40,84,353,39,41,58,082,32,49,32,274,,50,10,089,*72
$GLGSV,3,1,10,65,28,255,36,71,10,008,31,72,38,324,28,74,13,126,09*69
$GLGSV,3,2,10,75,17,176,17,76,00,227,43,84,06,147,,85,49,118,27*63
$GLGSV,3,3,10,86,49,014,33,87,11,346,32*6D
$GNGLL,0419.80175,S,05539.63873,E,124907.00,A,A*67
$GNRMC,124908.00,A,0419.80173,S,05539.63865,E,0.061,,200525,,,A*77
$GNVTG,,T,,M,0.061,N,0.113,K,A*39
$GNGGA,124908.00,0419.80173,S,05539.63865,E,1,12,0.65,6.5,M,-47.6,M,,*77
$GNGSA,A,3,32,18,10,28,26,16,27,31,41,08,,,1.32,0.65,1.15*10
$GNGSA,A,3,85,72,71,75,86,74,65,87,,,,,1.32,0.65,1.15*17
$GPGSV,4,1,16,08,15,312,28,10,14,012,24,16,24,230,41,18,32,097,22*7F
$GPGSV,4,2,16,23,01,049,,26,28,200,41,27,50,297,36,28,55,136,33*7B
$GPGSV,4,3,16,29,05,147,,31,42,179,41,32,48,002,36,36,52,277,35*77
$GPGSV,4,4,16,40,84,353,39,41,58,082,32,49,32,274,,50,10,089,*72
$GLGSV,3,1,10,65,28,255,38,71,10,008,31,72,38,324,34,74,13,126,07*64
$GLGSV,3,2,10,75,17,176,13,76,00,227,43,84,06,147,,85,49,118,28*68
$GLGSV,3,3,10,86,49,014,33,87,11,346,33*6C
$GNGLL,0419.80173,S,05539.63865,E,124908.00,A,A*69
$GNRMC,124909.00,A,0419.80171,S,05539.63861,E,0.118,,200525,,,A*7F
$GNVTG,,T,,M,0.118,N,0.219,K,A*3F
$GNGGA,124909.00,0419.80171,S,05539.63861,E,1,12,0.61,6.5,M,-47.6,M,,*74
$GNGSA,A,3,32,18,10,28,26,16,27,31,41,08,,,1.25,0.61,1.09*1F
$GNGSA,A,3,85,72,71,75,86,74,65,87,,,,,1.25,0.61,1.09*18
$GPGSV,4,1,16,08,15,312,25,10,14,012,26,16,24,230,37,18,32,097,21*72
$GPGSV,4,2,16,23,01,049,,26,28,200,36,27,50,297,33,28,55,136,29*75
$GPGSV,4,3,16,29,05,147,,31,42,179,38,32,48,002,29,36,52,277,31*73
$GPGSV,4,4,16,40,84,353,37,41,58,082,31,49,32,274,,50,10,089,*7F
$GLGSV,3,1,10,65,28,255,32,71,10,008,30,72,38,324,28,74,13,126,09*6C
$GLGSV,3,2,10,75,17,176,14,76,00,227,36,84,06,147,,85,49,118,26*63
$GLGSV,3,3,10,86,49,014,27,87,11,346,26*6D
$GNGLL,0419.80171,S,05539.63861,E,124909.00,A,A*6E
$GNRMC,124910.00,A,0419.80171,S,05539.63861,E,0.036,,200525,,,A*7A
$GNVTG,,T,,M,0.036,N,0.067,K,A*39
$GNGGA,124910.00,0419.80171,S,05539.63861,E,1,12,0.60,6.4,M,-47.6,M,,*7C
$GNGSA,A,3,32,18,10,28,26,16,27,31,41,08,,,1.19,0.60,1.03*1B
$GNGSA,A,3,85,72,71,75,86,74,65,87,,,,,1.19,0.60,1.03*1C
$GPGSV,4,1,16,08,15,312,25,10,14,012,30,16,24,230,38,18,32,098,22*76
$GPGSV,4,2,16,23,01,049,,26,28,200,38,27,50,297,36,28,55,136,31*77
$GPGSV,4,3,16,29,05,147,,31,42,179,39,32,48,002,33,36,52,277,32*7A
$GPGSV,4,4,16,40,84,353,39,41,58,082,33,49,32,274,,50,10,089,*73
$GLGSV,3,1,10,65,28,255,34,71,10,008,21,72,38,324,27,74,13,126,10*6D
$GLGSV,3,2,10,75,17,176,17,76,00,227,40,84,06,147,,85,49,118,27*60
$GLGSV,3,3,10,86,49,014,31,87,11,346,27*6B
$GNGLL,0419.80171,S,05539.63861,E,124910.00,A,A*66
$GNRMC,124911.00,A,0419.80175,S,05539.63861,E,0.267,,200525,,,A*79
$GNVTG,,T,,M,0.267,N,0.495,K,A*36
$GNGGA,124911.00,0419.80175,S,05539.63861,E,1,12,0.65,6.3,M,-47.6,M,,*7B
$GNGSA,A,3,32,18,10,28,26,16,27,31,41,08,,,1.32,0.65,1.15*10
$GNGSA,A,3,85,72,71,75,86,74,65,87,,,,,1.32,0.65,1.15*17
$GPGSV,4,1,16,08,15,312,32,10,14,012,28,16,24,230,41,18,32,098,20*75
$GPGSV,4,2,16,23,01,049,,26,28,200,40,27,50,297,36,28,55,136,34*7D
$GPGSV,4,3,16,29,05,147,,31,42,179,42,32,48,002,37,36,52,277,33*73
$GPGSV,4,4,16,40,84,353,41,41,58,082,32,49,32,274,,50,10,089,*7D
$GLGSV,3,1,10,65,28,255,31,71,10,008,20,72,38,324,26,74,13,126,07*6E
$GLGSV,3,2,10,75,17,176,11,76,00,227,36,84,06,147,,85,49,118,26*66
$GLGSV,3,3,10,86,49,014,26,87,11,346,23*69
$GNGLL,0419.80175,S,05539.63861,E,124911.00,A,A*63
$GNRMC,124912.00,A,0419.80175,S,05539.63851,E,0.044,,200525,,,A*7A
$GNVTG,,T,,M,0.044,N,0.081,K,A*34
$GNGGA,124912.00,0419.80175,S,05539.63851,E,1,12,0.60,6.3,M,-47.6,M,,*7E
$GNGSA,A,3,32,18,10,28,26,16,27,31,41,08,,,1.19,0.60,1.03*1B
$GNGSA,A,3,85,72,71,75,86,74,65,87,,,,,1.19,0.60,1.03*1C
$GPGSV,4,1,16,08,15,312,32,10,14,012,28,16,24,230,39,18,32,098,20*7A
$GPGSV,4,2,16,23,01,049,,26,28,200,41,27,50,297,35,28,55,136,34*7F
$GPGSV,4,3,16,29,05,147,,31,42,179,41,32,48,002,34,36,52,277,33*73
$GPGSV,4,4,16,40,84,353,40,41,58,082,35,49,32,274,,50,10,089,*7B
$GLGSV,3,1,10,65,28,255,39,71,10,008,24,72,38,324,33,74,13,126,09*68
$GLGSV,3,2,10,75,17,176,18,76,00,227,42,84,06,147,,85,49,118,32*69
$GLGSV,3,3,10,86,49,014,31,87,11,346,31*6C
$GNGLL,0419.80175,S,05539.63851,E,124912.00,A,A*63
$GNRMC,124913.00,A,0419.80173,S,05539.63851,E,0.050,,200525,,,A*78
$GNVTG,,T,,M,0.050,N,0.093,K,A*32
$GNGGA,124913.00,0419.80173,S,05539.63851,E,1,12,0.60,6.3,M,-47.6,M,,*79
$GNGSA,A,3,32,18,10,28,26,16,27,31,41,08,,,1.19,0.60,1.03*1B
$GNGSA,A,3,85,72,71,75,86,74,65,87,,,,,1.19,0.60,1.03*1C
$GPGSV,4,1,16,08,15,312,32,10,14,012,28,16,24,230,37,18,32,098,21*75
$GPGSV,4,2,16,23,01,049,,26,28,200,39,27,50,297,34,28,55,136,31*74
$GPGSV,4,3,16,29,05,147,,31,42,179,37,32,48,002,34,36,52,277,31*70
$GPGSV,4,4,16,40,84,353,37,41,58,082,31,49,32,274,,50,10,089,*7F
$GLGSV,3,1,10,65,28,255,32,71,10,008,22,72,38,324,27,74,13,126,08*61
$GLGSV,3,2,10,75,17,176,10,76,00,227,36,84,06,147,,85,49,118,26*67
$GLGSV,3,3,10,86,49,014,26,87,11,346,29*63
$GNGLL,0419.80173,S,05539.63851,E,124913.00,A,A*64
$GNRMC,124914.00,A,0419.80173,S,05539.63846,E,0.034,,200525,,,A*7B
$GNVTG,,T,,M,0.034,N,0.064,K,A*38
$GNGGA,124914.00,0419.80173,S,05539.63846,E,1,12,0.67,6.5,M,-47.6,M,,*79
$GNGSA,A,3,32,18,10,28,26,16,27,31,41,08,,,1.37,0.67,1.20*11
$GNGSA,A,3,85,72,71,75,86,65,87,,,,,,1.37,0.67,1.20*15
$GPGSV,4,1,16,08,15,312,35,10,14,012,27,16,24,230,39,18,32,098,22*70
$GPGSV,4,2,16,23,01,050,,26,28,200,40,27,50,297,36,28,55,136,33*72
$GPGSV,4,3,16,29,05,147,,31,42,179,39,32,48,002,36,36,52,277,32*7F
$GPGSV,4,4,16,40,84,353,40,41,58,082,31,49,32,274,,50,10,089,*7F
$GLGSV,3,1,10,65,28,255,35,71,10,008,21,72,38,324,27,74,13,126,07*6A
$GLGSV,3,2,10,75,17,176,15,76,00,227,37,84,06,147,,85,49,118,25*60
$GLGSV,3,3,10,86,49,014,32,87,11,346,29*66
$GNGLL,0419.80173,S,05539.63846,E,124914.00,A,A*65
$GNRMC,124915.00,A,0419.80173,S,05539.63845,E,0.021,,200525,,,A*7D
$GNVTG,,T,,M,0.021,N,0.039,K,A*34
$GNGGA,124915.00,0419.80173,S,05539.63845,E,1,12,0.60,6.3,M,-47.6,M,,*7A
$GNGSA,A,3,32,18,10,28,26,16,27,31,41,08,,,1.19,0.60,1.03*1B
$GNGSA,A,3,85,72,71,75,86,74,65,87,,,,,1.19,0.60,1.03*1C
$GPGSV,4,1,16,08,15,312,34,10,14,012,24,16,24,230,40,18,32,098,23*7D
$GPGSV,4,2,16,23,01,050,,26,28,200,41,27,50,297,33,28,55,136,33*76
$GPGSV,4,3,16,29,05,147,,31,42,179,41,32,48,002,37,36,52,277,33*70
$GPGSV,4,4,16,40,84,353,40,41,58,082,33,49,32,274,,50,10,089,*7D
$GLGSV,3,1,10,65,28,255,37,71,10,008,24,72,38,324,31,74,13,126,10*6C
$GLGSV,3,2,10,75,17,176,19,76,00,227,38,84,06,147,,85,49,118,27*61
$GLGSV,3,3,10,86,49,014,32,87,11,346,34*6A
$GNGLL,0419.80173,S,05539.63845,E,124915.00,A,A*67
$GNRMC,124916.00,A,0419.80173,S,05539.63846,E,0.039,,200525,,,A*74
$GNVTG,,T,,M,0.039,N,0.073,K,A*33
$GNGGA,124916.00,0419.80173,S,05539.63846,E,1,12,0.61,6.4,M,-47.6,M,,*7C
$GNGSA,A,3,32,18,10,28,26,16,27,31,41,08,,,1.25,0.61,1.09*1F
$GNGSA,A,3,85,72,71,75,86,74,65,87,,,,,1.25,0.61,1.09*18
$GPGSV,4,1,16,08,15,312,29,10,14,012,21,16,24,230,37,18,32,098,21*76
$GPGSV,4,2,16,23,01,050,,26,28,200,36,27,50,297,32,28,55,136,31*75
$GPGSV,4,3,16,29,05,147,,31,42,179,37,32,48,002,34,36,52,277,31*70
$GPGSV,4,4,16,40,84,353,36,41,58,082,31,49,32,274,,50,10,089,*7E
$GLGSV,3,1,10,65,28,255,31,71,10,008,23,72,38,324,26,74,13,126,12*69
$GLGSV,3,2,10,75,17,176,17,76,00,227,33,84,06,147,,85,49,118,27*64
$GLGSV,3,3,10,86,49,014,27,87,11,346,25*6E
$GNGLL,0419.80173,S,05539.63846,E,124916.00,A,A*67
$GNRMC,124917.00,A,0419.80173,S,05539.63849,E,0.106,,200525,,,A*77
$GNVTG,,T,,M,0.106,N,0.196,K,A*34
$GNGGA,124917.00,0419.80173,S,05539.63849,E,1,12,0.61,6.3,M,-47.6,M,,*75
$GNGSA,A,3,32,18,10,28,26,16,27,31,41,08,,,1.25,0.61,1.09*1F
$GNGSA,A,3,85,72,71,75,86,74,65,87,,,,,1.25,0.61,1.09*18
$GPGSV,4,1,16,08,15,312,30,10,14,012,20,16,24,230,35,18,32,098,20*7C
$GPGSV,4,2,16,23,01,050,,26,28,200,34,27,50,297,30,28,55,136,30*74
$GPGSV,4,3,16,29,05,147,,31,42,179,35,32,48,002,34,36,52,277,30*73
$GPGSV,4,4,16,40,84,353,34,41,58,082,29,49,32,274,,50,10,089,*75
$GLGSV,3,1,10,65,28,255,31,71,10,008,20,72,38,324,27,74,13,126,07*6F
$GLGSV,3,2,10,75,17,176,15,76,00,227,32,84,06,147,,85,49,118,26*66
$GLGSV,3,3,10,86,49,014,27,87,11,346,25*6E
$GNGLL,0419.80173,S,05539.63849,E,124917.00,A,A*69
$GNRMC,124918.00,A,0419.80173,S,05539.63853,E,0.078,,200525,,,A*7B
$GNVTG,,T,,M,0.078,N,0.144,K,A*33
$GNGGA,124918.00,0419.80173,S,05539.63853,E,1,12,0.61,6.3,M,-47.6,M,,*71
$GNGSA,A,3,32,18,10,28,26,16,27,31,41,08,,,1.25,0.61,1.09*1F
$GNGSA,A,3,85,72,71,75,86,74,65,87,,,,,1.25,0.61,1.09*18
$GPGSV,4,1,16,08,15,312,33,10,14,012,20,16,24,230,35,18,32,098,21*7E
$GPGSV,4,2,16,23,01,050,,26,28,200,36,27,50,296,34,28,55,136,30*73
$GPGSV,4,3,16,29,05,147,,31,42,179,37,32,48,002,35,36,52,277,31*71
$GPGSV,4,4,16,40,84,353,35,41,58,082,28,49,32,274,,50,10,089,*75
$GLGSV,3,1,10,65,28,255,33,71,10,008,21,72,38,324,28,74,13,126,09*6D
$GLGSV,3,2,10,75,17,176,14,76,00,227,33,84,06,147,,85,49,118,26*66
$GLGSV,3,3,10,86,49,014,28,87,11,346,23*67
$GNGLL,0419.80173,S,05539.63853,E,124918.00,A,A*6D
$GNRMC,124919.00,A,0419.80173,S,05539.63852,E,0.124,,200525,,,A*73
$GNVTG,,T,,M,0.124,N,0.229,K,A*33
$GNGGA,124919.00,0419.80173,S,05539.63852,E,1,12,0.60,6.3,M,-47.6,M,,*70
$GNGSA,A,3,32,18,10,28,26,16,27,31,41,08,,,1.19,0.60,1.03*1B
$GNGSA,A,3,85,72,71,75,86,74,65,87,,,,,1.19,0.60,1.03*1C
$GPGSV,4,1,16,08,15,312,33,10,14,012,31,16,24,230,38,18,32,098,21*73
$GPGSV,4,2,16,23,01,050,,26,28,200,39,27,50,296,36,28,55,135,31*7C
$GPGSV,4,3,16,29,05,147,,31,42,179,40,32,48,002,38,36,52,277,33*7E
$GPGSV,4,4,16,40,84,353,40,41,58,082,33,49,32,274,,50,10,089,*7D
$GLGSV,3,1,10,65,28,255,40,71,10,008,34,72,38,324,33,74,13,126,08*66
$GLGSV,3,2,10,75,17,176,15,76,00,227,38,84,06,147,,85,49,118,31*6A
$GLGSV,3,3,10,86,49,014,37,87,11,346,22*68
$GNGLL,0419.80173,S,05539.63852,E,124919.00,A,A*6D
$GNRMC,124920.00,A,0419.80173,S,05539.63850,E,0.071,,200525,,,A*7A
$GNVTG,,T,,M,0.071,N,0.131,K,A*38
$GNGGA,124920.00,0419.80173,S,05539.63850,E,1,12,0.70,6.3,M,-47.6,M,,*79
$GNGSA,A,3,32,18,10,28,26,16,27,31,41,08,,,1.46,0.70,1.28*19
$GNGSA,A,3,85,72,71,75,86,74,65,87,,,,,1.46,0.70,1.28*1E
$GPGSV,4,1,16,08,15,312,17,10,14,012,29,16,24,230,34,18,32,098,20*71
$GPGSV,4,2,16,23,01,050,,26,28,200,34,27,50,296,32,28,55,135,26*73
$GPGSV,4,3,16,29,05,147,,31,42,179,35,32,48,002,34,36,52,277,30*73
$GPGSV,4,4,16,40,84,353,35,41,58,082,28,49,32,274,,50,10,089,*75
$GLGSV,3,1,10,65,28,255,30,71,10,008,23,72,38,324,26,74,13,126,10*6A
$GLGSV,3,2,10,75,17,176,11,76,00,227,30,84,06,147,,85,49,118,24*62
$GLGSV,3,3,10,86,49,014,29,87,11,346,27*62
$GNGLL,0419.80173,S,05539.63850,E,124920.00,A,A*65
$GNRMC,124921.00,A,0419.80175,S,05539.63847,E,0.027,,200525,,,A*78
$GNVTG,,T,,M,0.027,N,0.049,K,A*35
$GNGGA,124921.00,0419.80175,S,05539.63847,E,1,12,0.61,6.4,M,-47.6,M,,*7F
$GNGSA,A,3,32,18,10,28,26,16,27,31,41,08,,,1.25,0.61,1.09*1F
$GNGSA,A,3,85,72,71,75,86,74,65,87,,,,,1.25,0.61,1.09*18
$GPGSV,4,1,16,08,15,312,29,10,14,012,34,16,24,230,39,18,32,098,20*7D
$GPGSV,4,2,16,23,01,050,,26,28,200,40,27,50,296,36,28,55,135,32*71
$GPGSV,4,3,16,29,05,147,,31,42,179,41,32,48,002,37,36,52,277,34*77
$GPGSV,4,4,16,40,84,353,41,41,58,082,34,49,32,274,,50,10,089,*7B
$GLGSV,3,1,10,65,28,255,35,71,10,008,30,72,38,324,31,74,13,126,09*63
$GLGSV,3,2,10,75,17,176,14,76,00,227,37,84,06,147,,85,49,118,31*64
$GLGSV,3,3,10,86,49,014,33,87,11,346,31*6E
$GNGLL,0419.80175,S,05539.63847,E,124921.00,A,A*64
$GNRMC,124922.00,A,0419.80177,S,05539.63843,E,0.031,,200525,,,A*7A
$GNVTG,,T,,M,0.031,N,0.057,K,A*3D
$GNGGA,124922.00,0419.80177,S,05539.63843,E,1,12,0.60,6.4,M,-47.6,M,,*7B
$GNGSA,A,3,32,18,10,28,26,16,27,31,41,08,,,1.19,0.60,1.03*1B
$GNGSA,A,3,85,72,71,75,86,74,65,87,,,,,1.19,0.60,1.03*1C
$GPGSV,4,1,16,08,15,312,30,10,14,012,32,16,24,230,41,18,32,098,21*7D
$GPGSV,4,2,16,23,01,050,,26,28,200,40,27,50,296,37,28,55,135,31*73
$GPGSV,4,3,16,29,05,147,,31,42,178,42,32,48,002,38,36,52,277,34*7A
$GPGSV,4,4,16,40,84,353,40,41,58,082,33,49,32,274,,50,10,089,*7D
$GLGSV,3,1,10,65,28,255,35,71,10,008,28,72,38,324,27,74,13,126,08*6C
$GLGSV,3,2,10,75,17,176,13,76,00,227,37,84,06,147,,85,49,118,30*62
$GLGSV,3,3,10,86,49,014,30,87,11,346,31*6D
$GNGLL,0419.80177,S,05539.63843,E,124922.00,A,A*61
$GNRMC,124923.00,A,0419.80178,S,05539.63841,E,0.085,,200525,,,A*79
$GNVTG,,T,,M,0.085,N,0.158,K,A*3C
$GNGGA,124923.00,0419.80178,S,05539.63841,E,1,12,0.65,6.3,M,-47.6,M,,*75
$GNGSA,A,3,32,18,10,28,26,16,27,31,41,08,,,1.32,0.65,1.15*10
$GNGSA,A,3,85,72,71,75,86,74,65,87,,,,,1.32,0.65,1.15*17
$GPGSV,4,1,16,08,15,312,31,10,14,012,31,16,24,230,39,18,32,098,23*72
$GPGSV,4,2,16,23,01,050,,26,28,200,40,27,50,296,36,28,55,135,32*71
$GPGSV,4,3,16,29,05,147,,31,42,178,41,32,47,002,38,36,52,277,32*70
$GPGSV,4,4,16,40,84,353,41,41,58,082,33,49,32,274,,50,10,089,*7C
$GLGSV,3,1,10,65,28,255,39,71,10,008,33,72,38,324,33,74,13,126,08*6F
$GLGSV,3,2,10,75,17,176,17,76,00,227,42,84,06,147,,85,49,118,33*67
$GLGSV,3,3,10,86,49,014,36,87,11,346,35*6F
$GNGLL,0419.80178,S,05539.63841,E,124923.00,A,A*6D
$GNRMC,124924.00,A,0419.80180,S,05539.63842,E,0.071,,200525,,,A*71
$GNVTG,,T,,M,0.071,N,0.131,K,A*38
$GNGGA,124924.00,0419.80180,S,05539.63842,E,1,12,0.61,6.4,M,-47.6,M,,*75
$GNGSA,A,3,32,18,10,28,26,16,27,31,41,08,,,1.25,0.61,1.09*1F
$GNGSA,A,3,85,72,71,75,86,74,65,87,,,,,1.25,0.61,1.09*18
$GPGSV,4,1,16,08,15,312,34,10,14,012,28,16,24,230,40,18,32,098,22*70
$GPGSV,4,2,16,23,01,050,,26,28,200,40,27,50,296,36,28,55,135,32*71
$GPGSV,4,3,16,29,05,147,,31,42,178,40,32,47,002,38,36,52,277,35*76
$GPGSV,4,4,16,40,84,353,41,41,58,082,29,49,32,274,,50,10,089,*77
$GLGSV,3,1,10,65,28,255,31,71,10,008,27,72,38,324,27,74,13,126,10*6E
$GLGSV,3,2,10,75,17,176,09,76,00,227,36,84,06,147,,85,49,118,26*6F
$GLGSV,3,3,10,86,49,014,28,87,11,346,27*63
$GNGLL,0419.80180,S,05539.63842,E,124924.00,A,A*6E
$GNRMC,124925.00,A,0419.80182,S,05539.63840,E,0.046,,200525,,,A*74
$GNVTG,,T,,M,0.046,N,0.085,K,A*32
$GNGGA,124925.00,0419.80182,S,05539.63840,E,1,12,0.61,6.5,M,-47.6,M,,*75
$GNGSA,A,3,32,18,10,28,26,16,27,31,41,08,,,1.25,0.61,1.09*1F
$GNGSA,A,3,85,72,71,75,86,74,65,87,,,,,1.25,0.61,1.09*18
$GPGSV,4,1,16,08,15,312,29,10,14,012,26,16,24,230,38,18,32,098,21*7E
$GPGSV,4,2,16,23,01,050,,26,28,200,38,27,50,296,35,28,55,135,28*76
$GPGSV,4,3,16,29,05,147,,31,42,178,39,32,47,002,39,36,52,277,34*78
$GPGSV,4,4,16,40,84,353,39,41,58,082,32,49,32,274,,50,10,089,*72
$GLGSV,3,1,10,65,28,255,31,71,10,008,25,72,38,324,26,74,13,126,09*65
$GLGSV,3,2,10,75,17,176,14,76,00,227,36,84,06,147,,85,49,118,25*60
$GLGSV,3,3,10,86,49,014,28,87,11,346,27*63
$GNGLL,0419.80182,S,05539.63840,E,124925.00,A,A*6F
$GNRMC,124926.00,A,0419.80183,S,05539.63834,E,0.093,,200525,,,A*7D
$GNVTG,,T,,M,0.093,N,0.172,K,A*33
$GNGGA,124926.00,0419.80183,S,05539.63834,E,1,12,0.67,6.5,M,-47.6,M,,*72
$GNGSA,A,3,32,18,10,28,26,16,27,31,41,08,,,1.37,0.67,1.20*11
$GNGSA,A,3,85,72,71,75,86,74,65,87,,,,,1.37,0.67,1.20*16
$GPGSV,4,1,16,08,15,312,23,10,14,012,26,16,24,230,41,18,32,098,21*7A
$GPGSV,4,2,16,23,01,050,,26,28,200,42,27,50,296,35,28,55,135,33*71
$GPGSV,4,3,16,29,05,147,,31,42,178,41,32,47,002,36,36,52,277,34*78
$GPGSV,4,4,16,40,84,353,42,41,58,082,35,49,32,274,,50,10,089,*79
$GLGSV,3,1,10,65,28,255,37,71,10,008,25,72,38,324,33,74,13,126,09*67
$GLGSV,3,2,10,75,17,176,21,76,00,227,43,84,06,147,,85,49,118,34*64
$GLGSV,3,3,10,86,49,014,33,87,11,346,32*6D
$GNGLL,0419.80183,S,05539.63834,E,124926.00,A,A*6E
$GNRMC,124927.00,A,0419.80187,S,05539.63828,E,0.102,,200525,,,A*7C
$GNVTG,,T,,M,0.102,N,0.189,K,A*3E
$GNGGA,124927.00,0419.80187,S,05539.63828,E,1,12,0.60,6.7,M,-47.6,M,,*7F
$GNGSA,A,3,32,18,10,28,26,16,27,31,41,08,,,1.19,0.60,1.03*1B
$GNGSA,A,3,85,72,71,75,86,74,65,87,,,,,1.19,0.60,1.03*1C
$GPGSV,4,1,16,08,15,312,35,10,14,012,32,16,24,230,38,18,32,098,22*75
$GPGSV,4,2,16,23,01,050,,26,28,200,39,27,50,296,32,28,55,135,33*7A
$GPGSV,4,3,16,29,05,147,,31,42,178,39,32,47,002,34,36,52,277,33*72
$GPGSV,4,4,16,40,84,353,41,41,58,082,33,49,32,274,,50,10,089,*7C
$GLGSV,3,1,10,65,28,255,35,71,10,008,26,72,38,324,28,74,13,126,08*6D
$GLGSV,3,2,10,75,17,176,15,76,00,227,41,84,06,147,,85,49,118,30*65
$GLGSV,3,3,10,86,49,014,31,87,11,346,26*6A
$GNGLL,0419.80187,S,05539.63828,E,124927.00,A,A*66
$GNRMC,124928.00,A,0419.80190,S,05539.63824,E,0.014,,200525,,,A*7F
$GNVTG,,T,,M,0.014,N,0.026,K,A*3C
$GNGGA,124928.00,0419.80190,S,05539.63824,E,1,12,0.60,6.9,M,-47.6,M,,*74
$GNGSA,A,3,32,18,10,28,26,16,27,31,41,08,,,1.19,0.60,1.03*1B
$GNGSA,A,3,85,72,71,75,86,74,65,87,,,,,1.19,0.60,1.03*1C
$GPGSV,4,1,16,08,15,312,35,10,14,012,32,16,24,230,40,18,32,098,22*7A
$GPGSV,4,2,16,23,01,050,,26,28,200,40,27,50,296,35,28,55,135,36*76
$GPGSV,4,3,16,29,05,147,,31,42,178,40,32,47,002,35,36,52,277,33*7D
$GPGSV,4,4,16,40,84,353,42,41,58,082,36,49,32,274,,50,10,089,*7A
$GLGSV,3,1,10,65,28,255,37,71,10,008,27,72,38,324,32,74,13,126,11*6D
$GLGSV,3,2,10,75,17,176,18,76,00,227,43,84,06,147,,85,49,118,34*6E
$GLGSV,3,3,10,86,49,014,32,87,11,346,29*66
$GNGLL,0419.80190,S,05539.63824,E,124928.00,A,A*63
$GNRMC,124929.00,A,0419.80195,S,05539.63822,E,0.070,,200525,,,A*7F
$GNVTG,,T,,M,0.070,N,0.129,K,A*30
$GNGGA,124929.00,0419.80195,S,05539.63822,E,1,12,0.65,6.9,M,-47.6,M,,*73
$GNGSA,A,3,32,18,10,28,26,16,27,31,41,08,,,1.32,0.65,1.15*10
$GNGSA,A,3,85,72,71,75,86,74,65,87,,,,,1.32,0.65,1.15*17
$GPGSV,4,1,16,08,15,312,35,10,14,012,39,16,24,230,41,18,32,098,25*77
$GPGSV,4,2,16,23,01,050,,26,28,200,40,27,50,296,38,28,55,135,36*7B
$GPGSV,4,3,16,29,05,147,,31,42,178,40,32,47,002,38,36,52,277,36*75
$GPGSV,4,4,16,40,84,353,43,41,58,082,37,49,32,274,,50,10,089,*7A
$GLGSV,3,1,10,65,28,255,37,71,10,008,33,72,38,324,34,74,13,126,08*66
$GLGSV,3,2,10,75,17,176,20,76,00,227,43,84,06,147,,85,49,118,36*67
$GLGSV,3,3,10,86,49,014,34,87,11,346,31*69
$GNGLL,0419.80195,S,05539.63822,E,124929.00,A,A*61
$GNRMC,124930.00,A,0419.80199,S,05539.63824,E,0.010,,200525,,,A*7B
$GNVTG,,T,,M,0.010,N,0.019,K,A*34
$GNGGA,124930.00,0419.80199,S,05539.63824,E,1,12,0.61,6.8,M,-47.6,M,,*74
$GNGSA,A,3,32,18,10,28,26,16,27,31,08,,,,1.25,0.61,1.09*1A
$GNGSA,A,3,85,72,71,75,86,74,65,87,,,,,1.25,0.61,1.09*18
$GPGSV,4,1,16,08,15,312,36,10,14,012,36,16,24,230,41,18,32,098,27*79
$GPGSV,4,2,16,23,01,050,,26,28,200,40,27,50,296,38,28,55,135,36*7B
$GPGSV,4,3,16,29,05,147,,31,42,178,40,32,47,002,39,36,52,277,38*7A
$GPGSV,4,4,16,40,84,353,42,41,58,082,37,49,32,274,,50,10,089,*7B
$GLGSV,3,1,10,65,28,255,38,71,10,008,27,72,38,324,37,74,13,126,10*66
$GLGSV,3,2,10,75,17,176,20,76,00,227,43,84,06,147,,85,49,118,35*64
$GLGSV,3,3,10,86,49,014,34,87,11,346,35*6D
$GNGLL,0419.80199,S,05539.63824,E,124930.00,A,A*63
$GNRMC,124931.00,A,0419.80200,S,05539.63822,E,0.080,,200525,,,A*76
$GNVTG,,T,,M,0.080,N,0.148,K,A*38
$GNGGA,124931.00,0419.80200,S,05539.63822,E,1,12,0.61,7.0,M,-47.6,M,,*79
$GNGSA,A,3,32,18,10,28,26,16,27,31,08,,,,1.25,0.61,1.09*1A
$GNGSA,A,3,85,72,71,75,86,74,65,87,,,,,1.25,0.61,1.09*18
$GPGSV,4,1,16,08,15,312,36,10,14,012,34,16,24,230,41,18,32,098,29*75
$GPGSV,4,2,16,23,01,050,,26,28,200,40,27,50,296,38,28,55,135,36*7B
$GPGSV,4,3,16,29,05,147,,31,42,178,40,32,47,002,40,36,52,277,37*7B
$GPGSV,4,4,16,40,84,353,43,41,58,082,37,49,32,274,,50,10,089,*7A
$GLGSV,3,1,10,65,28,255,36,71,10,008,27,72,38,324,36,74,13,126,09*61
$GLGSV,3,2,10,75,17,176,19,76,00,227,43,84,06,147,,85,49,118,34*6F
$GLGSV,3,3,10,86,49,014,37,87,11,346,28*62
$GNGLL,0419.80200,S,05539.63822,E,124931.00,A,A*67
$GNRMC,124932.00,A,0419.80202,S,05539.63823,E,0.068,,200525,,,A*70
$GNVTG,,T,,M,0.068,N,0.126,K,A*36
$GNGGA,124932.00,0419.80202,S,05539.63823,E,1,12,0.67,7.0,M,-47.6,M,,*7F
$GNGSA,A,3,32,18,10,28,26,16,27,31,08,,,,1.37,0.67,1.20*14
$GNGSA,A,3,85,72,71,75,86,74,65,87,,,,,1.37,0.67,1.20*16
$GPGSV,4,1,16,08,15,312,37,10,14,012,34,16,24,230,41,18,32,098,30*7C
$GPGSV,4,2,16,23,01,050,,26,28,200,40,27,50,296,38,28,55,135,35*78
$GPGSV,4,3,16,29,05,147,,31,42,178,39,32,47,002,40,36,52,277,37*75
$GPGSV,4,4,16,40,84,353,43,41,58,082,39,49,32,274,,50,10,089,*74
$GLGSV,3,1,10,65,28,255,36,71,10,008,25,72,38,324,36,74,13,126,09*63
$GLGSV,3,2,10,75,17,176,19,76,00,227,42,84,06,147,,85,49,118,32*68
$GLGSV,3,3,10,86,49,014,36,87,11,346,26*6D
$GNGLL,0419.80202,S,05539.63823,E,124932.00,A,A*67
$GNRMC,124933.00,A,0419.80204,S,05539.63827,E,0.044,,200525,,,A*7D
$GNVTG,,T,,M,0.044,N,0.082,K,A*37
$GNGGA,124933.00,0419.80204,S,05539.63827,E,1,12,0.67,7.1,M,-47.6,M,,*7D
$GNGSA,A,3,32,18,10,28,26,16,27,31,08,,,,1.37,0.67,1.20*14
$GNGSA,A,3,85,72,71,75,86,65,87,,,,,,1.37,0.67,1.20*15
$GPGSV,4,1,16,08,15,312,38,10,14,012,29,16,24,230,42,18,32,098,30*7C
$GPGSV,4,2,16,23,01,050,,26,28,200,40,27,50,296,39,28,55,135,35*79
$GPGSV,4,3,16,29,05,147,,31,42,178,39,32,47,002,41,36,52,277,37*74
$GPGSV,4,4,16,40,84,353,43,41,58,082,38,49,32,274,,50,10,089,*75
$GLGSV,3,1,10,65,28,255,36,71,10,008,21,72,38,324,38,74,13,126,07*67
$GLGSV,3,2,10,75,17,176,17,76,00,227,43,84,06,147,,85,49,118,34*61
$GLGSV,3,3,10,86,49,014,38,87,11,346,26*63
$GNGLL,0419.80204,S,05539.63827,E,124933.00,A,A*64
$GNRMC,124934.00,A,0419.80206,S,05539.63829,E,0.074,,200525,,,A*75
$GNVTG,,T,,M,0.074,N,0.137,K,A*3B
$GNGGA,124934.00,0419.80206,S,05539.63829,E,1,12,0.61,7.3,M,-47.6,M,,*72
$GNGSA,A,3,32,18,10,28,26,16,27,31,08,,,,1.25,0.61,1.09*1A
$GNGSA,A,3,85,72,71,75,86,74,65,87,,,,,1.25,0.61,1.09*18
$GPGSV,4,1,16,08,15,312,39,10,14,012,33,16,24,230,42,18,32,098,30*76
$GPGSV,4,2,16,23,01,050,,26,28,200,40,27,50,296,38,28,55,135,35*78
$GPGSV,4,3,16,29,05,147,,31,42,178,40,32,47,002,40,36,52,277,39*75
$GPGSV,4,4,16,40,84,353,43,41,58,082,37,49,32,274,,50,10,089,*7A
$GLGSV,3,1,10,65,28,255,36,71,10,008,21,72,38,324,36,74,13,126,09*67
$GLGSV,3,2,10,75,17,176,14,76,00,227,42,84,06,147,,85,49,118,33*64
$GLGSV,3,3,10,86,49,014,36,87,11,346,25*6E
$GNGLL,0419.80206,S,05539.63829,E,124934.00,A,A*6F
$GNRMC,124935.00,A,0419.80206,S,05539.63833,E,0.068,,200525,,,A*72
$GNVTG,,T,,M,0.068,N,0.126,K,A*36
$GNGGA,124935.00,0419.80206,S,05539.63833,E,1,12,0.67,7.4,M,-47.6,M,,*79
$GNGSA,A,3,32,18,10,28,26,16,27,31,08,,,,1.37,0.67,1.20*14
$GNGSA,A,3,85,72,71,75,86,65,87,,,,,,1.37,0.67,1.20*15
$GPGSV,4,1,16,08,15,312,39,10,14,012,34,16,24,230,41,18,32,098,29*7A
$GPGSV,4,2,16,23,01,050,,26,28,200,41,27,50,296,40,28,55,135,35*76
$GPGSV,4,3,16,29,05,147,,31,42,178,41,32,47,002,38,36,52,277,39*7B
$GPGSV,4,4,16,40,84,353,43,41,58,082,37,49,32,274,,50,10,089,*7A
$GLGSV,3,1,10,65,28,255,35,71,10,008,22,72,38,324,35,74,13,126,12*6E
$GLGSV,3,2,10,75,17,176,12,76,00,227,41,84,06,147,,85,49,118,33*61
$GLGSV,3,3,10,86,49,014,34,87,11,346,22*6B
$GNGLL,0419.80206,S,05539.63833,E,124935.00,A,A*65
$GNRMC,124936.00,A,0419.80207,S,05539.63836,E,0.040,,200525,,,A*7F
$GNVTG,,T,,M,0.040,N,0.075,K,A*3B
$GNGGA,124936.00,0419.80207,S,05539.63836,E,1,12,0.71,7.5,M,-47.6,M,,*78
$GNGSA,A,3,32,18,10,28,26,16,27,31,08,,,,1.52,0.71,1.34*15
$GNGSA,A,3,85,72,71,86,65,87,,,,,,,1.52,0.71,1.34*16
$GPGSV,4,1,16,08,15,312,40,10,14,012,33,16,24,230,41,18,32,098,30*7B
$GPGSV,4,2,16,23,01,050,,26,28,200,40,27,50,296,40,28,55,135,35*77
$GPGSV,4,3,16,29,05,147,,31,42,178,41,32,47,002,39,36,52,277,38*7B
$GPGSV,4,4,16,40,84,353,43,41,58,082,37,49,32,274,,50,10,089,*7A
$GLGSV,3,1,10,65,28,255,35,71,10,008,23,72,38,324,36,74,13,126,10*6E
$GLGSV,3,2,10,75,17,176,10,76,00,227,41,84,06,147,,85,49,118,33*63
$GLGSV,3,3,10,86,49,014,35,87,11,346,20*68
$GNGLL,0419.80207,S,05539.63836,E,124936.00,A,A*62
$GNRMC,124937.00,A,0419.80210,S,05539.63833,E,0.056,,200525,,,A*7A
$GNVTG,,T,,M,0.056,N,0.103,K,A*3C
$GNGGA,124937.00,0419.80210,S,05539.63833,E,1,12,0.71,7.7,M,-47.6,M,,*78
$GNGSA,A,3,32,18,10,28,26,16,27,31,08,,,,1.51,0.71,1.34*16
$GNGSA,A,3,85,72,71,86,65,87,,,,,,,1.51,0.71,1.34*15
$GPGSV,4,1,16,08,15,312,40,10,14,012,38,16,24,230,39,18,32,098,31*7E
$GPGSV,4,2,16,23,01,050,,26,28,200,40,27,50,296,40,28,55,135,35*77
$GPGSV,4,3,16,29,05,147,,31,42,178,39,32,47,002,36,36,52,277,38*7B
$GPGSV,4,4,16,40,84,353,42,41,58,082,38,49,32,274,,50,10,089,*74
$GLGSV,3,1,10,65,28,255,38,71,10,008,25,72,38,324,35,74,13,126,07*60
$GLGSV,3,2,10,75,17,176,,76,00,227,41,84,06,147,,85,49,118,32*63
$GLGSV,3,3,10,86,49,014,30,87,11,346,19*67
$GNGLL,0419.80210,S,05539.63833,E,124937.00,A,A*60
$GNRMC,124938.00,A,0419.80212,S,05539.63833,E,0.006,,200525,,,A*72
$GNVTG,,T,,M,0.006,N,0.011,K,A*3B
$GNGGA,124938.00,0419.80212,S,05539.63833,E,1,12,0.71,7.8,M,-47.6,M,,*7A
$GNGSA,A,3,32,18,10,28,26,16,27,31,08,,,,1.51,0.71,1.34*16
$GNGSA,A,3,85,72,71,86,65,87,,,,,,,1.51,0.71,1.34*15
$GPGSV,4,1,16,08,15,312,39,10,14,012,37,16,24,230,41,18,32,098,30*71
$GPGSV,4,2,16,23,01,050,,26,28,200,40,27,50,296,41,28,55,135,35*76
$GPGSV,4,3,16,29,05,147,,31,42,178,40,32,47,002,37,36,52,277,38*74
$GPGSV,4,4,16,40,84,353,43,41,58,082,37,49,32,274,,50,10,089,*7A
$GLGSV,3,1,10,65,28,255,36,71,10,008,26,72,38,324,36,74,13,126,09*60
$GLGSV,3,2,10,75,17,176,,76,00,227,40,84,06,147,,85,49,118,32*62
$GLGSV,3,3,10,86,49,014,31,87,11,346,20*6C
$GNGLL,0419.80212,S,05539.63833,E,124938.00,A,A*6D
$GNRMC,124939.00,A,0419.80215,S,05539.63832,E,0.043,,200525,,,A*74
$GNVTG,,T,,M,0.043,N,0.079,K,A*34
$GNGGA,124939.00,0419.80215,S,05539.63832,E,1,12,0.71,7.9,M,-47.6,M,,*7C
$GNGSA,A,3,32,18,10,28,26,16,27,31,08,,,,1.51,0.71,1.34*16
$GNGSA,A,3,85,72,71,86,65,87,,,,,,,1.51,0.71,1.34*15
$GPGSV,4,1,16,08,15,312,38,10,14,012,37,16,24,230,39,18,32,098,31*7E
$GPGSV,4,2,16,23,01,050,,26,28,200,40,27,50,296,40,28,55,135,35*77
$GPGSV,4,3,16,29,05,147,,31,42,178,40,32,47,002,37,36,52,277,38*74
$GPGSV,4,4,16,40,84,353,43,41,58,082,37,49,32,274,,50,10,089,*7A
$GLGSV,3,1,10,65,28,255,36,71,10,008,27,72,38,324,36,74,13,126,06*6E
$GLGSV,3,2,10,75,17,176,,76,00,227,38,84,06,147,,85,49,118,32*6D
$GLGSV,3,3,10,86,49,014,32,87,11,346,20*6F
$GNGLL,0419.80215,S,05539.63832,E,124939.00,A,A*6A
$GNRMC,124940.00,A,0419.80217,S,05539.63832,E,0.012,,200525,,,A*7C
$GNVTG,,T,,M,0.012,N,0.022,K,A*3E
$GNGGA,124940.00,0419.80217,S,05539.63832,E,1,12,0.71,7.9,M,-47.6,M,,*70
$GNGSA,A,3,32,18,10,28,26,16,27,31,08,,,,1.51,0.71,1.34*16
$GNGSA,A,3,85,72,71,86,65,87,,,,,,,1.51,0.71,1.34*15
$GPGSV,4,1,16,08,15,312,38,10,14,012,37,16,24,230,40,18,32,098,30*71
$GPGSV,4,2,16,23,01,050,,26,28,200,41,27,50,296,40,28,55,135,35*76
$GPGSV,4,3,16,29,05,147,,31,42,178,40,32,47,002,37,36,52,277,38*74
$GPGSV,4,4,16,40,84,353,43,41,58,082,37,49,32,274,,50,10,089,*7A
$GLGSV,3,1,10,65,28,255,37,71,10,008,29,72,38,324,36,74,13,126,08*6F
$GLGSV,3,2,10,75,17,176,,76,00,227,38,84,06,147,,85,49,118,32*6D
$GLGSV,3,3,10,86,49,014,32,87,11,346,19*65
$GNGLL,0419.80217,S,05539.63832,E,124940.00,A,A*66
$GNRMC,124941.00,A,0419.80218,S,05539.63835,E,0.049,,200525,,,A*7B
$GNVTG,,T,,M,0.049,N,0.091,K,A*38
$GNGGA,124941.00,0419.80218,S,05539.63835,E,1,12,0.71,7.8,M,-47.6,M,,*78
$GNGSA,A,3,32,18,10,28,26,16,27,31,08,,,,1.51,0.71,1.34*16
$GNGSA,A,3,85,72,71,86,65,87,,,,,,,1.51,0.71,1.34*15
$GPGSV,4,1,16,08,15,312,38,10,14,012,36,16,24,230,42,18,32,098,30*72
$GPGSV,4,2,16,23,01,050,,26,28,200,41,27,50,296,41,28,55,135,35*77
$GPGSV,4,3,16,29,05,147,,31,42,178,41,32,47,002,37,36,52,277,39*74
$GPGSV,4,4,16,40,84,353,43,41,58,082,37,49,32,274,,50,10,089,*7A
$GLGSV,3,1,10,65,28,255,34,71,10,008,30,72,38,324,34,74,13,126,11*6E
$GLGSV,3,2,10,75,17,176,,76,00,227,35,84,06,147,,85,49,118,30*62
$GLGSV,3,3,10,86,49,014,30,87,11,346,23*6E
$GNGLL,0419.80218,S,05539.63835,E,124941.00,A,A*6F
$GNRMC,124942.00,A,0419.80220,S,05539.63835,E,0.064,,200525,,,A*7C
$GNVTG,,T,,M,0.064,N,0.118,K,A*37
$GNGGA,124942.00,0419.80220,S,05539.63835,E,1,12,0.71,7.8,M,-47.6,M,,*70
$GNGSA,A,3,32,18,10,28,26,16,27,31,08,,,,1.51,0.71,1.34*16
$GNGSA,A,3,85,72,71,86,65,87,,,,,,,1.51,0.71,1.34*15
$GPGSV,4,1,16,08,15,312,38,10,14,012,37,16,24,230,41,18,32,098,30*70
$GPGSV,4,2,16,23,01,050,,26,28,200,41,27,50,296,41,28,55,135,35*77
$GPGSV,4,3,16,29,05,147,,31,42,178,40,32,47,002,37,36,52,277,38*74
$GPGSV,4,4,16,40,84,353,43,41,58,082,37,49,32,274,,50,10,089,*7A
$GLGSV,3,1,10,65,28,255,35,71,10,008,30,72,38,324,35,74,13,126,11*6E
$GLGSV,3,2,10,75,17,176,,76,00,227,36,84,06,147,,85,49,118,31*60
$GLGSV,3,3,10,86,49,014,29,87,11,346,25*60
$GNGLL,0419.80220,S,05539.63835,E,124942.00,A,A*67
$GNRMC,124943.00,A,0419.80223,S,05539.63839,E,0.031,,200525,,,A*72
$GNVTG,,T,,M,0.031,N,0.057,K,A*3D
$GNGGA,124943.00,0419.80223,S,05539.63839,E,1,12,0.71,7.7,M,-47.6,M,,*71
$GNGSA,A,3,32,18,10,28,26,16,27,31,08,,,,1.51,0.71,1.34*16
$GNGSA,A,3,85,72,71,86,65,87,,,,,,,1.51,0.71,1.34*15
$GPGSV,4,1,16,08,15,312,40,10,14,012,36,16,24,230,41,18,32,098,31*7F
$GPGSV,4,2,16,23,01,050,,26,28,200,40,27,50,296,41,28,55,135,35*76
$GPGSV,4,3,16,29,05,147,,31,42,178,40,32,47,002,37,36,52,277,38*74
$GPGSV,4,4,16,40,84,353,43,41,58,082,38,49,32,274,,50,10,089,*75
$GLGSV,3,1,10,65,28,255,35,71,10,008,30,72,38,324,35,74,13,126,11*6E
$GLGSV,3,2,10,75,17,176,,76,00,227,36,84,06,147,,85,49,118,32*63
$GLGSV,3,3,10,86,49,014,29,87,11,346,29*6C
$GNGLL,0419.80223,S,05539.63839,E,124943.00,A,A*69
$GNRMC,124944.00,A,0419.80225,S,05539.63843,E,0.002,,200525,,,A*7E
$GNVTG,,T,,M,0.002,N,0.005,K,A*3A
$GNGGA,124944.00,0419.80225,S,05539.63843,E,1,12,0.71,7.6,M,-47.6,M,,*7C
$GNGSA,A,3,32,18,10,28,26,16,27,31,08,,,,1.51,0.71,1.34*16
$GNGSA,A,3,85,72,71,86,65,87,,,,,,,1.51,0.71,1.34*15
$GPGSV,4,1,16,08,15,312,43,10,14,012,36,16,24,230,41,18,32,098,31*7C
$GPGSV,4,2,16,23,01,050,,26,28,200,40,27,50,296,42,28,55,135,35*75
$GPGSV,4,3,16,29,05,147,,31,42,178,40,32,47,002,37,36,52,277,39*75
$GPGSV,4,4,16,40,84,353,43,41,58,082,37,49,32,274,,50,10,089,*7A
$GLGSV,3,1,10,65,28,256,35,71,10,008,29,72,38,324,35,74,13,126,11*65
$GLGSV,3,2,10,75,17,176,,76,00,227,37,84,06,147,,85,49,118,32*62
$GLGSV,3,3,10,86,49,014,29,87,11,346,30*64
$GNGLL,0419.80225,S,05539.63843,E,124944.00,A,A*65
$GNRMC,124945.00,A,0419.80228,S,05539.63846,E,0.044,,200525,,,A*75
$GNVTG,,T,,M,0.044,N,0.082,K,A*37
$GNGGA,124945.00,0419.80228,S,05539.63846,E,1,12,0.71,7.6,M,-47.6,M,,*75
$GNGSA,A,3,32,18,10,28,26,16,27,31,08,,,,1.51,0.71,1.34*16
$GNGSA,A,3,85,72,71,86,65,87,,,,,,,1.51,0.71,1.34*15
$GPGSV,4,1,16,08,15,312,43,10,14,012,36,16,24,230,41,18,32,098,31*7C
$GPGSV,4,2,16,23,01,050,,26,28,200,40,27,50,296,42,28,55,135,35*75
$GPGSV,4,3,16,29,05,147,,31,42,178,40,32,47,002,38,36,52,277,38*7B
$GPGSV,4,4,16,40,84,353,43,41,58,082,37,49,32,274,,50,10,089,*7A
$GLGSV,3,1,10,65,28,256,36,71,10,008,32,72,38,324,36,74,13,126,12*6C
$GLGSV,3,2,10,75,17,176,,76,00,227,40,84,06,147,,85,49,118,33*63
$GLGSV,3,3,10,86,49,014,31,87,11,346,25*69
$GNGLL,0419.80228,S,05539.63846,E,124945.00,A,A*6C
$GNRMC,124946.00,A,0419.80233,S,05539.63845,E,0.119,,200525,,,A*76
$GNVTG,,T,,M,0.119,N,0.221,K,A*35
$GNGGA,124946.00,0419.80233,S,05539.63845,E,1,12,0.71,7.6,M,-47.6,M,,*7F
$GNGSA,A,3,32,18,10,28,26,16,27,31,08,,,,1.51,0.71,1.34*16
$GNGSA,A,3,85,72,71,86,65,87,,,,,,,1.51,0.71,1.34*15
$GPGSV,4,1,16,08,15,312,38,10,14,012,38,16,24,230,41,18,32,098,31*7E
$GPGSV,4,2,16,23,01,050,,26,28,200,42,27,50,296,41,28,55,135,35*74
$GPGSV,4,3,16,29,05,147,,31,42,178,40,32,47,002,37,36,52,277,38*74
$GPGSV,4,4,16,40,84,353,44,41,58,082,37,49,32,274,,50,10,089,*7D
$GLGSV,3,1,10,65,28,256,37,71,10,008,33,72,38,324,36,74,13,126,09*66
$GLGSV,3,2,10,75,17,176,,76,00,227,40,84,06,147,,85,49,118,32*62
$GLGSV,3,3,10,86,49,014,31,87,11,346,23*6F
$GNGLL,0419.80233,S,05539.63845,E,124946.00,A,A*66
$GNRMC,124947.00,A,0419.80237,S,05539.63842,E,0.158,,200525,,,A*71
$GNVTG,,T,,M,0.158,N,0.293,K,A*39
$GNGGA,124947.00,0419.80237,S,05539.63842,E,1,12,0.71,7.5,M,-47.6,M,,*7E
$GNGSA,A,3,32,18,10,28,26,16,27,31,08,,,,1.51,0.71,1.34*16
$GNGSA,A,3,85,72,71,86,65,87,,,,,,,1.51,0.71,1.34*15
$GPGSV,4,1,16,08,15,312,31,10,14,012,36,16,24,230,38,18,32,098,29*7E
$GPGSV,4,2,16,23,01,050,,26,28,200,40,27,50,296,38,28,55,135,35*78
$GPGSV,4,3,16,29,05,147,,31,42,178,40,32,47,002,36,36,52,277,37*7A
$GPGSV,4,4,16,40,84,353,42,41,58,082,37,49,32,274,,50,10,089,*7B
$GLGSV,3,1,10,65,28,256,37,71,10,008,30,72,38,324,32,74,13,126,10*69
$GLGSV,3,2,10,75,17,176,,76,00,227,39,84,06,147,,85,49,118,31*6F
$GLGSV,3,3,10,86,49,014,30,87,11,346,27*6A
$GNGLL,0419.80237,S,05539.63842,E,124947.00,A,A*64
$GNRMC,124948.00,A,0419.80239,S,05539.63843,E,0.039,,200525,,,A*77
$GNVTG,,T,,M,0.039,N,0.073,K,A*33
$GNGGA,124948.00,0419.80239,S,05539.63843,E,1,12,0.71,7.5,M,-47.6,M,,*7E
$GNGSA,A,3,32,18,10,28,26,16,27,31,08,,,,1.51,0.71,1.34*16
$GNGSA,A,3,85,72,71,86,65,87,,,,,,,1.51,0.71,1.34*15
$GPGSV,4,1,16,08,15,312,35,10,14,012,37,16,24,230,38,18,32,098,28*7A
$GPGSV,4,2,16,23,01,050,,26,28,200,41,27,50,296,39,28,55,135,36*7B
$GPGSV,4,3,16,29,05,147,,31,42,178,40,32,47,002,34,36,52,277,39*76
$GPGSV,4,4,16,40,84,353,42,41,58,082,37,49,32,274,,50,10,089,*7B
$GLGSV,3,1,10,65,28,256,37,71,10,008,29,72,38,324,33,74,13,126,10*60
$GLGSV,3,2,10,75,17,176,,76,00,227,38,84,06,147,,85,49,118,32*6D
$GLGSV,3,3,10,86,49,014,30,87,11,346,29*64
$GNGLL,0419.80239,S,05539.63843,E,124948.00,A,A*64
$GNRMC,124949.00,A,0419.80239,S,05539.63842,E,0.022,,200525,,,A*7D
$GNVTG,,T,,M,0.022,N,0.040,K,A*39
$GNGGA,124949.00,0419.80239,S,05539.63842,E,1,12,0.72,7.5,M,-47.6,M,,*7D
$GNGSA,A,3,32,18,10,28,26,16,27,31,08,,,,1.57,0.72,1.40*10
$GNGSA,A,3,85,72,71,86,65,87,,,,,,,1.57,0.72,1.40*13
$GPGSV,4,1,16,08,15,312,33,10,14,012,35,16,24,230,38,18,32,098,28*7E
$GPGSV,4,2,16,23,01,050,,26,28,200,40,27,50,296,39,28,55,135,36*7A
$GPGSV,4,3,16,29,05,147,,31,42,178,40,32,47,002,35,36,52,277,38*76
$GPGSV,4,4,16,40,84,353,42,41,58,082,38,49,32,274,,50,10,089,*74
$GLGSV,3,1,10,65,28,256,37,71,10,008,30,72,38,324,33,74,13,126,10*68
$GLGSV,3,2,10,75,17,176,,76,00,227,38,84,06,147,,85,49,118,31*6E
$GLGSV,3,3,10,86,49,014,29,87,11,346,32*66
$GNGLL,0419.80239,S,05539.63842,E,124949.00,A,A*64
$GNRMC,124950.00,A,0419.80238,S,05539.63842,E,0.056,,200525,,,A*77
$GNVTG,,T,,M,0.056,N,0.104,K,A*3B
$GNGGA,124950.00,0419.80238,S,05539.63842,E,1,12,0.71,7.5,M,-47.6,M,,*77
$GNGSA,A,3,32,18,10,28,26,16,27,31,08,,,,1.51,0.71,1.34*16
$GNGSA,A,3,85,72,71,86,65,87,,,,,,,1.51,0.71,1.34*15
$GPGSV,4,1,16,08,15,312,35,10,14,012,36,16,24,230,38,18,32,098,28*7B
$GPGSV,4,2,16,23,01,050,,26,28,200,40,27,50,296,39,28,55,135,35*79
$GPGSV,4,3,16,29,05,147,,31,42,178,40,32,47,002,35,36,52,277,37*79
$GPGSV,4,4,16,40,84,353,42,41,58,082,37,49,32,274,,50,10,089,*7B
$GLGSV,3,1,10,65,28,256,37,71,09,009,30,72,38,324,33,74,13,126,09*69
$GLGSV,3,2,10,75,17,176,,76,00,227,38,84,06,147,,85,49,118,32*6D
$GLGSV,3,3,10,86,49,014,28,87,11,346,32*67
$GNGLL,0419.80238,S,05539.63842,E,124950.00,A,A*6D
$GNRMC,124951.00,A,0419.80241,S,05539.63842,E,0.060,,200525,,,A*7D
$GNVTG,,T,,M,0.060,N,0.112,K,A*39
$GNGGA,124951.00,0419.80241,S,05539.63842,E,1,12,0.71,7.5,M,-47.6,M,,*78
$GNGSA,A,3,32,18,10,28,26,16,27,31,08,,,,1.51,0.71,1.34*16
$GNGSA,A,3,85,72,71,86,65,87,,,,,,,1.51,0.71,1.34*15
$GPGSV,4,1,16,08,15,312,38,10,14,012,37,16,24,230,38,18,32,098,29*76
$GPGSV,4,2,16,23,01,050,,26,28,200,40,27,50,296,39,28,55,135,35*79
$GPGSV,4,3,16,29,05,147,,31,42,178,40,32,47,002,36,36,52,277,38*75
$GPGSV,4,4,16,40,84,353,42,41,58,082,37,49,32,274,,50,10,089,*7B
$GLGSV,3,1,10,65,28,256,37,71,09,009,29,72,37,325,34,74,13,126,07*66
$GLGSV,3,2,10,75,17,176,,76,00,227,39,84,06,147,,85,49,118,31*6F
$GLGSV,3,3,10,86,49,014,28,87,11,346,31*64
$GNGLL,0419.80241,S,05539.63842,E,124951.00,A,A*62
$GNRMC,124952.00,A,0419.80242,S,05539.63842,E,0.031,,200525,,,A*79
$GNVTG,,T,,M,0.031,N,0.058,K,A*32
$GNGGA,124952.00,0419.80242,S,05539.63842,E,1,12,0.71,7.5,M,-47.6,M,,*78
$GNGSA,A,3,32,18,10,28,26,16,27,31,08,,,,1.51,0.71,1.34*16
$GNGSA,A,3,85,72,71,86,65,87,,,,,,,1.51,0.71,1.34*15
$GPGSV,4,1,16,08,15,312,38,10,14,012,35,16,24,230,39,18,32,098,29*75
$GPGSV,4,2,16,23,01,050,,26,28,200,40,27,50,296,40,28,55,135,35*77
$GPGSV,4,3,16,29,05,147,,31,42,178,40,32,47,002,36,36,52,277,37*7A
$GPGSV,4,4,16,40,84,353,42,41,58,082,37,49,32,274,,50,10,089,*7B
$GLGSV,3,1,10,65,28,256,37,71,09,009,28,72,37,325,34,74,13,126,10*61
$GLGSV,3,2,10,75,17,176,,76,00,227,39,84,06,147,,85,49,118,32*6C
$GLGSV,3,3,10,86,49,014,29,87,11,346,30*64
$GNGLL,0419.80242,S,05539.63842,E,124952.00,A,A*62
$GNRMC,124953.00,A,0419.80244,S,05539.63841,E,0.024,,200525,,,A*79
$GNVTG,,T,,M,0.024,N,0.045,K,A*3A
$GNGGA,124953.00,0419.80244,S,05539.63841,E,1,12,0.64,7.5,M,-47.6,M,,*78
$GNGSA,A,3,32,18,10,28,26,16,27,31,08,,,,1.32,0.64,1.15*14
$GNGSA,A,3,85,72,71,86,74,65,87,,,,,,1.32,0.64,1.15*14
$GPGSV,4,1,16,08,15,312,36,10,14,012,36,16,24,230,39,18,32,098,29*78
$GPGSV,4,2,16,23,01,050,,26,28,200,40,27,50,296,40,28,55,135,35*77
$GPGSV,4,3,16,29,05,147,,31,42,178,40,32,47,002,36,36,52,277,37*7A
$GPGSV,4,4,16,40,84,353,42,41,58,082,37,49,32,274,,50,10,089,*7B
$GLGSV,3,1,10,65,28,256,37,71,09,009,30,72,37,325,35,74,13,125,08*63
$GLGSV,3,2,10,75,17,176,,76,00,227,39,84,06,147,,85,49,118,32*6C
$GLGSV,3,3,10,86,49,014,29,87,11,346,27*62
$GNGLL,0419.80244,S,05539.63841,E,124953.00,A,A*66
$GNRMC,124954.00,A,0419.80246,S,05539.63841,E,0.032,,200525,,,A*7B
$GNVTG,,T,,M,0.032,N,0.060,K,A*3A
$GNGGA,124954.00,0419.80246,S,05539.63841,E,1,12,0.64,7.6,M,-47.6,M,,*7E
$GNGSA,A,3,32,18,10,28,26,16,27,31,08,,,,1.32,0.64,1.15*14
$GNGSA,A,3,85,72,71,86,74,65,87,,,,,,1.32,0.64,1.15*14
$GPGSV,4,1,16,08,15,312,33,10,14,012,39,16,24,230,38,18,32,098,29*73
$GPGSV,4,2,16,23,01,050,,26,28,200,40,27,50,296,40,28,55,135,34*76
$GPGSV,4,3,16,29,05,147,,31,42,178,40,32,47,002,36,36,52,277,38*75
$GPGSV,4,4,16,40,84,353,41,41,58,082,37,49,32,274,,50,10,089,*78
$GLGSV,3,1,10,65,28,256,36,71,09,009,34,72,37,325,32,74,13,125,08*61
$GLGSV,3,2,10,75,17,175,,76,00,227,38,84,06,147,,85,49,118,31*6D
$GLGSV,3,3,10,86,49,014,29,87,11,346,27*62
$GNGLL,0419.80246,S,05539.63841,E,124954.00,A,A*63
$GNRMC,124955.00,A,0419.80247,S,05539.63842,E,0.032,,200525,,,A*78
$GNVTG,,T,,M,0.032,N,0.059,K,A*30
$GNGGA,124955.00,0419.80247,S,05539.63842,E,1,12,0.64,7.6,M,-47.6,M,,*7D
$GNGSA,A,3,32,18,10,28,26,16,27,31,08,,,,1.32,0.64,1.15*14
$GNGSA,A,3,85,72,71,86,74,65,87,,,,,,1.32,0.64,1.15*14
$GPGSV,4,1,16,08,15,312,28,10,14,012,39,16,24,230,38,18,32,098,28*78
$GPGSV,4,2,16,23,01,050,,26,28,200,40,27,50,296,39,28,55,135,35*79
$GPGSV,4,3,16,29,05,147,,31,42,178,40,32,47,002,35,36,52,277,38*76
$GPGSV,4,4,16,40,84,353,41,41,58,082,38,49,32,274,,50,10,089,*77
$GLGSV,3,1,10,65,28,256,36,71,09,009,34,72,37,325,33,74,13,125,08*60
$GLGSV,3,2,10,75,17,175,,76,00,227,38,84,06,147,,85,49,118,32*6E
$GLGSV,3,3,10,86,49,014,29,87,11,346,28*6D
$GNGLL,0419.80247,S,05539.63842,E,124955.00,A,A*60
$GNRMC,124956.00,A,0419.80248,S,05539.63842,E,0.026,,200525,,,A*71
$GNVTG,,T,,M,0.026,N,0.048,K,A*35
$GNGGA,124956.00,0419.80248,S,05539.63842,E,1,12,0.71,7.5,M,-47.6,M,,*76
$GNGSA,A,3,32,18,10,28,26,16,27,31,08,,,,1.51,0.71,1.34*16
$GNGSA,A,3,85,72,71,86,65,87,,,,,,,1.51,0.71,1.34*15
$GPGSV,4,1,16,08,15,312,36,10,14,012,40,16,24,230,40,18,32,098,29*77
$GPGSV,4,2,16,23,01,050,,26,28,200,42,27,50,296,41,28,55,135,35*74
$GPGSV,4,3,16,29,05,147,,31,42,178,42,32,47,002,37,36,52,277,39*77
$GPGSV,4,4,16,40,84,353,43,41,58,082,38,49,32,274,,50,10,089,*75
$GLGSV,3,1,10,65,28,256,36,71,09,009,34,72,37,325,33,74,13,125,05*6D
$GLGSV,3,2,10,75,17,175,,76,00,227,38,84,06,147,,85,49,118,31*6D
$GLGSV,3,3,10,86,49,014,29,87,11,346,33*67
$GNGLL,0419.80248,S,05539.63842,E,124956.00,A,A*6C
$GNRMC,124957.00,A,0419.80247,S,05539.63841,E,0.048,,200525,,,A*74
$GNVTG,,T,,M,0.048,N,0.088,K,A*31
$GNGGA,124957.00,0419.80247,S,05539.63841,E,1,12,0.71,7.5,M,-47.6,M,,*7B
$GNGSA,A,3,32,18,10,28,26,16,27,31,08,,,,1.51,0.71,1.34*16
$GNGSA,A,3,85,72,71,86,65,87,,,,,,,1.51,0.71,1.34*15
$GPGSV,4,1,16,08,15,312,27,10,14,012,38,16,24,230,38,18,32,098,29*77
$GPGSV,4,2,16,23,01,050,,26,28,200,41,27,50,296,40,28,55,135,36*75
$GPGSV,4,3,16,29,05,147,,31,42,178,41,32,47,002,36,36,52,277,39*75
$GPGSV,4,4,16,40,84,353,42,41,58,082,37,49,32,274,,50,10,089,*7B
$GLGSV,3,1,10,65,28,256,36,71,09,009,33,72,37,325,33,74,13,125,08*67
$GLGSV,3,2,10,75,17,175,,76,00,227,38,84,06,147,,85,49,118,31*6D
$GLGSV,3,3,10,86,49,014,29,87,11,346,34*60
$GNGLL,0419.80247,S,05539.63841,E,124957.00,A,A*61
$GNRMC,124958.00,A,0419.80248,S,05539.63842,E,0.062,,200525,,,A*7F
$GNVTG,,T,,M,0.062,N,0.115,K,A*3C
$GNGGA,124958.00,0419.80248,S,05539.63842,E,1,12,0.71,7.4,M,-47.6,M,,*79
$GNGSA,A,3,32,18,10,28,26,16,27,31,08,,,,1.51,0.71,1.34*16
$GNGSA,A,3,85,72,71,86,65,87,,,,,,,1.51,0.71,1.34*15
$GPGSV,4,1,16,08,15,312,26,10,14,012,39,16,24,230,39,18,32,098,28*77
$GPGSV,4,2,16,23,01,050,,26,28,200,41,27,50,296,40,28,55,135,35*76
$GPGSV,4,3,16,29,05,147,,31,42,178,41,32,47,002,35,36,52,277,39*76
$GPGSV,4,4,16,40,84,353,42,41,58,082,37,49,32,274,,50,10,089,*7B
$GLGSV,3,1,10,65,28,256,35,71,09,009,32,72,37,325,32,74,13,125,09*65
$GLGSV,3,2,10,75,17,175,,76,00,227,38,84,06,147,,85,49,118,32*6E
$GLGSV,3,3,10,86,49,014,28,87,11,346,32*67
$GNGLL,0419.80248,S,05539.63842,E,124958.00,A,A*62
$GNRMC,124959.00,A,0419.80248,S,05539.63842,E,0.059,,200525,,,A*76
$GNVTG,,T,,M,0.059,N,0.108,K,A*38
$GNGGA,124959.00,0419.80248,S,05539.63842,E,1,12,0.71,7.4,M,-47.6,M,,*78
$GNGSA,A,3,32,18,10,28,26,16,27,31,08,,,,1.51,0.71,1.34*16
$GNGSA,A,3,85,72,71,86,65,87,,,,,,,1.51,0.71,1.34*15
$GPGSV,4,1,16,08,15,312,28,10,14,012,38,16,24,230,39,18,32,098,27*77
$GPGSV,4,2,16,23,01,050,,26,28,200,41,27,50,296,40,28,55,135,35*76
$GPGSV,4,3,16,29,05,147,,31,42,178,41,32,47,002,36,36,52,277,39*75
$GPGSV,4,4,16,40,84,353,42,41,58,082,37,49,32,274,,50,10,089,*7B
$GLGSV,3,1,10,65,28,256,36,71,09,009,33,72,37,325,32,74,13,125,08*66
$GLGSV,3,2,10,75,17,175,,76,00,227,37,84,06,147,,85,49,118,32*61
$GLGSV,3,3,10,86,49,014,30,87,11,346,32*6E
$GNGLL,0419.80248,S,05539.63842,E,124959.00,A,A*63
$GNRMC,125000.00,A,0419.80249,S,05539.63842,E,0.003,,200525,,,A*7C
$GNVTG,,T,,M,0.003,N,0.006,K,A*38
$GNGGA,125000.00,0419.80249,S,05539.63842,E,1,12,0.71,7.3,M,-47.6,M,,*7A
$GNGSA,A,3,32,18,10,28,26,16,27,31,08,,,,1.51,0.71,1.34*16
$GNGSA,A,3,85,72,71,86,65,87,,,,,,,1.51,0.71,1.34*15
$GPGSV,4,1,16,08,15,312,36,10,14,012,38,16,24,230,39,18,32,098,27*78
$GPGSV,4,2,16,23,01,050,,26,28,200,42,27,50,296,40,28,55,135,35*75
$GPGSV,4,3,16,29,05,147,,31,42,178,41,32,47,002,36,36,52,277,38*74
$GPGSV,4,4,16,40,84,353,43,41,58,082,37,49,32,274,,50,10,089,*7A
$GLGSV,3,1,10,65,28,256,36,71,09,009,34,72,37,325,32,74,13,125,09*60
$GLGSV,3,2,10,75,17,175,,76,00,227,37,84,06,147,,85,49,118,32*61
$GLGSV,3,3,10,86,49,014,32,87,11,346,31*6F
$GNGLL,0419.80249,S,05539.63842,E,125000.00,A,A*66
$GNRMC,125001.00,A,0419.80248,S,05539.63840,E,0.022,,200525,,,A*7D
$GNVTG,,T,,M,0.022,N,0.041,K,A*38
$GNGGA,125001.00,0419.80248,S,05539.63840,E,1,12,0.71,7.2,M,-47.6,M,,*79
$GNGSA,A,3,32,18,10,28,26,16,27,31,08,,,,1.51,0.71,1.34*16
$GNGSA,A,3,85,72,71,86,65,87,,,,,,,1.51,0.71,1.34*15
$GPGSV,4,1,16,08,15,312,32,10,14,012,39,16,24,230,39,18,32,098,26*7C
$GPGSV,4,2,16,23,01,050,,26,28,200,40,27,50,296,39,28,55,135,35*79
$GPGSV,4,3,16,29,05,147,,31,42,178,41,32,47,002,35,36,52,277,37*78
$GPGSV,4,4,16,40,84,353,41,41,58,082,37,49,32,274,,50,10,089,*78
$GLGSV,3,1,10,65,28,256,36,71,09,009,28,72,37,325,33,74,13,125,09*6C
$GLGSV,3,2,10,75,17,175,,76,00,227,37,84,06,147,,85,49,118,31*62
$GLGSV,3,3,10,86,49,014,32,87,11,346,30*6E
$GNGLL,0419.80248,S,05539.63840,E,125001.00,A,A*64
$GNRMC,125002.00,A,0419.80248,S,05539.63842,E,0.011,,200525,,,A*7C
$GNVTG,,T,,M,0.011,N,0.020,K,A*3F
$GNGGA,125002.00,0419.80248,S,05539.63842,E,1,12,0.71,7.1,M,-47.6,M,,*7B
$GNGSA,A,3,32,18,10,28,26,16,27,31,08,,,,1.51,0.71,1.34*16
$GNGSA,A,3,85,72,71,86,74,65,87,,,,,,1.51,0.71,1.34*16
$GPGSV,4,1,16,08,15,312,33,10,14,012,39,16,24,230,37,18,32,098,27*72
$GPGSV,4,2,16,23,01,050,,26,28,200,41,27,50,296,40,28,55,135,34*77
$GPGSV,4,3,16,29,05,147,,31,42,178,41,32,47,002,35,36,52,277,38*77
$GPGSV,4,4,16,40,84,353,41,41,58,082,37,49,32,274,,50,10,089,*78
$GLGSV,3,1,10,65,28,256,34,71,09,009,33,72,37,325,33,74,13,125,09*64
$GLGSV,3,2,10,75,17,175,,76,00,227,37,84,06,147,,85,49,118,31*62
$GLGSV,3,3,10,86,49,014,31,87,11,346,33*6E
$GNGLL,0419.80248,S,05539.63842,E,125002.00,A,A*65
$GNRMC,125003.00,A,0419.80249,S,05539.63842,E,0.053,,200525,,,A*7A
$GNVTG,,T,,M,0.053,N,0.098,K,A*3A
$GNGGA,125003.00,0419.80249,S,05539.63842,E,1,12,0.71,7.1,M,-47.6,M,,*7B
$GNGSA,A,3,32,18,10,28,26,16,27,31,08,,,,1.51,0.71,1.34*16
$GNGSA,A,3,85,72,71,86,65,87,,,,,,,1.51,0.71,1.34*15
$GPGSV,4,1,16,08,15,312,35,10,14,012,38,16,24,230,39,18,32,098,27*7B
$GPGSV,4,2,16,23,01,050,,26,28,200,41,27,50,296,40,28,55,135,35*76
$GPGSV,4,3,16,29,05,147,,31,42,178,41,32,47,002,35,36,52,277,38*77
$GPGSV,4,4,16,40,84,353,42,41,58,082,37,49,32,274,,50,10,089,*7B
$GLGSV,3,1,10,65,28,256,36,71,09,009,31,72,37,325,33,74,13,125,07*6A
$GLGSV,3,2,10,75,17,175,,76,00,227,36,84,06,147,,85,49,118,32*60
$GLGSV,3,3,10,86,49,014,31,87,11,346,31*6C
$GNGLL,0419.80249,S,05539.63842,E,125003.00,A,A*65
$GNRMC,125004.00,A,0419.80249,S,05539.63843,E,0.008,,200525,,,A*72
$GNVTG,,T,,M,0.008,N,0.016,K,A*32
$GNGGA,125004.00,0419.80249,S,05539.63843,E,1,12,0.64,7.0,M,-47.6,M,,*78
$GNGSA,A,3,32,18,10,28,26,16,27,31,08,,,,1.32,0.64,1.15*14
$GNGSA,A,3,85,72,71,86,74,65,87,,,,,,1.32,0.64,1.15*14
$GPGSV,4,1,16,08,15,312,33,10,14,012,39,16,24,230,39,18,32,098,27*7C
$GPGSV,4,2,16,23,01,050,,26,28,200,41,27,50,296,40,28,55,135,35*76
$GPGSV,4,3,16,29,05,147,,31,42,178,41,32,47,002,35,36,52,277,39*76
$GPGSV,4,4,16,40,84,353,42,41,58,082,37,49,32,274,,50,10,089,*7B
$GLGSV,3,1,10,65,28,256,36,71,09,009,32,72,37,325,32,74,13,125,08*67
$GLGSV,3,2,10,75,17,175,,76,00,227,35,84,06,147,,85,49,119,32*62
$GLGSV,3,3,10,86,49,014,31,87,11,346,35*68
$GNGLL,0419.80249,S,05539.63843,E,125004.00,A,A*63
$GNRMC,125005.00,A,0419.80249,S,05539.63845,E,0.013,,200525,,,A*7F
$GNVTG,,T,,M,0.013,N,0.025,K,A*38
$GNGGA,125005.00,0419.80249,S,05539.63845,E,1,12,0.71,7.0,M,-47.6,M,,*7B
$GNGSA,A,3,32,18,10,28,26,16,27,31,08,,,,1.51,0.71,1.34*16
$GNGSA,A,3,85,72,71,86,65,87,,,,,,,1.51,0.71,1.34*15
$GPGSV,4,1,16,08,15,312,37,10,14,012,40,16,24,230,39,18,32,098,27*76
$GPGSV,4,2,16,23,01,050,,26,28,200,41,27,50,296,40,28,55,135,35*76
$GPGSV,4,3,16,29,05,147,,31,42,178,41,32,47,002,34,36,52,277,39*77
$GPGSV,4,4,16,40,84,353,42,41,58,082,37,49,32,274,,50,10,089,*7B
$GLGSV,3,1,10,65,28,256,34,71,09,009,31,72,37,325,33,74,13,125,07*68
$GLGSV,3,2,10,75,17,175,,76,00,227,35,84,06,147,,85,49,119,32*62
$GLGSV,3,3,10,86,49,014,30,87,11,346,34*68
$GNGLL,0419.80249,S,05539.63845,E,125005.00,A,A*64
$GNRMC,125006.00,A,0419.80249,S,05539.63847,E,0.034,,200525,,,A*7B
$GNVTG,,T,,M,0.034,N,0.062,K,A*3E
$GNGGA,125006.00,0419.80249,S,05539.63847,E,1,12,0.71,7.0,M,-47.6,M,,*7A
$GNGSA,A,3,32,18,10,28,26,16,27,31,08,,,,1.51,0.71,1.34*16
$GNGSA,A,3,85,72,71,86,65,87,,,,,,,1.51,0.71,1.34*15
$GPGSV,4,1,16,08,15,312,35,10,14,012,38,16,24,230,39,18,32,098,27*7B
$GPGSV,4,2,16,23,01,050,,26,28,200,41,27,50,296,40,28,55,135,35*76
$GPGSV,4,3,16,29,05,147,,31,42,178,41,32,47,002,34,36,52,277,39*77
$GPGSV,4,4,16,40,84,353,42,41,58,082,37,49,32,274,,50,10,089,*7B
$GLGSV,3,1,10,65,28,256,35,71,09,009,30,72,37,325,33,74,13,125,09*66
$GLGSV,3,2,10,75,17,175,,76,00,227,35,84,06,147,,85,49,119,31*61
$GLGSV,3,3,10,86,49,014,30,87,11,346,31*6D
$GNGLL,0419.80249,S,05539.63847,E,125006.00,A,A*65
$GNRMC,125007.00,A,0419.80252,S,05539.63843,E,0.240,,200525,,,A*75
$GNVTG,,T,,M,0.240,N,0.444,K,A*3F
$GNGGA,125007.00,0419.80252,S,05539.63843,E,1,12,0.71,7.0,M,-47.6,M,,*75
$GNGSA,A,3,32,18,10,28,26,16,27,31,08,,,,1.51,0.71,1.34*16
$GNGSA,A,3,85,72,71,86,65,87,,,,,,,1.51,0.71,1.34*15
$GPGSV,4,1,16,08,15,312,32,10,14,012,40,16,24,230,37,18,32,098,26*7C
$GPGSV,4,2,16,23,01,050,,26,28,200,41,27,50,296,39,28,55,135,35*78
$GPGSV,4,3,16,29,05,147,,31,42,178,42,32,47,002,34,36,52,277,39*74
$GPGSV,4,4,16,40,84,353,42,41,58,082,36,49,32,274,,50,10,089,*7A
$GLGSV,3,1,10,65,28,256,37,71,09,009,29,72,37,325,33,74,13,125,07*62
$GLGSV,3,2,10,75,17,175,,76,00,227,35,84,06,147,,85,49,119,31*61
$GLGSV,3,3,10,86,49,014,32,87,11,346,30*6E
$GNGLL,0419.80252,S,05539.63843,E,125007.00,A,A*6A
$GNRMC,125008.00,A,0419.80255,S,05539.63838,E,0.163,,200525,,,A*73
$GNVTG,,T,,M,0.163,N,0.303,K,A*39
$GNGGA,125008.00,0419.80255,S,05539.63838,E,1,12,0.71,6.9,M,-47.6,M,,*79
$GNGSA,A,3,32,18,10,28,26,16,27,31,08,,,,1.51,0.71,1.34*16
$GNGSA,A,3,85,72,71,86,65,87,,,,,,,1.51,0.71,1.34*15
$GPGSV,4,1,16,08,15,312,26,10,14,012,34,16,24,230,33,18,32,098,24*7C
$GPGSV,4,2,16,23,01,050,,26,28,200,37,27,50,296,36,28,55,135,36*75
$GPGSV,4,3,16,29,05,147,,31,42,178,40,32,47,002,34,36,52,277,38*77
$GPGSV,4,4,16,40,84,353,42,41,58,082,36,49,32,274,,50,10,089,*7A
$GLGSV,3,1,10,65,28,256,36,71,09,009,29,72,37,325,28,74,13,125,08*66
$GLGSV,3,2,10,75,17,175,,76,00,227,35,84,06,147,,85,49,119,35*65
$GLGSV,3,3,10,86,49,014,27,87,11,346,19*61
$GNGLL,0419.80255,S,05539.63838,E,125008.00,A,A*6E
$GNRMC,125009.00,A,0419.80259,S,05539.63837,E,0.153,,200525,,,A*72
