$GNRMC,125239.00,A,0419.80707,S,05539.64476,E,0.026,,200525,,,A*70
$GNVTG,,T,,M,0.026,N,0.049,K,A*34
$GNGGA,125239.00,0419.80707,S,05539.64476,E,1,12,0.70,10.9,M,-47.6,M,,*4C
$GNGSA,A,3,32,18,10,16,27,31,40,41,08,,,,1.29,0.70,1.08*18
$GNGSA,A,3,85,72,71,75,86,65,87,,,,,,1.29,0.70,1.08*16
$GPGSV,4,1,16,08,16,311,33,10,14,013,37,16,24,229,35,18,32,099,15*77
$GPGSV,4,2,16,23,01,051,,26,28,199,15,27,51,294,38,28,56,133,*7A
$GPGSV,4,3,16,29,04,147,,31,43,178,21,32,46,003,35,36,52,277,38*71
$GPGSV,4,4,16,40,84,353,39,41,58,082,30,49,32,274,,50,10,089,*70
$GLGSV,3,1,11,65,28,257,31,66,00,220,,71,08,009,21,72,36,326,23*6E
$GLGSV,3,2,11,74,13,124,10,75,17,174,11,76,00,226,14,84,05,148,*63
$GLGSV,3,3,11,85,48,121,19,86,51,015,30,87,12,346,24*58
$GNGLL,0419.80707,S,05539.64476,E,125239.00,A,A*6D
$GNRMC,125240.00,A,0419.80708,S,05539.64479,E,0.062,,200525,,,A*7E
$GNVTG,,T,,M,0.062,N,0.114,K,A*3D
$GNGGA,125240.00,0419.80708,S,05539.64479,E,1,12,0.68,10.9,M,-47.6,M,,*4B
$GNGSA,A,3,32,18,10,16,27,31,40,41,08,,,,1.25,0.68,1.04*11
$GNGSA,A,3,85,72,71,75,86,65,87,,,,,,1.25,0.68,1.04*1F
$GPGSV,4,1,16,08,16,311,35,10,14,013,37,16,24,229,34,18,32,099,13*76
$GPGSV,4,2,16,23,01,051,,26,28,199,13,27,51,294,40,28,56,133,*73
$GPGSV,4,3,16,29,04,147,,31,43,178,20,32,46,003,33,36,52,277,38*76
$GPGSV,4,4,16,40,84,353,39,41,58,082,30,49,32,274,,50,10,089,*70
$GLGSV,3,1,11,65,28,257,32,66,00,220,,71,08,009,18,72,36,326,23*67
$GLGSV,3,2,11,74,13,124,10,75,17,174,12,76,00,226,11,84,05,148,*65
$GLGSV,3,3,11,85,48,121,18,86,51,015,29,87,12,346,22*57
$GNGLL,0419.80708,S,05539.64479,E,125240.00,A,A*63
$GNRMC,125241.00,A,0419.80710,S,05539.64483,E,0.068,,200525,,,A*79
$GNVTG,,T,,M,0.068,N,0.126,K,A*36
$GNGGA,125241.00,0419.80710,S,05539.64483,E,1,12,0.85,10.8,M,-47.6,M,,*44
$GNGSA,A,3,32,10,16,27,31,40,41,08,,,,,1.50,0.85,1.23*1C
$GNGSA,A,3,85,72,71,75,86,65,87,,,,,,1.50,0.85,1.23*1B
$GPGSV,5,1,17,04,00,220,,08,16,311,38,10,14,013,40,16,24,229,35*74
$GPGSV,5,2,17,18,32,099,,23,01,051,,26,28,199,11,27,51,294,42*73
$GPGSV,5,3,17,28,56,133,,29,04,147,,31,43,178,21,32,46,003,33*74
$GPGSV,5,4,17,36,52,277,40,40,84,353,40,41,58,082,30,49,32,274,*7F
$GPGSV,5,5,17,50,10,089,*4A
$GLGSV,3,1,11,65,28,257,34,66,00,220,,71,08,009,21,72,36,326,25*6D
$GLGSV,3,2,11,74,13,124,08,75,17,174,13,76,00,226,11,84,05,148,*6D
$GLGSV,3,3,11,85,48,121,20,86,51,015,29,87,12,346,23*5D
$GNGLL,0419.80710,S,05539.64483,E,125241.00,A,A*6E
$GNRMC,125242.00,A,0419.80715,S,05539.64489,E,0.073,,200525,,,A*7F
$GNVTG,,T,,M,0.073,N,0.136,K,A*3D
$GNGGA,125242.00,0419.80715,S,05539.64489,E,1,12,0.75,10.8,M,-47.6,M,,*47
$GNGSA,A,3,32,10,26,16,27,31,40,41,08,,,,1.30,0.75,1.06*16
$GNGSA,A,3,85,72,71,75,86,65,87,,,,,,1.30,0.75,1.06*15
$GPGSV,5,1,17,04,00,220,,08,16,311,37,10,14,013,40,16,24,229,37*79
$GPGSV,5,2,17,18,32,099,17,23,01,051,,26,28,199,12,27,51,294,40*74
$GPGSV,5,3,17,28,56,133,,29,04,147,,31,43,178,22,32,46,003,35*71
$GPGSV,5,4,17,36,52,277,39,40,84,353,41,41,58,082,31,49,32,274,*71
$GPGSV,5,5,17,50,10,089,*4A
$GLGSV,3,1,11,65,28,257,35,66,00,220,,71,08,009,21,72,36,326,26*6F
$GLGSV,3,2,11,74,13,124,08,75,17,174,10,76,00,226,11,84,05,148,*6E
$GLGSV,3,3,11,85,48,121,20,86,51,015,31,87,12,346,22*55
$GNGLL,0419.80715,S,05539.64489,E,125242.00,A,A*62
$GNRMC,125243.00,A,0419.80720,S,05539.64493,E,0.182,,200525,,,A*7C
$GNVTG,,T,,M,0.182,N,0.337,K,A*31
$GNGGA,125243.00,0419.80720,S,05539.64493,E,1,12,0.78,10.7,M,-47.6,M,,*49
$GNGSA,A,3,32,10,26,16,27,31,40,41,08,,,,1.34,0.78,1.09*10
$GNGSA,A,3,85,72,71,75,86,65,87,,,,,,1.34,0.78,1.09*13
$GPGSV,5,1,17,04,00,220,,08,16,311,35,10,14,013,39,16,24,229,36*74
$GPGSV,5,2,17,18,32,099,15,23,01,051,,26,28,199,12,27,51,294,40*76
$GPGSV,5,3,17,28,56,133,,29,04,147,,31,43,178,22,32,46,003,34*70
$GPGSV,5,4,17,36,52,277,39,40,84,353,39,41,58,082,27,49,32,274,*79
$GPGSV,5,5,17,50,10,089,*4A
$GLGSV,3,1,11,65,28,257,35,66,00,220,,71,08,009,22,72,36,326,27*6D
$GLGSV,3,2,11,74,13,124,09,75,17,174,11,76,00,226,11,84,05,148,*6E
$GLGSV,3,3,11,85,48,121,20,86,51,015,31,87,12,346,24*53
$GNGLL,0419.80720,S,05539.64493,E,125243.00,A,A*6E
$GNRMC,125244.00,A,0419.80721,S,05539.64496,E,0.060,,200525,,,A*72
$GNVTG,,T,,M,0.060,N,0.112,K,A*39
$GNGGA,125244.00,0419.80721,S,05539.64496,E,1,12,0.85,10.7,M,-47.6,M,,*48
$GNGSA,A,3,32,10,26,16,27,31,40,41,08,,,,1.50,0.85,1.23*18
$GNGSA,A,3,85,72,71,75,86,65,87,,,,,,1.50,0.85,1.23*1B
$GPGSV,5,1,17,04,00,220,,08,16,311,36,10,14,013,40,16,24,229,36*79
$GPGSV,5,2,17,18,32,099,15,23,01,051,,26,28,199,13,27,51,294,40*77
$GPGSV,5,3,17,28,56,133,18,29,04,147,,31,43,178,20,32,46,003,39*76
$GPGSV,5,4,17,36,52,277,38,40,84,353,39,41,58,082,32,49,32,274,*7C
$GPGSV,5,5,17,50,10,089,*4A
$GLGSV,3,1,11,65,28,257,35,66,00,220,,71,08,009,24,72,36,326,29*65
$GLGSV,3,2,11,74,13,124,08,75,17,174,10,76,00,226,09,84,05,148,*67
$GLGSV,3,3,11,85,48,121,20,86,51,015,31,87,12,346,25*52
$GNGLL,0419.80721,S,05539.64496,E,125244.00,A,A*6D
$GNRMC,125245.00,A,0419.80721,S,05539.64498,E,0.229,,200525,,,A*72
$GNVTG,,T,,M,0.229,N,0.424,K,A*36
$GNGGA,125245.00,0419.80721,S,05539.64498,E,1,12,0.75,10.8,M,-47.6,M,,*47
$GNGSA,A,3,32,10,26,16,27,31,40,41,08,,,,1.30,0.75,1.06*16
$GNGSA,A,3,85,72,71,75,86,65,87,,,,,,1.30,0.75,1.06*15
$GPGSV,5,1,17,04,00,220,,08,16,311,37,10,14,013,39,16,24,229,37*77
$GPGSV,5,2,17,18,32,099,14,23,01,051,,26,28,199,14,27,51,294,39*7F
$GPGSV,5,3,17,28,56,133,,29,04,147,,31,43,178,17,32,46,003,41*74
$GPGSV,5,4,17,36,52,277,38,40,84,353,40,41,58,082,32,49,32,274,*72
$GPGSV,5,5,17,50,10,089,*4A
$GLGSV,3,1,11,65,28,257,35,66,00,220,,71,08,009,31,72,36,326,29*61
$GLGSV,3,2,11,74,13,124,08,75,17,174,08,76,00,226,09,84,05,148,*6E
$GLGSV,3,3,11,85,48,121,22,86,51,015,32,87,12,346,26*50
$GNGLL,0419.80721,S,05539.64498,E,125245.00,A,A*62
$GNRMC,125246.00,A,0419.80723,S,05539.64501,E,0.194,,200525,,,A*77
$GNVTG,,T,,M,0.194,N,0.360,K,A*34
$GNGGA,125246.00,0419.80723,S,05539.64501,E,1,12,0.78,10.9,M,-47.6,M,,*4B
$GNGSA,A,3,32,10,26,16,27,31,40,41,08,,,,1.34,0.78,1.09*10
$GNGSA,A,3,85,72,71,75,86,65,87,,,,,,1.34,0.78,1.09*13
$GPGSV,5,1,17,04,00,220,,08,16,311,33,10,14,013,37,16,24,229,38*72
$GPGSV,5,2,17,18,32,099,12,23,01,051,,26,28,199,14,27,51,294,39*79
$GPGSV,5,3,17,28,56,133,,29,04,147,,31,43,178,17,32,46,003,40*75
$GPGSV,5,4,17,36,52,277,38,40,84,353,41,41,58,082,30,49,32,274,*71
$GPGSV,5,5,17,50,10,089,*4A
$GLGSV,3,1,11,65,28,257,35,66,00,220,,71,08,009,30,72,36,326,29*60
$GLGSV,3,2,11,74,13,124,10,75,17,174,11,76,00,226,13,84,05,148,*64
$GLGSV,3,3,11,85,48,121,23,86,51,015,32,87,12,346,26*51
$GNGLL,0419.80723,S,05539.64501,E,125246.00,A,A*62
$GNRMC,125247.00,A,0419.80724,S,05539.64502,E,0.109,,200525,,,A*76
$GNVTG,,T,,M,0.109,N,0.201,K,A*36
$GNGGA,125247.00,0419.80724,S,05539.64502,E,1,12,0.88,10.9,M,-47.6,M,,*41
$GNGSA,A,3,32,18,10,26,16,27,31,40,41,08,,,1.53,0.88,1.25*19
$GNGSA,A,3,85,72,71,75,86,65,87,,,,,,1.53,0.88,1.25*13
$GPGSV,5,1,17,04,00,220,,08,16,311,34,10,14,013,37,16,24,229,38*75
$GPGSV,5,2,17,18,32,099,13,23,01,051,,26,28,199,15,27,51,294,38*78
$GPGSV,5,3,17,28,56,133,,29,04,147,,31,43,178,15,32,46,003,39*79
$GPGSV,5,4,17,36,52,277,38,40,84,353,40,41,58,082,31,49,32,274,*71
$GPGSV,5,5,17,50,10,089,*4A
$GLGSV,3,1,11,65,28,257,35,66,00,220,,71,08,009,30,72,36,326,30*68
$GLGSV,3,2,11,74,13,124,08,75,17,174,08,76,00,226,08,84,05,148,*6F
$GLGSV,3,3,11,85,48,121,23,86,51,015,33,87,12,346,27*51
$GNGLL,0419.80724,S,05539.64502,E,125247.00,A,A*67
$GNRMC,125248.00,A,0419.80726,S,05539.64502,E,0.020,,200525,,,A*71
$GNVTG,,T,,M,0.020,N,0.036,K,A*3A
$GNGGA,125248.00,0419.80726,S,05539.64502,E,1,12,0.78,10.9,M,-47.6,M,,*43
$GNGSA,A,3,32,18,10,26,16,27,31,40,41,08,,,1.34,0.78,1.09*19
$GNGSA,A,3,85,72,71,75,86,65,87,,,,,,1.34,0.78,1.09*13
$GPGSV,5,1,17,04,00,220,,08,16,311,36,10,14,013,40,16,24,229,38*77
$GPGSV,5,2,17,18,32,099,13,23,01,051,,26,28,199,15,27,51,294,38*78
$GPGSV,5,3,17,28,56,133,,29,04,147,,31,43,178,13,32,46,003,35*73
$GPGSV,5,4,17,36,52,277,38,40,84,353,40,41,58,082,28,49,32,274,*79
$GPGSV,5,5,17,50,10,089,*4A
$GLGSV,3,1,11,65,28,257,36,66,00,220,,71,08,009,22,72,36,326,30*68
$GLGSV,3,2,11,74,13,124,08,75,17,174,10,76,00,226,10,84,05,148,*6F
$GLGSV,3,3,11,85,48,121,23,86,51,015,29,87,12,346,27*5A
$GNGLL,0419.80726,S,05539.64502,E,125248.00,A,A*6A
$GNRMC,125249.00,A,0419.80727,S,05539.64500,E,0.047,,200525,,,A*72
$GNVTG,,T,,M,0.047,N,0.088,K,A*3E
$GNGGA,125249.00,0419.80727,S,05539.64500,E,1,12,0.78,10.8,M,-47.6,M,,*40
$GNGSA,A,3,32,18,10,26,16,27,31,40,08,,,,1.34,0.78,1.09*1C
$GNGSA,A,3,85,72,71,75,86,65,87,,,,,,1.34,0.78,1.09*13
$GPGSV,5,1,17,04,00,220,,08,16,311,35,10,14,013,39,16,24,229,38*7A
$GPGSV,5,2,17,18,32,099,12,23,01,051,,26,28,199,14,27,51,294,38*78
$GPGSV,5,3,17,28,56,133,,29,04,147,,31,43,178,11,32,46,003,35*71
$GPGSV,5,4,17,36,52,277,38,40,84,353,40,41,58,082,,49,32,274,*73
$GPGSV,5,5,17,50,10,089,*4A
$GLGSV,3,1,11,65,28,257,37,66,00,220,,71,08,009,20,72,36,326,30*6B
$GLGSV,3,2,11,74,13,124,10,75,17,174,08,76,00,226,09,84,05,148,*67
$GLGSV,3,3,11,85,48,121,23,86,51,015,31,87,12,346,27*53
$GNGLL,0419.80727,S,05539.64500,E,125249.00,A,A*68
$GNRMC,125250.00,A,0419.80727,S,05539.64497,E,0.004,,200525,,,A*72
$GNVTG,,T,,M,0.004,N,0.007,K,A*3E
$GNGGA,125250.00,0419.80727,S,05539.64497,E,1,12,0.97,10.8,M,-47.6,M,,*46
$GNGSA,A,3,32,10,26,16,27,40,08,,,,,,1.60,0.97,1.26*1A
$GNGSA,A,3,85,72,71,75,86,74,65,87,,,,,1.60,0.97,1.26*1D
$GPGSV,5,1,17,04,00,220,,08,16,311,38,10,14,013,38,16,24,229,38*76
$GPGSV,5,2,17,18,32,099,,23,01,051,,26,28,199,15,27,51,294,38*7A
$GPGSV,5,3,17,28,56,133,,29,04,147,,31,43,178,,32,46,003,38*7C
$GPGSV,5,4,17,36,52,277,38,40,84,353,40,41,58,082,,49,32,274,*73
$GPGSV,5,5,17,50,10,089,*4A
$GLGSV,3,1,11,65,28,257,37,66,00,220,,71,08,009,18,72,36,326,31*61
$GLGSV,3,2,11,74,13,124,08,75,17,174,12,76,00,226,08,84,05,148,*64
$GLGSV,3,3,11,85,48,121,23,86,51,015,31,87,12,346,28*5C
$GNGLL,0419.80727,S,05539.64497,E,125250.00,A,A*6F
$GNRMC,125251.00,A,0419.80728,S,05539.64497,E,0.039,,200525,,,A*72
$GNVTG,,T,,M,0.039,N,0.073,K,A*33
$GNGGA,125251.00,0419.80728,S,05539.64497,E,1,12,0.70,10.8,M,-47.6,M,,*41
$GNGSA,A,3,32,10,26,16,27,40,08,,,,,,1.24,0.70,1.02*15
$GNGSA,A,3,85,72,71,75,86,74,65,87,,,,,1.24,0.70,1.02*12
$GPGSV,5,1,17,04,00,220,,08,16,311,34,10,14,013,38,16,24,229,38*7A
$GPGSV,5,2,17,18,32,099,,23,01,051,,26,28,199,14,27,51,294,37*74
$GPGSV,5,3,17,28,56,133,,29,04,147,,31,43,178,,32,46,003,38*7C
$GPGSV,5,4,17,36,52,277,38,40,84,353,40,41,58,082,,49,32,274,*73
$GPGSV,5,5,17,50,10,089,*4A
$GLGSV,3,1,11,65,28,257,38,66,00,220,,71,08,009,21,72,36,326,31*64
$GLGSV,3,2,11,74,13,124,09,75,17,174,13,76,00,226,10,84,05,148,*6D
$GLGSV,3,3,11,85,48,121,23,86,51,015,31,87,12,346,29*5D
$GNGLL,0419.80728,S,05539.64497,E,125251.00,A,A*61
$GNRMC,125252.00,A,0419.80729,S,05539.64496,E,0.256,,200525,,,A*7A
$GNVTG,,T,,M,0.256,N,0.474,K,A*3B
$GNGGA,125252.00,0419.80729,S,05539.64496,E,1,12,0.81,10.8,M,-47.6,M,,*4C
$GNGSA,A,3,32,10,26,16,27,40,08,,,,,,1.36,0.81,1.09*13
$GNGSA,A,3,85,72,71,75,86,65,87,,,,,,1.36,0.81,1.09*17
$GPGSV,5,1,17,04,00,220,,08,16,311,37,10,14,013,38,16,24,229,38*79
$GPGSV,5,2,17,18,32,099,,23,01,051,,26,28,199,15,27,51,294,37*75
$GPGSV,5,3,17,28,56,133,,29,04,147,,31,43,178,,32,46,003,38*7C
$GPGSV,5,4,17,36,52,277,38,40,84,353,40,41,58,082,,49,32,274,*73
$GPGSV,5,5,17,50,10,089,*4A
$GLGSV,3,1,11,65,28,257,37,66,00,220,,71,08,009,21,72,36,326,31*6B
$GLGSV,3,2,11,74,13,124,07,75,17,174,12,76,00,226,10,84,05,148,*62
$GLGSV,3,3,11,85,48,121,23,86,51,015,31,87,12,346,28*5C
$GNGLL,0419.80729,S,05539.64496,E,125252.00,A,A*62
$GNRMC,125253.00,A,0419.80728,S,05539.64495,E,0.027,,200525,,,A*7D
$GNVTG,,T,,M,0.027,N,0.050,K,A*3D
$GNGGA,125253.00,0419.80728,S,05539.64495,E,1,12,0.81,10.8,M,-47.6,M,,*4F
$GNGSA,A,3,32,10,26,16,27,40,08,,,,,,1.36,0.81,1.09*13
$GNGSA,A,3,85,72,71,75,86,65,87,,,,,,1.36,0.81,1.09*17
$GPGSV,5,1,17,04,00,220,,08,16,311,33,10,14,013,38,16,24,228,38*7C
$GPGSV,5,2,17,18,32,099,,23,01,051,,26,28,199,15,27,51,294,37*75
$GPGSV,5,3,17,28,56,133,,29,04,147,,31,43,178,,32,46,003,38*7C
$GPGSV,5,4,17,36,52,277,38,40,84,353,41,41,58,082,,49,32,274,*72
$GPGSV,5,5,17,50,10,089,*4A
$GLGSV,3,1,11,65,28,257,37,66,00,220,,71,08,009,19,72,36,326,32*63
$GLGSV,3,2,11,74,13,124,09,75,17,174,10,76,00,226,09,84,05,148,*66
$GLGSV,3,3,11,85,48,121,23,86,51,015,30,87,12,346,30*54
$GNGLL,0419.80728,S,05539.64495,E,125253.00,A,A*61
$GNRMC,125254.00,A,0419.80724,S,05539.64489,E,0.084,,200525,,,A*72
$GNVTG,,T,,M,0.084,N,0.155,K,A*30
$GNGGA,125254.00,0419.80724,S,05539.64489,E,1,12,0.81,10.8,M,-47.6,M,,*49
$GNGSA,A,3,32,10,26,16,27,40,08,,,,,,1.36,0.81,1.09*13
$GNGSA,A,3,85,72,71,75,86,65,87,,,,,,1.36,0.81,1.09*17
$GPGSV,5,1,17,04,00,220,,08,16,311,35,10,14,013,38,16,24,228,38*7A
$GPGSV,5,2,17,18,32,099,,23,01,051,,26,28,199,15,27,51,294,37*75
$GPGSV,5,3,17,28,56,133,,29,04,147,,31,43,178,,32,46,003,38*7C
$GPGSV,5,4,17,36,52,277,38,40,84,353,40,41,58,082,,49,32,274,*73
$GPGSV,5,5,17,50,10,089,*4A
$GLGSV,3,1,11,65,28,257,37,66,00,220,,71,08,009,16,72,36,326,32*6C
$GLGSV,3,2,11,74,13,124,09,75,17,174,13,76,00,226,09,84,05,148,*65
$GLGSV,3,3,11,85,48,121,23,86,51,015,30,87,12,346,30*54
$GNGLL,0419.80724,S,05539.64489,E,125254.00,A,A*67
$GNRMC,125255.00,A,0419.80723,S,05539.64488,E,0.196,,200525,,,A*77
$GNVTG,,T,,M,0.196,N,0.363,K,A*35
$GNGGA,125255.00,0419.80723,S,05539.64488,E,1,12,0.81,10.7,M,-47.6,M,,*41
$GNGSA,A,3,32,10,26,16,27,40,08,,,,,,1.36,0.81,1.09*13
$GNGSA,A,3,85,72,71,75,86,65,87,,,,,,1.36,0.81,1.09*17
$GPGSV,5,1,17,04,00,220,,08,16,311,36,10,14,013,38,16,24,228,38*79
$GPGSV,5,2,17,18,32,100,,23,01,051,,26,28,199,16,27,51,294,40*77
$GPGSV,5,3,17,28,56,133,,29,04,147,,31,43,178,,32,46,003,38*7C
$GPGSV,5,4,17,36,52,277,39,40,84,353,41,41,58,082,,49,32,274,*73
$GPGSV,5,5,17,50,10,089,*4A
$GLGSV,3,1,11,65,28,257,37,66,00,220,,71,08,009,22,72,36,326,26*6E
$GLGSV,3,2,11,74,13,124,09,75,17,174,12,76,00,226,07,84,05,148,*6A
$GLGSV,3,3,11,85,48,121,23,86,51,015,31,87,12,346,33*56
$GNGLL,0419.80723,S,05539.64488,E,125255.00,A,A*60
$GNRMC,125256.00,A,0419.80724,S,05539.64490,E,0.083,,200525,,,A*7F
$GNVTG,,T,,M,0.083,N,0.154,K,A*36
$GNGGA,125256.00,0419.80724,S,05539.64490,E,1,12,0.97,10.7,M,-47.6,M,,*4B
$GNGSA,A,3,32,10,26,16,27,40,08,,,,,,1.60,0.97,1.26*1A
$GNGSA,A,3,85,72,71,75,86,65,87,,,,,,1.60,0.97,1.26*1E
$GPGSV,5,1,17,04,00,220,,08,16,311,35,10,14,013,39,16,24,228,37*74
$GPGSV,5,2,17,18,32,100,,23,01,051,,26,28,199,16,27,51,294,40*77
$GPGSV,5,3,17,28,56,133,,29,04,147,,31,43,178,,32,46,003,38*7C
$GPGSV,5,4,17,36,52,277,39,40,84,353,41,41,58,082,27,49,32,274,*76
$GPGSV,5,5,17,50,10,089,*4A
$GLGSV,3,1,11,65,28,257,37,66,00,220,,71,08,009,25,72,36,326,27*68
$GLGSV,3,2,11,74,13,124,09,75,17,174,10,76,00,226,13,84,05,148,*6D
$GLGSV,3,3,11,85,48,121,23,86,51,015,32,87,12,346,32*54
$GNGLL,0419.80724,S,05539.64490,E,125256.00,A,A*6D
$GNRMC,125257.00,A,0419.80723,S,05539.64491,E,0.012,,200525,,,A*70
$GNVTG,,T,,M,0.012,N,0.021,K,A*3D
$GNGGA,125257.00,0419.80723,S,05539.64491,E,1,12,0.81,10.6,M,-47.6,M,,*4A
$GNGSA,A,3,32,10,26,16,27,40,41,08,,,,,1.36,0.81,1.09*16
$GNGSA,A,3,85,72,71,75,86,65,87,,,,,,1.36,0.81,1.09*17
$GPGSV,5,1,17,04,00,220,,08,16,311,35,10,14,013,39,16,24,228,37*74
$GPGSV,5,2,17,18,32,100,,23,01,051,,26,28,199,16,27,51,294,40*77
$GPGSV,5,3,17,28,56,133,,29,04,147,,31,43,178,,32,46,003,38*7C
$GPGSV,5,4,17,36,52,277,38,40,84,353,41,41,58,082,30,49,32,274,*71
$GPGSV,5,5,17,50,10,089,*4A
$GLGSV,3,1,11,65,28,257,37,66,00,220,,71,08,009,26,72,36,326,27*6B
$GLGSV,3,2,11,74,13,124,09,75,17,174,10,76,00,226,11,84,05,148,*6F
$GLGSV,3,3,11,85,48,121,23,86,51,015,32,87,12,346,32*54
$GNGLL,0419.80723,S,05539.64491,E,125257.00,A,A*6A
$GNRMC,125258.00,A,0419.80725,S,05539.64494,E,0.100,,200525,,,A*7E
$GNVTG,,T,,M,0.100,N,0.185,K,A*30
$GNGGA,125258.00,0419.80725,S,05539.64494,E,1,12,0.81,10.5,M,-47.6,M,,*45
$GNGSA,A,3,32,10,26,16,27,40,41,08,,,,,1.36,0.81,1.09*16
$GNGSA,A,3,85,72,71,75,86,65,87,,,,,,1.36,0.81,1.09*17
$GPGSV,5,1,17,04,00,220,,08,16,311,35,10,14,013,38,16,24,228,36*74
$GPGSV,5,2,17,18,32,100,,23,01,051,,26,28,199,16,27,51,294,38*78
$GPGSV,5,3,17,28,56,133,,29,04,147,,31,43,178,,32,46,003,33*77
$GPGSV,5,4,17,36,52,277,39,40,84,353,42,41,58,082,30,49,32,274,*73
$GPGSV,5,5,17,50,10,089,*4A
$GLGSV,3,1,11,65,28,257,34,66,00,220,,71,08,009,24,72,36,326,32*6E
$GLGSV,3,2,11,74,13,124,06,75,17,174,11,76,00,226,11,84,05,148,*61
$GLGSV,3,3,11,85,48,121,23,86,51,015,32,87,12,346,25*52
$GNGLL,0419.80725,S,05539.64494,E,125258.00,A,A*66
$GNRMC,125259.00,A,0419.80726,S,05539.64497,E,0.204,,200525,,,A*78
$GNVTG,,T,,M,0.204,N,0.378,K,A*37
$GNGGA,125259.00,0419.80726,S,05539.64497,E,1,12,0.97,10.5,M,-47.6,M,,*43
$GNGSA,A,3,32,10,26,16,27,40,41,08,,,,,1.60,0.97,1.26*1F
$GNGSA,A,3,85,72,71,75,86,65,87,,,,,,1.60,0.97,1.26*1E
$GPGSV,5,1,17,04,00,220,,08,16,311,33,10,14,013,39,16,24,228,36*73
$GPGSV,5,2,17,18,32,100,,23,01,051,,26,28,199,15,27,51,294,38*7B
$GPGSV,5,3,17,28,56,133,,29,04,147,,31,43,178,20,32,46,003,39*7F
$GPGSV,5,4,17,36,52,277,39,40,84,353,40,41,58,082,34,49,32,274,*75
$GPGSV,5,5,17,50,10,089,*4A
$GLGSV,3,1,11,65,28,257,34,66,00,220,,71,08,009,23,72,36,326,31*6A
$GLGSV,3,2,11,74,13,124,07,75,17,174,10,76,00,226,11,84,05,148,*61
$GLGSV,3,3,11,85,48,121,22,86,51,015,27,87,12,346,25*57
$GNGLL,0419.80726,S,05539.64497,E,125259.00,A,A*67
$GNRMC,125300.00,A,0419.80727,S,05539.64497,E,0.358,,200525,,,A*7C
$GNVTG,,T,,M,0.358,N,0.663,K,A*30
$GNGGA,125300.00,0419.80727,S,05539.64497,E,1,12,0.77,10.3,M,-47.6,M,,*47
$GNGSA,A,3,32,10,26,16,27,40,41,08,,,,,1.31,0.77,1.06*17
$GNGSA,A,3,85,72,71,75,86,65,87,,,,,,1.31,0.77,1.06*16
$GPGSV,5,1,17,04,00,220,,08,16,311,36,10,14,013,39,16,24,228,36*76
$GPGSV,5,2,17,18,32,100,15,23,01,051,,26,28,199,15,27,51,294,40*70
$GPGSV,5,3,17,28,56,133,,29,04,147,,31,43,178,19,32,46,003,31*7D
$GPGSV,5,4,17,36,52,277,39,40,84,353,41,41,58,082,30,49,32,274,*70
$GPGSV,5,5,17,50,10,089,*4A
$GLGSV,3,1,11,65,28,257,34,66,00,220,,71,08,009,24,72,36,326,30*6C
$GLGSV,3,2,11,74,13,124,09,75,17,174,12,76,00,226,11,84,05,148,*6D
$GLGSV,3,3,11,85,48,121,21,86,51,015,27,87,12,346,27*56
$GNGLL,0419.80727,S,05539.64497,E,125300.00,A,A*6B
$GNRMC,125301.00,A,0419.80726,S,05539.64496,E,0.184,,200525,,,A*7E
$GNVTG,,T,,M,0.184,N,0.341,K,A*36
$GNGGA,125301.00,0419.80726,S,05539.64496,E,1,12,0.77,10.2,M,-47.6,M,,*47
$GNGSA,A,3,32,10,26,16,27,40,41,08,,,,,1.31,0.77,1.06*17
$GNGSA,A,3,85,72,71,75,86,65,87,,,,,,1.31,0.77,1.06*16
$GPGSV,5,1,17,04,00,220,,08,16,311,36,10,14,013,38,16,24,228,36*77
$GPGSV,5,2,17,18,32,100,14,23,01,051,,26,28,199,16,27,51,294,40*72
$GPGSV,5,3,17,28,56,133,,29,04,147,,31,43,178,18,32,46,003,35*78
$GPGSV,5,4,17,36,52,277,39,40,84,353,41,41,58,082,30,49,32,274,*70
$GPGSV,5,5,17,50,10,089,*4A
$GLGSV,3,1,11,65,28,257,35,66,00,220,,71,08,009,26,72,36,326,29*67
$GLGSV,3,2,11,74,13,124,10,75,17,174,09,76,00,226,11,84,05,148,*6F
$GLGSV,3,3,11,85,48,121,21,86,51,015,32,87,12,346,32*56
$GNGLL,0419.80726,S,05539.64496,E,125301.00,A,A*6A
$GNRMC,125302.00,A,0419.80729,S,05539.64503,E,0.356,,200525,,,A*72
$GNVTG,,T,,M,0.356,N,0.660,K,A*3D
$GNGGA,125302.00,0419.80729,S,05539.64503,E,1,12,0.97,10.2,M,-47.6,M,,*48
$GNGSA,A,3,32,10,26,16,27,40,41,08,,,,,1.60,0.97,1.26*1F
$GNGSA,A,3,85,72,71,75,86,65,87,,,,,,1.60,0.97,1.26*1E
$GPGSV,5,1,17,04,00,220,,08,16,311,34,10,14,013,37,16,24,228,36*7A
$GPGSV,5,2,17,18,32,100,14,23,01,051,,26,28,198,17,27,51,294,40*72
$GPGSV,5,3,17,28,56,133,,29,04,147,,31,43,178,,32,46,003,39*7D
$GPGSV,5,4,17,36,52,277,39,40,84,353,41,41,58,082,28,49,32,274,*79
$GPGSV,5,5,17,50,10,089,*4A
$GLGSV,3,1,11,65,28,257,35,66,00,220,,71,08,009,31,72,36,326,29*61
$GLGSV,3,2,11,74,13,124,07,75,17,174,14,76,00,226,11,84,05,148,*65
$GLGSV,3,3,11,85,48,121,21,86,51,015,33,87,12,346,26*52
$GNGLL,0419.80729,S,05539.64503,E,125302.00,A,A*6B
$GNRMC,125303.00,A,0419.80732,S,05539.64508,E,0.048,,200525,,,A*7E
$GNVTG,,T,,M,0.048,N,0.089,K,A*30
$GNGGA,125303.00,0419.80732,S,05539.64508,E,1,12,0.70,10.3,M,-47.6,M,,*40
$GNGSA,A,3,32,10,26,16,27,40,41,08,,,,,1.24,0.70,1.02*10
$GNGSA,A,3,85,72,71,75,86,74,65,87,,,,,1.24,0.70,1.02*12
$GPGSV,5,1,17,04,00,220,,08,16,311,34,10,14,013,37,16,24,228,36*7A
$GPGSV,5,2,17,18,32,100,14,23,01,051,,26,28,198,16,27,51,293,41*75
$GPGSV,5,3,17,28,56,133,,29,04,147,,31,43,178,,32,46,003,39*7D
$GPGSV,5,4,17,36,52,277,39,40,84,353,41,41,58,082,27,49,32,274,*76
$GPGSV,5,5,17,50,10,089,*4A
$GLGSV,3,1,11,65,28,257,35,66,00,220,,71,08,009,31,72,36,326,29*61
$GLGSV,3,2,11,74,13,124,09,75,17,174,11,76,00,226,09,84,05,148,*67
$GLGSV,3,3,11,85,48,121,21,86,51,015,32,87,12,346,26*53
$GNGLL,0419.80732,S,05539.64508,E,125303.00,A,A*6B
$GNRMC,125304.00,A,0419.80735,S,05539.64513,E,0.027,,200525,,,A*7D
$GNVTG,,T,,M,0.027,N,0.050,K,A*3D
$GNGGA,125304.00,0419.80735,S,05539.64513,E,1,12,0.68,10.3,M,-47.6,M,,*43
$GNGSA,A,3,32,10,26,16,27,40,08,,,,,,1.23,0.68,1.02*1B
$GNGSA,A,3,85,72,71,75,86,74,65,87,,,,,1.23,0.68,1.02*1C
$GPGSV,5,1,17,04,00,220,,08,16,311,35,10,14,013,37,16,24,228,36*7B
$GPGSV,5,2,17,18,32,100,13,23,01,051,,26,28,198,16,27,51,293,40*73
$GPGSV,5,3,17,28,56,132,,29,04,147,,31,43,178,,32,46,003,39*7C
$GPGSV,5,4,17,36,52,277,39,40,84,353,41,41,58,082,,49,32,274,*73
$GPGSV,5,5,17,50,10,089,*4A
$GLGSV,3,1,11,65,28,257,35,66,00,220,,71,08,009,31,72,36,326,29*61
$GLGSV,3,2,11,74,13,124,08,75,17,174,11,76,00,226,07,84,05,148,*68
$GLGSV,3,3,11,85,48,121,21,86,51,015,32,87,12,346,26*53
$GNGLL,0419.80735,S,05539.64513,E,125304.00,A,A*61
$GNRMC,125305.00,A,0419.80737,S,05539.64518,E,0.202,,200525,,,A*70
$GNVTG,,T,,M,0.202,N,0.375,K,A*3C
$GNGGA,125305.00,0419.80737,S,05539.64518,E,1,12,0.69,10.4,M,-47.6,M,,*4D
$GNGSA,A,3,32,18,10,26,16,27,40,08,,,,,1.28,0.69,1.08*12
$GNGSA,A,3,85,72,71,75,86,65,87,,,,,,1.28,0.69,1.08*1F
$GPGSV,5,1,17,04,00,220,,08,16,311,35,10,14,013,37,16,24,228,36*7B
$GPGSV,5,2,17,18,32,100,14,23,01,051,,26,28,198,17,27,51,293,41*74
$GPGSV,5,3,17,28,56,132,,29,03,147,,31,43,178,18,32,46,003,39*72
$GPGSV,5,4,17,36,52,277,39,40,84,353,41,41,58,082,,49,32,274,*73
$GPGSV,5,5,17,50,10,089,*4A
$GLGSV,3,1,11,65,28,257,35,66,00,220,,71,08,009,30,72,36,326,30*68
$GLGSV,3,2,11,74,13,124,09,75,17,174,11,76,00,226,08,84,05,148,*66
$GLGSV,3,3,11,85,48,121,22,86,51,015,32,87,12,346,27*51
$GNGLL,0419.80737,S,05539.64518,E,125305.00,A,A*69
$GNRMC,125306.00,A,0419.80740,S,05539.64521,E,0.304,,200525,,,A*7E
$GNVTG,,T,,M,0.304,N,0.563,K,A*3A
$GNGGA,125306.00,0419.80740,S,05539.64521,E,1,12,0.69,10.4,M,-47.6,M,,*44
$GNGSA,A,3,32,18,10,26,16,27,40,08,,,,,1.28,0.69,1.08*12
$GNGSA,A,3,85,72,71,75,86,65,87,,,,,,1.28,0.69,1.08*1F
$GPGSV,5,1,17,04,00,220,,08,16,311,34,10,14,013,36,16,24,228,36*7B
$GPGSV,5,2,17,18,32,100,15,23,01,051,,26,28,198,17,27,51,293,40*74
$GPGSV,5,3,17,28,56,132,,29,03,147,,31,43,178,17,32,46,003,39*7D
$GPGSV,5,4,17,36,52,277,39,40,84,353,41,41,58,082,,49,32,274,*73
$GPGSV,5,5,17,50,10,089,*4A
$GLGSV,3,1,11,65,28,257,35,66,00,220,,71,08,009,29,72,36,326,30*60
$GLGSV,3,2,11,74,13,124,07,75,17,174,11,76,00,226,09,84,05,148,*69
$GLGSV,3,3,11,85,48,121,21,86,51,015,31,87,12,346,28*5E
$GNGLL,0419.80740,S,05539.64521,E,125306.00,A,A*60
$GNRMC,125307.00,A,0419.80742,S,05539.64522,E,0.114,,200525,,,A*7D
$GNVTG,,T,,M,0.114,N,0.211,K,A*3B
$GNGGA,125307.00,0419.80742,S,05539.64522,E,1,12,0.69,10.5,M,-47.6,M,,*45
$GNGSA,A,3,32,18,10,26,16,27,40,08,,,,,1.28,0.69,1.08*12
$GNGSA,A,3,85,72,71,75,86,65,87,,,,,,1.28,0.69,1.08*1F
$GPGSV,5,1,17,04,00,220,,08,16,311,34,10,14,013,37,16,24,228,36*7A
$GPGSV,5,2,17,18,32,100,15,23,01,051,,26,28,198,18,27,51,293,40*7B
$GPGSV,5,3,17,28,56,132,,29,03,147,,31,44,177,17,32,46,003,38*74
$GPGSV,5,4,17,36,52,277,40,40,84,353,41,41,58,082,,49,32,274,*7D
$GPGSV,5,5,17,50,10,089,*4A
$GLGSV,3,1,11,65,28,257,36,66,00,220,,71,08,009,29,72,36,326,30*63
$GLGSV,3,2,11,74,13,124,09,75,17,174,13,76,00,226,12,84,05,148,*6F
$GLGSV,3,3,11,85,48,121,21,86,51,015,31,87,12,346,27*51
$GNGLL,0419.80742,S,05539.64522,E,125307.00,A,A*60
$GNRMC,125308.00,A,0419.80744,S,05539.64524,E,0.048,,200525,,,A*7A
$GNVTG,,T,,M,0.048,N,0.090,K,A*38
$GNGGA,125308.00,0419.80744,S,05539.64524,E,1,12,0.76,10.4,M,-47.6,M,,*45
$GNGSA,A,3,32,18,10,26,16,27,31,40,08,,,,1.43,0.76,1.21*18
$GNGSA,A,3,85,72,71,75,86,65,87,,,,,,1.43,0.76,1.21*17
$GPGSV,5,1,17,04,00,220,,08,16,311,31,10,14,013,37,16,24,228,35*7C
$GPGSV,5,2,17,18,32,100,16,23,01,051,,26,28,198,18,27,51,293,41*79
$GPGSV,5,3,17,28,56,132,,29,03,147,,31,44,177,18,32,45,003,38*78
$GPGSV,5,4,17,36,52,277,40,40,84,353,41,41,58,082,,49,32,274,*7D
$GPGSV,5,5,17,50,10,089,*4A
$GLGSV,3,1,11,65,28,257,35,66,00,220,,71,08,009,29,72,36,326,31*61
$GLGSV,3,2,11,74,13,124,07,75,17,174,10,76,00,226,10,84,05,148,*60
$GLGSV,3,3,11,85,48,121,21,86,51,015,31,87,12,346,25*53
$GNGLL,0419.80744,S,05539.64524,E,125308.00,A,A*6F
$GNRMC,125309.00,A,0419.80743,S,05539.64522,E,0.048,,200525,,,A*7A
$GNVTG,,T,,M,0.048,N,0.089,K,A*30
$GNGGA,125309.00,0419.80743,S,05539.64522,E,1,12,0.67,10.3,M,-47.6,M,,*42
$GNGSA,A,3,32,18,10,26,16,27,31,40,08,,,,1.27,0.67,1.07*1E
$GNGSA,A,3,85,72,71,75,86,65,87,,,,,,1.27,0.67,1.07*11
$GPGSV,5,1,17,04,00,220,,08,16,311,32,10,14,013,37,16,24,228,34*7E
$GPGSV,5,2,17,18,32,100,15,23,01,051,,26,28,198,19,27,51,293,41*7B
$GPGSV,5,3,17,28,56,132,,29,03,147,,31,44,177,19,32,45,003,37*76
$GPGSV,5,4,17,36,52,277,40,40,84,353,41,41,58,082,,49,32,274,*7D
$GPGSV,5,5,17,50,10,089,*4A
$GLGSV,3,1,11,65,28,257,35,66,00,220,,71,08,009,29,72,36,326,31*61
$GLGSV,3,2,11,74,13,124,10,75,17,174,11,76,00,226,09,84,05,148,*6F
$GLGSV,3,3,11,85,48,121,21,86,51,015,30,87,12,346,25*52
$GNGLL,0419.80743,S,05539.64522,E,125309.00,A,A*6F
$GNRMC,125310.00,A,0419.80745,S,05539.64525,E,0.023,,200525,,,A*7E
$GNVTG,,T,,M,0.023,N,0.042,K,A*3A
$GNGGA,125310.00,0419.80745,S,05539.64525,E,1,12,0.67,10.3,M,-47.6,M,,*4B
$GNGSA,A,3,32,18,10,26,16,27,31,40,08,,,,1.27,0.67,1.07*1E
$GNGSA,A,3,85,72,71,75,86,65,87,,,,,,1.27,0.67,1.07*11
$GPGSV,5,1,17,04,00,220,,08,16,311,33,10,14,013,37,16,24,228,35*7E
$GPGSV,5,2,17,18,32,100,14,23,01,051,,26,28,198,18,27,51,293,41*7B
$GPGSV,5,3,17,28,56,132,,29,03,147,,31,44,177,20,32,45,003,38*73
$GPGSV,5,4,17,36,52,277,40,40,84,353,41,41,58,082,,49,32,274,*7D
$GPGSV,5,5,17,50,10,089,*4A
$GLGSV,3,1,11,65,28,257,35,66,00,220,,71,08,009,28,72,36,326,31*60
$GLGSV,3,2,11,74,13,124,12,75,17,174,12,76,00,226,13,84,05,148,*65
$GLGSV,3,3,11,85,48,121,21,86,51,015,31,87,12,346,23*55
$GNGLL,0419.80745,S,05539.64525,E,125310.00,A,A*66
$GNRMC,125311.00,A,0419.80746,S,05539.64526,E,0.031,,200525,,,A*7C
$GNVTG,,T,,M,0.031,N,0.057,K,A*3D
$GNGGA,125311.00,0419.80746,S,05539.64526,E,1,12,0.72,10.3,M,-47.6,M,,*4E
$GNGSA,A,3,32,18,10,26,16,27,31,40,08,,,,1.37,0.72,1.17*1A
$GNGSA,A,3,85,72,71,75,86,74,65,87,,,,,1.37,0.72,1.17*16
$GPGSV,5,1,17,04,00,220,,08,16,311,33,10,14,013,37,16,24,228,35*7E
$GPGSV,5,2,17,18,32,100,15,23,01,051,,26,28,198,19,27,51,293,41*7B
$GPGSV,5,3,17,28,56,132,,29,03,147,,31,44,177,20,32,45,003,38*73
$GPGSV,5,4,17,36,52,277,40,40,84,353,40,41,58,082,,49,32,274,*7C
$GPGSV,5,5,17,50,10,089,*4A
$GLGSV,3,1,11,65,28,257,35,66,00,220,,71,08,009,28,72,36,326,31*60
$GLGSV,3,2,11,74,13,124,07,75,17,174,10,76,00,226,09,84,05,148,*68
$GLGSV,3,3,11,85,48,121,21,86,51,015,30,87,12,346,23*54
$GNGLL,0419.80746,S,05539.64526,E,125311.00,A,A*67
$GNRMC,125312.00,A,0419.80747,S,05539.64529,E,0.096,,200525,,,A*7C
$GNVTG,,T,,M,0.096,N,0.178,K,A*3C
$GNGGA,125312.00,0419.80747,S,05539.64529,E,1,12,0.62,10.3,M,-47.6,M,,*42
$GNGSA,A,3,32,18,10,26,16,27,31,40,08,,,,1.18,0.62,1.01*11
$GNGSA,A,3,85,72,71,75,86,74,65,87,,,,,1.18,0.62,1.01*1D
$GPGSV,5,1,17,04,00,220,,08,16,311,33,10,14,013,37,16,24,228,35*7E
$GPGSV,5,2,17,18,32,100,16,23,01,051,,26,28,198,19,27,51,293,41*78
$GPGSV,5,3,17,28,56,132,,29,03,147,,31,44,177,20,32,45,003,38*73
$GPGSV,5,4,17,36,52,277,40,40,84,353,41,41,58,082,,49,32,274,*7D
$GPGSV,5,5,17,50,10,089,*4A
$GLGSV,3,1,11,65,28,257,35,66,00,220,,71,08,009,29,72,36,326,30*60
$GLGSV,3,2,11,74,13,124,07,75,17,174,09,76,00,226,10,84,05,148,*68
$GLGSV,3,3,11,85,48,121,20,86,51,015,31,87,12,346,23*54
$GNGLL,0419.80747,S,05539.64529,E,125312.00,A,A*6A
$GNRMC,125313.00,A,0419.80750,S,05539.64534,E,0.065,,200525,,,A*7B
$GNVTG,,T,,M,0.065,N,0.121,K,A*3C
$GNGGA,125313.00,0419.80750,S,05539.64534,E,1,12,0.62,10.3,M,-47.6,M,,*49
$GNGSA,A,3,32,18,10,26,16,27,31,40,08,,,,1.18,0.62,1.01*11
$GNGSA,A,3,85,72,71,75,86,74,65,87,,,,,1.18,0.62,1.01*1D
$GPGSV,5,1,17,04,00,220,,08,16,311,34,10,14,013,38,16,24,228,35*76
$GPGSV,5,2,17,18,32,100,17,23,01,051,,26,28,198,18,27,51,293,41*78
$GPGSV,5,3,17,28,56,132,,29,03,147,,31,44,177,20,32,45,003,38*73
$GPGSV,5,4,17,36,52,277,40,40,84,353,41,41,58,082,,49,32,274,*7D
$GPGSV,5,5,17,50,10,089,*4A
$GLGSV,3,1,11,65,28,257,35,66,00,220,,71,08,009,29,72,36,326,30*60
$GLGSV,3,2,11,74,13,124,09,75,17,174,08,76,00,226,08,84,05,148,*6E
$GLGSV,3,3,11,85,48,121,20,86,51,015,31,87,12,346,24*53
$GNGLL,0419.80750,S,05539.64534,E,125313.00,A,A*61
$GNRMC,125314.00,A,0419.80752,S,05539.64537,E,0.155,,200525,,,A*7F
$GNVTG,,T,,M,0.155,N,0.286,K,A*30
$GNGGA,125314.00,0419.80752,S,05539.64537,E,1,12,0.72,10.3,M,-47.6,M,,*4E
$GNGSA,A,3,32,18,10,26,16,27,31,40,08,,,,1.37,0.72,1.17*1A
$GNGSA,A,3,85,72,71,75,86,65,87,,,,,,1.37,0.72,1.17*15
$GPGSV,5,1,17,04,00,220,,08,16,311,33,10,14,013,37,16,24,228,36*7D
$GPGSV,5,2,17,18,32,100,18,23,01,051,,26,28,198,18,27,51,293,41*77
$GPGSV,5,3,17,28,56,132,,29,03,147,,31,44,177,19,32,45,003,37*76
$GPGSV,5,4,17,36,52,277,40,40,84,353,40,41,58,082,,49,32,274,*7C
$GPGSV,5,5,17,50,10,089,*4A
$GLGSV,3,1,11,65,28,257,35,66,00,220,,71,08,009,27,72,36,326,30*6E
$GLGSV,3,2,11,74,13,124,10,75,17,174,12,76,00,226,11,84,05,148,*65
$GLGSV,3,3,11,85,48,121,19,86,51,015,30,87,12,346,23*5F
$GNGLL,0419.80752,S,05539.64537,E,125314.00,A,A*67
$GNRMC,125315.00,A,0419.80752,S,05539.64537,E,0.034,,200525,,,D*7D
$GNVTG,,T,,M,0.034,N,0.063,K,D*3A
$GNGGA,125315.00,0419.80752,S,05539.64537,E,2,12,0.67,10.3,M,-47.6,M,,0000*48
$GNGSA,A,3,32,18,10,26,16,27,31,40,08,,,,1.27,0.67,1.07*1E
$GNGSA,A,3,85,72,71,75,86,65,87,,,,,,1.27,0.67,1.07*11
$GPGSV,5,1,17,04,00,220,,08,16,311,35,10,14,013,37,16,24,228,36*7B
$GPGSV,5,2,17,18,32,100,18,23,01,051,,26,28,198,18,27,51,293,41*77
$GPGSV,5,3,17,28,56,132,,29,03,147,,31,44,177,20,32,45,003,38*73
$GPGSV,5,4,17,36,52,277,40,40,84,353,40,41,58,082,,49,32,274,*7C
$GPGSV,5,5,17,50,10,089,*4A
$GLGSV,3,1,11,65,28,257,36,66,00,220,,71,08,009,26,72,36,326,31*6D
$GLGSV,3,2,11,74,13,124,05,75,17,174,09,76,00,226,11,84,05,148,*6B
$GLGSV,3,3,11,85,48,121,19,86,51,015,30,87,12,346,25*59
$GNGLL,0419.80752,S,05539.64537,E,125315.00,A,D*63
$GNRMC,125316.00,A,0419.80752,S,05539.64535,E,0.045,,200525,,,D*7A
$GNVTG,,T,,M,0.045,N,0.082,K,D*33
$GNGGA,125316.00,0419.80752,S,05539.64535,E,2,12,0.67,10.1,M,-47.6,M,,0000*4B
$GNGSA,A,3,32,18,10,26,16,27,31,40,08,,,,1.27,0.67,1.07*1E
$GNGSA,A,3,85,72,71,75,86,65,87,,,,,,1.27,0.67,1.07*11
$GPGSV,5,1,17,04,00,220,,08,16,311,32,10,14,013,38,16,24,228,36*73
$GPGSV,5,2,17,18,32,100,17,23,01,051,,26,28,198,18,27,51,293,41*78
$GPGSV,5,3,17,28,56,132,,29,03,147,,31,44,177,20,32,45,003,37*7C
$GPGSV,5,4,17,36,52,277,40,40,84,353,40,41,58,082,,49,32,274,*7C
$GPGSV,5,5,17,50,10,089,*4A
$GLGSV,3,1,11,65,28,257,36,66,00,220,,71,08,009,26,72,36,326,31*6D
$GLGSV,3,2,11,74,13,124,12,75,17,174,10,76,00,226,13,84,05,148,*67
$GLGSV,3,3,11,85,48,121,19,86,51,015,30,87,12,346,26*5A
$GNGLL,0419.80752,S,05539.64535,E,125316.00,A,D*62
$GNRMC,125317.00,A,0419.80756,S,05539.64538,E,0.080,,200525,,,D*7B
$GNVTG,,T,,M,0.080,N,0.149,K,D*3C
$GNGGA,125317.00,0419.80756,S,05539.64538,E,2,12,0.67,10.0,M,-47.6,M,,0000*42
$GNGSA,A,3,32,18,10,26,16,27,31,40,08,,,,1.27,0.67,1.07*1E
$GNGSA,A,3,85,72,71,75,86,65,87,,,,,,1.27,0.67,1.07*11
$GPGSV,5,1,17,04,00,220,,08,16,311,35,10,14,013,38,16,24,228,35*77
$GPGSV,5,2,17,18,32,100,17,23,01,051,,26,28,198,18,27,51,293,41*78
$GPGSV,5,3,17,28,56,132,,29,03,147,,31,44,177,21,32,45,003,37*7D
$GPGSV,5,4,17,36,52,277,40,40,84,353,40,41,58,082,,49,32,274,*7C
$GPGSV,5,5,17,50,10,089,*4A
$GLGSV,3,1,11,65,28,257,36,66,00,220,,71,08,009,25,72,36,326,31*6E
$GLGSV,3,2,11,74,13,124,10,75,17,174,12,76,00,226,11,84,05,148,*65
$GLGSV,3,3,11,85,48,121,19,86,51,015,29,87,12,346,27*53
$GNGLL,0419.80756,S,05539.64538,E,125317.00,A,D*6A
$GNRMC,125318.00,A,0419.80758,S,05539.64539,E,0.025,,200525,,,D*74
$GNVTG,,T,,M,0.025,N,0.046,K,D*3D
$GNGGA,125318.00,0419.80758,S,05539.64539,E,2,12,0.67,9.9,M,-47.6,M,,0000*73
$GNGSA,A,3,32,18,10,26,16,27,31,40,08,,,,1.27,0.67,1.07*1E
$GNGSA,A,3,85,72,71,75,86,65,87,,,,,,1.27,0.67,1.07*11
$GPGSV,5,1,17,04,00,220,,08,16,311,31,10,14,013,38,16,24,228,35*73
$GPGSV,5,2,17,18,32,100,17,23,01,051,,26,28,198,18,27,51,293,41*78
$GPGSV,5,3,17,28,56,132,,29,03,147,,31,44,177,21,32,45,003,36*7C
$GPGSV,5,4,17,36,52,277,40,40,84,353,41,41,58,082,,49,32,274,*7D
$GPGSV,5,5,17,50,10,089,*4A
$GLGSV,3,1,11,65,28,257,36,66,00,220,,71,08,009,26,72,36,326,31*6D
$GLGSV,3,2,11,74,13,124,08,75,17,174,09,76,00,226,08,84,05,148,*6E
$GLGSV,3,3,11,85,48,121,18,86,51,015,29,87,12,346,26*53
$GNGLL,0419.80758,S,05539.64539,E,125318.00,A,D*6A
$GNRMC,125319.00,A,0419.80759,S,05539.64539,E,0.163,,200525,,,D*77
$GNVTG,,T,,M,0.163,N,0.302,K,D*3D
$GNGGA,125319.00,0419.80759,S,05539.64539,E,2,12,0.67,9.8,M,-47.6,M,,0000*72
$GNGSA,A,3,32,18,10,26,16,27,31,40,08,,,,1.27,0.67,1.07*1E
$GNGSA,A,3,85,72,71,75,86,65,87,,,,,,1.27,0.67,1.07*11
$GPGSV,5,1,17,04,00,220,,08,16,311,36,10,14,013,39,16,24,228,35*75
$GPGSV,5,2,17,18,32,100,18,23,01,051,,26,28,198,18,27,51,293,41*77
$GPGSV,5,3,17,28,56,132,,29,03,147,,31,44,177,22,32,45,003,36*7F
$GPGSV,5,4,17,36,52,277,40,40,84,353,41,41,58,082,,49,32,274,*7D
$GPGSV,5,5,17,50,10,089,*4A
$GLGSV,3,1,11,65,28,257,35,66,00,220,,71,08,009,25,72,36,326,30*6C
$GLGSV,3,2,11,74,13,124,09,75,17,174,10,76,00,226,09,84,05,148,*66
$GLGSV,3,3,11,85,48,121,18,86,51,015,28,87,12,346,27*53
$GNGLL,0419.80759,S,05539.64539,E,125319.00,A,D*6A
$GNRMC,125320.00,A,0419.80756,S,05539.64532,E,0.257,,200525,,,D*7D
$GNVTG,,T,,M,0.257,N,0.476,K,D*3D
$GNGGA,125320.00,0419.80756,S,05539.64532,E,2,12,0.67,9.7,M,-47.6,M,,0000*73
$GNGSA,A,3,32,18,10,26,16,27,31,40,08,,,,1.27,0.67,1.07*1E
$GNGSA,A,3,85,72,71,75,86,65,87,,,,,,1.27,0.67,1.07*11
$GPGSV,5,1,17,04,00,220,,08,16,311,33,10,14,013,39,16,24,228,35*70
$GPGSV,5,2,17,18,32,100,19,23,01,051,,26,28,198,18,27,51,293,41*76
$GPGSV,5,3,17,28,56,132,,29,03,147,,31,44,177,22,32,45,003,35*7C
$GPGSV,5,4,17,36,52,277,40,40,84,353,41,41,58,082,,49,32,274,*7D
$GPGSV,5,5,17,50,10,089,*4A
$GLGSV,3,1,11,65,28,257,35,66,00,220,,71,08,009,25,72,36,326,30*6C
$GLGSV,3,2,11,74,13,124,11,75,17,174,10,76,00,226,11,84,05,148,*66
$GLGSV,3,3,11,85,48,121,17,86,51,015,27,87,12,346,26*52
$GNGLL,0419.80756,S,05539.64532,E,125320.00,A,D*64
$GNRMC,125321.00,A,0419.80758,S,05539.64533,E,0.043,,200525,,,D*74
$GNVTG,,T,,M,0.043,N,0.080,K,D*37
$GNGGA,125321.00,0419.80758,S,05539.64533,E,2,12,0.67,9.6,M,-47.6,M,,0000*7C
$GNGSA,A,3,32,18,10,26,16,27,31,40,08,,,,1.27,0.67,1.07*1E
$GNGSA,A,3,85,72,71,75,86,65,87,,,,,,1.27,0.67,1.07*11
$GPGSV,5,1,17,04,00,220,,08,16,311,34,10,14,013,39,16,24,228,34*76
$GPGSV,5,2,17,18,32,100,19,23,01,051,,26,28,198,18,27,51,293,41*76
$GPGSV,5,3,17,28,56,132,,29,03,147,,31,44,177,23,32,45,003,35*7D
$GPGSV,5,4,17,36,52,277,40,40,84,353,40,41,58,082,,49,32,274,*7C
$GPGSV,5,5,17,50,10,089,*4A
$GLGSV,3,1,11,65,28,257,35,66,00,220,,71,08,009,23,72,36,326,30*6A
$GLGSV,3,2,11,74,13,124,08,75,17,174,10,76,00,226,09,84,05,148,*67
$GLGSV,3,3,11,85,48,121,17,86,51,015,26,87,12,346,27*52
$GNGLL,0419.80758,S,05539.64533,E,125321.00,A,D*6A
$GNRMC,125322.00,A,0419.80757,S,05539.64531,E,0.030,,200525,,,D*7E
$GNVTG,,T,,M,0.030,N,0.056,K,D*38
$GNGGA,125322.00,0419.80757,S,05539.64531,E,2,12,0.67,9.5,M,-47.6,M,,0000*71
$GNGSA,A,3,32,18,10,26,16,27,31,40,41,08,,,1.27,0.67,1.07*1B
$GNGSA,A,3,85,72,71,75,86,65,87,,,,,,1.27,0.67,1.07*11
$GPGSV,5,1,17,04,00,220,,08,16,311,38,10,14,013,39,16,24,228,39*77
$GPGSV,5,2,17,18,32,100,20,23,01,051,,26,28,198,18,27,51,293,42*7F
$GPGSV,5,3,17,28,56,132,,29,03,147,,31,44,177,25,32,45,003,32*7C
$GPGSV,5,4,17,36,52,277,40,40,84,353,40,41,58,082,29,49,32,274,*77
$GPGSV,5,5,17,50,10,089,*4A
$GLGSV,3,1,11,65,28,257,35,66,00,220,,71,08,009,29,72,36,326,30*60
$GLGSV,3,2,11,74,13,124,08,75,17,174,12,76,00,226,09,84,05,148,*65
$GLGSV,3,3,11,85,48,121,16,86,51,015,24,87,12,346,28*5E
$GNGLL,0419.80757,S,05539.64531,E,125322.00,A,D*64
$GNRMC,125323.00,A,0419.80757,S,05539.64530,E,0.189,,200525,,,D*7D
$GNVTG,,T,,M,0.189,N,0.350,K,D*3E
$GNGGA,125323.00,0419.80757,S,05539.64530,E,2,12,0.72,9.5,M,-47.6,M,,0000*75
$GNGSA,A,3,32,18,10,26,16,27,31,40,41,08,,,1.37,0.72,1.17*1F
$GNGSA,A,3,85,72,71,75,86,74,65,87,,,,,1.37,0.72,1.17*16
$GPGSV,5,1,17,04,00,220,,08,16,311,32,10,14,013,39,16,24,228,35*71
$GPGSV,5,2,17,18,32,100,21,23,01,051,,26,28,198,19,27,51,293,40*7D
$GPGSV,5,3,17,28,56,132,,29,03,147,,31,44,177,25,32,45,003,36*78
$GPGSV,5,4,17,36,52,277,38,40,84,353,41,41,58,082,30,49,32,274,*71
$GPGSV,5,5,17,50,10,089,*4A
$GLGSV,3,1,11,65,28,257,35,66,00,220,,71,08,009,28,72,36,326,30*61
$GLGSV,3,2,11,74,13,124,09,75,17,174,12,76,00,226,11,84,05,148,*6D
$GLGSV,3,3,11,85,48,121,17,86,51,015,31,87,12,346,26*55
$GNGLL,0419.80757,S,05539.64530,E,125323.00,A,D*64
$GNRMC,125324.00,A,0419.80758,S,05539.64529,E,0.081,,200525,,,D*74
$GNVTG,,T,,M,0.081,N,0.150,K,D*35
$GNGGA,125324.00,0419.80758,S,05539.64529,E,2,12,0.62,9.4,M,-47.6,M,,0000*75
$GNGSA,A,3,32,18,10,26,16,27,31,40,41,08,,,1.18,0.62,1.01*14
$GNGSA,A,3,85,72,71,75,86,74,65,87,,,,,1.18,0.62,1.01*1D
$GPGSV,5,1,17,04,00,220,,08,16,311,34,10,14,013,40,16,24,228,36*7A
$GPGSV,5,2,17,18,32,100,21,23,01,051,,26,28,198,19,27,51,293,39*73
$GPGSV,5,3,17,28,56,132,,29,03,147,,31,44,177,25,32,45,003,35*7B
$GPGSV,5,4,17,36,52,277,36,40,84,353,41,41,58,082,30,49,32,274,*7F
$GPGSV,5,5,17,50,10,089,*4A
$GLGSV,3,1,11,65,28,257,35,66,00,220,,71,08,009,26,72,36,326,30*6F
$GLGSV,3,2,11,74,13,124,07,75,17,174,09,76,00,226,10,84,05,148,*68
$GLGSV,3,3,11,85,48,121,17,86,51,015,31,87,12,346,24*57
$GNGLL,0419.80758,S,05539.64529,E,125324.00,A,D*64
$GNRMC,125325.00,A,0419.80757,S,05539.64526,E,0.122,,200525,,,D*7D
$GNVTG,,T,,M,0.122,N,0.225,K,D*3C
$GNGGA,125325.00,0419.80757,S,05539.64526,E,2,12,0.61,9.4,M,-47.6,M,,0000*77
$GNGSA,A,3,32,18,10,26,16,27,31,40,41,08,,,1.13,0.61,0.96*13
$GNGSA,A,3,85,72,71,75,86,74,65,87,,,,,1.13,0.61,0.96*1A
$GPGSV,5,1,17,04,00,220,,08,16,311,36,10,14,013,40,16,24,228,37*79
$GPGSV,5,2,17,18,32,100,22,23,01,051,,26,28,198,19,27,51,293,39*70
$GPGSV,5,3,17,28,56,132,,29,03,147,,31,44,177,24,32,45,003,34*7B
$GPGSV,5,4,17,36,52,277,36,40,84,353,42,41,58,082,29,49,32,274,*74
$GPGSV,5,5,17,50,10,089,*4A
$GLGSV,3,1,11,65,28,257,35,66,00,220,,71,08,009,27,72,36,326,30*6E
$GLGSV,3,2,11,74,13,124,08,75,17,174,10,76,00,226,11,84,05,148,*6E
$GLGSV,3,3,11,85,48,121,17,86,51,015,31,87,12,346,22*51
$GNGLL,0419.80757,S,05539.64526,E,125325.00,A,D*65
$GNRMC,125326.00,A,0419.80757,S,05539.64524,E,0.045,,200525,,,D*7C
$GNVTG,,T,,M,0.045,N,0.084,K,D*35
$GNGGA,125326.00,0419.80757,S,05539.64524,E,2,12,0.72,9.4,M,-47.6,M,,0000*74
$GNGSA,A,3,32,18,10,26,16,27,31,40,41,08,,,1.37,0.72,1.17*1F
$GNGSA,A,3,85,72,71,75,86,65,87,,,,,,1.37,0.72,1.17*15
$GPGSV,5,1,17,04,00,220,,08,16,311,37,10,14,013,40,16,24,228,37*78
$GPGSV,5,2,17,18,32,100,22,23,01,051,,26,28,198,20,27,51,293,39*7A
$GPGSV,5,3,17,28,56,132,,29,03,147,,31,44,177,24,32,45,003,34*7B
$GPGSV,5,4,17,36,52,277,36,40,84,353,42,41,58,082,29,49,32,274,*74
$GPGSV,5,5,17,50,10,089,*4A
$GLGSV,3,1,11,65,28,257,35,66,00,220,,71,08,009,27,72,36,326,30*6E
$GLGSV,3,2,11,74,13,124,09,75,17,174,10,76,00,226,10,84,05,148,*6E
$GLGSV,3,3,11,85,48,121,17,86,51,015,31,87,12,346,19*59
$GNGLL,0419.80757,S,05539.64524,E,125326.00,A,D*64
$GNRMC,125327.00,A,0419.80758,S,05539.64525,E,0.042,,200525,,,D*74
$GNVTG,,T,,M,0.042,N,0.077,K,D*3E
$GNGGA,125327.00,0419.80758,S,05539.64525,E,2,12,0.67,9.3,M,-47.6,M,,0000*78
$GNGSA,A,3,32,18,10,26,16,27,31,40,41,08,,,1.27,0.67,1.07*1B
$GNGSA,A,3,85,72,71,75,86,65,87,,,,,,1.27,0.67,1.07*11
$GPGSV,5,1,17,04,00,220,,08,16,311,37,10,14,013,40,16,24,228,37*78
$GPGSV,5,2,17,18,32,100,22,23,01,051,,26,28,198,19,27,51,293,39*70
$GPGSV,5,3,17,28,56,132,,29,03,147,,31,44,177,24,32,45,003,34*7B
$GPGSV,5,4,17,36,52,277,36,40,84,353,42,41,58,082,29,49,32,274,*74
$GPGSV,5,5,17,50,10,089,*4A
$GLGSV,3,1,11,65,28,257,35,66,00,220,,71,08,009,27,72,36,326,30*6E
$GLGSV,3,2,11,74,13,124,08,75,17,174,11,76,00,226,11,84,05,148,*6F
$GLGSV,3,3,11,85,48,121,18,86,51,015,31,87,12,346,18*57
$GNGLL,0419.80758,S,05539.64525,E,125327.00,A,D*6B
$GNRMC,125328.00,A,0419.80759,S,05539.64524,E,0.060,,200525,,,D*7B
$GNVTG,,T,,M,0.060,N,0.111,K,D*3F
$GNGGA,125328.00,0419.80759,S,05539.64524,E,2,12,0.66,9.3,M,-47.6,M,,0000*76
$GNGSA,A,3,32,18,10,26,16,27,31,40,41,08,,,1.22,0.66,1.03*1B
$GNGSA,A,3,85,72,71,75,86,65,87,,,,,,1.22,0.66,1.03*11
$GPGSV,5,1,17,04,00,220,,08,16,311,37,10,14,013,40,16,24,228,37*78
$GPGSV,5,2,17,18,32,100,21,23,01,051,,26,28,198,18,27,51,293,39*72
$GPGSV,5,3,17,28,56,132,,29,03,147,,31,44,177,25,32,45,003,35*7B
$GPGSV,5,4,17,36,52,277,36,40,84,353,42,41,58,082,29,49,32,274,*74
$GPGSV,5,5,17,50,10,089,*4A
$GLGSV,3,1,11,65,28,257,35,66,00,220,,71,08,009,27,72,36,326,31*6F
$GLGSV,3,2,11,74,13,124,06,75,17,174,14,76,00,226,10,84,05,148,*65
$GLGSV,3,3,11,85,48,121,19,86,51,015,32,87,12,346,17*5A
$GNGLL,0419.80759,S,05539.64524,E,125328.00,A,D*64
$GNRMC,125329.00,A,0419.80761,S,05539.64525,E,0.100,,200525,,,D*77
$GNVTG,,T,,M,0.100,N,0.186,K,D*36
$GNGGA,125329.00,0419.80761,S,05539.64525,E,2,12,0.70,9.3,M,-47.6,M,,0000*7A
$GNGSA,A,3,32,18,10,26,16,27,31,40,41,08,,,1.33,0.70,1.13*1D
$GNGSA,A,3,85,72,71,75,86,65,87,,,,,,1.33,0.70,1.13*17
$GPGSV,5,1,17,04,00,220,,08,16,311,36,10,14,013,40,16,24,228,37*79
$GPGSV,5,2,17,18,32,100,22,23,01,051,,26,28,198,19,27,51,293,39*70
$GPGSV,5,3,17,28,56,132,,29,03,147,,31,44,177,24,32,45,003,34*7B
$GPGSV,5,4,17,36,52,277,36,40,84,353,42,41,58,082,29,49,32,274,*74
$GPGSV,5,5,17,50,10,089,*4A
$GLGSV,3,1,11,65,29,258,35,66,00,220,,71,08,009,26,72,36,326,30*61
$GLGSV,3,2,11,74,13,124,08,75,17,174,10,76,00,226,10,84,05,148,*6F
$GLGSV,3,3,11,85,48,121,18,86,51,015,32,87,12,346,17*5B
$GNGLL,0419.80761,S,05539.64525,E,125329.00,A,D*6F
$GNRMC,125330.00,A,0419.80762,S,05539.64525,E,0.013,,200525,,,D*7F
$GNVTG,,T,,M,0.013,N,0.024,K,D*3C
$GNGGA,125330.00,0419.80762,S,05539.64525,E,2,12,0.67,9.3,M,-47.6,M,,0000*77
$GNGSA,A,3,32,18,10,26,16,27,31,40,41,08,,,1.27,0.67,1.07*1B
$GNGSA,A,3,85,72,71,75,86,65,87,,,,,,1.27,0.67,1.07*11
$GPGSV,5,1,17,04,00,220,,08,16,311,37,10,14,013,40,16,24,228,37*78
$GPGSV,5,2,17,18,32,100,21,23,01,051,,26,28,198,18,27,51,293,39*72
$GPGSV,5,3,17,28,56,132,,29,03,147,,31,44,177,24,32,45,003,34*7B
$GPGSV,5,4,17,36,52,277,36,40,84,353,42,41,58,082,29,49,32,274,*74
$GPGSV,5,5,17,50,10,089,*4A
$GLGSV,3,1,11,65,29,258,35,66,00,220,,71,08,009,26,72,36,326,30*61
$GLGSV,3,2,11,74,13,124,08,75,17,174,11,76,00,226,07,84,05,148,*68
$GLGSV,3,3,11,85,48,121,17,86,51,015,32,87,12,346,18*5B
$GNGLL,0419.80762,S,05539.64525,E,125330.00,A,D*64
$GNRMC,125331.00,A,0419.80763,S,05539.64526,E,0.019,,200525,,,D*76
$GNVTG,,T,,M,0.019,N,0.035,K,D*36
$GNGGA,125331.00,0419.80763,S,05539.64526,E,2,12,0.67,9.3,M,-47.6,M,,0000*74
$GNGSA,A,3,32,18,10,26,16,27,31,40,41,08,,,1.27,0.67,1.07*1B
$GNGSA,A,3,85,72,71,75,86,65,87,,,,,,1.27,0.67,1.07*11
$GPGSV,5,1,17,04,00,220,,08,16,311,37,10,14,013,40,16,24,228,37*78
$GPGSV,5,2,17,18,32,100,21,23,01,051,,26,28,198,18,27,51,293,39*72
$GPGSV,5,3,17,28,56,132,,29,03,147,,31,44,177,24,32,45,003,34*7B
$GPGSV,5,4,17,36,52,277,36,40,84,353,42,41,58,082,29,49,32,274,*74
$GPGSV,5,5,17,50,10,089,*4A
$GLGSV,3,1,11,65,29,258,35,66,00,220,,71,08,009,26,72,36,326,31*60
$GLGSV,3,2,11,74,13,124,08,75,17,174,11,76,00,226,13,84,05,148,*6D
$GLGSV,3,3,11,85,48,121,17,86,51,015,32,87,12,346,19*5A
$GNGLL,0419.80763,S,05539.64526,E,125331.00,A,D*67
$GNRMC,125332.00,A,0419.80763,S,05539.64526,E,0.024,,200525,,,D*7B
$GNVTG,,T,,M,0.024,N,0.045,K,D*3F
$GNGGA,125332.00,0419.80763,S,05539.64526,E,2,12,0.70,9.3,M,-47.6,M,,0000*71
$GNGSA,A,3,32,18,10,26,16,27,31,40,41,08,,,1.33,0.70,1.13*1D
$GNGSA,A,3,85,72,71,75,86,65,87,,,,,,1.33,0.70,1.13*17
$GPGSV,5,1,17,04,00,220,,08,16,311,37,10,14,013,40,16,24,228,37*78
$GPGSV,5,2,17,18,32,100,21,23,01,051,,26,28,198,18,27,51,293,39*72
$GPGSV,5,3,17,28,56,132,,29,03,147,,31,44,177,25,32,45,003,35*7B
$GPGSV,5,4,17,36,52,277,36,40,84,353,42,41,58,082,29,49,32,274,*74
$GPGSV,5,5,17,50,10,089,*4A
$GLGSV,3,1,11,65,29,258,36,66,00,220,,71,08,009,26,72,36,326,31*63
$GLGSV,3,2,11,74,13,124,08,75,17,174,11,76,00,226,11,84,05,148,*6F
$GLGSV,3,3,11,85,48,121,18,86,51,015,32,87,12,346,20*5F
$GNGLL,0419.80763,S,05539.64526,E,125332.00,A,D*64
$GNRMC,125333.00,A,0419.80765,S,05539.64528,E,0.043,,200525,,,D*73
$GNVTG,,T,,M,0.043,N,0.079,K,D*31
$GNGGA,125333.00,0419.80765,S,05539.64528,E,2,12,0.67,9.3,M,-47.6,M,,0000*7E
$GNGSA,A,3,32,18,10,26,16,27,31,40,41,08,,,1.27,0.67,1.07*1B
$GNGSA,A,3,85,72,71,75,86,65,87,,,,,,1.27,0.67,1.07*11
$GPGSV,5,1,17,04,00,220,,08,16,311,36,10,14,013,40,16,24,228,37*79
$GPGSV,5,2,17,18,32,100,21,23,01,051,,26,28,198,17,27,51,293,39*7D
$GPGSV,5,3,17,28,56,132,,29,03,147,,31,44,177,25,32,45,003,35*7B
$GPGSV,5,4,17,36,52,277,36,40,84,353,42,41,58,082,28,49,32,274,*75
$GPGSV,5,5,17,50,10,089,*4A
$GLGSV,3,1,11,65,29,258,36,66,00,220,,71,08,009,26,72,36,326,30*62
$GLGSV,3,2,11,74,13,124,11,75,17,174,08,76,00,226,13,84,05,148,*6D
$GLGSV,3,3,11,85,48,121,17,86,51,015,32,87,12,346,19*5A
$GNGLL,0419.80765,S,05539.64528,E,125333.00,A,D*6D
$GNRMC,125334.00,A,0419.80767,S,05539.64529,E,0.122,,200525,,,D*71
$GNVTG,,T,,M,0.122,N,0.227,K,D*3E
$GNGGA,125334.00,0419.80767,S,05539.64529,E,2,12,0.72,9.2,M,-47.6,M,,0000*7F
$GNGSA,A,3,32,18,10,26,16,27,31,40,41,08,,,1.37,0.72,1.17*1F
$GNGSA,A,3,85,72,71,86,65,87,,,,,,,1.37,0.72,1.17*17
$GPGSV,5,1,17,04,00,220,,08,16,311,36,10,14,013,40,16,24,228,37*79
$GPGSV,5,2,17,18,32,100,21,23,01,051,,26,28,198,18,27,51,293,39*72
$GPGSV,5,3,17,28,56,132,,29,03,147,,31,44,177,25,32,45,003,35*7B
$GPGSV,5,4,17,36,52,277,36,40,84,353,42,41,58,082,28,49,32,274,*75
$GPGSV,5,5,17,50,10,089,*4A
$GLGSV,3,1,11,65,29,258,36,66,00,220,,71,08,009,24,72,36,326,31*61
$GLGSV,3,2,11,74,13,124,08,75,17,174,07,76,00,226,18,84,05,148,*61
$GLGSV,3,3,11,85,48,121,17,86,51,015,32,87,12,346,17*54
$GNGLL,0419.80767,S,05539.64529,E,125334.00,A,D*69
$GNRMC,125335.00,A,0419.80768,S,05539.64530,E,0.091,,200525,,,D*7E
$GNVTG,,T,,M,0.091,N,0.168,K,D*3F
$GNGGA,125335.00,0419.80768,S,05539.64530,E,2,12,0.72,9.2,M,-47.6,M,,0000*79
$GNGSA,A,3,32,18,10,26,16,27,31,40,41,08,,,1.37,0.72,1.17*1F
$GNGSA,A,3,85,72,71,75,86,65,87,,,,,,1.37,0.72,1.17*15
$GPGSV,5,1,17,04,00,220,,08,16,311,36,10,14,013,40,16,24,228,37*79
$GPGSV,5,2,17,18,32,100,21,23,01,051,,26,28,198,18,27,51,293,39*72
$GPGSV,5,3,17,28,56,132,,29,03,147,,31,44,177,25,32,45,003,35*7B
$GPGSV,5,4,17,36,52,277,36,40,84,353,42,41,58,082,28,49,32,274,*75
$GPGSV,5,5,17,50,10,089,*4A
$GLGSV,3,1,11,65,29,258,36,66,00,220,,71,08,010,24,72,36,326,31*69
$GLGSV,3,2,11,74,13,124,06,75,17,174,10,76,00,226,15,84,05,148,*64
$GLGSV,3,3,11,85,48,121,17,86,51,015,32,87,12,346,17*54
$GNGLL,0419.80768,S,05539.64530,E,125335.00,A,D*6F
$GNRMC,125336.00,A,0419.80770,S,05539.64531,E,0.034,,200525,,,D*7A
$GNVTG,,T,,M,0.034,N,0.064,K,D*3D
$GNGGA,125336.00,0419.80770,S,05539.64531,E,2,12,0.67,9.2,M,-47.6,M,,0000*76
$GNGSA,A,3,32,18,10,26,16,27,31,40,41,08,,,1.27,0.67,1.07*1B
$GNGSA,A,3,85,72,71,75,86,65,87,,,,,,1.27,0.67,1.07*11
$GPGSV,5,1,17,04,00,220,,08,16,311,36,10,14,013,40,16,24,228,37*79
$GPGSV,5,2,17,18,32,100,20,23,01,051,,26,28,198,19,27,51,293,39*72
$GPGSV,5,3,17,28,56,132,,29,03,147,,31,44,177,25,32,45,003,35*7B
$GPGSV,5,4,17,36,52,277,36,40,84,353,42,41,58,082,28,49,32,274,*75
$GPGSV,5,5,17,50,10,089,*4A
$GLGSV,3,1,11,65,29,258,36,66,00,220,,71,08,010,25,72,36,327,31*69
$GLGSV,3,2,11,74,13,124,08,75,17,174,09,76,00,226,14,84,05,148,*63
$GLGSV,3,3,11,85,48,121,18,86,51,015,32,87,12,346,15*59
$GNGLL,0419.80770,S,05539.64531,E,125336.00,A,D*64
$GNRMC,125337.00,A,0419.80774,S,05539.64535,E,0.022,,200525,,,D*7C
$GNVTG,,T,,M,0.022,N,0.042,K,D*3E
$GNGGA,125337.00,0419.80774,S,05539.64535,E,2,12,0.67,9.1,M,-47.6,M,,0000*74
$GNGSA,A,3,32,18,10,26,16,27,31,40,41,08,,,1.27,0.67,1.07*1B
$GNGSA,A,3,85,72,71,75,86,65,87,,,,,,1.27,0.67,1.07*11
$GPGSV,5,1,17,04,00,220,,08,16,311,38,10,14,013,40,16,24,228,37*77
$GPGSV,5,2,17,18,32,100,19,23,01,051,,26,28,198,18,27,51,293,39*79
$GPGSV,5,3,17,28,56,132,,29,03,147,,31,44,177,25,32,45,003,35*7B
$GPGSV,5,4,17,36,52,277,36,40,84,353,42,41,58,082,28,49,32,274,*75
$GPGSV,5,5,17,50,10,089,*4A
$GLGSV,3,1,11,65,29,258,36,66,00,220,,71,08,010,27,72,36,327,31*6B
$GLGSV,3,2,11,74,13,124,06,75,17,174,11,76,00,226,17,84,05,148,*67
$GLGSV,3,3,11,85,48,121,19,86,51,015,32,87,12,346,16*5B
$GNGLL,0419.80774,S,05539.64535,E,125337.00,A,D*65
$GNRMC,125338.00,A,0419.80774,S,05539.64534,E,0.150,,200525,,,D*76
$GNVTG,,T,,M,0.150,N,0.278,K,D*31
$GNGGA,125338.00,0419.80774,S,05539.64534,E,2,12,0.72,9.0,M,-47.6,M,,0000*7F
$GNGSA,A,3,32,18,10,26,16,27,31,40,41,08,,,1.37,0.72,1.16*1E
$GNGSA,A,3,85,72,71,75,86,65,87,,,,,,1.37,0.72,1.16*14
$GPGSV,5,1,17,04,00,220,,08,16,311,35,10,14,013,41,16,24,228,37*7B
$GPGSV,5,2,17,18,32,100,19,23,01,051,,26,28,198,18,27,51,293,39*79
$GPGSV,5,3,17,28,56,132,,29,03,147,,31,44,177,25,32,45,003,35*7B
$GPGSV,5,4,17,36,52,277,36,40,84,353,42,41,58,082,28,49,32,274,*75
$GPGSV,5,5,17,50,10,089,*4A
$GLGSV,3,1,11,65,29,258,36,66,00,220,,71,08,010,27,72,36,327,31*6B
$GLGSV,3,2,11,74,13,123,06,75,17,174,09,76,00,226,14,84,05,148,*6A
$GLGSV,3,3,11,85,48,121,18,86,51,015,32,87,12,346,17*5B
$GNGLL,0419.80774,S,05539.64534,E,125338.00,A,D*6B
$GNRMC,125339.00,A,0419.80777,S,05539.64537,E,0.104,,200525,,,D*76
$GNVTG,,T,,M,0.104,N,0.192,K,D*37
$GNGGA,125339.00,0419.80777,S,05539.64537,E,2,12,0.67,9.0,M,-47.6,M,,0000*7A
$GNGSA,A,3,32,18,10,26,16,27,31,40,41,08,,,1.27,0.67,1.07*1B
$GNGSA,A,3,85,72,71,75,86,65,87,,,,,,1.27,0.67,1.07*11
$GPGSV,5,1,17,04,00,220,,08,16,311,36,10,14,013,41,16,24,228,37*78
$GPGSV,5,2,17,18,32,100,19,23,01,051,,26,28,198,18,27,51,293,39*79
$GPGSV,5,3,17,28,56,132,,29,03,147,,31,44,177,25,32,45,003,35*7B
$GPGSV,5,4,17,36,52,277,36,40,84,353,42,41,58,082,28,49,32,274,*75
$GPGSV,5,5,17,50,10,089,*4A
$GLGSV,3,1,11,65,29,258,36,66,00,220,,71,08,010,25,72,36,327,30*68
$GLGSV,3,2,11,74,13,123,10,75,17,173,07,76,00,226,17,84,05,148,*67
$GLGSV,3,3,11,85,48,121,18,86,51,015,33,87,12,346,15*58
$GNGLL,0419.80777,S,05539.64537,E,125339.00,A,D*6A
$GNRMC,125340.00,A,0419.80779,S,05539.64538,E,0.024,,200525,,,D*7A
$GNVTG,,T,,M,0.024,N,0.044,K,D*3E
$GNGGA,125340.00,0419.80779,S,05539.64538,E,2,12,0.67,9.0,M,-47.6,M,,0000*75
$GNGSA,A,3,32,18,10,26,16,27,31,40,08,,,,1.27,0.67,1.07*1E
$GNGSA,A,3,85,72,71,75,86,65,87,,,,,,1.27,0.67,1.07*11
$GPGSV,5,1,17,04,00,220,,08,16,311,36,10,14,013,41,16,24,228,37*78
$GPGSV,5,2,17,18,32,100,20,23,01,051,,26,28,198,17,27,51,293,39*7C
$GPGSV,5,3,17,28,56,132,,29,03,147,,31,44,177,25,32,45,003,35*7B
$GPGSV,5,4,17,36,52,277,36,40,84,353,41,41,58,082,27,49,32,274,*79
$GPGSV,5,5,17,50,10,089,*4A
$GLGSV,3,1,11,65,29,258,35,66,00,220,,71,08,010,24,72,36,327,30*6A
$GLGSV,3,2,11,74,13,123,10,75,17,173,10,76,00,225,18,84,05,148,*6D
$GLGSV,3,3,11,85,48,121,18,86,51,015,32,87,12,346,12*5E
$GNGLL,0419.80779,S,05539.64538,E,125340.00,A,D*65
$GNRMC,125341.00,A,0419.80782,S,05539.64542,E,0.072,,200525,,,D*71
$GNVTG,,T,,M,0.072,N,0.133,K,D*3C
$GNGGA,125341.00,0419.80782,S,05539.64542,E,2,12,0.72,9.0,M,-47.6,M,,0000*79
$GNGSA,A,3,32,18,10,26,16,27,31,40,41,08,,,1.41,0.72,1.21*1B
$GNGSA,A,3,85,72,71,75,86,65,,,,,,,1.41,0.72,1.21*1E
$GPGSV,5,1,17,04,00,220,,08,16,311,37,10,14,013,41,16,24,228,37*79
$GPGSV,5,2,17,18,32,100,20,23,01,051,,26,28,198,18,27,51,293,39*73
$GPGSV,5,3,17,28,56,132,,29,03,147,,31,44,177,25,32,45,003,35*7B
$GPGSV,5,4,17,36,52,277,37,40,84,353,41,41,58,082,28,49,32,274,*77
$GPGSV,5,5,17,50,10,089,*4A
$GLGSV,3,1,11,65,29,258,35,66,00,220,,71,08,010,24,72,36,327,30*6A
$GLGSV,3,2,11,74,13,123,09,75,17,173,09,76,00,225,18,84,05,148,*6D
$GLGSV,3,3,11,85,48,121,18,86,51,015,32,87,12,346,09*54
$GNGLL,0419.80782,S,05539.64542,E,125341.00,A,D*6D
$GNRMC,125342.00,A,0419.80783,S,05539.64543,E,0.049,,200525,,,D*7A
$GNVTG,,T,,M,0.049,N,0.090,K,D*3C
$GNGGA,125342.00,0419.80783,S,05539.64543,E,2,12,0.67,9.0,M,-47.6,M,,0000*7E
$GNGSA,A,3,32,18,10,26,16,27,31,40,41,08,,,1.27,0.67,1.07*1B
$GNGSA,A,3,85,72,71,75,86,65,87,,,,,,1.27,0.67,1.07*11
$GPGSV,5,1,17,04,00,220,,08,16,311,37,10,14,013,41,16,24,228,37*79
$GPGSV,5,2,17,18,32,100,20,23,01,051,,26,28,198,18,27,51,293,39*73
$GPGSV,5,3,17,28,56,132,,29,03,147,,31,44,177,25,32,45,003,35*7B
$GPGSV,5,4,17,36,52,277,36,40,84,353,41,41,58,082,29,49,32,274,*77
$GPGSV,5,5,17,50,10,089,*4A
$GLGSV,3,1,11,65,29,258,35,66,00,220,,71,08,010,25,72,36,327,30*6B
$GLGSV,3,2,11,74,13,123,10,75,17,173,09,76,00,225,19,84,05,148,*64
$GLGSV,3,3,11,85,48,121,18,86,51,015,32,87,12,346,10*5C
$GNGLL,0419.80783,S,05539.64543,E,125342.00,A,D*6E
$GNRMC,125343.00,A,0419.80784,S,05539.64542,E,0.182,,200525,,,D*7B
$GNVTG,,T,,M,0.182,N,0.337,K,D*34
$GNGGA,125343.00,0419.80784,S,05539.64542,E,2,12,0.68,9.0,M,-47.6,M,,0000*76
$GNGSA,A,3,32,18,10,26,16,27,31,40,41,08,,,1.31,0.68,1.11*14
$GNGSA,A,3,85,72,71,75,86,65,,,,,,,1.31,0.68,1.11*11
$GPGSV,5,1,17,04,00,220,,08,16,311,36,10,14,013,41,16,24,228,37*78
$GPGSV,5,2,17,18,32,100,21,23,01,051,,26,28,198,18,27,51,293,39*72
$GPGSV,5,3,17,28,56,132,,29,03,147,,31,44,177,25,32,45,003,35*7B
$GPGSV,5,4,17,36,52,277,36,40,84,353,41,41,58,082,29,49,32,274,*77
$GPGSV,5,5,17,50,10,089,*4A
$GLGSV,3,1,11,65,29,258,35,66,00,220,,71,08,010,24,72,36,327,30*6A
$GLGSV,3,2,11,74,13,123,08,75,17,173,12,76,00,225,19,84,05,148,*67
$GLGSV,3,3,11,85,48,121,18,86,51,015,32,87,12,346,10*5C
$GNGLL,0419.80784,S,05539.64542,E,125343.00,A,D*69
$GNRMC,125344.00,A,0419.80786,S,05539.64543,E,0.063,,200525,,,D*71
$GNVTG,,T,,M,0.063,N,0.117,K,D*3A
$GNGGA,125344.00,0419.80786,S,05539.64543,E,2,12,0.72,9.0,M,-47.6,M,,0000*79
$GNGSA,A,3,32,18,10,26,16,27,31,40,41,08,,,1.41,0.72,1.20*1A
$GNGSA,A,3,85,72,71,75,86,65,,,,,,,1.41,0.72,1.20*1F
$GPGSV,5,1,17,04,00,220,,08,16,311,36,10,14,013,41,16,24,228,37*78
$GPGSV,5,2,17,18,32,100,21,23,01,051,,26,28,198,17,27,51,293,39*7D
$GPGSV,5,3,17,28,56,132,,29,03,147,,31,44,177,25,32,45,003,35*7B
$GPGSV,5,4,17,36,52,277,37,40,84,353,41,41,58,082,29,49,32,274,*76
$GPGSV,5,5,17,50,10,089,*4A
$GLGSV,3,1,11,65,29,258,36,66,00,220,,71,08,010,26,72,36,327,30*6B
$GLGSV,3,2,11,74,13,123,10,75,17,173,07,76,00,225,19,84,05,148,*6A
$GLGSV,3,3,11,85,48,121,18,86,51,015,33,87,12,346,*5C
$GNGLL,0419.80786,S,05539.64543,E,125344.00,A,D*6D
$GNRMC,125345.00,A,0419.80787,S,05539.64544,E,0.103,,200525,,,D*71
$GNVTG,,T,,M,0.103,N,0.191,K,D*33
$GNGGA,125345.00,0419.80787,S,05539.64544,E,2,12,0.67,9.1,M,-47.6,M,,0000*7B
$GNGSA,A,3,32,18,10,26,16,27,31,40,41,08,,,1.26,0.67,1.07*1A
$GNGSA,A,3,85,72,71,75,86,65,,,,,,,1.26,0.67,1.07*1F
$GPGSV,5,1,17,04,00,220,,08,16,311,35,10,14,013,41,16,24,228,37*7B
$GPGSV,5,2,17,18,32,100,20,23,01,051,,26,28,198,18,27,51,293,38*72
$GPGSV,5,3,17,28,56,132,,29,03,147,,31,44,177,25,32,45,003,35*7B
$GPGSV,5,4,17,36,52,277,36,40,84,353,41,41,58,082,29,49,32,274,*77
$GPGSV,5,5,17,50,10,089,*4A
$GLGSV,3,1,11,65,29,258,36,66,00,220,,71,08,010,26,72,36,327,30*6B
$GLGSV,3,2,11,74,13,123,08,75,17,173,07,76,00,225,19,84,05,148,*63
$GLGSV,3,3,11,85,48,121,18,86,51,015,34,87,12,346,*5B
$GNGLL,0419.80787,S,05539.64544,E,125345.00,A,D*6A
$GNRMC,125346.00,A,0419.80788,S,05539.64547,E,0.030,,200525,,,D*7F
$GNVTG,,T,,M,0.030,N,0.055,K,D*3B
$GNGGA,125346.00,0419.80788,S,05539.64547,E,2,12,0.68,9.1,M,-47.6,M,,0000*7B
$GNGSA,A,3,32,18,10,26,16,27,31,40,41,08,,,1.31,0.68,1.11*14
$GNGSA,A,3,85,72,71,75,86,65,,,,,,,1.31,0.68,1.11*11
$GPGSV,5,1,17,04,00,220,,08,16,311,36,10,14,013,41,16,24,228,36*79
$GPGSV,5,2,17,18,32,100,19,23,01,051,,26,28,198,18,27,51,293,39*79
$GPGSV,5,3,17,28,56,132,,29,03,147,,31,44,177,25,32,45,003,36*78
$GPGSV,5,4,17,36,52,277,36,40,84,353,41,41,58,082,29,49,32,274,*77
$GPGSV,5,5,17,50,10,089,*4A
$GLGSV,3,1,11,65,29,258,36,66,00,220,,71,08,010,25,72,36,327,30*68
$GLGSV,3,2,11,74,13,123,09,75,17,173,11,76,00,225,18,84,05,148,*64
$GLGSV,3,3,11,85,48,121,18,86,51,015,35,87,12,346,*5A
$GNGLL,0419.80788,S,05539.64547,E,125346.00,A,D*65
$GNRMC,125347.00,A,0419.80791,S,05539.64551,E,0.088,,200525,,,D*72
$GNVTG,,T,,M,0.088,N,0.163,K,D*3C
$GNGGA,125347.00,0419.80791,S,05539.64551,E,2,12,0.68,9.2,M,-47.6,M,,0000*76
$GNGSA,A,3,32,18,10,26,16,27,31,40,41,08,,,1.31,0.68,1.11*14
$GNGSA,A,3,85,72,71,75,86,65,,,,,,,1.31,0.68,1.11*11
$GPGSV,5,1,17,04,00,220,,08,16,311,36,10,14,013,41,16,24,228,36*79
$GPGSV,5,2,17,18,32,100,18,23,01,051,,26,28,198,19,27,51,293,39*79
$GPGSV,5,3,17,28,56,132,,29,03,147,,31,44,177,25,32,45,003,36*78
$GPGSV,5,4,17,36,52,277,36,40,84,353,41,41,58,082,29,49,32,274,*77
$GPGSV,5,5,17,50,10,089,*4A
$GLGSV,3,1,11,65,29,258,36,66,00,220,,71,08,010,25,72,36,327,30*68
$GLGSV,3,2,11,74,13,123,05,75,17,173,11,76,00,225,17,84,05,148,*67
$GLGSV,3,3,11,85,48,121,18,86,51,015,35,87,12,346,*5A
$GNGLL,0419.80791,S,05539.64551,E,125347.00,A,D*6B
$GNRMC,125348.00,A,0419.80792,S,05539.64553,E,0.055,,200525,,,D*7C
$GNVTG,,T,,M,0.055,N,0.103,K,D*3A
$GNGGA,125348.00,0419.80792,S,05539.64553,E,2,12,0.68,9.2,M,-47.6,M,,0000*78
$GNGSA,A,3,32,18,10,26,16,27,31,40,41,08,,,1.31,0.68,1.11*14
$GNGSA,A,3,85,72,71,75,86,65,,,,,,,1.31,0.68,1.11*11
$GPGSV,5,1,17,04,00,220,,08,16,311,37,10,14,013,41,16,24,228,36*78
$GPGSV,5,2,17,18,32,100,18,23,01,051,,26,28,198,19,27,51,293,39*79
$GPGSV,5,3,17,28,56,132,,29,03,147,,31,44,177,25,32,45,003,35*7B
$GPGSV,5,4,17,36,52,277,36,40,84,353,41,41,58,082,29,49,32,274,*77
$GPGSV,5,5,17,50,10,089,*4A
$GLGSV,3,1,11,65,29,258,35,66,00,220,,71,08,010,25,72,36,327,29*63
$GLGSV,3,2,11,74,13,123,08,75,17,173,09,76,00,225,18,84,04,148,*6D
$GLGSV,3,3,11,85,48,121,16,86,51,015,35,87,12,346,*54
$GNGLL,0419.80792,S,05539.64553,E,125348.00,A,D*65
$GNRMC,125349.00,A,0419.80794,S,05539.64556,E,0.055,,200525,,,D*7E
$GNVTG,,T,,M,0.055,N,0.102,K,D*3B
$GNGGA,125349.00,0419.80794,S,05539.64556,E,2,12,0.77,9.3,M,-47.6,M,,0000*75
$GNGSA,A,3,32,10,26,16,27,31,40,41,08,,,,1.36,0.77,1.12*17
$GNGSA,A,3,85,72,71,75,86,65,,,,,,,1.36,0.77,1.12*1B
$GPGSV,5,1,17,04,00,220,,08,16,311,37,10,14,013,41,16,24,228,36*78
$GPGSV,5,2,17,18,32,100,17,23,01,051,,26,28,198,19,27,51,293,39*76
$GPGSV,5,3,17,28,56,132,,29,03,147,,31,44,177,25,32,45,003,35*7B
$GPGSV,5,4,17,36,52,277,36,40,84,353,41,41,58,082,29,49,32,274,*77
$GPGSV,5,5,17,50,10,089,*4A
$GLGSV,3,1,11,65,29,258,35,66,00,220,,71,08,010,23,72,36,327,29*65
$GLGSV,3,2,11,74,13,123,06,75,17,173,13,76,00,225,18,84,04,148,*68
$GLGSV,3,3,11,85,48,122,17,86,51,015,36,87,12,346,*55
$GNGLL,0419.80794,S,05539.64556,E,125349.00,A,D*67
$GNRMC,125350.00,A,0419.80798,S,05539.64560,E,0.188,,200525,,,D*7E
$GNVTG,,T,,M,0.188,N,0.349,K,D*37
$GNGGA,125350.00,0419.80798,S,05539.64560,E,2,12,0.71,9.4,M,-47.6,M,,0000*75
$GNGSA,A,3,32,18,10,26,16,27,31,40,41,08,,,1.37,0.71,1.17*1C
$GNGSA,A,3,85,72,71,75,86,65,,,,,,,1.37,0.71,1.17*19
$GPGSV,5,1,17,04,00,220,,08,16,311,37,10,14,013,40,16,24,228,36*79
$GPGSV,5,2,17,18,32,100,16,23,01,051,,26,28,198,18,27,51,293,40*78
$GPGSV,5,3,17,28,56,132,,29,03,147,,31,44,177,24,32,45,003,36*79
