$GNRMC,052415.00,A,0419.83096,S,05539.80322,E,0.603,,270525,,,A*7F
$GNVTG,,T,,M,0.603,N,1.116,K,A*3F
$GNGGA,052415.00,0419.83096,S,05539.80322,E,1,12,0.74,19.2,M,-47.6,M,,*43
$GNGSA,A,3,05,24,12,20,18,15,13,,,,,,1.45,0.74,1.25*14
$GNGSA,A,3,79,78,83,82,67,80,,,,,,,1.45,0.74,1.25*10
$GPGSV,5,1,17,05,62,079,17,11,06,026,,12,51,016,26,13,16,137,14*71
$GPGSV,5,2,17,15,31,170,25,18,32,253,16,20,32,045,23,22,06,132,*71
$GPGSV,5,3,17,23,17,207,,24,51,206,29,25,28,342,22,29,09,320,*7D
$GPGSV,5,4,17,36,52,277,,40,86,351,,41,58,082,,49,32,274,*7C
$GPGSV,5,5,17,50,10,089,*4A
$GLGSV,3,1,09,67,17,100,09,68,24,152,,69,08,198,,78,28,150,20*6B
$GLGSV,3,2,09,79,80,103,24,80,37,341,26,82,14,353,18,83,28,301,26*65
$GLGSV,3,3,09,84,12,247,*52
$GNGLL,0419.83096,S,05539.80322,E,052415.00,A,A*64
$GNRMC,052416.00,A,0419.83121,S,05539.80327,E,1.553,,270525,,,A*73
$GNVTG,,T,,M,1.553,N,2.876,K,A*34
$GNGGA,052416.00,0419.83121,S,05539.80327,E,1,12,0.74,20.1,M,-47.6,M,,*41
$GNGSA,A,3,05,24,12,20,18,15,13,,,,,,1.45,0.74,1.25*14
$GNGSA,A,3,79,78,83,82,67,80,,,,,,,1.45,0.74,1.25*10
$GPGSV,5,1,17,05,62,079,14,11,06,026,,12,51,016,23,13,16,137,14*77
$GPGSV,5,2,17,15,31,170,21,18,32,253,13,20,32,045,21,22,06,132,*72
$GPGSV,5,3,17,23,17,207,,24,51,206,22,25,28,342,20,29,09,320,*74
$GPGSV,5,4,17,36,52,277,,40,86,351,,41,58,082,,49,32,274,*7C
$GPGSV,5,5,17,50,10,089,*4A
$GLGSV,3,1,09,67,17,100,10,68,24,152,,69,08,198,,78,28,150,18*68
$GLGSV,3,2,09,79,80,103,22,80,37,341,23,82,14,353,18,83,28,301,22*62
$GLGSV,3,3,09,84,12,247,*52
$GNGLL,0419.83121,S,05539.80327,E,052416.00,A,A*6F
$GNRMC,052417.00,A,0419.83121,S,05539.80311,E,0.257,,270525,,,A*75
$GNVTG,,T,,M,0.257,N,0.476,K,A*38
$GNGGA,052417.00,0419.83121,S,05539.80311,E,1,12,0.85,20.3,M,-47.6,M,,*49
$GNGSA,A,3,05,24,12,20,15,13,,,,,,,1.52,0.85,1.26*16
$GNGSA,A,3,79,78,83,82,67,80,,,,,,,1.52,0.85,1.26*1B
$GPGSV,5,1,17,05,62,079,15,11,06,026,,12,51,016,24,13,16,137,14*71
$GPGSV,5,2,17,15,31,170,21,18,32,253,03,20,32,045,26,22,06,132,*74
$GPGSV,5,3,17,23,17,207,,24,51,206,31,25,28,342,28,29,09,320,*7E
$GPGSV,5,4,17,36,52,277,,40,86,351,,41,58,082,,49,32,274,*7C
$GPGSV,5,5,17,50,10,089,*4A
$GLGSV,3,1,09,67,17,100,16,68,24,152,,69,08,198,,78,28,150,17*61
$GLGSV,3,2,09,79,80,103,30,80,37,341,30,82,14,353,19,83,28,301,26*66
$GLGSV,3,3,09,84,12,247,*52
$GNGLL,0419.83121,S,05539.80311,E,052417.00,A,A*6B
$GNRMC,052418.00,A,0419.83108,S,05539.80307,E,0.246,,270525,,,A*76
$GNVTG,,T,,M,0.246,N,0.455,K,A*39
$GNGGA,052418.00,0419.83108,S,05539.80307,E,1,12,0.85,19.8,M,-47.6,M,,*4B
$GNGSA,A,3,05,24,12,20,15,13,,,,,,,1.52,0.85,1.26*16
$GNGSA,A,3,79,78,83,82,67,80,,,,,,,1.52,0.85,1.26*1B
$GPGSV,5,1,17,05,62,079,20,11,06,026,,12,51,016,22,13,16,137,14*71
$GPGSV,5,2,17,15,31,170,23,18,32,253,08,20,32,045,28,22,06,132,*73
$GPGSV,5,3,17,23,17,207,20,24,51,206,30,25,28,342,28,29,09,320,*7D
$GPGSV,5,4,17,36,52,277,,40,86,351,,41,58,082,,49,32,274,*7C
$GPGSV,5,5,17,50,10,089,*4A
$GLGSV,3,1,09,67,17,100,16,68,24,152,,69,08,198,,78,28,150,17*61
$GLGSV,3,2,09,79,80,107,30,80,37,341,30,82,14,353,21,83,28,301,27*68
$GLGSV,3,3,09,84,12,247,*52
$GNGLL,0419.83108,S,05539.80307,E,052418.00,A,A*68
$GNRMC,052419.00,A,0419.83095,S,05539.80295,E,0.127,,270525,,,A*7C
$GNVTG,,T,,M,0.127,N,0.236,K,A*3E
$GNGGA,052419.00,0419.83095,S,05539.80295,E,1,12,0.74,20.1,M,-47.6,M,,*48
$GNGSA,A,3,05,24,12,20,18,15,13,,,,,,1.45,0.74,1.25*14
$GNGSA,A,3,79,78,83,82,67,80,,,,,,,1.45,0.74,1.25*10
$GPGSV,5,1,17,05,62,079,21,11,06,026,06,12,51,016,21,13,16,137,14*75
$GPGSV,5,2,17,15,31,170,24,18,32,253,12,20,32,045,22,22,06,132,*75
$GPGSV,5,3,17,23,17,207,17,24,51,206,25,25,28,342,26,29,09,320,*73
$GPGSV,5,4,17,36,52,277,,40,86,351,,41,58,082,,49,32,274,*7C
$GPGSV,5,5,17,50,10,089,*4A
$GLGSV,3,1,09,67,17,100,10,68,24,152,,69,08,198,,78,28,150,17*67
$GLGSV,3,2,09,79,80,107,28,80,38,341,29,82,14,353,21,83,28,301,27*66
$GLGSV,3,3,09,84,12,247,*52
$GNGLL,0419.83095,S,05539.80295,E,052419.00,A,A*66
$GNRMC,052420.00,A,0419.83090,S,05539.80296,E,0.063,,270525,,,A*71
$GNVTG,,T,,M,0.063,N,0.117,K,A*3F
$GNGGA,052420.00,0419.83090,S,05539.80296,E,1,12,0.76,20.1,M,-47.6,M,,*46
$GNGSA,A,3,05,24,12,20,18,15,13,,,,,,1.55,0.76,1.34*17
$GNGSA,A,3,79,78,83,82,67,80,,,,,,,1.55,0.76,1.34*13
$GPGSV,5,1,17,05,62,079,21,11,06,026,08,12,51,016,19,13,16,137,15*71
$GPGSV,5,2,17,15,31,170,25,18,32,253,14,20,32,045,24,22,06,132,*74
$GPGSV,5,3,17,23,17,207,16,24,51,206,25,25,28,342,26,29,09,320,*72
$GPGSV,5,4,17,36,52,277,,40,86,351,,41,58,082,,49,32,274,*7C
$GPGSV,5,5,17,50,10,089,*4A
$GLGSV,3,1,09,67,17,100,09,68,24,152,,69,08,198,,78,28,150,14*6C
$GLGSV,3,2,09,79,80,107,27,80,38,341,27,82,14,353,21,83,28,301,26*66
$GLGSV,3,3,09,84,12,247,*52
$GNGLL,0419.83090,S,05539.80296,E,052420.00,A,A*6A
$GNRMC,052421.00,A,0419.83069,S,05539.80285,E,1.100,,270525,,,A*71
$GNVTG,,T,,M,1.100,N,2.037,K,A*3B
$GNGGA,052421.00,0419.83069,S,05539.80285,E,1,12,0.74,20.4,M,-47.6,M,,*44
$GNGSA,A,3,05,24,12,20,18,15,13,,,,,,1.45,0.74,1.25*14
$GNGSA,A,3,79,78,83,82,67,80,,,,,,,1.45,0.74,1.25*10
$GPGSV,5,1,17,05,62,079,19,11,06,026,09,12,51,016,17,13,16,137,15*75
$GPGSV,5,2,17,15,31,170,22,18,32,253,13,20,32,045,22,22,06,132,*72
$GPGSV,5,3,17,23,17,207,15,24,51,206,26,25,28,342,24,29,09,320,*70
$GPGSV,5,4,17,36,52,277,,40,86,351,,41,58,082,,49,32,274,*7C
$GPGSV,5,5,17,50,10,089,*4A
$GLGSV,3,1,09,67,17,100,09,68,24,152,,69,08,198,,78,28,150,13*6B
$GLGSV,3,2,09,79,80,107,25,80,38,341,25,82,14,354,18,83,28,301,24*69
$GLGSV,3,3,09,84,12,247,*52
$GNGLL,0419.83069,S,05539.80285,E,052421.00,A,A*6F
$GNRMC,052422.00,A,0419.83043,S,05539.80279,E,0.836,,270525,,,A*74
$GNVTG,,T,,M,0.836,N,1.549,K,A*39
$GNGGA,052422.00,0419.83043,S,05539.80279,E,1,12,0.74,21.1,M,-47.6,M,,*48
$GNGSA,A,3,05,24,12,20,18,15,13,,,,,,1.45,0.74,1.25*14
$GNGSA,A,3,79,78,83,82,67,80,,,,,,,1.45,0.74,1.25*10
$GPGSV,5,1,17,05,62,079,19,11,06,026,12,12,51,016,15,13,16,137,15*7D
$GPGSV,5,2,17,15,31,170,23,18,32,253,11,20,32,045,22,22,06,132,*71
$GPGSV,5,3,17,23,17,207,17,24,51,206,28,25,28,342,25,29,09,320,*7D
$GPGSV,5,4,17,36,52,277,,40,86,351,,41,58,082,,49,32,274,*7C
$GPGSV,5,5,17,50,10,089,*4A
$GLGSV,3,1,09,67,17,100,13,68,24,152,,69,08,198,,78,28,150,17*64
$GLGSV,3,2,09,79,80,107,25,80,38,341,21,82,14,354,15,83,28,302,23*64
$GLGSV,3,3,09,84,12,247,*52
$GNGLL,0419.83043,S,05539.80279,E,052422.00,A,A*67
$GNRMC,052423.00,A,0419.83044,S,05539.80245,E,0.664,,270525,,,A*74
$GNVTG,,T,,M,0.664,N,1.230,K,A*39
$GNGGA,052423.00,0419.83044,S,05539.80245,E,1,12,0.74,20.9,M,-47.6,M,,*48
$GNGSA,A,3,05,24,12,20,18,15,13,,,,,,1.45,0.74,1.25*14
$GNGSA,A,3,79,78,83,82,67,80,,,,,,,1.45,0.74,1.25*10
$GPGSV,5,1,17,05,62,079,21,11,06,026,14,12,51,016,14,13,16,137,15*71
$GPGSV,5,2,17,15,31,170,24,18,32,253,10,20,32,045,24,22,06,132,*71
$GPGSV,5,3,17,23,17,207,18,24,51,206,28,25,28,342,24,29,09,320,*73
$GPGSV,5,4,17,36,52,277,,40,86,351,,41,58,082,,49,32,274,*7C
$GPGSV,5,5,17,50,10,089,*4A
$GLGSV,3,1,09,67,17,100,13,68,24,152,,69,08,198,,78,28,150,11*62
$GLGSV,3,2,09,79,80,107,25,80,38,341,19,82,14,354,17,83,28,302,22*6C
$GLGSV,3,3,09,84,12,247,*52
$GNGLL,0419.83044,S,05539.80245,E,052423.00,A,A*6E
$GNRMC,052424.00,A,0419.83047,S,05539.80234,E,0.266,,270525,,,A*70
$GNVTG,,T,,M,0.266,N,0.492,K,A*30
$GNGGA,052424.00,0419.83047,S,05539.80234,E,1,12,0.74,20.8,M,-47.6,M,,*4B
$GNGSA,A,3,05,24,12,20,18,15,13,,,,,,1.45,0.74,1.25*14
$GNGSA,A,3,79,78,83,82,67,80,,,,,,,1.45,0.74,1.25*10
$GPGSV,5,1,17,05,62,079,21,11,06,026,14,12,51,016,14,13,16,137,15*71
$GPGSV,5,2,17,15,31,170,25,18,32,253,14,20,32,045,30,22,06,132,*71
$GPGSV,5,3,17,23,17,207,20,24,51,206,32,25,28,342,25,29,09,320,*72
$GPGSV,5,4,17,36,52,277,,40,86,351,,41,58,082,,49,32,274,*7C
$GPGSV,5,5,17,50,10,089,*4A
$GLGSV,3,1,09,67,17,100,11,68,24,152,,69,08,198,,78,28,150,11*60
$GLGSV,3,2,09,79,80,107,25,80,38,341,19,82,14,354,18,83,28,302,21*60
$GLGSV,3,3,09,84,12,247,*52
$GNGLL,0419.83047,S,05539.80234,E,052424.00,A,A*6C
$GNRMC,052425.00,A,0419.83044,S,05539.80218,E,0.632,,270525,,,A*79
$GNVTG,,T,,M,0.632,N,1.171,K,A*3C
$GNGGA,052425.00,0419.83044,S,05539.80218,E,1,12,0.74,20.4,M,-47.6,M,,*4B
$GNGSA,A,3,05,24,12,20,18,15,13,,,,,,1.45,0.74,1.25*14
$GNGSA,A,3,79,78,83,82,67,80,,,,,,,1.45,0.74,1.25*10
$GPGSV,5,1,17,05,62,079,20,11,06,026,15,12,51,016,14,13,16,137,15*71
$GPGSV,5,2,17,15,31,170,25,18,32,253,18,20,32,045,25,22,06,132,04*7D
$GPGSV,5,3,17,23,17,207,18,24,51,206,27,25,28,342,25,29,09,320,*7D
$GPGSV,5,4,17,36,52,277,,40,86,351,,41,58,082,,49,32,274,*7C
$GPGSV,5,5,17,50,10,089,*4A
$GLGSV,3,1,09,67,17,100,13,68,24,152,,69,08,198,,78,28,150,11*62
$GLGSV,3,2,09,79,80,107,26,80,38,341,22,82,14,354,17,83,28,302,21*64
$GLGSV,3,3,09,84,12,247,*52
$GNGLL,0419.83044,S,05539.80218,E,052425.00,A,A*60
$GNRMC,052426.00,A,0419.83064,S,05539.80213,E,0.757,,270525,,,A*71
$GNVTG,,T,,M,0.757,N,1.402,K,A*3F
$GNGGA,052426.00,0419.83064,S,05539.80213,E,1,12,0.79,19.6,M,-47.6,M,,*44
$GNGSA,A,3,05,24,12,20,18,15,11,,,,,,1.46,0.79,1.22*1F
$GNGSA,A,3,79,78,83,82,67,80,,,,,,,1.46,0.79,1.22*19
$GPGSV,5,1,17,05,62,079,21,11,06,026,09,12,51,016,19,13,16,137,*74
$GPGSV,5,2,17,15,31,170,30,18,32,253,17,20,32,045,31,22,06,132,06*71
$GPGSV,5,3,17,23,17,207,19,24,51,206,32,25,28,342,27,29,09,320,*7A
$GPGSV,5,4,17,36,52,277,,40,86,351,,41,58,082,,49,32,274,*7C
$GPGSV,5,5,17,50,10,089,*4A
$GLGSV,3,1,09,67,17,100,12,68,24,152,,69,08,198,,78,28,150,09*6A
$GLGSV,3,2,09,79,80,107,26,80,38,341,24,82,14,354,16,83,28,302,22*60
$GLGSV,3,3,09,84,12,247,*52
$GNGLL,0419.83064,S,05539.80213,E,052426.00,A,A*6A
$GNRMC,052427.00,A,0419.83057,S,05539.80187,E,0.200,,270525,,,A*79
$GNVTG,,T,,M,0.200,N,0.371,K,A*3A
$GNGGA,052427.00,0419.83057,S,05539.80187,E,1,12,0.73,20.0,M,-47.6,M,,*4D
$GNGSA,A,3,05,24,12,20,18,15,11,,,,,,1.41,0.73,1.21*11
$GNGSA,A,3,79,78,83,82,67,80,,,,,,,1.41,0.73,1.21*17
$GPGSV,5,1,17,05,62,079,22,11,06,026,09,12,51,016,21,13,16,137,19*74
$GPGSV,5,2,17,15,31,170,30,18,32,253,13,20,32,045,27,22,06,132,07*73
$GPGSV,5,3,17,23,17,207,21,24,51,206,28,25,28,342,26,29,09,320,*7B
$GPGSV,5,4,17,36,52,277,,40,86,351,,41,58,082,,49,32,274,*7C
$GPGSV,5,5,17,50,10,089,*4A
$GLGSV,3,1,09,67,17,100,09,68,24,152,,69,08,198,,78,28,150,08*61
$GLGSV,3,2,09,79,80,107,27,80,38,341,22,82,14,354,19,83,28,302,22*68
$GLGSV,3,3,09,84,12,247,*52
$GNGLL,0419.83057,S,05539.80187,E,052427.00,A,A*65
$GNRMC,052428.00,A,0419.83061,S,05539.80176,E,0.144,,270525,,,A*7E
$GNVTG,,T,,M,0.144,N,0.267,K,A*3F
$GNGGA,052428.00,0419.83061,S,05539.80176,E,1,12,0.76,20.0,M,-47.6,M,,*4C
$GNGSA,A,3,05,24,12,20,18,15,11,,,,,,1.55,0.76,1.34*15
$GNGSA,A,3,79,78,83,82,67,80,,,,,,,1.55,0.76,1.34*13
$GPGSV,5,1,17,05,62,079,25,11,06,026,09,12,51,016,21,13,16,137,20*79
$GPGSV,5,2,17,15,31,170,30,18,32,253,19,20,32,045,30,22,06,132,07*7F
$GPGSV,5,3,17,23,17,207,21,24,51,206,28,25,28,342,28,29,09,320,*75
$GPGSV,5,4,17,36,52,277,,40,86,351,,41,58,082,,49,32,274,*7C
$GPGSV,5,5,17,50,10,089,*4A
$GLGSV,3,1,09,67,17,100,14,68,24,152,,69,08,198,,78,28,150,14*60
$GLGSV,3,2,09,79,80,107,29,80,38,341,24,82,14,354,21,83,28,302,22*6B
$GLGSV,3,3,09,84,12,247,*52
$GNGLL,0419.83061,S,05539.80176,E,052428.00,A,A*61
$GNRMC,052429.00,A,0419.83067,S,05539.80178,E,0.568,,270525,,,A*7D
$GNVTG,,T,,M,0.568,N,1.051,K,A*33
$GNGGA,052429.00,0419.83067,S,05539.80178,E,1,12,0.81,20.0,M,-47.6,M,,*4D
$GNGSA,A,3,05,24,12,20,18,15,11,,,,,,1.61,0.81,1.39*17
$GNGSA,A,3,79,78,83,82,67,80,,,,,,,1.61,0.81,1.39*11
$GPGSV,5,1,17,05,62,079,25,11,06,026,09,12,51,016,17,13,16,137,19*76
$GPGSV,5,2,17,15,31,170,29,18,32,253,21,20,32,045,28,22,06,132,06*74
$GPGSV,5,3,17,23,17,207,19,24,51,206,27,25,28,342,27,29,09,320,*7E
$GPGSV,5,4,17,36,52,277,,40,86,351,,41,58,082,,49,32,274,*7C
$GPGSV,5,5,17,50,10,089,*4A
$GLGSV,3,1,09,67,17,100,12,68,24,152,,69,08,198,,78,28,150,14*66
$GLGSV,3,2,09,79,80,107,29,80,38,341,25,82,14,354,20,83,28,302,21*68
$GLGSV,3,3,09,84,12,247,*52
$GNGLL,0419.83067,S,05539.80178,E,052429.00,A,A*68
$GNRMC,052430.00,A,0419.83076,S,05539.80168,E,0.216,,270525,,,A*7A
$GNVTG,,T,,M,0.216,N,0.400,K,A*3C
$GNGGA,052430.00,0419.83076,S,05539.80168,E,1,12,0.74,19.4,M,-47.6,M,,*40
$GNGSA,A,3,05,24,12,20,18,15,13,11,,,,,1.45,0.74,1.25*14
$GNGSA,A,3,79,78,83,82,67,80,,,,,,,1.45,0.74,1.25*10
$GPGSV,5,1,17,05,62,079,26,11,06,026,09,12,51,016,17,13,16,137,20*7F
$GPGSV,5,2,17,15,31,170,29,18,32,253,18,20,32,045,28,22,06,132,06*7E
$GPGSV,5,3,17,23,17,207,20,24,51,206,29,25,28,342,28,29,09,320,*75
$GPGSV,5,4,17,36,52,277,,40,86,351,,41,58,082,,49,32,274,*7C
$GPGSV,5,5,17,50,10,089,*4A
$GLGSV,3,1,09,67,17,100,12,68,24,152,,69,08,198,,78,28,150,13*61
$GLGSV,3,2,09,79,80,107,29,80,38,341,24,82,14,354,20,83,28,302,21*69
$GLGSV,3,3,09,84,12,247,*52
$GNGLL,0419.83076,S,05539.80168,E,052430.00,A,A*61
$GNRMC,052431.00,A,0419.83074,S,05539.80155,E,0.075,,270525,,,A*70
$GNVTG,,T,,M,0.075,N,0.140,K,A*3A
$GNGGA,052431.00,0419.83074,S,05539.80155,E,1,12,0.74,19.2,M,-47.6,M,,*4B
$GNGSA,A,3,05,24,12,20,18,15,13,,,,,,1.45,0.74,1.25*14
$GNGSA,A,3,79,78,83,82,67,80,,,,,,,1.45,0.74,1.25*10
$GPGSV,5,1,17,05,62,079,26,11,06,026,,12,51,016,23,13,16,137,21*70
$GPGSV,5,2,17,15,31,170,28,18,32,253,17,20,32,045,28,22,06,132,06*70
$GPGSV,5,3,17,23,17,207,21,24,51,206,31,25,28,342,30,29,09,320,*74
$GPGSV,5,4,17,36,52,277,,40,86,351,,41,58,082,,49,32,274,*7C
$GPGSV,5,5,17,50,10,089,*4A
$GLGSV,3,1,09,67,17,100,12,68,24,152,20,69,08,198,,78,28,150,13*63
$GLGSV,3,2,09,79,80,107,31,80,38,341,23,82,14,354,19,83,28,302,22*6E
$GLGSV,3,3,09,84,12,247,*52
$GNGLL,0419.83074,S,05539.80155,E,052431.00,A,A*6C
$GNRMC,052432.00,A,0419.83062,S,05539.80141,E,0.201,,270525,,,A*70
$GNVTG,,T,,M,0.201,N,0.373,K,A*39
$GNGGA,052432.00,0419.83062,S,05539.80141,E,1,12,0.76,19.3,M,-47.6,M,,*49
$GNGSA,A,3,05,24,12,20,18,15,13,,,,,,1.47,0.76,1.25*14
$GNGSA,A,3,79,78,83,82,67,80,,,,,,,1.47,0.76,1.25*10
$GPGSV,5,1,17,05,62,078,25,11,06,026,,12,51,016,24,13,16,137,21*75
$GPGSV,5,2,17,15,31,170,27,18,32,253,16,20,32,045,29,22,06,132,08*71
$GPGSV,5,3,17,23,17,207,21,24,51,206,30,25,28,342,28,29,09,320,*7C
$GPGSV,5,4,17,36,52,277,,40,86,351,,41,58,082,,49,32,274,*7C
$GPGSV,5,5,17,50,10,089,*4A
$GLGSV,3,1,09,67,17,100,12,68,24,152,22,69,08,198,,78,28,150,13*61
$GLGSV,3,2,09,79,80,107,31,80,38,341,24,82,14,354,18,83,28,302,22*68
$GLGSV,3,3,09,84,12,247,*52
$GNGLL,0419.83062,S,05539.80141,E,052432.00,A,A*6D
$GNRMC,052433.00,A,0419.83055,S,05539.80124,E,0.083,,270525,,,A*7E
$GNVTG,,T,,M,0.083,N,0.153,K,A*31
$GNGGA,052433.00,0419.83055,S,05539.80124,E,1,12,0.74,19.3,M,-47.6,M,,*4D
$GNGSA,A,3,05,24,12,20,18,15,13,,,,,,1.45,0.74,1.25*14
$GNGSA,A,3,79,78,83,82,67,80,,,,,,,1.45,0.74,1.25*10
$GPGSV,5,1,17,05,62,078,25,11,06,026,,12,51,016,25,13,16,137,21*74
$GPGSV,5,2,17,15,31,170,27,18,32,253,17,20,32,045,31,22,06,132,08*79
$GPGSV,5,3,17,23,17,207,21,24,51,206,27,25,28,342,28,29,09,320,*7A
$GPGSV,5,4,17,36,52,277,,40,86,351,,41,58,082,,49,32,274,*7C
$GPGSV,5,5,17,50,10,089,*4A
$GLGSV,3,1,09,67,17,100,12,68,24,152,20,69,08,198,,78,28,150,13*63
$GLGSV,3,2,09,79,80,107,32,80,38,341,26,82,14,354,17,83,28,302,23*67
$GLGSV,3,3,09,84,12,247,*52
$GNGLL,0419.83055,S,05539.80124,E,052433.00,A,A*6B
$GNRMC,052434.00,A,0419.83048,S,05539.80110,E,0.177,,270525,,,A*78
$GNVTG,,T,,M,0.177,N,0.327,K,A*3A
$GNGGA,052434.00,0419.83048,S,05539.80110,E,1,12,0.74,19.5,M,-47.6,M,,*47
$GNGSA,A,3,05,24,12,20,18,15,13,,,,,,1.45,0.74,1.25*14
$GNGSA,A,3,79,78,83,82,67,80,,,,,,,1.45,0.74,1.25*10
$GPGSV,5,1,17,05,62,078,25,11,06,026,,12,51,016,24,13,16,137,19*7E
$GPGSV,5,2,17,15,31,170,28,18,32,253,18,20,32,045,31,22,06,132,08*79
$GPGSV,5,3,17,23,17,207,21,24,51,206,27,25,28,342,29,29,09,320,*7B
$GPGSV,5,4,17,36,52,277,,40,86,351,,41,58,082,,49,32,274,*7C
$GPGSV,5,5,17,50,10,089,*4A
$GLGSV,3,1,09,67,17,100,12,68,24,152,20,69,08,198,,78,28,150,12*62
$GLGSV,3,2,09,79,80,107,31,80,38,341,25,82,14,354,18,83,28,302,23*68
$GLGSV,3,3,09,84,12,247,*52
$GNGLL,0419.83048,S,05539.80110,E,052434.00,A,A*67
$GNRMC,052435.00,A,0419.83043,S,05539.80072,E,0.353,,270525,,,A*73
$GNVTG,,T,,M,0.353,N,0.653,K,A*38
$GNGGA,052435.00,0419.83043,S,05539.80072,E,1,12,0.79,19.1,M,-47.6,M,,*41
$GNGSA,A,3,05,24,12,20,18,15,13,,,,,,1.53,0.79,1.31*1B
$GNGSA,A,3,79,78,83,82,67,80,,,,,,,1.53,0.79,1.31*1F
$GPGSV,5,1,17,05,62,078,24,11,06,026,,12,51,016,22,13,16,137,19*79
$GPGSV,5,2,17,15,31,170,27,18,32,253,21,20,32,045,31,22,06,132,08*7C
$GPGSV,5,3,17,23,17,207,19,24,51,206,30,25,28,342,30,29,09,320,*7E
$GPGSV,5,4,17,36,52,277,,40,86,351,,41,58,082,,49,32,274,*7C
$GPGSV,5,5,17,50,10,089,*4A
$GLGSV,3,1,09,67,17,100,17,68,24,152,22,69,08,198,,78,28,150,14*63
$GLGSV,3,2,09,79,80,107,31,80,38,341,26,82,14,354,18,83,28,302,25*6D
$GLGSV,3,3,09,84,12,247,*52
$GNGLL,0419.83043,S,05539.80072,E,052435.00,A,A*68
$GNRMC,052436.00,A,0419.83039,S,05539.80052,E,0.298,,270525,,,A*79
$GNVTG,,T,,M,0.298,N,0.552,K,A*3C
$GNGGA,052436.00,0419.83039,S,05539.80052,E,1,12,0.74,18.7,M,-47.6,M,,*47
$GNGSA,A,3,05,24,12,20,18,15,13,,,,,,1.45,0.74,1.25*14
$GNGSA,A,3,79,78,83,82,67,80,,,,,,,1.45,0.74,1.25*10
$GPGSV,5,1,17,05,62,078,25,11,06,026,,12,51,016,21,13,16,137,17*75
$GPGSV,5,2,17,15,31,170,26,18,32,253,20,20,32,045,31,22,06,132,08*7C
$GPGSV,5,3,17,23,17,207,20,24,51,206,31,25,28,342,30,29,09,320,*75
$GPGSV,5,4,17,36,52,277,,40,86,351,,41,58,082,,49,32,274,*7C
$GPGSV,5,5,17,50,10,089,*4A
$GLGSV,3,1,09,67,17,100,17,68,24,152,22,69,08,198,,78,28,150,14*63
$GLGSV,3,2,09,79,80,107,32,80,38,341,25,82,14,354,17,83,28,302,26*61
$GLGSV,3,3,09,84,12,247,*52
$GNGLL,0419.83039,S,05539.80052,E,052436.00,A,A*64
$GNRMC,052437.00,A,0419.83040,S,05539.80038,E,0.114,,270525,,,A*7D
$GNVTG,,T,,M,0.114,N,0.211,K,A*3B
$GNGGA,052437.00,0419.83040,S,05539.80038,E,1,12,0.74,18.5,M,-47.6,M,,*46
$GNGSA,A,3,05,24,12,20,18,15,13,,,,,,1.45,0.74,1.25*14
$GNGSA,A,3,79,78,83,82,67,80,,,,,,,1.45,0.74,1.25*10
$GPGSV,5,1,17,05,62,078,31,11,06,026,,12,51,016,21,13,16,137,20*74
$GPGSV,5,2,17,15,31,170,25,18,32,253,19,20,32,045,32,22,06,132,08*76
$GPGSV,5,3,17,23,17,207,22,24,51,206,32,25,28,342,30,29,09,320,*74
$GPGSV,5,4,17,36,52,277,,40,86,351,,41,58,082,,49,32,274,*7C
$GPGSV,5,5,17,50,10,089,*4A
$GLGSV,3,1,09,67,17,100,14,68,24,152,21,69,08,198,,78,28,150,14*63
$GLGSV,3,2,09,79,80,107,32,80,38,341,24,82,14,354,15,83,28,302,26*62
$GLGSV,3,3,09,84,12,247,*52
$GNGLL,0419.83040,S,05539.80038,E,052437.00,A,A*67
$GNRMC,052438.00,A,0419.83043,S,05539.80022,E,0.009,,270525,,,A*77
$GNVTG,,T,,M,0.009,N,0.017,K,A*32
$GNGGA,052438.00,0419.83043,S,05539.80022,E,1,12,0.80,18.5,M,-47.6,M,,*4A
$GNGSA,A,3,05,24,12,20,18,15,13,22,,,,,1.51,0.80,1.28*17
$GNGSA,A,3,79,78,83,67,80,,,,,,,,1.51,0.80,1.28*19
$GPGSV,5,1,17,05,62,078,33,11,05,027,04,12,51,016,20,13,16,137,21*70
$GPGSV,5,2,17,15,31,170,25,18,32,253,30,20,32,045,33,22,06,132,11*74
$GPGSV,5,3,17,23,17,207,21,24,51,206,32,25,28,342,31,29,09,320,*76
$GPGSV,5,4,17,36,52,277,,40,86,351,,41,58,082,,49,32,274,*7C
$GPGSV,5,5,17,50,10,089,*4A
$GLGSV,3,1,09,67,17,100,14,68,24,152,19,69,08,198,,78,28,150,14*68
$GLGSV,3,2,09,79,80,107,31,80,38,341,25,82,14,354,,83,28,302,25*67
$GLGSV,3,3,09,84,12,247,*52
$GNGLL,0419.83043,S,05539.80022,E,052438.00,A,A*60
$GNRMC,052439.00,A,0419.83052,S,05539.80037,E,0.472,,270525,,,A*7A
$GNVTG,,T,,M,0.472,N,0.875,K,A*36
$GNGGA,052439.00,0419.83052,S,05539.80037,E,1,12,0.79,18.6,M,-47.6,M,,*4A
$GNGSA,A,3,05,24,12,20,18,15,13,22,,,,,1.63,0.79,1.43*1D
$GNGSA,A,3,79,78,83,67,80,,,,,,,,1.63,0.79,1.43*13
$GPGSV,5,1,17,05,62,078,31,11,05,027,07,12,52,017,20,13,16,137,20*72
$GPGSV,5,2,17,15,31,170,23,18,32,253,31,20,32,045,30,22,06,132,11*70
$GPGSV,5,3,17,23,17,207,22,24,51,206,31,25,28,342,31,29,09,320,*76
$GPGSV,5,4,17,36,52,277,,40,86,351,,41,58,082,,49,32,274,*7C
$GPGSV,5,5,17,50,10,089,*4A
$GLGSV,3,1,09,67,17,100,14,68,24,152,18,69,08,198,,78,28,150,14*69
$GLGSV,3,2,09,79,80,107,30,80,38,341,26,82,14,354,,83,28,302,22*62
$GLGSV,3,3,09,84,12,247,*52
$GNGLL,0419.83052,S,05539.80037,E,052439.00,A,A*65
$GNRMC,052440.00,A,0419.83056,S,05539.80044,E,0.070,,270525,,,A*72
$GNVTG,,T,,M,0.070,N,0.129,K,A*30
$GNGGA,052440.00,0419.83056,S,05539.80044,E,1,12,0.79,18.8,M,-47.6,M,,*4A
$GNGSA,A,3,05,24,12,20,18,15,13,22,,,,,1.63,0.79,1.43*1D
$GNGSA,A,3,79,78,83,67,80,,,,,,,,1.63,0.79,1.43*13
$GPGSV,5,1,17,05,62,078,31,11,05,027,09,12,52,017,23,13,16,136,21*7F
$GPGSV,5,2,17,15,31,170,22,18,32,253,30,20,32,045,31,22,06,132,11*71
$GPGSV,5,3,17,23,17,207,22,24,51,206,30,25,28,342,30,29,09,320,*76
$GPGSV,5,4,17,36,52,277,,40,86,351,,41,58,082,,49,32,274,*7C
$GPGSV,5,5,17,50,10,089,*4A
$GLGSV,3,1,09,67,17,100,14,68,24,152,21,69,08,198,,78,28,150,14*63
$GLGSV,3,2,09,79,80,107,29,80,38,341,25,82,14,354,,83,28,302,20*6B
$GLGSV,3,3,09,84,12,247,*52
$GNGLL,0419.83056,S,05539.80044,E,052440.00,A,A*6B
$GNRMC,052441.00,A,0419.83053,S,05539.80053,E,0.075,,270525,,,A*75
$GNVTG,,T,,M,0.075,N,0.140,K,A*3A
$GNGGA,052441.00,0419.83053,S,05539.80053,E,1,12,0.81,19.4,M,-47.6,M,,*42
$GNGSA,A,3,05,24,12,20,18,15,13,11,,,,,1.65,0.81,1.43*1C
$GNGSA,A,3,79,83,67,80,,,,,,,,,1.65,0.81,1.43*1D
$GPGSV,5,1,17,05,62,078,30,11,05,027,08,12,52,017,25,13,16,136,21*79
$GPGSV,5,2,17,15,31,170,19,18,32,253,30,20,32,045,30,22,06,132,11*78
$GPGSV,5,3,17,23,17,207,22,24,51,206,31,25,28,342,30,29,09,320,*77
$GPGSV,5,4,17,36,52,277,,40,86,351,,41,58,082,,49,32,274,*7C
$GPGSV,5,5,17,50,10,089,*4A
$GLGSV,3,1,09,67,17,100,12,68,24,152,22,69,08,198,,78,28,150,08*6B
$GLGSV,3,2,09,79,80,107,28,80,38,341,25,82,14,354,,83,28,302,21*6B
$GLGSV,3,3,09,84,12,247,*52
$GNGLL,0419.83053,S,05539.80053,E,052441.00,A,A*69
$GNRMC,052442.00,A,0419.83043,S,05539.80064,E,0.042,,270525,,,A*77
$GNVTG,,T,,M,0.042,N,0.077,K,A*3B
$GNGGA,052442.00,0419.83043,S,05539.80064,E,1,11,0.81,20.3,M,-47.6,M,,*4A
$GNGSA,A,3,05,24,12,20,18,15,13,,,,,,1.65,0.81,1.43*1C
$GNGSA,A,3,79,83,67,80,,,,,,,,,1.65,0.81,1.43*1D
$GPGSV,5,1,17,05,62,078,29,11,05,027,07,12,52,017,27,13,16,136,22*7F
$GPGSV,5,2,17,15,31,170,17,18,32,253,29,20,32,045,31,22,06,132,11*7F
$GPGSV,5,3,17,23,17,207,23,24,51,206,32,25,28,342,30,29,09,320,*75
$GPGSV,5,4,17,36,52,277,,40,86,351,,41,58,082,,49,32,274,*7C
$GPGSV,5,5,17,50,10,089,*4A
$GLGSV,3,1,09,67,17,100,15,68,24,152,24,69,08,198,,78,28,150,08*6A
$GLGSV,3,2,09,79,80,107,28,80,38,341,25,82,14,354,,83,28,302,23*69
$GLGSV,3,3,09,84,12,247,*52
$GNGLL,0419.83043,S,05539.80064,E,052442.00,A,A*6F
$GNRMC,052443.00,A,0419.83037,S,05539.80074,E,0.291,,270525,,,A*78
$GNVTG,,T,,M,0.291,N,0.538,K,A*39
$GNGGA,052443.00,0419.83037,S,05539.80074,E,1,11,0.81,20.6,M,-47.6,M,,*4C
$GNGSA,A,3,05,24,12,20,18,15,13,,,,,,1.65,0.81,1.43*1C
$GNGSA,A,3,79,83,67,80,,,,,,,,,1.65,0.81,1.43*1D
$GPGSV,5,1,17,05,62,078,30,11,05,027,06,12,52,017,27,13,16,136,22*76
$GPGSV,5,2,17,15,31,170,16,18,32,253,29,20,32,045,31,22,06,132,11*7E
$GPGSV,5,3,17,23,17,207,25,24,51,206,33,25,28,342,30,29,09,320,*72
$GPGSV,5,4,17,36,52,277,,40,86,351,,41,58,082,,49,32,274,*7C
$GPGSV,5,5,17,50,10,089,*4A
$GLGSV,3,1,09,67,17,100,13,68,24,152,25,69,08,198,,78,28,150,17*63
$GLGSV,3,2,09,79,80,107,27,80,38,341,26,82,14,354,,83,28,302,23*65
$GLGSV,3,3,09,84,12,247,*52
$GNGLL,0419.83037,S,05539.80074,E,052443.00,A,A*6C
$GNRMC,052444.00,A,0419.83023,S,05539.80071,E,0.134,,270525,,,A*73
$GNVTG,,T,,M,0.134,N,0.248,K,A*35
$GNGGA,052444.00,0419.83023,S,05539.80071,E,1,12,0.76,21.2,M,-47.6,M,,*45
$GNGSA,A,3,05,24,12,20,18,15,13,11,,,,,1.41,0.76,1.18*1C
$GNGSA,A,3,79,83,67,80,,,,,,,,,1.41,0.76,1.18*1D
$GPGSV,5,1,17,05,62,078,30,11,05,027,11,12,52,017,27,13,16,136,23*71
$GPGSV,5,2,17,15,31,170,16,18,32,253,31,20,32,045,30,22,06,132,*76
$GPGSV,5,3,17,23,17,207,26,24,51,206,29,25,28,342,29,29,09,320,*72
$GPGSV,5,4,17,36,52,277,,40,86,351,,41,58,082,,49,32,274,*7C
$GPGSV,5,5,17,50,10,089,*4A
$GLGSV,3,1,09,67,17,100,13,68,24,152,25,69,08,198,,78,28,150,08*6D
$GLGSV,3,2,09,79,80,107,27,80,38,341,26,82,14,354,,83,28,302,22*64
$GLGSV,3,3,09,84,12,247,*52
$GNGLL,0419.83023,S,05539.80071,E,052444.00,A,A*6B
$GNRMC,052445.00,A,0419.83014,S,05539.80065,E,0.239,,270525,,,A*7D
$GNVTG,,T,,M,0.239,N,0.442,K,A*37
$GNGGA,052445.00,0419.83014,S,05539.80065,E,1,12,0.80,21.4,M,-47.6,M,,*4A
$GNGSA,A,3,05,24,12,20,18,15,13,11,,,,,1.54,0.80,1.31*1A
$GNGSA,A,3,79,83,67,80,,,,,,,,,1.54,0.80,1.31*1B
$GPGSV,5,1,17,05,62,078,31,11,05,027,11,12,52,017,28,13,16,136,23*7F
$GPGSV,5,2,17,15,31,170,18,18,32,254,32,20,32,045,31,22,06,132,*7D
$GPGSV,5,3,17,23,17,207,25,24,51,206,29,25,28,342,29,29,09,320,*71
$GPGSV,5,4,17,36,52,277,,40,86,351,,41,58,082,,49,32,274,*7C
$GPGSV,5,5,17,50,10,089,*4A
$GLGSV,3,1,09,67,17,100,15,68,24,152,25,69,08,198,,78,28,150,09*6A
$GLGSV,3,2,09,79,80,107,27,80,38,341,23,82,14,354,,83,28,302,19*69
$GLGSV,3,3,09,84,12,247,*52
$GNGLL,0419.83014,S,05539.80065,E,052445.00,A,A*6B
$GNRMC,052446.00,A,0419.83007,S,05539.80076,E,0.061,,270525,,,A*71
$GNVTG,,T,,M,0.061,N,0.113,K,A*39
$GNGGA,052446.00,0419.83007,S,05539.80076,E,1,12,0.77,21.7,M,-47.6,M,,*42
$GNGSA,A,3,05,24,12,20,18,15,13,11,,,,,1.52,0.77,1.31*14
$GNGSA,A,3,79,78,83,67,80,,,,,,,,1.52,0.77,1.31*1A
$GPGSV,5,1,17,05,62,078,24,11,05,027,11,12,52,017,29,13,16,136,23*7A
$GPGSV,5,2,17,15,31,170,24,18,32,254,31,20,32,045,32,22,06,132,*72
$GPGSV,5,3,17,23,17,207,22,24,51,206,34,25,28,342,29,29,09,320,*7A
$GPGSV,5,4,17,36,52,277,,40,86,351,,41,58,082,,49,32,274,*7C
$GPGSV,5,5,17,50,10,089,*4A
$GLGSV,3,1,09,67,17,100,14,68,24,152,25,69,08,198,,78,28,150,17*64
$GLGSV,3,2,09,79,80,107,28,80,38,341,25,82,14,354,20,83,28,302,18*63
$GLGSV,3,3,09,84,12,247,*52
$GNGLL,0419.83007,S,05539.80076,E,052446.00,A,A*68
$GNRMC,052447.00,A,0419.83003,S,05539.80084,E,0.136,,270525,,,A*7A
$GNVTG,,T,,M,0.136,N,0.251,K,A*3F
$GNGGA,052447.00,0419.83003,S,05539.80084,E,1,12,0.79,22.3,M,-47.6,M,,*43
$GNGSA,A,3,05,24,12,20,18,15,13,11,,,,,1.63,0.79,1.43*1D
$GNGSA,A,3,79,78,83,67,80,,,,,,,,1.63,0.79,1.43*13
$GPGSV,5,1,17,05,62,078,22,11,05,027,11,12,52,017,29,13,16,136,21*7E
$GPGSV,5,2,17,15,31,170,25,18,32,254,29,20,32,044,30,22,06,132,*79
$GPGSV,5,3,17,23,17,207,22,24,51,206,31,25,28,342,27,29,09,320,*71
$GPGSV,5,4,17,36,52,277,,40,86,351,,41,58,082,,49,32,274,*7C
$GPGSV,5,5,17,50,10,089,*4A
$GLGSV,3,1,09,67,17,100,12,68,24,152,26,69,08,198,,78,28,150,19*6F
$GLGSV,3,2,09,79,80,107,27,80,38,341,27,82,14,354,19,83,28,302,16*6A
$GLGSV,3,3,09,84,12,247,*52
$GNGLL,0419.83003,S,05539.80084,E,052447.00,A,A*60
$GNRMC,052448.00,A,0419.83001,S,05539.80085,E,0.081,,270525,,,A*7B
$GNVTG,,T,,M,0.081,N,0.150,K,A*30
$GNGGA,052448.00,0419.83001,S,05539.80085,E,1,11,0.84,22.6,M,-47.6,M,,*4B
$GNGSA,A,3,05,24,12,20,18,15,13,,,,,,1.77,0.84,1.55*1D
$GNGSA,A,3,79,78,83,80,,,,,,,,,1.77,0.84,1.55*12
$GPGSV,5,1,17,05,62,078,24,11,05,027,,12,52,017,27,13,16,136,20*77
$GPGSV,5,2,17,15,31,170,25,18,32,254,27,20,32,044,29,22,06,133,*7E
$GPGSV,5,3,17,23,17,207,20,24,51,206,31,25,28,342,32,29,09,320,*77
$GPGSV,5,4,17,36,52,277,,40,86,351,,41,58,082,,49,32,274,*7C
$GPGSV,5,5,17,50,10,089,*4A
$GLGSV,3,1,09,67,17,100,10,68,24,152,26,69,08,198,,78,28,150,19*6D
$GLGSV,3,2,09,79,80,107,27,80,38,341,27,82,14,354,17,83,28,302,18*6A
$GLGSV,3,3,09,84,12,247,*52
$GNGLL,0419.83001,S,05539.80085,E,052448.00,A,A*6C
$GNRMC,052449.00,A,0419.83004,S,05539.80086,E,0.100,,270525,,,A*74
$GNVTG,,T,,M,0.100,N,0.185,K,A*30
$GNGGA,052449.00,0419.83004,S,05539.80086,E,1,12,0.79,22.8,M,-47.6,M,,*43
$GNGSA,A,3,05,24,12,20,18,15,13,,,,,,1.63,0.79,1.43*1D
$GNGSA,A,3,79,78,83,67,80,,,,,,,,1.63,0.79,1.43*13
$GPGSV,5,1,17,05,62,078,26,11,05,027,,12,52,017,27,13,16,136,17*71
$GPGSV,5,2,17,15,31,170,25,18,32,254,27,20,32,044,29,22,06,133,*7E
$GPGSV,5,3,17,23,18,207,21,24,51,206,30,25,28,342,30,29,09,320,*7A
$GPGSV,5,4,17,36,52,277,,40,86,351,,41,58,082,,49,32,274,*7C
$GPGSV,5,5,17,50,10,089,*4A
$GLGSV,3,1,09,67,17,100,11,68,24,152,27,69,08,198,,78,28,150,19*6D
$GLGSV,3,2,09,79,80,107,28,80,38,341,27,82,14,354,14,83,28,302,18*66
$GLGSV,3,3,09,84,12,247,*52
$GNGLL,0419.83004,S,05539.80086,E,052449.00,A,A*6B
$GNRMC,052450.00,A,0419.83012,S,05539.80094,E,0.157,,270525,,,A*7A
$GNVTG,,T,,M,0.157,N,0.290,K,A*35
$GNGGA,052450.00,0419.83012,S,05539.80094,E,1,12,0.79,23.1,M,-47.6,M,,*47
$GNGSA,A,3,05,24,12,20,18,15,13,,,,,,1.63,0.79,1.43*1D
$GNGSA,A,3,79,78,83,67,80,,,,,,,,1.63,0.79,1.43*13
$GPGSV,5,1,17,05,62,078,28,11,05,027,,12,52,017,28,13,16,136,14*73
$GPGSV,5,2,17,15,31,170,24,18,32,254,28,20,32,044,28,22,06,133,*71
$GPGSV,5,3,17,23,18,207,22,24,50,205,29,25,28,342,29,29,09,320,*7B
$GPGSV,5,4,17,36,52,277,,40,86,351,,41,58,082,,49,32,274,*7C
$GPGSV,5,5,17,50,10,089,*4A
$GLGSV,3,1,09,67,17,100,13,68,24,152,27,69,08,198,,78,28,150,20*65
$GLGSV,3,2,09,79,80,107,29,80,38,341,26,82,14,354,12,83,28,302,21*6A
$GLGSV,3,3,09,84,12,247,*52
$GNGLL,0419.83012,S,05539.80094,E,052450.00,A,A*67
$GNRMC,052451.00,A,0419.83015,S,05539.80099,E,0.042,,270525,,,A*74
$GNVTG,,T,,M,0.042,N,0.078,K,A*34
$GNGGA,052451.00,0419.83015,S,05539.80099,E,1,12,0.79,23.1,M,-47.6,M,,*4C
$GNGSA,A,3,05,24,12,20,18,15,13,,,,,,1.63,0.79,1.43*1D
$GNGSA,A,3,79,78,83,82,67,80,,,,,,,1.63,0.79,1.43*19
$GPGSV,5,1,17,05,62,078,30,11,05,027,,12,52,017,32,13,16,136,12*77
$GPGSV,5,2,17,15,31,170,23,18,32,254,30,20,32,044,29,22,06,133,*7E
$GPGSV,5,3,17,23,18,207,22,24,50,205,31,25,28,342,30,29,09,320,09*73
$GPGSV,5,4,17,36,52,277,,40,86,351,,41,58,082,,49,32,274,*7C
$GPGSV,5,5,17,50,10,089,*4A
$GLGSV,3,1,09,67,17,100,15,68,24,152,26,69,08,198,,78,28,150,21*63
$GLGSV,3,2,09,79,80,107,29,80,38,341,26,82,14,354,12,83,28,302,20*6B
$GLGSV,3,3,09,84,12,247,*52
$GNGLL,0419.83015,S,05539.80099,E,052451.00,A,A*6C
$GNRMC,052452.00,A,0419.83018,S,05539.80097,E,0.042,,270525,,,A*74
$GNVTG,,T,,M,0.042,N,0.078,K,A*34
$GNGGA,052452.00,0419.83018,S,05539.80097,E,1,12,0.81,23.1,M,-47.6,M,,*4B
$GNGSA,A,3,05,24,12,20,18,15,13,,,,,,1.74,0.81,1.54*1A
$GNGSA,A,3,79,78,83,82,67,80,,,,,,,1.74,0.81,1.54*1E
$GPGSV,5,1,17,05,62,078,30,11,05,027,,12,52,017,32,13,16,136,12*77
$GPGSV,5,2,17,15,31,170,23,18,32,254,29,20,32,044,30,22,06,133,*7E
$GPGSV,5,3,17,23,18,207,22,24,50,205,33,25,28,342,31,29,09,320,11*79
$GPGSV,5,4,17,36,52,277,,40,86,351,,41,58,082,,49,32,274,*7C
$GPGSV,5,5,17,50,10,089,*4A
$GLGSV,3,1,09,67,17,100,15,68,24,152,26,69,08,198,,78,28,150,22*60
$GLGSV,3,2,09,79,80,107,30,80,38,341,28,82,14,354,12,83,28,302,18*66
$GLGSV,3,3,09,84,12,247,*52
$GNGLL,0419.83018,S,05539.80097,E,052452.00,A,A*6C
$GNRMC,052453.00,A,0419.83022,S,05539.80103,E,0.165,,270525,,,A*74
$GNVTG,,T,,M,0.165,N,0.306,K,A*3A
$GNGGA,052453.00,0419.83022,S,05539.80103,E,1,12,0.79,23.2,M,-47.6,M,,*4B
$GNGSA,A,3,05,24,12,20,18,15,13,,,,,,1.63,0.79,1.43*1D
$GNGSA,A,3,79,78,83,82,67,80,,,,,,,1.63,0.79,1.43*19
$GPGSV,5,1,17,05,62,078,30,11,05,027,,12,52,017,31,13,16,136,11*77
$GPGSV,5,2,17,15,31,170,22,18,32,254,29,20,32,044,32,22,06,133,*7D
$GPGSV,5,3,17,23,18,207,22,24,50,205,29,25,28,342,31,29,09,320,15*76
$GPGSV,5,4,17,36,52,277,,40,86,351,,41,58,082,,49,32,274,*7C
$GPGSV,5,5,17,50,10,089,*4A
$GLGSV,3,1,09,67,17,100,15,68,24,152,26,69,08,198,,78,28,150,20*62
$GLGSV,3,2,09,79,80,107,29,80,38,341,29,82,14,354,12,83,28,302,17*60
$GLGSV,3,3,09,84,12,247,*52
$GNGLL,0419.83022,S,05539.80103,E,052453.00,A,A*68
$GNRMC,052454.00,A,0419.83029,S,05539.80108,E,0.074,,270525,,,A*72
$GNVTG,,T,,M,0.074,N,0.136,K,A*3A
$GNGGA,052454.00,0419.83029,S,05539.80108,E,1,12,0.79,23.0,M,-47.6,M,,*4E
$GNGSA,A,3,05,24,12,20,18,15,13,,,,,,1.63,0.79,1.43*1D
$GNGSA,A,3,79,78,83,82,67,80,,,,,,,1.63,0.79,1.43*19
$GPGSV,5,1,17,05,62,078,30,11,05,027,,12,52,017,31,13,16,136,11*77
$GPGSV,5,2,17,15,31,170,23,18,32,254,30,20,32,044,32,22,06,133,15*70
$GPGSV,5,3,17,23,18,207,23,24,50,205,30,25,28,342,32,29,09,320,15*7C
$GPGSV,5,4,17,36,52,277,,40,86,351,,41,58,082,,49,32,274,*7C
$GPGSV,5,5,17,50,10,089,*4A
$GLGSV,3,1,09,67,17,100,16,68,24,152,25,69,08,198,,78,28,150,18*69
$GLGSV,3,2,09,79,80,107,30,80,38,341,28,82,14,354,10,83,28,302,18*64
$GLGSV,3,3,09,84,12,247,*52
$GNGLL,0419.83029,S,05539.80108,E,052454.00,A,A*6F
$GNRMC,052455.00,A,0419.83041,S,05539.80114,E,0.269,,270525,,,A*7E
$GNVTG,,T,,M,0.269,N,0.498,K,A*35
$GNGGA,052455.00,0419.83041,S,05539.80114,E,1,12,0.79,22.9,M,-47.6,M,,*44
$GNGSA,A,3,05,24,12,20,18,15,13,,,,,,1.63,0.79,1.43*1D
$GNGSA,A,3,79,78,83,82,67,80,,,,,,,1.63,0.79,1.43*19
$GPGSV,5,1,17,05,62,078,30,11,05,027,,12,52,017,30,13,16,136,11*76
$GPGSV,5,2,17,15,31,170,25,18,32,254,29,20,32,044,32,22,06,133,14*7F
$GPGSV,5,3,17,23,18,207,22,24,50,205,31,25,28,342,30,29,09,320,15*7E
$GPGSV,5,4,17,36,52,277,,40,86,351,,41,58,082,,49,32,274,*7C
$GPGSV,5,5,17,50,10,089,*4A
$GLGSV,3,1,09,67,17,100,16,68,24,152,25,69,08,198,,78,28,150,16*67
$GLGSV,3,2,09,79,80,107,30,80,38,341,27,82,14,354,11,83,28,302,21*60
$GLGSV,3,3,09,84,12,247,*52
$GNGLL,0419.83041,S,05539.80114,E,052455.00,A,A*6D
$GNRMC,052456.00,A,0419.83047,S,05539.80115,E,0.046,,270525,,,A*75
$GNVTG,,T,,M,0.046,N,0.085,K,A*32
$GNGGA,052456.00,0419.83047,S,05539.80115,E,1,12,0.79,23.1,M,-47.6,M,,*49
$GNGSA,A,3,05,24,12,20,18,15,13,,,,,,1.63,0.79,1.43*1D
$GNGSA,A,3,79,78,83,82,67,80,,,,,,,1.63,0.79,1.43*19
$GPGSV,5,1,17,05,62,078,29,11,05,027,,12,52,017,32,13,16,136,11*7C
$GPGSV,5,2,17,15,31,170,31,18,32,254,29,20,32,044,33,22,06,133,12*7D
$GPGSV,5,3,17,23,18,207,21,24,50,205,32,25,28,342,29,29,09,320,12*71
$GPGSV,5,4,17,36,52,277,,40,86,351,,41,58,082,,49,32,274,*7C
$GPGSV,5,5,17,50,10,089,*4A
$GLGSV,3,1,09,67,17,100,16,68,24,152,24,69,08,198,,78,28,150,14*64
$GLGSV,3,2,09,79,80,107,28,80,38,341,27,82,14,354,11,83,28,302,20*68
$GLGSV,3,3,09,84,12,247,*52
$GNGLL,0419.83047,S,05539.80115,E,052456.00,A,A*69
$GNRMC,052457.00,A,0419.83051,S,05539.80108,E,0.032,,270525,,,A*7C
$GNVTG,,T,,M,0.032,N,0.060,K,A*3A
$GNGGA,052457.00,0419.83051,S,05539.80108,E,1,12,0.79,23.1,M,-47.6,M,,*43
$GNGSA,A,3,05,24,12,20,18,15,13,,,,,,1.63,0.79,1.43*1D
$GNGSA,A,3,79,78,83,82,67,80,,,,,,,1.63,0.79,1.43*19
$GPGSV,5,1,17,05,62,078,29,11,05,027,,12,52,017,33,13,16,136,11*7D
$GPGSV,5,2,17,15,31,170,24,18,32,254,29,20,32,044,32,22,06,133,09*72
$GPGSV,5,3,17,23,18,207,22,24,50,205,32,25,28,342,30,29,09,320,15*7D
$GPGSV,5,4,17,36,52,277,,40,86,351,,41,58,082,,49,32,274,*7C
$GPGSV,5,5,17,50,10,089,*4A
$GLGSV,3,1,09,67,17,100,17,68,24,152,25,69,08,198,,78,28,150,14*64
$GLGSV,3,2,09,79,80,107,29,80,38,341,27,82,14,354,12,83,28,302,20*6A
$GLGSV,3,3,09,84,12,247,*52
$GNGLL,0419.83051,S,05539.80108,E,052457.00,A,A*63
$GNRMC,052458.00,A,0419.83052,S,05539.80110,E,0.038,,270525,,,A*73
$GNVTG,,T,,M,0.038,N,0.070,K,A*31
$GNGGA,052458.00,0419.83052,S,05539.80110,E,1,12,0.81,23.4,M,-47.6,M,,*44
$GNGSA,A,3,05,24,12,20,18,15,,,,,,,1.74,0.81,1.54*18
$GNGSA,A,3,79,78,83,82,67,80,,,,,,,1.74,0.81,1.54*1E
$GPGSV,5,1,17,05,62,078,29,11,05,027,,12,52,017,34,13,16,136,11*7A
$GPGSV,5,2,17,15,31,170,25,18,32,254,30,20,32,044,31,22,06,133,08*79
$GPGSV,5,3,17,23,18,207,21,24,50,205,31,25,28,342,30,29,09,320,16*7E
$GPGSV,5,4,17,36,52,277,,40,86,351,,41,58,082,,49,32,274,*7C
$GPGSV,5,5,17,50,10,089,*4A
$GLGSV,3,1,09,67,17,100,18,68,24,152,24,69,08,198,,78,28,150,16*68
$GLGSV,3,2,09,79,80,107,29,80,38,341,29,82,14,354,12,83,28,302,18*6F
$GLGSV,3,3,09,84,12,247,*52
$GNGLL,0419.83052,S,05539.80110,E,052458.00,A,A*66
$GNRMC,052459.00,A,0419.83062,S,05539.80115,E,0.165,,270525,,,A*7D
$GNVTG,,T,,M,0.165,N,0.306,K,A*3A
$GNGGA,052459.00,0419.83062,S,05539.80115,E,1,12,0.81,23.4,M,-47.6,M,,*43
$GNGSA,A,3,05,24,12,20,18,15,,,,,,,1.74,0.81,1.54*18
$GNGSA,A,3,79,78,83,82,67,80,,,,,,,1.74,0.81,1.54*1E
$GPGSV,5,1,17,05,62,078,27,11,05,027,,12,52,017,34,13,16,136,11*74
$GPGSV,5,2,17,15,31,170,21,18,32,254,28,20,32,044,31,22,06,133,08*74
$GPGSV,5,3,17,23,18,207,19,24,50,205,31,25,28,342,29,29,09,320,*7A
$GPGSV,5,4,17,36,52,277,,40,86,351,,41,58,082,,49,32,274,*7C
$GPGSV,5,5,17,50,10,089,*4A
$GLGSV,3,1,09,67,17,100,18,68,24,152,23,69,08,198,,78,28,150,16*6F
$GLGSV,3,2,09,79,80,107,30,80,38,341,30,82,14,354,13,83,28,302,17*61
$GLGSV,3,3,09,84,12,247,*52
$GNGLL,0419.83062,S,05539.80115,E,052459.00,A,A*61
$GNRMC,052500.00,A,0419.83072,S,05539.80120,E,0.011,,270525,,,A*75
$GNVTG,,T,,M,0.011,N,0.020,K,A*3F
$GNGGA,052500.00,0419.83072,S,05539.80120,E,1,12,0.81,23.4,M,-47.6,M,,*49
$GNGSA,A,3,05,24,12,20,18,15,,,,,,,1.74,0.81,1.54*18
$GNGSA,A,3,79,78,83,82,67,80,,,,,,,1.74,0.81,1.54*1E
$GPGSV,5,1,17,05,62,078,27,11,05,027,,12,52,017,34,13,16,136,11*74
$GPGSV,5,2,17,15,31,170,21,18,32,254,29,20,32,044,31,22,06,133,07*7A
$GPGSV,5,3,17,23,18,207,19,24,50,205,30,25,28,342,30,29,09,320,*73
$GPGSV,5,4,17,36,52,277,,40,86,351,,41,58,082,,49,32,274,*7C
$GPGSV,5,5,17,50,10,089,*4A
$GLGSV,3,1,09,67,17,100,19,68,24,152,23,69,08,198,,78,28,150,14*6C
$GLGSV,3,2,09,79,80,107,30,80,38,341,29,82,14,354,13,83,28,302,16*68
$GLGSV,3,3,09,84,12,247,*52
$GNGLL,0419.83072,S,05539.80120,E,052500.00,A,A*6B
$GNRMC,052501.00,A,0419.83079,S,05539.80124,E,0.027,,270525,,,A*7E
$GNVTG,,T,,M,0.027,N,0.051,K,A*3C
$GNGGA,052501.00,0419.83079,S,05539.80124,E,1,12,0.81,23.6,M,-47.6,M,,*45
$GNGSA,A,3,05,24,12,20,18,15,13,,,,,,1.74,0.81,1.54*1A
$GNGSA,A,3,79,78,83,82,67,80,,,,,,,1.74,0.81,1.54*1E
$GPGSV,5,1,17,05,62,078,27,11,05,027,,12,52,017,34,13,16,136,11*74
$GPGSV,5,2,17,15,31,170,21,18,32,254,31,20,32,044,33,22,06,133,08*7E
$GPGSV,5,3,17,23,18,207,21,24,50,205,32,25,28,342,32,29,09,320,*78
$GPGSV,5,4,17,36,52,277,,40,86,351,,41,58,082,,49,32,274,*7C
$GPGSV,5,5,17,50,10,089,*4A
$GLGSV,3,1,09,67,17,100,19,68,24,152,23,69,08,198,,78,28,150,11*69
$GLGSV,3,2,09,79,80,107,30,80,38,341,29,82,14,354,12,83,28,302,16*69
$GLGSV,3,3,09,84,12,247,*52
$GNGLL,0419.83079,S,05539.80124,E,052501.00,A,A*65
$GNRMC,052502.00,A,0419.83084,S,05539.80128,E,0.044,,270525,,,A*76
$GNVTG,,T,,M,0.044,N,0.081,K,A*34
$GNGGA,052502.00,0419.83084,S,05539.80128,E,1,12,0.80,23.7,M,-47.6,M,,*48
$GNGSA,A,3,05,24,12,20,18,15,13,22,,,,,1.51,0.80,1.28*17
$GNGSA,A,3,79,83,82,67,80,,,,,,,,1.51,0.80,1.28*1C
$GPGSV,5,1,17,05,62,078,27,11,05,027,18,12,52,017,34,13,16,136,11*7D
$GPGSV,5,2,17,15,31,170,20,18,32,254,31,20,32,044,32,22,06,133,10*77
$GPGSV,5,3,17,23,18,207,23,24,50,205,32,25,28,342,31,29,09,320,*79
$GPGSV,5,4,17,36,52,277,,40,86,351,,41,58,082,,49,32,274,*7C
$GPGSV,5,5,17,50,10,089,*4A
$GLGSV,3,1,09,67,17,100,18,68,24,152,23,69,08,198,,78,28,150,07*6F
$GLGSV,3,2,09,79,80,107,30,80,38,341,27,82,14,354,11,83,28,302,17*65
$GLGSV,3,3,09,84,12,247,*52
$GNGLL,0419.83084,S,05539.80128,E,052502.00,A,A*68
$GNRMC,052503.00,A,0419.83079,S,05539.80135,E,0.207,,270525,,,A*7C
$GNVTG,,T,,M,0.207,N,0.383,K,A*30
$GNGGA,052503.00,0419.83079,S,05539.80135,E,1,12,0.78,23.7,M,-47.6,M,,*40
$GNGSA,A,3,05,24,12,20,18,15,13,22,,,,,1.50,0.78,1.28*11
$GNGSA,A,3,79,78,83,82,67,80,,,,,,,1.50,0.78,1.28*15
$GPGSV,5,1,17,05,62,078,28,11,05,027,15,12,52,017,35,13,16,136,11*7E
$GPGSV,5,2,17,15,31,170,22,18,32,254,32,20,32,044,32,22,06,133,12*74
$GPGSV,5,3,17,23,18,207,22,24,50,205,31,25,28,342,30,29,09,320,21*79
$GPGSV,5,4,17,36,52,277,,40,86,351,,41,58,082,,49,32,274,*7C
$GPGSV,5,5,17,50,10,089,*4A
$GLGSV,3,1,09,67,17,100,17,68,24,152,23,69,08,198,,78,28,150,13*65
$GLGSV,3,2,09,79,80,107,31,80,38,341,26,82,14,354,13,83,28,302,16*66
$GLGSV,3,3,09,84,12,247,*52
$GNGLL,0419.83079,S,05539.80135,E,052503.00,A,A*67
$GNRMC,052504.00,A,0419.83080,S,05539.80134,E,0.182,,270525,,,A*72
$GNVTG,,T,,M,0.182,N,0.338,K,A*3E
$GNGGA,052504.00,0419.83080,S,05539.80134,E,1,12,0.79,23.7,M,-47.6,M,,*41
$GNGSA,A,3,05,24,12,20,18,15,13,22,,,,,1.53,0.79,1.31*1B
$GNGSA,A,3,79,78,83,82,67,80,,,,,,,1.53,0.79,1.31*1F
$GPGSV,5,1,17,05,62,078,28,11,05,027,14,12,52,017,35,13,16,136,11*7F
$GPGSV,5,2,17,15,31,170,25,18,32,254,32,20,32,044,33,22,06,133,11*71
$GPGSV,5,3,17,23,18,207,22,24,50,205,32,25,28,342,30,29,09,320,19*71
$GPGSV,5,4,17,36,52,277,,40,86,351,,41,58,082,,49,32,274,*7C
$GPGSV,5,5,17,50,10,089,*4A
$GLGSV,3,1,09,67,17,100,16,68,24,152,21,69,08,198,,78,28,150,13*66
$GLGSV,3,2,09,79,80,107,32,80,38,341,26,82,14,354,15,83,28,302,15*60
$GLGSV,3,3,09,84,12,247,*52
$GNGLL,0419.83080,S,05539.80134,E,052504.00,A,A*67
$GNRMC,052505.00,A,0419.83078,S,05539.80134,E,0.086,,270525,,,A*71
$GNVTG,,T,,M,0.086,N,0.160,K,A*34
$GNGGA,052505.00,0419.83078,S,05539.80134,E,1,12,0.79,23.9,M,-47.6,M,,*49
$GNGSA,A,3,05,24,12,20,18,15,13,,,,,,1.63,0.79,1.43*1D
$GNGSA,A,3,79,78,83,82,67,80,,,,,,,1.63,0.79,1.43*19
$GPGSV,5,1,17,05,62,078,28,11,05,027,15,12,52,017,34,13,16,136,11*7F
$GPGSV,5,2,17,15,31,170,26,18,32,254,31,20,32,044,34,22,06,133,*76
$GPGSV,5,3,17,23,18,207,21,24,50,205,31,25,28,342,30,29,09,320,18*70
$GPGSV,5,4,17,36,52,277,,40,86,351,,41,58,082,,49,32,274,*7C
$GPGSV,5,5,17,50,10,089,*4A
$GLGSV,3,1,09,67,17,100,14,68,24,152,20,69,08,198,,78,28,150,13*65
$GLGSV,3,2,09,79,80,107,31,80,38,341,27,82,14,354,15,83,28,302,13*64
$GLGSV,3,3,09,84,12,247,*52
$GNGLL,0419.83078,S,05539.80134,E,052505.00,A,A*61
$GNRMC,052506.00,A,0419.83078,S,05539.80134,E,0.117,,270525,,,A*7B
$GNVTG,,T,,M,0.117,N,0.217,K,A*3E
$GNGGA,052506.00,0419.83078,S,05539.80134,E,1,12,0.77,23.7,M,-47.6,M,,*4A
$GNGSA,A,3,05,24,12,20,18,15,11,,,,,,1.46,0.77,1.24*17
$GNGSA,A,3,79,78,83,82,67,80,,,,,,,1.46,0.77,1.24*11
$GPGSV,5,1,17,05,62,078,28,11,05,027,14,12,52,017,33,13,16,136,09*70
$GPGSV,5,2,17,15,31,170,25,18,32,254,30,20,32,044,33,22,06,133,*73
$GPGSV,5,3,17,23,18,207,19,24,50,205,30,25,28,342,29,29,09,320,18*72
$GPGSV,5,4,17,36,52,277,,40,86,351,,41,58,082,,49,32,274,*7C
$GPGSV,5,5,17,50,10,089,*4A
$GLGSV,3,1,09,67,17,100,14,68,24,152,20,69,08,198,,78,28,150,13*65
$GLGSV,3,2,09,79,80,107,29,80,38,341,29,82,14,354,16,83,28,302,12*61
$GLGSV,3,3,09,84,12,247,*52
$GNGLL,0419.83078,S,05539.80134,E,052506.00,A,A*62
$GNRMC,052507.00,A,0419.83077,S,05539.80131,E,0.090,,270525,,,A*7E
$GNVTG,,T,,M,0.090,N,0.166,K,A*35
$GNGGA,052507.00,0419.83077,S,05539.80131,E,1,12,0.77,23.7,M,-47.6,M,,*41
$GNGSA,A,3,05,24,12,20,18,15,11,,,,,,1.46,0.77,1.24*17
$GNGSA,A,3,79,78,83,82,67,80,,,,,,,1.46,0.77,1.24*11
$GPGSV,5,1,17,05,62,078,28,11,05,027,15,12,52,017,34,13,16,136,*7F
$GPGSV,5,2,17,15,31,170,23,18,32,254,29,20,32,044,32,22,06,133,*7C
$GPGSV,5,3,17,23,18,207,17,24,50,205,30,25,28,342,29,29,09,320,17*73
$GPGSV,5,4,17,36,52,277,,40,86,351,,41,58,082,,49,32,274,*7C
$GPGSV,5,5,17,50,10,089,*4A
$GLGSV,3,1,09,67,17,100,16,68,24,152,20,69,08,198,,78,28,150,15*61
$GLGSV,3,2,09,79,80,107,29,80,38,341,30,82,14,354,16,83,28,302,12*69
$GLGSV,3,3,09,84,12,247,*52
$GNGLL,0419.83077,S,05539.80131,E,052507.00,A,A*69
$GNRMC,052508.00,A,0419.83082,S,05539.80126,E,0.051,,270525,,,A*70
$GNVTG,,T,,M,0.051,N,0.095,K,A*35
$GNGGA,052508.00,0419.83082,S,05539.80126,E,1,12,0.77,23.5,M,-47.6,M,,*40
$GNGSA,A,3,05,24,12,20,18,15,11,,,,,,1.46,0.77,1.24*17
$GNGSA,A,3,79,78,83,82,67,80,,,,,,,1.46,0.77,1.24*11
$GPGSV,5,1,17,05,62,078,28,11,05,027,14,12,52,017,35,13,16,136,*7F
$GPGSV,5,2,17,15,31,170,22,18,32,254,29,20,32,044,33,22,06,133,*7C
$GPGSV,5,3,17,23,18,207,19,24,50,205,33,25,28,342,29,29,09,320,16*7F
$GPGSV,5,4,17,36,52,277,,40,86,351,,41,58,082,,49,32,274,*7C
$GPGSV,5,5,17,50,10,089,*4A
$GLGSV,3,1,09,67,17,100,15,68,24,152,19,69,08,198,,78,28,150,15*68
$GLGSV,3,2,09,79,80,107,29,80,38,341,29,82,14,354,15,83,28,302,13*63
$GLGSV,3,3,09,84,12,247,*52
$GNGLL,0419.83082,S,05539.80126,E,052508.00,A,A*6A
$GNRMC,052509.00,A,0419.83071,S,05539.80111,E,0.393,,270525,,,A*74
$GNVTG,,T,,M,0.393,N,0.727,K,A*36
$GNGGA,052509.00,0419.83071,S,05539.80111,E,1,12,0.74,24.0,M,-47.6,M,,*48
$GNGSA,A,3,05,24,12,20,18,15,11,,,,,,1.37,0.74,1.16*13
$GNGSA,A,3,79,78,83,82,67,80,,,,,,,1.37,0.74,1.16*15
$GPGSV,5,1,17,05,62,078,28,11,05,027,11,12,52,017,34,13,16,136,*7B
$GPGSV,5,2,17,15,31,170,22,18,32,254,29,20,32,044,33,22,06,133,*7C
$GPGSV,5,3,17,23,18,207,19,24,50,205,33,25,28,342,28,29,09,320,16*7E
$GPGSV,5,4,17,36,52,277,,40,86,351,,41,58,082,,49,32,274,*7C
$GPGSV,5,5,17,50,10,089,*4A
$GLGSV,3,1,09,67,17,100,14,68,24,152,19,69,08,198,,78,28,150,18*64
$GLGSV,3,2,09,79,80,107,29,80,38,341,28,82,14,354,14,83,28,302,12*62
$GLGSV,3,3,09,84,12,247,*52
$GNGLL,0419.83071,S,05539.80111,E,052509.00,A,A*63
$GNRMC,052510.00,A,0419.83071,S,05539.80102,E,0.017,,270525,,,A*71
$GNVTG,,T,,M,0.017,N,0.032,K,A*3A
$GNGGA,052510.00,0419.83071,S,05539.80102,E,1,12,0.77,24.0,M,-47.6,M,,*41
$GNGSA,A,3,05,24,12,20,18,15,11,,,,,,1.46,0.77,1.24*17
$GNGSA,A,3,79,78,83,82,67,80,,,,,,,1.46,0.77,1.24*11
$GPGSV,5,1,17,05,62,078,28,11,05,027,10,12,52,017,33,13,16,136,05*78
$GPGSV,5,2,17,15,31,170,21,18,32,254,29,20,32,044,32,22,06,133,*7E
$GPGSV,5,3,17,23,18,207,22,24,50,205,32,25,28,342,27,29,09,320,17*79
$GPGSV,5,4,17,36,52,277,,40,86,351,,41,58,082,,49,32,274,*7C
$GPGSV,5,5,17,50,10,089,*4A
$GLGSV,3,1,09,67,17,100,13,68,24,152,18,69,08,198,,78,28,150,18*62
$GLGSV,3,2,09,79,80,107,29,80,38,341,28,82,14,354,12,83,28,302,12*64
$GLGSV,3,3,09,84,12,247,*52
$GNGLL,0419.83071,S,05539.80102,E,052510.00,A,A*69
$GNRMC,052511.00,A,0419.83073,S,05539.80095,E,0.065,,270525,,,A*78
$GNVTG,,T,,M,0.065,N,0.121,K,A*3C
$GNGGA,052511.00,0419.83073,S,05539.80095,E,1,12,0.81,23.8,M,-47.6,M,,*4B
$GNGSA,A,3,05,24,12,20,18,15,,,,,,,1.74,0.81,1.54*18
$GNGSA,A,3,79,78,83,82,67,80,,,,,,,1.74,0.81,1.54*1E
$GPGSV,5,1,17,05,62,078,29,11,05,027,10,12,52,017,34,13,16,136,07*7C
$GPGSV,5,2,17,15,31,170,25,18,32,254,28,20,32,044,32,22,06,133,*7B
$GPGSV,5,3,17,23,18,207,21,24,50,205,30,25,28,342,27,29,09,320,18*77
$GPGSV,5,4,17,36,52,277,,40,86,351,,41,58,082,,49,32,274,*7C
$GPGSV,5,5,17,50,10,089,*4A
$GLGSV,3,1,09,67,17,100,13,68,24,152,15,69,08,198,,78,28,150,21*65
$GLGSV,3,2,09,79,80,107,27,80,38,341,29,82,14,354,13,83,28,302,13*6B
$GLGSV,3,3,09,84,12,247,*52
$GNGLL,0419.83073,S,05539.80095,E,052511.00,A,A*65
$GNRMC,052512.00,A,0419.83076,S,05539.80089,E,0.131,,270525,,,A*73
$GNVTG,,T,,M,0.131,N,0.243,K,A*3B
$GNGGA,052512.00,0419.83076,S,05539.80089,E,1,12,0.77,23.8,M,-47.6,M,,*49
$GNGSA,A,3,05,24,12,20,18,15,11,,,,,,1.46,0.77,1.24*17
$GNGSA,A,3,79,78,83,82,67,80,,,,,,,1.46,0.77,1.24*11
$GPGSV,5,1,17,05,62,078,28,11,05,027,10,12,52,017,34,13,16,136,18*73
$GPGSV,5,2,17,15,31,170,26,18,32,254,27,20,32,044,33,22,06,133,07*71
$GPGSV,5,3,17,23,18,207,20,24,50,205,31,25,28,342,25,29,09,320,19*74
$GPGSV,5,4,17,36,52,277,,40,86,351,,41,58,082,,49,32,274,*7C
$GPGSV,5,5,17,50,10,089,*4A
$GLGSV,3,1,09,67,17,100,11,68,24,152,13,69,08,198,,78,28,150,16*65
$GLGSV,3,2,09,79,80,107,26,80,38,341,30,82,14,354,14,83,28,302,14*62
$GLGSV,3,3,09,84,12,247,*52
$GNGLL,0419.83076,S,05539.80089,E,052512.00,A,A*6E
$GNRMC,052513.00,A,0419.83077,S,05539.80076,E,0.275,,270525,,,A*70
$GNVTG,,T,,M,0.275,N,0.510,K,A*39
$GNGGA,052513.00,0419.83077,S,05539.80076,E,1,12,0.77,24.2,M,-47.6,M,,*44
$GNGSA,A,3,05,24,12,20,18,15,13,11,,,,,1.46,0.77,1.24*15
$GNGSA,A,3,79,78,83,82,67,80,,,,,,,1.46,0.77,1.24*11
$GPGSV,5,1,17,05,62,078,29,11,05,027,11,12,52,017,33,13,16,136,18*74
$GPGSV,5,2,17,15,31,170,24,18,32,254,27,20,32,044,33,22,06,133,07*73
$GPGSV,5,3,17,23,18,207,22,24,50,205,32,25,28,342,26,29,09,320,18*77
$GPGSV,5,4,17,36,52,277,,40,86,351,,41,58,082,,49,32,274,*7C
$GPGSV,5,5,17,50,10,089,*4A
$GLGSV,3,1,09,67,17,100,13,68,24,152,12,69,08,198,,78,28,150,18*68
$GLGSV,3,2,09,79,80,107,24,80,38,341,29,82,14,354,15,83,28,302,16*6B
$GLGSV,3,3,09,84,12,247,*52
$GNGLL,0419.83077,S,05539.80076,E,052513.00,A,A*6E
$GNRMC,052514.00,A,0419.83081,S,05539.80071,E,0.064,,270525,,,A*7B
$GNVTG,,T,,M,0.064,N,0.118,K,A*37
$GNGGA,052514.00,0419.83081,S,05539.80071,E,1,12,0.74,24.2,M,-47.6,M,,*4E
$GNGSA,A,3,05,24,12,20,18,15,13,11,,,,,1.39,0.74,1.18*11
$GNGSA,A,3,79,78,83,82,67,80,,,,,,,1.39,0.74,1.18*15
$GPGSV,5,1,17,05,62,078,30,11,05,027,14,12,52,017,37,13,16,136,18*7D
$GPGSV,5,2,17,15,31,170,26,18,32,254,27,20,32,044,32,22,06,133,11*77
$GPGSV,5,3,17,23,18,207,22,24,50,205,31,25,28,342,27,29,09,320,19*74
$GPGSV,5,4,17,36,52,277,,40,86,351,,41,58,082,,49,32,274,*7C
$GPGSV,5,5,17,50,10,089,*4A
$GLGSV,3,1,09,67,17,100,10,68,24,152,,69,08,198,,78,28,150,18*68
$GLGSV,3,2,09,79,80,107,24,80,38,341,29,82,14,354,15,83,28,302,17*6A
$GLGSV,3,3,09,84,12,247,*52
$GNGLL,0419.83081,S,05539.80071,E,052514.00,A,A*67
$GNRMC,052515.00,A,0419.83085,S,05539.80069,E,0.037,,270525,,,A*71
$GNVTG,,T,,M,0.037,N,0.069,K,A*36
$GNGGA,052515.00,0419.83085,S,05539.80069,E,1,12,0.74,23.9,M,-47.6,M,,*4E
$GNGSA,A,3,05,24,12,20,18,15,13,11,,,,,1.39,0.74,1.18*11
$GNGSA,A,3,79,78,83,82,67,80,,,,,,,1.39,0.74,1.18*15
$GPGSV,5,1,17,05,62,078,31,11,05,027,14,12,52,017,36,13,16,136,18*7D
$GPGSV,5,2,17,15,31,170,29,18,32,254,26,20,32,044,32,22,06,133,13*7B
$GPGSV,5,3,17,23,18,207,22,24,50,205,32,25,28,342,28,29,09,320,20*72
$GPGSV,5,4,17,36,52,277,,40,86,351,,41,58,082,,49,32,274,*7C
$GPGSV,5,5,17,50,10,089,*4A
$GLGSV,3,1,09,67,17,100,14,68,24,152,,69,08,198,,78,28,150,16*62
$GLGSV,3,2,09,79,80,107,26,80,38,341,29,82,14,354,13,83,28,302,16*6F
$GLGSV,3,3,09,84,12,247,*52
$GNGLL,0419.83085,S,05539.80069,E,052515.00,A,A*6B
$GNRMC,052516.00,A,0419.83088,S,05539.80065,E,0.083,,270525,,,A*7C
$GNVTG,,T,,M,0.083,N,0.154,K,A*36
$GNGGA,052516.00,0419.83088,S,05539.80065,E,1,12,0.78,23.5,M,-47.6,M,,*4C
$GNGSA,A,3,05,24,12,20,18,15,13,22,,,,,1.50,0.78,1.28*11
$GNGSA,A,3,79,78,83,82,67,80,,,,,,,1.50,0.78,1.28*15
$GPGSV,5,1,17,05,62,078,32,11,05,027,14,12,52,017,36,13,16,136,18*7E
$GPGSV,5,2,17,15,31,170,30,18,32,254,25,20,32,044,31,22,06,133,13*73
$GPGSV,5,3,17,23,18,207,22,24,50,205,32,25,28,342,28,29,09,320,20*72
$GPGSV,5,4,17,36,52,277,,40,86,351,,41,58,082,,49,32,274,*7C
$GPGSV,5,5,17,50,10,089,*4A
$GLGSV,3,1,09,67,17,100,12,68,24,152,,69,08,198,,78,28,150,12*60
$GLGSV,3,2,09,79,80,107,26,80,38,341,30,82,14,354,11,83,28,302,14*67
$GLGSV,3,3,09,84,12,247,*52
$GNGLL,0419.83088,S,05539.80065,E,052516.00,A,A*69
$GNRMC,052517.00,A,0419.83091,S,05539.80057,E,0.335,,270525,,,A*7A
$GNVTG,,T,,M,0.335,N,0.620,K,A*3C
$GNGGA,052517.00,0419.83091,S,05539.80057,E,1,12,0.79,23.2,M,-47.6,M,,*42
$GNGSA,A,3,05,24,12,20,18,15,13,22,,,,,1.63,0.79,1.43*1D
$GNGSA,A,3,79,78,83,82,67,80,,,,,,,1.63,0.79,1.43*19
$GPGSV,5,1,17,05,62,078,31,11,05,027,12,12,52,017,36,13,16,136,18*7B
$GPGSV,5,2,17,15,31,170,28,18,32,254,23,20,32,044,29,22,06,133,14*72
$GPGSV,5,3,17,23,18,207,21,24,50,205,31,25,28,342,28,29,09,320,17*76
$GPGSV,5,4,17,36,52,277,,40,86,351,,41,58,082,,49,32,274,*7C
$GPGSV,5,5,17,50,10,089,*4A
$GLGSV,3,1,09,67,17,100,09,68,24,152,,69,08,198,,78,28,150,17*6F
$GLGSV,3,2,09,79,80,107,25,80,38,341,30,82,14,354,17,83,28,302,11*67
$GLGSV,3,3,09,84,12,247,*52
$GNGLL,0419.83091,S,05539.80057,E,052517.00,A,A*61
$GNRMC,052518.00,A,0419.83096,S,05539.80052,E,0.139,,270525,,,A*79
$GNVTG,,T,,M,0.139,N,0.258,K,A*39
$GNGGA,052518.00,0419.83096,S,05539.80052,E,1,12,0.89,22.9,M,-47.6,M,,*4A
$GNGSA,A,3,05,24,12,20,18,15,13,22,,,,,1.81,0.89,1.57*1B
$GNGSA,A,3,79,78,82,67,80,,,,,,,,1.81,0.89,1.57*14
$GPGSV,5,1,17,05,62,078,29,11,05,027,09,12,52,017,36,13,16,136,18*78
$GPGSV,5,2,17,15,31,170,28,18,32,254,23,20,32,044,28,22,06,133,14*73
$GPGSV,5,3,17,23,18,207,18,24,50,205,30,25,28,342,28,29,09,320,14*7E
$GPGSV,5,4,17,36,52,277,,40,86,351,,41,58,082,,49,32,274,*7C
$GPGSV,5,5,17,50,10,089,*4A
$GLGSV,3,1,09,67,17,100,14,68,24,152,,69,08,198,,78,28,150,17*63
$GLGSV,3,2,09,79,80,107,25,80,38,341,29,82,14,354,14,83,28,302,10*6D
$GLGSV,3,3,09,84,12,247,*52
$GNGLL,0419.83096,S,05539.80052,E,052518.00,A,A*6C
$GNRMC,052519.00,A,0419.83099,S,05539.80039,E,0.123,,270525,,,A*71
$GNVTG,,T,,M,0.123,N,0.228,K,A*35
$GNGGA,052519.00,0419.83099,S,05539.80039,E,1,12,0.74,23.0,M,-47.6,M,,*43
$GNGSA,A,3,05,24,12,20,18,15,13,25,,,,,1.45,0.74,1.24*12
$GNGSA,A,3,79,83,82,67,80,,,,,,,,1.45,0.74,1.24*1E
$GPGSV,5,1,17,05,62,078,28,11,05,027,08,12,52,017,36,13,16,136,18*78
$GPGSV,5,2,17,15,31,170,28,18,32,254,20,20,32,044,28,22,06,133,14*70
$GPGSV,5,3,17,23,18,207,16,24,50,205,34,25,28,342,28,29,09,320,09*78
$GPGSV,5,4,17,36,52,277,,40,86,351,,41,58,082,,49,32,274,*7C
$GPGSV,5,5,17,50,10,089,*4A
$GLGSV,3,1,09,67,17,100,17,68,24,152,,69,08,198,,78,28,150,06*60
$GLGSV,3,2,09,79,80,107,23,80,38,341,30,82,14,354,12,83,28,302,12*67
$GLGSV,3,3,09,84,12,247,*52
$GNGLL,0419.83099,S,05539.80039,E,052519.00,A,A*6F
$GNRMC,052520.00,A,0419.83096,S,05539.80029,E,0.130,,270525,,,A*77
$GNVTG,,T,,M,0.130,N,0.240,K,A*39
$GNGGA,052520.00,0419.83096,S,05539.80029,E,1,12,0.72,22.8,M,-47.6,M,,*48
$GNGSA,A,3,05,24,12,20,18,15,13,25,,,,,1.43,0.72,1.23*15
$GNGSA,A,3,79,78,83,82,67,80,,,,,,,1.43,0.72,1.23*16
$GPGSV,5,1,17,05,62,078,29,11,05,027,09,12,52,017,36,13,16,136,18*78
$GPGSV,5,2,17,15,31,170,29,18,32,254,18,20,32,044,29,22,06,133,14*7B
$GPGSV,5,3,17,23,18,207,15,24,50,205,34,25,28,342,29,29,09,320,*73
$GPGSV,5,4,17,36,52,277,,40,86,351,,41,58,082,,49,32,274,*7C
$GPGSV,5,5,17,50,10,089,*4A
$GLGSV,3,1,09,67,17,100,13,68,24,152,,69,08,198,,78,28,150,11*62
$GLGSV,3,2,09,79,80,107,22,80,38,341,30,82,14,354,11,83,28,302,17*60
$GLGSV,3,3,09,84,12,247,*52
$GNGLL,0419.83096,S,05539.80029,E,052520.00,A,A*6B
$GNRMC,052521.00,A,0419.83094,S,05539.80018,E,0.079,,270525,,,A*7A
$GNVTG,,T,,M,0.079,N,0.146,K,A*30
$GNGGA,052521.00,0419.83094,S,05539.80018,E,1,12,0.72,22.5,M,-47.6,M,,*44
$GNGSA,A,3,05,24,12,20,18,15,13,25,,,,,1.43,0.72,1.23*15
$GNGSA,A,3,79,78,83,82,67,80,,,,,,,1.43,0.72,1.23*16
$GPGSV,5,1,17,05,62,078,30,11,05,027,08,12,52,017,37,13,16,136,18*70
$GPGSV,5,2,17,15,31,170,30,18,32,254,21,20,32,044,30,22,06,133,14*71
$GPGSV,5,3,17,23,18,207,19,24,50,205,32,25,28,342,28,29,09,320,*78
$GPGSV,5,4,17,36,52,277,,40,86,351,,41,58,082,,49,32,274,*7C
$GPGSV,5,5,17,50,10,089,*4A
$GLGSV,3,1,09,67,17,100,17,68,24,152,,69,08,198,,78,28,150,12*65
$GLGSV,3,2,09,79,80,107,21,80,38,341,30,82,14,354,16,83,28,302,19*6A
$GLGSV,3,3,09,84,12,247,*52
$GNGLL,0419.83094,S,05539.80018,E,052521.00,A,A*6A
$GNRMC,052522.00,A,0419.83094,S,05539.80014,E,0.097,,270525,,,A*75
$GNVTG,,T,,M,0.097,N,0.179,K,A*3C
$GNGGA,052522.00,0419.83094,S,05539.80014,E,1,12,0.71,22.4,M,-47.6,M,,*49
$GNGSA,A,3,05,24,12,20,18,15,13,22,25,,,,1.32,0.71,1.11*11
$GNGSA,A,3,79,78,83,82,67,80,,,,,,,1.32,0.71,1.11*12
$GPGSV,5,1,17,05,62,078,30,11,05,027,08,12,52,017,36,13,16,136,18*71
$GPGSV,5,2,17,15,31,170,29,18,32,254,20,20,32,044,32,22,06,133,14*7A
$GPGSV,5,3,17,23,18,207,20,24,50,205,33,25,28,342,28,29,09,320,*73
$GPGSV,5,4,17,36,52,277,,40,86,351,,41,58,082,,49,32,274,*7C
$GPGSV,5,5,17,50,10,089,*4A
$GLGSV,3,1,09,67,17,100,11,68,24,151,,69,08,198,,78,28,150,13*61
$GLGSV,3,2,09,79,80,107,21,80,38,341,32,82,14,354,10,83,28,302,20*64
$GLGSV,3,3,09,84,12,247,*52
$GNGLL,0419.83094,S,05539.80014,E,052522.00,A,A*65
$GNRMC,052523.00,A,0419.83088,S,05539.80007,E,0.037,,270525,,,A*71
$GNVTG,,T,,M,0.037,N,0.068,K,A*37
$GNGGA,052523.00,0419.83088,S,05539.80007,E,1,12,0.72,22.4,M,-47.6,M,,*44
$GNGSA,A,3,05,24,12,20,18,15,13,22,25,,,,1.43,0.72,1.23*15
$GNGSA,A,3,79,78,83,82,67,80,,,,,,,1.43,0.72,1.23*16
$GPGSV,5,1,17,05,62,078,28,11,05,027,09,12,52,017,35,13,16,136,18*7A
$GPGSV,5,2,17,15,31,170,30,18,32,254,20,20,32,044,30,22,06,133,14*70
$GPGSV,5,3,17,23,18,207,20,24,50,205,31,25,28,342,28,29,09,320,*71
$GPGSV,5,4,17,36,52,277,,40,86,351,,41,58,082,,49,32,274,*7C
$GPGSV,5,5,17,50,10,089,*4A
$GLGSV,3,1,09,67,17,100,18,68,24,151,,69,09,198,,78,28,150,14*6E
$GLGSV,3,2,09,79,80,107,23,80,38,341,32,82,14,354,11,83,28,302,21*66
$GLGSV,3,3,09,84,12,247,*52
$GNGLL,0419.83088,S,05539.80007,E,052523.00,A,A*6B
$GNRMC,052524.00,A,0419.83086,S,05539.80001,E,0.017,,270525,,,A*7C
$GNVTG,,T,,M,0.017,N,0.031,K,A*39
$GNGGA,052524.00,0419.83086,S,05539.80001,E,1,12,0.72,22.1,M,-47.6,M,,*4E
$GNGSA,A,3,05,24,12,20,18,15,13,22,25,,,,1.43,0.72,1.23*15
$GNGSA,A,3,79,78,83,82,67,80,,,,,,,1.43,0.72,1.23*16
$GPGSV,5,1,17,05,62,078,30,11,05,027,08,12,52,017,38,13,16,136,18*7F
$GPGSV,5,2,17,15,31,170,29,18,32,254,22,20,32,044,29,22,06,133,14*72
$GPGSV,5,3,17,23,18,207,20,24,50,205,32,25,28,342,28,29,09,320,*72
$GPGSV,5,4,17,36,52,277,,40,86,351,,41,58,082,,49,32,274,*7C
$GPGSV,5,5,17,50,10,089,*4A
$GLGSV,3,1,09,67,17,100,15,68,24,151,,69,09,198,,78,28,150,12*65
$GLGSV,3,2,09,79,80,107,22,80,38,341,30,82,14,354,14,83,28,302,22*63
$GLGSV,3,3,09,84,12,247,*52
$GNGLL,0419.83086,S,05539.80001,E,052524.00,A,A*64
$GNRMC,052525.00,A,0419.83092,S,05539.79994,E,0.061,,270525,,,A*7A
$GNVTG,,T,,M,0.061,N,0.113,K,A*39
$GNGGA,052525.00,0419.83092,S,05539.79994,E,1,12,0.72,21.7,M,-47.6,M,,*4C
$GNGSA,A,3,05,24,12,20,18,15,13,22,25,,,,1.33,0.72,1.11*13
$GNGSA,A,3,79,78,83,82,67,80,,,,,,,1.33,0.72,1.11*10
$GPGSV,5,1,17,05,62,078,29,11,05,027,08,12,52,017,38,13,16,136,18*77
$GPGSV,5,2,17,15,31,170,28,18,32,254,22,20,32,044,28,22,06,133,14*72
$GPGSV,5,3,17,23,18,207,20,24,50,205,36,25,28,342,28,29,09,320,*76
$GPGSV,5,4,17,36,52,277,,40,86,351,,41,58,082,,49,32,274,*7C
$GPGSV,5,5,17,50,10,089,*4A
$GLGSV,3,1,09,67,17,100,17,68,24,151,,69,09,198,,78,28,150,14*61
$GLGSV,3,2,09,79,80,107,23,80,38,341,28,82,14,354,11,83,28,302,22*6E
$GLGSV,3,3,09,84,12,247,*52
$GNGLL,0419.83092,S,05539.79994,E,052525.00,A,A*63
$GNRMC,052526.00,A,0419.83084,S,05539.79985,E,0.119,,270525,,,A*70
$GNVTG,,T,,M,0.119,N,0.220,K,A*34
$GNGGA,052526.00,0419.83084,S,05539.79985,E,1,12,0.70,21.7,M,-47.6,M,,*4A
$GNGSA,A,3,05,24,12,20,18,15,13,22,25,,,,1.35,0.70,1.15*13
$GNGSA,A,3,79,78,83,82,67,80,,,,,,,1.35,0.70,1.15*10
$GPGSV,5,1,17,05,62,078,30,11,05,027,,12,52,017,34,13,16,136,18*7B
$GPGSV,5,2,17,15,31,170,29,18,32,254,20,20,32,044,29,22,06,133,14*70
$GPGSV,5,3,17,23,18,207,19,24,50,205,35,25,28,342,29,29,09,320,*7E
$GPGSV,5,4,17,36,52,277,,40,86,351,,41,58,082,,49,32,274,*7C
$GPGSV,5,5,17,50,10,089,*4A
$GLGSV,3,1,09,67,17,100,17,68,24,151,,69,09,198,,78,28,150,17*62
$GLGSV,3,2,09,79,80,107,23,80,38,341,28,82,14,354,08,83,28,302,22*66
$GLGSV,3,3,09,84,12,247,*52
$GNGLL,0419.83084,S,05539.79985,E,052526.00,A,A*67
$GNRMC,052527.00,A,0419.83080,S,05539.79981,E,0.166,,270525,,,A*79
$GNVTG,,T,,M,0.166,N,0.308,K,A*37
$GNGGA,052527.00,0419.83080,S,05539.79981,E,1,12,0.70,21.4,M,-47.6,M,,*48
$GNGSA,A,3,05,24,12,20,18,15,13,22,25,,,,1.35,0.70,1.15*13
$GNGSA,A,3,79,78,83,82,67,80,,,,,,,1.35,0.70,1.15*10
$GPGSV,5,1,17,05,62,078,30,11,05,027,19,12,52,017,35,13,16,136,18*72
$GPGSV,5,2,17,15,31,170,29,18,32,254,17,20,32,044,29,22,06,133,14*74
$GPGSV,5,3,17,23,18,207,20,24,50,205,33,25,28,342,29,29,09,320,*72
$GPGSV,5,4,17,36,52,277,,40,86,351,,41,58,082,,49,32,274,*7C
$GPGSV,5,5,17,50,10,089,*4A
$GLGSV,3,1,09,67,17,100,16,68,24,151,,69,09,198,,78,28,150,15*61
$GLGSV,3,2,09,79,80,107,22,80,38,341,28,82,14,354,16,83,28,302,20*6A
$GLGSV,3,3,09,84,12,247,*52
$GNGLL,0419.83080,S,05539.79981,E,052527.00,A,A*66
$GNRMC,052528.00,A,0419.83079,S,05539.79980,E,0.099,,270525,,,A*70
$GNVTG,,T,,M,0.099,N,0.183,K,A*37
$GNGGA,052528.00,0419.83079,S,05539.79980,E,1,12,0.71,21.1,M,-47.6,M,,*44
$GNGSA,A,3,05,24,12,20,18,15,25,,,,,,1.39,0.71,1.20*1A
$GNGSA,A,3,79,78,83,82,67,80,,,,,,,1.39,0.71,1.20*1B
$GPGSV,5,1,17,05,62,078,30,11,05,027,16,12,52,017,35,13,16,136,*74
$GPGSV,5,2,17,15,31,170,28,18,32,254,20,20,32,044,29,22,06,133,14*71
$GPGSV,5,3,17,23,18,207,20,24,50,205,32,25,28,342,29,29,09,320,*73
$GPGSV,5,4,17,36,52,277,,40,86,351,,41,58,082,,49,32,274,*7C
$GPGSV,5,5,17,50,10,089,*4A
$GLGSV,3,1,09,67,17,100,18,68,24,151,,69,09,198,,78,28,150,13*69
$GLGSV,3,2,09,79,80,107,22,80,38,341,28,82,14,354,07,83,28,302,21*6B
$GLGSV,3,3,09,84,12,247,*52
$GNGLL,0419.83079,S,05539.79980,E,052528.00,A,A*6E
$GNRMC,052529.00,A,0419.83076,S,05539.79978,E,0.041,,270525,,,A*7C
$GNVTG,,T,,M,0.041,N,0.076,K,A*39
$GNGGA,052529.00,0419.83076,S,05539.79978,E,1,12,0.75,20.7,M,-47.6,M,,*4E
$GNGSA,A,3,05,24,12,20,18,15,25,,,,,,1.53,0.75,1.33*10
$GNGSA,A,3,79,78,83,82,67,80,,,,,,,1.53,0.75,1.33*11
$GPGSV,5,1,17,05,62,078,29,11,05,027,12,12,52,017,35,13,16,136,*78
$GPGSV,5,2,17,15,31,170,29,18,32,254,22,20,32,044,29,22,06,133,14*72
$GPGSV,5,3,17,23,18,207,17,24,50,205,31,25,28,342,28,29,09,320,*75
