$GNRMC,051930.00,A,0419.84538,S,05539.80080,E,0.169,,270525,,,A*70
$GNVTG,,T,,M,0.169,N,0.313,K,A*32
$GNGGA,051930.00,0419.84538,S,05539.80080,E,1,11,0.79,24.3,M,-47.6,M,,*46
$GNGSA,A,3,05,24,12,20,18,15,,,,,,,1.59,0.79,1.37*15
$GNGSA,A,3,79,78,83,82,67,,,,,,,,1.59,0.79,1.37*1B
$GPGSV,5,1,17,05,63,085,21,11,07,025,,12,49,015,31,13,16,139,*73
$GPGSV,5,2,17,15,30,173,28,18,31,250,28,20,34,046,23,22,08,131,*7B
$GPGSV,5,3,17,23,15,207,,24,52,209,27,25,25,341,,29,09,318,*78
$GPGSV,5,4,17,36,52,277,,40,86,351,,41,58,082,,49,32,274,*7C
$GPGSV,5,5,17,50,10,089,*4A
$GLGSV,3,1,09,67,17,103,14,68,23,154,,69,07,201,,78,30,149,17*6C
$GLGSV,3,2,09,79,81,088,25,80,35,342,23,82,16,352,12,83,29,299,17*69
$GLGSV,3,3,09,84,12,245,*50
$GNGLL,0419.84538,S,05539.80080,E,051930.00,A,A*60
$GNRMC,051931.00,A,0419.84556,S,05539.80086,E,1.044,,270525,,,A*70
$GNVTG,,T,,M,1.044,N,1.934,K,A*33
$GNGGA,051931.00,0419.84556,S,05539.80086,E,1,11,0.79,24.8,M,-47.6,M,,*42
$GNGSA,A,3,05,24,12,20,18,15,,,,,,,1.59,0.79,1.37*15
$GNGSA,A,3,79,78,83,82,67,,,,,,,,1.59,0.79,1.37*1B
$GPGSV,5,1,17,05,63,085,18,11,07,025,13,12,49,015,26,13,16,139,*7D
$GPGSV,5,2,17,15,30,173,27,18,31,250,27,20,34,046,22,22,08,131,*7A
$GPGSV,5,3,17,23,15,207,,24,52,209,26,25,25,341,,29,09,318,*79
$GPGSV,5,4,17,36,52,277,,40,86,351,,41,58,082,,49,32,274,*7C
$GPGSV,5,5,17,50,10,089,*4A
$GLGSV,3,1,09,67,17,103,13,68,23,154,,69,07,201,,78,30,149,14*68
$GLGSV,3,2,09,79,81,088,24,80,35,342,23,82,16,352,09,83,29,299,16*63
$GLGSV,3,3,09,84,12,245,*50
$GNGLL,0419.84556,S,05539.80086,E,051931.00,A,A*6F
$GNRMC,051932.00,A,0419.84568,S,05539.80081,E,0.047,,270525,,,A*7B
$GNVTG,,T,,M,0.047,N,0.087,K,A*31
$GNGGA,051932.00,0419.84568,S,05539.80081,E,1,11,0.79,24.9,M,-47.6,M,,*4A
$GNGSA,A,3,05,24,12,20,18,15,,,,,,,1.59,0.79,1.37*15
$GNGSA,A,3,79,78,83,82,67,,,,,,,,1.59,0.79,1.37*1B
$GPGSV,5,1,17,05,63,083,18,11,07,025,11,12,49,015,33,13,16,139,17*7B
$GPGSV,5,2,17,15,30,173,28,18,31,250,28,20,34,046,24,22,08,131,*7C
$GPGSV,5,3,17,23,15,207,,24,52,209,26,25,25,341,,29,09,318,*79
$GPGSV,5,4,17,36,52,277,,40,86,351,,41,58,082,,49,32,274,*7C
$GPGSV,5,5,17,50,10,089,*4A
$GLGSV,3,1,09,67,17,103,13,68,23,154,,69,07,201,,78,30,149,14*68
$GLGSV,3,2,09,79,81,088,25,80,35,342,24,82,16,352,09,83,29,299,15*66
$GLGSV,3,3,09,84,12,245,*50
$GNGLL,0419.84568,S,05539.80081,E,051932.00,A,A*66
$GNRMC,051933.00,A,0419.84590,S,05539.80070,E,0.409,,270525,,,A*7D
$GNVTG,,T,,M,0.409,N,0.758,K,A*3A
$GNGGA,051933.00,0419.84590,S,05539.80070,E,1,12,0.76,25.4,M,-47.6,M,,*42
$GNGSA,A,3,05,24,12,20,18,15,11,,,,,,1.44,0.76,1.23*13
$GNGSA,A,3,79,78,83,82,67,,,,,,,,1.44,0.76,1.23*1D
$GPGSV,5,1,17,05,63,083,18,11,07,025,10,12,49,015,28,13,16,139,17*70
$GPGSV,5,2,17,15,30,173,27,18,31,250,27,20,34,046,23,22,08,131,15*7F
$GPGSV,5,3,17,23,15,207,,24,52,209,26,25,25,341,,29,09,318,*79
$GPGSV,5,4,17,36,52,277,,40,86,351,,41,58,082,,49,32,274,*7C
$GPGSV,5,5,17,50,10,089,*4A
$GLGSV,3,1,09,67,17,103,09,68,23,154,,69,07,201,,78,30,149,18*6F
$GLGSV,3,2,09,79,81,088,25,80,35,342,24,82,16,352,11,83,29,299,13*69
$GLGSV,3,3,09,84,12,245,*50
$GNGLL,0419.84590,S,05539.80070,E,051933.00,A,A*6E
$GNRMC,051934.00,A,0419.84606,S,05539.80054,E,0.450,,270525,,,A*7C
$GNVTG,,T,,M,0.450,N,0.834,K,A*33
$GNGGA,051934.00,0419.84606,S,05539.80054,E,1,12,0.79,25.9,M,-47.6,M,,*4D
$GNGSA,A,3,05,24,12,20,18,15,11,,,,,,1.59,0.79,1.37*15
$GNGSA,A,3,79,78,83,82,67,,,,,,,,1.59,0.79,1.37*1B
$GPGSV,5,1,17,05,63,083,17,11,07,025,09,12,49,015,26,13,16,139,14*7A
$GPGSV,5,2,17,15,30,173,26,18,31,250,26,20,34,046,22,22,08,131,14*7F
$GPGSV,5,3,17,23,15,207,,24,52,209,24,25,25,341,,29,09,318,*7B
$GPGSV,5,4,17,36,52,277,,40,86,351,,41,58,082,,49,32,274,*7C
$GPGSV,5,5,17,50,10,089,*4A
$GLGSV,3,1,09,67,17,103,09,68,23,154,,69,07,201,,78,30,149,18*6F
$GLGSV,3,2,09,79,81,088,25,80,35,342,24,82,16,352,11,83,29,299,14*6E
$GLGSV,3,3,09,84,12,245,*50
$GNGLL,0419.84606,S,05539.80054,E,051934.00,A,A*63
$GNRMC,051935.00,A,0419.84610,S,05539.80047,E,0.233,,270525,,,A*7B
$GNVTG,,T,,M,0.233,N,0.431,K,A*39
$GNGGA,051935.00,0419.84610,S,05539.80047,E,1,12,0.79,26.1,M,-47.6,M,,*42
$GNGSA,A,3,05,24,12,20,18,15,11,,,,,,1.59,0.79,1.37*15
$GNGSA,A,3,79,78,83,82,67,,,,,,,,1.59,0.79,1.37*1B
$GPGSV,5,1,17,05,63,083,18,11,07,025,09,12,49,015,26,13,16,139,10*71
$GPGSV,5,2,17,15,30,173,26,18,31,250,26,20,34,046,23,22,08,131,12*78
$GPGSV,5,3,17,23,15,207,,24,52,209,23,25,25,341,,29,09,318,*7C
$GPGSV,5,4,17,36,52,277,,40,86,351,,41,58,082,,49,32,274,*7C
$GPGSV,5,5,17,50,10,089,*4A
$GLGSV,3,1,09,67,17,103,09,68,23,154,,69,07,201,,78,30,149,18*6F
$GLGSV,3,2,09,79,81,088,24,80,35,342,23,82,16,352,11,83,29,299,15*69
$GLGSV,3,3,09,84,12,245,*50
$GNGLL,0419.84610,S,05539.80047,E,051935.00,A,A*67
$GNRMC,051936.00,A,0419.84619,S,05539.80036,E,0.285,,270525,,,A*7A
$GNVTG,,T,,M,0.285,N,0.529,K,A*3C
$GNGGA,051936.00,0419.84619,S,05539.80036,E,1,12,0.79,26.3,M,-47.6,M,,*4C
$GNGSA,A,3,05,24,12,20,18,15,11,,,,,,1.59,0.79,1.37*15
$GNGSA,A,3,79,78,83,82,67,,,,,,,,1.59,0.79,1.37*1B
$GPGSV,5,1,17,05,63,083,15,11,07,025,09,12,49,015,26,13,16,139,09*74
$GPGSV,5,2,17,15,30,173,27,18,31,250,25,20,34,046,21,22,08,131,11*7B
$GPGSV,5,3,17,23,15,207,,24,52,209,20,25,25,341,,29,09,318,*7F
$GPGSV,5,4,17,36,52,277,,40,86,351,,41,58,082,,49,32,274,*7C
$GPGSV,5,5,17,50,10,089,*4A
$GLGSV,3,1,09,67,17,103,09,68,23,154,,69,07,201,,78,30,149,18*6F
$GLGSV,3,2,09,79,81,088,24,80,35,342,24,82,16,352,11,83,29,299,16*6D
$GLGSV,3,3,09,84,12,245,*50
$GNGLL,0419.84619,S,05539.80036,E,051936.00,A,A*6B
$GNRMC,051937.00,A,0419.84627,S,05539.80043,E,0.327,,270525,,,A*7D
$GNVTG,,T,,M,0.327,N,0.606,K,A*3B
$GNGGA,051937.00,0419.84627,S,05539.80043,E,1,12,0.77,26.5,M,-47.6,M,,*4A
$GNGSA,A,3,05,24,12,20,18,15,11,,,,,,1.44,0.77,1.22*13
$GNGSA,A,3,79,78,83,82,67,,,,,,,,1.44,0.77,1.22*1D
$GPGSV,5,1,17,05,63,083,13,11,07,025,10,12,49,015,24,13,16,139,10*70
$GPGSV,5,2,17,15,30,173,26,18,31,250,23,20,34,046,19,22,08,131,10*76
$GPGSV,5,3,17,23,15,207,,24,52,209,20,25,25,341,,29,09,318,*7F
$GPGSV,5,4,17,36,52,277,,40,86,351,,41,58,082,,49,32,274,*7C
$GPGSV,5,5,17,50,10,089,*4A
$GLGSV,3,1,09,67,17,103,13,68,23,154,,69,07,201,,78,30,149,17*6B
$GLGSV,3,2,09,79,81,088,23,80,35,342,24,82,16,352,13,83,29,299,15*6B
$GLGSV,3,3,09,84,12,245,*50
$GNGLL,0419.84627,S,05539.80043,E,051937.00,A,A*65
$GNRMC,051938.00,A,0419.84627,S,05539.80053,E,0.565,,270525,,,A*73
$GNVTG,,T,,M,0.565,N,1.046,K,A*38
$GNGGA,051938.00,0419.84627,S,05539.80053,E,1,12,0.79,26.6,M,-47.6,M,,*49
$GNGSA,A,3,05,24,12,20,18,15,11,,,,,,1.59,0.79,1.37*15
$GNGSA,A,3,79,78,83,82,67,,,,,,,,1.59,0.79,1.37*1B
$GPGSV,5,1,17,05,63,083,14,11,07,026,10,12,49,015,24,13,16,139,08*7D
$GPGSV,5,2,17,15,30,173,27,18,31,250,23,20,34,046,19,22,08,131,08*7E
$GPGSV,5,3,17,23,15,207,,24,52,209,20,25,25,341,,29,09,318,*7F
$GPGSV,5,4,17,36,52,277,,40,86,351,,41,58,082,,49,32,274,*7C
$GPGSV,5,5,17,50,10,089,*4A
$GLGSV,3,1,09,67,17,103,13,68,23,154,,69,07,201,,78,30,149,17*6B
$GLGSV,3,2,09,79,81,088,22,80,35,342,23,82,16,352,13,83,29,299,17*6F
$GLGSV,3,3,09,84,12,245,*50
$GNGLL,0419.84627,S,05539.80053,E,051938.00,A,A*6B
$GNRMC,051939.00,A,0419.84623,S,05539.80014,E,1.086,,270525,,,A*7C
$GNVTG,,T,,M,1.086,N,2.012,K,A*33
$GNGGA,051939.00,0419.84623,S,05539.80014,E,1,12,0.79,26.6,M,-47.6,M,,*4F
$GNGSA,A,3,05,24,12,20,18,15,11,,,,,,1.59,0.79,1.37*15
$GNGSA,A,3,79,78,83,82,67,,,,,,,,1.59,0.79,1.37*1B
$GPGSV,5,1,17,05,63,083,15,11,07,026,09,12,49,015,24,13,16,139,08*74
$GPGSV,5,2,17,15,30,173,26,18,31,250,24,20,34,046,18,22,08,131,08*79
$GPGSV,5,3,17,23,15,207,,24,52,209,21,25,25,341,,29,09,318,*7E
$GPGSV,5,4,17,36,52,277,,40,86,351,,41,58,082,,49,32,274,*7C
$GPGSV,5,5,17,50,10,089,*4A
$GLGSV,3,1,09,67,17,103,12,68,23,154,,69,07,201,,78,30,149,17*6A
$GLGSV,3,2,09,79,81,088,23,80,35,342,22,82,16,352,13,83,29,299,16*6E
$GLGSV,3,3,09,84,12,245,*50
$GNGLL,0419.84623,S,05539.80014,E,051939.00,A,A*6D
$GNRMC,051940.00,A,0419.84619,S,05539.80006,E,0.549,,270525,,,A*7F
$GNVTG,,T,,M,0.549,N,1.016,K,A*33
$GNGGA,051940.00,0419.84619,S,05539.80006,E,1,11,0.96,26.1,M,-47.6,M,,*4E
$GNGSA,A,3,05,24,12,20,18,15,,,,,,,2.18,0.96,1.96*19
$GNGSA,A,3,79,78,83,82,67,,,,,,,,2.18,0.96,1.96*17
$GPGSV,5,1,17,05,63,083,15,11,07,026,,12,49,015,25,13,16,138,08*7D
$GPGSV,5,2,17,15,30,173,32,18,31,250,31,20,34,046,19,22,08,131,08*79
$GPGSV,5,3,17,23,15,207,,24,52,209,21,25,25,341,,29,09,318,*7E
$GPGSV,5,4,17,36,52,277,,40,86,351,,41,58,082,,49,32,274,*7C
$GPGSV,5,5,17,50,10,089,*4A
$GLGSV,3,1,09,67,17,103,12,68,23,154,,69,07,201,,78,30,149,17*6A
$GLGSV,3,2,09,79,81,088,23,80,35,342,23,82,16,352,13,83,29,299,16*6F
$GLGSV,3,3,09,84,12,245,*50
$GNGLL,0419.84619,S,05539.80006,E,051940.00,A,A*69
$GNRMC,051941.00,A,0419.84611,S,05539.80014,E,0.377,,270525,,,A*7E
$GNVTG,,T,,M,0.377,N,0.697,K,A*36
$GNGGA,051941.00,0419.84611,S,05539.80014,E,1,11,0.79,25.9,M,-47.6,M,,*4E
$GNGSA,A,3,05,24,12,20,18,15,,,,,,,1.58,0.79,1.37*14
$GNGSA,A,3,79,78,83,82,67,,,,,,,,1.58,0.79,1.37*1A
$GPGSV,5,1,17,05,63,083,16,11,07,026,,12,49,015,25,13,16,138,08*7E
$GPGSV,5,2,17,15,30,173,26,18,31,250,28,20,34,046,19,22,08,131,09*75
$GPGSV,5,3,17,23,15,207,,24,52,209,21,25,25,341,,29,09,318,*7E
$GPGSV,5,4,17,36,52,277,,40,86,351,,41,58,082,,49,32,274,*7C
$GPGSV,5,5,17,50,10,089,*4A
$GLGSV,3,1,09,67,17,103,08,68,23,154,,69,07,201,,78,30,149,13*65
$GLGSV,3,2,09,79,81,088,23,80,35,342,22,82,16,352,08,83,29,299,13*61
$GLGSV,3,3,09,84,12,245,*50
$GNGLL,0419.84611,S,05539.80014,E,051941.00,A,A*63
$GNRMC,051942.00,A,0419.84611,S,05539.80023,E,0.323,,270525,,,A*78
$GNVTG,,T,,M,0.323,N,0.597,K,A*34
$GNGGA,051942.00,0419.84611,S,05539.80023,E,1,11,0.79,26.2,M,-47.6,M,,*41
$GNGSA,A,3,05,24,12,20,18,15,,,,,,,1.58,0.79,1.37*14
$GNGSA,A,3,79,78,83,82,67,,,,,,,,1.58,0.79,1.37*1A
$GPGSV,5,1,17,05,63,083,13,11,07,026,,12,49,015,24,13,16,138,07*75
$GPGSV,5,2,17,15,31,172,26,18,31,250,26,20,34,046,19,22,08,131,09*7B
$GPGSV,5,3,17,23,15,207,,24,52,209,21,25,25,341,,29,09,318,*7E
$GPGSV,5,4,17,36,52,277,,40,86,351,,41,58,082,,49,32,274,*7C
$GPGSV,5,5,17,50,10,089,*4A
$GLGSV,3,1,09,67,17,103,14,68,23,154,,69,07,201,,78,30,149,15*6E
$GLGSV,3,2,09,79,81,088,23,80,35,342,22,82,16,352,10,83,29,299,17*6C
$GLGSV,3,3,09,84,12,245,*50
$GNGLL,0419.84611,S,05539.80023,E,051942.00,A,A*64
$GNRMC,051943.00,A,0419.84628,S,05539.80010,E,0.276,,270525,,,A*72
$GNVTG,,T,,M,0.276,N,0.512,K,A*38
$GNGGA,051943.00,0419.84628,S,05539.80010,E,1,11,0.79,26.5,M,-47.6,M,,*4D
$GNGSA,A,3,05,24,12,20,18,15,,,,,,,1.58,0.79,1.37*14
$GNGSA,A,3,79,78,83,82,67,,,,,,,,1.58,0.79,1.37*1A
$GPGSV,5,1,17,05,63,083,17,11,07,026,,12,49,015,30,13,16,138,09*7A
$GPGSV,5,2,17,15,31,172,31,18,31,250,26,20,34,046,20,22,08,131,09*77
$GPGSV,5,3,17,23,15,207,,24,52,209,22,25,25,341,,29,09,318,*7D
$GPGSV,5,4,17,36,52,277,,40,86,351,,41,58,082,,49,32,274,*7C
$GPGSV,5,5,17,50,10,089,*4A
$GLGSV,3,1,09,67,17,103,12,68,23,154,,69,07,201,,78,30,149,17*6A
$GLGSV,3,2,09,79,81,088,23,80,35,342,22,82,16,352,13,83,29,299,16*6E
$GLGSV,3,3,09,84,12,245,*50
$GNGLL,0419.84628,S,05539.80010,E,051943.00,A,A*6F
$GNRMC,051944.00,A,0419.84625,S,05539.79995,E,0.451,,270525,,,A*79
$GNVTG,,T,,M,0.451,N,0.835,K,A*33
$GNGGA,051944.00,0419.84625,S,05539.79995,E,1,11,0.79,25.9,M,-47.6,M,,*4A
$GNGSA,A,3,05,24,12,20,18,15,,,,,,,1.58,0.79,1.37*14
$GNGSA,A,3,79,78,83,82,67,,,,,,,,1.58,0.79,1.37*1A
$GPGSV,5,1,17,05,63,083,15,11,07,026,,12,49,015,25,13,16,138,*75
$GPGSV,5,2,17,15,31,172,29,18,31,250,25,20,34,046,20,22,08,131,*74
$GPGSV,5,3,17,23,15,207,,24,52,209,23,25,25,341,,29,09,318,*7C
$GPGSV,5,4,17,36,52,277,,40,86,351,,41,58,082,,49,32,274,*7C
$GPGSV,5,5,17,50,10,089,*4A
$GLGSV,3,1,09,67,17,103,16,68,23,154,,69,07,201,,78,30,149,17*6E
$GLGSV,3,2,09,79,81,088,24,80,35,342,22,82,16,352,11,83,29,299,20*6E
$GLGSV,3,3,09,84,12,245,*50
$GNGLL,0419.84625,S,05539.79995,E,051944.00,A,A*67
$GNRMC,051945.00,A,0419.84626,S,05539.79970,E,0.657,,270525,,,A*74
$GNVTG,,T,,M,0.657,N,1.217,K,A*3C
$GNGGA,051945.00,0419.84626,S,05539.79970,E,1,11,0.79,25.6,M,-47.6,M,,*4C
$GNGSA,A,3,05,24,12,20,18,15,,,,,,,1.58,0.79,1.37*14
$GNGSA,A,3,79,78,83,82,67,,,,,,,,1.58,0.79,1.37*1A
$GPGSV,5,1,17,05,63,083,13,11,07,026,,12,49,015,23,13,16,138,*75
$GPGSV,5,2,17,15,31,172,28,18,31,251,25,20,34,046,20,22,08,131,*74
$GPGSV,5,3,17,23,15,207,,24,52,209,20,25,25,341,,29,09,318,*7F
$GPGSV,5,4,17,36,52,277,,40,86,351,,41,58,082,,49,32,274,*7C
$GPGSV,5,5,17,50,10,089,*4A
$GLGSV,3,1,09,67,17,103,17,68,23,154,,69,07,201,,78,30,149,17*6F
$GLGSV,3,2,09,79,81,088,25,80,35,342,23,82,16,352,16,83,29,299,19*63
$GLGSV,3,3,09,84,12,245,*50
$GNGLL,0419.84626,S,05539.79970,E,051945.00,A,A*6E
$GNRMC,051946.00,A,0419.84621,S,05539.79968,E,0.039,,270525,,,A*77
$GNVTG,,T,,M,0.039,N,0.071,K,A*31
$GNGGA,051946.00,0419.84621,S,05539.79968,E,1,11,0.87,25.4,M,-47.6,M,,*42
$GNGSA,A,3,05,24,12,20,18,15,,,,,,,1.81,0.87,1.59*19
$GNGSA,A,3,79,78,83,82,67,,,,,,,,1.81,0.87,1.59*17
$GPGSV,5,1,17,05,63,083,09,11,07,026,,12,49,015,26,13,16,138,*7B
$GPGSV,5,2,17,15,31,172,27,18,31,251,26,20,34,046,21,22,08,131,*79
$GPGSV,5,3,17,23,15,207,,24,52,209,23,25,25,341,,29,09,318,*7C
$GPGSV,5,4,17,36,52,277,,40,86,351,,41,58,082,,49,32,274,*7C
$GPGSV,5,5,17,50,10,089,*4A
$GLGSV,3,1,09,67,17,103,12,68,23,154,,69,07,201,,78,30,149,11*6C
$GLGSV,3,2,09,79,81,088,25,80,35,342,25,82,16,352,10,83,29,299,20*69
$GLGSV,3,3,09,84,12,245,*50
$GNGLL,0419.84621,S,05539.79968,E,051946.00,A,A*63
$GNRMC,051947.00,A,0419.84622,S,05539.79967,E,0.205,,270525,,,A*77
$GNVTG,,T,,M,0.205,N,0.379,K,A*37
$GNGGA,051947.00,0419.84622,S,05539.79967,E,1,11,0.79,25.8,M,-47.6,M,,*42
$GNGSA,A,3,05,24,12,20,18,15,,,,,,,1.58,0.79,1.37*14
$GNGSA,A,3,79,78,83,82,67,,,,,,,,1.58,0.79,1.37*1A
$GPGSV,5,1,17,05,63,083,10,11,07,026,,12,49,015,27,13,16,138,*72
$GPGSV,5,2,17,15,31,172,26,18,31,251,26,20,34,046,20,22,08,131,*79
$GPGSV,5,3,17,23,15,207,,24,52,209,22,25,25,341,,29,09,318,*7D
$GPGSV,5,4,17,36,52,277,,40,86,351,,41,58,082,,49,32,274,*7C
$GPGSV,5,5,17,50,10,089,*4A
$GLGSV,3,1,09,67,17,103,10,68,23,154,,69,07,201,,78,30,149,16*69
$GLGSV,3,2,09,79,81,088,25,80,35,342,24,82,16,352,09,83,29,299,21*61
$GLGSV,3,3,09,84,12,245,*50
$GNGLL,0419.84622,S,05539.79967,E,051947.00,A,A*6E
$GNRMC,051948.00,A,0419.84618,S,05539.79979,E,0.528,,270525,,,A*76
$GNVTG,,T,,M,0.528,N,0.978,K,A*34
$GNGGA,051948.00,0419.84618,S,05539.79979,E,1,11,0.79,24.7,M,-47.6,M,,*45
$GNGSA,A,3,05,24,12,20,18,15,,,,,,,1.58,0.79,1.37*14
$GNGSA,A,3,79,78,83,82,67,,,,,,,,1.58,0.79,1.37*1A
$GPGSV,5,1,17,05,63,083,10,11,07,026,,12,49,015,25,13,16,138,*70
$GPGSV,5,2,17,15,31,172,24,18,31,251,24,20,34,046,18,22,07,131,*7D
$GPGSV,5,3,17,23,15,207,,24,52,209,19,25,25,341,,29,09,318,*75
$GPGSV,5,4,17,36,52,277,,40,86,351,,41,58,082,,49,32,274,*7C
$GPGSV,5,5,17,50,10,089,*4A
$GLGSV,3,1,09,67,17,103,11,68,23,154,,69,07,201,,78,30,149,10*6E
$GLGSV,3,2,09,79,81,088,22,80,35,342,22,82,16,352,10,83,29,299,21*68
$GLGSV,3,3,09,84,12,245,*50
$GNGLL,0419.84618,S,05539.79979,E,051948.00,A,A*67
$GNRMC,051949.00,A,0419.84625,S,05539.79992,E,0.672,,270525,,,A*70
$GNVTG,,T,,M,0.672,N,1.244,K,A*3D
$GNGGA,051949.00,0419.84625,S,05539.79992,E,1,11,0.87,24.1,M,-47.6,M,,*48
$GNGSA,A,3,05,24,12,20,18,15,,,,,,,1.81,0.87,1.59*19
$GNGSA,A,3,79,78,83,82,67,,,,,,,,1.81,0.87,1.59*17
$GPGSV,5,1,17,05,63,083,16,11,07,026,,12,49,015,24,13,16,138,*77
$GPGSV,5,2,17,15,31,172,24,18,31,251,24,20,34,046,16,22,07,131,*73
$GPGSV,5,3,17,23,16,207,,24,52,209,19,25,25,341,,29,09,318,*76
$GPGSV,5,4,17,36,52,277,,40,86,351,,41,58,082,,49,32,274,*7C
$GPGSV,5,5,17,50,10,089,*4A
$GLGSV,3,1,09,67,17,103,09,68,23,154,,69,07,201,,78,30,149,14*63
$GLGSV,3,2,09,79,81,088,22,80,35,342,21,82,16,352,08,83,29,299,21*62
$GLGSV,3,3,09,84,12,245,*50
$GNGLL,0419.84625,S,05539.79992,E,051949.00,A,A*6D
$GNRMC,051950.00,A,0419.84633,S,05539.80019,E,0.873,,270525,,,A*7C
$GNVTG,,T,,M,0.873,N,1.617,K,A*30
$GNGGA,051950.00,0419.84633,S,05539.80019,E,1,11,0.79,23.9,M,-47.6,M,,*45
$GNGSA,A,3,05,24,12,20,18,15,,,,,,,1.58,0.79,1.37*14
$GNGSA,A,3,79,78,83,82,67,,,,,,,,1.58,0.79,1.37*1A
$GPGSV,5,1,17,05,63,083,09,11,07,026,,12,49,015,24,13,16,138,*79
$GPGSV,5,2,17,15,31,172,25,18,31,251,25,20,34,046,16,22,07,131,*73
$GPGSV,5,3,17,23,16,207,,24,52,208,20,25,25,341,,29,09,318,*7D
$GPGSV,5,4,17,36,52,277,,40,86,351,,41,58,082,,49,32,274,*7C
$GPGSV,5,5,17,50,10,089,*4A
$GLGSV,3,1,09,67,17,103,13,68,23,154,,69,07,201,,78,30,149,07*6A
$GLGSV,3,2,09,79,81,088,23,80,35,342,21,82,16,352,10,83,29,299,23*68
$GLGSV,3,3,09,84,12,245,*50
$GNGLL,0419.84633,S,05539.80019,E,051950.00,A,A*6E
$GNRMC,051951.00,A,0419.84640,S,05539.80033,E,0.420,,270525,,,A*7B
$GNVTG,,T,,M,0.420,N,0.777,K,A*3C
$GNGGA,051951.00,0419.84640,S,05539.80033,E,1,11,0.79,23.8,M,-47.6,M,,*49
$GNGSA,A,3,05,24,12,20,18,15,,,,,,,1.58,0.79,1.37*14
$GNGSA,A,3,79,78,83,82,67,,,,,,,,1.58,0.79,1.37*1A
$GPGSV,5,1,17,05,63,083,11,11,07,026,,12,49,015,25,13,16,138,*71
$GPGSV,5,2,17,15,31,172,27,18,31,251,26,20,34,046,20,22,07,131,*77
$GPGSV,5,3,17,23,16,207,,24,52,208,22,25,26,342,,29,09,318,*7F
$GPGSV,5,4,17,36,52,277,,40,86,351,,41,58,082,,49,32,274,*7C
$GPGSV,5,5,17,50,10,089,*4A
$GLGSV,3,1,09,67,17,103,17,68,23,154,,69,07,201,,78,30,149,17*6F
$GLGSV,3,2,09,79,81,088,25,80,35,342,23,82,16,352,14,83,29,299,26*6D
$GLGSV,3,3,09,84,12,245,*50
$GNGLL,0419.84640,S,05539.80033,E,051951.00,A,A*63
$GNRMC,051952.00,A,0419.84653,S,05539.80032,E,0.043,,270525,,,A*7A
$GNVTG,,T,,M,0.043,N,0.080,K,A*32
$GNGGA,051952.00,0419.84653,S,05539.80032,E,1,11,0.79,24.5,M,-47.6,M,,*43
$GNGSA,A,3,05,24,12,20,18,15,,,,,,,1.58,0.79,1.37*14
$GNGSA,A,3,79,78,83,82,67,,,,,,,,1.58,0.79,1.37*1A
$GPGSV,5,1,17,05,63,083,15,11,07,026,,12,49,015,26,13,16,138,*76
$GPGSV,5,2,17,15,31,172,28,18,31,251,28,20,34,046,22,22,07,131,*74
$GPGSV,5,3,17,23,16,207,,24,52,208,23,25,26,342,,29,09,318,*7E
$GPGSV,5,4,17,36,52,277,,40,86,351,,41,58,082,,49,32,274,*7C
$GPGSV,5,5,17,50,10,089,*4A
$GLGSV,3,1,09,67,17,103,14,68,23,154,,69,07,201,,78,30,149,10*6B
$GLGSV,3,2,09,79,81,088,25,80,35,342,24,82,16,352,14,83,29,299,25*69
$GLGSV,3,3,09,84,12,245,*50
$GNGLL,0419.84653,S,05539.80032,E,051952.00,A,A*63
$GNRMC,051953.00,A,0419.84652,S,05539.80045,E,0.084,,270525,,,A*71
$GNVTG,,T,,M,0.084,N,0.156,K,A*33
$GNGGA,051953.00,0419.84652,S,05539.80045,E,1,11,0.79,24.3,M,-47.6,M,,*45
$GNGSA,A,3,05,24,12,20,18,15,,,,,,,1.58,0.79,1.37*14
$GNGSA,A,3,79,78,83,82,67,,,,,,,,1.58,0.79,1.37*1A
$GPGSV,5,1,17,05,63,083,11,11,07,026,,12,49,015,26,13,16,138,*72
$GPGSV,5,2,17,15,31,172,27,18,31,251,28,20,34,046,20,22,07,131,*79
$GPGSV,5,3,17,23,16,207,,24,52,208,23,25,26,342,,29,09,318,*7E
$GPGSV,5,4,17,36,52,277,,40,86,351,,41,58,082,,49,32,274,*7C
$GPGSV,5,5,17,50,10,089,*4A
$GLGSV,3,1,09,67,17,103,14,68,23,154,,69,07,201,,78,30,149,11*6A
$GLGSV,3,2,09,79,81,088,25,80,35,342,25,82,16,352,11,83,29,299,25*6D
$GLGSV,3,3,09,84,12,245,*50
$GNGLL,0419.84652,S,05539.80045,E,051953.00,A,A*63
$GNRMC,051954.00,A,0419.84656,S,05539.80054,E,0.203,,270525,,,A*7F
$GNVTG,,T,,M,0.203,N,0.376,K,A*3E
$GNGGA,051954.00,0419.84656,S,05539.80054,E,1,11,0.79,23.8,M,-47.6,M,,*4A
$GNGSA,A,3,05,24,12,20,18,15,,,,,,,1.58,0.79,1.37*14
$GNGSA,A,3,79,78,83,82,67,,,,,,,,1.58,0.79,1.37*1A
$GPGSV,5,1,17,05,63,083,10,11,07,026,,12,49,015,25,13,16,138,*70
$GPGSV,5,2,17,15,31,172,27,18,31,251,28,20,34,046,17,22,07,131,*7D
$GPGSV,5,3,17,23,16,207,,24,52,208,23,25,26,342,,29,09,318,*7E
$GPGSV,5,4,17,36,52,277,,40,86,351,,41,58,082,,49,32,274,*7C
$GPGSV,5,5,17,50,10,089,*4A
$GLGSV,3,1,09,67,17,103,11,68,23,154,,69,07,201,,78,30,149,09*66
$GLGSV,3,2,09,79,81,088,24,80,35,342,24,82,16,352,08,83,29,299,23*63
$GLGSV,3,3,09,84,12,245,*50
$GNGLL,0419.84656,S,05539.80054,E,051954.00,A,A*60
$GNRMC,051955.00,A,0419.84670,S,05539.80047,E,0.315,,270525,,,A*7E
$GNVTG,,T,,M,0.315,N,0.583,K,A*34
$GNGGA,051955.00,0419.84670,S,05539.80047,E,1,11,0.79,24.5,M,-47.6,M,,*47
$GNGSA,A,3,05,24,12,20,18,15,,,,,,,1.58,0.79,1.37*14
$GNGSA,A,3,79,78,83,82,67,,,,,,,,1.58,0.79,1.37*1A
$GPGSV,5,1,17,05,63,083,10,11,07,026,18,12,49,015,25,13,16,138,*79
$GPGSV,5,2,17,15,31,172,27,18,31,251,28,20,34,046,16,22,07,131,04*78
$GPGSV,5,3,17,23,16,207,,24,52,208,24,25,26,342,,29,09,318,*79
$GPGSV,5,4,17,36,52,277,,40,86,351,,41,58,082,,49,32,274,*7C
$GPGSV,5,5,17,50,10,089,*4A
$GLGSV,3,1,09,67,17,103,14,68,23,154,,69,07,201,,78,30,149,11*6A
$GLGSV,3,2,09,79,81,088,25,80,35,342,26,82,16,352,08,83,29,299,24*67
$GLGSV,3,3,09,84,12,245,*50
$GNGLL,0419.84670,S,05539.80047,E,051955.00,A,A*67
$GNRMC,051956.00,A,0419.84674,S,05539.80060,E,0.132,,270525,,,A*7B
$GNVTG,,T,,M,0.132,N,0.244,K,A*3F
$GNGGA,051956.00,0419.84674,S,05539.80060,E,1,11,0.79,24.5,M,-47.6,M,,*45
$GNGSA,A,3,05,24,12,20,18,15,,,,,,,1.58,0.79,1.37*14
$GNGSA,A,3,79,78,83,82,67,,,,,,,,1.58,0.79,1.37*1A
$GPGSV,5,1,17,05,63,083,14,11,07,026,15,12,49,015,22,13,16,138,13*75
$GPGSV,5,2,17,15,31,172,28,18,31,251,27,20,34,046,17,22,07,131,06*7B
$GPGSV,5,3,17,23,16,207,,24,52,208,25,25,26,342,,29,09,318,*78
$GPGSV,5,4,17,36,52,277,,40,86,351,,41,58,082,,49,32,274,*7C
$GPGSV,5,5,17,50,10,089,*4A
$GLGSV,3,1,09,67,17,103,15,68,23,154,,69,07,201,,78,30,149,12*68
$GLGSV,3,2,09,79,81,088,24,80,35,342,26,82,16,352,08,83,29,299,23*61
$GLGSV,3,3,09,84,12,245,*50
$GNGLL,0419.84674,S,05539.80060,E,051956.00,A,A*65
$GNRMC,051957.00,A,0419.84663,S,05539.80093,E,0.378,,270525,,,A*7C
$GNVTG,,T,,M,0.378,N,0.700,K,A*36
$GNGGA,051957.00,0419.84663,S,05539.80093,E,1,12,0.79,23.6,M,-47.6,M,,*49
$GNGSA,A,3,05,24,12,20,18,15,22,,,,,,1.58,0.79,1.37*14
$GNGSA,A,3,79,78,83,82,67,,,,,,,,1.58,0.79,1.37*1A
$GPGSV,5,1,17,05,63,083,20,11,07,026,13,12,49,015,22,13,16,138,13*74
$GPGSV,5,2,17,15,31,172,32,18,31,251,28,20,34,046,18,22,07,131,08*7E
$GPGSV,5,3,17,23,16,207,,24,52,208,27,25,26,342,,29,09,318,*7A
$GPGSV,5,4,17,36,52,277,,40,86,351,,41,58,082,,49,32,274,*7C
$GPGSV,5,5,17,50,10,089,*4A
$GLGSV,3,1,09,67,17,103,16,68,23,154,,69,07,201,,78,30,149,17*6E
$GLGSV,3,2,09,79,81,088,25,80,35,342,27,82,16,352,10,83,29,299,22*69
$GLGSV,3,3,09,84,12,245,*50
$GNGLL,0419.84663,S,05539.80093,E,051957.00,A,A*6E
$GNRMC,051958.00,A,0419.84684,S,05539.80119,E,1.284,,270525,,,A*7A
$GNVTG,,T,,M,1.284,N,2.377,K,A*33
$GNGGA,051958.00,0419.84684,S,05539.80119,E,1,11,0.82,22.0,M,-47.6,M,,*4C
$GNGSA,A,3,05,24,12,18,15,22,,,,,,,1.44,0.82,1.19*13
$GNGSA,A,3,79,78,83,82,67,,,,,,,,1.44,0.82,1.19*1F
$GPGSV,5,1,17,05,63,083,17,11,07,026,12,12,49,015,21,13,16,138,11*70
$GPGSV,5,2,17,15,31,172,27,18,31,251,26,20,34,046,,22,07,131,09*7C
$GPGSV,5,3,17,23,16,207,,24,52,208,25,25,26,342,16,29,09,318,*7F
$GPGSV,5,4,17,36,52,277,,40,86,351,,41,58,082,,49,32,274,*7C
$GPGSV,5,5,17,50,10,089,*4A
$GLGSV,3,1,09,67,17,103,14,68,23,154,,69,07,201,,78,30,149,10*6B
$GLGSV,3,2,09,79,81,088,24,80,35,342,25,82,16,352,11,83,29,299,20*69
$GLGSV,3,3,09,84,12,245,*50
$GNGLL,0419.84684,S,05539.80119,E,051958.00,A,A*6B
$GNRMC,051959.00,A,0419.84688,S,05539.80111,E,0.044,,270525,,,A*70
$GNVTG,,T,,M,0.044,N,0.082,K,A*37
$GNGGA,051959.00,0419.84688,S,05539.80111,E,1,10,0.85,22.8,M,-47.6,M,,*47
$GNGSA,A,3,05,24,12,18,15,,,,,,,,1.61,0.85,1.37*1F
$GNGSA,A,3,79,78,83,82,67,,,,,,,,1.61,0.85,1.37*13
$GPGSV,5,1,17,05,63,083,19,11,07,026,10,12,49,015,30,13,16,138,08*74
$GPGSV,5,2,17,15,31,172,32,18,31,251,26,20,34,046,17,22,07,131,07*70
$GPGSV,5,3,17,23,16,207,,24,52,208,23,25,26,342,15,29,09,318,*7A
$GPGSV,5,4,17,36,52,277,,40,86,351,,41,58,082,,49,32,274,*7C
$GPGSV,5,5,17,50,10,089,*4A
$GLGSV,3,1,09,67,17,103,12,68,23,154,,69,07,201,,78,30,149,14*69
$GLGSV,3,2,09,79,81,088,24,80,35,342,25,82,16,352,10,83,29,299,21*69
$GLGSV,3,3,09,84,12,245,*50
$GNGLL,0419.84688,S,05539.80111,E,051959.00,A,A*6E
$GNRMC,052000.00,A,0419.84703,S,05539.80099,E,0.276,,270525,,,A*76
$GNVTG,,T,,M,0.276,N,0.510,K,A*3A
$GNGGA,052000.00,0419.84703,S,05539.80099,E,1,10,0.84,23.9,M,-47.6,M,,*43
$GNGSA,A,3,24,12,18,15,11,,,,,,,,1.63,0.84,1.40*19
$GNGSA,A,3,79,78,83,82,67,,,,,,,,1.63,0.84,1.40*10
$GPGSV,5,1,17,05,63,083,24,11,07,026,11,12,49,015,28,13,16,138,07*7D
$GPGSV,5,2,17,15,31,172,31,18,31,251,25,20,34,046,17,22,07,131,07*70
$GPGSV,5,3,17,23,16,207,,24,52,208,23,25,26,342,15,29,09,318,*7A
$GPGSV,5,4,17,36,52,277,,40,86,351,,41,58,082,,49,32,274,*7C
$GPGSV,5,5,17,50,10,089,*4A
$GLGSV,3,1,09,67,17,103,14,68,23,154,,69,07,201,,78,30,149,10*6B
$GLGSV,3,2,09,79,81,088,25,80,35,342,25,82,16,352,10,83,29,299,22*6B
$GLGSV,3,3,09,84,12,245,*50
$GNGLL,0419.84703,S,05539.80099,E,052000.00,A,A*6B
$GNRMC,052001.00,A,0419.84710,S,05539.80088,E,0.088,,270525,,,A*76
$GNVTG,,T,,M,0.088,N,0.162,K,A*38
$GNGGA,052001.00,0419.84710,S,05539.80088,E,1,10,0.84,25.2,M,-47.6,M,,*4D
$GNGSA,A,3,24,12,18,15,11,,,,,,,,1.63,0.84,1.40*19
$GNGSA,A,3,79,78,83,82,67,,,,,,,,1.63,0.84,1.40*10
$GPGSV,5,1,17,05,63,083,23,11,07,026,12,12,49,015,28,13,16,138,06*78
$GPGSV,5,2,17,15,31,172,32,18,31,251,26,20,34,046,18,22,07,131,06*7E
$GPGSV,5,3,17,23,16,207,,24,52,208,23,25,26,342,14,29,09,318,*7B
$GPGSV,5,4,17,36,52,277,,40,86,351,,41,58,082,,49,32,274,*7C
$GPGSV,5,5,17,50,10,089,*4A
$GLGSV,3,1,09,67,17,103,15,68,23,154,,69,07,201,,78,30,149,12*68
$GLGSV,3,2,09,79,81,088,24,80,35,342,26,82,16,352,11,83,29,299,23*69
$GLGSV,3,3,09,84,12,245,*50
$GNGLL,0419.84710,S,05539.80088,E,052001.00,A,A*68
$GNRMC,052002.00,A,0419.84708,S,05539.80097,E,0.048,,270525,,,A*7E
$GNVTG,,T,,M,0.048,N,0.089,K,A*30
$GNGGA,052002.00,0419.84708,S,05539.80097,E,1,12,0.73,24.7,M,-47.6,M,,*47
$GNGSA,A,3,24,12,20,18,15,13,11,22,,,,,1.40,0.73,1.20*16
$GNGSA,A,3,79,78,83,82,67,,,,,,,,1.40,0.73,1.20*1F
$GPGSV,5,1,17,05,63,083,22,11,07,026,11,12,49,015,26,13,16,138,10*73
$GPGSV,5,2,17,15,31,172,28,18,31,251,26,20,34,046,17,22,07,131,10*7D
$GPGSV,5,3,17,23,16,207,,24,52,208,23,25,26,342,14,29,09,318,*7B
$GPGSV,5,4,17,36,52,277,,40,86,351,,41,58,082,,49,32,274,*7C
$GPGSV,5,5,17,50,10,089,*4A
$GLGSV,3,1,09,67,17,103,16,68,23,154,,69,07,201,,78,30,149,12*6B
$GLGSV,3,2,09,79,81,088,24,80,35,342,27,82,16,352,11,83,29,299,23*68
$GLGSV,3,3,09,84,12,245,*50
$GNGLL,0419.84708,S,05539.80097,E,052002.00,A,A*6C
$GNRMC,052003.00,A,0419.84701,S,05539.80106,E,0.149,,270525,,,A*7F
$GNVTG,,T,,M,0.149,N,0.276,K,A*32
$GNGGA,052003.00,0419.84701,S,05539.80106,E,1,12,0.75,24.7,M,-47.6,M,,*40
$GNGSA,A,3,05,24,12,20,18,15,13,22,,,,,1.37,0.75,1.15*13
$GNGSA,A,3,79,78,83,82,67,,,,,,,,1.37,0.75,1.15*1F
$GPGSV,5,1,17,05,63,083,23,11,07,026,10,12,49,015,28,13,16,138,09*75
$GPGSV,5,2,17,15,31,172,28,18,31,251,27,20,34,046,15,22,07,131,09*76
$GPGSV,5,3,17,23,16,207,,24,52,208,23,25,26,342,14,29,09,318,*7B
$GPGSV,5,4,17,36,52,277,,40,86,351,,41,58,082,,49,32,274,*7C
$GPGSV,5,5,17,50,10,089,*4A
$GLGSV,3,1,09,67,17,103,15,68,23,154,,69,07,201,,78,30,149,13*69
$GLGSV,3,2,09,79,81,088,24,80,35,342,27,82,16,352,15,83,29,299,21*6E
$GLGSV,3,3,09,84,12,245,*50
$GNGLL,0419.84701,S,05539.80106,E,052003.00,A,A*6D
$GNRMC,052004.00,A,0419.84694,S,05539.80110,E,0.127,,270525,,,A*7A
$GNVTG,,T,,M,0.127,N,0.236,K,A*3E
$GNGGA,052004.00,0419.84694,S,05539.80110,E,1,12,0.75,24.4,M,-47.6,M,,*4E
$GNGSA,A,3,05,24,12,20,18,15,13,22,,,,,1.37,0.75,1.15*13
$GNGSA,A,3,79,78,83,82,67,,,,,,,,1.37,0.75,1.15*1F
$GPGSV,5,1,17,05,63,083,23,11,07,026,08,12,49,015,27,13,16,138,10*7B
$GPGSV,5,2,17,15,31,172,28,18,31,251,26,20,34,046,14,22,07,131,12*7C
$GPGSV,5,3,17,23,16,207,,24,52,208,25,25,26,342,14,29,09,318,*7D
$GPGSV,5,4,17,36,52,277,,40,86,351,,41,58,082,,49,32,274,*7C
$GPGSV,5,5,17,50,10,089,*4A
$GLGSV,3,1,09,67,17,103,15,68,23,154,,69,07,201,,78,30,149,13*69
$GLGSV,3,2,09,79,81,088,25,80,35,342,26,82,16,352,15,83,29,299,20*6F
$GLGSV,3,3,09,84,12,245,*50
$GNGLL,0419.84694,S,05539.80110,E,052004.00,A,A*60
$GNRMC,052005.00,A,0419.84662,S,05539.80128,E,0.668,,270525,,,A*75
$GNVTG,,T,,M,0.668,N,1.237,K,A*32
$GNGGA,052005.00,0419.84662,S,05539.80128,E,1,12,0.76,23.0,M,-47.6,M,,*4D
$GNGSA,A,3,05,24,12,20,18,15,13,22,,,,,1.48,0.76,1.27*19
$GNGSA,A,3,79,78,83,82,67,,,,,,,,1.48,0.76,1.27*15
$GPGSV,5,1,17,05,63,083,22,11,07,026,08,12,49,015,27,13,16,138,17*7D
$GPGSV,5,2,17,15,31,172,29,18,31,251,26,20,34,046,14,22,07,131,09*77
$GPGSV,5,3,17,23,16,207,,24,52,208,26,25,26,342,14,29,09,318,*7E
$GPGSV,5,4,17,36,52,277,,40,86,351,,41,58,082,,49,32,274,*7C
$GPGSV,5,5,17,50,10,089,*4A
$GLGSV,3,1,09,67,17,103,16,68,23,154,,69,07,201,,78,30,149,13*6A
$GLGSV,3,2,09,79,81,088,26,80,35,342,26,82,16,352,15,83,29,299,19*66
$GLGSV,3,3,09,84,12,245,*50
$GNGLL,0419.84662,S,05539.80128,E,052005.00,A,A*63
$GNRMC,052006.00,A,0419.84637,S,05539.80143,E,0.291,,270525,,,A*79
$GNVTG,,T,,M,0.291,N,0.540,K,A*36
$GNGGA,052006.00,0419.84637,S,05539.80143,E,1,12,0.75,22.1,M,-47.6,M,,*40
$GNGSA,A,3,05,24,12,20,18,15,13,22,,,,,1.37,0.75,1.15*13
$GNGSA,A,3,79,78,83,82,67,,,,,,,,1.37,0.75,1.15*1F
$GPGSV,5,1,17,05,63,083,24,11,07,026,,12,49,015,25,13,16,138,10*76
$GPGSV,5,2,17,15,31,172,29,18,31,251,27,20,34,046,18,22,07,131,10*72
$GPGSV,5,3,17,23,16,207,,24,52,208,29,25,26,342,13,29,09,318,*76
$GPGSV,5,4,17,36,52,277,,40,86,351,,41,58,082,,49,32,274,*7C
$GPGSV,5,5,17,50,10,089,*4A
$GLGSV,3,1,09,67,17,103,15,68,23,154,,69,07,201,,78,30,149,13*69
$GLGSV,3,2,09,79,81,088,26,80,35,342,25,82,16,352,15,83,29,299,19*65
$GLGSV,3,3,09,84,12,245,*50
$GNGLL,0419.84637,S,05539.80143,E,052006.00,A,A*6D
$GNRMC,052007.00,A,0419.84616,S,05539.80151,E,0.246,,270525,,,A*72
$GNVTG,,T,,M,0.246,N,0.456,K,A*3A
$GNGGA,052007.00,0419.84616,S,05539.80151,E,1,12,0.81,20.7,M,-47.6,M,,*4E
$GNGSA,A,3,05,24,12,20,18,15,13,22,,,,,1.57,0.81,1.35*1C
$GNGSA,A,3,79,78,83,82,,,,,,,,,1.57,0.81,1.35*11
$GPGSV,5,1,17,05,63,083,25,11,07,026,,12,49,015,25,13,16,138,10*77
$GPGSV,5,2,17,15,31,172,28,18,31,251,27,20,34,046,18,22,07,131,11*72
$GPGSV,5,3,17,23,16,207,,24,52,208,31,25,26,342,11,29,09,318,*7D
$GPGSV,5,4,17,36,52,277,,40,86,351,,41,58,082,,49,32,274,*7C
$GPGSV,5,5,17,50,10,089,*4A
$GLGSV,3,1,09,67,17,103,,68,23,154,,69,07,201,,78,30,149,12*6C
$GLGSV,3,2,09,79,81,088,27,80,35,342,25,82,16,352,17,83,29,299,20*6C
$GLGSV,3,3,09,84,12,245,*50
$GNGLL,0419.84616,S,05539.80151,E,052007.00,A,A*6C
$GNRMC,052008.00,A,0419.84600,S,05539.80160,E,0.128,,270525,,,A*73
$GNVTG,,T,,M,0.128,N,0.236,K,A*31
$GNGGA,052008.00,0419.84600,S,05539.80160,E,1,12,0.81,19.7,M,-47.6,M,,*4E
$GNGSA,A,3,05,24,12,20,18,15,13,22,,,,,1.57,0.81,1.35*1C
$GNGSA,A,3,79,78,83,82,,,,,,,,,1.57,0.81,1.35*11
$GPGSV,5,1,17,05,63,083,23,11,07,026,15,12,49,015,25,13,16,138,15*70
$GPGSV,5,2,17,15,31,172,30,18,31,251,27,20,34,046,17,22,07,131,11*74
$GPGSV,5,3,17,23,16,207,,24,52,208,30,25,26,342,11,29,09,318,*7C
$GPGSV,5,4,17,36,52,277,,40,86,351,,41,58,082,,49,32,274,*7C
$GPGSV,5,5,17,50,10,089,*4A
$GLGSV,3,1,09,67,17,103,,68,23,154,,69,07,201,,78,30,149,12*6C
$GLGSV,3,2,09,79,81,088,27,80,35,342,25,82,16,352,17,83,29,299,18*67
$GLGSV,3,3,09,84,12,245,*50
$GNGLL,0419.84600,S,05539.80160,E,052008.00,A,A*66
$GNRMC,052009.00,A,0419.84578,S,05539.80166,E,0.153,,270525,,,A*74
$GNVTG,,T,,M,0.153,N,0.283,K,A*33
$GNGGA,052009.00,0419.84578,S,05539.80166,E,1,12,0.81,18.7,M,-47.6,M,,*44
$GNGSA,A,3,05,24,12,20,18,15,13,22,,,,,1.57,0.81,1.35*1C
$GNGSA,A,3,79,78,83,82,,,,,,,,,1.57,0.81,1.35*11
$GPGSV,5,1,17,05,63,083,25,11,07,026,14,12,49,015,27,13,16,138,13*73
$GPGSV,5,2,17,15,31,172,30,18,31,251,26,20,34,046,18,22,07,131,12*79
$GPGSV,5,3,17,23,16,207,,24,52,208,30,25,26,342,11,29,09,318,*7C
$GPGSV,5,4,17,36,52,277,,40,86,351,,41,58,082,,49,32,274,*7C
$GPGSV,5,5,17,50,10,089,*4A
$GLGSV,3,1,09,67,17,103,,68,23,154,,69,07,201,,78,30,149,13*6D
$GLGSV,3,2,09,79,81,088,26,80,35,342,26,82,16,352,12,83,29,299,17*6F
$GLGSV,3,3,09,84,12,245,*50
$GNGLL,0419.84578,S,05539.80166,E,052009.00,A,A*6D
$GNRMC,052010.00,A,0419.84568,S,05539.80162,E,0.136,,270525,,,A*7A
$GNVTG,,T,,M,0.136,N,0.251,K,A*3F
$GNGGA,052010.00,0419.84568,S,05539.80162,E,1,12,0.80,18.0,M,-47.6,M,,*4F
$GNGSA,A,3,05,24,12,20,18,15,13,22,,,,,1.47,0.80,1.23*1B
$GNGSA,A,3,79,78,83,82,,,,,,,,,1.47,0.80,1.23*16
$GPGSV,5,1,17,05,63,083,25,11,07,026,13,12,49,015,27,13,16,138,12*75
$GPGSV,5,2,17,15,31,172,29,18,31,251,28,20,34,046,18,22,07,131,12*7F
$GPGSV,5,3,17,23,16,207,,24,52,208,29,25,26,342,13,29,09,318,*76
$GPGSV,5,4,17,36,52,277,,40,86,351,,41,58,082,,49,32,274,*7C
$GPGSV,5,5,17,50,10,089,*4A
$GLGSV,3,1,09,67,17,103,07,68,23,154,,69,07,201,,78,30,149,13*6A
$GLGSV,3,2,09,79,81,088,26,80,35,342,25,82,16,352,12,83,29,299,17*6C
$GLGSV,3,3,09,84,12,245,*50
$GNGLL,0419.84568,S,05539.80162,E,052010.00,A,A*60
$GNRMC,052011.00,A,0419.84556,S,05539.80162,E,0.071,,270525,,,A*74
$GNVTG,,T,,M,0.071,N,0.131,K,A*38
$GNGGA,052011.00,0419.84556,S,05539.80162,E,1,12,0.78,17.4,M,-47.6,M,,*4F
$GNGSA,A,3,05,24,12,20,18,15,13,22,,,,,1.41,0.78,1.18*12
$GNGSA,A,3,79,78,83,82,,,,,,,,,1.41,0.78,1.18*1F
$GPGSV,5,1,17,05,63,083,25,11,07,026,12,12,49,015,27,13,16,138,11*77
$GPGSV,5,2,17,15,31,172,30,18,31,251,28,20,34,046,18,22,07,131,12*77
$GPGSV,5,3,17,23,16,207,,24,52,208,29,25,26,342,14,29,09,318,*71
$GPGSV,5,4,17,36,52,277,,40,86,351,,41,58,082,,49,32,274,*7C
$GPGSV,5,5,17,50,10,089,*4A
$GLGSV,3,1,09,67,17,103,,68,23,154,,69,07,201,,78,30,149,13*6D
$GLGSV,3,2,09,79,81,088,26,80,35,342,24,82,16,352,12,83,29,299,18*62
$GLGSV,3,3,09,84,12,245,*50
$GNGLL,0419.84556,S,05539.80162,E,052011.00,A,A*6C
$GNRMC,052012.00,A,0419.84541,S,05539.80163,E,0.133,,270525,,,A*77
$GNVTG,,T,,M,0.133,N,0.246,K,A*3C
$GNGGA,052012.00,0419.84541,S,05539.80163,E,1,12,0.78,16.8,M,-47.6,M,,*46
$GNGSA,A,3,05,24,12,20,18,15,13,22,,,,,1.41,0.78,1.18*12
$GNGSA,A,3,79,78,83,82,,,,,,,,,1.41,0.78,1.18*1F
$GPGSV,5,1,17,05,63,083,26,11,07,026,12,12,49,015,26,13,16,138,10*74
$GPGSV,5,2,17,15,31,172,31,18,31,251,28,20,34,046,18,22,07,131,09*7C
$GPGSV,5,3,17,23,16,207,,24,52,208,28,25,26,342,13,29,09,318,*77
$GPGSV,5,4,17,36,52,277,,40,86,351,,41,58,082,,49,32,274,*7C
$GPGSV,5,5,17,50,10,089,*4A
$GLGSV,3,1,09,67,17,103,,68,23,154,,69,07,201,,78,30,149,15*6B
$GLGSV,3,2,09,79,81,088,27,80,35,342,25,82,16,352,14,83,29,299,17*6B
$GLGSV,3,3,09,84,12,245,*50
$GNGLL,0419.84541,S,05539.80163,E,052012.00,A,A*68
$GNRMC,052013.00,A,0419.84529,S,05539.80169,E,0.088,,270525,,,A*73
$GNVTG,,T,,M,0.088,N,0.163,K,A*39
$GNGGA,052013.00,0419.84529,S,05539.80169,E,1,11,0.80,15.5,M,-47.6,M,,*49
$GNGSA,A,3,05,24,12,20,18,15,22,,,,,,1.47,0.80,1.23*19
$GNGSA,A,3,79,78,83,82,,,,,,,,,1.47,0.80,1.23*16
$GPGSV,5,1,17,05,63,083,27,11,07,026,09,12,49,015,28,13,16,138,11*70
$GPGSV,5,2,17,15,31,172,31,18,31,251,28,20,34,046,19,22,07,131,09*7D
$GPGSV,5,3,17,23,16,207,,24,52,208,27,25,26,342,12,29,09,318,*79
$GPGSV,5,4,17,36,52,277,,40,86,351,,41,58,082,,49,32,274,*7C
$GPGSV,5,5,17,50,10,089,*4A
$GLGSV,3,1,09,67,17,103,,68,23,154,,69,07,201,,78,30,149,17*69
$GLGSV,3,2,09,79,81,088,28,80,35,342,25,82,16,352,10,83,29,299,15*62
$GLGSV,3,3,09,84,12,245,*50
$GNGLL,0419.84529,S,05539.80169,E,052013.00,A,A*6D
$GNRMC,052014.00,A,0419.84514,S,05539.80153,E,0.090,,270525,,,A*7A
$GNVTG,,T,,M,0.090,N,0.167,K,A*34
$GNGGA,052014.00,0419.84514,S,05539.80153,E,1,11,0.80,15.5,M,-47.6,M,,*49
$GNGSA,A,3,05,24,12,20,18,15,22,,,,,,1.47,0.80,1.23*19
$GNGSA,A,3,79,78,83,82,,,,,,,,,1.47,0.80,1.23*16
$GPGSV,5,1,17,05,63,083,28,11,07,026,08,12,49,015,28,13,16,138,11*7E
$GPGSV,5,2,17,15,31,172,32,18,31,251,28,20,34,046,19,22,07,131,09*7E
$GPGSV,5,3,17,23,16,207,,24,52,208,26,25,26,342,15,29,09,318,*7F
$GPGSV,5,4,17,36,52,277,,40,86,351,,41,58,082,,49,32,274,*7C
$GPGSV,5,5,17,50,10,089,*4A
$GLGSV,3,1,09,67,17,103,,68,23,154,,69,07,201,,78,30,149,17*69
$GLGSV,3,2,09,79,81,088,27,80,35,342,24,82,16,352,10,83,29,299,14*6D
$GLGSV,3,3,09,84,12,245,*50
$GNGLL,0419.84514,S,05539.80153,E,052014.00,A,A*6D
$GNRMC,052015.00,A,0419.84505,S,05539.80148,E,0.071,,270525,,,A*7E
$GNVTG,,T,,M,0.071,N,0.131,K,A*38
$GNGGA,052015.00,0419.84505,S,05539.80148,E,1,11,0.80,15.1,M,-47.6,M,,*46
$GNGSA,A,3,05,24,12,20,18,15,22,,,,,,1.47,0.80,1.23*19
$GNGSA,A,3,79,78,83,82,,,,,,,,,1.47,0.80,1.23*16
$GPGSV,5,1,17,05,63,083,26,11,07,026,09,12,49,015,28,13,16,138,11*71
$GPGSV,5,2,17,15,31,172,31,18,31,251,28,20,34,046,18,22,07,131,09*7C
$GPGSV,5,3,17,23,16,207,,24,52,208,26,25,26,342,15,29,09,318,*7F
$GPGSV,5,4,17,36,52,277,,40,86,351,,41,58,082,,49,32,274,*7C
$GPGSV,5,5,17,50,10,089,*4A
$GLGSV,3,1,09,67,17,103,20,68,23,154,,69,07,201,,78,30,149,16*6A
$GLGSV,3,2,09,79,81,088,27,80,35,342,24,82,16,352,11,83,29,299,17*6F
$GLGSV,3,3,09,84,12,245,*50
$GNGLL,0419.84505,S,05539.80148,E,052015.00,A,A*66
$GNRMC,052016.00,A,0419.84497,S,05539.80144,E,0.078,,270525,,,A*72
$GNVTG,,T,,M,0.078,N,0.144,K,A*33
$GNGGA,052016.00,0419.84497,S,05539.80144,E,1,09,0.93,14.7,M,-47.6,M,,*4F
$GNGSA,A,3,05,24,12,20,18,15,13,,,,,,1.88,0.93,1.63*1E
$GNGSA,A,3,79,83,,,,,,,,,,,1.88,0.93,1.63*16
$GPGSV,5,1,17,05,63,083,24,11,07,026,09,12,49,015,28,13,16,138,11*73
$GPGSV,5,2,17,15,31,172,31,18,31,251,26,20,34,046,18,22,07,131,09*72
$GPGSV,5,3,17,23,16,207,,24,52,208,27,25,26,342,14,29,09,318,*7F
$GPGSV,5,4,17,36,52,277,,40,86,351,,41,58,082,,49,32,274,*7C
$GPGSV,5,5,17,50,10,089,*4A
$GLGSV,3,1,09,67,17,103,20,68,23,154,,69,07,201,,78,30,149,*6D
$GLGSV,3,2,09,79,81,088,27,80,35,342,24,82,16,352,,83,29,299,19*61
$GLGSV,3,3,09,84,12,245,*50
$GNGLL,0419.84497,S,05539.80144,E,052016.00,A,A*63
$GNRMC,052017.00,A,0419.84498,S,05539.80139,E,0.044,,270525,,,A*79
$GNVTG,,T,,M,0.044,N,0.082,K,A*37
$GNGGA,052017.00,0419.84498,S,05539.80139,E,1,09,1.10,14.5,M,-47.6,M,,*43
$GNGSA,A,3,05,24,12,20,18,15,13,,,,,,2.08,1.10,1.77*1A
$GNGSA,A,3,79,83,,,,,,,,,,,2.08,1.10,1.77*12
$GPGSV,5,1,17,05,63,083,25,11,07,026,07,12,49,015,26,13,16,138,11*72
$GPGSV,5,2,17,15,31,172,31,18,31,251,26,20,34,046,18,22,07,131,09*72
$GPGSV,5,3,17,23,16,207,,24,52,208,27,25,26,342,15,29,09,318,*7E
$GPGSV,5,4,17,36,52,277,,40,86,351,,41,58,082,,49,32,274,*7C
$GPGSV,5,5,17,50,10,089,*4A
$GLGSV,3,1,09,67,17,103,18,68,23,154,,69,07,201,,78,30,149,*66
$GLGSV,3,2,09,79,81,088,27,80,35,342,23,82,16,352,,83,29,299,19*66
$GLGSV,3,3,09,84,12,245,*50
$GNGLL,0419.84498,S,05539.80139,E,052017.00,A,A*67
$GNRMC,052018.00,A,0419.84503,S,05539.80141,E,0.362,,270525,,,A*7D
$GNVTG,,T,,M,0.362,N,0.670,K,A*3B
$GNGGA,052018.00,0419.84503,S,05539.80141,E,1,09,0.93,14.2,M,-47.6,M,,*4D
$GNGSA,A,3,05,24,12,20,18,15,13,,,,,,1.88,0.93,1.63*1E
$GNGSA,A,3,79,83,,,,,,,,,,,1.88,0.93,1.63*16
$GPGSV,5,1,17,05,63,083,27,11,07,026,05,12,49,015,31,13,16,138,11*74
$GPGSV,5,2,17,15,31,172,30,18,31,251,26,20,34,046,18,22,07,131,09*73
$GPGSV,5,3,17,23,16,207,,24,52,208,27,25,26,342,16,29,09,318,*7D
$GPGSV,5,4,17,36,52,277,,40,86,351,,41,58,082,,49,32,274,*7C
$GPGSV,5,5,17,50,10,089,*4A
$GLGSV,3,1,09,67,17,103,17,68,23,154,,69,07,201,,78,30,149,*69
$GLGSV,3,2,09,79,81,088,26,80,35,342,22,82,16,352,,83,29,299,17*68
$GLGSV,3,3,09,84,12,245,*50
$GNGLL,0419.84503,S,05539.80141,E,052018.00,A,A*64
$GNRMC,052019.00,A,0419.84498,S,05539.80142,E,0.297,,270525,,,A*77
$GNVTG,,T,,M,0.297,N,0.549,K,A*39
$GNGGA,052019.00,0419.84498,S,05539.80142,E,1,10,0.88,13.8,M,-47.6,M,,*43
$GNGSA,A,3,05,24,12,20,18,15,13,,,,,,1.71,0.88,1.47*14
$GNGSA,A,3,79,83,67,,,,,,,,,,1.71,0.88,1.47*1D
$GPGSV,5,1,17,05,63,083,27,11,07,026,05,12,49,015,30,13,16,138,11*75
$GPGSV,5,2,17,15,31,172,29,18,31,251,27,20,34,046,17,22,07,131,09*75
$GPGSV,5,3,17,23,16,207,,24,52,208,26,25,26,342,14,29,09,318,*7E
$GPGSV,5,4,17,36,52,277,,40,86,351,,41,58,082,,49,32,274,*7C
$GPGSV,5,5,17,50,10,089,*4A
$GLGSV,3,1,09,67,17,103,17,68,23,154,,69,07,201,,78,30,149,*69
$GLGSV,3,2,09,79,81,088,26,80,35,342,23,82,16,352,,83,29,299,16*68
$GLGSV,3,3,09,84,12,245,*50
$GNGLL,0419.84498,S,05539.80142,E,052019.00,A,A*65
$GNRMC,052020.00,A,0419.84496,S,05539.80138,E,0.054,,270525,,,A*73
$GNVTG,,T,,M,0.054,N,0.100,K,A*3D
$GNGGA,052020.00,0419.84496,S,05539.80138,E,1,10,0.88,13.8,M,-47.6,M,,*4A
$GNGSA,A,3,05,24,12,20,18,15,13,,,,,,1.71,0.88,1.47*14
$GNGSA,A,3,79,83,67,,,,,,,,,,1.71,0.88,1.47*1D
$GPGSV,5,1,17,05,63,083,27,11,07,026,05,12,49,015,30,13,16,138,11*75
$GPGSV,5,2,17,15,31,172,29,18,31,251,26,20,34,046,16,22,07,131,09*75
$GPGSV,5,3,17,23,16,207,,24,52,208,25,25,26,342,14,29,09,318,*7D
$GPGSV,5,4,17,36,52,277,,40,86,351,,41,58,082,,49,32,274,*7C
$GPGSV,5,5,17,50,10,089,*4A
$GLGSV,3,1,09,67,17,103,17,68,23,154,,69,07,201,,78,30,149,*69
$GLGSV,3,2,09,79,81,088,27,80,35,342,24,82,16,352,,83,29,299,16*6E
$GLGSV,3,3,09,84,12,245,*50
$GNGLL,0419.84496,S,05539.80138,E,052020.00,A,A*6C
$GNRMC,052021.00,A,0419.84499,S,05539.80135,E,0.028,,270525,,,A*7B
$GNVTG,,T,,M,0.028,N,0.052,K,A*30
$GNGGA,052021.00,0419.84499,S,05539.80135,E,1,10,0.88,13.6,M,-47.6,M,,*47
$GNGSA,A,3,05,24,12,20,18,15,13,,,,,,1.71,0.88,1.47*14
$GNGSA,A,3,79,83,67,,,,,,,,,,1.71,0.88,1.47*1D
$GPGSV,5,1,17,05,63,083,27,11,07,026,04,12,49,015,30,13,16,138,11*74
$GPGSV,5,2,17,15,31,172,29,18,31,251,27,20,34,046,16,22,07,131,09*74
$GPGSV,5,3,17,23,16,207,,24,52,208,27,25,26,342,15,29,09,318,*7E
$GPGSV,5,4,17,36,52,277,,40,86,351,,41,58,082,,49,32,274,*7C
$GPGSV,5,5,17,50,10,089,*4A
$GLGSV,3,1,09,67,17,102,18,68,23,154,,69,07,201,,78,30,149,*67
$GLGSV,3,2,09,79,81,088,28,80,35,342,24,82,16,352,,83,29,299,15*62
$GLGSV,3,3,09,84,12,245,*50
$GNGLL,0419.84499,S,05539.80135,E,052021.00,A,A*6F
$GNRMC,052022.00,A,0419.84510,S,05539.80130,E,0.095,,270525,,,A*7B
$GNVTG,,T,,M,0.095,N,0.176,K,A*31
$GNGGA,052022.00,0419.84510,S,05539.80130,E,1,10,0.88,13.7,M,-47.6,M,,*40
$GNGSA,A,3,05,24,12,20,18,15,13,,,,,,1.71,0.88,1.47*14
$GNGSA,A,3,79,83,67,,,,,,,,,,1.71,0.88,1.47*1D
$GPGSV,5,1,17,05,63,083,26,11,07,026,04,12,49,015,29,13,16,138,11*7D
$GPGSV,5,2,17,15,31,172,29,18,31,251,27,20,34,046,16,22,07,131,09*74
$GPGSV,5,3,17,23,16,207,,24,52,208,28,25,26,342,15,29,09,318,*71
$GPGSV,5,4,17,36,52,277,,40,86,351,,41,58,082,,49,32,274,*7C
$GPGSV,5,5,17,50,10,089,*4A
$GLGSV,3,1,09,67,17,102,19,68,23,154,,69,07,201,,78,30,149,*66
$GLGSV,3,2,09,79,81,088,28,80,35,342,25,82,16,352,,83,29,299,13*65
$GLGSV,3,3,09,84,12,245,*50
$GNGLL,0419.84510,S,05539.80130,E,052022.00,A,A*69
$GNRMC,052023.00,A,0419.84521,S,05539.80127,E,0.108,,270525,,,A*7B
$GNVTG,,T,,M,0.108,N,0.200,K,A*36
$GNGGA,052023.00,0419.84521,S,05539.80127,E,1,10,0.88,13.9,M,-47.6,M,,*4B
$GNGSA,A,3,05,24,12,20,18,15,13,,,,,,1.71,0.88,1.47*14
$GNGSA,A,3,79,83,67,,,,,,,,,,1.71,0.88,1.47*1D
$GPGSV,5,1,17,05,63,083,26,11,07,026,04,12,49,015,26,13,16,138,11*72
$GPGSV,5,2,17,15,31,172,29,18,31,251,28,20,34,046,18,22,07,131,09*75
$GPGSV,5,3,17,23,16,207,,24,52,208,28,25,26,342,15,29,09,318,*71
$GPGSV,5,4,17,36,52,277,,40,86,351,,41,58,082,,49,32,274,*7C
$GPGSV,5,5,17,50,10,089,*4A
$GLGSV,3,1,09,67,17,102,19,68,23,154,,69,08,200,,78,30,149,*68
$GLGSV,3,2,09,79,81,088,27,80,35,342,25,82,16,352,,83,29,299,10*69
$GLGSV,3,3,09,84,12,245,*50
$GNGLL,0419.84521,S,05539.80127,E,052023.00,A,A*6C
$GNRMC,052024.00,A,0419.84521,S,05539.80135,E,0.294,,270525,,,A*79
$GNVTG,,T,,M,0.294,N,0.545,K,A*36
$GNGGA,052024.00,0419.84521,S,05539.80135,E,1,10,0.88,13.6,M,-47.6,M,,*40
$GNGSA,A,3,05,24,12,20,18,15,13,,,,,,1.71,0.88,1.47*14
$GNGSA,A,3,79,83,67,,,,,,,,,,1.71,0.88,1.47*1D
$GPGSV,5,1,17,05,63,083,27,11,07,026,04,12,49,015,25,13,16,138,11*70
$GPGSV,5,2,17,15,31,172,30,18,31,251,27,20,34,046,18,22,07,131,09*72
$GPGSV,5,3,17,23,16,207,,24,52,208,28,25,26,342,14,29,09,318,*70
$GPGSV,5,4,17,36,52,277,,40,86,351,,41,58,082,,49,32,274,*7C
$GPGSV,5,5,17,50,10,089,*4A
$GLGSV,3,1,09,67,17,102,18,68,23,154,,69,08,200,,78,30,149,19*61
$GLGSV,3,2,09,79,81,088,27,80,35,342,25,82,16,352,,83,29,299,14*6D
$GLGSV,3,3,09,84,12,245,*50
$GNGLL,0419.84521,S,05539.80135,E,052024.00,A,A*68
$GNRMC,052025.00,A,0419.84525,S,05539.80133,E,0.078,,270525,,,A*7A
$GNVTG,,T,,M,0.078,N,0.145,K,A*32
$GNGGA,052025.00,0419.84525,S,05539.80133,E,1,10,0.88,14.1,M,-47.6,M,,*43
$GNGSA,A,3,05,24,12,20,18,15,13,,,,,,1.71,0.88,1.47*14
$GNGSA,A,3,79,83,67,,,,,,,,,,1.71,0.88,1.47*1D
$GPGSV,5,1,17,05,63,083,26,11,07,026,04,12,49,015,26,13,16,138,11*72
$GPGSV,5,2,17,15,31,172,31,18,31,251,27,20,34,046,19,22,07,131,09*72
$GPGSV,5,3,17,23,16,207,,24,52,208,28,25,26,342,12,29,09,318,*76
$GPGSV,5,4,17,36,52,277,,40,86,351,,41,58,082,,49,32,274,*7C
$GPGSV,5,5,17,50,10,089,*4A
$GLGSV,3,1,09,67,17,102,16,68,23,154,,69,08,200,,78,30,149,17*61
$GLGSV,3,2,09,79,81,088,26,80,35,342,26,82,16,352,,83,29,299,18*63
$GLGSV,3,3,09,84,12,245,*50
$GNGLL,0419.84525,S,05539.80133,E,052025.00,A,A*6B
$GNRMC,052026.00,A,0419.84528,S,05539.80136,E,0.210,,270525,,,A*7D
$GNVTG,,T,,M,0.210,N,0.389,K,A*3C
$GNGGA,052026.00,0419.84528,S,05539.80136,E,1,10,0.88,14.1,M,-47.6,M,,*48
$GNGSA,A,3,05,24,12,20,18,15,13,,,,,,1.71,0.88,1.47*14
$GNGSA,A,3,79,83,67,,,,,,,,,,1.71,0.88,1.47*1D
$GPGSV,5,1,17,05,63,083,26,11,07,026,04,12,49,015,26,13,16,138,11*72
$GPGSV,5,2,17,15,31,172,30,18,31,251,28,20,34,046,18,22,07,131,09*7D
$GPGSV,5,3,17,23,16,207,,24,52,208,28,25,26,342,14,29,09,318,*70
$GPGSV,5,4,17,36,52,277,,40,86,351,,41,58,082,,49,32,274,*7C
$GPGSV,5,5,17,50,10,089,*4A
$GLGSV,3,1,09,67,17,102,14,68,23,154,,69,08,200,,78,30,149,16*62
$GLGSV,3,2,09,79,81,088,25,80,35,342,25,82,16,352,,83,29,299,20*68
$GLGSV,3,3,09,84,12,245,*50
$GNGLL,0419.84528,S,05539.80136,E,052026.00,A,A*60
$GNRMC,052027.00,A,0419.84529,S,05539.80143,E,0.087,,270525,,,A*73
$GNVTG,,T,,M,0.087,N,0.162,K,A*37
$GNGGA,052027.00,0419.84529,S,05539.80143,E,1,10,0.88,14.0,M,-47.6,M,,*4B
$GNGSA,A,3,05,24,12,20,18,15,13,,,,,,1.71,0.88,1.47*14
$GNGSA,A,3,79,83,67,,,,,,,,,,1.71,0.88,1.47*1D
$GPGSV,5,1,17,05,63,083,27,11,07,026,04,12,49,015,27,13,16,138,11*72
$GPGSV,5,2,17,15,31,172,30,18,31,251,29,20,34,046,17,22,07,131,09*73
$GPGSV,5,3,17,23,16,207,,24,52,208,29,25,26,342,14,29,09,318,*71
$GPGSV,5,4,17,36,52,277,,40,86,351,,41,58,082,,49,32,274,*7C
$GPGSV,5,5,17,50,10,089,*4A
$GLGSV,3,1,09,67,17,102,15,68,23,154,,69,08,200,,78,30,149,15*60
$GLGSV,3,2,09,79,81,088,25,80,35,342,24,82,16,352,,83,29,299,20*69
$GLGSV,3,3,09,84,12,245,*50
$GNGLL,0419.84529,S,05539.80143,E,052027.00,A,A*62
$GNRMC,052028.00,A,0419.84532,S,05539.80142,E,0.011,,270525,,,A*78
$GNVTG,,T,,M,0.011,N,0.020,K,A*3F
$GNGGA,052028.00,0419.84532,S,05539.80142,E,1,10,0.87,14.3,M,-47.6,M,,*43
$GNGSA,A,3,05,24,12,20,18,15,,,,,,,1.80,0.87,1.58*19
$GNGSA,A,3,79,78,83,67,,,,,,,,,1.80,0.87,1.58*1D
$GPGSV,5,1,17,05,63,083,28,11,07,026,04,12,49,015,28,13,16,138,*72
$GPGSV,5,2,17,15,31,172,30,18,31,251,29,20,34,046,17,22,07,131,*7A
$GPGSV,5,3,17,23,16,207,,24,52,208,28,25,26,342,13,29,09,318,*77
$GPGSV,5,4,17,36,52,277,,40,86,351,,41,58,082,,49,32,274,*7C
$GPGSV,5,5,17,50,10,089,*4A
$GLGSV,3,1,09,67,17,102,14,68,23,154,,69,08,200,,78,30,149,16*62
$GLGSV,3,2,09,79,81,088,25,80,35,342,25,82,16,352,,83,29,299,19*62
$GLGSV,3,3,09,84,12,245,*50
$GNGLL,0419.84532,S,05539.80142,E,052028.00,A,A*66
$GNRMC,052029.00,A,0419.84532,S,05539.80131,E,0.160,,270525,,,A*7A
$GNVTG,,T,,M,0.160,N,0.296,K,A*37
$GNGGA,052029.00,0419.84532,S,05539.80131,E,1,10,0.87,14.8,M,-47.6,M,,*4D
$GNGSA,A,3,05,24,12,20,18,15,,,,,,,1.80,0.87,1.58*19
$GNGSA,A,3,79,78,83,67,,,,,,,,,1.80,0.87,1.58*1D
$GPGSV,5,1,17,05,63,083,28,11,07,026,04,12,49,015,28,13,16,138,17*74
$GPGSV,5,2,17,15,31,172,31,18,31,251,29,20,34,046,17,22,07,131,*7B
$GPGSV,5,3,17,23,16,207,,24,52,208,29,25,26,342,12,29,09,318,*77
$GPGSV,5,4,17,36,52,277,,40,86,351,,41,58,082,,49,32,274,*7C
$GPGSV,5,5,17,50,10,089,*4A
$GLGSV,3,1,09,67,17,102,14,68,23,154,,69,08,200,,78,30,149,15*61
$GLGSV,3,2,09,79,81,088,25,80,35,342,25,82,16,352,,83,29,299,18*63
$GLGSV,3,3,09,84,12,245,*50
$GNGLL,0419.84532,S,05539.80131,E,052029.00,A,A*63
$GNRMC,052030.00,A,0419.84534,S,05539.80128,E,0.140,,270525,,,A*7E
$GNVTG,,T,,M,0.140,N,0.259,K,A*36
$GNGGA,052030.00,0419.84534,S,05539.80128,E,1,10,0.87,15.1,M,-47.6,M,,*43
$GNGSA,A,3,05,24,12,20,18,15,,,,,,,1.80,0.87,1.58*19
$GNGSA,A,3,79,78,83,67,,,,,,,,,1.80,0.87,1.58*1D
$GPGSV,5,1,17,05,63,083,27,11,07,026,04,12,49,015,27,13,16,138,18*7B
$GPGSV,5,2,17,15,31,172,31,18,31,251,29,20,34,046,18,22,07,131,*74
$GPGSV,5,3,17,23,16,207,,24,52,208,30,25,26,342,14,29,09,318,*79
$GPGSV,5,4,17,36,52,277,,40,86,351,,41,58,082,,49,32,274,*7C
$GPGSV,5,5,17,50,10,089,*4A
$GLGSV,3,1,09,67,17,102,16,68,23,154,,69,08,200,,78,30,149,16*60
$GLGSV,3,2,09,79,81,088,25,80,35,342,25,82,16,352,,83,29,299,18*63
$GLGSV,3,3,09,84,12,245,*50
$GNGLL,0419.84534,S,05539.80128,E,052030.00,A,A*65
$GNRMC,052031.00,A,0419.84527,S,05539.80128,E,0.356,,270525,,,A*78
$GNVTG,,T,,M,0.356,N,0.658,K,A*36
$GNGGA,052031.00,0419.84527,S,05539.80128,E,1,10,0.87,15.2,M,-47.6,M,,*43
$GNGSA,A,3,05,24,12,20,18,15,,,,,,,1.80,0.87,1.58*19
$GNGSA,A,3,79,78,83,67,,,,,,,,,1.80,0.87,1.58*1D
$GPGSV,5,1,17,05,63,083,27,11,07,026,04,12,49,015,25,13,16,138,19*78
$GPGSV,5,2,17,15,31,172,29,18,31,251,30,20,34,046,18,22,07,131,*75
$GPGSV,5,3,17,23,16,207,,24,52,208,29,25,26,342,14,29,09,318,*71
$GPGSV,5,4,17,36,52,277,,40,86,351,,41,58,082,,49,32,274,*7C
$GPGSV,5,5,17,50,10,089,*4A
$GLGSV,3,1,09,67,17,102,17,68,23,154,,69,08,200,,78,30,149,17*60
$GLGSV,3,2,09,79,81,088,25,80,35,342,24,82,16,352,,83,29,299,18*62
$GLGSV,3,3,09,84,12,245,*50
$GNGLL,0419.84527,S,05539.80128,E,052031.00,A,A*66
$GNRMC,052032.00,A,0419.84519,S,05539.80127,E,0.211,,270525,,,A*7B
$GNVTG,,T,,M,0.211,N,0.391,K,A*34
$GNGGA,052032.00,0419.84519,S,05539.80127,E,1,10,0.87,15.5,M,-47.6,M,,*45
$GNGSA,A,3,05,24,12,20,18,15,,,,,,,1.80,0.87,1.58*19
$GNGSA,A,3,79,78,83,67,,,,,,,,,1.80,0.87,1.58*1D
$GPGSV,5,1,17,05,63,083,27,11,07,026,,12,49,015,23,13,16,138,17*74
$GPGSV,5,2,17,15,31,172,29,18,31,251,29,20,34,046,19,22,07,131,*7C
$GPGSV,5,3,17,23,16,207,,24,52,208,28,25,26,342,12,29,09,318,*76
$GPGSV,5,4,17,36,52,277,,40,86,351,,41,58,082,,49,32,274,*7C
$GPGSV,5,5,17,50,10,089,*4A
$GLGSV,3,1,09,67,17,102,16,68,23,154,,69,08,200,,78,29,149,19*67
$GLGSV,3,2,09,79,81,088,24,80,35,342,24,82,16,352,,83,29,299,17*6C
$GLGSV,3,3,09,84,12,245,*50
$GNGLL,0419.84519,S,05539.80127,E,052032.00,A,A*67
$GNRMC,052033.00,A,0419.84510,S,05539.80122,E,0.169,,270525,,,A*7A
$GNVTG,,T,,M,0.169,N,0.312,K,A*33
$GNGGA,052033.00,0419.84510,S,05539.80122,E,1,11,0.85,15.7,M,-47.6,M,,*49
$GNGSA,A,3,05,24,12,20,18,15,13,,,,,,1.70,0.85,1.47*18
$GNGSA,A,3,79,78,83,67,,,,,,,,,1.70,0.85,1.47*1E
$GPGSV,5,1,17,05,63,083,26,11,07,026,,12,49,015,24,13,16,138,17*72
$GPGSV,5,2,17,15,31,172,30,18,31,251,28,20,34,046,18,22,07,131,*74
$GPGSV,5,3,17,23,16,207,,24,52,208,28,25,26,342,,29,09,318,*75
$GPGSV,5,4,17,36,52,277,,40,86,351,,41,58,082,,49,32,274,*7C
$GPGSV,5,5,17,50,10,089,*4A
$GLGSV,3,1,09,67,17,102,15,68,23,154,,69,08,200,,78,29,149,19*64
$GLGSV,3,2,09,79,81,093,22,80,35,342,26,82,16,352,,83,29,299,17*62
$GLGSV,3,3,09,84,12,245,*50
$GNGLL,0419.84510,S,05539.80122,E,052033.00,A,A*6A
$GNRMC,052034.00,A,0419.84508,S,05539.80114,E,0.229,,270525,,,A*76
$GNVTG,,T,,M,0.229,N,0.425,K,A*37
$GNGGA,052034.00,0419.84508,S,05539.80114,E,1,11,0.85,16.2,M,-47.6,M,,*44
$GNGSA,A,3,05,24,12,20,18,15,13,,,,,,1.70,0.85,1.47*18
$GNGSA,A,3,79,78,83,67,,,,,,,,,1.70,0.85,1.47*1E
$GPGSV,5,1,17,05,63,083,26,11,07,026,,12,49,015,25,13,16,138,17*73
$GPGSV,5,2,17,15,31,172,29,18,31,251,28,20,34,046,16,22,07,131,*72
$GPGSV,5,3,17,23,16,207,,24,52,208,29,25,26,342,,29,09,318,*74
$GPGSV,5,4,17,36,52,277,,40,86,351,,41,58,082,,49,32,274,*7C
$GPGSV,5,5,17,50,10,089,*4A
$GLGSV,3,1,09,67,17,102,15,68,23,154,,69,08,200,,78,29,149,17*6A
$GLGSV,3,2,09,79,81,093,21,80,36,342,27,82,16,352,,83,29,299,19*6D
$GLGSV,3,3,09,84,12,245,*50
$GNGLL,0419.84508,S,05539.80114,E,052034.00,A,A*61
$GNRMC,052035.00,A,0419.84515,S,05539.80101,E,0.449,,270525,,,A*7F
$GNVTG,,T,,M,0.449,N,0.831,K,A*3E
$GNGGA,052035.00,0419.84515,S,05539.80101,E,1,11,0.85,16.8,M,-47.6,M,,*47
$GNGSA,A,3,05,24,12,20,18,15,13,,,,,,1.70,0.85,1.47*18
$GNGSA,A,3,79,78,83,67,,,,,,,,,1.70,0.85,1.47*1E
$GPGSV,5,1,17,05,63,083,26,11,07,026,18,12,49,015,24,13,16,138,18*74
$GPGSV,5,2,17,15,31,172,29,18,31,251,28,20,34,046,17,22,07,131,*73
$GPGSV,5,3,17,23,16,207,,24,52,208,29,25,26,342,,29,09,318,*74
$GPGSV,5,4,17,36,52,277,,40,86,351,,41,58,082,,49,32,274,*7C
$GPGSV,5,5,17,50,10,089,*4A
$GLGSV,3,1,09,67,17,102,15,68,23,154,,69,08,200,,78,29,149,17*6A
$GLGSV,3,2,09,79,81,093,20,80,36,342,27,82,16,352,,83,29,299,20*66
$GLGSV,3,3,09,84,12,245,*50
$GNGLL,0419.84515,S,05539.80101,E,052035.00,A,A*68
$GNRMC,052036.00,A,0419.84514,S,05539.80097,E,0.149,,270525,,,A*76
$GNVTG,,T,,M,0.149,N,0.275,K,A*31
$GNGGA,052036.00,0419.84514,S,05539.80097,E,1,11,0.85,17.1,M,-47.6,M,,*43
$GNGSA,A,3,05,24,12,20,18,15,13,,,,,,1.70,0.85,1.47*18
$GNGSA,A,3,79,78,83,67,,,,,,,,,1.70,0.85,1.47*1E
$GPGSV,5,1,17,05,63,083,25,11,07,026,16,12,49,015,24,13,16,138,17*76
$GPGSV,5,2,17,15,31,172,29,18,31,251,28,20,34,046,18,22,07,131,*7C
$GPGSV,5,3,17,23,16,207,,24,52,208,28,25,26,342,,29,09,318,*75
$GPGSV,5,4,17,36,52,277,,40,86,351,,41,58,082,,49,32,274,*7C
$GPGSV,5,5,17,50,10,089,*4A
$GLGSV,3,1,09,67,17,102,13,68,23,154,,69,08,200,,78,29,149,19*62
$GLGSV,3,2,09,79,81,093,21,80,36,342,27,82,15,352,,83,29,299,20*64
$GLGSV,3,3,09,84,12,245,*50
$GNGLL,0419.84514,S,05539.80097,E,052036.00,A,A*64
$GNRMC,052037.00,A,0419.84523,S,05539.80090,E,0.023,,270525,,,A*79
$GNVTG,,T,,M,0.023,N,0.042,K,A*3A
$GNGGA,052037.00,0419.84523,S,05539.80090,E,1,11,0.85,17.3,M,-47.6,M,,*43
$GNGSA,A,3,05,24,12,20,18,15,13,,,,,,1.70,0.85,1.47*18
$GNGSA,A,3,79,78,83,67,,,,,,,,,1.70,0.85,1.47*1E
$GPGSV,5,1,17,05,63,083,27,11,07,026,13,12,49,015,25,13,16,138,15*72
$GPGSV,5,2,17,15,31,172,29,18,31,251,27,20,34,046,17,22,07,131,*7C
$GPGSV,5,3,17,23,16,207,,24,52,208,29,25,26,342,,29,09,318,*74
$GPGSV,5,4,17,36,52,277,,40,86,351,,41,58,082,,49,32,274,*7C
$GPGSV,5,5,17,50,10,089,*4A
$GLGSV,3,1,09,67,17,102,13,68,23,154,,69,08,200,,78,29,149,19*62
$GLGSV,3,2,09,79,81,093,21,80,36,342,26,82,15,352,,83,29,300,20*64
$GLGSV,3,3,09,84,12,245,*50
$GNGLL,0419.84523,S,05539.80090,E,052037.00,A,A*66
$GNRMC,052038.00,A,0419.84529,S,05539.80087,E,0.093,,270525,,,A*71
$GNVTG,,T,,M,0.093,N,0.171,K,A*30
$GNGGA,052038.00,0419.84529,S,05539.80087,E,1,11,0.85,17.3,M,-47.6,M,,*40
$GNGSA,A,3,05,24,12,20,18,15,13,,,,,,1.70,0.85,1.47*18
$GNGSA,A,3,79,78,83,67,,,,,,,,,1.70,0.85,1.47*1E
$GPGSV,5,1,17,05,63,083,28,11,07,026,10,12,49,015,25,13,16,138,16*7D
$GPGSV,5,2,17,15,31,172,29,18,31,251,27,20,34,046,16,22,07,131,*7D
$GPGSV,5,3,17,23,16,207,,24,52,208,29,25,26,342,,29,09,318,*74
$GPGSV,5,4,17,36,52,277,,40,86,351,,41,58,082,,49,32,274,*7C
$GPGSV,5,5,17,50,10,089,*4A
$GLGSV,3,1,09,67,17,102,12,68,23,154,,69,08,200,,78,29,149,18*62
$GLGSV,3,2,09,79,81,093,21,80,36,342,26,82,15,352,,83,29,300,19*6E
$GLGSV,3,3,09,84,12,245,*50
$GNGLL,0419.84529,S,05539.80087,E,052038.00,A,A*65
$GNRMC,052039.00,A,0419.84531,S,05539.80080,E,0.080,,270525,,,A*7C
$GNVTG,,T,,M,0.080,N,0.148,K,A*38
$GNGGA,052039.00,0419.84531,S,05539.80080,E,1,12,0.79,17.7,M,-47.6,M,,*4B
$GNGSA,A,3,05,24,12,20,18,15,13,,,,,,1.64,0.79,1.44*1D
$GNGSA,A,3,79,78,83,67,80,,,,,,,,1.64,0.79,1.44*13
$GPGSV,5,1,17,05,63,083,28,11,07,026,11,12,49,015,22,13,16,138,15*78
$GPGSV,5,2,17,15,31,172,29,18,31,251,27,20,34,046,16,22,07,131,*7D
$GPGSV,5,3,17,23,16,207,,24,52,208,29,25,26,342,,29,09,318,*74
$GPGSV,5,4,17,36,52,277,,40,86,351,,41,58,082,,49,32,274,*7C
$GPGSV,5,5,17,50,10,089,*4A
$GLGSV,3,1,09,67,17,102,15,68,23,154,,69,08,200,,78,29,149,19*64
$GLGSV,3,2,09,79,81,093,21,80,36,342,26,82,15,352,,83,29,300,17*60
$GLGSV,3,3,09,84,12,245,*50
$GNGLL,0419.84531,S,05539.80080,E,052039.00,A,A*6A
$GNRMC,052040.00,A,0419.84529,S,05539.80075,E,0.071,,270525,,,A*7F
$GNVTG,,T,,M,0.071,N,0.131,K,A*38
$GNGGA,052040.00,0419.84529,S,05539.80075,E,1,12,0.79,17.9,M,-47.6,M,,*48
$GNGSA,A,3,05,24,12,20,18,15,13,,,,,,1.64,0.79,1.44*1D
$GNGSA,A,3,79,78,83,67,80,,,,,,,,1.64,0.79,1.44*13
$GPGSV,5,1,17,05,63,083,27,11,07,026,09,12,49,015,20,13,16,138,14*7D
$GPGSV,5,2,17,15,31,172,30,18,31,251,27,20,34,046,18,22,07,131,*7B
$GPGSV,5,3,17,23,16,207,,24,52,208,29,25,26,342,,29,09,318,*74
$GPGSV,5,4,17,36,52,277,,40,86,351,,41,58,082,,49,32,274,*7C
$GPGSV,5,5,17,50,10,089,*4A
$GLGSV,3,1,09,67,17,102,16,68,23,154,,69,08,200,,78,29,149,21*6C
$GLGSV,3,2,09,79,81,093,22,80,36,342,27,82,15,352,,83,29,300,17*62
$GLGSV,3,3,09,84,12,245,*50
$GNGLL,0419.84529,S,05539.80075,E,052040.00,A,A*67
$GNRMC,052041.00,A,0419.84518,S,05539.80077,E,0.161,,270525,,,A*7E
$GNVTG,,T,,M,0.161,N,0.298,K,A*38
$GNGGA,052041.00,0419.84518,S,05539.80077,E,1,12,0.79,17.6,M,-47.6,M,,*46
$GNGSA,A,3,05,24,12,20,18,15,13,,,,,,1.64,0.79,1.44*1D
$GNGSA,A,3,79,78,83,67,80,,,,,,,,1.64,0.79,1.44*13
$GPGSV,5,1,17,05,63,083,26,11,07,026,08,12,49,015,19,13,16,138,14*77
$GPGSV,5,2,17,15,31,172,29,18,31,251,26,20,34,046,17,22,07,131,*7D
$GPGSV,5,3,17,23,16,207,,24,52,208,29,25,26,342,,29,09,318,*74
$GPGSV,5,4,17,36,52,277,,40,86,351,,41,58,082,,49,32,274,*7C
$GPGSV,5,5,17,50,10,089,*4A
$GLGSV,3,1,09,67,17,102,17,68,23,154,,69,08,200,,78,29,149,22*6E
$GLGSV,3,2,09,79,81,093,22,80,36,342,27,82,15,352,,83,29,300,16*63
$GLGSV,3,3,09,84,12,245,*50
$GNGLL,0419.84518,S,05539.80077,E,052041.00,A,A*66
$GNRMC,052042.00,A,0419.84510,S,05539.80074,E,0.042,,270525,,,A*76
$GNVTG,,T,,M,0.042,N,0.078,K,A*34
$GNGGA,052042.00,0419.84510,S,05539.80074,E,1,12,0.79,17.8,M,-47.6,M,,*40
$GNGSA,A,3,05,24,12,20,18,15,13,,,,,,1.64,0.79,1.44*1D
$GNGSA,A,3,79,78,83,67,80,,,,,,,,1.64,0.79,1.44*13
$GPGSV,5,1,17,05,63,083,26,11,07,026,08,12,49,015,20,13,16,138,13*7A
$GPGSV,5,2,17,15,31,172,29,18,31,251,25,20,34,046,13,22,07,131,*7A
$GPGSV,5,3,17,23,16,207,,24,52,208,29,25,26,342,,29,09,318,*74
$GPGSV,5,4,17,36,52,277,,40,86,351,,41,58,082,,49,32,274,*7C
$GPGSV,5,5,17,50,10,089,*4A
$GLGSV,3,1,09,67,17,102,17,68,23,154,,69,08,200,,78,29,149,22*6E
$GLGSV,3,2,09,79,81,093,22,80,36,342,27,82,15,352,,83,29,300,16*63
$GLGSV,3,3,09,84,12,245,*50
$GNGLL,0419.84510,S,05539.80074,E,052042.00,A,A*6E
$GNRMC,052043.00,A,0419.84504,S,05539.80072,E,0.053,,270525,,,A*74
$GNVTG,,T,,M,0.053,N,0.099,K,A*3B
$GNGGA,052043.00,0419.84504,S,05539.80072,E,1,12,0.79,18.0,M,-47.6,M,,*45
$GNGSA,A,3,05,24,12,20,18,15,13,,,,,,1.64,0.79,1.44*1D
$GNGSA,A,3,79,78,83,67,80,,,,,,,,1.64,0.79,1.44*13
$GPGSV,5,1,17,05,63,083,26,11,07,026,07,12,49,015,22,13,16,138,12*76
$GPGSV,5,2,17,15,31,172,28,18,31,251,26,20,34,046,10,22,07,131,*7B
$GPGSV,5,3,17,23,16,207,,24,52,208,29,25,26,342,,29,09,318,*74
$GPGSV,5,4,17,36,52,277,,40,86,351,,41,58,082,,49,32,274,*7C
$GPGSV,5,5,17,50,10,089,*4A
$GLGSV,3,1,09,67,17,102,15,68,23,154,,69,08,200,,78,29,149,22*6C
$GLGSV,3,2,09,79,81,093,22,80,36,342,27,82,15,352,,83,29,300,17*62
$GLGSV,3,3,09,84,12,245,*50
$GNGLL,0419.84504,S,05539.80072,E,052043.00,A,A*6C
$GNRMC,052044.00,A,0419.84501,S,05539.80072,E,0.098,,270525,,,A*71
$GNVTG,,T,,M,0.098,N,0.181,K,A*34
$GNGGA,052044.00,0419.84501,S,05539.80072,E,1,12,0.79,18.3,M,-47.6,M,,*44
$GNGSA,A,3,05,24,12,20,18,15,13,,,,,,1.64,0.79,1.44*1D
$GNGSA,A,3,79,78,83,67,80,,,,,,,,1.64,0.79,1.44*13
$GPGSV,5,1,17,05,63,083,27,11,07,026,08,12,49,015,22,13,16,138,15*7F
$GPGSV,5,2,17,15,31,172,29,18,31,251,27,20,34,046,16,22,07,131,*7D
$GPGSV,5,3,17,23,16,207,,24,52,208,29,25,26,342,,29,09,318,*74
$GPGSV,5,4,17,36,52,277,,40,86,351,,41,58,082,,49,32,274,*7C
$GPGSV,5,5,17,50,10,089,*4A
$GLGSV,3,1,09,67,17,102,12,68,23,154,,69,08,200,,78,29,149,22*6B
$GLGSV,3,2,09,79,81,093,22,80,36,342,27,82,15,352,,83,29,300,16*63
$GLGSV,3,3,09,84,12,245,*50
$GNGLL,0419.84501,S,05539.80072,E,052044.00,A,A*6E
$GNRMC,052045.00,A,0419.84491,S,05539.80081,E,0.042,,270525,,,A*73
$GNVTG,,T,,M,0.042,N,0.078,K,A*34
$GNGGA,052045.00,0419.84491,S,05539.80081,E,1,11,0.84,18.0,M,-47.6,M,,*43
$GNGSA,A,3,05,24,12,20,18,15,13,,,,,,1.79,0.84,1.58*1E
$GNGSA,A,3,79,78,83,80,,,,,,,,,1.79,0.84,1.58*11
$GPGSV,5,1,17,05,63,083,29,11,07,026,08,12,49,015,22,13,16,138,18*7C
$GPGSV,5,2,17,15,31,172,29,18,31,251,27,20,34,046,17,22,07,131,*7C
