$GNRMC,080037.00,A,0419.86782,S,05539.91635,E,0.028,,200525,,,A*78
$GNVTG,,T,,M,0.028,N,0.051,K,A*33
$GNGGA,080037.00,0419.86782,S,05539.91635,E,1,12,0.78,8.3,M,-47.6,M,,*71
$GNGSA,A,3,05,12,24,18,15,25,23,13,29,10,,,1.37,0.78,1.12*17
$GNGSA,A,3,80,73,69,84,70,74,,,,,,,1.37,0.78,1.12*1F
$GPGSV,4,1,16,05,14,028,28,10,29,221,19,12,54,147,25,13,09,079,21*79
$GPGSV,4,2,16,15,44,098,34,18,24,322,14,23,69,253,33,24,21,154,29*77
$GPGSV,4,3,16,25,83,250,31,28,11,266,,29,26,009,39,32,02,218,*7C
$GPGSV,4,4,16,36,52,277,,40,86,351,,41,58,082,,49,32,274,*7C
$GLGSV,3,1,10,69,35,064,37,70,49,162,14,71,12,196,,73,56,215,31*6B
$GLGSV,3,2,10,74,43,294,12,75,01,323,,80,16,164,31,84,05,001,08*62
$GLGSV,3,3,10,85,02,315,,,,,34*5B
$GNGLL,0419.86782,S,05539.91635,E,080037.00,A,A*6B
$GNTXT,01,01,01,More than 100 frame errors, UART RX was disabled*70
$GNRMC,080038.00,A,0419.86782,S,05539.91638,E,0.142,,200525,,,A*77
$GNVTG,,T,,M,0.142,N,0.263,K,A*3D
$GNGGA,080038.00,0419.86782,S,05539.91638,E,1,12,0.85,8.2,M,-47.6,M,,*70
$GNGSA,A,3,05,12,24,18,15,25,23,13,29,,,,1.41,0.85,1.13*14
$GNGSA,A,3,80,73,69,84,70,,,,,,,,1.41,0.85,1.13*1E
$GPGSV,4,1,16,05,14,028,26,10,29,221,,12,54,147,25,13,09,079,18*75
$GPGSV,4,2,16,15,44,098,31,18,24,322,10,23,69,253,29,24,21,154,27*73
$GPGSV,4,3,16,25,83,250,30,28,11,266,,29,26,009,34,32,02,218,*70
$GPGSV,4,4,16,36,52,277,,40,86,351,,41,58,082,,49,32,274,*7C
$GLGSV,3,1,10,69,35,064,32,70,49,162,08,71,12,196,,73,56,215,24*67
$GLGSV,3,2,10,74,43,294,05,75,01,323,,80,16,164,25,84,05,001,07*6E
$GLGSV,3,3,10,85,02,315,,,,,30*5F
$GNGLL,0419.86782,S,05539.91638,E,080038.00,A,A*69
$GNTXT,01,01,01,More than 100 frame errors, UART RX was disabled*70
$GNRMC,080039.00,A,0419.86783,S,05539.91638,E,0.060,,200525,,,A*76
$GNVTG,,T,,M,0.060,N,0.112,K,A*39
$GNGGA,080039.00,0419.86783,S,05539.91638,E,1,12,0.79,8.1,M,-47.6,M,,*70
$GNGSA,A,3,05,12,24,18,15,25,23,13,29,,,,1.36,0.79,1.11*15
$GNGSA,A,3,80,73,69,70,74,,,,,,,,1.36,0.79,1.11*10
$GPGSV,4,1,16,05,14,028,32,10,29,221,,12,54,147,23,13,09,079,28*75
$GPGSV,4,2,16,15,44,098,31,18,24,322,08,23,69,253,34,24,21,154,32*72
$GPGSV,4,3,16,25,83,250,30,28,11,266,,29,26,009,39,32,02,218,*7D
$GPGSV,4,4,16,36,52,277,,40,86,351,,41,58,082,,49,32,274,*7C
$GLGSV,3,1,10,69,35,064,38,70,49,162,15,71,12,196,,73,56,215,34*60
$GLGSV,3,2,10,74,43,294,15,75,01,323,,80,16,164,34,84,05,001,07*6F
$GLGSV,3,3,10,85,02,315,,,,,30*5F
$GNGLL,0419.86783,S,05539.91638,E,080039.00,A,A*69
$GNTXT,01,01,01,More than 100 frame errors, UART RX was disabled*70
$GNRMC,080040.00,A,0419.86781,S,05539.91640,E,0.053,,200525,,,A*75
$GNVTG,,T,,M,0.053,N,0.098,K,A*3A
$GNGGA,080040.00,0419.86781,S,05539.91640,E,1,12,0.89,8.1,M,-47.6,M,,*7C
$GNGSA,A,3,05,12,24,18,15,25,23,13,29,,,,1.52,0.89,1.23*19
$GNGSA,A,3,80,73,69,84,70,74,,,,,,,1.52,0.89,1.23*10
$GPGSV,4,1,16,05,14,028,32,10,29,221,08,12,54,147,20,13,09,079,28*7E
$GPGSV,4,2,16,15,44,098,33,18,24,322,12,23,69,253,34,24,21,154,23*7B
$GPGSV,4,3,16,25,83,250,30,28,11,266,,29,26,009,39,32,02,218,*7D
$GPGSV,4,4,16,36,52,277,,40,86,351,,41,58,082,,49,32,274,*7C
$GLGSV,3,1,10,69,35,064,39,70,49,162,19,71,12,196,,73,56,215,34*6D
$GLGSV,3,2,10,74,43,294,18,75,01,323,,80,16,164,29,84,05,001,09*60
$GLGSV,3,3,10,85,02,315,,,,,29*57
$GNGLL,0419.86781,S,05539.91640,E,080040.00,A,A*6A
$GNTXT,01,01,01,More than 100 frame errors, UART RX was disabled*70
$GNRMC,080041.00,A,0419.86780,S,05539.91640,E,0.120,,200525,,,A*70
$GNVTG,,T,,M,0.120,N,0.221,K,A*3F
$GNGGA,080041.00,0419.86780,S,05539.91640,E,1,12,0.79,8.2,M,-47.6,M,,*70
$GNGSA,A,3,05,12,24,18,15,25,23,13,29,,,,1.36,0.79,1.11*15
$GNGSA,A,3,80,73,69,84,70,74,,,,,,,1.36,0.79,1.11*1C
$GPGSV,4,1,16,05,14,028,31,10,29,221,11,12,54,147,22,13,09,079,27*78
$GPGSV,4,2,16,15,44,098,32,18,24,322,12,23,69,253,33,24,21,154,30*7F
$GPGSV,4,3,16,25,83,250,30,28,11,266,,29,26,009,39,32,02,218,*7D
$GPGSV,4,4,16,36,52,277,,40,86,351,,41,58,082,,49,32,274,*7C
$GLGSV,3,1,10,69,35,064,39,70,49,162,20,71,12,196,,73,56,215,33*60
$GLGSV,3,2,10,74,43,294,16,75,01,323,,80,16,164,31,84,05,001,09*67
$GLGSV,3,3,10,85,02,315,,,,,29*57
$GNGLL,0419.86780,S,05539.91640,E,080041.00,A,A*6A
$GNTXT,01,01,01,More than 100 frame errors, UART RX was disabled*70
$GNRMC,080042.00,A,0419.86782,S,05539.91640,E,0.111,,200525,,,A*73
$GNVTG,,T,,M,0.111,N,0.205,K,A*3B
$GNGGA,080042.00,0419.86782,S,05539.91640,E,1,12,0.79,8.2,M,-47.6,M,,*71
$GNGSA,A,3,05,12,24,18,15,25,23,13,29,,,,1.36,0.79,1.11*15
$GNGSA,A,3,80,73,69,84,70,74,,,,,,,1.36,0.79,1.11*1C
$GPGSV,4,1,16,05,14,028,30,10,29,221,14,12,54,147,23,13,09,079,26*7C
$GPGSV,4,2,16,15,44,098,33,18,24,322,10,23,69,253,32,24,21,154,30*7D
$GPGSV,4,3,16,25,83,250,31,28,11,266,,29,26,009,40,32,02,218,*72
$GPGSV,4,4,16,36,52,277,,40,86,351,,41,58,082,,49,32,274,*7C
$GLGSV,3,1,10,69,35,064,38,70,49,162,19,71,12,196,,73,56,215,30*68
$GLGSV,3,2,10,74,43,294,17,75,01,323,,80,16,164,31,84,05,001,09*66
$GLGSV,3,3,10,85,02,315,,,,,29*57
$GNGLL,0419.86782,S,05539.91640,E,080042.00,A,A*6B
$GNTXT,01,01,01,More than 100 frame errors, UART RX was disabled*70
$GNRMC,080043.00,A,0419.86783,S,05539.91639,E,0.008,,200525,,,A*74
$GNVTG,,T,,M,0.008,N,0.015,K,A*31
$GNGGA,080043.00,0419.86783,S,05539.91639,E,1,12,0.89,8.1,M,-47.6,M,,*73
$GNGSA,A,3,05,12,24,18,15,25,23,13,29,,,,1.52,0.89,1.23*19
$GNGSA,A,3,80,73,69,84,70,74,,,,,,,1.52,0.89,1.23*10
$GPGSV,4,1,16,05,14,028,30,10,29,221,11,12,54,147,25,13,09,079,27*7E
$GPGSV,4,2,16,15,44,098,35,18,24,322,11,23,69,253,31,24,21,154,35*7C
$GPGSV,4,3,16,25,83,250,31,28,11,266,,29,26,009,39,32,02,218,*7C
$GPGSV,4,4,16,36,52,277,,40,86,351,,41,58,082,,49,32,274,*7C
$GLGSV,3,1,10,69,35,064,38,70,49,162,20,71,12,196,,73,56,215,32*60
$GLGSV,3,2,10,74,43,294,15,75,01,323,,80,16,164,34,84,05,001,12*6B
$GLGSV,3,3,10,85,02,315,,,,,26*58
$GNGLL,0419.86783,S,05539.91639,E,080043.00,A,A*65
$GNTXT,01,01,01,More than 100 frame errors, UART RX was disabled*70
$GNRMC,080044.00,A,0419.86782,S,05539.91639,E,0.156,,200525,,,A*78
$GNVTG,,T,,M,0.156,N,0.289,K,A*3C
$GNGGA,080044.00,0419.86782,S,05539.91639,E,1,12,0.71,8.1,M,-47.6,M,,*72
$GNGSA,A,3,05,12,24,18,15,25,23,13,29,10,,,1.27,0.71,1.05*19
$GNGSA,A,3,80,73,69,84,70,74,,,,,,,1.27,0.71,1.05*11
$GPGSV,4,1,16,05,14,028,30,10,29,221,15,12,54,147,25,13,09,079,28*75
$GPGSV,4,2,16,15,44,098,36,18,24,322,12,23,69,253,31,24,21,154,35*7C
$GPGSV,4,3,16,25,83,250,32,28,11,266,,29,26,009,39,32,02,218,*7F
$GPGSV,4,4,16,36,52,277,,40,86,351,,41,58,082,,49,32,274,*7C
$GLGSV,3,1,10,69,35,064,39,70,49,162,20,71,12,196,,73,56,215,32*61
$GLGSV,3,2,10,74,43,294,16,75,01,323,,80,16,164,34,84,05,001,09*62
$GLGSV,3,3,10,85,02,315,,,,,26*58
$GNGLL,0419.86782,S,05539.91639,E,080044.00,A,A*63
$GNTXT,01,01,01,More than 100 frame errors, UART RX was disabled*70
$GNRMC,080045.00,A,0419.86782,S,05539.91636,E,0.065,,200525,,,A*77
$GNVTG,,T,,M,0.065,N,0.120,K,A*3D
$GNGGA,080045.00,0419.86782,S,05539.91636,E,1,12,0.71,8.1,M,-47.6,M,,*7C
$GNGSA,A,3,05,12,24,18,15,25,23,13,29,10,,,1.27,0.71,1.05*19
$GNGSA,A,3,80,73,69,84,70,74,,,,,,,1.27,0.71,1.05*11
$GPGSV,4,1,16,05,14,028,31,10,29,221,14,12,54,147,23,13,09,079,29*72
$GPGSV,4,2,16,15,44,098,33,18,24,322,11,23,69,253,32,24,21,154,35*79
$GPGSV,4,3,16,25,83,250,33,28,11,266,,29,26,009,38,32,02,218,*7F
$GPGSV,4,4,16,36,52,277,,40,86,351,,41,58,082,,49,32,274,*7C
$GLGSV,3,1,10,69,35,064,39,70,49,162,19,71,12,196,,73,56,215,30*69
$GLGSV,3,2,10,74,43,294,16,75,01,323,,80,16,164,33,84,05,001,09*65
$GLGSV,3,3,10,85,02,315,,,,,28*56
$GNGLL,0419.86782,S,05539.91636,E,080045.00,A,A*6D
$GNTXT,01,01,01,More than 100 frame errors, UART RX was disabled*70
$GNRMC,080046.00,A,0419.86780,S,05539.91633,E,0.150,,200525,,,A*74
$GNVTG,,T,,M,0.150,N,0.277,K,A*3B
$GNGGA,080046.00,0419.86780,S,05539.91633,E,1,12,0.78,8.1,M,-47.6,M,,*71
$GNGSA,A,3,05,12,24,18,15,25,23,13,29,10,,,1.37,0.78,1.12*17
$GNGSA,A,3,80,73,69,84,70,74,,,,,,,1.37,0.78,1.12*1F
$GPGSV,4,1,16,05,14,028,25,10,29,221,16,12,54,147,23,13,09,079,28*74
$GPGSV,4,2,16,15,44,098,32,18,24,322,14,23,69,253,31,24,21,154,33*78
$GPGSV,4,3,16,25,83,250,32,28,11,266,,29,26,009,36,32,02,218,*70
$GPGSV,4,4,16,36,52,277,,40,86,351,,41,58,082,,49,32,274,*7C
$GLGSV,3,1,10,69,35,064,33,70,49,162,18,71,12,196,,73,56,215,22*61
$GLGSV,3,2,10,74,43,294,13,75,01,323,,80,16,164,29,84,05,001,08*6A
$GLGSV,3,3,10,85,02,315,,,,,27*59
$GNGLL,0419.86780,S,05539.91633,E,080046.00,A,A*69
$GNTXT,01,01,01,More than 100 frame errors, UART RX was disabled*70
$GNRMC,080047.00,A,0419.86780,S,05539.91634,E,0.039,,200525,,,A*7C
$GNVTG,,T,,M,0.039,N,0.072,K,A*32
$GNGGA,080047.00,0419.86780,S,05539.91634,E,1,12,0.71,7.9,M,-47.6,M,,*79
$GNGSA,A,3,05,12,24,18,15,25,23,13,29,10,,,1.27,0.71,1.05*19
$GNGSA,A,3,80,73,69,84,70,74,,,,,,,1.27,0.71,1.05*11
$GPGSV,4,1,16,05,14,028,30,10,29,221,20,12,54,147,20,13,09,079,28*76
$GPGSV,4,2,16,15,44,098,35,18,24,322,13,23,69,253,37,24,21,154,34*79
$GPGSV,4,3,16,25,83,250,35,28,11,266,,29,26,009,40,32,02,218,*76
$GPGSV,4,4,16,36,52,277,,40,86,351,,41,58,082,,49,32,274,*7C
$GLGSV,3,1,10,69,35,064,36,70,49,162,19,71,12,196,,73,56,215,26*61
$GLGSV,3,2,10,74,43,294,11,75,01,323,,80,16,164,33,84,05,001,11*6B
$GLGSV,3,3,10,85,02,315,,,,,27*59
$GNGLL,0419.86780,S,05539.91634,E,080047.00,A,A*6F
$GNTXT,01,01,01,More than 100 frame errors, UART RX was disabled*70
$GNRMC,080048.00,A,0419.86782,S,05539.91630,E,0.021,,200525,,,A*7C
$GNVTG,,T,,M,0.021,N,0.039,K,A*34
$GNGGA,080048.00,0419.86782,S,05539.91630,E,1,12,0.71,8.0,M,-47.6,M,,*76
$GNGSA,A,3,05,12,24,18,15,25,23,13,29,10,,,1.27,0.71,1.05*19
$GNGSA,A,3,80,73,69,84,70,74,,,,,,,1.27,0.71,1.05*11
$GPGSV,4,1,16,05,14,028,30,10,29,221,20,12,54,147,18,13,09,079,30*74
$GPGSV,4,2,16,15,44,098,31,18,24,322,18,23,69,253,33,24,21,154,32*74
$GPGSV,4,3,16,25,83,250,32,28,11,266,,29,26,009,36,32,02,218,*70
$GPGSV,4,4,16,36,52,277,,40,86,351,,41,58,082,,49,32,274,*7C
$GLGSV,3,1,10,69,35,064,36,70,49,162,20,71,12,196,,73,56,215,30*6C
$GLGSV,3,2,10,74,43,294,09,75,01,323,,80,16,164,32,84,05,001,10*62
$GLGSV,3,3,10,85,02,315,,,,,27*59
$GNGLL,0419.86782,S,05539.91630,E,080048.00,A,A*66
$GNTXT,01,01,01,More than 100 frame errors, UART RX was disabled*70
$GNRMC,080049.00,A,0419.86784,S,05539.91626,E,0.019,,200525,,,A*77
$GNVTG,,T,,M,0.019,N,0.036,K,A*30
$GNGGA,080049.00,0419.86784,S,05539.91626,E,1,12,0.75,7.9,M,-47.6,M,,*74
$GNGSA,A,3,05,12,24,18,15,25,23,13,29,10,,,1.29,0.75,1.05*13
$GNGSA,A,3,80,73,69,84,70,74,,,,,,,1.29,0.75,1.05*1B
$GPGSV,4,1,16,05,14,028,29,10,29,221,19,12,54,147,20,13,09,079,29*75
$GPGSV,4,2,16,15,44,098,33,18,24,322,14,23,69,254,33,24,21,154,33*7C
$GPGSV,4,3,16,25,83,250,31,28,11,266,,29,26,009,37,32,02,218,*72
$GPGSV,4,4,16,36,52,277,,40,86,351,,41,58,082,,49,32,274,*7C
$GLGSV,3,1,10,69,35,064,37,70,49,162,22,71,12,196,,73,56,215,31*6E
$GLGSV,3,2,10,74,43,294,13,75,01,323,,80,16,164,33,84,05,001,10*68
$GLGSV,3,3,10,85,02,315,,,,,27*59
$GNGLL,0419.86784,S,05539.91626,E,080049.00,A,A*66
$GNTXT,01,01,01,More than 100 frame errors, UART RX was disabled*70
$GNRMC,080050.00,A,0419.86786,S,05539.91628,E,0.123,,200525,,,A*7B
$GNVTG,,T,,M,0.123,N,0.228,K,A*35
$GNGGA,080050.00,0419.86786,S,05539.91628,E,1,12,0.71,8.0,M,-47.6,M,,*72
$GNGSA,A,3,05,12,24,18,15,25,23,13,29,10,,,1.27,0.71,1.05*19
$GNGSA,A,3,80,73,69,84,70,74,,,,,,,1.27,0.71,1.05*11
$GPGSV,4,1,16,05,14,028,28,10,29,221,18,12,54,147,22,13,09,079,28*76
$GPGSV,4,2,16,15,44,098,29,18,24,322,12,23,69,254,28,24,21,154,24*7D
$GPGSV,4,3,16,25,83,250,25,28,11,266,,29,26,009,31,32,02,218,*71
$GPGSV,4,4,16,36,52,277,,40,86,351,,41,58,082,,49,32,274,*7C
$GLGSV,3,1,10,69,35,064,31,70,49,162,22,71,12,196,,73,56,215,26*6E
$GLGSV,3,2,10,74,43,294,12,75,01,323,,80,16,164,28,84,05,001,11*62
$GLGSV,3,3,10,85,02,315,,,,,26*58
$GNGLL,0419.86786,S,05539.91628,E,080050.00,A,A*62
$GNTXT,01,01,01,More than 100 frame errors, UART RX was disabled*70
$GNRMC,080051.00,A,0419.86786,S,05539.91631,E,0.094,,200525,,,A*7F
$GNVTG,,T,,M,0.094,N,0.174,K,A*32
$GNGGA,080051.00,0419.86786,S,05539.91631,E,1,12,0.75,8.0,M,-47.6,M,,*7F
$GNGSA,A,3,05,12,24,18,15,25,23,13,29,10,,,1.29,0.75,1.05*13
$GNGSA,A,3,80,73,69,70,,,,,,,,,1.29,0.75,1.05*14
$GPGSV,4,1,16,05,14,028,27,10,29,221,17,12,54,147,25,13,09,079,22*7B
$GPGSV,4,2,16,15,44,098,33,18,24,322,08,23,69,254,33,24,21,154,27*74
$GPGSV,4,3,16,25,83,250,31,28,11,266,,29,26,009,37,32,02,218,*72
$GPGSV,4,4,16,36,52,277,,40,86,351,,41,58,082,,49,32,274,*7C
$GLGSV,3,1,10,69,35,064,32,70,49,162,19,71,12,196,,73,56,215,27*64
$GLGSV,3,2,10,74,43,294,05,75,01,323,,80,16,164,28,84,05,001,03*67
$GLGSV,3,3,10,85,02,315,,,,,23*5D
$GNGLL,0419.86786,S,05539.91631,E,080051.00,A,A*6B
$GNTXT,01,01,01,More than 100 frame errors, UART RX was disabled*70
$GNRMC,080052.00,A,0419.86785,S,05539.91630,E,0.015,,200525,,,A*77
$GNVTG,,T,,M,0.015,N,0.028,K,A*33
$GNGGA,080052.00,0419.86785,S,05539.91630,E,1,12,0.71,8.0,M,-47.6,M,,*7A
$GNGSA,A,3,05,12,24,18,15,25,23,13,29,10,,,1.27,0.71,1.05*19
$GNGSA,A,3,80,73,69,84,70,74,,,,,,,1.27,0.71,1.05*11
$GPGSV,4,1,16,05,14,028,29,10,29,221,17,12,54,147,30,13,09,079,29*7A
$GPGSV,4,2,16,15,44,098,33,18,24,322,08,23,69,254,32,24,21,154,27*75
$GPGSV,4,3,16,25,83,250,31,28,11,266,,29,26,009,38,32,02,218,*7D
$GPGSV,4,4,16,36,52,277,,40,86,351,,41,58,082,,49,32,274,*7C
$GLGSV,3,1,10,69,35,064,37,70,49,162,19,71,12,196,,73,56,215,34*63
$GLGSV,3,2,10,74,43,294,10,75,01,323,,80,16,164,30,84,05,001,09*60
$GLGSV,3,3,10,85,02,315,,,,,23*5D
$GNGLL,0419.86785,S,05539.91630,E,080052.00,A,A*6A
$GNTXT,01,01,01,More than 100 frame errors, UART RX was disabled*70
$GNRMC,080053.00,A,0419.86786,S,05539.91624,E,0.067,,200525,,,A*75
$GNVTG,,T,,M,0.067,N,0.124,K,A*3B
$GNGGA,080053.00,0419.86786,S,05539.91624,E,1,12,0.71,7.9,M,-47.6,M,,*7B
$GNGSA,A,3,05,12,24,18,15,25,23,13,29,10,,,1.27,0.71,1.05*19
$GNGSA,A,3,80,73,69,84,70,74,,,,,,,1.27,0.71,1.05*11
$GPGSV,4,1,16,05,14,028,30,10,29,221,17,12,54,147,29,13,09,079,28*7B
$GPGSV,4,2,16,15,44,098,34,18,24,322,13,23,69,254,34,24,21,154,32*7A
$GPGSV,4,3,16,25,83,250,32,28,11,266,,29,26,009,38,32,02,218,*7E
$GPGSV,4,4,16,36,52,277,,40,86,351,,41,58,082,,49,32,274,*7C
$GLGSV,3,1,10,69,35,064,36,70,49,162,21,71,12,196,,73,56,215,33*6E
$GLGSV,3,2,10,74,43,294,10,75,01,323,,80,16,164,31,84,05,001,10*69
$GLGSV,3,3,10,85,02,315,,,,,24*5A
$GNGLL,0419.86786,S,05539.91624,E,080053.00,A,A*6D
$GNTXT,01,01,01,More than 100 frame errors, UART RX was disabled*70
$GNRMC,080054.00,A,0419.86787,S,05539.91622,E,0.051,,200525,,,A*70
$GNVTG,,T,,M,0.051,N,0.095,K,A*35
$GNGGA,080054.00,0419.86787,S,05539.91622,E,1,12,0.71,7.8,M,-47.6,M,,*7A
$GNGSA,A,3,05,12,24,18,15,25,23,13,29,10,,,1.27,0.71,1.05*19
$GNGSA,A,3,80,73,69,84,70,74,,,,,,,1.27,0.71,1.05*11
$GPGSV,4,1,16,05,14,028,30,10,29,221,16,12,54,147,27,13,09,079,29*75
$GPGSV,4,2,16,15,44,098,34,18,24,322,09,23,69,254,33,24,21,154,31*75
$GPGSV,4,3,16,25,83,250,31,28,11,266,,29,26,009,38,32,02,218,*7D
$GPGSV,4,4,16,36,52,277,,40,86,351,,41,58,082,,49,32,274,*7C
$GLGSV,3,1,10,69,35,064,36,70,49,162,21,71,12,196,,73,56,215,33*6E
$GLGSV,3,2,10,74,43,294,08,75,01,323,,80,16,164,31,84,05,001,10*60
$GLGSV,3,3,10,85,02,315,,,,,26*58
$GNGLL,0419.86787,S,05539.91622,E,080054.00,A,A*6D
$GNTXT,01,01,01,More than 100 frame errors, UART RX was disabled*70
$GNRMC,080055.00,A,0419.86789,S,05539.91622,E,0.036,,200525,,,A*7E
$GNVTG,,T,,M,0.036,N,0.067,K,A*39
$GNGGA,080055.00,0419.86789,S,05539.91622,E,1,12,0.71,7.7,M,-47.6,M,,*7A
$GNGSA,A,3,05,12,24,18,15,25,23,13,29,10,,,1.27,0.71,1.05*19
$GNGSA,A,3,80,73,69,70,74,,,,,,,,1.27,0.71,1.05*1D
$GPGSV,4,1,16,05,14,028,30,10,29,221,17,12,54,147,27,13,09,079,28*75
$GPGSV,4,2,16,15,44,098,34,18,24,322,15,23,69,254,33,24,21,154,31*78
$GPGSV,4,3,16,25,83,250,31,28,11,266,,29,26,009,38,32,02,218,*7D
$GPGSV,4,4,16,36,52,277,,40,86,351,,41,58,082,,49,32,274,*7C
$GLGSV,3,1,10,69,35,064,36,70,49,162,20,71,12,196,,73,56,215,32*6E
$GLGSV,3,2,10,74,43,294,11,75,01,323,,80,16,164,31,84,05,001,07*6E
$GLGSV,3,3,10,85,02,315,,,,,26*58
$GNGLL,0419.86789,S,05539.91622,E,080055.00,A,A*62
$GNTXT,01,01,01,More than 100 frame errors, UART RX was disabled*70
$GNRMC,080056.00,A,0419.86790,S,05539.91619,E,0.079,,200525,,,A*76
$GNVTG,,T,,M,0.079,N,0.147,K,A*31
$GNGGA,080056.00,0419.86790,S,05539.91619,E,1,12,0.71,7.7,M,-47.6,M,,*79
$GNGSA,A,3,05,12,24,18,15,25,23,13,29,10,,,1.27,0.71,1.05*19
$GNGSA,A,3,80,73,69,70,74,,,,,,,,1.27,0.71,1.05*1D
$GPGSV,4,1,16,05,14,028,30,10,29,221,19,12,54,147,25,13,09,079,28*79
$GPGSV,4,2,16,15,44,098,33,18,24,322,10,23,69,254,33,24,21,154,29*73
$GPGSV,4,3,16,25,83,250,31,28,11,266,,29,26,009,38,32,02,218,*7D
$GPGSV,4,4,16,36,52,277,,40,86,351,,41,58,082,,49,32,274,*7C
$GLGSV,3,1,10,69,35,064,36,70,49,162,20,71,12,196,,73,56,215,31*6D
$GLGSV,3,2,10,74,43,294,10,75,01,323,,80,16,164,26,84,05,001,10*6F
$GLGSV,3,3,10,85,02,315,,,,,28*56
$GNGLL,0419.86790,S,05539.91619,E,080056.00,A,A*61
$GNTXT,01,01,01,More than 100 frame errors, UART RX was disabled*70
$GNRMC,080057.00,A,0419.86791,S,05539.91616,E,0.125,,200525,,,A*71
$GNVTG,,T,,M,0.125,N,0.231,K,A*3B
$GNGGA,080057.00,0419.86791,S,05539.91616,E,1,12,0.71,7.7,M,-47.6,M,,*76
$GNGSA,A,3,05,12,24,18,15,25,23,13,29,10,,,1.27,0.71,1.05*19
$GNGSA,A,3,80,73,69,70,74,,,,,,,,1.27,0.71,1.05*1D
$GPGSV,4,1,16,05,14,028,32,10,29,221,19,12,54,147,25,13,09,079,25*76
$GPGSV,4,2,16,15,44,098,33,18,24,322,10,23,69,254,33,24,21,154,33*78
$GPGSV,4,3,16,25,83,250,31,28,11,266,,29,26,009,37,32,02,218,*72
$GPGSV,4,4,16,36,52,277,,40,86,351,,41,58,082,,49,32,274,*7C
$GLGSV,3,1,10,69,35,064,36,70,49,162,20,71,12,196,,73,56,215,34*68
$GLGSV,3,2,10,74,43,294,10,75,01,323,,80,16,164,32,84,05,001,08*63
$GLGSV,3,3,10,85,02,315,,,,,30*5F
$GNGLL,0419.86791,S,05539.91616,E,080057.00,A,A*6E
$GNTXT,01,01,01,More than 100 frame errors, UART RX was disabled*70
$GNRMC,080058.00,A,0419.86790,S,05539.91613,E,0.040,,200525,,,A*78
$GNVTG,,T,,M,0.040,N,0.074,K,A*3A
$GNGGA,080058.00,0419.86790,S,05539.91613,E,1,12,0.71,7.6,M,-47.6,M,,*7C
$GNGSA,A,3,05,12,24,18,15,25,23,13,29,10,,,1.27,0.71,1.05*19
$GNGSA,A,3,80,73,69,84,70,74,,,,,,,1.27,0.71,1.05*11
$GPGSV,4,1,16,05,14,028,32,10,29,221,18,12,54,147,30,13,09,079,27*71
$GPGSV,4,2,16,15,44,098,32,18,24,322,11,23,69,254,33,24,21,154,28*72
$GPGSV,4,3,16,25,83,250,32,28,11,266,,29,26,009,37,32,02,218,*71
$GPGSV,4,4,16,36,52,277,,40,86,351,,41,58,082,,49,32,274,*7C
$GLGSV,3,1,10,69,35,064,37,70,49,162,20,71,12,196,,73,56,215,34*69
$GLGSV,3,2,10,74,43,294,09,75,01,323,,80,16,164,30,84,05,001,08*69
$GLGSV,3,3,10,85,02,315,,,,,30*5F
$GNGLL,0419.86790,S,05539.91613,E,080058.00,A,A*65
$GNTXT,01,01,01,More than 100 frame errors, UART RX was disabled*70
$GNRMC,080059.00,A,0419.86790,S,05539.91612,E,0.030,,200525,,,A*7F
$GNVTG,,T,,M,0.030,N,0.056,K,A*3D
$GNGGA,080059.00,0419.86790,S,05539.91612,E,1,12,0.71,7.5,M,-47.6,M,,*7F
$GNGSA,A,3,05,12,24,18,15,25,23,13,29,10,,,1.27,0.71,1.05*19
$GNGSA,A,3,80,73,69,84,70,74,,,,,,,1.27,0.71,1.05*11
$GPGSV,4,1,16,05,14,028,32,10,29,221,14,12,54,147,29,13,09,079,28*7A
$GPGSV,4,2,16,15,44,098,30,18,24,322,09,23,69,254,33,24,21,154,27*76
$GPGSV,4,3,16,25,83,250,32,28,11,266,,29,26,009,38,32,02,218,*7E
$GPGSV,4,4,16,36,52,277,,40,86,351,,41,58,082,,49,32,274,*7C
$GLGSV,3,1,10,69,35,064,37,70,49,162,21,71,12,196,,73,56,215,33*6F
$GLGSV,3,2,10,74,43,294,13,75,01,323,,80,16,164,30,84,05,001,09*63
$GLGSV,3,3,10,85,02,315,,,,,30*5F
$GNGLL,0419.86790,S,05539.91612,E,080059.00,A,A*65
$GNTXT,01,01,01,More than 100 frame errors, UART RX was disabled*70
$GNRMC,080100.00,A,0419.86790,S,05539.91610,E,0.018,,200525,,,A*7A
$GNVTG,,T,,M,0.018,N,0.034,K,A*33
$GNGGA,080100.00,0419.86790,S,05539.91610,E,1,12,0.71,7.4,M,-47.6,M,,*71
$GNGSA,A,3,05,12,24,18,15,25,23,13,29,10,,,1.27,0.71,1.05*19
$GNGSA,A,3,80,73,69,84,70,74,,,,,,,1.27,0.71,1.05*11
$GPGSV,4,1,16,05,14,028,31,10,29,221,09,12,54,147,28,13,09,079,29*75
$GPGSV,4,2,16,15,44,098,30,18,24,322,10,23,69,254,29,24,21,154,28*7A
$GPGSV,4,3,16,25,83,250,31,28,11,266,,29,26,009,37,32,02,218,*72
$GPGSV,4,4,16,36,52,277,,40,86,351,,41,58,082,,49,32,274,*7C
$GLGSV,3,1,10,69,34,064,37,70,49,162,21,71,12,196,,73,56,215,33*6E
$GLGSV,3,2,10,74,43,294,09,75,01,323,,80,16,164,29,84,05,001,09*60
$GLGSV,3,3,10,85,02,315,,,,,29*57
$GNGLL,0419.86790,S,05539.91610,E,080100.00,A,A*6A
$GNTXT,01,01,01,More than 100 frame errors, UART RX was disabled*70
$GNRMC,080101.00,A,0419.86790,S,05539.91607,E,0.045,,200525,,,A*75
$GNVTG,,T,,M,0.045,N,0.083,K,A*37
$GNGGA,080101.00,0419.86790,S,05539.91607,E,1,12,0.71,7.4,M,-47.6,M,,*76
$GNGSA,A,3,05,12,24,18,15,25,23,13,29,10,,,1.27,0.71,1.05*19
$GNGSA,A,3,80,73,69,84,70,74,,,,,,,1.27,0.71,1.05*11
$GPGSV,4,1,16,05,14,028,30,10,29,221,15,12,54,147,28,13,09,079,29*79
$GPGSV,4,2,16,15,44,098,30,18,24,322,13,23,69,254,31,24,21,153,29*76
$GPGSV,4,3,16,25,83,250,30,28,11,266,,29,26,009,37,32,02,218,*73
$GPGSV,4,4,16,36,52,277,,40,86,351,,41,58,082,,49,32,274,*7C
$GLGSV,3,1,10,69,34,064,37,70,49,161,21,71,12,196,,73,56,215,33*6D
$GLGSV,3,2,10,74,43,294,10,75,01,323,,80,16,164,29,84,05,001,09*68
$GLGSV,3,3,10,85,02,315,,,,,30*5F
$GNGLL,0419.86790,S,05539.91607,E,080101.00,A,A*6D
$GNTXT,01,01,01,More than 100 frame errors, UART RX was disabled*70
$GNRMC,080102.00,A,0419.86790,S,05539.91605,E,0.064,,200525,,,A*77
$GNVTG,,T,,M,0.064,N,0.119,K,A*36
$GNGGA,080102.00,0419.86790,S,05539.91605,E,1,12,0.71,7.4,M,-47.6,M,,*77
$GNGSA,A,3,05,12,24,18,15,25,23,13,29,10,,,1.27,0.71,1.05*19
$GNGSA,A,3,80,73,69,84,70,74,,,,,,,1.27,0.71,1.05*11
$GPGSV,4,1,16,05,14,028,33,10,29,221,13,12,54,147,28,13,09,079,28*7D
$GPGSV,4,2,16,15,44,098,29,18,24,322,10,23,69,254,31,24,21,153,31*74
$GPGSV,4,3,16,25,83,250,30,28,11,266,,29,26,009,37,32,02,218,*73
$GPGSV,4,4,16,36,52,277,,40,86,351,,41,58,082,,49,32,274,*7C
$GLGSV,3,1,10,69,34,064,37,70,49,161,20,71,13,196,,73,56,215,33*6D
$GLGSV,3,2,10,74,43,294,11,75,01,323,,80,16,164,31,84,05,001,10*68
$GLGSV,3,3,10,85,02,315,,,,,31*5E
$GNGLL,0419.86790,S,05539.91605,E,080102.00,A,A*6C
$GNTXT,01,01,01,More than 100 frame errors, UART RX was disabled*70
$GNRMC,080103.00,A,0419.86788,S,05539.91596,E,0.106,,200525,,,A*73
$GNVTG,,T,,M,0.106,N,0.196,K,A*34
$GNGGA,080103.00,0419.86788,S,05539.91596,E,1,12,0.71,7.3,M,-47.6,M,,*71
$GNGSA,A,3,05,12,24,18,15,25,23,13,29,10,,,1.27,0.71,1.05*19
$GNGSA,A,3,80,73,69,84,70,74,,,,,,,1.27,0.71,1.05*11
$GPGSV,4,1,16,05,14,028,33,10,29,221,09,12,54,147,26,13,09,079,29*79
$GPGSV,4,2,16,15,44,098,29,18,24,322,12,23,69,254,31,24,21,153,32*75
$GPGSV,4,3,16,25,83,250,30,28,11,266,,29,26,009,36,32,02,218,*72
$GPGSV,4,4,16,36,52,277,,40,86,351,,41,58,082,,49,32,274,*7C
$GLGSV,3,1,10,69,34,064,36,70,49,161,20,71,13,196,,73,56,215,31*6E
$GLGSV,3,2,10,74,43,294,10,75,01,323,,80,16,164,33,84,05,001,09*63
$GLGSV,3,3,10,85,02,315,,,,,30*5F
$GNGLL,0419.86788,S,05539.91596,E,080103.00,A,A*6D
$GNTXT,01,01,01,More than 100 frame errors, UART RX was disabled*70
$GNRMC,080104.00,A,0419.86789,S,05539.91596,E,0.072,,200525,,,A*77
$GNVTG,,T,,M,0.072,N,0.134,K,A*3E
$GNGGA,080104.00,0419.86789,S,05539.91596,E,1,12,0.78,7.2,M,-47.6,M,,*7F
$GNGSA,A,3,05,12,24,18,15,25,23,13,29,10,,,1.32,0.78,1.07*16
$GNGSA,A,3,80,73,69,84,70,74,,,,,,,1.32,0.78,1.07*1E
$GPGSV,4,1,16,05,14,028,30,10,29,221,18,12,54,147,22,13,09,079,28*7F
$GPGSV,4,2,16,15,44,098,30,18,24,322,13,23,69,254,25,24,21,153,29*73
$GPGSV,4,3,16,25,83,250,30,28,11,266,,29,26,009,32,32,02,218,*76
$GPGSV,4,4,16,36,52,277,31,40,86,351,,41,58,082,,49,32,274,*7E
$GLGSV,3,1,10,69,34,064,32,70,49,161,21,71,13,196,,73,55,214,25*6C
$GLGSV,3,2,10,74,43,294,08,75,01,323,,80,16,164,30,84,05,001,08*68
$GLGSV,3,3,10,85,02,315,,,,,29*57
$GNGLL,0419.86789,S,05539.91596,E,080104.00,A,A*6B
$GNTXT,01,01,01,More than 100 frame errors, UART RX was disabled*70
$GNRMC,080105.00,A,0419.86789,S,05539.91594,E,0.066,,200525,,,A*71
$GNVTG,,T,,M,0.066,N,0.122,K,A*3C
$GNGGA,080105.00,0419.86789,S,05539.91594,E,1,12,0.78,7.1,M,-47.6,M,,*7F
$GNGSA,A,3,05,12,24,15,25,23,13,29,10,,,,1.37,0.78,1.12*1E
$GNGSA,A,3,80,73,69,84,70,74,,,,,,,1.37,0.78,1.12*1F
$GPGSV,4,1,16,05,14,028,34,10,29,221,14,12,54,147,20,13,09,079,27*7A
$GPGSV,4,2,16,15,44,098,35,18,24,322,,23,69,254,34,24,21,153,36*7A
$GPGSV,4,3,16,25,83,250,31,28,11,266,,29,26,009,39,32,02,218,*7C
$GPGSV,4,4,16,36,52,277,33,40,86,351,,41,58,082,,49,32,274,*7C
$GLGSV,3,1,10,69,34,064,38,70,49,161,20,71,13,196,,73,55,214,33*60
$GLGSV,3,2,10,74,43,293,09,75,01,323,,80,16,164,37,84,05,001,08*69
$GLGSV,3,3,10,85,02,315,,,,,34*5B
$GNGLL,0419.86789,S,05539.91594,E,080105.00,A,A*68
$GNTXT,01,01,01,More than 100 frame errors, UART RX was disabled*70
$GNRMC,080106.00,A,0419.86789,S,05539.91595,E,0.091,,200525,,,A*7B
$GNVTG,,T,,M,0.091,N,0.168,K,A*3A
$GNGGA,080106.00,0419.86789,S,05539.91595,E,1,12,0.78,7.1,M,-47.6,M,,*7D
$GNGSA,A,3,05,12,24,15,25,23,13,29,10,,,,1.37,0.78,1.12*1E
$GNGSA,A,3,80,73,69,84,70,74,,,,,,,1.37,0.78,1.12*1F
$GPGSV,4,1,16,05,14,028,34,10,29,221,17,12,54,147,21,13,09,079,23*7C
$GPGSV,4,2,16,15,44,098,35,18,24,322,,23,69,254,33,24,21,153,35*7E
$GPGSV,4,3,16,25,83,250,31,28,11,266,,29,26,009,38,32,02,218,17*7B
$GPGSV,4,4,16,36,52,277,33,40,86,351,,41,58,082,,49,32,274,*7C
$GLGSV,3,1,10,69,34,064,38,70,49,161,20,71,13,196,,73,55,214,36*65
$GLGSV,3,2,10,74,43,293,12,75,02,323,,80,16,164,34,84,05,001,09*62
$GLGSV,3,3,10,85,02,315,,,,,31*5E
$GNGLL,0419.86789,S,05539.91595,E,080106.00,A,A*6A
$GNTXT,01,01,01,More than 100 frame errors, UART RX was disabled*70
$GNRMC,080107.00,A,0419.86788,S,05539.91592,E,0.018,,200525,,,A*7D
$GNVTG,,T,,M,0.018,N,0.034,K,A*33
$GNGGA,080107.00,0419.86788,S,05539.91592,E,1,12,0.94,7.0,M,-47.6,M,,*79
$GNGSA,A,3,05,12,24,15,25,23,13,29,10,,,,1.45,0.94,1.10*1B
$GNGSA,A,3,80,73,69,84,70,74,,,,,,,1.45,0.94,1.10*1A
$GPGSV,4,1,16,05,14,028,33,10,29,221,15,12,54,147,23,13,09,079,21*79
$GPGSV,4,2,16,15,44,098,33,18,24,322,,23,69,254,30,24,21,153,35*7B
$GPGSV,4,3,16,25,83,250,30,28,11,266,,29,26,009,37,32,02,218,16*74
$GPGSV,4,4,16,36,52,277,32,40,86,351,,41,58,082,,49,32,274,*7D
$GLGSV,3,1,10,69,34,064,37,70,49,161,21,71,13,196,,73,55,214,35*68
$GLGSV,3,2,10,74,43,293,12,75,02,323,,80,16,164,34,84,05,001,10*6A
$GLGSV,3,3,10,85,02,315,,,,,32*5D
$GNGLL,0419.86788,S,05539.91592,E,080107.00,A,A*6D
$GNTXT,01,01,01,More than 100 frame errors, UART RX was disabled*70
$GNRMC,080108.00,A,0419.86789,S,05539.91592,E,0.060,,200525,,,A*7C
$GNVTG,,T,,M,0.060,N,0.112,K,A*39
$GNGGA,080108.00,0419.86789,S,05539.91592,E,1,12,0.81,7.1,M,-47.6,M,,*72
$GNGSA,A,3,05,12,24,15,25,23,13,29,10,,,,1.40,0.81,1.14*1E
$GNGSA,A,3,80,73,69,84,70,74,,,,,,,1.40,0.81,1.14*1F
$GPGSV,4,1,16,05,14,028,34,10,29,221,18,12,54,147,22,13,09,079,19*79
$GPGSV,4,2,16,15,44,098,31,18,24,322,,23,69,254,30,24,21,153,34*78
$GPGSV,4,3,16,25,83,250,30,28,11,266,,29,26,009,37,32,02,218,13*71
$GPGSV,4,4,16,36,52,277,32,40,86,351,,41,58,082,,49,32,274,*7D
$GLGSV,3,1,10,69,34,064,37,70,49,161,21,71,13,196,,73,55,214,32*6F
$GLGSV,3,2,10,74,43,293,08,75,02,323,,80,16,164,31,84,05,001,09*6C
$GLGSV,3,3,10,85,02,315,,,,,32*5D
$GNGLL,0419.86789,S,05539.91592,E,080108.00,A,A*63
$GNTXT,01,01,01,More than 100 frame errors, UART RX was disabled*70
$GNRMC,080109.00,A,0419.86790,S,05539.91590,E,0.091,,200525,,,A*79
$GNVTG,,T,,M,0.091,N,0.168,K,A*3A
$GNGGA,080109.00,0419.86790,S,05539.91590,E,1,12,0.81,7.0,M,-47.6,M,,*78
$GNGSA,A,3,05,12,24,15,25,23,13,29,10,,,,1.40,0.81,1.14*1E
$GNGSA,A,3,80,73,69,84,70,74,,,,,,,1.40,0.81,1.14*1F
$GPGSV,4,1,16,05,14,028,33,10,29,221,19,12,54,147,25,13,09,079,17*76
$GPGSV,4,2,16,15,44,098,34,18,24,322,,23,69,254,30,24,21,153,35*7C
$GPGSV,4,3,16,25,83,250,30,28,11,266,,29,26,009,38,32,02,218,10*7D
$GPGSV,4,4,16,36,52,277,32,40,86,351,,41,58,082,,49,32,274,*7D
$GLGSV,3,1,10,69,34,064,39,70,49,161,21,71,13,196,,73,55,214,34*67
$GLGSV,3,2,10,74,43,293,09,75,02,323,,80,15,164,35,84,05,001,08*6B
$GLGSV,3,3,10,85,02,315,,,,,31*5E
$GNGLL,0419.86790,S,05539.91590,E,080109.00,A,A*68
$GNTXT,01,01,01,More than 100 frame errors, UART RX was disabled*70
$GNRMC,080110.00,A,0419.86789,S,05539.91590,E,0.020,,200525,,,A*73
$GNVTG,,T,,M,0.020,N,0.036,K,A*3A
$GNGGA,080110.00,0419.86789,S,05539.91590,E,1,12,0.81,7.0,M,-47.6,M,,*78
$GNGSA,A,3,05,12,24,15,25,23,13,29,10,,,,1.40,0.81,1.14*1E
$GNGSA,A,3,80,73,69,84,70,74,,,,,,,1.40,0.81,1.14*1F
$GPGSV,4,1,16,05,14,028,32,10,29,221,17,12,54,147,25,13,09,079,15*7B
$GPGSV,4,2,16,15,44,098,34,18,24,322,,23,69,254,30,24,21,153,35*7C
$GPGSV,4,3,16,25,83,250,30,28,11,266,,29,26,009,37,32,02,218,08*7B
$GPGSV,4,4,16,36,52,277,31,40,86,351,,41,58,082,,49,32,274,*7E
$GLGSV,3,1,10,69,34,064,38,70,49,161,20,71,13,196,,73,55,214,34*67
$GLGSV,3,2,10,74,43,293,10,75,02,323,,80,15,164,35,84,05,001,09*62
$GLGSV,3,3,10,85,02,315,,,,,32*5D
$GNGLL,0419.86789,S,05539.91590,E,080110.00,A,A*68
$GNTXT,01,01,01,More than 100 frame errors, UART RX was disabled*70
$GNRMC,080111.00,A,0419.86789,S,05539.91588,E,0.011,,200525,,,A*79
$GNVTG,,T,,M,0.011,N,0.021,K,A*3E
$GNGGA,080111.00,0419.86789,S,05539.91588,E,1,12,0.81,7.0,M,-47.6,M,,*70
$GNGSA,A,3,05,12,24,15,25,23,13,29,10,,,,1.40,0.81,1.14*1E
$GNGSA,A,3,80,73,69,84,70,74,,,,,,,1.40,0.81,1.14*1F
$GPGSV,4,1,16,05,14,028,33,10,29,221,17,12,54,147,25,13,09,079,13*7C
$GPGSV,4,2,16,15,44,098,34,18,24,322,,23,69,254,29,24,21,153,35*74
$GPGSV,4,3,16,25,83,250,30,28,11,266,,29,26,009,37,32,02,218,07*74
$GPGSV,4,4,16,36,52,277,32,40,86,351,,41,58,082,,49,32,274,*7D
$GLGSV,3,1,10,69,34,064,37,70,49,161,20,71,13,196,,73,55,214,33*6F
$GLGSV,3,2,10,74,43,293,08,75,02,323,,80,15,164,34,84,05,001,10*62
$GLGSV,3,3,10,85,02,315,,,,,30*5F
$GNGLL,0419.86789,S,05539.91588,E,080111.00,A,A*60
$GNTXT,01,01,01,More than 100 frame errors, UART RX was disabled*70
$GNRMC,080112.00,A,0419.86789,S,05539.91588,E,0.015,,200525,,,A*7E
$GNVTG,,T,,M,0.015,N,0.028,K,A*33
$GNGGA,080112.00,0419.86789,S,05539.91588,E,1,12,0.81,6.9,M,-47.6,M,,*7B
$GNGSA,A,3,05,12,24,15,25,23,29,10,,,,,1.40,0.81,1.14*1C
$GNGSA,A,3,80,73,69,84,70,74,,,,,,,1.40,0.81,1.14*1F
$GPGSV,4,1,16,05,14,028,33,10,29,221,19,12,54,147,23,13,09,079,10*77
$GPGSV,4,2,16,15,44,098,34,18,24,322,15,23,69,254,29,24,21,153,36*73
$GPGSV,4,3,16,25,83,250,31,28,11,266,,29,26,009,37,32,02,218,08*7A
$GPGSV,4,4,16,36,52,277,31,40,86,351,,41,58,082,,49,32,274,*7E
$GLGSV,3,1,10,69,34,064,37,70,49,161,21,71,13,196,,73,55,214,33*6E
$GLGSV,3,2,10,74,43,293,11,75,02,323,,80,15,164,34,84,05,001,13*69
$GLGSV,3,3,10,85,02,315,,,,,29*57
$GNGLL,0419.86789,S,05539.91588,E,080112.00,A,A*63
$GNTXT,01,01,01,More than 100 frame errors, UART RX was disabled*70
$GNRMC,080113.00,A,0419.86788,S,05539.91589,E,0.029,,200525,,,A*70
$GNVTG,,T,,M,0.029,N,0.054,K,A*37
$GNGGA,080113.00,0419.86788,S,05539.91589,E,1,12,0.91,7.0,M,-47.6,M,,*73
$GNGSA,A,3,05,12,24,15,25,23,13,29,10,,,,1.47,0.91,1.16*1A
$GNGSA,A,3,80,73,69,84,70,74,,,,,,,1.47,0.91,1.16*1B
$GPGSV,4,1,16,05,14,028,33,10,29,221,20,12,54,147,24,13,09,079,13*79
$GPGSV,4,2,16,15,44,098,34,18,24,322,14,23,69,254,29,24,21,153,35*71
$GPGSV,4,3,16,25,83,250,31,28,11,266,,29,26,009,37,32,02,218,08*7A
$GPGSV,4,4,16,36,52,277,31,40,86,351,,41,58,082,,49,32,274,*7E
$GLGSV,3,1,10,69,34,064,36,70,49,161,21,71,13,196,,73,55,214,34*68
$GLGSV,3,2,10,74,43,293,10,75,02,323,,80,15,164,34,84,05,001,08*62
$GLGSV,3,3,10,85,02,315,,,,,29*57
$GNGLL,0419.86788,S,05539.91589,E,080113.00,A,A*62
$GNTXT,01,01,01,More than 100 frame errors, UART RX was disabled*70
$GNRMC,080114.00,A,0419.86787,S,05539.91591,E,0.034,,200525,,,A*7D
$GNVTG,,T,,M,0.034,N,0.062,K,A*3E
$GNGGA,080114.00,0419.86787,S,05539.91591,E,1,12,0.81,6.9,M,-47.6,M,,*7B
$GNGSA,A,3,05,12,24,15,25,23,13,29,10,,,,1.40,0.81,1.14*1E
$GNGSA,A,3,80,73,69,84,70,74,,,,,,,1.40,0.81,1.14*1F
$GPGSV,4,1,16,05,14,028,33,10,29,221,21,12,54,147,24,13,09,079,18*73
$GPGSV,4,2,16,15,44,098,34,18,24,322,14,23,69,254,28,24,21,153,35*70
$GPGSV,4,3,16,25,83,250,30,28,11,266,,29,26,009,37,32,02,218,08*7B
$GPGSV,4,4,16,36,52,277,31,40,86,351,,41,58,082,,49,32,274,*7E
$GLGSV,3,1,10,69,34,064,36,70,49,161,21,71,13,196,,73,55,214,34*68
$GLGSV,3,2,10,74,43,293,09,75,02,323,,80,15,164,34,84,05,001,11*62
$GLGSV,3,3,10,85,02,315,,,,,29*57
$GNGLL,0419.86787,S,05539.91591,E,080114.00,A,A*63
$GNTXT,01,01,01,More than 100 frame errors, UART RX was disabled*70
$GNRMC,080115.00,A,0419.86787,S,05539.91594,E,0.034,,200525,,,A*79
$GNVTG,,T,,M,0.034,N,0.064,K,A*38
$GNGGA,080115.00,0419.86787,S,05539.91594,E,1,12,0.91,7.0,M,-47.6,M,,*76
$GNGSA,A,3,05,12,24,15,25,23,13,29,10,,,,1.47,0.91,1.16*1A
$GNGSA,A,3,80,73,69,84,70,,,,,,,,1.47,0.91,1.16*18
$GPGSV,4,1,16,05,14,028,33,10,29,221,20,12,54,147,25,13,09,079,17*7C
$GPGSV,4,2,16,15,44,098,34,18,24,322,13,23,69,254,29,24,21,153,35*76
$GPGSV,4,3,16,25,83,250,30,28,11,266,,29,26,009,37,32,02,218,07*74
$GPGSV,4,4,16,36,52,277,31,40,86,351,,41,58,082,,49,32,274,*7E
$GLGSV,3,1,10,69,34,064,36,70,49,161,20,71,13,196,,73,55,214,33*6E
$GLGSV,3,2,10,74,43,293,06,75,02,323,,80,15,164,33,84,05,001,10*6B
$GLGSV,3,3,10,85,02,315,,,,,28*56
$GNGLL,0419.86787,S,05539.91594,E,080115.00,A,A*67
$GNTXT,01,01,01,More than 100 frame errors, UART RX was disabled*70
$GNRMC,080116.00,A,0419.86786,S,05539.91599,E,0.051,,200525,,,A*75
$GNVTG,,T,,M,0.051,N,0.095,K,A*35
$GNGGA,080116.00,0419.86786,S,05539.91599,E,1,12,0.78,7.0,M,-47.6,M,,*7E
$GNGSA,A,3,05,12,24,18,15,25,23,13,29,10,,,1.32,0.78,1.07*16
$GNGSA,A,3,80,73,69,84,70,74,,,,,,,1.32,0.78,1.07*1E
$GPGSV,4,1,16,05,14,028,33,10,29,221,20,12,54,147,24,13,09,079,20*79
$GPGSV,4,2,16,15,44,098,33,18,24,322,14,23,69,254,29,24,21,153,34*77
$GPGSV,4,3,16,25,83,250,30,28,11,266,,29,26,009,37,32,02,218,07*74
$GPGSV,4,4,16,36,52,277,31,40,86,351,,41,58,082,,49,32,274,*7E
$GLGSV,3,1,10,69,34,064,36,70,49,161,20,71,13,196,,73,55,214,33*6E
$GLGSV,3,2,10,74,43,293,08,75,02,323,,80,15,164,35,84,05,001,09*6B
$GLGSV,3,3,10,85,02,315,,,,,28*56
$GNGLL,0419.86786,S,05539.91599,E,080116.00,A,A*68
$GNTXT,01,01,01,More than 100 frame errors, UART RX was disabled*70
$GNRMC,080117.00,A,0419.86786,S,05539.91603,E,0.025,,200525,,,A*77
$GNVTG,,T,,M,0.025,N,0.047,K,A*39
$GNGGA,080117.00,0419.86786,S,05539.91603,E,1,12,0.73,7.0,M,-47.6,M,,*74
$GNGSA,A,3,05,12,24,18,15,25,23,13,29,10,,,1.30,0.73,1.07*1F
$GNGSA,A,3,80,73,69,84,70,74,,,,,,,1.30,0.73,1.07*17
$GPGSV,4,1,16,05,14,028,33,10,29,221,20,12,54,147,24,13,09,079,21*78
$GPGSV,4,2,16,15,44,098,34,18,24,322,14,23,69,254,29,24,21,153,34*70
$GPGSV,4,3,16,25,83,250,31,28,11,266,,29,26,009,37,32,02,218,07*75
$GPGSV,4,4,16,36,52,277,31,40,86,351,,41,58,082,,49,32,274,*7E
$GLGSV,3,1,10,69,34,064,36,70,49,161,20,71,13,196,,73,55,214,34*69
$GLGSV,3,2,10,74,43,293,08,75,02,323,,80,15,164,34,84,05,001,10*62
$GLGSV,3,3,10,85,02,315,,,,,28*56
$GNGLL,0419.86786,S,05539.91603,E,080117.00,A,A*69
$GNTXT,01,01,01,More than 100 frame errors, UART RX was disabled*70
$GNRMC,080118.00,A,0419.86786,S,05539.91604,E,0.023,,200525,,,A*79
$GNVTG,,T,,M,0.023,N,0.042,K,A*3A
$GNGGA,080118.00,0419.86786,S,05539.91604,E,1,12,0.73,7.0,M,-47.6,M,,*7C
$GNGSA,A,3,05,12,24,18,15,25,23,13,29,10,,,1.30,0.73,1.07*1F
$GNGSA,A,3,80,73,69,84,70,74,,,,,,,1.30,0.73,1.07*17
$GPGSV,4,1,16,05,14,028,29,10,29,221,19,12,54,147,25,13,09,079,21*78
$GPGSV,4,2,16,15,44,098,30,18,24,322,12,23,69,254,28,24,21,153,30*77
$GPGSV,4,3,16,25,83,250,23,28,11,266,,29,26,009,30,32,02,218,*76
$GPGSV,4,4,16,36,52,277,30,40,86,351,,41,58,082,,49,32,274,*7F
$GLGSV,3,1,10,69,34,064,32,70,49,161,19,71,13,196,,73,55,214,29*6B
$GLGSV,3,2,10,74,43,293,07,75,02,323,,80,15,164,29,84,05,001,09*69
$GLGSV,3,3,10,85,02,315,,,,,28*56
$GNGLL,0419.86786,S,05539.91604,E,080118.00,A,A*61
$GNTXT,01,01,01,More than 100 frame errors, UART RX was disabled*70
$GNRMC,080119.00,A,0419.86785,S,05539.91606,E,0.051,,200525,,,A*7C
$GNVTG,,T,,M,0.051,N,0.095,K,A*35
$GNGGA,080119.00,0419.86785,S,05539.91606,E,1,12,0.75,7.1,M,-47.6,M,,*7B
$GNGSA,A,3,05,12,24,18,15,25,23,13,29,10,,,1.29,0.75,1.05*13
$GNGSA,A,3,80,73,69,84,70,74,,,,,,,1.29,0.75,1.05*1B
$GPGSV,4,1,16,05,14,028,32,10,29,221,18,12,54,147,24,13,09,079,19*79
$GPGSV,4,2,16,15,44,098,33,18,24,322,13,23,69,254,30,24,21,153,33*7F
$GPGSV,4,3,16,25,83,250,30,28,11,266,,29,26,009,36,32,02,218,*72
$GPGSV,4,4,16,36,52,277,31,40,86,351,,41,58,082,,49,32,274,*7E
$GLGSV,3,1,10,69,34,064,35,70,49,161,20,71,13,196,,73,55,214,35*6B
$GLGSV,3,2,10,74,43,293,09,75,02,323,,80,15,164,33,84,05,001,08*6D
$GLGSV,3,3,10,85,02,315,,,,,27*59
$GNGLL,0419.86785,S,05539.91606,E,080119.00,A,A*61
$GNTXT,01,01,01,More than 100 frame errors, UART RX was disabled*70
$GNRMC,080120.00,A,0419.86783,S,05539.91617,E,0.024,,200525,,,A*72
$GNVTG,,T,,M,0.024,N,0.044,K,A*3B
$GNGGA,080120.00,0419.86783,S,05539.91617,E,1,12,0.71,7.0,M,-47.6,M,,*72
$GNGSA,A,3,05,12,24,18,15,25,23,13,29,10,,,1.27,0.71,1.05*19
$GNGSA,A,3,80,73,69,84,70,74,,,,,,,1.27,0.71,1.05*11
$GPGSV,4,1,16,05,14,028,31,10,29,221,19,12,54,147,25,13,09,079,19*7A
$GPGSV,4,2,16,15,44,098,32,18,24,322,14,23,69,254,32,24,21,153,34*7C
$GPGSV,4,3,16,25,83,250,30,28,11,266,,29,26,009,38,32,02,218,*7C
$GPGSV,4,4,16,36,52,277,32,40,86,351,,41,58,082,,49,32,274,*7D
$GLGSV,3,1,10,69,34,064,34,70,49,161,21,71,13,196,,73,55,214,37*69
$GLGSV,3,2,10,74,43,293,09,75,02,323,,80,15,164,33,84,05,001,08*6D
$GLGSV,3,3,10,85,02,315,,,,,28*56
$GNGLL,0419.86783,S,05539.91617,E,080120.00,A,A*6D
$GNTXT,01,01,01,More than 100 frame errors, UART RX was disabled*70
$GNRMC,080121.00,A,0419.86782,S,05539.91621,E,0.026,,200525,,,A*75
$GNVTG,,T,,M,0.026,N,0.047,K,A*3A
$GNGGA,080121.00,0419.86782,S,05539.91621,E,1,12,0.71,7.0,M,-47.6,M,,*77
$GNGSA,A,3,05,12,24,18,15,25,23,13,29,10,,,1.27,0.71,1.05*19
$GNGSA,A,3,80,73,69,84,70,74,,,,,,,1.27,0.71,1.05*11
$GPGSV,4,1,16,05,14,028,32,10,29,221,18,12,54,147,27,13,09,079,17*74
$GPGSV,4,2,16,15,44,098,32,18,24,322,12,23,69,254,31,24,21,153,34*79
$GPGSV,4,3,16,25,83,250,30,28,11,266,,29,26,009,38,32,02,218,*7C
$GPGSV,4,4,16,36,52,277,32,40,86,351,,41,58,082,,49,32,274,*7D
$GLGSV,3,1,10,69,34,064,35,70,49,161,21,71,13,196,,73,55,214,36*69
$GLGSV,3,2,10,74,43,293,09,75,02,323,,80,15,164,33,84,05,001,10*64
$GLGSV,3,3,10,85,02,315,,,,,30*5F
$GNGLL,0419.86782,S,05539.91621,E,080121.00,A,A*68
$GNTXT,01,01,01,More than 100 frame errors, UART RX was disabled*70
$GNRMC,080122.00,A,0419.86781,S,05539.91627,E,0.031,,200525,,,A*75
$GNVTG,,T,,M,0.031,N,0.057,K,A*3D
$GNGGA,080122.00,0419.86781,S,05539.91627,E,1,12,0.89,7.1,M,-47.6,M,,*77
$GNGSA,A,3,05,12,24,15,25,23,13,29,10,,,,1.45,0.89,1.14*13
$GNGSA,A,3,80,73,69,84,70,74,,,,,,,1.45,0.89,1.14*12
$GPGSV,4,1,16,05,14,028,32,10,29,221,17,12,54,147,27,13,09,079,15*79
$GPGSV,4,2,16,15,44,098,31,18,24,322,09,23,69,254,31,24,21,153,34*70
$GPGSV,4,3,16,25,83,250,30,28,11,266,,29,26,009,38,32,02,218,*7C
$GPGSV,4,4,16,36,52,277,32,40,86,351,,41,58,082,,49,32,274,*7D
$GLGSV,3,1,10,69,34,064,34,70,49,161,21,71,13,196,,73,55,214,36*68
$GLGSV,3,2,10,74,43,293,09,75,02,323,,80,15,164,34,84,05,001,11*62
$GLGSV,3,3,10,85,02,315,,,,,31*5E
$GNGLL,0419.86781,S,05539.91627,E,080122.00,A,A*6E
$GNTXT,01,01,01,More than 100 frame errors, UART RX was disabled*70
$GNRMC,080123.00,A,0419.86780,S,05539.91634,E,0.058,,200525,,,A*78
$GNVTG,,T,,M,0.058,N,0.107,K,A*36
$GNGGA,080123.00,0419.86780,S,05539.91634,E,1,12,0.79,7.1,M,-47.6,M,,*7A
$GNGSA,A,3,05,12,24,15,25,23,13,29,10,,,,1.37,0.79,1.12*1F
$GNGSA,A,3,80,73,69,84,70,74,,,,,,,1.37,0.79,1.12*1E
$GPGSV,4,1,16,05,14,028,33,10,29,221,16,12,54,147,27,13,09,079,16*7A
$GPGSV,4,2,16,15,44,098,32,18,24,322,09,23,69,254,30,24,21,153,34*72
$GPGSV,4,3,16,25,83,250,30,28,11,266,,29,26,009,38,32,02,218,*7C
$GPGSV,4,4,16,36,52,277,32,40,86,351,,41,58,082,,49,32,274,*7D
$GLGSV,3,1,10,69,34,064,35,70,49,161,22,71,13,196,,73,55,214,36*6A
$GLGSV,3,2,10,74,43,293,12,75,02,323,,80,15,164,34,84,05,001,09*61
$GLGSV,3,3,10,85,02,315,,,,,29*57
$GNGLL,0419.86780,S,05539.91634,E,080123.00,A,A*6C
$GNTXT,01,01,01,More than 100 frame errors, UART RX was disabled*70
$GNRMC,080124.00,A,0419.86781,S,05539.91637,E,0.137,,200525,,,A*75
$GNVTG,,T,,M,0.137,N,0.254,K,A*3B
$GNGGA,080124.00,0419.86781,S,05539.91637,E,1,12,0.79,7.1,M,-47.6,M,,*7F
$GNGSA,A,3,05,12,24,15,25,23,13,29,10,,,,1.37,0.79,1.12*1F
$GNGSA,A,3,80,73,69,70,74,,,,,,,,1.37,0.79,1.12*12
$GPGSV,4,1,16,05,14,028,33,10,29,221,18,12,54,147,27,13,09,079,15*77
$GPGSV,4,2,16,15,44,098,33,18,24,322,08,23,69,254,30,24,21,153,35*73
$GPGSV,4,3,16,25,83,250,30,28,11,266,,29,26,009,38,32,02,218,*7C
$GPGSV,4,4,16,36,52,277,32,40,86,351,,41,58,082,,49,32,274,*7D
$GLGSV,3,1,10,69,34,064,33,70,49,161,21,71,13,196,,73,55,214,34*6D
$GLGSV,3,2,10,74,43,293,09,75,02,323,,80,15,164,34,84,05,001,05*67
$GLGSV,3,3,10,85,02,315,,,,,28*56
$GNGLL,0419.86781,S,05539.91637,E,080124.00,A,A*69
$GNTXT,01,01,01,More than 100 frame errors, UART RX was disabled*70
$GNRMC,080125.00,A,0419.86782,S,05539.91637,E,0.029,,200525,,,A*79
$GNVTG,,T,,M,0.029,N,0.054,K,A*37
$GNGGA,080125.00,0419.86782,S,05539.91637,E,1,12,0.75,6.9,M,-47.6,M,,*78
$GNGSA,A,3,05,12,24,18,15,25,23,13,29,10,,,1.29,0.75,1.05*13
$GNGSA,A,3,80,73,69,84,70,74,,,,,,,1.29,0.75,1.05*1B
$GPGSV,4,1,16,05,14,028,33,10,29,221,18,12,54,147,26,13,09,079,15*76
$GPGSV,4,2,16,15,44,098,33,18,24,322,08,23,69,254,30,24,21,153,35*73
$GPGSV,4,3,16,25,83,250,30,28,11,266,,29,26,009,38,32,02,218,*7C
$GPGSV,4,4,16,36,52,277,32,40,86,351,,41,58,082,,49,32,274,*7D
$GLGSV,3,1,10,69,34,064,35,70,49,161,21,71,13,196,,73,55,214,34*6B
$GLGSV,3,2,10,74,43,293,12,75,02,323,,80,15,164,35,84,05,001,08*61
$GLGSV,3,3,10,85,02,315,,,,,28*56
$GNGLL,0419.86782,S,05539.91637,E,080125.00,A,A*6B
$GNTXT,01,01,01,More than 100 frame errors, UART RX was disabled*70
$GNRMC,080126.00,A,0419.86783,S,05539.91637,E,0.044,,200525,,,A*70
$GNVTG,,T,,M,0.044,N,0.081,K,A*34
$GNGGA,080126.00,0419.86783,S,05539.91637,E,1,12,0.71,6.8,M,-47.6,M,,*7F
$GNGSA,A,3,05,12,24,18,15,25,23,13,29,10,,,1.27,0.71,1.05*19
$GNGSA,A,3,80,73,69,84,70,74,,,,,,,1.27,0.71,1.05*11
$GPGSV,4,1,16,05,14,028,33,10,29,221,19,12,54,147,26,13,09,079,14*76
$GPGSV,4,2,16,15,44,098,32,18,24,322,12,23,69,254,31,24,21,153,34*79
$GPGSV,4,3,16,25,83,250,31,28,11,266,,29,26,009,38,32,02,218,*7D
$GPGSV,4,4,16,36,52,277,32,40,86,351,,41,58,082,,49,32,274,*7D
$GLGSV,3,1,10,69,34,064,35,70,49,161,21,71,13,196,,73,55,214,34*6B
$GLGSV,3,2,10,74,43,293,09,75,02,323,,80,15,164,35,84,05,001,13*61
$GLGSV,3,3,10,85,02,315,,,,,28*56
$GNGLL,0419.86783,S,05539.91637,E,080126.00,A,A*69
$GNTXT,01,01,01,More than 100 frame errors, UART RX was disabled*70
$GNRMC,080127.00,A,0419.86784,S,05539.91638,E,0.064,,200525,,,A*7B
$GNVTG,,T,,M,0.064,N,0.119,K,A*36
$GNGGA,080127.00,0419.86784,S,05539.91638,E,1,12,0.71,6.7,M,-47.6,M,,*79
$GNGSA,A,3,05,12,24,18,15,25,23,13,29,10,,,1.27,0.71,1.05*19
$GNGSA,A,3,80,73,69,84,70,74,,,,,,,1.27,0.71,1.05*11
$GPGSV,4,1,16,05,14,028,34,10,29,221,21,12,54,147,26,13,09,079,18*76
$GPGSV,4,2,16,15,44,098,32,18,24,322,11,23,69,254,30,24,21,153,35*7A
$GPGSV,4,3,16,25,83,250,31,28,11,266,,29,26,009,38,32,02,218,*7D
$GPGSV,4,4,16,36,52,277,32,40,86,351,,41,58,082,,49,32,274,*7D
$GLGSV,3,1,10,69,34,064,35,70,49,161,21,71,13,196,,73,55,214,35*6A
$GLGSV,3,2,10,74,43,293,10,75,02,323,,80,15,164,35,84,05,001,09*62
$GLGSV,3,3,10,85,02,315,,,,,27*59
$GNGLL,0419.86784,S,05539.91638,E,080127.00,A,A*60
$GNTXT,01,01,01,More than 100 frame errors, UART RX was disabled*70
$GNRMC,080128.00,A,0419.86785,S,05539.91637,E,0.016,,200525,,,A*7F
$GNVTG,,T,,M,0.016,N,0.030,K,A*39
$GNGGA,080128.00,0419.86785,S,05539.91637,E,1,12,0.89,6.6,M,-47.6,M,,*7E
$GNGSA,A,3,05,12,24,18,15,25,23,13,29,10,,,1.45,0.89,1.14*1A
$GNGSA,A,3,80,73,69,84,70,74,,,,,,,1.45,0.89,1.14*12
$GPGSV,4,1,16,05,14,028,33,10,29,221,22,12,54,147,25,13,09,079,18*71
$GPGSV,4,2,16,15,44,098,32,18,24,322,11,23,69,254,30,24,21,153,35*7A
$GPGSV,4,3,16,25,83,250,31,28,11,266,,29,26,009,38,32,02,218,*7D
$GPGSV,4,4,16,36,52,277,31,40,86,351,,41,58,082,,49,32,274,*7E
$GLGSV,3,1,10,69,34,064,36,70,49,161,21,71,13,196,,73,55,214,34*68
$GLGSV,3,2,10,74,43,293,07,75,02,323,,80,15,164,35,84,05,001,10*6C
$GLGSV,3,3,10,85,02,315,,,,,26*58
$GNGLL,0419.86785,S,05539.91637,E,080128.00,A,A*61
$GNTXT,01,01,01,More than 100 frame errors, UART RX was disabled*70
$GNRMC,080129.00,A,0419.86785,S,05539.91638,E,0.013,,200525,,,A*74
$GNVTG,,T,,M,0.013,N,0.024,K,A*39
$GNGGA,080129.00,0419.86785,S,05539.91638,E,1,12,0.71,6.5,M,-47.6,M,,*74
$GNGSA,A,3,05,12,24,18,15,25,23,13,29,10,,,1.27,0.71,1.05*19
$GNGSA,A,3,80,73,69,84,70,74,,,,,,,1.27,0.71,1.05*11
$GPGSV,4,1,16,05,14,028,33,10,29,221,21,12,54,147,25,13,09,079,17*7D
$GPGSV,4,2,16,15,44,098,32,18,24,322,10,23,69,254,30,24,21,153,35*7B
$GPGSV,4,3,16,25,83,250,30,28,11,266,,29,26,009,38,32,02,218,*7C
$GPGSV,4,4,16,36,52,277,32,40,86,351,,41,58,082,,49,32,274,*7D
$GLGSV,3,1,10,69,34,064,33,70,49,161,21,71,13,196,,73,55,214,34*6D
$GLGSV,3,2,10,74,43,293,09,75,02,323,,80,15,164,35,84,05,001,14*66
$GLGSV,3,3,10,85,02,315,,,,,28*56
$GNGLL,0419.86785,S,05539.91638,E,080129.00,A,A*6F
$GNTXT,01,01,01,More than 100 frame errors, UART RX was disabled*70
$GNRMC,080130.00,A,0419.86786,S,05539.91639,E,0.045,,200525,,,A*7D
$GNVTG,,T,,M,0.045,N,0.084,K,A*30
$GNGGA,080130.00,0419.86786,S,05539.91639,E,1,12,0.71,6.5,M,-47.6,M,,*7E
$GNGSA,A,3,05,12,24,18,15,25,23,13,29,10,,,1.27,0.71,1.05*19
$GNGSA,A,3,80,73,69,84,70,74,,,,,,,1.27,0.71,1.05*11
$GPGSV,4,1,16,05,14,028,33,10,29,221,19,12,54,147,23,13,09,079,14*73
$GPGSV,4,2,16,15,44,098,32,18,24,322,08,23,69,254,30,24,21,153,34*73
$GPGSV,4,3,16,25,83,250,31,28,11,266,,29,26,009,38,32,02,218,*7D
$GPGSV,4,4,16,36,52,277,32,40,86,351,,41,58,082,,49,32,274,*7D
$GLGSV,3,1,10,69,34,064,35,70,49,161,21,71,13,196,,73,55,214,34*6B
$GLGSV,3,2,10,74,43,293,13,75,02,323,,80,15,164,34,84,05,001,08*61
$GLGSV,3,3,10,85,02,315,,,,,27*59
$GNGLL,0419.86786,S,05539.91639,E,080130.00,A,A*65
$GNTXT,01,01,01,More than 100 frame errors, UART RX was disabled*70
$GNRMC,080131.00,A,0419.86786,S,05539.91641,E,0.030,,200525,,,A*71
$GNVTG,,T,,M,0.030,N,0.056,K,A*3D
$GNGGA,080131.00,0419.86786,S,05539.91641,E,1,12,0.89,6.4,M,-47.6,M,,*76
$GNGSA,A,3,05,12,24,18,15,25,23,13,29,10,,,1.45,0.89,1.14*1A
$GNGSA,A,3,80,73,69,84,70,74,,,,,,,1.45,0.89,1.14*12
$GPGSV,4,1,16,05,14,028,34,10,29,221,20,12,54,147,23,13,09,079,18*72
$GPGSV,4,2,16,15,44,098,33,18,24,322,11,23,69,254,30,24,21,153,33*7D
$GPGSV,4,3,16,25,83,250,31,28,11,266,,29,26,009,38,32,02,218,*7D
$GPGSV,4,4,16,36,52,277,32,40,86,351,,41,58,082,,49,32,274,*7D
$GLGSV,3,1,10,69,34,064,34,70,49,161,20,71,13,196,,73,55,214,31*6E
$GLGSV,3,2,10,74,43,293,09,75,02,323,,80,15,164,32,84,05,001,13*66
$GLGSV,3,3,10,85,02,315,,,,,26*58
$GNGLL,0419.86786,S,05539.91641,E,080131.00,A,A*6B
$GNTXT,01,01,01,More than 100 frame errors, UART RX was disabled*70
$GNRMC,080132.00,A,0419.86787,S,05539.91639,E,0.023,,200525,,,A*7E
$GNVTG,,T,,M,0.023,N,0.043,K,A*3B
$GNGGA,080132.00,0419.86787,S,05539.91639,E,1,12,0.71,6.4,M,-47.6,M,,*7C
$GNGSA,A,3,05,12,24,18,15,25,23,13,29,10,,,1.27,0.71,1.05*19
$GNGSA,A,3,80,73,69,84,70,74,,,,,,,1.27,0.71,1.05*11
$GPGSV,4,1,16,05,14,028,33,10,29,221,22,12,54,147,25,13,09,078,22*79
$GPGSV,4,2,16,15,44,098,33,18,24,322,10,23,69,254,30,24,21,153,34*7B
$GPGSV,4,3,16,25,83,250,31,28,11,266,,29,26,009,38,32,02,218,*7D
$GPGSV,4,4,16,36,52,277,32,40,86,351,,41,58,082,,49,32,274,*7D
$GLGSV,3,1,10,69,34,064,35,70,49,161,19,71,13,196,,73,55,214,32*66
$GLGSV,3,2,10,74,43,293,10,75,02,323,,80,15,164,33,84,05,001,11*6D
$GLGSV,3,3,10,85,02,315,,,,,27*59
$GNGLL,0419.86787,S,05539.91639,E,080132.00,A,A*66
$GNTXT,01,01,01,More than 100 frame errors, UART RX was disabled*70
$GNRMC,080133.00,A,0419.86788,S,05539.91637,E,0.026,,200525,,,A*7B
$GNVTG,,T,,M,0.026,N,0.049,K,A*34
$GNGGA,080133.00,0419.86788,S,05539.91637,E,1,12,0.71,6.3,M,-47.6,M,,*7B
$GNGSA,A,3,05,12,24,18,15,25,23,13,29,10,,,1.27,0.71,1.05*19
$GNGSA,A,3,80,73,69,84,70,74,,,,,,,1.27,0.71,1.05*11
$GPGSV,4,1,16,05,14,028,33,10,29,221,23,12,54,147,26,13,09,078,24*7D
$GPGSV,4,2,16,15,44,098,32,18,24,322,11,23,69,254,30,24,21,153,35*7A
$GPGSV,4,3,16,25,83,250,31,28,11,266,,29,26,009,38,32,02,218,*7D
$GPGSV,4,4,16,36,52,277,32,40,86,351,,41,58,082,,49,32,274,*7D
$GLGSV,3,1,10,69,34,064,37,70,49,161,18,71,13,196,,73,55,214,33*64
$GLGSV,3,2,10,74,43,293,10,75,02,323,,80,15,164,33,84,05,001,08*65
$GLGSV,3,3,10,85,02,315,,,,,27*59
$GNGLL,0419.86788,S,05539.91637,E,080133.00,A,A*66
$GNTXT,01,01,01,More than 100 frame errors, UART RX was disabled*70
$GNRMC,080134.00,A,0419.86788,S,05539.91634,E,0.021,,200525,,,A*78
$GNVTG,,T,,M,0.021,N,0.038,K,A*35
$GNGGA,080134.00,0419.86788,S,05539.91634,E,1,12,0.79,6.3,M,-47.6,M,,*77
$GNGSA,A,3,05,12,24,15,25,23,13,29,10,,,,1.37,0.79,1.12*1F
$GNGSA,A,3,80,73,69,84,70,74,,,,,,,1.37,0.79,1.12*1E
$GPGSV,4,1,16,05,14,028,32,10,29,221,22,12,54,147,27,13,09,078,25*7D
$GPGSV,4,2,16,15,44,098,32,18,24,322,06,23,69,254,30,24,21,153,34*7D
$GPGSV,4,3,16,25,83,250,31,28,11,266,,29,26,009,38,32,02,218,*7D
$GPGSV,4,4,16,36,52,277,33,40,86,351,,41,58,082,,49,32,274,*7C
$GLGSV,3,1,10,69,34,064,36,70,49,161,20,71,13,196,,73,55,214,34*69
$GLGSV,3,2,10,74,43,293,11,75,02,323,,80,15,164,34,84,05,001,11*6B
$GLGSV,3,3,10,85,02,315,,,,,25*5B
$GNGLL,0419.86788,S,05539.91634,E,080134.00,A,A*62
$GNTXT,01,01,01,More than 100 frame errors, UART RX was disabled*70
$GNRMC,080135.00,A,0419.86788,S,05539.91632,E,0.047,,200525,,,A*7F
$GNVTG,,T,,M,0.047,N,0.087,K,A*31
$GNGGA,080135.00,0419.86788,S,05539.91632,E,1,12,0.71,6.2,M,-47.6,M,,*79
$GNGSA,A,3,05,12,24,18,15,25,23,13,29,10,,,1.27,0.71,1.05*19
$GNGSA,A,3,80,73,69,84,70,74,,,,,,,1.27,0.71,1.05*11
$GPGSV,4,1,16,05,14,028,32,10,29,221,21,12,54,147,27,13,09,078,24*7F
$GPGSV,4,2,16,15,44,098,33,18,24,322,11,23,69,254,29,24,21,153,34*72
$GPGSV,4,3,16,25,83,250,31,28,11,266,,29,26,009,38,32,02,218,*7D
$GPGSV,4,4,16,36,52,277,33,40,86,351,,41,58,082,,49,32,274,*7C
$GLGSV,3,1,10,69,34,064,36,70,49,161,19,71,13,196,,73,55,214,34*63
$GLGSV,3,2,10,74,43,293,13,75,02,323,,80,15,164,34,84,05,001,07*6E
$GLGSV,3,3,10,85,02,315,,,,,25*5B
$GNGLL,0419.86788,S,05539.91632,E,080135.00,A,A*65
$GNTXT,01,01,01,More than 100 frame errors, UART RX was disabled*70
$GNRMC,080136.00,A,0419.86788,S,05539.91631,E,0.111,,200525,,,A*7D
$GNVTG,,T,,M,0.111,N,0.205,K,A*3B
$GNGGA,080136.00,0419.86788,S,05539.91631,E,1,12,0.71,6.2,M,-47.6,M,,*79
$GNGSA,A,3,05,12,24,18,15,25,23,13,29,10,,,1.27,0.71,1.05*19
$GNGSA,A,3,80,73,69,84,70,74,,,,,,,1.27,0.71,1.05*11
$GPGSV,4,1,16,05,14,028,32,10,29,221,20,12,54,147,26,13,09,078,23*78
$GPGSV,4,2,16,15,44,098,33,18,24,322,13,23,69,254,29,24,21,153,33*77
$GPGSV,4,3,16,25,83,250,30,28,11,266,,29,26,009,38,32,02,218,*7C
$GPGSV,4,4,16,36,52,277,32,40,86,351,,41,58,082,,49,32,274,*7D
$GLGSV,3,1,10,69,34,064,36,70,49,161,20,71,13,196,,73,55,214,34*69
$GLGSV,3,2,10,74,43,293,07,75,02,323,,80,15,164,33,84,05,001,09*62
$GLGSV,3,3,10,85,02,315,,,,,24*5A
$GNGLL,0419.86788,S,05539.91631,E,080136.00,A,A*65
$GNTXT,01,01,01,More than 100 frame errors, UART RX was disabled*70
$GNRMC,080137.00,A,0419.86789,S,05539.91631,E,0.060,,200525,,,A*7A
$GNVTG,,T,,M,0.060,N,0.111,K,A*3A
$GNGGA,080137.00,0419.86789,S,05539.91631,E,1,12,0.89,6.1,M,-47.6,M,,*7D
$GNGSA,A,3,05,12,24,18,15,25,23,13,29,10,,,1.45,0.89,1.14*1A
$GNGSA,A,3,80,73,69,84,70,74,,,,,,,1.45,0.89,1.14*12
$GPGSV,4,1,16,05,14,028,32,10,29,221,21,12,54,147,24,13,09,078,21*79
$GPGSV,4,2,16,15,44,098,32,18,24,322,11,23,69,254,29,24,21,153,32*75
$GPGSV,4,3,16,25,83,250,30,28,11,266,,29,26,009,38,32,02,218,*7C
$GPGSV,4,4,16,36,52,277,32,40,86,351,,41,58,082,,49,32,274,*7D
$GLGSV,3,1,10,69,34,064,36,70,49,161,20,71,13,196,,73,55,214,34*69
$GLGSV,3,2,10,74,43,293,11,75,02,323,,80,15,164,33,84,05,001,09*65
$GLGSV,3,3,10,85,02,315,,,,,25*5B
$GNGLL,0419.86789,S,05539.91631,E,080137.00,A,A*65
$GNTXT,01,01,01,More than 100 frame errors, UART RX was disabled*70
$GNRMC,080138.00,A,0419.86788,S,05539.91634,E,0.045,,200525,,,A*76
$GNVTG,,T,,M,0.045,N,0.083,K,A*37
$GNGGA,080138.00,0419.86788,S,05539.91634,E,1,12,0.71,6.1,M,-47.6,M,,*71
$GNGSA,A,3,05,12,24,18,15,25,23,13,29,10,,,1.27,0.71,1.05*19
$GNGSA,A,3,80,73,69,84,70,74,,,,,,,1.27,0.71,1.05*11
$GPGSV,4,1,16,05,14,028,27,10,29,221,21,12,54,147,22,13,09,078,20*7A
$GPGSV,4,2,16,15,44,098,26,18,24,322,09,23,69,254,21,24,21,153,28*7A
$GPGSV,4,3,16,25,83,250,24,28,11,266,,29,26,009,30,32,02,218,*71
$GPGSV,4,4,16,36,52,277,27,40,86,351,,41,58,082,,49,32,274,*79
$GLGSV,3,1,10,69,34,064,29,70,49,161,20,71,13,196,,73,55,214,30*63
$GLGSV,3,2,10,74,43,293,10,75,02,323,,80,15,164,29,84,05,001,10*67
$GLGSV,3,3,10,85,02,315,,,,,23*5D
$GNGLL,0419.86788,S,05539.91634,E,080138.00,A,A*6E
$GNTXT,01,01,01,More than 100 frame errors, UART RX was disabled*70
$GNRMC,080139.00,A,0419.86789,S,05539.91635,E,0.037,,200525,,,A*72
$GNVTG,,T,,M,0.037,N,0.069,K,A*36
$GNGGA,080139.00,0419.86789,S,05539.91635,E,1,12,0.79,6.0,M,-47.6,M,,*79
$GNGSA,A,3,05,12,24,15,25,23,13,29,10,,,,1.37,0.79,1.12*1F
$GNGSA,A,3,80,73,69,70,74,,,,,,,,1.37,0.79,1.12*12
$GPGSV,4,1,16,05,14,028,27,10,29,221,20,12,54,147,19,13,09,078,20*73
$GPGSV,4,2,16,15,44,098,27,18,24,322,06,23,69,254,24,24,21,153,29*70
$GPGSV,4,3,16,25,83,250,25,28,11,266,,29,26,009,35,32,02,218,*75
$GPGSV,4,4,16,36,52,277,29,40,86,351,,41,58,082,,49,32,274,*77
$GLGSV,3,1,10,69,34,064,36,70,49,161,17,71,13,196,,73,55,214,34*6D
$GLGSV,3,2,10,74,43,293,08,75,02,323,,80,15,164,33,84,05,001,07*63
$GLGSV,3,3,10,85,02,315,,,,,21*5F
$GNGLL,0419.86789,S,05539.91635,E,080139.00,A,A*6F
$GNTXT,01,01,01,More than 100 frame errors, UART RX was disabled*70
$GNRMC,080140.00,A,0419.86790,S,05539.91637,E,0.051,,200525,,,A*76
$GNVTG,,T,,M,0.051,N,0.095,K,A*35
$GNGGA,080140.00,0419.86790,S,05539.91637,E,1,12,0.79,6.0,M,-47.6,M,,*7D
$GNGSA,A,3,05,12,24,18,15,25,23,13,29,10,,,1.37,0.79,1.12*16
$GNGSA,A,3,80,73,69,84,70,74,,,,,,,1.37,0.79,1.12*1E
$GPGSV,4,1,16,05,14,028,33,10,29,221,21,12,54,147,21,13,09,078,22*7E
$GPGSV,4,2,16,15,44,098,30,18,24,322,10,23,69,254,27,24,21,153,32*78
$GPGSV,4,3,16,25,83,250,29,28,11,266,,29,26,009,38,32,02,218,*74
$GPGSV,4,4,16,36,52,277,31,40,86,351,,41,58,082,,49,32,274,*7E
$GLGSV,3,1,10,69,34,064,37,70,49,161,17,71,13,196,,73,55,214,34*6C
$GLGSV,3,2,10,74,43,293,11,75,02,323,,80,15,164,34,84,05,001,07*6C
$GLGSV,3,3,10,85,02,315,,,,,24*5A
$GNGLL,0419.86790,S,05539.91637,E,080140.00,A,A*6B
$GNTXT,01,01,01,More than 100 frame errors, UART RX was disabled*70
$GNRMC,080141.00,A,0419.86790,S,05539.91632,E,0.075,,200525,,,A*74
$GNVTG,,T,,M,0.075,N,0.139,K,A*34
$GNGGA,080141.00,0419.86790,S,05539.91632,E,1,12,0.71,5.9,M,-47.6,M,,*7B
$GNGSA,A,3,05,12,24,18,15,25,23,13,29,10,,,1.27,0.71,1.05*19
$GNGSA,A,3,80,73,69,84,70,74,,,,,,,1.27,0.71,1.05*11
$GPGSV,4,1,16,05,14,028,33,10,29,221,22,12,54,147,21,13,09,078,24*7B
$GPGSV,4,2,16,15,44,098,35,18,24,322,08,23,69,255,28,24,21,153,34*7C
$GPGSV,4,3,16,25,83,250,30,28,11,266,,29,26,009,38,32,02,218,*7C
$GPGSV,4,4,16,36,52,277,32,40,86,351,,41,58,082,,49,32,274,*7D
$GLGSV,3,1,10,69,34,064,36,70,49,161,17,71,13,196,,73,55,214,35*6C
$GLGSV,3,2,10,74,43,293,11,75,02,323,,80,15,164,34,84,05,001,10*6A
$GLGSV,3,3,10,85,02,315,,,,,22*5C
$GNGLL,0419.86790,S,05539.91632,E,080141.00,A,A*6F
$GNTXT,01,01,01,More than 100 frame errors, UART RX was disabled*70
$GNRMC,080142.00,A,0419.86790,S,05539.91633,E,0.035,,200525,,,A*72
$GNVTG,,T,,M,0.035,N,0.065,K,A*38
$GNGGA,080142.00,0419.86790,S,05539.91633,E,1,12,0.71,6.1,M,-47.6,M,,*72
$GNGSA,A,3,05,12,24,18,15,25,23,13,29,10,,,1.27,0.71,1.05*19
$GNGSA,A,3,80,73,69,84,70,74,,,,,,,1.27,0.71,1.05*11
$GPGSV,4,1,16,05,14,028,34,10,29,221,24,12,54,147,18,13,09,078,26*72
$GPGSV,4,2,16,15,44,098,33,18,24,322,12,23,69,255,30,24,21,153,34*78
$GPGSV,4,3,16,25,83,250,31,28,11,266,,29,26,009,38,32,02,218,*7D
$GPGSV,4,4,16,36,52,277,32,40,86,351,,41,58,082,,49,32,274,*7D
$GLGSV,3,1,10,69,34,064,37,70,49,161,17,71,13,196,,73,55,214,34*6C
$GLGSV,3,2,10,74,43,293,12,75,02,323,,80,15,164,34,84,05,001,09*61
$GLGSV,3,3,10,85,02,315,,,,,20*5E
$GNGLL,0419.86790,S,05539.91633,E,080142.00,A,A*6D
$GNTXT,01,01,01,More than 100 frame errors, UART RX was disabled*70
$GNRMC,080143.00,A,0419.86791,S,05539.91635,E,0.092,,200525,,,A*79
$GNVTG,,T,,M,0.092,N,0.171,K,A*31
$GNGGA,080143.00,0419.86791,S,05539.91635,E,1,12,0.75,6.0,M,-47.6,M,,*71
$GNGSA,A,3,05,12,24,18,15,25,23,13,29,10,,,1.29,0.75,1.05*13
$GNGSA,A,3,80,73,69,84,70,74,,,,,,,1.29,0.75,1.05*1B
$GPGSV,4,1,16,05,14,028,33,10,29,221,24,12,54,147,27,13,09,078,26*79
$GPGSV,4,2,16,15,44,098,33,18,24,322,09,23,69,255,29,24,21,153,34*7A
$GPGSV,4,3,16,25,83,246,31,28,11,266,,29,26,009,39,32,02,218,*7B
$GPGSV,4,4,16,36,52,277,33,40,86,351,,41,58,082,,49,32,274,*7C
$GLGSV,3,1,10,69,34,064,36,70,49,161,18,71,13,196,,73,55,214,34*62
$GLGSV,3,2,10,74,43,293,12,75,02,323,,80,15,164,37,84,05,001,11*6B
$GLGSV,3,3,10,85,02,315,,,,,23*5D
$GNGLL,0419.86791,S,05539.91635,E,080143.00,A,A*6B
$GNTXT,01,01,01,More than 100 frame errors, UART RX was disabled*70
$GNRMC,080144.00,A,0419.86791,S,05539.91636,E,0.024,,200525,,,A*70
$GNVTG,,T,,M,0.024,N,0.044,K,A*3B
$GNGGA,080144.00,0419.86791,S,05539.91636,E,1,12,0.71,6.1,M,-47.6,M,,*70
$GNGSA,A,3,05,12,24,18,15,25,23,13,29,10,,,1.27,0.71,1.05*19
$GNGSA,A,3,80,73,69,84,70,74,,,,,,,1.27,0.71,1.05*11
$GPGSV,4,1,16,05,14,028,34,10,29,221,23,12,54,147,26,13,09,078,27*79
$GPGSV,4,2,16,15,44,098,33,18,24,322,09,23,69,255,29,24,21,153,34*7A
$GPGSV,4,3,16,25,83,246,31,28,11,266,,29,26,009,38,32,02,218,*7A
$GPGSV,4,4,16,36,52,277,33,40,86,351,,41,58,082,,49,32,274,*7C
$GLGSV,3,1,10,69,34,064,37,70,49,161,17,71,13,196,,73,55,214,35*6D
$GLGSV,3,2,10,74,43,293,09,75,02,323,,80,15,164,34,84,05,001,10*63
$GLGSV,3,3,10,85,02,315,,,,,25*5B
$GNGLL,0419.86791,S,05539.91636,E,080144.00,A,A*6F
$GNTXT,01,01,01,More than 100 frame errors, UART RX was disabled*70
$GNRMC,080145.00,A,0419.86791,S,05539.91637,E,0.014,,200525,,,A*73
$GNVTG,,T,,M,0.014,N,0.026,K,A*3C
$GNGGA,080145.00,0419.86791,S,05539.91637,E,1,12,0.71,6.2,M,-47.6,M,,*73
$GNGSA,A,3,05,12,24,18,15,25,23,13,29,10,,,1.27,0.71,1.05*19
$GNGSA,A,3,80,73,69,84,70,74,,,,,,,1.27,0.71,1.05*11
$GPGSV,4,1,16,05,14,028,34,10,29,221,23,12,54,147,26,13,09,078,27*79
$GPGSV,4,2,16,15,44,098,33,18,24,322,11,23,69,255,30,24,21,153,34*7B
$GPGSV,4,3,16,25,83,246,32,28,11,266,,29,26,009,38,32,02,218,*79
$GPGSV,4,4,16,36,52,277,32,40,86,351,,41,58,082,,49,32,274,*7D
$GLGSV,3,1,10,69,34,064,37,70,49,161,17,71,13,196,,73,55,214,34*6C
$GLGSV,3,2,10,74,43,293,11,75,02,323,,80,15,164,33,84,05,001,07*6B
$GLGSV,3,3,10,85,02,315,,,,,26*58
$GNGLL,0419.86791,S,05539.91637,E,080145.00,A,A*6F
$GNTXT,01,01,01,More than 100 frame errors, UART RX was disabled*70
$GNRMC,080146.00,A,0419.86790,S,05539.91638,E,0.021,,200525,,,A*78
$GNVTG,,T,,M,0.021,N,0.040,K,A*3A
$GNGGA,080146.00,0419.86790,S,05539.91638,E,1,12,0.71,6.3,M,-47.6,M,,*7F
$GNGSA,A,3,05,12,24,18,15,25,23,13,29,10,,,1.27,0.71,1.05*19
$GNGSA,A,3,80,73,69,84,70,74,,,,,,,1.27,0.71,1.05*11
$GPGSV,4,1,16,05,14,028,34,10,29,221,23,12,54,147,26,13,09,078,26*78
$GPGSV,4,2,16,15,44,098,33,18,24,322,13,23,69,255,30,24,21,153,35*78
$GPGSV,4,3,16,25,83,246,32,28,11,265,,29,26,009,38,32,02,218,*7A
$GPGSV,4,4,16,36,52,277,33,40,86,351,,41,58,082,,49,32,274,*7C
$GLGSV,3,1,10,69,34,064,37,70,49,161,16,71,13,196,,73,55,214,35*6C
$GLGSV,3,2,10,74,43,293,12,75,02,323,,80,15,164,33,84,05,001,10*6E
$GLGSV,3,3,10,85,02,315,,,,,26*58
$GNGLL,0419.86790,S,05539.91638,E,080146.00,A,A*62
$GNTXT,01,01,01,More than 100 frame errors, UART RX was disabled*70
$GNRMC,080147.00,A,0419.86789,S,05539.91640,E,0.056,,200525,,,A*7E
$GNVTG,,T,,M,0.056,N,0.105,K,A*3A
$GNGGA,080147.00,0419.86789,S,05539.91640,E,1,12,0.71,6.3,M,-47.6,M,,*79
$GNGSA,A,3,05,12,24,18,15,25,23,13,29,10,,,1.27,0.71,1.05*19
