$GNTXT,01,01,01,More than 100 frame errors, UART RX was disabled*70
$GNRMC,075607.00,A,0419.87008,S,05539.92486,E,0.050,,200525,,,D*70
$GNVTG,,T,,M,0.050,N,0.092,K,D*36
$GNGGA,075607.00,0419.87008,S,05539.92486,E,2,12,0.70,9.9,M,-47.6,M,,0000*73
$GNGSA,A,3,05,12,24,18,15,25,23,13,29,10,,,1.27,0.70,1.06*1B
$GNGSA,A,3,80,73,69,84,70,74,,,,,,,1.27,0.70,1.06*13
$GPGSV,4,1,16,05,16,028,32,10,27,220,32,12,57,145,31,13,10,081,29*75
$GPGSV,4,2,16,15,44,102,31,18,25,320,30,23,68,246,31,24,22,155,30*78
$GPGSV,4,3,16,25,83,272,31,28,10,268,,29,25,007,35,32,01,219,*70
$GPGSV,4,4,16,36,52,277,,40,86,351,37,41,58,082,34,49,32,274,*7F
$GLGSV,3,1,10,69,35,067,33,70,47,163,21,71,10,197,17,73,57,218,25*69
$GLGSV,3,2,10,74,42,296,18,75,00,324,,80,18,165,26,84,06,359,19*69
$GLGSV,3,3,10,85,02,312,,,,,29*50
$GNGLL,0419.87008,S,05539.92486,E,075607.00,A,D*6C
$GNTXT,01,01,01,More than 100 frame errors, UART RX was disabled*70
$GNRMC,075608.00,A,0419.87009,S,05539.92485,E,0.023,,200525,,,D*79
$GNVTG,,T,,M,0.023,N,0.042,K,D*3F
$GNGGA,075608.00,0419.87009,S,05539.92485,E,2,12,0.70,9.9,M,-47.6,M,,0000*7E
$GNGSA,A,3,05,12,24,18,15,25,23,13,29,10,,,1.27,0.70,1.06*1B
$GNGSA,A,3,80,73,69,84,70,74,,,,,,,1.27,0.70,1.06*13
$GPGSV,4,1,16,05,16,028,34,10,27,220,30,12,57,145,34,13,10,081,29*74
$GPGSV,4,2,16,15,44,102,31,18,25,320,29,23,68,246,29,24,22,155,30*79
$GPGSV,4,3,16,25,83,272,32,28,10,268,,29,25,007,31,32,01,219,*77
$GPGSV,4,4,16,36,52,277,,40,86,351,38,41,58,082,32,49,32,274,*76
$GLGSV,3,1,10,69,35,067,33,70,47,163,19,71,10,197,16,73,57,218,25*63
$GLGSV,3,2,10,74,42,296,16,75,00,324,,80,18,165,25,84,06,359,17*6A
$GLGSV,3,3,10,85,02,312,,,,,28*51
$GNGLL,0419.87009,S,05539.92485,E,075608.00,A,D*61
$GNTXT,01,01,01,More than 100 frame errors, UART RX was disabled*70
$GNRMC,075609.00,A,0419.87007,S,05539.92483,E,0.017,,200525,,,D*77
$GNVTG,,T,,M,0.017,N,0.031,K,D*3C
$GNGGA,075609.00,0419.87007,S,05539.92483,E,2,12,0.70,9.7,M,-47.6,M,,0000*79
$GNGSA,A,3,05,12,24,18,15,25,23,13,29,10,,,1.27,0.70,1.06*1B
$GNGSA,A,3,80,73,69,84,70,74,,,,,,,1.27,0.70,1.06*13
$GPGSV,4,1,16,05,16,028,35,10,27,220,35,12,57,145,37,13,10,081,33*78
$GPGSV,4,2,16,15,44,102,34,18,25,320,35,23,68,246,35,24,22,155,35*79
$GPGSV,4,3,16,25,83,272,38,28,10,268,,29,25,007,39,32,01,219,*75
$GPGSV,4,4,16,36,52,277,,40,86,351,41,41,58,082,39,49,32,274,*73
$GLGSV,3,1,10,69,35,067,38,70,47,163,19,71,10,197,17,73,57,218,27*6B
$GLGSV,3,2,10,74,42,296,13,75,00,324,,80,18,165,32,84,06,359,15*6B
$GLGSV,3,3,10,85,02,312,,,,,33*5B
$GNGLL,0419.87007,S,05539.92483,E,075609.00,A,D*68
$GNTXT,01,01,01,More than 100 frame errors, UART RX was disabled*70
$GNRMC,075610.00,A,0419.87008,S,05539.92484,E,0.028,,200525,,,D*7B
$GNVTG,,T,,M,0.028,N,0.052,K,D*35
$GNGGA,075610.00,0419.87008,S,05539.92484,E,2,12,0.70,9.6,M,-47.6,M,,0000*78
$GNGSA,A,3,05,12,24,18,15,25,23,13,29,10,,,1.27,0.70,1.06*1B
$GNGSA,A,3,80,73,69,84,70,74,,,,,,,1.27,0.70,1.06*13
$GPGSV,4,1,16,05,16,028,37,10,27,220,34,12,57,145,37,13,10,081,33*7B
$GPGSV,4,2,16,15,44,102,37,18,25,320,34,23,68,246,36,24,22,155,37*7A
$GPGSV,4,3,16,25,83,272,38,28,10,268,,29,25,007,39,32,01,219,*75
$GPGSV,4,4,16,36,52,277,,40,86,351,40,41,58,082,39,49,32,274,*72
$GLGSV,3,1,10,69,35,067,37,70,47,163,20,71,10,197,20,73,57,218,32*6E
$GLGSV,3,2,10,74,42,296,11,75,00,324,,80,18,165,32,84,06,359,18*64
$GLGSV,3,3,10,85,02,312,,,,,34*5C
$GNGLL,0419.87008,S,05539.92484,E,075610.00,A,D*68
$GNTXT,01,01,01,More than 100 frame errors, UART RX was disabled*70
$GNRMC,075611.00,A,0419.87008,S,05539.92486,E,0.016,,200525,,,D*75
$GNVTG,,T,,M,0.016,N,0.029,K,D*34
$GNGGA,075611.00,0419.87008,S,05539.92486,E,2,12,0.70,9.6,M,-47.6,M,,0000*7B
$GNGSA,A,3,05,12,24,18,15,25,23,13,29,10,,,1.27,0.70,1.06*1B
$GNGSA,A,3,80,73,69,84,70,74,,,,,,,1.27,0.70,1.06*13
$GPGSV,4,1,16,05,16,028,37,10,27,220,35,12,57,145,37,13,10,081,30*79
$GPGSV,4,2,16,15,44,102,37,18,25,320,34,23,68,246,36,24,22,155,36*7B
$GPGSV,4,3,16,25,83,272,38,28,10,268,,29,25,007,39,32,01,219,*75
$GPGSV,4,4,16,36,52,277,,40,86,351,40,41,58,082,39,49,32,274,*72
$GLGSV,3,1,10,69,35,067,36,70,47,163,21,71,10,197,22,73,57,218,33*6D
$GLGSV,3,2,10,74,42,296,12,75,00,324,,80,17,165,32,84,06,359,20*63
$GLGSV,3,3,10,85,02,312,,,,,34*5C
$GNGLL,0419.87008,S,05539.92486,E,075611.00,A,D*6B
$GNTXT,01,01,01,More than 100 frame errors, UART RX was disabled*70
$GNRMC,075612.00,A,0419.87007,S,05539.92488,E,0.043,,200525,,,D*77
$GNVTG,,T,,M,0.043,N,0.080,K,D*37
$GNGGA,075612.00,0419.87007,S,05539.92488,E,2,12,0.70,9.6,M,-47.6,M,,0000*79
$GNGSA,A,3,05,12,24,18,15,25,23,13,29,10,,,1.27,0.70,1.06*1B
$GNGSA,A,3,80,73,69,84,70,74,,,,,,,1.27,0.70,1.06*13
$GPGSV,4,1,16,05,16,028,36,10,27,220,35,12,57,145,34,13,10,081,31*7A
$GPGSV,4,2,16,15,44,102,36,18,25,320,33,23,68,246,35,24,22,155,33*7B
$GPGSV,4,3,16,25,83,272,37,28,10,268,,29,25,007,39,32,01,219,*7A
$GPGSV,4,4,16,36,52,277,,40,86,351,40,41,58,082,36,49,32,274,*7D
$GLGSV,3,1,10,69,35,067,37,70,47,163,22,71,10,197,23,73,57,218,33*6E
$GLGSV,3,2,10,74,42,296,13,75,00,324,,80,17,165,32,84,06,359,21*63
$GLGSV,3,3,10,85,02,312,,,,,34*5C
$GNGLL,0419.87007,S,05539.92488,E,075612.00,A,D*69
$GNTXT,01,01,01,More than 100 frame errors, UART RX was disabled*70
$GNRMC,075613.00,A,0419.87005,S,05539.92487,E,0.028,,200525,,,D*76
$GNVTG,,T,,M,0.028,N,0.052,K,D*35
$GNGGA,075613.00,0419.87005,S,05539.92487,E,2,12,0.70,9.6,M,-47.6,M,,0000*75
$GNGSA,A,3,05,12,24,18,15,25,23,13,29,10,,,1.27,0.70,1.06*1B
$GNGSA,A,3,80,73,69,84,70,74,,,,,,,1.27,0.70,1.06*13
$GPGSV,4,1,16,05,16,028,37,10,27,220,36,12,57,145,38,13,10,081,34*71
$GPGSV,4,2,16,15,44,102,37,18,25,320,34,23,68,246,36,24,22,155,35*78
$GPGSV,4,3,16,25,83,272,38,28,10,268,,29,25,007,40,32,01,219,*7B
$GPGSV,4,4,16,36,52,277,,40,86,351,40,41,58,082,39,49,32,274,*72
$GLGSV,3,1,10,69,35,067,37,70,47,163,21,71,10,197,23,73,57,218,33*6D
$GLGSV,3,2,10,74,42,296,13,75,00,324,,80,17,165,32,84,06,359,19*68
$GLGSV,3,3,10,85,02,312,,,,,34*5C
$GNGLL,0419.87005,S,05539.92487,E,075613.00,A,D*65
$GNTXT,01,01,01,More than 100 frame errors, UART RX was disabled*70
$GNRMC,075614.00,A,0419.87005,S,05539.92489,E,0.033,,200525,,,D*75
$GNVTG,,T,,M,0.033,N,0.062,K,D*3C
$GNGGA,075614.00,0419.87005,S,05539.92489,E,2,12,0.70,9.6,M,-47.6,M,,0000*7C
$GNGSA,A,3,05,12,24,18,15,25,23,13,29,10,,,1.27,0.70,1.06*1B
$GNGSA,A,3,80,73,69,84,70,74,,,,,,,1.27,0.70,1.06*13
$GPGSV,4,1,16,05,16,028,39,10,27,220,36,12,57,145,38,13,10,081,34*7F
$GPGSV,4,2,16,15,44,102,36,18,25,320,36,23,68,246,35,24,22,155,36*7B
$GPGSV,4,3,16,25,83,272,40,28,10,268,,29,25,007,40,32,01,219,*74
$GPGSV,4,4,16,36,52,277,,40,86,351,42,41,58,082,40,49,32,274,*7E
$GLGSV,3,1,10,69,35,067,38,70,47,163,23,71,10,197,26,73,57,218,36*60
$GLGSV,3,2,10,74,42,296,16,75,00,324,,80,17,165,32,84,06,359,20*67
$GLGSV,3,3,10,85,02,312,,,,,36*5E
$GNGLL,0419.87005,S,05539.92489,E,075614.00,A,D*6C
$GNTXT,01,01,01,More than 100 frame errors, UART RX was disabled*70
$GNRMC,075615.00,A,0419.87003,S,05539.92489,E,0.052,,200525,,,D*75
$GNVTG,,T,,M,0.052,N,0.097,K,D*31
$GNGGA,075615.00,0419.87003,S,05539.92489,E,2,12,0.68,9.6,M,-47.6,M,,0000*72
$GNGSA,A,3,05,12,24,18,15,25,23,13,29,10,,,1.19,0.68,0.98*19
$GNGSA,A,3,80,73,69,84,70,74,,,,,,,1.19,0.68,0.98*11
$GPGSV,4,1,16,05,16,028,32,10,27,220,32,12,57,145,33,13,10,081,24*7A
$GPGSV,4,2,16,15,44,102,30,18,25,320,30,23,68,246,26,24,22,155,28*76
$GPGSV,4,3,16,25,83,272,32,28,10,268,,29,25,007,33,32,01,219,*75
$GPGSV,4,4,16,36,52,277,,40,86,351,34,41,58,082,32,49,32,274,*7A
$GLGSV,3,1,10,69,35,067,29,70,47,163,23,71,10,197,25,73,57,218,28*6C
$GLGSV,3,2,10,74,42,296,15,75,00,324,,80,17,165,26,84,06,359,19*6B
$GLGSV,3,3,10,85,02,312,,,,,29*50
$GNGLL,0419.87003,S,05539.92489,E,075615.00,A,D*6B
$GNTXT,01,01,01,More than 100 frame errors, UART RX was disabled*70
$GNRMC,075616.00,A,0419.87001,S,05539.92489,E,0.024,,200525,,,D*75
$GNVTG,,T,,M,0.024,N,0.044,K,D*3E
$GNGGA,075616.00,0419.87001,S,05539.92489,E,2,12,0.68,9.7,M,-47.6,M,,0000*72
$GNGSA,A,3,05,12,24,18,15,25,23,13,29,10,,,1.19,0.68,0.98*19
$GNGSA,A,3,80,73,69,84,70,74,,,,,,,1.19,0.68,0.98*11
$GPGSV,4,1,16,05,16,028,37,10,27,220,38,12,57,145,40,13,10,081,35*71
$GPGSV,4,2,16,15,44,102,39,18,25,320,32,23,68,246,33,24,22,155,38*78
$GPGSV,4,3,16,25,83,272,39,28,10,268,,29,25,007,40,32,01,219,*7A
$GPGSV,4,4,16,36,52,277,,40,86,351,41,41,58,082,38,49,32,274,*72
$GLGSV,3,1,10,69,35,067,40,70,47,163,23,71,10,197,24,73,57,218,33*68
$GLGSV,3,2,10,74,42,296,16,75,00,324,,80,17,165,35,84,06,359,17*64
$GLGSV,3,3,10,85,02,313,,,,,40*5E
$GNGLL,0419.87001,S,05539.92489,E,075616.00,A,D*6A
$GNTXT,01,01,01,More than 100 frame errors, UART RX was disabled*70
$GNRMC,075617.00,A,0419.87001,S,05539.92489,E,0.057,,200525,,,D*70
$GNVTG,,T,,M,0.057,N,0.106,K,D*3D
$GNGGA,075617.00,0419.87001,S,05539.92489,E,2,12,0.68,9.6,M,-47.6,M,,0000*72
$GNGSA,A,3,05,12,24,18,15,25,23,13,29,10,,,1.19,0.68,0.98*19
$GNGSA,A,3,80,73,69,84,70,74,,,,,,,1.19,0.68,0.98*11
$GPGSV,4,1,16,05,16,028,35,10,27,220,35,12,57,145,36,13,10,081,33*79
$GPGSV,4,2,16,15,44,102,34,18,25,320,32,23,68,246,34,24,22,155,35*7F
$GPGSV,4,3,16,25,83,272,36,28,10,268,,29,25,007,37,32,01,219,*75
$GPGSV,4,4,16,36,52,277,,40,86,351,38,41,58,082,36,49,32,274,*72
$GLGSV,3,1,10,69,35,067,36,70,47,163,23,71,10,197,22,73,57,218,28*65
$GLGSV,3,2,10,74,42,296,13,75,00,324,,80,17,165,31,84,06,359,16*64
$GLGSV,3,3,10,85,02,313,,,,,35*5C
$GNGLL,0419.87001,S,05539.92489,E,075617.00,A,D*6B
$GNTXT,01,01,01,More than 100 frame errors, UART RX was disabled*70
$GNRMC,075618.00,A,0419.87002,S,05539.92491,E,0.027,,200525,,,D*72
$GNVTG,,T,,M,0.027,N,0.050,K,D*38
$GNGGA,075618.00,0419.87002,S,05539.92491,E,2,12,0.68,9.8,M,-47.6,M,,0000*79
$GNGSA,A,3,05,12,24,18,15,25,23,13,29,10,,,1.19,0.68,0.98*19
$GNGSA,A,3,80,73,69,84,70,74,,,,,,,1.19,0.68,0.98*11
$GPGSV,4,1,16,05,16,028,36,10,27,220,37,12,57,145,38,13,10,081,35*70
$GPGSV,4,2,16,15,44,102,36,18,25,320,33,23,68,246,34,24,22,155,36*7F
$GPGSV,4,3,16,25,83,272,38,28,10,268,,29,25,007,39,32,01,219,*75
$GPGSV,4,4,16,36,52,277,,40,86,351,40,41,58,082,39,49,32,274,*72
$GLGSV,3,1,10,69,35,067,37,70,47,163,22,71,10,197,20,73,57,218,30*6E
$GLGSV,3,2,10,74,42,296,12,75,00,324,,80,17,165,32,84,06,359,15*65
$GLGSV,3,3,10,85,02,313,,,,,36*5F
$GNGLL,0419.87002,S,05539.92491,E,075618.00,A,D*6E
$GNTXT,01,01,01,More than 100 frame errors, UART RX was disabled*70
$GNRMC,075619.00,A,0419.87002,S,05539.92491,E,0.007,,200525,,,D*71
$GNVTG,,T,,M,0.007,N,0.013,K,D*3D
$GNGGA,075619.00,0419.87002,S,05539.92491,E,2,12,0.68,9.8,M,-47.6,M,,0000*78
$GNGSA,A,3,05,12,24,18,15,25,23,13,29,10,,,1.19,0.68,0.98*19
$GNGSA,A,3,80,73,69,84,70,74,,,,,,,1.19,0.68,0.98*11
$GPGSV,4,1,16,05,16,028,29,10,27,220,31,12,57,145,33,13,10,081,24*73
$GPGSV,4,2,16,15,44,102,29,18,25,320,28,23,68,246,29,24,22,155,29*79
$GPGSV,4,3,16,25,83,272,32,28,10,268,,29,25,007,32,32,01,219,*74
$GPGSV,4,4,16,36,52,277,,40,86,351,33,41,58,082,32,49,32,274,*7D
$GLGSV,3,1,10,69,35,067,32,70,47,163,22,71,10,197,20,73,57,218,25*6F
$GLGSV,3,2,10,74,42,296,11,75,00,324,,80,17,165,28,84,06,359,15*6D
$GLGSV,3,3,10,85,02,313,,,,,31*58
$GNGLL,0419.87002,S,05539.92491,E,075619.00,A,D*6F
$GNTXT,01,01,01,More than 100 frame errors, UART RX was disabled*70
$GNRMC,075620.00,A,0419.87003,S,05539.92487,E,0.033,,200525,,,D*7A
$GNVTG,,T,,M,0.033,N,0.061,K,D*3F
$GNGGA,075620.00,0419.87003,S,05539.92487,E,2,12,0.68,9.7,M,-47.6,M,,0000*7B
$GNGSA,A,3,05,12,24,18,15,25,23,13,29,10,,,1.19,0.68,0.98*19
$GNGSA,A,3,80,73,69,84,70,74,,,,,,,1.19,0.68,0.98*11
$GPGSV,4,1,16,05,16,028,36,10,27,220,36,12,57,145,39,13,10,081,31*74
$GPGSV,4,2,16,15,44,102,36,18,25,320,33,23,68,246,33,24,22,155,37*79
$GPGSV,4,3,16,25,83,272,37,28,10,268,,29,25,007,39,32,01,219,*7A
$GPGSV,4,4,16,36,52,277,,40,86,351,40,41,58,082,38,49,32,274,*73
$GLGSV,3,1,10,69,35,067,35,70,47,163,21,71,10,197,19,73,57,218,27*63
$GLGSV,3,2,10,74,42,296,15,75,00,324,,80,17,165,29,84,06,359,13*6E
$GLGSV,3,3,10,85,02,313,,,,,33*5A
$GNGLL,0419.87003,S,05539.92487,E,075620.00,A,D*63
$GNTXT,01,01,01,More than 100 frame errors, UART RX was disabled*70
$GNRMC,075621.00,A,0419.87004,S,05539.92487,E,0.043,,200525,,,D*7B
$GNVTG,,T,,M,0.043,N,0.079,K,D*31
$GNGGA,075621.00,0419.87004,S,05539.92487,E,2,12,0.68,9.7,M,-47.6,M,,0000*7D
$GNGSA,A,3,05,12,24,18,15,25,23,13,29,10,,,1.19,0.68,0.98*19
$GNGSA,A,3,80,73,69,84,70,74,,,,,,,1.19,0.68,0.98*11
$GPGSV,4,1,16,05,16,028,34,10,27,220,30,12,57,145,33,13,10,081,25*7F
$GPGSV,4,2,16,15,44,102,32,18,25,320,28,23,68,246,29,24,22,155,32*79
$GPGSV,4,3,16,25,83,272,32,28,10,268,,29,25,007,33,32,01,219,*75
$GPGSV,4,4,16,36,52,277,,40,86,351,35,41,58,082,35,49,32,274,*7C
$GLGSV,3,1,10,69,35,067,31,70,47,163,19,71,10,197,18,73,57,218,26*6C
$GLGSV,3,2,10,74,42,296,14,75,00,324,,80,17,165,28,84,06,359,14*69
$GLGSV,3,3,10,85,02,313,,,,,31*58
$GNGLL,0419.87004,S,05539.92487,E,075621.00,A,D*65
$GNTXT,01,01,01,More than 100 frame errors, UART RX was disabled*70
$GNRMC,075622.00,A,0419.87006,S,05539.92486,E,0.016,,200525,,,D*7B
$GNVTG,,T,,M,0.016,N,0.029,K,D*34
$GNGGA,075622.00,0419.87006,S,05539.92486,E,2,12,0.68,9.7,M,-47.6,M,,0000*7D
$GNGSA,A,3,05,12,24,18,15,25,23,13,29,10,,,1.19,0.68,0.98*19
$GNGSA,A,3,80,73,69,84,70,74,,,,,,,1.19,0.68,0.98*11
$GPGSV,4,1,16,05,16,028,34,10,27,220,32,12,57,145,31,13,10,081,25*7F
$GPGSV,4,2,16,15,44,102,29,18,25,320,29,23,68,246,30,24,22,155,32*7A
$GPGSV,4,3,16,25,83,272,35,28,10,268,,29,25,007,35,32,01,219,*74
$GPGSV,4,4,16,36,52,277,,40,86,351,34,41,58,082,36,49,32,274,*7E
$GLGSV,3,1,10,69,35,067,34,70,47,163,20,71,10,197,20,73,57,218,28*66
$GLGSV,3,2,10,74,42,296,11,75,00,324,,80,17,165,32,84,06,359,16*65
$GLGSV,3,3,10,85,02,313,,,,,31*58
$GNGLL,0419.87006,S,05539.92486,E,075622.00,A,D*65
$GNTXT,01,01,01,More than 100 frame errors, UART RX was disabled*70
$GNRMC,075623.00,A,0419.87006,S,05539.92488,E,0.022,,200525,,,D*73
$GNVTG,,T,,M,0.022,N,0.041,K,D*3D
$GNGGA,075623.00,0419.87006,S,05539.92488,E,2,12,0.68,9.6,M,-47.6,M,,0000*73
$GNGSA,A,3,05,12,24,18,15,25,23,13,29,10,,,1.19,0.68,0.98*19
$GNGSA,A,3,80,73,69,84,70,74,,,,,,,1.19,0.68,0.98*11
$GPGSV,4,1,16,05,16,028,30,10,27,220,32,12,57,145,32,13,10,081,22*7F
$GPGSV,4,2,16,15,44,102,30,18,25,320,29,23,68,246,26,24,22,155,31*76
$GPGSV,4,3,16,25,83,272,31,28,10,268,,29,25,007,32,32,01,219,*77
$GPGSV,4,4,16,36,52,277,,40,86,351,35,41,58,082,33,49,32,274,*7A
$GLGSV,3,1,10,69,35,067,33,70,47,163,19,71,10,197,20,73,57,218,29*6A
$GLGSV,3,2,10,74,42,296,18,75,00,324,,80,17,165,29,84,06,359,16*66
$GLGSV,3,3,10,85,02,313,,,,,33*5A
$GNGLL,0419.87006,S,05539.92488,E,075623.00,A,D*6A
$GNTXT,01,01,01,More than 100 frame errors, UART RX was disabled*70
$GNRMC,075624.00,A,0419.87006,S,05539.92486,E,0.014,,200525,,,D*7F
$GNVTG,,T,,M,0.014,N,0.026,K,D*39
$GNGGA,075624.00,0419.87006,S,05539.92486,E,2,12,0.68,9.5,M,-47.6,M,,0000*79
$GNGSA,A,3,05,12,24,18,15,25,23,13,29,10,,,1.19,0.68,0.98*19
$GNGSA,A,3,80,73,69,84,70,74,,,,,,,1.19,0.68,0.98*11
$GPGSV,4,1,16,05,16,028,37,10,27,220,35,12,57,145,35,13,10,081,30*7B
$GPGSV,4,2,16,15,44,102,39,18,25,320,33,23,68,246,32,24,22,155,37*77
$GPGSV,4,3,16,25,83,272,37,28,10,268,,29,25,007,36,32,01,219,*75
$GPGSV,4,4,16,36,52,277,,40,86,351,39,41,58,082,38,49,32,274,*7D
$GLGSV,3,1,10,69,35,067,32,70,47,163,18,71,10,197,19,73,57,218,27*6E
$GLGSV,3,2,10,74,42,296,10,75,00,324,,80,17,165,28,84,06,359,16*6F
$GLGSV,3,3,10,85,02,313,,,,,31*58
$GNGLL,0419.87006,S,05539.92486,E,075624.00,A,D*63
$GNTXT,01,01,01,More than 100 frame errors, UART RX was disabled*70
$GNRMC,075625.00,A,0419.87005,S,05539.92479,E,0.032,,200525,,,D*79
$GNVTG,,T,,M,0.032,N,0.059,K,D*35
$GNGGA,075625.00,0419.87005,S,05539.92479,E,2,12,0.68,9.4,M,-47.6,M,,0000*7A
$GNGSA,A,3,05,12,24,18,15,25,23,13,29,10,,,1.19,0.68,0.98*19
$GNGSA,A,3,80,73,69,84,70,74,,,,,,,1.19,0.68,0.98*11
$GPGSV,4,1,16,05,16,028,39,10,27,220,38,12,57,145,38,13,10,081,34*71
$GPGSV,4,2,16,15,44,102,39,18,25,320,33,23,68,246,33,24,22,155,39*78
$GPGSV,4,3,16,25,83,272,39,28,10,268,,29,25,007,38,32,01,219,*75
$GPGSV,4,4,16,36,52,277,,40,86,351,41,41,58,082,40,49,32,274,*7D
$GLGSV,3,1,10,69,35,067,37,70,47,163,19,71,10,197,21,73,57,218,32*65
$GLGSV,3,2,10,74,42,296,17,75,00,324,,80,17,165,33,84,06,359,17*63
$GLGSV,3,3,10,85,02,313,,,,,37*5E
$GNGLL,0419.87005,S,05539.92479,E,075625.00,A,D*61
$GNTXT,01,01,01,More than 100 frame errors, UART RX was disabled*70
$GNRMC,075626.00,A,0419.87005,S,05539.92478,E,0.035,,200525,,,D*7C
$GNVTG,,T,,M,0.035,N,0.065,K,D*3D
$GNGGA,075626.00,0419.87005,S,05539.92478,E,2,12,0.68,9.4,M,-47.6,M,,0000*78
$GNGSA,A,3,05,12,24,18,15,25,23,13,29,10,,,1.19,0.68,0.98*19
$GNGSA,A,3,80,73,69,84,70,74,,,,,,,1.19,0.68,0.98*11
$GPGSV,4,1,16,05,16,028,30,10,27,220,27,12,57,145,31,13,10,081,29*73
$GPGSV,4,2,16,15,44,102,30,18,25,320,27,23,68,246,24,24,22,155,30*7B
$GPGSV,4,3,16,25,83,272,31,28,10,268,,29,25,007,29,32,01,219,*7D
$GPGSV,4,4,16,36,52,277,,40,86,351,31,41,58,082,32,49,32,274,*7F
$GLGSV,3,1,10,69,35,067,30,70,47,163,19,71,10,197,21,73,57,218,27*66
$GLGSV,3,2,10,74,42,296,11,75,00,324,,80,17,165,27,84,06,359,17*60
$GLGSV,3,3,10,85,02,313,,,,,26*5E
$GNGLL,0419.87005,S,05539.92478,E,075626.00,A,D*63
$GNTXT,01,01,01,More than 100 frame errors, UART RX was disabled*70
$GNRMC,075627.00,A,0419.87006,S,05539.92477,E,0.055,,200525,,,D*77
$GNVTG,,T,,M,0.055,N,0.102,K,D*3B
$GNGGA,075627.00,0419.87006,S,05539.92477,E,2,12,0.68,9.4,M,-47.6,M,,0000*75
$GNGSA,A,3,05,12,24,18,15,25,23,13,29,10,,,1.19,0.68,0.98*19
$GNGSA,A,3,80,73,69,84,70,74,,,,,,,1.19,0.68,0.98*11
$GPGSV,4,1,16,05,16,028,31,10,27,220,32,12,57,145,31,13,10,081,30*7E
$GPGSV,4,2,16,15,44,102,34,18,25,320,28,23,68,246,27,24,22,155,30*73
$GPGSV,4,3,16,25,83,272,32,28,10,268,,29,25,007,33,32,01,219,*75
$GPGSV,4,4,16,36,52,277,,40,86,351,35,41,58,082,34,49,32,274,*7D
$GLGSV,3,1,10,69,35,067,31,70,47,163,18,71,10,197,20,73,57,218,27*67
$GLGSV,3,2,10,74,42,296,13,75,00,324,,80,17,165,27,84,06,359,17*62
$GLGSV,3,3,10,85,02,313,,,,,31*58
$GNGLL,0419.87006,S,05539.92477,E,075627.00,A,D*6E
$GNTXT,01,01,01,More than 100 frame errors, UART RX was disabled*70
$GNRMC,075628.00,A,0419.87007,S,05539.92474,E,0.069,,200525,,,D*75
$GNVTG,,T,,M,0.069,N,0.127,K,D*33
$GNGGA,075628.00,0419.87007,S,05539.92474,E,2,12,0.68,9.3,M,-47.6,M,,0000*7F
$GNGSA,A,3,05,12,24,18,15,25,23,13,29,10,,,1.19,0.68,0.98*19
$GNGSA,A,3,80,73,69,84,70,74,,,,,,,1.19,0.68,0.98*11
$GPGSV,4,1,16,05,16,028,38,10,27,220,37,12,57,145,38,13,10,081,37*7C
$GPGSV,4,2,16,15,44,102,39,18,25,320,33,23,68,246,33,24,22,155,34*75
$GPGSV,4,3,16,25,83,272,37,28,10,268,,29,25,007,38,32,01,219,*7B
$GPGSV,4,4,16,36,52,277,,40,86,351,40,41,58,082,39,49,32,274,*72
$GLGSV,3,1,10,69,35,067,37,70,47,163,18,71,10,197,20,73,57,218,31*66
$GLGSV,3,2,10,74,42,296,12,75,00,324,,80,17,165,33,84,06,359,17*66
$GLGSV,3,3,10,85,02,313,,,,,34*5D
$GNGLL,0419.87007,S,05539.92474,E,075628.00,A,D*63
$GNTXT,01,01,01,More than 100 frame errors, UART RX was disabled*70
$GNRMC,075629.00,A,0419.87008,S,05539.92473,E,0.003,,200525,,,D*70
$GNVTG,,T,,M,0.003,N,0.005,K,D*3E
$GNGGA,075629.00,0419.87008,S,05539.92473,E,2,12,0.68,9.4,M,-47.6,M,,0000*71
$GNGSA,A,3,05,12,24,18,15,25,23,13,29,10,,,1.19,0.68,0.98*19
$GNGSA,A,3,80,73,69,84,70,74,,,,,,,1.19,0.68,0.98*11
$GPGSV,4,1,16,05,16,028,36,10,27,220,36,12,57,145,38,13,10,081,34*70
$GPGSV,4,2,16,15,44,102,38,18,25,320,33,23,68,246,30,24,22,155,36*75
$GPGSV,4,3,16,25,83,272,37,28,10,268,,29,25,007,38,32,01,219,*7B
$GPGSV,4,4,16,36,52,277,,40,86,351,39,41,58,082,36,49,32,274,*73
$GLGSV,3,1,10,69,35,067,34,70,47,163,18,71,10,197,19,73,57,218,27*68
$GLGSV,3,2,10,74,42,296,11,75,00,324,,80,17,165,27,84,06,359,17*60
$GLGSV,3,3,10,85,02,313,,,,,32*5B
$GNGLL,0419.87008,S,05539.92473,E,075629.00,A,D*6A
$GNTXT,01,01,01,More than 100 frame errors, UART RX was disabled*70
$GNRMC,075630.00,A,0419.87009,S,05539.92471,E,0.042,,200525,,,D*7E
$GNVTG,,T,,M,0.042,N,0.077,K,D*3E
$GNGGA,075630.00,0419.87009,S,05539.92471,E,2,12,0.68,9.4,M,-47.6,M,,0000*7A
$GNGSA,A,3,05,12,24,18,15,25,23,13,29,10,,,1.19,0.68,0.98*19
$GNGSA,A,3,80,73,69,84,70,74,,,,,,,1.19,0.68,0.98*11
$GPGSV,4,1,16,05,16,028,31,10,27,220,31,12,57,145,33,13,10,081,26*78
$GPGSV,4,2,16,15,44,102,34,18,25,320,29,23,68,246,29,24,22,155,32*7E
$GPGSV,4,3,16,25,83,272,34,28,10,268,,29,25,007,34,32,01,219,*74
$GPGSV,4,4,16,36,52,277,,40,86,351,35,41,58,082,34,49,32,274,*7D
$GLGSV,3,1,10,69,35,067,31,70,47,163,17,71,10,197,17,73,57,218,26*6D
$GLGSV,3,2,10,74,42,296,10,75,00,324,,80,17,165,26,84,06,359,15*62
$GLGSV,3,3,10,85,02,313,,,,,31*58
$GNGLL,0419.87009,S,05539.92471,E,075630.00,A,D*61
$GNTXT,01,01,01,More than 100 frame errors, UART RX was disabled*70
$GNRMC,075631.00,A,0419.87011,S,05539.92470,E,0.003,,200525,,,D*72
$GNVTG,,T,,M,0.003,N,0.006,K,D*3D
$GNGGA,075631.00,0419.87011,S,05539.92470,E,2,12,0.71,9.4,M,-47.6,M,,0000*7B
$GNGSA,A,3,05,12,24,18,15,25,23,13,29,10,,,1.21,0.71,0.98*1A
$GNGSA,A,3,80,73,69,84,70,74,,,,,,,1.21,0.71,0.98*12
$GPGSV,4,1,16,05,16,028,35,10,27,220,35,12,56,146,36,13,10,081,27*7E
$GPGSV,4,2,16,15,44,102,36,18,25,320,29,23,68,246,33,24,22,155,33*76
$GPGSV,4,3,16,25,83,272,36,28,10,268,,29,25,007,37,32,01,219,*75
$GPGSV,4,4,16,36,52,277,,40,86,351,37,41,58,082,37,49,32,274,*7C
$GLGSV,3,1,10,69,35,067,35,70,47,163,20,71,10,197,21,73,57,218,31*6E
$GLGSV,3,2,10,74,42,296,17,75,00,324,,80,17,165,32,84,06,359,18*6D
$GLGSV,3,3,10,85,02,313,,,,,35*5C
$GNGLL,0419.87011,S,05539.92470,E,075631.00,A,D*68
$GNTXT,01,01,01,More than 100 frame errors, UART RX was disabled*70
$GNRMC,075632.00,A,0419.87012,S,05539.92466,E,0.023,,200525,,,D*77
$GNVTG,,T,,M,0.023,N,0.042,K,D*3F
$GNGGA,075632.00,0419.87012,S,05539.92466,E,2,12,0.70,9.4,M,-47.6,M,,0000*7D
$GNGSA,A,3,05,12,24,18,15,25,23,13,29,10,,,1.27,0.70,1.06*1B
$GNGSA,A,3,80,73,69,70,74,,,,,,,,1.27,0.70,1.06*1F
$GPGSV,4,1,16,05,16,028,37,10,27,220,36,12,56,146,38,13,10,081,33*74
$GPGSV,4,2,16,15,44,102,39,18,25,320,33,23,68,246,33,24,22,155,36*77
$GPGSV,4,3,16,25,83,272,37,28,10,268,,29,25,007,39,32,01,219,*7A
$GPGSV,4,4,16,36,52,277,,40,86,351,39,41,58,082,39,49,32,274,*7C
$GLGSV,3,1,10,69,35,067,35,70,47,163,20,71,10,197,21,73,57,218,27*69
$GLGSV,3,2,10,74,42,296,15,75,00,324,,80,17,165,27,84,06,359,*62
$GLGSV,3,3,10,85,02,313,,,,,34*5D
$GNGLL,0419.87012,S,05539.92466,E,075632.00,A,D*6F
$GNTXT,01,01,01,More than 100 frame errors, UART RX was disabled*70
$GNRMC,075633.00,A,0419.87015,S,05539.92468,E,0.042,,200525,,,D*78
$GNVTG,,T,,M,0.042,N,0.078,K,D*31
$GNGGA,075633.00,0419.87015,S,05539.92468,E,2,12,0.70,9.4,M,-47.6,M,,0000*75
$GNGSA,A,3,05,12,24,18,15,25,23,13,29,10,,,1.27,0.70,1.06*1B
$GNGSA,A,3,80,73,69,70,74,,,,,,,,1.27,0.70,1.06*1F
$GPGSV,4,1,16,05,16,028,35,10,27,220,36,12,56,146,39,13,10,081,36*72
$GPGSV,4,2,16,15,44,102,39,18,25,320,33,23,68,246,33,24,22,155,38*79
$GPGSV,4,3,16,25,83,272,37,28,10,268,,29,25,007,40,32,01,219,*74
$GPGSV,4,4,16,36,52,277,,40,86,351,39,41,58,082,37,49,32,274,*72
$GLGSV,3,1,10,69,35,067,37,70,47,163,22,71,10,197,22,73,57,218,31*6D
$GLGSV,3,2,10,74,42,296,20,75,00,324,,80,17,165,32,84,06,359,23*61
$GLGSV,3,3,10,85,02,313,,,,,36*5F
$GNGLL,0419.87015,S,05539.92468,E,075633.00,A,D*67
$GNTXT,01,01,01,More than 100 frame errors, UART RX was disabled*70
$GNRMC,075634.00,A,0419.87016,S,05539.92467,E,0.019,,200525,,,D*7D
$GNVTG,,T,,M,0.019,N,0.035,K,D*36
$GNGGA,075634.00,0419.87016,S,05539.92467,E,2,12,0.70,9.4,M,-47.6,M,,0000*7E
$GNGSA,A,3,05,12,24,18,15,25,23,13,29,10,,,1.27,0.70,1.06*1B
$GNGSA,A,3,80,73,69,70,74,,,,,,,,1.27,0.70,1.06*1F
$GPGSV,4,1,16,05,16,028,35,10,27,220,34,12,56,146,35,13,10,081,30*7A
$GPGSV,4,2,16,15,44,101,37,18,25,320,29,23,68,246,29,24,22,155,33*7F
$GPGSV,4,3,16,25,83,272,35,28,10,268,,29,25,007,36,32,01,219,*77
$GPGSV,4,4,16,36,52,277,,40,86,351,37,41,58,082,35,49,32,274,*7E
$GLGSV,3,1,10,69,35,067,36,70,47,163,21,71,10,197,21,73,57,218,27*6B
$GLGSV,3,2,10,74,42,296,15,75,00,324,,80,17,165,29,84,06,359,21*6F
$GLGSV,3,3,10,85,02,313,,,,,34*5D
$GNGLL,0419.87016,S,05539.92467,E,075634.00,A,D*6C
$GNTXT,01,01,01,More than 100 frame errors, UART RX was disabled*70
$GNRMC,075635.00,A,0419.87016,S,05539.92466,E,0.012,,200525,,,D*76
$GNVTG,,T,,M,0.012,N,0.022,K,D*3B
$GNGGA,075635.00,0419.87016,S,05539.92466,E,2,12,0.70,9.4,M,-47.6,M,,0000*7E
$GNGSA,A,3,05,12,24,18,15,25,23,13,29,10,,,1.27,0.70,1.06*1B
$GNGSA,A,3,80,73,69,70,74,,,,,,,,1.27,0.70,1.06*1F
$GPGSV,4,1,16,05,16,028,36,10,27,220,37,12,56,146,37,13,10,081,34*7C
$GPGSV,4,2,16,15,44,101,38,18,25,320,32,23,68,246,32,24,22,155,36*75
$GPGSV,4,3,16,25,83,272,37,28,10,268,,29,25,007,38,32,01,219,*7B
$GPGSV,4,4,16,36,52,277,,40,86,351,38,41,58,082,38,49,32,274,*7C
$GLGSV,3,1,10,69,35,067,36,70,47,163,22,71,10,197,22,73,57,218,30*6D
$GLGSV,3,2,10,74,42,296,17,75,00,324,,80,17,165,33,84,06,359,20*67
$GLGSV,3,3,10,85,02,313,,,,,36*5F
$GNGLL,0419.87016,S,05539.92466,E,075635.00,A,D*6C
$GNTXT,01,01,01,More than 100 frame errors, UART RX was disabled*70
$GNRMC,075636.00,A,0419.87017,S,05539.92467,E,0.024,,200525,,,D*70
$GNVTG,,T,,M,0.024,N,0.044,K,D*3E
$GNGGA,075636.00,0419.87017,S,05539.92467,E,2,12,0.70,9.4,M,-47.6,M,,0000*7D
$GNGSA,A,3,05,12,24,18,15,25,23,13,29,10,,,1.27,0.70,1.06*1B
$GNGSA,A,3,80,73,69,84,70,74,,,,,,,1.27,0.70,1.06*13
$GPGSV,4,1,16,05,16,028,31,10,27,220,33,12,56,146,32,13,10,081,31*7F
$GPGSV,4,2,16,15,44,101,33,18,25,320,28,23,68,246,29,24,22,155,33*7A
$GPGSV,4,3,16,25,83,272,34,28,10,268,,29,25,007,33,32,01,219,*73
$GPGSV,4,4,16,36,52,277,,40,86,351,34,41,58,082,35,49,32,274,*7D
$GLGSV,3,1,10,69,35,067,30,70,47,163,23,71,10,197,22,73,57,218,26*6D
$GLGSV,3,2,10,74,42,296,17,75,00,324,,80,17,165,29,84,06,359,19*66
$GLGSV,3,3,10,85,02,313,,,,,32*5B
$GNGLL,0419.87017,S,05539.92467,E,075636.00,A,D*6F
$GNTXT,01,01,01,More than 100 frame errors, UART RX was disabled*70
$GNRMC,075637.00,A,0419.87017,S,05539.92468,E,0.032,,200525,,,D*79
$GNVTG,,T,,M,0.032,N,0.059,K,D*35
$GNGGA,075637.00,0419.87017,S,05539.92468,E,2,12,0.70,9.4,M,-47.6,M,,0000*73
$GNGSA,A,3,05,12,24,18,15,25,23,13,29,10,,,1.27,0.70,1.06*1B
$GNGSA,A,3,80,73,69,84,70,74,,,,,,,1.27,0.70,1.06*13
$GPGSV,4,1,16,05,16,028,31,10,27,220,33,12,56,146,34,13,10,081,28*71
$GPGSV,4,2,16,15,44,101,34,18,24,320,28,23,68,246,29,24,22,155,30*7F
$GPGSV,4,3,16,25,83,272,34,28,10,268,,29,25,007,36,32,01,219,*76
$GPGSV,4,4,16,36,52,277,,40,86,351,35,41,58,082,35,49,32,274,*7C
$GLGSV,3,1,10,69,35,067,32,70,47,163,21,71,10,197,21,73,57,218,27*6F
$GLGSV,3,2,10,74,42,296,15,75,00,324,,80,17,165,29,84,06,359,17*6A
$GLGSV,3,3,10,85,02,313,,,,,29*51
$GNGLL,0419.87017,S,05539.92468,E,075637.00,A,D*61
$GNTXT,01,01,01,More than 100 frame errors, UART RX was disabled*70
$GNRMC,075638.00,A,0419.87017,S,05539.92468,E,0.024,,200525,,,D*71
$GNVTG,,T,,M,0.024,N,0.045,K,D*3F
$GNGGA,075638.00,0419.87017,S,05539.92468,E,2,12,0.70,9.3,M,-47.6,M,,0000*7B
$GNGSA,A,3,05,12,24,18,15,25,23,13,29,10,,,1.27,0.70,1.06*1B
$GNGSA,A,3,80,73,69,84,70,74,,,,,,,1.27,0.70,1.06*13
$GPGSV,4,1,16,05,16,028,36,10,27,220,36,12,56,146,37,13,10,081,28*70
$GPGSV,4,2,16,15,44,101,37,18,24,320,30,23,68,246,31,24,22,155,36*7A
$GPGSV,4,3,16,25,83,272,37,28,10,268,,29,25,007,38,32,01,219,*7B
$GPGSV,4,4,16,36,52,277,,40,86,351,38,41,58,082,38,49,32,274,*7C
$GLGSV,3,1,10,69,35,067,33,70,47,163,20,71,10,197,20,73,57,218,27*6E
$GLGSV,3,2,10,74,42,296,14,75,00,324,,80,17,165,29,84,06,359,14*68
$GLGSV,3,3,10,85,02,313,,,,,32*5B
$GNGLL,0419.87017,S,05539.92468,E,075638.00,A,D*6E
$GNTXT,01,01,01,More than 100 frame errors, UART RX was disabled*70
$GNRMC,075639.00,A,0419.87017,S,05539.92472,E,0.189,,200525,,,D*7D
$GNVTG,,T,,M,0.189,N,0.350,K,D*3E
$GNGGA,075639.00,0419.87017,S,05539.92472,E,2,12,0.68,9.3,M,-47.6,M,,0000*78
$GNGSA,A,3,05,12,24,18,15,25,23,13,29,10,,,1.19,0.68,0.98*19
$GNGSA,A,3,80,73,69,84,70,74,,,,,,,1.19,0.68,0.98*11
$GPGSV,4,1,16,05,16,028,32,10,27,220,30,12,56,146,33,13,10,081,26*78
$GPGSV,4,2,16,15,44,101,33,18,24,320,29,23,68,246,29,24,22,155,30*79
$GPGSV,4,3,16,25,83,272,32,28,10,268,,29,25,007,32,32,01,219,*74
$GPGSV,4,4,16,36,52,277,,40,86,351,34,41,58,082,33,49,32,274,*7B
$GLGSV,3,1,10,69,35,067,32,70,47,163,18,71,10,197,19,73,57,218,27*6E
$GLGSV,3,2,10,74,42,296,13,75,00,324,,80,17,165,28,84,06,359,13*69
$GLGSV,3,3,10,85,02,313,,,,,31*58
$GNGLL,0419.87017,S,05539.92472,E,075639.00,A,D*64
$GNTXT,01,01,01,More than 100 frame errors, UART RX was disabled*70
$GNRMC,075640.00,A,0419.87015,S,05539.92473,E,0.026,,200525,,,D*74
$GNVTG,,T,,M,0.026,N,0.049,K,D*31
$GNGGA,075640.00,0419.87015,S,05539.92473,E,2,12,0.68,9.3,M,-47.6,M,,0000*75
$GNGSA,A,3,05,12,24,18,15,25,23,13,29,10,,,1.19,0.68,0.98*19
$GNGSA,A,3,80,73,69,84,70,74,,,,,,,1.19,0.68,0.98*11
$GPGSV,4,1,16,05,16,028,36,10,27,220,37,12,56,146,37,13,10,081,27*7E
$GPGSV,4,2,16,15,44,101,38,18,24,320,33,23,68,246,31,24,22,155,36*76
$GPGSV,4,3,16,25,83,272,36,28,10,268,,29,25,007,38,32,01,219,*7A
$GPGSV,4,4,16,36,52,277,,40,86,351,39,41,58,082,38,49,32,274,*7D
$GLGSV,3,1,10,69,35,067,37,70,47,163,21,71,10,197,22,73,57,218,32*6D
$GLGSV,3,2,10,74,42,296,15,75,00,324,,80,17,165,32,84,06,359,16*61
$GLGSV,3,3,10,85,02,313,,,,,37*5E
$GNGLL,0419.87015,S,05539.92473,E,075640.00,A,D*69
$GNTXT,01,01,01,More than 100 frame errors, UART RX was disabled*70
$GNRMC,075641.00,A,0419.87016,S,05539.92472,E,0.027,,200525,,,D*76
$GNVTG,,T,,M,0.027,N,0.050,K,D*38
$GNGGA,075641.00,0419.87016,S,05539.92472,E,2,12,0.68,9.3,M,-47.6,M,,0000*76
$GNGSA,A,3,05,12,24,18,15,25,23,13,29,10,,,1.19,0.68,0.98*19
$GNGSA,A,3,80,73,69,84,70,74,,,,,,,1.19,0.68,0.98*11
$GPGSV,4,1,16,05,16,028,34,10,27,220,34,12,56,146,36,13,10,081,32*7A
$GPGSV,4,2,16,15,44,101,36,18,24,320,33,23,68,248,27,24,22,155,34*73
$GPGSV,4,3,16,25,83,272,34,28,10,268,,29,25,007,36,32,01,219,*76
$GPGSV,4,4,16,36,52,277,,40,86,351,35,41,58,082,35,49,32,274,*7C
$GLGSV,3,1,10,69,35,067,31,70,47,163,22,71,10,197,22,73,57,218,28*63
$GLGSV,3,2,10,74,42,296,15,75,00,324,,80,17,165,28,84,06,359,17*6B
$GLGSV,3,3,10,85,02,313,,,,,31*58
$GNGLL,0419.87016,S,05539.92472,E,075641.00,A,D*6A
$GNTXT,01,01,01,More than 100 frame errors, UART RX was disabled*70
$GNRMC,075642.00,A,0419.87015,S,05539.92473,E,0.033,,200525,,,D*72
$GNVTG,,T,,M,0.033,N,0.061,K,D*3F
$GNGGA,075642.00,0419.87015,S,05539.92473,E,2,12,0.68,9.3,M,-47.6,M,,0000*77
$GNGSA,A,3,05,12,24,18,15,25,23,13,29,10,,,1.19,0.68,0.98*19
$GNGSA,A,3,80,73,69,84,70,74,,,,,,,1.19,0.68,0.98*11
$GPGSV,4,1,16,05,16,028,30,10,27,220,30,12,56,146,29,13,10,081,27*70
$GPGSV,4,2,16,15,44,101,31,18,24,320,27,23,68,248,26,24,22,155,30*74
$GPGSV,4,3,16,25,83,272,30,28,10,268,,29,25,007,33,32,01,219,*77
$GPGSV,4,4,16,36,52,277,,40,86,351,33,41,58,082,31,49,32,274,*7E
$GLGSV,3,1,10,69,35,067,31,70,47,163,20,71,10,197,21,73,57,218,26*6C
$GLGSV,3,2,10,74,42,296,15,75,00,324,,80,17,165,26,84,06,359,17*65
$GLGSV,3,3,10,85,02,313,,,,,30*59
$GNGLL,0419.87015,S,05539.92473,E,075642.00,A,D*6B
$GNTXT,01,01,01,More than 100 frame errors, UART RX was disabled*70
$GNRMC,075643.00,A,0419.87015,S,05539.92476,E,0.048,,200525,,,D*7A
$GNVTG,,T,,M,0.048,N,0.090,K,D*3D
$GNGGA,075643.00,0419.87015,S,05539.92476,E,2,12,0.68,9.4,M,-47.6,M,,0000*74
$GNGSA,A,3,05,12,24,18,15,25,23,13,29,10,,,1.19,0.68,0.98*19
$GNGSA,A,3,80,73,69,84,70,74,,,,,,,1.19,0.68,0.98*11
$GPGSV,4,1,16,05,16,028,34,10,27,220,36,12,56,146,36,13,10,081,35*7F
$GPGSV,4,2,16,15,44,101,36,18,24,320,34,23,68,248,32,24,22,155,34*70
$GPGSV,4,3,16,25,83,267,34,28,10,268,,29,25,007,37,32,01,219,*73
$GPGSV,4,4,16,36,52,277,,40,86,351,37,41,58,082,35,49,32,274,*7E
$GLGSV,3,1,10,69,35,067,36,70,47,163,20,71,10,197,20,73,57,218,31*6C
$GLGSV,3,2,10,74,42,296,16,75,00,324,,80,17,165,32,84,06,359,17*63
$GLGSV,3,3,10,85,02,313,,,,,34*5D
$GNGLL,0419.87015,S,05539.92476,E,075643.00,A,D*6F
$GNTXT,01,01,01,More than 100 frame errors, UART RX was disabled*70
$GNRMC,075644.00,A,0419.87016,S,05539.92475,E,0.030,,200525,,,D*72
$GNVTG,,T,,M,0.030,N,0.055,K,D*3B
$GNGGA,075644.00,0419.87016,S,05539.92475,E,2,12,0.68,9.5,M,-47.6,M,,0000*72
$GNGSA,A,3,05,12,24,18,15,25,23,13,29,10,,,1.19,0.68,0.98*19
$GNGSA,A,3,80,73,69,84,70,74,,,,,,,1.19,0.68,0.98*11
$GPGSV,4,1,16,05,16,028,33,10,27,220,33,12,56,146,35,13,10,081,35*7E
$GPGSV,4,2,16,15,44,101,33,18,24,320,27,23,68,248,31,24,22,155,33*73
$GPGSV,4,3,16,25,83,267,34,28,10,268,,29,25,007,36,32,01,219,*72
$GPGSV,4,4,16,36,52,277,,40,86,351,36,41,58,082,34,49,32,274,*7E
$GLGSV,3,1,10,69,35,067,30,70,47,163,19,71,10,197,17,73,57,218,25*61
$GLGSV,3,2,10,74,42,296,14,75,00,324,,80,17,165,26,84,06,359,16*65
$GLGSV,3,3,10,85,02,313,,,,,29*51
$GNGLL,0419.87016,S,05539.92475,E,075644.00,A,D*68
$GNTXT,01,01,01,More than 100 frame errors, UART RX was disabled*70
$GNRMC,075645.00,A,0419.87017,S,05539.92470,E,0.018,,200525,,,D*7D
$GNVTG,,T,,M,0.018,N,0.033,K,D*31
$GNGGA,075645.00,0419.87017,S,05539.92470,E,2,12,0.68,9.5,M,-47.6,M,,0000*77
$GNGSA,A,3,05,12,24,18,15,25,23,13,29,10,,,1.19,0.68,0.98*19
$GNGSA,A,3,80,73,69,84,70,74,,,,,,,1.19,0.68,0.98*11
$GPGSV,4,1,16,05,16,028,36,10,27,220,36,12,56,146,37,13,10,081,37*7E
$GPGSV,4,2,16,15,44,101,37,18,24,320,33,23,68,248,31,24,22,155,36*77
$GPGSV,4,3,16,25,83,267,37,28,10,268,,29,25,007,38,32,01,219,*7F
$GPGSV,4,4,16,36,52,277,,40,86,351,39,41,58,082,37,49,32,274,*72
$GLGSV,3,1,10,69,35,067,37,70,47,163,21,71,10,197,21,73,57,218,31*6D
$GLGSV,3,2,10,74,42,296,16,75,00,324,,80,17,165,33,84,06,359,18*6D
$GLGSV,3,3,10,85,02,313,,,,,36*5F
$GNGLL,0419.87017,S,05539.92470,E,075645.00,A,D*6D
$GNTXT,01,01,01,More than 100 frame errors, UART RX was disabled*70
$GNRMC,075646.00,A,0419.87017,S,05539.92470,E,0.054,,200525,,,D*76
$GNVTG,,T,,M,0.054,N,0.100,K,D*38
$GNGGA,075646.00,0419.87017,S,05539.92470,E,2,12,0.68,9.6,M,-47.6,M,,0000*77
$GNGSA,A,3,05,12,24,18,15,25,23,13,29,10,,,1.19,0.68,0.98*19
$GNGSA,A,3,80,73,69,84,70,74,,,,,,,1.19,0.68,0.98*11
$GPGSV,4,1,16,05,16,028,29,10,27,220,32,12,56,146,27,13,10,081,29*7A
$GPGSV,4,2,16,15,44,101,31,18,24,320,28,23,68,248,28,24,22,155,30*75
$GPGSV,4,3,16,25,83,267,30,28,10,267,,29,25,007,32,32,01,219,*7D
$GPGSV,4,4,16,36,52,277,,40,86,351,33,41,58,082,31,49,32,274,*7E
$GLGSV,3,1,10,69,35,067,29,70,47,163,22,71,10,197,22,73,57,218,26*64
$GLGSV,3,2,10,74,42,296,18,75,00,324,,80,17,165,29,84,06,359,19*69
$GLGSV,3,3,10,85,02,313,,,,,29*51
$GNGLL,0419.87017,S,05539.92470,E,075646.00,A,D*6E
$GNTXT,01,01,01,More than 100 frame errors, UART RX was disabled*70
$GNRMC,075647.00,A,0419.87017,S,05539.92468,E,0.028,,200525,,,D*75
$GNVTG,,T,,M,0.028,N,0.052,K,D*35
$GNGGA,075647.00,0419.87017,S,05539.92468,E,2,12,0.68,9.6,M,-47.6,M,,0000*7F
$GNGSA,A,3,05,12,24,18,15,25,23,13,29,10,,,1.19,0.68,0.98*19
$GNGSA,A,3,80,73,69,84,70,74,,,,,,,1.19,0.68,0.98*11
$GPGSV,4,1,16,05,16,028,34,10,27,220,34,12,56,146,35,13,10,081,34*7F
$GPGSV,4,2,16,15,44,101,35,18,24,320,28,23,68,248,28,24,22,155,36*77
$GPGSV,4,3,16,25,83,267,34,28,10,267,,29,25,008,37,32,01,219,*73
$GPGSV,4,4,16,36,52,277,,40,86,351,37,41,58,082,33,49,32,274,*78
$GLGSV,3,1,10,69,35,067,33,70,47,163,20,71,10,197,21,73,57,218,25*6D
$GLGSV,3,2,10,74,42,296,15,75,00,324,,80,17,165,29,84,06,359,18*65
$GLGSV,3,3,10,85,02,313,,,,,33*5A
$GNGLL,0419.87017,S,05539.92468,E,075647.00,A,D*66
$GNTXT,01,01,01,More than 100 frame errors, UART RX was disabled*70
$GNRMC,075648.00,A,0419.87013,S,05539.92467,E,0.049,,200525,,,D*76
$GNVTG,,T,,M,0.049,N,0.091,K,D*3D
$GNGGA,075648.00,0419.87013,S,05539.92467,E,2,12,0.68,9.7,M,-47.6,M,,0000*7A
$GNGSA,A,3,05,12,24,18,15,25,23,13,29,10,,,1.19,0.68,0.98*19
$GNGSA,A,3,80,73,69,84,70,74,,,,,,,1.19,0.68,0.98*11
$GPGSV,4,1,16,05,16,028,36,10,27,220,35,12,56,146,33,13,10,081,31*7F
$GPGSV,4,2,16,15,44,101,35,18,24,320,29,23,68,248,32,24,22,155,33*78
$GPGSV,4,3,16,25,83,267,37,28,10,267,,29,25,008,39,32,01,219,*7E
$GPGSV,4,4,16,36,52,277,,40,86,351,39,41,58,082,37,49,32,274,*72
$GLGSV,3,1,10,69,35,067,37,70,47,163,19,71,10,197,21,73,57,218,25*63
$GLGSV,3,2,10,74,42,296,16,75,00,324,,80,17,165,28,84,06,359,17*68
$GLGSV,3,3,10,85,02,313,,,,,29*51
$GNGLL,0419.87013,S,05539.92467,E,075648.00,A,D*62
$GNTXT,01,01,01,More than 100 frame errors, UART RX was disabled*70
$GNRMC,075649.00,A,0419.87011,S,05539.92465,E,0.015,,200525,,,D*7E
$GNVTG,,T,,M,0.015,N,0.027,K,D*39
$GNGGA,075649.00,0419.87011,S,05539.92465,E,2,12,0.68,9.7,M,-47.6,M,,0000*7B
$GNGSA,A,3,05,12,24,18,15,25,23,13,29,10,,,1.19,0.68,0.98*19
$GNGSA,A,3,80,73,69,84,70,74,,,,,,,1.19,0.68,0.98*11
$GPGSV,4,1,16,05,16,028,31,10,27,220,32,12,56,146,32,13,10,081,33*7C
$GPGSV,4,2,16,15,44,101,32,18,24,320,28,23,68,248,28,24,22,155,30*76
$GPGSV,4,3,16,25,83,267,31,28,10,267,,29,25,008,35,32,01,219,*74
$GPGSV,4,4,16,36,52,277,,40,86,351,35,41,58,082,32,49,32,274,*7B
$GLGSV,3,1,10,69,35,067,32,70,47,163,19,71,10,197,21,73,57,218,24*67
$GLGSV,3,2,10,74,42,296,17,75,00,324,,80,17,165,28,84,06,359,17*69
$GLGSV,3,3,10,85,02,313,,,,,28*50
$GNGLL,0419.87011,S,05539.92465,E,075649.00,A,D*63
$GNTXT,01,01,01,More than 100 frame errors, UART RX was disabled*70
$GNRMC,075650.00,A,0419.87011,S,05539.92465,E,0.081,,200525,,,D*7B
$GNVTG,,T,,M,0.081,N,0.149,K,D*3D
$GNGGA,075650.00,0419.87011,S,05539.92465,E,2,12,0.68,9.8,M,-47.6,M,,0000*7C
$GNGSA,A,3,05,12,24,18,15,25,23,13,29,10,,,1.19,0.68,0.98*19
$GNGSA,A,3,80,73,69,84,70,74,,,,,,,1.19,0.68,0.98*11
$GPGSV,4,1,16,05,16,028,35,10,27,220,36,12,56,146,35,13,10,081,33*7B
$GPGSV,4,2,16,15,44,101,35,18,24,320,29,23,68,248,29,24,22,155,32*73
$GPGSV,4,3,16,25,83,267,35,28,10,267,,29,25,008,39,32,01,219,*7C
$GPGSV,4,4,16,36,52,277,,40,86,351,38,41,58,082,34,49,32,274,*70
$GLGSV,3,1,10,69,35,067,36,70,47,163,18,71,10,197,21,73,57,218,26*60
$GLGSV,3,2,10,74,42,296,16,75,00,324,,80,17,165,28,84,06,359,16*69
$GLGSV,3,3,10,85,02,313,,,,,32*5B
$GNGLL,0419.87011,S,05539.92465,E,075650.00,A,D*6B
$GNTXT,01,01,01,More than 100 frame errors, UART RX was disabled*70
$GNRMC,075651.00,A,0419.87009,S,05539.92470,E,0.048,,200525,,,D*72
$GNVTG,,T,,M,0.048,N,0.089,K,D*35
$GNGGA,075651.00,0419.87009,S,05539.92470,E,2,12,0.68,9.7,M,-47.6,M,,0000*7F
$GNGSA,A,3,05,12,24,18,15,25,23,13,29,10,,,1.19,0.68,0.98*19
$GNGSA,A,3,80,73,69,84,70,74,,,,,,,1.19,0.68,0.98*11
$GPGSV,4,1,16,05,16,028,39,10,27,220,40,12,56,146,39,13,10,081,34*7D
$GPGSV,4,2,16,15,44,101,37,18,24,320,35,23,68,248,38,24,22,155,39*77
$GPGSV,4,3,16,25,83,267,39,28,10,267,,29,25,008,42,32,01,219,*7C
$GPGSV,4,4,16,36,52,277,,40,86,351,42,41,58,082,40,49,32,274,*7E
$GLGSV,3,1,10,69,35,067,41,70,47,163,21,71,10,197,24,73,57,218,34*6C
$GLGSV,3,2,10,74,42,296,18,75,00,324,,80,17,165,32,84,06,359,20*69
$GLGSV,3,3,10,85,02,313,,,,,36*5F
$GNGLL,0419.87009,S,05539.92470,E,075651.00,A,D*67
$GNTXT,01,01,01,More than 100 frame errors, UART RX was disabled*70
$GNRMC,075652.00,A,0419.87008,S,05539.92474,E,0.019,,200525,,,D*70
$GNVTG,,T,,M,0.019,N,0.035,K,D*36
$GNGGA,075652.00,0419.87008,S,05539.92474,E,2,12,0.68,9.9,M,-47.6,M,,0000*77
$GNGSA,A,3,05,12,24,18,15,25,23,13,29,10,,,1.19,0.68,0.98*19
$GNGSA,A,3,80,73,69,84,70,74,,,,,,,1.19,0.68,0.98*11
$GPGSV,4,1,16,05,16,028,39,10,27,220,38,12,56,146,39,13,10,081,33*75
$GPGSV,4,2,16,15,44,101,38,18,24,320,34,23,68,248,35,24,22,155,37*7A
$GPGSV,4,3,16,25,83,267,39,28,10,267,,29,25,008,41,32,01,219,*7F
$GPGSV,4,4,16,36,52,277,,40,86,351,42,41,58,082,40,49,32,274,*7E
$GLGSV,3,1,10,69,35,067,41,70,47,163,22,71,10,197,25,73,57,218,33*69
$GLGSV,3,2,10,74,42,296,18,75,00,324,,80,17,165,33,84,06,359,21*69
$GLGSV,3,3,10,85,02,313,,,,,38*51
$GNGLL,0419.87008,S,05539.92474,E,075652.00,A,D*61
$GNTXT,01,01,01,More than 100 frame errors, UART RX was disabled*70
$GNRMC,075653.00,A,0419.87007,S,05539.92472,E,0.044,,200525,,,D*70
$GNVTG,,T,,M,0.044,N,0.081,K,D*31
$GNGGA,075653.00,0419.87007,S,05539.92472,E,2,12,0.68,9.9,M,-47.6,M,,0000*7F
$GNGSA,A,3,05,12,24,18,15,25,23,13,29,10,,,1.19,0.68,0.98*19
$GNGSA,A,3,80,73,69,84,70,74,,,,,,,1.19,0.68,0.98*11
$GPGSV,4,1,16,05,16,028,38,10,27,220,35,12,56,146,35,13,10,081,29*7E
$GPGSV,4,2,16,15,44,101,35,18,24,320,34,23,68,248,32,24,22,155,32*75
$GPGSV,4,3,16,25,83,267,35,28,10,267,,29,25,008,38,32,01,219,*7D
$GPGSV,4,4,16,36,52,277,,40,86,351,39,41,58,082,38,49,32,274,*7D
$GLGSV,3,1,10,69,35,067,34,70,47,163,23,71,10,197,24,73,57,218,28*61
$GLGSV,3,2,10,74,42,296,17,75,00,324,,80,17,165,29,84,06,359,19*66
$GLGSV,3,3,10,85,02,313,,,,,32*5B
$GNGLL,0419.87007,S,05539.92472,E,075653.00,A,D*69
$GNTXT,01,01,01,More than 100 frame errors, UART RX was disabled*70
$GNRMC,075654.00,A,0419.87007,S,05539.92471,E,0.029,,200525,,,D*7F
$GNVTG,,T,,M,0.029,N,0.053,K,D*35
$GNGGA,075654.00,0419.87007,S,05539.92471,E,2,12,0.68,9.9,M,-47.6,M,,0000*7B
$GNGSA,A,3,05,12,24,18,15,25,23,13,29,10,,,1.19,0.68,0.98*19
$GNGSA,A,3,80,73,69,84,70,74,,,,,,,1.19,0.68,0.98*11
$GPGSV,4,1,16,05,16,028,34,10,27,220,34,12,56,146,35,13,10,081,28*72
$GPGSV,4,2,16,15,44,101,32,18,24,320,31,23,68,248,31,24,22,155,33*75
$GPGSV,4,3,16,25,83,267,35,28,10,267,,29,25,008,35,32,01,219,*70
$GPGSV,4,4,16,36,52,277,,40,86,351,38,41,58,082,36,49,32,274,*72
$GLGSV,3,1,10,69,35,067,35,70,47,163,21,71,10,197,21,73,57,218,28*67
$GLGSV,3,2,10,74,42,296,15,75,00,324,,80,17,165,29,84,06,359,17*6A
$GLGSV,3,3,10,85,02,313,,,,,32*5B
$GNGLL,0419.87007,S,05539.92471,E,075654.00,A,D*6D
$GNTXT,01,01,01,More than 100 frame errors, UART RX was disabled*70
$GNRMC,075655.00,A,0419.87004,S,05539.92473,E,0.018,,200525,,,D*7D
$GNVTG,,T,,M,0.018,N,0.033,K,D*31
$GNGGA,075655.00,0419.87004,S,05539.92473,E,2,12,0.68,9.9,M,-47.6,M,,0000*7B
$GNGSA,A,3,05,12,24,18,15,25,23,13,29,10,,,1.19,0.68,0.98*19
$GNGSA,A,3,80,73,69,84,70,74,,,,,,,1.19,0.68,0.98*11
$GPGSV,4,1,16,05,16,028,38,10,27,220,35,12,56,146,36,13,10,081,34*71
$GPGSV,4,2,16,15,44,101,36,18,24,320,34,23,68,248,33,24,22,155,35*70
$GPGSV,4,3,16,25,83,267,37,28,10,267,,29,25,008,38,32,01,219,*7F
$GPGSV,4,4,16,36,52,277,,40,86,351,40,41,58,082,39,49,32,274,*72
$GLGSV,3,1,10,69,35,067,39,70,47,163,21,71,10,197,22,73,57,218,35*64
$GLGSV,3,2,10,74,42,296,19,75,00,324,,80,17,165,31,84,06,359,18*60
$GLGSV,3,3,10,85,02,313,,,,,36*5F
$GNGLL,0419.87004,S,05539.92473,E,075655.00,A,D*6D
$GNTXT,01,01,01,More than 100 frame errors, UART RX was disabled*70
$GNRMC,075656.00,A,0419.87001,S,05539.92475,E,0.029,,200525,,,D*7F
$GNVTG,,T,,M,0.029,N,0.053,K,D*35
$GNGGA,075656.00,0419.87001,S,05539.92475,E,2,12,0.68,10.0,M,-47.6,M,,0000*4A
$GNGSA,A,3,05,12,24,18,15,25,23,13,29,10,,,1.19,0.68,0.98*19
$GNGSA,A,3,80,73,69,84,70,74,,,,,,,1.19,0.68,0.98*11
$GPGSV,4,1,16,05,16,028,38,10,27,220,35,12,56,146,36,13,10,081,34*71
$GPGSV,4,2,16,15,44,101,37,18,24,320,34,23,68,248,34,24,22,155,35*76
$GPGSV,4,3,16,25,83,267,38,28,10,267,,29,25,008,38,32,01,219,*70
$GPGSV,4,4,16,36,52,277,,40,86,351,41,41,58,082,38,49,32,274,*72
$GLGSV,3,1,10,69,35,067,37,70,47,163,22,71,10,197,23,73,57,218,36*6B
$GLGSV,3,2,10,74,42,296,14,75,00,324,,80,17,165,32,84,06,359,19*6F
$GLGSV,3,3,10,85,02,313,,,,,36*5F
$GNGLL,0419.87001,S,05539.92475,E,075656.00,A,D*6D
$GNTXT,01,01,01,More than 100 frame errors, UART RX was disabled*70
$GNRMC,075657.00,A,0419.87000,S,05539.92475,E,0.012,,200525,,,D*77
$GNVTG,,T,,M,0.012,N,0.022,K,D*3B
$GNGGA,075657.00,0419.87000,S,05539.92475,E,2,12,0.68,9.9,M,-47.6,M,,0000*7B
$GNGSA,A,3,05,12,24,18,15,25,23,13,29,10,,,1.19,0.68,0.98*19
$GNGSA,A,3,80,73,69,84,70,74,,,,,,,1.19,0.68,0.98*11
$GPGSV,4,1,16,05,16,028,35,10,27,220,35,12,56,146,35,13,10,081,31*7A
$GPGSV,4,2,16,15,44,101,36,18,24,320,34,23,68,248,33,24,22,155,34*71
$GPGSV,4,3,16,25,83,267,36,28,10,267,,29,25,008,36,32,01,219,*70
$GPGSV,4,4,16,36,52,277,,40,86,351,39,41,58,082,37,49,32,274,*72
$GLGSV,3,1,10,69,35,067,35,70,47,163,24,71,10,197,23,73,57,218,36*6F
$GLGSV,3,2,10,74,42,296,18,75,00,324,,80,17,165,32,84,06,359,18*62
$GLGSV,3,3,10,85,02,313,,,,,34*5D
$GNGLL,0419.87000,S,05539.92475,E,075657.00,A,D*6D
$GNTXT,01,01,01,More than 100 frame errors, UART RX was disabled*70
$GNRMC,075658.00,A,0419.86998,S,05539.92474,E,0.033,,200525,,,D*73
$GNVTG,,T,,M,0.033,N,0.061,K,D*3F
$GNGGA,075658.00,0419.86998,S,05539.92474,E,2,12,0.68,10.0,M,-47.6,M,,0000*4D
$GNGSA,A,3,05,12,24,18,15,25,23,13,29,10,,,1.19,0.68,0.98*19
$GNGSA,A,3,80,73,69,84,70,74,,,,,,,1.19,0.68,0.98*11
$GPGSV,4,1,16,05,16,028,39,10,27,220,36,12,56,146,37,13,10,081,35*73
$GPGSV,4,2,16,15,44,101,38,18,24,320,36,23,68,248,34,24,22,155,37*79
$GPGSV,4,3,16,25,83,267,39,28,10,267,,29,25,008,40,32,01,219,*7E
$GPGSV,4,4,16,36,52,277,,40,86,351,42,41,58,082,39,49,32,274,*70
$GLGSV,3,1,10,69,35,067,38,70,47,163,24,71,10,197,22,73,57,218,36*63
$GLGSV,3,2,10,74,42,296,15,75,00,324,,80,17,165,32,84,06,359,18*6F
$GLGSV,3,3,10,85,02,313,,,,,35*5C
$GNGLL,0419.86998,S,05539.92474,E,075658.00,A,D*6A
$GNTXT,01,01,01,More than 100 frame errors, UART RX was disabled*70
$GNRMC,075659.00,A,0419.86998,S,05539.92474,E,0.016,,200525,,,D*75
$GNVTG,,T,,M,0.016,N,0.029,K,D*34
$GNGGA,075659.00,0419.86998,S,05539.92474,E,2,12,0.68,10.1,M,-47.6,M,,0000*4D
$GNGSA,A,3,05,12,24,18,15,25,23,13,29,10,,,1.19,0.68,0.98*19
$GNGSA,A,3,80,73,69,84,70,74,,,,,,,1.19,0.68,0.98*11
$GPGSV,4,1,16,05,16,028,38,10,27,220,36,12,56,146,36,13,10,081,36*70
$GPGSV,4,2,16,15,44,101,36,18,24,320,35,23,68,248,34,24,22,155,37*74
$GPGSV,4,3,16,25,83,267,39,28,10,267,,29,25,008,41,32,01,219,*7F
$GPGSV,4,4,16,36,52,277,,40,86,351,40,41,58,082,39,49,32,274,*72
$GLGSV,3,1,10,69,35,067,38,70,47,163,24,71,10,197,21,73,57,218,36*60
$GLGSV,3,2,10,74,42,296,16,75,00,324,,80,17,165,32,84,06,359,19*6D
$GLGSV,3,3,10,85,02,313,,,,,36*5F
$GNGLL,0419.86998,S,05539.92474,E,075659.00,A,D*6B
$GNTXT,01,01,01,More than 100 frame errors, UART RX was disabled*70
$GNRMC,075700.00,A,0419.86996,S,05539.92472,E,0.028,,200525,,,D*7D
$GNVTG,,T,,M,0.028,N,0.051,K,D*36
$GNGGA,075700.00,0419.86996,S,05539.92472,E,2,12,0.68,10.1,M,-47.6,M,,0000*48
$GNGSA,A,3,05,12,24,18,15,25,23,13,29,10,,,1.19,0.68,0.98*19
$GNGSA,A,3,80,73,69,84,70,74,,,,,,,1.19,0.68,0.98*11
$GPGSV,4,1,16,05,16,028,38,10,27,220,38,12,56,146,38,13,10,081,36*70
$GPGSV,4,2,16,15,44,101,40,18,24,320,35,23,68,248,33,24,22,155,37*72
$GPGSV,4,3,16,25,83,267,39,28,10,267,,29,25,008,40,32,01,219,*7E
$GPGSV,4,4,16,36,52,277,,40,86,351,42,41,58,082,39,49,32,274,*70
$GLGSV,3,1,10,69,35,067,39,70,47,163,23,71,10,197,23,73,57,218,33*61
$GLGSV,3,2,10,74,42,296,17,75,00,324,,80,17,165,33,84,06,359,19*6D
$GLGSV,3,3,10,85,02,313,,,,,36*5F
$GNGLL,0419.86996,S,05539.92472,E,075700.00,A,D*6E
$GNTXT,01,01,01,More than 100 frame errors, UART RX was disabled*70
$GNRMC,075701.00,A,0419.86995,S,05539.92471,E,0.013,,200525,,,D*74
$GNVTG,,T,,M,0.013,N,0.024,K,D*3C
$GNGGA,075701.00,0419.86995,S,05539.92471,E,2,12,0.68,10.1,M,-47.6,M,,0000*49
$GNGSA,A,3,05,12,24,18,15,25,23,13,29,10,,,1.19,0.68,0.98*19
$GNGSA,A,3,80,73,69,84,70,74,,,,,,,1.19,0.68,0.98*11
$GPGSV,4,1,16,05,16,028,38,10,27,220,38,12,56,146,38,13,10,081,35*73
$GPGSV,4,2,16,15,44,101,39,18,24,320,34,23,68,248,33,24,22,155,38*72
$GPGSV,4,3,16,25,83,267,39,28,10,267,,29,25,008,41,32,01,219,*7F
$GPGSV,4,4,16,36,52,277,,40,86,351,42,41,58,082,39,49,32,274,*70
$GLGSV,3,1,10,69,35,067,37,70,47,163,23,71,10,197,24,73,57,218,33*68
$GLGSV,3,2,10,74,42,296,16,75,00,324,,80,17,165,33,84,06,359,19*6C
$GLGSV,3,3,10,85,02,313,,,,,36*5F
$GNGLL,0419.86995,S,05539.92471,E,075701.00,A,D*6F
$GNTXT,01,01,01,More than 100 frame errors, UART RX was disabled*70
$GNRMC,075702.00,A,0419.86993,S,05539.92471,E,0.007,,200525,,,D*74
$GNVTG,,T,,M,0.007,N,0.012,K,D*3C
$GNGGA,075702.00,0419.86993,S,05539.92471,E,2,12,0.68,10.1,M,-47.6,M,,0000*4C
$GNGSA,A,3,05,12,24,18,15,25,23,13,29,10,,,1.19,0.68,0.98*19
$GNGSA,A,3,80,73,69,84,70,74,,,,,,,1.19,0.68,0.98*11
$GPGSV,4,1,16,05,16,028,36,10,27,220,37,12,56,146,36,13,10,081,34*7D
$GPGSV,4,2,16,15,44,101,37,18,24,320,33,23,68,248,33,24,22,155,37*74
$GPGSV,4,3,16,25,83,267,38,28,10,267,,29,25,008,39,32,01,219,*71
$GPGSV,4,4,16,36,52,277,,40,86,351,41,41,58,082,37,49,32,274,*7D
$GLGSV,3,1,10,69,35,067,37,70,47,163,23,71,10,197,25,73,57,218,33*69
$GLGSV,3,2,10,74,42,296,14,75,00,324,,80,17,165,33,84,06,359,21*65
$GLGSV,3,3,10,85,02,313,,,,,35*5C
$GNGLL,0419.86993,S,05539.92471,E,075702.00,A,D*6A
$GNTXT,01,01,01,More than 100 frame errors, UART RX was disabled*70
$GNRMC,075703.00,A,0419.86992,S,05539.92471,E,0.057,,200525,,,D*71
$GNVTG,,T,,M,0.057,N,0.106,K,D*3D
$GNGGA,075703.00,0419.86992,S,05539.92471,E,2,12,0.68,10.1,M,-47.6,M,,0000*4C
$GNGSA,A,3,05,12,24,18,15,25,23,13,29,10,,,1.19,0.68,0.98*19
$GNGSA,A,3,80,73,69,84,70,74,,,,,,,1.19,0.68,0.98*11
$GPGSV,4,1,16,05,16,028,37,10,27,220,36,12,56,146,36,13,10,081,34*7D
$GPGSV,4,2,16,15,44,101,38,18,24,320,34,23,68,248,32,24,22,155,37*7D
$GPGSV,4,3,16,25,83,267,39,28,10,267,,29,25,008,41,32,01,219,*7F
$GPGSV,4,4,16,36,52,277,,40,86,351,42,41,58,082,40,49,32,274,*7E
$GLGSV,3,1,10,69,35,067,40,70,47,163,24,71,10,197,25,73,57,218,36*6B
$GLGSV,3,2,10,74,42,296,13,75,00,324,,80,17,165,33,84,06,359,20*63
$GLGSV,3,3,10,85,02,313,,,,,36*5F
$GNGLL,0419.86992,S,05539.92471,E,075703.00,A,D*6A
$GNTXT,01,01,01,More than 100 frame errors, UART RX was disabled*70
$GNRMC,075704.00,A,0419.86990,S,05539.92471,E,0.016,,200525,,,D*71
$GNVTG,,T,,M,0.016,N,0.030,K,D*3C
$GNGGA,075704.00,0419.86990,S,05539.92471,E,2,12,0.68,10.1,M,-47.6,M,,0000*49
$GNGSA,A,3,05,12,24,18,15,25,23,13,29,10,,,1.19,0.68,0.98*19
$GNGSA,A,3,80,73,69,84,70,74,,,,,,,1.19,0.68,0.98*11
$GPGSV,4,1,16,05,16,028,39,10,27,220,37,12,56,146,36,13,10,081,33*75
$GPGSV,4,2,16,15,44,101,38,18,24,320,34,23,68,248,33,24,22,155,37*7C
$GPGSV,4,3,16,25,83,267,39,28,10,267,,29,25,008,41,32,01,219,*7F
$GPGSV,4,4,16,36,52,277,,40,86,351,42,41,58,082,39,49,32,274,*70
$GLGSV,3,1,10,69,35,067,40,70,47,163,24,71,10,197,25,73,57,218,36*6B
$GLGSV,3,2,10,74,42,296,14,75,00,324,,80,17,165,34,84,06,359,20*63
$GLGSV,3,3,10,85,02,313,,,,,36*5F
$GNGLL,0419.86990,S,05539.92471,E,075704.00,A,D*6F
$GNTXT,01,01,01,More than 100 frame errors, UART RX was disabled*70
$GNRMC,075705.00,A,0419.86989,S,05539.92471,E,0.006,,200525,,,D*79
$GNVTG,,T,,M,0.006,N,0.011,K,D*3E
$GNGGA,075705.00,0419.86989,S,05539.92471,E,2,12,0.68,10.1,M,-47.6,M,,0000*40
$GNGSA,A,3,05,12,24,18,15,25,23,13,29,10,,,1.19,0.68,0.98*19
$GNGSA,A,3,80,73,69,84,70,74,,,,,,,1.19,0.68,0.98*11
$GPGSV,4,1,16,05,16,028,38,10,27,220,37,12,56,146,37,13,10,081,32*74
$GPGSV,4,2,16,15,44,101,38,18,24,320,35,23,68,248,33,24,22,155,38*72
$GPGSV,4,3,16,25,83,267,40,28,10,267,,29,25,008,41,32,01,219,*71
$GPGSV,4,4,16,36,52,277,,40,86,351,43,41,58,082,40,49,32,274,*7F
$GLGSV,3,1,10,69,35,067,40,70,47,163,24,71,10,197,25,73,57,218,36*6B
$GLGSV,3,2,10,74,42,296,15,75,00,324,,80,17,165,34,84,06,359,21*63
$GLGSV,3,3,10,85,02,313,,,,,36*5F
$GNGLL,0419.86989,S,05539.92471,E,075705.00,A,D*66
$GNTXT,01,01,01,More than 100 frame errors, UART RX was disabled*70
$GNRMC,075706.00,A,0419.86989,S,05539.92472,E,0.016,,200525,,,D*78
$GNVTG,,T,,M,0.016,N,0.029,K,D*34
$GNGGA,075706.00,0419.86989,S,05539.92472,E,2,12,0.68,10.1,M,-47.6,M,,0000*40
$GNGSA,A,3,05,12,24,18,15,25,23,13,29,10,,,1.19,0.68,0.98*19
$GNGSA,A,3,80,73,69,84,70,74,,,,,,,1.19,0.68,0.98*11
$GPGSV,4,1,16,05,16,028,38,10,27,220,37,12,56,146,37,13,10,081,31*77
$GPGSV,4,2,16,15,44,101,39,18,24,320,35,23,68,248,33,24,22,155,38*73
$GPGSV,4,3,16,25,83,267,39,28,10,267,,29,25,008,41,32,01,219,*7F
$GPGSV,4,4,16,36,52,277,,40,86,351,43,41,58,082,40,49,32,274,*7F
$GLGSV,3,1,10,69,35,067,39,70,47,163,25,71,10,197,25,73,57,218,36*64
$GLGSV,3,2,10,74,42,296,15,75,00,324,,80,17,165,34,84,06,359,20*62
$GLGSV,3,3,10,85,02,313,,,,,36*5F
$GNGLL,0419.86989,S,05539.92472,E,075706.00,A,D*66
$GNTXT,01,01,01,More than 100 frame errors, UART RX was disabled*70
$GNRMC,075707.00,A,0419.86988,S,05539.92474,E,0.018,,200525,,,D*70
$GNVTG,,T,,M,0.018,N,0.034,K,D*36
$GNGGA,075707.00,0419.86988,S,05539.92474,E,2,12,0.68,10.1,M,-47.6,M,,0000*46
$GNGSA,A,3,05,12,24,18,15,25,23,13,29,10,,,1.19,0.68,0.98*19
$GNGSA,A,3,80,73,69,84,70,74,,,,,,,1.19,0.68,0.98*11
$GPGSV,4,1,16,05,16,028,38,10,27,220,37,12,56,146,37,13,10,081,31*77
$GPGSV,4,2,16,15,44,101,38,18,24,320,35,23,68,248,32,24,22,155,38*73
$GPGSV,4,3,16,25,83,267,39,28,10,267,,29,25,008,41,32,01,219,*7F
$GPGSV,4,4,16,36,52,277,,40,86,351,42,41,58,082,39,49,32,274,*70
$GLGSV,3,1,10,69,35,067,39,70,47,163,25,71,10,197,26,73,57,218,36*67
$GLGSV,3,2,10,74,42,296,15,75,00,324,,80,17,165,33,84,06,359,19*6F
$GLGSV,3,3,10,85,02,313,,,,,37*5E
$GNGLL,0419.86988,S,05539.92474,E,075707.00,A,D*60
$GNTXT,01,01,01,More than 100 frame errors, UART RX was disabled*70
$GNRMC,075708.00,A,0419.86988,S,05539.92475,E,0.015,,200525,,,D*73
$GNVTG,,T,,M,0.015,N,0.028,K,D*36
$GNGGA,075708.00,0419.86988,S,05539.92475,E,2,12,0.68,10.0,M,-47.6,M,,0000*49
$GNGSA,A,3,05,12,24,18,15,25,23,13,29,10,,,1.19,0.68,0.98*19
$GNGSA,A,3,80,73,69,84,70,74,,,,,,,1.19,0.68,0.98*11
$GPGSV,4,1,16,05,16,028,37,10,27,220,36,12,56,146,36,13,10,081,30*79
$GPGSV,4,2,16,15,44,101,38,18,24,320,34,23,68,248,32,24,22,155,37*7D
$GPGSV,4,3,16,25,83,267,39,28,10,267,,29,25,008,40,32,01,219,*7E
$GPGSV,4,4,16,36,52,277,,40,86,351,42,41,58,082,38,49,32,274,*71
$GLGSV,3,1,10,69,35,067,39,70,47,163,24,71,10,197,26,73,57,218,36*66
$GLGSV,3,2,10,74,42,296,16,75,00,324,,80,17,165,34,84,06,359,19*6B
$GLGSV,3,3,10,85,02,313,,,,,36*5F
$GNGLL,0419.86988,S,05539.92475,E,075708.00,A,D*6E
$GNTXT,01,01,01,More than 100 frame errors, UART RX was disabled*70
$GNRMC,075709.00,A,0419.86988,S,05539.92475,E,0.018,,200525,,,D*7F
$GNVTG,,T,,M,0.018,N,0.033,K,D*31
$GNGGA,075709.00,0419.86988,S,05539.92475,E,2,12,0.68,10.0,M,-47.6,M,,0000*48
$GNGSA,A,3,05,12,24,18,15,25,23,13,29,10,,,1.19,0.68,0.98*19
$GNGSA,A,3,80,73,69,84,70,74,,,,,,,1.19,0.68,0.98*11
$GPGSV,4,1,16,05,16,028,37,10,27,220,36,12,56,146,36,13,10,081,28*70
$GPGSV,4,2,16,15,44,101,37,18,24,320,33,23,68,248,31,24,22,155,36*77
$GPGSV,4,3,16,25,83,267,38,28,10,267,,29,25,008,39,32,01,219,*71
$GPGSV,4,4,16,36,52,277,,40,86,351,41,41,58,082,38,49,32,274,*72
$GLGSV,3,1,10,69,35,067,39,70,47,163,24,71,10,197,25,73,57,218,36*65
$GLGSV,3,2,10,74,42,296,16,75,00,324,,80,17,165,34,84,06,359,19*6B
$GLGSV,3,3,10,85,02,313,,,,,37*5E
$GNGLL,0419.86988,S,05539.92475,E,075709.00,A,D*6F
$GNTXT,01,01,01,More than 100 frame errors, UART RX was disabled*70
$GNRMC,075710.00,A,0419.86988,S,05539.92475,E,0.030,,200525,,,D*7D
$GNVTG,,T,,M,0.030,N,0.056,K,D*38
$GNGGA,075710.00,0419.86988,S,05539.92475,E,2,12,0.68,9.9,M,-47.6,M,,0000*71
$GNGSA,A,3,05,12,24,18,15,25,23,13,29,10,,,1.19,0.68,0.98*19
$GNGSA,A,3,80,73,69,84,70,74,,,,,,,1.19,0.68,0.98*11
$GPGSV,4,1,16,05,16,028,37,10,27,220,35,12,56,146,36,13,10,081,27*7C
$GPGSV,4,2,16,15,44,101,37,18,24,320,30,23,68,248,31,24,22,155,36*74
$GPGSV,4,3,16,25,83,267,38,28,10,267,,29,25,008,40,32,01,219,*7F
$GPGSV,4,4,16,36,52,277,,40,86,351,42,41,58,082,38,49,32,274,*71
$GLGSV,3,1,10,69,35,067,37,70,47,163,23,71,10,197,23,73,57,218,32*6E
$GLGSV,3,2,10,74,42,296,16,75,00,324,,80,17,165,30,84,06,359,18*6E
$GLGSV,3,3,10,85,02,313,,,,,33*5A
$GNGLL,0419.86988,S,05539.92475,E,075710.00,A,D*67
$GNTXT,01,01,01,More than 100 frame errors, UART RX was disabled*70
$GNRMC,075711.00,A,0419.86987,S,05539.92476,E,0.009,,200525,,,D*7A
$GNVTG,,T,,M,0.009,N,0.016,K,D*36
$GNGGA,075711.00,0419.86987,S,05539.92476,E,2,12,0.68,9.8,M,-47.6,M,,0000*7D
$GNGSA,A,3,05,12,24,18,15,25,23,13,29,10,,,1.19,0.68,0.98*19
$GNGSA,A,3,80,73,69,84,70,74,,,,,,,1.19,0.68,0.98*11
$GPGSV,4,1,16,05,16,028,38,10,27,220,37,12,56,146,37,13,10,081,33*75
$GPGSV,4,2,16,15,44,101,38,18,24,320,35,23,68,248,34,24,22,155,38*75
$GPGSV,4,3,16,25,83,267,40,28,10,267,,29,25,008,41,32,01,219,*71
$GPGSV,4,4,16,36,52,277,,40,86,351,43,41,58,082,40,49,32,274,*7F
$GLGSV,3,1,10,69,35,067,41,70,47,163,24,71,10,197,23,73,57,218,38*62
$GLGSV,3,2,10,74,42,296,16,75,00,324,,80,17,165,34,84,06,359,20*61
$GLGSV,3,3,10,85,02,313,,,,,39*50
$GNGLL,0419.86987,S,05539.92476,E,075711.00,A,D*6A
$GNTXT,01,01,01,More than 100 frame errors, UART RX was disabled*70
$GNRMC,075712.00,A,0419.86986,S,05539.92475,E,0.011,,200525,,,D*72
$GNVTG,,T,,M,0.011,N,0.020,K,D*3A
$GNGGA,075712.00,0419.86986,S,05539.92475,E,2,12,0.68,9.8,M,-47.6,M,,0000*7C
$GNGSA,A,3,05,12,24,18,15,25,23,13,29,10,,,1.19,0.68,0.98*19
$GNGSA,A,3,80,73,69,84,70,74,,,,,,,1.19,0.68,0.98*11
$GPGSV,4,1,16,05,16,028,38,10,27,220,37,12,56,146,37,13,10,081,34*72
$GPGSV,4,2,16,15,44,101,39,18,24,320,35,23,68,248,34,24,22,155,38*74
$GPGSV,4,3,16,25,83,267,40,28,10,267,,29,25,008,40,32,01,219,*70
$GPGSV,4,4,16,36,52,277,,40,86,351,43,41,58,082,39,49,32,274,*71
$GLGSV,3,1,10,69,35,067,40,70,47,163,25,71,10,197,25,73,57,218,36*6A
$GLGSV,3,2,10,74,42,296,14,75,00,324,,80,17,165,35,84,06,359,22*60
$GLGSV,3,3,10,85,02,313,,,,,37*5E
$GNGLL,0419.86986,S,05539.92475,E,075712.00,A,D*6B
$GNTXT,01,01,01,More than 100 frame errors, UART RX was disabled*70
$GNRMC,075713.00,A,0419.86987,S,05539.92476,E,0.017,,200525,,,D*77
$GNVTG,,T,,M,0.017,N,0.032,K,D*3F
$GNGGA,075713.00,0419.86987,S,05539.92476,E,2,12,0.68,9.7,M,-47.6,M,,0000*70
$GNGSA,A,3,05,12,24,18,15,25,23,13,29,10,,,1.19,0.68,0.98*19
$GNGSA,A,3,80,73,69,84,70,74,,,,,,,1.19,0.68,0.98*11
$GPGSV,4,1,16,05,16,028,38,10,27,220,37,12,56,146,37,13,10,081,34*72
$GPGSV,4,2,16,15,44,101,39,18,24,320,35,23,68,248,34,24,22,155,38*74
$GPGSV,4,3,16,25,83,267,40,28,10,267,,29,25,008,41,32,01,219,*71
$GPGSV,4,4,16,36,52,277,,40,86,351,43,41,58,082,39,49,32,274,*71
$GLGSV,3,1,10,69,35,067,41,70,47,163,25,71,10,197,26,73,57,218,36*68
$GLGSV,3,2,10,74,42,296,15,75,00,324,,80,17,165,35,84,06,359,22*61
$GLGSV,3,3,10,85,02,313,,,,,37*5E
$GNGLL,0419.86987,S,05539.92476,E,075713.00,A,D*68
$GNTXT,01,01,01,More than 100 frame errors, UART RX was disabled*70
$GNRMC,075714.00,A,0419.86987,S,05539.92476,E,0.008,,200525,,,D*7E
$GNVTG,,T,,M,0.008,N,0.014,K,D*35
$GNGGA,075714.00,0419.86987,S,05539.92476,E,2,12,0.68,9.7,M,-47.6,M,,0000*77
$GNGSA,A,3,05,12,24,18,15,25,23,13,29,10,,,1.19,0.68,0.98*19
$GNGSA,A,3,80,73,69,84,70,74,,,,,,,1.19,0.68,0.98*11
$GPGSV,4,1,16,05,16,028,38,10,27,220,37,12,56,146,37,13,10,081,35*73
$GPGSV,4,2,16,15,44,101,39,18,24,320,35,23,68,248,33,24,22,155,38*73
$GPGSV,4,3,16,25,83,267,40,28,10,267,,29,25,008,41,32,01,219,*71
$GPGSV,4,4,16,36,52,277,,40,86,351,43,41,58,082,39,49,32,274,*71
$GLGSV,3,1,10,69,35,067,39,70,47,163,25,71,10,197,26,73,57,218,36*67
$GLGSV,3,2,10,74,42,296,15,75,00,324,,80,17,165,35,84,06,359,21*62
$GLGSV,3,3,10,85,02,313,,,,,37*5E
$GNGLL,0419.86987,S,05539.92476,E,075714.00,A,D*6F
$GNTXT,01,01,01,More than 100 frame errors, UART RX was disabled*70
$GNRMC,075715.00,A,0419.86986,S,05539.92476,E,0.026,,200525,,,D*72
$GNVTG,,T,,M,0.026,N,0.048,K,D*30
$GNGGA,075715.00,0419.86986,S,05539.92476,E,2,12,0.68,9.6,M,-47.6,M,,0000*76
$GNGSA,A,3,05,12,24,18,15,25,23,13,29,10,,,1.19,0.68,0.98*19
$GNGSA,A,3,80,73,69,84,70,74,,,,,,,1.19,0.68,0.98*11
$GPGSV,4,1,16,05,16,028,38,10,27,220,37,12,56,146,37,13,10,081,35*73
$GPGSV,4,2,16,15,44,101,38,18,24,320,35,23,68,248,33,24,22,155,38*72
$GPGSV,4,3,16,25,83,267,40,28,10,267,,29,25,008,41,32,01,219,*71
$GPGSV,4,4,16,36,52,277,,40,86,351,42,41,58,082,39,49,32,274,*70
$GLGSV,3,1,10,69,35,066,39,70,47,163,25,71,10,197,26,73,57,218,37*67
$GLGSV,3,2,10,74,42,296,15,75,00,324,,80,17,165,35,84,06,359,21*62
$GLGSV,3,3,10,85,02,313,,,,,37*5E
$GNGLL,0419.86986,S,05539.92476,E,075715.00,A,D*6F
$GNTXT,01,01,01,More than 100 frame errors, UART RX was disabled*70
$GNRMC,075716.00,A,0419.86986,S,05539.92476,E,0.012,,200525,,,D*76
$GNVTG,,T,,M,0.012,N,0.022,K,D*3B
$GNGGA,075716.00,0419.86986,S,05539.92476,E,2,12,0.68,9.7,M,-47.6,M,,0000*74
$GNGSA,A,3,05,12,24,18,15,25,23,13,29,10,,,1.19,0.68,0.98*19
$GNGSA,A,3,80,73,69,84,70,74,,,,,,,1.19,0.68,0.98*11
$GPGSV,4,1,16,05,16,028,39,10,27,220,38,12,56,146,39,13,10,081,36*70
