$GNTXT,01,01,01,More than 100 frame errors, UART RX was disabled*70
$GNRMC,080430.00,A,0419.87116,S,05539.90923,E,0.566,,200525,,,D*72
$GNVTG,,T,,M,0.566,N,1.048,K,D*30
$GNGGA,080430.00,0419.87116,S,05539.90923,E,2,12,0.74,6.2,M,-47.6,M,,0000*71
$GNGSA,A,3,05,12,24,18,15,25,23,13,10,,,,1.28,0.74,1.04*19
$GNGSA,A,3,80,73,69,70,74,,,,,,,,1.28,0.74,1.04*16
$GPGSV,4,1,16,05,13,028,16,10,30,222,12,12,53,148,24,13,09,077,25*70
$GPGSV,4,2,16,15,44,096,31,18,23,323,20,23,69,259,19,24,20,152,20*71
$GPGSV,4,3,16,25,82,236,18,28,11,264,,29,27,011,,32,03,217,*78
$GPGSV,4,4,16,36,52,277,,40,86,351,31,41,58,082,30,49,32,274,*7D
$GLGSV,3,1,10,69,34,062,22,70,50,160,22,71,14,196,,73,54,213,20*65
$GLGSV,3,2,10,74,44,291,12,75,03,322,,80,14,164,23,84,05,002,*69
$GLGSV,3,3,10,85,02,317,,,,,27*5B
$GNGLL,0419.87116,S,05539.90923,E,080430.00,A,D*6E
$GNTXT,01,01,01,More than 100 frame errors, UART RX was disabled*70
$GNRMC,080431.00,A,0419.87122,S,05539.90934,E,0.295,,200525,,,D*79
$GNVTG,,T,,M,0.295,N,0.546,K,D*31
$GNGGA,080431.00,0419.87122,S,05539.90934,E,2,12,0.74,6.3,M,-47.6,M,,0000*70
$GNGSA,A,3,05,12,24,18,15,25,23,13,10,,,,1.28,0.74,1.04*19
$GNGSA,A,3,80,73,69,70,74,,,,,,,,1.28,0.74,1.04*16
$GPGSV,4,1,16,05,13,028,14,10,30,222,18,12,53,148,32,13,09,077,27*7D
$GPGSV,4,2,16,15,44,096,34,18,23,323,20,23,69,259,18,24,20,152,18*7E
$GPGSV,4,3,16,25,82,236,15,28,11,264,,29,27,011,,32,03,217,*75
$GPGSV,4,4,16,36,52,277,,40,86,351,31,41,58,082,32,49,32,274,*7F
$GLGSV,3,1,10,69,34,062,30,70,50,160,20,71,14,196,,73,54,213,19*6E
$GLGSV,3,2,10,74,44,291,11,75,03,322,,80,14,164,21,84,05,002,*68
$GLGSV,3,3,10,85,02,317,,,,,26*5A
$GNGLL,0419.87122,S,05539.90934,E,080431.00,A,D*6E
$GNTXT,01,01,01,More than 100 frame errors, UART RX was disabled*70
$GNRMC,080432.00,A,0419.87123,S,05539.90934,E,0.440,,200525,,,D*75
$GNVTG,,T,,M,0.440,N,0.816,K,D*37
$GNGGA,080432.00,0419.87123,S,05539.90934,E,2,12,0.74,6.1,M,-47.6,M,,0000*70
$GNGSA,A,3,05,12,24,18,15,25,23,13,10,,,,1.28,0.74,1.04*19
$GNGSA,A,3,80,73,69,70,74,,,,,,,,1.28,0.74,1.04*16
$GPGSV,4,1,16,05,13,028,11,10,30,222,11,12,53,148,35,13,09,077,30*70
$GPGSV,4,2,16,15,44,096,39,18,23,323,19,23,69,259,18,24,20,152,20*72
$GPGSV,4,3,16,25,82,236,12,28,11,264,,29,27,011,,32,03,217,*72
$GPGSV,4,4,16,36,52,277,,40,86,351,31,41,58,082,35,49,32,274,*78
$GLGSV,3,1,10,69,34,062,32,70,50,160,21,71,14,196,,73,54,213,21*66
$GLGSV,3,2,10,74,44,291,14,75,03,322,,80,14,164,22,84,05,002,*6E
$GLGSV,3,3,10,85,02,317,,,,,28*54
$GNGLL,0419.87123,S,05539.90934,E,080432.00,A,D*6C
$GNTXT,01,01,01,More than 100 frame errors, UART RX was disabled*70
$GNRMC,080433.00,A,0419.87127,S,05539.90940,E,0.068,,200525,,,D*7D
$GNVTG,,T,,M,0.068,N,0.126,K,D*33
$GNGGA,080433.00,0419.87127,S,05539.90940,E,2,12,0.74,6.1,M,-47.6,M,,0000*76
$GNGSA,A,3,05,12,24,18,15,25,23,13,10,,,,1.28,0.74,1.04*19
$GNGSA,A,3,80,73,69,70,74,,,,,,,,1.28,0.74,1.04*16
$GPGSV,4,1,16,05,13,028,12,10,30,222,15,12,53,148,33,13,09,077,28*78
$GPGSV,4,2,16,15,44,096,37,18,23,323,18,23,69,259,18,24,20,152,19*77
$GPGSV,4,3,16,25,82,236,16,28,11,264,,29,27,011,,32,03,217,*76
$GPGSV,4,4,16,36,52,277,,40,86,351,30,41,58,082,32,49,32,274,*7E
$GLGSV,3,1,10,69,34,062,32,70,50,160,22,71,14,196,,73,54,213,21*65
$GLGSV,3,2,10,74,44,291,09,75,03,322,,80,14,164,25,84,05,002,*65
$GLGSV,3,3,10,85,02,317,,,,,26*5A
$GNGLL,0419.87127,S,05539.90940,E,080433.00,A,D*6A
$GNTXT,01,01,01,More than 100 frame errors, UART RX was disabled*70
$GNRMC,080434.00,A,0419.87122,S,05539.90931,E,0.234,,200525,,,D*72
$GNVTG,,T,,M,0.234,N,0.434,K,D*3E
$GNGGA,080434.00,0419.87122,S,05539.90931,E,2,12,0.74,6.0,M,-47.6,M,,0000*73
$GNGSA,A,3,05,12,24,18,15,25,23,13,10,,,,1.28,0.74,1.04*19
$GNGSA,A,3,80,73,69,70,74,,,,,,,,1.28,0.74,1.04*16
$GPGSV,4,1,16,05,13,028,16,10,30,222,19,12,53,148,29,13,09,077,25*76
$GPGSV,4,2,16,15,44,096,32,18,23,323,17,23,69,259,19,24,20,152,21*77
$GPGSV,4,3,16,25,82,236,19,28,11,264,,29,27,011,,32,03,217,*79
$GPGSV,4,4,16,36,52,277,,40,86,351,30,41,58,082,32,49,32,274,*7E
$GLGSV,3,1,10,69,34,062,32,70,50,160,22,71,14,196,,73,54,213,20*64
$GLGSV,3,2,10,74,44,291,12,75,03,322,,80,14,164,25,84,05,002,*6F
$GLGSV,3,3,10,85,02,317,,,,,24*58
$GNGLL,0419.87122,S,05539.90931,E,080434.00,A,D*6E
$GNTXT,01,01,01,More than 100 frame errors, UART RX was disabled*70
$GNRMC,080435.00,A,0419.87129,S,05539.90954,E,0.295,,200525,,,D*70
$GNVTG,,T,,M,0.295,N,0.547,K,D*30
$GNGGA,080435.00,0419.87129,S,05539.90954,E,2,12,0.74,6.1,M,-47.6,M,,0000*7B
$GNGSA,A,3,05,12,24,18,15,25,23,13,10,,,,1.28,0.74,1.04*19
$GNGSA,A,3,80,73,69,70,74,,,,,,,,1.28,0.74,1.04*16
$GPGSV,4,1,16,05,13,028,12,10,30,222,11,12,53,148,30,13,09,077,31*77
$GPGSV,4,2,16,15,44,096,35,18,23,323,18,23,69,259,17,24,20,152,22*72
$GPGSV,4,3,16,25,82,236,18,28,11,264,,29,27,011,17,32,03,217,*7E
$GPGSV,4,4,16,36,52,277,,40,86,351,31,41,58,082,34,49,32,274,*79
$GLGSV,3,1,10,69,34,062,34,70,50,160,22,71,14,196,,73,54,213,20*62
$GLGSV,3,2,10,74,44,291,09,75,03,322,,80,14,164,23,84,05,002,*63
$GLGSV,3,3,10,85,02,317,,,,,26*5A
$GNGLL,0419.87129,S,05539.90954,E,080435.00,A,D*67
$GNTXT,01,01,01,More than 100 frame errors, UART RX was disabled*70
$GNRMC,080436.00,A,0419.87125,S,05539.90947,E,0.165,,200525,,,D*71
$GNVTG,,T,,M,0.165,N,0.306,K,D*3F
$GNGGA,080436.00,0419.87125,S,05539.90947,E,2,12,0.79,6.0,M,-47.6,M,,0000*7A
$GNGSA,A,3,05,12,24,18,15,25,23,13,10,,,,1.34,0.79,1.08*15
$GNGSA,A,3,80,73,69,70,74,,,,,,,,1.34,0.79,1.08*1A
$GPGSV,4,1,16,05,13,028,15,10,30,222,11,12,53,148,28,13,09,077,32*7A
$GPGSV,4,2,16,15,44,096,35,18,23,323,22,23,69,259,22,24,20,152,22*7D
$GPGSV,4,3,16,25,82,236,18,28,11,264,,29,27,011,19,32,03,217,*70
$GPGSV,4,4,16,36,52,277,,40,86,351,34,41,58,082,38,49,32,274,*70
$GLGSV,3,1,10,69,34,062,30,70,50,160,21,71,14,196,,73,54,213,22*67
$GLGSV,3,2,10,74,44,291,14,75,03,322,,80,14,164,23,84,05,002,*6F
$GLGSV,3,3,10,85,02,317,,,,,30*5D
$GNGLL,0419.87125,S,05539.90947,E,080436.00,A,D*6A
$GNTXT,01,01,01,More than 100 frame errors, UART RX was disabled*70
$GNRMC,080437.00,A,0419.87124,S,05539.90950,E,0.176,,200525,,,D*75
$GNVTG,,T,,M,0.176,N,0.326,K,D*3F
$GNGGA,080437.00,0419.87124,S,05539.90950,E,2,12,0.79,5.9,M,-47.6,M,,0000*76
$GNGSA,A,3,05,12,24,18,15,25,23,13,10,,,,1.34,0.79,1.08*15
$GNGSA,A,3,80,73,69,70,74,,,,,,,,1.34,0.79,1.08*1A
$GPGSV,4,1,16,05,13,028,16,10,30,222,07,12,53,148,30,13,09,077,31*74
$GPGSV,4,2,16,15,44,096,34,18,23,323,24,23,69,259,24,24,20,152,20*7E
$GPGSV,4,3,16,25,82,236,21,28,11,264,,29,27,011,20,32,03,217,*70
$GPGSV,4,4,16,36,52,277,,40,86,351,30,41,58,082,35,49,32,274,*79
$GLGSV,3,1,10,69,34,062,32,70,50,160,22,71,14,196,,73,54,213,25*61
$GLGSV,3,2,10,74,44,291,14,75,03,322,,80,14,164,23,84,05,002,*6F
$GLGSV,3,3,10,85,02,317,,,,,29*55
$GNGLL,0419.87124,S,05539.90950,E,080437.00,A,D*6C
$GNTXT,01,01,01,More than 100 frame errors, UART RX was disabled*70
$GNRMC,080438.00,A,0419.87118,S,05539.90953,E,0.206,,200525,,,D*72
$GNVTG,,T,,M,0.206,N,0.382,K,D*35
$GNGGA,080438.00,0419.87118,S,05539.90953,E,2,12,0.79,5.8,M,-47.6,M,,0000*74
$GNGSA,A,3,05,12,24,18,15,25,23,13,29,10,,,1.35,0.79,1.10*16
$GNGSA,A,3,80,73,69,70,74,,,,,,,,1.35,0.79,1.10*12
$GPGSV,4,1,16,05,13,028,17,10,30,222,08,12,53,148,31,13,09,077,27*7C
$GPGSV,4,2,16,15,44,096,35,18,23,323,22,23,69,259,22,24,20,152,18*74
$GPGSV,4,3,16,25,82,236,22,28,11,264,,29,27,011,19,32,03,217,*79
$GPGSV,4,4,16,36,52,277,,40,86,351,33,41,58,082,37,49,32,274,*78
$GLGSV,3,1,10,69,34,062,27,70,50,160,20,71,14,196,,73,54,213,23*61
$GLGSV,3,2,10,74,44,291,12,75,03,322,,80,14,164,20,84,05,002,*6A
$GLGSV,3,3,10,85,02,317,,,,,28*54
$GNGLL,0419.87118,S,05539.90953,E,080438.00,A,D*6F
$GNTXT,01,01,01,More than 100 frame errors, UART RX was disabled*70
$GNRMC,080439.00,A,0419.87112,S,05539.90950,E,0.350,,200525,,,D*78
$GNVTG,,T,,M,0.350,N,0.648,K,D*34
$GNGGA,080439.00,0419.87112,S,05539.90950,E,2,12,0.71,5.8,M,-47.6,M,,0000*74
$GNGSA,A,3,05,12,24,18,15,25,23,13,29,10,,,1.26,0.71,1.04*19
$GNGSA,A,3,80,73,69,70,74,,,,,,,,1.26,0.71,1.04*1D
$GPGSV,4,1,16,05,13,028,15,10,30,222,13,12,53,148,30,13,09,077,28*7A
$GPGSV,4,2,16,15,44,096,35,18,23,323,22,23,69,259,21,24,20,152,16*79
$GPGSV,4,3,16,25,82,236,22,28,11,264,,29,27,011,19,32,03,217,*79
$GPGSV,4,4,16,36,52,277,,40,86,351,34,41,58,082,38,49,32,274,*70
$GLGSV,3,1,10,69,34,062,32,70,50,160,20,71,14,196,,73,54,213,24*62
$GLGSV,3,2,10,74,44,291,18,75,03,322,,80,14,164,18,84,05,002,*6B
$GLGSV,3,3,10,85,02,317,,,,,29*55
$GNGLL,0419.87112,S,05539.90950,E,080439.00,A,D*67
$GNTXT,01,01,01,More than 100 frame errors, UART RX was disabled*70
$GNRMC,080440.00,A,0419.87106,S,05539.90949,E,0.335,,200525,,,D*78
$GNVTG,,T,,M,0.335,N,0.620,K,D*39
$GNGGA,080440.00,0419.87106,S,05539.90949,E,2,12,0.71,5.7,M,-47.6,M,,0000*78
$GNGSA,A,3,05,12,24,18,15,25,23,13,29,10,,,1.26,0.71,1.04*19
$GNGSA,A,3,80,73,69,70,74,,,,,,,,1.26,0.71,1.04*1D
$GPGSV,4,1,16,05,13,028,20,10,30,222,12,12,53,148,32,13,09,077,32*74
$GPGSV,4,2,16,15,44,096,36,18,23,323,25,23,69,259,23,24,20,152,17*7E
$GPGSV,4,3,16,25,82,236,23,28,11,264,,29,27,011,17,32,03,217,*76
$GPGSV,4,4,16,36,52,277,,40,86,351,34,41,58,082,37,49,32,274,*7F
$GLGSV,3,1,10,69,34,062,32,70,50,160,21,71,14,196,,73,54,213,25*62
$GLGSV,3,2,10,74,44,291,17,75,03,322,,80,14,164,19,84,05,002,*65
$GLGSV,3,3,10,85,02,317,,,,,29*55
$GNGLL,0419.87106,S,05539.90949,E,080440.00,A,D*64
$GNTXT,01,01,01,More than 100 frame errors, UART RX was disabled*70
$GNRMC,080441.00,A,0419.87100,S,05539.90956,E,0.275,,200525,,,D*74
$GNVTG,,T,,M,0.275,N,0.510,K,D*3C
$GNGGA,080441.00,0419.87100,S,05539.90956,E,2,12,0.79,5.7,M,-47.6,M,,0000*79
$GNGSA,A,3,05,12,24,18,15,25,23,13,29,10,,,1.35,0.79,1.10*16
$GNGSA,A,3,80,73,69,70,74,,,,,,,,1.35,0.79,1.10*12
$GPGSV,4,1,16,05,13,028,20,10,30,222,10,12,53,148,26,13,09,077,26*76
$GPGSV,4,2,16,15,44,096,32,18,23,323,23,23,69,259,21,24,20,152,17*7E
$GPGSV,4,3,16,25,82,236,21,28,11,264,,29,27,011,16,32,03,217,*75
$GPGSV,4,4,16,36,52,277,,40,86,351,31,41,58,082,35,49,32,274,*78
$GLGSV,3,1,10,69,34,062,32,70,50,160,21,71,14,196,,73,54,213,26*61
$GLGSV,3,2,10,74,44,291,15,75,03,322,,80,14,164,18,84,05,002,*66
$GLGSV,3,3,10,85,02,317,,,,,29*55
$GNGLL,0419.87100,S,05539.90956,E,080441.00,A,D*6D
$GNTXT,01,01,01,More than 100 frame errors, UART RX was disabled*70
$GNRMC,080442.00,A,0419.87095,S,05539.90959,E,0.260,,200525,,,D*71
$GNVTG,,T,,M,0.260,N,0.482,K,D*32
$GNGGA,080442.00,0419.87095,S,05539.90959,E,2,12,0.71,5.7,M,-47.6,M,,0000*70
$GNGSA,A,3,05,12,24,18,15,25,23,13,29,10,,,1.26,0.71,1.04*19
$GNGSA,A,3,80,73,69,70,74,,,,,,,,1.26,0.71,1.04*1D
$GPGSV,4,1,16,05,13,028,18,10,30,222,08,12,53,148,26,13,09,077,27*75
$GPGSV,4,2,16,15,44,096,34,18,23,323,22,23,69,259,21,24,20,152,17*79
$GPGSV,4,3,16,25,82,236,18,28,11,264,,29,27,011,16,32,03,217,*7F
$GPGSV,4,4,16,36,52,277,,40,86,351,30,41,58,082,35,49,32,274,*79
$GLGSV,3,1,10,69,34,062,31,70,50,160,21,71,14,196,,73,54,213,26*62
$GLGSV,3,2,10,74,44,291,11,75,03,322,,80,14,164,18,84,05,002,*62
$GLGSV,3,3,10,85,02,317,,,,,28*54
$GNGLL,0419.87095,S,05539.90959,E,080442.00,A,D*6C
$GNTXT,01,01,01,More than 100 frame errors, UART RX was disabled*70
$GNRMC,080443.00,A,0419.87092,S,05539.90964,E,0.313,,200525,,,D*7C
$GNVTG,,T,,M,0.313,N,0.580,K,D*34
$GNGGA,080443.00,0419.87092,S,05539.90964,E,2,12,0.71,5.8,M,-47.6,M,,0000*77
$GNGSA,A,3,05,12,24,18,15,25,23,13,29,10,,,1.26,0.71,1.04*19
$GNGSA,A,3,80,73,69,70,74,,,,,,,,1.26,0.71,1.04*1D
$GPGSV,4,1,16,05,13,028,15,10,30,222,10,12,53,148,25,13,09,077,25*70
$GPGSV,4,2,16,15,44,096,29,18,23,323,19,23,69,259,19,24,20,152,14*75
$GPGSV,4,3,16,25,82,236,15,28,11,264,,29,27,011,15,32,03,217,*71
$GPGSV,4,4,16,36,52,277,,40,86,351,29,41,58,082,30,49,32,274,*74
$GLGSV,3,1,10,69,34,062,29,70,50,160,21,71,14,196,,73,54,213,24*69
$GLGSV,3,2,10,74,44,291,13,75,03,322,,80,14,164,16,84,05,002,*6E
$GLGSV,3,3,10,85,02,317,,,,,26*5A
$GNGLL,0419.87092,S,05539.90964,E,080443.00,A,D*64
$GNTXT,01,01,01,More than 100 frame errors, UART RX was disabled*70
$GNRMC,080444.00,A,0419.87083,S,05539.90985,E,0.315,,200525,,,D*72
$GNVTG,,T,,M,0.315,N,0.583,K,D*31
$GNGGA,080444.00,0419.87083,S,05539.90985,E,2,12,0.88,5.7,M,-47.6,M,,0000*76
$GNGSA,A,3,12,24,18,15,25,23,13,29,10,,,,1.44,0.88,1.14*1F
$GNGSA,A,3,80,73,69,70,74,,,,,,,,1.44,0.88,1.14*1E
$GPGSV,4,1,16,05,13,028,12,10,30,222,13,12,53,148,22,13,09,077,23*75
$GPGSV,4,2,16,15,44,096,27,18,23,323,16,23,69,259,17,24,20,152,13*7D
$GPGSV,4,3,16,25,82,236,12,28,11,264,,29,27,011,13,32,03,217,*70
$GPGSV,4,4,16,36,52,277,,40,86,351,27,41,58,082,29,49,32,274,*72
$GLGSV,3,1,10,69,34,062,29,70,50,160,19,71,14,196,,73,54,213,22*64
$GLGSV,3,2,10,74,44,291,08,75,03,322,,80,14,164,15,84,05,002,*67
$GLGSV,3,3,10,85,02,317,,,,,25*59
$GNGLL,0419.87083,S,05539.90985,E,080444.00,A,D*6C
$GNTXT,01,01,01,More than 100 frame errors, UART RX was disabled*70
$GNRMC,080445.00,A,0419.87088,S,05539.90980,E,0.334,,200525,,,D*7E
$GNVTG,,T,,M,0.334,N,0.618,K,D*33
$GNGGA,080445.00,0419.87088,S,05539.90980,E,2,12,0.73,6.2,M,-47.6,M,,0000*7B
$GNGSA,A,3,05,12,18,15,25,23,13,29,10,,,,1.29,0.73,1.06*10
$GNGSA,A,3,80,73,69,70,74,,,,,,,,1.29,0.73,1.06*12
$GPGSV,4,1,16,05,13,028,13,10,30,222,12,12,53,148,28,13,09,077,24*78
$GPGSV,4,2,16,15,44,096,32,18,23,323,17,23,69,259,17,24,20,152,*7A
$GPGSV,4,3,16,25,82,236,12,28,11,264,,29,27,011,11,32,03,217,*72
$GPGSV,4,4,16,36,52,277,,40,86,351,28,41,58,082,33,49,32,274,*76
$GLGSV,3,1,10,69,34,061,28,70,50,160,18,71,14,196,,73,54,213,21*64
$GLGSV,3,2,10,74,44,291,13,75,03,322,,80,14,164,12,84,05,002,*6A
$GLGSV,3,3,10,85,02,317,,,,,25*59
$GNGLL,0419.87088,S,05539.90980,E,080445.00,A,D*63
$GNTXT,01,01,01,More than 100 frame errors, UART RX was disabled*70
$GNRMC,080446.00,A,0419.87109,S,05539.91050,E,0.373,,200525,,,D*73
$GNVTG,,T,,M,0.373,N,0.690,K,D*30
$GNGGA,080446.00,0419.87109,S,05539.91050,E,2,12,0.73,7.1,M,-47.6,M,,0000*77
$GNGSA,A,3,05,12,18,15,25,23,13,29,10,,,,1.29,0.73,1.06*10
$GNGSA,A,3,80,73,69,70,74,,,,,,,,1.29,0.73,1.06*12
$GPGSV,4,1,16,05,13,028,16,10,30,222,13,12,53,148,28,13,09,077,25*7D
$GPGSV,4,2,16,15,44,096,34,18,23,323,19,23,69,259,18,24,20,152,17*7B
$GPGSV,4,3,16,25,82,236,10,28,11,264,,29,27,011,11,32,03,217,*70
$GPGSV,4,4,16,36,52,277,,40,86,351,33,41,58,082,36,49,32,274,*79
$GLGSV,3,1,10,69,34,061,30,70,51,159,18,71,14,196,,73,54,213,23*64
$GLGSV,3,2,10,74,44,291,12,75,03,322,,80,14,164,09,84,05,002,*61
$GLGSV,3,3,10,85,02,317,,,,,26*5A
$GNGLL,0419.87109,S,05539.91050,E,080446.00,A,D*6D
$GNTXT,01,01,01,More than 100 frame errors, UART RX was disabled*70
$GNRMC,080447.00,A,0419.87111,S,05539.91048,E,0.040,,200525,,,D*71
$GNVTG,,T,,M,0.040,N,0.073,K,D*38
$GNGGA,080447.00,0419.87111,S,05539.91048,E,2,12,0.81,7.0,M,-47.6,M,,0000*7A
$GNGSA,A,3,05,12,18,15,25,23,13,29,10,,,,1.39,0.81,1.13*18
$GNGSA,A,3,80,73,69,70,74,,,,,,,,1.39,0.81,1.13*1A
$GPGSV,4,1,16,05,13,028,16,10,30,222,09,12,53,148,27,13,09,077,29*75
$GPGSV,4,2,16,15,44,096,35,18,23,323,20,23,69,259,19,24,20,152,16*70
$GPGSV,4,3,16,25,82,236,10,28,11,264,,29,27,011,11,32,03,217,*70
$GPGSV,4,4,16,36,52,277,,40,86,351,33,41,58,082,38,49,32,274,*77
$GLGSV,3,1,10,69,34,061,32,70,51,159,18,71,14,195,,73,54,213,24*62
$GLGSV,3,2,10,74,44,291,14,75,03,322,,80,14,164,11,84,05,002,*6E
$GLGSV,3,3,10,85,02,317,,,,,27*5B
$GNGLL,0419.87111,S,05539.91048,E,080447.00,A,D*6C
$GNTXT,01,01,01,More than 100 frame errors, UART RX was disabled*70
$GNRMC,080448.00,A,0419.87099,S,05539.91019,E,0.445,,200525,,,D*7A
$GNVTG,,T,,M,0.445,N,0.824,K,D*33
$GNGGA,080448.00,0419.87099,S,05539.91019,E,2,12,0.73,6.6,M,-47.6,M,,0000*7A
$GNGSA,A,3,05,12,18,15,25,23,13,29,10,,,,1.29,0.73,1.06*10
$GNGSA,A,3,80,73,69,70,74,,,,,,,,1.29,0.73,1.06*12
$GPGSV,4,1,16,05,13,028,17,10,30,222,19,12,53,148,28,13,09,077,29*7A
$GPGSV,4,2,16,15,44,096,35,18,23,323,20,23,69,259,19,24,20,152,17*71
$GPGSV,4,3,16,25,82,236,13,28,11,264,,29,27,011,12,32,03,217,*70
$GPGSV,4,4,16,36,52,277,,40,86,351,33,41,58,082,39,49,32,274,*76
$GLGSV,3,1,10,69,34,061,33,70,51,159,18,71,14,195,,73,54,213,24*63
$GLGSV,3,2,10,74,44,291,11,75,03,322,,80,14,164,15,84,05,002,*6F
$GLGSV,3,3,10,85,02,317,,,,,29*55
$GNGLL,0419.87099,S,05539.91019,E,080448.00,A,D*66
$GNTXT,01,01,01,More than 100 frame errors, UART RX was disabled*70
$GNRMC,080449.00,A,0419.87099,S,05539.91029,E,0.194,,200525,,,D*71
$GNVTG,,T,,M,0.194,N,0.359,K,D*3B
$GNGGA,080449.00,0419.87099,S,05539.91029,E,2,12,0.76,6.8,M,-47.6,M,,0000*73
$GNGSA,A,3,05,12,18,15,25,23,13,10,,,,,1.30,0.76,1.06*16
$GNGSA,A,3,80,73,69,70,74,,,,,,,,1.30,0.76,1.06*1F
$GPGSV,4,1,16,05,13,028,18,10,30,222,18,12,53,148,27,13,09,077,29*7B
$GPGSV,4,2,16,15,44,096,32,18,23,323,20,23,69,259,19,24,20,152,17*76
$GPGSV,4,3,16,25,82,236,15,28,11,264,,29,27,011,,32,03,217,*75
$GPGSV,4,4,16,36,52,277,,40,86,351,30,41,58,082,35,49,32,274,*79
$GLGSV,3,1,10,69,34,061,30,70,51,159,19,71,14,195,,73,54,212,25*61
$GLGSV,3,2,10,74,44,291,14,75,03,322,,80,14,164,17,84,05,002,*68
$GLGSV,3,3,10,85,02,317,,,,,29*55
$GNGLL,0419.87099,S,05539.91029,E,080449.00,A,D*64
$GNTXT,01,01,01,More than 100 frame errors, UART RX was disabled*70
$GNRMC,080450.00,A,0419.87099,S,05539.91038,E,0.154,,200525,,,D*75
$GNVTG,,T,,M,0.154,N,0.285,K,D*37
$GNGGA,080450.00,0419.87099,S,05539.91038,E,2,12,0.74,6.9,M,-47.6,M,,0000*78
$GNGSA,A,3,05,12,24,18,15,25,23,13,10,,,,1.28,0.74,1.04*19
$GNGSA,A,3,80,73,69,70,74,,,,,,,,1.28,0.74,1.04*16
$GPGSV,4,1,16,05,13,028,17,10,30,222,19,12,53,148,27,13,09,077,30*7D
$GPGSV,4,2,16,15,44,096,35,18,23,323,22,23,69,259,20,24,20,152,17*79
$GPGSV,4,3,16,25,82,236,17,28,11,264,,29,27,011,,32,03,217,*77
$GPGSV,4,4,16,36,52,277,,40,86,351,32,41,58,082,38,49,32,274,*76
$GLGSV,3,1,10,69,34,061,35,70,51,159,20,71,14,195,,73,54,212,27*6C
$GLGSV,3,2,10,74,44,290,11,75,03,322,,80,14,164,19,84,05,002,*62
$GLGSV,3,3,10,85,02,317,,,,,34*59
$GNGLL,0419.87099,S,05539.91038,E,080450.00,A,D*6C
$GNTXT,01,01,01,More than 100 frame errors, UART RX was disabled*70
$GNRMC,080451.00,A,0419.87100,S,05539.91052,E,0.077,,200525,,,D*79
$GNVTG,,T,,M,0.077,N,0.143,K,D*3E
$GNGGA,080451.00,0419.87100,S,05539.91052,E,2,12,0.74,7.1,M,-47.6,M,,0000*7D
$GNGSA,A,3,05,12,24,18,15,25,23,13,10,,,,1.28,0.74,1.04*19
$GNGSA,A,3,80,73,69,70,74,,,,,,,,1.28,0.74,1.04*16
$GPGSV,4,1,16,05,13,028,16,10,30,222,20,12,53,148,32,13,09,077,31*73
$GPGSV,4,2,16,15,44,096,35,18,23,323,24,23,69,259,21,24,20,152,16*7F
$GPGSV,4,3,16,25,82,236,17,28,11,264,,29,27,011,,32,03,217,*77
$GPGSV,4,4,16,36,52,277,,40,86,351,32,41,58,082,40,49,32,274,*79
$GLGSV,3,1,10,69,34,061,35,70,51,159,21,71,14,195,,73,54,212,28*62
$GLGSV,3,2,10,74,44,290,15,75,03,321,,80,14,164,19,84,05,002,*65
$GLGSV,3,3,10,85,02,317,,,,,32*5F
$GNGLL,0419.87100,S,05539.91052,E,080451.00,A,D*60
$GNTXT,01,01,01,More than 100 frame errors, UART RX was disabled*70
$GNRMC,080452.00,A,0419.87095,S,05539.91047,E,0.508,,200525,,,D*7E
$GNVTG,,T,,M,0.508,N,0.941,K,D*39
$GNGGA,080452.00,0419.87095,S,05539.91047,E,2,12,0.74,7.1,M,-47.6,M,,0000*77
$GNGSA,A,3,05,12,24,18,15,25,23,13,10,,,,1.28,0.74,1.04*19
$GNGSA,A,3,80,73,69,70,74,,,,,,,,1.28,0.74,1.04*16
$GPGSV,4,1,16,05,13,028,15,10,30,222,20,12,53,148,26,13,09,077,33*77
$GPGSV,4,2,16,15,44,096,38,18,23,323,24,23,69,259,23,24,20,152,14*72
$GPGSV,4,3,16,25,82,236,18,28,11,264,,29,27,011,,32,03,217,*78
$GPGSV,4,4,16,36,52,277,,40,86,351,30,41,58,082,35,49,32,274,*79
$GLGSV,3,1,10,69,34,061,37,70,51,159,22,71,14,195,,73,54,212,26*6D
$GLGSV,3,2,10,74,44,290,11,75,03,321,,80,14,164,19,84,05,002,*61
$GLGSV,3,3,10,85,02,317,,,,,32*5F
$GNGLL,0419.87095,S,05539.91047,E,080452.00,A,D*6A
$GNTXT,01,01,01,More than 100 frame errors, UART RX was disabled*70
$GNRMC,080453.00,A,0419.87102,S,05539.91066,E,0.182,,200525,,,D*75
$GNVTG,,T,,M,0.182,N,0.338,K,D*3B
$GNGGA,080453.00,0419.87102,S,05539.91066,E,2,12,0.74,7.4,M,-47.6,M,,0000*7F
$GNGSA,A,3,05,12,24,18,15,25,23,13,10,,,,1.28,0.74,1.04*19
$GNGSA,A,3,80,73,69,70,74,,,,,,,,1.28,0.74,1.04*16
$GPGSV,4,1,16,05,13,028,14,10,30,222,19,12,53,148,28,13,09,077,33*72
$GPGSV,4,2,16,15,44,096,36,18,23,323,23,23,69,259,22,24,20,152,17*79
$GPGSV,4,3,16,25,82,236,22,28,11,264,,29,27,011,,32,03,217,*71
$GPGSV,4,4,16,36,52,277,,40,86,351,30,41,58,082,34,49,32,274,*78
$GLGSV,3,1,10,69,34,061,34,70,51,159,22,71,14,195,,73,54,212,24*6C
$GLGSV,3,2,10,74,44,290,10,75,03,321,,80,14,164,22,84,05,002,*68
$GLGSV,3,3,10,85,02,317,,,,,34*59
$GNGLL,0419.87102,S,05539.91066,E,080453.00,A,D*67
$GNTXT,01,01,01,More than 100 frame errors, UART RX was disabled*70
$GNRMC,080454.00,A,0419.87107,S,05539.91084,E,0.126,,200525,,,D*75
$GNVTG,,T,,M,0.126,N,0.233,K,D*3F
$GNGGA,080454.00,0419.87107,S,05539.91084,E,2,12,0.74,7.6,M,-47.6,M,,0000*73
$GNGSA,A,3,05,12,24,18,15,25,23,13,10,,,,1.28,0.74,1.04*19
$GNGSA,A,3,80,73,69,70,74,,,,,,,,1.28,0.74,1.04*16
$GPGSV,4,1,16,05,13,028,15,10,30,222,20,12,53,148,32,13,09,077,31*70
$GPGSV,4,2,16,15,44,096,36,18,23,323,22,23,69,259,20,24,20,152,18*75
$GPGSV,4,3,16,25,82,236,23,28,11,264,,29,27,011,15,32,03,217,*74
$GPGSV,4,4,16,36,52,277,,40,86,351,32,41,58,082,37,49,32,274,*79
$GLGSV,3,1,10,69,34,061,31,70,51,159,23,71,14,195,,73,54,212,26*6A
$GLGSV,3,2,10,74,44,290,10,75,03,321,,80,14,164,22,84,05,002,*68
$GLGSV,3,3,10,85,02,317,,,,,32*5F
$GNGLL,0419.87107,S,05539.91084,E,080454.00,A,D*69
$GNTXT,01,01,01,More than 100 frame errors, UART RX was disabled*70
$GNRMC,080455.00,A,0419.87098,S,05539.91089,E,0.203,,200525,,,D*7A
$GNVTG,,T,,M,0.203,N,0.376,K,D*3B
$GNGGA,080455.00,0419.87098,S,05539.91089,E,2,12,0.74,7.8,M,-47.6,M,,0000*76
$GNGSA,A,3,05,12,24,18,15,25,23,13,10,,,,1.28,0.74,1.04*19
$GNGSA,A,3,80,73,69,70,74,,,,,,,,1.28,0.74,1.04*16
$GPGSV,4,1,16,05,13,028,15,10,30,222,19,12,53,148,31,13,09,077,29*70
$GPGSV,4,2,16,15,44,096,37,18,23,323,21,23,69,259,19,24,20,152,17*72
$GPGSV,4,3,16,25,82,236,23,28,11,264,,29,27,011,14,32,03,217,*75
$GPGSV,4,4,16,36,52,277,,40,86,351,31,41,58,082,35,49,32,274,*78
$GLGSV,3,1,10,69,34,061,29,70,51,159,22,71,14,195,,73,54,212,25*61
$GLGSV,3,2,10,74,44,290,16,75,03,321,,80,14,164,22,84,05,002,*6E
$GLGSV,3,3,10,85,02,317,,,,,32*5F
$GNGLL,0419.87098,S,05539.91089,E,080455.00,A,D*62
$GNTXT,01,01,01,More than 100 frame errors, UART RX was disabled*70
$GNRMC,080456.00,A,0419.87094,S,05539.91091,E,0.121,,200525,,,D*7F
$GNVTG,,T,,M,0.121,N,0.224,K,D*3E
$GNGGA,080456.00,0419.87094,S,05539.91091,E,2,12,0.74,7.8,M,-47.6,M,,0000*70
$GNGSA,A,3,05,12,24,18,15,25,23,13,10,,,,1.28,0.74,1.04*19
$GNGSA,A,3,80,73,69,70,74,,,,,,,,1.28,0.74,1.04*16
$GPGSV,4,1,16,05,13,028,17,10,30,222,20,12,53,148,33,13,09,077,33*71
$GPGSV,4,2,16,15,44,096,38,18,23,323,19,23,69,259,22,24,20,152,18*71
$GPGSV,4,3,16,25,82,236,23,28,11,264,,29,27,011,,32,03,217,*70
$GPGSV,4,4,16,36,52,277,,40,86,351,34,41,58,082,35,49,32,274,*7D
$GLGSV,3,1,10,69,34,061,29,70,51,159,23,71,14,195,,73,54,212,26*63
$GLGSV,3,2,10,74,44,290,11,75,03,321,,80,13,163,23,84,05,002,*68
$GLGSV,3,3,10,85,02,317,,,,,30*5D
$GNGLL,0419.87094,S,05539.91091,E,080456.00,A,D*64
$GNTXT,01,01,01,More than 100 frame errors, UART RX was disabled*70
$GNRMC,080457.00,A,0419.87098,S,05539.91110,E,0.115,,200525,,,D*7D
$GNVTG,,T,,M,0.115,N,0.214,K,D*3A
$GNGGA,080457.00,0419.87098,S,05539.91110,E,2,12,0.74,7.9,M,-47.6,M,,0000*74
$GNGSA,A,3,05,12,24,18,15,25,23,13,10,,,,1.28,0.74,1.04*19
$GNGSA,A,3,80,73,69,70,74,,,,,,,,1.28,0.74,1.04*16
$GPGSV,4,1,16,05,13,028,17,10,30,222,20,12,53,148,33,13,09,077,33*71
$GPGSV,4,2,16,15,44,096,38,18,23,323,17,23,69,259,24,24,20,152,16*77
$GPGSV,4,3,16,25,82,236,25,28,11,264,,29,27,011,,32,03,217,*76
$GPGSV,4,4,16,36,52,277,,40,86,351,34,41,58,082,36,49,32,274,*7E
$GLGSV,3,1,10,69,34,061,35,70,51,159,23,71,14,195,,73,54,212,27*6F
$GLGSV,3,2,10,74,44,290,10,75,03,321,,80,13,163,24,84,05,002,*6E
$GLGSV,3,3,10,85,02,317,,,,,30*5D
$GNGLL,0419.87098,S,05539.91110,E,080457.00,A,D*61
$GNTXT,01,01,01,More than 100 frame errors, UART RX was disabled*70
$GNRMC,080458.00,A,0419.87089,S,05539.91121,E,0.217,,200525,,,D*71
$GNVTG,,T,,M,0.217,N,0.402,K,D*3A
$GNGGA,080458.00,0419.87089,S,05539.91121,E,2,12,0.79,7.9,M,-47.6,M,,0000*74
$GNGSA,A,3,05,12,24,18,15,25,23,13,10,,,,1.34,0.79,1.08*15
$GNGSA,A,3,80,73,69,70,74,,,,,,,,1.34,0.79,1.08*1A
$GPGSV,4,1,16,05,13,028,17,10,30,222,21,12,53,148,34,13,09,077,32*76
$GPGSV,4,2,16,15,44,096,38,18,23,323,16,23,69,259,25,24,20,152,18*79
$GPGSV,4,3,16,25,82,236,27,28,11,264,,29,27,011,,32,03,217,*74
$GPGSV,4,4,16,36,52,277,,40,86,351,34,41,58,082,36,49,32,274,*7E
$GLGSV,3,1,10,69,34,061,34,70,51,159,23,71,14,195,,73,54,212,27*6E
$GLGSV,3,2,10,74,44,290,09,75,03,321,,80,13,163,25,84,05,002,*67
$GLGSV,3,3,10,85,02,317,,,,,31*5C
$GNGLL,0419.87089,S,05539.91121,E,080458.00,A,D*6C
$GNTXT,01,01,01,More than 100 frame errors, UART RX was disabled*70
$GNRMC,080459.00,A,0419.87088,S,05539.91130,E,0.043,,200525,,,D*72
$GNVTG,,T,,M,0.043,N,0.079,K,D*31
$GNGGA,080459.00,0419.87088,S,05539.91130,E,2,12,0.84,8.0,M,-47.6,M,,0000*70
$GNGSA,A,3,05,12,24,18,15,25,23,13,10,,,,1.37,0.84,1.09*15
$GNGSA,A,3,80,73,69,70,74,,,,,,,,1.37,0.84,1.09*1A
$GPGSV,4,1,16,05,13,028,14,10,30,222,19,12,53,148,34,13,09,077,31*7D
$GPGSV,4,2,16,15,44,096,38,18,23,323,13,23,69,259,26,24,20,152,16*71
$GPGSV,4,3,16,25,82,236,26,28,11,264,,29,27,011,18,32,03,217,*7C
$GPGSV,4,4,16,36,52,277,,40,86,351,34,41,58,082,36,49,32,274,*7E
$GLGSV,3,1,10,69,34,061,31,70,51,159,23,71,14,195,,73,54,212,27*6B
$GLGSV,3,2,10,74,44,290,09,75,03,321,,80,13,163,26,84,05,002,*64
$GLGSV,3,3,10,85,02,317,,,,,30*5D
$GNGLL,0419.87088,S,05539.91130,E,080459.00,A,D*6C
$GNTXT,01,01,01,More than 100 frame errors, UART RX was disabled*70
$GNRMC,080500.00,A,0419.87087,S,05539.91137,E,0.079,,200525,,,D*7E
$GNVTG,,T,,M,0.079,N,0.147,K,D*34
$GNGGA,080500.00,0419.87087,S,05539.91137,E,2,12,0.79,8.0,M,-47.6,M,,0000*77
$GNGSA,A,3,05,12,24,18,15,25,23,13,10,,,,1.34,0.79,1.08*15
$GNGSA,A,3,80,73,69,70,74,,,,,,,,1.34,0.79,1.08*1A
$GPGSV,4,1,16,05,13,028,15,10,30,222,20,12,53,148,32,13,09,077,30*71
$GPGSV,4,2,16,15,44,096,38,18,23,323,15,23,69,259,26,24,20,152,14*75
$GPGSV,4,3,16,25,82,236,24,28,11,264,,29,27,011,16,32,03,217,*70
$GPGSV,4,4,16,36,52,277,,40,86,351,34,41,58,082,34,49,32,274,*7C
$GLGSV,3,1,10,69,34,061,32,70,51,159,23,71,14,195,,73,54,212,27*68
$GLGSV,3,2,10,74,44,290,11,75,03,321,,80,13,163,26,84,05,003,*6C
$GLGSV,3,3,10,85,02,317,,,,,31*5C
$GNGLL,0419.87087,S,05539.91137,E,080500.00,A,D*69
$GNTXT,01,01,01,More than 100 frame errors, UART RX was disabled*70
$GNRMC,080501.00,A,0419.87083,S,05539.91140,E,0.146,,200525,,,D*76
$GNVTG,,T,,M,0.146,N,0.271,K,D*3F
$GNGGA,080501.00,0419.87083,S,05539.91140,E,2,12,0.79,7.9,M,-47.6,M,,0000*74
$GNGSA,A,3,05,12,24,18,15,25,23,13,10,,,,1.34,0.79,1.08*15
$GNGSA,A,3,80,73,69,70,74,,,,,,,,1.34,0.79,1.08*1A
$GPGSV,4,1,16,05,13,028,09,10,30,222,19,12,53,148,31,13,09,077,31*74
$GPGSV,4,2,16,15,44,096,35,18,23,323,15,23,69,259,25,24,20,152,13*7C
$GPGSV,4,3,16,25,82,236,23,28,11,264,,29,27,011,15,32,03,217,*74
$GPGSV,4,4,16,36,52,277,,40,86,351,30,41,58,082,33,49,32,274,*7F
$GLGSV,3,1,10,69,34,061,32,70,51,159,22,71,14,195,,73,54,212,27*69
$GLGSV,3,2,10,74,44,290,12,75,03,321,,80,13,163,26,84,05,003,*6F
$GLGSV,3,3,10,85,02,317,,,,,31*5C
$GNGLL,0419.87083,S,05539.91140,E,080501.00,A,D*6C
$GNTXT,01,01,01,More than 100 frame errors, UART RX was disabled*70
$GNRMC,080502.00,A,0419.87086,S,05539.91150,E,0.066,,200525,,,D*72
$GNVTG,,T,,M,0.066,N,0.122,K,D*39
$GNGGA,080502.00,0419.87086,S,05539.91150,E,2,12,0.78,7.9,M,-47.6,M,,0000*72
$GNGSA,A,3,05,12,24,18,15,25,23,13,10,,,,1.31,0.78,1.05*1C
$GNGSA,A,3,80,73,69,70,74,,,,,,,,1.31,0.78,1.05*13
$GPGSV,4,1,16,05,13,028,18,10,30,222,19,12,53,148,33,13,09,077,33*74
$GPGSV,4,2,16,15,44,096,37,18,23,323,14,23,69,259,25,24,20,152,15*79
$GPGSV,4,3,16,25,82,236,23,28,11,264,,29,27,011,,32,03,217,*70
$GPGSV,4,4,16,36,52,277,,40,86,351,33,41,58,082,33,49,32,274,*7C
$GLGSV,3,1,10,69,34,061,32,70,51,159,22,71,14,195,,73,54,212,26*68
$GLGSV,3,2,10,74,44,290,09,75,03,321,,80,13,163,25,84,05,003,*66
$GLGSV,3,3,10,85,02,317,,,,,31*5C
$GNGLL,0419.87086,S,05539.91150,E,080502.00,A,D*6B
$GNTXT,01,01,01,More than 100 frame errors, UART RX was disabled*70
$GNRMC,080503.00,A,0419.87082,S,05539.91153,E,0.102,,200525,,,D*77
$GNVTG,,T,,M,0.102,N,0.189,K,D*3B
$GNGGA,080503.00,0419.87082,S,05539.91153,E,2,12,0.79,7.8,M,-47.6,M,,0000*74
$GNGSA,A,3,05,12,24,18,15,25,23,13,10,,,,1.34,0.79,1.08*15
$GNGSA,A,3,80,73,69,70,74,,,,,,,,1.34,0.79,1.08*1A
$GPGSV,4,1,16,05,13,028,07,10,30,222,18,12,53,148,34,13,09,077,32*7D
$GPGSV,4,2,16,15,44,096,37,18,23,323,13,23,69,259,24,24,20,152,19*73
$GPGSV,4,3,16,25,82,236,25,28,11,264,,29,27,011,,32,03,217,*76
$GPGSV,4,4,16,36,52,277,,40,86,351,31,41,58,082,33,49,32,274,*7E
$GLGSV,3,1,10,69,34,061,31,70,51,159,23,71,14,195,,73,54,212,25*69
$GLGSV,3,2,10,74,44,290,08,75,03,321,,80,13,163,24,84,05,003,*66
$GLGSV,3,3,10,85,02,317,,,,,33*5E
$GNGLL,0419.87082,S,05539.91153,E,080503.00,A,D*6D
$GNTXT,01,01,01,More than 100 frame errors, UART RX was disabled*70
$GNRMC,080504.00,A,0419.87084,S,05539.91150,E,0.273,,200525,,,D*70
$GNVTG,,T,,M,0.273,N,0.505,K,D*3E
$GNGGA,080504.00,0419.87084,S,05539.91150,E,2,12,0.79,7.6,M,-47.6,M,,0000*78
$GNGSA,A,3,05,12,24,18,15,25,23,13,10,,,,1.34,0.79,1.08*15
$GNGSA,A,3,80,73,69,70,74,,,,,,,,1.34,0.79,1.08*1A
$GPGSV,4,1,16,05,13,028,10,10,30,222,15,12,53,148,24,13,09,077,25*71
$GPGSV,4,2,16,15,44,096,31,18,23,323,13,23,69,259,22,24,20,152,19*73
$GPGSV,4,3,16,25,82,236,24,28,11,264,,29,27,011,13,32,03,217,*75
$GPGSV,4,4,16,36,52,277,,40,86,351,,41,58,082,29,49,32,274,*77
$GLGSV,3,1,10,69,34,061,30,70,51,159,23,71,14,195,,73,54,212,26*6B
$GLGSV,3,2,10,74,44,290,12,75,03,321,,80,13,163,24,84,05,003,*6D
$GLGSV,3,3,10,85,02,317,,,,,25*59
$GNGLL,0419.87084,S,05539.91150,E,080504.00,A,D*6F
$GNTXT,01,01,01,More than 100 frame errors, UART RX was disabled*70
$GNRMC,080505.00,A,0419.87074,S,05539.91151,E,0.123,,200525,,,D*79
$GNVTG,,T,,M,0.123,N,0.229,K,D*31
$GNGGA,080505.00,0419.87074,S,05539.91151,E,2,12,0.78,7.5,M,-47.6,M,,0000*75
$GNGSA,A,3,05,12,24,18,15,25,23,13,10,,,,1.31,0.78,1.05*1C
$GNGSA,A,3,80,73,69,70,74,,,,,,,,1.31,0.78,1.05*13
$GPGSV,4,1,16,05,13,028,10,10,30,222,11,12,53,148,34,13,09,077,32*72
$GPGSV,4,2,16,15,44,096,37,18,23,323,11,23,69,259,22,24,20,152,17*79
$GPGSV,4,3,16,25,82,236,23,28,11,264,,29,27,011,13,32,03,217,*72
$GPGSV,4,4,16,36,52,277,,40,86,351,30,41,58,082,35,49,32,274,*79
$GLGSV,3,1,10,69,34,061,34,70,51,159,22,71,14,195,,73,54,212,25*6D
$GLGSV,3,2,10,74,44,290,12,75,03,321,,80,13,163,23,84,05,003,*6A
$GLGSV,3,3,10,85,02,317,,,,,31*5C
$GNGLL,0419.87074,S,05539.91151,E,080505.00,A,D*60
$GNTXT,01,01,01,More than 100 frame errors, UART RX was disabled*70
$GNRMC,080506.00,A,0419.87067,S,05539.91142,E,0.270,,200525,,,D*7F
$GNVTG,,T,,M,0.270,N,0.501,K,D*39
$GNGGA,080506.00,0419.87067,S,05539.91142,E,2,12,0.79,7.3,M,-47.6,M,,0000*71
$GNGSA,A,3,05,12,24,18,15,25,23,13,10,,,,1.34,0.79,1.08*15
$GNGSA,A,3,80,73,69,70,74,,,,,,,,1.34,0.79,1.08*1A
$GPGSV,4,1,16,05,13,028,12,10,30,222,11,12,53,148,33,13,09,077,31*74
$GPGSV,4,2,16,15,44,096,37,18,23,323,12,23,69,259,23,24,20,152,16*7A
$GPGSV,4,3,16,25,82,236,25,28,11,264,,29,27,011,,32,03,217,*76
$GPGSV,4,4,16,36,52,277,,40,86,351,35,41,58,082,35,49,32,274,*7C
$GLGSV,3,1,10,69,34,061,32,70,51,159,21,71,14,195,,73,54,212,25*68
$GLGSV,3,2,10,74,44,290,07,75,03,321,,80,13,163,24,84,05,003,*69
$GLGSV,3,3,10,85,02,317,,,,,31*5C
$GNGLL,0419.87067,S,05539.91142,E,080506.00,A,D*63
$GNTXT,01,01,01,More than 100 frame errors, UART RX was disabled*70
$GNRMC,080507.00,A,0419.87064,S,05539.91148,E,0.216,,200525,,,D*77
$GNVTG,,T,,M,0.216,N,0.401,K,D*38
$GNGGA,080507.00,0419.87064,S,05539.91148,E,2,12,0.84,7.4,M,-47.6,M,,0000*7C
$GNGSA,A,3,05,12,24,15,25,23,13,10,,,,,1.41,0.84,1.13*16
$GNGSA,A,3,80,73,69,70,74,,,,,,,,1.41,0.84,1.13*10
$GPGSV,4,1,16,05,13,028,13,10,30,222,17,12,53,148,31,13,09,077,31*71
$GPGSV,4,2,16,15,44,096,33,18,23,323,,23,69,259,22,24,20,152,16*7C
$GPGSV,4,3,16,25,82,236,23,28,11,264,,29,27,011,,32,03,217,*70
$GPGSV,4,4,16,36,52,277,,40,86,351,35,41,58,082,35,49,32,274,*7C
$GLGSV,3,1,10,69,34,061,32,70,51,159,22,71,14,195,,73,54,212,27*69
$GLGSV,3,2,10,74,44,290,12,75,03,321,,80,13,163,22,84,05,003,*6B
$GLGSV,3,3,10,85,02,317,,,,,31*5C
$GNGLL,0419.87064,S,05539.91148,E,080507.00,A,D*6B
$GNTXT,01,01,01,More than 100 frame errors, UART RX was disabled*70
$GNRMC,080508.00,A,0419.87058,S,05539.91152,E,0.309,,200525,,,D*73
$GNVTG,,T,,M,0.309,N,0.572,K,D*32
$GNGGA,080508.00,0419.87058,S,05539.91152,E,2,12,0.97,7.4,M,-47.6,M,,0000*75
$GNGSA,A,3,05,12,24,15,25,23,13,10,,,,,1.59,0.97,1.26*1B
$GNGSA,A,3,80,73,69,70,74,,,,,,,,1.59,0.97,1.26*1D
$GPGSV,4,1,16,05,13,028,12,10,30,222,16,12,53,148,32,13,09,077,34*77
$GPGSV,4,2,16,15,44,096,38,18,23,323,,23,69,259,22,24,20,152,18*79
$GPGSV,4,3,16,25,82,236,22,28,11,264,,29,27,011,,32,03,217,*71
$GPGSV,4,4,16,36,52,277,,40,86,351,35,41,58,082,37,49,32,274,*7E
$GLGSV,3,1,10,69,34,061,33,70,51,159,23,71,14,195,,73,54,212,27*69
$GLGSV,3,2,10,74,44,290,10,75,03,321,,80,13,163,26,84,05,003,*6D
$GLGSV,3,3,10,85,02,317,,,,,32*5F
$GNGLL,0419.87058,S,05539.91152,E,080508.00,A,D*60
$GNTXT,01,01,01,More than 100 frame errors, UART RX was disabled*70
$GNRMC,080509.00,A,0419.87051,S,05539.91152,E,0.325,,200525,,,D*75
$GNVTG,,T,,M,0.325,N,0.601,K,D*3B
$GNGGA,080509.00,0419.87051,S,05539.91152,E,2,12,0.97,7.4,M,-47.6,M,,0000*7D
$GNGSA,A,3,05,12,24,15,25,23,13,10,,,,,1.59,0.97,1.26*1B
$GNGSA,A,3,80,73,69,70,74,,,,,,,,1.59,0.97,1.26*1D
$GPGSV,4,1,16,05,12,028,10,10,30,222,18,12,53,148,35,13,09,077,32*7B
$GPGSV,4,2,16,15,44,096,35,18,23,323,,23,69,259,23,24,20,152,16*7B
$GPGSV,4,3,16,25,82,236,23,28,11,264,,29,27,011,22,32,03,217,*70
$GPGSV,4,4,16,36,52,277,,40,86,351,34,41,58,082,35,49,32,274,*7D
$GLGSV,3,1,10,69,34,061,32,70,51,159,24,71,14,195,,73,54,212,26*6E
$GLGSV,3,2,10,74,44,290,09,75,03,321,,80,13,163,26,84,05,003,*65
$GLGSV,3,3,10,85,02,317,,,,,32*5F
$GNGLL,0419.87051,S,05539.91152,E,080509.00,A,D*68
$GNTXT,01,01,01,More than 100 frame errors, UART RX was disabled*70
$GNRMC,080510.00,A,0419.87049,S,05539.91157,E,0.065,,200525,,,D*76
$GNVTG,,T,,M,0.065,N,0.120,K,D*38
$GNGGA,080510.00,0419.87049,S,05539.91157,E,2,12,0.97,7.4,M,-47.6,M,,0000*79
$GNGSA,A,3,05,12,24,15,25,23,13,10,,,,,1.59,0.97,1.26*1B
$GNGSA,A,3,80,73,69,70,74,,,,,,,,1.59,0.97,1.26*1D
$GPGSV,4,1,16,05,12,028,19,10,30,222,11,12,53,148,34,13,09,077,27*7E
$GPGSV,4,2,16,15,44,096,35,18,23,323,,23,69,259,24,24,20,152,16*7C
$GPGSV,4,3,16,25,82,236,22,28,11,264,,29,27,011,20,32,03,217,*73
$GPGSV,4,4,16,36,52,277,,40,86,351,30,41,58,082,36,49,32,274,*7A
$GLGSV,3,1,10,69,34,061,30,70,51,159,24,71,14,195,,73,54,212,26*6C
$GLGSV,3,2,10,74,44,290,11,75,03,321,,80,13,163,26,84,05,003,*6C
$GLGSV,3,3,10,85,02,317,,,,,31*5C
$GNGLL,0419.87049,S,05539.91157,E,080510.00,A,D*6C
$GNTXT,01,01,01,More than 100 frame errors, UART RX was disabled*70
$GNRMC,080511.00,A,0419.87049,S,05539.91164,E,0.140,,200525,,,D*71
$GNVTG,,T,,M,0.140,N,0.260,K,D*39
$GNGGA,080511.00,0419.87049,S,05539.91164,E,2,12,0.84,7.6,M,-47.6,M,,0000*78
$GNGSA,A,3,05,12,24,15,25,23,13,10,,,,,1.41,0.84,1.13*16
$GNGSA,A,3,80,73,69,70,74,,,,,,,,1.41,0.84,1.13*10
$GPGSV,4,1,16,05,12,028,09,10,30,222,12,12,53,148,33,13,09,077,27*7B
$GPGSV,4,2,16,15,44,096,35,18,23,323,17,23,69,259,25,24,20,152,20*7E
$GPGSV,4,3,16,25,82,236,20,28,11,264,,29,27,011,20,32,03,217,*71
$GPGSV,4,4,16,36,52,277,,40,86,351,31,41,58,082,36,49,32,274,*7B
$GLGSV,3,1,10,69,34,061,29,70,51,159,24,71,14,195,,73,54,212,26*64
$GLGSV,3,2,10,74,44,290,14,75,03,321,,80,13,163,25,84,05,003,*6A
$GLGSV,3,3,10,85,02,317,,,,,33*5E
$GNGLL,0419.87049,S,05539.91164,E,080511.00,A,D*6D
$GNTXT,01,01,01,More than 100 frame errors, UART RX was disabled*70
$GNRMC,080512.00,A,0419.87044,S,05539.91168,E,0.081,,200525,,,D*7F
$GNVTG,,T,,M,0.081,N,0.150,K,D*35
$GNGGA,080512.00,0419.87044,S,05539.91168,E,2,12,0.97,7.7,M,-47.6,M,,0000*79
$GNGSA,A,3,05,12,24,15,25,23,13,10,,,,,1.59,0.97,1.26*1B
$GNGSA,A,3,80,73,69,70,74,,,,,,,,1.59,0.97,1.26*1D
$GPGSV,4,1,16,05,12,028,16,10,30,222,17,12,53,148,34,13,09,077,32*73
$GPGSV,4,2,16,15,44,096,35,18,23,323,19,23,69,259,26,24,20,152,21*72
$GPGSV,4,3,16,25,82,236,21,28,11,264,,29,27,011,19,32,03,217,*7A
$GPGSV,4,4,16,36,52,277,,40,86,351,32,41,58,082,36,49,32,274,*78
$GLGSV,3,1,10,69,34,061,31,70,51,159,26,71,14,195,,73,54,212,27*6E
$GLGSV,3,2,10,74,44,290,10,75,03,321,,80,13,163,27,84,05,003,*6C
$GLGSV,3,3,10,85,02,317,,,,,31*5C
$GNGLL,0419.87044,S,05539.91168,E,080512.00,A,D*6F
$GNTXT,01,01,01,More than 100 frame errors, UART RX was disabled*70
$GNRMC,080513.00,A,0419.87037,S,05539.91176,E,0.145,,200525,,,D*7C
$GNVTG,,T,,M,0.145,N,0.269,K,D*35
$GNGGA,080513.00,0419.87037,S,05539.91176,E,2,12,0.97,7.9,M,-47.6,M,,0000*7D
$GNGSA,A,3,05,12,24,15,25,23,13,29,10,,,,1.59,0.97,1.26*10
$GNGSA,A,3,80,73,69,70,74,,,,,,,,1.59,0.97,1.26*1D
$GPGSV,4,1,16,05,12,028,12,10,30,222,10,12,53,148,34,13,09,077,33*71
$GPGSV,4,2,16,15,44,096,37,18,23,323,17,23,69,259,25,24,20,152,18*77
$GPGSV,4,3,16,25,82,236,22,28,11,264,,29,27,011,17,32,03,217,*77
$GPGSV,4,4,16,36,52,277,,40,86,351,33,41,58,082,35,49,32,274,*7A
$GLGSV,3,1,10,69,34,061,32,70,51,159,25,71,14,195,,73,54,212,26*6F
$GLGSV,3,2,10,74,44,290,08,75,03,321,,80,13,163,26,84,05,003,*64
$GLGSV,3,3,10,85,02,317,,,,,32*5F
$GNGLL,0419.87037,S,05539.91176,E,080513.00,A,D*65
$GNTXT,01,01,01,More than 100 frame errors, UART RX was disabled*70
$GNRMC,080514.00,A,0419.87035,S,05539.91188,E,0.131,,200525,,,D*7B
$GNVTG,,T,,M,0.131,N,0.243,K,D*3E
$GNGGA,080514.00,0419.87035,S,05539.91188,E,2,12,0.84,8.0,M,-47.6,M,,0000*7D
$GNGSA,A,3,05,12,24,18,15,25,23,13,29,10,,,1.37,0.84,1.09*1E
$GNGSA,A,3,80,73,69,70,74,,,,,,,,1.37,0.84,1.09*1A
$GPGSV,4,1,16,05,12,028,10,10,31,222,16,12,53,148,35,13,09,077,32*74
$GPGSV,4,2,16,15,44,096,36,18,23,323,18,23,69,259,25,24,20,152,17*76
$GPGSV,4,3,16,25,82,236,24,28,11,264,,29,27,011,16,32,03,217,*70
$GPGSV,4,4,16,36,52,277,,40,86,351,32,41,58,082,34,49,32,274,*7A
$GLGSV,3,1,10,69,34,061,32,70,51,159,25,71,14,195,,73,54,212,26*6F
$GLGSV,3,2,10,74,44,290,08,75,03,321,,80,13,163,25,84,05,003,*67
$GLGSV,3,3,10,85,02,317,,,,,32*5F
$GNGLL,0419.87035,S,05539.91188,E,080514.00,A,D*61
$GNTXT,01,01,01,More than 100 frame errors, UART RX was disabled*70
$GNRMC,080515.00,A,0419.87030,S,05539.91191,E,0.030,,200525,,,D*77
$GNVTG,,T,,M,0.030,N,0.055,K,D*3B
$GNGGA,080515.00,0419.87030,S,05539.91191,E,2,12,0.79,8.1,M,-47.6,M,,0000*72
$GNGSA,A,3,05,12,24,18,15,25,23,13,29,10,,,1.34,0.79,1.08*1E
$GNGSA,A,3,80,73,69,70,74,,,,,,,,1.34,0.79,1.08*1A
$GPGSV,4,1,16,05,12,028,11,10,31,222,16,12,53,148,35,13,09,077,29*7F
$GPGSV,4,2,16,15,44,096,34,18,23,323,18,23,69,259,25,24,20,152,16*75
$GPGSV,4,3,16,25,82,236,22,28,11,264,,29,27,011,14,32,03,217,*74
$GPGSV,4,4,16,36,52,277,,40,86,351,32,41,58,082,34,49,32,274,*7A
$GLGSV,3,1,10,69,34,061,27,70,51,159,23,71,14,195,,73,54,212,26*6D
$GLGSV,3,2,10,74,44,290,09,75,03,321,,80,13,163,25,84,05,003,*66
$GLGSV,3,3,10,85,02,317,,,,,32*5F
$GNGLL,0419.87030,S,05539.91191,E,080515.00,A,D*6D
$GNTXT,01,01,01,More than 100 frame errors, UART RX was disabled*70
$GNRMC,080516.00,A,0419.87034,S,05539.91200,E,0.075,,200525,,,D*7A
$GNVTG,,T,,M,0.075,N,0.138,K,D*30
$GNGGA,080516.00,0419.87034,S,05539.91200,E,2,12,0.79,8.3,M,-47.6,M,,0000*7C
$GNGSA,A,3,05,12,24,18,15,25,23,13,29,10,,,1.34,0.79,1.08*1E
$GNGSA,A,3,80,73,69,70,74,,,,,,,,1.34,0.79,1.08*1A
$GPGSV,4,1,16,05,12,028,12,10,31,222,16,12,52,148,35,13,09,077,32*77
$GPGSV,4,2,16,15,44,096,36,18,23,323,17,23,69,259,23,24,20,152,15*7D
$GPGSV,4,3,16,25,82,236,25,28,11,264,,29,27,011,17,32,03,217,*70
$GPGSV,4,4,16,36,52,277,,40,86,351,31,41,58,082,34,49,32,274,*79
$GLGSV,3,1,10,69,34,061,34,70,51,159,24,71,14,195,,73,54,212,27*69
$GLGSV,3,2,10,74,44,290,07,75,03,321,,80,13,163,25,84,05,003,*68
$GLGSV,3,3,10,85,02,317,,,,,33*5E
$GNGLL,0419.87034,S,05539.91200,E,080516.00,A,D*61
$GNTXT,01,01,01,More than 100 frame errors, UART RX was disabled*70
$GNRMC,080517.00,A,0419.87037,S,05539.91214,E,0.178,,200525,,,D*71
$GNVTG,,T,,M,0.178,N,0.330,K,D*36
$GNGGA,080517.00,0419.87037,S,05539.91214,E,2,12,0.88,8.4,M,-47.6,M,,0000*72
$GNGSA,A,3,05,12,24,18,15,25,23,13,29,,,,1.44,0.88,1.13*1C
$GNGSA,A,3,80,73,69,70,74,,,,,,,,1.44,0.88,1.13*19
$GPGSV,4,1,16,05,12,028,09,10,31,222,09,12,52,148,31,13,09,077,25*71
$GPGSV,4,2,16,15,44,096,29,18,23,323,15,23,69,259,21,24,20,152,13*75
$GPGSV,4,3,16,25,82,236,23,28,11,264,,29,27,011,16,32,03,217,*77
$GPGSV,4,4,16,36,52,277,,40,86,351,28,41,58,082,29,49,32,274,*7D
$GLGSV,3,1,10,69,34,061,29,70,51,159,23,71,14,195,,73,54,212,25*60
$GLGSV,3,2,10,74,44,290,09,75,03,321,,80,13,163,24,84,05,003,*67
$GLGSV,3,3,10,85,02,317,,,,,28*54
$GNGLL,0419.87037,S,05539.91214,E,080517.00,A,D*66
$GNTXT,01,01,01,More than 100 frame errors, UART RX was disabled*70
$GNRMC,080518.00,A,0419.87044,S,05539.91210,E,0.360,,200525,,,D*75
$GNVTG,,T,,M,0.360,N,0.667,K,D*3A
$GNGGA,080518.00,0419.87044,S,05539.91210,E,2,12,0.82,8.5,M,-47.6,M,,0000*76
$GNGSA,A,3,05,12,24,18,15,25,23,13,29,,,,1.39,0.82,1.12*1D
$GNGSA,A,3,80,73,69,70,74,,,,,,,,1.39,0.82,1.12*18
$GPGSV,4,1,16,05,12,028,09,10,31,222,09,12,52,148,35,13,09,077,31*70
$GPGSV,4,2,16,15,44,096,33,18,23,323,15,23,69,259,21,24,20,152,13*7E
$GPGSV,4,3,16,25,82,236,21,28,11,264,,29,27,011,16,32,03,217,*75
$GPGSV,4,4,16,36,52,277,,40,86,351,33,41,58,082,33,49,32,274,*7C
$GLGSV,3,1,10,69,34,061,34,70,51,159,21,71,14,195,,73,54,212,23*68
$GLGSV,3,2,10,74,44,290,07,75,03,321,,80,13,163,22,84,05,003,*6F
$GLGSV,3,3,10,85,02,317,,,,,34*59
$GNGLL,0419.87044,S,05539.91210,E,080518.00,A,D*69
$GNTXT,01,01,01,More than 100 frame errors, UART RX was disabled*70
$GNRMC,080519.00,A,0419.87049,S,05539.91205,E,0.375,,200525,,,D*79
$GNVTG,,T,,M,0.375,N,0.695,K,D*33
$GNGGA,080519.00,0419.87049,S,05539.91205,E,2,12,0.74,8.5,M,-47.6,M,,0000*77
$GNGSA,A,3,05,12,24,18,15,25,23,13,29,10,,,1.30,0.74,1.07*18
$GNGSA,A,3,80,73,69,70,74,,,,,,,,1.30,0.74,1.07*1C
$GPGSV,4,1,16,05,12,028,11,10,31,222,11,12,52,148,31,13,09,077,27*73
$GPGSV,4,2,16,15,44,095,28,18,23,323,14,23,69,259,22,24,20,152,13*75
$GPGSV,4,3,16,25,82,236,20,28,11,264,,29,27,011,17,32,03,217,*75
$GPGSV,4,4,16,36,52,277,,40,86,351,28,41,58,082,29,49,32,274,*7D
$GLGSV,3,1,10,69,34,061,31,70,51,159,20,71,14,195,,73,54,212,24*6B
$GLGSV,3,2,10,74,44,290,10,75,03,321,,80,13,163,23,84,05,003,*68
$GLGSV,3,3,10,85,02,317,,,,,33*5E
$GNGLL,0419.87049,S,05539.91205,E,080519.00,A,D*61
$GNTXT,01,01,01,More than 100 frame errors, UART RX was disabled*70
$GNRMC,080520.00,A,0419.87049,S,05539.91208,E,0.300,,200525,,,D*7C
$GNVTG,,T,,M,0.300,N,0.555,K,D*3E
$GNGGA,080520.00,0419.87049,S,05539.91208,E,2,12,0.78,8.6,M,-47.6,M,,0000*7F
$GNGSA,A,3,05,12,24,18,15,25,23,13,29,10,,,1.31,0.78,1.04*16
$GNGSA,A,3,80,73,69,70,74,,,,,,,,1.31,0.78,1.04*12
$GPGSV,4,1,16,05,12,028,12,10,31,222,12,12,52,148,34,13,09,077,26*77
$GPGSV,4,2,16,15,44,095,32,18,23,323,14,23,69,259,23,24,20,152,11*7D
$GPGSV,4,3,16,25,82,236,21,28,11,264,,29,27,011,18,32,03,217,*7B
$GPGSV,4,4,16,36,52,277,,40,86,351,33,41,58,082,31,49,32,274,*7E
$GLGSV,3,1,10,69,34,061,30,70,51,159,20,71,14,195,,73,54,212,23*6D
$GLGSV,3,2,10,74,44,290,11,75,03,321,,80,13,163,23,84,05,003,*69
$GLGSV,3,3,10,85,02,317,,,,,33*5E
$GNGLL,0419.87049,S,05539.91208,E,080520.00,A,D*66
$GNTXT,01,01,01,More than 100 frame errors, UART RX was disabled*70
$GNRMC,080521.00,A,0419.87059,S,05539.91202,E,0.423,,200525,,,D*70
$GNVTG,,T,,M,0.423,N,0.783,K,D*31
$GNGGA,080521.00,0419.87059,S,05539.91202,E,2,12,0.74,8.7,M,-47.6,M,,0000*78
$GNGSA,A,3,05,12,24,18,15,25,23,13,29,10,,,1.30,0.74,1.07*18
$GNGSA,A,3,80,73,69,70,74,,,,,,,,1.30,0.74,1.07*1C
$GPGSV,4,1,16,05,12,028,16,10,31,222,13,12,52,148,34,13,09,077,32*77
$GPGSV,4,2,16,15,44,095,35,18,23,323,14,23,69,259,24,24,20,152,12*7E
$GPGSV,4,3,16,25,82,236,21,28,11,264,,29,27,011,22,32,03,217,*72
$GPGSV,4,4,16,36,52,277,,40,86,351,33,41,58,082,35,49,32,274,*7A
$GLGSV,3,1,10,69,34,061,35,70,51,159,21,71,14,195,,73,54,212,25*6F
$GLGSV,3,2,10,74,44,290,16,75,03,321,,80,13,163,25,84,05,003,*68
$GLGSV,3,3,10,85,02,317,,,,,33*5E
$GNGLL,0419.87059,S,05539.91202,E,080521.00,A,D*6C
$GNTXT,01,01,01,More than 100 frame errors, UART RX was disabled*70
$GNRMC,080522.00,A,0419.87065,S,05539.91190,E,0.427,,200525,,,D*70
$GNVTG,,T,,M,0.427,N,0.791,K,D*36
$GNGGA,080522.00,0419.87065,S,05539.91190,E,2,12,0.76,8.6,M,-47.6,M,,0000*7F
$GNGSA,A,3,05,12,18,15,25,23,13,29,10,,,,1.33,0.76,1.09*11
$GNGSA,A,3,80,73,69,70,74,,,,,,,,1.33,0.76,1.09*13
$GPGSV,4,1,16,05,12,028,16,10,31,222,11,12,52,148,30,13,09,077,27*75
$GPGSV,4,2,16,15,44,095,38,18,23,324,15,23,69,259,24,24,20,152,09*7F
$GPGSV,4,3,16,25,82,236,20,28,11,264,,29,27,011,21,32,03,217,*70
$GPGSV,4,4,16,36,52,277,,40,86,351,30,41,58,082,35,49,32,274,*79
$GLGSV,3,1,10,69,34,061,34,70,51,159,21,71,14,195,,73,54,212,25*6E
$GLGSV,3,2,10,74,44,290,11,75,03,321,,80,13,163,25,84,05,003,*6F
$GLGSV,3,3,10,85,02,317,,,,,33*5E
$GNGLL,0419.87065,S,05539.91190,E,080522.00,A,D*68
$GNTXT,01,01,01,More than 100 frame errors, UART RX was disabled*70
$GNRMC,080523.00,A,0419.87075,S,05539.91192,E,0.444,,200525,,,D*77
$GNVTG,,T,,M,0.444,N,0.822,K,D*34
$GNGGA,080523.00,0419.87075,S,05539.91192,E,2,12,0.90,8.6,M,-47.6,M,,0000*75
$GNGSA,A,3,05,12,18,15,25,23,13,29,10,,,,1.46,0.90,1.15*16
$GNGSA,A,3,80,73,69,70,74,,,,,,,,1.46,0.90,1.15*14
$GPGSV,4,1,16,05,12,028,13,10,31,222,12,12,52,148,30,13,09,077,27*73
$GPGSV,4,2,16,15,44,095,33,18,23,324,17,23,69,259,25,24,20,152,10*7F
$GPGSV,4,3,16,25,82,236,19,28,11,264,,29,27,011,19,32,03,217,*71
$GPGSV,4,4,16,36,52,277,,40,86,351,34,41,58,082,35,49,32,274,*7D
$GLGSV,3,1,10,69,34,061,37,70,51,159,20,71,14,195,,73,54,212,25*6C
$GLGSV,3,2,10,74,44,290,13,75,03,321,,80,13,163,25,84,05,003,*6D
$GLGSV,3,3,10,85,02,317,,,,,36*5B
$GNGLL,0419.87075,S,05539.91192,E,080523.00,A,D*6A
$GNTXT,01,01,01,More than 100 frame errors, UART RX was disabled*70
$GNRMC,080524.00,A,0419.87086,S,05539.91196,E,0.467,,200525,,,D*79
$GNVTG,,T,,M,0.467,N,0.865,K,D*36
$GNGGA,080524.00,0419.87086,S,05539.91196,E,2,12,0.87,8.7,M,-47.6,M,,0000*7D
$GNGSA,A,3,05,12,24,18,15,25,23,13,29,10,,,1.42,0.87,1.13*14
$GNGSA,A,3,80,73,69,70,74,,,,,,,,1.42,0.87,1.13*10
$GPGSV,4,1,16,05,12,028,15,10,31,222,13,12,52,148,33,13,09,077,32*73
$GPGSV,4,2,16,15,44,095,36,18,23,324,18,23,69,259,24,24,20,152,14*70
$GPGSV,4,3,16,25,82,236,18,28,11,264,,29,27,011,19,32,03,217,*70
$GPGSV,4,4,16,36,52,277,,40,86,351,34,41,58,082,33,49,32,274,*7B
$GLGSV,3,1,10,69,34,061,35,70,51,159,20,71,14,195,,73,54,212,24*6F
$GLGSV,3,2,10,74,44,290,13,75,03,321,,80,13,163,25,84,05,003,*6D
$GLGSV,3,3,10,85,02,317,,,,,33*5E
$GNGLL,0419.87086,S,05539.91196,E,080524.00,A,D*65
$GNTXT,01,01,01,More than 100 frame errors, UART RX was disabled*70
$GNRMC,080525.00,A,0419.87095,S,05539.91198,E,0.468,,200525,,,D*7B
$GNVTG,,T,,M,0.468,N,0.867,K,D*3B
$GNGGA,080525.00,0419.87095,S,05539.91198,E,2,12,0.82,8.9,M,-47.6,M,,0000*7B
$GNGSA,A,3,05,12,24,18,15,25,23,13,29,10,,,1.39,0.82,1.12*1C
$GNGSA,A,3,80,73,69,70,74,,,,,,,,1.39,0.82,1.12*18
$GPGSV,4,1,16,05,12,028,14,10,31,222,15,12,52,148,29,13,09,077,31*7C
$GPGSV,4,2,16,15,44,095,35,18,23,324,17,23,69,259,24,24,20,152,18*70
$GPGSV,4,3,16,25,82,236,18,28,11,264,,29,27,011,20,32,03,217,*7A
$GPGSV,4,4,16,36,52,277,,40,86,351,33,41,58,082,34,49,32,274,*7B
$GLGSV,3,1,10,69,34,061,35,70,51,159,22,71,14,195,,73,54,212,22*6B
$GLGSV,3,2,10,74,44,290,10,75,03,321,,80,13,163,26,84,05,003,*6D
$GLGSV,3,3,10,85,02,317,,,,,32*5F
$GNGLL,0419.87095,S,05539.91198,E,080525.00,A,D*68
$GNTXT,01,01,01,More than 100 frame errors, UART RX was disabled*70
$GNRMC,080526.00,A,0419.87107,S,05539.91199,E,0.542,,200525,,,D*7A
$GNVTG,,T,,M,0.542,N,1.005,K,D*3F
$GNGGA,080526.00,0419.87107,S,05539.91199,E,2,12,0.89,9.2,M,-47.6,M,,0000*72
$GNGSA,A,3,12,24,18,15,25,23,13,29,10,,,,1.52,0.89,1.23*1D
$GNGSA,A,3,80,73,69,70,74,,,,,,,,1.52,0.89,1.23*1C
$GPGSV,4,1,16,05,12,028,12,10,31,222,15,12,52,148,26,13,09,077,25*70
$GPGSV,4,2,16,15,44,095,36,18,23,324,15,23,70,260,24,24,20,152,20*78
$GPGSV,4,3,16,25,82,236,23,28,11,264,,29,27,011,19,32,03,217,*78
$GPGSV,4,4,16,36,52,277,,40,86,351,33,41,58,082,38,49,32,274,*77
$GLGSV,3,1,10,69,34,061,35,70,51,159,21,71,14,195,,73,54,212,20*6A
$GLGSV,3,2,10,74,44,290,10,75,03,321,,80,13,163,26,84,05,003,*6D
$GLGSV,3,3,10,85,02,317,,,,,31*5C
$GNGLL,0419.87107,S,05539.91199,E,080526.00,A,D*60
$GNTXT,01,01,01,More than 100 frame errors, UART RX was disabled*70
$GNRMC,080527.00,A,0419.87117,S,05539.91203,E,0.264,,200525,,,D*79
$GNVTG,,T,,M,0.264,N,0.488,K,D*3C
$GNGGA,080527.00,0419.87117,S,05539.91203,E,2,12,0.75,9.3,M,-47.6,M,,0000*70
$GNGSA,A,3,05,12,24,18,15,25,23,13,29,10,,,1.38,0.75,1.16*11
$GNGSA,A,3,80,73,69,70,74,,,,,,,,1.38,0.75,1.16*15
$GPGSV,4,1,16,05,12,028,12,10,31,222,16,12,52,148,30,13,09,077,27*76
$GPGSV,4,2,16,15,44,095,36,18,23,324,17,23,70,260,24,24,20,152,19*70
$GPGSV,4,3,16,25,82,236,22,28,11,264,,29,27,011,18,32,03,217,*78
$GPGSV,4,4,16,36,52,277,,40,86,351,34,41,58,082,37,49,32,274,*7F
$GLGSV,3,1,10,69,34,061,33,70,51,159,21,71,14,195,,73,54,212,23*6F
$GLGSV,3,2,10,74,44,290,13,75,03,321,,80,13,163,26,84,05,003,*6E
$GLGSV,3,3,10,85,02,317,,,,,32*5F
$GNGLL,0419.87117,S,05539.91203,E,080527.00,A,D*60
$GNTXT,01,01,01,More than 100 frame errors, UART RX was disabled*70
$GNRMC,080528.00,A,0419.87115,S,05539.91187,E,0.493,,200525,,,D*75
$GNVTG,,T,,M,0.493,N,0.913,K,D*3D
$GNGGA,080528.00,0419.87115,S,05539.91187,E,2,12,0.75,9.2,M,-47.6,M,,0000*73
$GNGSA,A,3,05,12,24,18,15,25,23,13,29,10,,,1.38,0.75,1.16*11
$GNGSA,A,3,80,73,69,70,74,,,,,,,,1.38,0.75,1.16*15
$GPGSV,4,1,16,05,12,028,10,10,31,222,16,12,52,148,30,13,09,077,33*71
$GPGSV,4,2,16,15,44,095,34,18,23,324,18,23,70,260,23,24,20,152,18*7B
$GPGSV,4,3,16,25,82,232,23,28,11,264,,29,27,011,15,32,03,217,*70
$GPGSV,4,4,16,36,52,277,,40,86,351,34,41,58,082,37,49,32,274,*7F
$GLGSV,3,1,10,69,34,061,33,70,51,159,19,71,14,195,,73,54,212,25*62
$GLGSV,3,2,10,74,44,290,12,75,03,321,,80,13,163,26,84,05,003,*6F
$GLGSV,3,3,10,85,02,317,,,,,34*59
$GNGLL,0419.87115,S,05539.91187,E,080528.00,A,D*62
$GNTXT,01,01,01,More than 100 frame errors, UART RX was disabled*70
$GNRMC,080529.00,A,0419.87116,S,05539.91203,E,0.114,,200525,,,D*72
$GNVTG,,T,,M,0.114,N,0.210,K,D*3F
$GNGGA,080529.00,0419.87116,S,05539.91203,E,2,12,0.80,9.6,M,-47.6,M,,0000*70
$GNGSA,A,3,05,12,24,18,15,25,23,13,10,,,,1.42,0.80,1.17*1C
$GNGSA,A,3,80,73,69,70,74,,,,,,,,1.42,0.80,1.17*13
$GPGSV,4,1,16,05,12,028,10,10,31,222,14,12,52,148,31,13,09,077,33*72
$GPGSV,4,2,16,15,44,095,36,18,23,324,19,23,70,260,23,24,20,152,20*73
$GPGSV,4,3,16,25,82,232,21,28,11,264,,29,27,011,,32,03,217,*76
$GPGSV,4,4,16,36,52,277,,40,86,351,31,41,58,082,36,49,32,274,*7B
$GLGSV,3,1,10,69,34,061,33,70,51,159,18,71,14,195,,73,54,212,26*60
$GLGSV,3,2,10,74,44,290,14,75,03,321,,80,13,163,26,84,05,003,*69
$GLGSV,3,3,10,85,02,317,,,,,34*59
$GNGLL,0419.87116,S,05539.91203,E,080529.00,A,D*6F
$GNTXT,01,01,01,More than 100 frame errors, UART RX was disabled*70
$GNRMC,080530.00,A,0419.87124,S,05539.91219,E,0.150,,200525,,,D*70
$GNVTG,,T,,M,0.150,N,0.278,K,D*31
$GNGGA,080530.00,0419.87124,S,05539.91219,E,2,12,0.80,9.9,M,-47.6,M,,0000*7D
$GNGSA,A,3,05,12,24,18,15,25,23,13,10,,,,1.42,0.80,1.17*1C
$GNGSA,A,3,80,73,69,70,74,,,,,,,,1.42,0.80,1.17*13
$GPGSV,4,1,16,05,12,028,14,10,31,222,15,12,52,148,31,13,09,077,28*7D
$GPGSV,4,2,16,15,44,095,37,18,23,324,20,23,70,260,24,24,20,152,18*74
$GPGSV,4,3,16,25,82,232,19,28,11,264,,29,27,011,18,32,03,217,*74
$GPGSV,4,4,16,36,52,277,,40,86,351,30,41,58,082,34,49,32,274,*78
$GLGSV,3,1,10,69,34,061,28,70,51,159,19,71,14,195,,73,54,212,26*6B
$GLGSV,3,2,10,74,44,290,12,75,03,321,,80,13,163,27,84,05,003,*6E
$GLGSV,3,3,10,85,02,317,,,,,34*59
$GNGLL,0419.87124,S,05539.91219,E,080530.00,A,D*6D
$GNTXT,01,01,01,More than 100 frame errors, UART RX was disabled*70
$GNRMC,080531.00,A,0419.87128,S,05539.91216,E,0.338,,200525,,,D*7E
$GNVTG,,T,,M,0.338,N,0.626,K,D*32
$GNGGA,080531.00,0419.87128,S,05539.91216,E,2,12,0.80,9.9,M,-47.6,M,,0000*7F
$GNGSA,A,3,05,12,24,18,15,25,23,13,10,,,,1.42,0.80,1.17*1C
$GNGSA,A,3,80,73,69,70,74,,,,,,,,1.42,0.80,1.17*13
$GPGSV,4,1,16,05,12,028,13,10,31,222,20,12,52,148,25,13,09,077,28*79
$GPGSV,4,2,16,15,44,095,39,18,23,324,22,23,70,260,22,24,20,152,18*7E
$GPGSV,4,3,16,25,82,232,22,28,11,263,,29,27,011,18,32,03,217,*7B
$GPGSV,4,4,16,36,52,277,,40,86,351,32,41,58,082,39,49,32,274,*77
$GLGSV,3,1,10,69,34,061,35,70,51,159,20,71,14,195,,73,54,212,27*6C
$GLGSV,3,2,10,74,44,290,12,75,03,321,,80,13,163,26,84,05,003,*6F
$GLGSV,3,3,10,85,02,317,,,,,34*59
$GNGLL,0419.87128,S,05539.91216,E,080531.00,A,D*6F
$GNTXT,01,01,01,More than 100 frame errors, UART RX was disabled*70
$GNRMC,080532.00,A,0419.87120,S,05539.91202,E,0.482,,200525,,,D*76
$GNVTG,,T,,M,0.482,N,0.893,K,D*34
$GNGGA,080532.00,0419.87120,S,05539.91202,E,2,12,0.80,9.7,M,-47.6,M,,0000*7F
$GNGSA,A,3,05,12,24,18,15,25,23,13,10,,,,1.38,0.80,1.12*14
$GNGSA,A,3,80,73,69,70,74,,,,,,,,1.38,0.80,1.12*1B
$GPGSV,4,1,16,05,12,028,12,10,31,222,18,12,52,148,28,13,09,077,32*75
$GPGSV,4,2,16,15,44,095,37,18,23,324,21,23,70,260,21,24,20,152,16*7E
$GPGSV,4,3,16,25,82,232,23,28,11,263,,29,28,011,17,32,03,217,*7A
$GPGSV,4,4,16,36,52,277,,40,86,351,33,41,58,082,37,49,32,274,*78
$GLGSV,3,1,10,69,34,061,33,70,51,159,20,71,14,195,,73,54,212,27*6A
$GLGSV,3,2,10,74,44,290,07,75,03,321,,80,13,163,27,84,05,003,*6A
$GLGSV,3,3,10,85,02,317,,,,,34*59
$GNGLL,0419.87120,S,05539.91202,E,080532.00,A,D*61
$GNTXT,01,01,01,More than 100 frame errors, UART RX was disabled*70
$GNRMC,080533.00,A,0419.87115,S,05539.91196,E,0.216,,200525,,,D*74
$GNVTG,,T,,M,0.216,N,0.400,K,D*39
$GNGGA,080533.00,0419.87115,S,05539.91196,E,2,12,0.80,9.6,M,-47.6,M,,0000*77
$GNGSA,A,3,05,12,24,18,15,25,23,13,10,,,,1.42,0.80,1.17*1C
$GNGSA,A,3,80,73,69,70,74,,,,,,,,1.42,0.80,1.17*13
$GPGSV,4,1,16,05,12,028,15,10,31,222,16,12,52,148,30,13,09,077,32*75
$GPGSV,4,2,16,15,44,095,37,18,23,324,21,23,70,260,31,24,20,152,13*7A
$GPGSV,4,3,16,25,82,232,22,28,11,263,,29,28,011,16,32,03,217,*7A
$GPGSV,4,4,16,36,52,277,,40,86,351,33,41,58,082,37,49,32,274,*78
$GLGSV,3,1,10,69,34,061,36,70,51,159,19,71,14,195,,73,54,212,26*64
$GLGSV,3,2,10,74,44,290,10,75,03,321,,80,13,163,27,84,05,003,*6C
$GLGSV,3,3,10,85,02,317,,,,,33*5E
$GNGLL,0419.87115,S,05539.91196,E,080533.00,A,D*68
$GNTXT,01,01,01,More than 100 frame errors, UART RX was disabled*70
$GNRMC,080534.00,A,0419.87106,S,05539.91187,E,0.502,,200525,,,D*73
$GNVTG,,T,,M,0.502,N,0.930,K,D*35
$GNGGA,080534.00,0419.87106,S,05539.91187,E,2,12,0.80,9.5,M,-47.6,M,,0000*71
$GNGSA,A,3,05,12,24,18,15,25,23,13,29,10,,,1.42,0.80,1.17*17
$GNGSA,A,3,80,73,69,70,74,,,,,,,,1.42,0.80,1.17*13
$GPGSV,4,1,16,05,12,028,11,10,31,222,15,12,52,148,30,13,09,077,31*71
$GPGSV,4,2,16,15,44,095,36,18,23,324,21,23,70,260,21,24,20,152,17*7E
$GPGSV,4,3,16,25,82,232,22,28,11,263,,29,28,011,19,32,03,217,*75
$GPGSV,4,4,16,36,52,277,,40,86,351,33,41,58,082,39,49,32,274,*76
$GLGSV,3,1,10,69,34,061,35,70,51,159,18,71,14,195,,73,54,212,26*66
$GLGSV,3,2,10,74,44,290,10,75,03,321,,80,13,163,26,84,05,003,*6D
$GLGSV,3,3,10,85,02,317,,,,,33*5E
$GNGLL,0419.87106,S,05539.91187,E,080534.00,A,D*6D
$GNTXT,01,01,01,More than 100 frame errors, UART RX was disabled*70
$GNRMC,080535.00,A,0419.87098,S,05539.91178,E,0.265,,200525,,,D*72
$GNVTG,,T,,M,0.265,N,0.491,K,D*35
$GNGGA,080535.00,0419.87098,S,05539.91178,E,2,12,0.75,9.4,M,-47.6,M,,0000*7D
$GNGSA,A,3,05,12,24,18,15,25,23,13,29,10,,,1.35,0.75,1.12*18
$GNGSA,A,3,80,73,69,70,74,,,,,,,,1.35,0.75,1.12*1C
$GPGSV,4,1,16,05,12,028,10,10,31,222,17,12,52,148,29,13,09,077,30*7B
$GPGSV,4,2,16,15,44,095,37,18,23,324,20,23,70,260,23,24,20,152,16*7D
$GPGSV,4,3,16,25,82,232,20,28,11,263,,29,28,011,19,32,03,216,*76
$GPGSV,4,4,16,36,52,277,,40,86,351,32,41,58,082,38,49,32,274,*76
$GLGSV,3,1,10,69,34,061,34,70,51,159,19,71,14,195,,73,54,212,27*67
$GLGSV,3,2,10,74,44,290,13,75,03,321,,80,13,163,26,84,05,003,*6E
$GLGSV,3,3,10,85,02,317,,,,,33*5E
$GNGLL,0419.87098,S,05539.91178,E,080535.00,A,D*6A
$GNTXT,01,01,01,More than 100 frame errors, UART RX was disabled*70
$GNRMC,080536.00,A,0419.87092,S,05539.91166,E,0.319,,200525,,,D*7E
$GNVTG,,T,,M,0.319,N,0.590,K,D*3F
$GNGGA,080536.00,0419.87092,S,05539.91166,E,2,12,0.75,9.2,M,-47.6,M,,0000*7D
$GNGSA,A,3,05,12,24,18,15,25,23,13,29,10,,,1.35,0.75,1.12*18
$GNGSA,A,3,80,73,69,70,74,,,,,,,,1.35,0.75,1.12*1C
$GPGSV,4,1,16,05,12,028,09,10,31,222,17,12,52,148,29,13,09,077,31*72
$GPGSV,4,2,16,15,44,095,33,18,23,324,21,23,70,260,22,24,20,152,16*79
$GPGSV,4,3,16,25,82,232,18,28,11,263,,29,28,011,18,32,03,216,*7C
$GPGSV,4,4,16,36,52,277,,40,86,351,32,41,58,082,36,49,32,274,*78
$GLGSV,3,1,10,69,34,061,34,70,51,159,19,71,14,195,,73,54,212,27*67
$GLGSV,3,2,10,74,44,290,11,75,03,321,,80,13,163,27,84,05,003,*6D
$GLGSV,3,3,10,85,02,317,,,,,31*5C
$GNGLL,0419.87092,S,05539.91166,E,080536.00,A,D*6C
$GNTXT,01,01,01,More than 100 frame errors, UART RX was disabled*70
$GNRMC,080537.00,A,0419.87080,S,05539.91148,E,0.636,,200525,,,D*78
$GNVTG,,T,,M,0.636,N,1.178,K,D*34
$GNGGA,080537.00,0419.87080,S,05539.91148,E,2,12,0.80,9.0,M,-47.6,M,,0000*7B
$GNGSA,A,3,05,12,24,18,15,25,23,13,29,10,,,1.42,0.80,1.17*17
$GNGSA,A,3,80,73,69,70,74,,,,,,,,1.42,0.80,1.17*13
$GPGSV,4,1,16,05,12,028,16,10,31,222,15,12,52,148,33,13,09,077,31*75
$GPGSV,4,2,16,15,44,095,38,18,23,324,21,23,70,260,25,24,20,152,15*76
$GPGSV,4,3,16,25,82,232,17,28,11,263,,29,28,011,16,32,03,216,*7D
$GPGSV,4,4,16,36,52,277,,40,86,351,33,41,58,082,38,49,32,274,*77
$GLGSV,3,1,10,69,34,061,34,70,51,159,18,71,14,195,,73,54,212,26*67
$GLGSV,3,2,10,74,44,290,09,75,03,321,,80,13,163,27,84,05,003,*64
$GLGSV,3,3,10,85,02,317,,,,,32*5F
$GNGLL,0419.87080,S,05539.91148,E,080537.00,A,D*62
$GNTXT,01,01,01,More than 100 frame errors, UART RX was disabled*70
$GNRMC,080538.00,A,0419.87073,S,05539.91138,E,0.327,,200525,,,D*79
$GNVTG,,T,,M,0.327,N,0.607,K,D*3F
$GNGGA,080538.00,0419.87073,S,05539.91138,E,2,12,0.80,8.7,M,-47.6,M,,0000*79
$GNGSA,A,3,12,24,18,15,25,23,13,10,,,,,1.42,0.80,1.17*19
$GNGSA,A,3,80,73,69,70,74,,,,,,,,1.42,0.80,1.17*13
$GPGSV,4,1,16,05,12,028,07,10,31,222,14,12,52,148,33,13,09,077,31*74
$GPGSV,4,2,16,15,44,095,38,18,23,324,19,23,70,260,27,24,20,152,17*7D
$GPGSV,4,3,16,25,82,232,20,28,11,263,,29,28,011,,32,03,216,*7E
$GPGSV,4,4,16,36,52,277,,40,86,351,31,41,58,082,37,49,32,274,*7A
$GLGSV,3,1,10,69,34,061,33,70,51,159,19,71,14,195,,73,54,212,27*60
$GLGSV,3,2,10,74,44,290,14,75,03,321,,80,13,163,26,84,05,003,*69
$GLGSV,3,3,10,85,02,317,,,,,31*5C
$GNGLL,0419.87073,S,05539.91138,E,080538.00,A,D*66
$GNTXT,01,01,01,More than 100 frame errors, UART RX was disabled*70
$GNRMC,080539.00,A,0419.87065,S,05539.91129,E,0.221,,200525,,,D*78
$GNVTG,,T,,M,0.221,N,0.409,K,D*34
$GNGGA,080539.00,0419.87065,S,05539.91129,E,2,12,0.80,8.4,M,-47.6,M,,0000*7C
$GNGSA,A,3,05,12,24,18,15,25,23,13,10,,,,1.42,0.80,1.17*1C
$GNGSA,A,3,80,73,69,70,74,,,,,,,,1.42,0.80,1.17*13
$GPGSV,4,1,16,05,12,028,11,10,31,222,16,12,52,148,31,13,09,077,29*7A
$GPGSV,4,2,16,15,44,095,38,18,23,324,19,23,70,260,27,24,20,152,17*7D
$GPGSV,4,3,16,25,82,232,19,28,11,263,,29,28,011,,32,03,216,*74
$GPGSV,4,4,16,36,52,277,,40,86,351,29,41,58,082,37,49,32,274,*73
$GLGSV,3,1,10,69,34,061,28,70,51,159,19,71,14,195,,73,54,212,27*6A
$GLGSV,3,2,10,74,44,290,14,75,03,321,,80,13,163,25,84,05,003,*6A
$GLGSV,3,3,10,85,02,317,,,,,30*5D
$GNGLL,0419.87065,S,05539.91129,E,080539.00,A,D*60
$GNTXT,01,01,01,More than 100 frame errors, UART RX was disabled*70
$GNRMC,080540.00,A,0419.87062,S,05539.91116,E,0.292,,200525,,,D*75
$GNVTG,,T,,M,0.292,N,0.540,K,D*30
