b0Lx2Y>s(&+:z-;R
3{4Ta:R 
Y
g5CuDE
N)6O!FRPXRVS"Tbx2Y>weY$GNRMC,045257.00,A,0419.81790,S,05539.85113,E,0.255,,270525,,,A*78
$GNVTG,,T,,M,0.255,N,0.473,K,A*3F
$GNGNS,045257.00,0419.81790,S,05539.85113,E,AA,11,1.13,37.2,-47.6,,*66
$GNGGA,045257.00,0419.81790,S,05539.85113,E,1,11,1.13,37.2,M,-47.6,M,,*4C
$GNGSA,A,3,05,24,20,12,13,11,22,,,,,,1.75,1.13,1.33*1D
$GNGSA,A,3,79,78,82,67,,,,,,,,,1.75,1.13,1.33*17
$GPGSV,5,1,17,05,62,115,18,11,17,022,15,12,38,006,29,13,18,150,22*7E
$GPGSV,5,2,17,15,28,184,17,18,26,238,23,20,43,058,23,22,14,122,11*75
$GPGSV,5,3,17,23,06,211,,24,59,228,23,25,15,338,19,29,10,307,*72
$GPGSV,5,4,17,36,52,277,,40,84,353,,41,58,082,,49,32,274,*7C
$GPGSV,5,5,17,50,10,089,*4A
$GLGSV,3,1,09,67,16,117,15,68,19,167,18,69,03,212,,78,41,139,29*63
$GLGSV,3,2,09,79,70,030,33,80,22,344,,82,25,342,18,83,34,282,12*6A
$GLGSV,3,3,09,84,08,231,*58
$GNGLL,0419.81790,S,05539.85113,E,045257.00,A,A*64
$GNGRS,045257.00,1,-24.1,9.1,-3.0,12.2,9.2,3.0,18.4,,,,,*47
$GNGRS,045257.00,1,-1.7,0.5,-28.2,-0.3,,,,,,,,*44
$GNGST,045257.00,3586708,,,,5.2,8.5,13*59
$GNZDA,045257.00,27,05,2025,00,00*7C
$GNGBS,045257.00,5.2,8.5,12.6,,,,*61
b0L`6Y>s&+:Iz;AR
3{4Ta:R 
Y
gCu}DE
N)OFVPXRVS"T9b`6Y>_=$GNRMC,045258.00,A,0419.81814,S,05539.85081,E,0.791,,270525,,,A*73
$GNVTG,,T,,M,0.791,N,1.465,K,A*34
$GNGNS,045258.00,0419.81814,S,05539.85081,E,AA,11,1.13,37.2,-47.6,,*60
$GNGGA,045258.00,0419.81814,S,05539.85081,E,1,11,1.13,37.2,M,-47.6,M,,*4A
$GNGSA,A,3,05,24,20,12,13,11,22,,,,,,1.75,1.13,1.33*1D
$GNGSA,A,3,79,78,82,67,,,,,,,,,1.75,1.13,1.33*17
$GPGSV,5,1,17,05,62,115,18,11,17,022,13,12,38,006,27,13,18,150,20*74
$GPGSV,5,2,17,15,28,184,15,18,26,238,22,20,43,058,22,22,14,122,11*77
$GPGSV,5,3,17,23,06,211,,24,59,228,20,25,15,338,18,29,10,307,*70
$GPGSV,5,4,17,36,52,277,,40,84,353,,41,58,082,,49,32,274,*7C
$GPGSV,5,5,17,50,10,089,*4A
$GLGSV,3,1,09,67,16,117,13,68,19,167,16,69,03,212,,78,41,139,26*64
$GLGSV,3,2,09,79,70,030,29,80,22,344,,82,25,342,15,83,34,282,11*6F
$GLGSV,3,3,09,84,08,231,*58
$GNGLL,0419.81814,S,05539.85081,E,045258.00,A,A*62
$GNGRS,045258.00,1,-26.3,10.9,-1.8,9.7,9.2,-0.9,-18.5,,,,,*46
$GNGRS,045258.00,1,-1.7,1.5,-28.1,-1.3,,,,,,,,*48
$GNGST,045258.00,58,,,,5.3,8.7,13*6F
$GNZDA,045258.00,27,05,2025,00,00*73
$GNGBS,045258.00,5.3,8.7,12.6,,,,*6D
b0LH:Y>sq~&K+:~zQ;hR
3{4Ta:R 
Y
gXC
uDE
N )!O$F^PXRVS"T.bH:Y>G)$GNRMC,045259.00,A,0419.81801,S,05539.85075,E,0.381,,270525,,,A*78
$GNVTG,,T,,M,0.381,N,0.705,K,A*35
$GNGNS,045259.00,0419.81801,S,05539.85075,E,AA,09,1.21,37.1,-47.6,,*65
$GNGGA,045259.00,0419.81801,S,05539.85075,E,1,09,1.21,37.1,M,-47.6,M,,*4F
$GNGSA,A,3,05,24,20,12,13,22,,,,,,,1.91,1.21,1.48*1A
$GNGSA,A,3,79,78,82,,,,,,,,,,1.91,1.21,1.48*11
$GPGSV,5,1,17,05,62,115,29,11,17,022,09,12,38,006,25,13,18,150,18*74
$GPGSV,5,2,17,15,28,184,13,18,26,238,24,20,43,058,23,22,14,122,11*76
$GPGSV,5,3,17,23,06,211,,24,59,228,18,25,15,338,17,29,10,307,*74
$GPGSV,5,4,17,36,52,277,,40,84,353,,41,58,082,,49,32,274,*7C
$GPGSV,5,5,17,50,10,089,*4A
$GLGSV,3,1,09,67,16,117,10,68,19,167,16,69,03,212,,78,41,139,32*62
$GLGSV,3,2,09,79,70,030,36,80,22,344,,82,25,342,15,83,34,283,*60
$GLGSV,3,3,09,84,08,231,*58
$GNGLL,0419.81801,S,05539.85075,E,045259.00,A,A*6C
$GNGRS,045259.00,1,-24.5,11.3,-1.3,3.3,6.5,18.7,,,,,,*60
$GNGRS,045259.00,1,3.5,0.3,-28.9,,,,,,,,,*6A
$GNGST,045259.00,3966514,,,,5.3,8.9,13*57
$GNZDA,045259.00,27,05,2025,00,00*72
$GNGBS,045259.00,5.3,8.9,12.6,,,,*62
b0L0>Y>s|&c+:?zM;LR
3{4Ta:R 
Y
g
CuDE
N )O FPXRV]S"Tb0>Y>/$GNRMC,045300.00,A,0419.81810,S,05539.85079,E,0.270,,270525,,,A*76
$GNVTG,,T,,M,0.270,N,0.501,K,A*3C
$GNGNS,045300.00,0419.81810,S,05539.85079,E,AA,10,1.17,37.5,-47.6,,*6D
$GNGGA,045300.00,0419.81810,S,05539.85079,E,1,10,1.17,37.5,M,-47.6,M,,*47
$GNGSA,A,3,05,24,20,12,13,22,,,,,,,1.85,1.17,1.42*10
$GNGSA,A,3,79,78,82,67,,,,,,,,,1.85,1.17,1.42*1A
$GPGSV,5,1,17,05,62,115,29,11,17,022,08,12,38,006,25,13,18,150,17*7A
$GPGSV,5,2,17,15,28,184,16,18,26,238,25,20,43,058,23,22,14,122,11*72
$GPGSV,5,3,17,23,06,211,,24,59,228,24,25,15,338,15,29,10,307,*79
$GPGSV,5,4,17,36,52,277,,40,84,353,,41,58,082,,49,32,274,*7C
$GPGSV,5,5,17,50,10,089,*4A
$GLGSV,3,1,09,67,16,117,12,68,19,167,17,69,03,212,,78,41,139,32*61
$GLGSV,3,2,09,79,70,030,32,80,22,344,,82,25,342,18,83,34,283,19*61
$GLGSV,3,3,09,84,08,232,*5B
$GNGLL,0419.81810,S,05539.85079,E,045300.00,A,A*6D
$GNGRS,045300.00,1,-17.9,13.6,0.6,4.6,6.1,18.7,,,,,,*49
$GNGRS,045300.00,1,7.2,2.8,-29.8,-0.6,,,,,,,,*68
$GNGST,045300.00,3762966,,,,5.3,9.1,13*50
$GNZDA,045300.00,27,05,2025,00,00*7F
$GNGBS,045300.00,5.3,9.1,12.6,,,,*66
b0LBY>se&+:jzh;R
3{4Ta:R 
Y
gHCuDE
N)OFPXRVS"TUbBY>$GNRMC,045301.00,A,0419.81808,S,05539.85061,E,0.090,,270525,,,A*7B
$GNVTG,,T,,M,0.090,N,0.167,K,A*34
$GNGNS,045301.00,0419.81808,S,05539.85061,E,AA,10,1.44,37.4,-47.6,,*6B
$GNGGA,045301.00,0419.81808,S,05539.85061,E,1,10,1.44,37.4,M,-47.6,M,,*41
$GNGSA,A,3,05,24,20,12,13,22,,,,,,,2.33,1.44,1.83*15
$GNGSA,A,3,79,78,82,67,,,,,,,,,2.33,1.44,1.83*1F
$GPGSV,5,1,17,05,62,115,28,11,17,022,07,12,38,006,26,13,18,150,18*78
$GPGSV,5,2,17,15,28,184,16,18,26,238,25,20,43,058,27,22,14,122,11*76
$GPGSV,5,3,17,23,06,211,,24,59,228,26,25,15,338,15,29,10,307,*7B
$GPGSV,5,4,17,36,52,277,,40,84,353,,41,58,082,,49,32,274,*7C
$GPGSV,5,5,17,50,10,089,*4A
$GLGSV,3,1,09,67,16,117,15,68,19,167,17,69,03,212,,78,41,139,30*64
$GLGSV,3,2,09,79,70,030,31,80,22,344,,82,25,342,18,83,34,283,20*68
$GLGSV,3,3,09,84,08,232,*5B
$GNGLL,0419.81808,S,05539.85061,E,045301.00,A,A*6C
$GNGRS,045301.00,1,-15.7,15.5,1.1,14.5,4.0,-14.3,,,,,,*53
$GNGRS,045301.00,1,2.8,4.9,-28.0,-0.5,,,,,,,,*6B
$GNGST,045301.00,53,,,,5.3,8.8,13*66
$GNZDA,045301.00,27,05,2025,00,00*7E
$GNGBS,045301.00,5.3,8.8,12.6,,,,*6F
b0LFY>s&p+:z\;gR
3{4Ta:R 
Y
gyCuDE
N)O FSPXRV]S"TbFY>^$GNRMC,045302.00,A,0419.81806,S,05539.85040,E,0.123,,270525,,,A*7C
$GNVTG,,T,,M,0.123,N,0.227,K,A*3A
$GNGNS,045302.00,0419.81806,S,05539.85040,E,AA,09,1.45,37.2,-47.6,,*6A
$GNGGA,045302.00,0419.81806,S,05539.85040,E,1,09,1.45,37.2,M,-47.6,M,,*40
$GNGSA,A,3,05,24,20,12,13,22,,,,,,,2.34,1.45,1.84*14
$GNGSA,A,3,79,78,82,,,,,,,,,,2.34,1.45,1.84*1F
$GPGSV,5,1,17,05,62,115,27,11,17,022,07,12,38,006,28,13,18,150,18*79
$GPGSV,5,2,17,15,28,184,16,18,26,238,26,20,43,058,26,22,14,122,11*74
$GPGSV,5,3,17,23,06,211,,24,59,228,26,25,15,338,19,29,10,307,*77
$GPGSV,5,4,17,36,52,277,,40,84,353,,41,58,082,,49,32,274,*7C
$GPGSV,5,5,17,50,10,089,*4A
$GLGSV,3,1,09,67,16,117,,68,19,167,18,69,03,212,,78,41,139,30*6F
$GLGSV,3,2,09,79,70,030,32,80,22,344,,82,25,342,17,83,34,283,20*64
$GLGSV,3,3,09,84,08,232,*5B
$GNGLL,0419.81806,S,05539.85040,E,045302.00,A,A*62
$GNGRS,045302.00,1,-15.5,16.4,-1.3,10.1,1.1,18.8,,,,,,*51
$GNGRS,045302.00,1,0.8,4.1,-24.7,,,,,,,,,*6F
$GNGST,045302.00,3965255,,,,5.2,8.8,13*59
$GNZDA,045302.00,27,05,2025,00,00*7D
$GNGBS,045302.00,5.2,8.8,12.6,,,,*6D
b0LIY>s&"+:zw;;R
3{4Ta:R 
Y
gCuDE
N)qO!FPXRVS"TbIY>t$GNRMC,045303.00,A,0419.81806,S,05539.85020,E,0.096,,270525,,,A*74
$GNVTG,,T,,M,0.096,N,0.178,K,A*3C
$GNGNS,045303.00,0419.81806,S,05539.85020,E,AA,08,1.45,37.3,-47.6,,*6D
$GNGGA,045303.00,0419.81806,S,05539.85020,E,1,08,1.45,37.3,M,-47.6,M,,*47
$GNGSA,A,3,05,24,20,12,13,22,,,,,,,2.34,1.45,1.84*14
$GNGSA,A,3,79,78,,,,,,,,,,,2.34,1.45,1.84*15
$GPGSV,5,1,17,05,62,115,27,11,17,022,07,12,38,006,27,13,18,150,16*78
$GPGSV,5,2,17,15,28,184,16,18,26,238,26,20,43,058,26,22,14,122,11*74
$GPGSV,5,3,17,23,06,211,,24,59,228,26,25,15,338,19,29,10,307,*77
$GPGSV,5,4,17,36,52,277,,40,84,353,,41,58,082,,49,32,274,*7C
$GPGSV,5,5,17,50,10,089,*4A
$GLGSV,3,1,09,67,16,117,19,68,19,167,19,69,03,212,,78,41,139,30*66
$GLGSV,3,2,09,79,70,030,33,80,22,344,,82,25,342,15,83,34,283,18*6C
$GLGSV,3,3,09,84,08,232,*5B
$GNGLL,0419.81806,S,05539.85020,E,045303.00,A,A*65
$GNGRS,045303.00,1,-10.3,16.0,-0.1,10.6,-2.4,19.1,,,,,,*70
$GNGRS,045303.00,1,2.3,3.7,,,,,,,,,,*54
$GNGST,045303.00,3965255,,,,5.2,8.7,13*57
$GNZDA,045303.00,27,05,2025,00,00*7C
$GNGBS,045303.00,5.2,8.7,12.6,82,,18.2,66.6*64
b0LMY>s>&+:Nz;R
3{4Ta:R 
Y
gCuDE
N)O!FPXRV4S"TbMY>L!$GNRMC,045304.00,A,0419.81805,S,05539.84995,E,0.098,,270525,,,A*78
$GNVTG,,T,,M,0.098,N,0.181,K,A*34
$GNGNS,045304.00,0419.81805,S,05539.84995,E,AA,08,1.45,37.0,-47.6,,*6C
$GNGGA,045304.00,0419.81805,S,05539.84995,E,1,08,1.45,37.0,M,-47.6,M,,*46
$GNGSA,A,3,05,24,20,12,13,22,,,,,,,2.34,1.45,1.84*14
$GNGSA,A,3,79,78,,,,,,,,,,,2.34,1.45,1.84*15
$GPGSV,5,1,17,05,62,115,27,11,17,022,07,12,38,006,27,13,18,150,15*7B
$GPGSV,5,2,17,15,28,184,18,18,26,238,25,20,43,058,24,22,14,122,11*7B
$GPGSV,5,3,17,23,06,211,,24,59,228,28,25,15,338,18,29,10,307,*78
$GPGSV,5,4,17,36,52,277,,40,84,353,,41,58,082,,49,32,274,*7C
$GPGSV,5,5,17,50,10,089,*4A
$GLGSV,3,1,09,67,16,117,18,68,19,167,21,69,03,212,,78,41,139,30*6C
$GLGSV,3,2,09,79,70,030,33,80,22,344,,82,25,342,13,83,34,283,15*67
$GLGSV,3,3,09,84,08,232,*5B
$GNGLL,0419.81805,S,05539.84995,E,045304.00,A,A*67
$GNGRS,045304.00,1,-5.2,14.7,3.3,17.3,-1.1,2.6,,,,,,*52
$GNGRS,045304.00,1,1.7,7.2,,,,,,,,,,*55
$GNGST,045304.00,54,,,,5.2,8.7,13*6A
$GNZDA,045304.00,27,05,2025,00,00*7B
$GNGBS,045304.00,5.2,8.7,12.6,82,,9.3,69.1*5A
b0LQY>sb&+:nz=;/R
3{4Ta:R 
Y
g,CueDE
N)
O!F4PXRVS"T bQY>$$GNRMC,045305.00,A,0419.81807,S,05539.84983,E,0.037,,270525,,,A*79
$GNVTG,,T,,M,0.037,N,0.068,K,A*37
$GNGNS,045305.00,0419.81807,S,05539.84983,E,AA,09,1.15,36.8,-47.6,,*65
$GNGGA,045305.00,0419.81807,S,05539.84983,E,1,09,1.15,36.8,M,-47.6,M,,*4F
$GNGSA,A,3,05,24,20,12,13,22,,,,,,,1.80,1.15,1.38*1A
$GNGSA,A,3,79,78,82,,,,,,,,,,1.80,1.15,1.38*11
$GPGSV,5,1,17,05,62,115,28,11,17,022,07,12,38,006,29,13,18,150,18*77
$GPGSV,5,2,17,15,28,184,17,18,26,238,26,20,43,058,25,22,14,122,11*76
$GPGSV,5,3,17,23,06,211,,24,59,228,28,25,15,338,17,29,10,307,*77
$GPGSV,5,4,17,36,52,277,,40,84,353,,41,58,082,,49,32,274,*7C
$GPGSV,5,5,17,50,10,089,*4A
$GLGSV,3,1,09,67,16,117,17,68,19,167,21,69,03,212,,78,41,139,30*63
$GLGSV,3,2,09,79,70,030,33,80,22,344,,82,25,342,13,83,34,283,15*67
$GLGSV,3,3,09,84,08,232,*5B
$GNGLL,0419.81807,S,05539.84983,E,045305.00,A,A*63
$GNGRS,045305.00,1,-4.1,13.3,3.7,12.4,-1.0,18.5,,,,,,*6D
$GNGRS,045305.00,1,0.5,10.3,-7.4,,,,,,,,,*60
$GNGST,045305.00,219942,,,,5.1,8.6,13*6D
$GNZDA,045305.00,27,05,2025,00,00*7A
$GNGBS,045305.00,5.1,8.6,12.6,,,,*67
b0LUY>s_&s+:z,;R
3{4Ta:R 
Y
gCuDE
N)O"FPXRV8S"TbUY>$GNRMC,045306.00,A,0419.81806,S,05539.84966,E,0.066,,270525,,,A*74
$GNVTG,,T,,M,0.066,N,0.122,K,A*3C
$GNGNS,045306.00,0419.81806,S,05539.84966,E,AA,10,1.15,36.5,-47.6,,*69
$GNGGA,045306.00,0419.81806,S,05539.84966,E,1,10,1.15,36.5,M,-47.6,M,,*43
$GNGSA,A,3,05,24,20,12,13,22,,,,,,,1.80,1.15,1.38*1A
$GNGSA,A,3,79,78,82,67,,,,,,,,,1.80,1.15,1.38*10
$GPGSV,5,1,17,05,62,115,28,11,17,022,07,12,38,006,29,13,18,150,18*77
$GPGSV,5,2,17,15,28,184,17,18,26,238,25,20,43,058,26,22,14,122,11*76
$GPGSV,5,3,17,23,06,211,,24,59,228,28,25,15,338,17,29,10,307,*77
$GPGSV,5,4,17,36,52,277,,40,84,353,,41,58,082,,49,32,274,*7C
$GPGSV,5,5,17,50,10,089,*4A
$GLGSV,3,1,09,67,16,117,19,68,19,167,21,69,03,212,,78,41,139,31*6C
$GLGSV,3,2,09,79,70,030,34,80,22,344,,82,25,342,15,83,34,283,14*67
$GLGSV,3,3,09,84,08,232,*5B
$GNGLL,0419.81806,S,05539.84966,E,045306.00,A,A*6A
$GNGRS,045306.00,1,-4.2,12.3,5.3,13.9,1.5,18.4,,,,,,*4B
$GNGRS,045306.00,1,-3.5,4.6,-7.1,-49.2,,,,,,,,*44
$GNGST,045306.00,3761771,,,,5.1,8.5,13*5A
$GNZDA,045306.00,27,05,2025,00,00*79
$GNGBS,045306.00,5.1,8.5,12.5,,,,*64
b0LYY>s&+:z;PR
3{4Ta:R 
Y
gCuDE
N)O"FPXRVS"TzbYY>Y$GNRMC,045307.00,A,0419.81812,S,05539.84953,E,0.084,,270525,,,A*7A
$GNVTG,,T,,M,0.084,N,0.156,K,A*33
$GNGNS,045307.00,0419.81812,S,05539.84953,E,AA,09,1.16,36.3,-47.6,,*66
$GNGGA,045307.00,0419.81812,S,05539.84953,E,1,09,1.16,36.3,M,-47.6,M,,*4C
$GNGSA,A,3,05,24,20,12,13,,,,,,,,1.86,1.16,1.45*15
$GNGSA,A,3,79,78,82,67,,,,,,,,,1.86,1.16,1.45*1F
$GPGSV,5,1,17,05,62,115,27,11,17,022,07,12,38,006,28,13,18,150,15*74
$GPGSV,5,2,17,15,28,184,18,18,26,238,23,20,43,058,26,22,14,122,*7F
$GPGSV,5,3,17,23,06,211,,24,59,228,27,25,15,338,20,29,10,307,*7C
$GPGSV,5,4,17,36,52,277,,40,84,353,,41,58,082,,49,32,274,*7C
$GPGSV,5,5,17,50,10,089,*4A
$GLGSV,3,1,09,67,16,117,18,68,19,167,21,69,03,212,,78,41,139,30*6C
$GLGSV,3,2,09,79,70,030,34,80,22,344,,82,25,342,16,83,34,283,14*64
$GLGSV,3,3,09,84,08,232,*5B
$GNGLL,0419.81812,S,05539.84953,E,045307.00,A,A*68
$GNGRS,045307.00,1,-5.3,13.6,2.7,4.6,2.2,,,,,,,*63
$GNGRS,045307.00,1,-0.1,1.9,-5.5,-43.8,,,,,,,,*4E
$GNGST,045307.00,50,,,,5.1,8.5,12*6D
$GNZDA,045307.00,27,05,2025,00,00*78
$GNGBS,045307.00,5.1,8.5,12.5,,,,*65
b0Lp]Y>s&+:zY;R
3{4Ta:R 
Y
gRCu~DE
N)O"FPXRVnS"Tbp]Y>o$GNRMC,045308.00,A,0419.81815,S,05539.84935,E,0.048,,270525,,,A*72
$GNVTG,,T,,M,0.048,N,0.090,K,A*38
$GNGNS,045308.00,0419.81815,S,05539.84935,E,AA,09,1.16,36.0,-47.6,,*6D
$GNGGA,045308.00,0419.81815,S,05539.84935,E,1,09,1.16,36.0,M,-47.6,M,,*47
$GNGSA,A,3,05,24,20,12,13,,,,,,,,1.86,1.16,1.45*15
$GNGSA,A,3,79,78,82,67,,,,,,,,,1.86,1.16,1.45*1F
$GPGSV,5,1,17,05,62,115,29,11,17,022,07,12,38,006,26,13,18,150,11*70
$GPGSV,5,2,17,15,28,184,18,18,26,238,25,20,43,058,26,22,14,122,17*7F
$GPGSV,5,3,17,23,06,211,,24,59,228,28,25,15,338,21,29,10,307,*72
$GPGSV,5,4,17,36,52,277,,40,84,353,,41,58,082,,49,32,274,*7C
$GPGSV,5,5,17,50,10,089,*4A
$GLGSV,3,1,09,67,16,117,17,68,19,167,21,69,03,212,,78,41,139,31*62
$GLGSV,3,2,09,79,70,030,34,80,22,344,,82,25,342,18,83,34,283,13*6D
$GLGSV,3,3,09,84,08,232,*5B
$GNGLL,0419.81815,S,05539.84935,E,045308.00,A,A*60
$GNGRS,045308.00,1,-6.3,11.8,0.3,9.0,1.8,,,,,,,*67
$GNGRS,045308.00,1,-1.1,4.5,-4.0,-44.8,,,,,,,,*4A
$GNGST,045308.00,51,,,,5.0,8.4,12*63
$GNZDA,045308.00,27,05,2025,00,00*77
$GNGBS,045308.00,5.0,8.4,12.5,,,,*6A
b0LXaY>r[&a+:*z;R
3{4Ta:R 
Y
gqCueDE
N)O#FPXRVS"TrbXaY>W)$GNRMC,045309.00,A,0419.81815,S,05539.84917,E,0.139,,270525,,,A*74
$GNVTG,,T,,M,0.139,N,0.258,K,A*39
$GNGNS,045309.00,0419.81815,S,05539.84917,E,AA,09,1.16,35.8,-47.6,,*67
$GNGGA,045309.00,0419.81815,S,05539.84917,E,1,09,1.16,35.8,M,-47.6,M,,*4D
$GNGSA,A,3,05,24,20,12,13,,,,,,,,1.86,1.16,1.45*15
$GNGSA,A,3,79,78,82,67,,,,,,,,,1.86,1.16,1.45*1F
$GPGSV,5,1,17,05,62,114,30,11,17,022,07,12,38,006,25,13,18,150,18*73
$GPGSV,5,2,17,15,28,184,16,18,26,238,27,20,43,058,31,22,14,122,14*76
$GPGSV,5,3,17,23,06,211,,24,59,228,27,25,15,338,21,29,10,307,*7D
$GPGSV,5,4,17,36,52,277,,40,84,353,,41,58,082,,49,32,274,*7C
$GPGSV,5,5,17,50,10,089,*4A
$GLGSV,3,1,09,67,16,117,16,68,19,167,19,69,03,212,,78,41,139,30*69
$GLGSV,3,2,09,79,70,030,35,80,22,344,,82,25,342,17,83,34,283,19*69
$GLGSV,3,3,09,84,08,232,*5B
$GNGLL,0419.81815,S,05539.84917,E,045309.00,A,A*61
$GNGRS,045309.00,1,-4.2,9.5,-2.1,19.6,1.0,,,,,,,*43
$GNGRS,045309.00,1,-0.6,6.7,-6.0,-39.9,,,,,,,,*44
$GNGST,045309.00,48,,,,5.0,8.3,12*6D
$GNZDA,045309.00,27,05,2025,00,00*76
$GNGBS,045309.00,5.0,8.3,12.4,,,,*6D
b0L@eY>r'&P.+:Az;R
3{4Ta:R 
Y
g|CuDE
N)mO#FPXRV)S"Tqnb@eY>?\$GNRMC,045310.00,A,0419.81816,S,05539.84903,E,0.022,,270525,,,A*71
$GNVTG,,T,,M,0.022,N,0.042,K,A*3B
$GNGNS,045310.00,0419.81816,S,05539.84903,E,AA,09,1.16,35.2,-47.6,,*63
$GNGGA,045310.00,0419.81816,S,05539.84903,E,1,09,1.16,35.2,M,-47.6,M,,*49
$GNGSA,A,3,05,24,20,12,13,,,,,,,,1.86,1.16,1.45*15
$GNGSA,A,3,79,78,82,67,,,,,,,,,1.86,1.16,1.45*1F
$GPGSV,5,1,17,05,62,114,29,11,17,022,07,12,38,006,25,13,18,150,20*70
$GPGSV,5,2,17,15,28,184,14,18,26,238,27,20,43,058,26,22,14,122,12*74
$GPGSV,5,3,17,23,06,211,,24,59,228,27,25,15,338,20,29,10,307,*7C
$GPGSV,5,4,17,36,52,277,,40,84,353,,41,58,082,,49,32,274,*7C
$GPGSV,5,5,17,50,10,089,*4A
$GLGSV,3,1,09,67,16,117,15,68,19,167,18,69,03,212,,78,41,139,30*6B
$GLGSV,3,2,09,79,70,030,35,80,22,344,,82,25,342,17,83,34,283,19*69
$GLGSV,3,3,09,84,08,232,*5B
$GNGLL,0419.81816,S,05539.84903,E,045310.00,A,A*6F
$GNGRS,045310.00,1,-4.7,6.5,-4.5,23.8,0.5,,,,,,,*40
$GNGRS,045310.00,1,-2.9,8.8,-4.7,-46.3,,,,,,,,*47
$GNGST,045310.00,47,,,,5.0,8.3,12*6A
$GNZDA,045310.00,27,05,2025,00,00*7E
$GNGBS,045310.00,5.0,8.3,12.3,,,,*62
b0L(iY>r8&X+:Gz;IR
3{4Ta:R 
Y
gCupDE
N)uO#FFPXRV)S"Tb(iY>'!4$GNRMC,045311.00,A,0419.81817,S,05539.84891,E,0.080,,270525,,,A*73
$GNVTG,,T,,M,0.080,N,0.148,K,A*38
$GNGNS,045311.00,0419.81817,S,05539.84891,E,AA,09,1.16,34.6,-47.6,,*6C
$GNGGA,045311.00,0419.81817,S,05539.84891,E,1,09,1.16,34.6,M,-47.6,M,,*46
$GNGSA,A,3,05,24,20,12,13,,,,,,,,1.86,1.16,1.45*15
$GNGSA,A,3,79,78,82,67,,,,,,,,,1.86,1.16,1.45*1F
$GPGSV,5,1,17,05,62,114,30,11,17,022,07,12,38,006,26,13,18,150,20*7B
$GPGSV,5,2,17,15,28,184,17,18,26,238,27,20,43,058,27,22,14,122,11*75
$GPGSV,5,3,17,23,06,211,,24,59,228,27,25,15,338,19,29,10,307,*76
$GPGSV,5,4,17,36,52,277,,40,84,353,,41,58,082,,49,32,274,*7C
$GPGSV,5,5,17,50,10,089,*4A
$GLGSV,3,1,09,67,16,117,13,68,19,167,17,69,03,212,,78,41,139,30*62
$GLGSV,3,2,09,79,70,030,35,80,22,344,,82,25,342,16,83,34,283,19*68
$GLGSV,3,3,09,84,08,232,*5B
$GNGLL,0419.81817,S,05539.84891,E,045311.00,A,A*65
$GNGRS,045311.00,1,-7.1,5.9,0.7,16.8,0.9,,,,,,,*6A
$GNGRS,045311.00,1,-1.9,11.4,-4.7,-50.1,,,,,,,,*74
$GNGST,045311.00,47,,,,5.0,8.2,12*6A
$GNZDA,045311.00,27,05,2025,00,00*7F
$GNGBS,045311.00,5.0,8.2,12.3,,,,*62
b0LmY>r&+:7
z;jR
3{4Ta:R 
Y
gCuyDE
N)O$FjPXRVS"TubmY>%a$GNRMC,045312.00,A,0419.81816,S,05539.84883,E,0.030,,270525,,,A*79
$GNVTG,,T,,M,0.030,N,0.055,K,A*3E
$GNGNS,045312.00,0419.81816,S,05539.84883,E,AA,09,1.15,34.6,-47.6,,*6E
$GNGGA,045312.00,0419.81816,S,05539.84883,E,1,09,1.15,34.6,M,-47.6,M,,*44
$GNGSA,A,3,05,24,20,12,13,,,,,,,,1.81,1.15,1.40*14
$GNGSA,A,3,79,78,82,67,,,,,,,,,1.81,1.15,1.40*1E
$GPGSV,5,1,17,05,62,114,28,11,17,022,07,12,38,006,28,13,18,150,21*7D
$GPGSV,5,2,17,15,28,184,17,18,26,238,26,20,43,058,24,22,14,122,10*76
$GPGSV,5,3,17,23,06,211,,24,59,228,26,25,15,338,20,29,10,307,*7D
$GPGSV,5,4,17,36,52,277,,40,84,353,,41,58,082,,49,32,274,*7C
$GPGSV,5,5,17,50,10,089,*4A
$GLGSV,3,1,09,67,16,117,14,68,19,167,17,69,03,212,,78,41,139,30*65
$GLGSV,3,2,09,79,70,030,36,80,22,344,,82,25,342,17,83,34,283,18*6B
$GLGSV,3,3,09,84,08,232,*5B
$GNGLL,0419.81816,S,05539.84883,E,045312.00,A,A*64
$GNGRS,045312.00,1,-7.4,6.2,8.2,10.2,-0.4,,,,,,,*45
$GNGRS,045312.00,1,-1.5,12.6,-3.3,-47.4,,,,,,,,*7A
$GNGST,045312.00,53,,,,4.9,8.2,12*64
$GNZDA,045312.00,27,05,2025,00,00*7C
$GNGBS,045312.00,4.9,8.2,12.2,,,,*68
b0LpY>rP&H>+:zz;.R
3{4Ta:R 
Y
gCuZDE
N)O%FPXRVYS"T!bpY>($GNRMC,045313.00,A,0419.81814,S,05539.84884,E,0.117,,270525,,,A*79
$GNVTG,,T,,M,0.117,N,0.217,K,A*3E
$GNGNS,045313.00,0419.81814,S,05539.84884,E,AA,09,1.16,34.1,-47.6,,*6E
$GNGGA,045313.00,0419.81814,S,05539.84884,E,1,09,1.16,34.1,M,-47.6,M,,*44
$GNGSA,A,3,05,24,20,12,13,,,,,,,,1.86,1.16,1.45*15
$GNGSA,A,3,79,78,82,67,,,,,,,,,1.86,1.16,1.45*1F
$GPGSV,5,1,17,05,62,114,29,11,17,022,07,12,38,006,29,13,18,150,22*7E
$GPGSV,5,2,17,15,28,184,18,18,26,238,26,20,43,058,25,22,14,122,09*70
$GPGSV,5,3,17,23,06,211,,24,59,228,27,25,15,338,20,29,10,307,*7C
$GPGSV,5,4,17,36,52,277,,40,84,353,,41,58,082,,49,32,274,*7C
$GPGSV,5,5,17,50,10,089,*4A
$GLGSV,3,1,09,67,16,117,13,68,19,167,16,69,03,212,,78,41,139,29*6B
$GLGSV,3,2,09,79,70,030,37,80,22,344,,82,25,342,17,83,34,283,17*65
$GLGSV,3,3,09,84,08,232,*5B
$GNGLL,0419.81814,S,05539.84884,E,045313.00,A,A*60
$GNGRS,045313.00,1,-13.0,3.0,8.9,11.0,-1.9,,,,,,,*76
$GNGRS,045313.00,1,-1.2,9.9,-4.2,-47.7,,,,,,,,*4C
$GNGST,045313.00,50,,,,4.9,8.2,12*66
$GNZDA,045313.00,27,05,2025,00,00*7D
$GNGBS,045313.00,4.9,8.2,12.1,,,,*6A
b0LtY>r&+:.z;R
3{4Ta:R 
Y
gCuiDE
N)CO$FPXRVS"TvbtY>,$GNRMC,045314.00,A,0419.81812,S,05539.84871,E,0.028,,270525,,,A*7F
$GNVTG,,T,,M,0.028,N,0.052,K,A*30
$GNGNS,045314.00,0419.81812,S,05539.84871,E,AA,09,1.15,34.0,-47.6,,*67
$GNGGA,045314.00,0419.81812,S,05539.84871,E,1,09,1.15,34.0,M,-47.6,M,,*4D
$GNGSA,A,3,05,24,20,12,13,,,,,,,,1.81,1.15,1.40*14
$GNGSA,A,3,79,78,82,67,,,,,,,,,1.81,1.15,1.40*1E
$GPGSV,5,1,17,05,62,114,29,11,17,022,07,12,38,006,28,13,18,150,22*7F
$GPGSV,5,2,17,15,28,184,18,18,26,238,25,20,43,058,25,22,14,122,08*72
$GPGSV,5,3,17,23,06,211,,24,59,228,28,25,15,338,20,29,10,307,*73
$GPGSV,5,4,17,36,52,277,,40,84,353,,41,58,082,,49,32,274,*7C
$GPGSV,5,5,17,50,10,089,*4A
$GLGSV,3,1,09,67,16,117,14,68,19,167,17,69,03,212,,78,41,139,30*65
$GLGSV,3,2,09,79,70,030,36,80,22,344,,82,25,342,15,83,34,283,18*69
$GLGSV,3,3,09,84,08,232,*5B
$GNGLL,0419.81812,S,05539.84871,E,045314.00,A,A*6B
$GNGRS,045314.00,1,-13.3,4.0,5.6,12.3,-0.9,,,,,,,*76
$GNGRS,045314.00,1,-1.2,10.9,-5.0,-47.6,,,,,,,,*71
$GNGST,045314.00,53,,,,4.9,8.1,12*61
$GNZDA,045314.00,27,05,2025,00,00*7A
$GNGBS,045314.00,4.9,8.1,12.0,,,,*6F
b0LxY>r?&l+:0
zf;/R
3{4Ta:R 
Y
gCu/DE
N)O$FPXRVS"T>bxY>0$GNRMC,045315.00,A,0419.81813,S,05539.84861,E,0.147,,270525,,,A*76
$GNVTG,,T,,M,0.147,N,0.272,K,A*38
$GNGNS,045315.00,0419.81813,S,05539.84861,E,AA,10,1.15,33.7,-47.6,,*6E
$GNGGA,045315.00,0419.81813,S,05539.84861,E,1,10,1.15,33.7,M,-47.6,M,,*44
$GNGSA,A,3,05,24,20,12,13,22,,,,,,,1.80,1.15,1.38*1A
$GNGSA,A,3,79,78,82,67,,,,,,,,,1.80,1.15,1.38*10
$GPGSV,5,1,17,05,62,114,27,11,16,022,07,12,38,006,28,13,18,150,21*73
$GPGSV,5,2,17,15,28,184,16,18,26,238,23,20,43,058,22,22,14,122,10*74
$GPGSV,5,3,17,23,06,211,,24,59,228,28,25,15,338,18,29,10,307,*78
$GPGSV,5,4,17,36,52,277,,40,84,353,,41,58,082,,49,32,274,*7C
$GPGSV,5,5,17,50,10,089,*4A
$GLGSV,3,1,09,67,16,117,14,68,19,167,16,69,03,212,,78,41,139,29*6C
$GLGSV,3,2,09,79,70,030,36,80,22,344,,82,25,342,13,83,34,283,17*60
$GLGSV,3,3,09,84,08,232,*5B
$GNGLL,0419.81813,S,05539.84861,E,045315.00,A,A*6A
$GNGRS,045315.00,1,-9.6,3.0,5.6,11.3,-0.1,-37.4,,,,,,*76
$GNGRS,045315.00,1,-0.8,13.1,-3.6,-48.2,,,,,,,,*7B
$GNGST,045315.00,64,,,,4.8,8.1,12*65
$GNZDA,045315.00,27,05,2025,00,00*7B
$GNGBS,045315.00,4.8,8.1,12.0,,,,*6F
b0L|Y>r'n+:zN;R
3{4Ta:R 
Y
gCuDE
N)3O$FPXRVyS"TOb|Y>4j$GNRMC,045316.00,A,0419.81815,S,05539.84857,E,0.021,,270525,,,A*77
$GNVTG,,T,,M,0.021,N,0.038,K,A*35
$GNGNS,045316.00,0419.81815,S,05539.84857,E,AA,10,1.15,33.6,-47.6,,*6F
$GNGGA,045316.00,0419.81815,S,05539.84857,E,1,10,1.15,33.6,M,-47.6,M,,*45
$GNGSA,A,3,05,24,20,12,13,22,,,,,,,1.80,1.15,1.38*1A
$GNGSA,A,3,79,78,82,67,,,,,,,,,1.80,1.15,1.38*10
$GPGSV,5,1,17,05,62,114,27,11,16,022,,12,39,006,29,13,18,150,22*77
$GPGSV,5,2,17,15,28,184,16,18,26,238,24,20,43,058,22,22,14,122,11*72
$GPGSV,5,3,17,23,06,211,,24,59,228,26,25,15,338,19,29,10,307,*77
$GPGSV,5,4,17,36,52,277,,40,84,353,,41,58,082,,49,32,274,*7C
$GPGSV,5,5,17,50,10,089,*4A
$GLGSV,3,1,09,67,16,117,14,68,19,167,14,69,03,212,,78,41,139,28*6F
$GLGSV,3,2,09,79,70,030,36,80,22,344,,82,25,342,11,83,34,283,15*60
$GLGSV,3,3,09,84,08,232,*5B
$GNGLL,0419.81815,S,05539.84857,E,045316.00,A,A*6A
$GNGRS,045316.00,1,-8.4,4.6,4.2,4.8,-1.5,-35.1,,,,,,*4F
$GNGRS,045316.00,1,-0.5,15.9,-3.9,-46.5,,,,,,,,*7D
$GNGST,045316.00,58,,,,4.8,8.1,12*69
$GNZDA,045316.00,27,05,2025,00,00*78
$GNGBS,045316.00,4.8,8.1,11.9,,,,*66
b0LY>rq'+:Fz;R
3{4Ta:R 
Y
gCuDE
N)2O$FPXRV_S"T bY>8BW$GNRMC,045317.00,A,0419.81813,S,05539.84856,E,0.043,,270525,,,A*75
$GNVTG,,T,,M,0.043,N,0.080,K,A*32
$GNGNS,045317.00,0419.81813,S,05539.84856,E,AA,09,1.45,33.3,-47.6,,*61
$GNGGA,045317.00,0419.81813,S,05539.84856,E,1,09,1.45,33.3,M,-47.6,M,,*4B
$GNGSA,A,3,05,24,20,12,13,22,,,,,,,2.35,1.45,1.84*15
$GNGSA,A,3,79,78,67,,,,,,,,,,2.35,1.45,1.84*15
$GPGSV,5,1,17,05,62,114,26,11,16,022,17,12,39,006,29,13,18,149,22*78
$GPGSV,5,2,17,15,28,184,18,18,26,238,24,20,43,058,22,22,14,122,11*7C
$GPGSV,5,3,17,23,06,211,,24,59,228,28,25,15,338,21,29,10,307,*72
$GPGSV,5,4,17,36,52,277,,40,84,353,,41,58,082,,49,32,274,*7C
$GPGSV,5,5,17,50,10,089,*4A
$GLGSV,3,1,09,67,16,117,15,68,19,167,15,69,03,212,,78,41,139,29*6E
$GLGSV,3,2,09,79,70,030,36,80,22,344,,82,25,342,09,83,34,283,14*68
$GLGSV,3,3,09,84,08,232,*5B
$GNGLL,0419.81813,S,05539.84856,E,045317.00,A,A*6C
$GNGRS,045317.00,1,-9.1,1.3,5.8,6.4,0.3,-33.0,,,,,,*62
$GNGRS,045317.00,1,-0.2,13.3,-44.3,,,,,,,,,*7A
$GNGST,045317.00,51,,,,4.8,8.0,12*60
$GNZDA,045317.00,27,05,2025,00,00*79
$GNGBS,045317.00,4.8,8.0,11.9,,,,*66
b0LY>rL'+:z;dR
3{4Ta:R 
Y
gCuMDE
N)aO$FPXRVDS"TbY><$GNRMC,045318.00,A,0419.81806,S,05539.84858,E,0.074,,270525,,,A*74
$GNVTG,,T,,M,0.074,N,0.137,K,A*3B
$GNGNS,045318.00,0419.81806,S,05539.84858,E,AA,08,1.46,33.0,-47.6,,*65
$GNGGA,045318.00,0419.81806,S,05539.84858,E,1,08,1.46,33.0,M,-47.6,M,,*4F
$GNGSA,A,3,05,24,20,12,13,,,,,,,,2.40,1.46,1.90*11
$GNGSA,A,3,79,78,67,,,,,,,,,,2.40,1.46,1.90*11
$GPGSV,5,1,17,05,62,114,26,11,16,022,18,12,39,006,28,13,18,149,21*75
$GPGSV,5,2,17,15,28,184,17,18,26,238,23,20,43,058,24,22,14,122,08*7A
$GPGSV,5,3,17,23,06,211,,24,59,228,28,25,15,338,20,29,10,307,*73
$GPGSV,5,4,17,36,52,277,,40,84,353,,41,58,082,,49,32,274,*7C
$GPGSV,5,5,17,50,10,089,*4A
$GLGSV,3,1,09,67,16,117,15,68,19,167,12,69,03,212,,78,41,139,30*61
$GLGSV,3,2,09,79,70,030,36,80,22,344,,82,25,342,08,83,34,283,17*6A
$GLGSV,3,3,09,84,08,232,*5B
$GNGLL,0419.81806,S,05539.84858,E,045318.00,A,A*69
$GNGRS,045318.00,1,-9.5,-1.6,9.1,11.9,-1.2,,,,,,,*61
$GNGRS,045318.00,1,-0.1,6.1,-45.3,,,,,,,,,*41
$GNGST,045318.00,43,,,,4.8,8.0,12*6C
$GNZDA,045318.00,27,05,2025,00,00*76
$GNGBS,045318.00,4.8,8.0,11.9,,,,*69
b0LhY>r'*+:zg;R
3{4Ta:R 
Y
g1CuDE
N)O$FPXRVS"TzbhY>g@'$GNRMC,045319.00,A,0419.81798,S,05539.84863,E,0.055,,270525,,,A*76
$GNVTG,,T,,M,0.055,N,0.102,K,A*3E
$GNGNS,045319.00,0419.81798,S,05539.84863,E,AA,09,1.46,32.6,-47.6,,*62
$GNGGA,045319.00,0419.81798,S,05539.84863,E,1,09,1.46,32.6,M,-47.6,M,,*48
$GNGSA,A,3,05,24,20,12,13,,,,,,,,2.40,1.46,1.90*11
$GNGSA,A,3,79,78,82,67,,,,,,,,,2.40,1.46,1.90*1B
$GPGSV,5,1,17,05,62,114,27,11,16,022,16,12,39,006,27,13,18,149,21*75
$GPGSV,5,2,17,15,28,184,16,18,26,238,23,20,43,058,25,22,14,122,08*7A
$GPGSV,5,3,17,23,06,211,,24,59,228,29,25,15,338,21,29,10,307,*73
$GPGSV,5,4,17,36,52,277,,40,84,353,,41,58,082,,49,32,274,*7C
$GPGSV,5,5,17,50,10,089,*4A
$GLGSV,3,1,09,67,16,117,16,68,19,167,11,69,03,212,,78,41,139,29*69
$GLGSV,3,2,09,79,70,030,36,80,22,344,,82,25,342,11,83,34,283,17*62
$GLGSV,3,3,09,84,08,232,*5B
$GNGLL,0419.81798,S,05539.84863,E,045319.00,A,A*68
$GNGRS,045319.00,1,-10.7,-3.1,7.4,17.9,-2.1,,,,,,,*52
$GNGRS,045319.00,1,0.1,4.4,25.3,-47.0,,,,,,,,*71
$GNGST,045319.00,43,,,,4.8,8.0,12*6D
$GNZDA,045319.00,27,05,2025,00,00*77
$GNGBS,045319.00,4.8,8.0,11.8,,,,*69
b0LPY>r*'~+:
z;MR
3{4Ta:R 
Y
gCuDE
N)O$FPXRVjS"Tt`bPY>OD$GNRMC,045320.00,A,0419.81793,S,05539.84860,E,0.046,,270525,,,A*76
$GNVTG,,T,,M,0.046,N,0.085,K,A*32
$GNGNS,045320.00,0419.81793,S,05539.84860,E,AA,10,1.15,32.2,-47.6,,*6A
$GNGGA,045320.00,0419.81793,S,05539.84860,E,1,10,1.15,32.2,M,-47.6,M,,*40
$GNGSA,A,3,05,24,20,12,13,22,,,,,,,1.80,1.15,1.38*1A
$GNGSA,A,3,79,78,82,67,,,,,,,,,1.80,1.15,1.38*10
$GPGSV,5,1,17,05,62,114,27,11,16,022,14,12,39,006,27,13,18,149,23*75
$GPGSV,5,2,17,15,28,184,15,18,26,238,23,20,43,058,25,22,14,122,10*70
$GPGSV,5,3,17,23,06,211,,24,59,228,28,25,15,338,22,29,10,307,*71
$GPGSV,5,4,17,36,52,277,,40,84,353,,41,58,082,,49,32,274,*7C
$GPGSV,5,5,17,50,10,089,*4A
$GLGSV,3,1,09,67,16,117,14,68,19,167,,69,03,212,,78,41,139,28*6A
$GLGSV,3,2,09,79,70,030,36,80,22,344,,82,25,342,11,83,34,283,16*63
$GLGSV,3,3,09,84,08,232,*5B
$GNGLL,0419.81793,S,05539.84860,E,045320.00,A,A*6A
$GNGRS,045320.00,1,-12.4,0.8,4.9,12.2,-1.3,-25.9,,,,,,*42
$GNGRS,045320.00,1,0.3,9.6,-1.5,-46.3,,,,,,,,*69
$GNGST,045320.00,3761771,,,,4.8,7.9,12*54
$GNZDA,045320.00,27,05,2025,00,00*7D
$GNGBS,045320.00,4.8,7.9,11.8,,,,*65
b0L8Y>rl'+:
z;UR
3{4Ta:R 
Y
giCu5DE
N)O#FDPXRV1S"Tkb8Y>7H$GNRMC,045321.00,A,0419.81791,S,05539.84855,E,0.028,,270525,,,A*7B
$GNVTG,,T,,M,0.028,N,0.052,K,A*30
$GNGNS,045321.00,0419.81791,S,05539.84855,E,AA,09,1.16,31.7,-47.6,,*62
$GNGGA,045321.00,0419.81791,S,05539.84855,E,1,09,1.16,31.7,M,-47.6,M,,*48
$GNGSA,A,3,05,24,20,12,13,,,,,,,,1.86,1.16,1.45*15
$GNGSA,A,3,79,78,82,67,,,,,,,,,1.86,1.16,1.45*1F
$GPGSV,5,1,17,05,62,114,27,11,16,022,12,12,39,006,27,13,18,149,22*72
$GPGSV,5,2,17,15,28,184,14,18,26,238,22,20,43,058,25,22,14,122,10*70
$GPGSV,5,3,17,23,06,211,,24,59,228,27,25,15,338,22,29,10,307,*7E
$GPGSV,5,4,17,36,52,277,,40,84,353,,41,58,082,,49,32,274,*7C
$GPGSV,5,5,17,50,10,089,*4A
$GLGSV,3,1,09,67,16,117,12,68,19,167,,69,03,212,,78,41,139,28*6C
$GLGSV,3,2,09,79,70,030,35,80,22,344,,82,25,342,11,83,34,283,16*60
$GLGSV,3,3,09,84,08,232,*5B
$GNGLL,0419.81791,S,05539.84855,E,045321.00,A,A*6F
$GNGRS,045321.00,1,-14.3,0.8,1.8,9.1,-0.9,,,,,,,*49
$GNGRS,045321.00,1,0.7,10.5,-2.1,-45.6,,,,,,,,*56
$GNGST,045321.00,3965255,,,,4.7,7.9,12*53
$GNZDA,045321.00,27,05,2025,00,00*7C
$GNGBS,045321.00,4.7,7.9,11.8,,,,*6B
b0L Y>r
&'+:z;R
3{4Ta:R 
Y
gCuDE
N)O$F2PXRVS"Tvb Y>Lz_$GNRMC,045322.00,A,0419.81791,S,05539.84851,E,0.070,,270525,,,A*71
$GNVTG,,T,,M,0.070,N,0.130,K,A*38
$GNGNS,045322.00,0419.81791,S,05539.84851,E,AA,10,1.15,31.4,-47.6,,*6D
$GNGGA,045322.00,0419.81791,S,05539.84851,E,1,10,1.15,31.4,M,-47.6,M,,*47
$GNGSA,A,3,05,24,20,12,13,22,,,,,,,1.80,1.15,1.38*1A
$GNGSA,A,3,79,78,82,67,,,,,,,,,1.80,1.15,1.38*10
$GPGSV,5,1,17,05,62,114,28,11,16,022,10,12,39,006,25,13,18,149,21*7E
$GPGSV,5,2,17,15,28,184,15,18,26,238,23,20,43,058,26,22,14,122,13*70
$GPGSV,5,3,17,23,06,211,,24,59,228,28,25,15,338,23,29,10,307,*70
$GPGSV,5,4,17,36,52,277,,40,84,353,,41,58,082,,49,32,274,*7C
$GPGSV,5,5,17,50,10,089,*4A
$GLGSV,3,1,09,67,16,117,14,68,19,167,,69,03,212,,78,41,139,28*6A
$GLGSV,3,2,09,79,70,030,36,80,22,344,,82,25,342,11,83,34,283,15*60
$GLGSV,3,3,09,84,08,232,*5B
$GNGLL,0419.81791,S,05539.84851,E,045322.00,A,A*68
$GNGRS,045322.00,1,-13.0,2.3,1.5,10.2,-0.2,-20.5,,,,,,*4E
$GNGRS,045322.00,1,0.5,9.8,-2.6,-45.8,,,,,,,,*6B
$GNGST,045322.00,57,,,,4.7,7.9,12*69
$GNZDA,045322.00,27,05,2025,00,00*7F
$GNGBS,045322.00,4.7,7.9,11.8,,,,*68
b0LY>r
'+:za;R
3{4Ta:R 
Y
g=CuDE
N)O$FLPXRVS"TbY>PR$GNRMC,045323.00,A,0419.81787,S,05539.84852,E,0.105,,270525,,,A*77
$GNVTG,,T,,M,0.105,N,0.195,K,A*34
$GNGNS,045323.00,0419.81787,S,05539.84852,E,AA,11,1.11,31.3,-47.6,,*6A
$GNGGA,045323.00,0419.81787,S,05539.84852,E,1,11,1.11,31.3,M,-47.6,M,,*40
$GNGSA,A,3,05,24,20,12,13,11,22,,,,,,1.72,1.11,1.31*1A
$GNGSA,A,3,79,78,82,67,,,,,,,,,1.72,1.11,1.31*10
$GPGSV,5,1,17,05,62,114,30,11,16,022,10,12,39,006,26,13,18,149,19*7F
$GPGSV,5,2,17,15,28,184,16,18,26,238,23,20,43,058,26,22,14,122,17*77
$GPGSV,5,3,17,23,06,211,,24,59,228,27,25,15,338,21,29,10,307,*7D
$GPGSV,5,4,17,36,52,277,,40,84,353,,41,58,082,,49,32,274,*7C
$GPGSV,5,5,17,50,10,089,*4A
$GLGSV,3,1,09,67,16,117,11,68,19,167,,69,03,212,,78,41,139,28*6F
$GLGSV,3,2,09,79,70,030,36,80,22,344,,82,25,342,11,83,34,283,15*60
$GLGSV,3,3,09,84,08,232,*5B
$GNGLL,0419.81787,S,05539.84852,E,045323.00,A,A*6D
$GNGRS,045323.00,1,-13.3,-2.6,2.4,4.1,2.0,-12.5,-19.5,,,,,*42
$GNGRS,045323.00,1,0.8,13.1,-1.2,-45.9,,,,,,,,*53
$GNGST,045323.00,906,,,,4.7,7.9,12*55
$GNZDA,045323.00,27,05,2025,00,00*7E
$GNGBS,045323.00,4.7,7.9,11.7,,,,*66
b0LY>r@m'J*9~z;R
3{4Ta:R 
Y
gCuDE
N)0O#FNPXRVS"T%bY>S($GNRMC,045324.00,A,0419.81784,S,05539.84855,E,0.136,,270525,,,A*74
$GNVTG,,T,,M,0.136,N,0.252,K,A*3C
$GNGNS,045324.00,0419.81784,S,05539.84855,E,AA,10,1.11,31.5,-47.6,,*6E
$GNGGA,045324.00,0419.81784,S,05539.84855,E,1,10,1.11,31.5,M,-47.6,M,,*44
$GNGSA,A,3,05,24,20,12,13,11,22,,,,,,1.72,1.11,1.31*1A
$GNGSA,A,3,79,78,82,,,,,,,,,,1.72,1.11,1.31*11
$GPGSV,5,1,17,05,62,114,21,11,16,022,12,12,39,006,26,13,18,149,17*73
$GPGSV,5,2,17,15,28,184,15,18,26,238,24,20,42,057,24,22,14,122,16*7E
$GPGSV,5,3,17,23,06,211,,24,59,228,27,25,15,338,21,29,10,307,*7D
$GPGSV,5,4,17,36,52,277,,40,84,353,,41,58,082,,49,32,274,*7C
$GPGSV,5,5,17,50,10,089,*4A
$GLGSV,3,1,09,67,16,117,08,68,19,167,,69,03,212,,78,41,139,28*67
$GLGSV,3,2,09,79,70,030,35,80,22,344,,82,25,342,11,83,34,283,13*65
$GLGSV,3,3,09,84,08,232,*5B
$GNGLL,0419.81784,S,05539.84855,E,045324.00,A,A*6E
$GNGRS,045324.00,1,-17.3,-2.5,1.3,1.8,0.7,-11.7,-18.1,,,,,*4B
$GNGRS,045324.00,1,0.8,13.3,-1.3,,,,,,,,,*6C
$GNGST,045324.00,906,,,,4.7,7.9,12*52
$GNZDA,045324.00,27,05,2025,00,00*79
$GNGBS,045324.00,4.7,7.9,11.7,,,,*61
b0LY>r9'^*9hz);R
3{4Ta:R 
Y
gCuDE
N)O#FJPXRVS"TKbY>W$GNRMC,045325.00,A,0419.81787,S,05539.84860,E,0.130,,270525,,,A*76
$GNVTG,,T,,M,0.130,N,0.240,K,A*39
$GNGNS,045325.00,0419.81787,S,05539.84860,E,AA,11,1.15,31.4,-47.6,,*6E
$GNGGA,045325.00,0419.81787,S,05539.84860,E,1,11,1.15,31.4,M,-47.6,M,,*44
$GNGSA,A,3,05,24,20,12,13,11,22,,,,,,1.89,1.15,1.50*1D
$GNGSA,A,3,79,78,82,67,,,,,,,,,1.89,1.15,1.50*17
$GPGSV,5,1,17,05,62,114,20,11,16,022,13,12,39,006,26,13,18,149,15*71
$GPGSV,5,2,17,15,28,184,,18,26,238,23,20,42,057,24,22,14,122,17*7C
$GPGSV,5,3,17,23,06,211,,24,59,228,27,25,15,338,20,29,10,307,*7C
$GPGSV,5,4,17,36,52,277,,40,84,353,,41,58,082,,49,32,274,*7C
$GPGSV,5,5,17,50,10,089,*4A
$GLGSV,3,1,09,67,16,117,16,68,19,167,,69,03,212,,78,41,139,28*68
$GLGSV,3,2,09,79,70,030,35,80,22,344,,82,25,342,18,83,34,283,16*69
$GLGSV,3,3,09,84,08,232,*5B
$GNGLL,0419.81787,S,05539.84860,E,045325.00,A,A*6A
$GNGRS,045325.00,1,-21.6,-2.9,1.0,3.5,1.5,-12.2,-20.1,,,,,*44
$GNGRS,045325.00,1,0.7,12.4,4.2,-28.8,,,,,,,,*7C
$GNGST,045325.00,55,,,,4.7,7.9,12*6C
$GNZDA,045325.00,27,05,2025,00,00*78
$GNGBS,045325.00,4.7,7.9,11.6,,,,*61
b0LY>rre'*9,z;R
3{4Ta:R 
Y
gCuDE
N)O#F;PXRVS"T2bY>[$GNRMC,045326.00,A,0419.81791,S,05539.84866,E,0.046,,270525,,,A*74
$GNVTG,,T,,M,0.046,N,0.086,K,A*31
$GNGNS,045326.00,0419.81791,S,05539.84866,E,AA,11,1.13,31.7,-47.6,,*69
$GNGGA,045326.00,0419.81791,S,05539.84866,E,1,11,1.13,31.7,M,-47.6,M,,*43
$GNGSA,A,3,05,24,20,12,13,11,22,,,,,,1.87,1.13,1.49*1D
$GNGSA,A,3,79,78,82,67,,,,,,,,,1.87,1.13,1.49*17
$GPGSV,5,1,17,05,62,114,22,11,16,022,17,12,39,006,27,13,18,149,16*75
$GPGSV,5,2,17,15,28,184,21,18,26,238,23,20,42,057,24,22,14,122,19*71
$GPGSV,5,3,17,23,06,210,,24,59,228,27,25,15,338,21,29,10,307,*7C
$GPGSV,5,4,17,36,52,277,,40,84,353,,41,58,082,,49,32,274,*7C
$GPGSV,5,5,17,50,10,089,*4A
$GLGSV,3,1,09,67,16,117,16,68,19,167,,69,03,212,,78,41,139,29*69
$GLGSV,3,2,09,79,70,030,35,80,22,344,,82,25,342,18,83,34,283,15*6A
$GLGSV,3,3,09,84,08,232,*5B
$GNGLL,0419.81791,S,05539.84866,E,045326.00,A,A*68
$GNGRS,045326.00,1,-21.9,-5.1,0.4,4.0,2.8,-11.8,-19.1,,,,,*4D
$GNGRS,045326.00,1,0.6,11.9,-1.0,11.9,,,,,,,,*7C
$GNGST,045326.00,227555,,,,4.7,7.9,12*6D
$GNZDA,045326.00,27,05,2025,00,00*7B
$GNGBS,045326.00,4.7,7.9,11.6,,,,*62
b0LY>r7'*9zX;R
3{4Ta:R 
Y
gC
uDE
N)O#F(PXRVS"TbY>_U$GNRMC,045327.00,A,0419.81790,S,05539.84868,E,0.069,,270525,,,A*77
$GNVTG,,T,,M,0.069,N,0.128,K,A*39
$GNGNS,045327.00,0419.81790,S,05539.84868,E,AA,11,1.10,31.6,-47.6,,*65
$GNGGA,045327.00,0419.81790,S,05539.84868,E,1,11,1.10,31.6,M,-47.6,M,,*4F
$GNGSA,A,3,05,24,20,12,13,11,22,,,,,,1.70,1.10,1.30*18
$GNGSA,A,3,79,78,82,67,,,,,,,,,1.70,1.10,1.30*12
$GPGSV,5,1,17,05,62,114,22,11,16,022,16,12,39,006,29,13,18,149,19*75
$GPGSV,5,2,17,15,28,184,21,18,26,238,22,20,42,057,21,22,14,122,19*75
$GPGSV,5,3,17,23,06,210,,24,59,227,27,25,15,338,21,29,10,307,*73
$GPGSV,5,4,17,36,52,277,,40,84,353,,41,58,082,,49,32,274,*7C
$GPGSV,5,5,17,50,10,089,*4A
$GLGSV,3,1,09,67,16,117,10,68,19,167,,69,03,212,,78,41,139,30*67
$GLGSV,3,2,09,79,70,030,35,80,22,344,,82,25,342,15,83,34,283,18*6A
$GLGSV,3,3,09,84,08,232,*5B
$GNGLL,0419.81790,S,05539.84868,E,045327.00,A,A*66
$GNGRS,045327.00,1,-14.8,-4.9,-0.7,6.8,2.8,-10.4,-19.6,,,,,*6C
$GNGRS,045327.00,1,0.4,7.4,-1.1,11.9,,,,,,,,*44
$GNGST,045327.00,3435379,,,,4.7,7.8,12*53
$GNZDA,045327.00,27,05,2025,00,00*7A
$GNGBS,045327.00,4.7,7.8,11.6,,,,*62
b0LY>r '\*9zz;bR
3{4Ta:R 
Y
gC
uDE
N)3O"FQPXRVS"TAbY>c$GNRMC,045328.00,A,0419.81787,S,05539.84864,E,0.017,,270525,,,A*7B
$GNVTG,,T,,M,0.017,N,0.031,K,A*39
$GNGNS,045328.00,0419.81787,S,05539.84864,E,AA,11,1.11,31.6,-47.6,,*61
$GNGGA,045328.00,0419.81787,S,05539.84864,E,1,11,1.11,31.6,M,-47.6,M,,*4B
$GNGSA,A,3,05,24,20,12,13,11,22,,,,,,1.72,1.11,1.31*1A
$GNGSA,A,3,79,78,82,67,,,,,,,,,1.72,1.11,1.31*10
$GPGSV,5,1,17,05,62,114,25,11,16,022,14,12,39,006,29,13,18,149,20*7A
$GPGSV,5,2,17,15,28,184,21,18,26,238,21,20,42,057,23,22,14,122,19*74
$GPGSV,5,3,17,23,06,210,,24,59,227,28,25,16,338,21,29,10,307,*7F
$GPGSV,5,4,17,36,52,277,,40,84,353,,41,58,082,,49,32,274,*7C
$GPGSV,5,5,17,50,10,089,*4A
$GLGSV,3,1,09,67,16,117,10,68,19,167,,69,03,212,,78,41,139,30*67
$GLGSV,3,2,09,79,70,030,34,80,22,344,,82,25,342,15,83,34,283,20*60
$GLGSV,3,3,09,84,08,232,*5B
$GNGLL,0419.81787,S,05539.84864,E,045328.00,A,A*63
$GNGRS,045328.00,1,-13.1,-4.1,-3.9,1.8,0.9,-9.9,-18.3,,,,,*5D
$GNGRS,045328.00,1,0.8,0.5,2.1,-21.2,,,,,,,,*4A
$GNGST,045328.00,52,,,,4.6,7.8,12*66
$GNZDA,045328.00,27,05,2025,00,00*75
$GNGBS,045328.00,4.6,7.8,11.5,,,,*6F
b0LxY>r'Y*9z;R
3{4Ta:R 
Y
gC
uDE
N)O#FSPXRVS"TbxY>wg`%$GNRMC,045329.00,A,0419.81783,S,05539.84863,E,0.114,,270525,,,A*7B
$GNVTG,,T,,M,0.114,N,0.211,K,A*3B
$GNGNS,045329.00,0419.81783,S,05539.84863,E,AA,11,1.10,31.7,-47.6,,*63
$GNGGA,045329.00,0419.81783,S,05539.84863,E,1,11,1.10,31.7,M,-47.6,M,,*49
$GNGSA,A,3,05,24,20,12,13,11,22,,,,,,1.70,1.10,1.30*18
$GNGSA,A,3,79,78,82,67,,,,,,,,,1.70,1.10,1.30*12
$GPGSV,5,1,17,05,62,114,24,11,16,022,15,12,39,006,29,13,18,149,20*7A
$GPGSV,5,2,17,15,28,184,20,18,26,238,21,20,42,057,25,22,14,122,20*79
$GPGSV,5,3,17,23,06,210,,24,59,227,29,25,16,338,20,29,10,307,*7F
$GPGSV,5,4,17,36,52,277,,40,84,353,,41,58,082,,49,32,274,*7C
$GPGSV,5,5,17,50,10,089,*4A
$GLGSV,3,1,09,67,16,117,10,68,19,167,,69,03,212,,78,41,139,29*6F
$GLGSV,3,2,09,79,70,030,35,80,22,344,,82,25,342,15,83,34,283,21*60
$GLGSV,3,3,09,84,08,232,*5B
$GNGLL,0419.81783,S,05539.84863,E,045329.00,A,A*61
$GNGRS,045329.00,1,-10.8,-5.0,-3.3,2.5,3.5,-6.4,-16.1,,,,,*53
$GNGRS,045329.00,1,0.8,1.3,-1.0,12.1,,,,,,,,*4D
$GNGST,045329.00,3434223,,,,4.6,7.8,11*50
$GNZDA,045329.00,27,05,2025,00,00*74
$GNGBS,045329.00,4.6,7.8,11.5,,,,*6E
b0L`Y>r']*9kz6;yR
3{4Ta:R 
Y
gC
uDE
N)O#FRPXRVS"TMb`Y>_k8$GNRMC,045330.00,A,0419.81783,S,05539.84861,E,0.089,,270525,,,A*74
$GNVTG,,T,,M,0.089,N,0.164,K,A*3F
$GNGNS,045330.00,0419.81783,S,05539.84861,E,AA,11,1.10,31.6,-47.6,,*68
$GNGGA,045330.00,0419.81783,S,05539.84861,E,1,11,1.10,31.6,M,-47.6,M,,*42
$GNGSA,A,3,05,24,20,12,13,11,22,,,,,,1.70,1.10,1.30*18
$GNGSA,A,3,79,78,82,67,,,,,,,,,1.70,1.10,1.30*12
$GPGSV,5,1,17,05,62,114,22,11,16,022,14,12,39,006,30,13,18,149,20*75
$GPGSV,5,2,17,15,28,184,18,18,26,238,21,20,42,057,24,22,14,122,18*78
$GPGSV,5,3,17,23,06,210,,24,59,227,29,25,16,338,18,29,10,307,*74
$GPGSV,5,4,17,36,52,277,,40,84,353,,41,58,082,,49,32,274,*7C
$GPGSV,5,5,17,50,10,089,*4A
$GLGSV,3,1,09,67,16,117,10,68,19,167,,69,03,212,,78,41,139,30*67
$GLGSV,3,2,09,79,70,030,35,80,22,344,,82,25,342,15,83,34,283,19*6B
$GLGSV,3,3,09,84,08,232,*5B
$GNGLL,0419.81783,S,05539.84861,E,045330.00,A,A*6B
$GNGRS,045330.00,1,-11.5,-3.9,-4.0,6.1,2.2,-5.9,-17.4,,,,,*50
$GNGRS,045330.00,1,0.8,4.3,-1.0,11.9,,,,,,,,*4B
$GNGST,045330.00,3434458,,,,4.6,7.8,11*52
$GNZDA,045330.00,27,05,2025,00,00*7C
$GNGBS,045330.00,4.6,7.8,11.4,,,,*67
b0LHY>r'*9Sz;R
3{4Ta:R 
Y
gCu9DE
N)O#FfPXRVGS"T+bHY>Go$GNRMC,045331.00,A,0419.81779,S,05539.84865,E,0.158,,270525,,,A*79
$GNVTG,,T,,M,0.158,N,0.293,K,A*39
$GNGNS,045331.00,0419.81779,S,05539.84865,E,AA,11,1.10,31.3,-47.6,,*6D
$GNGGA,045331.00,0419.81779,S,05539.84865,E,1,11,1.10,31.3,M,-47.6,M,,*47
$GNGSA,A,3,05,24,20,12,13,11,22,,,,,,1.70,1.10,1.30*18
$GNGSA,A,3,79,78,82,67,,,,,,,,,1.70,1.10,1.30*12
$GPGSV,5,1,17,05,62,114,22,11,16,022,15,12,39,006,28,13,18,149,19*77
$GPGSV,5,2,17,15,28,184,17,18,26,238,21,20,42,057,21,22,14,122,17*7D
$GPGSV,5,3,17,23,06,210,,24,59,227,27,25,16,338,18,29,10,307,*7A
$GPGSV,5,4,17,36,52,277,,40,84,353,,41,58,082,,49,32,274,*7C
$GPGSV,5,5,17,50,10,089,*4A
$GLGSV,3,1,09,67,16,117,16,68,19,167,,69,03,212,,78,41,139,30*61
$GLGSV,3,2,09,79,70,030,35,80,22,344,,82,25,342,15,83,34,283,17*65
$GLGSV,3,3,09,84,08,232,*5B
$GNGLL,0419.81779,S,05539.84865,E,045331.00,A,A*6B
$GNGRS,045331.00,1,-11.1,-0.1,-4.3,9.3,2.1,-3.6,-16.7,,,,,*58
$GNGRS,045331.00,1,1.0,4.7,-1.9,74.8,,,,,,,,*4C
$GNGST,045331.00,61,,,,4.6,7.8,11*6D
$GNZDA,045331.00,27,05,2025,00,00*7D
$GNGBS,045331.00,4.6,7.8,11.4,,,,*66
b0L0Y>r'~*90z};R
3{4Ta:R 
Y
gCuDE
N)2O"FgPXRVS"Tb0Y>/s]$GNRMC,045332.00,A,0419.81773,S,05539.84871,E,0.101,,270525,,,A*79
$GNVTG,,T,,M,0.101,N,0.187,K,A*33
$GNGNS,045332.00,0419.81773,S,05539.84871,E,AA,11,1.10,31.3,-47.6,,*61
$GNGGA,045332.00,0419.81773,S,05539.84871,E,1,11,1.10,31.3,M,-47.6,M,,*4B
$GNGSA,A,3,05,24,20,12,13,11,22,,,,,,1.70,1.10,1.30*18
$GNGSA,A,3,79,78,82,67,,,,,,,,,1.70,1.10,1.30*12
$GPGSV,5,1,17,05,62,114,19,11,16,022,14,12,39,006,25,13,18,149,20*79
$GPGSV,5,2,17,15,28,184,16,18,26,238,20,20,42,057,18,22,14,122,16*76
$GPGSV,5,3,17,23,06,210,,24,59,227,28,25,16,338,20,29,10,307,*7E
$GPGSV,5,4,17,36,52,277,,40,84,353,,41,58,082,,49,32,274,*7C
$GPGSV,5,5,17,50,10,089,*4A
$GLGSV,3,1,09,67,16,117,16,68,19,167,,69,03,212,,78,41,139,29*69
$GLGSV,3,2,09,79,70,030,34,80,22,344,,82,25,342,17,83,34,283,17*66
$GLGSV,3,3,09,84,08,232,*5B
$GNGLL,0419.81773,S,05539.84871,E,045332.00,A,A*67
$GNGRS,045332.00,1,-10.1,-6.0,-7.2,17.5,1.3,-3.5,-16.7,,,,,*64
$GNGRS,045332.00,1,1.0,5.6,-3.5,11.9,,,,,,,,*43
$GNGST,045332.00,3434011,,,,4.6,7.8,11*59
$GNZDA,045332.00,27,05,2025,00,00*7E
$GNGBS,045332.00,4.6,7.8,11.3,,,,*62
b0LY>r%M'*9z{;R
3{4Ta:R 
Y
gCuDE
N)]O"F|PXRVS"TbY>w$GNRMC,045333.00,A,0419.81771,S,05539.84882,E,0.215,,270525,,,A*70
$GNVTG,,T,,M,0.215,N,0.399,K,A*38
$GNGNS,045333.00,0419.81771,S,05539.84882,E,AA,11,1.10,31.2,-47.6,,*6F
$GNGGA,045333.00,0419.81771,S,05539.84882,E,1,11,1.10,31.2,M,-47.6,M,,*45
$GNGSA,A,3,05,24,20,12,13,11,22,,,,,,1.70,1.10,1.30*18
$GNGSA,A,3,79,78,82,67,,,,,,,,,1.70,1.10,1.30*12
$GPGSV,5,1,17,05,62,114,19,11,16,022,13,12,39,006,24,13,18,149,20*7F
$GPGSV,5,2,17,15,28,184,16,18,26,238,20,20,42,057,17,22,14,122,15*7A
$GPGSV,5,3,17,23,06,210,,24,59,227,29,25,16,338,21,29,10,307,*7E
$GPGSV,5,4,17,36,52,277,,40,84,353,,41,58,082,,49,32,274,*7C
$GPGSV,5,5,17,50,10,089,*4A
$GLGSV,3,1,09,67,16,117,16,68,19,167,,69,03,212,,78,41,139,28*68
$GLGSV,3,2,09,79,70,030,34,80,22,344,,82,25,342,13,83,34,283,15*60
$GLGSV,3,3,09,84,08,232,*5B
$GNGLL,0419.81771,S,05539.84882,E,045333.00,A,A*68
$GNGRS,045333.00,1,-9.9,-7.9,-6.4,4.6,2.2,-4.3,-16.7,,,,,*68
$GNGRS,045333.00,1,1.2,8.6,-3.6,11.7,,,,,,,,*40
$GNGST,045333.00,3434011,,,,4.6,7.7,11*57
$GNZDA,045333.00,27,05,2025,00,00*7F
$GNGBS,045333.00,4.6,7.7,11.3,,,,*6C
b0LY>r'`*9zK;R
3{4Ta:R 
Y
gCuDE
N)O"FPXRVS"T/bY>z*$GNRMC,045334.00,A,0419.81773,S,05539.84894,E,0.236,,270525,,,A*73
$GNVTG,,T,,M,0.236,N,0.436,K,A*3B
$GNGNS,045334.00,0419.81773,S,05539.84894,E,AA,11,1.10,31.2,-47.6,,*6D
$GNGGA,045334.00,0419.81773,S,05539.84894,E,1,11,1.10,31.2,M,-47.6,M,,*47
$GNGSA,A,3,05,24,20,12,13,11,22,,,,,,1.70,1.10,1.30*18
$GNGSA,A,3,79,78,82,67,,,,,,,,,1.70,1.10,1.30*12
$GPGSV,5,1,17,05,62,114,21,11,16,022,12,12,39,006,25,13,18,149,20*74
$GPGSV,5,2,17,15,28,184,16,18,26,238,18,20,42,057,22,22,14,122,14*76
$GPGSV,5,3,17,23,06,210,,24,59,227,29,25,16,338,19,29,10,307,*75
$GPGSV,5,4,17,36,52,277,,40,84,353,,41,58,082,,49,32,274,*7C
$GPGSV,5,5,17,50,10,089,*4A
$GLGSV,3,1,09,67,16,117,16,68,19,167,,69,03,212,,78,41,139,27*67
$GLGSV,3,2,09,79,70,030,34,80,22,344,,82,25,342,11,83,34,283,14*63
$GLGSV,3,3,09,84,08,232,*5B
$GNGLL,0419.81773,S,05539.84894,E,045334.00,A,A*6A
$GNGRS,045334.00,1,-5.6,-8.5,-3.5,2.1,3.5,-5.5,-17.2,,,,,*6F
$GNGRS,045334.00,1,1.3,7.8,-4.9,-16.3,,,,,,,,*61
$GNGST,045334.00,60,,,,4.6,7.7,11*66
$GNZDA,045334.00,27,05,2025,00,00*78
$GNGBS,045334.00,4.6,7.7,11.3,,,,*6B
b0LY>r'*9zI;R
3{4Ta:R 
Y
gCuDE
N)O#FPXRVS"TdbY>~n$GNRMC,045335.00,A,0419.81772,S,05539.84894,E,0.040,,270525,,,A*70
$GNVTG,,T,,M,0.040,N,0.075,K,A*3B
$GNGNS,045335.00,0419.81772,S,05539.84894,E,AA,11,1.10,31.3,-47.6,,*6C
$GNGGA,045335.00,0419.81772,S,05539.84894,E,1,11,1.10,31.3,M,-47.6,M,,*46
$GNGSA,A,3,05,24,20,12,13,11,22,,,,,,1.70,1.10,1.30*18
$GNGSA,A,3,79,78,82,67,,,,,,,,,1.70,1.10,1.30*12
$GPGSV,5,1,17,05,62,114,19,11,16,022,11,12,39,006,26,13,18,149,20*7F
$GPGSV,5,2,17,15,28,184,15,18,26,238,21,20,42,057,20,22,14,122,16*7F
$GPGSV,5,3,17,23,06,210,,24,59,227,28,25,16,338,18,29,10,307,*75
$GPGSV,5,4,17,36,52,277,,40,84,353,,41,58,082,,49,32,274,*7C
$GPGSV,5,5,17,50,10,089,*4A
$GLGSV,3,1,09,67,16,117,16,68,19,167,,69,03,212,,78,41,139,27*67
$GLGSV,3,2,09,79,70,030,35,80,22,344,,82,25,342,11,83,34,283,13*65
$GLGSV,3,3,09,84,08,232,*5B
$GNGLL,0419.81772,S,05539.84894,E,045335.00,A,A*6A
$GNGRS,045335.00,1,-3.8,-5.4,-3.6,7.3,5.0,-5.1,-17.2,,,,,*69
$GNGRS,045335.00,1,1.4,7.6,-5.0,12.0,,,,,,,,*4B
$GNGST,045335.00,3435102,,,,4.6,7.7,11*53
$GNZDA,045335.00,27,05,2025,00,00*79
$GNGBS,045335.00,4.6,7.7,11.3,,,,*6A
b0LY>rg'*9z;R
3{4Ta:R 
Y
gCuDE
N)@O#FPXRVS"T{bY>F$GNRMC,045336.00,A,0419.81771,S,05539.84897,E,0.060,,270525,,,A*71
$GNVTG,,T,,M,0.060,N,0.112,K,A*39
$GNGNS,045336.00,0419.81771,S,05539.84897,E,AA,11,1.10,31.2,-47.6,,*6E
$GNGGA,045336.00,0419.81771,S,05539.84897,E,1,11,1.10,31.2,M,-47.6,M,,*44
$GNGSA,A,3,05,24,20,12,13,11,22,,,,,,1.70,1.10,1.30*18
$GNGSA,A,3,79,78,82,67,,,,,,,,,1.70,1.10,1.30*12
$GPGSV,5,1,17,05,62,114,21,11,16,022,11,12,39,006,26,13,18,149,20*74
$GPGSV,5,2,17,15,28,184,15,18,26,238,23,20,42,057,21,22,14,122,15*7F
$GPGSV,5,3,17,23,06,210,,24,59,227,30,25,16,338,16,29,10,307,*72
$GPGSV,5,4,17,36,52,277,,40,84,353,,41,58,082,,49,32,274,*7C
$GPGSV,5,5,17,50,10,089,*4A
$GLGSV,3,1,09,67,16,117,16,68,19,167,,69,03,212,,78,41,139,28*68
$GLGSV,3,2,09,79,70,030,35,80,22,344,,82,25,342,11,83,34,283,16*60
$GLGSV,3,3,09,84,08,232,*5B
$GNGLL,0419.81771,S,05539.84897,E,045336.00,A,A*69
$GNGRS,045336.00,1,-8.1,-5.2,-4.8,9.5,4.9,-6.6,-16.2,,,,,*62
$GNGRS,045336.00,1,1.3,5.8,-5.3,11.9,,,,,,,,*4A
$GNGST,045336.00,3435102,,,,4.6,7.7,11*50
$GNZDA,045336.00,27,05,2025,00,00*7A
$GNGBS,045336.00,4.6,7.7,11.3,,,,*69
b0LY>rT'/Q*9z;R
3{4Ta:R 
Y
g
Cu8DE
N)%O#FPXRVS"TbY>S$GNRMC,045337.00,A,0419.81766,S,05539.84895,E,0.137,,270525,,,A*77
$GNVTG,,T,,M,0.137,N,0.253,K,A*3C
$GNGNS,045337.00,0419.81766,S,05539.84895,E,AA,11,1.10,30.8,-47.6,,*60
$GNGGA,045337.00,0419.81766,S,05539.84895,E,1,11,1.10,30.8,M,-47.6,M,,*4A
$GNGSA,A,3,05,24,20,12,13,11,22,,,,,,1.70,1.10,1.30*18
$GNGSA,A,3,79,78,82,67,,,,,,,,,1.70,1.10,1.30*12
$GPGSV,5,1,17,05,62,114,19,11,16,022,12,12,39,006,26,13,18,149,21*7D
$GPGSV,5,2,17,15,28,184,16,18,26,238,24,20,42,057,25,22,14,122,11*7B
$GPGSV,5,3,17,23,06,210,,24,59,227,28,25,16,338,18,29,10,307,*75
$GPGSV,5,4,17,36,52,277,,40,84,353,,41,58,082,,49,32,274,*7C
$GPGSV,5,5,17,50,10,089,*4A
$GLGSV,3,1,09,67,16,117,17,68,19,167,,69,03,212,,78,41,139,29*68
$GLGSV,3,2,09,79,70,030,35,80,22,344,,82,25,342,15,83,34,283,18*6A
$GLGSV,3,3,09,84,08,232,*5B
$GNGLL,0419.81766,S,05539.84895,E,045337.00,A,A*6C
$GNGRS,045337.00,1,-5.5,-3.3,-8.2,5.6,3.4,-4.3,-15.1,,,,,*69
$GNGRS,045337.00,1,1.4,5.5,4.4,5.7,,,,,,,,*51
$GNGST,045337.00,62,,,,4.7,7.7,11*66
$GNZDA,045337.00,27,05,2025,00,00*7B
$GNGBS,045337.00,4.7,7.7,11.3,,,,*69
b0LY>rI'i*9zF;zR
3{4Ta:R 
Y
gNCuDE
N)O FzPXRVS"TbY>$GNRMC,045338.00,A,0419.81766,S,05539.84894,E,0.095,,270525,,,A*70
$GNVTG,,T,,M,0.095,N,0.176,K,A*31
$GNGNS,045338.00,0419.81766,S,05539.84894,E,AA,10,1.11,30.8,-47.6,,*6E
$GNGGA,045338.00,0419.81766,S,05539.84894,E,1,10,1.11,30.8,M,-47.6,M,,*44
$GNGSA,A,3,05,24,20,12,13,11,,,,,,,1.73,1.11,1.33*19
$GNGSA,A,3,79,78,82,67,,,,,,,,,1.73,1.11,1.33*13
$GPGSV,5,1,17,05,62,114,22,11,16,022,11,12,39,006,25,13,18,149,19*7E
$GPGSV,5,2,17,15,28,184,16,18,26,238,26,20,42,057,26,22,14,122,08*72
$GPGSV,5,3,17,23,06,210,,24,59,227,30,25,16,338,16,29,10,307,*72
$GPGSV,5,4,17,36,52,277,,40,84,353,,41,58,082,,49,32,274,*7C
$GPGSV,5,5,17,50,10,089,*4A
$GLGSV,3,1,09,67,16,117,17,68,19,167,,69,03,212,,78,41,139,31*61
$GLGSV,3,2,09,79,70,030,32,80,22,344,,82,25,342,15,83,34,283,17*62
$GLGSV,3,3,09,84,08,232,*5B
$GNGLL,0419.81766,S,05539.84894,E,045338.00,A,A*62
$GNGRS,045338.00,1,-0.6,-3.9,-8.8,7.3,1.0,-1.8,,,,,,*59
$GNGRS,045338.00,1,1.2,2.4,-0.9,11.9,,,,,,,,*41
$GNGST,045338.00,150690,,,,4.7,7.7,11*66
$GNZDA,045338.00,27,05,2025,00,00*74
$GNGBS,045338.00,4.7,7.7,11.3,,,,*66
b0LY>r
'^*9zJ;KR
3{4Ta:R 
Y
gCuDE
N)O FjPXRVS"TCbY>#$GNRMC,045339.00,A,0419.81764,S,05539.84902,E,0.047,,270525,,,A*72
$GNVTG,,T,,M,0.047,N,0.086,K,A*30
$GNGNS,045339.00,0419.81764,S,05539.84902,E,AA,10,1.11,30.7,-47.6,,*6C
$GNGGA,045339.00,0419.81764,S,05539.84902,E,1,10,1.11,30.7,M,-47.6,M,,*46
$GNGSA,A,3,05,24,20,12,13,11,,,,,,,1.73,1.11,1.33*19
$GNGSA,A,3,79,78,82,67,,,,,,,,,1.73,1.11,1.33*13
$GPGSV,5,1,17,05,62,114,23,11,16,022,10,12,39,006,24,13,18,149,17*71
$GPGSV,5,2,17,15,28,184,14,18,26,238,24,20,42,057,26,22,14,122,08*72
$GPGSV,5,3,17,23,06,210,,24,59,227,30,25,16,338,14,29,10,307,*70
$GPGSV,5,4,17,36,52,277,,40,84,353,,41,58,082,,49,32,274,*7C
$GPGSV,5,5,17,50,10,089,*4A
$GLGSV,3,1,09,67,16,117,12,68,19,167,,69,03,212,,78,41,139,31*64
$GLGSV,3,2,09,79,70,030,32,80,22,344,,82,25,342,09,83,34,283,15*6D
$GLGSV,3,3,09,84,08,232,*5B
$GNGLL,0419.81764,S,05539.84902,E,045339.00,A,A*6F
$GNGRS,045339.00,1,4.0,-9.5,-5.6,8.6,4.0,-2.9,,,,,,*7F
$GNGRS,045339.00,1,1.1,1.9,-0.8,11.6,,,,,,,,*43
$GNGST,045339.00,225129,,,,4.7,7.6,11*62
$GNZDA,045339.00,27,05,2025,00,00*75
$GNGBS,045339.00,4.7,7.6,11.4,,,,*61
b0LpY>r7'o*9'z;R
3{4Ta:R 
Y
gCuDE
N )O!FsPXRV&S"TXbpY>o$GNRMC,045340.00,A,0419.81760,S,05539.84917,E,0.022,,270525,,,A*7F
$GNVTG,,T,,M,0.022,N,0.041,K,A*38
$GNGNS,045340.00,0419.81760,S,05539.84917,E,AA,09,1.13,30.8,-47.6,,*67
$GNGGA,045340.00,0419.81760,S,05539.84917,E,1,09,1.13,30.8,M,-47.6,M,,*4D
$GNGSA,A,3,05,24,20,12,13,11,,,,,,,1.77,1.13,1.36*1A
$GNGSA,A,3,79,78,82,,,,,,,,,,1.77,1.13,1.36*11
$GPGSV,5,1,17,05,62,114,24,11,16,022,14,12,39,006,22,13,18,149,14*77
$GPGSV,5,2,17,15,28,184,13,18,26,238,23,20,42,057,25,22,14,122,08*71
$GPGSV,5,3,17,23,06,210,,24,59,227,31,25,16,338,14,29,10,307,*71
$GPGSV,5,4,17,36,52,277,,40,84,353,,41,58,082,,49,32,274,*7C
$GPGSV,5,5,17,50,10,089,*4A
$GLGSV,3,1,09,67,16,117,,68,19,167,,69,03,212,,78,41,139,32*64
$GLGSV,3,2,09,79,70,030,33,80,22,344,,82,25,342,09,83,34,283,14*6D
$GLGSV,3,3,09,84,08,232,*5B
$GNGLL,0419.81760,S,05539.84917,E,045340.00,A,A*61
$GNGRS,045340.00,1,7.9,-11.5,-4.7,11.8,6.2,-4.6,,,,,,*7D
$GNGRS,045340.00,1,1.2,2.0,-2.2,,,,,,,,,*54
$GNGST,045340.00,56,,,,4.7,7.6,11*60
$GNZDA,045340.00,27,05,2025,00,00*7B
$GNGBS,045340.00,4.7,7.6,11.4,,,,*6F
b0LXY>rh'

*9 z4;\R
3{4Ta:R 
Y
g.CuDE
N!)IO"FsPXRVS"TbXY>W~$GNRMC,045341.00,A,0419.81757,S,05539.84943,E,0.181,,270525,,,A*73
$GNVTG,,T,,M,0.181,N,0.336,K,A*33
$GNGNS,045341.00,0419.81757,S,05539.84943,E,AA,09,1.13,30.8,-47.6,,*63
$GNGGA,045341.00,0419.81757,S,05539.84943,E,1,09,1.13,30.8,M,-47.6,M,,*49
$GNGSA,A,3,05,24,20,12,13,11,,,,,,,1.77,1.13,1.36*1A
$GNGSA,A,3,79,78,82,,,,,,,,,,1.77,1.13,1.36*11
$GPGSV,5,1,17,05,62,114,21,11,16,022,14,12,39,006,23,13,18,149,10*77
$GPGSV,5,2,17,15,28,184,10,18,26,238,23,20,42,057,23,22,14,122,08*74
$GPGSV,5,3,17,23,06,210,,24,59,227,30,25,16,338,17,29,10,307,*73
$GPGSV,5,4,17,36,52,277,,40,84,353,,41,58,082,,49,32,274,*7C
$GPGSV,5,5,17,50,10,089,*4A
$GLGSV,3,1,09,67,16,117,,68,19,167,,69,03,212,,78,41,139,33*65
$GLGSV,3,2,09,79,70,030,34,80,22,344,,82,25,342,09,83,34,283,13*6D
$GLGSV,3,3,09,84,08,232,*5B
$GNGLL,0419.81757,S,05539.84943,E,045341.00,A,A*65
$GNGRS,045341.00,1,14.9,-9.3,-4.8,10.3,9.5,-6.6,,,,,,*7E
$GNGRS,045341.00,1,1.1,3.3,-0.7,,,,,,,,,*53
$GNGST,045341.00,18961,,,,4.6,7.5,11*57
$GNZDA,045341.00,27,05,2025,00,00*7A
$GNGBS,045341.00,4.6,7.5,11.4,,,,*6C
b0L@Y>rq'j*9)z;R
3{4Ta:R 
Y
gCuDE
N!)O#FPXRVS
"TENb@Y>?V[$GNRMC,045342.00,A,0419.81753,S,05539.84953,E,0.224,,270525,,,A*79
$GNVTG,,T,,M,0.224,N,0.414,K,A*38
$GNGNS,045342.00,0419.81753,S,05539.84953,E,AA,09,1.13,30.8,-47.6,,*65
$GNGGA,045342.00,0419.81753,S,05539.84953,E,1,09,1.13,30.8,M,-47.6,M,,*4F
$GNGSA,A,3,05,24,20,12,13,11,,,,,,,1.77,1.13,1.36*1A
$GNGSA,A,3,79,78,82,,,,,,,,,,1.77,1.13,1.36*11
$GPGSV,5,1,17,05,62,114,20,11,16,022,16,12,39,006,21,13,18,149,16*70
$GPGSV,5,2,17,15,28,184,12,18,26,238,23,20,42,057,21,22,14,122,08*74
$GPGSV,5,3,17,23,06,210,,24,59,227,29,25,16,338,18,29,10,307,*74
$GPGSV,5,4,17,36,52,277,,40,84,353,,41,58,082,,49,32,274,*7C
$GPGSV,5,5,17,50,10,089,*4A
$GLGSV,3,1,09,67,16,117,,68,19,167,,69,03,212,,78,41,139,33*65
$GLGSV,3,2,09,79,70,030,35,80,22,344,,82,25,342,09,83,34,283,10*6F
$GLGSV,3,3,09,84,08,232,*5B
$GNGLL,0419.81753,S,05539.84953,E,045342.00,A,A*63
$GNGRS,045342.00,1,19.1,-2.7,-2.1,8.7,11.5,-6.0,,,,,,*7A
$GNGRS,045342.00,1,1.3,-1.1,-0.8,,,,,,,,,*70
$GNGST,045342.00,28441,,,,4.6,7.5,11*58
$GNZDA,045342.00,27,05,2025,00,00*79
$GNGBS,045342.00,4.6,7.5,11.4,,,,*6F
b0L(Y>r'#*9z;R
3{4Ta:R 
Y
gICuDE
N")O"F}PXR
V[S"TDb(Y>'.$GNRMC,045343.00,A,0419.81740,S,05539.84947,E,0.083,,270525,,,A*70
$GNVTG,,T,,M,0.083,N,0.154,K,A*36
$GNGNS,045343.00,0419.81740,S,05539.84947,E,AA,09,1.13,30.6,-47.6,,*6D
$GNGGA,045343.00,0419.81740,S,05539.84947,E,1,09,1.13,30.6,M,-47.6,M,,*47
$GNGSA,A,3,05,24,20,12,13,11,,,,,,,1.77,1.13,1.36*1A
$GNGSA,A,3,79,78,82,,,,,,,,,,1.77,1.13,1.36*11
$GPGSV,5,1,17,05,62,114,19,11,16,022,15,12,39,006,23,13,18,149,18*75
$GPGSV,5,2,17,15,28,184,15,18,26,238,23,20,42,057,21,22,14,122,08*73
$GPGSV,5,3,17,23,06,210,,24,59,227,29,25,16,338,20,29,10,307,21*7C
$GPGSV,5,4,17,36,52,277,,40,84,353,,41,58,082,,49,32,274,*7C
$GPGSV,5,5,17,50,10,089,*4A
$GLGSV,3,1,09,67,16,117,,68,19,167,,69,03,212,,78,41,139,34*62
$GLGSV,3,2,09,79,70,030,34,80,22,344,,82,25,342,10,83,34,283,14*62
$GLGSV,3,3,09,84,08,232,*5B
$GNGLL,0419.81740,S,05539.84947,E,045343.00,A,A*65
$GNGRS,045343.00,1,17.2,-3.1,-2.5,8.0,10.6,-6.4,,,,,,*74
$GNGRS,045343.00,1,1.2,-5.3,64.9,,,,,,,,,*68
$GNGST,045343.00,63,,,,4.6,7.4,11*66
$GNZDA,045343.00,27,05,2025,00,00*78
$GNGBS,045343.00,4.6,7.4,11.4,,,,*6F
b0LY>rV'*9zu;%R
3{4Ta:R 
Y
gACuDE
N!)[O"FOPXR
VS"T8bbY>+$GNRMC,045344.00,A,0419.81735,S,05539.84949,E,0.161,,270525,,,A*76
$GNVTG,,T,,M,0.161,N,0.298,K,A*38
$GNGNS,045344.00,0419.81735,S,05539.84949,E,AA,09,1.13,30.9,-47.6,,*69
$GNGGA,045344.00,0419.81735,S,05539.84949,E,1,09,1.13,30.9,M,-47.6,M,,*43
$GNGSA,A,3,05,24,20,12,13,11,,,,,,,1.77,1.13,1.36*1A
$GNGSA,A,3,79,78,82,,,,,,,,,,1.77,1.13,1.36*11
$GPGSV,5,1,17,05,62,114,20,11,16,022,14,12,39,006,23,13,18,149,19*7F
$GPGSV,5,2,17,15,28,184,18,18,26,238,22,20,42,057,22,22,14,122,08*7C
$GPGSV,5,3,17,23,06,210,,24,59,227,29,25,16,338,20,29,10,307,18*76
$GPGSV,5,4,17,36,52,277,,40,84,353,,41,58,082,,49,32,274,*7C
$GPGSV,5,5,17,50,10,089,*4A
$GLGSV,3,1,09,67,16,117,,68,19,167,,69,03,212,,78,41,139,33*65
$GLGSV,3,2,09,79,70,030,34,80,22,344,,82,25,342,10,83,34,283,19*6F
$GLGSV,3,3,09,84,08,232,*5B
$GNGLL,0419.81735,S,05539.84949,E,045344.00,A,A*6E
$GNGRS,045344.00,1,16.2,-4.7,-5.6,6.6,11.8,-7.5,,,,,,*70
$GNGRS,045344.00,1,0.8,-6.8,-0.8,,,,,,,,,*72
$GNGST,045344.00,3761771,,,,4.6,7.4,11*56
$GNZDA,045344.00,27,05,2025,00,00*7F
$GNGBS,045344.00,4.6,7.4,11.5,,,,*69
b0LY>rV'_*9z;R
3{4Ta:R 
Y
gwCuDE
N!)9O"F.PXRVS"Tk]bY>$GNRMC,045345.00,A,0419.81723,S,05539.84936,E,0.211,,270525,,,A*7C
$GNVTG,,T,,M,0.211,N,0.391,K,A*34
$GNGNS,045345.00,0419.81723,S,05539.84936,E,AA,09,1.13,30.5,-47.6,,*6B
$GNGGA,045345.00,0419.81723,S,05539.84936,E,1,09,1.13,30.5,M,-47.6,M,,*41
$GNGSA,A,3,05,24,20,12,13,11,,,,,,,1.77,1.13,1.36*1A
$GNGSA,A,3,79,78,82,,,,,,,,,,1.77,1.13,1.36*11
$GPGSV,5,1,17,05,62,114,19,11,16,022,14,12,39,006,22,13,18,149,20*7E
$GPGSV,5,2,17,15,28,184,20,18,26,238,21,20,42,057,26,22,14,122,08*70
$GPGSV,5,3,17,23,06,210,,24,59,227,29,25,16,338,20,29,10,307,14*7A
$GPGSV,5,4,17,36,52,277,,40,84,353,,41,58,082,,49,32,274,*7C
$GPGSV,5,5,17,50,10,089,*4A
$GLGSV,3,1,09,67,16,117,17,68,19,167,,69,03,212,,78,41,139,33*63
$GLGSV,3,2,09,79,70,030,34,80,22,344,,82,25,342,11,83,34,283,23*67
$GLGSV,3,3,09,84,08,232,*5B
$GNGLL,0419.81723,S,05539.84936,E,045345.00,A,A*60
$GNGRS,045345.00,1,12.2,-2.8,-8.3,12.3,8.6,-9.4,,,,,,*7D
$GNGRS,045345.00,1,0.5,-7.1,-1.1,,,,,,,,,*7E
$GNGST,045345.00,3761771,,,,4.6,7.3,11*50
$GNZDA,045345.00,27,05,2025,00,00*7E
$GNGBS,045345.00,4.6,7.3,11.5,,,,*6F
b0LY>r'I1*9Bzy;R
3{4Ta:R 
Y
gCuDE
N!)O"FPXRVMS"T!bY>$GNRMC,045346.00,A,0419.81712,S,05539.84916,E,0.076,,270525,,,A*7C
$GNVTG,,T,,M,0.076,N,0.140,K,A*39
$GNGNS,045346.00,0419.81712,S,05539.84916,E,AA,09,1.13,29.8,-47.6,,*6D
$GNGGA,045346.00,0419.81712,S,05539.84916,E,1,09,1.13,29.8,M,-47.6,M,,*47
$GNGSA,A,3,05,24,20,12,13,11,,,,,,,1.77,1.13,1.36*1A
$GNGSA,A,3,79,78,82,,,,,,,,,,1.77,1.13,1.36*11
$GPGSV,5,1,17,05,62,114,20,11,16,022,19,12,39,006,24,13,18,149,19*75
$GPGSV,5,2,17,15,28,184,20,18,26,238,22,20,42,057,25,22,14,122,08*70
$GPGSV,5,3,17,23,06,210,,24,59,227,29,25,16,338,20,29,10,307,13*7D
$GPGSV,5,4,17,36,52,277,,40,84,353,,41,58,082,,49,32,274,*7C
$GPGSV,5,5,17,50,10,089,*4A
$GLGSV,3,1,09,67,16,117,,68,19,167,,69,03,212,,78,41,139,33*65
$GLGSV,3,2,09,79,70,030,34,80,22,344,,82,25,342,11,83,34,283,22*66
$GLGSV,3,3,09,84,08,232,*5B
$GNGLL,0419.81712,S,05539.84916,E,045346.00,A,A*63
$GNGRS,045346.00,1,12.6,0.2,-9.6,13.5,8.2,-10.6,,,,,,*62
$GNGRS,045346.00,1,0.2,-4.9,69.9,,,,,,,,,*6A
$GNGST,045346.00,59,,,,4.5,7.3,12*6D
$GNZDA,045346.00,27,05,2025,00,00*7D
$GNGBS,045346.00,4.5,7.3,11.5,,,,*6F
b0LY>r~4'O*9zu;R
3{4Ta:R 
Y

gCuDE
N )5O"FPXRVS"TbY>Q$GNRMC,045347.00,A,0419.81708,S,05539.84903,E,0.250,,270525,,,A*74
$GNVTG,,T,,M,0.250,N,0.463,K,A*3B
$GNGNS,045347.00,0419.81708,S,05539.84903,E,AA,09,1.21,29.7,-47.6,,*6D
$GNGGA,045347.00,0419.81708,S,05539.84903,E,1,09,1.21,29.7,M,-47.6,M,,*47
$GNGSA,A,3,05,24,20,12,13,11,,,,,,,1.92,1.21,1.49*18
$GNGSA,A,3,79,78,82,,,,,,,,,,1.92,1.21,1.49*13
$GPGSV,5,1,17,05,62,114,18,11,16,022,20,12,39,006,26,13,18,149,18*77
$GPGSV,5,2,17,15,28,184,19,18,26,238,24,20,42,057,23,22,14,122,08*7A
$GPGSV,5,3,17,23,06,210,,24,59,227,29,25,16,338,18,29,10,307,13*76
$GPGSV,5,4,17,36,52,277,,40,84,353,,41,58,082,,49,32,274,*7C
$GPGSV,5,5,17,50,10,089,*4A
$GLGSV,3,1,09,67,16,117,,68,19,167,,69,03,212,,78,41,139,32*64
$GLGSV,3,2,09,79,70,030,34,80,22,344,,82,25,342,11,83,34,283,20*64
$GLGSV,3,3,09,84,08,232,*5B
$GNGLL,0419.81708,S,05539.84903,E,045347.00,A,A*6D
$GNGRS,045347.00,1,14.1,-0.3,-13.3,15.1,8.5,-9.7,,,,,,*4C
$GNGRS,045347.00,1,0.2,-4.6,-1.3,,,,,,,,,*7D
$GNGST,045347.00,3965255,,,,4.5,7.3,12*5B
$GNZDA,045347.00,27,05,2025,00,00*7C
$GNGBS,045347.00,4.5,7.3,11.5,,,,*6E
b0LY>rh'ah*9Sz;R

3{4Ta:R 
Y
gCuDE
N )BO#F PXRVaS"TvubY>d$GNRMC,045348.00,A,0419.81702,S,05539.84900,E,0.006,,270525,,,A*73
$GNVTG,,T,,M,0.006,N,0.012,K,A*38
$GNGNS,045348.00,0419.81702,S,05539.84900,E,AA,09,1.21,29.6,-47.6,,*6A
$GNGGA,045348.00,0419.81702,S,05539.84900,E,1,09,1.21,29.6,M,-47.6,M,,*40
$GNGSA,A,3,05,24,20,12,13,11,,,,,,,1.92,1.21,1.49*18
$GNGSA,A,3,79,78,82,,,,,,,,,,1.92,1.21,1.49*13
$GPGSV,5,1,17,05,62,114,16,11,16,022,19,12,39,006,26,13,18,149,18*73
$GPGSV,5,2,17,15,28,184,18,18,26,238,25,20,42,057,22,22,14,122,08*7B
$GPGSV,5,3,17,23,06,210,,24,59,227,27,25,16,338,16,29,10,307,10*75
$GPGSV,5,4,17,36,52,277,,40,84,353,,41,58,082,,49,32,274,*7C
$GPGSV,5,5,17,50,10,089,*4A
$GLGSV,3,1,09,67,16,117,19,68,19,167,22,69,03,212,,78,41,139,32*6C
$GLGSV,3,2,09,79,70,030,35,80,22,344,,82,25,342,11,83,34,283,21*64
$GLGSV,3,3,09,84,08,232,*5B
$GNGLL,0419.81702,S,05539.84900,E,045348.00,A,A*6B
$GNGRS,045348.00,1,13.8,-5.2,-14.5,13.8,8.7,-10.3,,,,,,*79
