b0L8x]?n(z
1)7z|:S5{4Ta:R 
Y
hCsDE
N(OH"PXRWS!Tb8x]>70z$GNRMC,045737.00,A,0419.80587,S,05539.84556,E,0.612,,270525,,,A*7D
$GNVTG,,T,,M,0.612,N,1.133,K,A*38
$GNGNS,045737.00,0419.80587,S,05539.84556,E,AA,11,1.01,34.0,-47.6,,*66
$GNGGA,045737.00,0419.80587,S,05539.84556,E,1,11,1.01,34.0,M,-47.6,M,,*4C
$GNGSA,A,3,05,24,20,12,13,11,15,,,,,,1.65,1.01,1.31*19
$GNGSA,A,3,79,78,82,67,,,,,,,,,1.65,1.01,1.31*17
$GPGSV,5,1,17,05,63,110,14,11,15,022,16,12,40,007,17,13,18,148,10*7C
$GPGSV,5,2,17,15,29,182,19,18,27,240,23,20,41,055,29,22,13,124,06*70
$GPGSV,5,3,17,23,08,210,,24,58,224,25,25,17,339,,29,09,309,*7B
$GPGSV,5,4,17,36,52,277,29,40,84,353,,41,58,082,,49,32,274,*77
$GPGSV,5,5,17,50,10,089,*4A
$GLGSV,3,1,09,67,16,115,19,68,19,165,,69,04,210,,78,40,140,19*6F
$GLGSV,3,2,09,79,72,034,28,80,23,344,16,82,23,343,16,83,33,285,27*6F
$GLGSV,3,3,09,84,09,233,*5B
$GNGLL,0419.80587,S,05539.84556,E,045737.00,A,A*66
$GNGRS,045737.00,1,-3.1,-0.8,-3.9,6.3,15.9,0.2,-13.1,,,,,*75
$GNGRS,045737.00,1,7.6,-2.7,-2.4,-5.0,,,,,,,,*78
$GNGST,045737.00,72313,,,,6.1,9.2,13*5F
$GNZDA,045737.00,27,05,2025,00,00*7F
$GNGBS,045737.00,6.1,9.2,13.4,,,,*67
b0L |]?n(!
Q)7|!:S5{!4Ta:R 
Y
hCsDE
N(;OH"PXRWS!Tb |]>4R$GNRMC,045738.00,A,0419.80618,S,05539.84593,E,1.342,,270525,,,A*7F
$GNVTG,,T,,M,1.342,N,2.486,K,A*31
$GNGNS,045738.00,0419.80618,S,05539.84593,E,AA,12,0.98,35.1,-47.6,,*67
$GNGGA,045738.00,0419.80618,S,05539.84593,E,1,12,0.98,35.1,M,-47.6,M,,*4D
$GNGSA,A,3,05,24,20,12,13,11,22,15,,,,,1.59,0.98,1.26*11
$GNGSA,A,3,79,78,82,67,,,,,,,,,1.59,0.98,1.26*1F
$GPGSV,5,1,17,05,63,110,14,11,15,022,15,12,40,007,20,13,18,148,10*7B
$GPGSV,5,2,17,15,29,182,18,18,27,240,31,20,41,055,23,22,13,124,09*77
$GPGSV,5,3,17,23,08,210,,24,58,224,25,25,17,339,,29,09,309,*7B
$GPGSV,5,4,17,36,52,277,33,40,84,353,,41,58,082,,49,32,274,*7C
$GPGSV,5,5,17,50,10,089,*4A
$GLGSV,3,1,09,67,16,115,18,68,19,165,,69,04,210,,78,40,140,17*60
$GLGSV,3,2,09,79,72,034,27,80,23,344,15,82,23,343,12,83,33,285,25*65
$GLGSV,3,3,09,84,09,233,*5B
$GNGLL,0419.80618,S,05539.84593,E,045738.00,A,A*65
$GNGRS,045738.00,1,-2.7,0.2,-0.3,8.0,16.2,2.5,20.8,-13.3,,,,*45
$GNGRS,045738.00,1,1.9,-4.5,-8.1,-3.2,,,,,,,,*71
$GNGST,045738.00,3435581,,,,6.2,9.3,13*5B
$GNZDA,045738.00,27,05,2025,00,00*70
$GNGBS,045738.00,6.2,9.3,13.5,,,,*6B
b0L]?nO=(K
)7_|c :S5{!4Ta:R 
Y
hCsxDE
N(dOH"CPXRWGS!Tb]>8*W$GNRMC,045739.00,A,0419.80608,S,05539.84614,E,0.699,,270525,,,A*71
$GNVTG,,T,,M,0.699,N,1.295,K,A*34
$GNGNS,045739.00,0419.80608,S,05539.84614,E,AA,12,0.98,35.0,-47.6,,*6A
$GNGGA,045739.00,0419.80608,S,05539.84614,E,1,12,0.98,35.0,M,-47.6,M,,*40
$GNGSA,A,3,05,24,20,12,13,11,22,15,,,,,1.59,0.98,1.25*12
$GNGSA,A,3,79,78,82,67,,,,,,,,,1.59,0.98,1.25*1C
$GPGSV,5,1,17,05,63,110,15,11,15,022,15,12,40,007,20,13,18,148,10*7A
$GPGSV,5,2,17,15,29,182,19,18,27,240,30,20,41,055,25,22,13,124,09*71
$GPGSV,5,3,17,23,08,210,,24,58,224,32,25,17,339,,29,09,309,*7D
$GPGSV,5,4,17,36,52,277,33,40,84,353,,41,58,082,,49,32,274,*7C
$GPGSV,5,5,17,50,10,089,*4A
$GLGSV,3,1,09,67,16,115,19,68,19,165,,69,04,210,,78,40,140,13*65
$GLGSV,3,2,09,79,72,034,30,80,23,344,15,82,23,343,14,83,33,285,26*66
$GLGSV,3,3,09,84,09,233,*5B
$GNGLL,0419.80608,S,05539.84614,E,045739.00,A,A*69
$GNGRS,045739.00,1,-4.3,-3.8,0.9,8.4,-15.1,0.6,-6.7,-12.7,,,,*7E
$GNGRS,045739.00,1,0.7,-4.1,-7.0,-3.9,,,,,,,,*7E
$GNGST,045739.00,60,,,,6.3,9.2,14*66
$GNZDA,045739.00,27,05,2025,00,00*71
$GNGBS,045739.00,6.3,9.2,13.5,,,,*6A
b0L]?n(
)7|.:]S5{"4Ta:R 
Y
hCsIDE
N
(OH"/PXRWKS!Tb]>;$GNRMC,045740.00,A,0419.80576,S,05539.84605,E,1.049,,270525,,,A*7F
$GNVTG,,T,,M,1.049,N,1.943,K,A*3E
$GNGNS,045740.00,0419.80576,S,05539.84605,E,AA,11,1.00,35.4,-47.6,,*69
$GNGGA,045740.00,0419.80576,S,05539.84605,E,1,11,1.00,35.4,M,-47.6,M,,*43
$GNGSA,A,3,05,24,20,12,13,11,22,15,,,,,1.62,1.00,1.28*17
$GNGSA,A,3,79,82,67,,,,,,,,,,1.62,1.00,1.28*16
$GPGSV,5,1,17,05,63,110,16,11,15,022,15,12,40,007,19,13,18,148,10*73
$GPGSV,5,2,17,15,29,182,20,18,27,240,29,20,41,055,26,22,13,124,09*70
$GPGSV,5,3,17,23,08,210,,24,58,224,30,25,17,339,,29,09,309,*7F
$GPGSV,5,4,17,36,52,277,34,40,84,353,,41,58,082,,49,32,274,*7B
$GPGSV,5,5,17,50,10,089,*4A
$GLGSV,3,1,09,67,16,115,21,68,19,165,,69,04,210,,78,40,140,10*6D
$GLGSV,3,2,09,79,72,034,31,80,23,344,14,82,23,343,15,83,33,285,28*69
$GLGSV,3,3,09,84,09,233,*5B
$GNGLL,0419.80576,S,05539.84605,E,045740.00,A,A*6D
$GNGRS,045740.00,1,-6.4,-4.2,1.6,9.1,16.6,1.7,20.9,-10.8,,,,*41
$GNGRS,045740.00,1,3.0,-4.4,-1.8,,,,,,,,,*76
$GNGST,045740.00,5072371,,,,6.4,9.2,14*5C
$GNZDA,045740.00,27,05,2025,00,00*7F
$GNGBS,045740.00,6.4,9.2,13.6,,,,*60
b0L]?nG(
)7_|e:!S5{#4Ta:R 
Y
hCsDE
N(6OH"PXRWS!Tb]>?$GNRMC,045741.00,A,0419.80553,S,05539.84580,E,0.494,,270525,,,A*72
$GNVTG,,T,,M,0.494,N,0.915,K,A*39
$GNGNS,045741.00,0419.80553,S,05539.84580,E,AA,12,0.98,34.6,-47.6,,*61
$GNGGA,045741.00,0419.80553,S,05539.84580,E,1,12,0.98,34.6,M,-47.6,M,,*4B
$GNGSA,A,3,05,24,20,12,13,11,22,15,,,,,1.59,0.98,1.25*12
$GNGSA,A,3,79,78,82,67,,,,,,,,,1.59,0.98,1.25*1C
$GPGSV,5,1,17,05,63,110,19,11,15,022,13,12,40,007,20,13,18,148,10*70
$GPGSV,5,2,17,15,29,182,22,18,27,240,29,20,41,055,27,22,13,124,09*73
$GPGSV,5,3,17,23,08,210,,24,58,224,29,25,17,339,,29,09,309,*77
$GPGSV,5,4,17,36,52,277,35,40,84,353,,41,58,082,,49,32,274,*7A
$GPGSV,5,5,17,50,10,089,*4A
$GLGSV,3,1,09,67,16,115,23,68,19,165,,69,04,210,,78,40,140,17*68
$GLGSV,3,2,09,79,72,034,31,80,23,344,13,82,23,343,15,83,33,285,28*6E
$GLGSV,3,3,09,84,09,233,*5B
$GNGLL,0419.80553,S,05539.84580,E,045741.00,A,A*65
$GNGRS,045741.00,1,-6.2,0.3,-4.2,7.6,17.1,3.3,21.5,-8.6,,,,*71
$GNGRS,045741.00,1,-3.1,-2.0,-1.1,-0.4,,,,,,,,*57
$GNGST,045741.00,4857197,,,,6.4,9.1,14*5A
$GNZDA,045741.00,27,05,2025,00,00*7E
$GNGBS,045741.00,6.4,9.1,13.6,,,,*62
b0L]?nT(
)7l|:~S5{"4Ta:R 
Y
hCsDE
N(`O H"PXRWKS!Tp]b]>C}$GNRMC,045742.00,A,0419.80552,S,05539.84579,E,0.017,,270525,,,A*79
$GNVTG,,T,,M,0.017,N,0.032,K,A*3A
$GNGNS,045742.00,0419.80552,S,05539.84579,E,AA,12,0.98,34.9,-47.6,,*6A
$GNGGA,045742.00,0419.80552,S,05539.84579,E,1,12,0.98,34.9,M,-47.6,M,,*40
$GNGSA,A,3,05,24,20,12,13,11,22,15,,,,,1.59,0.98,1.25*12
$GNGSA,A,3,79,78,82,67,,,,,,,,,1.59,0.98,1.25*1C
$GPGSV,5,1,17,05,63,110,21,11,15,022,13,12,40,007,21,13,18,148,10*7A
$GPGSV,5,2,17,15,29,182,22,18,27,240,29,20,41,055,28,22,13,124,09*7C
$GPGSV,5,3,17,23,08,210,,24,58,224,27,25,17,339,19,29,09,309,*71
$GPGSV,5,4,17,36,52,277,34,40,84,353,,41,58,082,,49,32,274,*7B
$GPGSV,5,5,17,50,10,089,*4A
$GLGSV,3,1,09,67,16,115,23,68,19,165,,69,04,210,,78,40,140,12*6D
$GLGSV,3,2,09,79,72,034,32,80,23,344,14,82,23,343,16,83,33,285,28*69
$GLGSV,3,3,09,84,09,233,*5B
$GNGLL,0419.80552,S,05539.84579,E,045742.00,A,A*61
$GNGRS,045742.00,1,-7.8,3.8,-1.5,7.1,-0.5,3.4,-10.8,-8.5,,,,*4D
$GNGRS,045742.00,1,-2.3,1.0,-6.9,1.6,,,,,,,,*58
$GNGST,045742.00,59,,,,6.5,9.1,14*65
$GNZDA,045742.00,27,05,2025,00,00*7D
$GNGBS,045742.00,6.5,9.1,13.5,,,,*63
b0L]?nX()71|:VS5{!4Ta:R 
Y
hCsDE
N(-OH"PXRWS!T8b]>G$GNRMC,045743.00,A,0419.80533,S,05539.84552,E,0.676,,270525,,,A*77
$GNVTG,,T,,M,0.676,N,1.252,K,A*3E
$GNGNS,045743.00,0419.80533,S,05539.84552,E,AA,12,0.98,34.0,-47.6,,*6C
$GNGGA,045743.00,0419.80533,S,05539.84552,E,1,12,0.98,34.0,M,-47.6,M,,*46
$GNGSA,A,3,05,24,20,12,13,11,22,15,,,,,1.59,0.98,1.25*12
$GNGSA,A,3,79,78,82,67,,,,,,,,,1.59,0.98,1.25*1C
$GPGSV,5,1,17,05,63,110,22,11,15,022,11,12,40,007,20,13,18,148,08*73
$GPGSV,5,2,17,15,29,182,20,18,27,240,30,20,41,055,27,22,13,124,09*79
$GPGSV,5,3,17,23,08,210,,24,58,224,27,25,17,339,19,29,09,309,*71
$GPGSV,5,4,17,36,52,277,33,40,84,353,,41,58,082,,49,32,274,*7C
$GPGSV,5,5,17,50,10,089,*4A
$GLGSV,3,1,09,67,16,115,22,68,19,165,,69,04,210,,78,40,140,16*68
$GLGSV,3,2,09,79,72,034,31,80,23,344,14,82,23,343,17,83,33,285,29*6A
$GLGSV,3,3,09,84,09,233,*5B
$GNGLL,0419.80533,S,05539.84552,E,045743.00,A,A*6E
$GNGRS,045743.00,1,-6.8,3.4,-2.1,6.5,15.6,1.4,19.8,-7.4,,,,*71
$GNGRS,045743.00,1,-5.7,-2.1,-7.8,2.0,,,,,,,,*70
$GNGST,045743.00,3440923,,,,6.5,9.0,14*52
$GNZDA,045743.00,27,05,2025,00,00*7C
$GNGBS,045743.00,6.5,9.0,13.5,,,,*63
b0L]?n
()7|:S5{"4Ta:R 
Y
hiCswDE
N(2OH"BPXRWaS!T}=b]>K`M$GNRMC,045744.00,A,0419.80513,S,05539.84529,E,0.816,,270525,,,A*76
$GNVTG,,T,,M,0.816,N,1.511,K,A*36
$GNGNS,045744.00,0419.80513,S,05539.84529,E,AA,11,1.02,33.4,-47.6,,*67
$GNGGA,045744.00,0419.80513,S,05539.84529,E,1,11,1.02,33.4,M,-47.6,M,,*4D
$GNGSA,A,3,05,24,20,12,13,22,15,,,,,,1.71,1.02,1.37*19
$GNGSA,A,3,79,78,82,67,,,,,,,,,1.71,1.02,1.37*17
$GPGSV,5,1,17,05,63,110,21,11,15,022,10,12,40,007,22,13,18,148,12*78
$GPGSV,5,2,17,15,29,182,23,18,27,240,30,20,41,055,26,22,13,124,13*70
$GPGSV,5,3,17,23,08,210,,24,58,224,26,25,17,339,19,29,09,309,*70
$GPGSV,5,4,17,36,52,277,34,40,84,353,,41,58,082,,49,32,274,*7B
$GPGSV,5,5,17,50,10,089,*4A
$GLGSV,3,1,09,67,16,115,21,68,19,165,,69,04,210,,78,40,140,12*6F
$GLGSV,3,2,09,79,72,034,31,80,23,344,15,82,23,343,18,83,33,285,27*6A
$GLGSV,3,3,09,84,09,233,*5B
$GNGLL,0419.80513,S,05539.84529,E,045744.00,A,A*67
$GNGRS,045744.00,1,-8.3,3.9,-2.3,6.5,15.6,20.2,-7.9,,,,,*5A
$GNGRS,045744.00,1,-1.9,-2.1,-4.2,1.2,,,,,,,,*75
$GNGST,045744.00,3587174,,,,6.5,9.0,14*55
$GNZDA,045744.00,27,05,2025,00,00*7B
$GNGBS,045744.00,6.5,9.0,13.5,,,,*64
b0Lx]?n(1~D)7|:"S5{"4Ta:R 
Y
hCs#DE
N(GO H"PXRWS!Tbx]>wO8$GNRMC,045745.00,A,0419.80496,S,05539.84503,E,0.695,,270525,,,A*76
$GNVTG,,T,,M,0.695,N,1.288,K,A*34
$GNGNS,045745.00,0419.80496,S,05539.84503,E,AA,12,0.95,33.0,-47.6,,*6A
$GNGGA,045745.00,0419.80496,S,05539.84503,E,1,12,0.95,33.0,M,-47.6,M,,*40
$GNGSA,A,3,05,24,20,12,13,11,22,15,,,,,1.55,0.95,1.22*14
$GNGSA,A,3,79,78,82,67,,,,,,,,,1.55,0.95,1.22*1A
$GPGSV,5,1,17,05,63,110,20,11,15,022,09,12,40,007,23,13,18,148,11*73
$GPGSV,5,2,17,15,29,182,25,18,27,240,29,20,41,055,27,22,13,124,18*74
$GPGSV,5,3,17,23,08,210,,24,58,224,25,25,17,339,18,29,09,309,*72
$GPGSV,5,4,17,36,52,277,34,40,84,353,,41,58,082,,49,32,274,*7B
$GPGSV,5,5,17,50,10,089,*4A
$GLGSV,3,1,09,67,16,115,22,68,19,165,,69,04,210,,78,40,140,15*6B
$GLGSV,3,2,09,79,72,034,32,80,23,344,14,82,23,343,20,83,33,285,27*63
$GLGSV,3,3,09,84,09,233,*5B
$GNGLL,0419.80496,S,05539.84503,E,045745.00,A,A*62
$GNGRS,045745.00,1,-8.6,5.5,-1.3,8.2,-16.7,0.3,17.3,-7.0,,,,*50
$GNGRS,045745.00,1,-3.8,-1.8,-3.8,0.4,,,,,,,,*77
$GNGST,045745.00,58,,,,6.4,8.9,13*6C
$GNZDA,045745.00,27,05,2025,00,00*7A
$GNGBS,045745.00,6.4,8.9,13.3,,,,*6A
b0L`]?n
(
)7|:S5{!4Ta:R 
Y
hCsDE
N(eO H"PXRWS!Tb`]>_S$GNRMC,045746.00,A,0419.80485,S,05539.84486,E,0.543,,270525,,,A*73
$GNVTG,,T,,M,0.543,N,1.006,K,A*38
$GNGNS,045746.00,0419.80485,S,05539.84486,E,AA,11,0.99,32.4,-47.6,,*6D
$GNGGA,045746.00,0419.80485,S,05539.84486,E,1,11,0.99,32.4,M,-47.6,M,,*47
$GNGSA,A,3,05,24,20,12,13,22,15,,,,,,1.64,0.99,1.31*18
$GNGSA,A,3,79,78,82,67,,,,,,,,,1.64,0.99,1.31*16
$GPGSV,5,1,17,05,63,110,19,11,15,022,09,12,40,007,22,13,18,148,10*79
$GPGSV,5,2,17,15,29,182,25,18,27,240,29,20,41,055,28,22,13,124,18*7B
$GPGSV,5,3,17,23,08,210,,24,58,224,23,25,17,339,17,29,09,309,*7B
$GPGSV,5,4,17,36,52,277,33,40,84,353,,41,58,082,,49,32,274,*7C
$GPGSV,5,5,17,50,10,089,*4A
$GLGSV,3,1,09,67,16,115,22,68,19,165,,69,04,210,,78,40,140,17*69
$GLGSV,3,2,09,79,72,034,32,80,23,344,17,82,23,343,19,83,33,285,26*6B
$GLGSV,3,3,09,84,09,233,*5B
$GNGLL,0419.80485,S,05539.84486,E,045746.00,A,A*6F
$GNGRS,045746.00,1,-8.9,6.9,-0.6,7.0,15.4,15.7,-5.4,,,,,*5A
$GNGRS,045746.00,1,-5.8,-1.5,-2.9,1.4,,,,,,,,*7E
$GNGST,045746.00,3434011,,,,6.4,8.8,13*53
$GNZDA,045746.00,27,05,2025,00,00*79
$GNGBS,045746.00,6.4,8.8,13.3,,,,*68
b0LH]?n(
)7=|~:S5{"4Ta:R 
Y
hCsDE
N(O H"PXRWS!TVbH]>GW$GNRMC,045747.00,A,0419.80463,S,05539.84452,E,1.057,,270525,,,A*72
$GNVTG,,T,,M,1.057,N,1.957,K,A*34
$GNGNS,045747.00,0419.80463,S,05539.84452,E,AA,11,0.99,31.5,-47.6,,*6F
$GNGGA,045747.00,0419.80463,S,05539.84452,E,1,11,0.99,31.5,M,-47.6,M,,*45
$GNGSA,A,3,05,24,20,12,13,22,15,,,,,,1.64,0.99,1.31*18
$GNGSA,A,3,79,78,82,67,,,,,,,,,1.64,0.99,1.31*16
$GPGSV,5,1,17,05,63,110,18,11,15,022,09,12,40,007,23,13,18,148,10*79
$GPGSV,5,2,17,15,29,182,25,18,27,240,28,20,41,055,28,22,13,124,18*7A
$GPGSV,5,3,17,23,08,210,,24,58,224,24,25,17,339,16,29,09,309,*7D
$GPGSV,5,4,17,36,52,277,34,40,84,353,,41,58,082,,49,32,274,*7B
$GPGSV,5,5,17,50,10,089,*4A
$GLGSV,3,1,09,67,16,115,21,68,19,165,,69,04,210,,78,40,140,19*64
$GLGSV,3,2,09,79,72,034,32,80,23,344,18,82,23,343,18,83,33,285,25*66
$GLGSV,3,3,09,84,09,233,*5B
$GNGLL,0419.80463,S,05539.84452,E,045747.00,A,A*6F
$GNGRS,045747.00,1,-8.2,6.8,0.6,7.6,15.3,14.1,-4.8,,,,,*77
$GNGRS,045747.00,1,-5.2,-0.7,-3.1,0.1,,,,,,,,*7B
$GNGST,045747.00,3434011,,,,6.3,8.8,13*55
$GNZDA,045747.00,27,05,2025,00,00*78
$GNGBS,045747.00,6.3,8.8,13.2,,,,*6F
b0L0]?n&I(K
)7|$:S5{"4Ta:R 
Y
hCs0DE
N("O H"PXRW9S!Tb0]>/[$GNRMC,045748.00,A,0419.80471,S,05539.84458,E,0.147,,270525,,,A*75
$GNVTG,,T,,M,0.147,N,0.272,K,A*38
$GNGNS,045748.00,0419.80471,S,05539.84458,E,AA,11,0.99,31.2,-47.6,,*6E
$GNGGA,045748.00,0419.80471,S,05539.84458,E,1,11,0.99,31.2,M,-47.6,M,,*44
$GNGSA,A,3,05,24,20,12,13,22,15,,,,,,1.64,0.99,1.31*18
$GNGSA,A,3,79,78,82,67,,,,,,,,,1.64,0.99,1.31*16
$GPGSV,5,1,17,05,63,110,16,11,15,022,09,12,40,007,25,13,18,148,17*76
$GPGSV,5,2,17,15,29,182,25,18,27,240,28,20,41,055,28,22,13,124,18*7A
$GPGSV,5,3,17,23,08,210,,24,58,224,22,25,17,339,20,29,09,309,*7E
$GPGSV,5,4,17,36,52,277,34,40,84,353,,41,58,082,,49,32,274,*7B
$GPGSV,5,5,17,50,10,089,*4A
$GLGSV,3,1,09,67,16,115,20,68,19,165,,69,04,210,,78,40,140,21*6E
$GLGSV,3,2,09,79,72,034,32,80,23,344,18,82,23,343,19,83,33,285,25*67
$GLGSV,3,3,09,84,09,233,*5B
$GNGLL,0419.80471,S,05539.84458,E,045748.00,A,A*69
$GNGRS,045748.00,1,-9.9,6.9,-0.2,9.3,26.3,10.6,-1.2,,,,,*5D
$GNGRS,045748.00,1,-5.1,-2.2,-4.6,0.5,,,,,,,,*74
$GNGST,045748.00,50,,,,6.3,8.7,13*60
$GNZDA,045748.00,27,05,2025,00,00*77
$GNGBS,045748.00,6.3,8.7,13.1,,,,*6C
b0L]?n:|(p)7|*:S5{!4Ta:R 
Y
hCsDE
N(tOH"PXRWmS!T!b]>_U$GNRMC,045749.00,A,0419.80464,S,05539.84449,E,0.228,,270525,,,A*7A
$GNVTG,,T,,M,0.228,N,0.423,K,A*30
$GNGNS,045749.00,0419.80464,S,05539.84449,E,AA,12,0.80,30.9,-47.6,,*6A
$GNGGA,045749.00,0419.80464,S,05539.84449,E,1,12,0.80,30.9,M,-47.6,M,,*40
$GNGSA,A,3,05,24,20,12,13,22,15,18,,,,,1.46,0.80,1.22*1B
$GNGSA,A,3,79,78,82,67,,,,,,,,,1.46,0.80,1.22*1C
$GPGSV,5,1,17,05,63,110,16,11,15,022,09,12,40,007,25,13,18,148,18*79
$GPGSV,5,2,17,15,29,182,25,18,27,240,29,20,41,055,27,22,13,124,18*74
$GPGSV,5,3,17,23,08,210,,24,58,224,20,25,17,339,21,29,09,309,*7D
$GPGSV,5,4,17,36,52,277,33,40,84,353,,41,58,082,,49,32,274,*7C
$GPGSV,5,5,17,50,10,089,*4A
$GLGSV,3,1,09,67,16,115,21,68,19,165,,69,04,210,,78,40,140,22*6C
$GLGSV,3,2,09,79,72,034,31,80,23,344,18,82,23,343,18,83,33,285,26*66
$GLGSV,3,3,09,84,09,233,*5B
$GNGLL,0419.80464,S,05539.84449,E,045749.00,A,A*6C
$GNGRS,045749.00,1,-12.2,7.1,1.4,8.8,15.6,10.7,-3.2,2.3,,,,*6D
$GNGRS,045749.00,1,-3.7,-1.4,-1.5,-2.6,,,,,,,,*5A
$GNGST,045749.00,133036,,,,6.1,8.2,13*67
$GNZDA,045749.00,27,05,2025,00,00*76
$GNGBS,045749.00,6.1,8.2,12.6,,,,*6C
b0L]?nI(=F)7|:RS5{!4Ta:R 
Y
htCsmDE
N(eO H"PXRWS!Tb]>bo$GNRMC,045750.00,A,0419.80456,S,05539.84447,E,0.415,,270525,,,A*75
$GNVTG,,T,,M,0.415,N,0.768,K,A*34
$GNGNS,045750.00,0419.80456,S,05539.84447,E,AA,13,0.75,30.2,-47.6,,*6D
$GNGGA,045750.00,0419.80456,S,05539.84447,E,1,12,0.75,30.2,M,-47.6,M,,*46
$GNGSA,A,3,05,24,20,12,13,11,22,15,18,,,,1.36,0.75,1.14*13
$GNGSA,A,3,79,78,82,67,,,,,,,,,1.36,0.75,1.14*14
$GPGSV,5,1,17,05,63,110,18,11,15,022,09,12,40,007,26,13,18,148,18*74
$GPGSV,5,2,17,15,29,182,25,18,27,240,29,20,41,055,25,22,13,124,17*79
$GPGSV,5,3,17,23,08,210,,24,58,224,19,25,17,339,19,29,09,309,*7C
$GPGSV,5,4,17,36,52,277,33,40,84,353,,41,58,082,,49,32,274,*7C
$GPGSV,5,5,17,50,10,089,*4A
$GLGSV,3,1,09,67,16,115,19,68,19,165,,69,04,210,,78,40,140,21*64
$GLGSV,3,2,09,79,72,034,32,80,23,344,17,82,23,343,18,83,33,285,26*6A
$GLGSV,3,3,09,84,09,233,*5B
$GNGLL,0419.80456,S,05539.84447,E,045750.00,A,A*6B
$GNGRS,045750.00,1,-12.7,5.9,1.6,3.9,15.3,18.7,10.2,-4.5,0.7,,,*74
$GNGRS,045750.00,1,1.7,-1.6,-0.8,-1.5,,,,,,,,*73
$GNGST,045750.00,216445,,,,6.0,7.8,12*6E
$GNZDA,045750.00,27,05,2025,00,00*7E
$GNGBS,045750.00,6.0,7.8,12.3,,,,*65
b0L]?nAo(`)7|:S5{!4Ta:R 
Y
hCsDE
N(sO!H",PXRWS!Tb]>fF$GNRMC,045751.00,A,0419.80461,S,05539.84452,E,0.195,,270525,,,A*79
$GNVTG,,T,,M,0.195,N,0.361,K,A*34
$GNGNS,045751.00,0419.80461,S,05539.84452,E,AA,13,0.76,30.0,-47.6,,*6D
$GNGGA,045751.00,0419.80461,S,05539.84452,E,1,12,0.76,30.0,M,-47.6,M,,*46
$GNGSA,A,3,05,24,20,12,13,11,22,15,18,,,,1.39,0.76,1.16*1D
$GNGSA,A,3,79,78,82,67,,,,,,,,,1.39,0.76,1.16*1A
$GPGSV,5,1,17,05,63,110,17,11,15,022,09,12,40,007,25,13,18,148,18*78
$GPGSV,5,2,17,15,29,182,23,18,27,240,28,20,41,055,21,22,13,124,17*7A
$GPGSV,5,3,17,23,08,210,,24,58,224,21,25,17,339,20,29,09,309,*7D
$GPGSV,5,4,17,36,52,277,33,40,84,353,,41,58,082,,49,32,274,*7C
$GPGSV,5,5,17,50,10,089,*4A
$GLGSV,3,1,09,67,16,115,18,68,19,165,,69,04,210,,78,40,140,21*65
$GLGSV,3,2,09,79,72,034,33,80,23,344,15,82,23,343,18,83,33,285,28*67
$GLGSV,3,3,09,84,09,233,*5B
$GNGLL,0419.80461,S,05539.84452,E,045751.00,A,A*6A
$GNGRS,045751.00,1,-12.2,2.3,4.5,2.2,-22.9,-9.1,9.2,-4.9,1.0,,,*7B
$GNGRS,045751.00,1,-2.1,-1.4,-1.0,-0.6,,,,,,,,*53
$GNGST,045751.00,55,,,,5.9,7.5,12*68
$GNZDA,045751.00,27,05,2025,00,00*7F
$GNGBS,045751.00,5.9,7.5,12.1,,,,*61
b0L]?nf(,b)7|:S5{!4Ta:R 
Y
htCs$DE
N(O!H"4PXRWS!Tb]>j{$GNRMC,045752.00,A,0419.80456,S,05539.84453,E,0.249,,270525,,,A*7D
$GNVTG,,T,,M,0.249,N,0.461,K,A*31
$GNGNS,045752.00,0419.80456,S,05539.84453,E,AA,13,0.75,29.4,-47.6,,*64
$GNGGA,045752.00,0419.80456,S,05539.84453,E,1,12,0.75,29.4,M,-47.6,M,,*4F
$GNGSA,A,3,05,24,20,12,13,11,22,15,18,,,,1.36,0.75,1.14*13
$GNGSA,A,3,79,78,82,67,,,,,,,,,1.36,0.75,1.14*14
$GPGSV,5,1,17,05,63,110,17,11,15,022,09,12,40,007,24,13,18,148,18*79
$GPGSV,5,2,17,15,29,182,23,18,27,240,29,20,41,055,20,22,13,124,15*78
$GPGSV,5,3,17,23,08,210,,24,58,224,21,25,17,339,21,29,09,309,*7C
$GPGSV,5,4,17,36,52,277,33,40,84,353,,41,58,082,,49,32,274,*7C
$GPGSV,5,5,17,50,10,089,*4A
$GLGSV,3,1,09,67,16,115,18,68,19,165,,69,04,210,,78,40,140,20*64
$GLGSV,3,2,09,79,72,034,33,80,23,344,14,82,23,343,19,83,33,285,28*67
$GLGSV,3,3,09,84,09,233,*5B
$GNGLL,0419.80456,S,05539.84453,E,045752.00,A,A*6C
$GNGRS,045752.00,1,-13.7,-0.3,5.2,2.2,15.5,18.9,7.6,-7.2,1.0,,,*67
$GNGRS,045752.00,1,-4.6,-1.1,-0.5,-2.2,,,,,,,,*56
$GNGST,045752.00,4496177,,,,5.9,7.3,12*53
$GNZDA,045752.00,27,05,2025,00,00*7C
$GNGBS,045752.00,5.9,7.3,11.9,,,,*6F
b0L]?n?(%)7+| :mS5{ 4Ta:R 
Y
hCsDE
N(O H"{PXRWS!Tb]>n$GNRMC,045753.00,A,0419.80447,S,05539.84443,E,0.158,,270525,,,A*7E
$GNVTG,,T,,M,0.158,N,0.293,K,A*39
$GNGNS,045753.00,0419.80447,S,05539.84443,E,AA,13,0.75,29.0,-47.6,,*60
$GNGGA,045753.00,0419.80447,S,05539.84443,E,1,12,0.75,29.0,M,-47.6,M,,*4B
$GNGSA,A,3,05,24,20,12,13,11,22,15,18,,,,1.36,0.75,1.14*13
$GNGSA,A,3,79,78,82,67,,,,,,,,,1.36,0.75,1.14*14
$GPGSV,5,1,17,05,63,110,17,11,15,022,09,12,40,007,24,13,18,148,18*79
$GPGSV,5,2,17,15,29,182,24,18,27,240,29,20,41,055,30,22,13,124,18*73
$GPGSV,5,3,17,23,08,210,,24,58,224,21,25,17,339,20,29,09,309,*7D
$GPGSV,5,4,17,36,52,277,32,40,84,353,,41,58,082,,49,32,274,*7D
$GPGSV,5,5,17,50,10,089,*4A
$GLGSV,3,1,09,67,16,115,15,68,19,165,,69,04,210,,78,40,140,20*69
$GLGSV,3,2,09,79,72,034,32,80,23,344,14,82,23,343,20,83,33,285,27*63
$GLGSV,3,3,09,84,09,233,*5B
$GNGLL,0419.80447,S,05539.84443,E,045753.00,A,A*6C
$GNGRS,045753.00,1,-13.6,-1.5,0.4,2.2,15.7,18.5,5.4,-7.8,4.8,,,*6A
$GNGRS,045753.00,1,-1.3,0.2,-0.6,-4.9,,,,,,,,*76
$GNGST,045753.00,4496177,,,,5.9,7.1,12*50
$GNZDA,045753.00,27,05,2025,00,00*7D
$GNGBS,045753.00,5.9,7.1,11.7,,,,*62
b0L]?n6(c)7=|:pS5{ 4Ta:R 
Y
hdCsDE
N'O H"PXRWLS!TUb]>rK$GNRMC,045754.00,A,0419.80421,S,05539.84422,E,0.761,,270525,,,A*72
$GNVTG,,T,,M,0.761,N,1.409,K,A*31
$GNGNS,045754.00,0419.80421,S,05539.84422,E,AA,13,0.75,28.4,-47.6,,*65
$GNGGA,045754.00,0419.80421,S,05539.84422,E,1,12,0.75,28.4,M,-47.6,M,,*4E
$GNGSA,A,3,05,24,20,12,13,11,22,15,18,,,,1.36,0.75,1.14*13
$GNGSA,A,3,79,78,82,67,,,,,,,,,1.36,0.75,1.14*14
$GPGSV,5,1,17,05,63,110,18,11,15,022,09,12,40,007,25,13,18,148,18*77
$GPGSV,5,2,17,15,29,182,25,18,27,240,28,20,41,055,29,22,13,124,19*7A
$GPGSV,5,3,17,23,08,210,,24,58,224,20,25,17,339,19,29,09,309,*76
$GPGSV,5,4,17,36,52,277,32,40,84,353,,41,58,082,,49,32,274,*7D
$GPGSV,5,5,17,50,10,089,*4A
$GLGSV,3,1,09,67,16,115,14,68,19,165,,69,04,210,,78,39,141,20*67
$GLGSV,3,2,09,79,72,034,32,80,23,344,13,82,23,343,19,83,33,285,26*6F
$GLGSV,3,3,09,84,09,233,*5B
$GNGLL,0419.80421,S,05539.84422,E,045754.00,A,A*6C
$GNGRS,045754.00,1,-12.3,-1.4,-2.0,1.8,1.0,-7.6,6.8,-8.1,5.3,,,*6B
$GNGRS,045754.00,1,-0.3,0.0,0.8,-5.0,,,,,,,,*59
$GNGST,045754.00,53,,,,5.9,6.9,12*66
$GNZDA,045754.00,27,05,2025,00,00*7A
$GNGBS,045754.00,5.9,6.9,11.5,,,,*6E
b0L]?n(Y{)7|:S5{ 4Ta:R 
Y
hCsDE
N'VO!I#kPXRWS!Tb]>v$GNRMC,045755.00,A,0419.80409,S,05539.84410,E,0.138,,270525,,,A*72
$GNVTG,,T,,M,0.138,N,0.255,K,A*35
$GNGNS,045755.00,0419.80409,S,05539.84410,E,AA,13,0.77,27.9,-47.6,,*6F
$GNGGA,045755.00,0419.80409,S,05539.84410,E,1,12,0.77,27.9,M,-47.6,M,,*44
$GNGSA,A,3,05,24,20,12,13,11,22,15,18,,,,1.41,0.77,1.18*1D
$GNGSA,A,3,79,78,82,67,,,,,,,,,1.41,0.77,1.18*1A
$GPGSV,5,1,17,05,63,110,17,11,15,022,09,12,40,007,25,13,18,148,19*79
$GPGSV,5,2,17,15,29,182,25,18,27,240,28,20,41,055,28,22,13,124,18*7A
$GPGSV,5,3,17,23,08,210,,24,58,224,19,25,17,339,19,29,09,309,*7C
$GPGSV,5,4,17,36,52,277,32,40,84,353,,41,58,082,,49,32,274,*7D
$GPGSV,5,5,17,50,10,089,*4A
$GLGSV,3,1,09,67,16,115,14,68,19,165,,69,04,210,,78,39,141,22*65
$GLGSV,3,2,09,79,73,035,33,80,23,344,13,82,23,343,21,83,33,285,27*64
$GLGSV,3,3,09,84,09,233,*5B
$GNGLL,0419.80409,S,05539.84410,E,045755.00,A,A*66
$GNGRS,045755.00,1,-13.2,-6.4,-5.9,3.4,15.3,19.4,6.9,-6.5,4.1,,,*43
$GNGRS,045755.00,1,-1.5,0.9,0.1,-5.4,,,,,,,,*5B
$GNGST,045755.00,3303821,,,,5.9,6.8,11*5B
$GNZDA,045755.00,27,05,2025,00,00*7B
$GNGBS,045755.00,5.9,6.8,11.4,,,,*6F
b0Lp]?nn(jZ)7|b:S5{!4Ta:R 
Y
hCsPDE
N'zO"I#PXRWYS!Tbp]>oz~$GNRMC,045756.00,A,0419.80409,S,05539.84397,E,0.126,,270525,,,A*76
$GNVTG,,T,,M,0.126,N,0.233,K,A*3A
$GNGNS,045756.00,0419.80409,S,05539.84397,E,AA,13,0.77,27.9,-47.6,,*64
$GNGGA,045756.00,0419.80409,S,05539.84397,E,1,12,0.77,27.9,M,-47.6,M,,*4F
$GNGSA,A,3,05,24,20,12,13,11,22,15,18,,,,1.41,0.77,1.18*1D
$GNGSA,A,3,79,78,82,67,,,,,,,,,1.41,0.77,1.18*1A
$GPGSV,5,1,17,05,63,110,15,11,15,022,15,12,40,007,25,13,18,148,14*7B
$GPGSV,5,2,17,15,29,182,25,18,27,240,28,20,41,055,28,22,13,124,16*74
$GPGSV,5,3,17,23,08,210,,24,58,224,17,25,17,339,18,29,09,309,*73
$GPGSV,5,4,17,36,52,277,33,40,84,353,,41,58,082,,49,32,274,*7C
$GPGSV,5,5,17,50,10,089,*4A
$GLGSV,3,1,09,67,16,115,13,68,19,165,,69,04,210,,78,39,141,24*64
$GLGSV,3,2,09,79,73,035,34,80,24,344,15,82,23,343,24,83,33,285,27*67
$GLGSV,3,3,09,84,09,233,*5B
$GNGLL,0419.80409,S,05539.84397,E,045756.00,A,A*6D
$GNGRS,045756.00,1,-11.7,-7.5,-11.2,3.6,16.3,20.0,3.5,-5.7,2.4,,,*7D
$GNGRS,045756.00,1,-0.8,1.2,0.9,-4.3,,,,,,,,*50
$GNGST,045756.00,3299292,,,,5.8,6.6,11*57
$GNZDA,045756.00,27,05,2025,00,00*78
$GNGBS,045756.00,5.8,6.6,11.2,,,,*65
b0LX]?n1(M)7)|k:S5{!4Ta:R 
Y
hZCsDE
N'!OI#PXRWS!T%bX]>W~V$GNRMC,045757.00,A,0419.80403,S,05539.84390,E,0.006,,270525,,,A*79
$GNVTG,,T,,M,0.006,N,0.012,K,A*38
$GNGNS,045757.00,0419.80403,S,05539.84390,E,AA,13,0.77,27.7,-47.6,,*66
$GNGGA,045757.00,0419.80403,S,05539.84390,E,1,12,0.77,27.7,M,-47.6,M,,*4D
$GNGSA,A,3,05,24,20,12,13,11,22,15,18,,,,1.41,0.77,1.18*1D
$GNGSA,A,3,79,78,82,67,,,,,,,,,1.41,0.77,1.18*1A
$GPGSV,5,1,17,05,63,110,18,11,15,022,15,12,40,007,25,13,18,148,16*74
$GPGSV,5,2,17,15,29,182,23,18,27,240,30,20,41,055,26,22,13,124,13*70
$GPGSV,5,3,17,23,08,210,,24,58,224,21,25,17,339,16,29,09,309,*78
$GPGSV,5,4,17,36,52,277,33,40,84,353,,41,58,082,,49,32,274,*7C
$GPGSV,5,5,17,50,10,089,*4A
$GLGSV,3,1,09,67,16,115,15,68,19,165,,69,04,210,,78,39,141,21*67
$GLGSV,3,2,09,79,73,035,31,80,24,344,15,82,23,343,24,83,33,285,26*63
$GLGSV,3,3,09,84,09,233,*5B
$GNGLL,0419.80403,S,05539.84390,E,045757.00,A,A*61
$GNGRS,045757.00,1,-13.8,-10.8,-9.8,2.4,15.4,15.8,1.1,-6.1,0.8,,,*7D
$GNGRS,045757.00,1,0.0,0.3,-0.2,-3.3,,,,,,,,*55
$GNGST,045757.00,48,,,,5.7,6.4,11*6F
$GNZDA,045757.00,27,05,2025,00,00*79
$GNGBS,045757.00,5.7,6.4,11.0,,,,*6B
b0L@]?nxk(R&)7|:WS5{!4Ta:R 
Y
hOCs^DE
N'"O!I# PXRXHS!Tb@]>?.$GNRMC,045758.00,A,0419.80386,S,05539.84379,E,0.695,,270525,,,A*77
$GNVTG,,T,,M,0.695,N,1.286,K,A*3A
$GNGNS,045758.00,0419.80386,S,05539.84379,E,AA,13,0.77,27.5,-47.6,,*66
$GNGGA,045758.00,0419.80386,S,05539.84379,E,1,12,0.77,27.5,M,-47.6,M,,*4D
$GNGSA,A,3,05,24,20,12,13,11,22,15,18,,,,1.41,0.77,1.18*1D
$GNGSA,A,3,79,78,82,67,,,,,,,,,1.41,0.77,1.18*1A
$GPGSV,5,1,17,05,63,110,17,11,15,022,15,12,40,007,25,13,18,148,17*7A
$GPGSV,5,2,17,15,29,182,24,18,27,240,30,20,41,055,26,22,13,124,12*76
$GPGSV,5,3,17,23,08,210,,24,58,224,25,25,17,339,16,29,09,309,*7C
$GPGSV,5,4,17,36,52,277,33,40,84,353,,41,58,082,,49,32,274,*7C
$GPGSV,5,5,17,50,10,089,*4A
$GLGSV,3,1,09,67,16,115,15,68,19,165,,69,04,210,,78,39,141,20*66
$GLGSV,3,2,09,79,73,035,33,80,24,344,18,82,23,344,23,83,33,285,25*6F
$GLGSV,3,3,09,84,09,233,*5B
$GNGLL,0419.80386,S,05539.84379,E,045758.00,A,A*63
$GNGRS,045758.00,1,-16.7,-11.9,-0.5,0.1,13.6,19.0,1.3,-7.3,1.8,,,*7B
$GNGRS,045758.00,1,0.3,0.3,-1.8,-6.7,,,,,,,,*53
$GNGST,045758.00,96966,,,,5.6,6.3,11*5C
$GNZDA,045758.00,27,05,2025,00,00*76
$GNGBS,045758.00,5.6,6.3,10.9,,,,*6A
b0L(]?nI(< )7|:S5{ 4Ta:R 
Y

hCsDE
N'O"I#PXRXS!T]b(]>'S$GNRMC,045759.00,A,0419.80380,S,05539.84386,E,0.273,,270525,,,A*7C
$GNVTG,,T,,M,0.273,N,0.505,K,A*3B
$GNGNS,045759.00,0419.80380,S,05539.84386,E,AA,13,0.77,27.4,-47.6,,*60
$GNGGA,045759.00,0419.80380,S,05539.84386,E,1,12,0.77,27.4,M,-47.6,M,,*4B
$GNGSA,A,3,05,24,20,12,13,11,22,15,18,,,,1.41,0.77,1.18*1D
$GNGSA,A,3,79,78,82,67,,,,,,,,,1.41,0.77,1.18*1A
$GPGSV,5,1,17,05,63,110,20,11,15,022,15,12,40,007,25,13,18,148,18*71
$GPGSV,5,2,17,15,29,182,26,18,27,240,30,20,41,055,25,22,13,124,13*76
$GPGSV,5,3,17,23,08,210,,24,58,224,27,25,17,339,18,29,09,309,*70
$GPGSV,5,4,17,36,52,277,32,40,84,353,,41,58,082,,49,32,274,*7D
$GPGSV,5,5,17,50,10,089,*4A
$GLGSV,3,1,09,67,16,115,16,68,19,165,,69,04,210,,78,39,141,19*6F
$GLGSV,3,2,09,79,73,035,34,80,24,344,16,82,23,344,23,83,33,286,27*67
$GLGSV,3,3,09,84,09,233,*5B
$GNGLL,0419.80380,S,05539.84386,E,045759.00,A,A*64
$GNGRS,045759.00,1,-18.0,-10.1,4.2,-0.7,10.8,18.6,1.4,-7.7,0.3,,,*7C
$GNGRS,045759.00,1,0.2,-0.6,-2.8,-5.2,,,,,,,,*7E
$GNGST,045759.00,110758,,,,5.5,6.2,11*63
$GNZDA,045759.00,27,05,2025,00,00*77
$GNGBS,045759.00,5.5,6.2,10.8,,,,*68
b0L]?nk"(`)7|S:S5{!4Ta:R 
Y
h1CsDE
N'O"I#(PXRXS!T#b]>$GNRMC,045800.00,A,0419.80379,S,05539.84389,E,0.454,,270525,,,A*75
$GNVTG,,T,,M,0.454,N,0.840,K,A*34
$GNGNS,045800.00,0419.80379,S,05539.84389,E,AA,13,0.84,27.3,-47.6,,*61
$GNGGA,045800.00,0419.80379,S,05539.84389,E,1,12,0.84,27.3,M,-47.6,M,,*4A
$GNGSA,A,3,05,24,20,12,13,11,22,15,18,,,,1.63,0.84,1.39*12
$GNGSA,A,3,79,78,82,67,,,,,,,,,1.63,0.84,1.39*15
$GPGSV,5,1,17,05,63,110,24,11,15,022,15,12,40,007,22,13,18,148,18*72
$GPGSV,5,2,17,15,29,182,26,18,27,240,30,20,41,055,24,22,13,124,13*77
$GPGSV,5,3,17,23,08,210,,24,58,224,27,25,17,339,18,29,09,309,*70
$GPGSV,5,4,17,36,52,277,33,40,84,353,30,41,58,082,,49,32,274,*7F
$GPGSV,5,5,17,50,10,089,*4A
$GLGSV,3,1,09,67,16,115,18,68,19,165,,69,04,210,,78,39,141,19*61
$GLGSV,3,2,09,79,73,035,34,80,24,344,14,82,23,344,23,83,33,286,26*64
$GLGSV,3,3,09,84,09,234,*5C
$GNGLL,0419.80379,S,05539.84389,E,045800.00,A,A*6E
$GNGRS,045800.00,1,-16.9,-11.5,4.7,-4.2,9.5,-20.1,-32.4,-8.1,1.8,,,*73
$GNGRS,045800.00,1,0.4,-0.7,-2.9,-6.2,,,,,,,,*78
$GNGST,045800.00,41,,,,5.5,6.1,11*6C
$GNZDA,045800.00,27,05,2025,00,00*74
$GNGBS,045800.00,5.5,6.1,10.7,,,,*67
b0L]?nfV(E)7Y|:S5{"4Ta:R 
Y
hCsDE
N'"O!I#PXRXS!Tb]>$GNRMC,045801.00,A,0419.80370,S,05539.84394,E,0.235,,270525,,,A*70
$GNVTG,,T,,M,0.235,N,0.436,K,A*38
$GNGNS,045801.00,0419.80370,S,05539.84394,E,AA,13,0.75,26.6,-47.6,,*6F
$GNGGA,045801.00,0419.80370,S,05539.84394,E,1,12,0.75,26.6,M,-47.6,M,,*44
$GNGSA,A,3,05,24,20,12,13,11,22,15,18,,,,1.36,0.75,1.14*13
$GNGSA,A,3,79,78,82,67,,,,,,,,,1.36,0.75,1.14*14
$GPGSV,5,1,17,05,63,110,23,11,15,022,15,12,40,007,21,13,18,148,17*79
$GPGSV,5,2,17,15,29,182,26,18,27,240,30,20,41,055,25,22,13,124,13*76
$GPGSV,5,3,17,23,08,210,,24,58,224,27,25,17,339,19,29,09,309,*71
$GPGSV,5,4,17,36,52,277,34,40,84,353,31,41,58,082,,49,32,274,*79
$GPGSV,5,5,17,50,10,089,*4A
$GLGSV,3,1,09,67,16,115,17,68,19,165,,69,04,210,,78,39,141,17*60
$GLGSV,3,2,09,79,73,035,33,80,24,344,12,82,23,344,22,83,33,286,26*64
$GLGSV,3,3,09,84,09,234,*5C
$GNGLL,0419.80370,S,05539.84394,E,045801.00,A,A*6A
$GNGRS,045801.00,1,-16.9,-11.2,3.4,-5.1,8.4,18.8,19.5,-8.5,4.0,,,*70
$GNGRS,045801.00,1,0.2,0.3,-2.8,-5.5,,,,,,,,*53
$GNGST,045801.00,4496177,,,,5.4,6.0,11*56
$GNZDA,045801.00,27,05,2025,00,00*75
$GNGBS,045801.00,5.4,6.0,10.6,,,,*67
b0L]?n(1)7|:TS5{"4Ta:R 
Y
hCsDE
N'|O I#PXRX+S!T9b]>y$GNRMC,045802.00,A,0419.80357,S,05539.84400,E,0.159,,270525,,,A*75
$GNVTG,,T,,M,0.159,N,0.295,K,A*3E
$GNGNS,045802.00,0419.80357,S,05539.84400,E,AA,13,0.75,26.3,-47.6,,*66
$GNGGA,045802.00,0419.80357,S,05539.84400,E,1,12,0.75,26.3,M,-47.6,M,,*4D
$GNGSA,A,3,05,24,20,12,13,11,22,15,18,,,,1.36,0.75,1.14*13
$GNGSA,A,3,79,78,82,67,,,,,,,,,1.36,0.75,1.14*14
$GPGSV,5,1,17,05,63,110,23,11,15,022,11,12,40,007,20,13,18,148,16*7D
$GPGSV,5,2,17,15,29,182,25,18,27,240,31,20,41,055,26,22,13,124,18*7C
$GPGSV,5,3,17,23,08,210,,24,58,224,27,25,17,339,20,29,09,309,*7B
$GPGSV,5,4,17,36,52,277,34,40,84,353,31,41,58,082,,49,32,274,*79
$GPGSV,5,5,17,50,10,089,*4A
$GLGSV,3,1,09,67,16,115,20,68,19,165,,69,04,210,,78,39,141,15*66
$GLGSV,3,2,09,79,73,035,32,80,24,344,09,82,23,344,20,83,33,286,26*6D
$GLGSV,3,3,09,84,09,234,*5C
$GNGLL,0419.80357,S,05539.84400,E,045802.00,A,A*66
$GNGRS,045802.00,1,-16.6,-9.4,4.3,-3.4,7.3,18.2,19.6,-5.6,-2.1,,,*65
$GNGRS,045802.00,1,0.3,1.2,-2.1,-5.8,,,,,,,,*55
$GNGST,045802.00,4496177,,,,5.4,5.9,10*5E
$GNZDA,045802.00,27,05,2025,00,00*76
$GNGBS,045802.00,5.4,5.9,10.5,,,,*6D
b0L]?n()7|U:S5{"4Ta:R 
Y
hCsDE
N'OI#3PXRXS!TwOb]>d$GNRMC,045803.00,A,0419.80359,S,05539.84410,E,0.229,,270525,,,A*7F
$GNVTG,,T,,M,0.229,N,0.424,K,A*36
$GNGNS,045803.00,0419.80359,S,05539.84410,E,AA,12,0.80,26.4,-47.6,,*64
$GNGGA,045803.00,0419.80359,S,05539.84410,E,1,12,0.80,26.4,M,-47.6,M,,*4E
$GNGSA,A,3,05,24,20,12,13,22,15,18,,,,,1.46,0.80,1.22*1B
$GNGSA,A,3,79,78,82,67,,,,,,,,,1.46,0.80,1.22*1C
$GPGSV,5,1,17,05,63,110,22,11,15,022,,12,40,007,18,13,18,148,17*76
$GPGSV,5,2,17,15,29,182,23,18,27,240,31,20,41,055,27,22,13,124,18*7B
$GPGSV,5,3,17,23,08,210,,24,58,224,27,25,17,339,20,29,09,309,*7B
$GPGSV,5,4,17,36,52,277,34,40,84,353,31,41,58,082,,49,32,274,*79
$GPGSV,5,5,17,50,10,089,*4A
$GLGSV,3,1,09,67,16,115,20,68,19,165,,69,04,210,,78,39,141,12*61
$GLGSV,3,2,09,79,73,035,31,80,24,344,09,82,23,344,18,83,33,286,26*65
$GLGSV,3,3,09,84,09,234,*5C
$GNGLL,0419.80359,S,05539.84410,E,045803.00,A,A*68
$GNGRS,045803.00,1,-18.2,-6.1,4.6,0.2,7.8,13.7,-5.1,-3.2,,,,*59
$GNGRS,045803.00,1,0.5,2.3,-2.7,-8.6,,,,,,,,*55
$GNGST,045803.00,50,,,,5.5,5.8,10*64
$GNZDA,045803.00,27,05,2025,00,00*77
$GNGBS,045803.00,5.5,5.8,10.4,,,,*6D
b0L]?n(  )7|:S5{"4Ta:R 
Y
hCsDE
N'OI#P
XRX1S!T2,b]><I$GNRMC,045804.00,A,0419.80366,S,05539.84411,E,0.418,,270525,,,A*71
$GNVTG,,T,,M,0.418,N,0.773,K,A*33
$GNGNS,045804.00,0419.80366,S,05539.84411,E,AA,12,0.80,26.7,-47.6,,*6D
$GNGGA,045804.00,0419.80366,S,05539.84411,E,1,12,0.80,26.7,M,-47.6,M,,*47
$GNGSA,A,3,05,24,20,12,13,22,15,18,,,,,1.46,0.80,1.22*1B
$GNGSA,A,3,79,78,82,67,,,,,,,,,1.46,0.80,1.22*1C
$GPGSV,5,1,17,05,63,110,20,11,15,022,,12,40,007,19,13,18,148,17*75
$GPGSV,5,2,17,15,29,182,21,18,27,240,32,20,41,055,26,22,13,124,18*7B
$GPGSV,5,3,17,23,08,210,,24,58,224,27,25,17,339,19,29,09,309,*71
$GPGSV,5,4,17,36,52,277,34,40,84,353,31,41,58,082,,49,32,274,*79
$GPGSV,5,5,17,50,10,089,*4A
$GLGSV,3,1,09,67,16,115,19,68,19,165,,69,04,210,,78,39,141,09*61
$GLGSV,3,2,09,79,73,035,31,80,24,344,10,82,23,344,17,83,33,286,26*62
$GLGSV,3,3,09,84,09,234,*5C
$GNGLL,0419.80366,S,05539.84411,E,045804.00,A,A*62
$GNGRS,045804.00,1,-18.5,-5.6,7.1,0.2,6.8,20.1,-4.8,0.3,,,,*79
$GNGRS,045804.00,1,0.2,2.2,-2.1,-8.1,,,,,,,,*55
$GNGST,045804.00,106481,,,,5.5,5.7,10*63
$GNZDA,045804.00,27,05,2025,00,00*70
$GNGBS,045804.00,5.5,5.7,10.3,,,,*62
b0L]?n(: )7|:S5{!4Ta:R 
Y
hCsjDE
N'OI#4PXRXS!T
b]>$GNRMC,045805.00,A,0419.80362,S,05539.84412,E,0.238,,270525,,,A*73
$GNVTG,,T,,M,0.238,N,0.441,K,A*35
$GNGNS,045805.00,0419.80362,S,05539.84412,E,AA,12,0.81,26.7,-47.6,,*6A
$GNGGA,045805.00,0419.80362,S,05539.84412,E,1,12,0.81,26.7,M,-47.6,M,,*40
$GNGSA,A,3,05,24,20,12,13,22,15,18,,,,,1.50,0.81,1.26*19
$GNGSA,A,3,79,78,82,67,,,,,,,,,1.50,0.81,1.26*1E
$GPGSV,5,1,17,05,63,110,20,11,15,022,07,12,40,007,22,13,18,148,15*78
$GPGSV,5,2,17,15,29,182,19,18,27,240,32,20,41,055,25,22,13,124,18*73
$GPGSV,5,3,17,23,08,210,,24,58,224,26,25,17,339,19,29,09,309,*70
$GPGSV,5,4,17,36,52,277,33,40,84,353,31,41,58,082,,49,32,274,*7E
$GPGSV,5,5,17,50,10,089,*4A
$GLGSV,3,1,09,67,16,115,17,68,19,165,,69,04,210,,78,39,141,16*61
$GLGSV,3,2,09,79,73,035,30,80,24,344,12,82,23,344,19,83,33,286,26*6F
$GLGSV,3,3,09,84,09,234,*5C
$GNGLL,0419.80362,S,05539.84412,E,045805.00,A,A*64
$GNGRS,045805.00,1,-18.1,-6.0,5.3,2.4,5.7,20.2,-3.2,0.0,,,,*7C
$GNGRS,045805.00,1,3.1,2.7,-0.7,-9.2,,,,,,,,*57
$GNGST,045805.00,49,,,,5.6,5.6,10*67
$GNZDA,045805.00,27,05,2025,00,00*71
$GNGBS,045805.00,5.6,5.6,10.3,,,,*61
b0L]?n
)(<)7|:S5{"4 Ta:R 
Y
hCsDE
N'FOI#|PXRX4S!Tb]>$GNRMC,045806.00,A,0419.80365,S,05539.84416,E,0.503,,270525,,,A*7C
$GNVTG,,T,,M,0.503,N,0.932,K,A*33
$GNGNS,045806.00,0419.80365,S,05539.84416,E,AA,12,0.80,26.6,-47.6,,*6A
$GNGGA,045806.00,0419.80365,S,05539.84416,E,1,12,0.80,26.6,M,-47.6,M,,*40
$GNGSA,A,3,05,24,20,12,13,22,15,18,,,,,1.46,0.80,1.22*1B
$GNGSA,A,3,79,78,82,67,,,,,,,,,1.46,0.80,1.22*1C
$GPGSV,5,1,17,05,63,110,22,11,15,022,10,12,40,007,22,13,18,148,12*7B
$GPGSV,5,2,17,15,29,182,18,18,27,240,31,20,41,055,24,22,13,124,18*70
$GPGSV,5,3,17,23,08,210,,24,58,224,26,25,17,339,19,29,09,309,*70
$GPGSV,5,4,17,36,52,277,34,40,84,353,32,41,58,082,,49,32,274,*7A
$GPGSV,5,5,17,50,10,089,*4A
$GLGSV,3,1,09,67,16,115,18,68,19,165,,69,04,210,,78,39,141,20*6B
$GLGSV,3,2,09,79,73,035,31,80,24,344,15,82,23,344,20,83,33,286,27*62
$GLGSV,3,3,09,84,09,234,*5C
$GNGLL,0419.80365,S,05539.84416,E,045806.00,A,A*64
$GNGRS,045806.00,1,-16.6,-5.9,4.4,3.2,5.1,4.0,-3.7,-0.2,,,,*65
$GNGRS,045806.00,1,1.2,3.3,0.5,-8.1,,,,,,,,*7D
$GNGST,045806.00,49,,,,5.6,5.5,10*67
$GNZDA,045806.00,27,05,2025,00,00*72
$GNGBS,045806.00,5.6,5.5,10.2,,,,*60
b0Lh]?nJN(u) )7|:rS5{"4Ta:R 
Y
hCsDE
N'"O I#IPXRXS!TLbh]>g$GNRMC,045807.00,A,0419.80368,S,05539.84418,E,0.562,,270525,,,A*79
$GNVTG,,T,,M,0.562,N,1.041,K,A*38
$GNGNS,045807.00,0419.80368,S,05539.84418,E,AA,11,0.81,26.7,-47.6,,*6B
$GNGGA,045807.00,0419.80368,S,05539.84418,E,1,11,0.81,26.7,M,-47.6,M,,*41
$GNGSA,A,3,05,24,20,12,22,15,18,,,,,,1.48,0.81,1.24*10
$GNGSA,A,3,79,78,82,67,,,,,,,,,1.48,0.81,1.24*15
$GPGSV,5,1,17,05,63,110,22,11,15,022,13,12,40,007,22,13,18,148,09*72
$GPGSV,5,2,17,15,29,182,22,18,27,240,32,20,41,055,25,22,13,124,18*7B
$GPGSV,5,3,17,23,08,210,,24,58,224,26,25,17,339,20,29,09,309,*7A
$GPGSV,5,4,17,36,52,277,34,40,84,353,30,41,58,082,,49,32,274,*78
$GPGSV,5,5,17,50,10,089,*4A
$GLGSV,3,1,09,67,16,115,18,68,19,165,,69,04,210,,78,39,141,22*69
$GLGSV,3,2,09,79,73,035,32,80,24,344,17,82,23,344,22,83,33,286,27*61
$GLGSV,3,3,09,84,09,234,*5C
$GNGLL,0419.80368,S,05539.84418,E,045807.00,A,A*66
$GNGRS,045807.00,1,-14.6,-4.0,2.5,3.7,20.0,-3.3,-0.2,,,,,*74
$GNGRS,045807.00,1,3.3,2.9,1.9,-8.6,,,,,,,,*7E
$GNGST,045807.00,193855,,,,5.6,5.5,10*68
$GNZDA,045807.00,27,05,2025,00,00*73
$GNGBS,045807.00,5.6,5.5,10.1,,,,*62
b0LP]?nE(re8 )7i|:S5{"4 Ta:R 
Y
hCs1DE
N'AO I#PXRXS!T?gbP]>O$GNRMC,045808.00,A,0419.80360,S,05539.84414,E,0.039,,270525,,,A*79
$GNVTG,,T,,M,0.039,N,0.071,K,A*31
$GNGNS,045808.00,0419.80360,S,05539.84414,E,AA,11,0.81,26.6,-47.6,,*61
$GNGGA,045808.00,0419.80360,S,05539.84414,E,1,11,0.81,26.6,M,-47.6,M,,*4B
$GNGSA,A,3,05,24,20,12,22,15,18,,,,,,1.48,0.81,1.24*10
$GNGSA,A,3,79,78,82,67,,,,,,,,,1.48,0.81,1.24*15
$GPGSV,5,1,17,05,63,110,19,11,15,022,14,12,40,007,25,13,18,148,08*7B
$GPGSV,5,2,17,15,29,182,21,18,27,240,32,20,41,055,26,22,13,124,11*72
$GPGSV,5,3,17,23,08,210,,24,58,224,27,25,17,339,18,29,09,309,*70
$GPGSV,5,4,17,36,52,277,34,40,84,353,32,41,58,082,,49,32,274,*7A
$GPGSV,5,5,17,50,10,089,*4A
$GLGSV,3,1,09,67,16,115,19,68,19,165,,69,04,210,,78,39,141,22*68
$GLGSV,3,2,09,79,73,035,32,80,24,344,18,82,23,344,23,83,33,286,27*6F
$GLGSV,3,3,09,84,09,234,*5C
$GNGLL,0419.80360,S,05539.84414,E,045808.00,A,A*6D
$GNGRS,045808.00,1,-12.1,-2.8,3.6,1.1,20.3,-4.6,0.0,,,,,*5C
$GNGRS,045808.00,1,-0.3,3.2,4.0,-9.8,,,,,,,,*56
$GNGST,045808.00,3434011,,,,5.6,5.4,10*55
$GNZDA,045808.00,27,05,2025,00,00*7C
$GNGBS,045808.00,5.6,5.4,10.0,,,,*6D
b0L8]?l(Y(@_G)7|:3S5{ 4 Ta:R 
Y

hCsDE
N'O I#PXRXqS!%Tb8]>7tQ$GNRMC,045809.00,A,0419.80352,S,05539.84411,E,0.049,,270525,,,A*7B
$GNVTG,,T,,M,0.049,N,0.091,K,A*38
$GNGNS,045809.00,0419.80352,S,05539.84411,E,AA,13,0.75,26.5,-47.6,,*6E
$GNGGA,045809.00,0419.80352,S,05539.84411,E,1,12,0.75,26.5,M,-47.6,M,,*45
$GNGSA,A,3,05,24,20,12,13,22,15,18,,,,,1.48,0.75,1.28*15
$GNGSA,A,3,79,78,82,67,83,,,,,,,,1.48,0.75,1.28*19
$GPGSV,5,1,17,05,63,108,16,11,15,022,11,12,40,007,24,13,18,148,11*71
$GPGSV,5,2,17,15,29,182,22,18,27,240,31,20,41,055,25,22,13,124,11*71
$GPGSV,5,3,17,23,08,210,,24,58,224,26,25,17,339,19,29,09,309,*70
$GPGSV,5,4,17,36,52,277,32,40,84,353,32,41,58,082,,49,32,274,*7C
$GPGSV,5,5,17,50,10,089,*4A
$GLGSV,3,1,09,67,16,115,19,68,19,165,,69,04,210,,78,39,141,21*6B
$GLGSV,3,2,09,79,73,035,32,80,24,344,17,82,23,344,22,83,33,286,27*61
$GLGSV,3,3,09,84,09,234,*5C
$GNGLL,0419.80352,S,05539.84411,E,045809.00,A,A*68
$GNGRS,045809.00,1,-9.8,0.5,2.2,3.2,11.2,-3.3,-7.0,0.1,,,,*4C
$GNGRS,045809.00,1,-0.3,4.0,3.7,-8.0,0.4,,,,,,,*71
$GNGST,045809.00,48,,,,5.5,5.3,10*6C
$GNZDA,045809.00,27,05,2025,00,00*7D
$GNGBS,045809.00,5.5,5.3,10.0,,,,*68
b0L ]?l((+#)7|::S5{ 4 Ta:R 
Y
hCsWDE
N'|O!I#PXRXS!Tb ]>L$GNRMC,045810.00,A,0419.80349,S,05539.84411,E,0.181,,270525,,,A*7C
$GNVTG,,T,,M,0.181,N,0.335,K,A*30
$GNGNS,045810.00,0419.80349,S,05539.84411,E,AA,14,0.70,26.5,-47.6,,*6E
$GNGGA,045810.00,0419.80349,S,05539.84411,E,1,12,0.70,26.5,M,-47.6,M,,*42
$GNGSA,A,3,05,24,20,12,13,11,22,15,18,,,,1.36,0.70,1.17*15
$GNGSA,A,3,79,78,82,67,83,,,,,,,,1.36,0.70,1.17*19
$GPGSV,5,1,17,05,63,108,20,11,15,022,13,12,40,007,20,13,18,148,12*71
$GPGSV,5,2,17,15,29,182,25,18,27,240,30,20,41,055,26,22,13,124,11*74
$GPGSV,5,3,17,23,08,210,,24,58,224,27,25,17,339,17,29,09,309,*7F
$GPGSV,5,4,17,36,52,277,32,40,84,353,32,41,58,082,,49,32,274,*7C
$GPGSV,5,5,17,50,10,089,*4A
$GLGSV,3,1,09,67,16,115,16,68,19,165,,69,04,210,,78,39,141,21*64
$GLGSV,3,2,09,79,73,035,33,80,24,344,17,82,23,344,21,83,33,286,27*63
$GLGSV,3,3,09,84,09,234,*5C
$GNGLL,0419.80349,S,05539.84411,E,045810.00,A,A*6A
$GNGRS,045810.00,1,-5.6,0.6,2.0,3.0,10.7,14.4,19.9,-11.0,2.9,,,*7F
$GNGRS,045810.00,1,1.5,3.8,4.3,-4.2,-5.4,,,,,,,*79
$GNGST,045810.00,3179277,,,,5.5,5.2,10*57
$GNZDA,045810.00,27,05,2025,00,00*75
$GNGBS,045810.00,5.5,5.2,9.9,,,,*50
b0L]?l/W(-)7|:S5{"4 Ta:R 
Y
h+CseDE
N'PO!I#PXRXS!TV`b]>$!$GNRMC,045811.00,A,0419.80340,S,05539.84409,E,0.058,,270525,,,A*78
$GNVTG,,T,,M,0.058,N,0.107,K,A*36
$GNGNS,045811.00,0419.80340,S,05539.84409,E,AA,14,0.70,26.3,-47.6,,*69
$GNGGA,045811.00,0419.80340,S,05539.84409,E,1,12,0.70,26.3,M,-47.6,M,,*45
$GNGSA,A,3,05,24,20,12,13,11,22,15,18,,,,1.36,0.70,1.17*15
$GNGSA,A,3,79,78,82,67,83,,,,,,,,1.36,0.70,1.17*19
$GPGSV,5,1,17,05,63,108,26,11,15,022,14,12,40,007,19,13,18,148,12*7A
$GPGSV,5,2,17,15,29,182,25,18,27,240,31,20,41,055,26,22,13,124,11*75
$GPGSV,5,3,17,23,08,210,,24,58,224,26,25,17,339,18,29,09,309,*71
$GPGSV,5,4,17,36,52,277,34,40,84,353,32,41,58,082,,49,32,274,*7A
$GPGSV,5,5,17,50,10,089,*4A
$GLGSV,3,1,09,67,16,115,16,68,19,165,,69,04,210,,78,39,141,20*65
$GLGSV,3,2,09,79,73,035,33,80,24,344,18,82,23,344,20,83,33,286,26*6C
$GLGSV,3,3,09,84,09,234,*5C
$GNGLL,0419.80340,S,05539.84409,E,045811.00,A,A*6B
$GNGRS,045811.00,1,-7.2,-0.2,-0.2,4.2,10.7,13.7,19.8,-11.4,2.2,,,*73
$GNGRS,045811.00,1,2.3,3.4,5.2,-4.1,-7.4,,,,,,,*70
$GNGST,045811.00,3179277,,,,5.4,5.1,9.8*7A
$GNZDA,045811.00,27,05,2025,00,00*74
$GNGBS,045811.00,5.4,5.1,9.8,,,,*52
b0L^?la(=#m6)7 |:qS5{"4Ta:R 
Y
hCsUDE
N'=O"I#PXRX+S!TNb^>$GNRMC,045812.00,A,0419.80331,S,05539.84406,E,0.184,,270525,,,A*72
$GNVTG,,T,,M,0.184,N,0.341,K,A*36
$GNGNS,045812.00,0419.80331,S,05539.84406,E,AA,14,0.72,26.2,-47.6,,*60
$GNGGA,045812.00,0419.80331,S,05539.84406,E,1,12,0.72,26.2,M,-47.6,M,,*4C
$GNGSA,A,3,05,24,20,12,13,11,22,15,18,,,,1.43,0.72,1.24*15
$GNGSA,A,3,79,78,82,67,83,,,,,,,,1.43,0.72,1.24*19
$GPGSV,5,1,17,05,63,108,28,11,15,022,14,12,40,007,18,13,18,148,12*75
$GPGSV,5,2,17,15,29,182,24,18,27,240,31,20,41,055,26,22,13,124,11*74
$GPGSV,5,3,17,23,08,210,,24,58,224,26,25,17,339,18,29,09,309,*71
$GPGSV,5,4,17,36,52,277,34,40,84,353,31,41,58,082,,49,32,274,*79
$GPGSV,5,5,17,50,10,089,*4A
$GLGSV,3,1,09,67,16,115,18,68,19,165,,69,04,210,,78,39,141,19*61
$GLGSV,3,2,09,79,73,035,34,80,24,344,19,82,23,344,21,83,33,286,27*6A
$GLGSV,3,3,09,84,09,234,*5C
$GNGLL,0419.80331,S,05539.84406,E,045812.00,A,A*61
$GNGRS,045812.00,1,-5.7,-1.4,-2.2,5.7,10.6,6.1,30.9,-14.3,3.1,,,*4F
$GNGRS,045812.00,1,2.3,3.2,8.1,-1.7,-5.5,,,,,,,*7B
$GNGST,045812.00,47,,,,5.3,5.0,9.8*42
$GNZDA,045812.00,27,05,2025,00,00*77
$GNGBS,045812.00,5.3,5.0,9.8,,,,*57
b0L^?l(p9)7(|:S5{!4Ta:R 
Y
hCsDE
N'UO"I#PXRXS!Tb^>$GNRMC,045813.00,A,0419.80315,S,05539.84395,E,0.275,,270525,,,A*75
$GNVTG,,T,,M,0.275,N,0.510,K,A*39
$GNGNS,045813.00,0419.80315,S,05539.84395,E,AA,14,0.70,26.2,-47.6,,*68
$GNGGA,045813.00,0419.80315,S,05539.84395,E,1,12,0.70,26.2,M,-47.6,M,,*44
$GNGSA,A,3,05,24,20,12,13,11,22,15,18,,,,1.36,0.70,1.17*15
$GNGSA,A,3,79,78,82,67,83,,,,,,,,1.36,0.70,1.17*19
$GPGSV,5,1,17,05,63,108,29,11,15,022,14,12,40,007,19,13,18,148,12*75
$GPGSV,5,2,17,15,29,182,21,18,27,240,31,20,41,055,26,22,13,124,11*71
$GPGSV,5,3,17,23,08,210,,24,58,224,25,25,17,339,17,29,09,309,*7D
$GPGSV,5,4,17,36,52,277,33,40,84,353,31,41,58,082,,49,32,274,*7E
$GPGSV,5,5,17,50,10,089,*4A
$GLGSV,3,1,09,67,16,115,18,68,19,165,,69,04,210,,78,39,141,16*6E
$GLGSV,3,2,09,79,73,035,34,80,24,344,17,82,23,344,20,83,33,286,26*64
$GLGSV,3,3,09,84,09,234,*5C
$GNGLL,0419.80315,S,05539.84395,E,045813.00,A,A*6B
$GNGRS,045813.00,1,-3.1,-1.2,-2.2,6.2,10.8,7.9,20.2,-12.5,3.8,,,*4A
$GNGRS,045813.00,1,2.4,3.4,7.8,-2.3,-3.3,,,,,,,*7A
$GNGST,045813.00,3181609,,,,5.3,5.0,9.7*7B
$GNZDA,045813.00,27,05,2025,00,00*76
$GNGBS,045813.00,5.3,5.0,9.7,,,,*59
b0L^?l(U#)7Y|:S5{!4Ta:R 
Y
htCsDE
N'O!I#PXRXS!YTb^>U$GNRMC,045814.00,A,0419.80305,S,05539.84384,E,0.129,,270525,,,A*79
$GNVTG,,T,,M,0.129,N,0.239,K,A*3F
$GNGNS,045814.00,0419.80305,S,05539.84384,E,AA,14,0.72,26.3,-47.6,,*6D
$GNGGA,045814.00,0419.80305,S,05539.84384,E,1,12,0.72,26.3,M,-47.6,M,,*41
$GNGSA,A,3,05,24,20,12,13,11,22,15,18,,,,1.43,0.72,1.24*15
$GNGSA,A,3,79,78,82,67,83,,,,,,,,1.43,0.72,1.24*19
$GPGSV,5,1,17,05,63,108,28,11,15,022,14,12,40,007,21,13,18,148,13*7E
$GPGSV,5,2,17,15,29,182,21,18,27,240,31,20,41,055,24,22,13,124,16*74
$GPGSV,5,3,17,23,08,210,,24,58,224,23,25,17,339,17,29,09,309,*7B
$GPGSV,5,4,17,36,52,277,33,40,84,353,30,41,58,082,,49,32,274,*7F
$GPGSV,5,5,17,50,10,089,*4A
$GLGSV,3,1,09,67,16,115,20,68,19,165,,69,04,210,,78,39,141,16*65
$GLGSV,3,2,09,79,73,035,33,80,24,344,18,82,23,344,19,83,33,286,25*65
$GLGSV,3,3,09,84,09,234,*5C
$GNGLL,0419.80305,S,05539.84384,E,045814.00,A,A*6D
$GNGRS,045814.00,1,-1.2,-0.2,-1.7,6.5,11.1,7.4,20.5,-15.2,5.5,,,*45
$GNGRS,045814.00,1,2.5,1.9,7.5,-3.3,-4.2,,,,,,,*79
$GNGST,045814.00,3299292,,,,5.3,4.9,9.7*78
$GNZDA,045814.00,27,05,2025,00,00*71
$GNGBS,045814.00,5.3,4.9,9.7,,,,*56
b0L^?l(>/)7|:BS5{"4Ta:R 
Y
hDCsDE
N'O!I#PXRXS!}T9b^>$GNRMC,045815.00,A,0419.80316,S,05539.84374,E,0.702,,270525,,,A*7A
$GNVTG,,T,,M,0.702,N,1.301,K,A*3B
$GNGNS,045815.00,0419.80316,S,05539.84374,E,AA,13,0.72,26.9,-47.6,,*6C
$GNGGA,045815.00,0419.80316,S,05539.84374,E,1,12,0.72,26.9,M,-47.6,M,,*47
$GNGSA,A,3,05,24,20,12,13,11,15,18,,,,,1.39,0.72,1.19*16
$GNGSA,A,3,79,78,82,67,83,,,,,,,,1.39,0.72,1.19*1A
$GPGSV,5,1,17,05,63,108,27,11,14,022,16,12,40,007,20,13,18,148,08*79
$GPGSV,5,2,17,15,29,182,19,18,27,240,30,20,41,055,24,22,13,124,*79
$GPGSV,5,3,17,23,08,210,,24,58,224,23,25,17,339,18,29,09,309,*74
$GPGSV,5,4,17,36,52,277,34,40,84,353,30,41,58,082,,49,32,274,*78
$GPGSV,5,5,17,50,10,089,*4A
$GLGSV,3,1,09,67,16,115,21,68,19,165,,69,04,210,,78,39,141,15*67
$GLGSV,3,2,09,79,73,035,33,80,24,344,19,82,23,344,16,83,33,286,25*6B
$GLGSV,3,3,09,84,09,234,*5C
$GNGLL,0419.80316,S,05539.84374,E,045815.00,A,A*61
$GNGRS,045815.00,1,4.2,0.7,0.0,7.5,-68.5,2.4,-16.4,5.6,,,,*53
$GNGRS,045815.00,1,2.3,2.1,6.9,-3.0,-3.9,,,,,,,*77
$GNGST,045815.00,51,,,,5.3,4.9,9.7*45
$GNZDA,045815.00,27,05,2025,00,00*70
$GNGBS,045815.00,5.3,4.9,9.7,,,,*57
b0L^?l))7|:aS5{"4Ta:R 
Y
hCszDE
N'O"I#PXRXS!Tb^>[%$GNRMC,045816.00,A,0419.80322,S,05539.84376,E,0.606,,270525,,,A*79
$GNVTG,,T,,M,0.606,N,1.123,K,A*3C
$GNGNS,045816.00,0419.80322,S,05539.84376,E,AA,13,0.69,26.9,-47.6,,*60
$GNGGA,045816.00,0419.80322,S,05539.84376,E,1,12,0.69,26.9,M,-47.6,M,,*4B
$GNGSA,A,3,05,24,20,12,13,11,15,18,,,,,1.35,0.69,1.16*1F
$GNGSA,A,3,79,78,82,67,83,,,,,,,,1.35,0.69,1.16*13
$GPGSV,5,1,17,05,63,108,26,11,14,022,17,12,41,008,18,13,18,148,11*74
$GPGSV,5,2,17,15,29,182,20,18,27,240,30,20,41,055,27,22,13,124,*70
$GPGSV,5,3,17,23,08,210,,24,58,224,22,25,17,339,20,29,09,309,*7E
$GPGSV,5,4,17,36,52,277,34,40,84,353,31,41,58,082,,49,32,274,*79
$GPGSV,5,5,17,50,10,089,*4A
$GLGSV,3,1,09,67,16,115,21,68,19,165,,69,04,210,,78,39,141,12*60
$GLGSV,3,2,09,79,73,035,34,80,24,344,19,82,23,344,17,83,33,286,25*6D
$GLGSV,3,3,09,84,09,234,*5C
$GNGLL,0419.80322,S,05539.84376,E,045816.00,A,A*67
$GNGRS,045816.00,1,4.4,3.5,1.6,7.7,15.5,2.2,-15.4,6.4,,,,*71
$GNGRS,045816.00,1,2.2,2.5,9.0,-1.3,-2.9,,,,,,,*77
$GNGST,045816.00,108873,,,,5.4,4.9,9.7*40
$GNZDA,045816.00,27,05,2025,00,00*73
$GNGBS,045816.00,5.4,4.9,9.7,,,,*53
b0Lx^?ly)A)7-|a:YS5{"4Ta:R 
Y

hCs.DE
N'4O"I#PXRXS!T!ubx^>w3$GNRMC,045817.00,A,0419.80309,S,05539.84365,E,0.416,,270525,,,A*70
$GNVTG,,T,,M,0.416,N,0.770,K,A*3E
$GNGNS,045817.00,0419.80309,S,05539.84365,E,AA,13,0.72,27.1,-47.6,,*69
$GNGGA,045817.00,0419.80309,S,05539.84365,E,1,12,0.72,27.1,M,-47.6,M,,*42
$GNGSA,A,3,05,24,20,12,13,11,15,18,,,,,1.43,0.72,1.24*15
$GNGSA,A,3,79,78,82,67,83,,,,,,,,1.43,0.72,1.24*19
$GPGSV,5,1,17,05,63,108,25,11,14,022,16,12,41,008,16,13,18,147,09*7E
$GPGSV,5,2,17,15,29,182,21,18,27,240,30,20,41,055,26,22,13,124,15*74
$GPGSV,5,3,17,23,08,210,,24,58,224,22,25,17,339,19,29,09,309,*74
$GPGSV,5,4,17,36,52,277,34,40,84,353,31,41,58,082,,49,32,274,*79
$GPGSV,5,5,17,50,10,089,*4A
$GLGSV,3,1,09,67,16,115,21,68,19,165,,69,04,210,,78,39,141,08*6B
$GLGSV,3,2,09,79,73,035,34,80,24,344,18,82,23,344,18,83,33,286,26*60
$GLGSV,3,3,09,84,09,234,*5C
$GNGLL,0419.80309,S,05539.84365,E,045817.00,A,A*6D
$GNGRS,045817.00,1,8.9,3.5,0.5,9.9,16.0,1.5,-15.9,4.8,,,,*72
$GNGRS,045817.00,1,2.1,3.1,9.5,-2.1,-5.3,,,,,,,*79
$GNGST,045817.00,140359,,,,5.4,4.9,9.7*4E
$GNZDA,045817.00,27,05,2025,00,00*72
$GNGBS,045817.00,5.4,4.9,9.7,,,,*52
b0L`^?lVg)
M)7|:S5{"4 Ta:R 
Y
hcCsDE
N'6O"I#PXRXdS!Tnb`^>_$GNRMC,045818.00,A,0419.80314,S,05539.84373,E,0.744,,270525,,,A*70
$GNVTG,,T,,M,0.744,N,1.378,K,A*37
$GNGNS,045818.00,0419.80314,S,05539.84373,E,AA,13,0.72,27.1,-47.6,,*6D
$GNGGA,045818.00,0419.80314,S,05539.84373,E,1,12,0.72,27.1,M,-47.6,M,,*46
$GNGSA,A,3,05,24,20,12,13,11,15,18,,,,,1.43,0.72,1.24*15
$GNGSA,A,3,79,78,82,67,83,,,,,,,,1.43,0.72,1.24*19
$GPGSV,5,1,17,05,63,108,22,11,14,022,13,12,41,008,15,13,18,147,10*77
$GPGSV,5,2,17,15,29,182,19,18,27,240,30,20,41,055,24,22,13,124,15*7D
$GPGSV,5,3,17,23,08,210,,24,58,224,24,25,17,339,20,29,09,309,*78
$GPGSV,5,4,17,36,52,277,34,40,84,353,32,41,58,082,,49,32,274,*7A
$GPGSV,5,5,17,50,10,089,*4A
$GLGSV,3,1,09,67,16,115,19,68,19,165,,69,04,210,,78,39,141,11*68
$GLGSV,3,2,09,79,73,035,34,80,24,344,17,82,23,344,20,83,33,286,26*64
$GLGSV,3,3,09,84,09,234,*5C
$GNGLL,0419.80314,S,05539.84373,E,045818.00,A,A*69
$GNGRS,045818.00,1,11.1,2.4,-0.3,9.8,-16.2,-1.5,-15.6,3.3,,,,*66
$GNGRS,045818.00,1,1.8,-17.4,8.7,-1.1,-5.3,,,,,,,*61
$GNGST,045818.00,57,,,,5.4,4.9,9.7*49
$GNZDA,045818.00,27,05,2025,00,00*7D
$GNGBS,045818.00,5.4,4.9,9.7,,,,*5D
b0LH^?lIm)'G)7|$:8S5{!4Ta:R 
Y
h$Cs<DE
N'?O"I#oPXRXS!TybH^>G]$GNRMC,045819.00,A,0419.80320,S,05539.84365,E,0.365,,270525,,,A*76
$GNVTG,,T,,M,0.365,N,0.676,K,A*3A
$GNGNS,045819.00,0419.80320,S,05539.84365,E,AA,13,0.69,27.5,-47.6,,*62
$GNGGA,045819.00,0419.80320,S,05539.84365,E,1,12,0.69,27.5,M,-47.6,M,,*49
$GNGSA,A,3,05,24,20,12,13,11,15,18,,,,,1.35,0.69,1.16*1F
$GNGSA,A,3,79,78,82,67,83,,,,,,,,1.35,0.69,1.16*13
$GPGSV,5,1,17,05,63,108,20,11,14,022,15,12,41,008,16,13,18,147,12*72
$GPGSV,5,2,17,15,29,182,19,18,27,240,30,20,41,055,20,22,13,124,16*7A
$GPGSV,5,3,17,23,08,210,,24,58,224,25,25,17,339,21,29,09,309,*78
$GPGSV,5,4,17,36,52,277,33,40,84,353,31,41,58,082,,49,32,274,*7E
$GPGSV,5,5,17,50,10,089,*4A
$GLGSV,3,1,09,67,16,115,19,68,19,165,,69,04,210,,78,39,141,08*60
$GLGSV,3,2,09,79,73,035,34,80,24,344,17,82,23,344,20,83,33,286,25*67
$GLGSV,3,3,09,84,09,234,*5C
$GNGLL,0419.80320,S,05539.84365,E,045819.00,A,A*68
$GNGRS,045819.00,1,11.0,0.6,-1.0,8.1,16.1,-1.5,-16.5,6.5,,,,*41
$GNGRS,045819.00,1,1.1,-1.9,7.2,-2.0,-2.7,,,,,,,*58
$GNGST,045819.00,4496177,,,,5.4,4.9,9.7*74
$GNZDA,045819.00,27,05,2025,00,00*7C
$GNGBS,045819.00,5.4,4.9,9.7,,,,*5C
b0L0 ^?l5))7|:S5{!4Ta:R 
Y
hCsfDE
N'mO"I#QPXRXS!wT/b0 ^>/$GNRMC,045820.00,A,0419.80320,S,05539.84362,E,0.250,,270525,,,A*7C
$GNVTG,,T,,M,0.250,N,0.464,K,A*3C
$GNGNS,045820.00,0419.80320,S,05539.84362,E,AA,13,0.69,27.9,-47.6,,*63
$GNGGA,045820.00,0419.80320,S,05539.84362,E,1,12,0.69,27.9,M,-47.6,M,,*48
$GNGSA,A,3,05,24,20,12,13,11,15,18,,,,,1.35,0.69,1.16*1F
$GNGSA,A,3,79,78,82,67,83,,,,,,,,1.35,0.69,1.16*13
$GPGSV,5,1,17,05,63,108,24,11,14,022,15,12,41,008,17,13,18,147,12*77
$GPGSV,5,2,17,15,29,182,18,18,27,240,29,20,41,055,17,22,13,124,17*76
$GPGSV,5,3,17,23,08,210,,24,58,224,25,25,17,339,21,29,09,309,*78
$GPGSV,5,4,17,36,52,277,33,40,84,353,30,41,58,082,,49,32,274,*7F
$GPGSV,5,5,17,50,10,089,*4A
$GLGSV,3,1,09,67,16,115,20,68,19,165,,69,04,210,,78,39,141,09*6B
$GLGSV,3,2,09,79,73,035,34,80,24,344,17,82,23,344,19,83,33,286,24*6C
$GLGSV,3,3,09,84,09,234,*5C
$GNGLL,0419.80320,S,05539.84362,E,045820.00,A,A*65
$GNGRS,045820.00,1,8.2,-0.4,1.6,4.9,16.7,-0.3,-15.9,1.7,,,,*7A
$GNGRS,045820.00,1,0.8,-1.5,7.0,-1.5,-3.9,,,,,,,*5D
$GNGST,045820.00,4496177,,,,5.5,4.9,9.8*70
$GNZDA,045820.00,27,05,2025,00,00*76
$GNGBS,045820.00,5.5,4.9,9.8,,,,*58
b0L$^?l)X)7|:US5{"4Ta:R 
Y
h5CsDE
N'vO"I# PXRXS!Tb$^>-$GNRMC,045821.00,A,0419.80318,S,05539.84359,E,0.075,,270525,,,A*7B
$GNVTG,,T,,M,0.075,N,0.138,K,A*35
$GNGNS,045821.00,0419.80318,S,05539.84359,E,AA,14,0.70,28.1,-47.6,,*69
$GNGGA,045821.00,0419.80318,S,05539.84359,E,1,12,0.70,28.1,M,-47.6,M,,*45
$GNGSA,A,3,05,24,20,12,13,11,22,15,18,,,,1.34,0.70,1.14*14
$GNGSA,A,3,79,78,82,67,83,,,,,,,,1.34,0.70,1.14*18
$GPGSV,5,1,17,05,63,108,26,11,14,022,15,12,41,008,18,13,18,147,12*7A
$GPGSV,5,2,17,15,29,182,15,18,27,240,29,20,41,055,15,22,13,124,16*78
$GPGSV,5,3,17,23,08,210,,24,58,224,25,25,17,339,21,29,09,309,*78
$GPGSV,5,4,17,36,52,277,34,40,84,353,30,41,58,082,,49,32,274,*78
$GPGSV,5,5,17,50,10,089,*4A
$GLGSV,3,1,09,67,16,115,20,68,19,165,,69,04,210,,78,39,141,08*6A
$GLGSV,3,2,09,79,73,035,34,80,24,344,17,82,23,344,19,83,33,286,25*6D
$GLGSV,3,3,09,84,09,234,*5C
$GNGLL,0419.80318,S,05539.84359,E,045821.00,A,A*67
$GNGRS,045821.00,1,4.8,-1.7,2.7,5.1,-52.2,-2.7,16.7,-15.4,3.4,,,*48
$GNGRS,045821.00,1,0.3,-37.2,4.6,-1.2,-5.5,,,,,,,*6D
$GNGST,045821.00,59,,,,5.5,4.9,9.8*43
$GNZDA,045821.00,27,05,2025,00,00*77
$GNGBS,045821.00,5.5,4.9,9.8,,,,*59
b0L(^?lZ)k)7E|G:S5{!4Ta:R 
Y
hCsDE
N'O"I#PXRXS!&Tb(^>j$GNRMC,045822.00,A,0419.80321,S,05539.84365,E,0.338,,270525,,,A*77
$GNVTG,,T,,M,0.338,N,0.626,K,A*37
$GNGNS,045822.00,0419.80321,S,05539.84365,E,AA,14,0.68,27.8,-47.6,,*60
$GNGGA,045822.00,0419.80321,S,05539.84365,E,1,12,0.68,27.8,M,-47.6,M,,*4C
$GNGSA,A,3,05,24,20,12,13,11,22,15,18,,,,1.31,0.68,1.12*1E
$GNGSA,A,3,79,78,82,67,83,,,,,,,,1.31,0.68,1.12*12
$GPGSV,5,1,17,05,63,108,25,11,14,022,14,12,41,008,18,13,18,147,12*78
$GPGSV,5,2,17,15,29,182,14,18,28,240,29,20,41,055,13,22,13,124,16*70
$GPGSV,5,3,17,23,08,210,,24,58,224,25,25,17,339,21,29,09,309,*78
$GPGSV,5,4,17,36,52,277,33,40,84,353,31,41,58,082,,49,32,274,*7E
$GPGSV,5,5,17,50,10,089,*4A
$GLGSV,3,1,09,67,16,115,20,68,19,165,,69,04,210,,78,39,141,09*6B
$GLGSV,3,2,09,79,73,035,34,80,24,344,17,82,23,344,21,83,33,286,25*66
$GLGSV,3,3,09,84,09,234,*5C
$GNGLL,0419.80321,S,05539.84365,E,045822.00,A,A*61
$GNGRS,045822.00,1,4.2,0.1,5.8,6.2,15.2,-4.2,13.5,-15.2,7.1,,,*4E
$GNGRS,045822.00,1,0.3,-2.5,4.2,0.3,-4.7,,,,,,,*75
$GNGST,045822.00,4343719,,,,5.6,4.9,9.8*70
$GNZDA,045822.00,27,05,2025,00,00*74
$GNGBS,045822.00,5.6,4.9,9.8,,,,*59
b0L+^?l)M)7?|U:S5{!4Ta:R 
Y
hCsDE
N'O!I#PXRXS!TK"b+^>A$GNRMC,045823.00,A,0419.80298,S,05539.84345,E,1.208,,270525,,,A*74
$GNVTG,,T,,M,1.208,N,2.237,K,A*32
$GNGNS,045823.00,0419.80298,S,05539.84345,E,AA,14,0.68,27.6,-47.6,,*6E
$GNGGA,045823.00,0419.80298,S,05539.84345,E,1,12,0.68,27.6,M,-47.6,M,,*42
$GNGSA,A,3,05,24,20,12,13,11,22,15,18,,,,1.31,0.68,1.12*1E
$GNGSA,A,3,79,78,82,67,83,,,,,,,,1.31,0.68,1.12*12
$GPGSV,5,1,17,05,63,108,22,11,14,022,15,12,41,008,16,13,18,147,12*70
$GPGSV,5,2,17,15,29,182,16,18,28,240,29,20,41,055,17,22,13,124,17*77
$GPGSV,5,3,17,23,08,210,,24,58,224,26,25,17,339,19,29,09,309,*70
$GPGSV,5,4,17,36,52,277,33,40,84,353,31,41,58,082,,49,32,274,*7E
$GPGSV,5,5,17,50,10,089,*4A
$GLGSV,3,1,09,67,16,115,20,68,19,165,,69,04,210,,78,39,141,08*6A
$GLGSV,3,2,09,79,73,035,33,80,24,344,16,82,23,344,21,83,33,286,23*66
$GLGSV,3,3,09,84,09,234,*5C
$GNGLL,0419.80298,S,05539.84345,E,045823.00,A,A*61
$GNGRS,045823.00,1,4.1,2.0,5.7,3.3,15.2,-5.5,13.6,-15.8,9.9,,,*4D
$GNGRS,045823.00,1,-0.3,-2.4,3.9,1.3,-5.2,,,,,,,*51
$GNGST,045823.00,4343719,,,,5.6,4.9,9.8*71
$GNZDA,045823.00,27,05,2025,00,00*75
$GNGBS,045823.00,5.6,4.9,9.8,,,,*58
b0L/^?l)H)7S|:S5{!4Ta:R 
Y
h{CsVDE
N'\O!I#PXRXFS!Tb/^>S$GNRMC,045824.00,A,0419.80307,S,05539.84329,E,0.282,,270525,,,A*7D
$GNVTG,,T,,M,0.282,N,0.523,K,A*31
$GNGNS,045824.00,0419.80307,S,05539.84329,E,AA,14,0.70,28.2,-47.6,,*66
$GNGGA,045824.00,0419.80307,S,05539.84329,E,1,12,0.70,28.2,M,-47.6,M,,*4A
$GNGSA,A,3,05,24,20,12,13,11,22,15,18,,,,1.34,0.70,1.14*14
$GNGSA,A,3,79,78,82,67,83,,,,,,,,1.34,0.70,1.14*18
$GPGSV,5,1,17,05,63,108,20,11,14,022,16,12,41,008,14,13,18,147,12*73
$GPGSV,5,2,17,15,29,182,15,18,28,240,30,20,41,055,19,22,13,124,16*73
$GPGSV,5,3,17,23,08,210,,24,58,224,26,25,17,339,18,29,09,309,*71
$GPGSV,5,4,17,36,52,277,33,40,84,353,30,41,58,082,,49,32,274,*7F
$GPGSV,5,5,17,50,10,089,*4A
$GLGSV,3,1,09,67,16,115,18,68,19,165,,69,04,210,,78,39,141,12*6A
$GLGSV,3,2,09,79,73,035,33,80,24,344,16,82,23,344,21,83,33,286,22*67
$GLGSV,3,3,09,84,09,234,*5C
$GNGLL,0419.80307,S,05539.84329,E,045824.00,A,A*6B
$GNGRS,045824.00,1,7.4,1.5,3.4,2.2,-97.0,-5.2,12.6,-15.3,5.8,,,*6A
$GNGRS,045824.00,1,-0.2,0.9,5.8,0.9,-3.8,,,,,,,*75
$GNGST,045824.00,57,,,,5.7,5.0,9.8*42
$GNZDA,045824.00,27,05,2025,00,00*72
$GNGBS,045824.00,5.7,5.0,9.8,,,,*56
b0L3^?l)T)7|:S5{"4V^:R 
Y
hwCsDE
N'O!I#PXRXS!%T.nb3^>$GNRMC,045825.00,A,0419.80310,S,05539.84327,E,0.130,,270525,,,A*7E
$GNVTG,,T,,M,0.130,N,0.241,K,A*38
$GNGNS,045825.00,0419.80310,S,05539.84327,E,AA,14,0.68,28.1,-47.6,,*65
$GNGGA,045825.00,0419.80310,S,05539.84327,E,1,12,0.68,28.1,M,-47.6,M,,*49
$GNGSA,A,3,05,24,20,12,13,11,22,15,18,,,,1.31,0.68,1.12*1E
$GNGSA,A,3,79,78,82,67,83,,,,,,,,1.31,0.68,1.12*12
$GPGSV,5,1,17,05,63,108,18,11,14,022,16,12,41,008,18,13,18,147,11*77
$GPGSV,5,2,17,15,29,182,15,18,28,240,29,20,41,055,17,22,13,124,16*75
$GPGSV,5,3,17,23,08,210,,24,58,224,22,25,17,339,15,29,09,309,*78
$GPGSV,5,4,17,36,52,277,34,40,86,350,29,41,58,082,,49,32,274,*71
$GPGSV,5,5,17,50,10,089,*4A
$GLGSV,3,1,09,67,16,115,19,68,19,165,,69,04,210,,78,39,141,15*6C
$GLGSV,3,2,09,79,73,035,33,80,24,344,16,82,23,344,21,83,33,286,22*67
$GLGSV,3,3,09,84,09,234,*5C
$GNGLL,0419.80310,S,05539.84327,E,045825.00,A,A*62
$GNGRS,045825.00,1,7.9,2.4,2.6,3.4,15.5,-6.4,15.3,-18.1,6.6,,,*47
$GNGRS,045825.00,1,0.0,-2.3,3.9,1.8,-4.8,,,,,,,*7E
$GNGST,045825.00,3072673,,,,5.8,5.0,9.8*7A
$GNZDA,045825.00,27,05,2025,00,00*73
$GNGBS,045825.00,5.8,5.0,9.8,,,,*58
b0L7^?l)9)74|]:IS5{"4V^:R 
Y
hCstDE
N'6O"I#PXRXOS!:TXb7^>#$GNRMC,045826.00,A,0419.80295,S,05539.84309,E,0.933,,270525,,,A*76
$GNVTG,,T,,M,0.933,N,1.728,K,A*38
$GNGNS,045826.00,0419.80295,S,05539.84309,E,AA,14,0.68,28.3,-47.6,,*64
$GNGGA,045826.00,0419.80295,S,05539.84309,E,1,12,0.68,28.3,M,-47.6,M,,*48
$GNGSA,A,3,05,24,20,12,13,11,22,15,18,,,,1.31,0.68,1.12*1E
$GNGSA,A,3,79,78,82,67,83,,,,,,,,1.31,0.68,1.12*12
$GPGSV,5,1,17,05,63,108,22,11,14,022,16,12,41,008,18,13,18,147,11*7E
$GPGSV,5,2,17,15,29,182,13,18,28,240,29,20,41,055,15,22,13,124,16*71
$GPGSV,5,3,17,23,08,210,,24,58,224,22,25,17,339,14,29,09,309,*79
$GPGSV,5,4,17,36,52,277,34,40,86,350,30,41,58,082,,49,32,274,*79
$GPGSV,5,5,17,50,10,089,*4A
$GLGSV,3,1,09,67,16,115,19,68,19,165,,69,04,210,,78,39,141,07*6F
$GLGSV,3,2,09,79,73,035,34,80,24,344,18,82,23,344,19,83,33,286,22*65
$GLGSV,3,3,09,84,09,234,*5C
$GNGLL,0419.80295,S,05539.84309,E,045826.00,A,A*61
$GNGRS,045826.00,1,7.0,3.3,3.1,2.2,15.9,-8.4,18.9,-20.2,5.0,,,*42
$GNGRS,045826.00,1,0.2,-2.0,3.4,3.7,-4.5,,,,,,,*71
$GNGST,045826.00,3072954,,,,5.9,5.1,9.8*73
$GNZDA,045826.00,27,05,2025,00,00*70
$GNGBS,045826.00,5.9,5.1,9.8,,,,*5B
b0L;^?l)()7|c9S5{!4V^:R 
Y
hlCsDE
N'O"I# PXRX@S!Tb;^>$GNRMC,045827.00,A,0419.80299,S,05539.84302,E,0.255,,270525,,,A*7B
$GNVTG,,T,,M,0.255,N,0.472,K,A*3E
$GNGNS,045827.00,0419.80299,S,05539.84302,E,AA,14,0.68,28.3,-47.6,,*62
$GNGGA,045827.00,0419.80299,S,05539.84302,E,1,12,0.68,28.3,M,-47.6,M,,*4E
$GNGSA,A,3,05,24,20,12,13,11,22,15,18,,,,1.31,0.68,1.12*1E
$GNGSA,A,3,79,78,82,67,83,,,,,,,,1.31,0.68,1.12*12
$GPGSV,5,1,17,05,63,108,24,11,14,022,15,12,41,008,14,13,18,147,11*77
$GPGSV,5,2,17,15,29,182,09,18,28,240,29,20,41,055,15,22,13,124,14*78
$GPGSV,5,3,17,23,08,210,,24,57,223,30,25,17,339,17,29,09,309,*71
$GPGSV,5,4,17,36,52,277,33,40,86,350,30,41,58,082,,49,32,274,*7E
$GPGSV,5,5,17,50,10,089,*4A
$GLGSV,3,1,09,67,16,115,20,68,19,165,,69,04,210,,78,39,141,15*66
$GLGSV,3,2,09,79,73,035,34,80,24,344,18,82,23,344,16,83,33,286,21*69
$GLGSV,3,3,09,84,09,234,*5C
