$GNRMC,103740.00,A,0419.92096,S,05539.85408,E,0.592,,020625,,,A*7C
$GNVTG,,T,,M,0.592,N,1.095,K,A*3E
$GNGGA,103740.00,0419.92096,S,05539.85408,E,1,09,1.35,24.8,M,-47.6,M,,*45
$GNGSA,A,3,32,29,28,18,25,,,,,,,,2.70,1.35,2.33*12
$GNGSA,A,3,69,68,81,82,,,,,,,,,2.70,1.35,2.33*1E
$GPGSV,5,1,17,10,26,341,14,16,24,269,12,18,28,053,09,23,09,020,*74
$GPGSV,5,2,17,24,02,065,12,25,08,142,09,26,31,237,,27,22,326,*7F
$GPGSV,5,3,17,28,34,177,29,29,35,140,24,31,19,204,,32,85,311,25*74
$GPGSV,5,4,17,36,52,277,,40,84,353,33,41,58,082,,49,32,274,*7C
$GPGSV,5,5,17,50,10,089,*4A
$GLGSV,3,1,09,67,02,019,08,68,44,355,19,69,60,262,23,70,06,214,*60
$GLGSV,3,2,09,79,14,168,,80,15,220,,81,29,108,21,82,40,049,17*68
$GLGSV,3,3,09,83,15,357,*52
$GNGLL,0419.92096,S,05539.85408,E,103740.00,A,A*68
$GNRMC,103741.00,A,0419.92081,S,05539.85450,E,0.449,,020625,,,A*71
$GNVTG,,T,,M,0.449,N,0.832,K,A*3D
$GNGGA,103741.00,0419.92081,S,05539.85450,E,1,09,1.35,25.0,M,-47.6,M,,*46
$GNGSA,A,3,32,29,28,18,25,,,,,,,,2.69,1.35,2.33*1A
$GNGSA,A,3,69,68,81,82,,,,,,,,,2.69,1.35,2.33*16
$GPGSV,5,1,17,10,26,341,09,16,24,269,12,18,28,053,17,23,09,020,*77
$GPGSV,5,2,17,24,02,065,10,25,08,142,10,26,31,237,,27,22,326,*75
$GPGSV,5,3,17,28,34,177,32,29,35,140,21,31,19,204,,32,85,311,27*79
$GPGSV,5,4,17,36,52,277,,40,84,353,32,41,58,082,,49,32,274,*7D
$GPGSV,5,5,17,50,10,089,*4A
$GLGSV,3,1,09,67,02,019,10,68,44,355,17,69,60,262,24,70,06,214,*60
$GLGSV,3,2,09,79,14,168,,80,15,220,,81,29,108,21,82,40,049,16*69
$GLGSV,3,3,09,83,15,357,*52
$GNGLL,0419.92081,S,05539.85450,E,103741.00,A,A*62
$GNRMC,103742.00,A,0419.92069,S,05539.85434,E,0.275,,020625,,,A*7F
$GNVTG,,T,,M,0.275,N,0.510,K,A*39
$GNGGA,103742.00,0419.92069,S,05539.85434,E,1,08,1.47,24.9,M,-47.6,M,,*4D
$GNGSA,A,3,32,29,28,18,,,,,,,,,3.58,1.47,3.27*1F
$GNGSA,A,3,69,68,81,82,,,,,,,,,3.58,1.47,3.27*14
$GPGSV,5,1,17,10,26,341,08,16,24,269,08,18,28,053,22,23,09,020,*7B
$GPGSV,5,2,17,24,02,065,05,25,08,142,06,26,31,237,,27,22,326,*76
$GPGSV,5,3,17,28,34,177,33,29,35,140,19,31,19,204,,32,85,311,30*75
$GPGSV,5,4,17,36,52,277,,40,84,353,34,41,58,082,,49,32,274,*7B
$GPGSV,5,5,17,50,10,089,*4A
$GLGSV,3,1,09,67,02,019,08,68,44,355,16,69,60,262,24,70,06,214,*68
$GLGSV,3,2,09,79,14,168,,80,15,220,,81,29,108,21,82,40,049,13*6C
$GLGSV,3,3,09,83,15,357,*52
$GNGLL,0419.92069,S,05539.85434,E,103742.00,A,A*65
$GNRMC,103743.00,A,0419.92051,S,05539.85407,E,0.275,,020625,,,A*75
$GNVTG,,T,,M,0.275,N,0.508,K,A*30
$GNGGA,103743.00,0419.92051,S,05539.85407,E,1,10,1.07,24.8,M,-47.6,M,,*4B
$GNGSA,A,3,32,29,28,10,18,25,,,,,,,2.42,1.07,2.17*15
$GNGSA,A,3,69,68,81,82,,,,,,,,,2.42,1.07,2.17*18
$GPGSV,5,1,17,10,26,341,13,16,24,269,08,18,28,053,16,23,09,020,*76
$GPGSV,5,2,17,24,02,065,09,25,08,142,08,26,31,237,,27,22,326,*74
$GPGSV,5,3,17,28,34,177,34,29,35,140,22,31,19,204,,32,85,311,32*78
$GPGSV,5,4,17,36,52,277,,40,84,353,37,41,58,082,,49,32,274,*78
$GPGSV,5,5,17,50,10,089,*4A
$GLGSV,3,1,09,67,02,019,10,68,44,355,14,69,60,262,25,70,06,214,*62
$GLGSV,3,2,09,79,14,168,,80,15,220,,81,29,108,22,82,40,049,18*64
$GLGSV,3,3,09,83,15,357,*52
$GNGLL,0419.92051,S,05539.85407,E,103743.00,A,A*6F
$GNRMC,103744.00,A,0419.92039,S,05539.85359,E,0.940,,020625,,,A*7D
$GNVTG,,T,,M,0.940,N,1.741,K,A*33
$GNGGA,103744.00,0419.92039,S,05539.85359,E,1,10,1.07,24.7,M,-47.6,M,,*41
$GNGSA,A,3,32,29,28,10,18,25,,,,,,,2.42,1.07,2.17*15
$GNGSA,A,3,69,68,81,82,,,,,,,,,2.42,1.07,2.17*18
$GPGSV,5,1,17,10,26,341,08,16,24,269,08,18,28,053,19,23,09,020,*73
$GPGSV,5,2,17,24,02,065,07,25,08,142,10,26,31,237,,27,22,326,*73
$GPGSV,5,3,17,28,34,177,33,29,35,140,24,31,19,204,,32,85,311,32*79
$GPGSV,5,4,17,36,52,277,,40,84,353,37,41,58,082,,49,32,274,*78
$GPGSV,5,5,17,50,10,089,*4A
$GLGSV,3,1,09,67,02,019,09,68,44,355,13,69,60,262,26,70,06,214,*6E
$GLGSV,3,2,09,79,14,168,,80,15,220,,81,29,108,22,82,40,049,18*64
$GLGSV,3,3,09,83,15,357,*52
$GNGLL,0419.92039,S,05539.85359,E,103744.00,A,A*6A
$GNRMC,103745.00,A,0419.92024,S,05539.85382,E,0.263,,020625,,,A*7C
$GNVTG,,T,,M,0.263,N,0.487,K,A*31
$GNGGA,103745.00,0419.92024,S,05539.85382,E,1,10,1.07,24.8,M,-47.6,M,,*45
$GNGSA,A,3,32,29,28,10,18,25,,,,,,,2.42,1.07,2.17*15
$GNGSA,A,3,69,68,81,82,,,,,,,,,2.42,1.07,2.17*18
$GPGSV,5,1,17,10,26,341,11,16,24,269,09,18,28,053,19,23,09,020,*7A
$GPGSV,5,2,17,24,02,065,07,25,08,142,10,26,31,237,,27,22,326,*73
$GPGSV,5,3,17,28,34,177,33,29,35,140,26,31,19,204,,32,85,311,33*7A
$GPGSV,5,4,17,36,52,277,,40,84,353,37,41,58,082,,49,32,274,*78
$GPGSV,5,5,17,50,10,089,*4A
$GLGSV,3,1,09,67,02,019,11,68,44,355,18,69,60,262,26,70,06,214,*6C
$GLGSV,3,2,09,79,14,168,,80,15,220,,81,29,108,21,82,40,049,20*6C
$GLGSV,3,3,09,83,15,357,*52
$GNGLL,0419.92024,S,05539.85382,E,103745.00,A,A*61
$GNRMC,103746.00,A,0419.92012,S,05539.85370,E,0.413,,020625,,,A*76
$GNVTG,,T,,M,0.413,N,0.764,K,A*3E
$GNGGA,103746.00,0419.92012,S,05539.85370,E,1,10,1.07,24.9,M,-47.6,M,,*4F
$GNGSA,A,3,32,29,28,10,18,25,,,,,,,2.42,1.07,2.17*15
$GNGSA,A,3,69,68,81,82,,,,,,,,,2.42,1.07,2.17*18
$GPGSV,5,1,17,10,26,341,19,16,24,269,,18,28,053,19,23,09,020,*7B
$GPGSV,5,2,17,24,02,065,10,25,08,142,09,26,31,237,,27,22,326,*7D
$GPGSV,5,3,17,28,34,177,34,29,35,140,26,31,19,204,,32,85,311,32*7C
$GPGSV,5,4,17,36,52,277,,40,84,353,39,41,58,082,,49,32,274,*76
$GPGSV,5,5,17,50,10,089,*4A
$GLGSV,3,1,09,67,02,019,12,68,44,355,19,69,60,262,25,70,06,214,*6D
$GLGSV,3,2,09,79,14,168,,80,15,220,,81,29,108,21,82,40,049,19*66
$GLGSV,3,3,09,83,15,357,*52
$GNGLL,0419.92012,S,05539.85370,E,103746.00,A,A*6A
$GNRMC,103747.00,A,0419.91996,S,05539.85367,E,0.248,,020625,,,A*7F
$GNVTG,,T,,M,0.248,N,0.459,K,A*3B
$GNGGA,103747.00,0419.91996,S,05539.85367,E,1,10,1.07,24.8,M,-47.6,M,,*4F
$GNGSA,A,3,32,29,28,10,18,25,,,,,,,2.42,1.07,2.17*15
$GNGSA,A,3,69,68,81,82,,,,,,,,,2.42,1.07,2.17*18
$GPGSV,5,1,17,10,26,341,10,16,24,269,,18,28,053,19,23,09,020,*72
$GPGSV,5,2,17,24,02,065,10,25,08,142,09,26,31,237,20,27,22,326,*7F
$GPGSV,5,3,17,28,34,177,34,29,35,140,26,31,19,204,,32,85,311,33*7D
$GPGSV,5,4,17,36,52,277,32,40,84,353,36,41,58,082,,49,32,274,*78
$GPGSV,5,5,17,50,10,089,*4A
$GLGSV,3,1,09,67,02,019,13,68,44,355,21,69,60,262,31,70,06,214,*62
$GLGSV,3,2,09,79,14,168,,80,15,220,,81,29,108,24,82,40,049,17*6D
$GLGSV,3,3,09,83,15,357,*52
$GNGLL,0419.91996,S,05539.85367,E,103747.00,A,A*6B
$GNRMC,103748.00,A,0419.91980,S,05539.85353,E,0.168,,020625,,,A*71
$GNVTG,,T,,M,0.168,N,0.311,K,A*31
$GNGGA,103748.00,0419.91980,S,05539.85353,E,1,10,1.03,24.3,M,-47.6,M,,*4F
$GNGSA,A,3,32,29,28,10,18,25,,,,,,,1.97,1.03,1.68*11
$GNGSA,A,3,69,68,81,82,,,,,,,,,1.97,1.03,1.68*1C
$GPGSV,5,1,17,10,26,341,12,16,24,269,13,18,28,053,16,23,09,020,*7D
$GPGSV,5,2,17,24,02,065,10,25,08,142,11,26,31,237,18,27,22,326,*7D
$GPGSV,5,3,17,28,34,177,29,29,35,140,24,31,19,204,,32,85,311,27*76
$GPGSV,5,4,17,36,52,277,30,40,84,353,28,41,58,082,,49,32,274,*75
$GPGSV,5,5,17,50,10,089,*4A
$GLGSV,3,1,09,67,02,019,08,68,44,355,21,69,60,262,23,70,06,214,*6B
$GLGSV,3,2,09,79,14,168,,80,15,220,,81,29,108,24,82,40,049,16*6C
$GLGSV,3,3,09,83,15,357,*52
$GNGLL,0419.91980,S,05539.85353,E,103748.00,A,A*64
$GNRMC,103749.00,A,0419.91965,S,05539.85359,E,0.319,,020625,,,A*75
$GNVTG,,T,,M,0.319,N,0.591,K,A*3B
$GNGGA,103749.00,0419.91965,S,05539.85359,E,1,09,1.13,24.7,M,-47.6,M,,*42
$GNGSA,A,3,32,29,28,10,25,,,,,,,,2.02,1.13,1.68*16
$GNGSA,A,3,69,68,81,82,,,,,,,,,2.02,1.13,1.68*12
$GPGSV,5,1,17,10,26,341,12,16,24,269,11,18,28,053,,23,09,020,*78
$GPGSV,5,2,17,24,02,065,09,25,08,142,12,26,31,237,14,27,22,326,*7A
$GPGSV,5,3,17,28,34,177,33,29,35,140,21,31,19,204,,32,85,311,25*7A
$GPGSV,5,4,17,36,52,277,28,40,84,353,,41,58,082,,49,32,274,*76
$GPGSV,5,5,17,50,10,089,*4A
$GLGSV,3,1,09,67,02,019,06,68,44,355,19,69,60,262,22,70,06,214,*6F
$GLGSV,3,2,09,79,14,168,,80,15,220,,81,29,108,23,82,40,049,14*69
$GLGSV,3,3,09,83,15,357,*52
$GNGLL,0419.91965,S,05539.85359,E,103749.00,A,A*64
$GNRMC,103750.00,A,0419.91953,S,05539.85355,E,0.527,,020625,,,A*7F
$GNVTG,,T,,M,0.527,N,0.976,K,A*35
$GNGGA,103750.00,0419.91953,S,05539.85355,E,1,09,1.13,24.6,M,-47.6,M,,*42
$GNGSA,A,3,32,29,28,10,25,,,,,,,,2.02,1.13,1.68*16
$GNGSA,A,3,69,68,81,82,,,,,,,,,2.02,1.13,1.68*12
$GPGSV,5,1,17,10,26,341,16,16,24,269,08,18,28,053,,23,09,020,*74
$GPGSV,5,2,17,24,02,065,09,25,08,142,07,26,31,237,10,27,22,326,*7A
$GPGSV,5,3,17,28,34,177,32,29,35,140,19,31,19,204,,32,85,311,31*75
$GPGSV,5,4,17,36,52,277,30,40,84,353,,41,58,082,,49,32,274,*7F
$GPGSV,5,5,17,50,10,089,*4A
$GLGSV,3,1,09,67,02,019,08,68,44,355,19,69,60,262,22,70,06,214,*61
$GLGSV,3,2,09,79,14,168,,80,15,220,,81,29,108,23,82,40,049,17*6A
$GLGSV,3,3,09,83,15,357,*52
$GNGLL,0419.91953,S,05539.85355,E,103750.00,A,A*65
$GNRMC,103751.00,A,0419.91964,S,05539.85321,E,0.265,,020625,,,A*78
$GNVTG,,T,,M,0.265,N,0.490,K,A*31
$GNGGA,103751.00,0419.91964,S,05539.85321,E,1,09,1.08,24.7,M,-47.6,M,,*4F
$GNGSA,A,3,32,29,28,10,25,,,,,,,,1.94,1.08,1.62*1A
$GNGSA,A,3,69,68,81,82,,,,,,,,,1.94,1.08,1.62*1E
$GPGSV,5,1,17,10,26,341,18,16,24,269,08,18,28,053,,23,09,020,*7A
$GPGSV,5,2,17,24,02,065,09,25,08,142,10,26,31,237,09,27,22,326,*74
$GPGSV,5,3,17,28,34,177,34,29,35,140,17,31,19,204,,32,85,311,31*7D
$GPGSV,5,4,17,36,52,277,35,40,84,353,,41,58,082,,49,32,274,*7A
$GPGSV,5,5,17,50,10,089,*4A
$GLGSV,3,1,09,67,02,019,07,68,44,355,17,69,60,262,26,70,06,214,*64
$GLGSV,3,2,09,79,14,168,,80,15,220,,81,29,108,23,82,40,049,19*64
$GLGSV,3,3,09,83,15,357,*52
$GNGLL,0419.91964,S,05539.85321,E,103751.00,A,A*63
$GNRMC,103752.00,A,0419.91960,S,05539.85299,E,0.215,,020625,,,A*7A
$GNVTG,,T,,M,0.215,N,0.398,K,A*39
$GNGGA,103752.00,0419.91960,S,05539.85299,E,1,09,1.08,24.7,M,-47.6,M,,*4A
$GNGSA,A,3,32,29,28,10,25,,,,,,,,1.94,1.08,1.62*1A
$GNGSA,A,3,69,68,81,82,,,,,,,,,1.94,1.08,1.62*1E
$GPGSV,5,1,17,10,26,341,10,16,24,269,,18,28,053,20,23,09,020,*78
$GPGSV,5,2,17,24,02,065,07,25,08,142,10,26,31,237,08,27,22,326,*7B
$GPGSV,5,3,17,28,34,177,34,29,35,140,18,31,19,204,,32,85,311,31*72
$GPGSV,5,4,17,36,52,277,34,40,84,353,,41,58,082,,49,32,274,*7B
$GPGSV,5,5,17,50,10,089,*4A
$GLGSV,3,1,09,67,02,019,08,68,44,355,15,69,60,262,29,70,06,214,*66
$GLGSV,3,2,09,79,14,168,,80,15,220,,81,29,108,22,82,40,049,19*65
$GLGSV,3,3,09,83,15,357,*52
$GNGLL,0419.91960,S,05539.85299,E,103752.00,A,A*66
$GNRMC,103753.00,A,0419.91975,S,05539.85261,E,0.753,,020625,,,A*7F
$GNVTG,,T,,M,0.753,N,1.394,K,A*33
$GNGGA,103753.00,0419.91975,S,05539.85261,E,1,09,1.13,25.2,M,-47.6,M,,*46
$GNGSA,A,3,32,29,28,10,25,,,,,,,,2.02,1.13,1.68*16
$GNGSA,A,3,69,68,81,82,,,,,,,,,2.02,1.13,1.68*12
$GPGSV,5,1,17,10,26,341,10,16,24,269,,18,28,053,17,23,09,020,*7C
$GPGSV,5,2,17,24,02,065,09,25,08,142,11,26,31,237,14,27,22,326,*79
$GPGSV,5,3,17,28,34,177,34,29,35,140,17,31,19,204,,32,85,311,31*7D
$GPGSV,5,4,17,36,52,277,33,40,84,353,,41,58,082,,49,32,274,*7C
$GPGSV,5,5,17,50,10,089,*4A
$GLGSV,3,1,09,67,02,019,09,68,43,355,14,69,60,262,29,70,06,214,*61
$GLGSV,3,2,09,79,14,168,,80,15,220,,81,29,108,20,82,40,049,18*66
$GLGSV,3,3,09,83,15,357,*52
$GNGLL,0419.91975,S,05539.85261,E,103753.00,A,A*64
$GNRMC,103754.00,A,0419.91972,S,05539.85264,E,0.257,,020625,,,A*7B
$GNVTG,,T,,M,0.257,N,0.476,K,A*38
$GNGGA,103754.00,0419.91972,S,05539.85264,E,1,09,1.13,25.9,M,-47.6,M,,*48
$GNGSA,A,3,32,29,28,10,25,,,,,,,,2.02,1.13,1.68*16
$GNGSA,A,3,69,68,81,82,,,,,,,,,2.02,1.13,1.68*12
$GPGSV,5,1,17,10,26,341,12,16,24,269,,18,28,053,17,23,09,020,*7E
$GPGSV,5,2,17,24,02,065,08,25,08,142,09,26,31,237,15,27,22,326,*70
$GPGSV,5,3,17,28,34,177,34,29,35,140,23,31,19,204,,32,85,311,32*79
$GPGSV,5,4,17,36,52,277,30,40,84,353,,41,58,082,,49,32,274,*7F
$GPGSV,5,5,17,50,10,089,*4A
$GLGSV,3,1,09,67,02,019,10,68,43,355,16,69,60,263,30,70,06,214,*62
$GLGSV,3,2,09,79,14,168,,80,15,220,,81,29,108,30,82,40,049,20*6C
$GLGSV,3,3,09,83,15,357,*52
$GNGLL,0419.91972,S,05539.85264,E,103754.00,A,A*61
$GNRMC,103755.00,A,0419.91987,S,05539.85245,E,0.603,,020625,,,A*76
$GNVTG,,T,,M,0.603,N,1.116,K,A*3F
$GNGGA,103755.00,0419.91987,S,05539.85245,E,1,10,1.03,26.3,M,-47.6,M,,*40
$GNGSA,A,3,32,29,28,10,18,25,,,,,,,1.97,1.03,1.68*11
$GNGSA,A,3,69,68,81,82,,,,,,,,,1.97,1.03,1.68*1C
$GPGSV,5,1,17,10,26,341,08,16,24,269,,18,28,053,16,23,09,020,*74
$GPGSV,5,2,17,24,02,065,09,25,08,142,11,26,31,237,13,27,22,326,*7E
$GPGSV,5,3,17,28,34,177,29,29,35,140,20,31,19,204,,32,85,311,25*70
$GPGSV,5,4,17,36,52,277,28,40,84,353,31,41,58,082,,49,32,274,*74
$GPGSV,5,5,17,50,10,089,*4A
$GLGSV,3,1,09,67,02,019,08,68,43,355,17,69,60,263,28,70,07,215,*63
$GLGSV,3,2,09,79,14,168,,80,15,220,,81,29,108,21,82,40,049,19*66
$GLGSV,3,3,09,83,15,357,*52
$GNGLL,0419.91987,S,05539.85245,E,103755.00,A,A*69
$GNRMC,103756.00,A,0419.91998,S,05539.85226,E,0.676,,020625,,,A*7C
$GNVTG,,T,,M,0.676,N,1.253,K,A*3F
$GNGGA,103756.00,0419.91998,S,05539.85226,E,1,10,1.03,26.4,M,-47.6,M,,*4F
$GNGSA,A,3,32,29,28,10,18,25,,,,,,,1.97,1.03,1.68*11
$GNGSA,A,3,69,68,81,82,,,,,,,,,1.97,1.03,1.68*1C
$GPGSV,5,1,17,10,26,341,08,16,24,269,,18,28,053,13,23,09,020,*71
$GPGSV,5,2,17,24,02,065,08,25,08,142,10,26,31,237,12,27,22,326,*7F
$GPGSV,5,3,17,28,34,177,28,29,35,140,19,31,19,204,,32,85,311,25*7B
$GPGSV,5,4,17,36,52,277,28,40,84,353,31,41,58,082,,49,32,274,*74
$GPGSV,5,5,17,50,10,089,*4A
$GLGSV,3,1,09,67,02,019,09,68,43,355,13,69,60,263,27,70,07,215,*69
$GLGSV,3,2,09,79,14,168,,80,15,220,,81,29,108,21,82,40,049,18*67
$GLGSV,3,3,09,83,15,357,*52
$GNGLL,0419.91998,S,05539.85226,E,103756.00,A,A*61
$GNRMC,103757.00,A,0419.92011,S,05539.85237,E,0.372,,020625,,,A*77
$GNVTG,,T,,M,0.372,N,0.690,K,A*34
$GNGGA,103757.00,0419.92011,S,05539.85237,E,1,09,1.07,27.1,M,-47.6,M,,*4D
$GNGSA,A,3,32,29,28,10,18,,,,,,,,2.42,1.07,2.17*12
$GNGSA,A,3,69,68,81,82,,,,,,,,,2.42,1.07,2.17*18
$GPGSV,5,1,17,10,26,341,10,16,24,269,,18,28,053,12,23,09,020,*79
$GPGSV,5,2,17,24,02,065,14,25,08,142,06,26,31,237,12,27,22,326,*75
$GPGSV,5,3,17,28,34,177,29,29,35,140,20,31,19,204,,32,85,311,25*70
$GPGSV,5,4,17,36,52,277,28,40,84,353,33,41,58,082,,49,32,274,*76
$GPGSV,5,5,17,50,10,089,*4A
$GLGSV,3,1,09,67,02,019,10,68,43,355,10,69,60,263,27,70,07,215,*62
$GLGSV,3,2,09,79,14,168,,80,15,220,,81,29,108,21,82,40,049,19*66
$GLGSV,3,3,09,83,15,357,*52
$GNGLL,0419.92011,S,05539.85237,E,103757.00,A,A*6B
$GNRMC,103758.00,A,0419.92019,S,05539.85228,E,0.310,,020625,,,A*7A
$GNVTG,,T,,M,0.310,N,0.574,K,A*39
$GNGGA,103758.00,0419.92019,S,05539.85228,E,1,10,1.03,27.1,M,-47.6,M,,*48
$GNGSA,A,3,32,29,28,10,18,25,,,,,,,1.97,1.03,1.68*11
$GNGSA,A,3,69,68,81,82,,,,,,,,,1.97,1.03,1.68*1C
$GPGSV,5,1,17,10,26,341,12,16,24,269,,18,28,053,11,23,09,020,*78
$GPGSV,5,2,17,24,02,065,11,25,08,142,14,26,31,237,11,27,22,326,*70
$GPGSV,5,3,17,28,34,177,28,29,35,140,20,31,19,204,,32,85,311,23*77
$GPGSV,5,4,17,36,52,277,27,40,84,353,27,41,58,082,,49,32,274,*7C
$GPGSV,5,5,17,50,10,089,*4A
$GLGSV,3,1,09,67,02,019,06,68,43,355,11,69,60,263,26,70,07,215,*65
$GLGSV,3,2,09,79,14,168,,80,15,220,,81,29,108,20,82,40,049,18*66
$GLGSV,3,3,09,83,15,357,*52
$GNGLL,0419.92019,S,05539.85228,E,103758.00,A,A*62
$GNRMC,103759.00,A,0419.92024,S,05539.85211,E,0.276,,020625,,,A*7E
$GNVTG,,T,,M,0.276,N,0.510,K,A*3A
$GNGGA,103759.00,0419.92024,S,05539.85211,E,1,08,1.42,27.1,M,-47.6,M,,*41
$GNGSA,A,3,32,29,28,25,,,,,,,,,2.77,1.42,2.38*17
$GNGSA,A,3,69,68,81,82,,,,,,,,,2.77,1.42,2.38*12
$GPGSV,5,1,17,10,26,341,06,16,24,269,,18,28,053,08,23,09,020,*75
$GPGSV,5,2,17,24,02,065,07,25,08,142,10,26,31,237,10,27,22,326,*72
$GPGSV,5,3,17,28,34,177,28,29,35,140,19,31,19,204,,32,85,311,22*7C
$GPGSV,5,4,17,36,52,277,,40,84,353,,41,58,082,,49,32,274,*7C
$GPGSV,5,5,17,50,10,089,*4A
$GLGSV,3,1,09,67,02,019,08,68,43,355,09,69,60,263,26,70,07,215,*62
$GLGSV,3,2,09,79,14,168,,80,15,220,,81,29,108,21,82,40,049,18*67
$GLGSV,3,3,09,83,15,357,*52
$GNGLL,0419.92024,S,05539.85211,E,103759.00,A,A*67
$GNRMC,103800.00,A,0419.92022,S,05539.85202,E,0.183,,020625,,,A*70
$GNVTG,,T,,M,0.183,N,0.339,K,A*3E
$GNGGA,103800.00,0419.92022,S,05539.85202,E,1,09,1.13,27.0,M,-47.6,M,,*42
$GNGSA,A,3,32,29,28,10,25,,,,,,,,2.02,1.13,1.68*16
$GNGSA,A,3,69,68,81,82,,,,,,,,,2.02,1.13,1.68*12
$GPGSV,5,1,17,10,26,341,15,16,24,269,,18,28,053,10,23,09,020,*7E
$GPGSV,5,2,17,24,02,065,11,25,08,142,13,26,31,237,13,27,22,326,*75
$GPGSV,5,3,17,28,34,177,29,29,35,140,20,31,19,204,,32,85,311,21*74
$GPGSV,5,4,17,36,52,277,,40,84,353,,41,58,082,,49,32,274,*7C
$GPGSV,5,5,17,50,10,089,*4A
$GLGSV,3,1,09,67,02,019,09,68,43,355,12,69,60,263,26,70,07,215,*69
$GLGSV,3,2,09,79,14,168,,80,15,220,,81,29,108,22,82,40,049,20*6F
$GLGSV,3,3,09,83,15,357,*52
$GNGLL,0419.92022,S,05539.85202,E,103800.00,A,A*60
$GNRMC,103801.00,A,0419.92014,S,05539.85203,E,0.065,,020625,,,A*7C
$GNVTG,,T,,M,0.065,N,0.120,K,A*3D
$GNGGA,103801.00,0419.92014,S,05539.85203,E,1,10,1.03,27.0,M,-47.6,M,,*4E
$GNGSA,A,3,32,29,28,10,18,25,,,,,,,1.97,1.03,1.68*11
$GNGSA,A,3,69,68,81,82,,,,,,,,,1.97,1.03,1.68*1C
$GPGSV,5,1,17,10,26,341,13,16,24,269,,18,28,053,11,23,09,020,*79
$GPGSV,5,2,17,24,02,065,07,25,08,142,15,26,31,237,14,27,22,326,*73
$GPGSV,5,3,17,28,34,177,33,29,35,140,18,31,19,204,,32,85,311,29*7C
$GPGSV,5,4,17,36,52,277,,40,84,353,,41,58,082,,49,32,274,*7C
$GPGSV,5,5,17,50,10,089,*4A
$GLGSV,3,1,09,67,02,019,09,68,43,355,11,69,60,263,31,70,07,215,*6C
$GLGSV,3,2,09,79,14,168,,80,15,220,,81,29,108,21,82,40,049,20*6C
$GLGSV,3,3,09,83,15,357,*52
$GNGLL,0419.92014,S,05539.85203,E,103801.00,A,A*65
$GNRMC,103802.00,A,0419.92014,S,05539.85169,E,0.354,,020625,,,A*71
$GNVTG,,T,,M,0.354,N,0.656,K,A*3A
$GNGGA,103802.00,0419.92014,S,05539.85169,E,1,10,1.01,26.8,M,-47.6,M,,*49
$GNGSA,A,3,32,29,28,10,18,25,,,,,,,1.90,1.01,1.62*1E
$GNGSA,A,3,69,68,81,82,,,,,,,,,1.90,1.01,1.62*13
$GPGSV,5,1,17,10,26,341,12,16,24,269,,18,28,053,13,23,09,020,*7A
$GPGSV,5,2,17,24,02,065,08,25,08,142,11,26,31,237,16,27,22,326,*7A
$GPGSV,5,3,17,28,34,177,34,29,35,140,19,31,19,204,,32,85,311,30*72
$GPGSV,5,4,17,36,52,277,,40,84,353,,41,58,082,,49,32,274,*7C
$GPGSV,5,5,17,50,10,089,*4A
$GLGSV,3,1,09,67,02,019,09,68,43,355,12,69,60,263,30,70,07,215,*6E
$GLGSV,3,2,09,79,14,168,,80,15,220,,81,29,108,22,82,40,049,21*6E
$GLGSV,3,3,09,83,15,357,*52
$GNGLL,0419.92014,S,05539.85169,E,103802.00,A,A*69
$GNRMC,103803.00,A,0419.91990,S,05539.85138,E,0.391,,020625,,,A*7B
$GNVTG,,T,,M,0.391,N,0.724,K,A*37
$GNGGA,103803.00,0419.91990,S,05539.85138,E,1,10,1.03,26.3,M,-47.6,M,,*43
$GNGSA,A,3,32,29,28,10,18,25,,,,,,,1.97,1.03,1.68*11
$GNGSA,A,3,69,68,81,82,,,,,,,,,1.97,1.03,1.68*1C
$GPGSV,5,1,17,10,26,341,10,16,24,269,,18,28,053,18,23,09,020,*73
$GPGSV,5,2,17,24,02,065,09,25,08,142,11,26,31,237,16,27,22,326,*7B
$GPGSV,5,3,17,28,34,177,35,29,35,140,20,31,19,204,,32,85,311,32*7B
$GPGSV,5,4,17,36,52,277,,40,84,353,,41,58,082,,49,32,274,*7C
$GPGSV,5,5,17,50,10,089,*4A
$GLGSV,3,1,09,67,02,019,12,68,43,355,08,69,60,263,30,70,07,215,*6F
$GLGSV,3,2,09,79,14,168,,80,15,220,,81,29,108,25,82,40,049,21*69
$GLGSV,3,3,09,83,15,357,*52
$GNGLL,0419.91990,S,05539.85138,E,103803.00,A,A*6A
$GNRMC,103804.00,A,0419.91972,S,05539.85149,E,0.091,,020625,,,A*75
$GNVTG,,T,,M,0.091,N,0.169,K,A*3B
$GNGGA,103804.00,0419.91972,S,05539.85149,E,1,10,1.03,26.6,M,-47.6,M,,*4B
$GNGSA,A,3,32,29,28,10,18,25,,,,,,,1.97,1.03,1.68*11
$GNGSA,A,3,69,68,81,82,,,,,,,,,1.97,1.03,1.68*1C
$GPGSV,5,1,17,10,26,341,13,16,24,269,,18,28,053,20,23,09,020,*7B
$GPGSV,5,2,17,24,02,065,08,25,08,142,11,26,31,237,16,27,22,326,*7A
$GPGSV,5,3,17,28,34,177,36,29,35,140,19,31,19,204,,32,85,311,30*70
$GPGSV,5,4,17,36,52,277,,40,84,353,,41,58,082,,49,32,274,*7C
$GPGSV,5,5,17,50,10,089,*4A
$GLGSV,3,1,09,67,02,019,12,68,43,355,14,69,60,263,29,70,07,215,*6A
$GLGSV,3,2,09,79,14,167,,80,15,220,,81,29,108,25,82,40,049,20*67
$GLGSV,3,3,09,83,15,357,*52
$GNGLL,0419.91972,S,05539.85149,E,103804.00,A,A*67
$GNRMC,103805.00,A,0419.91960,S,05539.85149,E,0.114,,020625,,,A*7B
$GNVTG,,T,,M,0.114,N,0.211,K,A*3B
$GNGGA,103805.00,0419.91960,S,05539.85149,E,1,10,1.03,26.8,M,-47.6,M,,*47
$GNGSA,A,3,32,29,28,10,18,25,,,,,,,1.97,1.03,1.68*11
$GNGSA,A,3,69,68,81,82,,,,,,,,,1.97,1.03,1.68*1C
$GPGSV,5,1,17,10,26,341,11,16,24,269,,18,28,053,22,23,09,020,*7B
$GPGSV,5,2,17,24,02,065,10,25,08,142,10,26,31,237,18,27,22,326,*7C
$GPGSV,5,3,17,28,34,177,36,29,35,140,19,31,19,204,,32,85,311,29*78
$GPGSV,5,4,17,36,52,277,,40,84,353,,41,58,082,,49,32,274,*7C
$GPGSV,5,5,17,50,10,089,*4A
$GLGSV,3,1,09,67,02,019,12,68,43,355,08,69,60,263,29,70,07,215,*67
$GLGSV,3,2,09,79,14,167,,80,15,219,,81,29,108,24,82,40,049,18*67
$GLGSV,3,3,09,83,15,357,*52
$GNGLL,0419.91960,S,05539.85149,E,103805.00,A,A*65
$GNRMC,103806.00,A,0419.91947,S,05539.85153,E,0.194,,020625,,,A*7E
$GNVTG,,T,,M,0.194,N,0.360,K,A*34
$GNGGA,103806.00,0419.91947,S,05539.85153,E,1,10,1.03,27.2,M,-47.6,M,,*41
$GNGSA,A,3,32,29,28,10,18,25,,,,,,,1.97,1.03,1.68*11
$GNGSA,A,3,69,68,81,82,,,,,,,,,1.97,1.03,1.68*1C
$GPGSV,5,1,17,10,26,341,16,16,24,269,,18,28,053,22,23,09,020,*7C
$GPGSV,5,2,17,24,02,065,08,25,08,142,11,26,31,237,21,27,22,326,*7E
$GPGSV,5,3,17,28,34,177,36,29,35,140,22,31,19,204,,32,85,311,27*7E
$GPGSV,5,4,17,36,52,277,,40,84,353,,41,58,082,,49,32,274,*7C
$GPGSV,5,5,17,50,10,089,*4A
$GLGSV,3,1,09,67,02,019,11,68,43,355,13,69,60,263,29,70,07,215,*6E
$GLGSV,3,2,09,79,14,167,,80,15,219,,81,29,109,25,82,40,049,20*6C
$GLGSV,3,3,09,83,15,357,*52
$GNGLL,0419.91947,S,05539.85153,E,103806.00,A,A*68
$GNRMC,103807.00,A,0419.91934,S,05539.85165,E,0.501,,020625,,,A*76
$GNVTG,,T,,M,0.501,N,0.928,K,A*3A
$GNGGA,103807.00,0419.91934,S,05539.85165,E,1,10,1.03,27.3,M,-47.6,M,,*40
$GNGSA,A,3,32,29,28,10,18,25,,,,,,,1.97,1.03,1.68*11
$GNGSA,A,3,69,68,81,82,,,,,,,,,1.97,1.03,1.68*1C
$GPGSV,5,1,17,10,26,341,15,16,24,269,,18,28,053,22,23,09,020,*7F
$GPGSV,5,2,17,24,02,065,05,25,08,142,09,26,31,237,21,27,22,326,*7A
$GPGSV,5,3,17,28,34,177,35,29,35,140,20,31,19,204,,32,85,311,27*7F
$GPGSV,5,4,17,36,52,277,,40,84,353,,41,58,082,,49,32,274,*7C
$GPGSV,5,5,17,50,10,089,*4A
$GLGSV,3,1,09,67,02,019,11,68,43,355,16,69,60,263,31,70,07,215,*62
$GLGSV,3,2,09,79,14,167,,80,15,219,,81,29,109,21,82,40,049,21*69
$GLGSV,3,3,09,83,15,357,*52
$GNGLL,0419.91934,S,05539.85165,E,103807.00,A,A*68
$GNRMC,103808.00,A,0419.91922,S,05539.85153,E,0.225,,020625,,,A*7A
$GNVTG,,T,,M,0.225,N,0.416,K,A*3B
$GNGGA,103808.00,0419.91922,S,05539.85153,E,1,10,1.03,27.2,M,-47.6,M,,*4C
$GNGSA,A,3,32,29,28,10,18,25,,,,,,,1.97,1.03,1.68*11
$GNGSA,A,3,69,68,81,82,,,,,,,,,1.97,1.03,1.68*1C
$GPGSV,5,1,17,10,26,341,16,16,24,269,,18,28,053,20,23,09,020,*7E
$GPGSV,5,2,17,24,02,065,10,25,08,142,11,26,31,237,19,27,22,326,*7C
$GPGSV,5,3,17,28,34,177,36,29,35,140,20,31,19,204,,32,85,311,25*7E
$GPGSV,5,4,17,36,52,277,,40,84,353,,41,58,082,,49,32,274,*7C
$GPGSV,5,5,17,50,10,089,*4A
$GLGSV,3,1,09,67,02,019,11,68,43,355,17,69,60,263,31,70,07,215,*63
$GLGSV,3,2,09,79,14,167,,80,15,219,,81,29,109,24,82,40,049,21*6C
$GLGSV,3,3,09,83,15,358,*5D
$GNGLL,0419.91922,S,05539.85153,E,103808.00,A,A*65
$GNRMC,103809.00,A,0419.91902,S,05539.85134,E,0.243,,020625,,,A*78
$GNVTG,,T,,M,0.243,N,0.451,K,A*38
$GNGGA,103809.00,0419.91902,S,05539.85134,E,1,10,1.03,26.9,M,-47.6,M,,*44
$GNGSA,A,3,32,29,28,10,18,25,,,,,,,1.97,1.03,1.68*11
$GNGSA,A,3,69,68,81,82,,,,,,,,,1.97,1.03,1.68*1C
$GPGSV,5,1,17,10,26,341,15,16,24,269,,18,28,053,20,23,09,020,*7D
$GPGSV,5,2,17,24,02,065,10,25,08,142,11,26,31,237,17,27,22,326,*72
$GPGSV,5,3,17,28,34,177,36,29,35,140,20,31,19,204,,32,85,311,24*7F
$GPGSV,5,4,17,36,52,277,,40,84,353,,41,58,082,,49,32,274,*7C
$GPGSV,5,5,17,50,10,089,*4A
$GLGSV,3,1,09,67,02,019,10,68,43,355,14,69,60,263,31,70,07,215,*61
$GLGSV,3,2,09,79,14,167,,80,15,219,,81,29,109,25,82,40,049,18*67
$GLGSV,3,3,09,83,15,358,*5D
$GNGLL,0419.91902,S,05539.85134,E,103809.00,A,A*67
$GNRMC,103810.00,A,0419.91913,S,05539.85123,E,0.394,,020625,,,A*7D
$GNVTG,,T,,M,0.394,N,0.729,K,A*3F
$GNGGA,103810.00,0419.91913,S,05539.85123,E,1,10,1.01,27.8,M,-47.6,M,,*48
$GNGSA,A,3,32,29,28,10,18,25,,,,,,,1.90,1.01,1.62*1E
$GNGSA,A,3,69,68,81,82,,,,,,,,,1.90,1.01,1.62*13
$GPGSV,5,1,17,10,26,341,14,16,24,269,,18,28,053,21,23,09,020,*7D
$GPGSV,5,2,17,24,02,065,10,25,08,142,11,26,31,237,16,27,22,326,*73
$GPGSV,5,3,17,28,34,177,36,29,35,140,19,31,19,204,,32,85,311,30*70
$GPGSV,5,4,17,36,52,277,34,40,84,353,,41,58,082,,49,32,274,*7B
$GPGSV,5,5,17,50,10,089,*4A
$GLGSV,3,1,09,67,02,019,10,68,43,355,12,69,60,263,31,70,07,215,*67
$GLGSV,3,2,09,79,14,167,,80,15,219,,81,29,109,26,82,40,049,14*68
$GLGSV,3,3,09,83,15,358,*5D
$GNGLL,0419.91913,S,05539.85123,E,103810.00,A,A*69
$GNRMC,103811.00,A,0419.91901,S,05539.85101,E,0.303,,020625,,,A*71
$GNVTG,,T,,M,0.303,N,0.562,K,A*3C
$GNGGA,103811.00,0419.91901,S,05539.85101,E,1,10,1.03,27.5,M,-47.6,M,,*45
$GNGSA,A,3,32,29,28,10,18,25,,,,,,,1.97,1.03,1.68*11
$GNGSA,A,3,69,68,81,82,,,,,,,,,1.97,1.03,1.68*1C
$GPGSV,5,1,17,10,26,341,13,16,24,269,,18,28,053,21,23,09,020,*7A
$GPGSV,5,2,17,24,02,065,10,25,08,142,11,26,31,237,18,27,22,326,*7D
$GPGSV,5,3,17,28,34,177,35,29,35,140,19,31,19,204,,32,85,311,26*74
$GPGSV,5,4,17,36,52,277,33,40,84,353,37,41,58,082,,49,32,274,*78
$GPGSV,5,5,17,50,10,089,*4A
$GLGSV,3,1,09,67,02,019,12,68,43,355,12,69,60,263,31,70,07,215,*65
$GLGSV,3,2,09,79,14,167,,80,15,219,,81,29,109,24,82,40,049,12*6C
$GLGSV,3,3,09,83,15,358,*5D
$GNGLL,0419.91901,S,05539.85101,E,103811.00,A,A*6B
$GNRMC,103812.00,A,0419.91894,S,05539.85094,E,0.208,,020625,,,A*78
$GNVTG,,T,,M,0.208,N,0.386,K,A*3A
$GNGGA,103812.00,0419.91894,S,05539.85094,E,1,09,1.07,27.5,M,-47.6,M,,*4A
$GNGSA,A,3,32,29,28,10,18,,,,,,,,2.42,1.07,2.17*12
$GNGSA,A,3,69,68,81,82,,,,,,,,,2.42,1.07,2.17*18
$GPGSV,5,1,17,10,26,341,13,16,24,269,,18,28,053,22,23,09,020,*79
$GPGSV,5,2,17,24,02,065,10,25,08,142,11,26,31,237,19,27,22,326,*7C
$GPGSV,5,3,17,28,34,177,35,29,35,140,18,31,19,204,16,32,85,311,26*72
$GPGSV,5,4,17,36,52,277,32,40,84,353,37,41,58,082,,49,32,274,*79
$GPGSV,5,5,17,50,10,089,*4A
$GLGSV,3,1,09,67,02,019,08,68,43,355,18,69,60,263,32,70,07,215,*67
$GLGSV,3,2,09,79,14,167,,80,15,219,,81,29,109,25,82,40,049,14*6B
$GLGSV,3,3,09,83,15,358,*5D
$GNGLL,0419.91894,S,05539.85094,E,103812.00,A,A*68
$GNRMC,103813.00,A,0419.91892,S,05539.85095,E,0.094,,020625,,,A*79
$GNVTG,,T,,M,0.094,N,0.174,K,A*32
$GNGGA,103813.00,0419.91892,S,05539.85095,E,1,09,1.07,27.8,M,-47.6,M,,*41
$GNGSA,A,3,32,29,28,10,18,,,,,,,,2.42,1.07,2.17*12
$GNGSA,A,3,69,68,81,82,,,,,,,,,2.42,1.07,2.17*18
$GPGSV,5,1,17,10,26,341,13,16,24,269,,18,28,053,23,23,09,020,*78
$GPGSV,5,2,17,24,02,065,13,25,08,142,09,26,31,237,20,27,22,326,*7C
$GPGSV,5,3,17,28,34,177,35,29,35,140,19,31,19,204,16,32,85,311,27*72
$GPGSV,5,4,17,36,52,277,32,40,84,353,37,41,58,082,,49,32,274,*79
$GPGSV,5,5,17,50,10,089,*4A
$GLGSV,3,1,09,67,02,019,10,68,43,355,18,69,60,263,32,70,07,215,*6E
$GLGSV,3,2,09,79,14,167,,80,15,219,,81,29,109,24,82,40,049,18*66
$GLGSV,3,3,09,83,15,358,*5D
$GNGLL,0419.91892,S,05539.85095,E,103813.00,A,A*6E
$GNRMC,103814.00,A,0419.91897,S,05539.85080,E,0.240,,020625,,,A*74
$GNVTG,,T,,M,0.240,N,0.445,K,A*3E
$GNGGA,103814.00,0419.91897,S,05539.85080,E,1,08,1.47,28.0,M,-47.6,M,,*45
$GNGSA,A,3,32,29,28,18,,,,,,,,,3.59,1.47,3.27*1E
$GNGSA,A,3,69,68,81,82,,,,,,,,,3.59,1.47,3.27*15
$GPGSV,5,1,17,10,26,341,10,16,24,269,,18,28,053,22,23,09,020,*7A
$GPGSV,5,2,17,24,02,065,10,25,08,142,11,26,31,237,17,27,22,326,*72
$GPGSV,5,3,17,28,34,177,35,29,35,140,21,31,19,204,14,32,85,311,25*79
$GPGSV,5,4,17,36,52,277,32,40,84,353,36,41,58,082,,49,32,274,*78
$GPGSV,5,5,17,50,10,089,*4A
$GLGSV,3,1,09,67,02,019,11,68,43,355,14,69,60,263,33,70,07,215,*62
$GLGSV,3,2,09,79,14,167,,80,15,219,,81,29,109,25,82,40,049,18*67
$GLGSV,3,3,09,83,15,358,*5D
$GNGLL,0419.91897,S,05539.85080,E,103814.00,A,A*68
$GNRMC,103815.00,A,0419.91894,S,05539.85071,E,0.201,,020625,,,A*7D
$GNVTG,,T,,M,0.201,N,0.372,K,A*38
$GNGGA,103815.00,0419.91894,S,05539.85071,E,1,10,1.03,28.1,M,-47.6,M,,*41
$GNGSA,A,3,32,29,28,10,18,25,,,,,,,1.97,1.03,1.68*11
$GNGSA,A,3,69,68,81,82,,,,,,,,,1.97,1.03,1.68*1C
$GPGSV,5,1,17,10,26,341,10,16,24,269,,18,28,053,21,23,09,020,*79
$GPGSV,5,2,17,24,02,065,07,25,08,142,13,26,31,237,15,27,22,326,*74
$GPGSV,5,3,17,28,34,177,36,29,35,140,20,31,19,204,12,32,85,311,23*7B
$GPGSV,5,4,17,36,52,277,31,40,84,353,37,41,58,082,,49,32,274,*7A
$GPGSV,5,5,17,50,10,089,*4A
$GLGSV,3,1,09,67,02,019,10,68,43,355,17,69,60,263,34,70,07,215,*67
$GLGSV,3,2,09,79,14,167,,80,15,219,,81,29,109,26,82,40,049,16*6A
$GLGSV,3,3,09,83,15,358,*5D
$GNGLL,0419.91894,S,05539.85071,E,103815.00,A,A*64
$GNRMC,103816.00,A,0419.91894,S,05539.85072,E,0.269,,020625,,,A*73
$GNVTG,,T,,M,0.269,N,0.498,K,A*35
$GNGGA,103816.00,0419.91894,S,05539.85072,E,1,10,1.03,28.4,M,-47.6,M,,*44
$GNGSA,A,3,32,29,28,10,18,25,,,,,,,1.97,1.03,1.68*11
$GNGSA,A,3,69,68,81,82,,,,,,,,,1.97,1.03,1.68*1C
$GPGSV,5,1,17,10,26,341,15,16,24,269,,18,28,053,21,23,09,020,*7C
$GPGSV,5,2,17,24,02,065,09,25,08,142,16,26,31,237,16,27,22,326,*7C
$GPGSV,5,3,17,28,34,177,36,29,35,140,19,31,19,204,,32,85,311,25*74
$GPGSV,5,4,17,36,52,277,31,40,84,353,36,41,58,082,,49,32,274,*7B
$GPGSV,5,5,17,50,10,089,*4A
$GLGSV,3,1,09,67,02,019,10,68,43,355,12,69,60,263,34,70,07,215,*62
$GLGSV,3,2,09,79,14,167,,80,15,219,,81,29,109,26,82,40,049,15*69
$GLGSV,3,3,09,83,15,358,*5D
$GNGLL,0419.91894,S,05539.85072,E,103816.00,A,A*64
$GNRMC,103817.00,A,0419.91880,S,05539.85087,E,0.197,,020625,,,A*7F
$GNVTG,,T,,M,0.197,N,0.364,K,A*33
$GNGGA,103817.00,0419.91880,S,05539.85087,E,1,10,1.03,28.5,M,-47.6,M,,*4B
$GNGSA,A,3,32,29,28,10,18,25,,,,,,,1.97,1.03,1.68*11
$GNGSA,A,3,69,68,81,82,,,,,,,,,1.97,1.03,1.68*1C
$GPGSV,5,1,17,10,26,341,15,16,24,269,,18,28,053,20,23,09,020,*7D
$GPGSV,5,2,17,24,02,065,09,25,08,142,12,26,31,237,18,27,22,326,*76
$GPGSV,5,3,17,28,34,177,35,29,35,140,21,31,19,204,,32,85,311,27*7E
$GPGSV,5,4,17,36,52,277,30,40,84,353,36,41,58,082,,49,32,274,*7A
$GPGSV,5,5,17,50,10,089,*4A
$GLGSV,3,1,09,67,02,019,11,68,43,355,17,69,60,263,34,70,07,215,*66
$GLGSV,3,2,09,79,14,167,,80,15,219,,81,29,109,26,82,40,049,16*6A
$GLGSV,3,3,09,83,15,358,*5D
$GNGLL,0419.91880,S,05539.85087,E,103817.00,A,A*6A
$GNRMC,103818.00,A,0419.91882,S,05539.85092,E,0.142,,020625,,,A*7E
$GNVTG,,T,,M,0.142,N,0.263,K,A*3D
$GNGGA,103818.00,0419.91882,S,05539.85092,E,1,10,1.03,29.1,M,-47.6,M,,*47
$GNGSA,A,3,32,29,28,10,18,25,,,,,,,1.97,1.03,1.68*11
$GNGSA,A,3,69,68,81,82,,,,,,,,,1.97,1.03,1.68*1C
$GPGSV,5,1,17,10,26,341,13,16,24,269,,18,28,053,20,23,09,020,*7B
$GPGSV,5,2,17,24,02,065,09,25,08,142,14,26,31,237,19,27,22,326,*71
$GPGSV,5,3,17,28,34,177,36,29,35,140,19,31,19,204,,32,85,311,27*76
$GPGSV,5,4,17,36,52,277,31,40,84,353,36,41,58,082,,49,32,274,*7B
$GPGSV,5,5,17,50,10,089,*4A
$GLGSV,3,1,09,67,02,019,10,68,43,355,12,69,60,263,34,70,07,215,*62
$GLGSV,3,2,09,79,14,167,,80,15,219,,81,29,109,25,82,40,049,16*69
$GLGSV,3,3,09,83,15,358,*5D
$GNGLL,0419.91882,S,05539.85092,E,103818.00,A,A*63
$GNRMC,103819.00,A,0419.91880,S,05539.85084,E,0.054,,020625,,,A*7C
$GNVTG,,T,,M,0.054,N,0.100,K,A*3D
$GNGGA,103819.00,0419.91880,S,05539.85084,E,1,10,1.03,29.2,M,-47.6,M,,*40
$GNGSA,A,3,32,29,28,10,18,25,,,,,,,1.97,1.03,1.68*11
$GNGSA,A,3,69,68,81,82,,,,,,,,,1.97,1.03,1.68*1C
$GPGSV,5,1,17,10,26,341,16,16,24,269,,18,28,053,21,23,09,020,*7F
$GPGSV,5,2,17,24,02,065,11,25,08,142,12,26,31,237,19,27,22,326,*7E
$GPGSV,5,3,17,28,34,177,36,29,35,140,19,31,19,204,,32,85,311,27*76
$GPGSV,5,4,17,36,52,277,32,40,84,353,36,41,58,082,,49,32,274,*78
$GPGSV,5,5,17,50,10,089,*4A
$GLGSV,3,1,09,67,02,019,09,68,43,355,18,69,60,263,33,70,07,215,*67
$GLGSV,3,2,09,79,14,167,,80,15,219,,81,29,109,26,82,40,049,18*64
$GLGSV,3,3,09,83,15,358,*5D
$GNGLL,0419.91880,S,05539.85084,E,103819.00,A,A*67
$GNRMC,103820.00,A,0419.91864,S,05539.85087,E,0.217,,020625,,,A*7A
$GNVTG,,T,,M,0.217,N,0.401,K,A*3C
$GNGGA,103820.00,0419.91864,S,05539.85087,E,1,10,1.03,29.0,M,-47.6,M,,*41
$GNGSA,A,3,32,29,28,10,18,25,,,,,,,1.97,1.03,1.68*11
$GNGSA,A,3,69,68,81,82,,,,,,,,,1.97,1.03,1.68*1C
$GPGSV,5,1,17,10,26,341,16,16,24,269,,18,28,053,20,23,09,020,*7E
$GPGSV,5,2,17,24,02,065,10,25,08,142,14,26,31,237,17,27,22,326,*77
$GPGSV,5,3,17,28,34,177,36,29,35,140,20,31,19,204,,32,85,311,26*7D
$GPGSV,5,4,17,36,52,277,32,40,84,353,37,41,58,082,,49,32,274,*79
$GPGSV,5,5,17,50,10,089,*4A
$GLGSV,3,1,09,67,02,019,07,68,43,355,20,69,60,263,33,70,07,215,*62
$GLGSV,3,2,09,79,14,167,,80,15,219,,81,29,109,26,82,40,049,18*64
$GLGSV,3,3,09,83,15,358,*5D
$GNGLL,0419.91864,S,05539.85087,E,103820.00,A,A*64
$GNRMC,103821.00,A,0419.91861,S,05539.85087,E,0.084,,020625,,,A*76
$GNVTG,,T,,M,0.084,N,0.156,K,A*33
$GNGGA,103821.00,0419.91861,S,05539.85087,E,1,10,1.03,29.2,M,-47.6,M,,*47
$GNGSA,A,3,32,29,28,10,18,25,,,,,,,1.97,1.03,1.68*11
$GNGSA,A,3,69,68,81,82,,,,,,,,,1.97,1.03,1.68*1C
$GPGSV,5,1,17,10,26,341,18,16,24,269,,18,28,053,20,23,09,020,*70
$GPGSV,5,2,17,24,02,065,07,25,08,142,13,26,31,237,14,27,22,326,*75
$GPGSV,5,3,17,28,34,177,36,29,35,140,21,31,19,204,,32,85,311,26*7C
$GPGSV,5,4,17,36,52,277,31,40,84,353,36,41,58,082,,49,32,274,*7B
$GPGSV,5,5,17,50,10,089,*4A
$GLGSV,3,1,09,67,02,019,10,68,43,355,19,69,60,263,33,70,07,215,*6E
$GLGSV,3,2,09,79,14,167,,80,15,219,,81,29,109,26,82,40,049,18*64
$GLGSV,3,3,09,83,15,358,*5D
$GNGLL,0419.91861,S,05539.85087,E,103821.00,A,A*60
$GNRMC,103822.00,A,0419.91848,S,05539.85083,E,0.084,,020625,,,A*7A
$GNVTG,,T,,M,0.084,N,0.156,K,A*33
$GNGGA,103822.00,0419.91848,S,05539.85083,E,1,10,1.03,29.1,M,-47.6,M,,*48
$GNGSA,A,3,32,29,28,10,18,25,,,,,,,1.97,1.03,1.68*11
$GNGSA,A,3,69,68,81,82,,,,,,,,,1.97,1.03,1.68*1C
$GPGSV,5,1,17,10,26,341,18,16,24,269,,18,28,053,19,23,09,020,*7A
$GPGSV,5,2,17,24,02,065,07,25,08,142,07,26,31,237,21,27,22,326,*76
$GPGSV,5,3,17,28,34,177,36,29,35,140,22,31,19,204,,32,85,311,26*7F
$GPGSV,5,4,17,36,52,277,31,40,84,353,36,41,58,082,,49,32,274,*7B
$GPGSV,5,5,17,50,10,089,*4A
$GLGSV,3,1,09,67,02,019,09,68,43,355,19,69,60,263,34,70,07,215,*61
$GLGSV,3,2,09,79,14,167,,80,15,219,,81,29,109,26,82,40,049,17*6B
$GLGSV,3,3,09,83,15,358,*5D
$GNGLL,0419.91848,S,05539.85083,E,103822.00,A,A*6C
$GNRMC,103823.00,A,0419.91838,S,05539.85083,E,0.096,,020625,,,A*7F
$GNVTG,,T,,M,0.096,N,0.177,K,A*33
$GNGGA,103823.00,0419.91838,S,05539.85083,E,1,10,1.03,29.0,M,-47.6,M,,*4F
$GNGSA,A,3,32,29,28,10,18,25,,,,,,,1.97,1.03,1.68*11
$GNGSA,A,3,69,68,81,82,,,,,,,,,1.97,1.03,1.68*1C
$GPGSV,5,1,17,10,25,341,18,16,24,269,,18,28,053,19,23,09,020,*79
$GPGSV,5,2,17,24,02,065,09,25,08,142,13,26,31,237,20,27,22,326,*7C
$GPGSV,5,3,17,28,34,177,36,29,35,140,22,31,19,204,,32,85,311,26*7F
$GPGSV,5,4,17,36,52,277,31,40,84,353,36,41,58,082,,49,32,274,*7B
$GPGSV,5,5,17,50,10,089,*4A
$GLGSV,3,1,09,67,02,019,09,68,43,355,18,69,60,263,34,70,07,215,*60
$GLGSV,3,2,09,79,14,167,,80,15,219,,81,29,109,26,82,40,049,16*6A
$GLGSV,3,3,09,83,15,358,*5D
$GNGLL,0419.91838,S,05539.85083,E,103823.00,A,A*6A
$GNRMC,103824.00,A,0419.91836,S,05539.85084,E,0.122,,020625,,,A*7F
$GNVTG,,T,,M,0.122,N,0.226,K,A*3A
$GNGGA,103824.00,0419.91836,S,05539.85084,E,1,10,1.03,29.1,M,-47.6,M,,*40
$GNGSA,A,3,32,29,28,10,18,25,,,,,,,1.97,1.03,1.68*11
$GNGSA,A,3,69,68,81,82,,,,,,,,,1.97,1.03,1.68*1C
$GPGSV,5,1,17,10,25,341,16,16,24,269,,18,28,053,19,23,09,020,*77
$GPGSV,5,2,17,24,02,065,10,25,08,142,20,26,31,237,17,27,22,326,*70
$GPGSV,5,3,17,28,34,177,36,29,35,140,21,31,19,204,,32,85,311,27*7D
$GPGSV,5,4,17,36,52,277,31,40,84,353,36,41,58,082,,49,32,274,*7B
$GPGSV,5,5,17,50,10,089,*4A
$GLGSV,3,1,09,67,02,019,08,68,43,355,19,69,60,263,33,70,07,215,*67
$GLGSV,3,2,09,79,14,167,,80,15,219,,81,29,109,26,82,40,049,16*6A
$GLGSV,3,3,09,83,15,358,*5D
$GNGLL,0419.91836,S,05539.85084,E,103824.00,A,A*64
$GNRMC,103825.00,A,0419.91831,S,05539.85084,E,0.053,,020625,,,A*7E
$GNVTG,,T,,M,0.053,N,0.098,K,A*3A
$GNGGA,103825.00,0419.91831,S,05539.85084,E,1,10,1.03,28.9,M,-47.6,M,,*4F
$GNGSA,A,3,32,29,28,10,18,25,,,,,,,1.97,1.03,1.68*11
$GNGSA,A,3,69,68,81,82,,,,,,,,,1.97,1.03,1.68*1C
$GPGSV,5,1,17,10,25,341,17,16,24,269,,18,28,053,20,23,09,020,*7C
$GPGSV,5,2,17,24,02,065,11,25,08,142,16,26,31,237,16,27,22,326,*75
$GPGSV,5,3,17,28,34,177,36,29,35,140,22,31,19,204,,32,85,311,27*7E
$GPGSV,5,4,17,36,52,277,32,40,84,353,37,41,58,082,,49,32,274,*79
$GPGSV,5,5,17,50,10,089,*4A
$GLGSV,3,1,09,67,02,019,08,68,43,355,19,69,60,263,33,70,07,215,*67
$GLGSV,3,2,09,79,14,167,,80,15,219,,81,29,109,26,82,40,049,16*6A
$GLGSV,3,3,09,83,15,358,*5D
$GNGLL,0419.91831,S,05539.85084,E,103825.00,A,A*62
$GNRMC,103826.00,A,0419.91814,S,05539.85079,E,0.142,,020625,,,A*79
$GNVTG,,T,,M,0.142,N,0.263,K,A*3D
$GNGGA,103826.00,0419.91814,S,05539.85079,E,1,10,1.03,28.1,M,-47.6,M,,*41
$GNGSA,A,3,32,29,28,10,18,25,,,,,,,1.97,1.03,1.68*11
$GNGSA,A,3,69,68,81,82,,,,,,,,,1.97,1.03,1.68*1C
$GPGSV,5,1,17,10,25,341,15,16,24,269,,18,28,053,18,23,09,020,*75
$GPGSV,5,2,17,24,02,065,09,25,08,142,16,26,31,237,17,27,22,326,*7D
$GPGSV,5,3,17,28,34,177,36,29,35,140,21,31,19,204,,32,85,311,26*7C
$GPGSV,5,4,17,36,52,277,32,40,84,353,36,41,58,082,,49,32,274,*78
$GPGSV,5,5,17,50,10,089,*4A
$GLGSV,3,1,09,67,02,019,09,68,43,355,19,69,60,263,33,70,07,215,*66
$GLGSV,3,2,09,79,14,167,,80,15,219,,81,29,109,25,82,40,049,16*69
$GLGSV,3,3,09,83,15,358,*5D
$GNGLL,0419.91814,S,05539.85079,E,103826.00,A,A*64
$GNRMC,103827.00,A,0419.91810,S,05539.85081,E,0.124,,020625,,,A*7B
$GNVTG,,T,,M,0.124,N,0.229,K,A*33
$GNGGA,103827.00,0419.91810,S,05539.85081,E,1,10,1.03,27.6,M,-47.6,M,,*4B
$GNGSA,A,3,32,29,28,10,18,25,,,,,,,1.97,1.03,1.68*11
$GNGSA,A,3,69,68,81,82,,,,,,,,,1.97,1.03,1.68*1C
$GPGSV,5,1,17,10,25,341,13,16,24,269,,18,28,053,20,23,09,020,*78
$GPGSV,5,2,17,24,02,065,07,25,08,142,15,26,31,237,18,27,22,326,*7F
$GPGSV,5,3,17,28,34,177,36,29,35,140,22,31,19,204,,32,85,311,26*7F
$GPGSV,5,4,17,36,52,277,32,40,84,353,37,41,58,082,,49,32,274,*79
$GPGSV,5,5,17,50,10,089,*4A
$GLGSV,3,1,09,67,02,019,11,68,43,355,20,69,60,263,33,70,07,215,*65
$GLGSV,3,2,09,79,14,167,,80,15,219,,81,29,109,23,82,40,049,17*6E
$GLGSV,3,3,09,83,15,358,*5D
$GNGLL,0419.91810,S,05539.85081,E,103827.00,A,A*66
$GNRMC,103828.00,A,0419.91805,S,05539.85082,E,0.186,,020625,,,A*7B
$GNVTG,,T,,M,0.186,N,0.345,K,A*30
$GNGGA,103828.00,0419.91805,S,05539.85082,E,1,10,1.03,27.1,M,-47.6,M,,*44
$GNGSA,A,3,32,29,28,10,18,25,,,,,,,1.97,1.03,1.68*11
$GNGSA,A,3,69,68,81,82,,,,,,,,,1.97,1.03,1.68*1C
$GPGSV,5,1,17,10,25,341,14,16,24,269,,18,28,053,22,23,09,020,*7D
$GPGSV,5,2,17,24,02,065,07,25,08,142,14,26,31,237,18,27,22,326,*7E
$GPGSV,5,3,17,28,34,177,36,29,35,140,22,31,19,204,,32,85,311,27*7E
$GPGSV,5,4,17,36,52,277,32,40,84,353,38,41,58,082,,49,32,274,*76
$GPGSV,5,5,17,50,10,089,*4A
$GLGSV,3,1,09,67,02,019,08,68,43,355,19,69,60,263,33,70,07,215,*67
$GLGSV,3,2,09,79,14,167,,80,15,219,,81,29,109,23,82,40,049,17*6E
$GLGSV,3,3,09,83,15,358,*5D
$GNGLL,0419.91805,S,05539.85082,E,103828.00,A,A*6E
$GNRMC,103829.00,A,0419.91807,S,05539.85071,E,0.180,,020625,,,A*72
$GNVTG,,T,,M,0.180,N,0.333,K,A*37
$GNGGA,103829.00,0419.91807,S,05539.85071,E,1,10,1.03,26.7,M,-47.6,M,,*4C
$GNGSA,A,3,32,29,28,10,18,25,,,,,,,1.97,1.03,1.68*11
$GNGSA,A,3,69,68,81,82,,,,,,,,,1.97,1.03,1.68*1C
$GPGSV,5,1,17,10,25,341,16,16,24,268,,18,28,053,22,23,09,020,*7E
$GPGSV,5,2,17,24,02,065,09,25,08,142,15,26,31,237,15,27,22,326,*7C
$GPGSV,5,3,17,28,34,177,36,29,35,140,22,31,19,204,,32,85,311,26*7F
$GPGSV,5,4,17,36,52,277,32,40,84,353,37,41,58,082,,49,32,274,*79
$GPGSV,5,5,17,50,10,089,*4A
$GLGSV,3,1,09,67,02,019,08,68,43,355,18,69,60,263,33,70,07,215,*66
$GLGSV,3,2,09,79,14,167,,80,15,219,,81,29,109,25,82,40,049,15*6A
$GLGSV,3,3,09,83,15,358,*5D
$GNGLL,0419.91807,S,05539.85071,E,103829.00,A,A*61
$GNRMC,103830.00,A,0419.91800,S,05539.85050,E,0.290,,020625,,,A*7C
$GNVTG,,T,,M,0.290,N,0.537,K,A*37
$GNGGA,103830.00,0419.91800,S,05539.85050,E,1,10,1.03,26.0,M,-47.6,M,,*47
$GNGSA,A,3,32,29,28,10,18,25,,,,,,,1.97,1.03,1.68*11
$GNGSA,A,3,69,68,81,82,,,,,,,,,1.97,1.03,1.68*1C
$GPGSV,5,1,17,10,25,341,16,16,24,268,,18,28,053,22,23,09,020,*7E
$GPGSV,5,2,17,24,02,065,11,25,08,142,13,26,31,237,16,27,22,326,*70
$GPGSV,5,3,17,28,34,177,35,29,35,140,21,31,19,204,,32,85,311,26*7F
$GPGSV,5,4,17,36,52,277,31,40,84,353,36,41,58,082,,49,32,274,*7B
$GPGSV,5,5,17,50,10,089,*4A
$GLGSV,3,1,09,67,02,019,09,68,43,355,17,69,60,263,33,70,07,215,*68
$GLGSV,3,2,09,79,14,167,,80,15,219,,81,29,109,25,82,40,049,11*6E
$GLGSV,3,3,09,83,15,358,*5D
$GNGLL,0419.91800,S,05539.85050,E,103830.00,A,A*6D
$GNRMC,103831.00,A,0419.91791,S,05539.85046,E,0.122,,020625,,,A*77
$GNVTG,,T,,M,0.122,N,0.227,K,A*3B
$GNGGA,103831.00,0419.91791,S,05539.85046,E,1,10,1.03,26.0,M,-47.6,M,,*46
$GNGSA,A,3,32,29,28,10,18,25,,,,,,,1.97,1.03,1.68*11
$GNGSA,A,3,69,68,81,82,,,,,,,,,1.97,1.03,1.68*1C
$GPGSV,5,1,17,10,25,341,13,16,24,268,,18,28,054,22,23,09,020,*7C
$GPGSV,5,2,17,24,02,065,09,25,08,142,13,26,31,237,19,27,22,326,*76
$GPGSV,5,3,17,28,34,177,35,29,35,140,18,31,19,204,,32,85,311,26*75
$GPGSV,5,4,17,36,52,277,31,40,84,353,36,41,58,082,,49,32,274,*7B
$GPGSV,5,5,17,50,10,089,*4A
$GLGSV,3,1,09,67,02,019,09,68,43,355,16,69,60,263,33,70,07,215,*69
$GLGSV,3,2,09,79,14,167,,80,15,219,,81,29,109,24,82,40,049,17*69
$GLGSV,3,3,09,83,15,358,*5D
$GNGLL,0419.91791,S,05539.85046,E,103831.00,A,A*6C
$GNRMC,103832.00,A,0419.91785,S,05539.85038,E,0.118,,020625,,,A*71
$GNVTG,,T,,M,0.118,N,0.219,K,A*3F
$GNGGA,103832.00,0419.91785,S,05539.85038,E,1,10,1.01,25.6,M,-47.6,M,,*4E
$GNGSA,A,3,32,29,28,10,18,25,,,,,,,1.90,1.01,1.61*1D
$GNGSA,A,3,69,68,81,82,,,,,,,,,1.90,1.01,1.61*10
$GPGSV,5,1,17,10,25,341,12,16,24,268,,18,28,054,22,23,09,020,17*7B
$GPGSV,5,2,17,24,02,065,09,25,08,142,12,26,31,237,17,27,22,326,*79
$GPGSV,5,3,17,28,34,177,36,29,35,140,18,31,19,204,,32,85,311,26*76
$GPGSV,5,4,17,36,52,277,32,40,84,353,36,41,58,082,,49,32,274,*78
$GPGSV,5,5,17,50,10,089,*4A
$GLGSV,3,1,09,67,02,019,09,68,43,355,17,69,60,263,33,70,07,215,*68
$GLGSV,3,2,09,79,14,167,,80,15,219,,81,29,109,22,82,40,049,17*6F
$GLGSV,3,3,09,83,15,358,*5D
$GNGLL,0419.91785,S,05539.85038,E,103832.00,A,A*63
$GNRMC,103833.00,A,0419.91785,S,05539.85029,E,0.240,,020625,,,A*7E
$GNVTG,,T,,M,0.240,N,0.445,K,A*3E
$GNGGA,103833.00,0419.91785,S,05539.85029,E,1,10,1.01,25.5,M,-47.6,M,,*4C
$GNGSA,A,3,32,29,28,10,18,25,,,,,,,1.90,1.01,1.61*1D
$GNGSA,A,3,69,68,81,82,,,,,,,,,1.90,1.01,1.61*10
$GPGSV,5,1,17,10,25,341,10,16,24,268,,18,28,054,22,23,09,020,14*7A
$GPGSV,5,2,17,24,02,065,09,25,08,142,12,26,31,237,15,27,22,326,*7B
$GPGSV,5,3,17,28,34,177,36,29,35,140,19,31,19,204,,32,85,311,26*77
$GPGSV,5,4,17,36,52,277,32,40,84,353,36,41,58,082,,49,32,274,*78
$GPGSV,5,5,17,50,10,089,*4A
$GLGSV,3,1,09,67,02,019,13,68,43,355,16,69,60,263,34,70,07,215,*65
$GLGSV,3,2,09,79,14,167,,80,15,219,,81,29,109,24,82,40,049,14*6A
$GLGSV,3,3,09,83,15,358,*5D
$GNGLL,0419.91785,S,05539.85029,E,103833.00,A,A*62
$GNRMC,103834.00,A,0419.91784,S,05539.85025,E,0.210,,020625,,,A*71
$GNVTG,,T,,M,0.210,N,0.389,K,A*3C
$GNGGA,103834.00,0419.91784,S,05539.85025,E,1,09,1.35,25.5,M,-47.6,M,,*49
$GNGSA,A,3,32,29,28,18,25,,,,,,,,2.69,1.35,2.32*1B
$GNGSA,A,3,69,68,81,82,,,,,,,,,2.69,1.35,2.32*17
$GPGSV,5,1,17,10,25,341,10,16,24,268,,18,28,054,21,23,09,020,10*7D
$GPGSV,5,2,17,24,02,065,09,25,08,142,12,26,31,237,15,27,22,326,*7B
$GPGSV,5,3,17,28,34,177,35,29,35,140,19,31,19,204,,32,85,311,28*7A
$GPGSV,5,4,17,36,52,277,31,40,84,353,35,41,58,082,,49,32,274,*78
$GPGSV,5,5,17,50,10,089,*4A
$GLGSV,3,1,09,67,02,019,13,68,43,355,15,69,60,263,35,70,07,215,*67
$GLGSV,3,2,09,79,14,167,,80,15,219,,81,29,109,23,82,40,049,11*68
$GLGSV,3,3,09,83,15,358,*5D
$GNGLL,0419.91784,S,05539.85025,E,103834.00,A,A*68
$GNRMC,103835.00,A,0419.91775,S,05539.85016,E,0.221,,020625,,,A*7C
$GNVTG,,T,,M,0.221,N,0.410,K,A*39
$GNGGA,103835.00,0419.91775,S,05539.85016,E,1,08,1.43,25.3,M,-47.6,M,,*40
$GNGSA,A,3,32,29,28,18,25,,,,,,,,2.76,1.43,2.37*11
$GNGSA,A,3,69,68,81,,,,,,,,,,2.76,1.43,2.37*17
$GPGSV,5,1,17,10,25,341,09,16,24,268,,18,28,054,20,23,09,021,09*7D
$GPGSV,5,2,17,24,02,065,09,25,08,142,12,26,31,237,16,27,22,326,*78
$GPGSV,5,3,17,28,34,177,36,29,35,140,20,31,19,204,,32,85,311,27*7C
$GPGSV,5,4,17,36,52,277,30,40,84,353,36,41,58,082,,49,32,274,*7A
$GPGSV,5,5,17,50,10,089,*4A
$GLGSV,3,1,09,67,02,019,08,68,43,355,15,69,60,263,34,70,07,215,*6C
$GLGSV,3,2,09,79,14,167,,80,15,219,,81,29,109,22,82,40,049,10*68
$GLGSV,3,3,09,83,15,358,*5D
$GNGLL,0419.91775,S,05539.85016,E,103835.00,A,A*67
$GNRMC,103836.00,A,0419.91766,S,05539.85017,E,0.035,,020625,,,A*7B
$GNVTG,,T,,M,0.035,N,0.064,K,A*39
$GNGGA,103836.00,0419.91766,S,05539.85017,E,1,09,1.35,25.0,M,-47.6,M,,*43
$GNGSA,A,3,32,29,28,18,25,,,,,,,,2.69,1.35,2.32*1B
$GNGSA,A,3,69,68,81,82,,,,,,,,,2.69,1.35,2.32*17
$GPGSV,5,1,17,10,25,341,09,16,24,268,,18,28,054,21,23,09,021,09*7C
$GPGSV,5,2,17,24,02,065,09,25,08,142,12,26,31,237,18,27,22,326,*76
$GPGSV,5,3,17,28,34,177,35,29,35,140,20,31,19,204,,32,85,311,27*7F
$GPGSV,5,4,17,36,52,277,32,40,84,353,36,41,58,082,,49,32,274,*78
$GPGSV,5,5,17,50,10,089,*4A
$GLGSV,3,1,09,67,02,019,08,68,43,355,18,69,60,263,32,70,07,215,*67
$GLGSV,3,2,09,79,14,167,,80,15,219,,81,29,109,20,82,40,049,12*68
$GLGSV,3,3,09,83,15,358,*5D
$GNGLL,0419.91766,S,05539.85017,E,103836.00,A,A*67
$GNRMC,103837.00,A,0419.91760,S,05539.85011,E,0.116,,020625,,,A*7A
$GNVTG,,T,,M,0.116,N,0.214,K,A*3C
$GNGGA,103837.00,0419.91760,S,05539.85011,E,1,10,1.03,24.7,M,-47.6,M,,*49
$GNGSA,A,3,32,29,28,10,18,25,,,,,,,1.97,1.03,1.68*11
$GNGSA,A,3,69,68,81,82,,,,,,,,,1.97,1.03,1.68*1C
$GPGSV,5,1,17,10,25,341,17,16,24,268,,18,28,054,21,23,09,021,08*72
$GPGSV,5,2,17,24,02,065,12,25,08,142,15,26,31,237,17,27,22,326,*74
$GPGSV,5,3,17,28,34,177,35,29,35,140,19,31,19,204,,32,85,311,27*75
$GPGSV,5,4,17,36,52,277,32,40,84,353,37,41,58,082,,49,32,274,*79
$GPGSV,5,5,17,50,10,089,*4A
$GLGSV,3,1,09,67,02,019,08,68,43,355,18,69,60,263,33,70,07,215,*66
$GLGSV,3,2,09,79,14,167,,80,15,219,,81,29,109,19,82,40,049,19*69
$GLGSV,3,3,09,83,15,358,*5D
$GNGLL,0419.91760,S,05539.85011,E,103837.00,A,A*66
$GNRMC,103838.00,A,0419.91758,S,05539.85017,E,0.356,,020625,,,A*7E
$GNVTG,,T,,M,0.356,N,0.659,K,A*37
$GNGGA,103838.00,0419.91758,S,05539.85017,E,1,10,1.03,24.5,M,-47.6,M,,*49
$GNGSA,A,3,32,29,28,10,18,25,,,,,,,1.97,1.03,1.68*11
$GNGSA,A,3,69,68,81,82,,,,,,,,,1.97,1.03,1.68*1C
$GPGSV,5,1,17,10,25,341,17,16,24,268,,18,28,054,22,23,09,021,08*71
$GPGSV,5,2,17,24,02,065,10,25,08,142,13,26,31,236,17,27,22,326,*71
$GPGSV,5,3,17,28,34,177,35,29,35,140,17,31,19,204,,32,85,311,27*7B
$GPGSV,5,4,17,36,52,277,33,40,84,353,36,41,58,082,,49,32,274,*79
$GPGSV,5,5,17,50,10,089,*4A
$GLGSV,3,1,09,67,02,019,08,68,43,355,17,69,60,263,33,70,07,215,*69
$GLGSV,3,2,09,79,14,167,,80,15,219,,81,29,109,17,82,40,049,20*6D
$GLGSV,3,3,09,83,15,358,*5D
$GNGLL,0419.91758,S,05539.85017,E,103838.00,A,A*64
$GNRMC,103839.00,A,0419.91758,S,05539.85022,E,0.210,,020625,,,A*7A
$GNVTG,,T,,M,0.210,N,0.389,K,A*3C
$GNGGA,103839.00,0419.91758,S,05539.85022,E,1,10,1.01,24.7,M,-47.6,M,,*4E
$GNGSA,A,3,32,29,28,10,18,25,,,,,,,1.90,1.01,1.61*1D
$GNGSA,A,3,69,68,81,82,,,,,,,,,1.90,1.01,1.61*10
$GPGSV,5,1,17,10,25,341,17,16,24,268,,18,28,054,22,23,09,021,08*71
$GPGSV,5,2,17,24,02,065,10,25,08,142,13,26,31,236,15,27,22,325,*70
$GPGSV,5,3,17,28,34,177,35,29,35,140,20,31,19,204,,32,85,311,26*7E
$GPGSV,5,4,17,36,52,277,33,40,84,353,35,41,58,082,,49,32,274,*7A
$GPGSV,5,5,17,50,10,089,*4A
$GLGSV,3,1,09,67,02,019,11,68,43,355,16,69,60,263,33,70,07,215,*60
$GLGSV,3,2,09,79,14,167,,80,15,219,,81,29,109,17,82,40,049,18*66
$GLGSV,3,3,09,83,15,358,*5D
$GNGLL,0419.91758,S,05539.85022,E,103839.00,A,A*63
$GNRMC,103840.00,A,0419.91749,S,05539.85025,E,0.314,,020625,,,A*76
$GNVTG,,T,,M,0.314,N,0.581,K,A*37
$GNGGA,103840.00,0419.91749,S,05539.85025,E,1,10,1.01,24.5,M,-47.6,M,,*45
$GNGSA,A,3,32,29,28,10,18,25,,,,,,,1.90,1.01,1.61*1D
$GNGSA,A,3,69,68,81,82,,,,,,,,,1.90,1.01,1.61*10
$GPGSV,5,1,17,10,25,341,17,16,24,268,,18,28,054,21,23,09,021,08*72
$GPGSV,5,2,17,24,02,065,10,25,08,142,13,26,31,236,14,27,22,325,*71
$GPGSV,5,3,17,28,34,176,35,29,35,140,20,31,19,204,,32,85,311,26*7F
$GPGSV,5,4,17,36,52,277,31,40,84,353,38,41,58,082,,49,32,274,*75
$GPGSV,5,5,17,50,10,089,*4A
$GLGSV,3,1,09,67,02,019,11,68,43,355,16,69,60,263,33,70,07,215,*60
$GLGSV,3,2,09,79,14,167,,80,15,219,,81,29,109,19,82,40,049,15*65
$GLGSV,3,3,09,83,15,358,*5D
$GNGLL,0419.91749,S,05539.85025,E,103840.00,A,A*6A
$GNRMC,103841.00,A,0419.91735,S,05539.85037,E,0.526,,020625,,,A*78
$GNVTG,,T,,M,0.526,N,0.975,K,A*37
$GNGGA,103841.00,0419.91735,S,05539.85037,E,1,10,1.01,24.1,M,-47.6,M,,*48
$GNGSA,A,3,32,29,28,10,18,25,,,,,,,1.90,1.01,1.61*1D
$GNGSA,A,3,69,68,81,82,,,,,,,,,1.90,1.01,1.61*10
$GPGSV,5,1,17,10,25,341,17,16,24,268,,18,28,054,21,23,09,021,08*72
$GPGSV,5,2,17,24,02,065,10,25,08,142,13,26,31,236,18,27,22,325,*7D
$GPGSV,5,3,17,28,34,176,35,29,35,141,20,31,19,204,,32,85,311,23*7B
$GPGSV,5,4,17,36,52,277,31,40,84,353,36,41,58,082,,49,32,274,*7B
$GPGSV,5,5,17,50,10,089,*4A
$GLGSV,3,1,09,67,02,019,06,68,43,355,17,69,60,263,33,70,07,215,*67
$GLGSV,3,2,09,79,14,167,,80,15,219,,81,29,109,20,82,40,049,17*6D
$GLGSV,3,3,09,83,15,358,*5D
$GNGLL,0419.91735,S,05539.85037,E,103841.00,A,A*63
$GNRMC,103842.00,A,0419.91718,S,05539.85014,E,0.166,,020625,,,A*75
$GNVTG,,T,,M,0.166,N,0.308,K,A*37
$GNGGA,103842.00,0419.91718,S,05539.85014,E,1,10,1.01,23.0,M,-47.6,M,,*43
$GNGSA,A,3,32,29,28,10,18,25,,,,,,,1.90,1.01,1.61*1D
$GNGSA,A,3,69,68,81,82,,,,,,,,,1.90,1.01,1.61*10
$GPGSV,5,1,17,10,25,341,17,16,24,268,,18,28,054,21,23,09,021,08*72
$GPGSV,5,2,17,24,02,065,10,25,08,142,13,26,31,236,18,27,22,325,*7D
$GPGSV,5,3,17,28,34,176,34,29,35,141,19,31,19,204,,32,85,311,23*70
$GPGSV,5,4,17,36,52,277,30,40,84,353,36,41,58,082,,49,32,274,*7A
$GPGSV,5,5,17,50,10,089,*4A
$GLGSV,3,1,09,67,02,019,12,68,43,355,17,69,60,263,34,70,07,215,*65
$GLGSV,3,2,09,79,14,167,,80,15,219,,81,29,109,19,82,40,049,19*69
$GLGSV,3,3,09,83,15,358,*5D
$GNGLL,0419.91718,S,05539.85014,E,103842.00,A,A*6E
$GNRMC,103843.00,A,0419.91710,S,05539.85024,E,0.331,,020625,,,A*7F
$GNVTG,,T,,M,0.331,N,0.613,K,A*38
$GNGGA,103843.00,0419.91710,S,05539.85024,E,1,10,1.03,22.9,M,-47.6,M,,*43
$GNGSA,A,3,32,29,28,10,18,25,,,,,,,1.97,1.03,1.68*11
$GNGSA,A,3,69,68,81,82,,,,,,,,,1.97,1.03,1.68*1C
$GPGSV,5,1,17,10,25,341,10,16,24,268,,18,28,054,20,23,09,021,*7C
$GPGSV,5,2,17,24,02,065,10,25,08,142,14,26,31,236,19,27,22,325,*7B
$GPGSV,5,3,17,28,34,176,35,29,35,141,18,31,19,203,,32,85,311,23*77
$GPGSV,5,4,17,36,52,277,30,40,84,353,36,41,58,082,,49,32,274,*7A
$GPGSV,5,5,17,50,10,089,*4A
$GLGSV,3,1,09,67,02,019,11,68,43,355,18,69,60,263,34,70,07,215,*69
$GLGSV,3,2,09,79,14,167,,80,15,219,,81,29,109,19,82,40,049,19*69
$GLGSV,3,3,09,83,15,358,*5D
$GNGLL,0419.91710,S,05539.85024,E,103843.00,A,A*64
$GNRMC,103844.00,A,0419.91708,S,05539.85024,E,0.188,,020625,,,A*71
$GNVTG,,T,,M,0.188,N,0.349,K,A*32
$GNGGA,103844.00,0419.91708,S,05539.85024,E,1,10,1.03,22.9,M,-47.6,M,,*4D
$GNGSA,A,3,32,29,28,10,18,25,,,,,,,1.97,1.03,1.68*11
$GNGSA,A,3,69,68,81,82,,,,,,,,,1.97,1.03,1.68*1C
$GPGSV,5,1,17,10,25,341,13,16,24,268,,18,28,054,22,23,09,021,*7D
$GPGSV,5,2,17,24,02,065,08,25,08,142,19,26,31,236,21,27,22,325,*74
$GPGSV,5,3,17,28,34,176,35,29,35,141,19,31,19,203,,32,84,317,25*77
$GPGSV,5,4,17,36,52,277,30,40,84,353,36,41,58,082,,49,32,274,*7A
$GPGSV,5,5,17,50,10,089,*4A
$GLGSV,3,1,09,67,02,019,11,68,43,355,17,69,60,263,34,70,07,215,*66
$GLGSV,3,2,09,79,14,167,,80,15,219,,81,29,109,19,82,40,049,17*67
$GLGSV,3,3,09,83,15,358,*5D
$GNGLL,0419.91708,S,05539.85024,E,103844.00,A,A*6A
$GNRMC,103845.00,A,0419.91711,S,05539.85031,E,0.132,,020625,,,A*7D
$GNVTG,,T,,M,0.132,N,0.244,K,A*3F
$GNGGA,103845.00,0419.91711,S,05539.85031,E,1,09,1.08,23.1,M,-47.6,M,,*4A
$GNGSA,A,3,32,29,28,10,18,,,,,,,,2.42,1.08,2.17*1D
$GNGSA,A,3,69,68,81,82,,,,,,,,,2.42,1.08,2.17*17
$GPGSV,5,1,17,10,25,341,13,16,24,268,,18,28,054,23,23,09,021,*7C
$GPGSV,5,2,17,24,02,065,06,25,08,142,09,26,31,236,19,27,22,325,*70
$GPGSV,5,3,17,28,34,176,35,29,35,141,24,31,19,203,22,32,84,317,24*78
$GPGSV,5,4,17,36,52,277,31,40,84,353,37,41,58,082,,49,32,274,*7A
$GPGSV,5,5,17,50,10,089,*4A
$GLGSV,3,1,09,67,02,019,08,68,43,355,17,69,60,263,34,70,07,215,*6E
$GLGSV,3,2,09,79,14,167,,80,15,219,,81,29,109,17,82,40,049,15*6B
$GLGSV,3,3,09,83,15,358,*5D
$GNGLL,0419.91711,S,05539.85031,E,103845.00,A,A*67
$GNRMC,103846.00,A,0419.91712,S,05539.85033,E,0.010,,020625,,,A*7E
$GNVTG,,T,,M,0.010,N,0.019,K,A*34
$GNGGA,103846.00,0419.91712,S,05539.85033,E,1,09,1.08,23.2,M,-47.6,M,,*4B
$GNGSA,A,3,32,29,28,10,18,,,,,,,,2.42,1.08,2.17*1D
$GNGSA,A,3,69,68,81,82,,,,,,,,,2.42,1.08,2.17*17
$GPGSV,5,1,17,10,25,341,07,16,24,268,,18,28,054,22,23,09,021,*78
$GPGSV,5,2,17,24,02,065,08,25,08,142,08,26,31,236,18,27,22,325,*7E
$GPGSV,5,3,17,28,34,176,35,29,35,141,23,31,19,203,19,32,84,317,23*70
$GPGSV,5,4,17,36,52,277,31,40,84,353,36,41,58,082,,49,32,274,*7B
$GPGSV,5,5,17,50,10,089,*4A
$GLGSV,3,1,09,67,02,019,11,68,43,355,16,69,60,263,34,70,07,215,*67
$GLGSV,3,2,09,79,14,167,,80,15,219,,81,29,109,18,82,40,049,15*64
$GLGSV,3,3,09,83,15,358,*5D
$GNGLL,0419.91712,S,05539.85033,E,103846.00,A,A*65
$GNRMC,103847.00,A,0419.91709,S,05539.85031,E,0.027,,020625,,,A*73
$GNVTG,,T,,M,0.027,N,0.050,K,A*3D
$GNGGA,103847.00,0419.91709,S,05539.85031,E,1,10,1.03,22.8,M,-47.6,M,,*4A
$GNGSA,A,3,32,29,28,10,18,25,,,,,,,1.97,1.03,1.68*11
$GNGSA,A,3,69,68,81,82,,,,,,,,,1.97,1.03,1.68*1C
$GPGSV,5,1,17,10,25,341,10,16,24,268,,18,28,054,21,23,09,021,*7D
$GPGSV,5,2,17,24,02,065,11,25,08,142,11,26,31,236,17,27,22,325,*71
$GPGSV,5,3,17,28,34,176,35,29,35,141,23,31,19,203,17,32,84,317,23*7E
$GPGSV,5,4,17,36,52,277,31,40,84,353,36,41,58,082,,49,32,274,*7B
$GPGSV,5,5,17,50,10,089,*4A
$GLGSV,3,1,09,67,02,019,08,68,43,355,16,69,60,263,32,70,07,215,*69
$GLGSV,3,2,09,79,14,167,,80,15,219,,81,29,109,16,82,40,049,12*6D
$GLGSV,3,3,09,83,15,358,*5D
$GNGLL,0419.91709,S,05539.85031,E,103847.00,A,A*6C
$GNRMC,103848.00,A,0419.91713,S,05539.85046,E,0.126,,020625,,,A*77
$GNVTG,,T,,M,0.126,N,0.233,K,A*3A
$GNGGA,103848.00,0419.91713,S,05539.85046,E,1,10,1.03,22.7,M,-47.6,M,,*41
$GNGSA,A,3,32,29,28,10,18,25,,,,,,,1.97,1.03,1.68*11
$GNGSA,A,3,69,68,81,82,,,,,,,,,1.97,1.03,1.68*1C
$GPGSV,5,1,17,10,25,341,13,16,24,268,,18,28,054,21,23,09,021,*7E
$GPGSV,5,2,17,24,02,065,09,25,08,142,13,26,31,236,21,27,22,325,*7F
$GPGSV,5,3,17,28,34,176,35,29,35,141,23,31,19,203,17,32,84,317,23*7E
$GPGSV,5,4,17,36,52,277,31,40,84,353,37,41,58,082,,49,32,274,*7A
$GPGSV,5,5,17,50,10,089,*4A
$GLGSV,3,1,09,67,02,019,10,68,43,355,17,69,60,263,32,70,07,215,*61
$GLGSV,3,2,09,79,14,167,,80,15,219,,81,29,109,17,82,40,049,10*6E
$GLGSV,3,3,09,83,15,358,*5D
$GNGLL,0419.91713,S,05539.85046,E,103848.00,A,A*68
$GNRMC,103849.00,A,0419.91717,S,05539.85037,E,0.070,,020625,,,A*76
$GNVTG,,T,,M,0.070,N,0.130,K,A*38
$GNGGA,103849.00,0419.91717,S,05539.85037,E,1,10,1.01,22.6,M,-47.6,M,,*41
$GNGSA,A,3,32,29,28,10,18,25,,,,,,,1.90,1.01,1.61*1D
$GNGSA,A,3,69,68,81,82,,,,,,,,,1.90,1.01,1.61*10
$GPGSV,5,1,17,10,25,341,12,16,24,268,,18,28,054,23,23,09,021,*7D
$GPGSV,5,2,17,24,02,065,09,25,08,142,15,26,31,236,21,27,22,325,*79
$GPGSV,5,3,17,28,34,176,35,29,35,141,24,31,19,203,15,32,84,317,22*7A
$GPGSV,5,4,17,36,52,277,31,40,84,353,37,41,58,082,,49,32,274,*7A
$GPGSV,5,5,17,50,10,089,*4A
$GLGSV,3,1,09,67,02,019,11,68,43,355,18,69,60,263,33,70,07,215,*6E
$GLGSV,3,2,09,79,14,167,,80,15,219,,81,29,109,17,82,40,049,12*6C
$GLGSV,3,3,09,83,15,358,*5D
$GNGLL,0419.91717,S,05539.85037,E,103849.00,A,A*6B
$GNRMC,103850.00,A,0419.91725,S,05539.85020,E,0.162,,020625,,,A*7B
$GNVTG,,T,,M,0.162,N,0.299,K,A*3A
$GNGGA,103850.00,0419.91725,S,05539.85020,E,1,10,1.01,22.5,M,-47.6,M,,*4D
$GNGSA,A,3,32,29,28,10,18,25,,,,,,,1.90,1.01,1.61*1D
$GNGSA,A,3,69,68,81,82,,,,,,,,,1.90,1.01,1.61*10
$GPGSV,5,1,17,10,25,341,08,16,24,268,,18,28,054,23,23,09,021,*76
$GPGSV,5,2,17,24,02,065,07,25,08,142,15,26,31,236,22,27,22,325,*74
$GPGSV,5,3,17,28,34,176,34,29,35,141,23,31,19,203,15,32,84,317,23*7D
$GPGSV,5,4,17,36,52,277,31,40,84,353,36,41,58,082,,49,32,274,*7B
$GPGSV,5,5,17,50,10,089,*4A
$GLGSV,3,1,09,67,02,019,14,68,43,355,19,69,60,263,33,70,07,215,*6A
$GLGSV,3,2,09,79,14,167,,80,15,219,,81,29,109,17,82,40,049,19*67
$GLGSV,3,3,09,83,15,358,*5D
$GNGLL,0419.91725,S,05539.85020,E,103850.00,A,A*64
$GNRMC,103851.00,A,0419.91729,S,05539.85029,E,0.058,,020625,,,A*77
$GNVTG,,T,,M,0.058,N,0.107,K,A*36
$GNGGA,103851.00,0419.91729,S,05539.85029,E,1,10,1.01,22.8,M,-47.6,M,,*44
$GNGSA,A,3,32,29,28,10,18,25,,,,,,,1.90,1.01,1.61*1D
$GNGSA,A,3,69,68,81,82,,,,,,,,,1.90,1.01,1.61*10
$GPGSV,5,1,17,10,25,341,11,16,24,268,,18,28,054,25,23,09,021,*78
$GPGSV,5,2,17,24,02,065,10,25,08,142,15,26,31,236,21,27,22,325,*71
$GPGSV,5,3,17,28,34,176,35,29,35,141,24,31,19,203,18,32,84,317,24*71
$GPGSV,5,4,17,36,52,277,31,40,84,353,37,41,58,082,,49,32,274,*7A
$GPGSV,5,5,17,50,10,089,*4A
$GLGSV,3,1,09,67,02,019,09,68,43,355,17,69,60,263,32,70,07,215,*69
$GLGSV,3,2,09,79,14,167,,80,15,219,,81,29,109,18,82,40,049,20*62
$GLGSV,3,3,09,83,15,358,*5D
$GNGLL,0419.91729,S,05539.85029,E,103851.00,A,A*60
$GNRMC,103852.00,A,0419.91717,S,05539.85043,E,0.312,,020625,,,A*78
$GNVTG,,T,,M,0.312,N,0.578,K,A*37
$GNGGA,103852.00,0419.91717,S,05539.85043,E,1,10,1.01,22.6,M,-47.6,M,,*48
$GNGSA,A,3,32,29,28,10,18,25,,,,,,,1.90,1.01,1.61*1D
$GNGSA,A,3,69,68,81,82,,,,,,,,,1.90,1.01,1.61*10
$GPGSV,5,1,17,10,25,341,14,16,24,268,,18,28,054,25,23,09,021,*7D
$GPGSV,5,2,17,24,02,065,09,25,08,142,15,26,31,236,20,27,22,325,*78
$GPGSV,5,3,17,28,34,176,35,29,35,141,23,31,19,203,19,32,84,317,21*72
$GPGSV,5,4,17,36,52,277,32,40,84,353,37,41,58,082,,49,32,274,*79
$GPGSV,5,5,17,50,10,089,*4A
$GLGSV,3,1,09,67,02,019,10,68,43,355,17,69,60,263,33,70,07,215,*60
$GLGSV,3,2,09,79,14,167,,80,15,219,,81,29,109,22,82,40,049,18*60
$GLGSV,3,3,09,83,15,358,*5D
$GNGLL,0419.91717,S,05539.85043,E,103852.00,A,A*62
$GNRMC,103853.00,A,0419.91711,S,05539.85064,E,0.509,,020625,,,A*76
$GNVTG,,T,,M,0.509,N,0.942,K,A*3E
$GNGGA,103853.00,0419.91711,S,05539.85064,E,1,10,1.01,22.6,M,-47.6,M,,*4A
$GNGSA,A,3,32,29,28,10,18,25,,,,,,,1.90,1.01,1.61*1D
$GNGSA,A,3,69,68,81,82,,,,,,,,,1.90,1.01,1.61*10
$GPGSV,5,1,17,10,25,341,13,16,24,268,,18,28,054,24,23,09,021,*7B
$GPGSV,5,2,17,24,02,065,10,25,08,142,16,26,31,236,21,27,22,325,*72
$GPGSV,5,3,17,28,34,176,34,29,35,141,20,31,19,203,18,32,84,317,20*70
$GPGSV,5,4,17,36,52,277,31,40,84,353,36,41,58,082,,49,32,274,*7B
$GPGSV,5,5,17,50,10,089,*4A
$GLGSV,3,1,09,67,02,019,08,68,43,355,14,69,60,263,32,70,07,215,*6B
$GLGSV,3,2,09,79,14,167,,80,15,219,,81,29,109,21,82,40,049,14*6F
$GLGSV,3,3,09,83,15,358,*5D
$GNGLL,0419.91711,S,05539.85064,E,103853.00,A,A*60
$GNRMC,103854.00,A,0419.91710,S,05539.85056,E,0.162,,020625,,,A*78
$GNVTG,,T,,M,0.162,N,0.300,K,A*3B
$GNGGA,103854.00,0419.91710,S,05539.85056,E,1,10,1.01,22.2,M,-47.6,M,,*49
$GNGSA,A,3,32,29,28,10,18,25,,,,,,,1.90,1.01,1.61*1D
$GNGSA,A,3,69,68,81,82,,,,,,,,,1.90,1.01,1.61*10
$GPGSV,5,1,17,10,25,341,12,16,24,268,,18,28,054,24,23,09,021,*7A
$GPGSV,5,2,17,24,02,065,09,25,08,142,16,26,31,236,20,27,22,325,*7B
$GPGSV,5,3,17,28,34,176,35,29,35,141,20,31,19,203,17,32,84,317,19*74
$GPGSV,5,4,17,36,52,277,31,40,84,353,37,41,58,082,,49,32,274,*7A
$GPGSV,5,5,17,50,10,089,*4A
$GLGSV,3,1,09,67,02,019,11,68,43,355,16,69,60,263,32,70,07,215,*61
$GLGSV,3,2,09,79,14,167,,80,15,219,,81,29,109,19,82,40,049,16*66
$GLGSV,3,3,09,83,15,358,*5D
$GNGLL,0419.91710,S,05539.85056,E,103854.00,A,A*67
$GNRMC,103855.00,A,0419.91706,S,05539.85048,E,0.106,,020625,,,A*73
$GNVTG,,T,,M,0.106,N,0.196,K,A*34
$GNGGA,103855.00,0419.91706,S,05539.85048,E,1,10,1.01,21.9,M,-47.6,M,,*48
$GNGSA,A,3,32,29,28,10,18,25,,,,,,,1.90,1.01,1.61*1D
$GNGSA,A,3,69,68,81,82,,,,,,,,,1.90,1.01,1.61*10
$GPGSV,5,1,17,10,25,341,16,16,24,268,,18,28,054,25,23,09,021,*7F
$GPGSV,5,2,17,24,02,065,09,25,08,142,16,26,31,236,19,27,22,325,*71
$GPGSV,5,3,17,28,34,176,35,29,35,141,22,31,19,203,17,32,84,317,20*7C
