$GNRMC,103244.00,A,0419.92050,S,05539.85026,E,0.095,,020625,,,A*7D
$GNVTG,,T,,M,0.095,N,0.176,K,A*31
$GNGGA,103244.00,0419.92050,S,05539.85026,E,1,08,1.56,10.5,M,-47.6,M,,*48
$GNGSA,A,3,32,29,10,18,25,,,,,,,,2.66,1.56,2.15*1F
$GNGSA,A,3,68,81,82,,,,,,,,,,2.66,1.56,2.15*17
$GPGSV,5,1,17,10,27,339,20,16,23,272,,18,27,051,27,23,10,018,09*78
$GPGSV,5,2,17,24,03,067,10,25,09,144,10,26,31,239,19,27,20,326,*75
$GPGSV,5,3,17,28,32,179,19,29,37,139,28,31,18,205,,32,86,279,29*7F
$GPGSV,5,4,17,36,52,277,,40,84,353,,41,58,082,33,49,32,274,*7C
$GPGSV,5,5,17,50,10,089,*4A
$GLGSV,3,1,09,67,04,018,10,68,47,354,21,69,60,255,26,70,05,213,*62
$GLGSV,3,2,09,79,15,170,18,80,15,223,,81,29,105,25,82,38,046,28*6F
$GLGSV,3,3,09,83,13,356,*55
$GNGLL,0419.92050,S,05539.85026,E,103244.00,A,A*6B
$GNRMC,103245.00,A,0419.92042,S,05539.85005,E,0.335,,020625,,,A*77
$GNVTG,,T,,M,0.335,N,0.620,K,A*3C
$GNGGA,103245.00,0419.92042,S,05539.85005,E,1,08,1.56,10.1,M,-47.6,M,,*4F
$GNGSA,A,3,32,29,10,18,25,,,,,,,,2.66,1.56,2.15*1F
$GNGSA,A,3,68,81,82,,,,,,,,,,2.66,1.56,2.15*17
$GPGSV,5,1,17,10,27,339,17,16,23,272,,18,27,051,25,23,10,018,08*7F
$GPGSV,5,2,17,24,03,067,07,25,09,144,08,26,31,239,18,27,20,326,*7B
$GPGSV,5,3,17,28,32,179,16,29,37,139,14,31,18,205,,32,86,279,28*7E
$GPGSV,5,4,17,36,52,277,,40,84,353,,41,58,082,28,49,32,274,*76
$GPGSV,5,5,17,50,10,089,*4A
$GLGSV,3,1,09,67,04,018,10,68,47,354,20,69,60,255,24,70,05,213,*61
$GLGSV,3,2,09,79,15,170,16,80,15,223,,81,29,105,24,82,38,046,18*63
$GLGSV,3,3,09,83,13,356,*55
$GNGLL,0419.92042,S,05539.85005,E,103245.00,A,A*68
$GNRMC,103246.00,A,0419.92019,S,05539.85004,E,0.617,,020625,,,A*7E
$GNVTG,,T,,M,0.617,N,1.143,K,A*3A
$GNGGA,103246.00,0419.92019,S,05539.85004,E,1,08,1.25,10.0,M,-47.6,M,,*46
$GNGSA,A,3,32,29,10,18,25,,,,,,,,2.07,1.25,1.65*18
$GNGSA,A,3,68,81,82,,,,,,,,,,2.07,1.25,1.65*10
$GPGSV,5,1,17,10,27,339,16,16,23,272,,18,27,051,25,23,10,018,08*7E
$GPGSV,5,2,17,24,03,067,08,25,09,144,07,26,31,239,17,27,20,326,*74
$GPGSV,5,3,17,28,32,179,15,29,37,139,23,31,18,205,,32,86,279,34*74
$GPGSV,5,4,17,36,52,277,,40,84,353,,41,58,082,28,49,32,274,*76
$GPGSV,5,5,17,50,10,089,*4A
$GLGSV,3,1,09,67,04,018,06,68,47,354,19,69,60,255,24,70,05,213,*6C
$GLGSV,3,2,09,79,15,170,14,80,15,223,,81,29,105,24,82,38,046,23*69
$GLGSV,3,3,09,83,13,356,*55
$GNGLL,0419.92019,S,05539.85004,E,103246.00,A,A*64
$GNRMC,103247.00,A,0419.92019,S,05539.84998,E,0.200,,020625,,,A*70
$GNVTG,,T,,M,0.200,N,0.370,K,A*3B
$GNGGA,103247.00,0419.92019,S,05539.84998,E,1,08,1.56,9.9,M,-47.6,M,,*7F
$GNGSA,A,3,32,29,10,18,25,,,,,,,,2.66,1.56,2.15*1F
$GNGSA,A,3,68,81,82,,,,,,,,,,2.66,1.56,2.15*17
$GPGSV,5,1,17,10,27,339,19,16,23,272,,18,27,051,26,23,10,018,08*72
$GPGSV,5,2,17,24,03,067,12,25,09,144,07,26,31,239,18,27,20,326,*70
$GPGSV,5,3,17,28,32,179,13,29,37,139,27,31,18,205,,32,86,279,36*74
$GPGSV,5,4,17,36,52,277,,40,84,353,,41,58,082,34,49,32,274,*7B
$GPGSV,5,5,17,50,10,089,*4A
$GLGSV,3,1,09,67,04,018,10,68,47,354,21,69,60,255,30,70,05,213,*65
$GLGSV,3,2,09,79,15,170,17,80,15,223,,81,29,105,31,82,38,046,31*6D
$GLGSV,3,3,09,83,13,356,*55
$GNGLL,0419.92019,S,05539.84998,E,103247.00,A,A*68
$GNRMC,103248.00,A,0419.92025,S,05539.85001,E,0.035,,020625,,,A*7C
$GNVTG,,T,,M,0.035,N,0.064,K,A*39
$GNGGA,103248.00,0419.92025,S,05539.85001,E,1,08,1.56,9.9,M,-47.6,M,,*77
$GNGSA,A,3,32,29,10,18,25,,,,,,,,2.66,1.56,2.15*1F
$GNGSA,A,3,68,81,82,,,,,,,,,,2.66,1.56,2.15*17
$GPGSV,5,1,17,10,27,339,21,16,23,272,,18,27,051,28,23,10,018,08*77
$GPGSV,5,2,17,24,03,067,07,25,09,144,09,26,31,239,17,27,20,326,*75
$GPGSV,5,3,17,28,32,179,14,29,37,139,29,31,18,205,,32,86,279,36*7D
$GPGSV,5,4,17,36,52,277,,40,84,353,,41,58,082,34,49,32,274,*7B
$GPGSV,5,5,17,50,10,089,*4A
$GLGSV,3,1,09,67,04,018,11,68,47,354,22,69,60,255,30,70,05,213,*67
$GLGSV,3,2,09,79,15,170,20,80,15,223,,81,29,105,30,82,38,046,30*69
$GLGSV,3,3,09,83,13,356,*55
$GNGLL,0419.92025,S,05539.85001,E,103248.00,A,A*60
$GNRMC,103249.00,A,0419.92024,S,05539.84996,E,0.042,,020625,,,A*7A
$GNVTG,,T,,M,0.042,N,0.079,K,A*35
$GNGGA,103249.00,0419.92024,S,05539.84996,E,1,07,1.56,9.6,M,-47.6,M,,*71
$GNGSA,A,3,32,29,10,18,,,,,,,,,2.66,1.56,2.15*18
$GNGSA,A,3,68,81,82,,,,,,,,,,2.66,1.56,2.15*17
$GPGSV,5,1,17,10,27,339,21,16,23,272,,18,27,051,28,23,10,018,10*7E
$GPGSV,5,2,17,24,03,067,11,25,09,144,,26,31,239,17,27,20,326,*7B
$GPGSV,5,3,17,28,32,179,16,29,37,139,31,31,18,205,,32,86,279,36*76
$GPGSV,5,4,17,36,52,277,,40,84,353,,41,58,082,34,49,32,274,*7B
$GPGSV,5,5,17,50,10,089,*4A
$GLGSV,3,1,09,67,04,018,08,68,47,354,21,69,60,255,29,70,05,213,*64
$GLGSV,3,2,09,79,15,170,20,80,15,223,,81,29,105,29,82,38,046,29*69
$GLGSV,3,3,09,83,13,356,*55
$GNGLL,0419.92024,S,05539.84996,E,103249.00,A,A*66
$GNRMC,103250.00,A,0419.92024,S,05539.85005,E,0.124,,020625,,,A*71
$GNVTG,,T,,M,0.124,N,0.229,K,A*33
$GNGGA,103250.00,0419.92024,S,05539.85005,E,1,07,1.56,9.6,M,-47.6,M,,*7B
$GNGSA,A,3,32,29,10,18,,,,,,,,,2.66,1.56,2.15*18
$GNGSA,A,3,68,81,82,,,,,,,,,,2.66,1.56,2.15*17
$GPGSV,5,1,17,10,27,339,21,16,23,272,19,18,27,051,28,23,10,018,*77
$GPGSV,5,2,17,24,03,067,11,25,09,144,,26,31,239,16,27,20,326,*7A
$GPGSV,5,3,17,28,32,179,17,29,37,139,30,31,18,205,,32,86,279,33*73
$GPGSV,5,4,17,36,52,277,,40,84,353,,41,58,082,35,49,32,274,*7A
$GPGSV,5,5,17,50,10,089,*4A
$GLGSV,3,1,09,67,04,018,11,68,47,354,23,69,60,255,29,70,05,213,*6E
$GLGSV,3,2,09,79,15,170,20,80,15,223,,81,29,105,30,82,38,046,27*6F
$GLGSV,3,3,09,83,13,356,*55
$GNGLL,0419.92024,S,05539.85005,E,103250.00,A,A*6C
$GNRMC,103251.00,A,0419.92016,S,05539.85015,E,0.234,,020625,,,A*72
$GNVTG,,T,,M,0.234,N,0.433,K,A*3C
$GNGGA,103251.00,0419.92016,S,05539.85015,E,1,07,1.56,9.8,M,-47.6,M,,*74
$GNGSA,A,3,32,29,10,18,,,,,,,,,2.66,1.56,2.15*18
$GNGSA,A,3,68,81,82,,,,,,,,,,2.66,1.56,2.15*17
$GPGSV,5,1,17,10,27,339,22,16,23,272,17,18,27,051,29,23,10,018,*7B
$GPGSV,5,2,17,24,03,067,11,25,09,144,,26,31,239,17,27,20,326,*7B
$GPGSV,5,3,17,28,32,179,16,29,37,139,30,31,18,205,,32,86,279,34*75
$GPGSV,5,4,17,36,52,277,,40,84,353,,41,58,082,35,49,32,274,*7A
$GPGSV,5,5,17,50,10,089,*4A
$GLGSV,3,1,09,67,04,018,09,68,47,354,23,69,60,255,28,70,05,213,*66
$GLGSV,3,2,09,79,15,170,18,80,15,223,,81,29,105,30,82,38,046,26*65
$GLGSV,3,3,09,83,13,356,*55
$GNGLL,0419.92016,S,05539.85015,E,103251.00,A,A*6D
$GNRMC,103252.00,A,0419.92010,S,05539.85027,E,0.031,,020625,,,A*71
$GNVTG,,T,,M,0.031,N,0.057,K,A*3D
$GNGGA,103252.00,0419.92010,S,05539.85027,E,1,07,1.56,9.9,M,-47.6,M,,*71
$GNGSA,A,3,32,29,10,18,,,,,,,,,2.66,1.56,2.15*18
$GNGSA,A,3,68,81,82,,,,,,,,,,2.66,1.56,2.15*17
$GPGSV,5,1,17,10,27,339,21,16,23,272,16,18,27,051,29,23,10,018,*79
$GPGSV,5,2,17,24,03,067,10,25,09,144,,26,31,239,20,27,20,326,*7E
$GPGSV,5,3,17,28,32,179,15,29,37,139,28,31,18,205,,32,86,279,33*78
$GPGSV,5,4,17,36,52,277,,40,84,353,,41,58,082,35,49,32,274,*7A
$GPGSV,5,5,17,50,10,089,*4A
$GLGSV,3,1,09,67,04,018,11,68,47,354,22,69,60,255,27,70,05,213,*61
$GLGSV,3,2,09,79,15,170,18,80,15,223,,81,29,105,25,82,38,046,28*6F
$GLGSV,3,3,09,83,13,356,*55
$GNGLL,0419.92010,S,05539.85027,E,103252.00,A,A*69
$GNRMC,103253.00,A,0419.92001,S,05539.85045,E,0.062,,020625,,,A*72
$GNVTG,,T,,M,0.062,N,0.115,K,A*3C
$GNGGA,103253.00,0419.92001,S,05539.85045,E,1,07,1.56,10.3,M,-47.6,M,,*46
$GNGSA,A,3,32,29,10,18,,,,,,,,,2.66,1.56,2.15*18
$GNGSA,A,3,68,81,82,,,,,,,,,,2.66,1.56,2.15*17
$GPGSV,5,1,17,10,27,339,20,16,23,272,14,18,27,051,28,23,10,018,*7B
$GPGSV,5,2,17,24,03,067,10,25,09,144,05,26,31,239,19,27,20,326,*71
$GPGSV,5,3,17,28,32,179,18,29,37,139,27,31,18,205,,32,86,279,33*7A
$GPGSV,5,4,17,36,52,277,,40,84,353,,41,58,082,32,49,32,274,*7D
$GPGSV,5,5,17,50,10,089,*4A
$GLGSV,3,1,09,67,04,018,11,68,46,354,25,69,60,255,29,70,05,213,*69
$GLGSV,3,2,09,79,15,170,19,80,15,223,,81,29,105,32,82,38,046,30*61
$GLGSV,3,3,09,83,13,356,*55
$GNGLL,0419.92001,S,05539.85045,E,103253.00,A,A*6C
$GNRMC,103254.00,A,0419.91997,S,05539.85045,E,0.045,,020625,,,A*75
$GNVTG,,T,,M,0.045,N,0.084,K,A*30
$GNGGA,103254.00,0419.91997,S,05539.85045,E,1,07,1.56,10.3,M,-47.6,M,,*44
$GNGSA,A,3,32,29,10,18,,,,,,,,,2.66,1.56,2.15*18
$GNGSA,A,3,68,81,82,,,,,,,,,,2.66,1.56,2.15*17
$GPGSV,5,1,17,10,27,339,20,16,23,272,13,18,27,051,27,23,10,018,*73
$GPGSV,5,2,17,24,03,067,07,25,09,144,06,26,31,239,16,27,20,326,*7B
$GPGSV,5,3,17,28,32,179,18,29,37,139,28,31,18,205,,32,86,279,34*72
$GPGSV,5,4,17,36,52,277,,40,84,353,,41,58,082,32,49,32,274,*7D
$GPGSV,5,5,17,50,10,089,*4A
$GLGSV,3,1,09,67,04,018,10,68,46,354,24,69,60,257,29,70,05,213,*6B
$GLGSV,3,2,09,79,15,170,20,80,15,223,,81,29,105,31,82,38,046,31*69
$GLGSV,3,3,09,83,13,356,*55
$GNGLL,0419.91997,S,05539.85045,E,103254.00,A,A*6E
$GNRMC,103255.00,A,0419.91994,S,05539.85048,E,0.095,,020625,,,A*77
$GNVTG,,T,,M,0.095,N,0.176,K,A*31
$GNGGA,103255.00,0419.91994,S,05539.85048,E,1,07,1.56,10.4,M,-47.6,M,,*4C
$GNGSA,A,3,32,29,10,18,,,,,,,,,2.66,1.56,2.15*18
$GNGSA,A,3,68,81,82,,,,,,,,,,2.66,1.56,2.15*17
$GPGSV,5,1,17,10,27,339,20,16,23,272,15,18,27,051,28,23,10,018,*7A
$GPGSV,5,2,17,24,03,067,12,25,09,144,10,26,31,239,16,27,20,326,*78
$GPGSV,5,3,17,28,32,179,22,29,37,139,30,31,18,205,,32,86,279,35*73
$GPGSV,5,4,17,36,52,277,,40,84,353,,41,58,082,34,49,32,274,*7B
$GPGSV,5,5,17,50,10,089,*4A
$GLGSV,3,1,09,67,04,018,08,68,46,354,22,69,60,257,29,70,05,213,*64
$GLGSV,3,2,09,79,15,170,21,80,15,223,,81,29,105,29,82,38,046,30*60
$GLGSV,3,3,09,83,13,356,*55
$GNGLL,0419.91994,S,05539.85048,E,103255.00,A,A*61
$GNRMC,103256.00,A,0419.91993,S,05539.85052,E,0.118,,020625,,,A*7C
$GNVTG,,T,,M,0.118,N,0.219,K,A*3F
$GNGGA,103256.00,0419.91993,S,05539.85052,E,1,07,1.56,10.5,M,-47.6,M,,*42
$GNGSA,A,3,32,29,10,18,,,,,,,,,2.66,1.56,2.15*18
$GNGSA,A,3,68,81,82,,,,,,,,,,2.66,1.56,2.15*17
$GPGSV,5,1,17,10,27,339,22,16,23,272,15,18,27,051,28,23,10,018,*78
$GPGSV,5,2,17,24,03,067,08,25,09,144,17,26,31,239,18,27,20,326,*7A
$GPGSV,5,3,17,28,32,179,22,29,37,139,30,31,18,205,,32,86,279,35*73
$GPGSV,5,4,17,36,52,277,,40,84,353,,41,58,082,34,49,32,274,*7B
$GPGSV,5,5,17,50,10,089,*4A
$GLGSV,3,1,09,67,04,018,12,68,46,354,22,69,60,257,30,70,05,213,*67
$GLGSV,3,2,09,79,15,170,22,80,15,223,,81,29,105,30,82,38,046,29*63
$GLGSV,3,3,09,83,13,356,*55
$GNGLL,0419.91993,S,05539.85052,E,103256.00,A,A*6E
$GNRMC,103257.00,A,0419.91994,S,05539.85051,E,0.052,,020625,,,A*76
$GNVTG,,T,,M,0.052,N,0.097,K,A*34
$GNGGA,103257.00,0419.91994,S,05539.85051,E,1,07,1.56,10.3,M,-47.6,M,,*41
$GNGSA,A,3,32,29,10,18,,,,,,,,,2.66,1.56,2.15*18
$GNGSA,A,3,68,81,82,,,,,,,,,,2.66,1.56,2.15*17
$GPGSV,5,1,17,10,27,339,21,16,23,272,16,18,27,051,28,23,10,018,*78
$GPGSV,5,2,17,24,03,067,11,25,09,144,16,26,31,239,20,27,20,326,*78
$GPGSV,5,3,17,28,32,179,20,29,37,139,30,31,18,205,,32,86,279,36*72
$GPGSV,5,4,17,36,52,277,,40,84,353,,41,58,082,32,49,32,274,*7D
$GPGSV,5,5,17,50,10,089,*4A
$GLGSV,3,1,09,67,04,018,12,68,46,354,22,69,60,257,29,70,05,213,*6F
$GLGSV,3,2,09,79,15,170,21,80,15,223,,81,29,105,29,82,38,046,29*68
$GLGSV,3,3,09,83,13,356,*55
$GNGLL,0419.91994,S,05539.85051,E,103257.00,A,A*6B
$GNRMC,103258.00,A,0419.92000,S,05539.85050,E,0.036,,020625,,,A*7D
$GNVTG,,T,,M,0.036,N,0.066,K,A*38
$GNGGA,103258.00,0419.92000,S,05539.85050,E,1,07,1.56,10.3,M,-47.6,M,,*48
$GNGSA,A,3,32,29,10,18,,,,,,,,,2.65,1.56,2.15*1B
$GNGSA,A,3,68,81,82,,,,,,,,,,2.65,1.56,2.15*14
$GPGSV,5,1,17,10,27,339,22,16,23,272,17,18,27,051,29,23,10,018,*7B
$GPGSV,5,2,17,24,03,067,12,25,09,144,17,26,31,239,19,27,20,326,*70
$GPGSV,5,3,17,28,32,179,22,29,37,139,32,31,18,205,,32,86,279,37*73
$GPGSV,5,4,17,36,52,277,,40,84,353,,41,58,082,36,49,32,274,*79
$GPGSV,5,5,17,50,10,089,*4A
$GLGSV,3,1,09,67,04,018,10,68,46,354,19,69,60,257,27,70,05,213,*6B
$GLGSV,3,2,09,79,15,170,18,80,15,223,,81,29,105,30,82,38,046,28*6B
$GLGSV,3,3,09,83,13,356,*55
$GNGLL,0419.92000,S,05539.85050,E,103258.00,A,A*62
$GNRMC,103259.00,A,0419.91999,S,05539.85046,E,0.050,,020625,,,A*71
$GNVTG,,T,,M,0.050,N,0.092,K,A*33
$GNGGA,103259.00,0419.91999,S,05539.85046,E,1,07,1.56,10.2,M,-47.6,M,,*45
$GNGSA,A,3,32,29,10,18,,,,,,,,,2.65,1.56,2.15*1B
$GNGSA,A,3,68,81,82,,,,,,,,,,2.65,1.56,2.15*14
$GPGSV,5,1,17,10,27,339,21,16,23,272,17,18,27,051,28,23,10,018,*79
$GPGSV,5,2,17,24,03,067,12,25,09,144,15,26,31,239,17,27,20,326,*7C
$GPGSV,5,3,17,28,32,179,21,29,37,139,31,31,18,205,,32,86,279,37*73
$GPGSV,5,4,17,36,52,277,,40,84,353,,41,58,082,35,49,32,274,*7A
$GPGSV,5,5,17,50,10,089,*4A
$GLGSV,3,1,09,67,04,018,10,68,46,354,17,69,60,257,26,70,05,213,*64
$GLGSV,3,2,09,79,15,170,18,80,15,223,,81,29,105,29,82,38,046,27*6C
$GLGSV,3,3,09,83,13,356,*55
$GNGLL,0419.91999,S,05539.85046,E,103259.00,A,A*6E
$GNRMC,103300.00,A,0419.91998,S,05539.85049,E,0.078,,020625,,,A*78
$GNVTG,,T,,M,0.078,N,0.144,K,A*33
$GNGGA,103300.00,0419.91998,S,05539.85049,E,1,07,1.56,10.2,M,-47.6,M,,*46
$GNGSA,A,3,32,29,10,18,,,,,,,,,2.65,1.56,2.15*1B
$GNGSA,A,3,68,81,82,,,,,,,,,,2.65,1.56,2.15*14
$GPGSV,5,1,17,10,27,339,21,16,23,272,16,18,27,051,28,23,10,018,*78
$GPGSV,5,2,17,24,03,067,10,25,09,144,13,26,31,239,18,27,20,326,*77
$GPGSV,5,3,17,28,32,179,20,29,37,139,31,31,18,205,,32,86,279,34*71
$GPGSV,5,4,17,36,52,277,,40,84,353,,41,58,082,31,49,32,274,*7E
$GPGSV,5,5,17,50,10,089,*4A
$GLGSV,3,1,09,67,04,018,11,68,46,354,18,69,60,257,25,70,05,213,*69
$GLGSV,3,2,09,79,15,170,19,80,15,223,,81,29,105,28,82,38,046,27*6C
$GLGSV,3,3,09,83,13,356,*55
$GNGLL,0419.91998,S,05539.85049,E,103300.00,A,A*6D
$GNRMC,103301.00,A,0419.92002,S,05539.85054,E,0.144,,020625,,,A*72
$GNVTG,,T,,M,0.144,N,0.267,K,A*3F
$GNGGA,103301.00,0419.92002,S,05539.85054,E,1,07,1.56,10.5,M,-47.6,M,,*45
$GNGSA,A,3,32,29,10,18,,,,,,,,,2.65,1.56,2.15*1B
$GNGSA,A,3,68,81,82,,,,,,,,,,2.65,1.56,2.15*14
$GPGSV,5,1,17,10,27,339,21,16,23,272,15,18,27,051,27,23,10,018,*74
$GPGSV,5,2,17,24,03,067,07,25,09,144,10,26,31,239,16,27,20,326,*7C
$GPGSV,5,3,17,28,32,179,20,29,37,139,29,31,18,205,,32,86,283,33*7A
$GPGSV,5,4,17,36,52,277,,40,84,353,,41,58,082,31,49,32,274,*7E
$GPGSV,5,5,17,50,10,089,*4A
$GLGSV,3,1,09,67,04,018,11,68,46,354,19,69,60,257,25,70,05,213,*68
$GLGSV,3,2,09,79,15,170,20,80,15,223,,81,29,105,28,82,38,046,27*66
$GLGSV,3,3,09,83,13,356,*55
$GNGLL,0419.92002,S,05539.85054,E,103301.00,A,A*69
$GNRMC,103302.00,A,0419.92001,S,05539.85074,E,0.071,,020625,,,A*77
$GNVTG,,T,,M,0.071,N,0.131,K,A*38
$GNGGA,103302.00,0419.92001,S,05539.85074,E,1,07,1.56,11.0,M,-47.6,M,,*43
$GNGSA,A,3,32,29,10,18,,,,,,,,,2.65,1.56,2.15*1B
$GNGSA,A,3,68,81,82,,,,,,,,,,2.65,1.56,2.15*14
$GPGSV,5,1,17,10,27,339,18,16,23,272,15,18,27,051,28,23,10,018,*71
$GPGSV,5,2,17,24,03,067,07,25,09,144,08,26,31,239,14,27,20,326,*77
$GPGSV,5,3,17,28,32,179,20,29,37,139,28,31,18,205,,32,86,283,37*7F
$GPGSV,5,4,17,36,52,277,,40,84,353,,41,58,082,31,49,32,274,*7E
$GPGSV,5,5,17,50,10,089,*4A
$GLGSV,3,1,09,67,04,018,11,68,46,354,19,69,60,257,24,70,05,213,*69
$GLGSV,3,2,09,79,15,170,20,80,15,223,,81,29,105,27,82,38,046,27*69
$GLGSV,3,3,09,83,13,356,*55
$GNGLL,0419.92001,S,05539.85074,E,103302.00,A,A*6B
$GNRMC,103303.00,A,0419.91999,S,05539.85091,E,0.118,,020625,,,A*78
$GNVTG,,T,,M,0.118,N,0.218,K,A*3E
$GNGGA,103303.00,0419.91999,S,05539.85091,E,1,08,1.25,11.5,M,-47.6,M,,*4C
$GNGSA,A,3,32,29,10,18,25,,,,,,,,2.07,1.25,1.65*18
$GNGSA,A,3,68,81,82,,,,,,,,,,2.07,1.25,1.65*10
$GPGSV,5,1,17,10,27,339,19,16,23,272,13,18,27,051,29,23,10,018,*77
$GPGSV,5,2,17,24,03,067,07,25,09,144,12,26,31,239,15,27,20,326,*7D
$GPGSV,5,3,17,28,32,179,20,29,37,139,31,31,18,205,,32,86,283,36*76
$GPGSV,5,4,17,36,52,277,,40,84,353,,41,58,082,35,49,32,274,*7A
$GPGSV,5,5,17,50,10,089,*4A
$GLGSV,3,1,09,67,04,018,09,68,46,354,19,69,60,257,23,70,05,213,*67
$GLGSV,3,2,09,79,15,170,18,80,15,223,,81,29,105,27,82,38,046,27*62
$GLGSV,3,3,09,83,13,356,*55
$GNGLL,0419.91999,S,05539.85091,E,103303.00,A,A*6A
$GNRMC,103304.00,A,0419.92001,S,05539.85115,E,0.048,,020625,,,A*7D
$GNVTG,,T,,M,0.048,N,0.088,K,A*31
$GNGGA,103304.00,0419.92001,S,05539.85115,E,1,08,1.25,12.1,M,-47.6,M,,*4A
$GNGSA,A,3,32,29,10,18,25,,,,,,,,2.07,1.25,1.65*18
$GNGSA,A,3,68,81,82,,,,,,,,,,2.07,1.25,1.65*10
$GPGSV,5,1,17,10,27,339,20,16,23,272,13,18,27,051,30,23,10,018,*75
$GPGSV,5,2,17,24,03,067,07,25,09,144,12,26,31,239,18,27,20,326,*70
$GPGSV,5,3,17,28,32,179,22,29,37,139,31,31,18,205,,32,86,283,36*74
$GPGSV,5,4,17,36,52,277,,40,84,353,,41,58,082,33,49,32,274,*7C
$GPGSV,5,5,17,50,10,089,*4A
$GLGSV,3,1,09,67,04,018,09,68,46,354,20,69,60,257,23,70,05,213,*6D
$GLGSV,3,2,09,79,14,170,17,80,15,223,,81,29,105,28,82,38,046,28*6C
$GLGSV,3,3,09,83,13,356,*55
$GNGLL,0419.92001,S,05539.85115,E,103304.00,A,A*6B
$GNRMC,103305.00,A,0419.92004,S,05539.85134,E,0.025,,020625,,,A*71
$GNVTG,,T,,M,0.025,N,0.046,K,A*38
$GNGGA,103305.00,0419.92004,S,05539.85134,E,1,08,1.25,12.8,M,-47.6,M,,*44
$GNGSA,A,3,32,29,10,18,25,,,,,,,,2.07,1.25,1.65*18
$GNGSA,A,3,68,81,82,,,,,,,,,,2.07,1.25,1.65*10
$GPGSV,5,1,17,10,27,339,19,16,23,272,13,18,27,051,30,23,10,018,*7F
$GPGSV,5,2,17,24,03,067,07,25,09,144,13,26,31,239,19,27,20,326,*70
$GPGSV,5,3,17,28,32,179,21,29,37,139,30,31,18,205,,32,86,283,36*76
$GPGSV,5,4,17,36,52,277,,40,84,353,,41,58,082,28,49,32,274,*76
$GPGSV,5,5,17,50,10,089,*4A
$GLGSV,3,1,09,67,04,018,09,68,46,354,21,69,60,257,24,70,05,213,*6B
$GLGSV,3,2,09,79,14,170,18,80,15,222,,81,29,105,28,82,38,046,28*62
$GLGSV,3,3,09,83,13,356,*55
$GNGLL,0419.92004,S,05539.85134,E,103305.00,A,A*6C
$GNRMC,103306.00,A,0419.92002,S,05539.85146,E,0.074,,020625,,,A*75
$GNVTG,,T,,M,0.074,N,0.137,K,A*3B
$GNGGA,103306.00,0419.92002,S,05539.85146,E,1,08,1.25,13.2,M,-47.6,M,,*4F
$GNGSA,A,3,32,29,10,18,25,,,,,,,,2.07,1.25,1.65*18
$GNGSA,A,3,68,81,82,,,,,,,,,,2.07,1.25,1.65*10
$GPGSV,5,1,17,10,27,339,19,16,23,272,11,18,27,051,30,23,10,018,*7D
$GPGSV,5,2,17,24,03,067,07,25,09,144,12,26,31,239,20,27,20,326,*7B
$GPGSV,5,3,17,28,32,179,22,29,37,139,29,31,18,205,,32,86,283,34*7F
$GPGSV,5,4,17,36,52,277,,40,84,353,,41,58,082,28,49,32,274,*76
$GPGSV,5,5,17,50,10,089,*4A
$GLGSV,3,1,09,67,04,018,09,68,46,354,21,69,60,257,25,70,05,213,*6A
$GLGSV,3,2,09,79,14,170,20,80,15,222,,81,29,106,28,82,38,046,29*6B
$GLGSV,3,3,09,83,13,356,*55
$GNGLL,0419.92002,S,05539.85146,E,103306.00,A,A*6C
$GNRMC,103307.00,A,0419.92003,S,05539.85163,E,0.028,,020625,,,A*7B
$GNVTG,,T,,M,0.028,N,0.053,K,A*31
$GNGGA,103307.00,0419.92003,S,05539.85163,E,1,08,1.25,13.7,M,-47.6,M,,*4D
$GNGSA,A,3,32,29,10,18,25,,,,,,,,2.07,1.25,1.65*18
$GNGSA,A,3,68,81,82,,,,,,,,,,2.07,1.25,1.65*10
$GPGSV,5,1,17,10,27,339,20,16,23,272,,18,27,051,30,23,10,018,*77
$GPGSV,5,2,17,24,03,067,09,25,09,144,13,26,31,239,18,27,20,326,*7F
$GPGSV,5,3,17,28,32,179,26,29,37,139,30,31,18,205,,32,86,283,35*72
$GPGSV,5,4,17,36,52,277,,40,84,353,,41,58,082,30,49,32,274,*7F
$GPGSV,5,5,17,50,10,089,*4A
$GLGSV,3,1,09,67,04,018,09,68,46,354,23,69,60,257,25,70,05,213,*68
$GLGSV,3,2,09,79,14,170,20,80,15,222,,81,29,106,29,82,38,046,29*6A
$GLGSV,3,3,09,83,13,356,*55
$GNGLL,0419.92003,S,05539.85163,E,103307.00,A,A*6B
$GNRMC,103308.00,A,0419.92000,S,05539.85180,E,0.032,,020625,,,A*71
$GNVTG,,T,,M,0.032,N,0.059,K,A*30
$GNGGA,103308.00,0419.92000,S,05539.85180,E,1,08,1.25,14.3,M,-47.6,M,,*4F
$GNGSA,A,3,32,29,10,18,25,,,,,,,,2.07,1.25,1.65*18
$GNGSA,A,3,68,81,82,,,,,,,,,,2.07,1.25,1.65*10
$GPGSV,5,1,17,10,27,339,19,16,23,272,,18,27,051,29,23,10,018,*75
$GPGSV,5,2,17,24,03,067,06,25,09,144,13,26,31,239,16,27,20,326,*7E
$GPGSV,5,3,17,28,32,179,26,29,37,139,31,31,18,205,,32,86,283,35*73
$GPGSV,5,4,17,36,52,277,,40,84,353,,41,58,082,31,49,32,274,*7E
$GPGSV,5,5,17,50,10,089,*4A
$GLGSV,3,1,09,67,04,018,09,68,46,354,23,69,60,257,22,70,05,213,*6F
$GLGSV,3,2,09,79,14,170,18,80,15,222,,81,29,106,29,82,38,046,28*60
$GLGSV,3,3,09,83,14,356,*52
$GNGLL,0419.92000,S,05539.85180,E,103308.00,A,A*6A
$GNRMC,103309.00,A,0419.92001,S,05539.85210,E,0.090,,020625,,,A*73
$GNVTG,,T,,M,0.090,N,0.166,K,A*35
$GNGGA,103309.00,0419.92001,S,05539.85210,E,1,08,1.25,15.2,M,-47.6,M,,*45
$GNGSA,A,3,32,29,10,18,25,,,,,,,,2.07,1.25,1.65*18
$GNGSA,A,3,68,81,82,,,,,,,,,,2.07,1.25,1.65*10
$GPGSV,5,1,17,10,27,339,19,16,23,272,,18,27,051,29,23,10,018,*75
$GPGSV,5,2,17,24,03,067,06,25,09,144,15,26,31,239,14,27,20,326,*7A
$GPGSV,5,3,17,28,32,179,26,29,37,139,31,31,18,205,,32,86,283,37*71
$GPGSV,5,4,17,36,52,277,,40,84,353,,41,58,082,32,49,32,274,*7D
$GPGSV,5,5,17,50,10,089,*4A
$GLGSV,3,1,09,67,04,018,10,68,46,354,22,69,60,257,23,70,05,213,*67
$GLGSV,3,2,09,79,14,170,18,80,15,222,,81,29,106,28,82,38,046,27*6E
$GLGSV,3,3,09,83,14,356,*52
$GNGLL,0419.92001,S,05539.85210,E,103309.00,A,A*60
$GNRMC,103310.00,A,0419.92004,S,05539.85225,E,0.102,,020625,,,A*72
$GNVTG,,T,,M,0.102,N,0.189,K,A*3E
$GNGGA,103310.00,0419.92004,S,05539.85225,E,1,08,1.25,15.6,M,-47.6,M,,*4A
$GNGSA,A,3,32,29,10,18,25,,,,,,,,2.07,1.25,1.65*18
$GNGSA,A,3,68,81,82,,,,,,,,,,2.07,1.25,1.65*10
$GPGSV,5,1,17,10,27,339,18,16,23,272,,18,27,051,29,23,10,018,*74
$GPGSV,5,2,17,24,03,067,06,25,09,144,16,26,31,239,14,27,20,326,*79
$GPGSV,5,3,17,28,32,179,23,29,37,139,30,31,18,205,,32,86,283,36*74
$GPGSV,5,4,17,36,52,277,,40,84,353,,41,58,082,31,49,32,274,*7E
$GPGSV,5,5,17,50,10,089,*4A
$GLGSV,3,1,09,67,04,018,10,68,46,354,21,69,60,257,22,70,05,213,*65
$GLGSV,3,2,09,79,14,170,19,80,15,222,,81,29,106,29,82,38,046,28*61
$GLGSV,3,3,09,83,14,356,*52
$GNGLL,0419.92004,S,05539.85225,E,103310.00,A,A*6B
$GNRMC,103311.00,A,0419.92003,S,05539.85244,E,0.133,,020625,,,A*71
$GNVTG,,T,,M,0.133,N,0.247,K,A*3D
$GNGGA,103311.00,0419.92003,S,05539.85244,E,1,08,1.26,16.2,M,-47.6,M,,*4F
$GNGSA,A,3,32,29,10,18,25,,,,,,,,2.07,1.26,1.65*1B
$GNGSA,A,3,68,81,82,,,,,,,,,,2.07,1.26,1.65*13
$GPGSV,5,1,17,10,27,339,15,16,23,272,,18,27,051,29,23,10,018,*79
$GPGSV,5,2,17,24,03,067,06,25,09,144,15,26,31,239,17,27,20,326,*79
$GPGSV,5,3,17,28,32,179,22,29,37,139,31,31,18,205,,32,86,283,36*74
$GPGSV,5,4,17,36,52,277,,40,84,353,,41,58,082,33,49,32,274,*7C
$GPGSV,5,5,17,50,10,089,*4A
$GLGSV,3,1,09,67,04,018,07,68,46,354,19,69,60,257,21,70,05,213,*6B
$GLGSV,3,2,09,79,14,170,19,80,15,222,,81,29,106,29,82,38,046,29*60
$GLGSV,3,3,09,83,14,356,*52
$GNGLL,0419.92003,S,05539.85244,E,103311.00,A,A*6A
$GNRMC,103312.00,A,0419.92003,S,05539.85267,E,0.144,,020625,,,A*73
$GNVTG,,T,,M,0.144,N,0.267,K,A*3F
$GNGGA,103312.00,0419.92003,S,05539.85267,E,1,08,1.26,16.9,M,-47.6,M,,*46
$GNGSA,A,3,32,29,10,18,25,,,,,,,,2.07,1.26,1.65*1B
$GNGSA,A,3,68,81,82,,,,,,,,,,2.07,1.26,1.65*13
$GPGSV,5,1,17,10,27,339,17,16,23,272,,18,27,051,29,23,10,018,*7B
$GPGSV,5,2,17,24,03,067,06,25,09,144,14,26,31,239,18,27,20,326,16*70
$GPGSV,5,3,17,28,32,179,23,29,37,139,30,31,18,205,,32,86,283,35*77
$GPGSV,5,4,17,36,52,277,,40,84,353,,41,58,082,31,49,32,274,*7E
$GPGSV,5,5,17,50,10,089,*4A
$GLGSV,3,1,09,67,04,018,10,68,46,354,18,69,60,257,22,70,05,213,*6F
$GLGSV,3,2,09,79,14,170,17,80,15,222,,81,29,106,29,82,38,046,30*66
$GLGSV,3,3,09,83,14,356,*52
$GNGLL,0419.92003,S,05539.85267,E,103312.00,A,A*68
$GNRMC,103313.00,A,0419.92002,S,05539.85276,E,0.122,,020625,,,A*73
$GNVTG,,T,,M,0.122,N,0.227,K,A*3B
$GNGGA,103313.00,0419.92002,S,05539.85276,E,1,08,1.26,17.2,M,-47.6,M,,*4C
$GNGSA,A,3,32,29,10,18,25,,,,,,,,2.07,1.26,1.65*1B
$GNGSA,A,3,68,81,82,,,,,,,,,,2.07,1.26,1.65*13
$GPGSV,5,1,17,10,27,339,16,16,23,272,,18,27,051,28,23,10,018,*7B
$GPGSV,5,2,17,24,03,067,08,25,09,144,14,26,31,239,17,27,20,326,17*70
$GPGSV,5,3,17,28,32,179,25,29,37,139,29,31,18,205,,32,86,283,38*74
$GPGSV,5,4,17,36,52,277,,40,84,353,,41,58,082,,49,32,274,*7C
$GPGSV,5,5,17,50,10,089,*4A
$GLGSV,3,1,09,67,04,018,08,68,46,354,20,69,60,257,25,70,05,213,*6A
$GLGSV,3,2,09,79,14,170,18,80,15,222,,81,29,106,30,82,38,046,30*61
$GLGSV,3,3,09,83,14,356,*52
$GNGLL,0419.92002,S,05539.85276,E,103313.00,A,A*68
$GNRMC,103314.00,A,0419.92006,S,05539.85294,E,0.208,,020625,,,A*77
$GNVTG,,T,,M,0.208,N,0.385,K,A*39
$GNGGA,103314.00,0419.92006,S,05539.85294,E,1,08,1.26,17.6,M,-47.6,M,,*47
$GNGSA,A,3,32,29,10,18,25,,,,,,,,2.07,1.26,1.65*1B
$GNGSA,A,3,68,81,82,,,,,,,,,,2.07,1.26,1.65*13
$GPGSV,5,1,17,10,27,339,17,16,23,272,,18,27,051,30,23,10,018,*73
$GPGSV,5,2,17,24,03,067,09,25,09,144,14,26,31,239,17,27,20,326,17*71
$GPGSV,5,3,17,28,32,179,26,29,37,139,30,31,18,205,,32,86,283,36*71
$GPGSV,5,4,17,36,52,277,,40,84,353,,41,58,082,33,49,32,274,*7C
$GPGSV,5,5,17,50,10,089,*4A
$GLGSV,3,1,09,67,04,018,08,68,46,354,20,69,60,257,26,70,05,213,*69
$GLGSV,3,2,09,79,14,170,17,80,15,222,,81,29,106,29,82,38,046,30*66
$GLGSV,3,3,09,83,14,356,*52
$GNGLL,0419.92006,S,05539.85294,E,103314.00,A,A*67
$GNRMC,103315.00,A,0419.92003,S,05539.85308,E,0.104,,020625,,,A*78
$GNVTG,,T,,M,0.104,N,0.193,K,A*33
$GNGGA,103315.00,0419.92003,S,05539.85308,E,1,08,1.26,18.1,M,-47.6,M,,*4F
$GNGSA,A,3,32,29,10,18,25,,,,,,,,2.07,1.26,1.65*1B
$GNGSA,A,3,68,81,82,,,,,,,,,,2.07,1.26,1.65*13
$GPGSV,5,1,17,10,27,339,18,16,23,272,,18,27,051,30,23,10,018,*7C
$GPGSV,5,2,17,24,03,067,08,25,09,144,15,26,31,239,15,27,20,326,15*71
$GPGSV,5,3,17,28,32,179,28,29,37,139,30,31,18,205,,32,86,283,38*71
$GPGSV,5,4,17,36,52,277,,40,84,353,,41,58,082,34,49,32,274,*7B
$GPGSV,5,5,17,50,10,089,*4A
$GLGSV,3,1,09,67,04,018,08,68,46,354,21,69,60,257,24,70,05,213,*6A
$GLGSV,3,2,09,79,14,170,18,80,15,222,,81,29,106,29,82,38,046,29*61
$GLGSV,3,3,09,83,14,356,*52
$GNGLL,0419.92003,S,05539.85308,E,103315.00,A,A*67
$GNRMC,103316.00,A,0419.92002,S,05539.85329,E,0.189,,020625,,,A*7C
$GNVTG,,T,,M,0.189,N,0.351,K,A*3A
$GNGGA,103316.00,0419.92002,S,05539.85329,E,1,08,1.26,18.7,M,-47.6,M,,*48
$GNGSA,A,3,32,29,10,18,25,,,,,,,,2.07,1.26,1.65*1B
$GNGSA,A,3,68,81,82,,,,,,,,,,2.07,1.26,1.65*13
$GPGSV,5,1,17,10,27,339,17,16,23,272,,18,27,051,30,23,10,018,*73
$GPGSV,5,2,17,24,03,067,08,25,09,144,14,26,31,239,16,27,20,326,16*70
$GPGSV,5,3,17,28,32,179,28,29,37,139,22,31,18,205,,32,86,283,35*7F
$GPGSV,5,4,17,36,52,277,,40,84,353,,41,58,082,33,49,32,274,*7C
$GPGSV,5,5,17,50,10,089,*4A
$GLGSV,3,1,09,67,04,018,08,68,46,354,21,69,60,257,23,70,05,213,*6D
$GLGSV,3,2,09,79,14,170,17,80,15,222,,81,29,106,29,82,38,046,28*6F
$GLGSV,3,3,09,83,14,356,*52
$GNGLL,0419.92002,S,05539.85329,E,103316.00,A,A*66
$GNRMC,103317.00,A,0419.92009,S,05539.85350,E,0.253,,020625,,,A*7C
$GNVTG,,T,,M,0.253,N,0.469,K,A*32
$GNGGA,103317.00,0419.92009,S,05539.85350,E,1,08,1.26,19.3,M,-47.6,M,,*49
$GNGSA,A,3,32,29,10,18,25,,,,,,,,2.07,1.26,1.65*1B
$GNGSA,A,3,68,81,82,,,,,,,,,,2.07,1.26,1.65*13
$GPGSV,5,1,17,10,27,339,17,16,23,272,,18,27,051,29,23,10,018,19*73
$GPGSV,5,2,17,24,03,067,07,25,09,144,14,26,31,239,15,27,20,326,18*72
$GPGSV,5,3,17,28,32,179,25,29,37,139,30,31,18,205,,32,86,283,35*71
$GPGSV,5,4,17,36,52,277,,40,84,353,,41,58,082,33,49,32,274,*7C
$GPGSV,5,5,17,50,10,089,*4A
$GLGSV,3,1,09,67,04,018,07,68,46,354,22,69,60,257,25,70,05,213,*67
$GLGSV,3,2,09,79,14,170,17,80,15,222,,81,29,106,29,82,38,046,28*6F
$GLGSV,3,3,09,83,14,356,*52
$GNGLL,0419.92009,S,05539.85350,E,103317.00,A,A*62
$GNRMC,103318.00,A,0419.92005,S,05539.85343,E,0.143,,020625,,,A*7F
$GNVTG,,T,,M,0.143,N,0.264,K,A*3B
$GNGGA,103318.00,0419.92005,S,05539.85343,E,1,08,1.26,19.3,M,-47.6,M,,*48
$GNGSA,A,3,32,29,10,18,25,,,,,,,,2.07,1.26,1.65*1B
$GNGSA,A,3,68,81,82,,,,,,,,,,2.07,1.26,1.65*13
$GPGSV,5,1,17,10,27,339,17,16,23,272,,18,27,051,29,23,10,018,16*7C
$GPGSV,5,2,17,24,03,067,11,25,09,144,14,26,31,239,16,27,20,326,17*79
$GPGSV,5,3,17,28,32,179,27,29,37,139,30,31,18,205,,32,86,283,35*73
$GPGSV,5,4,17,36,52,277,,40,84,353,,41,58,082,32,49,32,274,*7D
$GPGSV,5,5,17,50,10,089,*4A
$GLGSV,3,1,09,67,04,018,08,68,46,354,22,69,60,257,24,70,05,213,*69
$GLGSV,3,2,09,79,14,170,17,80,15,222,,81,29,106,31,82,38,046,31*6E
$GLGSV,3,3,09,83,14,356,*52
$GNGLL,0419.92005,S,05539.85343,E,103318.00,A,A*63
$GNRMC,103319.00,A,0419.92007,S,05539.85351,E,0.082,,020625,,,A*73
$GNVTG,,T,,M,0.082,N,0.153,K,A*30
$GNGGA,103319.00,0419.92007,S,05539.85351,E,1,08,1.26,19.7,M,-47.6,M,,*4C
$GNGSA,A,3,32,29,10,18,25,,,,,,,,2.07,1.26,1.65*1B
$GNGSA,A,3,68,81,82,,,,,,,,,,2.07,1.26,1.65*13
$GPGSV,5,1,17,10,27,339,18,16,23,272,,18,27,051,28,23,10,018,13*77
$GPGSV,5,2,17,24,03,067,10,25,09,144,14,26,31,239,16,27,20,326,14*7B
$GPGSV,5,3,17,28,32,179,26,29,37,139,29,31,18,205,,32,86,283,35*7A
$GPGSV,5,4,17,36,52,277,,40,84,353,,41,58,082,31,49,32,274,*7E
$GPGSV,5,5,17,50,10,089,*4A
$GLGSV,3,1,09,67,04,018,11,68,46,354,25,69,60,257,22,70,05,213,*60
$GLGSV,3,2,09,79,14,170,18,80,15,222,,81,29,106,31,82,38,046,30*60
$GLGSV,3,3,09,83,14,356,*52
$GNGLL,0419.92007,S,05539.85351,E,103319.00,A,A*63
$GNRMC,103320.00,A,0419.92009,S,05539.85345,E,0.029,,020625,,,A*73
$GNVTG,,T,,M,0.029,N,0.054,K,A*37
$GNGGA,103320.00,0419.92009,S,05539.85345,E,1,08,1.26,19.6,M,-47.6,M,,*4C
$GNGSA,A,3,32,29,10,18,25,,,,,,,,2.07,1.26,1.65*1B
$GNGSA,A,3,68,81,82,,,,,,,,,,2.07,1.26,1.65*13
$GPGSV,5,1,17,10,27,339,21,16,23,272,,18,27,051,30,23,10,018,11*76
$GPGSV,5,2,17,24,03,067,12,25,09,144,14,26,31,239,,27,20,326,14*7E
$GPGSV,5,3,17,28,32,179,28,29,37,139,27,31,18,205,,32,86,283,39*76
$GPGSV,5,4,17,36,52,277,,40,84,353,,41,58,082,31,49,32,274,*7E
$GPGSV,5,5,17,50,10,089,*4A
$GLGSV,3,1,09,67,04,018,14,68,46,354,23,69,60,257,22,70,05,213,*63
$GLGSV,3,2,09,79,14,170,19,80,15,222,,81,29,106,30,82,38,046,30*60
$GLGSV,3,3,09,83,14,356,*52
$GNGLL,0419.92009,S,05539.85345,E,103320.00,A,A*62
$GNRMC,103321.00,A,0419.92008,S,05539.85343,E,0.013,,020625,,,A*7C
$GNVTG,,T,,M,0.013,N,0.024,K,A*39
$GNGGA,103321.00,0419.92008,S,05539.85343,E,1,08,1.26,19.7,M,-47.6,M,,*4B
$GNGSA,A,3,32,29,10,18,25,,,,,,,,2.07,1.26,1.65*1B
$GNGSA,A,3,68,81,82,,,,,,,,,,2.07,1.26,1.65*13
$GPGSV,5,1,17,10,27,339,23,16,23,272,,18,27,051,29,23,10,018,10*7D
$GPGSV,5,2,17,24,03,067,08,25,09,144,15,26,31,239,25,27,20,326,14*73
$GPGSV,5,3,17,28,32,179,27,29,37,139,29,31,18,205,,32,86,283,35*7B
$GPGSV,5,4,17,36,52,277,,40,84,353,,41,58,082,31,49,32,274,*7E
$GPGSV,5,5,17,50,10,089,*4A
$GLGSV,3,1,09,67,04,018,10,68,46,354,23,69,60,257,22,70,05,213,*67
$GLGSV,3,2,09,79,14,170,19,80,15,222,,81,29,106,29,82,38,046,30*68
$GLGSV,3,3,09,83,14,356,*52
$GNGLL,0419.92008,S,05539.85343,E,103321.00,A,A*64
$GNRMC,103322.00,A,0419.92007,S,05539.85372,E,0.089,,020625,,,A*71
$GNVTG,,T,,M,0.089,N,0.164,K,A*3F
$GNGGA,103322.00,0419.92007,S,05539.85372,E,1,09,1.22,20.8,M,-47.6,M,,*45
$GNGSA,A,3,32,29,23,10,18,25,,,,,,,1.90,1.22,1.45*11
$GNGSA,A,3,68,81,82,,,,,,,,,,1.90,1.22,1.45*18
$GPGSV,5,1,17,10,27,339,20,16,23,272,,18,27,051,29,23,10,018,10*7E
$GPGSV,5,2,17,24,03,067,12,25,09,144,16,26,31,239,21,27,20,326,16*7D
$GPGSV,5,3,17,28,32,179,26,29,37,139,29,31,18,205,,32,86,283,37*78
$GPGSV,5,4,17,36,52,277,,40,84,353,,41,58,082,31,49,32,274,*7E
$GPGSV,5,5,17,50,10,089,*4A
$GLGSV,3,1,09,67,04,018,08,68,46,354,22,69,60,257,22,70,05,213,*6F
$GLGSV,3,2,09,79,14,170,20,80,15,222,,81,29,106,29,82,38,046,31*63
$GLGSV,3,3,09,83,14,356,*52
$GNGLL,0419.92007,S,05539.85372,E,103322.00,A,A*6A
$GNRMC,103323.00,A,0419.92005,S,05539.85386,E,0.142,,020625,,,A*7F
$GNVTG,,T,,M,0.142,N,0.263,K,A*3D
$GNGGA,103323.00,0419.92005,S,05539.85386,E,1,08,1.26,21.3,M,-47.6,M,,*42
$GNGSA,A,3,32,29,10,18,25,,,,,,,,2.07,1.26,1.65*1B
$GNGSA,A,3,68,81,82,,,,,,,,,,2.07,1.26,1.65*13
$GPGSV,5,1,17,10,26,339,19,16,23,272,,18,27,051,29,23,10,018,09*7D
$GPGSV,5,2,17,24,03,067,09,25,09,144,14,26,31,239,19,27,20,326,17*7F
$GPGSV,5,3,17,28,32,179,28,29,37,139,33,31,18,205,,32,86,283,37*7D
$GPGSV,5,4,17,36,52,277,,40,84,353,,41,58,082,31,49,32,274,*7E
$GPGSV,5,5,17,50,10,089,*4A
$GLGSV,3,1,09,67,04,018,09,68,46,354,24,69,60,257,23,70,05,213,*69
$GLGSV,3,2,09,79,14,170,18,80,15,222,,81,29,106,29,82,38,046,30*69
$GLGSV,3,3,09,83,14,356,*52
$GNGLL,0419.92005,S,05539.85386,E,103323.00,A,A*62
$GNRMC,103324.00,A,0419.92003,S,05539.85404,E,0.158,,020625,,,A*78
$GNVTG,,T,,M,0.158,N,0.293,K,A*39
$GNGGA,103324.00,0419.92003,S,05539.85404,E,1,08,1.26,21.9,M,-47.6,M,,*44
$GNGSA,A,3,32,29,10,18,25,,,,,,,,2.07,1.26,1.65*1B
$GNGSA,A,3,68,81,82,,,,,,,,,,2.07,1.26,1.65*13
$GPGSV,5,1,17,10,26,339,17,16,23,272,,18,27,051,30,23,10,018,08*7A
$GPGSV,5,2,17,24,03,067,09,25,09,144,12,26,31,239,18,27,20,326,17*78
$GPGSV,5,3,17,28,32,179,25,29,37,139,31,31,18,205,,32,86,283,37*72
$GPGSV,5,4,17,36,52,277,,40,84,353,,41,58,082,34,49,32,274,*7B
$GPGSV,5,5,17,50,10,089,*4A
$GLGSV,3,1,09,67,04,018,12,68,46,354,23,69,60,257,25,70,05,213,*62
$GLGSV,3,2,09,79,14,170,17,80,15,222,,81,29,106,28,82,38,046,30*67
$GLGSV,3,3,09,83,14,356,*52
$GNGLL,0419.92003,S,05539.85404,E,103324.00,A,A*6E
$GNRMC,103325.00,A,0419.92003,S,05539.85415,E,0.187,,020625,,,A*7B
$GNVTG,,T,,M,0.187,N,0.346,K,A*32
$GNGGA,103325.00,0419.92003,S,05539.85415,E,1,08,1.26,22.2,M,-47.6,M,,*4D
$GNGSA,A,3,32,29,10,18,25,,,,,,,,2.07,1.26,1.65*1B
$GNGSA,A,3,68,81,82,,,,,,,,,,2.07,1.26,1.65*13
$GPGSV,5,1,17,10,26,339,16,16,23,272,,18,27,051,31,23,10,018,08*7A
$GPGSV,5,2,17,24,03,067,14,25,09,144,13,26,31,239,18,27,20,326,17*75
$GPGSV,5,3,17,28,32,179,23,29,37,139,29,31,18,205,,32,86,283,35*7F
$GPGSV,5,4,17,36,52,277,,40,84,353,,41,58,082,32,49,32,274,*7D
$GPGSV,5,5,17,50,10,089,*4A
$GLGSV,3,1,09,67,04,018,06,68,46,354,22,69,60,257,24,70,05,213,*67
$GLGSV,3,2,09,79,14,170,17,80,15,222,,81,29,106,28,82,38,046,28*6E
$GLGSV,3,3,09,83,14,356,*52
$GNGLL,0419.92003,S,05539.85415,E,103325.00,A,A*6F
$GNRMC,103326.00,A,0419.92006,S,05539.85423,E,0.242,,020625,,,A*72
$GNVTG,,T,,M,0.242,N,0.447,K,A*3E
$GNGGA,103326.00,0419.92006,S,05539.85423,E,1,08,1.26,22.5,M,-47.6,M,,*49
$GNGSA,A,3,32,29,10,18,25,,,,,,,,2.07,1.26,1.65*1B
$GNGSA,A,3,68,81,82,,,,,,,,,,2.07,1.26,1.65*13
$GPGSV,5,1,17,10,26,339,15,16,23,272,,18,27,051,30,23,10,018,07*77
$GPGSV,5,2,17,24,03,067,10,25,09,144,13,26,31,239,17,27,20,326,17*7E
$GPGSV,5,3,17,28,32,179,21,29,37,139,28,31,18,205,,32,86,283,33*7A
$GPGSV,5,4,17,36,52,277,,40,84,353,,41,58,082,31,49,32,274,*7E
$GPGSV,5,5,17,50,10,089,*4A
$GLGSV,3,1,09,67,04,018,08,68,46,354,23,69,60,257,21,70,05,213,*6D
$GLGSV,3,2,09,79,14,170,17,80,15,222,,81,29,106,28,82,38,046,33*64
$GLGSV,3,3,09,83,14,356,*52
$GNGLL,0419.92006,S,05539.85423,E,103326.00,A,A*6C
$GNRMC,103327.00,A,0419.92007,S,05539.85428,E,0.088,,020625,,,A*7D
$GNVTG,,T,,M,0.088,N,0.163,K,A*39
$GNGGA,103327.00,0419.92007,S,05539.85428,E,1,08,1.26,22.7,M,-47.6,M,,*40
$GNGSA,A,3,32,29,10,18,25,,,,,,,,2.07,1.26,1.65*1B
$GNGSA,A,3,68,81,82,,,,,,,,,,2.07,1.26,1.65*13
$GPGSV,5,1,17,10,26,339,18,16,23,272,,18,27,051,30,23,10,018,08*75
$GPGSV,5,2,17,24,03,067,12,25,09,144,13,26,31,239,15,27,20,326,15*7C
$GPGSV,5,3,17,28,32,179,22,29,37,139,29,31,18,205,,32,86,283,36*7D
$GPGSV,5,4,17,36,52,277,,40,84,353,,41,58,082,31,49,32,274,*7E
$GPGSV,5,5,17,50,10,089,*4A
$GLGSV,3,1,09,67,04,018,09,68,46,354,27,69,60,257,22,70,05,213,*6B
$GLGSV,3,2,09,79,14,170,18,80,15,222,,81,29,106,30,82,38,046,32*63
$GLGSV,3,3,09,83,14,356,*52
$GNGLL,0419.92007,S,05539.85428,E,103327.00,A,A*67
$GNRMC,103328.00,A,0419.92011,S,05539.85435,E,0.121,,020625,,,A*7B
$GNVTG,,T,,M,0.121,N,0.224,K,A*3B
$GNGGA,103328.00,0419.92011,S,05539.85435,E,1,08,1.26,23.0,M,-47.6,M,,*42
$GNGSA,A,3,32,29,10,18,25,,,,,,,,2.07,1.26,1.65*1B
$GNGSA,A,3,68,81,82,,,,,,,,,,2.07,1.26,1.65*13
$GPGSV,5,1,17,10,26,339,18,16,23,272,,18,27,051,30,23,10,018,*7D
$GPGSV,5,2,17,24,03,067,08,25,09,144,14,26,31,239,13,27,20,326,14*77
$GPGSV,5,3,17,28,32,179,21,29,37,139,28,31,18,205,,32,86,283,36*7F
$GPGSV,5,4,17,36,52,277,,40,84,353,,41,58,082,30,49,32,274,*7F
$GPGSV,5,5,17,50,10,089,*4A
$GLGSV,3,1,09,67,04,018,10,68,46,354,26,69,60,257,23,70,05,213,*63
$GLGSV,3,2,09,79,14,170,18,80,15,222,,81,29,106,29,82,38,046,31*68
$GLGSV,3,3,09,83,14,356,*52
$GNGLL,0419.92011,S,05539.85435,E,103328.00,A,A*63
$GNRMC,103329.00,A,0419.92005,S,05539.85440,E,0.201,,020625,,,A*7C
$GNVTG,,T,,M,0.201,N,0.372,K,A*38
$GNGGA,103329.00,0419.92005,S,05539.85440,E,1,08,1.26,23.3,M,-47.6,M,,*47
$GNGSA,A,3,32,29,10,18,25,,,,,,,,2.07,1.26,1.65*1B
$GNGSA,A,3,68,81,82,,,,,,,,,,2.07,1.26,1.65*13
$GPGSV,5,1,17,10,26,339,17,16,24,271,,18,27,051,31,23,10,018,*77
$GPGSV,5,2,17,24,03,067,10,25,09,144,15,26,31,239,13,27,20,326,15*7E
$GPGSV,5,3,17,28,32,179,24,29,37,139,17,31,18,205,,32,86,283,36*76
$GPGSV,5,4,17,36,52,277,,40,84,353,,41,58,082,31,49,32,274,*7E
$GPGSV,5,5,17,50,10,089,*4A
$GLGSV,3,1,09,67,04,018,10,68,46,354,24,69,60,257,22,70,05,213,*60
$GLGSV,3,2,09,79,14,170,16,80,15,222,,81,29,106,29,82,38,046,30*67
$GLGSV,3,3,09,83,14,356,*52
$GNGLL,0419.92005,S,05539.85440,E,103329.00,A,A*65
$GNRMC,103330.00,A,0419.92001,S,05539.85438,E,0.057,,020625,,,A*7E
$GNVTG,,T,,M,0.057,N,0.106,K,A*38
$GNGGA,103330.00,0419.92001,S,05539.85438,E,1,08,1.26,23.5,M,-47.6,M,,*42
$GNGSA,A,3,32,29,10,18,25,,,,,,,,2.07,1.26,1.65*1B
$GNGSA,A,3,68,81,82,,,,,,,,,,2.07,1.26,1.65*13
$GPGSV,5,1,17,10,26,339,16,16,24,271,,18,27,051,31,23,10,018,*76
$GPGSV,5,2,17,24,03,067,06,25,09,144,12,26,31,239,13,27,20,326,16*7D
$GPGSV,5,3,17,28,32,179,24,29,37,139,21,31,18,205,,32,86,283,36*73
$GPGSV,5,4,17,36,52,277,,40,84,353,,41,58,082,29,49,32,274,*77
$GPGSV,5,5,17,50,10,089,*4A
$GLGSV,3,1,09,67,04,018,12,68,46,354,23,69,60,257,25,70,05,213,*62
$GLGSV,3,2,09,79,14,170,17,80,15,222,,81,29,106,29,82,38,046,34*62
$GLGSV,3,3,09,83,14,356,*52
$GNGLL,0419.92001,S,05539.85438,E,103330.00,A,A*66
$GNRMC,103331.00,A,0419.92002,S,05539.85442,E,0.075,,020625,,,A*71
$GNVTG,,T,,M,0.075,N,0.139,K,A*34
$GNGGA,103331.00,0419.92002,S,05539.85442,E,1,08,1.26,23.6,M,-47.6,M,,*4E
$GNGSA,A,3,32,29,10,18,25,,,,,,,,2.07,1.26,1.65*1B
$GNGSA,A,3,68,81,82,,,,,,,,,,2.07,1.26,1.65*13
$GPGSV,5,1,17,10,26,339,16,16,24,271,,18,27,051,30,23,10,018,*77
$GPGSV,5,2,17,24,03,067,11,25,09,144,13,26,31,239,11,27,20,326,15*7B
$GPGSV,5,3,17,28,32,179,22,29,37,139,30,31,18,205,,32,86,283,29*7B
$GPGSV,5,4,17,36,52,277,,40,84,353,,41,58,082,30,49,32,274,*7F
$GPGSV,5,5,17,50,10,089,*4A
$GLGSV,3,1,09,67,04,018,12,68,46,354,23,69,60,257,25,70,05,213,*62
$GLGSV,3,2,09,79,14,170,17,80,15,222,,81,29,106,28,82,38,046,32*65
$GLGSV,3,3,09,83,14,356,*52
$GNGLL,0419.92002,S,05539.85442,E,103331.00,A,A*69
$GNRMC,103332.00,A,0419.92007,S,05539.85444,E,0.119,,020625,,,A*7A
$GNVTG,,T,,M,0.119,N,0.221,K,A*35
$GNGGA,103332.00,0419.92007,S,05539.85444,E,1,08,1.26,23.8,M,-47.6,M,,*40
$GNGSA,A,3,32,29,10,18,25,,,,,,,,2.07,1.26,1.65*1B
$GNGSA,A,3,68,81,82,,,,,,,,,,2.07,1.26,1.65*13
$GPGSV,5,1,17,10,26,339,15,16,24,271,,18,27,051,26,23,10,018,*73
$GPGSV,5,2,17,24,03,067,11,25,09,144,12,26,31,239,10,27,20,326,14*7A
$GPGSV,5,3,17,28,32,179,20,29,37,139,30,31,18,205,,32,86,283,33*72
$GPGSV,5,4,17,36,52,277,,40,84,353,,41,58,082,30,49,32,274,*7F
$GPGSV,5,5,17,50,10,089,*4A
$GLGSV,3,1,09,67,04,018,12,68,46,354,22,69,60,257,24,70,05,213,*62
$GLGSV,3,2,09,79,14,170,16,80,15,222,,81,29,106,27,82,38,046,27*6F
$GLGSV,3,3,09,83,14,356,*52
$GNGLL,0419.92007,S,05539.85444,E,103332.00,A,A*69
$GNRMC,103333.00,A,0419.92009,S,05539.85452,E,0.165,,020625,,,A*79
$GNVTG,,T,,M,0.165,N,0.305,K,A*39
$GNGGA,103333.00,0419.92009,S,05539.85452,E,1,08,1.26,24.0,M,-47.6,M,,*47
$GNGSA,A,3,32,29,10,18,25,,,,,,,,2.07,1.26,1.65*1B
$GNGSA,A,3,68,81,82,,,,,,,,,,2.07,1.26,1.65*13
$GPGSV,5,1,17,10,26,339,13,16,24,271,,18,27,051,27,23,10,018,*74
$GPGSV,5,2,17,24,03,067,11,25,09,144,12,26,31,239,11,27,20,326,15*7A
$GPGSV,5,3,17,28,32,179,18,29,37,139,21,31,18,205,,32,86,283,32*78
$GPGSV,5,4,17,36,52,277,,40,84,353,,41,58,082,29,49,32,274,*77
$GPGSV,5,5,17,50,10,089,*4A
$GLGSV,3,1,09,67,04,018,11,68,46,354,22,69,60,257,22,70,05,213,*67
$GLGSV,3,2,09,79,14,170,18,80,15,222,,81,29,106,29,82,38,046,27*6F
$GLGSV,3,3,09,83,14,356,*52
$GNGLL,0419.92009,S,05539.85452,E,103333.00,A,A*61
$GNRMC,103334.00,A,0419.92013,S,05539.85453,E,0.115,,020625,,,A*73
$GNVTG,,T,,M,0.115,N,0.212,K,A*39
$GNGGA,103334.00,0419.92013,S,05539.85453,E,1,08,1.31,24.1,M,-47.6,M,,*4D
$GNGSA,A,3,32,29,10,18,25,,,,,,,,2.17,1.31,1.74*1C
$GNGSA,A,3,68,81,82,,,,,,,,,,2.17,1.31,1.74*14
$GPGSV,5,1,17,10,26,339,12,16,24,271,,18,27,051,27,23,10,018,*75
$GPGSV,5,2,17,24,03,067,11,25,09,144,14,26,31,239,13,27,20,326,16*7D
$GPGSV,5,3,17,28,32,179,18,29,37,139,21,31,18,205,,32,86,283,32*78
$GPGSV,5,4,17,36,52,277,,40,84,353,,41,58,082,30,49,32,274,*7F
$GPGSV,5,5,17,50,10,089,*4A
$GLGSV,3,1,09,67,04,018,11,68,46,354,21,69,60,257,20,70,05,213,*66
$GLGSV,3,2,09,79,14,170,17,80,15,222,,81,29,106,30,82,38,046,27*68
$GLGSV,3,3,09,83,14,356,*52
$GNGLL,0419.92013,S,05539.85453,E,103334.00,A,A*6C
$GNRMC,103335.00,A,0419.92014,S,05539.85451,E,0.089,,020625,,,A*73
$GNVTG,,T,,M,0.089,N,0.165,K,A*3E
$GNGGA,103335.00,0419.92014,S,05539.85451,E,1,08,1.31,24.1,M,-47.6,M,,*49
$GNGSA,A,3,32,29,10,18,25,,,,,,,,2.17,1.31,1.74*1C
$GNGSA,A,3,68,81,82,,,,,,,,,,2.17,1.31,1.74*14
$GPGSV,5,1,17,10,26,339,13,16,24,271,,18,27,051,28,23,10,019,*7A
$GPGSV,5,2,17,24,03,067,11,25,09,144,14,26,31,239,16,27,20,326,16*78
$GPGSV,5,3,17,28,32,179,17,29,37,139,25,31,18,205,,32,86,283,32*73
$GPGSV,5,4,17,36,52,277,,40,84,353,,41,58,082,31,49,32,274,*7E
$GPGSV,5,5,17,50,10,089,*4A
$GLGSV,3,1,09,67,04,018,09,68,46,354,23,69,60,257,20,70,05,213,*6D
$GLGSV,3,2,09,79,14,170,14,80,15,222,,81,29,106,29,82,38,046,30*65
$GLGSV,3,3,09,83,14,356,*52
$GNGLL,0419.92014,S,05539.85451,E,103335.00,A,A*68
$GNRMC,103336.00,A,0419.92011,S,05539.85478,E,0.202,,020625,,,A*7F
$GNVTG,,T,,M,0.202,N,0.375,K,A*3C
$GNGGA,103336.00,0419.92011,S,05539.85478,E,1,08,1.31,25.0,M,-47.6,M,,*44
$GNGSA,A,3,32,29,10,18,25,,,,,,,,2.17,1.31,1.74*1C
$GNGSA,A,3,68,81,82,,,,,,,,,,2.17,1.31,1.74*14
$GPGSV,5,1,17,10,26,339,13,16,24,271,,18,27,051,29,23,10,019,*7B
$GPGSV,5,2,17,24,02,067,11,25,09,144,13,26,31,239,16,27,20,326,15*7D
$GPGSV,5,3,17,28,32,179,15,29,37,139,27,31,18,205,,32,86,283,27*77
$GPGSV,5,4,17,36,52,277,,40,84,353,,41,58,082,30,49,32,274,*7F
$GPGSV,5,5,17,50,10,089,*4A
$GLGSV,3,1,09,67,04,018,09,68,46,354,22,69,60,257,21,70,05,213,*6D
$GLGSV,3,2,09,79,14,170,15,80,15,222,,81,29,106,28,82,38,046,28*6C
$GLGSV,3,3,09,83,14,356,*52
$GNGLL,0419.92011,S,05539.85478,E,103336.00,A,A*65
$GNRMC,103337.00,A,0419.92015,S,05539.85483,E,0.153,,020625,,,A*79
$GNVTG,,T,,M,0.153,N,0.283,K,A*33
$GNGGA,103337.00,0419.92015,S,05539.85483,E,1,08,1.31,25.2,M,-47.6,M,,*47
$GNGSA,A,3,32,29,10,18,25,,,,,,,,2.17,1.31,1.74*1C
$GNGSA,A,3,68,81,82,,,,,,,,,,2.17,1.31,1.74*14
$GPGSV,5,1,17,10,26,339,11,16,24,271,,18,27,051,27,23,10,019,*77
$GPGSV,5,2,17,24,02,067,11,25,09,143,12,26,31,239,15,27,20,326,12*7F
$GPGSV,5,3,17,28,32,179,14,29,37,139,23,31,18,205,,32,86,283,32*76
$GPGSV,5,4,17,36,52,277,,40,84,353,,41,58,082,29,49,32,274,*77
$GPGSV,5,5,17,50,10,089,*4A
$GLGSV,3,1,09,67,04,018,09,68,46,354,21,69,60,257,20,70,05,213,*6F
$GLGSV,3,2,09,79,14,170,15,80,15,222,,81,29,106,26,82,38,046,28*62
$GLGSV,3,3,09,83,14,356,*52
$GNGLL,0419.92015,S,05539.85483,E,103337.00,A,A*64
$GNRMC,103338.00,A,0419.92021,S,05539.85491,E,0.166,,020625,,,A*74
$GNVTG,,T,,M,0.166,N,0.308,K,A*37
$GNGGA,103338.00,0419.92021,S,05539.85491,E,1,08,1.31,25.5,M,-47.6,M,,*4B
$GNGSA,A,3,32,29,10,18,25,,,,,,,,2.17,1.31,1.74*1C
$GNGSA,A,3,68,81,82,,,,,,,,,,2.17,1.31,1.74*14
$GPGSV,5,1,17,10,26,339,09,16,24,271,,18,27,051,26,23,10,019,*7F
$GPGSV,5,2,17,24,02,067,11,25,09,143,09,26,31,239,10,27,20,326,10*72
$GPGSV,5,3,17,28,32,179,13,29,37,139,21,31,18,205,,32,86,283,31*70
$GPGSV,5,4,17,36,52,277,,40,84,353,,41,58,082,28,49,32,274,*76
$GPGSV,5,5,17,50,10,089,*4A
$GLGSV,3,1,09,67,04,018,09,68,46,354,20,69,60,257,21,70,05,213,*6F
$GLGSV,3,2,09,79,14,170,14,80,15,222,,81,29,106,26,82,38,046,28*63
$GLGSV,3,3,09,83,14,356,*52
$GNGLL,0419.92021,S,05539.85491,E,103338.00,A,A*6F
$GNRMC,103339.00,A,0419.92024,S,05539.85497,E,0.138,,020625,,,A*7D
$GNVTG,,T,,M,0.138,N,0.256,K,A*36
$GNGGA,103339.00,0419.92024,S,05539.85497,E,1,08,1.26,26.1,M,-47.6,M,,*48
$GNGSA,A,3,32,29,10,18,25,,,,,,,,2.07,1.26,1.65*1B
$GNGSA,A,3,68,81,82,,,,,,,,,,2.07,1.26,1.65*13
$GPGSV,5,1,17,10,26,339,08,16,24,271,,18,27,051,25,23,10,019,*7D
$GPGSV,5,2,17,24,02,067,11,25,09,143,08,26,31,239,08,27,20,326,09*72
$GPGSV,5,3,17,28,32,179,14,29,37,139,17,31,18,205,,32,86,283,34*77
$GPGSV,5,4,17,36,52,277,,40,84,353,,41,58,082,29,49,32,274,*77
$GPGSV,5,5,17,50,10,089,*4A
$GLGSV,3,1,09,67,04,018,09,68,46,354,21,69,60,257,21,70,05,213,*6E
$GLGSV,3,2,09,79,14,170,13,80,15,222,,81,29,106,26,82,38,046,28*64
$GLGSV,3,3,09,83,14,356,*52
$GNGLL,0419.92024,S,05539.85497,E,103339.00,A,A*6D
$GNRMC,103340.00,A,0419.92016,S,05539.85503,E,0.177,,020625,,,A*75
$GNVTG,,T,,M,0.177,N,0.327,K,A*3A
$GNGGA,103340.00,0419.92016,S,05539.85503,E,1,07,1.58,26.2,M,-47.6,M,,*4E
$GNGSA,A,3,32,29,10,18,,,,,,,,,3.01,1.58,2.56*11
$GNGSA,A,3,68,81,82,,,,,,,,,,3.01,1.58,2.56*1E
$GPGSV,5,1,17,10,26,339,08,16,24,271,,18,27,051,25,23,10,019,*7D
$GPGSV,5,2,17,24,02,067,11,25,09,143,08,26,31,239,09,27,20,326,12*79
$GPGSV,5,3,17,28,33,178,16,29,37,139,17,31,18,205,,32,86,283,28*78
$GPGSV,5,4,17,36,52,277,,40,84,353,,41,58,082,29,49,32,274,*77
$GPGSV,5,5,17,50,10,089,*4A
$GLGSV,3,1,09,67,04,018,09,68,46,354,21,69,60,257,21,70,05,213,*6E
$GLGSV,3,2,09,79,14,170,11,80,15,222,,81,29,106,26,82,38,046,27*69
$GLGSV,3,3,09,83,14,356,*52
$GNGLL,0419.92016,S,05539.85503,E,103340.00,A,A*6E
$GNRMC,103341.00,A,0419.92015,S,05539.85513,E,0.185,,020625,,,A*7B
$GNVTG,,T,,M,0.185,N,0.342,K,A*34
$GNGGA,103341.00,0419.92015,S,05539.85513,E,1,07,1.58,26.4,M,-47.6,M,,*4B
$GNGSA,A,3,32,29,10,18,,,,,,,,,3.01,1.58,2.56*11
$GNGSA,A,3,68,81,82,,,,,,,,,,3.01,1.58,2.56*1E
$GPGSV,5,1,17,10,26,339,09,16,24,271,,18,27,051,23,23,10,019,*7A
$GPGSV,5,2,17,24,02,067,11,25,09,143,07,26,31,239,09,27,20,326,13*77
$GPGSV,5,3,17,28,33,178,17,29,37,139,14,31,18,205,,32,86,283,28*7A
$GPGSV,5,4,17,36,52,277,,40,84,353,,41,58,082,,49,32,274,*7C
$GPGSV,5,5,17,50,10,089,*4A
$GLGSV,3,1,09,67,04,018,09,68,46,354,21,69,60,257,21,70,05,213,*6E
$GLGSV,3,2,09,79,14,170,12,80,15,222,,81,29,106,27,82,38,046,18*67
$GLGSV,3,3,09,83,14,356,*52
$GNGLL,0419.92015,S,05539.85513,E,103341.00,A,A*6D
$GNRMC,103342.00,A,0419.92015,S,05539.85526,E,0.215,,020625,,,A*74
$GNVTG,,T,,M,0.215,N,0.398,K,A*39
$GNGGA,103342.00,0419.92015,S,05539.85526,E,1,07,1.57,26.7,M,-47.6,M,,*42
$GNGSA,A,3,32,29,10,18,,,,,,,,,3.01,1.57,2.56*1E
$GNGSA,A,3,68,81,82,,,,,,,,,,3.01,1.57,2.56*11
$GPGSV,5,1,17,10,26,339,09,16,24,271,,18,27,051,25,23,10,019,*7C
$GPGSV,5,2,17,24,02,067,11,25,09,143,07,26,31,239,10,27,20,326,14*78
$GPGSV,5,3,17,28,33,178,16,29,37,139,18,31,18,205,,32,86,283,28*77
$GPGSV,5,4,17,36,52,277,,40,84,353,,41,58,082,,49,32,274,*7C
$GPGSV,5,5,17,50,10,089,*4A
$GLGSV,3,1,09,67,04,018,09,68,46,354,23,69,60,257,21,70,05,213,*6C
$GLGSV,3,2,09,79,14,170,14,80,15,222,,81,29,106,28,82,38,046,32*66
$GLGSV,3,3,09,83,14,356,*52
$GNGLL,0419.92015,S,05539.85526,E,103342.00,A,A*68
$GNRMC,103343.00,A,0419.92024,S,05539.85524,E,0.141,,020625,,,A*77
$GNVTG,,T,,M,0.141,N,0.262,K,A*3F
$GNGGA,103343.00,0419.92024,S,05539.85524,E,1,07,1.56,27.1,M,-47.6,M,,*45
$GNGSA,A,3,32,29,10,18,,,,,,,,,2.64,1.56,2.13*1C
$GNGSA,A,3,68,81,82,,,,,,,,,,2.64,1.56,2.13*13
$GPGSV,5,1,17,10,26,339,10,16,24,271,,18,27,051,26,23,10,019,*77
$GPGSV,5,2,17,24,02,067,10,25,09,143,11,26,31,239,,27,20,326,12*79
$GPGSV,5,3,17,28,33,178,14,29,37,139,19,31,18,205,,32,86,283,27*7B
$GPGSV,5,4,17,36,52,277,,40,84,353,,41,58,082,,49,32,274,*7C
$GPGSV,5,5,17,50,10,089,*4A
$GLGSV,3,1,09,67,04,018,10,68,46,354,22,69,60,257,17,70,05,213,*60
$GLGSV,3,2,09,79,14,170,14,80,15,222,,81,29,106,27,82,38,046,27*6D
$GLGSV,3,3,09,83,14,356,*52
$GNGLL,0419.92024,S,05539.85524,E,103343.00,A,A*69
$GNRMC,103344.00,A,0419.92024,S,05539.85532,E,0.132,,020625,,,A*73
$GNVTG,,T,,M,0.132,N,0.245,K,A*3E
$GNGGA,103344.00,0419.92024,S,05539.85532,E,1,07,1.56,27.5,M,-47.6,M,,*41
$GNGSA,A,3,32,29,10,18,,,,,,,,,2.64,1.56,2.13*1C
$GNGSA,A,3,68,81,82,,,,,,,,,,2.64,1.56,2.13*13
$GPGSV,5,1,17,10,26,339,11,16,24,271,,18,27,051,26,23,10,019,*76
$GPGSV,5,2,17,24,02,067,08,25,09,143,09,26,31,239,,27,20,326,10*7B
$GPGSV,5,3,17,28,33,178,11,29,37,139,21,31,18,205,,32,86,289,28*70
$GPGSV,5,4,17,36,52,277,,40,84,353,,41,58,082,28,49,32,274,*76
$GPGSV,5,5,17,50,10,089,*4A
$GLGSV,3,1,09,67,04,018,10,68,46,354,22,69,60,257,17,70,05,213,*60
$GLGSV,3,2,09,79,14,170,13,80,15,222,,81,29,106,26,82,38,046,27*6B
$GLGSV,3,3,09,83,14,356,*52
$GNGLL,0419.92024,S,05539.85532,E,103344.00,A,A*69
$GNRMC,103345.00,A,0419.92033,S,05539.85511,E,0.182,,020625,,,A*7E
$GNVTG,,T,,M,0.182,N,0.338,K,A*3E
$GNGGA,103345.00,0419.92033,S,05539.85511,E,1,08,1.26,27.1,M,-47.6,M,,*4B
$GNGSA,A,3,32,29,10,18,25,,,,,,,,2.07,1.26,1.65*1B
$GNGSA,A,3,68,81,82,,,,,,,,,,2.07,1.26,1.65*13
$GPGSV,5,1,17,10,26,339,09,16,24,271,,18,27,051,28,23,10,019,*71
$GPGSV,5,2,17,24,02,067,08,25,09,143,11,26,31,239,,27,20,326,*73
$GPGSV,5,3,17,28,33,178,13,29,37,139,23,31,18,205,,32,86,289,29*71
$GPGSV,5,4,17,36,52,277,,40,84,353,,41,58,082,34,49,32,274,*7B
$GPGSV,5,5,17,50,10,089,*4A
$GLGSV,3,1,09,67,04,018,08,68,46,354,22,69,60,257,20,70,05,213,*6D
$GLGSV,3,2,09,79,14,170,15,80,15,222,,81,29,106,27,82,38,046,26*6D
$GLGSV,3,3,09,83,14,356,*52
$GNGLL,0419.92033,S,05539.85511,E,103345.00,A,A*6F
$GNRMC,103346.00,A,0419.92006,S,05539.85513,E,0.709,,020625,,,A*7C
$GNVTG,,T,,M,0.709,N,1.313,K,A*33
$GNGGA,103346.00,0419.92006,S,05539.85513,E,1,08,1.31,27.3,M,-47.6,M,,*48
$GNGSA,A,3,32,29,10,18,25,,,,,,,,2.17,1.31,1.74*1C
$GNGSA,A,3,68,81,82,,,,,,,,,,2.17,1.31,1.74*14
$GPGSV,5,1,17,10,26,339,11,16,24,271,,18,27,051,28,23,10,019,*78
$GPGSV,5,2,17,24,02,067,10,25,09,143,09,26,31,239,,27,20,326,*73
$GPGSV,5,3,17,28,33,178,,29,37,139,23,31,18,205,,32,86,289,32*79
$GPGSV,5,4,17,36,52,277,,40,84,353,,41,58,082,31,49,32,274,*7E
$GPGSV,5,5,17,50,10,089,*4A
$GLGSV,3,1,09,67,04,018,09,68,46,354,23,69,60,257,24,70,05,213,*69
$GLGSV,3,2,09,79,14,170,15,80,15,222,,81,29,106,26,82,38,046,28*62
$GLGSV,3,3,09,83,14,356,*52
$GNGLL,0419.92006,S,05539.85513,E,103346.00,A,A*68
$GNRMC,103347.00,A,0419.92002,S,05539.85512,E,0.483,,020625,,,A*79
$GNVTG,,T,,M,0.483,N,0.895,K,A*36
$GNGGA,103347.00,0419.92002,S,05539.85512,E,1,07,1.57,27.5,M,-47.6,M,,*45
$GNGSA,A,3,32,29,10,18,,,,,,,,,3.00,1.57,2.56*1F
$GNGSA,A,3,68,81,82,,,,,,,,,,3.00,1.57,2.56*10
$GPGSV,5,1,17,10,26,339,16,16,24,271,,18,27,051,28,23,10,019,*7F
$GPGSV,5,2,17,24,02,067,08,25,09,143,06,26,31,239,,27,20,326,*75
$GPGSV,5,3,17,28,33,178,,29,37,139,21,31,18,205,,32,86,289,32*7B
$GPGSV,5,4,17,36,52,277,,40,84,353,,41,58,082,30,49,32,274,*7F
$GPGSV,5,5,17,50,10,089,*4A
$GLGSV,3,1,09,67,04,018,08,68,46,354,24,69,60,257,22,70,05,213,*69
$GLGSV,3,2,09,79,14,170,15,80,15,222,,81,29,106,27,82,38,046,29*62
$GLGSV,3,3,09,83,14,356,*52
$GNGLL,0419.92002,S,05539.85512,E,103347.00,A,A*6C
$GNRMC,103348.00,A,0419.92001,S,05539.85495,E,0.304,,020625,,,A*73
$GNVTG,,T,,M,0.304,N,0.563,K,A*3A
$GNGGA,103348.00,0419.92001,S,05539.85495,E,1,08,1.26,27.2,M,-47.6,M,,*49
$GNGSA,A,3,32,29,10,18,25,,,,,,,,2.07,1.26,1.65*1B
$GNGSA,A,3,68,81,82,,,,,,,,,,2.07,1.26,1.65*13
$GPGSV,5,1,17,10,26,339,08,16,24,271,,18,27,051,27,23,10,019,*7F
$GPGSV,5,2,17,24,02,067,08,25,09,143,10,26,31,239,,27,20,326,*72
$GPGSV,5,3,17,28,33,178,,29,37,139,20,31,18,205,,32,86,289,31*79
$GPGSV,5,4,17,36,52,277,,40,84,353,,41,58,082,30,49,32,274,*7F
$GPGSV,5,5,17,50,10,089,*4A
$GLGSV,3,1,09,67,04,018,11,68,46,354,24,69,60,257,22,70,05,213,*61
$GLGSV,3,2,09,79,14,170,16,80,15,222,,81,29,106,27,82,38,046,30*69
$GLGSV,3,3,09,83,14,356,*52
$GNGLL,0419.92001,S,05539.85495,E,103348.00,A,A*6E
$GNRMC,103349.00,A,0419.92004,S,05539.85496,E,0.002,,020625,,,A*71
$GNVTG,,T,,M,0.002,N,0.003,K,A*3C
$GNGGA,103349.00,0419.92004,S,05539.85496,E,1,08,1.31,27.3,M,-47.6,M,,*49
$GNGSA,A,3,32,29,10,18,25,,,,,,,,2.17,1.31,1.74*1C
$GNGSA,A,3,68,81,82,,,,,,,,,,2.17,1.31,1.74*14
$GPGSV,5,1,17,10,26,339,11,16,24,271,,18,27,051,28,23,10,019,*78
$GPGSV,5,2,17,24,02,067,09,25,09,143,09,26,31,239,,27,20,326,*7B
$GPGSV,5,3,17,28,33,178,,29,37,139,22,31,18,205,,32,86,289,31*7B
$GPGSV,5,4,17,36,52,277,,40,84,353,,41,58,082,30,49,32,274,*7F
$GPGSV,5,5,17,50,10,089,*4A
$GLGSV,3,1,09,67,04,018,10,68,46,354,25,69,60,257,21,70,05,213,*62
$GLGSV,3,2,09,79,14,170,18,80,15,222,,81,29,106,27,82,38,046,30*67
$GLGSV,3,3,09,83,14,356,*52
$GNGLL,0419.92004,S,05539.85496,E,103349.00,A,A*69
$GNRMC,103350.00,A,0419.91999,S,05539.85502,E,0.081,,020625,,,A*70
$GNVTG,,T,,M,0.081,N,0.151,K,A*31
$GNGGA,103350.00,0419.91999,S,05539.85502,E,1,08,1.31,27.5,M,-47.6,M,,*45
$GNGSA,A,3,32,29,10,18,25,,,,,,,,2.17,1.31,1.74*1C
$GNGSA,A,3,68,81,82,,,,,,,,,,2.17,1.31,1.74*14
$GPGSV,5,1,17,10,26,339,12,16,24,271,,18,27,051,29,23,10,019,*7A
$GPGSV,5,2,17,24,02,067,08,25,09,143,12,26,31,239,,27,20,326,*70
$GPGSV,5,3,17,28,33,178,,29,37,139,22,31,18,205,,32,86,289,34*7E
$GPGSV,5,4,17,36,52,277,,40,84,353,,41,58,082,34,49,32,274,*7B
$GPGSV,5,5,17,50,10,089,*4A
$GLGSV,3,1,09,67,04,018,10,68,46,354,26,69,60,257,24,70,05,213,*64
$GLGSV,3,2,09,79,14,170,18,80,15,222,,81,29,106,28,82,38,046,31*69
$GLGSV,3,3,09,83,14,356,*52
$GNGLL,0419.91999,S,05539.85502,E,103350.00,A,A*63
$GNRMC,103351.00,A,0419.91998,S,05539.85512,E,0.196,,020625,,,A*76
$GNVTG,,T,,M,0.196,N,0.363,K,A*35
$GNGGA,103351.00,0419.91998,S,05539.85512,E,1,08,1.31,27.7,M,-47.6,M,,*46
$GNGSA,A,3,32,29,10,18,25,,,,,,,,2.17,1.31,1.74*1C
$GNGSA,A,3,68,81,82,,,,,,,,,,2.17,1.31,1.74*14
$GPGSV,5,1,17,10,26,339,09,16,24,271,,18,27,051,30,23,10,019,*78
$GPGSV,5,2,17,24,02,067,12,25,09,143,09,26,31,239,,27,20,326,*71
$GPGSV,5,3,17,28,33,178,18,29,37,139,22,31,18,205,,32,86,289,31*72
$GPGSV,5,4,17,36,52,277,,40,84,353,,41,58,082,33,49,32,274,*7C
$GPGSV,5,5,17,50,10,089,*4A
$GLGSV,3,1,09,67,04,018,07,68,46,354,27,69,60,257,26,70,05,213,*61
$GLGSV,3,2,09,79,14,170,17,80,15,222,,81,29,106,29,82,38,046,33*65
$GLGSV,3,3,09,83,14,356,*52
$GNGLL,0419.91998,S,05539.85512,E,103351.00,A,A*62
$GNRMC,103352.00,A,0419.91994,S,05539.85517,E,0.283,,020625,,,A*7B
$GNVTG,,T,,M,0.283,N,0.523,K,A*30
$GNGGA,103352.00,0419.91994,S,05539.85517,E,1,08,1.31,27.8,M,-47.6,M,,*43
$GNGSA,A,3,32,29,10,18,25,,,,,,,,2.17,1.31,1.74*1C
$GNGSA,A,3,68,81,82,,,,,,,,,,2.17,1.31,1.74*14
$GPGSV,5,1,17,10,26,339,08,16,24,271,,18,27,051,28,23,10,019,*70
$GPGSV,5,2,17,24,02,067,12,25,09,143,11,26,31,239,,27,20,326,*78
$GPGSV,5,3,17,28,33,178,18,29,37,139,21,31,18,205,,32,86,289,31*71
$GPGSV,5,4,17,36,52,277,,40,84,353,,41,58,082,31,49,32,274,*7E
$GPGSV,5,5,17,50,10,089,*4A
$GLGSV,3,1,09,67,04,018,09,68,46,354,26,69,60,257,25,70,05,213,*6D
$GLGSV,3,2,09,79,14,170,17,80,15,222,,81,29,106,28,82,38,046,26*60
$GLGSV,3,3,09,83,14,356,*52
$GNGLL,0419.91994,S,05539.85517,E,103352.00,A,A*68
$GNRMC,103353.00,A,0419.91986,S,05539.85524,E,0.285,,020625,,,A*7F
$GNVTG,,T,,M,0.285,N,0.528,K,A*3D
$GNGGA,103353.00,0419.91986,S,05539.85524,E,1,08,1.31,27.9,M,-47.6,M,,*40
$GNGSA,A,3,32,29,10,18,25,,,,,,,,2.17,1.31,1.74*1C
$GNGSA,A,3,68,81,82,,,,,,,,,,2.17,1.31,1.74*14
$GPGSV,5,1,17,10,26,339,14,16,24,271,,18,27,051,25,23,10,019,*70
$GPGSV,5,2,17,24,02,067,08,25,09,143,13,26,31,239,18,27,20,326,*78
$GPGSV,5,3,17,28,33,178,17,29,37,139,22,31,18,205,,32,86,289,30*7C
$GPGSV,5,4,17,36,52,277,,40,84,353,,41,58,082,31,49,32,274,*7E
$GPGSV,5,5,17,50,10,089,*4A
$GLGSV,3,1,09,67,04,018,06,68,46,354,25,69,60,257,21,70,05,213,*65
$GLGSV,3,2,09,79,14,170,16,80,15,222,,81,29,106,28,82,38,046,25*62
$GLGSV,3,3,09,83,14,356,*52
$GNGLL,0419.91986,S,05539.85524,E,103353.00,A,A*6A
$GNRMC,103354.00,A,0419.91983,S,05539.85494,E,0.113,,020625,,,A*7B
$GNVTG,,T,,M,0.113,N,0.210,K,A*3D
$GNGGA,103354.00,0419.91983,S,05539.85494,E,1,08,1.26,27.2,M,-47.6,M,,*45
$GNGSA,A,3,32,29,10,18,25,,,,,,,,2.07,1.26,1.65*1B
$GNGSA,A,3,68,81,82,,,,,,,,,,2.07,1.26,1.65*13
$GPGSV,5,1,17,10,26,339,12,16,24,271,,18,27,051,31,23,10,019,*73
$GPGSV,5,2,17,24,02,067,07,25,09,143,07,26,31,239,18,27,20,326,*72
$GPGSV,5,3,17,28,33,178,16,29,37,139,21,31,18,205,,32,86,289,29*76
$GPGSV,5,4,17,36,52,277,,40,84,353,,41,58,082,33,49,32,274,*7C
$GPGSV,5,5,17,50,10,089,*4A
$GLGSV,3,1,09,67,04,018,08,68,46,354,23,69,60,257,20,70,05,213,*6C
$GLGSV,3,2,09,79,14,170,17,80,15,222,,81,29,106,27,82,38,046,26*6F
$GLGSV,3,3,09,83,14,356,*52
$GNGLL,0419.91983,S,05539.85494,E,103354.00,A,A*62
$GNRMC,103355.00,A,0419.91980,S,05539.85501,E,0.204,,020625,,,A*71
$GNVTG,,T,,M,0.204,N,0.377,K,A*38
$GNGGA,103355.00,0419.91980,S,05539.85501,E,1,08,1.26,27.3,M,-47.6,M,,*4B
$GNGSA,A,3,32,29,10,18,25,,,,,,,,2.07,1.26,1.65*1B
$GNGSA,A,3,68,81,82,,,,,,,,,,2.07,1.26,1.65*13
$GPGSV,5,1,17,10,26,339,16,16,24,271,,18,27,051,27,23,10,019,*70
$GPGSV,5,2,17,24,02,067,09,25,09,143,13,26,31,239,17,27,20,326,*76
$GPGSV,5,3,17,28,33,178,15,29,37,139,20,31,18,205,,32,86,289,29*74
$GPGSV,5,4,17,36,52,277,,40,84,353,,41,58,082,30,49,32,274,*7F
$GPGSV,5,5,17,50,10,089,*4A
$GLGSV,3,1,09,67,04,018,05,68,46,354,23,69,60,257,20,70,05,213,*61
$GLGSV,3,2,09,79,14,170,16,80,15,222,,81,29,106,27,82,38,046,27*6F
$GLGSV,3,3,09,83,14,356,*52
$GNGLL,0419.91980,S,05539.85501,E,103355.00,A,A*6D
$GNRMC,103356.00,A,0419.91982,S,05539.85500,E,0.239,,020625,,,A*7F
$GNVTG,,T,,M,0.239,N,0.444,K,A*31
$GNGGA,103356.00,0419.91982,S,05539.85500,E,1,08,1.26,27.3,M,-47.6,M,,*4B
$GNGSA,A,3,32,29,10,18,25,,,,,,,,2.07,1.26,1.65*1B
$GNGSA,A,3,68,81,82,,,,,,,,,,2.07,1.26,1.65*13
$GPGSV,5,1,17,10,26,339,13,16,24,271,,18,27,051,27,23,10,019,*75
$GPGSV,5,2,17,24,02,067,11,25,09,143,10,26,31,239,15,27,20,326,*7E
$GPGSV,5,3,17,28,33,178,17,29,37,139,22,31,18,205,,32,86,289,29*74
$GPGSV,5,4,17,36,52,277,,40,84,353,,41,58,082,29,49,32,274,*77
$GPGSV,5,5,17,50,10,089,*4A
$GLGSV,3,1,09,67,04,018,13,68,46,354,24,69,60,257,22,70,05,213,*63
$GLGSV,3,2,09,79,14,170,17,80,15,222,,81,29,106,27,82,38,046,27*6E
$GLGSV,3,3,09,83,14,356,*52
$GNGLL,0419.91982,S,05539.85500,E,103356.00,A,A*6D
$GNRMC,103357.00,A,0419.91978,S,05539.85521,E,0.326,,020625,,,A*77
$GNVTG,,T,,M,0.326,N,0.604,K,A*38
$GNGGA,103357.00,0419.91978,S,05539.85521,E,1,08,1.26,27.9,M,-47.6,M,,*46
$GNGSA,A,3,32,29,10,18,25,,,,,,,,2.07,1.26,1.65*1B
$GNGSA,A,3,68,81,82,,,,,,,,,,2.07,1.26,1.65*13
$GPGSV,5,1,17,10,26,339,11,16,24,271,,18,27,051,28,23,10,019,*78
$GPGSV,5,2,17,24,02,067,07,25,09,143,10,26,31,239,12,27,20,326,*7E
$GPGSV,5,3,17,28,33,178,16,29,37,139,23,31,18,205,,32,86,289,32*7E
$GPGSV,5,4,17,36,52,277,,40,84,353,,41,58,082,29,49,32,274,*77
$GPGSV,5,5,17,50,10,089,*4A
$GLGSV,3,1,09,67,04,018,04,68,46,354,25,69,60,257,24,70,05,213,*62
$GLGSV,3,2,09,79,14,170,16,80,15,222,,81,29,106,28,82,38,046,30*66
$GLGSV,3,3,09,83,14,356,*52
$GNGLL,0419.91978,S,05539.85521,E,103357.00,A,A*6A
$GNRMC,103358.00,A,0419.91980,S,05539.85524,E,0.155,,020625,,,A*7C
$GNVTG,,T,,M,0.155,N,0.287,K,A*31
$GNGGA,103358.00,0419.91980,S,05539.85524,E,1,08,1.26,27.9,M,-47.6,M,,*4B
$GNGSA,A,3,32,29,10,18,25,,,,,,,,2.07,1.26,1.65*1B
$GNGSA,A,3,68,81,82,,,,,,,,,,2.07,1.26,1.65*13
$GPGSV,5,1,17,10,26,339,16,16,24,271,,18,27,051,29,23,10,019,*7E
$GPGSV,5,2,17,24,02,067,11,25,09,143,13,26,31,239,10,27,20,326,*78
$GPGSV,5,3,17,28,33,178,13,29,37,139,22,31,18,205,,32,86,289,33*7B
$GPGSV,5,4,17,36,52,277,,40,84,353,,41,58,082,30,49,32,274,*7F
$GPGSV,5,5,17,50,10,089,*4A
$GLGSV,3,1,09,67,04,018,09,68,46,354,27,69,60,257,27,70,05,213,*6E
$GLGSV,3,2,09,79,14,170,18,80,15,222,,81,29,106,28,82,38,046,34*6C
$GLGSV,3,3,09,83,14,356,*52
$GNGLL,0419.91980,S,05539.85524,E,103358.00,A,A*67
$GNRMC,103359.00,A,0419.91979,S,05539.85529,E,0.115,,020625,,,A*72
$GNVTG,,T,,M,0.115,N,0.212,K,A*39
$GNGGA,103359.00,0419.91979,S,05539.85529,E,1,08,1.26,28.2,M,-47.6,M,,*45
$GNGSA,A,3,32,29,10,18,25,,,,,,,,2.07,1.26,1.65*1B
$GNGSA,A,3,68,81,82,,,,,,,,,,2.07,1.26,1.65*13
$GPGSV,5,1,17,10,26,339,11,16,24,271,,18,27,051,28,23,10,019,*78
$GPGSV,5,2,17,24,02,067,08,25,09,143,12,26,31,239,13,27,20,326,*72
$GPGSV,5,3,17,28,33,178,13,29,37,139,20,31,18,205,,32,86,289,28*73
$GPGSV,5,4,17,36,52,277,,40,84,353,,41,58,082,31,49,32,274,*7E
$GPGSV,5,5,17,50,10,089,*4A
$GLGSV,3,1,09,67,04,018,13,68,46,354,26,69,60,257,24,70,05,213,*67
