b0@r;>
t!S?'|?*70
! <f
{4Ta:R 
Yj
AB05sCLMVtW1bX$br;\$GNRMC,121554.00,A,0419.77751,S,05539.73948,E,0.082,,220525,,,A*79
$GNVTG,,T,,M,0.082,N,0.152,K,A*31
$GNGNS,121554.00,0419.77751,S,05539.73948,E,AA,17,0.62,21.2,-47.6,,*6C
$GNGGA,121554.00,0419.77751,S,05539.73948,E,1,12,0.62,21.2,M,-47.6,M,,*43
$GNGSA,A,3,32,28,27,18,26,31,16,29,10,08,,,1.44,0.62,1.30*1F
$GNGSA,A,3,66,87,65,88,67,86,76,,,,,,1.44,0.62,1.30*19
$GPGSV,5,1,17,08,07,318,12,10,16,002,14,16,25,242,22,18,33,083,19*72
$GPGSV,5,2,17,23,03,039,09,25,00,124,,26,29,212,13,27,42,311,28*7F
$GPGSV,5,3,17,28,48,152,29,29,14,148,10,31,33,187,19,32,60,358,25*7A
$GPGSV,5,4,17,36,52,277,,40,84,353,28,41,58,082,,49,32,274,*76
$GPGSV,5,5,17,50,10,089,*4A
$GLGSV,2,1,08,65,20,001,13,66,48,309,14,67,27,239,26,76,13,142,11*63
$GLGSV,2,2,08,77,15,188,,86,16,136,17,87,49,098,26,88,36,006,24*61
$GNGLL,0419.77751,S,05539.73948,E,121554.00,A,A*68
$GNGRS,121554.00,1,27.6,5.2,-6.0,-1.9,13.4,2.6,1.6,20.1,6.3,35.4,,*5D
$GNGRS,121554.00,1,-4.0,-1.1,10.2,4.6,-7.7,3.7,9.4,,,,,*69
$GNGST,121554.00,2975154,,,,4.9,4.9,15*5C
$GNZDA,121554.00,22,05,2025,00,00*7E
$GNGBS,121554.00,4.9,4.9,15.0,,,,*6D
$GNTXT,01,01,01,More than 100 frame errors, UART RX was disabled*70
b0@v;
>
yb!S'-|;*70l
!q <f{4 Ta:R 
Yj
AB05bCL
MVW1bYX$`bv;`$GNRMC,121555.00,A,0419.77752,S,05539.73947,E,0.104,,220525,,,A*7B
$GNVTG,,T,,M,0.104,N,0.193,K,A*33
$GNGNS,121555.00,0419.77752,S,05539.73947,E,AA,16,0.62,21.9,-47.6,,*6B
$GNGGA,121555.00,0419.77752,S,05539.73947,E,1,12,0.62,21.9,M,-47.6,M,,*45
$GNGSA,A,3,32,28,27,18,26,31,16,29,10,08,,,1.44,0.62,1.30*1F
$GNGSA,A,3,87,65,88,67,86,76,,,,,,,1.44,0.62,1.30*19
$GPGSV,5,1,17,08,07,318,10,10,16,002,16,16,25,242,23,18,33,083,19*73
$GPGSV,5,2,17,23,03,039,13,25,00,124,,26,29,212,17,27,42,311,27*7F
$GPGSV,5,3,17,28,48,152,28,29,14,148,10,31,33,187,20,32,60,358,27*73
$GPGSV,5,4,17,36,52,277,,40,84,353,32,41,58,082,,49,32,274,*7D
$GPGSV,5,5,17,50,10,089,*4A
$GLGSV,2,1,08,65,20,001,08,66,48,309,09,67,27,239,28,76,13,142,10*6A
$GLGSV,2,2,08,77,15,188,,86,16,136,15,87,49,098,24,88,36,006,23*66
$GNGLL,0419.77752,S,05539.73947,E,121555.00,A,A*65
$GNGRS,121555.00,1,21.9,6.2,-0.4,-0.5,13.4,3.7,1.0,20.0,6.3,35.4,,*5E
$GNGRS,121555.00,1,-1.7,10.1,3.5,-5.9,4.9,9.4,,,,,,*6B
$GNGST,121555.00,4206863,,,,4.9,4.9,15*59
$GNZDA,121555.00,22,05,2025,00,00*7F
$GNGBS,121555.00,4.9,4.9,15.1,,,,*6D
$GNTXT,01,01,01,More than 100 frame errors, UART RX was disabled*70
b0@z;>
'c!S'AP|N*70! <f}{4"Ta:R 
Yj
AB05vCbL.MVW1bnX$ubz;dz$GNRMC,121556.00,A,0419.77747,S,05539.73958,E,0.046,,220525,,,A*75
$GNVTG,,T,,M,0.046,N,0.086,K,A*31
$GNGNS,121556.00,0419.77747,S,05539.73958,E,AA,16,0.61,21.8,-47.6,,*60
$GNGGA,121556.00,0419.77747,S,05539.73958,E,1,12,0.61,21.8,M,-47.6,M,,*4E
$GNGSA,A,3,32,28,27,18,26,31,16,29,10,,,,1.41,0.61,1.27*17
$GNGSA,A,3,66,87,65,88,67,86,76,,,,,,1.41,0.61,1.27*19
$GPGSV,5,1,17,08,07,318,,10,16,002,13,16,25,242,23,18,33,083,21*7C
$GPGSV,5,2,17,23,03,039,09,25,00,124,,26,29,212,16,27,42,311,27*75
$GPGSV,5,3,17,28,48,152,28,29,14,148,14,31,33,187,21,32,60,358,28*79
$GPGSV,5,4,17,36,52,277,,40,84,353,34,41,58,082,,49,32,274,*7B
$GPGSV,5,5,17,50,10,089,*4A
$GLGSV,2,1,08,65,20,001,11,66,48,309,12,67,27,239,31,76,13,142,09*68
$GLGSV,2,2,08,77,15,188,,86,16,136,20,87,49,098,27,88,36,006,25*65
$GNGLL,0419.77747,S,05539.73958,E,121556.00,A,A*6C
$GNGRS,121556.00,1,14.1,4.5,-5.4,0.0,0.8,2.7,1.0,14.6,5.5,,,*5C
$GNGRS,121556.00,1,-3.9,-1.5,25.2,4.0,-6.7,2.5,13.3,,,,,*5F
$GNGST,121556.00,63,,,,4.9,4.8,15*63
$GNZDA,121556.00,22,05,2025,00,00*7C
$GNGBS,121556.00,4.9,4.8,14.9,,,,*66
$GNTXT,01,01,01,More than 100 frame errors, UART RX was disabled*70
b0@~;>
K!S
(|B *7~0S!  <f{4$Ta:R 
Yj
AB05}C!LMVW1bX${b~;zhy$GNRMC,121557.00,A,0419.77743,S,05539.73967,E,0.072,,220525,,,A*7B
$GNVTG,,T,,M,0.072,N,0.133,K,A*39
$GNGNS,121557.00,0419.77743,S,05539.73967,E,AA,16,0.62,22.3,-47.6,,*62
$GNGGA,121557.00,0419.77743,S,05539.73967,E,1,12,0.62,22.3,M,-47.6,M,,*4C
$GNGSA,A,3,32,28,27,18,26,31,16,29,10,,,,1.44,0.62,1.30*17
$GNGSA,A,3,66,87,65,88,67,86,76,,,,,,1.44,0.62,1.30*19
$GPGSV,5,1,17,08,07,318,,10,16,002,15,16,25,242,25,18,33,083,23*7E
$GPGSV,5,2,17,23,02,040,10,25,00,124,,26,29,212,16,27,42,311,32*76
$GPGSV,5,3,17,28,48,152,29,29,14,148,14,31,33,187,21,32,60,358,32*73
$GPGSV,5,4,17,36,52,277,,40,84,353,36,41,58,082,,49,32,274,*79
$GPGSV,5,5,17,50,10,089,*4A
$GLGSV,2,1,08,65,20,001,11,66,48,309,19,67,27,239,33,76,13,142,08*60
$GLGSV,2,2,08,77,15,188,,86,16,136,21,87,49,098,28,88,36,006,25*6B
$GNGLL,0419.77743,S,05539.73967,E,121557.00,A,A*65
$GNGRS,121557.00,1,10.3,11.1,-6.4,-1.3,13.5,2.2,0.7,20.1,7.3,,,*7F
$GNTXT,01,01,01,More than 100 frame errors, UART RX was disabled*70
$GNGRS,121557.00,1,-3.9,-0.2,10.0,3.8,-8.8,4.6,9.2,,,,,*6D
$GNGST,121557.00,225802,,,,4.8,4.8,15*69
$GNZDA,121557.00,22,05,2025,00,00*7D
$GNGBS,121557.00,4.8,4.8,14.9,,,,*66
b0@;>
Q!S[(|-!*70&! <f{4&Ta :R 
Yj
AB05C!LbMVW1bX${b;blQJ$GNRMC,121558.00,A,0419.77741,S,05539.73976,E,0.052,,220525,,,A*74
$GNVTG,,T,,M,0.052,N,0.096,K,A*35
$GNGNS,121558.00,0419.77741,S,05539.73976,E,AA,16,0.62,22.4,-47.6,,*68
$GNGGA,121558.00,0419.77741,S,05539.73976,E,1,12,0.62,22.4,M,-47.6,M,,*46
$GNGSA,A,3,32,28,27,18,26,31,16,29,10,,,,1.44,0.62,1.30*17
$GNGSA,A,3,66,87,65,88,67,86,76,,,,,,1.44,0.62,1.30*19
$GPGSV,5,1,17,08,07,318,,10,16,002,17,16,25,242,25,18,33,083,25*7A
$GPGSV,5,2,17,23,02,040,11,25,00,124,,26,29,212,16,27,42,311,33*76
$GPGSV,5,3,17,28,48,152,29,29,14,148,14,31,33,187,23,32,60,358,27*75
$GPGSV,5,4,17,36,52,277,,40,84,353,38,41,58,082,32,49,32,274,*76
$GPGSV,5,5,17,50,10,089,*4A
$GLGSV,2,1,08,65,20,001,09,66,48,309,18,67,27,239,33,76,13,142,13*62
$GLGSV,2,2,08,77,15,188,,86,16,136,22,87,49,098,27,88,36,006,27*65
$GNGLL,0419.77741,S,05539.73976,E,121558.00,A,A*68
$GNGRS,121558.00,1,11.7,8.1,-3.2,-1.7,13.2,1.4,1.3,19.8,8.5,,,*47
$GNGRS,121558.00,1,-2.6,1.7,9.6,2.8,-5.5,4.5,8.7,,,,,*7D
$GNGST,121558.00,4206259,,,,4.8,4.7,15*58
$GNZDA,121558.00,22,05,2025,00,00*72
$GNGBS,121558.00,4.8,4.7,14.7,,,,*68
$GNTXT,01,01,01,More than 100 frame errors, UART RX was disabled*70
b0@h;>
#!S(P{g!*70! <fH{4%Ta":R 
Yj
A/B05YC",L|MV)W1bX$Sbh;Jp)$GNRMC,121559.00,A,0419.77738,S,05539.73988,E,0.086,,220525,,,A*73
$GNVTG,,T,,M,0.086,N,0.159,K,A*3E
$GNGNS,121559.00,0419.77738,S,05539.73988,E,AA,16,0.62,22.6,-47.6,,*64
$GNGGA,121559.00,0419.77738,S,05539.73988,E,1,12,0.62,22.6,M,-47.6,M,,*4A
$GNGSA,A,3,32,28,27,18,26,31,16,29,10,,,,1.45,0.62,1.31*17
$GNGSA,A,3,66,87,65,88,67,86,76,,,,,,1.45,0.62,1.31*19
$GPGSV,5,1,17,08,07,318,,10,16,002,17,16,25,242,25,18,33,083,23*7C
$GPGSV,5,2,17,23,02,040,08,25,00,123,,26,29,212,16,27,42,311,33*79
$GPGSV,5,3,17,28,48,152,29,29,14,148,14,31,33,187,24,32,60,358,28*7D
$GPGSV,5,4,17,36,52,277,,40,84,353,37,41,58,082,34,49,32,274,*7F
$GPGSV,5,5,17,50,10,089,*4A
$GLGSV,2,1,08,65,20,001,14,66,48,309,21,67,27,239,34,76,13,142,14*64
$GLGSV,2,2,08,77,15,188,,86,16,136,22,87,49,098,28,88,36,006,27*6A
$GNGLL,0419.77738,S,05539.73988,E,121559.00,A,A*66
$GNGRS,121559.00,1,13.5,9.7,-5.5,-1.0,-19.5,-2.6,0.4,6.6,7.2,,,*75
$GNGRS,121559.00,1,-1.7,2.1,8.2,2.7,-7.2,5.5,21.7,,,,,*4E
$GNGST,121559.00,55,,,,4.7,4.6,15*69
$GNZDA,121559.00,22,05,2025,00,00*73
$GNGBS,121559.00,4.7,4.6,14.6,,,,*66
$GNTXT,01,01,01,More than 100 frame errors, UART RX was disabled*70
b0@P;>
B!S({Z!*7N0N!$ <f{4%Ta :R 
Yj
AB05C".LMVW1b#X$FbP;2t$GNRMC,121600.00,A,0419.77732,S,05539.74003,E,0.035,,220525,,,A*73
$GNVTG,,T,,M,0.035,N,0.064,K,A*39
$GNGNS,121600.00,0419.77732,S,05539.74003,E,AA,16,0.62,22.4,-47.6,,*6E
$GNGGA,121600.00,0419.77732,S,05539.74003,E,1,12,0.62,22.4,M,-47.6,M,,*40
$GNGSA,A,3,32,28,27,18,26,31,16,29,10,,,,1.44,0.62,1.30*17
$GNGSA,A,3,66,87,65,88,67,86,76,,,,,,1.44,0.62,1.30*19
$GPGSV,5,1,17,08,07,318,,10,16,002,16,16,25,242,25,18,33,083,24*7A
$GPGSV,5,2,17,23,02,040,08,25,00,123,,26,29,211,16,27,42,311,33*7A
$GPGSV,5,3,17,28,48,152,28,29,14,148,14,31,33,187,26,32,60,358,30*77
$GPGSV,5,4,17,36,52,277,,40,84,353,37,41,58,082,32,49,32,274,*79
$GPGSV,5,5,17,50,10,089,*4A
$GLGSV,2,1,08,65,20,001,12,66,48,309,22,67,27,239,34,76,13,142,08*6C
$GLGSV,2,2,08,77,15,188,,86,16,136,23,87,49,098,28,88,36,006,27*6B
$GNGLL,0419.77732,S,05539.74003,E,121600.00,A,A*6E
$GNGRS,121600.00,1,10.5,16.1,-1.8,-0.4,13.7,-4.8,0.7,20.0,7.7,,,*54
$GNGRS,121600.00,1,-1.1,0.4,9.8,0.7,-9.8,5.0,9.1,,,,,*74
$GNGST,121600.00,2977150,,,,4.7,4.6,14*58
$GNZDA,121600.00,22,05,2025,00,00*7C
$GNGBS,121600.00,4.7,4.6,14.5,,,,*6A
$GNTXT,01,01,01,More than 100 frame errors, UART RX was disabled*70
b0@8;>
!S({ *60+!  <f{4%Ta:R 
Yj
AB05C!LyMVW1bX$SLbb8;x$GNRMC,121601.00,A,0419.77724,S,05539.74016,E,0.028,,220525,,,A*7D
$GNVTG,,T,,M,0.028,N,0.053,K,A*31
$GNGNS,121601.00,0419.77724,S,05539.74016,E,AA,15,0.68,22.5,-47.6,,*64
$GNGGA,121601.00,0419.77724,S,05539.74016,E,1,12,0.68,22.5,M,-47.6,M,,*49
$GNGSA,A,3,32,28,27,18,31,16,29,10,,,,,1.53,0.68,1.37*18
$GNGSA,A,3,66,87,65,88,67,86,76,,,,,,1.53,0.68,1.37*12
$GPGSV,5,1,17,08,07,318,,10,16,002,19,16,25,242,25,18,33,083,24*75
$GPGSV,5,2,17,23,02,040,11,25,00,123,,26,29,211,,27,42,310,32*75
$GPGSV,5,3,17,28,48,152,30,29,14,148,14,31,33,187,27,32,60,358,32*7D
$GPGSV,5,4,17,36,52,277,,40,84,353,37,41,58,082,31,49,32,274,*7A
$GPGSV,5,5,17,50,10,089,*4A
$GLGSV,2,1,08,65,20,001,09,66,48,309,20,67,27,239,33,76,13,142,08*63
$GLGSV,2,2,08,77,15,188,,86,16,136,22,87,49,098,28,88,36,006,27*6A
$GNGLL,0419.77724,S,05539.74016,E,121601.00,A,A*6C
$GNGRS,121601.00,1,10.2,5.5,-4.9,2.2,-5.2,-0.7,20.0,9.8,,,,*75
$GNGRS,121601.00,1,-0.5,1.4,9.5,-1.7,-11.0,5.3,8.9,,,,,*6B
$GNGST,121601.00,3179310,,,,4.6,4.5,14*5A
$GNZDA,121601.00,22,05,2025,00,00*7D
$GNGBS,121601.00,4.6,4.5,14.4,,,,*68
$GNTXT,01,01,01,More than 100 frame errors, UART RX was disabled*70
b0@ ;>
<!S({*6M0Xe!C <f`{4$Ta:R 
Yj
AB05C LMVYW1bX$77b ;|$GNRMC,121602.00,A,0419.77718,S,05539.74028,E,0.048,,220525,,,A*7A
$GNVTG,,T,,M,0.048,N,0.089,K,A*30
$GNGNS,121602.00,0419.77718,S,05539.74028,E,AA,15,0.68,22.5,-47.6,,*65
$GNGGA,121602.00,0419.77718,S,05539.74028,E,1,12,0.68,22.5,M,-47.6,M,,*48
$GNGSA,A,3,32,28,27,18,31,16,29,10,,,,,1.53,0.68,1.37*18
$GNGSA,A,3,66,87,65,88,67,86,76,,,,,,1.53,0.68,1.37*12
$GPGSV,5,1,17,08,07,318,,10,16,002,20,16,25,242,24,18,33,083,23*79
$GPGSV,5,2,17,23,02,040,09,25,00,123,,26,29,211,18,27,42,310,30*77
$GPGSV,5,3,17,28,48,151,30,29,14,148,14,31,33,187,27,32,60,358,30*7C
$GPGSV,5,4,17,36,52,277,,40,84,353,36,41,58,082,31,49,32,274,*7B
$GPGSV,5,5,17,50,10,089,*4A
$GLGSV,2,1,08,65,20,001,13,66,48,309,21,67,27,239,32,76,13,142,08*68
$GLGSV,2,2,08,77,15,188,,86,16,136,21,87,49,098,28,88,36,006,27*69
$GNGLL,0419.77718,S,05539.74028,E,121602.00,A,A*6D
$GNGRS,121602.00,1,11.2,8.6,-1.8,4.8,-7.0,-1.2,31.7,10.8,,,,*4A
$GNGRS,121602.00,1,-0.4,-0.1,-16.5,-2.0,-11.2,3.4,-3.7,,,,,*7C
$GNGST,121602.00,59,,,,4.6,4.5,14*6B
$GNZDA,121602.00,22,05,2025,00,00*7E
$GNGBS,121602.00,4.6,4.5,14.3,,,,*6C
$GNTXT,01,01,01,More than 100 frame errors, UART RX was disabled*70
b0@;>
?!S({x*60!| <fB{4"Ta :R 
Yj
AB05iCLMV#W1bX$Rb;O$GNRMC,121603.00,A,0419.77713,S,05539.74036,E,0.099,,220525,,,A*73
$GNVTG,,T,,M,0.099,N,0.184,K,A*30
$GNGNS,121603.00,0419.77713,S,05539.74036,E,AA,15,0.68,22.9,-47.6,,*6C
$GNGGA,121603.00,0419.77713,S,05539.74036,E,1,12,0.68,22.9,M,-47.6,M,,*41
$GNGSA,A,3,32,28,27,18,31,16,29,10,,,,,1.53,0.68,1.37*18
$GNGSA,A,3,66,87,65,88,67,86,76,,,,,,1.53,0.68,1.37*12
$GPGSV,5,1,17,08,07,318,,10,16,002,19,16,25,242,24,18,33,083,24*74
$GPGSV,5,2,17,23,02,040,11,25,00,123,,26,29,211,20,27,42,310,30*75
$GPGSV,5,3,17,28,48,151,30,29,14,148,17,31,33,187,27,32,60,358,29*77
$GPGSV,5,4,17,36,52,277,,40,84,353,34,41,58,082,32,49,32,274,*7A
$GPGSV,5,5,17,50,10,089,*4A
$GLGSV,2,1,08,65,20,001,13,66,48,309,19,67,27,239,31,76,13,142,08*60
$GLGSV,2,2,08,77,15,188,,86,16,136,21,87,49,098,28,88,36,006,27*69
$GNGLL,0419.77713,S,05539.74036,E,121603.00,A,A*68
$GNGRS,121603.00,1,16.0,12.7,-2.8,2.4,-6.4,-1.9,20.3,10.5,,,,*7A
$GNGRS,121603.00,1,1.0,-0.8,9.9,-2.6,-10.6,2.9,9.4,,,,,*68
$GNGST,121603.00,3182125,,,,4.5,4.5,14*5B
$GNZDA,121603.00,22,05,2025,00,00*7F
$GNGBS,121603.00,4.5,4.5,14.2,,,,*6F
$GNTXT,01,01,01,More than 100 frame errors, UART RX was disabled*70
b0@;>
!S({*60!8 <f{4%Ta":R 
Yj
AB05jC LMVCW1bX$zb;_$GNRMC,121604.00,A,0419.77709,S,05539.74045,E,0.030,,220525,,,A*78
$GNVTG,,T,,M,0.030,N,0.056,K,A*3D
$GNGNS,121604.00,0419.77709,S,05539.74045,E,AA,15,0.68,23.1,-47.6,,*6D
$GNGGA,121604.00,0419.77709,S,05539.74045,E,1,12,0.68,23.1,M,-47.6,M,,*40
$GNGSA,A,3,32,28,27,18,31,16,29,10,,,,,1.53,0.68,1.37*18
$GNGSA,A,3,66,87,65,88,67,86,76,,,,,,1.53,0.68,1.37*12
$GPGSV,5,1,17,08,07,318,,10,16,002,19,16,25,242,25,18,33,083,25*74
$GPGSV,5,2,17,23,02,040,12,25,00,123,,26,29,211,19,27,42,310,31*7D
$GPGSV,5,3,17,28,48,151,31,29,14,148,12,31,33,187,25,32,60,358,28*70
$GPGSV,5,4,17,36,52,277,,40,84,353,37,41,58,082,34,49,32,274,*7F
$GPGSV,5,5,17,50,10,089,*4A
$GLGSV,2,1,08,65,20,001,12,66,48,309,18,67,27,239,32,76,13,142,08*63
$GLGSV,2,2,08,77,15,188,,86,16,136,20,87,49,098,29,88,36,006,27*69
$GNGLL,0419.77709,S,05539.74045,E,121604.00,A,A*60
$GNGRS,121604.00,1,14.2,5.1,-6.1,4.5,-4.6,-0.2,20.3,7.4,,,,*7A
$GNGRS,121604.00,1,1.1,-0.3,9.7,-2.5,-10.2,3.2,9.3,,,,,*61
$GNGST,121604.00,4496177,,,,4.5,4.4,14*5D
$GNZDA,121604.00,22,05,2025,00,00*78
$GNGBS,121604.00,4.5,4.4,14.2,,,,*69
$GNTXT,01,01,01,More than 100 frame errors, UART RX was disabled*70
b0@;>
!S(U${*6
0B"p <f{4%Ta:R 
Yj
A
ZB05C!LMVW1bX$lb;7$GNRMC,121605.00,A,0419.77706,S,05539.74056,E,0.026,,220525,,,A*73
$GNVTG,,T,,M,0.026,N,0.049,K,A*34
$GNGNS,121605.00,0419.77706,S,05539.74056,E,AA,15,0.65,23.2,-47.6,,*6F
$GNGGA,121605.00,0419.77706,S,05539.74056,E,1,12,0.65,23.2,M,-47.6,M,,*42
$GNGSA,A,3,32,28,27,18,26,31,16,10,,,,,1.51,0.65,1.37*18
$GNGSA,A,3,66,87,65,88,67,86,76,,,,,,1.51,0.65,1.37*1D
$GPGSV,5,1,17,08,07,318,,10,16,002,19,16,25,242,22,18,33,083,26*70
$GPGSV,5,2,17,23,02,040,08,25,00,123,,26,29,211,18,27,42,310,31*77
$GPGSV,5,3,17,28,48,151,30,29,14,148,,31,34,187,23,32,60,358,29*72
$GPGSV,5,4,17,36,52,277,,40,84,353,37,41,58,082,30,49,32,274,*7B
$GPGSV,5,5,17,50,10,089,*4A
$GLGSV,2,1,08,65,20,001,10,66,48,309,19,67,28,240,33,76,13,142,14*6D
$GLGSV,2,2,08,77,15,188,,86,16,136,20,87,49,098,28,88,36,006,27*68
$GNGLL,0419.77706,S,05539.74056,E,121605.00,A,A*6C
$GNGRS,121605.00,1,12.8,8.3,-2.5,4.2,7.0,-4.0,-0.5,6.5,,,,*48
$GNGRS,121605.00,1,1.5,-0.8,16.3,-5.0,-10.4,3.9,16.8,,,,,*6F
$GNGST,121605.00,58,,,,4.4,4.4,14*6E
$GNZDA,121605.00,22,05,2025,00,00*79
$GNGBS,121605.00,4.4,4.4,14.1,,,,*6A
$GNTXT,01,01,01,More than 100 frame errors, UART RX was disabled*70
b0@;>
H!S({M *6]0" ;f{4%Ta:R 
Yjg
AB05C LMVW1bX$$qb;x$GNRMC,121606.00,A,0419.77708,S,05539.74065,E,0.036,,220525,,,A*7F
$GNVTG,,T,,M,0.036,N,0.067,K,A*39
$GNGNS,121606.00,0419.77708,S,05539.74065,E,AA,15,0.65,23.2,-47.6,,*62
$GNGGA,121606.00,0419.77708,S,05539.74065,E,1,12,0.65,23.2,M,-47.6,M,,*4F
$GNGSA,A,3,32,28,27,18,26,31,16,10,,,,,1.51,0.65,1.37*18
$GNGSA,A,3,66,87,65,88,67,86,76,,,,,,1.51,0.65,1.37*1D
$GPGSV,5,1,17,08,07,318,,10,16,002,19,16,25,242,22,18,33,083,26*70
$GPGSV,5,2,17,23,02,040,11,25,00,123,,26,29,211,18,27,42,310,32*7C
$GPGSV,5,3,17,28,48,151,30,29,14,148,,31,34,187,22,32,59,358,28*78
$GPGSV,5,4,17,36,52,277,,40,84,353,37,41,58,082,30,49,32,274,*7B
$GPGSV,5,5,17,50,10,089,*4A
$GLGSV,2,1,08,65,20,001,13,66,48,309,20,67,28,240,32,76,13,142,14*65
$GLGSV,2,2,08,77,15,188,,86,16,136,20,87,49,098,26,88,36,006,26*67
$GNGLL,0419.77708,S,05539.74065,E,121606.00,A,A*61
$GNGRS,121606.00,1,4.6,10.5,-1.6,2.9,13.6,-2.3,-0.7,8.4,,,,*7B
$GNGRS,121606.00,1,1.6,-1.0,10.0,-4.8,-10.3,6.8,9.1,,,,,*5E
$GNGST,121606.00,111851,,,,4.4,4.4,14*6D
$GNTXT,01,01,01,More than 100 frame errors, UART RX was disabled*70
$GNZDA,121606.00,22,05,2025,00,00*7A
$GNGBS,121606.00,4.4,4.4,14.0,,,,*68
b0@;>
l!Su({X *6A0"6 ;f{4$Ta:R 
YjG
AB05C LYMVsW1bX$b;$GNRMC,121607.00,A,0419.77712,S,05539.74071,E,0.058,,220525,,,A*78
$GNVTG,,T,,M,0.058,N,0.107,K,A*36
$GNGNS,121607.00,0419.77712,S,05539.74071,E,AA,15,0.65,23.2,-47.6,,*6D
$GNGGA,121607.00,0419.77712,S,05539.74071,E,1,12,0.65,23.2,M,-47.6,M,,*40
$GNGSA,A,3,32,28,27,18,26,31,16,10,,,,,1.51,0.65,1.37*18
$GNGSA,A,3,66,87,65,88,67,86,76,,,,,,1.51,0.65,1.37*1D
$GPGSV,5,1,17,08,07,318,,10,16,002,19,16,25,242,23,18,33,083,24*73
$GPGSV,5,2,17,23,02,040,09,25,00,123,,26,29,211,16,27,42,310,32*7B
$GPGSV,5,3,17,28,48,151,29,29,14,148,,31,34,187,22,32,59,358,26*7E
$GPGSV,5,4,17,36,52,277,,40,84,353,36,41,58,082,29,49,32,274,*72
$GPGSV,5,5,17,50,10,089,*4A
$GLGSV,2,1,08,65,20,001,15,66,48,309,21,67,28,240,32,76,13,142,13*65
$GLGSV,2,2,08,77,15,188,,86,16,136,19,87,49,098,24,88,36,006,26*6F
$GNGLL,0419.77712,S,05539.74071,E,121607.00,A,A*6E
$GNGRS,121607.00,1,2.0,14.2,-1.9,1.2,16.2,0.5,0.1,8.8,,,,*71
$GNGRS,121607.00,1,1.3,-0.5,9.7,-3.0,-7.9,6.3,8.6,,,,,*5F
$GNGST,121607.00,166623,,,,4.3,4.3,14*67
$GNZDA,121607.00,22,05,2025,00,00*7B
$GNGBS,121607.00,4.3,4.3,14.0,,,,*69
$GNTXT,01,01,01,More than 100 frame errors, UART RX was disabled*70
b0@;>
!So({$ *60("0 ;f{4$Ta:R 
Y
j
AB05:C!LMVW1bX$\T:b;rH$GNRMC,121608.00,A,0419.77715,S,05539.74075,E,0.149,,220525,,,A*75
$GNVTG,,T,,M,0.149,N,0.276,K,A*32
$GNGNS,121608.00,0419.77715,S,05539.74075,E,AA,15,0.65,23.4,-47.6,,*67
$GNGGA,121608.00,0419.77715,S,05539.74075,E,1,12,0.65,23.4,M,-47.6,M,,*4A
$GNGSA,A,3,32,28,27,18,26,31,16,10,,,,,1.51,0.65,1.37*18
$GNGSA,A,3,66,87,65,88,67,86,76,,,,,,1.51,0.65,1.37*1D
$GPGSV,5,1,17,08,07,318,,10,16,002,18,16,25,242,26,18,33,083,22*71
$GPGSV,5,2,17,23,02,040,09,25,00,123,,26,29,211,15,27,42,310,32*78
$GPGSV,5,3,17,28,48,151,29,29,14,148,,31,34,187,21,32,59,358,23*78
$GPGSV,5,4,17,36,52,277,,40,84,353,36,41,58,082,29,49,32,274,*72
$GPGSV,5,5,17,50,10,089,*4A
$GLGSV,2,1,08,65,20,001,13,66,48,309,22,67,28,240,33,76,13,142,13*61
$GLGSV,2,2,08,77,15,188,,86,16,136,19,87,49,098,23,88,36,006,26*68
$GNGLL,0419.77715,S,05539.74075,E,121608.00,A,A*62
$GNGRS,121608.00,1,2.1,5.5,-2.7,1.1,18.3,3.0,-1.1,9.8,,,,*62
$GNGRS,121608.00,1,3.1,2.1,17.8,-4.2,-10.2,6.5,12.1,,,,,*49
$GNGST,121608.00,58,,,,4.3,4.3,14*63
$GNZDA,121608.00,22,05,2025,00,00*74
$GNGBS,121608.00,4.3,4.3,14.0,,,,*66
$GNTXT,01,01,01,More than 100 frame errors, UART RX was disabled*70
b0@x;>
!S({ *6I0"z ;f{4$Ta:R 
Y
j
AB05NC RLMV%W1bX$Gqbx;Z$GNRMC,121609.00,A,0419.77721,S,05539.74079,E,0.155,,220525,,,A*72
$GNVTG,,T,,M,0.155,N,0.287,K,A*31
$GNGNS,121609.00,0419.77721,S,05539.74079,E,AA,15,0.65,23.3,-47.6,,*6A
$GNGGA,121609.00,0419.77721,S,05539.74079,E,1,12,0.65,23.3,M,-47.6,M,,*47
$GNGSA,A,3,32,28,27,18,26,31,16,10,,,,,1.51,0.65,1.37*18
$GNGSA,A,3,66,87,65,88,67,86,76,,,,,,1.51,0.65,1.37*1D
$GPGSV,5,1,17,08,07,318,,10,16,002,17,16,25,242,27,18,33,083,20*7D
$GPGSV,5,2,17,23,02,040,07,25,00,123,,26,29,211,17,27,42,310,32*74
$GPGSV,5,3,17,28,48,151,31,29,14,148,,31,34,187,23,32,59,358,20*70
$GPGSV,5,4,17,36,52,277,,40,84,353,36,41,58,082,31,49,32,274,*7B
$GPGSV,5,5,17,50,10,089,*4A
$GLGSV,2,1,08,65,20,001,15,66,48,309,22,67,28,240,32,76,13,142,13*66
$GLGSV,2,2,08,77,15,188,,86,16,136,20,87,49,098,22,88,36,006,26*63
$GNGLL,0419.77721,S,05539.74079,E,121609.00,A,A*68
$GNGRS,121609.00,1,-3.1,7.1,-4.4,-0.9,15.4,3.8,-1.0,9.7,,,,*64
$GNGRS,121609.00,1,3.3,2.4,10.2,-4.4,-6.9,8.1,9.1,,,,,*48
$GNGST,121609.00,98400,,,,4.3,4.3,14*5A
$GNZDA,121609.00,22,05,2025,00,00*75
$GNGBS,121609.00,4.3,4.3,14.0,,,,*67
$GNTXT,01,01,01,More than 100 frame errors, UART RX was disabled*70
b0@`;>
!Sd({;*60" ;f_{4$Ta :R 
YjP
AB05C L]MVW1bgX$b`;Bo$GNRMC,121610.00,A,0419.77725,S,05539.74083,E,0.037,,220525,,,A*7E
$GNVTG,,T,,M,0.037,N,0.068,K,A*37
$GNGNS,121610.00,0419.77725,S,05539.74083,E,AA,15,0.65,23.1,-47.6,,*61
$GNGGA,121610.00,0419.77725,S,05539.74083,E,1,12,0.65,23.1,M,-47.6,M,,*4C
$GNGSA,A,3,32,28,27,18,26,31,16,10,,,,,1.51,0.65,1.37*18
$GNGSA,A,3,66,87,65,88,67,86,76,,,,,,1.51,0.65,1.37*1D
$GPGSV,5,1,17,08,07,318,,10,16,002,15,16,25,242,28,18,33,083,19*7A
$GPGSV,5,2,17,23,02,040,09,25,00,123,,26,29,211,17,27,42,310,31*79
$GPGSV,5,3,17,28,48,151,31,29,14,148,05,31,34,187,24,32,59,358,22*70
$GPGSV,5,4,17,36,52,277,,40,84,353,36,41,58,082,32,49,32,274,*78
$GPGSV,5,5,17,50,10,089,*4A
$GLGSV,2,1,08,65,20,001,11,66,48,309,22,67,28,240,32,76,13,142,13*62
$GLGSV,2,2,08,77,15,188,,86,16,136,21,87,49,098,21,88,36,006,26*61
$GNGLL,0419.77725,S,05539.74083,E,121610.00,A,A*61
$GNGRS,121610.00,1,-4.2,4.7,-3.7,-1.6,15.9,5.4,-1.0,10.4,,,,*5B
$GNGRS,121610.00,1,2.7,3.6,10.1,-7.5,-5.7,7.4,8.6,,,,,*46
$GNGST,121610.00,142730,,,,4.2,4.3,14*65
$GNZDA,121610.00,22,05,2025,00,00*7D
$GNGBS,121610.00,4.2,4.3,14.0,,,,*6E
$GNTXT,01,01,01,More than 100 frame errors, UART RX was disabled*70
b0@H;>
B!SF({r*6- 0k" ;f{4&Ta:R 
Yj\
AB05C L
{MV,W1bX$BbH;*G$GNRMC,121611.00,A,0419.77733,S,05539.74089,E,0.049,,220525,,,A*7B
$GNVTG,,T,,M,0.049,N,0.090,K,A*39
$GNGNS,121611.00,0419.77733,S,05539.74089,E,AA,15,0.67,23.3,-47.6,,*6D
$GNGGA,121611.00,0419.77733,S,05539.74089,E,1,12,0.67,23.3,M,-47.6,M,,*40
$GNGSA,A,3,32,28,27,18,26,31,16,10,,,,,1.63,0.67,1.48*13
$GNGSA,A,3,66,87,65,88,67,86,76,,,,,,1.63,0.67,1.48*16
$GPGSV,5,1,17,08,07,318,,10,16,002,15,16,25,242,28,18,33,083,18*7B
$GPGSV,5,2,17,23,02,040,09,25,00,123,,26,29,211,13,27,42,310,30*7C
$GPGSV,5,3,17,28,48,151,32,29,14,148,07,31,34,187,22,32,59,358,26*73
$GPGSV,5,4,17,36,52,277,,40,84,353,38,41,58,082,31,49,32,274,*75
$GPGSV,5,5,17,50,10,089,*4A
$GLGSV,2,1,08,65,20,001,14,66,48,309,22,67,28,240,32,76,13,142,10*64
$GLGSV,2,2,08,77,15,188,,86,16,136,21,87,49,098,22,88,36,006,25*61
$GNGLL,0419.77733,S,05539.74089,E,121611.00,A,A*6D
$GNGRS,121611.00,1,-3.2,7.6,-2.1,-1.9,13.9,5.3,-4.5,7.8,,,,*6C
$GNGRS,121611.00,1,5.4,5.2,-11.0,-9.6,-5.9,8.1,-70.5,,,,,*74
$GNGST,121611.00,54,,,,4.2,4.3,14*66
$GNZDA,121611.00,22,05,2025,00,00*7C
$GNGBS,121611.00,4.2,4.3,13.9,,,,*61
$GNTXT,01,01,01,More than 100 frame errors, UART RX was disabled*70
b0@0;>
+!Sw({*6A 0R"u ;fY{4&Ta:R 
Yj
AB05C!LMVW1bX$=b0;$GNRMC,121612.00,A,0419.77739,S,05539.74100,E,0.102,,220525,,,A*7C
$GNVTG,,T,,M,0.102,N,0.189,K,A*3E
$GNGNS,121612.00,0419.77739,S,05539.74100,E,AA,15,0.62,23.1,-47.6,,*63
$GNGGA,121612.00,0419.77739,S,05539.74100,E,1,12,0.62,23.1,M,-47.6,M,,*4E
$GNGSA,A,3,32,28,27,18,26,31,16,10,,,,,1.44,0.62,1.30*1C
$GNGSA,A,3,66,87,65,88,67,86,76,,,,,,1.44,0.62,1.30*19
$GPGSV,5,1,17,08,07,318,,10,16,002,15,16,25,242,29,18,33,083,20*71
$GPGSV,5,2,17,23,02,040,09,25,00,123,,26,29,211,13,27,42,310,30*7C
$GPGSV,5,3,17,28,48,151,32,29,14,148,09,31,34,187,20,32,59,358,28*71
$GPGSV,5,4,17,36,52,277,,40,84,353,38,41,58,082,31,49,32,274,*75
$GPGSV,5,5,17,50,10,089,*4A
$GLGSV,2,1,08,65,20,001,15,66,48,309,22,67,28,240,33,76,13,142,09*6C
$GLGSV,2,2,08,77,15,188,,86,16,136,20,87,49,098,23,88,36,006,24*60
$GNGLL,0419.77739,S,05539.74100,E,121612.00,A,A*64
$GNGRS,121612.00,1,-1.7,5.9,-4.5,-1.4,15.4,6.3,-7.2,7.3,,,,*6D
$GNGRS,121612.00,1,5.1,4.4,10.1,-12.8,-8.7,9.9,9.0,,,,,*70
$GNGST,121612.00,2974487,,,,4.2,4.3,14*57
$GNZDA,121612.00,22,05,2025,00,00*7F
$GNGBS,121612.00,4.2,4.3,13.9,,,,*62
$GNTXT,01,01,01,More than 100 frame errors, UART RX was disabled*70
b0@;>
r!Sz
(9{*6H!0" ;f{4%Ta:R 
Yj
AB05C LMV~W1b[X$g'b;M$GNRMC,121613.00,A,0419.77749,S,05539.74098,E,0.175,,220525,,,A*7A
$GNVTG,,T,,M,0.175,N,0.324,K,A*3B
$GNGNS,121613.00,0419.77749,S,05539.74098,E,AA,15,0.62,23.9,-47.6,,*6D
$GNGGA,121613.00,0419.77749,S,05539.74098,E,1,12,0.62,23.9,M,-47.6,M,,*40
$GNGSA,A,3,32,28,27,18,26,31,16,10,,,,,1.44,0.62,1.30*1C
$GNGSA,A,3,66,87,65,88,67,86,76,,,,,,1.44,0.62,1.30*19
$GPGSV,5,1,17,08,07,318,,10,16,002,17,16,25,242,29,18,33,083,19*79
$GPGSV,5,2,17,23,02,040,10,25,00,123,,26,29,211,16,27,42,310,30*71
$GPGSV,5,3,17,28,48,151,33,29,14,148,13,31,34,187,19,32,59,358,28*71
$GPGSV,5,4,17,36,52,277,,40,84,353,37,41,58,082,31,49,32,274,*7A
$GPGSV,5,5,17,50,10,089,*4A
$GLGSV,2,1,08,65,20,001,14,66,48,309,23,67,28,240,32,76,13,142,09*6D
$GLGSV,2,2,08,77,15,188,,86,16,136,19,87,49,098,23,88,36,006,25*6B
$GNGLL,0419.77749,S,05539.74098,E,121613.00,A,A*62
$GNGRS,121613.00,1,5.1,4.5,-1.8,-1.3,11.7,7.8,-6.5,7.2,,,,*4B
$GNGRS,121613.00,1,4.7,6.0,10.4,-14.0,-8.6,8.9,9.1,,,,,*7A
$GNGST,121613.00,2975126,,,,4.2,4.3,14*59
$GNZDA,121613.00,22,05,2025,00,00*7E
$GNGBS,121613.00,4.2,4.3,13.8,,,,*62
$GNTXT,01,01,01,More than 100 frame errors, UART RX was disabled*70
b0@;>
!SB(3{*6G 0lx"l ;fN{4%Ta:R 
Yj}
AUB05cC LqMVW1bX$gb;$GNRMC,121614.00,A,0419.77753,S,05539.74103,E,0.050,,220525,,,A*73
$GNVTG,,T,,M,0.050,N,0.093,K,A*32
$GNGNS,121614.00,0419.77753,S,05539.74103,E,AA,16,0.62,24.1,-47.6,,*6E
$GNGGA,121614.00,0419.77753,S,05539.74103,E,1,12,0.62,24.1,M,-47.6,M,,*40
$GNGSA,A,3,32,28,27,18,26,31,16,29,10,,,,1.45,0.62,1.31*17
$GNGSA,A,3,66,87,65,88,67,86,76,,,,,,1.45,0.62,1.31*19
$GPGSV,5,1,17,08,07,318,,10,16,002,19,16,25,242,30,18,33,083,18*7E
$GPGSV,5,2,17,23,02,040,11,25,00,123,,26,29,211,18,27,42,310,30*7E
$GPGSV,5,3,17,28,48,151,32,29,14,148,14,31,34,187,20,32,59,358,29*7C
$GPGSV,5,4,17,36,52,277,,40,84,353,37,41,58,082,31,49,32,274,*7A
$GPGSV,5,5,17,50,10,089,*4A
$GLGSV,2,1,08,65,20,001,12,66,48,309,23,67,28,240,32,76,13,142,12*61
$GLGSV,2,2,08,77,15,188,,86,16,136,18,87,49,098,22,88,36,006,26*68
$GNGLL,0419.77753,S,05539.74103,E,121614.00,A,A*6D
$GNGRS,121614.00,1,8.5,3.6,0.7,-1.9,10.0,8.8,-2.4,16.6,7.8,,,*71
$GNGRS,121614.00,1,3.6,3.9,6.0,-13.7,-8.4,7.6,52.3,,,,,*7A
$GNGST,121614.00,59,,,,4.2,4.3,14*6E
$GNZDA,121614.00,22,05,2025,00,00*79
$GNGBS,121614.00,4.2,4.3,13.8,,,,*65
$GNTXT,01,01,01,More than 100 frame errors, UART RX was disabled*70
b0@;>
M!S({*60_k" ;fv{4$Ta:R 
YjL
AB05C L
MVjW1b1X$a^b;$GNRMC,121615.00,A,0419.77755,S,05539.74110,E,0.039,,220525,,,A*79
$GNVTG,,T,,M,0.039,N,0.072,K,A*32
$GNGNS,121615.00,0419.77755,S,05539.74110,E,AA,16,0.61,24.1,-47.6,,*68
$GNGGA,121615.00,0419.77755,S,05539.74110,E,1,12,0.61,24.1,M,-47.6,M,,*46
$GNGSA,A,3,32,28,27,18,26,31,16,29,10,,,,1.41,0.61,1.27*17
$GNGSA,A,3,66,87,65,88,67,86,76,,,,,,1.41,0.61,1.27*19
$GPGSV,5,1,17,08,07,318,,10,16,002,18,16,25,242,29,18,33,083,16*79
$GPGSV,5,2,17,23,02,040,06,25,00,123,,26,29,211,17,27,42,310,29*7F
$GPGSV,5,3,17,28,48,151,31,29,14,148,15,31,34,187,21,32,59,358,30*77
$GPGSV,5,4,17,36,52,277,,40,84,353,36,41,58,082,31,49,32,274,*7B
$GPGSV,5,5,17,50,10,089,*4A
$GLGSV,2,1,08,65,20,001,14,66,48,309,26,67,28,240,32,76,13,142,10*60
$GLGSV,2,2,08,77,15,188,,86,16,136,20,87,49,098,22,88,36,006,27*62
$GNGLL,0419.77755,S,05539.74110,E,121615.00,A,A*68
$GNGRS,121615.00,1,6.3,6.1,0.1,-7.6,7.3,4.2,-6.9,13.9,9.6,,,*45
$GNGRS,121615.00,1,2.0,3.1,10.1,-14.4,-8.3,6.2,9.2,,,,,*7B
$GNGST,121615.00,2885477,,,,4.1,4.2,14*52
$GNZDA,121615.00,22,05,2025,00,00*78
$GNGBS,121615.00,4.1,4.2,13.7,,,,*69
$GNTXT,01,01,01,More than 100 frame errors, UART RX was disabled*70
b0@;>
!S({*60" ;fZ{4#Ta:R 
Yj
AB05CC LMVW1bX$b;}v$GNRMC,121616.00,A,0419.77760,S,05539.74115,E,0.030,,220525,,,A*70
$GNVTG,,T,,M,0.030,N,0.055,K,A*3E
$GNGNS,121616.00,0419.77760,S,05539.74115,E,AA,16,0.63,24.3,-47.6,,*68
$GNGGA,121616.00,0419.77760,S,05539.74115,E,1,12,0.63,24.3,M,-47.6,M,,*46
$GNGSA,A,3,32,28,27,18,26,31,16,29,10,,,,1.46,0.63,1.31*15
$GNGSA,A,3,66,87,65,88,67,86,76,,,,,,1.46,0.63,1.31*1B
$GPGSV,5,1,17,08,07,318,,10,16,002,18,16,25,242,29,18,33,083,11*7E
$GPGSV,5,2,17,23,02,040,08,25,00,123,,26,29,211,16,27,42,310,28*71
$GPGSV,5,3,17,28,48,151,31,29,14,148,14,31,34,187,22,32,59,358,30*75
$GPGSV,5,4,17,36,52,277,,40,84,353,35,41,58,082,30,49,32,274,*79
$GPGSV,5,5,17,50,10,089,*4A
$GLGSV,2,1,08,65,20,001,09,66,48,309,28,67,28,240,32,76,13,142,09*6A
$GLGSV,2,2,08,77,15,188,,86,16,136,21,87,49,098,23,88,36,006,27*62
$GNGLL,0419.77760,S,05539.74115,E,121616.00,A,A*68
$GNGRS,121616.00,1,0.9,5.3,-0.8,-12.9,4.0,6.5,-5.7,10.4,9.2,,,*56
$GNGRS,121616.00,1,3.2,3.9,10.0,-13.6,-8.1,7.5,9.0,,,,,*71
$GNGST,121616.00,2974672,,,,4.1,4.2,14*59
$GNZDA,121616.00,22,05,2025,00,00*7B
$GNGBS,121616.00,4.1,4.2,13.6,,,,*6B
$GNTXT,01,01,01,More than 100 frame errors, UART RX was disabled*70
b0@;>
*|
!Sm(g{B*60" ;fe{4#Ta:R 
Yjg
AB05C L1MVOW1bxX$Vb;U$GNRMC,121617.00,A,0419.77765,S,05539.74117,E,0.153,,220525,,,A*72
$GNVTG,,T,,M,0.153,N,0.283,K,A*33
$GNGNS,121617.00,0419.77765,S,05539.74117,E,AA,16,0.65,24.3,-47.6,,*68
$GNGGA,121617.00,0419.77765,S,05539.74117,E,1,12,0.65,24.3,M,-47.6,M,,*46
$GNGSA,A,3,32,28,27,18,26,31,16,29,10,,,,1.52,0.65,1.38*1F
$GNGSA,A,3,66,87,65,88,67,86,76,,,,,,1.52,0.65,1.38*11
$GPGSV,5,1,17,08,07,318,,10,16,002,15,16,25,242,29,18,33,083,10*72
$GPGSV,5,2,17,23,02,040,09,25,00,123,,26,29,211,12,27,42,310,25*79
$GPGSV,5,3,17,28,48,151,31,29,14,148,14,31,34,187,24,32,59,358,30*73
$GPGSV,5,4,17,36,52,277,,40,84,353,35,41,58,082,30,49,32,274,*79
$GPGSV,5,5,17,50,10,089,*4A
$GLGSV,2,1,08,65,20,001,09,66,48,309,29,67,28,240,32,76,13,142,11*62
$GLGSV,2,2,08,77,15,188,,86,16,136,21,87,49,098,25,88,36,006,26*65
$GNGLL,0419.77765,S,05539.74117,E,121617.00,A,A*6E
$GNGRS,121617.00,1,-6.7,5.0,-3.4,-21.9,-1.9,7.7,-6.4,7.6,8.1,,,*6A
$GNGRS,121617.00,1,-0.4,3.8,5.3,-13.4,-8.1,8.5,-138,,,,,*53
$GNGST,121617.00,63,,,,4.1,4.2,14*66
$GNZDA,121617.00,22,05,2025,00,00*7A
$GNGBS,121617.00,4.1,4.2,13.6,,,,*6A
$GNTXT,01,01,01,More than 100 frame errors, UART RX was disabled*70
b0@;>

V!SB({*60"! ;f8{4#Ta:R 
Yjd
AB05C L
~MV@W1bX$\b;-F$GNRMC,121618.00,A,0419.77768,S,05539.74125,E,0.112,,220525,,,A*74
$GNVTG,,T,,M,0.112,N,0.207,K,A*3A
$GNGNS,121618.00,0419.77768,S,05539.74125,E,AA,15,0.66,24.0,-47.6,,*68
$GNGGA,121618.00,0419.77768,S,05539.74125,E,1,12,0.66,24.0,M,-47.6,M,,*45
$GNGSA,A,3,32,28,27,18,31,16,29,10,,,,,1.47,0.66,1.31*15
$GNGSA,A,3,66,87,65,88,67,86,76,,,,,,1.47,0.66,1.31*1F
$GPGSV,5,1,17,08,07,318,,10,16,002,13,16,25,242,28,18,33,083,13*76
$GPGSV,5,2,17,23,02,040,07,25,00,123,,26,29,211,,27,42,310,21*70
$GPGSV,5,3,17,28,48,151,30,29,14,148,13,31,34,187,24,32,59,358,31*74
$GPGSV,5,4,17,36,52,277,,40,84,353,35,41,58,082,31,49,32,274,*78
$GPGSV,5,5,17,50,10,089,*4A
$GLGSV,2,1,08,65,20,001,13,66,48,309,28,67,28,240,32,76,13,142,10*69
$GLGSV,2,2,08,77,15,188,,86,16,136,21,87,49,098,25,88,36,006,25*66
$GNGLL,0419.77768,S,05539.74125,E,121618.00,A,A*6D
$GNGRS,121618.00,1,-2.0,4.8,-0.7,-22.4,8.0,-1.7,7.0,7.8,,,,*66
$GNGRS,121618.00,1,-5.9,4.0,10.2,-10.7,-8.1,8.3,8.9,,,,,*50
$GNGST,121618.00,90323,,,,4.1,4.2,14*57
$GNZDA,121618.00,22,05,2025,00,00*75
$GNGBS,121618.00,4.1,4.2,13.5,,,,*66
$GNTXT,01,01,01,More than 100 frame errors, UART RX was disabled*70
b0@;>

6!S({*60" ;f{4$Ta:R 
Yj,
AB05C!L
LMVW1bX$"b;j$GNRMC,121619.00,A,0419.77773,S,05539.74128,E,0.103,,220525,,,A*72
$GNVTG,,T,,M,0.103,N,0.190,K,A*37
$GNGNS,121619.00,0419.77773,S,05539.74128,E,AA,15,0.71,24.0,-47.6,,*68
$GNGGA,121619.00,0419.77773,S,05539.74128,E,1,12,0.71,24.0,M,-47.6,M,,*45
$GNGSA,A,3,32,28,27,18,31,16,29,10,,,,,1.50,0.71,1.32*16
$GNGSA,A,3,66,87,65,88,67,86,76,,,,,,1.50,0.71,1.32*1C
$GPGSV,5,1,17,08,07,318,,10,16,002,10,16,25,242,27,18,33,083,14*7D
$GPGSV,5,2,17,23,02,040,11,25,00,123,,26,29,211,,27,42,310,20*76
$GPGSV,5,3,17,28,48,151,31,29,14,148,11,31,34,187,25,32,59,358,31*76
$GPGSV,5,4,17,36,52,277,,40,84,353,36,41,58,082,31,49,32,274,*7B
$GPGSV,5,5,17,50,10,089,*4A
$GLGSV,2,1,08,65,20,001,15,66,48,309,28,67,28,240,33,76,13,142,10*6E
$GLGSV,2,2,08,77,15,188,,86,16,136,21,87,49,098,25,88,36,006,26*65
$GNGLL,0419.77773,S,05539.74128,E,121619.00,A,A*6B
$GNGRS,121619.00,1,-7.8,4.9,7.5,-22.8,5.1,1.8,9.6,8.2,,,,*6C
$GNGRS,121619.00,1,-3.4,4.6,10.2,-10.2,-8.2,7.3,8.4,,,,,*58
$GNGST,121619.00,70672,,,,4.1,4.2,14*59
$GNZDA,121619.00,22,05,2025,00,00*74
$GNGBS,121619.00,4.1,4.2,13.5,,,,*67
$GNTXT,01,01,01,More than 100 frame errors, UART RX was disabled*70
b0@p;>
0
!Sf
(E{*6O 0
"% ;f{4$Ta:R 
Yj
A)B05C LNMVW1b4X$Mbp;R$GNRMC,121620.00,A,0419.77780,S,05539.74132,E,0.036,,220525,,,A*78
$GNVTG,,T,,M,0.036,N,0.068,K,A*36
$GNGNS,121620.00,0419.77780,S,05539.74132,E,AA,15,0.77,23.9,-47.6,,*6D
$GNGGA,121620.00,0419.77780,S,05539.74132,E,1,12,0.77,23.9,M,-47.6,M,,*40
$GNTXT,01,01,01,More than 100 frame errors, UART RX was disabled*70
$GNGSA,A,3,32,28,27,18,31,16,29,10,,,,,1.68,0.77,1.49*17
$GNGSA,A,3,66,87,65,88,67,86,76,,,,,,1.68,0.77,1.49*1D
$GPGSV,5,1,17,08,07,318,,10,16,002,12,16,25,242,27,18,33,083,10*7B
$GPGSV,5,2,17,23,02,040,10,25,00,123,,26,29,211,07,27,42,310,23*73
$GPGSV,5,3,17,28,48,151,32,29,14,148,10,31,34,187,26,32,59,358,30*76
$GPGSV,5,4,17,36,52,277,,40,84,353,36,41,58,082,31,49,32,274,*7B
$GPGSV,5,5,17,50,10,089,*4A
$GLGSV,2,1,08,65,20,001,13,66,48,309,28,67,28,240,32,76,13,142,09*61
$GLGSV,2,2,08,77,15,188,,86,16,136,22,87,49,098,25,88,36,006,27*67
$GNGLL,0419.77780,S,05539.74132,E,121620.00,A,A*66
$GNGRS,121620.00,1,-10.0,4.8,3.4,-29.7,2.9,-2.1,12.2,8.9,,,,*45
$GNGRS,121620.00,1,-6.4,3.1,31.1,-11.5,-3.6,6.6,39.2,,,,,*6E
$GNGST,121620.00,54,,,,4.1,4.2,14*66
$GNZDA,121620.00,22,05,2025,00,00*7E
$GNGBS,121620.00,4.1,4.2,13.5,,,,*6D
b0@X;>
M!S
({5*6 0"< ;f{4$Ta:R 
Yj
AB05C LMVW1bX$bX;:~$GNRMC,121621.00,A,0419.77785,S,05539.74137,E,0.033,,220525,,,A*7C
$GNVTG,,T,,M,0.033,N,0.061,K,A*3A
$GNGNS,121621.00,0419.77785,S,05539.74137,E,AA,13,0.71,23.8,-47.6,,*6D
$GNGGA,121621.00,0419.77785,S,05539.74137,E,1,12,0.71,23.8,M,-47.6,M,,*46
$GNGSA,A,3,32,28,27,18,31,16,10,,,,,,1.64,0.71,1.48*17
$GNGSA,A,3,66,87,88,67,86,76,,,,,,,1.64,0.71,1.48*15
$GPGSV,5,1,17,08,07,318,,10,16,002,18,16,25,242,28,18,33,083,15*7B
$GPGSV,5,2,17,23,02,040,10,25,00,123,,26,29,211,08,27,42,310,24*7B
$GPGSV,5,3,17,28,48,151,32,29,14,148,07,31,34,187,25,32,59,358,29*7B
$GPGSV,5,4,17,36,52,277,,40,84,353,36,41,58,082,31,49,32,274,*7B
$GPGSV,5,5,17,50,10,089,*4A
$GLGSV,2,1,08,65,20,001,06,66,48,309,29,67,28,240,32,76,13,142,08*65
$GLGSV,2,2,08,77,15,188,,86,16,136,21,87,49,098,24,88,36,006,26*64
$GNGLL,0419.77785,S,05539.74137,E,121621.00,A,A*67
$GNGRS,121621.00,1,-6.1,4.7,2.7,12.1,5.7,-3.8,8.4,,,,,*4F
$GNGRS,121621.00,1,-3.8,1.4,-13.4,-3.8,6.9,9.1,,,,,,*4E
$GNGST,121621.00,3300103,,,,4.0,4.3,13*53
$GNZDA,121621.00,22,05,2025,00,00*7F
$GNGBS,121621.00,4.0,4.3,13.5,,,,*6C
$GNTXT,01,01,01,More than 100 frame errors, UART RX was disabled*70
b0@@;>
!S({|*6!0" ;f{4#Ta:R 
Yj
A
B05C oLfMV>W1bX$Ib@;"$GNRMC,121622.00,A,0419.77791,S,05539.74144,E,0.064,,220525,,,A*7C
$GNVTG,,T,,M,0.064,N,0.119,K,A*36
$GNGNS,121622.00,0419.77791,S,05539.74144,E,AA,14,0.68,23.7,-47.6,,*6F
$GNGGA,121622.00,0419.77791,S,05539.74144,E,1,12,0.68,23.7,M,-47.6,M,,*43
$GNGSA,A,3,32,28,27,18,31,16,10,,,,,,1.52,0.68,1.37*12
$GNGSA,A,3,66,87,65,88,67,86,76,,,,,,1.52,0.68,1.37*13
$GPGSV,5,1,17,08,07,318,,10,16,002,19,16,25,242,29,18,33,083,16*78
$GPGSV,5,2,17,23,02,040,08,25,00,123,,26,29,211,08,27,42,310,25*73
$GPGSV,5,3,17,28,48,151,33,29,14,148,06,31,34,187,25,32,59,358,30*73
$GPGSV,5,4,17,36,52,277,,40,84,353,35,41,58,082,31,49,32,274,*78
$GPGSV,5,5,17,50,10,089,*4A
$GLGSV,2,1,08,65,20,001,10,66,48,309,30,67,28,240,32,76,13,142,13*60
$GLGSV,2,2,08,77,15,188,,86,16,136,23,87,49,098,26,88,36,006,26*64
$GNGLL,0419.77791,S,05539.74144,E,121622.00,A,A*65
$GNGRS,121622.00,1,-5.3,4.3,4.0,11.9,6.5,-1.1,6.9,,,,,*4A
$GNGRS,121622.00,1,-3.7,-0.1,10.1,-13.8,-4.0,5.7,8.7,,,,,*7C
$GNGST,121622.00,4497346,,,,4.0,4.2,13*5C
$GNZDA,121622.00,22,05,2025,00,00*7C
$GNGBS,121622.00,4.0,4.2,13.4,,,,*6F
$GNTXT,01,01,01,More than 100 frame errors, UART RX was disabled*70
b0@(;>
5!S
({'*6a!0"X ;f{4#Ta :R 
Yj
A
B05C }L
MVW1b%X$xb(;
eN$GNRMC,121623.00,A,0419.77792,S,05539.74154,E,0.065,,220525,,,A*7E
$GNVTG,,T,,M,0.065,N,0.120,K,A*3D
$GNGNS,121623.00,0419.77792,S,05539.74154,E,AA,15,0.70,23.2,-47.6,,*61
$GNGGA,121623.00,0419.77792,S,05539.74154,E,1,12,0.70,23.2,M,-47.6,M,,*4C
$GNGSA,A,3,32,28,27,18,26,31,16,10,,,,,1.76,0.70,1.61*1A
$GNGSA,A,3,66,87,65,88,67,86,76,,,,,,1.76,0.70,1.61*1F
$GPGSV,5,1,17,08,07,318,,10,16,002,20,16,25,242,28,18,33,083,14*71
$GPGSV,5,2,17,23,02,040,10,25,00,123,,26,29,211,08,27,42,310,25*7A
$GPGSV,5,3,17,28,48,151,33,29,14,148,06,31,34,187,25,32,59,358,30*73
$GPGSV,5,4,17,36,52,277,,40,84,353,35,41,58,082,32,49,32,274,*7B
$GPGSV,5,5,17,50,10,089,*4A
$GLGSV,2,1,08,65,20,001,10,66,48,309,30,67,28,240,32,76,13,142,10*63
$GLGSV,2,2,08,77,15,188,,86,16,136,23,87,49,098,26,88,36,006,27*65
$GNGLL,0419.77792,S,05539.74154,E,121623.00,A,A*66
$GNGRS,121623.00,1,-5.4,4.0,3.5,11.8,-7.3,6.0,-0.8,8.2,,,,*43
$GNGRS,121623.00,1,-4.8,-2.2,-59.7,-11.2,-3.9,5.1,-38.6,,,,,*4D
$GNGST,121623.00,51,,,,4.0,4.2,13*66
$GNZDA,121623.00,22,05,2025,00,00*7D
$GNGBS,121623.00,4.0,4.2,13.4,,,,*6E
$GNTXT,01,01,01,More than 100 frame errors, UART RX was disabled*70
b0@;>
<!S(#{U*6!0" ;f{4$Ta!:R 
Yj
A
B05C eL
MVW1b;X$b;<$GNRMC,121624.00,A,0419.77798,S,05539.74160,E,0.067,,220525,,,A*76
$GNVTG,,T,,M,0.067,N,0.124,K,A*3B
$GNGNS,121624.00,0419.77798,S,05539.74160,E,AA,14,0.68,23.1,-47.6,,*60
$GNGGA,121624.00,0419.77798,S,05539.74160,E,1,12,0.68,23.1,M,-47.6,M,,*4C
$GNGSA,A,3,32,28,27,18,31,16,10,,,,,,1.52,0.68,1.37*12
$GNGSA,A,3,66,87,65,88,67,86,76,,,,,,1.52,0.68,1.37*13
$GPGSV,5,1,17,08,07,318,,10,16,002,20,16,25,242,29,18,33,083,17*73
$GPGSV,5,2,17,23,02,040,11,25,00,123,,26,29,211,11,27,42,310,25*73
$GPGSV,5,3,17,28,48,151,33,29,14,148,06,31,34,187,24,32,59,358,31*73
$GPGSV,5,4,17,36,52,277,,40,84,353,36,41,58,082,33,49,32,274,*79
$GPGSV,5,5,17,50,10,089,*4A
$GLGSV,2,1,08,65,20,001,10,66,48,309,28,67,28,240,32,76,13,142,10*6A
$GLGSV,2,2,08,77,15,188,,86,16,136,23,87,49,098,28,88,36,006,26*6A
$GNGLL,0419.77798,S,05539.74160,E,121624.00,A,A*6C
$GNGRS,121624.00,1,-7.7,3.9,2.4,9.5,7.2,-4.5,7.5,,,,,*7A
$GNGRS,121624.00,1,-8.3,-4.5,10.3,-13.4,-4.1,4.4,9.1,,,,,*7F
$GNGST,121624.00,4496177,,,,4.0,4.2,13*5B
$GNZDA,121624.00,22,05,2025,00,00*7A
$GNGBS,121624.00,4.0,4.2,13.3,,,,*6E
$GNTXT,01,01,01,More than 100 frame errors, UART RX was disabled*70
b0@;>
[K!S({>*6 0b" ;f{4%Ta :R 
Yk
AB05C MLoMVW1bfX$b;$GNRMC,121625.00,A,0419.77801,S,05539.74161,E,0.105,,220525,,,A*7C
$GNVTG,,T,,M,0.105,N,0.195,K,A*34
$GNGNS,121625.00,0419.77801,S,05539.74161,E,AA,15,0.65,23.0,-47.6,,*62
$GNGGA,121625.00,0419.77801,S,05539.74161,E,1,12,0.65,23.0,M,-47.6,M,,*4F
$GNGSA,A,3,32,28,27,18,26,31,16,10,,,,,1.51,0.65,1.36*19
$GNGSA,A,3,66,87,65,88,67,86,76,,,,,,1.51,0.65,1.36*1C
$GPGSV,5,1,17,08,07,318,,10,16,002,19,16,25,242,29,18,33,083,21*7C
$GPGSV,5,2,17,23,02,040,08,25,00,123,,26,29,211,13,27,42,310,25*79
$GPGSV,5,3,17,28,48,151,32,29,14,148,06,31,34,187,25,32,59,358,29*7A
$GPGSV,5,4,17,36,52,277,,40,84,353,37,41,58,082,32,49,32,274,*79
$GPGSV,5,5,17,50,10,089,*4A
$GLGSV,2,1,08,65,20,001,13,66,48,309,27,67,28,240,32,76,13,142,09*6E
$GLGSV,2,2,08,77,15,188,,86,16,136,23,87,49,098,28,88,36,006,26*6A
$GNGLL,0419.77801,S,05539.74161,E,121625.00,A,A*63
$GNGRS,121625.00,1,-5.3,3.5,0.2,4.5,-1.9,8.0,0.8,8.6,,,,*56
$GNGRS,121625.00,1,-3.5,-4.1,10.4,-12.9,-4.4,1.8,8.8,,,,,*78
$GNGST,121625.00,4343719,,,,3.9,4.2,13*55
$GNZDA,121625.00,22,05,2025,00,00*7B
$GNGBS,121625.00,3.9,4.2,13.3,,,,*61
$GNTXT,01,01,01,More than 100 frame errors, UART RX was disabled*70
b0@;>
(N!S({*6 0^"i ;f{4%Ta :R 
Yk
A!B05C 3LMVwW1b8X$Cb;t$GNRMC,121626.00,A,0419.77807,S,05539.74160,E,0.077,,220525,,,A*7C
$GNVTG,,T,,M,0.077,N,0.143,K,A*3B
$GNGNS,121626.00,0419.77807,S,05539.74160,E,AA,15,0.68,22.9,-47.6,,*63
$GNGGA,121626.00,0419.77807,S,05539.74160,E,1,12,0.68,22.9,M,-47.6,M,,*4E
$GNGSA,A,3,32,28,27,18,26,31,16,10,,,,,1.63,0.68,1.47*13
$GNGSA,A,3,66,87,65,88,67,86,76,,,,,,1.63,0.68,1.47*16
$GPGSV,5,1,17,08,07,318,,10,16,002,16,16,25,242,28,18,33,083,21*72
$GPGSV,5,2,17,23,02,040,09,25,00,123,,26,29,211,11,27,42,310,24*7B
$GPGSV,5,3,17,28,48,151,32,29,14,148,,31,34,187,27,32,59,358,29*7E
$GPGSV,5,4,17,36,52,277,,40,84,353,37,41,58,082,32,49,32,274,*79
$GPGSV,5,5,17,50,10,089,*4A
$GLGSV,2,1,08,65,20,001,11,66,48,309,27,67,28,240,32,76,13,142,11*65
$GLGSV,2,2,08,77,15,188,,86,16,136,22,87,49,098,28,88,36,006,26*6B
$GNGLL,0419.77807,S,05539.74160,E,121626.00,A,A*67
$GNGRS,121626.00,1,-8.4,3.5,-1.1,-0.8,4.0,6.2,3.3,8.1,,,,*76
$GNGRS,121626.00,1,1.8,-4.6,-20.1,-12.1,-4.6,1.2,4.2,,,,,*73
$GNGST,121626.00,58,,,,3.9,4.2,13*64
$GNZDA,121626.00,22,05,2025,00,00*78
$GNGBS,121626.00,3.9,4.2,13.2,,,,*63
$GNTXT,01,01,01,More than 100 frame errors, UART RX was disabled*70
b0@;>
!S(3{8*6!0Y" ;f{4%Ta!:R 
Yk
AB05C %LMVUW1bX$Mb;$GNRMC,121627.00,A,0419.77812,S,05539.74162,E,0.050,,220525,,,A*7E
$GNVTG,,T,,M,0.050,N,0.092,K,A*33
$GNGNS,121627.00,0419.77812,S,05539.74162,E,AA,14,0.68,23.0,-47.6,,*6D
$GNGGA,121627.00,0419.77812,S,05539.74162,E,1,12,0.68,23.0,M,-47.6,M,,*41
$GNGSA,A,3,32,28,27,18,31,16,10,,,,,,1.52,0.68,1.37*12
$GNGSA,A,3,66,87,65,88,67,86,76,,,,,,1.52,0.68,1.37*13
$GPGSV,5,1,17,08,07,318,06,10,16,002,15,16,25,242,28,18,33,083,21*77
$GPGSV,5,2,17,23,02,040,09,25,00,123,,26,29,211,08,27,42,310,22*75
$GPGSV,5,3,17,28,48,151,33,29,14,148,,31,34,187,27,32,59,358,27*71
$GPGSV,5,4,17,36,52,277,,40,84,353,37,41,58,082,33,49,32,274,*78
$GPGSV,5,5,17,50,10,089,*4A
$GLGSV,2,1,08,65,19,002,14,66,48,309,27,67,28,240,32,76,13,142,09*60
$GLGSV,2,2,08,77,15,188,,86,16,136,22,87,49,098,28,88,36,006,26*6B
$GNGLL,0419.77812,S,05539.74162,E,121627.00,A,A*60
$GNGRS,121627.00,1,0.2,3.5,-3.2,-2.9,4.4,-2.8,6.9,,,,,*59
$GNGRS,121627.00,1,-0.3,-3.2,10.4,-10.9,-4.8,0.9,9.3,,,,,*7F
$GNGST,121627.00,3179640,,,,3.9,4.2,13*56
$GNZDA,121627.00,22,05,2025,00,00*79
$GNGBS,121627.00,3.9,4.2,13.2,,,,*62
$GNTXT,01,01,01,More than 100 frame errors, UART RX was disabled*70
b0@;>
!S({M*6G!0G" ;f{4%Ta!:R 
Yk
AB06C+L
MV9W1brX$Nb;D$GNRMC,121628.00,A,0419.77815,S,05539.74168,E,0.064,,220525,,,A*7B
$GNVTG,,T,,M,0.064,N,0.118,K,A*37
$GNGNS,121628.00,0419.77815,S,05539.74168,E,AA,15,0.68,23.0,-47.6,,*6E
$GNGGA,121628.00,0419.77815,S,05539.74168,E,1,12,0.68,23.0,M,-47.6,M,,*43
$GNGSA,A,3,32,28,27,18,31,16,10,08,,,,,1.52,0.68,1.37*1A
$GNGSA,A,3,66,87,65,88,67,86,76,,,,,,1.52,0.68,1.37*13
$GPGSV,5,1,17,08,07,318,07,10,16,002,13,16,25,242,28,18,33,083,21*70
$GPGSV,5,2,17,23,02,040,11,25,00,123,,26,29,211,08,27,42,310,21*7F
$GPGSV,5,3,17,28,48,151,33,29,14,148,,31,34,187,27,32,59,358,26*70
$GPGSV,5,4,17,36,52,277,,40,84,353,37,41,58,082,33,49,32,274,*78
$GPGSV,5,5,17,50,10,089,*4A
$GLGSV,2,1,08,65,19,002,11,66,48,310,25,67,28,240,31,76,13,142,10*64
$GLGSV,2,2,08,77,15,188,,86,16,136,20,87,49,098,26,88,36,006,25*64
$GNGLL,0419.77815,S,05539.74168,E,121628.00,A,A*62
$GNGRS,121628.00,1,0.2,3.3,-1.9,-3.4,4.2,-7.4,7.0,-36.1,,,,*65
$GNGRS,121628.00,1,1.9,-1.4,10.2,-10.3,-4.7,0.6,9.0,,,,,*5D
$GNGST,121628.00,3180058,,,,3.9,4.2,13*50
$GNZDA,121628.00,22,05,2025,00,00*76
$GNGBS,121628.00,3.9,4.2,13.2,,,,*6D
$GNTXT,01,01,01,More than 100 frame errors, UART RX was disabled*70
b0@;>a
d8!S({1*6"0#" ;f{4%Ta:R 
Yk
AB06hC-LMVW1bX$Xb;zs$GNRMC,121629.00,A,0419.77823,S,05539.74165,E,0.153,,220525,,,A*77
$GNVTG,,T,,M,0.153,N,0.284,K,A*34
$GNGNS,121629.00,0419.77823,S,05539.74165,E,AA,14,0.71,23.5,-47.6,,*6B
$GNGGA,121629.00,0419.77823,S,05539.74165,E,1,12,0.71,23.5,M,-47.6,M,,*47
$GNGSA,A,3,32,28,27,18,31,16,10,08,,,,,1.64,0.71,1.47*10
$GNGSA,A,3,66,87,88,67,86,76,,,,,,,1.64,0.71,1.47*1A
$GPGSV,5,1,17,08,07,318,08,10,16,002,12,16,25,242,28,18,33,083,20*7F
$GPGSV,5,2,17,23,02,040,06,25,00,123,,26,29,211,07,27,42,310,23*74
$GPGSV,5,3,17,28,48,151,34,29,14,148,,31,34,187,25,32,59,358,26*75
$GPGSV,5,4,17,36,52,277,,40,84,353,37,41,58,082,31,49,32,274,*7A
$GPGSV,5,5,17,50,10,089,*4A
$GLGSV,2,1,08,65,19,002,06,66,48,310,26,67,28,240,30,76,13,142,14*64
$GLGSV,2,2,08,77,15,188,,86,16,136,20,87,49,098,25,88,36,006,25*67
$GNGLL,0419.77823,S,05539.74165,E,121629.00,A,A*6B
$GNGRS,121629.00,1,2.5,2.9,-4.9,-3.4,4.7,-2.0,3.6,-29.7,,,,*61
$GNGRS,121629.00,1,1.0,-2.8,-6.8,-4.7,-1.0,4.3,,,,,,*5F
$GNGST,121629.00,57,,,,3.9,4.1,13*67
$GNZDA,121629.00,22,05,2025,00,00*77
$GNGBS,121629.00,3.9,4.1,13.2,,,,*6F
$GNTXT,01,01,01,More than 100 frame errors, UART RX was disabled*70
b0@;>e
!S(8{>*6"0" ;f{4%Ta:R 
Yk
AB06CLMVW1bX$zb;bK$GNRMC,121630.00,A,0419.77827,S,05539.74168,E,0.056,,220525,,,A*72
$GNVTG,,T,,M,0.056,N,0.104,K,A*3B
$GNGNS,121630.00,0419.77827,S,05539.74168,E,AA,14,0.72,23.7,-47.6,,*6B
$GNGGA,121630.00,0419.77827,S,05539.74168,E,1,12,0.72,23.7,M,-47.6,M,,*47
$GNGSA,A,3,32,28,27,18,31,16,08,,,,,,1.70,0.72,1.53*12
$GNGSA,A,3,66,87,65,88,67,86,76,,,,,,1.70,0.72,1.53*1A
$GPGSV,5,1,17,08,07,318,08,10,16,002,,16,25,242,28,18,33,083,19*76
$GPGSV,5,2,17,23,02,040,11,25,00,123,,26,29,211,07,27,42,310,25*74
$GPGSV,5,3,17,28,48,151,34,29,14,148,,31,34,187,22,32,59,358,25*71
$GPGSV,5,4,17,36,52,277,,40,84,353,37,41,58,082,31,49,32,274,*7A
$GPGSV,5,5,17,50,10,089,*4A
$GLGSV,2,1,08,65,19,002,09,66,48,310,26,67,28,240,30,76,13,142,11*6E
$GLGSV,2,2,08,77,15,188,,86,16,136,20,87,49,098,25,88,36,006,24*66
$GNGLL,0419.77827,S,05539.74168,E,121630.00,A,A*6A
$GNGRS,121630.00,1,4.8,2.5,-3.4,-0.1,6.5,-0.4,-29.7,,,,,*4F
$GNGRS,121630.00,1,1.6,-3.0,10.2,-5.6,-7.5,-0.6,9.4,,,,,*44
$GNGST,121630.00,3299721,,,,3.9,4.1,13*58
$GNZDA,121630.00,22,05,2025,00,00*7F
$GNGBS,121630.00,3.9,4.1,13.2,,,,*67
$GNTXT,01,01,01,More than 100 frame errors, UART RX was disabled*70
b0@h<>p
h!S(>{
5*6#0"V ;f{4%Ta :R 
Yk
A
B06CLMVW1bX$_bh<J$$GNRMC,121631.00,A,0419.77829,S,05539.74169,E,0.049,,220525,,,A*72
$GNVTG,,T,,M,0.049,N,0.091,K,A*38
$GNGNS,121631.00,0419.77829,S,05539.74169,E,AA,13,0.72,24.0,-47.6,,*62
$GNGGA,121631.00,0419.77829,S,05539.74169,E,1,12,0.72,24.0,M,-47.6,M,,*49
$GNGSA,A,3,32,28,27,18,31,16,,,,,,,1.70,0.72,1.53*1A
$GNGSA,A,3,66,87,65,88,67,86,76,,,,,,1.70,0.72,1.53*1A
$GPGSV,5,1,17,08,07,318,11,10,16,002,,16,25,242,28,18,33,083,20*74
$GPGSV,5,2,17,23,02,040,11,25,00,123,,26,29,211,10,27,42,310,26*71
$GPGSV,5,3,17,28,48,151,35,29,14,148,,31,34,187,22,32,59,358,23*76
$GPGSV,5,4,17,36,52,277,,40,84,353,37,41,58,082,32,49,32,274,*79
$GPGSV,5,5,17,50,10,089,*4A
$GLGSV,2,1,08,65,19,002,10,66,48,310,27,67,28,240,31,76,13,142,11*66
$GLGSV,2,2,08,77,15,188,,86,16,136,21,87,49,098,25,88,36,006,22*61
$GNGLL,0419.77829,S,05539.74169,E,121631.00,A,A*64
$GNGRS,121631.00,1,4.5,2.0,-3.2,-0.5,8.5,-4.1,,,,,,*74
$GNGRS,121631.00,1,2.7,-3.0,10.1,-5.4,-6.2,0.3,9.3,,,,,*6F
$GNGST,121631.00,3300257,,,,3.9,4.1,13*5C
$GNZDA,121631.00,22,05,2025,00,00*7E
$GNGBS,121631.00,3.9,4.1,13.3,,,,*67
$GNTXT,01,01,01,More than 100 frame errors, UART RX was disabled*70
b0@P<>
|!S&(vP{8*6S#0`" ;f{4%Ta :R 
Yk
A
B06CLMVW1blX$bP<2$GNRMC,121632.00,A,0419.77832,S,05539.74170,E,0.025,,220525,,,A*79
$GNVTG,,T,,M,0.025,N,0.046,K,A*38
$GNGNS,121632.00,0419.77832,S,05539.74170,E,AA,15,0.86,24.2,-47.6,,*6C
$GNGGA,121632.00,0419.77832,S,05539.74170,E,1,12,0.86,24.2,M,-47.6,M,,*41
$GNGSA,A,3,32,28,27,18,26,31,16,08,,,,,2.34,0.86,2.17*1D
$GNGSA,A,3,66,87,65,88,67,86,76,,,,,,2.34,0.86,2.17*11
$GPGSV,5,1,17,08,07,318,11,10,16,002,,16,25,242,27,18,33,083,21*7A
$GPGSV,5,2,17,23,02,040,13,25,00,123,,26,29,211,11,27,42,310,27*73
$GPGSV,5,3,17,28,48,151,35,29,14,148,20,31,34,187,23,32,59,358,25*73
$GPGSV,5,4,17,36,52,277,,40,84,353,37,41,58,082,32,49,32,274,*79
$GPGSV,5,5,17,50,10,089,*4A
$GLGSV,2,1,08,65,19,002,10,66,48,310,28,67,28,240,30,76,13,142,11*68
$GLGSV,2,2,08,77,15,188,,86,16,136,20,87,49,098,27,88,36,006,22*62
$GNGLL,0419.77832,S,05539.74170,E,121632.00,A,A*65
$GNGRS,121632.00,1,4.4,1.7,-1.7,-2.2,41.5,7.9,-6.4,-82.6,,,,*55
$GNGRS,121632.00,1,2.5,-4.0,68.2,-3.2,-5.1,-0.3,-31.1,,,,,*5C
$GNGST,121632.00,44,,,,3.9,4.2,13*6C
$GNZDA,121632.00,22,05,2025,00,00*7D
$GNGBS,121632.00,3.9,4.2,13.3,,,,*67
$GNTXT,01,01,01,More than 100 frame errors, UART RX was disabled*70
b0@8<
>
E!S(B{8*6_#0" ;f{4%Ta :R 
Yk
AB06CLMV:W1bX$ qb8<Z$GNRMC,121633.00,A,0419.77835,S,05539.74170,E,0.044,,220525,,,A*78
$GNVTG,,T,,M,0.044,N,0.081,K,A*34
$GNGNS,121633.00,0419.77835,S,05539.74170,E,AA,15,0.69,24.4,-47.6,,*6D
$GNGGA,121633.00,0419.77835,S,05539.74170,E,1,12,0.69,24.4,M,-47.6,M,,*40
$GNGSA,A,3,32,28,27,18,26,31,16,08,,,,,1.68,0.69,1.53*15
$GNGSA,A,3,66,87,65,88,67,86,76,,,,,,1.68,0.69,1.53*19
$GPGSV,5,1,17,08,07,318,10,10,16,002,,16,25,242,28,18,33,083,22*77
$GPGSV,5,2,17,23,02,040,11,25,00,123,,26,29,211,13,27,42,310,26*72
$GPGSV,5,3,17,28,48,151,35,29,14,148,18,31,34,187,25,32,59,358,26*7D
$GPGSV,5,4,17,36,52,277,,40,84,353,37,41,58,082,32,49,32,274,*79
$GPGSV,5,5,17,50,10,089,*4A
$GLGSV,2,1,08,65,19,002,08,66,48,310,27,67,28,240,30,76,13,142,11*6E
$GLGSV,2,2,08,77,15,188,,86,16,136,20,87,49,098,27,88,36,006,22*62
$GNGLL,0419.77835,S,05539.74170,E,121633.00,A,A*63
$GNGRS,121633.00,1,4.5,1.5,-4.2,-1.3,13.4,6.5,-4.4,34.6,,,,*7C
$GNGRS,121633.00,1,2.8,-5.0,10.3,-3.4,-0.6,0.6,9.3,,,,,*67
$GNGST,121633.00,5506669,,,,3.9,4.1,13*51
$GNZDA,121633.00,22,05,2025,00,00*7C
$GNGBS,121633.00,3.9,4.1,13.3,,,,*65
$GNTXT,01,01,01,More than 100 frame errors, UART RX was disabled*70
b0@ <>u
U!S(9{+*6#0uc" ;f{4%Ta :R 
Yk
AB06CuLMVW1b{X$Jb <$GNRMC,121634.00,A,0419.77834,S,05539.74172,E,0.039,,220525,,,A*76
$GNVTG,,T,,M,0.039,N,0.071,K,A*31
$GNGNS,121634.00,0419.77834,S,05539.74172,E,AA,15,0.69,24.5,-47.6,,*68
$GNGGA,121634.00,0419.77834,S,05539.74172,E,1,12,0.69,24.5,M,-47.6,M,,*45
$GNGSA,A,3,32,28,27,18,26,31,16,08,,,,,1.68,0.69,1.53*15
$GNGSA,A,3,66,87,65,88,67,86,76,,,,,,1.68,0.69,1.53*19
$GPGSV,5,1,17,08,07,318,08,10,16,002,,16,25,242,29,18,33,083,19*77
$GPGSV,5,2,17,23,02,040,12,25,00,123,,26,29,211,11,27,42,310,24*71
$GPGSV,5,3,17,28,48,151,35,29,14,148,15,31,34,187,25,32,59,358,25*73
$GPGSV,5,4,17,36,52,277,,40,84,353,37,41,58,082,32,49,32,274,*79
$GPGSV,5,5,17,50,10,089,*4A
$GLGSV,2,1,08,65,19,002,09,66,48,310,26,67,28,240,30,76,13,142,11*6E
$GLGSV,2,2,08,77,15,188,,86,16,136,19,87,49,098,26,88,36,006,24*6F
$GNGLL,0419.77834,S,05539.74172,E,121634.00,A,A*67
$GNGRS,121634.00,1,4.9,1.2,-2.3,1.8,13.2,7.0,-1.7,34.5,,,,*56
$GNGRS,121634.00,1,4.2,-3.9,10.0,-1.8,-4.0,-0.4,9.1,,,,,*41
$GNGST,121634.00,5506669,,,,3.9,4.1,13*56
$GNZDA,121634.00,22,05,2025,00,00*7B
$GNGBS,121634.00,3.9,4.1,13.4,,,,*65
$GNTXT,01,01,01,More than 100 frame errors, UART RX was disabled*70
b0@<>:
e!Si
(mP{*6#0\/" ;fu{4%Ta :R 
Yk
AB06C3L-MVW1bX$b<'$GNRMC,121635.00,A,0419.77835,S,05539.74174,E,0.065,,220525,,,A*79
$GNVTG,,T,,M,0.065,N,0.121,K,A*3C
$GNGNS,121635.00,0419.77835,S,05539.74174,E,AA,15,0.86,24.6,-47.6,,*6C
$GNGGA,121635.00,0419.77835,S,05539.74174,E,1,12,0.86,24.6,M,-47.6,M,,*41
$GNGSA,A,3,32,28,27,18,26,31,16,08,,,,,2.34,0.86,2.17*1D
$GNGSA,A,3,66,87,65,88,67,86,76,,,,,,2.34,0.86,2.17*11
$GPGSV,5,1,17,08,07,318,08,10,16,002,17,16,25,242,29,18,33,083,16*7E
$GPGSV,5,2,17,23,02,040,10,25,00,123,,26,29,211,15,27,42,310,23*70
$GPGSV,5,3,17,28,48,151,35,29,14,148,12,31,34,187,24,32,59,358,25*75
$GPGSV,5,4,17,36,52,277,,40,84,353,37,41,58,082,32,49,32,274,*79
$GPGSV,5,5,17,50,10,089,*4A
$GLGSV,2,1,08,65,19,002,08,66,48,310,25,67,28,240,30,76,13,142,12*6F
$GLGSV,2,2,08,77,15,188,,86,16,136,17,87,49,098,26,88,36,006,25*60
$GNGLL,0419.77835,S,05539.74174,E,121635.00,A,A*61
$GNGRS,121635.00,1,6.3,0.9,-2.7,1.1,-54.1,6.8,-9.2,149,,,,*51
$GNGRS,121635.00,1,3.8,-5.9,-137,-0.9,0.5,1.4,23.5,,,,,*70
$GNGST,121635.00,46,,,,4.0,4.1,13*64
$GNZDA,121635.00,22,05,2025,00,00*7A
$GNGBS,121635.00,4.0,4.1,13.4,,,,*6A
$GNTXT,01,01,01,More than 100 frame errors, UART RX was disabled*70
b0@<>}
q!S6(4{K*6"#08"$ ;f7{4%Ta:R 
Yk
AB06CHLMVW1bX$\ib<[$GNRMC,121636.00,A,0419.77834,S,05539.74176,E,0.022,,220525,,,A*7A
$GNVTG,,T,,M,0.022,N,0.041,K,A*38
$GNGNS,121636.00,0419.77834,S,05539.74176,E,AA,15,0.69,24.7,-47.6,,*6C
$GNGGA,121636.00,0419.77834,S,05539.74176,E,1,12,0.69,24.7,M,-47.6,M,,*41
$GNGSA,A,3,32,28,27,18,26,31,16,08,,,,,1.68,0.69,1.53*15
$GNGSA,A,3,66,87,65,88,67,86,76,,,,,,1.68,0.69,1.53*19
$GPGSV,5,1,17,08,07,318,11,10,16,002,16,16,25,242,28,18,33,083,17*77
$GPGSV,5,2,17,23,02,040,07,25,00,123,,26,29,211,15,27,42,310,22*77
$GPGSV,5,3,17,28,48,151,35,29,14,148,11,31,34,187,24,32,59,358,23*70
$GPGSV,5,4,17,36,52,277,,40,84,353,37,41,58,082,31,49,32,274,*7A
$GPGSV,5,5,17,50,10,089,*4A
$GLGSV,2,1,08,65,19,002,09,66,48,310,24,67,28,240,30,76,13,142,12*6F
$GLGSV,2,2,08,77,15,188,,86,16,136,16,87,49,098,25,88,36,006,25*62
$GNGLL,0419.77834,S,05539.74176,E,121636.00,A,A*61
$GNTXT,01,01,01,More than 100 frame errors, UART RX was disabled*70
$GNGRS,121636.00,1,10.8,0.6,-2.2,0.5,13.5,8.0,-5.8,34.5,,,,*6B
$GNGRS,121636.00,1,4.4,-5.2,10.2,3.5,-1.8,1.8,9.3,,,,,*47
$GNGST,121636.00,3183314,,,,4.0,4.2,13*59
$GNZDA,121636.00,22,05,2025,00,00*79
$GNGBS,121636.00,4.0,4.2,13.5,,,,*6B
b0@<>|
!Sc
(,{
E*6,"0
"Q ;f{4%Ta:R 
Yk
AB06CLMVW1bMX$Bnkb<3$GNRMC,121637.00,A,0419.77838,S,05539.74177,E,0.122,,220525,,,A*77
$GNVTG,,T,,M,0.122,N,0.226,K,A*3A
$GNGNS,121637.00,0419.77838,S,05539.74177,E,AA,15,0.69,24.6,-47.6,,*61
$GNGGA,121637.00,0419.77838,S,05539.74177,E,1,12,0.69,24.6,M,-47.6,M,,*4C
$GNGSA,A,3,32,28,27,18,26,31,16,08,,,,,1.68,0.69,1.53*15
$GNGSA,A,3,66,87,65,88,67,86,76,,,,,,1.68,0.69,1.53*19
$GPGSV,5,1,17,08,07,318,13,10,16,002,14,16,25,242,28,18,33,083,17*77
$GPGSV,5,2,17,23,02,040,10,25,00,123,,26,29,211,10,27,42,310,20*76
$GPGSV,5,3,17,28,48,151,34,29,14,148,09,31,34,187,23,32,59,358,24*78
$GPGSV,5,4,17,36,52,277,,40,84,353,37,41,58,082,29,49,32,274,*73
$GPGSV,5,5,17,50,10,089,*4A
$GLGSV,2,1,08,65,19,002,12,66,48,310,24,67,28,240,30,76,13,142,13*64
$GLGSV,2,2,08,77,15,188,,86,16,136,14,87,49,098,25,88,36,006,24*61
$GNGLL,0419.77838,S,05539.74177,E,121637.00,A,A*6D
$GNTXT,01,01,01,More than 100 frame errors, UART RX was disabled*70
$GNGRS,121637.00,1,10.5,0.2,-2.1,1.0,13.5,11.0,4.6,34.5,,,,*7E
$GNGRS,121637.00,1,5.3,-6.9,10.3,5.8,-0.4,2.4,9.0,,,,,*43
$GNGST,121637.00,4496179,,,,4.1,4.2,14*51
$GNZDA,121637.00,22,05,2025,00,00*78
$GNGBS,121637.00,4.1,4.2,13.6,,,,*68
b0@<>F
&!SC()3{*6"0" ;f{4%Ta:R 
Yk
AiB06CLMVW1bX$y1b<R$GNRMC,121638.00,A,0419.77835,S,05539.74180,E,0.108,,220525,,,A*75
$GNVTG,,T,,M,0.108,N,0.200,K,A*36
$GNGNS,121638.00,0419.77835,S,05539.74180,E,AA,15,0.81,24.5,-47.6,,*6E
$GNGGA,121638.00,0419.77835,S,05539.74180,E,1,12,0.81,24.5,M,-47.6,M,,*43
$GNGSA,A,3,32,28,27,18,26,31,16,08,,,,,2.08,0.81,1.92*1B
$GNGSA,A,3,66,87,65,88,67,86,76,,,,,,2.08,0.81,1.92*17
$GPGSV,5,1,17,08,07,318,09,10,16,002,13,16,25,242,28,18,33,083,14*78
$GPGSV,5,2,17,23,02,040,11,25,00,123,,26,29,211,11,27,42,310,20*76
$GPGSV,5,3,17,28,48,151,34,29,14,148,09,31,34,187,22,32,59,358,24*79
$GPGSV,5,4,17,36,52,277,,40,84,353,37,41,58,082,29,49,32,274,*73
$GPGSV,5,5,17,50,10,089,*4A
$GLGSV,2,1,08,65,19,002,12,66,48,310,26,67,28,240,30,76,13,142,13*66
$GLGSV,2,2,08,77,15,188,,86,16,136,14,87,49,098,25,88,36,006,24*61
$GNGLL,0419.77835,S,05539.74180,E,121638.00,A,A*67
$GNGRS,121638.00,1,5.3,0.0,-0.6,0.7,6.5,12.2,-2.2,181,,,,*7C
$GNGRS,121638.00,1,4.6,-5.5,-34.8,8.9,-0.5,2.8,17.9,,,,,*50
$GNGST,121638.00,64,,,,4.1,4.2,14*6C
$GNZDA,121638.00,22,05,2025,00,00*77
$GNGBS,121638.00,4.1,4.2,13.7,,,,*66
$GNTXT,01,01,01,More than 100 frame errors, UART RX was disabled*70
b0@"<>i
!S
(A{5*6"0"b ;f{{4%Ta:R 
Yk
AB06CLMVGW1cX$%b"<$GNRMC,121639.00,A,0419.77834,S,05539.74176,E,0.102,,220525,,,A*76
$GNVTG,,T,,M,0.102,N,0.189,K,A*3E
$GNGNS,121639.00,0419.77834,S,05539.74176,E,AA,16,0.69,24.6,-47.6,,*61
$GNGGA,121639.00,0419.77834,S,05539.74176,E,1,12,0.69,24.6,M,-47.6,M,,*4F
$GNGSA,A,3,32,28,27,18,26,31,16,29,08,,,,1.68,0.69,1.53*1E
$GNGSA,A,3,66,87,65,88,67,86,76,,,,,,1.68,0.69,1.53*19
$GPGSV,5,1,17,08,07,318,13,10,16,002,12,16,25,242,29,18,33,083,15*72
$GPGSV,5,2,17,23,02,040,10,25,00,123,,26,29,211,16,27,42,310,18*7B
$GPGSV,5,3,17,28,48,151,34,29,14,148,12,31,34,187,23,32,59,358,25*73
$GPGSV,5,4,17,36,52,277,,40,84,353,37,41,58,082,30,49,32,274,*7B
$GPGSV,5,5,17,50,10,089,*4A
$GLGSV,2,1,08,65,19,002,12,66,48,310,25,67,28,240,30,76,13,142,13*65
$GLGSV,2,2,08,77,15,187,,86,16,136,15,87,49,099,24,88,36,006,24*6F
$GNGLL,0419.77834,S,05539.74176,E,121639.00,A,A*6E
$GNGRS,121639.00,1,3.8,0.2,-0.8,0.3,13.3,11.2,-0.4,22.0,34.3,,,*71
$GNGRS,121639.00,1,4.5,-6.0,10.2,9.7,-0.1,3.3,9.4,,,,,*46
$GNGST,121639.00,3182869,,,,4.2,4.2,14*53
$GNZDA,121639.00,22,05,2025,00,00*76
$GNGBS,121639.00,4.2,4.2,13.7,,,,*64
$GNTXT,01,01,01,More than 100 frame errors, UART RX was disabled*70
b0@&<>L

!S(,{#*6V#0" ;f{4%Ta:R 
Yk
AB06#CLMVW1cX$9b&<r"$GNRMC,121640.00,A,0419.77831,S,05539.74179,E,0.023,,220525,,,A*70
$GNVTG,,T,,M,0.023,N,0.043,K,A*3B
$GNGNS,121640.00,0419.77831,S,05539.74179,E,AA,16,0.69,24.7,-47.6,,*64
$GNGGA,121640.00,0419.77831,S,05539.74179,E,1,12,0.69,24.7,M,-47.6,M,,*4A
$GNGSA,A,3,32,28,27,18,26,31,16,29,08,,,,1.68,0.69,1.53*1E
$GNGSA,A,3,66,87,65,88,67,86,76,,,,,,1.68,0.69,1.53*19
$GNTXT,01,01,01,More than 100 frame errors, UART RX was disabled*70
$GPGSV,5,1,17,08,07,318,12,10,16,002,10,16,25,242,29,18,33,083,19*7D
$GPGSV,5,2,17,23,02,040,11,25,00,123,,26,29,211,09,27,42,310,16*7A
$GPGSV,5,3,17,28,48,151,35,29,14,148,13,31,34,187,23,32,59,358,26*70
$GPGSV,5,4,17,36,52,277,,40,84,353,37,41,58,082,30,49,32,274,*7B
$GPGSV,5,5,17,50,10,089,*4A
$GLGSV,2,1,08,65,19,002,09,66,48,310,25,67,28,240,29,76,13,142,13*67
$GLGSV,2,2,08,77,15,187,,86,16,136,17,87,49,099,25,88,36,006,24*6C
$GNGLL,0419.77831,S,05539.74179,E,121640.00,A,A*6A
$GNGRS,121640.00,1,-0.1,0.0,0.9,-0.2,13.1,9.6,-3.5,22.1,34.0,,,*65
$GNGRS,121640.00,1,5.5,6.4,9.9,9.2,-3.8,1.4,9.2,,,,,*5F
$GNGST,121640.00,3186094,,,,4.3,4.2,14*52
$GNZDA,121640.00,22,05,2025,00,00*78
$GNGBS,121640.00,4.3,4.2,13.8,,,,*64
b0@x*<>

m!S({*6#0"} ;f{4%Ta:R 
Yk
AB06GCL
%MV/W1cX$bx*<Z$GNRMC,121641.00,A,0419.77827,S,05539.74182,E,0.150,,220525,,,A*77
$GNVTG,,T,,M,0.150,N,0.279,K,A*35
$GNGNS,121641.00,0419.77827,S,05539.74182,E,AA,17,0.66,24.6,-47.6,,*69
$GNGGA,121641.00,0419.77827,S,05539.74182,E,1,12,0.66,24.6,M,-47.6,M,,*46
$GNGSA,A,3,32,28,27,18,26,31,16,29,10,08,,,1.47,0.66,1.31*19
$GNGSA,A,3,66,87,65,88,67,86,76,,,,,,1.47,0.66,1.31*1F
$GPGSV,5,1,17,08,07,318,09,10,16,002,10,16,25,242,28,18,33,083,17*78
$GPGSV,5,2,17,23,02,040,07,25,00,123,,26,29,211,08,27,42,310,14*7E
$GPGSV,5,3,17,28,48,151,35,29,14,148,15,31,34,187,24,32,59,358,25*72
$GPGSV,5,4,17,36,52,277,,40,84,353,37,41,58,082,31,49,32,274,*7A
$GPGSV,5,5,17,50,10,089,*4A
$GLGSV,2,1,08,65,19,002,15,66,48,310,25,67,28,240,29,76,13,142,10*69
$GLGSV,2,2,08,77,15,187,,86,16,136,20,87,49,099,26,88,36,006,25*6A
$GNGLL,0419.77827,S,05539.74182,E,121641.00,A,A*68
$GNGRS,121641.00,1,-0.8,-0.3,0.2,0.0,42.7,8.9,3.7,17.7,-0.8,68.1,,*47
$GNGRS,121641.00,1,5.8,6.7,-15.9,9.2,-2.6,0.5,8.0,,,,,*4C
$GNGST,121641.00,66,,,,4.3,4.2,14*62
$GNZDA,121641.00,22,05,2025,00,00*79
$GNGBS,121641.00,4.3,4.2,13.8,,,,*65
$GNTXT,01,01,01,More than 100 frame errors, UART RX was disabled*70
b0@`.<>h
!S(%{4*6#0" ;f{4$Ta!:R 
Yk
AB06zCL
MVnW1cX$A3b`.<Bk$GNRMC,121642.00,A,0419.77823,S,05539.74189,E,0.056,,220525,,,A*7C
$GNVTG,,T,,M,0.056,N,0.103,K,A*3C
$GNGNS,121642.00,0419.77823,S,05539.74189,E,AA,17,0.63,24.4,-47.6,,*62
$GNGGA,121642.00,0419.77823,S,05539.74189,E,1,12,0.63,24.4,M,-47.6,M,,*4D
$GNGSA,A,3,32,28,27,18,26,31,16,29,10,08,,,1.46,0.63,1.31*1D
$GNGSA,A,3,66,87,65,88,67,86,76,,,,,,1.46,0.63,1.31*1B
