b0@X7?

 P
&BO}<)8/*  =e{"4Ta:R 
Yj
AB12CLMVW1^X#~obX7;$GNRMC,121205.00,A,0419.77975,S,05539.73613,E,1.473,,220525,,,A*78
$GNVTG,,T,,M,1.473,N,2.729,K,A*32
$GNGNS,121205.00,0419.77975,S,05539.73613,E,AA,16,0.62,18.1,-47.6,,*6E
$GNGGA,121205.00,0419.77975,S,05539.73613,E,1,12,0.62,18.1,M,-47.6,M,,*40
$GNGSA,A,3,32,28,27,18,26,31,16,29,10,08,,,1.36,0.62,1.21*1A
$GNGSA,A,3,66,87,65,88,67,86,,,,,,,1.36,0.62,1.21*1D
$GPGSV,5,1,17,08,06,319,11,10,17,000,16,16,25,245,10,18,32,080,18*75
$GPGSV,5,2,17,23,03,038,10,25,01,125,,26,29,214,22,27,41,312,28*72
$GPGSV,5,3,17,28,47,154,24,29,16,147,15,31,32,188,22,32,61,357,29*72
$GPGSV,5,4,17,36,52,277,34,40,84,353,30,41,58,082,,49,32,274,*78
$GPGSV,5,5,17,50,10,089,*4A
$GLGSV,2,1,08,65,21,000,11,66,49,306,28,67,27,237,19,76,13,144,*64
$GLGSV,2,2,08,77,15,190,,86,17,134,16,87,49,094,16,88,35,005,09*6A
$GNGLL,0419.77975,S,05539.73613,E,121205.00,A,A*62
$GNGRS,121205.00,1,-5.5,-4.7,5.1,-1.1,-2.0,2.0,-11.4,-8.8,-17.6,-51.0,,*62
$GNGRS,121205.00,1,-3.3,9.8,48.8,-21.8,-5.8,4.1,,,,,,*7E
$GNGST,121205.00,64,,,,6.5,5.7,16*66
$GNZDA,121205.00,22,05,2025,00,00*7D
$GNGBS,121205.00,6.5,5.7,16.2,,,,*6E
$GNTXT,01,01,01,More than 100 frame errors, UART RX was disabled*70
b0@@7?
 P&})8/a'  =e{%4 Ta:R 
Yj
AB#12CLMVFW1^X#-b@7#Z$GNRMC,121206.00,A,0419.78002,S,05539.73564,E,1.860,331.04,220525,,,A*6B
$GNVTG,331.04,T,,M,1.860,N,3.445,K,A*2F
$GNGNS,121206.00,0419.78002,S,05539.73564,E,AA,15,0.65,18.8,-47.6,,*65
$GNGGA,121206.00,0419.78002,S,05539.73564,E,1,12,0.65,18.8,M,-47.6,M,,*48
$GNGSA,A,3,32,28,27,18,26,31,16,29,10,,,,1.56,0.65,1.42*16
$GNGSA,A,3,66,87,65,88,67,86,,,,,,,1.56,0.65,1.42*19
$GPGSV,5,1,17,08,06,319,09,10,17,000,15,16,25,244,17,18,32,080,15*74
$GPGSV,5,2,17,23,03,038,08,25,01,125,,26,29,214,22,27,41,312,28*7B
$GPGSV,5,3,17,28,47,154,24,29,16,147,12,31,32,188,20,32,61,357,27*79
$GPGSV,5,4,17,36,52,277,37,40,84,353,32,41,58,082,,49,32,274,*79
$GPGSV,5,5,17,50,10,089,*4A
$GLGSV,2,1,08,65,21,000,09,66,49,306,35,67,27,237,18,76,13,144,*60
$GLGSV,2,2,08,77,15,190,,86,17,134,13,87,49,094,14,88,35,005,08*6C
$GNGLL,0419.78002,S,05539.73564,E,121206.00,A,A*64
$GNGRS,121206.00,1,-3.6,-4.2,5.3,-3.1,-3.3,4.7,14.3,18.3,-16.5,,,*6F
$GNGRS,121206.00,1,1.8,9.7,10.4,7.1,-5.7,8.4,,,,,,*41
$GNGST,121206.00,4344207,,,,6.5,5.8,16*5A
$GNZDA,121206.00,22,05,2025,00,00*7E
$GNGBS,121206.00,6.5,5.8,16.4,,,,*64
$GNTXT,01,01,01,More than 100 frame errors, UART RX was disabled*70
b0@(7?p
a P&})8N/.  !=e{'4!Ta:R 
Yj
A?B#12wCLMVW1^X
#b(7$GNRMC,121207.00,A,0419.78005,S,05539.73558,E,0.308,,220525,,,A*7D
$GNVTG,,T,,M,0.308,N,0.570,K,A*34
$GNGNS,121207.00,0419.78005,S,05539.73558,E,AA,14,0.69,19.0,-47.6,,*68
$GNGGA,121207.00,0419.78005,S,05539.73558,E,1,12,0.69,19.0,M,-47.6,M,,*44
$GNGSA,A,3,32,28,27,18,26,31,16,29,,,,,1.75,0.69,1.61*1B
$GNGSA,A,3,66,87,65,88,67,86,,,,,,,1.75,0.69,1.61*15
$GPGSV,5,1,17,08,06,319,08,10,17,000,,16,25,244,09,18,32,080,15*7E
$GPGSV,5,2,17,23,03,038,07,25,01,125,,26,29,214,22,27,41,312,27*7B
$GPGSV,5,3,17,28,47,154,24,29,16,147,12,31,32,188,21,32,61,357,33*7D
$GPGSV,5,4,17,36,52,277,39,40,84,353,33,41,58,082,,49,32,274,*76
$GPGSV,5,5,17,50,10,089,*4A
$GLGSV,2,1,08,65,21,000,14,66,49,306,35,67,27,237,19,76,13,144,*6D
$GLGSV,2,2,08,77,15,190,,86,17,134,15,87,49,094,17,88,35,005,10*60
$GNGLL,0419.78005,S,05539.73558,E,121207.00,A,A*6D
$GNGRS,121207.00,1,-2.4,-2.1,8.5,-3.4,-5.1,4.5,13.8,16.7,,,,*57
$GNGRS,121207.00,1,1.2,7.7,10.9,7.5,-5.7,9.7,,,,,,*4F
$GNGST,121207.00,4497280,,,,6.5,5.9,17*5D
$GNZDA,121207.00,22,05,2025,00,00*7F
$GNGBS,121207.00,6.5,5.9,16.6,,,,*66
$GNTXT,01,01,01,More than 100 frame errors, UART RX was disabled*70
b0@8?V
!Q!&5}3)8p/ Y =e{&4 Ta:R 
Yj
AB#12PCXLMVW1^LX#jb8f5$GNRMC,121208.00,A,0419.77999,S,05539.73571,E,0.326,,220525,,,A*76
$GNVTG,,T,,M,0.326,N,0.603,K,A*3F
$GNGNS,121208.00,0419.77999,S,05539.73571,E,AA,14,0.69,17.4,-47.6,,*65
$GNGGA,121208.00,0419.77999,S,05539.73571,E,1,12,0.69,17.4,M,-47.6,M,,*49
$GNGSA,A,3,32,28,27,18,26,31,16,29,,,,,1.75,0.69,1.61*1B
$GNGSA,A,3,66,87,65,88,67,86,,,,,,,1.75,0.69,1.61*15
$GPGSV,5,1,17,08,06,319,08,10,17,000,,16,25,244,15,18,33,081,16*70
$GPGSV,5,2,17,23,03,038,07,25,01,125,,26,29,214,24,27,41,312,26*7C
$GPGSV,5,3,17,28,47,154,26,29,16,147,17,31,32,188,22,32,61,357,29*72
$GPGSV,5,4,17,36,52,277,38,40,84,353,32,41,58,082,,49,32,274,*76
$GPGSV,5,5,17,50,10,089,*4A
$GLGSV,2,1,08,65,21,000,13,66,49,306,35,67,27,237,21,76,13,144,*61
$GLGSV,2,2,08,77,15,190,,86,17,134,15,87,49,094,21,88,35,005,13*66
$GNGLL,0419.77999,S,05539.73571,E,121208.00,A,A*6A
$GNGRS,121208.00,1,-5.0,-0.3,13.9,-4.8,-4.6,3.5,-4.8,14.1,,,,*78
$GNGRS,121208.00,1,5.9,5.9,7.5,15.3,-4.2,11.8,,,,,,*7E
$GNGST,121208.00,61,,,,6.4,5.9,17*60
$GNZDA,121208.00,22,05,2025,00,00*70
$GNGBS,121208.00,6.4,5.9,16.7,,,,*69
$GNTXT,01,01,01,More than 100 frame errors, UART RX was disabled*70
b0@8?
!Q&})8$/  =e]{'4!Ta:R 
Yj'
AB$12CLMVW1^X#=ub8=$GNRMC,121209.00,A,0419.78008,S,05539.73561,E,0.231,,220525,,,A*7F
$GNVTG,,T,,M,0.231,N,0.428,K,A*33
$GNGNS,121209.00,0419.78008,S,05539.73561,E,AA,14,0.69,17.7,-47.6,,*68
$GNGGA,121209.00,0419.78008,S,05539.73561,E,1,12,0.69,17.7,M,-47.6,M,,*44
$GNGSA,A,3,32,28,27,18,26,31,16,29,,,,,1.75,0.69,1.61*1B
$GNGSA,A,3,66,87,65,88,67,86,,,,,,,1.75,0.69,1.61*15
$GPGSV,5,1,17,08,06,319,08,10,17,000,,16,25,244,16,18,33,081,16*73
$GPGSV,5,2,17,23,03,038,09,25,01,125,,26,29,214,25,27,41,312,28*7D
$GPGSV,5,3,17,28,47,154,27,29,16,147,21,31,32,188,21,32,61,357,31*7C
$GPGSV,5,4,17,36,52,277,39,40,84,353,33,41,58,082,,49,32,274,*76
$GPGSV,5,5,17,50,10,089,*4A
$GLGSV,2,1,08,65,21,000,13,66,49,306,36,67,27,237,23,76,13,144,*60
$GLGSV,2,2,08,77,15,190,,86,17,134,14,87,49,094,24,88,35,005,21*63
$GNGLL,0419.78008,S,05539.73561,E,121209.00,A,A*64
$GNGRS,121209.00,1,-1.6,-0.3,5.5,-7.4,-2.3,4.1,15.0,10.0,,,,*5F
$GNGRS,121209.00,1,4.0,5.1,9.1,5.7,-3.5,12.2,,,,,,*49
$GNGST,121209.00,214610,,,,6.4,5.8,17*67
$GNZDA,121209.00,22,05,2025,00,00*71
$GNGBS,121209.00,6.4,5.8,16.9,,,,*67
$GNTXT,01,01,01,More than 100 frame errors, UART RX was disabled*70
b0@8?T
!Q
&v})8/  =e"{'4!Ta:R 
Yj4
ABB$12C~LMVW1^X#b8$GNRMC,121210.00,A,0419.78006,S,05539.73560,E,0.087,,220525,,,A*77
$GNVTG,,T,,M,0.087,N,0.161,K,A*34
$GNGNS,121210.00,0419.78006,S,05539.73560,E,AA,14,0.69,17.1,-47.6,,*69
$GNGGA,121210.00,0419.78006,S,05539.73560,E,1,12,0.69,17.1,M,-47.6,M,,*45
$GNGSA,A,3,32,28,27,18,26,31,16,29,,,,,1.75,0.69,1.61*1B
$GNGSA,A,3,66,87,65,88,67,86,,,,,,,1.75,0.69,1.61*15
$GPGSV,5,1,17,08,06,319,08,10,17,000,20,16,25,244,17,18,33,081,14*72
$GPGSV,5,2,17,23,03,038,10,25,01,125,,26,29,214,26,27,41,312,28*76
$GPGSV,5,3,17,28,47,154,27,29,16,147,21,31,32,188,21,32,61,357,31*7C
$GPGSV,5,4,17,36,52,277,39,40,84,353,33,41,58,082,,49,32,274,*76
$GPGSV,5,5,17,50,10,089,*4A
$GLGSV,2,1,08,65,21,000,15,66,49,306,36,67,27,237,23,76,13,144,*66
$GLGSV,2,2,08,77,15,190,,86,17,134,11,87,49,094,25,88,35,005,11*64
$GNGLL,0419.78006,S,05539.73560,E,121210.00,A,A*63
$GNGRS,121210.00,1,-4.8,1.4,7.7,-5.9,-2.5,7.0,14.9,7.5,,,,*47
$GNGRS,121210.00,1,4.5,1.9,8.3,5.0,-6.4,15.1,,,,,,*4C
$GNGST,121210.00,3182488,,,,6.3,5.8,17*54
$GNZDA,121210.00,22,05,2025,00,00*79
$GNGBS,121210.00,6.3,5.8,17.0,,,,*60
$GNTXT,01,01,01,More than 100 frame errors, UART RX was disabled*70
b0@8?
!Q&N})8/zf `  =e{'4"Ta:R 
Yjz
AB$12"CyLMVW1^!X
#b8^$GNRMC,121211.00,A,0419.78018,S,05539.73555,E,0.062,,220525,,,A*74
$GNVTG,,T,,M,0.062,N,0.115,K,A*3C
$GNGNS,121211.00,0419.78018,S,05539.73555,E,AA,14,0.69,17.3,-47.6,,*63
$GNGGA,121211.00,0419.78018,S,05539.73555,E,1,12,0.69,17.3,M,-47.6,M,,*4F
$GNGSA,A,3,32,28,27,18,26,31,29,08,,,,,1.44,0.69,1.27*14
$GNGSA,A,3,66,87,65,88,67,86,,,,,,,1.44,0.69,1.27*15
$GPGSV,5,1,17,08,06,319,11,10,17,000,20,16,25,244,05,18,33,081,12*7F
$GPGSV,5,2,17,23,03,038,09,25,01,125,,26,29,214,25,27,41,312,28*7D
$GPGSV,5,3,17,28,47,154,27,29,16,147,20,31,32,188,23,32,61,357,32*7C
$GPGSV,5,4,17,36,52,277,39,40,84,353,34,41,58,082,,49,32,274,*71
$GPGSV,5,5,17,50,10,089,*4A
$GLGSV,2,1,08,65,21,000,14,66,49,306,36,67,27,237,24,76,13,144,*60
$GLGSV,2,2,08,77,15,190,,86,17,134,12,87,49,094,26,88,35,005,10*65
$GNGLL,0419.78018,S,05539.73555,E,121211.00,A,A*6B
$GNGRS,121211.00,1,-7.7,6.3,9.7,-6.1,-2.4,6.1,6.1,-47.4,,,,*6D
$GNGRS,121211.00,1,2.9,-2.2,1.4,0.2,-6.5,16.8,,,,,,*60
$GNGST,121211.00,65,,,,6.2,5.8,17*6B
$GNZDA,121211.00,22,05,2025,00,00*78
$GNGBS,121211.00,6.2,5.8,17.0,,,,*60
$GNTXT,01,01,01,More than 100 frame errors, UART RX was disabled*70
b0@8?
!Q!
&}J)8/u   =e{'4"Ta:R 
Yj
A~B%12QCGLMV.W1^X
#N4b8$GNRMC,121212.00,A,0419.78021,S,05539.73553,E,0.074,,220525,,,A*7C
$GNVTG,,T,,M,0.074,N,0.136,K,A*3A
$GNGNS,121212.00,0419.78021,S,05539.73553,E,AA,13,0.71,16.8,-47.6,,*68
$GNGGA,121212.00,0419.78021,S,05539.73553,E,1,12,0.71,16.8,M,-47.6,M,,*43
$GNGSA,A,3,32,28,27,18,26,31,29,,,,,,1.68,0.71,1.52*19
$GNGSA,A,3,66,87,65,88,67,86,,,,,,,1.68,0.71,1.52*10
$GPGSV,5,1,17,08,06,319,,10,17,000,18,16,25,244,07,18,33,081,15*71
$GPGSV,5,2,17,23,03,038,10,25,01,125,,26,29,214,25,27,41,312,27*7A
$GPGSV,5,3,17,28,47,154,26,29,16,147,19,31,32,188,25,32,61,357,32*71
$GPGSV,5,4,17,36,52,277,39,40,84,353,34,41,58,082,,49,32,274,*71
$GPGSV,5,5,17,50,10,089,*4A
$GLGSV,2,1,08,65,21,000,09,66,49,306,37,67,27,237,24,76,13,144,*6D
$GLGSV,2,2,08,77,15,190,,86,17,134,14,87,49,094,25,88,35,005,10*60
$GNGLL,0419.78021,S,05539.73553,E,121212.00,A,A*64
$GNGRS,121212.00,1,-6.2,7.1,7.4,-4.8,-4.4,7.1,6.3,,,,,*5E
$GNGRS,121212.00,1,3.4,-2.6,8.9,5.9,-7.0,18.4,,,,,,*67
$GNGST,121212.00,86295,,,,6.2,5.7,17*54
$GNZDA,121212.00,22,05,2025,00,00*7B
$GNGBS,121212.00,6.2,5.7,17.1,,,,*6D
$GNTXT,01,01,01,More than 100 frame errors, UART RX was disabled*70
b0@8?

u!Q&}>)8/  =e{'4!Ta:R 
Yj
A
tB#12C5LMVW1^X#QGb8{.$GNRMC,121213.00,A,0419.78026,S,05539.73550,E,0.113,,220525,,,A*79
$GNVTG,,T,,M,0.113,N,0.208,K,A*34
$GNGNS,121213.00,0419.78026,S,05539.73550,E,AA,13,0.71,16.7,-47.6,,*62
$GNGGA,121213.00,0419.78026,S,05539.73550,E,1,12,0.71,16.7,M,-47.6,M,,*49
$GNGSA,A,3,32,28,27,18,26,31,29,,,,,,1.68,0.71,1.52*19
$GNGSA,A,3,66,87,65,88,67,86,,,,,,,1.68,0.71,1.52*10
$GPGSV,5,1,17,08,06,319,,10,17,000,17,16,25,244,08,18,33,081,18*7C
$GPGSV,5,2,17,23,03,038,11,25,01,125,,26,29,214,25,27,41,312,26*7A
$GPGSV,5,3,17,28,47,154,26,29,16,147,17,31,32,188,23,32,61,357,31*7A
$GPGSV,5,4,17,36,52,277,39,40,84,353,33,41,58,082,,49,32,274,*76
$GPGSV,5,5,17,50,10,089,*4A
$GLGSV,2,1,08,65,21,000,10,66,49,306,35,67,27,237,23,76,13,144,*60
$GLGSV,2,2,08,77,15,190,,86,17,134,15,87,49,094,25,88,35,005,13*62
$GNGLL,0419.78026,S,05539.73550,E,121213.00,A,A*61
$GNGRS,121213.00,1,-2.4,6.8,12.3,-2.6,-4.5,7.4,7.8,,,,,*60
$GNGRS,121213.00,1,2.8,-2.6,8.8,5.9,-9.7,19.8,,,,,,*6E
$GNGST,121213.00,128076,,,,6.1,5.7,17*6C
$GNZDA,121213.00,22,05,2025,00,00*7A
$GNGBS,121213.00,6.1,5.7,17.1,,,,*6F
$GNTXT,01,01,01,More than 100 frame errors, UART RX was disabled*70
b0@8?
!QD
&>})8J/f  =e{'4"Ta:R 
Yjw
AB#12&CLMVAW1^X#b8cv$GNRMC,121214.00,A,0419.78031,S,05539.73543,E,0.075,,220525,,,A*7B
$GNVTG,,T,,M,0.075,N,0.138,K,A*35
$GNGNS,121214.00,0419.78031,S,05539.73543,E,AA,14,0.66,16.4,-47.6,,*63
$GNGGA,121214.00,0419.78031,S,05539.73543,E,1,12,0.66,16.4,M,-47.6,M,,*4F
$GNGSA,A,3,32,28,27,18,26,31,16,29,,,,,1.62,0.66,1.48*19
$GNGSA,A,3,66,87,65,88,67,86,,,,,,,1.62,0.66,1.48*17
$GPGSV,5,1,17,08,06,319,,10,17,000,,16,25,244,11,18,33,081,20*79
$GPGSV,5,2,17,23,03,038,10,25,01,125,,26,29,214,26,27,41,312,26*78
$GPGSV,5,3,17,28,47,154,28,29,16,147,19,31,32,188,20,32,61,357,31*79
$GPGSV,5,4,17,36,52,277,39,40,84,353,34,41,58,082,,49,32,274,*71
$GPGSV,5,5,17,50,10,089,*4A
$GLGSV,2,1,08,65,21,000,08,66,49,306,35,67,27,237,23,76,13,144,*69
$GLGSV,2,2,08,77,15,190,,86,17,134,15,87,49,094,26,88,35,005,11*63
$GNGLL,0419.78031,S,05539.73543,E,121214.00,A,A*62
$GNGRS,121214.00,1,-6.3,6.1,13.5,-1.9,-6.1,6.7,17.3,7.9,,,,*78
$GNGRS,121214.00,1,2.9,-3.4,-67.1,0.2,-11.1,16.0,,,,,,*40
$GNGST,121214.00,68,,,,6.1,5.6,17*6E
$GNZDA,121214.00,22,05,2025,00,00*7D
$GNGBS,121214.00,6.1,5.6,17.1,,,,*69
$GNTXT,01,01,01,More than 100 frame errors, UART RX was disabled*70
b0@h8?
!Q}&} )8Q/+Q   =e{'4!Ta:R 
Yj
AB#12 CnLMVW1^X
#Kbh8KN$GNRMC,121215.00,A,0419.78028,S,05539.73542,E,0.041,,220525,,,A*74
$GNVTG,,T,,M,0.041,N,0.075,K,A*3A
$GNGNS,121215.00,0419.78028,S,05539.73542,E,AA,14,0.66,16.1,-47.6,,*6E
$GNGGA,121215.00,0419.78028,S,05539.73542,E,1,12,0.66,16.1,M,-47.6,M,,*42
$GNGSA,A,3,32,28,27,18,26,31,16,29,,,,,1.62,0.66,1.48*19
$GNGSA,A,3,66,87,65,88,67,86,,,,,,,1.62,0.66,1.48*17
$GPGSV,5,1,17,08,06,319,,10,17,000,,16,25,244,11,18,33,081,21*78
$GPGSV,5,2,17,23,03,038,07,25,01,125,,26,29,213,26,27,41,312,27*78
$GPGSV,5,3,17,28,47,154,27,29,16,147,21,31,32,188,18,32,61,357,32*75
$GPGSV,5,4,17,36,52,277,39,40,84,353,33,41,58,082,,49,32,274,*76
$GPGSV,5,5,17,50,10,089,*4A
$GLGSV,2,1,08,65,21,000,07,66,49,306,35,67,27,237,23,76,13,144,*66
$GLGSV,2,2,08,77,15,190,,86,17,134,15,87,49,094,26,88,35,005,10*62
$GNGLL,0419.78028,S,05539.73542,E,121215.00,A,A*6A
$GNGRS,121215.00,1,-5.2,5.6,8.5,-3.9,-7.4,4.5,15.2,5.9,,,,*42
$GNGRS,121215.00,1,2.9,-4.9,9.0,5.9,-14.3,15.3,,,,,,*56
$GNGST,121215.00,67906,,,,6.0,5.5,17*5D
$GNZDA,121215.00,22,05,2025,00,00*7C
$GNGBS,121215.00,6.0,5.5,17.0,,,,*6B
$GNTXT,01,01,01,More than 100 frame errors, UART RX was disabled*70
b0@P8?
j!Q&S}~)8/N Z =e{&4!Ta:R 
Yj
A6B#12CTLMVW1^X#;bP83&h$GNRMC,121216.00,A,0419.78016,S,05539.73549,E,0.023,,220525,,,A*75
$GNVTG,,T,,M,0.023,N,0.042,K,A*3A
$GNGNS,121216.00,0419.78016,S,05539.73549,E,AA,13,0.76,15.2,-47.6,,*6D
$GNGGA,121216.00,0419.78016,S,05539.73549,E,1,12,0.76,15.2,M,-47.6,M,,*46
$GNGSA,A,3,32,28,27,18,26,31,16,29,,,,,1.86,0.76,1.70*19
$GNGSA,A,3,66,87,88,67,86,,,,,,,,1.86,0.76,1.70*14
$GPGSV,5,1,17,08,06,319,,10,17,000,,16,25,244,14,18,33,081,21*7D
$GPGSV,5,2,17,23,03,038,08,25,01,125,,26,29,213,27,27,41,312,28*79
$GPGSV,5,3,17,28,47,154,28,29,16,147,21,31,32,188,21,32,61,357,30*72
$GPGSV,5,4,17,36,52,277,38,40,84,353,33,41,58,082,,49,32,274,*77
$GPGSV,5,5,17,50,10,089,*4A
$GLGSV,2,1,08,65,21,000,06,66,49,306,35,67,27,237,22,76,13,144,*66
$GLGSV,2,2,08,77,15,190,,86,17,134,16,87,49,094,27,88,35,005,14*64
$GNGLL,0419.78016,S,05539.73549,E,121216.00,A,A*6F
$GNGRS,121216.00,1,-0.6,5.9,10.3,-2.9,-6.4,0.9,13.9,5.3,,,,*7F
$GNGRS,121216.00,1,2.8,-5.5,5.3,-14.5,14.9,,,,,,,*79
$GNGST,121216.00,96148,,,,6.0,5.4,17*53
$GNZDA,121216.00,22,05,2025,00,00*7F
$GNGBS,121216.00,6.0,5.4,17.0,,,,*69
$GNTXT,01,01,01,More than 100 frame errors, UART RX was disabled*70
b0@8#8?
!Q}&})8/E< { =e{&4"Ta:R 
Y
j
A
B#12CLMVW1^X#Eb8#8$GNRMC,121217.00,A,0419.78008,S,05539.73547,E,0.168,,220525,,,A*7B
$GNVTG,,T,,M,0.168,N,0.311,K,A*31
$GNGNS,121217.00,0419.78008,S,05539.73547,E,AA,14,0.70,14.7,-47.6,,*68
$GNGGA,121217.00,0419.78008,S,05539.73547,E,1,12,0.70,14.7,M,-47.6,M,,*44
$GNGSA,A,3,32,28,27,18,26,31,16,29,,,,,1.64,0.70,1.48*18
$GNGSA,A,3,66,87,65,88,67,86,,,,,,,1.64,0.70,1.48*16
$GPGSV,5,1,17,08,06,319,,10,17,000,,16,25,244,15,18,33,081,22*7F
$GPGSV,5,2,17,23,03,038,11,25,01,125,,26,29,213,26,27,41,312,28*70
$GPGSV,5,3,17,28,47,154,28,29,16,147,20,31,32,188,23,32,61,357,29*79
$GPGSV,5,4,17,36,52,277,38,40,84,353,34,41,58,082,,49,32,274,*70
$GPGSV,5,5,17,50,10,089,*4A
$GLGSV,2,1,08,65,21,000,10,66,49,306,35,67,27,237,22,76,13,144,*61
$GLGSV,2,2,08,77,15,190,,86,17,134,15,87,49,094,26,88,35,005,09*6A
$GNGLL,0419.78008,S,05539.73547,E,121217.00,A,A*6F
$GNGRS,121217.00,1,-1.0,3.2,9.1,-3.9,-7.4,-1.3,12.7,5.7,,,,*63
$GNGRS,121217.00,1,2.7,-6.3,4.7,-31.6,-13.6,14.5,,,,,,*48
$GNGST,121217.00,57,,,,5.9,5.3,17*6F
$GNZDA,121217.00,22,05,2025,00,00*7E
$GNGBS,121217.00,5.9,5.3,16.9,,,,*6D
$GNTXT,01,01,01,More than 100 frame errors, UART RX was disabled*70
b0@ '8?
!Qj&})8/J F =e{&4"Ta:R 
Yj
A}B$12CLMVW1^:X
#Db '88$GNRMC,121218.00,A,0419.78002,S,05539.73541,E,0.031,,220525,,,A*75
$GNVTG,,T,,M,0.031,N,0.058,K,A*32
$GNGNS,121218.00,0419.78002,S,05539.73541,E,AA,14,0.66,14.3,-47.6,,*68
$GNGGA,121218.00,0419.78002,S,05539.73541,E,1,12,0.66,14.3,M,-47.6,M,,*44
$GNGSA,A,3,32,28,27,18,26,31,16,29,,,,,1.62,0.66,1.48*19
$GNGSA,A,3,66,87,65,88,67,86,,,,,,,1.62,0.66,1.48*17
$GPGSV,5,1,17,08,06,319,,10,17,000,,16,25,244,13,18,33,081,21*7A
$GPGSV,5,2,17,23,03,038,08,25,01,125,,26,29,213,26,27,41,312,28*78
$GPGSV,5,3,17,28,47,154,27,29,15,147,20,31,32,188,21,32,61,357,30*7F
$GPGSV,5,4,17,36,52,277,38,40,84,353,34,41,58,082,,49,32,274,*70
$GPGSV,5,5,17,50,10,089,*4A
$GLGSV,2,1,08,65,21,000,09,66,49,306,36,67,27,237,22,76,13,144,*6A
$GLGSV,2,2,08,77,15,190,,86,17,134,14,87,49,094,27,88,35,005,10*62
$GNGLL,0419.78002,S,05539.73541,E,121218.00,A,A*6C
$GNGRS,121218.00,1,-8.4,3.3,9.2,-1.5,-7.4,-1.9,13.1,4.0,,,,*66
$GNGRS,121218.00,1,2.5,-7.1,8.9,5.8,-13.3,14.8,,,,,,*58
$GNGST,121218.00,3071629,,,,5.8,5.2,17*5A
$GNZDA,121218.00,22,05,2025,00,00*71
$GNGBS,121218.00,5.8,5.2,16.9,,,,*62
$GNTXT,01,01,01,More than 100 frame errors, UART RX was disabled*70
b0@+8?
!Q=
&})8X/ o =eL{%4"Ta:R 
Yj
AOB$12CPLMVW1^X# b+8$GNRMC,121219.00,A,0419.77994,S,05539.73536,E,0.049,,220525,,,A*72
$GNVTG,,T,,M,0.049,N,0.091,K,A*38
$GNGNS,121219.00,0419.77994,S,05539.73536,E,AA,14,0.66,13.8,-47.6,,*6C
$GNGGA,121219.00,0419.77994,S,05539.73536,E,1,12,0.66,13.8,M,-47.6,M,,*40
$GNGSA,A,3,32,28,27,18,26,31,16,29,,,,,1.62,0.66,1.48*19
$GNGSA,A,3,66,87,65,88,67,86,,,,,,,1.62,0.66,1.48*17
$GPGSV,5,1,17,08,06,319,,10,17,000,16,16,25,244,12,18,33,081,20*7D
$GPGSV,5,2,17,23,03,038,10,25,01,125,,26,29,213,25,27,41,312,30*7B
$GPGSV,5,3,17,28,47,154,26,29,15,147,21,31,32,188,19,32,61,357,30*74
$GPGSV,5,4,17,36,52,277,37,40,84,353,34,41,58,082,,49,32,274,*7F
$GPGSV,5,5,17,50,10,089,*4A
$GLGSV,2,1,08,65,21,000,11,66,49,306,36,67,27,237,23,76,13,144,*62
$GLGSV,2,2,08,77,15,190,,86,17,134,13,87,49,094,27,88,35,005,11*64
$GNGLL,0419.77994,S,05539.73536,E,121219.00,A,A*64
$GNGRS,121219.00,1,-6.9,4.1,6.0,-4.5,-7.6,-1.4,11.7,2.5,,,,*61
$GNGRS,121219.00,1,2.4,-7.6,8.5,5.4,-12.0,15.1,,,,,,*55
$GNGST,121219.00,3071825,,,,5.8,5.2,17*59
$GNZDA,121219.00,22,05,2025,00,00*70
$GNGBS,121219.00,5.8,5.2,16.9,,,,*63
$GNTXT,01,01,01,More than 100 frame errors, UART RX was disabled*70
b0@.8?
z!Q
&}=)8!/[1  =e{%4#Ta:R 
Yja
AB$12CnLMVW1^SX#-;b.8$GNRMC,121220.00,A,0419.77979,S,05539.73540,E,0.132,,220525,,,A*77
$GNVTG,,T,,M,0.132,N,0.245,K,A*3E
$GNGNS,121220.00,0419.77979,S,05539.73540,E,AA,14,0.66,12.8,-47.6,,*65
$GNGGA,121220.00,0419.77979,S,05539.73540,E,1,12,0.66,12.8,M,-47.6,M,,*49
$GNGSA,A,3,32,28,27,18,26,31,16,29,,,,,1.62,0.66,1.48*19
$GNGSA,A,3,66,87,65,88,67,86,,,,,,,1.62,0.66,1.48*17
$GPGSV,5,1,17,08,06,319,,10,17,000,15,16,25,244,11,18,33,081,21*7C
$GPGSV,5,2,17,23,03,038,10,25,01,125,,26,29,213,25,27,41,312,31*7A
$GPGSV,5,3,17,28,47,154,26,29,15,147,21,31,32,188,17,32,61,357,30*7A
$GPGSV,5,4,17,36,52,277,37,40,84,353,35,41,58,082,,49,32,274,*7E
$GPGSV,5,5,17,50,10,089,*4A
$GLGSV,2,1,08,65,21,000,08,66,49,306,36,67,27,237,23,76,13,144,*6A
$GLGSV,2,2,08,77,15,190,,86,17,134,14,87,49,094,28,88,35,005,08*64
$GNGLL,0419.77979,S,05539.73540,E,121220.00,A,A*6C
$GNGRS,121220.00,1,-7.9,3.5,2.9,-5.2,-7.1,2.4,12.1,3.1,,,,*4B
$GNGRS,121220.00,1,2.0,-6.9,-2.7,151,-14.3,12.9,,,,,,*60
$GNGST,121220.00,77,,,,5.7,5.1,17*65
$GNZDA,121220.00,22,05,2025,00,00*7A
$GNGBS,121220.00,5.7,5.1,16.8,,,,*64
$GNTXT,01,01,01,More than 100 frame errors, UART RX was disabled*70
b0@28?
!Qz
&}#)8+/O  =er{'4"Ta:R 
Y
j(
AB$12CuLMVzW1^rX#P@b28[Z$GNRMC,121221.00,A,0419.77976,S,05539.73533,E,0.058,,220525,,,A*70
$GNVTG,,T,,M,0.058,N,0.107,K,A*36
$GNGNS,121221.00,0419.77976,S,05539.73533,E,AA,13,0.71,12.7,-47.6,,*61
$GNGGA,121221.00,0419.77976,S,05539.73533,E,1,12,0.71,12.7,M,-47.6,M,,*4A
$GNGSA,A,3,32,28,27,18,26,31,29,,,,,,1.67,0.71,1.52*16
$GNGSA,A,3,66,87,65,88,67,86,,,,,,,1.67,0.71,1.52*1F
$GPGSV,5,1,17,08,06,319,,10,17,000,,16,25,244,09,18,33,081,18*7B
$GPGSV,5,2,17,23,03,038,10,25,01,125,,26,29,213,25,27,41,312,35*7E
$GPGSV,5,3,17,28,47,154,25,29,15,147,20,31,32,188,16,32,61,357,29*71
$GPGSV,5,4,17,36,52,277,39,40,84,353,34,41,58,082,,49,32,274,*71
$GPGSV,5,5,17,50,10,089,*4A
$GLGSV,2,1,08,65,21,000,11,66,49,306,36,67,27,237,23,76,13,144,*62
$GLGSV,2,2,08,77,15,190,,86,17,134,15,87,49,094,28,88,35,005,09*64
$GNGLL,0419.77976,S,05539.73533,E,121221.00,A,A*66
$GNGRS,121221.00,1,-11.7,5.9,3.0,-3.9,-6.3,2.1,2.6,,,,,*60
$GNGRS,121221.00,1,2.0,-6.5,9.1,5.9,-14.2,14.0,,,,,,*54
$GNGST,121221.00,109014,,,,5.7,5.0,17*68
$GNZDA,121221.00,22,05,2025,00,00*7B
$GNGBS,121221.00,5.7,5.0,16.7,,,,*6B
$GNTXT,01,01,01,More than 100 frame errors, UART RX was disabled*70
b0@68?
!Qa&}")8/S  =eO{'4!Ta:R 
Yj
AB%12CLMVW1^1X#CCb68 3$GNRMC,121222.00,A,0419.77973,S,05539.73529,E,0.029,,220525,,,A*7B
$GNVTG,,T,,M,0.029,N,0.054,K,A*37
$GNGNS,121222.00,0419.77973,S,05539.73529,E,AA,13,0.73,12.4,-47.6,,*6D
$GNGGA,121222.00,0419.77973,S,05539.73529,E,1,12,0.73,12.4,M,-47.6,M,,*46
$GNGSA,A,3,32,28,27,18,26,31,29,,,,,,1.80,0.73,1.64*18
$GNGSA,A,3,66,87,65,88,67,86,,,,,,,1.80,0.73,1.64*11
$GPGSV,5,1,17,08,06,319,,10,17,000,,16,25,244,07,18,33,081,16*7B
$GPGSV,5,2,17,23,03,038,09,25,01,125,,26,29,213,25,27,41,312,34*77
$GPGSV,5,3,17,28,47,154,24,29,15,147,20,31,32,188,16,32,61,357,31*79
$GPGSV,5,4,17,36,52,277,39,40,84,353,33,41,58,082,,49,32,274,*76
$GPGSV,5,5,17,50,10,089,*4A
$GLGSV,2,1,08,65,21,000,09,66,49,306,37,67,27,237,23,76,13,144,*6A
$GLGSV,2,2,08,77,15,190,,86,17,134,15,87,49,094,26,88,35,005,11*63
$GNGLL,0419.77973,S,05539.73529,E,121222.00,A,A*6B
$GNGRS,121222.00,1,-9.4,6.0,-0.5,-4.2,-5.9,0.3,1.9,,,,,*71
$GNGRS,121222.00,1,1.8,-7.2,9.0,5.8,-13.6,15.4,,,,,,*5C
$GNGST,121222.00,173019,,,,5.7,5.0,17*6B
$GNZDA,121222.00,22,05,2025,00,00*78
$GNGBS,121222.00,5.7,5.0,16.8,,,,*67
$GNTXT,01,01,01,More than 100 frame errors, UART RX was disabled*70
b0@:8?
!Q&`-}")8O/  =e{'4"Ta:R 
Yj%
AB%12CLMVW1^X#1Cb:8$*$GNRMC,121223.00,A,0419.77990,S,05539.73511,E,0.753,,220525,,,A*76
$GNVTG,,T,,M,0.753,N,1.395,K,A*32
$GNGNS,121223.00,0419.77990,S,05539.73511,E,AA,14,0.66,13.0,-47.6,,*6C
$GNGGA,121223.00,0419.77990,S,05539.73511,E,1,12,0.66,13.0,M,-47.6,M,,*40
$GNGSA,A,3,32,28,27,18,26,31,16,29,,,,,1.62,0.66,1.48*19
$GNGSA,A,3,66,87,65,88,67,86,,,,,,,1.62,0.66,1.48*17
$GPGSV,5,1,17,08,06,319,,10,17,000,,16,25,244,09,18,33,081,11*72
$GPGSV,5,2,17,23,03,038,11,25,01,125,,26,29,213,24,27,41,312,34*7F
$GPGSV,5,3,17,28,47,154,23,29,15,147,19,31,32,188,15,32,61,357,29*7E
$GPGSV,5,4,17,36,52,277,39,40,84,353,34,41,58,082,,49,32,274,*71
$GPGSV,5,5,17,50,10,089,*4A
$GLGSV,2,1,08,65,21,000,16,66,49,306,37,67,27,237,22,76,13,144,*65
$GLGSV,2,2,08,77,15,190,,86,17,134,13,87,49,094,27,88,35,005,14*61
$GNGLL,0419.77990,S,05539.73511,E,121223.00,A,A*6C
$GNGRS,121223.00,1,-10.8,4.8,-1.8,-5.3,-5.4,-0.1,-136,0.3,,,,*72
$GNGRS,121223.00,1,1.5,-8.8,5.4,5.6,-14.1,15.2,,,,,,*55
$GNGST,121223.00,86,,,,5.7,5.0,17*69
$GNZDA,121223.00,22,05,2025,00,00*79
$GNGBS,121223.00,5.7,5.0,16.8,,,,*66
$GNTXT,01,01,01,More than 100 frame errors, UART RX was disabled*70
b0@>8?

!Qn&}")8/F  =e;{&4"Ta:R 
Yj
AB%12}CLMVW1^X#Hb>8r($GNRMC,121224.00,A,0419.77996,S,05539.73505,E,0.440,,220525,,,A*73
$GNVTG,,T,,M,0.440,N,0.814,K,A*30
$GNGNS,121224.00,0419.77996,S,05539.73505,E,AA,14,0.69,12.6,-47.6,,*60
$GNGGA,121224.00,0419.77996,S,05539.73505,E,1,12,0.69,12.6,M,-47.6,M,,*4C
$GNGSA,A,3,32,28,27,18,26,31,16,29,,,,,1.75,0.69,1.61*1B
$GNGSA,A,3,66,87,65,88,67,86,,,,,,,1.75,0.69,1.61*15
$GPGSV,5,1,17,08,06,319,,10,17,000,,16,25,244,14,18,33,081,10*7F
$GPGSV,5,2,17,23,03,038,08,25,01,125,,26,29,213,23,27,41,312,34*70
$GPGSV,5,3,17,28,47,154,23,29,15,147,19,31,32,188,11,32,61,357,21*72
$GPGSV,5,4,17,36,52,277,38,40,84,353,34,41,58,082,,49,32,274,*70
$GPGSV,5,5,17,50,10,089,*4A
$GLGSV,2,1,08,65,21,000,17,66,49,306,37,67,27,237,22,76,13,144,*64
$GLGSV,2,2,08,77,15,190,,86,17,134,13,87,49,094,26,88,35,005,14*60
$GNGLL,0419.77996,S,05539.73505,E,121224.00,A,A*68
$GNGRS,121224.00,1,-7.1,5.1,-0.8,-6.6,-2.7,2.2,15.4,0.7,,,,*6E
$GNGRS,121224.00,1,1.3,-11.1,9.0,5.8,-12.7,15.6,,,,,,*67
$GNGST,121224.00,420382,,,,5.8,5.0,17*60
$GNZDA,121224.00,22,05,2025,00,00*7E
$GNGBS,121224.00,5.8,5.0,17.0,,,,*67
$GNTXT,01,01,01,More than 100 frame errors, UART RX was disabled*70
b0@xB8?
.!Q&&}")8/e

  =e{&4"Ta:R 
Yj
AlB'12NCULMVW1^X#eIZbxB8Z,$GNRMC,121225.00,A,0419.78008,S,05539.73497,E,0.456,,220525,,,A*7E
$GNVTG,,T,,M,0.456,N,0.844,K,A*32
$GNGNS,121225.00,0419.78008,S,05539.73497,E,AA,14,0.69,12.6,-47.6,,*6A
$GNGGA,121225.00,0419.78008,S,05539.73497,E,1,12,0.69,12.6,M,-47.6,M,,*46
$GNGSA,A,3,32,28,27,18,26,31,16,29,,,,,1.75,0.69,1.61*1B
$GNGSA,A,3,66,87,65,88,67,86,,,,,,,1.75,0.69,1.61*15
$GPGSV,5,1,17,08,06,319,,10,17,000,19,16,25,244,12,18,33,081,14*75
$GPGSV,5,2,17,23,03,038,12,25,01,125,,26,29,213,22,27,41,312,34*7A
$GPGSV,5,3,17,28,47,154,23,29,15,147,19,31,32,188,10,32,61,357,23*71
$GPGSV,5,4,17,36,52,277,38,40,84,353,34,41,58,082,,49,32,274,*70
$GPGSV,5,5,17,50,10,089,*4A
$GLGSV,2,1,08,65,21,000,15,66,49,306,39,67,27,237,21,76,13,144,*6B
$GLGSV,2,2,08,77,15,190,,86,17,134,15,87,49,094,25,88,35,005,13*62
$GNGLL,0419.78008,S,05539.73497,E,121225.00,A,A*62
$GNGRS,121225.00,1,-6.1,6.1,-1.2,-4.7,-2.8,2.4,15.7,2.7,,,,*6D
$GNGRS,121225.00,1,0.8,-10.5,8.8,6.1,-12.0,15.6,,,,,,*6D
$GNGST,121225.00,423364,,,,5.9,5.1,17*6A
$GNZDA,121225.00,22,05,2025,00,00*7F
$GNGBS,121225.00,5.9,5.1,17.1,,,,*67
$GNTXT,01,01,01,More than 100 frame errors, UART RX was disabled*70
b0@`F8?
k!Q|&w}m)8/  =e{&4#Ta:R 
Yj
AB%12JCdLMVW1^UX#hb`F8B0b$GNRMC,121226.00,A,0419.78024,S,05539.73487,E,0.513,,220525,,,A*72
$GNVTG,,T,,M,0.513,N,0.950,K,A*36
$GNGNS,121226.00,0419.78024,S,05539.73487,E,AA,14,0.69,12.8,-47.6,,*68
$GNGGA,121226.00,0419.78024,S,05539.73487,E,1,12,0.69,12.8,M,-47.6,M,,*44
$GNGSA,A,3,32,28,27,18,26,31,16,29,,,,,1.75,0.69,1.61*1B
$GNGSA,A,3,66,87,65,88,67,86,,,,,,,1.75,0.69,1.61*15
$GPGSV,5,1,17,08,06,319,,10,17,000,18,16,25,244,15,18,33,081,16*71
$GPGSV,5,2,17,23,03,038,08,25,01,125,,26,29,213,22,27,41,312,30*75
$GPGSV,5,3,17,28,47,154,24,29,15,147,18,31,32,188,14,32,61,357,31*70
$GPGSV,5,4,17,36,52,277,38,40,84,353,35,41,58,082,,49,32,274,*71
$GPGSV,5,5,17,50,10,089,*4A
$GLGSV,2,1,08,65,21,000,11,66,49,306,37,67,27,237,21,76,13,144,*61
$GLGSV,2,2,08,77,15,190,,86,17,134,15,87,49,094,25,88,35,005,12*63
$GNGLL,0419.78024,S,05539.73487,E,121226.00,A,A*6E
$GNGRS,121226.00,1,-3.7,8.0,-0.3,-3.9,-1.5,2.0,-31.4,2.7,,,,*49
$GNGRS,121226.00,1,0.7,-12.0,-13.7,8.7,-11.8,14.6,,,,,,*7C
$GNGST,121226.00,66,,,,6.0,5.2,17*64
$GNZDA,121226.00,22,05,2025,00,00*7C
$GNGBS,121226.00,6.0,5.2,17.2,,,,*6E
$GNTXT,01,01,01,More than 100 frame errors, UART RX was disabled*70
b0@HJ8?
!Q&} )8/j@  !=e{&4#Ta:R 
Yj
A
B%120CLMVW1^=X#bHJ8*4k$GNRMC,121227.00,A,0419.78036,S,05539.73480,E,0.293,,220525,,,A*78
$GNVTG,,T,,M,0.293,N,0.542,K,A*36
$GNGNS,121227.00,0419.78036,S,05539.73480,E,AA,12,0.76,13.2,-47.6,,*6E
$GNGGA,121227.00,0419.78036,S,05539.73480,E,1,12,0.76,13.2,M,-47.6,M,,*44
$GNGSA,A,3,32,28,27,18,26,31,16,29,,,,,1.88,0.76,1.72*15
$GNGSA,A,3,66,87,65,67,,,,,,,,,1.88,0.76,1.72*15
$GPGSV,5,1,17,08,06,319,,10,17,000,17,16,25,244,09,18,33,081,18*7D
$GPGSV,5,2,17,23,03,038,12,25,01,125,,26,29,213,23,27,41,312,32*7D
$GPGSV,5,3,17,28,47,154,26,29,15,147,15,31,32,188,14,32,61,357,33*7D
$GPGSV,5,4,17,36,52,277,38,40,84,353,35,41,58,082,,49,32,274,*71
$GPGSV,5,5,17,50,10,089,*4A
$GLGSV,2,1,08,65,21,000,10,66,49,306,37,67,27,237,22,76,13,144,*63
$GLGSV,2,2,08,77,15,190,,86,17,134,,87,49,094,24,88,35,005,*65
$GNGLL,0419.78036,S,05539.73480,E,121227.00,A,A*6B
$GNGRS,121227.00,1,-2.3,8.7,-1.1,-0.9,-3.2,1.7,15.3,0.6,,,,*64
$GNGRS,121227.00,1,0.5,-12.2,9.4,-13.9,,,,,,,,*57
$GNGST,121227.00,4856426,,,,6.1,5.2,17*5B
$GNZDA,121227.00,22,05,2025,00,00*7D
$GNGBS,121227.00,6.1,5.2,17.4,,,,*68
$GNTXT,01,01,01,More than 100 frame errors, UART RX was disabled*70
b0@0N8?
!Q1
&};!)8/  =e/{(4#Ta:R 
Yj
AB'127CDLVMVW1^X#!b0N88C2$GNRMC,121228.00,A,0419.78040,S,05539.73477,E,0.151,,220525,,,A*73
$GNVTG,,T,,M,0.151,N,0.280,K,A*32
$GNGNS,121228.00,0419.78040,S,05539.73477,E,AA,12,0.76,13.7,-47.6,,*6D
$GNGGA,121228.00,0419.78040,S,05539.73477,E,1,12,0.76,13.7,M,-47.6,M,,*47
$GNGSA,A,3,32,28,27,18,26,31,16,29,,,,,1.88,0.76,1.72*15
$GNGSA,A,3,66,87,65,67,,,,,,,,,1.88,0.76,1.72*15
$GPGSV,5,1,17,08,06,319,,10,17,000,,16,25,244,15,18,33,081,17*79
$GPGSV,5,2,17,23,03,038,10,25,01,125,,26,29,213,22,27,41,312,33*7F
$GPGSV,5,3,17,28,47,154,25,29,15,147,11,31,32,188,13,32,61,357,27*78
$GPGSV,5,4,17,36,52,277,40,40,84,353,35,41,58,082,,49,32,274,*7E
$GPGSV,5,5,17,50,10,089,*4A
$GLGSV,2,1,08,65,21,000,09,66,49,306,39,67,27,237,22,76,13,144,16*62
$GLGSV,2,2,08,77,15,190,,86,17,134,,87,49,094,22,88,35,005,*63
$GNGLL,0419.78040,S,05539.73477,E,121228.00,A,A*6D
$GNGRS,121228.00,1,-2.1,9.2,-1.0,0.5,-2.0,-0.4,15.5,-0.5,,,,*49
$GNGRS,121228.00,1,0.5,-10.7,9.2,-14.7,,,,,,,,*50
$GNGST,121228.00,4856426,,,,6.1,5.2,18*5B
$GNZDA,121228.00,22,05,2025,00,00*72
$GNGBS,121228.00,6.1,5.2,17.6,,,,*65
$GNTXT,01,01,01,More than 100 frame errors, UART RX was disabled*70
b0@R8?

!Q&}X#)8/3  !=e{(4"Ta:R 
Yjg
AB'12@CLMVW1^X#.bR8;$GNRMC,121229.00,A,0419.78048,S,05539.73473,E,0.213,,220525,,,A*7B
$GNVTG,,T,,M,0.213,N,0.395,K,A*32
$GNGNS,121229.00,0419.78048,S,05539.73473,E,AA,12,0.76,14.1,-47.6,,*61
$GNGGA,121229.00,0419.78048,S,05539.73473,E,1,12,0.76,14.1,M,-47.6,M,,*4B
$GNGSA,A,3,32,28,27,18,26,31,16,29,,,,,1.88,0.76,1.72*15
$GNGSA,A,3,66,87,65,67,,,,,,,,,1.88,0.76,1.72*15
$GPGSV,5,1,17,08,06,319,,10,17,000,,16,25,244,10,18,33,081,18*73
$GPGSV,5,2,17,23,03,038,12,25,01,125,,26,29,213,21,27,41,312,35*78
$GPGSV,5,3,17,28,47,154,27,29,15,147,17,31,32,188,19,32,61,357,33*73
$GPGSV,5,4,17,36,52,277,40,40,84,353,34,41,58,082,,49,32,274,*7F
$GPGSV,5,5,17,50,10,089,*4A
$GLGSV,2,1,08,65,21,000,14,66,49,306,39,67,27,237,23,76,13,144,*68
$GLGSV,2,2,08,77,15,190,,86,17,134,,87,49,094,22,88,35,005,20*61
$GNGLL,0419.78048,S,05539.73473,E,121229.00,A,A*60
$GNGRS,121229.00,1,-2.4,8.2,-1.0,-0.2,0.9,-3.2,-6.1,0.2,,,,*74
$GNGRS,121229.00,1,0.6,-10.1,7.2,-15.4,,,,,,,,*58
$GNGST,121229.00,58,,,,6.1,5.2,18*68
$GNZDA,121229.00,22,05,2025,00,00*73
$GNGBS,121229.00,6.1,5.2,17.5,,,,*67
$GNTXT,01,01,01,More than 100 frame errors, UART RX was disabled*70
b0@V8?
!Q.&?}")8/g   =e{)4!Ta:R 
Yj
AB%12UCLMV4W1^X#bV8?$GNRMC,121230.00,A,0419.78055,S,05539.73462,E,0.264,,220525,,,A*7F
$GNVTG,,T,,M,0.264,N,0.488,K,A*39
$GNGNS,121230.00,0419.78055,S,05539.73462,E,AA,12,0.76,14.9,-47.6,,*6D
$GNGGA,121230.00,0419.78055,S,05539.73462,E,1,12,0.76,14.9,M,-47.6,M,,*47
$GNGSA,A,3,32,28,27,18,26,31,16,29,,,,,1.88,0.76,1.72*15
$GNGSA,A,3,66,87,65,67,,,,,,,,,1.88,0.76,1.72*15
$GPGSV,5,1,17,08,06,319,,10,17,000,,16,25,244,13,18,33,081,18*70
$GPGSV,5,2,17,23,03,038,09,25,01,125,,26,29,213,22,27,41,312,34*70
$GPGSV,5,3,17,28,47,154,25,29,15,147,19,31,32,188,22,32,61,357,32*76
$GPGSV,5,4,17,36,52,277,41,40,84,353,33,41,58,082,,49,32,274,*79
$GPGSV,5,5,17,50,10,089,*4A
$GLGSV,2,1,08,65,21,000,12,66,49,306,37,67,27,237,24,76,13,144,*67
$GLGSV,2,2,08,77,15,190,,86,17,134,17,87,49,094,21,88,35,005,18*6F
$GNGLL,0419.78055,S,05539.73462,E,121230.00,A,A*64
$GNGRS,121230.00,1,-7.8,8.7,-0.5,0.5,-0.7,-3.5,15.3,1.7,,,,*63
$GNGRS,121230.00,1,0.9,-11.3,9.7,-15.1,,,,,,,,*52
$GNGST,121230.00,3434074,,,,6.1,5.3,18*5F
$GNZDA,121230.00,22,05,2025,00,00*7B
$GNGBS,121230.00,6.1,5.3,17.7,,,,*6C
$GNTXT,01,01,01,More than 100 frame errors, UART RX was disabled*70
b0@Y8?
!Q&}!)8/ 1  =e{'4 Ta:R 
Yj
AB%12hCGLrMVW1^X#bY8CX$GNRMC,121231.00,A,0419.78069,S,05539.73441,E,0.776,,220525,,,A*76
$GNVTG,,T,,M,0.776,N,1.437,K,A*3A
$GNGNS,121231.00,0419.78069,S,05539.73441,E,AA,12,0.76,15.6,-47.6,,*6C
$GNGGA,121231.00,0419.78069,S,05539.73441,E,1,12,0.76,15.6,M,-47.6,M,,*46
$GNGSA,A,3,32,28,27,18,26,31,16,29,,,,,1.88,0.76,1.72*15
$GNGSA,A,3,66,87,65,67,,,,,,,,,1.88,0.76,1.72*15
$GPGSV,5,1,17,08,06,319,,10,17,000,,16,25,244,08,18,33,081,22*73
$GPGSV,5,2,17,23,03,038,08,25,01,125,,26,29,213,22,27,41,312,33*76
$GPGSV,5,3,17,28,47,154,23,29,15,147,16,31,32,188,21,32,61,357,32*7C
$GPGSV,5,4,17,36,52,277,39,40,84,353,32,41,58,082,,49,32,274,*77
$GPGSV,5,5,17,50,10,089,*4A
$GLGSV,2,1,08,65,21,000,14,66,49,306,37,67,27,237,24,76,13,144,21*62
$GLGSV,2,2,08,77,15,190,,86,17,134,,87,49,094,21,88,35,005,19*68
$GNGLL,0419.78069,S,05539.73441,E,121231.00,A,A*6B
$GNGRS,121231.00,1,-3.4,9.2,-0.3,-0.7,-0.8,-2.1,15.2,-0.6,,,,*61
$GNGRS,121231.00,1,1.0,-10.3,10.1,-17.2,,,,,,,,*65
$GNGST,121231.00,3434153,,,,6.1,5.4,18*5D
$GNZDA,121231.00,22,05,2025,00,00*7A
$GNGBS,121231.00,6.1,5.4,17.9,,,,*64
$GNTXT,01,01,01,More than 100 frame errors, UART RX was disabled*70
b0@]8?
!Q&[}!)8/{k i "=e{'4"Ta:R 
Yj
A
B%12yCLMVW1^X#{b]8G$GNRMC,121232.00,A,0419.78068,S,05539.73438,E,0.550,,220525,,,A*7C
$GNVTG,,T,,M,0.550,N,1.019,K,A*34
$GNGNS,121232.00,0419.78068,S,05539.73438,E,AA,13,0.72,17.0,-47.6,,*61
$GNGGA,121232.00,0419.78068,S,05539.73438,E,1,12,0.72,17.0,M,-47.6,M,,*4A
$GNGSA,A,3,32,28,27,18,26,31,16,29,,,,,1.85,0.72,1.70*1E
$GNGSA,A,3,66,87,65,88,67,,,,,,,,1.85,0.72,1.70*1E
$GPGSV,5,1,17,08,06,319,,10,17,000,,16,25,244,12,18,33,081,26*7C
$GPGSV,5,2,17,23,03,038,07,25,01,125,,26,29,213,23,27,41,312,33*78
$GPGSV,5,3,17,28,47,154,25,29,15,147,12,31,32,188,20,32,61,357,34*79
$GPGSV,5,4,17,36,52,277,39,40,84,353,34,41,58,082,,49,32,274,*71
$GPGSV,5,5,17,50,10,089,*4A
$GLGSV,2,1,08,65,21,000,10,66,49,306,37,67,27,237,24,76,13,144,*65
$GLGSV,2,2,08,77,15,190,,86,17,134,20,87,49,094,21,88,35,005,19*6A
$GNGLL,0419.78068,S,05539.73438,E,121232.00,A,A*67
$GNGRS,121232.00,1,-5.2,8.9,-0.3,-2.8,1.6,-1.5,-57.4,-1.5,,,,*6F
$GNGRS,121232.00,1,1.2,-11.1,-57.2,3.8,-18.9,,,,,,,*6B
$GNGST,121232.00,66,,,,6.1,5.3,18*6E
$GNZDA,121232.00,22,05,2025,00,00*79
$GNGBS,121232.00,6.1,5.3,17.9,,,,*60
$GNTXT,01,01,01,More than 100 frame errors, UART RX was disabled*70
b0@a8?
<!Q
&} )8/M  !=e{'4!Ta:R 
Y
j!
AB%12sCLMVW1^X#ba8Ky($GNRMC,121233.00,A,0419.78074,S,05539.73426,E,0.267,,220525,,,A*7C
$GNVTG,,T,,M,0.267,N,0.495,K,A*36
$GNGNS,121233.00,0419.78074,S,05539.73426,E,AA,13,0.76,16.7,-47.6,,*60
$GNGGA,121233.00,0419.78074,S,05539.73426,E,1,12,0.76,16.7,M,-47.6,M,,*4B
$GNGSA,A,3,32,28,27,18,26,31,16,29,,,,,1.88,0.76,1.72*15
$GNGSA,A,3,66,87,65,88,67,,,,,,,,1.88,0.76,1.72*15
$GPGSV,5,1,17,08,06,319,,10,17,000,18,16,25,244,12,18,33,081,25*76
$GPGSV,5,2,17,23,03,038,10,25,01,125,,26,29,213,23,27,41,312,32*7F
$GPGSV,5,3,17,28,47,154,25,29,15,147,17,31,32,188,19,32,61,357,33*71
$GPGSV,5,4,17,36,52,277,39,40,84,353,33,41,58,082,,49,32,274,*76
$GPGSV,5,5,17,50,10,089,*4A
$GLGSV,2,1,08,65,21,000,08,66,49,306,37,67,27,237,24,76,13,144,*6C
$GLGSV,2,2,08,77,15,190,,86,17,134,19,87,49,094,20,88,35,005,18*60
$GNGLL,0419.78074,S,05539.73426,E,121233.00,A,A*64
$GNGRS,121233.00,1,-7.6,9.1,-0.3,-0.8,2.5,-3.0,14.6,-1.8,,,,*41
$GNGRS,121233.00,1,1.1,-7.7,9.5,0.1,-21.6,,,,,,,*46
$GNGST,121233.00,4857197,,,,6.1,5.3,18*5E
$GNZDA,121233.00,22,05,2025,00,00*78
$GNGBS,121233.00,6.1,5.3,18.0,,,,*67
$GNTXT,01,01,01,More than 100 frame errors, UART RX was disabled*70
b0@e8?
!Q
&H}!!)8/F   =e{(4!Ta:R 
Yj
AB&12lCLMVW1^(X#be8OQ$GNRMC,121234.00,A,0419.78074,S,05539.73426,E,0.092,,220525,,,A*73
$GNVTG,,T,,M,0.092,N,0.170,K,A*30
$GNGNS,121234.00,0419.78074,S,05539.73426,E,AA,13,0.68,17.4,-47.6,,*6A
$GNGGA,121234.00,0419.78074,S,05539.73426,E,1,12,0.68,17.4,M,-47.6,M,,*41
$GNGSA,A,3,32,28,27,18,26,31,16,29,,,,,1.65,0.68,1.50*19
$GNGSA,A,3,66,87,65,88,67,,,,,,,,1.65,0.68,1.50*19
$GPGSV,5,1,17,08,06,319,,10,17,000,,16,25,244,09,18,33,081,22*72
$GPGSV,5,2,17,23,03,038,10,25,01,125,,26,29,213,22,27,41,312,33*7F
$GPGSV,5,3,17,28,47,154,24,29,15,147,22,31,32,188,19,32,61,357,32*77
$GPGSV,5,4,17,36,52,277,40,40,84,353,33,41,58,082,,49,32,274,*78
$GPGSV,5,5,17,50,10,089,*4A
$GLGSV,2,1,08,65,21,000,12,66,49,306,38,67,27,237,26,76,13,144,*6A
$GLGSV,2,2,08,77,15,190,,86,17,134,18,87,49,094,19,88,35,005,15*66
$GNGLL,0419.78074,S,05539.73426,E,121234.00,A,A*63
$GNGRS,121234.00,1,-2.9,10.4,-0.3,-0.3,2.9,-7.5,14.4,-1.9,,,,*74
$GNGRS,121234.00,1,1.1,-9.8,9.7,-1.0,-21.3,,,,,,,*6A
$GNGST,121234.00,4496890,,,,6.1,5.3,18*56
$GNZDA,121234.00,22,05,2025,00,00*7F
$GNGBS,121234.00,6.1,5.3,18.0,,,,*60
$GNTXT,01,01,01,More than 100 frame errors, UART RX was disabled*70
b0@i8?

!Q\
&O} )8/I   =e{(4!Ta:R 
Yj-
AWB&12CLMVGW1^X#[:bi8jS)$GNRMC,121235.00,A,0419.78068,S,05539.73424,E,0.229,,220525,,,A*7F
$GNVTG,,T,,M,0.229,N,0.424,K,A*36
$GNGNS,121235.00,0419.78068,S,05539.73424,E,AA,14,0.69,18.1,-47.6,,*68
$GNGGA,121235.00,0419.78068,S,05539.73424,E,1,12,0.69,18.1,M,-47.6,M,,*44
$GNGSA,A,3,32,28,27,18,26,31,16,29,,,,,1.75,0.69,1.61*1B
$GNGSA,A,3,66,87,65,88,67,86,,,,,,,1.75,0.69,1.61*15
$GPGSV,5,1,17,08,06,319,,10,17,000,20,16,25,244,10,18,33,081,21*7B
$GPGSV,5,2,17,23,03,038,10,25,01,125,,26,29,213,20,27,41,312,32*7C
$GPGSV,5,3,17,28,47,154,24,29,15,147,16,31,32,188,20,32,61,357,32*7A
$GPGSV,5,4,17,36,52,277,40,40,84,353,33,41,58,082,,49,32,274,*78
$GPGSV,5,5,17,50,10,089,*4A
$GLGSV,2,1,08,65,21,000,12,66,49,306,38,67,27,237,26,76,13,144,*6A
$GLGSV,2,2,08,77,15,190,,86,17,134,17,87,49,094,20,88,35,005,14*62
$GNGLL,0419.78068,S,05539.73424,E,121235.00,A,A*6D
$GNGRS,121235.00,1,-2.8,10.4,-0.1,-1.6,4.5,-7.7,-69.5,-1.8,,,,*5D
$GNGRS,121235.00,1,1.3,-8.3,18.8,-1.2,-18.8,5.8,,,,,,*7C
$GNGST,121235.00,68,,,,6.1,5.3,18*67
$GNZDA,121235.00,22,05,2025,00,00*7E
$GNGBS,121235.00,6.1,5.3,18.0,,,,*61
$GNTXT,01,01,01,More than 100 frame errors, UART RX was disabled*70
b0@pm8?
!Q
&}!)8/  !=e{'4 Ta:R 
Yj
A
B&12eCLMVW1^X#uCbpm8RW`$GNRMC,121236.00,A,0419.78066,S,05539.73421,E,0.239,,220525,,,A*76
$GNVTG,,T,,M,0.239,N,0.443,K,A*36
$GNGNS,121236.00,0419.78066,S,05539.73421,E,AA,14,0.69,18.7,-47.6,,*66
$GNGGA,121236.00,0419.78066,S,05539.73421,E,1,12,0.69,18.7,M,-47.6,M,,*4A
$GNGSA,A,3,32,28,27,18,26,31,16,29,,,,,1.75,0.69,1.61*1B
$GNGSA,A,3,66,87,65,88,67,86,,,,,,,1.75,0.69,1.61*15
$GPGSV,5,1,17,08,06,319,,10,17,000,18,16,25,244,12,18,33,081,21*72
$GPGSV,5,2,17,23,03,038,10,25,01,125,,26,29,213,19,27,41,312,33*77
$GPGSV,5,3,17,28,47,154,23,29,15,147,18,31,32,188,20,32,61,357,33*72
$GPGSV,5,4,17,36,52,277,39,40,84,353,32,41,58,082,,49,32,274,*77
$GPGSV,5,5,17,50,10,089,*4A
$GLGSV,2,1,08,65,21,000,10,66,49,306,38,67,27,237,27,76,13,144,*69
$GLGSV,2,2,08,77,15,190,,86,17,134,16,87,49,094,21,88,35,005,16*60
$GNGLL,0419.78066,S,05539.73421,E,121236.00,A,A*65
$GNGRS,121236.00,1,-2.5,12.6,0.0,-0.8,7.6,-10.5,15.3,-2.9,,,,*66
$GNGRS,121236.00,1,1.0,-8.8,9.4,-0.7,-19.2,9.5,,,,,,*45
$GNGST,121236.00,150187,,,,6.1,5.3,18*60
$GNZDA,121236.00,22,05,2025,00,00*7D
$GNGBS,121236.00,6.1,5.3,18.1,,,,*63
$GNTXT,01,01,01,More than 100 frame errors, UART RX was disabled*70
b0@Xq8?
!Q&} )8/Uo  "=e{(4 Ta:R 
Yj
A
B&12aCLMV^W1^X#bXq8:[$GNRMC,121237.00,A,0419.78070,S,05539.73427,E,0.243,,220525,,,A*7B
$GNVTG,,T,,M,0.243,N,0.451,K,A*38
$GNGNS,121237.00,0419.78070,S,05539.73427,E,AA,14,0.69,19.1,-47.6,,*61
$GNGGA,121237.00,0419.78070,S,05539.73427,E,1,12,0.69,19.1,M,-47.6,M,,*4D
$GNGSA,A,3,32,28,27,18,26,31,16,29,,,,,1.75,0.69,1.60*1A
$GNGSA,A,3,66,87,65,88,67,86,,,,,,,1.75,0.69,1.60*14
$GPGSV,5,1,17,08,06,319,,10,17,000,,16,25,244,15,18,33,081,22*7F
$GPGSV,5,2,17,23,03,038,11,25,01,125,,26,29,213,20,27,41,312,32*7D
$GPGSV,5,3,17,28,47,154,25,29,15,147,18,31,32,188,18,32,61,357,34*78
$GPGSV,5,4,17,36,52,277,40,40,84,353,32,41,58,082,,49,32,274,*79
$GPGSV,5,5,17,50,10,089,*4A
$GLGSV,2,1,08,65,21,000,10,66,49,306,38,67,27,237,28,76,13,144,*66
$GLGSV,2,2,08,77,15,190,,86,17,134,15,87,49,094,23,88,35,005,16*61
$GNGLL,0419.78070,S,05539.73427,E,121237.00,A,A*65
$GNGRS,121237.00,1,-2.4,11.1,0.1,-0.8,7.7,-11.2,15.4,-1.5,,,,*6C
$GNGRS,121237.00,1,1.0,-7.6,9.2,-2.8,-18.6,16.3,,,,,,*73
$GNGST,121237.00,223243,,,,6.1,5.3,18*6D
$GNZDA,121237.00,22,05,2025,00,00*7C
$GNGBS,121237.00,6.1,5.3,18.1,,,,*62
$GNTXT,01,01,01,More than 100 frame errors, UART RX was disabled*70
b0@@u8?
!Q"&} )8/ a #=e0{'4Ta:R 
Yj
AB&12ICLMVW1^FX#b@u8"_0$GNRMC,121238.00,A,0419.78066,S,05539.73421,E,0.302,,220525,,,A*71
$GNVTG,,T,,M,0.302,N,0.559,K,A*35
$GNGNS,121238.00,0419.78066,S,05539.73421,E,AA,14,0.69,19.4,-47.6,,*6A
$GNGGA,121238.00,0419.78066,S,05539.73421,E,1,12,0.69,19.4,M,-47.6,M,,*46
$GNGSA,A,3,32,28,27,18,26,31,16,29,,,,,1.75,0.69,1.60*1A
$GNGSA,A,3,66,87,65,88,67,86,,,,,,,1.75,0.69,1.60*14
$GPGSV,5,1,17,08,06,319,,10,17,000,,16,25,244,11,18,33,081,21*78
$GPGSV,5,2,17,23,03,038,,25,01,125,,26,29,213,22,27,41,312,32*7F
$GPGSV,5,3,17,28,47,154,23,29,15,147,17,31,32,188,19,32,61,357,35*71
$GPGSV,5,4,17,36,52,277,39,40,84,353,31,41,58,082,,49,32,274,*74
$GPGSV,5,5,17,50,10,089,*4A
$GLGSV,2,1,08,65,21,000,12,66,49,306,38,67,27,237,27,76,13,144,*6B
$GLGSV,2,2,08,77,15,190,,86,17,134,15,87,49,094,23,88,35,005,16*61
$GNGLL,0419.78066,S,05539.73421,E,121238.00,A,A*6B
$GNGRS,121238.00,1,-2.1,12.4,-0.2,0.3,9.2,-11.8,-33.3,-2.6,,,,*47
$GNGRS,121238.00,1,0.7,-7.0,-23.0,-5.4,-17.7,15.1,,,,,,*6F
$GNGST,121238.00,63,,,,6.1,5.2,18*60
$GNZDA,121238.00,22,05,2025,00,00*73
$GNGBS,121238.00,6.1,5.2,18.1,,,,*6C
$GNTXT,01,01,01,More than 100 frame errors, UART RX was disabled*70
b0@(y8?
!Q&}!)8/i  "=e{'4 Ta:R 
Yj
A
B'120CJLMVMW1^vX#Tb(y8
c$GNRMC,121239.00,A,0419.78065,S,05539.73411,E,0.224,,220525,,,A*75
$GNVTG,,T,,M,0.224,N,0.415,K,A*39
$GNGNS,121239.00,0419.78065,S,05539.73411,E,AA,14,0.69,20.2,-47.6,,*67
$GNGGA,121239.00,0419.78065,S,05539.73411,E,1,12,0.69,20.2,M,-47.6,M,,*4B
$GNGSA,A,3,32,28,27,18,26,31,16,29,,,,,1.75,0.69,1.60*1A
$GNGSA,A,3,66,87,65,88,67,86,,,,,,,1.75,0.69,1.60*14
$GPGSV,5,1,17,08,06,319,,10,17,000,,16,25,244,18,18,33,081,19*7A
$GPGSV,5,2,17,23,03,038,,25,01,125,,26,29,213,22,27,41,312,33*7E
$GPGSV,5,3,17,28,47,154,21,29,15,147,17,31,32,188,18,32,61,357,34*73
$GPGSV,5,4,17,36,52,277,39,40,84,353,32,41,58,082,,49,32,274,*77
$GPGSV,5,5,17,50,10,089,*4A
$GLGSV,2,1,08,65,21,000,10,66,49,306,39,67,27,237,28,76,13,144,*67
$GLGSV,2,2,08,77,15,190,,86,17,134,13,87,49,094,22,88,35,005,19*69
$GNGLL,0419.78065,S,05539.73411,E,121239.00,A,A*6A
$GNGRS,121239.00,1,-2.3,11.3,0.0,-1.0,9.2,-11.2,15.3,-2.6,,,,*63
$GNGRS,121239.00,1,0.5,-6.5,9.7,-6.8,-17.2,13.6,,,,,,*71
$GNGST,121239.00,4496177,,,,6.1,5.2,18*5A
$GNZDA,121239.00,22,05,2025,00,00*72
$GNGBS,121239.00,6.1,5.2,18.1,,,,*6D
$GNTXT,01,01,01,More than 100 frame errors, UART RX was disabled*70
b0@}8?
P!Q&}")8/D  =e{'4 Ta:R 
Yj
AB&12;CLMVW1^X#!Tb}8f`$GNRMC,121240.00,A,0419.78066,S,05539.73402,E,0.257,,220525,,,A*7E
$GNVTG,,T,,M,0.257,N,0.475,K,A*3B
$GNGNS,121240.00,0419.78066,S,05539.73402,E,AA,14,0.69,21.1,-47.6,,*6A
$GNGGA,121240.00,0419.78066,S,05539.73402,E,1,12,0.69,21.1,M,-47.6,M,,*46
$GNGSA,A,3,32,28,27,18,26,31,16,29,,,,,1.75,0.69,1.60*1A
$GNGSA,A,3,66,87,65,88,67,86,,,,,,,1.75,0.69,1.60*14
$GPGSV,5,1,17,08,06,319,,10,17,000,18,16,25,244,21,18,33,081,18*78
$GPGSV,5,2,17,23,03,038,,25,01,125,,26,29,213,22,27,41,312,34*79
$GPGSV,5,3,17,28,47,154,19,29,15,147,14,31,32,188,22,32,61,357,31*77
$GPGSV,5,4,17,36,52,277,39,40,84,353,32,41,58,082,,49,32,274,*77
$GPGSV,5,5,17,50,10,089,*4A
$GLGSV,2,1,08,65,21,000,11,66,49,306,38,67,27,237,28,76,13,144,*67
$GLGSV,2,2,08,77,15,190,,86,17,134,13,87,49,094,22,88,35,005,19*69
$GNGLL,0419.78066,S,05539.73402,E,121240.00,A,A*65
$GNGRS,121240.00,1,-2.6,13.5,-0.3,-0.1,9.3,-9.9,15.5,-5.2,,,,*74
$GNGRS,121240.00,1,0.6,-5.9,10.1,-7.4,-16.2,16.7,,,,,,*45
$GNGST,121240.00,4496177,,,,6.0,5.2,18*55
$GNZDA,121240.00,22,05,2025,00,00*7C
$GNGBS,121240.00,6.0,5.2,18.1,,,,*62
$GNTXT,01,01,01,More than 100 frame errors, UART RX was disabled*70
b0@8?
)!Q&}!)8/4  =e{'4!Ta:R 
Yj\
A
^B%12\CLMV.W1^mX#b8j7V$GNRMC,121241.00,A,0419.78073,S,05539.73398,E,0.308,,220525,,,A*74
$GNVTG,,T,,M,0.308,N,0.570,K,A*34
$GNGNS,121241.00,0419.78073,S,05539.73398,E,AA,13,0.71,22.3,-47.6,,*64
$GNGGA,121241.00,0419.78073,S,05539.73398,E,1,12,0.71,22.3,M,-47.6,M,,*4F
$GNGSA,A,3,32,28,27,18,26,31,16,,,,,,1.86,0.71,1.72*17
$GNGSA,A,3,66,87,65,88,67,86,,,,,,,1.86,0.71,1.72*12
$GPGSV,5,1,17,08,06,319,,10,17,000,,16,25,244,12,18,33,081,19*70
$GPGSV,5,2,17,23,03,038,,25,01,125,,26,29,213,23,27,41,312,33*7F
$GPGSV,5,3,17,28,47,154,17,29,15,147,09,31,32,188,22,32,61,357,30*74
$GPGSV,5,4,17,36,52,277,39,40,84,353,33,41,58,082,,49,32,274,*76
$GPGSV,5,5,17,50,10,089,*4A
$GLGSV,2,1,08,65,21,000,10,66,49,306,37,67,27,237,28,76,13,144,*69
$GLGSV,2,2,08,77,15,190,,86,17,134,14,87,49,094,23,88,35,005,17*61
$GNGLL,0419.78073,S,05539.73398,E,121241.00,A,A*64
$GNGRS,121241.00,1,1.4,18.4,-0.2,-0.5,7.6,-8.0,15.8,,,,,*5C
$GNGRS,121241.00,1,0.9,-4.0,11.2,-7.4,-17.8,15.8,,,,,,*46
$GNGST,121241.00,63,,,,6.0,5.2,18*6F
$GNZDA,121241.00,22,05,2025,00,00*7D
$GNGBS,121241.00,6.0,5.2,18.2,,,,*60
$GNTXT,01,01,01,More than 100 frame errors, UART RX was disabled*70
b0@8?
!Q&}!)8/G  =e?{(4!Ta:R 
Yj
AB%12nC>LMVW1^X#GP8b8n$GNRMC,121242.00,A,0419.78091,S,05539.73397,E,0.515,,220525,,,A*7E
$GNVTG,,T,,M,0.515,N,0.955,K,A*35
$GNGNS,121242.00,0419.78091,S,05539.73397,E,AA,14,0.69,23.8,-47.6,,*60
$GNGGA,121242.00,0419.78091,S,05539.73397,E,1,12,0.69,23.8,M,-47.6,M,,*4C
$GNGSA,A,3,32,28,27,18,26,31,16,29,,,,,1.75,0.69,1.60*1A
$GNGSA,A,3,66,87,65,88,67,86,,,,,,,1.75,0.69,1.60*14
$GPGSV,5,1,17,08,06,319,,10,17,000,,16,25,244,14,18,33,081,19*76
$GPGSV,5,2,17,23,03,038,,25,01,125,,26,29,213,23,27,41,312,33*7F
$GPGSV,5,3,17,28,47,154,20,29,15,147,13,31,32,188,23,32,61,357,28*73
$GPGSV,5,4,17,36,52,277,40,40,84,353,33,41,58,082,,49,32,274,*78
$GPGSV,5,5,17,50,10,089,*4A
$GLGSV,2,1,08,65,21,001,08,66,49,306,37,67,27,237,28,76,13,144,*61
$GLGSV,2,2,08,77,15,190,,86,17,134,13,87,49,094,23,88,35,005,15*64
$GNGLL,0419.78091,S,05539.73397,E,121242.00,A,A*64
$GNGRS,121242.00,1,3.2,17.0,-0.2,-1.0,6.6,-5.7,14.5,-7.0,,,,*57
$GNGRS,121242.00,1,1.1,-3.2,9.8,-9.5,-17.3,16.6,,,,,,*73
$GNGST,121242.00,3206,,,,6.0,5.2,18*6E
$GNZDA,121242.00,22,05,2025,00,00*7E
$GNGBS,121242.00,6.0,5.2,18.3,,,,*62
$GNTXT,01,01,01,More than 100 frame errors, UART RX was disabled*70
b0@8?
!Q.&}!)8/a  =e{(4 Ta:R 
Yj
AB%13iCLMV6W1^X#lb8r&$GNRMC,121243.00,A,0419.78098,S,05539.73399,E,0.342,,220525,,,A*7C
$GNVTG,,T,,M,0.342,N,0.633,K,A*3E
$GNGNS,121243.00,0419.78098,S,05539.73399,E,AA,14,0.69,24.8,-47.6,,*61
$GNGGA,121243.00,0419.78098,S,05539.73399,E,1,12,0.69,24.8,M,-47.6,M,,*4D
$GNGSA,A,3,32,28,27,18,26,31,16,29,,,,,1.75,0.69,1.60*1A
$GNGSA,A,3,66,87,65,88,67,86,,,,,,,1.75,0.69,1.60*14
$GPGSV,5,1,17,08,06,319,,10,17,000,19,16,25,244,15,18,33,081,19*7F
$GPGSV,5,2,17,23,03,038,,25,01,125,,26,29,213,22,27,41,312,33*7E
$GPGSV,5,3,17,28,47,154,22,29,15,147,19,31,32,188,22,32,61,357,31*72
$GPGSV,5,4,17,36,52,277,40,40,84,353,32,41,58,082,,49,32,274,*79
$GPGSV,5,5,17,50,10,089,*4A
$GLGSV,2,1,08,65,21,001,09,66,49,307,37,67,27,237,29,76,13,144,*60
$GLGSV,2,2,08,77,15,190,,86,17,134,13,87,49,094,23,88,35,005,12*63
$GNGLL,0419.78098,S,05539.73399,E,121243.00,A,A*62
$GNGRS,121243.00,1,-1.2,16.7,0.0,-2.1,7.9,-5.5,13.1,-9.3,,,,*50
$GNGRS,121243.00,1,1.1,-2.4,9.8,-5.5,-21.5,15.9,,,,,,*76
$GNGST,121243.00,4808,,,,6.0,5.2,18*6C
$GNZDA,121243.00,22,05,2025,00,00*7F
$GNGBS,121243.00,6.0,5.2,18.3,,,,*63
$GNTXT,01,01,01,More than 100 frame errors, UART RX was disabled*70
b0@8?
!Q|&}"!)8&/Sa   =e1{(4 Ta:R 
Y
j_
Ak!B%13ZCLMVW1^X
#7b8v$GNRMC,121244.00,A,0419.78103,S,05539.73414,E,0.510,,220525,,,A*7B
$GNVTG,,T,,M,0.510,N,0.944,K,A*30
$GNGNS,121244.00,0419.78103,S,05539.73414,E,AA,13,0.73,25.0,-47.6,,*62
$GNGGA,121244.00,0419.78103,S,05539.73414,E,1,12,0.73,25.0,M,-47.6,M,,*49
$GNGSA,A,3,32,28,27,18,26,31,16,29,,,,,1.77,0.73,1.62*11
$GNGSA,A,3,66,87,65,67,86,,,,,,,,1.77,0.73,1.62*1F
$GPGSV,5,1,17,08,06,319,,10,17,000,,16,25,244,15,18,33,081,20*7D
$GPGSV,5,2,17,23,03,038,,25,01,125,,26,29,213,21,27,41,312,33*7D
$GPGSV,5,3,17,28,47,154,25,29,15,147,19,31,32,188,21,32,61,357,32*75
$GPGSV,5,4,17,36,52,277,40,40,84,353,32,41,58,082,,49,32,274,*79
$GPGSV,5,5,17,50,10,089,*4A
$GLGSV,2,1,08,65,21,001,11,66,49,307,37,67,27,238,29,76,13,144,*66
$GLGSV,2,2,08,77,15,190,,86,17,134,15,87,49,094,22,88,35,005,10*66
$GNGLL,0419.78103,S,05539.73414,E,121244.00,A,A*64
$GNGRS,121244.00,1,-2.1,13.6,-2.2,-3.9,8.0,-0.3,14.6,-9.3,,,,*72
$GNGRS,121244.00,1,0.9,0.2,85.6,-17.7,15.0,,,,,,,*66
$GNGST,121244.00,59,,,,6.0,5.2,18*63
$GNZDA,121244.00,22,05,2025,00,00*78
$GNGBS,121244.00,6.0,5.2,18.3,,,,*64
$GNTXT,01,01,01,More than 100 frame errors, UART RX was disabled*70
b0@8?
!Q&}!)8/^  =e\{)4"Ta:R 
Yj
AB%13>CLMVJW1^X#Jb8zz$GNRMC,121245.00,A,0419.78105,S,05539.73418,E,0.121,,220525,,,A*76
$GNVTG,,T,,M,0.121,N,0.225,K,A*3A
$GNGNS,121245.00,0419.78105,S,05539.73418,E,AA,13,0.73,26.0,-47.6,,*6A
$GNGGA,121245.00,0419.78105,S,05539.73418,E,1,12,0.73,26.0,M,-47.6,M,,*41
$GNGSA,A,3,32,28,27,18,26,31,16,29,,,,,1.77,0.73,1.62*11
$GNGSA,A,3,66,87,65,67,86,,,,,,,,1.77,0.73,1.62*1F
$GPGSV,5,1,17,08,06,319,,10,17,000,,16,25,244,18,18,33,081,21*71
$GPGSV,5,2,17,23,03,038,,25,01,125,,26,29,213,22,27,41,312,33*7E
$GPGSV,5,3,17,28,47,154,25,29,15,147,19,31,32,188,18,32,61,357,31*7C
$GPGSV,5,4,17,36,52,277,41,40,84,353,34,41,58,082,,49,32,274,*7E
$GPGSV,5,5,17,50,10,089,*4A
$GLGSV,2,1,08,65,21,001,08,66,49,307,37,67,27,238,29,76,13,144,*6E
$GLGSV,2,2,08,77,15,190,,86,17,134,15,87,49,094,22,88,35,005,09*6E
$GNGLL,0419.78105,S,05539.73418,E,121245.00,A,A*6F
$GNGRS,121245.00,1,0.9,11.2,2.9,-4.9,7.6,-0.5,14.3,-10.6,,,,*44
$GNGRS,121245.00,1,0.6,1.8,9.5,-23.8,11.0,,,,,,,*58
$GNGST,121245.00,33259,,,,6.0,5.2,18*50
$GNZDA,121245.00,22,05,2025,00,00*79
$GNGBS,121245.00,6.0,5.2,18.3,,,,*65
$GNTXT,01,01,01,More than 100 frame errors, UART RX was disabled*70
b0@8?
!Q&}!)8/$   =e{(4"Ta:R 
Yj
AB%13#C%LMVW1^fX#u@b8b~o^$GNRMC,121246.00,A,0419.78101,S,05539.73419,E,0.211,,220525,,,A*70
$GNVTG,,T,,M,0.211,N,0.391,K,A*34
$GNGNS,121246.00,0419.78101,S,05539.73419,E,AA,14,0.69,26.7,-47.6,,*67
$GNGGA,121246.00,0419.78101,S,05539.73419,E,1,12,0.69,26.7,M,-47.6,M,,*4B
$GNGSA,A,3,32,28,27,18,26,31,16,29,,,,,1.75,0.69,1.60*1A
$GNGSA,A,3,66,87,65,88,67,86,,,,,,,1.75,0.69,1.60*14
$GPGSV,5,1,17,08,06,319,,10,17,000,,16,25,244,19,18,33,081,21*70
$GPGSV,5,2,17,23,03,038,07,25,01,125,,26,29,213,24,27,41,312,33*7F
$GPGSV,5,3,17,28,47,154,26,29,15,147,19,31,32,188,17,32,61,357,32*73
$GPGSV,5,4,17,36,52,277,40,40,84,353,34,41,58,082,,49,32,274,*7F
$GPGSV,5,5,17,50,10,089,*4A
$GLGSV,2,1,08,65,21,001,08,66,49,307,37,67,27,238,28,76,13,144,*6F
$GLGSV,2,2,08,77,15,190,,86,17,134,15,87,49,094,23,88,35,005,11*66
$GNGLL,0419.78101,S,05539.73419,E,121246.00,A,A*69
$GNGRS,121246.00,1,1.5,9.6,2.8,-3.5,6.8,-3.4,11.8,-9.9,,,,*49
$GNGRS,121246.00,1,0.3,1.0,9.3,9.2,-20.1,9.3,,,,,,*45
$GNGST,121246.00,48074,,,,6.0,5.1,18*51
$GNZDA,121246.00,22,05,2025,00,00*7A
$GNGBS,121246.00,6.0,5.1,18.3,,,,*65
$GNTXT,01,01,01,More than 100 frame errors, UART RX was disabled*70
b0@h8?
W!Q&/}')8c/   =e{'4"Ta:R 
Yj4
A0B%13"C?LMVW1^UX#57bh8JG$GNRMC,121247.00,A,0419.78084,S,05539.73429,E,0.172,,220525,,,A*78
$GNVTG,,T,,M,0.172,N,0.319,K,A*32
$GNGNS,121247.00,0419.78084,S,05539.73429,E,AA,14,0.69,26.1,-47.6,,*6F
$GNGGA,121247.00,0419.78084,S,05539.73429,E,1,12,0.69,26.1,M,-47.6,M,,*43
$GNGSA,A,3,32,28,27,18,26,31,16,29,,,,,1.75,0.69,1.60*1A
$GNGSA,A,3,66,87,65,88,67,86,,,,,,,1.75,0.69,1.60*14
$GPGSV,5,1,17,08,06,319,,10,17,000,,16,25,244,19,18,33,081,18*7A
$GPGSV,5,2,17,23,03,038,07,25,01,125,,26,29,213,24,27,41,312,31*7D
$GPGSV,5,3,17,28,47,154,26,29,15,147,19,31,32,188,18,32,61,357,32*7C
$GPGSV,5,4,17,36,52,277,39,40,84,353,34,41,58,082,,49,32,274,*71
$GPGSV,5,5,17,50,10,089,*4A
$GLGSV,2,1,08,65,21,001,12,66,49,307,37,67,27,238,26,76,13,144,*6A
$GLGSV,2,2,08,77,15,190,,86,17,134,15,87,49,094,23,88,35,005,13*64
$GNGLL,0419.78084,S,05539.73429,E,121247.00,A,A*67
$GNGRS,121247.00,1,2.8,7.7,6.1,-2.3,8.1,-3.7,8.5,-10.2,,,,*41
$GNGRS,121247.00,1,0.3,-1.7,77.3,8.2,-12.2,8.0,,,,,,*56
$GNGST,121247.00,60,,,,6.0,5.1,18*69
$GNZDA,121247.00,22,05,2025,00,00*7B
$GNGBS,121247.00,6.0,5.1,18.2,,,,*65
$GNTXT,01,01,01,More than 100 frame errors, UART RX was disabled*70
b0@P8?
)!Q&}>)8/)  =e^{'4!Ta:R 
Yj^
ARB%13!CLMV~W1^'X#|bP82.$GNRMC,121248.00,A,0419.78068,S,05539.73443,E,0.083,,220525,,,A*76
$GNVTG,,T,,M,0.083,N,0.153,K,A*31
$GNGNS,121248.00,0419.78068,S,05539.73443,E,AA,14,0.69,25.2,-47.6,,*6E
$GNGGA,121248.00,0419.78068,S,05539.73443,E,1,12,0.69,25.2,M,-47.6,M,,*42
$GNGSA,A,3,32,28,27,18,26,31,16,29,,,,,1.74,0.69,1.60*1B
$GNGSA,A,3,66,87,65,88,67,86,,,,,,,1.74,0.69,1.60*15
$GPGSV,5,1,17,08,06,319,,10,17,000,,16,25,244,20,18,33,081,16*7E
$GPGSV,5,2,17,23,03,038,11,25,01,125,,26,29,213,23,27,41,312,30*7C
$GPGSV,5,3,17,28,47,154,27,29,15,147,18,31,32,188,20,32,61,357,30*75
$GPGSV,5,4,17,36,52,277,39,40,84,353,33,41,58,082,,49,32,274,*76
$GPGSV,5,5,17,50,10,089,*4A
$GLGSV,2,1,08,65,21,001,12,66,49,307,37,67,27,238,26,76,13,144,*6A
$GLGSV,2,2,08,77,15,190,,86,17,134,14,87,49,094,24,88,35,005,11*60
$GNGLL,0419.78068,S,05539.73443,E,121248.00,A,A*66
$GNGRS,121248.00,1,0.9,5.5,7.9,-2.3,8.3,-3.5,3.0,-8.1,,,,*70
$GNGRS,121248.00,1,0.3,-2.2,8.5,11.6,-11.0,6.4,,,,,,*56
$GNGST,121248.00,3179277,,,,6.0,5.1,18*5E
$GNZDA,121248.00,22,05,2025,00,00*74
$GNGBS,121248.00,6.0,5.1,18.3,,,,*6B
$GNTXT,01,01,01,More than 100 frame errors, UART RX was disabled*70
b0@88?
!Q&}o)8"/  =e{(4"Ta:R 
Yj$
AMB$13'CLMV>W1^iX#uJb88$GNRMC,121249.00,A,0419.78066,S,05539.73443,E,0.101,,220525,,,A*72
$GNVTG,,T,,M,0.101,N,0.188,K,A*3C
$GNGNS,121249.00,0419.78066,S,05539.73443,E,AA,14,0.69,25.7,-47.6,,*64
$GNGGA,121249.00,0419.78066,S,05539.73443,E,1,12,0.69,25.7,M,-47.6,M,,*48
$GNGSA,A,3,32,28,27,18,26,31,16,29,,,,,1.74,0.69,1.60*1B
$GNGSA,A,3,66,87,65,88,67,86,,,,,,,1.74,0.69,1.60*15
$GPGSV,5,1,17,08,06,319,,10,17,000,,16,25,244,21,18,33,081,18*71
$GPGSV,5,2,17,23,03,038,12,25,01,125,,26,29,213,23,27,41,312,31*7E
$GPGSV,5,3,17,28,47,154,28,29,15,147,17,31,32,188,19,32,61,357,21*7F
$GPGSV,5,4,17,36,52,277,40,40,84,353,34,41,58,082,,49,32,274,*7F
$GPGSV,5,5,17,50,10,089,*4A
$GLGSV,2,1,08,65,21,001,12,66,49,307,36,67,27,238,27,76,13,144,*6A
$GLGSV,2,2,08,77,15,190,,86,17,134,14,87,49,094,24,88,35,005,11*60
$GNGLL,0419.78066,S,05539.73443,E,121249.00,A,A*69
$GNGRS,121249.00,1,7.5,5.1,5.5,-2.6,8.8,-2.9,2.7,-7.4,,,,*7F
$GNGRS,121249.00,1,0.4,-4.1,8.5,11.4,-15.1,5.7,,,,,,*52
$GNGST,121249.00,3179277,,,,6.0,5.1,18*5F
$GNZDA,121249.00,22,05,2025,00,00*75
$GNGBS,121249.00,6.0,5.1,18.3,,,,*6A
$GNTXT,01,01,01,More than 100 frame errors, UART RX was disabled*70
b0@ 8?
!QQ&;} )8/8 I =e{'4!Ta:R 
Yj
AB$134CLLMVW1^X#b 8$GNRMC,121250.00,A,0419.78056,S,05539.73459,E,0.144,,220525,,,A*73
$GNVTG,,T,,M,0.144,N,0.267,K,A*3F
$GNGNS,121250.00,0419.78056,S,05539.73459,E,AA,13,0.70,24.9,-47.6,,*64
$GNGGA,121250.00,0419.78056,S,05539.73459,E,1,12,0.70,24.9,M,-47.6,M,,*4F
$GNGSA,A,3,32,28,27,18,26,31,16,29,,,,,1.64,0.70,1.48*18
$GNGSA,A,3,66,87,65,67,86,,,,,,,,1.64,0.70,1.48*16
$GPGSV,5,1,17,08,06,319,,10,17,000,,16,25,244,20,18,33,081,20*7B
$GPGSV,5,2,17,23,03,038,09,25,01,125,,26,29,213,25,27,41,312,32*71
$GPGSV,5,3,17,28,47,154,28,29,15,147,20,31,32,188,20,32,61,357,20*70
$GPGSV,5,4,17,36,52,277,39,40,84,353,33,41,58,082,31,49,32,274,*74
$GPGSV,5,5,17,50,10,089,*4A
$GLGSV,2,1,08,65,21,001,09,66,49,307,36,67,27,238,26,76,13,144,*61
$GLGSV,2,2,08,77,15,190,,86,17,134,16,87,49,094,23,88,35,005,09*6C
$GNGLL,0419.78056,S,05539.73459,E,121250.00,A,A*69
$GNGRS,121250.00,1,10.3,5.7,-0.5,-1.7,6.7,-1.8,2.6,-4.9,,,,*67
$GNGRS,121250.00,1,0.5,-6.0,-20.3,-14.6,4.8,,,,,,,*5B
$GNGST,121250.00,56,,,,5.9,5.1,18*60
$GNZDA,121250.00,22,05,2025,00,00*7D
$GNGBS,121250.00,5.9,5.1,18.1,,,,*6A
$GNTXT,01,01,01,More than 100 frame errors, UART RX was disabled*70
b0@8?
2!Q&})8/  =e{'4!Ta :R 
Yj
AB$13&CLMVW1^X#b8c$GNRMC,121251.00,A,0419.78053,S,05539.73466,E,0.112,,220525,,,A*78
$GNVTG,,T,,M,0.112,N,0.207,K,A*3A
$GNGNS,121251.00,0419.78053,S,05539.73466,E,AA,12,0.71,24.6,-47.6,,*63
$GNGGA,121251.00,0419.78053,S,05539.73466,E,1,12,0.71,24.6,M,-47.6,M,,*49
$GNGSA,A,3,28,27,18,26,31,16,29,,,,,,1.78,0.71,1.63*1C
$GNGSA,A,3,66,87,65,67,86,,,,,,,,1.78,0.71,1.63*13
$GPGSV,5,1,17,08,06,319,,10,17,000,19,16,25,244,17,18,33,081,23*74
$GPGSV,5,2,17,23,03,038,07,25,01,125,,26,29,213,25,27,41,312,31*7C
$GPGSV,5,3,17,28,47,154,27,29,15,147,21,31,32,188,23,32,61,357,*7F
$GPGSV,5,4,17,36,52,277,39,40,84,353,33,41,58,082,32,49,32,274,*77
$GPGSV,5,5,17,50,10,089,*4A
$GLGSV,2,1,08,65,21,001,09,66,49,307,36,67,27,238,25,76,13,144,*62
$GLGSV,2,2,08,77,15,190,,86,17,134,14,87,49,094,22,88,35,005,08*6E
$GNGLL,0419.78053,S,05539.73466,E,121251.00,A,A*61
$GNGRS,121251.00,1,4.9,0.3,-2.4,5.3,-0.3,0.5,-2.9,,,,,*54
$GNGRS,121251.00,1,0.4,-7.9,9.2,-12.8,4.4,,,,,,,*40
$GNGST,121251.00,3299292,,,,5.8,5.0,18*5A
$GNZDA,121251.00,22,05,2025,00,00*7C
$GNGBS,121251.00,5.8,5.0,17.9,,,,*6C
$GNTXT,01,01,01,More than 100 frame errors, UART RX was disabled*70
b0@8?
!Q+&`} )8/y z =e{'4"Ta:R 
Yj
A
aB$138C5LMV/W1^X#@b8}$GNRMC,121252.00,A,0419.78044,S,05539.73474,E,0.171,,220525,,,A*7B
$GNVTG,,T,,M,0.171,N,0.317,K,A*3F
$GNGNS,121252.00,0419.78044,S,05539.73474,E,AA,11,0.75,23.7,-47.6,,*64
$GNGGA,121252.00,0419.78044,S,05539.73474,E,1,11,0.75,23.7,M,-47.6,M,,*4E
$GNGSA,A,3,28,27,18,26,31,29,,,,,,,1.84,0.75,1.68*17
$GNGSA,A,3,66,87,65,67,86,,,,,,,,1.84,0.75,1.68*1F
$GPGSV,5,1,17,08,06,319,,10,17,000,18,16,25,244,14,18,33,081,24*71
$GPGSV,5,2,17,23,03,038,11,25,01,125,,26,29,213,25,27,41,312,32*78
$GPGSV,5,3,17,28,47,154,29,29,15,147,22,31,32,188,25,32,61,357,*74
$GPGSV,5,4,17,36,52,277,39,40,84,353,34,41,58,082,31,49,32,274,*73
$GPGSV,5,5,17,50,10,089,*4A
$GLGSV,2,1,08,65,21,001,10,66,49,307,36,67,27,238,24,76,13,144,*6B
$GLGSV,2,2,08,77,15,190,,86,17,134,15,87,49,094,22,88,35,005,09*6E
$GNGLL,0419.78044,S,05539.73474,E,121252.00,A,A*67
$GNGRS,121252.00,1,0.0,-0.5,-4.7,7.1,1.2,-3.9,,,,,,*73
$GNGRS,121252.00,1,0.6,-8.5,8.6,-12.3,3.0,,,,,,,*4F
$GNGST,121252.00,3434011,,,,5.8,5.0,18*51
$GNZDA,121252.00,22,05,2025,00,00*7F
$GNGBS,121252.00,5.8,5.0,17.7,16,,7.8,76.6*5E
$GNTXT,01,01,01,More than 100 frame errors, UART RX was disabled*70
b0@8?
!Q
&8}N")8c/g  =e{&4!Ta:R 
Yj
AjB&13-CLMVW1^X#Db8U$$GNRMC,121253.00,A,0419.78054,S,05539.73462,E,0.351,,220525,,,A*7C
$GNVTG,,T,,M,0.351,N,0.649,K,A*31
$GNGNS,121253.00,0419.78054,S,05539.73462,E,AA,11,0.75,24.0,-47.6,,*63
$GNGGA,121253.00,0419.78054,S,05539.73462,E,1,11,0.75,24.0,M,-47.6,M,,*49
$GNGSA,A,3,28,27,18,26,31,29,,,,,,,1.84,0.75,1.68*17
$GNGSA,A,3,66,87,65,67,86,,,,,,,,1.84,0.75,1.68*1F
$GPGSV,5,1,17,08,06,319,,10,17,000,19,16,25,244,,18,33,081,24*75
$GPGSV,5,2,17,23,03,038,10,25,01,125,04,26,29,213,23,27,41,312,34*7D
$GPGSV,5,3,17,28,47,154,30,29,15,147,20,31,32,188,24,32,61,357,*7F
$GPGSV,5,4,17,36,52,277,38,40,84,353,33,41,58,082,29,49,32,274,*7C
$GPGSV,5,5,17,50,10,089,*4A
$GLGSV,2,1,08,65,21,001,13,66,49,307,38,67,27,238,24,76,13,144,*66
$GLGSV,2,2,08,77,15,190,,86,17,134,15,87,49,094,22,88,35,005,11*67
$GNGLL,0419.78054,S,05539.73462,E,121253.00,A,A*60
$GNGRS,121253.00,1,1.0,1.0,-8.3,8.5,5.3,-3.7,,,,,,*52
