$GNRMC,114539.00,A,0420.00802,S,05539.75652,E,1.308,,020625,,,A*74
$GNVTG,,T,,M,1.308,N,2.423,K,A*30
$GNGGA,114539.00,0420.00802,S,05539.75652,E,1,12,0.86,27.3,M,-47.6,M,,*42
$GNGSA,A,3,32,26,28,18,16,31,27,,,,,,2.01,0.86,1.81*1F
$GNGSA,A,3,69,81,82,79,80,83,,,,,,,2.01,0.86,1.81*18
$GPGSV,4,1,16,08,12,315,,10,15,007,,16,24,236,20,18,33,091,22*70
$GPGSV,4,2,16,23,01,045,11,26,28,204,26,27,47,303,07,28,52,142,23*7F
$GPGSV,4,3,16,29,09,148,05,31,38,182,30,32,52,001,17,36,52,277,*73
$GPGSV,4,4,16,40,84,353,29,41,58,082,,49,32,274,,50,10,089,*72
$GLGSV,3,1,09,68,11,008,,69,41,324,16,70,24,244,17,79,13,134,08*67
$GLGSV,3,2,09,80,15,186,22,81,13,143,20,82,51,107,23,83,47,016,13*65
$GLGSV,3,3,09,84,02,343,*56
$GNGLL,0420.00802,S,05539.75652,E,114539.00,A,A*64
$GNRMC,114540.00,A,0420.00804,S,05539.75625,E,1.597,,020625,,,A*7C
$GNVTG,,T,,M,1.597,N,2.957,K,A*3E
$GNGGA,114540.00,0420.00804,S,05539.75625,E,1,12,0.93,27.5,M,-47.6,M,,*48
$GNGSA,A,3,32,26,28,18,31,27,,,,,,,2.06,0.93,1.84*1E
$GNGSA,A,3,69,81,82,79,80,83,,,,,,,2.06,0.93,1.84*1E
$GPGSV,4,1,16,08,12,315,,10,15,007,,16,24,236,,18,33,091,24*74
$GPGSV,4,2,16,23,01,045,10,26,28,204,27,27,47,303,09,28,52,142,21*73
$GPGSV,4,3,16,29,09,148,08,31,38,182,22,32,52,001,18,36,52,277,*72
$GPGSV,4,4,16,40,84,353,28,41,58,082,,49,32,274,,50,10,089,*73
$GLGSV,3,1,09,68,11,008,,69,41,324,15,70,24,244,16,79,13,134,08*65
$GLGSV,3,2,09,80,15,186,11,81,13,143,17,82,51,107,21,83,47,016,11*61
$GLGSV,3,3,09,84,02,343,*56
$GNGLL,0420.00804,S,05539.75625,E,114540.00,A,A*6C
$GNRMC,114541.00,A,0420.00833,S,05539.75628,E,0.247,,020625,,,A*7F
$GNVTG,,T,,M,0.247,N,0.457,K,A*3A
$GNGGA,114541.00,0420.00833,S,05539.75628,E,1,12,0.93,27.4,M,-47.6,M,,*41
$GNGSA,A,3,32,26,28,18,31,27,,,,,,,2.06,0.93,1.84*1E
$GNGSA,A,3,69,81,82,79,80,83,,,,,,,2.06,0.93,1.84*1E
$GPGSV,4,1,16,08,12,315,,10,15,007,,16,24,236,17,18,33,091,25*73
$GPGSV,4,2,16,23,01,045,08,26,28,204,28,27,47,303,14,28,52,142,20*78
$GPGSV,4,3,16,29,09,148,10,31,38,182,22,32,52,001,21,36,52,277,*71
$GPGSV,4,4,16,40,84,353,28,41,58,082,,49,32,274,,50,10,089,*73
$GLGSV,3,1,09,68,11,008,,69,41,324,15,70,24,244,14,79,13,134,18*66
$GLGSV,3,2,09,80,15,186,12,81,13,143,14,82,51,107,19,83,47,016,17*6C
$GLGSV,3,3,09,84,02,343,*56
$GNGLL,0420.00833,S,05539.75628,E,114541.00,A,A*64
$GNRMC,114542.00,A,0420.00845,S,05539.75626,E,0.087,,020625,,,A*7D
$GNVTG,,T,,M,0.087,N,0.161,K,A*34
$GNGGA,114542.00,0420.00845,S,05539.75626,E,1,12,0.93,27.6,M,-47.6,M,,*4F
$GNGSA,A,3,32,26,28,18,31,27,,,,,,,2.06,0.93,1.84*1E
$GNGSA,A,3,69,81,82,79,80,83,,,,,,,2.06,0.93,1.84*1E
$GPGSV,4,1,16,08,12,315,,10,15,007,,16,24,236,17,18,33,091,24*72
$GPGSV,4,2,16,23,01,045,12,26,28,204,29,27,47,303,18,28,52,142,21*7F
$GPGSV,4,3,16,29,09,148,11,31,38,182,23,32,52,001,22,36,52,277,*72
$GPGSV,4,4,16,40,84,353,28,41,58,082,,49,32,274,,50,10,089,*73
$GLGSV,3,1,09,68,11,008,,69,41,324,16,70,24,244,16,79,13,134,16*69
$GLGSV,3,2,09,80,15,186,15,81,13,143,18,82,51,107,20,83,47,016,11*6B
$GLGSV,3,3,09,84,02,343,*56
$GNGLL,0420.00845,S,05539.75626,E,114542.00,A,A*68
$GNRMC,114543.00,A,0420.00883,S,05539.75648,E,0.760,,020625,,,A*70
$GNVTG,,T,,M,0.760,N,1.407,K,A*3E
$GNGGA,114543.00,0420.00883,S,05539.75648,E,1,12,0.92,28.3,M,-47.6,M,,*47
$GNGSA,A,3,32,29,26,28,18,31,27,,,,,,1.92,0.92,1.69*19
$GNGSA,A,3,69,81,82,79,80,83,,,,,,,1.92,0.92,1.69*12
$GPGSV,4,1,16,08,12,315,,10,15,007,,16,24,236,17,18,33,091,24*72
$GPGSV,4,2,16,23,01,045,09,26,28,204,29,27,47,303,17,28,52,142,22*79
$GPGSV,4,3,16,29,09,148,09,31,38,182,25,32,52,001,21,36,52,277,*7E
$GPGSV,4,4,16,40,84,353,28,41,58,082,,49,32,274,,50,10,089,*73
$GLGSV,3,1,09,68,11,008,,69,41,324,18,70,24,244,,79,13,134,16*60
$GLGSV,3,2,09,80,15,186,19,81,13,143,21,82,51,107,21,83,47,016,17*6A
$GLGSV,3,3,09,84,02,343,*56
$GNGLL,0420.00883,S,05539.75648,E,114543.00,A,A*6B
$GNRMC,114544.00,A,0420.00888,S,05539.75641,E,0.099,,020625,,,A*74
$GNVTG,,T,,M,0.099,N,0.183,K,A*37
$GNGGA,114544.00,0420.00888,S,05539.75641,E,1,12,0.92,28.8,M,-47.6,M,,*49
$GNGSA,A,3,32,29,26,28,18,31,27,,,,,,1.92,0.92,1.68*18
$GNGSA,A,3,69,81,82,79,80,83,,,,,,,1.92,0.92,1.68*13
$GPGSV,4,1,16,08,12,315,,10,15,007,,16,24,236,15,18,33,091,27*73
$GPGSV,4,2,16,23,01,045,09,26,28,204,31,27,47,303,17,28,52,142,25*77
$GPGSV,4,3,16,29,09,148,12,31,38,182,27,32,52,001,22,36,52,277,*75
$GPGSV,4,4,16,40,84,353,28,41,58,082,,49,32,274,,50,10,089,*73
$GLGSV,3,1,09,68,11,008,,69,41,324,19,70,24,244,,79,13,134,17*60
$GLGSV,3,2,09,80,15,186,20,81,13,143,21,82,51,107,22,83,47,016,07*62
$GLGSV,3,3,09,84,02,343,*56
$GNGLL,0420.00888,S,05539.75641,E,114544.00,A,A*6E
$GNRMC,114545.00,A,0420.00929,S,05539.75637,E,1.207,,020625,,,A*7A
$GNVTG,,T,,M,1.207,N,2.236,K,A*3C
$GNGGA,114545.00,0420.00929,S,05539.75637,E,1,12,0.86,26.8,M,-47.6,M,,*48
$GNGSA,A,3,32,29,26,28,18,16,31,27,,,,,2.01,0.86,1.81*14
$GNGSA,A,3,69,81,82,79,80,83,,,,,,,2.01,0.86,1.81*18
$GPGSV,4,1,16,08,12,315,,10,15,007,,16,24,236,18,18,33,091,26*7F
$GPGSV,4,2,16,23,01,045,09,26,28,204,29,27,47,303,16,28,52,142,23*79
$GPGSV,4,3,16,29,09,148,13,31,38,182,27,32,52,001,22,36,52,277,*74
$GPGSV,4,4,16,40,84,353,27,41,58,082,,49,32,274,,50,10,089,*7C
$GLGSV,3,1,09,68,11,008,,69,41,324,19,70,24,244,,79,13,134,15*62
$GLGSV,3,2,09,80,15,186,20,81,13,143,19,82,51,107,21,83,47,016,12*6E
$GLGSV,3,3,09,84,02,343,*56
$GNGLL,0420.00929,S,05539.75637,E,114545.00,A,A*64
$GNRMC,114546.00,A,0420.00986,S,05539.75649,E,1.084,,020625,,,A*7C
$GNVTG,,T,,M,1.084,N,2.007,K,A*35
$GNGGA,114546.00,0420.00986,S,05539.75649,E,1,12,0.86,27.7,M,-47.6,M,,*49
$GNGSA,A,3,32,29,26,28,18,16,31,27,,,,,2.01,0.86,1.81*14
$GNGSA,A,3,69,81,82,79,80,83,,,,,,,2.01,0.86,1.81*18
$GPGSV,4,1,16,08,12,315,,10,15,007,,16,24,236,20,18,33,091,26*74
$GPGSV,4,2,16,23,01,045,09,26,28,204,29,27,47,303,18,28,52,142,22*76
$GPGSV,4,3,16,29,09,148,08,31,38,182,27,32,52,001,22,36,52,277,*7E
$GPGSV,4,4,16,40,84,353,,41,58,082,,49,32,274,,50,10,089,*79
$GLGSV,3,1,09,68,11,008,,69,41,324,16,70,24,244,,79,13,134,14*6C
$GLGSV,3,2,09,80,15,186,19,81,13,143,18,82,51,107,22,83,47,016,15*61
$GLGSV,3,3,09,84,02,343,*56
$GNGLL,0420.00986,S,05539.75649,E,114546.00,A,A*6B
$GNRMC,114547.00,A,0420.00985,S,05539.75648,E,0.764,,020625,,,A*77
$GNVTG,,T,,M,0.764,N,1.416,K,A*3A
$GNGGA,114547.00,0420.00985,S,05539.75648,E,1,12,0.86,27.0,M,-47.6,M,,*4D
$GNGSA,A,3,32,29,26,28,18,16,31,27,,,,,2.01,0.86,1.81*14
$GNGSA,A,3,69,81,82,79,80,83,,,,,,,2.01,0.86,1.81*18
$GPGSV,4,1,16,08,12,315,,10,15,007,,16,24,236,19,18,33,091,25*7D
$GPGSV,4,2,16,23,01,045,09,26,28,204,21,27,47,303,20,28,52,142,24*73
$GPGSV,4,3,16,29,09,148,15,31,38,182,26,32,52,001,20,36,52,277,*71
$GPGSV,4,4,16,40,84,353,,41,58,082,,49,32,274,,50,10,089,*79
$GLGSV,3,1,09,68,11,008,,69,41,324,16,70,24,244,18,79,13,134,12*63
$GLGSV,3,2,09,80,15,186,17,81,13,143,18,82,51,107,20,83,47,016,14*6C
$GLGSV,3,3,09,84,02,343,*56
$GNGLL,0420.00985,S,05539.75648,E,114547.00,A,A*68
$GNRMC,114548.00,A,0420.01013,S,05539.75650,E,0.504,,020625,,,A*72
$GNVTG,,T,,M,0.504,N,0.934,K,A*32
$GNGGA,114548.00,0420.01013,S,05539.75650,E,1,12,0.85,27.7,M,-47.6,M,,*48
$GNGSA,A,3,32,29,26,28,18,16,31,27,,,,,1.87,0.85,1.66*13
$GNGSA,A,3,69,81,82,79,80,83,,,,,,,1.87,0.85,1.66*1F
$GPGSV,4,1,16,08,12,315,,10,15,007,,16,24,236,19,18,33,091,26*7E
$GPGSV,4,2,16,23,01,045,09,26,28,204,26,27,47,303,20,28,52,142,25*75
$GPGSV,4,3,16,29,09,148,10,31,38,182,26,32,52,001,19,36,52,277,*7E
$GPGSV,4,4,16,40,84,353,,41,58,082,,49,32,274,,50,10,089,*79
$GLGSV,3,1,09,68,11,008,,69,41,324,16,70,24,244,17,79,13,134,12*6C
$GLGSV,3,2,09,80,15,186,16,81,13,143,17,82,51,107,19,83,47,016,09*64
$GLGSV,3,3,09,84,02,343,*56
$GNGLL,0420.01013,S,05539.75650,E,114548.00,A,A*69
$GNRMC,114549.00,A,0420.01066,S,05539.75690,E,1.666,,020625,,,A*7B
$GNVTG,,T,,M,1.666,N,3.086,K,A*37
$GNGGA,114549.00,0420.01066,S,05539.75690,E,1,12,0.86,27.5,M,-47.6,M,,*46
$GNGSA,A,3,32,29,26,28,18,16,31,27,,,,,2.00,0.86,1.81*15
$GNGSA,A,3,69,81,82,79,80,83,,,,,,,2.00,0.86,1.81*19
$GPGSV,4,1,16,08,12,315,,10,15,007,,16,24,236,16,18,33,091,26*71
$GPGSV,4,2,16,23,01,045,10,26,28,204,30,27,47,303,20,28,52,142,24*7B
$GPGSV,4,3,16,29,09,148,15,31,38,182,26,32,52,001,19,36,52,277,*7B
$GPGSV,4,4,16,40,84,353,,41,58,082,,49,32,274,,50,10,089,*79
$GLGSV,3,1,09,68,11,008,,69,41,324,16,70,24,244,16,79,13,134,15*6A
$GLGSV,3,2,09,80,15,186,18,81,13,143,17,82,51,107,20,83,47,016,09*60
$GLGSV,3,3,09,84,02,343,*56
$GNGLL,0420.01066,S,05539.75690,E,114549.00,A,A*66
$GNRMC,114550.00,A,0420.01122,S,05539.75727,E,1.870,112.83,020625,,,A*61
$GNVTG,112.83,T,,M,1.870,N,3.463,K,A*26
$GNGGA,114550.00,0420.01122,S,05539.75727,E,1,12,0.86,25.8,M,-47.6,M,,*4D
$GNGSA,A,3,32,29,26,28,18,16,31,27,,,,,2.00,0.86,1.81*15
$GNGSA,A,3,69,81,82,79,80,83,,,,,,,2.00,0.86,1.81*19
$GPGSV,4,1,16,08,12,315,,10,15,007,,16,24,236,12,18,33,091,26*75
$GPGSV,4,2,16,23,01,045,08,26,28,204,28,27,47,303,18,28,52,142,23*77
$GPGSV,4,3,16,29,09,148,14,31,38,182,23,32,52,001,19,36,52,277,*7F
$GPGSV,4,4,16,40,84,353,,41,58,082,,49,32,274,,50,10,089,*79
$GLGSV,3,1,09,68,11,008,,69,41,324,14,70,24,244,14,79,13,134,14*6B
$GLGSV,3,2,09,80,15,186,18,81,13,143,16,82,51,107,20,83,47,016,12*6B
$GLGSV,3,3,09,84,02,343,*56
$GNGLL,0420.01122,S,05539.75727,E,114550.00,A,A*62
$GNRMC,114551.00,A,0420.01137,S,05539.75751,E,1.178,,020625,,,A*73
$GNVTG,,T,,M,1.178,N,2.181,K,A*38
$GNGGA,114551.00,0420.01137,S,05539.75751,E,1,12,0.85,26.5,M,-47.6,M,,*44
$GNGSA,A,3,32,29,26,28,18,16,31,27,,,,,1.87,0.85,1.66*13
$GNGSA,A,3,69,81,82,79,80,83,,,,,,,1.87,0.85,1.66*1F
$GPGSV,4,1,16,08,12,315,,10,15,007,,16,24,236,15,18,33,091,27*73
$GPGSV,4,2,16,23,01,045,08,26,28,204,25,27,47,303,20,28,52,142,23*71
$GPGSV,4,3,16,29,09,148,12,31,38,182,24,32,52,001,21,36,52,277,*75
$GPGSV,4,4,16,40,84,353,,41,58,082,,49,32,274,,50,10,089,*79
$GLGSV,3,1,09,68,11,008,,69,41,324,11,70,24,244,14,79,13,134,15*6F
$GLGSV,3,2,09,80,15,186,18,81,13,143,17,82,51,107,20,83,47,016,16*6E
$GLGSV,3,3,09,84,02,343,*56
$GNGLL,0420.01137,S,05539.75751,E,114551.00,A,A*66
$GNRMC,114552.00,A,0420.01157,S,05539.75764,E,1.197,,020625,,,A*71
$GNVTG,,T,,M,1.197,N,2.217,K,A*35
$GNGGA,114552.00,0420.01157,S,05539.75764,E,1,12,0.91,26.4,M,-47.6,M,,*43
$GNGSA,A,3,32,29,26,28,18,16,31,27,,,,,2.03,0.91,1.82*13
$GNGSA,A,3,69,81,82,79,80,,,,,,,,2.03,0.91,1.82*14
$GPGSV,4,1,16,08,12,315,,10,15,007,,16,24,236,17,18,33,091,27*71
$GPGSV,4,2,16,23,01,045,08,26,28,204,24,27,47,303,19,28,52,142,23*7A
$GPGSV,4,3,16,29,09,148,09,31,38,182,22,32,52,001,19,36,52,277,*72
$GPGSV,4,4,16,40,84,353,,41,58,082,,49,32,274,,50,10,089,*79
$GLGSV,3,1,09,68,11,008,,69,41,324,14,70,24,244,14,79,13,134,13*6C
$GLGSV,3,2,09,80,15,186,18,81,13,143,18,82,51,107,21,83,47,016,06*61
$GLGSV,3,3,09,84,02,343,*56
$GNGLL,0420.01157,S,05539.75764,E,114552.00,A,A*65
$GNRMC,114553.00,A,0420.01173,S,05539.75774,E,0.842,,020625,,,A*77
$GNVTG,,T,,M,0.842,N,1.559,K,A*3B
$GNGGA,114553.00,0420.01173,S,05539.75774,E,1,12,0.86,25.8,M,-47.6,M,,*4C
$GNGSA,A,3,32,29,26,28,18,16,31,27,,,,,2.00,0.86,1.81*15
$GNGSA,A,3,69,81,82,79,80,83,,,,,,,2.00,0.86,1.81*19
$GPGSV,4,1,16,08,12,315,,10,15,008,,16,24,236,14,18,33,091,27*7D
$GPGSV,4,2,16,23,01,045,08,26,28,204,25,27,47,303,18,28,52,142,24*7D
$GPGSV,4,3,16,29,09,148,10,31,38,182,25,32,52,001,22,36,52,277,*75
$GPGSV,4,4,16,40,84,353,,41,58,082,,49,32,274,,50,10,089,*79
$GLGSV,3,1,09,68,11,008,,69,41,324,16,70,24,244,15,79,13,134,11*6D
$GLGSV,3,2,09,80,15,186,19,81,13,143,19,82,51,107,22,83,47,016,13*66
$GLGSV,3,3,09,84,02,343,*56
$GNGLL,0420.01173,S,05539.75774,E,114553.00,A,A*63
$GNRMC,114554.00,A,0420.01205,S,05539.75802,E,0.692,,020625,,,A*7F
$GNVTG,,T,,M,0.692,N,1.281,K,A*3A
$GNGGA,114554.00,0420.01205,S,05539.75802,E,1,12,0.86,26.5,M,-47.6,M,,*49
$GNGSA,A,3,32,29,26,28,18,16,31,27,,,,,2.00,0.86,1.81*15
$GNGSA,A,3,69,81,82,79,80,83,,,,,,,2.00,0.86,1.81*19
$GPGSV,4,1,16,08,12,315,,10,15,008,,16,24,236,10,18,33,091,26*78
$GPGSV,4,2,16,23,01,045,08,26,28,204,25,27,47,303,17,28,52,142,24*72
$GPGSV,4,3,16,29,09,148,08,31,38,182,24,32,52,001,23,36,52,277,*7C
$GPGSV,4,4,16,40,84,353,,41,58,082,,49,32,274,,50,10,089,*79
$GLGSV,3,1,09,68,11,008,,69,41,324,15,70,24,244,14,79,13,134,10*6E
$GLGSV,3,2,09,80,15,186,17,81,13,143,16,82,51,107,22,83,47,016,09*6C
$GLGSV,3,3,09,84,02,343,*56
$GNGLL,0420.01205,S,05539.75802,E,114554.00,A,A*68
$GNRMC,114555.00,A,0420.01237,S,05539.75826,E,0.898,,020625,,,A*7D
$GNVTG,,T,,M,0.898,N,1.663,K,A*36
$GNGGA,114555.00,0420.01237,S,05539.75826,E,1,12,0.86,27.3,M,-47.6,M,,*48
$GNGSA,A,3,32,29,26,28,18,16,31,27,,,,,2.00,0.86,1.81*15
$GNGSA,A,3,69,81,82,79,80,83,,,,,,,2.00,0.86,1.81*19
$GPGSV,4,1,16,08,12,315,,10,15,008,,16,24,236,14,18,33,091,26*7C
$GPGSV,4,2,16,23,01,045,10,26,28,204,25,27,47,303,16,28,52,142,26*78
$GPGSV,4,3,16,29,09,148,10,31,38,182,24,32,52,001,21,36,52,277,*77
$GPGSV,4,4,16,40,84,353,,41,58,082,,49,32,274,,50,10,089,*79
$GLGSV,3,1,09,68,11,008,,69,41,324,14,70,24,244,15,79,13,134,11*6F
$GLGSV,3,2,09,80,15,186,16,81,13,143,11,82,51,107,22,83,47,016,10*62
$GLGSV,3,3,09,84,02,343,*56
$GNGLL,0420.01237,S,05539.75826,E,114555.00,A,A*6E
$GNRMC,114556.00,A,0420.01237,S,05539.75827,E,0.557,,020625,,,A*71
$GNVTG,,T,,M,0.557,N,1.031,K,A*39
$GNGGA,114556.00,0420.01237,S,05539.75827,E,1,12,0.86,27.4,M,-47.6,M,,*4D
$GNGSA,A,3,32,29,26,28,18,16,31,27,,,,,2.00,0.86,1.81*15
$GNGSA,A,3,69,81,82,79,80,83,,,,,,,2.00,0.86,1.81*19
$GPGSV,4,1,16,08,12,315,,10,15,008,,16,24,236,15,18,33,091,28*73
$GPGSV,4,2,16,23,01,045,07,26,28,204,26,27,47,303,17,28,52,142,33*78
$GPGSV,4,3,16,29,09,148,14,31,38,182,22,32,52,001,23,36,52,277,*77
$GPGSV,4,4,16,40,84,353,,41,58,082,,49,32,274,,50,10,089,*79
$GLGSV,3,1,09,68,11,008,,69,41,324,19,70,24,244,18,79,13,134,16*68
$GLGSV,3,2,09,80,15,186,16,81,13,143,15,82,51,107,22,83,47,016,19*6F
$GLGSV,3,3,09,84,02,343,*56
$GNGLL,0420.01237,S,05539.75827,E,114556.00,A,A*6C
$GNRMC,114557.00,A,0420.01223,S,05539.75818,E,0.170,,020625,,,A*78
$GNVTG,,T,,M,0.170,N,0.315,K,A*3C
$GNGGA,114557.00,0420.01223,S,05539.75818,E,1,12,0.85,27.4,M,-47.6,M,,*46
$GNGSA,A,3,32,29,26,28,18,16,31,27,,,,,1.87,0.85,1.66*13
$GNGSA,A,3,69,81,82,79,80,83,,,,,,,1.87,0.85,1.66*1F
$GPGSV,4,1,16,08,12,315,,10,15,008,,16,24,236,16,18,33,091,30*79
$GPGSV,4,2,16,23,01,045,07,26,28,204,29,27,47,303,20,28,52,142,32*72
$GPGSV,4,3,16,29,09,148,13,31,38,182,29,32,52,001,26,36,52,277,*7E
$GPGSV,4,4,16,40,84,353,,41,58,082,,49,32,274,,50,10,089,*79
$GLGSV,3,1,09,68,11,008,,69,41,324,21,70,24,244,19,79,13,134,15*61
$GLGSV,3,2,09,80,15,186,18,81,13,143,18,82,51,107,21,83,47,016,17*61
$GLGSV,3,3,09,84,02,343,*56
$GNGLL,0420.01223,S,05539.75818,E,114557.00,A,A*64
$GNRMC,114558.00,A,0420.01221,S,05539.75815,E,0.074,,020625,,,A*7D
$GNVTG,,T,,M,0.074,N,0.137,K,A*3B
$GNGGA,114558.00,0420.01221,S,05539.75815,E,1,12,0.86,27.6,M,-47.6,M,,*47
$GNGSA,A,3,32,29,26,28,18,16,31,27,,,,,2.00,0.86,1.81*15
$GNGSA,A,3,69,81,82,79,80,83,,,,,,,2.00,0.86,1.81*19
$GPGSV,4,1,16,08,12,315,,10,15,008,,16,24,236,18,18,33,091,31*76
$GPGSV,4,2,16,23,01,045,,26,28,204,30,27,47,303,20,28,52,142,30*7F
$GPGSV,4,3,16,29,09,148,14,31,38,182,17,32,52,001,27,36,52,277,*75
$GPGSV,4,4,16,40,84,353,,41,58,082,,49,32,274,,50,10,089,*79
$GLGSV,3,1,09,68,11,008,,69,41,324,22,70,24,244,19,79,13,134,17*60
$GLGSV,3,2,09,80,15,186,17,81,13,143,17,82,51,107,19,83,47,016,19*64
$GLGSV,3,3,09,84,02,343,*56
$GNGLL,0420.01221,S,05539.75815,E,114558.00,A,A*64
$GNRMC,114559.00,A,0420.01223,S,05539.75820,E,0.087,,020625,,,A*74
$GNVTG,,T,,M,0.087,N,0.161,K,A*34
$GNGGA,114559.00,0420.01223,S,05539.75820,E,1,12,0.86,27.6,M,-47.6,M,,*42
$GNGSA,A,3,32,29,26,28,18,16,31,27,,,,,2.00,0.86,1.81*15
$GNGSA,A,3,69,81,82,79,80,83,,,,,,,2.00,0.86,1.81*19
$GPGSV,4,1,16,08,12,315,,10,15,008,,16,24,235,17,18,33,091,31*7A
$GPGSV,4,2,16,23,01,045,,26,28,204,31,27,47,303,22,28,52,142,30*7C
$GPGSV,4,3,16,29,09,148,20,31,38,182,16,32,52,001,28,36,52,277,*7C
$GPGSV,4,4,16,40,84,353,,41,58,082,,49,32,274,,50,10,089,*79
$GLGSV,3,1,09,68,11,008,,69,41,324,22,70,24,244,19,79,13,134,16*61
$GLGSV,3,2,09,80,15,186,15,81,13,143,16,82,51,107,18,83,47,016,18*67
$GLGSV,3,3,09,84,02,343,*56
$GNGLL,0420.01223,S,05539.75820,E,114559.00,A,A*61
$GNRMC,114600.00,A,0420.01235,S,05539.75830,E,0.363,,020625,,,A*74
$GNVTG,,T,,M,0.363,N,0.673,K,A*39
$GNGGA,114600.00,0420.01235,S,05539.75830,E,1,12,0.91,27.6,M,-47.6,M,,*4D
$GNGSA,A,3,32,29,26,28,18,16,31,27,,,,,2.03,0.91,1.81*10
$GNGSA,A,3,69,81,82,79,80,,,,,,,,2.03,0.91,1.81*17
$GPGSV,4,1,16,08,12,315,,10,15,008,,16,24,235,19,18,33,091,25*71
$GPGSV,4,2,16,23,01,045,14,26,28,204,28,27,47,303,21,28,52,142,25*76
$GPGSV,4,3,16,29,09,148,15,31,38,182,19,32,52,001,27,36,52,277,*7A
$GPGSV,4,4,16,40,84,353,,41,58,082,,49,32,274,,50,10,089,*79
$GLGSV,3,1,09,68,11,008,,69,41,324,21,70,24,244,19,79,13,134,15*61
$GLGSV,3,2,09,80,15,186,12,81,13,143,19,82,51,107,19,83,47,016,*67
$GLGSV,3,3,09,84,02,343,*56
$GNGLL,0420.01235,S,05539.75830,E,114600.00,A,A*68
$GNRMC,114601.00,A,0420.01236,S,05539.75829,E,0.046,,020625,,,A*7A
$GNVTG,,T,,M,0.046,N,0.086,K,A*31
$GNGGA,114601.00,0420.01236,S,05539.75829,E,1,12,0.92,27.1,M,-47.6,M,,*43
$GNGSA,A,3,32,29,26,28,18,16,31,27,,,,,1.92,0.92,1.69*1E
$GNGSA,A,3,69,81,82,79,,,,,,,,,1.92,0.92,1.69*11
$GPGSV,4,1,16,08,12,315,,10,15,008,10,16,24,235,20,18,33,092,28*74
$GPGSV,4,2,16,23,01,045,13,26,28,204,29,27,47,303,20,28,52,142,26*72
$GPGSV,4,3,16,29,09,148,15,31,38,182,23,32,52,001,28,36,52,277,*7C
$GPGSV,4,4,16,40,84,353,,41,58,082,,49,32,274,,50,10,089,*79
$GLGSV,3,1,09,68,11,008,,69,41,324,19,70,24,244,18,79,13,134,12*6C
$GLGSV,3,2,09,80,15,186,10,81,13,143,20,82,51,107,22,83,47,016,*67
$GLGSV,3,3,09,84,02,343,*56
$GNGLL,0420.01236,S,05539.75829,E,114601.00,A,A*62
$GNRMC,114602.00,A,0420.01238,S,05539.75824,E,0.323,,020625,,,A*7A
$GNVTG,,T,,M,0.323,N,0.598,K,A*3B
$GNGGA,114602.00,0420.01238,S,05539.75824,E,1,12,0.90,25.3,M,-47.6,M,,*41
$GNGSA,A,3,32,29,26,28,18,16,31,27,,,,,1.89,0.90,1.66*19
$GNGSA,A,3,69,81,82,79,80,,,,,,,,1.89,0.90,1.66*1E
$GPGSV,4,1,16,08,12,315,,10,15,008,08,16,24,235,16,18,33,092,28*78
$GPGSV,4,2,16,23,01,045,09,26,28,204,28,27,47,303,20,28,52,142,26*78
$GPGSV,4,3,16,29,09,148,13,31,38,182,23,32,52,001,27,36,52,277,*75
$GPGSV,4,4,16,40,84,353,,41,58,082,,49,32,274,,50,10,089,*79
$GLGSV,3,1,09,68,11,008,,69,41,324,18,70,24,244,16,79,13,134,11*60
$GLGSV,3,2,09,80,15,186,11,81,13,143,19,82,51,107,21,83,47,016,*6F
$GLGSV,3,3,09,84,02,343,*56
$GNGLL,0420.01238,S,05539.75824,E,114602.00,A,A*62
$GNRMC,114603.00,A,0420.01243,S,05539.75820,E,0.389,,020625,,,A*73
$GNVTG,,T,,M,0.389,N,0.720,K,A*3A
$GNGGA,114603.00,0420.01243,S,05539.75820,E,1,12,0.92,24.4,M,-47.6,M,,*4C
$GNGSA,A,3,32,29,26,28,18,16,31,27,,,,,1.99,0.92,1.76*1B
$GNGSA,A,3,69,81,82,80,,,,,,,,,1.99,0.92,1.76*12
$GPGSV,4,1,16,08,12,315,,10,15,008,08,16,24,235,13,18,33,092,29*7C
$GPGSV,4,2,16,23,01,045,09,26,28,204,30,27,47,303,19,28,52,142,31*7D
$GPGSV,4,3,16,29,09,148,12,31,38,182,22,32,52,001,26,36,52,277,*74
$GPGSV,4,4,16,40,84,353,,41,58,082,,49,32,274,,50,10,089,*79
$GLGSV,3,1,09,68,11,008,,69,41,324,18,70,24,244,16,79,13,134,*60
$GLGSV,3,2,09,80,15,186,11,81,13,143,17,82,51,107,19,83,47,016,*6A
$GLGSV,3,3,09,84,02,343,*56
$GNGLL,0420.01243,S,05539.75820,E,114603.00,A,A*6B
$GNRMC,114604.00,A,0420.01240,S,05539.75814,E,0.152,,020625,,,A*74
$GNVTG,,T,,M,0.152,N,0.282,K,A*33
$GNGGA,114604.00,0420.01240,S,05539.75814,E,1,12,0.99,25.2,M,-47.6,M,,*43
$GNGSA,A,3,32,29,26,28,10,18,31,27,,,,,2.03,0.99,1.78*18
$GNGSA,A,3,69,81,82,80,,,,,,,,,2.03,0.99,1.78*17
$GPGSV,4,1,16,08,12,315,,10,15,008,08,16,24,235,09,18,33,092,28*76
$GPGSV,4,2,16,23,01,045,09,26,28,204,31,27,47,303,23,28,52,142,30*74
$GPGSV,4,3,16,29,09,148,12,31,38,182,25,32,52,001,27,36,52,277,*72
$GPGSV,4,4,16,40,84,353,,41,58,082,,49,32,274,,50,10,089,*79
$GLGSV,3,1,09,68,11,008,,69,41,324,21,70,24,244,18,79,13,134,*64
$GLGSV,3,2,09,80,15,186,09,81,13,143,19,82,51,107,21,83,47,016,*66
$GLGSV,3,3,09,84,02,343,*56
$GNGLL,0420.01240,S,05539.75814,E,114604.00,A,A*68
$GNRMC,114605.00,A,0420.01231,S,05539.75814,E,0.148,,020625,,,A*78
$GNVTG,,T,,M,0.148,N,0.275,K,A*30
$GNGGA,114605.00,0420.01231,S,05539.75814,E,1,12,0.92,25.2,M,-47.6,M,,*4F
$GNGSA,A,3,32,29,26,28,10,18,16,31,27,,,,1.99,0.92,1.76*1A
$GNGSA,A,3,69,81,82,80,,,,,,,,,1.99,0.92,1.76*12
$GPGSV,4,1,16,08,12,315,,10,15,008,09,16,24,235,23,18,33,092,28*7F
$GPGSV,4,2,16,23,01,046,11,26,28,204,30,27,47,303,24,28,52,142,28*71
$GPGSV,4,3,16,29,09,148,12,31,38,182,24,32,52,001,28,36,52,277,*7C
$GPGSV,4,4,16,40,84,353,,41,58,082,,49,32,274,,50,10,089,*79
$GLGSV,3,1,09,68,11,008,,69,41,324,21,70,24,244,19,79,13,134,*65
$GLGSV,3,2,09,80,15,186,08,81,13,143,21,82,51,107,23,83,47,016,19*66
$GLGSV,3,3,09,84,02,343,*56
$GNGLL,0420.01231,S,05539.75814,E,114605.00,A,A*6F
$GNRMC,114606.00,A,0420.01237,S,05539.75820,E,0.228,,020625,,,A*7F
$GNVTG,,T,,M,0.228,N,0.422,K,A*31
$GNGGA,114606.00,0420.01237,S,05539.75820,E,1,12,0.92,25.6,M,-47.6,M,,*49
$GNGSA,A,3,32,29,26,28,10,18,16,31,27,,,,1.99,0.92,1.76*1A
$GNGSA,A,3,69,81,82,80,,,,,,,,,1.99,0.92,1.76*12
$GPGSV,4,1,16,08,12,315,,10,15,008,11,16,24,235,19,18,33,092,27*70
$GPGSV,4,2,16,23,01,046,11,26,28,204,31,27,47,303,23,28,52,142,27*78
$GPGSV,4,3,16,29,09,148,11,31,38,182,23,32,52,001,27,36,52,277,*77
$GPGSV,4,4,16,40,84,353,,41,58,082,,49,32,274,,50,10,089,*79
$GLGSV,3,1,09,68,11,008,,69,41,324,20,70,24,244,18,79,13,134,*65
$GLGSV,3,2,09,80,15,186,10,81,13,143,21,82,51,107,23,83,47,016,*67
$GLGSV,3,3,09,84,02,343,*56
$GNGLL,0420.01237,S,05539.75820,E,114606.00,A,A*6D
$GNRMC,114607.00,A,0420.01232,S,05539.75822,E,0.070,,020625,,,A*76
$GNVTG,,T,,M,0.070,N,0.129,K,A*30
$GNGGA,114607.00,0420.01232,S,05539.75822,E,1,12,0.92,25.8,M,-47.6,M,,*41
$GNGSA,A,3,32,29,26,28,18,16,31,27,,,,,1.99,0.92,1.76*1B
$GNGSA,A,3,69,81,82,80,,,,,,,,,1.99,0.92,1.76*12
$GPGSV,4,1,16,08,12,315,,10,15,008,12,16,24,235,20,18,33,092,26*78
$GPGSV,4,2,16,23,01,046,09,26,28,204,26,27,47,303,21,28,52,142,26*74
$GPGSV,4,3,16,29,09,148,16,31,38,182,23,32,52,001,25,36,52,277,*72
$GPGSV,4,4,16,40,84,353,,41,58,082,,49,32,274,,50,10,089,*79
$GLGSV,3,1,09,68,11,008,,69,41,324,19,70,24,244,17,79,13,134,*60
$GLGSV,3,2,09,80,15,186,15,81,13,143,20,82,51,107,22,83,47,016,*62
$GLGSV,3,3,09,84,02,343,*56
$GNGLL,0420.01232,S,05539.75822,E,114607.00,A,A*6B
$GNRMC,114608.00,A,0420.01223,S,05539.75818,E,0.077,,020625,,,A*77
$GNVTG,,T,,M,0.077,N,0.143,K,A*3B
$GNGGA,114608.00,0420.01223,S,05539.75818,E,1,12,0.92,25.9,M,-47.6,M,,*46
$GNGSA,A,3,32,29,26,28,10,18,16,31,27,,,,1.98,0.92,1.76*1B
$GNGSA,A,3,69,81,82,80,,,,,,,,,1.98,0.92,1.76*13
$GPGSV,4,1,16,08,12,315,,10,15,008,07,16,24,235,16,18,33,092,25*7A
$GPGSV,4,2,16,23,01,046,05,26,28,204,28,27,47,303,19,28,52,142,25*7E
$GPGSV,4,3,16,29,09,148,18,31,38,182,24,32,52,001,25,36,52,277,*7B
$GPGSV,4,4,16,40,84,353,,41,58,082,,49,32,274,,50,10,089,*79
$GLGSV,3,1,09,68,11,008,,69,41,324,17,70,24,244,17,79,13,134,*6E
$GLGSV,3,2,09,80,15,186,13,81,13,143,20,82,51,107,23,83,47,016,*65
$GLGSV,3,3,09,84,02,343,*56
$GNGLL,0420.01223,S,05539.75818,E,114608.00,A,A*6D
$GNRMC,114609.00,A,0420.01232,S,05539.75828,E,0.269,,020625,,,A*78
$GNVTG,,T,,M,0.269,N,0.498,K,A*35
$GNGGA,114609.00,0420.01232,S,05539.75828,E,1,12,0.92,26.2,M,-47.6,M,,*4C
$GNGSA,A,3,32,29,26,28,10,18,16,31,27,,,,1.98,0.92,1.76*1B
$GNGSA,A,3,69,81,82,80,,,,,,,,,1.98,0.92,1.76*13
$GPGSV,4,1,16,08,12,315,,10,15,008,12,16,24,235,16,18,33,092,25*7E
$GPGSV,4,2,16,23,01,046,09,26,28,204,32,27,47,302,20,28,52,142,26*71
$GPGSV,4,3,16,29,09,148,18,31,38,182,24,32,52,001,25,36,52,277,*7B
$GPGSV,4,4,16,40,84,353,,41,58,082,,49,32,274,,50,10,089,*79
$GLGSV,3,1,09,68,11,008,,69,41,324,19,70,24,244,17,79,13,134,*60
$GLGSV,3,2,09,80,15,186,11,81,13,143,19,82,51,107,23,83,47,016,*6D
$GLGSV,3,3,09,84,02,343,*56
$GNGLL,0420.01232,S,05539.75828,E,114609.00,A,A*6F
$GNRMC,114610.00,A,0420.01233,S,05539.75829,E,0.152,,020625,,,A*7B
$GNVTG,,T,,M,0.152,N,0.282,K,A*33
$GNGGA,114610.00,0420.01233,S,05539.75829,E,1,12,0.92,25.9,M,-47.6,M,,*4C
$GNGSA,A,3,32,29,26,28,10,18,16,31,27,,,,1.98,0.92,1.76*1B
$GNGSA,A,3,69,81,82,80,,,,,,,,,1.98,0.92,1.76*13
$GPGSV,4,1,16,08,12,315,,10,15,008,09,16,24,235,17,18,33,092,26*76
$GPGSV,4,2,16,23,01,046,08,26,28,204,28,27,47,302,20,28,53,141,32*7C
$GPGSV,4,3,16,29,09,148,17,31,38,182,26,32,52,001,26,36,52,277,*75
$GPGSV,4,4,16,40,84,353,,41,58,082,,49,32,274,,50,10,089,*79
$GLGSV,3,1,09,68,11,008,,69,41,324,22,70,24,244,19,79,13,134,*66
$GLGSV,3,2,09,80,15,186,11,81,13,143,19,82,51,107,25,83,47,016,*6B
$GLGSV,3,3,09,84,02,343,*56
$GNGLL,0420.01233,S,05539.75829,E,114610.00,A,A*67
$GNRMC,114611.00,A,0420.01234,S,05539.75831,E,0.120,,020625,,,A*71
$GNVTG,,T,,M,0.120,N,0.222,K,A*3C
$GNGGA,114611.00,0420.01234,S,05539.75831,E,1,12,0.92,26.2,M,-47.6,M,,*4B
$GNGSA,A,3,32,29,26,28,10,18,16,31,27,,,,1.98,0.92,1.76*1B
$GNGSA,A,3,69,81,82,80,,,,,,,,,1.98,0.92,1.76*13
$GPGSV,4,1,16,08,12,315,,10,15,008,08,16,24,235,16,18,33,092,27*77
$GPGSV,4,2,16,23,01,046,06,26,28,204,33,27,47,302,19,28,53,141,32*72
$GPGSV,4,3,16,29,08,148,14,31,38,182,27,32,52,001,26,36,52,277,*76
$GPGSV,4,4,16,40,84,353,,41,58,082,,49,32,274,,50,10,089,*79
$GLGSV,3,1,09,68,11,008,,69,41,324,23,70,24,244,19,79,13,134,*67
$GLGSV,3,2,09,80,15,186,16,81,13,143,19,82,51,107,25,83,47,016,*6C
$GLGSV,3,3,09,84,02,343,*56
$GNGLL,0420.01234,S,05539.75831,E,114611.00,A,A*68
$GNRMC,114612.00,A,0420.01231,S,05539.75837,E,0.222,,020625,,,A*70
$GNVTG,,T,,M,0.222,N,0.412,K,A*38
$GNGGA,114612.00,0420.01231,S,05539.75837,E,1,12,0.92,25.8,M,-47.6,M,,*42
$GNGSA,A,3,32,29,26,28,10,18,16,31,27,,,,1.98,0.92,1.76*1B
$GNGSA,A,3,69,81,82,80,,,,,,,,,1.98,0.92,1.76*13
$GPGSV,4,1,16,08,12,315,,10,15,008,08,16,24,235,18,18,33,092,28*76
$GPGSV,4,2,16,23,01,046,09,26,28,204,29,27,47,302,21,28,53,141,32*7D
$GPGSV,4,3,16,29,08,148,14,31,38,182,25,32,52,001,26,36,52,277,*74
$GPGSV,4,4,16,40,84,353,,41,58,082,,49,32,274,,50,10,089,*79
$GLGSV,3,1,09,68,11,008,,69,41,324,22,70,24,244,20,79,13,134,*6C
$GLGSV,3,2,09,80,15,186,15,81,13,143,18,82,51,107,25,83,47,016,*6E
$GLGSV,3,3,09,84,02,343,*56
$GNGLL,0420.01231,S,05539.75837,E,114612.00,A,A*68
$GNRMC,114613.00,A,0420.01219,S,05539.75833,E,0.026,,020625,,,A*79
$GNVTG,,T,,M,0.026,N,0.048,K,A*35
$GNGGA,114613.00,0420.01219,S,05539.75833,E,1,12,0.92,25.6,M,-47.6,M,,*43
$GNGSA,A,3,32,29,26,28,10,18,16,31,27,,,,1.98,0.92,1.76*1B
$GNGSA,A,3,69,81,82,80,,,,,,,,,1.98,0.92,1.76*13
$GPGSV,4,1,16,08,12,315,,10,15,008,09,16,24,235,18,18,33,092,28*77
$GPGSV,4,2,16,23,01,046,08,26,28,204,31,27,47,302,25,28,53,141,32*71
$GPGSV,4,3,16,29,08,148,19,31,39,182,23,32,52,001,27,36,52,277,*7F
$GPGSV,4,4,16,40,84,353,,41,58,082,,49,32,274,,50,10,089,*79
$GLGSV,3,1,09,68,11,008,,69,41,324,23,70,24,244,21,79,13,134,17*6A
$GLGSV,3,2,09,80,15,186,14,81,13,143,20,82,51,107,23,83,47,016,*62
$GLGSV,3,3,09,84,02,343,*56
$GNGLL,0420.01219,S,05539.75833,E,114613.00,A,A*67
$GNRMC,114614.00,A,0420.01204,S,05539.75825,E,0.033,,020625,,,A*71
$GNVTG,,T,,M,0.033,N,0.061,K,A*3A
$GNGGA,114614.00,0420.01204,S,05539.75825,E,1,12,0.92,25.3,M,-47.6,M,,*4A
$GNGSA,A,3,32,29,26,28,10,18,16,31,27,,,,1.98,0.92,1.75*18
$GNGSA,A,3,69,81,82,80,,,,,,,,,1.98,0.92,1.75*10
$GPGSV,4,1,16,08,12,315,,10,15,008,10,16,24,235,19,18,33,092,27*71
$GPGSV,4,2,16,23,01,046,08,26,28,204,35,27,47,302,26,28,53,141,35*71
$GPGSV,4,3,16,29,08,148,21,31,39,182,29,32,51,001,27,36,52,277,*7D
$GPGSV,4,4,16,40,84,353,,41,58,082,,49,32,274,,50,10,089,*79
$GLGSV,3,1,09,68,11,008,,69,41,324,24,70,24,244,20,79,13,134,17*6C
$GLGSV,3,2,09,80,15,186,17,81,13,143,22,82,51,107,23,83,47,016,19*6B
$GLGSV,3,3,09,84,02,343,*56
$GNGLL,0420.01204,S,05539.75825,E,114614.00,A,A*6B
$GNRMC,114615.00,A,0420.01207,S,05539.75813,E,0.110,,020625,,,A*76
$GNVTG,,T,,M,0.110,N,0.203,K,A*3C
$GNGGA,114615.00,0420.01207,S,05539.75813,E,1,12,0.92,26.2,M,-47.6,M,,*4F
$GNGSA,A,3,32,29,26,28,10,18,16,31,27,,,,1.98,0.92,1.75*18
$GNGSA,A,3,69,81,82,80,,,,,,,,,1.98,0.92,1.75*10
$GPGSV,4,1,16,08,12,315,,10,15,008,09,16,24,235,22,18,33,092,28*7E
$GPGSV,4,2,16,23,01,046,08,26,28,204,37,27,47,302,25,28,53,141,31*74
$GPGSV,4,3,16,29,08,148,20,31,39,182,25,32,51,001,28,36,52,277,*7F
$GPGSV,4,4,16,40,84,353,,41,58,082,,49,32,274,,50,10,089,*79
$GLGSV,3,1,09,68,11,008,,69,41,324,24,70,24,244,20,79,13,134,17*6C
$GLGSV,3,2,09,80,15,186,17,81,13,143,22,82,51,107,23,83,47,016,20*61
$GLGSV,3,3,09,84,02,343,*56
$GNGLL,0420.01207,S,05539.75813,E,114615.00,A,A*6C
$GNRMC,114616.00,A,0420.01203,S,05539.75814,E,0.302,,020625,,,A*77
$GNVTG,,T,,M,0.302,N,0.559,K,A*35
$GNGGA,114616.00,0420.01203,S,05539.75814,E,1,12,0.75,25.3,M,-47.6,M,,*44
$GNGSA,A,3,32,29,26,28,10,18,16,31,27,,,,1.52,0.75,1.32*14
$GNGSA,A,3,69,81,82,80,,,,,,,,,1.52,0.75,1.32*1C
$GPGSV,4,1,16,08,12,315,,10,15,008,10,16,24,235,24,18,33,092,28*70
$GPGSV,4,2,16,23,01,046,08,26,28,204,34,27,47,302,23,28,53,141,32*72
$GPGSV,4,3,16,29,08,148,19,31,39,182,27,32,51,001,28,36,52,277,*77
$GPGSV,4,4,16,40,84,353,,41,58,082,,49,32,274,,50,10,089,*79
$GLGSV,3,1,09,68,11,008,,69,41,324,23,70,24,244,20,79,13,134,14*68
$GLGSV,3,2,09,80,15,186,19,81,13,143,20,82,51,107,25,83,47,016,19*61
$GLGSV,3,3,09,84,02,343,*56
$GNGLL,0420.01203,S,05539.75814,E,114616.00,A,A*6C
$GNRMC,114617.00,A,0420.01204,S,05539.75817,E,0.271,,020625,,,A*77
$GNVTG,,T,,M,0.271,N,0.503,K,A*3F
$GNGGA,114617.00,0420.01204,S,05539.75817,E,1,12,0.90,25.5,M,-47.6,M,,*4C
$GNGSA,A,3,32,29,26,28,10,18,16,31,27,,,,1.89,0.90,1.66*18
$GNGSA,A,3,69,81,82,79,80,,,,,,,,1.89,0.90,1.66*1E
$GPGSV,4,1,16,08,12,315,,10,15,008,09,16,24,235,24,18,33,092,27*77
$GPGSV,4,2,16,23,01,046,08,26,28,204,37,27,47,302,23,28,53,141,31*72
$GPGSV,4,3,16,29,08,148,20,31,39,182,28,32,51,001,28,36,52,277,*72
$GPGSV,4,4,16,40,84,353,,41,58,082,,49,32,274,,50,10,089,*79
$GLGSV,3,1,09,68,11,008,,69,41,324,23,70,24,244,20,79,13,134,13*6F
$GLGSV,3,2,09,80,15,186,18,81,13,143,17,82,51,107,27,83,47,016,17*68
$GLGSV,3,3,09,84,02,343,*56
$GNGLL,0420.01204,S,05539.75817,E,114617.00,A,A*69
$GNRMC,114618.00,A,0420.01208,S,05539.75818,E,0.230,,020625,,,A*7E
$GNVTG,,T,,M,0.230,N,0.427,K,A*3D
$GNGGA,114618.00,0420.01208,S,05539.75818,E,1,12,0.85,24.8,M,-47.6,M,,*48
$GNGSA,A,3,32,29,26,28,10,18,16,31,27,,,,1.86,0.85,1.65*10
$GNGSA,A,3,69,81,82,79,80,83,,,,,,,1.86,0.85,1.65*1D
$GPGSV,4,1,16,08,12,315,,10,15,008,08,16,24,235,22,18,33,092,27*70
$GPGSV,4,2,16,23,01,046,08,26,28,204,35,27,47,302,22,28,53,141,33*73
$GPGSV,4,3,16,29,08,148,18,31,39,182,27,32,51,001,28,36,52,277,*76
$GPGSV,4,4,16,40,84,353,,41,58,082,,49,32,274,,50,10,089,*79
$GLGSV,3,1,09,68,11,008,,69,41,324,22,70,24,244,20,79,13,134,16*6B
$GLGSV,3,2,09,80,15,186,17,81,13,143,15,82,51,107,26,83,47,016,19*6A
$GLGSV,3,3,09,84,02,343,*56
$GNGLL,0420.01208,S,05539.75818,E,114618.00,A,A*65
$GNRMC,114619.00,A,0420.01211,S,05539.75815,E,0.107,,020625,,,A*7D
$GNVTG,,T,,M,0.107,N,0.198,K,A*3B
$GNGGA,114619.00,0420.01211,S,05539.75815,E,1,12,0.85,24.5,M,-47.6,M,,*41
$GNGSA,A,3,32,29,26,28,10,18,16,31,27,,,,1.86,0.85,1.65*10
$GNGSA,A,3,69,81,82,79,80,83,,,,,,,1.86,0.85,1.65*1D
$GPGSV,4,1,16,08,12,315,,10,15,008,10,16,24,235,21,18,33,092,26*7B
$GPGSV,4,2,16,23,01,046,08,26,28,204,34,27,47,302,23,28,53,141,33*73
$GPGSV,4,3,16,29,08,148,17,31,39,182,27,32,51,001,28,36,52,277,*79
$GPGSV,4,4,16,40,84,353,,41,58,082,,49,32,274,,50,10,089,*79
$GLGSV,3,1,09,68,11,008,,69,41,324,24,70,24,244,20,79,13,134,16*6D
$GLGSV,3,2,09,80,15,186,19,81,13,143,14,82,51,107,25,83,47,016,20*6C
$GLGSV,3,3,09,84,02,343,*56
$GNGLL,0420.01211,S,05539.75815,E,114619.00,A,A*61
$GNRMC,114620.00,A,0420.01208,S,05539.75813,E,0.129,,020625,,,A*75
$GNVTG,,T,,M,0.129,N,0.239,K,A*3F
$GNGGA,114620.00,0420.01208,S,05539.75813,E,1,12,0.85,24.3,M,-47.6,M,,*43
$GNGSA,A,3,32,29,26,28,18,16,31,27,,,,,1.86,0.85,1.65*11
$GNGSA,A,3,69,81,82,79,80,83,,,,,,,1.86,0.85,1.65*1D
$GPGSV,4,1,16,08,12,315,,10,15,008,07,16,24,235,21,18,33,092,26*7D
$GPGSV,4,2,16,23,01,046,08,26,28,204,34,27,47,302,22,28,53,141,33*72
$GPGSV,4,3,16,29,08,148,17,31,39,182,27,32,51,001,26,36,52,277,*77
$GPGSV,4,4,16,40,84,353,,41,58,082,,49,32,274,,50,10,089,*79
$GLGSV,3,1,09,68,11,008,,69,41,324,25,70,24,244,19,79,13,134,15*65
$GLGSV,3,2,09,80,15,186,19,81,13,143,17,82,51,107,22,83,47,016,19*62
$GLGSV,3,3,09,84,02,343,*56
$GNGLL,0420.01208,S,05539.75813,E,114620.00,A,A*65
$GNRMC,114621.00,A,0420.01202,S,05539.75807,E,0.120,,020625,,,A*72
$GNVTG,,T,,M,0.120,N,0.222,K,A*3C
$GNGGA,114621.00,0420.01202,S,05539.75807,E,1,12,0.85,24.3,M,-47.6,M,,*4D
$GNGSA,A,3,32,29,26,28,10,18,16,31,27,,,,1.86,0.85,1.65*10
$GNGSA,A,3,69,81,82,79,80,83,,,,,,,1.86,0.85,1.65*1D
$GPGSV,4,1,16,08,12,315,,10,15,008,09,16,24,235,22,18,33,092,26*70
$GPGSV,4,2,16,23,01,046,08,26,28,204,37,27,47,302,22,28,53,141,32*70
$GPGSV,4,3,16,29,08,148,18,31,39,182,28,32,51,001,24,36,52,277,*75
$GPGSV,4,4,16,40,84,353,,41,58,082,,49,32,274,,50,10,089,*79
$GLGSV,3,1,09,68,11,008,,69,41,324,24,70,24,244,19,79,13,134,14*65
$GLGSV,3,2,09,80,15,186,19,81,13,143,20,82,51,107,22,83,47,016,18*67
$GLGSV,3,3,09,84,02,343,*56
$GNGLL,0420.01202,S,05539.75807,E,114621.00,A,A*6B
$GNRMC,114622.00,A,0420.01210,S,05539.75811,E,0.245,,020625,,,A*75
$GNVTG,,T,,M,0.245,N,0.454,K,A*3B
$GNGGA,114622.00,0420.01210,S,05539.75811,E,1,12,0.85,24.1,M,-47.6,M,,*48
$GNGSA,A,3,32,29,26,28,10,18,16,31,27,,,,1.86,0.85,1.65*10
$GNGSA,A,3,69,81,82,79,80,83,,,,,,,1.86,0.85,1.65*1D
$GPGSV,4,1,16,08,12,315,,10,15,008,09,16,24,235,23,18,33,092,26*71
$GPGSV,4,2,16,23,01,046,08,26,28,204,36,27,47,302,22,28,53,141,32*71
$GPGSV,4,3,16,29,08,148,17,31,39,182,28,32,51,001,25,36,52,277,*7B
$GPGSV,4,4,16,40,84,353,,41,58,082,,49,32,274,,50,10,089,*79
$GLGSV,3,1,09,68,11,008,,69,41,324,22,70,24,244,19,79,13,134,15*62
$GLGSV,3,2,09,80,15,186,19,81,13,143,21,82,51,107,21,83,47,016,18*65
$GLGSV,3,3,09,84,02,343,*56
$GNGLL,0420.01210,S,05539.75811,E,114622.00,A,A*6C
$GNRMC,114623.00,A,0420.01207,S,05539.75812,E,0.097,,020625,,,A*7C
$GNVTG,,T,,M,0.097,N,0.179,K,A*3C
$GNGGA,114623.00,0420.01207,S,05539.75812,E,1,12,0.86,23.6,M,-47.6,M,,*4F
$GNGSA,A,3,32,29,26,28,10,18,16,31,27,,,,2.00,0.86,1.80*15
$GNGSA,A,3,69,81,82,79,80,83,,,,,,,2.00,0.86,1.80*18
$GPGSV,4,1,16,08,12,315,,10,15,008,09,16,24,235,22,18,33,092,28*7E
$GPGSV,4,2,16,23,01,046,08,26,28,204,36,27,47,302,25,28,53,141,33*77
$GPGSV,4,3,16,29,08,148,17,31,39,182,28,32,51,001,26,36,52,277,*78
$GPGSV,4,4,16,40,84,353,,41,58,082,,49,32,274,,50,10,089,*79
$GLGSV,3,1,09,68,11,008,,69,41,324,21,70,24,244,19,79,13,134,16*62
$GLGSV,3,2,09,80,15,186,18,81,13,143,20,82,51,107,23,83,47,016,18*67
$GLGSV,3,3,09,84,02,343,*56
$GNGLL,0420.01207,S,05539.75812,E,114623.00,A,A*68
$GNRMC,114624.00,A,0420.01199,S,05539.75813,E,0.059,,020625,,,A*7C
$GNVTG,,T,,M,0.059,N,0.109,K,A*39
$GNGGA,114624.00,0420.01199,S,05539.75813,E,1,12,0.86,22.7,M,-47.6,M,,*4D
$GNGSA,A,3,32,29,26,28,10,18,16,31,27,,,,2.00,0.86,1.80*15
$GNGSA,A,3,69,81,82,79,80,83,,,,,,,2.00,0.86,1.80*18
$GPGSV,4,1,16,08,12,315,,10,15,008,09,16,24,235,20,18,33,092,27*73
$GPGSV,4,2,16,23,01,046,08,26,28,204,37,27,47,302,25,28,53,141,34*71
$GPGSV,4,3,16,29,08,148,18,31,39,182,26,32,51,001,27,36,52,277,*78
$GPGSV,4,4,16,40,84,353,,41,58,082,,49,32,274,,50,10,089,*79
$GLGSV,3,1,09,68,11,008,,69,41,324,20,70,24,244,19,79,13,134,18*6D
$GLGSV,3,2,09,80,15,186,16,81,13,143,20,82,51,107,24,83,47,016,20*65
$GLGSV,3,3,09,84,02,343,*56
$GNGLL,0420.01199,S,05539.75813,E,114624.00,A,A*6A
$GNRMC,114625.00,A,0420.01190,S,05539.75808,E,0.032,,020625,,,A*73
$GNVTG,,T,,M,0.032,N,0.059,K,A*30
$GNGGA,114625.00,0420.01190,S,05539.75808,E,1,12,0.85,22.4,M,-47.6,M,,*4F
$GNGSA,A,3,32,29,26,28,10,18,16,31,27,,,,1.86,0.85,1.65*10
$GNGSA,A,3,69,81,82,79,80,83,,,,,,,1.86,0.85,1.65*1D
$GPGSV,4,1,16,08,12,315,,10,15,008,10,16,24,235,18,18,33,092,25*72
$GPGSV,4,2,16,23,01,046,08,26,28,204,34,27,47,302,25,28,53,141,32*74
$GPGSV,4,3,16,29,08,148,21,31,39,182,27,32,51,001,28,36,52,277,*7C
$GPGSV,4,4,16,40,84,353,,41,58,082,,49,32,274,,50,10,089,*79
$GLGSV,3,1,09,68,11,008,,69,41,324,21,70,24,244,19,79,13,134,17*63
$GLGSV,3,2,09,80,15,186,13,81,13,143,20,82,51,107,24,83,47,016,19*6A
$GLGSV,3,3,09,84,02,343,*56
$GNGLL,0420.01190,S,05539.75808,E,114625.00,A,A*68
$GNRMC,114626.00,A,0420.01187,S,05539.75809,E,0.118,,020625,,,A*7E
$GNVTG,,T,,M,0.118,N,0.218,K,A*3E
$GNGGA,114626.00,0420.01187,S,05539.75809,E,1,12,0.85,22.5,M,-47.6,M,,*4A
$GNGSA,A,3,32,29,26,28,10,18,16,31,27,,,,1.86,0.85,1.65*10
$GNGSA,A,3,69,81,82,79,80,83,,,,,,,1.86,0.85,1.65*1D
$GPGSV,4,1,16,08,12,315,,10,15,008,10,16,24,235,17,18,33,092,26*7E
$GPGSV,4,2,16,23,01,046,08,26,28,204,35,27,47,302,23,28,53,141,32*73
$GPGSV,4,3,16,29,08,148,21,31,39,182,27,32,51,001,28,36,52,277,*7C
$GPGSV,4,4,16,40,84,353,,41,58,082,,49,32,274,,50,10,089,*79
$GLGSV,3,1,09,68,11,008,,69,41,324,22,70,24,244,18,79,13,134,17*61
$GLGSV,3,2,09,80,15,186,13,81,13,143,21,82,51,107,23,83,47,016,20*66
$GLGSV,3,3,09,84,02,343,*56
$GNGLL,0420.01187,S,05539.75809,E,114626.00,A,A*6C
$GNRMC,114627.00,A,0420.01184,S,05539.75806,E,0.045,,020625,,,A*7A
$GNVTG,,T,,M,0.045,N,0.084,K,A*30
$GNGGA,114627.00,0420.01184,S,05539.75806,E,1,12,0.85,22.7,M,-47.6,M,,*45
$GNGSA,A,3,32,29,26,28,10,18,16,31,27,,,,1.86,0.85,1.65*10
$GNGSA,A,3,69,81,82,79,80,83,,,,,,,1.86,0.85,1.65*1D
$GPGSV,4,1,16,08,12,315,,10,15,008,08,16,24,235,22,18,33,092,27*70
$GPGSV,4,2,16,23,01,046,08,26,28,204,35,27,47,302,23,28,53,141,31*70
$GPGSV,4,3,16,29,08,148,19,31,39,182,27,32,51,001,28,36,52,277,*77
$GPGSV,4,4,16,40,84,353,,41,58,082,,49,32,274,,50,10,089,*79
$GLGSV,3,1,09,68,11,008,,69,41,324,22,70,24,244,18,79,13,134,17*61
$GLGSV,3,2,09,80,15,186,13,81,13,143,20,82,51,107,25,83,47,016,21*60
$GLGSV,3,3,09,84,02,343,*56
$GNGLL,0420.01184,S,05539.75806,E,114627.00,A,A*61
$GNRMC,114628.00,A,0420.01175,S,05539.75805,E,0.167,,020625,,,A*79
$GNVTG,,T,,M,0.167,N,0.310,K,A*3F
$GNGGA,114628.00,0420.01175,S,05539.75805,E,1,12,0.85,22.7,M,-47.6,M,,*47
$GNGSA,A,3,32,29,26,28,10,18,16,31,27,,,,1.86,0.85,1.65*10
$GNGSA,A,3,69,81,82,79,80,83,,,,,,,1.86,0.85,1.65*1D
$GPGSV,4,1,16,08,12,315,,10,15,008,09,16,24,235,22,18,33,092,26*70
$GPGSV,4,2,16,23,01,046,08,26,28,204,35,27,47,302,21,28,53,141,31*72
$GPGSV,4,3,16,29,08,148,18,31,39,182,28,32,51,001,27,36,52,277,*76
$GPGSV,4,4,16,40,84,353,,41,58,082,,49,32,274,,50,10,089,*79
$GLGSV,3,1,09,68,11,008,,69,41,324,20,70,24,244,18,79,13,134,18*6C
$GLGSV,3,2,09,80,15,186,14,81,13,143,19,82,51,107,26,83,47,016,21*6E
$GLGSV,3,3,09,84,02,343,*56
$GNGLL,0420.01175,S,05539.75805,E,114628.00,A,A*63
$GNRMC,114629.00,A,0420.01165,S,05539.75795,E,0.234,,020625,,,A*7A
$GNVTG,,T,,M,0.234,N,0.434,K,A*3B
$GNGGA,114629.00,0420.01165,S,05539.75795,E,1,12,0.85,23.3,M,-47.6,M,,*44
$GNGSA,A,3,32,29,26,28,10,18,16,31,27,,,,1.86,0.85,1.65*10
$GNGSA,A,3,69,81,82,79,80,83,,,,,,,1.86,0.85,1.65*1D
$GPGSV,4,1,16,08,12,315,,10,15,008,08,16,24,235,20,18,33,092,25*70
$GPGSV,4,2,16,23,01,046,08,26,28,204,35,27,47,302,21,28,53,141,32*71
$GPGSV,4,3,16,29,08,148,18,31,39,182,27,32,51,001,26,36,52,277,*78
$GPGSV,4,4,16,40,84,353,,41,58,082,,49,32,274,,50,10,089,*79
$GLGSV,3,1,09,68,11,008,,69,41,324,18,70,24,244,18,79,13,134,19*66
$GLGSV,3,2,09,80,15,186,15,81,13,143,18,82,51,107,26,83,47,016,21*6E
$GLGSV,3,3,09,84,02,343,*56
$GNGLL,0420.01165,S,05539.75795,E,114629.00,A,A*65
$GNRMC,114630.00,A,0420.01161,S,05539.75793,E,0.071,,020625,,,A*73
$GNVTG,,T,,M,0.071,N,0.131,K,A*38
$GNGGA,114630.00,0420.01161,S,05539.75793,E,1,12,0.85,23.3,M,-47.6,M,,*4E
$GNGSA,A,3,32,29,26,28,18,16,31,27,,,,,1.86,0.85,1.65*11
$GNGSA,A,3,69,81,82,79,80,83,,,,,,,1.86,0.85,1.65*1D
$GPGSV,4,1,16,08,12,315,,10,15,008,07,16,24,235,21,18,33,092,23*78
$GPGSV,4,2,16,23,01,046,08,26,28,204,34,27,47,302,21,28,53,141,32*70
$GPGSV,4,3,16,29,08,148,18,31,39,182,27,32,51,001,27,36,52,277,*79
$GPGSV,4,4,16,40,84,353,,41,58,082,,49,32,274,,50,10,089,*79
$GLGSV,3,1,09,68,11,008,,69,41,324,18,70,24,244,19,79,13,134,18*66
$GLGSV,3,2,09,80,15,186,15,81,13,143,17,82,51,107,26,83,47,016,20*60
$GLGSV,3,3,09,84,02,343,*56
$GNGLL,0420.01161,S,05539.75793,E,114630.00,A,A*6F
$GNRMC,114631.00,A,0420.01152,S,05539.75797,E,0.125,,020625,,,A*76
$GNVTG,,T,,M,0.125,N,0.232,K,A*38
$GNGGA,114631.00,0420.01152,S,05539.75797,E,1,12,0.85,23.0,M,-47.6,M,,*48
$GNGSA,A,3,32,29,26,28,10,18,16,31,27,,,,1.86,0.85,1.65*10
$GNGSA,A,3,69,81,82,79,80,83,,,,,,,1.86,0.85,1.65*1D
$GPGSV,4,1,16,08,12,315,,10,15,008,09,16,24,235,23,18,33,092,24*73
$GPGSV,4,2,16,23,01,046,,26,28,204,35,27,47,302,22,28,53,141,32*7A
$GPGSV,4,3,16,29,08,148,18,31,39,182,27,32,51,001,27,36,52,277,*79
$GPGSV,4,4,16,40,84,353,,41,58,082,,49,32,274,,50,10,089,*79
$GLGSV,3,1,09,68,11,008,,69,41,324,18,70,24,244,19,79,13,134,16*68
$GLGSV,3,2,09,80,15,186,14,81,13,143,16,82,51,107,25,83,47,016,21*62
$GLGSV,3,3,09,84,02,343,*56
$GNGLL,0420.01152,S,05539.75797,E,114631.00,A,A*6A
$GNRMC,114632.00,A,0420.01142,S,05539.75793,E,0.044,,020625,,,A*76
$GNVTG,,T,,M,0.044,N,0.082,K,A*37
$GNGGA,114632.00,0420.01142,S,05539.75793,E,1,12,0.85,23.1,M,-47.6,M,,*4F
$GNGSA,A,3,32,29,26,28,10,18,16,31,27,,,,1.86,0.85,1.65*10
$GNGSA,A,3,69,81,82,79,80,83,,,,,,,1.86,0.85,1.65*1D
$GPGSV,4,1,16,08,12,315,,10,15,008,09,16,24,235,24,18,33,092,25*75
$GPGSV,4,2,16,23,01,046,,26,28,204,35,27,47,302,21,28,53,141,32*79
$GPGSV,4,3,16,29,08,148,18,31,39,182,27,32,51,001,27,36,52,277,*79
$GPGSV,4,4,16,40,84,353,,41,58,082,,49,32,274,,50,10,089,*79
$GLGSV,3,1,09,68,11,008,,69,41,324,19,70,24,244,18,79,13,134,15*6B
$GLGSV,3,2,09,80,15,186,12,81,13,143,19,82,51,107,25,83,47,016,21*6B
$GLGSV,3,3,09,84,02,343,*56
$GNGLL,0420.01142,S,05539.75793,E,114632.00,A,A*6C
$GNRMC,114633.00,A,0420.01133,S,05539.75798,E,0.166,,020625,,,A*7B
$GNVTG,,T,,M,0.166,N,0.307,K,A*38
$GNGGA,114633.00,0420.01133,S,05539.75798,E,1,12,0.85,23.0,M,-47.6,M,,*42
$GNGSA,A,3,32,29,26,28,10,18,16,31,27,,,,1.86,0.85,1.65*10
$GNGSA,A,3,69,81,82,79,80,83,,,,,,,1.86,0.85,1.65*1D
$GPGSV,4,1,16,08,12,315,,10,15,008,11,16,24,235,22,18,33,092,24*7B
$GPGSV,4,2,16,23,01,046,,26,28,204,34,27,47,302,22,28,53,141,31*78
$GPGSV,4,3,16,29,08,148,17,31,39,182,26,32,51,001,26,36,52,277,*76
$GPGSV,4,4,16,40,84,353,,41,58,082,,49,32,274,,50,10,089,*79
$GLGSV,3,1,09,68,11,008,,69,41,324,19,70,24,244,18,79,13,134,15*6B
$GLGSV,3,2,09,80,15,186,11,81,13,143,19,82,51,107,22,83,47,016,20*6E
$GLGSV,3,3,09,84,02,343,*56
$GNGLL,0420.01133,S,05539.75798,E,114633.00,A,A*60
$GNRMC,114634.00,A,0420.01123,S,05539.75804,E,0.215,,020625,,,A*70
$GNVTG,,T,,M,0.215,N,0.398,K,A*39
$GNGGA,114634.00,0420.01123,S,05539.75804,E,1,12,0.85,22.6,M,-47.6,M,,*49
$GNGSA,A,3,32,29,26,28,10,18,16,31,27,,,,1.86,0.85,1.65*10
$GNGSA,A,3,69,81,82,79,80,83,,,,,,,1.86,0.85,1.65*1D
$GPGSV,4,1,16,08,12,315,,10,15,008,11,16,24,235,20,18,33,092,23*7E
$GPGSV,4,2,16,23,01,046,,26,28,204,35,27,47,302,24,28,53,141,32*7C
$GPGSV,4,3,16,29,08,148,18,31,39,182,26,32,51,001,27,36,52,277,*78
$GPGSV,4,4,16,40,84,353,,41,58,082,,49,32,274,,50,10,089,*79
$GLGSV,3,1,09,68,11,008,,69,41,324,20,70,24,244,18,79,13,134,18*6C
$GLGSV,3,2,09,80,15,186,12,81,13,143,19,82,51,107,22,83,47,016,19*67
$GLGSV,3,3,09,84,02,343,*56
$GNGLL,0420.01123,S,05539.75804,E,114634.00,A,A*6C
$GNRMC,114635.00,A,0420.01115,S,05539.75796,E,0.216,,020625,,,A*73
$GNVTG,,T,,M,0.216,N,0.401,K,A*3D
$GNGGA,114635.00,0420.01115,S,05539.75796,E,1,12,0.85,22.7,M,-47.6,M,,*48
$GNGSA,A,3,32,29,26,28,10,18,16,31,27,,,,1.86,0.85,1.65*10
$GNGSA,A,3,69,81,82,79,80,83,,,,,,,1.86,0.85,1.65*1D
$GPGSV,4,1,16,08,12,315,,10,15,008,11,16,24,235,18,18,33,092,25*73
$GPGSV,4,2,16,23,01,046,,26,28,204,36,27,47,302,22,28,53,141,31*7A
$GPGSV,4,3,16,29,08,148,18,31,39,182,26,32,51,001,29,36,52,277,*76
$GPGSV,4,4,16,40,84,353,,41,58,082,,49,32,274,,50,10,089,*79
$GLGSV,3,1,09,68,11,008,,69,41,324,19,70,24,244,18,79,13,134,19*67
$GLGSV,3,2,09,80,15,186,13,81,13,143,18,82,51,107,23,83,47,016,20*6C
$GLGSV,3,3,09,84,02,343,*56
$GNGLL,0420.01115,S,05539.75796,E,114635.00,A,A*6C
$GNRMC,114636.00,A,0420.01109,S,05539.75804,E,0.184,,020625,,,A*71
$GNVTG,,T,,M,0.184,N,0.341,K,A*36
$GNGGA,114636.00,0420.01109,S,05539.75804,E,1,12,0.85,22.5,M,-47.6,M,,*40
$GNGSA,A,3,32,29,26,28,10,18,16,31,27,,,,1.85,0.85,1.65*13
$GNGSA,A,3,69,81,82,79,80,83,,,,,,,1.85,0.85,1.65*1E
$GPGSV,4,1,16,08,12,315,,10,15,008,10,16,24,235,18,18,33,092,23*74
$GPGSV,4,2,16,23,01,046,,26,28,204,36,27,47,302,20,28,53,141,30*79
$GPGSV,4,3,16,29,08,148,18,31,39,182,25,32,51,001,29,36,52,277,*75
$GPGSV,4,4,16,40,84,353,,41,58,082,,49,32,274,,50,10,089,*79
$GLGSV,3,1,09,68,11,008,,69,41,324,20,70,24,244,18,79,13,134,19*6D
$GLGSV,3,2,09,80,15,186,18,81,13,143,19,82,51,107,23,83,47,016,20*66
$GLGSV,3,3,09,84,02,343,*56
$GNGLL,0420.01109,S,05539.75804,E,114636.00,A,A*66
$GNRMC,114637.00,A,0420.01099,S,05539.75806,E,0.101,,020625,,,A*77
$GNVTG,,T,,M,0.101,N,0.187,K,A*33
$GNGGA,114637.00,0420.01099,S,05539.75806,E,1,12,0.85,22.4,M,-47.6,M,,*4A
$GNGSA,A,3,32,29,26,28,10,18,16,31,27,,,,1.85,0.85,1.65*13
$GNGSA,A,3,69,81,82,79,80,83,,,,,,,1.85,0.85,1.65*1E
$GPGSV,4,1,16,08,12,315,,10,15,008,12,16,24,235,19,18,33,092,21*75
$GPGSV,4,2,16,23,01,046,,26,28,204,35,27,47,302,21,28,53,141,30*7B
$GPGSV,4,3,16,29,08,148,18,31,39,182,25,32,51,001,29,36,52,277,*75
$GPGSV,4,4,16,40,84,353,,41,58,082,,49,32,274,,50,10,089,*79
$GLGSV,3,1,09,68,11,008,,69,41,324,20,70,24,244,18,79,13,134,18*6C
$GLGSV,3,2,09,80,15,186,10,81,13,143,19,82,51,107,24,83,47,016,20*69
$GLGSV,3,3,09,84,02,343,*56
$GNGLL,0420.01099,S,05539.75806,E,114637.00,A,A*6D
$GNRMC,114638.00,A,0420.01086,S,05539.75804,E,0.154,,020625,,,A*74
$GNVTG,,T,,M,0.154,N,0.286,K,A*31
$GNGGA,114638.00,0420.01086,S,05539.75804,E,1,12,0.85,22.3,M,-47.6,M,,*4E
$GNGSA,A,3,32,29,26,28,10,18,16,31,27,,,,1.85,0.85,1.65*13
$GNGSA,A,3,69,81,82,79,80,83,,,,,,,1.85,0.85,1.65*1E
$GPGSV,4,1,16,08,12,315,,10,15,008,11,16,24,235,21,18,33,092,22*7E
$GPGSV,4,2,16,23,01,046,,26,28,204,35,27,47,302,21,28,53,141,30*7B
$GPGSV,4,3,16,29,08,148,18,31,39,182,25,32,51,001,29,36,52,277,*75
$GPGSV,4,4,16,40,84,353,,41,58,082,,49,32,274,,50,10,089,*79
$GLGSV,3,1,09,68,11,008,,69,41,324,19,70,24,244,17,79,13,134,17*66
$GLGSV,3,2,09,80,15,186,14,81,13,143,20,82,51,107,24,83,47,016,20*67
$GLGSV,3,3,09,84,02,343,*56
$GNGLL,0420.01086,S,05539.75804,E,114638.00,A,A*6E
$GNRMC,114639.00,A,0420.01080,S,05539.75807,E,0.010,,020625,,,A*71
$GNVTG,,T,,M,0.010,N,0.018,K,A*35
$GNGGA,114639.00,0420.01080,S,05539.75807,E,1,12,0.86,22.0,M,-47.6,M,,*4A
$GNGSA,A,3,32,29,26,28,10,18,16,31,27,,,,1.99,0.86,1.80*16
$GNGSA,A,3,69,81,82,79,80,83,,,,,,,1.99,0.86,1.80*1B
$GPGSV,4,1,16,08,12,315,,10,15,008,10,16,24,235,22,18,33,092,23*7D
$GPGSV,4,2,16,23,01,046,,26,28,204,35,27,47,302,20,28,53,141,30*7A
$GPGSV,4,3,16,29,08,148,18,31,39,182,25,32,51,001,29,36,52,277,*75
$GPGSV,4,4,16,40,84,353,,41,58,082,,49,32,274,,50,10,089,*79
$GLGSV,3,1,09,68,11,008,,69,41,324,17,70,24,244,17,79,13,134,15*6A
$GLGSV,3,2,09,80,15,186,15,81,13,143,21,82,51,107,22,83,47,016,19*6B
$GLGSV,3,3,09,84,02,343,*56
$GNGLL,0420.01080,S,05539.75807,E,114639.00,A,A*6A
$GNRMC,114640.00,A,0420.01071,S,05539.75821,E,0.235,,020625,,,A*70
$GNVTG,,T,,M,0.235,N,0.434,K,A*3A
$GNGGA,114640.00,0420.01071,S,05539.75821,E,1,12,0.72,21.3,M,-47.6,M,,*45
$GNGSA,A,3,32,29,26,28,10,18,16,31,27,,,,1.52,0.72,1.34*15
$GNGSA,A,3,69,81,82,79,80,83,,,,,,,1.52,0.72,1.34*18
$GPGSV,4,1,16,08,12,315,,10,15,008,08,16,24,235,21,18,33,092,22*76
$GPGSV,4,2,16,23,01,046,,26,28,204,36,27,47,302,19,28,53,141,30*73
$GPGSV,4,3,16,29,08,148,17,31,39,182,23,32,51,001,29,36,52,277,*7C
$GPGSV,4,4,16,40,84,353,,41,58,082,,49,32,274,,50,10,089,*79
$GLGSV,3,1,09,68,11,008,,69,41,324,16,70,25,245,17,79,13,134,15*6B
$GLGSV,3,2,09,80,15,186,13,81,13,143,20,82,51,107,22,83,47,016,19*6C
$GLGSV,3,3,09,84,02,343,*56
$GNGLL,0420.01071,S,05539.75821,E,114640.00,A,A*6E
$GNRMC,114641.00,A,0420.01065,S,05539.75821,E,0.041,,020625,,,A*75
$GNVTG,,T,,M,0.041,N,0.077,K,A*38
$GNGGA,114641.00,0420.01065,S,05539.75821,E,1,12,0.86,21.1,M,-47.6,M,,*48
$GNGSA,A,3,32,29,26,28,10,18,16,31,27,,,,1.99,0.86,1.80*16
$GNGSA,A,3,69,81,82,79,80,83,,,,,,,1.99,0.86,1.80*1B
$GPGSV,4,1,16,08,12,315,,10,15,008,12,16,24,235,21,18,33,092,22*7D
$GPGSV,4,2,16,23,01,046,,26,28,204,35,27,47,302,17,28,53,141,29*76
$GPGSV,4,3,16,29,08,148,18,31,39,182,22,32,51,001,29,36,52,277,*72
$GPGSV,4,4,16,40,84,353,,41,58,082,,49,32,274,,50,10,089,*79
$GLGSV,3,1,09,68,11,008,,69,41,324,18,70,25,245,17,79,13,134,16*66
$GLGSV,3,2,09,80,15,186,13,81,13,143,18,82,51,107,23,83,47,016,20*6C
$GLGSV,3,3,09,84,02,343,*56
$GNGLL,0420.01065,S,05539.75821,E,114641.00,A,A*6A
$GNRMC,114642.00,A,0420.01054,S,05539.75834,E,0.170,,020625,,,A*73
$GNVTG,,T,,M,0.170,N,0.314,K,A*3D
$GNGGA,114642.00,0420.01054,S,05539.75834,E,1,12,0.86,20.6,M,-47.6,M,,*4B
$GNGSA,A,3,32,29,26,28,10,18,16,31,27,,,,1.99,0.86,1.80*16
$GNGSA,A,3,69,81,82,79,80,83,,,,,,,1.99,0.86,1.80*1B
$GPGSV,4,1,16,08,12,315,,10,15,008,07,16,24,235,23,18,33,092,22*7B
$GPGSV,4,2,16,23,01,046,,26,28,204,36,27,47,302,14,28,53,141,28*77
$GPGSV,4,3,16,29,08,148,17,31,39,182,22,32,51,001,30,36,52,277,*75
$GPGSV,4,4,16,40,84,353,,41,58,082,,49,32,274,,50,10,089,*79
$GLGSV,3,1,09,68,11,008,,69,41,324,20,70,25,245,17,79,13,134,14*6F
$GLGSV,3,2,09,80,15,186,14,81,13,143,20,82,51,107,21,83,47,016,20*62
$GLGSV,3,3,09,84,02,343,*56
$GNGLL,0420.01054,S,05539.75834,E,114642.00,A,A*6F
$GNRMC,114643.00,A,0420.01044,S,05539.75840,E,0.066,,020625,,,A*76
$GNVTG,,T,,M,0.066,N,0.123,K,A*3D
$GNGGA,114643.00,0420.01044,S,05539.75840,E,1,12,0.86,20.3,M,-47.6,M,,*4D
$GNGSA,A,3,32,29,26,28,10,18,16,31,27,,,,1.99,0.86,1.80*16
$GNGSA,A,3,69,81,82,79,80,83,,,,,,,1.99,0.86,1.80*1B
$GPGSV,4,1,16,08,12,315,,10,15,008,09,16,24,235,22,18,33,092,21*77
$GPGSV,4,2,16,23,01,046,,26,28,204,36,27,47,302,13,28,53,141,29*71
$GPGSV,4,3,16,29,08,148,17,31,39,182,23,32,51,001,29,36,52,277,*7C
$GPGSV,4,4,16,40,84,353,,41,58,082,,49,32,274,,50,10,089,*79
$GLGSV,3,1,09,68,11,008,,69,41,324,22,70,25,245,17,79,13,134,15*6C
$GLGSV,3,2,09,80,15,186,10,81,13,143,20,82,51,107,20,83,47,016,18*6C
$GLGSV,3,3,09,84,02,343,*56
$GNGLL,0420.01044,S,05539.75840,E,114643.00,A,A*6C
$GNRMC,114644.00,A,0420.01037,S,05539.75853,E,0.229,,020625,,,A*7E
$GNVTG,,T,,M,0.229,N,0.423,K,A*31
$GNGGA,114644.00,0420.01037,S,05539.75853,E,1,12,0.87,19.8,M,-47.6,M,,*4C
$GNGSA,A,3,32,29,26,28,18,16,31,27,,,,,2.05,0.87,1.85*15
$GNGSA,A,3,69,81,82,79,83,,,,,,,,2.05,0.87,1.85*11
$GPGSV,4,1,16,08,12,315,,10,15,008,05,16,24,235,21,18,33,092,20*79
$GPGSV,4,2,16,23,01,046,,26,28,204,36,27,47,302,12,28,53,141,28*71
$GPGSV,4,3,16,29,08,148,16,31,39,182,23,32,51,001,29,36,52,277,*7D
$GPGSV,4,4,16,40,84,353,,41,58,082,,49,32,274,,50,10,089,*79
$GLGSV,3,1,09,68,11,008,,69,41,324,20,70,25,245,17,79,13,134,17*6C
$GLGSV,3,2,09,80,15,186,07,81,13,143,19,82,51,107,19,83,47,016,18*6A
$GLGSV,3,3,09,84,02,343,*56
$GNGLL,0420.01037,S,05539.75853,E,114644.00,A,A*6D
$GNRMC,114645.00,A,0420.01031,S,05539.75866,E,0.209,,020625,,,A*7D
$GNVTG,,T,,M,0.209,N,0.387,K,A*3A
$GNGGA,114645.00,0420.01031,S,05539.75866,E,1,12,0.86,19.5,M,-47.6,M,,*41
$GNGSA,A,3,32,29,26,28,10,18,16,31,27,,,,1.99,0.86,1.80*16
$GNGSA,A,3,69,81,82,79,80,83,,,,,,,1.99,0.86,1.80*1B
$GPGSV,4,1,16,08,12,315,,10,15,008,11,16,24,235,23,18,33,092,20*7E
$GPGSV,4,2,16,23,01,046,,26,28,204,36,27,47,302,15,28,53,141,28*76
$GPGSV,4,3,16,29,08,148,18,31,39,182,21,32,51,001,28,36,52,277,*70
$GPGSV,4,4,16,40,84,353,,41,58,082,,49,32,274,,50,10,089,*79
$GLGSV,3,1,09,68,11,008,,69,41,324,20,70,25,245,17,79,13,134,16*6D
$GLGSV,3,2,09,80,15,186,13,81,13,143,18,82,51,107,17,83,47,016,17*6F
$GLGSV,3,3,09,84,02,343,*56
$GNGLL,0420.01031,S,05539.75866,E,114645.00,A,A*6C
$GNRMC,114646.00,A,0420.01027,S,05539.75870,E,0.059,,020625,,,A*79
$GNVTG,,T,,M,0.059,N,0.109,K,A*39
$GNGGA,114646.00,0420.01027,S,05539.75870,E,1,12,0.86,19.2,M,-47.6,M,,*45
$GNGSA,A,3,32,29,26,28,10,18,16,31,27,,,,1.99,0.86,1.80*16
$GNGSA,A,3,69,81,82,79,80,83,,,,,,,1.99,0.86,1.80*1B
$GPGSV,4,1,16,08,12,315,,10,15,008,10,16,24,235,23,18,33,092,20*7F
$GPGSV,4,2,16,23,01,046,,26,28,204,37,27,47,302,18,28,53,141,29*7B
$GPGSV,4,3,16,29,08,148,19,31,39,182,21,32,51,001,28,36,52,277,*71
$GPGSV,4,4,16,40,84,353,,41,58,082,,49,32,274,,50,10,089,*79
$GLGSV,3,1,09,68,11,008,,69,41,324,20,70,25,245,18,79,13,134,16*62
$GLGSV,3,2,09,80,15,186,15,81,13,143,17,82,51,107,17,83,47,016,18*69
$GLGSV,3,3,09,84,02,343,*56
$GNGLL,0420.01027,S,05539.75870,E,114646.00,A,A*6F
$GNRMC,114647.00,A,0420.01022,S,05539.75892,E,0.435,,020625,,,A*7F
$GNVTG,,T,,M,0.435,N,0.806,K,A*31
$GNGGA,114647.00,0420.01022,S,05539.75892,E,1,12,0.86,18.6,M,-47.6,M,,*48
$GNGSA,A,3,32,29,26,28,10,18,16,31,27,,,,1.99,0.86,1.80*16
$GNGSA,A,3,69,81,82,79,80,83,,,,,,,1.99,0.86,1.80*1B
$GPGSV,4,1,16,08,12,315,,10,15,008,12,16,24,235,25,18,33,092,20*7B
$GPGSV,4,2,16,23,01,046,,26,28,204,37,27,47,302,17,28,53,141,30*7C
$GPGSV,4,3,16,29,08,148,18,31,39,182,22,32,51,001,28,36,52,277,*73
$GPGSV,4,4,16,40,84,353,,41,58,082,,49,32,274,,50,10,089,*79
$GLGSV,3,1,09,68,11,008,,69,41,324,21,70,25,245,19,79,13,134,14*60
$GLGSV,3,2,09,80,15,186,11,81,13,143,16,82,51,107,17,83,47,016,19*6D
$GLGSV,3,3,09,84,02,343,*56
$GNGLL,0420.01022,S,05539.75892,E,114647.00,A,A*67
$GNRMC,114648.00,A,0420.01017,S,05539.75893,E,0.056,,020625,,,A*76
$GNVTG,,T,,M,0.056,N,0.103,K,A*3C
$GNGGA,114648.00,0420.01017,S,05539.75893,E,1,12,0.86,18.5,M,-47.6,M,,*43
$GNGSA,A,3,32,29,26,28,10,18,16,31,27,,,,1.99,0.86,1.79*10
$GNGSA,A,3,69,81,82,79,80,83,,,,,,,1.99,0.86,1.79*1D
$GPGSV,4,1,16,08,12,315,,10,15,008,08,16,24,235,22,18,33,092,18*7C
$GPGSV,4,2,16,23,01,046,,26,28,204,35,27,47,302,16,28,53,141,28*76
$GPGSV,4,3,16,29,08,148,18,31,39,182,22,32,51,001,27,36,52,277,*7C
$GPGSV,4,4,16,40,84,353,,41,58,082,,49,32,274,,50,10,089,*79
$GLGSV,3,1,09,68,11,008,,69,41,324,22,70,25,245,18,79,13,134,16*60
$GLGSV,3,2,09,80,15,186,15,81,13,143,16,82,51,107,18,83,47,016,19*66
$GLGSV,3,3,09,84,02,343,*56
$GNGLL,0420.01017,S,05539.75893,E,114648.00,A,A*6F
$GNRMC,114649.00,A,0420.01007,S,05539.75898,E,0.174,,020625,,,A*7C
$GNVTG,,T,,M,0.174,N,0.323,K,A*3D
$GNGGA,114649.00,0420.01007,S,05539.75898,E,1,12,0.86,18.5,M,-47.6,M,,*48
$GNGSA,A,3,32,29,26,28,10,18,16,31,27,,,,1.99,0.86,1.79*10
$GNGSA,A,3,69,81,82,79,80,83,,,,,,,1.99,0.86,1.79*1D
$GPGSV,4,1,16,08,12,315,,10,15,008,11,16,24,235,22,18,33,092,17*7B
$GPGSV,4,2,16,23,01,046,,26,28,204,37,27,47,302,14,28,53,141,26*78
$GPGSV,4,3,16,29,08,148,19,31,39,182,22,32,51,001,27,36,52,277,*7D
$GPGSV,4,4,16,40,84,353,,41,58,082,,49,32,274,,50,10,089,*79
$GLGSV,3,1,09,68,11,008,,69,41,324,22,70,25,245,17,79,13,134,16*6F
$GLGSV,3,2,09,80,15,186,13,81,13,143,17,82,51,107,17,83,47,016,19*6E
$GLGSV,3,3,09,84,02,343,*56
$GNGLL,0420.01007,S,05539.75898,E,114649.00,A,A*64
$GNRMC,114650.00,A,0420.01001,S,05539.75895,E,0.181,,020625,,,A*75
$GNVTG,,T,,M,0.181,N,0.334,K,A*31
$GNGGA,114650.00,0420.01001,S,05539.75895,E,1,12,0.86,18.6,M,-47.6,M,,*48
$GNGSA,A,3,32,29,26,28,18,16,31,27,,,,,1.99,0.86,1.79*11
$GNGSA,A,3,69,81,82,79,80,83,,,,,,,1.99,0.86,1.79*1D
$GPGSV,4,1,16,08,12,315,,10,15,008,07,16,24,235,21,18,33,092,17*7F
$GPGSV,4,2,16,23,01,046,,26,28,204,35,27,47,302,12,28,53,141,26*7C
$GPGSV,4,3,16,29,08,148,18,31,39,182,25,32,51,001,28,36,52,277,*74
$GPGSV,4,4,16,40,84,353,,41,58,082,,49,32,274,,50,10,089,*79
$GLGSV,3,1,09,68,11,008,,69,41,324,21,70,25,245,18,79,13,134,14*61
$GLGSV,3,2,09,80,15,186,11,81,13,143,19,82,51,107,15,83,47,016,17*6E
$GLGSV,3,3,09,84,02,343,*56
$GNGLL,0420.01001,S,05539.75895,E,114650.00,A,A*67
$GNRMC,114651.00,A,0420.00996,S,05539.75898,E,0.078,,020625,,,A*78
$GNVTG,,T,,M,0.078,N,0.145,K,A*32
$GNGGA,114651.00,0420.00996,S,05539.75898,E,1,12,0.86,18.7,M,-47.6,M,,*43
$GNGSA,A,3,32,29,26,28,10,18,16,31,27,,,,1.99,0.86,1.79*10
$GNGSA,A,3,69,81,82,79,80,83,,,,,,,1.99,0.86,1.79*1D
$GPGSV,4,1,16,08,12,315,,10,15,008,10,16,24,235,22,18,33,092,19*74
$GPGSV,4,2,16,23,01,046,,26,28,204,35,27,47,302,10,28,53,141,25*7D
$GPGSV,4,3,16,29,08,148,17,31,39,182,25,32,51,001,28,36,52,277,*7B
$GPGSV,4,4,16,40,84,353,,41,58,082,,49,32,274,,50,10,089,*79
$GLGSV,3,1,09,68,11,008,,69,41,324,19,70,25,245,19,79,13,134,16*69
$GLGSV,3,2,09,80,15,186,15,81,13,143,18,82,51,107,14,83,47,016,16*6B
$GLGSV,3,3,09,84,02,343,*56
$GNGLL,0420.00996,S,05539.75898,E,114651.00,A,A*6D
$GNRMC,114652.00,A,0420.00993,S,05539.75884,E,0.331,,020625,,,A*7D
$GNVTG,,T,,M,0.331,N,0.613,K,A*38
$GNGGA,114652.00,0420.00993,S,05539.75884,E,1,12,0.86,19.2,M,-47.6,M,,*4C
$GNGSA,A,3,32,29,26,28,10,18,16,31,27,,,,1.99,0.86,1.79*10
$GNGSA,A,3,69,81,82,79,80,83,,,,,,,1.99,0.86,1.79*1D
$GPGSV,4,1,16,08,12,315,,10,15,008,12,16,24,235,23,18,33,092,19*77
$GPGSV,4,2,16,23,01,046,,26,28,204,37,27,47,302,13,28,53,141,25*7C
$GPGSV,4,3,16,29,08,148,15,31,39,182,23,32,51,001,29,36,52,277,*7E
$GPGSV,4,4,16,40,84,353,,41,58,082,,49,32,274,,50,10,089,*79
$GLGSV,3,1,09,68,11,008,,69,41,324,21,70,25,245,19,79,13,134,15*61
$GLGSV,3,2,09,80,15,186,08,81,13,143,19,82,51,108,12,83,47,016,14*6D
$GLGSV,3,3,09,84,02,343,*56
$GNGLL,0420.00993,S,05539.75884,E,114652.00,A,A*66
$GNRMC,114653.00,A,0420.00986,S,05539.75868,E,0.546,,020625,,,A*7C
$GNVTG,,T,,M,0.546,N,1.011,K,A*3B
$GNGGA,114653.00,0420.00986,S,05539.75868,E,1,12,0.90,19.3,M,-47.6,M,,*4D
$GNGSA,A,3,32,26,28,10,18,16,31,27,,,,,2.18,0.90,1.98*19
$GNGSA,A,3,69,81,79,80,83,,,,,,,,2.18,0.90,1.98*15
$GPGSV,4,1,16,08,12,315,,10,15,008,08,16,24,235,22,18,33,092,19*7D
$GPGSV,4,2,16,23,01,046,,26,28,204,38,27,47,302,10,28,53,141,25*70
$GPGSV,4,3,16,29,08,148,,31,39,182,21,32,51,001,29,36,52,277,*78
$GPGSV,4,4,16,40,84,353,,41,58,082,,49,32,274,,50,10,089,*79
$GLGSV,3,1,09,68,11,008,,69,41,324,21,70,25,245,19,79,13,134,14*60
$GLGSV,3,2,09,80,15,186,12,81,13,143,21,82,51,108,10,83,47,017,14*6E
$GLGSV,3,3,09,84,02,343,*56
$GNGLL,0420.00986,S,05539.75868,E,114653.00,A,A*61
$GNRMC,114654.00,A,0420.00983,S,05539.75856,E,0.443,,020625,,,A*77
$GNVTG,,T,,M,0.443,N,0.821,K,A*35
$GNGGA,114654.00,0420.00983,S,05539.75856,E,1,12,0.90,19.5,M,-47.6,M,,*44
$GNGSA,A,3,32,26,28,10,18,16,31,27,,,,,2.18,0.90,1.98*19
$GNGSA,A,3,69,81,79,80,83,,,,,,,,2.18,0.90,1.98*15
$GPGSV,4,1,16,08,12,315,,10,15,008,12,16,24,235,23,18,33,092,18*76
$GPGSV,4,2,16,23,01,046,,26,28,204,38,27,47,302,10,28,53,141,24*71
$GPGSV,4,3,16,29,08,148,16,31,39,182,23,32,51,001,28,36,52,277,*7C
$GPGSV,4,4,16,40,84,353,,41,58,082,,49,32,274,,50,10,089,*79
$GLGSV,3,1,09,68,11,008,,69,41,324,21,70,25,245,19,79,13,134,14*60
$GLGSV,3,2,09,80,15,186,11,81,13,143,20,82,51,108,10,83,47,017,16*6E
$GLGSV,3,3,09,84,03,344,*50
$GNGLL,0420.00983,S,05539.75856,E,114654.00,A,A*6E
$GNRMC,114655.00,A,0420.00982,S,05539.75874,E,0.118,,020625,,,A*7C
$GNVTG,,T,,M,0.118,N,0.218,K,A*3E
$GNGGA,114655.00,0420.00982,S,05539.75874,E,1,12,0.93,19.1,M,-47.6,M,,*43
$GNGSA,A,3,32,26,28,10,18,16,31,,,,,,2.19,0.93,1.99*1F
$GNGSA,A,3,69,81,79,80,83,,,,,,,,2.19,0.93,1.99*16
$GPGSV,4,1,16,08,12,315,,10,15,008,10,16,24,235,23,18,33,092,16*7A
$GPGSV,4,2,16,23,01,046,,26,28,204,36,27,47,302,09,28,53,141,24*77
$GPGSV,4,3,16,29,08,148,19,31,39,182,24,32,51,001,27,36,52,277,*7B
$GPGSV,4,4,16,40,84,353,,41,58,082,,49,32,274,,50,10,089,*79
$GLGSV,3,1,09,68,11,008,,69,41,324,23,70,25,245,19,79,13,134,14*62
$GLGSV,3,2,09,80,15,186,16,81,13,143,17,82,51,108,08,83,47,017,17*65
$GLGSV,3,3,09,84,03,344,*50
$GNGLL,0420.00982,S,05539.75874,E,114655.00,A,A*6E
$GNRMC,114656.00,A,0420.00979,S,05539.75893,E,0.330,,020625,,,A*7A
$GNVTG,,T,,M,0.330,N,0.612,K,A*38
$GNGGA,114656.00,0420.00979,S,05539.75893,E,1,12,0.90,18.7,M,-47.6,M,,*49
$GNGSA,A,3,32,26,28,18,16,31,27,,,,,,2.18,0.90,1.98*18
$GNGSA,A,3,69,81,82,79,80,83,,,,,,,2.18,0.90,1.98*1F
