$GNRMC,114951.00,A,0420.00784,S,05539.77311,E,0.558,,020625,,,A*75
$GNVTG,,T,,M,0.558,N,1.034,K,A*33
$GNGGA,114951.00,0420.00784,S,05539.77311,E,1,12,0.85,24.8,M,-47.6,M,,*4A
$GNGSA,A,3,32,29,26,28,10,18,16,31,27,,,,1.80,0.85,1.58*18
$GNGSA,A,3,69,81,82,79,80,83,,,,,,,1.80,0.85,1.58*15
$GPGSV,4,1,16,08,13,314,,10,14,009,09,16,24,233,15,18,33,094,25*77
$GPGSV,4,2,16,23,01,047,,26,28,202,24,27,48,301,20,28,53,139,26*79
$GPGSV,4,3,16,29,07,147,23,31,40,181,25,32,50,002,21,36,52,277,*7A
$GPGSV,4,4,16,40,84,353,,41,58,082,,49,32,274,,50,10,089,*79
$GLGSV,3,1,09,68,10,009,,69,40,326,17,70,25,247,,79,13,132,13*6D
$GLGSV,3,2,09,80,15,184,21,81,12,144,22,82,51,110,27,83,49,018,23*61
$GLGSV,3,3,09,84,04,344,*57
$GNGLL,0420.00784,S,05539.77311,E,114951.00,A,A*67
$GNRMC,114952.00,A,0420.00794,S,05539.77305,E,1.285,,020625,,,A*74
$GNVTG,,T,,M,1.285,N,2.379,K,A*3C
$GNGGA,114952.00,0420.00794,S,05539.77305,E,1,12,0.87,25.0,M,-47.6,M,,*46
$GNGSA,A,3,32,29,26,28,10,18,16,31,27,,,,1.88,0.87,1.66*1F
$GNGSA,A,3,69,81,82,79,80,83,,,,,,,1.88,0.87,1.66*12
$GPGSV,4,1,16,08,13,314,,10,14,009,08,16,24,233,14,18,33,094,22*70
$GPGSV,4,2,16,23,01,047,,26,28,202,22,27,48,301,19,28,53,139,23*70
$GPGSV,4,3,16,29,07,147,19,31,40,181,23,32,50,002,20,36,52,277,*74
$GPGSV,4,4,16,40,84,353,,41,58,082,,49,32,274,,50,10,089,*79
$GLGSV,3,1,09,68,10,009,,69,40,326,14,70,25,247,,79,13,132,11*6C
$GLGSV,3,2,09,80,15,184,20,81,12,144,20,82,51,110,24,83,49,018,21*63
$GLGSV,3,3,09,84,04,344,*57
$GNGLL,0420.00794,S,05539.77305,E,114952.00,A,A*60
$GNRMC,114953.00,A,0420.00808,S,05539.77310,E,0.633,,020625,,,A*73
$GNVTG,,T,,M,0.633,N,1.172,K,A*3E
$GNGGA,114953.00,0420.00808,S,05539.77310,E,1,12,0.85,25.3,M,-47.6,M,,*48
$GNGSA,A,3,32,29,26,28,10,18,16,31,27,,,,1.80,0.85,1.58*18
$GNGSA,A,3,69,81,82,79,80,83,,,,,,,1.80,0.85,1.58*15
$GPGSV,4,1,16,08,13,314,,10,14,009,09,16,24,233,16,18,33,094,26*77
$GPGSV,4,2,16,23,01,047,,26,28,202,24,27,48,301,21,28,53,139,22*7C
$GPGSV,4,3,16,29,07,147,16,31,40,181,25,32,50,002,18,36,52,277,*76
$GPGSV,4,4,16,40,84,353,,41,58,082,,49,32,274,,50,10,089,*79
$GLGSV,3,1,09,68,10,009,,69,40,326,15,70,25,247,,79,13,132,11*6D
$GLGSV,3,2,09,80,15,184,22,81,12,144,20,82,51,110,25,83,49,018,22*63
$GLGSV,3,3,09,84,04,344,*57
$GNGLL,0420.00808,S,05539.77310,E,114953.00,A,A*6F
$GNRMC,114954.00,A,0420.00810,S,05539.77310,E,0.566,,020625,,,A*7E
$GNVTG,,T,,M,0.566,N,1.049,K,A*34
$GNGGA,114954.00,0420.00810,S,05539.77310,E,1,12,0.85,25.2,M,-47.6,M,,*47
$GNGSA,A,3,32,29,26,28,10,18,16,31,27,,,,1.79,0.85,1.58*1E
$GNGSA,A,3,69,81,82,79,80,83,,,,,,,1.79,0.85,1.58*13
$GPGSV,4,1,16,08,13,314,,10,14,009,10,16,24,233,17,18,33,094,32*7B
$GPGSV,4,2,16,23,01,047,,26,28,202,26,27,48,300,22,28,53,139,26*78
$GPGSV,4,3,16,29,07,147,20,31,40,181,23,32,50,002,21,36,52,277,*7F
$GPGSV,4,4,16,40,84,353,,41,58,082,,49,32,274,,50,10,089,*79
$GLGSV,3,1,09,68,10,009,,69,40,326,14,70,25,247,,79,13,132,16*6B
$GLGSV,3,2,09,80,15,184,22,81,12,144,20,82,51,110,26,83,49,018,22*60
$GLGSV,3,3,09,84,04,344,*57
$GNGLL,0420.00810,S,05539.77310,E,114954.00,A,A*61
$GNRMC,114955.00,A,0420.00822,S,05539.77333,E,0.512,,020625,,,A*7C
$GNVTG,,T,,M,0.512,N,0.947,K,A*31
$GNGGA,114955.00,0420.00822,S,05539.77333,E,1,12,0.85,25.0,M,-47.6,M,,*44
$GNGSA,A,3,32,29,26,28,10,18,16,31,27,,,,1.79,0.85,1.58*1E
$GNGSA,A,3,69,81,82,79,80,83,,,,,,,1.79,0.85,1.58*13
$GPGSV,4,1,16,08,13,314,,10,14,009,08,16,24,233,20,18,33,094,31*75
$GPGSV,4,2,16,23,01,047,,26,28,202,27,27,48,300,24,28,54,139,27*79
$GPGSV,4,3,16,29,07,147,21,31,40,181,21,32,50,002,23,36,52,277,*7E
$GPGSV,4,4,16,40,84,353,,41,58,082,,49,32,274,,50,10,089,*79
$GLGSV,3,1,09,68,10,009,,69,40,326,16,70,25,247,,79,13,132,18*67
$GLGSV,3,2,09,80,15,184,22,81,12,144,20,82,51,110,28,83,49,018,23*6F
$GLGSV,3,3,09,84,04,344,*57
$GNGLL,0420.00822,S,05539.77333,E,114955.00,A,A*60
$GNRMC,114956.00,A,0420.00838,S,05539.77353,E,0.557,,020625,,,A*73
$GNVTG,,T,,M,0.557,N,1.031,K,A*39
$GNGGA,114956.00,0420.00838,S,05539.77353,E,1,12,0.85,24.6,M,-47.6,M,,*4D
$GNGSA,A,3,32,29,26,28,10,18,16,31,27,,,,1.79,0.85,1.58*1E
$GNGSA,A,3,69,81,82,79,80,83,,,,,,,1.79,0.85,1.58*13
$GPGSV,4,1,16,08,13,314,,10,14,009,08,16,24,233,22,18,33,094,30*76
$GPGSV,4,2,16,23,01,047,10,26,28,202,28,27,48,300,22,28,54,139,32*75
$GPGSV,4,3,16,29,07,147,20,31,40,181,30,32,50,002,23,36,52,277,*7F
$GPGSV,4,4,16,40,84,353,,41,58,082,,49,32,274,,50,10,089,*79
$GLGSV,3,1,09,68,10,009,,69,40,326,18,70,25,247,,79,13,132,17*66
$GLGSV,3,2,09,80,15,184,23,81,12,144,21,82,51,110,30,83,49,018,25*60
$GLGSV,3,3,09,84,04,344,*57
$GNGLL,0420.00838,S,05539.77353,E,114956.00,A,A*6E
$GNRMC,114957.00,A,0420.00834,S,05539.77372,E,0.939,,020625,,,A*79
$GNVTG,,T,,M,0.939,N,1.739,K,A*32
$GNGGA,114957.00,0420.00834,S,05539.77372,E,1,12,0.85,25.6,M,-47.6,M,,*42
$GNGSA,A,3,32,29,26,28,10,18,16,31,27,,,,1.79,0.85,1.58*1E
$GNGSA,A,3,69,81,82,79,80,83,,,,,,,1.79,0.85,1.58*13
$GPGSV,4,1,16,08,13,314,,10,14,009,07,16,24,233,22,18,33,094,21*79
$GPGSV,4,2,16,23,01,047,10,26,28,202,26,27,48,300,21,28,54,139,27*7C
$GPGSV,4,3,16,29,07,147,20,31,40,181,23,32,50,002,25,36,52,277,*7B
$GPGSV,4,4,16,40,84,353,,41,58,082,,49,32,274,,50,10,089,*79
$GLGSV,3,1,09,68,10,009,,69,40,326,20,70,25,247,,79,13,132,16*6C
$GLGSV,3,2,09,80,15,184,23,81,12,144,19,82,51,110,27,83,49,018,23*6B
$GLGSV,3,3,09,84,04,344,*57
$GNGLL,0420.00834,S,05539.77372,E,114957.00,A,A*60
$GNRMC,114958.00,A,0420.00836,S,05539.77416,E,1.208,,020625,,,A*79
$GNVTG,,T,,M,1.208,N,2.237,K,A*32
$GNGGA,114958.00,0420.00836,S,05539.77416,E,1,12,0.87,25.5,M,-47.6,M,,*4B
$GNGSA,A,3,32,29,26,28,10,18,16,31,27,,,,1.87,0.87,1.66*10
$GNGSA,A,3,69,81,82,80,83,,,,,,,,1.87,0.87,1.66*13
$GPGSV,4,1,16,08,13,314,,10,14,009,09,16,24,233,20,18,33,094,23*77
$GPGSV,4,2,16,23,01,047,08,26,28,202,23,27,48,300,21,28,54,139,28*7F
$GPGSV,4,3,16,29,07,147,21,31,40,181,25,32,50,002,27,36,52,277,*7E
$GPGSV,4,4,16,40,84,353,,41,58,082,,49,32,274,,50,10,089,*79
$GLGSV,3,1,09,68,10,009,,69,40,326,19,70,25,247,,79,13,132,*61
$GLGSV,3,2,09,80,15,184,24,81,12,144,16,82,51,110,26,83,49,018,24*65
$GLGSV,3,3,09,84,04,344,*57
$GNGLL,0420.00836,S,05539.77416,E,114958.00,A,A*68
$GNRMC,114959.00,A,0420.00857,S,05539.77418,E,1.036,,020625,,,A*7E
$GNVTG,,T,,M,1.036,N,1.918,K,A*38
$GNGGA,114959.00,0420.00857,S,05539.77418,E,1,12,0.89,25.6,M,-47.6,M,,*4E
$GNGSA,A,3,32,29,26,28,18,16,31,27,,,,,2.00,0.89,1.80*1B
$GNGSA,A,3,69,82,80,83,,,,,,,,,2.00,0.89,1.80*10
$GPGSV,4,1,16,08,13,314,,10,14,009,05,16,24,233,18,18,33,094,23*70
$GPGSV,4,2,16,23,01,047,09,26,28,202,20,27,48,300,19,28,54,139,26*78
$GPGSV,4,3,16,29,07,147,20,31,40,181,24,32,50,002,25,36,52,277,*7C
$GPGSV,4,4,16,40,84,353,,41,58,082,,49,32,274,,50,10,089,*79
$GLGSV,3,1,09,68,10,009,,69,40,326,19,70,25,247,,79,13,132,*61
$GLGSV,3,2,09,80,15,184,22,81,12,144,,82,51,110,23,83,49,018,23*66
$GLGSV,3,3,09,84,04,344,*57
$GNGLL,0420.00857,S,05539.77418,E,114959.00,A,A*60
$GNRMC,115000.00,A,0420.00870,S,05539.77440,E,0.639,,020625,,,A*7A
$GNVTG,,T,,M,0.639,N,1.184,K,A*3D
$GNGGA,115000.00,0420.00870,S,05539.77440,E,1,12,0.93,26.1,M,-47.6,M,,*4D
$GNGSA,A,3,32,29,26,28,10,18,16,31,,,,,2.04,0.93,1.81*11
$GNGSA,A,3,69,82,80,83,,,,,,,,,2.04,0.93,1.81*1E
$GPGSV,4,1,16,08,13,314,,10,14,009,07,16,24,233,16,18,33,094,22*7D
$GPGSV,4,2,16,23,01,047,11,26,28,202,18,27,48,300,20,28,54,139,25*73
$GPGSV,4,3,16,29,07,147,19,31,40,181,24,32,50,002,25,36,52,277,*76
$GPGSV,4,4,16,40,84,353,,41,58,082,,49,32,274,,50,10,089,*79
$GLGSV,3,1,09,68,10,009,,69,40,326,16,70,25,247,,79,13,132,*6E
$GLGSV,3,2,09,80,15,184,19,81,12,144,,82,51,110,21,83,49,018,21*6E
$GLGSV,3,3,09,84,04,344,*57
$GNGLL,0420.00870,S,05539.77440,E,115000.00,A,A*6C
$GNRMC,115001.00,A,0420.00880,S,05539.77463,E,0.615,,020625,,,A*7B
$GNVTG,,T,,M,0.615,N,1.139,K,A*35
$GNGGA,115001.00,0420.00880,S,05539.77463,E,1,12,0.93,26.5,M,-47.6,M,,*46
$GNGSA,A,3,32,29,26,28,10,18,16,31,,,,,2.04,0.93,1.81*11
$GNGSA,A,3,69,82,80,83,,,,,,,,,2.04,0.93,1.81*1E
$GPGSV,4,1,16,08,13,314,,10,14,009,11,16,24,233,16,18,33,094,23*7B
$GPGSV,4,2,16,23,01,047,11,26,28,202,19,27,48,300,20,28,54,139,31*77
$GPGSV,4,3,16,29,07,147,19,31,40,181,23,32,50,002,24,36,52,277,*70
$GPGSV,4,4,16,40,84,353,,41,58,082,,49,32,274,,50,10,089,*79
$GLGSV,3,1,09,68,10,009,,69,40,326,13,70,25,247,,79,13,132,*6B
$GLGSV,3,2,09,80,15,184,18,81,12,144,,82,51,110,20,83,49,018,21*6E
$GLGSV,3,3,09,84,04,344,*57
$GNGLL,0420.00880,S,05539.77463,E,115001.00,A,A*63
$GNRMC,115002.00,A,0420.00902,S,05539.77476,E,0.670,,020625,,,A*74
$GNVTG,,T,,M,0.670,N,1.241,K,A*3A
$GNGGA,115002.00,0420.00902,S,05539.77476,E,1,11,0.93,26.8,M,-47.6,M,,*44
$GNGSA,A,3,32,29,26,28,18,16,31,,,,,,2.04,0.93,1.81*10
$GNGSA,A,3,69,82,80,83,,,,,,,,,2.04,0.93,1.81*1E
$GPGSV,4,1,16,08,13,314,,10,14,009,07,16,24,233,18,18,33,094,24*75
$GPGSV,4,2,16,23,01,047,08,26,28,202,19,27,48,300,20,28,54,139,29*76
$GPGSV,4,3,16,29,07,147,19,31,40,181,24,32,50,002,22,36,52,277,*71
$GPGSV,4,4,16,40,84,353,,41,58,082,,49,32,274,,50,10,089,*79
$GLGSV,3,1,09,68,10,009,,69,40,326,12,70,25,247,,79,13,132,*6A
$GLGSV,3,2,09,80,15,184,20,81,12,144,,82,51,110,20,83,49,018,23*67
$GLGSV,3,3,09,84,04,344,*57
$GNGLL,0420.00902,S,05539.77476,E,115002.00,A,A*6F
$GNRMC,115003.00,A,0420.00898,S,05539.77503,E,0.835,,020625,,,A*7B
$GNVTG,,T,,M,0.835,N,1.546,K,A*35
$GNGGA,115003.00,0420.00898,S,05539.77503,E,1,12,0.89,26.4,M,-47.6,M,,*40
$GNGSA,A,3,32,29,26,28,10,18,16,31,27,,,,2.00,0.89,1.79*1C
$GNGSA,A,3,69,82,80,83,,,,,,,,,2.00,0.89,1.79*16
$GPGSV,4,1,16,08,13,314,,10,14,009,11,16,24,233,20,18,33,094,26*7B
$GPGSV,4,2,16,23,01,047,10,26,28,202,21,27,48,300,20,28,54,139,28*75
$GPGSV,4,3,16,29,07,147,20,31,40,181,25,32,50,002,21,36,52,277,*79
$GPGSV,4,4,16,40,84,353,,41,58,082,,49,32,274,,50,10,089,*79
$GLGSV,3,1,09,68,10,009,,69,40,326,16,70,25,247,,79,13,132,*6E
$GLGSV,3,2,09,80,15,184,21,81,12,144,,82,51,110,22,83,49,018,24*63
$GLGSV,3,3,09,84,04,344,*57
$GNGLL,0420.00898,S,05539.77503,E,115003.00,A,A*6F
$GNRMC,115004.00,A,0420.00891,S,05539.77494,E,0.240,,020625,,,A*72
$GNVTG,,T,,M,0.240,N,0.444,K,A*3F
$GNGGA,115004.00,0420.00891,S,05539.77494,E,1,12,0.89,26.7,M,-47.6,M,,*42
$GNGSA,A,3,32,29,26,28,18,16,31,27,,,,,2.00,0.89,1.79*1D
$GNGSA,A,3,69,82,80,83,,,,,,,,,2.00,0.89,1.79*16
$GPGSV,4,1,16,08,13,314,,10,14,009,07,16,24,233,19,18,33,094,26*76
$GPGSV,4,2,16,23,01,047,08,26,28,202,24,27,48,300,22,28,54,139,27*74
$GPGSV,4,3,16,29,07,147,19,31,40,181,25,32,50,002,23,36,52,277,*71
$GPGSV,4,4,16,40,84,353,,41,58,082,,49,32,274,,50,10,089,*79
$GLGSV,3,1,09,68,10,009,,69,40,326,16,70,25,247,,79,13,132,*6E
$GLGSV,3,2,09,80,15,184,22,81,12,144,,82,51,110,23,83,49,018,23*66
$GLGSV,3,3,09,84,04,344,*57
$GNGLL,0420.00891,S,05539.77494,E,115004.00,A,A*6E
$GNRMC,115005.00,A,0420.00895,S,05539.77508,E,0.255,,020625,,,A*77
$GNVTG,,T,,M,0.255,N,0.472,K,A*3E
$GNGGA,115005.00,0420.00895,S,05539.77508,E,1,12,0.89,27.1,M,-47.6,M,,*44
$GNGSA,A,3,32,29,26,28,10,18,16,31,27,,,,2.00,0.89,1.79*1C
$GNGSA,A,3,69,82,80,83,,,,,,,,,2.00,0.89,1.79*16
$GPGSV,4,1,16,08,13,314,,10,14,009,09,16,24,233,16,18,33,094,28*79
$GPGSV,4,2,16,23,01,047,10,26,28,202,24,27,48,300,23,28,54,139,32*78
$GPGSV,4,3,16,29,07,147,21,31,40,181,25,32,50,002,26,36,52,277,*7F
$GPGSV,4,4,16,40,84,353,,41,58,082,,49,32,274,,50,10,089,*79
$GLGSV,3,1,09,68,10,009,,69,40,326,17,70,25,247,,79,13,132,*6F
$GLGSV,3,2,09,80,15,184,23,81,12,144,24,82,51,110,29,83,49,018,25*6D
$GLGSV,3,3,09,84,04,344,*57
$GNGLL,0420.00895,S,05539.77508,E,115005.00,A,A*6F
$GNRMC,115006.00,A,0420.00891,S,05539.77508,E,0.058,,020625,,,A*7F
$GNVTG,,T,,M,0.058,N,0.108,K,A*39
$GNGGA,115006.00,0420.00891,S,05539.77508,E,1,12,0.89,27.0,M,-47.6,M,,*42
$GNGSA,A,3,32,29,26,28,10,18,16,31,27,,,,2.00,0.89,1.79*1C
$GNGSA,A,3,69,81,82,80,83,,,,,,,,2.00,0.89,1.79*1F
$GPGSV,4,1,16,08,13,314,,10,14,009,10,16,24,233,17,18,33,094,31*78
$GPGSV,4,2,16,23,01,047,07,26,28,202,26,27,48,300,25,28,54,139,32*7A
$GPGSV,4,3,16,29,07,147,23,31,40,181,27,32,50,002,26,36,52,277,*7F
$GPGSV,4,4,16,40,84,353,,41,58,082,,49,32,274,,50,10,089,*79
$GLGSV,3,1,09,68,10,009,,69,40,326,19,70,25,247,,79,13,132,*61
$GLGSV,3,2,09,80,15,184,24,81,12,144,28,82,51,110,31,83,49,018,27*6D
$GLGSV,3,3,09,84,04,344,*57
$GNGLL,0420.00891,S,05539.77508,E,115006.00,A,A*68
$GNRMC,115007.00,A,0420.00894,S,05539.77507,E,0.145,,020625,,,A*79
$GNVTG,,T,,M,0.145,N,0.269,K,A*30
$GNGGA,115007.00,0420.00894,S,05539.77507,E,1,12,0.87,27.3,M,-47.6,M,,*44
$GNGSA,A,3,32,29,26,28,18,16,31,27,,,,,1.87,0.87,1.66*11
$GNGSA,A,3,69,81,82,80,83,,,,,,,,1.87,0.87,1.66*13
$GPGSV,4,1,16,08,13,314,,10,14,009,06,16,24,233,15,18,33,094,25*78
$GPGSV,4,2,16,23,01,047,08,26,28,202,26,27,48,300,24,28,54,139,30*76
$GPGSV,4,3,16,29,07,147,25,31,40,181,31,32,50,002,26,36,52,277,*7E
$GPGSV,4,4,16,40,84,353,,41,58,082,,49,32,274,,50,10,089,*79
$GLGSV,3,1,09,68,10,009,,69,40,326,19,70,25,247,,79,13,132,*61
$GLGSV,3,2,09,80,15,184,24,81,12,144,29,82,51,110,34,83,49,018,26*68
$GLGSV,3,3,09,84,04,344,*57
$GNGLL,0420.00894,S,05539.77507,E,115007.00,A,A*63
$GNRMC,115008.00,A,0420.00891,S,05539.77504,E,0.122,,020625,,,A*71
$GNVTG,,T,,M,0.122,N,0.225,K,A*39
$GNGGA,115008.00,0420.00891,S,05539.77504,E,1,12,0.87,26.6,M,-47.6,M,,*49
$GNGSA,A,3,32,29,26,28,18,16,31,27,,,,,1.87,0.87,1.66*11
$GNGSA,A,3,69,81,82,80,83,,,,,,,,1.87,0.87,1.66*13
$GPGSV,4,1,16,08,13,314,,10,14,009,11,16,24,233,18,18,33,094,27*71
$GPGSV,4,2,16,23,01,047,07,26,28,202,27,27,48,300,23,28,54,139,30*7F
$GPGSV,4,3,16,29,07,147,26,31,40,181,30,32,50,002,26,36,52,277,*7C
$GPGSV,4,4,16,40,84,353,,41,58,082,,49,32,274,,50,10,089,*79
$GLGSV,3,1,09,68,10,009,,69,40,326,20,70,25,247,,79,13,132,*6B
$GLGSV,3,2,09,80,15,184,23,81,12,144,30,82,51,110,34,83,49,018,24*65
$GLGSV,3,3,09,84,04,344,*57
$GNGLL,0420.00891,S,05539.77504,E,115008.00,A,A*6A
$GNRMC,115009.00,A,0420.00896,S,05539.77522,E,0.261,,020625,,,A*77
$GNVTG,,T,,M,0.261,N,0.484,K,A*30
$GNGGA,115009.00,0420.00896,S,05539.77522,E,1,12,0.87,26.7,M,-47.6,M,,*4A
$GNGSA,A,3,32,29,26,28,18,16,31,27,,,,,1.87,0.87,1.66*11
$GNGSA,A,3,69,81,82,80,83,,,,,,,,1.87,0.87,1.66*13
$GPGSV,4,1,16,08,13,314,,10,14,009,08,16,24,233,19,18,33,094,30*7E
$GPGSV,4,2,16,23,01,047,10,26,28,202,27,27,48,300,21,28,54,139,34*7F
$GPGSV,4,3,16,29,07,147,24,31,40,181,29,32,50,002,22,36,52,277,*72
$GPGSV,4,4,16,40,84,353,,41,58,082,,49,32,274,,50,10,089,*79
$GLGSV,3,1,09,68,10,009,,69,40,326,19,70,25,247,,79,13,132,*61
$GLGSV,3,2,09,80,15,184,23,81,12,144,32,82,51,110,32,83,49,018,25*60
$GLGSV,3,3,09,84,04,344,*57
$GNGLL,0420.00896,S,05539.77522,E,115009.00,A,A*68
$GNRMC,115010.00,A,0420.00892,S,05539.77529,E,0.086,,020625,,,A*7B
$GNVTG,,T,,M,0.086,N,0.159,K,A*3E
$GNGGA,115010.00,0420.00892,S,05539.77529,E,1,12,0.87,26.5,M,-47.6,M,,*4F
$GNGSA,A,3,32,29,26,28,18,16,31,27,,,,,1.87,0.87,1.66*11
$GNGSA,A,3,69,81,82,80,83,,,,,,,,1.87,0.87,1.66*13
$GPGSV,4,1,16,08,13,314,,10,14,009,07,16,24,233,19,18,33,094,30*71
$GPGSV,4,2,16,23,01,047,08,26,28,202,25,27,48,300,20,28,54,139,33*72
$GPGSV,4,3,16,29,07,147,24,31,40,181,30,32,50,002,23,36,52,277,*7B
$GPGSV,4,4,16,40,84,353,,41,58,082,,49,32,274,,50,10,089,*79
$GLGSV,3,1,09,68,10,009,,69,40,326,18,70,25,247,,79,13,132,*60
$GLGSV,3,2,09,80,15,184,22,81,12,144,32,82,51,110,33,83,49,018,26*63
$GLGSV,3,3,09,84,04,344,*57
$GNGLL,0420.00892,S,05539.77529,E,115010.00,A,A*6F
$GNRMC,115011.00,A,0420.00894,S,05539.77533,E,0.009,,020625,,,A*70
$GNVTG,,T,,M,0.009,N,0.018,K,A*3D
$GNGGA,115011.00,0420.00894,S,05539.77533,E,1,12,0.87,26.4,M,-47.6,M,,*42
$GNGSA,A,3,32,29,26,28,18,16,31,27,,,,,1.87,0.87,1.66*11
$GNGSA,A,3,69,81,82,80,83,,,,,,,,1.87,0.87,1.66*13
$GPGSV,4,1,16,08,13,314,,10,14,009,09,16,24,233,18,18,33,094,29*76
$GPGSV,4,2,16,23,01,047,08,26,28,202,26,27,48,300,20,28,54,139,28*7B
$GPGSV,4,3,16,29,07,147,25,31,40,181,30,32,50,002,25,36,52,277,*7C
$GPGSV,4,4,16,40,84,353,,41,58,082,,49,32,274,,50,10,089,*79
$GLGSV,3,1,09,68,10,009,,69,40,326,16,70,25,247,,79,13,132,*6E
$GLGSV,3,2,09,80,15,184,23,81,12,144,31,82,51,110,33,83,49,018,25*62
$GLGSV,3,3,09,84,04,344,*57
$GNGLL,0420.00894,S,05539.77533,E,115011.00,A,A*63
$GNRMC,115012.00,A,0420.00895,S,05539.77536,E,0.104,,020625,,,A*7B
$GNVTG,,T,,M,0.104,N,0.192,K,A*32
$GNGGA,115012.00,0420.00895,S,05539.77536,E,1,12,0.87,26.1,M,-47.6,M,,*40
$GNGSA,A,3,32,29,26,28,18,16,31,27,,,,,1.87,0.87,1.65*12
$GNGSA,A,3,69,81,82,80,83,,,,,,,,1.87,0.87,1.65*10
$GPGSV,4,1,16,08,13,314,,10,14,009,08,16,24,233,18,18,33,094,28*76
$GPGSV,4,2,16,23,01,047,09,26,28,202,26,27,48,300,21,28,54,139,29*7A
$GPGSV,4,3,16,29,07,147,27,31,40,181,29,32,50,002,26,36,52,277,*75
$GPGSV,4,4,16,40,84,353,,41,58,082,,49,32,274,,50,10,089,*79
$GLGSV,3,1,09,68,10,009,,69,40,326,16,70,25,247,,79,13,132,18*67
$GLGSV,3,2,09,80,15,184,23,81,12,144,31,82,51,110,32,83,49,018,26*60
$GLGSV,3,3,09,84,04,344,*57
$GNGLL,0420.00895,S,05539.77536,E,115012.00,A,A*64
$GNRMC,115013.00,A,0420.00897,S,05539.77534,E,0.047,,020625,,,A*7C
$GNVTG,,T,,M,0.047,N,0.088,K,A*3E
$GNGGA,115013.00,0420.00897,S,05539.77534,E,1,12,0.87,26.2,M,-47.6,M,,*42
$GNGSA,A,3,32,29,26,28,10,18,16,31,27,,,,1.87,0.87,1.65*13
$GNGSA,A,3,69,81,82,80,83,,,,,,,,1.87,0.87,1.65*10
$GPGSV,4,1,16,08,13,314,,10,14,009,10,16,24,233,15,18,33,094,33*78
$GPGSV,4,2,16,23,01,047,07,26,28,202,25,27,48,300,22,28,54,139,29*74
$GPGSV,4,3,16,29,07,147,26,31,40,181,19,32,50,002,24,36,52,277,*75
$GPGSV,4,4,16,40,84,353,,41,58,082,,49,32,274,,50,10,089,*79
$GLGSV,3,1,09,68,10,009,,69,40,326,17,70,25,247,,79,13,132,16*68
$GLGSV,3,2,09,80,15,184,20,81,12,144,29,82,51,110,31,83,49,018,29*66
$GLGSV,3,3,09,84,04,344,*57
$GNGLL,0420.00897,S,05539.77534,E,115013.00,A,A*65
$GNRMC,115014.00,A,0420.00904,S,05539.77536,E,0.116,,020625,,,A*77
$GNVTG,,T,,M,0.116,N,0.215,K,A*3D
$GNGGA,115014.00,0420.00904,S,05539.77536,E,1,12,0.87,26.3,M,-47.6,M,,*4D
$GNGSA,A,3,32,29,26,28,10,18,16,31,27,,,,1.87,0.87,1.65*13
$GNGSA,A,3,69,81,82,80,83,,,,,,,,1.87,0.87,1.65*10
$GPGSV,4,1,16,08,13,314,,10,14,009,08,16,24,233,13,18,33,094,29*7C
$GPGSV,4,2,16,23,01,047,07,26,28,202,26,27,48,300,20,28,54,139,28*74
$GPGSV,4,3,16,29,07,147,24,31,40,181,23,32,50,002,23,36,52,277,*79
$GPGSV,4,4,16,40,84,353,,41,58,082,,49,32,274,,50,10,089,*79
$GLGSV,3,1,09,68,10,009,,69,40,326,21,70,25,247,,79,13,132,13*68
$GLGSV,3,2,09,80,15,184,22,81,12,144,18,82,51,110,30,83,49,018,27*69
$GLGSV,3,3,09,84,04,344,*57
$GNGLL,0420.00904,S,05539.77536,E,115014.00,A,A*6B
$GNRMC,115015.00,A,0420.00904,S,05539.77534,E,0.062,,020625,,,A*76
$GNVTG,,T,,M,0.062,N,0.115,K,A*3C
$GNGGA,115015.00,0420.00904,S,05539.77534,E,1,12,0.87,26.3,M,-47.6,M,,*4E
$GNGSA,A,3,32,29,26,28,10,18,16,31,27,,,,1.87,0.87,1.65*13
$GNGSA,A,3,69,81,82,80,83,,,,,,,,1.87,0.87,1.65*10
$GPGSV,4,1,16,08,13,314,,10,14,009,07,16,24,233,15,18,33,094,27*7B
$GPGSV,4,2,16,23,01,047,07,26,28,202,26,27,48,300,20,28,54,139,27*7B
$GPGSV,4,3,16,29,07,147,22,31,40,181,28,32,50,002,23,36,52,277,*74
$GPGSV,4,4,16,40,84,353,,41,58,082,,49,32,274,,50,10,089,*79
$GLGSV,3,1,09,68,10,009,,69,40,326,22,70,25,247,,79,13,132,10*68
$GLGSV,3,2,09,80,15,184,22,81,12,144,16,82,51,110,31,83,49,018,26*67
$GLGSV,3,3,09,84,04,344,*57
$GNGLL,0420.00904,S,05539.77534,E,115015.00,A,A*68
$GNRMC,115016.00,A,0420.00907,S,05539.77524,E,0.409,,020625,,,A*7E
$GNVTG,,T,,M,0.409,N,0.757,K,A*35
$GNGGA,115016.00,0420.00907,S,05539.77524,E,1,12,0.85,26.1,M,-47.6,M,,*4F
$GNGSA,A,3,32,29,26,28,18,16,31,27,,,,,1.79,0.85,1.57*10
$GNGSA,A,3,69,81,82,79,80,83,,,,,,,1.79,0.85,1.57*1C
$GPGSV,4,1,16,08,13,314,,10,14,009,05,16,24,233,13,18,33,094,25*7D
$GPGSV,4,2,16,23,01,047,07,26,28,202,23,27,48,300,21,28,54,139,25*7D
$GPGSV,4,3,16,29,07,147,20,31,40,181,27,32,50,002,22,36,52,277,*78
$GPGSV,4,4,16,40,84,353,,41,58,082,,49,32,274,,50,10,089,*79
$GLGSV,3,1,09,68,10,009,,69,40,326,20,70,25,247,,79,13,132,13*69
$GLGSV,3,2,09,80,15,184,23,81,12,144,15,82,51,110,26,83,49,018,25*60
$GLGSV,3,3,09,84,04,344,*57
$GNGLL,0420.00907,S,05539.77524,E,115016.00,A,A*69
$GNRMC,115017.00,A,0420.00909,S,05539.77518,E,0.160,,020625,,,A*74
$GNVTG,,T,,M,0.160,N,0.296,K,A*37
$GNGGA,115017.00,0420.00909,S,05539.77518,E,1,12,0.92,26.1,M,-47.6,M,,*49
$GNGSA,A,3,32,29,26,28,18,31,27,,,,,,1.84,0.92,1.59*1D
$GNGSA,A,3,69,81,82,79,80,83,,,,,,,1.84,0.92,1.59*16
$GPGSV,4,1,16,08,13,314,,10,14,009,07,16,24,233,09,18,33,094,27*76
$GPGSV,4,2,16,23,01,047,07,26,28,202,24,27,48,300,22,28,54,139,26*7A
$GPGSV,4,3,16,29,07,147,22,31,40,181,26,32,50,002,23,36,52,277,*7A
$GPGSV,4,4,16,40,84,353,,41,58,082,,49,32,274,,50,10,089,*79
$GLGSV,3,1,09,68,10,009,,69,40,326,18,70,25,247,,79,13,132,13*62
$GLGSV,3,2,09,80,15,184,22,81,12,144,15,82,51,110,27,83,49,018,23*66
$GLGSV,3,3,09,84,04,344,*57
$GNGLL,0420.00909,S,05539.77518,E,115017.00,A,A*69
$GNRMC,115018.00,A,0420.00916,S,05539.77510,E,0.358,,020625,,,A*74
$GNVTG,,T,,M,0.358,N,0.664,K,A*37
$GNGGA,115018.00,0420.00916,S,05539.77510,E,1,12,0.85,26.0,M,-47.6,M,,*47
$GNGSA,A,3,32,29,26,28,18,16,31,27,,,,,1.79,0.85,1.57*10
$GNGSA,A,3,69,81,82,79,80,83,,,,,,,1.79,0.85,1.57*1C
$GPGSV,4,1,16,08,13,314,,10,14,009,09,16,24,233,09,18,33,094,26*79
$GPGSV,4,2,16,23,01,047,07,26,28,202,22,27,48,300,20,28,54,139,26*7E
$GPGSV,4,3,16,29,07,147,21,31,40,181,26,32,50,002,22,36,52,277,*78
$GPGSV,4,4,16,40,84,353,,41,58,082,,49,32,274,,50,10,089,*79
$GLGSV,3,1,09,68,10,009,,69,40,326,17,70,25,247,,79,13,132,15*6B
$GLGSV,3,2,09,80,15,184,21,81,12,144,15,82,51,110,27,83,49,018,23*65
$GLGSV,3,3,09,84,04,344,*57
$GNGLL,0420.00916,S,05539.77510,E,115018.00,A,A*60
$GNRMC,115019.00,A,0420.00921,S,05539.77491,E,0.401,,020625,,,A*72
$GNVTG,,T,,M,0.401,N,0.743,K,A*38
$GNGGA,115019.00,0420.00921,S,05539.77491,E,1,12,0.85,25.8,M,-47.6,M,,*41
$GNGSA,A,3,32,29,26,28,18,16,31,27,,,,,1.79,0.85,1.57*10
$GNGSA,A,3,69,81,82,79,80,83,,,,,,,1.79,0.85,1.57*1C
$GPGSV,4,1,16,08,13,314,,10,14,009,11,16,24,233,08,18,33,094,27*70
$GPGSV,4,2,16,23,01,047,08,26,28,202,23,27,48,300,19,28,54,139,25*79
$GPGSV,4,3,16,29,07,147,22,31,40,181,26,32,50,002,22,36,52,277,*7B
$GPGSV,4,4,16,40,84,353,,41,58,082,,49,32,274,,50,10,089,*79
$GLGSV,3,1,09,68,10,009,,69,40,326,18,70,25,247,,79,13,132,16*67
$GLGSV,3,2,09,80,15,184,19,81,12,144,16,82,51,110,28,83,49,018,24*65
$GLGSV,3,3,09,84,04,344,*57
$GNGLL,0420.00921,S,05539.77491,E,115019.00,A,A*6D
$GNRMC,115020.00,A,0420.00924,S,05539.77476,E,0.286,,020625,,,A*7D
$GNVTG,,T,,M,0.286,N,0.529,K,A*3F
$GNGGA,115020.00,0420.00924,S,05539.77476,E,1,12,0.85,26.0,M,-47.6,M,,*4C
$GNGSA,A,3,32,29,26,28,18,16,31,27,,,,,1.79,0.85,1.57*10
$GNGSA,A,3,69,81,82,79,80,83,,,,,,,1.79,0.85,1.57*1C
$GPGSV,4,1,16,08,13,314,,10,14,009,13,16,24,233,13,18,33,094,29*76
$GPGSV,4,2,16,23,01,047,08,26,28,202,24,27,48,300,22,28,54,139,23*70
$GPGSV,4,3,16,29,07,147,22,31,40,181,33,32,50,002,24,36,52,277,*79
$GPGSV,4,4,16,40,84,353,,41,58,082,,49,32,274,,50,10,089,*79
$GLGSV,3,1,09,68,10,009,,69,40,326,17,70,25,247,,79,13,132,16*68
$GLGSV,3,2,09,80,15,184,19,81,12,144,15,82,51,110,34,83,49,018,27*68
$GLGSV,3,3,09,84,04,344,*57
$GNGLL,0420.00924,S,05539.77476,E,115020.00,A,A*6B
$GNRMC,115021.00,A,0420.00916,S,05539.77462,E,0.301,,020625,,,A*76
$GNVTG,,T,,M,0.301,N,0.557,K,A*38
$GNGGA,115021.00,0420.00916,S,05539.77462,E,1,12,0.85,25.9,M,-47.6,M,,*43
$GNGSA,A,3,32,29,26,28,18,16,31,27,,,,,1.79,0.85,1.57*10
$GNGSA,A,3,69,81,82,79,80,83,,,,,,,1.79,0.85,1.57*1C
$GPGSV,4,1,16,08,13,314,,10,14,009,08,16,24,233,16,18,33,094,29*79
$GPGSV,4,2,16,23,01,047,08,26,28,202,24,27,48,300,22,28,54,139,24*77
$GPGSV,4,3,16,29,07,147,23,31,40,181,31,32,50,002,24,36,52,277,*7A
$GPGSV,4,4,16,40,84,353,,41,58,082,,49,32,274,,50,10,089,*79
$GLGSV,3,1,09,68,10,009,,69,40,326,18,70,25,247,,79,13,132,16*67
$GLGSV,3,2,09,80,15,184,19,81,12,144,20,82,51,110,32,83,49,018,27*68
$GLGSV,3,3,09,84,04,344,*57
$GNGLL,0420.00916,S,05539.77462,E,115021.00,A,A*6E
$GNRMC,115022.00,A,0420.00918,S,05539.77456,E,0.114,,020625,,,A*7A
$GNVTG,,T,,M,0.114,N,0.212,K,A*38
$GNGGA,115022.00,0420.00918,S,05539.77456,E,1,12,0.85,26.1,M,-47.6,M,,*42
$GNGSA,A,3,32,29,26,28,10,18,16,31,27,,,,1.79,0.85,1.57*11
$GNGSA,A,3,69,81,82,79,80,83,,,,,,,1.79,0.85,1.57*1C
$GPGSV,4,1,16,08,13,314,,10,14,009,09,16,24,233,11,18,33,094,30*77
$GPGSV,4,2,16,23,01,047,08,26,28,202,26,27,48,300,20,28,54,139,27*74
$GPGSV,4,3,16,29,07,147,23,31,40,181,29,32,50,002,24,36,52,277,*73
$GPGSV,4,4,16,40,84,353,,41,58,082,,49,32,274,,50,10,089,*79
$GLGSV,3,1,09,68,10,009,,69,40,326,17,70,25,247,,79,13,132,15*6B
$GLGSV,3,2,09,80,15,184,20,81,12,144,29,82,51,110,29,83,49,018,27*61
$GLGSV,3,3,09,84,04,344,*57
$GNGLL,0420.00918,S,05539.77456,E,115022.00,A,A*64
$GNRMC,115023.00,A,0420.00924,S,05539.77448,E,0.071,,020625,,,A*79
$GNVTG,,T,,M,0.071,N,0.132,K,A*3B
$GNGGA,115023.00,0420.00924,S,05539.77448,E,1,12,0.85,26.5,M,-47.6,M,,*47
$GNGSA,A,3,32,29,26,28,10,18,16,31,27,,,,1.79,0.85,1.57*11
$GNGSA,A,3,69,81,82,79,80,83,,,,,,,1.79,0.85,1.57*1C
$GPGSV,4,1,16,08,13,314,,10,14,009,07,16,24,233,17,18,33,094,30*7F
$GPGSV,4,2,16,23,01,047,08,26,28,202,26,27,48,300,22,28,54,139,28*79
$GPGSV,4,3,16,29,07,147,26,31,40,181,30,32,50,002,24,36,52,277,*7E
$GPGSV,4,4,16,40,84,353,,41,58,082,,49,32,274,,50,10,089,*79
$GLGSV,3,1,09,68,09,009,,69,40,326,17,70,25,247,,79,13,132,14*62
$GLGSV,3,2,09,80,15,184,21,81,12,144,29,82,51,110,32,83,49,018,27*6A
$GLGSV,3,3,09,84,04,344,*57
$GNGLL,0420.00924,S,05539.77448,E,115023.00,A,A*65
$GNRMC,115024.00,A,0420.00935,S,05539.77459,E,0.272,,020625,,,A*7F
$GNVTG,,T,,M,0.272,N,0.503,K,A*3C
$GNGGA,115024.00,0420.00935,S,05539.77459,E,1,12,0.85,26.8,M,-47.6,M,,*4D
$GNGSA,A,3,32,29,26,28,10,18,16,31,27,,,,1.79,0.85,1.57*11
$GNGSA,A,3,69,81,82,79,80,83,,,,,,,1.79,0.85,1.57*1C
$GPGSV,4,1,16,08,13,314,,10,14,009,11,16,24,233,11,18,33,094,30*7E
$GPGSV,4,2,16,23,01,047,09,26,28,202,26,27,48,300,22,28,54,139,29*79
$GPGSV,4,3,16,29,07,147,26,31,40,181,33,32,50,002,25,36,52,277,*7C
$GPGSV,4,4,16,40,84,353,,41,58,082,,49,32,274,,50,10,089,*79
$GLGSV,3,1,09,68,09,009,,69,39,326,18,70,25,247,,79,13,132,13*64
$GLGSV,3,2,09,80,15,184,21,81,12,144,28,82,51,110,33,83,49,018,27*6A
$GLGSV,3,3,09,84,04,344,*57
$GNGLL,0420.00935,S,05539.77459,E,115024.00,A,A*62
$GNRMC,115025.00,A,0420.00929,S,05539.77446,E,0.241,,020625,,,A*7D
$GNVTG,,T,,M,0.241,N,0.447,K,A*3D
$GNGGA,115025.00,0420.00929,S,05539.77446,E,1,12,0.85,26.6,M,-47.6,M,,*41
$GNGSA,A,3,32,29,26,28,10,18,16,31,27,,,,1.79,0.85,1.57*11
$GNGSA,A,3,69,81,82,79,80,83,,,,,,,1.79,0.85,1.57*1C
$GPGSV,4,1,16,08,13,314,,10,14,009,11,16,24,233,18,18,33,094,31*76
$GPGSV,4,2,16,23,01,047,12,26,28,202,26,27,48,300,20,28,54,139,31*78
$GPGSV,4,3,16,29,07,147,27,31,40,181,33,32,50,002,24,36,52,277,*7C
$GPGSV,4,4,16,40,84,353,,41,58,082,,49,32,274,,50,10,089,*79
$GLGSV,3,1,09,68,09,009,,69,39,326,18,70,25,247,,79,13,132,14*63
$GLGSV,3,2,09,80,15,184,20,81,12,144,27,82,51,110,33,83,49,018,27*64
$GLGSV,3,3,09,84,04,344,*57
$GNGLL,0420.00929,S,05539.77446,E,115025.00,A,A*60
$GNRMC,115026.00,A,0420.00932,S,05539.77441,E,0.054,,020625,,,A*75
$GNVTG,,T,,M,0.054,N,0.100,K,A*3D
$GNGGA,115026.00,0420.00932,S,05539.77441,E,1,12,0.85,26.8,M,-47.6,M,,*41
$GNGSA,A,3,32,29,26,28,10,18,16,31,27,,,,1.79,0.85,1.57*11
$GNGSA,A,3,69,81,82,79,80,83,,,,,,,1.79,0.85,1.57*1C
$GPGSV,4,1,16,08,13,314,,10,14,009,11,16,24,233,15,18,33,094,30*7A
$GPGSV,4,2,16,23,01,047,12,26,28,202,27,27,48,300,24,28,54,139,29*74
$GPGSV,4,3,16,29,07,147,27,31,40,181,33,32,50,002,24,36,52,277,*7C
$GPGSV,4,4,16,40,84,353,,41,58,082,,49,32,274,,50,10,089,*79
$GLGSV,3,1,09,68,09,009,,69,39,326,16,70,25,247,,79,13,132,14*6D
$GLGSV,3,2,09,80,15,184,20,81,12,144,27,82,51,110,34,83,49,018,28*6C
$GLGSV,3,3,09,84,04,344,*57
$GNGLL,0420.00932,S,05539.77441,E,115026.00,A,A*6E
$GNRMC,115027.00,A,0420.00938,S,05539.77444,E,0.162,,020625,,,A*7F
$GNVTG,,T,,M,0.162,N,0.300,K,A*3B
$GNGGA,115027.00,0420.00938,S,05539.77444,E,1,12,0.85,27.3,M,-47.6,M,,*45
$GNGSA,A,3,32,29,26,28,10,18,16,31,27,,,,1.78,0.85,1.57*10
$GNGSA,A,3,69,81,82,79,80,83,,,,,,,1.78,0.85,1.57*1D
$GPGSV,4,1,16,08,13,314,,10,14,009,11,16,24,233,16,18,33,094,29*71
$GPGSV,4,2,16,23,01,047,12,26,28,202,26,27,48,300,24,28,54,139,29*75
$GPGSV,4,3,16,29,07,147,26,31,40,181,33,32,50,002,21,36,52,277,*78
$GPGSV,4,4,16,40,84,353,,41,58,082,,49,32,274,,50,10,089,*79
$GLGSV,3,1,09,68,09,009,,69,39,326,17,70,25,247,,79,13,132,15*6D
$GLGSV,3,2,09,80,15,184,22,81,12,144,28,82,51,110,31,83,49,018,29*65
$GLGSV,3,3,09,84,04,344,*57
$GNGLL,0420.00938,S,05539.77444,E,115027.00,A,A*60
$GNRMC,115028.00,A,0420.00934,S,05539.77436,E,0.157,,020625,,,A*7F
$GNVTG,,T,,M,0.157,N,0.291,K,A*34
$GNGGA,115028.00,0420.00934,S,05539.77436,E,1,12,0.92,27.3,M,-47.6,M,,*45
$GNGSA,A,3,32,29,26,28,10,18,31,27,,,,,1.84,0.92,1.59*1C
$GNGSA,A,3,69,81,82,79,80,83,,,,,,,1.84,0.92,1.59*16
$GPGSV,4,1,16,08,13,314,,10,14,009,12,16,24,233,07,18,33,094,29*72
$GPGSV,4,2,16,23,01,047,12,26,28,202,24,27,48,300,23,28,54,139,29*70
$GPGSV,4,3,16,29,07,147,27,31,40,181,32,32,50,002,19,36,52,277,*73
$GPGSV,4,4,16,40,84,353,,41,58,082,,49,32,274,,50,10,089,*79
$GLGSV,3,1,09,68,09,009,,69,39,326,18,70,25,247,,79,13,132,16*61
$GLGSV,3,2,09,80,15,184,22,81,12,144,28,82,51,110,32,83,49,018,27*68
$GLGSV,3,3,09,84,04,344,*57
$GNGLL,0420.00934,S,05539.77436,E,115028.00,A,A*66
$GNRMC,115029.00,A,0420.00938,S,05539.77437,E,0.180,,020625,,,A*79
$GNVTG,,T,,M,0.180,N,0.332,K,A*36
$GNGGA,115029.00,0420.00938,S,05539.77437,E,1,12,0.92,27.7,M,-47.6,M,,*4D
$GNGSA,A,3,32,29,26,28,10,18,31,27,,,,,1.84,0.92,1.59*1C
$GNGSA,A,3,69,81,82,79,80,83,,,,,,,1.84,0.92,1.59*16
$GPGSV,4,1,16,08,13,314,,10,14,009,09,16,24,233,08,18,33,094,28*76
$GPGSV,4,2,16,23,01,047,12,26,28,202,24,27,48,300,23,28,54,139,30*78
$GPGSV,4,3,16,29,07,147,27,31,40,181,32,32,50,002,17,36,52,277,*7D
$GPGSV,4,4,16,40,84,353,,41,58,082,,49,32,274,,50,10,089,*79
$GLGSV,3,1,09,68,09,009,,69,39,326,20,70,25,247,,79,13,132,15*69
$GLGSV,3,2,09,80,15,184,21,81,12,144,26,82,51,110,33,83,49,018,26*65
$GLGSV,3,3,09,84,04,344,*57
$GNGLL,0420.00938,S,05539.77437,E,115029.00,A,A*6A
$GNRMC,115030.00,A,0420.00938,S,05539.77427,E,0.154,,020625,,,A*79
$GNVTG,,T,,M,0.154,N,0.285,K,A*32
$GNGGA,115030.00,0420.00938,S,05539.77427,E,1,12,0.92,27.8,M,-47.6,M,,*4B
$GNGSA,A,3,32,29,26,28,10,18,16,31,27,,,,1.84,0.92,1.59*1B
$GNGSA,A,3,69,81,82,79,80,83,,,,,,,1.84,0.92,1.59*16
$GPGSV,4,1,16,08,13,314,,10,14,009,12,16,24,233,13,18,33,094,28*76
$GPGSV,4,2,16,23,01,047,12,26,28,202,26,27,48,300,23,28,54,139,32*78
$GPGSV,4,3,16,29,07,147,27,31,40,181,33,32,50,002,17,36,52,277,*7C
$GPGSV,4,4,16,40,84,353,,41,58,082,,49,32,274,,50,10,089,*79
$GLGSV,3,1,09,68,09,009,,69,39,326,20,70,25,247,,79,13,132,13*6F
$GLGSV,3,2,09,80,15,184,20,81,12,144,27,82,51,110,33,83,49,018,26*65
$GLGSV,3,3,09,84,04,344,*57
$GNGLL,0420.00938,S,05539.77427,E,115030.00,A,A*63
$GNRMC,115031.00,A,0420.00930,S,05539.77421,E,0.150,,020625,,,A*72
$GNVTG,,T,,M,0.150,N,0.278,K,A*34
$GNGGA,115031.00,0420.00930,S,05539.77421,E,1,12,0.83,27.5,M,-47.6,M,,*49
$GNGSA,A,3,32,29,26,28,10,18,16,31,27,,,,1.52,0.83,1.27*19
$GNGSA,A,3,69,81,82,79,80,83,,,,,,,1.52,0.83,1.27*14
$GPGSV,4,1,16,08,13,314,,10,14,009,10,16,24,233,15,18,33,094,28*72
$GPGSV,4,2,16,23,01,047,,26,28,202,26,27,48,300,22,28,54,139,25*7C
$GPGSV,4,3,16,29,07,147,26,31,40,181,32,32,50,002,21,36,52,277,*79
$GPGSV,4,4,16,40,84,353,,41,58,082,,49,32,274,,50,10,089,*79
$GLGSV,3,1,09,68,09,009,,69,39,326,18,70,25,247,,79,13,132,11*66
$GLGSV,3,2,09,80,15,184,21,81,12,144,27,82,51,110,33,83,49,018,27*65
$GLGSV,3,3,09,84,04,344,*57
$GNGLL,0420.00930,S,05539.77421,E,115031.00,A,A*6C
$GNRMC,115032.00,A,0420.00930,S,05539.77418,E,0.151,,020625,,,A*7A
$GNVTG,,T,,M,0.151,N,0.279,K,A*34
$GNGGA,115032.00,0420.00930,S,05539.77418,E,1,12,0.87,27.6,M,-47.6,M,,*47
$GNGSA,A,3,32,29,26,28,18,16,31,27,,,,,1.86,0.87,1.65*13
$GNGSA,A,3,69,81,82,79,80,83,,,,,,,1.86,0.87,1.65*1F
$GPGSV,4,1,16,08,13,314,,10,14,009,,16,24,233,14,18,33,094,27*7D
$GPGSV,4,2,16,23,01,047,,26,28,202,24,27,48,300,22,28,54,139,26*7D
$GPGSV,4,3,16,29,07,147,26,31,40,181,31,32,50,002,19,36,52,277,*71
$GPGSV,4,4,16,40,84,353,,41,58,082,,49,32,274,,50,10,089,*79
$GLGSV,3,1,09,68,09,009,,69,39,326,15,70,25,247,,79,13,132,10*6A
$GLGSV,3,2,09,80,15,184,20,81,12,144,27,82,51,110,33,83,49,018,28*6B
$GLGSV,3,3,09,84,04,344,*57
$GNGLL,0420.00930,S,05539.77418,E,115032.00,A,A*65
$GNRMC,115033.00,A,0420.00929,S,05539.77413,E,0.061,,020625,,,A*7A
$GNVTG,,T,,M,0.061,N,0.112,K,A*38
$GNGGA,115033.00,0420.00929,S,05539.77413,E,1,12,0.87,27.5,M,-47.6,M,,*46
$GNGSA,A,3,32,29,26,28,18,16,31,27,,,,,1.86,0.87,1.65*13
$GNGSA,A,3,69,81,82,79,80,83,,,,,,,1.86,0.87,1.65*1F
$GPGSV,4,1,16,08,13,314,,10,14,009,,16,24,233,15,18,33,094,29*72
$GPGSV,4,2,16,23,01,047,,26,28,202,22,27,48,300,22,28,54,139,29*74
$GPGSV,4,3,16,29,07,147,26,31,40,181,31,32,50,002,19,36,52,277,*71
$GPGSV,4,4,16,40,84,353,,41,58,082,,49,32,274,,50,10,089,*79
$GLGSV,3,1,09,68,09,009,,69,39,326,16,70,25,247,,79,13,132,12*6B
$GLGSV,3,2,09,80,15,184,20,81,12,144,27,82,51,110,33,83,49,018,27*64
$GLGSV,3,3,09,84,04,344,*57
$GNGLL,0420.00929,S,05539.77413,E,115033.00,A,A*67
$GNRMC,115034.00,A,0420.00931,S,05539.77427,E,0.511,,020625,,,A*71
$GNVTG,,T,,M,0.511,N,0.946,K,A*33
$GNGGA,115034.00,0420.00931,S,05539.77427,E,1,12,0.87,27.7,M,-47.6,M,,*4D
$GNGSA,A,3,32,29,26,28,18,16,31,27,,,,,1.86,0.87,1.65*13
$GNGSA,A,3,69,81,82,79,80,83,,,,,,,1.86,0.87,1.65*1F
$GPGSV,4,1,16,08,13,314,,10,14,009,,16,24,233,17,18,33,094,27*7E
$GPGSV,4,2,16,23,01,047,,26,28,202,22,27,48,300,22,28,54,139,29*74
$GPGSV,4,3,16,29,07,147,26,31,40,181,31,32,50,002,22,36,52,277,*79
$GPGSV,4,4,16,40,84,353,,41,58,082,,49,32,274,,50,10,089,*79
$GLGSV,3,1,09,68,09,009,,69,39,326,18,70,25,247,,79,13,132,12*65
$GLGSV,3,2,09,80,15,184,20,81,12,144,29,82,51,110,34,83,49,018,27*6D
$GLGSV,3,3,09,84,04,344,*57
$GNGLL,0420.00931,S,05539.77427,E,115034.00,A,A*6E
$GNRMC,115035.00,A,0420.00929,S,05539.77427,E,0.057,,020625,,,A*7E
$GNVTG,,T,,M,0.057,N,0.105,K,A*3B
$GNGGA,115035.00,0420.00929,S,05539.77427,E,1,12,0.87,27.7,M,-47.6,M,,*45
$GNGSA,A,3,32,29,26,28,18,16,31,27,,,,,1.86,0.87,1.65*13
$GNGSA,A,3,69,81,82,79,80,83,,,,,,,1.86,0.87,1.65*1F
$GPGSV,4,1,16,08,13,314,,10,14,009,,16,24,233,16,18,33,094,28*70
$GPGSV,4,2,16,23,01,047,,26,28,202,23,27,48,300,28,28,54,139,32*75
$GPGSV,4,3,16,29,07,147,26,31,40,181,33,32,50,002,21,36,52,277,*78
$GPGSV,4,4,16,40,84,353,,41,58,082,,49,32,274,,50,10,089,*79
$GLGSV,3,1,09,68,09,009,,69,39,326,17,70,25,247,,79,13,132,15*6D
$GLGSV,3,2,09,80,15,184,20,81,12,144,29,82,51,110,34,83,49,018,27*6D
$GLGSV,3,3,09,84,04,344,*57
$GNGLL,0420.00929,S,05539.77427,E,115035.00,A,A*66
$GNRMC,115036.00,A,0420.00922,S,05539.77416,E,0.187,,020625,,,A*78
$GNVTG,,T,,M,0.187,N,0.347,K,A*33
$GNGGA,115036.00,0420.00922,S,05539.77416,E,1,12,0.87,27.5,M,-47.6,M,,*4D
$GNGSA,A,3,32,29,26,28,18,16,31,27,,,,,1.86,0.87,1.65*13
$GNGSA,A,3,69,81,82,79,80,83,,,,,,,1.86,0.87,1.65*1F
$GPGSV,4,1,16,08,13,314,,10,14,009,,16,24,233,17,18,33,094,29*70
$GPGSV,4,2,16,23,01,047,,26,28,202,23,27,48,300,20,28,54,139,31*7E
$GPGSV,4,3,16,29,07,147,26,31,40,181,33,32,50,002,22,36,52,277,*7B
$GPGSV,4,4,16,40,84,353,,41,58,082,,49,32,274,,50,10,089,*79
$GLGSV,3,1,09,68,09,009,,69,39,326,18,70,25,247,,79,13,132,16*61
$GLGSV,3,2,09,80,15,184,20,81,11,144,28,82,51,110,31,83,49,018,28*65
$GLGSV,3,3,09,84,04,344,*57
$GNGLL,0420.00922,S,05539.77416,E,115036.00,A,A*6C
$GNRMC,115037.00,A,0420.00921,S,05539.77405,E,0.118,,020625,,,A*7E
$GNVTG,,T,,M,0.118,N,0.218,K,A*3E
$GNGGA,115037.00,0420.00921,S,05539.77405,E,1,12,0.87,27.4,M,-47.6,M,,*4C
$GNGSA,A,3,32,29,26,28,18,16,31,27,,,,,1.86,0.87,1.65*13
$GNGSA,A,3,69,81,82,79,80,83,,,,,,,1.86,0.87,1.65*1F
$GPGSV,4,1,16,08,13,314,,10,14,009,,16,24,233,18,18,33,094,29*7F
$GPGSV,4,2,16,23,01,047,,26,28,202,23,27,48,300,22,28,54,139,30*7D
$GPGSV,4,3,16,29,07,147,27,31,40,181,34,32,50,002,21,36,52,277,*7E
$GPGSV,4,4,16,40,84,353,,41,58,082,,49,32,274,,50,10,089,*79
$GLGSV,3,1,09,68,09,009,,69,39,326,17,70,25,247,,79,13,132,15*6D
$GLGSV,3,2,09,80,15,184,20,81,11,144,27,82,51,112,32,83,49,018,27*64
$GLGSV,3,3,09,84,04,344,*57
$GNGLL,0420.00921,S,05539.77405,E,115037.00,A,A*6C
$GNRMC,115038.00,A,0420.00924,S,05539.77398,E,0.128,,020625,,,A*74
$GNVTG,,T,,M,0.128,N,0.237,K,A*30
$GNGGA,115038.00,0420.00924,S,05539.77398,E,1,12,0.87,27.5,M,-47.6,M,,*44
$GNGSA,A,3,32,29,26,28,18,16,31,27,,,,,1.86,0.87,1.64*12
$GNGSA,A,3,69,81,82,79,80,83,,,,,,,1.86,0.87,1.64*1E
$GPGSV,4,1,16,08,13,314,,10,14,009,,16,24,233,17,18,33,094,30*78
$GPGSV,4,2,16,23,01,047,,26,28,202,25,27,48,300,22,28,54,139,29*73
$GPGSV,4,3,16,29,07,147,27,31,40,181,34,32,50,002,23,36,52,277,*7C
$GPGSV,4,4,16,40,84,353,,41,58,082,,49,32,274,,50,10,089,*79
$GLGSV,3,1,09,68,09,009,,69,39,326,17,70,25,247,,79,13,132,11*69
$GLGSV,3,2,09,80,15,184,20,81,11,144,28,82,51,112,33,83,49,018,29*64
$GLGSV,3,3,09,84,04,344,*57
$GNGLL,0420.00924,S,05539.77398,E,115038.00,A,A*65
$GNRMC,115039.00,A,0420.00920,S,05539.77390,E,0.121,,020625,,,A*70
$GNVTG,,T,,M,0.121,N,0.224,K,A*3B
$GNGGA,115039.00,0420.00920,S,05539.77390,E,1,12,0.87,27.5,M,-47.6,M,,*49
$GNGSA,A,3,32,29,26,28,18,16,31,27,,,,,1.86,0.87,1.64*12
$GNGSA,A,3,69,81,82,79,80,83,,,,,,,1.86,0.87,1.64*1E
$GPGSV,4,1,16,08,13,314,,10,14,009,,16,24,233,17,18,33,094,28*71
$GPGSV,4,2,16,23,01,047,,26,28,202,25,27,48,300,23,28,54,139,31*7B
$GPGSV,4,3,16,29,07,147,26,31,40,181,33,32,50,002,23,36,52,277,*7A
$GPGSV,4,4,16,40,84,353,,41,58,082,,49,32,274,,50,10,089,*79
$GLGSV,3,1,09,68,09,009,,69,39,326,19,70,25,247,,79,13,132,13*65
$GLGSV,3,2,09,80,15,184,21,81,11,144,30,82,51,112,33,83,49,018,27*62
$GLGSV,3,3,09,84,05,344,*56
$GNGLL,0420.00920,S,05539.77390,E,115039.00,A,A*68
$GNRMC,115040.00,A,0420.00914,S,05539.77376,E,0.138,,020625,,,A*79
$GNVTG,,T,,M,0.138,N,0.256,K,A*36
$GNGGA,115040.00,0420.00914,S,05539.77376,E,1,12,0.85,27.3,M,-47.6,M,,*4C
$GNGSA,A,3,32,29,26,28,18,16,31,27,,,,,1.78,0.85,1.57*11
$GNGSA,A,3,69,81,82,79,80,83,,,,,,,1.78,0.85,1.57*1D
$GPGSV,4,1,16,08,13,314,,10,14,009,,16,24,233,18,18,33,094,27*71
$GPGSV,4,2,16,23,01,047,,26,28,202,25,27,48,300,25,28,54,139,32*7E
$GPGSV,4,3,16,29,07,147,26,31,40,181,33,32,50,002,22,36,52,277,*7B
$GPGSV,4,4,16,40,84,353,,41,58,082,,49,32,274,,50,10,089,*79
$GLGSV,3,1,09,68,09,009,,69,39,326,18,70,25,247,,79,13,132,13*64
$GLGSV,3,2,09,80,15,184,20,81,11,144,29,82,51,112,32,83,49,018,27*6A
$GLGSV,3,3,09,84,05,344,*56
$GNGLL,0420.00914,S,05539.77376,E,115040.00,A,A*69
$GNRMC,115041.00,A,0420.00913,S,05539.77370,E,0.088,,020625,,,A*73
$GNVTG,,T,,M,0.088,N,0.163,K,A*39
$GNGGA,115041.00,0420.00913,S,05539.77370,E,1,12,0.85,27.2,M,-47.6,M,,*4D
$GNGSA,A,3,32,29,26,28,18,16,31,27,,,,,1.78,0.85,1.57*11
$GNGSA,A,3,69,81,82,79,80,83,,,,,,,1.78,0.85,1.57*1D
$GPGSV,4,1,16,08,13,314,,10,14,009,,16,24,233,18,18,33,094,26*70
$GPGSV,4,2,16,23,01,047,,26,28,202,25,27,48,300,23,28,54,139,31*7B
$GPGSV,4,3,16,29,07,147,26,31,40,181,33,32,50,002,21,36,52,277,*78
$GPGSV,4,4,16,40,84,353,,41,58,082,,49,32,274,,50,10,089,*79
$GLGSV,3,1,09,68,09,009,,69,39,326,16,70,25,247,,79,13,132,11*68
$GLGSV,3,2,09,80,15,184,20,81,11,144,29,82,51,112,33,83,49,018,26*6A
$GLGSV,3,3,09,84,05,344,*56
$GNGLL,0420.00913,S,05539.77370,E,115041.00,A,A*69
$GNRMC,115042.00,A,0420.00916,S,05539.77370,E,0.018,,020625,,,A*7C
$GNVTG,,T,,M,0.018,N,0.033,K,A*34
$GNGGA,115042.00,0420.00916,S,05539.77370,E,1,12,0.85,27.3,M,-47.6,M,,*4A
$GNGSA,A,3,32,29,26,28,18,16,31,27,,,,,1.78,0.85,1.57*11
$GNGSA,A,3,69,81,82,79,80,83,,,,,,,1.78,0.85,1.57*1D
$GPGSV,4,1,16,08,13,314,,10,14,009,,16,24,233,16,18,33,094,26*7E
$GPGSV,4,2,16,23,01,047,,26,28,202,25,27,48,300,23,28,54,139,31*7B
$GPGSV,4,3,16,29,07,147,26,31,40,181,34,32,50,002,19,36,52,277,*74
$GPGSV,4,4,16,40,84,353,,41,58,082,,49,32,274,,50,10,089,*79
$GLGSV,3,1,09,68,09,009,,69,39,326,15,70,25,247,,79,13,132,11*6B
$GLGSV,3,2,09,80,15,184,19,81,11,144,28,82,51,112,32,83,49,018,26*60
$GLGSV,3,3,09,84,05,344,*56
$GNGLL,0420.00916,S,05539.77370,E,115042.00,A,A*6F
$GNRMC,115043.00,A,0420.00908,S,05539.77360,E,0.097,,020625,,,A*74
$GNVTG,,T,,M,0.097,N,0.180,K,A*3A
$GNGGA,115043.00,0420.00908,S,05539.77360,E,1,12,0.85,27.1,M,-47.6,M,,*47
$GNGSA,A,3,32,29,26,28,18,16,31,27,,,,,1.78,0.85,1.57*11
$GNGSA,A,3,69,81,82,79,80,83,,,,,,,1.78,0.85,1.57*1D
$GPGSV,4,1,16,08,13,314,,10,14,009,,16,24,233,17,18,33,094,27*7E
$GPGSV,4,2,16,23,01,047,,26,28,202,25,27,48,300,22,28,54,139,31*7A
$GPGSV,4,3,16,29,07,147,26,31,40,181,33,32,50,002,18,36,52,277,*72
$GPGSV,4,4,16,40,84,353,,41,58,082,,49,32,274,,50,10,089,*79
$GLGSV,3,1,09,68,09,009,,69,39,326,13,70,25,247,,79,13,132,13*6F
$GLGSV,3,2,09,80,15,184,19,81,11,144,28,82,51,112,31,83,49,018,26*63
$GLGSV,3,3,09,84,05,344,*56
$GNGLL,0420.00908,S,05539.77360,E,115043.00,A,A*60
$GNRMC,115044.00,A,0420.00905,S,05539.77354,E,0.021,,020625,,,A*74
$GNVTG,,T,,M,0.021,N,0.039,K,A*34
$GNGGA,115044.00,0420.00905,S,05539.77354,E,1,12,0.85,26.9,M,-47.6,M,,*43
$GNGSA,A,3,32,29,26,28,18,16,31,27,,,,,1.78,0.85,1.57*11
$GNGSA,A,3,69,81,82,79,80,83,,,,,,,1.78,0.85,1.57*1D
$GPGSV,4,1,16,08,13,314,,10,14,009,,16,24,233,20,18,33,094,26*7B
$GPGSV,4,2,16,23,01,047,,26,28,202,25,27,48,300,21,28,54,139,31*79
$GPGSV,4,3,16,29,07,147,25,31,40,181,32,32,50,002,16,36,52,277,*7E
$GPGSV,4,4,16,40,84,353,,41,58,082,,49,32,274,,50,10,089,*79
$GLGSV,3,1,09,68,09,009,,69,39,326,12,70,25,247,,79,13,132,09*65
$GLGSV,3,2,09,80,15,184,19,81,11,144,28,82,51,112,31,83,49,018,25*60
$GLGSV,3,3,09,84,05,344,*56
$GNGLL,0420.00905,S,05539.77354,E,115044.00,A,A*6D
$GNRMC,115045.00,A,0420.00894,S,05539.77341,E,0.303,,020625,,,A*7B
$GNVTG,,T,,M,0.303,N,0.562,K,A*3C
$GNGGA,115045.00,0420.00894,S,05539.77341,E,1,12,0.85,26.6,M,-47.6,M,,*40
$GNGSA,A,3,32,29,26,28,18,16,31,27,,,,,1.78,0.85,1.56*10
$GNGSA,A,3,69,81,82,79,80,83,,,,,,,1.78,0.85,1.56*1C
$GPGSV,4,1,16,08,13,314,,10,14,009,,16,24,233,19,18,33,094,25*72
$GPGSV,4,2,16,23,01,047,,26,28,202,24,27,48,300,18,28,54,139,31*72
$GPGSV,4,3,16,29,07,147,24,31,40,181,33,32,50,002,15,36,52,277,*7D
$GPGSV,4,4,16,40,84,353,,41,58,082,,49,32,274,,50,10,089,*79
$GLGSV,3,1,09,68,09,009,,69,39,326,11,70,25,247,,79,13,132,10*6E
$GLGSV,3,2,09,80,15,184,21,81,11,144,28,82,51,112,31,83,49,018,25*6B
$GLGSV,3,3,09,84,05,344,*56
$GNGLL,0420.00894,S,05539.77341,E,115045.00,A,A*61
$GNRMC,115046.00,A,0420.00892,S,05539.77342,E,0.150,,020625,,,A*79
$GNVTG,,T,,M,0.150,N,0.278,K,A*34
$GNGGA,115046.00,0420.00892,S,05539.77342,E,1,12,0.85,26.4,M,-47.6,M,,*44
$GNGSA,A,3,32,29,26,28,18,16,31,27,,,,,1.78,0.85,1.56*10
$GNGSA,A,3,69,81,82,79,80,83,,,,,,,1.78,0.85,1.56*1C
$GPGSV,4,1,16,08,13,314,,10,14,009,,16,24,233,20,18,33,094,26*7B
$GPGSV,4,2,16,23,01,047,,26,28,202,23,27,48,300,20,28,54,139,31*7E
$GPGSV,4,3,16,29,07,147,25,31,40,181,33,32,50,002,18,36,52,277,*71
$GPGSV,4,4,16,40,84,353,,41,58,082,,49,32,274,,50,10,089,*79
$GLGSV,3,1,09,68,09,009,,69,39,326,12,70,25,247,,79,13,132,14*69
$GLGSV,3,2,09,80,15,184,22,81,11,144,28,82,51,112,31,83,49,018,22*6F
$GLGSV,3,3,09,84,05,344,*56
$GNGLL,0420.00892,S,05539.77342,E,115046.00,A,A*67
$GNRMC,115047.00,A,0420.00886,S,05539.77333,E,0.286,,020625,,,A*73
$GNVTG,,T,,M,0.286,N,0.529,K,A*3F
$GNGGA,115047.00,0420.00886,S,05539.77333,E,1,12,0.85,26.1,M,-47.6,M,,*43
$GNGSA,A,3,32,29,26,28,18,16,31,27,,,,,1.78,0.85,1.56*10
$GNGSA,A,3,69,81,82,79,80,83,,,,,,,1.78,0.85,1.56*1C
$GPGSV,4,1,16,08,13,314,,10,14,009,,16,24,233,22,18,33,094,28*77
$GPGSV,4,2,16,23,01,047,,26,28,202,24,27,48,300,21,28,54,139,35*7C
$GPGSV,4,3,16,29,07,147,26,31,40,181,34,32,50,002,18,36,52,277,*75
$GPGSV,4,4,16,40,84,353,,41,58,082,,49,32,274,,50,10,089,*79
$GLGSV,3,1,09,68,09,009,,69,39,326,13,70,25,247,,79,13,132,15*69
$GLGSV,3,2,09,80,15,184,19,81,11,144,27,82,51,112,32,83,49,018,21*68
$GLGSV,3,3,09,84,05,344,*56
$GNGLL,0420.00886,S,05539.77333,E,115047.00,A,A*65
$GNRMC,115048.00,A,0420.00887,S,05539.77337,E,0.128,,020625,,,A*7E
$GNVTG,,T,,M,0.128,N,0.237,K,A*30
$GNGGA,115048.00,0420.00887,S,05539.77337,E,1,12,0.85,26.0,M,-47.6,M,,*48
$GNGSA,A,3,32,29,26,28,18,16,31,27,,,,,1.78,0.85,1.56*10
$GNGSA,A,3,69,81,82,79,80,83,,,,,,,1.78,0.85,1.56*1C
$GPGSV,4,1,16,08,13,314,,10,14,009,,16,24,233,20,18,33,094,27*7A
$GPGSV,4,2,16,23,01,047,,26,28,202,25,27,48,300,19,28,54,139,33*70
$GPGSV,4,3,16,29,07,147,25,31,40,181,34,32,50,002,20,36,52,277,*7D
$GPGSV,4,4,16,40,84,353,,41,58,082,,49,32,274,,50,10,089,*79
$GLGSV,3,1,09,68,09,009,,69,39,326,12,70,25,247,,79,13,132,11*6C
$GLGSV,3,2,09,80,15,184,19,81,11,144,27,82,51,112,32,83,49,018,20*69
$GLGSV,3,3,09,84,05,344,*56
$GNGLL,0420.00887,S,05539.77337,E,115048.00,A,A*6F
$GNRMC,115049.00,A,0420.00879,S,05539.77335,E,0.190,,020625,,,A*7F
$GNVTG,,T,,M,0.190,N,0.352,K,A*31
$GNGGA,115049.00,0420.00879,S,05539.77335,E,1,12,0.85,25.7,M,-47.6,M,,*4E
$GNGSA,A,3,32,29,26,28,18,16,31,27,,,,,1.78,0.85,1.56*10
$GNGSA,A,3,69,81,82,79,80,83,,,,,,,1.78,0.85,1.56*1C
$GPGSV,4,1,16,08,13,314,,10,14,009,,16,24,233,21,18,33,094,26*7A
$GPGSV,4,2,16,23,01,047,,26,28,202,25,27,48,300,20,28,54,139,33*7A
$GPGSV,4,3,16,29,07,147,25,31,40,181,33,32,50,002,20,36,52,277,*7A
$GPGSV,4,4,16,40,84,353,,41,58,082,,49,32,274,,50,10,089,*79
$GLGSV,3,1,09,68,09,009,,69,39,326,11,70,25,247,,79,13,132,14*6A
$GLGSV,3,2,09,80,15,184,19,81,11,144,27,82,51,112,32,83,49,018,20*69
$GLGSV,3,3,09,84,05,344,*56
$GNGLL,0420.00879,S,05539.77335,E,115049.00,A,A*6D
$GNRMC,115050.00,A,0420.00863,S,05539.77321,E,0.285,,020625,,,A*7E
$GNVTG,,T,,M,0.285,N,0.527,K,A*32
$GNGGA,115050.00,0420.00863,S,05539.77321,E,1,12,0.85,25.3,M,-47.6,M,,*4C
$GNGSA,A,3,32,29,26,28,18,16,31,27,,,,,1.78,0.85,1.56*10
$GNGSA,A,3,69,81,82,79,80,83,,,,,,,1.78,0.85,1.56*1C
$GPGSV,4,1,16,08,13,314,,10,14,009,,16,24,233,23,18,33,094,26*78
$GPGSV,4,2,16,23,01,047,,26,28,202,25,27,48,300,18,28,54,139,31*73
$GPGSV,4,3,16,29,07,147,26,31,40,181,33,32,50,002,20,36,52,277,*79
$GPGSV,4,4,16,40,84,353,,41,58,082,,49,32,274,,50,10,089,*79
$GLGSV,3,1,09,68,09,009,,69,39,326,12,70,25,247,,79,13,132,12*6F
$GLGSV,3,2,09,80,15,184,19,81,11,144,27,82,51,112,31,83,49,018,24*6E
$GLGSV,3,3,09,84,05,344,*56
$GNGLL,0420.00863,S,05539.77321,E,115050.00,A,A*6B
$GNRMC,115051.00,A,0420.00855,S,05539.77319,E,0.208,,020625,,,A*74
$GNVTG,,T,,M,0.208,N,0.386,K,A*3A
$GNGGA,115051.00,0420.00855,S,05539.77319,E,1,12,0.85,24.7,M,-47.6,M,,*46
$GNGSA,A,3,32,29,26,28,18,16,31,27,,,,,1.78,0.85,1.56*10
$GNGSA,A,3,69,81,82,79,80,83,,,,,,,1.78,0.85,1.56*1C
$GPGSV,4,1,16,08,14,313,,10,14,009,,16,24,233,22,18,33,094,25*7A
$GPGSV,4,2,16,23,01,047,,26,28,202,25,27,48,300,21,28,54,139,35*7D
$GPGSV,4,3,16,29,07,147,26,31,40,181,34,32,50,002,21,36,52,277,*7F
$GPGSV,4,4,16,40,84,353,,41,58,082,,49,32,274,,50,10,089,*79
$GLGSV,3,1,09,68,09,009,,69,39,326,12,70,25,247,,79,13,132,09*65
$GLGSV,3,2,09,80,15,184,19,81,11,144,27,82,51,112,32,83,49,018,25*6C
$GLGSV,3,3,09,84,05,344,*56
$GNGLL,0420.00855,S,05539.77319,E,115051.00,A,A*64
$GNRMC,115052.00,A,0420.00849,S,05539.77322,E,0.172,,020625,,,A*7C
$GNVTG,,T,,M,0.172,N,0.319,K,A*32
$GNGGA,115052.00,0420.00849,S,05539.77322,E,1,12,0.93,24.2,M,-47.6,M,,*42
$GNGSA,A,3,32,29,26,28,18,16,31,27,,,,,1.89,0.93,1.64*18
$GNGSA,A,3,69,81,82,79,80,83,,,,,,,1.89,0.93,1.64*14
$GPGSV,4,1,16,08,14,313,,10,14,009,,16,24,233,21,18,33,094,23*7F
$GPGSV,4,2,16,23,01,047,,26,28,202,26,27,48,300,20,28,54,139,35*7F
$GPGSV,4,3,16,29,07,147,27,31,40,181,34,32,50,002,22,36,52,277,*7D
$GPGSV,4,4,16,40,84,353,,41,58,082,,49,32,274,,50,10,089,*79
$GLGSV,3,1,09,68,09,009,,69,39,326,11,70,25,247,,79,13,132,14*6A
$GLGSV,3,2,09,80,15,184,19,81,11,144,28,82,51,112,33,83,49,018,23*64
$GLGSV,3,3,09,84,05,344,*56
$GNGLL,0420.00849,S,05539.77322,E,115052.00,A,A*62
$GNRMC,115053.00,A,0420.00839,S,05539.77326,E,0.076,,020625,,,A*7B
$GNVTG,,T,,M,0.076,N,0.142,K,A*3B
$GNGGA,115053.00,0420.00839,S,05539.77326,E,1,12,0.85,23.8,M,-47.6,M,,*4A
$GNGSA,A,3,32,29,26,28,18,16,31,27,,,,,1.78,0.85,1.56*10
$GNGSA,A,3,69,81,82,79,80,83,,,,,,,1.78,0.85,1.56*1C
$GPGSV,4,1,16,08,14,313,,10,14,010,,16,24,233,21,18,33,094,23*77
$GPGSV,4,2,16,23,01,047,,26,28,202,25,27,48,300,21,28,54,139,35*7D
$GPGSV,4,3,16,29,07,147,26,31,40,181,34,32,50,002,23,36,52,277,*7D
$GPGSV,4,4,16,40,84,353,,41,58,082,,49,32,274,,50,10,089,*79
$GLGSV,3,1,09,68,09,009,,69,39,326,12,70,25,247,,79,13,132,12*6F
$GLGSV,3,2,09,80,15,184,18,81,11,144,28,82,51,112,33,83,49,018,20*66
$GLGSV,3,3,09,84,05,344,*56
$GNGLL,0420.00839,S,05539.77326,E,115053.00,A,A*60
$GNRMC,115054.00,A,0420.00836,S,05539.77332,E,0.151,,020625,,,A*72
$GNVTG,,T,,M,0.151,N,0.279,K,A*34
$GNGGA,115054.00,0420.00836,S,05539.77332,E,1,12,0.85,23.6,M,-47.6,M,,*49
$GNGSA,A,3,32,29,26,28,18,16,31,27,,,,,1.78,0.85,1.56*10
$GNGSA,A,3,69,81,82,79,80,83,,,,,,,1.78,0.85,1.56*1C
$GPGSV,4,1,16,08,14,313,,10,14,010,,16,24,233,22,18,33,094,23*74
$GPGSV,4,2,16,23,01,047,11,26,28,202,27,27,48,300,26,28,54,139,35*78
$GPGSV,4,3,16,29,07,147,28,31,40,181,34,32,50,002,25,36,52,277,*75
$GPGSV,4,4,16,40,84,353,,41,58,082,,49,32,274,,50,10,089,*79
$GLGSV,3,1,09,68,09,009,,69,39,326,15,70,25,247,,79,13,132,08*63
$GLGSV,3,2,09,80,15,184,19,81,11,144,28,82,51,112,32,83,49,018,20*66
$GLGSV,3,3,09,84,05,344,*56
$GNGLL,0420.00836,S,05539.77332,E,115054.00,A,A*6D
$GNRMC,115055.00,A,0420.00839,S,05539.77342,E,0.120,,020625,,,A*7D
$GNVTG,,T,,M,0.120,N,0.222,K,A*3C
$GNGGA,115055.00,0420.00839,S,05539.77342,E,1,12,0.93,23.5,M,-47.6,M,,*44
$GNGSA,A,3,32,29,26,28,18,16,31,27,,,,,1.89,0.93,1.64*18
$GNGSA,A,3,69,81,82,79,80,83,,,,,,,1.89,0.93,1.64*14
$GPGSV,4,1,16,08,14,313,,10,14,010,,16,24,233,23,18,33,094,25*73
$GPGSV,4,2,16,23,01,047,09,26,28,202,26,27,48,300,26,28,54,139,32*77
$GPGSV,4,3,16,29,07,147,28,31,40,181,32,32,50,002,22,36,52,277,*74
$GPGSV,4,4,16,40,84,353,,41,58,082,,49,32,274,,50,10,089,*79
$GLGSV,3,1,09,68,09,009,,69,39,326,14,70,25,247,,79,13,132,18*63
$GLGSV,3,2,09,80,15,184,20,81,11,144,27,82,51,112,26,83,49,018,20*66
$GLGSV,3,3,09,84,05,344,*56
$GNGLL,0420.00839,S,05539.77342,E,115055.00,A,A*64
$GNRMC,115056.00,A,0420.00835,S,05539.77349,E,0.051,,020625,,,A*7E
$GNVTG,,T,,M,0.051,N,0.095,K,A*35
$GNGGA,115056.00,0420.00835,S,05539.77349,E,1,12,0.85,23.3,M,-47.6,M,,*41
$GNGSA,A,3,32,29,26,28,18,16,31,27,,,,,1.78,0.85,1.56*10
$GNGSA,A,3,69,81,82,79,80,83,,,,,,,1.78,0.85,1.56*1C
$GPGSV,4,1,16,08,14,313,,10,14,010,,16,24,233,23,18,33,094,25*73
$GPGSV,4,2,16,23,01,047,09,26,28,202,25,27,48,300,27,28,54,139,32*75
$GPGSV,4,3,16,29,07,147,28,31,40,181,34,32,50,002,23,36,52,277,*73
$GPGSV,4,4,16,40,84,353,,41,58,082,,49,32,274,,50,10,089,*79
$GLGSV,3,1,09,68,09,009,,69,39,326,15,70,25,247,,79,13,132,12*68
$GLGSV,3,2,09,80,15,184,21,81,11,144,27,82,51,112,28,83,49,018,21*68
$GLGSV,3,3,09,84,05,344,*56
$GNGLL,0420.00835,S,05539.77349,E,115056.00,A,A*60
$GNRMC,115057.00,A,0420.00835,S,05539.77355,E,0.022,,020625,,,A*76
$GNVTG,,T,,M,0.022,N,0.041,K,A*38
$GNGGA,115057.00,0420.00835,S,05539.77355,E,1,12,0.85,23.3,M,-47.6,M,,*4D
$GNGSA,A,3,32,29,26,28,18,16,31,27,,,,,1.78,0.85,1.56*10
$GNGSA,A,3,69,81,82,79,80,83,,,,,,,1.78,0.85,1.56*1C
$GPGSV,4,1,16,08,14,313,,10,14,010,,16,24,233,25,18,33,094,24*74
$GPGSV,4,2,16,23,01,047,10,26,28,202,25,27,48,300,26,28,54,139,32*7C
$GPGSV,4,3,16,29,07,147,28,31,40,181,34,32,50,002,23,36,52,277,*73
$GPGSV,4,4,16,40,84,353,,41,58,082,,49,32,274,,50,10,089,*79
$GLGSV,3,1,09,68,09,009,,69,39,326,15,70,25,247,,79,13,132,10*6A
$GLGSV,3,2,09,80,15,184,18,81,11,144,27,82,51,112,29,83,49,018,22*60
$GLGSV,3,3,09,84,05,344,*56
$GNGLL,0420.00835,S,05539.77355,E,115057.00,A,A*6C
$GNRMC,115058.00,A,0420.00830,S,05539.77359,E,0.092,,020625,,,A*7B
$GNVTG,,T,,M,0.092,N,0.170,K,A*30
$GNGGA,115058.00,0420.00830,S,05539.77359,E,1,12,0.85,23.2,M,-47.6,M,,*4A
$GNGSA,A,3,32,29,26,28,18,16,31,27,,,,,1.78,0.85,1.56*10
$GNGSA,A,3,69,81,82,79,80,83,,,,,,,1.78,0.85,1.56*1C
$GPGSV,4,1,16,08,14,313,,10,14,010,,16,24,233,23,18,33,094,22*74
$GPGSV,4,2,16,23,01,047,08,26,28,202,23,27,48,300,23,28,54,139,31*75
$GPGSV,4,3,16,29,07,147,27,31,40,181,34,32,50,002,20,36,52,277,*7F
$GPGSV,4,4,16,40,84,353,,41,58,082,,49,32,274,,50,10,089,*79
$GLGSV,3,1,09,68,09,009,,69,39,326,13,70,25,247,,79,13,132,11*6D
$GLGSV,3,2,09,80,15,184,15,81,11,144,27,82,51,112,28,83,49,018,23*6D
$GLGSV,3,3,09,84,05,344,*56
$GNGLL,0420.00830,S,05539.77359,E,115058.00,A,A*6A
$GNRMC,115059.00,A,0420.00826,S,05539.77364,E,0.074,,020625,,,A*7B
$GNVTG,,T,,M,0.074,N,0.138,K,A*34
$GNGGA,115059.00,0420.00826,S,05539.77364,E,1,12,0.85,23.0,M,-47.6,M,,*40
$GNGSA,A,3,32,29,26,28,18,16,31,27,,,,,1.77,0.85,1.56*1F
$GNGSA,A,3,69,81,82,79,80,83,,,,,,,1.77,0.85,1.56*13
$GPGSV,4,1,16,08,14,313,,10,14,010,,16,24,233,23,18,33,094,21*77
$GPGSV,4,2,16,23,01,047,08,26,28,202,23,27,48,300,22,28,54,139,32*77
$GPGSV,4,3,16,29,07,147,26,31,40,181,36,32,50,002,22,36,52,277,*7E
$GPGSV,4,4,16,40,84,353,,41,58,082,,49,32,274,,50,10,089,*79
$GLGSV,3,1,09,68,09,009,,69,39,326,13,70,25,247,,79,13,132,11*6D
$GLGSV,3,2,09,80,15,184,17,81,11,144,27,82,51,112,28,83,49,018,22*6E
$GLGSV,3,3,09,84,05,344,*56
$GNGLL,0420.00826,S,05539.77364,E,115059.00,A,A*62
$GNRMC,115100.00,A,0420.00822,S,05539.77380,E,0.392,,020625,,,A*73
$GNVTG,,T,,M,0.392,N,0.726,K,A*36
$GNGGA,115100.00,0420.00822,S,05539.77380,E,1,12,0.85,22.9,M,-47.6,M,,*4B
$GNGSA,A,3,32,29,26,28,18,16,31,27,,,,,1.77,0.85,1.56*1F
$GNGSA,A,3,69,81,82,79,80,83,,,,,,,1.77,0.85,1.56*13
$GPGSV,4,1,16,08,14,313,,10,14,010,,16,24,233,21,18,33,094,29*7D
$GPGSV,4,2,16,23,01,047,08,26,28,202,24,27,48,300,23,28,54,139,33*70
$GPGSV,4,3,16,29,07,147,27,31,40,181,36,32,50,002,22,36,52,277,*7F
$GPGSV,4,4,16,40,84,353,,41,58,082,,49,32,274,,50,10,089,*79
$GLGSV,3,1,09,68,09,009,,69,39,326,15,70,25,247,,79,13,132,10*6A
$GLGSV,3,2,09,80,15,184,18,81,11,144,27,82,51,112,30,83,49,018,18*61
$GLGSV,3,3,09,84,05,344,*56
$GNGLL,0420.00822,S,05539.77380,E,115100.00,A,A*61
$GNRMC,115101.00,A,0420.00821,S,05539.77384,E,0.225,,020625,,,A*78
$GNVTG,,T,,M,0.225,N,0.417,K,A*3A
$GNGGA,115101.00,0420.00821,S,05539.77384,E,1,12,0.85,22.5,M,-47.6,M,,*41
$GNGSA,A,3,32,29,26,28,18,16,31,27,,,,,1.77,0.85,1.56*1F
$GNGSA,A,3,69,81,82,79,80,83,,,,,,,1.77,0.85,1.56*13
$GPGSV,4,1,16,08,14,313,,10,14,010,,16,24,233,21,18,33,095,27*72
$GPGSV,4,2,16,23,01,047,09,26,28,202,25,27,48,300,22,28,54,139,36*74
$GPGSV,4,3,16,29,07,147,26,31,40,181,36,32,50,002,22,36,52,277,*7E
$GPGSV,4,4,16,40,84,353,,41,58,082,,49,32,274,,50,10,089,*79
$GLGSV,3,1,09,68,09,009,,69,39,326,15,70,25,247,,79,13,132,10*6A
$GLGSV,3,2,09,80,15,184,18,81,11,144,27,82,51,112,32,83,49,018,16*6D
$GLGSV,3,3,09,84,05,344,*56
$GNGLL,0420.00821,S,05539.77384,E,115101.00,A,A*67
$GNRMC,115102.00,A,0420.00826,S,05539.77391,E,0.183,,020625,,,A*77
$GNVTG,,T,,M,0.183,N,0.338,K,A*3F
$GNGGA,115102.00,0420.00826,S,05539.77391,E,1,12,0.85,22.4,M,-47.6,M,,*40
$GNGSA,A,3,32,29,26,28,18,16,31,27,,,,,1.77,0.85,1.56*1F
$GNGSA,A,3,69,81,82,79,80,83,,,,,,,1.77,0.85,1.56*13
$GPGSV,4,1,16,08,14,313,,10,14,010,11,16,24,233,22,18,33,095,23*75
$GPGSV,4,2,16,23,01,047,10,26,28,202,24,27,48,300,21,28,54,139,35*7D
$GPGSV,4,3,16,29,07,147,27,31,40,181,34,32,50,002,19,36,52,277,*75
$GPGSV,4,4,16,40,84,353,,41,58,082,,49,32,274,,50,10,089,*79
$GLGSV,3,1,09,68,09,009,,69,39,326,14,70,25,247,,79,13,132,10*6B
$GLGSV,3,2,09,80,15,184,17,81,11,144,27,82,51,112,31,83,49,018,16*61
$GLGSV,3,3,09,84,05,344,*56
$GNGLL,0420.00826,S,05539.77391,E,115102.00,A,A*67
$GNRMC,115103.00,A,0420.00817,S,05539.77389,E,0.139,,020625,,,A*7C
$GNVTG,,T,,M,0.139,N,0.257,K,A*36
$GNGGA,115103.00,0420.00817,S,05539.77389,E,1,12,0.72,22.2,M,-47.6,M,,*44
$GNGSA,A,3,32,29,26,28,10,18,16,31,27,,,,1.42,0.72,1.22*13
$GNGSA,A,3,69,81,82,79,80,83,,,,,,,1.42,0.72,1.22*1E
$GPGSV,4,1,16,08,14,313,,10,14,010,09,16,24,233,21,18,33,095,20*7C
$GPGSV,4,2,16,23,01,047,08,26,28,202,22,27,48,300,21,28,54,139,33*74
$GPGSV,4,3,16,29,07,147,26,31,40,181,35,32,50,002,18,36,52,277,*74
$GPGSV,4,4,16,40,84,353,,41,58,082,,49,32,274,,50,10,089,*79
$GLGSV,3,1,09,68,09,009,,69,39,326,14,70,25,247,,79,13,132,10*6B
$GLGSV,3,2,09,80,15,184,17,81,11,144,27,82,51,112,31,83,49,018,16*61
$GLGSV,3,3,09,84,05,344,*56
$GNGLL,0420.00817,S,05539.77389,E,115103.00,A,A*6D
$GNRMC,115104.00,A,0420.00827,S,05539.77398,E,0.125,,020625,,,A*75
$GNVTG,,T,,M,0.125,N,0.232,K,A*38
$GNGGA,115104.00,0420.00827,S,05539.77398,E,1,12,0.72,22.2,M,-47.6,M,,*40
$GNGSA,A,3,32,29,26,28,10,18,16,31,27,,,,1.42,0.72,1.22*13
$GNGSA,A,3,69,81,82,79,80,83,,,,,,,1.42,0.72,1.22*1E
$GPGSV,4,1,16,08,14,313,,10,14,010,08,16,24,233,22,18,33,095,16*7B
$GPGSV,4,2,16,23,01,047,09,26,28,202,22,27,48,300,20,28,54,139,34*73
$GPGSV,4,3,16,29,07,147,27,31,40,181,35,32,50,002,29,36,52,277,*77
$GPGSV,4,4,16,40,84,353,,41,58,082,,49,32,274,,50,10,089,*79
$GLGSV,3,1,09,68,09,009,,69,39,326,15,70,25,247,,79,13,132,10*6A
$GLGSV,3,2,09,80,15,184,15,81,11,144,27,82,51,112,30,83,49,018,15*61
$GLGSV,3,3,09,84,05,344,*56
$GNGLL,0420.00827,S,05539.77398,E,115104.00,A,A*69
$GNRMC,115105.00,A,0420.00819,S,05539.77396,E,0.221,,020625,,,A*70
$GNVTG,,T,,M,0.221,N,0.410,K,A*39
$GNGGA,115105.00,0420.00819,S,05539.77396,E,1,12,0.72,22.0,M,-47.6,M,,*40
$GNGSA,A,3,32,29,26,28,10,18,16,31,27,,,,1.42,0.72,1.22*13
$GNGSA,A,3,69,81,82,79,80,83,,,,,,,1.42,0.72,1.22*1E
$GPGSV,4,1,16,08,14,313,,10,14,010,10,16,24,233,20,18,33,095,22*77
$GPGSV,4,2,16,23,01,048,10,26,28,202,25,27,48,300,20,28,54,139,32*75
$GPGSV,4,3,16,29,07,147,26,31,40,181,35,32,50,002,29,36,52,277,*76
$GPGSV,4,4,16,40,84,353,,41,58,082,,49,32,274,,50,10,089,*79
$GLGSV,3,1,09,68,09,009,,69,39,326,16,70,25,247,,79,13,132,10*69
$GLGSV,3,2,09,80,15,184,15,81,11,144,28,82,51,112,29,83,49,018,16*65
$GLGSV,3,3,09,84,05,344,*56
$GNGLL,0420.00819,S,05539.77396,E,115105.00,A,A*6B
$GNRMC,115106.00,A,0420.00825,S,05539.77398,E,0.385,,020625,,,A*7D
$GNVTG,,T,,M,0.385,N,0.714,K,A*31
$GNGGA,115106.00,0420.00825,S,05539.77398,E,1,12,0.72,22.1,M,-47.6,M,,*43
$GNGSA,A,3,32,29,26,28,10,18,16,31,27,,,,1.42,0.72,1.22*13
$GNGSA,A,3,69,81,82,79,80,83,,,,,,,1.42,0.72,1.22*1E
$GPGSV,4,1,16,08,14,313,,10,14,010,13,16,24,233,19,18,33,095,23*7F
$GPGSV,4,2,16,23,01,048,11,26,28,202,25,27,48,300,24,28,54,139,32*70
$GPGSV,4,3,16,29,07,147,27,31,40,181,35,32,50,002,17,36,52,277,*7A
$GPGSV,4,4,16,40,84,353,,41,58,082,,49,32,274,,50,10,089,*79
$GLGSV,3,1,09,68,09,009,,69,39,326,14,70,25,247,,79,13,132,10*6B
$GLGSV,3,2,09,80,15,184,14,81,11,144,28,82,51,112,30,83,49,018,15*6F
$GLGSV,3,3,09,84,05,344,*56
$GNGLL,0420.00825,S,05539.77398,E,115106.00,A,A*69
$GNRMC,115107.00,A,0420.00831,S,05539.77397,E,0.228,,020625,,,A*70
$GNVTG,,T,,M,0.228,N,0.423,K,A*30
$GNGGA,115107.00,0420.00831,S,05539.77397,E,1,12,0.85,22.1,M,-47.6,M,,*40
$GNGSA,A,3,32,29,26,28,10,18,16,31,27,,,,1.77,0.85,1.56*1E
$GNGSA,A,3,69,81,82,79,80,83,,,,,,,1.77,0.85,1.56*13
$GPGSV,4,1,16,08,14,313,,10,14,010,08,16,24,233,21,18,33,095,21*7C
$GPGSV,4,2,16,23,01,048,09,26,28,202,25,27,48,300,25,28,54,139,36*7C
$GPGSV,4,3,16,29,07,147,27,31,40,181,34,32,50,002,17,36,52,277,*7B
$GPGSV,4,4,16,40,84,353,,41,58,082,,49,32,274,,50,10,089,*79
$GLGSV,3,1,09,68,09,009,,69,39,326,13,70,25,247,,79,13,132,12*6E
$GLGSV,3,2,09,80,15,184,14,81,11,144,28,82,51,112,31,83,49,018,15*6E
$GLGSV,3,3,09,84,05,344,*56
$GNGLL,0420.00831,S,05539.77397,E,115107.00,A,A*62
$GNRMC,115108.00,A,0420.00825,S,05539.77394,E,0.063,,020625,,,A*74
$GNVTG,,T,,M,0.063,N,0.117,K,A*3F
$GNGGA,115108.00,0420.00825,S,05539.77394,E,1,12,0.85,21.9,M,-47.6,M,,*42
$GNGSA,A,3,32,29,26,28,18,16,31,27,,,,,1.77,0.85,1.56*1F
$GNGSA,A,3,69,81,82,79,80,83,,,,,,,1.77,0.85,1.56*13
$GPGSV,4,1,16,08,14,313,,10,14,010,,16,24,233,23,18,33,095,20*77
$GPGSV,4,2,16,23,01,048,07,26,28,201,23,27,48,300,25,28,54,139,34*75
