$GNRMC,105914.00,A,0420.00063,S,05539.79628,E,0.202,,020625,,,D*76
$GNVTG,,T,,M,0.202,N,0.374,K,D*38
$GNGGA,105914.00,0420.00063,S,05539.79628,E,2,11,0.92,11.7,M,-47.6,M,,0000*4B
$GNGSA,A,3,32,29,28,10,18,31,40,,,,,,1.73,0.92,1.47*1E
$GNGSA,A,3,69,68,81,82,,,,,,,,,1.73,0.92,1.47*12
$GPGSV,4,1,16,10,21,349,10,16,25,258,,18,30,064,17,23,06,028,*7A
$GPGSV,4,2,16,25,04,135,,26,30,226,,27,30,321,16,28,39,167,23*7D
$GPGSV,4,3,16,29,27,145,27,31,24,197,24,32,75,349,29,36,52,277,*79
$GPGSV,4,4,16,40,84,353,31,41,58,082,32,49,32,274,,50,10,089,*7A
$GLGSV,2,1,08,68,32,359,10,69,58,289,21,70,14,222,,79,13,158,*6D
$GLGSV,2,2,08,80,14,209,,81,26,121,32,82,46,063,27,83,24,003,*63
$GNGLL,0420.00063,S,05539.79628,E,105914.00,A,D*6C
$GNRMC,105915.00,A,0420.00058,S,05539.79633,E,0.323,,020625,,,D*77
$GNVTG,,T,,M,0.323,N,0.599,K,D*3F
$GNGGA,105915.00,0420.00058,S,05539.79633,E,2,11,0.92,11.7,M,-47.6,M,,0000*48
$GNGSA,A,3,32,29,28,10,18,31,40,,,,,,1.73,0.92,1.47*1E
$GNGSA,A,3,69,68,81,82,,,,,,,,,1.73,0.92,1.47*12
$GPGSV,4,1,16,10,21,349,11,16,25,258,,18,30,064,16,23,06,028,*7A
$GPGSV,4,2,16,25,04,135,16,26,30,226,,27,30,321,15,28,39,167,30*7B
$GPGSV,4,3,16,29,27,145,26,31,24,197,23,32,75,349,33,36,52,277,*74
$GPGSV,4,4,16,40,84,353,30,41,58,082,35,49,32,274,,50,10,089,*7C
$GLGSV,2,1,08,68,32,359,08,69,58,289,20,70,14,222,,79,13,158,*65
$GLGSV,2,2,08,80,14,209,,81,26,121,32,82,46,063,25,83,24,003,*61
$GNGLL,0420.00058,S,05539.79633,E,105915.00,A,D*6F
$GNRMC,105916.00,A,0420.00035,S,05539.79636,E,0.298,,020625,,,D*7B
$GNVTG,,T,,M,0.298,N,0.552,K,D*39
$GNGGA,105916.00,0420.00035,S,05539.79636,E,2,11,0.92,11.0,M,-47.6,M,,0000*42
$GNGSA,A,3,32,29,28,10,18,31,40,,,,,,1.73,0.92,1.47*1E
$GNGSA,A,3,69,68,81,82,,,,,,,,,1.73,0.92,1.47*12
$GPGSV,4,1,16,10,21,349,10,16,25,258,,18,30,064,15,23,06,028,*78
$GPGSV,4,2,16,25,04,135,13,26,30,226,,27,30,321,14,28,39,167,30*7F
$GPGSV,4,3,16,29,27,145,27,31,24,197,22,32,75,349,26,36,52,277,*70
$GPGSV,4,4,16,40,84,353,34,41,58,082,39,49,32,274,,50,10,089,*74
$GLGSV,2,1,08,68,32,359,12,69,58,289,17,70,14,222,,79,13,158,*6A
$GLGSV,2,2,08,80,14,209,,81,26,121,31,82,46,063,24,83,24,003,*63
$GNGLL,0420.00035,S,05539.79636,E,105916.00,A,D*62
$GNRMC,105917.00,A,0420.00029,S,05539.79624,E,0.126,,020625,,,D*72
$GNVTG,,T,,M,0.126,N,0.233,K,D*3F
$GNGGA,105917.00,0420.00029,S,05539.79624,E,2,11,1.00,10.8,M,-47.6,M,,0000*4E
$GNGSA,A,3,32,29,28,10,18,31,40,,,,,,1.80,1.00,1.50*1E
$GNGSA,A,3,69,68,81,82,,,,,,,,,1.80,1.00,1.50*12
$GPGSV,4,1,16,10,21,349,11,16,25,258,,18,30,064,16,23,06,028,*7A
$GPGSV,4,2,16,25,04,135,12,26,30,226,,27,30,321,14,28,39,167,29*76
$GPGSV,4,3,16,29,27,145,26,31,24,197,24,32,75,349,23,36,52,277,*72
$GPGSV,4,4,16,40,84,353,37,41,58,082,39,49,32,274,,50,10,089,*77
$GLGSV,2,1,08,68,32,359,10,69,58,289,14,70,14,222,,79,13,158,*6B
$GLGSV,2,2,08,80,14,209,,81,26,121,30,82,46,063,24,83,24,003,*62
$GNGLL,0420.00029,S,05539.79624,E,105917.00,A,D*6D
$GNRMC,105918.00,A,0420.00024,S,05539.79627,E,0.070,,020625,,,D*71
$GNVTG,,T,,M,0.070,N,0.130,K,D*3D
$GNGGA,105918.00,0420.00024,S,05539.79627,E,2,11,1.00,10.8,M,-47.6,M,,0000*4F
$GNGSA,A,3,32,29,28,10,18,31,40,,,,,,1.80,1.00,1.50*1E
$GNGSA,A,3,69,68,81,82,,,,,,,,,1.80,1.00,1.50*12
$GPGSV,4,1,16,10,21,349,08,16,25,258,,18,30,064,18,23,06,028,*7C
$GPGSV,4,2,16,25,04,135,10,26,30,226,,27,30,321,16,28,39,167,35*7B
$GPGSV,4,3,16,29,27,145,33,31,24,197,27,32,75,349,37,36,52,277,*70
$GPGSV,4,4,16,40,84,353,33,41,58,082,42,49,32,274,,50,10,089,*7F
$GLGSV,2,1,08,68,32,359,10,69,58,289,20,70,14,222,,79,13,158,*6C
$GLGSV,2,2,08,80,14,209,,81,26,121,35,82,46,063,26,83,24,003,*65
$GNGLL,0420.00024,S,05539.79627,E,105918.00,A,D*6C
$GNRMC,105919.00,A,0420.00026,S,05539.79619,E,0.078,,020625,,,D*77
$GNVTG,,T,,M,0.078,N,0.144,K,D*36
$GNGGA,105919.00,0420.00026,S,05539.79619,E,2,11,1.16,11.0,M,-47.6,M,,0000*4F
$GNGSA,A,3,32,29,28,10,18,31,40,,,,,,2.19,1.16,1.86*11
$GNGSA,A,3,69,68,81,82,,,,,,,,,2.19,1.16,1.86*1D
$GPGSV,4,1,16,10,21,349,08,16,25,258,,18,30,064,20,23,06,028,*77
$GPGSV,4,2,16,25,04,135,10,26,30,226,,27,30,321,17,28,39,167,35*7A
$GPGSV,4,3,16,29,27,145,33,31,24,197,28,32,75,349,37,36,52,277,*7F
$GPGSV,4,4,16,40,84,353,33,41,58,082,42,49,32,274,,50,10,089,*7F
$GLGSV,2,1,08,68,32,359,14,69,58,289,23,70,14,222,,79,13,157,*64
$GLGSV,2,2,08,80,14,209,,81,26,121,36,82,46,063,26,83,24,003,*66
$GNGLL,0420.00026,S,05539.79619,E,105919.00,A,D*62
$GNRMC,105920.00,A,0420.00028,S,05539.79626,E,0.019,,020625,,,D*78
$GNVTG,,T,,M,0.019,N,0.034,K,D*37
$GNGGA,105920.00,0420.00028,S,05539.79626,E,2,11,0.92,11.5,M,-47.6,M,,0000*4F
$GNGSA,A,3,32,29,28,10,18,31,40,,,,,,1.73,0.92,1.47*1E
$GNGSA,A,3,69,68,81,82,,,,,,,,,1.73,0.92,1.47*12
$GPGSV,4,1,16,10,21,349,09,16,25,258,,18,30,064,20,23,06,028,*76
$GPGSV,4,2,16,25,04,135,09,26,30,226,,27,30,321,18,28,39,167,35*7D
$GPGSV,4,3,16,29,27,145,33,31,24,197,28,32,75,349,37,36,52,277,*7F
$GPGSV,4,4,16,40,84,353,33,41,58,082,42,49,32,274,,50,10,089,*7F
$GLGSV,2,1,08,68,32,359,10,69,58,289,24,70,14,222,,79,13,157,*67
$GLGSV,2,2,08,80,14,209,,81,26,121,35,82,46,063,27,83,24,003,*64
$GNGLL,0420.00028,S,05539.79626,E,105920.00,A,D*6A
$GNRMC,105921.00,A,0420.00031,S,05539.79631,E,0.013,,020625,,,D*7D
$GNVTG,,T,,M,0.013,N,0.023,K,D*3B
$GNGGA,105921.00,0420.00031,S,05539.79631,E,2,11,0.92,11.6,M,-47.6,M,,0000*43
$GNGSA,A,3,32,29,28,10,18,31,40,,,,,,1.73,0.92,1.46*1F
$GNGSA,A,3,69,68,81,82,,,,,,,,,1.73,0.92,1.46*13
$GPGSV,4,1,16,10,21,349,08,16,25,258,,18,30,064,20,23,06,028,*77
$GPGSV,4,2,16,25,04,135,08,26,30,226,21,27,30,321,17,28,39,167,35*70
$GPGSV,4,3,16,29,27,145,33,31,24,197,28,32,75,349,37,36,52,277,*7F
$GPGSV,4,4,16,40,84,353,33,41,58,082,42,49,32,274,,50,10,089,*7F
$GLGSV,2,1,08,68,32,359,17,69,58,289,25,70,14,222,,79,13,157,22*61
$GLGSV,2,2,08,80,14,209,,81,26,122,35,82,46,063,27,83,24,003,*67
$GNGLL,0420.00031,S,05539.79631,E,105921.00,A,D*65
$GNRMC,105922.00,A,0420.00035,S,05539.79638,E,0.017,,020625,,,D*77
$GNVTG,,T,,M,0.017,N,0.032,K,D*3F
$GNGGA,105922.00,0420.00035,S,05539.79638,E,2,11,1.05,11.8,M,-47.6,M,,0000*4C
$GNGSA,A,3,32,29,28,10,18,31,40,,,,,,2.14,1.05,1.86*1E
$GNGSA,A,3,69,68,81,82,,,,,,,,,2.14,1.05,1.86*12
$GPGSV,4,1,16,10,21,349,11,16,25,258,,18,30,064,19,23,06,028,*75
$GPGSV,4,2,16,25,04,135,08,26,30,226,19,27,30,321,17,28,39,167,35*7B
$GPGSV,4,3,16,29,27,145,33,31,24,197,29,32,75,349,36,36,52,277,*7F
$GPGSV,4,4,16,40,84,353,33,41,58,082,43,49,32,274,,50,10,089,*7E
$GLGSV,2,1,08,68,32,359,18,69,58,289,23,70,14,222,,79,13,157,20*6A
$GLGSV,2,2,08,80,14,209,,81,26,122,36,82,46,064,27,83,24,003,*63
$GNGLL,0420.00035,S,05539.79638,E,105922.00,A,D*6B
$GNRMC,105923.00,A,0420.00039,S,05539.79642,E,0.106,,020625,,,D*76
$GNVTG,,T,,M,0.106,N,0.195,K,D*32
$GNGGA,105923.00,0420.00039,S,05539.79642,E,2,11,0.88,12.0,M,-47.6,M,,0000*43
$GNGSA,A,3,32,29,28,10,18,31,40,,,,,,1.63,0.88,1.37*13
$GNGSA,A,3,69,68,81,82,,,,,,,,,1.63,0.88,1.37*1F
$GPGSV,4,1,16,10,21,349,09,16,25,258,,18,30,064,18,23,06,028,*7D
$GPGSV,4,2,16,25,04,135,09,26,30,226,17,27,30,321,16,28,39,167,35*75
$GPGSV,4,3,16,29,27,145,34,31,24,197,29,32,75,349,36,36,52,277,*78
$GPGSV,4,4,16,40,84,353,33,41,58,082,42,49,32,274,,50,10,089,*7F
$GLGSV,2,1,08,68,32,359,16,69,58,289,25,70,14,222,,79,13,157,19*68
$GLGSV,2,2,08,80,14,209,,81,26,122,36,82,46,064,28,83,24,003,*6C
$GNGLL,0420.00039,S,05539.79642,E,105923.00,A,D*6B
$GNRMC,105924.00,A,0420.00046,S,05539.79649,E,0.069,,020625,,,D*7A
$GNVTG,,T,,M,0.069,N,0.128,K,D*3C
$GNGGA,105924.00,0420.00046,S,05539.79649,E,2,11,0.92,12.5,M,-47.6,M,,0000*49
$GNGSA,A,3,32,29,28,10,18,31,40,,,,,,1.73,0.92,1.46*1F
$GNGSA,A,3,69,68,81,82,,,,,,,,,1.73,0.92,1.46*13
$GPGSV,4,1,16,10,21,349,09,16,25,258,,18,30,064,18,23,06,028,*7D
$GPGSV,4,2,16,25,04,135,08,26,30,226,16,27,30,321,16,28,39,167,35*75
$GPGSV,4,3,16,29,27,145,34,31,24,197,29,32,75,349,37,36,52,277,*79
$GPGSV,4,4,16,40,84,353,33,41,58,082,42,49,32,274,,50,10,089,*7F
$GLGSV,2,1,08,68,32,359,13,69,58,289,26,70,14,222,,79,13,157,20*64
$GLGSV,2,2,08,80,14,209,,81,26,122,36,82,46,064,28,83,24,003,*6C
$GNGLL,0420.00046,S,05539.79649,E,105924.00,A,D*6F
$GNRMC,105925.00,A,0420.00051,S,05539.79655,E,0.093,,020625,,,D*75
$GNVTG,,T,,M,0.093,N,0.172,K,D*36
$GNGGA,105925.00,0420.00051,S,05539.79655,E,2,12,0.96,12.9,M,-47.6,M,,0000*48
$GNGSA,A,3,32,29,26,28,10,18,31,40,,,,,1.80,0.96,1.52*16
$GNGSA,A,3,69,68,81,82,,,,,,,,,1.80,0.96,1.52*1E
$GPGSV,4,1,16,10,21,349,08,16,25,258,,18,30,064,16,23,06,028,*72
$GPGSV,4,2,16,25,04,135,,26,30,226,14,27,30,321,17,28,39,167,34*7F
$GPGSV,4,3,16,29,27,145,33,31,24,197,28,32,75,349,36,36,52,277,*7E
$GPGSV,4,4,16,40,84,353,32,41,58,082,41,49,32,274,,50,10,089,*7D
$GLGSV,2,1,08,68,32,359,10,69,58,289,26,70,14,222,,79,13,157,21*66
$GLGSV,2,2,08,80,14,209,,81,26,122,36,82,46,064,28,83,24,003,*6C
$GNGLL,0420.00051,S,05539.79655,E,105925.00,A,D*65
$GNRMC,105926.00,A,0420.00053,S,05539.79665,E,0.125,,020625,,,D*7B
$GNVTG,,T,,M,0.125,N,0.232,K,D*3D
$GNGGA,105926.00,0420.00053,S,05539.79665,E,2,12,0.88,13.2,M,-47.6,M,,0000*4F
$GNGSA,A,3,32,29,26,28,10,18,31,40,,,,,1.63,0.88,1.37*17
$GNGSA,A,3,69,68,81,82,,,,,,,,,1.63,0.88,1.37*1F
$GPGSV,4,1,16,10,21,349,07,16,25,258,,18,30,064,15,23,06,028,*7E
$GPGSV,4,2,16,25,04,135,,26,30,226,13,27,30,321,15,28,39,167,34*7A
$GPGSV,4,3,16,29,27,145,33,31,24,197,28,32,75,349,36,36,52,277,*7E
$GPGSV,4,4,16,40,84,353,32,41,58,082,43,49,32,274,,50,10,089,*7F
$GLGSV,2,1,08,68,32,359,12,69,58,289,26,70,14,222,,79,13,157,20*65
$GLGSV,2,2,08,80,14,209,,81,26,122,36,82,46,064,28,83,24,003,*6C
$GNGLL,0420.00053,S,05539.79665,E,105926.00,A,D*67
$GNRMC,105927.00,A,0420.00057,S,05539.79675,E,0.150,,020625,,,D*7D
$GNVTG,,T,,M,0.150,N,0.278,K,D*31
$GNGGA,105927.00,0420.00057,S,05539.79675,E,2,12,0.88,13.5,M,-47.6,M,,0000*4C
$GNGSA,A,3,32,29,26,28,10,18,31,40,,,,,1.63,0.88,1.37*17
$GNGSA,A,3,69,68,81,82,,,,,,,,,1.63,0.88,1.37*1F
$GPGSV,4,1,16,10,21,349,10,16,25,258,,18,30,064,16,23,06,028,*7B
$GPGSV,4,2,16,25,04,135,,26,30,226,14,27,30,321,14,28,39,167,35*7D
$GPGSV,4,3,16,29,27,145,33,31,24,197,28,32,75,349,36,36,52,277,*7E
$GPGSV,4,4,16,40,84,353,32,41,58,082,41,49,32,274,,50,10,089,*7D
$GLGSV,2,1,08,68,32,359,14,69,58,289,26,70,14,222,,79,13,157,20*63
$GLGSV,2,2,08,80,14,209,,81,26,122,35,82,46,064,29,83,24,003,*6E
$GNGLL,0420.00057,S,05539.79675,E,105927.00,A,D*63
$GNRMC,105928.00,A,0420.00065,S,05539.79680,E,0.087,,020625,,,D*72
$GNVTG,,T,,M,0.087,N,0.161,K,D*31
$GNGGA,105928.00,0420.00065,S,05539.79680,E,2,11,1.48,13.9,M,-47.6,M,,0000*4A
$GNGSA,A,3,32,29,26,28,18,31,40,,,,,,3.09,1.48,2.71*14
$GNGSA,A,3,69,68,81,82,,,,,,,,,3.09,1.48,2.71*1D
$GPGSV,4,1,16,10,21,349,07,16,25,258,,18,30,064,14,23,06,028,*7F
$GPGSV,4,2,16,25,04,135,06,26,30,226,15,27,30,321,13,28,39,167,32*7A
$GPGSV,4,3,16,29,27,145,29,31,24,197,28,32,75,349,31,36,52,277,*72
$GPGSV,4,4,16,40,84,353,35,41,58,082,41,49,32,274,,50,10,089,*7A
$GLGSV,2,1,08,68,32,359,12,69,58,289,25,70,14,222,,79,13,157,19*6C
$GLGSV,2,2,08,80,14,209,,81,26,122,33,82,46,064,28,83,24,003,*69
$GNGLL,0420.00065,S,05539.79680,E,105928.00,A,D*67
$GNRMC,105929.00,A,0420.00076,S,05539.79687,E,0.158,,020625,,,D*75
$GNVTG,,T,,M,0.158,N,0.292,K,D*3D
$GNGGA,105929.00,0420.00076,S,05539.79687,E,2,12,0.92,14.4,M,-47.6,M,,0000*41
$GNGSA,A,3,32,29,26,28,10,18,31,40,,,,,1.73,0.92,1.46*1B
$GNGSA,A,3,69,68,81,82,,,,,,,,,1.73,0.92,1.46*13
$GPGSV,4,1,16,10,21,349,08,16,25,258,,18,30,064,13,23,06,028,*77
$GPGSV,4,2,16,25,04,135,07,26,30,226,15,27,30,321,10,28,39,167,32*78
$GPGSV,4,3,16,29,27,145,29,31,24,197,27,32,75,349,32,36,52,277,*7E
$GPGSV,4,4,16,40,84,353,33,41,58,082,40,49,32,274,,50,10,089,*7D
$GLGSV,2,1,08,68,32,359,12,69,58,289,25,70,14,222,,79,13,157,18*6D
$GLGSV,2,2,08,80,14,209,,81,26,122,33,82,46,064,27,83,24,003,*66
$GNGLL,0420.00076,S,05539.79687,E,105929.00,A,D*63
$GNRMC,105930.00,A,0420.00084,S,05539.79698,E,0.152,,020625,,,D*74
$GNVTG,,T,,M,0.152,N,0.281,K,D*35
$GNGGA,105930.00,0420.00084,S,05539.79698,E,2,12,0.88,14.9,M,-47.6,M,,0000*4C
$GNGSA,A,3,32,29,26,28,10,18,31,40,,,,,1.63,0.88,1.37*17
$GNGSA,A,3,69,68,81,82,,,,,,,,,1.63,0.88,1.37*1F
$GPGSV,4,1,16,10,21,349,07,16,25,258,,18,30,064,09,23,06,028,*73
$GPGSV,4,2,16,25,04,135,08,26,30,226,14,27,30,321,09,28,39,167,33*7F
$GPGSV,4,3,16,29,27,145,31,31,24,197,27,32,75,349,36,36,52,277,*73
$GPGSV,4,4,16,40,84,353,33,41,58,082,42,49,32,274,,50,10,089,*7F
$GLGSV,2,1,08,68,32,359,07,69,58,289,25,70,14,222,,79,13,157,19*68
$GLGSV,2,2,08,80,14,209,,81,26,122,34,82,46,064,27,83,24,003,*61
$GNGLL,0420.00084,S,05539.79698,E,105930.00,A,D*68
$GNRMC,105931.00,A,0420.00085,S,05539.79702,E,0.091,,020625,,,D*78
$GNVTG,,T,,M,0.091,N,0.169,K,D*3E
$GNGGA,105931.00,0420.00085,S,05539.79702,E,2,10,1.08,15.2,M,-47.6,M,,0000*4F
$GNGSA,A,3,32,29,26,28,31,40,,,,,,,2.02,1.08,1.71*10
$GNGSA,A,3,69,68,81,82,,,,,,,,,2.02,1.08,1.71*10
$GPGSV,4,1,16,10,21,349,12,16,25,258,,18,30,064,,23,06,028,*7E
$GPGSV,4,2,16,25,04,135,08,26,30,226,14,27,30,321,11,28,39,167,34*71
$GPGSV,4,3,16,29,27,145,33,31,24,197,27,32,75,349,36,36,52,277,*71
$GPGSV,4,4,16,40,84,353,34,41,58,082,41,49,32,274,,50,10,089,*7B
$GLGSV,2,1,08,68,32,359,10,69,58,289,25,70,14,222,,79,13,157,20*64
$GLGSV,2,2,08,80,14,209,,81,26,122,35,82,46,064,28,83,24,003,*6F
$GNGLL,0420.00085,S,05539.79702,E,105931.00,A,D*6A
$GNRMC,105932.00,A,0420.00085,S,05539.79702,E,0.097,,020625,,,D*7D
$GNVTG,,T,,M,0.097,N,0.180,K,D*3F
$GNGGA,105932.00,0420.00085,S,05539.79702,E,2,10,1.08,15.3,M,-47.6,M,,0000*4D
$GNGSA,A,3,32,29,26,28,31,40,,,,,,,2.02,1.08,1.71*10
$GNGSA,A,3,69,68,81,82,,,,,,,,,2.02,1.08,1.71*10
$GPGSV,4,1,16,10,21,349,08,16,25,258,,18,30,064,19,23,06,028,*7D
$GPGSV,4,2,16,25,04,135,12,26,30,226,14,27,30,321,14,28,39,167,33*78
$GPGSV,4,3,16,29,27,145,34,31,24,197,28,32,75,349,36,36,52,277,*79
$GPGSV,4,4,16,40,84,353,34,41,58,082,42,49,32,274,,50,10,089,*78
$GLGSV,2,1,08,68,32,359,12,69,58,289,24,70,14,222,,79,13,157,20*67
$GLGSV,2,2,08,80,14,209,,81,26,122,35,82,46,064,28,83,24,003,*6F
$GNGLL,0420.00085,S,05539.79702,E,105932.00,A,D*69
$GNRMC,105933.00,A,0420.00086,S,05539.79702,E,0.088,,020625,,,D*71
$GNVTG,,T,,M,0.088,N,0.164,K,D*3B
$GNGGA,105933.00,0420.00086,S,05539.79702,E,2,10,1.08,15.5,M,-47.6,M,,0000*49
$GNGSA,A,3,32,29,26,28,31,40,,,,,,,2.02,1.08,1.71*10
$GNGSA,A,3,69,68,81,82,,,,,,,,,2.02,1.08,1.71*10
$GPGSV,4,1,16,10,21,349,11,16,25,258,,18,30,064,17,23,06,028,*7B
$GPGSV,4,2,16,25,04,135,10,26,30,226,13,27,30,321,16,28,39,167,34*78
$GPGSV,4,3,16,29,27,145,33,31,24,197,28,32,75,349,37,36,52,277,*7F
$GPGSV,4,4,16,40,84,353,35,41,58,082,42,49,32,274,,50,10,089,*79
$GLGSV,2,1,08,68,32,359,16,69,58,289,25,70,14,222,,79,13,157,20*62
$GLGSV,2,2,08,80,14,209,,81,26,122,35,82,46,064,28,83,24,003,*6F
$GNGLL,0420.00086,S,05539.79702,E,105933.00,A,D*6B
$GNRMC,105934.00,A,0420.00087,S,05539.79705,E,0.056,,020625,,,D*73
$GNVTG,,T,,M,0.056,N,0.104,K,D*3E
$GNGGA,105934.00,0420.00087,S,05539.79705,E,2,11,1.08,15.6,M,-47.6,M,,0000*4A
$GNGSA,A,3,32,29,26,28,10,31,40,,,,,,2.02,1.08,1.71*11
$GNGSA,A,3,69,68,81,82,,,,,,,,,2.02,1.08,1.71*10
$GPGSV,4,1,16,10,21,349,10,16,25,258,,18,30,064,16,23,06,028,*7B
$GPGSV,4,2,16,25,04,135,13,26,30,226,12,27,30,321,17,28,39,167,34*7B
$GPGSV,4,3,16,29,27,145,34,31,24,197,29,32,75,349,37,36,52,277,*79
$GPGSV,4,4,16,40,84,353,33,41,58,082,43,49,32,274,,50,10,089,*7E
$GLGSV,2,1,08,68,32,359,10,69,58,289,25,70,14,222,,79,13,157,20*64
$GLGSV,2,2,08,80,14,209,,81,26,122,34,82,46,064,28,83,24,003,*6E
$GNGLL,0420.00087,S,05539.79705,E,105934.00,A,D*6A
$GNRMC,105935.00,A,0420.00088,S,05539.79709,E,0.099,,020625,,,D*72
$GNVTG,,T,,M,0.099,N,0.184,K,D*35
$GNGGA,105935.00,0420.00088,S,05539.79709,E,2,11,0.94,15.9,M,-47.6,M,,0000*43
$GNGSA,A,3,32,29,26,28,10,31,40,,,,,,1.67,0.94,1.38*18
$GNGSA,A,3,69,68,81,82,,,,,,,,,1.67,0.94,1.38*19
$GPGSV,4,1,16,10,21,349,08,16,25,258,,18,30,064,15,23,06,028,*71
$GPGSV,4,2,16,25,04,135,10,26,30,226,15,27,30,321,16,28,39,167,34*7E
$GPGSV,4,3,16,29,27,145,33,31,24,197,29,32,75,349,37,36,52,277,*7E
$GPGSV,4,4,16,40,84,353,33,41,58,082,42,49,32,274,,50,10,089,*7F
$GLGSV,2,1,08,68,32,359,13,69,58,289,23,70,14,222,,79,13,157,20*61
$GLGSV,2,2,08,80,14,209,,81,26,122,31,82,46,064,28,83,24,003,*6B
$GNGLL,0420.00088,S,05539.79709,E,105935.00,A,D*68
$GNRMC,105936.00,A,0420.00090,S,05539.79716,E,0.128,,020625,,,D*7D
$GNVTG,,T,,M,0.128,N,0.236,K,D*34
$GNGGA,105936.00,0420.00090,S,05539.79716,E,2,12,0.94,16.1,M,-47.6,M,,0000*4F
$GNGSA,A,3,32,29,26,28,10,18,31,40,,,,,1.67,0.94,1.38*11
$GNGSA,A,3,69,68,81,82,,,,,,,,,1.67,0.94,1.38*19
$GPGSV,4,1,16,10,21,349,10,16,25,258,,18,30,064,14,23,06,028,*79
$GPGSV,4,2,16,25,04,135,11,26,30,226,16,27,30,321,14,28,39,167,35*7F
$GPGSV,4,3,16,29,27,145,33,31,24,197,29,32,75,349,37,36,52,277,*7E
$GPGSV,4,4,16,40,84,353,33,41,58,082,42,49,32,274,,50,10,089,*7F
$GLGSV,2,1,08,68,32,359,10,69,58,289,25,70,14,222,,79,13,157,20*64
$GLGSV,2,2,08,80,14,209,,81,26,122,32,82,46,064,29,83,24,003,*69
$GNGLL,0420.00090,S,05539.79716,E,105936.00,A,D*6C
$GNRMC,105937.00,A,0420.00088,S,05539.79722,E,0.138,,020625,,,D*73
$GNVTG,,T,,M,0.138,N,0.256,K,D*33
$GNGGA,105937.00,0420.00088,S,05539.79722,E,2,11,1.08,16.3,M,-47.6,M,,0000*45
$GNGSA,A,3,32,29,26,28,18,31,40,,,,,,2.02,1.08,1.71*19
$GNGSA,A,3,69,68,81,82,,,,,,,,,2.02,1.08,1.71*10
$GPGSV,4,1,16,10,21,349,10,16,25,258,,18,30,064,14,23,06,028,*79
$GPGSV,4,2,16,25,04,135,16,26,30,226,14,27,30,321,12,28,39,167,35*7C
$GPGSV,4,3,16,29,27,145,33,31,24,197,28,32,75,349,37,36,52,277,*7F
$GPGSV,4,4,16,40,84,353,35,41,58,082,42,49,32,274,,50,10,089,*79
$GLGSV,2,1,08,68,32,359,17,69,58,289,28,70,14,222,,79,13,157,20*6E
$GLGSV,2,2,08,80,14,209,,81,26,122,36,82,46,064,29,83,24,003,*6D
$GNGLL,0420.00088,S,05539.79722,E,105937.00,A,D*63
$GNRMC,105938.00,A,0420.00086,S,05539.79725,E,0.076,,020625,,,D*7E
$GNVTG,,T,,M,0.076,N,0.141,K,D*3D
$GNGGA,105938.00,0420.00086,S,05539.79725,E,2,10,1.08,16.5,M,-47.6,M,,0000*44
$GNGSA,A,3,32,29,26,28,31,40,,,,,,,2.02,1.08,1.71*10
$GNGSA,A,3,69,68,81,82,,,,,,,,,2.02,1.08,1.71*10
$GPGSV,4,1,16,10,21,350,08,16,25,258,,18,30,064,,23,06,028,*7D
$GPGSV,4,2,16,25,04,135,11,26,30,226,13,27,30,321,12,28,39,167,34*7D
$GPGSV,4,3,16,29,27,145,33,31,24,197,29,32,75,349,39,36,52,277,*70
$GPGSV,4,4,16,40,84,353,37,41,58,082,43,49,32,274,,50,10,089,*7A
$GLGSV,2,1,08,68,32,359,14,69,58,289,29,70,14,222,,79,13,157,21*6D
$GLGSV,2,2,08,80,14,209,,81,26,122,36,82,46,064,29,83,24,003,*6D
$GNGLL,0420.00086,S,05539.79725,E,105938.00,A,D*65
$GNRMC,105939.00,A,0420.00087,S,05539.79726,E,0.088,,020625,,,D*7C
$GNVTG,,T,,M,0.088,N,0.163,K,D*3C
$GNGGA,105939.00,0420.00087,S,05539.79726,E,2,10,1.08,16.7,M,-47.6,M,,0000*45
$GNGSA,A,3,32,29,26,28,31,40,,,,,,,2.02,1.08,1.71*10
$GNGSA,A,3,69,68,81,82,,,,,,,,,2.02,1.08,1.71*10
$GPGSV,4,1,16,10,21,350,13,16,25,258,,18,30,064,,23,06,028,*77
$GPGSV,4,2,16,25,04,135,14,26,30,226,12,27,30,321,13,28,39,167,37*7B
$GPGSV,4,3,16,29,27,145,34,31,24,197,28,32,75,349,38,36,52,277,*77
$GPGSV,4,4,16,40,84,353,37,41,58,082,43,49,32,274,,50,10,089,*7A
$GLGSV,2,1,08,68,32,359,11,69,58,289,28,70,14,222,,79,13,157,21*69
$GLGSV,2,2,08,80,14,209,,81,26,122,36,82,46,064,29,83,24,003,*6D
$GNGLL,0420.00087,S,05539.79726,E,105939.00,A,D*66
$GNRMC,105940.00,A,0420.00090,S,05539.79728,E,0.106,,020625,,,D*7D
$GNVTG,,T,,M,0.106,N,0.196,K,D*31
$GNGGA,105940.00,0420.00090,S,05539.79728,E,2,11,1.08,17.0,M,-47.6,M,,0000*44
$GNGSA,A,3,32,29,26,28,10,31,40,,,,,,2.02,1.08,1.71*11
$GNGSA,A,3,69,68,81,82,,,,,,,,,2.02,1.08,1.71*10
$GPGSV,4,1,16,10,21,350,10,16,25,258,,18,30,064,,23,06,028,*74
$GPGSV,4,2,16,25,04,135,08,26,30,226,13,27,30,321,13,28,39,167,34*74
$GPGSV,4,3,16,29,27,145,34,31,24,197,28,32,75,349,38,36,52,277,*77
$GPGSV,4,4,16,40,84,353,37,41,58,082,43,49,32,274,,50,10,089,*7A
$GLGSV,2,1,08,68,32,359,10,69,58,289,29,70,14,222,,79,13,157,21*69
$GLGSV,2,2,08,80,14,209,,81,26,122,35,82,46,064,28,83,24,003,*6F
$GNGLL,0420.00090,S,05539.79728,E,105940.00,A,D*60
$GNRMC,105941.00,A,0420.00087,S,05539.79724,E,0.052,,020625,,,D*76
$GNVTG,,T,,M,0.052,N,0.095,K,D*33
$GNGGA,105941.00,0420.00087,S,05539.79724,E,2,11,0.94,16.9,M,-47.6,M,,0000*43
$GNGSA,A,3,32,29,26,28,10,31,40,,,,,,1.67,0.94,1.38*18
$GNGSA,A,3,69,68,81,82,,,,,,,,,1.67,0.94,1.38*19
$GPGSV,4,1,16,10,21,350,10,16,25,258,,18,30,064,,23,06,028,*74
$GPGSV,4,2,16,25,04,135,11,26,30,226,14,27,30,321,15,28,39,167,34*7D
$GPGSV,4,3,16,29,27,145,34,31,24,197,27,32,75,349,38,36,52,277,*78
$GPGSV,4,4,16,40,84,353,37,41,58,082,44,49,32,274,,50,10,089,*7D
$GLGSV,2,1,08,68,32,359,15,69,58,289,30,70,14,222,,79,13,157,20*65
$GLGSV,2,2,08,80,14,209,,81,26,122,35,82,46,064,28,83,24,003,*6F
$GNGLL,0420.00087,S,05539.79724,E,105941.00,A,D*6B
$GNRMC,105942.00,A,0420.00088,S,05539.79725,E,0.086,,020625,,,D*72
$GNVTG,,T,,M,0.086,N,0.159,K,D*3B
$GNGGA,105942.00,0420.00088,S,05539.79725,E,2,10,1.08,17.1,M,-47.6,M,,0000*42
$GNGSA,A,3,32,29,26,28,31,40,,,,,,,2.02,1.08,1.71*10
$GNGSA,A,3,69,68,81,82,,,,,,,,,2.02,1.08,1.71*10
$GPGSV,4,1,16,10,21,350,07,16,25,258,20,18,30,064,,23,06,028,*70
$GPGSV,4,2,16,25,04,135,09,26,30,226,14,27,30,321,15,28,39,167,35*75
$GPGSV,4,3,16,29,27,145,31,31,24,197,27,32,75,349,38,36,52,277,*7D
$GPGSV,4,4,16,40,84,353,35,41,58,082,43,49,32,274,,50,10,089,*78
$GLGSV,2,1,08,68,32,359,15,69,58,289,29,70,14,222,,79,13,157,21*6C
$GLGSV,2,2,08,80,14,209,,81,26,122,35,82,46,064,28,83,24,003,*6F
$GNGLL,0420.00088,S,05539.79725,E,105942.00,A,D*66
$GNRMC,105943.00,A,0420.00087,S,05539.79722,E,0.093,,020625,,,D*7F
$GNVTG,,T,,M,0.093,N,0.173,K,D*37
$GNGGA,105943.00,0420.00087,S,05539.79722,E,2,11,1.08,17.1,M,-47.6,M,,0000*4A
$GNGSA,A,3,32,29,26,28,10,31,40,,,,,,2.02,1.08,1.71*11
$GNGSA,A,3,69,68,81,82,,,,,,,,,2.02,1.08,1.71*10
$GPGSV,4,1,16,10,21,350,08,16,25,258,,18,30,064,,23,06,028,*7D
$GPGSV,4,2,16,25,04,135,08,26,30,226,16,27,30,321,16,28,39,167,35*75
$GPGSV,4,3,16,29,27,145,33,31,24,197,28,32,75,349,38,36,52,277,*70
$GPGSV,4,4,16,40,84,353,35,41,58,082,42,49,32,274,,50,10,089,*79
$GLGSV,2,1,08,68,32,359,14,69,58,289,30,70,14,222,,79,13,157,21*65
$GLGSV,2,2,08,80,14,209,,81,26,122,35,82,46,064,28,83,24,003,*6F
$GNGLL,0420.00087,S,05539.79722,E,105943.00,A,D*6F
$GNRMC,105944.00,A,0420.00088,S,05539.79723,E,0.058,,020625,,,D*71
$GNVTG,,T,,M,0.058,N,0.107,K,D*33
$GNGGA,105944.00,0420.00088,S,05539.79723,E,2,11,1.02,17.3,M,-47.6,M,,0000*4B
$GNGSA,A,3,32,29,26,28,10,31,40,,,,,,1.79,1.02,1.47*11
$GNGSA,A,3,69,68,81,82,,,,,,,,,1.79,1.02,1.47*10
$GPGSV,4,1,16,10,21,350,10,16,25,258,,18,30,064,,23,06,028,*74
$GPGSV,4,2,16,25,04,135,10,26,30,226,16,27,30,321,15,28,39,167,34*7E
$GPGSV,4,3,16,29,27,145,32,31,24,197,27,32,75,349,35,36,52,277,*73
$GPGSV,4,4,16,40,84,353,34,41,58,082,43,49,32,274,,50,10,089,*79
$GLGSV,2,1,08,68,32,359,13,69,58,289,29,70,14,222,,79,13,157,22*69
$GLGSV,2,2,08,80,14,209,,81,26,122,34,82,46,064,28,83,24,003,*6E
$GNGLL,0420.00088,S,05539.79723,E,105944.00,A,D*66
$GNRMC,105945.00,A,0420.00096,S,05539.79732,E,0.141,,020625,,,D*76
$GNVTG,,T,,M,0.141,N,0.261,K,D*39
$GNGGA,105945.00,0420.00096,S,05539.79732,E,2,11,0.88,17.8,M,-47.6,M,,0000*4D
$GNGSA,A,3,32,29,26,28,10,31,40,,,,,,1.68,0.88,1.43*16
$GNGSA,A,3,69,68,81,82,,,,,,,,,1.68,0.88,1.43*17
$GPGSV,4,1,16,10,21,350,09,16,25,258,,18,30,064,,23,06,028,*7C
$GPGSV,4,2,16,25,04,135,10,26,30,226,17,27,30,321,15,28,39,167,34*7F
$GPGSV,4,3,16,29,27,145,32,31,24,197,27,32,75,349,35,36,52,277,*73
$GPGSV,4,4,16,40,84,353,34,41,58,082,43,49,32,274,,50,10,089,*79
$GLGSV,2,1,08,68,32,359,17,69,58,289,28,70,14,222,,79,13,157,22*6C
$GLGSV,2,2,08,80,14,209,,81,26,122,34,82,46,064,28,83,24,003,*6E
$GNGLL,0420.00096,S,05539.79732,E,105945.00,A,D*68
$GNRMC,105946.00,A,0420.00097,S,05539.79736,E,0.106,,020625,,,D*73
$GNVTG,,T,,M,0.106,N,0.197,K,D*30
$GNGGA,105946.00,0420.00097,S,05539.79736,E,2,11,1.00,18.1,M,-47.6,M,,0000*4C
$GNGSA,A,3,32,29,26,28,10,31,40,,,,,,2.08,1.00,1.82*1F
$GNGSA,A,3,69,68,81,82,,,,,,,,,2.08,1.00,1.82*1E
$GPGSV,4,1,16,10,21,350,08,16,25,258,,18,30,065,13,23,06,028,*7E
$GPGSV,4,2,16,25,04,135,10,26,30,226,17,27,30,321,15,28,39,167,35*7E
$GPGSV,4,3,16,29,27,145,33,31,24,197,29,32,75,349,37,36,52,277,*7E
$GPGSV,4,4,16,40,84,353,34,41,58,082,44,49,32,274,,50,10,089,*7E
$GLGSV,2,1,08,68,32,359,10,69,58,289,28,70,14,222,,79,13,157,21*68
$GLGSV,2,2,08,80,14,209,,81,26,122,35,82,46,064,28,83,24,003,*6F
$GNGLL,0420.00097,S,05539.79736,E,105946.00,A,D*6E
$GNRMC,105947.00,A,0420.00111,S,05539.79744,E,0.130,,020625,,,D*7D
$GNVTG,,T,,M,0.130,N,0.242,K,D*3E
$GNGGA,105947.00,0420.00111,S,05539.79744,E,2,11,0.88,18.8,M,-47.6,M,,0000*4F
$GNGSA,A,3,32,29,26,28,10,31,40,,,,,,1.68,0.88,1.43*16
$GNGSA,A,3,69,68,81,82,,,,,,,,,1.68,0.88,1.43*17
$GPGSV,4,1,16,10,21,350,12,16,25,258,,18,30,065,13,23,06,028,*75
$GPGSV,4,2,16,25,04,135,10,26,30,226,17,27,30,321,14,28,39,167,35*7F
$GPGSV,4,3,16,29,27,145,33,31,24,197,29,32,75,349,35,36,52,277,*7C
$GPGSV,4,4,16,40,84,353,34,41,58,082,43,49,32,274,,50,10,089,*79
$GLGSV,2,1,08,68,32,359,12,69,58,289,28,70,14,222,,79,13,157,21*6A
$GLGSV,2,2,08,80,14,209,,81,26,122,36,82,46,064,28,83,24,003,*6C
$GNGLL,0420.00111,S,05539.79744,E,105947.00,A,D*65
$GNRMC,105948.00,A,0420.00116,S,05539.79748,E,0.112,,020625,,,D*79
$GNVTG,,T,,M,0.112,N,0.207,K,D*3F
$GNGGA,105948.00,0420.00116,S,05539.79748,E,2,11,0.88,19.1,M,-47.6,M,,0000*43
$GNGSA,A,3,32,29,26,28,10,31,40,,,,,,1.68,0.88,1.43*16
$GNGSA,A,3,69,68,81,82,,,,,,,,,1.68,0.88,1.43*17
$GPGSV,4,1,16,10,21,350,10,16,25,258,,18,30,065,13,23,06,028,*77
$GPGSV,4,2,16,25,04,135,09,26,30,226,19,27,30,321,13,28,39,167,35*7E
$GPGSV,4,3,16,29,27,145,33,31,24,197,29,32,75,349,34,36,52,277,*7D
$GPGSV,4,4,16,40,84,353,34,41,58,082,43,49,32,274,,50,10,089,*79
$GLGSV,2,1,08,68,32,359,13,69,58,289,29,70,14,222,,79,13,157,23*68
$GLGSV,2,2,08,80,14,209,,81,26,122,36,82,46,064,29,83,24,003,*6D
$GNGLL,0420.00116,S,05539.79748,E,105948.00,A,D*61
$GNRMC,105949.00,A,0420.00117,S,05539.79744,E,0.092,,020625,,,D*7C
$GNVTG,,T,,M,0.092,N,0.170,K,D*35
$GNGGA,105949.00,0420.00117,S,05539.79744,E,2,11,1.00,19.2,M,-47.6,M,,0000*4D
$GNGSA,A,3,32,29,26,28,10,31,40,,,,,,2.08,1.00,1.82*1F
$GNGSA,A,3,69,68,81,82,,,,,,,,,2.08,1.00,1.82*1E
$GPGSV,4,1,16,10,21,350,09,16,25,258,23,18,30,065,11,23,06,028,*7C
$GPGSV,4,2,16,25,04,135,10,26,30,226,19,27,30,321,14,28,39,167,35*71
$GPGSV,4,3,16,29,27,145,32,31,24,197,30,32,75,349,34,36,52,277,*74
$GPGSV,4,4,16,40,84,353,34,41,58,082,42,49,32,274,,50,10,089,*78
$GLGSV,2,1,08,68,32,359,16,69,58,289,30,70,14,222,,79,13,157,23*65
$GLGSV,2,2,08,80,14,209,,81,26,122,35,82,46,064,29,83,24,003,*6E
$GNGLL,0420.00117,S,05539.79744,E,105949.00,A,D*6D
$GNRMC,105950.00,A,0420.00121,S,05539.79742,E,0.117,,020625,,,D*7B
$GNVTG,,T,,M,0.117,N,0.217,K,D*3B
$GNGGA,105950.00,0420.00121,S,05539.79742,E,2,11,0.88,19.5,M,-47.6,M,,0000*40
$GNGSA,A,3,32,29,26,28,10,31,40,,,,,,1.68,0.88,1.43*16
$GNGSA,A,3,69,68,81,82,,,,,,,,,1.68,0.88,1.43*17
$GPGSV,4,1,16,10,21,350,11,16,25,258,,18,30,065,,23,06,028,*74
$GPGSV,4,2,16,25,04,135,14,26,30,226,18,27,30,321,13,28,39,167,34*72
$GPGSV,4,3,16,29,27,145,34,31,24,197,29,32,75,349,38,36,52,277,*76
$GPGSV,4,4,16,40,84,353,35,41,58,082,43,49,32,274,,50,10,089,*78
$GLGSV,2,1,08,68,32,359,09,69,58,289,29,70,14,222,,79,13,157,23*63
$GLGSV,2,2,08,80,14,209,,81,26,122,35,82,46,064,28,83,24,003,*6F
$GNGLL,0420.00121,S,05539.79742,E,105950.00,A,D*66
$GNRMC,105951.00,A,0420.00125,S,05539.79740,E,0.116,,020625,,,D*7D
$GNVTG,,T,,M,0.116,N,0.214,K,D*39
$GNGGA,105951.00,0420.00125,S,05539.79740,E,2,11,0.88,19.6,M,-47.6,M,,0000*44
$GNGSA,A,3,32,29,26,28,10,31,40,,,,,,1.68,0.88,1.43*16
$GNGSA,A,3,69,68,81,82,,,,,,,,,1.68,0.88,1.43*17
$GPGSV,4,1,16,10,21,350,11,16,25,258,22,18,30,065,,23,06,028,*74
$GPGSV,4,2,16,25,04,135,10,26,30,226,16,27,30,321,12,28,39,167,34*79
$GPGSV,4,3,16,29,27,145,33,31,24,197,29,32,75,349,39,36,52,277,*70
$GPGSV,4,4,16,40,84,353,36,41,58,082,43,49,32,274,,50,10,089,*7B
$GLGSV,2,1,08,68,32,359,13,69,58,289,30,70,14,222,,79,13,157,23*60
$GLGSV,2,2,08,80,14,209,,81,26,122,34,82,46,064,28,83,24,003,*6E
$GNGLL,0420.00125,S,05539.79740,E,105951.00,A,D*61
$GNRMC,105952.00,A,0420.00129,S,05539.79735,E,0.149,,020625,,,D*7A
$GNVTG,,T,,M,0.149,N,0.276,K,D*37
$GNGGA,105952.00,0420.00129,S,05539.79735,E,2,11,0.88,19.6,M,-47.6,M,,0000*49
$GNGSA,A,3,32,29,26,28,10,31,40,,,,,,1.68,0.88,1.43*16
$GNGSA,A,3,69,68,81,82,,,,,,,,,1.68,0.88,1.43*17
$GPGSV,4,1,16,10,21,350,09,16,25,258,22,18,30,065,,23,06,028,*7D
$GPGSV,4,2,16,25,04,135,08,26,30,226,12,27,30,321,11,28,39,167,33*70
$GPGSV,4,3,16,29,27,145,32,31,24,197,28,32,75,349,38,36,52,277,*71
$GPGSV,4,4,16,40,84,353,35,41,58,082,42,49,32,274,,50,10,089,*79
$GLGSV,2,1,08,68,32,359,17,69,58,289,29,70,14,222,,79,13,157,22*6D
$GLGSV,2,2,08,80,14,209,,81,26,122,35,82,46,064,28,83,24,003,*6F
$GNGLL,0420.00129,S,05539.79735,E,105952.00,A,D*6C
$GNRMC,105953.00,A,0420.00135,S,05539.79734,E,0.099,,020625,,,D*7B
$GNVTG,,T,,M,0.099,N,0.184,K,D*35
$GNGGA,105953.00,0420.00135,S,05539.79734,E,2,10,1.02,19.8,M,-47.6,M,,0000*48
$GNGSA,A,3,32,29,28,10,31,40,,,,,,,1.79,1.02,1.47*15
$GNGSA,A,3,69,68,81,82,,,,,,,,,1.79,1.02,1.47*10
$GPGSV,4,1,16,10,21,350,09,16,25,258,22,18,30,065,,23,06,028,*7D
$GPGSV,4,2,16,25,04,135,08,26,30,225,08,27,30,321,12,28,39,167,30*78
$GPGSV,4,3,16,29,27,145,32,31,24,197,28,32,75,349,36,36,52,277,*7F
$GPGSV,4,4,16,40,84,353,34,41,58,082,41,49,32,274,,50,10,089,*7B
$GLGSV,2,1,08,68,32,359,14,69,58,289,29,70,14,222,,79,13,157,21*6D
$GLGSV,2,2,08,80,14,209,,81,26,122,35,82,46,064,29,83,24,003,*6E
$GNGLL,0420.00135,S,05539.79734,E,105953.00,A,D*61
$GNRMC,105954.00,A,0420.00141,S,05539.79734,E,0.107,,020625,,,D*79
$GNVTG,,T,,M,0.107,N,0.198,K,D*3E
$GNGGA,105954.00,0420.00141,S,05539.79734,E,2,10,1.02,20.0,M,-47.6,M,,0000*4E
$GNGSA,A,3,32,29,28,10,31,40,,,,,,,1.79,1.02,1.47*15
$GNGSA,A,3,69,68,81,82,,,,,,,,,1.79,1.02,1.47*10
$GPGSV,4,1,16,10,21,350,13,16,25,258,21,18,30,065,,23,06,028,*75
$GPGSV,4,2,16,25,04,135,09,26,30,225,,27,31,321,15,28,39,167,34*73
$GPGSV,4,3,16,29,27,145,32,31,24,197,28,32,75,349,37,36,52,277,*7E
$GPGSV,4,4,16,40,84,353,35,41,58,082,42,49,32,274,,50,10,089,*79
$GLGSV,2,1,08,68,32,359,13,69,58,289,29,70,14,222,,79,13,157,21*6A
$GLGSV,2,2,08,80,14,209,,81,26,122,35,82,46,064,28,83,24,003,*6F
$GNGLL,0420.00141,S,05539.79734,E,105954.00,A,D*65
$GNRMC,105955.00,A,0420.00148,S,05539.79736,E,0.106,,020625,,,D*72
$GNVTG,,T,,M,0.106,N,0.197,K,D*30
$GNGGA,105955.00,0420.00148,S,05539.79736,E,2,11,1.14,20.3,M,-47.6,M,,0000*41
$GNGSA,A,3,32,29,28,10,16,31,40,,,,,,2.21,1.14,1.90*11
$GNGSA,A,3,69,68,81,82,,,,,,,,,2.21,1.14,1.90*13
$GPGSV,4,1,16,10,21,350,09,16,25,258,20,18,30,065,,23,06,028,*7F
$GPGSV,4,2,16,25,04,135,10,26,30,225,,27,31,321,15,28,40,167,33*72
$GPGSV,4,3,16,29,27,145,32,31,24,197,28,32,75,349,38,36,52,277,*71
$GPGSV,4,4,16,40,84,353,36,41,58,082,41,49,32,274,,50,10,089,*79
$GLGSV,2,1,08,68,32,359,14,69,58,289,29,70,14,222,,79,13,157,21*6D
$GLGSV,2,2,08,80,14,209,,81,26,122,35,82,46,064,29,83,24,003,*6E
$GNGLL,0420.00148,S,05539.79736,E,105955.00,A,D*6F
$GNRMC,105956.00,A,0420.00160,S,05539.79743,E,0.112,,020625,,,D*7C
$GNVTG,,T,,M,0.112,N,0.207,K,D*3F
$GNGGA,105956.00,0420.00160,S,05539.79743,E,2,11,0.84,20.8,M,-47.6,M,,0000*49
$GNGSA,A,3,32,29,28,10,16,31,40,,,,,,1.62,0.84,1.38*1F
$GNGSA,A,3,69,68,81,82,,,,,,,,,1.62,0.84,1.38*1D
$GPGSV,4,1,16,10,21,350,10,16,25,258,21,18,30,065,,23,06,028,*76
$GPGSV,4,2,16,25,04,135,12,26,30,225,07,27,31,321,14,28,40,167,33*76
$GPGSV,4,3,16,29,26,145,33,31,24,197,28,32,75,349,39,36,52,277,*70
$GPGSV,4,4,16,40,84,353,37,41,58,082,42,49,32,274,,50,10,089,*7B
$GLGSV,2,1,08,68,32,359,11,69,58,289,29,70,14,222,,79,13,157,21*68
$GLGSV,2,2,08,80,14,209,,81,26,122,35,82,46,064,29,83,24,003,*6E
$GNGLL,0420.00160,S,05539.79743,E,105956.00,A,D*64
$GNRMC,105957.00,A,0420.00169,S,05539.79748,E,0.090,,020625,,,D*74
$GNVTG,,T,,M,0.090,N,0.166,K,D*30
$GNGGA,105957.00,0420.00169,S,05539.79748,E,2,10,0.95,21.3,M,-47.6,M,,0000*41
$GNGSA,A,3,32,29,28,16,31,40,,,,,,,1.91,0.95,1.66*19
$GNGSA,A,3,69,68,81,82,,,,,,,,,1.91,0.95,1.66*1A
$GPGSV,4,1,16,10,21,350,06,16,25,258,21,18,30,065,,23,06,028,*71
$GPGSV,4,2,16,25,04,135,12,26,30,225,08,27,31,321,14,28,40,167,33*79
$GPGSV,4,3,16,29,26,145,33,31,24,197,27,32,75,349,38,36,52,277,*7E
$GPGSV,4,4,16,40,84,353,38,41,58,082,42,49,32,274,,50,10,089,*74
$GLGSV,2,1,08,68,32,359,14,69,58,289,30,70,14,222,,79,13,157,22*66
$GLGSV,2,2,08,80,14,209,,81,26,122,35,82,46,064,28,83,24,003,*6F
$GNGLL,0420.00169,S,05539.79748,E,105957.00,A,D*67
$GNRMC,105958.00,A,0420.00171,S,05539.79747,E,0.074,,020625,,,D*77
$GNVTG,,T,,M,0.074,N,0.138,K,D*31
$GNGGA,105958.00,0420.00171,S,05539.79747,E,2,11,0.95,21.3,M,-47.6,M,,0000*49
$GNGSA,A,3,32,29,28,10,16,31,40,,,,,,1.91,0.95,1.66*18
$GNGSA,A,3,69,68,81,82,,,,,,,,,1.91,0.95,1.66*1A
$GPGSV,4,1,16,10,21,350,10,16,25,258,21,18,30,065,,23,06,028,*76
$GPGSV,4,2,16,25,04,135,11,26,30,225,12,27,31,321,15,28,40,167,33*70
$GPGSV,4,3,16,29,26,145,32,31,24,197,28,32,75,349,38,36,52,277,*70
$GPGSV,4,4,16,40,84,353,36,41,58,082,42,49,32,274,,50,10,089,*7A
$GLGSV,2,1,08,68,32,359,14,69,58,289,30,70,14,222,,79,13,157,22*66
$GLGSV,2,2,08,80,14,209,,81,26,122,35,82,46,064,28,83,24,003,*6F
$GNGLL,0420.00171,S,05539.79747,E,105958.00,A,D*6E
$GNRMC,105959.00,A,0420.00175,S,05539.79746,E,0.096,,020625,,,D*7F
$GNVTG,,T,,M,0.096,N,0.178,K,D*39
$GNGGA,105959.00,0420.00175,S,05539.79746,E,2,11,0.84,21.4,M,-47.6,M,,0000*4A
$GNGSA,A,3,32,29,28,10,16,31,40,,,,,,1.62,0.84,1.38*1F
$GNGSA,A,3,69,68,81,82,,,,,,,,,1.62,0.84,1.38*1D
$GPGSV,4,1,16,10,21,350,10,16,25,258,21,18,30,065,,23,06,028,*76
$GPGSV,4,2,16,25,04,135,09,26,30,225,15,27,31,321,16,28,40,167,33*7D
$GPGSV,4,3,16,29,26,145,32,31,24,197,27,32,74,350,38,36,52,277,*76
$GPGSV,4,4,16,40,84,353,36,41,58,082,41,49,32,274,,50,10,089,*79
$GLGSV,2,1,08,68,32,359,11,69,58,289,29,70,14,222,,79,13,157,21*68
$GLGSV,2,2,08,80,14,209,,81,26,122,35,82,46,064,28,83,24,003,*6F
$GNGLL,0420.00175,S,05539.79746,E,105959.00,A,D*6A
$GNRMC,110000.00,A,0420.00176,S,05539.79744,E,0.041,,020625,,,D*75
$GNVTG,,T,,M,0.041,N,0.076,K,D*3C
$GNGGA,110000.00,0420.00176,S,05539.79744,E,2,12,0.79,21.4,M,-47.6,M,,0000*4B
$GNGSA,A,3,32,29,26,28,10,16,31,40,,,,,1.59,0.79,1.38*11
$GNGSA,A,3,69,68,81,82,,,,,,,,,1.59,0.79,1.38*17
$GPGSV,4,1,16,10,21,350,08,16,25,258,22,18,30,065,,23,06,028,*7C
$GPGSV,4,2,16,25,04,135,12,26,30,225,14,27,31,321,16,28,40,167,33*76
$GPGSV,4,3,16,29,26,145,31,31,24,197,27,32,74,350,37,36,52,277,*7A
$GPGSV,4,4,16,40,84,353,36,41,58,082,41,49,32,274,,50,10,089,*79
$GLGSV,2,1,08,68,32,359,13,69,58,289,29,70,14,222,,79,13,157,22*69
$GLGSV,2,2,08,80,14,209,,81,26,122,35,82,46,064,28,83,24,003,*6F
$GNGLL,0420.00176,S,05539.79744,E,110000.00,A,D*6A
$GNRMC,110001.00,A,0420.00171,S,05539.79737,E,0.088,,020625,,,D*72
$GNVTG,,T,,M,0.088,N,0.164,K,D*3B
$GNGGA,110001.00,0420.00171,S,05539.79737,E,2,12,0.79,21.1,M,-47.6,M,,0000*4C
$GNGSA,A,3,32,29,26,28,10,16,31,40,,,,,1.59,0.79,1.38*11
$GNGSA,A,3,69,68,81,82,,,,,,,,,1.59,0.79,1.38*17
$GPGSV,4,1,16,10,21,350,11,16,25,258,21,18,30,065,,23,06,028,*77
$GPGSV,4,2,16,25,04,135,12,26,30,225,13,27,31,321,15,28,40,167,32*73
$GPGSV,4,3,16,29,26,145,32,31,24,197,28,32,74,350,36,36,52,277,*77
$GPGSV,4,4,16,40,84,353,34,41,58,082,41,49,32,274,,50,10,089,*7B
$GLGSV,2,1,08,68,32,359,08,69,58,289,29,70,14,222,,79,13,157,21*60
$GLGSV,2,2,08,80,14,209,,81,26,122,35,82,46,064,28,83,24,003,*6F
$GNGLL,0420.00171,S,05539.79737,E,110001.00,A,D*68
$GNRMC,110002.00,A,0420.00168,S,05539.79728,E,0.089,,020625,,,D*76
$GNVTG,,T,,M,0.089,N,0.164,K,D*3A
$GNGGA,110002.00,0420.00168,S,05539.79728,E,2,12,0.79,20.8,M,-47.6,M,,0000*41
$GNGSA,A,3,32,29,26,28,10,16,31,40,,,,,1.59,0.79,1.38*11
$GNGSA,A,3,69,68,81,82,,,,,,,,,1.59,0.79,1.38*17
$GPGSV,4,1,16,10,21,350,07,16,25,258,22,18,30,065,,23,06,028,*73
$GPGSV,4,2,16,25,04,135,07,26,30,225,12,27,31,321,16,28,40,167,33*74
$GPGSV,4,3,16,29,26,145,31,31,24,197,27,32,74,350,37,36,52,277,*7A
$GPGSV,4,4,16,40,84,353,35,41,58,082,41,49,32,274,,50,10,089,*7A
$GLGSV,2,1,08,68,32,359,15,69,58,289,28,70,14,222,,79,13,157,20*6C
$GLGSV,2,2,08,80,14,209,,81,26,122,35,82,46,064,28,83,24,003,*6F
$GNGLL,0420.00168,S,05539.79728,E,110002.00,A,D*6D
$GNRMC,110003.00,A,0420.00166,S,05539.79720,E,0.130,,020625,,,D*72
$GNVTG,,T,,M,0.130,N,0.241,K,D*3D
$GNGGA,110003.00,0420.00166,S,05539.79720,E,2,12,0.79,20.6,M,-47.6,M,,0000*48
$GNGSA,A,3,32,29,26,28,10,16,31,40,,,,,1.59,0.79,1.38*11
$GNGSA,A,3,69,68,81,82,,,,,,,,,1.59,0.79,1.38*17
$GPGSV,4,1,16,10,21,350,09,16,25,258,23,18,30,065,,23,06,028,*7C
$GPGSV,4,2,16,25,04,135,09,26,30,225,16,27,31,321,16,28,40,167,33*7E
$GPGSV,4,3,16,29,26,145,35,31,24,197,27,32,74,350,37,36,52,277,*7E
$GPGSV,4,4,16,40,84,353,34,41,58,082,41,49,32,274,,50,10,089,*7B
$GLGSV,2,1,08,68,32,359,14,69,58,289,29,70,14,222,,79,13,157,20*6C
$GLGSV,2,2,08,80,14,209,,81,26,122,35,82,46,064,28,83,24,003,*6F
$GNGLL,0420.00166,S,05539.79720,E,110003.00,A,D*6A
$GNRMC,110004.00,A,0420.00165,S,05539.79715,E,0.067,,020625,,,D*73
$GNVTG,,T,,M,0.067,N,0.125,K,D*3F
$GNGGA,110004.00,0420.00165,S,05539.79715,E,2,11,0.90,20.5,M,-47.6,M,,0000*4D
$GNGSA,A,3,32,29,26,28,16,31,40,,,,,,1.89,0.90,1.66*11
$GNGSA,A,3,69,68,81,82,,,,,,,,,1.89,0.90,1.66*16
$GPGSV,4,1,16,10,21,350,06,16,25,258,23,18,30,065,,23,06,028,*73
$GPGSV,4,2,16,25,04,135,11,26,30,225,18,27,31,321,15,28,40,167,34*7D
$GPGSV,4,3,16,29,26,145,33,31,24,197,28,32,74,350,38,36,52,277,*78
$GPGSV,4,4,16,40,84,353,37,41,58,082,42,49,32,274,,50,10,089,*7B
$GLGSV,2,1,08,68,32,359,14,69,58,289,29,70,14,222,,79,13,157,20*6C
$GLGSV,2,2,08,80,14,209,,81,26,122,35,82,46,064,28,83,24,003,*6F
$GNGLL,0420.00165,S,05539.79715,E,110004.00,A,D*68
$GNRMC,110005.00,A,0420.00169,S,05539.79712,E,0.097,,020625,,,D*76
$GNVTG,,T,,M,0.097,N,0.180,K,D*3F
$GNGGA,110005.00,0420.00169,S,05539.79712,E,2,12,0.79,20.6,M,-47.6,M,,0000*40
$GNGSA,A,3,32,29,26,28,10,16,31,40,,,,,1.59,0.79,1.38*11
$GNGSA,A,3,69,68,81,82,,,,,,,,,1.59,0.79,1.38*17
$GPGSV,4,1,16,10,21,350,10,16,25,258,23,18,30,065,,23,06,028,*74
$GPGSV,4,2,16,25,04,135,15,26,30,225,19,27,31,321,17,28,40,167,34*7A
$GPGSV,4,3,16,29,26,145,34,31,24,197,27,32,74,350,39,36,52,277,*71
$GPGSV,4,4,16,40,84,353,37,41,58,082,44,49,32,274,,50,10,089,*7D
$GLGSV,2,1,08,68,32,359,10,69,58,289,28,70,14,222,,79,13,157,21*68
$GLGSV,2,2,08,80,14,209,,81,26,122,35,82,46,064,28,83,24,003,*6F
$GNGLL,0420.00169,S,05539.79712,E,110005.00,A,D*62
$GNRMC,110006.00,A,0420.00174,S,05539.79714,E,0.143,,020625,,,D*77
$GNVTG,,T,,M,0.143,N,0.265,K,D*3F
$GNGGA,110006.00,0420.00174,S,05539.79714,E,2,12,0.79,20.8,M,-47.6,M,,0000*47
$GNGSA,A,3,32,29,26,28,10,16,31,40,,,,,1.59,0.79,1.38*11
$GNGSA,A,3,69,68,81,82,,,,,,,,,1.59,0.79,1.38*17
$GPGSV,4,1,16,10,21,350,10,16,25,258,24,18,30,065,19,23,06,028,*7B
$GPGSV,4,2,16,25,04,135,10,26,30,225,19,27,31,321,18,28,40,167,34*70
$GPGSV,4,3,16,29,26,145,33,31,24,197,26,32,74,350,38,36,52,277,*76
$GPGSV,4,4,16,40,84,353,35,41,58,082,42,49,32,274,,50,10,089,*79
$GLGSV,2,1,08,68,32,359,13,69,58,289,28,70,14,222,,79,13,157,21*6B
$GLGSV,2,2,08,80,14,209,,81,26,122,35,82,46,064,28,83,24,003,*6F
$GNGLL,0420.00174,S,05539.79714,E,110006.00,A,D*6B
$GNRMC,110007.00,A,0420.00174,S,05539.79709,E,0.108,,020625,,,D*75
$GNVTG,,T,,M,0.108,N,0.200,K,D*33
$GNGGA,110007.00,0420.00174,S,05539.79709,E,2,12,0.90,20.8,M,-47.6,M,,0000*4D
$GNGSA,A,3,32,29,26,28,10,16,31,40,,,,,1.89,0.90,1.66*10
$GNGSA,A,3,69,68,81,82,,,,,,,,,1.89,0.90,1.66*16
$GPGSV,4,1,16,10,21,350,10,16,25,258,23,18,30,065,16,23,06,028,*73
$GPGSV,4,2,16,25,04,135,09,26,30,225,21,27,31,321,19,28,40,167,35*73
$GPGSV,4,3,16,29,26,145,33,31,24,197,27,32,74,350,38,36,52,277,*77
$GPGSV,4,4,16,40,84,353,34,41,58,082,43,49,32,274,,50,10,089,*79
$GLGSV,2,1,08,68,32,359,10,69,58,289,28,70,14,222,,79,13,157,20*69
$GLGSV,2,2,08,80,14,209,,81,26,122,35,82,46,064,28,83,24,003,*6F
$GNGLL,0420.00174,S,05539.79709,E,110007.00,A,D*66
$GNRMC,110008.00,A,0420.00176,S,05539.79707,E,0.056,,020625,,,D*7C
$GNVTG,,T,,M,0.056,N,0.103,K,D*39
$GNGGA,110008.00,0420.00176,S,05539.79707,E,2,12,0.79,20.9,M,-47.6,M,,0000*48
$GNGSA,A,3,32,29,26,28,10,16,31,40,,,,,1.59,0.79,1.38*11
$GNGSA,A,3,69,68,81,82,,,,,,,,,1.59,0.79,1.38*17
$GPGSV,4,1,16,10,21,350,09,16,25,258,24,18,30,065,16,23,06,028,*7C
$GPGSV,4,2,16,25,04,135,11,26,30,225,20,27,31,321,19,28,40,167,34*7A
$GPGSV,4,3,16,29,26,145,33,31,24,197,27,32,74,350,35,36,52,277,*7A
$GPGSV,4,4,16,40,84,353,36,41,58,082,42,49,32,274,,50,10,089,*7A
$GLGSV,2,1,08,68,32,359,10,69,57,290,29,70,14,222,,79,13,157,21*6E
$GLGSV,2,2,08,80,14,209,,81,26,122,35,82,47,065,28,83,24,003,*6F
$GNGLL,0420.00176,S,05539.79707,E,110008.00,A,D*65
$GNRMC,110009.00,A,0420.00178,S,05539.79703,E,0.114,,020625,,,D*70
$GNVTG,,T,,M,0.114,N,0.211,K,D*3E
$GNGGA,110009.00,0420.00178,S,05539.79703,E,2,12,0.79,20.9,M,-47.6,M,,0000*43
$GNGSA,A,3,32,29,26,28,10,18,16,31,40,,,,1.59,0.79,1.38*18
$GNGSA,A,3,69,68,81,82,,,,,,,,,1.59,0.79,1.38*17
$GPGSV,4,1,16,10,21,350,10,16,25,258,23,18,30,065,16,23,06,028,*73
$GPGSV,4,2,16,25,04,135,12,26,30,225,20,27,31,321,18,28,40,167,34*78
$GPGSV,4,3,16,29,26,145,34,31,24,197,27,32,74,350,36,36,52,277,*7E
$GPGSV,4,4,16,40,84,353,35,41,58,082,43,49,32,274,,50,10,089,*78
$GLGSV,2,1,08,68,32,359,14,69,57,290,29,70,14,222,,79,13,157,21*6A
$GLGSV,2,2,08,80,14,209,,81,26,122,34,82,47,065,28,83,24,003,*6E
$GNGLL,0420.00178,S,05539.79703,E,110009.00,A,D*6E
$GNRMC,110010.00,A,0420.00179,S,05539.79703,E,0.062,,020625,,,D*79
$GNVTG,,T,,M,0.062,N,0.114,K,D*38
$GNGGA,110010.00,0420.00179,S,05539.79703,E,2,12,0.90,20.9,M,-47.6,M,,0000*4D
$GNGSA,A,3,32,29,26,28,10,18,16,31,40,,,,1.89,0.90,1.66*19
$GNGSA,A,3,69,68,81,82,,,,,,,,,1.89,0.90,1.66*16
$GPGSV,4,1,16,10,21,350,09,16,25,258,22,18,30,065,14,23,06,028,*78
$GPGSV,4,2,16,25,04,135,06,26,30,225,19,27,31,321,17,28,40,167,34*78
$GPGSV,4,3,16,29,26,145,33,31,24,197,27,32,74,350,36,36,52,277,*79
$GPGSV,4,4,16,40,84,353,35,41,58,082,41,49,32,274,,50,10,089,*7A
$GLGSV,2,1,08,68,32,359,08,69,57,290,31,70,14,222,,79,13,157,20*6F
$GLGSV,2,2,08,80,14,209,,81,26,122,35,82,47,065,29,83,24,003,*6E
$GNGLL,0420.00179,S,05539.79703,E,110010.00,A,D*67
$GNRMC,110011.00,A,0420.00182,S,05539.79701,E,0.086,,020625,,,D*74
$GNVTG,,T,,M,0.086,N,0.160,K,D*31
$GNGGA,110011.00,0420.00182,S,05539.79701,E,2,12,0.79,20.9,M,-47.6,M,,0000*4D
$GNGSA,A,3,32,29,26,28,10,16,31,40,,,,,1.59,0.79,1.38*11
$GNGSA,A,3,69,68,81,82,,,,,,,,,1.59,0.79,1.38*17
$GPGSV,4,1,16,10,21,350,12,16,25,258,23,18,30,065,,23,06,028,*76
$GPGSV,4,2,16,25,04,135,11,26,30,225,18,27,31,321,17,28,40,167,34*7F
$GPGSV,4,3,16,29,26,145,36,31,24,197,27,32,74,350,38,36,52,277,*72
$GPGSV,4,4,16,40,84,353,37,41,58,082,43,49,32,274,,50,10,089,*7A
$GLGSV,2,1,08,68,32,359,16,69,57,290,30,70,14,222,,79,13,157,20*61
$GLGSV,2,2,08,80,14,209,,81,26,122,35,82,47,065,28,83,24,003,*6F
$GNGLL,0420.00182,S,05539.79701,E,110011.00,A,D*60
$GNRMC,110012.00,A,0420.00184,S,05539.79702,E,0.032,,020625,,,D*7D
$GNVTG,,T,,M,0.032,N,0.059,K,D*35
$GNGGA,110012.00,0420.00184,S,05539.79702,E,2,12,0.79,21.0,M,-47.6,M,,0000*43
$GNGSA,A,3,32,29,26,28,10,16,31,40,,,,,1.59,0.79,1.38*11
$GNGSA,A,3,69,68,81,82,,,,,,,,,1.59,0.79,1.38*17
$GPGSV,4,1,16,10,21,350,09,16,25,258,23,18,30,065,17,23,06,028,*7A
$GPGSV,4,2,16,25,04,135,05,26,30,225,17,27,31,321,18,28,40,167,34*7A
$GPGSV,4,3,16,29,26,145,33,31,24,197,28,32,74,350,39,36,52,277,*79
$GPGSV,4,4,16,40,84,353,36,41,58,082,41,49,32,274,,50,10,089,*79
$GLGSV,2,1,08,68,32,359,10,69,57,290,30,70,14,222,,79,13,157,20*67
$GLGSV,2,2,08,80,14,209,,81,26,122,34,82,47,065,28,83,24,003,*6E
$GNGLL,0420.00184,S,05539.79702,E,110012.00,A,D*66
$GNRMC,110013.00,A,0420.00190,S,05539.79703,E,0.091,,020625,,,D*71
$GNVTG,,T,,M,0.091,N,0.168,K,D*3F
$GNGGA,110013.00,0420.00190,S,05539.79703,E,2,12,0.90,21.2,M,-47.6,M,,0000*43
$GNGSA,A,3,32,29,26,28,10,16,31,40,,,,,1.89,0.90,1.66*10
$GNGSA,A,3,69,68,81,82,,,,,,,,,1.89,0.90,1.66*16
$GPGSV,4,1,16,10,21,350,09,16,25,258,24,18,30,065,19,23,06,028,*73
$GPGSV,4,2,16,25,04,135,11,26,30,225,16,27,31,321,18,28,40,167,34*7E
$GPGSV,4,3,16,29,26,145,32,31,24,197,27,32,74,350,38,36,52,277,*76
$GPGSV,4,4,16,40,84,353,36,41,58,082,41,49,32,274,,50,10,089,*79
$GLGSV,2,1,08,68,32,359,14,69,57,290,30,70,14,222,,79,13,157,20*63
$GLGSV,2,2,08,80,14,209,,81,26,122,34,82,47,065,28,83,24,003,*6E
$GNGLL,0420.00190,S,05539.79703,E,110013.00,A,D*63
$GNRMC,110014.00,A,0420.00195,S,05539.79705,E,0.027,,020625,,,D*78
$GNVTG,,T,,M,0.027,N,0.050,K,D*38
$GNGGA,110014.00,0420.00195,S,05539.79705,E,2,12,0.79,21.5,M,-47.6,M,,0000*47
$GNGSA,A,3,32,29,26,28,10,16,31,40,,,,,1.59,0.79,1.38*11
$GNGSA,A,3,69,68,81,82,,,,,,,,,1.59,0.79,1.38*17
$GPGSV,4,1,16,10,21,350,08,16,25,258,22,18,30,065,19,23,06,028,*74
$GPGSV,4,2,16,25,04,135,11,26,30,225,17,27,31,321,18,28,40,167,33*78
$GPGSV,4,3,16,29,26,145,32,31,24,197,27,32,74,350,38,36,52,277,*76
$GPGSV,4,4,16,40,84,353,35,41,58,082,41,49,32,274,,50,10,089,*7A
$GLGSV,2,1,08,68,32,359,11,69,57,290,29,70,14,222,,79,13,157,20*6E
$GLGSV,2,2,08,80,14,209,,81,26,122,33,82,47,065,28,83,24,003,*69
$GNGLL,0420.00195,S,05539.79705,E,110014.00,A,D*67
$GNRMC,110015.00,A,0420.00199,S,05539.79708,E,0.071,,020625,,,D*7B
$GNVTG,,T,,M,0.071,N,0.131,K,D*3D
$GNGGA,110015.00,0420.00199,S,05539.79708,E,2,12,0.79,21.7,M,-47.6,M,,0000*45
$GNGSA,A,3,32,29,26,28,10,16,31,40,,,,,1.59,0.79,1.38*11
$GNGSA,A,3,69,68,81,82,,,,,,,,,1.59,0.79,1.38*17
$GPGSV,4,1,16,10,21,350,09,16,25,258,22,18,30,065,17,23,06,028,*7B
$GPGSV,4,2,16,25,04,135,12,26,30,225,17,27,31,321,18,28,40,167,34*7C
$GPGSV,4,3,16,29,26,145,34,31,24,197,26,32,74,350,38,36,52,277,*71
$GPGSV,4,4,16,40,84,353,35,41,58,082,42,49,32,274,,50,10,089,*79
$GLGSV,2,1,08,68,32,359,09,69,57,290,30,70,14,222,,79,13,157,20*6F
$GLGSV,2,2,08,80,14,209,,81,26,122,34,82,47,065,27,83,24,003,*61
$GNGLL,0420.00199,S,05539.79708,E,110015.00,A,D*67
$GNRMC,110016.00,A,0420.00205,S,05539.79709,E,0.049,,020625,,,D*74
$GNVTG,,T,,M,0.049,N,0.090,K,D*3C
$GNGGA,110016.00,0420.00205,S,05539.79709,E,2,12,0.83,22.0,M,-47.6,M,,0000*40
$GNGSA,A,3,32,29,26,28,10,18,16,31,40,,,,1.78,0.83,1.57*17
$GNGSA,A,3,69,68,81,82,,,,,,,,,1.78,0.83,1.57*18
$GPGSV,4,1,16,10,21,350,12,16,25,258,21,18,30,065,19,23,06,028,*7C
$GPGSV,4,2,16,25,04,135,11,26,30,225,18,27,31,321,20,28,40,167,35*7A
$GPGSV,4,3,16,29,26,145,36,31,24,197,27,32,74,350,39,36,52,277,*73
$GPGSV,4,4,16,40,84,353,37,41,58,082,43,49,32,274,,50,10,089,*7A
$GLGSV,2,1,08,68,32,359,11,69,57,290,30,70,14,222,,79,13,157,20*66
$GLGSV,2,2,08,80,14,209,,81,26,122,33,82,47,065,27,83,24,003,*66
$GNGLL,0420.00205,S,05539.79709,E,110016.00,A,D*63
$GNRMC,110017.00,A,0420.00213,S,05539.79709,E,0.084,,020625,,,D*73
$GNVTG,,T,,M,0.084,N,0.156,K,D*36
$GNGGA,110017.00,0420.00213,S,05539.79709,E,2,12,0.73,22.4,M,-47.6,M,,0000*4D
$GNGSA,A,3,32,29,26,28,10,18,16,31,40,,,,1.54,0.73,1.36*11
$GNGSA,A,3,69,68,81,82,,,,,,,,,1.54,0.73,1.36*1E
$GPGSV,4,1,16,10,21,350,11,16,25,258,21,18,30,065,20,23,06,028,*75
$GPGSV,4,2,16,25,04,135,11,26,30,225,15,27,31,321,21,28,40,167,35*76
$GPGSV,4,3,16,29,26,145,34,31,24,197,27,32,74,350,38,36,52,277,*70
$GPGSV,4,4,16,40,84,353,36,41,58,082,43,49,32,274,,50,10,089,*7B
$GLGSV,2,1,08,68,32,359,14,69,57,290,29,70,14,222,,79,13,157,20*6B
$GLGSV,2,2,08,80,14,209,,81,26,122,33,82,47,065,27,83,24,003,*66
$GNGLL,0420.00213,S,05539.79709,E,110017.00,A,D*65
$GNRMC,110018.00,A,0420.00218,S,05539.79709,E,0.073,,020625,,,D*7F
$GNVTG,,T,,M,0.073,N,0.136,K,D*38
$GNGGA,110018.00,0420.00218,S,05539.79709,E,2,12,0.78,22.5,M,-47.6,M,,0000*43
$GNGSA,A,3,32,29,28,10,18,16,31,40,,,,,1.57,0.78,1.36*1D
$GNGSA,A,3,69,68,81,82,,,,,,,,,1.57,0.78,1.36*16
$GPGSV,4,1,16,10,21,350,10,16,25,258,21,18,30,065,20,23,06,028,*74
$GPGSV,4,2,16,25,04,135,11,26,30,225,11,27,31,321,20,28,40,167,34*72
$GPGSV,4,3,16,29,26,145,34,31,24,197,27,32,74,350,38,36,52,277,*70
$GPGSV,4,4,16,40,84,353,35,41,58,082,42,49,32,274,,50,10,089,*79
$GLGSV,2,1,08,68,32,359,09,69,57,290,30,70,14,222,,79,13,157,21*6E
$GLGSV,2,2,08,80,14,209,,81,26,122,33,82,47,065,27,83,24,003,*66
$GNGLL,0420.00218,S,05539.79709,E,110018.00,A,D*61
$GNRMC,110019.00,A,0420.00225,S,05539.79711,E,0.099,,020625,,,D*7D
$GNVTG,,T,,M,0.099,N,0.184,K,D*35
$GNGGA,110019.00,0420.00225,S,05539.79711,E,2,12,0.78,22.8,M,-47.6,M,,0000*48
$GNGSA,A,3,32,29,28,10,18,16,31,40,,,,,1.57,0.78,1.36*1D
$GNGSA,A,3,69,68,81,82,,,,,,,,,1.57,0.78,1.36*16
$GPGSV,4,1,16,10,21,350,11,16,25,258,21,18,30,065,19,23,06,028,*7F
$GPGSV,4,2,16,25,04,135,08,26,30,225,11,27,31,321,21,28,40,167,36*79
$GPGSV,4,3,16,29,26,145,35,31,24,197,27,32,74,350,38,36,52,277,*71
$GPGSV,4,4,16,40,84,353,36,41,58,082,43,49,32,274,,50,10,089,*7B
$GLGSV,2,1,08,68,32,359,13,69,57,290,30,70,14,222,,79,13,157,19*6E
$GLGSV,2,2,08,80,14,209,,81,26,122,33,82,47,065,27,83,24,003,*66
$GNGLL,0420.00225,S,05539.79711,E,110019.00,A,D*67
$GNRMC,110020.00,A,0420.00230,S,05539.79712,E,0.096,,020625,,,D*7F
$GNVTG,,T,,M,0.096,N,0.178,K,D*39
$GNGGA,110020.00,0420.00230,S,05539.79712,E,2,12,0.78,23.0,M,-47.6,M,,0000*4C
$GNGSA,A,3,32,29,28,10,18,16,31,40,,,,,1.57,0.78,1.36*1D
$GNGSA,A,3,69,68,81,82,,,,,,,,,1.57,0.78,1.36*16
$GPGSV,4,1,16,10,21,350,10,16,25,258,22,18,30,065,21,23,06,028,*76
$GPGSV,4,2,16,25,04,135,13,26,30,225,,27,31,321,21,28,40,167,35*70
$GPGSV,4,3,16,29,26,145,35,31,24,197,29,32,74,350,37,36,52,277,*70
$GPGSV,4,4,16,40,84,353,36,41,58,082,43,49,32,274,,50,10,089,*7B
$GLGSV,2,1,08,68,32,359,07,69,57,290,30,70,14,222,,79,13,157,20*61
$GLGSV,2,2,08,80,14,209,,81,26,122,34,82,47,065,27,83,24,003,*61
$GNGLL,0420.00230,S,05539.79712,E,110020.00,A,D*6A
$GNRMC,110021.00,A,0420.00233,S,05539.79712,E,0.116,,020625,,,D*74
$GNVTG,,T,,M,0.116,N,0.216,K,D*3B
$GNGGA,110021.00,0420.00233,S,05539.79712,E,2,12,0.78,23.0,M,-47.6,M,,0000*4E
$GNGSA,A,3,32,29,28,10,18,16,31,40,,,,,1.57,0.78,1.36*1D
$GNGSA,A,3,69,68,81,82,,,,,,,,,1.57,0.78,1.36*16
$GPGSV,4,1,16,10,21,350,12,16,25,258,21,18,30,065,20,23,06,028,*76
$GPGSV,4,2,16,25,04,135,14,26,30,225,,27,31,321,21,28,40,167,34*76
$GPGSV,4,3,16,29,26,145,34,31,24,197,28,32,74,350,37,36,52,277,*70
$GPGSV,4,4,16,40,84,353,35,41,58,082,42,49,32,274,,50,10,089,*79
$GLGSV,2,1,08,68,32,359,13,69,57,290,29,70,14,222,,79,13,157,20*6C
$GLGSV,2,2,08,80,14,209,,81,26,122,33,82,47,065,27,83,24,003,*66
$GNGLL,0420.00233,S,05539.79712,E,110021.00,A,D*68
$GNRMC,110022.00,A,0420.00237,S,05539.79710,E,0.031,,020625,,,D*75
$GNVTG,,T,,M,0.031,N,0.057,K,D*38
$GNGGA,110022.00,0420.00237,S,05539.79710,E,2,12,0.82,23.1,M,-47.6,M,,0000*4F
$GNGSA,A,3,32,29,28,10,18,16,31,40,,,,,1.62,0.82,1.40*1F
$GNGSA,A,3,69,68,81,82,,,,,,,,,1.62,0.82,1.40*14
$GPGSV,4,1,16,10,21,350,09,16,25,258,20,18,30,065,21,23,06,028,*7C
$GPGSV,4,2,16,25,04,135,08,26,30,225,,27,31,321,20,28,40,167,34*7A
$GPGSV,4,3,16,29,26,145,33,31,24,197,28,32,74,350,37,36,52,277,*77
$GPGSV,4,4,16,40,84,353,35,41,58,082,42,49,32,274,,50,10,089,*79
$GLGSV,2,1,08,68,32,359,11,69,57,290,29,70,14,222,,79,13,157,19*64
$GLGSV,2,2,08,80,14,209,,81,26,122,34,82,47,065,27,83,24,003,*61
$GNGLL,0420.00237,S,05539.79710,E,110022.00,A,D*6D
$GNRMC,110023.00,A,0420.00240,S,05539.79710,E,0.058,,020625,,,D*7B
$GNVTG,,T,,M,0.058,N,0.108,K,D*3C
$GNGGA,110023.00,0420.00240,S,05539.79710,E,2,11,0.82,23.2,M,-47.6,M,,0000*4E
$GNGSA,A,3,32,29,28,10,18,16,31,40,,,,,1.62,0.82,1.40*1F
$GNGSA,A,3,69,81,82,,,,,,,,,,1.62,0.82,1.40*1A
$GPGSV,4,1,16,10,21,350,10,16,25,258,19,18,30,065,20,23,06,028,*7F
$GPGSV,4,2,16,25,04,135,14,26,30,225,21,27,31,321,19,28,40,167,34*7E
$GPGSV,4,3,16,29,26,145,34,31,24,197,28,32,74,350,36,36,52,277,*71
$GPGSV,4,4,16,40,84,353,36,41,58,082,41,49,32,274,,50,10,089,*79
$GLGSV,2,1,08,68,31,359,06,69,57,290,28,70,14,222,,79,13,157,18*61
$GLGSV,2,2,08,80,14,209,,81,26,122,35,82,47,065,28,83,24,003,*6F
$GNGLL,0420.00240,S,05539.79710,E,110023.00,A,D*6C
$GNRMC,110024.00,A,0420.00245,S,05539.79710,E,0.090,,020625,,,D*7D
$GNVTG,,T,,M,0.090,N,0.167,K,D*31
$GNGGA,110024.00,0420.00245,S,05539.79710,E,2,12,0.78,23.4,M,-47.6,M,,0000*4C
$GNGSA,A,3,32,29,28,10,18,16,31,40,,,,,1.57,0.78,1.36*1D
$GNGSA,A,3,69,68,81,82,,,,,,,,,1.57,0.78,1.36*16
$GPGSV,4,1,16,10,21,350,09,16,25,258,18,18,30,065,20,23,06,028,*76
$GPGSV,4,2,16,25,04,135,10,26,30,225,18,27,31,321,19,28,40,167,34*70
$GPGSV,4,3,16,29,26,145,33,31,24,197,28,32,74,350,37,36,52,277,*77
$GPGSV,4,4,16,40,84,353,36,41,58,082,41,49,32,274,,50,10,089,*79
$GLGSV,2,1,08,68,31,359,11,69,57,290,28,70,14,222,,79,13,157,17*68
$GLGSV,2,2,08,80,14,209,,81,26,122,34,82,47,065,28,83,24,003,*6E
$GNGLL,0420.00245,S,05539.79710,E,110024.00,A,D*6E
$GNRMC,110025.00,A,0420.00248,S,05539.79709,E,0.062,,020625,,,D*74
$GNVTG,,T,,M,0.062,N,0.114,K,D*38
$GNGGA,110025.00,0420.00248,S,05539.79709,E,2,11,1.48,23.5,M,-47.6,M,,0000*48
$GNGSA,A,3,32,29,28,10,18,31,40,,,,,,3.11,1.48,2.73*1A
$GNGSA,A,3,69,68,81,82,,,,,,,,,3.11,1.48,2.73*16
$GPGSV,4,1,16,10,21,350,08,16,25,258,,18,30,065,20,23,06,028,15*7A
$GPGSV,4,2,16,25,04,135,13,26,30,225,15,27,31,321,18,28,40,167,33*78
$GPGSV,4,3,16,29,26,145,33,31,24,197,28,32,74,350,36,36,52,277,*76
$GPGSV,4,4,16,40,84,353,36,41,58,082,42,49,32,274,,50,10,089,*7A
$GLGSV,2,1,08,68,31,359,11,69,57,290,28,70,14,222,,79,13,157,15*6A
$GLGSV,2,2,08,80,14,209,,81,26,122,34,82,47,065,27,83,24,003,*61
$GNGLL,0420.00248,S,05539.79709,E,110025.00,A,D*6A
$GNRMC,110026.00,A,0420.00249,S,05539.79710,E,0.049,,020625,,,D*77
$GNVTG,,T,,M,0.049,N,0.090,K,D*3C
$GNGGA,110026.00,0420.00249,S,05539.79710,E,2,10,1.05,23.8,M,-47.6,M,,0000*47
$GNGSA,A,3,32,29,28,18,31,40,,,,,,,2.13,1.05,1.85*1B
$GNGSA,A,3,69,68,81,82,,,,,,,,,2.13,1.05,1.85*16
$GPGSV,4,1,16,10,21,350,06,16,25,258,,18,30,065,21,23,06,028,14*74
$GPGSV,4,2,16,25,04,135,12,26,30,225,12,27,31,321,19,28,40,167,33*7F
$GPGSV,4,3,16,29,26,145,33,31,24,197,28,32,74,350,36,36,52,277,*76
$GPGSV,4,4,16,40,84,353,36,41,58,082,42,49,32,274,,50,10,089,*7A
$GLGSV,2,1,08,68,31,359,10,69,57,290,28,70,14,222,,79,13,157,13*6D
$GLGSV,2,2,08,80,14,209,,81,26,122,33,82,47,065,28,83,24,003,*69
$GNGLL,0420.00249,S,05539.79710,E,110026.00,A,D*60
$GNRMC,110027.00,A,0420.00253,S,05539.79707,E,0.119,,020625,,,D*7F
$GNVTG,,T,,M,0.119,N,0.220,K,D*31
$GNGGA,110027.00,0420.00253,S,05539.79707,E,2,12,0.81,23.9,M,-47.6,M,,0000*45
$GNGSA,A,3,32,29,26,28,10,18,31,40,,,,,1.63,0.81,1.42*1C
$GNGSA,A,3,69,68,81,82,,,,,,,,,1.63,0.81,1.42*14
$GPGSV,4,1,16,10,21,350,13,16,25,258,,18,30,065,21,23,06,028,13*77
$GPGSV,4,2,16,25,04,135,08,26,30,225,14,27,31,321,20,28,40,167,33*78
$GPGSV,4,3,16,29,26,145,33,31,24,197,27,32,74,350,36,36,52,277,*79
$GPGSV,4,4,16,40,84,353,36,41,58,082,41,49,32,274,,50,10,089,*79
$GLGSV,2,1,08,68,31,359,10,69,57,290,28,70,14,222,,79,13,157,13*6D
$GLGSV,2,2,08,80,14,209,,81,26,122,33,82,47,065,28,83,24,003,*69
$GNGLL,0420.00253,S,05539.79707,E,110027.00,A,D*6C
$GNRMC,110028.00,A,0420.00259,S,05539.79705,E,0.111,,020625,,,D*70
$GNVTG,,T,,M,0.111,N,0.205,K,D*3E
$GNGGA,110028.00,0420.00259,S,05539.79705,E,2,11,1.30,24.0,M,-47.6,M,,0000*44
$GNGSA,A,3,32,29,26,28,18,31,40,,,,,,2.73,1.30,2.40*15
$GNGSA,A,3,69,68,81,82,,,,,,,,,2.73,1.30,2.40*1C
$GPGSV,4,1,16,10,21,350,05,16,25,258,,18,30,065,22,23,06,028,11*71
$GPGSV,4,2,16,25,04,135,12,26,30,225,11,27,31,321,19,28,40,167,32*7D
$GPGSV,4,3,16,29,26,145,32,31,24,197,27,32,74,350,33,36,52,277,*7D
$GPGSV,4,4,16,40,84,353,33,41,58,082,40,49,32,274,,50,10,089,*7D
$GLGSV,2,1,08,68,31,359,14,69,57,290,28,70,14,222,,79,13,157,16*6C
$GLGSV,2,2,08,80,14,209,,81,26,122,35,82,47,065,27,83,24,003,*60
$GNGLL,0420.00259,S,05539.79705,E,110028.00,A,D*6B
$GNRMC,110029.00,A,0420.00264,S,05539.79704,E,0.144,,020625,,,D*7E
$GNVTG,,T,,M,0.144,N,0.266,K,D*3B
$GNGGA,110029.00,0420.00264,S,05539.79704,E,2,12,0.81,24.2,M,-47.6,M,,0000*40
$GNGSA,A,3,32,29,26,28,10,18,31,40,,,,,1.63,0.81,1.42*1C
$GNGSA,A,3,69,68,81,82,,,,,,,,,1.63,0.81,1.42*14
$GPGSV,4,1,16,10,21,350,09,16,25,258,,18,30,065,22,23,06,028,*7D
$GPGSV,4,2,16,25,04,135,06,26,30,225,12,27,31,321,19,28,40,167,32*7B
$GPGSV,4,3,16,29,26,145,32,31,24,197,26,32,74,350,37,36,52,277,*78
$GPGSV,4,4,16,40,84,353,36,41,58,082,43,49,32,274,,50,10,089,*7B
$GLGSV,2,1,08,68,31,359,10,69,57,290,28,70,14,222,,79,13,157,15*6B
$GLGSV,2,2,08,80,14,209,,81,26,122,34,82,47,065,26,83,24,003,*60
$GNGLL,0420.00264,S,05539.79704,E,110029.00,A,D*65
$GNRMC,110030.00,A,0420.00267,S,05539.79703,E,0.007,,020625,,,D*74
$GNVTG,,T,,M,0.007,N,0.014,K,D*3A
$GNGGA,110030.00,0420.00267,S,05539.79703,E,2,12,0.92,24.4,M,-47.6,M,,0000*48
$GNGSA,A,3,32,29,26,28,10,18,31,40,,,,,1.73,0.92,1.46*1B
$GNGSA,A,3,69,68,81,82,,,,,,,,,1.73,0.92,1.46*13
$GPGSV,4,1,16,10,21,350,12,16,25,258,,18,30,065,21,23,06,028,*74
$GPGSV,4,2,16,25,04,135,09,26,30,225,14,27,31,321,20,28,40,167,33*79
$GPGSV,4,3,16,29,26,145,32,31,24,197,26,32,74,350,37,36,52,277,*78
$GPGSV,4,4,16,40,84,353,36,41,58,082,43,49,32,274,,50,10,089,*7B
$GLGSV,2,1,08,68,31,359,09,69,57,290,28,70,14,222,,79,13,157,15*63
$GLGSV,2,2,08,80,14,209,,81,26,122,34,82,47,065,26,83,24,003,*60
$GNGLL,0420.00267,S,05539.79703,E,110030.00,A,D*69
$GNRMC,110031.00,A,0420.00269,S,05539.79698,E,0.065,,020625,,,D*7C
$GNVTG,,T,,M,0.065,N,0.121,K,D*39
$GNGGA,110031.00,0420.00269,S,05539.79698,E,2,12,0.93,24.4,M,-47.6,M,,0000*45
$GNGSA,A,3,32,29,26,28,10,18,31,40,,,,,1.98,0.93,1.74*1E
$GNGSA,A,3,69,68,81,82,,,,,,,,,1.98,0.93,1.74*16
$GPGSV,4,1,16,10,21,350,11,16,25,258,,18,30,065,20,23,06,028,*76
$GPGSV,4,2,16,25,04,135,09,26,30,225,15,27,31,321,18,28,40,167,33*73
$GPGSV,4,3,16,29,26,145,32,31,24,197,28,32,74,350,35,36,52,277,*74
$GPGSV,4,4,16,40,84,353,35,41,58,082,41,49,32,274,,50,10,089,*7A
$GLGSV,2,1,08,68,31,359,10,69,57,290,28,70,14,222,,79,13,157,13*6D
$GLGSV,2,2,08,80,14,209,,81,26,122,34,82,47,065,26,83,24,003,*60
$GNGLL,0420.00269,S,05539.79698,E,110031.00,A,D*65
$GNRMC,110032.00,A,0420.00272,S,05539.79696,E,0.004,,020625,,,D*7C
$GNVTG,,T,,M,0.004,N,0.007,K,D*3B
$GNGGA,110032.00,0420.00272,S,05539.79696,E,2,11,0.93,24.6,M,-47.6,M,,0000*43
$GNGSA,A,3,32,29,26,28,18,31,40,,,,,,1.98,0.93,1.74*1F
$GNGSA,A,3,69,68,81,82,,,,,,,,,1.98,0.93,1.74*16
$GPGSV,4,1,16,10,21,350,07,16,25,258,,18,30,065,19,23,06,028,*7B
$GPGSV,4,2,16,25,04,135,12,26,30,225,16,27,31,321,17,28,40,167,33*75
$GPGSV,4,3,16,29,26,145,32,31,24,197,27,32,74,350,36,36,52,277,*78
$GPGSV,4,4,16,40,84,353,34,41,58,082,42,49,32,274,,50,10,089,*78
$GLGSV,2,1,08,68,31,359,08,69,57,290,27,70,14,222,,79,13,157,12*6A
$GLGSV,2,2,08,80,14,209,,81,26,122,34,82,47,065,26,83,24,003,*60
$GNGLL,0420.00272,S,05539.79696,E,110032.00,A,D*62
$GNRMC,110033.00,A,0420.00274,S,05539.79692,E,0.054,,020625,,,D*7A
$GNVTG,,T,,M,0.054,N,0.101,K,D*39
$GNGGA,110033.00,0420.00274,S,05539.79692,E,2,12,0.81,24.6,M,-47.6,M,,0000*40
$GNGSA,A,3,32,29,26,28,10,18,31,40,,,,,1.63,0.81,1.42*1C
$GNGSA,A,3,69,68,81,82,,,,,,,,,1.63,0.81,1.42*14
$GPGSV,4,1,16,10,21,350,08,16,25,258,,18,30,065,20,23,06,028,*7E
$GPGSV,4,2,16,25,04,135,10,26,30,225,15,27,31,321,16,28,40,167,33*75
$GPGSV,4,3,16,29,26,145,32,31,24,197,27,32,74,350,35,36,52,277,*7B
$GPGSV,4,4,16,40,84,353,35,41,58,082,42,49,32,274,,50,10,089,*79
$GLGSV,2,1,08,68,31,359,10,69,57,290,27,70,14,222,,79,13,157,09*69
$GLGSV,2,2,08,80,14,209,,81,26,122,33,82,47,065,26,83,24,003,*67
$GNGLL,0420.00274,S,05539.79692,E,110033.00,A,D*61
$GNRMC,110034.00,A,0420.00278,S,05539.79688,E,0.085,,020625,,,D*76
$GNVTG,,T,,M,0.085,N,0.157,K,D*36
$GNGGA,110034.00,0420.00278,S,05539.79688,E,2,11,1.30,24.8,M,-47.6,M,,0000*46
$GNGSA,A,3,32,29,26,28,18,31,40,,,,,,2.73,1.30,2.40*15
$GNGSA,A,3,69,68,81,82,,,,,,,,,2.73,1.30,2.40*1C
$GPGSV,4,1,16,10,21,350,06,16,25,258,,18,30,065,20,23,06,028,*70
$GPGSV,4,2,16,25,04,135,14,26,30,225,13,27,31,321,15,28,40,167,33*74
