$GNRMC,121342.00,A,0419.92388,S,05539.73807,E,0.581,,260525,,,A*7B
$GNVTG,,T,,M,0.581,N,1.076,K,A*31
$GNGGA,121342.00,0419.92388,S,05539.73807,E,1,11,0.96,51.8,M,-47.6,M,,*46
$GNRMC,121347.00,A,0419.92422,S,05539.73813,E,0.127,,260525,,,A*74
$GNVTG,,T,,M,0.127,N,0.235,K,A*3D
$GNGGA,121347.00,0419.92422,S,05539.73813,E,1,11,0.96,51.4,M,-47.6,M,,*4D
$GNGSA,A,3,28,32,27,31,18,10,08,,,,,,1.84,0.96,1.58*1E
$GNGSA,A,3,83,84,70,69,,,,,,,,,1.84,0.96,1.58*1D
$GPGSV,4,1,16,08,11,315,28,10,15,007,33,16,24,236,,18,33,091,21*78
$GPGSV,4,2,16,23,01,045,,26,28,205,,27,47,303,33,28,52,143,18*74
$GPGSV,4,3,16,29,09,148,,31,38,182,20,32,52,001,46,36,52,277,*73
$GPGSV,4,4,16,40,84,353,,41,58,082,,49,32,274,,50,10,089,*79
$GLGSV,3,1,10,69,09,009,26,70,42,306,27,71,30,248,,73,16,189,*64
$GLGSV,3,2,10,74,01,229,,80,13,135,,82,10,144,,83,49,107,27*6C
$GLGSV,3,3,10,84,43,015,25,85,04,343,23*60
$GNGLL,0419.92422,S,05539.73813,E,121347.00,A,A*6F
$GNRMC,121348.00,A,0419.92425,S,05539.73816,E,0.052,,260525,,,A*7A
$GNVTG,,T,,M,0.052,N,0.097,K,A*34
$GNGGA,121348.00,0419.92425,S,05539.73816,E,1,11,0.98,51.4,M,-47.6,M,,*4E
$GNGSA,A,3,28,32,27,31,18,10,08,,,,,,1.86,0.98,1.58*12
$GNGSA,A,3,83,84,70,69,,,,,,,,,1.86,0.98,1.58*11
$GPGSV,4,1,16,08,11,315,28,10,15,007,32,16,24,236,,18,33,091,20*78
$GPGSV,4,2,16,23,01,045,,26,28,205,,27,47,303,33,28,52,143,18*74
$GPGSV,4,3,16,29,09,148,,31,38,182,20,32,52,001,44,36,52,277,*71
$GPGSV,4,4,16,40,84,353,,41,58,082,,49,32,274,,50,10,089,*79
$GLGSV,3,1,10,69,09,009,27,70,42,306,27,71,30,248,,73,16,189,*65
$GLGSV,3,2,10,74,01,229,,80,13,135,,82,10,144,,83,49,107,27*6C
$GLGSV,3,3,10,84,43,015,26,85,04,343,25*65
$GNGLL,0419.92425,S,05539.73816,E,121348.00,A,A*62
$GNRMC,121356.00,A,0419.92431,S,05539.73846,E,0.170,,260525,,,A*74
$GNVTG,,T,,M,0.170,N,0.314,K,A*3D
$GNGGA,121356.00,0419.92431,S,05539.73846,E,1,10,0.98,51.0,M,-47.6,M,,*44
$GNGSA,A,3,32,27,31,18,10,08,,,,,,,1.86,0.98,1.58*18
$GNGSA,A,3,83,84,70,69,,,,,,,,,1.86,0.98,1.58*11
$GPGSV,4,1,16,08,11,315,28,10,15,007,33,16,24,236,,18,33,091,21*78
$GPGSV,4,2,16,23,01,045,,26,28,205,,27,47,303,34,28,52,143,*7A
$GPGSV,4,3,16,29,09,148,,31,38,182,17,32,52,001,45,36,52,277,*74
$GPGSV,4,4,16,40,84,353,35,41,58,082,,49,32,274,,50,10,089,*7F
$GLGSV,3,1,10,69,09,010,27,70,42,306,25,71,30,248,,73,16,189,*6F
$GLGSV,3,2,10,74,01,229,,80,13,135,,82,10,144,,83,49,107,24*6F
$GLGSV,3,3,10,84,43,015,22,85,04,343,17*60
$GNGLL,0419.92431,S,05539.73846,E,121356.00,A,A*6D
$GNRMC,121357.00,A,0419.92411,S,05539.73840,E,0.454,,260525,,,A*72
$GNVTG,,T,,M,0.454,N,0.840,K,A*34
$GNGGA,121357.00,0419.92411,S,05539.73840,E,1,10,0.98,51.2,M,-47.6,M,,*43
$GNGSA,A,3,32,27,31,18,10,08,,,,,,,1.86,0.98,1.58*18
$GNGSA,A,3,83,84,70,69,,,,,,,,,1.86,0.98,1.58*11
$GPGSV,4,1,16,08,11,315,28,10,15,007,33,16,24,236,,18,33,091,21*78
$GPGSV,4,2,16,23,01,045,,26,28,205,,27,47,303,34,28,52,143,*7A
$GPGSV,4,3,16,29,09,148,,31,38,182,17,32,52,001,44,36,52,277,*75
$GPGSV,4,4,16,40,84,353,31,41,58,082,,49,32,274,,50,10,089,*7B
$GLGSV,3,1,10,69,09,010,26,70,42,307,24,71,30,248,,73,16,189,*6E
$GLGSV,3,2,10,74,01,229,,80,13,135,,82,10,144,,83,49,107,22*69
$GLGSV,3,3,10,84,43,015,22,85,04,343,14*63
$GNGLL,0419.92411,S,05539.73840,E,121357.00,A,A*68
$GNRMC,121358.00,A,0419.92416,S,05539.73846,E,0.188,,260525,,,A*78
$GNVTG,,T,,M,0.188,N,0.349,K,A*32
$GNGGA,121358.00,0419.92416,S,05539.73846,E,1,10,0.98,51.2,M,-47.6,M,,*4D
$GNGSA,A,3,32,27,31,18,10,08,,,,,,,1.86,0.98,1.58*18
$GNGSA,A,3,83,84,70,69,,,,,,,,,1.86,0.98,1.58*11
$GPGSV,4,1,16,08,11,315,28,10,15,007,33,16,24,236,,18,33,091,21*78
$GPGSV,4,2,16,23,01,045,,26,28,205,,27,47,303,33,28,52,143,*7D
$GPGSV,4,3,16,29,09,148,,31,38,182,17,32,52,001,44,36,52,277,*75
$GPGSV,4,4,16,40,84,353,32,41,58,082,,49,32,274,,50,10,089,*78
$GLGSV,3,1,10,69,09,010,27,70,42,307,24,71,30,248,,73,16,189,*6F
$GLGSV,3,2,10,74,01,229,,80,13,135,,82,10,144,,83,49,107,24*6F
$GLGSV,3,3,10,84,43,015,22,85,04,343,15*62
$GNGLL,0419.92416,S,05539.73846,E,121358.00,A,A*66
$GNRMC,121359.00,A,0419.92423,S,05539.73851,E,0.125,,260525,,,A*7E
$GNVTG,,T,,M,0.125,N,0.231,K,A*3B
$GNGGA,121359.00,0419.92423,S,05539.73851,E,1,10,0.98,51.1,M,-47.6,M,,*4F
$GNGSA,A,3,32,27,31,18,10,08,,,,,,,1.86,0.98,1.58*18
$GNGSA,A,3,83,84,70,69,,,,,,,,,1.86,0.98,1.58*11
$GPGSV,4,1,16,08,11,315,28,10,15,007,33,16,24,236,,18,33,091,21*78
$GPGSV,4,2,16,23,01,045,,26,28,205,,27,47,303,33,28,52,143,17*7B
$GPGSV,4,3,16,29,09,148,,31,38,182,18,32,52,001,46,36,52,277,*78
$GPGSV,4,4,16,40,84,353,37,41,58,082,,49,32,274,,50,10,089,*7D
$GLGSV,3,1,10,69,09,010,27,70,42,307,25,71,30,248,,73,16,189,*6E
$GLGSV,3,2,10,74,01,229,,80,13,135,,82,10,144,,83,49,107,25*6E
$GLGSV,3,3,10,84,43,015,22,85,04,343,15*62
$GNGLL,0419.92423,S,05539.73851,E,121359.00,A,A*67
$GNRMC,121400.00,A,0419.92413,S,05539.73846,E,0.157,,260525,,,A*75
$GNVTG,,T,,M,0.157,N,0.290,K,A*35
$GNGGA,121400.00,0419.92413,S,05539.73846,E,1,10,0.98,51.3,M,-47.6,M,,*43
$GNGSA,A,3,32,27,31,18,10,08,,,,,,,1.86,0.98,1.58*18
$GNGSA,A,3,83,84,70,69,,,,,,,,,1.86,0.98,1.58*11
$GPGSV,4,1,16,08,11,315,29,10,15,007,32,16,24,236,,18,33,091,22*7B
$GPGSV,4,2,16,23,01,045,,26,28,205,,27,47,303,32,28,52,143,18*75
$GPGSV,4,3,16,29,09,148,,31,38,182,19,32,52,001,46,36,52,277,*79
$GPGSV,4,4,16,40,84,353,35,41,58,082,,49,32,274,,50,10,089,*7F
$GLGSV,3,1,10,69,09,010,28,70,42,307,25,71,30,248,,73,16,188,*60
$GLGSV,3,2,10,74,01,229,,80,13,135,,82,10,144,,83,49,107,25*6E
$GLGSV,3,3,10,84,43,015,23,85,04,343,16*60
$GNGLL,0419.92413,S,05539.73846,E,121400.00,A,A*69
$GNRMC,121403.00,A,0419.92410,S,05539.73848,E,0.215,,260525,,,A*7E
$GNVTG,,T,,M,0.215,N,0.398,K,A*39
$GNGGA,121403.00,0419.92410,S,05539.73848,E,1,11,0.96,51.4,M,-47.6,M,,*45
$GNGSA,A,3,28,32,27,31,18,10,08,,,,,,1.85,0.96,1.58*1F
$GNGSA,A,3,83,84,70,69,,,,,,,,,1.85,0.96,1.58*1C
$GPGSV,4,1,16,08,11,315,30,10,15,007,31,16,24,236,,18,33,091,23*71
$GPGSV,4,2,16,23,01,045,,26,28,205,,27,47,303,34,28,52,143,19*72
$GPGSV,4,3,16,29,09,148,,31,38,182,21,32,52,001,46,36,52,277,*72
$GPGSV,4,4,16,40,84,353,36,41,58,082,,49,32,274,,50,10,089,*7C
$GLGSV,3,1,11,69,09,010,26,70,42,307,26,71,30,248,,73,16,188,*6C
$GLGSV,3,2,11,74,01,229,,80,13,135,,82,10,144,,83,49,107,23*69
$GLGSV,3,3,11,84,43,015,23,85,04,343,16,,,,37*65
$GNGLL,0419.92410,S,05539.73848,E,121403.00,A,A*67
$GNRMC,121404.00,A,0419.92399,S,05539.73845,E,0.027,,260525,,,A*71
$GNVTG,,T,,M,0.027,N,0.051,K,A*3C
$GNGGA,121404.00,0419.92399,S,05539.73845,E,1,11,0.96,51.5,M,-47.6,M,,*48
$GNGSA,A,3,28,32,27,31,18,10,08,,,,,,1.85,0.96,1.58*1F
$GNGSA,A,3,83,84,70,69,,,,,,,,,1.85,0.96,1.58*1C
$GPGSV,4,1,16,08,11,315,30,10,15,007,30,16,24,236,,18,33,091,23*70
$GPGSV,4,2,16,23,01,045,,26,28,205,,27,47,303,34,28,52,143,18*73
$GPGSV,4,3,16,29,09,148,,31,38,182,22,32,52,001,46,36,52,277,*71
$GPGSV,4,4,16,40,84,353,36,41,58,082,,49,32,274,,50,10,089,*7C
$GLGSV,3,1,11,69,09,010,26,70,42,307,26,71,30,248,,73,16,188,*6C
$GLGSV,3,2,11,74,01,229,,80,13,135,,82,10,144,,83,49,107,23*69
$GLGSV,3,3,11,84,43,015,24,85,04,343,20,,,,37*67
$GNGLL,0419.92399,S,05539.73845,E,121404.00,A,A*6B
$GNRMC,121405.00,A,0419.92404,S,05539.73851,E,0.235,,260525,,,A*77
$GNVTG,,T,,M,0.235,N,0.436,K,A*38
$GNGGA,121405.00,0419.92404,S,05539.73851,E,1,11,0.96,51.4,M,-47.6,M,,*4E
$GNGSA,A,3,28,32,27,31,18,10,08,,,,,,1.85,0.96,1.58*1F
$GNGSA,A,3,83,84,70,69,,,,,,,,,1.85,0.96,1.58*1C
$GPGSV,4,1,16,08,11,315,30,10,15,007,31,16,24,236,,18,33,091,23*71
$GPGSV,4,2,16,23,01,045,,26,28,205,,27,47,303,34,28,52,143,18*73
$GPGSV,4,3,16,29,09,148,,31,38,182,21,32,52,001,46,36,52,277,*72
$GPGSV,4,4,16,40,84,353,35,41,58,082,,49,32,274,,50,10,089,*7F
$GLGSV,3,1,11,69,09,010,25,70,42,307,26,71,30,248,,73,16,188,*6F
$GLGSV,3,2,11,74,01,229,,80,13,135,,82,10,144,,83,49,107,22*68
$GLGSV,3,3,11,84,43,015,23,85,04,343,22,,,,37*62
$GNGLL,0419.92404,S,05539.73851,E,121405.00,A,A*6C
$GNRMC,121408.00,A,0419.92400,S,05539.73857,E,0.199,,260525,,,A*7D
$GNVTG,,T,,M,0.199,N,0.369,K,A*30
$GNGGA,121408.00,0419.92400,S,05539.73857,E,1,11,0.96,51.6,M,-47.6,M,,*43
$GNGSA,A,3,28,32,27,31,18,10,08,,,,,,1.85,0.96,1.58*1F
$GNGSA,A,3,83,84,70,69,,,,,,,,,1.85,0.96,1.58*1C
$GPGSV,4,1,16,08,11,315,31,10,15,007,34,16,24,236,,18,33,091,18*7D
$GPGSV,4,2,16,23,01,045,,26,28,205,,27,47,303,34,28,52,143,21*79
$GPGSV,4,3,16,29,09,148,,31,38,182,22,32,52,001,45,36,52,277,*72
$GPGSV,4,4,16,40,84,353,35,41,58,082,,49,32,274,,50,10,089,*7F
$GLGSV,3,1,11,69,09,010,26,70,42,307,26,71,30,248,,73,16,188,*6C
$GLGSV,3,2,11,74,01,229,,80,13,135,,82,10,144,,83,49,107,21*6B
$GLGSV,3,3,11,84,43,015,22,85,04,343,22,,,,36*62
$GNGLL,0419.92400,S,05539.73857,E,121408.00,A,A*63
$GNRMC,121411.00,A,0419.92405,S,05539.73868,E,0.555,,260525,,,A*78
$GNVTG,,T,,M,0.555,N,1.028,K,A*33
$GNGGA,121411.00,0419.92405,S,05539.73868,E,1,11,0.96,51.5,M,-47.6,M,,*41
$GNGSA,A,3,28,32,27,31,18,10,08,,,,,,1.85,0.96,1.58*1F
$GNGSA,A,3,83,84,70,69,,,,,,,,,1.85,0.96,1.58*1C
$GPGSV,4,1,16,08,11,315,31,10,15,007,30,16,24,236,,18,33,091,14*75
$GPGSV,4,2,16,23,01,045,,26,28,205,,27,47,303,32,28,52,143,22*7C
$GPGSV,4,3,16,29,09,148,,31,38,182,20,32,52,001,43,36,52,277,*76
$GPGSV,4,4,16,40,84,353,30,41,58,082,35,49,32,274,,50,10,089,*7C
$GLGSV,3,1,11,69,09,010,23,70,42,307,25,71,30,248,,73,16,188,*6A
$GNRMC,121412.00,A,0419.92418,S,05539.73878,E,0.530,,260525,,,A*75
$GNVTG,,T,,M,0.530,N,0.981,K,A*3B
$GNGGA,121412.00,0419.92418,S,05539.73878,E,1,11,0.96,51.3,M,-47.6,M,,*49
$GNGSA,A,3,28,32,27,31,18,10,08,,,,,,1.85,0.96,1.58*1F
$GNGSA,A,3,83,84,70,69,,,,,,,,,1.85,0.96,1.58*1C
$GPGSV,4,1,16,08,11,315,30,10,15,007,30,16,24,236,,18,33,091,16*76
$GPGSV,4,2,16,23,01,045,,26,28,205,,27,47,303,33,28,52,143,22*7D
$GPGSV,4,3,16,29,09,148,,31,38,182,20,32,52,001,42,36,52,277,*77
$GPGSV,4,4,16,40,84,353,28,41,58,082,33,49,32,274,,50,10,089,*73
$GLGSV,3,1,11,69,09,010,22,70,42,307,24,71,30,248,,73,16,188,*6A
$GLGSV,3,2,11,74,01,229,,80,13,135,,82,09,144,,83,49,107,21*63
$GLGSV,3,3,11,84,44,016,20,85,04,343,19,,,,31*6B
$GNGLL,0419.92418,S,05539.73878,E,121412.00,A,A*6C
$GNRMC,121414.00,A,0419.92425,S,05539.73889,E,0.227,,260525,,,A*72
$GNVTG,,T,,M,0.227,N,0.420,K,A*3C
$GNGGA,121414.00,0419.92425,S,05539.73889,E,1,11,0.96,51.2,M,-47.6,M,,*4E
$GNGSA,A,3,28,32,27,31,18,10,08,,,,,,1.85,0.96,1.58*1F
$GNGSA,A,3,83,84,70,69,,,,,,,,,1.85,0.96,1.58*1C
$GPGSV,4,1,16,08,11,315,28,10,15,007,29,16,24,236,,18,33,091,26*74
$GPGSV,4,2,16,23,01,045,,26,28,205,,27,47,303,26,28,52,143,20*7B
$GPGSV,4,3,16,29,09,148,,31,38,182,21,32,52,001,43,36,52,277,*77
$GPGSV,4,4,16,40,84,353,32,41,58,082,32,49,32,274,,50,10,089,*79
$GLGSV,3,1,11,69,09,010,22,70,42,307,23,71,30,248,,73,16,188,*6D
$GLGSV,3,2,11,74,01,229,,80,13,135,,82,09,144,,83,49,107,26*64
$GLGSV,3,3,11,84,44,016,16,85,04,343,17,,,,26*66
$GNGLL,0419.92425,S,05539.73889,E,121414.00,A,A*6A
$GNRMC,121416.00,A,0419.92438,S,05539.73891,E,0.121,,260525,,,A*70
$GNVTG,,T,,M,0.121,N,0.223,K,A*3C
$GNGGA,121416.00,0419.92438,S,05539.73891,E,1,11,0.96,51.1,M,-47.6,M,,*4A
$GNGSA,A,3,28,32,27,31,18,10,08,,,,,,1.85,0.96,1.58*1F
$GNGSA,A,3,83,84,70,69,,,,,,,,,1.85,0.96,1.58*1C
$GPGSV,4,1,16,08,11,315,27,10,15,007,28,16,24,236,,18,33,091,28*74
$GPGSV,4,2,16,23,01,045,,26,28,205,,27,47,303,29,28,52,143,20*74
$GPGSV,4,3,16,29,09,148,,31,38,182,21,32,52,001,44,36,52,277,*70
$GPGSV,4,4,16,40,84,353,30,41,58,082,32,49,32,274,,50,10,089,*7B
$GLGSV,3,1,11,69,09,010,23,70,42,307,25,71,30,248,,73,16,188,*6A
$GLGSV,3,2,11,74,01,229,,80,13,135,,82,09,144,,83,49,107,29*6B
$GLGSV,3,3,11,84,44,016,18,85,04,343,15,,,,31*6C
$GNGLL,0419.92438,S,05539.73891,E,121416.00,A,A*6D
$GNRMC,121420.00,A,0419.92452,S,05539.73893,E,0.233,,260525,,,A*7B
$GNVTG,,T,,M,0.233,N,0.431,K,A*39
$GNGGA,121420.00,0419.92452,S,05539.73893,E,1,11,0.96,51.0,M,-47.6,M,,*40
$GNGSA,A,3,28,32,27,31,18,10,08,,,,,,1.85,0.96,1.58*1F
$GNGSA,A,3,83,84,70,69,,,,,,,,,1.85,0.96,1.58*1C
$GPGSV,4,1,16,08,11,315,27,10,15,007,28,16,24,236,,18,33,091,30*7D
$GPGSV,4,2,16,23,01,045,,26,28,205,,27,47,303,29,28,52,143,22*76
$GPGSV,4,3,16,29,09,148,,31,38,182,21,32,52,001,44,36,52,277,*70
$GPGSV,4,4,16,40,84,353,29,41,58,082,33,49,32,274,,50,10,089,*72
$GLGSV,3,1,11,69,09,010,25,70,42,307,24,71,30,248,,73,16,188,*6D
$GLGSV,3,2,11,74,01,229,,80,13,135,,82,09,144,,83,49,107,31*62
$GLGSV,3,3,11,84,44,016,17,85,04,343,18,,,,31*6E
$GNGLL,0419.92452,S,05539.73893,E,121420.00,A,A*66
$GNRMC,121424.00,A,0419.92473,S,05539.73883,E,0.282,,260525,,,A*77
$GNVTG,,T,,M,0.282,N,0.522,K,A*30
$GNGGA,121424.00,0419.92473,S,05539.73883,E,1,11,0.96,51.1,M,-47.6,M,,*47
$GNGSA,A,3,28,32,27,31,18,10,08,,,,,,1.85,0.96,1.58*1F
$GNGSA,A,3,83,84,70,69,,,,,,,,,1.85,0.96,1.58*1C
$GPGSV,4,1,16,08,12,315,28,10,15,007,27,16,24,236,,18,33,091,27*78
$GPGSV,4,2,16,23,01,045,,26,28,205,,27,47,303,27,28,52,143,24*7E
$GPGSV,4,3,16,29,09,148,,31,38,182,20,32,52,001,45,36,52,277,*70
$GPGSV,4,4,16,40,84,353,29,41,58,082,30,49,32,274,,50,10,089,*71
$GLGSV,3,1,11,69,09,010,23,70,42,307,23,71,30,248,,73,16,188,*6C
$GLGSV,3,2,11,74,01,229,,80,13,135,,82,09,144,,83,49,107,29*6B
$GLGSV,3,3,11,84,44,016,17,85,04,343,21,,,,32*67
$GNGLL,0419.92473,S,05539.73883,E,121424.00,A,A*60
$GNRMC,121426.00,A,0419.92478,S,05539.73875,E,0.284,,260525,,,A*71
$GNVTG,,T,,M,0.284,N,0.526,K,A*32
$GNGGA,121426.00,0419.92478,S,05539.73875,E,1,11,0.96,51.3,M,-47.6,M,,*45
$GNGSA,A,3,28,32,27,31,18,10,08,,,,,,1.85,0.96,1.58*1F
$GNGSA,A,3,83,84,70,69,,,,,,,,,1.85,0.96,1.58*1C
$GPGSV,4,1,16,08,12,315,29,10,15,008,28,16,24,236,,18,33,091,28*76
$GPGSV,4,2,16,23,01,045,,26,28,205,,27,47,303,27,28,52,143,22*78
$GPGSV,4,3,16,29,09,148,,31,38,182,21,32,52,001,44,36,52,277,*70
$GPGSV,4,4,16,40,84,353,27,41,58,082,30,49,32,274,,50,10,089,*7F
$GLGSV,3,1,11,69,09,010,22,70,42,307,22,71,30,248,,73,16,188,*6C
$GLGSV,3,2,11,74,01,229,,80,13,135,,82,09,144,,83,49,107,29*6B
$GLGSV,3,3,11,84,44,016,15,85,04,343,21,,,,34*63
$GNGLL,0419.92478,S,05539.73875,E,121426.00,A,A*60
$GNRMC,121437.00,A,0419.92424,S,05539.73842,E,0.095,,260525,,,A*7E
$GNVTG,,T,,M,0.095,N,0.177,K,A*30
$GNGGA,121437.00,0419.92424,S,05539.73842,E,1,10,1.03,52.6,M,-47.6,M,,*42
$GNGSA,A,3,28,32,27,31,18,10,08,,,,,,2.00,1.03,1.72*14
$GNGSA,A,3,83,70,69,,,,,,,,,,2.00,1.03,1.72*1B
$GPGSV,4,1,16,08,12,315,28,10,15,008,28,16,24,235,,18,33,092,25*7A
$GPGSV,4,2,16,23,01,046,,26,28,205,06,27,47,303,30,28,52,143,27*7E
$GPGSV,4,3,16,29,09,148,,31,38,182,22,32,52,001,43,36,52,277,*74
$GPGSV,4,4,16,40,84,353,30,41,58,082,31,49,32,274,,50,10,089,*78
$GLGSV,3,1,11,69,09,010,27,70,42,307,23,71,30,248,,73,16,188,*68
$GLGSV,3,2,11,74,01,229,,80,13,135,,82,09,144,,83,49,107,29*6B
$GLGSV,3,3,11,84,44,016,,85,04,343,12,,,,33*60
$GNGLL,0419.92424,S,05539.73842,E,121437.00,A,A*6D
$GNRMC,121438.00,A,0419.92415,S,05539.73843,E,0.023,,260525,,,A*7F
$GNVTG,,T,,M,0.023,N,0.042,K,A*3A
$GNGGA,121438.00,0419.92415,S,05539.73843,E,1,10,1.03,52.7,M,-47.6,M,,*4F
$GNGSA,A,3,28,32,27,31,18,10,08,,,,,,2.00,1.03,1.72*14
$GNGSA,A,3,83,70,69,,,,,,,,,,2.00,1.03,1.72*1B
$GPGSV,4,1,16,08,12,315,29,10,15,008,28,16,24,235,,18,33,092,25*7B
$GPGSV,4,2,16,23,01,046,,26,28,205,06,27,47,303,30,28,52,143,27*7E
$GPGSV,4,3,16,29,09,148,,31,38,182,22,32,52,001,43,36,52,277,*74
$GPGSV,4,4,16,40,84,353,30,41,58,082,31,49,32,274,,50,10,089,*78
$GLGSV,3,1,11,69,09,010,26,70,42,307,24,71,30,248,,73,16,188,*6E
$GLGSV,3,2,11,74,01,229,,80,13,135,,82,09,144,,83,49,107,29*6B
$GLGSV,3,3,11,84,44,016,,85,04,343,09,,,,34*6D
$GNGLL,0419.92415,S,05539.73843,E,121438.00,A,A*61
$GNRMC,121439.00,A,0419.92408,S,05539.73842,E,0.064,,260525,,,A*70
$GNVTG,,T,,M,0.064,N,0.119,K,A*36
$GNGGA,121439.00,0419.92408,S,05539.73842,E,1,10,1.03,52.8,M,-47.6,M,,*4C
$GNGSA,A,3,28,32,27,31,18,10,08,,,,,,2.00,1.03,1.72*14
$GNGSA,A,3,83,70,69,,,,,,,,,,2.00,1.03,1.72*1B
$GPGSV,4,1,16,08,12,315,28,10,15,008,28,16,24,235,,18,33,092,25*7A
$GPGSV,4,2,16,23,01,046,,26,28,205,06,27,47,303,29,28,52,143,28*79
$GPGSV,4,3,16,29,09,148,,31,38,182,21,32,52,001,43,36,52,277,*77
$GPGSV,4,4,16,40,84,353,29,41,58,082,32,49,32,274,,50,10,089,*73
$GLGSV,3,1,11,69,09,010,25,70,42,307,23,71,30,248,,73,16,188,*6A
$GLGSV,3,2,11,74,01,229,,80,13,135,,82,09,144,,83,49,107,29*6B
$GLGSV,3,3,11,84,44,016,,85,04,343,08,,,,34*6C
$GNGLL,0419.92408,S,05539.73842,E,121439.00,A,A*6D
$GNRMC,121441.00,A,0419.92392,S,05539.73845,E,0.060,,260525,,,A*78
$GNVTG,,T,,M,0.060,N,0.111,K,A*3A
$GNGGA,121441.00,0419.92392,S,05539.73845,E,1,10,1.03,52.9,M,-47.6,M,,*41
$GNGSA,A,3,28,32,27,31,18,10,08,,,,,,2.00,1.03,1.72*14
$GNGSA,A,3,83,70,69,,,,,,,,,,2.00,1.03,1.72*1B
$GPGSV,4,1,16,08,12,315,28,10,15,008,28,16,24,235,,18,33,092,27*78
$GPGSV,4,2,16,23,01,046,,26,28,204,06,27,47,302,29,28,52,143,28*79
$GPGSV,4,3,16,29,09,148,,31,38,182,22,32,52,001,43,36,52,277,*74
$GPGSV,4,4,16,40,84,353,28,41,58,082,33,49,32,274,,50,10,089,*73
$GLGSV,3,1,11,69,09,010,26,70,42,307,23,71,30,248,,73,16,188,*69
$GLGSV,3,2,11,74,01,229,,80,13,135,,82,09,144,,83,49,107,29*6B
$GLGSV,3,3,11,84,44,016,,85,04,343,18,,,,32*6B
$GNGLL,0419.92392,S,05539.73845,E,121441.00,A,A*61
$GNRMC,121443.00,A,0419.92391,S,05539.73839,E,0.218,,260525,,,A*7F
$GNVTG,,T,,M,0.218,N,0.403,K,A*31
$GNGGA,121443.00,0419.92391,S,05539.73839,E,1,10,1.03,53.1,M,-47.6,M,,*42
$GNGSA,A,3,28,32,27,31,18,10,08,,,,,,2.00,1.03,1.72*14
$GNGSA,A,3,83,70,69,,,,,,,,,,2.00,1.03,1.72*1B
$GPGSV,4,1,16,08,12,315,26,10,15,008,27,16,24,235,,18,33,092,28*76
$GPGSV,4,2,16,23,01,046,,26,28,204,06,27,47,302,29,28,53,142,27*76
$GPGSV,4,3,16,29,08,148,,31,38,182,20,32,52,001,43,36,52,277,*77
$GPGSV,4,4,16,40,84,353,30,41,58,082,33,49,32,274,,50,10,089,*7A
$GLGSV,3,1,11,69,09,010,25,70,42,307,25,71,30,248,,73,16,188,*6C
$GLGSV,3,2,11,74,01,229,,80,13,135,,82,09,144,,83,49,107,29*6B
$GLGSV,3,3,11,84,44,016,,85,04,343,20,,,,31*63
$GNGLL,0419.92391,S,05539.73839,E,121443.00,A,A*6B
$GNRMC,121445.00,A,0419.92396,S,05539.73837,E,0.058,,260525,,,A*76
$GNVTG,,T,,M,0.058,N,0.108,K,A*39
$GNGGA,121445.00,0419.92396,S,05539.73837,E,1,10,1.03,53.2,M,-47.6,M,,*4E
$GNGSA,A,3,28,32,27,31,18,10,08,,,,,,2.00,1.03,1.72*14
$GNGSA,A,3,83,70,69,,,,,,,,,,2.00,1.03,1.72*1B
$GPGSV,4,1,16,08,12,315,26,10,15,008,25,16,24,235,,18,33,092,30*7D
$GPGSV,4,2,16,23,01,046,,26,28,204,06,27,47,302,26,28,53,142,27*79
$GPGSV,4,3,16,29,08,148,,31,39,182,19,32,52,001,43,36,52,277,*7C
$GPGSV,4,4,16,40,84,353,30,41,58,082,33,49,32,274,,50,10,089,*7A
$GLGSV,3,1,11,69,09,010,26,70,42,307,25,71,30,248,,73,16,188,*6F
$GLGSV,3,2,11,74,01,229,,80,13,135,,82,09,144,,83,49,107,32*61
$GLGSV,3,3,11,84,44,016,,85,04,343,22,,,,32*62
$GNGLL,0419.92396,S,05539.73837,E,121445.00,A,A*64
$GNRMC,121446.00,A,0419.92397,S,05539.73833,E,0.090,,260525,,,A*74
$GNVTG,,T,,M,0.090,N,0.167,K,A*34
$GNGGA,121446.00,0419.92397,S,05539.73833,E,1,10,1.03,53.3,M,-47.6,M,,*49
$GNGSA,A,3,28,32,27,31,18,10,08,,,,,,2.00,1.03,1.72*14
$GNGSA,A,3,83,70,69,,,,,,,,,,2.00,1.03,1.72*1B
$GPGSV,4,1,16,08,12,315,25,10,15,008,26,16,24,235,,18,33,092,30*7D
$GPGSV,4,2,16,23,01,046,,26,28,204,06,27,47,302,27,28,53,142,28*77
$GPGSV,4,3,16,29,08,148,,31,39,182,19,32,52,001,43,36,52,277,*7C
$GPGSV,4,4,16,40,84,353,30,41,58,082,33,49,32,274,,50,10,089,*7A
$GLGSV,3,1,11,69,09,010,25,70,42,307,25,71,30,248,,73,16,188,*6C
$GLGSV,3,2,11,74,01,229,,80,13,135,,82,09,144,,83,49,107,31*62
$GLGSV,3,3,11,84,44,016,,85,04,343,22,,,,33*63
$GNGLL,0419.92397,S,05539.73833,E,121446.00,A,A*62
$GNRMC,121447.00,A,0419.92403,S,05539.73828,E,0.031,,260525,,,A*7E
$GNVTG,,T,,M,0.031,N,0.057,K,A*3D
$GNGGA,121447.00,0419.92403,S,05539.73828,E,1,10,1.03,53.3,M,-47.6,M,,*48
$GNGSA,A,3,28,32,27,31,18,10,08,,,,,,2.00,1.03,1.72*14
$GNGSA,A,3,83,70,69,,,,,,,,,,2.00,1.03,1.72*1B
$GPGSV,4,1,16,08,12,315,25,10,15,008,26,16,24,235,,18,33,092,30*7D
$GPGSV,4,2,16,23,01,046,,26,28,204,06,27,47,302,28,28,53,142,28*78
$GPGSV,4,3,16,29,08,148,,31,39,182,19,32,52,001,43,36,52,277,*7C
$GPGSV,4,4,16,40,84,353,31,41,58,082,33,49,32,274,,50,10,089,*7B
$GLGSV,3,1,11,69,09,010,26,70,42,307,24,71,30,248,,73,16,188,*6E
$GLGSV,3,2,11,74,01,229,,80,13,135,,82,09,144,,83,49,107,32*61
$GLGSV,3,3,11,84,44,016,,85,04,343,23,,,,34*65
$GNGLL,0419.92403,S,05539.73828,E,121447.00,A,A*63
$GNRMC,121449.00,A,0419.92396,S,05539.73828,E,0.071,,260525,,,A*7F
$GNVTG,,T,,M,0.071,N,0.131,K,A*38
$GNGGA,121449.00,0419.92396,S,05539.73828,E,1,10,1.03,53.6,M,-47.6,M,,*48
$GNGSA,A,3,28,32,27,31,18,10,08,,,,,,2.00,1.03,1.72*14
$GNGSA,A,3,83,70,69,,,,,,,,,,2.00,1.03,1.72*1B
$GPGSV,4,1,16,08,12,315,25,10,15,008,25,16,24,235,,18,33,092,32*7C
$GPGSV,4,2,16,23,01,046,,26,28,204,,27,47,302,25,28,53,142,28*73
$GPGSV,4,3,16,29,08,148,,31,39,182,18,32,52,001,42,36,52,277,*7C
$GPGSV,4,4,16,40,84,353,28,41,58,082,34,49,32,274,,50,10,089,*74
$GLGSV,3,1,11,69,09,010,26,70,42,307,25,71,30,248,,73,16,188,*6F
$GLGSV,3,2,11,74,01,229,,80,13,135,,82,09,144,,83,49,107,32*61
$GLGSV,3,3,11,84,44,016,,85,04,343,24,,,,33*65
$GNGLL,0419.92396,S,05539.73828,E,121449.00,A,A*66
$GNRMC,121452.00,A,0419.92396,S,05539.73823,E,0.052,,260525,,,A*7F
$GNVTG,,T,,M,0.052,N,0.096,K,A*35
$GNGGA,121452.00,0419.92396,S,05539.73823,E,1,10,0.96,53.7,M,-47.6,M,,*45
$GNGSA,A,3,28,32,27,31,18,10,08,,,,,,1.74,0.96,1.44*1C
$GNGSA,A,3,83,70,69,,,,,,,,,,1.74,0.96,1.44*13
$GPGSV,4,1,16,08,12,315,24,10,15,008,22,16,24,235,,18,33,092,31*79
$GPGSV,4,2,16,23,01,046,,26,28,204,,27,47,302,25,28,53,142,28*73
$GPGSV,4,3,16,29,08,148,,31,39,182,14,32,52,001,42,36,52,277,*70
$GPGSV,4,4,16,40,84,353,28,41,58,082,34,49,32,274,,50,10,089,*74
$GLGSV,3,1,11,69,09,010,27,70,42,307,25,71,30,248,,73,16,188,*6E
$GLGSV,3,2,11,74,01,229,,80,13,135,,82,09,144,,83,49,107,32*61
$GLGSV,3,3,11,84,44,016,,85,04,343,19,,,,34*6C
$GNGLL,0419.92396,S,05539.73823,E,121452.00,A,A*67
$GNRMC,121453.00,A,0419.92397,S,05539.73821,E,0.279,,260525,,,A*76
$GNVTG,,T,,M,0.279,N,0.517,K,A*32
$GNGGA,121453.00,0419.92397,S,05539.73821,E,1,10,0.96,53.8,M,-47.6,M,,*48
$GNGSA,A,3,28,32,27,31,18,10,08,,,,,,1.74,0.96,1.44*1C
$GNGSA,A,3,83,70,69,,,,,,,,,,1.74,0.96,1.44*13
$GPGSV,4,1,16,08,12,315,25,10,15,008,23,16,24,235,,18,33,092,31*79
$GPGSV,4,2,16,23,01,046,,26,28,204,16,27,47,302,24,28,53,142,28*75
$GPGSV,4,3,16,29,08,148,,31,39,182,12,32,52,001,41,36,52,277,*75
$GPGSV,4,4,16,40,84,353,28,41,58,082,34,49,32,274,,50,10,089,*74
$GLGSV,3,1,11,69,09,010,27,70,42,307,25,71,30,248,,73,16,188,*6E
$GLGSV,3,2,11,74,01,229,,80,13,135,,82,09,144,,83,49,107,31*62
$GLGSV,3,3,11,84,44,016,19,85,04,343,19,,,,34*64
$GNGLL,0419.92397,S,05539.73821,E,121453.00,A,A*65
$GNRMC,121455.00,A,0419.92385,S,05539.73817,E,0.145,,260525,,,A*7A
$GNVTG,,T,,M,0.145,N,0.269,K,A*30
$GNGGA,121455.00,0419.92385,S,05539.73817,E,1,10,0.96,54.1,M,-47.6,M,,*46
$GNGSA,A,3,28,32,27,31,18,10,08,,,,,,1.74,0.96,1.45*1D
$GNGSA,A,3,83,70,69,,,,,,,,,,1.74,0.96,1.45*12
$GPGSV,4,1,16,08,12,315,25,10,15,008,24,16,24,235,,18,33,092,32*7D
$GPGSV,4,2,16,23,01,046,21,26,28,204,15,27,47,302,22,28,53,142,28*73
$GPGSV,4,3,16,29,08,148,,31,39,182,13,32,52,001,42,36,52,277,*77
$GPGSV,4,4,16,40,84,353,27,41,58,082,33,49,32,274,,50,10,089,*7C
$GLGSV,3,1,11,69,09,010,26,70,42,307,24,71,30,248,,73,16,188,*6E
$GLGSV,3,2,11,74,01,229,,80,13,135,,82,09,144,,83,49,107,33*60
$GLGSV,3,3,11,84,44,016,18,85,04,343,16,,,,33*6D
$GNGLL,0419.92385,S,05539.73817,E,121455.00,A,A*65
$GNRMC,121457.00,A,0419.92376,S,05539.73816,E,0.006,,260525,,,A*73
$GNVTG,,T,,M,0.006,N,0.010,K,A*3A
$GNGGA,121457.00,0419.92376,S,05539.73816,E,1,11,0.90,54.3,M,-47.6,M,,*4C
$GNGSA,A,3,28,32,27,31,18,10,08,,,,,,1.61,0.90,1.33*1E
$GNGSA,A,3,83,84,70,69,,,,,,,,,1.61,0.90,1.33*1D
$GPGSV,4,1,16,08,12,315,26,10,15,008,24,16,24,235,,18,33,092,31*7D
$GPGSV,4,2,16,23,01,046,,26,28,204,10,27,47,302,25,28,53,142,27*7D
$GPGSV,4,3,16,29,08,148,,31,39,182,15,32,52,001,41,36,52,277,*72
$GPGSV,4,4,16,40,84,353,29,41,58,082,34,49,32,274,,50,10,089,*75
$GLGSV,3,1,11,69,09,010,27,70,42,307,24,71,30,248,,73,16,188,*6F
$GLGSV,3,2,11,74,01,229,,80,13,135,,82,09,144,,83,49,107,31*62
$GLGSV,3,3,11,84,44,016,19,85,04,343,13,,,,32*68
$GNGLL,0419.92376,S,05539.73816,E,121457.00,A,A*6A
$GNRMC,121458.00,A,0419.92377,S,05539.73811,E,0.084,,260525,,,A*70
$GNVTG,,T,,M,0.084,N,0.155,K,A*30
$GNGGA,121458.00,0419.92377,S,05539.73811,E,1,11,0.90,54.3,M,-47.6,M,,*45
$GNGSA,A,3,28,32,27,31,18,10,08,,,,,,1.61,0.90,1.33*1E
$GNGSA,A,3,83,84,70,69,,,,,,,,,1.61,0.90,1.33*1D
$GPGSV,4,1,16,08,12,315,26,10,15,008,22,16,24,235,,18,33,092,30*7A
$GPGSV,4,2,16,23,01,046,22,26,28,204,10,27,47,302,24,28,53,142,28*73
$GPGSV,4,3,16,29,08,148,,31,39,182,15,32,52,001,41,36,52,277,*72
$GPGSV,4,4,16,40,84,353,29,41,58,082,33,49,32,274,,50,10,089,*72
$GLGSV,3,1,11,69,09,010,27,70,42,307,24,71,30,248,,73,16,188,*6F
$GLGSV,3,2,11,74,01,229,,80,13,135,,82,09,144,,83,49,107,32*61
$GLGSV,3,3,11,84,44,016,19,85,04,343,14,,,,32*6F
$GNGLL,0419.92377,S,05539.73811,E,121458.00,A,A*63
$GNRMC,121459.00,A,0419.92377,S,05539.73809,E,0.096,,260525,,,A*7B
$GNVTG,,T,,M,0.096,N,0.177,K,A*33
$GNGGA,121459.00,0419.92377,S,05539.73809,E,1,12,0.79,54.4,M,-47.6,M,,*4E
$GNGSA,A,3,28,32,27,31,18,26,10,08,,,,,1.55,0.79,1.33*1A
$GNGSA,A,3,83,84,70,69,,,,,,,,,1.55,0.79,1.33*1D
$GPGSV,4,1,16,08,12,315,26,10,15,008,21,16,24,235,,18,33,092,30*79
$GPGSV,4,2,16,23,01,046,21,26,28,204,11,27,47,302,24,28,53,142,29*70
$GPGSV,4,3,16,29,08,148,,31,39,182,17,32,52,001,41,36,52,277,*70
$GPGSV,4,4,16,40,84,353,28,41,58,082,33,49,32,274,,50,10,089,*73
$GLGSV,3,1,11,69,09,010,27,70,42,307,24,71,30,248,,73,16,188,*6F
$GLGSV,3,2,11,74,01,229,,80,13,135,,82,09,144,,83,49,107,32*61
$GLGSV,3,3,11,84,44,016,20,85,04,343,15,,,,32*64
$GNGLL,0419.92377,S,05539.73809,E,121459.00,A,A*6B
$GNRMC,121500.00,A,0419.92368,S,05539.73812,E,0.138,,260525,,,A*77
$GNVTG,,T,,M,0.138,N,0.256,K,A*36
$GNGGA,121500.00,0419.92368,S,05539.73812,E,1,12,0.79,54.8,M,-47.6,M,,*4B
$GNGSA,A,3,28,32,27,31,18,26,10,08,,,,,1.55,0.79,1.33*1A
$GNGSA,A,3,83,84,70,69,,,,,,,,,1.55,0.79,1.33*1D
$GPGSV,4,1,16,08,12,315,26,10,15,008,20,16,24,235,,18,33,092,31*79
$GPGSV,4,2,16,23,01,046,21,26,28,204,10,27,47,302,23,28,53,142,29*76
$GPGSV,4,3,16,29,08,148,,31,39,182,17,32,52,001,41,36,52,277,*70
$GPGSV,4,4,16,40,84,353,27,41,58,082,34,49,32,274,,50,10,089,*7B
$GLGSV,3,1,11,69,09,010,27,70,42,307,24,71,30,248,,73,16,188,*6F
$GLGSV,3,2,11,74,01,229,,80,13,135,,82,09,144,,83,49,107,31*62
$GLGSV,3,3,11,84,44,016,20,85,04,343,16,,,,33*66
$GNGLL,0419.92368,S,05539.73812,E,121500.00,A,A*62
$GNRMC,121501.00,A,0419.92361,S,05539.73820,E,0.353,,260525,,,A*71
$GNVTG,,T,,M,0.353,N,0.654,K,A*3F
$GNGGA,121501.00,0419.92361,S,05539.73820,E,1,12,0.75,54.9,M,-47.6,M,,*4F
$GNGSA,A,3,28,32,27,31,18,26,10,08,,,,,1.47,0.75,1.26*11
$GNGSA,A,3,83,84,70,69,,,,,,,,,1.47,0.75,1.26*16
$GPGSV,4,1,16,08,12,315,26,10,15,008,22,16,24,235,,18,33,092,30*7A
$GPGSV,4,2,16,23,01,046,22,26,28,204,13,27,47,302,21,28,53,142,29*74
$GPGSV,4,3,16,29,08,148,,31,39,182,18,32,52,001,41,36,52,277,*7F
$GPGSV,4,4,16,40,84,353,27,41,58,082,33,49,32,274,,50,10,089,*7C
$GLGSV,3,1,11,69,09,010,27,70,42,307,23,71,30,248,,73,16,188,*68
$GLGSV,3,2,11,74,01,229,,80,13,135,,82,09,144,,83,49,107,31*62
$GLGSV,3,3,11,84,44,016,20,85,04,343,19,,,,34*6E
$GNGLL,0419.92361,S,05539.73820,E,121501.00,A,A*6B
$GNRMC,121506.00,A,0419.92338,S,05539.73829,E,0.110,,260525,,,A*76
$GNVTG,,T,,M,0.110,N,0.204,K,A*3B
$GNGGA,121506.00,0419.92338,S,05539.73829,E,1,11,0.78,55.4,M,-47.6,M,,*4F
$GNGSA,A,3,28,32,31,18,26,10,08,,,,,,1.52,0.78,1.31*1B
$GNGSA,A,3,83,84,70,69,,,,,,,,,1.52,0.78,1.31*19
$GPGSV,4,1,16,08,12,315,25,10,15,008,19,16,24,235,,18,33,092,29*79
$GPGSV,4,2,16,23,01,046,23,26,28,204,11,27,47,302,07,28,53,142,30*7B
$GPGSV,4,3,16,29,08,148,,31,39,182,20,32,52,001,41,36,52,277,*74
$GPGSV,4,4,16,40,84,353,27,41,58,082,33,49,32,274,,50,10,089,*7C
$GLGSV,3,1,11,69,09,010,26,70,42,307,22,71,30,248,,73,16,188,*68
$GLGSV,3,2,11,74,01,229,,80,13,135,,82,09,144,,83,49,107,30*63
$GLGSV,3,3,11,84,44,016,18,85,04,343,20,,,,33*68
$GNGLL,0419.92338,S,05539.73829,E,121506.00,A,A*69
$GNRMC,121507.00,A,0419.92332,S,05539.73830,E,0.083,,260525,,,A*7E
$GNVTG,,T,,M,0.083,N,0.155,K,A*37
$GNGGA,121507.00,0419.92332,S,05539.73830,E,1,12,0.75,55.6,M,-47.6,M,,*40
$GNGSA,A,3,28,32,27,31,18,26,10,08,,,,,1.47,0.75,1.26*11
$GNGSA,A,3,83,84,70,69,,,,,,,,,1.47,0.75,1.26*16
$GPGSV,4,1,16,08,12,315,25,10,15,008,20,16,24,235,,18,33,092,30*7B
$GPGSV,4,2,16,23,01,046,22,26,28,204,12,27,47,302,12,28,53,142,30*7D
$GPGSV,4,3,16,29,08,148,,31,39,182,21,32,52,001,41,36,52,277,*75
$GPGSV,4,4,16,40,84,353,28,41,58,082,33,49,32,274,,50,10,089,*73
$GLGSV,3,1,11,69,09,010,25,70,42,307,22,71,30,248,,73,16,188,*6B
$GLGSV,3,2,11,74,01,229,,80,13,135,,82,09,144,,83,49,107,31*62
$GLGSV,3,3,11,84,44,016,18,85,04,343,21,,,,33*69
$GNGLL,0419.92332,S,05539.73830,E,121507.00,A,A*6A
$GNRMC,121509.00,A,0419.92322,S,05539.73838,E,0.136,,260525,,,A*76
$GNVTG,,T,,M,0.136,N,0.253,K,A*3D
$GNGGA,121509.00,0419.92322,S,05539.73838,E,1,11,0.90,55.8,M,-47.6,M,,*41
$GNGSA,A,3,28,32,27,31,18,10,08,,,,,,1.61,0.90,1.33*1E
$GNGSA,A,3,83,84,70,69,,,,,,,,,1.61,0.90,1.33*1D
$GPGSV,4,1,16,08,12,315,26,10,15,008,19,16,24,235,,18,33,092,29*7A
$GPGSV,4,2,16,23,01,046,22,26,28,204,10,27,47,302,12,28,53,142,29*77
$GPGSV,4,3,16,29,08,148,,31,39,182,20,32,52,001,42,36,52,277,*77
$GPGSV,4,4,16,40,84,353,28,41,58,082,34,49,32,274,,50,10,089,*74
$GLGSV,3,1,11,69,09,010,25,70,42,307,23,71,30,248,,73,16,188,*6A
$GLGSV,3,2,11,74,01,229,,80,13,135,,82,09,144,,83,49,107,31*62
$GLGSV,3,3,11,84,44,016,20,85,04,343,22,,,,34*66
$GNGLL,0419.92322,S,05539.73838,E,121509.00,A,A*6D
$GNRMC,121510.00,A,0419.92323,S,05539.73835,E,0.175,,260525,,,A*75
$GNRMC,121513.00,A,0419.92319,S,05539.73841,E,0.074,,260525,,,A*7C
$GNVTG,,T,,M,0.074,N,0.137,K,A*3B
$GNGGA,121513.00,0419.92319,S,05539.73841,E,1,11,0.90,55.7,M,-47.6,M,,*43
$GNGSA,A,3,28,32,27,31,18,10,08,,,,,,1.61,0.90,1.33*1E
$GNGSA,A,3,83,84,70,69,,,,,,,,,1.61,0.90,1.33*1D
$GPGSV,4,1,16,08,12,315,25,10,15,008,15,16,24,235,,18,33,092,29*75
$GPGSV,4,2,16,23,01,046,21,26,28,204,10,27,47,302,17,28,53,142,29*71
$GPGSV,4,3,16,29,08,148,,31,39,182,21,32,52,001,42,36,52,277,*76
$GPGSV,4,4,16,40,84,353,29,41,58,082,34,49,32,274,,50,10,089,*75
$GLGSV,3,1,11,69,09,010,25,70,41,308,24,71,30,249,,73,16,188,*60
$GLGSV,3,2,11,74,01,229,,80,13,135,,82,09,144,,83,49,107,32*61
$GLGSV,3,3,11,84,44,016,20,85,04,343,21,,,,33*62
$GNGLL,0419.92319,S,05539.73841,E,121513.00,A,A*60
$GNRMC,121516.00,A,0419.92300,S,05539.73860,E,0.147,,260525,,,A*73
$GNVTG,,T,,M,0.147,N,0.272,K,A*38
$GNGGA,121516.00,0419.92300,S,05539.73860,E,1,11,0.78,56.0,M,-47.6,M,,*4F
$GNGSA,A,3,28,32,31,18,26,10,08,,,,,,1.52,0.78,1.31*1B
$GNGSA,A,3,83,84,70,69,,,,,,,,,1.52,0.78,1.31*19
$GPGSV,4,1,16,08,12,315,24,10,15,008,19,16,24,235,,18,33,092,29*78
$GPGSV,4,2,16,23,01,046,,26,28,204,11,27,47,302,09,28,53,142,29*7C
$GPGSV,4,3,16,29,08,148,,31,39,182,20,32,52,001,42,36,52,277,*77
$GPGSV,4,4,16,40,84,353,27,41,58,082,33,49,32,274,,50,10,089,*7C
$GLGSV,3,1,11,69,09,010,25,70,41,308,24,71,30,249,,73,16,188,*60
$GLGSV,3,2,11,74,01,228,,80,13,135,,82,09,144,,83,49,107,32*60
$GLGSV,3,3,11,84,44,016,20,85,04,343,20,,,,34*64
$GNGLL,0419.92300,S,05539.73860,E,121516.00,A,A*6E
$GNRMC,121517.00,A,0419.92292,S,05539.73869,E,0.299,,260525,,,A*71
$GNVTG,,T,,M,0.299,N,0.554,K,A*3B
$GNGGA,121517.00,0419.92292,S,05539.73869,E,1,11,0.90,56.0,M,-47.6,M,,*4B
$GNGSA,A,3,28,32,27,31,18,10,08,,,,,,1.61,0.90,1.33*1E
$GNGSA,A,3,83,84,70,69,,,,,,,,,1.61,0.90,1.33*1D
$GPGSV,4,1,16,08,12,315,25,10,15,008,21,16,24,235,,18,33,092,28*73
$GPGSV,4,2,16,23,01,046,,26,28,204,09,27,47,302,18,28,53,142,30*7D
$GPGSV,4,3,16,29,08,148,,31,39,182,20,32,52,001,42,36,52,277,*77
$GPGSV,4,4,16,40,84,353,28,41,58,082,32,49,32,274,,50,10,089,*72
$GLGSV,3,1,11,69,09,010,25,70,41,308,23,71,30,249,,73,16,188,*67
$GLGSV,3,2,11,74,01,228,,80,13,135,,82,09,144,,83,49,107,32*60
$GLGSV,3,3,11,84,44,016,21,85,04,343,22,,,,34*67
$GNGLL,0419.92292,S,05539.73869,E,121517.00,A,A*6C
$GNRMC,121518.00,A,0419.92290,S,05539.73871,E,0.034,,260525,,,A*70
$GNVTG,,T,,M,0.034,N,0.063,K,A*3F
$GNGGA,121518.00,0419.92290,S,05539.73871,E,1,11,0.90,56.0,M,-47.6,M,,*4F
$GNGSA,A,3,28,32,27,31,18,10,08,,,,,,1.61,0.90,1.33*1E
$GNGSA,A,3,83,84,70,69,,,,,,,,,1.61,0.90,1.33*1D
$GPGSV,4,1,16,08,12,315,25,10,15,008,23,16,24,235,,18,33,092,27*7E
$GPGSV,4,2,16,23,01,046,,26,28,204,,27,47,302,21,28,53,142,30*7E
$GPGSV,4,3,16,29,08,148,,31,39,182,20,32,52,001,42,36,52,277,*77
$GPGSV,4,4,16,40,84,353,28,41,58,082,31,49,32,274,,50,10,089,*71
$GLGSV,3,1,11,69,09,010,26,70,41,308,22,71,30,249,,73,16,188,*65
$GLGSV,3,2,11,74,01,228,,80,13,135,,82,09,144,,83,49,107,33*61
$GLGSV,3,3,11,84,44,016,20,85,04,343,23,,,,34*67
$GNGLL,0419.92290,S,05539.73871,E,121518.00,A,A*68
$GNRMC,121520.00,A,0419.92295,S,05539.73865,E,0.123,,260525,,,A*7C
$GNVTG,,T,,M,0.123,N,0.228,K,A*35
$GNGGA,121520.00,0419.92295,S,05539.73865,E,1,11,0.90,56.0,M,-47.6,M,,*44
$GNGSA,A,3,28,32,27,31,18,10,08,,,,,,1.61,0.90,1.33*1E
$GNGSA,A,3,83,84,70,69,,,,,,,,,1.61,0.90,1.33*1D
$GPGSV,4,1,16,08,12,315,27,10,15,008,25,16,24,235,,18,33,092,27*7A
$GPGSV,4,2,16,23,01,046,24,26,28,204,,27,47,302,26,28,53,142,31*7E
$GPGSV,4,3,16,29,08,148,,31,39,182,20,32,52,001,42,36,52,277,*77
$GPGSV,4,4,16,40,84,353,28,41,58,082,33,49,32,274,,50,10,089,*73
$GLGSV,3,1,11,69,09,010,27,70,41,308,22,71,30,249,,73,16,188,*64
$GLGSV,3,2,11,74,01,228,,80,13,135,,82,09,144,,83,49,107,32*60
$GLGSV,3,3,11,84,44,016,18,85,04,343,23,,,,34*6C
$GNGLL,0419.92295,S,05539.73865,E,121520.00,A,A*63
$GNRMC,121521.00,A,0419.92293,S,05539.73864,E,0.054,,260525,,,A*7B
$GNVTG,,T,,M,0.054,N,0.099,K,A*3C
$GNGGA,121521.00,0419.92293,S,05539.73864,E,1,11,0.90,55.9,M,-47.6,M,,*48
$GNGSA,A,3,28,32,27,31,18,10,08,,,,,,1.61,0.90,1.33*1E
$GNGSA,A,3,83,84,70,69,,,,,,,,,1.61,0.90,1.33*1D
$GPGSV,4,1,16,08,12,315,27,10,15,008,24,16,24,235,,18,33,092,27*7B
$GPGSV,4,2,16,23,01,046,22,26,28,204,,27,47,302,25,28,53,142,30*7A
$GPGSV,4,3,16,29,08,148,,31,39,182,20,32,52,001,42,36,52,277,*77
$GPGSV,4,4,16,40,84,353,28,41,58,082,33,49,32,274,,50,10,089,*73
$GLGSV,3,1,11,69,09,010,26,70,41,308,23,71,30,249,,73,16,188,*64
$GLGSV,3,2,11,74,01,228,,80,13,135,,82,09,144,,83,49,107,32*60
$GLGSV,3,3,11,84,44,016,19,85,04,343,21,,,,34*6F
$GNGLL,0419.92293,S,05539.73864,E,121521.00,A,A*65
$GNRMC,121523.00,A,0419.92284,S,05539.73868,E,0.213,,260525,,,A*72
$GNVTG,,T,,M,0.213,N,0.394,K,A*33
$GNGGA,121523.00,0419.92284,S,05539.73868,E,1,11,0.90,55.9,M,-47.6,M,,*40
$GNGSA,A,3,28,32,27,31,18,10,08,,,,,,1.61,0.90,1.33*1E
$GNGSA,A,3,83,84,70,69,,,,,,,,,1.61,0.90,1.33*1D
$GPGSV,4,1,16,08,12,315,27,10,15,008,23,16,24,235,,18,33,092,27*7C
$GPGSV,4,2,16,23,01,046,21,26,28,204,,27,47,302,16,28,53,142,31*78
$GPGSV,4,3,16,29,08,148,,31,39,182,21,32,52,001,42,36,52,277,*76
$GPGSV,4,4,16,40,84,353,28,41,58,082,32,49,32,274,,50,10,089,*72
$GLGSV,3,1,11,69,09,010,27,70,41,308,22,71,30,249,,73,16,188,*64
$GLGSV,3,2,11,74,01,228,,80,13,134,,82,09,144,,83,49,107,33*60
$GLGSV,3,3,11,84,44,016,21,85,04,343,20,,,,35*64
$GNGLL,0419.92284,S,05539.73868,E,121523.00,A,A*6D
$GNRMC,121524.00,A,0419.92280,S,05539.73873,E,0.012,,260525,,,A*78
$GNVTG,,T,,M,0.012,N,0.022,K,A*3E
$GNGGA,121524.00,0419.92280,S,05539.73873,E,1,11,0.90,55.9,M,-47.6,M,,*49
$GNGSA,A,3,28,32,27,31,18,10,08,,,,,,1.61,0.90,1.33*1E
$GNGSA,A,3,83,84,70,69,,,,,,,,,1.61,0.90,1.33*1D
$GPGSV,4,1,16,08,12,315,26,10,15,008,21,16,24,235,,18,33,092,27*7F
$GPGSV,4,2,16,23,01,046,19,26,28,204,,27,47,302,14,28,53,142,31*71
$GPGSV,4,3,16,29,08,148,,31,39,182,21,32,52,001,41,36,52,277,*75
$GPGSV,4,4,16,40,84,353,28,41,58,082,32,49,32,274,,50,10,089,*72
$GLGSV,3,1,11,69,09,010,26,70,41,308,22,71,30,249,,73,16,188,*65
$GLGSV,3,2,11,74,01,228,,80,13,134,,82,09,145,,83,49,107,33*61
$GLGSV,3,3,11,84,44,016,21,85,04,343,20,,,,34*65
$GNGLL,0419.92280,S,05539.73873,E,121524.00,A,A*64
$GNRMC,121525.00,A,0419.92273,S,05539.73876,E,0.006,,260525,,,A*75
$GNVTG,,T,,M,0.006,N,0.011,K,A*3B
$GNGGA,121525.00,0419.92273,S,05539.73876,E,1,11,0.90,55.9,M,-47.6,M,,*41
$GNGSA,A,3,28,32,27,31,18,10,08,,,,,,1.61,0.90,1.33*1E
$GNGSA,A,3,83,84,70,69,,,,,,,,,1.61,0.90,1.33*1D
$GPGSV,4,1,16,08,12,315,26,10,15,008,22,16,24,235,,18,33,092,26*7D
$GPGSV,4,2,16,23,01,046,19,26,28,204,,27,47,302,12,28,53,142,31*77
$GPGSV,4,3,16,29,08,148,,31,39,182,22,32,52,001,42,36,52,277,*75
$GPGSV,4,4,16,40,84,353,28,41,58,082,32,49,32,274,,50,10,089,*72
$GLGSV,3,1,11,69,09,010,25,70,41,308,22,71,30,249,,73,16,188,*66
$GLGSV,3,2,11,74,01,228,,80,13,134,,82,09,145,,83,49,109,33*6F
$GLGSV,3,3,11,84,44,016,21,85,04,343,20,,,,34*65
$GNGLL,0419.92273,S,05539.73876,E,121525.00,A,A*6C
$GNRMC,121527.00,A,0419.92267,S,05539.73882,E,0.089,,260525,,,A*7E
$GNVTG,,T,,M,0.089,N,0.166,K,A*3D
$GNRMC,121530.00,A,0419.92265,S,05539.73887,E,0.112,,260525,,,A*7C
$GNVTG,,T,,M,0.112,N,0.208,K,A*35
$GNGGA,121530.00,0419.92265,S,05539.73887,E,1,11,0.90,56.0,M,-47.6,M,,*46
$GNGSA,A,3,28,32,27,31,18,10,08,,,,,,1.61,0.90,1.33*1E
$GNGSA,A,3,83,84,70,69,,,,,,,,,1.61,0.90,1.33*1D
$GPGSV,4,1,16,08,12,315,25,10,15,008,26,16,24,235,,18,33,092,27*7B
$GPGSV,4,2,16,23,01,046,21,26,28,204,,27,47,302,15,28,53,142,31*7B
$GPGSV,4,3,16,29,08,148,,31,39,182,21,32,52,001,43,36,52,277,*77
$GPGSV,4,4,16,40,84,353,28,41,58,082,32,49,32,274,,50,10,089,*72
$GLGSV,3,1,11,69,09,010,25,70,41,308,21,71,30,249,,73,16,188,*65
$GLGSV,3,2,11,74,01,228,,80,13,134,,82,09,145,,83,49,109,32*6E
$GLGSV,3,3,11,84,45,016,21,85,05,343,15,,,,34*63
$GNGLL,0419.92265,S,05539.73887,E,121530.00,A,A*61
$GNRMC,121531.00,A,0419.92268,S,05539.73886,E,0.019,,260525,,,A*7B
$GNVTG,,T,,M,0.019,N,0.035,K,A*33
$GNGGA,121531.00,0419.92268,S,05539.73886,E,1,11,0.90,56.0,M,-47.6,M,,*4B
$GNGSA,A,3,28,32,27,31,18,10,08,,,,,,1.61,0.90,1.33*1E
$GNGSA,A,3,83,84,70,69,,,,,,,,,1.61,0.90,1.33*1D
$GPGSV,4,1,16,08,12,315,26,10,15,008,24,16,24,235,,18,33,092,26*7B
$GPGSV,4,2,16,23,01,046,21,26,28,204,,27,47,302,18,28,53,142,31*76
$GPGSV,4,3,16,29,08,148,,31,39,182,21,32,52,001,42,36,52,277,*76
$GPGSV,4,4,16,40,84,353,30,41,58,082,33,49,32,274,,50,10,089,*7A
$GLGSV,3,1,11,69,09,010,26,70,41,308,21,71,30,249,,73,16,188,*66
$GLGSV,3,2,11,74,01,228,,80,13,134,,82,09,145,,83,49,109,31*6D
$GLGSV,3,3,11,84,45,016,20,85,05,343,17,,,,34*60
$GNGLL,0419.92268,S,05539.73886,E,121531.00,A,A*6C
$GNRMC,121532.00,A,0419.92272,S,05539.73881,E,0.104,,260525,,,A*79
$GNVTG,,T,,M,0.104,N,0.192,K,A*32
$GNGGA,121532.00,0419.92272,S,05539.73881,E,1,11,0.90,56.0,M,-47.6,M,,*44
$GNGSA,A,3,28,32,27,31,18,10,08,,,,,,1.61,0.90,1.33*1E
$GNGSA,A,3,83,84,70,69,,,,,,,,,1.61,0.90,1.33*1D
$GPGSV,4,1,16,08,12,315,27,10,15,008,25,16,24,235,,18,33,092,26*7B
$GPGSV,4,2,16,23,01,046,20,26,28,204,,27,47,302,22,28,53,142,31*7E
$GPGSV,4,3,16,29,08,148,,31,39,182,20,32,52,001,42,36,52,277,*77
$GPGSV,4,4,16,40,84,353,29,41,58,082,33,49,32,274,,50,10,089,*72
$GLGSV,3,1,11,69,09,010,26,70,41,308,22,71,30,249,,73,16,188,*65
$GLGSV,3,2,11,74,01,228,,80,13,134,,82,09,145,,83,49,109,31*6D
$GLGSV,3,3,11,84,45,016,19,85,05,343,18,,,,33*62
$GNGLL,0419.92272,S,05539.73881,E,121532.00,A,A*63
$GNRMC,121533.00,A,0419.92271,S,05539.73880,E,0.033,,260525,,,A*7F
$GNVTG,,T,,M,0.033,N,0.061,K,A*3A
$GNGGA,121533.00,0419.92271,S,05539.73880,E,1,11,0.90,56.1,M,-47.6,M,,*46
$GNGSA,A,3,28,32,27,31,18,10,08,,,,,,1.61,0.90,1.33*1E
$GNGSA,A,3,83,84,70,69,,,,,,,,,1.61,0.90,1.33*1D
$GPGSV,4,1,16,08,12,315,27,10,15,008,25,16,24,235,,18,33,092,27*7A
$GPGSV,4,2,16,23,01,046,19,26,28,204,,27,47,302,25,28,53,142,31*73
$GPGSV,4,3,16,29,08,148,,31,39,182,20,32,52,001,42,36,52,277,*77
$GPGSV,4,4,16,40,84,353,29,41,58,082,32,49,32,274,,50,10,089,*73
$GLGSV,3,1,11,69,09,010,26,70,41,308,22,71,30,249,,73,16,188,*65
$GLGSV,3,2,11,74,01,228,,80,13,134,,82,09,145,,83,49,109,31*6D
$GLGSV,3,3,11,84,45,016,18,85,05,343,18,,,,34*64
$GNGLL,0419.92271,S,05539.73880,E,121533.00,A,A*60
$GNRMC,121534.00,A,0419.92269,S,05539.73885,E,0.195,,260525,,,A*79
$GNVTG,,T,,M,0.195,N,0.361,K,A*34
$GNGGA,121534.00,0419.92269,S,05539.73885,E,1,11,0.90,56.0,M,-47.6,M,,*4C
$GNGSA,A,3,28,32,27,31,18,10,08,,,,,,1.61,0.90,1.33*1E
$GNGSA,A,3,83,84,70,69,,,,,,,,,1.61,0.90,1.33*1D
$GPGSV,4,1,16,08,12,315,26,10,15,008,24,16,24,235,,18,33,092,28*75
$GPGSV,4,2,16,23,01,046,19,26,28,204,,27,47,302,22,28,53,142,30*75
$GPGSV,4,3,16,29,08,148,,31,39,182,20,32,52,001,42,36,52,277,*77
$GPGSV,4,4,16,40,84,353,29,41,58,082,32,49,32,274,,50,10,089,*73
$GLGSV,3,1,11,69,09,010,26,70,41,308,21,71,30,249,,73,16,188,*66
$GLGSV,3,2,11,74,01,228,,80,13,134,,82,09,145,,83,49,109,31*6D
$GLGSV,3,3,11,84,45,016,18,85,05,343,20,,,,34*6F
$GNGLL,0419.92269,S,05539.73885,E,121534.00,A,A*6B
$GNRMC,121535.00,A,0419.92264,S,05539.73889,E,0.292,,260525,,,A*7D
$GNVTG,,T,,M,0.292,N,0.541,K,A*34
$GNGGA,121535.00,0419.92264,S,05539.73889,E,1,11,0.90,56.0,M,-47.6,M,,*4C
$GNGSA,A,3,28,32,27,31,18,10,08,,,,,,1.61,0.90,1.33*1E
$GNGSA,A,3,83,84,70,69,,,,,,,,,1.61,0.90,1.33*1D
$GPGSV,4,1,16,08,12,315,27,10,15,008,22,16,24,235,,18,33,092,28*72
$GPGSV,4,2,16,23,01,046,20,26,28,204,,27,47,302,23,28,53,142,31*7F
$GPGSV,4,3,16,29,08,148,,31,39,182,21,32,52,001,43,36,52,277,*77
$GPGSV,4,4,16,40,84,353,28,41,58,082,33,49,32,274,,50,10,089,*73
$GLGSV,3,1,11,69,09,010,27,70,41,308,22,71,30,249,,73,16,188,*64
$GLGSV,3,2,11,74,01,228,,80,13,134,,82,09,145,,83,49,109,32*6E
$GLGSV,3,3,11,84,45,016,20,85,05,343,22,,,,37*65
$GNGLL,0419.92264,S,05539.73889,E,121535.00,A,A*6B
$GNRMC,121542.00,A,0419.92268,S,05539.73842,E,0.230,,260525,,,A*7E
$GNVTG,,T,,M,0.230,N,0.426,K,A*3C
$GNGGA,121542.00,0419.92268,S,05539.73842,E,1,11,0.90,56.4,M,-47.6,M,,*43
$GNGSA,A,3,28,32,27,31,18,10,08,,,,,,1.61,0.90,1.33*1E
$GNGSA,A,3,83,84,70,69,,,,,,,,,1.61,0.90,1.33*1D
$GPGSV,4,1,16,08,12,314,26,10,15,008,25,16,24,235,17,18,33,092,21*7A
$GPGSV,4,2,16,23,01,046,18,26,28,204,,27,47,302,25,28,53,142,31*72
$GPGSV,4,3,16,29,08,148,,31,39,182,22,32,52,001,42,36,52,277,*75
$GPGSV,4,4,16,40,84,353,28,41,58,082,31,49,32,274,,50,10,089,*71
$GLGSV,3,1,11,69,09,010,27,70,41,308,21,71,30,249,,73,16,188,*67
$GLGSV,3,2,11,74,01,228,,80,13,134,,82,09,145,,83,49,109,32*6E
$GLGSV,3,3,11,84,45,016,19,85,05,343,19,,,,35*65
$GNGLL,0419.92268,S,05539.73842,E,121542.00,A,A*60
$GNRMC,121543.00,A,0419.92266,S,05539.73844,E,0.113,,260525,,,A*75
$GNVTG,,T,,M,0.113,N,0.209,K,A*35
$GNGGA,121543.00,0419.92266,S,05539.73844,E,1,11,0.90,56.4,M,-47.6,M,,*4A
$GNGSA,A,3,28,32,27,31,18,10,08,,,,,,1.61,0.90,1.33*1E
$GNGSA,A,3,83,84,70,69,,,,,,,,,1.61,0.90,1.33*1D
$GPGSV,4,1,16,08,12,314,27,10,15,008,26,16,24,235,12,18,33,092,24*78
$GPGSV,4,2,16,23,01,046,18,26,28,204,,27,47,302,27,28,53,142,32*73
$GPGSV,4,3,16,29,08,148,,31,39,182,21,32,52,001,42,36,52,277,*76
$GPGSV,4,4,16,40,84,353,28,41,58,082,33,49,32,274,,50,10,089,*73
$GLGSV,3,1,11,69,09,010,28,70,41,308,22,71,30,249,,73,16,188,*6B
$GLGSV,3,2,11,74,01,228,,80,13,134,,82,09,145,,83,49,109,31*6D
$GLGSV,3,3,11,84,45,016,19,85,05,343,19,,,,34*64
$GNGLL,0419.92266,S,05539.73844,E,121543.00,A,A*69
$GNRMC,121545.00,A,0419.92264,S,05539.73844,E,0.049,,260525,,,A*7F
$GNVTG,,T,,M,0.049,N,0.091,K,A*38
$GNGGA,121545.00,0419.92264,S,05539.73844,E,1,11,0.90,56.3,M,-47.6,M,,*49
$GNGSA,A,3,28,32,27,31,18,10,08,,,,,,1.61,0.90,1.33*1E
$GNGSA,A,3,83,84,70,69,,,,,,,,,1.61,0.90,1.33*1D
$GPGSV,4,1,16,08,12,314,29,10,15,008,31,16,24,235,08,18,33,092,22*7D
$GPGSV,4,2,16,23,01,046,19,26,28,204,,27,47,302,29,28,53,142,32*7C
$GPGSV,4,3,16,29,08,148,,31,39,182,22,32,52,001,43,36,52,277,*74
$GPGSV,4,4,16,40,84,353,28,41,58,082,32,49,32,274,,50,10,089,*72
$GLGSV,3,1,11,69,09,010,29,70,41,308,22,71,30,249,,73,16,188,*6A
$GLGSV,3,2,11,74,01,228,,80,13,134,,82,09,145,,83,49,109,29*64
$GLGSV,3,3,11,84,45,016,20,85,05,343,21,,,,37*66
$GNGLL,0419.92264,S,05539.73844,E,121545.00,A,A*6D
$GNRMC,121546.00,A,0419.92260,S,05539.73850,E,0.045,,260525,,,A*71
$GNVTG,,T,,M,0.045,N,0.083,K,A*37
$GNGGA,121546.00,0419.92260,S,05539.73850,E,1,11,0.90,56.4,M,-47.6,M,,*4C
$GNGSA,A,3,28,32,27,31,18,10,08,,,,,,1.61,0.90,1.33*1E
$GNGSA,A,3,83,84,70,69,,,,,,,,,1.61,0.90,1.33*1D
$GPGSV,4,1,16,08,12,314,30,10,15,008,29,16,24,234,08,18,33,092,19*75
$GPGSV,4,2,16,23,01,046,19,26,28,204,,27,47,302,19,28,53,142,32*7F
$GPGSV,4,3,16,29,08,148,,31,39,182,22,32,52,001,42,36,52,277,*75
$GPGSV,4,4,16,40,84,353,30,41,58,082,33,49,32,274,,50,10,089,*7A
$GLGSV,3,1,11,69,09,010,29,70,41,308,21,71,30,249,,73,16,188,*69
$GLGSV,3,2,11,74,01,228,,80,13,134,,82,09,145,,83,49,109,30*6C
$GLGSV,3,3,11,84,45,016,21,85,05,343,20,,,,36*67
$GNGLL,0419.92260,S,05539.73850,E,121546.00,A,A*6F
$GNRMC,121548.00,A,0419.92249,S,05539.73864,E,0.071,,260525,,,A*74
$GNVTG,,T,,M,0.071,N,0.131,K,A*38
$GNGGA,121548.00,0419.92249,S,05539.73864,E,1,11,0.90,56.3,M,-47.6,M,,*49
$GNGSA,A,3,28,32,27,31,18,10,08,,,,,,1.61,0.90,1.33*1E
$GNGSA,A,3,83,84,70,69,,,,,,,,,1.61,0.90,1.33*1D
$GPGSV,4,1,16,08,12,314,29,10,15,008,27,16,24,234,08,18,33,092,22*7B
$GPGSV,4,2,16,23,01,046,21,26,28,204,,27,47,302,19,28,53,142,34*72
$GPGSV,4,3,16,29,08,148,,31,39,182,25,32,52,001,43,36,52,277,*73
$GPGSV,4,4,16,40,84,353,32,41,58,082,35,49,32,274,,50,10,089,*7E
$GLGSV,3,1,11,69,09,010,29,70,41,308,22,71,30,249,,73,16,188,*6A
$GLGSV,3,2,11,74,01,228,,80,13,134,,82,09,145,,83,49,109,28*65
$GLGSV,3,3,11,84,45,016,21,85,05,343,22,,,,35*66
$GNGLL,0419.92249,S,05539.73864,E,121548.00,A,A*6D
$GNRMC,121550.00,A,0419.92244,S,05539.73870,E,0.109,,260525,,,A*7B
$GNVTG,,T,,M,0.109,N,0.201,K,A*36
$GNGGA,121550.00,0419.92244,S,05539.73870,E,1,12,0.90,56.5,M,-47.6,M,,*4D
$GNGSA,A,3,28,32,27,31,18,16,10,08,,,,,1.61,0.90,1.33*19
$GNGSA,A,3,83,84,70,69,,,,,,,,,1.61,0.90,1.33*1D
$GPGSV,4,1,16,08,12,314,28,10,15,008,26,16,24,234,10,18,33,092,26*76
$GPGSV,4,2,16,23,01,046,,26,28,204,12,27,47,302,25,28,53,142,34*7D
$GPGSV,4,3,16,29,08,148,,31,39,182,25,32,52,001,43,36,52,277,*73
$GPGSV,4,4,16,40,84,353,33,41,58,082,35,49,32,274,,50,10,089,*7F
$GLGSV,3,1,11,69,09,010,29,70,41,308,23,71,30,249,,73,16,188,*6B
$GLGSV,3,2,11,74,01,228,,80,13,134,,82,09,145,,83,49,109,29*64
$GLGSV,3,3,11,84,45,016,20,85,05,343,22,,,,35*67
$GNGLL,0419.92244,S,05539.73870,E,121550.00,A,A*6C
$GNRMC,121551.00,A,0419.92242,S,05539.73868,E,0.048,,260525,,,A*71
$GNVTG,,T,,M,0.048,N,0.088,K,A*31
$GNGGA,121551.00,0419.92242,S,05539.73868,E,1,11,0.90,56.5,M,-47.6,M,,*40
$GNGSA,A,3,28,32,27,31,18,10,08,,,,,,1.61,0.90,1.33*1E
$GNGSA,A,3,83,84,70,69,,,,,,,,,1.61,0.90,1.33*1D
$GPGSV,4,1,16,08,12,314,27,10,15,008,26,16,24,234,09,18,33,092,25*72
$GPGSV,4,2,16,23,01,046,,26,28,204,10,27,47,302,22,28,53,142,32*7E
$GPGSV,4,3,16,29,08,148,,31,39,182,25,32,52,001,44,36,52,277,*74
$GPGSV,4,4,16,40,84,353,32,41,58,082,34,49,32,274,,50,10,089,*7F
$GLGSV,3,1,11,69,09,010,28,70,41,308,24,71,30,249,,73,16,188,*6D
$GLGSV,3,2,11,74,01,228,,80,13,134,,82,09,145,,83,49,109,30*6C
$GLGSV,3,3,11,84,45,016,19,85,05,343,22,,,,36*6E
$GNGLL,0419.92242,S,05539.73868,E,121551.00,A,A*62
$GNRMC,121552.00,A,0419.92240,S,05539.73868,E,0.085,,260525,,,A*71
$GNVTG,,T,,M,0.085,N,0.157,K,A*33
$GNGGA,121552.00,0419.92240,S,05539.73868,E,1,11,0.90,56.5,M,-47.6,M,,*41
$GNGSA,A,3,28,32,27,31,18,10,08,,,,,,1.61,0.90,1.33*1E
$GNGSA,A,3,83,84,70,69,,,,,,,,,1.61,0.90,1.33*1D
$GPGSV,4,1,16,08,12,314,27,10,15,008,26,16,24,234,,18,33,092,26*78
$GPGSV,4,2,16,23,01,046,,26,28,204,12,27,47,302,22,28,53,142,32*7C
$GPGSV,4,3,16,29,08,148,,31,39,182,25,32,52,001,44,36,52,277,*74
$GPGSV,4,4,16,40,84,353,32,41,58,082,36,49,32,274,,50,10,089,*7D
$GLGSV,3,1,11,69,09,010,28,70,41,308,24,71,30,249,,73,16,188,*6D
$GLGSV,3,2,11,74,01,228,,80,13,134,,82,09,145,,83,49,109,30*6C
$GLGSV,3,3,11,84,45,016,19,85,05,343,21,,,,36*6D
$GNGLL,0419.92240,S,05539.73868,E,121552.00,A,A*63
$GNRMC,121553.00,A,0419.92240,S,05539.73868,E,0.060,,260525,,,A*7B
$GNVTG,,T,,M,0.060,N,0.111,K,A*3A
$GNGGA,121553.00,0419.92240,S,05539.73868,E,1,11,0.90,56.4,M,-47.6,M,,*41
$GNGSA,A,3,28,32,27,31,18,10,08,,,,,,1.61,0.90,1.33*1E
$GNGSA,A,3,83,84,70,69,,,,,,,,,1.61,0.90,1.33*1D
$GPGSV,4,1,16,08,12,314,27,10,15,008,27,16,24,234,,18,33,092,26*79
$GPGSV,4,2,16,23,01,046,,26,28,204,13,27,47,302,21,28,53,142,32*7E
$GPGSV,4,3,16,29,08,148,,31,39,182,26,32,52,001,44,36,52,277,*77
$GPGSV,4,4,16,40,84,353,32,41,58,082,33,49,32,274,,50,10,089,*78
$GLGSV,3,1,11,69,09,010,28,70,41,308,24,71,30,249,,73,16,188,*6D
$GLGSV,3,2,11,74,01,228,,80,13,134,,82,09,145,,83,49,109,31*6D
$GLGSV,3,3,11,84,45,016,19,85,05,343,21,,,,36*6D
$GNGLL,0419.92240,S,05539.73868,E,121553.00,A,A*62
$GNRMC,121554.00,A,0419.92238,S,05539.73867,E,0.085,,260525,,,A*77
$GNVTG,,T,,M,0.085,N,0.157,K,A*33
$GNGGA,121554.00,0419.92238,S,05539.73867,E,1,11,0.96,56.3,M,-47.6,M,,*47
$GNGSA,A,3,28,32,27,31,18,10,08,,,,,,1.85,0.96,1.58*1F
$GNGSA,A,3,83,84,70,69,,,,,,,,,1.85,0.96,1.58*1C
$GPGSV,4,1,16,08,12,314,27,10,15,008,28,16,24,234,,18,33,092,26*76
$GPGSV,4,2,16,23,01,046,,26,28,204,14,27,47,302,23,28,53,142,32*7B
$GPGSV,4,3,16,29,08,148,,31,39,182,25,32,52,001,44,36,52,277,*74
$GPGSV,4,4,16,40,84,353,33,41,58,082,32,49,32,274,,50,10,089,*78
$GLGSV,3,1,11,69,09,010,28,70,41,308,24,71,30,249,,73,16,188,*6D
$GLGSV,3,2,11,74,01,228,,80,13,134,,82,09,145,,83,49,109,32*6E
$GLGSV,3,3,11,84,45,016,19,85,05,343,22,,,,35*6D
$GNGLL,0419.92238,S,05539.73867,E,121554.00,A,A*65
$GNRMC,121555.00,A,0419.92235,S,05539.73866,E,0.068,,260525,,,A*79
$GNVTG,,T,,M,0.068,N,0.126,K,A*36
$GNGGA,121555.00,0419.92235,S,05539.73866,E,1,11,0.96,56.2,M,-47.6,M,,*4B
$GNGSA,A,3,28,32,27,31,18,10,08,,,,,,1.85,0.96,1.58*1F
$GNGSA,A,3,83,84,70,69,,,,,,,,,1.85,0.96,1.58*1C
$GPGSV,4,1,16,08,12,314,27,10,15,008,26,16,24,234,,18,33,092,25*7B
$GPGSV,4,2,16,23,01,046,,26,28,203,14,27,47,302,20,28,53,142,31*7C
$GPGSV,4,3,16,29,08,148,,31,39,182,24,32,52,001,43,36,52,277,*72
$GPGSV,4,4,16,40,84,353,31,41,58,082,31,49,32,274,,50,10,089,*79
$GLGSV,3,1,11,69,09,010,28,70,41,308,24,71,30,249,,73,16,188,*6D
$GLGSV,3,2,11,74,01,228,,80,13,134,,82,09,145,,83,49,109,32*6E
$GLGSV,3,3,11,84,45,016,19,85,05,343,22,,,,35*6D
$GNGLL,0419.92235,S,05539.73866,E,121555.00,A,A*68
$GNRMC,121556.00,A,0419.92233,S,05539.73866,E,0.118,,260525,,,A*7A
$GNVTG,,T,,M,0.118,N,0.218,K,A*3E
$GNGGA,121556.00,0419.92233,S,05539.73866,E,1,11,0.96,56.2,M,-47.6,M,,*4E
$GNGSA,A,3,28,32,27,31,18,10,08,,,,,,1.85,0.96,1.58*1F
$GNGSA,A,3,83,84,70,69,,,,,,,,,1.85,0.96,1.58*1C
$GPGSV,4,1,16,08,12,314,27,10,15,008,24,16,24,234,,18,33,092,25*79
$GPGSV,4,2,16,23,01,046,,26,28,203,,27,48,302,16,28,53,142,31*73
$GPGSV,4,3,16,29,08,148,,31,39,182,23,32,52,001,42,36,52,277,*74
$GPGSV,4,4,16,40,84,353,30,41,58,082,30,49,32,274,,50,10,089,*79
$GLGSV,3,1,11,69,09,010,28,70,41,308,24,71,30,249,,73,16,188,*6D
$GLGSV,3,2,11,74,01,228,,80,13,134,,82,09,145,,83,49,109,32*6E
$GLGSV,3,3,11,84,45,016,20,85,05,343,20,,,,35*65
$GNGLL,0419.92233,S,05539.73866,E,121556.00,A,A*6D
$GNRMC,121557.00,A,0419.92232,S,05539.73864,E,0.169,,260525,,,A*7E
$GNVTG,,T,,M,0.169,N,0.314,K,A*35
$GNGGA,121557.00,0419.92232,S,05539.73864,E,1,11,0.96,56.1,M,-47.6,M,,*4F
$GNGSA,A,3,28,32,27,31,18,10,08,,,,,,1.85,0.96,1.58*1F
$GNGSA,A,3,83,84,70,69,,,,,,,,,1.85,0.96,1.58*1C
$GPGSV,4,1,16,08,12,314,27,10,15,008,25,16,24,234,,18,33,092,25*78
$GPGSV,4,2,16,23,01,046,,26,28,203,,27,48,302,14,28,53,141,31*72
$GPGSV,4,3,16,29,08,148,,31,39,182,22,32,52,001,43,36,52,277,*74
$GPGSV,4,4,16,40,84,353,29,41,58,082,31,49,32,274,,50,10,089,*70
$GLGSV,3,1,11,69,09,010,29,70,41,308,23,71,30,249,,73,16,188,*6B
$GLGSV,3,2,11,74,01,228,,80,13,134,,82,09,145,,83,49,109,31*6D
$GLGSV,3,3,11,84,45,016,20,85,05,343,19,,,,35*6F
$GNGLL,0419.92232,S,05539.73864,E,121557.00,A,A*6F
$GNRMC,121558.00,A,0419.92230,S,05539.73863,E,0.333,,260525,,,A*79
$GNVTG,,T,,M,0.333,N,0.616,K,A*3F
$GNGGA,121558.00,0419.92230,S,05539.73863,E,1,11,0.96,56.0,M,-47.6,M,,*44
$GNGSA,A,3,28,32,27,31,18,10,08,,,,,,1.85,0.96,1.58*1F
$GNGSA,A,3,83,84,70,69,,,,,,,,,1.85,0.96,1.58*1C
$GPGSV,4,1,16,08,12,314,27,10,15,008,25,16,24,234,,18,33,092,24*79
$GPGSV,4,2,16,23,01,046,,26,28,203,,27,48,302,17,28,53,141,31*71
$GPGSV,4,3,16,29,08,148,,31,39,182,22,32,52,001,42,36,52,277,*75
$GPGSV,4,4,16,40,84,353,27,41,58,082,30,49,32,274,,50,10,089,*7F
$GLGSV,3,1,11,69,09,010,29,70,41,308,23,71,30,249,,73,16,188,*6B
$GLGSV,3,2,11,74,01,228,,80,13,134,,82,09,145,,83,49,109,31*6D
$GLGSV,3,3,11,84,45,016,21,85,05,343,18,,,,36*6C
$GNGLL,0419.92230,S,05539.73863,E,121558.00,A,A*65
$GNRMC,121559.00,A,0419.92225,S,05539.73867,E,0.102,,260525,,,A*78
$GNVTG,,T,,M,0.102,N,0.188,K,A*3F
$GNGGA,121559.00,0419.92225,S,05539.73867,E,1,11,0.96,56.1,M,-47.6,M,,*44
$GNGSA,A,3,28,32,27,31,18,10,08,,,,,,1.85,0.96,1.58*1F
$GNGSA,A,3,83,84,70,69,,,,,,,,,1.85,0.96,1.58*1C
$GPGSV,4,1,16,08,12,314,28,10,15,008,26,16,24,234,,18,33,092,24*75
$GPGSV,4,2,16,23,01,046,,26,28,203,,27,48,302,20,28,53,141,32*76
$GPGSV,4,3,16,29,08,148,,31,39,182,23,32,52,001,43,36,52,277,*75
$GPGSV,4,4,16,40,84,353,29,41,58,082,31,49,32,274,,50,10,089,*70
$GLGSV,3,1,11,69,09,010,29,70,41,308,22,71,30,249,,73,16,188,*6A
$GLGSV,3,2,11,74,01,228,,80,13,134,,82,09,145,,83,49,109,30*6C
$GLGSV,3,3,11,84,45,016,19,85,05,343,18,,,,35*64
$GNGLL,0419.92225,S,05539.73867,E,121559.00,A,A*64
$GNRMC,121600.00,A,0419.92221,S,05539.73867,E,0.377,,260525,,,A*73
$GNVTG,,T,,M,0.377,N,0.697,K,A*36
$GNGGA,121600.00,0419.92221,S,05539.73867,E,1,11,0.96,56.3,M,-47.6,M,,*4D
$GNGSA,A,3,28,32,27,31,18,10,08,,,,,,1.85,0.96,1.58*1F
$GNGSA,A,3,83,84,70,69,,,,,,,,,1.85,0.96,1.58*1C
$GPGSV,4,1,16,08,12,314,31,10,15,008,27,16,24,234,,18,33,092,22*7A
$GPGSV,4,2,16,23,01,046,,26,28,203,,27,48,302,22,28,53,141,33*75
$GPGSV,4,3,16,29,08,148,,31,39,181,24,32,52,001,44,36,52,277,*76
$GPGSV,4,4,16,40,84,353,31,41,58,082,33,49,32,274,,50,10,089,*7B
$GLGSV,3,1,11,69,09,010,30,70,41,308,21,71,30,249,,73,16,188,*61
$GNGLL,0419.92214,S,05539.73881,E,121604.00,A,A*65
$GNVTG,,T,,M,0.186,N,0.344,K,A*31
$GNGGA,121605.00,0419.92212,S,05539.73887,E,1,12,0.90,56.0,M,-47.6,M,,*40
$GNGSA,A,3,28,32,27,31,18,26,10,08,,,,,1.61,0.90,1.33*1A
$GNGSA,A,3,83,84,70,69,,,,,,,,,1.61,0.90,1.33*1D
$GPGSV,4,1,16,08,12,314,27,10,15,008,25,16,24,234,,18,33,092,24*79
$GPGSV,4,2,16,23,01,046,,26,28,203,13,27,48,302,21,28,53,141,33*74
$GPGSV,4,3,16,29,08,148,,31,39,181,23,32,51,001,44,36,52,277,*72
$GPGSV,4,4,16,40,84,353,32,41,58,082,33,49,32,274,,50,10,089,*78
$GLGSV,3,1,11,69,09,010,28,70,41,308,23,71,30,249,,73,16,188,*6A
$GLGSV,3,2,11,74,01,228,,80,13,134,,82,09,145,,83,49,109,29*64
$GLGSV,3,3,11,84,45,016,18,85,05,343,13,,,,36*6D
$GNGLL,0419.92212,S,05539.73887,E,121605.00,A,A*64
$GNRMC,121606.00,A,0419.92211,S,05539.73888,E,0.116,,260525,,,A*72
$GNVTG,,T,,M,0.116,N,0.215,K,A*3D
$GNGGA,121606.00,0419.92211,S,05539.73888,E,1,11,0.90,56.0,M,-47.6,M,,*4C
$GNGSA,A,3,28,32,27,31,18,10,08,,,,,,1.61,0.90,1.33*1E
$GNGSA,A,3,83,84,70,69,,,,,,,,,1.61,0.90,1.33*1D
$GPGSV,4,1,16,08,12,314,28,10,15,008,25,16,24,234,,18,33,092,26*74
$GPGSV,4,2,16,23,01,046,,26,28,203,13,27,48,302,22,28,53,141,33*77
$GPGSV,4,3,16,29,08,148,,31,39,181,23,32,51,001,44,36,52,277,*72
$GPGSV,4,4,16,40,84,353,31,41,58,082,33,49,32,274,,50,10,089,*7B
$GLGSV,3,1,11,69,09,010,29,70,41,308,23,71,30,249,,73,16,188,*6B
$GLGSV,3,2,11,74,01,228,,80,13,134,,82,09,145,,83,49,109,28*65
$GLGSV,3,3,11,84,45,016,19,85,05,343,14,,,,37*6A
$GNGLL,0419.92211,S,05539.73888,E,121606.00,A,A*6B
$GNRMC,121607.00,A,0419.92212,S,05539.73889,E,0.047,,260525,,,A*74
$GNVTG,,T,,M,0.047,N,0.087,K,A*31
$GNGGA,121607.00,0419.92212,S,05539.73889,E,1,11,0.90,55.9,M,-47.6,M,,*45
$GNGSA,A,3,28,32,27,31,18,10,08,,,,,,1.61,0.90,1.33*1E
$GNGSA,A,3,83,84,70,69,,,,,,,,,1.61,0.90,1.33*1D
$GPGSV,4,1,16,08,12,314,28,10,15,008,25,16,24,234,,18,33,092,27*75
$GPGSV,4,2,16,23,01,046,,26,28,203,11,27,48,302,23,28,53,141,33*74
$GPGSV,4,3,16,29,08,148,14,31,39,181,23,32,51,001,44,36,52,277,*77
$GPGSV,4,4,16,40,84,353,30,41,58,082,33,49,32,274,,50,10,089,*7A
$GLGSV,3,1,11,69,09,010,29,70,41,308,23,71,30,249,,73,16,188,*6B
$GLGSV,3,2,11,74,01,228,,80,13,134,,82,09,145,,83,49,109,28*65
$GLGSV,3,3,11,84,45,016,20,85,05,343,15,,,,37*61
$GNGLL,0419.92212,S,05539.73889,E,121607.00,A,A*68
$GNRMC,121608.00,A,0419.92211,S,05539.73893,E,0.033,,260525,,,A*70
$GNVTG,,T,,M,0.033,N,0.061,K,A*3A
$GNGGA,121608.00,0419.92211,S,05539.73893,E,1,11,0.90,55.8,M,-47.6,M,,*43
$GNGSA,A,3,28,32,27,31,18,10,08,,,,,,1.61,0.90,1.33*1E
$GNGSA,A,3,83,84,70,69,,,,,,,,,1.61,0.90,1.33*1D
$GPGSV,4,1,16,08,12,314,28,10,15,008,26,16,24,234,,18,33,092,27*76
$GPGSV,4,2,16,23,01,046,,26,28,203,,27,48,302,23,28,53,141,33*74
$GPGSV,4,3,16,29,08,148,14,31,39,181,23,32,51,001,44,36,52,277,*77
$GPGSV,4,4,16,40,84,353,31,41,58,082,33,49,32,274,,50,10,089,*7B
$GLGSV,3,1,11,69,09,010,29,70,41,308,23,71,30,249,,73,16,188,*6B
$GLGSV,3,2,11,74,01,228,,80,13,134,,82,09,145,,83,49,109,28*65
$GLGSV,3,3,11,84,45,016,20,85,05,343,15,,,,37*61
$GNGLL,0419.92211,S,05539.73893,E,121608.00,A,A*6F
$GNRMC,121609.00,A,0419.92209,S,05539.73896,E,0.026,,260525,,,A*79
$GNVTG,,T,,M,0.026,N,0.048,K,A*35
$GNGGA,121609.00,0419.92209,S,05539.73896,E,1,11,0.90,55.8,M,-47.6,M,,*4E
$GNGSA,A,3,28,32,27,31,18,10,08,,,,,,1.61,0.90,1.33*1E
$GNGSA,A,3,83,84,70,69,,,,,,,,,1.61,0.90,1.33*1D
$GPGSV,4,1,16,08,12,314,28,10,15,008,27,16,24,234,,18,33,092,28*78
$GPGSV,4,2,16,23,01,046,,26,28,203,,27,48,302,24,28,53,141,33*73
$GPGSV,4,3,16,29,08,148,13,31,39,181,23,32,51,001,44,36,52,277,*70
$GPGSV,4,4,16,40,84,353,31,41,58,082,34,49,32,274,,50,10,089,*7C
$GLGSV,3,1,11,69,09,010,29,70,41,308,23,71,30,249,,73,16,188,*6B
$GLGSV,3,2,11,74,01,228,,80,13,134,,82,09,145,,83,49,109,29*64
$GLGSV,3,3,11,84,45,016,20,85,05,343,14,,,,37*60
$GNGLL,0419.92209,S,05539.73896,E,121609.00,A,A*62
$GNRMC,121610.00,A,0419.92207,S,05539.73897,E,0.043,,260525,,,A*7D
$GNVTG,,T,,M,0.043,N,0.079,K,A*34
$GNGGA,121610.00,0419.92207,S,05539.73897,E,1,11,0.96,55.8,M,-47.6,M,,*4F
$GNGSA,A,3,28,32,27,31,18,10,08,,,,,,1.85,0.96,1.58*1F
$GNGSA,A,3,83,84,70,69,,,,,,,,,1.85,0.96,1.58*1C
$GPGSV,4,1,16,08,12,314,28,10,15,008,27,16,24,234,,18,33,092,28*78
$GPGSV,4,2,16,23,01,046,,26,28,203,,27,48,302,24,28,53,141,33*73
$GPGSV,4,3,16,29,08,148,,31,39,181,22,32,51,001,44,36,52,277,*73
$GPGSV,4,4,16,40,84,353,30,41,58,082,33,49,32,274,,50,10,089,*7A
$GLGSV,3,1,11,69,09,010,29,70,41,308,24,71,30,249,,73,16,188,*6C
$GLGSV,3,2,11,74,01,228,,80,13,134,,82,09,145,,83,49,109,30*6C
$GLGSV,3,3,11,84,45,016,20,85,05,343,16,,,,38*6D
$GNGLL,0419.92207,S,05539.73897,E,121610.00,A,A*65
$GNRMC,121611.00,A,0419.92209,S,05539.73897,E,0.254,,260525,,,A*76
$GNVTG,,T,,M,0.254,N,0.471,K,A*3C
$GNGGA,121611.00,0419.92209,S,05539.73897,E,1,11,0.90,55.7,M,-47.6,M,,*49
$GNGSA,A,3,28,32,27,31,18,10,08,,,,,,1.61,0.90,1.33*1E
$GNGSA,A,3,83,84,70,69,,,,,,,,,1.61,0.90,1.33*1D
$GPGSV,4,1,16,08,12,314,28,10,15,008,27,16,24,234,,18,33,092,27*77
$GPGSV,4,2,16,23,01,046,,26,28,203,,27,48,302,22,28,53,141,33*75
$GPGSV,4,3,16,29,08,148,,31,39,181,22,32,51,001,45,36,52,277,*72
$GPGSV,4,4,16,40,84,353,31,41,58,082,33,49,32,274,,50,10,089,*7B
$GLGSV,3,1,11,69,09,010,29,70,41,308,25,71,30,249,,73,16,188,*6D
$GLGSV,3,2,11,74,01,228,,80,13,134,,82,09,145,,83,49,109,30*6C
$GLGSV,3,3,11,84,45,016,20,85,05,343,17,,,,38*6C
$GNGLL,0419.92209,S,05539.73897,E,121611.00,A,A*6A
$GNRMC,121613.00,A,0419.92206,S,05539.73905,E,0.201,,260525,,,A*71
$GNVTG,,T,,M,0.201,N,0.372,K,A*38
$GNGGA,121613.00,0419.92206,S,05539.73905,E,1,11,0.90,55.7,M,-47.6,M,,*4E
$GNGSA,A,3,28,32,27,31,18,10,08,,,,,,1.61,0.90,1.33*1E
$GNGSA,A,3,83,84,70,69,,,,,,,,,1.61,0.90,1.33*1D
$GPGSV,4,1,16,08,12,314,28,10,15,008,29,16,24,234,,18,33,092,27*79
$GPGSV,4,2,16,23,01,046,,26,28,203,,27,48,302,22,28,53,141,33*75
$GPGSV,4,3,16,29,08,148,,31,39,181,22,32,51,001,43,36,52,277,*74
$GPGSV,4,4,16,40,84,353,32,41,58,082,34,49,32,274,,50,10,089,*7F
