$GNRMC,120040.00,A,0419.92822,S,05539.74729,E,0.152,,260525,,,A*7E
$GNVTG,,T,,M,0.152,N,0.282,K,A*33
$GNGGA,120040.00,0419.92822,S,05539.74729,E,1,12,0.73,60.5,M,-47.6,M,,*4E
$GNGSA,A,3,32,28,27,31,18,10,29,,,,,,1.54,0.73,1.35*10
$GNGSA,A,3,83,70,84,71,69,73,82,80,,,,,1.54,0.73,1.35*10
$GPGSV,5,1,17,08,07,318,,10,16,002,34,16,25,242,20,18,33,083,37*7D
$GPGSV,5,2,17,23,02,040,35,25,00,123,19,26,29,211,23,27,42,310,35*7D
$GPGSV,5,3,17,28,48,151,36,29,14,148,21,31,34,186,32,32,58,359,42*71
$GPGSV,5,4,17,36,52,277,35,40,84,353,38,41,58,082,33,49,32,274,*71
$GPGSV,5,5,17,50,10,089,*4A
$GLGSV,3,1,10,69,15,007,38,70,46,298,29,71,28,240,12,73,15,195,12*6B
$GLGSV,3,2,10,74,00,235,,80,12,142,17,82,14,139,24,83,50,095,28*62
$GLGSV,3,3,10,84,37,012,29,,,,42*52
$GNGLL,0419.92822,S,05539.74729,E,120040.00,A,A*67
$GNRMC,120046.00,A,0419.92828,S,05539.74710,E,0.008,,260525,,,A*76
$GNVTG,,T,,M,0.008,N,0.015,K,A*31
$GNGGA,120046.00,0419.92828,S,05539.74710,E,1,12,0.62,60.0,M,-47.6,M,,*4D
$GNGSA,A,3,32,28,27,31,18,16,10,29,,,,,1.36,0.62,1.21*16
$GNGSA,A,3,83,70,84,71,69,73,82,,,,,,1.36,0.62,1.21*19
$GPGSV,5,1,17,08,07,318,28,10,16,002,38,16,25,242,19,18,33,083,42*73
$GPGSV,5,2,17,23,02,040,43,25,00,123,13,26,29,211,25,27,42,310,41*73
$GPGSV,5,3,17,28,48,151,41,29,14,148,23,31,34,186,37,32,58,359,45*71
$GPGSV,5,4,17,36,52,277,38,40,84,353,44,41,58,082,40,49,32,274,*73
$GPGSV,5,5,17,50,10,089,*4A
$GLGSV,3,1,10,69,15,007,37,70,46,298,31,71,28,240,12,73,15,195,16*69
$GLGSV,3,2,10,74,00,235,,80,12,142,,82,14,140,25,83,50,095,32*60
$GLGSV,3,3,10,84,37,012,29,,,,43*53
$GNGLL,0419.92828,S,05539.74710,E,120046.00,A,A*61
$GNRMC,120047.00,A,0419.92827,S,05539.74708,E,0.074,,260525,,,A*7A
$GNVTG,,T,,M,0.074,N,0.137,K,A*3B
$GNGGA,120047.00,0419.92827,S,05539.74708,E,1,12,0.67,60.0,M,-47.6,M,,*4F
$GNGSA,A,3,32,28,27,31,18,26,10,29,41,,,,1.31,0.67,1.12*12
$GNGSA,A,3,83,70,84,71,69,73,82,,,,,,1.31,0.67,1.12*1B
$GNRMC,120052.00,A,0419.92839,S,05539.74697,E,0.033,,260525,,,A*75
$GNVTG,,T,,M,0.033,N,0.060,K,A*3B
$GNGGA,120052.00,0419.92839,S,05539.74697,E,1,12,0.61,59.6,M,-47.6,M,,*49
$GNGSA,A,3,32,28,27,31,18,16,10,29,41,,,,1.26,0.61,1.11*12
$GNGSA,A,3,83,70,84,71,69,73,82,,,,,,1.26,0.61,1.11*18
$GPGSV,5,1,17,08,07,318,28,10,16,002,36,16,25,242,22,18,33,083,42*75
$GPGSV,5,2,17,23,02,040,39,25,00,123,,26,29,211,,27,42,310,41*7B
$GPGSV,5,3,17,28,48,151,40,29,14,148,17,31,34,186,34,32,58,359,44*75
$GPGSV,5,4,17,36,52,277,38,40,84,353,44,41,58,082,38,49,32,274,*7C
$GPGSV,5,5,17,50,10,089,*4A
$GLGSV,3,1,10,69,15,007,38,70,46,298,29,71,28,240,17,73,15,195,14*68
$GLGSV,3,2,10,74,00,235,,80,12,142,,82,14,140,25,83,50,095,31*63
$GLGSV,3,3,10,84,37,012,29,,,,43*53
$GNGLL,0419.92839,S,05539.74697,E,120052.00,A,A*6A
$GNRMC,120053.00,A,0419.92837,S,05539.74698,E,0.020,,260525,,,A*77
$GNVTG,,T,,M,0.020,N,0.037,K,A*3B
$GNGGA,120053.00,0419.92837,S,05539.74698,E,1,12,0.65,59.6,M,-47.6,M,,*4D
$GNGSA,A,3,32,28,27,31,18,16,10,29,41,,,,1.29,0.65,1.11*19
$GNGSA,A,3,83,70,84,69,73,82,,,,,,,1.29,0.65,1.11*15
$GPGSV,5,1,17,08,07,318,28,10,16,002,36,16,25,242,23,18,33,083,40*76
$GPGSV,5,2,17,23,02,040,38,25,00,123,,26,29,211,24,27,42,310,39*73
$GPGSV,5,3,17,28,48,151,40,29,14,148,15,31,34,186,34,32,58,359,45*76
$GPGSV,5,4,17,36,52,277,37,40,84,353,44,41,58,082,39,49,32,274,*72
$GPGSV,5,5,17,50,10,089,*4A
$GLGSV,3,1,10,69,15,007,38,70,46,298,28,71,28,240,,73,15,195,14*6F
$GLGSV,3,2,10,74,00,235,,80,12,142,,82,14,140,24,83,50,095,34*67
$GLGSV,3,3,10,84,37,012,29,,,,42*52
$GNGLL,0419.92837,S,05539.74698,E,120053.00,A,A*6A
$GNRMC,120059.00,A,0419.92851,S,05539.74686,E,0.038,,260525,,,A*7B
$GNVTG,,T,,M,0.038,N,0.070,K,A*31
$GNGGA,120059.00,0419.92851,S,05539.74686,E,1,12,0.82,59.1,M,-47.6,M,,*46
$GNGSA,A,3,32,28,27,31,18,10,29,41,,,,,1.45,0.82,1.19*15
$GNGSA,A,3,83,70,84,69,82,,,,,,,,1.45,0.82,1.19*1A
$GPGSV,5,1,17,08,07,318,27,10,16,003,36,16,25,242,18,18,33,083,40*70
$GPGSV,5,2,17,23,02,040,38,25,00,123,,26,29,211,,27,42,310,39*75
$GPGSV,5,3,17,28,48,151,41,29,14,148,21,31,34,186,36,32,58,359,44*73
$GPGSV,5,4,17,36,52,277,37,40,84,353,43,41,58,082,39,49,32,274,*75
$GPGSV,5,5,17,50,10,089,*4A
$GLGSV,3,1,10,69,15,007,38,70,46,298,30,71,28,240,,73,15,195,*63
$GLGSV,3,2,10,74,00,235,,80,12,142,,82,14,140,21,83,50,095,33*65
$GLGSV,3,3,10,84,37,012,29,,,,42*52
$GNGLL,0419.92851,S,05539.74686,E,120059.00,A,A*6F
$GNRMC,120101.00,A,0419.92857,S,05539.74681,E,0.055,,260525,,,A*7D
$GNRMC,120106.00,A,0419.92864,S,05539.74668,E,0.028,,260525,,,A*77
$GNVTG,,T,,M,0.028,N,0.052,K,A*30
$GNGGA,120106.00,0419.92864,S,05539.74668,E,1,12,0.82,58.6,M,-47.6,M,,*4D
$GNGSA,A,3,32,28,27,31,18,16,10,29,41,,,,1.45,0.82,1.19*12
$GNGSA,A,3,83,70,84,69,82,,,,,,,,1.45,0.82,1.19*1A
$GPGSV,5,1,17,08,07,318,30,10,16,003,35,16,25,241,22,18,33,084,39*76
$GPGSV,5,2,17,23,02,040,38,25,00,123,15,26,29,211,,27,42,310,39*71
$GPGSV,5,3,17,28,48,151,39,29,14,148,23,31,34,186,37,32,58,359,45*7E
$GPGSV,5,4,17,36,52,277,38,40,84,353,43,41,58,082,39,49,32,274,*7A
$GPGSV,5,5,17,50,10,089,*4A
$GLGSV,3,1,10,69,15,007,38,70,46,298,30,71,28,240,,73,15,195,*63
$GLGSV,3,2,10,74,00,235,,80,12,142,,82,14,140,19,83,50,095,37*6A
$GLGSV,3,3,10,84,37,012,30,,,,43*5B
$GNGLL,0419.92864,S,05539.74668,E,120106.00,A,A*62
$GNRMC,120107.00,A,0419.92865,S,05539.74667,E,0.043,,260525,,,A*75
$GNVTG,,T,,M,0.043,N,0.079,K,A*34
$GNGGA,120107.00,0419.92865,S,05539.74667,E,1,12,0.82,58.5,M,-47.6,M,,*41
$GNGSA,A,3,32,28,27,31,18,16,10,29,41,,,,1.45,0.82,1.19*12
$GNGSA,A,3,83,70,84,69,82,,,,,,,,1.45,0.82,1.19*1A
$GPGSV,5,1,17,08,07,318,29,10,16,003,36,16,25,241,22,18,33,084,39*7D
$GPGSV,5,2,17,23,02,040,39,25,00,123,15,26,29,211,,27,42,310,39*70
$GPGSV,5,3,17,28,48,151,39,29,14,148,23,31,34,186,37,32,58,359,45*7E
$GPGSV,5,4,17,36,52,277,38,40,84,353,43,41,58,082,39,49,32,274,*7A
$GPGSV,5,5,17,50,10,089,*4A
$GLGSV,3,1,10,69,15,007,37,70,46,298,30,71,28,240,,73,15,195,*6C
$GLGSV,3,2,10,74,00,235,,80,12,142,21,82,14,140,20,83,50,095,36*62
$GLGSV,3,3,10,84,37,012,30,,,,43*5B
$GNGLL,0419.92865,S,05539.74667,E,120107.00,A,A*6D
$GPGSV,5,2,17,23,02,040,40,25,00,123,14,26,29,211,,27,42,310,39*7F
$GPGSV,5,3,17,28,48,151,39,29,14,148,23,31,34,186,37,32,58,359,45*7E
$GPGSV,5,4,17,36,52,277,37,40,84,353,43,41,58,082,40,49,32,274,*7B
$GPGSV,5,5,17,50,10,089,*4A
$GLGSV,3,1,10,69,15,007,37,70,46,298,30,71,28,240,,73,15,195,*6C
$GLGSV,3,2,10,74,00,235,,80,12,142,22,82,14,140,22,83,50,095,36*63
$GLGSV,3,3,10,84,37,012,30,,,,43*5B
$GNGLL,0419.92867,S,05539.74664,E,120108.00,A,A*63
$GNRMC,120109.00,A,0419.92869,S,05539.74663,E,0.009,,260525,,,A*7D
$GNVTG,,T,,M,0.009,N,0.017,K,A*32
$GNGGA,120109.00,0419.92869,S,05539.74663,E,1,12,0.82,58.4,M,-47.6,M,,*46
$GNGSA,A,3,32,28,27,31,18,16,10,29,41,,,,1.45,0.82,1.19*12
$GNGSA,A,3,83,70,84,69,82,,,,,,,,1.45,0.82,1.19*1A
$GPGSV,5,1,17,08,07,318,30,10,16,003,36,16,25,241,22,18,33,084,40*7B
$GPGSV,5,2,17,23,02,040,41,25,00,123,15,26,29,211,,27,42,310,39*7F
$GPGSV,5,3,17,28,48,151,39,29,14,148,22,31,34,186,37,32,58,359,45*7F
$GPGSV,5,4,17,36,52,277,37,40,84,353,43,41,58,082,39,49,32,274,*75
$GPGSV,5,5,17,50,10,089,*4A
$GLGSV,3,1,10,69,15,007,37,70,46,298,30,71,28,240,,73,15,195,*6C
$GLGSV,3,2,10,74,00,235,,80,12,142,22,82,14,140,23,83,50,095,36*62
$GLGSV,3,3,10,84,37,012,30,,,,42*5A
$GNGLL,0419.92869,S,05539.74663,E,120109.00,A,A*6B
$GNRMC,120110.00,A,0419.92869,S,05539.74663,E,0.028,,260525,,,A*76
$GNVTG,,T,,M,0.028,N,0.052,K,A*30
$GNGGA,120110.00,0419.92869,S,05539.74663,E,1,12,0.81,58.3,M,-47.6,M,,*4A
$GNGSA,A,3,32,28,27,31,18,16,10,29,41,,,,1.40,0.81,1.15*18
$GNGSA,A,3,83,70,84,69,82,80,,,,,,,1.40,0.81,1.15*18
$GPGSV,5,1,17,08,07,318,29,10,16,003,36,16,25,241,23,18,33,084,39*7C
$GPGSV,5,2,17,23,02,040,40,25,00,123,13,26,29,211,,27,42,310,38*79
$GPGSV,5,3,17,28,48,151,38,29,14,148,20,31,34,186,37,32,58,359,44*7D
$GPGSV,5,4,17,36,52,277,36,40,84,353,42,41,58,082,39,49,32,274,*75
$GPGSV,5,5,17,50,10,089,*4A
$GLGSV,3,1,10,69,15,007,37,70,46,298,30,71,28,240,,73,15,195,*6C
$GLGSV,3,2,10,74,00,235,,80,12,142,21,82,14,140,23,83,50,095,36*61
$GLGSV,3,3,10,84,37,012,30,,,,42*5A
$GNGLL,0419.92869,S,05539.74663,E,120110.00,A,A*63
$GNRMC,120111.00,A,0419.92869,S,05539.74662,E,0.051,,260525,,,A*78
$GNVTG,,T,,M,0.051,N,0.094,K,A*34
$GNGGA,120111.00,0419.92869,S,05539.74662,E,1,12,0.81,58.4,M,-47.6,M,,*4D
$GNGSA,A,3,32,28,27,31,18,16,10,29,41,,,,1.40,0.81,1.15*18
$GNGSA,A,3,83,70,84,69,82,80,,,,,,,1.40,0.81,1.15*18
$GPGSV,5,1,17,08,07,318,29,10,16,003,36,16,25,241,23,18,33,084,39*7C
$GPGSV,5,2,17,23,02,040,42,25,00,123,11,26,29,211,,27,42,310,38*79
$GPGSV,5,3,17,28,48,151,38,29,14,148,19,31,34,186,37,32,58,359,44*77
$GPGSV,5,4,17,36,52,277,36,40,84,353,42,41,58,082,38,49,32,274,*74
$GPGSV,5,5,17,50,10,089,*4A
$GLGSV,3,1,10,69,15,007,37,70,46,298,30,71,28,240,,73,15,195,*6C
$GLGSV,3,2,10,74,00,235,,80,12,142,19,82,14,140,23,83,50,095,36*6A
$GLGSV,3,3,10,84,37,012,30,,,,43*5B
$GNGLL,0419.92869,S,05539.74662,E,120111.00,A,A*63
$GNRMC,120112.00,A,0419.92869,S,05539.74661,E,0.034,,260525,,,A*7B
$GNVTG,,T,,M,0.034,N,0.063,K,A*3F
$GNGGA,120112.00,0419.92869,S,05539.74661,E,1,12,0.82,58.4,M,-47.6,M,,*4E
$GNGSA,A,3,32,28,27,31,18,16,10,29,41,,,,1.45,0.82,1.19*12
$GNGSA,A,3,83,70,84,69,82,80,,,,,,,1.45,0.82,1.19*12
$GPGSV,5,1,17,08,07,318,28,10,16,003,36,16,25,241,23,18,33,084,39*7D
$GPGSV,5,2,17,23,02,040,42,25,00,123,,26,29,211,24,27,42,310,38*7F
$GPGSV,5,3,17,28,48,151,38,29,14,148,20,31,34,186,37,32,58,359,44*7D
$GPGSV,5,4,17,36,52,277,36,40,84,353,42,41,58,082,38,49,32,274,*74
$GPGSV,5,5,17,50,10,089,*4A
$GLGSV,3,1,10,69,15,007,37,70,46,298,29,71,28,240,,73,15,195,*64
$GLGSV,3,2,10,74,00,235,,80,12,142,19,82,14,140,21,83,50,095,35*6B
$GLGSV,3,3,10,84,37,012,29,,,,41*51
$GNGLL,0419.92869,S,05539.74661,E,120112.00,A,A*63
$GNRMC,120113.00,A,0419.92870,S,05539.74660,E,0.022,,260525,,,A*74
$GNVTG,,T,,M,0.022,N,0.040,K,A*39
$GNGGA,120113.00,0419.92870,S,05539.74660,E,1,12,0.82,58.4,M,-47.6,M,,*46
$GNGSA,A,3,32,28,27,31,18,16,10,29,41,,,,1.45,0.82,1.19*12
$GNGSA,A,3,83,70,84,69,82,80,,,,,,,1.45,0.82,1.19*12
$GPGSV,5,1,17,08,07,318,28,10,16,003,36,16,25,241,21,18,33,084,39*7F
$GPGSV,5,2,17,23,02,040,41,25,00,123,,26,29,210,24,27,42,310,38*7D
$GPGSV,5,3,17,28,48,151,38,29,14,148,21,31,34,186,36,32,58,359,44*7D
$GPGSV,5,4,17,36,52,277,36,40,84,353,42,41,58,082,38,49,32,274,*74
$GPGSV,5,5,17,50,10,089,*4A
$GLGSV,3,1,10,69,15,007,36,70,46,298,29,71,28,240,,73,15,195,*65
$GLGSV,3,2,10,74,00,235,,80,12,142,18,82,14,140,20,83,50,095,35*6B
$GLGSV,3,3,10,84,37,012,29,,,,41*51
$GNGLL,0419.92870,S,05539.74660,E,120113.00,A,A*6B
$GNRMC,120114.00,A,0419.92868,S,05539.74661,E,0.052,,260525,,,A*7C
$GNVTG,,T,,M,0.052,N,0.096,K,A*35
$GNGGA,120114.00,0419.92868,S,05539.74661,E,1,12,0.82,58.5,M,-47.6,M,,*48
$GNGSA,A,3,32,28,27,31,18,16,10,29,41,,,,1.45,0.82,1.19*12
$GNGSA,A,3,83,70,84,69,82,80,,,,,,,1.45,0.82,1.19*12
$GPGSV,5,1,17,08,07,318,29,10,16,003,36,16,25,241,19,18,33,084,39*75
$GPGSV,5,2,17,23,02,040,42,25,00,123,,26,29,210,23,27,43,309,38*70
$GPGSV,5,3,17,28,48,151,37,29,14,148,21,31,34,186,36,32,58,359,44*72
$GPGSV,5,4,17,36,52,277,36,40,84,353,42,41,58,082,39,49,32,274,*75
$GPGSV,5,5,17,50,10,089,*4A
$GLGSV,3,1,10,69,15,007,36,70,46,298,29,71,28,240,,73,15,195,*65
$GLGSV,3,2,10,74,00,235,,80,12,142,17,82,14,140,18,83,50,095,34*6E
$GLGSV,3,3,10,84,37,012,28,,,,41*50
$GNGLL,0419.92868,S,05539.74661,E,120114.00,A,A*64
$GNRMC,120115.00,A,0419.92868,S,05539.74661,E,0.019,,260525,,,A*72
$GNVTG,,T,,M,0.019,N,0.036,K,A*30
$GNGGA,120115.00,0419.92868,S,05539.74661,E,1,12,0.72,58.5,M,-47.6,M,,*46
$GNGSA,A,3,32,28,27,31,18,26,16,10,29,41,,,1.38,0.72,1.17*1D
$GNGSA,A,3,83,70,84,69,82,80,,,,,,,1.38,0.72,1.17*19
$GPGSV,5,1,17,08,07,318,29,10,16,003,36,16,25,241,17,18,33,084,39*7B
$GPGSV,5,2,17,23,02,040,41,25,00,123,,26,29,210,23,27,43,309,38*73
$GPGSV,5,3,17,28,49,150,36,29,14,148,22,31,34,186,36,32,58,359,44*70
$GPGSV,5,4,17,36,52,277,36,40,84,353,41,41,58,082,39,49,32,274,*76
$GPGSV,5,5,17,50,10,089,*4A
$GLGSV,3,1,10,69,15,007,36,70,46,298,29,71,28,240,,73,15,195,*65
$GLGSV,3,2,10,74,00,235,,80,12,142,15,82,14,140,17,83,50,095,34*63
$GLGSV,3,3,10,84,37,012,28,,,,41*50
$GNGLL,0419.92868,S,05539.74661,E,120115.00,A,A*65
$GNRMC,120116.00,A,0419.92869,S,05539.74660,E,0.054,,260525,,,A*78
$GNVTG,,T,,M,0.054,N,0.101,K,A*3C
$GNGGA,120116.00,0419.92869,S,05539.74660,E,1,12,0.82,58.4,M,-47.6,M,,*4B
$GNGSA,A,3,32,28,27,31,18,10,29,41,,,,,1.45,0.82,1.19*15
$GNGSA,A,3,83,70,84,69,82,80,,,,,,,1.45,0.82,1.19*12
$GPGSV,5,1,17,08,07,318,26,10,16,003,35,16,25,241,,18,33,084,39*71
$GPGSV,5,2,17,23,02,040,39,25,00,123,,26,29,210,,27,43,309,38*7D
$GPGSV,5,3,17,28,49,150,35,29,13,148,20,31,34,186,35,32,58,359,43*72
$GPGSV,5,4,17,36,52,277,36,40,84,353,40,41,58,082,39,49,32,274,*77
$GPGSV,5,5,17,50,10,089,*4A
$GLGSV,3,1,10,69,15,007,40,70,46,298,32,71,28,240,,73,15,195,*6E
$GLGSV,3,2,10,74,00,235,,80,12,142,14,82,14,140,14,83,50,095,36*63
$GLGSV,3,3,10,84,37,012,31,,,,43*5A
$GNGLL,0419.92869,S,05539.74660,E,120116.00,A,A*66
$GNRMC,120117.00,A,0419.92870,S,05539.74658,E,0.116,,260525,,,A*7D
$GNVTG,,T,,M,0.116,N,0.214,K,A*3C
$GNGGA,120117.00,0419.92870,S,05539.74658,E,1,12,0.82,58.4,M,-47.6,M,,*49
$GNGSA,A,3,32,28,27,31,18,10,29,41,,,,,1.45,0.82,1.19*15
$GNGSA,A,3,83,70,84,69,82,80,,,,,,,1.45,0.82,1.19*12
$GPGSV,5,1,17,08,07,318,27,10,16,003,35,16,25,241,,18,33,084,38*71
$GPGSV,5,2,17,23,02,040,38,25,00,123,,26,29,210,,27,43,309,38*7C
$GPGSV,5,3,17,28,49,150,35,29,13,148,22,31,34,186,35,32,58,359,43*70
$GPGSV,5,4,17,36,52,277,36,40,84,353,41,41,58,082,38,49,32,274,*77
$GPGSV,5,5,17,50,10,089,*4A
$GLGSV,3,1,10,69,15,007,38,70,46,298,32,71,28,240,,73,15,195,*61
$GLGSV,3,2,10,74,00,235,,80,12,142,16,82,14,140,16,83,50,095,36*63
$GLGSV,3,3,10,84,37,012,30,,,,43*5B
$GNGLL,0419.92870,S,05539.74658,E,120117.00,A,A*64
$GNRMC,120118.00,A,0419.92870,S,05539.74659,E,0.026,,260525,,,A*71
$GNVTG,,T,,M,0.026,N,0.049,K,A*34
$GNGGA,120118.00,0419.92870,S,05539.74659,E,1,12,0.82,58.4,M,-47.6,M,,*47
$GNGSA,A,3,32,28,27,31,18,10,29,41,,,,,1.45,0.82,1.19*15
$GNGSA,A,3,83,70,84,69,82,80,,,,,,,1.45,0.82,1.19*12
$GPGSV,5,1,17,08,07,318,27,10,16,003,35,16,25,241,,18,33,084,38*71
$GPGSV,5,2,17,23,02,040,40,25,00,123,,26,29,210,,27,43,309,37*7C
$GPGSV,5,3,17,28,49,150,35,29,13,148,22,31,34,186,35,32,58,359,43*70
$GPGSV,5,4,17,36,52,277,37,40,84,353,41,41,58,082,38,49,32,274,*76
$GPGSV,5,5,17,50,10,089,*4A
$GLGSV,3,1,10,69,15,007,37,70,46,298,31,71,28,240,,73,15,195,*6D
$GLGSV,3,2,10,74,00,235,,80,12,142,16,82,14,140,17,83,50,095,36*62
$GLGSV,3,3,10,84,37,012,30,,,,43*5B
$GNGLL,0419.92870,S,05539.74659,E,120118.00,A,A*6A
$GNRMC,120119.00,A,0419.92871,S,05539.74658,E,0.014,,260525,,,A*71
$GNVTG,,T,,M,0.014,N,0.026,K,A*3C
$GNGGA,120119.00,0419.92871,S,05539.74658,E,1,12,0.82,58.5,M,-47.6,M,,*47
$GNGSA,A,3,32,28,27,31,18,10,29,41,,,,,1.45,0.82,1.19*15
$GNGSA,A,3,83,70,84,69,82,80,,,,,,,1.45,0.82,1.19*12
$GPGSV,5,1,17,08,07,318,27,10,16,003,35,16,25,241,21,18,33,084,38*72
$GPGSV,5,2,17,23,02,040,42,25,00,123,,26,29,210,23,27,43,309,37*7F
$GPGSV,5,3,17,28,49,150,37,29,13,148,22,31,34,186,36,32,58,359,42*70
$GPGSV,5,4,17,36,52,277,37,40,84,353,41,41,58,082,38,49,32,274,*76
$GPGSV,5,5,17,50,10,089,*4A
$GLGSV,3,1,10,69,15,007,35,70,46,298,31,71,28,240,,73,15,195,*6F
$GLGSV,3,2,10,74,00,235,,80,12,142,14,82,14,140,19,83,50,095,35*6D
$GLGSV,3,3,10,84,37,012,29,,,,41*51
$GNGLL,0419.92871,S,05539.74658,E,120119.00,A,A*6B
$GNRMC,120120.00,A,0419.92871,S,05539.74659,E,0.010,,260525,,,A*7E
$GNVTG,,T,,M,0.010,N,0.018,K,A*35
$GNGGA,120120.00,0419.92871,S,05539.74659,E,1,12,0.72,58.5,M,-47.6,M,,*43
$GNGSA,A,3,32,28,27,31,18,26,10,29,41,,,,1.38,0.72,1.17*1A
$GNGSA,A,3,83,70,84,69,82,80,,,,,,,1.38,0.72,1.17*19
$GPGSV,5,1,17,08,07,318,27,10,16,003,35,16,25,241,21,18,33,084,38*72
$GPGSV,5,2,17,23,02,040,42,25,00,123,,26,29,210,23,27,43,309,36*7E
$GPGSV,5,3,17,28,49,150,37,29,13,148,22,31,34,186,36,32,58,359,42*70
$GPGSV,5,4,17,36,52,277,37,40,84,353,42,41,58,082,38,49,32,274,*75
$GPGSV,5,5,17,50,10,089,*4A
$GLGSV,3,1,10,69,15,007,37,70,46,298,31,71,28,240,,73,15,195,*6D
$GLGSV,3,2,10,74,00,235,,80,12,142,13,82,14,140,20,83,50,095,38*6D
$GLGSV,3,3,10,84,37,012,29,,,,42*52
$GNGLL,0419.92871,S,05539.74659,E,120120.00,A,A*60
$GNRMC,120121.00,A,0419.92870,S,05539.74660,E,0.033,,260525,,,A*75
$GNVTG,,T,,M,0.033,N,0.061,K,A*3A
$GNGGA,120121.00,0419.92870,S,05539.74660,E,1,12,0.64,58.6,M,-47.6,M,,*4D
$GNGSA,A,3,32,28,27,31,18,26,16,10,29,41,,,1.31,0.64,1.14*10
$GNGSA,A,3,83,70,84,69,82,80,,,,,,,1.31,0.64,1.14*14
$GPGSV,5,1,17,08,07,318,27,10,16,003,35,16,25,241,21,18,33,084,38*72
$GPGSV,5,2,17,23,02,040,42,25,00,123,,26,29,210,24,27,43,309,36*79
$GPGSV,5,3,17,28,49,150,38,29,13,148,21,31,34,186,36,32,58,359,42*7C
$GPGSV,5,4,17,36,52,277,37,40,84,353,42,41,58,082,37,49,32,274,*7A
$GPGSV,5,5,17,50,10,089,*4A
$GLGSV,3,1,10,69,15,007,37,70,46,298,30,71,28,240,,73,15,195,*6C
$GLGSV,3,2,10,74,00,235,,80,12,142,11,82,14,140,21,83,50,095,35*63
$GLGSV,3,3,10,84,37,012,28,,,,41*50
$GNGLL,0419.92870,S,05539.74660,E,120121.00,A,A*6A
$GNRMC,120122.00,A,0419.92869,S,05539.74661,E,0.083,,260525,,,A*74
$GNVTG,,T,,M,0.083,N,0.155,K,A*37
$GNGGA,120122.00,0419.92869,S,05539.74661,E,1,12,0.64,58.6,M,-47.6,M,,*47
$GNGSA,A,3,32,28,27,31,18,26,16,10,29,41,,,1.31,0.64,1.14*10
$GNGSA,A,3,83,70,84,69,82,80,,,,,,,1.31,0.64,1.14*14
$GPGSV,5,1,17,08,07,318,26,10,16,003,35,16,25,241,20,18,33,084,38*72
$GPGSV,5,2,17,23,02,040,42,25,00,123,,26,29,210,23,27,43,309,36*7E
$GPGSV,5,3,17,28,49,150,38,29,13,148,21,31,34,186,37,32,58,359,42*7D
$GPGSV,5,4,17,36,52,277,37,40,84,353,42,41,58,082,37,49,32,274,*7A
$GPGSV,5,5,17,50,10,089,*4A
$GLGSV,3,1,10,69,15,007,38,70,46,298,31,71,28,240,,73,15,195,*62
$GLGSV,3,2,10,74,00,235,,80,12,142,13,82,14,140,20,83,50,095,36*63
$GLGSV,3,3,10,84,37,012,28,,,,42*53
$GNGLL,0419.92869,S,05539.74661,E,120122.00,A,A*60
$GPGSV,5,3,17,28,49,150,37,29,13,148,21,31,34,186,36,32,58,359,42*73
$GPGSV,5,4,17,36,52,277,37,40,84,353,41,41,58,082,36,49,32,274,*78
$GPGSV,5,5,17,50,10,089,*4A
$GLGSV,3,1,10,69,15,007,38,70,46,298,32,71,28,240,,73,15,195,*61
$GLGSV,3,2,10,74,00,235,,80,12,142,14,82,14,140,19,83,50,095,37*6F
$GLGSV,3,3,10,84,37,012,29,,,,42*52
$GNGLL,0419.92869,S,05539.74661,E,120123.00,A,A*61
$GLGSV,3,2,10,74,00,235,,80,12,142,16,82,14,140,19,83,50,095,36*6C
$GLGSV,3,3,10,84,37,012,29,,,,41*51
$GNGLL,0419.92868,S,05539.74662,E,120124.00,A,A*64
$GNGGA,120125.00,0419.92867,S,05539.74661,E,1,12,0.72,58.7,M,-47.6,M,,*48
$GNGSA,A,3,32,28,27,31,18,26,16,10,29,41,,,1.38,0.72,1.17*1D
$GNGSA,A,3,83,70,84,69,82,80,,,,,,,1.38,0.72,1.17*19
$GPGSV,5,1,17,08,07,318,26,10,16,003,34,16,25,241,15,18,33,084,38*75
$GPGSV,5,2,17,23,02,040,38,25,00,123,,26,29,210,21,27,43,309,35*72
$GPGSV,5,3,17,28,49,150,35,29,13,148,21,31,34,186,34,32,58,359,40*71
$GPGSV,5,4,17,36,52,277,36,40,84,353,40,41,58,082,36,49,32,274,*78
$GPGSV,5,5,17,50,10,089,*4A
$GLGSV,3,1,10,69,15,007,36,70,46,298,31,71,28,240,,73,15,195,*6C
$GLGSV,3,2,10,74,00,235,,80,12,142,17,82,14,140,18,83,50,095,36*6C
$GLGSV,3,3,10,84,37,012,29,,,,41*51
$GNGLL,0419.92867,S,05539.74661,E,120125.00,A,A*69
$GNRMC,120126.00,A,0419.92866,S,05539.74662,E,0.019,,260525,,,A*7F
$GNVTG,,T,,M,0.019,N,0.035,K,A*33
$GNGGA,120126.00,0419.92866,S,05539.74662,E,1,12,0.72,58.8,M,-47.6,M,,*46
$GNGSA,A,3,32,28,27,31,18,26,16,10,29,41,,,1.37,0.72,1.17*12
$GNGSA,A,3,83,70,84,69,82,80,,,,,,,1.37,0.72,1.17*16
$GPGSV,5,1,17,08,07,318,26,10,16,003,35,16,25,241,14,18,33,084,39*74
$GPGSV,5,2,17,23,02,040,38,25,00,123,,26,29,210,21,27,43,309,35*72
$GPGSV,5,3,17,28,49,150,35,29,13,148,21,31,34,186,35,32,58,359,40*70
$GPGSV,5,4,17,36,52,277,37,40,84,353,40,41,58,082,36,49,32,274,*79
$GPGSV,5,5,17,50,10,089,*4A
$GLGSV,3,1,10,69,15,007,36,70,46,298,32,71,28,240,,73,15,195,*6F
$GLGSV,3,2,10,74,00,235,,80,12,142,18,82,14,140,19,83,50,095,36*62
$GLGSV,3,3,10,84,37,012,28,,,,42*53
$GNGLL,0419.92866,S,05539.74662,E,120126.00,A,A*68
$GNRMC,120127.00,A,0419.92864,S,05539.74662,E,0.021,,260525,,,A*77
$GNVTG,,T,,M,0.021,N,0.038,K,A*35
$GNGGA,120127.00,0419.92864,S,05539.74662,E,1,12,0.72,58.8,M,-47.6,M,,*45
$GNGSA,A,3,32,28,27,31,18,26,16,10,29,41,,,1.37,0.72,1.17*12
$GNGSA,A,3,83,70,84,69,82,80,,,,,,,1.37,0.72,1.17*16
$GPGSV,5,1,17,08,07,318,27,10,16,003,35,16,25,241,14,18,33,084,39*75
$GPGSV,5,2,17,23,02,040,39,25,00,123,,26,29,210,21,27,43,309,36*70
$GPGSV,5,3,17,28,49,150,36,29,13,148,21,31,34,186,35,32,58,359,40*73
$GPGSV,5,4,17,36,52,277,37,40,84,353,40,41,58,082,37,49,32,274,*78
$GPGSV,5,5,17,50,10,089,*4A
$GLGSV,3,1,10,69,15,007,37,70,46,298,32,71,28,240,,73,15,195,*6E
$GLGSV,3,2,10,74,00,235,,80,12,142,18,82,14,140,19,83,50,095,36*62
$GLGSV,3,3,10,84,37,012,29,,,,42*52
$GNGLL,0419.92864,S,05539.74662,E,120127.00,A,A*6B
$GNRMC,120128.00,A,0419.92864,S,05539.74662,E,0.030,,260525,,,A*78
$GNVTG,,T,,M,0.030,N,0.056,K,A*3D
$GNGGA,120128.00,0419.92864,S,05539.74662,E,1,12,0.72,58.9,M,-47.6,M,,*4B
$GNGSA,A,3,32,28,27,31,18,26,16,10,29,41,,,1.37,0.72,1.17*12
$GNGSA,A,3,83,70,84,69,82,80,,,,,,,1.37,0.72,1.17*16
$GPGSV,5,1,17,08,07,318,28,10,16,003,36,16,25,241,16,18,33,084,38*7A
$GPGSV,5,2,17,23,02,040,40,25,00,123,,26,29,210,21,27,43,309,37*7F
$GPGSV,5,3,17,28,49,150,37,29,13,148,21,31,34,186,35,32,58,359,41*73
$GPGSV,5,4,17,36,52,277,37,40,84,353,41,41,58,082,37,49,32,274,*79
$GPGSV,5,5,17,50,10,089,*4A
$GLGSV,3,1,10,69,15,007,38,70,46,298,32,71,28,240,,73,15,195,*61
$GLGSV,3,2,10,74,00,235,,80,12,142,18,82,14,140,21,83,50,095,36*69
$GLGSV,3,3,10,84,37,012,29,,,,41*51
$GNGLL,0419.92864,S,05539.74662,E,120128.00,A,A*64
$GLGSV,3,3,10,84,37,012,29,,,,42*52
$GNGLL,0419.92863,S,05539.74661,E,120129.00,A,A*61
$GNRMC,120130.00,A,0419.92862,S,05539.74661,E,0.004,,260525,,,A*73
$GNVTG,,T,,M,0.004,N,0.007,K,A*3E
$GNGGA,120130.00,0419.92862,S,05539.74661,E,1,12,0.72,59.0,M,-47.6,M,,*4F
$GNGSA,A,3,32,28,27,31,18,26,16,10,29,41,,,1.37,0.72,1.17*12
$GNGSA,A,3,83,70,84,69,82,80,,,,,,,1.37,0.72,1.17*16
$GPGSV,5,1,17,08,07,318,26,10,16,003,37,16,25,241,18,18,33,084,38*7B
$GPGSV,5,2,17,23,02,040,39,25,00,123,,26,29,210,21,27,43,309,36*70
$GPGSV,5,3,17,28,49,150,38,29,13,148,20,31,34,186,35,32,58,359,40*7C
$GPGSV,5,4,17,36,52,277,37,40,84,353,40,41,58,082,35,49,32,274,*7A
$GPGSV,5,5,17,50,10,089,*4A
$GLGSV,3,1,10,69,15,007,37,70,46,298,30,71,28,240,,73,15,195,*6C
$GLGSV,3,2,10,74,00,235,,80,12,142,18,82,14,140,23,83,50,095,35*68
$GLGSV,3,3,10,84,37,012,30,,,,41*59
$GNGLL,0419.92862,S,05539.74661,E,120130.00,A,A*68
$GNRMC,120132.00,A,0419.92857,S,05539.74662,E,0.025,,260525,,,A*77
$GNVTG,,T,,M,0.025,N,0.046,K,A*38
$GNGGA,120132.00,0419.92857,S,05539.74662,E,1,12,0.67,59.2,M,-47.6,M,,*4E
$GNGSA,A,3,32,28,27,31,18,26,16,10,29,08,41,,1.23,0.67,1.03*1E
$GNGSA,A,3,83,70,84,69,82,80,,,,,,,1.23,0.67,1.03*12
$GPGSV,5,1,17,08,08,318,26,10,16,003,35,16,25,241,17,18,33,084,37*76
$GPGSV,5,2,17,23,02,040,40,25,00,123,,26,29,210,22,27,43,309,36*7D
$GPGSV,5,3,17,28,49,150,39,29,13,148,22,31,34,186,36,32,58,359,42*7E
$GPGSV,5,4,17,36,52,277,34,40,84,353,40,41,58,082,36,49,32,274,*7A
$GPGSV,5,5,17,50,10,089,*4A
$GLGSV,3,1,10,69,15,007,36,70,46,298,29,71,28,240,,73,15,195,*65
$GLGSV,3,2,10,74,00,235,,80,12,142,20,82,14,140,21,83,50,095,35*61
$GLGSV,3,3,10,84,37,012,29,,,,42*52
$GNGLL,0419.92857,S,05539.74662,E,120132.00,A,A*6F
$GNRMC,120133.00,A,0419.92853,S,05539.74662,E,0.071,,260525,,,A*73
$GNVTG,,T,,M,0.071,N,0.131,K,A*38
$GNGGA,120133.00,0419.92853,S,05539.74662,E,1,12,0.67,59.3,M,-47.6,M,,*4A
$GNGSA,A,3,32,28,27,31,18,26,16,10,29,08,41,,1.23,0.67,1.03*1E
$GNGSA,A,3,83,70,84,69,82,80,,,,,,,1.23,0.67,1.03*12
$GPGSV,5,1,17,08,08,318,26,10,16,003,35,16,25,241,17,18,33,084,37*76
$GPGSV,5,2,17,23,02,040,43,25,00,123,,26,29,210,20,27,43,309,39*73
$GPGSV,5,3,17,28,49,150,37,29,13,148,22,31,34,186,36,32,58,359,39*7C
$GPGSV,5,4,17,36,52,277,33,40,84,353,39,41,58,082,38,49,32,274,*7D
$GPGSV,5,5,17,50,10,089,*4A
$GLGSV,3,1,10,69,15,007,36,70,46,298,30,71,28,240,,73,15,195,*6D
$GLGSV,3,2,10,74,00,235,,80,12,142,20,82,14,140,21,83,50,095,36*62
$GLGSV,3,3,10,84,37,012,29,,,,41*51
$GNGLL,0419.92853,S,05539.74662,E,120133.00,A,A*6A
$GNRMC,120134.00,A,0419.92856,S,05539.74660,E,0.054,,260525,,,A*74
$GNVTG,,T,,M,0.054,N,0.099,K,A*3C
$GNGGA,120134.00,0419.92856,S,05539.74660,E,1,12,0.67,59.2,M,-47.6,M,,*4B
$GNGSA,A,3,32,28,27,31,18,26,10,29,08,41,,,1.23,0.67,1.03*19
$GNGSA,A,3,83,70,84,69,82,80,,,,,,,1.23,0.67,1.03*12
$GPGSV,5,1,17,08,08,318,29,10,16,003,32,16,25,241,,18,33,084,39*76
$GPGSV,5,2,17,23,02,040,43,25,00,123,,26,29,210,20,27,43,309,40*7D
$GPGSV,5,3,17,28,49,150,36,29,13,148,21,31,34,186,38,32,58,359,38*71
$GPGSV,5,4,17,36,52,277,30,40,84,353,39,41,58,082,40,49,32,274,*71
$GPGSV,5,5,17,50,10,089,*4A
$GLGSV,3,1,10,69,15,007,35,70,46,298,32,71,28,240,,73,15,195,*6C
$GLGSV,3,2,10,74,00,235,,80,12,142,21,82,14,140,19,83,50,095,36*68
$GLGSV,3,3,10,84,37,012,29,,,,41*51
$GNGLL,0419.92856,S,05539.74660,E,120134.00,A,A*6A
$GNRMC,120135.00,A,0419.92859,S,05539.74658,E,0.015,,260525,,,A*74
$GNVTG,,T,,M,0.015,N,0.029,K,A*32
$GNGGA,120135.00,0419.92859,S,05539.74658,E,1,12,0.76,59.1,M,-47.6,M,,*4D
$GNGSA,A,3,32,28,27,31,18,10,29,08,41,,,,1.28,0.76,1.03*16
$GNGSA,A,3,83,70,84,69,82,80,,,,,,,1.28,0.76,1.03*19
$GPGSV,5,1,17,08,08,318,28,10,16,003,33,16,25,241,,18,33,084,40*78
$GPGSV,5,2,17,23,02,040,42,25,00,123,19,26,29,210,24,27,43,309,40*70
$GPGSV,5,3,17,28,49,150,37,29,13,148,20,31,34,186,38,32,58,359,43*7D
$GPGSV,5,4,17,36,52,277,30,40,84,353,41,41,58,082,40,49,32,274,*7E
$GPGSV,5,5,17,50,10,089,*4A
$GLGSV,3,1,10,69,15,007,38,70,46,298,32,71,28,240,18,73,15,195,*68
$GLGSV,3,2,10,74,00,235,,80,12,142,22,82,14,140,18,83,50,095,33*6F
$GLGSV,3,3,10,84,37,012,28,,,,42*53
$GNGLL,0419.92859,S,05539.74658,E,120135.00,A,A*6F
$GNRMC,120136.00,A,0419.92857,S,05539.74657,E,0.052,,260525,,,A*75
$GNVTG,,T,,M,0.052,N,0.095,K,A*36
$GNGGA,120136.00,0419.92857,S,05539.74657,E,1,12,0.76,59.2,M,-47.6,M,,*4C
$GNGSA,A,3,32,28,27,31,18,10,29,08,41,,,,1.28,0.76,1.03*16
$GNGSA,A,3,83,70,84,69,82,80,,,,,,,1.28,0.76,1.03*19
$GPGSV,5,1,17,08,08,318,26,10,16,003,34,16,25,241,,18,33,084,37*71
$GPGSV,5,2,17,23,02,040,39,25,00,123,22,26,29,210,25,27,43,309,39*7B
$GPGSV,5,3,17,28,49,150,37,29,13,148,23,31,34,186,38,32,58,359,40*7D
$GPGSV,5,4,17,36,52,277,31,40,84,353,40,41,58,082,38,49,32,274,*71
$GPGSV,5,5,17,50,10,089,*4A
$GLGSV,3,1,10,69,15,007,31,70,46,298,28,71,28,240,,73,15,195,*63
$GLGSV,3,2,10,74,00,235,,80,12,142,23,82,14,140,19,83,50,095,30*6C
$GLGSV,3,3,10,84,37,012,28,,,,38*5E
$GNGLL,0419.92857,S,05539.74657,E,120136.00,A,A*6D
$GNRMC,120137.00,A,0419.92858,S,05539.74656,E,0.126,,260525,,,A*78
$GNVTG,,T,,M,0.126,N,0.234,K,A*3D
$GNGGA,120137.00,0419.92858,S,05539.74656,E,1,12,0.76,59.2,M,-47.6,M,,*43
$GNGSA,A,3,32,28,27,31,18,10,29,08,41,,,,1.28,0.76,1.03*16
$GNGSA,A,3,83,70,84,69,82,80,,,,,,,1.28,0.76,1.03*19
$GPGSV,5,1,17,08,08,318,26,10,16,003,34,16,25,241,,18,33,084,39*7F
$GPGSV,5,2,17,23,02,040,41,25,00,123,20,26,29,210,22,27,43,309,39*71
$GPGSV,5,3,17,28,49,150,37,29,13,148,21,31,34,186,39,32,58,359,40*7E
$GPGSV,5,4,17,36,52,277,30,40,84,353,41,41,58,082,40,49,32,274,*7E
$GPGSV,5,5,17,50,10,089,*4A
$GLGSV,3,1,10,69,15,007,34,70,46,298,29,71,28,240,,73,15,195,*67
$GLGSV,3,2,10,74,00,235,,80,12,142,22,82,14,140,15,83,50,095,32*63
$GLGSV,3,3,10,84,37,012,27,,,,39*50
$GNGLL,0419.92858,S,05539.74656,E,120137.00,A,A*62
$GNRMC,120138.00,A,0419.92860,S,05539.74656,E,0.012,,260525,,,A*7A
$GNVTG,,T,,M,0.012,N,0.023,K,A*3F
$GNGGA,120138.00,0419.92860,S,05539.74656,E,1,12,0.78,59.2,M,-47.6,M,,*49
$GNGSA,A,3,32,28,27,31,18,10,08,41,,,,,1.35,0.78,1.10*1D
$GNGSA,A,3,83,70,84,69,82,80,,,,,,,1.35,0.78,1.10*19
$GPGSV,5,1,17,08,08,318,26,10,16,003,33,16,25,241,22,18,33,084,39*78
$GPGSV,5,2,17,23,02,040,40,25,00,123,19,26,29,210,19,27,43,309,40*7C
$GPGSV,5,3,17,28,49,150,39,29,13,148,22,31,34,186,38,32,58,359,39*7C
$GPGSV,5,4,17,36,52,277,31,40,84,353,41,41,58,082,40,49,32,274,*7F
$GPGSV,5,5,17,50,10,089,*4A
$GLGSV,3,1,10,69,15,007,34,70,46,298,29,71,28,240,,73,15,195,*67
$GLGSV,3,2,10,74,00,235,,80,12,142,20,82,14,140,14,83,50,095,33*61
$GLGSV,3,3,10,84,37,012,25,,,,39*52
$GNGLL,0419.92860,S,05539.74656,E,120138.00,A,A*66
$GNRMC,120139.00,A,0419.92860,S,05539.74656,E,0.080,,260525,,,A*70
$GNVTG,,T,,M,0.080,N,0.147,K,A*37
$GNGGA,120139.00,0419.92860,S,05539.74656,E,1,12,0.66,59.1,M,-47.6,M,,*44
$GNGSA,A,3,32,28,27,31,18,26,10,29,08,41,,,1.20,0.66,1.00*18
$GNGSA,A,3,83,70,84,69,82,80,,,,,,,1.20,0.66,1.00*13
$GPGSV,5,1,17,08,08,318,27,10,16,003,33,16,25,241,20,18,33,084,42*77
$GPGSV,5,2,17,23,02,040,40,25,00,123,17,26,29,210,20,27,43,309,40*78
$GPGSV,5,3,17,28,49,150,39,29,13,148,21,31,34,186,39,32,58,359,41*71
$GPGSV,5,4,17,36,52,277,30,40,84,353,41,41,58,082,40,49,32,274,*7E
$GPGSV,5,5,17,50,10,089,*4A
$GLGSV,3,1,10,69,15,007,33,70,46,298,29,71,28,240,,73,15,195,*60
$GLGSV,3,2,10,74,00,235,,80,12,142,19,82,14,140,12,83,50,095,33*6D
$GLGSV,3,3,10,84,37,012,25,,,,39*52
$GNGLL,0419.92860,S,05539.74656,E,120139.00,A,A*67
$GNRMC,120141.00,A,0419.92863,S,05539.74657,E,0.005,,260525,,,A*70
$GNVTG,,T,,M,0.005,N,0.010,K,A*39
$GNGGA,120141.00,0419.92863,S,05539.74657,E,1,12,0.69,59.2,M,-47.6,M,,*45
$GNGSA,A,3,32,28,27,31,18,26,10,08,41,,,,1.28,0.69,1.08*1C
$GNGSA,A,3,83,70,84,69,80,,,,,,,,1.28,0.69,1.08*16
$GPGSV,5,1,17,08,08,318,29,10,16,003,34,16,25,241,21,18,33,084,39*73
$GPGSV,5,2,17,23,02,040,39,25,00,123,17,26,29,210,19,27,43,309,39*72
$GPGSV,5,3,17,28,49,150,39,29,13,148,21,31,34,186,38,32,58,359,39*7F
$GPGSV,5,4,17,36,52,277,31,40,84,353,40,41,58,082,38,49,32,274,*71
$GPGSV,5,5,17,50,10,089,*4A
$GLGSV,3,1,10,69,15,007,33,70,46,298,29,71,28,240,,73,15,195,*60
$GLGSV,3,2,10,74,00,235,,80,12,142,16,82,14,140,12,83,50,095,33*62
$GLGSV,3,3,10,84,37,012,25,,,,39*52
$GNGLL,0419.92863,S,05539.74657,E,120141.00,A,A*6A
$GNRMC,120143.00,A,0419.92863,S,05539.74656,E,0.064,,260525,,,A*74
$GNVTG,,T,,M,0.064,N,0.118,K,A*37
$GNGGA,120143.00,0419.92863,S,05539.74656,E,1,12,0.76,59.1,M,-47.6,M,,*4B
$GNGSA,A,3,32,28,27,31,18,10,29,08,41,,,,1.28,0.76,1.03*16
$GNGSA,A,3,83,70,84,69,82,80,,,,,,,1.28,0.76,1.03*19
$GPGSV,5,1,17,08,08,318,29,10,16,003,33,16,25,241,17,18,33,084,38*70
$GPGSV,5,2,17,23,02,040,40,25,00,123,19,26,29,210,21,27,43,309,38*78
$GPGSV,5,3,17,28,49,150,37,29,13,148,20,31,34,186,38,32,58,359,39*70
$GPGSV,5,4,17,36,52,277,31,40,84,353,39,41,58,082,37,49,32,274,*70
$GPGSV,5,5,17,50,10,089,*4A
$GLGSV,3,1,10,69,15,007,33,70,46,298,29,71,28,240,,73,15,195,*60
$GLGSV,3,2,10,74,00,235,,80,12,142,16,82,14,140,14,83,50,095,33*64
$GLGSV,3,3,10,84,37,012,25,,,,39*52
$GNGLL,0419.92863,S,05539.74656,E,120143.00,A,A*69
$GNRMC,120144.00,A,0419.92865,S,05539.74655,E,0.051,,260525,,,A*70
$GNVTG,,T,,M,0.051,N,0.094,K,A*34
$GNGGA,120144.00,0419.92865,S,05539.74655,E,1,12,0.76,59.2,M,-47.6,M,,*4A
$GNGSA,A,3,32,28,27,31,18,10,29,08,41,,,,1.28,0.76,1.03*16
$GNGSA,A,3,83,70,84,69,82,80,,,,,,,1.28,0.76,1.03*19
$GPGSV,5,1,17,08,08,318,29,10,16,003,35,16,25,241,15,18,33,084,40*7B
$GPGSV,5,2,17,23,02,040,43,25,00,123,,26,29,210,20,27,43,309,42*7F
$GPGSV,5,3,17,28,49,150,40,29,13,148,19,31,34,186,41,32,58,359,41*7B
$GPGSV,5,4,17,36,52,277,31,40,84,353,43,41,58,082,40,49,32,274,*7D
$GPGSV,5,5,17,50,10,089,*4A
$GLGSV,3,1,10,69,14,007,35,70,46,298,31,71,28,240,,73,15,195,*6E
$GLGSV,3,2,10,74,00,235,,80,12,142,16,82,14,140,14,83,50,095,35*62
$GLGSV,3,3,10,84,37,012,25,,,,42*5E
$GNGLL,0419.92865,S,05539.74655,E,120144.00,A,A*6B
$GNRMC,120146.00,A,0419.92867,S,05539.74653,E,0.024,,260525,,,A*74
$GNVTG,,T,,M,0.024,N,0.045,K,A*3A
$GNGGA,120146.00,0419.92867,S,05539.74653,E,1,12,0.76,59.2,M,-47.6,M,,*4C
$GNGSA,A,3,32,28,27,31,18,16,10,29,08,41,,,1.28,0.76,1.03*11
$GNGSA,A,3,83,70,84,69,82,80,,,,,,,1.28,0.76,1.03*19
$GPGSV,5,1,17,08,08,318,29,10,16,003,34,16,25,241,16,18,33,084,41*78
$GPGSV,5,2,17,23,02,040,42,25,00,123,,26,29,210,21,27,43,309,42*7F
$GPGSV,5,3,17,28,49,150,38,29,13,148,21,31,34,186,41,32,58,359,41*7F
$GPGSV,5,4,17,36,52,277,31,40,84,353,42,41,58,082,41,49,32,274,*7D
$GPGSV,5,5,17,50,10,089,*4A
$GLGSV,3,1,10,69,14,007,36,70,45,298,32,71,28,241,,73,15,195,*6C
$GLGSV,3,2,10,74,00,235,,80,12,142,18,82,14,140,18,83,50,095,35*60
$GLGSV,3,3,10,84,37,012,26,,,,42*5D
$GNGLL,0419.92867,S,05539.74653,E,120146.00,A,A*6D
$GNRMC,120147.00,A,0419.92867,S,05539.74654,E,0.026,,260525,,,A*70
$GNVTG,,T,,M,0.026,N,0.049,K,A*34
$GNGGA,120147.00,0419.92867,S,05539.74654,E,1,12,0.75,59.2,M,-47.6,M,,*49
$GNGSA,A,3,32,28,27,31,18,10,29,08,41,,,,1.25,0.75,1.00*1B
$GNGSA,A,3,83,70,84,69,82,80,,,,,,,1.25,0.75,1.00*14
$GPGSV,5,1,17,08,08,318,29,10,16,003,34,16,25,241,13,18,33,084,40*7C
$GPGSV,5,2,17,23,02,040,41,25,00,123,,26,29,210,18,27,43,309,42*76
$GPGSV,5,3,17,28,49,150,37,29,13,148,21,31,34,186,40,32,58,359,40*70
$GPGSV,5,4,17,36,52,277,31,40,84,353,42,41,58,082,41,49,32,274,*7D
$GPGSV,5,5,17,50,10,089,*4A
$GLGSV,3,1,10,69,14,007,35,70,45,298,32,71,28,241,,73,15,195,*6F
$GLGSV,3,2,10,74,00,235,,80,12,142,19,82,14,140,18,83,50,095,36*62
$GLGSV,3,3,10,84,37,012,26,,,,43*5C
$GNGLL,0419.92867,S,05539.74654,E,120147.00,A,A*6B
$GLGSV,3,2,10,74,00,235,,80,12,142,20,82,14,140,18,83,50,095,34*6A
$GLGSV,3,3,10,84,37,012,25,,,,41*5D
$GNGLL,0419.92867,S,05539.74655,E,120148.00,A,A*65
$GNRMC,120149.00,A,0419.92868,S,05539.74655,E,0.022,,260525,,,A*74
$GNVTG,,T,,M,0.022,N,0.040,K,A*39
$GNGGA,120149.00,0419.92868,S,05539.74655,E,1,12,0.75,59.3,M,-47.6,M,,*48
$GNGSA,A,3,32,28,27,31,18,10,29,08,41,,,,1.25,0.75,1.00*1B
$GNGSA,A,3,83,70,84,69,82,80,,,,,,,1.25,0.75,1.00*14
$GPGSV,5,1,17,08,08,318,29,10,16,003,33,16,25,241,12,18,33,084,39*74
$GPGSV,5,2,17,23,02,040,36,25,00,123,15,26,29,210,16,27,43,309,40*7E
$GPGSV,5,3,17,28,49,150,37,29,13,148,21,31,34,186,39,32,58,359,40*7E
$GPGSV,5,4,17,36,52,277,32,40,84,353,40,41,58,082,38,49,32,274,*72
$GPGSV,5,5,17,50,10,089,*4A
$GLGSV,3,1,10,69,14,007,34,70,45,298,30,71,28,241,,73,15,194,*6D
$GLGSV,3,2,10,74,00,234,,80,12,142,20,82,14,140,12,83,50,095,33*66
$GLGSV,3,3,10,84,37,012,24,,,,40*5D
$GNGLL,0419.92868,S,05539.74655,E,120149.00,A,A*6B
$GNRMC,120150.00,A,0419.92868,S,05539.74656,E,0.030,,260525,,,A*7C
$GNVTG,,T,,M,0.030,N,0.056,K,A*3D
$GNGGA,120150.00,0419.92868,S,05539.74656,E,1,12,0.75,59.4,M,-47.6,M,,*44
$GNGSA,A,3,32,28,27,31,18,10,29,08,41,,,,1.25,0.75,1.00*1B
$GNGSA,A,3,83,70,84,69,82,80,,,,,,,1.25,0.75,1.00*14
$GPGSV,5,1,17,08,08,318,29,10,16,003,33,16,25,241,11,18,33,084,39*77
$GPGSV,5,2,17,23,02,040,36,25,00,123,11,26,29,210,,27,43,309,40*7D
$GPGSV,5,3,17,28,49,150,38,29,13,148,20,31,34,186,39,32,58,359,40*70
$GPGSV,5,4,17,36,52,277,31,40,84,353,40,41,58,082,38,49,32,274,*71
$GPGSV,5,5,17,50,10,089,*4A
$GLGSV,3,1,10,69,14,007,38,70,45,298,31,71,28,241,,73,15,194,*60
$GLGSV,3,2,10,74,00,234,,80,12,142,20,82,14,140,12,83,50,095,32*67
$GLGSV,3,3,10,84,37,012,23,,,,43*59
$GNGLL,0419.92868,S,05539.74656,E,120150.00,A,A*60
$GNRMC,120152.00,A,0419.92866,S,05539.74659,E,0.037,,260525,,,A*78
$GNVTG,,T,,M,0.037,N,0.069,K,A*36
$GNGGA,120152.00,0419.92866,S,05539.74659,E,1,12,0.75,59.4,M,-47.6,M,,*47
$GLGSV,3,3,10,84,37,012,25,,,,42*5E
$GNGLL,0419.92866,S,05539.74659,E,120152.00,A,A*63
$GNRMC,120153.00,A,0419.92866,S,05539.74659,E,0.069,,260525,,,A*72
$GNVTG,,T,,M,0.069,N,0.127,K,A*36
$GNGGA,120153.00,0419.92866,S,05539.74659,E,1,12,0.75,59.5,M,-47.6,M,,*47
$GNGSA,A,3,32,28,27,31,18,10,29,08,41,,,,1.25,0.75,1.00*1B
$GNGSA,A,3,83,70,84,69,82,80,,,,,,,1.25,0.75,1.00*14
$GPGSV,5,1,17,08,08,318,27,10,16,003,31,16,25,241,11,18,33,084,39*7B
$GPGSV,5,2,17,23,02,040,38,25,00,123,,26,29,210,,27,43,309,37*73
$GPGSV,5,3,17,28,49,150,39,29,13,148,18,31,34,186,39,32,58,359,39*74
$GPGSV,5,4,17,36,52,277,30,40,84,353,38,41,58,082,38,49,32,274,*7F
$GPGSV,5,5,17,50,10,089,*4A
$GLGSV,3,1,10,69,14,007,34,70,45,298,31,71,28,241,,73,15,194,*6C
$GLGSV,3,2,10,74,00,234,,80,12,142,21,82,14,140,12,83,50,095,27*62
$GLGSV,3,3,10,84,37,012,24,,,,37*5D
$GNGLL,0419.92866,S,05539.74659,E,120153.00,A,A*62
$GNRMC,120154.00,A,0419.92867,S,05539.74660,E,0.039,,260525,,,A*7B
$GNVTG,,T,,M,0.039,N,0.073,K,A*33
$GNGGA,120154.00,0419.92867,S,05539.74660,E,1,12,0.78,59.5,M,-47.6,M,,*46
$GNGSA,A,3,32,28,27,31,18,10,08,,,,,,1.37,0.78,1.12*18
$GNGSA,A,3,83,70,84,69,82,80,,,,,,,1.37,0.78,1.12*19
$GPGSV,5,1,17,08,08,318,22,10,16,003,27,16,25,241,07,18,33,084,35*72
$GPGSV,5,2,17,23,02,040,34,25,00,123,,26,29,210,,27,43,309,34*7C
$GPGSV,5,3,17,28,49,150,34,29,13,148,,31,34,186,35,32,58,359,36*73
$GPGSV,5,4,17,36,52,277,,40,84,353,35,41,58,082,,49,32,274,*7A
$GPGSV,5,5,17,50,10,089,*4A
$GLGSV,3,1,10,69,14,007,35,70,45,298,27,71,28,241,,73,15,194,*6A
$GLGSV,3,2,10,74,00,234,,80,12,142,18,82,14,140,08,83,50,095,30*65
$GLGSV,3,3,10,84,37,012,21,,,,40*58
$GNGLL,0419.92867,S,05539.74660,E,120154.00,A,A*6E
$GNRMC,120155.00,A,0419.92866,S,05539.74661,E,0.108,,260525,,,A*79
$GNVTG,,T,,M,0.108,N,0.200,K,A*36
$GNGGA,120155.00,0419.92866,S,05539.74661,E,1,12,0.78,59.5,M,-47.6,M,,*47
$GNRMC,120157.00,A,0419.92867,S,05539.74663,E,0.020,,260525,,,A*73
$GNVTG,,T,,M,0.020,N,0.037,K,A*3B
$GNGGA,120157.00,0419.92867,S,05539.74663,E,1,12,0.78,59.5,M,-47.6,M,,*46
$GNGSA,A,3,32,28,27,31,18,10,08,41,,,,,1.34,0.78,1.09*14
$GNGSA,A,3,83,70,84,69,80,,,,,,,,1.34,0.78,1.09*1A
$GPGSV,5,1,17,08,08,318,25,10,16,003,31,16,25,241,,18,33,084,38*78
$GPGSV,5,2,17,23,02,040,35,25,00,123,,26,29,210,,27,43,309,38*71
$GPGSV,5,3,17,28,49,150,36,29,13,148,,31,34,186,37,32,58,359,39*7C
$GPGSV,5,4,17,36,52,277,,40,84,353,37,41,58,082,37,49,32,274,*7C
$GPGSV,5,5,17,50,10,089,*4A
$GLGSV,3,1,10,69,14,007,34,70,45,298,29,71,28,241,,73,15,194,*65
$GLGSV,3,2,10,74,00,234,,80,12,141,20,82,13,140,,83,50,096,29*69
$GLGSV,3,3,10,84,37,012,24,,,,40*5D
$GNGLL,0419.92867,S,05539.74663,E,120157.00,A,A*6E
$GNRMC,120158.00,A,0419.92868,S,05539.74665,E,0.018,,260525,,,A*7E
$GNVTG,,T,,M,0.018,N,0.032,K,A*35
$GNGGA,120158.00,0419.92868,S,05539.74665,E,1,12,0.78,59.4,M,-47.6,M,,*41
$GNGSA,A,3,32,28,27,31,18,10,08,41,,,,,1.34,0.78,1.09*14
$GNGSA,A,3,83,70,84,69,80,,,,,,,,1.34,0.78,1.09*1A
$GPGSV,5,1,17,08,08,318,26,10,16,003,33,16,25,241,,18,33,084,39*78
$GPGSV,5,2,17,23,02,040,38,25,00,123,,26,29,210,,27,43,309,39*7D
$GPGSV,5,3,17,28,49,150,37,29,13,148,20,31,34,186,39,32,58,359,40*7F
$GPGSV,5,4,17,36,52,277,,40,84,353,40,41,58,082,39,49,32,274,*72
$GPGSV,5,5,17,50,10,089,*4A
$GLGSV,3,1,10,69,14,007,35,70,45,298,29,71,28,241,,73,15,194,*64
$GLGSV,3,2,10,74,00,234,,80,12,141,20,82,13,140,,83,50,096,32*63
$GLGSV,3,3,10,84,37,012,25,,,,41*5D
$GNGLL,0419.92868,S,05539.74665,E,120158.00,A,A*68
$GNRMC,120159.00,A,0419.92869,S,05539.74665,E,0.013,,260525,,,A*75
$GNVTG,,T,,M,0.013,N,0.024,K,A*39
$GNGGA,120159.00,0419.92869,S,05539.74665,E,1,12,0.78,59.5,M,-47.6,M,,*40
$GNGSA,A,3,32,28,27,31,18,10,08,41,,,,,1.34,0.78,1.09*14
$GNGSA,A,3,83,70,84,69,80,,,,,,,,1.34,0.78,1.09*1A
$GPGSV,5,1,17,08,08,318,25,10,16,003,31,16,25,241,,18,33,084,36*76
$GPGSV,5,2,17,23,02,040,34,25,00,123,,26,29,210,,27,43,309,36*7E
$GPGSV,5,3,17,28,49,150,35,29,13,148,19,31,34,186,36,32,58,359,37*78
$GPGSV,5,4,17,36,52,277,,40,84,353,36,41,58,082,35,49,32,274,*7F
$GPGSV,5,5,17,50,10,089,*4A
$GLGSV,3,1,10,69,14,007,34,70,45,298,29,71,28,241,,73,15,194,*65
$GLGSV,3,2,10,74,00,234,,80,12,141,19,82,13,140,,83,50,096,30*6B
$GLGSV,3,3,10,84,38,012,24,,,,38*5D
$GNGLL,0419.92869,S,05539.74665,E,120159.00,A,A*68
$GNRMC,120200.00,A,0419.92870,S,05539.74666,E,0.009,,260525,,,A*7A
$GNVTG,,T,,M,0.009,N,0.018,K,A*3D
$GNGGA,120200.00,0419.92870,S,05539.74666,E,1,12,0.78,59.4,M,-47.6,M,,*45
$GNGSA,A,3,32,28,27,31,18,10,08,41,,,,,1.34,0.78,1.09*14
$GNGSA,A,3,83,70,84,69,80,,,,,,,,1.34,0.78,1.09*1A
$GPGSV,5,1,17,08,08,318,25,10,16,003,31,16,25,241,,18,33,084,37*77
$GPGSV,5,2,17,23,02,040,35,25,00,123,,26,29,210,,27,43,309,39*70
$GPGSV,5,3,17,28,49,150,36,29,13,148,18,31,34,186,37,32,58,359,39*75
$GPGSV,5,4,17,36,52,277,,40,84,353,39,41,58,082,36,49,32,274,*73
$GPGSV,5,5,17,50,10,089,*4A
$GLGSV,3,1,10,69,14,007,36,70,45,298,31,71,28,241,,73,15,194,*6E
$GLGSV,3,2,10,74,00,234,,80,12,141,19,82,13,140,,83,50,096,31*6A
$GLGSV,3,3,10,84,38,012,25,,,,41*52
$GNGLL,0419.92870,S,05539.74666,E,120200.00,A,A*6C
$GNRMC,120201.00,A,0419.92871,S,05539.74667,E,0.055,,260525,,,A*72
$GNVTG,,T,,M,0.055,N,0.102,K,A*3E
$GNGGA,120201.00,0419.92871,S,05539.74667,E,1,12,0.76,59.4,M,-47.6,M,,*4A
$GNGSA,A,3,32,28,27,31,18,10,29,08,41,,,,1.28,0.76,1.03*16
$GNGSA,A,3,83,70,84,69,80,,,,,,,,1.28,0.76,1.03*13
$GPGSV,5,1,17,08,08,318,26,10,16,003,31,16,25,241,,18,33,084,39*7A
$GPGSV,5,2,17,23,02,040,39,25,00,123,,26,29,210,,27,43,309,40*72
$GPGSV,5,3,17,28,49,150,36,29,13,148,18,31,34,186,39,32,58,359,38*7A
$GPGSV,5,4,17,36,52,277,,40,84,353,40,41,58,082,38,49,32,274,*73
$GPGSV,5,5,17,50,10,089,*4A
$GLGSV,3,1,10,69,14,007,37,70,45,298,32,71,28,241,,73,15,194,*6C
$GLGSV,3,2,10,74,00,234,,80,12,141,20,82,13,140,,83,50,096,35*64
$GLGSV,3,3,10,84,38,012,26,,,,43*53
$GNGLL,0419.92871,S,05539.74667,E,120201.00,A,A*6D
$GNRMC,120204.00,A,0419.92873,S,05539.74665,E,0.008,,260525,,,A*7F
$GNVTG,,T,,M,0.008,N,0.015,K,A*31
$GNGGA,120204.00,0419.92873,S,05539.74665,E,1,12,0.76,59.2,M,-47.6,M,,*49
$GNGSA,A,3,32,28,27,31,18,10,29,08,41,,,,1.28,0.76,1.03*16
$GNGSA,A,3,83,70,84,69,80,,,,,,,,1.28,0.76,1.03*13
$GPGSV,5,1,17,08,08,318,27,10,16,003,32,16,25,241,,18,33,084,40*76
$GPGSV,5,2,17,23,02,040,39,25,00,123,,26,29,210,,27,43,309,40*72
$GPGSV,5,3,17,28,49,150,38,29,13,148,19,31,34,186,40,32,58,359,40*74
$GPGSV,5,4,17,36,52,277,,40,84,353,40,41,58,082,40,49,32,274,*7C
$GPGSV,5,5,17,50,10,089,*4A
$GLGSV,3,1,10,69,14,007,36,70,45,298,30,71,28,241,,73,15,194,*6F
$GLGSV,3,2,10,74,00,234,,80,12,141,21,82,13,140,,83,50,096,33*63
$GLGSV,3,3,10,84,38,012,26,,,,41*51
$GNGLL,0419.92873,S,05539.74665,E,120204.00,A,A*68
$GNRMC,120208.00,A,0419.92877,S,05539.74663,E,0.019,,260525,,,A*71
$GNVTG,,T,,M,0.019,N,0.035,K,A*33
$GNGGA,120208.00,0419.92877,S,05539.74663,E,1,12,0.78,58.9,M,-47.6,M,,*43
$GNGSA,A,3,32,28,27,31,18,10,08,41,,,,,1.34,0.78,1.09*14
$GNGSA,A,3,83,70,84,69,80,,,,,,,,1.34,0.78,1.09*1A
$GPGSV,5,4,17,36,52,277,,40,84,353,39,41,58,082,37,49,32,274,*72
$GPGSV,5,5,17,50,10,089,*4A
$GLGSV,3,1,10,69,14,007,37,70,45,298,31,71,28,241,,73,15,194,*6F
$GLGSV,3,2,10,74,00,234,,80,12,141,21,82,13,140,,83,50,096,36*66
$GLGSV,3,3,10,84,38,012,26,,,,42*52
$GNGLL,0419.92878,S,05539.74663,E,120209.00,A,A*68
$GNRMC,120212.00,A,0419.92879,S,05539.74664,E,0.027,,260525,,,A*7E
$GNVTG,,T,,M,0.027,N,0.051,K,A*3C
$GNGGA,120212.00,0419.92879,S,05539.74664,E,1,12,0.76,58.7,M,-47.6,M,,*41
$GNGSA,A,3,32,28,27,31,18,10,29,08,41,,,,1.28,0.76,1.03*16
$GNGSA,A,3,83,70,84,69,80,,,,,,,,1.28,0.76,1.03*13
$GPGSV,5,1,17,08,08,318,27,10,16,003,32,16,25,241,16,18,33,084,40*71
$GPGSV,5,2,17,23,02,040,38,25,00,123,,26,29,210,,27,43,309,41*72
$GPGSV,5,3,17,28,49,150,35,29,13,148,18,31,34,186,38,32,58,359,41*76
$GPGSV,5,4,17,36,52,277,,40,84,353,41,41,58,082,39,49,32,274,*73
$GPGSV,5,5,17,50,10,089,*4A
$GLGSV,3,1,10,69,14,007,35,70,45,298,31,71,28,241,,73,15,194,*6D
$GLGSV,3,2,10,74,00,234,,80,12,141,19,82,13,140,22,83,50,096,32*69
$GLGSV,3,3,10,84,38,012,26,,,,42*52
$GNGLL,0419.92879,S,05539.74664,E,120212.00,A,A*64
$GNRMC,120216.00,A,0419.92880,S,05539.74662,E,0.057,,260525,,,A*7D
$GNVTG,,T,,M,0.057,N,0.105,K,A*3B
$GNGGA,120216.00,0419.92880,S,05539.74662,E,1,12,0.75,58.5,M,-47.6,M,,*44
$GNGSA,A,3,32,28,27,31,18,16,10,29,08,41,,,1.24,0.75,1.00*1D
$GNGSA,A,3,83,70,84,69,82,80,,,,,,,1.24,0.75,1.00*15
$GPGSV,5,1,17,08,08,318,30,10,16,003,35,16,25,241,18,18,33,084,42*7C
$GPGSV,5,2,17,23,02,040,41,25,00,123,,26,29,210,,27,43,309,43*7E
$GPGSV,5,3,17,28,49,150,39,29,13,148,24,31,34,186,42,32,58,359,44*7D
$GPGSV,5,4,17,36,52,277,,40,84,353,44,41,58,082,42,49,32,274,*7A
$GPGSV,5,5,17,50,10,089,*4A
$GLGSV,3,1,10,69,14,007,35,70,45,298,29,71,28,241,,73,15,194,*64
$GLGSV,3,2,10,74,00,234,,80,12,141,17,82,13,140,19,83,50,096,29*65
$GLGSV,3,3,10,84,38,012,28,,,,40*5E
$GNGLL,0419.92880,S,05539.74662,E,120216.00,A,A*60
$GNRMC,120217.00,A,0419.92881,S,05539.74662,E,0.085,,260525,,,A*72
$GNVTG,,T,,M,0.085,N,0.158,K,A*3C
$GNGGA,120217.00,0419.92881,S,05539.74662,E,1,12,0.75,58.4,M,-47.6,M,,*45
$GNGSA,A,3,32,28,27,31,18,16,10,29,08,41,,,1.24,0.75,1.00*1D
$GNGSA,A,3,83,70,84,69,82,80,,,,,,,1.24,0.75,1.00*15
$GPGSV,5,1,17,08,08,318,29,10,16,003,35,16,25,241,19,18,33,084,42*75
$GPGSV,5,2,17,23,02,040,40,25,00,123,22,26,29,210,,27,43,309,44*78
$GPGSV,5,3,17,28,49,150,40,29,13,148,23,31,34,186,42,32,58,359,44*74
$GPGSV,5,4,17,36,52,277,,40,84,353,44,41,58,082,41,49,32,274,*79
$GPGSV,5,5,17,50,10,089,*4A
$GLGSV,3,1,10,69,14,007,35,70,45,298,29,71,28,241,,73,15,194,*64
$GLGSV,3,2,10,74,00,234,,80,12,141,17,82,13,140,19,83,50,096,28*64
$GLGSV,3,3,10,84,38,012,27,,,,40*51
$GNGLL,0419.92881,S,05539.74662,E,120217.00,A,A*60
$GPGSV,5,5,17,50,10,089,*4A
$GLGSV,3,1,10,69,14,007,35,70,45,298,29,71,28,241,,73,15,194,*64
$GLGSV,3,2,10,74,00,234,,80,12,141,18,82,13,140,18,83,50,096,28*6A
$GLGSV,3,3,10,84,38,012,26,,,,40*50
$GNGLL,0419.92883,S,05539.74661,E,120218.00,A,A*6E
$GNRMC,120223.00,A,0419.92883,S,05539.74664,E,0.041,,260525,,,A*79
$GNVTG,,T,,M,0.041,N,0.075,K,A*3A
$GNGGA,120223.00,0419.92883,S,05539.74664,E,1,12,0.75,58.2,M,-47.6,M,,*40
$GNGSA,A,3,32,28,27,31,18,10,29,08,41,,,,1.24,0.75,0.99*1B
$GNGSA,A,3,83,70,84,69,82,80,,,,,,,1.24,0.75,0.99*14
$GPGSV,5,1,17,08,08,318,28,10,16,003,34,16,25,241,22,18,33,084,41*7E
$GPGSV,5,2,17,23,02,040,37,25,00,123,,26,29,210,,27,43,309,42*7E
$GPGSV,5,3,17,28,49,150,39,29,13,148,20,31,34,186,40,32,58,359,43*7C
$GPGSV,5,4,17,36,52,277,,40,84,353,44,41,58,082,41,49,32,274,*79
$GPGSV,5,5,17,50,10,089,*4A
$GLGSV,3,1,10,69,14,007,35,70,45,298,29,71,28,241,,73,15,194,*64
$GLGSV,3,2,10,74,00,234,,80,12,141,18,82,13,140,14,83,50,096,31*6E
$GLGSV,3,3,10,84,38,012,26,,,,40*50
$GNGLL,0419.92883,S,05539.74664,E,120223.00,A,A*63
$GNRMC,120224.00,A,0419.92883,S,05539.74664,E,0.016,,260525,,,A*7C
$GNVTG,,T,,M,0.016,N,0.029,K,A*31
$GNGGA,120224.00,0419.92883,S,05539.74664,E,1,12,0.75,58.2,M,-47.6,M,,*47
$GNGSA,A,3,32,28,27,31,18,10,29,08,41,,,,1.24,0.75,0.99*1B
$GNGSA,A,3,83,70,84,69,82,80,,,,,,,1.24,0.75,0.99*14
$GPGSV,5,1,17,08,08,318,28,10,16,003,34,16,25,241,21,18,33,084,41*7D
$GPGSV,5,2,17,23,02,040,36,25,00,123,,26,29,210,,27,43,309,42*7F
$GPGSV,5,3,17,28,49,150,39,29,13,148,20,31,34,186,40,32,58,359,43*7C
$GPGSV,5,4,17,36,52,277,,40,84,353,44,41,58,082,41,49,32,274,*79
$GPGSV,5,5,17,50,10,089,*4A
$GLGSV,3,1,10,69,14,007,36,70,45,298,30,71,28,241,,73,15,194,*6F
$GLGSV,3,2,10,74,00,234,,80,12,141,18,82,13,140,14,83,50,096,31*6E
$GLGSV,3,3,10,84,38,012,27,,,,41*50
$GNGLL,0419.92883,S,05539.74664,E,120224.00,A,A*64
$GNRMC,120225.00,A,0419.92882,S,05539.74664,E,0.017,,260525,,,A*7D
$GNVTG,,T,,M,0.017,N,0.031,K,A*39
$GNGGA,120225.00,0419.92882,S,05539.74664,E,1,12,0.75,58.3,M,-47.6,M,,*46
$GNGSA,A,3,32,28,27,31,18,10,29,08,41,,,,1.24,0.75,0.99*1B
$GNGSA,A,3,83,70,84,69,82,80,,,,,,,1.24,0.75,0.99*14
$GPGSV,5,1,17,08,08,318,28,10,16,003,34,16,25,241,21,18,33,084,41*7D
$GPGSV,5,2,17,23,02,041,35,25,00,123,,26,29,210,,27,43,309,42*7D
$GPGSV,5,3,17,28,49,150,39,29,13,148,19,31,34,186,41,32,58,359,43*77
$GPGSV,5,4,17,36,52,277,,40,84,353,43,41,58,082,40,49,32,274,*7F
$GPGSV,5,5,17,50,10,089,*4A
$GLGSV,3,1,10,69,14,007,36,70,45,298,30,71,28,241,,73,15,194,*6F
$GLGSV,3,2,10,74,00,234,,80,12,141,18,82,13,140,16,83,50,096,31*6C
$GLGSV,3,3,10,84,38,012,27,,,,41*50
$GNGLL,0419.92882,S,05539.74664,E,120225.00,A,A*64
$GNRMC,120226.00,A,0419.92882,S,05539.74665,E,0.016,,260525,,,A*7E
$GNVTG,,T,,M,0.016,N,0.030,K,A*39
$GNGGA,120226.00,0419.92882,S,05539.74665,E,1,12,0.75,58.3,M,-47.6,M,,*44
$GNGSA,A,3,32,28,27,31,18,10,29,08,41,,,,1.24,0.75,0.99*1B
$GNGSA,A,3,83,70,84,69,82,80,,,,,,,1.24,0.75,0.99*14
$GPGSV,5,1,17,08,08,318,28,10,16,003,34,16,25,241,21,18,33,084,41*7D
$GPGSV,5,2,17,23,02,041,35,25,00,123,,26,29,210,,27,43,309,43*7C
$GPGSV,5,3,17,28,49,150,38,29,13,148,19,31,34,186,40,32,58,359,43*77
$GPGSV,5,4,17,36,52,277,,40,84,353,43,41,58,082,40,49,32,274,*7F
$GPGSV,5,5,17,50,10,089,*4A
$GLGSV,3,1,10,69,14,007,36,70,45,298,30,71,28,241,,73,15,194,*6F
$GLGSV,3,2,10,74,00,234,,80,12,141,19,82,13,140,17,83,50,096,30*6D
$GLGSV,3,3,10,84,38,012,28,,,,41*5F
$GNGLL,0419.92882,S,05539.74665,E,120226.00,A,A*66
$GNRMC,120227.00,A,0419.92882,S,05539.74665,E,0.025,,260525,,,A*7F
$GNVTG,,T,,M,0.025,N,0.046,K,A*38
$GNGGA,120227.00,0419.92882,S,05539.74665,E,1,12,0.75,58.4,M,-47.6,M,,*42
$GNGSA,A,3,32,28,27,31,18,16,10,29,08,41,,,1.24,0.75,0.99*1C
$GNGSA,A,3,83,70,84,69,82,80,,,,,,,1.24,0.75,0.99*14
$GPGSV,5,1,17,08,08,318,28,10,16,003,34,16,25,241,20,18,33,084,41*7C
$GPGSV,5,2,17,23,02,041,40,25,00,122,,26,29,210,,27,43,309,43*7F
$GPGSV,5,3,17,28,49,150,40,29,13,148,20,31,34,186,40,32,58,359,43*72
$GPGSV,5,4,17,36,52,277,,40,84,353,43,41,58,082,40,49,32,274,*7F
$GPGSV,5,5,17,50,10,089,*4A
$GLGSV,3,1,10,69,14,007,36,70,45,298,30,71,28,241,,73,15,194,*6F
$GLGSV,3,2,10,74,00,234,,80,12,141,20,82,13,140,18,83,50,096,31*69
$GLGSV,3,3,10,84,38,012,28,,,,41*5F
$GNGLL,0419.92882,S,05539.74665,E,120227.00,A,A*67
$GLGSV,3,1,10,69,14,007,36,70,45,298,30,71,28,241,,73,15,194,*6F
$GLGSV,3,2,10,74,00,234,,80,12,141,18,82,13,140,19,83,50,096,31*63
$GLGSV,3,3,10,84,38,012,28,,,,41*5F
$GNGLL,0419.92882,S,05539.74664,E,120228.00,A,A*69
$GNRMC,120229.00,A,0419.92883,S,05539.74662,E,0.022,,260525,,,A*70
$GNVTG,,T,,M,0.022,N,0.041,K,A*38
$GNGGA,120229.00,0419.92883,S,05539.74662,E,1,12,0.76,58.3,M,-47.6,M,,*4E
$GNGSA,A,3,32,28,27,31,18,16,10,29,08,41,,,1.28,0.76,1.03*11
$GNGSA,A,3,83,70,84,69,82,,,,,,,,1.28,0.76,1.03*11
$GPGSV,5,1,17,08,08,318,29,10,16,003,35,16,25,241,17,18,33,084,41*78
$GPGSV,5,2,17,23,02,041,39,25,00,122,,26,29,210,,27,43,309,42*70
$GNRMC,120230.00,A,0419.92884,S,05539.74662,E,0.025,,260525,,,A*78
$GNVTG,,T,,M,0.025,N,0.047,K,A*39
$GNGGA,120230.00,0419.92884,S,05539.74662,E,1,12,0.65,58.2,M,-47.6,M,,*42
$GNGSA,A,3,32,28,27,31,18,16,10,29,08,41,,,1.21,0.65,1.02*1B
$GNGSA,A,3,83,70,84,69,82,,,,,,,,1.21,0.65,1.02*1B
$GPGSV,5,1,17,08,08,318,28,10,16,003,34,16,25,241,16,18,33,084,41*79
$GPGSV,5,2,17,23,02,041,34,25,00,122,,26,29,210,,27,43,309,42*7D
$GPGSV,5,3,17,28,49,150,39,29,13,148,22,31,34,186,40,32,58,359,42*7F
$GPGSV,5,4,17,36,52,277,,40,84,353,43,41,58,082,41,49,32,274,*7E
$GPGSV,5,5,17,50,10,089,*4A
$GLGSV,3,1,10,69,14,007,36,70,45,298,30,71,28,241,,73,15,194,*6F
$GLGSV,3,2,10,74,00,234,,80,12,141,,82,13,140,19,83,50,096,33*68
$GLGSV,3,3,10,84,38,012,29,,,,41*5E
$GNGLL,0419.92884,S,05539.74662,E,120230.00,A,A*60
$GNRMC,120231.00,A,0419.92884,S,05539.74661,E,0.008,,260525,,,A*75
$GNVTG,,T,,M,0.008,N,0.016,K,A*32
$GNRMC,120232.00,A,0419.92887,S,05539.74660,E,0.042,,260525,,,A*7A
$GNVTG,,T,,M,0.042,N,0.078,K,A*34
$GNGGA,120232.00,0419.92887,S,05539.74660,E,1,12,0.65,58.2,M,-47.6,M,,*41
$GNGSA,A,3,32,28,27,31,18,16,10,29,08,41,,,1.21,0.65,1.02*1B
$GNGSA,A,3,83,70,84,69,82,,,,,,,,1.21,0.65,1.02*1B
$GPGSV,5,1,17,08,08,318,27,10,16,003,34,16,25,241,13,18,33,084,41*73
$GPGSV,5,2,17,23,02,041,28,25,00,122,,26,29,210,,27,43,309,41*73
$GPGSV,5,3,17,28,49,150,39,29,13,148,21,31,34,186,39,32,58,359,42*72
$GPGSV,5,4,17,36,52,277,,40,84,353,43,41,58,082,40,49,32,274,*7F
$GPGSV,5,5,17,50,10,089,*4A
$GLGSV,3,1,10,69,14,007,36,70,45,298,30,71,28,241,,73,15,194,*6F
$GLGSV,3,2,10,74,00,234,,80,12,141,,82,13,140,18,83,50,096,33*69
$GLGSV,3,3,10,84,38,012,28,,,,41*5F
$GNGLL,0419.92887,S,05539.74660,E,120232.00,A,A*63
$GLGSV,3,3,10,84,38,012,28,,,,41*5F
$GNGLL,0419.92887,S,05539.74660,E,120233.00,A,A*62
$GNRMC,120235.00,A,0419.92890,S,05539.74659,E,0.020,,260525,,,A*75
$GNVTG,,T,,M,0.020,N,0.037,K,A*3B
$GNGGA,120235.00,0419.92890,S,05539.74659,E,1,12,0.65,58.4,M,-47.6,M,,*4C
$GNGSA,A,3,32,28,27,31,18,16,10,29,08,41,,,1.21,0.65,1.02*1B
$GNGSA,A,3,83,70,84,69,82,,,,,,,,1.21,0.65,1.02*1B
$GPGSV,5,1,17,08,08,318,28,10,16,003,34,16,25,241,13,18,33,084,40*7D
$GPGSV,5,2,17,23,02,041,34,25,00,122,,26,29,210,,27,43,309,42*7D
$GPGSV,5,3,17,28,49,150,39,29,13,148,20,31,35,186,39,32,57,359,42*7D
$GPGSV,5,4,17,36,52,277,,40,84,353,43,41,58,082,42,49,32,274,*7D
$GPGSV,5,5,17,50,10,089,*4A
$GLGSV,3,1,10,69,14,007,37,70,45,298,30,71,28,241,,73,15,194,*6E
$GLGSV,3,2,10,74,00,234,,80,12,141,,82,13,140,21,83,50,096,34*64
$GLGSV,3,3,10,84,38,012,27,,,,41*50
$GNGLL,0419.92890,S,05539.74659,E,120235.00,A,A*68
$GPGSV,5,1,17,08,08,318,28,10,16,003,35,16,25,241,14,18,33,084,39*75
$GPGSV,5,2,17,23,02,041,33,25,00,122,,26,29,210,,27,43,309,42*7A
$GPGSV,5,3,17,28,49,150,38,29,13,148,18,31,35,186,39,32,57,359,42*77
$GPGSV,5,4,17,36,52,277,,40,84,353,42,41,58,082,43,49,32,274,*7D
$GPGSV,5,5,17,50,10,089,*4A
$GLGSV,3,1,10,69,14,007,37,70,45,298,30,71,28,241,,73,15,194,*6E
$GLGSV,3,2,10,74,00,234,,80,12,141,,82,13,140,20,83,50,096,33*62
$GLGSV,3,3,10,84,38,012,27,,,,40*51
$GNGLL,0419.92890,S,05539.74658,E,120236.00,A,A*6A
$GNRMC,120237.00,A,0419.92890,S,05539.74657,E,0.033,,260525,,,A*7B
$GNVTG,,T,,M,0.033,N,0.061,K,A*3A
$GNGGA,120237.00,0419.92890,S,05539.74657,E,1,12,0.65,58.4,M,-47.6,M,,*40
$GNGSA,A,3,32,28,27,31,18,16,10,29,08,41,,,1.21,0.65,1.02*1B
$GNGSA,A,3,83,70,84,69,82,,,,,,,,1.21,0.65,1.02*1B
$GPGSV,5,1,17,08,08,318,28,10,16,003,34,16,25,241,16,18,33,084,41*79
$GPGSV,5,2,17,23,02,041,32,25,00,122,,26,29,210,,27,43,309,42*7B
$GNRMC,120238.00,A,0419.92892,S,05539.74654,E,0.006,,260525,,,A*73
$GNVTG,,T,,M,0.006,N,0.011,K,A*3B
$GNGGA,120238.00,0419.92892,S,05539.74654,E,1,12,0.79,58.4,M,-47.6,M,,*43
$GNGSA,A,3,32,28,27,31,18,10,08,41,,,,,1.35,0.79,1.09*14
$GNGSA,A,3,83,70,84,69,82,,,,,,,,1.35,0.79,1.09*18
$GPGSV,5,1,17,08,08,318,28,10,16,003,37,16,25,241,,18,33,084,41*7D
$GPGSV,5,2,17,23,02,041,33,25,00,122,,26,29,210,21,27,43,309,43*78
$GPGSV,5,3,17,28,49,150,39,29,13,148,19,31,35,186,41,32,57,359,43*79
$GPGSV,5,4,17,36,52,277,,40,84,353,43,41,58,082,44,49,32,274,*7B
$GPGSV,5,5,17,50,10,089,*4A
$GLGSV,3,1,10,69,14,007,36,70,45,298,31,71,28,241,,73,15,194,*6E
$GLGSV,3,2,10,74,00,234,,80,12,141,,82,13,140,21,83,50,096,33*63
$GLGSV,3,3,10,84,38,012,26,,,,40*50
$GNGLL,0419.92892,S,05539.74654,E,120238.00,A,A*6A
$GNRMC,120239.00,A,0419.92893,S,05539.74653,E,0.013,,260525,,,A*70
$GNVTG,,T,,M,0.013,N,0.025,K,A*38
$GNGGA,120239.00,0419.92893,S,05539.74653,E,1,12,0.76,58.4,M,-47.6,M,,*4B
$GNGSA,A,3,32,28,27,31,18,10,29,08,41,,,,1.28,0.76,1.03*16
$GNGSA,A,3,83,70,84,69,82,,,,,,,,1.28,0.76,1.03*11
$GPGSV,5,1,17,08,08,318,29,10,16,003,36,16,25,241,,18,33,084,41*7D
$GPGSV,5,2,17,23,02,041,34,25,00,122,,26,29,210,21,27,43,309,43*7F
$GPGSV,5,3,17,28,49,150,39,29,13,148,20,31,35,186,41,32,57,359,43*73
$GPGSV,5,4,17,36,52,277,,40,84,353,43,41,58,082,44,49,32,274,*7B
$GPGSV,5,5,17,50,10,089,*4A
$GLGSV,3,1,10,69,14,007,36,70,45,298,31,71,28,241,,73,15,194,*6E
$GLGSV,3,2,10,74,00,234,,80,12,141,,82,13,140,22,83,50,096,33*60
$GLGSV,3,3,10,84,38,012,26,,,,40*50
$GNGLL,0419.92893,S,05539.74653,E,120239.00,A,A*6D
$GNRMC,120241.00,A,0419.92896,S,05539.74651,E,0.031,,260525,,,A*78
$GNVTG,,T,,M,0.031,N,0.057,K,A*3D
$GNGGA,120241.00,0419.92896,S,05539.74651,E,1,12,0.76,58.3,M,-47.6,M,,*44
$GNGSA,A,3,32,28,27,31,18,10,29,08,41,,,,1.28,0.76,1.03*16
$GNGSA,A,3,83,70,84,69,82,,,,,,,,1.28,0.76,1.03*11
$GPGSV,5,1,17,08,08,318,29,10,16,003,36,16,25,241,,18,33,084,40*7C
$GPGSV,5,2,17,23,02,041,35,25,00,122,,26,29,210,19,27,43,309,43*75
$GPGSV,5,3,17,28,49,150,38,29,13,148,21,31,35,186,41,32,57,359,42*72
$GPGSV,5,4,17,36,52,277,,40,84,353,42,41,58,082,43,49,32,274,*7D
$GPGSV,5,5,17,50,10,089,*4A
$GLGSV,3,1,10,69,14,007,36,70,45,298,31,71,28,241,,73,15,194,*6E
$GLGSV,3,2,10,74,00,234,,80,12,141,,82,13,140,21,83,50,096,33*63
$GLGSV,3,3,10,84,38,012,27,,,,40*51
$GNGLL,0419.92896,S,05539.74651,E,120241.00,A,A*65
$GNRMC,120242.00,A,0419.92897,S,05539.74649,E,0.018,,260525,,,A*78
$GNVTG,,T,,M,0.018,N,0.034,K,A*33
$GNGGA,120242.00,0419.92897,S,05539.74649,E,1,12,0.67,58.4,M,-47.6,M,,*48
$GNGSA,A,3,32,28,27,31,18,26,10,29,08,41,,,1.23,0.67,1.03*19
$GNGSA,A,3,83,70,84,69,82,,,,,,,,1.23,0.67,1.03*1A
$GPGSV,5,1,17,08,08,318,29,10,16,003,35,16,25,241,,18,33,084,40*7F
$GPGSV,5,2,17,23,02,041,35,25,00,122,,26,29,210,18,27,43,309,43*74
$GPGSV,5,3,17,28,49,150,39,29,13,148,21,31,35,186,41,32,57,359,42*73
$GPGSV,5,4,17,36,52,277,,40,84,353,42,41,58,082,43,49,32,274,*7D
$GPGSV,5,5,17,50,10,089,*4A
$GNRMC,120243.00,A,0419.92897,S,05539.74648,E,0.025,,260525,,,A*76
$GNVTG,,T,,M,0.025,N,0.046,K,A*38
$GNGGA,120243.00,0419.92897,S,05539.74648,E,1,12,0.69,58.4,M,-47.6,M,,*46
$GNGSA,A,3,32,28,27,31,18,26,10,08,41,,,,1.28,0.69,1.08*1C
$GNGSA,A,3,83,70,84,69,82,,,,,,,,1.28,0.69,1.08*14
$GPGSV,5,1,17,08,08,318,29,10,16,003,36,16,25,241,,18,33,084,40*7C
$GPGSV,5,2,17,23,02,041,34,25,00,122,,26,29,210,19,27,43,309,43*74
$GPGSV,5,3,17,28,49,150,39,29,13,148,20,31,35,186,41,32,57,359,42*72
$GPGSV,5,4,17,36,52,277,,40,84,353,42,41,58,082,43,49,32,274,*7D
$GPGSV,5,5,17,50,10,089,*4A
$GLGSV,3,1,10,69,14,007,36,70,45,298,31,71,28,241,,73,15,194,*6E
$GLGSV,3,2,10,74,00,234,,80,12,141,,82,13,140,22,83,50,096,33*60
$GLGSV,3,3,10,84,38,012,27,,,,40*51
$GNGLL,0419.92897,S,05539.74648,E,120243.00,A,A*6E
$GNRMC,120244.00,A,0419.92898,S,05539.74647,E,0.040,,260525,,,A*72
$GNVTG,,T,,M,0.040,N,0.074,K,A*3A
$GNGGA,120244.00,0419.92898,S,05539.74647,E,1,12,0.67,58.3,M,-47.6,M,,*48
$GNGSA,A,3,32,28,27,31,18,26,10,29,08,41,,,1.23,0.67,1.03*19
$GNGSA,A,3,83,70,84,69,82,,,,,,,,1.23,0.67,1.03*1A
$GPGSV,5,1,17,08,08,318,29,10,16,003,36,16,25,241,,18,33,084,40*7C
$GPGSV,5,2,17,23,02,041,32,25,00,122,20,26,29,210,19,27,43,309,43*70
$GPGSV,5,3,17,28,49,150,39,29,13,148,19,31,35,186,41,32,57,359,43*79
$GPGSV,5,4,17,36,52,277,,40,84,353,42,41,58,082,43,49,32,274,*7D
$GPGSV,5,5,17,50,10,089,*4A
$GLGSV,3,1,10,69,14,007,37,70,45,298,30,71,28,241,,73,15,194,*6E
$GLGSV,3,2,10,74,00,234,,80,12,141,,82,13,140,22,83,50,096,33*60
$GLGSV,3,3,10,84,38,012,26,,,,40*50
$GNGLL,0419.92898,S,05539.74647,E,120244.00,A,A*69
$GNRMC,120247.00,A,0419.92898,S,05539.74646,E,0.047,,260525,,,A*77
$GNVTG,,T,,M,0.047,N,0.086,K,A*30
$GNGGA,120247.00,0419.92898,S,05539.74646,E,1,12,0.79,58.3,M,-47.6,M,,*45
$GNGSA,A,3,32,28,27,31,18,10,08,41,,,,,1.35,0.79,1.09*14
$GNGSA,A,3,83,70,84,69,82,,,,,,,,1.35,0.79,1.09*18
$GPGSV,5,1,17,08,08,318,28,10,16,003,35,16,25,241,,18,33,084,40*7E
$GPGSV,5,2,17,23,02,041,34,25,00,122,14,26,29,210,12,27,43,309,42*7B
$GPGSV,5,3,17,28,49,150,38,29,13,148,,31,35,186,40,32,57,359,42*70
$GPGSV,5,4,17,36,52,277,,40,84,353,41,41,58,082,42,49,32,274,*7F
$GPGSV,5,5,17,50,10,089,*4A
$GLGSV,3,1,10,69,14,007,36,70,45,298,30,71,28,241,,73,15,194,*6F
$GLGSV,3,2,10,74,00,234,,80,12,141,,82,13,140,20,83,50,096,33*62
$GLGSV,3,3,10,84,38,012,26,,,,40*50
$GNGLL,0419.92898,S,05539.74646,E,120247.00,A,A*6B
$GNRMC,120248.00,A,0419.92898,S,05539.74645,E,0.022,,260525,,,A*78
$GNVTG,,T,,M,0.022,N,0.041,K,A*38
$GNGGA,120248.00,0419.92898,S,05539.74645,E,1,12,0.79,58.2,M,-47.6,M,,*48
$GNGSA,A,3,32,28,27,31,18,10,08,41,,,,,1.35,0.79,1.09*14
$GNGSA,A,3,83,70,84,69,82,,,,,,,,1.35,0.79,1.09*18
$GPGSV,5,1,17,08,08,318,28,10,16,003,35,16,25,241,,18,33,084,40*7E
$GPGSV,5,2,17,23,02,041,32,25,00,122,11,26,29,210,13,27,43,309,42*79
$GPGSV,5,3,17,28,49,150,39,29,13,148,,31,35,186,40,32,57,359,42*71
$GPGSV,5,4,17,36,52,277,,40,84,353,41,41,58,082,42,49,32,274,*7F
$GPGSV,5,5,17,50,10,089,*4A
$GLGSV,3,1,10,69,14,007,36,70,45,298,31,71,28,241,,73,15,194,*6E
$GLGSV,3,2,10,74,00,234,,80,12,141,,82,13,140,20,83,50,096,33*62
$GLGSV,3,3,10,84,38,012,27,,,,40*51
$GNGLL,0419.92898,S,05539.74645,E,120248.00,A,A*67
