b0X(z
Fua*|x.!7EOb{4V_:R 
YzA5B(bC!DMNF~
O@QRR&Xmb(z6~U6K$GNRMC,062735.00,A,0419.82766,S,05539.88745,E,1.454,,020625,,,A*7C
$GNVTG,,T,,M,1.454,N,2.692,K,A*36
$GNGNS,062735.00,0419.82766,S,05539.88745,E,AA,05,3.26,-16.7,-47.6,,*4A
$GNGGA,062735.00,0419.82766,S,05539.88745,E,1,05,3.26,-16.7,M,-47.6,M,,*60
$GNGSA,A,3,12,15,25,,,,,,,,,,7.33,3.26,6.56*19
$GNGSA,A,3,78,66,,,,,,,,,,,7.33,3.26,6.56*16
$GPGSV,5,1,17,05,30,031,25,10,13,214,,12,70,117,21,13,12,097,*73
$GPGSV,5,2,17,15,42,124,29,18,30,302,24,20,00,033,,23,55,218,18*7A
$GPGSV,5,3,17,24,28,169,19,25,69,335,28,28,08,283,,29,18,354,17*79
$GPGSV,5,4,17,36,52,277,,40,86,351,,41,58,082,,49,32,274,*7C
$GPGSV,5,5,17,50,10,089,*4A
$GLGSV,3,1,10,65,11,053,,66,40,098,18,67,33,170,26,68,00,204,*64
$GLGSV,3,2,10,77,29,166,,78,70,257,23,79,27,320,22,81,09,338,*64
$GLGSV,3,3,10,82,06,294,,88,00,026,*63
$GNGLL,0419.82766,S,05539.88745,E,062735.00,A,A*62
$GNGRS,062735.00,1,-10.3,-6.5,-4.9,,,,,,,,,*6A
$GNGRS,062735.00,1,3.8,1.5,,,,,,,,,,*5A
$GNGST,062735.00,47,,,,26,26,46*63
$GNZDA,062735.00,02,06,2025,00,00*7C
$GNGBS,062735.00,,,,,,,*74
$GNTXT,01,01,01,More than 100 frame errors, UART RX was disabled*70
b0X~
FuVa*|3.!7EO[b{4V_:R 
YzA5B(byC!DMNF
O@QSR&Xb~6fY$GNRMC,062736.00,A,0419.82712,S,05539.88779,E,1.732,39.49,020625,,,A*59
$GNVTG,39.49,T,,M,1.732,N,3.208,K,A*1A
$GNGNS,062736.00,0419.82712,S,05539.88779,E,AA,05,3.26,-17.9,-47.6,,*4A
$GNGGA,062736.00,0419.82712,S,05539.88779,E,1,05,3.26,-17.9,M,-47.6,M,,*60
$GNGSA,A,3,12,15,25,,,,,,,,,,7.33,3.26,6.56*19
$GNGSA,A,3,78,66,,,,,,,,,,,7.33,3.26,6.56*16
$GPGSV,5,1,17,05,30,031,23,10,13,214,,12,70,117,19,13,12,097,*7E
$GPGSV,5,2,17,15,42,124,31,18,30,302,23,20,00,033,,23,55,218,14*78
$GPGSV,5,3,17,24,28,169,16,25,69,335,29,28,08,283,,29,18,354,15*75
$GPGSV,5,4,17,36,52,277,,40,86,351,,41,58,082,,49,32,274,*7C
$GPGSV,5,5,17,50,10,089,*4A
$GLGSV,3,1,10,65,11,053,,66,40,098,17,67,33,170,24,68,00,204,*69
$GLGSV,3,2,10,77,29,166,,78,70,257,21,79,27,320,22,81,09,339,*67
$GLGSV,3,3,10,82,06,294,,88,00,026,*63
$GNGLL,0419.82712,S,05539.88779,E,062736.00,A,A*6D
$GNGRS,062736.00,1,-9.4,-2.1,-6.8,,,,,,,,,*55
$GNGRS,062736.00,1,5.0,3.8,,,,,,,,,,*58
$GNGST,062736.00,47,,,,26,25,46*63
$GNZDA,062736.00,02,06,2025,00,00*7F
$GNGBS,062736.00,25.8,25.2,45.9,,,,*6B
$GNTXT,01,01,01,More than 100 frame errors, UART RX was disabled*70
b0X
FuJa*|3.!7EOb{4V_:R 
YzA5B(bC!DMNF
O@QSR'Xbb6N]$GNRMC,062737.00,A,0419.82722,S,05539.88748,E,1.425,,020625,,,A*75
$GNVTG,,T,,M,1.425,N,2.639,K,A*31
$GNGNS,062737.00,0419.82722,S,05539.88748,E,AA,05,3.26,-18.8,-47.6,,*44
$GNGGA,062737.00,0419.82722,S,05539.88748,E,1,05,3.26,-18.8,M,-47.6,M,,*6E
$GNGSA,A,3,12,15,25,,,,,,,,,,7.33,3.26,6.56*19
$GNGSA,A,3,78,66,,,,,,,,,,,7.33,3.26,6.56*16
$GPGSV,5,1,17,05,30,031,23,10,13,214,,12,70,117,20,13,12,097,09*7D
$GPGSV,5,2,17,15,42,124,30,18,30,302,22,20,00,033,,23,55,218,18*74
$GPGSV,5,3,17,24,28,169,16,25,69,335,28,28,08,283,,29,18,354,16*77
$GPGSV,5,4,17,36,52,277,,40,86,351,,41,58,082,,49,32,274,*7C
$GPGSV,5,5,17,50,10,089,*4A
$GLGSV,3,1,10,65,11,053,,66,40,098,15,67,33,170,22,68,00,204,*6D
$GLGSV,3,2,10,77,29,166,,78,70,257,19,79,27,320,22,81,09,339,*6C
$GLGSV,3,3,10,82,06,295,,88,00,026,*62
$GNGLL,0419.82722,S,05539.88748,E,062737.00,A,A*6D
$GNGRS,062737.00,1,-9.5,-4.6,-3.5,,,,,,,,,*5C
$GNGRS,062737.00,1,5.0,4.2,,,,,,,,,,*54
$GNGST,062737.00,51,,,,26,25,46*65
$GNZDA,062737.00,02,06,2025,00,00*7E
$GNGBS,062737.00,,,,,,,*76
$GNTXT,01,01,01,More than 100 frame errors, UART RX was disabled*70
b0X
Fua"*|.!7!EOb{4V_:R 
YzA5B(bC!DMNF
O@QSR'Xkb66at$GNRMC,062738.00,A,0419.82755,S,05539.88740,E,1.105,,020625,,,A*75
$GNVTG,,T,,M,1.105,N,2.047,K,A*39
$GNGNS,062738.00,0419.82755,S,05539.88740,E,AA,05,3.26,-17.5,-47.6,,*41
$GNGGA,062738.00,0419.82755,S,05539.88740,E,1,05,3.26,-17.5,M,-47.6,M,,*6B
$GNGSA,A,3,12,15,25,,,,,,,,,,7.33,3.26,6.56*19
$GNGSA,A,3,78,66,,,,,,,,,,,7.33,3.26,6.56*16
$GPGSV,5,1,17,05,30,031,22,10,13,214,,12,70,117,20,13,12,097,15*71
$GPGSV,5,2,17,15,42,124,34,18,30,302,23,20,00,033,,23,55,218,19*70
$GPGSV,5,3,17,24,28,169,18,25,69,335,33,28,08,283,,29,18,354,*74
$GPGSV,5,4,17,36,52,277,,40,86,351,,41,58,082,,49,32,274,*7C
$GPGSV,5,5,17,50,10,089,*4A
$GLGSV,3,1,10,65,11,053,,66,40,098,17,67,33,170,23,68,00,204,*6E
$GLGSV,3,2,10,77,29,166,,78,70,257,19,79,27,320,22,81,09,339,*6C
$GLGSV,3,3,10,82,06,295,,88,00,026,*62
$GNGLL,0419.82755,S,05539.88740,E,062738.00,A,A*6A
$GNGRS,062738.00,1,-6.0,-5.1,-3.6,,,,,,,,,*5C
$GNGRS,062738.00,1,4.9,2.0,,,,,,,,,,*57
$GNGST,062738.00,44,,,,25,25,46*6D
$GNZDA,062738.00,02,06,2025,00,00*71
$GNGBS,062738.00,25.3,24.8,45.9,,,,*65
$GNTXT,01,01,01,More than 100 frame errors, UART RX was disabled*70
b0X
Fua#*|.!7 EO7b{4V_:R 
YzA5B(bC!DMNF
O@QSR'Xb6e$GNRMC,062739.00,A,0419.82781,S,05539.88711,E,0.696,,020625,,,A*75
$GNVTG,,T,,M,0.696,N,1.290,K,A*3E
$GNGNS,062739.00,0419.82781,S,05539.88711,E,AA,05,3.26,-17.3,-47.6,,*4B
$GNGGA,062739.00,0419.82781,S,05539.88711,E,1,05,3.26,-17.3,M,-47.6,M,,*61
$GNGSA,A,3,12,15,25,,,,,,,,,,7.33,3.26,6.57*18
$GNGSA,A,3,78,66,,,,,,,,,,,7.33,3.26,6.57*17
$GPGSV,5,1,17,05,30,031,21,10,13,214,,12,70,117,21,13,12,097,17*71
$GPGSV,5,2,17,15,42,124,35,18,30,302,22,20,00,033,,23,55,218,18*71
$GPGSV,5,3,17,24,28,169,19,25,69,335,32,28,08,283,,29,18,354,*74
$GPGSV,5,4,17,36,52,277,,40,86,351,,41,58,082,,49,32,274,*7C
$GPGSV,5,5,17,50,10,089,*4A
$GLGSV,3,1,10,65,11,053,,66,40,098,18,67,33,170,25,68,00,204,*67
$GLGSV,3,2,10,77,29,166,,78,70,257,17,79,27,320,23,81,09,339,*63
$GLGSV,3,3,10,82,06,295,,88,00,026,*62
$GNGLL,0419.82781,S,05539.88711,E,062739.00,A,A*66
$GNGRS,062739.00,1,-5.4,-5.1,-2.0,,,,,,,,,*5D
$GNGRS,062739.00,1,3.9,-1.2,,,,,,,,,,*7D
$GNGST,062739.00,46,,,,25,25,46*6E
$GNZDA,062739.00,02,06,2025,00,00*70
$GNGBS,062739.00,,,,,,,*78
$GNTXT,01,01,01,More than 100 frame errors, UART RX was disabled*70
b0X
Fua"*|4.!7 EOfb{4V_:R 
YzA5B(bvC!DMNF
O@QSR'X0b6imD$GNRMC,062740.00,A,0419.82825,S,05539.88660,E,0.287,,020625,,,A*79
$GNVTG,,T,,M,0.287,N,0.532,K,A*34
$GNGNS,062740.00,0419.82825,S,05539.88660,E,AA,05,3.26,-17.3,-47.6,,*43
$GNGGA,062740.00,0419.82825,S,05539.88660,E,1,05,3.26,-17.3,M,-47.6,M,,*69
$GNGSA,A,3,12,15,25,,,,,,,,,,7.33,3.26,6.57*18
$GNGSA,A,3,78,66,,,,,,,,,,,7.33,3.26,6.57*17
$GPGSV,5,1,17,05,30,031,20,10,13,214,,12,70,117,23,13,12,097,16*73
$GPGSV,5,2,17,15,42,124,34,18,30,302,22,20,00,033,,23,55,218,17*7F
$GPGSV,5,3,17,24,28,169,17,25,69,335,32,28,08,283,,29,18,354,*7A
$GPGSV,5,4,17,36,52,277,,40,86,351,,41,58,082,,49,32,274,*7C
$GPGSV,5,5,17,50,10,089,*4A
$GLGSV,3,1,10,65,11,053,,66,40,098,18,67,33,170,25,68,00,204,*67
$GLGSV,3,2,10,77,29,166,,78,70,257,15,79,27,320,24,81,09,339,*66
$GLGSV,3,3,10,82,06,295,,88,00,026,*62
$GNGLL,0419.82825,S,05539.88660,E,062740.00,A,A*6E
$GNGRS,062740.00,1,-5.8,-4.6,-1.5,,,,,,,,,*5F
$GNGRS,062740.00,1,4.3,-1.4,,,,,,,,,,*78
$GNGST,062740.00,47,,,,25,25,46*61
$GNZDA,062740.00,02,06,2025,00,00*7E
$GNGBS,062740.00,25.0,24.6,45.9,,,,*67
$GNTXT,01,01,01,More than 100 frame errors, UART RX was disabled*70
b0X
Fua!*|f.!7 EOb{4V_:R 
YzA5B(bC!DMNF
O@QSR'Xb6lD$GNRMC,062741.00,A,0419.82835,S,05539.88640,E,0.194,,020625,,,A*7A
$GNVTG,,T,,M,0.194,N,0.359,K,A*3E
$GNGNS,062741.00,0419.82835,S,05539.88640,E,AA,05,3.26,-17.6,-47.6,,*44
$GNGGA,062741.00,0419.82835,S,05539.88640,E,1,05,3.26,-17.6,M,-47.6,M,,*6E
$GNGSA,A,3,12,15,25,,,,,,,,,,7.33,3.26,6.57*18
$GNGSA,A,3,78,66,,,,,,,,,,,7.33,3.26,6.57*17
$GPGSV,5,1,17,05,30,031,19,10,13,214,,12,70,117,25,13,12,097,16*7F
$GPGSV,5,2,17,15,42,124,33,18,30,302,24,20,00,033,,23,55,218,19*70
$GPGSV,5,3,17,24,28,169,17,25,69,335,32,28,08,283,,29,18,354,*7A
$GPGSV,5,4,17,36,52,277,,40,86,351,,41,58,082,,49,32,274,*7C
$GPGSV,5,5,17,50,10,089,*4A
$GLGSV,3,1,10,65,11,053,,66,40,098,19,67,33,170,24,68,00,204,*67
$GLGSV,3,2,10,77,29,166,,78,70,257,12,79,27,320,24,81,09,339,*61
$GLGSV,3,3,10,82,06,295,,88,00,026,*62
$GNGLL,0419.82835,S,05539.88640,E,062741.00,A,A*6C
$GNGRS,062741.00,1,-4.9,-4.1,-1.3,,,,,,,,,*5F
$GNGRS,062741.00,1,4.8,-2.9,,,,,,,,,,*7C
$GNGST,062741.00,49,,,,25,25,46*6E
$GNZDA,062741.00,02,06,2025,00,00*7F
$GNGBS,062741.00,,,,,,,*77
$GNTXT,01,01,01,More than 100 frame errors, UART RX was disabled*70
b0X
Fuha!*|.!7 EOBb{4V_:R 
YzA5B(bC!DMN
F
O@QSR'Xrlb6p$GNRMC,062742.00,A,0419.82837,S,05539.88632,E,0.133,,020625,,,A*73
$GNVTG,,T,,M,0.133,N,0.247,K,A*3D
$GNGNS,062742.00,0419.82837,S,05539.88632,E,AA,05,3.26,-17.7,-47.6,,*41
$GNGGA,062742.00,0419.82837,S,05539.88632,E,1,05,3.26,-17.7,M,-47.6,M,,*6B
$GNGSA,A,3,12,15,25,,,,,,,,,,7.33,3.26,6.57*18
$GNGSA,A,3,78,66,,,,,,,,,,,7.33,3.26,6.57*17
$GPGSV,5,1,17,05,30,031,17,10,13,214,,12,70,117,25,13,12,097,15*72
$GPGSV,5,2,17,15,42,124,33,18,30,302,23,20,00,033,,23,55,218,22*7F
$GPGSV,5,3,17,24,28,169,17,25,69,335,32,28,08,283,,29,18,354,*7A
$GPGSV,5,4,17,36,52,277,,40,86,351,,41,58,082,,49,32,274,*7C
$GPGSV,5,5,17,50,10,089,*4A
$GLGSV,3,1,10,65,11,053,,66,40,098,19,67,33,170,24,68,00,204,*67
$GLGSV,3,2,10,77,29,166,,78,70,257,10,79,27,320,23,81,09,339,*64
$GLGSV,3,3,10,82,06,295,,88,00,026,*62
$GNGLL,0419.82837,S,05539.88632,E,062742.00,A,A*68
$GNGRS,062742.00,1,-4.1,-5.0,-1.9,,,,,,,,,*5E
$GNGRS,062742.00,1,4.7,-3.3,,,,,,,,,,*7B
$GNGST,062742.00,134071,,,,25,25,46*60
$GNZDA,062742.00,02,06,2025,00,00*7C
$GNGBS,062742.00,25.1,24.9,45.8,,,,*6A
$GNTXT,01,01,01,More than 100 frame errors, UART RX was disabled*70
b0Xh
Fua *|".!7EOb{4V_:R 
YzA5B(b5C!DMNF
O@QSR'X$bh6ty$GNRMC,062743.00,A,0419.82891,S,05539.88578,E,0.338,,020625,,,A*7A
$GNVTG,,T,,M,0.338,N,0.627,K,A*36
$GNGNS,062743.00,0419.82891,S,05539.88578,E,AA,05,3.26,-18.0,-47.6,,*49
$GNGGA,062743.00,0419.82891,S,05539.88578,E,1,05,3.26,-18.0,M,-47.6,M,,*63
$GNGSA,A,3,12,15,25,,,,,,,,,,7.33,3.26,6.57*18
$GNGSA,A,3,78,66,,,,,,,,,,,7.33,3.26,6.57*17
$GPGSV,5,1,17,05,30,031,16,10,13,214,,12,70,117,25,13,12,097,14*72
$GPGSV,5,2,17,15,42,124,32,18,30,302,23,20,00,033,,23,55,218,22*7E
$GPGSV,5,3,17,24,28,169,17,25,69,335,31,28,08,283,,29,18,354,*79
$GPGSV,5,4,17,36,52,277,,40,86,351,,41,58,082,,49,32,274,*7C
$GPGSV,5,5,17,50,10,089,*4A
$GLGSV,3,1,10,65,11,053,,66,40,098,19,67,33,170,23,68,00,204,*60
$GLGSV,3,2,10,77,29,166,,78,70,257,16,79,27,320,26,81,09,339,*67
$GLGSV,3,3,10,82,06,295,,88,00,027,*63
$GNGLL,0419.82891,S,05539.88578,E,062743.00,A,A*68
$GNGRS,062743.00,1,-2.5,0.3,-1.0,,,,,,,,,*7F
$GNGRS,062743.00,1,4.1,-2.0,,,,,,,,,,*7E
$GNGST,062743.00,134071,,,,25,25,46*61
$GNZDA,062743.00,02,06,2025,00,00*7D
$GNGBS,062743.00,,,,,,,*75
$GNTXT,01,01,01,More than 100 frame errors, UART RX was disabled*70
b0XP
Fu%a *|_.!7 EOBb{4V_:R 
YzA5B(bC!DMNF
O@QSR'XZRbP6x$GNRMC,062744.00,A,0419.82960,S,05539.88519,E,0.857,,020625,,,A*77
$GNVTG,,T,,M,0.857,N,1.587,K,A*3C
$GNGNS,062744.00,0419.82960,S,05539.88519,E,AA,05,3.26,-17.8,-47.6,,*41
$GNGGA,062744.00,0419.82960,S,05539.88519,E,1,05,3.26,-17.8,M,-47.6,M,,*6B
$GNGSA,A,3,12,15,25,,,,,,,,,,7.34,3.26,6.57*1F
$GNGSA,A,3,78,66,,,,,,,,,,,7.34,3.26,6.57*10
$GPGSV,5,1,17,05,30,031,16,10,13,214,,12,70,117,25,13,12,097,14*72
$GPGSV,5,2,17,15,42,124,32,18,30,302,22,20,00,033,,23,55,218,22*7F
$GPGSV,5,3,17,24,28,169,15,25,69,335,32,28,08,283,,29,18,354,*78
$GPGSV,5,4,17,36,52,277,,40,86,351,,41,58,082,,49,32,274,*7C
$GPGSV,5,5,17,50,10,089,*4A
$GLGSV,3,1,10,65,11,053,,66,40,098,19,67,33,170,23,68,00,204,*60
$GLGSV,3,2,10,77,29,166,,78,70,257,16,79,27,320,26,81,09,339,*67
$GLGSV,3,3,10,82,06,295,,88,00,027,*63
$GNGLL,0419.82960,S,05539.88519,E,062744.00,A,A*67
$GNGRS,062744.00,1,0.4,-1.6,-1.9,,,,,,,,,*76
$GNGRS,062744.00,1,-2.8,-3.7,,,,,,,,,,*5D
$GNGST,062744.00,45,,,,25,25,46*67
$GNZDA,062744.00,02,06,2025,00,00*7A
$GNGBS,062744.00,25.1,25.1,45.7,,,,*6A
$GNTXT,01,01,01,More than 100 frame errors, UART RX was disabled*70
b0X8
Fu6a!*|.!7EOb{4V_:R 
YzA5B(bC!DMNF
O@QSR'Xb86|I$GNRMC,062745.00,A,0419.82958,S,05539.88520,E,0.632,,020625,,,A*7A
$GNVTG,,T,,M,0.632,N,1.170,K,A*3D
$GNGNS,062745.00,0419.82958,S,05539.88520,E,AA,05,3.26,-17.6,-47.6,,*4F
$GNGGA,062745.00,0419.82958,S,05539.88520,E,1,05,3.26,-17.6,M,-47.6,M,,*65
$GNGSA,A,3,12,15,25,,,,,,,,,,7.34,3.26,6.57*1F
$GNGSA,A,3,78,66,,,,,,,,,,,7.34,3.26,6.57*10
$GPGSV,5,1,17,05,30,031,18,10,13,214,,12,70,117,25,13,12,097,13*7B
$GPGSV,5,2,17,15,42,124,33,18,30,302,22,20,00,033,,23,55,218,22*7E
$GPGSV,5,3,17,24,28,169,14,25,69,335,31,28,08,283,,29,18,354,*7A
$GPGSV,5,4,17,36,52,277,,40,86,351,,41,58,082,,49,32,274,*7C
$GPGSV,5,5,17,50,10,089,*4A
$GLGSV,3,1,10,65,11,053,,66,40,098,21,67,33,170,23,68,00,204,*6B
$GLGSV,3,2,10,77,29,166,,78,70,257,16,79,27,320,25,81,09,339,*64
$GLGSV,3,3,10,82,06,295,,88,00,027,*63
$GNGLL,0419.82958,S,05539.88520,E,062745.00,A,A*67
$GNGRS,062745.00,1,0.5,-3.6,-0.8,,,,,,,,,*74
$GNGRS,062745.00,1,-3.7,-3.8,,,,,,,,,,*5D
$GNGST,062745.00,112620,,,,25,25,46*61
$GNZDA,062745.00,02,06,2025,00,00*7B
$GNGBS,062745.00,,,,,,,*73
$GNTXT,01,01,01,More than 100 frame errors, UART RX was disabled*70
b0X 
Fua *|.!7EOb{4V_:R 
YzA5B(bC!DMNF
O@QSR'Xb 6v|$GNRMC,062746.00,A,0419.82964,S,05539.88520,E,0.450,,020625,,,A*70
$GNVTG,,T,,M,0.450,N,0.834,K,A*33
$GNGNS,062746.00,0419.82964,S,05539.88520,E,AA,05,3.26,-17.4,-47.6,,*41
$GNGGA,062746.00,0419.82964,S,05539.88520,E,1,05,3.26,-17.4,M,-47.6,M,,*6B
$GNGSA,A,3,12,15,25,,,,,,,,,,7.34,3.26,6.57*1F
$GNGSA,A,3,78,66,,,,,,,,,,,7.34,3.26,6.57*10
$GPGSV,5,1,17,05,30,031,19,10,13,214,,12,70,117,23,13,12,097,16*79
$GPGSV,5,2,17,15,42,124,32,18,30,302,21,20,00,033,,23,55,218,20*7E
$GPGSV,5,3,17,24,28,169,14,25,69,335,31,28,08,283,,29,18,354,*7A
$GPGSV,5,4,17,36,52,277,,40,86,351,,41,58,082,,49,32,274,*7C
$GPGSV,5,5,17,50,10,089,*4A
$GLGSV,3,1,10,65,11,053,,66,40,098,21,67,33,170,22,68,00,204,*6A
$GLGSV,3,2,10,77,29,166,,78,70,257,16,79,27,320,25,81,09,339,*64
$GLGSV,3,3,10,82,06,295,,88,00,027,*63
$GNGLL,0419.82964,S,05539.88520,E,062746.00,A,A*6B
$GNGRS,062746.00,1,1.4,1.5,-1.2,,,,,,,,,*50
$GNGRS,062746.00,1,-3.5,-6.1,,,,,,,,,,*50
$GNGST,062746.00,166248,,,,25,26,46*68
$GNZDA,062746.00,02,06,2025,00,00*78
$GNGBS,062746.00,25.5,25.7,45.7,,,,*6A
$GNTXT,01,01,01,More than 100 frame errors, UART RX was disabled*70
b0X
Fua *|.!7 EOb{4V_:R 
YzA5B(bC!DMNFw
O@QSR'Xb6^T$GNRMC,062747.00,A,0419.82977,S,05539.88514,E,0.211,,020625,,,A*77
$GNVTG,,T,,M,0.211,N,0.391,K,A*34
$GNGNS,062747.00,0419.82977,S,05539.88514,E,AA,05,3.26,-17.1,-47.6,,*40
$GNGGA,062747.00,0419.82977,S,05539.88514,E,1,05,3.26,-17.1,M,-47.6,M,,*6A
$GNGSA,A,3,12,15,25,,,,,,,,,,7.34,3.26,6.58*10
$GNGSA,A,3,78,66,,,,,,,,,,,7.34,3.26,6.58*1F
$GPGSV,5,1,17,05,30,031,21,10,13,214,,12,70,117,23,13,12,097,17*73
$GPGSV,5,2,17,15,42,124,32,18,30,302,22,20,00,033,,23,55,218,20*7D
$GPGSV,5,3,17,24,28,169,15,25,69,335,32,28,08,283,,29,18,354,*78
$GPGSV,5,4,17,36,52,277,,40,86,351,,41,58,082,,49,32,274,*7C
$GPGSV,5,5,17,50,10,089,*4A
$GLGSV,3,1,10,65,11,053,,66,40,098,21,67,33,170,21,68,00,204,*69
$GLGSV,3,2,10,77,29,166,,78,70,257,11,79,27,320,25,81,09,339,*63
$GLGSV,3,3,10,82,06,295,,88,00,027,*63
$GNGLL,0419.82977,S,05539.88514,E,062747.00,A,A*6F
$GNGRS,062747.00,1,4.4,-0.3,0.2,,,,,,,,,*52
$GNGRS,062747.00,1,6.3,-7.9,,,,,,,,,,*76
$GNGST,062747.00,50,,,,25,26,46*63
$GNZDA,062747.00,02,06,2025,00,00*79
$GNGBS,062747.00,,,,,,,*71
$GNTXT,01,01,01,More than 100 frame errors, UART RX was disabled*70
b0X
Fua *|.!7EOb{4V_:R 
YzA5B(bC!DMNFE
O@QSR'Xb6F+r$GNRMC,062748.00,A,0419.83018,S,05539.88476,E,0.355,,020625,,,A*7D
$GNVTG,,T,,M,0.355,N,0.657,K,A*3A
$GNGNS,062748.00,0419.83018,S,05539.88476,E,AA,05,3.26,-16.5,-47.6,,*4E
$GNGGA,062748.00,0419.83018,S,05539.88476,E,1,05,3.26,-16.5,M,-47.6,M,,*64
$GNGSA,A,3,12,15,25,,,,,,,,,,7.34,3.26,6.58*10
$GNGSA,A,3,78,66,,,,,,,,,,,7.34,3.26,6.58*1F
$GPGSV,5,1,17,05,30,031,22,10,13,214,,12,70,117,24,13,12,097,15*75
$GPGSV,5,2,17,15,42,124,32,18,30,302,22,20,00,033,,23,55,218,20*7D
$GPGSV,5,3,17,24,28,169,16,25,69,335,31,28,08,283,,29,18,354,*78
$GPGSV,5,4,17,36,52,277,,40,86,351,,41,58,082,,49,32,274,*7C
$GPGSV,5,5,17,50,10,089,*4A
$GLGSV,3,1,10,65,11,053,,66,40,098,22,67,33,170,21,68,00,204,*6A
$GLGSV,3,2,10,77,29,166,,78,70,257,11,79,27,320,25,81,09,339,*63
$GLGSV,3,3,10,82,06,295,,88,00,027,*63
$GNGLL,0419.83018,S,05539.88476,E,062748.00,A,A*64
$GNGRS,062748.00,1,5.3,-2.2,2.2,,,,,,,,,*5A
$GNGRS,062748.00,1,-4.4,-8.4,,,,,,,,,,*53
$GNGST,062748.00,182337,,,,26,26,46*66
$GNZDA,062748.00,02,06,2025,00,00*76
$GNGBS,062748.00,25.6,26.0,45.7,,,,*63
$GNTXT,01,01,01,More than 100 frame errors, UART RX was disabled*70
b0X
Fua *|.!7 EOb{4V_:R 
YzA5B(bC!DMNF
O@QSR'X~b6.$GNRMC,062749.00,A,0419.83074,S,05539.88423,E,0.583,,020625,,,A*7B
$GNVTG,,T,,M,0.583,N,1.079,K,A*3C
$GNGNS,062749.00,0419.83074,S,05539.88423,E,AA,05,3.26,-16.2,-47.6,,*42
$GNGGA,062749.00,0419.83074,S,05539.88423,E,1,05,3.26,-16.2,M,-47.6,M,,*68
$GNGSA,A,3,12,15,25,,,,,,,,,,7.34,3.26,6.58*10
$GNGSA,A,3,78,66,,,,,,,,,,,7.34,3.26,6.58*1F
$GPGSV,5,1,17,05,30,031,22,10,13,214,,12,70,117,24,13,12,097,15*75
$GPGSV,5,2,17,15,42,124,32,18,30,302,22,20,00,033,,23,55,218,22*7F
$GPGSV,5,3,17,24,28,169,17,25,69,335,32,28,08,283,,29,18,354,*7A
$GPGSV,5,4,17,36,52,277,,40,86,351,,41,58,082,,49,32,274,*7C
$GPGSV,5,5,17,50,10,089,*4A
$GLGSV,3,1,10,65,11,053,,66,40,098,21,67,33,170,19,68,00,204,*62
$GLGSV,3,2,10,77,29,166,,78,70,257,13,79,27,320,26,81,09,339,*62
$GLGSV,3,3,10,82,06,295,,88,00,027,*63
$GNGLL,0419.83074,S,05539.88423,E,062749.00,A,A*6F
$GNGRS,062749.00,1,5.2,-0.1,2.4,,,,,,,,,*5D
$GNGRS,062749.00,1,-5.2,-8.0,,,,,,,,,,*51
$GNGST,062749.00,268143,,,,26,26,46*61
$GNZDA,062749.00,02,06,2025,00,00*77
$GNGBS,062749.00,,,,,,,*7F
$GNTXT,01,01,01,More than 100 frame errors, UART RX was disabled*70
b0X
FuTa*|g.!7EOb{4V_:R 
YzA5B(bC!DMNF
O@QSR'Xb6B$GNRMC,062750.00,A,0419.83057,S,05539.88456,E,0.194,,020625,,,A*72
$GNVTG,,T,,M,0.194,N,0.360,K,A*34
$GNGNS,062750.00,0419.83057,S,05539.88456,E,AA,05,3.26,-15.7,-47.6,,*4F
$GNGGA,062750.00,0419.83057,S,05539.88456,E,1,05,3.26,-15.7,M,-47.6,M,,*65
$GNGSA,A,3,12,15,25,,,,,,,,,,7.34,3.26,6.58*10
$GNGSA,A,3,78,66,,,,,,,,,,,7.34,3.26,6.58*1F
$GPGSV,5,1,17,05,30,031,20,10,13,214,,12,70,117,22,13,12,097,14*70
$GPGSV,5,2,17,15,42,124,31,18,30,302,23,20,00,033,,23,55,218,23*7C
$GPGSV,5,3,17,24,28,169,14,25,69,335,26,28,08,283,,29,18,354,*7C
$GPGSV,5,4,17,36,52,277,,40,86,351,,41,58,082,,49,32,274,*7C
$GPGSV,5,5,17,50,10,089,*4A
$GLGSV,3,1,10,65,11,053,,66,40,098,21,67,33,170,21,68,00,204,*69
$GLGSV,3,2,10,77,29,166,,78,70,257,13,79,27,320,26,81,09,339,*62
$GLGSV,3,3,10,82,06,295,,88,00,027,*63
$GNGLL,0419.83057,S,05539.88456,E,062750.00,A,A*64
$GNGRS,062750.00,1,6.0,3.6,-1.0,,,,,,,,,*57
$GNGRS,062750.00,1,-3.8,-6.3,,,,,,,,,,*58
$GNGST,062750.00,52,,,,26,26,46*64
$GNZDA,062750.00,02,06,2025,00,00*7F
$GNGBS,062750.00,25.7,26.2,45.8,,,,*66
$GNTXT,01,01,01,More than 100 frame errors, UART RX was disabled*70
b0X
FuZa*|/.!7EORb{4V_:R 
YzA5B(b#C!DMNF
O@QSR'X?$b6$GNRMC,062751.00,A,0419.83016,S,05539.88517,E,0.247,,020625,,,A*7F
$GNVTG,,T,,M,0.247,N,0.457,K,A*3A
$GNGNS,062751.00,0419.83016,S,05539.88517,E,AA,05,3.26,-15.0,-47.6,,*48
$GNGGA,062751.00,0419.83016,S,05539.88517,E,1,05,3.26,-15.0,M,-47.6,M,,*62
$GNGSA,A,3,12,15,25,,,,,,,,,,7.34,3.26,6.58*10
$GNGSA,A,3,78,66,,,,,,,,,,,7.34,3.26,6.58*1F
$GPGSV,5,1,17,05,30,031,19,10,13,214,,12,70,117,20,13,12,097,15*79
$GPGSV,5,2,17,15,42,124,31,18,30,302,21,20,00,033,,23,55,218,25*78
$GPGSV,5,3,17,24,28,169,14,25,69,335,27,28,08,283,,29,18,354,*7D
$GPGSV,5,4,17,36,52,277,,40,86,351,,41,58,082,,49,32,274,*7C
$GPGSV,5,5,17,50,10,089,*4A
$GLGSV,3,1,10,65,11,053,,66,40,098,20,67,33,170,21,68,00,204,*68
$GLGSV,3,2,10,77,29,166,,78,70,257,13,79,27,320,26,81,09,339,*62
$GLGSV,3,3,10,82,06,295,,88,00,027,*63
$GNGLL,0419.83016,S,05539.88517,E,062751.00,A,A*64
$GNGRS,062751.00,1,6.0,0.5,-4.3,,,,,,,,,*50
$GNGRS,062751.00,1,-3.1,-4.8,,,,,,,,,,*59
$GNGST,062751.00,21451,,,,26,27,46*50
$GNZDA,062751.00,02,06,2025,00,00*7E
$GNGBS,062751.00,,,,,,,*76
$GNTXT,01,01,01,More than 100 frame errors, UART RX was disabled*70
b0X
Fuza*|Z.!7EOb{4V_:R 
YzA5B(bEC!DMNF
O@QSR'X;{b6$GNRMC,062752.00,A,0419.83084,S,05539.88461,E,0.215,,020625,,,A*70
$GNVTG,,T,,M,0.215,N,0.398,K,A*39
$GNGNS,062752.00,0419.83084,S,05539.88461,E,AA,05,3.26,-15.1,-47.6,,*41
$GNGGA,062752.00,0419.83084,S,05539.88461,E,1,05,3.26,-15.1,M,-47.6,M,,*6B
$GNGSA,A,3,12,15,25,,,,,,,,,,7.35,3.26,6.58*11
$GNGSA,A,3,78,66,,,,,,,,,,,7.35,3.26,6.58*1E
$GPGSV,5,1,17,05,30,031,16,10,13,214,,12,70,117,20,13,12,097,16*75
$GPGSV,5,2,17,15,42,124,30,18,30,302,21,20,00,033,,23,55,218,25*79
$GPGSV,5,3,17,24,28,169,16,25,69,335,29,28,08,283,,29,18,354,*71
$GPGSV,5,4,17,36,52,277,,40,86,351,,41,58,082,,49,32,274,*7C
$GPGSV,5,5,17,50,10,089,*4A
$GLGSV,3,1,10,65,11,053,,66,40,098,20,67,33,170,22,68,00,204,*6B
$GLGSV,3,2,10,77,29,166,,78,70,257,13,79,27,320,26,81,09,339,*62
$GLGSV,3,3,10,82,06,295,,88,00,027,*63
$GNGLL,0419.83084,S,05539.88461,E,062752.00,A,A*6C
$GNGRS,062752.00,1,3.8,3.5,-5.0,,,,,,,,,*5F
$GNGRS,062752.00,1,-3.5,-4.4,,,,,,,,,,*52
$GNGST,062752.00,32177,,,,26,27,46*50
$GNZDA,062752.00,02,06,2025,00,00*7D
$GNGBS,062752.00,26.2,26.9,45.8,,,,*69
$GNTXT,01,01,01,More than 100 frame errors, UART RX was disabled*70
b0Xx
Fua*|_.!7EOb{4V_:R 
YzA5B(bC!DMNF>
O@QSR'XLKbx6bw$GNRMC,062753.00,A,0419.83120,S,05539.88439,E,0.185,,020625,,,A*79
$GNVTG,,T,,M,0.185,N,0.342,K,A*34
$GNGNS,062753.00,0419.83120,S,05539.88439,E,AA,05,3.26,-14.9,-47.6,,*4B
$GNGGA,062753.00,0419.83120,S,05539.88439,E,1,05,3.26,-14.9,M,-47.6,M,,*61
$GNGSA,A,3,12,15,25,,,,,,,,,,7.35,3.26,6.58*11
$GNGSA,A,3,78,66,,,,,,,,,,,7.35,3.26,6.58*1E
$GPGSV,5,1,17,05,30,031,16,10,14,214,,12,70,117,21,13,12,097,16*73
$GPGSV,5,2,17,15,42,124,29,18,30,302,20,20,00,033,,23,55,218,25*70
$GPGSV,5,3,17,24,28,169,17,25,69,335,28,28,08,283,,29,18,354,*71
$GPGSV,5,4,17,36,52,277,,40,86,351,,41,58,082,,49,32,274,*7C
$GPGSV,5,5,17,50,10,089,*4A
$GLGSV,3,1,10,65,11,053,,66,40,098,20,67,33,170,22,68,00,204,*6B
$GLGSV,3,2,10,77,29,166,,78,70,257,15,79,27,320,26,81,09,339,*64
$GLGSV,3,3,10,82,06,295,,88,00,027,*63
$GNGLL,0419.83120,S,05539.88439,E,062753.00,A,A*6F
$GNGRS,062753.00,1,4.1,6.1,0.2,,,,,,,,,*7B
$GNGRS,062753.00,1,8.3,-3.7,,,,,,,,,,*77
$GNGST,062753.00,52,,,,26,27,46*66
$GNZDA,062753.00,02,06,2025,00,00*7C
$GNGBS,062753.00,,,,,,,*74
$GNTXT,01,01,01,More than 100 frame errors, UART RX was disabled*70
b0X`
Fua*|.!7EOb{4V_:R 
YzA5B(bC!DMNF:
O@QSR'Xb`6:$GNRMC,062754.00,A,0419.83180,S,05539.88391,E,0.497,,020625,,,A*77
$GNVTG,,T,,M,0.497,N,0.921,K,A*3D
$GNGNS,062754.00,0419.83180,S,05539.88391,E,AA,05,3.26,-14.5,-47.6,,*4F
$GNGGA,062754.00,0419.83180,S,05539.88391,E,1,05,3.26,-14.5,M,-47.6,M,,*65
$GNGSA,A,3,12,15,25,,,,,,,,,,7.35,3.26,6.59*10
$GNGSA,A,3,78,66,,,,,,,,,,,7.35,3.26,6.59*1F
$GPGSV,5,1,17,05,30,031,15,10,14,214,,12,70,117,20,13,12,097,16*71
$GPGSV,5,2,17,15,42,124,30,18,30,302,19,20,00,033,,23,55,218,25*72
$GPGSV,5,3,17,24,28,169,15,25,69,335,27,28,08,283,,29,18,354,*7C
$GPGSV,5,4,17,36,52,277,,40,86,351,,41,58,082,,49,32,274,*7C
$GPGSV,5,5,17,50,10,089,*4A
$GLGSV,3,1,10,65,11,053,,66,40,098,20,67,33,170,22,68,00,204,*6B
$GLGSV,3,2,10,77,29,166,,78,70,257,15,79,27,320,26,81,09,339,*64
$GLGSV,3,3,10,82,06,295,,88,00,027,*63
$GNGLL,0419.83180,S,05539.88391,E,062754.00,A,A*67
$GNGRS,062754.00,1,4.2,2.4,2.6,,,,,,,,,*78
$GNGRS,062754.00,1,-4.5,-2.8,,,,,,,,,,*59
$GNGST,062754.00,214514,,,,26,27,46*61
$GNZDA,062754.00,02,06,2025,00,00*7B
$GNGBS,062754.00,26.3,27.0,45.9,,,,*67
$GNTXT,01,01,01,More than 100 frame errors, UART RX was disabled*70
b0XH
Fwa*|@.!7EOb{4V_:R 
YzA5B(bC!DMNF*
O@QSR'XbH6G$GNRMC,062755.00,A,0419.83185,S,05539.88384,E,0.382,,020625,,,A*74
$GNVTG,,T,,M,0.382,N,0.708,K,A*3B
$GNGNS,062755.00,0419.83185,S,05539.88384,E,AA,05,3.26,-14.8,-47.6,,*42
$GNGGA,062755.00,0419.83185,S,05539.88384,E,1,05,3.26,-14.8,M,-47.6,M,,*68
$GNGSA,A,3,12,15,25,,,,,,,,,,7.35,3.26,6.59*10
$GNGSA,A,3,78,66,,,,,,,,,,,7.35,3.26,6.59*1F
$GPGSV,5,1,17,05,30,031,14,10,14,214,,12,70,119,29,13,12,097,16*77
$GPGSV,5,2,17,15,42,124,30,18,30,302,16,20,00,033,,23,55,218,24*7C
$GPGSV,5,3,17,24,28,169,12,25,69,335,27,28,08,283,,29,18,354,*7B
$GPGSV,5,4,17,36,52,277,,40,86,351,,41,58,082,,49,32,274,*7C
$GPGSV,5,5,17,50,10,089,*4A
$GLGSV,3,1,10,65,11,053,,66,40,098,20,67,33,170,23,68,00,204,*6A
$GLGSV,3,2,10,77,29,166,,78,70,257,12,79,27,320,26,81,09,339,*63
$GLGSV,3,3,10,82,06,295,,88,00,027,*63
$GNGLL,0419.83185,S,05539.88384,E,062755.00,A,A*67
$GNGRS,062755.00,1,0.2,8.3,0.1,,,,,,,,,*75
$GNGRS,062755.00,1,-4.7,-3.0,,,,,,,,,,*53
$GNGST,062755.00,321771,,,,27,27,46*67
$GNZDA,062755.00,02,06,2025,00,00*7A
$GNGBS,062755.00,,,,,,,*72
$GNTXT,01,01,01,More than 100 frame errors, UART RX was disabled*70
b0X0
Fw;a*|.!7EO
b{4V_:R 
YzA5B(bC!DMNF
O@QSR'X/b06$GNRMC,062756.00,A,0419.83171,S,05539.88372,E,0.209,,020625,,,A*77
$GNVTG,,T,,M,0.209,N,0.386,K,A*3B
$GNGNS,062756.00,0419.83171,S,05539.88372,E,AA,05,3.26,-15.8,-47.6,,*42
$GNGGA,062756.00,0419.83171,S,05539.88372,E,1,05,3.26,-15.8,M,-47.6,M,,*68
$GNGSA,A,3,12,15,25,,,,,,,,,,7.35,3.26,6.59*10
$GNGSA,A,3,78,66,,,,,,,,,,,7.35,3.26,6.59*1F
$GPGSV,5,1,17,05,30,031,12,10,14,214,,12,70,119,27,13,12,097,16*7F
$GPGSV,5,2,17,15,42,124,30,18,30,302,15,20,00,033,,23,55,218,23*78
$GPGSV,5,3,17,24,28,169,14,25,69,335,27,28,08,283,,29,18,354,21*7E
$GPGSV,5,4,17,36,52,277,,40,86,351,,41,58,082,,49,32,274,*7C
$GPGSV,5,5,17,50,10,089,*4A
$GLGSV,3,1,10,65,11,053,,66,40,098,21,67,33,170,23,68,00,204,*6B
$GLGSV,3,2,10,77,29,166,,78,70,257,12,79,27,320,26,81,09,339,*63
$GLGSV,3,3,10,82,06,295,,88,00,027,*63
$GNGLL,0419.83171,S,05539.88372,E,062756.00,A,A*66
$GNGRS,062756.00,1,-2.0,5.0,2.7,,,,,,,,,*51
$GNGRS,062756.00,1,32.7,-2.9,,,,,,,,,,*40
$GNGST,062756.00,59,,,,27,27,46*69
$GNZDA,062756.00,02,06,2025,00,00*79
$GNGBS,062756.00,26.5,27.3,45.8,,,,*61
$GNTXT,01,01,01,More than 100 frame errors, UART RX was disabled*70
b0X
Fwa!*|.!7 EOZb{4V_:R 
YzA5B(b$C!DMNF
O@QSR'Xb6n$GNRMC,062757.00,A,0419.83173,S,05539.88366,E,0.153,,020625,,,A*7D
$GNVTG,,T,,M,0.153,N,0.283,K,A*33
$GNGNS,062757.00,0419.83173,S,05539.88366,E,AA,05,3.26,-16.1,-47.6,,*4E
$GNGGA,062757.00,0419.83173,S,05539.88366,E,1,05,3.26,-16.1,M,-47.6,M,,*64
$GNGSA,A,3,12,15,25,,,,,,,,,,7.35,3.26,6.59*10
$GNGSA,A,3,78,66,,,,,,,,,,,7.35,3.26,6.59*1F
$GPGSV,5,1,17,05,30,031,14,10,14,214,,12,70,119,25,13,12,097,16*7B
$GPGSV,5,2,17,15,42,124,33,18,30,302,16,20,00,033,,23,55,218,23*78
$GPGSV,5,3,17,24,28,169,18,25,69,335,32,28,08,283,,29,18,354,21*76
$GPGSV,5,4,17,36,52,277,,40,86,351,,41,58,082,,49,32,274,*7C
$GPGSV,5,5,17,50,10,089,*4A
$GLGSV,3,1,10,65,11,053,,66,40,098,21,67,33,170,23,68,00,204,*6B
$GLGSV,3,2,10,77,29,166,,78,70,257,12,79,27,320,26,81,09,339,*63
$GLGSV,3,3,10,82,06,295,,88,00,027,*63
$GNGLL,0419.83173,S,05539.88366,E,062757.00,A,A*60
$GNGRS,062757.00,1,-0.1,1.7,-1.7,,,,,,,,,*7E
$GNGRS,062757.00,1,-3.8,-2.2,,,,,,,,,,*5A
$GNGST,062757.00,5319948,,,,27,28,46*50
$GNZDA,062757.00,02,06,2025,00,00*78
$GNGBS,062757.00,26.7,27.6,45.8,,,,*67
$GNTXT,01,01,01,More than 100 frame errors, UART RX was disabled*70
b0X
Fwa*|@.!7EOb{4V_:R 
YzA5B(bjC!DMNF
O@QSR'Xab6V$GNRMC,062758.00,A,0419.83163,S,05539.88362,E,0.192,,020625,,,A*7A
$GNVTG,,T,,M,0.192,N,0.355,K,A*34
$GNGNS,062758.00,0419.83163,S,05539.88362,E,AA,05,3.26,-16.5,-47.6,,*40
$GNGGA,062758.00,0419.83163,S,05539.88362,E,1,05,3.26,-16.5,M,-47.6,M,,*6A
$GNGSA,A,3,12,15,25,,,,,,,,,,7.35,3.26,6.59*10
$GNGSA,A,3,78,66,,,,,,,,,,,7.35,3.26,6.59*1F
$GPGSV,5,1,17,05,30,031,17,10,14,214,,12,70,119,24,13,12,097,16*79
$GPGSV,5,2,17,15,42,124,26,18,30,302,17,20,00,033,,23,55,218,24*7A
$GPGSV,5,3,17,24,28,169,16,25,69,335,31,28,08,283,,29,18,354,20*7A
$GPGSV,5,4,17,36,52,277,,40,86,351,,41,58,082,,49,32,274,*7C
$GPGSV,5,5,17,50,10,089,*4A
$GLGSV,3,1,10,65,11,053,,66,40,098,22,67,33,170,22,68,00,204,*69
$GLGSV,3,2,10,77,29,166,,78,70,257,12,79,27,320,27,81,09,339,*62
$GLGSV,3,3,10,82,06,295,,88,00,027,*63
$GNGLL,0419.83163,S,05539.88362,E,062758.00,A,A*6A
$GNGRS,062758.00,1,-1.3,5.8,2.7,,,,,,,,,*57
$GNGRS,062758.00,1,-3.7,-4.1,,,,,,,,,,*5F
$GNGST,062758.00,5319948,,,,27,28,46*5F
$GNZDA,062758.00,02,06,2025,00,00*77
$GNGBS,062758.00,26.9,27.8,45.8,,,,*68
$GNTXT,01,01,01,More than 100 frame errors, UART RX was disabled*70
b0X
FwHa*|.!7EOb{4V_:R 
YzA5B(bIC!DMNFm
O@QSR'X1b6>q$GNRMC,062759.00,A,0419.83181,S,05539.88338,E,0.108,,020625,,,A*7B
$GNVTG,,T,,M,0.108,N,0.200,K,A*36
$GNGNS,062759.00,0419.83181,S,05539.88338,E,AA,05,3.26,-16.8,-47.6,,*4F
$GNGGA,062759.00,0419.83181,S,05539.88338,E,1,05,3.26,-16.8,M,-47.6,M,,*65
$GNGSA,A,3,12,15,25,,,,,,,,,,7.35,3.26,6.59*10
$GNGSA,A,3,78,66,,,,,,,,,,,7.35,3.26,6.59*1F
$GPGSV,5,1,17,05,30,031,17,10,14,214,,12,70,119,21,13,12,097,17*7D
$GPGSV,5,2,17,15,42,124,27,18,30,302,17,20,00,033,,23,55,218,23*7C
$GPGSV,5,3,17,24,28,169,14,25,69,335,31,28,08,283,,29,18,354,20*78
$GPGSV,5,4,17,36,52,277,,40,86,351,,41,58,082,,49,32,274,*7C
$GPGSV,5,5,17,50,10,089,*4A
$GLGSV,3,1,10,65,11,053,,66,40,098,22,67,33,170,22,68,00,204,*69
$GLGSV,3,2,10,77,29,166,,78,70,257,19,79,27,320,27,81,09,339,*69
$GLGSV,3,3,10,82,06,295,,88,00,027,*63
$GNGLL,0419.83181,S,05539.88338,E,062759.00,A,A*68
$GNGRS,062759.00,1,-4.4,7.0,2.8,,,,,,,,,*51
$GNGRS,062759.00,1,-4.0,-4.4,,,,,,,,,,*5B
$GNGST,062759.00,55,,,,27,28,46*65
$GNZDA,062759.00,02,06,2025,00,00*76
$GNGBS,062759.00,,,,,,,*7E
$GNTXT,01,01,01,More than 100 frame errors, UART RX was disabled*70
b0X
Fwaa*|.!7EOb{4V_:R 
YzA5B(bC!DMNF
O@QSR'X&b6&I@$GNRMC,062800.00,A,0419.83128,S,05539.88385,E,0.421,,020625,,,A*73
$GNVTG,,T,,M,0.421,N,0.780,K,A*35
$GNGNS,062800.00,0419.83128,S,05539.88385,E,AA,05,3.26,-17.1,-47.6,,*41
$GNGGA,062800.00,0419.83128,S,05539.88385,E,1,05,3.26,-17.1,M,-47.6,M,,*6B
$GNGSA,A,3,12,15,25,,,,,,,,,,7.35,3.26,6.59*10
$GNGSA,A,3,78,66,,,,,,,,,,,7.35,3.26,6.59*1F
$GPGSV,5,1,17,05,30,031,17,10,14,214,,12,70,119,20,13,12,097,18*73
$GPGSV,5,2,17,15,42,124,28,18,30,302,17,20,00,033,,23,55,218,22*72
$GPGSV,5,3,17,24,28,169,12,25,69,335,30,28,08,283,,29,18,354,19*75
$GPGSV,5,4,17,36,52,277,,40,86,351,,41,58,082,,49,32,274,*7C
$GPGSV,5,5,17,50,10,089,*4A
$GLGSV,3,1,10,65,11,053,,66,40,098,19,67,33,170,22,68,00,204,*61
$GLGSV,3,2,10,77,29,166,,78,70,257,22,79,27,320,27,81,09,339,*61
$GLGSV,3,3,10,82,06,295,,88,00,027,*63
$GNGLL,0419.83128,S,05539.88385,E,062800.00,A,A*6E
$GNGRS,062800.00,1,-4.1,6.6,1.7,,,,,,,,,*5C
$GNGRS,062800.00,1,-3.1,-3.1,,,,,,,,,,*5C
$GNGST,062800.00,50,,,,26,27,46*6D
$GNZDA,062800.00,02,06,2025,00,00*75
$GNGBS,062800.00,26.2,27.1,45.9,,,,*69
$GNTXT,01,01,01,More than 100 frame errors, UART RX was disabled*70
b0X
Fwa*|s/!7EOb{4V_:R 
YzA5B(bC!DMNF
O@QSR'XRb6!$GNRMC,062801.00,A,0419.83173,S,05539.88330,E,0.107,,020625,,,A*73
$GNVTG,,T,,M,0.107,N,0.198,K,A*3B
$GNGNS,062801.00,0419.83173,S,05539.88330,E,AA,05,3.26,-17.6,-47.6,,*47
$GNGGA,062801.00,0419.83173,S,05539.88330,E,1,05,3.26,-17.6,M,-47.6,M,,*6D
$GNGSA,A,3,12,15,25,,,,,,,,,,7.36,3.26,6.59*13
$GNGSA,A,3,78,66,,,,,,,,,,,7.36,3.26,6.59*1C
$GPGSV,5,1,17,05,30,031,17,10,14,214,,12,70,119,19,13,12,097,18*79
$GPGSV,5,2,17,15,42,124,28,18,29,303,15,20,00,033,,23,55,218,22*79
$GPGSV,5,3,17,24,28,169,13,25,69,335,29,28,08,283,,29,18,354,18*7D
$GPGSV,5,4,17,36,52,277,,40,86,351,,41,58,082,,49,32,274,*7C
$GPGSV,5,5,17,50,10,089,*4A
$GLGSV,3,1,10,65,11,053,,66,40,098,15,67,33,170,23,68,00,204,*6C
$GLGSV,3,2,10,77,29,166,,78,70,257,24,79,27,320,28,81,09,339,*68
$GLGSV,3,3,10,82,06,295,,88,00,027,*63
$GNGLL,0419.83173,S,05539.88330,E,062801.00,A,A*6F
$GNGRS,062801.00,1,-3.7,1.2,4.8,,,,,,,,,*55
$GNGRS,062801.00,1,-2.3,-1.1,,,,,,,,,,*5C
$GNGST,062801.00,50,,,,26,27,46*6C
$GNZDA,062801.00,02,06,2025,00,00*74
$GNGBS,062801.00,,,,,,,*7C
$GNTXT,01,01,01,More than 100 frame errors, UART RX was disabled*70
b0X
FwRa*|/!7EOb{4V_:R 
YzA5B(bZC!DMNFK
O@QSR'XRb6$GNRMC,062802.00,A,0419.83172,S,05539.88318,E,0.228,,020625,,,A*75
$GNVTG,,T,,M,0.228,N,0.423,K,A*30
$GNGNS,062802.00,0419.83172,S,05539.88318,E,AA,05,3.26,-18.1,-47.6,,*47
$GNGGA,062802.00,0419.83172,S,05539.88318,E,1,05,3.26,-18.1,M,-47.6,M,,*6D
$GNGSA,A,3,12,15,25,,,,,,,,,,7.36,3.26,6.60*19
$GNGSA,A,3,78,66,,,,,,,,,,,7.36,3.26,6.60*16
$GPGSV,5,1,17,05,30,031,17,10,14,214,,12,70,119,19,13,12,097,18*79
$GPGSV,5,2,17,15,42,124,30,18,29,303,16,20,00,033,,23,55,218,23*72
$GPGSV,5,3,17,24,28,169,15,25,69,335,31,28,08,283,,29,18,354,20*79
$GPGSV,5,4,17,36,52,277,,40,86,351,,41,58,082,,49,32,274,*7C
$GPGSV,5,5,17,50,10,089,*4A
$GLGSV,3,1,10,65,11,053,,66,40,098,16,67,33,170,23,68,00,204,*6F
$GLGSV,3,2,10,77,29,166,,78,70,257,24,79,27,320,28,81,09,339,*68
$GLGSV,3,3,10,82,06,295,,88,00,027,*63
$GNGLL,0419.83172,S,05539.88318,E,062802.00,A,A*67
$GNGRS,062802.00,1,-1.7,5.0,4.9,,,,,,,,,*53
$GNGRS,062802.00,1,-1.8,-1.7,,,,,,,,,,*51
$GNGST,062802.00,48,,,,25,26,46*64
$GNZDA,062802.00,02,06,2025,00,00*77
$GNGBS,062802.00,25.2,26.1,45.9,,,,*69
$GNTXT,01,01,01,More than 100 frame errors, UART RX was disabled*70
b0X
Fwa*|'/!7EOb{4V_:R 
YzA5B(b&C!DMNF
O@QSR'XAb6u$GNRMC,062803.00,A,0419.83213,S,05539.88255,E,0.602,,020625,,,A*74
$GNVTG,,T,,M,0.602,N,1.115,K,A*3D
$GNGNS,062803.00,0419.83213,S,05539.88255,E,AA,05,3.26,-19.2,-47.6,,*48
$GNGGA,062803.00,0419.83213,S,05539.88255,E,1,05,3.26,-19.2,M,-47.6,M,,*62
$GNGSA,A,3,12,15,25,,,,,,,,,,7.36,3.26,6.60*19
$GNGSA,A,3,78,66,,,,,,,,,,,7.36,3.26,6.60*16
$GPGSV,4,1,16,05,30,031,15,10,14,214,,12,70,119,20,13,12,097,19*70
$GPGSV,4,2,16,15,42,124,31,18,29,303,16,23,55,218,23,24,28,169,14*76
$GPGSV,4,3,16,25,69,335,30,28,08,283,,29,18,354,20,36,52,277,*7E
$GPGSV,4,4,16,40,86,351,,41,58,082,,49,32,274,,50,10,089,*79
$GLGSV,3,1,10,65,11,053,,66,40,098,15,67,33,170,23,68,00,204,*6C
$GLGSV,3,2,10,77,29,166,,78,70,257,24,79,27,320,28,81,09,339,*68
$GLGSV,3,3,10,82,06,295,,88,00,027,*63
$GNGLL,0419.83213,S,05539.88255,E,062803.00,A,A*6A
$GNGRS,062803.00,1,-3.2,2.9,4.3,,,,,,,,,*51
$GNGRS,062803.00,1,-0.6,0.4,,,,,,,,,,*70
$GNGST,062803.00,48,,,,25,26,46*65
$GNZDA,062803.00,02,06,2025,00,00*76
$GNGBS,062803.00,,,,,,,*7E
$GNTXT,01,01,01,More than 100 frame errors, UART RX was disabled*70
b0Lp
Fw+a *|M/7EOb{4V_:R 
YzA5B(bC!DMNF
O@QSR'XKbp6$GNRMC,062804.00,A,0419.83206,S,05539.88236,E,0.523,,020625,,,A*72
$GNVTG,,T,,M,0.523,N,0.968,K,A*3E
$GNGNS,062804.00,0419.83206,S,05539.88236,E,AA,05,3.26,-19.9,-47.6,,*45
$GNGGA,062804.00,0419.83206,S,05539.88236,E,1,05,3.26,-19.9,M,-47.6,M,,*6F
$GNGSA,A,3,12,15,25,,,,,,,,,,7.36,3.26,6.60*19
$GNGSA,A,3,78,66,,,,,,,,,,,7.36,3.26,6.60*16
$GPGSV,4,1,16,05,30,031,17,10,14,214,,12,70,119,20,13,12,097,20*78
$GPGSV,4,2,16,15,42,124,32,18,29,303,15,23,55,218,22,24,28,169,14*77
$GPGSV,4,3,16,25,69,335,30,28,08,283,,29,18,354,21,36,52,277,*7F
$GPGSV,4,4,16,40,86,351,,41,58,082,,49,32,274,,50,10,089,*79
$GLGSV,3,1,10,65,11,053,,66,40,098,11,67,33,170,22,68,00,204,*69
$GLGSV,3,2,10,77,29,166,,78,70,257,25,79,27,320,28,81,09,339,*69
$GLGSV,3,3,10,82,06,295,,88,00,027,*63
$GNGLL,0419.83206,S,05539.88236,E,062804.00,A,A*6C
$GNGRS,062804.00,1,-4.7,-1.8,6.7,,,,,,,,,*7D
$GNGRS,062804.00,1,-0.3,-0.5,,,,,,,,,,*5E
$GNGST,062804.00,50,,,,24,25,46*69
$GNZDA,062804.00,02,06,2025,00,00*71
$GNGBS,062804.00,24.4,25.2,45.9,,,,*68
$GNTXT,01,01,01,More than 100 frame errors, UART RX was disabled*70
b0LX
Fwa*|a/8EOgb{4V_:R 
YzA5B(bC!DMNF6
O@QSR'X#bX6E$GNRMC,062805.00,A,0419.83192,S,05539.88233,E,0.393,,020625,,,A*75
$GNVTG,,T,,M,0.393,N,0.728,K,A*39
$GNGNS,062805.00,0419.83192,S,05539.88233,E,AA,05,3.26,-20.4,-47.6,,*48
$GNGGA,062805.00,0419.83192,S,05539.88233,E,1,05,3.26,-20.4,M,-47.6,M,,*62
$GNGSA,A,3,12,15,25,,,,,,,,,,7.36,3.26,6.60*19
$GNGSA,A,3,78,66,,,,,,,,,,,7.36,3.26,6.60*16
$GPGSV,4,1,16,05,30,031,19,10,14,214,,12,70,119,21,13,12,097,20*77
$GPGSV,4,2,16,15,42,124,31,18,29,303,13,23,56,218,23,24,28,169,15*71
$GPGSV,4,3,16,25,69,335,30,28,08,283,,29,18,354,21,36,52,277,*7F
$GPGSV,4,4,16,40,86,351,,41,58,082,,49,32,274,,50,10,089,*79
$GLGSV,3,1,10,65,11,053,,66,40,098,19,67,33,170,22,68,00,204,*61
$GLGSV,3,2,10,77,29,166,,78,70,257,26,79,27,320,28,81,09,339,*6A
$GLGSV,3,3,10,82,06,295,,88,00,027,*63
$GNGLL,0419.83192,S,05539.88233,E,062805.00,A,A*66
$GNGRS,062805.00,1,-5.6,-1.6,3.6,,,,,,,,,*76
$GNGRS,062805.00,1,0.5,-0.8,,,,,,,,,,*79
$GNGST,062805.00,134071,,,,24,25,46*6D
$GNZDA,062805.00,02,06,2025,00,00*70
$GNGBS,062805.00,,,,,,,*78
$GNTXT,01,01,01,More than 100 frame errors, UART RX was disabled*70
b0L@
Fwa*|/8EOb{4V_:R 
YzA5B(bC!DMNF
O@QSR'X%Wb@6X$GNRMC,062806.00,A,0419.83176,S,05539.88222,E,0.321,,020625,,,A*75
$GNVTG,,T,,M,0.321,N,0.595,K,A*34
$GNGNS,062806.00,0419.83176,S,05539.88222,E,AA,05,3.26,-21.2,-47.6,,*46
$GNGGA,062806.00,0419.83176,S,05539.88222,E,1,05,3.26,-21.2,M,-47.6,M,,*6C
$GNGSA,A,3,12,15,25,,,,,,,,,,7.36,3.26,6.60*19
$GNGSA,A,3,78,66,,,,,,,,,,,7.36,3.26,6.60*16
$GPGSV,4,1,16,05,30,031,20,10,14,214,,12,70,119,20,13,12,097,20*7C
$GPGSV,4,2,16,15,42,124,31,18,29,303,12,23,56,218,25,24,28,168,15*77
$GPGSV,4,3,16,25,69,335,30,28,08,283,,29,18,354,21,36,52,277,*7F
$GPGSV,4,4,16,40,86,351,,41,58,082,,49,32,274,,50,10,089,*79
$GLGSV,3,1,10,65,11,053,,66,40,098,11,67,33,170,22,68,00,204,*69
$GLGSV,3,2,10,77,29,166,,78,70,257,26,79,27,320,28,81,09,339,*6A
$GLGSV,3,3,10,82,06,295,,88,00,027,*63
$GNGLL,0419.83176,S,05539.88222,E,062806.00,A,A*6F
$GNGRS,062806.00,1,-6.4,-2.5,6.6,,,,,,,,,*71
$GNGRS,062806.00,1,1.4,-1.1,,,,,,,,,,*72
$GNGST,062806.00,134071,,,,24,25,46*6E
$GNZDA,062806.00,02,06,2025,00,00*73
$GNGBS,062806.00,23.9,24.5,45.9,,,,*66
$GNTXT,01,01,01,More than 100 frame errors, UART RX was disabled*70
b0L(
Fw(a*|/8FNb{4V_:R 
YzA5B(bC!DMNF
O@QSR'X;b(6~0$GNRMC,062807.00,A,0419.83179,S,05539.88194,E,0.236,,020625,,,A*72
$GNVTG,,T,,M,0.236,N,0.437,K,A*3A
$GNGNS,062807.00,0419.83179,S,05539.88194,E,AA,05,3.26,-21.8,-47.6,,*4C
$GNGGA,062807.00,0419.83179,S,05539.88194,E,1,05,3.26,-21.8,M,-47.6,M,,*66
$GNGSA,A,3,12,15,25,,,,,,,,,,7.36,3.26,6.60*19
$GNGSA,A,3,78,66,,,,,,,,,,,7.36,3.26,6.60*16
$GPGSV,4,1,16,05,30,031,20,10,14,214,,12,70,119,20,13,12,097,19*76
$GPGSV,4,2,16,15,42,124,26,18,29,303,11,23,56,218,25,24,28,168,14*73
$GPGSV,4,3,16,25,70,334,30,28,08,283,,29,18,354,21,36,52,277,*76
$GPGSV,4,4,16,40,86,351,,41,58,082,,49,32,274,,50,10,089,*79
$GLGSV,3,1,10,65,11,053,,66,40,098,23,67,33,170,21,68,00,204,*6B
$GLGSV,3,2,10,77,29,166,,78,70,257,26,79,27,320,28,81,09,339,*6A
$GLGSV,3,3,10,82,06,295,,88,00,027,*63
$GNGLL,0419.83179,S,05539.88194,E,062807.00,A,A*6F
$GNGRS,062807.00,1,-7.3,-7.7,7.7,,,,,,,,,*71
$GNGRS,062807.00,1,2.5,-5.2,,,,,,,,,,*76
$GNGST,062807.00,45,,,,23,24,46*68
$GNZDA,062807.00,02,06,2025,00,00*72
$GNGBS,062807.00,23.3,24.0,45.9,,,,*68
$GNTXT,01,01,01,More than 100 frame errors, UART RX was disabled*70
b0L
Fwa#*|#/8FNb{4V_:R 
YzA5B(bC!DMNF
O@QSR'XVb6f}$GNRMC,062808.00,A,0419.83130,S,05539.88209,E,0.263,,020625,,,A*77
$GNVTG,,T,,M,0.263,N,0.488,K,A*3E
$GNGNS,062808.00,0419.83130,S,05539.88209,E,AA,05,3.26,-22.3,-47.6,,*41
$GNGGA,062808.00,0419.83130,S,05539.88209,E,1,05,3.26,-22.3,M,-47.6,M,,*6B
$GNGSA,A,3,12,15,25,,,,,,,,,,7.36,3.26,6.60*19
$GNGSA,A,3,78,66,,,,,,,,,,,7.36,3.26,6.60*16
$GPGSV,4,1,16,05,30,031,21,10,14,214,,12,70,119,20,13,12,097,18*76
$GPGSV,4,2,16,15,42,124,35,18,29,303,,23,56,218,26,24,28,168,13*75
$GPGSV,4,3,16,25,70,334,29,28,08,283,,29,18,354,22,36,52,277,*7D
$GPGSV,4,4,16,40,86,351,,41,58,082,,49,32,274,,50,10,089,*79
$GLGSV,3,1,10,65,11,053,,66,40,098,20,67,33,170,21,68,00,204,*68
$GLGSV,3,2,10,77,29,166,,78,70,257,26,79,27,320,27,81,09,339,*65
$GLGSV,3,3,10,82,06,295,,88,00,027,*63
$GNGLL,0419.83130,S,05539.88209,E,062808.00,A,A*6A
$GNGRS,062808.00,1,-5.4,-2.2,7.3,,,,,,,,,*7F
$GNGRS,062808.00,1,2.0,-3.8,,,,,,,,,,*70
$GNGST,062808.00,43,,,,23,24,46*61
$GNZDA,062808.00,02,06,2025,00,00*7D
$GNGBS,062808.00,22.9,23.6,45.9,,,,*6D
$GNTXT,01,01,01,More than 100 frame errors, UART RX was disabled*70
b0L
FwSa"*|h/8FNCb{4V_:R 
YzA5B(bC!DMNF
O?lQSR'Xb6N$GNRMC,062809.00,A,0419.83135,S,05539.88287,E,0.382,,020625,,,A*7B
$GNVTG,,T,,M,0.382,N,0.707,K,A*34
$GNGNS,062809.00,0419.83135,S,05539.88287,E,AA,06,2.68,-17.8,-47.6,,*46
$GNGGA,062809.00,0419.83135,S,05539.88287,E,1,06,2.68,-17.8,M,-47.6,M,,*6C
$GNGSA,A,3,12,15,25,,,,,,,,,,3.83,2.68,2.74*19
$GNGSA,A,3,78,66,79,,,,,,,,,,3.83,2.68,2.74*18
$GPGSV,4,1,16,05,30,031,19,10,14,214,,12,70,119,29,13,12,097,18*74
$GPGSV,4,2,16,15,42,124,34,18,29,303,,23,56,218,25,24,28,168,09*7C
$GPGSV,4,3,16,25,70,334,28,28,08,283,,29,18,354,22,36,52,277,*7C
$GPGSV,4,4,16,40,86,351,,41,58,082,,49,32,274,,50,10,089,*79
$GLGSV,3,1,10,65,11,053,,66,40,098,20,67,33,170,22,68,00,204,*6B
$GLGSV,3,2,10,77,29,166,,78,70,257,25,79,28,319,27,81,09,339,*63
$GLGSV,3,3,10,82,06,295,,88,00,027,*63
$GNGLL,0419.83135,S,05539.88287,E,062809.00,A,A*68
$GNGRS,062809.00,1,-6.9,-4.1,3.2,,,,,,,,,*70
$GNGRS,062809.00,1,2.2,-3.2,-11.7,,,,,,,,,*4D
$GNGST,062809.00,42,,,,22,22,40*60
$GNZDA,062809.00,02,06,2025,00,00*7C
$GNGBS,062809.00,22.4,22.2,39.9,,,,*6F
$GNTXT,01,01,01,More than 100 frame errors, UART RX was disabled*70
b0L
FwWa *|f/8FNb{4V_:R 
YzA5B(bcC!DMNF
O?QSR'Xk!b66L$GNRMC,062810.00,A,0419.83165,S,05539.88322,E,0.327,,020625,,,A*77
$GNVTG,,T,,M,0.327,N,0.605,K,A*38
$GNGNS,062810.00,0419.83165,S,05539.88322,E,AA,06,2.68,-14.9,-47.6,,*47
$GNGGA,062810.00,0419.83165,S,05539.88322,E,1,06,2.68,-14.9,M,-47.6,M,,*6D
$GNGSA,A,3,12,15,25,,,,,,,,,,3.83,2.68,2.74*19
$GNGSA,A,3,78,66,79,,,,,,,,,,3.83,2.68,2.74*18
$GPGSV,4,1,16,05,30,031,19,10,14,214,,12,70,119,26,13,12,097,16*75
$GPGSV,4,2,16,15,42,124,32,18,29,303,23,23,56,218,23,24,28,168,*74
$GPGSV,4,3,16,25,70,334,27,28,08,282,,29,18,354,22,36,52,277,*72
$GPGSV,4,4,16,40,86,351,,41,58,082,,49,32,274,,50,10,089,*79
$GLGSV,3,1,10,65,11,053,,66,40,098,21,67,33,170,22,68,00,204,*6A
$GLGSV,3,2,10,77,29,166,,78,70,257,25,79,28,319,27,81,09,339,*63
$GLGSV,3,3,10,82,06,295,,88,00,027,*63
$GNGLL,0419.83165,S,05539.88322,E,062810.00,A,A*6B
$GNGRS,062810.00,1,-6.8,-1.5,-0.8,,,,,,,,,*5C
$GNGRS,062810.00,1,2.4,-4.1,-10.6,,,,,,,,,*47
$GNGST,062810.00,45,,,,22,21,36*6D
$GNZDA,062810.00,02,06,2025,00,00*74
$GNGBS,062810.00,22.0,21.3,36.3,,,,*64
$GNTXT,01,01,01,More than 100 frame errors, UART RX was disabled*70
b0L
Fwa*|
/8FNc{4V_:R 
YzA5B(bPC!DMNFK
O?QSR'Xb6$GNRMC,062811.00,A,0419.83169,S,05539.88361,E,0.497,,020625,,,A*71
$GNVTG,,T,,M,0.497,N,0.920,K,A*3C
$GNGNS,062811.00,0419.83169,S,05539.88361,E,AA,06,2.68,-12.7,-47.6,,*45
$GNGGA,062811.00,0419.83169,S,05539.88361,E,1,06,2.68,-12.7,M,-47.6,M,,*6F
$GNGSA,A,3,12,15,25,,,,,,,,,,3.83,2.68,2.74*19
$GNGSA,A,3,78,66,79,,,,,,,,,,3.83,2.68,2.74*18
$GPGSV,4,1,16,05,30,031,17,10,14,214,,12,70,119,23,13,12,097,12*7A
$GPGSV,4,2,16,15,42,124,28,18,29,303,21,23,56,218,21,24,28,168,*7F
$GPGSV,4,3,16,25,70,334,25,28,08,282,,29,18,355,20,36,52,277,*73
$GPGSV,4,4,16,40,86,351,,41,58,082,,49,32,274,,50,10,089,*79
$GLGSV,3,1,10,65,11,053,,66,40,098,19,67,33,170,20,68,00,204,*63
$GLGSV,3,2,10,77,29,166,,78,70,257,22,79,28,319,25,81,09,339,*66
$GLGSV,3,3,10,82,06,295,,88,00,027,*63
$GNGLL,0419.83169,S,05539.88361,E,062811.00,A,A*61
$GNGRS,062811.00,1,-5.8,-5.0,-3.4,,,,,,,,,*50
$GNGRS,062811.00,1,3.3,-4.3,-10.1,,,,,,,,,*45
$GNGST,062811.00,49,,,,22,21,34*62
$GNZDA,062811.00,02,06,2025,00,00*75
$GNGBS,062811.00,21.8,20.8,34.2,,,,*67
$GNTXT,01,01,01,More than 100 frame errors, UART RX was disabled*70
b0L

Fwa*|/8FN@c{4V_:R 
YzA5B(bC!DMNF
O?QSR'Xb
6h$GNRMC,062812.00,A,0419.83205,S,05539.88351,E,0.245,,020625,,,A*71
$GNVTG,,T,,M,0.245,N,0.454,K,A*3B
$GNGNS,062812.00,0419.83205,S,05539.88351,E,AA,06,2.68,-11.0,-47.6,,*48
$GNGGA,062812.00,0419.83205,S,05539.88351,E,1,06,2.68,-11.0,M,-47.6,M,,*62
$GNGSA,A,3,12,15,25,,,,,,,,,,3.83,2.68,2.74*19
$GNGSA,A,3,78,66,79,,,,,,,,,,3.83,2.68,2.74*18
$GPGSV,4,1,16,05,30,031,17,10,14,214,,12,70,119,21,13,12,097,12*78
$GPGSV,4,2,16,15,42,124,31,18,29,303,21,23,56,218,19,24,28,168,*7C
$GPGSV,4,3,16,25,70,334,26,28,08,282,,29,18,355,20,36,52,277,*70
$GPGSV,4,4,16,40,86,351,,41,58,082,,49,32,274,,50,10,089,*79
$GLGSV,3,1,10,65,11,053,,66,40,098,19,67,33,170,19,68,00,204,*69
$GLGSV,3,2,10,77,29,166,,78,70,257,21,79,28,319,25,81,09,339,*65
$GLGSV,3,3,10,82,06,295,,88,00,027,*63
$GNGLL,0419.83205,S,05539.88351,E,062812.00,A,A*68
$GNGRS,062812.00,1,-5.7,-3.4,0.6,,,,,,,,,*72
$GNGRS,062812.00,1,2.6,-3.8,-8.0,,,,,,,,,*76
$GNGST,062812.00,50,,,,22,20,33*6F
$GNZDA,062812.00,02,06,2025,00,00*76
$GNGBS,062812.00,21.6,20.4,32.6,,,,*64
$GNTXT,01,01,01,More than 100 frame errors, UART RX was disabled*70
b0L
Fwxa*|/8FN4c{4V_:R 
YzA5B(b
C!DMNF
O?QSR'Xb6?$GNRMC,062813.00,A,0419.83259,S,05539.88338,E,0.213,,020625,,,A*75
$GNVTG,,T,,M,0.213,N,0.395,K,A*32
$GNGNS,062813.00,0419.83259,S,05539.88338,E,AA,06,2.68,-9.2,-47.6,,*74
$GNGGA,062813.00,0419.83259,S,05539.88338,E,1,06,2.68,-9.2,M,-47.6,M,,*5E
$GNGSA,A,3,12,15,25,,,,,,,,,,3.83,2.68,2.74*19
$GNGSA,A,3,78,66,79,,,,,,,,,,3.83,2.68,2.74*18
$GPGSV,4,1,16,05,30,031,17,10,14,214,,12,70,119,21,13,12,097,13*79
$GPGSV,4,2,16,15,42,124,22,18,29,303,22,23,56,218,20,24,28,168,*77
$GPGSV,4,3,16,25,70,334,24,28,08,282,,29,18,355,22,36,52,277,*70
$GPGSV,4,4,16,40,86,351,,41,58,082,,49,32,274,,50,10,089,*79
$GLGSV,3,1,10,65,11,053,,66,40,098,20,67,33,170,20,68,00,204,*69
$GLGSV,3,2,10,77,29,166,,78,70,257,20,79,28,319,26,81,09,339,*67
$GLGSV,3,3,10,82,06,295,,88,00,027,*63
$GNGLL,0419.83259,S,05539.88338,E,062813.00,A,A*6F
$GNGRS,062813.00,1,-3.9,0.0,0.5,,,,,,,,,*52
$GNGRS,062813.00,1,2.7,-5.0,-8.3,,,,,,,,,*7B
$GNGST,062813.00,51,,,,21,20,31*6E
$GNZDA,062813.00,02,06,2025,00,00*77
$GNGBS,062813.00,21.5,20.0,31.1,,,,*66
$GNTXT,01,01,01,More than 100 frame errors, UART RX was disabled*70
b0L
Fwa*|/8FN?c{4V_:R 
YzA5B(bC!DMNF
O?QSR'XBb6$GNRMC,062814.00,A,0419.83292,S,05539.88329,E,0.302,,020625,,,A*74
$GNVTG,,T,,M,0.302,N,0.560,K,A*3F
$GNGNS,062814.00,0419.83292,S,05539.88329,E,AA,06,2.68,-8.6,-47.6,,*71
$GNGGA,062814.00,0419.83292,S,05539.88329,E,1,06,2.68,-8.6,M,-47.6,M,,*5B
$GNGSA,A,3,12,15,25,,,,,,,,,,3.83,2.68,2.74*19
$GNGSA,A,3,78,66,79,,,,,,,,,,3.83,2.68,2.74*18
$GPGSV,4,1,16,05,30,031,20,10,14,214,,12,70,119,21,13,12,097,13*7D
$GPGSV,4,2,16,15,42,124,29,18,29,303,24,23,56,218,19,24,28,168,*70
$GPGSV,4,3,16,25,70,334,24,28,08,282,,29,18,355,22,36,52,277,*70
$GPGSV,4,4,16,40,86,351,,41,58,082,,49,32,274,,50,10,089,*79
$GLGSV,3,1,10,65,11,053,,66,40,098,21,67,33,170,18,68,00,204,*63
$GLGSV,3,2,10,77,29,166,,78,70,257,21,79,28,319,26,81,09,339,*66
$GLGSV,3,3,10,82,06,295,,88,00,027,*63
$GNGLL,0419.83292,S,05539.88329,E,062814.00,A,A*6F
$GNGRS,062814.00,1,-5.1,2.6,0.6,,,,,,,,,*5C
$GNGRS,062814.00,1,1.9,-5.3,-8.2,,,,,,,,,*73
$GNGST,062814.00,49,,,,21,20,30*61
$GNZDA,062814.00,02,06,2025,00,00*70
$GNGBS,062814.00,21.3,19.7,29.9,,,,*6B
$GNTXT,01,01,01,More than 100 frame errors, UART RX was disabled*70
b0Lh
Fwa*|/8FNYc{4V_:R 
YzA5B(bC!DMNF
O?QSR'X|Jbh6Q$GNRMC,062815.00,A,0419.83284,S,05539.88350,E,0.430,,020625,,,A*7A
$GNVTG,,T,,M,0.430,N,0.797,K,A*33
$GNGNS,062815.00,0419.83284,S,05539.88350,E,AA,06,2.68,-6.3,-47.6,,*72
$GNGGA,062815.00,0419.83284,S,05539.88350,E,1,06,2.68,-6.3,M,-47.6,M,,*58
$GNGSA,A,3,12,15,25,,,,,,,,,,3.83,2.68,2.74*19
$GNGSA,A,3,78,66,79,,,,,,,,,,3.83,2.68,2.74*18
$GPGSV,4,1,16,05,30,031,19,10,14,214,,12,70,119,18,13,12,097,13*7D
$GPGSV,4,2,16,15,42,124,27,18,29,303,22,23,56,218,19,24,28,168,*78
$GPGSV,4,3,16,25,70,334,22,28,08,282,,29,18,355,21,36,52,277,*75
$GPGSV,4,4,16,40,86,351,,41,58,082,,49,32,274,,50,10,089,*79
$GLGSV,3,1,10,65,11,053,,66,40,098,19,67,33,170,16,68,00,204,*66
$GLGSV,3,2,10,77,29,166,,78,70,257,20,79,28,319,24,81,09,339,*65
$GLGSV,3,3,10,82,06,295,,88,00,027,*63
$GNGLL,0419.83284,S,05539.88350,E,062815.00,A,A*67
$GNGRS,062815.00,1,-10.2,-3.7,6.0,,,,,,,,,*47
$GNGRS,062815.00,1,1.6,-6.1,-7.5,,,,,,,,,*74
$GNGST,062815.00,57,,,,21,20,29*67
$GNZDA,062815.00,02,06,2025,00,00*71
$GNGBS,062815.00,21.3,19.5,29.1,,,,*60
$GNTXT,01,01,01,More than 100 frame errors, UART RX was disabled*70
b0LP
Fwa*| /8FNc{4V_:R 
YzA5B(bKC!DMNFm
O??QSR'XbP6$GNRMC,062816.00,A,0419.83302,S,05539.88313,E,0.663,,020625,,,A*75
$GNVTG,,T,,M,0.663,N,1.228,K,A*37
$GNGNS,062816.00,0419.83302,S,05539.88313,E,AA,06,2.68,-5.8,-47.6,,*71
$GNGGA,062816.00,0419.83302,S,05539.88313,E,1,06,2.68,-5.8,M,-47.6,M,,*5B
$GNGSA,A,3,12,15,25,,,,,,,,,,3.83,2.68,2.74*19
$GNGSA,A,3,78,66,79,,,,,,,,,,3.83,2.68,2.74*18
$GPGSV,4,1,16,05,30,031,16,10,14,214,,12,70,119,18,13,12,097,12*73
$GPGSV,4,2,16,15,42,124,28,18,29,303,21,23,56,218,18,24,28,168,*75
$GPGSV,4,3,16,25,70,334,22,28,08,282,,29,18,355,20,36,52,277,*74
$GPGSV,4,4,16,40,86,351,,41,58,082,,49,32,274,,50,10,089,*79
$GLGSV,3,1,10,65,11,053,,66,40,098,18,67,33,170,12,68,00,204,*63
$GLGSV,3,2,10,77,29,166,,78,70,257,18,79,28,319,21,81,09,339,*6B
$GLGSV,3,3,10,82,06,295,,88,00,027,*63
$GNGLL,0419.83302,S,05539.88313,E,062816.00,A,A*6C
$GNGRS,062816.00,1,-10.3,-2.2,4.1,,,,,,,,,*42
$GNGRS,062816.00,1,1.1,-6.9,-7.0,,,,,,,,,*7D
$GNGST,062816.00,52,,,,21,19,28*6A
$GNZDA,062816.00,02,06,2025,00,00*72
$GNGBS,062816.00,21.4,19.5,28.4,,,,*60
$GNTXT,01,01,01,More than 100 frame errors, UART RX was disabled*70
b0L8
Fw)a*|&/8FNc{4V_:R 
YzA5B(b"C!DMNF
O?QSR'Xfb86!$GNRMC,062817.00,A,0419.83305,S,05539.88294,E,0.595,,020625,,,A*77
$GNVTG,,T,,M,0.595,N,1.102,K,A*36
$GNGNS,062817.00,0419.83305,S,05539.88294,E,AA,06,2.68,-5.8,-47.6,,*79
$GNGGA,062817.00,0419.83305,S,05539.88294,E,1,06,2.68,-5.8,M,-47.6,M,,*53
$GNGSA,A,3,12,15,25,,,,,,,,,,3.83,2.68,2.74*19
$GNGSA,A,3,78,66,79,,,,,,,,,,3.83,2.68,2.74*18
$GPGSV,4,1,16,05,30,031,16,10,14,214,,12,70,119,18,13,12,097,12*73
$GPGSV,4,2,16,15,42,124,27,18,29,303,19,23,56,218,16,24,28,168,*7F
$GPGSV,4,3,16,25,70,334,22,28,08,282,,29,18,355,19,36,52,277,*7E
$GPGSV,4,4,16,40,86,351,,41,58,082,,49,32,274,,50,10,089,*79
$GLGSV,3,1,10,65,11,053,,66,40,098,18,67,33,170,,68,00,204,*60
$GLGSV,3,2,10,77,29,166,,78,70,257,17,79,28,319,21,81,09,339,*64
$GLGSV,3,3,10,82,06,295,,88,00,027,*63
$GNGLL,0419.83305,S,05539.88294,E,062817.00,A,A*64
$GNGRS,062817.00,1,-9.8,-4.7,4.4,,,,,,,,,*76
$GNGRS,062817.00,1,-0.7,-7.3,-8.8,,,,,,,,,*5A
$GNGST,062817.00,53,,,,21,19,28*6A
$GNZDA,062817.00,02,06,2025,00,00*73
$GNGBS,062817.00,21.5,19.4,27.9,,,,*63
$GNTXT,01,01,01,More than 100 frame errors, UART RX was disabled*70
b0L "
Fwaa *|/8FNc{4V_:R 
YzA5B(bC!DMNF
O?QSR'Xb "6vw$GNRMC,062818.00,A,0419.83244,S,05539.88337,E,0.686,,020625,,,A*75
$GNVTG,,T,,M,0.686,N,1.271,K,A*30
$GNGNS,062818.00,0419.83244,S,05539.88337,E,AA,06,2.68,-5.0,-47.6,,*72
$GNGGA,062818.00,0419.83244,S,05539.88337,E,1,06,2.68,-5.0,M,-47.6,M,,*58
$GNGSA,A,3,12,15,25,,,,,,,,,,3.83,2.68,2.74*19
$GNGSA,A,3,78,66,79,,,,,,,,,,3.83,2.68,2.74*18
$GPGSV,4,1,16,05,30,031,15,10,14,214,,12,70,119,21,13,12,097,*79
$GPGSV,4,2,16,15,42,124,32,18,29,303,20,23,56,218,16,24,28,168,*71
$GPGSV,4,3,16,25,70,334,28,28,08,282,,29,18,355,18,36,52,277,*75
$GPGSV,4,4,16,40,86,351,,41,58,082,,49,32,274,,50,10,089,*79
$GLGSV,3,1,10,65,11,053,,66,40,098,19,67,33,170,,68,00,204,*61
$GLGSV,3,2,10,77,29,166,,78,70,257,18,79,28,319,23,81,09,339,*69
$GLGSV,3,3,10,82,06,295,,88,00,027,*63
$GNGLL,0419.83244,S,05539.88337,E,062818.00,A,A*67
$GNGRS,062818.00,1,-11.8,-0.5,2.8,,,,,,,,,*4C
$GNGRS,062818.00,1,0.2,-6.2,-7.4,,,,,,,,,*7E
$GNGST,062818.00,48,,,,22,19,27*63
$GNZDA,062818.00,02,06,2025,00,00*7C
$GNGBS,062818.00,21.5,19.4,27.3,,,,*66
$GNTXT,01,01,01,More than 100 frame errors, UART RX was disabled*70
b0L&
Fwa$*|}/8FNzc{4V_:R 
YzA5B(bC!DMNF{
O?QSR'Xb&6^P$GNRMC,062819.00,A,0419.83269,S,05539.88328,E,0.343,,020625,,,A*79
$GNVTG,,T,,M,0.343,N,0.635,K,A*39
$GNGNS,062819.00,0419.83269,S,05539.88328,E,AA,06,2.68,-5.2,-47.6,,*70
$GNGGA,062819.00,0419.83269,S,05539.88328,E,1,06,2.68,-5.2,M,-47.6,M,,*5A
$GNGSA,A,3,12,15,25,,,,,,,,,,3.83,2.68,2.74*19
$GNGSA,A,3,78,66,79,,,,,,,,,,3.83,2.68,2.74*18
$GPGSV,4,1,16,05,30,031,22,10,14,214,,12,70,119,25,13,12,097,*79
$GPGSV,4,2,16,15,42,124,36,18,29,303,24,23,56,218,17,24,28,168,*70
$GPGSV,4,3,16,25,70,334,29,28,08,282,,29,18,355,20,36,52,277,*7F
$GPGSV,4,4,16,40,86,351,,41,58,082,,49,32,274,,50,10,089,*79
$GLGSV,3,1,10,65,11,053,,66,40,098,20,67,33,170,,68,00,204,*6B
$GLGSV,3,2,10,77,29,166,,78,70,257,21,79,28,319,24,81,09,339,*64
$GLGSV,3,3,10,82,06,295,,88,00,027,*63
$GNGLL,0419.83269,S,05539.88328,E,062819.00,A,A*67
$GNGRS,062819.00,1,-12.8,1.2,3.8,,,,,,,,,*64
$GNGRS,062819.00,1,1.2,-7.6,-5.8,,,,,,,,,*75
$GNGST,062819.00,44,,,,21,19,27*6D
$GNZDA,062819.00,02,06,2025,00,00*7D
$GNGBS,062819.00,21.4,19.2,26.6,,,,*64
$GNTXT,01,01,01,More than 100 frame errors, UART RX was disabled*70
b0L)
FwKa$*|/8FN,c{4V_:R 
YzA5B(bxC!DMNF
O?QSR'XAb)6F'L$GNRMC,062820.00,A,0419.83263,S,05539.88329,E,0.419,,020625,,,A*70
$GNVTG,,T,,M,0.419,N,0.777,K,A*36
$GNGNS,062820.00,0419.83263,S,05539.88329,E,AA,06,2.68,-4.6,-47.6,,*74
$GNGGA,062820.00,0419.83263,S,05539.88329,E,1,06,2.68,-4.6,M,-47.6,M,,*5E
$GNGSA,A,3,12,15,25,,,,,,,,,,3.83,2.68,2.74*19
$GNGSA,A,3,78,66,79,,,,,,,,,,3.83,2.68,2.74*18
$GPGSV,4,1,16,05,30,031,23,10,14,214,,12,70,119,23,13,12,097,*7E
$GPGSV,4,2,16,15,42,124,36,18,29,303,24,23,56,218,20,24,28,168,*74
$GPGSV,4,3,16,25,70,334,29,28,08,282,,29,18,355,21,36,52,277,*7E
$GPGSV,4,4,16,40,86,351,,41,58,082,,49,32,274,,50,10,089,*79
$GLGSV,3,1,10,65,11,053,,66,40,098,20,67,33,170,,68,00,204,*6B
$GLGSV,3,2,10,77,29,166,,78,70,257,24,79,28,319,26,81,09,339,*63
$GLGSV,3,3,10,82,06,295,,88,00,027,*63
$GNGLL,0419.83263,S,05539.88329,E,062820.00,A,A*66
$GNGRS,062820.00,1,-14.6,-3.0,5.6,,,,,,,,,*43
$GNGRS,062820.00,1,2.3,-6.5,-5.8,,,,,,,,,*7F
$GNGST,062820.00,44,,,,21,19,26*66
$GNZDA,062820.00,02,06,2025,00,00*77
$GNGBS,062820.00,21.2,19.0,25.9,,,,*66
$GNTXT,01,01,01,More than 100 frame errors, UART RX was disabled*70
b0L-
Fwsa!*|/8FNc{4V_:R 
YzA5B(bC!DMNFx
O?QSR'Xb-6.$GNRMC,062821.00,A,0419.83317,S,05539.88281,E,0.027,,020625,,,A*79
$GNVTG,,T,,M,0.027,N,0.050,K,A*3D
$GNGNS,062821.00,0419.83317,S,05539.88281,E,AA,06,2.68,-4.5,-47.6,,*77
$GNGGA,062821.00,0419.83317,S,05539.88281,E,1,06,2.68,-4.5,M,-47.6,M,,*5D
$GNGSA,A,3,12,15,25,,,,,,,,,,3.84,2.68,2.75*1F
$GNGSA,A,3,78,66,79,,,,,,,,,,3.84,2.68,2.75*1E
$GPGSV,4,1,16,05,30,031,23,10,14,214,,12,70,119,25,13,12,097,*78
$GPGSV,4,2,16,15,42,124,33,18,29,303,25,23,56,218,20,24,28,168,*70
$GPGSV,4,3,16,25,70,334,29,28,08,282,,29,18,355,21,36,52,277,*7E
$GPGSV,4,4,16,40,86,351,,41,58,082,,49,32,274,,50,10,089,*79
$GLGSV,3,1,10,65,11,053,,66,40,098,20,67,33,170,22,68,00,204,*6B
$GLGSV,3,2,10,77,29,166,,78,70,257,25,79,28,319,26,81,09,339,*62
$GLGSV,3,3,10,82,06,295,,88,00,027,*63
$GNGLL,0419.83317,S,05539.88281,E,062821.00,A,A*66
$GNGRS,062821.00,1,-14.2,1.3,7.4,,,,,,,,,*6A
$GNGRS,062821.00,1,3.8,-7.9,-5.6,,,,,,,,,*77
$GNGST,062821.00,43,,,,21,19,25*63
$GNZDA,062821.00,02,06,2025,00,00*76
$GNGBS,062821.00,20.9,18.7,25.3,,,,*61
$GNTXT,01,01,01,More than 100 frame errors, UART RX was disabled*70
b0L1
Fw#a *|/8FNc{4V_:R 
YzA5B(bC!DMNF
O?QSR'Xb16$GNRMC,062822.00,A,0419.83339,S,05539.88265,E,0.103,,020625,,,A*7B
$GNVTG,,T,,M,0.103,N,0.191,K,A*36
$GNGNS,062822.00,0419.83339,S,05539.88265,E,AA,06,2.68,-4.0,-47.6,,*77
$GNGGA,062822.00,0419.83339,S,05539.88265,E,1,06,2.68,-4.0,M,-47.6,M,,*5D
$GNGSA,A,3,12,15,25,,,,,,,,,,3.84,2.68,2.75*1F
$GNGSA,A,3,78,66,79,,,,,,,,,,3.84,2.68,2.75*1E
$GPGSV,4,1,16,05,30,031,22,10,14,214,,12,70,119,25,13,12,097,*79
$GPGSV,4,2,16,15,42,124,32,18,29,303,25,23,56,218,19,24,28,168,*7B
$GPGSV,4,3,16,25,70,334,28,28,08,282,,29,18,355,21,36,52,277,*7F
$GPGSV,4,4,16,40,86,351,,41,58,082,,49,32,274,,50,10,089,*79
$GLGSV,3,1,10,65,11,053,,66,40,098,17,67,33,170,21,68,00,204,*6C
$GLGSV,3,2,10,77,29,166,,78,70,257,25,79,28,319,27,81,09,339,*63
$GLGSV,3,3,10,82,06,295,,88,00,027,*63
$GNGLL,0419.83339,S,05539.88265,E,062822.00,A,A*63
$GNGRS,062822.00,1,-12.5,-1.1,5.3,,,,,,,,,*42
$GNGRS,062822.00,1,3.9,-8.3,-5.5,,,,,,,,,*73
$GNGST,062822.00,45,,,,21,18,25*67
$GNZDA,062822.00,02,06,2025,00,00*75
$GNGBS,062822.00,20.8,18.5,24.7,,,,*64
$GNTXT,01,01,01,More than 100 frame errors, UART RX was disabled*70
b0L5
Fwva *|j/8FNAc{4V_:R 
YzA5B(bC!DMNF
O?QSR'X5tb56$GNRMC,062823.00,A,0419.83340,S,05539.88263,E,0.060,,020625,,,A*76
$GNVTG,,T,,M,0.060,N,0.111,K,A*3A
$GNGNS,062823.00,0419.83340,S,05539.88263,E,AA,06,2.68,-3.8,-47.6,,*71
$GNGGA,062823.00,0419.83340,S,05539.88263,E,1,06,2.68,-3.8,M,-47.6,M,,*5B
$GNGSA,A,3,12,15,25,,,,,,,,,,3.84,2.68,2.75*1F
$GNGSA,A,3,78,66,79,,,,,,,,,,3.84,2.68,2.75*1E
$GPGSV,4,1,16,05,30,031,20,10,14,214,,12,70,119,25,13,12,097,*7B
$GPGSV,4,2,16,15,42,124,32,18,29,303,26,23,56,218,18,24,28,168,*79
$GPGSV,4,3,16,25,70,334,28,28,08,282,,29,18,355,22,36,52,277,*7C
$GPGSV,4,4,16,40,86,351,,41,58,082,,49,32,274,,50,10,089,*79
$GLGSV,3,1,10,65,11,053,,66,40,098,17,67,33,170,20,68,00,204,*6D
$GLGSV,3,2,10,77,29,166,,78,70,257,25,79,28,319,27,81,09,339,*63
$GLGSV,3,3,10,82,06,295,,88,00,027,*63
$GNGLL,0419.83340,S,05539.88263,E,062823.00,A,A*6A
$GNGRS,062823.00,1,-11.6,-1.5,3.2,,,,,,,,,*40
$GNGRS,062823.00,1,4.6,-10.1,-3.5,,,,,,,,,*47
$GNGST,062823.00,45,,,,21,18,24*67
$GNZDA,062823.00,02,06,2025,00,00*74
$GNGBS,062823.00,20.6,18.3,24.2,,,,*68
$GNTXT,01,01,01,More than 100 frame errors, UART RX was disabled*70
b0L9
Fwa!*|/8FN;c{4V_:R 
YzA5B(bC!DMNF
O?QSR'Xb96$GNRMC,062824.00,A,0419.83357,S,05539.88240,E,0.222,,020625,,,A*72
$GNVTG,,T,,M,0.222,N,0.411,K,A*3B
$GNGNS,062824.00,0419.83357,S,05539.88240,E,AA,06,2.68,-3.6,-47.6,,*7F
$GNGGA,062824.00,0419.83357,S,05539.88240,E,1,06,2.68,-3.6,M,-47.6,M,,*55
$GNGSA,A,3,12,15,25,,,,,,,,,,3.84,2.68,2.75*1F
$GNGSA,A,3,78,66,79,,,,,,,,,,3.84,2.68,2.75*1E
$GPGSV,4,1,16,05,30,031,18,10,14,214,,12,70,119,26,13,12,097,*73
$GPGSV,4,2,16,15,42,124,33,18,29,303,26,23,56,218,20,24,28,168,*73
$GPGSV,4,3,16,25,70,334,28,28,08,282,,29,18,355,21,36,52,277,*7F
$GPGSV,4,4,16,40,86,351,,41,58,082,,49,32,274,,50,10,089,*79
$GLGSV,3,1,10,65,11,053,,66,40,098,22,67,33,170,18,68,00,204,*60
$GLGSV,3,2,10,77,29,166,,78,70,257,25,79,28,319,27,81,09,339,*63
$GLGSV,3,3,10,82,06,295,,88,00,027,*63
$GNGLL,0419.83357,S,05539.88240,E,062824.00,A,A*6A
$GNGRS,062824.00,1,-10.8,-3.8,5.7,,,,,,,,,*44
$GNGRS,062824.00,1,4.7,-10.0,-3.1,,,,,,,,,*44
$GNGST,062824.00,47,,,,20,18,24*63
$GNZDA,062824.00,02,06,2025,00,00*73
$GNGBS,062824.00,20.5,18.1,23.7,,,,*6C
$GNTXT,01,01,01,More than 100 frame errors, UART RX was disabled*70
b0Lx=
Fwa*|/8FNBc{4V_:R 
YzA5B(bC!DMNFm
O?QSR'Xbx=6^Q$GNRMC,062825.00,A,0419.83365,S,05539.88230,E,0.181,,020625,,,A*7F
$GNVTG,,T,,M,0.181,N,0.335,K,A*30
$GNGNS,062825.00,0419.83365,S,05539.88230,E,AA,06,2.68,-3.2,-47.6,,*7C
$GNGGA,062825.00,0419.83365,S,05539.88230,E,1,06,2.68,-3.2,M,-47.6,M,,*56
$GNGSA,A,3,12,15,25,,,,,,,,,,3.84,2.68,2.75*1F
$GNGSA,A,3,78,66,79,,,,,,,,,,3.84,2.68,2.75*1E
$GPGSV,4,1,16,05,30,031,18,10,14,214,,12,70,119,24,13,12,097,*71
$GPGSV,4,2,16,15,42,124,31,18,29,303,26,23,56,218,21,24,28,168,*70
$GPGSV,4,3,16,25,70,334,29,28,08,282,,29,18,355,20,36,52,277,*7F
$GPGSV,4,4,16,40,86,351,,41,58,082,,49,32,274,,50,10,089,*79
$GLGSV,3,1,10,65,11,053,,66,40,098,23,67,33,170,16,68,00,204,*6F
$GLGSV,3,2,10,77,29,166,,78,70,257,25,79,28,319,28,81,09,339,*6C
$GLGSV,3,3,10,82,06,295,,88,00,027,*63
$GNGLL,0419.83365,S,05539.88230,E,062825.00,A,A*6D
$GNGRS,062825.00,1,-10.9,-5.5,3.2,,,,,,,,,*4C
$GNGRS,062825.00,1,3.6,-10.7,-3.7,,,,,,,,,*42
