b0X>q'z*9U z;R
3
{4"V^:RY9 
Y
gOAG#tHJ%KI0^LXVTW!bX [br{rG/_$GNRMC,051111.00,A,0420.02246,S,05539.78085,E,0.281,,230525,,,D*77
$GNVTG,,T,,M,0.281,N,0.520,K,D*34
$GNGNS,051111.00,0420.02246,S,05539.78085,E,DA,15,0.72,14.3,-47.6,,0000*66
$GNGGA,051111.00,0420.02246,S,05539.78085,E,2,12,0.72,14.3,M,-47.6,M,,0000*4D
$GNGSA,A,3,24,20,05,13,15,22,18,23,41,,,,1.29,0.72,1.08*10
$GNGSA,A,3,86,74,75,87,71,72,,,,,,,1.29,0.72,1.08*19
$GPGSV,5,1,17,05,62,113,19,11,16,022,22,12,39,006,,13,18,149,31*7C
$GPGSV,5,2,17,15,28,184,25,18,27,238,09,20,42,057,17,22,14,122,32*75
$GPGSV,5,3,17,23,07,210,26,24,59,226,19,25,16,338,,29,10,307,*7A
$GPGSV,5,4,17,36,52,277,,40,86,350,34,41,58,082,29,49,32,274,*71
$GPGSV,5,5,17,50,10,089,*4A
$GLGSV,3,1,10,65,00,216,,71,16,116,35,72,19,168,25,74,37,141,13*65
$GLGSV,3,2,10,75,73,048,26,76,22,344,,86,27,340,18,87,33,286,14*6A
$GLGSV,3,3,10,88,05,232,,,,,32*53
$GNGLL,0420.02246,S,05539.78085,E,051111.00,A,D*66
$GNGRS,051111.00,1,7.8,-1.7,-6.0,6.3,-3.1,-0.5,10.2,-3.3,147,,,*74
$GNGRS,051111.00,1,1.7,-2.6,0.9,3.5,-2.8,-15.3,,,,,,*48
$GNGST,051111.00,2974198,,,,5.5,4.6,10*59
$GNZDA,051111.00,23,05,2025,00,00*7C
$GNGBS,051111.00,5.5,4.6,9.9,,,,*58
$GNTXT,01,01,01,More than 100 frame errors, UART RX was disabled*70
b0X>q' p*9$zs;R
3
{4"V^:R67 
Y
g)AG"tHnJ%KI08LXVTEW!WX8brcvG$GNRMC,051112.00,A,0420.02242,S,05539.78084,E,0.119,,230525,,,D*73
$GNVTG,,T,,M,0.119,N,0.220,K,D*31
$GNGNS,051112.00,0420.02242,S,05539.78084,E,DA,15,0.73,14.0,-47.6,,0000*62
$GNGGA,051112.00,0420.02242,S,05539.78084,E,2,12,0.73,14.0,M,-47.6,M,,0000*49
$GNGSA,A,3,24,20,05,13,15,22,18,23,41,,,,1.34,0.73,1.13*17
$GNGSA,A,3,86,74,75,87,71,72,,,,,,,1.34,0.73,1.13*1E
$GPGSV,5,1,17,05,62,113,19,11,16,022,22,12,39,006,,13,18,149,32*7F
$GPGSV,5,2,17,15,28,184,25,18,27,238,12,20,42,057,18,22,14,122,36*74
$GPGSV,5,3,17,23,07,210,26,24,59,226,19,25,16,338,,29,10,307,*7A
$GPGSV,5,4,17,36,52,277,,40,86,350,34,41,58,082,27,49,32,274,*7F
$GPGSV,5,5,17,50,10,089,*4A
$GLGSV,3,1,10,65,00,216,,71,16,116,34,72,19,167,23,74,37,141,16*68
$GLGSV,3,2,10,75,73,048,25,76,22,344,,86,27,340,17,87,33,286,13*61
$GLGSV,3,3,10,88,05,232,,,,,31*50
$GNGLL,0420.02242,S,05539.78084,E,051112.00,A,D*60
$GNGRS,051112.00,1,7.4,-1.2,-5.4,3.7,-0.9,-0.4,10.0,-1.4,141,,,*73
$GNGRS,051112.00,1,3.2,-2.5,0.6,3.4,-2.9,-14.3,,,,,,*41
$GNGST,051112.00,3072040,,,,5.5,4.6,10*50
$GNZDA,051112.00,23,05,2025,00,00*7F
$GNGBS,051112.00,5.5,4.6,9.9,41,,-141.2,4098.9*49
$GNTXT,01,01,01,More than 100 frame errors, UART RX was disabled*70
b0X>qX'#*9!z;JR
3
{4'V^:R 
Y
gZAG tHJ%=K I0LXVTpW!jX"brKzG/$GNRMC,051113.00,A,0420.02244,S,05539.78084,E,0.026,,230525,,,D*79
$GNVTG,,T,,M,0.026,N,0.049,K,D*31
$GNGNS,051113.00,0420.02244,S,05539.78084,E,DA,14,0.78,14.0,-47.6,,0000*6F
$GNGGA,051113.00,0420.02244,S,05539.78084,E,2,12,0.78,14.0,M,-47.6,M,,0000*45
$GNGSA,A,3,24,20,05,13,15,22,18,23,,,,,1.38,0.78,1.14*12
$GNGSA,A,3,86,74,75,87,71,72,,,,,,,1.38,0.78,1.14*1E
$GPGSV,5,1,17,05,62,113,19,11,16,022,21,12,39,006,,13,18,149,35*7B
$GPGSV,5,2,17,15,28,184,25,18,27,238,17,20,42,057,20,22,14,122,33*7F
$GPGSV,5,3,17,23,07,210,26,24,59,226,20,25,16,338,,29,10,307,*70
$GPGSV,5,4,17,36,52,277,,40,86,350,39,41,58,082,,49,32,274,*77
$GPGSV,5,5,17,50,10,089,*4A
$GLGSV,3,1,10,65,00,216,,71,16,116,32,72,19,167,25,74,37,141,12*6C
$GLGSV,3,2,10,75,73,048,32,76,22,344,,86,27,340,18,87,33,286,14*6F
$GLGSV,3,3,10,88,05,232,,,,,34*55
$GNGLL,0420.02244,S,05539.78084,E,051113.00,A,D*67
$GNGRS,051113.00,1,8.4,-2.9,-6.8,3.9,-0.2,-0.3,-6.3,-0.4,,,,*54
$GNGRS,051113.00,1,1.1,5.7,-0.3,-39.9,-3.7,-13.9,,,,,,*5A
$GNGST,051113.00,49,,,,5.5,4.6,9.9*41
$GNZDA,051113.00,23,05,2025,00,00*7E
$GNGBS,051113.00,5.5,4.6,9.9,,,,*5A
$GNTXT,01,01,01,More than 100 frame errors, UART RX was disabled*70
b0X>q'
 
*9%zg;R
3
{4'V^!:R< 
Y$
gAG&tHJ$K I0lLXVTW!X#br3~G$GNRMC,051114.00,A,0420.02246,S,05539.78082,E,0.022,,230525,,,D*7E
$GNVTG,,T,,M,0.022,N,0.040,K,D*3C
$GNGNS,051114.00,0420.02246,S,05539.78082,E,DA,15,0.73,14.2,-47.6,,0000*64
$GNGGA,051114.00,0420.02246,S,05539.78082,E,2,12,0.73,14.2,M,-47.6,M,,0000*4F
$GNGSA,A,3,24,20,05,13,15,22,18,23,41,,,,1.34,0.73,1.13*17
$GNGSA,A,3,86,74,75,87,71,72,,,,,,,1.34,0.73,1.13*1E
$GPGSV,5,1,17,05,62,113,22,11,16,022,21,12,39,006,18,13,18,149,32*7D
$GPGSV,5,2,17,15,28,184,28,18,27,238,16,20,42,057,21,22,14,122,37*76
$GPGSV,5,3,17,23,07,210,25,24,59,226,22,25,16,338,,29,10,307,*71
$GPGSV,5,4,17,36,52,277,,40,86,350,39,41,58,082,33,49,32,274,*77
$GPGSV,5,5,17,50,10,089,*4A
$GLGSV,3,1,10,65,00,216,,71,16,116,38,72,19,167,25,74,36,142,09*6E
$GLGSV,3,2,10,75,73,048,32,76,22,344,,86,27,340,19,87,33,286,12*68
$GLGSV,3,3,10,88,05,232,,,,,35*54
$GNGLL,0420.02246,S,05539.78082,E,051114.00,A,D*64
$GNGRS,051114.00,1,6.6,-3.2,-5.4,2.4,0.1,-0.2,10.3,-1.5,155,,,*52
$GNGRS,051114.00,1,3.9,-2.8,1.1,3.9,-2.3,-15.5,,,,,,*47
$GNGST,051114.00,3077585,,,,5.5,4.6,9.8*71
$GNZDA,051114.00,23,05,2025,00,00*79
$GNGBS,051114.00,5.5,4.6,9.8,,,,*5C
$GNTXT,01,01,01,More than 100 frame errors, UART RX was disabled*70
b0X>q'a%EU*9'z;R
3
{4(V^":R*; 
Y%
gAG(tHJ$K!J2LXVTW!X"FbrG$GNRMC,051115.00,A,0420.02251,S,05539.78083,E,0.098,,230525,,,D*79
$GNVTG,,T,,M,0.098,N,0.181,K,D*31
$GNGNS,051115.00,0420.02251,S,05539.78083,E,DA,15,0.73,14.5,-47.6,,0000*65
$GNGGA,051115.00,0420.02251,S,05539.78083,E,2,12,0.73,14.5,M,-47.6,M,,0000*4E
$GNGSA,A,3,24,20,05,13,15,22,18,23,41,,,,1.34,0.73,1.13*17
$GNGSA,A,3,86,74,75,87,71,72,,,,,,,1.34,0.73,1.13*1E
$GPGSV,5,1,17,05,62,113,25,11,16,022,21,12,39,006,19,13,18,149,37*7E
$GPGSV,5,2,17,15,28,184,31,18,27,238,14,20,42,057,22,22,14,122,39*71
$GPGSV,5,3,17,23,07,210,26,24,59,226,24,25,16,338,,29,10,307,*74
$GPGSV,5,4,17,36,52,277,,40,86,350,40,41,58,082,34,49,32,274,*7E
$GPGSV,5,5,17,50,10,089,*4A
$GLGSV,3,1,10,65,00,216,,71,16,116,40,72,19,167,26,74,36,142,12*68
$GLGSV,3,2,10,75,74,050,33,76,22,344,,86,27,340,20,87,33,286,09*67
$GLGSV,3,3,10,88,05,232,,,,,34*55
$GNGLL,0420.02251,S,05539.78083,E,051115.00,A,D*62
$GNGRS,051115.00,1,7.2,-2.3,-5.2,3.2,-4.3,-0.2,10.2,0.2,151,,,*52
$GNGRS,051115.00,1,5.0,-3.0,2.8,3.8,-2.3,-16.5,,,,,,*48
$GNGST,051115.00,4345665,,,,5.5,4.6,9.8*78
$GNZDA,051115.00,23,05,2025,00,00*78
$GNGBS,051115.00,5.5,4.6,9.8,,,,*5D
$GNTXT,01,01,01,More than 100 frame errors, UART RX was disabled*70
b0Xp>q'#*9&zG;R
3
{4(V^#:R; 
Y$
gAG&tHJ$K!J2mLXVTfW
!2X"<bbprGhu$GNRMC,051116.00,A,0420.02246,S,05539.78066,E,0.111,,230525,,,D*77
$GNVTG,,T,,M,0.111,N,0.205,K,D*3E
$GNGNS,051116.00,0420.02246,S,05539.78066,E,DA,15,0.80,14.1,-47.6,,0000*63
$GNGGA,051116.00,0420.02246,S,05539.78066,E,2,12,0.80,14.1,M,-47.6,M,,0000*48
$GNGSA,A,3,24,20,05,13,15,22,18,23,41,,,,1.37,0.80,1.11*1A
$GNGSA,A,3,86,74,75,87,71,72,,,,,,,1.37,0.80,1.11*13
$GPGSV,5,1,17,05,62,113,26,11,16,022,21,12,39,006,19,13,18,149,35*7F
$GPGSV,5,2,17,15,28,184,31,18,27,238,19,20,42,057,23,22,14,122,38*7C
$GPGSV,5,3,17,23,07,210,26,24,59,226,24,25,16,338,,29,10,307,*74
$GPGSV,5,4,17,36,52,277,,40,86,350,40,41,58,082,35,49,32,274,*7F
$GPGSV,5,5,17,50,10,089,*4A
$GLGSV,3,1,10,65,00,216,,71,16,116,38,72,19,167,25,74,36,142,09*6E
$GLGSV,3,2,10,75,74,050,33,76,23,344,,86,27,340,19,87,33,286,10*64
$GLGSV,3,3,10,88,05,232,,,,,34*55
$GNGLL,0420.02246,S,05539.78066,E,051116.00,A,D*6C
$GNGRS,051116.00,1,7.4,-5.0,-2.9,4.6,0.1,-0.2,7.1,0.7,153,,,*45
$GNGRS,051116.00,1,3.6,-69.3,-1.5,130,-5.6,-18.0,,,,,,*49
$GNGST,051116.00,1096,,,,5.5,4.6,9.6*48
$GNZDA,051116.00,23,05,2025,00,00*7B
$GNGBS,051116.00,5.5,4.6,9.6,,,,*50
$GNTXT,01,01,01,More than 100 frame errors, UART RX was disabled*70
b0XX>q'~#)*9'z;R
3
{4(V^#:R; 
Y$
g*AG%tHJ$K J2LXVTW!yX"bXrG?$GNRMC,051117.00,A,0420.02252,S,05539.78056,E,0.062,,230525,,,D*75
$GNVTG,,T,,M,0.062,N,0.114,K,D*38
$GNGNS,051117.00,0420.02252,S,05539.78056,E,DA,16,0.67,14.0,-47.6,,0000*6F
$GNGGA,051117.00,0420.02252,S,05539.78056,E,2,12,0.67,14.0,M,-47.6,M,,0000*47
$GNGSA,A,3,24,20,05,13,15,22,12,18,23,41,,,1.26,0.67,1.07*17
$GNGSA,A,3,86,74,75,87,71,72,,,,,,,1.26,0.67,1.07*1D
$GPGSV,5,1,17,05,62,113,27,11,16,022,22,12,39,006,18,13,18,149,35*7C
$GPGSV,5,2,17,15,28,184,31,18,27,238,19,20,42,057,24,22,14,122,39*7A
$GPGSV,5,3,17,23,07,210,27,24,59,226,25,25,16,338,,29,10,307,*74
$GPGSV,5,4,17,36,52,277,,40,86,350,40,41,58,082,35,49,32,274,*7F
$GPGSV,5,5,17,50,10,089,*4A
$GLGSV,3,1,10,65,00,216,,71,16,116,37,72,19,167,25,74,36,142,12*6B
$GLGSV,3,2,10,75,74,050,32,76,23,344,,86,27,340,19,87,33,286,11*64
$GLGSV,3,3,10,88,05,232,,,,,34*55
$GNGLL,0420.02252,S,05539.78056,E,051117.00,A,D*6B
$GNGRS,051117.00,1,7.4,-5.1,-3.3,5.0,-0.8,0.0,-6.4,5.5,1.4,152,,*46
$GNGRS,051117.00,1,1.8,-2.8,-1.0,3.8,-6.4,-16.6,,,,,,*69
$GNGST,051117.00,4080214,,,,5.4,4.5,9.4*7C
$GNZDA,051117.00,23,05,2025,00,00*7A
$GNGBS,051117.00,5.4,4.5,9.4,,,,*51
$GNTXT,01,01,01,More than 100 frame errors, UART RX was disabled*70
b0X@>qn'"\ 2*99'zt;R
3
{4(V^#:R< 
Y#
gAG%tH]J$KJ2_LXVTW!hX b@rGB$GNRMC,051118.00,A,0420.02250,S,05539.78049,E,0.126,,230525,,,D*77
$GNVTG,,T,,M,0.126,N,0.234,K,D*38
$GNGNS,051118.00,0420.02250,S,05539.78049,E,DA,15,0.72,14.0,-47.6,,0000*6B
$GNGGA,051118.00,0420.02250,S,05539.78049,E,2,12,0.72,14.0,M,-47.6,M,,0000*40
$GNGSA,A,3,24,20,05,13,15,22,18,23,41,,,,1.29,0.72,1.07*1F
$GNGSA,A,3,86,74,75,87,71,72,,,,,,,1.29,0.72,1.07*16
$GPGSV,5,1,17,05,62,113,28,11,16,022,22,12,39,006,,13,18,149,34*7B
$GPGSV,5,2,17,15,28,184,32,18,27,238,21,20,42,057,23,22,14,122,39*75
$GPGSV,5,3,17,23,07,210,27,24,59,226,25,25,16,338,,29,10,307,*74
$GPGSV,5,4,17,36,52,277,,40,86,350,40,41,58,082,35,49,32,274,*7F
$GPGSV,5,5,17,50,10,089,*4A
$GLGSV,3,1,10,65,00,216,,71,16,116,37,72,19,167,23,74,36,142,09*67
$GLGSV,3,2,10,75,74,050,31,76,23,344,,86,27,340,17,87,33,286,08*61
$GLGSV,3,3,10,88,05,232,,,,,32*53
$GNGLL,0420.02250,S,05539.78049,E,051118.00,A,D*68
$GNGRS,051118.00,1,7.5,-2.0,-1.5,6.0,-2.8,0.2,3.1,1.2,155,,,*4B
$GNGRS,051118.00,1,1.5,-3.0,0.9,3.6,-3.7,-14.4,,,,,,*4F
$GNGST,051118.00,4205788,,,,5.4,4.4,9.2*7B
$GNZDA,051118.00,23,05,2025,00,00*75
$GNGBS,051118.00,5.4,4.4,9.2,,,,*59
$GNTXT,01,01,01,More than 100 frame errors, UART RX was disabled*70
b0X(>qB'#1*9'z;R
3
{4'V^#:Rn; 
Y$
gzAG%t+HJ$K J2dLXVTW
!P*X!b(rG$GNRMC,051119.00,A,0420.02249,S,05539.78047,E,0.133,,230525,,,D*74
$GNVTG,,T,,M,0.133,N,0.247,K,D*38
$GNGNS,051119.00,0420.02249,S,05539.78047,E,DA,15,0.80,14.0,-47.6,,0000*61
$GNGGA,051119.00,0420.02249,S,05539.78047,E,2,12,0.80,14.0,M,-47.6,M,,0000*4A
$GNGSA,A,3,24,20,05,13,15,22,18,23,41,,,,1.37,0.80,1.11*1A
$GNGSA,A,3,86,74,75,87,71,72,,,,,,,1.37,0.80,1.11*13
$GPGSV,5,1,17,05,62,113,27,11,16,022,22,12,39,006,,13,18,149,35*75
$GPGSV,5,2,17,15,28,184,31,18,27,238,20,20,42,057,24,22,14,122,39*70
$GPGSV,5,3,17,23,07,210,26,24,59,226,24,25,16,338,,29,10,307,*74
$GPGSV,5,4,17,36,52,277,,40,86,350,39,41,58,082,35,49,32,274,*71
$GPGSV,5,5,17,50,10,089,*4A
$GLGSV,3,1,10,65,00,216,,71,16,116,37,72,19,167,23,74,36,142,11*6E
$GLGSV,3,2,10,75,74,050,32,76,23,344,,86,27,340,17,87,33,286,10*6B
$GLGSV,3,3,10,88,05,232,,,,,33*52
$GNGLL,0420.02249,S,05539.78047,E,051119.00,A,D*6F
$GNGRS,051119.00,1,7.1,-0.8,-1.9,5.6,-5.6,0.0,4.1,2.7,152,,,*40
$GNGRS,051119.00,1,2.6,30.4,1.0,108,0.4,-15.7,,,,,,*62
$GNGST,051119.00,1096,,,,5.3,4.3,9.0*42
$GNZDA,051119.00,23,05,2025,00,00*74
$GNGBS,051119.00,5.3,4.3,9.0,,,,*5A
$GNTXT,01,01,01,More than 100 frame errors, UART RX was disabled*70
b0X>q'"U*9'z;R
3
{4'V^#:RN; 
Y%
gAG%t8HJ$K J2LXVTW!X brG$GNRMC,051120.00,A,0420.02252,S,05539.78044,E,0.182,,230525,,,D*7D
$GNVTG,,T,,M,0.182,N,0.337,K,D*34
$GNGNS,051120.00,0420.02252,S,05539.78044,E,DA,15,0.72,14.0,-47.6,,0000*6F
$GNGGA,051120.00,0420.02252,S,05539.78044,E,2,12,0.72,14.0,M,-47.6,M,,0000*44
$GNGSA,A,3,24,20,05,13,15,22,18,23,41,,,,1.29,0.72,1.07*1F
$GNGSA,A,3,86,74,75,87,71,72,,,,,,,1.29,0.72,1.07*16
$GPGSV,5,1,17,05,62,113,27,11,16,022,22,12,39,006,,13,18,149,34*74
$GPGSV,5,2,17,15,28,184,30,18,27,238,20,20,42,057,23,22,14,122,39*76
$GPGSV,5,3,17,23,07,210,26,24,59,226,24,25,16,338,,29,10,307,*74
$GPGSV,5,4,17,36,52,277,,40,86,350,39,41,58,082,35,49,32,274,*71
$GPGSV,5,5,17,50,10,089,*4A
$GLGSV,3,1,10,65,00,216,,71,16,116,37,72,19,167,23,74,36,142,09*67
$GLGSV,3,2,10,75,74,050,32,76,23,344,,86,27,340,18,87,33,286,09*6C
$GLGSV,3,3,10,88,05,232,,,,,32*53
$GNGLL,0420.02252,S,05539.78044,E,051120.00,A,D*6C
$GNGRS,051120.00,1,7.2,0.3,-0.9,5.2,-0.4,0.1,0.9,2.4,152,,,*63
$GNGRS,051120.00,1,4.2,-2.6,0.0,4.0,0.6,-15.1,,,,,,*62
$GNGST,051120.00,4205788,,,,5.2,4.3,8.9*7B
$GNZDA,051120.00,23,05,2025,00,00*7E
$GNGBS,051120.00,5.2,4.3,8.9,,,,*59
$GNTXT,01,01,01,More than 100 frame errors, UART RX was disabled*70
b0X>q,'#t|*9&z;R
3
{4'V^#:RP; 
Y$
gAG$tHJ$K J2CLXVTW!X brGk$GNRMC,051121.00,A,0420.02251,S,05539.78042,E,0.181,,230525,,,D*7A
$GNVTG,,T,,M,0.181,N,0.334,K,D*34
$GNGNS,051121.00,0420.02251,S,05539.78042,E,DA,14,0.74,14.1,-47.6,,0000*6D
$GNGGA,051121.00,0420.02251,S,05539.78042,E,2,12,0.74,14.1,M,-47.6,M,,0000*47
$GNGSA,A,3,24,20,05,13,15,22,18,23,41,,,,1.32,0.74,1.10*15
$GNGSA,A,3,86,75,87,71,72,,,,,,,,1.32,0.74,1.10*1F
$GPGSV,5,1,17,05,62,113,27,11,16,022,23,12,39,006,,13,18,149,35*74
$GPGSV,5,2,17,15,28,184,30,18,27,238,20,20,42,057,24,22,14,122,38*70
$GPGSV,5,3,17,23,07,210,26,24,59,226,24,25,16,338,,29,10,307,*74
$GPGSV,5,4,17,36,52,277,,40,86,350,39,41,58,082,35,49,32,274,*71
$GPGSV,5,5,17,50,10,089,*4A
$GLGSV,3,1,10,65,00,216,,71,16,116,36,72,19,167,23,74,36,142,06*69
$GLGSV,3,2,10,75,74,050,32,76,23,344,,86,27,340,17,87,33,286,08*62
$GLGSV,3,3,10,88,05,232,,,,,32*53
$GNGLL,0420.02251,S,05539.78042,E,051121.00,A,D*68
$GNGRS,051121.00,1,6.4,1.3,-2.1,5.1,-1.4,0.0,-1.3,2.1,152,,,*4E
$GNGRS,051121.00,1,4.5,0.7,4.1,-0.2,-16.1,,,,,,,*4F
$GNGST,051121.00,3071473,,,,5.2,4.2,8.8*7B
$GNZDA,051121.00,23,05,2025,00,00*7F
$GNGBS,051121.00,5.2,4.2,8.8,,,,*58
$GNTXT,01,01,01,More than 100 frame errors, UART RX was disabled*70
b0X">q'"z*9'z8;BR
3{4'V^#:R1; 
Y&
gAG%tHJ
$f8K J2DLXVTW!]Xzb"rsGv$GNRMC,051122.00,A,0420.02246,S,05539.78036,E,0.141,,230525,,,D*70
$GNVTG,,T,,M,0.141,N,0.262,K,D*3A
$GNGNS,051122.00,0420.02246,S,05539.78036,E,DA,15,0.74,14.0,-47.6,,0000*6B
$GNGGA,051122.00,0420.02246,S,05539.78036,E,2,12,0.74,14.0,M,-47.6,M,,0000*40
$GNGSA,A,3,24,20,05,13,15,22,18,23,41,,,,1.32,0.74,1.10*15
$GNGSA,A,3,86,74,75,87,71,72,,,,,,,1.32,0.74,1.10*1C
$GPGSV,5,1,17,05,62,113,27,11,16,022,23,12,39,006,19,13,18,149,34*7D
$GPGSV,5,2,17,15,28,184,30,18,27,238,20,20,42,057,23,22,14,122,39*76
$GPGSV,5,3,17,23,07,210,26,24,59,226,24,25,16,338,,29,10,307,*74
$GPGSV,5,4,17,36,52,277,,40,86,350,39,41,58,082,35,49,32,274,*71
$GPGSV,5,5,17,50,10,089,*4A
$GLGSV,3,1,10,65,00,216,,71,16,116,37,72,19,167,23,74,36,142,10*6F
$GLGSV,3,2,10,75,74,050,32,76,23,344,,86,27,340,17,87,33,286,09*63
$GLGSV,3,3,10,88,05,232,,,,,31*50
$GNGLL,0420.02246,S,05539.78036,E,051122.00,A,D*6E
$GNGRS,051122.00,1,5.8,1.6,-1.3,4.9,-0.7,0.2,-1.3,3.1,152,,,*4E
$GNGRS,051122.00,1,7.0,144,0.7,0.9,-0.4,-16.2,,,,,,*72
$GNGST,051122.00,1059,,,,5.1,4.2,8.6*4D
$GNZDA,051122.00,23,05,2025,00,00*7C
$GNGBS,051122.00,5.1,4.2,8.6,,,,*56
$GNTXT,01,01,01,More than 100 frame errors, UART RX was disabled*70
b0X&>q'z#k*9g&z|;R
3
{4(V^#:R; 
Y&
gAG%tHJ
$K J2PLXVTpW
!X fb&r[GN;$GNRMC,051123.00,A,0420.02247,S,05539.78034,E,0.095,,230525,,,D*7A
$GNVTG,,T,,M,0.095,N,0.176,K,D*34
$GNGNS,051123.00,0420.02247,S,05539.78034,E,DA,15,0.72,14.0,-47.6,,0000*6F
$GNGGA,051123.00,0420.02247,S,05539.78034,E,2,12,0.72,14.0,M,-47.6,M,,0000*44
$GNGSA,A,3,24,20,05,13,15,22,18,23,41,,,,1.29,0.72,1.07*1F
$GNGSA,A,3,86,74,75,87,71,72,,,,,,,1.29,0.72,1.07*16
$GPGSV,5,1,17,05,62,113,27,11,16,022,22,12,39,006,19,13,18,149,35*7D
$GPGSV,5,2,17,15,28,184,30,18,27,238,20,20,42,057,23,22,14,122,38*77
$GPGSV,5,3,17,23,07,210,26,24,59,226,24,25,16,338,,29,10,307,*74
$GPGSV,5,4,17,36,52,277,,40,86,350,40,41,58,082,35,49,32,274,*7F
$GPGSV,5,5,17,50,10,089,*4A
$GLGSV,3,1,10,65,00,216,,71,16,116,37,72,19,167,23,74,36,142,10*6F
$GLGSV,3,2,10,75,74,050,32,76,23,344,,86,27,340,17,87,33,286,10*6B
$GLGSV,3,3,10,88,05,232,,,,,32*53
$GNGLL,0420.02247,S,05539.78034,E,051123.00,A,D*6C
$GNGRS,051123.00,1,6.6,1.0,-1.1,4.7,-4.0,-0.2,-2.5,3.8,151,,,*69
$GNGRS,051123.00,1,6.2,-2.6,0.8,3.9,-0.4,-15.6,,,,,,*4D
$GNGST,051123.00,30146,,,,5.1,4.1,8.5*71
$GNZDA,051123.00,23,05,2025,00,00*7D
$GNGBS,051123.00,5.1,4.1,8.5,,,,*57
$GNTXT,01,01,01,More than 100 frame errors, UART RX was disabled*70
b0X*>q'"c*9&z;7R
3
{4(V^#:R; 
Y&
gAG%tHJ$K J2&LXVTW!tX!jb*rCG&$GNRMC,051124.00,A,0420.02244,S,05539.78027,E,0.093,,230525,,,D*7A
$GNVTG,,T,,M,0.093,N,0.173,K,D*37
$GNGNS,051124.00,0420.02244,S,05539.78027,E,DA,14,0.74,13.9,-47.6,,0000*60
$GNGGA,051124.00,0420.02244,S,05539.78027,E,2,12,0.74,13.9,M,-47.6,M,,0000*4A
$GNGSA,A,3,24,20,05,13,15,22,18,23,41,,,,1.32,0.74,1.10*15
$GNGSA,A,3,86,75,87,71,72,,,,,,,,1.32,0.74,1.10*1F
$GPGSV,5,1,17,05,62,113,27,11,16,022,22,12,39,006,17,13,18,149,34*72
$GPGSV,5,2,17,15,28,184,30,18,27,238,21,20,42,057,23,22,14,122,38*76
$GPGSV,5,3,17,23,07,210,25,24,59,226,24,25,16,338,,29,10,307,*77
$GPGSV,5,4,17,36,52,277,,40,86,350,40,41,58,082,35,49,32,274,*7F
$GPGSV,5,5,17,50,10,089,*4A
$GLGSV,3,1,10,65,00,216,,71,16,116,37,72,19,167,24,74,36,142,06*6F
$GLGSV,3,2,10,75,74,050,32,76,23,344,,86,27,340,17,87,33,286,13*68
$GLGSV,3,3,10,88,05,232,,,,,33*52
$GNGLL,0420.02244,S,05539.78027,E,051124.00,A,D*6A
$GNGRS,051124.00,1,5.7,-1.2,-3.1,5.0,-3.0,-0.4,-4.1,4.8,151,,,*43
$GNGRS,051124.00,1,5.2,0.4,3.7,-0.5,-16.4,,,,,,,*4C
$GNGST,051124.00,46456,,,,5.1,4.1,8.4*72
$GNZDA,051124.00,23,05,2025,00,00*7A
$GNGBS,051124.00,5.1,4.1,8.4,,,,*51
$GNTXT,01,01,01,More than 100 frame errors, UART RX was disabled*70
b0X.>qP'!C*9'z";R
3
{4(V^#:R; 
Y&
gAG&tHJ$rK J2 LXVT]W!X!b.r+G$GNRMC,051125.00,A,0420.02241,S,05539.78024,E,0.077,,230525,,,D*77
$GNVTG,,T,,M,0.077,N,0.143,K,D*3E
$GNGNS,051125.00,0420.02241,S,05539.78024,E,DA,15,0.78,13.8,-47.6,,0000*6B
$GNGGA,051125.00,0420.02241,S,05539.78024,E,2,12,0.78,13.8,M,-47.6,M,,0000*40
$GNGSA,A,3,24,20,05,13,15,22,18,23,41,,,,1.34,0.78,1.09*17
$GNGSA,A,3,86,74,75,87,71,72,,,,,,,1.34,0.78,1.09*1E
$GPGSV,5,1,17,05,62,113,27,11,16,022,22,12,39,006,,13,18,149,33*73
$GPGSV,5,2,17,15,28,184,31,18,27,238,20,20,42,057,24,22,14,122,39*70
$GPGSV,5,3,17,23,07,210,25,24,59,226,24,25,16,338,,29,10,307,*77
$GPGSV,5,4,17,36,52,277,,40,86,350,40,41,58,082,35,49,32,274,*7F
$GPGSV,5,5,17,50,10,089,*4A
$GLGSV,3,1,10,65,00,216,,71,16,116,38,72,19,167,25,74,36,142,11*67
$GLGSV,3,2,10,75,74,050,32,76,23,344,,86,27,340,16,87,33,286,09*62
$GLGSV,3,3,10,88,05,232,,,,,33*52
$GNGLL,0420.02241,S,05539.78024,E,051125.00,A,D*6D
$GNGRS,051125.00,1,5.1,-3.0,-1.8,5.0,-2.4,-0.3,-7.0,5.5,151,,,*43
$GNGRS,051125.00,1,3.5,-16.8,0.3,-57.4,-0.6,-16.7,,,,,,*68
$GNGST,051125.00,1059,,,,5.0,4.1,8.3*4D
$GNZDA,051125.00,23,05,2025,00,00*7B
$GNGBS,051125.00,5.0,4.1,8.3,,,,*56
$GNTXT,01,01,01,More than 100 frame errors, UART RX was disabled*70
b0X2>q'#F*9%z;R
3
{4(V^#:R; 
Y%
gAG#tHJ$K J20LXVT"W
!X!b2rGs$GNRMC,051126.00,A,0420.02246,S,05539.78024,E,0.048,,230525,,,D*7F
$GNVTG,,T,,M,0.048,N,0.090,K,D*3D
$GNGNS,051126.00,0420.02246,S,05539.78024,E,DA,15,0.72,13.9,-47.6,,0000*64
$GNGGA,051126.00,0420.02246,S,05539.78024,E,2,12,0.72,13.9,M,-47.6,M,,0000*4F
$GNGSA,A,3,24,20,05,13,15,22,18,23,41,,,,1.29,0.72,1.07*1F
$GNGSA,A,3,86,74,75,87,71,72,,,,,,,1.29,0.72,1.07*16
$GPGSV,5,1,17,05,62,113,27,11,16,022,23,12,39,006,17,13,18,149,35*72
$GPGSV,5,2,17,15,28,184,30,18,27,238,20,20,42,057,24,22,14,122,37*7F
$GPGSV,5,3,17,23,07,210,24,24,59,226,25,25,16,338,,29,10,307,*77
$GPGSV,5,4,17,36,52,277,,40,86,350,40,41,58,082,35,49,32,274,*7F
$GPGSV,5,5,17,50,10,089,*4A
$GLGSV,3,1,10,65,00,216,,71,16,116,35,72,19,167,25,74,36,142,13*68
$GLGSV,3,2,10,75,74,050,32,76,23,344,,86,27,340,16,87,33,286,10*6A
$GLGSV,3,3,10,88,05,232,,,,,33*52
$GNGLL,0420.02246,S,05539.78024,E,051126.00,A,D*69
$GNGRS,051126.00,1,5.2,-3.7,-0.2,4.7,-0.2,-0.2,-7.0,5.4,151,,,*4D
$GNGRS,051126.00,1,2.9,-2.8,0.5,4.1,-0.8,-15.6,,,,,,*47
$GNGST,051126.00,2977717,,,,5.0,4.1,8.2*78
$GNZDA,051126.00,23,05,2025,00,00*78
$GNGBS,051126.00,5.0,4.1,8.2,,,,*54
$GNTXT,01,01,01,More than 100 frame errors, UART RX was disabled*70
b0Xh6>q'$_*9'z;zR
3
{4(V^#:R; 
Y$
gAG&tHJ$K J2LXVTW!X"bh6rG$GNRMC,051127.00,A,0420.02256,S,05539.78025,E,0.103,,230525,,,D*70
$GNVTG,,T,,M,0.103,N,0.190,K,D*32
$GNGNS,051127.00,0420.02256,S,05539.78025,E,DA,15,0.72,14.1,-47.6,,0000*6A
$GNGGA,051127.00,0420.02256,S,05539.78025,E,2,12,0.72,14.1,M,-47.6,M,,0000*41
$GNGSA,A,3,24,20,05,13,15,22,18,23,41,,,,1.29,0.72,1.07*1F
$GNGSA,A,3,86,74,75,87,71,72,,,,,,,1.29,0.72,1.07*16
$GPGSV,5,1,17,05,62,113,27,11,16,022,23,12,39,006,,13,18,149,36*77
$GPGSV,5,2,17,15,28,184,29,18,27,238,20,20,42,057,24,22,14,122,39*79
$GPGSV,5,3,17,23,07,210,25,24,59,226,26,25,16,338,,29,10,307,*75
$GPGSV,5,4,17,36,52,277,,40,86,350,40,41,58,082,35,49,32,274,*7F
$GPGSV,5,5,17,50,10,089,*4A
$GLGSV,3,1,10,65,00,216,,71,16,116,38,72,19,167,24,74,36,142,09*6F
$GLGSV,3,2,10,75,74,050,32,76,23,344,,86,27,340,15,87,33,287,14*6C
$GLGSV,3,3,10,88,05,232,,,,,34*55
$GNGLL,0420.02256,S,05539.78025,E,051127.00,A,D*68
$GNGRS,051127.00,1,3.8,-0.7,0.3,4.3,-1.6,0.0,-8.8,5.3,151,,,*41
$GNGRS,051127.00,1,2.4,-2.9,0.2,4.2,-0.7,-15.2,,,,,,*45
$GNGST,051127.00,4205788,,,,5.0,4.1,8.2*77
$GNZDA,051127.00,23,05,2025,00,00*79
$GNGBS,051127.00,5.0,4.1,8.2,,,,*55
$GNTXT,01,01,01,More than 100 frame errors, UART RX was disabled*70
b0XP:>q''$*9&z+;yR
3
{4(V^#:R; 
Y"
gAG#tHJ$K J2LXVTW!X"bP:rG@$GNRMC,051128.00,A,0420.02264,S,05539.78025,E,0.163,,230525,,,D*78
$GNVTG,,T,,M,0.163,N,0.301,K,D*3E
$GNGNS,051128.00,0420.02264,S,05539.78025,E,DA,15,0.72,14.2,-47.6,,0000*67
$GNGGA,051128.00,0420.02264,S,05539.78025,E,2,12,0.72,14.2,M,-47.6,M,,0000*4C
$GNGSA,A,3,24,20,05,13,15,22,18,23,41,,,,1.29,0.72,1.07*1F
$GNGSA,A,3,86,74,75,87,71,72,,,,,,,1.29,0.72,1.07*16
$GPGSV,5,1,17,05,62,113,28,11,16,022,23,12,39,006,,13,18,149,36*78
$GPGSV,5,2,17,15,28,184,30,18,27,238,20,20,42,057,24,22,14,122,38*70
$GPGSV,5,3,17,23,07,210,24,24,59,226,26,25,16,338,,29,10,307,*74
$GPGSV,5,4,17,36,52,277,,40,86,350,40,41,58,082,35,49,32,274,*7F
$GPGSV,5,5,17,50,10,089,*4A
$GLGSV,3,1,10,65,00,216,,71,16,116,35,72,19,167,23,74,36,142,12*6F
$GLGSV,3,2,10,75,74,050,32,76,23,344,,86,27,340,15,87,33,287,13*6B
$GLGSV,3,3,10,88,05,233,,,,,34*54
$GNGLL,0420.02264,S,05539.78025,E,051128.00,A,D*66
$GNGRS,051128.00,1,3.8,-2.4,3.0,4.1,-5.4,-0.1,-7.5,5.5,151,,,*63
$GNGRS,051128.00,1,2.3,7.3,1.4,9.7,-0.7,-15.8,,,,,,*6A
$GNGST,051128.00,1026,,,,5.0,4.1,8.1*4A
$GNZDA,051128.00,23,05,2025,00,00*76
$GNGBS,051128.00,5.0,4.1,8.1,,,,*59
$GNTXT,01,01,01,More than 100 frame errors, UART RX was disabled*70
b0X8>>q5'#y'*9%za;R
3
{4(V^#:R; 
Y#
gAG$tH5J$KJ2DLXVTW
!X!b8>rG]$GNRMC,051129.00,A,0420.02268,S,05539.78029,E,0.037,,230525,,,D*79
$GNVTG,,T,,M,0.037,N,0.068,K,D*32
$GNGNS,051129.00,0420.02268,S,05539.78029,E,DA,15,0.72,14.3,-47.6,,0000*67
$GNGGA,051129.00,0420.02268,S,05539.78029,E,2,12,0.72,14.3,M,-47.6,M,,0000*4C
$GNGSA,A,3,24,20,05,13,15,22,18,23,41,,,,1.29,0.72,1.07*1F
$GNGSA,A,3,86,74,75,87,71,72,,,,,,,1.29,0.72,1.07*16
$GPGSV,5,1,17,05,62,113,28,11,16,022,23,12,39,006,,13,18,149,35*7B
$GPGSV,5,2,17,15,28,184,30,18,27,238,20,20,42,057,24,22,14,122,37*7F
$GPGSV,5,3,17,23,07,210,23,24,59,226,26,25,16,338,,29,10,307,*73
$GPGSV,5,4,17,36,52,277,,40,86,350,40,41,58,082,35,49,32,274,*7F
$GPGSV,5,5,17,50,10,089,*4A
$GLGSV,3,1,10,65,00,216,,71,16,116,36,72,19,167,25,74,36,142,12*6A
$GLGSV,3,2,10,75,74,050,31,76,23,344,,86,27,340,14,87,33,287,10*6A
$GLGSV,3,3,10,88,05,233,,,,,33*53
$GNGLL,0420.02268,S,05539.78029,E,051129.00,A,D*67
$GNGRS,051129.00,1,1.9,-2.2,0.5,3.8,-5.7,0.1,-9.8,6.1,151,,,*45
$GNGRS,051129.00,1,2.2,-2.7,0.7,4.1,-0.8,-17.4,,,,,,*4E
$GNGST,051129.00,115337,,,,5.0,4.2,8.1*4F
$GNZDA,051129.00,23,05,2025,00,00*77
$GNGBS,051129.00,5.0,4.2,8.1,,,,*5B
$GNTXT,01,01,01,More than 100 frame errors, UART RX was disabled*70
b0X B>q'#ur*92'z:;R
3
{4(V^#:R; 
Y#
gAG'tHJ$KJ2LXVTW!X" b BrG5$GNRMC,051130.00,A,0420.02273,S,05539.78035,E,0.117,,230525,,,D*75
$GNVTG,,T,,M,0.117,N,0.216,K,D*3A
$GNGNS,051130.00,0420.02273,S,05539.78035,E,DA,15,0.72,14.5,-47.6,,0000*6E
$GNGGA,051130.00,0420.02273,S,05539.78035,E,2,12,0.72,14.5,M,-47.6,M,,0000*45
$GNGSA,A,3,24,20,05,13,15,22,18,23,41,,,,1.29,0.72,1.07*1F
$GNGSA,A,3,86,74,75,87,71,72,,,,,,,1.29,0.72,1.07*16
$GPGSV,5,1,17,05,62,113,28,11,16,022,23,12,39,006,,13,18,149,35*7B
$GPGSV,5,2,17,15,28,184,30,18,27,238,20,20,42,057,24,22,14,122,39*71
$GPGSV,5,3,17,23,07,210,23,24,59,226,25,25,16,338,,29,10,307,*70
$GPGSV,5,4,17,36,52,277,,40,86,350,40,41,58,082,35,49,32,274,*7F
$GPGSV,5,5,17,50,10,089,*4A
$GLGSV,3,1,10,65,00,216,,71,16,116,39,72,19,167,24,74,36,142,16*60
$GLGSV,3,2,10,75,74,050,31,76,23,344,,86,27,340,13,87,33,287,11*6C
$GLGSV,3,3,10,88,05,233,,,,,34*54
$GNGLL,0420.02273,S,05539.78035,E,051130.00,A,D*68
$GNGRS,051130.00,1,-0.7,0.5,-0.3,3.7,-0.8,0.0,-9.1,5.7,151,,,*64
$GNGRS,051130.00,1,2.0,-2.7,0.3,4.3,-0.7,-18.2,,,,,,*44
$GNGST,051130.00,175657,,,,5.0,4.2,8.1*42
$GNZDA,051130.00,23,05,2025,00,00*7F
$GNGBS,051130.00,5.0,4.2,8.1,,,,*53
$GNTXT,01,01,01,More than 100 frame errors, UART RX was disabled*70
b0XF>q'P$eP*9'z;&R
3
{4'V^#:R(; 
Y"
gAG%tHJ$KJ2LXVTW!X"@,bFrGx$GNRMC,051131.00,A,0420.02285,S,05539.78044,E,0.166,,230525,,,D*7D
$GNVTG,,T,,M,0.166,N,0.308,K,D*32
$GNGNS,051131.00,0420.02285,S,05539.78044,E,DA,15,0.72,14.8,-47.6,,0000*6D
$GNGGA,051131.00,0420.02285,S,05539.78044,E,2,12,0.72,14.8,M,-47.6,M,,0000*46
$GNGSA,A,3,24,20,05,13,15,22,18,23,41,,,,1.29,0.72,1.07*1F
$GNGSA,A,3,86,74,75,87,71,72,,,,,,,1.29,0.72,1.07*16
$GPGSV,5,1,17,05,62,113,27,11,16,022,23,12,39,006,17,13,18,149,36*71
$GPGSV,5,2,17,15,28,184,29,18,27,238,19,20,42,057,23,22,14,122,39*74
$GPGSV,5,3,17,23,07,210,24,24,59,226,26,25,16,338,,29,10,307,*74
$GPGSV,5,4,17,36,52,277,,40,86,350,39,41,58,082,35,49,32,274,*71
$GPGSV,5,5,17,50,10,089,*4A
$GLGSV,3,1,10,65,00,216,,71,16,116,37,72,19,167,24,74,36,142,12*6A
$GLGSV,3,2,10,75,74,050,31,76,23,344,,86,27,340,11,87,33,287,09*67
$GLGSV,3,3,10,88,05,233,,,,,34*54
$GNGLL,0420.02285,S,05539.78044,E,051131.00,A,D*66
$GNGRS,051131.00,1,0.4,0.3,1.8,3.6,-1.8,0.0,-10.6,6.5,151,,,*54
$GNGRS,051131.00,1,-1.2,-0.8,1.8,5.4,-1.0,-16.2,,,,,,*60
$GNGST,051131.00,1026,,,,5.0,4.2,8.1*41
$GNZDA,051131.00,23,05,2025,00,00*7E
$GNGBS,051131.00,5.0,4.2,8.1,,,,*52
$GNTXT,01,01,01,More than 100 frame errors, UART RX was disabled*70
b0XI>q'#R*9)z';R
3
{4(V^#:R'; 
Y"
gAG%tHJ$KJ20LXVTW!}X"+bIrG$GNRMC,051132.00,A,0420.02284,S,05539.78044,E,0.098,,230525,,,D*7F
$GNVTG,,T,,M,0.098,N,0.182,K,D*32
$GNGNS,051132.00,0420.02284,S,05539.78044,E,DA,15,0.72,14.7,-47.6,,0000*60
$GNGGA,051132.00,0420.02284,S,05539.78044,E,2,12,0.72,14.7,M,-47.6,M,,0000*4B
$GNGSA,A,3,24,20,05,13,15,22,18,23,41,,,,1.29,0.72,1.07*1F
$GNGSA,A,3,86,74,75,87,71,72,,,,,,,1.29,0.72,1.07*16
$GPGSV,5,1,17,05,62,113,27,11,16,022,23,12,39,006,,13,18,149,35*74
$GPGSV,5,2,17,15,28,184,30,18,27,238,19,20,42,057,23,22,14,122,41*73
$GPGSV,5,3,17,23,07,210,23,24,59,226,26,25,16,338,,29,10,307,*73
$GPGSV,5,4,17,36,52,277,,40,86,350,40,41,58,082,35,49,32,274,*7F
$GPGSV,5,5,17,50,10,089,*4A
$GLGSV,3,1,10,65,00,216,,71,16,116,37,72,19,167,23,74,36,142,14*6B
$GLGSV,3,2,10,75,74,050,31,76,23,344,,86,27,340,12,87,33,287,09*64
$GLGSV,3,3,10,88,05,233,,,,,34*54
$GNGLL,0420.02284,S,05539.78044,E,051132.00,A,D*64
$GNGRS,051132.00,1,1.9,-0.6,-0.9,3.4,-2.5,0.0,-11.3,5.5,151,,,*55
$GNGRS,051132.00,1,-1.0,-2.7,-2.1,3.8,-0.9,-15.9,,,,,,*41
$GNGST,051132.00,22855,,,,5.0,4.2,8.1*7F
$GNZDA,051132.00,23,05,2025,00,00*7D
$GNGBS,051132.00,5.0,4.2,8.1,,,,*51
$GNTXT,01,01,01,More than 100 frame errors, UART RX was disabled*70
b0XM>p'$Y#*9'zW;R
3
{4'V^#:R; 
Y"
gAG%tHJ$KJ2hLXVTW
!hX"bMrkG9$GNRMC,051133.00,A,0420.02286,S,05539.78043,E,0.081,,230525,,,D*73
$GNVTG,,T,,M,0.081,N,0.150,K,D*35
$GNGNS,051133.00,0420.02286,S,05539.78043,E,DA,15,0.72,14.8,-47.6,,0000*6B
$GNGGA,051133.00,0420.02286,S,05539.78043,E,2,12,0.72,14.8,M,-47.6,M,,0000*40
$GNGSA,A,3,24,20,05,13,15,22,18,23,41,,,,1.29,0.72,1.07*1F
$GNGSA,A,3,86,74,75,87,71,72,,,,,,,1.29,0.72,1.07*16
$GPGSV,5,1,17,05,62,112,27,11,16,022,23,12,39,006,,13,18,149,36*76
$GPGSV,5,2,17,15,28,184,30,18,27,238,19,20,42,057,23,22,14,122,39*7C
$GPGSV,5,3,17,23,07,210,24,24,59,226,26,25,16,338,,29,10,307,*74
$GPGSV,5,4,17,36,52,277,,40,86,350,39,41,58,082,35,49,32,274,*71
$GPGSV,5,5,17,50,10,089,*4A
$GLGSV,3,1,10,65,00,216,,71,16,116,37,72,19,167,23,74,36,142,13*6C
$GLGSV,3,2,10,75,74,050,31,76,23,344,,86,27,340,12,87,33,287,10*6C
$GLGSV,3,3,10,88,05,233,,,,,34*54
$GNGLL,0420.02286,S,05539.78043,E,051133.00,A,D*60
$GNGRS,051133.00,1,3.9,2.0,-2.7,3.5,-2.8,0.1,-9.9,6.0,151,,,*4B
$GNGRS,051133.00,1,-0.7,-2.8,1.0,3.6,-1.2,-15.9,,,,,,*62
$GNGST,051133.00,34263,,,,5.0,4.3,8.1*77
$GNZDA,051133.00,23,05,2025,00,00*7C
$GNGBS,051133.00,5.0,4.3,8.1,,,,*51
$GNTXT,01,01,01,More than 100 frame errors, UART RX was disabled*70
b0XQ>pm'$m *9`&z;R
3
{4'V^#:R+; 
Y!
gAG'txHJ$KJ2LXVTW!X"bQrSG$GNRMC,051134.00,A,0420.02295,S,05539.78044,E,0.104,,230525,,,D*7D
$GNVTG,,T,,M,0.104,N,0.193,K,D*36
$GNGNS,051134.00,0420.02295,S,05539.78044,E,DA,15,0.72,14.9,-47.6,,0000*68
$GNGGA,051134.00,0420.02295,S,05539.78044,E,2,12,0.72,14.9,M,-47.6,M,,0000*43
$GNGSA,A,3,24,20,05,13,15,22,18,23,41,,,,1.29,0.72,1.07*1F
$GNGSA,A,3,86,74,75,87,71,72,,,,,,,1.29,0.72,1.07*16
$GPGSV,5,1,17,05,62,112,27,11,16,022,23,12,39,006,,13,18,149,36*76
$GPGSV,5,2,17,15,28,184,30,18,27,238,19,20,42,057,23,22,14,122,38*7D
$GPGSV,5,3,17,23,07,210,24,24,59,226,26,25,16,338,,29,10,307,*74
$GPGSV,5,4,17,36,52,277,,40,86,350,39,41,58,082,35,49,32,274,*71
$GPGSV,5,5,17,50,10,089,*4A
$GLGSV,3,1,10,65,00,216,,71,16,116,39,72,19,167,23,74,36,142,12*63
$GLGSV,3,2,10,75,74,050,31,76,23,344,,86,27,340,14,87,33,287,12*68
$GLGSV,3,3,10,88,05,233,,,,,34*54
$GNGLL,0420.02295,S,05539.78044,E,051134.00,A,D*62
$GNGRS,051134.00,1,4.0,1.0,-4.0,3.6,-0.2,0.0,-9.9,6.5,151,,,*4F
$GNGRS,051134.00,1,-1.2,-5.6,-0.7,-18.0,-1.4,-15.8,,,,,,*55
$GNGST,051134.00,1026,,,,5.0,4.3,8.1*45
$GNZDA,051134.00,23,05,2025,00,00*7B
$GNGBS,051134.00,5.0,4.3,8.1,,,,*56
$GNTXT,01,01,01,More than 100 frame errors, UART RX was disabled*70
b0XU>p'#jyR*9&z;WR
3
{4'V^#:R4; 
Y 
gAG&tsHJ$KJ2LXVTW
!X!dbUr;Gl$GNRMC,051135.00,A,0420.02305,S,05539.78048,E,0.195,,230525,,,D*70
$GNVTG,,T,,M,0.195,N,0.360,K,D*30
$GNGNS,051135.00,0420.02305,S,05539.78048,E,DA,15,0.72,15.1,-47.6,,0000*64
$GNGGA,051135.00,0420.02305,S,05539.78048,E,2,12,0.72,15.1,M,-47.6,M,,0000*4F
$GNGSA,A,3,24,20,05,13,15,22,18,23,41,,,,1.29,0.72,1.07*1F
$GNGSA,A,3,86,74,75,87,71,72,,,,,,,1.29,0.72,1.07*16
$GPGSV,5,1,17,05,62,112,27,11,16,022,23,12,39,006,,13,18,149,35*75
$GPGSV,5,2,17,15,28,184,30,18,27,238,19,20,42,057,23,22,14,122,38*7D
$GPGSV,5,3,17,23,07,210,24,24,59,226,26,25,16,338,,29,10,307,*74
$GPGSV,5,4,17,36,52,277,,40,86,350,39,41,58,082,35,49,32,274,*71
$GPGSV,5,5,17,50,10,089,*4A
$GLGSV,3,1,10,65,00,216,,71,16,116,38,72,19,167,23,74,36,142,09*68
$GLGSV,3,2,10,75,74,050,31,76,23,344,,86,27,340,14,87,33,287,10*6A
$GLGSV,3,3,10,88,05,233,,,,,33*53
$GNGLL,0420.02305,S,05539.78048,E,051135.00,A,D*67
$GNGRS,051135.00,1,3.4,-1.0,-5.1,3.6,1.2,-0.1,-9.4,6.6,152,,,*6D
$GNGRS,051135.00,1,-2.7,-2.8,4.4,4.0,-1.4,-15.8,,,,,,*61
$GNGST,051135.00,2974064,,,,5.0,4.3,8.1*7B
$GNZDA,051135.00,23,05,2025,00,00*7A
$GNGBS,051135.00,5.0,4.3,8.1,,,,*57
$GNTXT,01,01,01,More than 100 frame errors, UART RX was disabled*70
b0XY>p'$gm*9J&z;0R
3
{4(V^#:R*; 
Y
gAG#t{HJ$KJ2LXVTRW!X!EbYr#GDq$GNRMC,051136.00,A,0420.02306,S,05539.78047,E,0.150,,230525,,,D*76
$GNVTG,,T,,M,0.150,N,0.278,K,D*31
$GNGNS,051136.00,0420.02306,S,05539.78047,E,DA,15,0.72,15.1,-47.6,,0000*6B
$GNGGA,051136.00,0420.02306,S,05539.78047,E,2,12,0.72,15.1,M,-47.6,M,,0000*40
$GNGSA,A,3,24,20,05,13,15,22,18,23,41,,,,1.29,0.72,1.07*1F
$GNGSA,A,3,86,74,75,87,71,72,,,,,,,1.29,0.72,1.07*16
$GPGSV,5,1,17,05,62,112,27,11,16,022,24,12,39,006,,13,18,149,36*71
$GPGSV,5,2,17,15,28,184,30,18,27,238,19,20,42,057,23,22,14,122,38*7D
$GPGSV,5,3,17,23,07,210,25,24,59,226,26,25,16,338,,29,10,307,*75
$GPGSV,5,4,17,36,52,277,,40,86,350,40,41,58,082,35,49,32,274,*7F
$GPGSV,5,5,17,50,10,089,*4A
$GLGSV,3,1,10,65,00,216,,71,16,116,35,72,19,167,23,74,36,142,14*69
$GLGSV,3,2,10,75,74,050,31,76,23,344,,86,27,340,13,87,33,287,11*6C
$GLGSV,3,3,10,88,05,233,,,,,33*53
$GNGLL,0420.02306,S,05539.78047,E,051136.00,A,D*68
$GNGRS,051136.00,1,3.0,0.7,-5.8,3.6,-0.8,0.0,-9.1,6.5,151,,,*47
$GNGRS,051136.00,1,-1.7,-3.0,5.0,3.9,-1.3,-15.8,,,,,,*64
$GNGST,051136.00,2974217,,,,5.1,4.3,8.1*7F
$GNZDA,051136.00,23,05,2025,00,00*79
$GNGBS,051136.00,5.1,4.3,8.1,,,,*55
$GNTXT,01,01,01,More than 100 frame errors, UART RX was disabled*70
b0Xx]>p'!pX*9)&z;R
3
{4(V^#:R; 
Y#
gIAG%tiHJ$KJ22LXV
TW!X!jbx]rG$GNRMC,051137.00,A,0420.02305,S,05539.78047,E,0.199,,230525,,,D*71
$GNVTG,,T,,M,0.199,N,0.368,K,D*34
$GNGNS,051137.00,0420.02305,S,05539.78047,E,DA,15,0.80,15.1,-47.6,,0000*64
$GNGGA,051137.00,0420.02305,S,05539.78047,E,2,12,0.80,15.1,M,-47.6,M,,0000*4F
$GNGSA,A,3,24,20,05,13,15,22,18,23,41,,,,1.37,0.80,1.11*1A
$GNGSA,A,3,86,74,75,87,71,72,,,,,,,1.37,0.80,1.11*13
$GPGSV,5,1,17,05,62,112,27,11,16,022,23,12,39,006,,13,18,149,33*73
$GPGSV,5,2,17,15,28,184,30,18,27,238,19,20,42,057,22,22,14,122,38*7C
$GPGSV,5,3,17,23,07,210,24,24,59,226,26,25,16,338,,29,10,307,*74
$GPGSV,5,4,17,36,52,277,,40,86,350,40,41,58,082,35,49,32,274,*7F
$GPGSV,5,5,17,50,10,089,*4A
$GLGSV,3,1,10,65,00,216,,71,16,116,37,72,19,167,23,74,36,142,13*6C
$GLGSV,3,2,10,75,74,050,31,76,23,344,,86,27,340,10,87,33,287,12*6C
$GLGSV,3,3,10,88,05,233,,,,,33*53
$GNGLL,0420.02305,S,05539.78047,E,051137.00,A,D*6A
$GNGRS,051137.00,1,2.1,3.0,-5.8,3.7,2.0,0.0,-9.4,2.4,151,,,*64
$GNGRS,051137.00,1,-5.1,52.7,3.1,-38.3,-1.5,-16.0,,,,,,*6C
$GNGST,051137.00,1096,,,,5.1,4.4,8.1*4B
$GNZDA,051137.00,23,05,2025,00,00*78
$GNGBS,051137.00,5.1,4.4,8.1,,,,*53
$GNTXT,01,01,01,More than 100 frame errors, UART RX was disabled*70
b0X`a>p'$[m:*9b&z;]R
3
{4(V^#:R ; 
Y
gAG$tgHJ$KJ25LXVTW!X"b`arG>$GNRMC,051138.00,A,0420.02306,S,05539.78050,E,0.105,,230525,,,D*7E
$GNVTG,,T,,M,0.105,N,0.195,K,D*31
$GNGNS,051138.00,0420.02306,S,05539.78050,E,DA,13,1.15,15.0,-47.6,,0000*64
$GNGGA,051138.00,0420.02306,S,05539.78050,E,2,12,1.15,15.0,M,-47.6,M,,0000*49
$GNGSA,A,3,24,20,05,13,15,22,18,23,41,,,,1.77,1.15,1.35*15
$GNGSA,A,3,74,75,71,72,,,,,,,,,1.77,1.15,1.35*1D
$GPGSV,5,1,17,05,62,112,27,11,16,022,23,12,39,006,,13,18,149,36*76
$GPGSV,5,2,17,15,28,184,30,18,27,238,20,20,42,057,23,22,14,122,38*77
$GPGSV,5,3,17,23,07,210,24,24,59,226,27,25,16,338,,29,10,307,*75
$GPGSV,5,4,17,36,52,277,,40,86,350,40,41,58,082,35,49,32,274,*7F
$GPGSV,5,5,17,50,10,089,*4A
$GLGSV,3,1,10,65,00,216,,71,16,116,36,72,19,167,23,74,36,142,13*6D
$GLGSV,3,2,10,75,74,050,31,76,23,344,,86,27,340,09,87,33,287,06*61
$GLGSV,3,3,10,88,05,233,,,,,34*54
$GNGLL,0420.02306,S,05539.78050,E,051138.00,A,D*60
$GNGRS,051138.00,1,0.9,1.0,-5.9,3.5,-1.5,-0.2,-9.7,2.8,151,,,*6B
$GNGRS,051138.00,1,-2.6,0.5,-1.5,-16.1,,,,,,,,*40
$GNGST,051138.00,3179277,,,,5.1,4.4,8.2*77
$GNZDA,051138.00,23,05,2025,00,00*77
$GNGBS,051138.00,5.1,4.4,8.2,,,,*5F
$GNTXT,01,01,01,More than 100 frame errors, UART RX was disabled*70
b0XHe>pv'$-*9&z;:R
3
{4(V^#:R ; 
Y"
gAG$t}HJ$KJ2LXVTbW!~X!bHerG$GNRMC,051139.00,A,0420.02313,S,05539.78054,E,0.031,,230525,,,D*79
$GNVTG,,T,,M,0.031,N,0.057,K,D*38
$GNGNS,051139.00,0420.02313,S,05539.78054,E,DA,15,0.72,15.1,-47.6,,0000*62
$GNGGA,051139.00,0420.02313,S,05539.78054,E,2,12,0.72,15.1,M,-47.6,M,,0000*49
$GNGSA,A,3,24,20,05,13,15,22,18,23,41,,,,1.29,0.72,1.07*1F
$GNGSA,A,3,86,74,75,87,71,72,,,,,,,1.29,0.72,1.07*16
$GPGSV,5,1,17,05,62,112,27,11,15,022,23,12,39,006,,13,18,149,36*75
$GPGSV,5,2,17,15,28,184,30,18,27,238,19,20,42,057,23,22,14,122,38*7D
$GPGSV,5,3,17,23,07,210,24,24,59,226,26,25,16,338,,29,10,307,*74
$GPGSV,5,4,17,36,52,277,,40,86,350,40,41,58,082,35,49,32,274,*7F
$GPGSV,5,5,17,50,10,089,*4A
$GLGSV,3,1,10,65,00,216,,71,16,116,36,72,19,167,23,74,36,142,11*6F
$GLGSV,3,2,10,75,74,050,31,76,23,344,,86,27,340,08,87,33,287,09*6F
$GLGSV,3,3,10,88,05,233,,,,,33*53
$GNGLL,0420.02313,S,05539.78054,E,051139.00,A,D*61
$GNGRS,051139.00,1,0.6,-0.9,-6.5,3.0,-1.2,-0.5,-10.5,1.4,151,,,*7F
$GNGRS,051139.00,1,-4.1,-2.5,-0.9,3.8,-1.3,-16.4,,,,,,*43
$GNGST,051139.00,4205788,,,,5.1,4.4,8.2*7C
$GNZDA,051139.00,23,05,2025,00,00*76
$GNGBS,051139.00,5.1,4.4,8.2,,,,*5E
$GNTXT,01,01,01,More than 100 frame errors, UART RX was disabled*70
b0X0i>pd'$$*9%z;mR
3
{4(V^#:R; 
Y%
g&AG&tHJ$VKJ2vLXVTW!R,X"b0irG$GNRMC,051140.00,A,0420.02325,S,05539.78057,E,0.123,,230525,,,D*73
$GNVTG,,T,,M,0.123,N,0.228,K,D*30
$GNGNS,051140.00,0420.02325,S,05539.78057,E,DA,15,0.78,15.3,-47.6,,0000*62
$GNGGA,051140.00,0420.02325,S,05539.78057,E,2,12,0.78,15.3,M,-47.6,M,,0000*49
$GNGSA,A,3,24,20,05,13,15,22,18,23,41,,,,1.33,0.78,1.09*10
$GNGSA,A,3,86,74,75,87,71,72,,,,,,,1.33,0.78,1.09*19
$GPGSV,5,1,17,05,62,112,27,11,15,022,24,12,39,007,,13,18,149,36*73
$GPGSV,5,2,17,15,28,184,30,18,27,238,19,20,42,057,23,22,14,122,37*72
$GPGSV,5,3,17,23,07,210,23,24,59,226,27,25,16,338,,29,10,307,*72
$GPGSV,5,4,17,36,52,277,,40,86,350,40,41,58,082,35,49,32,274,*7F
$GPGSV,5,5,17,50,10,089,*4A
$GLGSV,3,1,10,65,00,216,,71,16,116,38,72,19,167,23,74,36,142,11*61
$GLGSV,3,2,10,75,74,050,31,76,23,344,,86,27,340,08,87,33,287,11*66
$GLGSV,3,3,10,88,05,233,,,,,34*54
$GNGLL,0420.02325,S,05539.78057,E,051140.00,A,D*69
$GNGRS,051140.00,1,1.1,-0.4,-6.7,2.9,1.3,-0.3,-11.0,2.2,151,,,*5B
$GNGRS,051140.00,1,-2.3,3.4,-1.4,113,-1.3,-15.5,,,,,,*7C
$GNGST,051140.00,1059,,,,5.1,4.4,8.2*4B
$GNZDA,051140.00,23,05,2025,00,00*78
$GNGBS,051140.00,5.1,4.4,8.2,,,,*50
$GNTXT,01,01,01,More than 100 frame errors, UART RX was disabled*70
b0Xm>pq'$Q*9%z;MR
3
{4(V^#:R; 
Y$
gFAG$t|H5J$KJ2LXVTW!X"ibmrG{v$GNRMC,051141.00,A,0420.02330,S,05539.78063,E,0.084,,230525,,,D*7D
$GNVTG,,T,,M,0.084,N,0.156,K,D*36
$GNGNS,051141.00,0420.02330,S,05539.78063,E,DA,14,0.90,15.5,-47.6,,0000*61
$GNGGA,051141.00,0420.02330,S,05539.78063,E,2,12,0.90,15.5,M,-47.6,M,,0000*4B
$GNGSA,A,3,24,20,05,13,15,22,18,23,41,,,,1.51,0.90,1.21*18
$GNGSA,A,3,74,75,87,71,72,,,,,,,,1.51,0.90,1.21*1F
$GPGSV,5,1,17,05,62,112,27,11,15,022,24,12,39,007,17,13,18,149,36*75
$GPGSV,5,2,17,15,28,184,30,18,27,238,20,20,42,057,23,22,14,122,37*78
$GPGSV,5,3,17,23,07,210,24,24,59,226,27,25,16,338,,29,10,307,*75
$GPGSV,5,4,17,36,52,277,,40,86,350,40,41,58,082,35,49,32,274,*7F
$GPGSV,5,5,17,50,10,089,*4A
$GLGSV,3,1,10,65,00,216,,71,16,116,36,72,19,167,24,74,36,142,09*61
$GLGSV,3,2,10,75,74,050,31,76,23,344,,86,27,340,06,87,33,287,08*60
$GLGSV,3,3,10,88,05,233,,,,,34*54
$GNGLL,0420.02330,S,05539.78063,E,051141.00,A,D*6B
$GNGRS,051141.00,1,0.8,1.3,-6.5,2.7,0.8,0.1,-10.5,0.2,151,,,*56
$GNGRS,051141.00,1,-2.7,7.0,4.0,-1.3,-14.8,,,,,,,*6A
$GNGST,051141.00,3072098,,,,5.2,4.4,8.2*73
$GNZDA,051141.00,23,05,2025,00,00*79
$GNGBS,051141.00,5.2,4.4,8.2,,,,*52
$GNTXT,01,01,01,More than 100 frame errors, UART RX was disabled*70
b0Xq>p' #7*9%z;R
3
{4'V^":R; 
Y#
gAG$tHJ$KJ2<LXV
TW!X"bqrGS$GNRMC,051142.00,A,0420.02329,S,05539.78062,E,0.088,,230525,,,D*7B
$GNVTG,,T,,M,0.088,N,0.162,K,D*3D
$GNGNS,051142.00,0420.02329,S,05539.78062,E,DA,15,0.72,15.5,-47.6,,0000*66
$GNGGA,051142.00,0420.02329,S,05539.78062,E,2,12,0.72,15.5,M,-47.6,M,,0000*4D
$GNGSA,A,3,24,20,05,13,15,22,18,23,41,,,,1.29,0.72,1.07*1F
$GNGSA,A,3,86,74,75,87,71,72,,,,,,,1.29,0.72,1.07*16
$GPGSV,5,1,17,05,62,112,26,11,15,022,24,12,39,007,16,13,18,149,35*76
$GPGSV,5,2,17,15,28,184,31,18,27,238,19,20,42,057,22,22,14,122,37*72
$GPGSV,5,3,17,23,07,210,24,24,59,226,27,25,16,338,,29,10,307,*75
$GPGSV,5,4,17,36,52,277,,40,86,350,39,41,58,082,34,49,32,274,*70
$GPGSV,5,5,17,50,10,089,*4A
$GLGSV,3,1,10,65,00,216,,71,16,116,36,72,19,167,24,74,36,142,07*6F
$GLGSV,3,2,10,75,74,050,31,76,23,344,,86,27,340,10,87,33,287,08*67
$GLGSV,3,3,10,88,05,233,,,,,34*54
$GNGLL,0420.02329,S,05539.78062,E,051142.00,A,D*61
$GNGRS,051142.00,1,0.2,1.5,-6.1,2.5,0.6,0.0,-8.9,1.3,151,,,*65
$GNGRS,051142.00,1,-2.4,-2.7,3.2,3.9,-1.1,-13.2,,,,,,*6B
$GNGST,051142.00,2976245,,,,5.2,4.5,8.3*7E
$GNZDA,051142.00,23,05,2025,00,00*7A
$GNGBS,051142.00,5.2,4.5,8.3,,,,*51
$GNTXT,01,01,01,More than 100 frame errors, UART RX was disabled*70
b0Xt>p['#k*9$z;zR
3
{4'V^":R,; 
Y$
gAG#tHJ$KJ2~LXVTW!:X!btr{G*7$GNRMC,051143.00,A,0420.02333,S,05539.78060,E,0.127,,230525,,,D*77
$GNVTG,,T,,M,0.127,N,0.235,K,D*38
$GNGNS,051143.00,0420.02333,S,05539.78060,E,DA,14,1.23,15.4,-47.6,,0000*6B
$GNGGA,051143.00,0420.02333,S,05539.78060,E,2,12,1.23,15.4,M,-47.6,M,,0000*41
$GNGSA,A,3,24,20,05,13,15,22,18,23,41,,,,1.89,1.23,1.44*17
$GNGSA,A,3,74,75,87,71,72,,,,,,,,1.89,1.23,1.44*10
$GPGSV,5,1,17,05,62,112,25,11,15,022,23,12,39,007,15,13,18,149,35*71
$GPGSV,5,2,17,15,29,183,31,18,27,238,19,20,42,057,22,22,14,122,36*75
$GPGSV,5,3,17,23,07,210,24,24,59,226,27,25,16,338,,29,10,307,*75
$GPGSV,5,4,17,36,52,277,,40,86,350,39,41,58,082,34,49,32,274,*70
$GPGSV,5,5,17,50,10,089,*4A
$GLGSV,3,1,10,65,00,216,,71,16,116,35,72,19,167,23,74,36,142,11*6C
$GLGSV,3,2,10,75,74,050,31,76,23,344,,86,27,340,06,87,33,287,09*61
$GLGSV,3,3,10,88,05,233,,,,,33*53
$GNGLL,0420.02333,S,05539.78060,E,051143.00,A,D*69
$GNGRS,051143.00,1,1.2,1.4,-6.8,2.2,1.1,0.0,-9.0,0.2,151,,,*64
$GNGRS,051143.00,1,-111,-3.9,-143,-1.2,-13.1,,,,,,,*6C
$GNGST,051143.00,1137,,,,5.2,4.5,8.3*42
$GNZDA,051143.00,23,05,2025,00,00*7B
$GNGBS,051143.00,5.2,4.5,8.3,,,,*50
$GNTXT,01,01,01,More than 100 frame errors, UART RX was disabled*70
b0Xx>pT'"9*9$"z#$;R
3
{4'V^":RB; 
Y$
gAG$t~HCJ$KJ2LXVTW!X"#abxrcG$GNRMC,051144.00,A,0420.02333,S,05539.78060,E,0.038,,230525,,,D*7F
$GNVTG,,T,,M,0.038,N,0.070,K,D*34
$GNGNS,051144.00,0420.02333,S,05539.78060,E,DA,14,0.78,15.4,-47.6,,0000*63
$GNGGA,051144.00,0420.02333,S,05539.78060,E,2,12,0.78,15.4,M,-47.6,M,,0000*49
$GNGSA,A,3,24,20,05,13,15,22,18,23,41,,,,1.33,0.78,1.09*10
$GNGSA,A,3,86,74,75,71,72,,,,,,,,1.33,0.78,1.09*16
$GPGSV,5,1,17,05,62,112,25,11,15,022,22,12,39,007,15,13,18,149,34*71
$GPGSV,5,2,17,15,29,183,31,18,27,238,19,20,42,057,22,22,14,122,34*77
$GPGSV,5,3,17,23,07,210,25,24,59,226,27,25,16,338,,29,10,307,*74
$GPGSV,5,4,17,36,52,277,,40,86,350,39,41,58,082,34,49,32,274,*70
$GPGSV,5,5,17,50,10,089,*4A
$GLGSV,3,1,10,65,00,216,,71,16,116,36,72,19,167,24,74,36,142,12*6B
$GLGSV,3,2,10,75,74,050,31,76,23,344,,86,27,340,08,87,33,287,07*61
$GLGSV,3,3,10,88,05,233,,,,,34*54
$GNGLL,0420.02333,S,05539.78060,E,051144.00,A,D*6E
$GNGRS,051144.00,1,-0.7,0.4,-6.8,2.0,-2.0,0.3,-8.9,0.4,152,,,*68
$GNGRS,051144.00,1,-2.9,-2.6,-0.8,-1.3,-12.1,,,,,,,*61
$GNGST,051144.00,3071475,,,,5.3,4.5,8.4*74
$GNZDA,051144.00,23,05,2025,00,00*7C
$GNGBS,051144.00,5.3,4.5,8.4,,,,*51
$GNTXT,01,01,01,More than 100 frame errors, UART RX was disabled*70
b0X|>pV'v"*9[#z;d;R
3
{4'V^!:RS; 
Y$
gAG#tHJ$K J2LXVTW!X"Ub|rKG$GNRMC,051145.00,A,0420.02334,S,05539.78059,E,0.062,,230525,,,D*7C
$GNVTG,,T,,M,0.062,N,0.114,K,D*38
$GNGNS,051145.00,0420.02334,S,05539.78059,E,DA,16,0.72,15.2,-47.6,,0000*61
$GNGGA,051145.00,0420.02334,S,05539.78059,E,2,12,0.72,15.2,M,-47.6,M,,0000*49
$GNGSA,A,3,24,20,05,13,15,22,12,18,23,41,,,1.29,0.72,1.07*1C
$GNGSA,A,3,86,74,75,87,71,72,,,,,,,1.29,0.72,1.07*16
$GPGSV,5,1,17,05,62,112,25,11,15,022,23,12,39,007,16,13,18,149,34*73
$GPGSV,5,2,17,15,29,183,31,18,27,238,19,20,42,057,22,22,14,122,35*76
$GPGSV,5,3,17,23,07,210,25,24,59,226,27,25,16,338,,29,10,307,*74
$GPGSV,5,4,17,36,52,277,,40,86,350,39,41,58,082,33,49,32,274,*77
$GPGSV,5,5,17,50,10,089,*4A
$GLGSV,3,1,10,65,00,216,,71,16,116,35,72,19,167,24,74,36,142,11*6B
$GLGSV,3,2,10,75,74,050,32,76,23,344,,86,27,340,11,87,33,287,08*65
$GLGSV,3,3,10,88,05,233,,,,,34*54
$GNGLL,0420.02334,S,05539.78059,E,051145.00,A,D*62
$GNGRS,051145.00,1,-1.1,0.9,-6.8,2.2,-3.3,0.6,54.9,-8.2,1.0,152,,*7E
$GNGRS,051145.00,1,-3.0,-2.6,-5.1,4.0,-1.3,-11.2,,,,,,*4E
$GNGST,051145.00,2973948,,,,5.3,4.6,8.4*7F
$GNZDA,051145.00,23,05,2025,00,00*7D
$GNGBS,051145.00,5.3,4.6,8.4,,,,*53
$GNTXT,01,01,01,More than 100 frame errors, UART RX was disabled*70
b0X>p'!4C*9#z4;R
3
{4'V^!:RM; 
Y%
gAG#tzHJ
$KJ2(LXVTW!X!z;br3Go$GNRMC,051146.00,A,0420.02351,S,05539.78081,E,0.241,,230525,,,D*7A
$GNVTG,,T,,M,0.241,N,0.447,K,D*38
$GNGNS,051146.00,0420.02351,S,05539.78081,E,DA,16,0.80,15.7,-47.6,,0000*6C
$GNGGA,051146.00,0420.02351,S,05539.78081,E,2,12,0.80,15.7,M,-47.6,M,,0000*44
$GNGSA,A,3,24,20,05,13,15,22,12,18,23,41,,,1.36,0.80,1.11*18
$GNGSA,A,3,86,74,75,87,71,72,,,,,,,1.36,0.80,1.11*12
$GPGSV,5,1,17,05,62,112,24,11,15,022,23,12,39,007,15,13,18,149,33*76
$GPGSV,5,2,17,15,29,183,30,18,27,239,18,20,42,057,23,22,14,122,35*76
$GPGSV,5,3,17,23,07,210,24,24,59,226,26,25,16,338,,29,10,307,*74
$GPGSV,5,4,17,36,52,277,,40,86,350,39,41,58,082,33,49,32,274,*77
$GPGSV,5,5,17,50,10,089,*4A
$GLGSV,3,1,10,65,00,216,,71,16,116,35,72,19,167,23,74,36,142,10*6D
$GLGSV,3,2,10,75,74,050,31,76,23,344,,86,27,340,14,87,33,287,11*6B
$GLGSV,3,3,10,88,05,233,,,,,33*53
$GNGLL,0420.02351,S,05539.78081,E,051146.00,A,D*67
$GNGRS,051146.00,1,-3.1,2.1,-5.0,2.2,0.5,0.5,48.1,-9.6,-0.9,152,,*70
$GNGRS,051146.00,1,2.7,-105,-4.7,-142,-1.3,-10.7,,,,,,*4B
$GNGST,051146.00,1096,,,,5.3,4.6,8.5*49
$GNZDA,051146.00,23,05,2025,00,00*7E
$GNGBS,051146.00,5.3,4.6,8.5,,,,*51
$GNTXT,01,01,01,More than 100 frame errors, UART RX was disabled*70
b0X>p'%}*9(&zg;R
3
{4'V^":RO; 
Y$
gAG#tmHJ
$K J2LXV
TW!X!EpbrG$GNRMC,051147.00,A,0420.02359,S,05539.78087,E,0.119,,230525,,,D*7B
$GNVTG,,T,,M,0.119,N,0.221,K,D*30
$GNGNS,051147.00,0420.02359,S,05539.78087,E,DA,16,0.72,15.7,-47.6,,0000*6E
$GNGGA,051147.00,0420.02359,S,05539.78087,E,2,12,0.72,15.7,M,-47.6,M,,0000*46
$GNGSA,A,3,24,20,05,13,15,22,12,18,23,41,,,1.29,0.72,1.07*1C
$GNGSA,A,3,86,74,75,87,71,72,,,,,,,1.29,0.72,1.07*16
$GPGSV,5,1,17,05,62,112,24,11,15,022,23,12,39,007,16,13,18,149,37*71
$GPGSV,5,2,17,15,29,183,30,18,27,239,18,20,42,057,23,22,14,122,38*7B
$GPGSV,5,3,17,23,07,210,23,24,59,226,27,25,16,338,,29,10,307,*72
$GPGSV,5,4,17,36,52,277,,40,86,350,39,41,58,082,34,49,32,274,*70
$GPGSV,5,5,17,50,10,089,*4A
$GLGSV,3,1,10,65,00,216,,71,16,116,35,72,19,167,23,74,36,142,10*6D
$GLGSV,3,2,10,75,74,050,32,76,23,344,,86,27,340,10,87,33,287,09*65
$GLGSV,3,3,10,88,05,233,,,,,33*53
$GNGLL,0420.02359,S,05539.78087,E,051147.00,A,D*68
$GNGRS,051147.00,1,-2.4,3.0,-3.7,2.1,1.8,0.2,41.3,-9.0,-1.5,152,,*7C
$GNGRS,051147.00,1,-2.6,-2.6,-6.0,4.1,-1.5,-10.4,,,,,,*49
$GNGST,051147.00,2974380,,,,5.3,4.7,8.5*74
$GNZDA,051147.00,23,05,2025,00,00*7F
$GNGBS,051147.00,5.3,4.7,8.5,,,,*51
$GNTXT,01,01,01,More than 100 frame errors, UART RX was disabled*70
b0Xp>p'-#xF*8Q%z;R
3
{4'V^":Re; 
Y 
gAG$tvHJ$KJ2LXVTW!XEbprHcA$GNRMC,051148.00,A,0420.02360,S,05539.78085,E,0.061,,230525,,,D*72
$GNVTG,,T,,M,0.061,N,0.112,K,D*3D
$GNGNS,051148.00,0420.02360,S,05539.78085,E,DA,16,0.72,15.6,-47.6,,0000*68
$GNGGA,051148.00,0420.02360,S,05539.78085,E,2,12,0.72,15.6,M,-47.6,M,,0000*40
$GNGSA,A,3,24,20,05,13,15,22,12,18,23,41,,,1.29,0.72,1.07*1C
$GNGSA,A,3,86,74,75,87,71,72,,,,,,,1.29,0.72,1.07*16
$GPGSV,5,1,17,05,62,112,24,11,15,022,22,12,39,007,16,13,18,149,35*72
$GPGSV,5,2,17,15,29,183,29,18,27,239,18,20,42,056,22,22,14,122,37*7C
$GPGSV,5,3,17,23,07,210,24,24,59,226,27,25,16,338,,29,10,307,*75
$GPGSV,5,4,17,36,52,277,,40,86,350,39,41,58,082,34,49,32,274,*70
$GPGSV,5,5,17,50,10,089,*4A
$GLGSV,3,1,10,65,00,216,,71,16,116,36,72,19,167,23,74,36,142,11*6F
$GLGSV,3,2,10,75,74,050,31,76,23,344,,86,27,340,15,87,33,287,09*63
$GLGSV,3,3,10,88,05,233,,,,,31*51
$GNGLL,0420.02360,S,05539.78085,E,051148.00,A,D*6F
$GNGRS,051148.00,1,0.0,3.4,-2.7,2.1,1.2,0.1,36.3,-9.5,-0.6,152,,*53
$GNGRS,051148.00,1,-2.7,-2.7,-3.6,3.9,-1.4,-11.1,,,,,,*4F
$GNGST,051148.00,2974889,,,,5.4,4.7,8.6*7D
$GNZDA,051148.00,23,05,2025,00,00*70
$GNGBS,051148.00,5.4,4.7,8.6,,,,*5A
$GNTXT,01,01,01,More than 100 frame errors, UART RX was disabled*70
b0XX>p';"*84%{;ZR
3
{4(V^":Rx; 
Y"
gAG$tnHJ$KJ2LXV
T!W
!"X kbXrH:$GNRMC,051149.00,A,0420.02365,S,05539.78092,E,0.131,,230525,,,D*74
$GNVTG,,T,,M,0.131,N,0.243,K,D*3E
$GNGNS,051149.00,0420.02365,S,05539.78092,E,DA,16,1.23,15.8,-47.6,,0000*61
$GNGGA,051149.00,0420.02365,S,05539.78092,E,2,12,1.23,15.8,M,-47.6,M,,0000*49
$GNGSA,A,3,24,20,05,13,15,22,12,18,23,41,,,1.89,1.23,1.44*14
$GNGSA,A,3,86,74,75,87,71,72,,,,,,,1.89,1.23,1.44*1E
$GPGSV,5,1,17,05,62,112,23,11,15,022,22,12,39,007,18,13,18,149,34*7A
$GPGSV,5,2,17,15,29,183,29,18,27,239,18,20,42,056,23,22,13,123,37*7B
$GPGSV,5,3,17,23,07,210,23,24,59,226,26,25,16,338,,29,10,307,*73
$GPGSV,5,4,17,36,52,277,,40,86,350,40,41,58,082,34,49,32,274,*7E
$GPGSV,5,5,17,50,10,089,*4A
$GLGSV,3,1,10,65,00,216,,71,16,116,36,72,19,167,22,74,36,142,11*6E
$GLGSV,3,2,10,75,74,050,31,76,23,344,,86,27,340,10,87,33,287,10*6E
$GLGSV,3,3,10,88,05,233,,,,,32*52
$GNGLL,0420.02365,S,05539.78092,E,051149.00,A,D*6D
$GNGRS,051149.00,1,0.9,3.1,-0.5,2.1,0.3,-0.1,31.3,-10.7,0.0,152,,*65
$GNGRS,051149.00,1,84.8,20.2,-2.9,88.9,-1.5,-10.2,,,,,,*74
$GNGST,051149.00,1137,,,,5.4,4.7,8.7*48
$GNZDA,051149.00,23,05,2025,00,00*71
$GNGBS,051149.00,5.4,4.7,8.7,,,,*5A
$GNTXT,01,01,01,More than 100 frame errors, UART RX was disabled*70
b0X@>pO'#*8D&{;R
3
{4'V^":Rs; 
Y 
gAG$tBHJ$KJ2QLXVTW
!X 9b@r
H$GNRMC,051150.00,A,0420.02371,S,05539.78095,E,0.134,,230525,,,D*7B
$GNVTG,,T,,M,0.134,N,0.248,K,D*30
$GNGNS,051150.00,0420.02371,S,05539.78095,E,DA,16,0.72,16.0,-47.6,,0000*65
$GNGGA,051150.00,0420.02371,S,05539.78095,E,2,12,0.72,16.0,M,-47.6,M,,0000*4D
$GNGSA,A,3,24,20,05,13,15,22,12,18,23,41,,,1.29,0.72,1.07*1C
$GNGSA,A,3,86,74,75,87,71,72,,,,,,,1.29,0.72,1.07*16
$GPGSV,5,1,17,05,62,112,24,11,15,022,23,12,39,007,18,13,18,149,35*7D
$GPGSV,5,2,17,15,29,183,30,18,27,239,18,20,42,056,22,22,13,123,38*7D
$GPGSV,5,3,17,23,07,210,23,24,59,226,27,25,16,338,,29,10,307,*72
$GPGSV,5,4,17,36,52,277,,40,86,350,39,41,58,082,34,49,32,274,*70
$GPGSV,5,5,17,50,10,089,*4A
$GLGSV,3,1,10,65,00,216,,71,16,116,36,72,19,167,22,74,36,142,13*6C
$GLGSV,3,2,10,75,74,050,31,76,23,344,,86,27,340,11,87,33,287,10*6F
$GLGSV,3,3,10,88,05,233,,,,,32*52
$GNGLL,0420.02371,S,05539.78095,E,051150.00,A,D*67
$GNGRS,051150.00,1,2.1,3.2,0.8,2.4,0.0,-0.1,29.6,-11.3,0.1,152,,*4A
$GNGRS,051150.00,1,-2.7,-2.7,3.4,4.0,-1.9,-10.9,,,,,,*63
$GNGST,051150.00,2979835,,,,5.5,4.8,8.8*7E
$GNZDA,051150.00,23,05,2025,00,00*79
$GNGBS,051150.00,5.5,4.8,8.8,,,,*53
$GNTXT,01,01,01,More than 100 frame errors, UART RX was disabled*70
b0X(>p'
$*8%{:R
3
{4'V^":R{; 
Y 
gAG$tQHJ$KJ2$LXVTW
!X!,b(rHv$GNRMC,051151.00,A,0420.02375,S,05539.78099,E,0.059,,230525,,,D*78
$GNVTG,,T,,M,0.059,N,0.109,K,D*3C
$GNGNS,051151.00,0420.02375,S,05539.78099,E,DA,16,0.72,16.2,-47.6,,0000*6E
$GNGGA,051151.00,0420.02375,S,05539.78099,E,2,12,0.72,16.2,M,-47.6,M,,0000*46
$GNGSA,A,3,24,20,05,13,15,22,12,18,23,41,,,1.29,0.72,1.07*1C
$GNGSA,A,3,86,74,75,87,71,72,,,,,,,1.29,0.72,1.07*16
$GPGSV,5,1,17,05,62,112,23,11,15,022,23,12,39,007,17,13,18,149,36*76
$GPGSV,5,2,17,15,29,183,30,18,27,239,19,20,42,056,23,22,13,123,37*72
$GPGSV,5,3,17,23,07,210,23,24,58,225,26,25,16,338,,29,10,307,*71
$GPGSV,5,4,17,36,52,277,,40,86,350,39,41,58,082,34,49,32,274,*70
$GPGSV,5,5,17,50,10,089,*4A
$GLGSV,3,1,10,65,00,216,,71,16,116,36,72,19,167,22,74,36,142,07*69
$GLGSV,3,2,10,75,74,050,31,76,23,344,,86,27,340,12,87,33,287,10*6C
$GLGSV,3,3,10,88,05,233,,,,,33*53
$GNGLL,0420.02375,S,05539.78099,E,051151.00,A,D*6E
$GNGRS,051151.00,1,4.0,3.8,1.9,2.3,-3.1,-0.2,27.9,-13.0,0.0,152,,*6C
$GNGRS,051151.00,1,-2.6,-2.8,-2.2,4.2,-1.8,-11.0,,,,,,*4D
$GNGST,051151.00,4209633,,,,5.5,4.8,8.9*7C
$GNZDA,051151.00,23,05,2025,00,00*78
$GNGBS,051151.00,5.5,4.8,8.9,,,,*53
$GNTXT,01,01,01,More than 100 frame errors, UART RX was disabled*70
b0X>p'I
#g,*8[%{:R
3
{4'V^":Rc; 
Y!
gAG$t=HXJ$KJ2sLXVTW!,.X RfbrH$GNRMC,051152.00,A,0420.02396,S,05539.78121,E,0.235,,230525,,,D*7C
$GNVTG,,T,,M,0.235,N,0.435,K,D*3E
$GNGNS,051152.00,0420.02396,S,05539.78121,E,DA,16,1.23,16.9,-47.6,,0000*6C
$GNGGA,051152.00,0420.02396,S,05539.78121,E,2,12,1.23,16.9,M,-47.6,M,,0000*44
$GNGSA,A,3,24,20,05,13,15,22,12,18,23,41,,,1.89,1.23,1.44*14
$GNGSA,A,3,86,74,75,87,71,72,,,,,,,1.89,1.23,1.44*1E
$GPGSV,5,1,17,05,62,112,23,11,15,022,23,12,39,007,18,13,18,149,35*7A
$GPGSV,5,2,17,15,29,183,29,18,27,239,19,20,42,056,23,22,13,123,37*7A
$GPGSV,5,3,17,23,07,210,23,24,58,225,27,25,16,338,,29,10,307,*70
$GPGSV,5,4,17,36,52,277,,40,86,350,39,41,58,082,34,49,32,274,*70
$GPGSV,5,5,17,50,10,089,*4A
$GLGSV,3,1,10,65,00,216,,71,16,116,36,72,19,167,22,74,36,142,09*67
$GLGSV,3,2,10,75,74,050,31,76,23,344,,86,27,340,08,87,33,287,07*61
$GLGSV,3,3,10,88,05,233,,,,,32*52
$GNGLL,0420.02396,S,05539.78121,E,051152.00,A,D*62
$GNGRS,051152.00,1,2.6,3.5,2.0,2.5,-1.5,-0.2,26.3,-12.4,-1.0,152,,*4A
$GNGRS,051152.00,1,-32.0,73.7,-1.4,118,-2.0,-9.4,,,,,,*4C
$GNGST,051152.00,1137,,,,5.6,4.9,9.0*48
$GNZDA,051152.00,23,05,2025,00,00*7B
$GNGBS,051152.00,5.6,4.9,9.0,,,,*5A
$GNTXT,01,01,01,More than 100 frame errors, UART RX was disabled*70
b0X>p'
#*8&{*:1R
3
{4'V^":RK; 
Y 
gAG%t>HqJ$KJ2LXVTW!rX brH7$GNRMC,051153.00,A,0420.02391,S,05539.78117,E,0.018,,230525,,,D*72
$GNVTG,,T,,M,0.018,N,0.033,K,D*31
$GNGNS,051153.00,0420.02391,S,05539.78117,E,DA,15,0.73,16.8,-47.6,,0000*69
$GNGGA,051153.00,0420.02391,S,05539.78117,E,2,12,0.73,16.8,M,-47.6,M,,0000*42
$GNGSA,A,3,24,20,05,13,15,22,12,18,23,41,,,1.32,0.73,1.09*19
$GNGSA,A,3,86,75,87,71,72,,,,,,,,1.32,0.73,1.09*10
$GPGSV,5,1,17,05,62,112,22,11,15,022,23,12,39,007,17,13,18,149,35*74
$GPGSV,5,2,17,15,29,183,29,18,27,239,19,20,42,056,23,22,13,123,38*75
$GPGSV,5,3,17,23,07,210,23,24,58,225,27,25,16,338,,29,10,307,*70
$GPGSV,5,4,17,36,52,277,,40,86,350,39,41,58,082,34,49,32,274,*70
$GPGSV,5,5,17,50,10,089,*4A
$GLGSV,3,1,10,65,00,216,,71,16,116,37,72,19,167,22,74,36,142,07*68
$GLGSV,3,2,10,75,74,050,31,76,23,344,,86,27,340,09,87,33,287,08*6F
$GLGSV,3,3,10,88,05,233,,,,,32*52
$GNGLL,0420.02391,S,05539.78117,E,051153.00,A,D*61
$GNGRS,051153.00,1,3.0,4.1,2.9,2.4,-0.9,0.4,25.6,-10.8,-0.1,152,,*69
$GNGRS,051153.00,1,-3.3,1.7,3.7,-1.9,-9.1,,,,,,,*52
$GNGST,051153.00,4343719,,,,5.6,4.9,9.1*73
$GNZDA,051153.00,23,05,2025,00,00*7A
$GNGBS,051153.00,5.6,4.9,9.1,,,,*5A
$GNTXT,01,01,01,More than 100 frame errors, UART RX was disabled*70
b0X>pC'#9h*8%{:TR
3
{4'V^":Rb; 
Y
gAG#tAHJ$KJ2cLXVTW!X!brsHq$GNRMC,051154.00,A,0420.02399,S,05539.78129,E,0.128,,230525,,,D*72
$GNVTG,,T,,M,0.128,N,0.237,K,D*35
$GNGNS,051154.00,0420.02399,S,05539.78129,E,DA,16,0.72,17.3,-47.6,,0000*63
$GNGGA,051154.00,0420.02399,S,05539.78129,E,2,12,0.72,17.3,M,-47.6,M,,0000*4B
$GNGSA,A,3,24,20,05,13,15,22,12,18,23,41,,,1.29,0.72,1.07*1C
$GNGSA,A,3,86,74,75,87,71,72,,,,,,,1.29,0.72,1.07*16
$GPGSV,5,1,17,05,62,112,23,11,15,022,22,12,39,007,17,13,18,149,35*74
$GPGSV,5,2,17,15,29,183,29,18,27,239,18,20,42,056,23,22,13,123,37*7B
$GPGSV,5,3,17,23,07,210,23,24,58,225,27,25,16,338,,29,10,307,*70
$GPGSV,5,4,17,36,52,277,,40,86,350,39,41,58,082,34,49,32,274,*70
$GPGSV,5,5,17,50,10,089,*4A
$GLGSV,3,1,10,65,00,216,,71,16,116,35,72,19,167,23,74,36,142,09*65
$GLGSV,3,2,10,75,74,050,31,76,23,344,,86,27,340,11,87,33,287,08*66
$GLGSV,3,3,10,88,05,233,,,,,33*53
$GNGLL,0420.02399,S,05539.78129,E,051154.00,A,D*63
$GNGRS,051154.00,1,3.4,3.8,3.2,2.2,0.6,0.1,25.4,-9.2,-1.3,152,,*7C
$GNGRS,051154.00,1,-3.2,-2.9,3.6,3.8,-1.9,-10.2,,,,,,*6B
$GNGST,051154.00,4206134,,,,5.7,5.0,9.2*77
$GNZDA,051154.00,23,05,2025,00,00*7D
$GNGBS,051154.00,5.7,5.0,9.2,,,,*57
$GNTXT,01,01,01,More than 100 frame errors, UART RX was disabled*70
b0X>p';#?*8@%{/:7R
3
{4'V^":RL; 
Y#
gAG$t?HJ$=KJ2LXVTW!X!br[HI$GNRMC,051155.00,A,0420.02401,S,05539.78131,E,0.251,,230525,,,D*71
$GNVTG,,T,,M,0.251,N,0.465,K,D*39
$GNGNS,051155.00,0420.02401,S,05539.78131,E,DA,16,1.23,17.4,-47.6,,0000*6F
$GNGGA,051155.00,0420.02401,S,05539.78131,E,2,12,1.23,17.4,M,-47.6,M,,0000*47
$GNGSA,A,3,24,20,05,13,15,22,12,18,23,41,,,1.89,1.23,1.44*14
$GNGSA,A,3,86,74,75,87,71,72,,,,,,,1.89,1.23,1.44*1E
$GPGSV,5,1,17,05,62,112,23,11,15,022,22,12,39,007,17,13,18,149,35*74
$GPGSV,5,2,17,15,29,183,29,18,27,239,18,20,42,056,23,22,13,123,37*7B
$GPGSV,5,3,17,23,07,210,22,24,58,225,27,25,16,338,,29,10,307,*71
$GPGSV,5,4,17,36,52,277,,40,86,350,39,41,58,082,34,49,32,274,*70
$GPGSV,5,5,17,50,10,089,*4A
$GLGSV,3,1,10,65,00,216,,71,16,116,36,72,19,167,21,74,36,142,12*6E
$GLGSV,3,2,10,75,74,050,31,76,23,344,,86,27,340,11,87,33,287,11*6E
$GLGSV,3,3,10,88,05,233,,,,,33*53
$GNGLL,0420.02401,S,05539.78131,E,051155.00,A,D*6D
$GNGRS,051155.00,1,5.7,3.2,2.4,2.0,-2.4,0.2,23.6,-9.6,3.0,152,,*75
$GNGRS,051155.00,1,-26.7,-42.9,4.6,-33.3,-1.9,-10.3,,,,,,*7F
$GNGST,051155.00,1137,,,,5.7,5.0,9.3*45
$GNZDA,051155.00,23,05,2025,00,00*7C
$GNGBS,051155.00,5.7,5.0,9.3,,,,*57
$GNTXT,01,01,01,More than 100 frame errors, UART RX was disabled*70
b0X>p'#*8&{$}:R4
{4'V^":RS; 
Y$
gAG$tSHlJ$KJ2KLXVTW!vX"DbrC"H!o$GNRMC,051156.00,A,0420.02401,S,05539.78133,E,0.162,,230525,,,D*73
$GNVTG,,T,,M,0.162,N,0.300,K,D*3E
$GNGNS,051156.00,0420.02401,S,05539.78133,E,DA,16,0.72,17.5,-47.6,,0000*6A
$GNGGA,051156.00,0420.02401,S,05539.78133,E,2,12,0.72,17.5,M,-47.6,M,,0000*42
$GNGSA,A,3,24,20,05,13,15,22,12,18,23,41,,,1.29,0.72,1.07*1C
$GNGSA,A,3,86,74,75,87,71,72,,,,,,,1.29,0.72,1.07*16
$GPGSV,5,1,17,05,62,112,24,11,15,022,22,12,39,007,17,13,18,149,35*73
$GPGSV,5,2,17,15,29,183,30,18,27,239,18,20,42,056,23,22,13,123,38*7C
$GPGSV,5,3,17,23,07,210,23,24,58,225,27,25,16,338,,29,09,308,*77
$GPGSV,5,4,17,36,52,277,,40,86,350,39,41,58,082,34,49,32,274,*70
$GPGSV,5,5,17,50,10,089,*4A
$GLGSV,3,1,10,65,00,216,,71,16,116,36,72,19,167,22,74,36,142,09*67
$GLGSV,3,2,10,75,74,050,31,76,23,344,,86,27,340,07,87,33,287,11*69
$GLGSV,3,3,10,88,05,233,,,,,34*54
$GNGLL,0420.02401,S,05539.78133,E,051156.00,A,D*6C
$GNGRS,051156.00,1,2.8,4.1,2.8,2.1,-6.1,0.4,20.8,-8.6,3.8,152,,*74
$GNGRS,051156.00,1,-3.0,-2.6,0.8,3.7,-1.7,-11.7,,,,,,*6C
$GNGST,051156.00,5151017,,,,5.7,5.1,9.4*72
$GNZDA,051156.00,23,05,2025,00,00*7F
$GNGBS,051156.00,5.7,5.1,9.4,,,,*52
$GNTXT,01,01,01,More than 100 frame errors, UART RX was disabled*70
b0X>p'$6*8&{P:R4
{4'V^#:RG; 
Y$
g AG$t>HJ$K J2LXVTW!;X!br+&H$GNRMC,051157.00,A,0420.02396,S,05539.78124,E,0.144,,230525,,,D*79
$GNVTG,,T,,M,0.144,N,0.267,K,D*3A
$GNGNS,051157.00,0420.02396,S,05539.78124,E,DA,16,0.72,17.3,-47.6,,0000*62
$GNGGA,051157.00,0420.02396,S,05539.78124,E,2,12,0.72,17.3,M,-47.6,M,,0000*4A
$GNGSA,A,3,24,20,05,13,15,22,12,18,23,41,,,1.29,0.72,1.07*1C
$GNGSA,A,3,86,74,75,87,71,72,,,,,,,1.29,0.72,1.07*16
$GPGSV,5,1,17,05,62,112,24,11,15,022,22,12,39,007,17,13,18,149,36*70
$GPGSV,5,2,17,15,29,183,30,18,27,239,18,20,42,056,23,22,13,123,38*7C
$GPGSV,5,3,17,23,07,210,23,24,58,225,27,25,16,338,,29,09,308,*77
$GPGSV,5,4,17,36,52,277,,40,86,350,39,41,58,082,35,49,32,274,*71
$GPGSV,5,5,17,50,10,089,*4A
$GLGSV,3,1,10,65,00,216,,71,16,116,36,72,19,167,22,74,36,142,07*69
$GLGSV,3,2,10,75,74,050,32,76,23,344,,86,27,340,12,87,33,287,09*67
$GLGSV,3,3,10,88,05,233,,,,,33*53
$GNGLL,0420.02396,S,05539.78124,E,051157.00,A,D*62
$GNGRS,051157.00,1,3.9,4.1,4.8,2.5,-2.0,-0.1,22.2,-7.8,3.4,152,,*5F
