$GNTXT,01,01,01,More than 100 frame errors, UART RX was disabled*70
b0X<}N!"U
g -@Zu=P
.{4V^:RN6 
YekG{cHgIJ)%KD"wLXV OW#%Xbr[f<A$GNRMC,045907.00,A,0420.00315,S,05539.81332,E,0.349,,230525,,,A*71
$GNVTG,,T,,M,0.349,N,0.646,K,A*37
$GNGNS,045907.00,0420.00315,S,05539.81332,E,AA,14,0.79,18.3,-47.6,,*63
$GNGGA,045907.00,0420.00315,S,05539.81332,E,1,12,0.79,18.3,M,-47.6,M,,*4F
$GNGSA,A,3,24,20,05,13,15,22,12,18,41,,,,1.47,0.79,1.24*1F
$GNGSA,A,3,74,75,87,71,72,,,,,,,,1.47,0.79,1.24*1A
$GPGSV,5,1,18,05,60,125,24,11,21,021,21,12,34,002,33,13,19,154,24*7E
$GPGSV,5,2,18,14,01,131,17,15,28,189,21,18,24,233,29,20,45,064,32*7D
$GPGSV,5,3,18,22,16,117,28,23,02,212,,24,61,237,21,25,11,336,*7B
$GPGSV,5,4,18,29,10,302,,36,52,277,,40,86,350,,41,58,082,27*71
$GPGSV,5,5,18,49,32,274,,50,10,089,*78
$GLGSV,3,1,09,71,15,123,29,72,17,173,14,73,00,151,23,74,41,136,18*6F
$GLGSV,3,2,09,75,68,034,28,76,17,344,,86,32,335,,87,35,279,15*63
$GLGSV,3,3,09,88,03,227,*58
$GNGLL,0420.00315,S,05539.81332,E,045907.00,A,A*65
$GNGRS,045907.00,1,-3.6,-1.7,-4.3,3.4,4.4,1.4,-0.1,-1.5,139,,,*4A
$GNGRS,045907.00,1,10.6,3.8,2.9,3.6,6.1,,,,,,,*44
$GNGST,045907.00,3077086,,,,2.7,3.2,7.0*78
$GNZDA,045907.00,23,05,2025,00,00*76
$GNGBS,045907.00,2.7,3.2,7.0,,,,*53
$GNTXT,01,01,01,More than 100 frame errors, UART RX was disabled*70
b0X<}&"
 O!-@u=?P
.{4V^:RN9 
YeG!{H
I5J)4KD"LXV OW
#XcbrCj<$GNRMC,045908.00,A,0420.00321,S,05539.81329,E,0.188,,230525,,,A*7C
$GNVTG,,T,,M,0.188,N,0.348,K,A*33
$GNGNS,045908.00,0420.00321,S,05539.81329,E,AA,14,0.82,18.5,-47.6,,*63
$GNGGA,045908.00,0420.00321,S,05539.81329,E,1,12,0.82,18.5,M,-47.6,M,,*4F
$GNGSA,A,3,24,20,05,13,15,22,12,18,41,,,,1.61,0.82,1.38*12
$GNGSA,A,3,74,75,87,71,72,,,,,,,,1.61,0.82,1.38*17
$GPGSV,5,1,18,05,60,125,21,11,21,021,22,12,34,002,38,13,19,154,22*75
$GPGSV,5,2,18,14,01,131,18,15,28,189,20,18,24,233,29,20,45,064,33*72
$GPGSV,5,3,18,22,16,117,29,23,02,212,,24,61,237,23,25,11,336,*78
$GPGSV,5,4,18,29,10,302,,36,52,277,,40,86,350,,41,58,082,28*7E
$GPGSV,5,5,18,49,32,274,,50,10,089,*78
$GLGSV,3,1,09,71,15,123,33,72,17,173,10,73,00,151,22,74,41,136,16*6F
$GLGSV,3,2,09,75,68,034,29,76,17,344,,86,32,335,,87,35,279,10*67
$GLGSV,3,3,09,88,03,227,*58
$GNGLL,0420.00321,S,05539.81329,E,045908.00,A,A*67
$GNGRS,045908.00,1,-4.5,-0.5,-3.8,4.2,1.7,-0.2,0.0,0.8,147,,,*67
$GNGRS,045908.00,1,10.8,4.1,-8.6,-0.5,19.8,,,,,,,*79
$GNGST,045908.00,1097,,,,2.7,3.2,7.0*45
$GNZDA,045908.00,23,05,2025,00,00*79
$GNGBS,045908.00,2.7,3.2,7.0,,,,*5C
$GNTXT,01,01,01,More than 100 frame errors, UART RX was disabled*70
b0X<}%"
O!-@u=P
.{4V^:R77 
YejG!{THIJ)>KD"dLXV OW#LXpbr+n<o$GNRMC,045909.00,A,0420.00322,S,05539.81326,E,0.089,,230525,,,A*71
$GNVTG,,T,,M,0.089,N,0.165,K,A*3E
$GNGNS,045909.00,0420.00322,S,05539.81326,E,AA,14,0.83,18.5,-47.6,,*6F
$GNGGA,045909.00,0420.00322,S,05539.81326,E,1,12,0.83,18.5,M,-47.6,M,,*43
$GNGSA,A,3,24,20,05,13,15,22,12,18,41,,,,1.67,0.83,1.44*1E
$GNGSA,A,3,74,75,87,71,72,,,,,,,,1.67,0.83,1.44*1B
$GPGSV,5,1,18,05,60,125,17,11,20,021,22,12,34,002,37,13,19,154,22*7E
$GPGSV,5,2,18,14,01,131,18,15,28,189,20,18,24,233,29,20,45,064,33*72
$GPGSV,5,3,18,22,16,117,31,23,02,212,,24,61,237,25,25,11,336,*77
$GPGSV,5,4,18,29,10,302,,36,52,277,,40,86,350,,41,58,082,27*71
$GPGSV,5,5,18,49,32,274,,50,10,089,*78
$GLGSV,3,1,09,71,15,123,33,72,17,173,15,73,00,151,20,74,41,136,12*6C
$GLGSV,3,2,09,75,68,034,31,76,17,344,,86,32,335,,87,35,279,15*6B
$GLGSV,3,3,09,88,03,227,*58
$GNGLL,0420.00322,S,05539.81326,E,045909.00,A,A*6A
$GNGRS,045909.00,1,-5.2,-3.7,-5.8,1.8,0.8,-0.6,0.0,-1.0,141,,,*40
$GNGRS,045909.00,1,10.9,3.6,3.3,-1.7,6.8,,,,,,,*67
$GNGST,045909.00,151283,,,,2.7,3.2,7.0*47
$GNZDA,045909.00,23,05,2025,00,00*78
$GNGBS,045909.00,2.7,3.2,7.0,,,,*5D
$GNTXT,01,01,01,More than 100 frame errors, UART RX was disabled*70
b0X<}$"
3!-@ u`=P
.{4V^:R7 
YeG${HIJ),K D"wLXV OW
#YXbrr<Gy$GNRMC,045910.00,A,0420.00323,S,05539.81330,E,0.048,,230525,,,A*72
$GNVTG,,T,,M,0.048,N,0.089,K,A*30
$GNGNS,045910.00,0420.00323,S,05539.81330,E,AA,14,0.83,18.5,-47.6,,*61
$GNGGA,045910.00,0420.00323,S,05539.81330,E,1,12,0.83,18.5,M,-47.6,M,,*4D
$GNGSA,A,3,24,20,05,13,15,22,12,18,41,,,,1.67,0.83,1.44*1E
$GNGSA,A,3,74,75,87,71,72,,,,,,,,1.67,0.83,1.44*1B
$GPGSV,5,1,18,05,60,125,16,11,20,021,22,12,34,003,36,13,19,154,30*7C
$GPGSV,5,2,18,14,01,131,22,15,28,189,20,18,24,233,30,20,45,064,33*73
$GPGSV,5,3,18,22,16,117,32,23,02,212,,24,61,237,25,25,11,336,*74
$GPGSV,5,4,18,29,10,302,,36,52,277,,40,86,350,,41,58,082,28*7E
$GPGSV,5,5,18,49,32,274,,50,10,089,*78
$GLGSV,3,1,09,71,15,123,36,72,17,173,17,73,00,151,21,74,41,136,15*6D
$GLGSV,3,2,09,75,68,034,32,76,17,344,,86,32,335,,87,35,279,10*6D
$GLGSV,3,3,09,88,03,227,*58
$GNGLL,0420.00323,S,05539.81330,E,045910.00,A,A*64
$GNGRS,045910.00,1,-5.5,0.1,-6.1,2.4,0.5,1.0,0.0,-1.3,142,,,*45
$GNGRS,045910.00,1,10.7,6.3,3.5,1.7,7.3,,,,,,,*40
$GNGST,045910.00,210059,,,,2.7,3.2,7.0*4C
$GNZDA,045910.00,23,05,2025,00,00*70
$GNGBS,045910.00,2.7,3.2,7.0,,,,*55
$GNTXT,01,01,01,More than 100 frame errors, UART RX was disabled*70
b0Xh<}$"
 
"-@"u=P
.{4V^:R6 
YeG${AHIJ)0K!D"ULXV OW#ZXf6bhru<$GNRMC,045911.00,A,0420.00323,S,05539.81328,E,0.065,,230525,,,A*75
$GNVTG,,T,,M,0.065,N,0.121,K,A*3C
$GNGNS,045911.00,0420.00323,S,05539.81328,E,AA,14,0.83,18.5,-47.6,,*69
$GNGGA,045911.00,0420.00323,S,05539.81328,E,1,12,0.83,18.5,M,-47.6,M,,*45
$GNGSA,A,3,24,20,05,13,15,22,12,18,41,,,,1.67,0.83,1.44*1E
$GNGSA,A,3,74,75,87,71,72,,,,,,,,1.67,0.83,1.44*1B
$GPGSV,5,1,18,05,60,125,17,11,20,021,21,12,34,003,36,13,19,154,32*7C
$GPGSV,5,2,18,14,01,131,24,15,28,189,21,18,24,233,30,20,45,064,34*73
$GPGSV,5,3,18,22,16,117,34,23,02,212,,24,61,237,21,25,11,336,*76
$GPGSV,5,4,18,29,10,302,,36,52,277,,40,86,350,,41,58,082,27*71
$GPGSV,5,5,18,49,32,274,,50,10,089,*78
$GLGSV,3,1,09,71,15,123,36,72,17,173,21,73,00,151,24,74,41,136,18*60
$GLGSV,3,2,09,75,68,034,33,76,17,344,,86,32,335,,87,35,279,09*64
$GLGSV,3,3,09,88,03,227,*58
$GNGLL,0420.00323,S,05539.81328,E,045911.00,A,A*6C
$GNGRS,045911.00,1,-5.0,-3.5,-5.1,2.0,1.3,-1.0,0.1,-0.8,140,,,*4F
$GNGRS,045911.00,1,10.7,0.9,-14.5,-1.9,7.1,,,,,,,*77
$GNGST,045911.00,49,,,,2.6,3.1,7.0*4D
$GNZDA,045911.00,23,05,2025,00,00*71
$GNGBS,045911.00,2.6,3.1,7.0,,,,*56
$GNTXT,01,01,01,More than 100 frame errors, UART RX was disabled*70
b0XP<}#" 
/"-@ u =P
.{4V^:R 
YeG${HIJ)K!D"ALXV OW#;XubPry<F$GNRMC,045912.00,A,0420.00325,S,05539.81326,E,0.097,,230525,,,A*73
$GNVTG,,T,,M,0.097,N,0.180,K,A*3A
$GNGNS,045912.00,0420.00325,S,05539.81326,E,AA,13,0.83,18.5,-47.6,,*65
$GNGGA,045912.00,0420.00325,S,05539.81326,E,1,12,0.83,18.5,M,-47.6,M,,*4E
$GNGSA,A,3,24,20,05,13,15,22,12,18,,,,,1.67,0.83,1.44*1B
$GNGSA,A,3,74,75,87,71,72,,,,,,,,1.67,0.83,1.44*1B
$GPGSV,5,1,18,05,60,125,17,11,20,021,21,12,34,003,35,13,19,154,32*7F
$GPGSV,5,2,18,14,01,131,25,15,28,189,23,18,24,233,30,20,45,064,34*70
$GPGSV,5,3,18,22,16,117,32,23,02,212,,24,61,237,23,25,11,336,*72
$GPGSV,5,4,18,29,10,302,,36,52,277,,40,86,350,,41,58,082,*74
$GPGSV,5,5,18,49,32,274,,50,10,089,*78
$GLGSV,3,1,09,71,15,123,36,72,17,173,21,73,00,151,25,74,41,136,17*6E
$GLGSV,3,2,09,75,68,034,33,76,17,344,,86,32,335,,87,35,279,08*65
$GLGSV,3,3,09,88,03,227,*58
$GNGLL,0420.00325,S,05539.81326,E,045912.00,A,A*67
$GNGRS,045912.00,1,-2.7,-0.8,-4.9,-0.2,1.6,0.3,0.2,3.0,,,,*5C
$GNGRS,045912.00,1,9.4,0.7,3.2,-0.3,7.1,,,,,,,*56
$GNGST,045912.00,206206,,,,2.6,3.1,6.9*4B
$GNZDA,045912.00,23,05,2025,00,00*72
$GNGBS,045912.00,2.6,3.1,6.9,,,,*5D
$GNTXT,01,01,01,More than 100 frame errors, UART RX was disabled*70
b0X8<}I#" O
A"-@ u2=P
.{4V^:R 
YeG!{0HIJ)KD"LXV OW#/Xrb8r}<$GNRMC,045913.00,A,0420.00325,S,05539.81326,E,0.039,,230525,,,A*76
$GNVTG,,T,,M,0.039,N,0.072,K,A*32
$GNGNS,045913.00,0420.00325,S,05539.81326,E,AA,13,0.83,18.5,-47.6,,*64
$GNGGA,045913.00,0420.00325,S,05539.81326,E,1,12,0.83,18.5,M,-47.6,M,,*4F
$GNGSA,A,3,24,20,05,13,15,22,12,18,,,,,1.67,0.83,1.44*1B
$GNGSA,A,3,74,75,87,71,72,,,,,,,,1.67,0.83,1.44*1B
$GPGSV,5,1,18,05,60,125,17,11,20,021,19,12,34,003,35,13,19,154,32*74
$GPGSV,5,2,18,14,01,131,26,15,28,188,23,18,24,233,30,20,45,064,34*72
$GPGSV,5,3,18,22,16,117,32,23,02,212,,24,61,237,21,25,11,336,*70
$GPGSV,5,4,18,29,10,302,,36,52,277,,40,86,350,,41,58,082,*74
$GPGSV,5,5,18,49,32,274,,50,10,089,*78
$GLGSV,3,1,09,71,15,123,33,72,17,173,20,73,00,151,25,74,41,136,15*68
$GLGSV,3,2,09,75,68,034,28,76,17,344,,86,32,335,,87,35,279,11*67
$GLGSV,3,3,09,88,03,227,*58
$GNGLL,0420.00325,S,05539.81326,E,045913.00,A,A*66
$GNGRS,045913.00,1,-3.2,-0.6,-7.0,0.8,1.9,0.5,0.1,-0.3,,,,*5D
$GNGRS,045913.00,1,9.5,-3.2,3.0,-2.1,5.3,,,,,,,*7F
$GNGST,045913.00,3299292,,,,2.6,3.1,7.0*7A
$GNZDA,045913.00,23,05,2025,00,00*73
$GNGBS,045913.00,2.6,3.1,7.0,,,,*54
$GNTXT,01,01,01,More than 100 frame errors, UART RX was disabled*70
b0X <}L$"#
%V"-@\ u4=P
.{4V^:R 
YeG#{HWIJ)KD"cLXV OW#MXpb r<$$GNRMC,045914.00,A,0420.00324,S,05539.81325,E,0.061,,230525,,,A*7E
$GNVTG,,T,,M,0.061,N,0.113,K,A*39
$GNGNS,045914.00,0420.00324,S,05539.81325,E,AA,13,0.93,18.5,-47.6,,*60
$GNGGA,045914.00,0420.00324,S,05539.81325,E,1,12,0.93,18.5,M,-47.6,M,,*4B
$GNGSA,A,3,24,20,05,13,15,22,12,18,,,,,1.75,0.93,1.48*15
$GNGSA,A,3,74,75,87,71,72,,,,,,,,1.75,0.93,1.48*15
$GPGSV,5,1,18,05,60,125,17,11,20,021,20,12,34,003,36,13,19,154,35*7A
$GPGSV,5,2,18,14,01,131,26,15,28,188,25,18,24,233,31,20,45,064,34*75
$GPGSV,5,3,18,22,16,117,32,23,02,212,,24,61,237,23,25,11,336,*72
$GPGSV,5,4,18,29,10,302,,36,52,277,,40,86,350,,41,58,082,*74
$GPGSV,5,5,18,49,32,274,,50,10,089,*78
$GLGSV,3,1,09,71,15,123,35,72,17,173,21,73,00,151,25,74,41,136,14*6E
$GLGSV,3,2,09,75,68,034,30,76,17,344,,86,32,335,,87,35,279,07*69
$GLGSV,3,3,09,88,03,227,*58
$GNGLL,0420.00324,S,05539.81325,E,045914.00,A,A*63
$GNGRS,045914.00,1,-2.3,-1.6,-6.9,2.1,2.2,0.5,0.1,-1.7,,,,*55
$GNGRS,045914.00,1,10.1,-1.6,-42.7,-3.4,3.4,,,,,,,*58
$GNGST,045914.00,36,,,,2.6,3.0,7.0*41
$GNZDA,045914.00,23,05,2025,00,00*74
$GNGBS,045914.00,2.6,3.0,7.0,,,,*52
$GNTXT,01,01,01,More than 100 frame errors, UART RX was disabled*70
b0X<}!"A
:-@zu=LP
.{4V^:R 
Y
eG"{IHI`J)KD"-LXV OW#:Xbr<$GNRMC,045915.00,A,0420.00325,S,05539.81322,E,0.116,,230525,,,A*78
$GNVTG,,T,,M,0.116,N,0.214,K,A*3C
$GNGNS,045915.00,0420.00325,S,05539.81322,E,AA,13,0.83,18.5,-47.6,,*66
$GNGGA,045915.00,0420.00325,S,05539.81322,E,1,12,0.83,18.5,M,-47.6,M,,*4D
$GNGSA,A,3,24,20,05,13,15,22,12,18,,,,,1.67,0.83,1.44*1B
$GNGSA,A,3,74,75,87,71,72,,,,,,,,1.67,0.83,1.44*1B
$GPGSV,5,1,18,05,60,125,16,11,20,021,19,12,34,003,33,13,19,154,30*71
$GPGSV,5,2,18,14,01,131,26,15,28,188,24,18,24,233,30,20,45,064,31*70
$GPGSV,5,3,18,22,16,117,31,23,02,212,,24,61,237,24,25,11,336,*76
$GPGSV,5,4,18,29,10,302,,36,52,277,,40,86,350,,41,58,082,*74
$GPGSV,5,5,18,49,32,274,,50,10,089,*78
$GLGSV,3,1,09,71,15,123,34,72,17,173,21,73,00,151,25,74,41,136,16*6D
$GLGSV,3,2,09,75,68,034,30,76,17,344,,86,32,335,,87,35,279,11*6E
$GLGSV,3,3,09,88,03,227,*58
$GNGLL,0420.00325,S,05539.81322,E,045915.00,A,A*64
$GNGRS,045915.00,1,-4.4,-1.3,-7.9,3.2,2.3,-3.3,0.0,0.0,,,,*50
$GNGRS,045915.00,1,10.2,3.0,3.1,-1.8,2.8,,,,,,,*6E
$GNGST,045915.00,3299292,,,,2.6,3.0,7.0*7D
$GNZDA,045915.00,23,05,2025,00,00*75
$GNGBS,045915.00,2.6,3.0,7.0,,,,*53
$GNTXT,01,01,01,More than 100 frame errors, UART RX was disabled*70
b0X<}$"!
]t"-@yu=+P
.{4V^:R 
YeG"{HIJ)KD"LXV OW#)X%5br<V$GNRMC,045916.00,A,0420.00327,S,05539.81317,E,0.023,,230525,,,A*78
$GNVTG,,T,,M,0.023,N,0.042,K,A*3A
$GNGNS,045916.00,0420.00327,S,05539.81317,E,AA,13,0.83,18.5,-47.6,,*61
$GNGGA,045916.00,0420.00327,S,05539.81317,E,1,12,0.83,18.5,M,-47.6,M,,*4A
$GNGSA,A,3,24,20,05,13,15,22,12,18,,,,,1.67,0.83,1.44*1B
$GNGSA,A,3,74,75,87,71,72,,,,,,,,1.67,0.83,1.44*1B
$GPGSV,5,1,18,05,60,125,15,11,20,021,18,12,34,003,36,13,19,154,33*75
$GPGSV,5,2,18,14,01,131,25,15,28,188,24,18,24,234,30,20,45,064,34*71
$GPGSV,5,3,18,22,16,117,31,23,02,212,,24,61,237,23,25,11,336,*71
$GPGSV,5,4,18,29,10,302,,36,52,277,,40,86,350,,41,58,082,*74
$GPGSV,5,5,18,49,32,274,,50,10,089,*78
$GLGSV,3,1,09,71,15,123,34,72,17,173,21,73,00,151,23,74,41,136,14*69
$GLGSV,3,2,09,75,68,034,30,76,17,344,,86,32,335,,87,35,279,11*6E
$GLGSV,3,3,09,88,03,227,*58
$GNGLL,0420.00327,S,05539.81317,E,045916.00,A,A*63
$GNGRS,045916.00,1,-4.7,-1.4,-8.8,2.0,0.9,-2.6,0.2,1.2,,,,*57
$GNGRS,045916.00,1,9.8,4.0,3.0,-2.7,1.8,,,,,,,*56
$GNGST,045916.00,3299292,,,,2.6,3.0,7.0*7E
$GNZDA,045916.00,23,05,2025,00,00*76
$GNGBS,045916.00,2.6,3.0,7.0,,,,*50
$GNTXT,01,01,01,More than 100 frame errors, UART RX was disabled*70
b0X<}$"!(
:!#-@#u=QP
.{4V^:R 
YeG'{H{IJ)~K"D"LXV OW#,XKbrk<.M$GNRMC,045917.00,A,0420.00326,S,05539.81313,E,0.006,,230525,,,A*7B
$GNVTG,,T,,M,0.006,N,0.012,K,A*38
$GNGNS,045917.00,0420.00326,S,05539.81313,E,AA,13,0.93,18.7,-47.6,,*66
$GNGGA,045917.00,0420.00326,S,05539.81313,E,1,12,0.93,18.7,M,-47.6,M,,*4D
$GNGSA,A,3,24,20,05,13,15,22,12,18,,,,,1.75,0.93,1.48*15
$GNGSA,A,3,74,75,87,71,72,,,,,,,,1.75,0.93,1.48*15
$GPGSV,5,1,18,05,60,125,14,11,20,021,19,12,34,003,36,13,19,154,33*75
$GPGSV,5,2,18,14,01,131,26,15,28,188,25,18,24,234,33,20,45,064,35*71
$GPGSV,5,3,18,22,16,117,35,23,02,212,,24,61,237,23,25,11,336,*75
$GPGSV,5,4,18,29,10,302,,36,52,277,,40,86,350,,41,58,082,*74
$GPGSV,5,5,18,49,32,274,,50,10,089,*78
$GLGSV,3,1,09,71,15,123,39,72,17,173,22,73,00,151,25,74,41,136,13*66
$GLGSV,3,2,09,75,68,034,34,76,17,344,,86,32,335,,87,35,279,12*69
$GLGSV,3,3,09,88,03,227,*58
$GNGLL,0420.00326,S,05539.81313,E,045917.00,A,A*67
$GNGRS,045917.00,1,-4.3,-2.9,-11.5,-2.2,2.8,-2.3,0.2,-0.3,,,,*6D
$GNGRS,045917.00,1,11.5,4.0,-38.0,-1.0,1.2,,,,,,,*78
$GNGST,045917.00,42,,,,2.6,3.0,7.0*41
$GNZDA,045917.00,23,05,2025,00,00*77
$GNGBS,045917.00,2.6,3.0,7.0,,,,*51
$GNTXT,01,01,01,More than 100 frame errors, UART RX was disabled*70
b0X<}$"!
 M!"-?"u=OP
.{4V^:R 
YeG%{HIJ)K!D"vLXV OW#NX}brS<$GNRMC,045918.00,A,0420.00322,S,05539.81316,E,0.032,,230525,,,A*72
$GNVTG,,T,,M,0.032,N,0.059,K,A*30
$GNGNS,045918.00,0420.00322,S,05539.81316,E,AA,13,0.83,18.6,-47.6,,*68
$GNGGA,045918.00,0420.00322,S,05539.81316,E,1,12,0.83,18.6,M,-47.6,M,,*43
$GNGSA,A,3,24,20,05,13,15,22,12,18,,,,,1.67,0.83,1.44*1B
$GNGSA,A,3,74,75,87,71,72,,,,,,,,1.67,0.83,1.44*1B
$GPGSV,5,1,18,05,60,125,16,11,20,021,21,12,34,003,36,13,19,154,33*7C
$GPGSV,5,2,18,14,01,131,27,15,28,188,24,18,24,234,33,20,45,063,34*77
$GPGSV,5,3,18,22,16,117,34,23,02,212,,24,61,237,25,25,11,336,*72
$GPGSV,5,4,18,29,10,302,,36,52,277,,40,86,350,,41,58,082,*74
$GPGSV,5,5,18,49,32,274,,50,10,089,*78
$GLGSV,3,1,09,71,15,123,37,72,17,173,23,73,00,151,26,74,41,136,15*6C
$GLGSV,3,2,09,75,68,034,33,76,17,344,,86,32,335,,87,35,279,11*6D
$GLGSV,3,3,09,88,03,227,*58
$GNGLL,0420.00322,S,05539.81316,E,045918.00,A,A*69
$GNGRS,045918.00,1,-6.9,-1.0,-8.9,-2.9,3.3,-3.2,0.2,-3.5,,,,*50
$GNGRS,045918.00,1,12.3,-1.4,3.3,-0.6,0.2,,,,,,,*4E
$GNGST,045918.00,3299292,,,,2.6,2.9,7.0*78
$GNZDA,045918.00,23,05,2025,00,00*78
$GNGBS,045918.00,2.6,2.9,7.0,,,,*56
$GNTXT,01,01,01,More than 100 frame errors, UART RX was disabled*70
b0X<}$"!D
*"-? v=^P
.{4V^:R 
YeG${H:IJ)5K!D"LXV OW#FXbr;<$GNRMC,045919.00,A,0420.00319,S,05539.81317,E,0.023,,230525,,,A*7A
$GNVTG,,T,,M,0.023,N,0.043,K,A*3B
$GNGNS,045919.00,0420.00319,S,05539.81317,E,AA,13,0.83,18.5,-47.6,,*63
$GNGGA,045919.00,0420.00319,S,05539.81317,E,1,12,0.83,18.5,M,-47.6,M,,*48
$GNGSA,A,3,24,20,05,13,15,22,12,18,,,,,1.67,0.83,1.44*1B
$GNGSA,A,3,74,75,87,71,72,,,,,,,,1.67,0.83,1.44*1B
$GPGSV,5,1,18,05,60,125,19,11,20,021,21,12,34,003,36,13,19,154,33*73
$GPGSV,5,2,18,14,01,131,26,15,28,188,25,18,24,234,31,20,45,063,34*75
$GPGSV,5,3,18,22,16,118,32,23,02,212,,24,61,237,26,25,11,336,*78
$GPGSV,5,4,18,29,10,302,,36,52,277,,40,86,350,,41,58,082,*74
$GPGSV,5,5,18,49,32,274,,50,10,089,*78
$GLGSV,3,1,09,71,15,123,36,72,17,173,24,73,00,151,28,74,41,136,16*67
$GLGSV,3,2,09,75,68,034,33,76,17,344,,86,32,335,,87,35,279,13*6F
$GLGSV,3,3,09,88,03,227,*58
$GNGLL,0420.00319,S,05539.81317,E,045919.00,A,A*61
$GNGRS,045919.00,1,-6.7,-0.9,-11.4,-1.9,3.0,-0.5,0.1,-2.3,,,,*62
$GNGRS,045919.00,1,13.3,0.1,3.3,-0.5,0.6,,,,,,,*60
$GNGST,045919.00,3299292,,,,2.6,2.9,6.9*71
$GNZDA,045919.00,23,05,2025,00,00*79
$GNGBS,045919.00,2.6,2.9,6.9,,,,*5F
$GNTXT,01,01,01,More than 100 frame errors, UART RX was disabled*70
b0X<}N$" /
5 -? v=vP
.{4V^:R 
YeG#{HIGJ);K D"LXV OW#X`br#<$GNRMC,045920.00,A,0420.00318,S,05539.81317,E,0.051,,230525,,,A*74
$GNVTG,,T,,M,0.051,N,0.094,K,A*34
$GNGNS,045920.00,0420.00318,S,05539.81317,E,AA,13,0.83,18.4,-47.6,,*69
$GNGGA,045920.00,0420.00318,S,05539.81317,E,1,12,0.83,18.4,M,-47.6,M,,*42
$GNGSA,A,3,24,20,05,13,15,22,12,18,,,,,1.67,0.83,1.44*1B
$GNGSA,A,3,74,75,87,71,72,,,,,,,,1.67,0.83,1.44*1B
$GPGSV,5,1,18,05,60,125,18,11,20,021,20,12,34,003,36,13,19,154,32*72
$GPGSV,5,2,18,14,01,131,26,15,28,188,24,18,24,234,31,20,45,063,32*72
$GPGSV,5,3,18,22,16,118,32,23,03,212,,24,61,237,25,25,11,336,*7A
$GPGSV,5,4,18,29,10,302,,36,52,277,,40,86,350,,41,58,082,*74
$GPGSV,5,5,18,49,32,274,,50,10,089,*78
$GLGSV,3,1,09,71,15,123,35,72,17,173,23,73,00,151,27,74,41,136,16*6C
$GLGSV,3,2,09,75,68,034,32,76,17,344,,86,32,335,,87,35,279,16*6B
$GLGSV,3,3,09,88,03,227,*58
$GNGLL,0420.00318,S,05539.81317,E,045920.00,A,A*6A
$GNGRS,045920.00,1,-6.5,-1.1,-9.5,3.0,3.1,0.2,0.0,-1.2,,,,*55
$GNGRS,045920.00,1,10.8,2.4,-17.7,-0.7,-0.1,,,,,,,*51
$GNGST,045920.00,42,,,,2.5,2.9,6.9*46
$GNZDA,045920.00,23,05,2025,00,00*73
$GNGBS,045920.00,2.5,2.9,6.9,,,,*56
$GNTXT,01,01,01,More than 100 frame errors, UART RX was disabled*70
b0Xx"<}$"!W
wk!o!-?} v=KP
.{4V^:R 
Ye0G#{HbIJ)K D"KLXV OW#NXbx"r<$GNRMC,045921.00,A,0420.00317,S,05539.81318,E,0.014,,230525,,,A*74
$GNVTG,,T,,M,0.014,N,0.026,K,A*3C
$GNGNS,045921.00,0420.00317,S,05539.81318,E,AA,13,0.83,18.4,-47.6,,*68
$GNGGA,045921.00,0420.00317,S,05539.81318,E,1,12,0.83,18.4,M,-47.6,M,,*43
$GNGSA,A,3,24,20,05,13,15,22,12,18,,,,,1.67,0.83,1.44*1B
$GNGSA,A,3,74,75,87,71,72,,,,,,,,1.67,0.83,1.44*1B
$GPGSV,5,1,18,05,60,125,16,11,20,021,21,12,34,003,36,13,19,154,33*7C
$GPGSV,5,2,18,14,01,131,26,15,28,188,24,18,24,234,33,20,45,063,33*71
$GPGSV,5,3,18,22,16,118,32,23,03,212,,24,61,236,24,25,11,336,*7A
$GPGSV,5,4,18,29,10,302,,36,52,277,,40,86,350,,41,58,082,*74
$GPGSV,5,5,18,49,32,274,,50,10,089,*78
$GLGSV,3,1,09,71,15,123,35,72,17,173,22,73,00,151,26,74,41,136,16*6C
$GLGSV,3,2,09,75,68,034,32,76,17,344,,86,32,335,,87,35,279,09*65
$GLGSV,3,3,09,88,03,227,*58
$GNGLL,0420.00317,S,05539.81318,E,045921.00,A,A*6B
$GNGRS,045921.00,1,-4.4,1.3,-10.3,-1.7,3.6,-0.3,0.0,-1.4,,,,*43
$GNGRS,045921.00,1,10.5,3.3,3.3,-0.7,1.0,,,,,,,*6A
$GNGST,045921.00,3299292,,,,2.5,2.9,6.9*79
$GNZDA,045921.00,23,05,2025,00,00*72
$GNGBS,045921.00,2.5,2.9,6.9,,,,*57
$GNTXT,01,01,01,More than 100 frame errors, UART RX was disabled*70
b0X`&<}#"" 
"-?n v=P
.{4V^:R 
YeVG${HIJ)K D"LXV OW#SXab`&r<eR$GNRMC,045922.00,A,0420.00317,S,05539.81318,E,0.053,,230525,,,A*74
$GNVTG,,T,,M,0.053,N,0.097,K,A*35
$GNGNS,045922.00,0420.00317,S,05539.81318,E,AA,13,0.83,18.3,-47.6,,*6C
$GNGGA,045922.00,0420.00317,S,05539.81318,E,1,12,0.83,18.3,M,-47.6,M,,*47
$GNGSA,A,3,24,20,05,13,15,22,12,18,,,,,1.67,0.83,1.44*1B
$GNGSA,A,3,74,75,87,71,72,,,,,,,,1.67,0.83,1.44*1B
$GPGSV,5,1,18,05,60,125,12,11,20,021,21,12,34,003,35,13,19,154,32*7A
$GPGSV,5,2,18,14,01,131,27,15,28,188,24,18,24,234,31,20,45,063,34*75
$GPGSV,5,3,18,22,16,118,32,23,03,212,,24,61,236,24,25,12,336,*79
$GPGSV,5,4,18,29,10,302,,36,52,277,,40,86,350,,41,58,082,*74
$GPGSV,5,5,18,49,32,274,,50,10,089,*78
$GLGSV,3,1,09,71,15,123,36,72,17,173,22,73,00,151,26,74,41,136,17*6E
$GLGSV,3,2,09,75,68,034,32,76,17,344,,86,32,335,,87,35,279,13*6E
$GLGSV,3,3,09,88,03,227,*58
$GNGLL,0420.00317,S,05539.81318,E,045922.00,A,A*68
$GNGRS,045922.00,1,-5.0,-4.0,-13.9,0.0,2.8,1.5,0.3,-2.8,,,,*65
$GNGRS,045922.00,1,10.5,2.0,3.4,-0.5,-0.9,,,,,,,*4B
$GNGST,045922.00,3299292,,,,2.5,2.8,6.9*7B
$GNZDA,045922.00,23,05,2025,00,00*71
$GNGBS,045922.00,2.5,2.8,6.9,,,,*55
$GNTXT,01,01,01,More than 100 frame errors, UART RX was disabled*70
b0XH*<}$" 0
QU"-?#!v=P
.{4V^:R 
Ye1G${HI/J)K D"LXV OW#:XbH*r<=$GNRMC,045923.00,A,0420.00318,S,05539.81320,E,0.011,,230525,,,A*77
$GNVTG,,T,,M,0.011,N,0.020,K,A*3F
$GNGNS,045923.00,0420.00318,S,05539.81320,E,AA,13,0.93,18.4,-47.6,,*6F
$GNGGA,045923.00,0420.00318,S,05539.81320,E,1,12,0.93,18.4,M,-47.6,M,,*44
$GNGSA,A,3,24,20,05,13,15,22,12,18,,,,,1.75,0.93,1.48*15
$GNGSA,A,3,74,75,87,71,72,,,,,,,,1.75,0.93,1.48*15
$GPGSV,5,1,18,05,60,125,13,11,20,021,22,12,34,003,36,13,19,154,32*7B
$GPGSV,5,2,18,14,01,131,26,15,28,188,26,18,24,234,31,20,45,063,34*76
$GPGSV,5,3,18,22,16,118,33,23,03,212,,24,61,236,25,25,12,336,*79
$GPGSV,5,4,18,29,10,302,,36,52,277,,40,86,350,,41,58,082,*74
$GPGSV,5,5,18,49,32,274,,50,10,089,*78
$GLGSV,3,1,09,71,15,123,36,72,17,173,22,73,00,151,24,74,41,136,17*6C
$GLGSV,3,2,09,75,68,034,32,76,17,344,,86,32,335,,87,35,279,08*64
$GLGSV,3,3,09,88,03,227,*58
$GNGLL,0420.00318,S,05539.81320,E,045923.00,A,A*6D
$GNGRS,045923.00,1,-3.8,0.3,-15.5,0.5,3.9,0.1,0.2,-1.7,,,,*47
$GNGRS,045923.00,1,10.4,2.0,150,-0.7,-0.9,,,,,,,*54
$GNGST,045923.00,37,,,,2.5,2.8,6.9*46
$GNZDA,045923.00,23,05,2025,00,00*70
$GNGBS,045923.00,2.5,2.8,6.9,,,,*54
$GNTXT,01,01,01,More than 100 frame errors, UART RX was disabled*70
b0X0.<}#"
l !-? v'=P
.{4V^:R 
YeG!{HaIJ)%K D"LXV OW#@X}b0.r<"$GNRMC,045924.00,A,0420.00315,S,05539.81318,E,0.134,,230525,,,A*70
$GNVTG,,T,,M,0.134,N,0.248,K,A*35
$GNGNS,045924.00,0420.00315,S,05539.81318,E,AA,13,0.83,18.3,-47.6,,*68
$GNGGA,045924.00,0420.00315,S,05539.81318,E,1,12,0.83,18.3,M,-47.6,M,,*43
$GNGSA,A,3,24,20,05,13,15,22,12,18,,,,,1.67,0.83,1.44*1B
$GNGSA,A,3,74,75,87,71,72,,,,,,,,1.67,0.83,1.44*1B
$GPGSV,5,1,18,05,60,125,19,11,20,021,21,12,34,003,35,13,19,154,31*72
$GPGSV,5,2,18,14,01,131,26,15,28,188,25,18,24,234,31,20,45,063,33*72
$GPGSV,5,3,18,22,16,118,32,23,03,212,,24,61,236,25,25,12,336,*78
$GPGSV,5,4,18,29,10,302,,36,52,277,,40,86,350,,41,58,082,*74
$GPGSV,5,5,18,49,32,274,,50,10,089,*78
$GLGSV,3,1,09,71,15,123,33,72,17,173,22,73,00,151,21,74,41,136,17*6C
$GLGSV,3,2,09,75,68,034,32,76,17,344,,86,32,335,,87,35,279,11*6C
$GLGSV,3,3,09,88,03,227,*58
$GNGLL,0420.00315,S,05539.81318,E,045924.00,A,A*6C
$GNGRS,045924.00,1,-2.6,-3.4,-15.1,-0.4,2.6,0.4,-0.2,2.9,,,,*48
$GNGRS,045924.00,1,10.6,1.9,3.2,-0.8,-1.6,,,,,,,*41
$GNGST,045924.00,3326,,,,2.5,2.8,6.9*41
$GNZDA,045924.00,23,05,2025,00,00*77
$GNGBS,045924.00,2.5,2.8,6.9,,,,*53
$GNTXT,01,01,01,More than 100 frame errors, UART RX was disabled*70
b0X2<}#" 
4 )"-?.!v=P
.{4V^:R 
YeG${HIJ)rKD"PLXV OW#?Xb2r<$GNRMC,045925.00,A,0420.00314,S,05539.81319,E,0.037,,230525,,,A*73
$GNVTG,,T,,M,0.037,N,0.068,K,A*37
$GNGNS,045925.00,0420.00314,S,05539.81319,E,AA,13,0.83,18.4,-47.6,,*6E
$GNGGA,045925.00,0420.00314,S,05539.81319,E,1,12,0.83,18.4,M,-47.6,M,,*45
$GNGSA,A,3,24,20,05,13,15,22,12,18,,,,,1.67,0.83,1.44*1B
$GNGSA,A,3,74,75,87,71,72,,,,,,,,1.67,0.83,1.44*1B
$GPGSV,5,1,18,05,60,125,19,11,20,021,21,12,34,003,35,13,19,154,32*71
$GPGSV,5,2,18,14,01,131,24,15,28,188,24,18,24,234,32,20,45,063,34*75
$GPGSV,5,3,18,22,16,118,33,23,03,212,,24,61,236,25,25,12,336,*79
$GPGSV,5,4,18,29,10,302,,36,52,277,,40,86,350,,41,58,082,*74
$GPGSV,5,5,18,49,32,274,,50,10,089,*78
$GLGSV,3,1,09,71,15,123,36,72,17,173,21,73,00,151,18,74,41,136,16*61
$GLGSV,3,2,09,75,68,034,31,76,17,344,,86,32,335,,87,35,279,11*6F
$GLGSV,3,3,09,88,03,227,*58
$GNGLL,0420.00314,S,05539.81319,E,045925.00,A,A*6D
$GNGRS,045925.00,1,-2.8,-2.1,-13.4,-2.9,4.0,-3.1,-0.2,-2.1,,,,*41
$GNGRS,045925.00,1,11.4,3.4,3.2,-0.7,-0.5,,,,,,,*41
$GNGST,045925.00,4989,,,,2.5,2.8,6.9*48
$GNZDA,045925.00,23,05,2025,00,00*76
$GNGBS,045925.00,2.5,2.8,6.9,,,,*52
$GNTXT,01,01,01,More than 100 frame errors, UART RX was disabled*70
b0X6<}#"!
E "-?"vD=P
/{4V^:R 
YeG${HIJ)KD"
LXV OW#Xb6r<$GNRMC,045926.00,A,0420.00313,S,05539.81318,E,0.037,,230525,,,A*76
$GNVTG,,T,,M,0.037,N,0.068,K,A*37
$GNGNS,045926.00,0420.00313,S,05539.81318,E,AA,13,0.93,18.3,-47.6,,*6D
$GNGGA,045926.00,0420.00313,S,05539.81318,E,1,12,0.93,18.3,M,-47.6,M,,*46
$GNGSA,A,3,24,20,05,13,15,22,12,18,,,,,1.75,0.93,1.48*15
$GNGSA,A,3,74,75,87,71,72,,,,,,,,1.75,0.93,1.48*15
$GPGSV,5,1,18,05,60,125,17,11,20,021,22,12,34,003,35,13,19,154,33*7D
$GPGSV,5,2,18,14,01,131,24,15,28,188,23,18,24,234,32,20,45,063,34*72
$GPGSV,5,3,18,22,16,118,34,23,03,212,,24,61,236,25,25,12,336,*7E
$GPGSV,5,4,18,29,10,303,,36,52,277,,40,86,350,,41,58,082,*75
$GPGSV,5,5,18,49,32,274,,50,10,089,*78
$GLGSV,3,1,09,71,15,123,36,72,17,173,21,73,00,151,18,74,41,136,15*62
$GLGSV,3,2,09,75,68,034,31,76,17,344,,86,32,335,,87,35,279,08*67
$GLGSV,3,3,09,88,03,227,*58
$GNGLL,0420.00313,S,05539.81318,E,045926.00,A,A*68
$GNGRS,045926.00,1,-2.3,-2.4,-13.1,0.0,3.3,-1.9,0.0,-2.4,,,,*4B
$GNGRS,045926.00,1,11.8,0.1,63.3,-0.4,0.1,,,,,,,*55
$GNGST,045926.00,36,,,,2.5,2.8,6.9*42
$GNZDA,045926.00,23,05,2025,00,00*75
$GNGBS,045926.00,2.5,2.8,6.9,,,,*51
$GNTXT,01,01,01,More than 100 frame errors, UART RX was disabled*70
b0X9<}#"!
N"-?j v=P
/{4V^:R: 
YeG!{HIJ)KD"LXV OW#LXb9r{<K$GNRMC,045927.00,A,0420.00314,S,05539.81320,E,0.045,,230525,,,A*7E
$GNVTG,,T,,M,0.045,N,0.084,K,A*30
$GNGNS,045927.00,0420.00314,S,05539.81320,E,AA,13,0.83,18.5,-47.6,,*67
$GNGGA,045927.00,0420.00314,S,05539.81320,E,1,12,0.83,18.5,M,-47.6,M,,*4C
$GNGSA,A,3,24,20,05,13,15,22,12,18,,,,,1.67,0.83,1.44*1B
$GNGSA,A,3,74,75,87,71,72,,,,,,,,1.67,0.83,1.44*1B
$GPGSV,5,1,18,05,60,125,19,11,20,021,21,12,34,003,35,13,19,154,33*70
$GPGSV,5,2,18,14,01,131,24,15,28,188,24,18,24,234,31,20,45,063,34*76
$GPGSV,5,3,18,22,16,118,32,23,03,212,,24,61,236,25,25,12,336,*78
$GPGSV,5,4,18,29,10,303,,36,52,277,,40,86,350,,41,58,082,27*70
$GPGSV,5,5,18,49,32,274,,50,10,089,*78
$GLGSV,3,1,09,71,15,123,33,72,17,173,22,73,00,151,21,74,41,136,14*6F
$GLGSV,3,2,09,75,68,034,31,76,17,344,,86,32,335,,87,35,279,11*6F
$GLGSV,3,3,09,88,03,227,*58
$GNGLL,0420.00314,S,05539.81320,E,045927.00,A,A*65
$GNGRS,045927.00,1,-1.2,-1.5,-12.8,2.5,3.3,0.2,0.0,-2.9,,,,*6F
$GNGRS,045927.00,1,12.5,7.2,3.3,-0.5,-0.5,,,,,,,*40
$GNGST,045927.00,3299292,,,,2.5,2.7,6.9*71
$GNZDA,045927.00,23,05,2025,00,00*74
$GNGBS,045927.00,2.5,2.7,6.9,,,,*5F
$GNTXT,01,01,01,More than 100 frame errors, UART RX was disabled*70
b0X=<}u""
`>!-?/v=P
/{4V^:R: 
YeG${H"IJ)KD"LXV OW#KXkb=rc<t$GNRMC,045928.00,A,0420.00314,S,05539.81320,E,0.035,,230525,,,A*76
$GNVTG,,T,,M,0.035,N,0.065,K,A*38
$GNGNS,045928.00,0420.00314,S,05539.81320,E,AA,13,0.93,18.4,-47.6,,*68
$GNGGA,045928.00,0420.00314,S,05539.81320,E,1,12,0.93,18.4,M,-47.6,M,,*43
$GNGSA,A,3,24,20,05,13,15,22,12,18,41,,,,1.75,0.93,1.48*10
$GNGSA,A,3,74,75,71,72,,,,,,,,,1.75,0.93,1.48*1A
$GPGSV,5,1,18,05,60,125,18,11,20,021,21,12,34,003,34,13,19,154,31*72
$GPGSV,5,2,18,14,01,131,22,15,28,188,23,18,24,234,30,20,45,063,33*71
$GPGSV,5,3,18,22,16,118,31,23,03,212,,24,61,236,23,25,12,336,*7D
$GPGSV,5,4,18,29,10,303,,36,52,277,,40,86,350,,41,58,082,27*70
$GPGSV,5,5,18,49,32,274,,50,10,089,*78
$GLGSV,3,1,09,71,15,123,36,72,17,173,22,73,00,151,22,74,41,136,13*6E
$GLGSV,3,2,09,75,68,034,30,76,17,344,,86,32,335,,87,35,279,07*69
$GLGSV,3,3,09,88,03,227,*58
$GNGLL,0420.00314,S,05539.81320,E,045928.00,A,A*6A
$GNGRS,045928.00,1,-0.8,-2.1,-11.6,1.3,3.2,-0.6,0.2,-2.4,151,,,*76
$GNGRS,045928.00,1,12.8,2.3,-0.4,-2.2,,,,,,,,*6C
$GNGST,045928.00,39,,,,2.5,2.7,6.9*4C
$GNZDA,045928.00,23,05,2025,00,00*7B
$GNGBS,045928.00,2.5,2.7,6.9,,,,*50
$GNTXT,01,01,01,More than 100 frame errors, UART RX was disabled*70
b0XA<}""
9M!-?9v=$P
/{4V^:R8 
YeG#{HIJ),KD"cLXV OW#).Xa1bArK<L$GNRMC,045929.00,A,0420.00315,S,05539.81319,E,0.081,,230525,,,A*73
$GNVTG,,T,,M,0.081,N,0.151,K,A*31
$GNGNS,045929.00,0420.00315,S,05539.81319,E,AA,14,0.93,18.4,-47.6,,*65
$GNGGA,045929.00,0420.00315,S,05539.81319,E,1,12,0.93,18.4,M,-47.6,M,,*49
$GNGSA,A,3,24,20,05,13,15,22,12,18,41,,,,1.75,0.93,1.48*10
$GNGSA,A,3,74,75,87,71,72,,,,,,,,1.75,0.93,1.48*15
$GPGSV,5,1,18,05,60,125,18,11,20,021,20,12,34,003,34,13,19,154,31*73
$GPGSV,5,2,18,14,01,131,21,15,28,188,23,18,24,234,30,20,45,063,33*72
$GPGSV,5,3,18,22,16,118,30,23,03,212,,24,61,236,24,25,12,336,*7B
$GPGSV,5,4,18,29,10,303,,36,52,277,,40,86,350,,41,58,082,28*7F
$GPGSV,5,5,18,49,32,274,,50,10,089,*78
$GLGSV,3,1,09,71,15,123,35,72,17,173,22,73,00,151,22,74,41,136,11*6F
$GLGSV,3,2,09,75,68,034,30,76,17,344,,86,32,335,,87,35,279,11*6E
$GLGSV,3,3,09,88,03,227,*58
$GNGLL,0420.00315,S,05539.81319,E,045929.00,A,A*60
$GNGRS,045929.00,1,-2.2,-2.0,-11.2,0.0,3.3,-0.9,0.1,-2.7,146,,,*70
$GNGRS,045929.00,1,13.2,3.5,118,-0.4,-1.2,,,,,,,*5A
$GNGST,045929.00,40,,,,2.6,2.7,7.0*48
$GNZDA,045929.00,23,05,2025,00,00*7A
$GNGBS,045929.00,2.6,2.7,7.0,,,,*5A
$GNTXT,01,01,01,More than 100 frame errors, UART RX was disabled*70
b0XE<}S""Q
+C"$-?; v=P
/{4V^:R8 
YeG%{HIJ)!KD"LXV OW
#DX`bEr3<$$GNRMC,045930.00,A,0420.00315,S,05539.81319,E,0.069,,230525,,,A*7D
$GNVTG,,T,,M,0.069,N,0.127,K,A*36
$GNGNS,045930.00,0420.00315,S,05539.81319,E,AA,14,0.83,18.4,-47.6,,*6C
$GNGGA,045930.00,0420.00315,S,05539.81319,E,1,12,0.83,18.4,M,-47.6,M,,*40
$GNGSA,A,3,24,20,05,13,15,22,12,18,41,,,,1.67,0.83,1.44*1E
$GNGSA,A,3,74,75,87,71,72,,,,,,,,1.67,0.83,1.44*1B
$GPGSV,5,1,18,05,60,125,18,11,20,021,20,12,34,003,34,13,19,154,31*73
$GPGSV,5,2,18,14,01,131,19,15,28,188,23,18,24,234,34,20,45,063,36*78
$GPGSV,5,3,18,22,16,118,32,23,03,212,,24,61,236,25,25,12,336,*78
$GPGSV,5,4,18,29,10,303,,36,52,277,,40,86,350,,41,58,082,28*7F
$GPGSV,5,5,18,49,32,274,,50,10,089,*78
$GLGSV,3,1,09,71,15,123,37,72,17,173,22,73,00,151,23,74,41,136,11*6C
$GLGSV,3,2,09,75,68,034,31,76,17,344,,86,32,335,,87,35,279,10*6E
$GLGSV,3,3,09,88,03,227,*58
$GNGLL,0420.00315,S,05539.81319,E,045930.00,A,A*68
$GNGRS,045930.00,1,-3.5,-2.0,-9.4,0.8,3.2,-5.1,0.1,-3.7,146,,,*44
$GNGRS,045930.00,1,13.1,1.8,3.2,-0.6,-0.9,,,,,,,*41
$GNGST,045930.00,3300339,,,,2.6,2.7,7.0*7D
$GNZDA,045930.00,23,05,2025,00,00*72
$GNGBS,045930.00,2.6,2.7,7.0,,,,*52
$GNTXT,01,01,01,More than 100 frame errors, UART RX was disabled*70
b0XI<}#" 
@!$-?8!v=P
/{4V^:RP8 
YeG&{HIJ):KD"DLXV OW#5XbIr<$GNRMC,045931.00,A,0420.00316,S,05539.81316,E,0.020,,230525,,,A*7D
$GNVTG,,T,,M,0.020,N,0.037,K,A*3B
$GNGNS,045931.00,0420.00316,S,05539.81316,E,AA,14,0.84,18.4,-47.6,,*66
$GNGGA,045931.00,0420.00316,S,05539.81316,E,1,12,0.84,18.4,M,-47.6,M,,*4A
$GNGSA,A,3,24,20,05,13,15,22,12,18,41,,,,1.67,0.84,1.44*19
$GNGSA,A,3,74,75,87,71,72,,,,,,,,1.67,0.84,1.44*1C
$GPGSV,5,1,18,05,60,125,18,11,20,021,21,12,34,003,35,13,19,154,32*70
$GPGSV,5,2,18,14,01,131,19,15,28,188,24,18,24,234,33,20,45,063,36*78
$GPGSV,5,3,18,22,16,118,33,23,03,212,,24,61,236,25,25,12,336,*79
$GPGSV,5,4,18,29,10,303,,36,52,277,,40,86,350,,41,58,082,29*7E
$GPGSV,5,5,18,49,32,274,,50,10,089,*78
$GLGSV,3,1,09,71,15,123,38,72,17,173,22,73,00,151,26,74,41,136,14*63
$GLGSV,3,2,09,75,68,034,31,76,17,344,,86,32,335,,87,35,279,11*6F
$GLGSV,3,3,09,88,03,227,*58
$GNGLL,0420.00316,S,05539.81316,E,045931.00,A,A*65
$GNGRS,045931.00,1,-4.8,-2.0,-10.1,1.5,4.0,-0.3,0.1,0.1,144,,,*56
$GNGRS,045931.00,1,13.4,5.8,3.1,-0.8,-2.5,,,,,,,*42
$GNGST,045931.00,3300339,,,,2.6,2.7,7.0*7C
$GNZDA,045931.00,23,05,2025,00,00*73
$GNGBS,045931.00,2.6,2.7,7.0,,,,*53
$GNTXT,01,01,01,More than 100 frame errors, UART RX was disabled*70
b0XpM<}_#"!o
X ^#-?!vf=P
/{4V^:R9 
YeG&{HTI VJ
)KD"(LXV OW#XgbpMr<S$GNRMC,045932.00,A,0420.00315,S,05539.81315,E,0.080,,230525,,,A*74
$GNVTG,,T,,M,0.080,N,0.148,K,A*38
$GNGNS,045932.00,0420.00315,S,05539.81315,E,AA,14,0.90,18.4,-47.6,,*60
$GNGGA,045932.00,0420.00315,S,05539.81315,E,1,12,0.90,18.4,M,-47.6,M,,*4C
$GNGSA,A,3,24,20,05,13,15,22,12,18,41,,,,1.63,0.90,1.36*1D
$GNGSA,A,3,74,75,87,71,72,,,,,,,,1.63,0.90,1.36*18
$GPGSV,5,1,18,05,60,125,19,11,20,021,21,12,34,003,35,13,19,154,31*72
$GPGSV,5,2,18,14,01,131,17,15,28,188,23,18,24,234,32,20,45,063,35*73
$GPGSV,5,3,18,22,16,118,33,23,03,212,,24,61,236,25,25,12,336,*79
$GPGSV,5,4,18,29,10,303,,36,52,277,,40,86,350,,41,58,082,28*7F
$GPGSV,5,5,18,49,32,274,,50,10,089,*78
$GLGSV,3,1,09,71,15,123,38,72,17,173,21,73,00,151,32,74,41,136,10*61
$GLGSV,3,2,09,75,68,034,31,76,17,344,,86,32,335,,87,35,279,13*6D
$GLGSV,3,3,09,88,03,227,*58
$GNGLL,0420.00315,S,05539.81315,E,045932.00,A,A*66
$GNGRS,045932.00,1,-5.2,-2.3,-9.3,6.2,3.4,-4.1,0.3,-4.2,147,,,*49
$GNGRS,045932.00,1,14.3,5.5,44.9,-0.8,-1.7,,,,,,,*76
$GNGST,045932.00,42,,,,2.6,2.6,7.0*41
$GNZDA,045932.00,23,05,2025,00,00*70
$GNGBS,045932.00,2.6,2.6,7.0,,,,*51
$GNTXT,01,01,01,More than 100 frame errors, UART RX was disabled*70
b0XXQ<}>#"%
 /!-? v=\P
/{4V^:RH9 
YeG${HI IJ
)KD"LXV OW
#RXO'bXQr<$GNRMC,045933.00,A,0420.00314,S,05539.81317,E,0.038,,230525,,,A*75
$GNVTG,,T,,M,0.038,N,0.071,K,A*30
$GNGNS,045933.00,0420.00314,S,05539.81317,E,AA,14,0.80,18.4,-47.6,,*63
$GNGGA,045933.00,0420.00314,S,05539.81317,E,1,12,0.80,18.4,M,-47.6,M,,*4F
$GNGSA,A,3,24,20,05,13,15,22,12,18,41,,,,1.53,0.80,1.31*18
$GNGSA,A,3,74,75,87,71,72,,,,,,,,1.53,0.80,1.31*1D
$GPGSV,5,1,18,05,60,125,19,11,20,021,22,12,34,003,35,13,19,154,30*70
$GPGSV,5,2,18,14,01,131,15,15,28,188,22,18,24,234,32,20,45,063,33*76
$GPGSV,5,3,18,22,16,118,32,23,03,212,,24,61,236,24,25,12,336,*79
$GPGSV,5,4,18,29,10,303,,36,52,277,,40,86,350,,41,58,082,27*70
$GPGSV,5,5,18,49,32,274,,50,10,089,*78
$GLGSV,3,1,09,71,15,123,36,72,17,173,20,73,00,151,32,74,41,136,10*6E
$GLGSV,3,2,09,75,68,034,30,76,17,344,,86,32,335,,87,35,279,10*6F
$GLGSV,3,3,09,88,03,227,*58
$GNGLL,0420.00314,S,05539.81317,E,045933.00,A,A*64
$GNGRS,045933.00,1,-4.2,-2.3,-7.1,5.1,1.3,-1.0,0.4,-4.6,147,,,*47
$GNGRS,045933.00,1,-3.5,5.0,3.4,-1.0,-1.1,,,,,,,*5E
$GNGST,045933.00,3179283,,,,2.6,2.6,7.0*73
$GNZDA,045933.00,23,05,2025,00,00*71
$GNGBS,045933.00,2.6,2.6,7.0,,,,*50
$GNTXT,01,01,01,More than 100 frame errors, UART RX was disabled*70
b0X@U<}""/
 "-?!v=P
/{4V^:R9 
Ye&G${HLIJ)KD"LXV OW#[Xanb@Ur< $GNRMC,045934.00,A,0420.00311,S,05539.81317,E,0.102,,230525,,,A*7F
$GNVTG,,T,,M,0.102,N,0.190,K,A*36
$GNGNS,045934.00,0420.00311,S,05539.81317,E,AA,14,0.80,18.3,-47.6,,*66
$GNGGA,045934.00,0420.00311,S,05539.81317,E,1,12,0.80,18.3,M,-47.6,M,,*4A
$GNGSA,A,3,24,20,05,13,15,22,12,18,41,,,,1.53,0.80,1.31*18
$GNGSA,A,3,74,75,87,71,72,,,,,,,,1.53,0.80,1.31*1D
$GPGSV,5,1,18,05,60,125,20,11,20,021,21,12,34,003,34,13,19,154,31*79
$GPGSV,5,2,18,14,01,131,14,15,28,188,22,18,24,234,32,20,45,063,34*70
$GPGSV,5,3,18,22,16,118,33,23,03,212,,24,61,236,24,25,12,336,*78
$GPGSV,5,4,18,29,10,303,,36,52,277,,40,86,350,,41,58,082,28*7F
$GPGSV,5,5,18,49,32,274,,50,10,089,*78
$GLGSV,3,1,09,71,15,123,36,72,17,173,21,73,00,151,31,74,41,136,13*6F
$GLGSV,3,2,09,75,68,034,30,76,17,344,,86,32,335,,87,35,279,15*6A
$GLGSV,3,3,09,88,03,227,*58
$GNGLL,0420.00311,S,05539.81317,E,045934.00,A,A*66
$GNGRS,045934.00,1,-5.1,-2.4,-5.8,2.0,1.6,2.1,0.5,-1.0,148,,,*6F
$GNGRS,045934.00,1,-3.4,2.7,3.5,-1.1,-1.8,,,,,,,*51
$GNGST,045934.00,3179291,,,,2.6,2.6,7.0*77
$GNZDA,045934.00,23,05,2025,00,00*76
$GNGBS,045934.00,2.6,2.6,7.0,,,,*57
$GNTXT,01,01,01,More than 100 frame errors, UART RX was disabled*70
b0X(Y<}z!" 

^!-?v=rP
/{4V^:R9 
YeuG#{H#IJ)KD"LXV OW#X&b(Yr<[$GNRMC,045935.00,A,0420.00312,S,05539.81316,E,0.035,,230525,,,A*79
$GNVTG,,T,,M,0.035,N,0.065,K,A*38
$GNGNS,045935.00,0420.00312,S,05539.81316,E,AA,13,0.90,18.4,-47.6,,*64
$GNGGA,045935.00,0420.00312,S,05539.81316,E,1,12,0.90,18.4,M,-47.6,M,,*4F
$GNGSA,A,3,24,20,05,13,15,22,12,18,41,,,,1.63,0.90,1.36*1D
$GNGSA,A,3,74,75,71,72,,,,,,,,,1.63,0.90,1.36*17
$GPGSV,5,1,18,05,60,125,20,11,20,021,20,12,34,003,33,13,19,154,30*7E
$GPGSV,5,2,18,14,01,131,10,15,28,188,21,18,24,234,31,20,45,063,33*73
$GPGSV,5,3,18,22,16,118,31,23,03,212,,24,61,236,23,25,12,336,*7D
$GPGSV,5,4,18,29,10,303,,36,52,277,,40,86,350,,41,58,082,27*70
$GPGSV,5,5,18,49,32,274,,50,10,089,*78
$GLGSV,3,1,09,71,15,123,35,72,17,173,21,73,00,151,31,74,41,136,12*6D
$GLGSV,3,2,09,75,68,034,30,76,17,344,,86,32,335,,87,35,279,04*6A
$GLGSV,3,3,09,88,03,227,*58
$GNGLL,0420.00312,S,05539.81316,E,045935.00,A,A*65
$GNGRS,045935.00,1,-6.5,-2.5,-3.9,3.9,0.9,-1.2,0.3,-0.2,147,,,*4E
$GNGRS,045935.00,1,9.9,7.9,-1.2,-2.2,,,,,,,,*53
$GNGST,045935.00,42,,,,2.6,2.6,7.0*46
$GNZDA,045935.00,23,05,2025,00,00*77
$GNGBS,045935.00,2.6,2.6,7.0,,,,*56
$GNTXT,01,01,01,More than 100 frame errors, UART RX was disabled*70
b0X]<}#"
pB "-? v=P
/{4V^:R9 
YeAG&{HaIJ)K D"LXV OW
#HX$b]r<3$GNRMC,045936.00,A,0420.00315,S,05539.81314,E,0.015,,230525,,,A*7D
$GNVTG,,T,,M,0.015,N,0.027,K,A*3C
$GNGNS,045936.00,0420.00315,S,05539.81314,E,AA,14,0.80,18.7,-47.6,,*67
$GNGGA,045936.00,0420.00315,S,05539.81314,E,1,12,0.80,18.7,M,-47.6,M,,*4B
$GNGSA,A,3,24,20,05,13,15,22,12,18,41,,,,1.53,0.80,1.31*18
$GNGSA,A,3,74,75,87,71,72,,,,,,,,1.53,0.80,1.31*1D
$GPGSV,5,1,18,05,60,125,20,11,20,021,20,12,34,003,35,13,19,154,31*79
$GPGSV,5,2,18,14,01,131,09,15,28,188,21,18,24,234,32,20,45,063,34*7F
$GPGSV,5,3,18,22,16,118,32,23,03,212,,24,61,236,23,25,12,336,*7E
$GPGSV,5,4,18,29,10,303,,36,52,277,,40,86,350,,41,58,082,27*70
$GPGSV,5,5,18,49,32,274,,50,10,089,*78
$GLGSV,3,1,09,71,15,123,38,72,17,173,23,73,00,151,30,74,41,136,11*60
$GLGSV,3,2,09,75,68,034,32,76,17,344,,86,32,335,,87,35,279,10*6D
$GLGSV,3,3,09,88,03,227,*58
$GNGLL,0420.00315,S,05539.81314,E,045936.00,A,A*63
$GNGRS,045936.00,1,-6.1,-2.8,-2.8,1.5,0.7,-2.5,0.2,-0.9,147,,,*4A
$GNGRS,045936.00,1,-3.7,9.0,3.3,-1.2,-1.6,,,,,,,*57
$GNGST,045936.00,3182693,,,,2.6,2.6,7.0*77
$GNZDA,045936.00,23,05,2025,00,00*74
$GNGBS,045936.00,2.6,2.6,7.0,,,,*55
$GNTXT,01,01,01,More than 100 frame errors, UART RX was disabled*70
b0X`<}#" {
t!x#-?!v#=P
/{4V^:RW9 
YeG%{pHIJ)qK D"LXV OW#AXb`r<
I$GNRMC,045937.00,A,0420.00316,S,05539.81313,E,0.025,,230525,,,A*7B
$GNVTG,,T,,M,0.025,N,0.047,K,A*39
$GNGNS,045937.00,0420.00316,S,05539.81313,E,AA,14,0.80,18.9,-47.6,,*6C
$GNGGA,045937.00,0420.00316,S,05539.81313,E,1,12,0.80,18.9,M,-47.6,M,,*40
$GNGSA,A,3,24,20,05,13,15,22,12,18,41,,,,1.53,0.80,1.31*18
$GNGSA,A,3,74,75,87,71,72,,,,,,,,1.53,0.80,1.31*1D
$GPGSV,5,1,18,05,60,125,20,11,20,021,21,12,34,003,35,13,19,154,32*7B
$GPGSV,5,2,18,14,01,131,12,15,28,188,22,18,24,234,33,20,45,063,35*76
$GPGSV,5,3,18,22,16,118,33,23,03,212,,24,61,236,23,25,12,336,*7F
$GPGSV,5,4,18,29,10,303,,36,52,277,,40,86,350,,41,58,082,28*7F
$GPGSV,5,5,18,49,32,274,,50,10,089,*78
$GLGSV,3,1,09,71,15,123,37,72,17,173,23,73,00,151,28,74,41,136,13*64
$GLGSV,3,2,09,75,68,034,32,76,17,344,,86,32,335,,87,35,279,11*6C
$GLGSV,3,3,09,88,03,227,*58
$GNGLL,0420.00316,S,05539.81313,E,045937.00,A,A*66
$GNGRS,045937.00,1,-3.5,-3.0,-0.9,3.8,1.2,-2.2,0.3,-1.4,147,,,*41
$GNGRS,045937.00,1,-4.0,5.4,3.2,-1.4,-3.2,,,,,,,*5F
$GNGST,045937.00,4496177,,,,2.6,2.6,7.0*7C
$GNZDA,045937.00,23,05,2025,00,00*75
$GNGBS,045937.00,2.6,2.6,7.0,,,,*54
$GNTXT,01,01,01,More than 100 frame errors, UART RX was disabled*70
b0Xd<}A#" 
 ~$-? v=P
/{4V^:R7 
YeG%{gHZIXJ)K D"mLXV OW#uXbdrs<$GNRMC,045938.00,A,0420.00318,S,05539.81309,E,0.041,,230525,,,A*73
$GNVTG,,T,,M,0.041,N,0.076,K,A*39
$GNGNS,045938.00,0420.00318,S,05539.81309,E,AA,14,0.80,19.1,-47.6,,*6F
$GNGGA,045938.00,0420.00318,S,05539.81309,E,1,12,0.80,19.1,M,-47.6,M,,*43
$GNGSA,A,3,24,20,05,13,15,22,12,18,41,,,,1.53,0.80,1.31*18
$GNGSA,A,3,74,75,87,71,72,,,,,,,,1.53,0.80,1.31*1D
$GPGSV,5,1,18,05,60,125,21,11,20,021,21,12,34,003,35,13,19,154,32*7A
$GPGSV,5,2,18,14,01,131,14,15,28,188,21,18,24,234,32,20,45,063,36*71
$GPGSV,5,3,18,22,16,118,32,23,03,212,,24,61,236,23,25,12,336,*7E
$GPGSV,5,4,18,29,10,303,,36,52,277,,40,86,350,,41,58,082,28*7F
$GPGSV,5,5,18,49,32,274,,50,10,089,*78
$GLGSV,3,1,09,71,15,123,37,72,17,173,23,73,00,151,26,74,41,136,12*6B
$GLGSV,3,2,09,75,68,034,32,76,17,344,,86,32,335,,87,35,279,13*6E
$GLGSV,3,3,09,88,03,227,*58
$GNGLL,0420.00318,S,05539.81309,E,045938.00,A,A*6C
$GNGRS,045938.00,1,-5.1,-2.9,-1.9,-0.5,1.4,-3.4,0.3,-1.3,143,,,*64
$GNGRS,045938.00,1,-7.4,8.8,11.4,-1.5,-4.2,,,,,,,*65
$GNGST,045938.00,51,,,,2.6,2.6,7.0*49
$GNZDA,045938.00,23,05,2025,00,00*7A
$GNGBS,045938.00,2.6,2.6,7.0,,,,*5B
$GNTXT,01,01,01,More than 100 frame errors, UART RX was disabled*70
b0Xh<}$"!D
5a!p$-?$vJ=P
/{4V^:RR5 
Ye%G%{SH@IJ)K D"LXV OW#IX
bhr[<$GNRMC,045939.00,A,0420.00319,S,05539.81306,E,0.033,,230525,,,A*79
$GNVTG,,T,,M,0.033,N,0.062,K,A*39
$GNGNS,045939.00,0420.00319,S,05539.81306,E,AA,14,0.80,19.2,-47.6,,*63
$GNGGA,045939.00,0420.00319,S,05539.81306,E,1,12,0.80,19.2,M,-47.6,M,,*4F
$GNGSA,A,3,24,20,05,13,15,22,12,18,41,,,,1.53,0.80,1.31*18
$GNGSA,A,3,74,75,87,71,72,,,,,,,,1.53,0.80,1.31*1D
$GPGSV,5,1,18,05,60,125,22,11,20,021,23,12,34,003,36,13,19,154,33*79
$GPGSV,5,2,18,14,01,131,16,15,28,188,22,18,24,234,33,20,45,063,36*71
$GPGSV,5,3,18,22,16,118,36,23,03,212,18,24,61,236,24,25,12,336,*74
$GPGSV,5,4,18,29,10,303,,36,52,277,,40,86,350,,41,58,082,29*7E
$GPGSV,5,5,18,49,32,274,,50,10,089,*78
$GLGSV,3,1,09,71,15,123,37,72,17,173,23,73,00,151,24,74,41,136,12*69
$GLGSV,3,2,09,75,68,034,32,76,17,344,,86,32,335,,87,35,279,12*6F
$GLGSV,3,3,09,88,03,227,*58
$GNGLL,0420.00319,S,05539.81306,E,045939.00,A,A*63
$GNGRS,045939.00,1,-5.6,-2.9,-2.4,0.7,1.0,-1.8,0.3,-1.4,137,,,*4D
$GNGRS,045939.00,1,-3.6,7.4,3.3,-1.7,-4.5,,,,,,,*50
$GNGST,045939.00,95289,,,,2.6,2.5,7.0*70
$GNZDA,045939.00,23,05,2025,00,00*7B
$GNGBS,045939.00,2.6,2.5,7.0,,,,*59
$GNTXT,01,01,01,More than 100 frame errors, UART RX was disabled*70
b0Xl<}%"#"
!c$-?vm=P
/{4V^:R6 
YeG#{kHXIJ)K!D"LXV OW#BXblrC<$GNRMC,045940.00,A,0420.00318,S,05539.81305,E,0.019,,230525,,,A*7D
$GNVTG,,T,,M,0.019,N,0.035,K,A*33
$GNGNS,045940.00,0420.00318,S,05539.81305,E,AA,14,0.80,19.3,-47.6,,*6E
$GNGGA,045940.00,0420.00318,S,05539.81305,E,1,12,0.80,19.3,M,-47.6,M,,*42
$GNGSA,A,3,24,20,05,13,15,22,12,18,41,,,,1.53,0.80,1.31*18
$GNGSA,A,3,74,75,87,71,72,,,,,,,,1.53,0.80,1.31*1D
$GPGSV,5,1,18,05,60,125,23,11,20,021,22,12,34,003,37,13,19,154,34*7F
$GPGSV,5,2,18,14,01,131,18,15,28,188,22,18,24,234,33,20,45,063,36*7F
$GPGSV,5,3,18,22,16,118,30,23,03,212,17,24,61,236,25,25,12,336,*7C
$GPGSV,5,4,18,29,10,303,,36,52,277,,40,86,350,,41,58,082,30*76
$GPGSV,5,5,18,49,32,274,,50,10,089,*78
$GLGSV,3,1,09,71,15,123,35,72,17,173,23,73,00,151,23,74,41,136,13*6D
$GLGSV,3,2,09,75,68,034,33,76,17,344,,86,32,335,,87,35,279,14*68
$GLGSV,3,3,09,88,03,227,*58
$GNGLL,0420.00318,S,05539.81305,E,045940.00,A,A*6F
$GNGRS,045940.00,1,-5.6,-2.7,-3.4,-0.3,-0.3,-1.5,0.4,-1.6,138,,,*4D
$GNGRS,045940.00,1,-3.6,6.9,3.2,-1.5,-4.2,,,,,,,*56
$GNGST,045940.00,142934,,,,2.6,2.5,6.9*40
$GNZDA,045940.00,23,05,2025,00,00*75
$GNGBS,045940.00,2.6,2.5,6.9,,,,*5F
$GNTXT,01,01,01,More than 100 frame errors, UART RX was disabled*70
b0Xp<}%"E"V
9n"U%-?"va=P
/{4V^:R6 
YeG${qHIJ)K!D"LXV OW#X(bpr+<j$GNRMC,045941.00,A,0420.00317,S,05539.81302,E,0.029,,230525,,,A*77
$GNVTG,,T,,M,0.029,N,0.054,K,A*37
$GNGNS,045941.00,0420.00317,S,05539.81302,E,AA,14,0.80,19.2,-47.6,,*66
$GNGGA,045941.00,0420.00317,S,05539.81302,E,1,12,0.80,19.2,M,-47.6,M,,*4A
$GNGSA,A,3,24,20,05,13,15,22,12,18,41,,,,1.53,0.80,1.31*18
$GNGSA,A,3,74,75,87,71,72,,,,,,,,1.53,0.80,1.31*1D
$GPGSV,5,1,18,05,60,125,22,11,20,021,22,12,34,003,37,13,19,154,34*7E
$GPGSV,5,2,18,14,01,131,18,15,28,188,23,18,24,234,34,20,45,063,37*78
$GPGSV,5,3,18,22,16,118,34,23,03,212,16,24,61,236,26,25,12,336,*7A
$GPGSV,5,4,18,29,10,303,,36,52,277,,40,86,350,,41,58,082,30*76
$GPGSV,5,5,18,49,32,274,,50,10,089,*78
$GLGSV,3,1,09,71,15,123,36,72,17,173,23,73,00,151,20,74,41,136,14*6A
$GLGSV,3,2,09,75,68,034,33,76,17,344,,86,32,335,,87,35,279,14*68
$GLGSV,3,3,09,88,03,227,*58
$GNGLL,0420.00317,S,05539.81302,E,045941.00,A,A*66
$GNGRS,045941.00,1,-2.9,-2.6,-2.6,0.9,1.1,-1.6,0.7,-1.7,138,,,*4E
$GNGRS,045941.00,1,2.0,7.0,12.4,-1.4,-5.6,,,,,,,*47
$GNGST,045941.00,48,,,,2.5,2.5,6.8*46
$GNZDA,045941.00,23,05,2025,00,00*74
$GNGBS,045941.00,2.5,2.5,6.8,,,,*5C
$GNTXT,01,01,01,More than 100 frame errors, UART RX was disabled*70
b0Xt<}$"6!E
!7$-?!v=EP
/{4V^:R5 
YeG%{bHIJ)K!D"LXV OW#@Xvbtr<BQ$GNRMC,045942.00,A,0420.00318,S,05539.81300,E,0.007,,230525,,,A*75
$GNVTG,,T,,M,0.007,N,0.014,K,A*3F
$GNGNS,045942.00,0420.00318,S,05539.81300,E,AA,13,0.83,19.5,-47.6,,*6B
$GNGGA,045942.00,0420.00318,S,05539.81300,E,1,12,0.83,19.5,M,-47.6,M,,*40
$GNGSA,A,3,24,20,13,15,22,12,18,41,,,,,1.72,0.83,1.51*1B
$GNGSA,A,3,74,75,87,71,72,,,,,,,,1.72,0.83,1.51*1B
$GPGSV,5,1,18,05,60,125,,11,20,021,22,12,34,003,36,13,19,154,33*78
$GPGSV,5,2,18,14,01,131,17,15,28,188,22,18,24,234,33,20,45,063,36*70
$GPGSV,5,3,18,22,16,118,33,23,03,212,12,24,61,236,25,25,12,336,*7A
$GPGSV,5,4,18,29,10,303,,36,52,277,,40,86,350,,41,58,082,28*7F
$GPGSV,5,5,18,49,32,274,,50,10,089,*78
$GLGSV,3,1,09,71,15,123,37,72,17,173,23,73,00,151,17,74,41,136,12*69
$GLGSV,3,2,09,75,68,034,33,76,17,344,,86,32,335,,87,35,279,13*6F
$GLGSV,3,3,09,88,03,227,*58
$GNGLL,0420.00318,S,05539.81300,E,045942.00,A,A*68
$GNGRS,045942.00,1,-1.9,-2.7,0.7,2.1,-1.2,0.5,-2.0,138,,,,*47
$GNGRS,045942.00,1,-3.6,6.7,3.2,-1.6,-7.7,,,,,,,*5F
$GNGST,045942.00,123775,,,,2.5,2.4,6.8*4D
$GNZDA,045942.00,23,05,2025,00,00*77
$GNGBS,045942.00,2.5,2.4,6.8,,,,*5E
$GNTXT,01,01,01,More than 100 frame errors, UART RX was disabled*70
b0Xhx<}w%"3 
"1$-?!vw=P
/{4V^:R6 
YeIG%{nHI=J)K!D"LXV OW#.Xbhxr<$GNRMC,045943.00,A,0420.00318,S,05539.81299,E,0.045,,230525,,,A*73
$GNVTG,,T,,M,0.045,N,0.083,K,A*37
$GNGNS,045943.00,0420.00318,S,05539.81299,E,AA,13,0.83,19.6,-47.6,,*68
$GNGGA,045943.00,0420.00318,S,05539.81299,E,1,12,0.83,19.6,M,-47.6,M,,*43
$GNGSA,A,3,24,20,13,15,22,12,18,41,,,,,1.72,0.83,1.51*1B
$GNGSA,A,3,74,75,87,71,72,,,,,,,,1.72,0.83,1.51*1B
$GPGSV,5,1,18,05,60,125,25,11,20,021,21,12,34,003,37,13,19,154,32*7C
$GPGSV,5,2,18,14,01,131,17,15,28,188,22,18,24,234,34,20,45,063,36*77
$GPGSV,5,3,18,22,16,118,33,23,03,212,11,24,61,236,25,25,12,336,*79
$GPGSV,5,4,18,29,10,303,,36,52,277,,40,86,350,,41,58,082,28*7F
$GPGSV,5,5,18,49,32,274,,50,10,089,*78
$GLGSV,3,1,09,71,15,123,37,72,17,173,24,73,00,151,13,74,41,136,17*6F
$GLGSV,3,2,09,75,68,034,33,76,17,344,,86,32,335,,87,35,279,11*6D
$GLGSV,3,3,09,88,03,227,*58
$GNGLL,0420.00318,S,05539.81299,E,045943.00,A,A*68
$GNGRS,045943.00,1,-2.6,-2.7,1.4,2.0,-1.4,0.5,-2.1,140,,,,*41
$GNGRS,045943.00,1,-3.7,6.6,3.0,-1.5,-7.6,,,,,,,*5E
$GNGST,045943.00,184819,,,,2.5,2.4,6.8*44
$GNZDA,045943.00,23,05,2025,00,00*76
$GNGBS,045943.00,2.5,2.4,6.8,,,,*5F
$GNTXT,01,01,01,More than 100 frame errors, UART RX was disabled*70
b0XP|<}$"<`
 "$-?v=(P
/{4V^:R; 
YeG%{HIJ)K!D"yLXV OW#XxbbP|r<$GNRMC,045944.00,A,0420.00321,S,05539.81297,E,0.078,,230525,,,A*7E
$GNVTG,,T,,M,0.078,N,0.144,K,A*33
$GNGNS,045944.00,0420.00321,S,05539.81297,E,AA,13,0.94,19.8,-47.6,,*63
$GNGGA,045944.00,0420.00321,S,05539.81297,E,1,12,0.94,19.8,M,-47.6,M,,*48
$GNGSA,A,3,24,20,13,15,22,12,18,41,,,,,1.84,0.94,1.58*1D
$GNGSA,A,3,74,75,87,71,72,,,,,,,,1.84,0.94,1.58*1D
$GPGSV,5,1,18,05,60,125,23,11,20,021,20,12,34,003,36,13,19,154,29*70
$GPGSV,5,2,18,14,01,131,16,15,28,188,20,18,24,234,32,20,45,063,36*72
$GPGSV,5,3,18,22,16,118,30,23,03,212,11,24,61,236,23,25,12,336,*7C
$GPGSV,5,4,18,29,10,303,,36,52,277,,40,86,350,,41,58,082,27*70
$GPGSV,5,5,18,49,32,274,,50,10,089,*78
$GLGSV,3,1,09,71,15,123,37,72,17,173,23,73,00,151,11,74,41,136,15*68
$GLGSV,3,2,09,75,68,034,33,76,17,344,,86,32,335,,87,35,279,14*68
$GLGSV,3,3,09,88,03,227,*58
$GNGLL,0420.00321,S,05539.81297,E,045944.00,A,A*6B
$GNGRS,045944.00,1,-2.2,-2.9,3.5,2.5,-1.1,0.6,-2.2,152,,,,*4C
$GNGRS,045944.00,1,6.7,6.3,24.3,-1.2,-6.1,,,,,,,*43
$GNGST,045944.00,39,,,,2.5,2.4,6.8*44
$GNZDA,045944.00,23,05,2025,00,00*71
$GNGBS,045944.00,2.5,2.4,6.8,41,,-152.4,4098.9*4E
$GNTXT,01,01,01,More than 100 frame errors, UART RX was disabled*70
b0X8<}x$"!
 ##-? v=P
/{4V^:R 
YekG%{~H IOJ)K!D"nLXV OW#PXb8r<$GNRMC,045945.00,A,0420.00321,S,05539.81297,E,0.051,,230525,,,A*74
$GNVTG,,T,,M,0.051,N,0.094,K,A*34
$GNGNS,045945.00,0420.00321,S,05539.81297,E,AA,13,0.80,19.9,-47.6,,*66
$GNGGA,045945.00,0420.00321,S,05539.81297,E,1,12,0.80,19.9,M,-47.6,M,,*4D
$GNGSA,A,3,24,20,05,13,15,22,12,18,,,,,1.53,0.80,1.31*1D
$GNGSA,A,3,74,75,87,71,72,,,,,,,,1.53,0.80,1.31*1D
$GPGSV,5,1,18,05,60,125,23,11,20,021,19,12,34,003,36,13,19,154,30*72
$GPGSV,5,2,18,14,01,131,16,15,28,188,21,18,24,234,32,20,45,063,35*70
$GPGSV,5,3,18,22,16,118,32,23,03,212,08,24,61,236,23,25,12,336,*76
$GPGSV,5,4,18,29,10,303,,36,52,277,,40,86,350,,41,58,082,*75
$GPGSV,5,5,18,49,32,274,,50,10,089,*78
$GLGSV,3,1,09,71,15,123,37,72,17,173,23,73,00,151,13,74,41,136,13*6C
$GLGSV,3,2,09,75,68,034,33,76,17,344,,86,32,335,,87,35,279,15*69
$GLGSV,3,3,09,88,03,227,*58
$GNGLL,0420.00321,S,05539.81297,E,045945.00,A,A*6A
$GNGRS,045945.00,1,0.0,-2.8,3.8,4.0,1.4,2.0,0.3,-2.2,,,,*58
$GNGRS,045945.00,1,-3.6,6.2,3.4,-1.3,-7.4,,,,,,,*5D
$GNGST,045945.00,3181370,,,,2.5,2.4,6.7*7F
$GNZDA,045945.00,23,05,2025,00,00*70
$GNGBS,045945.00,2.5,2.4,6.7,,,,*56
$GNTXT,01,01,01,More than 100 frame errors, UART RX was disabled*70
b0X <}$")
; 4#-? v9=lP
/{4V^:R 
YeG${HIJ)K!D"aLXV OW#TXb r<$GNRMC,045946.00,A,0420.00325,S,05539.81294,E,0.087,,230525,,,A*7B
$GNVTG,,T,,M,0.087,N,0.161,K,A*34
$GNGNS,045946.00,0420.00325,S,05539.81294,E,AA,13,0.80,20.2,-47.6,,*63
$GNGGA,045946.00,0420.00325,S,05539.81294,E,1,12,0.80,20.2,M,-47.6,M,,*48
$GNGSA,A,3,24,20,05,13,15,22,12,18,,,,,1.53,0.80,1.31*1D
$GNGSA,A,3,74,75,87,71,72,,,,,,,,1.53,0.80,1.31*1D
$GPGSV,5,1,18,05,60,125,20,11,20,021,18,12,34,003,36,13,19,154,31*71
$GPGSV,5,2,18,14,01,131,16,15,28,188,21,18,24,234,32,20,45,063,35*70
$GPGSV,5,3,18,22,16,118,32,23,03,212,08,24,61,236,23,25,12,336,*76
$GPGSV,5,4,18,29,10,303,,36,52,277,,40,86,350,,41,58,082,*75
$GPGSV,5,5,18,49,32,274,,50,10,089,*78
$GLGSV,3,1,09,71,15,123,36,72,17,173,22,73,00,151,17,74,41,136,16*6D
$GLGSV,3,2,09,75,68,034,33,76,17,344,,86,32,335,,87,35,279,17*6B
$GLGSV,3,3,09,88,03,227,*58
$GNGLL,0420.00325,S,05539.81294,E,045946.00,A,A*6E
$GNGRS,045946.00,1,1.1,-2.7,0.1,2.9,2.5,-2.0,0.4,-2.0,,,,*7B
$GNGRS,045946.00,1,-3.6,6.1,3.4,-1.0,-5.7,,,,,,,*5F
$GNGST,045946.00,3183984,,,,2.5,2.4,6.7*7F
$GNZDA,045946.00,23,05,2025,00,00*73
$GNGBS,045946.00,2.5,2.4,6.7,,,,*55
$GNTXT,01,01,01,More than 100 frame errors, UART RX was disabled*70
b0X<}B$"'`
\!$-?#v
=FP
/{4V^:R 
YfG%{HyIJ)KD"KLXV OW#X|br=zX$GNRMC,045947.00,A,0420.00326,S,05539.81292,E,0.018,,230525,,,A*79
$GNVTG,,T,,M,0.018,N,0.033,K,A*34
$GNGNS,045947.00,0420.00326,S,05539.81292,E,AA,13,0.80,20.3,-47.6,,*66
$GNGGA,045947.00,0420.00326,S,05539.81292,E,1,12,0.80,20.3,M,-47.6,M,,*4D
$GNGSA,A,3,24,20,05,13,15,22,12,18,,,,,1.53,0.80,1.31*1D
$GNGSA,A,3,74,75,87,71,72,,,,,,,,1.53,0.80,1.31*1D
$GPGSV,5,1,18,05,60,125,22,11,20,021,20,12,34,003,36,13,19,154,31*78
$GPGSV,5,2,18,14,01,131,16,15,28,188,20,18,24,234,33,20,45,063,36*73
$GPGSV,5,3,18,22,16,118,35,23,03,212,09,24,61,236,22,25,12,336,*71
$GPGSV,5,4,18,29,10,303,,36,52,277,,40,86,350,,41,58,082,*75
$GPGSV,5,5,18,49,32,274,,50,10,089,*78
$GLGSV,3,1,09,71,15,123,37,72,17,173,20,73,00,151,19,74,41,136,12*64
$GLGSV,3,2,09,75,68,034,28,76,17,344,,86,32,335,,87,35,279,09*6E
$GLGSV,3,3,09,88,03,227,*58
$GNGLL,0420.00326,S,05539.81292,E,045947.00,A,A*6A
$GNGRS,045947.00,1,0.7,-2.6,-1.9,1.0,4.0,0.1,0.4,-0.9,,,,*74
$GNGRS,045947.00,1,-5.9,5.9,1.4,-0.9,-6.5,,,,,,,*57
$GNGST,045947.00,55,,,,2.5,2.4,6.7*42
$GNZDA,045947.00,23,05,2025,00,00*72
$GNGBS,045947.00,2.5,2.4,6.7,,,,*54
$GNTXT,01,01,01,More than 100 frame errors, UART RX was disabled*70
b0X<}&"3 
S!$-?#v=BP
/{4V^:R 
YfG%{H8IJ)K!D":LXV OwW#OXbr=Q$GNRMC,045948.00,A,0420.00328,S,05539.81289,E,0.045,,230525,,,A*7A
$GNVTG,,T,,M,0.045,N,0.084,K,A*30
$GNGNS,045948.00,0420.00328,S,05539.81289,E,AA,13,0.80,20.4,-47.6,,*6A
$GNGGA,045948.00,0420.00328,S,05539.81289,E,1,12,0.80,20.4,M,-47.6,M,,*41
$GNGSA,A,3,24,20,05,13,15,22,12,18,,,,,1.53,0.80,1.31*1D
$GNGSA,A,3,74,75,87,71,72,,,,,,,,1.53,0.80,1.31*1D
$GPGSV,5,1,18,05,60,125,24,11,20,021,21,12,34,003,38,13,19,154,32*72
$GPGSV,5,2,18,14,01,131,17,15,28,188,21,18,24,234,33,20,45,063,36*73
$GPGSV,5,3,18,22,16,118,35,23,03,212,09,24,61,236,23,25,12,336,*70
$GPGSV,5,4,18,29,10,303,,36,52,277,,40,86,350,,41,58,082,*75
$GPGSV,5,5,18,49,32,274,,50,10,089,*78
$GLGSV,3,1,09,71,15,123,37,72,17,173,18,73,00,151,18,74,41,136,12*6E
$GLGSV,3,2,09,75,68,034,33,76,17,344,,86,32,335,18,87,35,279,13*66
$GLGSV,3,3,09,88,03,227,*58
$GNGLL,0420.00328,S,05539.81289,E,045948.00,A,A*61
$GNGRS,045948.00,1,0.7,-2.7,2.0,4.3,2.7,0.3,0.5,-1.2,,,,*53
$GNGRS,045948.00,1,-3.5,5.7,3.4,-0.8,-7.1,,,,,,,*5A
$GNGST,045948.00,31727,,,,2.4,2.4,6.7*7C
$GNZDA,045948.00,23,05,2025,00,00*7D
$GNGBS,045948.00,2.4,2.4,6.7,,,,*5A
$GNTXT,01,01,01,More than 100 frame errors, UART RX was disabled*70
b0X<}:%"!J

!$-?$vl=P
/{4V^:R 
YfG%{HIJ)K D"LXV OW#RXbrk
=)$GNRMC,045949.00,A,0420.00331,S,05539.81287,E,0.046,,230525,,,A*7E
$GNVTG,,T,,M,0.046,N,0.085,K,A*32
$GNGNS,045949.00,0420.00331,S,05539.81287,E,AA,12,0.90,20.6,-47.6,,*6F
$GNGGA,045949.00,0420.00331,S,05539.81287,E,1,12,0.90,20.6,M,-47.6,M,,*45
$GNGSA,A,3,24,20,05,13,15,22,12,18,,,,,1.63,0.90,1.36*18
$GNGSA,A,3,74,75,71,72,,,,,,,,,1.63,0.90,1.36*17
$GPGSV,5,1,18,05,60,125,22,11,20,021,21,12,34,003,37,13,19,154,33*7A
$GPGSV,5,2,18,14,01,131,20,15,28,188,23,18,24,234,33,20,45,063,36*75
$GPGSV,5,3,18,22,16,118,36,23,03,212,13,24,61,236,23,25,12,336,*78
$GPGSV,5,4,18,29,10,303,,36,52,277,,40,86,350,,41,58,082,*75
$GPGSV,5,5,18,49,32,274,,50,10,089,*78
$GLGSV,3,1,09,71,15,123,37,72,17,173,20,73,00,151,18,74,41,136,17*60
$GLGSV,3,2,09,75,68,034,32,76,17,344,,86,32,335,17,87,35,279,07*6D
$GLGSV,3,3,09,88,03,227,*58
$GNGLL,0420.00331,S,05539.81287,E,045949.00,A,A*66
$GNGRS,045949.00,1,-0.5,-2.4,5.7,5.9,0.1,-1.5,0.3,-2.5,,,,*59
$GNGRS,045949.00,1,-3.5,5.4,-0.8,-8.5,,,,,,,,*7A
$GNGST,045949.00,34922,,,,2.4,2.3,6.6*75
$GNZDA,045949.00,23,05,2025,00,00*7C
$GNGBS,045949.00,2.4,2.3,6.6,,,,*5D
$GNTXT,01,01,01,More than 100 frame errors, UART RX was disabled*70
b0X<}$"' G
!$-?$v=P
/{4V^:R 
YfG#{HIsJ
)K D"LXV OW#X~7brS=$GNRMC,045950.00,A,0420.00332,S,05539.81285,E,0.053,,230525,,,A*73
$GNVTG,,T,,M,0.053,N,0.099,K,A*3B
$GNGNS,045950.00,0420.00332,S,05539.81285,E,AA,13,0.80,20.6,-47.6,,*66
$GNGGA,045950.00,0420.00332,S,05539.81285,E,1,12,0.80,20.6,M,-47.6,M,,*4D
$GNGSA,A,3,24,20,05,13,15,22,12,18,,,,,1.53,0.80,1.31*1D
$GNGSA,A,3,74,75,87,71,72,,,,,,,,1.53,0.80,1.31*1D
$GPGSV,5,1,18,05,60,125,20,11,20,021,20,12,34,003,36,13,19,154,32*79
$GPGSV,5,2,18,14,01,131,23,15,28,188,24,18,24,234,33,20,45,063,36*71
$GPGSV,5,3,18,22,16,118,36,23,03,212,12,24,61,236,23,25,12,336,*79
$GPGSV,5,4,18,29,10,303,,36,52,277,,40,86,350,,41,58,082,*75
$GPGSV,5,5,18,49,32,274,,50,10,089,*78
$GLGSV,3,1,09,71,15,123,35,72,17,173,20,73,00,151,19,74,41,136,10*64
$GLGSV,3,2,09,75,68,034,32,76,17,344,,86,32,335,14,87,35,279,08*61
$GLGSV,3,3,09,88,03,227,*58
$GNGLL,0420.00332,S,05539.81285,E,045950.00,A,A*6F
$GNGRS,045950.00,1,-3.6,-2.3,9.5,3.3,2.2,-0.9,0.4,0.3,,,,*76
$GNGRS,045950.00,1,-3.3,5.1,-5.1,-1.0,-8.7,,,,,,,*7D
$GNGST,045950.00,52,,,,2.4,2.3,6.6*44
$GNZDA,045950.00,23,05,2025,00,00*74
$GNGBS,045950.00,2.4,2.3,6.6,,,,*55
$GNTXT,01,01,01,More than 100 frame errors, UART RX was disabled*70
b0X<}l$" `
&E"#-?$vL=:P
/{4V^:R 
YfG&{HnIJ)K%D"LXV
 OW
#;X"br;=$GNRMC,045951.00,A,0420.00337,S,05539.81289,E,0.037,,230525,,,A*79
$GNVTG,,T,,M,0.037,N,0.069,K,A*36
$GNGNS,045951.00,0420.00337,S,05539.81289,E,AA,13,0.80,21.2,-47.6,,*6B
$GNGGA,045951.00,0420.00337,S,05539.81289,E,1,12,0.80,21.2,M,-47.6,M,,*40
$GNGSA,A,3,24,20,05,13,15,22,12,18,,,,,1.53,0.80,1.31*1D
$GNGSA,A,3,74,75,87,71,72,,,,,,,,1.53,0.80,1.31*1D
$GPGSV,5,1,18,05,60,125,22,11,20,021,18,12,34,003,36,13,19,154,32*70
$GPGSV,5,2,18,14,01,131,21,15,28,188,23,18,24,234,34,20,45,063,35*70
$GPGSV,5,3,18,22,16,118,36,23,03,212,09,24,61,236,22,25,12,336,*72
$GPGSV,5,4,18,29,10,303,,36,52,277,,40,86,350,,41,58,082,*75
$GPGSV,5,5,18,49,32,274,,50,10,089,*78
$GLGSV,3,1,09,71,15,123,38,72,17,173,18,73,00,151,21,74,41,136,14*6D
$GLGSV,3,2,09,75,68,034,37,76,17,344,,86,32,335,10,87,35,279,10*69
$GLGSV,3,3,09,88,03,227,*58
$GNGLL,0420.00337,S,05539.81289,E,045951.00,A,A*67
$GNGRS,045951.00,1,-2.0,-2.3,11.3,3.5,0.7,0.8,0.2,-3.2,,,,*4B
$GNGRS,045951.00,1,-2.5,4.6,3.1,-0.9,-9.1,,,,,,,*59
$GNGST,045951.00,92943,,,,2.4,2.3,6.5*74
$GNZDA,045951.00,23,05,2025,00,00*75
$GNGBS,045951.00,2.4,2.3,6.5,,,,*57
$GNTXT,01,01,01,More than 100 frame errors, UART RX was disabled*70
b0X<}#"
d!L!-?#vE
=P
/{4V^:R 
YfG"{HIJ)KK"D"LXV
 OpW#X,br#=Q$GNRMC,045952.00,A,0420.00340,S,05539.81289,E,0.064,,230525,,,A*7C
$GNVTG,,T,,M,0.064,N,0.118,K,A*37
$GNGNS,045952.00,0420.00340,S,05539.81289,E,AA,13,0.80,21.4,-47.6,,*6E
$GNGGA,045952.00,0420.00340,S,05539.81289,E,1,12,0.80,21.4,M,-47.6,M,,*45
$GNGSA,A,3,24,20,05,13,15,22,12,18,,,,,1.53,0.80,1.31*1D
$GNGSA,A,3,74,75,87,71,72,,,,,,,,1.53,0.80,1.31*1D
$GPGSV,5,1,18,05,60,125,23,11,20,021,18,12,34,003,35,13,19,154,29*78
$GPGSV,5,2,18,14,01,131,19,15,28,188,21,18,24,234,33,20,45,063,33*78
$GPGSV,5,3,18,22,16,118,35,23,03,212,10,24,61,236,20,25,12,336,*7B
$GPGSV,5,4,18,29,10,303,,36,52,277,,40,86,350,,41,58,082,*75
$GPGSV,5,5,18,49,32,274,,50,10,089,*78
$GLGSV,3,1,09,71,15,123,34,72,17,173,16,73,00,151,20,74,41,136,15*6F
$GLGSV,3,2,09,75,68,034,34,76,17,344,,86,32,335,10,87,35,279,11*6B
$GLGSV,3,3,09,88,03,227,*58
$GNGLL,0420.00340,S,05539.81289,E,045952.00,A,A*64
$GNGRS,045952.00,1,-2.5,-2.5,9.0,1.4,1.0,0.7,0.2,-1.8,,,,*73
$GNGRS,045952.00,1,-1.8,4.1,2.8,-1.0,-10.3,,,,,,,*69
$GNGST,045952.00,134606,,,,2.4,2.3,6.5*44
$GNZDA,045952.00,23,05,2025,00,00*76
$GNGBS,045952.00,2.4,2.3,6.5,,,,*54
$GNTXT,01,01,01,More than 100 frame errors, UART RX was disabled*70
b0Xx<}!"
@"-?#vJ=P
/{4V^:R 
YfG"{HI5J)tK!D"LXV OW
#Xsbxr=$GNRMC,045953.00,A,0420.00341,S,05539.81290,E,0.021,,230525,,,A*75
$GNVTG,,T,,M,0.021,N,0.038,K,A*35
$GNGNS,045953.00,0420.00341,S,05539.81290,E,AA,14,0.90,21.5,-47.6,,*61
$GNGGA,045953.00,0420.00341,S,05539.81290,E,1,12,0.90,21.5,M,-47.6,M,,*4D
$GNGSA,A,3,24,20,05,13,15,22,12,18,,,,,1.63,0.90,1.36*18
$GNGSA,A,3,86,74,75,87,71,72,,,,,,,1.63,0.90,1.36*16
$GPGSV,5,1,18,05,60,125,24,11,20,021,17,12,34,003,33,13,19,154,31*7F
$GPGSV,5,2,18,14,01,131,16,15,28,188,18,18,24,234,31,20,45,063,34*78
$GPGSV,5,3,18,22,16,118,35,23,03,212,11,24,61,236,19,25,12,336,*70
$GPGSV,5,4,18,29,10,303,,36,52,277,,40,86,350,,41,58,082,*75
$GPGSV,5,5,18,49,32,274,,50,10,089,*78
$GLGSV,3,1,09,71,15,123,34,72,17,173,13,73,00,151,19,74,41,136,14*61
$GLGSV,3,2,09,75,68,034,33,76,17,344,,86,32,335,11,87,35,279,10*6C
$GLGSV,3,3,09,88,03,227,*58
$GNGLL,0420.00341,S,05539.81290,E,045953.00,A,A*6C
$GNGRS,045953.00,1,-3.1,-2.5,7.0,2.4,-0.4,0.7,0.3,-4.5,,,,*5B
$GNGRS,045953.00,1,30.6,-4.0,4.1,53.8,-1.1,-8.1,,,,,,*70
$GNGST,045953.00,43,,,,2.4,2.3,6.5*44
$GNZDA,045953.00,23,05,2025,00,00*77
$GNGBS,045953.00,2.4,2.3,6.5,,,,*55
$GNTXT,01,01,01,More than 100 frame errors, UART RX was disabled*70
b0X`<}@#",#)
!#-?#vI=nP
/{4V^:R 
YfG%{H4IzJ) K$D"wLXV OW
#EX[b`r=`$GNRMC,045954.00,A,0420.00345,S,05539.81289,E,0.032,,230525,,,A*7C
$GNVTG,,T,,M,0.032,N,0.060,K,A*3A
$GNGNS,045954.00,0420.00345,S,05539.81289,E,AA,14,0.80,21.7,-47.6,,*69
$GNGGA,045954.00,0420.00345,S,05539.81289,E,1,12,0.80,21.7,M,-47.6,M,,*45
