$GNGLL,0420.00830,S,05539.79959,E,050349.00,A,A*6D
$GNGRS,050349.00,1,0.4,0.1,-8.6,2.2,2.5,-1.3,-0.9,-1.7,,,,*5A
$GNGRS,050349.00,1,3.0,9.2,2.8,-0.2,-8.8,-15.1,,,,,,*43
$GNGST,050349.00,36,,,,2.3,3.4,6.4*43
$GNZDA,050349.00,23,05,2025,00,00*72
$GNGBS,050349.00,2.3,3.4,6.4,,,,*50
$GNTXT,01,01,01,More than 100 frame errors, UART RX was disabled*70
b0X@==y"$%v,=dw}<Q
0
{4"V^:R 
Y
faGxHNJ'KF'#LXVQEW#X `gb@=r@[$GNRMC,050350.00,A,0420.00832,S,05539.79961,E,0.124,,230525,,,A*71
$GNVTG,,T,,M,0.124,N,0.230,K,A*3B
$GNGNS,050350.00,0420.00832,S,05539.79961,E,AA,14,0.72,17.6,-47.6,,*6B
$GNGGA,050350.00,0420.00832,S,05539.79961,E,1,12,0.72,17.6,M,-47.6,M,,*47
$GNGSA,A,3,24,20,05,13,15,22,12,18,,,,,1.43,0.72,1.23*12
$GNGSA,A,3,86,74,75,87,71,72,,,,,,,1.43,0.72,1.23*1C
$GPGSV,5,1,18,05,61,121,29,11,19,021,,12,36,004,34,13,19,152,37*79
$GPGSV,5,2,18,14,00,132,15,15,28,187,29,18,25,235,23,20,44,061,29*78
$GPGSV,5,3,18,22,15,119,17,23,04,212,26,24,60,232,28,25,13,337,*76
$GPGSV,5,4,18,29,10,304,,36,52,277,,40,86,350,34,41,58,082,29*7E
$GPGSV,5,5,18,49,32,274,,50,10,089,*78
$GLGSV,3,1,09,71,15,120,22,72,18,171,28,74,39,138,25,75,70,039,29*6E
$GLGSV,3,2,09,76,19,344,,86,30,337,26,87,35,281,17,88,04,229,16*67
$GLGSV,3,3,09,,,,32*6D
$GNGLL,0420.00832,S,05539.79961,E,050350.00,A,A*6C
$GNGRS,050350.00,1,5.1,-4.1,-2.6,2.1,2.5,-1.3,-1.1,-3.9,,,,*77
$GNGRS,050350.00,1,3.2,10.1,0.3,-0.3,-10.0,-14.6,,,,,,*4D
$GNGST,050350.00,38,,,,2.3,3.4,6.4*45
$GNZDA,050350.00,23,05,2025,00,00*7A
$GNGBS,050350.00,2.3,3.4,6.4,,,,*58
$GNTXT,01,01,01,More than 100 frame errors, UART RX was disabled*70
b0X(A=y"$'"n,=Aw<Q
0
{4"V^:R 
Y
fGxTH!J'K"F'LXVQ-W#X$b(Ar@3$GNRMC,050351.00,A,0420.00833,S,05539.79965,E,0.011,,230525,,,A*72
$GNVTG,,T,,M,0.011,N,0.020,K,A*3F
$GNGNS,050351.00,0420.00833,S,05539.79965,E,AA,14,0.72,17.6,-47.6,,*6F
$GNGGA,050351.00,0420.00833,S,05539.79965,E,1,12,0.72,17.6,M,-47.6,M,,*43
$GNGSA,A,3,24,20,05,13,15,22,12,18,,,,,1.43,0.72,1.23*12
$GNGSA,A,3,86,74,75,87,71,72,,,,,,,1.43,0.72,1.23*1C
$GPGSV,5,1,18,05,61,121,29,11,19,021,,12,36,004,34,13,19,152,39*77
$GPGSV,5,2,18,14,00,132,16,15,28,187,34,18,25,235,21,20,44,061,29*75
$GPGSV,5,3,18,22,15,119,18,23,04,212,27,24,60,232,28,25,13,337,*78
$GPGSV,5,4,18,29,10,304,,36,52,277,,40,86,350,34,41,58,082,30*76
$GPGSV,5,5,18,49,32,274,,50,10,089,*78
$GLGSV,3,1,09,71,15,120,22,72,18,171,33,74,39,138,25,75,70,039,34*68
$GLGSV,3,2,09,76,19,344,,86,30,337,31,87,35,281,18,88,04,229,16*6E
$GLGSV,3,3,09,,,,36*69
$GNGLL,0420.00833,S,05539.79965,E,050351.00,A,A*68
$GNGRS,050351.00,1,-0.5,-4.5,-3.8,2.1,1.1,-0.7,-1.2,-0.9,,,,*53
$GNGRS,050351.00,1,3.0,9.6,4.7,2.6,-9.4,-10.0,,,,,,*65
$GNGST,050351.00,38,,,,2.3,3.4,6.4*44
$GNZDA,050351.00,23,05,2025,00,00*7B
$GNGBS,050351.00,2.3,3.4,6.4,,,,*59
$GNTXT,01,01,01,More than 100 frame errors, UART RX was disabled*70
b0XE =y"$&C":,=sw)s<Q
0
{4"V^:R 
Y
f1GxH!FJ'K!F'LXVQW#X%VbEr@$GNRMC,050352.00,A,0420.00832,S,05539.79965,E,0.107,,230525,,,A*76
$GNVTG,,T,,M,0.107,N,0.198,K,A*3B
$GNGNS,050352.00,0420.00832,S,05539.79965,E,AA,14,0.72,17.6,-47.6,,*6D
$GNGGA,050352.00,0420.00832,S,05539.79965,E,1,12,0.72,17.6,M,-47.6,M,,*41
$GNGSA,A,3,24,20,05,13,15,22,12,18,,,,,1.43,0.72,1.23*12
$GNGSA,A,3,86,74,75,87,71,72,,,,,,,1.43,0.72,1.23*1C
$GPGSV,5,1,18,05,61,121,32,11,19,021,,12,36,004,34,13,19,152,38*7C
$GPGSV,5,2,18,14,00,132,20,15,28,187,34,18,25,235,21,20,44,061,29*70
$GPGSV,5,3,18,22,15,119,24,23,04,212,27,24,60,232,29,25,13,337,*76
$GPGSV,5,4,18,29,10,304,,36,52,277,,40,86,350,34,41,58,082,29*7E
$GPGSV,5,5,18,49,32,274,,50,10,089,*78
$GLGSV,3,1,09,71,15,120,24,72,18,171,33,74,39,138,25,75,70,039,33*69
$GLGSV,3,2,09,76,19,344,,86,30,337,30,87,35,281,18,88,04,229,16*6F
$GLGSV,3,3,09,,,,37*68
$GNGLL,0420.00832,S,05539.79965,E,050352.00,A,A*6A
$GNGRS,050352.00,1,-0.1,-4.0,-3.7,2.1,0.6,0.4,-1.2,-0.1,,,,*7E
$GNGRS,050352.00,1,2.5,9.8,1.8,2.5,-8.7,-12.1,,,,,,*64
$GNGST,050352.00,34,,,,2.3,3.4,6.3*4C
$GNZDA,050352.00,23,05,2025,00,00*78
$GNGBS,050352.00,2.3,3.4,6.3,,,,*5D
$GNTXT,01,01,01,More than 100 frame errors, UART RX was disabled*70
b0XH=y"$'"
,=4w<Q
0
{4"V^:R 
Y
fGxH!J'K F'LXVQMW#X$ibHr@$GNRMC,050353.00,A,0420.00832,S,05539.79958,E,0.230,,230525,,,A*7E
$GNVTG,,T,,M,0.230,N,0.426,K,A*3C
$GNGNS,050353.00,0420.00832,S,05539.79958,E,AA,14,0.72,17.4,-47.6,,*60
$GNGGA,050353.00,0420.00832,S,05539.79958,E,1,12,0.72,17.4,M,-47.6,M,,*4C
$GNGSA,A,3,24,20,05,13,15,22,12,18,,,,,1.43,0.72,1.23*12
$GNGSA,A,3,86,74,75,87,71,72,,,,,,,1.43,0.72,1.23*1C
$GPGSV,5,1,18,05,61,121,31,11,19,021,,12,36,004,34,13,19,152,39*7E
$GPGSV,5,2,18,14,00,132,23,15,28,187,34,18,25,235,19,20,44,061,30*70
$GPGSV,5,3,18,22,15,119,24,23,04,212,28,24,60,232,30,25,13,337,*71
$GPGSV,5,4,18,29,10,304,,36,52,277,,40,86,350,34,41,58,082,30*76
$GPGSV,5,5,18,49,32,274,,50,10,089,*78
$GLGSV,3,1,09,71,15,120,26,72,18,171,33,74,39,138,26,75,70,039,32*69
$GLGSV,3,2,09,76,19,344,,86,30,337,31,87,35,281,18,88,04,229,15*6D
$GLGSV,3,3,09,,,,36*69
$GNGLL,0420.00832,S,05539.79958,E,050353.00,A,A*65
$GNGRS,050353.00,1,2.4,-7.2,-7.8,2.0,0.1,-0.8,-1.1,-0.4,,,,*7E
$GNGRS,050353.00,1,3.3,10.2,1.7,2.4,-8.2,-13.1,,,,,,*5A
$GNGST,050353.00,34,,,,2.2,3.4,6.2*4D
$GNZDA,050353.00,23,05,2025,00,00*79
$GNGBS,050353.00,2.2,3.4,6.2,,,,*5C
$GNTXT,01,01,01,More than 100 frame errors, UART RX was disabled*70
b0XL=yT$%s,=wn<Q
0
{4"V^:R 
Y
fhGxOH!J'K F'dLXVQW#wX%8bLrs@W$GNRMC,050354.00,A,0420.00828,S,05539.79955,E,0.084,,230525,,,D*77
$GNVTG,,T,,M,0.084,N,0.156,K,D*36
$GNGNS,050354.00,0420.00828,S,05539.79955,E,DA,14,0.72,17.3,-47.6,,0000*63
$GNGGA,050354.00,0420.00828,S,05539.79955,E,2,12,0.72,17.3,M,-47.6,M,,0000*49
$GNGSA,A,3,24,20,05,13,15,22,12,18,,,,,1.43,0.72,1.23*12
$GNGSA,A,3,86,74,75,87,71,72,,,,,,,1.43,0.72,1.23*1C
$GPGSV,5,1,18,05,61,121,30,11,19,021,20,12,36,004,31,13,19,152,37*76
$GPGSV,5,2,18,14,00,132,25,15,28,187,30,18,25,235,19,20,44,061,28*7B
$GPGSV,5,3,18,22,15,119,25,23,04,212,27,24,60,232,30,25,13,337,*7F
$GPGSV,5,4,18,29,10,304,,36,52,277,,40,86,350,34,41,58,082,28*7F
$GPGSV,5,5,18,49,32,274,,50,10,089,*78
$GLGSV,3,1,09,71,15,120,26,72,18,171,33,74,39,138,25,75,70,039,32*6A
$GLGSV,3,2,09,76,19,344,,86,30,337,30,87,35,281,17,88,04,229,16*60
$GLGSV,3,3,09,,,,37*68
$GNGLL,0420.00828,S,05539.79955,E,050354.00,A,D*61
$GNGRS,050354.00,1,-2.8,-5.6,-4.3,1.9,2.1,-1.3,-1.2,1.7,,,,*78
$GNGRS,050354.00,1,9.4,9.5,3.6,1.2,-6.9,-8.2,,,,,,*55
$GNGST,050354.00,34,,,,2.2,3.4,6.2*4A
$GNZDA,050354.00,23,05,2025,00,00*7E
$GNGBS,050354.00,2.2,3.4,6.2,,,,*5B
$GNTXT,01,01,01,More than 100 frame errors, UART RX was disabled*70
b0XP=y#$%!"',=6w\<XQ
0
{4"V^:R 
Y
fGxoH!UJ'K!F'tLXVQW#X#AbPr[@$GNRMC,050355.00,A,0420.00827,S,05539.79952,E,0.074,,230525,,,D*71
$GNVTG,,T,,M,0.074,N,0.138,K,D*31
$GNGNS,050355.00,0420.00827,S,05539.79952,E,DA,14,0.72,17.2,-47.6,,0000*6B
$GNGGA,050355.00,0420.00827,S,05539.79952,E,2,12,0.72,17.2,M,-47.6,M,,0000*41
$GNGSA,A,3,24,20,05,13,15,22,12,18,,,,,1.43,0.72,1.23*12
$GNGSA,A,3,86,74,75,87,71,72,,,,,,,1.43,0.72,1.23*1C
$GPGSV,5,1,18,05,61,121,31,11,19,021,17,12,36,004,35,13,19,152,37*77
$GPGSV,5,2,18,14,00,132,24,15,28,187,33,18,25,235,20,20,44,061,28*73
$GPGSV,5,3,18,22,15,119,24,23,04,212,26,24,60,232,30,25,13,337,*7F
$GPGSV,5,4,18,29,10,304,,36,52,277,,40,86,350,34,41,58,082,28*7F
$GPGSV,5,5,18,49,32,274,,50,10,089,*78
$GLGSV,3,1,09,71,15,120,25,72,18,171,33,74,39,138,25,75,70,039,33*68
$GLGSV,3,2,09,76,19,344,,86,30,337,27,87,35,281,18,88,04,229,17*68
$GLGSV,3,3,09,,,,35*6A
$GNGLL,0420.00827,S,05539.79952,E,050355.00,A,D*68
$GNGRS,050355.00,1,-1.7,-7.1,-5.4,2.3,0.3,-0.3,-1.2,0.4,,,,*7C
$GNGRS,050355.00,1,15.3,10.1,1.2,2.6,-6.6,-9.4,,,,,,*5B
$GNGST,050355.00,33,,,,2.2,3.4,6.2*4C
$GNZDA,050355.00,23,05,2025,00,00*7F
$GNGBS,050355.00,2.2,3.4,6.2,,,,*5A
$GNTXT,01,01,01,More than 100 frame errors, UART RX was disabled*70
b0XT=y $x# ,=w,K<Q
0
{4V^:R 
Y
fGx
H  J'K!F'\LXVQW#>X#MbTrC@l'$GNRMC,050356.00,A,0420.00825,S,05539.79946,E,0.223,,230525,,,D*75
$GNVTG,,T,,M,0.223,N,0.413,K,D*3D
$GNGNS,050356.00,0420.00825,S,05539.79946,E,DA,14,0.72,17.2,-47.6,,0000*6F
$GNGGA,050356.00,0420.00825,S,05539.79946,E,2,12,0.72,17.2,M,-47.6,M,,0000*45
$GNGSA,A,3,24,20,05,13,15,22,12,18,,,,,1.43,0.72,1.23*12
$GNGSA,A,3,86,74,75,87,71,72,,,,,,,1.43,0.72,1.23*1C
$GPGSV,5,1,18,05,61,121,26,11,19,021,14,12,36,004,32,13,19,152,35*77
$GPGSV,5,2,18,14,00,132,25,15,28,187,32,18,25,235,19,20,44,061,27*76
$GPGSV,5,3,18,22,15,119,23,23,04,212,25,24,60,232,28,25,13,337,*72
$GPGSV,5,4,18,29,10,304,,36,52,277,,40,86,350,30,41,58,082,27*74
$GPGSV,5,5,18,49,32,274,,50,10,089,*78
$GLGSV,3,1,09,71,15,120,24,72,18,171,32,74,39,138,25,75,70,039,33*68
$GLGSV,3,2,09,76,19,344,,86,30,337,26,87,35,281,18,88,04,229,18*66
$GLGSV,3,3,09,,,,35*6A
$GNGLL,0420.00825,S,05539.79946,E,050356.00,A,D*6C
$GNGRS,050356.00,1,2.8,-0.8,-7.9,2.3,-0.9,0.4,-1.4,-1.2,,,,*7E
$GNGRS,050356.00,1,10.1,9.6,3.5,3.2,-7.6,-9.9,,,,,,*6C
$GNGST,050356.00,36,,,,2.2,3.4,6.2*4A
$GNZDA,050356.00,23,05,2025,00,00*7C
$GNGBS,050356.00,2.2,3.4,6.2,,,,*59
$GNTXT,01,01,01,More than 100 frame errors, UART RX was disabled*70
b0XX=y.#$n'[!,=w<^Q
0
{4 V^:R 
Y
fGxH J' K F'LXVQW"X#EbXr+@D$GNRMC,050357.00,A,0420.00828,S,05539.79945,E,0.036,,230525,,,D*7C
$GNVTG,,T,,M,0.036,N,0.067,K,D*3C
$GNGNS,050357.00,0420.00828,S,05539.79945,E,DA,14,0.72,17.2,-47.6,,0000*60
$GNGGA,050357.00,0420.00828,S,05539.79945,E,2,12,0.72,17.2,M,-47.6,M,,0000*4A
$GNGSA,A,3,24,20,05,13,15,22,12,18,,,,,1.43,0.72,1.23*12
$GNGSA,A,3,86,74,75,87,71,72,,,,,,,1.43,0.72,1.23*1C
$GPGSV,5,1,18,05,61,121,27,11,19,021,11,12,36,004,35,13,19,152,39*78
$GPGSV,5,2,18,14,00,132,25,15,28,187,33,18,25,235,20,20,44,061,27*7D
$GPGSV,5,3,18,22,15,119,23,23,04,212,25,24,60,232,29,25,13,337,*73
$GPGSV,5,4,18,29,10,304,,36,52,277,,40,86,350,32,41,58,082,29*78
$GPGSV,5,5,18,49,32,274,,50,10,089,*78
$GLGSV,3,1,09,71,15,120,24,72,18,171,32,74,39,138,26,75,70,039,32*6A
$GLGSV,3,2,09,76,19,344,,86,30,337,28,87,34,282,18,88,04,229,18*6A
$GLGSV,3,3,09,,,,35*6A
$GNGLL,0420.00828,S,05539.79945,E,050357.00,A,D*63
$GNGRS,050357.00,1,0.9,-0.1,-4.7,2.3,4.2,1.6,-1.5,-2.8,,,,*51
$GNGRS,050357.00,1,5.4,10.6,2.6,5.0,-8.4,-10.6,,,,,,*58
$GNGST,050357.00,35,,,,2.2,3.4,6.2*48
$GNZDA,050357.00,23,05,2025,00,00*7D
$GNGBS,050357.00,2.2,3.4,6.2,,,,*58
$GNTXT,01,01,01,More than 100 frame errors, UART RX was disabled*70
b0X\=y!$M$! C;,=w<}Q
0
{4V^:R 
Y
fGxH yJ'}KF'3LXVQW"X"V|b\r@$GNRMC,050358.00,A,0420.00831,S,05539.79944,E,0.037,,230525,,,D*7B
$GNVTG,,T,,M,0.037,N,0.068,K,D*32
$GNGNS,050358.00,0420.00831,S,05539.79944,E,DA,14,0.72,17.3,-47.6,,0000*67
$GNGGA,050358.00,0420.00831,S,05539.79944,E,2,12,0.72,17.3,M,-47.6,M,,0000*4D
$GNGSA,A,3,24,20,05,13,15,22,12,18,,,,,1.43,0.72,1.23*12
$GNGSA,A,3,86,74,75,87,71,72,,,,,,,1.43,0.72,1.23*1C
$GPGSV,5,1,18,05,61,121,27,11,19,021,12,12,36,004,33,13,19,152,36*72
$GPGSV,5,2,18,14,00,132,24,15,28,187,32,18,25,235,18,20,44,061,27*76
$GPGSV,5,3,18,22,15,119,21,23,04,212,24,24,60,232,28,25,13,337,*71
$GPGSV,5,4,18,29,10,304,,36,52,277,,40,86,350,30,41,58,082,29*7A
$GPGSV,5,5,18,49,32,274,,50,10,089,*78
$GLGSV,3,1,09,71,15,120,24,72,18,171,32,74,39,138,26,75,70,039,31*69
$GLGSV,3,2,09,76,19,344,,86,30,337,28,87,34,282,18,88,04,230,18*62
$GLGSV,3,3,09,,,,34*6B
$GNGLL,0420.00831,S,05539.79944,E,050358.00,A,D*65
$GNGRS,050358.00,1,1.3,-2.7,-2.6,2.0,5.8,-0.1,-1.8,-2.0,,,,*70
$GNGRS,050358.00,1,4.7,11.5,0.5,2.5,-8.0,-9.0,,,,,,*6E
$GNGST,050358.00,36,,,,2.2,3.4,6.2*44
$GNZDA,050358.00,23,05,2025,00,00*72
$GNGBS,050358.00,2.2,3.4,6.2,,,,*57
$GNTXT,01,01,01,More than 100 frame errors, UART RX was disabled*70
b0Xh`=y*"$d&d!,=|w<Q
0
{4 V^:R 
Y
fGxMH lJ'SKF'LXVQZW"6X"E;bh`r@\$GNRMC,050359.00,A,0420.00832,S,05539.79947,E,0.097,,230525,,,D*70
$GNVTG,,T,,M,0.097,N,0.180,K,D*3F
$GNGNS,050359.00,0420.00832,S,05539.79947,E,DA,14,0.75,17.3,-47.6,,0000*61
$GNGGA,050359.00,0420.00832,S,05539.79947,E,2,12,0.75,17.3,M,-47.6,M,,0000*4B
$GNGSA,A,3,24,20,05,13,15,22,12,18,,,,,1.53,0.75,1.34*12
$GNGSA,A,3,86,74,75,87,71,72,,,,,,,1.53,0.75,1.34*1C
$GPGSV,5,1,18,05,61,121,28,11,19,021,12,12,36,004,34,13,19,152,38*74
$GPGSV,5,2,18,14,00,132,24,15,28,187,33,18,25,235,18,20,44,061,27*77
$GPGSV,5,3,18,22,15,119,22,23,04,212,24,24,60,232,29,25,13,337,*73
$GPGSV,5,4,18,29,10,304,,36,52,277,,40,86,350,32,41,58,082,28*79
$GPGSV,5,5,18,49,32,274,,50,10,089,*78
$GLGSV,3,1,09,71,15,120,24,72,18,171,32,74,39,138,25,75,70,039,31*6A
$GLGSV,3,2,09,76,19,344,,86,30,337,27,87,34,282,18,88,04,230,18*6D
$GLGSV,3,3,09,,,,34*6B
$GNGLL,0420.00832,S,05539.79947,E,050359.00,A,D*64
$GNGRS,050359.00,1,-1.3,-6.4,-2.1,1.9,1.5,2.6,-1.6,-2.5,,,,*7C
$GNGRS,050359.00,1,3.5,11.1,1.3,0.5,-9.5,-9.2,,,,,,*6D
$GNGST,050359.00,34,,,,2.2,3.4,6.1*44
$GNZDA,050359.00,23,05,2025,00,00*73
$GNGBS,050359.00,2.2,3.4,6.1,,,,*55
$GNTXT,01,01,01,More than 100 frame errors, UART RX was disabled*70
b0XPd=y&#$Y&!0k,=w`$<kQ
0
{4!V^:R 
Y
fGxsH ZJ'&K F'LXVQ,W"X"{NbPdr@$GNRMC,050400.00,A,0420.00835,S,05539.79949,E,0.038,,230525,,,D*77
$GNVTG,,T,,M,0.038,N,0.070,K,D*34
$GNGNS,050400.00,0420.00835,S,05539.79949,E,DA,14,0.75,17.4,-47.6,,0000*64
$GNGGA,050400.00,0420.00835,S,05539.79949,E,2,12,0.75,17.4,M,-47.6,M,,0000*4E
$GNGSA,A,3,24,20,05,13,15,22,12,18,,,,,1.53,0.75,1.34*12
$GNGSA,A,3,86,74,75,87,71,72,,,,,,,1.53,0.75,1.34*1C
$GPGSV,5,1,18,05,61,121,29,11,19,021,13,12,36,004,35,13,19,152,38*75
$GPGSV,5,2,18,14,00,132,26,15,28,187,33,18,25,235,18,20,44,061,28*7A
$GPGSV,5,3,18,22,15,119,23,23,04,212,24,24,60,232,29,25,13,337,*72
$GPGSV,5,4,18,29,10,304,,36,52,277,,40,86,350,33,41,58,082,28*78
$GPGSV,5,5,18,49,32,274,,50,10,089,*78
$GLGSV,3,1,09,71,15,120,25,72,18,171,32,74,39,138,26,75,70,039,32*6B
$GLGSV,3,2,09,76,19,344,,86,30,337,28,87,34,282,17,88,04,230,17*62
$GLGSV,3,3,09,,,,34*6B
$GNGLL,0420.00835,S,05539.79949,E,050400.00,A,D*66
$GNGRS,050400.00,1,1.1,-5.0,-4.7,1.9,0.5,3.5,-1.7,-1.5,,,,*5E
$GNGRS,050400.00,1,3.0,10.6,2.5,0.2,-6.5,-9.3,,,,,,*69
$GNGST,050400.00,33,,,,2.1,3.4,6.1*4B
$GNZDA,050400.00,23,05,2025,00,00*78
$GNGBS,050400.00,2.1,3.4,6.1,,,,*5D
$GNTXT,01,01,01,More than 100 frame errors, UART RX was disabled*70
b0X8h=yV$_$XL,=vw<Q
0
{4 V^:R 
Y
fGxnHJJ'KF'LXVQW"X gb8hr@,$GNRMC,050401.00,A,0420.00835,S,05539.79951,E,0.038,,230525,,,D*7F
$GNVTG,,T,,M,0.038,N,0.070,K,D*34
$GNGNS,050401.00,0420.00835,S,05539.79951,E,DA,14,0.75,17.3,-47.6,,0000*6B
$GNGGA,050401.00,0420.00835,S,05539.79951,E,2,12,0.75,17.3,M,-47.6,M,,0000*41
$GNGSA,A,3,24,20,05,13,15,22,12,18,,,,,1.53,0.75,1.34*12
$GNGSA,A,3,86,74,75,87,71,72,,,,,,,1.53,0.75,1.34*1C
$GPGSV,5,1,18,05,61,121,28,11,19,021,12,12,36,004,31,13,19,152,36*7F
$GPGSV,5,2,18,14,00,132,25,15,28,187,31,18,25,235,19,20,44,061,27*75
$GPGSV,5,3,18,22,15,119,22,23,04,212,24,24,60,232,28,25,13,337,*72
$GPGSV,5,4,18,29,10,304,,36,52,277,,40,86,350,32,41,58,082,27*76
$GPGSV,5,5,18,49,32,274,,50,10,089,*78
$GLGSV,3,1,09,71,15,120,23,72,18,171,30,74,39,138,25,75,70,039,31*6F
$GLGSV,3,2,09,76,19,344,,86,30,337,27,87,34,282,16,88,04,230,17*6C
$GLGSV,3,3,09,,,,32*6D
$GNGLL,0420.00835,S,05539.79951,E,050401.00,A,D*6E
$GNGRS,050401.00,1,-1.0,-6.5,-6.8,1.6,-0.6,4.0,-1.6,0.8,,,,*7B
$GNGRS,050401.00,1,2.1,10.4,2.4,-0.9,-4.0,-9.5,,,,,,*4C
$GNGST,050401.00,36,,,,2.1,3.4,6.1*4F
$GNZDA,050401.00,23,05,2025,00,00*79
$GNGBS,050401.00,2.1,3.4,6.1,,,,*5C
$GNTXT,01,01,01,More than 100 frame errors, UART RX was disabled*70
b0X l=y#$~&M",=[wA<Q
0
{4!V^:R 
Y
fGxH VJ'K F'LXVQW"$X!|b lr@{$GNRMC,050402.00,A,0420.00837,S,05539.79951,E,0.012,,230525,,,D*76
$GNVTG,,T,,M,0.012,N,0.022,K,D*3B
$GNGNS,050402.00,0420.00837,S,05539.79951,E,DA,14,0.75,17.4,-47.6,,0000*6D
$GNGGA,050402.00,0420.00837,S,05539.79951,E,2,12,0.75,17.4,M,-47.6,M,,0000*47
$GNGSA,A,3,24,20,05,13,15,22,12,18,,,,,1.53,0.75,1.34*12
$GNGSA,A,3,86,74,75,87,71,72,,,,,,,1.53,0.75,1.34*1C
$GPGSV,5,1,18,05,61,121,28,11,19,021,13,12,36,004,35,13,19,152,38*74
$GPGSV,5,2,18,14,00,132,26,15,28,187,34,18,25,235,18,20,44,061,28*7D
$GPGSV,5,3,18,22,15,119,23,23,04,212,24,24,60,232,29,25,13,337,*72
$GPGSV,5,4,18,29,10,304,,36,52,277,,40,86,350,33,41,58,082,27*77
$GPGSV,5,5,18,49,32,274,,50,10,089,*78
$GLGSV,3,1,09,71,15,120,23,72,18,171,32,74,39,138,25,75,70,039,32*6E
$GLGSV,3,2,09,76,19,344,,86,30,337,27,87,34,282,16,88,04,230,17*6C
$GLGSV,3,3,09,,,,33*6C
$GNGLL,0420.00837,S,05539.79951,E,050402.00,A,D*6F
$GNGRS,050402.00,1,-1.1,-6.8,-5.2,1.4,3.9,3.2,-1.3,2.0,,,,*54
$GNGRS,050402.00,1,1.4,10.0,2.7,0.4,-2.9,-11.9,,,,,,*54
$GNGST,050402.00,34,,,,2.1,3.4,6.1*4E
$GNZDA,050402.00,23,05,2025,00,00*7A
$GNGBS,050402.00,2.1,3.4,6.1,,,,*5F
$GNTXT,01,01,01,More than 100 frame errors, UART RX was disabled*70
b0Xp=x"$&x!,=ew<~Q
0
{4!V^:R 
Y
fGxH!9J'K!F'LXVQW"X#wbpr@S$GNRMC,050403.00,A,0420.00836,S,05539.79955,E,0.088,,230525,,,D*71
$GNVTG,,T,,M,0.088,N,0.163,K,D*3C
$GNGNS,050403.00,0420.00836,S,05539.79955,E,DA,14,0.75,17.4,-47.6,,0000*69
$GNGGA,050403.00,0420.00836,S,05539.79955,E,2,12,0.75,17.4,M,-47.6,M,,0000*43
$GNGSA,A,3,24,20,05,13,15,22,12,18,,,,,1.53,0.75,1.34*12
$GNGSA,A,3,86,74,75,87,71,72,,,,,,,1.53,0.75,1.34*1C
$GPGSV,5,1,18,05,61,120,29,11,19,021,11,12,36,004,34,13,19,152,38*77
$GPGSV,5,2,18,14,00,132,26,15,28,187,33,18,25,235,18,20,44,061,28*7A
$GPGSV,5,3,18,22,15,119,23,23,04,212,24,24,60,232,30,25,13,337,*7A
$GPGSV,5,4,18,29,10,304,,36,52,277,,40,86,350,33,41,58,082,27*77
$GPGSV,5,5,18,49,32,274,,50,10,089,*78
$GLGSV,3,1,09,71,15,120,24,72,18,171,33,74,39,138,25,75,70,039,33*69
$GLGSV,3,2,09,76,19,344,,86,30,337,28,87,34,282,16,88,04,230,18*6C
$GLGSV,3,3,09,,,,35*6A
$GNGLL,0420.00836,S,05539.79955,E,050403.00,A,D*6B
$GNGRS,050403.00,1,-1.3,-4.1,-4.9,1.2,2.7,3.8,-1.1,2.1,,,,*56
$GNGRS,050403.00,1,-0.2,9.6,-0.8,2.1,-5.3,-17.3,,,,,,*67
$GNGST,050403.00,34,,,,2.1,3.4,6.1*4F
$GNZDA,050403.00,23,05,2025,00,00*7B
$GNGBS,050403.00,2.1,3.4,6.1,,,,*5E
$GNTXT,01,01,01,More than 100 frame errors, UART RX was disabled*70
b0Xs=x4"$&"g,=w<Q
0
{4#V^:R 
Y
fLGxH!J'xK!F'zLXVQW"zX#Ubsr@*U$GNRMC,050404.00,A,0420.00836,S,05539.79957,E,0.103,,230525,,,D*76
$GNVTG,,T,,M,0.103,N,0.191,K,D*33
$GNGNS,050404.00,0420.00836,S,05539.79957,E,DA,14,0.72,17.3,-47.6,,0000*6C
$GNGGA,050404.00,0420.00836,S,05539.79957,E,2,12,0.72,17.3,M,-47.6,M,,0000*46
$GNGSA,A,3,24,20,05,13,15,22,12,18,,,,,1.43,0.72,1.23*12
$GNGSA,A,3,86,74,75,87,71,72,,,,,,,1.43,0.72,1.23*1C
$GPGSV,5,1,18,05,61,120,31,11,19,021,15,12,36,004,34,13,19,152,38*7A
$GPGSV,5,2,18,14,00,132,26,15,28,187,34,18,25,235,18,20,44,061,28*7D
$GPGSV,5,3,18,22,15,119,24,23,04,212,25,24,60,232,30,25,13,337,*7C
$GPGSV,5,4,18,29,10,304,,36,52,277,,40,86,350,35,41,58,082,27*71
$GPGSV,5,5,18,49,32,274,,50,10,089,*78
$GLGSV,3,1,09,71,15,120,24,72,18,171,33,74,39,138,25,75,70,039,33*69
$GLGSV,3,2,09,76,19,344,,86,30,337,28,87,34,282,17,88,04,230,17*62
$GLGSV,3,3,09,,,,35*6A
$GNGLL,0420.00836,S,05539.79957,E,050404.00,A,D*6E
$GNGRS,050404.00,1,-0.7,-5.5,-7.2,1.5,1.9,5.1,-1.3,3.6,,,,*58
$GNGRS,050404.00,1,-2.3,8.9,-3.9,1.2,-5.4,-15.6,,,,,,*6F
$GNGST,050404.00,36,,,,2.1,3.4,6.0*4B
$GNZDA,050404.00,23,05,2025,00,00*7C
$GNGBS,050404.00,2.1,3.4,6.0,,,,*58
$GNTXT,01,01,01,More than 100 frame errors, UART RX was disabled*70
b0Xw=x"$&d!7,=w]<Q
0
{4#V^:R 
Y
fGxH!{J'K"F'LXVQW"X$bwrk@$GNRMC,050405.00,A,0420.00836,S,05539.79960,E,0.018,,230525,,,D*78
$GNVTG,,T,,M,0.018,N,0.034,K,D*36
$GNGNS,050405.00,0420.00836,S,05539.79960,E,DA,14,0.72,17.2,-47.6,,0000*68
$GNGGA,050405.00,0420.00836,S,05539.79960,E,2,12,0.72,17.2,M,-47.6,M,,0000*42
$GNGSA,A,3,24,20,05,13,15,22,12,18,,,,,1.43,0.72,1.23*12
$GNGSA,A,3,86,74,75,87,71,72,,,,,,,1.43,0.72,1.23*1C
$GPGSV,5,1,18,05,61,120,31,11,19,021,17,12,36,004,34,13,19,152,38*78
$GPGSV,5,2,18,14,00,132,26,15,28,187,33,18,25,235,17,20,44,061,29*74
$GPGSV,5,3,18,22,15,119,22,23,04,212,26,24,60,232,30,25,13,337,*79
$GPGSV,5,4,18,29,10,304,,36,52,277,,40,86,350,35,41,58,082,*74
$GPGSV,5,5,18,49,32,274,,50,10,089,*78
$GLGSV,3,1,09,71,15,120,23,72,18,171,33,74,39,138,24,75,70,039,34*68
$GLGSV,3,2,09,76,19,344,,86,30,337,28,87,34,282,20,88,04,230,17*66
$GLGSV,3,3,09,,,,36*69
$GNGLL,0420.00836,S,05539.79960,E,050405.00,A,D*6B
$GNGRS,050405.00,1,-1.0,-6.2,-6.0,1.6,0.5,6.0,-0.9,4.5,,,,*5B
$GNGRS,050405.00,1,-0.7,9.2,-1.0,-2.9,-5.3,-14.1,,,,,,*4D
$GNGST,050405.00,36,,,,2.1,3.4,6.0*4A
$GNZDA,050405.00,23,05,2025,00,00*7D
$GNGBS,050405.00,2.1,3.4,6.0,,,,*59
$GNTXT,01,01,01,More than 100 frame errors, UART RX was disabled*70
b0X{=x#$&!$,='w<7Q
0
{4#V^:R 
Y
fXGxzH!J'K"F'LXVQW"X#b{rS@%$GNRMC,050406.00,A,0420.00836,S,05539.79962,E,0.039,,230525,,,D*7A
$GNVTG,,T,,M,0.039,N,0.072,K,D*37
$GNGNS,050406.00,0420.00836,S,05539.79962,E,DA,14,0.72,17.2,-47.6,,0000*69
$GNGGA,050406.00,0420.00836,S,05539.79962,E,2,12,0.72,17.2,M,-47.6,M,,0000*43
$GNGSA,A,3,24,20,05,13,15,22,12,18,,,,,1.43,0.72,1.23*12
$GNGSA,A,3,86,74,75,87,71,72,,,,,,,1.43,0.72,1.23*1C
$GPGSV,5,1,18,05,61,120,31,11,19,021,17,12,36,004,35,13,19,152,38*79
$GPGSV,5,2,18,14,00,132,26,15,28,187,33,18,25,235,17,20,44,061,29*74
$GPGSV,5,3,18,22,15,119,22,23,04,212,26,24,60,232,30,25,13,337,*79
$GPGSV,5,4,18,29,10,304,,36,52,277,,40,86,350,35,41,58,082,*74
$GPGSV,5,5,18,49,32,274,,50,10,089,*78
$GLGSV,3,1,09,71,15,120,23,72,18,171,33,74,39,138,24,75,70,039,34*68
$GLGSV,3,2,09,76,19,344,,86,30,337,27,87,34,282,20,88,04,230,17*69
$GLGSV,3,3,09,,,,35*6A
$GNGLL,0420.00836,S,05539.79962,E,050406.00,A,D*6A
$GNGRS,050406.00,1,0.5,-4.7,-6.1,1.8,-0.2,6.4,-0.9,2.9,,,,*5D
$GNGRS,050406.00,1,-0.6,9.1,1.9,-3.8,-6.5,-12.5,,,,,,*6F
$GNGST,050406.00,36,,,,2.1,3.4,6.0*49
$GNZDA,050406.00,23,05,2025,00,00*7E
$GNGBS,050406.00,2.1,3.4,6.0,,,,*5A
$GNTXT,01,01,01,More than 100 frame errors, UART RX was disabled*70
b0X=x$$x,=wY<Q
0
{4 V^:R 
Y
fJGxH![J'K"F'LXVQW"X br;@$GNRMC,050407.00,A,0420.00836,S,05539.79961,E,0.107,,230525,,,D*74
$GNVTG,,T,,M,0.107,N,0.198,K,D*3E
$GNGNS,050407.00,0420.00836,S,05539.79961,E,DA,14,0.72,17.2,-47.6,,0000*6B
$GNGGA,050407.00,0420.00836,S,05539.79961,E,2,12,0.72,17.2,M,-47.6,M,,0000*41
$GNGSA,A,3,24,20,05,13,15,22,12,18,,,,,1.43,0.72,1.23*12
$GNGSA,A,3,86,74,75,87,71,72,,,,,,,1.43,0.72,1.23*1C
$GPGSV,5,1,18,05,61,120,31,11,19,021,17,12,36,004,31,13,19,152,36*73
$GPGSV,5,2,18,14,00,132,26,15,28,187,28,18,25,235,16,20,44,061,28*7E
$GPGSV,5,3,18,22,15,119,22,23,04,212,26,24,60,232,30,25,13,337,*79
$GPGSV,5,4,18,29,10,304,,36,52,277,,40,86,350,32,41,58,082,28*79
$GPGSV,5,5,18,49,32,274,,50,10,089,*78
$GLGSV,3,1,09,71,15,120,22,72,18,171,33,74,39,138,24,75,70,039,34*69
$GLGSV,3,2,09,76,19,344,,86,30,337,27,87,34,282,20,88,04,230,16*68
$GLGSV,3,3,09,,,,32*6D
$GNGLL,0420.00836,S,05539.79961,E,050407.00,A,D*68
$GNGRS,050407.00,1,-0.7,-3.3,-6.0,1.8,2.6,6.0,-0.9,1.7,,,,*53
$GNGRS,050407.00,1,-1.0,9.2,0.0,-2.4,-6.0,-9.3,,,,,,*56
$GNGST,050407.00,37,,,,2.1,3.4,5.9*43
$GNZDA,050407.00,23,05,2025,00,00*7F
$GNGBS,050407.00,2.1,3.4,5.9,,,,*51
$GNTXT,01,01,01,More than 100 frame errors, UART RX was disabled*70
b0X=xR#$E&!S,=w <Q
0
{4#V^:R 
Y
fdGx*H!YJ'K!F'LXVQW"X$vbr#@$GNRMC,050408.00,A,0420.00835,S,05539.79959,E,0.108,,230525,,,D*7C
$GNVTG,,T,,M,0.108,N,0.201,K,D*32
$GNGNS,050408.00,0420.00835,S,05539.79959,E,DA,14,0.72,17.1,-47.6,,0000*6F
$GNGGA,050408.00,0420.00835,S,05539.79959,E,2,12,0.72,17.1,M,-47.6,M,,0000*45
$GNGSA,A,3,24,20,05,13,15,22,12,18,,,,,1.43,0.72,1.23*12
$GNGSA,A,3,86,74,75,87,71,72,,,,,,,1.43,0.72,1.23*1C
$GPGSV,5,1,18,05,61,120,30,11,19,021,17,12,36,004,35,13,19,152,38*78
$GPGSV,5,2,18,14,00,132,26,15,28,187,33,18,25,235,16,20,44,061,29*75
$GPGSV,5,3,18,22,15,119,22,23,04,212,26,24,60,232,30,25,13,337,*79
$GPGSV,5,4,18,29,10,304,,36,52,277,,40,86,350,35,41,58,082,28*7E
$GPGSV,5,5,18,49,32,274,,50,10,089,*78
$GLGSV,3,1,09,71,15,120,21,72,18,171,33,74,39,138,25,75,70,039,33*6C
$GLGSV,3,2,09,76,19,344,,86,30,337,26,87,34,282,20,88,04,230,17*68
$GLGSV,3,3,09,,,,36*69
$GNGLL,0420.00835,S,05539.79959,E,050408.00,A,D*6F
$GNGRS,050408.00,1,-3.8,-7.5,-6.9,1.7,1.7,5.4,0.7,0.8,,,,*7C
$GNGRS,050408.00,1,0.3,9.1,-0.4,-1.0,-7.3,-9.4,,,,,,*5E
$GNGST,050408.00,37,,,,2.1,3.4,5.9*4C
$GNZDA,050408.00,23,05,2025,00,00*70
$GNGBS,050408.00,2.1,3.4,5.9,,,,*5E
$GNTXT,01,01,01,More than 100 frame errors, UART RX was disabled*70
b0Xx=x#$9&
"E,=w<HQ
0
{4"V^:R 
Y
fGx1H!J'NK!F'LXVQfW"MX"/bxrAc_$GNRMC,050409.00,A,0420.00836,S,05539.79955,E,0.053,,230525,,,D*7D
$GNVTG,,T,,M,0.053,N,0.098,K,D*3F
$GNGNS,050409.00,0420.00836,S,05539.79955,E,DA,14,0.72,17.0,-47.6,,0000*60
$GNGGA,050409.00,0420.00836,S,05539.79955,E,2,12,0.72,17.0,M,-47.6,M,,0000*4A
$GNGSA,A,3,24,20,05,13,15,22,12,18,,,,,1.43,0.72,1.23*12
$GNGSA,A,3,86,74,75,87,71,72,,,,,,,1.43,0.72,1.23*1C
$GPGSV,5,1,18,05,61,120,29,11,18,021,17,12,36,004,35,13,19,152,38*71
$GPGSV,5,2,18,14,00,132,26,15,28,187,34,18,25,235,19,20,44,061,29*7D
$GPGSV,5,3,18,22,15,119,22,23,04,212,25,24,60,232,30,25,13,337,*7A
$GPGSV,5,4,18,29,10,304,,36,52,277,,40,86,350,34,41,58,082,28*7F
$GPGSV,5,5,18,49,32,274,,50,10,089,*78
$GLGSV,3,1,09,71,15,120,22,72,18,171,33,74,39,138,25,75,70,039,33*6F
$GLGSV,3,2,09,76,19,344,,86,30,337,25,87,34,282,20,88,04,230,19*65
$GLGSV,3,3,09,,,,34*6B
$GNGLL,0420.00836,S,05539.79955,E,050409.00,A,D*61
$GNGRS,050409.00,1,0.7,-10.7,-8.5,1.4,3.2,4.5,0.6,1.8,,,,*6E
$GNGRS,050409.00,1,1.0,8.5,-1.0,0.8,-7.2,-8.6,,,,,,*7B
$GNGST,050409.00,36,,,,2.1,3.4,5.9*4C
$GNZDA,050409.00,23,05,2025,00,00*71
$GNGBS,050409.00,2.1,3.4,5.9,,,,*5F
$GNTXT,01,01,01,More than 100 frame errors, UART RX was disabled*70
b0X`=xF#$i&!?,=w<Q
0
{4#V^:R 
Y
fvGxH!J'ZK"F'nLXVQW"X#:b`rA:$GNRMC,050410.00,A,0420.00837,S,05539.79956,E,0.030,,230525,,,D*72
$GNVTG,,T,,M,0.030,N,0.056,K,D*38
$GNGNS,050410.00,0420.00837,S,05539.79956,E,DA,14,0.72,17.0,-47.6,,0000*6A
$GNGGA,050410.00,0420.00837,S,05539.79956,E,2,12,0.72,17.0,M,-47.6,M,,0000*40
$GNGSA,A,3,24,20,05,13,15,22,12,18,,,,,1.43,0.72,1.23*12
$GNGSA,A,3,86,74,75,87,71,72,,,,,,,1.43,0.72,1.23*1C
$GPGSV,5,1,18,05,61,120,30,11,18,021,14,12,36,004,35,13,19,152,38*7A
$GPGSV,5,2,18,14,00,132,24,15,28,187,33,18,25,235,22,20,44,061,31*79
$GPGSV,5,3,18,22,15,119,23,23,04,212,25,24,60,232,29,25,13,337,*73
$GPGSV,5,4,18,29,10,304,,36,52,277,,40,86,350,35,41,58,082,29*7F
$GPGSV,5,5,18,49,32,274,,50,10,089,*78
$GLGSV,3,1,09,71,15,120,23,72,18,171,33,74,39,138,24,75,70,039,34*68
$GLGSV,3,2,09,76,19,344,,86,30,337,22,87,34,282,20,88,04,230,19*62
$GLGSV,3,3,09,,,,35*6A
$GNGLL,0420.00837,S,05539.79956,E,050410.00,A,D*6B
$GNGRS,050410.00,1,0.3,-8.6,-7.0,1.5,-1.2,5.3,-1.5,0.6,,,,*59
$GNGRS,050410.00,1,1.7,8.6,3.7,0.1,-8.0,-13.1,,,,,,*66
$GNGST,050410.00,34,,,,2.1,3.4,5.9*46
$GNZDA,050410.00,23,05,2025,00,00*79
$GNGBS,050410.00,2.1,3.4,5.9,,,,*57
$GNTXT,01,01,01,More than 100 frame errors, UART RX was disabled*70
b0XH=x] $$2,=w<_Q
0
{4V^:R 
Y
fGxH$J'K"F'LXVQW"X%bHrA,$GNRMC,050411.00,A,0420.00832,S,05539.79966,E,0.071,,230525,,,D*70
$GNVTG,,T,,M,0.071,N,0.131,K,D*3D
$GNGNS,050411.00,0420.00832,S,05539.79966,E,DA,14,0.72,17.3,-47.6,,0000*6E
$GNGGA,050411.00,0420.00832,S,05539.79966,E,2,12,0.72,17.3,M,-47.6,M,,0000*44
$GNGSA,A,3,24,20,05,13,15,22,12,18,,,,,1.43,0.72,1.23*12
$GNGSA,A,3,86,74,75,87,71,72,,,,,,,1.43,0.72,1.23*1C
$GPGSV,5,1,18,05,61,120,29,11,18,021,,12,36,004,32,13,19,152,36*7E
$GPGSV,5,2,18,14,00,132,21,15,28,187,29,18,25,235,21,20,44,061,25*71
$GPGSV,5,3,18,22,15,119,22,23,04,212,22,24,60,232,28,25,13,337,*74
$GPGSV,5,4,18,29,10,304,,36,52,277,,40,86,350,30,41,58,082,27*74
$GPGSV,5,5,18,49,32,274,,50,10,089,*78
$GLGSV,3,1,09,71,15,120,22,72,18,171,36,74,39,138,24,75,70,039,34*6C
$GLGSV,3,2,09,76,19,344,,86,30,337,20,87,34,282,19,88,04,230,18*6B
$GLGSV,3,3,09,,,,37*68
$GNGLL,0420.00832,S,05539.79966,E,050411.00,A,D*6C
$GNGRS,050411.00,1,-1.6,-5.8,-6.8,1.9,0.5,4.4,-2.7,0.1,,,,*5C
$GNGRS,050411.00,1,1.7,8.9,5.1,-1.0,-5.6,-15.3,,,,,,*4A
$GNGST,050411.00,37,,,,2.1,3.4,5.9*44
$GNZDA,050411.00,23,05,2025,00,00*78
$GNGBS,050411.00,2.1,3.4,5.9,,,,*56
$GNTXT,01,01,01,More than 100 frame errors, UART RX was disabled*70
b0X0=xc"$&!<,=ZwP<Q
0
{4V^:R 
Y
fGxH"J'K!F'ILXVQ`W"X!7b0rA$GNRMC,050412.00,A,0420.00833,S,05539.79970,E,0.040,,230525,,,D*77
$GNVTG,,T,,M,0.040,N,0.074,K,D*3F
$GNGNS,050412.00,0420.00833,S,05539.79970,E,DA,14,0.72,17.4,-47.6,,0000*6C
$GNGGA,050412.00,0420.00833,S,05539.79970,E,2,12,0.72,17.4,M,-47.6,M,,0000*46
$GNGSA,A,3,24,20,05,13,15,22,12,18,,,,,1.43,0.72,1.23*12
$GNGSA,A,3,86,74,75,87,71,72,,,,,,,1.43,0.72,1.23*1C
$GPGSV,5,1,18,05,61,120,28,11,18,021,,12,36,004,34,13,19,152,38*77
$GPGSV,5,2,18,14,00,133,17,15,28,187,33,18,25,235,19,20,44,061,27*77
$GPGSV,5,3,18,22,15,119,22,23,04,212,21,24,60,232,28,25,13,337,*77
$GPGSV,5,4,18,29,10,304,,36,52,277,,40,86,350,31,41,58,082,28*7A
$GPGSV,5,5,18,49,32,274,,50,10,089,*78
$GLGSV,3,1,09,71,15,120,20,72,18,171,34,74,39,138,24,75,70,039,33*6B
$GLGSV,3,2,09,76,19,344,,86,30,337,18,87,34,282,19,88,04,230,18*60
$GLGSV,3,3,09,,,,33*6C
$GNGLL,0420.00833,S,05539.79970,E,050412.00,A,D*69
$GNGRS,050412.00,1,-0.6,-4.2,-6.7,2.0,2.8,3.4,-0.4,0.6,,,,*5E
$GNGRS,050412.00,1,-1.6,9.1,3.3,0.2,-7.9,-10.6,,,,,,*4B
$GNGST,050412.00,39,,,,2.1,3.4,5.9*49
$GNZDA,050412.00,23,05,2025,00,00*7B
$GNGBS,050412.00,2.1,3.4,5.9,,,,*55
$GNTXT,01,01,01,More than 100 frame errors, UART RX was disabled*70
b0X=xt"$,%P!",=w+<6Q
0
{4 V^:R 
Y
fGxH!J'K F'LXVQW"X!hbrA$GNRMC,050413.00,A,0420.00833,S,05539.79969,E,0.059,,230525,,,D*76
$GNVTG,,T,,M,0.059,N,0.110,K,D*34
$GNGNS,050413.00,0420.00833,S,05539.79969,E,DA,14,0.72,17.4,-47.6,,0000*65
$GNGGA,050413.00,0420.00833,S,05539.79969,E,2,12,0.72,17.4,M,-47.6,M,,0000*4F
$GNGSA,A,3,24,20,05,13,15,22,12,18,,,,,1.43,0.72,1.23*12
$GNGSA,A,3,86,74,75,87,71,72,,,,,,,1.43,0.72,1.23*1C
$GPGSV,5,1,18,05,61,120,29,11,18,021,,12,36,004,34,13,19,152,37*79
$GPGSV,5,2,18,14,00,133,17,15,28,186,33,18,25,235,17,20,44,061,28*77
$GPGSV,5,3,18,22,15,119,21,23,04,212,19,24,60,232,28,25,13,337,*7F
$GPGSV,5,4,18,29,10,304,,36,52,277,,40,86,350,32,41,58,082,28*79
$GPGSV,5,5,18,49,32,274,,50,10,089,*78
$GLGSV,3,1,09,71,15,120,19,72,18,171,33,74,39,138,24,75,70,039,32*67
$GLGSV,3,2,09,76,19,344,,86,30,337,16,87,34,282,18,88,04,230,17*60
$GLGSV,3,3,09,,,,33*6C
$GNGLL,0420.00833,S,05539.79969,E,050413.00,A,D*60
$GNGRS,050413.00,1,0.5,-2.4,-9.1,1.9,2.9,3.0,0.4,0.3,,,,*5F
$GNGRS,050413.00,1,-0.9,9.4,5.3,0.2,-8.1,-12.7,,,,,,*43
$GNGST,050413.00,40,,,,2.1,3.4,5.9*46
$GNZDA,050413.00,23,05,2025,00,00*7A
$GNGBS,050413.00,2.1,3.4,5.9,,,,*54
$GNTXT,01,01,01,More than 100 frame errors, UART RX was disabled*70
b0X=xa!$$,=w^<Q
0
{4V^:R 
Y
f%GxHJ'K F'LXVQfW"X!QbbrAd$GNRMC,050414.00,A,0420.00836,S,05539.79969,E,0.081,,230525,,,D*71
$GNVTG,,T,,M,0.081,N,0.150,K,D*35
$GNGNS,050414.00,0420.00836,S,05539.79969,E,DA,14,0.72,17.6,-47.6,,0000*65
$GNGGA,050414.00,0420.00836,S,05539.79969,E,2,12,0.72,17.6,M,-47.6,M,,0000*4F
$GNGSA,A,3,24,20,05,13,15,22,12,18,,,,,1.43,0.72,1.23*12
$GNGSA,A,3,86,74,75,87,71,72,,,,,,,1.43,0.72,1.23*1C
$GPGSV,5,1,18,05,61,120,29,11,18,021,,12,36,004,33,13,19,152,36*7F
$GPGSV,5,2,18,14,00,133,17,15,28,186,31,18,25,235,17,20,44,061,27*7A
$GPGSV,5,3,18,22,15,119,23,23,04,212,20,24,60,232,27,25,13,337,*78
$GPGSV,5,4,18,29,10,304,,36,52,277,,40,86,350,31,41,58,082,27*75
$GPGSV,5,5,18,49,32,274,,50,10,089,*78
$GLGSV,3,1,09,71,15,120,19,72,18,171,31,74,39,138,23,75,70,039,32*62
$GLGSV,3,2,09,76,19,344,,86,30,337,18,87,34,282,17,88,04,230,17*61
$GLGSV,3,3,09,,,,33*6C
$GNGLL,0420.00836,S,05539.79969,E,050414.00,A,D*62
$GNGRS,050414.00,1,2.0,-6.0,-1.6,1.7,4.5,2.7,0.2,1.3,,,,*55
$GNGRS,050414.00,1,-1.5,10.1,4.4,-1.0,-7.9,-10.5,,,,,,*5B
$GNGST,050414.00,41,,,,2.1,3.5,5.9*41
$GNZDA,050414.00,23,05,2025,00,00*7D
$GNGBS,050414.00,2.1,3.5,5.9,,,,*52
$GNTXT,01,01,01,More than 100 frame errors, UART RX was disabled*70
b0X=x!$N$T,=w1<Q
0
{4 V^:R 
Y
fpGxHVJ'K F'LXVQ4W"X!br{Aq$GNRMC,050415.00,A,0420.00837,S,05539.79972,E,0.086,,230525,,,D*7C
$GNVTG,,T,,M,0.086,N,0.158,K,D*3A
$GNGNS,050415.00,0420.00837,S,05539.79972,E,DA,14,0.72,17.7,-47.6,,0000*6E
$GNGGA,050415.00,0420.00837,S,05539.79972,E,2,12,0.72,17.7,M,-47.6,M,,0000*44
$GNGSA,A,3,24,20,05,13,15,22,12,18,,,,,1.43,0.72,1.23*12
$GNGSA,A,3,86,74,75,87,71,72,,,,,,,1.43,0.72,1.23*1C
$GPGSV,5,1,18,05,61,120,28,11,18,021,,12,36,004,33,13,19,152,36*7E
$GPGSV,5,2,18,14,00,133,18,15,28,186,31,18,25,235,17,20,44,061,26*74
$GPGSV,5,3,18,22,15,119,23,23,04,212,19,24,60,232,27,25,13,337,*72
$GPGSV,5,4,18,29,10,304,,36,52,277,,40,86,350,32,41,58,082,27*76
$GPGSV,5,5,18,49,32,274,,50,10,089,*78
$GLGSV,3,1,09,71,15,120,20,72,18,171,31,74,39,138,24,75,70,039,32*6F
$GLGSV,3,2,09,76,19,344,,86,30,337,21,87,34,282,16,88,04,230,17*6A
$GLGSV,3,3,09,,,,33*6C
$GNGLL,0420.00837,S,05539.79972,E,050415.00,A,D*68
$GNGRS,050415.00,1,2.9,-7.4,-2.7,1.9,0.8,1.7,0.8,2.6,,,,*52
$GNGRS,050415.00,1,-2.0,9.2,4.8,-0.6,-6.3,-9.4,,,,,,*5E
$GNGST,050415.00,39,,,,2.1,3.5,5.9*4F
$GNZDA,050415.00,23,05,2025,00,00*7C
$GNGBS,050415.00,2.1,3.5,5.9,,,,*53
$GNTXT,01,01,01,More than 100 frame errors, UART RX was disabled*70
b0X=x"$#6 ,=:w<Q
0
{4!V^:R 
Y
fGx+H J'K!F'LXVQW"X!BbrcAI%$GNRMC,050416.00,A,0420.00838,S,05539.79975,E,0.042,,230525,,,D*7F
$GNVTG,,T,,M,0.042,N,0.079,K,D*30
$GNGNS,050416.00,0420.00838,S,05539.79975,E,DA,14,0.72,17.8,-47.6,,0000*6A
$GNGGA,050416.00,0420.00838,S,05539.79975,E,2,12,0.72,17.8,M,-47.6,M,,0000*40
$GNGSA,A,3,24,20,05,13,15,22,12,18,,,,,1.43,0.72,1.23*12
$GNGSA,A,3,86,74,75,87,71,72,,,,,,,1.43,0.72,1.23*1C
$GPGSV,5,1,18,05,61,120,28,11,18,021,,12,36,004,34,13,19,152,35*7A
$GPGSV,5,2,18,14,00,133,18,15,28,186,32,18,25,236,19,20,44,061,27*7B
$GPGSV,5,3,18,22,15,119,24,23,04,212,20,24,60,232,28,25,13,337,*70
$GPGSV,5,4,18,29,10,304,,36,52,277,,40,86,350,33,41,58,082,28*78
$GPGSV,5,5,18,49,32,274,,50,10,089,*78
$GLGSV,3,1,09,71,15,120,21,72,18,171,32,74,39,138,24,75,70,039,33*6C
$GLGSV,3,2,09,76,19,344,,86,30,337,24,87,34,282,18,88,04,230,16*60
$GLGSV,3,3,09,,,,33*6C
$GNGLL,0420.00838,S,05539.79975,E,050416.00,A,D*63
$GNGRS,050416.00,1,-0.9,-9.7,0.3,1.9,-0.1,1.9,0.2,1.5,,,,*78
$GNGRS,050416.00,1,-0.4,9.4,4.3,-1.3,-4.7,-12.9,,,,,,*63
$GNGST,050416.00,37,,,,2.1,3.5,5.9*42
$GNZDA,050416.00,23,05,2025,00,00*7F
$GNGBS,050416.00,2.1,3.5,5.9,,,,*50
$GNTXT,01,01,01,More than 100 frame errors, UART RX was disabled*70
b0X=x$"d8,=w<Q
0
{4 V^:R 
Y
f~GxHJ'KF'LXVQfW"XbrK!A!$GNRMC,050417.00,A,0420.00837,S,05539.79976,E,0.064,,230525,,,D*76
$GNVTG,,T,,M,0.064,N,0.119,K,D*33
$GNGNS,050417.00,0420.00837,S,05539.79976,E,DA,14,0.72,17.9,-47.6,,0000*66
$GNGGA,050417.00,0420.00837,S,05539.79976,E,2,12,0.72,17.9,M,-47.6,M,,0000*4C
$GNGSA,A,3,24,20,05,13,15,22,12,18,,,,,1.43,0.72,1.23*12
$GNGSA,A,3,86,74,75,87,71,72,,,,,,,1.43,0.72,1.23*1C
$GPGSV,5,1,18,05,61,120,28,11,18,021,,12,36,004,30,13,19,152,34*7F
$GPGSV,5,2,18,14,00,133,17,15,28,186,31,18,25,236,19,20,44,061,26*76
$GPGSV,5,3,18,22,15,119,24,23,04,212,20,24,60,232,27,25,13,337,*7F
$GPGSV,5,4,18,29,10,304,,36,52,277,,40,86,350,32,41,58,082,27*76
$GPGSV,5,5,18,49,32,274,,50,10,089,*78
$GLGSV,3,1,09,71,15,120,21,72,18,171,30,74,39,138,23,75,70,039,31*6B
$GLGSV,3,2,09,76,19,344,,86,30,337,23,87,34,282,17,88,04,230,16*68
$GLGSV,3,3,09,,,,31*6E
$GNGLL,0420.00837,S,05539.79976,E,050417.00,A,D*6E
$GNGRS,050417.00,1,-0.2,-6.4,-6.0,1.7,0.6,1.7,0.0,1.3,,,,*78
$GNGRS,050417.00,1,-1.5,9.3,4.4,-0.7,-5.2,-13.2,,,,,,*69
$GNGST,050417.00,38,,,,2.1,3.5,6.0*46
$GNZDA,050417.00,23,05,2025,00,00*7E
$GNGBS,050417.00,2.1,3.5,6.0,,,,*5B
$GNTXT,01,01,01,More than 100 frame errors, UART RX was disabled*70
b0X=x $%MQ,<wh<?Q
0
{4!V^:R 
Y
fGxH"J'K"F'LXVQW")X#hbr3%A$GNRMC,050418.00,A,0420.00835,S,05539.79981,E,0.045,,230525,,,D*70
$GNVTG,,T,,M,0.045,N,0.083,K,D*32
$GNGNS,050418.00,0420.00835,S,05539.79981,E,DA,14,0.72,17.9,-47.6,,0000*63
$GNGGA,050418.00,0420.00835,S,05539.79981,E,2,12,0.72,17.9,M,-47.6,M,,0000*49
$GNGSA,A,3,24,20,05,13,15,22,12,18,,,,,1.43,0.72,1.23*12
$GNGSA,A,3,86,74,75,87,71,72,,,,,,,1.43,0.72,1.23*1C
$GPGSV,5,1,18,05,61,120,27,11,18,021,,12,36,004,32,13,19,152,37*71
$GPGSV,5,2,18,14,00,133,17,15,28,186,31,18,25,236,18,20,44,060,27*77
$GPGSV,5,3,18,22,15,119,23,23,04,212,22,24,60,232,27,25,13,337,*7A
$GPGSV,5,4,18,29,10,304,,36,52,277,,40,86,350,33,41,58,082,*72
$GPGSV,5,5,18,49,32,274,,50,10,089,*78
$GLGSV,3,1,09,71,15,120,23,72,18,171,34,74,39,138,25,75,70,039,34*6E
$GLGSV,3,2,09,76,19,344,,86,30,337,23,87,34,282,16,88,04,230,17*68
$GLGSV,3,3,09,,,,35*6A
$GNGLL,0420.00835,S,05539.79981,E,050418.00,A,D*6B
$GNGRS,050418.00,1,0.6,-5.9,-3.3,1.7,-1.7,1.6,0.0,1.4,,,,*7D
$GNGRS,050418.00,1,-1.2,9.1,2.3,0.4,-5.6,-12.9,,,,,,*42
$GNGST,050418.00,37,,,,2.1,3.6,6.0*45
$GNZDA,050418.00,23,05,2025,00,00*71
$GNGBS,050418.00,2.1,3.6,6.0,,,,*57
$GNTXT,01,01,01,More than 100 frame errors, UART RX was disabled*70
b0X=x $%*,<x3<Q
0
{4!V^:R 
Y
fGxH J'K F'LXVQW"X!,|br)A]$GNRMC,050419.00,A,0420.00833,S,05539.79979,E,0.243,,230525,,,D*74
$GNVTG,,T,,M,0.243,N,0.450,K,D*3C
$GNGNS,050419.00,0420.00833,S,05539.79979,E,DA,13,0.79,18.0,-47.6,,0000*69
$GNGGA,050419.00,0420.00833,S,05539.79979,E,2,12,0.79,18.0,M,-47.6,M,,0000*44
$GNGSA,A,3,24,20,05,13,15,22,12,,,,,,1.49,0.79,1.27*1E
$GNGSA,A,3,86,74,75,87,71,72,,,,,,,1.49,0.79,1.27*19
$GPGSV,5,1,18,05,61,120,29,11,18,021,20,12,36,004,32,13,19,152,37*7D
$GPGSV,5,2,18,14,00,133,20,15,28,186,30,18,25,236,18,20,44,060,26*73
$GPGSV,5,3,18,22,15,120,23,23,04,212,22,24,60,232,27,25,13,337,*70
$GPGSV,5,4,18,29,10,304,,36,52,277,,40,86,350,33,41,58,082,*72
$GPGSV,5,5,18,49,32,274,,50,10,089,*78
$GLGSV,3,1,09,71,15,120,22,72,18,171,32,74,39,138,24,75,70,039,32*6E
$GLGSV,3,2,09,76,19,344,,86,30,337,24,87,34,282,14,88,04,230,17*6D
$GLGSV,3,3,09,,,,33*6C
$GNGLL,0420.00833,S,05539.79979,E,050419.00,A,D*6B
$GNGRS,050419.00,1,-0.1,-5.3,-3.6,1.6,-3.1,0.5,0.0,,,,,*75
$GNGRS,050419.00,1,-1.2,9.4,2.1,2.0,-5.5,-12.6,,,,,,*4E
$GNGST,050419.00,39,,,,2.2,3.6,6.1*48
$GNZDA,050419.00,23,05,2025,00,00*70
$GNGBS,050419.00,2.2,3.6,6.1,,,,*54
$GNTXT,01,01,01,More than 100 frame errors, UART RX was disabled*70
b0Xp=xq"$% ,<xn4<zQ
0
{4#V^:R 
Y
fGx2H#1J'K#F'LXVQW"^X$bpr-A$GNRMC,050420.00,A,0420.00831,S,05539.79983,E,0.052,,230525,,,D*7B
$GNVTG,,T,,M,0.052,N,0.096,K,D*30
$GNGNS,050420.00,0420.00831,S,05539.79983,E,DA,13,0.79,18.0,-47.6,,0000*64
$GNGGA,050420.00,0420.00831,S,05539.79983,E,2,12,0.79,18.0,M,-47.6,M,,0000*49
$GNGSA,A,3,24,20,05,13,15,22,12,,,,,,1.49,0.79,1.27*1E
$GNGSA,A,3,86,74,75,87,71,72,,,,,,,1.49,0.79,1.27*19
$GPGSV,5,1,18,05,61,120,29,11,18,021,20,12,36,004,34,13,19,152,37*7B
$GPGSV,5,2,18,14,00,133,22,15,28,186,31,18,25,236,18,20,44,060,26*70
$GPGSV,5,3,18,22,15,120,23,23,04,211,24,24,60,232,28,25,13,337,*7A
$GPGSV,5,4,18,29,10,304,,36,52,277,,40,86,350,35,41,58,082,*74
$GPGSV,5,5,18,49,32,274,,50,10,089,*78
$GLGSV,3,1,09,71,15,120,23,72,18,171,35,74,39,138,25,75,70,039,35*6E
$GLGSV,3,2,09,76,19,344,,86,30,337,26,87,34,282,15,88,04,230,19*60
$GLGSV,3,3,09,,,,36*69
$GNGLL,0420.00831,S,05539.79983,E,050420.00,A,D*66
$GNGRS,050420.00,1,-1.3,-6.1,-6.5,1.7,-0.6,-1.5,-0.2,,,,,*7D
$GNGRS,050420.00,1,-0.8,9.8,-0.6,3.5,-4.6,-12.3,,,,,,*68
$GNGST,050420.00,34,,,,2.2,3.7,6.0*4F
$GNZDA,050420.00,23,05,2025,00,00*7A
$GNGBS,050420.00,2.2,3.7,6.0,,,,*5E
$GNTXT,01,01,01,More than 100 frame errors, UART RX was disabled*70
b0XX=x"$'!Z,<xh*<Q
0
{4#V^:R 
Y
ftGxH".J''K#F'RLXVQW"X$bXr0A*$GNRMC,050421.00,A,0420.00835,S,05539.79990,E,0.085,,230525,,,D*76
$GNVTG,,T,,M,0.085,N,0.157,K,D*36
$GNGNS,050421.00,0420.00835,S,05539.79990,E,DA,13,0.79,18.2,-47.6,,0000*61
$GNGGA,050421.00,0420.00835,S,05539.79990,E,2,12,0.79,18.2,M,-47.6,M,,0000*4C
$GNGSA,A,3,24,20,05,13,15,22,12,,,,,,1.49,0.79,1.26*1F
$GNGSA,A,3,86,74,75,87,71,72,,,,,,,1.49,0.79,1.26*18
$GPGSV,5,1,18,05,61,120,31,11,18,021,19,12,36,004,34,13,19,152,39*76
$GPGSV,5,2,18,14,00,133,23,15,28,186,33,18,25,236,19,20,44,060,26*72
$GPGSV,5,3,18,22,15,120,23,23,04,211,24,24,60,231,29,25,13,337,*78
$GPGSV,5,4,18,29,10,304,,36,52,277,,40,86,350,35,41,58,082,*74
$GPGSV,5,5,18,49,32,274,,50,10,089,*78
$GLGSV,3,1,09,71,15,120,22,72,18,171,34,74,39,138,26,75,70,039,35*6D
$GLGSV,3,2,09,76,19,344,,86,30,337,26,87,34,282,16,88,04,230,20*69
$GLGSV,3,3,09,,,,36*69
$GNGLL,0420.00835,S,05539.79990,E,050421.00,A,D*61
$GNGRS,050421.00,1,-0.9,-5.7,-7.5,1.8,2.5,-1.5,-0.1,,,,,*53
$GNGRS,050421.00,1,-1.1,10.6,0.8,2.5,-3.2,-12.3,,,,,,*76
$GNGST,050421.00,36,,,,2.2,3.7,6.0*4C
$GNZDA,050421.00,23,05,2025,00,00*7B
$GNGBS,050421.00,2.2,3.7,6.0,,,,*5F
$GNTXT,01,01,01,More than 100 frame errors, UART RX was disabled*70
b0X@=x"$&!+,<Xx<Q
0
{4#V^:R 
Y
fGxH"'J'!K#F']LXVQW"X$b@r4AX$GNRMC,050422.00,A,0420.00834,S,05539.79994,E,0.024,,230525,,,D*7B
$GNVTG,,T,,M,0.024,N,0.045,K,D*3F
$GNGNS,050422.00,0420.00834,S,05539.79994,E,DA,14,0.79,18.2,-47.6,,0000*60
$GNGGA,050422.00,0420.00834,S,05539.79994,E,2,12,0.79,18.2,M,-47.6,M,,0000*4A
$GNGSA,A,3,24,20,05,13,15,22,12,18,,,,,1.49,0.79,1.26*16
$GNGSA,A,3,86,74,75,87,71,72,,,,,,,1.49,0.79,1.26*18
$GPGSV,5,1,18,05,61,120,30,11,18,021,19,12,36,004,34,13,19,152,38*76
$GPGSV,5,2,18,14,00,133,24,15,28,186,33,18,25,236,20,20,44,060,28*71
$GPGSV,5,3,18,22,15,120,24,23,04,211,24,24,60,231,28,25,14,337,*79
$GPGSV,5,4,18,29,10,304,,36,52,277,,40,86,350,35,41,58,082,*74
$GPGSV,5,5,18,49,32,274,,50,10,089,*78
$GLGSV,3,1,09,71,15,120,24,72,18,171,34,74,39,138,26,75,70,039,35*6B
$GLGSV,3,2,09,76,19,344,,86,30,337,26,87,34,282,17,88,04,230,20*68
$GLGSV,3,3,09,,,,36*69
$GNGLL,0420.00834,S,05539.79994,E,050422.00,A,D*67
$GNGRS,050422.00,1,-2.8,-6.8,-6.2,1.7,-0.4,-0.9,-0.1,20.9,,,,*60
$GNGRS,050422.00,1,-0.6,10.6,0.9,1.5,-5.4,-12.4,,,,,,*76
$GNGST,050422.00,33,,,,2.2,3.7,6.0*4A
$GNZDA,050422.00,23,05,2025,00,00*78
$GNGBS,050422.00,2.2,3.7,6.0,,,,*5C
$GNTXT,01,01,01,More than 100 frame errors, UART RX was disabled*70
b0X(=x"$&!,<xT<Q
0
{4#V^:R 
Y
fGx;H"IJ'K#F'LXVQW"aX$b(r8A0$GNRMC,050423.00,A,0420.00833,S,05539.79999,E,0.049,,230525,,,D*7B
$GNVTG,,T,,M,0.049,N,0.090,K,D*3C
$GNGNS,050423.00,0420.00833,S,05539.79999,E,DA,14,0.72,18.3,-47.6,,0000*61
$GNGGA,050423.00,0420.00833,S,05539.79999,E,2,12,0.72,18.3,M,-47.6,M,,0000*4B
$GNGSA,A,3,24,20,05,13,15,22,12,18,,,,,1.43,0.72,1.23*12
$GNGSA,A,3,86,74,75,87,71,72,,,,,,,1.43,0.72,1.23*1C
$GPGSV,5,1,18,05,61,120,30,11,18,021,20,12,36,004,34,13,19,152,38*7C
$GPGSV,5,2,18,14,00,133,24,15,28,186,33,18,25,236,20,20,44,060,27*7E
$GPGSV,5,3,18,22,15,120,25,23,04,211,25,24,60,231,28,25,14,337,*79
$GPGSV,5,4,18,29,10,304,,36,52,277,,40,86,350,35,41,58,082,*74
$GPGSV,5,5,18,49,32,274,,50,10,089,*78
$GLGSV,3,1,09,71,15,120,25,72,18,171,34,74,39,138,26,75,70,039,35*6A
$GLGSV,3,2,09,76,19,344,19,86,30,337,26,87,34,282,18,88,04,230,20*6F
$GLGSV,3,3,09,,,,36*69
$GNGLL,0420.00833,S,05539.79999,E,050423.00,A,D*6C
$GNGRS,050423.00,1,-4.9,-7.4,-3.5,2.0,-0.5,0.1,-0.1,17.4,,,,*40
$GNGRS,050423.00,1,-1.1,10.1,2.2,1.0,-4.5,-12.1,,,,,,*7F
$GNGST,050423.00,37,,,,2.1,3.7,5.9*46
$GNZDA,050423.00,23,05,2025,00,00*79
$GNGBS,050423.00,2.1,3.7,5.9,,,,*54
$GNTXT,01,01,01,More than 100 frame errors, UART RX was disabled*70
b0X=x,"$&E",<x<Q
0
{4#V^:R 
Y
fGxH"=J'^K#F' LXVQ=W"X$br<Ab$GNRMC,050424.00,A,0420.00832,S,05539.80003,E,0.032,,230525,,,D*7D
$GNVTG,,T,,M,0.032,N,0.059,K,D*35
$GNGNS,050424.00,0420.00832,S,05539.80003,E,DA,14,0.72,18.4,-47.6,,0000*6C
$GNGGA,050424.00,0420.00832,S,05539.80003,E,2,12,0.72,18.4,M,-47.6,M,,0000*46
$GNGSA,A,3,24,20,05,13,15,22,12,18,,,,,1.43,0.72,1.23*12
$GNGSA,A,3,86,74,75,87,71,72,,,,,,,1.43,0.72,1.23*1C
$GPGSV,5,1,18,05,61,120,29,11,18,021,20,12,36,004,34,13,19,152,38*74
$GPGSV,5,2,18,14,00,133,23,15,28,186,34,18,25,236,20,20,44,060,27*7E
$GPGSV,5,3,18,22,15,120,25,23,04,211,25,24,60,231,28,25,14,337,*79
$GPGSV,5,4,18,29,10,304,,36,52,277,,40,86,350,35,41,58,082,*74
$GPGSV,5,5,18,49,32,274,,50,10,089,*78
$GLGSV,3,1,09,71,15,120,24,72,18,171,34,74,39,138,26,75,70,039,35*6B
$GLGSV,3,2,09,76,19,344,19,86,30,337,26,87,34,282,18,88,04,230,20*6F
$GLGSV,3,3,09,,,,36*69
$GNGLL,0420.00832,S,05539.80003,E,050424.00,A,D*66
$GNGRS,050424.00,1,-5.7,-6.1,-4.7,1.7,0.0,0.2,-0.3,12.3,,,,*66
$GNGRS,050424.00,1,-1.9,11.2,2.9,4.6,-3.4,-12.2,,,,,,*7F
$GNGST,050424.00,36,,,,2.1,3.7,5.9*40
$GNZDA,050424.00,23,05,2025,00,00*7E
$GNGBS,050424.00,2.1,3.7,5.9,,,,*53
$GNTXT,01,01,01,More than 100 frame errors, UART RX was disabled*70
b0X=xL"$%c"u,<Ex7<Q
0{4#V^:R 
Y
fGxCH"1J'K#F'LXVQ<W"X$cbr@A$GNRMC,050425.00,A,0420.00831,S,05539.80005,E,0.041,,230525,,,D*7D
$GNVTG,,T,,M,0.041,N,0.076,K,D*3C
$GNGNS,050425.00,0420.00831,S,05539.80005,E,DA,14,0.72,18.5,-47.6,,0000*69
$GNGGA,050425.00,0420.00831,S,05539.80005,E,2,12,0.72,18.5,M,-47.6,M,,0000*43
$GNGSA,A,3,24,20,05,13,15,22,12,18,,,,,1.43,0.72,1.23*12
$GNGSA,A,3,86,74,75,87,71,72,,,,,,,1.43,0.72,1.23*1C
$GPGSV,5,1,18,05,61,120,29,11,18,021,21,12,36,004,34,13,19,152,37*7A
$GPGSV,5,2,18,14,00,133,24,15,28,186,34,18,25,236,20,20,44,060,26*78
$GPGSV,5,3,18,22,15,120,26,23,04,211,26,24,60,231,28,25,14,337,*79
$GPGSV,5,4,18,29,10,304,,36,52,277,,40,86,350,35,41,58,082,*74
$GPGSV,5,5,18,49,32,274,,50,10,089,*78
$GLGSV,3,1,09,71,15,120,26,72,18,171,34,74,39,138,26,75,70,039,35*69
$GLGSV,3,2,09,76,19,344,19,86,30,337,26,87,34,282,17,88,04,230,20*60
$GLGSV,3,3,09,,,,36*69
$GNGLL,0420.00831,S,05539.80005,E,050425.00,A,D*62
$GNGRS,050425.00,1,-4.8,-7.0,-9.5,1.7,-0.6,-0.4,-0.1,14.0,,,,*61
$GNGRS,050425.00,1,-2.0,11.8,2.4,7.7,-4.4,-12.3,,,,,,*77
$GNGST,050425.00,36,,,,2.1,3.7,5.9*41
$GNZDA,050425.00,23,05,2025,00,00*7F
$GNGBS,050425.00,2.1,3.7,5.9,,,,*52
$GNTXT,01,01,01,More than 100 frame errors, UART RX was disabled*70
b0X=x!$%",<xuU<Q
1
{4#V^:R 
Y
fGxH"JJ'K#F'LXVQ$W"X$brsDA#$GNRMC,050426.00,A,0420.00830,S,05539.80006,E,0.102,,230525,,,D*7A
$GNVTG,,T,,M,0.102,N,0.190,K,D*33
$GNGNS,050426.00,0420.00830,S,05539.80006,E,DA,14,0.72,18.6,-47.6,,0000*6B
$GNGGA,050426.00,0420.00830,S,05539.80006,E,2,12,0.72,18.6,M,-47.6,M,,0000*41
$GNGSA,A,3,24,20,05,13,15,22,12,18,,,,,1.43,0.72,1.23*12
$GNGSA,A,3,86,74,75,87,71,72,,,,,,,1.43,0.72,1.23*1C
$GPGSV,5,1,18,05,61,120,30,11,18,021,20,12,36,004,33,13,19,152,37*74
$GPGSV,5,2,18,14,00,133,25,15,28,186,34,18,25,236,20,20,44,060,26*79
$GPGSV,5,3,18,22,15,120,27,23,04,211,26,24,60,231,27,25,14,337,*77
$GPGSV,5,4,18,29,10,305,,36,52,277,,40,86,350,35,41,58,082,*75
$GPGSV,5,5,18,49,32,274,,50,10,089,*78
$GLGSV,3,1,09,71,15,120,26,72,18,171,34,74,39,138,26,75,70,039,35*69
$GLGSV,3,2,09,76,19,344,19,86,30,337,25,87,34,282,16,88,04,230,20*62
$GLGSV,3,3,09,,,,36*69
$GNGLL,0420.00830,S,05539.80006,E,050426.00,A,D*63
$GNGRS,050426.00,1,-5.7,-5.8,-4.8,1.7,-0.6,-1.4,-0.2,15.3,,,,*66
$GNGRS,050426.00,1,0.4,12.7,2.4,6.9,-3.5,-12.1,,,,,,*58
$GNGST,050426.00,37,,,,2.1,3.6,5.9*42
$GNZDA,050426.00,23,05,2025,00,00*7C
$GNGBS,050426.00,2.1,3.6,5.9,,,,*50
$GNTXT,01,01,01,More than 100 frame errors, UART RX was disabled*70
b0X=x1!$&!",<Mx<"Q
1
{4#V^:R 
Y
fGx.H"TJ'K#F'LXVQW"X$br[HA$GNRMC,050427.00,A,0420.00829,S,05539.80010,E,0.096,,230525,,,D*78
$GNVTG,,T,,M,0.096,N,0.178,K,D*39
$GNGNS,050427.00,0420.00829,S,05539.80010,E,DA,14,0.72,18.8,-47.6,,0000*6B
$GNGGA,050427.00,0420.00829,S,05539.80010,E,2,12,0.72,18.8,M,-47.6,M,,0000*41
$GNGSA,A,3,24,20,05,13,15,22,12,18,,,,,1.43,0.72,1.23*12
$GNGSA,A,3,86,74,75,87,71,72,,,,,,,1.43,0.72,1.23*1C
$GPGSV,5,1,18,05,61,120,29,11,18,021,19,12,36,004,33,13,19,152,38*79
$GPGSV,5,2,18,14,00,133,24,15,28,186,34,18,25,236,21,20,44,060,26*79
$GPGSV,5,3,18,22,15,120,27,23,04,211,26,24,60,231,27,25,14,337,*77
$GPGSV,5,4,18,29,10,305,,36,52,277,,40,86,350,35,41,58,082,*75
$GPGSV,5,5,18,49,32,274,,50,10,089,*78
$GLGSV,3,1,09,71,15,120,25,72,18,171,34,74,39,138,26,75,70,039,35*6A
$GLGSV,3,2,09,76,19,344,20,86,30,337,26,87,34,282,16,88,04,230,20*6B
$GLGSV,3,3,09,,,,36*69
$GNGLL,0420.00829,S,05539.80010,E,050427.00,A,D*6D
$GNGRS,050427.00,1,-2.2,-6.9,-7.2,1.9,-0.3,-0.7,-0.2,13.1,,,,*63
$GNGRS,050427.00,1,2.0,11.9,2.2,5.1,-4.7,-12.0,,,,,,*5B
$GNGST,050427.00,33,,,,2.1,3.6,5.8*46
$GNZDA,050427.00,23,05,2025,00,00*7D
$GNGBS,050427.00,2.1,3.6,5.8,,,,*50
$GNTXT,01,01,01,More than 100 frame errors, UART RX was disabled*70
b0X=x- $'4",<x<~Q
1
{4#V^:R 
Y
fGxH"VJ'K#F'LXVQW"DX$brCLAg$GNRMC,050428.00,A,0420.00828,S,05539.80018,E,0.119,,230525,,,D*78
$GNVTG,,T,,M,0.119,N,0.221,K,D*30
$GNGNS,050428.00,0420.00828,S,05539.80018,E,DA,14,0.72,18.8,-47.6,,0000*6D
$GNGGA,050428.00,0420.00828,S,05539.80018,E,2,12,0.72,18.8,M,-47.6,M,,0000*47
$GNGSA,A,3,24,20,05,13,15,22,12,18,,,,,1.43,0.72,1.23*12
$GNGSA,A,3,86,74,75,87,71,72,,,,,,,1.43,0.72,1.23*1C
$GPGSV,5,1,18,05,61,120,29,11,18,021,18,12,36,004,32,13,19,152,39*78
$GPGSV,5,2,18,14,00,133,24,15,28,186,34,18,25,236,20,20,44,060,26*78
$GPGSV,5,3,18,22,15,120,27,23,04,211,26,24,60,231,26,25,14,337,*76
$GPGSV,5,4,18,29,10,305,,36,52,277,,40,86,350,35,41,58,082,*75
$GPGSV,5,5,18,49,32,274,,50,10,089,*78
$GLGSV,3,1,09,71,15,120,23,72,18,171,34,74,39,138,26,75,70,039,35*6C
$GLGSV,3,2,09,76,19,344,20,86,30,337,26,87,34,282,17,88,04,230,20*6A
$GLGSV,3,3,09,,,,36*69
$GNGLL,0420.00828,S,05539.80018,E,050428.00,A,D*6B
$GNGRS,050428.00,1,-1.3,-5.9,-2.1,1.8,-0.5,0.2,0.0,11.9,,,,*61
$GNGRS,050428.00,1,4.4,12.2,2.0,5.8,-2.9,-11.9,,,,,,*57
$GNGST,050428.00,34,,,,2.1,3.6,5.8*4E
$GNZDA,050428.00,23,05,2025,00,00*72
$GNGBS,050428.00,2.1,3.6,5.8,,,,*5F
$GNTXT,01,01,01,More than 100 frame errors, UART RX was disabled*70
b0X=xn $&*"T,<x<Q
1
{4#V^:R 
Y
fGxH"=J'K#F'LXVQSW"UX%mbr+PA?[$GNRMC,050429.00,A,0420.00826,S,05539.80016,E,0.234,,230525,,,D*75
$GNVTG,,T,,M,0.234,N,0.434,K,D*3E
$GNGNS,050429.00,0420.00826,S,05539.80016,E,DA,14,0.72,18.8,-47.6,,0000*6C
$GNGGA,050429.00,0420.00826,S,05539.80016,E,2,12,0.72,18.8,M,-47.6,M,,0000*46
$GNGSA,A,3,24,20,05,13,15,22,12,18,,,,,1.43,0.72,1.23*12
$GNGSA,A,3,86,74,75,87,71,72,,,,,,,1.43,0.72,1.23*1C
$GPGSV,5,1,18,05,61,120,29,11,18,021,17,12,36,004,32,13,19,152,38*76
$GPGSV,5,2,18,14,00,133,25,15,28,186,34,18,25,236,20,20,44,060,26*79
$GPGSV,5,3,18,22,15,120,27,23,04,211,25,24,60,231,26,25,14,337,*75
$GPGSV,5,4,18,29,10,305,,36,52,277,,40,86,350,35,41,58,082,*75
$GPGSV,5,5,18,49,32,274,,50,10,089,*78
$GLGSV,3,1,09,71,15,120,23,72,18,171,34,74,39,138,25,75,70,039,35*6F
$GLGSV,3,2,09,76,19,344,19,86,30,337,26,87,34,282,17,88,04,230,20*60
$GLGSV,3,3,09,,,,37*68
$GNGLL,0420.00826,S,05539.80016,E,050429.00,A,D*6A
$GNGRS,050429.00,1,-0.8,-6.3,-6.6,2.1,-0.2,-0.3,0.1,8.5,,,,*74
$GNGRS,050429.00,1,3.4,12.3,1.9,6.0,-3.5,-12.2,,,,,,*54
$GNGST,050429.00,34,,,,2.1,3.6,5.8*4F
$GNZDA,050429.00,23,05,2025,00,00*73
$GNGBS,050429.00,2.1,3.6,5.8,,,,*5E
$GNTXT,01,01,01,More than 100 frame errors, UART RX was disabled*70
b0X=x $&6"_,<Bx|S<ZQ
1
{4"V^:R 
Y
f2GxH"DJ'3K#F'LXVQW"DX$lbrTA$GNRMC,050430.00,A,0420.00824,S,05539.80014,E,0.234,,230525,,,D*7D
$GNVTG,,T,,M,0.234,N,0.433,K,D*39
$GNGNS,050430.00,0420.00824,S,05539.80014,E,DA,14,0.72,18.9,-47.6,,0000*65
$GNGGA,050430.00,0420.00824,S,05539.80014,E,2,12,0.72,18.9,M,-47.6,M,,0000*4F
$GNGSA,A,3,24,20,05,13,15,22,12,18,,,,,1.43,0.72,1.23*12
$GNGSA,A,3,86,74,75,87,71,72,,,,,,,1.43,0.72,1.23*1C
$GPGSV,5,1,18,05,61,120,29,11,18,021,16,12,36,004,32,13,19,152,38*77
$GPGSV,5,2,18,14,00,133,25,15,28,186,34,18,25,236,20,20,44,060,26*79
$GPGSV,5,3,18,22,15,120,27,23,04,211,25,24,60,231,26,25,14,337,*75
$GPGSV,5,4,18,29,10,305,,36,52,277,,40,86,350,34,41,58,082,29*7F
$GPGSV,5,5,18,49,32,274,,50,10,089,*78
$GLGSV,3,1,09,71,15,120,22,72,18,171,34,74,39,138,25,75,70,039,35*6E
$GLGSV,3,2,09,76,19,344,18,86,30,337,25,87,34,282,17,88,04,230,20*62
$GLGSV,3,3,09,,,,36*69
$GNGLL,0420.00824,S,05539.80014,E,050430.00,A,D*62
$GNGRS,050430.00,1,-1.7,-7.0,-5.0,2.3,-0.3,1.2,0.1,8.6,,,,*58
$GNGRS,050430.00,1,4.2,13.3,1.4,5.8,-2.9,-12.1,,,,,,*54
$GNGST,050430.00,34,,,,2.2,3.6,5.8*44
$GNZDA,050430.00,23,05,2025,00,00*7B
$GNGBS,050430.00,2.2,3.6,5.8,,,,*55
$GNTXT,01,01,01,More than 100 frame errors, UART RX was disabled*70
b0Xh=x $'",<xLs<Q
1
{4"V^:R 
Y
fGx9H"UJ'bK#F'lLXVQW"X$MbhrWA($GNRMC,050431.00,A,0420.00823,S,05539.80018,E,0.060,,230525,,,D*74
$GNVTG,,T,,M,0.060,N,0.110,K,D*3E
$GNGNS,050431.00,0420.00823,S,05539.80018,E,DA,14,0.72,18.8,-47.6,,0000*6E
$GNGGA,050431.00,0420.00823,S,05539.80018,E,2,12,0.72,18.8,M,-47.6,M,,0000*44
$GNGSA,A,3,24,20,05,13,15,22,12,18,,,,,1.43,0.72,1.23*12
$GNGSA,A,3,86,74,75,87,71,72,,,,,,,1.43,0.72,1.23*1C
$GPGSV,5,1,18,05,61,120,28,11,18,021,17,12,36,004,32,13,19,152,39*76
$GPGSV,5,2,18,14,00,133,26,15,28,186,34,18,25,236,20,20,44,060,26*7A
$GPGSV,5,3,18,22,15,120,27,23,04,211,25,24,60,231,25,25,14,337,*76
$GPGSV,5,4,18,29,10,305,,36,52,277,,40,86,350,34,41,58,082,29*7F
$GPGSV,5,5,18,49,32,274,,50,10,089,*78
$GLGSV,3,1,09,71,15,120,23,72,18,171,34,74,39,138,25,75,70,039,35*6F
$GLGSV,3,2,09,76,19,344,17,86,30,337,25,87,34,282,15,88,04,230,20*6F
$GLGSV,3,3,09,,,,36*69
$GNGLL,0420.00823,S,05539.80018,E,050431.00,A,D*68
$GNGRS,050431.00,1,0.0,-5.3,-5.6,2.2,0.1,0.8,0.1,9.0,,,,*57
$GNGRS,050431.00,1,4.8,13.8,1.1,2.3,-2.0,-11.9,,,,,,*5F
$GNGST,050431.00,39,,,,2.2,3.6,5.8*48
$GNZDA,050431.00,23,05,2025,00,00*7A
$GNGBS,050431.00,2.2,3.6,5.8,,,,*54
$GNTXT,01,01,01,More than 100 frame errors, UART RX was disabled*70
b0XP=x!$.'#,<bxy<Q
1
{4"V^:R 
Y
fyGxH"^J'@K#F'hLXVQW"X$bPr[A$GNRMC,050432.00,A,0420.00822,S,05539.80022,E,0.076,,230525,,,D*78
$GNVTG,,T,,M,0.076,N,0.140,K,D*3C
$GNGNS,050432.00,0420.00822,S,05539.80022,E,DA,14,0.72,18.8,-47.6,,0000*65
$GNGGA,050432.00,0420.00822,S,05539.80022,E,2,12,0.72,18.8,M,-47.6,M,,0000*4F
$GNGSA,A,3,24,20,05,13,15,22,12,18,,,,,1.43,0.72,1.23*12
$GNGSA,A,3,86,74,75,87,71,72,,,,,,,1.43,0.72,1.23*1C
$GPGSV,5,1,18,05,61,120,28,11,18,021,16,12,36,004,33,13,19,152,39*76
$GPGSV,5,2,18,14,00,133,26,15,28,186,35,18,25,236,20,20,44,060,26*7B
$GPGSV,5,3,18,22,15,120,27,23,04,211,25,24,60,231,25,25,14,337,*76
$GPGSV,5,4,18,29,10,305,,36,52,277,,40,86,350,34,41,58,082,28*7E
$GPGSV,5,5,18,49,32,274,,50,10,089,*78
$GLGSV,3,1,09,71,15,120,24,72,18,171,34,74,39,138,24,75,70,039,35*69
$GLGSV,3,2,09,76,19,344,17,86,30,337,25,87,34,282,15,88,04,230,20*6F
$GLGSV,3,3,09,,,,36*69
$GNGLL,0420.00822,S,05539.80022,E,050432.00,A,D*63
$GNGRS,050432.00,1,2.0,-6.7,-7.6,2.3,0.0,-1.4,0.5,9.2,,,,*75
$GNGRS,050432.00,1,5.1,13.4,1.0,1.9,-2.9,-11.9,,,,,,*59
$GNGST,050432.00,38,,,,2.2,3.6,5.8*4A
$GNZDA,050432.00,23,05,2025,00,00*79
$GNGBS,050432.00,2.2,3.6,5.8,,,,*57
$GNTXT,01,01,01,More than 100 frame errors, UART RX was disabled*70
b0X8=x!$'#X,<x4<Q
1
{4"V^:R 
Y
fGx9H"GJ'K#F'dLXVQW"mX$b8r_A$GNRMC,050433.00,A,0420.00822,S,05539.80026,E,0.042,,230525,,,D*7A
$GNVTG,,T,,M,0.042,N,0.077,K,D*3E
$GNGNS,050433.00,0420.00822,S,05539.80026,E,DA,14,0.72,18.8,-47.6,,0000*60
$GNGGA,050433.00,0420.00822,S,05539.80026,E,2,12,0.72,18.8,M,-47.6,M,,0000*4A
$GNGSA,A,3,24,20,05,13,15,22,12,18,,,,,1.43,0.72,1.23*12
$GNGSA,A,3,86,74,75,87,71,72,,,,,,,1.43,0.72,1.23*1C
$GPGSV,5,1,18,05,61,120,28,11,18,021,17,12,36,004,33,13,19,152,39*77
$GPGSV,5,2,18,14,00,133,26,15,28,186,35,18,25,236,21,20,44,060,26*7A
$GPGSV,5,3,18,22,15,120,27,23,04,211,24,24,60,231,24,25,14,337,*76
$GPGSV,5,4,18,29,10,305,,36,52,277,,40,86,350,34,41,58,082,28*7E
$GPGSV,5,5,18,49,32,274,,50,10,089,*78
$GLGSV,3,1,09,71,15,120,24,72,18,171,34,74,39,138,25,75,70,039,35*68
$GLGSV,3,2,09,76,19,344,18,86,30,337,23,87,34,282,15,88,04,230,20*66
$GLGSV,3,3,09,,,,36*69
$GNGLL,0420.00822,S,05539.80026,E,050433.00,A,D*66
$GNGRS,050433.00,1,2.7,-5.4,-7.7,2.3,0.2,0.0,0.3,6.0,,,,*53
$GNGRS,050433.00,1,5.1,12.2,1.0,3.7,-4.6,-12.1,,,,,,*51
$GNGST,050433.00,39,,,,2.2,3.6,5.8*4A
$GNZDA,050433.00,23,05,2025,00,00*78
$GNGBS,050433.00,2.2,3.6,5.8,,,,*56
$GNTXT,01,01,01,More than 100 frame errors, UART RX was disabled*70
b0X =x!$&"%,<JxF)<Q
1
{4"V^:R 
Y
fGxH"NJ'K#F'WLXVQ)W"X$Ieb rcAv`$GNRMC,050434.00,A,0420.00822,S,05539.80030,E,0.154,,230525,,,D*7C
$GNVTG,,T,,M,0.154,N,0.285,K,D*37
$GNGNS,050434.00,0420.00822,S,05539.80030,E,DA,14,0.72,18.9,-47.6,,0000*61
$GNGGA,050434.00,0420.00822,S,05539.80030,E,2,12,0.72,18.9,M,-47.6,M,,0000*4B
$GNGSA,A,3,24,20,05,13,15,22,12,18,,,,,1.43,0.72,1.23*12
$GNGSA,A,3,86,74,75,87,71,72,,,,,,,1.43,0.72,1.23*1C
$GPGSV,5,1,18,05,61,120,28,11,18,021,17,12,36,004,33,13,19,152,38*76
$GPGSV,5,2,18,14,00,133,26,15,28,186,34,18,25,236,21,20,44,060,26*7B
$GPGSV,5,3,18,22,15,120,27,23,04,211,24,24,60,231,24,25,14,337,*76
$GPGSV,5,4,18,29,10,305,,36,52,277,,40,86,350,34,41,58,082,28*7E
$GPGSV,5,5,18,49,32,274,,50,10,089,*78
$GLGSV,3,1,09,71,15,120,23,72,18,171,34,74,39,138,25,75,70,039,35*6F
$GLGSV,3,2,09,76,19,344,19,86,30,337,23,87,34,282,16,88,04,230,20*64
$GLGSV,3,3,09,,,,36*69
$GNGLL,0420.00822,S,05539.80030,E,050434.00,A,D*66
$GNGRS,050434.00,1,5.4,-4.4,-8.1,2.4,0.2,-1.9,0.2,5.5,,,,*7D
$GNGRS,050434.00,1,5.5,12.8,0.9,2.6,-5.8,-12.0,,,,,,*5E
$GNGST,050434.00,36,,,,2.2,3.6,5.8*42
$GNZDA,050434.00,23,05,2025,00,00*7F
$GNGBS,050434.00,2.2,3.6,5.8,,,,*51
$GNTXT,01,01,01,More than 100 frame errors, UART RX was disabled*70
b0X=x!$&",<xc<|Q
1
{4"V^:R 
Y
feGxH"fJ'K#F'GLXVQ
W"bX$brgAN$GNRMC,050435.00,A,0420.00821,S,05539.80033,E,0.163,,230525,,,D*79
$GNVTG,,T,,M,0.163,N,0.302,K,D*3D
$GNGNS,050435.00,0420.00821,S,05539.80033,E,DA,14,0.72,18.9,-47.6,,0000*60
$GNGGA,050435.00,0420.00821,S,05539.80033,E,2,12,0.72,18.9,M,-47.6,M,,0000*4A
$GNGSA,A,3,24,20,05,13,15,22,12,18,,,,,1.43,0.72,1.23*12
$GNGSA,A,3,86,74,75,87,71,72,,,,,,,1.43,0.72,1.23*1C
$GPGSV,5,1,18,05,61,120,27,11,18,021,16,12,36,004,33,13,19,152,38*78
$GPGSV,5,2,18,14,00,133,26,15,28,186,34,18,25,236,20,20,44,060,26*7A
$GPGSV,5,3,18,22,15,120,28,23,04,211,24,24,60,231,23,25,14,337,*7E
$GPGSV,5,4,18,29,10,305,,36,52,277,,40,86,350,34,41,58,082,28*7E
$GPGSV,5,5,18,49,32,274,,50,10,089,*78
$GLGSV,3,1,09,71,15,120,23,72,18,171,34,74,39,139,25,75,70,039,35*6E
$GLGSV,3,2,09,76,19,344,19,86,30,337,23,87,34,282,17,88,04,230,20*65
$GLGSV,3,3,09,,,,36*69
$GNGLL,0420.00821,S,05539.80033,E,050435.00,A,D*67
$GNGRS,050435.00,1,6.4,-6.0,-5.4,2.5,0.1,-1.6,0.2,7.0,,,,*7B
$GNGRS,050435.00,1,5.2,12.6,0.7,3.5,-7.8,-11.8,,,,,,*53
$GNGST,050435.00,36,,,,2.2,3.6,5.8*43
$GNZDA,050435.00,23,05,2025,00,00*7E
$GNGBS,050435.00,2.2,3.6,5.8,,,,*50
$GNTXT,01,01,01,More than 100 frame errors, UART RX was disabled*70
b0X=x $&",<\x`<Q
1
{4"V^:R 
Y
fhGx+H"bJ'K#F'OLXVQW"!X$|brkA%!$GNRMC,050436.00,A,0420.00821,S,05539.80029,E,0.192,,230525,,,D*7F
$GNVTG,,T,,M,0.192,N,0.355,K,D*31
$GNGNS,050436.00,0420.00821,S,05539.80029,E,DA,14,0.72,18.9,-47.6,,0000*68
$GNGGA,050436.00,0420.00821,S,05539.80029,E,2,12,0.72,18.9,M,-47.6,M,,0000*42
$GNGSA,A,3,24,20,05,13,15,22,12,18,,,,,1.43,0.72,1.23*12
$GNGSA,A,3,86,74,75,87,71,72,,,,,,,1.43,0.72,1.23*1C
$GPGSV,5,1,18,05,61,120,27,11,18,021,16,12,36,004,32,13,19,152,38*79
$GPGSV,5,2,18,14,00,133,26,15,28,186,34,18,25,236,20,20,44,060,27*7B
$GPGSV,5,3,18,22,15,120,28,23,04,211,25,24,60,231,23,25,14,337,*7F
$GPGSV,5,4,18,29,10,305,,36,52,277,,40,86,350,34,41,58,082,27*71
$GPGSV,5,5,18,49,32,274,,50,10,089,*78
$GLGSV,3,1,09,71,15,120,23,72,18,171,34,74,39,139,25,75,70,039,35*6E
$GLGSV,3,2,09,76,19,344,19,86,30,337,23,87,34,282,16,88,04,230,20*64
$GLGSV,3,3,09,,,,36*69
$GNGLL,0420.00821,S,05539.80029,E,050436.00,A,D*6F
