b0Li?_
-,:%2H
7T
:~{4V_ :Rx 
Y
jDjEFITO"~P#N4S^T#U
QbiU
T-/$GNRMC,050554.00,A,0419.87471,S,05539.62732,E,0.122,,280525,,,A*72
$GNVTG,,T,,M,0.122,N,0.226,K,A*3A
$GNGNS,050554.00,0419.87471,S,05539.62732,E,AA,12,0.94,28.1,-47.6,,*60
$GNGGA,050554.00,0419.87471,S,05539.62732,E,1,12,0.94,28.1,M,-47.6,M,,*4A
$GNGSA,A,3,24,05,20,15,12,25,41,,,,,,1.89,0.94,1.64*16
$GNGSA,A,3,79,80,83,84,73,,,,,,,,1.89,0.94,1.64*17
$GPGSV,5,1,17,05,63,095,30,11,10,024,15,12,45,011,31,13,17,143,15*71
$GPGSV,5,2,17,15,30,176,22,18,30,246,19,20,37,050,28,22,10,128,*7E
$GPGSV,5,3,17,23,12,208,20,24,55,214,26,25,21,340,26,29,09,314,18*7C
$GPGSV,5,4,17,36,52,277,,40,86,351,,41,58,082,32,49,32,274,*7D
$GPGSV,5,5,17,50,10,089,*4A
$GLGSV,3,1,09,68,15,106,,69,22,156,,70,00,213,,73,28,340,19*68
$GLGSV,3,2,09,79,34,146,22,80,78,052,35,83,20,350,26,84,31,291,08*66
$GLGSV,3,3,09,85,10,242,*54
$GNGLL,0419.87471,S,05539.62732,E,050554.00,A,A*62
$GNGRS,050554.00,1,4.0,0.2,-4.4,-0.2,0.4,-3.5,-42.3,,,,,*4C
$GNGRS,050554.00,1,6.4,-0.4,2.4,4.2,-0.1,,,,,,,*78
$GNGST,050554.00,3434012,,,,4.1,5.9,8.5*7F
$GNZDA,050554.00,28,05,2025,00,00*73
$GNGBS,050554.00,4.1,5.9,8.5,,,,*5A
$GNTXT,01,01,01,More than 100 frame errors, UART RX was disabled*70
b0Lm!?_I
"-:%2v
7Tg
:{4V_":R 
Y
jDjEFITO"P#N4S^T#2U
bmU
<-$GNRMC,050555.00,A,0419.87472,S,05539.62731,E,0.060,,280525,,,A*74
$GNVTG,,T,,M,0.060,N,0.111,K,A*3A
$GNGNS,050555.00,0419.87472,S,05539.62731,E,AA,13,0.87,28.1,-47.6,,*62
$GNGGA,050555.00,0419.87472,S,05539.62731,E,1,12,0.87,28.1,M,-47.6,M,,*49
$GNGSA,A,3,24,05,20,11,15,12,25,41,,,,,1.62,0.87,1.37*17
$GNGSA,A,3,79,80,83,84,73,,,,,,,,1.62,0.87,1.37*16
$GPGSV,5,1,17,05,63,095,33,11,10,024,16,12,45,011,34,13,17,143,15*74
$GPGSV,5,2,17,15,30,176,22,18,30,246,18,20,37,050,27,22,10,128,*70
$GPGSV,5,3,17,23,12,208,18,24,55,214,26,25,22,340,25,29,09,314,18*77
$GPGSV,5,4,17,36,52,277,,40,86,351,,41,58,082,34,49,32,274,*7B
$GPGSV,5,5,17,50,10,089,*4A
$GLGSV,3,1,09,68,15,106,,69,22,156,,70,00,213,,73,28,340,17*66
$GLGSV,3,2,09,79,34,146,22,80,78,052,35,83,20,350,25,84,31,291,12*6E
$GLGSV,3,3,09,85,10,242,*54
$GNGLL,0419.87472,S,05539.62731,E,050555.00,A,A*63
$GNGRS,050555.00,1,1.8,0.7,-6.5,-3.3,-0.1,0.6,-4.1,-42.0,,,,*44
$GNGRS,050555.00,1,7.1,-0.3,2.3,-4.6,1.5,,,,,,,*7C
$GNGST,050555.00,1138,,,,4.1,5.9,8.5*46
$GNZDA,050555.00,28,05,2025,00,00*72
$GNGBS,050555.00,4.1,5.9,8.5,,,,*5B
$GNTXT,01,01,01,More than 100 frame errors, UART RX was disabled*70
b0Lpq ?_
%-;;f%2
7T
:{4V_!:Rq 
Y
jDjEFITO"P&N4S^kT#U
GbpqU
$-$GNRMC,050556.00,A,0419.87479,S,05539.62735,E,0.055,,280525,,,A*7E
$GNVTG,,T,,M,0.055,N,0.102,K,A*3E
$GNGNS,050556.00,0419.87479,S,05539.62735,E,AA,13,0.87,27.8,-47.6,,*68
$GNGGA,050556.00,0419.87479,S,05539.62735,E,1,12,0.87,27.8,M,-47.6,M,,*43
$GNGSA,A,3,24,05,20,11,15,12,25,41,,,,,1.62,0.87,1.37*17
$GNGSA,A,3,79,80,83,84,73,,,,,,,,1.62,0.87,1.37*16
$GPGSV,5,1,17,05,63,095,32,11,10,024,15,12,45,011,37,13,17,143,16*76
$GPGSV,5,2,17,15,30,176,23,18,30,246,17,20,37,050,27,22,10,128,*7E
$GPGSV,5,3,17,23,12,208,17,24,55,214,27,25,22,340,25,29,09,314,17*76
$GPGSV,5,4,17,36,52,277,,40,86,351,,41,58,082,33,49,32,274,*7C
$GPGSV,5,5,17,50,10,089,*4A
$GLGSV,3,1,09,68,15,106,,69,22,156,,70,00,213,,73,28,340,15*64
$GLGSV,3,2,09,79,34,146,22,80,78,052,38,83,20,350,25,84,31,291,11*60
$GLGSV,3,3,09,85,10,242,*54
$GNGLL,0419.87479,S,05539.62735,E,050556.00,A,A*6F
$GNGRS,050556.00,1,0.0,0.2,-5.3,0.0,0.6,0.6,-2.3,-42.4,,,,*49
$GNGRS,050556.00,1,6.9,-0.1,1.1,4.3,1.7,,,,,,,*5F
$GNGST,050556.00,99783,,,,4.1,6.0,8.5*78
$GNZDA,050556.00,28,05,2025,00,00*71
$GNGBS,050556.00,4.1,6.0,8.5,,,,*52
$GNTXT,01,01,01,More than 100 frame errors, UART RX was disabled*70
b0LXu?_
%-9%2
7\T
:{4V_$:RT 
Y
jDjEFITO"'P'N4S^T#U
EBbXuU
-pg$GNRMC,050557.00,A,0419.87485,S,05539.62734,E,0.072,,280525,,,A*78
$GNVTG,,T,,M,0.072,N,0.133,K,A*39
$GNGNS,050557.00,0419.87485,S,05539.62734,E,AA,14,0.84,27.6,-47.6,,*61
$GNGGA,050557.00,0419.87485,S,05539.62734,E,1,12,0.84,27.6,M,-47.6,M,,*4D
$GNGSA,A,3,24,05,20,11,15,12,29,25,41,,,,1.54,0.84,1.30*1D
$GNGSA,A,3,79,80,83,84,73,,,,,,,,1.54,0.84,1.30*17
$GPGSV,5,1,17,05,63,095,31,11,10,024,15,12,45,011,37,13,17,143,16*75
$GPGSV,5,2,17,15,30,176,25,18,30,246,16,20,37,050,29,22,10,128,*77
$GPGSV,5,3,17,23,12,208,19,24,55,214,29,25,22,340,26,29,09,314,19*7B
$GPGSV,5,4,17,36,52,277,,40,86,351,,41,58,082,36,49,32,274,*79
$GPGSV,5,5,17,50,10,089,*4A
$GLGSV,3,1,09,68,15,106,,69,22,156,,70,00,213,,73,28,340,13*62
$GLGSV,3,2,09,79,34,146,22,80,78,052,39,83,20,350,25,84,31,291,09*68
$GLGSV,3,3,09,85,10,242,*54
$GNGLL,0419.87485,S,05539.62734,E,050557.00,A,A*6C
$GNGRS,050557.00,1,-1.6,0.1,-3.6,-0.6,2.7,0.6,18.1,-4.9,-42.7,,,*53
$GNGRS,050557.00,1,8.1,0.0,1.8,4.1,4.3,,,,,,,*7E
$GNGST,050557.00,141021,,,,4.0,5.9,8.4*48
$GNZDA,050557.00,28,05,2025,00,00*70
$GNGBS,050557.00,4.0,5.9,8.4,,,,*59
$GNTXT,01,01,01,More than 100 frame errors, UART RX was disabled*70
b0L@y?_
%-U%2>
7T
:{4V_#:R_ 
Y
jDjEFIT>O"BP'N4S^,T# U
b@yU
-G$GNRMC,050558.00,A,0419.87488,S,05539.62732,E,0.078,,280525,,,A*76
$GNVTG,,T,,M,0.078,N,0.145,K,A*32
$GNGNS,050558.00,0419.87488,S,05539.62732,E,AA,15,1.03,27.6,-47.6,,*6A
$GNGGA,050558.00,0419.87488,S,05539.62732,E,1,12,1.03,27.6,M,-47.6,M,,*47
$GNGSA,A,3,24,05,20,11,15,12,18,29,25,41,,,1.71,1.03,1.37*1A
$GNGSA,A,3,79,80,83,84,73,,,,,,,,1.71,1.03,1.37*19
$GPGSV,5,1,17,05,63,095,31,11,10,024,16,12,45,011,37,13,17,143,15*75
$GPGSV,5,2,17,15,30,176,26,18,30,246,16,20,37,050,29,22,10,128,*74
$GPGSV,5,3,17,23,12,208,19,24,55,214,29,25,22,340,27,29,09,314,18*7B
$GPGSV,5,4,17,36,52,277,,40,86,351,,41,58,082,35,49,32,274,*7A
$GPGSV,5,5,17,50,10,089,*4A
$GLGSV,3,1,09,68,15,106,,69,22,156,,70,00,213,,73,28,340,14*65
$GLGSV,3,2,09,79,34,146,19,80,78,052,39,83,20,350,25,84,31,291,09*60
$GLGSV,3,3,09,85,10,242,*54
$GNGLL,0419.87488,S,05539.62732,E,050558.00,A,A*68
$GNGRS,050558.00,1,2.0,-0.3,-1.9,1.9,4.0,0.8,-25.8,23.0,-6.4,-42.6,,*41
$GNGRS,050558.00,1,5.8,0.0,3.0,-68.8,5.7,,,,,,,*64
$GNGST,050558.00,1184,,,,4.0,5.9,8.3*4B
$GNZDA,050558.00,28,05,2025,00,00*7F
$GNGBS,050558.00,4.0,5.9,8.3,,,,*51
$GNTXT,01,01,01,More than 100 frame errors, UART RX was disabled*70
b0L(}?_
%-Y%2W
7T
:\{4V_#:Rj 
Y
jDjEFITO"RP(N4S^T
#U
b(}U
-4$GNRMC,050559.00,A,0419.87494,S,05539.62729,E,0.166,,280525,,,A*7E
$GNVTG,,T,,M,0.166,N,0.308,K,A*37
$GNGNS,050559.00,0419.87494,S,05539.62729,E,AA,15,0.77,27.4,-47.6,,*6C
$GNGGA,050559.00,0419.87494,S,05539.62729,E,1,12,0.77,27.4,M,-47.6,M,,*41
$GNGSA,A,3,24,05,20,11,15,12,18,29,25,41,,,1.51,0.77,1.29*15
$GNGSA,A,3,79,80,83,84,73,,,,,,,,1.51,0.77,1.29*16
$GPGSV,5,1,17,05,63,095,26,11,10,024,16,12,45,011,37,13,17,143,13*75
$GPGSV,5,2,17,15,30,176,25,18,30,246,20,20,37,050,29,22,10,128,*72
$GPGSV,5,3,17,23,12,208,18,24,55,214,27,25,22,340,27,29,09,314,19*75
$GPGSV,5,4,17,36,52,277,,40,86,351,,41,58,082,35,49,32,274,*7A
$GPGSV,5,5,17,50,10,089,*4A
$GLGSV,3,1,09,68,15,106,,69,22,156,,70,00,213,,73,28,340,17*66
$GLGSV,3,2,09,79,34,146,17,80,78,052,40,83,20,350,25,84,31,291,10*68
$GLGSV,3,3,09,85,10,242,*54
$GNGLL,0419.87494,S,05539.62729,E,050559.00,A,A*6E
$GNGRS,050559.00,1,4.7,-2.6,-6.8,3.8,4.9,0.9,-13.9,18.8,-6.0,-42.5,,*48
$GNGRS,050559.00,1,5.9,-0.2,2.4,4.2,5.4,,,,,,,*50
$GNGST,050559.00,3071473,,,,3.9,5.9,8.2*7C
$GNZDA,050559.00,28,05,2025,00,00*7E
$GNGBS,050559.00,3.9,5.9,8.2,,,,*5F
$GNTXT,01,01,01,More than 100 frame errors, UART RX was disabled*70
b0L?_,
$-a%2
72T
:{4V_#:Rl 
Y
jDjEFIT'O"P(N4S^T
#U
ubU
-$GNRMC,050600.00,A,0419.87501,S,05539.62721,E,0.055,,280525,,,A*75
$GNVTG,,T,,M,0.055,N,0.101,K,A*3D
$GNGNS,050600.00,0419.87501,S,05539.62721,E,AA,15,0.77,27.2,-47.6,,*60
$GNGGA,050600.00,0419.87501,S,05539.62721,E,1,12,0.77,27.2,M,-47.6,M,,*4D
$GNGSA,A,3,24,05,20,11,15,12,18,29,25,41,,,1.51,0.77,1.29*15
$GNGSA,A,3,79,80,83,84,73,,,,,,,,1.51,0.77,1.29*16
$GPGSV,5,1,17,05,63,095,27,11,10,024,16,12,45,011,36,13,17,143,13*75
$GPGSV,5,2,17,15,30,176,25,18,30,246,21,20,37,050,29,22,10,128,*73
$GPGSV,5,3,17,23,12,208,18,24,55,214,26,25,22,340,27,29,09,314,20*7E
$GPGSV,5,4,17,36,52,277,,40,86,351,,41,58,082,35,49,32,274,*7A
$GPGSV,5,5,17,50,10,089,*4A
$GLGSV,3,1,09,68,15,106,,69,22,156,,70,00,213,,73,28,340,18*69
$GLGSV,3,2,09,79,34,146,19,80,78,052,40,83,20,350,25,84,31,291,10*66
$GLGSV,3,3,09,85,10,242,*54
$GNGLL,0419.87501,S,05539.62721,E,050600.00,A,A*64
$GNGRS,050600.00,1,8.2,-2.1,-7.5,2.0,4.1,1.0,-7.5,8.0,-6.2,-42.4,,*4F
$GNGRS,050600.00,1,2.6,-0.6,2.5,3.9,5.5,,,,,,,*5F
$GNGST,050600.00,3071473,,,,3.9,5.8,8.1*71
$GNZDA,050600.00,28,05,2025,00,00*71
$GNGBS,050600.00,3.9,5.8,8.1,,,,*52
$GNTXT,01,01,01,More than 100 frame errors, UART RX was disabled*70
b0L?_
$-%2
7T
:{4V_#:Rz 
Y
jDjEFIT'O"AP(N4S^`T#U
ObU
-$GNRMC,050601.00,A,0419.87503,S,05539.62717,E,0.044,,280525,,,A*73
$GNVTG,,T,,M,0.044,N,0.082,K,A*37
$GNGNS,050601.00,0419.87503,S,05539.62717,E,AA,14,0.83,27.1,-47.6,,*6F
$GNGGA,050601.00,0419.87503,S,05539.62717,E,1,12,0.83,27.1,M,-47.6,M,,*43
$GNGSA,A,3,24,05,20,11,15,12,18,29,25,41,,,1.55,0.83,1.31*13
$GNGSA,A,3,79,80,83,73,,,,,,,,,1.55,0.83,1.31*1C
$GPGSV,5,1,17,05,63,095,27,11,10,024,18,12,45,011,36,13,17,143,09*70
$GPGSV,5,2,17,15,30,176,25,18,30,246,20,20,37,050,29,22,10,128,*72
$GPGSV,5,3,17,23,12,208,20,24,55,214,26,25,22,340,26,29,09,314,20*74
$GPGSV,5,4,17,36,52,277,,40,86,351,,41,58,082,35,49,32,274,*7A
$GPGSV,5,5,17,50,10,089,*4A
$GLGSV,3,1,09,68,15,106,,69,22,156,,70,00,213,,73,28,340,20*62
$GLGSV,3,2,09,79,34,146,23,80,78,052,40,83,20,350,25,84,31,291,07*69
$GLGSV,3,3,09,85,10,242,*54
$GNGLL,0419.87503,S,05539.62717,E,050601.00,A,A*62
$GNGRS,050601.00,1,1.5,2.6,-8.7,1.4,5.0,1.4,-3.1,4.5,-6.2,-42.3,,*6A
$GNGRS,050601.00,1,3.2,-0.8,3.5,5.5,,,,,,,,*70
$GNGST,050601.00,1096,,,,3.9,5.8,8.0*4A
$GNZDA,050601.00,28,05,2025,00,00*70
$GNGBS,050601.00,3.9,5.8,8.0,,,,*52
$GNTXT,01,01,01,More than 100 frame errors, UART RX was disabled*70
b0L?_
$-z:%2
7Te
:{4V_#:R 
Y
jDjEFIT:O"P(N4S^gT#U
bU
-]$GNRMC,050602.00,A,0419.87508,S,05539.62711,E,0.189,,280525,,,A*7D
$GNVTG,,T,,M,0.189,N,0.350,K,A*3B
$GNGNS,050602.00,0419.87508,S,05539.62711,E,AA,15,0.77,26.9,-47.6,,*62
$GNGGA,050602.00,0419.87508,S,05539.62711,E,1,12,0.77,26.9,M,-47.6,M,,*4F
$GNGSA,A,3,24,05,20,11,15,12,18,29,25,41,,,1.50,0.77,1.29*14
$GNGSA,A,3,79,80,83,84,73,,,,,,,,1.50,0.77,1.29*17
$GPGSV,5,1,17,05,63,095,28,11,10,024,19,12,45,011,36,13,17,143,09*7E
$GPGSV,5,2,17,15,30,176,24,18,30,246,18,20,37,050,29,22,10,128,*78
$GPGSV,5,3,17,23,12,208,20,24,55,214,26,25,22,340,26,29,09,314,21*75
$GPGSV,5,4,17,36,52,277,,40,86,351,,41,58,082,35,49,32,274,*7A
$GPGSV,5,5,17,50,10,089,*4A
$GLGSV,3,1,09,68,15,106,,69,22,156,,70,00,213,,73,28,340,18*69
$GLGSV,3,2,09,79,34,146,25,80,78,052,40,83,20,350,25,84,31,291,08*60
$GLGSV,3,3,09,85,10,242,*54
$GNGLL,0419.87508,S,05539.62711,E,050602.00,A,A*6C
$GNGRS,050602.00,1,2.3,-0.1,-5.4,-0.2,5.7,1.2,-0.9,1.9,-4.1,-42.2,,*63
$GNGRS,050602.00,1,3.8,-0.8,3.6,4.3,3.1,,,,,,,*51
$GNGST,050602.00,86701,,,,3.8,5.8,7.9*78
$GNZDA,050602.00,28,05,2025,00,00*73
$GNGBS,050602.00,3.8,5.8,7.9,,,,*56
$GNTXT,01,01,01,More than 100 frame errors, UART RX was disabled*70
b0L?_
$-q%2
7T
:{4V_!:R 
Y
jDjEFITIO"P'N4S^T#U
EbU
|-~$GNRMC,050603.00,A,0419.87504,S,05539.62691,E,0.603,,280525,,,A*7C
$GNVTG,,T,,M,0.603,N,1.117,K,A*3E
$GNGNS,050603.00,0419.87504,S,05539.62691,E,AA,15,0.77,26.9,-47.6,,*66
$GNGGA,050603.00,0419.87504,S,05539.62691,E,1,12,0.77,26.9,M,-47.6,M,,*4B
$GNGSA,A,3,24,05,20,11,15,12,18,29,25,41,,,1.50,0.77,1.29*14
$GNGSA,A,3,79,80,83,84,73,,,,,,,,1.50,0.77,1.29*17
$GPGSV,5,1,17,05,63,095,28,11,10,024,18,12,45,011,36,13,17,143,09*7F
$GPGSV,5,2,17,15,30,176,23,18,30,246,18,20,37,050,27,22,10,128,*71
$GPGSV,5,3,17,23,12,208,20,24,55,214,24,25,22,340,25,29,09,314,21*74
$GPGSV,5,4,17,36,52,277,,40,86,351,,41,58,082,33,49,32,274,*7C
$GPGSV,5,5,17,50,10,089,*4A
$GLGSV,3,1,09,68,15,106,,69,22,156,,70,00,213,,73,28,340,17*66
$GLGSV,3,2,09,79,34,146,23,80,78,052,39,83,20,350,25,84,31,291,09*69
$GLGSV,3,3,09,85,10,242,*54
$GNGLL,0419.87504,S,05539.62691,E,050603.00,A,A*68
$GNGRS,050603.00,1,7.1,-3.3,-5.4,2.4,7.9,1.1,-2.8,1.4,-2.7,-41.9,,*44
$GNGRS,050603.00,1,2.8,-0.9,4.3,3.9,5.8,,,,,,,*50
$GNGST,050603.00,130047,,,,3.8,5.8,7.9*40
$GNZDA,050603.00,28,05,2025,00,00*72
$GNGBS,050603.00,3.8,5.8,7.9,,,,*57
$GNTXT,01,01,01,More than 100 frame errors, UART RX was disabled*70
b0L?__
a$-f%2V
7%T
:`{4V_!:R 
Y
jDjEFITO"P'N4S^TT#U
_bU
d-V-$GNRMC,050604.00,A,0419.87507,S,05539.62686,E,0.163,,280525,,,A*7F
$GNVTG,,T,,M,0.163,N,0.303,K,A*39
$GNGNS,050604.00,0419.87507,S,05539.62686,E,AA,15,0.83,26.6,-47.6,,*60
$GNGGA,050604.00,0419.87507,S,05539.62686,E,1,12,0.83,26.6,M,-47.6,M,,*4D
$GNGSA,A,3,24,05,20,11,15,12,18,29,25,41,,,1.55,0.83,1.31*13
$GNGSA,A,3,79,80,83,84,73,,,,,,,,1.55,0.83,1.31*10
$GPGSV,5,1,17,05,63,095,31,11,10,024,18,12,45,011,36,13,17,143,09*77
$GPGSV,5,2,17,15,30,176,23,18,30,246,22,20,37,050,27,22,10,128,*78
$GPGSV,5,3,17,23,12,208,19,24,55,214,22,25,22,340,23,29,09,314,23*7C
$GPGSV,5,4,17,36,52,277,,40,86,351,,41,58,082,33,49,32,274,*7C
$GPGSV,5,5,17,50,10,089,*4A
$GLGSV,3,1,09,68,15,106,,69,22,156,,70,00,213,,73,28,340,18*69
$GLGSV,3,2,09,79,34,146,22,80,78,052,39,83,20,350,25,84,31,291,07*66
$GLGSV,3,3,09,85,10,242,*54
$GNGLL,0419.87507,S,05539.62686,E,050604.00,A,A*6A
$GNGRS,050604.00,1,2.9,-6.7,-4.3,3.5,10.1,1.0,-2.7,-1.6,0.1,-41.8,,*7E
$GNGRS,050604.00,1,2.1,-0.8,3.4,-97.2,7.0,,,,,,,*4E
$GNGST,050604.00,1096,,,,3.8,5.9,7.8*48
$GNZDA,050604.00,28,05,2025,00,00*75
$GNGBS,050604.00,3.8,5.9,7.8,,,,*50
$GNTXT,01,01,01,More than 100 frame errors, UART RX was disabled*70
b0L?_7
#-w/%2<
7T
:L{4V_!:R| 
Y
jDjEFITO"P'N4S^tT#U

bU
L-.$GNRMC,050605.00,A,0419.87516,S,05539.62676,E,0.294,,280525,,,A*7A
$GNVTG,,T,,M,0.294,N,0.544,K,A*37
$GNGNS,050605.00,0419.87516,S,05539.62676,E,AA,15,0.77,26.3,-47.6,,*60
$GNGGA,050605.00,0419.87516,S,05539.62676,E,1,12,0.77,26.3,M,-47.6,M,,*4D
$GNGSA,A,3,24,05,20,11,15,12,18,29,25,41,,,1.50,0.77,1.29*14
$GNGSA,A,3,79,80,83,84,73,,,,,,,,1.50,0.77,1.29*17
$GPGSV,5,1,17,05,63,095,29,11,10,024,18,12,45,011,35,13,17,143,08*7C
$GPGSV,5,2,17,15,30,176,24,18,30,246,23,20,37,050,28,22,10,128,*71
$GPGSV,5,3,17,23,12,208,19,24,55,214,22,25,22,340,22,29,09,314,23*7D
$GPGSV,5,4,17,36,52,277,,40,86,351,,41,58,082,33,49,32,274,*7C
$GPGSV,5,5,17,50,10,089,*4A
$GLGSV,3,1,09,68,15,106,,69,22,156,,70,00,213,,73,28,340,18*69
$GLGSV,3,2,09,79,34,146,22,80,78,052,39,83,20,350,24,84,31,291,07*67
$GLGSV,3,3,09,85,10,242,*54
$GNGLL,0419.87516,S,05539.62676,E,050605.00,A,A*64
$GNGRS,050605.00,1,2.3,-4.6,-4.5,1.4,10.7,1.2,-2.7,-4.4,1.4,-42.3,,*7C
$GNGRS,050605.00,1,1.7,-0.7,3.7,4.0,6.6,,,,,,,*54
$GNGST,050605.00,3071473,,,,3.9,5.9,7.8*73
$GNZDA,050605.00,28,05,2025,00,00*74
$GNGBS,050605.00,3.9,5.9,7.8,,,,*50
$GNTXT,01,01,01,More than 100 frame errors, UART RX was disabled*70
b0L?_x

#-}%2
7TE
:{4V_!:Rk 
Y
jDjEFITO"P'N4S^T
#IU
bU
4-$GNRMC,050606.00,A,0419.87531,S,05539.62663,E,0.480,,280525,,,A*7B
$GNVTG,,T,,M,0.480,N,0.889,K,A*38
$GNGNS,050606.00,0419.87531,S,05539.62663,E,AA,15,0.77,25.7,-47.6,,*65
$GNGGA,050606.00,0419.87531,S,05539.62663,E,1,12,0.77,25.7,M,-47.6,M,,*48
$GNGSA,A,3,24,05,20,11,15,12,18,29,25,41,,,1.50,0.77,1.29*14
$GNGSA,A,3,79,80,83,84,73,,,,,,,,1.50,0.77,1.29*17
$GPGSV,5,1,17,05,63,095,29,11,10,024,17,12,45,011,35,13,17,143,08*73
$GPGSV,5,2,17,15,30,176,23,18,30,246,23,20,37,050,28,22,10,128,*76
$GPGSV,5,3,17,23,12,208,19,24,55,214,23,25,22,340,21,29,09,314,24*78
$GPGSV,5,4,17,36,52,277,,40,86,351,,41,58,082,33,49,32,274,*7C
$GPGSV,5,5,17,50,10,089,*4A
$GLGSV,3,1,09,68,15,106,,69,22,156,,70,00,213,,73,28,340,17*66
$GLGSV,3,2,09,79,34,146,24,80,78,052,39,83,20,350,24,84,31,291,10*67
$GLGSV,3,3,09,85,10,242,*54
$GNGLL,0419.87531,S,05539.62663,E,050606.00,A,A*66
$GNGRS,050606.00,1,2.1,-3.9,-6.3,2.7,12.8,1.3,-3.9,-6.1,0.7,-42.5,,*71
$GNGRS,050606.00,1,1.7,-0.8,2.0,3.3,7.1,,,,,,,*5C
$GNGST,050606.00,3071473,,,,3.9,5.8,7.7*7E
$GNZDA,050606.00,28,05,2025,00,00*77
$GNGBS,050606.00,3.9,5.8,7.7,,,,*5D
$GNTXT,01,01,01,More than 100 frame errors, UART RX was disabled*70
b0Lh?_
1$-1%2`
7Te
:({4V_!:Rh 
Y
jDjEFITrO"cP'N4S^T#U
,bhU
-e$GNRMC,050607.00,A,0419.87540,S,05539.62656,E,0.282,,280525,,,A*7E
$GNVTG,,T,,M,0.282,N,0.522,K,A*30
$GNGNS,050607.00,0419.87540,S,05539.62656,E,AA,15,0.83,25.4,-47.6,,*6C
$GNGGA,050607.00,0419.87540,S,05539.62656,E,1,12,0.83,25.4,M,-47.6,M,,*41
$GNGSA,A,3,24,05,20,11,15,12,18,29,25,41,,,1.55,0.83,1.31*13
$GNGSA,A,3,79,80,83,84,73,,,,,,,,1.55,0.83,1.31*10
$GPGSV,5,1,17,05,63,095,29,11,10,024,16,12,45,011,36,13,17,143,09*70
$GPGSV,5,2,17,15,30,176,25,18,30,246,22,20,37,050,29,22,10,128,*70
$GPGSV,5,3,17,23,12,208,20,24,55,214,24,25,22,340,22,29,09,314,24*76
$GPGSV,5,4,17,36,52,277,,40,86,351,,41,58,082,33,49,32,274,*7C
$GPGSV,5,5,17,50,10,089,*4A
$GLGSV,3,1,09,68,15,106,,69,22,156,,70,00,213,,73,28,340,15*64
$GLGSV,3,2,09,79,34,146,25,80,78,052,39,83,20,350,25,84,31,291,07*61
$GLGSV,3,3,09,85,10,242,*54
$GNGLL,0419.87540,S,05539.62656,E,050607.00,A,A*67
$GNGRS,050607.00,1,0.0,-0.4,-6.7,0.5,13.3,1.4,-5.4,-4.7,1.0,-42.5,,*7D
$GNGRS,050607.00,1,1.0,-0.8,2.7,-120,6.3,,,,,,,*6E
$GNGST,050607.00,1096,,,,3.8,5.8,7.7*45
$GNZDA,050607.00,28,05,2025,00,00*76
$GNGBS,050607.00,3.8,5.8,7.7,,,,*5D
$GNTXT,01,01,01,More than 100 frame errors, UART RX was disabled*70
b0LP?_?
f%-a%2
7Tg
:C{4V_":RU 
Y
jDjEFITO"9P'N4S^}T#U
-qbPU
-$GNRMC,050608.00,A,0419.87542,S,05539.62653,E,0.111,,280525,,,A*7F
$GNVTG,,T,,M,0.111,N,0.206,K,A*38
$GNGNS,050608.00,0419.87542,S,05539.62653,E,AA,15,0.77,25.3,-47.6,,*68
$GNGGA,050608.00,0419.87542,S,05539.62653,E,1,12,0.77,25.3,M,-47.6,M,,*45
$GNGSA,A,3,24,05,20,11,15,12,18,29,25,41,,,1.50,0.77,1.29*14
$GNGSA,A,3,79,80,83,84,73,,,,,,,,1.50,0.77,1.29*17
$GPGSV,5,1,17,05,63,095,29,11,10,024,16,12,45,011,37,13,17,143,11*78
$GPGSV,5,2,17,15,30,176,27,18,30,246,20,20,37,050,29,22,10,128,*70
$GPGSV,5,3,17,23,12,208,20,24,55,214,24,25,22,340,22,29,09,314,23*71
$GPGSV,5,4,17,36,52,277,,40,86,351,,41,58,082,34,49,32,274,*7B
$GPGSV,5,5,17,50,10,089,*4A
$GLGSV,3,1,09,68,15,106,,69,22,156,,70,00,213,,73,28,340,15*64
$GLGSV,3,2,09,79,34,146,24,80,78,052,39,83,20,350,26,84,31,291,07*63
$GLGSV,3,3,09,85,10,242,*54
$GNGLL,0419.87542,S,05539.62653,E,050608.00,A,A*6F
$GNGRS,050608.00,1,-0.1,-1.9,-7.7,1.0,10.5,1.0,-4.9,-7.0,1.0,-42.7,,*5C
$GNGRS,050608.00,1,0.6,-1.0,1.2,4.3,5.1,,,,,,,*5F
$GNGST,050608.00,3071473,,,,3.8,5.8,7.6*70
$GNZDA,050608.00,28,05,2025,00,00*79
$GNGBS,050608.00,3.8,5.8,7.6,,,,*53
$GNTXT,01,01,01,More than 100 frame errors, UART RX was disabled*70
b0L8?_-
&-9
H%2
7T
:{4V_":RS 
Y
jDjEFIToO"1P'N4S^gT
#U
b8U
.4$GNRMC,050609.00,A,0419.87543,S,05539.62654,E,0.153,,280525,,,A*7E
$GNVTG,,T,,M,0.153,N,0.282,K,A*32
$GNGNS,050609.00,0419.87543,S,05539.62654,E,AA,15,0.77,25.3,-47.6,,*6F
$GNGGA,050609.00,0419.87543,S,05539.62654,E,1,12,0.77,25.3,M,-47.6,M,,*42
$GNGSA,A,3,24,05,20,11,15,12,18,29,25,41,,,1.50,0.77,1.29*14
$GNGSA,A,3,79,80,83,84,73,,,,,,,,1.50,0.77,1.29*17
$GPGSV,5,1,17,05,63,095,31,11,10,024,16,12,45,011,38,13,17,143,10*7F
$GPGSV,5,2,17,15,30,176,26,18,30,246,18,20,37,050,28,22,10,128,*7B
$GPGSV,5,3,17,23,12,208,19,24,55,214,23,25,22,340,22,29,09,314,22*7D
$GPGSV,5,4,17,36,52,277,,40,86,351,,41,58,082,34,49,32,274,*7B
$GPGSV,5,5,17,50,10,089,*4A
$GLGSV,3,1,09,68,15,106,,69,22,156,,70,00,213,,73,28,340,17*66
$GLGSV,3,2,09,79,34,146,22,80,78,052,39,83,20,350,26,84,31,291,10*63
$GLGSV,3,3,09,85,10,242,*54
$GNGLL,0419.87543,S,05539.62654,E,050609.00,A,A*68
$GNGRS,050609.00,1,-0.4,-2.1,-8.7,2.3,9.7,0.6,-4.4,-8.0,1.6,-42.7,,*65
$GNGRS,050609.00,1,0.5,-0.9,-1.5,4.5,6.2,,,,,,,*79
$GNGST,050609.00,3071473,,,,3.7,5.8,7.5*7D
$GNZDA,050609.00,28,05,2025,00,00*78
$GNGBS,050609.00,3.7,5.8,7.5,,,,*5E
$GNTXT,01,01,01,More than 100 frame errors, UART RX was disabled*70
b0L ?_
M&-3$Z%2
7rTB
:={4V_":RI 
Y
jDjEFITO"P'N4S^T#AU
b U
.f$GNRMC,050610.00,A,0419.87544,S,05539.62656,E,0.172,,280525,,,A*70
$GNVTG,,T,,M,0.172,N,0.319,K,A*32
$GNGNS,050610.00,0419.87544,S,05539.62656,E,AA,15,0.83,25.2,-47.6,,*68
$GNGGA,050610.00,0419.87544,S,05539.62656,E,1,12,0.83,25.2,M,-47.6,M,,*45
$GNGSA,A,3,24,05,20,11,15,12,18,29,25,41,,,1.55,0.83,1.31*13
$GNGSA,A,3,79,80,83,84,73,,,,,,,,1.55,0.83,1.31*10
$GPGSV,5,1,17,05,63,095,31,11,10,024,15,12,45,011,38,13,17,143,09*74
$GPGSV,5,2,17,15,30,176,27,18,30,246,20,20,37,050,28,22,10,128,*71
$GPGSV,5,3,17,23,12,208,17,24,55,214,25,25,22,340,21,29,09,314,23*77
$GPGSV,5,4,17,36,52,277,,40,86,351,,41,58,082,34,49,32,274,*7B
$GPGSV,5,5,17,50,10,089,*4A
$GLGSV,3,1,09,68,15,106,,69,22,156,,70,00,213,,73,28,340,17*66
$GLGSV,3,2,09,79,34,146,22,80,78,052,39,83,20,350,25,84,31,291,09*68
$GLGSV,3,3,09,85,10,242,*54
$GNGLL,0419.87544,S,05539.62656,E,050610.00,A,A*65
$GNGRS,050610.00,1,1.1,-3.4,-8.1,3.3,8.0,0.5,-4.2,-7.1,0.7,-42.8,,*45
$GNGRS,050610.00,1,0.3,-1.1,-1.0,-120,7.1,,,,,,,*48
$GNGST,050610.00,1096,,,,3.6,5.8,7.4*4E
$GNZDA,050610.00,28,05,2025,00,00*70
$GNGBS,050610.00,3.6,5.8,7.4,,,,*56
$GNTXT,01,01,01,More than 100 frame errors, UART RX was disabled*70
b0L?_
L%-A%2
7TM
:E{4V_":RO 
Y
jDjEFITO"P&N4S^sT#U
[3bU

.>$GNRMC,050611.00,A,0419.87550,S,05539.62658,E,0.042,,280525,,,A*78
$GNVTG,,T,,M,0.042,N,0.077,K,A*3B
$GNGNS,050611.00,0419.87550,S,05539.62658,E,AA,15,0.77,25.0,-47.6,,*6B
$GNGGA,050611.00,0419.87550,S,05539.62658,E,1,12,0.77,25.0,M,-47.6,M,,*46
$GNGSA,A,3,24,05,20,11,15,12,18,29,25,41,,,1.50,0.77,1.29*14
$GNGSA,A,3,79,80,83,84,73,,,,,,,,1.50,0.77,1.29*17
$GPGSV,5,1,17,05,63,095,31,11,10,024,17,12,45,011,37,13,17,143,09*79
$GPGSV,5,2,17,15,30,176,27,18,30,246,23,20,37,050,27,22,10,128,*7D
$GPGSV,5,3,17,23,12,208,14,24,55,214,27,25,22,340,20,29,09,314,25*71
$GPGSV,5,4,17,36,52,277,,40,86,351,,41,58,082,34,49,32,274,*7B
$GPGSV,5,5,17,50,10,089,*4A
$GLGSV,3,1,09,68,15,106,,69,22,156,,70,00,213,,73,28,340,18*69
$GLGSV,3,2,09,79,34,146,21,80,78,052,38,83,20,350,26,84,31,291,11*60
$GLGSV,3,3,09,85,10,242,*54
$GNGLL,0419.87550,S,05539.62658,E,050611.00,A,A*6F
$GNGRS,050611.00,1,0.1,-0.4,-5.6,0.8,9.3,0.7,-1.0,-7.0,0.8,-42.7,,*42
$GNGRS,050611.00,1,-1.1,-1.1,-1.4,4.4,7.4,,,,,,,*56
$GNGST,050611.00,3071473,,,,3.5,5.7,7.3*7F
$GNZDA,050611.00,28,05,2025,00,00*71
$GNGBS,050611.00,3.5,5.7,7.3,,,,*5C
$GNTXT,01,01,01,More than 100 frame errors, UART RX was disabled*70
b0L ?_
U$-e
h%2
7TQ
:{4V_#:RA 
Y
jDjEFITO"+P&N4S^T#U
bU
.]$GNRMC,050612.00,A,0419.87555,S,05539.62652,E,0.192,,280525,,,A*78
$GNVTG,,T,,M,0.192,N,0.355,K,A*34
$GNGNS,050612.00,0419.87555,S,05539.62652,E,AA,15,0.77,25.0,-47.6,,*67
$GNGGA,050612.00,0419.87555,S,05539.62652,E,1,12,0.77,25.0,M,-47.6,M,,*4A
$GNGSA,A,3,24,05,20,11,15,12,18,29,25,41,,,1.50,0.77,1.29*14
$GNGSA,A,3,79,80,83,84,73,,,,,,,,1.50,0.77,1.29*17
$GPGSV,5,1,17,05,63,095,32,11,10,024,18,12,45,011,36,13,17,143,10*7C
$GPGSV,5,2,17,15,30,176,28,18,30,246,22,20,37,050,27,22,10,128,*73
$GPGSV,5,3,17,23,12,208,13,24,55,214,25,25,22,340,21,29,09,314,24*74
$GPGSV,5,4,17,36,52,277,,40,86,351,,41,58,082,35,49,32,274,*7A
$GPGSV,5,5,17,50,10,089,*4A
$GLGSV,3,1,09,68,15,106,,69,22,156,,70,00,213,,73,28,340,17*66
$GLGSV,3,2,09,79,34,146,20,80,78,052,38,83,20,350,26,84,31,291,08*69
$GLGSV,3,3,09,85,10,242,*54
$GNGLL,0419.87555,S,05539.62652,E,050612.00,A,A*63
$GNGRS,050612.00,1,-0.6,-3.3,-4.9,0.8,7.7,1.0,1.0,-8.4,0.8,-42.9,,*45
$GNGRS,050612.00,1,0.4,-0.8,-1.3,4.1,7.4,,,,,,,*76
$GNGST,050612.00,3071473,,,,3.5,5.7,7.3*7C
$GNZDA,050612.00,28,05,2025,00,00*72
$GNGBS,050612.00,3.5,5.7,7.3,,,,*5F
$GNTXT,01,01,01,More than 100 frame errors, UART RX was disabled*70
b0L!?_
E'-GS_%2I
7T
:{4V_#:R8 
Y
jDjEFITzO"P'N4S^T
#U
zbU
.$GNRMC,050613.00,A,0419.87556,S,05539.62663,E,0.642,,280525,,,A*72
$GNVTG,,T,,M,0.642,N,1.188,K,A*3D
$GNGNS,050613.00,0419.87556,S,05539.62663,E,AA,15,0.83,25.0,-47.6,,*6C
$GNGGA,050613.00,0419.87556,S,05539.62663,E,1,12,0.83,25.0,M,-47.6,M,,*41
$GNGSA,A,3,24,05,20,11,15,12,18,29,25,41,,,1.55,0.83,1.31*13
$GNGSA,A,3,79,80,83,84,73,,,,,,,,1.55,0.83,1.31*10
$GPGSV,5,1,17,05,63,095,33,11,10,024,18,12,45,011,39,13,17,143,13*71
$GPGSV,5,2,17,15,30,176,29,18,30,246,20,20,37,050,26,22,10,128,*71
$GPGSV,5,3,17,23,12,208,12,24,55,214,22,25,22,340,21,29,09,314,21*77
$GPGSV,5,4,17,36,52,277,,40,86,351,,41,58,082,35,49,32,274,*7A
$GPGSV,5,5,17,50,10,089,*4A
$GLGSV,3,1,09,68,15,106,,69,22,156,,70,00,213,,73,28,340,15*64
$GLGSV,3,2,09,79,34,146,20,80,78,052,39,83,20,350,26,84,31,291,10*61
$GLGSV,3,3,09,85,10,242,*54
$GNGLL,0419.87556,S,05539.62663,E,050613.00,A,A*63
$GNGRS,050613.00,1,-0.5,-3.7,-4.4,0.7,6.0,0.7,1.0,-10.5,-0.3,-43.0,,*57
$GNGRS,050613.00,1,-2.4,-0.5,0.2,-66.8,11.5,,,,,,,*5E
$GNGST,050613.00,1096,,,,3.4,5.7,7.2*46
$GNZDA,050613.00,28,05,2025,00,00*73
$GNGBS,050613.00,3.4,5.7,7.2,,,,*5E
$GNTXT,01,01,01,More than 100 frame errors, UART RX was disabled*70
b0L"?_
9&- %2
7T
:{4V_":R4 
Y
jDjEFITsO"P&N4S^T
#U
2bU
t.-$GNRMC,050614.00,A,0419.87556,S,05539.62665,E,0.062,,280525,,,A*77
$GNVTG,,T,,M,0.062,N,0.114,K,A*3D
$GNGNS,050614.00,0419.87556,S,05539.62665,E,AA,15,0.77,25.0,-47.6,,*66
$GNGGA,050614.00,0419.87556,S,05539.62665,E,1,12,0.77,25.0,M,-47.6,M,,*4B
$GNGSA,A,3,24,05,20,11,15,12,18,29,25,41,,,1.50,0.77,1.29*14
$GNGSA,A,3,79,80,83,84,73,,,,,,,,1.50,0.77,1.29*17
$GPGSV,5,1,17,05,63,095,34,11,10,024,17,12,45,011,38,13,17,143,13*78
$GPGSV,5,2,17,15,30,176,29,18,30,246,18,20,37,050,26,22,10,128,*7A
$GPGSV,5,3,17,23,12,208,,24,55,214,18,25,22,340,22,29,09,314,22*7D
$GPGSV,5,4,17,36,52,277,,40,86,351,,41,58,082,34,49,32,274,*7B
$GPGSV,5,5,17,50,10,089,*4A
$GLGSV,3,1,09,68,15,106,,69,22,156,,70,00,213,,73,28,340,16*67
$GLGSV,3,2,09,79,34,146,21,80,78,052,38,83,20,350,27,84,31,291,10*60
$GLGSV,3,3,09,85,10,242,*54
$GNGLL,0419.87556,S,05539.62665,E,050614.00,A,A*62
$GNGRS,050614.00,1,-0.9,-2.3,-2.5,0.6,5.3,0.3,0.2,-13.2,-0.4,-43.0,,*5B
$GNGRS,050614.00,1,-2.5,-0.5,-0.6,3.9,13.9,,,,,,,*60
$GNGST,050614.00,3071473,,,,3.4,5.7,7.1*79
$GNZDA,050614.00,28,05,2025,00,00*74
$GNGBS,050614.00,3.4,5.7,7.1,,,,*5A
$GNTXT,01,01,01,More than 100 frame errors, UART RX was disabled*70
b0L"?_
a$-Ek%2
7,T!
:{4V_#:R9 
Y
jDjEFITO"%P&N4S^T#SU
^bU
\.$GNRMC,050615.00,A,0419.87554,S,05539.62671,E,0.254,,280525,,,A*76
$GNVTG,,T,,M,0.254,N,0.470,K,A*3D
$GNGNS,050615.00,0419.87554,S,05539.62671,E,AA,15,0.77,25.0,-47.6,,*60
$GNGGA,050615.00,0419.87554,S,05539.62671,E,1,12,0.77,25.0,M,-47.6,M,,*4D
$GNGSA,A,3,24,05,20,11,15,12,18,29,25,41,,,1.50,0.77,1.29*14
$GNGSA,A,3,79,80,83,84,73,,,,,,,,1.50,0.77,1.29*17
$GPGSV,5,1,17,05,63,095,34,11,10,024,16,12,45,011,36,13,17,143,12*76
$GPGSV,5,2,17,15,30,176,30,18,30,246,16,20,37,050,25,22,10,128,*7F
$GPGSV,5,3,17,23,12,208,,24,55,214,21,25,22,340,22,29,09,314,25*70
$GPGSV,5,4,17,36,52,277,,40,86,351,,41,58,082,35,49,32,274,*7A
$GPGSV,5,5,17,50,10,089,*4A
$GLGSV,3,1,09,68,15,106,,69,22,156,,70,00,213,,73,28,340,18*69
$GLGSV,3,2,09,79,34,146,23,80,78,052,38,83,20,350,27,84,31,291,08*6B
$GLGSV,3,3,09,85,10,242,*54
$GNGLL,0419.87554,S,05539.62671,E,050615.00,A,A*64
$GNGRS,050615.00,1,0.4,-3.4,-0.6,1.0,3.6,0.7,-3.6,-12.8,0.3,-42.9,,*7E
$GNGRS,050615.00,1,-2.2,-0.3,-0.3,3.4,13.1,,,,,,,*60
$GNGST,050615.00,3071473,,,,3.3,5.7,7.0*7E
$GNZDA,050615.00,28,05,2025,00,00*75
$GNGBS,050615.00,3.3,5.7,7.0,,,,*5D
$GNTXT,01,01,01,More than 100 frame errors, UART RX was disabled*70
b0L ?_!
}%-i
%2c
7KT#
:{4V_$:RA 
Y
jDjEFITO" P&N4S^iT#U
bU
D.u$GNRMC,050616.00,A,0419.87558,S,05539.62671,E,0.243,,280525,,,A*7F
$GNVTG,,T,,M,0.243,N,0.450,K,A*39
$GNGNS,050616.00,0419.87558,S,05539.62671,E,AA,15,0.83,25.0,-47.6,,*64
$GNGGA,050616.00,0419.87558,S,05539.62671,E,1,12,0.83,25.0,M,-47.6,M,,*49
$GNGSA,A,3,24,05,20,11,15,12,18,29,25,41,,,1.54,0.83,1.31*12
$GNGSA,A,3,79,80,83,84,73,,,,,,,,1.54,0.83,1.31*11
$GPGSV,5,1,17,05,63,095,32,11,10,024,14,12,45,011,37,13,17,143,10*71
$GPGSV,5,2,17,15,30,176,30,18,30,246,16,20,37,050,25,22,10,128,*7F
$GPGSV,5,3,17,23,12,208,,24,55,214,25,25,22,340,23,29,09,314,26*76
$GPGSV,5,4,17,36,52,277,,40,86,351,,41,58,082,36,49,32,274,*79
$GPGSV,5,5,17,50,10,089,*4A
$GLGSV,3,1,09,68,15,106,,69,22,156,,70,00,213,,73,28,340,19*68
$GLGSV,3,2,09,79,34,146,23,80,78,052,38,83,20,350,27,84,31,291,09*6A
$GLGSV,3,3,09,85,10,242,*54
$GNGLL,0419.87558,S,05539.62671,E,050616.00,A,A*6B
$GNGRS,050616.00,1,0.8,-2.2,-1.6,-1.3,8.0,1.0,-2.9,-13.0,0.4,-42.9,,*52
$GNGRS,050616.00,1,-2.2,-0.1,1.0,-80.5,14.6,,,,,,,*59
$GNGST,050616.00,1096,,,,3.2,5.6,6.9*4E
$GNZDA,050616.00,28,05,2025,00,00*76
$GNGBS,050616.00,3.2,5.6,6.9,,,,*56
$GNTXT,01,01,01,More than 100 frame errors, UART RX was disabled*70
b0Lx ?_
%-e9%2
7T
:h{4V_#:R1 
Y
jDjEFITO"2P'N4S^T#U
bxU
,".Me$GNRMC,050617.00,A,0419.87556,S,05539.62669,E,0.064,,280525,,,A*7E
$GNVTG,,T,,M,0.064,N,0.118,K,A*37
$GNGNS,050617.00,0419.87556,S,05539.62669,E,AA,15,0.77,25.0,-47.6,,*69
$GNGGA,050617.00,0419.87556,S,05539.62669,E,1,12,0.77,25.0,M,-47.6,M,,*44
$GNGSA,A,3,24,05,20,11,15,12,18,29,25,41,,,1.50,0.77,1.29*14
$GNGSA,A,3,79,80,83,84,73,,,,,,,,1.50,0.77,1.29*17
$GPGSV,5,1,17,05,63,095,32,11,10,024,13,12,45,011,37,13,17,143,09*7E
$GPGSV,5,2,17,15,30,176,28,18,30,246,18,20,37,050,24,22,10,128,*79
$GPGSV,5,3,17,23,12,208,,24,55,214,27,25,22,340,23,29,09,314,25*77
$GPGSV,5,4,17,36,52,277,,40,86,351,,41,58,082,35,49,32,274,*7A
$GPGSV,5,5,17,50,10,089,*4A
$GLGSV,3,1,09,68,15,106,,69,22,156,,70,00,213,,73,28,340,19*68
$GLGSV,3,2,09,79,34,146,23,80,78,052,39,83,20,350,26,84,31,291,13*61
$GLGSV,3,3,09,85,10,242,*54
$GNGLL,0419.87556,S,05539.62669,E,050617.00,A,A*6D
$GNGRS,050617.00,1,-2.9,-6.0,-2.3,-4.9,5.4,1.0,-2.0,-11.8,0.1,-43.0,,*75
$GNGRS,050617.00,1,-4.6,-0.2,-0.2,4.5,14.2,,,,,,,*62
$GNGST,050617.00,105278,,,,3.2,5.6,6.9*48
$GNZDA,050617.00,28,05,2025,00,00*77
$GNGBS,050617.00,3.2,5.6,6.9,,,,*57
$GNTXT,01,01,01,More than 100 frame errors, UART RX was disabled*70
b0L` ?_V

&-N%2
7T
:{4V_":R1 
Y
jDjEFITO"P'N4S^T#U
Eb`U
&.%$GNRMC,050618.00,A,0419.87555,S,05539.62670,E,0.095,,280525,,,A*74
$GNVTG,,T,,M,0.095,N,0.177,K,A*30
$GNGNS,050618.00,0419.87555,S,05539.62670,E,AA,15,0.77,25.0,-47.6,,*6D
$GNGGA,050618.00,0419.87555,S,05539.62670,E,1,12,0.77,25.0,M,-47.6,M,,*40
$GNGSA,A,3,24,05,20,11,15,12,18,29,25,41,,,1.50,0.77,1.29*14
$GNGSA,A,3,79,80,83,84,73,,,,,,,,1.50,0.77,1.29*17
$GPGSV,5,1,17,05,63,095,32,11,10,024,10,12,45,011,38,13,17,143,09*72
$GPGSV,5,2,17,15,30,176,27,18,30,246,16,20,37,050,23,22,10,128,*7F
$GPGSV,5,3,17,23,12,208,,24,55,214,26,25,22,340,23,29,09,314,26*75
$GPGSV,5,4,17,36,52,277,,40,86,351,,41,58,082,34,49,32,274,*7B
$GPGSV,5,5,17,50,10,089,*4A
$GLGSV,3,1,09,68,15,106,,69,22,156,,70,00,213,,73,28,340,17*66
$GLGSV,3,2,09,79,34,146,23,80,78,052,39,83,20,350,26,84,31,291,11*63
$GLGSV,3,3,09,85,10,242,*54
$GNGLL,0419.87555,S,05539.62670,E,050618.00,A,A*69
$GNGRS,050618.00,1,-3.4,-6.8,-2.7,-5.9,9.6,0.8,-2.4,-10.5,-0.3,-43.0,,*5B
$GNGRS,050618.00,1,-5.1,0.2,2.5,4.7,14.1,,,,,,,*6F
$GNGST,050618.00,154816,,,,3.2,5.6,6.8*40
$GNZDA,050618.00,28,05,2025,00,00*78
$GNGBS,050618.00,3.2,5.6,6.8,,,,*59
$GNTXT,01,01,01,More than 100 frame errors, UART RX was disabled*70
b0LH!?_

1&-)H%2
7T
:={4V_":R9 
Y
jDjEFIT2O"P&N4S^T#EU
|bHU
).2$GNRMC,050619.00,A,0419.87554,S,05539.62671,E,0.029,,280525,,,A*72
$GNVTG,,T,,M,0.029,N,0.054,K,A*37
$GNGNS,050619.00,0419.87554,S,05539.62671,E,AA,13,0.93,25.1,-47.6,,*61
$GNGGA,050619.00,0419.87554,S,05539.62671,E,1,12,0.93,25.1,M,-47.6,M,,*4A
$GNGSA,A,3,24,05,20,15,12,29,25,41,,,,,1.78,0.93,1.51*12
$GNGSA,A,3,79,80,83,84,73,,,,,,,,1.78,0.93,1.51*18
$GPGSV,5,1,17,05,63,095,33,11,10,024,10,12,45,011,38,13,17,143,09*73
$GPGSV,5,2,17,15,30,176,28,18,30,246,16,20,37,050,22,22,10,128,*71
$GPGSV,5,3,17,23,12,208,,24,55,214,26,25,22,340,23,29,09,314,27*74
$GPGSV,5,4,17,36,52,277,,40,86,351,,41,58,082,34,49,32,274,*7B
$GPGSV,5,5,17,50,10,089,*4A
$GLGSV,3,1,09,68,15,106,,69,22,156,,70,00,213,,73,28,340,18*69
$GLGSV,3,2,09,79,34,146,23,80,78,052,38,83,20,350,26,84,31,291,07*65
$GLGSV,3,3,09,85,10,242,*54
$GNGLL,0419.87554,S,05539.62671,E,050619.00,A,A*68
$GNGRS,050619.00,1,-0.9,-4.9,-0.7,5.8,0.4,-12.2,-0.6,-43.0,,,,*51
$GNGRS,050619.00,1,-5.5,0.2,2.1,-7.0,13.3,,,,,,,*42
$GNGST,050619.00,1138,,,,3.1,5.6,6.8*46
$GNZDA,050619.00,28,05,2025,00,00*79
$GNGBS,050619.00,3.1,5.6,6.8,,,,*5B
$GNTXT,01,01,01,More than 100 frame errors, UART RX was disabled*70
b0L0!?_|
&-(v%2
7Ti
:{4V_":R 
Y
jDjEFITwO"P&N4S^rT#U
0b0U
-.$GNRMC,050620.00,A,0419.87552,S,05539.62674,E,0.018,,280525,,,A*79
$GNVTG,,T,,M,0.018,N,0.034,K,A*33
$GNGNS,050620.00,0419.87552,S,05539.62674,E,AA,14,0.84,25.2,-47.6,,*6A
$GNGGA,050620.00,0419.87552,S,05539.62674,E,1,12,0.84,25.2,M,-47.6,M,,*46
$GNGSA,A,3,24,05,20,11,15,12,29,25,41,,,,1.54,0.84,1.29*15
$GNGSA,A,3,79,80,83,84,73,,,,,,,,1.54,0.84,1.29*1F
$GPGSV,5,1,17,05,63,095,33,11,10,024,14,12,45,011,38,13,17,143,09*77
$GPGSV,5,2,17,15,30,176,29,18,30,246,15,20,37,050,23,22,10,128,*72
$GPGSV,5,3,17,23,12,208,,24,55,214,25,25,22,340,22,29,09,314,27*76
$GPGSV,5,4,17,36,52,277,,40,86,351,,41,58,082,34,49,32,274,*7B
$GPGSV,5,5,17,50,10,089,*4A
$GLGSV,3,1,09,68,15,106,,69,22,156,,70,00,213,,73,28,340,18*69
$GLGSV,3,2,09,79,34,146,23,80,78,052,38,83,20,350,26,84,31,291,08*6A
$GLGSV,3,3,09,85,10,242,*54
$GNGLL,0419.87552,S,05539.62674,E,050620.00,A,A*61
$GNGRS,050620.00,1,-0.1,-3.9,-0.3,-4.9,3.7,0.4,-13.4,-1.5,-43.3,,,*51
$GNGRS,050620.00,1,-4.9,0.0,1.1,4.6,11.4,,,,,,,*69
$GNGST,050620.00,128201,,,,3.1,5.6,6.8*4F
$GNZDA,050620.00,28,05,2025,00,00*73
$GNGBS,050620.00,3.1,5.6,6.8,,,,*51
$GNTXT,01,01,01,More than 100 frame errors, UART RX was disabled*70
b0L"?_
&-$;%2
7T*
:{4V_":R5 
Y
jDjEFIT0O"P&N4S^T#U
3bU
1.$GNRMC,050621.00,A,0419.87549,S,05539.62675,E,0.138,,280525,,,A*70
$GNVTG,,T,,M,0.138,N,0.255,K,A*35
$GNGNS,050621.00,0419.87549,S,05539.62675,E,AA,15,0.77,25.3,-47.6,,*6C
$GNGGA,050621.00,0419.87549,S,05539.62675,E,1,12,0.77,25.3,M,-47.6,M,,*41
$GNGSA,A,3,24,05,20,11,15,12,18,29,25,41,,,1.50,0.77,1.29*14
$GNGSA,A,3,79,80,83,84,73,,,,,,,,1.50,0.77,1.29*17
$GPGSV,5,1,17,05,63,095,34,11,10,024,14,12,45,011,38,13,17,143,08*71
$GPGSV,5,2,17,15,30,176,29,18,30,246,15,20,37,050,23,22,10,128,*72
$GPGSV,5,3,17,23,12,208,,24,55,214,24,25,22,340,22,29,09,314,28*78
$GPGSV,5,4,17,36,52,277,,40,86,351,,41,58,082,34,49,32,274,*7B
$GPGSV,5,5,17,50,10,089,*4A
$GLGSV,3,1,09,68,15,106,,69,22,156,,70,00,213,,73,28,340,17*66
$GLGSV,3,2,09,79,34,146,25,80,78,052,38,83,20,350,27,84,31,291,11*65
$GLGSV,3,3,09,85,10,242,*54
$GNGLL,0419.87549,S,05539.62675,E,050621.00,A,A*6B
$GNGRS,050621.00,1,2.4,-6.3,1.5,-3.1,5.7,0.4,-5.7,-13.1,-2.1,-43.0,,*56
$GNGRS,050621.00,1,-3.6,-0.2,1.6,4.7,10.7,,,,,,,*4B
$GNGST,050621.00,185778,,,,3.0,5.5,6.7*4F
$GNZDA,050621.00,28,05,2025,00,00*72
$GNGBS,050621.00,3.0,5.5,6.7,,,,*5D
$GNTXT,01,01,01,More than 100 frame errors, UART RX was disabled*70
b0L"?_9
k&-,%2P
7Ty
:{4V_":R4 
Y
jDjEFITO"%P'N4S^WT#U
bU
5.j$GNRMC,050622.00,A,0419.87544,S,05539.62678,E,0.095,,280525,,,A*75
$GNVTG,,T,,M,0.095,N,0.176,K,A*31
$GNGNS,050622.00,0419.87544,S,05539.62678,E,AA,15,0.83,25.3,-47.6,,*64
$GNGGA,050622.00,0419.87544,S,05539.62678,E,1,12,0.83,25.3,M,-47.6,M,,*49
$GNGSA,A,3,24,05,20,11,15,12,18,29,25,41,,,1.54,0.83,1.30*13
$GNGSA,A,3,79,80,83,84,73,,,,,,,,1.54,0.83,1.30*10
$GPGSV,5,1,17,05,63,095,34,11,10,024,13,12,45,011,38,13,17,143,08*76
$GPGSV,5,2,17,15,30,176,29,18,30,246,16,20,37,050,21,22,10,128,*73
$GPGSV,5,3,17,23,12,208,,24,55,214,25,25,22,340,22,29,09,314,27*76
$GPGSV,5,4,17,36,52,277,,40,86,351,,41,58,082,34,49,32,274,*7B
$GPGSV,5,5,17,50,10,089,*4A
$GLGSV,3,1,09,68,15,106,,69,22,156,,70,00,213,,73,28,340,19*68
$GLGSV,3,2,09,79,34,146,26,80,78,052,39,83,20,350,28,84,31,291,07*6F
$GLGSV,3,3,09,85,10,242,*54
$GNGLL,0419.87544,S,05539.62678,E,050622.00,A,A*68
$GNGRS,050622.00,1,0.3,-7.1,3.4,-1.5,3.0,0.1,-6.4,-13.6,-1.4,-43.0,,*53
$GNGRS,050622.00,1,-4.7,0.1,3.4,-28.5,11.7,,,,,,,*70
$GNGST,050622.00,1096,,,,3.0,5.5,6.6*47
$GNZDA,050622.00,28,05,2025,00,00*71
$GNGBS,050622.00,3.0,5.5,6.6,,,,*5F
$GNTXT,01,01,01,More than 100 frame errors, UART RX was disabled*70
b0L!?_~
<&-5%2
7'T%
:K{4V_#:R& 
Y
jDjEFITO"P'N4S^T#U
KbU
9.[$GNRMC,050623.00,A,0419.87543,S,05539.62677,E,0.035,,280525,,,A*76
$GNVTG,,T,,M,0.035,N,0.066,K,A*3B
$GNGNS,050623.00,0419.87543,S,05539.62677,E,AA,14,0.83,25.3,-47.6,,*6C
$GNGGA,050623.00,0419.87543,S,05539.62677,E,1,12,0.83,25.3,M,-47.6,M,,*40
$GNGSA,A,3,24,05,20,11,15,12,18,29,25,41,,,1.54,0.83,1.30*13
$GNGSA,A,3,79,80,83,73,,,,,,,,,1.54,0.83,1.30*1C
$GPGSV,5,1,17,05,63,095,33,11,10,024,12,12,45,011,38,13,17,143,08*70
$GPGSV,5,2,17,15,30,176,28,18,30,246,15,20,37,050,21,22,10,128,*71
$GPGSV,5,3,17,23,12,208,,24,55,214,26,25,22,340,24,29,09,314,26*72
$GPGSV,5,4,17,36,52,277,,40,86,351,,41,58,082,35,49,32,274,*7A
$GPGSV,5,5,17,50,10,089,*4A
$GLGSV,3,1,09,68,15,106,,69,22,156,,70,00,213,,73,28,340,23*61
$GLGSV,3,2,09,79,34,146,26,80,78,052,39,83,20,350,27,84,31,291,06*61
$GLGSV,3,3,09,85,10,242,*54
$GNGLL,0419.87543,S,05539.62677,E,050623.00,A,A*61
$GNGRS,050623.00,1,0.4,-6.4,2.6,3.2,3.9,0.0,-2.0,-12.1,-2.2,-43.1,,*70
$GNGRS,050623.00,1,-3.0,0.0,1.9,10.5,,,,,,,,*40
$GNGST,050623.00,1096,,,,2.9,5.5,6.6*4E
$GNZDA,050623.00,28,05,2025,00,00*70
$GNGBS,050623.00,2.9,5.5,6.6,,,,*56
$GNTXT,01,01,01,More than 100 frame errors, UART RX was disabled*70
b0L!?_
&-%2W
7T3
:I{4V_#:R) 
Y
jDjEFITO"P'N4S^T#U
SbU
=.3+$GNRMC,050624.00,A,0419.87542,S,05539.62680,E,0.056,,280525,,,A*7D
$GNVTG,,T,,M,0.056,N,0.104,K,A*3B
$GNGNS,050624.00,0419.87542,S,05539.62680,E,AA,15,0.77,25.2,-47.6,,*69
$GNGGA,050624.00,0419.87542,S,05539.62680,E,1,12,0.77,25.2,M,-47.6,M,,*44
$GNGSA,A,3,24,05,20,11,15,12,18,29,25,41,,,1.50,0.77,1.29*14
$GNGSA,A,3,79,80,83,84,73,,,,,,,,1.50,0.77,1.29*17
$GPGSV,5,1,17,05,63,095,33,11,10,024,11,12,45,011,38,13,17,143,08*73
$GPGSV,5,2,17,15,30,176,28,18,30,246,15,20,37,050,21,22,10,128,*71
$GPGSV,5,3,17,23,12,208,,24,55,214,25,25,22,340,25,29,09,314,26*70
$GPGSV,5,4,17,36,52,277,,40,86,351,,41,58,082,35,49,32,274,*7A
$GPGSV,5,5,17,50,10,089,*4A
$GLGSV,3,1,09,68,15,106,,69,22,156,,70,00,213,,73,28,340,23*61
$GLGSV,3,2,09,79,34,146,26,80,78,052,39,83,20,350,27,84,31,291,08*6F
$GLGSV,3,3,09,85,10,242,*54
$GNGLL,0419.87542,S,05539.62680,E,050624.00,A,A*6F
$GNGRS,050624.00,1,-1.3,-5.9,3.4,9.3,4.9,0.0,-3.2,-12.1,-2.0,-43.1,,*5C
$GNGRS,050624.00,1,-3.4,0.2,2.4,4.1,9.5,,,,,,,*5C
$GNGST,050624.00,3071473,,,,2.9,5.5,6.5*71
$GNZDA,050624.00,28,05,2025,00,00*77
$GNGBS,050624.00,2.9,5.5,6.5,,,,*52
$GNTXT,01,01,01,More than 100 frame errors, UART RX was disabled*70
b0L"?_
&-?y%2A
7Tb
:g{4V_#:R; 
Y
jDjEFITpO"P'N4S^T#*U
CbU
lA.$GNRMC,050625.00,A,0419.87539,S,05539.62675,E,0.086,,280525,,,A*77
$GNVTG,,T,,M,0.086,N,0.160,K,A*34
$GNGNS,050625.00,0419.87539,S,05539.62675,E,AA,14,0.91,25.3,-47.6,,*66
$GNGGA,050625.00,0419.87539,S,05539.62675,E,1,12,0.91,25.3,M,-47.6,M,,*4A
$GNGSA,A,3,24,05,20,15,12,18,29,25,41,,,,1.79,0.91,1.54*1D
$GNGSA,A,3,79,80,83,84,73,,,,,,,,1.79,0.91,1.54*1E
$GPGSV,5,1,17,05,63,095,34,11,10,024,09,12,45,011,38,13,17,143,08*7D
$GPGSV,5,2,17,15,30,176,28,18,30,246,14,20,37,050,21,22,10,128,*70
$GPGSV,5,3,17,23,12,208,,24,55,214,26,25,22,340,25,29,09,314,27*72
$GPGSV,5,4,17,36,52,277,,40,86,351,,41,58,082,35,49,32,274,*7A
$GPGSV,5,5,17,50,10,089,*4A
$GLGSV,3,1,09,68,15,106,,69,22,156,,70,00,213,,73,28,340,21*63
$GLGSV,3,2,09,79,34,146,27,80,78,052,39,83,20,350,26,84,31,291,07*60
$GLGSV,3,3,09,85,10,242,*54
$GNGLL,0419.87539,S,05539.62675,E,050625.00,A,A*68
$GNGRS,050625.00,1,-0.8,-5.8,3.2,0.6,-0.1,-1.3,-9.2,-4.1,-42.9,,,*67
$GNGRS,050625.00,1,-1.3,0.1,1.4,109,8.8,,,,,,,*47
$GNGST,050625.00,1138,,,,2.9,5.5,6.5*4E
$GNZDA,050625.00,28,05,2025,00,00*76
$GNGBS,050625.00,2.9,5.5,6.5,,,,*53
$GNTXT,01,01,01,More than 100 frame errors, UART RX was disabled*70
b0L"?_

>&-%2
7VT$
:H{4V_#:R+ 
Y
jDiEFIT3O"P'N4'S^T#U
bU
TE.$GNRMC,050626.00,A,0419.87539,S,05539.62672,E,0.054,,280525,,,A*7C
$GNVTG,,T,,M,0.054,N,0.100,K,A*3D
$GNGNS,050626.00,0419.87539,S,05539.62672,E,AA,15,0.84,25.4,-47.6,,*60
$GNGGA,050626.00,0419.87539,S,05539.62672,E,1,12,0.84,25.4,M,-47.6,M,,*4D
$GNGSA,A,3,24,05,20,11,15,12,18,29,25,41,,,1.73,0.84,1.51*16
$GNGSA,A,3,79,80,83,84,73,,,,,,,,1.73,0.84,1.51*15
$GPGSV,5,1,17,05,63,095,34,11,10,024,10,12,45,011,38,13,17,143,08*75
$GPGSV,5,2,17,15,30,176,28,18,30,246,14,20,37,050,23,22,10,128,*72
$GPGSV,5,3,17,23,12,208,,24,55,214,25,25,22,340,24,29,09,314,26*71
$GPGSV,5,4,17,36,52,277,,40,86,351,,41,58,082,35,49,32,274,*7A
$GPGSV,5,5,17,50,10,089,*4A
$GLGSV,3,1,09,68,15,105,,69,22,156,,70,00,213,,73,28,340,21*60
$GLGSV,3,2,09,79,34,146,26,80,78,052,39,83,20,350,27,84,31,291,11*67
$GLGSV,3,3,09,85,10,242,*54
$GNGLL,0419.87539,S,05539.62672,E,050626.00,A,A*6C
$GNGRS,050626.00,1,-1.7,-5.7,2.4,21.1,2.6,-0.3,-2.6,-9.5,-4.8,-43.1,,*7F
$GNGRS,050626.00,1,-0.7,0.4,-0.2,4.6,8.2,,,,,,,*70
$GNGST,050626.00,3179277,,,,2.8,5.5,6.4*78
$GNZDA,050626.00,28,05,2025,00,00*75
$GNGBS,050626.00,2.8,5.5,6.4,,,,*50
$GNTXT,01,01,01,More than 100 frame errors, UART RX was disabled*70
b0L!?_
&-u%2@
7TP
:{4V_#:R 
Y
jDiEFITBO"P'N4S^T
#U
*bU
<I.c$GNRMC,050627.00,A,0419.87541,S,05539.62673,E,0.070,,280525,,,A*75
$GNVTG,,T,,M,0.070,N,0.129,K,A*30
$GNGNS,050627.00,0419.87541,S,05539.62673,E,AA,15,0.77,25.5,-47.6,,*62
$GNGGA,050627.00,0419.87541,S,05539.62673,E,1,12,0.77,25.5,M,-47.6,M,,*4F
$GNGSA,A,3,24,05,20,11,15,12,18,29,25,41,,,1.50,0.77,1.29*14
$GNGSA,A,3,79,80,83,84,73,,,,,,,,1.50,0.77,1.29*17
$GPGSV,5,1,17,05,63,095,33,11,10,024,11,12,45,011,38,13,17,143,*7B
$GPGSV,5,2,17,15,30,176,28,18,30,246,15,20,37,050,23,22,10,128,*73
$GPGSV,5,3,17,23,12,208,,24,55,214,26,25,22,340,24,29,09,314,26*72
$GPGSV,5,4,17,36,52,277,,40,86,351,,41,58,082,35,49,32,274,*7A
$GPGSV,5,5,17,50,10,089,*4A
$GLGSV,3,1,09,68,15,105,,69,22,156,,70,00,213,,73,28,340,21*60
$GLGSV,3,2,09,79,34,146,26,80,78,052,39,83,20,350,27,84,31,291,10*66
$GLGSV,3,3,09,85,10,242,*54
$GNGLL,0419.87541,S,05539.62673,E,050627.00,A,A*63
$GNGRS,050627.00,1,-2.9,-5.9,0.6,19.4,4.0,-0.4,-3.9,-10.1,-6.9,-43.3,,*47
$GNGRS,050627.00,1,1.6,0.3,-1.1,4.8,5.8,,,,,,,*50
$GNGST,050627.00,3071473,,,,2.8,5.5,6.4*72
$GNZDA,050627.00,28,05,2025,00,00*74
$GNGBS,050627.00,2.8,5.5,6.4,,,,*51
$GNTXT,01,01,01,More than 100 frame errors, UART RX was disabled*70
b0Lp"?_
B&-4%2
7T?
:{4V_":R 
Y
jDiEFITO"P'N4>S^vT#U
bpU
$M.$GNRMC,050628.00,A,0419.87543,S,05539.62661,E,0.426,,280525,,,A*7C
$GNVTG,,T,,M,0.426,N,0.789,K,A*3B
$GNGNS,050628.00,0419.87543,S,05539.62661,E,AA,15,0.83,25.6,-47.6,,*64
$GNGGA,050628.00,0419.87543,S,05539.62661,E,1,12,0.83,25.6,M,-47.6,M,,*49
$GNGSA,A,3,24,05,20,11,15,12,18,29,25,41,,,1.54,0.83,1.30*13
$GNGSA,A,3,79,80,83,84,73,,,,,,,,1.54,0.83,1.30*10
$GPGSV,5,1,17,05,63,095,34,11,10,024,12,12,45,011,38,13,17,143,*7F
$GPGSV,5,2,17,15,30,176,29,18,30,246,15,20,37,050,22,22,10,128,*73
$GPGSV,5,3,17,23,12,208,,24,55,214,25,25,22,340,25,29,09,314,24*72
$GPGSV,5,4,17,36,52,277,,40,86,351,,41,58,082,34,49,32,274,*7B
$GPGSV,5,5,17,50,10,089,*4A
$GLGSV,3,1,09,68,15,105,,69,22,156,,70,00,213,,73,28,340,22*63
$GLGSV,3,2,09,79,34,146,25,80,78,052,39,83,20,350,26,84,31,291,08*6D
$GLGSV,3,3,09,85,10,242,*54
$GNGLL,0419.87543,S,05539.62661,E,050628.00,A,A*6D
$GNGRS,050628.00,1,-2.6,-5.4,1.9,18.6,2.1,-0.7,-4.6,-11.1,-4.5,-43.3,,*44
$GNGRS,050628.00,1,2.8,0.6,-1.4,-44.6,7.0,,,,,,,*4F
$GNGST,050628.00,1096,,,,2.8,5.5,6.4*46
$GNZDA,050628.00,28,05,2025,00,00*7B
$GNGBS,050628.00,2.8,5.5,6.4,,,,*5E
$GNTXT,01,01,01,More than 100 frame errors, UART RX was disabled*70
b0LX"?_
6&-%2
7hT
:{4V_#:R 
Y
jDiEFIT3O"P'N4DS^T
#U
bXU
Q.k3$GNRMC,050629.00,A,0419.87545,S,05539.62653,E,0.172,,280525,,,A*7E
$GNVTG,,T,,M,0.172,N,0.319,K,A*32
$GNGNS,050629.00,0419.87545,S,05539.62653,E,AA,15,0.77,25.7,-47.6,,*68
$GNGGA,050629.00,0419.87545,S,05539.62653,E,1,12,0.77,25.7,M,-47.6,M,,*45
$GNGSA,A,3,24,05,20,11,15,12,18,29,25,41,,,1.50,0.77,1.29*14
$GNGSA,A,3,79,80,83,84,73,,,,,,,,1.50,0.77,1.29*17
$GPGSV,5,1,17,05,63,095,34,11,10,024,12,12,45,011,38,13,17,143,*7F
$GPGSV,5,2,17,15,30,176,28,18,30,246,18,20,37,050,21,22,10,128,*7C
$GPGSV,5,3,17,23,12,208,,24,55,214,24,25,22,340,25,29,09,314,24*73
$GPGSV,5,4,17,36,52,277,,40,86,351,,41,58,082,35,49,32,274,*7A
$GPGSV,5,5,17,50,10,089,*4A
$GLGSV,3,1,09,68,15,105,,69,22,156,,70,00,213,,73,28,340,23*62
$GLGSV,3,2,09,79,34,146,25,80,78,052,39,83,20,350,27,84,31,291,10*65
$GLGSV,3,3,09,85,10,242,*54
$GNGLL,0419.87545,S,05539.62653,E,050629.00,A,A*6B
$GNGRS,050629.00,1,-1.5,-5.3,2.8,15.9,2.8,-0.3,-3.7,-7.8,-4.8,-43.2,,*7B
$GNGRS,050629.00,1,2.3,0.7,-2.9,4.4,5.6,,,,,,,*55
$GNGST,050629.00,3071473,,,,2.7,5.6,6.3*77
$GNZDA,050629.00,28,05,2025,00,00*7A
$GNGBS,050629.00,2.7,5.6,6.3,,,,*54
$GNTXT,01,01,01,More than 100 frame errors, UART RX was disabled*70
b0L@"?_
'-B%2)
75T
:d{4V_#:R 
Y
jDiEFITO"1P'N4&S^
T#U
rb@U
T.B$GNRMC,050630.00,A,0419.87548,S,05539.62643,E,0.299,,280525,,,A*7C
$GNVTG,,T,,M,0.299,N,0.553,K,A*3C
$GNGNS,050630.00,0419.87548,S,05539.62643,E,AA,15,0.77,25.8,-47.6,,*63
$GNGGA,050630.00,0419.87548,S,05539.62643,E,1,12,0.77,25.8,M,-47.6,M,,*4E
$GNGSA,A,3,24,05,20,11,15,12,18,29,25,41,,,1.50,0.77,1.29*14
$GNGSA,A,3,79,80,83,84,73,,,,,,,,1.50,0.77,1.29*17
$GPGSV,5,1,17,05,63,095,34,11,10,024,13,12,45,011,39,13,17,143,*7F
$GPGSV,5,2,17,15,30,176,28,18,30,246,18,20,37,050,18,22,10,128,*76
$GPGSV,5,3,17,23,12,208,,24,55,214,25,25,22,340,25,29,09,314,24*72
$GPGSV,5,4,17,36,52,277,,40,86,351,,41,58,082,35,49,32,274,*7A
$GPGSV,5,5,17,50,10,089,*4A
$GLGSV,3,1,09,68,15,105,,69,22,156,,70,00,213,,73,28,340,23*62
$GLGSV,3,2,09,79,34,146,25,80,78,052,39,83,20,350,27,84,31,291,12*67
$GLGSV,3,3,09,85,10,242,*54
$GNGLL,0419.87548,S,05539.62643,E,050630.00,A,A*6F
$GNGRS,050630.00,1,-2.0,-5.2,3.0,13.1,3.9,-0.4,-1.9,-6.7,-2.8,-43.4,,*76
$GNGRS,050630.00,1,3.0,0.4,-2.5,4.4,4.8,,,,,,,*5F
$GNGST,050630.00,3071473,,,,2.7,5.6,6.3*7F
$GNZDA,050630.00,28,05,2025,00,00*72
$GNGBS,050630.00,2.7,5.6,6.3,,,,*5C
$GNTXT,01,01,01,More than 100 frame errors, UART RX was disabled*70
b0L("?_
'-nP%2
7TT
:{4V_#:R 
Y
jDiEFITvO"P'N4S^T#*U
Kb(U
X.$GNRMC,050631.00,A,0419.87551,S,05539.62639,E,0.219,,280525,,,A*70
$GNVTG,,T,,M,0.219,N,0.406,K,A*35
$GNGNS,050631.00,0419.87551,S,05539.62639,E,AA,15,0.83,25.7,-47.6,,*63
$GNGGA,050631.00,0419.87551,S,05539.62639,E,1,12,0.83,25.7,M,-47.6,M,,*4E
$GNGSA,A,3,24,05,20,11,15,12,18,29,25,41,,,1.54,0.83,1.30*13
$GNGSA,A,3,79,80,83,84,73,,,,,,,,1.54,0.83,1.30*10
$GPGSV,5,1,17,05,63,095,34,11,10,024,14,12,45,011,39,13,17,143,*78
$GPGSV,5,2,17,15,30,176,28,18,30,246,19,20,37,050,16,22,10,128,*79
$GPGSV,5,3,17,23,12,208,,24,55,214,25,25,22,340,25,29,09,314,23*75
$GPGSV,5,4,17,36,52,277,,40,86,351,,41,58,082,35,49,32,274,*7A
$GPGSV,5,5,17,50,10,089,*4A
$GLGSV,3,1,09,68,15,105,,69,22,156,,70,00,213,,73,29,340,23*63
$GLGSV,3,2,09,79,34,146,25,80,78,052,39,83,20,350,27,84,31,291,11*64
$GLGSV,3,3,09,85,10,242,*54
$GNGLL,0419.87551,S,05539.62639,E,050631.00,A,A*6B
$GNGRS,050631.00,1,-4.3,-5.0,4.0,12.2,3.7,-0.5,-1.8,-4.9,-3.6,-43.4,,*78
$GNGRS,050631.00,1,3.8,0.3,-2.4,110,3.7,,,,,,,*46
$GNGST,050631.00,1096,,,,2.7,5.7,6.3*44
$GNZDA,050631.00,28,05,2025,00,00*73
$GNGBS,050631.00,2.7,5.7,6.3,,,,*5C
$GNTXT,01,01,01,More than 100 frame errors, UART RX was disabled*70
b0L#?_)
&-%2I
7T
:>{4V_":R 
Y
jDiEFITO"UP'N4S^T#U
5abU
\.h$GNRMC,050632.00,A,0419.87554,S,05539.62624,E,0.467,,280525,,,A*75
$GNVTG,,T,,M,0.467,N,0.866,K,A*30
$GNGNS,050632.00,0419.87554,S,05539.62624,E,AA,15,0.77,25.7,-47.6,,*62
$GNGGA,050632.00,0419.87554,S,05539.62624,E,1,12,0.77,25.7,M,-47.6,M,,*4F
$GNGSA,A,3,24,05,20,11,15,12,18,29,25,41,,,1.50,0.77,1.29*14
$GNGSA,A,3,79,80,83,84,73,,,,,,,,1.50,0.77,1.29*17
$GPGSV,5,1,17,05,63,095,35,11,10,024,14,12,45,011,38,13,17,143,*78
$GPGSV,5,2,17,15,30,176,28,18,30,246,18,20,37,050,15,22,10,128,*7B
$GPGSV,5,3,17,23,12,208,19,24,55,214,25,25,22,340,23,29,09,314,23*7B
$GPGSV,5,4,17,36,52,277,,40,86,351,,41,58,082,34,49,32,274,*7B
$GPGSV,5,5,17,50,10,089,*4A
$GLGSV,3,1,09,68,15,105,,69,22,156,,70,00,213,,73,29,340,23*63
$GLGSV,3,2,09,79,34,146,26,80,78,052,39,83,20,350,26,84,31,291,09*6F
$GLGSV,3,3,09,85,10,242,*54
$GNGLL,0419.87554,S,05539.62624,E,050632.00,A,A*61
$GNGRS,050632.00,1,-0.9,-4.7,5.8,12.3,2.6,-0.3,-1.1,-4.5,-3.0,-43.4,,*7E
$GNGRS,050632.00,1,6.0,0.0,-2.9,4.4,1.9,,,,,,,*54
$GNGST,050632.00,3071473,,,,2.7,5.7,6.3*7C
$GNZDA,050632.00,28,05,2025,00,00*70
$GNGBS,050632.00,2.7,5.7,6.3,,,,*5F
$GNTXT,01,01,01,More than 100 frame errors, UART RX was disabled*70
b0L"?_C
'-ur%2
7T
:f{4V_":R 
Y
jDiEFITO"P'N4S^;T#U
bU
`.$GNRMC,050633.00,A,0419.87555,S,05539.62623,E,0.069,,280525,,,A*78
$GNVTG,,T,,M,0.069,N,0.128,K,A*39
$GNGNS,050633.00,0419.87555,S,05539.62623,E,AA,15,0.77,25.7,-47.6,,*65
$GNGGA,050633.00,0419.87555,S,05539.62623,E,1,12,0.77,25.7,M,-47.6,M,,*48
$GNGSA,A,3,24,05,20,11,15,12,18,29,25,41,,,1.50,0.77,1.29*14
$GNGSA,A,3,79,80,83,84,73,,,,,,,,1.50,0.77,1.29*17
$GPGSV,5,1,17,05,63,095,34,11,10,024,12,12,45,011,39,13,17,143,*7E
$GPGSV,5,2,17,15,30,176,28,18,30,246,17,20,37,050,15,22,10,128,*74
$GPGSV,5,3,17,23,12,208,18,24,55,214,27,25,22,340,22,29,09,314,23*79
$GPGSV,5,4,17,36,52,277,,40,86,351,,41,58,082,34,49,32,274,*7B
$GPGSV,5,5,17,50,10,089,*4A
$GLGSV,3,1,09,68,15,105,,69,22,156,,70,00,213,,73,29,340,24*64
$GLGSV,3,2,09,79,34,146,26,80,78,052,39,83,20,350,26,84,31,291,08*6E
$GLGSV,3,3,09,85,10,242,*54
$GNGLL,0419.87555,S,05539.62623,E,050633.00,A,A*66
$GNGRS,050633.00,1,-3.8,-4.4,4.6,11.7,1.2,-0.2,-1.4,-4.1,-6.1,-43.5,,*74
$GNGRS,050633.00,1,7.4,-0.1,-2.0,4.6,2.1,,,,,,,*7C
$GNGST,050633.00,3071473,,,,2.6,5.7,6.3*7C
$GNZDA,050633.00,28,05,2025,00,00*71
$GNGBS,050633.00,2.6,5.7,6.3,,,,*5F
$GNTXT,01,01,01,More than 100 frame errors, UART RX was disabled*70
b0L"?_V
&-#}%2x
7T
:I{4V_#:R 
Y
jDiEFITO"P'N4S^|T#U
vbU
d.7$GNRMC,050634.00,A,0419.87557,S,05539.62628,E,0.113,,280525,,,A*7A
$GNVTG,,T,,M,0.113,N,0.209,K,A*35
$GNGNS,050634.00,0419.87557,S,05539.62628,E,AA,15,0.82,25.7,-47.6,,*61
$GNGGA,050634.00,0419.87557,S,05539.62628,E,1,12,0.82,25.7,M,-47.6,M,,*4C
$GNGSA,A,3,24,05,20,11,15,12,18,29,25,41,,,1.54,0.82,1.30*12
$GNGSA,A,3,79,80,83,84,73,,,,,,,,1.54,0.82,1.30*11
$GPGSV,5,1,17,05,63,095,34,11,10,024,11,12,45,011,38,13,17,143,*7C
$GPGSV,5,2,17,15,30,176,28,18,30,246,17,20,37,050,16,22,10,128,*77
$GPGSV,5,3,17,23,12,208,17,24,55,214,26,25,22,340,25,29,09,314,23*70
$GPGSV,5,4,17,36,52,277,,40,86,351,,41,58,082,35,49,32,274,*7A
$GPGSV,5,5,17,50,10,089,*4A
$GLGSV,3,1,09,68,15,105,,69,22,156,,70,00,213,,73,29,340,25*65
$GLGSV,3,2,09,79,34,146,25,80,78,052,39,83,20,350,26,84,31,291,11*65
$GLGSV,3,3,09,85,10,242,*54
$GNGLL,0419.87557,S,05539.62628,E,050634.00,A,A*68
$GNGRS,050634.00,1,-5.8,-4.3,3.8,12.5,0.4,-0.2,-3.9,-1.8,-6.3,-43.6,,*7F
$GNGRS,050634.00,1,7.6,-0.1,1.2,-142,0.0,,,,,,,*60
$GNGST,050634.00,1096,,,,2.6,5.7,6.3*40
$GNZDA,050634.00,28,05,2025,00,00*76
$GNGBS,050634.00,2.6,5.7,6.3,,,,*58
$GNTXT,01,01,01,More than 100 frame errors, UART RX was disabled*70
b0L#?_d
&'-L%2;
7T
:{4V_#:R 
Y
jDiEFITO"P&N4S^T#U
 bU
|h.z$GNRMC,050635.00,A,0419.87557,S,05539.62630,E,0.021,,280525,,,A*72
$GNVTG,,T,,M,0.021,N,0.039,K,A*34
$GNGNS,050635.00,0419.87557,S,05539.62630,E,AA,15,0.77,25.6,-47.6,,*62
$GNGGA,050635.00,0419.87557,S,05539.62630,E,1,12,0.77,25.6,M,-47.6,M,,*4F
$GNGSA,A,3,24,05,20,11,15,12,18,29,25,41,,,1.50,0.77,1.29*14
$GNGSA,A,3,79,80,83,84,73,,,,,,,,1.50,0.77,1.29*17
$GPGSV,5,1,17,05,63,095,35,11,10,024,11,12,45,011,39,13,17,143,*7C
$GPGSV,5,2,17,15,30,176,28,18,30,246,16,20,37,050,19,22,10,128,*79
$GPGSV,5,3,17,23,12,208,18,24,55,214,25,25,22,340,25,29,09,314,21*7E
$GPGSV,5,4,17,36,52,277,,40,86,351,,41,58,082,35,49,32,274,*7A
$GPGSV,5,5,17,50,10,089,*4A
$GLGSV,3,1,09,68,15,105,,69,22,156,,70,00,213,,73,29,340,24*64
$GLGSV,3,2,09,79,34,146,23,80,78,052,38,83,20,350,25,84,31,291,09*68
$GLGSV,3,3,09,85,10,242,*54
$GNGLL,0419.87557,S,05539.62630,E,050635.00,A,A*60
$GNGRS,050635.00,1,-5.9,-4.1,3.2,8.1,0.8,-0.3,-3.8,-3.2,-5.6,-43.5,,*49
$GNGRS,050635.00,1,9.0,-0.1,2.2,4.2,-1.0,,,,,,,*74
$GNGST,050635.00,3273,,,,2.6,5.7,6.3*4A
$GNZDA,050635.00,28,05,2025,00,00*77
$GNGBS,050635.00,2.6,5.7,6.3,,,,*59
$GNTXT,01,01,01,More than 100 frame errors, UART RX was disabled*70
b0L#?_`
'-%2k
7T4
:{4V_#:R 
Y
jDiEFIT6O"9P&N4S^/T
#U
~bU
dl.R$GNRMC,050636.00,A,0419.87560,S,05539.62640,E,0.318,,280525,,,A*7B
$GNVTG,,T,,M,0.318,N,0.589,K,A*33
$GNGNS,050636.00,0419.87560,S,05539.62640,E,AA,14,0.84,25.4,-47.6,,*6D
$GNGGA,050636.00,0419.87560,S,05539.62640,E,1,12,0.84,25.4,M,-47.6,M,,*41
$GNGSA,A,3,24,05,20,11,15,12,29,25,41,,,,1.54,0.84,1.29*15
$GNGSA,A,3,79,80,83,84,73,,,,,,,,1.54,0.84,1.29*1F
$GPGSV,5,1,17,05,63,095,35,11,10,024,12,12,45,011,39,13,17,143,21*7C
$GPGSV,5,2,17,15,30,176,29,18,30,246,,20,37,050,18,22,10,128,*7E
$GPGSV,5,3,17,23,12,208,18,24,55,214,26,25,22,340,24,29,09,314,19*77
$GPGSV,5,4,17,36,52,277,,40,86,351,,41,58,082,35,49,32,274,*7A
$GPGSV,5,5,17,50,10,089,*4A
$GLGSV,3,1,09,68,15,105,,69,22,156,,70,00,213,,73,29,340,24*64
$GLGSV,3,2,09,79,34,146,24,80,78,052,38,83,20,350,24,84,31,291,10*66
$GLGSV,3,3,09,85,10,242,*54
$GNGLL,0419.87560,S,05539.62640,E,050636.00,A,A*60
$GNGRS,050636.00,1,-6.2,-4.2,3.6,7.3,4.3,-0.5,-2.7,-4.6,-43.8,,,*41
$GNGRS,050636.00,1,10.8,0.1,3.0,3.9,-2.0,,,,,,,*66
$GNGST,050636.00,4931,,,,2.6,5.7,6.3*43
$GNZDA,050636.00,28,05,2025,00,00*74
$GNGBS,050636.00,2.6,5.7,6.3,,,,*5A
$GNTXT,01,01,01,More than 100 frame errors, UART RX was disabled*70
b0L#?_K
'-j%2
7T
:{4V_":R 
Y
jDiEFIThO!gP&N4S^PT
#DU
HbU
Lp.*o$GNRMC,050637.00,A,0419.87562,S,05539.62648,E,0.190,,280525,,,A*72
$GNVTG,,T,,M,0.190,N,0.352,K,A*31
$GNGNS,050637.00,0419.87562,S,05539.62648,E,AA,13,0.89,25.1,-47.6,,*69
$GNGGA,050637.00,0419.87562,S,05539.62648,E,1,12,0.89,25.1,M,-47.6,M,,*42
$GNGSA,A,3,24,05,11,15,12,29,25,41,,,,,1.57,0.89,1.29*19
$GNGSA,A,3,79,80,83,84,73,,,,,,,,1.57,0.89,1.29*11
$GPGSV,5,1,17,05,63,095,35,11,10,024,14,12,45,011,39,13,17,143,19*71
$GPGSV,5,2,17,15,30,176,28,18,30,246,19,20,37,050,,22,10,128,*7E
$GPGSV,5,3,17,23,12,208,18,24,55,214,27,25,22,340,24,29,09,314,19*76
$GPGSV,5,4,17,36,52,277,,40,86,351,,41,58,082,34,49,32,274,*7B
$GPGSV,5,5,17,50,10,089,*4A
$GLGSV,3,1,09,68,15,105,,69,22,156,,70,00,213,,73,29,340,24*64
$GLGSV,3,2,09,79,33,146,25,80,78,052,38,83,20,350,25,84,31,291,10*61
$GLGSV,3,3,09,85,10,242,*54
$GNGLL,0419.87562,S,05539.62648,E,050637.00,A,A*6B
$GNGRS,050637.00,1,-5.6,-4.4,9.1,2.4,-0.4,-3.2,-3.6,-43.5,,,,*68
$GNGRS,050637.00,1,11.3,0.1,3.4,-7.0,-1.5,,,,,,,*4F
$GNGST,050637.00,1138,,,,2.6,5.7,6.3*46
$GNZDA,050637.00,28,05,2025,00,00*75
$GNGBS,050637.00,2.6,5.7,6.3,,,,*5B
$GNTXT,01,01,01,More than 100 frame errors, UART RX was disabled*70
b0L#?_^
-'-%2/
7T
:{4V_":R 
Y
jDiEFITO!P&O7S^T
#U
bU
4t.$GNRMC,050638.00,A,0419.87563,S,05539.62646,E,0.203,,280525,,,A*7B
$GNVTG,,T,,M,0.203,N,0.375,K,A*3D
$GNGNS,050638.00,0419.87563,S,05539.62646,E,AA,13,0.89,24.9,-47.6,,*60
$GNGGA,050638.00,0419.87563,S,05539.62646,E,1,12,0.89,24.9,M,-47.6,M,,*4B
$GNGSA,A,3,24,05,11,15,12,29,25,41,,,,,1.57,0.89,1.29*19
$GNGSA,A,3,79,80,83,84,73,,,,,,,,1.57,0.89,1.29*11
$GPGSV,5,1,17,05,63,095,35,11,10,024,13,12,45,011,39,13,17,143,18*77
$GPGSV,5,2,17,15,30,176,28,18,30,246,17,20,37,050,18,22,10,128,*79
$GPGSV,5,3,17,23,12,208,18,24,55,214,27,25,22,340,25,29,09,314,20*7D
$GPGSV,5,4,17,36,52,277,,40,86,351,,41,58,082,34,49,32,274,*7B
$GPGSV,5,5,17,50,10,089,*4A
$GLGSV,3,1,09,68,15,105,,69,22,156,,70,00,213,,73,29,340,25*65
$GLGSV,3,2,09,79,33,146,26,80,79,055,38,83,20,350,25,84,31,291,10*64
$GLGSV,3,3,09,85,10,242,*54
$GNGLL,0419.87563,S,05539.62646,E,050638.00,A,A*6B
$GNGRS,050638.00,1,-7.8,-4.2,8.1,1.8,-0.3,-0.6,-4.8,-43.6,,,,*69
$GNGRS,050638.00,1,9.8,0.1,4.5,4.2,-0.3,,,,,,,*5F
$GNGST,050638.00,119738,,,,2.6,5.7,6.3*47
$GNZDA,050638.00,28,05,2025,00,00*7A
$GNGBS,050638.00,2.6,5.7,6.3,,,,*54
$GNTXT,01,01,01,More than 100 frame errors, UART RX was disabled*70
b0Lh#?_T
b'-ak%23
7T
:{4V_#:R 
Y
jDiEFITtO!P&O7S^AT
#U
bhU
x.?$GNRMC,050639.00,A,0419.87567,S,05539.62653,E,0.254,,280525,,,A*78
$GNVTG,,T,,M,0.254,N,0.471,K,A*3C
$GNGNS,050639.00,0419.87567,S,05539.62653,E,AA,13,0.89,24.7,-47.6,,*6F
$GNGGA,050639.00,0419.87567,S,05539.62653,E,1,12,0.89,24.7,M,-47.6,M,,*44
$GNGSA,A,3,24,05,11,15,12,29,25,41,,,,,1.57,0.89,1.29*19
$GNGSA,A,3,79,80,83,84,73,,,,,,,,1.57,0.89,1.29*11
$GPGSV,5,1,17,05,63,095,35,11,10,024,12,12,45,011,39,13,17,143,16*78
$GPGSV,5,2,17,15,30,176,28,18,30,246,18,20,37,050,17,22,10,128,*79
$GPGSV,5,3,17,23,12,208,18,24,55,214,26,25,22,340,25,29,09,314,19*76
$GPGSV,5,4,17,36,52,277,,40,86,351,,41,58,082,35,49,32,274,*7A
$GPGSV,5,5,17,50,10,089,*4A
$GLGSV,3,1,09,68,15,105,,69,22,156,,70,00,213,,73,29,340,26*66
$GLGSV,3,2,09,79,33,146,25,80,79,055,38,83,20,350,26,84,31,291,10*64
$GLGSV,3,3,09,85,10,242,*54
$GNGLL,0419.87567,S,05539.62653,E,050639.00,A,A*6A
$GNGRS,050639.00,1,-10.0,-4.3,8.7,8.6,-0.6,-2.8,-3.4,-43.5,,,,*57
$GNGRS,050639.00,1,7.3,0.0,5.8,4.0,-1.4,,,,,,,*52
$GNGST,050639.00,179602,,,,2.5,5.7,6.4*4C
$GNZDA,050639.00,28,05,2025,00,00*7B
$GNGBS,050639.00,2.5,5.7,6.4,,,,*51
$GNTXT,01,01,01,More than 100 frame errors, UART RX was disabled*70
b0LP#?_@
&-%2]
7TG
:{4V_#:R 
Y
jDiEFITO!_P&O7S^T#U
c$bPU
|.$GNRMC,050640.00,A,0419.87570,S,05539.62661,E,0.183,,280525,,,A*78
$GNVTG,,T,,M,0.183,N,0.339,K,A*3E
$GNGNS,050640.00,0419.87570,S,05539.62661,E,AA,13,1.01,24.3,-47.6,,*63
$GNGGA,050640.00,0419.87570,S,05539.62661,E,1,12,1.01,24.3,M,-47.6,M,,*48
$GNGSA,A,3,24,05,11,15,12,29,25,41,,,,,1.65,1.01,1.30*11
$GNGSA,A,3,79,80,83,84,73,,,,,,,,1.65,1.01,1.30*19
$GPGSV,5,1,17,05,63,095,35,11,10,024,12,12,45,011,38,13,17,143,14*7B
$GPGSV,5,2,17,15,30,176,27,18,30,246,17,20,37,050,16,22,10,128,*78
$GPGSV,5,3,17,23,12,208,18,24,55,214,26,25,22,340,24,29,09,314,20*7D
$GPGSV,5,4,17,36,52,277,,40,86,351,,41,58,082,35,49,32,274,*7A
$GPGSV,5,5,17,50,10,089,*4A
$GLGSV,3,1,09,68,15,105,,69,22,156,,70,00,213,,73,29,340,26*66
$GLGSV,3,2,09,79,33,146,25,80,79,055,38,83,20,350,25,84,31,291,08*6E
$GLGSV,3,3,09,85,10,242,*54
$GNGLL,0419.87570,S,05539.62661,E,050640.00,A,A*63
$GNGRS,050640.00,1,-7.8,-4.5,9.7,12.1,-0.3,-3.6,-1.9,-43.6,,,,*5A
$GNGRS,050640.00,1,8.6,0.1,6.7,63.9,-2.3,,,,,,,*67
$GNGST,050640.00,1184,,,,2.5,5.8,6.4*4A
$GNZDA,050640.00,28,05,2025,00,00*75
$GNGBS,050640.00,2.5,5.8,6.4,,,,*50
$GNTXT,01,01,01,More than 100 frame errors, UART RX was disabled*70
b0L8!#?_7
\&-%2V
7STB
:){4V_#:R 
Y
jDiEFIT$O!P&O7S_+T#U
b8!U
.$GNRMC,050641.00,A,0419.87574,S,05539.62665,E,0.223,,280525,,,A*70
$GNVTG,,T,,M,0.223,N,0.413,K,A*38
$GNGNS,050641.00,0419.87574,S,05539.62665,E,AA,13,0.89,24.1,-47.6,,*61
$GNGGA,050641.00,0419.87574,S,05539.62665,E,1,12,0.89,24.1,M,-47.6,M,,*4A
$GNGSA,A,3,24,05,11,15,12,29,25,41,,,,,1.57,0.89,1.29*19
$GNGSA,A,3,79,80,83,84,73,,,,,,,,1.57,0.89,1.29*11
$GPGSV,5,1,17,05,63,095,35,11,10,024,11,12,45,011,38,13,17,143,13*7F
$GPGSV,5,2,17,15,30,176,27,18,30,246,17,20,37,050,16,22,10,128,*78
