$GNTXT,01,01,01,More than 100 frame errors, UART RX was disabled*70
b0@p?e0+'4~
8T8mQ{4!V_:R 
Y
iDmE
IUO$ePL*S\BT U
dbpU
$($GNRMC,050036.00,A,0419.86509,S,05539.62964,E,0.059,,280525,,,A*7C
$GNVTG,,T,,M,0.059,N,0.109,K,A*39
$GNGNS,050036.00,0419.86509,S,05539.62964,E,AA,11,0.98,24.0,-47.6,,*61
$GNGGA,050036.00,0419.86509,S,05539.62964,E,1,11,0.98,24.0,M,-47.6,M,,*4B
$GNGSA,A,3,24,05,20,15,12,18,25,,,,,,2.04,0.98,1.79*1C
$GNGSA,A,3,79,80,83,73,,,,,,,,,2.04,0.98,1.79*1D
$GPGSV,5,1,17,05,63,101,25,11,12,023,16,12,43,009,30,13,17,145,16*74
$GPGSV,5,2,17,15,29,179,22,18,29,243,17,20,39,052,28,22,11,126,*79
$GPGSV,5,3,17,23,10,209,16,24,56,219,27,25,19,340,21,29,09,312,18*7F
$GPGSV,5,4,17,36,52,277,,40,86,351,33,41,58,082,31,49,32,274,*7E
$GPGSV,5,5,17,50,10,089,*4A
$GLGSV,2,1,08,68,15,109,,69,21,159,,73,26,341,22,79,36,144,26*65
$GLGSV,2,2,08,80,76,042,31,83,21,348,12,84,32,287,,85,10,240,*6E
$GNGLL,0419.86509,S,05539.62964,E,050036.00,A,A*61
$GNGRS,050036.00,1,7.7,-7.2,0.0,-10.9,-5.6,7.7,-21.3,,,,,*70
$GNGRS,050036.00,1,6.1,0.1,-4.5,-1.2,,,,,,,,*54
$GNGST,050036.00,94803,,,,3.5,4.9,7.7*74
$GNZDA,050036.00,28,05,2025,00,00*72
$GNGBS,050036.00,3.5,4.9,7.7,,,,*54
$GNTXT,01,01,01,More than 100 frame errors, UART RX was disabled*70
b0@X?e++p'4C~
8T8P{4$V_:R 
Y
iDmE
IUO$PL*
S\^T U
abXU
(3$GNRMC,050037.00,A,0419.86508,S,05539.62969,E,0.253,,280525,,,A*79
$GNVTG,,T,,M,0.253,N,0.468,K,A*33
$GNGNS,050037.00,0419.86508,S,05539.62969,E,AA,12,0.92,24.0,-47.6,,*65
$GNGGA,050037.00,0419.86508,S,05539.62969,E,1,12,0.92,24.0,M,-47.6,M,,*4F
$GNGSA,A,3,24,05,20,11,15,12,18,25,,,,,1.74,0.92,1.48*10
$GNGSA,A,3,79,80,83,73,,,,,,,,,1.74,0.92,1.48*11
$GPGSV,5,1,17,05,63,101,25,11,12,023,14,12,43,009,24,13,17,145,16*73
$GPGSV,5,2,17,15,29,179,20,18,29,243,16,20,39,052,26,22,11,126,*74
$GPGSV,5,3,17,23,10,209,14,24,56,219,27,25,19,340,19,29,09,312,14*7A
$GPGSV,5,4,17,36,52,277,,40,86,351,36,41,58,082,31,49,32,274,*7B
$GPGSV,5,5,17,50,10,089,*4A
$GLGSV,2,1,08,68,15,109,,69,21,159,,73,26,341,19,79,36,144,25*6E
$GLGSV,2,2,08,80,76,042,30,83,21,348,09,84,32,287,,85,10,240,*65
$GNGLL,0419.86508,S,05539.62969,E,050037.00,A,A*6C
$GNGRS,050037.00,1,5.0,-8.1,3.2,-4.7,-11.4,-9.1,5.2,-20.3,,,,*78
$GNGRS,050037.00,1,4.9,0.1,0.9,-1.1,,,,,,,,*79
$GNGST,050037.00,52,,,,3.5,5.0,7.8*43
$GNZDA,050037.00,28,05,2025,00,00*73
$GNGBS,050037.00,3.5,5.0,7.8,,,,*52
$GNTXT,01,01,01,More than 100 frame errors, UART RX was disabled*70
b0@@?e+47t'4-~
8Tj8{4'V_#:R 
Y
iDmE
IUO $^P'L*S\T U
hb@U
(y$GNRMC,050038.00,A,0419.86517,S,05539.62981,E,0.220,,280525,,,A*7A
$GNVTG,,T,,M,0.220,N,0.408,K,A*31
$GNGNS,050038.00,0419.86517,S,05539.62981,E,AA,12,0.92,23.8,-47.6,,*6D
$GNGGA,050038.00,0419.86517,S,05539.62981,E,1,12,0.92,23.8,M,-47.6,M,,*47
$GNGSA,A,3,24,05,20,11,15,12,18,25,,,,,1.74,0.92,1.48*10
$GNGSA,A,3,79,80,83,73,,,,,,,,,1.74,0.92,1.48*11
$GPGSV,5,1,17,05,63,101,26,11,12,023,13,12,43,009,30,13,17,145,16*72
$GPGSV,5,2,17,15,29,179,19,18,29,243,17,20,39,052,26,22,11,126,*7F
$GPGSV,5,3,17,23,10,209,11,24,56,219,26,25,19,340,17,29,09,312,*75
$GPGSV,5,4,17,36,52,277,,40,86,351,39,41,58,082,35,49,32,274,*70
$GPGSV,5,5,17,50,10,089,*4A
$GLGSV,2,1,08,68,15,109,,69,21,159,,73,26,341,16,79,36,144,32*67
$GLGSV,2,2,08,80,76,042,39,83,21,348,15,84,32,287,,85,10,240,*61
$GNGLL,0419.86517,S,05539.62981,E,050038.00,A,A*6B
$GNGRS,050038.00,1,4.3,-2.5,8.1,-5.9,-12.3,-9.7,3.7,-22.0,,,,*7C
$GNGRS,050038.00,1,8.6,0.1,9.5,0.2,,,,,,,,*5F
$GNGST,050038.00,113533,,,,3.5,5.1,7.8*4C
$GNZDA,050038.00,28,05,2025,00,00*7C
$GNGBS,050038.00,3.5,5.1,7.8,,,,*5C
$GNTXT,01,01,01,More than 100 frame errors, UART RX was disabled*70
b0@(?e5(+B]'4`~
8T48{4)V_#:R 
Y
iDmE
IUO$P)L* S\T U
b(U
(Q$GNRMC,050039.00,A,0419.86521,S,05539.62979,E,0.062,,280525,,,A*7D
$GNVTG,,T,,M,0.062,N,0.115,K,A*3C
$GNGNS,050039.00,0419.86521,S,05539.62979,E,AA,12,0.92,23.7,-47.6,,*61
$GNGGA,050039.00,0419.86521,S,05539.62979,E,1,12,0.92,23.7,M,-47.6,M,,*4B
$GNGSA,A,3,24,05,20,11,15,12,18,25,,,,,1.74,0.92,1.48*10
$GNGSA,A,3,79,80,83,73,,,,,,,,,1.74,0.92,1.48*11
$GPGSV,5,1,17,05,63,101,28,11,12,023,14,12,43,009,31,13,17,145,18*74
$GPGSV,5,2,17,15,29,179,19,18,29,243,18,20,39,052,27,22,11,126,*71
$GPGSV,5,3,17,23,10,209,14,24,56,219,26,25,19,340,15,29,09,312,*72
$GPGSV,5,4,17,36,52,277,,40,86,351,41,41,58,082,35,49,32,274,*7F
$GPGSV,5,5,17,50,10,089,*4A
$GLGSV,2,1,08,68,15,109,,69,21,159,,73,26,341,19,79,36,144,31*6B
$GLGSV,2,2,08,80,76,042,41,83,21,348,19,84,32,287,,85,10,240,*62
$GNGLL,0419.86521,S,05539.62979,E,050039.00,A,A*68
$GNGRS,050039.00,1,7.0,-9.7,3.5,-7.3,-11.9,-9.6,4.5,-22.5,,,,*7B
$GNGRS,050039.00,1,2.9,0.3,9.5,0.2,,,,,,,,*59
$GNGST,050039.00,54,,,,3.5,5.1,7.8*4A
$GNZDA,050039.00,28,05,2025,00,00*7D
$GNGBS,050039.00,3.5,5.1,7.8,,,,*5D
$GNTXT,01,01,01,More than 100 frame errors, UART RX was disabled*70
b0@?e|+'4~
8T38{4(V_#:R 
Y
iDmE
IUO $+P*L*S\ T U
ebU
()h$GNRMC,050040.00,A,0419.86524,S,05539.62977,E,0.022,,280525,,,A*7C
$GNVTG,,T,,M,0.022,N,0.041,K,A*38
$GNGNS,050040.00,0419.86524,S,05539.62977,E,AA,12,0.92,23.4,-47.6,,*67
$GNGGA,050040.00,0419.86524,S,05539.62977,E,1,12,0.92,23.4,M,-47.6,M,,*4D
$GNGSA,A,3,24,05,20,11,15,12,18,25,,,,,1.74,0.92,1.48*10
$GNGSA,A,3,79,80,83,73,,,,,,,,,1.74,0.92,1.48*11
$GPGSV,5,1,17,05,63,101,29,11,12,023,14,12,43,009,30,13,17,145,19*75
$GPGSV,5,2,17,15,29,179,19,18,29,243,20,20,39,052,27,22,11,126,*7A
$GPGSV,5,3,17,23,10,209,15,24,56,219,25,25,19,340,14,29,09,312,*71
$GPGSV,5,4,17,36,52,277,,40,86,351,40,41,58,082,35,49,32,274,*7E
$GPGSV,5,5,17,50,10,089,*4A
$GLGSV,2,1,08,68,15,109,,69,21,159,,73,26,341,20,79,36,144,32*62
$GLGSV,2,2,08,80,76,042,42,83,21,348,22,84,32,287,,85,10,240,*69
$GNGLL,0419.86524,S,05539.62977,E,050040.00,A,A*6D
$GNGRS,050040.00,1,7.4,-3.5,7.8,-6.4,-10.5,-5.3,7.0,-22.5,,,,*74
$GNGRS,050040.00,1,3.0,0.1,8.0,0.2,,,,,,,,*59
$GNGST,050040.00,52,,,,3.4,5.1,7.7*4C
$GNZDA,050040.00,28,05,2025,00,00*73
$GNGBS,050040.00,3.4,5.1,7.7,,,,*5D
$GNTXT,01,01,01,More than 100 frame errors, UART RX was disabled*70
b0@?e+O'4A~
8GT8{4&V_#:R 
Y
iDmE
IUgO$BP'L*S\BT U
gbU
)$GNRMC,050041.00,A,0419.86525,S,05539.62966,E,0.161,,280525,,,A*7A
$GNVTG,,T,,M,0.161,N,0.299,K,A*39
$GNGNS,050041.00,0419.86525,S,05539.62966,E,AA,12,0.92,23.1,-47.6,,*62
$GNGGA,050041.00,0419.86525,S,05539.62966,E,1,12,0.92,23.1,M,-47.6,M,,*48
$GNGSA,A,3,24,05,20,11,15,12,18,25,,,,,1.74,0.92,1.48*10
$GNGSA,A,3,79,80,83,73,,,,,,,,,1.74,0.92,1.48*11
$GPGSV,5,1,17,05,63,101,28,11,12,023,13,12,43,009,30,13,17,145,18*72
$GPGSV,5,2,17,15,29,179,21,18,29,243,20,20,39,052,28,22,11,126,*7E
$GPGSV,5,3,17,23,10,209,13,24,56,219,25,25,19,340,13,29,09,312,*70
$GPGSV,5,4,17,36,52,277,,40,86,351,38,41,58,082,35,49,32,274,*71
$GPGSV,5,5,17,50,10,089,*4A
$GLGSV,2,1,08,68,15,109,,69,21,159,,73,26,341,22,79,36,144,31*63
$GLGSV,2,2,08,80,76,042,39,83,21,348,22,84,32,287,,85,10,240,*65
$GNGLL,0419.86525,S,05539.62966,E,050041.00,A,A*6D
$GNGRS,050041.00,1,5.8,-5.4,0.7,-3.8,-12.0,-3.7,7.5,-23.9,,,,*70
$GNGRS,050041.00,1,3.2,0.0,8.3,-1.5,,,,,,,,*73
$GNGST,050041.00,51,,,,3.4,5.1,7.7*4E
$GNZDA,050041.00,28,05,2025,00,00*72
$GNGBS,050041.00,3.4,5.1,7.7,,,,*5C
$GNTXT,01,01,01,More than 100 frame errors, UART RX was disabled*70
b0@?e+D'4~
8T8{4'V_&:R 
Y
iDmE
IURO"$P&L*S\PT U
'bU
)+$GNRMC,050042.00,A,0419.86533,S,05539.62969,E,0.073,,280525,,,A*73
$GNVTG,,T,,M,0.073,N,0.136,K,A*3D
$GNGNS,050042.00,0419.86533,S,05539.62969,E,AA,12,0.92,23.1,-47.6,,*69
$GNGGA,050042.00,0419.86533,S,05539.62969,E,1,12,0.92,23.1,M,-47.6,M,,*43
$GNGSA,A,3,24,05,20,11,15,12,18,25,,,,,1.74,0.92,1.48*10
$GNGSA,A,3,79,80,83,73,,,,,,,,,1.74,0.92,1.48*11
$GPGSV,5,1,17,05,63,101,26,11,12,023,13,12,43,009,30,13,17,145,18*7C
$GPGSV,5,2,17,15,29,179,21,18,29,243,20,20,39,052,29,22,11,126,*7F
$GPGSV,5,3,17,23,10,209,15,24,56,219,27,25,19,340,18,29,09,312,*7F
$GPGSV,5,4,17,36,52,277,,40,86,351,39,41,58,082,38,49,32,274,*7D
$GPGSV,5,5,17,50,10,089,*4A
$GLGSV,2,1,08,68,15,109,,69,21,159,,73,26,341,20,79,36,144,34*64
$GLGSV,2,2,08,80,76,042,38,83,21,348,21,84,32,287,,85,10,240,*67
$GNGLL,0419.86533,S,05539.62969,E,050042.00,A,A*66
$GNGRS,050042.00,1,5.1,-0.8,-2.4,-5.9,-13.6,-3.2,5.8,-24.3,,,,*58
$GNGRS,050042.00,1,4.4,-0.2,8.5,-1.7,,,,,,,,*5A
$GNGST,050042.00,49,,,,3.4,5.1,7.7*44
$GNZDA,050042.00,28,05,2025,00,00*71
$GNGBS,050042.00,3.4,5.1,7.7,,,,*5F
$GNTXT,01,01,01,More than 100 frame errors, UART RX was disabled*70
b0@?e<+
`'4u~
8T8m{4#V_ :R 
Y
iDmE
IULO$fP#L*S\T U
,AbU
|)$GNRMC,050043.00,A,0419.86535,S,05539.62964,E,0.192,,280525,,,A*77
$GNVTG,,T,,M,0.192,N,0.356,K,A*37
$GNGNS,050043.00,0419.86535,S,05539.62964,E,AA,12,0.92,23.0,-47.6,,*62
$GNGGA,050043.00,0419.86535,S,05539.62964,E,1,12,0.92,23.0,M,-47.6,M,,*48
$GNGSA,A,3,24,05,20,11,15,12,18,25,,,,,1.74,0.92,1.47*1F
$GNGSA,A,3,79,80,83,73,,,,,,,,,1.74,0.92,1.47*1E
$GPGSV,5,1,17,05,63,101,25,11,12,023,16,12,43,010,28,13,17,145,17*74
$GPGSV,5,2,17,15,29,179,18,18,29,243,18,20,39,052,29,22,11,126,*7E
$GPGSV,5,3,17,23,10,209,16,24,56,219,29,25,19,340,20,29,09,312,21*7A
$GPGSV,5,4,17,36,52,277,,40,86,351,35,41,58,082,32,49,32,274,*7B
$GPGSV,5,5,17,50,10,089,*4A
$GLGSV,2,1,08,68,15,109,,69,21,159,,73,26,341,18,79,36,144,28*62
$GLGSV,2,2,08,80,76,042,35,83,21,348,19,84,32,287,,85,10,240,*61
$GNGLL,0419.86535,S,05539.62964,E,050043.00,A,A*6C
$GNGRS,050043.00,1,-0.9,9.8,-1.4,-7.1,-13.4,-6.7,7.8,-24.1,,,,*56
$GNGRS,050043.00,1,1.0,-0.5,7.9,-1.8,,,,,,,,*51
$GNGST,050043.00,48,,,,3.4,5.1,7.8*4B
$GNZDA,050043.00,28,05,2025,00,00*70
$GNGBS,050043.00,3.4,5.1,7.8,,,,*51
$GNTXT,01,01,01,More than 100 frame errors, UART RX was disabled*70
b0@?ep+
p7'4~
8<T}8%
{4'V_$:R 
Y
iDmE
IUsO$P&L*S\T U
~bU
d)$GNRMC,050044.00,A,0419.86533,S,05539.62963,E,0.121,,280525,,,A*79
$GNVTG,,T,,M,0.121,N,0.225,K,A*3A
$GNGNS,050044.00,0419.86533,S,05539.62963,E,AA,12,0.92,22.9,-47.6,,*6C
$GNGGA,050044.00,0419.86533,S,05539.62963,E,1,12,0.92,22.9,M,-47.6,M,,*46
$GNGSA,A,3,24,05,20,11,15,12,18,25,,,,,1.74,0.92,1.47*1F
$GNGSA,A,3,79,80,83,73,,,,,,,,,1.74,0.92,1.47*1E
$GPGSV,5,1,17,05,63,101,22,11,12,023,14,12,43,010,28,13,17,145,14*72
$GPGSV,5,2,17,15,29,179,17,18,29,243,16,20,39,052,29,22,11,126,*7F
$GPGSV,5,3,17,23,10,209,12,24,56,219,26,25,19,340,20,29,09,312,20*70
$GPGSV,5,4,17,36,52,277,,40,86,351,39,41,58,082,36,49,32,274,*73
$GPGSV,5,5,17,50,10,089,*4A
$GLGSV,2,1,08,68,15,109,,69,21,159,,73,26,341,17,79,36,144,29*6C
$GLGSV,2,2,08,80,76,042,38,83,21,348,17,84,32,287,,85,10,240,*62
$GNGLL,0419.86533,S,05539.62963,E,050044.00,A,A*6A
$GNGRS,050044.00,1,-4.5,8.8,-3.2,-8.6,-14.8,-4.0,7.4,-24.3,,,,*54
$GNGRS,050044.00,1,-0.1,-0.6,7.8,1.1,,,,,,,,*5D
$GNGST,050044.00,51,,,,3.4,5.2,7.8*47
$GNZDA,050044.00,28,05,2025,00,00*77
$GNGBS,050044.00,3.4,5.2,7.8,,,,*55
$GNTXT,01,01,01,More than 100 frame errors, UART RX was disabled*70
b0@?e@+
b'4b~
8T8X
{4%V_ :R 
Y
iDmE
IUO$MP$L*S\dT U
zbU
L)ac$GNRMC,050045.00,A,0419.86546,S,05539.62996,E,2.296,94.65,280525,,,A*5D
$GNVTG,94.65,T,,M,2.296,N,4.252,K,A*13
$GNGNS,050045.00,0419.86546,S,05539.62996,E,AA,12,0.92,22.3,-47.6,,*6F
$GNGGA,050045.00,0419.86546,S,05539.62996,E,1,12,0.92,22.3,M,-47.6,M,,*45
$GNGSA,A,3,24,05,20,11,15,12,18,25,,,,,1.74,0.92,1.47*1F
$GNGSA,A,3,79,80,83,73,,,,,,,,,1.74,0.92,1.47*1E
$GPGSV,5,1,17,05,63,101,20,11,12,023,13,12,43,010,27,13,17,145,*7D
$GPGSV,5,2,17,15,29,179,15,18,29,243,17,20,39,052,29,22,11,126,*7C
$GPGSV,5,3,17,23,10,209,,24,56,219,25,25,19,340,20,29,09,312,18*7B
$GPGSV,5,4,17,36,52,277,,40,86,351,37,41,58,082,32,49,32,274,*79
$GPGSV,5,5,17,50,10,089,*4A
$GLGSV,2,1,08,68,15,109,,69,21,159,,73,26,341,18,79,36,144,28*62
$GLGSV,2,2,08,80,76,042,36,83,21,348,18,84,32,287,,85,10,240,*63
$GNGLL,0419.86546,S,05539.62996,E,050045.00,A,A*63
$GNGRS,050045.00,1,-3.8,5.8,-6.7,-10.2,-14.0,-6.7,9.0,-23.3,,,,*6F
$GNGRS,050045.00,1,-1.8,-0.7,6.1,1.4,,,,,,,,*58
$GNGST,050045.00,52,,,,3.4,5.3,7.9*45
$GNZDA,050045.00,28,05,2025,00,00*76
$GNGBS,050045.00,3.4,5.3,7.9,,,,*54
$GNTXT,01,01,01,More than 100 frame errors, UART RX was disabled*70
b0@?et+
I'4~
8iTf8p{4#V_ :R 
Y
iDmE
IUO$P"L*S\oT U
6bU
4)9$GNRMC,050046.00,A,0419.86543,S,05539.62991,E,0.236,,280525,,,A*74
$GNVTG,,T,,M,0.236,N,0.438,K,A*35
$GNGNS,050046.00,0419.86543,S,05539.62991,E,AA,13,0.87,22.2,-47.6,,*6A
$GNGGA,050046.00,0419.86543,S,05539.62991,E,1,12,0.87,22.2,M,-47.6,M,,*41
$GNGSA,A,3,24,05,20,11,15,12,18,29,25,,,,1.65,0.87,1.40*17
$GNGSA,A,3,79,80,83,73,,,,,,,,,1.65,0.87,1.40*1D
$GPGSV,5,1,17,05,63,101,22,11,12,023,15,12,43,010,27,13,17,145,*79
$GPGSV,5,2,17,15,29,179,18,18,29,243,17,20,39,052,29,22,11,126,*71
$GPGSV,5,3,17,23,10,209,,24,56,219,24,25,19,340,21,29,09,312,16*75
$GPGSV,5,4,17,36,52,277,,40,86,351,35,41,58,082,32,49,32,274,*7B
$GPGSV,5,5,17,50,10,089,*4A
$GLGSV,2,1,08,68,15,109,,69,21,159,,73,26,341,18,79,36,144,29*63
$GLGSV,2,2,08,80,76,042,34,83,21,348,17,84,32,287,,85,10,240,*6E
$GNGLL,0419.86543,S,05539.62991,E,050046.00,A,A*62
$GNGRS,050046.00,1,1.0,3.7,-0.2,-13.6,-14.6,-4.9,9.4,21.6,-22.0,,,*51
$GNGRS,050046.00,1,-0.4,-0.7,3.7,2.8,,,,,,,,*5A
$GNGST,050046.00,48,,,,3.5,5.4,8.0*4D
$GNZDA,050046.00,28,05,2025,00,00*75
$GNGBS,050046.00,3.5,5.4,8.0,,,,*57
$GNTXT,01,01,01,More than 100 frame errors, UART RX was disabled*70
b0@h?e+
M'4~
8DTV8
{4"V_ :R 
Y
iDmE
IUbO$P!L*S\T U
Z#bhU
)3$GNRMC,050047.00,A,0419.86561,S,05539.62969,E,0.845,,280525,,,A*7C
$GNVTG,,T,,M,0.845,N,1.566,K,A*30
$GNGNS,050047.00,0419.86561,S,05539.62969,E,AA,13,0.87,21.7,-47.6,,*6A
$GNGGA,050047.00,0419.86561,S,05539.62969,E,1,12,0.87,21.7,M,-47.6,M,,*41
$GNGSA,A,3,24,05,20,11,15,12,18,29,25,,,,1.65,0.87,1.40*17
$GNGSA,A,3,79,80,83,73,,,,,,,,,1.65,0.87,1.40*1D
$GPGSV,5,1,17,05,63,101,22,11,12,023,16,12,43,010,26,13,17,145,*7B
$GPGSV,5,2,17,15,29,179,18,18,29,243,16,20,39,052,28,22,11,126,*71
$GPGSV,5,3,17,23,10,209,,24,56,219,21,25,19,340,20,29,09,312,16*71
$GPGSV,5,4,17,36,52,277,,40,86,351,34,41,58,082,32,49,32,274,*7A
$GPGSV,5,5,17,50,10,089,*4A
$GLGSV,2,1,08,68,15,109,,69,21,159,,73,26,341,18,79,36,144,27*6D
$GLGSV,2,2,08,80,76,042,33,83,21,348,17,84,32,287,,85,10,240,*69
$GNGLL,0419.86561,S,05539.62969,E,050047.00,A,A*64
$GNGRS,050047.00,1,-4.4,2.7,-3.0,-13.1,-10.3,-4.3,6.8,27.2,-22.2,,,*73
$GNGRS,050047.00,1,2.6,-0.8,4.5,-1.6,,,,,,,,*5C
$GNGST,050047.00,51,,,,3.5,5.5,8.1*44
$GNZDA,050047.00,28,05,2025,00,00*74
$GNGBS,050047.00,3.5,5.5,8.1,,,,*56
$GNTXT,01,01,01,More than 100 frame errors, UART RX was disabled*70
b0@P?ep+
M'4~
8T8{4"V_!:R 
Y
iDmE
IUO$P!L*S\T U
}obPU
)$GNRMC,050048.00,A,0419.86574,S,05539.62960,E,0.564,,280525,,,A*70
$GNVTG,,T,,M,0.564,N,1.045,K,A*3A
$GNGNS,050048.00,0419.86574,S,05539.62960,E,AA,13,0.87,21.8,-47.6,,*67
$GNGGA,050048.00,0419.86574,S,05539.62960,E,1,12,0.87,21.8,M,-47.6,M,,*4C
$GNGSA,A,3,24,05,20,11,15,12,18,29,25,,,,1.65,0.87,1.40*17
$GNGSA,A,3,79,80,83,73,,,,,,,,,1.65,0.87,1.40*1D
$GPGSV,5,1,17,05,63,101,21,11,12,023,16,12,43,010,24,13,17,145,*7A
$GPGSV,5,2,17,15,29,179,20,18,29,243,15,20,39,052,28,22,11,126,*79
$GPGSV,5,3,17,23,10,209,,24,56,219,21,25,19,340,19,29,09,312,16*7B
$GPGSV,5,4,17,36,52,277,,40,86,351,34,41,58,082,33,49,32,274,*7B
$GPGSV,5,5,17,50,10,089,*4A
$GLGSV,2,1,08,68,15,109,,69,21,159,,73,26,341,18,79,36,144,27*6D
$GLGSV,2,2,08,80,76,042,33,83,21,348,16,84,32,287,,85,10,240,*68
$GNGLL,0419.86574,S,05539.62960,E,050048.00,A,A*66
$GNGRS,050048.00,1,-3.6,4.7,-8.8,-14.2,-12.9,-3.3,5.9,20.4,-21.5,,,*70
$GNGRS,050048.00,1,4.8,-0.9,4.6,-1.0,,,,,,,,*5F
$GNGST,050048.00,49,,,,3.6,5.6,8.1*42
$GNZDA,050048.00,28,05,2025,00,00*7B
$GNGBS,050048.00,3.6,5.6,8.1,,,,*59
$GNTXT,01,01,01,More than 100 frame errors, UART RX was disabled*70
b0@8?e+
7''4~
8T8S{4V_ :R 
Y
iDmE
IUO$P!L*S\T U
b8U
 )$GNRMC,050049.00,A,0419.86577,S,05539.62953,E,0.204,,280525,,,A*73
$GNVTG,,T,,M,0.204,N,0.378,K,A*37
$GNGNS,050049.00,0419.86577,S,05539.62953,E,AA,13,0.87,21.8,-47.6,,*65
$GNGGA,050049.00,0419.86577,S,05539.62953,E,1,12,0.87,21.8,M,-47.6,M,,*4E
$GNGSA,A,3,24,05,20,11,15,12,18,29,25,,,,1.65,0.87,1.40*17
$GNGSA,A,3,79,80,83,73,,,,,,,,,1.65,0.87,1.40*1D
$GPGSV,5,1,17,05,63,101,20,11,12,023,16,12,43,010,23,13,17,145,*7C
$GPGSV,5,2,17,15,29,179,20,18,29,243,16,20,39,052,28,22,11,126,*7A
$GPGSV,5,3,17,23,10,209,,24,56,219,21,25,19,340,18,29,09,312,16*7A
$GPGSV,5,4,17,36,52,277,,40,86,351,31,41,58,082,32,49,32,274,*7F
$GPGSV,5,5,17,50,10,089,*4A
$GLGSV,2,1,08,68,15,109,,69,21,159,,73,26,341,19,79,36,144,28*63
$GLGSV,2,2,08,80,76,042,33,83,21,348,17,84,32,287,,85,10,240,*69
$GNGLL,0419.86577,S,05539.62953,E,050049.00,A,A*64
$GNGRS,050049.00,1,-6.2,5.1,-6.1,-15.4,-12.2,-0.9,5.5,16.2,-21.6,,,*79
$GNGRS,050049.00,1,2.8,-0.8,4.8,-0.3,,,,,,,,*55
$GNGST,050049.00,50,,,,3.6,5.7,8.2*49
$GNZDA,050049.00,28,05,2025,00,00*7A
$GNGBS,050049.00,3.6,5.7,8.2,,,,*5A
$GNTXT,01,01,01,More than 100 frame errors, UART RX was disabled*70
b0@ ?e+
;'4~
8T8{4#V_":R 
Y
iDmE
IUO!$P&L*S\DT U
b U
$)h$GNRMC,050050.00,A,0419.86578,S,05539.62943,E,0.243,,280525,,,A*76
$GNVTG,,T,,M,0.243,N,0.450,K,A*39
$GNGNS,050050.00,0419.86578,S,05539.62943,E,AA,13,0.87,21.5,-47.6,,*6E
$GNGGA,050050.00,0419.86578,S,05539.62943,E,1,12,0.87,21.5,M,-47.6,M,,*45
$GNGSA,A,3,24,05,20,11,15,12,18,29,25,,,,1.65,0.87,1.40*17
$GNGSA,A,3,79,80,83,73,,,,,,,,,1.65,0.87,1.40*1D
$GPGSV,5,1,17,05,63,101,22,11,12,023,18,12,43,010,25,13,17,145,*76
$GPGSV,5,2,17,15,29,179,21,18,29,243,16,20,39,052,29,22,11,126,*7A
$GPGSV,5,3,17,23,10,209,,24,56,219,20,25,19,340,19,29,09,312,15*79
$GPGSV,5,4,17,36,52,277,,40,86,351,35,41,58,082,34,49,32,274,*7D
$GPGSV,5,5,17,50,10,089,*4A
$GLGSV,2,1,08,68,15,109,,69,21,159,,73,26,341,18,79,36,144,33*68
$GLGSV,2,2,08,80,76,042,38,83,21,348,16,84,32,287,,85,10,240,*63
$GNGLL,0419.86578,S,05539.62943,E,050050.00,A,A*62
$GNGRS,050050.00,1,-6.4,5.0,-3.6,-13.1,-13.2,-2.5,5.7,17.1,-23.5,,,*79
$GNGRS,050050.00,1,2.2,-1.0,3.2,-0.2,,,,,,,,*52
$GNGST,050050.00,51,,,,3.6,5.8,8.2*4F
$GNZDA,050050.00,28,05,2025,00,00*72
$GNGBS,050050.00,3.6,5.8,8.2,,,,*5D
$GNTXT,01,01,01,More than 100 frame errors, UART RX was disabled*70
b0@?e+
2'4w~
8T8{4 V_:R 
Y
iDmE
IURO$P!L*S\ZT U
v-bU
()p$GNRMC,050051.00,A,0419.86577,S,05539.62950,E,0.200,,280525,,,A*7D
$GNVTG,,T,,M,0.200,N,0.371,K,A*3A
$GNGNS,050051.00,0419.86577,S,05539.62950,E,AA,13,0.87,21.6,-47.6,,*61
$GNGGA,050051.00,0419.86577,S,05539.62950,E,1,12,0.87,21.6,M,-47.6,M,,*4A
$GNGSA,A,3,24,05,20,11,15,12,18,29,25,,,,1.65,0.87,1.40*17
$GNGSA,A,3,79,80,83,73,,,,,,,,,1.65,0.87,1.40*1D
$GPGSV,5,1,17,05,63,101,23,11,12,023,18,12,43,010,25,13,17,145,*77
$GPGSV,5,2,17,15,29,179,20,18,29,243,16,20,39,052,29,22,11,126,*7B
$GPGSV,5,3,17,23,10,209,,24,56,219,20,25,19,340,17,29,09,312,15*77
$GPGSV,5,4,17,36,52,277,,40,86,351,32,41,58,082,31,49,32,274,*7F
$GPGSV,5,5,17,50,10,089,*4A
$GLGSV,2,1,08,68,15,109,,69,21,159,,73,26,341,18,79,36,144,29*63
$GLGSV,2,2,08,80,76,042,33,83,21,348,18,84,32,287,,85,10,240,*66
$GNGLL,0419.86577,S,05539.62950,E,050051.00,A,A*6E
$GNGRS,050051.00,1,-8.4,2.6,-3.9,-10.1,-13.5,-2.1,1.5,15.0,-22.9,,,*70
$GNGRS,050051.00,1,2.8,-0.9,6.0,0.8,,,,,,,,*71
$GNGST,050051.00,48,,,,3.6,5.9,8.2*47
$GNZDA,050051.00,28,05,2025,00,00*73
$GNGBS,050051.00,3.6,5.9,8.2,,,,*5D
$GNTXT,01,01,01,More than 100 frame errors, UART RX was disabled*70
b0@?e)+
f'4~
8(T8{4"V_#:R 
Y
iDmE
IUcO$VP#L*S\T U
3bU
,)G)$GNRMC,050052.00,A,0419.86583,S,05539.62940,E,0.239,,280525,,,A*7E
$GNVTG,,T,,M,0.239,N,0.442,K,A*37
$GNGNS,050052.00,0419.86583,S,05539.62940,E,AA,13,0.87,21.2,-47.6,,*6C
$GNGGA,050052.00,0419.86583,S,05539.62940,E,1,12,0.87,21.2,M,-47.6,M,,*47
$GNGSA,A,3,24,05,20,11,15,12,18,29,25,,,,1.65,0.87,1.40*17
$GNGSA,A,3,79,80,83,73,,,,,,,,,1.65,0.87,1.40*1D
$GPGSV,5,1,17,05,63,101,25,11,12,023,19,12,43,010,26,13,17,145,*73
$GPGSV,5,2,17,15,29,179,19,18,29,243,16,20,39,052,29,22,11,126,*71
$GPGSV,5,3,17,23,10,209,,24,56,219,20,25,19,340,16,29,09,312,17*74
$GPGSV,5,4,17,36,52,277,,40,86,351,34,41,58,082,35,49,32,274,*7D
$GPGSV,5,5,17,50,10,089,*4A
$GLGSV,2,1,08,68,15,109,,69,21,159,,73,26,341,18,79,36,144,31*6A
$GLGSV,2,2,08,80,76,042,35,83,21,348,18,84,32,287,,85,10,240,*60
$GNGLL,0419.86583,S,05539.62940,E,050052.00,A,A*67
$GNGRS,050052.00,1,-7.3,0.4,-3.4,-13.2,-11.5,-1.5,-1.1,12.1,-23.8,,,*5C
$GNGRS,050052.00,1,3.4,-1.0,4.6,3.6,,,,,,,,*7E
$GNGST,050052.00,46,,,,3.6,5.9,8.3*4B
$GNZDA,050052.00,28,05,2025,00,00*70
$GNGBS,050052.00,3.6,5.9,8.3,,,,*5F
$GNTXT,01,01,01,More than 100 frame errors, UART RX was disabled*70
b0@?e{+
!H'4~
8T8{4!V_":R 
Y
iDmE
IUO$EP#L*S\T U
bU
0)$GNRMC,050053.00,A,0419.86585,S,05539.62936,E,0.379,,280525,,,A*7D
$GNVTG,,T,,M,0.379,N,0.703,K,A*34
$GNGNS,050053.00,0419.86585,S,05539.62936,E,AA,13,0.87,21.5,-47.6,,*6D
$GNGGA,050053.00,0419.86585,S,05539.62936,E,1,12,0.87,21.5,M,-47.6,M,,*46
$GNGSA,A,3,24,05,20,11,15,12,18,29,25,,,,1.65,0.87,1.40*17
$GNGSA,A,3,79,80,83,73,,,,,,,,,1.65,0.87,1.40*1D
$GPGSV,5,1,17,05,63,101,23,11,12,023,19,12,43,010,25,13,17,145,*76
$GPGSV,5,2,17,15,29,179,18,18,29,243,16,20,39,052,28,22,11,126,*71
$GPGSV,5,3,17,23,10,209,,24,56,219,19,25,19,340,16,29,09,312,17*7E
$GPGSV,5,4,17,36,52,277,,40,86,351,33,41,58,082,34,49,32,274,*7B
$GPGSV,5,5,17,50,10,089,*4A
$GLGSV,2,1,08,68,15,109,,69,21,159,,73,26,341,17,79,36,144,26*63
$GLGSV,2,2,08,80,76,042,35,83,21,348,16,84,32,287,,85,10,240,*6E
$GNGLL,0419.86585,S,05539.62936,E,050053.00,A,A*61
$GNGRS,050053.00,1,-7.9,-1.2,0.1,-16.7,-12.1,0.3,-0.8,12.1,-23.3,,,*78
$GNGRS,050053.00,1,0.7,-1.2,4.6,2.8,,,,,,,,*72
$GNGST,050053.00,52,,,,3.6,6.0,8.3*45
$GNZDA,050053.00,28,05,2025,00,00*71
$GNGBS,050053.00,3.6,6.0,8.3,,,,*54
$GNTXT,01,01,01,More than 100 frame errors, UART RX was disabled*70
b0@?eJ+
r5'4~
8T8{4"V_":R 
Y
iDmE
IU(O$P#L*S\T U
bU
t4)$GNRMC,050054.00,A,0419.86587,S,05539.62909,E,0.582,,280525,,,A*76
$GNVTG,,T,,M,0.582,N,1.077,K,A*33
$GNGNS,050054.00,0419.86587,S,05539.62909,E,AA,13,0.86,21.3,-47.6,,*63
$GNGGA,050054.00,0419.86587,S,05539.62909,E,1,12,0.86,21.3,M,-47.6,M,,*48
$GNGSA,A,3,24,05,20,11,15,12,18,29,25,,,,1.64,0.86,1.40*17
$GNGSA,A,3,79,80,83,73,,,,,,,,,1.64,0.86,1.40*1D
$GPGSV,5,1,17,05,63,101,24,11,12,023,18,12,43,010,25,13,17,145,*70
$GPGSV,5,2,17,15,29,179,18,18,29,243,16,20,39,052,28,22,11,126,*71
$GPGSV,5,3,17,23,10,209,,24,56,218,17,25,19,340,15,29,09,312,17*72
$GPGSV,5,4,17,36,52,277,,40,86,351,34,41,58,082,34,49,32,274,*7C
$GPGSV,5,5,17,50,10,089,*4A
$GLGSV,2,1,08,68,15,109,,69,21,159,,73,26,341,16,79,36,144,27*63
$GLGSV,2,2,08,80,76,042,35,83,21,348,17,84,32,287,,85,10,240,*6F
$GNGLL,0419.86587,S,05539.62909,E,050054.00,A,A*68
$GNGRS,050054.00,1,-6.0,-0.4,-0.2,-19.7,-12.3,1.1,-1.3,11.8,-20.3,,,*53
$GNGRS,050054.00,1,4.7,-1.3,4.9,0.4,,,,,,,,*71
$GNGST,050054.00,54,,,,3.7,6.1,8.4*43
$GNZDA,050054.00,28,05,2025,00,00*76
$GNGBS,050054.00,3.7,6.1,8.4,,,,*54
$GNTXT,01,01,01,More than 100 frame errors, UART RX was disabled*70
b0@?e@+
w'4S~
8T8{4%V_":R 
Y
iDmE
IUO$P#L*oS\T U
5bU
\8)a$GNRMC,050055.00,A,0419.86582,S,05539.62878,E,0.802,,280525,,,A*70
$GNVTG,,T,,M,0.802,N,1.486,K,A*3C
$GNGNS,050055.00,0419.86582,S,05539.62878,E,AA,13,0.95,20.5,-47.6,,*65
$GNGGA,050055.00,0419.86582,S,05539.62878,E,1,12,0.95,20.5,M,-47.6,M,,*4E
$GNGSA,A,3,24,05,20,11,15,12,18,29,25,,,,1.88,0.95,1.62*17
$GNGSA,A,3,79,80,83,73,,,,,,,,,1.88,0.95,1.62*1D
$GPGSV,5,1,17,05,63,101,25,11,12,023,17,12,43,010,25,13,17,145,*7E
$GPGSV,5,2,17,15,29,179,18,18,29,243,16,20,39,052,27,22,11,126,*7E
$GPGSV,5,3,17,23,10,209,,24,56,218,13,25,20,340,15,29,09,312,18*73
$GPGSV,5,4,17,36,52,277,,40,86,351,37,41,58,082,34,49,32,274,*7F
$GPGSV,5,5,17,50,10,089,*4A
$GLGSV,2,1,08,68,15,109,,69,21,159,,73,26,341,17,79,36,144,27*62
$GLGSV,2,2,08,80,76,042,35,83,21,348,19,84,32,287,,85,10,240,*61
$GNGLL,0419.86582,S,05539.62878,E,050055.00,A,A*6B
$GNGRS,050055.00,1,-3.5,0.6,3.4,-20.5,-14.2,-0.3,-2.4,10.4,-18.3,,,*76
$GNGRS,050055.00,1,4.9,-1.5,4.9,-1.3,,,,,,,,*53
$GNGST,050055.00,53,,,,3.7,6.1,8.4*45
$GNZDA,050055.00,28,05,2025,00,00*77
$GNGBS,050055.00,3.7,6.1,8.4,,,,*55
$GNTXT,01,01,01,More than 100 frame errors, UART RX was disabled*70
b0@?e+
'4%~
8TT8{4%V_#:R 
Y
iDmE
IUO$P%L*S\T U
lbU
D<)$GNRMC,050056.00,A,0419.86577,S,05539.62893,E,0.096,,280525,,,A*79
$GNVTG,,T,,M,0.096,N,0.178,K,A*3C
$GNGNS,050056.00,0419.86577,S,05539.62893,E,AA,13,0.96,20.6,-47.6,,*69
$GNGGA,050056.00,0419.86577,S,05539.62893,E,1,12,0.96,20.6,M,-47.6,M,,*42
$GNGSA,A,3,24,05,20,11,15,12,18,29,25,,,,1.90,0.96,1.64*1B
$GNGSA,A,3,79,80,83,73,,,,,,,,,1.90,0.96,1.64*11
$GPGSV,5,1,17,05,63,101,25,11,12,023,17,12,43,010,25,13,17,145,*7E
$GPGSV,5,2,17,15,29,179,19,18,29,243,15,20,39,052,29,22,11,126,*72
$GPGSV,5,3,17,23,10,209,,24,56,218,11,25,20,340,14,29,09,312,20*7B
$GPGSV,5,4,17,36,52,277,,40,86,351,37,41,58,082,35,49,32,274,*7E
$GPGSV,5,5,17,50,10,089,*4A
$GLGSV,2,1,08,68,15,109,,69,21,159,,73,26,341,20,79,36,144,29*68
$GLGSV,2,2,08,80,76,042,37,83,21,348,19,84,32,287,,85,10,240,*63
$GNGLL,0419.86577,S,05539.62893,E,050056.00,A,A*67
$GNGRS,050056.00,1,-4.3,1.3,-2.2,-20.3,-15.2,2.8,0.0,9.2,-21.2,,,*67
$GNGRS,050056.00,1,5.3,-1.2,3.9,-0.5,,,,,,,,*5C
$GNGST,050056.00,51,,,,3.8,6.2,8.4*48
$GNZDA,050056.00,28,05,2025,00,00*74
$GNGBS,050056.00,3.8,6.2,8.4,,,,*5A
$GNTXT,01,01,01,More than 100 frame errors, UART RX was disabled*70
b0@x?e+
i'4~
8AT8y{4$V_#:R 
Y
iDmE
IU{O$P#L*S\zT U
?bxU
,@)1$GNRMC,050057.00,A,0419.86570,S,05539.62904,E,0.262,,280525,,,A*79
$GNVTG,,T,,M,0.262,N,0.485,K,A*32
$GNGNS,050057.00,0419.86570,S,05539.62904,E,AA,13,0.96,20.4,-47.6,,*62
$GNGGA,050057.00,0419.86570,S,05539.62904,E,1,12,0.96,20.4,M,-47.6,M,,*49
$GNGSA,A,3,24,05,20,11,15,12,18,29,25,,,,1.90,0.96,1.64*1B
$GNGSA,A,3,79,80,83,73,,,,,,,,,1.90,0.96,1.64*11
$GPGSV,5,1,17,05,63,101,26,11,12,023,16,12,43,010,25,13,17,145,*7C
$GPGSV,5,2,17,15,29,179,20,18,29,243,14,20,39,052,29,22,11,126,*79
$GPGSV,5,3,17,23,10,209,,24,56,218,11,25,20,340,14,29,09,312,21*7A
$GPGSV,5,4,17,36,52,277,,40,86,351,36,41,58,082,35,49,32,274,*7F
$GPGSV,5,5,17,50,10,089,*4A
$GLGSV,2,1,08,68,15,109,,69,21,159,,73,26,341,21,79,36,144,30*61
$GLGSV,2,2,08,80,76,042,35,83,21,348,21,84,32,287,,85,10,240,*6A
$GNGLL,0419.86570,S,05539.62904,E,050057.00,A,A*6E
$GNGRS,050057.00,1,-7.0,1.4,-3.0,-21.2,-15.3,4.7,1.1,8.9,-20.9,,,*6A
$GNGRS,050057.00,1,7.2,-1.0,3.8,-1.3,,,,,,,,*5A
$GNGST,050057.00,50,,,,3.8,6.2,8.4*48
$GNZDA,050057.00,28,05,2025,00,00*75
$GNGBS,050057.00,3.8,6.2,8.4,,,,*5B
$GNTXT,01,01,01,More than 100 frame errors, UART RX was disabled*70
b0@`?e+
Vm'4u~
8T
8t{4#V_":R 
Y
iDmE
IUO$P#L*S\T U
mb`U
D)W$GNRMC,050058.00,A,0419.86569,S,05539.62874,E,0.676,,280525,,,A*79
$GNVTG,,T,,M,0.676,N,1.252,K,A*3E
$GNGNS,050058.00,0419.86569,S,05539.62874,E,AA,13,0.96,19.9,-47.6,,*64
$GNGGA,050058.00,0419.86569,S,05539.62874,E,1,12,0.96,19.9,M,-47.6,M,,*4F
$GNGSA,A,3,24,05,20,11,15,12,18,29,25,,,,1.90,0.96,1.64*1B
$GNGSA,A,3,79,80,83,73,,,,,,,,,1.90,0.96,1.64*11
$GPGSV,5,1,17,05,63,101,25,11,12,023,15,12,43,010,25,13,17,145,*7C
$GPGSV,5,2,17,15,29,179,18,18,29,243,13,20,39,052,31,22,11,126,*7C
$GPGSV,5,3,17,23,10,209,,24,56,218,17,25,20,340,14,29,09,312,20*7D
$GPGSV,5,4,17,36,52,277,,40,86,351,35,41,58,082,34,49,32,274,*7D
$GPGSV,5,5,17,50,10,089,*4A
$GLGSV,2,1,08,68,15,109,,69,21,159,,73,26,341,20,79,36,144,29*68
$GLGSV,2,2,08,80,76,042,35,83,21,348,20,84,32,287,,85,10,240,*6B
$GNGLL,0419.86569,S,05539.62874,E,050058.00,A,A*6F
$GNGRS,050058.00,1,-5.5,1.7,-3.9,-25.4,-14.3,6.0,1.4,6.3,-22.9,,,*6D
$GNGRS,050058.00,1,3.9,-1.0,4.0,-2.6,,,,,,,,*53
$GNGST,050058.00,46,,,,3.8,6.2,8.4*40
$GNZDA,050058.00,28,05,2025,00,00*7A
$GNGBS,050058.00,3.8,6.2,8.4,,,,*54
$GNTXT,01,01,01,More than 100 frame errors, UART RX was disabled*70
b0@H?e+
He'4~
8AT@8{4$V_#:R 
Y
iDmE
IU;O$P$L*S\T U
bHU
G).$GNRMC,050059.00,A,0419.86566,S,05539.62848,E,0.647,,280525,,,A*7A
$GNVTG,,T,,M,0.647,N,1.198,K,A*39
$GNGNS,050059.00,0419.86566,S,05539.62848,E,AA,13,0.95,19.5,-47.6,,*6A
$GNGGA,050059.00,0419.86566,S,05539.62848,E,1,12,0.95,19.5,M,-47.6,M,,*41
$GNGSA,A,3,24,05,20,11,15,12,18,29,25,,,,1.88,0.95,1.62*17
$GNGSA,A,3,79,80,83,73,,,,,,,,,1.88,0.95,1.62*1D
$GPGSV,5,1,17,05,63,101,25,11,12,023,14,12,43,010,26,13,17,145,*7E
$GPGSV,5,2,17,15,29,179,18,18,29,243,16,20,39,052,30,22,11,126,*78
$GPGSV,5,3,17,23,10,209,,24,56,218,19,25,20,340,12,29,09,312,19*7F
$GPGSV,5,4,17,36,52,277,,40,86,351,36,41,58,082,35,49,32,274,*7F
$GPGSV,5,5,17,50,10,089,*4A
$GLGSV,2,1,08,68,15,109,,69,21,159,,73,26,341,19,79,36,144,29*62
$GLGSV,2,2,08,80,76,042,36,83,21,348,20,84,32,287,,85,10,240,*68
$GNGLL,0419.86566,S,05539.62848,E,050059.00,A,A*6E
$GNGRS,050059.00,1,-4.5,-0.4,-2.9,-27.9,-16.0,5.8,1.0,5.1,-14.7,,,*48
$GNGRS,050059.00,1,1.5,-1.1,2.3,-4.5,,,,,,,,*5D
$GNGST,050059.00,50,,,,3.8,6.2,8.4*46
$GNZDA,050059.00,28,05,2025,00,00*7B
$GNGBS,050059.00,3.8,6.2,8.4,,,,*55
$GNTXT,01,01,01,More than 100 frame errors, UART RX was disabled*70
b0@0?e+
H'4~
8T8{4$V_!:R 
Y
iDmE
IUO$xP"L*S\T U
b0U
K)f$GNRMC,050100.00,A,0419.86566,S,05539.62854,E,0.206,,280525,,,A*7B
$GNVTG,,T,,M,0.206,N,0.382,K,A*30
$GNGNS,050100.00,0419.86566,S,05539.62854,E,AA,13,0.95,19.8,-47.6,,*67
$GNGGA,050100.00,0419.86566,S,05539.62854,E,1,12,0.95,19.8,M,-47.6,M,,*4C
$GNGSA,A,3,24,05,20,11,15,12,18,29,25,,,,1.88,0.95,1.62*17
$GNGSA,A,3,79,80,83,73,,,,,,,,,1.88,0.95,1.62*1D
$GPGSV,5,1,17,05,63,101,25,11,12,023,14,12,43,010,27,13,17,145,*7F
$GPGSV,5,2,17,15,29,179,18,18,29,243,17,20,39,052,30,22,11,126,*79
$GPGSV,5,3,17,23,10,209,17,24,56,218,19,25,20,340,12,29,09,312,18*78
$GPGSV,5,4,17,36,52,277,,40,86,351,36,41,58,082,33,49,32,274,*79
$GPGSV,5,5,17,50,10,089,*4A
$GLGSV,2,1,08,68,15,109,,69,21,159,,73,26,341,18,79,36,144,30*6B
$GLGSV,2,2,08,80,76,042,34,83,21,348,21,84,32,287,,85,10,240,*6B
$GNGLL,0419.86566,S,05539.62854,E,050100.00,A,A*6E
$GNGRS,050100.00,1,-4.9,-3.5,-3.4,-26.8,-15.9,4.8,0.7,2.4,-13.4,,,*4C
$GNGRS,050100.00,1,1.2,-1.2,0.2,-5.8,,,,,,,,*5B
$GNGST,050100.00,47,,,,3.8,6.2,8.4*4D
$GNZDA,050100.00,28,05,2025,00,00*76
$GNGBS,050100.00,3.8,6.2,8.4,,,,*58
$GNTXT,01,01,01,More than 100 frame errors, UART RX was disabled*70
b0@?e+
9'4j~
8T8{4$V_!:R 
Y
iDmE
IUbO$P"L*S\T U
41bU
O)$GNRMC,050101.00,A,0419.86566,S,05539.62849,E,0.198,,280525,,,A*72
$GNVTG,,T,,M,0.198,N,0.366,K,A*3E
$GNGNS,050101.00,0419.86566,S,05539.62849,E,AA,13,0.95,19.9,-47.6,,*6B
$GNGGA,050101.00,0419.86566,S,05539.62849,E,1,12,0.95,19.9,M,-47.6,M,,*40
$GNGSA,A,3,24,05,20,11,15,12,18,29,25,,,,1.88,0.95,1.62*17
$GNGSA,A,3,79,80,83,73,,,,,,,,,1.88,0.95,1.62*1D
$GPGSV,5,1,17,05,63,101,23,11,12,023,13,12,43,010,26,13,17,145,*7F
$GPGSV,5,2,17,15,29,179,17,18,29,243,17,20,39,052,29,22,11,126,*7E
$GPGSV,5,3,17,23,10,209,14,24,56,218,18,25,20,340,12,29,09,312,19*7B
$GPGSV,5,4,17,36,52,277,,40,86,351,36,41,58,082,33,49,32,274,*79
$GPGSV,5,5,17,50,10,089,*4A
$GLGSV,2,1,08,68,15,109,,69,21,159,,73,26,341,18,79,36,144,29*63
$GLGSV,2,2,08,80,76,042,34,83,21,348,20,84,32,287,,85,10,240,*6A
$GNGLL,0419.86566,S,05539.62849,E,050101.00,A,A*63
$GNGRS,050101.00,1,-3.2,-0.4,-1.5,-29.1,-16.0,5.1,0.6,1.9,-11.2,,,*4F
$GNGRS,050101.00,1,-2.3,-1.3,-0.6,-6.7,,,,,,,,*51
$GNGST,050101.00,49,,,,3.8,6.2,8.4*42
$GNZDA,050101.00,28,05,2025,00,00*77
$GNGBS,050101.00,3.8,6.2,8.4,,,,*59
$GNTXT,01,01,01,More than 100 frame errors, UART RX was disabled*70
b0@?en+
j'4"~

8rT8{4%V_!:R 
Y
iDmE
IUO"$MP'L*S\FT U
bU
S)6$GNRMC,050102.00,A,0419.86565,S,05539.62851,E,0.141,,280525,,,A*7F
$GNVTG,,T,,M,0.141,N,0.262,K,A*3F
$GNGNS,050102.00,0419.86565,S,05539.62851,E,AA,13,0.95,19.7,-47.6,,*6C
$GNGGA,050102.00,0419.86565,S,05539.62851,E,1,12,0.95,19.7,M,-47.6,M,,*47
$GNGSA,A,3,24,05,20,11,15,12,18,29,25,,,,1.88,0.95,1.62*17
$GNGSA,A,3,79,80,83,73,,,,,,,,,1.88,0.95,1.62*1D
$GPGSV,5,1,17,05,63,101,24,11,12,023,11,12,43,010,27,13,17,145,*7B
$GPGSV,5,2,17,15,29,179,17,18,29,243,18,20,39,052,29,22,11,126,*71
$GPGSV,5,3,17,23,10,209,10,24,56,218,19,25,20,340,12,29,09,312,20*74
$GPGSV,5,4,17,36,52,277,,40,86,351,37,41,58,082,33,49,32,274,*78
$GPGSV,5,5,17,50,10,089,*4A
$GLGSV,2,1,08,68,15,109,,69,21,159,,73,26,341,18,79,36,144,34*6F
$GLGSV,2,2,08,80,76,042,39,83,21,348,22,84,32,287,,85,10,240,*65
$GNGLL,0419.86565,S,05539.62851,E,050102.00,A,A*6A
$GNGRS,050102.00,1,-4.0,-0.1,-2.2,-29.6,-16.9,4.4,0.0,1.8,-10.2,,,*44
$GNGRS,050102.00,1,0.8,-1.2,-1.9,-7.5,,,,,,,,*7A
$GNGST,050102.00,50,,,,3.7,6.2,8.3*41
$GNZDA,050102.00,28,05,2025,00,00*74
$GNGBS,050102.00,3.7,6.2,8.3,,,,*52
$GNTXT,01,01,01,More than 100 frame errors, UART RX was disabled*70
b0@?e[+
S'4Y~
83T78/{4'V_":R 
Y
iDmE
IUO!$7P(L*S\T U
bU
W)$GNRMC,050103.00,A,0419.86568,S,05539.62858,E,0.169,,280525,,,A*70
$GNVTG,,T,,M,0.169,N,0.313,K,A*32
$GNGNS,050103.00,0419.86568,S,05539.62858,E,AA,13,0.95,19.5,-47.6,,*6B
$GNGGA,050103.00,0419.86568,S,05539.62858,E,1,12,0.95,19.5,M,-47.6,M,,*40
$GNGSA,A,3,24,05,20,11,15,12,18,29,25,,,,1.88,0.95,1.62*17
$GNGSA,A,3,79,80,83,73,,,,,,,,,1.88,0.95,1.62*1D
$GPGSV,5,1,17,05,63,101,24,11,12,023,11,12,43,010,27,13,17,145,*7B
$GPGSV,5,2,17,15,29,179,15,18,29,243,19,20,39,052,30,22,11,126,*7A
$GPGSV,5,3,17,23,10,209,08,24,56,218,24,25,20,340,12,29,09,312,20*73
$GPGSV,5,4,17,36,52,277,,40,86,351,39,41,58,082,34,49,32,274,*71
$GPGSV,5,5,17,50,10,089,*4A
$GLGSV,2,1,08,68,15,109,,69,21,159,,73,26,341,19,79,36,144,33*69
$GLGSV,2,2,08,80,76,042,40,83,21,348,23,84,32,287,,85,10,240,*6A
$GNGLL,0419.86568,S,05539.62858,E,050103.00,A,A*6F
$GNGRS,050103.00,1,-4.6,-0.1,-1.7,-29.8,-18.4,3.9,0.8,3.0,-9.7,,,*7D
$GNGRS,050103.00,1,3.1,-1.1,-2.6,-8.9,,,,,,,,*7D
$GNGST,050103.00,52,,,,3.7,6.2,8.1*40
$GNZDA,050103.00,28,05,2025,00,00*75
$GNGBS,050103.00,3.7,6.2,8.1,,,,*51
$GNTXT,01,01,01,More than 100 frame errors, UART RX was disabled*70
b0@?e+
t'4#~
8MT8{4%V_#:R 
Y
iDmE
IUO"$P&L*S\:T U
bU
[)e$GNRMC,050104.00,A,0419.86565,S,05539.62855,E,0.074,,280525,,,A*7A
$GNVTG,,T,,M,0.074,N,0.138,K,A*34
$GNGNS,050104.00,0419.86565,S,05539.62855,E,AA,13,0.95,19.2,-47.6,,*6B
$GNGGA,050104.00,0419.86565,S,05539.62855,E,1,12,0.95,19.2,M,-47.6,M,,*40
$GNGSA,A,3,24,05,20,11,15,12,18,29,25,,,,1.88,0.95,1.62*17
$GNGSA,A,3,79,80,83,73,,,,,,,,,1.88,0.95,1.62*1D
$GPGSV,5,1,17,05,63,101,25,11,12,023,09,12,43,010,27,13,17,145,*73
$GPGSV,5,2,17,15,29,179,14,18,29,243,21,20,39,052,30,22,11,126,*70
$GPGSV,5,3,17,23,10,209,08,24,56,218,23,25,20,340,12,29,09,312,20*74
$GPGSV,5,4,17,36,52,277,,40,86,351,37,41,58,082,35,49,32,274,*7E
$GPGSV,5,5,17,50,10,089,*4A
$GLGSV,2,1,08,68,15,109,,69,21,159,,73,26,341,19,79,36,144,34*6E
$GLGSV,2,2,08,80,76,042,38,83,21,348,23,84,32,287,,85,10,240,20*67
$GNGLL,0419.86565,S,05539.62855,E,050104.00,A,A*68
$GNGRS,050104.00,1,-4.4,1.4,0.4,-24.3,-19.3,2.3,3.9,5.4,-6.4,,,*79
$GNGRS,050104.00,1,-0.7,-1.1,-4.5,-8.1,,,,,,,,*5F
$GNGST,050104.00,52,,,,3.7,6.1,8.0*45
$GNZDA,050104.00,28,05,2025,00,00*72
$GNGBS,050104.00,3.7,6.1,8.0,,,,*54
$GNTXT,01,01,01,More than 100 frame errors, UART RX was disabled*70
b0@?e+
T'4~
8T8]{4&V_$:R 
Y
iDmE
IUO!$P&L*S\T U
*bU
l_)>m$GNRMC,050105.00,A,0419.86566,S,05539.62867,E,0.036,,280525,,,A*7F
$GNVTG,,T,,M,0.036,N,0.066,K,A*38
$GNGNS,050105.00,0419.86566,S,05539.62867,E,AA,13,0.95,19.0,-47.6,,*6A
$GNGGA,050105.00,0419.86566,S,05539.62867,E,1,12,0.95,19.0,M,-47.6,M,,*41
$GNGSA,A,3,24,05,20,11,15,12,18,29,25,,,,1.88,0.95,1.62*17
$GNGSA,A,3,79,80,83,73,,,,,,,,,1.88,0.95,1.62*1D
$GPGSV,5,1,17,05,63,101,26,11,12,023,08,12,43,010,27,13,17,145,*71
$GPGSV,5,2,17,15,29,179,14,18,29,243,20,20,39,052,31,22,11,126,*70
$GPGSV,5,3,17,23,10,209,09,24,56,218,22,25,20,340,15,29,09,312,20*73
$GPGSV,5,4,17,36,52,277,,40,86,351,38,41,58,082,36,49,32,274,*72
$GPGSV,5,5,17,50,10,089,*4A
$GLGSV,2,1,08,68,15,109,,69,21,159,,73,26,341,20,79,36,144,33*63
$GLGSV,2,2,08,80,76,042,38,83,21,348,22,84,32,287,,85,10,240,19*6C
$GNGLL,0419.86566,S,05539.62867,E,050105.00,A,A*6B
$GNGRS,050105.00,1,-6.3,1.9,2.6,22.3,-21.1,3.4,5.0,6.0,-7.9,,,*50
$GNGRS,050105.00,1,2.4,-1.2,-5.9,-10.4,,,,,,,,*40
$GNGST,050105.00,51,,,,3.7,6.1,8.0*47
$GNZDA,050105.00,28,05,2025,00,00*73
$GNGBS,050105.00,3.7,6.1,8.0,,,,*55
$GNTXT,01,01,01,More than 100 frame errors, UART RX was disabled*70
b0@?eG+
&'4~
8T58{4&V_$:R 
Y
iDmE
IUO $P$L*S\aT U
CbU
Tc)$GNRMC,050106.00,A,0419.86570,S,05539.62860,E,0.448,,280525,,,A*71
$GNVTG,,T,,M,0.448,N,0.829,K,A*36
$GNGNS,050106.00,0419.86570,S,05539.62860,E,AA,13,0.95,19.1,-47.6,,*68
$GNGGA,050106.00,0419.86570,S,05539.62860,E,1,12,0.95,19.1,M,-47.6,M,,*43
$GNGSA,A,3,24,05,20,11,15,12,18,29,25,,,,1.88,0.95,1.62*17
$GNGSA,A,3,79,80,83,73,,,,,,,,,1.88,0.95,1.62*1D
$GPGSV,5,1,17,05,63,101,26,11,12,023,08,12,43,010,28,13,17,145,*7E
$GPGSV,5,2,17,15,29,179,18,18,29,243,20,20,39,052,31,22,11,126,*7C
$GPGSV,5,3,17,23,10,209,09,24,56,218,20,25,20,340,18,29,09,312,19*76
$GPGSV,5,4,17,36,52,277,,40,86,351,38,41,58,082,36,49,32,274,*72
$GPGSV,5,5,17,50,10,089,*4A
$GLGSV,2,1,08,68,15,109,,69,21,159,,73,26,341,21,79,36,144,32*63
$GLGSV,2,2,08,80,76,042,36,83,21,348,20,84,32,287,,85,10,240,20*6A
$GNGLL,0419.86570,S,05539.62860,E,050106.00,A,A*68
$GNGRS,050106.00,1,-7.4,0.7,-5.2,22.5,-20.3,4.1,5.5,7.8,-7.1,,,*77
$GNGRS,050106.00,1,1.9,-1.3,-6.7,-13.5,,,,,,,,*43
$GNGST,050106.00,43,,,,3.6,6.1,7.9*40
$GNZDA,050106.00,28,05,2025,00,00*70
$GNGBS,050106.00,3.6,6.1,7.9,,,,*51
$GNTXT,01,01,01,More than 100 frame errors, UART RX was disabled*70
b0@?eo
+
p'4N~
8T8l{4(V_$:R 
Y
iDmE
IUO"$rP&L*vS\IT U
bU
<g)=$GNRMC,050107.00,A,0419.86566,S,05539.62865,E,0.061,,280525,,,A*7D
$GNVTG,,T,,M,0.061,N,0.113,K,A*39
$GNGNS,050107.00,0419.86566,S,05539.62865,E,AA,13,0.95,19.3,-47.6,,*69
$GNGGA,050107.00,0419.86566,S,05539.62865,E,1,12,0.95,19.3,M,-47.6,M,,*42
$GNGSA,A,3,24,05,20,11,15,12,18,29,25,,,,1.88,0.95,1.62*17
$GNGSA,A,3,79,80,83,73,,,,,,,,,1.88,0.95,1.62*1D
$GPGSV,5,1,17,05,63,101,26,11,12,023,10,12,43,010,27,13,17,145,*78
$GPGSV,5,2,17,15,29,179,18,18,29,243,19,20,39,052,30,22,11,126,*77
$GPGSV,5,3,17,23,10,209,09,24,56,218,19,25,20,340,20,29,09,312,20*7D
$GPGSV,5,4,17,36,52,277,,40,86,351,40,41,58,082,36,49,32,274,*7D
$GPGSV,5,5,17,50,10,089,*4A
$GLGSV,2,1,08,68,15,109,,69,21,159,,73,26,341,20,79,36,144,34*64
$GLGSV,2,2,08,80,76,042,38,83,21,348,19,84,32,287,,85,10,240,19*64
$GNGLL,0419.86566,S,05539.62865,E,050107.00,A,A*6B
$GNGRS,050107.00,1,-6.0,1.1,-4.3,-49.9,-20.3,4.2,3.7,6.2,-5.1,,,*56
$GNGRS,050107.00,1,-1.4,-1.4,-4.4,-13.9,,,,,,,,*68
$GNGST,050107.00,44,,,,3.6,6.2,7.9*45
$GNZDA,050107.00,28,05,2025,00,00*71
$GNGBS,050107.00,3.6,6.2,7.9,,,,*53
$GNTXT,01,01,01,More than 100 frame errors, UART RX was disabled*70
b0@p?e*+
'4~
8uT8]{4#V_!:R 
Y
iDmE
IUO$P!L*jS\T U
)bpU
$k)$GNRMC,050108.00,A,0419.86566,S,05539.62875,E,0.205,,280525,,,A*73
$GNVTG,,T,,M,0.205,N,0.379,K,A*37
$GNGNS,050108.00,0419.86566,S,05539.62875,E,AA,12,0.96,19.7,-47.6,,*61
$GNGGA,050108.00,0419.86566,S,05539.62875,E,1,12,0.96,19.7,M,-47.6,M,,*4B
$GNGSA,A,3,24,05,20,11,15,12,18,29,25,,,,1.91,0.96,1.65*1B
$GNGSA,A,3,79,80,73,,,,,,,,,,1.91,0.96,1.65*1A
$GPGSV,5,1,17,05,63,101,25,11,12,023,11,12,43,010,27,13,17,145,*7A
$GPGSV,5,2,17,15,29,179,17,18,29,243,19,20,39,052,29,22,11,126,*70
$GPGSV,5,3,17,23,10,209,12,24,56,218,20,25,20,340,20,29,09,312,20*7D
$GPGSV,5,4,17,36,52,277,,40,86,351,35,41,58,082,33,49,32,274,*7A
$GPGSV,5,5,17,50,10,089,*4A
$GLGSV,2,1,08,68,15,109,,69,21,159,,73,26,341,21,79,36,144,29*69
$GLGSV,2,2,08,80,76,042,33,83,21,348,,84,32,287,,85,10,240,20*6D
$GNGLL,0419.86566,S,05539.62875,E,050108.00,A,A*65
$GNGRS,050108.00,1,-6.5,3.0,-3.5,22.6,-17.6,7.2,2.0,6.1,-5.4,,,*73
$GNGRS,050108.00,1,-3.2,-1.5,-13.4,,,,,,,,,*6C
$GNGST,050108.00,43,,,,3.6,6.2,7.9*4D
$GNZDA,050108.00,28,05,2025,00,00*7E
$GNGBS,050108.00,3.6,6.2,7.9,,,,*5C
$GNTXT,01,01,01,More than 100 frame errors, UART RX was disabled*70
b0@X?e
+
/,'4'~
8oT8{4$V_!:R 
Y
iDmE
IU`O$HP!L*xS\T U
bXU
o)$GNRMC,050109.00,A,0419.86568,S,05539.62885,E,0.152,,280525,,,A*72
$GNVTG,,T,,M,0.152,N,0.282,K,A*33
$GNGNS,050109.00,0419.86568,S,05539.62885,E,AA,12,0.96,19.9,-47.6,,*6F
$GNGGA,050109.00,0419.86568,S,05539.62885,E,1,12,0.96,19.9,M,-47.6,M,,*45
$GNGSA,A,3,24,05,20,11,15,12,18,29,25,,,,1.91,0.96,1.65*1B
$GNGSA,A,3,79,80,73,,,,,,,,,,1.91,0.96,1.65*1A
$GPGSV,5,1,17,05,63,101,24,11,12,023,10,12,43,010,26,13,17,145,*7B
$GPGSV,5,2,17,15,29,179,12,18,29,243,19,20,39,052,29,22,11,126,*75
$GPGSV,5,3,17,23,10,209,11,24,56,218,21,25,20,340,18,29,09,312,20*74
$GPGSV,5,4,17,36,52,277,,40,86,351,36,41,58,082,33,49,32,274,*79
$GPGSV,5,5,17,50,10,089,*4A
$GLGSV,2,1,08,68,15,109,,69,21,159,,73,26,341,19,79,36,144,28*63
$GLGSV,2,2,08,80,76,042,33,83,21,348,,84,32,287,,85,10,240,18*66
$GNGLL,0419.86568,S,05539.62885,E,050109.00,A,A*65
$GNGRS,050109.00,1,-6.6,5.2,-2.2,22.7,-14.9,7.6,0.4,5.0,-8.0,,,*77
$GNGRS,050109.00,1,-1.8,-1.4,-14.4,,,,,,,,,*63
$GNGST,050109.00,46,,,,3.7,6.2,7.9*48
$GNZDA,050109.00,28,05,2025,00,00*7F
$GNGBS,050109.00,3.7,6.2,7.9,,,,*5C
$GNTXT,01,01,01,More than 100 frame errors, UART RX was disabled*70
b0@@?e+
'4~
82T}8{4(V_$:R 
Y
iDmE
IUO$P%L*nS\T U
Jb@U
r)ur$GNRMC,050110.00,A,0419.86569,S,05539.62891,E,0.087,,280525,,,A*77
$GNVTG,,T,,M,0.087,N,0.161,K,A*34
$GNGNS,050110.00,0419.86569,S,05539.62891,E,AA,12,0.96,19.9,-47.6,,*63
$GNGGA,050110.00,0419.86569,S,05539.62891,E,1,12,0.96,19.9,M,-47.6,M,,*49
$GNGSA,A,3,24,05,20,11,15,12,18,29,25,,,,1.91,0.96,1.65*1B
$GNGSA,A,3,79,80,73,,,,,,,,,,1.91,0.96,1.65*1A
$GPGSV,5,1,17,05,63,101,23,11,12,023,12,12,43,010,27,13,17,145,*7F
$GPGSV,5,2,17,15,29,179,14,18,29,243,18,20,39,052,29,22,11,126,*72
$GPGSV,5,3,17,23,10,209,12,24,56,218,23,25,20,340,16,29,09,312,21*7A
$GPGSV,5,4,17,36,52,277,,40,86,351,40,41,58,082,36,49,32,274,*7D
$GPGSV,5,5,17,50,10,089,*4A
$GLGSV,2,1,08,68,15,109,,69,21,159,,73,26,341,18,79,36,144,29*63
$GLGSV,2,2,08,80,76,042,37,83,21,348,,84,32,287,,85,10,240,15*6F
$GNGLL,0419.86569,S,05539.62891,E,050110.00,A,A*69
$GNGRS,050110.00,1,-7.2,4.7,-0.8,-45.9,-13.7,4.6,2.8,2.5,-9.0,,,*53
$GNGRS,050110.00,1,-0.4,-1.5,-13.0,,,,,,,,,*64
$GNGST,050110.00,50,,,,3.7,6.2,7.9*47
$GNZDA,050110.00,28,05,2025,00,00*77
$GNGBS,050110.00,3.7,6.2,7.9,,,,*54
$GNTXT,01,01,01,More than 100 frame errors, UART RX was disabled*70
b0@(?e+
v'4~
8TB8{4'V_":R 
Y
iDmE
IUO$P#L*}S\T U
]b(U
v)M$GNRMC,050111.00,A,0419.86564,S,05539.62890,E,0.219,,280525,,,A*7F
$GNVTG,,T,,M,0.219,N,0.405,K,A*36
$GNGNS,050111.00,0419.86564,S,05539.62890,E,AA,12,0.96,19.7,-47.6,,*60
$GNGGA,050111.00,0419.86564,S,05539.62890,E,1,12,0.96,19.7,M,-47.6,M,,*4A
$GNGSA,A,3,24,05,20,11,15,12,18,29,25,,,,1.91,0.96,1.65*1B
$GNGSA,A,3,79,80,73,,,,,,,,,,1.91,0.96,1.65*1A
$GPGSV,5,1,17,05,63,101,22,11,12,023,14,12,43,010,27,13,17,145,*78
$GPGSV,5,2,17,15,29,179,11,18,29,243,18,20,39,052,29,22,11,126,*77
$GPGSV,5,3,17,23,10,209,12,24,56,218,24,25,20,340,12,29,09,312,21*79
$GPGSV,5,4,17,36,52,277,,40,86,351,39,41,58,082,34,49,32,274,*71
$GPGSV,5,5,17,50,10,089,*4A
$GLGSV,2,1,08,68,15,109,,69,21,159,,73,26,341,18,79,36,144,30*6B
$GLGSV,2,2,08,80,76,042,35,83,21,348,,84,32,287,,85,10,240,14*6C
$GNGLL,0419.86564,S,05539.62890,E,050111.00,A,A*64
$GNGRS,050111.00,1,-7.8,4.9,-0.9,22.1,-14.2,4.2,2.3,1.5,-9.6,,,*7B
$GNGRS,050111.00,1,-0.1,-1.3,-10.3,,,,,,,,,*66
$GNGST,050111.00,127832,,,,3.7,6.2,8.0*48
$GNZDA,050111.00,28,05,2025,00,00*76
$GNGBS,050111.00,3.7,6.2,8.0,,,,*53
$GNTXT,01,01,01,More than 100 frame errors, UART RX was disabled*70
b0@?e\
+
.'4~
8T$8{4%V_#:R 
Y
iDmE
IU*O $P$L*gS\T U
8bU
z)%B$GNRMC,050112.00,A,0419.86568,S,05539.62890,E,0.172,,280525,,,A*7E
$GNVTG,,T,,M,0.172,N,0.318,K,A*33
$GNGNS,050112.00,0419.86568,S,05539.62890,E,AA,12,0.96,19.5,-47.6,,*6D
$GNGGA,050112.00,0419.86568,S,05539.62890,E,1,12,0.96,19.5,M,-47.6,M,,*47
$GNGSA,A,3,24,05,20,11,15,12,18,29,25,,,,1.91,0.96,1.65*1B
$GNGSA,A,3,79,80,73,,,,,,,,,,1.91,0.96,1.65*1A
$GPGSV,5,1,17,05,63,101,23,11,12,023,10,12,43,010,27,13,17,145,*7D
$GPGSV,5,2,17,15,29,179,12,18,29,243,16,20,39,052,30,22,11,126,*72
$GPGSV,5,3,17,23,10,209,13,24,56,218,25,25,20,340,16,29,09,312,22*7E
$GPGSV,5,4,17,36,52,277,,40,86,351,37,41,58,082,35,49,32,274,*7E
$GPGSV,5,5,17,50,10,089,*4A
$GLGSV,2,1,08,68,15,109,,69,21,159,,73,26,341,18,79,36,144,32*69
$GLGSV,2,2,08,80,76,042,36,83,21,348,,84,32,287,,85,10,240,17*6C
$GNGLL,0419.86568,S,05539.62890,E,050112.00,A,A*6B
$GNGRS,050112.00,1,-8.3,3.5,-2.6,21.9,-14.9,4.1,1.8,1.6,-9.9,,,*7D
$GNGRS,050112.00,1,4.5,-1.5,-9.8,,,,,,,,,*7D
$GNGST,050112.00,127832,,,,3.7,6.2,8.1*4A
$GNZDA,050112.00,28,05,2025,00,00*75
$GNGBS,050112.00,3.7,6.2,8.1,,,,*51
$GNTXT,01,01,01,More than 100 frame errors, UART RX was disabled*70
b0@?e+
%|'4~
8Tq8{4%V_#:R 
Y
iDmE
IUO$P!L*cS\T U
bU
~)$GNRMC,050113.00,A,0419.86567,S,05539.62893,E,0.179,,280525,,,A*78
$GNVTG,,T,,M,0.179,N,0.332,K,A*30
$GNGNS,050113.00,0419.86567,S,05539.62893,E,AA,12,0.88,19.5,-47.6,,*6F
$GNGGA,050113.00,0419.86567,S,05539.62893,E,1,12,0.88,19.5,M,-47.6,M,,*45
$GNGSA,A,3,24,05,20,11,15,12,18,29,25,,,,1.66,0.88,1.40*1B
$GNGSA,A,3,79,80,73,,,,,,,,,,1.66,0.88,1.40*1A
$GPGSV,5,1,17,05,63,101,25,11,12,023,09,12,43,010,28,13,17,145,*7C
$GPGSV,5,2,17,15,29,179,12,18,29,243,15,20,39,052,29,22,11,126,*79
$GPGSV,5,3,17,23,10,209,13,24,56,218,26,25,20,340,19,29,09,312,22*72
$GPGSV,5,4,17,36,52,277,,40,86,351,37,41,58,082,35,49,32,274,*7E
$GPGSV,5,5,17,50,10,089,*4A
$GLGSV,2,1,08,68,15,109,,69,21,159,,73,26,341,19,79,36,144,31*6B
$GLGSV,2,2,08,80,76,042,33,83,21,348,,84,32,287,,85,10,240,16*68
$GNGLL,0419.86567,S,05539.62893,E,050113.00,A,A*66
$GNGRS,050113.00,1,-8.5,2.7,-0.8,-15.9,11.6,2.9,8.9,-1.1,21.6,,,*4C
$GNGRS,050113.00,1,1.5,-1.6,-8.3,,,,,,,,,*70
$GNGST,050113.00,54,,,,3.7,6.1,8.1*44
$GNZDA,050113.00,28,05,2025,00,00*74
$GNGBS,050113.00,3.7,6.1,8.1,,,,*53
$GNTXT,01,01,01,More than 100 frame errors, UART RX was disabled*70
b0@#?e+
z'4~
8T8{4'V_$:R 
Y
iDmE
IUhO$2P%L*tS\T U
b#U
)$GNRMC,050114.00,A,0419.86564,S,05539.62894,E,0.063,,280525,,,A*71
$GNVTG,,T,,M,0.063,N,0.117,K,A*3F
$GNGNS,050114.00,0419.86564,S,05539.62894,E,AA,12,0.96,19.3,-47.6,,*65
$GNGGA,050114.00,0419.86564,S,05539.62894,E,1,12,0.96,19.3,M,-47.6,M,,*4F
$GNGSA,A,3,24,05,20,11,15,12,18,29,25,,,,1.91,0.96,1.65*1B
$GNGSA,A,3,79,80,73,,,,,,,,,,1.91,0.96,1.65*1A
$GPGSV,5,1,17,05,63,101,27,11,12,023,08,12,43,010,29,13,17,145,*7E
$GPGSV,5,2,17,15,29,179,11,18,29,243,14,20,39,052,29,22,11,126,*7B
$GPGSV,5,3,17,23,10,209,11,24,56,218,26,25,20,340,19,29,09,312,22*70
$GPGSV,5,4,17,36,52,277,,40,86,351,39,41,58,082,36,49,32,274,*73
$GPGSV,5,5,17,50,10,089,*4A
$GLGSV,2,1,08,68,15,109,,69,21,159,,73,26,341,18,79,36,144,31*6A
$GLGSV,2,2,08,80,76,042,37,83,21,348,,84,32,287,,85,10,240,15*6F
$GNGLL,0419.86564,S,05539.62894,E,050114.00,A,A*65
$GNGRS,050114.00,1,-8.2,2.3,-3.2,22.4,10.5,2.5,8.9,-2.7,12.6,,,*6E
$GNGRS,050114.00,1,0.5,-1.4,-9.2,,,,,,,,,*74
$GNGST,050114.00,3586708,,,,3.7,6.1,8.1*75
$GNZDA,050114.00,28,05,2025,00,00*73
$GNGBS,050114.00,3.7,6.1,8.1,,,,*54
$GNTXT,01,01,01,More than 100 frame errors, UART RX was disabled*70
b0@'?e+
'4~
8T8\{4)V_%:R 
Y
iDmE
IU3O#$P'L*wS\T U
b'U
|)k$GNRMC,050115.00,A,0419.86556,S,05539.62900,E,0.115,,280525,,,A*7D
$GNVTG,,T,,M,0.115,N,0.212,K,A*39
$GNGNS,050115.00,0419.86556,S,05539.62900,E,AA,12,0.96,19.2,-47.6,,*68
$GNGGA,050115.00,0419.86556,S,05539.62900,E,1,12,0.96,19.2,M,-47.6,M,,*42
$GNGSA,A,3,24,05,20,11,15,12,18,29,25,,,,1.91,0.96,1.65*1B
$GNGSA,A,3,79,80,73,,,,,,,,,,1.91,0.96,1.65*1A
$GPGSV,5,1,17,05,63,101,28,11,12,023,13,12,43,010,30,13,17,145,*73
$GPGSV,5,2,17,15,29,179,11,18,29,243,18,20,39,052,29,22,11,126,*77
$GPGSV,5,3,17,23,10,209,13,24,56,218,27,25,20,340,21,29,09,312,23*79
$GPGSV,5,4,17,36,52,277,,40,86,351,41,41,58,082,37,49,32,274,*7D
$GPGSV,5,5,17,50,10,089,*4A
$GLGSV,2,1,08,68,15,109,,69,21,159,,73,26,341,18,79,36,144,35*6E
$GLGSV,2,2,08,80,76,042,39,83,21,348,,84,32,287,,85,10,240,17*63
$GNGLL,0419.86556,S,05539.62900,E,050115.00,A,A*69
$GNGRS,050115.00,1,-8.0,6.5,-0.8,22.3,10.5,-3.1,7.2,-1.6,9.7,,,*74
$GNGRS,050115.00,1,-3.2,-1.4,-7.2,,,,,,,,,*52
$GNGST,050115.00,3586708,,,,3.6,6.0,7.9*73
$GNZDA,050115.00,28,05,2025,00,00*72
$GNGBS,050115.00,3.6,6.0,7.9,,,,*52
$GNTXT,01,01,01,More than 100 frame errors, UART RX was disabled*70
b0@+?e!+
1T'4~
8MTo8m{4)V_%:R 
Y
iDmE
IU&O"$P&L*S\T U
Y*b+U
d)$GNRMC,050116.00,A,0419.86547,S,05539.62901,E,0.200,,280525,,,A*78
$GNVTG,,T,,M,0.200,N,0.370,K,A*3B
$GNGNS,050116.00,0419.86547,S,05539.62901,E,AA,11,0.96,19.2,-47.6,,*69
$GNGGA,050116.00,0419.86547,S,05539.62901,E,1,11,0.96,19.2,M,-47.6,M,,*43
$GNGSA,A,3,24,05,20,15,12,18,29,25,,,,,1.91,0.96,1.65*1B
$GNGSA,A,3,79,80,73,,,,,,,,,,1.91,0.96,1.65*1A
$GPGSV,5,1,17,05,63,101,30,11,12,023,06,12,43,010,33,13,17,145,*7D
$GPGSV,5,2,17,15,29,179,13,18,29,243,21,20,39,052,29,22,11,126,*7F
$GPGSV,5,3,17,23,10,209,15,24,56,218,28,25,20,340,21,29,09,312,23*70
$GPGSV,5,4,17,36,52,277,,40,86,351,41,41,58,082,37,49,32,274,*7D
$GPGSV,5,5,17,50,10,089,*4A
$GLGSV,2,1,08,68,15,109,,69,21,159,,73,26,341,17,79,36,144,34*60
$GLGSV,2,2,08,80,76,042,38,83,21,348,,84,32,287,,85,10,240,19*6C
$GNGLL,0419.86547,S,05539.62901,E,050116.00,A,A*6B
$GNGRS,050116.00,1,-9.5,-0.1,2.9,-27.7,-3.7,8.5,-1.5,8.8,,,,*47
$GNGRS,050116.00,1,-4.9,-1.3,-7.3,,,,,,,,,*5B
$GNGST,050116.00,47,,,,3.6,5.9,7.8*4F
$GNZDA,050116.00,28,05,2025,00,00*71
$GNGBS,050116.00,3.6,5.9,7.8,,,,*5A
$GNTXT,01,01,01,More than 100 frame errors, UART RX was disabled*70
b0@/?e>+
'4~
8T8{4+V_$:R 
Y
iDmE
IUO#$MP&L*S\T U
[b/U
L)\;$GNRMC,050117.00,A,0419.86547,S,05539.62896,E,0.050,,280525,,,A*71
$GNVTG,,T,,M,0.050,N,0.092,K,A*33
$GNGNS,050117.00,0419.86547,S,05539.62896,E,AA,11,1.06,19.1,-47.6,,*6C
$GNGGA,050117.00,0419.86547,S,05539.62896,E,1,11,1.06,19.1,M,-47.6,M,,*46
$GNGSA,A,3,24,05,20,11,12,18,29,25,,,,,2.10,1.06,1.81*17
$GNGSA,A,3,79,80,73,,,,,,,,,,2.10,1.06,1.81*12
$GPGSV,5,1,17,05,63,101,29,11,12,023,17,12,43,010,31,13,17,145,*77
$GPGSV,5,2,17,15,29,179,,18,29,243,22,20,39,052,28,22,11,126,*7F
$GPGSV,5,3,17,23,10,209,17,24,56,218,27,25,20,340,21,29,09,312,25*7B
$GPGSV,5,4,17,36,52,277,,40,86,351,43,41,58,082,36,49,32,274,*7E
$GPGSV,5,5,17,50,10,089,*4A
$GLGSV,2,1,08,68,15,109,,69,21,159,,73,26,341,15,79,36,144,35*63
$GLGSV,2,2,08,80,76,042,38,83,21,348,,84,32,287,,85,10,240,18*6D
$GNGLL,0419.86547,S,05539.62896,E,050117.00,A,A*65
$GNGRS,050117.00,1,-7.9,-4.5,-2.5,22.6,-7.4,9.0,0.1,7.6,,,,*66
$GNGRS,050117.00,1,-1.8,-1.2,-8.0,,,,,,,,,*53
$GNGST,050117.00,40,,,,3.5,5.8,7.7*44
$GNZDA,050117.00,28,05,2025,00,00*70
$GNGBS,050117.00,3.5,5.8,7.7,,,,*56
$GNTXT,01,01,01,More than 100 frame errors, UART RX was disabled*70
b0@3?e +
:'4~
81T&8e{4+V_$:R 
Y
iDmE
IUO#$P(L*}S\T U
G*b3U
4)4$GNRMC,050118.00,A,0419.86548,S,05539.62899,E,0.035,,280525,,,A*7D
$GNVTG,,T,,M,0.035,N,0.064,K,A*39
$GNGNS,050118.00,0419.86548,S,05539.62899,E,AA,11,1.06,18.9,-47.6,,*6A
$GNGGA,050118.00,0419.86548,S,05539.62899,E,1,11,1.06,18.9,M,-47.6,M,,*40
$GNGSA,A,3,24,05,20,11,12,18,29,25,,,,,2.10,1.06,1.81*17
$GNGSA,A,3,79,80,73,,,,,,,,,,2.10,1.06,1.81*12
$GPGSV,5,1,17,05,63,101,27,11,12,023,09,12,43,010,32,13,17,145,*75
$GPGSV,5,2,17,15,29,179,19,18,29,243,25,20,39,052,28,22,11,126,*70
$GPGSV,5,3,17,23,10,209,15,24,56,218,28,25,20,340,20,29,09,312,26*74
$GPGSV,5,4,17,36,52,277,,40,86,351,43,41,58,082,36,49,32,274,*7E
$GPGSV,5,5,17,50,10,089,*4A
$GLGSV,2,1,08,68,15,109,,69,21,159,,73,26,341,12,79,36,144,35*64
$GLGSV,2,2,08,80,76,042,40,83,21,348,,84,32,287,,85,10,240,19*63
$GNGLL,0419.86548,S,05539.62899,E,050118.00,A,A*6A
$GNGRS,050118.00,1,-9.8,4.1,4.4,22.5,-9.7,7.9,1.0,5.5,,,,*6D
$GNGRS,050118.00,1,-2.4,-1.3,-7.6,,,,,,,,,*5B
$GNGST,050118.00,41,,,,3.5,5.6,7.5*46
$GNZDA,050118.00,28,05,2025,00,00*7F
$GNGBS,050118.00,3.5,5.6,7.5,,,,*55
$GNTXT,01,01,01,More than 100 frame errors, UART RX was disabled*70
b0@h7?e%+
T'4~
!8T8{4+V_%:R 
Y
iDmE
IU)O#$P'L*{S\T U
xbh7U
)$GNRMC,050119.00,A,0419.86542,S,05539.62911,E,0.077,,280525,,,A*71
$GNVTG,,T,,M,0.077,N,0.143,K,A*3B
$GNGNS,050119.00,0419.86542,S,05539.62911,E,AA,11,1.06,18.8,-47.6,,*61
$GNGGA,050119.00,0419.86542,S,05539.62911,E,1,11,1.06,18.8,M,-47.6,M,,*4B
$GNGSA,A,3,24,05,20,11,12,18,29,25,,,,,2.10,1.06,1.81*17
$GNGSA,A,3,79,80,73,,,,,,,,,,2.10,1.06,1.81*12
$GPGSV,5,1,17,05,63,101,28,11,12,023,09,12,43,010,31,13,17,145,*79
$GPGSV,5,2,17,15,29,179,18,18,29,243,26,20,39,052,28,22,11,126,*72
$GPGSV,5,3,17,23,10,209,14,24,56,218,33,25,20,340,21,29,09,312,26*7E
$GPGSV,5,4,17,36,52,277,30,40,86,351,43,41,58,082,37,49,32,274,*7C
$GPGSV,5,5,17,50,10,089,*4A
$GLGSV,2,1,08,68,15,109,,69,21,159,,73,26,341,15,79,36,144,35*63
$GLGSV,2,2,08,80,76,042,39,83,21,348,,84,32,287,,85,10,240,20*67
$GNGLL,0419.86542,S,05539.62911,E,050119.00,A,A*60
$GNGRS,050119.00,1,-7.9,-1.2,7.4,-50.8,-12.0,9.8,2.1,5.4,,,,*5F
$GNGRS,050119.00,1,-2.7,-1.3,-7.3,,,,,,,,,*5C
$GNGST,050119.00,38,,,,3.4,5.4,7.3*4C
$GNZDA,050119.00,28,05,2025,00,00*7E
$GNGBS,050119.00,3.4,5.4,7.3,,,,*51
$GNTXT,01,01,01,More than 100 frame errors, UART RX was disabled*70
b0@P;?e+
pM'4.~
 8nT8{4+V_&:R 
Y
iDmE
IUO#$P'L*S\_T U
bP;U
)s$GNRMC,050120.00,A,0419.86542,S,05539.62910,E,0.038,,280525,,,A*71
$GNVTG,,T,,M,0.038,N,0.071,K,A*30
$GNGNS,050120.00,0419.86542,S,05539.62910,E,AA,10,1.08,18.7,-47.6,,*6A
$GNGGA,050120.00,0419.86542,S,05539.62910,E,1,10,1.08,18.7,M,-47.6,M,,*40
$GNGSA,A,3,24,05,20,11,12,18,29,25,,,,,2.11,1.08,1.81*18
$GNGSA,A,3,79,80,,,,,,,,,,,2.11,1.08,1.81*19
$GPGSV,5,1,17,05,63,101,29,11,12,023,15,12,43,010,30,13,17,145,*74
$GPGSV,5,2,17,15,29,179,18,18,29,243,27,20,39,052,29,22,11,126,*72
$GPGSV,5,3,17,23,10,209,15,24,56,218,32,25,20,340,23,29,09,312,26*7C
$GPGSV,5,4,17,36,52,277,30,40,86,351,43,41,58,082,38,49,32,274,*73
$GPGSV,5,5,17,50,10,089,*4A
$GLGSV,2,1,08,68,15,109,,69,21,159,,73,26,341,,79,36,144,35*67
$GLGSV,2,2,08,80,76,042,39,83,21,348,22,84,32,287,,85,10,240,20*67
$GNGLL,0419.86542,S,05539.62910,E,050120.00,A,A*6B
$GNGRS,050120.00,1,-1.5,1.5,3.0,22.4,-6.6,10.4,-0.1,2.7,,,,*7D
$GNGRS,050120.00,1,-2.3,-1.2,,,,,,,,,,*54
$GNGST,050120.00,30,,,,3.4,5.3,7.2*48
$GNZDA,050120.00,28,05,2025,00,00*74
$GNGBS,050120.00,3.4,5.3,7.2,,,,*5D
$GNTXT,01,01,01,More than 100 frame errors, UART RX was disabled*70
b0@8??e +
'4~
8T8{4+V_%:R 
Y
iDmE
IUO#$P'L*S\T U
U[b8?U
)$GNRMC,050121.00,A,0419.86538,S,05539.62911,E,0.027,,280525,,,A*72
$GNVTG,,T,,M,0.027,N,0.050,K,A*3D
$GNGNS,050121.00,0419.86538,S,05539.62911,E,AA,11,0.98,18.6,-47.6,,*6F
$GNGGA,050121.00,0419.86538,S,05539.62911,E,1,11,0.98,18.6,M,-47.6,M,,*45
$GNGSA,A,3,24,05,20,11,15,12,18,29,25,,,,1.92,0.98,1.65*16
$GNGSA,A,3,79,80,,,,,,,,,,,1.92,0.98,1.65*13
$GPGSV,5,1,17,05,63,101,29,11,12,023,16,12,43,010,32,13,17,145,*75
$GPGSV,5,2,17,15,29,179,18,18,29,243,27,20,39,052,29,22,11,126,*72
$GPGSV,5,3,17,23,10,209,16,24,56,218,30,25,20,340,23,29,09,312,27*7C
$GPGSV,5,4,17,36,52,277,31,40,86,351,43,41,58,082,37,49,32,274,*7D
$GPGSV,5,5,17,50,10,089,*4A
$GLGSV,2,1,08,68,15,109,,69,21,159,,73,26,341,,79,36,144,35*67
$GLGSV,2,2,08,80,76,042,39,83,21,348,20,84,32,287,,85,10,240,19*6F
$GNGLL,0419.86538,S,05539.62911,E,050121.00,A,A*66
$GNGRS,050121.00,1,-5.2,-6.0,5.3,22.3,-2.3,-5.6,10.0,-0.8,2.7,,,*5E
$GNGRS,050121.00,1,-2.6,-0.8,,,,,,,,,,*5B
$GNGST,050121.00,38,,,,3.3,5.2,7.0*45
$GNZDA,050121.00,28,05,2025,00,00*75
$GNGBS,050121.00,3.3,5.2,7.0,,,,*58
$GNTXT,01,01,01,More than 100 frame errors, UART RX was disabled*70
b0@ C?eZ +
RL'4~
8T8{4)V_%:R 
Y
iDmE
IUO#$P(L*S\T U
+Lb CU
)@$GNRMC,050122.00,A,0419.86537,S,05539.62913,E,0.056,,280525,,,A*7A
$GNVTG,,T,,M,0.056,N,0.105,K,A*3A
$GNGNS,050122.00,0419.86537,S,05539.62913,E,AA,11,0.98,18.8,-47.6,,*6F
$GNGGA,050122.00,0419.86537,S,05539.62913,E,1,11,0.98,18.8,M,-47.6,M,,*45
$GNGSA,A,3,24,05,20,11,15,12,18,29,25,,,,1.92,0.98,1.65*16
$GNGSA,A,3,79,80,,,,,,,,,,,1.92,0.98,1.65*13
$GPGSV,5,1,17,05,63,101,29,11,12,023,12,12,43,010,32,13,17,145,19*79
$GPGSV,5,2,17,15,29,179,20,18,29,243,29,20,39,052,31,22,11,126,*7E
$GPGSV,5,3,17,23,10,209,17,24,56,218,30,25,20,340,23,29,09,312,25*7F
$GPGSV,5,4,17,36,52,277,31,40,86,351,41,41,58,082,37,49,32,274,*7F
$GPGSV,5,5,17,50,10,089,*4A
$GLGSV,2,1,08,68,15,109,,69,21,159,,73,26,341,,79,36,144,35*67
$GLGSV,2,2,08,80,76,042,40,83,21,348,18,84,32,287,,85,10,240,19*6A
$GNGLL,0419.86537,S,05539.62913,E,050122.00,A,A*68
$GNGRS,050122.00,1,-5.5,-0.9,-1.2,-32.4,-8.2,-9.4,-1.8,0.0,2.6,,,*62
$GNGRS,050122.00,1,-2.5,-0.4,,,,,,,,,,*57
$GNGST,050122.00,38,,,,3.3,5.1,7.0*45
$GNZDA,050122.00,28,05,2025,00,00*76
$GNGBS,050122.00,3.3,5.1,7.0,,,,*58
$GNTXT,01,01,01,More than 100 frame errors, UART RX was disabled*70
b0@G?e +
,I'4Z~
8T8{4+V_%:R 
Y
i
DmEIUO#$P(L*S\T U
UbGU
)k$GNRMC,050123.00,A,0419.86534,S,05539.62915,E,0.072,,280525,,,A*78
$GNVTG,,T,,M,0.072,N,0.133,K,A*39
$GNGNS,050123.00,0419.86534,S,05539.62915,E,AA,11,0.98,18.8,-47.6,,*6B
$GNGGA,050123.00,0419.86534,S,05539.62915,E,1,11,0.98,18.8,M,-47.6,M,,*41
$GNGSA,A,3,24,05,20,11,15,12,18,29,25,,,,1.92,0.98,1.65*16
$GNGSA,A,3,79,80,,,,,,,,,,,1.92,0.98,1.65*13
$GPGSV,5,1,17,05,63,101,29,11,12,023,16,12,43,010,32,13,17,145,18*7C
$GPGSV,5,2,17,15,29,179,20,18,29,243,29,20,39,052,29,22,11,126,*77
$GPGSV,5,3,17,23,10,209,17,24,56,218,30,25,20,340,23,29,09,312,24*7E
$GPGSV,5,4,17,36,52,277,29,40,86,351,43,41,58,082,37,49,32,274,*74
$GPGSV,5,5,17,50,10,089,*4A
$GLGSV,2,1,08,68,15,109,,69,21,159,,73,26,341,,79,36,144,35*67
$GLGSV,2,2,08,80,76,042,40,83,21,348,15,84,32,287,06,85,10,240,20*6B
$GNGLL,0419.86534,S,05539.62915,E,050123.00,A,A*6C
$GNGRS,050123.00,1,-6.0,2.7,3.5,22.4,-12.6,-7.2,3.3,1.6,2.6,,,*54
$GNGRS,050123.00,1,-2.3,-0.6,,,,,,,,,,*52
$GNGST,050123.00,38,,,,3.2,5.0,6.9*4C
$GNZDA,050123.00,28,05,2025,00,00*77
$GNGBS,050123.00,3.2,5.0,6.9,,,,*51
$GNTXT,01,01,01,More than 100 frame errors, UART RX was disabled*70
b0@J?e +
Cu'4~
8XT8x{4+V_&:R 
Y
i
DmEIU|O#$.P(L*S\5T U
bJU
)B$GNRMC,050124.00,A,0419.86533,S,05539.62905,E,0.077,,280525,,,A*7C
$GNVTG,,T,,M,0.077,N,0.143,K,A*3B
$GNGNS,050124.00,0419.86533,S,05539.62905,E,AA,12,1.06,18.6,-47.6,,*61
$GNGGA,050124.00,0419.86533,S,05539.62905,E,1,12,1.06,18.6,M,-47.6,M,,*4B
$GNGSA,A,3,24,05,20,11,15,12,18,29,25,,,,2.08,1.06,1.79*1D
$GNGSA,A,3,79,80,83,,,,,,,,,,2.08,1.06,1.79*13
$GPGSV,5,1,17,05,63,101,30,11,12,023,15,12,43,010,32,13,17,145,15*7A
$GPGSV,5,2,17,15,29,179,21,18,29,243,27,20,39,052,29,22,11,126,*78
$GPGSV,5,3,17,23,10,209,16,24,56,218,30,25,20,340,22,29,09,312,23*79
$GPGSV,5,4,17,36,52,277,30,40,86,351,43,41,58,082,38,49,32,274,*73
$GPGSV,5,5,17,50,10,089,*4A
$GLGSV,2,1,08,68,15,109,,69,21,159,,73,26,341,21,79,36,144,35*64
$GLGSV,2,2,08,80,76,042,40,83,21,348,15,84,32,287,,85,10,240,19*67
$GNGLL,0419.86533,S,05539.62905,E,050124.00,A,A*6D
$GNGRS,050124.00,1,-1.7,0.2,4.2,22.1,-21.7,-7.0,6.3,3.8,2.1,,,*5C
$GNGRS,050124.00,1,-2.1,-0.4,18.5,,,,,,,,,*47
$GNGST,050124.00,39,,,,3.2,4.9,6.8*43
$GNZDA,050124.00,28,05,2025,00,00*70
$GNGBS,050124.00,3.2,4.9,6.8,,,,*5F
$GNTXT,01,01,01,More than 100 frame errors, UART RX was disabled*70
b0@N?e]+

N'4~
8T8{4*V_%:R 
Y
i
DmEIUO#$'P&L*S\T U
vbNU
)i$GNRMC,050125.00,A,0419.86533,S,05539.62900,E,0.030,,280525,,,A*7B
$GNVTG,,T,,M,0.030,N,0.055,K,A*3E
$GNGNS,050125.00,0419.86533,S,05539.62900,E,AA,12,1.08,18.6,-47.6,,*6B
$GNGGA,050125.00,0419.86533,S,05539.62900,E,1,12,1.08,18.6,M,-47.6,M,,*41
$GNGSA,A,3,24,05,20,11,15,12,18,29,25,,,,2.11,1.08,1.81*1C
