$GNRMC,112553.00,A,0420.00776,S,05539.68588,E,0.711,,020625,,,A*77
$GNVTG,,T,,M,0.711,N,1.317,K,A*3E
$GNGGA,112553.00,0420.00776,S,05539.68588,E,1,12,0.97,24.1,M,-47.6,M,,*4D
$GNGSA,A,3,32,29,26,28,18,16,31,27,,,,,2.27,0.97,2.05*1F
$GNGSA,A,3,69,81,82,79,,,,,,,,,2.27,0.97,2.05*10
$GPGSV,5,1,17,08,06,319,,10,17,000,,16,25,245,16,18,32,079,28*71
$GPGSV,5,2,17,23,03,037,,25,01,126,,26,29,213,23,27,40,313,29*78
$GPGSV,5,3,17,28,47,154,25,29,16,147,13,31,32,189,15,32,62,357,21*7B
$GPGSV,5,4,17,36,52,277,30,40,84,353,28,41,58,082,,49,32,274,*75
$GPGSV,5,5,17,50,10,089,*4A
$GLGSV,2,1,08,68,20,003,,69,49,312,19,70,21,234,,79,12,144,15*62
$GLGSV,2,2,08,80,14,196,16,81,20,135,20,82,51,087,24,83,36,010,22*6F
$GNGLL,0420.00776,S,05539.68588,E,112553.00,A,A*6A
$GNRMC,112554.00,A,0420.00785,S,05539.68587,E,0.023,,020625,,,A*75
$GNVTG,,T,,M,0.023,N,0.043,K,A*3B
$GNGGA,112554.00,0420.00785,S,05539.68587,E,1,12,0.97,25.0,M,-47.6,M,,*49
$GNGSA,A,3,32,29,26,28,18,16,31,27,,,,,2.27,0.97,2.05*1F
$GNGSA,A,3,69,81,82,79,,,,,,,,,2.27,0.97,2.05*10
$GPGSV,5,1,17,08,06,319,,10,17,000,,16,25,245,14,18,32,079,29*72
$GPGSV,5,2,17,23,03,037,,25,01,126,,26,29,213,24,27,40,313,30*77
$GPGSV,5,3,17,28,47,154,24,29,16,147,12,31,32,189,16,32,62,357,21*78
$GPGSV,5,4,17,36,52,277,33,40,84,353,29,41,58,082,,49,32,274,*77
$GPGSV,5,5,17,50,10,089,*4A
$GLGSV,2,1,08,68,20,003,,69,49,312,19,70,21,234,,79,12,144,15*62
$GLGSV,2,2,08,80,14,196,16,81,20,135,20,82,51,087,23,83,36,010,20*6A
$GNGLL,0420.00785,S,05539.68587,E,112554.00,A,A*6E
$GNRMC,112555.00,A,0420.00786,S,05539.68584,E,0.089,,020625,,,A*74
$GNVTG,,T,,M,0.089,N,0.164,K,A*3F
$GNGGA,112555.00,0420.00786,S,05539.68584,E,1,12,0.97,24.4,M,-47.6,M,,*4D
$GNGSA,A,3,32,29,26,28,18,16,31,27,,,,,2.26,0.97,2.05*1E
$GNGSA,A,3,69,81,82,79,,,,,,,,,2.26,0.97,2.05*11
$GPGSV,5,1,17,08,06,319,,10,17,000,,16,25,245,13,18,32,079,33*7E
$GPGSV,5,2,17,23,03,037,,25,01,126,,26,29,213,26,27,40,313,34*71
$GPGSV,5,3,17,28,47,154,25,29,16,147,19,31,32,189,18,32,62,357,25*78
$GPGSV,5,4,17,36,52,277,35,40,84,353,34,41,58,082,,49,32,274,*7D
$GPGSV,5,5,17,50,10,089,*4A
$GLGSV,2,1,08,68,20,003,,69,49,312,16,70,21,234,,79,12,144,16*6E
$GLGSV,2,2,08,80,14,196,15,81,20,135,19,82,51,087,23,83,36,010,20*63
$GNGLL,0420.00786,S,05539.68584,E,112555.00,A,A*6F
$GNRMC,112556.00,A,0420.00786,S,05539.68576,E,0.120,,020625,,,A*78
$GNVTG,,T,,M,0.120,N,0.222,K,A*3C
$GNGGA,112556.00,0420.00786,S,05539.68576,E,1,12,0.97,23.6,M,-47.6,M,,*46
$GNGSA,A,3,32,29,26,28,18,16,31,27,,,,,2.26,0.97,2.05*1E
$GNGSA,A,3,69,81,82,79,,,,,,,,,2.26,0.97,2.05*11
$GPGSV,5,1,17,08,06,319,,10,17,000,,16,25,245,13,18,32,079,33*7E
$GPGSV,5,2,17,23,03,037,,25,01,126,,26,29,213,26,27,40,313,34*71
$GPGSV,5,3,17,28,47,154,27,29,16,147,24,31,32,189,18,32,62,357,24*75
$GPGSV,5,4,17,36,52,277,35,40,84,353,34,41,58,082,,49,32,274,*7D
$GPGSV,5,5,17,50,10,089,*4A
$GLGSV,2,1,08,68,20,003,,69,49,312,13,70,21,234,,79,12,144,18*65
$GLGSV,2,2,08,80,14,196,14,81,20,135,19,82,51,087,23,83,36,010,21*63
$GNGLL,0420.00786,S,05539.68576,E,112556.00,A,A*61
$GNRMC,112557.00,A,0420.00788,S,05539.68575,E,0.032,,020625,,,A*76
$GNVTG,,T,,M,0.032,N,0.059,K,A*30
$GNGGA,112557.00,0420.00788,S,05539.68575,E,1,12,0.97,23.9,M,-47.6,M,,*45
$GNGSA,A,3,32,29,26,28,18,16,31,27,,,,,2.26,0.97,2.05*1E
$GNGSA,A,3,69,81,82,79,,,,,,,,,2.26,0.97,2.05*11
$GPGSV,5,1,17,08,06,319,,10,17,000,,16,25,245,15,18,32,079,32*79
$GPGSV,5,2,17,23,03,037,,25,01,126,,26,29,213,25,27,40,313,32*74
$GPGSV,5,3,17,28,47,154,25,29,16,147,22,31,32,189,19,32,62,357,24*70
$GPGSV,5,4,17,36,52,277,36,40,84,353,31,41,58,082,,49,32,274,*7B
$GPGSV,5,5,17,50,10,089,*4A
$GLGSV,2,1,08,68,20,003,,69,49,312,14,70,21,234,,79,12,144,20*69
$GLGSV,2,2,08,80,14,196,14,81,20,135,18,82,51,087,25,83,36,010,23*66
$GNGLL,0420.00788,S,05539.68575,E,112557.00,A,A*6D
$GNRMC,112558.00,A,0420.00794,S,05539.68574,E,0.152,,020625,,,A*72
$GNVTG,,T,,M,0.152,N,0.282,K,A*33
$GNGGA,112558.00,0420.00794,S,05539.68574,E,1,12,0.97,24.2,M,-47.6,M,,*4A
$GNGSA,A,3,32,29,26,28,18,16,31,27,,,,,2.26,0.97,2.05*1E
$GNGSA,A,3,69,81,82,79,,,,,,,,,2.26,0.97,2.05*11
$GPGSV,5,1,17,08,06,319,,10,17,000,,16,25,245,14,18,32,079,32*78
$GPGSV,5,2,17,23,03,037,,25,01,126,,26,29,213,26,27,40,313,32*77
$GPGSV,5,3,17,28,47,154,23,29,16,147,20,31,32,189,23,32,62,357,23*7A
$GPGSV,5,4,17,36,52,277,37,40,84,353,35,41,58,082,,49,32,274,*7E
$GPGSV,5,5,17,50,10,089,*4A
$GLGSV,2,1,08,68,20,003,,69,49,312,14,70,21,234,,79,12,144,22*6B
$GLGSV,2,2,08,80,14,196,14,81,20,135,17,82,51,087,31,83,36,010,24*6B
$GNGLL,0420.00794,S,05539.68574,E,112558.00,A,A*6E
$GNRMC,112559.00,A,0420.00787,S,05539.68575,E,0.339,,020625,,,A*7F
$GNVTG,,T,,M,0.339,N,0.628,K,A*38
$GNGGA,112559.00,0420.00787,S,05539.68575,E,1,12,0.97,23.7,M,-47.6,M,,*4A
$GNGSA,A,3,32,29,26,28,18,16,31,27,,,,,2.26,0.97,2.05*1E
$GNGSA,A,3,69,81,82,79,,,,,,,,,2.26,0.97,2.05*11
$GPGSV,5,1,17,08,06,319,,10,17,000,,16,25,245,12,18,32,079,27*7A
$GPGSV,5,2,17,23,03,037,,25,01,126,,26,29,213,24,27,40,313,31*76
$GPGSV,5,3,17,28,47,154,25,29,16,147,17,31,32,189,21,32,62,357,21*78
$GPGSV,5,4,17,36,52,277,34,40,84,353,32,41,58,082,,49,32,274,*7A
$GPGSV,5,5,17,50,10,089,*4A
$GLGSV,2,1,08,68,20,003,,69,49,312,14,70,21,234,,79,12,144,22*6B
$GLGSV,2,2,08,80,14,196,15,81,20,135,18,82,51,087,25,83,36,010,21*65
$GNGLL,0420.00787,S,05539.68575,E,112559.00,A,A*6C
$GNRMC,112600.00,A,0420.00784,S,05539.68570,E,0.343,,020625,,,A*7B
$GNVTG,,T,,M,0.343,N,0.636,K,A*3A
$GNGGA,112600.00,0420.00784,S,05539.68570,E,1,12,0.97,22.6,M,-47.6,M,,*43
$GNGSA,A,3,32,29,26,28,18,16,31,27,,,,,2.26,0.97,2.05*1E
$GNGSA,A,3,69,81,82,79,,,,,,,,,2.26,0.97,2.05*11
$GPGSV,5,1,17,08,06,319,,10,17,000,,16,25,245,15,18,32,079,28*72
$GPGSV,5,2,17,23,03,037,,25,01,126,,26,29,213,23,27,40,313,29*78
$GPGSV,5,3,17,28,47,154,30,29,16,147,16,31,32,189,20,32,62,357,21*7C
$GPGSV,5,4,17,36,52,277,30,40,84,353,31,41,58,082,,49,32,274,*7D
$GPGSV,5,5,17,50,10,089,*4A
$GLGSV,2,1,08,68,20,003,,69,49,312,10,70,21,234,,79,12,144,19*67
$GLGSV,2,2,08,80,14,196,15,81,20,135,21,82,51,087,25,83,36,010,18*65
$GNGLL,0420.00784,S,05539.68570,E,112600.00,A,A*65
$GNRMC,112601.00,A,0420.00753,S,05539.68578,E,0.940,,020625,,,A*71
$GNVTG,,T,,M,0.940,N,1.741,K,A*33
$GNGGA,112601.00,0420.00753,S,05539.68578,E,1,12,0.97,20.5,M,-47.6,M,,*41
$GNGSA,A,3,32,29,26,28,18,16,31,27,,,,,2.26,0.97,2.05*1E
$GNGSA,A,3,69,81,82,79,,,,,,,,,2.26,0.97,2.05*11
$GPGSV,5,1,17,08,06,319,,10,17,000,,16,25,245,09,18,33,080,32*73
$GPGSV,5,2,17,23,03,037,,25,01,126,,26,29,213,23,27,40,313,33*73
$GPGSV,5,3,17,28,47,154,30,29,16,147,16,31,32,189,20,32,62,357,20*7D
$GPGSV,5,4,17,36,52,277,36,40,84,353,35,41,58,082,,49,32,274,*7F
$GPGSV,5,5,17,50,10,089,*4A
$GLGSV,2,1,08,68,20,003,,69,49,312,13,70,21,234,,79,12,144,18*65
$GLGSV,2,2,08,80,14,196,15,81,20,135,21,82,51,087,25,83,36,010,17*6A
$GNGLL,0420.00753,S,05539.68578,E,112601.00,A,A*66
$GNRMC,112602.00,A,0420.00753,S,05539.68585,E,0.451,,020625,,,A*7D
$GNVTG,,T,,M,0.451,N,0.836,K,A*30
$GNGGA,112602.00,0420.00753,S,05539.68585,E,1,12,0.97,19.4,M,-47.6,M,,*4B
$GNGSA,A,3,32,29,26,28,18,16,31,27,,,,,2.26,0.97,2.05*1E
$GNGSA,A,3,69,81,82,79,,,,,,,,,2.26,0.97,2.05*11
$GPGSV,5,1,17,08,06,319,,10,17,000,,16,25,245,10,18,33,080,28*70
$GPGSV,5,2,17,23,03,037,,25,01,126,,26,29,213,23,27,40,313,26*77
$GPGSV,5,3,17,28,47,154,22,29,16,147,16,31,32,189,19,32,62,357,19*7E
$GPGSV,5,4,17,36,52,277,31,40,84,353,31,41,58,082,,49,32,274,*7C
$GPGSV,5,5,17,50,10,089,*4A
$GLGSV,2,1,08,68,20,003,,69,49,312,10,70,21,234,,79,12,144,17*69
$GLGSV,2,2,08,80,14,196,14,81,20,135,20,82,51,087,25,83,36,010,16*6B
$GNGLL,0420.00753,S,05539.68585,E,112602.00,A,A*67
$GNRMC,112603.00,A,0420.00758,S,05539.68585,E,0.353,,020625,,,A*72
$GNVTG,,T,,M,0.353,N,0.654,K,A*3F
$GNGGA,112603.00,0420.00758,S,05539.68585,E,1,12,0.97,18.3,M,-47.6,M,,*47
$GNGSA,A,3,32,29,26,28,18,16,31,27,,,,,2.26,0.97,2.05*1E
$GNGSA,A,3,69,81,82,79,,,,,,,,,2.26,0.97,2.05*11
$GPGSV,5,1,17,08,06,319,,10,17,000,,16,25,245,09,18,33,080,27*77
$GPGSV,5,2,17,23,03,037,,25,01,126,,26,29,213,23,27,40,313,26*77
$GPGSV,5,3,17,28,47,154,23,29,16,147,15,31,32,189,19,32,62,357,17*72
$GPGSV,5,4,17,36,52,277,31,40,84,353,31,41,58,082,,49,32,274,*7C
$GPGSV,5,5,17,50,10,089,*4A
$GLGSV,2,1,08,68,20,003,,69,49,312,15,70,21,234,,79,12,144,15*6E
$GLGSV,2,2,08,80,14,196,13,81,20,135,18,82,51,087,24,83,36,010,16*66
$GNGLL,0420.00758,S,05539.68585,E,112603.00,A,A*6D
$GNRMC,112604.00,A,0420.00763,S,05539.68574,E,0.325,,020625,,,A*72
$GNVTG,,T,,M,0.325,N,0.603,K,A*3C
$GNGGA,112604.00,0420.00763,S,05539.68574,E,1,12,0.97,18.0,M,-47.6,M,,*45
$GNGSA,A,3,32,29,26,28,18,16,31,27,,,,,2.26,0.97,2.05*1E
$GNGSA,A,3,69,81,82,79,,,,,,,,,2.26,0.97,2.05*11
$GPGSV,5,1,17,08,06,319,,10,17,000,,16,25,245,09,18,33,080,32*73
$GPGSV,5,2,17,23,03,037,,25,01,126,,26,29,213,30,27,40,313,31*73
$GPGSV,5,3,17,28,47,154,24,29,16,147,15,31,32,189,19,32,62,357,12*70
$GPGSV,5,4,17,36,52,277,34,40,84,353,37,41,58,082,,49,32,274,*7F
$GPGSV,5,5,17,50,10,089,*4A
$GLGSV,2,1,08,68,20,003,,69,49,312,14,70,21,234,,79,12,144,14*6E
$GLGSV,2,2,08,80,14,196,11,81,20,135,16,82,51,087,23,83,36,010,16*6D
$GNGLL,0420.00763,S,05539.68574,E,112604.00,A,A*6C
$GNRMC,112605.00,A,0420.00762,S,05539.68568,E,0.169,,020625,,,A*75
$GNVTG,,T,,M,0.169,N,0.313,K,A*32
$GNGGA,112605.00,0420.00762,S,05539.68568,E,1,12,1.04,18.0,M,-47.6,M,,*43
$GNGSA,A,3,32,29,26,28,18,16,31,27,,,,,2.38,1.04,2.15*1B
$GNGSA,A,3,69,81,82,79,,,,,,,,,2.38,1.04,2.15*14
$GPGSV,5,1,17,08,06,319,,10,17,000,,16,25,245,13,18,33,080,28*73
$GPGSV,5,2,17,23,03,038,,25,01,126,,26,29,213,26,27,40,313,31*7B
$GPGSV,5,3,17,28,47,154,24,29,16,147,18,31,32,189,21,32,62,357,13*77
$GPGSV,5,4,17,36,52,277,34,40,84,353,33,41,58,082,,49,32,274,*7B
$GPGSV,5,5,17,50,10,089,*4A
$GLGSV,2,1,08,68,20,003,,69,49,312,16,70,21,234,,79,12,144,17*6F
$GLGSV,2,2,08,80,14,196,10,81,20,135,13,82,51,087,25,83,36,010,18*61
$GNGLL,0420.00762,S,05539.68568,E,112605.00,A,A*61
$GNRMC,112606.00,A,0420.00776,S,05539.68570,E,0.193,,020625,,,A*7F
$GNVTG,,T,,M,0.193,N,0.357,K,A*37
$GNGGA,112606.00,0420.00776,S,05539.68570,E,1,12,0.97,19.5,M,-47.6,M,,*43
$GNGSA,A,3,32,29,26,28,18,16,31,27,,,,,2.26,0.97,2.05*1E
$GNGSA,A,3,69,81,82,79,,,,,,,,,2.26,0.97,2.05*11
$GPGSV,5,1,17,08,06,319,,10,17,000,,16,25,245,17,18,33,080,28*77
$GPGSV,5,2,17,23,03,038,,25,01,126,,26,29,213,24,27,40,313,24*7D
$GPGSV,5,3,17,28,47,154,24,29,16,147,18,31,32,189,21,32,62,357,18*7C
$GPGSV,5,4,17,36,52,277,30,40,84,353,29,41,58,082,,49,32,274,*74
$GPGSV,5,5,17,50,10,089,*4A
$GLGSV,2,1,08,68,20,003,,69,49,312,17,70,21,234,,79,12,144,18*61
$GLGSV,2,2,08,80,14,196,,81,20,135,13,82,51,087,24,83,36,010,17*6E
$GNGLL,0420.00776,S,05539.68570,E,112606.00,A,A*6E
$GNRMC,112607.00,A,0420.00772,S,05539.68566,E,0.245,,020625,,,A*75
$GNVTG,,T,,M,0.245,N,0.454,K,A*3B
$GNGGA,112607.00,0420.00772,S,05539.68566,E,1,12,0.97,19.3,M,-47.6,M,,*47
$GNGSA,A,3,32,29,26,28,18,16,31,27,,,,,2.26,0.97,2.05*1E
$GNGSA,A,3,69,81,82,79,,,,,,,,,2.26,0.97,2.05*11
$GPGSV,5,1,17,08,06,319,,10,17,000,,16,25,245,13,18,33,080,29*72
$GPGSV,5,2,17,23,03,038,,25,01,125,,26,29,213,25,27,40,313,26*7D
$GPGSV,5,3,17,28,47,154,26,29,16,147,18,31,32,189,22,32,62,357,16*73
$GPGSV,5,4,17,36,52,277,30,40,84,353,35,41,58,082,,49,32,274,*79
$GPGSV,5,5,17,50,10,089,*4A
$GLGSV,2,1,08,68,20,003,,69,49,312,18,70,21,234,,79,12,144,19*6F
$GLGSV,2,2,08,80,14,196,,81,20,135,15,82,51,087,25,83,36,010,18*66
$GNGLL,0420.00772,S,05539.68566,E,112607.00,A,A*6C
$GNRMC,112608.00,A,0420.00768,S,05539.68561,E,0.176,,020625,,,A*75
$GNVTG,,T,,M,0.176,N,0.326,K,A*3A
$GNGGA,112608.00,0420.00768,S,05539.68561,E,1,12,1.04,20.0,M,-47.6,M,,*46
$GNGSA,A,3,32,29,26,28,18,16,31,27,,,,,2.38,1.04,2.15*1B
$GNGSA,A,3,69,81,82,79,,,,,,,,,2.38,1.04,2.15*14
$GPGSV,5,1,17,08,06,319,,10,17,000,,16,25,245,15,18,33,080,28*75
$GPGSV,5,2,17,23,03,038,,25,01,125,,26,29,213,25,27,40,313,27*7C
$GPGSV,5,3,17,28,47,154,29,29,16,147,16,31,32,189,20,32,62,357,18*7E
$GPGSV,5,4,17,36,52,277,30,40,84,353,31,41,58,082,,49,32,274,*7D
$GPGSV,5,5,17,50,10,089,*4A
$GLGSV,2,1,08,68,20,003,,69,49,312,17,70,21,234,,79,12,144,17*6E
$GLGSV,2,2,08,80,14,196,,81,20,135,14,82,51,087,23,83,36,010,18*61
$GNGLL,0420.00768,S,05539.68561,E,112608.00,A,A*6F
$GNRMC,112609.00,A,0420.00773,S,05539.68556,E,0.550,,020625,,,A*7A
$GNVTG,,T,,M,0.550,N,1.018,K,A*35
$GNGGA,112609.00,0420.00773,S,05539.68556,E,1,12,0.97,19.3,M,-47.6,M,,*4B
$GNGSA,A,3,32,29,26,28,18,16,31,27,,,,,2.26,0.97,2.05*1E
$GNGSA,A,3,69,81,82,79,,,,,,,,,2.26,0.97,2.05*11
$GPGSV,5,1,17,08,06,319,,10,17,000,,16,25,245,12,18,33,080,28*72
$GPGSV,5,2,17,23,03,038,,25,01,125,,26,29,213,24,27,41,312,24*7E
$GPGSV,5,3,17,28,47,154,22,29,16,147,16,31,32,189,20,32,62,357,18*75
$GPGSV,5,4,17,36,52,277,29,40,84,353,33,41,58,082,,49,32,274,*77
$GPGSV,5,5,17,50,10,089,*4A
$GLGSV,2,1,08,68,20,003,,69,49,312,17,70,21,234,,79,12,144,15*6C
$GLGSV,2,2,08,80,14,196,,81,20,135,13,82,51,087,23,83,36,010,16*68
$GNGLL,0420.00773,S,05539.68556,E,112609.00,A,A*60
$GNRMC,112610.00,A,0420.00781,S,05539.68552,E,0.447,,020625,,,A*7C
$GNVTG,,T,,M,0.447,N,0.828,K,A*38
$GNGGA,112610.00,0420.00781,S,05539.68552,E,1,11,1.00,18.9,M,-47.6,M,,*4D
$GNGSA,A,3,32,29,26,28,18,16,31,27,,,,,2.28,1.00,2.05*1F
$GNGSA,A,3,81,82,79,,,,,,,,,,2.28,1.00,2.05*1F
$GPGSV,5,1,17,08,06,319,,10,17,000,,16,25,245,16,18,33,080,28*76
$GPGSV,5,2,17,23,03,038,,25,01,125,,26,29,213,22,27,41,312,26*7A
$GPGSV,5,3,17,28,47,154,22,29,16,147,15,31,32,189,19,32,62,357,17*73
$GPGSV,5,4,17,36,52,277,30,40,84,353,32,41,58,082,,49,32,274,*7E
$GPGSV,5,5,17,50,10,089,*4A
$GLGSV,2,1,08,68,20,003,,69,49,312,28,70,21,234,,79,12,144,15*60
$GLGSV,2,2,08,80,14,196,,81,20,135,16,82,51,087,25,83,36,010,17*6A
$GNGLL,0420.00781,S,05539.68552,E,112610.00,A,A*61
$GNRMC,112611.00,A,0420.00762,S,05539.68539,E,0.267,,020625,,,A*79
$GNVTG,,T,,M,0.267,N,0.494,K,A*37
$GNGGA,112611.00,0420.00762,S,05539.68539,E,1,11,1.09,18.1,M,-47.6,M,,*4D
$GNGSA,A,3,32,29,26,28,18,16,31,27,,,,,2.41,1.09,2.15*18
$GNGSA,A,3,81,82,79,,,,,,,,,,2.41,1.09,2.15*18
$GPGSV,5,1,17,08,06,319,,10,17,000,,16,25,245,11,18,33,080,36*7E
$GPGSV,5,2,17,23,03,038,,25,01,125,,26,29,213,23,27,41,312,38*74
$GPGSV,5,3,17,28,47,154,22,29,16,147,15,31,32,189,21,32,62,357,18*77
$GPGSV,5,4,17,36,52,277,37,40,84,353,37,41,58,082,,49,32,274,*7C
$GPGSV,5,5,17,50,10,089,*4A
$GLGSV,2,1,08,68,20,003,,69,49,312,24,70,21,234,,79,12,144,18*61
$GLGSV,2,2,08,80,14,196,,81,20,135,13,82,51,087,26,83,36,010,20*68
$GNGLL,0420.00762,S,05539.68539,E,112611.00,A,A*60
$GNRMC,112612.00,A,0420.00756,S,05539.68540,E,0.170,,020625,,,A*76
$GNVTG,,T,,M,0.170,N,0.316,K,A*3F
$GNGGA,112612.00,0420.00756,S,05539.68540,E,1,11,1.00,18.9,M,-47.6,M,,*46
$GNGSA,A,3,32,29,26,28,18,16,31,27,,,,,2.28,1.00,2.05*1F
$GNGSA,A,3,81,82,79,,,,,,,,,,2.28,1.00,2.05*1F
$GPGSV,5,1,17,08,06,319,,10,17,000,,16,25,245,19,18,33,080,34*74
$GPGSV,5,2,17,23,03,038,,25,01,125,,26,29,213,24,27,41,312,38*73
$GPGSV,5,3,17,28,47,154,23,29,16,147,16,31,32,189,21,32,62,357,22*7C
$GPGSV,5,4,17,36,52,277,34,40,84,353,36,41,58,082,,49,32,274,*7E
$GPGSV,5,5,17,50,10,089,*4A
$GLGSV,2,1,08,68,20,003,,69,49,312,23,70,21,234,,79,12,144,20*6D
$GLGSV,2,2,08,80,14,196,,81,20,135,20,82,51,087,28,83,36,010,22*64
$GNGLL,0420.00756,S,05539.68540,E,112612.00,A,A*6A
$GNRMC,112613.00,A,0420.00774,S,05539.68535,E,0.458,,020625,,,A*7A
$GNVTG,,T,,M,0.458,N,0.848,K,A*30
$GNGGA,112613.00,0420.00774,S,05539.68535,E,1,12,0.97,17.9,M,-47.6,M,,*46
$GNGSA,A,3,32,29,26,28,18,16,31,27,,,,,2.26,0.97,2.05*1E
$GNGSA,A,3,69,81,82,79,,,,,,,,,2.26,0.97,2.05*11
$GPGSV,5,1,17,08,06,319,,10,17,000,,16,25,245,16,18,33,080,31*7E
$GPGSV,5,2,17,23,03,038,,25,01,125,,26,29,213,25,27,41,312,38*72
$GPGSV,5,3,17,28,47,154,23,29,16,147,17,31,32,188,19,32,62,357,26*73
$GPGSV,5,4,17,36,52,277,34,40,84,353,37,41,58,082,,49,32,274,*7F
$GPGSV,5,5,17,50,10,089,*4A
$GLGSV,2,1,08,68,20,003,,69,49,312,26,70,21,234,,79,12,144,20*68
$GLGSV,2,2,08,80,14,196,,81,20,135,19,82,51,087,28,83,36,010,22*6E
$GNGLL,0420.00774,S,05539.68535,E,112613.00,A,A*69
$GNRMC,112614.00,A,0420.00771,S,05539.68535,E,0.089,,020625,,,A*70
$GNVTG,,T,,M,0.089,N,0.165,K,A*3E
$GNGGA,112614.00,0420.00771,S,05539.68535,E,1,12,0.97,17.5,M,-47.6,M,,*48
$GNGSA,A,3,32,29,26,28,18,16,31,27,,,,,2.26,0.97,2.05*1E
$GNGSA,A,3,69,81,82,79,,,,,,,,,2.26,0.97,2.05*11
$GPGSV,5,1,17,08,06,319,,10,17,000,,16,25,245,19,18,33,080,33*73
$GPGSV,5,2,17,23,03,038,,25,01,125,,26,29,213,32,27,41,312,36*7A
$GPGSV,5,3,17,28,47,154,25,29,16,147,17,31,32,188,20,32,61,358,25*70
$GPGSV,5,4,17,36,52,277,38,40,84,353,36,41,58,082,,49,32,274,*72
$GPGSV,5,5,17,50,10,089,*4A
$GLGSV,2,1,08,68,20,003,,69,49,312,24,70,21,234,,79,12,144,19*60
$GLGSV,2,2,08,80,14,196,,81,20,135,21,82,51,087,31,83,36,010,23*6C
$GNGLL,0420.00771,S,05539.68535,E,112614.00,A,A*6B
$GNRMC,112615.00,A,0420.00774,S,05539.68537,E,0.210,,020625,,,A*74
$GNVTG,,T,,M,0.210,N,0.389,K,A*3C
$GNGGA,112615.00,0420.00774,S,05539.68537,E,1,12,0.97,16.7,M,-47.6,M,,*4D
$GNGSA,A,3,32,29,26,28,18,16,31,27,,,,,2.26,0.97,2.05*1E
$GNGSA,A,3,69,81,82,79,,,,,,,,,2.26,0.97,2.05*11
$GPGSV,5,1,17,08,06,319,,10,17,000,,16,25,245,19,18,33,080,29*78
$GPGSV,5,2,17,23,03,038,,25,01,125,,26,29,213,25,27,41,312,31*7B
$GPGSV,5,3,17,28,47,154,26,29,16,147,17,31,32,188,20,32,61,358,23*75
$GPGSV,5,4,17,36,52,277,34,40,84,353,36,41,58,082,,49,32,274,*7E
$GPGSV,5,5,17,50,10,089,*4A
$GLGSV,2,1,08,68,20,003,,69,49,312,21,70,21,234,,79,12,144,19*65
$GLGSV,2,2,08,80,14,196,,81,20,135,21,82,51,087,25,83,36,010,21*6B
$GNGLL,0420.00774,S,05539.68537,E,112615.00,A,A*6D
$GNRMC,112616.00,A,0420.00783,S,05539.68547,E,0.575,,020625,,,A*7C
$GNVTG,,T,,M,0.575,N,1.065,K,A*38
$GNGGA,112616.00,0420.00783,S,05539.68547,E,1,12,0.97,16.1,M,-47.6,M,,*47
$GNGSA,A,3,32,29,26,28,18,16,31,27,,,,,2.26,0.97,2.05*1E
$GNGSA,A,3,69,81,82,79,,,,,,,,,2.26,0.97,2.05*11
$GPGSV,5,1,17,08,06,319,,10,17,000,,16,25,245,20,18,33,080,27*7C
$GPGSV,5,2,17,23,03,038,,25,01,125,,26,29,213,23,27,41,312,31*7D
$GPGSV,5,3,17,28,47,154,25,29,16,147,17,31,32,188,18,32,61,358,21*7F
$GPGSV,5,4,17,36,52,277,31,40,84,353,30,41,58,082,,49,32,274,*7D
$GPGSV,5,5,17,50,10,089,*4A
$GLGSV,2,1,08,68,20,003,,69,49,312,16,70,21,234,,79,12,144,20*6B
$GLGSV,2,2,08,80,14,196,,81,20,135,21,82,51,087,23,83,36,010,20*6C
$GNGLL,0420.00783,S,05539.68547,E,112616.00,A,A*61
$GNRMC,112617.00,A,0420.00788,S,05539.68546,E,0.248,,020625,,,A*7E
$GNVTG,,T,,M,0.248,N,0.459,K,A*3B
$GNGGA,112617.00,0420.00788,S,05539.68546,E,1,12,0.97,15.5,M,-47.6,M,,*4B
$GNGSA,A,3,32,29,26,28,18,16,31,27,,,,,2.26,0.97,2.05*1E
$GNGSA,A,3,69,81,82,79,,,,,,,,,2.26,0.97,2.05*11
$GPGSV,5,1,17,08,06,319,,10,17,000,,16,25,245,19,18,33,080,26*77
$GPGSV,5,2,17,23,03,038,,25,01,125,,26,29,213,22,27,41,312,30*7D
$GPGSV,5,3,17,28,47,154,24,29,16,147,16,31,32,188,17,32,61,358,20*71
$GPGSV,5,4,17,36,52,277,32,40,84,353,30,41,58,082,,49,32,274,*7E
$GPGSV,5,5,17,50,10,089,*4A
$GLGSV,2,1,08,68,20,003,,69,49,312,14,70,21,234,,79,12,144,20*69
$GLGSV,2,2,08,80,14,196,,81,20,135,19,82,51,087,22,83,36,010,19*6C
$GNGLL,0420.00788,S,05539.68546,E,112617.00,A,A*6A
$GNRMC,112618.00,A,0420.00786,S,05539.68549,E,0.080,,020625,,,A*76
$GNVTG,,T,,M,0.080,N,0.148,K,A*38
$GNGGA,112618.00,0420.00786,S,05539.68549,E,1,11,1.00,16.0,M,-47.6,M,,*4F
$GNGSA,A,3,32,29,26,28,18,16,31,27,,,,,2.28,1.00,2.05*1F
$GNGSA,A,3,81,82,79,,,,,,,,,,2.28,1.00,2.05*1F
$GPGSV,5,1,17,08,06,319,,10,17,000,,16,25,245,17,18,33,080,27*78
$GPGSV,5,2,17,23,03,038,,25,01,125,,26,29,213,22,27,41,312,30*7D
$GPGSV,5,3,17,28,47,154,23,29,16,147,19,31,32,188,16,32,61,358,21*79
$GPGSV,5,4,17,36,52,277,33,40,84,353,31,41,58,082,,49,32,274,*7E
$GPGSV,5,5,17,50,10,089,*4A
$GLGSV,2,1,08,68,20,003,,69,49,312,09,70,21,234,,79,12,144,18*6E
$GLGSV,2,2,08,80,14,196,,81,20,135,20,82,51,087,23,83,36,010,21*6C
$GNGLL,0420.00786,S,05539.68549,E,112618.00,A,A*64
$GNRMC,112619.00,A,0420.00783,S,05539.68547,E,0.063,,020625,,,A*71
$GNVTG,,T,,M,0.063,N,0.116,K,A*3E
$GNGGA,112619.00,0420.00783,S,05539.68547,E,1,11,1.04,16.5,M,-47.6,M,,*44
$GNGSA,A,3,32,29,26,28,18,31,27,,,,,,2.38,1.04,2.14*1D
$GNGSA,A,3,69,81,82,79,,,,,,,,,2.38,1.04,2.14*15
$GPGSV,5,1,17,08,06,319,,10,17,000,,16,25,245,,18,33,080,32*7A
$GPGSV,5,2,17,23,03,038,,25,01,125,,26,29,213,20,27,41,312,33*7C
$GPGSV,5,3,17,28,47,154,22,29,16,147,19,31,32,188,13,32,61,358,22*7E
$GPGSV,5,4,17,36,52,277,35,40,84,353,31,41,58,082,,49,32,274,*78
$GPGSV,5,5,17,50,10,089,*4A
$GLGSV,2,1,08,68,20,003,,69,49,312,16,70,21,234,,79,12,144,18*60
$GLGSV,2,2,08,80,14,196,,81,20,135,20,82,51,087,24,83,36,010,19*60
$GNGLL,0420.00783,S,05539.68547,E,112619.00,A,A*6E
$GNRMC,112620.00,A,0420.00772,S,05539.68551,E,0.340,,020625,,,A*70
$GNVTG,,T,,M,0.340,N,0.630,K,A*3F
$GNGGA,112620.00,0420.00772,S,05539.68551,E,1,11,1.04,16.1,M,-47.6,M,,*43
$GNGSA,A,3,32,29,26,28,18,31,27,,,,,,2.38,1.04,2.14*1D
$GNGSA,A,3,69,81,82,79,,,,,,,,,2.38,1.04,2.14*15
$GPGSV,5,1,17,08,06,319,,10,17,000,,16,25,245,,18,33,080,26*7F
$GPGSV,5,2,17,23,03,038,,25,01,125,,26,29,213,20,27,41,312,29*77
$GPGSV,5,3,17,28,47,154,23,29,16,147,19,31,32,188,16,32,61,358,21*79
$GPGSV,5,4,17,36,52,277,31,40,84,353,31,41,58,082,,49,32,274,*7C
$GPGSV,5,5,17,50,10,089,*4A
$GLGSV,2,1,08,68,20,003,,69,49,312,14,70,21,234,,79,12,144,17*6D
$GLGSV,2,2,08,80,14,196,,81,20,135,19,82,51,087,22,83,36,010,18*6D
$GNGLL,0420.00772,S,05539.68551,E,112620.00,A,A*6D
$GNRMC,112621.00,A,0420.00780,S,05539.68551,E,0.148,,020625,,,A*76
$GNVTG,,T,,M,0.148,N,0.275,K,A*30
$GNGGA,112621.00,0420.00780,S,05539.68551,E,1,11,1.04,15.7,M,-47.6,M,,*4A
$GNGSA,A,3,32,29,26,28,18,31,27,,,,,,2.38,1.04,2.14*1D
$GNGSA,A,3,69,81,82,79,,,,,,,,,2.38,1.04,2.14*15
$GPGSV,5,1,17,08,06,319,,10,17,000,,16,25,245,17,18,33,080,26*79
$GPGSV,5,2,17,23,03,038,,25,01,125,,26,29,213,22,27,41,312,33*7E
$GPGSV,5,3,17,28,47,154,24,29,16,147,17,31,32,188,15,32,61,358,23*71
$GPGSV,5,4,17,36,52,277,36,40,84,353,32,41,58,082,,49,32,274,*78
$GPGSV,5,5,17,50,10,089,*4A
$GLGSV,2,1,08,68,20,003,,69,49,312,13,70,21,234,,79,12,144,17*6A
$GLGSV,2,2,08,80,14,196,,81,20,135,19,82,51,087,23,83,36,010,19*6D
$GNGLL,0420.00780,S,05539.68551,E,112621.00,A,A*61
$GNRMC,112622.00,A,0420.00786,S,05539.68554,E,0.077,,020625,,,A*7B
$GNVTG,,T,,M,0.077,N,0.142,K,A*3A
$GNGGA,112622.00,0420.00786,S,05539.68554,E,1,11,1.04,16.3,M,-47.6,M,,*4D
$GNGSA,A,3,32,29,26,28,18,31,27,,,,,,2.38,1.04,2.14*1D
$GNGSA,A,3,69,81,82,79,,,,,,,,,2.38,1.04,2.14*15
$GPGSV,5,1,17,08,06,319,,10,17,000,,16,25,245,20,18,33,080,33*79
$GPGSV,5,2,17,23,03,038,,25,01,125,,26,29,213,24,27,41,312,34*7F
$GPGSV,5,3,17,28,47,154,26,29,16,147,16,31,32,188,26,32,61,358,22*73
$GPGSV,5,4,17,36,52,277,36,40,84,353,37,41,58,082,,49,32,274,*7D
$GPGSV,5,5,17,50,10,089,*4A
$GLGSV,2,1,08,68,20,003,,69,49,312,23,70,21,234,,79,12,144,18*66
$GLGSV,2,2,08,80,14,196,,81,20,135,23,82,51,087,25,83,36,010,21*69
$GNGLL,0420.00786,S,05539.68554,E,112622.00,A,A*61
$GNRMC,112623.00,A,0420.00786,S,05539.68552,E,0.114,,020625,,,A*78
$GNVTG,,T,,M,0.114,N,0.210,K,A*3A
$GNGGA,112623.00,0420.00786,S,05539.68552,E,1,11,1.04,16.4,M,-47.6,M,,*4D
$GNGSA,A,3,32,29,26,28,18,31,27,,,,,,2.38,1.04,2.14*1D
$GNGSA,A,3,69,81,82,79,,,,,,,,,2.38,1.04,2.14*15
$GPGSV,5,1,17,08,06,319,,10,17,000,,16,25,245,19,18,33,080,33*73
$GPGSV,5,2,17,23,03,038,,25,01,125,,26,29,213,26,27,41,312,34*7D
$GPGSV,5,3,17,28,47,154,24,29,16,147,20,31,32,188,26,32,61,358,20*76
$GPGSV,5,4,17,36,52,277,32,40,84,353,36,41,58,082,,49,32,274,*78
$GPGSV,5,5,17,50,10,089,*4A
$GLGSV,2,1,08,68,20,003,,69,49,312,26,70,21,234,,79,12,144,19*62
$GLGSV,2,2,08,80,14,196,,81,20,135,22,82,51,087,24,83,36,010,20*68
$GNGLL,0420.00786,S,05539.68552,E,112623.00,A,A*66
$GNRMC,112624.00,A,0420.00789,S,05539.68556,E,0.180,,020625,,,A*79
$GNVTG,,T,,M,0.180,N,0.333,K,A*37
$GNGGA,112624.00,0420.00789,S,05539.68556,E,1,12,0.97,16.8,M,-47.6,M,,*45
$GNGSA,A,3,32,29,26,28,18,16,31,27,,,,,2.26,0.97,2.05*1E
$GNGSA,A,3,69,81,82,79,,,,,,,,,2.26,0.97,2.05*11
$GPGSV,5,1,17,08,06,319,,10,17,000,,16,25,245,20,18,33,080,32*78
$GPGSV,5,2,17,23,03,038,,25,01,125,,26,29,213,27,27,41,312,36*7E
$GPGSV,5,3,17,28,47,154,25,29,16,147,22,31,32,188,22,32,61,358,19*7B
$GPGSV,5,4,17,36,52,277,35,40,84,353,39,41,58,082,,49,32,274,*70
$GPGSV,5,5,17,50,10,089,*4A
$GLGSV,2,1,08,68,20,003,,69,49,312,25,70,21,234,,79,12,144,16*6E
$GLGSV,2,2,08,80,14,196,,81,20,135,20,82,51,087,21,83,36,010,23*6C
$GNGLL,0420.00789,S,05539.68556,E,112624.00,A,A*6A
$GNRMC,112625.00,A,0420.00780,S,05539.68557,E,0.135,,020625,,,A*7E
$GNVTG,,T,,M,0.135,N,0.250,K,A*3D
$GNGGA,112625.00,0420.00780,S,05539.68557,E,1,12,0.97,16.7,M,-47.6,M,,*43
$GNGSA,A,3,32,29,26,28,18,16,31,27,,,,,2.26,0.97,2.05*1E
$GNGSA,A,3,69,81,82,79,,,,,,,,,2.26,0.97,2.05*11
$GPGSV,5,1,17,08,06,319,,10,17,000,,16,25,245,20,18,33,080,30*7A
$GPGSV,5,2,17,23,03,038,,25,01,125,,26,29,213,28,27,41,312,36*71
$GPGSV,5,3,17,28,47,154,30,29,16,147,23,31,32,188,22,32,61,358,20*74
$GPGSV,5,4,17,36,52,277,36,40,84,353,37,41,58,082,,49,32,274,*7D
$GPGSV,5,5,17,50,10,089,*4A
$GLGSV,2,1,08,68,20,003,,69,49,312,25,70,21,234,,79,12,144,15*6D
$GLGSV,2,2,08,80,14,196,,81,20,135,23,82,51,087,20,83,36,010,24*69
$GNGLL,0420.00780,S,05539.68557,E,112625.00,A,A*63
$GNRMC,112626.00,A,0420.00783,S,05539.68556,E,0.279,,020625,,,A*74
$GNVTG,,T,,M,0.279,N,0.517,K,A*32
$GNGGA,112626.00,0420.00783,S,05539.68556,E,1,12,0.97,16.7,M,-47.6,M,,*42
$GNGSA,A,3,32,29,26,28,18,16,31,27,,,,,2.26,0.97,2.04*1F
$GNGSA,A,3,69,81,82,79,,,,,,,,,2.26,0.97,2.04*10
$GPGSV,5,1,17,08,06,319,,10,17,000,,16,25,245,24,18,33,080,29*76
$GPGSV,5,2,17,23,03,038,,25,01,125,,26,29,213,26,27,41,312,34*7D
$GPGSV,5,3,17,28,47,154,22,29,16,147,20,31,32,188,18,32,61,358,21*7C
$GPGSV,5,4,17,36,52,277,34,40,84,353,37,41,58,082,,49,32,274,*7F
$GPGSV,5,5,17,50,10,089,*4A
$GLGSV,2,1,08,68,20,003,,69,49,312,27,70,21,234,,79,12,144,16*6C
$GLGSV,2,2,08,80,14,196,,81,20,135,21,82,51,087,20,83,36,010,25*6A
$GNGLL,0420.00783,S,05539.68556,E,112626.00,A,A*62
$GNRMC,112627.00,A,0420.00790,S,05539.68557,E,0.234,,020625,,,A*7F
$GNVTG,,T,,M,0.234,N,0.433,K,A*3C
$GNGGA,112627.00,0420.00790,S,05539.68557,E,1,12,0.97,16.9,M,-47.6,M,,*4E
$GNGSA,A,3,32,29,26,28,18,16,31,27,,,,,2.26,0.97,2.04*1F
$GNGSA,A,3,69,81,82,79,,,,,,,,,2.26,0.97,2.04*10
$GPGSV,5,1,17,08,06,319,,10,17,000,,16,25,245,25,18,33,080,29*77
$GPGSV,5,2,17,23,03,038,,25,01,125,,26,29,213,32,27,41,312,37*7B
$GPGSV,5,3,17,28,47,154,27,29,16,147,19,31,32,188,21,32,61,358,22*7A
$GPGSV,5,4,17,36,52,277,36,40,84,353,37,41,58,082,,49,32,274,*7D
$GPGSV,5,5,17,50,10,089,*4A
$GLGSV,2,1,08,68,20,003,,69,49,312,29,70,21,234,,79,12,144,16*62
$GLGSV,2,2,08,80,14,196,,81,20,135,22,82,51,087,30,83,36,010,25*68
$GNGLL,0420.00790,S,05539.68557,E,112627.00,A,A*60
$GNRMC,112628.00,A,0420.00795,S,05539.68559,E,0.079,,020625,,,A*70
$GNVTG,,T,,M,0.079,N,0.147,K,A*31
$GNGGA,112628.00,0420.00795,S,05539.68559,E,1,12,0.97,17.1,M,-47.6,M,,*43
$GNGSA,A,3,32,29,26,28,18,16,31,27,,,,,2.26,0.97,2.04*1F
$GNGSA,A,3,69,81,82,79,,,,,,,,,2.26,0.97,2.04*10
$GPGSV,5,1,17,08,06,319,,10,17,000,13,16,25,245,25,18,33,080,29*75
$GPGSV,5,2,17,23,03,038,,25,01,125,05,26,29,213,30,27,41,312,35*7E
$GPGSV,5,3,17,28,47,154,26,29,16,147,17,31,32,188,31,32,61,358,23*75
$GPGSV,5,4,17,36,52,277,36,40,84,353,37,41,58,082,,49,32,274,*7D
$GPGSV,5,5,17,50,10,089,*4A
$GLGSV,2,1,08,68,20,003,,69,49,312,29,70,21,234,,79,12,144,15*61
$GLGSV,2,2,08,80,14,196,,81,20,135,22,82,51,087,29,83,36,010,25*60
$GNGLL,0420.00795,S,05539.68559,E,112628.00,A,A*64
$GNRMC,112629.00,A,0420.00776,S,05539.68568,E,0.090,,020625,,,A*79
$GNVTG,,T,,M,0.090,N,0.168,K,A*3B
$GNGGA,112629.00,0420.00776,S,05539.68568,E,1,12,0.97,16.8,M,-47.6,M,,*45
$GNGSA,A,3,32,29,26,28,18,16,31,27,,,,,2.26,0.97,2.04*1F
$GNGSA,A,3,69,81,82,79,,,,,,,,,2.26,0.97,2.04*10
$GPGSV,5,1,17,08,06,319,,10,17,000,,16,25,245,25,18,33,080,30*7F
$GPGSV,5,2,17,23,03,038,,25,01,125,07,26,29,213,28,27,41,312,35*75
$GPGSV,5,3,17,28,47,154,28,29,16,147,19,31,32,188,30,32,61,358,22*75
$GPGSV,5,4,17,36,52,277,37,40,84,353,37,41,58,082,,49,32,274,*7C
$GPGSV,5,5,17,50,10,089,*4A
$GLGSV,2,1,08,68,20,003,,69,49,312,28,70,21,234,,79,12,144,15*60
$GLGSV,2,2,08,80,14,196,,81,20,135,21,82,51,087,28,83,36,010,25*62
$GNGLL,0420.00776,S,05539.68568,E,112629.00,A,A*6A
$GNRMC,112630.00,A,0420.00768,S,05539.68578,E,0.021,,020625,,,A*75
$GNVTG,,T,,M,0.021,N,0.039,K,A*34
$GNGGA,112630.00,0420.00768,S,05539.68578,E,1,12,0.97,17.3,M,-47.6,M,,*49
$GNGSA,A,3,32,29,26,28,18,16,31,27,,,,,2.26,0.97,2.04*1F
$GNGSA,A,3,69,81,82,79,,,,,,,,,2.26,0.97,2.04*10
$GPGSV,5,1,17,08,06,319,,10,17,000,,16,25,245,22,18,33,080,31*79
$GPGSV,5,2,17,23,03,038,,25,01,125,08,26,29,213,30,27,41,312,37*71
$GPGSV,5,3,17,28,47,154,27,29,16,147,19,31,32,188,28,32,61,358,23*72
$GPGSV,5,4,17,36,52,277,37,40,84,353,38,41,58,082,,49,32,274,*73
$GPGSV,5,5,17,50,10,089,*4A
$GLGSV,2,1,08,68,20,003,,69,49,312,28,70,21,234,,79,12,144,18*6D
$GLGSV,2,2,08,80,14,196,,81,20,135,19,82,51,087,28,83,36,010,23*6F
$GNGLL,0420.00768,S,05539.68578,E,112630.00,A,A*6C
$GNRMC,112631.00,A,0420.00778,S,05539.68582,E,0.034,,020625,,,A*74
$GNVTG,,T,,M,0.034,N,0.064,K,A*38
$GNGGA,112631.00,0420.00778,S,05539.68582,E,1,12,0.97,18.5,M,-47.6,M,,*45
$GNGSA,A,3,32,29,26,28,18,16,31,27,,,,,2.26,0.97,2.04*1F
$GNGSA,A,3,69,81,82,79,,,,,,,,,2.26,0.97,2.04*10
$GPGSV,5,1,17,08,06,319,,10,17,000,,16,25,245,20,18,33,080,30*7A
$GPGSV,5,2,17,23,03,038,,25,01,125,10,26,29,213,31,27,41,312,35*7B
$GPGSV,5,3,17,28,47,154,27,29,16,147,21,31,32,188,26,32,61,358,25*71
$GPGSV,5,4,17,36,52,277,36,40,84,353,36,41,58,082,,49,32,274,*7C
$GPGSV,5,5,17,50,10,089,*4A
$GLGSV,2,1,08,68,20,003,,69,49,312,26,70,21,234,,79,12,144,19*62
$GLGSV,2,2,08,80,14,196,,81,20,135,21,82,51,087,29,83,36,010,23*65
$GNGLL,0420.00778,S,05539.68582,E,112631.00,A,A*69
$GNRMC,112632.00,A,0420.00787,S,05539.68582,E,0.043,,020625,,,A*77
$GNVTG,,T,,M,0.043,N,0.079,K,A*34
$GNGGA,112632.00,0420.00787,S,05539.68582,E,1,12,0.97,19.1,M,-47.6,M,,*43
$GNGSA,A,3,32,29,26,28,18,16,31,27,,,,,2.26,0.97,2.04*1F
$GNGSA,A,3,69,81,82,79,,,,,,,,,2.26,0.97,2.04*10
$GPGSV,5,1,17,08,06,319,,10,17,000,,16,25,245,21,18,33,080,29*73
$GPGSV,5,2,17,23,03,038,,25,01,125,13,26,29,213,29,27,41,312,32*76
$GPGSV,5,3,17,28,47,154,25,29,16,147,23,31,32,188,28,32,61,358,24*7E
$GPGSV,5,4,17,36,52,277,36,40,84,353,36,41,58,082,,49,32,274,*7C
$GPGSV,5,5,17,50,10,089,*4A
$GLGSV,2,1,08,68,20,003,,69,49,312,26,70,21,234,,79,12,144,17*6C
$GLGSV,2,2,08,80,14,196,,81,20,135,21,82,51,087,30,83,36,010,25*6B
$GNGLL,0420.00787,S,05539.68582,E,112632.00,A,A*6A
$GNRMC,112633.00,A,0420.00778,S,05539.68583,E,0.033,,020625,,,A*70
$GNVTG,,T,,M,0.033,N,0.061,K,A*3A
$GNGGA,112633.00,0420.00778,S,05539.68583,E,1,12,1.13,18.9,M,-47.6,M,,*47
$GNGSA,A,3,32,29,26,28,18,16,31,27,,,,,2.84,1.13,2.60*18
$GNGSA,A,3,69,81,82,79,,,,,,,,,2.84,1.13,2.60*17
$GPGSV,5,1,17,08,06,319,,10,17,000,,16,25,245,21,18,33,080,28*72
$GPGSV,5,2,17,23,03,038,,25,01,125,12,26,29,213,28,27,41,312,34*70
$GPGSV,5,3,17,28,47,154,23,29,16,147,21,31,32,188,29,32,61,358,24*7B
$GPGSV,5,4,17,36,52,277,36,40,84,353,34,41,58,082,,49,32,274,*7E
$GPGSV,5,5,17,50,10,089,*4A
$GLGSV,2,1,08,68,20,003,,69,49,312,26,70,21,234,,79,12,144,14*6F
$GLGSV,2,2,08,80,14,196,,81,20,135,22,82,51,087,29,83,36,010,27*62
$GNGLL,0420.00778,S,05539.68583,E,112633.00,A,A*6A
$GNRMC,112634.00,A,0420.00782,S,05539.68585,E,0.128,,020625,,,A*7F
$GNVTG,,T,,M,0.128,N,0.236,K,A*31
$GNGGA,112634.00,0420.00782,S,05539.68585,E,1,12,0.97,19.0,M,-47.6,M,,*46
$GNGSA,A,3,32,29,26,28,18,16,31,27,,,,,2.26,0.97,2.04*1F
$GNGSA,A,3,69,81,82,79,,,,,,,,,2.26,0.97,2.04*10
$GPGSV,5,1,17,08,06,319,,10,17,000,,16,25,245,25,18,33,080,27*79
$GPGSV,5,2,17,23,03,038,,25,01,125,11,26,29,213,27,27,41,312,34*7C
$GPGSV,5,3,17,28,47,154,25,29,16,147,20,31,32,188,29,32,61,358,25*7D
$GPGSV,5,4,17,36,52,277,35,40,84,353,38,41,58,082,,49,32,274,*71
$GPGSV,5,5,17,50,10,089,*4A
$GLGSV,2,1,08,68,20,003,,69,49,312,26,70,21,234,,79,12,144,16*6D
$GLGSV,2,2,08,80,14,196,,81,20,135,21,82,51,087,23,83,36,010,25*69
$GNGLL,0420.00782,S,05539.68585,E,112634.00,A,A*6E
$GNRMC,112635.00,A,0420.00791,S,05539.68584,E,0.027,,020625,,,A*73
$GNVTG,,T,,M,0.027,N,0.049,K,A*35
$GNGGA,112635.00,0420.00791,S,05539.68584,E,1,12,0.97,19.9,M,-47.6,M,,*4D
$GNGSA,A,3,32,29,26,28,18,16,31,27,,,,,2.26,0.97,2.04*1F
$GNGSA,A,3,69,81,82,79,,,,,,,,,2.26,0.97,2.04*10
$GPGSV,5,1,17,08,06,319,,10,17,000,,16,25,245,23,18,33,080,33*7A
$GPGSV,5,2,17,23,03,038,,25,01,125,10,26,29,213,27,27,41,312,34*7D
$GPGSV,5,3,17,28,47,154,30,29,16,147,17,31,32,188,28,32,61,358,23*7A
$GPGSV,5,4,17,36,52,277,35,40,84,353,38,41,58,082,,49,32,274,*71
$GPGSV,5,5,17,50,10,089,*4A
$GLGSV,2,1,08,68,20,003,,69,49,312,28,70,21,234,,79,12,144,17*62
$GLGSV,2,2,08,80,14,196,,81,20,135,22,82,51,087,23,83,36,010,27*68
$GNGLL,0420.00791,S,05539.68584,E,112635.00,A,A*6C
$GNRMC,112636.00,A,0420.00782,S,05539.68587,E,0.051,,020625,,,A*70
$GNVTG,,T,,M,0.051,N,0.094,K,A*34
$GNGGA,112636.00,0420.00782,S,05539.68587,E,1,12,0.97,20.4,M,-47.6,M,,*48
$GNGSA,A,3,32,29,26,28,18,16,31,27,,,,,2.26,0.97,2.04*1F
$GNGSA,A,3,69,81,82,79,,,,,,,,,2.26,0.97,2.04*10
$GPGSV,5,1,17,08,06,319,,10,17,000,,16,25,245,23,18,33,080,28*70
$GPGSV,5,2,17,23,03,038,,25,01,125,13,26,29,213,28,27,41,312,32*77
$GPGSV,5,3,17,28,47,154,29,29,16,147,20,31,32,188,28,32,61,358,20*75
$GPGSV,5,4,17,36,52,277,34,40,84,353,37,41,58,082,,49,32,274,*7F
$GPGSV,5,5,17,50,10,089,*4A
$GLGSV,2,1,08,68,20,003,,69,49,312,26,70,21,234,,79,12,144,16*6D
$GLGSV,2,2,08,80,14,196,,81,20,135,23,82,51,087,21,83,36,010,29*65
$GNGLL,0420.00782,S,05539.68587,E,112636.00,A,A*6E
$GNRMC,112637.00,A,0420.00767,S,05539.68592,E,0.096,,020625,,,A*75
$GNVTG,,T,,M,0.096,N,0.177,K,A*33
$GNGGA,112637.00,0420.00767,S,05539.68592,E,1,12,0.97,20.1,M,-47.6,M,,*43
$GNGSA,A,3,32,29,26,28,18,16,31,27,,,,,2.26,0.97,2.04*1F
$GNGSA,A,3,69,81,82,79,,,,,,,,,2.26,0.97,2.04*10
$GPGSV,5,1,17,08,06,319,,10,17,000,,16,25,245,22,18,33,080,27*7E
$GPGSV,5,2,17,23,03,038,,25,01,125,11,26,29,213,28,27,41,312,33*74
$GPGSV,5,3,17,28,47,154,28,29,16,147,19,31,32,188,27,32,61,358,17*75
$GPGSV,5,4,17,36,52,277,36,40,84,353,35,41,58,082,,49,32,274,*7F
$GPGSV,5,5,17,50,10,089,*4A
$GLGSV,2,1,08,68,20,003,,69,49,312,27,70,21,234,,79,12,144,15*6F
$GLGSV,2,2,08,80,14,196,,81,20,135,25,82,51,087,21,83,36,010,27*6D
$GNGLL,0420.00767,S,05539.68592,E,112637.00,A,A*60
$GNRMC,112638.00,A,0420.00755,S,05539.68589,E,0.106,,020625,,,A*79
$GNVTG,,T,,M,0.106,N,0.197,K,A*35
$GNGGA,112638.00,0420.00755,S,05539.68589,E,1,12,0.97,20.0,M,-47.6,M,,*46
$GNGSA,A,3,32,29,26,28,18,16,31,27,,,,,2.26,0.97,2.04*1F
$GNGSA,A,3,69,81,82,79,,,,,,,,,2.26,0.97,2.04*10
$GPGSV,5,1,17,08,06,319,,10,17,000,,16,25,245,22,18,33,080,32*7A
$GPGSV,5,2,17,23,03,038,,25,01,125,09,26,29,213,32,27,41,312,33*76
$GPGSV,5,3,17,28,47,154,28,29,16,147,18,31,32,188,27,32,61,358,18*7B
$GPGSV,5,4,17,36,52,277,36,40,84,353,37,41,58,082,,49,32,274,*7D
$GPGSV,5,5,17,50,10,089,*4A
$GLGSV,2,1,08,68,19,004,,69,49,312,26,70,21,234,,79,12,144,16*60
$GLGSV,2,2,08,80,14,196,,81,20,135,24,82,51,087,30,83,36,010,27*6C
$GNGLL,0420.00755,S,05539.68589,E,112638.00,A,A*64
$GNRMC,112639.00,A,0420.00736,S,05539.68589,E,0.076,,020625,,,A*7B
$GNVTG,,T,,M,0.076,N,0.140,K,A*39
$GNGGA,112639.00,0420.00736,S,05539.68589,E,1,12,0.97,19.4,M,-47.6,M,,*4C
$GNGSA,A,3,32,29,26,28,18,16,31,27,,,,,2.26,0.97,2.04*1F
$GNGSA,A,3,69,81,82,79,,,,,,,,,2.26,0.97,2.04*10
$GPGSV,5,1,17,08,06,319,,10,17,000,,16,25,245,21,18,33,080,31*7A
$GPGSV,5,2,17,23,03,038,,25,01,125,08,26,29,213,30,27,41,312,32*74
$GPGSV,5,3,17,28,47,154,26,29,16,147,17,31,32,188,25,32,61,358,17*77
$GPGSV,5,4,17,36,52,277,34,40,84,353,39,41,58,082,,49,32,274,*71
$GPGSV,5,5,17,50,10,089,*4A
$GLGSV,2,1,08,68,19,004,,69,49,313,29,70,21,234,,79,12,144,17*6F
$GLGSV,2,2,08,80,14,196,,81,20,135,21,82,51,087,29,83,36,010,25*63
$GNGLL,0420.00736,S,05539.68589,E,112639.00,A,A*60
$GNRMC,112640.00,A,0420.00720,S,05539.68590,E,0.099,,020625,,,A*7B
$GNVTG,,T,,M,0.099,N,0.183,K,A*37
$GNGGA,112640.00,0420.00720,S,05539.68590,E,1,12,0.97,18.9,M,-47.6,M,,*41
$GNGSA,A,3,32,29,26,28,18,16,31,27,,,,,2.26,0.97,2.04*1F
$GNGSA,A,3,69,81,82,79,,,,,,,,,2.26,0.97,2.04*10
$GPGSV,5,1,17,08,06,319,,10,17,000,,16,25,245,22,18,33,080,30*78
$GPGSV,5,2,17,23,03,038,,25,01,125,13,26,29,213,30,27,41,312,34*78
$GPGSV,5,3,17,28,47,154,29,29,16,147,16,31,32,188,25,32,61,358,17*79
$GPGSV,5,4,17,36,52,277,35,40,84,353,35,41,58,082,,49,32,274,*7C
$GPGSV,5,5,17,50,10,089,*4A
$GLGSV,2,1,08,68,19,004,,69,49,313,29,70,21,234,,79,12,144,18*60
$GLGSV,2,2,08,80,14,196,,81,20,135,24,82,51,087,28,83,36,010,25*67
$GNGLL,0420.00720,S,05539.68590,E,112640.00,A,A*61
$GNRMC,112641.00,A,0420.00699,S,05539.68592,E,0.036,,020625,,,A*7E
$GNVTG,,T,,M,0.036,N,0.067,K,A*39
$GNGGA,112641.00,0420.00699,S,05539.68592,E,1,12,0.97,18.3,M,-47.6,M,,*4B
$GNGSA,A,3,32,29,26,28,18,16,31,27,,,,,2.26,0.97,2.04*1F
$GNGSA,A,3,69,81,82,79,,,,,,,,,2.26,0.97,2.04*10
$GPGSV,5,1,17,08,06,319,,10,17,000,,16,25,245,25,18,33,080,29*77
$GPGSV,5,2,17,23,03,038,,25,01,125,10,26,29,213,28,27,41,312,34*72
$GPGSV,5,3,17,28,47,154,29,29,16,147,17,31,32,188,31,32,61,358,20*79
$GPGSV,5,4,17,36,52,277,38,40,84,353,38,41,58,082,,49,32,274,*7C
$GPGSV,5,5,17,50,10,089,*4A
$GLGSV,2,1,08,68,19,004,,69,49,313,27,70,21,234,,79,12,144,18*6E
$GLGSV,2,2,08,80,14,196,,81,20,135,24,82,51,087,27,83,36,010,26*6B
$GNGLL,0420.00699,S,05539.68592,E,112641.00,A,A*61
$GNRMC,112642.00,A,0420.00677,S,05539.68596,E,0.086,,020625,,,A*72
$GNVTG,,T,,M,0.086,N,0.159,K,A*3E
$GNGGA,112642.00,0420.00677,S,05539.68596,E,1,12,0.97,17.8,M,-47.6,M,,*48
$GNGSA,A,3,32,29,26,28,18,16,31,27,,,,,2.26,0.97,2.04*1F
$GNGSA,A,3,69,81,82,79,,,,,,,,,2.26,0.97,2.04*10
$GPGSV,5,1,17,08,06,319,,10,17,000,,16,25,245,25,18,33,080,31*7E
$GPGSV,5,2,17,23,03,038,,25,01,125,12,26,29,213,33,27,41,312,33*7D
$GPGSV,5,3,17,28,47,154,29,29,16,147,18,31,32,188,30,32,61,358,21*76
$GPGSV,5,4,17,36,52,277,38,40,84,353,37,41,58,082,,49,32,274,*73
$GPGSV,5,5,17,50,10,089,*4A
$GLGSV,2,1,08,68,19,004,,69,49,313,28,70,21,234,,79,12,144,18*61
$GLGSV,2,2,08,80,14,196,,81,20,135,24,82,51,087,28,83,36,010,24*66
$GNGLL,0420.00677,S,05539.68596,E,112642.00,A,A*66
$GNRMC,112643.00,A,0420.00658,S,05539.68595,E,0.067,,020625,,,A*72
$GNVTG,,T,,M,0.067,N,0.124,K,A*3B
$GNGGA,112643.00,0420.00658,S,05539.68595,E,1,12,0.97,17.0,M,-47.6,M,,*4F
$GNGSA,A,3,32,29,26,28,18,16,31,27,,,,,2.26,0.97,2.04*1F
$GNGSA,A,3,69,81,82,79,,,,,,,,,2.26,0.97,2.04*10
$GPGSV,5,1,17,08,06,319,,10,17,000,,16,25,245,25,18,33,080,31*7E
$GPGSV,5,2,17,23,03,038,,25,01,125,11,26,29,213,33,27,41,312,34*79
$GPGSV,5,3,17,28,47,154,32,29,16,147,19,31,32,188,25,32,61,358,20*78
$GPGSV,5,4,17,36,52,277,37,40,84,353,38,41,58,082,,49,32,274,*73
$GPGSV,5,5,17,50,10,089,*4A
$GLGSV,2,1,08,68,19,004,,69,49,313,29,70,21,234,,79,12,144,19*61
$GLGSV,2,2,08,80,14,196,,81,20,135,26,82,51,087,33,83,36,010,23*69
$GNGLL,0420.00658,S,05539.68595,E,112643.00,A,A*69
$GNRMC,112644.00,A,0420.00633,S,05539.68597,E,0.024,,020625,,,A*7D
$GNVTG,,T,,M,0.024,N,0.044,K,A*3B
$GNGGA,112644.00,0420.00633,S,05539.68597,E,1,12,0.97,16.0,M,-47.6,M,,*46
$GNGSA,A,3,32,29,26,28,18,16,31,27,,,,,2.26,0.97,2.04*1F
$GNGSA,A,3,69,81,82,79,,,,,,,,,2.26,0.97,2.04*10
$GPGSV,5,1,17,08,06,319,,10,17,000,,16,25,245,26,18,33,080,32*7E
$GPGSV,5,2,17,23,03,038,,25,01,125,09,26,29,213,32,27,41,312,35*70
$GPGSV,5,3,17,28,47,154,31,29,16,147,20,31,32,188,30,32,61,358,20*75
$GPGSV,5,4,17,36,52,277,37,40,84,353,38,41,58,082,,49,32,274,*73
$GPGSV,5,5,17,50,10,089,*4A
$GLGSV,2,1,08,68,19,004,,69,49,313,29,70,21,234,,79,12,144,18*60
$GLGSV,2,2,08,80,14,196,,81,20,135,27,82,51,087,32,83,36,010,24*6E
$GNGLL,0420.00633,S,05539.68597,E,112644.00,A,A*61
$GNRMC,112645.00,A,0420.00617,S,05539.68597,E,0.026,,020625,,,A*78
$GNVTG,,T,,M,0.026,N,0.048,K,A*35
$GNGGA,112645.00,0420.00617,S,05539.68597,E,1,12,0.97,15.8,M,-47.6,M,,*4A
$GNGSA,A,3,32,29,26,28,18,16,31,27,,,,,2.26,0.97,2.04*1F
$GNGSA,A,3,69,81,82,79,,,,,,,,,2.26,0.97,2.04*10
$GPGSV,5,1,17,08,06,319,,10,17,000,,16,25,245,27,18,33,080,31*7C
$GPGSV,5,2,17,23,03,038,,25,01,125,08,26,29,213,31,27,41,312,34*73
$GPGSV,5,3,17,28,47,154,23,29,16,147,19,31,32,188,28,32,61,358,18*7E
$GPGSV,5,4,17,36,52,277,36,40,84,353,37,41,58,082,,49,32,274,*7D
$GPGSV,5,5,17,50,10,089,*4A
$GLGSV,2,1,08,68,19,004,,69,49,313,28,70,21,234,,79,12,144,18*61
$GLGSV,2,2,08,80,14,196,,81,20,135,27,82,51,087,31,83,36,010,25*6C
$GNGLL,0420.00617,S,05539.68597,E,112645.00,A,A*66
$GNRMC,112646.00,A,0420.00600,S,05539.68595,E,0.026,,020625,,,A*7F
$GNVTG,,T,,M,0.026,N,0.047,K,A*3A
$GNGGA,112646.00,0420.00600,S,05539.68595,E,1,12,0.97,15.4,M,-47.6,M,,*41
$GNGSA,A,3,32,29,26,28,18,16,31,27,,,,,2.26,0.97,2.04*1F
$GNGSA,A,3,69,81,82,79,,,,,,,,,2.26,0.97,2.04*10
$GPGSV,5,1,17,08,06,319,,10,17,000,,16,25,245,26,18,33,080,25*78
$GPGSV,5,2,17,23,03,038,,25,01,125,08,26,29,213,31,27,41,312,31*76
$GPGSV,5,3,17,28,47,154,30,29,16,147,18,31,32,188,28,32,61,358,22*74
$GPGSV,5,4,17,36,52,277,37,40,84,353,37,41,58,082,,49,32,274,*7C
$GPGSV,5,5,17,50,10,089,*4A
$GLGSV,2,1,08,68,19,004,,69,49,313,25,70,21,234,,79,12,144,19*6D
$GLGSV,2,2,08,80,14,196,22,81,20,135,28,82,51,087,31,83,36,010,25*63
$GNGLL,0420.00600,S,05539.68595,E,112646.00,A,A*61
$GNRMC,112647.00,A,0420.00586,S,05539.68593,E,0.020,,020625,,,A*73
$GNVTG,,T,,M,0.020,N,0.037,K,A*3B
$GNGGA,112647.00,0420.00586,S,05539.68593,E,1,12,0.97,14.8,M,-47.6,M,,*46
$GNGSA,A,3,32,29,26,28,18,16,31,27,,,,,2.26,0.97,2.04*1F
$GNGSA,A,3,69,81,82,79,,,,,,,,,2.26,0.97,2.04*10
$GPGSV,5,1,17,08,06,319,,10,17,000,,16,25,245,25,18,33,080,26*78
$GPGSV,5,2,17,23,03,038,,25,01,125,08,26,29,213,32,27,41,312,35*71
$GPGSV,5,3,17,28,47,154,29,29,16,147,20,31,32,188,33,32,61,358,20*7F
$GPGSV,5,4,17,36,52,277,37,40,84,353,37,41,58,082,,49,32,274,*7C
$GPGSV,5,5,17,50,10,089,*4A
$GLGSV,2,1,08,68,19,004,,69,49,313,26,70,21,234,,79,12,144,19*6E
$GLGSV,2,2,08,80,14,196,20,81,20,135,25,82,51,087,32,83,36,010,25*6F
$GNGLL,0420.00586,S,05539.68593,E,112647.00,A,A*6B
$GNRMC,112648.00,A,0420.00574,S,05539.68594,E,0.035,,020625,,,A*72
$GNVTG,,T,,M,0.035,N,0.064,K,A*39
$GNGGA,112648.00,0420.00574,S,05539.68594,E,1,12,0.97,13.9,M,-47.6,M,,*45
$GNGSA,A,3,32,29,26,28,18,16,31,27,,,,,2.26,0.97,2.04*1F
$GNGSA,A,3,69,81,82,79,,,,,,,,,2.26,0.97,2.04*10
$GPGSV,5,1,17,08,06,319,,10,17,000,,16,25,245,25,18,33,080,26*78
$GPGSV,5,2,17,23,03,038,,25,01,125,14,26,29,213,30,27,41,312,36*7D
$GPGSV,5,3,17,28,47,154,29,29,16,147,19,31,32,188,33,32,61,358,20*75
$GPGSV,5,4,17,36,52,277,36,40,84,353,37,41,58,082,,49,32,274,*7D
$GPGSV,5,5,17,50,10,089,*4A
$GLGSV,2,1,08,68,19,004,,69,49,313,26,70,21,234,,79,12,144,18*6F
$GLGSV,2,2,08,80,14,196,18,81,20,135,22,82,51,087,32,83,36,010,25*63
$GNGLL,0420.00574,S,05539.68594,E,112648.00,A,A*6E
$GNRMC,112649.00,A,0420.00558,S,05539.68591,E,0.061,,020625,,,A*79
$GNVTG,,T,,M,0.061,N,0.112,K,A*38
$GNGGA,112649.00,0420.00558,S,05539.68591,E,1,12,0.97,13.1,M,-47.6,M,,*47
$GNGSA,A,3,32,29,26,28,18,16,31,27,,,,,2.26,0.97,2.04*1F
$GNGSA,A,3,69,81,82,79,,,,,,,,,2.26,0.97,2.04*10
$GPGSV,5,1,17,08,06,319,,10,17,000,,16,25,245,25,18,33,080,31*7E
$GPGSV,5,2,17,23,03,038,,25,01,125,08,26,29,213,29,27,41,312,35*7B
$GPGSV,5,3,17,28,47,154,31,29,16,147,21,31,32,188,31,32,61,358,21*74
$GPGSV,5,4,17,36,52,277,36,40,84,353,36,41,58,082,,49,32,274,*7C
$GPGSV,5,5,17,50,10,089,*4A
$GLGSV,2,1,08,68,19,004,,69,49,313,25,70,21,234,,79,12,144,18*6C
$GLGSV,2,2,08,80,14,196,17,81,20,135,25,82,51,087,30,83,36,010,24*68
$GNGLL,0420.00558,S,05539.68591,E,112649.00,A,A*64
$GNRMC,112650.00,A,0420.00538,S,05539.68594,E,0.095,,020625,,,A*79
$GNVTG,,T,,M,0.095,N,0.176,K,A*31
$GNGGA,112650.00,0420.00538,S,05539.68594,E,1,12,0.97,12.6,M,-47.6,M,,*4A
$GNGSA,A,3,32,29,26,28,18,16,31,27,,,,,2.26,0.97,2.04*1F
$GNGSA,A,3,69,81,82,79,,,,,,,,,2.26,0.97,2.04*10
$GPGSV,5,1,17,08,06,319,,10,17,000,,16,25,245,26,18,33,080,30*7C
$GPGSV,5,2,17,23,03,038,,25,01,125,09,26,29,213,28,27,41,312,34*7A
$GPGSV,5,3,17,28,47,154,29,29,16,147,22,31,32,188,32,32,61,358,23*7F
$GPGSV,5,4,17,36,52,277,38,40,84,353,33,41,58,082,,49,32,274,*77
$GPGSV,5,5,17,50,10,089,*4A
$GLGSV,2,1,08,68,19,004,,69,49,313,24,70,21,234,,79,12,144,18*6D
$GLGSV,2,2,08,80,14,195,20,81,20,135,25,82,51,087,31,83,36,010,23*69
$GNGLL,0420.00538,S,05539.68594,E,112650.00,A,A*6F
$GNRMC,112651.00,A,0420.00521,S,05539.68602,E,0.024,,020625,,,A*76
$GNVTG,,T,,M,0.024,N,0.044,K,A*3B
$GNGGA,112651.00,0420.00521,S,05539.68602,E,1,12,0.97,12.7,M,-47.6,M,,*4E
$GNGSA,A,3,32,29,26,28,18,16,31,27,,,,,2.26,0.97,2.04*1F
$GNGSA,A,3,69,81,82,79,,,,,,,,,2.26,0.97,2.04*10
$GPGSV,5,1,17,08,06,319,,10,17,000,,16,25,245,32,18,33,080,31*78
$GPGSV,5,2,17,23,03,038,,25,01,125,11,26,29,213,26,27,41,312,34*7D
$GPGSV,5,3,17,28,47,154,28,29,16,147,21,31,32,188,35,32,61,358,24*7D
$GPGSV,5,4,17,36,52,277,38,40,84,353,36,41,58,082,,49,32,274,*72
$GPGSV,5,5,17,50,10,089,*4A
$GLGSV,2,1,08,68,19,004,,69,49,313,25,70,21,234,,79,12,144,18*6C
$GLGSV,2,2,08,80,14,195,18,81,19,135,21,82,51,087,31,83,36,010,22*6D
$GNGLL,0420.00521,S,05539.68602,E,112651.00,A,A*6A
$GNRMC,112652.00,A,0420.00511,S,05539.68608,E,0.075,,020625,,,A*78
$GNVTG,,T,,M,0.075,N,0.139,K,A*34
$GNGGA,112652.00,0420.00511,S,05539.68608,E,1,12,0.97,12.9,M,-47.6,M,,*4A
$GNGSA,A,3,32,29,26,28,18,16,31,27,,,,,2.26,0.97,2.04*1F
$GNGSA,A,3,69,81,82,79,,,,,,,,,2.26,0.97,2.04*10
$GPGSV,5,1,17,08,06,319,,10,17,000,,16,25,245,27,18,33,080,29*75
$GPGSV,5,2,17,23,03,038,,25,01,125,09,26,29,213,28,27,41,312,34*7A
$GPGSV,5,3,17,28,47,154,27,29,16,147,18,31,32,188,32,32,61,358,22*79
$GPGSV,5,4,17,36,52,277,35,40,84,353,37,41,58,082,,49,32,274,*7E
$GPGSV,5,5,17,50,10,089,*4A
$GLGSV,2,1,08,68,19,004,,69,49,313,26,70,21,234,,79,12,144,21*65
$GLGSV,2,2,08,80,14,195,17,81,19,135,19,82,51,088,30,83,36,010,21*64
$GNGLL,0420.00511,S,05539.68608,E,112652.00,A,A*60
$GNRMC,112653.00,A,0420.00500,S,05539.68614,E,0.105,,020625,,,A*72
$GNVTG,,T,,M,0.105,N,0.195,K,A*34
$GNGGA,112653.00,0420.00500,S,05539.68614,E,1,12,0.97,12.6,M,-47.6,M,,*49
$GNGSA,A,3,32,29,26,28,18,16,31,27,,,,,2.26,0.97,2.04*1F
$GNGSA,A,3,69,81,82,79,,,,,,,,,2.26,0.97,2.04*10
$GPGSV,5,1,17,08,06,319,,10,17,000,,16,25,245,27,18,33,080,30*7D
$GPGSV,5,2,17,23,03,038,,25,01,125,12,26,29,213,30,27,41,312,31*7C
$GPGSV,5,3,17,28,47,154,28,29,16,147,17,31,32,188,30,32,61,358,21*78
$GPGSV,5,4,17,36,52,277,37,40,84,353,37,41,58,082,,49,32,274,*7C
$GPGSV,5,5,17,50,10,089,*4A
$GLGSV,2,1,08,68,19,004,,69,49,313,24,70,21,234,,79,12,144,22*64
$GLGSV,2,2,08,80,14,195,17,81,19,135,15,82,51,088,24,83,37,011,21*6D
$GNGLL,0420.00500,S,05539.68614,E,112653.00,A,A*6C
$GNRMC,112654.00,A,0420.00492,S,05539.68612,E,0.137,,020625,,,A*78
$GNVTG,,T,,M,0.137,N,0.253,K,A*3C
$GNGGA,112654.00,0420.00492,S,05539.68612,E,1,12,0.97,11.9,M,-47.6,M,,*4E
$GNGSA,A,3,32,29,26,28,18,16,31,27,,,,,2.26,0.97,2.04*1F
$GNGSA,A,3,69,81,82,79,,,,,,,,,2.26,0.97,2.04*10
$GPGSV,5,1,17,08,06,319,,10,17,000,,16,25,245,25,18,33,080,29*77
$GPGSV,5,2,17,23,03,038,,25,01,125,10,26,29,213,31,27,41,312,31*7F
$GPGSV,5,3,17,28,47,154,30,29,16,147,15,31,32,188,29,32,61,358,24*7E
$GPGSV,5,4,17,36,52,277,35,40,84,353,37,41,58,082,,49,32,274,*7E
$GPGSV,5,5,17,50,10,089,*4A
$GLGSV,2,1,08,68,19,004,,69,49,313,23,70,21,234,,79,12,144,21*60
$GLGSV,2,2,08,80,14,195,19,81,19,135,19,82,51,088,31,83,37,011,22*68
$GNGLL,0420.00492,S,05539.68612,E,112654.00,A,A*67
$GNRMC,112655.00,A,0420.00487,S,05539.68610,E,0.136,,020625,,,A*7E
$GNVTG,,T,,M,0.136,N,0.252,K,A*3C
$GNGGA,112655.00,0420.00487,S,05539.68610,E,1,12,0.97,11.5,M,-47.6,M,,*45
$GNGSA,A,3,32,29,26,28,18,16,31,27,,,,,2.26,0.97,2.04*1F
$GNGSA,A,3,69,81,82,79,,,,,,,,,2.26,0.97,2.04*10
$GPGSV,5,1,17,08,06,319,,10,17,000,,16,25,245,24,18,33,080,29*76
$GPGSV,5,2,17,23,03,038,,25,01,125,10,26,29,213,30,27,41,312,31*7E
$GPGSV,5,3,17,28,47,154,28,29,16,147,17,31,32,188,30,32,61,358,21*78
$GPGSV,5,4,17,36,52,277,35,40,84,353,37,41,58,082,,49,32,274,*7E
$GPGSV,5,5,17,50,10,089,*4A
$GLGSV,2,1,08,68,19,004,,69,49,313,25,70,21,234,,79,12,144,20*67
$GLGSV,2,2,08,80,14,195,20,81,19,135,20,82,51,088,31,83,37,011,23*69
$GNGLL,0420.00487,S,05539.68610,E,112655.00,A,A*60
$GNRMC,112656.00,A,0420.00482,S,05539.68611,E,0.067,,020625,,,A*7C
$GNVTG,,T,,M,0.067,N,0.123,K,A*3C
$GNGGA,112656.00,0420.00482,S,05539.68611,E,1,12,0.97,11.0,M,-47.6,M,,*47
$GNGSA,A,3,32,29,26,28,18,16,31,27,,,,,2.26,0.97,2.04*1F
$GNGSA,A,3,69,81,82,79,,,,,,,,,2.26,0.97,2.04*10
$GPGSV,5,1,17,08,06,319,,10,17,000,,16,25,245,24,18,33,080,30*7E
$GPGSV,5,2,17,23,03,038,,25,01,125,08,26,29,213,29,27,41,312,32*7C
$GPGSV,5,3,17,28,47,154,27,29,16,147,17,31,32,188,28,32,61,358,20*7F
$GPGSV,5,4,17,36,52,277,36,40,84,353,37,41,58,082,,49,32,274,*7D
$GPGSV,5,5,17,50,10,089,*4A
$GLGSV,2,1,08,68,19,004,,69,49,313,26,70,21,234,,79,12,144,19*6E
$GLGSV,2,2,08,80,14,195,19,81,19,135,20,82,51,088,30,83,37,011,23*62
$GNGLL,0420.00482,S,05539.68611,E,112656.00,A,A*67
$GNRMC,112657.00,A,0420.00477,S,05539.68612,E,0.057,,020625,,,A*77
$GNVTG,,T,,M,0.057,N,0.106,K,A*38
$GNGGA,112657.00,0420.00477,S,05539.68612,E,1,12,0.97,11.0,M,-47.6,M,,*4F
$GNGSA,A,3,32,29,26,28,18,16,31,27,,,,,2.26,0.97,2.04*1F
$GNGSA,A,3,69,81,82,79,,,,,,,,,2.26,0.97,2.04*10
$GPGSV,5,1,17,08,06,319,,10,17,000,,16,25,245,24,18,33,080,30*7E
$GPGSV,5,2,17,23,03,038,,25,01,125,11,26,29,213,30,27,41,312,32*7C
$GPGSV,5,3,17,28,47,154,27,29,16,147,16,31,32,188,33,32,61,358,18*7F
$GPGSV,5,4,17,36,52,277,35,40,84,353,37,41,58,082,,49,32,274,*7E
$GPGSV,5,5,17,50,10,089,*4A
$GLGSV,2,1,08,68,19,004,,69,49,313,25,70,21,234,,79,12,144,17*63
$GLGSV,2,2,08,80,14,195,17,81,19,135,20,82,51,088,29,83,37,011,24*63
$GNGLL,0420.00477,S,05539.68612,E,112657.00,A,A*6F
$GNRMC,112658.00,A,0420.00475,S,05539.68613,E,0.046,,020625,,,A*7B
$GNVTG,,T,,M,0.046,N,0.086,K,A*31
$GNGGA,112658.00,0420.00475,S,05539.68613,E,1,12,0.97,11.2,M,-47.6,M,,*41
$GNGSA,A,3,32,29,26,28,18,16,31,27,,,,,2.26,0.97,2.04*1F
$GNGSA,A,3,69,81,82,79,,,,,,,,,2.26,0.97,2.04*10
$GPGSV,5,1,17,08,06,319,,10,17,000,,16,25,245,26,18,33,080,28*75
$GPGSV,5,2,17,23,03,038,,25,01,125,10,26,29,213,28,27,41,312,37*71
$GPGSV,5,3,17,28,47,154,27,29,16,147,17,31,32,188,32,32,61,358,18*7F
$GPGSV,5,4,17,36,52,277,36,40,84,353,36,41,58,082,,49,32,274,*7C
$GPGSV,5,5,17,50,10,089,*4A
$GLGSV,2,1,08,68,19,004,,69,49,313,25,70,21,234,,79,12,144,18*6C
$GLGSV,2,2,08,80,14,195,18,81,19,135,21,82,51,088,27,83,37,011,25*62
$GNGLL,0420.00475,S,05539.68613,E,112658.00,A,A*63
$GNRMC,112659.00,A,0420.00468,S,05539.68615,E,0.086,,020625,,,A*7C
$GNVTG,,T,,M,0.086,N,0.160,K,A*34
$GNGGA,112659.00,0420.00468,S,05539.68615,E,1,12,0.97,10.8,M,-47.6,M,,*41
$GNGSA,A,3,32,29,26,28,18,16,31,27,,,,,2.26,0.97,2.04*1F
$GNGSA,A,3,69,81,82,79,,,,,,,,,2.26,0.97,2.04*10
$GPGSV,5,1,17,08,06,319,,10,17,000,,16,25,245,27,18,33,080,25*79
$GPGSV,5,2,17,23,03,038,,25,01,125,09,26,29,213,28,27,41,312,32*7C
$GPGSV,5,3,17,28,47,154,27,29,16,147,19,31,32,188,32,32,61,358,22*78
$GPGSV,5,4,17,36,52,277,35,40,84,353,37,41,58,082,,49,32,274,*7E
$GPGSV,5,5,17,50,10,089,*4A
$GLGSV,2,1,08,68,19,004,,69,49,313,24,70,21,234,,79,12,144,19*6C
$GLGSV,2,2,08,80,14,195,17,81,19,135,21,82,51,088,27,83,37,011,25*6D
$GNGLL,0420.00468,S,05539.68615,E,112659.00,A,A*68
$GNRMC,112700.00,A,0420.00470,S,05539.68615,E,0.137,,020625,,,A*73
$GNVTG,,T,,M,0.137,N,0.254,K,A*3B
$GNGGA,112700.00,0420.00470,S,05539.68615,E,1,12,0.97,10.8,M,-47.6,M,,*45
$GNGSA,A,3,32,29,26,28,18,16,31,27,,,,,2.26,0.97,2.04*1F
$GNGSA,A,3,69,81,82,79,,,,,,,,,2.26,0.97,2.04*10
$GPGSV,5,1,17,08,06,319,,10,17,000,,16,25,245,27,18,33,080,31*7C
$GPGSV,5,2,17,23,03,038,,25,01,125,08,26,29,213,28,27,41,312,32*7D
$GPGSV,5,3,17,28,47,154,28,29,16,147,18,31,32,188,32,32,61,358,20*74
$GPGSV,5,4,17,36,52,277,36,40,84,353,37,41,58,082,,49,32,274,*7D
$GPGSV,5,5,17,50,10,089,*4A
$GLGSV,2,1,08,68,19,004,,69,49,313,22,70,21,234,,79,12,144,20*60
$GLGSV,2,2,08,80,14,195,16,81,19,135,21,82,51,088,27,83,37,011,24*6D
$GNGLL,0420.00470,S,05539.68615,E,112700.00,A,A*6C
$GNRMC,112701.00,A,0420.00467,S,05539.68616,E,0.093,,020625,,,A*78
$GNVTG,,T,,M,0.093,N,0.172,K,A*33
$GNGGA,112701.00,0420.00467,S,05539.68616,E,1,12,0.97,11.1,M,-47.6,M,,*49
$GNGSA,A,3,32,29,26,28,18,16,31,27,,,,,2.26,0.97,2.04*1F
$GNGSA,A,3,69,81,82,79,,,,,,,,,2.26,0.97,2.04*10
$GPGSV,5,1,17,08,06,319,,10,17,000,12,16,25,245,28,18,33,080,23*73
$GPGSV,5,2,17,23,03,038,,25,01,125,12,26,29,213,29,27,41,312,33*76
$GPGSV,5,3,17,28,47,154,27,29,16,147,17,31,32,188,25,32,61,358,20*72
$GPGSV,5,4,17,36,52,277,35,40,84,353,36,41,58,082,,49,32,274,*7F
$GPGSV,5,5,17,50,10,089,*4A
$GLGSV,2,1,08,68,19,004,,69,49,313,23,70,21,234,,79,12,144,19*6B
$GLGSV,2,2,08,80,14,195,17,81,19,135,24,82,51,088,27,83,37,011,24*69
$GNGLL,0420.00467,S,05539.68616,E,112701.00,A,A*68
$GNRMC,112702.00,A,0420.00464,S,05539.68616,E,0.049,,020625,,,A*7F
$GNVTG,,T,,M,0.049,N,0.091,K,A*38
$GNGGA,112702.00,0420.00464,S,05539.68616,E,1,12,0.97,11.2,M,-47.6,M,,*4A
$GNGSA,A,3,32,29,26,28,18,16,31,27,,,,,2.26,0.97,2.04*1F
$GNGSA,A,3,69,81,82,79,,,,,,,,,2.26,0.97,2.04*10
$GPGSV,5,1,17,08,06,319,,10,17,000,12,16,25,245,28,18,33,080,24*74
$GPGSV,5,2,17,23,03,038,,25,01,125,13,26,29,213,33,27,41,312,35*7A
$GPGSV,5,3,17,28,47,154,26,29,16,147,17,31,32,188,27,32,61,358,18*7A
$GPGSV,5,4,17,36,52,277,36,40,84,353,36,41,58,082,,49,32,274,*7C
$GPGSV,5,5,17,50,10,089,*4A
$GLGSV,2,1,08,68,19,004,,69,49,313,25,70,21,234,,79,12,144,20*67
$GLGSV,2,2,08,80,14,195,16,81,19,135,26,82,51,088,27,83,37,011,23*6D
$GNGLL,0420.00464,S,05539.68616,E,112702.00,A,A*68
$GNRMC,112703.00,A,0420.00458,S,05539.68621,E,0.051,,020625,,,A*7C
$GNVTG,,T,,M,0.051,N,0.094,K,A*34
$GNGGA,112703.00,0420.00458,S,05539.68621,E,1,12,0.97,11.1,M,-47.6,M,,*43
$GNGSA,A,3,32,29,26,28,18,16,31,27,,,,,2.26,0.97,2.04*1F
$GNGSA,A,3,69,81,82,79,,,,,,,,,2.26,0.97,2.04*10
$GPGSV,5,1,17,08,06,319,,10,17,000,10,16,25,245,27,18,33,080,26*7B
$GPGSV,5,2,17,23,03,038,,25,01,125,07,26,29,213,29,27,41,312,32*73
$GPGSV,5,3,17,28,47,154,25,29,16,147,15,31,32,188,33,32,61,358,18*7E
$GPGSV,5,4,17,36,52,277,36,40,84,353,35,41,58,082,,49,32,274,*7F
$GPGSV,5,5,17,50,10,089,*4A
$GLGSV,2,1,08,68,19,004,,69,49,313,24,70,21,234,,79,12,144,22*64
$GLGSV,2,2,08,80,14,195,19,81,19,135,25,82,51,088,25,83,37,011,22*62
$GNGLL,0420.00458,S,05539.68621,E,112703.00,A,A*62
$GNRMC,112704.00,A,0420.00453,S,05539.68622,E,0.232,,020625,,,A*74
$GNVTG,,T,,M,0.232,N,0.430,K,A*39
$GNGGA,112704.00,0420.00453,S,05539.68622,E,1,12,0.97,10.8,M,-47.6,M,,*44
$GNGSA,A,3,32,29,26,28,18,16,31,27,,,,,2.26,0.97,2.04*1F
$GNGSA,A,3,69,81,82,79,,,,,,,,,2.26,0.97,2.04*10
$GPGSV,5,1,17,08,06,319,,10,17,000,,16,25,245,29,18,33,080,26*74
$GPGSV,5,2,17,23,03,038,,25,01,125,08,26,29,213,29,27,41,312,35*7B
$GPGSV,5,3,17,28,47,154,22,29,16,147,13,31,32,188,31,32,61,358,18*7D
$GPGSV,5,4,17,36,52,277,36,40,84,353,38,41,58,082,,49,32,274,*72
$GPGSV,5,5,17,50,10,089,*4A
$GLGSV,2,1,08,68,19,004,,69,49,313,26,70,21,234,,79,12,144,21*65
$GLGSV,2,2,08,80,14,195,18,81,19,135,25,82,51,088,24,83,37,011,22*62
$GNGLL,0420.00453,S,05539.68622,E,112704.00,A,A*6D
$GNRMC,112705.00,A,0420.00447,S,05539.68627,E,0.070,,020625,,,A*71
$GNVTG,,T,,M,0.070,N,0.130,K,A*38
$GNGGA,112705.00,0420.00447,S,05539.68627,E,1,12,0.97,10.9,M,-47.6,M,,*44
$GNGSA,A,3,32,29,26,28,18,16,31,27,,,,,2.26,0.97,2.04*1F
$GNGSA,A,3,69,81,82,79,,,,,,,,,2.26,0.97,2.04*10
$GPGSV,5,1,17,08,06,319,,10,17,000,,16,25,245,29,18,33,080,26*74
$GPGSV,5,2,17,23,03,038,,25,01,125,07,26,29,213,29,27,41,312,34*75
$GPGSV,5,3,17,28,47,154,21,29,16,147,18,31,32,188,32,32,61,358,21*7C
$GPGSV,5,4,17,36,52,277,36,40,84,353,38,41,58,082,,49,32,274,*72
$GPGSV,5,5,17,50,10,089,*4A
$GLGSV,2,1,08,68,19,004,,69,49,313,25,70,21,234,,79,12,144,20*67
$GLGSV,2,2,08,80,14,195,17,81,19,135,24,82,51,088,24,83,37,011,21*6F
$GNGLL,0420.00447,S,05539.68627,E,112705.00,A,A*6C
$GNRMC,112706.00,A,0420.00441,S,05539.68631,E,0.059,,020625,,,A*78
$GNVTG,,T,,M,0.059,N,0.110,K,A*31
$GNGGA,112706.00,0420.00441,S,05539.68631,E,1,12,0.97,10.8,M,-47.6,M,,*47
$GNGSA,A,3,32,29,26,28,18,16,31,27,,,,,2.26,0.97,2.04*1F
$GNGSA,A,3,69,81,82,79,,,,,,,,,2.26,0.97,2.04*10
$GPGSV,5,1,17,08,06,319,,10,17,000,,16,25,245,29,18,33,080,26*74
$GPGSV,5,2,17,23,03,038,,25,01,125,11,26,29,213,31,27,41,312,34*7B
$GPGSV,5,3,17,28,47,154,29,29,16,147,17,31,32,188,32,32,61,358,22*78
$GPGSV,5,4,17,36,52,277,36,40,84,353,37,41,58,082,,49,32,274,*7D
$GPGSV,5,5,17,50,10,089,*4A
$GLGSV,2,1,08,68,19,004,,69,49,313,25,70,21,234,,79,12,144,20*67
$GLGSV,2,2,08,80,14,195,16,81,19,135,24,82,51,088,24,83,37,011,21*6E
$GNGLL,0420.00441,S,05539.68631,E,112706.00,A,A*6E
$GNRMC,112707.00,A,0420.00442,S,05539.68629,E,0.081,,020625,,,A*76
$GNVTG,,T,,M,0.081,N,0.149,K,A*38
$GNGGA,112707.00,0420.00442,S,05539.68629,E,1,12,0.97,11.1,M,-47.6,M,,*44
$GNGSA,A,3,32,29,26,28,18,16,31,27,,,,,2.26,0.97,2.04*1F
$GNGSA,A,3,69,81,82,79,,,,,,,,,2.26,0.97,2.04*10
$GPGSV,5,1,17,08,06,319,,10,17,000,,16,25,245,29,18,33,080,26*74
$GPGSV,5,2,17,23,03,038,,25,01,125,12,26,29,213,24,27,41,312,33*7B
$GPGSV,5,3,17,28,47,154,30,29,16,147,17,31,32,188,31,32,61,358,21*70
$GPGSV,5,4,17,36,52,277,37,40,84,353,38,41,58,082,,49,32,274,*73
$GPGSV,5,5,17,50,10,089,*4A
$GLGSV,2,1,08,68,19,004,,69,49,313,25,70,21,234,,79,12,144,22*65
$GLGSV,2,2,08,80,14,195,15,81,19,135,22,82,51,088,24,83,37,011,19*60
$GNGLL,0420.00442,S,05539.68629,E,112707.00,A,A*65
$GNRMC,112708.00,A,0420.00438,S,05539.68635,E,0.192,,020625,,,A*7A
$GNVTG,,T,,M,0.192,N,0.355,K,A*34
$GNGGA,112708.00,0420.00438,S,05539.68635,E,1,12,0.97,11.1,M,-47.6,M,,*4B
$GNGSA,A,3,32,29,26,28,18,16,31,27,,,,,2.26,0.97,2.04*1F
$GNGSA,A,3,69,81,82,79,,,,,,,,,2.26,0.97,2.04*10
$GPGSV,5,1,17,08,06,319,,10,17,001,,16,25,245,29,18,33,080,25*76
$GPGSV,5,2,17,23,03,038,,25,01,125,10,26,29,213,26,27,41,312,33*7B
$GPGSV,5,3,17,28,47,154,22,29,16,147,19,31,32,188,31,32,61,358,20*7C
$GPGSV,5,4,17,36,52,277,37,40,84,353,38,41,58,082,,49,32,274,*73
$GPGSV,5,5,17,50,10,089,*4A
$GLGSV,2,1,08,68,19,004,,69,49,313,28,70,21,234,,79,12,144,21*6B
$GLGSV,2,2,08,80,14,195,16,81,19,135,22,82,51,088,23,83,37,011,19*64
$GNGLL,0420.00438,S,05539.68635,E,112708.00,A,A*6A
$GNRMC,112709.00,A,0420.00436,S,05539.68639,E,0.054,,020625,,,A*72
$GNVTG,,T,,M,0.054,N,0.099,K,A*3C
$GNGGA,112709.00,0420.00436,S,05539.68639,E,1,12,0.97,11.2,M,-47.6,M,,*4B
$GNGSA,A,3,32,29,26,28,18,16,31,27,,,,,2.26,0.97,2.04*1F
$GNGSA,A,3,69,81,82,79,,,,,,,,,2.26,0.97,2.04*10
$GPGSV,5,1,17,08,06,319,,10,17,001,,16,25,245,28,18,33,080,24*76
$GPGSV,5,2,17,23,03,038,,25,01,125,09,26,29,213,31,27,41,312,34*72
$GPGSV,5,3,17,28,47,154,24,29,16,147,18,31,32,188,30,32,61,358,22*78
$GPGSV,5,4,17,36,52,277,37,40,84,353,36,41,58,082,,49,32,274,*7D
$GPGSV,5,5,17,50,10,089,*4A
$GLGSV,2,1,08,68,19,004,,69,49,313,28,70,21,234,,79,12,144,20*6A
$GLGSV,2,2,08,80,14,195,16,81,19,135,23,82,51,088,20,83,37,011,20*6C
$GNGLL,0420.00436,S,05539.68639,E,112709.00,A,A*69
$GNRMC,112710.00,A,0420.00433,S,05539.68637,E,0.155,,020625,,,A*71
$GNVTG,,T,,M,0.155,N,0.287,K,A*31
$GNGGA,112710.00,0420.00433,S,05539.68637,E,1,12,0.97,11.2,M,-47.6,M,,*48
$GNGSA,A,3,32,29,26,28,18,16,31,27,,,,,2.26,0.97,2.04*1F
$GNGSA,A,3,69,81,82,79,,,,,,,,,2.26,0.97,2.04*10
$GPGSV,5,1,17,08,06,319,,10,17,001,,16,25,245,29,18,33,080,23*70
$GPGSV,5,2,17,23,03,038,,25,01,125,09,26,29,213,29,27,41,312,34*7B
$GPGSV,5,3,17,28,47,154,24,29,16,147,17,31,32,188,26,32,61,358,23*71
$GPGSV,5,4,17,36,52,277,36,40,84,353,37,41,58,082,,49,32,274,*7D
$GPGSV,5,5,17,50,10,089,*4A
