$GNRMC,113123.00,A,0419.98700,S,05539.67155,E,0.150,,020625,,,D*72
$GNVTG,,T,,M,0.150,N,0.278,K,D*31
$GNGGA,113123.00,0419.98700,S,05539.67155,E,2,12,1.05,15.8,M,-47.6,M,,0000*4C
$GNGSA,A,3,32,29,26,28,16,31,27,40,,,,,2.03,1.05,1.73*1C
$GNGSA,A,3,69,81,82,79,,,,,,,,,2.03,1.05,1.73*1E
$GPGSV,5,1,17,08,07,318,,10,16,002,,16,25,242,27,18,33,083,10*78
$GPGSV,5,2,17,23,02,040,,25,00,123,11,26,29,210,26,27,42,310,27*74
$GPGSV,5,3,17,28,48,151,30,29,14,148,21,31,34,187,28,32,59,359,30*79
$GPGSV,5,4,17,36,52,277,,40,84,353,29,41,58,082,,49,32,274,*77
$GPGSV,5,5,17,50,10,089,*4A
$GLGSV,3,1,09,68,17,004,,69,47,315,28,70,22,236,,79,12,142,19*61
$GLGSV,3,2,09,80,14,193,19,81,18,137,12,82,52,092,26,83,39,012,16*62
$GLGSV,3,3,09,,,,24*6A
$GNGLL,0419.98700,S,05539.67155,E,113123.00,A,D*6C
$GNRMC,113124.00,A,0419.98709,S,05539.67142,E,0.425,,020625,,,D*7D
$GNVTG,,T,,M,0.425,N,0.787,K,D*33
$GNGGA,113124.00,0419.98709,S,05539.67142,E,2,11,1.09,16.4,M,-47.6,M,,0000*44
$GNGSA,A,3,32,29,26,28,16,31,27,40,,,,,2.20,1.09,1.91*1D
$GNGSA,A,3,69,81,82,,,,,,,,,,2.20,1.09,1.91*11
$GPGSV,5,1,17,08,07,318,,10,16,002,,16,25,242,25,18,33,083,09*72
$GPGSV,5,2,17,23,02,040,04,25,00,123,09,26,29,210,23,27,42,310,26*7D
$GPGSV,5,3,17,28,48,151,25,29,14,148,20,31,34,187,26,32,59,359,30*72
$GPGSV,5,4,17,36,52,277,,40,84,353,30,41,58,082,,49,32,274,*7F
$GPGSV,5,5,17,50,10,089,*4A
$GLGSV,3,1,09,68,17,004,,69,47,315,26,70,22,236,,79,12,142,*67
$GLGSV,3,2,09,80,14,193,17,81,18,137,08,82,52,092,23,83,39,012,15*61
$GLGSV,3,3,09,,,,21*6F
$GNGLL,0419.98709,S,05539.67142,E,113124.00,A,D*64
$GNRMC,113125.00,A,0419.98708,S,05539.67140,E,0.062,,020625,,,D*78
$GNVTG,,T,,M,0.062,N,0.115,K,D*39
$GNGGA,113125.00,0419.98708,S,05539.67140,E,2,11,1.17,16.4,M,-47.6,M,,0000*49
$GNGSA,A,3,32,29,26,28,16,31,27,40,,,,,2.46,1.17,2.16*1E
$GNGSA,A,3,69,81,82,,,,,,,,,,2.46,1.17,2.16*12
$GPGSV,5,1,17,08,07,318,,10,16,002,,16,25,242,28,18,33,083,09*7F
$GPGSV,5,2,17,23,02,040,06,25,00,123,07,26,29,210,29,27,42,310,32*7E
$GPGSV,5,3,17,28,48,151,32,29,14,148,21,31,34,187,32,32,59,359,37*77
$GPGSV,5,4,17,36,52,277,,40,84,353,37,41,58,082,,49,32,274,*78
$GPGSV,5,5,17,50,10,089,*4A
$GLGSV,3,1,09,68,17,004,,69,47,315,26,70,22,236,,79,12,142,*67
$GLGSV,3,2,09,80,14,193,19,81,18,137,10,82,52,092,25,83,39,012,18*6D
$GLGSV,3,3,09,,,,19*64
$GNGLL,0419.98708,S,05539.67140,E,113125.00,A,D*66
$GNRMC,113126.00,A,0419.98703,S,05539.67146,E,0.086,,020625,,,D*7C
$GNVTG,,T,,M,0.086,N,0.159,K,D*3B
$GNGGA,113126.00,0419.98703,S,05539.67146,E,2,11,1.09,15.9,M,-47.6,M,,0000*46
$GNGSA,A,3,32,29,26,28,16,31,27,40,,,,,2.20,1.09,1.91*1D
$GNGSA,A,3,69,81,82,,,,,,,,,,2.20,1.09,1.91*11
$GPGSV,5,1,17,08,07,318,,10,16,002,,16,25,242,28,18,33,083,09*7F
$GPGSV,5,2,17,23,02,040,07,25,00,123,11,26,29,210,28,27,42,310,35*7E
$GPGSV,5,3,17,28,48,151,32,29,14,148,23,31,34,187,32,32,59,359,37*75
$GPGSV,5,4,17,36,52,277,,40,84,353,33,41,58,082,,49,32,274,*7C
$GPGSV,5,5,17,50,10,089,*4A
$GLGSV,3,1,09,68,17,004,,69,47,315,30,70,22,236,,79,12,142,19*68
$GLGSV,3,2,09,80,14,193,22,81,18,137,09,82,52,092,26,83,39,012,22*67
$GLGSV,3,3,09,,,,20*6E
$GNGLL,0419.98703,S,05539.67146,E,113126.00,A,D*68
$GNRMC,113127.00,A,0419.98706,S,05539.67142,E,0.131,,020625,,,D*71
$GNVTG,,T,,M,0.131,N,0.242,K,D*3F
$GNGGA,113127.00,0419.98706,S,05539.67142,E,2,12,1.09,16.2,M,-47.6,M,,0000*4D
$GNGSA,A,3,32,29,26,28,18,16,31,27,40,,,,2.20,1.09,1.91*14
$GNGSA,A,3,69,81,82,,,,,,,,,,2.20,1.09,1.91*11
$GPGSV,5,1,17,08,07,318,,10,16,002,,16,25,242,29,18,33,083,12*74
$GPGSV,5,2,17,23,02,040,08,25,00,123,08,26,29,210,27,27,42,310,33*70
$GPGSV,5,3,17,28,48,151,32,29,14,148,23,31,34,187,31,32,59,359,38*79
$GPGSV,5,4,17,36,52,277,,40,84,353,37,41,58,082,,49,32,274,*78
$GPGSV,5,5,17,50,10,089,*4A
$GLGSV,3,1,09,68,17,004,,69,47,315,30,70,22,236,,79,12,142,19*68
$GLGSV,3,2,09,80,14,193,23,81,18,137,09,82,52,092,27,83,39,012,23*66
$GLGSV,3,3,09,,,,21*6F
$GNGLL,0419.98706,S,05539.67142,E,113127.00,A,D*68
$GNRMC,113128.00,A,0419.98712,S,05539.67136,E,0.076,,020625,,,D*7A
$GNVTG,,T,,M,0.076,N,0.140,K,D*3C
$GNGGA,113128.00,0419.98712,S,05539.67136,E,2,12,1.09,16.8,M,-47.6,M,,0000*4E
$GNGSA,A,3,32,29,26,28,18,16,31,27,40,,,,2.20,1.09,1.91*14
$GNGSA,A,3,69,81,82,,,,,,,,,,2.20,1.09,1.91*11
$GPGSV,5,1,17,08,07,318,,10,16,002,,16,25,242,29,18,33,083,08*7F
$GPGSV,5,2,17,23,02,040,08,25,00,123,09,26,29,210,25,27,42,310,33*73
$GPGSV,5,3,17,28,48,151,32,29,14,148,22,31,34,187,31,32,59,359,36*76
$GPGSV,5,4,17,36,52,277,,40,84,353,36,41,58,082,,49,32,274,*79
$GPGSV,5,5,17,50,10,089,*4A
$GLGSV,3,1,09,68,17,004,,69,47,315,30,70,22,236,,79,12,142,19*68
$GLGSV,3,2,09,80,14,193,23,81,18,137,12,82,52,092,27,83,39,012,23*6C
$GLGSV,3,3,09,,,,22*6C
$GNGLL,0419.98712,S,05539.67136,E,113128.00,A,D*61
$GNRMC,113129.00,A,0419.98704,S,05539.67152,E,0.474,,020625,,,D*78
$GNVTG,,T,,M,0.474,N,0.878,K,D*38
$GNGGA,113129.00,0419.98704,S,05539.67152,E,2,12,1.09,16.2,M,-47.6,M,,0000*40
$GNGSA,A,3,32,29,26,28,16,31,27,40,,,,,2.20,1.09,1.91*1D
$GNGSA,A,3,69,81,82,79,,,,,,,,,2.20,1.09,1.91*1F
$GPGSV,5,1,17,08,07,318,,10,16,002,,16,25,242,28,18,33,083,07*71
$GPGSV,5,2,17,23,02,040,09,25,00,123,10,26,29,210,25,27,42,310,27*7F
$GPGSV,5,3,17,28,48,151,29,29,14,148,21,31,34,187,29,32,59,359,30*70
$GPGSV,5,4,17,36,52,277,,40,84,353,33,41,58,082,,49,32,274,*7C
$GPGSV,5,5,17,50,10,089,*4A
$GLGSV,3,1,09,68,17,004,,69,47,315,25,70,22,236,,79,12,142,18*6D
$GLGSV,3,2,09,80,14,193,22,81,18,137,10,82,52,092,25,83,39,012,21*6F
$GLGSV,3,3,09,,,,21*6F
$GNGLL,0419.98704,S,05539.67152,E,113129.00,A,D*65
$GNRMC,113130.00,A,0419.98704,S,05539.67162,E,0.261,,020625,,,D*71
$GNVTG,,T,,M,0.261,N,0.483,K,D*32
$GNGGA,113130.00,0419.98704,S,05539.67162,E,2,12,0.95,16.3,M,-47.6,M,,0000*4E
$GNGSA,A,3,32,29,26,28,18,16,31,27,40,,,,2.03,0.95,1.79*17
$GNGSA,A,3,69,81,82,79,,,,,,,,,2.03,0.95,1.79*1C
$GPGSV,5,1,17,08,07,318,,10,16,002,,16,25,242,28,18,33,083,08*7E
$GPGSV,5,2,17,23,02,040,10,25,00,123,08,26,29,210,24,27,42,310,28*70
$GPGSV,5,3,17,28,48,151,30,29,14,148,20,31,34,187,28,32,59,359,31*79
$GPGSV,5,4,17,36,52,277,,40,84,353,33,41,58,082,,49,32,274,*7C
$GPGSV,5,5,17,50,10,089,*4A
$GLGSV,3,1,09,68,17,004,,69,47,315,27,70,22,236,,79,12,142,18*6F
$GLGSV,3,2,09,80,14,193,24,81,18,137,09,82,52,092,25,83,39,012,21*61
$GLGSV,3,3,09,,,,21*6F
$GNGLL,0419.98704,S,05539.67162,E,113130.00,A,D*6E
$GNRMC,113131.00,A,0419.98707,S,05539.67155,E,0.125,,020625,,,D*74
$GNVTG,,T,,M,0.125,N,0.231,K,D*3E
$GNGGA,113131.00,0419.98707,S,05539.67155,E,2,12,0.95,16.8,M,-47.6,M,,0000*43
$GNGSA,A,3,32,29,26,28,18,16,31,27,40,,,,2.03,0.95,1.79*17
$GNGSA,A,3,69,81,82,79,,,,,,,,,2.03,0.95,1.79*1C
$GPGSV,5,1,17,08,07,318,,10,16,002,,16,25,242,26,18,33,083,10*79
$GPGSV,5,2,17,23,02,040,07,25,00,123,09,26,29,210,22,27,42,310,27*7E
$GPGSV,5,3,17,28,48,151,29,29,14,148,18,31,34,187,26,32,59,359,29*7D
$GPGSV,5,4,17,36,52,277,,40,84,353,29,41,58,082,,49,32,274,*77
$GPGSV,5,5,17,50,10,089,*4A
$GLGSV,3,1,09,68,17,004,,69,47,315,26,70,22,236,,79,12,142,17*61
$GLGSV,3,2,09,80,14,193,24,81,18,137,09,82,52,092,23,83,39,012,19*6C
$GLGSV,3,3,09,,,,20*6E
$GNGLL,0419.98707,S,05539.67155,E,113131.00,A,D*68
$GNRMC,113132.00,A,0419.98706,S,05539.67153,E,0.096,,020625,,,D*79
$GNVTG,,T,,M,0.096,N,0.177,K,D*36
$GNGGA,113132.00,0419.98706,S,05539.67153,E,2,12,0.98,16.8,M,-47.6,M,,0000*4A
$GNGSA,A,3,32,29,26,28,18,16,31,27,40,,,,2.38,0.98,2.17*19
$GNGSA,A,3,69,81,82,79,,,,,,,,,2.38,0.98,2.17*12
$GPGSV,5,1,17,08,07,318,,10,16,002,,16,25,242,26,18,33,083,11*78
$GPGSV,5,2,17,23,02,040,10,25,00,123,09,26,29,210,24,27,42,310,32*7A
$GPGSV,5,3,17,28,48,151,33,29,14,148,18,31,34,187,26,32,59,359,36*78
$GPGSV,5,4,17,36,52,277,,40,84,353,33,41,58,082,,49,32,274,*7C
$GPGSV,5,5,17,50,10,089,*4A
$GLGSV,3,1,09,68,17,004,,69,47,315,27,70,22,236,,79,12,142,16*61
$GLGSV,3,2,09,80,14,193,26,81,18,137,10,82,52,092,24,83,39,012,19*61
$GLGSV,3,3,09,,,,21*6F
$GNGLL,0419.98706,S,05539.67153,E,113132.00,A,D*6C
$GNRMC,113133.00,A,0419.98704,S,05539.67147,E,0.250,,020625,,,D*77
$GNVTG,,T,,M,0.250,N,0.462,K,D*3F
$GNGGA,113133.00,0419.98704,S,05539.67147,E,2,12,0.98,16.8,M,-47.6,M,,0000*4C
$GNGSA,A,3,32,29,26,28,18,16,31,27,,,,,2.38,0.98,2.17*1D
$GNGSA,A,3,69,81,82,79,,,,,,,,,2.38,0.98,2.17*12
$GPGSV,5,1,17,08,07,318,04,10,16,002,,16,25,242,26,18,33,083,10*7D
$GPGSV,5,2,17,23,02,040,11,25,00,123,10,26,29,210,23,27,42,310,27*70
$GPGSV,5,3,17,28,48,151,28,29,14,148,17,31,34,187,24,32,59,359,29*71
$GPGSV,5,4,17,36,52,277,,40,84,353,,41,58,082,,49,32,274,*7C
$GPGSV,5,5,17,50,10,089,*4A
$GLGSV,3,1,09,68,17,004,,69,47,315,25,70,22,236,,79,12,142,17*62
$GLGSV,3,2,09,80,14,193,26,81,18,137,10,82,52,092,24,83,39,012,19*61
$GLGSV,3,3,09,,,,21*6F
$GNGLL,0419.98704,S,05539.67147,E,113133.00,A,D*6A
$GNRMC,113134.00,A,0419.98708,S,05539.67143,E,0.120,,020625,,,D*7C
$GNVTG,,T,,M,0.120,N,0.222,K,D*39
$GNGGA,113134.00,0419.98708,S,05539.67143,E,2,12,1.12,16.9,M,-47.6,M,,0000*41
$GNGSA,A,3,32,29,26,28,18,16,31,27,,,,,2.55,1.12,2.29*18
$GNGSA,A,3,69,81,82,79,,,,,,,,,2.55,1.12,2.29*17
$GPGSV,5,1,17,08,07,318,,10,16,002,,16,25,242,26,18,33,083,12*7B
$GPGSV,5,2,17,23,02,040,13,25,00,123,11,26,29,210,24,27,42,310,27*74
$GPGSV,5,3,17,28,48,151,29,29,14,148,17,31,34,187,26,32,59,359,30*7A
$GPGSV,5,4,17,36,52,277,,40,84,353,30,41,58,082,,49,32,274,*7F
$GPGSV,5,5,17,50,10,089,*4A
$GLGSV,3,1,09,68,17,004,,69,47,315,26,70,22,236,,79,12,142,16*60
$GLGSV,3,2,09,80,14,193,25,81,18,137,08,82,52,092,24,83,39,012,19*6B
$GLGSV,3,3,09,,,,21*6F
$GNGLL,0419.98708,S,05539.67143,E,113134.00,A,D*65
$GNRMC,113135.00,A,0419.98705,S,05539.67131,E,0.784,,020625,,,D*7D
$GNVTG,,T,,M,0.784,N,1.451,K,D*32
$GNGGA,113135.00,0419.98705,S,05539.67131,E,2,12,0.95,16.1,M,-47.6,M,,0000*4E
$GNGSA,A,3,32,29,26,28,18,16,31,27,40,,,,2.02,0.95,1.79*16
$GNGSA,A,3,69,81,82,79,,,,,,,,,2.02,0.95,1.79*1D
$GPGSV,5,1,17,08,07,318,,10,16,002,,16,25,242,25,18,33,083,12*78
$GPGSV,5,2,17,23,02,040,09,25,00,123,11,26,29,210,24,27,42,310,26*7E
$GPGSV,5,3,17,28,48,151,28,29,14,148,16,31,34,187,25,32,59,359,29*71
$GPGSV,5,4,17,36,52,277,,40,84,353,30,41,58,082,,49,32,274,*7F
$GPGSV,5,5,17,50,10,089,*4A
$GLGSV,3,1,09,68,17,004,,69,47,315,25,70,22,236,,79,12,142,15*60
$GLGSV,3,2,09,80,14,193,24,81,18,137,09,82,52,092,22,83,39,012,19*6D
$GLGSV,3,3,09,,,,19*64
$GNGLL,0419.98705,S,05539.67131,E,113135.00,A,D*6C
$GNRMC,113136.00,A,0419.98713,S,05539.67120,E,0.205,,020625,,,D*75
$GNVTG,,T,,M,0.205,N,0.380,K,D*34
$GNGGA,113136.00,0419.98713,S,05539.67120,E,2,12,0.95,16.7,M,-47.6,M,,0000*4C
$GNGSA,A,3,32,29,26,28,18,16,31,27,40,,,,2.02,0.95,1.79*16
$GNGSA,A,3,69,81,82,79,,,,,,,,,2.02,0.95,1.79*1D
$GPGSV,5,1,17,08,07,318,,10,16,002,,16,25,242,24,18,33,083,10*7B
$GPGSV,5,2,17,23,02,040,08,25,00,123,11,26,29,210,23,27,42,310,27*79
$GPGSV,5,3,17,28,48,151,28,29,14,148,15,31,34,187,25,32,59,359,29*72
$GPGSV,5,4,17,36,52,277,,40,84,353,30,41,58,082,,49,32,274,*7F
$GPGSV,5,5,17,50,10,089,*4A
$GLGSV,3,1,09,68,17,004,,69,47,315,25,70,22,236,,79,12,142,11*64
$GLGSV,3,2,09,80,14,193,23,81,18,137,10,82,52,092,21,83,39,012,18*60
$GLGSV,3,3,09,,,,16*6B
$GNGLL,0419.98713,S,05539.67120,E,113136.00,A,D*68
$GNRMC,113137.00,A,0419.98716,S,05539.67122,E,0.119,,020625,,,A*78
$GNVTG,,T,,M,0.119,N,0.220,K,A*34
$GNGGA,113137.00,0419.98716,S,05539.67122,E,1,12,1.17,16.9,M,-47.6,M,,*4C
$GNGSA,A,3,32,29,26,28,18,16,31,27,40,,,,2.45,1.17,2.15*17
$GNGSA,A,3,69,81,82,79,,,,,,,,,2.45,1.17,2.15*1C
$GPGSV,5,1,17,08,07,318,,10,16,002,,16,25,242,24,18,33,083,09*73
$GPGSV,5,2,17,23,02,040,09,25,00,123,08,26,29,210,22,27,42,310,27*71
$GPGSV,5,3,17,28,48,151,28,29,14,148,15,31,34,187,25,32,59,359,29*72
$GPGSV,5,4,17,36,52,277,,40,84,353,29,41,58,082,,49,32,274,*77
$GPGSV,5,5,17,50,10,089,*4A
$GLGSV,3,1,09,68,17,004,,69,47,315,25,70,22,236,,79,12,142,10*65
$GLGSV,3,2,09,80,14,193,21,81,18,137,11,82,52,092,21,83,39,012,18*63
$GLGSV,3,3,09,,,,17*6A
$GNGLL,0419.98716,S,05539.67122,E,113137.00,A,A*6B
$GNRMC,113138.00,A,0419.98718,S,05539.67121,E,0.061,,020625,,,D*71
$GNVTG,,T,,M,0.061,N,0.113,K,D*3C
$GNGGA,113138.00,0419.98718,S,05539.67121,E,2,12,0.95,17.1,M,-47.6,M,,0000*4F
$GNGSA,A,3,32,29,26,28,18,16,31,27,40,,,,2.02,0.95,1.79*16
$GNGSA,A,3,69,81,82,,,,,,,,,,2.02,0.95,1.79*13
$GPGSV,5,1,17,08,07,318,,10,16,002,,16,25,242,25,18,33,083,13*79
$GPGSV,5,2,17,23,02,040,14,25,00,123,06,26,29,210,23,27,42,310,28*7D
$GPGSV,5,3,17,28,48,151,29,29,14,148,15,31,34,187,27,32,59,359,30*79
$GPGSV,5,4,17,36,52,277,,40,84,353,30,41,58,082,,49,32,274,*7F
$GPGSV,5,5,17,50,10,089,*4A
$GLGSV,3,1,09,68,17,005,,69,47,315,27,70,22,236,,79,12,142,08*6F
$GLGSV,3,2,09,80,14,193,21,81,18,137,09,82,52,092,21,83,39,012,19*6B
$GLGSV,3,3,09,,,,18*65
$GNGLL,0419.98718,S,05539.67121,E,113138.00,A,D*6C
$GNRMC,113139.00,A,0419.98710,S,05539.67128,E,0.251,,020625,,,D*70
$GNVTG,,T,,M,0.251,N,0.466,K,D*3A
$GNGGA,113139.00,0419.98710,S,05539.67128,E,2,12,0.97,17.0,M,-47.6,M,,0000*4C
$GNGSA,A,3,32,29,26,28,18,16,31,27,40,,,,2.13,0.97,1.90*13
$GNGSA,A,3,69,82,79,,,,,,,,,,2.13,0.97,1.90*11
$GPGSV,5,1,17,08,07,318,,10,16,002,,16,25,242,26,18,33,083,10*79
$GPGSV,5,2,17,23,02,040,09,25,00,123,07,26,29,210,23,27,42,310,33*7A
$GPGSV,5,3,17,28,48,151,34,29,14,148,15,31,34,187,32,32,59,359,35*74
$GPGSV,5,4,17,36,52,277,,40,84,353,34,41,58,082,,49,32,274,*7B
$GPGSV,5,5,17,50,10,089,*4A
$GLGSV,3,1,09,68,17,005,,69,47,316,26,70,22,236,,79,12,142,14*60
$GLGSV,3,2,09,80,14,193,20,81,18,137,05,82,52,092,20,83,39,012,18*66
$GLGSV,3,3,09,,,,18*65
$GNGLL,0419.98710,S,05539.67128,E,113139.00,A,D*6C
$GNRMC,113140.00,A,0419.98718,S,05539.67119,E,0.140,,020625,,,D*77
$GNVTG,,T,,M,0.140,N,0.259,K,D*33
$GNGGA,113140.00,0419.98718,S,05539.67119,E,2,12,0.95,17.9,M,-47.6,M,,0000*43
$GNGSA,A,3,32,29,26,28,18,16,31,27,40,,,,2.02,0.95,1.79*16
$GNGSA,A,3,69,81,82,79,,,,,,,,,2.02,0.95,1.79*1D
$GPGSV,5,1,17,08,07,318,,10,16,002,,16,25,242,26,18,33,083,09*71
$GPGSV,5,2,17,23,02,040,08,25,00,123,07,26,29,210,24,27,42,310,29*77
$GPGSV,5,3,17,28,48,151,30,29,14,148,18,31,34,187,26,32,59,359,31*7C
$GPGSV,5,4,17,36,52,277,,40,84,353,34,41,58,082,,49,32,274,*7B
$GPGSV,5,5,17,50,10,089,*4A
$GLGSV,3,1,09,68,17,005,,69,47,316,28,70,22,237,,79,12,142,14*6F
$GLGSV,3,2,09,80,14,193,23,81,18,137,09,82,52,092,20,83,39,012,19*68
$GLGSV,3,3,09,,,,19*64
$GNGLL,0419.98718,S,05539.67119,E,113140.00,A,D*68
$GNRMC,113141.00,A,0419.98730,S,05539.67098,E,0.238,,020625,,,D*78
$GNVTG,,T,,M,0.238,N,0.441,K,D*30
$GNGGA,113141.00,0419.98730,S,05539.67098,E,2,12,0.94,19.4,M,-47.6,M,,0000*42
$GNGSA,A,3,32,29,26,28,18,16,31,27,40,,,,1.92,0.94,1.67*12
$GNGSA,A,3,69,81,82,79,,,,,,,,,1.92,0.94,1.67*19
$GPGSV,5,1,17,08,07,318,,10,16,002,,16,25,242,27,18,33,083,09*70
$GPGSV,5,2,17,23,02,040,08,25,00,123,09,26,29,210,24,27,42,310,29*79
$GPGSV,5,3,17,28,48,151,30,29,14,148,19,31,34,187,26,32,59,359,30*7C
$GPGSV,5,4,17,36,52,277,,40,84,353,31,41,58,082,,49,32,274,*7E
$GPGSV,5,5,17,50,10,089,*4A
$GLGSV,3,1,09,68,17,005,,69,47,316,28,70,22,237,,79,12,142,13*68
$GLGSV,3,2,09,80,14,193,24,81,18,137,08,82,52,092,22,83,39,012,21*67
$GLGSV,3,3,09,,,,18*65
$GNGLL,0419.98730,S,05539.67098,E,113141.00,A,D*6B
$GNRMC,113142.00,A,0419.98725,S,05539.67106,E,0.081,,020625,,,D*79
$GNVTG,,T,,M,0.081,N,0.150,K,D*35
$GNGGA,113142.00,0419.98725,S,05539.67106,E,2,12,0.95,19.0,M,-47.6,M,,0000*46
$GNGSA,A,3,32,29,26,28,18,16,31,27,40,,,,2.02,0.95,1.79*16
$GNGSA,A,3,69,81,82,,,,,,,,,,2.02,0.95,1.79*13
$GPGSV,5,1,17,08,07,318,,10,16,002,,16,25,242,27,18,33,083,11*79
$GPGSV,5,2,17,23,02,040,09,25,00,123,08,26,29,210,26,27,42,310,31*72
$GPGSV,5,3,17,28,48,151,34,29,14,148,20,31,34,187,29,32,59,359,34*79
$GPGSV,5,4,17,36,52,277,,40,84,353,36,41,58,082,,49,32,274,*79
$GPGSV,5,5,17,50,10,089,*4A
$GLGSV,3,1,09,68,17,005,,69,47,316,28,70,22,237,,79,12,142,07*6D
$GLGSV,3,2,09,80,14,193,26,81,18,137,10,82,52,092,23,83,39,012,20*6C
$GLGSV,3,3,09,,,,19*64
$GNGLL,0419.98725,S,05539.67106,E,113142.00,A,D*6A
$GNRMC,113143.00,A,0419.98718,S,05539.67119,E,0.362,,020625,,,D*76
$GNVTG,,T,,M,0.362,N,0.671,K,D*3F
$GNGGA,113143.00,0419.98718,S,05539.67119,E,2,12,0.94,18.5,M,-47.6,M,,0000*42
$GNGSA,A,3,32,29,26,28,18,16,31,27,40,,,,1.92,0.94,1.67*12
$GNGSA,A,3,69,81,82,79,,,,,,,,,1.92,0.94,1.67*19
$GPGSV,5,1,17,08,07,318,,10,16,002,,16,25,242,26,18,33,083,08*70
$GPGSV,5,2,17,23,02,040,08,25,00,123,07,26,29,210,25,27,42,310,31*7F
$GPGSV,5,3,17,28,48,151,30,29,14,148,20,31,34,187,28,32,59,359,32*7A
$GPGSV,5,4,17,36,52,277,,40,84,353,31,41,58,082,,49,32,274,*7E
$GPGSV,5,5,17,50,10,089,*4A
$GLGSV,3,1,09,68,17,005,,69,47,316,28,70,22,237,,79,12,142,09*63
$GLGSV,3,2,09,80,14,193,26,81,18,137,15,82,52,092,24,83,39,012,22*6C
$GLGSV,3,3,09,,,,19*64
$GNGLL,0419.98718,S,05539.67119,E,113143.00,A,D*6B
$GNRMC,113144.00,A,0419.98723,S,05539.67112,E,0.108,,020625,,,A*79
$GNVTG,,T,,M,0.108,N,0.201,K,A*37
$GNGGA,113144.00,0419.98723,S,05539.67112,E,1,12,0.94,19.4,M,-47.6,M,,*45
$GNGSA,A,3,32,29,26,28,18,16,31,27,40,,,,1.92,0.94,1.67*12
$GNGSA,A,3,69,81,82,79,,,,,,,,,1.92,0.94,1.67*19
$GPGSV,5,1,17,08,07,318,,10,16,002,,16,25,242,24,18,33,083,09*73
$GPGSV,5,2,17,23,02,040,08,25,00,123,08,26,29,210,23,27,42,310,26*70
$GPGSV,5,3,17,28,48,151,29,29,14,148,18,31,34,187,27,32,59,359,30*74
$GPGSV,5,4,17,36,52,277,,40,84,353,29,41,58,082,,49,32,274,*77
$GPGSV,5,5,17,50,10,089,*4A
$GLGSV,3,1,09,68,17,005,,69,47,316,27,70,22,237,,79,12,142,09*6C
$GLGSV,3,2,09,80,14,193,24,81,18,137,08,82,52,092,23,83,39,012,22*65
$GLGSV,3,3,09,,,,18*65
$GNGLL,0419.98723,S,05539.67112,E,113144.00,A,A*6A
$GNRMC,113145.00,A,0419.98722,S,05539.67108,E,0.167,,020625,,,A*7B
$GNVTG,,T,,M,0.167,N,0.310,K,A*3F
$GNGGA,113145.00,0419.98722,S,05539.67108,E,1,12,0.94,19.7,M,-47.6,M,,*4D
$GNGSA,A,3,32,29,26,28,18,16,31,27,40,,,,1.92,0.94,1.67*12
$GNGSA,A,3,69,81,82,79,,,,,,,,,1.92,0.94,1.67*19
$GPGSV,5,1,17,08,07,318,,10,16,002,,16,25,242,24,18,33,083,12*79
$GPGSV,5,2,17,23,02,040,08,25,00,123,12,26,29,210,21,27,42,310,27*78
$GPGSV,5,3,17,28,48,151,29,29,14,148,16,31,34,187,27,32,59,359,30*7A
$GPGSV,5,4,17,36,52,277,,40,84,353,29,41,58,082,,49,32,274,*77
$GPGSV,5,5,17,50,10,089,*4A
$GLGSV,3,1,09,68,17,005,,69,47,316,26,70,22,237,,79,12,142,09*6D
$GLGSV,3,2,09,80,14,193,23,81,18,137,10,82,52,092,22,83,39,012,22*6A
$GLGSV,3,3,09,,,,16*6B
$GNGLL,0419.98722,S,05539.67108,E,113145.00,A,A*61
$GNRMC,113146.00,A,0419.98722,S,05539.67104,E,0.132,,020625,,,A*74
$GNVTG,,T,,M,0.132,N,0.245,K,A*3E
$GNGGA,113146.00,0419.98722,S,05539.67104,E,1,12,1.12,19.9,M,-47.6,M,,*43
$GNGSA,A,3,32,29,26,28,18,16,31,27,40,,,,2.54,1.12,2.28*1C
$GNGSA,A,3,69,81,82,79,,,,,,,,,2.54,1.12,2.28*17
$GPGSV,5,1,17,08,07,318,,10,16,002,,16,25,242,25,18,33,083,15*7F
$GPGSV,5,2,17,23,02,040,08,25,00,123,09,26,29,210,22,27,42,310,28*7E
$GPGSV,5,3,17,28,48,151,28,29,14,148,16,31,34,187,27,32,59,359,29*73
$GPGSV,5,4,17,36,52,277,,40,84,353,31,41,58,082,,49,32,274,*7E
$GPGSV,5,5,17,50,10,089,*4A
$GLGSV,3,1,09,68,17,005,,69,47,316,27,70,22,237,,79,12,142,12*66
$GLGSV,3,2,09,80,14,193,23,81,18,137,07,82,52,092,21,83,39,012,21*6C
$GLGSV,3,3,09,,,,14*69
$GNGLL,0419.98722,S,05539.67104,E,113146.00,A,A*6E
$GNRMC,113147.00,A,0419.98732,S,05539.67082,E,0.330,,020625,,,A*7B
$GNVTG,,T,,M,0.330,N,0.611,K,A*3B
$GNGGA,113147.00,0419.98732,S,05539.67082,E,1,12,0.94,21.2,M,-47.6,M,,*43
$GNGSA,A,3,32,29,26,28,18,16,31,27,40,,,,1.92,0.94,1.67*12
$GNGSA,A,3,69,81,82,79,,,,,,,,,1.92,0.94,1.67*19
$GPGSV,5,1,17,08,07,318,,10,16,002,,16,25,242,25,18,33,083,11*7B
$GPGSV,5,2,17,23,02,040,08,25,00,123,10,26,29,210,23,27,42,310,33*7D
$GPGSV,5,3,17,28,48,151,35,29,14,148,16,31,34,187,27,32,59,359,33*74
$GPGSV,5,4,17,36,52,277,,40,84,353,37,41,58,082,,49,32,274,*78
$GPGSV,5,5,17,50,10,089,*4A
$GLGSV,2,1,08,68,17,005,,69,47,316,29,70,22,237,,79,12,142,14*6E
$GLGSV,2,2,08,80,14,193,25,81,18,137,10,82,52,092,20,83,39,012,19*66
$GNGLL,0419.98732,S,05539.67082,E,113147.00,A,A*61
$GNRMC,113148.00,A,0419.98740,S,05539.67060,E,0.036,,020625,,,A*78
$GNVTG,,T,,M,0.036,N,0.066,K,A*38
$GNGGA,113148.00,0419.98740,S,05539.67060,E,1,12,0.94,22.3,M,-47.6,M,,*47
$GNGSA,A,3,32,29,26,28,18,16,31,27,40,,,,1.92,0.94,1.67*12
$GNGSA,A,3,69,81,82,79,,,,,,,,,1.92,0.94,1.67*19
$GPGSV,5,1,17,08,07,318,,10,16,002,,16,25,242,25,18,33,083,09*72
$GPGSV,5,2,17,23,02,040,08,25,00,123,11,26,29,210,22,27,42,310,33*7D
$GPGSV,5,3,17,28,48,151,34,29,14,148,15,31,34,187,26,32,59,359,33*77
$GPGSV,5,4,17,36,52,277,,40,84,353,34,41,58,082,,49,32,274,*7B
$GPGSV,5,5,17,50,10,089,*4A
$GLGSV,2,1,08,68,17,005,,69,47,316,33,70,22,237,,79,12,142,10*61
$GLGSV,2,2,08,80,14,193,27,81,18,137,10,82,52,092,21,83,39,012,21*6E
$GNGLL,0419.98740,S,05539.67060,E,113148.00,A,A*67
$GNRMC,113149.00,A,0419.98741,S,05539.67038,E,0.617,,020625,,,A*70
$GNVTG,,T,,M,0.617,N,1.144,K,A*3D
$GNGGA,113149.00,0419.98741,S,05539.67038,E,1,12,0.95,23.8,M,-47.6,M,,*41
$GNGSA,A,3,32,29,26,28,18,16,31,27,40,,,,2.02,0.95,1.78*17
$GNGSA,A,3,69,81,82,79,,,,,,,,,2.02,0.95,1.78*1C
$GPGSV,5,1,17,08,07,318,,10,16,002,,16,25,242,23,18,33,083,12*7E
$GPGSV,5,2,17,23,02,040,09,25,00,123,09,26,29,210,21,27,42,310,27*73
$GPGSV,5,3,17,28,48,151,25,29,14,148,15,31,34,187,25,32,59,359,21*77
$GPGSV,5,4,17,36,52,277,,40,84,353,29,41,58,082,,49,32,274,*77
$GPGSV,5,5,17,50,10,089,*4A
$GLGSV,2,1,08,68,17,005,,69,47,316,26,70,22,237,,79,12,141,15*63
$GLGSV,2,2,08,80,14,193,26,81,18,137,09,82,52,092,21,83,39,012,21*67
$GNGLL,0419.98741,S,05539.67038,E,113149.00,A,A*6A
$GNRMC,113150.00,A,0419.98744,S,05539.67023,E,0.038,,020625,,,A*7C
$GNVTG,,T,,M,0.038,N,0.070,K,A*31
$GNGGA,113150.00,0419.98744,S,05539.67023,E,1,12,0.94,24.6,M,-47.6,M,,*4E
$GNGSA,A,3,32,29,26,28,18,16,31,27,40,,,,1.92,0.94,1.67*12
$GNGSA,A,3,69,81,82,79,,,,,,,,,1.92,0.94,1.67*19
$GPGSV,5,1,17,08,07,318,,10,16,002,,16,25,242,25,18,33,083,17*7D
$GPGSV,5,2,17,23,02,040,09,25,00,123,08,26,29,210,22,27,42,310,32*75
$GPGSV,5,3,17,28,48,151,31,29,14,148,18,31,34,187,31,32,59,359,33*79
$GPGSV,5,4,17,36,52,277,,40,84,353,33,41,58,082,,49,32,274,*7C
$GPGSV,5,5,17,50,10,089,*4A
$GLGSV,2,1,08,68,17,005,,69,47,316,34,70,22,237,,79,12,141,11*64
$GLGSV,2,2,08,80,14,193,25,81,18,137,13,82,52,092,23,83,39,012,23*6F
$GNGLL,0419.98744,S,05539.67023,E,113150.00,A,A*6D
$GNRMC,113151.00,A,0419.98755,S,05539.67009,E,0.120,,020625,,,A*7D
$GNVTG,,T,,M,0.120,N,0.221,K,A*3F
$GNGGA,113151.00,0419.98755,S,05539.67009,E,1,12,0.95,26.0,M,-47.6,M,,*42
$GNGSA,A,3,32,29,26,28,18,16,31,27,40,,,,1.96,0.95,1.71*10
$GNGSA,A,3,69,82,79,,,,,,,,,,1.96,0.95,1.71*12
$GPGSV,5,1,17,08,07,318,,10,16,002,,16,25,242,26,18,33,083,15*7C
$GPGSV,5,2,17,23,02,040,09,25,00,123,12,26,29,210,23,27,42,310,34*79
$GPGSV,5,3,17,28,48,151,33,29,14,148,19,31,34,187,31,32,59,359,32*7B
$GPGSV,5,4,17,36,52,277,,40,84,353,34,41,58,082,,49,32,274,*7B
$GPGSV,5,5,17,50,10,089,*4A
$GLGSV,2,1,08,68,17,005,,69,47,316,33,70,22,237,,79,12,141,19*6B
$GLGSV,2,2,08,80,14,193,26,81,18,138,06,82,52,092,25,83,39,012,26*64
$GNGLL,0419.98755,S,05539.67009,E,113151.00,A,A*64
$GNRMC,113152.00,A,0419.98762,S,05539.66997,E,0.153,,020625,,,A*71
$GNVTG,,T,,M,0.153,N,0.284,K,A*34
$GNGGA,113152.00,0419.98762,S,05539.66997,E,1,12,0.95,27.1,M,-47.6,M,,*4A
$GNGSA,A,3,32,29,26,28,18,16,31,27,40,,,,1.96,0.95,1.71*10
$GNGSA,A,3,69,81,82,79,,,,,,,,,1.96,0.95,1.71*1B
$GPGSV,5,1,17,08,07,318,,10,16,002,,16,25,242,27,18,33,083,10*78
$GPGSV,5,2,17,23,02,040,09,25,00,123,09,26,29,210,24,27,42,310,33*73
$GPGSV,5,3,17,28,48,151,34,29,14,148,22,31,34,187,31,32,59,359,33*75
$GPGSV,5,4,17,36,52,277,,40,84,353,34,41,58,082,,49,32,274,*7B
$GPGSV,5,5,17,50,10,089,*4A
$GLGSV,2,1,08,68,17,005,,69,47,316,33,70,22,237,,79,12,141,10*62
$GLGSV,2,2,08,80,14,193,27,81,18,138,14,82,52,093,25,83,39,012,27*66
$GNGLL,0419.98762,S,05539.66997,E,113152.00,A,A*6C
$GNRMC,113153.00,A,0419.98771,S,05539.66979,E,0.303,,020625,,,A*75
$GNVTG,,T,,M,0.303,N,0.561,K,A*3F
$GNGGA,113153.00,0419.98771,S,05539.66979,E,1,12,0.94,28.4,M,-47.6,M,,*42
$GNGSA,A,3,32,29,26,28,18,16,31,27,40,,,,1.92,0.94,1.67*12
$GNGSA,A,3,69,81,82,79,,,,,,,,,1.92,0.94,1.67*19
$GPGSV,5,1,17,08,07,318,,10,16,002,,16,25,242,27,18,33,083,14*7C
$GPGSV,5,2,17,23,02,040,09,25,00,123,11,26,29,210,26,27,42,310,34*7F
$GPGSV,5,3,17,28,48,151,34,29,14,148,24,31,34,187,32,32,59,359,33*70
$GPGSV,5,4,17,36,52,277,,40,84,353,34,41,58,082,,49,32,274,*7B
$GPGSV,5,5,17,50,10,089,*4A
$GLGSV,2,1,08,68,17,005,,69,47,316,33,70,22,237,,79,12,141,09*6A
$GLGSV,2,2,08,80,14,193,27,81,18,138,21,82,52,093,23,83,40,012,26*69
$GNGLL,0419.98771,S,05539.66979,E,113153.00,A,A*6F
$GNRMC,113154.00,A,0419.98764,S,05539.66987,E,0.083,,020625,,,A*7C
$GNVTG,,T,,M,0.083,N,0.154,K,A*36
$GNGGA,113154.00,0419.98764,S,05539.66987,E,1,12,0.95,28.1,M,-47.6,M,,*44
$GNGSA,A,3,32,29,26,28,18,16,31,27,40,,,,2.02,0.95,1.78*17
$GNGSA,A,3,69,81,82,,,,,,,,,,2.02,0.95,1.78*12
$GPGSV,5,1,17,08,07,318,,10,16,002,,16,25,242,28,18,33,083,09*7F
$GPGSV,5,2,17,23,02,040,09,25,00,123,09,26,29,210,26,27,42,310,36*74
$GPGSV,5,3,17,28,48,151,34,29,14,148,26,31,34,187,31,32,59,359,36*74
$GPGSV,5,4,17,36,52,277,,40,84,353,35,41,58,082,,49,32,274,*7A
$GPGSV,5,5,17,50,10,089,*4A
$GLGSV,2,1,08,68,17,005,,69,47,316,33,70,22,237,,79,12,141,07*64
$GLGSV,2,2,08,80,14,193,25,81,18,138,16,82,52,093,20,83,40,012,24*6E
$GNGLL,0419.98764,S,05539.66987,E,113154.00,A,A*6D
$GNRMC,113155.00,A,0419.98746,S,05539.67019,E,0.170,,020625,,,D*7A
$GNVTG,,T,,M,0.170,N,0.315,K,D*39
$GNGGA,113155.00,0419.98746,S,05539.67019,E,2,12,1.09,26.2,M,-47.6,M,,0000*40
$GNGSA,A,3,32,29,26,28,18,16,31,27,40,,,,2.19,1.09,1.90*1F
$GNGSA,A,3,69,81,82,79,,,,,,,,,2.19,1.09,1.90*14
$GPGSV,5,1,17,08,07,318,,10,16,002,,16,25,242,26,18,33,083,09*71
$GPGSV,5,2,17,23,02,040,08,25,00,123,12,26,29,210,25,27,42,310,33*79
$GPGSV,5,3,17,28,48,151,34,29,14,148,25,31,34,187,31,32,59,359,29*79
$GPGSV,5,4,17,36,52,277,,40,84,353,35,41,58,082,,49,32,274,*7A
$GPGSV,5,5,17,50,10,089,*4A
$GLGSV,2,1,08,68,17,005,,69,47,316,32,70,22,237,,79,12,141,17*64
$GLGSV,2,2,08,80,14,193,24,81,18,138,17,82,52,093,20,83,40,012,25*6F
$GNGLL,0419.98746,S,05539.67019,E,113155.00,A,D*66
$GNRMC,113156.00,A,0419.98749,S,05539.67012,E,0.151,,020625,,,D*7E
$GNVTG,,T,,M,0.151,N,0.279,K,D*31
$GNGGA,113156.00,0419.98749,S,05539.67012,E,2,12,0.94,26.6,M,-47.6,M,,0000*46
$GNGSA,A,3,32,29,26,28,18,16,31,27,40,,,,1.92,0.94,1.67*12
$GNGSA,A,3,69,81,82,79,,,,,,,,,1.92,0.94,1.67*19
$GPGSV,5,1,17,08,07,318,,10,16,002,,16,25,242,25,18,33,083,11*7B
$GPGSV,5,2,17,23,02,040,08,25,00,123,11,26,29,210,25,27,42,310,30*79
$GPGSV,5,3,17,28,48,151,29,29,14,148,23,31,34,187,29,32,59,359,29*7A
$GPGSV,5,4,17,36,52,277,,40,84,353,31,41,58,082,,49,32,274,*7E
$GPGSV,5,5,17,50,10,089,*4A
$GLGSV,2,1,08,68,17,005,,69,47,316,28,70,22,237,,79,12,141,11*69
$GLGSV,2,2,08,80,14,193,23,81,18,138,15,82,52,093,19,83,40,012,23*66
$GNGLL,0419.98749,S,05539.67012,E,113156.00,A,D*61
$GNRMC,113157.00,A,0419.98745,S,05539.67016,E,0.085,,020625,,,D*7F
$GNVTG,,T,,M,0.085,N,0.157,K,D*36
$GNGGA,113157.00,0419.98745,S,05539.67016,E,2,12,0.94,26.4,M,-47.6,M,,0000*4D
$GNGSA,A,3,32,29,26,28,18,16,31,27,40,,,,1.92,0.94,1.67*12
$GNGSA,A,3,69,81,82,79,,,,,,,,,1.92,0.94,1.67*19
$GPGSV,5,1,17,08,07,318,,10,16,002,,16,25,242,23,18,33,083,12*7E
$GPGSV,5,2,17,23,02,040,08,25,00,123,09,26,29,210,22,27,42,310,28*7E
$GPGSV,5,3,17,28,48,151,28,29,14,148,22,31,34,187,28,32,59,359,28*7A
$GPGSV,5,4,17,36,52,277,,40,84,353,31,41,58,082,,49,32,274,*7E
$GPGSV,5,5,17,50,10,089,*4A
$GLGSV,2,1,08,68,17,005,,69,47,316,29,70,22,237,,79,12,141,13*6A
$GLGSV,2,2,08,80,14,193,23,81,18,138,13,82,52,093,18,83,40,012,22*60
$GNGLL,0419.98745,S,05539.67016,E,113157.00,A,D*68
$GNRMC,113158.00,A,0419.98744,S,05539.67024,E,0.158,,020625,,,D*71
$GNVTG,,T,,M,0.158,N,0.293,K,D*3C
$GNGGA,113158.00,0419.98744,S,05539.67024,E,2,12,0.96,26.3,M,-47.6,M,,0000*47
$GNGSA,A,3,32,29,26,28,18,16,31,27,40,,,,2.20,0.96,1.98*1A
$GNGSA,A,3,69,81,82,79,,,,,,,,,2.20,0.96,1.98*11
$GPGSV,5,1,17,08,07,318,,10,16,002,,16,25,242,30,18,33,083,15*7B
$GPGSV,5,2,17,23,02,040,08,25,00,123,10,26,29,210,26,27,42,310,34*7F
$GPGSV,5,3,17,28,48,151,30,29,14,148,24,31,34,187,33,32,59,359,34*72
$GPGSV,5,4,17,36,52,277,,40,84,353,36,41,58,082,,49,32,274,*79
$GPGSV,5,5,17,50,10,089,*4A
$GLGSV,2,1,08,68,17,005,,69,47,316,32,70,22,237,,79,12,141,09*6B
$GLGSV,2,2,08,80,14,193,26,81,18,138,09,82,52,093,21,83,40,012,31*66
$GNGLL,0419.98744,S,05539.67024,E,113158.00,A,D*67
$GNRMC,113159.00,A,0419.98745,S,05539.67030,E,0.101,,020625,,,D*78
$GNVTG,,T,,M,0.101,N,0.188,K,D*39
$GNGGA,113159.00,0419.98745,S,05539.67030,E,2,12,0.94,26.4,M,-47.6,M,,0000*47
$GNGSA,A,3,32,29,26,28,18,16,31,27,40,,,,1.92,0.94,1.67*12
$GNGSA,A,3,69,81,82,79,,,,,,,,,1.92,0.94,1.67*19
$GPGSV,5,1,17,08,07,318,,10,16,002,,16,25,242,29,18,33,083,19*7F
$GPGSV,5,2,17,23,02,040,08,25,00,123,09,26,29,210,28,27,42,310,37*7A
$GPGSV,5,3,17,28,48,151,32,29,14,148,26,31,34,187,31,32,59,359,33*77
$GPGSV,5,4,17,36,52,277,,40,84,353,36,41,58,082,,49,32,274,*79
$GPGSV,5,5,17,50,10,089,*4A
$GLGSV,2,1,08,68,17,005,,69,47,316,33,70,22,237,,79,12,141,09*6A
$GLGSV,2,2,08,80,14,193,28,81,18,138,16,82,52,093,22,83,40,012,29*6C
$GNGLL,0419.98745,S,05539.67030,E,113159.00,A,D*62
$GNRMC,113200.00,A,0419.98740,S,05539.67037,E,0.036,,020625,,,D*70
$GNVTG,,T,,M,0.036,N,0.068,K,D*33
$GNGGA,113200.00,0419.98740,S,05539.67037,E,2,12,0.94,26.1,M,-47.6,M,,0000*4F
$GNGSA,A,3,32,29,26,28,18,16,31,27,40,,,,1.92,0.94,1.67*12
$GNGSA,A,3,69,81,82,79,,,,,,,,,1.92,0.94,1.67*19
$GPGSV,5,1,17,08,07,318,,10,16,002,,16,25,242,29,18,33,083,20*75
$GPGSV,5,2,17,23,02,040,08,25,00,123,12,26,29,210,26,27,42,310,34*7D
$GPGSV,5,3,17,28,48,151,31,29,14,148,27,31,34,187,30,32,59,359,33*74
$GPGSV,5,4,17,36,52,277,,40,84,353,36,41,58,082,,49,32,274,*79
$GPGSV,5,5,17,50,10,089,*4A
$GLGSV,2,1,08,68,17,005,,69,47,316,32,70,22,237,,79,12,141,09*6B
$GLGSV,2,2,08,80,14,193,29,81,18,138,17,82,52,093,23,83,40,012,29*6D
$GNGLL,0419.98740,S,05539.67037,E,113200.00,A,D*6F
$GNRMC,113201.00,A,0419.98736,S,05539.67044,E,0.022,,020625,,,D*71
$GNVTG,,T,,M,0.022,N,0.041,K,D*3D
$GNGGA,113201.00,0419.98736,S,05539.67044,E,2,12,0.94,25.7,M,-47.6,M,,0000*4E
$GNGSA,A,3,32,29,26,28,18,16,31,27,40,,,,1.92,0.94,1.67*12
$GNGSA,A,3,69,81,82,79,,,,,,,,,1.92,0.94,1.67*19
$GPGSV,5,1,17,08,07,318,,10,16,002,,16,25,242,29,18,33,083,18*7E
$GPGSV,5,2,17,23,02,040,,25,00,123,07,26,29,210,26,27,42,310,35*70
$GPGSV,5,3,17,28,48,151,33,29,14,148,27,31,34,187,31,32,59,359,33*77
$GPGSV,5,4,17,36,52,277,,40,84,353,35,41,58,082,,49,32,274,*7A
$GPGSV,5,5,17,50,10,089,*4A
$GLGSV,2,1,08,68,17,005,,69,47,316,35,70,22,237,,79,12,141,12*66
$GLGSV,2,2,08,80,14,193,29,81,18,138,10,82,52,093,23,83,40,012,29*6A
$GNGLL,0419.98736,S,05539.67044,E,113201.00,A,D*6B
$GNRMC,113202.00,A,0419.98732,S,05539.67045,E,0.096,,020625,,,D*78
$GNVTG,,T,,M,0.096,N,0.178,K,D*39
$GNGGA,113202.00,0419.98732,S,05539.67045,E,2,12,0.94,25.6,M,-47.6,M,,0000*49
$GNGSA,A,3,32,29,26,28,18,16,31,27,40,,,,1.91,0.94,1.67*11
$GNGSA,A,3,69,81,82,79,,,,,,,,,1.91,0.94,1.67*1A
$GPGSV,5,1,17,08,07,318,,10,16,002,,16,25,242,28,18,33,083,17*70
$GPGSV,5,2,17,23,02,040,,25,00,123,07,26,29,210,27,27,42,310,34*70
$GPGSV,5,3,17,28,48,151,33,29,14,148,27,31,34,187,31,32,59,359,33*77
$GPGSV,5,4,17,36,52,277,,40,84,353,33,41,58,082,,49,32,274,*7C
$GPGSV,5,5,17,50,10,089,*4A
$GLGSV,2,1,08,68,17,005,,69,47,316,33,70,22,237,,79,12,141,12*60
$GLGSV,2,2,08,80,14,193,30,81,18,138,15,82,52,093,23,83,40,012,29*67
$GNGLL,0419.98732,S,05539.67045,E,113202.00,A,D*6D
$GNRMC,113203.00,A,0419.98735,S,05539.67041,E,0.086,,020625,,,D*7B
$GNVTG,,T,,M,0.086,N,0.159,K,D*3B
$GNGGA,113203.00,0419.98735,S,05539.67041,E,2,12,0.94,25.7,M,-47.6,M,,0000*4A
$GNGSA,A,3,32,29,26,28,18,16,31,27,40,,,,1.91,0.94,1.67*11
$GNGSA,A,3,69,81,82,79,,,,,,,,,1.91,0.94,1.67*1A
$GPGSV,5,1,17,08,07,318,,10,16,002,,16,25,242,28,18,33,083,15*72
$GPGSV,5,2,17,23,02,040,,25,00,123,07,26,29,210,26,27,42,310,35*70
$GPGSV,5,3,17,28,48,151,32,29,14,148,27,31,34,187,32,32,59,359,34*72
$GPGSV,5,4,17,36,52,277,,40,84,353,32,41,58,082,,49,32,274,*7D
$GPGSV,5,5,17,50,10,089,*4A
$GLGSV,2,1,08,68,17,005,,69,47,316,32,70,22,237,,79,12,141,16*65
$GLGSV,2,2,08,80,14,193,30,81,18,138,16,82,52,093,22,83,40,012,29*65
$GNGLL,0419.98735,S,05539.67041,E,113203.00,A,D*6F
$GNRMC,113204.00,A,0419.98732,S,05539.67047,E,0.012,,020625,,,D*70
$GNVTG,,T,,M,0.012,N,0.021,K,D*38
$GNGGA,113204.00,0419.98732,S,05539.67047,E,2,12,0.94,25.2,M,-47.6,M,,0000*49
$GNGSA,A,3,32,29,26,28,18,16,31,27,40,,,,1.91,0.94,1.67*11
$GNGSA,A,3,69,81,82,79,,,,,,,,,1.91,0.94,1.67*1A
$GPGSV,5,1,17,08,07,318,,10,16,002,,16,25,242,28,18,33,083,17*70
$GPGSV,5,2,17,23,02,040,,25,00,123,07,26,29,210,26,27,42,310,35*70
$GPGSV,5,3,17,28,48,151,34,29,14,148,27,31,34,187,35,32,59,359,32*75
$GPGSV,5,4,17,36,52,277,,40,84,353,33,41,58,082,,49,32,274,*7C
$GPGSV,5,5,17,50,10,089,*4A
$GLGSV,2,1,08,68,17,005,,69,47,316,33,70,22,237,,79,12,141,16*64
$GLGSV,2,2,08,80,14,193,29,81,18,138,16,82,52,093,22,83,40,012,29*6D
$GNGLL,0419.98732,S,05539.67047,E,113204.00,A,D*69
$GNRMC,113205.00,A,0419.98731,S,05539.67054,E,0.024,,020625,,,D*75
$GNVTG,,T,,M,0.024,N,0.044,K,D*3E
$GNGGA,113205.00,0419.98731,S,05539.67054,E,2,12,0.92,25.1,M,-47.6,M,,0000*4C
$GNGSA,A,3,32,29,26,28,18,16,31,27,40,,,,1.88,0.92,1.64*1C
$GNGSA,A,3,69,81,82,79,80,,,,,,,,1.88,0.92,1.64*1F
$GPGSV,5,1,17,08,07,318,,10,16,002,,16,25,242,28,18,33,083,21*75
$GPGSV,5,2,17,23,02,040,,25,00,123,07,26,29,210,27,27,42,310,37*73
$GPGSV,5,3,17,28,48,151,35,29,14,148,27,31,34,187,35,32,59,359,33*75
$GPGSV,5,4,17,36,52,277,,40,84,353,35,41,58,082,,49,32,274,*7A
$GPGSV,5,5,17,50,10,089,*4A
$GLGSV,2,1,08,68,17,005,,69,47,316,34,70,22,237,,79,12,141,16*63
$GLGSV,2,2,08,80,14,193,28,81,18,138,12,82,52,093,23,83,40,012,28*68
$GNGLL,0419.98731,S,05539.67054,E,113205.00,A,D*69
$GNRMC,113206.00,A,0419.98727,S,05539.67060,E,0.053,,020625,,,D*76
$GNVTG,,T,,M,0.053,N,0.097,K,D*30
$GNGGA,113206.00,0419.98727,S,05539.67060,E,2,12,0.92,24.9,M,-47.6,M,,0000*46
$GNGSA,A,3,32,29,26,28,18,16,31,27,40,,,,1.88,0.92,1.64*1C
$GNGSA,A,3,69,81,82,79,80,,,,,,,,1.88,0.92,1.64*1F
$GPGSV,5,1,17,08,08,318,,10,16,002,,16,25,242,29,18,33,083,22*78
$GPGSV,5,2,17,23,02,040,,25,00,123,07,26,29,210,25,27,42,310,36*70
$GPGSV,5,3,17,28,48,151,34,29,14,148,28,31,34,187,32,32,59,359,33*7C
$GPGSV,5,4,17,36,52,277,,40,84,353,34,41,58,082,,49,32,274,*7B
$GPGSV,5,5,17,50,10,089,*4A
$GLGSV,2,1,08,68,17,005,,69,47,316,34,70,22,237,,79,12,141,16*63
$GLGSV,2,2,08,80,14,193,28,81,18,138,17,82,52,093,23,83,40,012,27*62
$GNGLL,0419.98727,S,05539.67060,E,113206.00,A,D*6A
$GNRMC,113207.00,A,0419.98727,S,05539.67064,E,0.035,,020625,,,D*73
$GNVTG,,T,,M,0.035,N,0.064,K,D*3C
$GNGGA,113207.00,0419.98727,S,05539.67064,E,2,12,0.82,24.6,M,-47.6,M,,0000*4D
$GNGSA,A,3,32,29,26,28,18,16,31,27,40,,,,1.74,0.82,1.54*1D
$GNGSA,A,3,69,81,82,79,80,83,,,,,,,1.74,0.82,1.54*15
$GPGSV,5,1,17,08,08,318,,10,16,002,,16,25,242,30,18,33,083,23*71
$GPGSV,5,2,17,23,02,040,,25,00,123,07,26,29,210,25,27,42,310,36*70
$GPGSV,5,3,17,28,48,151,34,29,14,148,28,31,34,187,31,32,59,359,33*7F
$GPGSV,5,4,17,36,52,277,,40,84,353,35,41,58,082,,49,32,274,*7A
$GPGSV,5,5,17,50,10,089,*4A
$GLGSV,2,1,08,68,17,005,,69,47,316,34,70,22,237,,79,12,141,17*62
$GLGSV,2,2,08,80,14,193,29,81,18,138,18,82,52,093,23,83,40,012,28*63
$GNGLL,0419.98727,S,05539.67064,E,113207.00,A,D*6F
$GNRMC,113208.00,A,0419.98732,S,05539.67058,E,0.093,,020625,,,D*7B
$GNVTG,,T,,M,0.093,N,0.173,K,D*37
$GNGGA,113208.00,0419.98732,S,05539.67058,E,2,12,0.82,24.8,M,-47.6,M,,0000*47
$GNGSA,A,3,32,29,26,28,18,16,31,27,40,,,,1.74,0.82,1.54*1D
$GNGSA,A,3,69,81,82,79,80,83,,,,,,,1.74,0.82,1.54*15
$GPGSV,5,1,17,08,08,318,,10,16,002,,16,25,242,29,18,33,083,21*7B
$GPGSV,5,2,17,23,02,040,,25,00,123,07,26,29,210,28,27,42,310,36*7D
$GPGSV,5,3,17,28,48,151,35,29,14,148,27,31,34,187,31,32,59,359,34*76
$GPGSV,5,4,17,36,52,277,,40,84,353,36,41,58,082,,49,32,274,*79
$GPGSV,5,5,17,50,10,089,*4A
$GLGSV,2,1,08,68,17,005,,69,47,316,34,70,22,237,,79,12,141,17*62
$GLGSV,2,2,08,80,14,193,29,81,18,138,16,82,52,093,23,83,40,012,28*6D
$GNGLL,0419.98732,S,05539.67058,E,113208.00,A,D*6B
$GNRMC,113209.00,A,0419.98731,S,05539.67059,E,0.020,,020625,,,D*70
$GNVTG,,T,,M,0.020,N,0.037,K,D*3E
$GNGGA,113209.00,0419.98731,S,05539.67059,E,2,12,0.82,24.5,M,-47.6,M,,0000*49
$GNGSA,A,3,32,29,26,28,18,16,31,27,40,,,,1.74,0.82,1.54*1D
$GNGSA,A,3,69,81,82,79,80,83,,,,,,,1.74,0.82,1.54*15
$GPGSV,5,1,17,08,08,318,,10,16,002,,16,25,242,28,18,33,083,21*7A
$GPGSV,5,2,17,23,02,040,,25,00,123,07,26,29,210,27,27,42,310,34*70
$GPGSV,5,3,17,28,48,151,35,29,14,148,27,31,34,187,31,32,59,359,34*76
$GPGSV,5,4,17,36,52,277,,40,84,353,38,41,58,082,,49,32,274,*77
$GPGSV,5,5,17,50,10,089,*4A
$GLGSV,2,1,08,68,17,005,,69,47,316,33,70,22,237,,79,12,141,08*6B
$GLGSV,2,2,08,80,14,193,29,81,18,138,15,82,52,093,22,83,40,012,28*6F
$GNGLL,0419.98731,S,05539.67059,E,113209.00,A,D*68
$GNRMC,113210.00,A,0419.98729,S,05539.67065,E,0.122,,020625,,,D*7D
$GNVTG,,T,,M,0.122,N,0.225,K,D*3C
$GNGGA,113210.00,0419.98729,S,05539.67065,E,2,12,0.83,24.2,M,-47.6,M,,0000*41
$GNGSA,A,3,32,29,26,28,18,16,31,27,40,,,,1.82,0.83,1.61*13
$GNGSA,A,3,69,81,82,79,80,83,,,,,,,1.82,0.83,1.61*1B
$GPGSV,5,1,17,08,08,318,,10,16,002,,16,25,242,29,18,33,083,21*7B
$GPGSV,5,2,17,23,02,040,,25,00,123,07,26,29,210,26,27,42,310,36*73
$GPGSV,5,3,17,28,48,151,34,29,14,148,27,31,34,187,29,32,59,359,33*79
$GPGSV,5,4,17,36,52,277,,40,84,353,38,41,58,082,,49,32,274,*77
$GPGSV,5,5,17,50,10,089,*4A
$GLGSV,2,1,08,68,17,005,,69,47,316,34,70,22,237,,79,12,141,08*6C
$GLGSV,2,2,08,80,14,193,29,81,18,138,18,82,52,093,21,83,40,012,28*61
$GNGLL,0419.98729,S,05539.67065,E,113210.00,A,D*66
$GNRMC,113211.00,A,0419.98727,S,05539.67070,E,0.115,,020625,,,D*72
$GNVTG,,T,,M,0.115,N,0.213,K,D*3D
$GNGGA,113211.00,0419.98727,S,05539.67070,E,2,12,0.82,24.0,M,-47.6,M,,0000*49
$GNGSA,A,3,32,29,26,28,18,16,31,27,40,,,,1.74,0.82,1.54*1D
$GNGSA,A,3,69,81,82,79,80,83,,,,,,,1.74,0.82,1.54*15
$GPGSV,5,1,17,08,08,318,,10,16,002,,16,25,242,29,18,33,083,22*78
$GPGSV,5,2,17,23,02,040,,25,00,123,07,26,29,210,25,27,42,310,36*70
$GPGSV,5,3,17,28,48,151,35,29,14,148,27,31,34,187,30,32,59,359,33*70
$GPGSV,5,4,17,36,52,277,,40,84,353,37,41,58,082,,49,32,274,*78
$GPGSV,5,5,17,50,10,089,*4A
$GLGSV,2,1,08,68,17,005,,69,47,316,33,70,22,237,,79,12,141,12*60
$GLGSV,2,2,08,80,14,193,31,81,18,138,21,82,52,093,21,83,40,012,28*62
$GNGLL,0419.98727,S,05539.67070,E,113211.00,A,D*6D
$GNRMC,113212.00,A,0419.98728,S,05539.67071,E,0.058,,020625,,,D*77
$GNVTG,,T,,M,0.058,N,0.108,K,D*3C
$GNGGA,113212.00,0419.98728,S,05539.67071,E,2,12,0.82,23.9,M,-47.6,M,,0000*4A
$GNGSA,A,3,32,29,26,28,18,16,31,27,40,,,,1.74,0.82,1.54*1D
$GNGSA,A,3,69,81,82,79,80,83,,,,,,,1.74,0.82,1.54*15
$GPGSV,5,1,17,08,08,318,,10,16,002,,16,25,242,29,18,33,083,23*79
$GPGSV,5,2,17,23,02,040,,25,00,123,07,26,29,210,26,27,42,310,36*73
$GPGSV,5,3,17,28,48,151,35,29,14,148,26,31,34,187,30,32,59,359,32*70
$GPGSV,5,4,17,36,52,277,,40,84,353,37,41,58,082,,49,32,274,*78
$GPGSV,5,5,17,50,10,089,*4A
$GLGSV,2,1,08,68,17,005,,69,47,316,33,70,22,237,,79,12,141,12*60
$GLGSV,2,2,08,80,14,193,30,81,18,138,21,82,52,093,23,83,40,012,29*60
$GNGLL,0419.98728,S,05539.67071,E,113212.00,A,D*60
$GNRMC,113213.00,A,0419.98727,S,05539.67073,E,0.014,,020625,,,D*73
$GNVTG,,T,,M,0.014,N,0.026,K,D*39
$GNGGA,113213.00,0419.98727,S,05539.67073,E,2,12,0.82,23.6,M,-47.6,M,,0000*49
$GNGSA,A,3,32,29,26,28,18,16,31,27,40,,,,1.74,0.82,1.54*1D
$GNGSA,A,3,69,81,82,79,80,83,,,,,,,1.74,0.82,1.54*15
$GPGSV,5,1,17,08,08,318,,10,16,002,,16,25,242,28,18,33,083,22*79
$GPGSV,5,2,17,23,02,040,,25,00,123,12,26,29,210,25,27,42,310,36*74
$GPGSV,5,3,17,28,48,151,34,29,14,148,25,31,34,187,30,32,59,359,33*73
$GPGSV,5,4,17,36,52,277,,40,84,353,37,41,58,082,,49,32,274,*78
$GPGSV,5,5,17,50,10,089,*4A
$GLGSV,2,1,08,68,17,005,,69,47,316,33,70,22,237,,79,12,141,11*63
$GLGSV,2,2,08,80,14,193,31,81,18,138,21,82,52,093,23,83,40,012,29*61
$GNGLL,0419.98727,S,05539.67073,E,113213.00,A,D*6C
$GNRMC,113214.00,A,0419.98727,S,05539.67074,E,0.056,,020625,,,D*75
$GNVTG,,T,,M,0.056,N,0.104,K,D*3E
$GNGGA,113214.00,0419.98727,S,05539.67074,E,2,12,0.82,23.5,M,-47.6,M,,0000*4A
$GNGSA,A,3,32,29,26,28,18,16,31,27,40,,,,1.74,0.82,1.54*1D
$GNGSA,A,3,69,81,82,79,80,83,,,,,,,1.74,0.82,1.54*15
$GPGSV,5,1,17,08,08,318,,10,16,002,,16,25,242,28,18,33,083,22*79
$GPGSV,5,2,17,23,02,040,,25,00,123,09,26,29,210,25,27,42,310,37*7F
$GPGSV,5,3,17,28,48,151,35,29,14,148,26,31,34,187,30,32,59,359,33*71
$GPGSV,5,4,17,36,52,277,,40,84,353,37,41,58,082,,49,32,274,*78
$GPGSV,5,5,17,50,10,089,*4A
$GLGSV,2,1,08,68,17,005,,69,47,316,33,70,22,237,,79,12,141,09*6A
$GLGSV,2,2,08,80,14,193,31,81,18,138,21,82,52,093,22,83,40,012,29*60
$GNGLL,0419.98727,S,05539.67074,E,113214.00,A,D*6C
$GNRMC,113215.00,A,0419.98729,S,05539.67073,E,0.050,,020625,,,D*7B
$GNVTG,,T,,M,0.050,N,0.093,K,D*37
$GNGGA,113215.00,0419.98729,S,05539.67073,E,2,12,0.82,23.4,M,-47.6,M,,0000*43
$GNGSA,A,3,32,29,26,28,18,16,31,27,40,,,,1.74,0.82,1.54*1D
$GNGSA,A,3,69,81,82,79,80,83,,,,,,,1.74,0.82,1.54*15
$GPGSV,5,1,17,08,08,318,,10,16,002,,16,25,242,28,18,33,083,23*78
$GPGSV,5,2,17,23,02,040,,25,00,123,11,26,29,210,25,27,42,310,34*75
$GPGSV,5,3,17,28,48,151,35,29,14,148,25,31,34,187,33,32,59,359,33*71
$GPGSV,5,4,17,36,52,277,,40,84,353,36,41,58,082,,49,32,274,*79
$GPGSV,5,5,17,50,10,089,*4A
$GLGSV,2,1,08,68,17,005,,69,47,316,32,70,22,237,,79,12,141,12*61
$GLGSV,2,2,08,80,14,193,30,81,18,138,20,82,52,093,21,83,40,012,29*63
$GNGLL,0419.98729,S,05539.67073,E,113215.00,A,D*64
$GNRMC,113216.00,A,0419.98731,S,05539.67070,E,0.022,,020625,,,D*77
$GNVTG,,T,,M,0.022,N,0.042,K,D*3E
$GNGGA,113216.00,0419.98731,S,05539.67070,E,2,12,0.83,23.5,M,-47.6,M,,0000*4A
$GNGSA,A,3,32,29,26,28,18,16,31,27,40,,,,1.82,0.83,1.61*13
$GNGSA,A,3,69,81,82,79,80,83,,,,,,,1.82,0.83,1.61*1B
$GPGSV,5,1,17,08,08,318,,10,16,002,,16,25,242,28,18,33,083,23*78
$GPGSV,5,2,17,23,02,040,,25,00,123,09,26,29,210,26,27,42,310,35*7E
$GPGSV,5,3,17,28,48,151,36,29,14,148,24,31,34,187,32,32,59,359,34*75
$GPGSV,5,4,17,36,52,277,,40,84,353,38,41,58,082,,49,32,274,*77
$GPGSV,5,5,17,50,10,089,*4A
$GLGSV,2,1,08,68,17,005,,69,47,316,33,70,22,237,,79,12,141,08*6B
$GLGSV,2,2,08,80,14,193,30,81,18,138,21,82,52,093,23,83,40,012,29*60
$GNGLL,0419.98731,S,05539.67070,E,113216.00,A,D*6D
$GNRMC,113217.00,A,0419.98737,S,05539.67064,E,0.039,,020625,,,D*7F
$GNVTG,,T,,M,0.039,N,0.072,K,D*37
$GNGGA,113217.00,0419.98737,S,05539.67064,E,2,12,0.82,23.8,M,-47.6,M,,0000*44
$GNGSA,A,3,32,29,26,28,18,16,31,27,40,,,,1.74,0.82,1.54*1D
$GNGSA,A,3,69,81,82,79,80,83,,,,,,,1.74,0.82,1.54*15
$GPGSV,5,1,17,08,08,318,,10,16,002,,16,25,242,28,18,33,083,21*7A
$GPGSV,5,2,17,23,02,040,,25,00,123,08,26,29,210,26,27,42,310,36*7C
$GPGSV,5,3,17,28,48,151,36,29,14,148,25,31,34,187,31,32,59,359,34*77
$GPGSV,5,4,17,36,52,277,,40,84,353,38,41,58,082,,49,32,274,*77
$GPGSV,5,5,17,50,10,089,*4A
$GLGSV,2,1,08,68,17,005,,69,47,316,34,70,22,237,,79,12,141,09*6D
$GLGSV,2,2,08,80,14,193,30,81,18,138,21,82,52,093,24,83,40,012,30*6F
$GNGLL,0419.98737,S,05539.67064,E,113217.00,A,D*6F
$GNRMC,113218.00,A,0419.98742,S,05539.67058,E,0.166,,020625,,,D*76
$GNVTG,,T,,M,0.166,N,0.307,K,D*3D
$GNGGA,113218.00,0419.98742,S,05539.67058,E,2,12,0.82,24.1,M,-47.6,M,,0000*48
$GNGSA,A,3,32,29,26,28,18,16,31,27,40,,,,1.74,0.82,1.54*1D
$GNGSA,A,3,69,81,82,79,80,83,,,,,,,1.74,0.82,1.54*15
$GPGSV,5,1,17,08,08,318,,10,16,002,,16,25,242,29,18,33,083,21*7B
$GPGSV,5,2,17,23,02,040,,25,00,123,12,26,29,210,28,27,42,310,36*79
$GPGSV,5,3,17,28,48,151,35,29,14,148,26,31,34,187,32,32,59,359,34*74
$GPGSV,5,4,17,36,52,277,,40,84,353,38,41,58,082,,49,32,274,*77
$GPGSV,5,5,17,50,10,089,*4A
$GLGSV,2,1,08,68,17,005,,69,47,316,34,70,22,237,,79,12,141,13*66
$GLGSV,2,2,08,80,14,193,31,81,18,138,21,82,52,093,24,83,40,012,31*6F
$GNGLL,0419.98742,S,05539.67058,E,113218.00,A,D*6D
$GNRMC,113219.00,A,0419.98746,S,05539.67054,E,0.131,,020625,,,D*7D
$GNVTG,,T,,M,0.131,N,0.242,K,D*3F
$GNGGA,113219.00,0419.98746,S,05539.67054,E,2,12,0.83,24.2,M,-47.6,M,,0000*43
$GNGSA,A,3,32,29,26,28,18,16,31,27,40,,,,1.82,0.83,1.61*13
$GNGSA,A,3,69,81,82,79,80,83,,,,,,,1.82,0.83,1.61*1B
$GPGSV,5,1,17,08,08,318,,10,16,002,,16,25,242,30,18,33,083,20*72
$GPGSV,5,2,17,23,02,040,,25,00,123,09,26,29,210,28,27,42,310,36*73
$GPGSV,5,3,17,28,48,151,36,29,14,148,26,31,34,187,30,32,59,359,33*72
$GPGSV,5,4,17,36,52,277,,40,84,353,38,41,58,082,,49,32,274,*77
$GPGSV,5,5,17,50,10,089,*4A
$GLGSV,2,1,08,68,17,005,,69,47,316,33,70,22,237,,79,12,141,14*66
$GLGSV,2,2,08,80,14,193,30,81,18,138,22,82,52,093,23,83,40,012,30*6B
$GNGLL,0419.98746,S,05539.67054,E,113219.00,A,D*64
$GNRMC,113220.00,A,0419.98749,S,05539.67052,E,0.051,,020625,,,D*79
$GNVTG,,T,,M,0.051,N,0.095,K,D*30
$GNGGA,113220.00,0419.98749,S,05539.67052,E,2,12,0.82,24.3,M,-47.6,M,,0000*40
$GNGSA,A,3,32,29,26,28,18,16,31,27,40,,,,1.74,0.82,1.54*1D
$GNGSA,A,3,69,81,82,79,80,83,,,,,,,1.74,0.82,1.54*15
$GPGSV,5,1,17,08,08,318,,10,16,002,,16,25,242,30,18,33,083,20*72
$GPGSV,5,2,17,23,02,040,,25,00,123,12,26,29,210,28,27,42,310,36*79
$GPGSV,5,3,17,28,48,151,35,29,14,148,26,31,34,187,31,32,59,359,34*77
$GPGSV,5,4,17,36,52,277,,40,84,353,37,41,58,082,,49,32,274,*78
$GPGSV,5,5,17,50,10,089,*4A
$GLGSV,2,1,08,68,17,005,,69,47,316,33,70,22,237,,79,12,141,11*63
$GLGSV,2,2,08,80,14,193,31,81,18,138,21,82,52,093,23,83,40,012,30*69
$GNGLL,0419.98749,S,05539.67052,E,113220.00,A,D*67
$GNRMC,113221.00,A,0419.98751,S,05539.67053,E,0.077,,020625,,,D*74
$GNVTG,,T,,M,0.077,N,0.142,K,D*3F
$GNGGA,113221.00,0419.98751,S,05539.67053,E,2,12,0.82,24.2,M,-47.6,M,,0000*48
$GNGSA,A,3,32,29,26,28,18,16,31,27,40,,,,1.74,0.82,1.54*1D
$GNGSA,A,3,69,81,82,79,80,83,,,,,,,1.74,0.82,1.54*15
$GPGSV,5,1,17,08,08,318,,10,16,002,,16,25,242,29,18,33,083,19*70
$GPGSV,5,2,17,23,02,040,,25,00,123,12,26,29,210,28,27,42,310,36*79
$GPGSV,5,3,17,28,48,151,35,29,14,148,26,31,34,187,30,32,59,359,34*76
$GPGSV,5,4,17,36,52,277,,40,84,353,37,41,58,082,,49,32,274,*78
$GPGSV,5,5,17,50,10,089,*4A
$GLGSV,2,1,08,68,17,005,,69,47,316,33,70,22,237,,79,12,141,16*64
$GLGSV,2,2,08,80,14,193,31,81,18,138,21,82,52,093,23,83,40,012,30*69
$GNGLL,0419.98751,S,05539.67053,E,113221.00,A,D*6E
$GNRMC,113222.00,A,0419.98755,S,05539.67053,E,0.054,,020625,,,D*72
$GNVTG,,T,,M,0.054,N,0.100,K,D*38
$GNGGA,113222.00,0419.98755,S,05539.67053,E,2,12,0.82,24.3,M,-47.6,M,,0000*4E
$GNGSA,A,3,32,29,26,28,18,16,31,27,40,,,,1.74,0.82,1.54*1D
$GNGSA,A,3,69,81,82,79,80,83,,,,,,,1.74,0.82,1.54*15
$GPGSV,5,1,17,08,08,318,,10,16,002,,16,25,242,28,18,33,083,19*71
$GPGSV,5,2,17,23,02,040,,25,00,123,09,26,29,210,27,27,42,310,38*72
$GPGSV,5,3,17,28,48,151,35,29,14,148,25,31,34,187,30,32,59,359,34*75
$GPGSV,5,4,17,36,52,277,,40,84,353,37,41,58,082,,49,32,274,*78
$GPGSV,5,5,17,50,10,089,*4A
$GLGSV,2,1,08,68,17,005,,69,47,316,33,70,22,237,,79,12,141,12*60
$GLGSV,2,2,08,80,14,193,30,81,18,138,21,82,52,093,22,83,40,012,30*69
$GNGLL,0419.98755,S,05539.67053,E,113222.00,A,D*69
$GNRMC,113223.00,A,0419.98759,S,05539.67050,E,0.007,,020625,,,D*7A
$GNVTG,,T,,M,0.007,N,0.014,K,D*3A
$GNGGA,113223.00,0419.98759,S,05539.67050,E,2,12,0.82,24.4,M,-47.6,M,,0000*47
$GNGSA,A,3,32,29,26,28,18,16,31,27,40,,,,1.74,0.82,1.54*1D
$GNGSA,A,3,69,81,82,79,80,83,,,,,,,1.74,0.82,1.54*15
$GPGSV,5,1,17,08,08,318,,10,16,002,,16,25,242,28,18,33,083,19*71
$GPGSV,5,2,17,23,02,040,,25,00,123,11,26,29,210,26,27,42,310,37*75
$GPGSV,5,3,17,28,48,151,36,29,14,148,25,31,34,187,31,32,59,359,33*70
$GPGSV,5,4,17,36,52,277,,40,84,353,37,41,58,082,,49,32,274,*78
$GPGSV,5,5,17,50,10,089,*4A
$GLGSV,2,1,08,68,17,005,,69,47,316,33,70,22,237,,79,12,141,15*67
$GLGSV,2,2,08,80,14,193,30,81,18,138,23,82,52,093,22,83,40,012,30*6B
$GNGLL,0419.98759,S,05539.67050,E,113223.00,A,D*67
$GNRMC,113224.00,A,0419.98763,S,05539.67047,E,0.041,,020625,,,D*70
$GNVTG,,T,,M,0.041,N,0.076,K,D*3C
$GNGGA,113224.00,0419.98763,S,05539.67047,E,2,12,0.82,24.5,M,-47.6,M,,0000*4E
$GNGSA,A,3,32,29,26,28,18,16,31,27,40,,,,1.74,0.82,1.54*1D
$GNGSA,A,3,69,81,82,79,80,83,,,,,,,1.74,0.82,1.54*15
$GPGSV,5,1,17,08,08,318,,10,16,002,,16,25,242,28,18,33,083,20*7B
$GPGSV,5,2,17,23,02,040,,25,00,123,10,26,29,210,25,27,43,310,36*77
$GPGSV,5,3,17,28,48,151,36,29,14,148,26,31,34,187,32,32,59,359,33*70
$GPGSV,5,4,17,36,52,277,,40,84,353,36,41,58,082,,49,32,274,*79
$GPGSV,5,5,17,50,10,089,*4A
$GLGSV,2,1,08,68,17,005,,69,47,316,34,70,22,237,,79,12,141,10*65
$GLGSV,2,2,08,80,14,193,29,81,18,138,22,82,52,093,23,83,40,012,31*62
$GNGLL,0419.98763,S,05539.67047,E,113224.00,A,D*6F
$GNRMC,113225.00,A,0419.98766,S,05539.67047,E,0.032,,020625,,,D*70
$GNVTG,,T,,M,0.032,N,0.059,K,D*35
$GNGGA,113225.00,0419.98766,S,05539.67047,E,2,12,0.82,24.6,M,-47.6,M,,0000*49
$GNGSA,A,3,32,29,26,28,18,16,31,27,40,,,,1.74,0.82,1.54*1D
$GNGSA,A,3,69,81,82,79,80,83,,,,,,,1.74,0.82,1.54*15
$GPGSV,5,1,17,08,08,318,,10,16,002,,16,25,242,28,18,33,083,20*7B
$GPGSV,5,2,17,23,02,040,,25,00,123,11,26,29,210,25,27,43,310,37*77
$GPGSV,5,3,17,28,49,150,36,29,14,148,26,31,34,187,31,32,59,359,32*72
$GPGSV,5,4,17,36,52,277,,40,84,353,33,41,58,082,,49,32,274,*7C
$GPGSV,5,5,17,50,10,089,*4A
$GLGSV,2,1,08,68,17,005,,69,47,316,34,70,22,237,,79,12,141,11*64
$GLGSV,2,2,08,80,14,193,30,81,18,138,20,82,52,093,23,83,40,012,30*69
$GNGLL,0419.98766,S,05539.67047,E,113225.00,A,D*6B
$GNRMC,113226.00,A,0419.98767,S,05539.67049,E,0.055,,020625,,,D*7D
$GNVTG,,T,,M,0.055,N,0.102,K,D*3B
$GNGGA,113226.00,0419.98767,S,05539.67049,E,2,12,0.82,24.6,M,-47.6,M,,0000*45
$GNGSA,A,3,32,29,26,28,18,16,31,27,40,,,,1.74,0.82,1.54*1D
$GNGSA,A,3,69,81,82,79,80,83,,,,,,,1.74,0.82,1.54*15
$GPGSV,5,1,17,08,08,318,,10,16,002,,16,25,242,28,18,33,083,21*7A
$GPGSV,5,2,17,23,02,040,,25,00,123,09,26,29,210,25,27,43,310,37*7E
$GPGSV,5,3,17,28,49,150,35,29,13,148,25,31,34,187,26,32,59,359,35*74
$GPGSV,5,4,17,36,52,277,,40,84,353,33,41,58,082,,49,32,274,*7C
$GPGSV,5,5,17,50,10,089,*4A
$GLGSV,2,1,08,68,17,005,,69,47,316,34,70,22,237,,79,12,141,14*61
$GLGSV,2,2,08,80,14,193,29,81,18,138,19,82,52,093,22,83,40,012,29*62
$GNGLL,0419.98767,S,05539.67049,E,113226.00,A,D*67
$GNRMC,113227.00,A,0419.98773,S,05539.67044,E,0.029,,020625,,,D*7F
$GNVTG,,T,,M,0.029,N,0.054,K,D*32
$GNGGA,113227.00,0419.98773,S,05539.67044,E,2,12,0.82,24.8,M,-47.6,M,,0000*42
$GNGSA,A,3,32,29,26,28,18,16,31,27,40,,,,1.74,0.82,1.54*1D
$GNGSA,A,3,69,81,82,79,80,83,,,,,,,1.74,0.82,1.54*15
$GPGSV,5,1,17,08,08,318,,10,16,002,,16,25,242,30,18,33,083,21*73
$GPGSV,5,2,17,23,02,040,,25,00,123,10,26,29,210,27,27,43,310,36*75
$GPGSV,5,3,17,28,49,150,35,29,13,148,25,31,34,187,29,32,59,359,33*7D
$GPGSV,5,4,17,36,52,277,,40,84,353,35,41,58,082,,49,32,274,*7A
$GPGSV,5,5,17,50,10,089,*4A
$GLGSV,2,1,08,68,17,005,,69,47,316,33,70,22,237,,79,12,141,12*60
$GLGSV,2,2,08,80,14,193,27,81,18,138,18,82,52,093,22,83,40,012,29*6D
$GNGLL,0419.98773,S,05539.67044,E,113227.00,A,D*6E
$GNRMC,113228.00,A,0419.98774,S,05539.67044,E,0.040,,020625,,,D*78
$GNVTG,,T,,M,0.040,N,0.074,K,D*3F
$GNGGA,113228.00,0419.98774,S,05539.67044,E,2,12,0.82,24.6,M,-47.6,M,,0000*44
$GNGSA,A,3,32,29,26,28,18,16,31,27,40,,,,1.74,0.82,1.54*1D
$GNGSA,A,3,69,81,82,79,80,83,,,,,,,1.74,0.82,1.54*15
$GPGSV,5,1,17,08,08,318,,10,16,002,,16,25,242,31,18,33,083,22*71
$GPGSV,5,2,17,23,02,040,,25,00,123,06,26,29,210,27,27,43,310,36*72
$GPGSV,5,3,17,28,49,150,36,29,13,148,25,31,34,186,30,32,59,359,34*70
$GPGSV,5,4,17,36,52,277,,40,84,353,34,41,58,082,,49,32,274,*7B
$GPGSV,5,5,17,50,10,089,*4A
$GLGSV,2,1,08,68,17,005,,69,47,316,33,70,22,237,,79,12,141,10*62
$GLGSV,2,2,08,80,14,193,26,81,18,138,16,82,52,093,23,83,40,012,28*62
$GNGLL,0419.98774,S,05539.67044,E,113228.00,A,D*66
$GNRMC,113229.00,A,0419.98775,S,05539.67047,E,0.078,,020625,,,D*70
$GNVTG,,T,,M,0.078,N,0.145,K,D*37
$GNGGA,113229.00,0419.98775,S,05539.67047,E,2,12,0.82,24.5,M,-47.6,M,,0000*44
$GNGSA,A,3,32,29,26,28,18,16,31,27,40,,,,1.74,0.82,1.54*1D
$GNGSA,A,3,69,81,82,79,80,83,,,,,,,1.74,0.82,1.54*15
$GPGSV,5,1,17,08,08,318,,10,16,002,,16,25,242,31,18,33,083,22*71
$GPGSV,5,2,17,23,02,040,,25,00,123,13,26,29,210,26,27,43,310,38*79
$GPGSV,5,3,17,28,49,150,36,29,13,148,24,31,34,186,29,32,58,359,33*7F
$GPGSV,5,4,17,36,52,277,,40,84,353,37,41,58,082,,49,32,274,*78
$GPGSV,5,5,17,50,10,089,*4A
$GLGSV,2,1,08,68,17,005,,69,47,316,34,70,22,237,,79,12,141,09*6D
$GLGSV,2,2,08,80,14,193,27,81,18,138,16,82,52,093,24,83,40,012,28*64
$GNGLL,0419.98775,S,05539.67047,E,113229.00,A,D*65
$GNRMC,113230.00,A,0419.98775,S,05539.67053,E,0.197,,020625,,,D*7D
$GNVTG,,T,,M,0.197,N,0.365,K,D*37
$GNGGA,113230.00,0419.98775,S,05539.67053,E,2,12,0.82,24.4,M,-47.6,M,,0000*48
$GNGSA,A,3,32,29,26,28,18,16,31,27,40,,,,1.74,0.82,1.54*1D
$GNGSA,A,3,69,81,82,79,80,83,,,,,,,1.74,0.82,1.54*15
$GPGSV,5,1,17,08,08,318,,10,16,002,,16,25,242,31,18,33,083,21*72
$GPGSV,5,2,17,23,02,040,,25,00,123,14,26,29,210,27,27,43,310,38*7F
$GPGSV,5,3,17,28,49,150,37,29,13,148,25,31,34,186,29,32,58,359,32*7E
$GPGSV,5,4,17,36,52,277,,40,84,353,36,41,58,082,,49,32,274,*79
$GPGSV,5,5,17,50,10,089,*4A
$GLGSV,2,1,08,68,17,005,,69,47,316,34,70,22,237,,79,12,141,12*67
$GLGSV,2,2,08,80,14,193,28,81,18,138,18,82,52,093,23,83,40,012,28*62
$GNGLL,0419.98775,S,05539.67053,E,113230.00,A,D*68
$GNRMC,113231.00,A,0419.98775,S,05539.67055,E,0.055,,020625,,,D*75
$GNVTG,,T,,M,0.055,N,0.102,K,D*3B
$GNGGA,113231.00,0419.98775,S,05539.67055,E,2,12,0.82,24.2,M,-47.6,M,,0000*49
$GNGSA,A,3,32,29,26,28,18,16,31,27,40,,,,1.74,0.82,1.54*1D
$GNGSA,A,3,69,81,82,79,80,83,,,,,,,1.74,0.82,1.54*15
$GPGSV,5,1,17,08,08,318,,10,16,002,,16,25,242,31,18,33,083,21*72
$GPGSV,5,2,17,23,02,040,,25,00,123,10,26,29,210,27,27,43,310,38*7B
$GPGSV,5,3,17,28,49,150,38,29,13,148,26,31,34,186,30,32,58,359,32*7A
$GPGSV,5,4,17,36,52,277,,40,84,353,32,41,58,082,,49,32,274,*7D
$GPGSV,5,5,17,50,10,089,*4A
$GLGSV,2,1,08,68,17,005,,69,47,316,34,70,22,237,,79,12,141,17*62
$GLGSV,2,2,08,80,14,193,28,81,18,138,18,82,52,093,24,83,40,012,29*64
$GNGLL,0419.98775,S,05539.67055,E,113231.00,A,D*6F
$GNRMC,113232.00,A,0419.98776,S,05539.67055,E,0.043,,020625,,,D*72
$GNVTG,,T,,M,0.043,N,0.079,K,D*31
$GNGGA,113232.00,0419.98776,S,05539.67055,E,2,12,0.82,24.0,M,-47.6,M,,0000*4B
$GNGSA,A,3,32,29,26,28,18,16,31,27,40,,,,1.74,0.82,1.54*1D
$GNGSA,A,3,69,81,82,79,80,83,,,,,,,1.74,0.82,1.54*15
$GPGSV,5,1,17,08,08,318,,10,16,002,,16,25,242,31,18,33,083,22*71
$GPGSV,5,2,17,23,02,040,,25,00,123,09,26,29,210,26,27,43,310,38*72
$GPGSV,5,3,17,28,49,150,38,29,13,148,25,31,34,186,29,32,58,359,32*71
$GPGSV,5,4,17,36,52,277,,40,84,353,36,41,58,082,,49,32,274,*79
$GPGSV,5,5,17,50,10,089,*4A
$GLGSV,2,1,08,68,17,005,,69,47,316,34,70,22,237,,79,12,141,17*62
$GLGSV,2,2,08,80,14,193,28,81,18,138,20,82,52,093,24,83,40,012,29*6F
$GNGLL,0419.98776,S,05539.67055,E,113232.00,A,D*6F
$GNRMC,113233.00,A,0419.98776,S,05539.67056,E,0.060,,020625,,,D*71
$GNVTG,,T,,M,0.060,N,0.112,K,D*3C
$GNGGA,113233.00,0419.98776,S,05539.67056,E,2,12,0.82,23.8,M,-47.6,M,,0000*46
$GNGSA,A,3,32,29,26,28,18,16,31,27,40,,,,1.74,0.82,1.54*1D
$GNGSA,A,3,69,81,82,79,80,83,,,,,,,1.74,0.82,1.54*15
$GPGSV,5,1,17,08,08,318,,10,16,002,,16,25,242,30,18,33,083,22*70
$GPGSV,5,2,17,23,02,040,,25,00,123,11,26,29,210,25,27,43,310,38*78
$GPGSV,5,3,17,28,49,150,37,29,13,148,26,31,34,186,30,32,58,359,31*76
$GPGSV,5,4,17,36,52,277,,40,84,353,36,41,58,082,,49,32,274,*79
$GPGSV,5,5,17,50,10,089,*4A
$GLGSV,2,1,08,68,17,005,,69,47,316,34,70,22,237,,79,12,141,14*61
$GLGSV,2,2,08,80,14,193,28,81,18,138,20,82,52,093,24,83,40,012,30*67
$GNGLL,0419.98776,S,05539.67056,E,113233.00,A,D*6D
$GNRMC,113234.00,A,0419.98775,S,05539.67058,E,0.032,,020625,,,D*7C
$GNVTG,,T,,M,0.032,N,0.059,K,D*35
$GNGGA,113234.00,0419.98775,S,05539.67058,E,2,12,0.82,23.5,M,-47.6,M,,0000*41
$GNGSA,A,3,32,29,26,28,18,16,31,27,40,,,,1.74,0.82,1.54*1D
$GNGSA,A,3,69,81,82,79,80,83,,,,,,,1.74,0.82,1.54*15
$GPGSV,5,1,17,08,08,318,,10,16,002,,16,25,242,30,18,33,083,22*70
$GPGSV,5,2,17,23,02,040,,25,00,123,07,26,29,210,26,27,43,310,38*7C
$GPGSV,5,3,17,28,49,150,39,29,13,148,27,31,34,186,30,32,58,359,32*7A
$GPGSV,5,4,17,36,52,277,,40,84,353,37,41,58,082,,49,32,274,*78
$GPGSV,5,5,17,50,10,089,*4A
$GLGSV,2,1,08,68,17,005,,69,47,316,34,70,22,237,,79,12,141,14*61
$GLGSV,2,2,08,80,14,193,28,81,18,138,20,82,52,093,25,83,40,012,31*67
$GNGLL,0419.98775,S,05539.67058,E,113234.00,A,D*67
$GNRMC,113235.00,A,0419.98777,S,05539.67057,E,0.020,,020625,,,D*73
$GNVTG,,T,,M,0.020,N,0.037,K,D*3E
$GNGGA,113235.00,0419.98777,S,05539.67057,E,2,12,0.82,23.4,M,-47.6,M,,0000*4C
$GNGSA,A,3,32,29,26,28,18,16,31,27,40,,,,1.74,0.82,1.54*1D
$GNGSA,A,3,69,81,82,79,80,83,,,,,,,1.74,0.82,1.54*15
$GPGSV,5,1,17,08,08,318,,10,16,002,,16,25,242,30,18,33,083,21*73
$GPGSV,5,2,17,23,02,040,,25,00,123,08,26,29,210,26,27,43,310,37*7C
$GPGSV,5,3,17,28,49,150,37,29,13,148,27,31,34,186,29,32,58,359,31*7F
$GPGSV,5,4,17,36,52,277,,40,84,353,36,41,58,082,,49,32,274,*79
$GPGSV,5,5,17,50,10,089,*4A
$GLGSV,2,1,08,68,17,005,,69,47,316,34,70,22,237,,79,12,141,14*61
$GLGSV,2,2,08,80,14,193,28,81,18,138,19,82,52,093,24,83,40,012,31*6C
$GNGLL,0419.98777,S,05539.67057,E,113235.00,A,D*6B
$GNRMC,113236.00,A,0419.98780,S,05539.67055,E,0.119,,020625,,,D*71
$GNVTG,,T,,M,0.119,N,0.221,K,D*30
$GNGGA,113236.00,0419.98780,S,05539.67055,E,2,12,0.82,23.3,M,-47.6,M,,0000*42
$GNGSA,A,3,32,29,26,28,18,16,31,27,40,,,,1.74,0.82,1.54*1D
$GNGSA,A,3,69,81,82,79,80,83,,,,,,,1.74,0.82,1.54*15
$GPGSV,5,1,17,08,08,318,,10,16,002,,16,25,242,29,18,33,083,20*7A
$GPGSV,5,2,17,23,02,040,,25,00,123,08,26,29,210,26,27,43,310,37*7C
$GPGSV,5,3,17,28,49,150,36,29,13,148,27,31,34,186,26,32,58,359,29*78
$GPGSV,5,4,17,36,52,277,,40,84,353,36,41,58,082,,49,32,274,*79
$GPGSV,5,5,17,50,10,089,*4A
$GLGSV,2,1,08,68,17,005,,69,47,316,34,70,22,237,,79,12,141,14*61
$GLGSV,2,2,08,80,14,193,29,81,18,138,20,82,52,093,24,83,40,012,30*66
$GNGLL,0419.98780,S,05539.67055,E,113236.00,A,D*62
$GNRMC,113237.00,A,0419.98779,S,05539.67056,E,0.050,,020625,,,D*79
$GNVTG,,T,,M,0.050,N,0.093,K,D*37
$GNGGA,113237.00,0419.98779,S,05539.67056,E,2,12,0.84,23.3,M,-47.6,M,,0000*40
$GNGSA,A,3,32,29,26,28,18,16,31,27,40,,,,1.82,0.84,1.61*14
$GNGSA,A,3,69,81,82,79,80,83,,,,,,,1.82,0.84,1.61*1C
$GPGSV,5,1,17,08,08,318,,10,16,002,,16,25,242,29,18,33,083,20*7A
$GPGSV,5,2,17,23,02,040,,25,00,123,07,26,29,210,27,27,43,310,37*72
$GPGSV,5,3,17,28,49,150,36,29,13,148,26,31,34,186,25,32,58,359,29*7A
$GPGSV,5,4,17,36,52,277,,40,84,353,37,41,58,082,,49,32,274,*78
$GPGSV,5,5,17,50,10,089,*4A
$GLGSV,2,1,08,68,17,005,,69,47,316,33,70,22,237,,79,12,141,14*66
$GLGSV,2,2,08,80,14,193,29,81,18,138,22,82,52,093,24,83,40,012,30*64
$GNGLL,0419.98779,S,05539.67056,E,113237.00,A,D*66
$GNRMC,113238.00,A,0419.98779,S,05539.67057,E,0.009,,020625,,,D*7B
$GNVTG,,T,,M,0.009,N,0.017,K,D*37
$GNGGA,113238.00,0419.98779,S,05539.67057,E,2,12,0.82,23.2,M,-47.6,M,,0000*49
$GNGSA,A,3,32,29,26,28,18,16,31,27,40,,,,1.74,0.82,1.54*1D
$GNGSA,A,3,69,81,82,79,80,83,,,,,,,1.74,0.82,1.54*15
$GPGSV,5,1,17,08,08,318,,10,16,002,,16,25,242,31,18,33,083,19*79
$GPGSV,5,2,17,23,02,040,,25,00,123,08,26,29,210,27,27,43,310,37*7D
$GPGSV,5,3,17,28,49,150,37,29,13,148,26,31,34,186,26,32,58,359,30*70
$GPGSV,5,4,17,36,52,277,,40,84,353,35,41,58,082,,49,32,274,*7A
$GPGSV,5,5,17,50,10,089,*4A
$GLGSV,2,1,08,68,17,005,,69,47,316,34,70,22,237,,79,12,141,14*61
$GLGSV,2,2,08,80,14,193,29,81,18,138,22,82,52,093,23,83,40,012,30*63
$GNGLL,0419.98779,S,05539.67057,E,113238.00,A,D*68
$GNRMC,113239.00,A,0419.98778,S,05539.67059,E,0.062,,020625,,,D*78
$GNVTG,,T,,M,0.062,N,0.115,K,D*39
$GNGGA,113239.00,0419.98778,S,05539.67059,E,2,12,0.82,23.1,M,-47.6,M,,0000*44
$GNGSA,A,3,32,29,26,28,18,16,31,27,40,,,,1.74,0.82,1.54*1D
