$GNRMC,113655.00,A,0420.00586,S,05539.67827,E,0.664,,020625,,,D*7F
$GNVTG,,T,,M,0.664,N,1.229,K,D*34
$GNGGA,113655.00,0420.00586,S,05539.67827,E,2,12,0.83,23.1,M,-47.6,M,,0000*42
$GNGSA,A,3,32,29,26,28,10,18,16,31,27,40,,,1.73,0.83,1.52*1C
$GNGSA,A,3,69,81,82,79,80,83,,,,,,,1.73,0.83,1.52*15
$GPGSV,5,1,17,08,09,317,,10,16,004,11,16,25,240,24,18,33,086,22*7A
$GPGSV,5,2,17,23,02,042,,25,00,121,,26,29,208,36,27,44,308,25*71
$GPGSV,5,3,17,28,50,148,28,29,12,148,20,31,35,185,32,32,56,360,26*7C
$GPGSV,5,4,17,36,52,277,,40,84,353,31,41,58,082,,49,32,274,*7E
$GPGSV,5,5,17,50,10,089,*4A
$GLGSV,3,1,09,68,15,006,,69,45,319,15,70,23,240,15,79,13,139,20*62
$GLGSV,3,2,09,80,14,190,12,81,16,140,21,82,52,098,23,83,42,014,28*6C
$GLGSV,3,3,09,,,,25*6B
$GNGLL,0420.00586,S,05539.67827,E,113655.00,A,D*61
$GNRMC,113656.00,A,0420.00592,S,05539.67830,E,0.221,,020625,,,D*7A
$GNVTG,,T,,M,0.221,N,0.410,K,D*3C
$GNGGA,113656.00,0420.00592,S,05539.67830,E,2,12,0.70,23.0,M,-47.6,M,,0000*4F
$GNGSA,A,3,32,29,26,28,10,18,16,31,27,40,,,1.37,0.70,1.17*11
$GNGSA,A,3,69,81,82,79,80,83,,,,,,,1.37,0.70,1.17*18
$GPGSV,5,1,17,08,09,317,,10,16,004,09,16,25,240,32,18,33,086,23*75
$GPGSV,5,2,17,23,02,042,,25,00,121,,26,29,208,40,27,44,308,24*71
$GPGSV,5,3,17,28,50,148,30,29,12,148,21,31,35,185,39,32,56,360,26*7F
$GPGSV,5,4,17,36,52,277,,40,84,353,38,41,58,082,,49,32,274,*77
$GPGSV,5,5,17,50,10,089,*4A
$GLGSV,3,1,09,68,15,006,,69,45,319,11,70,23,240,12,79,13,139,18*6A
$GLGSV,3,2,09,80,14,190,09,81,16,140,19,82,52,098,21,83,42,014,12*66
$GLGSV,3,3,09,,,,27*69
$GNGLL,0420.00592,S,05539.67830,E,113656.00,A,D*61
$GNRMC,113657.00,A,0420.00592,S,05539.67838,E,0.199,,020625,,,D*73
$GNVTG,,T,,M,0.199,N,0.369,K,D*35
$GNGGA,113657.00,0420.00592,S,05539.67838,E,2,12,0.73,22.6,M,-47.6,M,,0000*42
$GNGSA,A,3,32,29,26,28,10,18,16,31,27,40,,,1.38,0.73,1.17*1D
$GNGSA,A,3,69,81,82,79,80,83,,,,,,,1.38,0.73,1.17*14
$GPGSV,5,1,17,08,09,317,18,10,16,004,12,16,25,240,33,18,33,086,26*72
$GPGSV,5,2,17,23,02,042,,25,00,121,,26,29,208,44,27,44,308,26*77
$GPGSV,5,3,17,28,50,148,34,29,12,148,20,31,35,185,40,32,56,360,27*75
$GPGSV,5,4,17,36,52,277,38,40,84,353,41,41,58,082,,49,32,274,*72
$GPGSV,5,5,17,50,10,089,*4A
$GLGSV,3,1,09,68,15,006,,69,45,319,28,70,23,240,09,79,13,139,19*6B
$GLGSV,3,2,09,80,14,190,20,81,16,140,21,82,52,098,23,83,42,014,25*60
$GLGSV,3,3,09,,,,34*6B
$GNGLL,0420.00592,S,05539.67838,E,113657.00,A,D*68
$GNRMC,113658.00,A,0420.00595,S,05539.67841,E,0.060,,020625,,,D*72
$GNVTG,,T,,M,0.060,N,0.112,K,D*3C
$GNGGA,113658.00,0420.00595,S,05539.67841,E,2,12,0.71,22.7,M,-47.6,M,,0000*47
$GNGSA,A,3,32,26,28,10,18,16,31,27,40,,,,1.41,0.71,1.22*1C
$GNGSA,A,3,69,81,82,79,80,83,,,,,,,1.41,0.71,1.22*1E
$GPGSV,5,1,17,08,09,317,18,10,16,004,14,16,25,240,33,18,33,086,26*74
$GPGSV,5,2,17,23,02,042,,25,00,121,,26,29,208,43,27,44,308,26*70
$GPGSV,5,3,17,28,50,148,33,29,12,148,,31,35,185,40,32,56,360,25*72
$GPGSV,5,4,17,36,52,277,35,40,84,353,39,41,58,082,32,49,32,274,*71
$GPGSV,5,5,17,50,10,089,*4A
$GLGSV,3,1,09,68,15,006,,69,45,319,28,70,23,240,,79,13,139,21*69
$GLGSV,3,2,09,80,14,190,17,81,16,140,23,82,52,098,25,83,42,014,23*66
$GLGSV,3,3,09,,,,34*6B
$GNGLL,0420.00595,S,05539.67841,E,113658.00,A,D*6E
$GNRMC,113659.00,A,0420.00597,S,05539.67832,E,0.227,,020625,,,D*74
$GNVTG,,T,,M,0.227,N,0.420,K,D*39
$GNGGA,113659.00,0420.00597,S,05539.67832,E,2,12,0.71,23.3,M,-47.6,M,,0000*45
$GNGSA,A,3,32,26,28,10,18,16,31,27,40,,,,1.41,0.71,1.22*1C
$GNGSA,A,3,69,81,82,79,80,83,,,,,,,1.41,0.71,1.22*1E
$GPGSV,5,1,17,08,09,317,18,10,16,004,09,16,25,240,32,18,33,086,27*78
$GPGSV,5,2,17,23,02,042,,25,00,121,,26,29,208,41,27,44,308,25*71
$GPGSV,5,3,17,28,50,148,33,29,12,148,23,31,35,185,37,32,56,360,25*73
$GPGSV,5,4,17,36,52,277,35,40,84,353,39,41,58,082,28,49,32,274,*7A
$GPGSV,5,5,17,50,10,089,*4A
$GLGSV,3,1,09,68,15,006,,69,45,319,26,70,23,240,,79,13,139,22*64
$GLGSV,3,2,09,80,14,190,15,81,16,140,25,82,52,098,26,83,42,014,22*60
$GLGSV,3,3,09,,,,31*6E
$GNGLL,0420.00597,S,05539.67832,E,113659.00,A,D*69
$GNRMC,113700.00,A,0420.00597,S,05539.67830,E,0.035,,020625,,,D*7A
$GNVTG,,T,,M,0.035,N,0.065,K,D*3D
$GNGGA,113700.00,0420.00597,S,05539.67830,E,2,12,0.74,23.6,M,-47.6,M,,0000*4A
$GNGSA,A,3,32,26,28,10,18,16,31,27,40,,,,1.42,0.74,1.22*1A
$GNGSA,A,3,69,81,82,79,80,83,,,,,,,1.42,0.74,1.22*18
$GPGSV,5,1,17,08,09,317,16,10,16,004,10,16,25,240,33,18,33,086,26*7E
$GPGSV,5,2,17,23,02,042,,25,00,121,,26,29,208,41,27,44,308,24*70
$GPGSV,5,3,17,28,50,148,33,29,12,148,23,31,35,185,37,32,56,360,26*70
$GPGSV,5,4,17,36,52,277,35,40,84,353,38,41,58,082,29,49,32,274,*7A
$GPGSV,5,5,17,50,10,089,*4A
$GLGSV,3,1,09,68,15,006,,69,45,319,25,70,23,240,,79,13,139,23*66
$GLGSV,3,2,09,80,14,190,15,81,16,140,25,82,52,098,26,83,42,014,23*61
$GLGSV,3,3,09,,,,32*6D
$GNGLL,0420.00597,S,05539.67830,E,113700.00,A,D*66
$GNRMC,113701.00,A,0420.00592,S,05539.67833,E,0.053,,020625,,,D*7D
$GNVTG,,T,,M,0.053,N,0.097,K,D*30
$GNGGA,113701.00,0420.00592,S,05539.67833,E,2,12,0.70,23.3,M,-47.6,M,,0000*4C
$GNGSA,A,3,32,29,26,28,10,18,16,31,27,40,,,1.37,0.70,1.17*11
$GNGSA,A,3,69,81,82,79,80,83,,,,,,,1.37,0.70,1.17*18
$GPGSV,5,1,17,08,09,317,15,10,16,004,10,16,25,240,33,18,33,086,25*7E
$GPGSV,5,2,17,23,02,042,,25,00,121,,26,29,208,42,27,44,308,24*73
$GPGSV,5,3,17,28,50,148,34,29,12,148,23,31,35,185,37,32,56,360,27*76
$GPGSV,5,4,17,36,52,277,33,40,84,353,38,41,58,082,30,49,32,274,*74
$GPGSV,5,5,17,50,10,089,*4A
$GLGSV,3,1,09,68,15,006,,69,45,319,24,70,23,240,,79,13,139,23*67
$GLGSV,3,2,09,80,14,190,14,81,16,140,25,82,52,098,31,83,42,014,31*65
$GLGSV,3,3,09,,,,36*69
$GNGLL,0420.00592,S,05539.67833,E,113701.00,A,D*61
$GNRMC,113702.00,A,0420.00594,S,05539.67832,E,0.025,,020625,,,D*78
$GNVTG,,T,,M,0.025,N,0.045,K,D*3E
$GNGGA,113702.00,0420.00594,S,05539.67832,E,2,12,0.70,23.4,M,-47.6,M,,0000*4F
$GNGSA,A,3,32,29,26,28,10,18,16,31,27,40,,,1.37,0.70,1.17*11
$GNGSA,A,3,69,81,82,79,80,83,,,,,,,1.37,0.70,1.17*18
$GPGSV,5,1,17,08,09,317,15,10,16,004,16,16,25,240,33,18,33,086,27*7A
$GPGSV,5,2,17,23,02,042,,25,00,121,,26,29,208,42,27,44,308,23*74
$GPGSV,5,3,17,28,50,148,34,29,12,148,24,31,35,185,38,32,56,360,26*7F
$GPGSV,5,4,17,36,52,277,34,40,84,353,39,41,58,082,30,49,32,274,*72
$GPGSV,5,5,17,50,10,089,*4A
$GLGSV,3,1,09,68,15,006,,69,45,319,24,70,23,240,,79,13,139,24*60
$GLGSV,3,2,09,80,14,190,16,81,16,140,25,82,52,098,29,83,42,014,30*6F
$GLGSV,3,3,09,,,,35*6A
$GNGLL,0420.00594,S,05539.67832,E,113702.00,A,D*65
$GNRMC,113703.00,A,0420.00593,S,05539.67833,E,0.101,,020625,,,D*78
$GNVTG,,T,,M,0.101,N,0.187,K,D*36
$GNGGA,113703.00,0420.00593,S,05539.67833,E,2,12,0.70,23.4,M,-47.6,M,,0000*48
$GNGSA,A,3,32,29,26,28,10,18,16,31,27,40,,,1.37,0.70,1.17*11
$GNGSA,A,3,69,81,82,79,80,83,,,,,,,1.37,0.70,1.17*18
$GPGSV,5,1,17,08,09,317,14,10,16,004,10,16,25,240,32,18,33,086,26*7D
$GPGSV,5,2,17,23,02,042,,25,00,121,,26,29,208,43,27,44,308,24*72
$GPGSV,5,3,17,28,50,148,35,29,12,148,24,31,35,185,36,32,56,360,26*70
$GPGSV,5,4,17,36,52,277,34,40,84,353,37,41,58,082,30,49,32,274,*7C
$GPGSV,5,5,17,50,10,089,*4A
$GLGSV,3,1,09,68,15,006,,69,45,319,25,70,23,240,,79,13,139,24*61
$GLGSV,3,2,09,80,14,190,16,81,16,140,23,82,52,098,28,83,42,014,29*60
$GLGSV,3,3,09,,,,32*6D
$GNGLL,0420.00593,S,05539.67833,E,113703.00,A,D*62
$GNRMC,113704.00,A,0420.00592,S,05539.67834,E,0.039,,020625,,,D*73
$GNVTG,,T,,M,0.039,N,0.072,K,D*37
$GNGGA,113704.00,0420.00592,S,05539.67834,E,2,12,0.83,23.3,M,-47.6,M,,0000*42
$GNGSA,A,3,32,29,26,28,10,18,16,31,27,40,,,1.73,0.83,1.52*1C
$GNGSA,A,3,69,81,82,79,80,83,,,,,,,1.73,0.83,1.52*15
$GPGSV,5,1,17,08,09,317,14,10,16,004,08,16,25,240,32,18,33,086,25*77
$GPGSV,5,2,17,23,02,042,,25,00,121,,26,29,208,42,27,44,308,24*73
$GPGSV,5,3,17,28,50,148,34,29,12,148,21,31,35,185,39,32,56,360,27*7A
$GPGSV,5,4,17,36,52,277,35,40,84,353,39,41,58,082,31,49,32,274,*72
$GPGSV,5,5,17,50,10,089,*4A
$GLGSV,3,1,09,68,15,006,,69,45,319,25,70,23,240,,79,13,139,24*61
$GLGSV,3,2,09,80,14,190,15,81,16,140,23,82,52,098,29,83,42,014,29*62
$GLGSV,3,3,09,,,,32*6D
$GNGLL,0420.00592,S,05539.67834,E,113704.00,A,D*63
$GNRMC,113705.00,A,0420.00592,S,05539.67838,E,0.123,,020625,,,D*74
$GNVTG,,T,,M,0.123,N,0.228,K,D*30
$GNGGA,113705.00,0420.00592,S,05539.67838,E,2,12,0.83,23.1,M,-47.6,M,,0000*4D
$GNGSA,A,3,32,29,26,28,10,18,16,31,27,40,,,1.73,0.83,1.52*1C
$GNGSA,A,3,69,81,82,79,80,83,,,,,,,1.73,0.83,1.52*15
$GPGSV,5,1,17,08,09,317,15,10,16,004,07,16,25,240,35,18,33,086,25*7E
$GPGSV,5,2,17,23,02,042,,25,00,121,,26,29,208,43,27,44,308,24*72
$GPGSV,5,3,17,28,50,148,34,29,12,148,20,31,35,185,40,32,56,360,34*77
$GPGSV,5,4,17,36,52,277,34,40,84,353,38,41,58,082,31,49,32,274,*72
$GPGSV,5,5,17,50,10,089,*4A
$GLGSV,3,1,09,68,15,006,,69,45,319,23,70,23,240,,79,13,139,22*61
$GLGSV,3,2,09,80,14,190,15,81,16,140,22,82,52,098,29,83,42,014,33*68
$GLGSV,3,3,09,,,,35*6A
$GNGLL,0420.00592,S,05539.67838,E,113705.00,A,D*6E
$GNRMC,113706.00,A,0420.00581,S,05539.67843,E,0.041,,020625,,,D*7C
$GNVTG,,T,,M,0.041,N,0.075,K,D*3F
$GNGGA,113706.00,0420.00581,S,05539.67843,E,2,12,0.83,22.5,M,-47.6,M,,0000*45
$GNGSA,A,3,32,29,26,28,10,18,16,31,27,40,,,1.73,0.83,1.52*1C
$GNGSA,A,3,69,81,82,79,80,83,,,,,,,1.73,0.83,1.52*15
$GPGSV,5,1,17,08,09,317,13,10,16,004,09,16,25,240,32,18,33,086,26*72
$GPGSV,5,2,17,23,02,042,,25,00,121,,26,29,208,44,27,44,308,27*76
$GPGSV,5,3,17,28,50,148,33,29,12,148,21,31,35,185,39,32,56,360,39*72
$GPGSV,5,4,17,36,52,277,30,40,84,353,39,41,58,082,30,49,32,274,*76
$GPGSV,5,5,17,50,10,089,*4A
$GLGSV,3,1,09,68,15,006,,69,45,319,23,70,23,240,,79,13,139,20*63
$GLGSV,3,2,09,80,14,190,12,81,16,140,21,82,52,098,30,83,42,014,36*61
$GLGSV,3,3,09,,,,30*6F
$GNGLL,0420.00581,S,05539.67843,E,113706.00,A,D*63
$GNRMC,113707.00,A,0420.00581,S,05539.67844,E,0.067,,020625,,,D*7E
$GNVTG,,T,,M,0.067,N,0.124,K,D*3E
$GNGGA,113707.00,0420.00581,S,05539.67844,E,2,12,0.83,22.4,M,-47.6,M,,0000*42
$GNGSA,A,3,32,29,26,28,10,18,16,31,27,40,,,1.73,0.83,1.52*1C
$GNGSA,A,3,69,81,82,79,80,83,,,,,,,1.73,0.83,1.52*15
$GPGSV,5,1,17,08,09,317,11,10,16,004,11,16,25,240,32,18,33,086,27*78
$GPGSV,5,2,17,23,02,042,,25,00,121,,26,29,208,46,27,44,308,25*76
$GPGSV,5,3,17,28,50,148,34,29,12,148,23,31,35,185,39,32,56,360,36*78
$GPGSV,5,4,17,36,52,277,28,40,84,353,37,41,58,082,28,49,32,274,*78
$GPGSV,5,5,17,50,10,089,*4A
$GLGSV,3,1,09,68,15,006,,69,45,319,25,70,23,240,,79,13,139,19*6F
$GLGSV,3,2,09,80,14,190,12,81,16,140,21,82,52,098,29,83,42,014,31*6E
$GLGSV,3,3,09,,,,30*6F
$GNGLL,0420.00581,S,05539.67844,E,113707.00,A,D*65
$GNRMC,113708.00,A,0420.00581,S,05539.67843,E,0.031,,020625,,,D*75
$GNVTG,,T,,M,0.031,N,0.058,K,D*37
$GNGGA,113708.00,0420.00581,S,05539.67843,E,2,12,0.70,22.5,M,-47.6,M,,0000*47
$GNGSA,A,3,32,29,26,28,10,18,16,31,27,40,,,1.37,0.70,1.17*11
$GNGSA,A,3,69,81,82,79,80,83,,,,,,,1.37,0.70,1.17*18
$GPGSV,5,1,17,08,09,317,14,10,16,004,09,16,25,240,32,18,33,086,33*71
$GPGSV,5,2,17,23,02,042,,25,00,121,,26,29,208,46,27,44,308,24*77
$GPGSV,5,3,17,28,50,148,34,29,12,148,22,31,35,185,38,32,56,360,34*7A
$GPGSV,5,4,17,36,52,277,28,40,84,353,37,41,58,082,29,49,32,274,*79
$GPGSV,5,5,17,50,10,089,*4A
$GLGSV,3,1,09,68,15,006,,69,45,319,25,70,23,240,,79,13,139,17*61
$GLGSV,3,2,09,80,14,190,10,81,16,140,22,82,52,098,29,83,42,014,33*6D
$GLGSV,3,3,09,,,,29*67
$GNGLL,0420.00581,S,05539.67843,E,113708.00,A,D*6D
$GNRMC,113709.00,A,0420.00580,S,05539.67842,E,0.037,,020625,,,D*72
$GNVTG,,T,,M,0.037,N,0.069,K,D*33
$GNGGA,113709.00,0420.00580,S,05539.67842,E,2,12,0.73,22.4,M,-47.6,M,,0000*44
$GNGSA,A,3,32,29,26,28,10,18,16,31,27,40,,,1.40,0.73,1.20*16
$GNGSA,A,3,69,81,82,79,83,,,,,,,,1.40,0.73,1.20*17
$GPGSV,5,1,17,08,09,317,16,10,16,004,13,16,25,240,31,18,33,086,31*79
$GPGSV,5,2,17,23,02,042,,25,00,121,,26,29,208,46,27,44,308,23*70
$GPGSV,5,3,17,28,50,148,35,29,12,148,23,31,35,185,39,32,56,360,35*7A
$GPGSV,5,4,17,36,52,277,27,40,84,353,37,41,58,082,28,49,32,274,*77
$GPGSV,5,5,17,50,10,089,*4A
$GLGSV,3,1,09,68,15,006,,69,45,319,22,70,23,240,,79,13,139,16*67
$GLGSV,3,2,09,80,14,190,09,81,16,140,23,82,52,098,29,83,42,014,34*63
$GLGSV,3,3,09,,,,28*66
$GNGLL,0420.00580,S,05539.67842,E,113709.00,A,D*6C
$GNRMC,113710.00,A,0420.00576,S,05539.67847,E,0.102,,020625,,,D*71
$GNVTG,,T,,M,0.102,N,0.189,K,D*3B
$GNGGA,113710.00,0420.00576,S,05539.67847,E,2,12,0.83,21.9,M,-47.6,M,,0000*41
$GNGSA,A,3,32,29,26,28,10,18,16,31,27,40,,,1.73,0.83,1.52*1C
$GNGSA,A,3,69,81,82,79,80,83,,,,,,,1.73,0.83,1.52*15
$GPGSV,5,1,17,08,09,317,15,10,16,004,15,16,25,240,31,18,33,086,29*75
$GPGSV,5,2,17,23,02,042,,25,00,121,,26,29,208,46,27,44,308,26*75
$GPGSV,5,3,17,28,50,148,34,29,12,148,25,31,35,185,38,32,56,360,37*7E
$GPGSV,5,4,17,36,52,277,26,40,84,353,35,41,58,082,28,49,32,274,*74
$GPGSV,5,5,17,50,10,089,*4A
$GLGSV,3,1,09,68,15,006,,69,45,319,22,70,23,240,,79,13,139,18*69
$GLGSV,3,2,09,80,14,190,15,81,16,140,23,82,52,098,29,83,42,014,32*68
$GLGSV,3,3,09,,,,28*66
$GNGLL,0420.00576,S,05539.67847,E,113710.00,A,D*68
$GNRMC,113711.00,A,0420.00573,S,05539.67848,E,0.048,,020625,,,D*75
$GNVTG,,T,,M,0.048,N,0.088,K,D*34
$GNGGA,113711.00,0420.00573,S,05539.67848,E,2,12,0.83,21.9,M,-47.6,M,,0000*4A
$GNGSA,A,3,32,29,26,28,10,18,16,31,27,40,,,1.73,0.83,1.52*1C
$GNGSA,A,3,69,81,82,79,80,83,,,,,,,1.73,0.83,1.52*15
$GPGSV,5,1,17,08,09,317,14,10,16,004,10,16,25,240,32,18,33,086,28*73
$GPGSV,5,2,17,23,02,042,,25,00,121,,26,29,208,45,27,44,308,25*75
$GPGSV,5,3,17,28,50,148,34,29,12,148,25,31,35,185,37,32,56,360,37*71
$GPGSV,5,4,17,36,52,277,,40,84,353,34,41,58,082,29,49,32,274,*70
$GPGSV,5,5,17,50,10,089,*4A
$GLGSV,3,1,09,68,15,006,,69,45,319,23,70,23,240,,79,13,139,18*68
$GLGSV,3,2,09,80,14,190,12,81,16,140,25,82,52,098,30,83,42,014,32*61
$GLGSV,3,3,09,,,,29*67
$GNGLL,0420.00573,S,05539.67848,E,113711.00,A,D*63
$GNRMC,113712.00,A,0420.00575,S,05539.67846,E,0.031,,020625,,,D*70
$GNVTG,,T,,M,0.031,N,0.057,K,D*38
$GNGGA,113712.00,0420.00575,S,05539.67846,E,2,12,0.83,22.1,M,-47.6,M,,0000*4A
$GNGSA,A,3,32,29,26,28,10,18,16,31,27,40,,,1.73,0.83,1.52*1C
$GNGSA,A,3,69,81,82,79,80,83,,,,,,,1.73,0.83,1.52*15
$GPGSV,5,1,17,08,09,317,11,10,16,004,12,16,25,240,31,18,33,086,28*77
$GPGSV,5,2,17,23,02,042,,25,00,121,,26,29,208,43,27,44,308,26*70
$GPGSV,5,3,17,28,50,148,34,29,12,148,24,31,35,185,37,32,56,360,35*72
$GPGSV,5,4,17,36,52,277,,40,84,353,33,41,58,082,29,49,32,274,*77
$GPGSV,5,5,17,50,10,089,*4A
$GLGSV,3,1,09,68,15,006,,69,45,319,21,70,23,240,,79,13,139,18*6A
$GLGSV,3,2,09,80,14,190,08,81,16,140,25,82,52,098,30,83,42,014,26*6F
$GLGSV,3,3,09,,,,32*6D
$GNGLL,0420.00575,S,05539.67846,E,113712.00,A,D*68
$GNRMC,113713.00,A,0420.00577,S,05539.67846,E,0.028,,020625,,,D*7B
$GNVTG,,T,,M,0.028,N,0.051,K,D*36
$GNGGA,113713.00,0420.00577,S,05539.67846,E,2,12,0.83,22.1,M,-47.6,M,,0000*49
$GNGSA,A,3,32,29,26,28,10,18,16,31,27,40,,,1.73,0.83,1.52*1C
$GNGSA,A,3,69,81,82,79,80,83,,,,,,,1.73,0.83,1.52*15
$GPGSV,5,1,17,08,09,317,10,10,16,004,15,16,25,240,34,18,33,086,29*75
$GPGSV,5,2,17,23,02,042,,25,00,121,,26,29,208,40,27,44,308,25*70
$GPGSV,5,3,17,28,50,148,35,29,12,148,21,31,35,185,40,32,56,360,37*74
$GPGSV,5,4,17,36,52,277,,40,84,353,39,41,58,082,28,49,32,274,*7C
$GPGSV,5,5,17,50,10,089,*4A
$GLGSV,3,1,09,68,15,006,,69,45,319,22,70,23,240,,79,13,139,21*63
$GLGSV,3,2,09,80,14,190,14,81,16,140,26,82,52,098,30,83,42,014,34*62
$GLGSV,3,3,09,,,,38*67
$GNGLL,0420.00577,S,05539.67846,E,113713.00,A,D*6B
$GNRMC,113714.00,A,0420.00579,S,05539.67843,E,0.053,,020625,,,D*7B
$GNVTG,,T,,M,0.053,N,0.099,K,D*3E
$GNGGA,113714.00,0420.00579,S,05539.67843,E,2,12,0.83,22.3,M,-47.6,M,,0000*47
$GNGSA,A,3,32,29,26,28,10,18,16,31,27,40,,,1.73,0.83,1.52*1C
$GNGSA,A,3,69,81,82,79,80,83,,,,,,,1.73,0.83,1.52*15
$GPGSV,5,1,17,08,09,317,12,10,16,004,10,16,25,239,32,18,33,086,29*7A
$GPGSV,5,2,17,23,02,042,,25,00,121,,26,29,208,40,27,44,308,26*73
$GPGSV,5,3,17,28,50,148,35,29,12,148,22,31,35,185,39,32,56,360,34*7A
$GPGSV,5,4,17,36,52,277,,40,84,353,40,41,58,082,27,49,32,274,*7D
$GPGSV,5,5,17,50,10,089,*4A
$GLGSV,3,1,09,68,15,006,,69,45,319,23,70,23,240,,79,13,139,22*61
$GLGSV,3,2,09,80,14,190,08,81,16,140,25,82,52,098,29,83,42,014,34*64
$GLGSV,3,3,09,,,,35*6A
$GNGLL,0420.00579,S,05539.67843,E,113714.00,A,D*67
$GNRMC,113715.00,A,0420.00578,S,05539.67841,E,0.039,,020625,,,D*75
$GNVTG,,T,,M,0.039,N,0.072,K,D*37
$GNGGA,113715.00,0420.00578,S,05539.67841,E,2,12,0.83,22.2,M,-47.6,M,,0000*44
$GNGSA,A,3,32,29,26,28,10,18,16,31,27,40,,,1.73,0.83,1.52*1C
$GNGSA,A,3,69,81,82,79,80,83,,,,,,,1.73,0.83,1.52*15
$GPGSV,5,1,17,08,09,317,14,10,16,004,11,16,25,239,31,18,33,086,29*7E
$GPGSV,5,2,17,23,02,042,,25,00,121,,26,29,208,40,27,44,308,26*73
$GPGSV,5,3,17,28,50,148,37,29,12,148,23,31,35,185,40,32,56,360,37*74
$GPGSV,5,4,17,36,52,277,,40,84,353,40,41,58,082,28,49,32,274,*72
$GPGSV,5,5,17,50,10,089,*4A
$GLGSV,3,1,09,68,15,006,,69,45,319,26,70,23,240,,79,13,139,23*65
$GLGSV,3,2,09,80,14,190,17,81,16,140,22,82,52,098,28,83,42,014,35*6D
$GLGSV,3,3,09,,,,36*69
$GNGLL,0420.00578,S,05539.67841,E,113715.00,A,D*65
$GNRMC,113716.00,A,0420.00576,S,05539.67841,E,0.039,,020625,,,D*78
$GNVTG,,T,,M,0.039,N,0.071,K,D*34
$GNGGA,113716.00,0420.00576,S,05539.67841,E,2,12,0.70,22.1,M,-47.6,M,,0000*46
$GNGSA,A,3,32,29,26,28,10,18,16,31,27,40,,,1.37,0.70,1.17*11
$GNGSA,A,3,69,81,82,79,80,83,,,,,,,1.37,0.70,1.17*18
$GPGSV,5,1,17,08,09,317,13,10,16,004,11,16,25,239,32,18,33,086,29*7A
$GPGSV,5,2,17,23,02,042,,25,00,121,,26,29,208,43,27,44,308,27*71
$GPGSV,5,3,17,28,50,148,37,29,12,148,23,31,35,185,41,32,56,360,37*75
$GPGSV,5,4,17,36,52,277,,40,84,353,41,41,58,082,28,49,32,274,*73
$GPGSV,5,5,17,50,10,089,*4A
$GLGSV,3,1,09,68,15,006,,69,45,319,26,70,23,240,,79,13,139,23*65
$GLGSV,3,2,09,80,14,190,08,81,16,140,22,82,52,098,29,83,42,014,32*65
$GLGSV,3,3,09,,,,36*69
$GNGLL,0420.00576,S,05539.67841,E,113716.00,A,D*68
$GNRMC,113717.00,A,0420.00577,S,05539.67835,E,0.159,,020625,,,D*7C
$GNVTG,,T,,M,0.159,N,0.294,K,D*3A
$GNGGA,113717.00,0420.00577,S,05539.67835,E,2,12,0.70,22.6,M,-47.6,M,,0000*42
$GNGSA,A,3,32,29,26,28,10,18,16,31,27,40,,,1.37,0.70,1.17*11
$GNGSA,A,3,69,81,82,79,80,83,,,,,,,1.37,0.70,1.17*18
$GPGSV,5,1,17,08,09,317,12,10,16,004,15,16,25,239,32,18,33,086,31*76
$GPGSV,5,2,17,23,02,042,,25,00,121,19,26,29,208,42,27,44,308,28*77
$GPGSV,5,3,17,28,50,148,36,29,12,148,23,31,35,185,41,32,56,360,33*70
$GPGSV,5,4,17,36,52,277,,40,84,353,41,41,58,082,27,49,32,274,*7C
$GPGSV,5,5,17,50,10,089,*4A
$GLGSV,3,1,09,68,15,006,,69,45,319,25,70,23,240,,79,13,139,23*66
$GLGSV,3,2,09,80,14,190,08,81,16,140,23,82,52,098,29,83,42,014,32*64
$GLGSV,3,3,09,,,,36*69
$GNGLL,0420.00577,S,05539.67835,E,113717.00,A,D*6B
$GNRMC,113718.00,A,0420.00575,S,05539.67832,E,0.085,,020625,,,D*76
$GNVTG,,T,,M,0.085,N,0.158,K,D*39
$GNGGA,113718.00,0420.00575,S,05539.67832,E,2,12,0.70,22.5,M,-47.6,M,,0000*4B
$GNGSA,A,3,32,29,26,28,10,18,16,31,27,40,,,1.37,0.70,1.17*11
$GNGSA,A,3,69,81,82,79,80,83,,,,,,,1.37,0.70,1.17*18
$GPGSV,5,1,17,08,09,317,08,10,16,004,12,16,25,239,32,18,33,086,30*7B
$GPGSV,5,2,17,23,02,042,,25,00,121,16,26,29,208,41,27,44,308,27*74
$GPGSV,5,3,17,28,50,148,36,29,12,148,22,31,35,185,39,32,56,360,34*79
$GPGSV,5,4,17,36,52,277,,40,84,353,40,41,58,082,26,49,32,274,*7C
$GPGSV,5,5,17,50,10,089,*4A
$GLGSV,3,1,09,68,15,006,,69,45,319,25,70,23,240,,79,13,139,23*66
$GLGSV,3,2,09,80,14,190,09,81,16,140,23,82,52,098,31,83,42,014,33*6D
$GLGSV,3,3,09,,,,35*6A
$GNGLL,0420.00575,S,05539.67832,E,113718.00,A,D*61
$GNRMC,113719.00,A,0420.00573,S,05539.67832,E,0.045,,020625,,,D*7D
$GNVTG,,T,,M,0.045,N,0.084,K,D*35
$GNGGA,113719.00,0420.00573,S,05539.67832,E,2,12,0.70,22.5,M,-47.6,M,,0000*4C
$GNGSA,A,3,32,29,26,28,10,18,16,31,27,40,,,1.37,0.70,1.17*11
$GNGSA,A,3,69,81,82,79,80,83,,,,,,,1.37,0.70,1.17*18
$GPGSV,5,1,17,08,09,317,,10,16,004,09,16,25,239,28,18,33,086,29*7A
$GPGSV,5,2,17,23,02,042,,25,00,121,14,26,29,208,43,27,44,308,26*75
$GPGSV,5,3,17,28,50,148,36,29,12,148,22,31,35,185,41,32,56,360,36*74
$GPGSV,5,4,17,36,52,277,,40,84,353,41,41,58,082,,49,32,274,*79
$GPGSV,5,5,17,50,10,089,*4A
$GLGSV,3,1,09,68,15,006,,69,45,319,26,70,23,240,,79,13,139,23*65
$GLGSV,3,2,09,80,14,190,17,81,16,140,24,82,52,098,31,83,42,014,32*64
$GLGSV,3,3,09,,,,35*6A
$GNGLL,0420.00573,S,05539.67832,E,113719.00,A,D*66
$GNRMC,113720.00,A,0420.00569,S,05539.67832,E,0.045,,020625,,,D*7C
$GNVTG,,T,,M,0.045,N,0.083,K,D*32
$GNGGA,113720.00,0420.00569,S,05539.67832,E,2,12,0.70,22.1,M,-47.6,M,,0000*49
$GNGSA,A,3,32,29,26,28,10,18,16,31,27,40,,,1.37,0.70,1.17*11
$GNGSA,A,3,69,81,82,79,80,83,,,,,,,1.37,0.70,1.17*18
$GPGSV,5,1,17,08,09,317,,10,16,004,14,16,25,239,30,18,33,086,29*7F
$GPGSV,5,2,17,23,02,042,,25,00,121,12,26,29,208,40,27,44,308,26*70
$GPGSV,5,3,17,28,50,148,38,29,12,148,23,31,35,185,41,32,56,360,35*78
$GPGSV,5,4,17,36,52,277,,40,84,353,41,41,58,082,,49,32,274,35*7F
$GPGSV,5,5,17,50,10,089,*4A
$GLGSV,3,1,09,68,15,006,,69,45,319,27,70,23,240,,79,13,139,24*63
$GLGSV,3,2,09,80,14,190,14,81,16,140,25,82,52,098,29,83,42,014,33*6E
$GLGSV,3,3,09,,,,36*69
$GNGLL,0420.00569,S,05539.67832,E,113720.00,A,D*67
$GNRMC,113721.00,A,0420.00565,S,05539.67829,E,0.119,,020625,,,D*73
$GNVTG,,T,,M,0.119,N,0.220,K,D*31
$GNGGA,113721.00,0420.00565,S,05539.67829,E,2,12,0.83,22.0,M,-47.6,M,,0000*43
$GNGSA,A,3,32,29,26,28,10,18,16,31,27,40,,,1.73,0.83,1.52*1C
$GNGSA,A,3,69,81,82,79,80,83,,,,,,,1.73,0.83,1.52*15
$GPGSV,5,1,17,08,09,317,,10,16,004,12,16,25,239,34,18,33,086,28*7C
$GPGSV,5,2,17,23,02,042,,25,00,121,09,26,29,208,42,27,44,308,28*76
$GPGSV,5,3,17,28,50,148,38,29,12,148,22,31,35,185,41,32,56,360,36*7A
$GPGSV,5,4,17,36,52,277,,40,84,353,41,41,58,082,,49,32,274,35*7F
$GPGSV,5,5,17,50,10,089,*4A
$GLGSV,3,1,09,68,15,006,,69,45,319,26,70,23,240,,79,13,139,24*62
$GLGSV,3,2,09,80,14,190,15,81,16,140,25,82,52,098,30,83,42,014,34*60
$GLGSV,3,3,09,,,,36*69
$GNGLL,0420.00565,S,05539.67829,E,113721.00,A,D*60
$GNRMC,113722.00,A,0420.00561,S,05539.67826,E,0.017,,020625,,,D*74
$GNVTG,,T,,M,0.017,N,0.031,K,D*3C
$GNGGA,113722.00,0420.00561,S,05539.67826,E,2,12,0.83,21.8,M,-47.6,M,,0000*40
$GNGSA,A,3,32,29,26,28,10,18,16,31,27,40,,,1.73,0.83,1.52*1C
$GNGSA,A,3,69,81,82,79,80,83,,,,,,,1.73,0.83,1.52*15
$GPGSV,5,1,17,08,09,317,,10,16,004,13,16,25,239,32,18,33,086,28*7B
$GPGSV,5,2,17,23,02,042,,25,-1,121,08,26,29,208,41,27,44,308,30*61
$GPGSV,5,3,17,28,50,148,38,29,12,148,22,31,35,185,41,32,56,360,36*7A
$GPGSV,5,4,17,36,52,277,,40,84,353,41,41,58,082,,49,32,274,35*7F
$GPGSV,5,5,17,50,10,089,*4A
$GLGSV,3,1,09,68,15,006,,69,45,319,26,70,23,240,,79,13,139,25*63
$GLGSV,3,2,09,80,14,190,08,81,16,140,24,82,52,098,30,83,42,014,34*6D
$GLGSV,3,3,09,,,,35*6A
$GNGLL,0420.00561,S,05539.67826,E,113722.00,A,D*68
$GNRMC,113723.00,A,0420.00560,S,05539.67831,E,0.043,,020625,,,D*73
$GNVTG,,T,,M,0.043,N,0.080,K,D*37
$GNGGA,113723.00,0420.00560,S,05539.67831,E,2,12,0.70,21.7,M,-47.6,M,,0000*45
$GNGSA,A,3,32,29,26,28,10,18,16,31,27,40,,,1.37,0.70,1.17*11
$GNGSA,A,3,69,81,82,79,80,83,,,,,,,1.37,0.70,1.17*18
$GPGSV,4,1,16,08,09,317,,10,16,004,08,16,25,239,32,18,33,086,29*70
$GPGSV,4,2,16,23,02,042,,26,29,208,41,27,44,308,26,28,50,148,36*70
$GPGSV,4,3,16,29,12,148,21,31,35,185,40,32,56,360,39,36,52,277,*7E
$GPGSV,4,4,16,40,84,353,41,41,58,082,,49,32,274,36,50,10,089,*79
$GLGSV,3,1,09,68,15,006,,69,45,319,27,70,23,240,,79,13,139,24*63
$GLGSV,3,2,09,80,14,190,14,81,16,140,26,82,52,098,30,83,42,014,34*62
$GLGSV,3,3,09,,,,35*6A
$GNGLL,0420.00560,S,05539.67831,E,113723.00,A,D*6E
$GNRMC,113724.00,A,0420.00559,S,05539.67833,E,0.042,,020625,,,D*7D
$GNVTG,,T,,M,0.042,N,0.078,K,D*31
$GNGGA,113724.00,0420.00559,S,05539.67833,E,2,12,0.70,21.6,M,-47.6,M,,0000*4B
$GNGSA,A,3,32,29,26,28,10,18,16,31,27,40,,,1.37,0.70,1.17*11
$GNGSA,A,3,69,81,82,79,80,83,,,,,,,1.37,0.70,1.17*18
$GPGSV,4,1,16,08,09,317,,10,16,004,09,16,25,239,31,18,33,086,29*72
$GPGSV,4,2,16,23,02,042,,26,29,208,41,27,44,307,26,28,50,148,36*7F
$GPGSV,4,3,16,29,12,148,22,31,35,185,40,32,56,360,35,36,52,277,*71
$GPGSV,4,4,16,40,84,353,40,41,58,082,,49,32,274,37,50,10,089,*79
$GLGSV,3,1,09,68,15,006,,69,45,319,26,70,23,240,,79,13,139,23*65
$GLGSV,3,2,09,80,14,190,16,81,16,140,26,82,52,098,31,83,42,014,34*61
$GLGSV,3,3,09,,,,35*6A
$GNGLL,0420.00559,S,05539.67833,E,113724.00,A,D*61
$GNRMC,113725.00,A,0420.00558,S,05539.67834,E,0.082,,020625,,,D*76
$GNVTG,,T,,M,0.082,N,0.152,K,D*34
$GNGGA,113725.00,0420.00558,S,05539.67834,E,2,12,0.83,21.5,M,-47.6,M,,0000*43
$GNGSA,A,3,32,29,26,28,10,18,16,31,27,40,,,1.73,0.83,1.52*1C
$GNGSA,A,3,69,81,82,79,80,83,,,,,,,1.73,0.83,1.52*15
$GPGSV,4,1,16,08,09,317,,10,16,004,13,16,25,239,31,18,33,086,29*79
$GPGSV,4,2,16,23,02,042,,26,29,208,41,27,44,307,31,28,50,147,37*77
$GPGSV,4,3,16,29,12,148,22,31,35,185,40,32,56,360,36,36,52,277,*72
$GPGSV,4,4,16,40,84,353,41,41,58,082,,49,32,274,37,50,10,089,*78
$GLGSV,3,1,09,68,15,006,,69,45,319,25,70,23,240,,79,13,139,25*60
$GLGSV,3,2,09,80,14,190,11,81,16,140,26,82,52,098,31,83,42,014,33*61
$GLGSV,3,3,09,,,,35*6A
$GNGLL,0420.00558,S,05539.67834,E,113725.00,A,D*66
$GNRMC,113726.00,A,0420.00558,S,05539.67831,E,0.019,,020625,,,D*72
$GNVTG,,T,,M,0.019,N,0.034,K,D*37
$GNGGA,113726.00,0420.00558,S,05539.67831,E,2,12,0.83,21.5,M,-47.6,M,,0000*45
$GNGSA,A,3,32,29,26,28,10,18,16,31,27,40,,,1.73,0.83,1.52*1C
$GNGSA,A,3,69,81,82,79,80,83,,,,,,,1.73,0.83,1.52*15
$GPGSV,4,1,16,08,09,317,,10,16,004,10,16,25,239,30,18,33,086,30*73
$GPGSV,4,2,16,23,02,042,,26,29,208,41,27,44,307,24,28,50,147,37*73
$GPGSV,4,3,16,29,11,148,22,31,35,185,40,32,56,360,37,36,52,277,*70
$GPGSV,4,4,16,40,84,353,41,41,58,082,,49,32,274,38,50,10,089,*77
$GLGSV,3,1,09,68,15,006,,69,45,319,26,70,23,240,,79,13,139,25*63
$GLGSV,3,2,09,80,14,190,14,81,16,140,26,82,52,098,31,83,42,014,33*64
$GLGSV,3,3,09,,,,36*69
$GNGLL,0420.00558,S,05539.67831,E,113726.00,A,D*60
$GNRMC,113727.00,A,0420.00561,S,05539.67829,E,0.081,,020625,,,D*71
$GNVTG,,T,,M,0.081,N,0.149,K,D*3D
$GNGGA,113727.00,0420.00561,S,05539.67829,E,2,12,0.83,21.6,M,-47.6,M,,0000*44
$GNGSA,A,3,32,29,26,28,10,18,16,31,27,40,,,1.73,0.83,1.52*1C
$GNGSA,A,3,69,81,82,79,80,83,,,,,,,1.73,0.83,1.52*15
$GPGSV,4,1,16,08,09,317,,10,16,004,12,16,25,239,31,18,33,086,30*70
$GPGSV,4,2,16,23,02,042,,26,29,208,41,27,44,307,26,28,50,147,37*71
$GPGSV,4,3,16,29,11,148,22,31,35,185,41,32,56,360,35,36,52,277,*73
$GPGSV,4,4,16,40,84,353,39,41,58,082,,49,32,274,37,50,10,089,*77
$GLGSV,3,1,09,68,15,006,,69,45,319,25,70,23,240,,79,13,139,26*63
$GLGSV,3,2,09,80,14,190,09,81,16,140,24,82,52,098,31,83,42,014,33*6A
$GLGSV,3,3,09,,,,36*69
$GNGLL,0420.00561,S,05539.67829,E,113727.00,A,D*62
$GNRMC,113728.00,A,0420.00559,S,05539.67831,E,0.042,,020625,,,D*73
$GNVTG,,T,,M,0.042,N,0.078,K,D*31
$GNGGA,113728.00,0420.00559,S,05539.67831,E,2,12,0.83,21.3,M,-47.6,M,,0000*4C
$GNGSA,A,3,32,29,26,28,10,18,16,31,27,40,,,1.73,0.83,1.52*1C
$GNGSA,A,3,69,81,82,79,80,83,,,,,,,1.73,0.83,1.52*15
$GPGSV,4,1,16,08,09,317,,10,16,004,13,16,25,239,32,18,33,086,26*75
$GPGSV,4,2,16,23,02,042,,26,29,208,42,27,44,307,26,28,50,147,37*72
$GPGSV,4,3,16,29,11,148,23,31,36,185,40,32,56,360,34,36,52,277,*71
$GPGSV,4,4,16,40,84,353,40,41,58,082,,49,32,274,36,50,10,089,*78
$GLGSV,3,1,09,68,15,006,,69,45,319,24,70,23,240,,79,13,139,26*62
$GLGSV,3,2,09,80,14,190,14,81,16,140,24,82,52,098,30,83,42,014,34*60
$GLGSV,3,3,09,,,,36*69
$GNGLL,0420.00559,S,05539.67831,E,113728.00,A,D*6F
$GNRMC,113729.00,A,0420.00560,S,05539.67830,E,0.059,,020625,,,D*73
$GNVTG,,T,,M,0.059,N,0.109,K,D*3C
$GNGGA,113729.00,0420.00560,S,05539.67830,E,2,12,0.70,21.5,M,-47.6,M,,0000*4C
$GNGSA,A,3,32,29,26,28,10,18,16,31,27,40,,,1.37,0.70,1.17*11
$GNGSA,A,3,69,81,82,79,80,83,,,,,,,1.37,0.70,1.17*18
$GPGSV,4,1,16,08,09,317,,10,16,004,08,16,25,239,26,18,33,086,29*75
$GPGSV,4,2,16,23,02,042,,26,29,208,41,27,44,307,26,28,50,147,34*72
$GPGSV,4,3,16,29,11,148,21,31,36,185,39,32,56,360,35,36,52,277,*7C
$GPGSV,4,4,16,40,84,353,38,41,58,082,,49,32,274,36,50,10,089,*77
$GLGSV,3,1,09,68,15,006,,69,45,319,25,70,23,240,,79,13,139,25*60
$GLGSV,3,2,09,80,14,190,10,81,16,140,25,82,52,098,30,83,42,014,33*62
$GLGSV,3,3,09,,,,36*69
$GNGLL,0420.00560,S,05539.67830,E,113729.00,A,D*65
$GNRMC,113730.00,A,0420.00556,S,05539.67829,E,0.026,,020625,,,D*7E
$GNVTG,,T,,M,0.026,N,0.048,K,D*30
$GNGGA,113730.00,0420.00556,S,05539.67829,E,2,12,0.83,21.2,M,-47.6,M,,0000*42
$GNGSA,A,3,32,29,26,28,10,18,16,31,27,40,,,1.73,0.83,1.52*1C
$GNGSA,A,3,69,81,82,79,80,83,,,,,,,1.73,0.83,1.52*15
$GPGSV,4,1,16,08,09,317,,10,16,004,10,16,25,239,29,18,33,086,29*73
$GPGSV,4,2,16,23,02,042,,26,29,208,41,27,44,307,28,28,50,147,37*7F
$GPGSV,4,3,16,29,11,148,20,31,36,185,41,32,56,360,36,36,52,277,*71
$GPGSV,4,4,16,40,84,353,40,41,58,082,,49,32,274,37,50,10,089,*79
$GLGSV,3,1,09,68,15,006,,69,45,319,26,70,23,240,,79,13,139,25*63
$GLGSV,3,2,09,80,14,190,12,81,16,140,24,82,52,098,30,83,42,014,34*66
$GLGSV,3,3,09,,,,36*69
$GNGLL,0420.00556,S,05539.67829,E,113730.00,A,D*60
$GNRMC,113731.00,A,0420.00555,S,05539.67829,E,0.048,,020625,,,D*74
$GNVTG,,T,,M,0.048,N,0.090,K,D*3D
$GNGGA,113731.00,0420.00555,S,05539.67829,E,2,12,0.83,21.1,M,-47.6,M,,0000*43
$GNGSA,A,3,32,29,26,28,10,18,16,31,27,40,,,1.73,0.83,1.52*1C
$GNGSA,A,3,69,81,82,79,80,83,,,,,,,1.73,0.83,1.52*15
$GPGSV,4,1,16,08,09,317,,10,16,004,13,16,25,239,30,18,33,086,30*70
$GPGSV,4,2,16,23,02,042,,26,29,208,41,27,44,307,27,28,50,147,37*70
$GPGSV,4,3,16,29,11,148,18,31,36,185,40,32,56,360,35,36,52,277,*78
$GPGSV,4,4,16,40,84,353,40,41,58,082,,49,32,274,37,50,10,089,*79
$GLGSV,3,1,09,68,15,006,,69,45,319,27,70,23,240,,79,13,139,25*62
$GLGSV,3,2,09,80,14,190,17,81,16,140,22,82,52,098,31,83,42,014,34*64
$GLGSV,3,3,09,,,,37*68
$GNGLL,0420.00555,S,05539.67829,E,113731.00,A,D*62
$GNRMC,113732.00,A,0420.00554,S,05539.67827,E,0.074,,020625,,,D*77
$GNVTG,,T,,M,0.074,N,0.137,K,D*3E
$GNGGA,113732.00,0420.00554,S,05539.67827,E,2,12,0.71,20.9,M,-47.6,M,,0000*4B
$GNGSA,A,3,32,26,28,10,18,16,31,27,40,,,,1.41,0.71,1.21*1F
$GNGSA,A,3,69,81,82,79,80,83,,,,,,,1.41,0.71,1.21*1D
$GPGSV,4,1,16,08,09,317,,10,16,004,09,16,25,239,31,18,33,086,29*72
$GPGSV,4,2,16,23,02,042,,26,29,208,40,27,44,307,27,28,50,147,37*71
$GPGSV,4,3,16,29,11,148,20,31,36,185,40,32,56,360,36,36,52,277,*70
$GPGSV,4,4,16,40,84,353,39,41,58,082,,49,32,274,37,50,10,089,*77
$GLGSV,3,1,09,68,15,006,,69,45,319,25,70,23,240,,79,13,139,26*63
$GLGSV,3,2,09,80,14,190,11,81,16,140,22,82,52,098,30,83,42,014,33*64
$GLGSV,3,3,09,,,,37*68
$GNGLL,0420.00554,S,05539.67827,E,113732.00,A,D*6E
$GNRMC,113733.00,A,0420.00550,S,05539.67827,E,0.018,,020625,,,D*78
$GNVTG,,T,,M,0.018,N,0.034,K,D*36
$GNGGA,113733.00,0420.00550,S,05539.67827,E,2,12,0.84,20.7,M,-47.6,M,,0000*4A
$GNGSA,A,3,32,26,28,10,18,16,31,27,40,,,,1.80,0.84,1.59*17
$GNGSA,A,3,69,81,82,79,80,83,,,,,,,1.80,0.84,1.59*15
$GPGSV,4,1,16,08,09,317,,10,16,004,08,16,25,239,30,18,33,086,29*72
$GPGSV,4,2,16,23,02,042,,26,29,208,40,27,44,307,26,28,50,147,37*70
$GPGSV,4,3,16,29,11,148,22,31,36,185,40,32,56,360,36,36,52,277,*72
$GPGSV,4,4,16,40,84,353,40,41,58,082,,49,32,274,37,50,10,089,*79
$GLGSV,3,1,09,68,15,006,,69,45,319,26,70,23,240,,79,13,139,27*61
$GLGSV,3,2,09,80,14,190,11,81,16,140,24,82,52,098,30,83,42,014,33*62
$GLGSV,3,3,09,,,,37*68
$GNGLL,0420.00550,S,05539.67827,E,113733.00,A,D*6B
$GNRMC,113734.00,A,0420.00548,S,05539.67824,E,0.041,,020625,,,D*79
$GNVTG,,T,,M,0.041,N,0.076,K,D*3C
$GNGGA,113734.00,0420.00548,S,05539.67824,E,2,12,0.84,20.5,M,-47.6,M,,0000*45
$GNGSA,A,3,32,26,28,10,18,16,31,27,40,,,,1.80,0.84,1.59*17
$GNGSA,A,3,69,81,82,79,80,83,,,,,,,1.80,0.84,1.59*15
$GPGSV,4,1,16,08,09,317,,10,16,004,10,16,25,239,31,18,33,086,30*72
$GPGSV,4,2,16,23,02,042,,26,29,208,41,27,44,307,27,28,50,147,37*70
$GPGSV,4,3,16,29,11,148,21,31,36,185,41,32,56,360,36,36,52,277,*70
$GPGSV,4,4,16,40,84,353,41,41,58,082,,49,32,274,37,50,10,089,*78
$GLGSV,3,1,09,68,15,006,,69,45,319,26,70,23,240,,79,13,139,28*6E
$GLGSV,3,2,09,80,14,190,11,81,16,140,24,82,52,098,29,83,42,014,32*6B
$GLGSV,3,3,09,,,,37*68
$GNGLL,0420.00548,S,05539.67824,E,113734.00,A,D*66
$GNRMC,113735.00,A,0420.00546,S,05539.67822,E,0.020,,020625,,,D*77
$GNVTG,,T,,M,0.020,N,0.038,K,D*31
$GNGGA,113735.00,0420.00546,S,05539.67822,E,2,12,0.83,20.3,M,-47.6,M,,0000*4D
$GNGSA,A,3,32,29,26,28,10,18,16,31,27,40,,,1.73,0.83,1.52*1C
$GNGSA,A,3,69,81,82,79,80,83,,,,,,,1.73,0.83,1.52*15
$GPGSV,4,1,16,08,09,317,,10,16,004,08,16,25,239,31,18,33,086,29*73
$GPGSV,4,2,16,23,02,042,,26,29,208,41,27,44,307,27,28,50,147,37*70
$GPGSV,4,3,16,29,11,148,21,31,36,185,42,32,56,360,37,36,52,277,*72
$GPGSV,4,4,16,40,84,353,41,41,58,082,,49,32,274,37,50,10,089,*78
$GLGSV,3,1,09,68,15,006,,69,45,319,23,70,23,240,,79,13,139,28*6B
$GLGSV,3,2,09,80,14,190,13,81,16,140,24,82,52,098,29,83,42,014,33*68
$GLGSV,3,3,09,,,,38*67
$GNGLL,0420.00546,S,05539.67822,E,113735.00,A,D*6F
$GNRMC,113736.00,A,0420.00543,S,05539.67820,E,0.009,,020625,,,D*78
$GNVTG,,T,,M,0.009,N,0.017,K,D*37
$GNGGA,113736.00,0420.00543,S,05539.67820,E,2,12,0.83,20.1,M,-47.6,M,,0000*4B
$GNGSA,A,3,32,29,26,28,10,18,16,31,27,40,,,1.73,0.83,1.52*1C
$GNGSA,A,3,69,81,82,79,80,83,,,,,,,1.73,0.83,1.52*15
$GPGSV,4,1,16,08,09,317,,10,16,004,11,16,25,239,30,18,33,086,28*7B
$GPGSV,4,2,16,23,02,042,,26,29,208,41,27,44,307,26,28,50,147,37*71
$GPGSV,4,3,16,29,11,148,22,31,36,185,40,32,56,360,35,36,52,277,*71
$GPGSV,4,4,16,40,84,353,40,41,58,082,,49,32,274,37,50,10,089,*79
$GLGSV,3,1,09,68,15,006,,69,45,319,21,70,23,240,,79,13,139,27*66
$GLGSV,3,2,09,80,14,190,08,81,16,140,24,82,52,098,31,83,42,014,34*6C
$GLGSV,3,3,09,,,,37*68
$GNGLL,0420.00543,S,05539.67820,E,113736.00,A,D*6B
$GNRMC,113737.00,A,0420.00540,S,05539.67821,E,0.043,,020625,,,D*75
$GNVTG,,T,,M,0.043,N,0.079,K,D*31
$GNGGA,113737.00,0420.00540,S,05539.67821,E,2,12,0.83,19.7,M,-47.6,M,,0000*44
$GNGSA,A,3,32,29,26,28,10,18,16,31,27,40,,,1.73,0.83,1.52*1C
$GNGSA,A,3,69,81,82,79,80,83,,,,,,,1.73,0.83,1.52*15
$GPGSV,4,1,16,08,09,317,,10,16,004,08,16,25,239,32,18,33,086,28*71
$GPGSV,4,2,16,23,02,042,,26,29,208,40,27,44,307,26,28,50,147,37*70
$GPGSV,4,3,16,29,11,148,21,31,36,185,41,32,56,360,38,36,52,277,*7E
$GPGSV,4,4,16,40,84,353,41,41,58,082,,49,32,274,37,50,10,089,*78
$GLGSV,3,1,09,68,15,006,,69,45,319,23,70,23,240,,79,13,139,28*6B
$GLGSV,3,2,09,80,14,190,12,81,16,140,26,82,52,098,30,83,42,014,34*64
$GLGSV,3,3,09,,,,36*69
$GNGLL,0420.00540,S,05539.67821,E,113737.00,A,D*68
$GNRMC,113738.00,A,0420.00537,S,05539.67821,E,0.046,,020625,,,D*7F
$GNVTG,,T,,M,0.046,N,0.085,K,D*37
$GNGGA,113738.00,0420.00537,S,05539.67821,E,2,12,0.71,19.5,M,-47.6,M,,0000*44
$GNGSA,A,3,32,29,26,28,10,18,16,31,27,40,,,1.37,0.71,1.17*10
$GNGSA,A,3,69,81,82,79,80,83,,,,,,,1.37,0.71,1.17*19
$GPGSV,4,1,16,08,09,317,,10,16,004,09,16,25,239,32,18,33,086,29*71
$GPGSV,4,2,16,23,02,042,,26,29,208,40,27,44,307,28,28,50,147,37*7E
$GPGSV,4,3,16,29,11,148,20,31,36,185,41,32,56,360,38,36,52,277,*7F
$GPGSV,4,4,16,40,84,353,41,41,58,082,,49,32,274,37,50,10,089,*78
$GLGSV,3,1,09,68,15,006,,69,45,319,24,70,23,240,,79,13,139,27*63
$GLGSV,3,2,09,80,14,190,18,81,16,140,25,82,52,098,30,83,42,014,33*6A
$GLGSV,3,3,09,,,,37*68
$GNGLL,0420.00537,S,05539.67821,E,113738.00,A,D*67
$GNRMC,113739.00,A,0420.00534,S,05539.67822,E,0.021,,020625,,,D*7F
$GNVTG,,T,,M,0.021,N,0.039,K,D*31
$GNGGA,113739.00,0420.00534,S,05539.67822,E,2,12,0.83,19.3,M,-47.6,M,,0000*4E
$GNGSA,A,3,32,29,26,28,10,18,16,31,27,40,,,1.73,0.83,1.52*1C
$GNGSA,A,3,69,81,82,79,80,83,,,,,,,1.73,0.83,1.52*15
$GPGSV,4,1,16,08,09,317,18,10,16,004,09,16,25,239,30,18,33,086,27*74
$GPGSV,4,2,16,23,02,042,,26,29,208,40,27,44,307,28,28,50,147,37*7E
$GPGSV,4,3,16,29,11,148,20,31,36,185,40,32,56,360,36,36,52,277,*70
$GPGSV,4,4,16,40,84,353,41,41,58,082,,49,32,274,37,50,10,089,*78
$GLGSV,3,1,09,68,15,006,,69,45,319,23,70,23,240,,79,13,139,27*64
$GLGSV,3,2,09,80,14,190,09,81,16,140,26,82,52,098,30,83,42,014,34*6E
$GLGSV,3,3,09,,,,36*69
$GNGLL,0420.00534,S,05539.67822,E,113739.00,A,D*66
$GNRMC,113740.00,A,0420.00531,S,05539.67822,E,0.048,,020625,,,D*7B
$GNVTG,,T,,M,0.048,N,0.088,K,D*34
$GNGGA,113740.00,0420.00531,S,05539.67822,E,2,12,0.84,19.0,M,-47.6,M,,0000*41
$GNGSA,A,3,32,26,28,10,18,16,31,27,40,,,,1.80,0.84,1.59*17
$GNGSA,A,3,69,81,82,79,80,83,,,,,,,1.80,0.84,1.59*15
$GPGSV,4,1,16,08,09,317,16,10,16,004,12,16,25,239,30,18,33,086,27*70
$GPGSV,4,2,16,23,02,042,,26,29,208,42,27,44,307,30,28,50,147,37*75
$GPGSV,4,3,16,29,11,148,21,31,36,185,41,32,56,360,36,36,52,277,*70
$GPGSV,4,4,16,40,84,353,42,41,58,082,,49,32,274,38,50,10,089,*74
$GLGSV,3,1,09,68,15,006,,69,45,319,24,70,23,240,,79,13,139,26*62
$GLGSV,3,2,09,80,14,190,15,81,16,140,26,82,52,098,30,83,42,014,34*63
$GLGSV,3,3,09,,,,38*67
$GNGLL,0420.00531,S,05539.67822,E,113740.00,A,D*6D
$GNRMC,113741.00,A,0420.00532,S,05539.67825,E,0.010,,020625,,,D*73
$GNVTG,,T,,M,0.010,N,0.018,K,D*30
$GNGGA,113741.00,0420.00532,S,05539.67825,E,2,12,0.71,18.8,M,-47.6,M,,0000*47
$GNGSA,A,3,32,26,28,10,18,16,31,27,40,,,,1.41,0.71,1.21*1F
$GNGSA,A,3,69,81,82,79,80,83,,,,,,,1.41,0.71,1.21*1D
$GPGSV,4,1,16,08,09,317,15,10,16,004,11,16,25,239,31,18,33,086,28*7E
$GPGSV,4,2,16,23,02,042,,26,29,208,40,27,44,307,29,28,50,147,35*7D
$GPGSV,4,3,16,29,11,148,22,31,36,185,39,32,56,360,36,36,52,277,*7C
$GPGSV,4,4,16,40,84,353,40,41,58,082,,49,32,274,36,50,10,089,*78
$GLGSV,3,1,09,68,15,006,,69,45,319,25,70,23,240,,79,13,139,26*63
$GLGSV,3,2,09,80,14,190,12,81,16,140,26,82,52,098,30,83,42,014,34*64
$GLGSV,3,3,09,,,,36*69
$GNGLL,0420.00532,S,05539.67825,E,113741.00,A,D*68
$GNRMC,113742.00,A,0420.00531,S,05539.67827,E,0.016,,020625,,,D*77
$GNVTG,,T,,M,0.016,N,0.029,K,D*34
$GNGGA,113742.00,0420.00531,S,05539.67827,E,2,12,0.83,18.6,M,-47.6,M,,0000*46
$GNGSA,A,3,32,29,26,28,10,18,16,31,27,40,,,1.73,0.83,1.52*1C
$GNGSA,A,3,69,81,82,79,80,83,,,,,,,1.73,0.83,1.52*15
$GPGSV,4,1,16,08,09,317,13,10,16,004,07,16,25,239,31,18,33,086,27*70
$GPGSV,4,2,16,23,02,042,,26,29,208,40,27,44,307,28,28,50,147,36*7F
$GPGSV,4,3,16,29,11,148,22,31,36,185,40,32,56,360,36,36,52,277,*72
$GPGSV,4,4,16,40,84,353,40,41,58,082,,49,32,274,36,50,10,089,*78
$GLGSV,3,1,09,68,15,006,,69,45,319,24,70,23,240,,79,13,139,26*62
$GLGSV,3,2,09,80,14,190,10,81,16,140,26,82,52,098,31,83,42,014,34*67
$GLGSV,3,3,09,,,,36*69
$GNGLL,0420.00531,S,05539.67827,E,113742.00,A,D*6A
$GNRMC,113743.00,A,0420.00528,S,05539.67825,E,0.090,,020625,,,D*72
$GNVTG,,T,,M,0.090,N,0.166,K,D*30
$GNGGA,113743.00,0420.00528,S,05539.67825,E,2,12,0.83,18.3,M,-47.6,M,,0000*48
$GNGSA,A,3,32,29,26,28,10,18,16,31,27,40,,,1.73,0.83,1.52*1C
$GNGSA,A,3,69,81,82,79,80,83,,,,,,,1.73,0.83,1.52*15
$GPGSV,4,1,16,08,09,317,15,10,16,004,09,16,25,239,30,18,33,086,27*79
$GPGSV,4,2,16,23,02,042,,26,29,208,39,27,44,307,25,28,50,147,36*7C
$GPGSV,4,3,16,29,11,148,21,31,36,185,40,32,56,360,38,36,52,277,*7F
$GPGSV,4,4,16,40,84,353,41,41,58,082,,49,32,274,36,50,10,089,*79
$GLGSV,3,1,09,68,15,006,,69,45,319,23,70,23,240,,79,13,139,26*65
$GLGSV,3,2,09,80,14,190,13,81,16,140,27,82,52,098,30,83,42,014,32*62
$GLGSV,3,3,09,,,,37*68
$GNGLL,0420.00528,S,05539.67825,E,113743.00,A,D*61
$GNRMC,113744.00,A,0420.00528,S,05539.67824,E,0.007,,020625,,,D*7A
$GNVTG,,T,,M,0.007,N,0.013,K,D*3D
$GNGGA,113744.00,0420.00528,S,05539.67824,E,2,12,0.71,18.2,M,-47.6,M,,0000*42
$GNGSA,A,3,32,29,26,28,10,18,16,31,27,40,,,1.37,0.71,1.17*10
$GNGSA,A,3,69,81,82,79,80,83,,,,,,,1.37,0.71,1.17*19
$GPGSV,4,1,16,08,09,317,17,10,16,004,10,16,25,239,34,18,33,086,27*77
$GPGSV,4,2,16,23,02,042,,26,29,208,40,27,44,307,27,28,50,147,36*70
$GPGSV,4,3,16,29,11,148,23,31,36,185,38,32,56,360,35,36,52,277,*7F
$GPGSV,4,4,16,40,84,353,42,41,58,082,,49,32,274,36,50,10,089,*7A
$GLGSV,3,1,09,68,15,006,,69,45,319,24,70,23,240,,79,13,139,25*61
$GLGSV,3,2,09,80,14,190,17,81,16,140,27,82,52,098,30,83,42,014,36*62
$GLGSV,3,3,09,,,,35*6A
$GNGLL,0420.00528,S,05539.67824,E,113744.00,A,D*67
$GNRMC,113745.00,A,0420.00526,S,05539.67827,E,0.106,,020625,,,D*76
$GNVTG,,T,,M,0.106,N,0.196,K,D*31
$GNGGA,113745.00,0420.00526,S,05539.67827,E,2,12,0.85,18.0,M,-47.6,M,,0000*47
$GNGSA,A,3,32,29,26,28,10,18,16,31,27,40,,,1.76,0.85,1.54*19
$GNGSA,A,3,69,81,82,79,83,,,,,,,,1.76,0.85,1.54*18
$GPGSV,4,1,16,08,09,317,17,10,16,004,11,16,25,239,33,18,33,086,26*70
$GPGSV,4,2,16,23,02,042,,26,29,208,42,27,44,307,27,28,50,147,36*72
$GPGSV,4,3,16,29,11,148,22,31,36,185,39,32,56,360,30,36,52,277,*7A
$GPGSV,4,4,16,40,84,353,41,41,58,082,,49,32,274,38,50,10,089,*77
$GLGSV,3,1,09,68,15,006,,69,45,319,26,70,23,240,,79,13,139,23*65
$GLGSV,3,2,09,80,14,190,10,81,16,140,26,82,52,098,29,83,42,014,27*6C
$GLGSV,3,3,09,,,,34*6B
$GNGLL,0420.00526,S,05539.67827,E,113745.00,A,D*6B
$GNRMC,113746.00,A,0420.00523,S,05539.67824,E,0.184,,020625,,,D*79
$GNVTG,,T,,M,0.184,N,0.341,K,D*33
$GNGGA,113746.00,0420.00523,S,05539.67824,E,2,12,0.83,17.9,M,-47.6,M,,0000*42
$GNGSA,A,3,32,29,26,28,10,18,16,31,27,40,,,1.73,0.83,1.52*1C
$GNGSA,A,3,69,81,82,79,80,83,,,,,,,1.73,0.83,1.52*15
$GPGSV,4,1,16,08,09,317,16,10,16,004,11,16,25,239,32,18,33,086,27*71
$GPGSV,4,2,16,23,02,042,,26,29,208,42,27,44,307,25,28,50,147,37*71
$GPGSV,4,3,16,29,11,148,23,31,36,185,41,32,56,360,31,36,52,277,*75
$GPGSV,4,4,16,40,84,353,41,41,58,082,,49,32,274,39,50,10,089,*76
$GLGSV,3,1,09,68,15,006,,69,45,319,26,70,23,240,,79,13,139,24*62
$GLGSV,3,2,09,80,14,190,14,81,16,140,24,82,52,098,30,83,42,014,32*66
$GLGSV,3,3,09,,,,34*6B
$GNGLL,0420.00523,S,05539.67824,E,113746.00,A,D*6E
$GNRMC,113747.00,A,0420.00520,S,05539.67820,E,0.039,,020625,,,D*78
$GNVTG,,T,,M,0.039,N,0.072,K,D*37
$GNGGA,113747.00,0420.00520,S,05539.67820,E,2,12,0.83,17.9,M,-47.6,M,,0000*44
$GNGSA,A,3,32,29,26,28,10,18,16,31,27,40,,,1.73,0.83,1.52*1C
$GNGSA,A,3,69,81,82,79,80,83,,,,,,,1.73,0.83,1.52*15
$GPGSV,4,1,16,08,09,317,16,10,16,004,12,16,25,239,32,18,33,086,28*7D
$GPGSV,4,2,16,23,02,042,,26,29,208,42,27,44,307,24,28,50,147,37*70
$GPGSV,4,3,16,29,11,148,24,31,36,185,39,32,56,360,37,36,52,277,*7B
$GPGSV,4,4,16,40,84,353,39,41,58,082,,49,32,274,38,50,10,089,*78
$GLGSV,3,1,09,68,15,006,,69,45,319,26,70,23,240,,79,13,139,25*63
$GLGSV,3,2,09,80,14,190,14,81,16,140,24,82,52,098,29,83,42,014,35*69
$GLGSV,3,3,09,,,,34*6B
$GNGLL,0420.00520,S,05539.67820,E,113747.00,A,D*68
$GNRMC,113748.00,A,0420.00521,S,05539.67824,E,0.091,,020625,,,D*70
$GNVTG,,T,,M,0.091,N,0.169,K,D*3E
$GNGGA,113748.00,0420.00521,S,05539.67824,E,2,12,0.83,17.9,M,-47.6,M,,0000*4E
$GNGSA,A,3,32,29,26,28,10,18,16,31,27,40,,,1.73,0.83,1.52*1C
$GNGSA,A,3,69,81,82,79,80,83,,,,,,,1.73,0.83,1.52*15
$GPGSV,4,1,16,08,09,317,14,10,16,004,09,16,25,239,31,18,33,086,27*79
$GPGSV,4,2,16,23,02,042,,26,29,208,39,27,44,307,25,28,50,147,33*79
$GPGSV,4,3,16,29,11,148,23,31,36,185,38,32,56,360,35,36,52,277,*7F
$GPGSV,4,4,16,40,84,353,38,41,58,082,,49,32,274,36,50,10,089,*77
$GLGSV,3,1,09,68,15,006,,69,45,319,26,70,23,240,,79,13,139,25*63
$GLGSV,3,2,09,80,14,190,14,81,16,140,26,82,52,098,30,83,42,014,34*62
$GLGSV,3,3,09,,,,34*6B
$GNGLL,0420.00521,S,05539.67824,E,113748.00,A,D*62
$GNRMC,113749.00,A,0420.00521,S,05539.67824,E,0.011,,020625,,,D*79
$GNVTG,,T,,M,0.011,N,0.021,K,D*3B
$GNGGA,113749.00,0420.00521,S,05539.67824,E,2,12,0.83,17.8,M,-47.6,M,,0000*4E
$GNGSA,A,3,32,29,26,28,10,18,16,31,27,40,,,1.73,0.83,1.52*1C
$GNGSA,A,3,69,81,82,79,80,83,,,,,,,1.73,0.83,1.52*15
$GPGSV,4,1,16,08,09,317,18,10,16,004,10,16,25,239,30,18,33,086,26*7D
$GPGSV,4,2,16,23,02,042,,26,29,208,41,27,44,307,24,28,50,147,36*72
$GPGSV,4,3,16,29,11,148,21,31,36,185,40,32,56,360,36,36,52,277,*71
$GPGSV,4,4,16,40,84,353,40,41,58,082,,49,32,274,37,50,10,089,*79
$GLGSV,3,1,09,68,15,006,,69,45,319,22,70,23,240,,79,13,139,25*67
$GLGSV,3,2,09,80,14,190,16,81,16,140,26,82,52,098,31,83,42,014,32*67
$GLGSV,3,3,09,,,,35*6A
$GNGLL,0420.00521,S,05539.67824,E,113749.00,A,D*63
$GNRMC,113750.00,A,0420.00522,S,05539.67822,E,0.040,,020625,,,D*70
$GNVTG,,T,,M,0.040,N,0.075,K,D*3E
$GNGGA,113750.00,0420.00522,S,05539.67822,E,2,12,0.84,17.9,M,-47.6,M,,0000*45
$GNGSA,A,3,32,26,28,10,18,16,31,27,40,,,,1.80,0.84,1.59*17
$GNGSA,A,3,69,81,82,79,80,83,,,,,,,1.80,0.84,1.59*15
$GPGSV,4,1,16,08,09,317,17,10,16,004,09,16,25,239,29,18,33,086,25*71
$GPGSV,4,2,16,23,02,042,,26,29,208,41,27,44,307,25,28,50,147,36*73
$GPGSV,4,3,16,29,11,148,,31,36,185,41,32,56,360,38,36,52,277,*7D
$GPGSV,4,4,16,40,84,353,39,41,58,082,,49,32,274,38,50,10,089,*78
$GLGSV,3,1,09,68,15,006,,69,45,319,19,70,23,240,,79,13,139,25*6F
$GLGSV,3,2,09,80,14,190,16,81,16,140,26,82,52,098,30,83,42,014,34*60
$GLGSV,3,3,09,,,,36*69
$GNGLL,0420.00522,S,05539.67822,E,113750.00,A,D*6E
$GNRMC,113751.00,A,0420.00526,S,05539.67824,E,0.023,,020625,,,D*76
$GNVTG,,T,,M,0.023,N,0.043,K,D*3E
$GNGGA,113751.00,0420.00526,S,05539.67824,E,2,12,0.84,18.0,M,-47.6,M,,0000*40
$GNGSA,A,3,32,26,28,10,18,16,31,27,40,,,,1.80,0.84,1.59*17
$GNGSA,A,3,69,81,82,79,80,83,,,,,,,1.80,0.84,1.59*15
$GPGSV,4,1,16,08,09,317,18,10,16,004,10,16,25,239,28,18,33,086,26*74
$GPGSV,4,2,16,23,02,042,,26,29,208,41,27,44,307,30,28,50,147,36*77
$GPGSV,4,3,16,29,11,148,19,31,36,185,40,32,56,360,36,36,52,277,*7A
$GPGSV,4,4,16,40,84,353,40,41,58,082,,49,32,274,38,50,10,089,*76
$GLGSV,3,1,09,68,15,006,,69,45,319,19,70,23,240,,79,13,139,25*6F
$GLGSV,3,2,09,80,14,190,16,81,16,140,27,82,52,098,29,83,42,014,34*69
$GLGSV,3,3,09,,,,36*69
$GNGLL,0420.00526,S,05539.67824,E,113751.00,A,D*6D
$GNRMC,113752.00,A,0420.00531,S,05539.67829,E,0.038,,020625,,,D*74
$GNVTG,,T,,M,0.038,N,0.070,K,D*34
$GNGGA,113752.00,0420.00531,S,05539.67829,E,2,12,0.84,17.9,M,-47.6,M,,0000*4E
$GNGSA,A,3,32,26,28,10,18,16,31,27,40,,,,1.80,0.84,1.59*17
$GNGSA,A,3,69,81,82,79,80,83,,,,,,,1.80,0.84,1.59*15
$GPGSV,4,1,16,08,09,317,16,10,16,004,12,16,25,239,29,18,33,086,25*7A
$GPGSV,4,2,16,23,02,042,,26,29,208,39,27,44,307,29,28,50,147,35*73
$GPGSV,4,3,16,29,11,148,20,31,36,185,41,32,56,360,38,36,52,277,*7F
$GPGSV,4,4,16,40,84,353,40,41,58,082,,49,32,274,38,50,10,089,*76
$GLGSV,3,1,09,68,15,006,,69,45,319,19,70,23,240,,79,13,139,24*6E
$GLGSV,3,2,09,80,14,190,14,81,16,140,27,82,52,098,31,83,42,014,34*62
$GLGSV,3,3,09,,,,36*69
$GNGLL,0420.00531,S,05539.67829,E,113752.00,A,D*65
$GNRMC,113753.00,A,0420.00533,S,05539.67832,E,0.025,,020625,,,D*71
$GNVTG,,T,,M,0.025,N,0.046,K,D*3D
$GNGGA,113753.00,0420.00533,S,05539.67832,E,2,12,0.84,17.8,M,-47.6,M,,0000*46
$GNGSA,A,3,32,26,28,10,18,16,31,27,40,,,,1.80,0.84,1.59*17
$GNGSA,A,3,69,81,82,79,80,83,,,,,,,1.80,0.84,1.59*15
$GPGSV,4,1,16,08,09,317,17,10,16,004,09,16,25,239,30,18,33,086,26*7A
$GPGSV,4,2,16,23,02,042,,26,29,208,39,27,44,307,28,28,50,147,36*71
$GPGSV,4,3,16,29,11,148,,31,36,185,41,32,56,360,36,36,52,277,*73
$GPGSV,4,4,16,40,84,353,40,41,58,082,,49,32,274,38,50,10,089,*76
$GLGSV,3,1,09,68,14,006,,69,45,319,20,70,23,240,,79,13,139,24*65
$GLGSV,3,2,09,80,14,190,14,81,16,140,27,82,52,098,32,83,42,014,34*61
$GLGSV,3,3,09,,,,36*69
$GNGLL,0420.00533,S,05539.67832,E,113753.00,A,D*6C
$GNRMC,113754.00,A,0420.00535,S,05539.67829,E,0.038,,020625,,,D*76
$GNVTG,,T,,M,0.038,N,0.070,K,D*34
$GNGGA,113754.00,0420.00535,S,05539.67829,E,2,12,0.84,17.9,M,-47.6,M,,0000*4C
$GNGSA,A,3,32,26,28,10,18,16,31,27,40,,,,1.80,0.84,1.59*17
$GNGSA,A,3,69,81,82,79,80,83,,,,,,,1.80,0.84,1.59*15
$GPGSV,4,1,16,08,09,317,17,10,16,004,12,16,25,239,28,18,33,086,25*7A
$GPGSV,4,2,16,23,02,042,,26,29,208,39,27,44,307,28,28,50,147,36*71
$GPGSV,4,3,16,29,11,148,,31,36,185,41,32,56,360,36,36,52,277,*73
$GPGSV,4,4,16,40,84,353,40,41,58,082,,49,32,274,37,50,10,089,*79
$GLGSV,3,1,09,68,14,006,,69,44,320,22,70,23,240,,79,13,139,25*6D
$GLGSV,3,2,09,80,14,190,14,81,16,140,28,82,52,098,31,83,42,014,33*6A
$GLGSV,3,3,09,,,,37*68
$GNGLL,0420.00535,S,05539.67829,E,113754.00,A,D*67
$GNRMC,113755.00,A,0420.00538,S,05539.67826,E,0.025,,020625,,,D*79
$GNVTG,,T,,M,0.025,N,0.046,K,D*3D
$GNGGA,113755.00,0420.00538,S,05539.67826,E,2,12,0.84,18.1,M,-47.6,M,,0000*48
$GNGSA,A,3,32,26,28,18,16,31,27,40,,,,,1.80,0.84,1.59*16
$GNGSA,A,3,69,81,82,79,80,83,,,,,,,1.80,0.84,1.59*15
$GPGSV,4,1,16,08,09,317,16,10,16,004,06,16,25,239,28,18,33,086,24*7F
$GPGSV,4,2,16,23,02,042,,26,29,208,39,27,44,307,27,28,50,147,35*7D
$GPGSV,4,3,16,29,11,148,,31,36,185,39,32,56,360,37,36,52,277,*7D
$GPGSV,4,4,16,40,84,353,38,41,58,082,,49,32,274,37,50,10,089,*76
$GLGSV,3,1,09,68,14,006,,69,44,320,23,70,23,240,,79,13,139,24*6D
$GLGSV,3,2,09,80,14,190,13,81,16,140,27,82,52,098,31,83,42,014,34*65
$GLGSV,3,3,09,,,,36*69
$GNGLL,0420.00538,S,05539.67826,E,113755.00,A,D*64
$GNRMC,113756.00,A,0420.00541,S,05539.67826,E,0.027,,020625,,,D*76
$GNVTG,,T,,M,0.027,N,0.049,K,D*30
$GNGGA,113756.00,0420.00541,S,05539.67826,E,2,12,0.84,18.3,M,-47.6,M,,0000*47
$GNGSA,A,3,32,26,28,10,18,16,31,27,40,,,,1.80,0.84,1.59*17
$GNGSA,A,3,69,81,82,79,80,83,,,,,,,1.80,0.84,1.59*15
$GPGSV,4,1,16,08,09,317,15,10,16,004,12,16,25,239,29,18,33,086,24*78
$GPGSV,4,2,16,23,02,042,,26,29,208,39,27,44,307,26,28,50,147,35*7C
$GPGSV,4,3,16,29,11,148,,31,36,185,39,32,56,360,37,36,52,277,*7D
$GPGSV,4,4,16,40,84,353,38,41,58,082,,49,32,274,36,50,10,089,*77
$GLGSV,3,1,09,68,14,006,,69,44,320,24,70,23,240,,79,13,139,24*6A
$GLGSV,3,2,09,80,14,190,12,81,16,140,27,82,52,098,31,83,42,014,34*64
$GLGSV,3,3,09,,,,36*69
$GNGLL,0420.00541,S,05539.67826,E,113756.00,A,D*69
$GNRMC,113757.00,A,0420.00542,S,05539.67827,E,0.037,,020625,,,D*74
$GNVTG,,T,,M,0.037,N,0.069,K,D*33
$GNGGA,113757.00,0420.00542,S,05539.67827,E,2,12,0.84,18.3,M,-47.6,M,,0000*44
$GNGSA,A,3,32,26,28,10,18,16,31,27,40,,,,1.80,0.84,1.59*17
$GNGSA,A,3,69,81,82,79,80,83,,,,,,,1.80,0.84,1.59*15
$GPGSV,4,1,16,08,09,317,12,10,16,004,09,16,25,239,30,18,33,086,22*7B
$GPGSV,4,2,16,23,02,042,,26,29,208,39,27,44,307,28,28,50,147,35*72
$GPGSV,4,3,16,29,11,148,20,31,36,185,37,32,56,360,36,36,52,277,*70
$GPGSV,4,4,16,40,84,353,38,41,58,082,,49,32,274,37,50,10,089,*76
$GLGSV,3,1,09,68,14,006,,69,44,320,22,70,23,240,,79,13,139,25*6D
$GLGSV,3,2,09,80,14,190,11,81,16,140,27,82,52,098,31,83,42,014,35*66
$GLGSV,3,3,09,,,,34*6B
$GNGLL,0420.00542,S,05539.67827,E,113757.00,A,D*6A
$GNRMC,113758.00,A,0420.00545,S,05539.67827,E,0.038,,020625,,,D*73
$GNVTG,,T,,M,0.038,N,0.070,K,D*34
$GNGGA,113758.00,0420.00545,S,05539.67827,E,2,12,0.84,18.4,M,-47.6,M,,0000*4B
$GNGSA,A,3,32,26,28,10,18,16,31,27,40,,,,1.80,0.84,1.59*17
$GNGSA,A,3,69,81,82,79,80,83,,,,,,,1.80,0.84,1.59*15
$GPGSV,4,1,16,08,09,317,11,10,16,004,09,16,25,239,31,18,33,086,23*78
$GPGSV,4,2,16,23,02,042,,26,29,208,40,27,44,307,28,28,50,147,35*7C
$GPGSV,4,3,16,29,11,148,21,31,36,185,40,32,56,360,35,36,52,277,*72
$GPGSV,4,4,16,40,84,353,38,41,58,082,,49,32,274,37,50,10,089,*76
$GLGSV,3,1,09,68,14,006,,69,44,320,23,70,23,240,,79,13,139,25*6C
$GLGSV,3,2,09,80,14,190,11,81,16,140,27,82,52,098,30,83,42,014,33*61
$GLGSV,3,3,09,,,,36*69
$GNGLL,0420.00545,S,05539.67827,E,113758.00,A,D*62
$GNRMC,113759.00,A,0420.00548,S,05539.67823,E,0.037,,020625,,,D*74
$GNVTG,,T,,M,0.037,N,0.069,K,D*33
$GNGGA,113759.00,0420.00548,S,05539.67823,E,2,12,0.84,18.6,M,-47.6,M,,0000*41
$GNGSA,A,3,32,26,28,10,18,16,31,27,40,,,,1.80,0.84,1.59*17
$GNGSA,A,3,69,81,82,79,80,83,,,,,,,1.80,0.84,1.59*15
$GPGSV,4,1,16,08,09,317,14,10,16,004,10,16,25,239,31,18,33,086,24*72
$GPGSV,4,2,16,23,02,042,,26,29,208,40,27,44,307,28,28,50,147,36*7F
$GPGSV,4,3,16,29,11,148,21,31,36,185,38,32,56,360,32,36,52,277,*7A
$GPGSV,4,4,16,40,84,353,39,41,58,082,,49,32,274,37,50,10,089,*77
$GLGSV,3,1,09,68,14,006,,69,44,320,24,70,23,240,,79,13,139,26*68
$GLGSV,3,2,09,80,14,190,11,81,16,140,27,82,52,098,31,83,42,014,35*66
$GLGSV,3,3,09,,,,33*6C
$GNGLL,0420.00548,S,05539.67823,E,113759.00,A,D*6A
$GNRMC,113800.00,A,0420.00551,S,05539.67820,E,0.021,,020625,,,D*7B
$GNVTG,,T,,M,0.021,N,0.039,K,D*31
$GNGGA,113800.00,0420.00551,S,05539.67820,E,2,12,0.83,18.8,M,-47.6,M,,0000*40
$GNGSA,A,3,32,29,26,28,10,18,16,31,27,40,,,1.73,0.83,1.51*1F
$GNGSA,A,3,69,81,82,79,80,83,,,,,,,1.73,0.83,1.51*16
$GPGSV,4,1,16,08,09,317,15,10,16,004,11,16,25,239,31,18,33,086,26*70
$GPGSV,4,2,16,23,02,042,,26,29,208,40,27,44,307,30,28,50,147,36*76
$GPGSV,4,3,16,29,11,148,19,31,36,185,40,32,56,360,35,36,52,277,*79
$GPGSV,4,4,16,40,84,353,38,41,58,082,,49,32,274,38,50,10,089,*79
$GLGSV,3,1,09,68,14,006,,69,44,320,23,70,23,240,20,79,13,139,26*6D
$GLGSV,3,2,09,80,14,190,13,81,16,140,28,82,52,098,30,83,42,014,34*6B
$GLGSV,3,3,09,,,,36*69
$GNGLL,0420.00551,S,05539.67820,E,113800.00,A,D*62
$GNRMC,113801.00,A,0420.00555,S,05539.67821,E,0.041,,020625,,,D*79
$GNVTG,,T,,M,0.041,N,0.076,K,D*3C
$GNGGA,113801.00,0420.00555,S,05539.67821,E,2,12,0.83,18.9,M,-47.6,M,,0000*45
$GNGSA,A,3,32,29,26,28,10,18,16,31,27,40,,,1.73,0.83,1.51*1F
$GNGSA,A,3,69,81,82,79,80,83,,,,,,,1.73,0.83,1.51*16
$GPGSV,4,1,16,08,09,317,16,10,16,004,09,16,25,239,24,18,33,086,24*7C
$GPGSV,4,2,16,23,02,042,,26,29,208,42,27,44,307,29,28,50,147,36*7C
$GPGSV,4,3,16,29,11,148,20,31,36,185,40,32,56,360,36,36,52,277,*70
$GPGSV,4,4,16,40,84,353,39,41,58,082,,49,32,274,35,50,10,089,*75
$GLGSV,3,1,09,68,14,006,,69,44,320,25,70,23,240,,79,13,139,23*6C
$GLGSV,3,2,09,80,14,190,13,81,16,140,28,82,52,098,30,83,42,014,35*6A
$GLGSV,3,3,09,,,,35*6A
$GNGLL,0420.00555,S,05539.67821,E,113801.00,A,D*66
$GNRMC,113802.00,A,0420.00558,S,05539.67822,E,0.046,,020625,,,D*73
$GNVTG,,T,,M,0.046,N,0.085,K,D*37
$GNGGA,113802.00,0420.00558,S,05539.67822,E,2,12,0.83,19.1,M,-47.6,M,,0000*41
$GNGSA,A,3,32,29,26,28,10,18,16,31,27,40,,,1.73,0.83,1.51*1F
$GNGSA,A,3,69,81,82,79,80,83,,,,,,,1.73,0.83,1.51*16
$GPGSV,4,1,16,08,09,317,15,10,16,004,10,16,25,239,25,18,33,086,21*73
$GPGSV,4,2,16,23,02,042,,26,29,208,41,27,44,307,29,28,50,147,36*7F
$GPGSV,4,3,16,29,11,148,21,31,36,185,40,32,56,360,35,36,52,277,*72
$GPGSV,4,4,16,40,84,353,39,41,58,082,,49,32,274,36,50,10,089,*76
$GLGSV,3,1,09,68,14,006,,69,44,320,26,70,23,240,,79,13,139,25*69
$GLGSV,3,2,09,80,14,190,13,81,16,140,28,82,52,098,31,83,42,014,35*6B
$GLGSV,3,3,09,,,,35*6A
$GNGLL,0420.00558,S,05539.67822,E,113802.00,A,D*6B
$GNRMC,113803.00,A,0420.00559,S,05539.67824,E,0.024,,020625,,,D*71
$GNVTG,,T,,M,0.024,N,0.045,K,D*3F
$GNGGA,113803.00,0420.00559,S,05539.67824,E,2,12,0.83,19.0,M,-47.6,M,,0000*46
$GNGSA,A,3,32,29,26,28,10,18,16,31,27,40,,,1.73,0.83,1.51*1F
$GNGSA,A,3,69,81,82,79,80,83,,,,,,,1.73,0.83,1.51*16
$GPGSV,4,1,16,08,09,317,16,10,16,004,08,16,25,239,31,18,33,086,21*7C
$GPGSV,4,2,16,23,02,042,,26,29,208,40,27,44,307,30,28,50,147,36*76
$GPGSV,4,3,16,29,11,148,21,31,36,185,40,32,56,360,35,36,52,277,*72
$GPGSV,4,4,16,40,84,353,40,41,58,082,,49,32,274,37,50,10,089,*79
$GLGSV,3,1,09,68,14,006,,69,44,320,26,70,23,240,,79,13,139,24*68
$GLGSV,3,2,09,80,14,190,11,81,16,140,29,82,52,098,32,83,42,014,35*6B
$GLGSV,3,3,09,,,,34*6B
$GNGLL,0420.00559,S,05539.67824,E,113803.00,A,D*6D
$GNRMC,113804.00,A,0420.00561,S,05539.67826,E,0.060,,020625,,,D*7F
$GNVTG,,T,,M,0.060,N,0.112,K,D*3C
$GNGGA,113804.00,0420.00561,S,05539.67826,E,2,12,0.83,19.1,M,-47.6,M,,0000*49
$GNGSA,A,3,32,29,26,28,10,18,16,31,27,40,,,1.73,0.83,1.51*1F
$GNGSA,A,3,69,81,82,79,80,83,,,,,,,1.73,0.83,1.51*16
$GPGSV,4,1,16,08,09,317,17,10,16,004,10,16,25,239,30,18,33,086,20*74
$GPGSV,4,2,16,23,02,042,,26,29,208,40,27,44,307,29,28,50,147,34*7C
$GPGSV,4,3,16,29,11,148,19,31,36,185,39,32,56,360,35,36,52,277,*77
$GPGSV,4,4,16,40,84,353,40,41,58,082,,49,32,274,34,50,10,089,*7A
$GLGSV,3,1,09,68,14,006,,69,44,320,26,70,23,240,,79,13,138,24*69
$GLGSV,3,2,09,80,14,190,12,81,16,140,29,82,52,098,31,83,42,014,31*6F
$GLGSV,3,3,09,,,,37*68
$GNGLL,0420.00561,S,05539.67826,E,113804.00,A,D*63
$GNRMC,113805.00,A,0420.00562,S,05539.67829,E,0.049,,020625,,,D*79
$GNVTG,,T,,M,0.049,N,0.090,K,D*3C
$GNGGA,113805.00,0420.00562,S,05539.67829,E,2,12,0.83,19.2,M,-47.6,M,,0000*47
$GNGSA,A,3,32,29,26,28,10,18,16,31,27,40,,,1.73,0.83,1.51*1F
$GNGSA,A,3,69,81,82,79,80,83,,,,,,,1.73,0.83,1.51*16
$GPGSV,4,1,16,08,09,317,16,10,16,004,08,16,25,239,25,18,33,086,19*72
$GPGSV,4,2,16,23,02,042,,26,29,208,40,27,44,307,27,28,50,147,34*72
$GPGSV,4,3,16,29,11,148,20,31,36,185,39,32,56,360,33,36,52,277,*7B
$GPGSV,4,4,16,40,84,353,38,41,58,082,,49,32,274,34,50,10,089,*75
$GLGSV,3,1,09,68,14,006,,69,44,320,27,70,23,240,,79,13,138,26*6A
$GLGSV,3,2,09,80,15,190,12,81,16,140,29,82,52,098,31,83,42,014,31*6E
$GLGSV,3,3,09,,,,37*68
$GNGLL,0420.00562,S,05539.67829,E,113805.00,A,D*6E
$GNRMC,113806.00,A,0420.00561,S,05539.67828,E,0.021,,020625,,,D*76
$GNVTG,,T,,M,0.021,N,0.039,K,D*31
$GNGGA,113806.00,0420.00561,S,05539.67828,E,2,12,0.83,19.3,M,-47.6,M,,0000*47
$GNGSA,A,3,32,29,26,28,10,18,16,31,27,40,,,1.73,0.83,1.51*1F
$GNGSA,A,3,69,81,82,79,80,83,,,,,,,1.73,0.83,1.51*16
$GPGSV,4,1,16,08,09,317,14,10,16,004,09,16,25,239,31,18,33,086,20*7E
$GPGSV,4,2,16,23,02,042,,26,29,208,42,27,44,307,27,28,50,147,34*70
$GPGSV,4,3,16,29,11,148,19,31,36,185,39,32,56,360,34,36,52,277,*76
$GPGSV,4,4,16,40,84,353,40,41,58,082,,49,32,274,35,50,10,089,*7B
$GLGSV,3,1,09,68,14,006,,69,44,320,26,70,23,240,,79,13,138,27*6A
$GLGSV,3,2,09,80,15,190,12,81,16,140,29,82,52,098,30,83,42,014,33*6D
$GLGSV,3,3,09,,,,37*68
$GNGLL,0420.00561,S,05539.67828,E,113806.00,A,D*6F
$GNRMC,113807.00,A,0420.00561,S,05539.67830,E,0.024,,020625,,,D*7B
$GNVTG,,T,,M,0.024,N,0.044,K,D*3E
$GNGGA,113807.00,0420.00561,S,05539.67830,E,2,12,0.83,19.4,M,-47.6,M,,0000*48
$GNGSA,A,3,32,29,26,28,10,18,16,31,27,40,,,1.73,0.83,1.51*1F
$GNGSA,A,3,69,81,82,79,80,83,,,,,,,1.73,0.83,1.51*16
$GPGSV,4,1,16,08,09,317,15,10,16,004,08,16,25,239,30,18,33,086,20*7F
$GPGSV,4,2,16,23,02,042,,26,29,208,43,27,44,307,32,28,50,147,34*75
$GPGSV,4,3,16,29,11,148,19,31,36,185,39,32,56,360,38,36,52,277,*7A
$GPGSV,4,4,16,40,84,353,41,41,58,082,,49,32,274,38,50,10,089,*77
$GLGSV,3,1,09,68,14,006,,69,44,320,25,70,23,240,,79,13,138,26*68
$GLGSV,3,2,09,80,15,190,13,81,16,140,27,82,52,100,31,83,42,014,33*63
$GLGSV,3,3,09,,,,34*6B
$GNGLL,0420.00561,S,05539.67830,E,113807.00,A,D*67
$GNRMC,113808.00,A,0420.00561,S,05539.67830,E,0.027,,020625,,,D*77
$GNVTG,,T,,M,0.027,N,0.050,K,D*38
$GNGGA,113808.00,0420.00561,S,05539.67830,E,2,12,0.83,19.6,M,-47.6,M,,0000*45
$GNGSA,A,3,32,29,26,28,10,18,16,31,27,40,,,1.73,0.83,1.51*1F
$GNGSA,A,3,69,81,82,79,80,83,,,,,,,1.73,0.83,1.51*16
$GPGSV,4,1,16,08,09,317,15,10,16,004,09,16,25,239,30,18,33,086,20*7E
$GPGSV,4,2,16,23,02,042,,26,29,208,38,27,44,307,27,28,50,147,31*78
$GPGSV,4,3,16,29,11,148,19,31,36,185,38,32,56,360,35,36,52,277,*76
$GPGSV,4,4,16,40,84,353,40,41,58,082,,49,32,274,35,50,10,089,*7B
$GLGSV,3,1,09,68,14,006,,69,44,320,22,70,23,240,,79,13,138,26*6F
$GLGSV,3,2,09,80,15,190,14,81,16,140,27,82,52,100,32,83,43,014,34*61
$GLGSV,3,3,09,,,,34*6B
$GNGLL,0420.00561,S,05539.67830,E,113808.00,A,D*68
$GNRMC,113809.00,A,0420.00561,S,05539.67831,E,0.096,,020625,,,D*7D
$GNVTG,,T,,M,0.096,N,0.178,K,D*39
$GNGGA,113809.00,0420.00561,S,05539.67831,E,2,12,0.83,19.7,M,-47.6,M,,0000*44
$GNGSA,A,3,32,29,26,28,10,18,16,31,27,40,,,1.73,0.83,1.51*1F
$GNGSA,A,3,69,81,82,79,80,83,,,,,,,1.73,0.83,1.51*16
$GPGSV,4,1,16,08,09,317,15,10,16,004,08,16,25,239,29,18,33,086,19*7D
$GPGSV,4,2,16,23,02,042,,26,29,208,38,27,44,307,29,28,50,147,35*72
$GPGSV,4,3,16,29,11,148,20,31,36,185,39,32,56,360,35,36,52,277,*7D
$GPGSV,4,4,16,40,84,353,41,41,58,082,,49,32,274,35,50,10,089,*7A
$GLGSV,3,1,09,68,14,006,,69,44,320,22,70,23,240,,79,13,138,25*6C
$GLGSV,3,2,09,80,15,190,15,81,16,140,27,82,52,100,31,83,43,014,34*63
$GLGSV,3,3,09,,,,34*6B
$GNGLL,0420.00561,S,05539.67831,E,113809.00,A,D*68
$GNRMC,113810.00,A,0420.00562,S,05539.67831,E,0.020,,020625,,,D*7B
$GNVTG,,T,,M,0.020,N,0.037,K,D*3E
$GNGGA,113810.00,0420.00562,S,05539.67831,E,2,12,0.83,20.0,M,-47.6,M,,0000*42
$GNGSA,A,3,32,29,26,28,10,18,16,31,27,40,,,1.73,0.83,1.51*1F
$GNGSA,A,3,69,81,82,79,80,83,,,,,,,1.73,0.83,1.51*16
$GPGSV,4,1,16,08,09,317,15,10,16,004,12,16,25,239,28,18,33,086,22*7F
$GPGSV,4,2,16,23,02,042,,26,29,208,38,27,44,307,29,28,50,147,35*72
$GPGSV,4,3,16,29,11,148,21,31,36,185,39,32,56,360,38,36,52,277,*71
$GPGSV,4,4,16,40,84,353,40,41,58,082,,49,32,274,35,50,10,089,*7B
