$GNRMC,063352.00,A,0419.83583,S,05539.60302,E,0.029,,260525,,,D*7E
$GNVTG,,T,,M,0.029,N,0.053,K,D*35
$GNGGA,063352.00,0419.83583,S,05539.60302,E,2,12,0.71,12.8,M,-47.6,M,,0000*4F
$GNGSA,A,3,12,23,24,25,29,15,18,05,20,40,,,1.22,0.71,1.00*1C
$GNGSA,A,3,78,82,80,68,79,67,66,,,,,,1.22,0.71,1.00*16
$GPGSV,5,1,17,05,40,036,39,10,05,212,,12,73,080,35,13,13,108,08*78
$GPGSV,5,2,17,15,40,138,32,18,32,291,34,20,08,033,40,23,46,210,42*7E
$GPGSV,5,3,17,24,33,177,42,25,58,341,37,28,05,292,41,29,14,346,41*79
$GPGSV,5,4,17,36,52,277,,40,86,351,39,41,58,082,,49,32,274,*76
$GPGSV,5,5,17,50,10,089,*4A
$GLGSV,3,1,09,66,13,063,23,67,38,117,31,68,25,175,39,78,47,168,39*6E
$GLGSV,3,2,09,79,69,298,36,80,17,328,40,81,02,016,40,82,12,333,36*6E
$GLGSV,3,3,09,83,10,284,32*59
$GNGLL,0419.83583,S,05539.60302,E,063352.00,A,D*6A
$GNRMC,063357.00,A,0419.83589,S,05539.60293,E,0.014,,260525,,,D*76
$GNVTG,,T,,M,0.014,N,0.027,K,D*38
$GNGGA,063357.00,0419.83589,S,05539.60293,E,2,12,0.71,13.0,M,-47.6,M,,0000*40
$GNGSA,A,3,12,23,24,25,29,15,18,05,20,40,,,1.22,0.71,1.00*1C
$GNGSA,A,3,78,82,80,68,79,67,66,,,,,,1.22,0.71,1.00*16
$GPGSV,5,1,17,05,40,036,36,10,05,212,22,12,73,080,32,13,13,108,*78
$GPGSV,5,2,17,15,40,138,27,18,32,291,31,20,08,033,36,23,46,210,38*73
$GPGSV,5,3,17,24,33,177,38,25,58,341,32,28,05,292,35,29,14,346,37*73
$GPGSV,5,4,17,36,52,277,,40,86,351,33,41,58,082,,49,32,274,*7C
$GPGSV,5,5,17,50,10,089,*4A
$GLGSV,3,1,09,66,13,063,25,67,38,117,21,68,25,175,32,78,47,168,33*68
$GLGSV,3,2,09,79,69,298,29,80,17,328,31,81,02,016,32,82,12,333,28*6C
$GLGSV,3,3,09,83,10,284,26*5C
$GNGLL,0419.83589,S,05539.60293,E,063357.00,A,D*6C
$GNRMC,063358.00,A,0419.83588,S,05539.60292,E,0.018,,260525,,,D*75
$GNVTG,,T,,M,0.018,N,0.034,K,D*36
$GNGGA,063358.00,0419.83588,S,05539.60292,E,2,12,0.71,13.0,M,-47.6,M,,0000*4F
$GNGSA,A,3,12,23,24,25,29,15,18,05,20,40,,,1.22,0.71,1.00*1C
$GNGSA,A,3,78,82,80,68,79,67,66,,,,,,1.22,0.71,1.00*16
$GPGSV,5,1,17,05,40,036,36,10,05,212,21,12,73,080,32,13,13,108,*7B
$GPGSV,5,2,17,15,40,138,27,18,32,291,34,20,08,033,36,23,46,210,38*76
$GPGSV,5,3,17,24,33,177,39,25,58,341,33,28,05,292,38,29,14,346,36*7F
$GPGSV,5,4,17,36,52,277,,40,86,351,35,41,58,082,,49,32,274,*7A
$GPGSV,5,5,17,50,10,089,*4A
$GLGSV,3,1,09,66,13,063,24,67,38,117,21,68,25,175,37,78,47,168,34*6B
$GLGSV,3,2,09,79,69,298,33,80,17,328,32,81,02,016,34,82,12,333,29*63
$GLGSV,3,3,09,83,10,284,31*5A
$GNGLL,0419.83588,S,05539.60292,E,063358.00,A,D*63
$GNRMC,063359.00,A,0419.83591,S,05539.60290,E,0.040,,260525,,,D*73
$GNVTG,,T,,M,0.040,N,0.074,K,D*3F
$GNGGA,063359.00,0419.83591,S,05539.60290,E,2,12,0.71,12.9,M,-47.6,M,,0000*4C
$GNGSA,A,3,12,23,24,25,29,15,18,05,20,40,,,1.22,0.71,1.00*1C
$GNGSA,A,3,78,82,80,68,79,67,66,,,,,,1.22,0.71,1.00*16
$GPGSV,5,1,17,05,40,036,39,10,05,212,,12,73,080,36,13,13,108,*73
$GPGSV,5,2,17,15,40,138,28,18,32,291,35,20,08,033,40,23,46,210,42*74
$GPGSV,5,3,17,24,33,177,42,25,58,341,36,28,05,292,40,29,14,346,41*79
$GPGSV,5,4,17,36,52,277,,40,86,351,37,41,58,082,,49,32,274,*78
$GPGSV,5,5,17,50,10,089,*4A
$GLGSV,3,1,09,66,13,063,24,67,38,117,21,68,25,175,35,78,47,168,35*68
$GLGSV,3,2,09,79,69,298,31,80,17,328,36,81,02,016,35,82,12,333,30*6C
$GLGSV,3,3,09,83,10,284,30*5B
$GNGLL,0419.83591,S,05539.60290,E,063359.00,A,D*68
$GNRMC,063400.00,A,0419.83593,S,05539.60288,E,0.033,,260525,,,D*77
$GNVTG,,T,,M,0.033,N,0.061,K,D*3F
$GNGGA,063400.00,0419.83593,S,05539.60288,E,2,12,0.71,12.9,M,-47.6,M,,0000*4C
$GNGSA,A,3,12,23,24,25,29,15,18,05,20,40,,,1.22,0.71,1.00*1C
$GNGSA,A,3,78,82,80,68,79,67,66,,,,,,1.22,0.71,1.00*16
$GPGSV,5,1,17,05,40,036,39,10,05,212,,12,73,080,35,13,13,108,*70
$GPGSV,5,2,17,15,40,138,30,18,32,291,37,20,08,033,39,23,46,210,42*71
$GPGSV,5,3,17,24,33,177,43,25,58,341,37,28,05,292,39,29,14,346,41*77
$GPGSV,5,4,17,36,52,277,,40,86,351,38,41,58,082,,49,32,274,*77
$GPGSV,5,5,17,50,10,089,*4A
$GLGSV,3,1,09,66,13,063,25,67,38,117,22,68,25,175,38,78,47,168,38*6A
$GLGSV,3,2,09,79,69,298,32,80,17,328,36,81,02,016,38,82,12,333,32*60
$GLGSV,3,3,09,83,10,284,29*53
$GNGLL,0419.83593,S,05539.60288,E,063400.00,A,D*68
$GNRMC,063404.00,A,0419.83595,S,05539.60284,E,0.020,,260525,,,D*7B
$GNVTG,,T,,M,0.020,N,0.036,K,D*3F
$GNGGA,063404.00,0419.83595,S,05539.60284,E,2,12,0.65,12.9,M,-47.6,M,,0000*47
$GNGSA,A,3,12,23,24,25,29,15,18,05,20,40,,,1.13,0.65,0.93*10
$GNGSA,A,3,78,82,80,68,79,67,66,83,,,,,1.13,0.65,0.93*11
$GPGSV,5,1,17,05,40,036,38,10,05,212,,12,73,080,32,13,13,108,*76
$GPGSV,5,2,17,15,40,138,28,18,32,291,35,20,08,033,37,23,46,210,40*76
$GPGSV,5,3,17,24,33,177,39,25,58,341,34,28,05,292,38,29,14,346,39*77
$GPGSV,5,4,17,36,52,277,,40,86,351,35,41,58,082,,49,32,274,*7A
$GPGSV,5,5,17,50,10,089,*4A
$GLGSV,3,1,09,66,12,063,27,67,39,116,24,68,26,175,37,78,47,168,38*63
$GLGSV,3,2,09,79,69,298,34,80,17,328,39,81,02,016,38,82,12,333,33*68
$GLGSV,3,3,09,83,10,285,35*5F
$GNGLL,0419.83595,S,05539.60284,E,063404.00,A,D*66
$GNRMC,063407.00,A,0419.83595,S,05539.60281,E,0.048,,260525,,,D*73
$GNVTG,,T,,M,0.048,N,0.090,K,D*3D
$GNGGA,063407.00,0419.83595,S,05539.60281,E,2,12,0.65,13.3,M,-47.6,M,,0000*4A
$GNGSA,A,3,12,23,24,25,29,15,18,05,20,40,,,1.13,0.65,0.93*10
$GNGSA,A,3,78,82,80,68,79,67,66,83,,,,,1.13,0.65,0.93*11
$GPGSV,5,1,17,05,40,036,39,10,05,212,24,12,73,080,35,13,13,108,*76
$GPGSV,5,2,17,15,40,138,28,18,32,291,35,20,08,033,39,23,46,210,42*7A
$GPGSV,5,3,17,24,33,177,41,25,58,341,36,28,05,292,40,29,14,346,41*7A
$GPGSV,5,4,17,36,52,277,,40,86,351,36,41,58,082,,49,32,274,*79
$GPGSV,5,5,17,50,10,089,*4A
$GLGSV,3,1,09,66,12,063,26,67,39,116,24,68,26,175,39,78,47,168,39*6D
$GLGSV,3,2,09,79,69,298,35,80,17,328,39,81,02,016,42,82,12,333,33*64
$GLGSV,3,3,09,83,10,285,34*5E
$GNGLL,0419.83595,S,05539.60281,E,063407.00,A,D*60
$GNRMC,063408.00,A,0419.83594,S,05539.60278,E,0.078,,260525,,,D*78
$GNVTG,,T,,M,0.078,N,0.145,K,D*37
$GNGGA,063408.00,0419.83594,S,05539.60278,E,2,12,0.65,13.3,M,-47.6,M,,0000*42
$GNGSA,A,3,12,23,24,25,29,15,18,05,20,40,,,1.13,0.65,0.93*10
$GNGSA,A,3,78,82,80,68,79,67,66,83,,,,,1.13,0.65,0.93*11
$GPGSV,5,1,17,05,40,036,38,10,05,212,21,12,73,080,33,13,13,108,*74
$GPGSV,5,2,17,15,40,138,28,18,32,291,33,20,08,033,37,23,46,210,40*70
$GPGSV,5,3,17,24,33,177,40,25,58,341,33,28,05,292,38,29,14,346,37*70
$GPGSV,5,4,17,36,52,277,,40,86,351,36,41,58,082,,49,32,274,*79
$GPGSV,5,5,17,50,10,089,*4A
$GLGSV,3,1,09,66,12,063,26,67,39,116,25,68,26,175,38,78,47,168,36*62
$GLGSV,3,2,09,79,69,298,33,80,17,328,37,81,02,016,39,82,12,333,32*61
$GLGSV,3,3,09,83,10,285,31*5B
$GNGLL,0419.83594,S,05539.60278,E,063408.00,A,D*68
$GNRMC,063412.00,A,0419.83596,S,05539.60274,E,0.015,,260525,,,D*76
$GNVTG,,T,,M,0.015,N,0.028,K,D*36
$GNGGA,063412.00,0419.83596,S,05539.60274,E,2,12,0.65,13.2,M,-47.6,M,,0000*46
$GNGSA,A,3,12,23,24,25,29,15,18,05,20,40,,,1.13,0.65,0.93*10
$GNGSA,A,3,78,82,80,68,79,67,66,83,,,,,1.13,0.65,0.93*11
$GPGSV,5,1,17,05,40,036,38,10,05,212,,12,73,080,34,13,13,108,*70
$GPGSV,5,2,17,15,40,138,26,18,32,291,34,20,08,033,37,23,46,210,41*78
$GPGSV,5,3,17,24,33,177,41,25,58,341,32,28,05,292,39,29,14,346,40*71
$GPGSV,5,4,17,36,52,277,,40,86,351,35,41,58,082,,49,32,274,*7A
$GPGSV,5,5,17,50,10,089,*4A
$GLGSV,3,1,09,66,12,063,25,67,39,116,22,68,26,175,39,78,47,168,38*69
$GLGSV,3,2,09,79,69,298,35,80,17,328,39,81,02,016,41,82,12,333,35*61
$GLGSV,3,3,09,83,10,285,34*5E
$GNGLL,0419.83596,S,05539.60274,E,063412.00,A,D*6D
$GNRMC,063413.00,A,0419.83596,S,05539.60272,E,0.058,,260525,,,D*78
$GNVTG,,T,,M,0.058,N,0.108,K,D*3C
$GNGGA,063413.00,0419.83596,S,05539.60272,E,2,12,0.65,13.2,M,-47.6,M,,0000*41
$GNGSA,A,3,12,23,24,25,29,15,18,05,20,40,,,1.13,0.65,0.93*10
$GNGSA,A,3,78,82,80,68,79,67,66,83,,,,,1.13,0.65,0.93*11
$GPGSV,5,1,17,05,40,036,38,10,05,212,19,12,73,080,34,13,13,108,*78
$GPGSV,5,2,17,15,40,138,26,18,32,291,34,20,08,033,38,23,46,210,40*76
$GPGSV,5,3,17,24,33,177,39,25,58,341,31,28,05,292,39,29,14,346,39*73
$GPGSV,5,4,17,36,52,277,,40,86,351,36,41,58,082,,49,32,274,*79
$GPGSV,5,5,17,50,10,089,*4A
$GLGSV,3,1,09,66,12,063,25,67,39,116,25,68,26,175,37,78,47,168,34*6C
$GLGSV,3,2,09,79,69,298,27,80,17,328,34,81,02,016,37,82,12,333,32*69
$GLGSV,3,3,09,83,10,285,30*5A
$GNGLL,0419.83596,S,05539.60272,E,063413.00,A,D*6A
$GNRMC,063419.00,A,0419.83605,S,05539.60254,E,0.056,,260525,,,D*71
$GNVTG,,T,,M,0.056,N,0.105,K,D*3F
$GNGGA,063419.00,0419.83605,S,05539.60254,E,2,12,0.65,12.6,M,-47.6,M,,0000*43
$GNGSA,A,3,12,23,24,25,29,15,18,05,20,40,,,1.13,0.65,0.93*10
$GNGSA,A,3,78,82,80,68,79,67,66,83,,,,,1.13,0.65,0.93*11
$GPGSV,5,1,17,05,40,036,37,10,05,212,24,12,73,080,35,13,13,108,*78
$GPGSV,5,2,17,15,40,138,29,18,32,291,34,20,08,033,37,23,46,210,40*76
$GPGSV,5,3,17,24,33,177,42,25,58,341,33,28,05,292,39,29,14,346,40*73
$GPGSV,5,4,17,36,52,277,,40,86,351,36,41,58,082,,49,32,274,*79
$GPGSV,5,5,17,50,10,089,*4A
$GLGSV,3,1,09,66,12,063,22,67,39,116,19,68,26,175,34,78,47,168,33*60
$GLGSV,3,2,09,79,70,296,30,80,18,327,34,81,02,016,35,82,12,334,28*67
$GLGSV,3,3,09,83,10,285,27*5C
$GNGLL,0419.83605,S,05539.60254,E,063419.00,A,D*6D
$GNVTG,,T,,M,0.023,N,0.043,K,D*3E
$GNGGA,063423.00,0419.83602,S,05539.60246,E,2,12,0.67,12.7,M,-47.6,M,,0000*4D
$GNGSA,A,3,12,23,24,25,29,15,18,05,20,40,,,1.15,0.67,0.93*14
$GNGSA,A,3,78,82,80,68,79,66,83,,,,,,1.15,0.67,0.93*14
$GPGSV,5,1,17,05,40,036,36,10,05,212,20,12,73,080,31,13,13,108,07*7E
$GPGSV,5,2,17,15,40,138,26,18,32,291,32,20,08,033,35,23,46,210,37*7D
$GPGSV,5,3,17,24,33,177,38,25,58,341,29,28,05,292,36,29,14,346,37*7A
$GPGSV,5,4,17,36,52,277,,40,86,351,34,41,58,082,,49,32,274,*7B
$GPGSV,5,5,17,50,10,089,*4A
$GLGSV,3,1,09,66,12,063,21,67,39,116,19,68,26,175,35,78,47,168,34*65
$GNRMC,063424.00,A,0419.83600,S,05539.60241,E,0.029,,260525,,,D*76
$GNVTG,,T,,M,0.029,N,0.053,K,D*35
$GNGGA,063424.00,0419.83600,S,05539.60241,E,2,12,0.67,12.7,M,-47.6,M,,0000*4F
$GNGSA,A,3,12,23,24,25,29,15,18,05,20,40,,,1.15,0.67,0.93*14
$GNGSA,A,3,78,82,80,68,79,67,66,83,,,,,1.15,0.67,0.93*15
$GPGSV,5,1,17,05,40,036,39,10,05,212,22,12,73,080,32,13,13,108,07*70
$GPGSV,5,2,17,15,40,138,25,18,32,291,35,20,08,033,37,23,46,210,39*75
$GPGSV,5,3,17,24,33,177,40,25,58,341,31,28,05,292,38,29,14,346,39*7C
$GPGSV,5,4,17,36,52,277,,40,86,351,36,41,58,082,,49,32,274,*79
$GPGSV,5,5,17,50,10,089,*4A
$GLGSV,3,1,09,66,12,063,21,67,39,116,19,68,26,175,37,78,47,168,34*67
$GLGSV,3,2,09,79,70,296,30,80,18,327,33,81,02,016,37,82,12,334,28*62
$GLGSV,3,3,09,83,10,285,31*5B
$GNGLL,0419.83600,S,05539.60241,E,063424.00,A,D*62
$GNRMC,063432.00,A,0419.83595,S,05539.60230,E,0.031,,260525,,,D*71
$GNVTG,,T,,M,0.031,N,0.057,K,D*38
$GNGGA,063432.00,0419.83595,S,05539.60230,E,2,12,0.65,12.7,M,-47.6,M,,0000*43
$GNGSA,A,3,12,23,24,25,29,15,18,05,20,40,,,1.13,0.65,0.93*10
$GNGSA,A,3,78,82,80,68,79,67,66,83,,,,,1.13,0.65,0.93*11
$GPGSV,5,1,17,05,40,036,36,10,05,212,22,12,73,080,32,13,13,108,*78
$GPGSV,5,2,17,15,40,138,26,18,32,291,33,20,08,033,35,23,46,210,38*73
$GPGSV,5,3,17,24,33,177,37,25,58,341,30,28,05,292,37,29,14,346,38*73
$GPGSV,5,4,17,36,52,277,,40,86,351,34,41,58,082,,49,32,274,*7B
$GPGSV,5,5,17,50,10,089,*4A
$GLGSV,3,1,09,66,12,063,22,67,39,116,20,68,26,175,35,78,47,168,35*6D
$GLGSV,3,2,09,79,70,296,30,80,18,327,33,81,02,016,36,82,12,334,33*69
$GLGSV,3,3,09,83,10,285,29*52
$GNGLL,0419.83595,S,05539.60230,E,063432.00,A,D*6C
$GNRMC,063440.00,A,0419.83589,S,05539.60224,E,0.055,,260525,,,D*7E
$GNVTG,,T,,M,0.055,N,0.103,K,D*3A
$GNGGA,063440.00,0419.83589,S,05539.60224,E,2,12,0.65,12.7,M,-47.6,M,,0000*4E
$GNGSA,A,3,12,23,24,25,29,15,18,05,20,40,,,1.13,0.65,0.93*10
$GNGSA,A,3,78,82,80,68,79,67,66,83,,,,,1.13,0.65,0.93*11
$GPGSV,5,1,17,05,40,036,38,10,05,213,26,12,73,083,32,13,13,107,*7F
$GPGSV,5,2,17,15,40,137,28,18,32,291,37,20,08,033,39,23,46,210,41*74
$GPGSV,5,3,17,24,33,177,39,25,58,341,35,28,05,292,41,29,14,346,40*76
$GPGSV,5,4,17,36,52,277,,40,86,351,35,41,58,082,,49,32,274,*7A
$GPGSV,5,5,17,50,10,089,*4A
$GLGSV,3,1,09,66,12,063,20,67,39,116,24,68,26,175,39,78,47,168,37*65
$GLGSV,3,2,09,79,70,296,33,80,18,327,36,81,02,016,38,82,12,334,33*61
$GLGSV,3,3,09,83,10,285,29*52
$GNGLL,0419.83589,S,05539.60224,E,063440.00,A,D*61
$GNRMC,063441.00,A,0419.83588,S,05539.60225,E,0.008,,260525,,,D*77
$GNVTG,,T,,M,0.008,N,0.015,K,D*34
$GNGGA,063441.00,0419.83588,S,05539.60225,E,2,12,0.65,12.7,M,-47.6,M,,0000*4F
$GNGSA,A,3,12,23,24,25,29,15,18,05,20,40,,,1.13,0.65,0.93*10
$GNGSA,A,3,78,82,80,68,79,67,66,83,,,,,1.13,0.65,0.93*11
$GPGSV,5,1,17,05,40,036,38,10,05,213,26,12,73,083,33,13,13,107,*7E
$GPGSV,5,2,17,15,40,137,28,18,32,291,36,20,08,033,39,23,46,210,42*76
$GPGSV,5,3,17,24,33,177,39,25,58,341,34,28,05,292,41,29,14,346,40*77
$GPGSV,5,4,17,36,52,277,,40,86,351,36,41,58,082,,49,32,274,*79
$GPGSV,5,5,17,50,10,089,*4A
$GLGSV,3,1,09,66,12,063,20,67,39,116,24,68,26,175,39,78,47,168,37*65
$GLGSV,3,2,09,79,70,296,34,80,18,327,37,81,02,016,37,82,12,334,33*68
$GLGSV,3,3,09,83,10,285,32*58
$GNGLL,0419.83588,S,05539.60225,E,063441.00,A,D*60
$GNRMC,063442.00,A,0419.83587,S,05539.60224,E,0.030,,260525,,,D*71
$GNVTG,,T,,M,0.030,N,0.056,K,D*38
$GNGGA,063442.00,0419.83587,S,05539.60224,E,2,12,0.65,12.8,M,-47.6,M,,0000*4D
$GNGSA,A,3,12,23,24,25,29,15,18,05,20,40,,,1.13,0.65,0.93*10
$GNGSA,A,3,78,82,80,68,79,67,66,83,,,,,1.13,0.65,0.93*11
$GPGSV,5,1,17,05,40,036,40,10,05,213,24,12,73,083,34,13,13,107,*74
$GPGSV,5,2,17,15,40,137,28,18,32,291,36,20,08,033,40,23,46,210,43*79
$GPGSV,5,3,17,24,33,177,42,25,58,341,36,28,05,292,40,29,14,346,41*79
$GPGSV,5,4,17,36,52,277,,40,86,351,37,41,58,082,,49,32,274,*78
$GPGSV,5,5,17,50,10,089,*4A
$GLGSV,3,1,09,66,12,063,20,67,39,116,24,68,26,175,39,78,47,168,37*65
$GLGSV,3,2,09,79,70,296,34,80,18,327,36,81,02,016,37,82,12,334,33*69
$GLGSV,3,3,09,83,10,285,33*59
$GNGLL,0419.83587,S,05539.60224,E,063442.00,A,D*6D
$GNRMC,063443.00,A,0419.83587,S,05539.60224,E,0.040,,260525,,,D*77
$GNVTG,,T,,M,0.040,N,0.073,K,D*38
$GNGGA,063443.00,0419.83587,S,05539.60224,E,2,12,0.65,12.7,M,-47.6,M,,0000*43
$GNGSA,A,3,12,23,24,25,29,15,18,05,20,40,,,1.13,0.65,0.93*10
$GNGSA,A,3,78,82,80,68,79,67,66,83,,,,,1.13,0.65,0.93*11
$GPGSV,5,1,17,05,40,036,40,10,05,213,,12,73,083,34,13,13,107,*72
$GPGSV,5,2,17,15,40,137,28,18,32,291,36,20,08,033,41,23,46,210,44*7F
$GPGSV,5,3,17,24,33,177,39,25,58,341,36,28,05,292,41,29,14,346,41*74
$GPGSV,5,4,17,36,52,277,,40,86,351,37,41,58,082,,49,32,274,*78
$GPGSV,5,5,17,50,10,089,*4A
$GLGSV,3,1,09,66,12,063,20,67,39,116,25,68,26,175,37,78,47,168,35*68
$GLGSV,3,2,09,79,70,296,33,80,18,327,37,81,02,016,37,82,12,334,29*64
$GLGSV,3,3,09,83,10,285,33*59
$GNGLL,0419.83587,S,05539.60224,E,063443.00,A,D*6C
$GNRMC,063447.00,A,0419.83576,S,05539.60214,E,0.004,,260525,,,D*7E
$GNVTG,,T,,M,0.004,N,0.008,K,D*34
$GNGGA,063447.00,0419.83576,S,05539.60214,E,2,12,0.65,12.8,M,-47.6,M,,0000*45
$GNGSA,A,3,12,23,24,25,29,15,18,05,20,40,,,1.13,0.65,0.93*10
$GNGSA,A,3,78,82,80,68,79,67,66,83,,,,,1.13,0.65,0.93*11
$GPGSV,5,1,17,05,40,036,40,10,05,213,28,12,73,083,35,13,13,107,*79
$GPGSV,5,2,17,15,40,137,28,18,32,291,37,20,07,033,41,23,46,211,44*70
$GPGSV,5,3,17,24,32,177,41,25,58,341,34,28,05,292,42,29,14,346,41*7B
$GPGSV,5,4,17,36,52,277,,40,86,351,39,41,58,082,,49,32,274,*76
$GPGSV,5,5,17,50,10,089,*4A
$GLGSV,3,1,09,66,12,063,23,67,39,116,19,68,26,175,40,78,47,168,39*68
$GLGSV,3,2,09,79,70,296,34,80,18,327,39,81,02,016,38,82,12,334,37*6D
$GLGSV,3,3,09,83,10,285,30*5A
$GNGLL,0419.83576,S,05539.60214,E,063447.00,A,D*65
$GNRMC,063449.00,A,0419.83575,S,05539.60224,E,0.019,,260525,,,D*7C
$GNVTG,,T,,M,0.019,N,0.036,K,D*35
$GNGGA,063449.00,0419.83575,S,05539.60224,E,2,12,0.65,12.8,M,-47.6,M,,0000*4B
$GNGSA,A,3,12,23,24,25,29,15,18,05,20,40,,,1.13,0.65,0.93*10
$GNGSA,A,3,78,82,80,68,79,67,66,83,,,,,1.13,0.65,0.93*11
$GPGSV,5,1,17,05,40,036,40,10,05,213,27,12,73,083,31,13,13,107,*72
$GPGSV,5,2,17,15,40,137,30,18,32,291,41,20,07,033,41,23,46,211,42*7E
$GPGSV,5,3,17,24,32,177,37,25,59,341,37,28,05,292,44,29,14,346,41*7E
$GPGSV,5,4,17,36,52,277,,40,86,351,38,41,58,082,,49,32,274,*77
$GPGSV,5,5,17,50,10,089,*4A
$GLGSV,3,1,09,66,12,063,23,67,39,116,22,68,26,175,37,78,47,168,36*6F
$GLGSV,3,2,09,79,70,296,37,80,18,327,39,81,02,016,36,82,12,334,35*62
$GLGSV,3,3,09,83,10,285,32*58
$GNGLL,0419.83575,S,05539.60224,E,063449.00,A,D*6B
$GNRMC,063450.00,A,0419.83574,S,05539.60225,E,0.072,,260525,,,D*79
$GNVTG,,T,,M,0.072,N,0.133,K,D*3C
$GNGGA,063450.00,0419.83574,S,05539.60225,E,2,12,0.65,12.8,M,-47.6,M,,0000*43
$GNGSA,A,3,12,23,24,25,29,15,18,05,20,40,,,1.13,0.65,0.93*10
$GNGSA,A,3,78,82,80,68,79,67,66,83,,,,,1.13,0.65,0.93*11
$GPGSV,5,1,17,05,40,036,37,10,05,213,27,12,73,083,31,13,13,107,*72
$GPGSV,5,2,17,15,40,137,30,18,32,291,36,20,07,033,39,23,46,211,40*73
$GPGSV,5,3,17,24,32,177,37,25,59,341,34,28,05,292,39,29,14,346,39*78
$GPGSV,5,4,17,36,52,277,,40,86,351,36,41,58,082,,49,32,274,*79
$GPGSV,5,5,17,50,10,089,*4A
$GLGSV,3,1,09,66,12,063,21,67,39,116,21,68,26,175,35,78,47,168,33*69
$GLGSV,3,2,09,79,70,296,33,80,18,327,33,81,02,016,34,82,12,334,31*6A
$GLGSV,3,3,09,83,10,285,29*52
$GNGLL,0419.83574,S,05539.60225,E,063450.00,A,D*63
$GNRMC,063451.00,A,0419.83574,S,05539.60226,E,0.067,,260525,,,D*7F
$GNVTG,,T,,M,0.067,N,0.123,K,D*39
$GNGGA,063451.00,0419.83574,S,05539.60226,E,2,12,0.65,12.8,M,-47.6,M,,0000*41
$GNGSA,A,3,12,23,24,25,29,15,18,05,20,40,,,1.13,0.65,0.93*10
$GNGSA,A,3,78,82,80,68,79,67,66,83,,,,,1.13,0.65,0.93*11
$GPGSV,5,1,17,05,40,036,35,10,05,213,26,12,73,083,30,13,13,107,*70
$GPGSV,5,2,17,15,40,137,30,18,32,291,36,20,07,033,37,23,46,211,39*73
$GPGSV,5,3,17,24,32,177,36,25,59,341,33,28,05,292,39,29,14,346,39*7E
$GPGSV,5,4,17,36,52,277,,40,86,351,33,41,58,082,,49,32,274,*7C
$GPGSV,5,5,17,50,10,089,*4A
$GLGSV,3,1,09,66,12,063,17,67,39,116,22,68,26,175,35,78,47,168,33*6F
$GLGSV,3,2,09,79,70,296,33,80,18,327,39,81,02,016,37,82,12,334,34*66
$GLGSV,3,3,09,83,10,285,33*59
$GNGLL,0419.83574,S,05539.60226,E,063451.00,A,D*61
$GNRMC,063459.00,A,0419.83577,S,05539.60233,E,0.015,,260525,,,D*75
$GNVTG,,T,,M,0.015,N,0.027,K,D*39
$GNGGA,063459.00,0419.83577,S,05539.60233,E,2,12,0.65,12.4,M,-47.6,M,,0000*42
$GNGSA,A,3,12,23,24,25,29,15,18,05,20,40,,,1.13,0.65,0.93*10
$GNGSA,A,3,78,82,80,68,79,67,66,83,,,,,1.13,0.65,0.93*11
$GPGSV,5,1,17,05,40,036,38,10,05,213,22,12,73,083,32,13,13,107,*7B
$GPGSV,5,2,17,15,40,137,29,18,32,291,37,20,07,033,39,23,46,211,42*78
$GPGSV,5,3,17,24,32,177,39,25,59,341,32,28,05,292,39,29,14,346,39*70
$GPGSV,5,4,17,36,52,277,,40,86,351,38,41,58,082,,49,32,274,*77
$GPGSV,5,5,17,50,10,089,*4A
$GLGSV,3,1,09,66,12,063,21,67,39,116,25,68,26,175,38,78,47,168,35*66
$GLGSV,3,2,09,79,70,296,32,80,18,327,39,81,02,016,34,82,12,334,35*65
$GLGSV,3,3,09,83,10,285,29*52
$GNGLL,0419.83577,S,05539.60233,E,063459.00,A,D*6E
$GNRMC,063500.00,A,0419.83578,S,05539.60236,E,0.028,,260525,,,D*7C
$GNVTG,,T,,M,0.028,N,0.053,K,D*34
$GNGGA,063500.00,0419.83578,S,05539.60236,E,2,12,0.65,12.4,M,-47.6,M,,0000*45
$GNGSA,A,3,12,23,24,25,29,15,18,05,20,40,,,1.13,0.65,0.93*10
$GNGSA,A,3,78,82,80,68,79,67,66,83,,,,,1.13,0.65,0.93*11
$GPGSV,5,1,17,05,40,036,38,10,05,213,30,12,73,083,32,13,13,107,*78
$GPGSV,5,2,17,15,40,137,29,18,32,291,37,20,07,033,39,23,46,211,43*79
$GPGSV,5,3,17,24,32,177,40,25,59,341,33,28,05,292,40,29,14,346,40*7F
$GPGSV,5,4,17,36,52,277,,40,86,351,36,41,58,082,,49,32,274,*79
$GPGSV,5,5,17,50,10,089,*4A
$GLGSV,3,1,09,66,12,063,22,67,39,116,25,68,26,175,38,78,47,168,36*66
$GLGSV,3,2,09,79,70,296,32,80,18,327,38,81,02,016,34,82,12,334,35*64
$GLGSV,3,3,09,83,10,285,29*52
$GNGLL,0419.83578,S,05539.60236,E,063500.00,A,D*69
$GNRMC,063501.00,A,0419.83580,S,05539.60240,E,0.034,,260525,,,D*76
$GNVTG,,T,,M,0.034,N,0.063,K,D*3A
$GNGGA,063501.00,0419.83580,S,05539.60240,E,2,12,0.65,12.4,M,-47.6,M,,0000*42
$GNGSA,A,3,12,23,24,25,29,15,18,05,20,40,,,1.13,0.65,0.93*10
$GNGSA,A,3,78,82,80,68,79,67,66,83,,,,,1.13,0.65,0.93*11
$GPGSV,5,1,17,05,40,036,38,10,05,213,24,12,73,083,33,13,13,107,*7C
$GPGSV,5,2,17,15,40,137,29,18,32,291,37,20,07,033,39,23,46,211,43*79
$GNRMC,063502.00,A,0419.83582,S,05539.60244,E,0.034,,260525,,,D*73
$GNVTG,,T,,M,0.034,N,0.063,K,D*3A
$GNGGA,063502.00,0419.83582,S,05539.60244,E,2,12,0.65,12.2,M,-47.6,M,,0000*41
$GNGSA,A,3,12,23,24,25,29,15,18,05,20,40,,,1.13,0.65,0.93*10
$GNGSA,A,3,78,82,80,68,79,67,66,83,,,,,1.13,0.65,0.93*11
$GPGSV,5,1,17,05,40,036,38,10,05,213,26,12,73,083,29,13,13,107,*75
$GPGSV,5,2,17,15,40,137,28,18,32,291,37,20,07,033,38,23,46,211,41*7B
$GPGSV,5,3,17,24,32,177,40,25,59,341,35,28,05,292,40,29,14,346,38*76
$GPGSV,5,4,17,36,52,277,,40,86,351,33,41,58,082,,49,32,274,*7C
$GPGSV,5,5,17,50,10,089,*4A
$GLGSV,3,1,09,66,12,063,22,67,39,116,23,68,26,175,37,78,47,168,32*6B
$GLGSV,3,2,09,79,70,296,32,80,18,327,37,81,02,016,34,82,12,334,32*6C
$GLGSV,3,3,09,83,10,285,29*52
$GNGLL,0419.83582,S,05539.60244,E,063502.00,A,D*6B
$GNRMC,063503.00,A,0419.83584,S,05539.60245,E,0.024,,260525,,,D*74
$GNVTG,,T,,M,0.024,N,0.045,K,D*3F
$GNGGA,063503.00,0419.83584,S,05539.60245,E,2,12,0.65,12.1,M,-47.6,M,,0000*44
$GNGSA,A,3,12,23,24,25,29,15,18,05,20,40,,,1.13,0.65,0.93*10
$GNGSA,A,3,78,82,80,68,79,67,66,83,,,,,1.13,0.65,0.93*11
$GPGSV,5,1,17,05,40,036,39,10,05,213,27,12,73,083,34,13,13,107,*79
$GPGSV,5,2,17,15,40,137,27,18,32,291,37,20,07,033,40,23,46,211,43*79
$GPGSV,5,3,17,24,32,177,42,25,59,341,35,28,05,292,41,29,14,346,41*7B
$GPGSV,5,4,17,36,52,277,,40,86,351,35,41,58,082,,49,32,274,*7A
$GPGSV,5,5,17,50,10,089,*4A
$GLGSV,3,1,09,66,12,063,22,67,39,116,22,68,26,175,41,78,47,168,36*6F
$GLGSV,3,2,09,79,70,296,34,80,18,327,36,81,02,016,33,82,12,334,31*6F
$GLGSV,3,3,09,83,10,285,29*52
$GNGLL,0419.83584,S,05539.60245,E,063503.00,A,D*6D
$GNRMC,063504.00,A,0419.83587,S,05539.60248,E,0.029,,260525,,,D*70
$GNVTG,,T,,M,0.029,N,0.054,K,D*32
$GNGGA,063504.00,0419.83587,S,05539.60248,E,2,12,0.65,12.0,M,-47.6,M,,0000*4C
$GNGSA,A,3,12,23,24,25,29,15,18,05,20,40,,,1.13,0.65,0.93*10
$GNGSA,A,3,78,82,80,68,79,67,66,83,,,,,1.13,0.65,0.93*11
$GPGSV,5,1,17,05,40,036,39,10,05,213,27,12,73,083,34,13,13,107,*79
$GPGSV,5,2,17,15,40,137,26,18,32,291,37,20,07,033,42,23,46,211,43*7A
$GPGSV,5,3,17,24,32,177,40,25,59,341,36,28,05,292,40,29,14,346,40*7A
$GPGSV,5,4,17,36,52,277,,40,86,351,35,41,58,082,,49,32,274,*7A
$GPGSV,5,5,17,50,10,089,*4A
$GLGSV,3,1,09,66,12,063,21,67,39,116,22,68,26,175,38,78,47,168,35*61
$GLGSV,3,2,09,79,70,296,36,80,18,327,37,81,02,016,34,82,12,334,32*68
$GLGSV,3,3,09,83,10,285,30*5A
$GNGLL,0419.83587,S,05539.60248,E,063504.00,A,D*64
$GNRMC,063506.00,A,0419.83601,S,05539.60261,E,0.029,,260525,,,D*74
$GNVTG,,T,,M,0.029,N,0.054,K,D*32
$GNGGA,063506.00,0419.83601,S,05539.60261,E,2,12,0.67,11.6,M,-47.6,M,,0000*4F
$GNGSA,A,3,12,23,24,25,29,15,18,05,20,40,,,1.15,0.67,0.93*14
$GNGSA,A,3,78,82,80,68,79,67,66,83,,,,,1.15,0.67,0.93*15
$GPGSV,5,1,17,05,40,036,40,10,05,213,,12,73,083,36,13,13,107,*70
$GPGSV,5,2,17,15,40,137,27,18,32,291,38,20,07,033,43,23,46,211,45*73
$GPGSV,5,3,17,24,32,177,43,25,59,341,35,28,05,292,41,29,14,346,41*7A
$GPGSV,5,4,17,36,52,277,,40,86,351,40,41,58,082,,49,32,274,*78
$GPGSV,5,5,17,50,10,089,*4A
$GNRMC,063515.00,A,0419.83625,S,05539.60256,E,0.025,,260525,,,D*78
$GNVTG,,T,,M,0.025,N,0.046,K,D*3D
$GNGGA,063515.00,0419.83625,S,05539.60256,E,2,12,0.71,10.6,M,-47.6,M,,0000*49
$GNGSA,A,3,12,23,24,25,29,15,18,05,20,40,,,1.20,0.71,0.97*11
$GNGSA,A,3,78,82,80,68,79,67,83,,,,,,1.20,0.71,0.97*10
$GPGSV,5,1,17,05,40,036,45,10,05,213,29,12,73,083,38,13,13,107,12*73
$GPGSV,5,2,17,15,40,137,30,18,32,291,42,20,07,033,43,23,46,211,46*7B
$GPGSV,5,3,17,24,32,177,46,25,59,341,41,28,05,292,44,29,14,346,45*7D
$GPGSV,5,4,17,36,52,277,,40,86,351,39,41,58,082,,49,32,274,*76
$GPGSV,5,5,17,50,10,089,*4A
$GLGSV,3,1,09,66,12,063,12,67,39,116,28,68,26,175,39,78,47,168,35*6A
$GLGSV,3,2,09,79,70,296,34,80,18,327,40,81,02,016,35,82,12,334,33*6A
$GLGSV,3,3,09,83,10,285,32*58
$GNRMC,063516.00,A,0419.83625,S,05539.60255,E,0.017,,260525,,,D*79
$GNVTG,,T,,M,0.017,N,0.032,K,D*3F
$GNGGA,063516.00,0419.83625,S,05539.60255,E,2,12,0.65,10.6,M,-47.6,M,,0000*4C
$GNGSA,A,3,12,23,24,25,29,15,18,05,20,40,,,1.13,0.65,0.93*10
$GNGSA,A,3,78,82,80,68,79,67,66,83,,,,,1.13,0.65,0.93*11
$GPGSV,5,1,17,05,40,036,43,10,05,213,27,12,73,083,37,13,13,107,*77
$GPGSV,5,2,17,15,40,137,32,18,32,291,40,20,07,033,42,23,46,211,44*78
$GPGSV,5,3,17,24,32,177,44,25,59,341,40,28,05,292,42,29,14,346,43*7E
$GPGSV,5,4,17,36,52,277,,40,86,351,38,41,58,082,,49,32,274,*77
$GPGSV,5,5,17,50,10,089,*4A
$GLGSV,3,1,09,66,12,063,11,67,39,116,27,68,26,175,40,78,47,168,35*68
$GLGSV,3,2,09,79,70,296,34,80,18,327,39,81,02,016,35,82,12,334,32*65
$GLGSV,3,3,09,83,10,285,32*58
$GNGLL,0419.83625,S,05539.60255,E,063516.00,A,D*60
$GPGSV,5,4,17,36,52,277,,40,86,351,37,41,58,082,,49,32,274,*78
$GPGSV,5,5,17,50,10,089,*4A
$GLGSV,3,1,09,66,12,062,15,67,39,116,29,68,26,175,40,78,47,168,34*62
$GLGSV,3,2,09,79,70,296,35,80,18,327,39,81,02,016,36,82,12,334,32*67
$GLGSV,3,3,09,83,10,285,32*58
$GNGLL,0419.83623,S,05539.60256,E,063517.00,A,D*64
$GNRMC,063518.00,A,0419.83621,S,05539.60255,E,0.021,,260525,,,D*76
$GNVTG,,T,,M,0.021,N,0.039,K,D*31
$GNGGA,063518.00,0419.83621,S,05539.60255,E,2,12,0.71,10.7,M,-47.6,M,,0000*42
$GNGSA,A,3,12,23,24,25,29,15,18,05,20,40,,,1.20,0.71,0.97*11
$GNGSA,A,3,78,82,80,68,79,67,66,83,,,,,1.20,0.71,0.97*10
$GPGSV,5,1,17,05,40,036,41,10,05,213,25,12,73,083,37,13,13,107,*77
$GPGSV,5,2,17,15,40,137,35,18,32,291,39,20,07,033,44,23,46,211,44*77
$GPGSV,5,3,17,24,32,177,42,25,59,341,38,28,05,292,42,29,14,346,40*74
$GPGSV,5,4,17,36,52,277,,40,86,351,40,41,58,082,,49,32,274,*78
$GPGSV,5,5,17,50,10,089,*4A
$GLGSV,3,1,09,66,12,062,10,67,39,115,27,68,26,175,40,78,47,168,34*6A
$GLGSV,3,2,09,79,70,296,35,80,18,327,38,81,02,016,35,82,12,334,34*63
$GLGSV,3,3,09,83,10,285,32*58
$GNGLL,0419.83621,S,05539.60255,E,063518.00,A,D*6A
$GNGGA,063533.00,0419.83629,S,05539.60230,E,2,12,0.71,11.1,M,-47.6,M,,0000*47
$GNGSA,A,3,12,23,24,25,29,15,18,05,20,40,,,1.20,0.71,0.97*11
$GNGSA,A,3,78,82,80,68,79,67,66,83,,,,,1.20,0.71,0.97*10
$GPGSV,5,1,17,05,40,036,43,10,05,213,26,12,73,083,36,13,13,107,11*77
$GPGSV,5,2,17,15,40,137,34,18,32,291,35,20,07,033,43,23,46,211,44*7D
$GPGSV,5,3,17,24,32,177,43,25,59,341,39,28,05,292,42,29,14,346,41*75
$GPGSV,5,4,17,36,52,277,,40,86,351,40,41,58,082,,49,32,274,*78
$GPGSV,5,5,17,50,10,089,*4A
$GLGSV,3,1,09,66,12,062,11,67,39,115,28,68,26,174,38,78,46,168,37*68
$GLGSV,3,2,09,79,70,294,35,80,19,327,39,81,02,017,40,82,12,334,34*62
$GLGSV,3,3,09,83,10,285,31*5B
$GNGLL,0419.83629,S,05539.60230,E,063533.00,A,D*68
$GLGSV,3,2,09,79,70,294,35,80,19,327,39,81,02,017,40,82,12,334,32*64
$GLGSV,3,3,09,83,10,285,31*5B
$GNGLL,0419.83631,S,05539.60228,E,063534.00,A,D*6F
$GNRMC,063535.00,A,0419.83632,S,05539.60224,E,0.028,,260525,,,D*74
$GNVTG,,T,,M,0.028,N,0.052,K,D*35
$GNGGA,063535.00,0419.83632,S,05539.60224,E,2,12,0.65,11.0,M,-47.6,M,,0000*4A
$GNGSA,A,3,12,23,24,25,29,15,18,05,20,40,,,1.13,0.65,0.93*10
$GNGSA,A,3,78,82,80,68,79,67,66,83,,,,,1.13,0.65,0.93*11
$GPGSV,5,1,17,05,40,036,43,10,05,213,25,12,73,083,36,13,13,107,11*74
$GPGSV,5,2,17,15,40,137,36,18,32,291,36,20,07,033,43,23,46,211,45*7D
$GPGSV,5,3,17,24,32,177,43,25,59,341,38,28,05,292,43,29,14,346,40*74
$GPGSV,5,4,17,36,52,277,,40,86,351,40,41,58,082,,49,32,274,*78
$GPGSV,5,5,17,50,10,089,*4A
$GLGSV,3,1,09,66,12,062,11,67,39,115,28,68,26,174,39,78,46,168,37*69
$GLGSV,3,2,09,79,70,294,36,80,19,327,39,81,02,017,40,82,12,334,34*61
$GLGSV,3,3,09,83,10,285,32*58
$GNRMC,063536.00,A,0419.83633,S,05539.60222,E,0.014,,260525,,,D*7F
$GNRMC,063537.00,A,0419.83633,S,05539.60222,E,0.016,,260525,,,D*7C
$GNVTG,,T,,M,0.016,N,0.029,K,D*34
$GNGGA,063537.00,0419.83633,S,05539.60222,E,2,12,0.65,11.0,M,-47.6,M,,0000*4F
$GNGSA,A,3,12,23,24,25,29,15,18,05,20,40,,,1.13,0.65,0.93*10
$GNGSA,A,3,78,82,80,68,79,67,66,83,,,,,1.13,0.65,0.93*11
$GPGSV,5,1,17,05,40,036,42,10,05,213,24,12,73,083,35,13,13,107,10*76
$GPGSV,5,2,17,15,40,137,35,18,32,291,36,20,07,033,43,23,46,211,44*7F
$GPGSV,5,3,17,24,32,177,42,25,59,341,38,28,05,292,42,29,14,346,38*7B
$GPGSV,5,4,17,36,52,277,,40,86,351,39,41,58,082,,49,32,274,*76
$GPGSV,5,5,17,50,10,089,*4A
$GLGSV,3,1,09,66,12,062,11,67,39,115,28,68,26,174,37,78,46,168,38*68
$GLGSV,3,2,09,79,70,294,35,80,19,327,39,81,02,017,39,82,12,334,34*6C
$GLGSV,3,3,09,83,10,285,32*58
$GNGLL,0419.83633,S,05539.60222,E,063537.00,A,D*64
$GNRMC,063538.00,A,0419.83634,S,05539.60222,E,0.011,,260525,,,D*73
$GNVTG,,T,,M,0.011,N,0.021,K,D*3B
$GNGGA,063538.00,0419.83634,S,05539.60222,E,2,12,0.65,11.0,M,-47.6,M,,0000*47
$GNGSA,A,3,12,23,24,25,29,15,18,05,20,40,,,1.13,0.65,0.93*10
$GNGSA,A,3,78,82,80,68,79,67,66,83,,,,,1.13,0.65,0.93*11
$GPGSV,5,1,17,05,40,036,43,10,05,213,23,12,73,083,36,13,13,107,10*73
$GPGSV,5,2,17,15,40,137,35,18,32,291,36,20,07,033,43,23,46,211,44*7F
$GPGSV,5,3,17,24,32,177,42,25,59,341,38,28,05,292,41,29,14,346,39*79
$GPGSV,5,4,17,36,52,277,,40,86,351,39,41,58,082,,49,32,274,*76
$GPGSV,5,5,17,50,10,089,*4A
$GLGSV,3,1,09,66,12,062,11,67,39,115,28,68,26,174,37,78,46,168,38*68
$GLGSV,3,2,09,79,70,294,35,80,19,327,39,81,02,017,39,82,12,334,35*6D
$GLGSV,3,3,09,83,10,285,32*58
$GNGLL,0419.83634,S,05539.60222,E,063538.00,A,D*6C
$GNRMC,063539.00,A,0419.83636,S,05539.60222,E,0.039,,260525,,,D*7A
$GNVTG,,T,,M,0.039,N,0.072,K,D*37
$GNGGA,063539.00,0419.83636,S,05539.60222,E,2,12,0.71,11.0,M,-47.6,M,,0000*41
$GNGSA,A,3,12,23,24,25,29,15,18,05,20,40,,,1.20,0.71,0.97*11
$GNGSA,A,3,78,82,80,68,79,67,83,,,,,,1.20,0.71,0.97*10
$GPGSV,5,1,17,05,40,036,43,10,05,213,23,12,73,083,36,13,13,107,10*73
$GPGSV,5,2,17,15,40,137,35,18,32,291,36,20,07,033,43,23,46,211,44*7F
$GPGSV,5,3,17,24,32,177,42,25,59,341,39,28,05,292,41,29,14,346,39*78
$GPGSV,5,4,17,36,52,277,,40,86,351,39,41,58,082,,49,32,274,*76
$GPGSV,5,5,17,50,10,089,*4A
$GLGSV,3,1,09,66,12,062,16,67,39,115,29,68,26,174,38,78,46,168,38*61
$GLGSV,3,2,09,79,70,294,35,80,19,327,38,81,02,017,39,82,12,334,34*6D
$GLGSV,3,3,09,83,10,285,32*58
$GNGLL,0419.83636,S,05539.60222,E,063539.00,A,D*6F
$GNGSA,A,3,12,23,24,25,29,15,18,05,20,40,,,1.20,0.71,0.97*11
$GNGSA,A,3,78,82,80,68,79,67,83,,,,,,1.20,0.71,0.97*10
$GPGSV,5,1,17,05,40,036,42,10,05,213,23,12,73,083,36,13,13,107,10*72
$GPGSV,5,2,17,15,40,137,34,18,32,291,37,20,07,033,43,23,46,211,44*7F
$GPGSV,5,3,17,24,32,177,42,25,59,341,39,28,05,292,41,29,14,346,39*78
$GPGSV,5,4,17,36,52,277,,40,86,351,39,41,58,082,,49,32,274,*76
$GPGSV,5,5,17,50,10,089,*4A
$GLGSV,3,1,09,66,12,062,16,67,39,115,28,68,26,174,37,78,46,168,37*60
$GLGSV,3,2,09,79,70,294,35,80,19,327,38,81,02,017,39,82,12,334,34*6D
$GLGSV,3,3,09,83,10,285,32*58
$GNGLL,0419.83637,S,05539.60222,E,063540.00,A,D*60
$GNRMC,063541.00,A,0419.83637,S,05539.60222,E,0.048,,260525,,,D*72
$GNVTG,,T,,M,0.048,N,0.090,K,D*3D
$GNGGA,063541.00,0419.83637,S,05539.60222,E,2,12,0.71,10.9,M,-47.6,M,,0000*47
$GNGSA,A,3,12,23,24,25,29,15,18,05,20,40,,,1.20,0.71,0.97*11
$GNGSA,A,3,78,82,80,68,79,67,83,,,,,,1.20,0.71,0.97*10
$GPGSV,5,1,17,05,40,036,42,10,05,213,,12,73,083,36,13,13,107,10*73
$GPGSV,5,2,17,15,40,137,34,18,32,291,37,20,07,033,43,23,46,211,44*7F
$GPGSV,5,3,17,24,32,177,42,25,59,341,39,28,05,292,41,29,14,346,39*78
$GPGSV,5,4,17,36,52,277,,40,86,351,39,41,58,082,,49,32,274,*76
$GPGSV,5,5,17,50,10,089,*4A
$GLGSV,3,1,09,66,12,062,12,67,39,115,28,68,26,174,38,78,46,168,37*6B
$GLGSV,3,2,09,79,70,294,36,80,19,327,39,81,02,017,40,82,12,334,33*66
$GLGSV,3,3,09,83,10,285,31*5B
$GNGLL,0419.83637,S,05539.60222,E,063541.00,A,D*61
$GNRMC,063542.00,A,0419.83636,S,05539.60220,E,0.016,,260525,,,D*79
$GNVTG,,T,,M,0.016,N,0.029,K,D*34
$GNGGA,063542.00,0419.83636,S,05539.60220,E,2,12,0.71,10.8,M,-47.6,M,,0000*46
$GNGSA,A,3,12,23,24,25,29,15,18,05,20,40,,,1.20,0.71,0.97*11
$GNGSA,A,3,78,82,80,68,79,67,66,83,,,,,1.20,0.71,0.97*10
$GPGSV,5,1,17,05,40,036,42,10,05,213,,12,73,083,36,13,13,107,11*72
$GPGSV,5,2,17,15,40,137,35,18,32,291,37,20,07,033,43,23,46,211,44*7E
$GPGSV,5,3,17,24,32,177,42,25,59,341,39,28,05,292,42,29,14,346,40*75
$GPGSV,5,4,17,36,52,277,,40,86,351,39,41,58,082,,49,32,274,*76
$GPGSV,5,5,17,50,10,089,*4A
$GLGSV,3,1,09,66,12,062,13,67,39,115,28,68,26,174,40,78,46,168,39*6B
$GLGSV,3,2,09,79,70,294,37,80,19,327,41,81,02,017,42,82,12,334,34*6D
$GLGSV,3,3,09,83,10,285,31*5B
$GNGLL,0419.83636,S,05539.60220,E,063542.00,A,D*61
$GNRMC,063543.00,A,0419.83637,S,05539.60220,E,0.008,,260525,,,D*76
$GNVTG,,T,,M,0.008,N,0.016,K,D*37
$GNGGA,063543.00,0419.83637,S,05539.60220,E,2,12,0.65,10.8,M,-47.6,M,,0000*43
$GNGSA,A,3,12,23,24,25,29,15,18,05,20,40,,,1.13,0.65,0.93*10
$GNGSA,A,3,78,82,80,68,79,67,66,83,,,,,1.13,0.65,0.93*11
$GPGSV,5,1,17,05,40,036,42,10,05,213,,12,73,083,36,13,13,107,11*72
$GPGSV,5,2,17,15,40,137,35,18,32,291,37,20,07,033,43,23,46,211,44*7E
$GPGSV,5,3,17,24,32,177,43,25,59,341,39,28,05,292,42,29,14,346,40*74
$GPGSV,5,4,17,36,52,277,,40,86,351,39,41,58,082,,49,32,274,*76
$GPGSV,5,5,17,50,10,089,*4A
$GLGSV,3,1,09,66,12,062,12,67,39,115,29,68,26,174,38,78,46,168,38*65
$GLGSV,3,2,09,79,70,294,36,80,19,327,39,81,02,017,40,82,12,334,37*62
$GLGSV,3,3,09,83,10,285,31*5B
$GNGLL,0419.83637,S,05539.60220,E,063543.00,A,D*61
$GNRMC,063544.00,A,0419.83637,S,05539.60221,E,0.018,,260525,,,D*71
$GNVTG,,T,,M,0.018,N,0.034,K,D*36
$GNGGA,063544.00,0419.83637,S,05539.60221,E,2,12,0.65,10.8,M,-47.6,M,,0000*45
$GNGSA,A,3,12,23,24,25,29,15,18,05,20,40,,,1.13,0.65,0.93*10
$GNGSA,A,3,78,82,80,68,79,67,66,83,,,,,1.13,0.65,0.93*11
$GPGSV,5,1,17,05,39,035,42,10,05,213,25,12,73,083,36,13,13,107,11*78
$GPGSV,5,2,17,15,40,137,35,18,32,291,38,20,07,033,44,23,46,211,44*76
$GPGSV,5,3,17,24,32,177,43,25,59,341,39,28,05,292,42,29,14,346,40*74
$GPGSV,5,4,17,36,52,277,,40,86,351,39,41,58,082,,49,32,274,*76
$GPGSV,5,5,17,50,10,089,*4A
$GLGSV,3,1,09,66,12,062,11,67,39,115,28,68,26,174,38,78,46,168,37*68
$GLGSV,3,2,09,79,70,294,36,80,19,327,38,81,02,017,40,82,12,334,34*60
$GLGSV,3,3,09,83,10,285,32*58
$GNGLL,0419.83637,S,05539.60221,E,063544.00,A,D*67
$GNRMC,063546.00,A,0419.83636,S,05539.60223,E,0.019,,260525,,,D*71
$GNVTG,,T,,M,0.019,N,0.035,K,D*36
$GNGGA,063546.00,0419.83636,S,05539.60223,E,2,12,0.65,10.7,M,-47.6,M,,0000*4B
$GNGSA,A,3,12,23,24,25,29,15,18,05,20,40,,,1.13,0.65,0.93*10
$GNGSA,A,3,78,82,80,68,79,67,66,83,,,,,1.13,0.65,0.93*11
$GPGSV,5,1,17,05,39,035,42,10,05,213,24,12,73,083,35,13,13,107,*7A
$GPGSV,5,2,17,15,40,137,36,18,32,291,38,20,07,033,44,23,46,211,44*75
$GPGSV,5,3,17,24,32,177,43,25,59,341,40,28,05,292,42,29,14,346,41*7B
$GPGSV,5,4,17,36,52,277,,40,86,351,38,41,58,082,,49,32,274,*77
$GPGSV,5,5,17,50,10,089,*4A
$GLGSV,3,1,09,66,12,062,12,67,39,115,29,68,26,174,40,78,46,168,35*67
$GLGSV,3,2,09,79,70,294,37,80,19,327,38,81,02,017,38,82,12,334,33*69
$GLGSV,3,3,09,83,10,285,32*58
$GNGLL,0419.83636,S,05539.60223,E,063546.00,A,D*66
$GNRMC,063549.00,A,0419.83637,S,05539.60226,E,0.054,,260525,,,D*73
$GNVTG,,T,,M,0.054,N,0.100,K,D*38
$GNGGA,063549.00,0419.83637,S,05539.60226,E,2,12,0.65,10.5,M,-47.6,M,,0000*42
$GNGSA,A,3,12,23,24,25,29,15,18,05,20,40,,,1.13,0.65,0.93*10
$GNGSA,A,3,78,82,80,68,79,67,66,83,,,,,1.13,0.65,0.93*11
$GPGSV,5,1,17,05,39,035,42,10,06,213,25,12,73,083,36,13,13,107,*7B
$GPGSV,5,2,17,15,40,137,33,18,32,291,38,20,07,033,44,23,46,211,45*71
$GPGSV,5,3,17,24,32,177,44,25,59,341,38,28,05,292,42,29,14,346,41*73
$GPGSV,5,4,17,36,52,277,,40,86,351,40,41,58,082,,49,32,274,*78
$GPGSV,5,5,17,50,10,089,*4A
$GLGSV,3,1,09,66,12,062,15,67,39,115,28,68,26,174,40,78,46,168,37*63
$GLGSV,3,2,09,79,70,294,37,80,19,327,39,81,02,017,42,82,12,334,33*65
$GLGSV,3,3,09,83,10,285,32*58
$GNGLL,0419.83637,S,05539.60226,E,063549.00,A,D*6D
$GNRMC,063553.00,A,0419.83635,S,05539.60221,E,0.014,,260525,,,D*79
$GNVTG,,T,,M,0.014,N,0.025,K,D*3A
$GNGGA,063553.00,0419.83635,S,05539.60221,E,2,12,0.65,10.5,M,-47.6,M,,0000*4C
$GNGSA,A,3,12,23,24,25,29,15,18,05,20,40,,,1.13,0.65,0.93*10
$GNGSA,A,3,78,82,80,68,79,67,66,83,,,,,1.13,0.65,0.93*11
$GPGSV,5,1,17,05,39,035,42,10,06,213,29,12,73,085,38,13,13,106,*7E
$GPGSV,5,2,17,15,40,137,33,18,32,291,36,20,07,033,44,23,46,211,45*7F
$GPGSV,5,3,17,24,32,177,43,25,59,341,37,28,05,292,43,29,14,346,42*79
$GPGSV,5,4,17,36,52,277,,40,86,351,40,41,58,082,,49,32,274,*78
$GPGSV,5,5,17,50,10,089,*4A
$GLGSV,3,1,09,66,12,062,14,67,39,115,28,68,26,174,41,78,46,168,38*6C
$GLGSV,3,2,09,79,70,294,36,80,19,327,39,81,02,017,41,82,12,334,30*64
$GLGSV,3,3,09,83,10,285,35*5F
$GNGLL,0419.83635,S,05539.60221,E,063553.00,A,D*63
$GNRMC,063554.00,A,0419.83635,S,05539.60220,E,0.013,,260525,,,D*78
$GNVTG,,T,,M,0.013,N,0.024,K,D*3C
$GNGGA,063554.00,0419.83635,S,05539.60220,E,2,12,0.71,10.4,M,-47.6,M,,0000*4E
$GNGSA,A,3,12,23,24,25,29,15,18,05,20,40,,,1.20,0.71,0.97*11
$GNGSA,A,3,78,82,80,68,79,67,66,83,,,,,1.20,0.71,0.97*10
$GPGSV,5,1,17,05,39,035,43,10,06,213,29,12,73,085,38,13,13,106,*7F
$GPGSV,5,2,17,15,40,136,33,18,32,291,36,20,07,033,43,23,46,211,45*79
$GPGSV,5,3,17,24,32,177,43,25,59,341,37,28,05,292,42,29,14,346,39*74
$GPGSV,5,4,17,36,52,277,,40,86,351,40,41,58,082,,49,32,274,*78
$GPGSV,5,5,17,50,10,089,*4A
$GLGSV,3,1,09,66,12,062,16,67,39,115,27,68,26,174,39,78,46,168,37*61
$GLGSV,3,2,09,79,70,294,36,80,19,327,37,81,02,017,39,82,12,334,32*67
$GLGSV,3,3,09,83,10,285,34*5E
$GNGLL,0419.83635,S,05539.60220,E,063554.00,A,D*65
$GNGLL,0419.83635,S,05539.60218,E,063555.00,A,D*6F
$GNRMC,063557.00,A,0419.83632,S,05539.60213,E,0.021,,260525,,,D*7D
$GNVTG,,T,,M,0.021,N,0.038,K,D*30
$GNGGA,063557.00,0419.83632,S,05539.60213,E,2,12,0.71,10.6,M,-47.6,M,,0000*48
$GNGSA,A,3,12,23,24,25,29,15,18,05,20,40,,,1.20,0.71,0.97*11
$GNGSA,A,3,78,82,80,68,79,67,66,83,,,,,1.20,0.71,0.97*10
$GPGSV,5,1,17,05,39,035,43,10,06,213,26,12,73,085,38,13,13,106,*70
$GPGSV,5,2,17,15,40,136,32,18,32,292,37,20,07,033,44,23,46,211,44*7C
$GPGSV,5,3,17,24,32,177,43,25,59,341,36,28,05,292,42,29,14,346,40*7B
$GPGSV,5,4,17,36,52,277,,40,86,351,39,41,58,082,,49,32,274,*76
$GPGSV,5,5,17,50,10,089,*4A
$GLGSV,3,1,09,66,12,062,14,67,39,115,27,68,26,174,41,78,46,168,38*63
$GLGSV,3,2,09,79,70,294,36,80,19,327,39,81,02,017,39,82,12,334,31*6A
$GLGSV,3,3,09,83,10,285,33*59
$GNGLL,0419.83632,S,05539.60213,E,063557.00,A,D*61
$GNRMC,063558.00,A,0419.83631,S,05539.60212,E,0.011,,260525,,,D*73
$GNVTG,,T,,M,0.011,N,0.021,K,D*3B
$GNGGA,063558.00,0419.83631,S,05539.60212,E,2,12,0.65,10.6,M,-47.6,M,,0000*40
$GNGSA,A,3,12,23,24,25,29,15,18,05,20,40,,,1.13,0.65,0.93*10
$GNGSA,A,3,78,82,80,68,79,67,66,83,,,,,1.13,0.65,0.93*11
$GPGSV,5,1,17,05,39,035,43,10,06,213,27,12,73,085,38,13,13,106,*71
$GPGSV,5,2,17,15,40,136,32,18,32,292,38,20,07,033,44,23,46,211,44*73
$GPGSV,5,3,17,24,32,177,43,25,59,341,37,28,05,292,43,29,14,346,41*7A
$GPGSV,5,4,17,36,52,277,,40,86,351,39,41,58,082,,49,32,274,*76
$GPGSV,5,5,17,50,10,089,*4A
$GLGSV,3,1,09,66,12,062,12,67,39,115,28,68,26,174,41,78,46,168,37*65
$GLGSV,3,2,09,79,70,294,36,80,19,327,39,81,02,017,38,82,12,334,32*68
$GLGSV,3,3,09,83,10,285,34*5E
$GNGLL,0419.83631,S,05539.60212,E,063558.00,A,D*6C
$GNRMC,063559.00,A,0419.83630,S,05539.60211,E,0.019,,260525,,,D*78
$GNVTG,,T,,M,0.019,N,0.036,K,D*35
$GNGGA,063559.00,0419.83630,S,05539.60211,E,2,12,0.65,10.6,M,-47.6,M,,0000*43
$GNGSA,A,3,12,23,24,25,29,15,18,05,20,40,,,1.13,0.65,0.93*10
$GNGSA,A,3,78,82,80,68,79,67,66,83,,,,,1.13,0.65,0.93*11
$GPGSV,5,1,17,05,39,035,43,10,06,213,28,12,73,085,38,13,13,106,*7E
$GPGSV,5,2,17,15,40,136,32,18,32,292,37,20,07,033,44,23,46,211,44*7C
$GPGSV,5,3,17,24,32,177,43,25,59,341,37,28,05,292,43,29,14,346,40*7B
$GPGSV,5,4,17,36,52,277,,40,86,351,39,41,58,082,,49,32,274,*76
$GPGSV,5,5,17,50,10,089,*4A
$GLGSV,3,1,09,66,12,062,15,67,39,115,27,68,26,174,40,78,46,168,37*6C
$GLGSV,3,2,09,79,70,294,36,80,19,327,38,81,02,017,38,82,12,334,31*6A
$GLGSV,3,3,09,83,10,285,35*5F
$GNGLL,0419.83630,S,05539.60211,E,063559.00,A,D*6F
$GNRMC,063600.00,A,0419.83628,S,05539.60208,E,0.010,,260525,,,D*7F
$GNVTG,,T,,M,0.010,N,0.019,K,D*31
$GNGGA,063600.00,0419.83628,S,05539.60208,E,2,12,0.71,10.6,M,-47.6,M,,0000*48
$GNGSA,A,3,12,23,24,25,29,15,18,05,20,40,,,1.20,0.71,0.97*11
$GNGSA,A,3,78,82,80,68,79,67,66,83,,,,,1.20,0.71,0.97*10
$GPGSV,5,1,17,05,39,035,43,10,06,213,30,12,73,085,38,13,13,106,*77
$GPGSV,5,2,17,15,40,136,32,18,32,292,38,20,07,033,44,23,46,211,44*73
$GPGSV,5,3,17,24,32,177,43,25,59,341,37,28,05,292,43,29,14,346,41*7A
$GPGSV,5,4,17,36,52,277,,40,86,351,39,41,58,082,,49,32,274,*76
$GPGSV,5,5,17,50,10,089,*4A
$GLGSV,3,1,09,66,12,062,12,67,39,115,28,68,26,174,40,78,46,168,37*64
$GLGSV,3,2,09,79,70,294,37,80,19,327,38,81,02,017,38,82,12,334,32*68
$GLGSV,3,3,09,83,10,285,34*5E
$GNGLL,0419.83628,S,05539.60208,E,063600.00,A,D*61
$GNVTG,,T,,M,0.007,N,0.013,K,D*3D
$GNGGA,063602.00,0419.83627,S,05539.60204,E,2,12,0.65,10.7,M,-47.6,M,,0000*4D
$GNGSA,A,3,12,23,24,25,29,15,18,05,20,40,,,1.13,0.65,0.93*10
$GNGSA,A,3,78,82,80,68,79,67,66,83,,,,,1.13,0.65,0.93*11
$GPGSV,5,1,17,05,39,035,43,10,06,213,30,12,73,085,38,13,13,106,*77
$GPGSV,5,2,17,15,40,136,31,18,32,292,38,20,07,033,44,23,47,211,44*71
$GPGSV,5,3,17,24,32,176,44,25,59,341,37,28,05,292,42,29,14,346,40*7C
$GPGSV,5,4,17,36,52,277,,40,86,351,39,41,58,082,,49,32,274,*76
$GPGSV,5,5,17,50,10,089,*4A
$GLGSV,3,1,09,66,12,062,12,67,39,115,27,68,26,174,40,78,46,168,38*64
$GLGSV,3,2,09,79,70,294,36,80,19,327,38,81,02,017,38,82,12,334,33*68
$GLGSV,3,3,09,83,10,285,32*58
$GNGLL,0419.83627,S,05539.60204,E,063602.00,A,D*60
$GNRMC,063603.00,A,0419.83627,S,05539.60203,E,0.016,,260525,,,D*7E
$GNVTG,,T,,M,0.016,N,0.029,K,D*34
$GNGGA,063603.00,0419.83627,S,05539.60203,E,2,12,0.71,10.7,M,-47.6,M,,0000*4E
$GNGSA,A,3,12,23,24,25,29,15,18,05,20,40,,,1.20,0.71,0.97*11
$GNGSA,A,3,78,82,80,68,79,67,83,,,,,,1.20,0.71,0.97*10
$GNRMC,063604.00,A,0419.83627,S,05539.60201,E,0.029,,260525,,,D*77
$GNVTG,,T,,M,0.029,N,0.054,K,D*32
$GNGGA,063604.00,0419.83627,S,05539.60201,E,2,12,0.71,10.7,M,-47.6,M,,0000*4B
$GNGSA,A,3,12,23,24,25,29,15,18,05,20,40,,,1.20,0.71,0.97*11
$GNGSA,A,3,78,82,80,68,79,67,83,,,,,,1.20,0.71,0.97*10
$GPGSV,5,1,17,05,39,035,41,10,06,213,29,12,73,085,37,13,13,106,*72
$GPGSV,5,2,17,15,40,136,31,18,32,292,36,20,07,033,43,23,47,211,42*7E
$GPGSV,5,3,17,24,32,176,42,25,59,341,35,28,05,292,40,29,14,346,40*7A
$GPGSV,5,4,17,36,52,277,,40,86,351,38,41,58,082,,49,32,274,*77
$GPGSV,5,5,17,50,10,089,*4A
$GLGSV,3,1,09,66,12,062,11,67,39,115,25,68,26,174,41,78,46,168,38*64
$GLGSV,3,2,09,79,70,294,36,80,19,327,39,81,02,017,38,82,12,334,25*6E
$GLGSV,3,3,09,83,10,285,36*5C
$GNGLL,0419.83627,S,05539.60201,E,063604.00,A,D*63
$GNRMC,063606.00,A,0419.83627,S,05539.60200,E,0.022,,260525,,,D*7F
$GNVTG,,T,,M,0.022,N,0.041,K,D*3D
$GNGGA,063606.00,0419.83627,S,05539.60200,E,2,12,0.71,10.8,M,-47.6,M,,0000*47
$GNGSA,A,3,12,23,24,25,29,15,18,05,20,40,,,1.20,0.71,0.97*11
$GNGSA,A,3,78,82,80,68,79,67,66,83,,,,,1.20,0.71,0.97*10
$GPGSV,5,1,17,05,39,035,42,10,06,213,31,12,73,085,37,13,13,106,*78
$GPGSV,5,2,17,15,40,136,31,18,32,292,37,20,07,033,44,23,47,211,43*79
$GPGSV,5,3,17,24,32,176,43,25,59,341,36,28,05,291,42,29,14,346,41*78
$GPGSV,5,4,17,36,52,277,,40,86,351,39,41,58,082,,49,32,274,*76
$GPGSV,5,5,17,50,10,089,*4A
$GLGSV,3,1,09,66,12,062,12,67,39,115,25,68,26,174,39,78,46,168,37*67
$GLGSV,3,2,09,79,70,294,36,80,19,327,36,81,02,017,37,82,12,334,26*6D
$GLGSV,3,3,09,83,10,285,34*5E
$GNGLL,0419.83627,S,05539.60200,E,063606.00,A,D*60
$GNRMC,063607.00,A,0419.83628,S,05539.60200,E,0.007,,260525,,,D*76
$GNVTG,,T,,M,0.007,N,0.013,K,D*3D
$GNGGA,063607.00,0419.83628,S,05539.60200,E,2,12,0.65,10.8,M,-47.6,M,,0000*4C
$GNGSA,A,3,12,23,24,25,29,15,18,05,20,40,,,1.13,0.65,0.93*10
$GNGSA,A,3,78,82,80,68,79,67,66,83,,,,,1.13,0.65,0.93*11
$GPGSV,5,1,17,05,39,035,42,10,06,213,31,12,73,085,37,13,13,106,*78
$GPGSV,5,2,17,15,40,136,32,18,32,292,38,20,07,033,43,23,47,211,43*72
$GPGSV,5,3,17,24,32,176,43,25,59,341,36,28,05,291,42,29,14,347,41*79
$GPGSV,5,4,17,36,52,277,,40,86,351,38,41,58,082,,49,32,274,*77
$GPGSV,5,5,17,50,10,089,*4A
$GLGSV,3,1,09,66,12,062,12,67,39,115,25,68,26,174,39,78,46,168,37*67
$GLGSV,3,2,09,79,70,294,35,80,19,327,37,81,02,017,37,82,12,334,26*6F
$GLGSV,3,3,09,83,10,285,32*58
$GNGLL,0419.83628,S,05539.60200,E,063607.00,A,D*6E
$GNRMC,063608.00,A,0419.83628,S,05539.60199,E,0.024,,260525,,,D*7B
$GNVTG,,T,,M,0.024,N,0.044,K,D*3E
$GNGGA,063608.00,0419.83628,S,05539.60199,E,2,12,0.65,10.8,M,-47.6,M,,0000*40
$GNGSA,A,3,12,23,24,25,29,15,18,05,20,40,,,1.13,0.65,0.93*10
$GNGSA,A,3,78,82,80,68,79,67,66,83,,,,,1.13,0.65,0.93*11
$GPGSV,5,1,17,05,39,035,42,10,06,213,31,12,73,085,37,13,13,106,*78
$GPGSV,5,2,17,15,40,136,31,18,32,292,38,20,07,033,43,23,47,211,43*71
$GPGSV,5,3,17,24,32,176,43,25,59,341,37,28,05,291,42,29,14,347,41*78
$GPGSV,5,4,17,36,52,277,,40,86,351,39,41,58,082,,49,32,274,*76
$GPGSV,5,5,17,50,10,089,*4A
$GLGSV,3,1,09,66,12,062,12,67,39,115,24,68,26,174,39,78,46,168,37*66
$GLGSV,3,2,09,79,70,294,36,80,19,327,37,81,02,017,35,82,12,334,28*60
$GLGSV,3,3,09,83,10,285,32*58
$GNGLL,0419.83628,S,05539.60199,E,063608.00,A,D*62
$GNRMC,063609.00,A,0419.83628,S,05539.60198,E,0.012,,260525,,,D*7E
$GNVTG,,T,,M,0.012,N,0.022,K,D*3B
$GNGGA,063609.00,0419.83628,S,05539.60198,E,2,12,0.71,10.8,M,-47.6,M,,0000*45
$GNGSA,A,3,12,23,24,25,29,15,18,05,20,40,,,1.20,0.71,0.97*11
$GNGSA,A,3,78,82,80,68,79,67,83,,,,,,1.20,0.71,0.97*10
$GPGSV,5,1,17,05,39,035,42,10,06,213,31,12,73,085,37,13,13,106,*78
$GPGSV,5,2,17,15,40,136,30,18,32,292,38,20,07,033,43,23,47,211,43*70
$GPGSV,5,3,17,24,32,176,43,25,59,341,37,28,05,291,42,29,14,347,41*78
$GPGSV,5,4,17,36,52,277,,40,86,351,38,41,58,082,,49,32,274,*77
$GPGSV,5,5,17,50,10,089,*4A
$GLGSV,3,1,09,66,12,062,10,67,39,115,23,68,26,174,39,78,46,168,37*63
$GLGSV,3,2,09,79,70,294,35,80,19,327,38,81,02,017,36,82,12,334,29*6E
$GLGSV,3,3,09,83,10,285,32*58
$GNGLL,0419.83628,S,05539.60198,E,063609.00,A,D*62
$GNRMC,063610.00,A,0419.83627,S,05539.60197,E,0.007,,260525,,,D*72
$GNVTG,,T,,M,0.007,N,0.013,K,D*3D
$GNGGA,063610.00,0419.83627,S,05539.60197,E,2,12,0.71,10.8,M,-47.6,M,,0000*4D
$GNGSA,A,3,12,23,24,25,29,15,18,05,20,40,,,1.20,0.71,0.97*11
$GNGSA,A,3,78,82,80,68,79,67,83,,,,,,1.20,0.71,0.97*10
$GPGSV,5,1,17,05,39,035,42,10,06,213,30,12,73,085,37,13,13,106,*79
$GPGSV,5,2,17,15,40,136,30,18,32,292,38,20,07,033,43,23,47,211,43*70
$GPGSV,5,3,17,24,32,176,43,25,59,341,37,28,05,291,41,29,14,347,41*7B
$GPGSV,5,4,17,36,52,277,,40,86,351,38,41,58,082,,49,32,274,*77
$GPGSV,5,5,17,50,10,089,*4A
$GLGSV,3,1,09,66,12,062,10,67,39,115,22,68,26,174,40,78,46,168,37*6C
$GLGSV,3,2,09,79,70,294,36,80,19,327,38,81,02,017,37,82,12,334,27*62
$GLGSV,3,3,09,83,10,285,33*59
$GNGLL,0419.83627,S,05539.60197,E,063610.00,A,D*6A
$GNRMC,063613.00,A,0419.83625,S,05539.60191,E,0.053,,260525,,,D*74
$GNVTG,,T,,M,0.053,N,0.099,K,D*3E
$GNGGA,063613.00,0419.83625,S,05539.60191,E,2,12,0.65,10.9,M,-47.6,M,,0000*4E
$GNGSA,A,3,12,23,24,25,29,15,18,05,20,40,,,1.13,0.65,0.93*10
$GNGSA,A,3,78,82,80,68,79,67,66,83,,,,,1.13,0.65,0.93*11
$GPGSV,5,1,17,05,39,035,42,10,06,213,30,12,73,085,36,13,13,106,*78
$GPGSV,5,2,17,15,40,136,32,18,32,292,37,20,07,033,43,23,47,211,43*7D
$GPGSV,5,3,17,24,32,176,43,25,59,341,39,28,05,291,40,29,14,347,41*74
$GPGSV,5,4,17,36,52,277,,40,86,351,40,41,58,082,,49,32,274,*78
$GPGSV,5,5,17,50,10,089,*4A
$GLGSV,3,1,09,66,12,062,12,67,39,115,23,68,26,174,40,78,46,168,37*6F
$GLGSV,3,2,09,79,70,294,38,80,19,327,38,81,02,017,36,82,12,334,33*68
$GLGSV,3,3,09,83,10,285,33*59
$GNGLL,0419.83625,S,05539.60191,E,063613.00,A,D*6D
$GNRMC,063614.00,A,0419.83624,S,05539.60190,E,0.013,,260525,,,D*77
$GNVTG,,T,,M,0.013,N,0.024,K,D*3C
$GNGGA,063614.00,0419.83624,S,05539.60190,E,2,12,0.65,10.9,M,-47.6,M,,0000*49
$GNGSA,A,3,12,23,24,25,29,15,18,05,20,40,,,1.13,0.65,0.93*10
$GNGSA,A,3,78,82,80,68,79,67,66,83,,,,,1.13,0.65,0.93*11
$GPGSV,5,1,17,05,39,035,41,10,06,213,30,12,73,085,34,13,13,106,*79
$GPGSV,5,2,17,15,40,136,33,18,32,292,38,20,07,033,43,23,47,211,43*73
$GPGSV,5,3,17,24,32,176,43,25,59,341,39,28,05,291,41,29,14,347,40*74
$GPGSV,5,4,17,36,52,277,,40,86,351,39,41,58,082,,49,32,274,*76
$GPGSV,5,5,17,50,10,089,*4A
$GLGSV,3,1,09,66,12,062,12,67,39,115,26,68,26,174,40,78,46,168,36*6B
$GLGSV,3,2,09,79,70,294,38,80,19,327,39,81,02,017,36,82,12,334,34*6E
$GLGSV,3,3,09,83,10,285,33*59
$GNGLL,0419.83624,S,05539.60190,E,063614.00,A,D*6A
$GNRMC,063615.00,A,0419.83624,S,05539.60191,E,0.019,,260525,,,D*7D
$GNVTG,,T,,M,0.019,N,0.034,K,D*37
$GNGGA,063615.00,0419.83624,S,05539.60191,E,2,12,0.71,10.9,M,-47.6,M,,0000*4C
$GNGSA,A,3,12,23,24,25,29,15,18,05,20,40,,,1.20,0.71,0.97*11
$GNGSA,A,3,78,82,80,68,79,67,66,83,,,,,1.20,0.71,0.97*10
$GPGSV,5,1,17,05,39,035,41,10,06,213,30,12,73,085,34,13,13,106,*79
$GPGSV,5,2,17,15,40,136,33,18,32,292,39,20,07,033,42,23,47,211,43*73
$GPGSV,5,3,17,24,32,176,43,25,59,341,39,28,05,291,41,29,14,347,41*75
$GPGSV,5,4,17,36,52,277,,40,86,351,38,41,58,082,,49,32,274,*77
$GPGSV,5,5,17,50,10,089,*4A
$GLGSV,3,1,09,66,12,062,10,67,39,115,26,68,26,174,37,78,46,168,35*6A
$GLGSV,3,2,09,79,70,294,37,80,19,327,39,81,02,017,36,82,12,334,33*66
$GLGSV,3,3,09,83,10,285,32*58
$GNGLL,0419.83624,S,05539.60191,E,063615.00,A,D*6A
$GNRMC,063616.00,A,0419.83625,S,05539.60192,E,0.020,,260525,,,D*76
$GNVTG,,T,,M,0.020,N,0.037,K,D*3E
$GNGGA,063616.00,0419.83625,S,05539.60192,E,2,12,0.65,10.8,M,-47.6,M,,0000*49
$GNGSA,A,3,12,23,24,25,29,15,18,05,20,40,,,1.13,0.65,0.93*10
$GNGSA,A,3,78,82,80,68,79,67,66,83,,,,,1.13,0.65,0.93*11
$GPGSV,5,1,17,05,39,035,42,10,06,213,30,12,73,085,34,13,13,106,*7A
$GPGSV,5,2,17,15,40,136,33,18,32,292,39,20,07,033,42,23,47,211,43*73
$GPGSV,5,3,17,24,32,176,43,25,59,341,39,28,05,291,41,29,14,347,41*75
$GPGSV,5,4,17,36,52,277,,40,86,351,38,41,58,082,,49,32,274,*77
$GPGSV,5,5,17,50,10,089,*4A
$GLGSV,3,1,09,66,12,062,13,67,39,115,26,68,26,174,37,78,46,168,34*68
$GLGSV,3,2,09,79,70,294,36,80,19,327,38,81,02,017,36,82,12,334,35*60
$GLGSV,3,3,09,83,10,285,31*5B
$GNGLL,0419.83625,S,05539.60192,E,063616.00,A,D*6B
$GNRMC,063617.00,A,0419.83625,S,05539.60192,E,0.022,,260525,,,D*75
$GNVTG,,T,,M,0.022,N,0.041,K,D*3D
$GNGGA,063617.00,0419.83625,S,05539.60192,E,2,12,0.65,10.8,M,-47.6,M,,0000*48
$GNGSA,A,3,12,23,24,25,29,15,18,05,20,40,,,1.13,0.65,0.93*10
$GNGSA,A,3,78,82,80,68,79,67,66,83,,,,,1.13,0.65,0.93*11
$GPGSV,5,1,17,05,39,035,42,10,06,213,28,12,73,085,35,13,13,106,*72
$GPGSV,5,2,17,15,40,136,32,18,32,292,39,20,07,033,43,23,47,211,43*73
$GPGSV,5,3,17,24,32,176,42,25,59,341,39,28,05,291,41,29,14,347,38*7A
$GPGSV,5,4,17,36,52,277,,40,86,351,38,41,58,082,,49,32,274,*77
$GPGSV,5,5,17,50,10,089,*4A
$GLGSV,3,1,09,66,12,062,16,67,39,115,26,68,26,174,39,78,46,168,37*60
$GLGSV,3,2,09,79,70,294,37,80,19,327,40,81,02,017,38,82,12,334,35*60
$GLGSV,3,3,09,83,10,285,32*58
$GNGLL,0419.83625,S,05539.60192,E,063617.00,A,D*6A
$GNRMC,063618.00,A,0419.83626,S,05539.60192,E,0.024,,260525,,,D*7F
$GNVTG,,T,,M,0.024,N,0.044,K,D*3E
$GNGGA,063618.00,0419.83626,S,05539.60192,E,2,12,0.65,10.8,M,-47.6,M,,0000*44
$GNGSA,A,3,12,23,24,25,29,15,18,05,20,40,,,1.13,0.65,0.93*10
$GNGSA,A,3,78,82,80,68,79,67,66,83,,,,,1.13,0.65,0.93*11
$GPGSV,5,1,17,05,39,035,42,10,06,213,26,12,73,085,35,13,13,106,*7C
$GPGSV,5,2,17,15,40,136,31,18,32,292,38,20,07,033,42,23,47,211,44*77
$GPGSV,5,3,17,24,32,176,42,25,59,341,38,28,05,291,41,29,14,347,39*7A
$GPGSV,5,4,17,36,52,277,,40,86,351,39,41,58,082,,49,32,274,*76
$GPGSV,5,5,17,50,10,089,*4A
$GLGSV,3,1,09,66,12,062,12,67,39,115,27,68,26,174,37,78,46,168,37*6B
$GLGSV,3,2,09,79,70,294,36,80,19,327,38,81,02,017,37,82,12,334,35*61
$GLGSV,3,3,09,83,10,285,34*5E
$GNGLL,0419.83626,S,05539.60192,E,063618.00,A,D*66
$GNRMC,063627.00,A,0419.83627,S,05539.60191,E,0.021,,260525,,,D*74
$GNVTG,,T,,M,0.021,N,0.038,K,D*30
$GNGGA,063627.00,0419.83627,S,05539.60191,E,2,12,0.68,10.9,M,-47.6,M,,0000*46
$GNGSA,A,3,12,23,24,25,28,29,15,18,05,20,40,,1.15,0.68,0.92*10
$GNGSA,A,3,78,82,80,68,79,67,66,83,,,,,1.15,0.68,0.92*1B
$GPGSV,5,1,17,05,39,035,43,10,06,213,30,12,73,085,36,13,13,106,*79
$GPGSV,5,2,17,15,40,136,30,18,32,292,37,20,07,033,43,23,47,211,44*78
$GPGSV,5,3,17,24,32,176,42,25,59,341,38,28,05,291,41,29,14,347,41*75
$GPGSV,5,4,17,36,52,277,,40,86,351,39,41,58,082,,49,32,274,*76
$GPGSV,5,5,17,50,10,089,*4A
$GLGSV,3,1,09,66,12,062,15,67,39,115,30,68,26,174,37,78,46,168,36*6B
$GLGSV,3,2,09,79,70,294,37,80,19,327,38,81,02,017,37,82,12,334,33*66
$GLGSV,3,3,09,83,10,285,33*59
$GNGLL,0419.83627,S,05539.60191,E,063627.00,A,D*68
$GNRMC,063628.00,A,0419.83626,S,05539.60192,E,0.030,,260525,,,D*79
$GNVTG,,T,,M,0.030,N,0.056,K,D*38
$GNGGA,063628.00,0419.83626,S,05539.60192,E,2,12,0.63,10.9,M,-47.6,M,,0000*40
$GNGSA,A,3,12,23,24,25,28,29,15,18,05,20,40,,1.08,0.63,0.88*1C
$GNGSA,A,3,78,82,80,68,79,67,66,83,,,,,1.08,0.63,0.88*17
$GPGSV,5,1,17,05,39,035,44,10,06,213,29,12,73,085,36,13,13,106,*76
$GPGSV,5,2,17,15,40,136,30,18,32,292,38,20,07,033,43,23,47,211,44*77
$GPGSV,5,3,17,24,32,176,42,25,59,341,38,28,05,291,42,29,14,347,42*75
$GPGSV,5,4,17,36,52,277,,40,86,351,40,41,58,082,,49,32,274,*78
$GPGSV,5,5,17,50,10,089,*4A
$GLGSV,3,1,09,66,12,062,14,67,39,115,30,68,26,174,37,78,46,168,36*6A
$GLGSV,3,2,09,79,70,294,37,80,19,327,39,81,02,017,37,82,12,334,32*66
$GLGSV,3,3,09,83,10,285,34*5E
$GNGLL,0419.83626,S,05539.60192,E,063628.00,A,D*65
$GNRMC,063634.00,A,0419.83624,S,05539.60201,E,0.031,,260525,,,D*7E
$GNVTG,,T,,M,0.031,N,0.058,K,D*37
$GNGGA,063634.00,0419.83624,S,05539.60201,E,2,12,0.59,11.0,M,-47.6,M,,0000*47
$GNGSA,A,3,12,23,24,25,28,29,15,18,05,20,10,40,0.99,0.59,0.80*15
$GNGSA,A,3,78,82,80,68,79,67,66,83,,,,,0.99,0.59,0.80*1F
$GPGSV,5,1,17,05,39,035,44,10,06,213,28,12,73,085,37,13,13,106,*76
$GPGSV,5,2,17,15,40,136,29,18,32,292,38,20,07,033,43,23,47,211,44*7F
$GPGSV,5,3,17,24,32,176,42,25,59,341,38,28,05,291,43,29,14,347,41*77
$GPGSV,5,4,17,36,52,277,,40,86,351,41,41,58,082,,49,32,274,*79
$GNRMC,063636.00,A,0419.83624,S,05539.60203,E,0.034,,260525,,,D*7B
$GNVTG,,T,,M,0.034,N,0.063,K,D*3A
$GNGGA,063636.00,0419.83624,S,05539.60203,E,2,12,0.64,11.0,M,-47.6,M,,0000*49
$GNGSA,A,3,12,23,24,25,28,29,15,18,05,20,10,40,1.07,0.64,0.85*18
$GNGSA,A,3,78,82,80,68,79,67,66,83,,,,,1.07,0.64,0.85*12
$GPGSV,5,1,17,05,39,035,44,10,06,213,28,12,73,085,38,13,13,106,*79
$GPGSV,5,2,17,15,40,136,30,18,32,292,39,20,07,033,44,23,47,211,44*71
$GPGSV,5,3,17,24,32,176,42,25,59,341,38,28,05,291,42,29,14,347,43*74
$GPGSV,5,4,17,36,52,277,,40,86,351,41,41,58,082,,49,32,274,*79
$GPGSV,5,5,17,50,10,089,*4A
$GLGSV,3,1,09,66,12,062,15,67,39,114,30,68,27,174,38,78,46,168,36*64
$GLGSV,3,2,09,79,70,294,38,80,19,327,40,81,02,017,37,82,12,334,34*61
$GLGSV,3,3,09,83,10,285,34*5E
$GNGLL,0419.83624,S,05539.60203,E,063636.00,A,D*63
$GNRMC,063637.00,A,0419.83625,S,05539.60203,E,0.024,,260525,,,D*7A
$GNVTG,,T,,M,0.024,N,0.045,K,D*3F
$GNGGA,063637.00,0419.83625,S,05539.60203,E,2,12,0.59,11.1,M,-47.6,M,,0000*46
$GNGSA,A,3,12,23,24,25,28,29,15,18,05,20,10,40,0.99,0.59,0.80*15
$GNGSA,A,3,78,82,80,68,79,67,66,83,,,,,0.99,0.59,0.80*1F
$GPGSV,5,1,17,05,39,035,44,10,06,213,29,12,73,085,38,13,13,106,*78
$GPGSV,5,2,17,15,40,136,31,18,32,292,39,20,07,033,44,23,47,211,45*71
$GPGSV,5,3,17,24,32,176,42,25,59,341,38,28,05,291,43,29,14,347,41*77
$GPGSV,5,4,17,36,52,277,,40,86,351,41,41,58,082,,49,32,274,*79
$GPGSV,5,5,17,50,10,089,*4A
$GLGSV,3,1,09,66,12,062,15,67,39,114,30,68,27,174,38,78,46,168,36*64
$GLGSV,3,2,09,79,70,294,38,80,19,327,40,81,02,017,37,82,12,334,33*66
$GLGSV,3,3,09,83,10,285,35*5F
$GNGLL,0419.83625,S,05539.60203,E,063637.00,A,D*63
$GNRMC,063638.00,A,0419.83626,S,05539.60203,E,0.032,,260525,,,D*71
$GNVTG,,T,,M,0.032,N,0.059,K,D*35
$GNGGA,063638.00,0419.83626,S,05539.60203,E,2,12,0.59,11.1,M,-47.6,M,,0000*4A
$GNGSA,A,3,12,23,24,25,28,29,15,18,05,20,10,40,0.99,0.59,0.80*15
$GNGSA,A,3,78,82,80,68,79,67,66,83,,,,,0.99,0.59,0.80*1F
$GPGSV,5,1,17,05,39,035,43,10,06,213,28,12,73,085,37,13,13,106,*71
$GPGSV,5,2,17,15,40,136,30,18,32,292,38,20,07,033,43,23,47,211,43*70
$GPGSV,5,3,17,24,32,176,41,25,59,341,37,28,05,291,42,29,14,347,40*7B
$GPGSV,5,4,17,36,52,277,,40,86,351,40,41,58,082,,49,32,274,*78
$GPGSV,5,5,17,50,10,089,*4A
$GLGSV,3,1,09,66,12,062,15,67,39,114,30,68,27,174,38,78,46,168,36*64
$GLGSV,3,2,09,79,70,294,38,80,19,327,40,81,02,017,38,82,12,334,33*69
$GLGSV,3,3,09,83,10,285,34*5E
$GNGLL,0419.83626,S,05539.60203,E,063638.00,A,D*6F
$GNRMC,063642.00,A,0419.83627,S,05539.60206,E,0.036,,260525,,,D*7C
$GNVTG,,T,,M,0.036,N,0.067,K,D*3C
$GNGGA,063642.00,0419.83627,S,05539.60206,E,2,12,0.64,11.1,M,-47.6,M,,0000*4D
$GNGSA,A,3,12,23,24,25,28,29,15,18,05,20,10,40,1.07,0.64,0.85*18
$GNGSA,A,3,78,82,80,68,79,67,83,,,,,,1.07,0.64,0.85*12
$GPGSV,5,1,17,05,39,035,43,10,06,213,27,12,73,085,36,13,13,106,*7F
$GPGSV,5,2,17,15,40,136,30,18,32,292,38,20,07,033,43,23,47,211,43*70
$GPGSV,5,3,17,24,32,176,41,25,59,341,37,28,05,291,42,29,14,347,40*7B
$GPGSV,5,4,17,36,52,277,,40,86,351,40,41,58,082,,49,32,274,*78
$GPGSV,5,5,17,50,10,089,*4A
$GLGSV,3,1,09,66,12,062,11,67,39,114,28,68,27,174,36,78,46,168,34*65
$GLGSV,3,2,09,79,70,294,35,80,19,327,38,81,02,017,35,82,12,334,31*64
$GLGSV,3,3,09,83,10,285,31*5B
$GNGLL,0419.83627,S,05539.60206,E,063642.00,A,D*66
$GNRMC,063644.00,A,0419.83627,S,05539.60209,E,0.007,,260525,,,D*77
$GNVTG,,T,,M,0.007,N,0.014,K,D*3A
$GNGGA,063644.00,0419.83627,S,05539.60209,E,2,12,0.64,11.1,M,-47.6,M,,0000*44
$GNGSA,A,3,12,23,24,25,28,29,15,18,05,20,10,40,1.07,0.64,0.85*18
$GNRMC,063645.00,A,0419.83627,S,05539.60210,E,0.009,,260525,,,D*70
$GNVTG,,T,,M,0.009,N,0.016,K,D*36
$GNGGA,063645.00,0419.83627,S,05539.60210,E,2,12,0.64,11.1,M,-47.6,M,,0000*4D
$GNGSA,A,3,12,23,24,25,28,29,15,18,05,20,10,40,1.07,0.64,0.85*18
$GNGSA,A,3,78,82,80,68,79,67,66,83,,,,,1.07,0.64,0.85*12
$GPGSV,5,1,17,05,39,035,43,10,06,213,28,12,73,085,36,13,13,106,*70
$GPGSV,5,2,17,15,40,136,31,18,32,292,38,20,07,033,43,23,47,211,43*71
$GPGSV,5,3,17,24,32,176,41,25,59,341,37,28,05,291,41,29,14,347,41*79
$GPGSV,5,4,17,36,52,277,,40,86,351,40,41,58,082,,49,32,274,*78
$GPGSV,5,5,17,50,10,089,*4A
$GLGSV,3,1,09,66,12,062,14,67,39,114,29,68,27,174,37,78,45,168,36*61
$GLGSV,3,2,09,79,70,292,36,80,19,327,40,81,02,017,37,82,12,334,30*6D
$GLGSV,3,3,09,83,10,285,33*59
$GNGLL,0419.83627,S,05539.60210,E,063645.00,A,D*66
$GPGSV,5,1,17,05,39,035,43,10,06,213,28,12,73,085,36,13,13,106,*70
$GPGSV,5,2,17,15,40,136,31,18,32,292,38,20,07,033,43,23,47,211,43*71
$GPGSV,5,3,17,24,32,176,41,25,59,341,37,28,05,291,42,29,14,347,40*7B
$GPGSV,5,4,17,36,52,277,,40,86,351,40,41,58,082,,49,32,274,*78
$GPGSV,5,5,17,50,10,089,*4A
$GLGSV,3,1,09,66,12,062,13,67,39,114,29,68,27,174,37,78,45,168,36*66
$GLGSV,3,2,09,79,70,292,37,80,19,327,39,81,02,017,37,82,12,334,29*6A
$GLGSV,3,3,09,83,10,285,32*58
$GNGLL,0419.83627,S,05539.60212,E,063646.00,A,D*67
$GNRMC,063648.00,A,0419.83626,S,05539.60213,E,0.032,,260525,,,D*77
$GNVTG,,T,,M,0.032,N,0.059,K,D*35
$GNGGA,063648.00,0419.83626,S,05539.60213,E,2,12,0.59,11.2,M,-47.6,M,,0000*4F
$GNGSA,A,3,12,23,24,25,28,29,15,18,05,20,10,40,0.99,0.59,0.80*15
$GNGSA,A,3,78,82,80,68,79,67,66,83,,,,,0.99,0.59,0.80*1F
$GPGSV,5,1,17,05,39,035,42,10,06,213,27,12,73,085,36,13,13,106,*7E
$GPGSV,5,2,17,15,40,136,31,18,32,292,39,20,07,033,44,23,47,211,43*77
$GPGSV,5,3,17,24,32,176,41,25,59,341,37,28,05,291,42,29,14,347,40*7B
$GPGSV,5,4,17,36,52,277,,40,86,351,40,41,58,082,,49,32,274,*78
$GPGSV,5,5,17,50,10,089,*4A
$GLGSV,3,1,09,66,12,062,11,67,39,114,28,68,27,174,37,78,45,168,36*65
$GLGSV,3,2,09,79,70,292,36,80,19,327,39,81,02,017,37,82,12,335,31*63
$GLGSV,3,3,09,83,10,285,32*58
$GNGLL,0419.83626,S,05539.60213,E,063648.00,A,D*69
$GNRMC,063650.00,A,0419.83625,S,05539.60214,E,0.025,,260525,,,D*7C
$GNVTG,,T,,M,0.025,N,0.046,K,D*3D
$GNGGA,063650.00,0419.83625,S,05539.60214,E,2,12,0.59,11.2,M,-47.6,M,,0000*42
$GNGSA,A,3,12,23,24,25,28,29,15,18,05,20,10,40,0.99,0.59,0.80*15
$GNGSA,A,3,78,82,80,68,79,67,66,83,,,,,0.99,0.59,0.80*1F
$GPGSV,5,1,17,05,39,035,42,10,06,213,29,12,73,085,36,13,13,106,*70
