$GNRMC,063752.00,A,0419.84645,S,05539.61102,E,0.239,,260525,,,A*71
$GNVTG,,T,,M,0.239,N,0.442,K,A*37
$GNGGA,063752.00,0419.84645,S,05539.61102,E,1,12,0.65,14.6,M,-47.6,M,,*48
$GNGSA,A,3,12,23,24,25,28,29,15,18,05,20,10,,1.13,0.65,0.93*1F
$GNGSA,A,3,78,82,80,68,79,67,83,,,,,,1.13,0.65,0.93*11
$GPGSV,5,1,17,05,39,035,25,10,06,213,13,12,73,087,27,13,13,106,*7A
$GPGSV,5,2,17,15,40,136,22,18,32,293,29,20,06,033,16,23,47,211,17*72
$GPGSV,5,3,17,24,32,176,25,25,60,340,16,28,05,291,24,29,15,347,32*75
$GPGSV,5,4,17,36,52,277,,40,86,351,,41,58,082,,49,32,274,*7C
$GPGSV,5,5,17,50,10,089,*4A
$GLGSV,3,1,09,66,12,061,,67,39,113,11,68,27,173,20,78,45,168,33*6F
$GLGSV,3,2,09,79,70,292,12,80,19,327,21,81,02,017,09,82,12,335,19*6B
$GLGSV,3,3,09,83,09,286,09*5B
$GNGLL,0419.84645,S,05539.61102,E,063752.00,A,A*66
$GNRMC,063759.00,A,0419.84694,S,05539.61127,E,0.344,,260525,,,A*7A
$GNVTG,,T,,M,0.344,N,0.638,K,A*33
$GNGGA,063759.00,0419.84694,S,05539.61127,E,1,12,0.65,13.8,M,-47.6,M,,*41
$GNGSA,A,3,12,23,24,25,28,29,15,18,05,20,10,,1.13,0.65,0.93*1F
$GNGSA,A,3,78,82,80,68,79,67,83,,,,,,1.13,0.65,0.93*11
$GPGSV,5,1,17,05,39,035,27,10,06,213,18,12,73,087,28,13,13,106,*7C
$GPGSV,5,2,17,15,40,136,24,18,32,293,28,20,06,033,19,23,47,211,12*7F
$GNRMC,063800.00,A,0419.84700,S,05539.61133,E,0.040,,260525,,,A*77
$GNVTG,,T,,M,0.040,N,0.074,K,A*3A
$GNGGA,063800.00,0419.84700,S,05539.61133,E,1,12,0.65,13.5,M,-47.6,M,,*46
$GNGSA,A,3,12,23,24,25,28,29,15,18,05,20,10,,1.13,0.65,0.93*1F
$GNGSA,A,3,78,82,80,68,79,67,83,,,,,,1.13,0.65,0.93*11
$GPGSV,5,1,17,05,39,035,27,10,06,213,18,12,73,087,26,13,13,106,*72
$GPGSV,5,2,17,15,40,136,21,18,32,293,28,20,06,033,18,23,47,211,13*7A
$GPGSV,5,3,17,24,32,176,20,25,60,340,20,28,05,291,24,29,15,347,27*71
$GPGSV,5,4,17,36,52,277,,40,86,351,,41,58,082,,49,32,274,*7C
$GPGSV,5,5,17,50,10,089,*4A
$GLGSV,3,1,09,66,12,061,,67,39,113,16,68,27,173,17,78,45,168,30*6F
$GLGSV,3,2,09,79,70,289,25,80,19,327,15,81,02,017,11,82,12,335,27*66
$GLGSV,3,3,09,83,09,286,16*55
$GNGLL,0419.84700,S,05539.61133,E,063800.00,A,A*6C
$GNRMC,063803.00,A,0419.84705,S,05539.61140,E,0.145,,260525,,,A*71
$GNVTG,,T,,M,0.145,N,0.269,K,A*30
$GNGGA,063803.00,0419.84705,S,05539.61140,E,1,12,0.65,13.4,M,-47.6,M,,*45
$GNGSA,A,3,12,23,24,25,28,29,15,18,05,20,10,,1.13,0.65,0.93*1F
$GNRMC,063804.00,A,0419.84712,S,05539.61134,E,0.075,,260525,,,A*71
$GNVTG,,T,,M,0.075,N,0.140,K,A*3A
$GNGGA,063804.00,0419.84712,S,05539.61134,E,1,12,0.65,13.5,M,-47.6,M,,*46
$GNGSA,A,3,12,23,24,25,28,29,15,18,05,20,10,,1.13,0.65,0.93*1F
$GNGSA,A,3,78,82,80,68,79,67,83,,,,,,1.13,0.65,0.93*11
$GPGSV,5,1,17,05,39,035,27,10,06,213,19,12,73,087,30,13,13,106,*74
$GPGSV,5,2,17,15,40,136,26,18,32,293,27,20,06,033,21,23,47,211,18*73
$GPGSV,5,3,17,24,32,176,24,25,60,340,26,28,05,291,23,29,15,347,30*72
$GPGSV,5,4,17,36,52,277,,40,86,351,,41,58,082,,49,32,274,*7C
$GPGSV,5,5,17,50,10,089,*4A
$GLGSV,3,1,09,66,12,061,,67,39,113,12,68,27,173,22,78,45,168,32*6F
$GLGSV,3,2,09,79,70,289,24,80,20,326,16,81,01,018,05,82,12,335,26*67
$GLGSV,3,3,09,83,09,287,20*51
$GNGLL,0419.84712,S,05539.61134,E,063804.00,A,A*6C
$GNRMC,063805.00,A,0419.84723,S,05539.61128,E,0.065,,260525,,,A*7E
$GNVTG,,T,,M,0.065,N,0.121,K,A*3C
$GNGGA,063805.00,0419.84723,S,05539.61128,E,1,12,0.65,13.4,M,-47.6,M,,*49
$GNGSA,A,3,12,23,24,25,28,29,15,18,05,20,10,,1.13,0.65,0.93*1F
$GNGSA,A,3,78,82,80,68,79,67,83,,,,,,1.13,0.65,0.93*11
$GPGSV,5,1,17,05,39,035,28,10,06,213,17,12,73,087,31,13,13,106,*74
$GPGSV,5,2,17,15,40,136,27,18,32,293,28,20,06,033,22,23,47,211,20*75
$GPGSV,5,3,17,24,32,176,23,25,60,340,28,28,05,291,22,29,15,347,29*72
$GPGSV,5,4,17,36,52,277,,40,86,351,,41,58,082,,49,32,274,*7C
$GPGSV,5,5,17,50,10,089,*4A
$GLGSV,3,1,09,66,12,061,,67,39,113,13,68,27,173,23,78,45,168,32*6F
$GLGSV,3,2,09,79,70,289,24,80,20,326,17,81,01,018,08,82,12,335,27*6A
$GLGSV,3,3,09,83,09,287,21*50
$GNGLL,0419.84723,S,05539.61128,E,063805.00,A,A*62
$GNRMC,063809.00,A,0419.84741,S,05539.61105,E,0.121,,260525,,,A*78
$GNVTG,,T,,M,0.121,N,0.224,K,A*3B
$GNGGA,063809.00,0419.84741,S,05539.61105,E,1,12,0.67,12.9,M,-47.6,M,,*40
$GNGSA,A,3,12,23,24,25,28,29,15,18,05,20,13,10,1.15,0.67,0.94*1E
$GNGSA,A,3,78,82,80,68,79,67,83,,,,,,1.15,0.67,0.94*12
$GPGSV,5,1,17,05,39,035,27,10,06,213,19,12,73,087,31,13,13,106,07*72
$GPGSV,5,2,17,15,40,136,28,18,32,293,28,20,06,033,21,23,47,211,21*78
$GPGSV,5,3,17,24,32,176,24,25,60,340,29,28,05,291,23,29,15,347,30*7D
$GPGSV,5,4,17,36,52,277,,40,86,351,29,41,58,082,,49,32,274,*77
$GPGSV,5,5,17,50,10,089,*4A
$GLGSV,3,1,09,66,12,061,,67,39,113,15,68,27,173,25,78,45,168,31*6C
$GLGSV,3,2,09,79,70,289,27,80,20,326,21,81,01,018,09,82,12,335,29*63
$GLGSV,3,3,09,83,09,287,22*53
$GNGLL,0419.84741,S,05539.61105,E,063809.00,A,A*65
$GNRMC,063811.00,A,0419.84756,S,05539.61094,E,0.038,,260525,,,A*77
$GNVTG,,T,,M,0.038,N,0.071,K,A*30
$GNGGA,063811.00,0419.84756,S,05539.61094,E,1,12,0.67,12.6,M,-47.6,M,,*49
$GNGSA,A,3,12,23,24,25,28,29,15,18,05,20,10,40,1.15,0.67,0.94*18
$GNGSA,A,3,78,82,80,68,79,67,83,,,,,,1.15,0.67,0.94*12
$GPGSV,5,1,17,05,39,035,29,10,06,213,22,12,73,087,33,13,13,106,07*76
$GPGSV,5,2,17,15,40,136,29,18,32,293,28,20,06,033,22,23,47,211,21*7A
$GPGSV,5,3,17,24,32,176,25,25,60,340,30,28,05,291,24,29,15,347,30*73
$GPGSV,5,4,17,36,52,277,,40,86,351,30,41,58,082,,49,32,274,*7F
$GPGSV,5,5,17,50,10,089,*4A
$GLGSV,3,1,09,66,12,061,,67,39,113,15,68,27,173,25,78,45,168,32*6F
$GLGSV,3,2,09,79,70,289,27,80,20,326,20,81,01,018,17,82,12,335,28*6C
$GLGSV,3,3,09,83,09,287,20*51
$GNGLL,0419.84756,S,05539.61094,E,063811.00,A,A*63
$GNRMC,063812.00,A,0419.84762,S,05539.61091,E,0.031,,260525,,,A*7F
$GNVTG,,T,,M,0.031,N,0.057,K,A*3D
$GNGGA,063812.00,0419.84762,S,05539.61091,E,1,12,0.67,12.3,M,-47.6,M,,*4D
$GNGSA,A,3,12,23,24,25,28,29,15,18,05,20,10,40,1.15,0.67,0.94*18
$GNGSA,A,3,78,82,80,68,79,67,83,,,,,,1.15,0.67,0.94*12
$GPGSV,5,1,17,05,39,035,29,10,06,213,21,12,73,087,33,13,13,106,07*75
$GPGSV,5,2,17,15,40,136,30,18,32,293,28,20,06,033,21,23,47,211,21*71
$GPGSV,5,3,17,24,32,176,26,25,60,340,30,28,05,291,25,29,15,347,28*78
$GPGSV,5,4,17,36,52,277,,40,86,351,29,41,58,082,,49,32,274,*77
$GPGSV,5,5,17,50,10,089,*4A
$GLGSV,3,1,09,66,12,061,,67,39,113,16,68,27,173,24,78,45,168,32*6D
$GLGSV,3,2,09,79,70,289,28,80,20,326,21,81,01,018,17,82,12,335,28*62
$GLGSV,3,3,09,83,09,287,20*51
$GNGLL,0419.84762,S,05539.61091,E,063812.00,A,A*62
$GNRMC,063814.00,A,0419.84761,S,05539.61095,E,0.093,,260525,,,A*76
$GNVTG,,T,,M,0.093,N,0.173,K,A*32
$GNGGA,063814.00,0419.84761,S,05539.61095,E,1,12,0.65,12.4,M,-47.6,M,,*49
$GNGSA,A,3,12,23,24,25,28,29,15,18,05,20,13,10,1.13,0.65,0.93*1D
$GNGSA,A,3,78,82,80,68,79,67,83,,,,,,1.13,0.65,0.93*11
$GPGSV,5,1,17,05,38,035,28,10,06,213,22,12,73,087,33,13,13,106,09*78
$GPGSV,5,2,17,15,40,136,30,18,32,293,29,20,06,033,20,23,47,211,20*70
$GPGSV,5,3,17,24,32,176,26,25,60,340,31,28,05,291,25,29,15,347,29*78
$GPGSV,5,4,17,36,52,277,,40,86,351,29,41,58,082,,49,32,274,*77
$GPGSV,5,5,17,50,10,089,*4A
$GLGSV,3,1,09,66,12,061,,67,39,113,12,68,27,173,23,78,45,168,31*6D
$GLGSV,3,2,09,79,70,289,28,80,20,326,21,81,01,018,18,82,12,335,28*6D
$GLGSV,3,3,09,83,09,287,19*5B
$GNGLL,0419.84761,S,05539.61095,E,063814.00,A,A*63
$GNRMC,063815.00,A,0419.84765,S,05539.61095,E,0.057,,260525,,,A*7B
$GNVTG,,T,,M,0.057,N,0.105,K,A*3B
$GNGGA,063815.00,0419.84765,S,05539.61095,E,1,12,0.67,12.2,M,-47.6,M,,*48
$GNGSA,A,3,12,23,24,25,28,29,15,18,05,20,10,,1.15,0.67,0.94*1C
$GNGSA,A,3,78,82,80,68,79,67,83,,,,,,1.15,0.67,0.94*12
$GPGSV,5,1,17,05,38,035,27,10,06,213,22,12,73,087,33,13,13,106,09*77
$GPGSV,5,2,17,15,40,136,30,18,32,293,29,20,06,033,21,23,47,211,19*7B
$GPGSV,5,3,17,24,32,176,25,25,60,340,30,28,05,291,25,29,15,347,30*72
$GPGSV,5,4,17,36,52,277,,40,86,351,27,41,58,082,,49,32,274,*79
$GPGSV,5,5,17,50,10,089,*4A
$GLGSV,3,1,09,66,12,061,,67,39,113,11,68,27,173,23,78,45,168,31*6E
$GLGSV,3,2,09,79,70,289,28,80,20,326,21,81,01,018,18,82,12,335,28*6D
$GLGSV,3,3,09,83,09,287,21*50
$GNGLL,0419.84765,S,05539.61095,E,063815.00,A,A*66
$GNRMC,063818.00,A,0419.84772,S,05539.61099,E,0.099,,260525,,,A*7E
$GNVTG,,T,,M,0.099,N,0.183,K,A*37
$GNGGA,063818.00,0419.84772,S,05539.61099,E,1,12,0.68,11.7,M,-47.6,M,,*46
$GNGSA,A,3,12,23,24,25,28,29,15,18,05,20,13,10,1.15,0.68,0.93*16
$GNGSA,A,3,78,82,80,68,79,67,83,,,,,,1.15,0.68,0.93*1A
$GPGSV,5,1,17,05,38,035,26,10,06,213,23,12,73,087,29,13,13,106,09*7C
$GPGSV,5,2,17,15,40,136,28,18,32,293,28,20,06,033,19,23,47,211,23*71
$GPGSV,5,3,17,24,32,176,26,25,60,340,29,28,05,291,25,29,15,347,29*71
$GPGSV,5,4,17,36,52,277,,40,86,351,29,41,58,082,,49,32,274,*77
$GPGSV,5,5,17,50,10,089,*4A
$GLGSV,3,1,09,66,12,061,,67,39,113,12,68,27,173,18,78,45,168,29*6C
$GLGSV,3,2,09,79,70,289,28,80,20,326,23,81,01,018,26,82,12,335,28*62
$GLGSV,3,3,09,83,09,287,23*52
$GNGLL,0419.84772,S,05539.61099,E,063818.00,A,A*61
$GNRMC,063822.00,A,0419.84771,S,05539.61121,E,0.149,,260525,,,A*7A
$GNVTG,,T,,M,0.149,N,0.275,K,A*31
$GNGGA,063822.00,0419.84771,S,05539.61121,E,1,12,0.67,11.4,M,-47.6,M,,*42
$GNGSA,A,3,12,23,24,25,28,29,15,18,05,20,10,,1.15,0.67,0.94*1C
$GNGSA,A,3,78,82,80,68,79,67,83,,,,,,1.15,0.67,0.94*12
$GPGSV,5,1,17,05,38,035,25,10,07,213,17,12,73,090,27,13,13,105,09*72
$GPGSV,5,2,17,15,40,136,28,18,32,293,26,20,06,033,20,23,47,211,25*73
$GPGSV,5,3,17,24,32,176,26,25,60,340,29,28,05,291,24,29,15,347,28*71
$GPGSV,5,4,17,36,52,277,,40,86,351,27,41,58,082,,49,32,274,*79
$GPGSV,5,5,17,50,10,089,*4A
$GLGSV,3,1,09,66,12,061,,67,39,113,11,68,27,173,20,78,45,168,29*64
$GLGSV,3,2,09,79,70,289,25,80,20,326,22,81,01,018,21,82,12,335,29*68
$GLGSV,3,3,09,83,09,287,22*53
$GNGLL,0419.84771,S,05539.61121,E,063822.00,A,A*69
$GNRMC,063824.00,A,0419.84773,S,05539.61131,E,0.087,,260525,,,A*7C
$GNVTG,,T,,M,0.087,N,0.161,K,A*34
$GNGGA,063824.00,0419.84773,S,05539.61131,E,1,12,0.67,11.3,M,-47.6,M,,*40
$GNGSA,A,3,12,23,24,25,28,29,15,18,05,20,10,,1.15,0.67,0.94*1C
$GNGSA,A,3,78,82,80,68,79,67,83,,,,,,1.15,0.67,0.94*12
$GPGSV,5,1,17,05,38,035,25,10,07,213,18,12,73,090,29,13,13,105,10*7B
$GPGSV,5,2,17,15,40,135,28,18,32,293,27,20,06,033,19,23,47,211,25*7B
$GPGSV,5,3,17,24,32,176,26,25,60,340,29,28,05,291,24,29,15,347,29*70
$GPGSV,5,4,17,36,52,277,,40,86,351,28,41,58,082,,49,32,274,*76
$GPGSV,5,5,17,50,10,089,*4A
$GLGSV,3,1,09,66,12,061,,67,39,113,12,68,27,173,20,78,45,168,29*67
$GLGSV,3,2,09,79,70,289,26,80,20,326,22,81,01,018,18,82,12,335,28*60
$GLGSV,3,3,09,83,09,287,22*53
$GNGLL,0419.84773,S,05539.61131,E,063824.00,A,A*6C
$GNRMC,063827.00,A,0419.84780,S,05539.61135,E,0.183,,260525,,,A*72
$GNVTG,,T,,M,0.183,N,0.339,K,A*3E
$GNGGA,063827.00,0419.84780,S,05539.61135,E,1,12,0.67,11.1,M,-47.6,M,,*49
$GNGSA,A,3,12,23,24,25,28,29,15,18,05,20,10,,1.15,0.67,0.94*1C
$GNGSA,A,3,78,82,80,68,79,67,83,,,,,,1.15,0.67,0.94*12
$GPGSV,5,1,17,05,38,035,25,10,07,213,19,12,73,090,32,13,13,105,*71
$GPGSV,5,2,17,15,40,135,29,18,32,293,29,20,06,033,20,23,47,211,25*7E
$GPGSV,5,3,17,24,32,176,27,25,60,340,31,28,05,291,26,29,15,347,32*70
$GPGSV,5,4,17,36,52,277,,40,86,351,27,41,58,082,,49,32,274,*79
$GPGSV,5,5,17,50,10,089,*4A
$GLGSV,3,1,09,66,12,061,,67,39,113,18,68,27,173,22,78,45,168,29*6F
$GLGSV,3,2,09,79,70,289,26,80,20,326,23,81,01,018,20,82,12,335,29*6B
$GLGSV,3,3,09,83,09,287,22*53
$GNGLL,0419.84780,S,05539.61135,E,063827.00,A,A*67
$GNRMC,063829.00,A,0419.84781,S,05539.61145,E,0.107,,260525,,,A*76
$GNVTG,,T,,M,0.107,N,0.199,K,A*3A
$GNGGA,063829.00,0419.84781,S,05539.61145,E,1,12,0.67,11.2,M,-47.6,M,,*42
$GNGSA,A,3,12,23,24,25,28,29,15,18,05,20,10,,1.15,0.67,0.94*1C
$GNGSA,A,3,78,82,80,68,79,67,83,,,,,,1.15,0.67,0.94*12
$GPGSV,5,1,17,05,38,035,25,10,07,213,21,12,73,090,30,13,13,105,14*7D
$GPGSV,5,2,17,15,40,135,30,18,32,293,28,20,06,033,17,23,47,211,23*75
$GPGSV,5,3,17,24,32,176,28,25,60,340,30,28,05,291,26,29,15,347,31*7D
$GPGSV,5,4,17,36,52,277,,40,86,351,28,41,58,082,,49,32,274,*76
$GPGSV,5,5,17,50,10,089,*4A
$GLGSV,3,1,09,66,12,061,,67,39,113,19,68,27,173,23,78,45,168,29*6F
$GLGSV,3,2,09,79,70,289,26,80,20,326,24,81,01,018,19,82,12,335,28*67
$GLGSV,3,3,09,83,09,287,22*53
$GNGLL,0419.84781,S,05539.61145,E,063829.00,A,A*6F
$GNRMC,063833.00,A,0419.84773,S,05539.61162,E,0.160,,260525,,,A*74
$GNVTG,,T,,M,0.160,N,0.297,K,A*36
$GNGGA,063833.00,0419.84773,S,05539.61162,E,1,12,0.67,11.5,M,-47.6,M,,*46
$GNGSA,A,3,12,23,24,25,28,29,15,18,05,20,10,,1.15,0.67,0.94*1C
$GNGSA,A,3,78,82,80,68,79,67,83,,,,,,1.15,0.67,0.94*12
$GPGSV,5,1,17,05,38,035,27,10,07,213,19,12,73,090,31,13,13,105,10*71
$GPGSV,5,2,17,15,40,135,31,18,32,293,26,20,06,033,19,23,48,212,15*7D
$GPGSV,5,3,17,24,32,175,26,25,61,340,30,28,05,291,28,29,15,347,31*7F
$GPGSV,5,4,17,36,52,277,,40,86,351,28,41,58,082,,49,32,274,*76
$GPGSV,5,5,17,50,10,089,*4A
$GLGSV,3,1,09,66,12,061,,67,39,113,18,68,27,173,21,78,45,168,29*6C
$GLGSV,3,2,09,79,70,289,26,80,20,326,20,81,01,018,17,82,12,335,23*66
$GLGSV,3,3,09,83,09,287,20*51
$GNGLL,0419.84773,S,05539.61162,E,063833.00,A,A*6C
$GNRMC,063835.00,A,0419.84767,S,05539.61169,E,0.077,,260525,,,A*7B
$GNVTG,,T,,M,0.077,N,0.143,K,A*3B
$GNGGA,063835.00,0419.84767,S,05539.61169,E,1,12,0.65,11.7,M,-47.6,M,,*4E
$GNGSA,A,3,12,23,24,25,28,29,15,18,05,20,10,,1.13,0.65,0.93*1F
$GNGSA,A,3,78,82,80,68,79,67,83,,,,,,1.13,0.65,0.93*11
$GPGSV,5,1,17,05,38,035,33,10,07,213,18,12,73,090,31,13,13,105,08*7C
$GPGSV,5,2,17,15,40,135,30,18,32,293,27,20,06,033,18,23,48,212,15*7C
$GPGSV,5,3,17,24,32,175,27,25,61,340,29,28,05,291,28,29,15,347,31*76
$GPGSV,5,4,17,36,52,277,,40,86,351,29,41,58,082,,49,32,274,*77
$GPGSV,5,5,17,50,10,089,*4A
$GLGSV,3,1,09,66,12,061,,67,39,113,19,68,27,173,21,78,45,168,30*65
$GLGSV,3,2,09,79,70,289,25,80,20,326,18,81,01,018,16,82,12,335,23*6F
$GLGSV,3,3,09,83,09,287,17*55
$GNGLL,0419.84767,S,05539.61169,E,063835.00,A,A*64
$GNRMC,063836.00,A,0419.84765,S,05539.61173,E,0.031,,260525,,,A*73
$GNVTG,,T,,M,0.031,N,0.058,K,A*32
$GNGGA,063836.00,0419.84765,S,05539.61173,E,1,12,0.68,11.9,M,-47.6,M,,*47
$GNGSA,A,3,12,24,25,28,29,15,18,05,20,10,,,1.18,0.68,0.96*1D
$GNGSA,A,3,78,82,80,68,79,67,83,,,,,,1.18,0.68,0.96*12
$GPGSV,5,1,17,05,38,035,33,10,07,213,17,12,73,090,29,13,13,105,08*7A
$GPGSV,5,2,17,15,40,135,29,18,32,293,24,20,06,033,17,23,48,212,*7C
$GPGSV,5,3,17,24,32,175,27,25,61,340,21,28,05,290,28,29,15,347,31*7F
$GPGSV,5,4,17,36,52,277,,40,86,351,26,41,58,082,,49,32,274,*78
$GPGSV,5,5,17,50,10,089,*4A
$GLGSV,3,1,09,66,12,061,,67,39,113,21,68,27,173,20,78,45,168,30*6F
$GLGSV,3,2,09,79,70,289,26,80,20,326,16,81,01,018,17,82,12,335,23*63
$GLGSV,3,3,09,83,09,287,17*55
$GNGLL,0419.84765,S,05539.61173,E,063836.00,A,A*6E
$GNRMC,063837.00,A,0419.84761,S,05539.61178,E,0.107,,260525,,,A*79
$GNVTG,,T,,M,0.107,N,0.198,K,A*3B
$GNGGA,063837.00,0419.84761,S,05539.61178,E,1,12,0.66,12.1,M,-47.6,M,,*4C
$GNGSA,A,3,12,24,25,28,29,15,18,05,20,10,,,1.16,0.66,0.95*1E
$GNGSA,A,3,78,82,80,68,79,67,83,,,,,,1.16,0.66,0.95*11
$GPGSV,5,1,17,05,38,035,31,10,07,213,16,12,73,090,28,13,13,105,07*77
$GPGSV,5,2,17,15,40,135,28,18,32,293,22,20,06,033,16,23,48,212,*7A
$GPGSV,5,3,17,24,32,175,26,25,61,340,21,28,05,290,27,29,15,348,29*77
$GPGSV,5,4,17,36,52,277,,40,86,351,,41,58,082,,49,32,274,*7C
$GPGSV,5,5,17,50,10,089,*4A
$GLGSV,3,1,09,66,12,061,,67,39,113,22,68,27,173,20,78,45,168,30*6C
$GLGSV,3,2,09,79,70,289,25,80,20,326,15,81,01,018,17,82,12,335,22*62
$GLGSV,3,3,09,83,09,287,17*55
$GNGLL,0419.84761,S,05539.61178,E,063837.00,A,A*60
$GNRMC,063838.00,A,0419.84758,S,05539.61184,E,0.028,,260525,,,A*73
$GNVTG,,T,,M,0.028,N,0.051,K,A*33
$GNGGA,063838.00,0419.84758,S,05539.61184,E,1,12,0.66,12.2,M,-47.6,M,,*49
$GNGSA,A,3,12,24,25,28,29,15,18,05,20,10,,,1.16,0.66,0.95*1E
$GNGSA,A,3,78,82,80,68,79,67,83,,,,,,1.16,0.66,0.95*11
$GPGSV,5,1,17,05,38,035,33,10,07,213,15,12,73,090,27,13,13,105,08*76
$GPGSV,5,2,17,15,40,135,27,18,32,293,20,20,06,033,16,23,48,212,*77
$GPGSV,5,3,17,24,32,175,27,25,61,340,22,28,05,290,26,29,15,348,29*74
$GPGSV,5,4,17,36,52,277,,40,86,351,,41,58,082,,49,32,274,*7C
$GPGSV,5,5,17,50,10,089,*4A
$GLGSV,3,1,09,66,12,061,,67,39,113,23,68,27,173,21,78,45,168,29*64
$GLGSV,3,2,09,79,70,289,26,80,20,326,13,81,01,018,17,82,12,335,25*60
$GLGSV,3,3,09,83,09,287,19*5B
$GNGLL,0419.84758,S,05539.61184,E,063838.00,A,A*66
$GNRMC,063839.00,A,0419.84756,S,05539.61192,E,0.117,,260525,,,A*76
$GNVTG,,T,,M,0.117,N,0.217,K,A*3E
$GNGGA,063839.00,0419.84756,S,05539.61192,E,1,12,0.68,12.2,M,-47.6,M,,*4F
$GNGSA,A,3,12,24,25,28,29,15,18,05,20,10,,,1.18,0.68,0.96*1D
$GNGSA,A,3,78,82,80,68,79,67,83,,,,,,1.18,0.68,0.96*12
$GPGSV,5,1,17,05,38,035,33,10,07,213,15,12,73,090,27,13,13,105,08*76
$GPGSV,5,2,17,15,40,135,25,18,32,293,23,20,06,033,16,23,48,212,19*7E
$GPGSV,5,3,17,24,32,175,26,25,61,340,25,28,05,290,26,29,15,348,28*73
$GPGSV,5,4,17,36,52,277,,40,86,351,,41,58,082,,49,32,274,*7C
$GPGSV,5,5,17,50,10,089,*4A
$GLGSV,3,1,09,66,12,061,,67,39,113,23,68,27,173,21,78,45,168,30*6C
$GLGSV,3,2,09,79,70,289,26,80,20,326,19,81,01,018,18,82,12,335,29*69
$GLGSV,3,3,09,83,09,287,19*5B
$GNGLL,0419.84756,S,05539.61192,E,063839.00,A,A*6E
$GNRMC,063840.00,A,0419.84754,S,05539.61194,E,0.093,,260525,,,A*71
$GNVTG,,T,,M,0.093,N,0.172,K,A*33
$GNGGA,063840.00,0419.84754,S,05539.61194,E,1,12,0.66,12.2,M,-47.6,M,,*4B
$GNGSA,A,3,12,24,25,28,29,15,18,05,20,10,,,1.16,0.66,0.95*1E
$GNGSA,A,3,78,82,80,68,79,67,83,,,,,,1.16,0.66,0.95*11
$GPGSV,5,1,17,05,38,035,33,10,07,213,14,12,73,090,26,13,13,105,08*76
$GPGSV,5,2,17,15,40,135,26,18,32,293,25,20,06,033,17,23,48,212,17*74
$GPGSV,5,3,17,24,32,175,27,25,61,340,26,28,05,290,25,29,15,348,25*7F
$GPGSV,5,4,17,36,52,277,,40,86,351,,41,58,082,,49,32,274,*7C
$GPGSV,5,5,17,50,10,089,*4A
$GLGSV,3,1,09,66,12,061,,67,39,113,23,68,27,173,19,78,45,168,30*67
$GLGSV,3,2,09,79,70,289,26,80,20,326,21,81,01,018,16,82,12,335,29*6C
$GLGSV,3,3,09,83,09,287,21*50
$GNGLL,0419.84754,S,05539.61194,E,063840.00,A,A*64
$GNRMC,063841.00,A,0419.84751,S,05539.61200,E,0.237,,260525,,,A*77
$GNVTG,,T,,M,0.237,N,0.439,K,A*35
$GNGGA,063841.00,0419.84751,S,05539.61200,E,1,12,0.66,12.2,M,-47.6,M,,*41
$GNGSA,A,3,12,24,25,28,29,15,18,05,20,10,,,1.16,0.66,0.95*1E
$GNGSA,A,3,78,82,80,68,79,67,83,,,,,,1.16,0.66,0.95*11
$GPGSV,5,1,17,05,38,035,30,10,07,213,12,12,73,090,24,13,13,105,08*71
$GPGSV,5,2,17,15,40,135,25,18,32,293,24,20,06,033,18,23,48,212,17*79
$GPGSV,5,3,17,24,32,175,26,25,61,340,25,28,05,290,25,29,15,348,25*7D
$GPGSV,5,4,17,36,52,277,,40,86,351,,41,58,082,,49,32,274,*7C
$GPGSV,5,5,17,50,10,089,*4A
$GLGSV,3,1,09,66,12,061,,67,39,113,20,68,27,173,16,78,45,168,28*62
$GLGSV,3,2,09,79,70,289,24,80,20,326,19,81,01,018,12,82,12,335,28*60
$GLGSV,3,3,09,83,09,287,17*55
$GNGLL,0419.84751,S,05539.61200,E,063841.00,A,A*6E
$GNRMC,063843.00,A,0419.84748,S,05539.61199,E,0.086,,260525,,,A*76
$GNVTG,,T,,M,0.086,N,0.160,K,A*34
$GNGGA,063843.00,0419.84748,S,05539.61199,E,1,12,0.65,12.5,M,-47.6,M,,*4C
$GNGSA,A,3,12,23,24,25,28,29,15,18,05,20,10,,1.13,0.65,0.93*1F
$GNGSA,A,3,78,82,80,68,79,67,83,,,,,,1.13,0.65,0.93*11
$GPGSV,5,1,17,05,38,035,31,10,07,213,15,12,73,090,21,13,13,105,08*72
$GPGSV,5,2,17,15,40,135,24,18,32,293,23,20,06,033,19,23,48,212,16*7F
$GPGSV,5,3,17,24,32,175,28,25,61,340,25,28,05,290,26,29,15,348,23*76
$GPGSV,5,4,17,36,52,277,,40,86,351,,41,58,082,,49,32,274,*7C
$GPGSV,5,5,17,50,10,089,*4A
$GLGSV,3,1,09,66,12,061,,67,39,113,22,68,27,173,16,78,45,168,29*61
$GLGSV,3,2,09,79,70,289,24,80,20,326,19,81,01,018,15,82,12,335,26*69
$GLGSV,3,3,09,83,09,287,15*57
$GNGLL,0419.84748,S,05539.61199,E,063843.00,A,A*67
$GNRMC,063844.00,A,0419.84745,S,05539.61201,E,0.026,,260525,,,A*74
$GNVTG,,T,,M,0.026,N,0.048,K,A*35
$GNGGA,063844.00,0419.84745,S,05539.61201,E,1,12,0.67,12.4,M,-47.6,M,,*47
$GNGSA,A,3,12,23,24,25,28,29,15,18,05,20,13,10,1.18,0.67,0.97*10
$GNGSA,A,3,78,82,80,68,79,67,83,,,,,,1.18,0.67,0.97*1C
$GPGSV,5,1,17,05,38,035,31,10,07,213,07,12,73,090,23,13,13,105,09*72
$GPGSV,5,2,17,15,40,135,23,18,32,293,22,20,06,033,17,23,48,212,17*76
$GPGSV,5,3,17,24,32,175,27,25,61,340,25,28,05,290,26,29,15,348,21*7B
$GPGSV,5,4,17,36,52,277,,40,86,351,,41,58,082,,49,32,274,*7C
$GPGSV,5,5,17,50,10,089,*4A
$GLGSV,3,1,09,66,12,061,,67,39,113,21,68,27,173,17,78,45,168,28*62
$GLGSV,3,2,09,79,70,289,24,80,20,326,18,81,01,018,16,82,12,335,26*6B
$GLGSV,3,3,09,83,09,287,08*5B
$GNGLL,0419.84745,S,05539.61201,E,063844.00,A,A*6F
$GNRMC,063850.00,A,0419.84733,S,05539.61201,E,0.018,,260525,,,A*7D
$GNVTG,,T,,M,0.018,N,0.033,K,A*34
$GNGGA,063850.00,0419.84733,S,05539.61201,E,1,12,0.72,12.0,M,-47.6,M,,*43
$GNGSA,A,3,12,23,24,25,28,29,15,18,05,20,,,1.27,0.72,1.04*10
$GNGSA,A,3,78,82,80,68,79,67,83,,,,,,1.27,0.72,1.04*1F
$GPGSV,5,1,17,05,38,035,31,10,07,213,18,12,73,090,30,13,13,105,11*77
$GPGSV,5,2,17,15,40,135,23,18,32,293,23,20,06,033,11,23,48,212,20*75
$GPGSV,5,3,17,24,32,175,27,25,61,340,26,28,05,290,26,29,15,348,25*7C
$GPGSV,5,4,17,36,52,277,,40,86,351,,41,58,082,,49,32,274,*7C
$GPGSV,5,5,17,50,10,089,*4A
$GLGSV,3,1,09,66,12,061,,67,39,113,24,68,27,173,19,78,45,168,31*61
$GLGSV,3,2,09,79,70,289,26,80,20,326,22,81,01,018,11,82,12,335,29*68
$GLGSV,3,3,09,83,09,287,10*52
$GNGLL,0419.84733,S,05539.61201,E,063850.00,A,A*6B
$GNRMC,063905.00,A,0419.84719,S,05539.61240,E,0.178,,260525,,,A*76
$GNVTG,,T,,M,0.178,N,0.329,K,A*3B
$GNGGA,063905.00,0419.84719,S,05539.61240,E,1,12,0.73,12.1,M,-47.6,M,,*4F
$GNGSA,A,3,12,23,24,25,28,29,15,18,05,20,,,1.27,0.73,1.04*11
$GNGSA,A,3,78,82,68,79,67,,,,,,,,1.27,0.73,1.04*1D
$GPGSV,5,1,17,05,38,035,29,10,07,213,10,12,73,090,26,13,13,105,07*76
$GPGSV,5,2,17,15,40,135,24,18,32,293,16,20,06,033,16,23,48,212,22*71
$GPGSV,5,3,17,24,32,175,26,25,61,340,23,28,05,290,24,29,15,348,27*78
$GPGSV,5,4,17,36,52,277,,40,86,351,,41,58,082,,49,32,274,*7C
$GPGSV,5,5,17,50,10,089,*4A
$GLGSV,3,1,09,66,12,060,,67,39,112,21,68,28,173,23,78,45,168,30*63
$GLGSV,3,2,09,79,70,289,23,80,20,326,14,81,01,018,09,82,12,335,26*6E
$GLGSV,3,3,09,83,09,287,*53
$GNGLL,0419.84719,S,05539.61240,E,063905.00,A,A*67
$GNRMC,063909.00,A,0419.84720,S,05539.61288,E,0.117,,260525,,,A*7D
$GNVTG,,T,,M,0.117,N,0.216,K,A*3F
$GNGGA,063909.00,0419.84720,S,05539.61288,E,1,12,0.73,11.0,M,-47.6,M,,*4F
$GNGSA,A,3,12,23,24,25,28,29,15,18,05,13,10,,1.26,0.73,1.03*16
$GNGSA,A,3,78,82,80,68,79,67,,,,,,,1.26,0.73,1.03*13
$GPGSV,5,1,17,05,38,035,29,10,07,213,13,12,73,090,28,13,13,105,11*7C
$GPGSV,5,2,17,15,40,135,24,18,32,293,18,20,06,033,,23,48,212,25*7F
$GPGSV,5,3,17,24,32,175,27,25,61,340,25,28,05,290,26,29,15,348,25*7F
$GPGSV,5,4,17,36,52,277,,40,86,351,,41,58,082,,49,32,274,*7C
$GPGSV,5,5,17,50,10,089,*4A
$GLGSV,3,1,09,66,12,060,,67,39,112,17,68,28,173,21,78,45,168,29*6C
$GLGSV,3,2,09,79,70,289,22,80,20,326,14,81,01,018,07,82,12,335,25*62
$GLGSV,3,3,09,83,09,287,*53
$GNGLL,0419.84720,S,05539.61288,E,063909.00,A,A*65
$GNRMC,063910.00,A,0419.84717,S,05539.61302,E,0.166,,260525,,,A*74
$GNVTG,,T,,M,0.166,N,0.308,K,A*37
$GNGGA,063910.00,0419.84717,S,05539.61302,E,1,12,0.73,10.5,M,-47.6,M,,*44
$GNGSA,A,3,12,23,24,25,28,29,15,18,05,13,10,,1.26,0.73,1.03*16
$GNGSA,A,3,78,82,80,68,79,67,,,,,,,1.26,0.73,1.03*13
$GPGSV,5,1,17,05,38,035,28,10,07,213,14,12,73,090,28,13,13,105,12*79
$GPGSV,5,2,17,15,40,135,24,18,32,293,19,20,06,033,,23,48,212,24*7F
$GPGSV,5,3,17,24,32,175,28,25,61,340,25,28,05,290,25,29,15,348,23*75
$GPGSV,5,4,17,36,52,277,,40,86,351,,41,58,082,,49,32,274,*7C
$GPGSV,5,5,17,50,10,089,*4A
$GLGSV,3,1,09,66,12,060,,67,39,112,17,68,28,173,21,78,45,168,29*6C
$GLGSV,3,2,09,79,70,289,20,80,20,326,13,81,01,018,07,82,12,335,25*67
$GLGSV,3,3,09,83,09,287,*53
$GNGLL,0419.84717,S,05539.61302,E,063910.00,A,A*6A
$GNRMC,063911.00,A,0419.84717,S,05539.61311,E,0.054,,260525,,,A*77
$GNVTG,,T,,M,0.054,N,0.101,K,A*3C
$GNGGA,063911.00,0419.84717,S,05539.61311,E,1,12,0.82,10.4,M,-47.6,M,,*48
$GNGSA,A,3,12,23,24,25,28,29,15,18,05,10,,,1.43,0.82,1.17*1C
$GNGSA,A,3,78,82,80,68,79,67,,,,,,,1.43,0.82,1.17*1B
$GPGSV,5,1,17,05,38,035,28,10,07,213,12,12,73,090,30,13,13,105,*75
$GPGSV,5,2,17,15,40,135,25,18,32,293,19,20,06,033,,23,48,212,23*79
$GPGSV,5,3,17,24,32,175,28,25,61,340,25,28,05,290,23,29,15,348,21*71
$GPGSV,5,4,17,36,52,277,,40,86,351,,41,58,082,,49,32,274,*7C
$GPGSV,5,5,17,50,10,089,*4A
$GLGSV,3,1,09,66,12,060,,67,39,112,15,68,28,173,22,78,45,168,30*65
$GLGSV,3,2,09,79,70,289,19,80,20,326,14,81,01,018,08,82,12,335,24*64
$GLGSV,3,3,09,83,09,287,*53
$GNGLL,0419.84717,S,05539.61311,E,063911.00,A,A*69
$GNRMC,063913.00,A,0419.84723,S,05539.61334,E,0.072,,260525,,,A*71
$GNVTG,,T,,M,0.072,N,0.133,K,A*39
$GNGGA,063913.00,0419.84723,S,05539.61334,E,1,12,0.81,10.1,M,-47.6,M,,*4C
$GNGSA,A,3,12,23,24,25,28,29,15,18,05,,,,1.42,0.81,1.17*1F
$GNGSA,A,3,78,82,80,68,79,67,,,,,,,1.42,0.81,1.17*19
$GPGSV,5,1,17,05,38,035,28,10,07,213,09,12,73,090,30,13,13,105,*7F
$GPGSV,5,2,17,15,40,135,27,18,32,293,22,20,06,033,,23,48,212,21*71
$GPGSV,5,3,17,24,32,175,27,25,61,340,26,28,05,290,23,29,15,348,27*7B
$GPGSV,5,4,17,36,52,277,,40,86,351,,41,58,082,,49,32,274,*7C
$GPGSV,5,5,17,50,10,089,*4A
$GLGSV,3,1,09,66,12,060,,67,39,112,19,68,28,173,22,78,45,168,30*69
$GLGSV,3,2,09,79,70,289,21,80,20,326,13,81,01,018,09,82,12,335,28*65
$GLGSV,3,3,09,83,09,287,*53
$GNGLL,0419.84723,S,05539.61334,E,063913.00,A,A*6B
$GNRMC,063915.00,A,0419.84724,S,05539.61339,E,0.016,,260525,,,A*7F
$GNVTG,,T,,M,0.016,N,0.029,K,A*31
$GNGGA,063915.00,0419.84724,S,05539.61339,E,1,12,0.81,9.7,M,-47.6,M,,*7E
$GNGSA,A,3,12,23,24,25,28,29,15,18,05,10,,,1.42,0.81,1.17*1E
$GNRMC,063922.00,A,0419.84710,S,05539.61359,E,0.099,,260525,,,A*7D
$GNVTG,,T,,M,0.099,N,0.183,K,A*37
$GNGGA,063922.00,0419.84710,S,05539.61359,E,1,12,0.75,10.2,M,-47.6,M,,*4D
$GNGSA,A,3,12,23,24,25,28,29,15,18,05,10,,,1.30,0.75,1.06*10
$GNGSA,A,3,78,82,80,68,79,67,83,,,,,,1.30,0.75,1.06*1C
$GPGSV,5,1,17,05,38,035,28,10,07,213,20,12,73,090,30,13,13,105,*74
$GPGSV,5,2,17,15,40,135,28,18,32,293,13,20,06,033,13,23,48,212,14*78
$GPGSV,5,3,17,24,32,175,24,25,61,340,27,28,05,290,22,29,15,348,32*7C
$GPGSV,5,4,17,36,52,277,,40,86,351,,41,58,082,,49,32,274,*7C
$GPGSV,5,5,17,50,10,089,*4A
$GLGSV,3,1,09,66,12,060,,67,39,112,14,68,28,173,24,78,44,168,32*61
$GLGSV,3,2,09,79,71,287,24,80,20,326,13,81,01,018,15,82,11,336,28*62
$GLGSV,3,3,09,83,09,287,25*54
$GNGLL,0419.84710,S,05539.61359,E,063922.00,A,A*62
$GNRMC,063923.00,A,0419.84707,S,05539.61358,E,0.059,,260525,,,A*77
$GNRMC,063926.00,A,0419.84701,S,05539.61369,E,0.456,,260525,,,A*7D
$GNVTG,,T,,M,0.456,N,0.844,K,A*32
$GNGGA,063926.00,0419.84701,S,05539.61369,E,1,12,0.64,10.8,M,-47.6,M,,*40
$GNGSA,A,3,12,23,24,25,28,29,15,18,05,20,10,,1.13,0.64,0.93*1E
$GNGSA,A,3,78,82,80,68,79,67,83,,,,,,1.13,0.64,0.93*10
$GPGSV,5,1,17,05,38,035,28,10,07,213,19,12,73,090,30,13,13,105,19*76
$GPGSV,5,2,17,15,40,135,30,18,32,293,18,20,06,033,18,23,48,212,12*77
$GPGSV,5,3,17,24,32,175,24,25,61,340,27,28,05,290,20,29,15,348,32*7E
$GPGSV,5,4,17,36,52,277,,40,86,351,,41,58,082,,49,32,274,*7C
$GPGSV,5,5,17,50,10,089,*4A
$GLGSV,3,1,09,66,12,060,,67,39,112,16,68,28,173,24,78,44,168,32*63
$GLGSV,3,2,09,79,71,287,24,80,20,326,15,81,01,018,12,82,11,336,29*62
$GLGSV,3,3,09,83,09,287,26*57
$GNGLL,0419.84701,S,05539.61369,E,063926.00,A,A*65
$GNRMC,063929.00,A,0419.84700,S,05539.61362,E,0.059,,260525,,,A*73
$GNVTG,,T,,M,0.059,N,0.109,K,A*39
$GNGGA,063929.00,0419.84700,S,05539.61362,E,1,12,0.66,11.2,M,-47.6,M,,*4C
$GNGSA,A,3,12,24,25,28,29,15,18,05,20,10,,,1.16,0.66,0.95*1E
$GNGSA,A,3,78,82,80,68,79,67,83,,,,,,1.16,0.66,0.95*11
$GPGSV,5,1,17,05,37,034,28,10,07,213,17,12,73,090,29,13,13,105,08*7E
$GPGSV,5,2,17,15,40,135,29,18,32,293,18,20,06,033,19,23,48,212,10*7C
$GPGSV,5,3,17,24,32,175,22,25,61,340,27,28,05,290,22,29,15,348,33*7B
$GPGSV,5,4,17,36,52,277,,40,86,351,,41,58,082,,49,32,274,*7C
$GPGSV,5,5,17,50,10,089,*4A
$GLGSV,3,1,09,66,12,060,,67,39,112,15,68,28,173,24,78,44,168,31*63
$GLGSV,3,2,09,79,71,287,23,80,20,326,14,81,01,018,10,82,11,336,28*67
$GLGSV,3,3,09,83,09,287,26*57
$GNGLL,0419.84700,S,05539.61362,E,063929.00,A,A*60
$GNRMC,063930.00,A,0419.84697,S,05539.61363,E,0.174,,260525,,,A*7B
$GNVTG,,T,,M,0.174,N,0.323,K,A*3D
$GNGGA,063930.00,0419.84697,S,05539.61363,E,1,12,0.66,11.3,M,-47.6,M,,*4B
$GNGSA,A,3,12,24,25,28,29,15,18,05,20,10,,,1.16,0.66,0.95*1E
$GNGSA,A,3,78,82,80,68,79,67,83,,,,,,1.16,0.66,0.95*11
$GPGSV,5,1,17,05,37,034,28,10,07,213,19,12,73,090,29,13,13,105,08*70
$GPGSV,5,2,17,15,40,135,30,18,32,293,17,20,06,033,19,23,48,212,08*72
$GPGSV,5,3,17,24,32,175,22,25,61,340,27,28,05,290,21,29,15,348,33*78
$GPGSV,5,4,17,36,52,277,,40,86,351,,41,58,082,,49,32,274,*7C
$GPGSV,5,5,17,50,10,089,*4A
$GLGSV,3,1,09,66,12,060,,67,39,112,15,68,28,173,25,78,44,168,31*62
$GLGSV,3,2,09,79,71,287,22,80,20,326,18,81,01,018,11,82,11,336,28*6B
$GLGSV,3,3,09,83,09,287,25*54
$GNGLL,0419.84697,S,05539.61363,E,063930.00,A,A*66
$GNRMC,063933.00,A,0419.84700,S,05539.61347,E,0.180,,260525,,,A*7A
$GNVTG,,T,,M,0.180,N,0.333,K,A*37
$GNGGA,063933.00,0419.84700,S,05539.61347,E,1,12,0.64,11.8,M,-47.6,M,,*48
$GNGSA,A,3,12,23,24,25,28,29,15,18,05,20,10,,1.13,0.64,0.93*1E
$GNGSA,A,3,78,82,80,68,79,67,83,,,,,,1.13,0.64,0.93*10
$GPGSV,5,1,17,05,37,034,29,10,07,213,20,12,73,090,28,13,13,105,08*7A
$GPGSV,5,2,17,15,40,135,29,18,32,293,17,20,06,033,20,23,48,212,14*7D
$GPGSV,5,3,17,24,32,175,20,25,61,340,26,28,05,290,21,29,15,348,32*7A
$GPGSV,5,4,17,36,52,277,,40,86,351,,41,58,082,,49,32,274,*7C
$GPGSV,5,5,17,50,10,089,*4A
$GLGSV,3,1,09,66,12,060,,67,39,112,17,68,28,173,25,78,44,168,32*63
$GLGSV,3,2,09,79,71,287,20,80,20,326,18,81,01,018,07,82,11,336,29*6F
$GLGSV,3,3,09,83,09,287,26*57
$GNGLL,0419.84700,S,05539.61347,E,063933.00,A,A*6C
$GNRMC,063935.00,A,0419.84697,S,05539.61334,E,0.123,,260525,,,A*7E
$GNVTG,,T,,M,0.123,N,0.227,K,A*3A
$GNGGA,063935.00,0419.84697,S,05539.61334,E,1,12,0.64,12.3,M,-47.6,M,,*4D
$GNGSA,A,3,12,23,24,25,28,29,15,18,05,20,10,,1.13,0.64,0.93*1E
$GNGSA,A,3,78,82,80,68,79,67,83,,,,,,1.13,0.64,0.93*10
$GPGSV,5,1,17,05,37,034,28,10,07,213,19,12,73,090,27,13,13,105,08*7E
$GPGSV,5,2,17,15,40,135,29,18,32,293,17,20,06,033,19,23,48,212,13*70
$GPGSV,5,3,17,24,32,175,22,25,61,340,27,28,05,290,23,29,15,348,32*7B
$GPGSV,5,4,17,36,52,277,,40,86,351,,41,58,082,,49,32,274,*7C
$GPGSV,5,5,17,50,10,089,*4A
$GLGSV,3,1,09,66,12,060,,67,39,112,20,68,28,173,25,78,44,168,31*64
$GLGSV,3,2,09,79,71,287,22,80,20,326,20,81,01,018,10,82,11,336,29*60
$GLGSV,3,3,09,83,09,287,26*57
$GNGLL,0419.84697,S,05539.61334,E,063935.00,A,A*61
$GNRMC,063937.00,A,0419.84694,S,05539.61329,E,0.238,,260525,,,A*7A
$GNVTG,,T,,M,0.238,N,0.440,K,A*34
$GNGGA,063937.00,0419.84694,S,05539.61329,E,1,12,0.64,12.7,M,-47.6,M,,*44
$GNGSA,A,3,12,23,24,25,28,29,15,18,05,20,10,,1.13,0.64,0.93*1E
$GNGSA,A,3,78,82,80,68,79,67,83,,,,,,1.13,0.64,0.93*10
$GPGSV,5,1,17,05,37,034,26,10,07,213,14,12,73,092,26,13,13,105,*76
$GPGSV,5,2,17,15,40,135,29,18,32,293,16,20,06,033,16,23,48,212,18*75
$GPGSV,5,3,17,24,32,175,20,25,61,340,23,28,05,290,20,29,15,348,27*7A
$GPGSV,5,4,17,36,52,277,,40,86,351,,41,58,082,,49,32,274,*7C
$GPGSV,5,5,17,50,10,089,*4A
$GLGSV,3,1,09,66,12,060,,67,39,112,17,68,28,173,26,78,44,168,32*60
$GLGSV,3,2,09,79,71,287,21,80,20,326,25,81,01,018,11,82,11,336,26*68
$GLGSV,3,3,09,83,09,287,24*55
$GNGLL,0419.84694,S,05539.61329,E,063937.00,A,A*6C
$GNRMC,063945.00,A,0419.84680,S,05539.61319,E,0.194,,260525,,,A*7C
$GNVTG,,T,,M,0.194,N,0.359,K,A*3E
$GNGGA,063945.00,0419.84680,S,05539.61319,E,1,12,0.78,13.3,M,-47.6,M,,*4F
$GNGSA,A,3,12,23,24,25,28,29,15,18,05,20,10,,1.37,0.78,1.12*1D
$GNGSA,A,3,78,82,80,68,79,67,83,,,,,,1.37,0.78,1.12*13
$GPGSV,5,1,17,05,37,034,27,10,07,213,14,12,73,092,29,13,13,105,*78
$GPGSV,5,2,17,15,40,134,29,18,31,294,16,20,05,033,16,23,48,212,10*7B
$GPGSV,5,3,17,24,32,175,22,25,61,340,25,28,05,290,19,29,15,348,30*72
$GPGSV,5,4,17,36,52,277,,40,86,351,,41,58,082,,49,32,274,*7C
$GPGSV,5,5,17,50,10,089,*4A
$GLGSV,3,1,09,66,12,060,,67,39,112,16,68,28,173,26,78,44,168,32*61
$GLGSV,3,2,09,79,71,287,21,80,20,326,21,81,01,018,09,82,11,336,22*61
$GLGSV,3,3,09,83,09,287,22*53
$GNGLL,0419.84680,S,05539.61319,E,063945.00,A,A*6F
$GNRMC,063946.00,A,0419.84680,S,05539.61318,E,0.091,,260525,,,A*7A
$GNVTG,,T,,M,0.091,N,0.169,K,A*3B
$GNGGA,063946.00,0419.84680,S,05539.61318,E,1,12,0.78,13.3,M,-47.6,M,,*4D
$GNGSA,A,3,12,23,24,25,28,29,15,18,05,20,10,,1.37,0.78,1.12*1D
$GNGSA,A,3,78,82,80,68,79,67,83,,,,,,1.37,0.78,1.12*13
$GPGSV,5,1,17,05,37,034,26,10,07,213,14,12,73,092,28,13,13,105,*78
$GPGSV,5,2,17,15,40,134,29,18,31,294,14,20,05,033,15,23,48,212,16*7C
$GPGSV,5,3,17,24,32,175,23,25,61,340,25,28,05,290,19,29,15,348,30*73
$GPGSV,5,4,17,36,52,277,,40,86,351,,41,58,082,,49,32,274,*7C
$GPGSV,5,5,17,50,10,089,*4A
$GLGSV,3,1,09,66,12,060,,67,39,112,17,68,28,173,26,78,44,168,34*66
$GLGSV,3,2,09,79,71,287,22,80,20,326,21,81,01,018,06,82,11,336,21*6E
$GLGSV,3,3,09,83,09,287,24*55
$GNGLL,0419.84680,S,05539.61318,E,063946.00,A,A*6D
$GNRMC,063947.00,A,0419.84677,S,05539.61321,E,0.072,,260525,,,A*74
$GNVTG,,T,,M,0.072,N,0.134,K,A*3E
$GNGGA,063947.00,0419.84677,S,05539.61321,E,1,12,0.78,13.6,M,-47.6,M,,*4B
$GNGSA,A,3,12,23,24,25,28,29,15,18,05,20,10,,1.37,0.78,1.12*1D
$GNGSA,A,3,78,82,80,68,79,67,83,,,,,,1.37,0.78,1.12*13
$GPGSV,5,1,17,05,37,034,26,10,07,213,13,12,73,092,28,13,13,105,*7F
$GPGSV,5,2,17,15,40,134,29,18,31,294,13,20,05,033,16,23,48,212,14*7A
$GPGSV,5,3,17,24,31,175,24,25,61,340,26,28,05,290,18,29,15,348,29*7D
$GPGSV,5,4,17,36,52,277,,40,86,351,,41,58,082,,49,32,274,*7C
$GPGSV,5,5,17,50,10,089,*4A
$GLGSV,3,1,09,66,12,060,,67,39,112,16,68,28,173,26,78,44,168,31*62
$GLGSV,3,2,09,79,71,287,22,80,20,326,21,81,01,018,06,82,11,336,21*6E
$GLGSV,3,3,09,83,09,287,25*54
$GNGLL,0419.84677,S,05539.61321,E,063947.00,A,A*6E
$GNRMC,063949.00,A,0419.84674,S,05539.61315,E,0.022,,260525,,,A*7B
$GNVTG,,T,,M,0.022,N,0.041,K,A*38
$GNGGA,063949.00,0419.84674,S,05539.61315,E,1,12,0.74,14.1,M,-47.6,M,,*4D
$GNGSA,A,3,12,23,24,25,28,29,15,18,05,20,10,,1.30,0.74,1.06*13
$GNGSA,A,3,78,82,80,68,79,67,83,,,,,,1.30,0.74,1.06*1D
$GPGSV,5,1,17,05,37,034,24,10,07,213,09,12,73,092,28,13,13,105,*76
$GPGSV,5,2,17,15,40,134,30,18,31,294,16,20,05,033,16,23,48,212,11*72
$GPGSV,5,3,17,24,31,175,24,25,61,340,26,28,05,290,18,29,15,348,30*75
$GPGSV,5,4,17,36,52,277,,40,86,351,,41,58,082,,49,32,274,*7C
$GPGSV,5,5,17,50,10,089,*4A
$GLGSV,3,1,09,66,12,060,,67,39,112,15,68,28,173,28,78,44,168,32*6C
$GLGSV,3,2,09,79,71,287,24,80,20,326,22,81,01,018,08,82,11,336,23*67
$GLGSV,3,3,09,83,09,287,27*56
$GNGLL,0419.84674,S,05539.61315,E,063949.00,A,A*64
$GNRMC,063957.00,A,0419.84684,S,05539.61315,E,0.032,,260525,,,A*7A
$GNVTG,,T,,M,0.032,N,0.060,K,A*3A
$GNGGA,063957.00,0419.84684,S,05539.61315,E,1,12,0.78,14.4,M,-47.6,M,,*44
$GNGSA,A,3,12,23,24,25,28,29,15,18,05,20,10,,1.38,0.78,1.14*14
$GNGSA,A,3,78,82,80,68,79,67,83,,,,,,1.38,0.78,1.14*1A
$GPGSV,5,1,17,05,37,034,24,10,07,213,11,12,73,092,29,13,13,105,09*77
$GPGSV,5,2,17,15,40,134,30,18,31,294,21,20,05,033,19,23,48,212,18*70
$GPGSV,5,3,17,24,31,175,25,25,61,340,28,28,05,290,18,29,15,348,32*78
$GPGSV,5,4,17,36,52,277,,40,86,351,,41,58,082,,49,32,274,*7C
$GPGSV,5,5,17,50,10,089,*4A
$GLGSV,3,1,09,66,12,060,,67,39,112,16,68,28,173,28,78,44,168,33*6E
$GLGSV,3,2,09,79,71,287,21,80,20,326,21,81,01,018,11,82,11,336,24*6E
$GLGSV,3,3,09,83,09,287,26*57
$GNGLL,0419.84684,S,05539.61315,E,063957.00,A,A*64
$GNRMC,063958.00,A,0419.84688,S,05539.61310,E,0.267,,260525,,,A*7E
$GNVTG,,T,,M,0.267,N,0.494,K,A*37
$GNGGA,063958.00,0419.84688,S,05539.61310,E,1,12,0.78,14.5,M,-47.6,M,,*43
$GNGSA,A,3,12,23,24,25,28,29,15,18,05,20,10,,1.38,0.78,1.14*14
$GNGSA,A,3,78,82,80,68,79,67,83,,,,,,1.38,0.78,1.14*1A
$GPGSV,5,1,17,05,37,034,23,10,07,213,09,12,73,092,30,13,13,105,08*70
$GPGSV,5,2,17,15,40,134,30,18,31,294,18,20,05,033,20,23,48,212,18*70
$GPGSV,5,3,17,24,31,175,24,25,61,340,27,28,05,290,21,29,15,348,33*7D
$GPGSV,5,4,17,36,52,277,,40,86,351,,41,58,082,,49,32,274,*7C
$GPGSV,5,5,17,50,10,089,*4A
$GLGSV,3,1,09,66,12,060,,67,39,112,16,68,28,173,28,78,44,168,33*6E
$GLGSV,3,2,09,79,71,287,21,80,20,326,22,81,01,018,09,82,11,336,25*65
$GLGSV,3,3,09,83,09,287,26*57
$GNGLL,0419.84688,S,05539.61310,E,063958.00,A,A*62
$GNRMC,063959.00,A,0419.84691,S,05539.61305,E,0.071,,260525,,,A*76
$GNVTG,,T,,M,0.071,N,0.131,K,A*38
$GNGGA,063959.00,0419.84691,S,05539.61305,E,1,12,0.78,14.6,M,-47.6,M,,*4D
$GNGSA,A,3,12,23,24,25,28,29,15,18,05,20,10,,1.38,0.78,1.14*14
$GNGSA,A,3,78,82,80,68,79,67,83,,,,,,1.38,0.78,1.14*1A
$GPGSV,5,1,17,05,37,034,22,10,07,213,14,12,73,092,31,13,13,105,08*7C
$GPGSV,5,2,17,15,40,134,30,18,31,294,17,20,05,033,20,23,48,212,16*71
$GPGSV,5,3,17,24,31,175,24,25,61,340,28,28,05,290,21,29,15,348,32*73
$GPGSV,5,4,17,36,52,277,,40,86,351,,41,58,082,,49,32,274,*7C
$GPGSV,5,5,17,50,10,089,*4A
$GLGSV,3,1,09,66,12,060,,67,39,112,14,68,28,173,28,78,44,168,33*6C
$GLGSV,3,2,09,79,71,287,21,80,20,326,23,81,01,018,10,82,11,336,26*6F
$GLGSV,3,3,09,83,09,287,26*57
$GNGLL,0419.84691,S,05539.61305,E,063959.00,A,A*6F
$GNRMC,064001.00,A,0419.84690,S,05539.61298,E,0.350,,260525,,,A*71
$GNVTG,,T,,M,0.350,N,0.649,K,A*30
$GNGGA,064001.00,0419.84690,S,05539.61298,E,1,12,0.69,15.1,M,-47.6,M,,*4C
$GNGSA,A,3,12,23,24,25,28,29,15,18,05,20,10,,1.22,0.69,1.01*1B
$GNGSA,A,3,78,82,80,68,79,67,83,,,,,,1.22,0.69,1.01*15
$GPGSV,5,1,17,05,37,034,22,10,07,213,09,12,73,092,29,13,13,105,08*79
$GPGSV,5,2,17,15,40,134,29,18,31,294,16,20,05,033,20,23,48,212,19*77
$GPGSV,5,3,17,24,31,175,22,25,61,340,27,28,05,290,21,29,15,348,31*79
$GPGSV,5,4,17,36,52,277,,40,86,351,,41,58,082,,49,32,274,*7C
$GPGSV,5,5,17,50,10,089,*4A
$GLGSV,3,1,09,66,12,060,,67,39,112,14,68,28,173,27,78,44,168,31*61
$GLGSV,3,2,09,79,71,287,22,80,20,326,21,81,01,018,11,82,11,336,25*6C
$GLGSV,3,3,09,83,09,287,24*55
$GNGLL,0419.84690,S,05539.61298,E,064001.00,A,A*68
$GNRMC,064003.00,A,0419.84688,S,05539.61289,E,0.129,,260525,,,A*76
$GNVTG,,T,,M,0.129,N,0.240,K,A*31
$GNGGA,064003.00,0419.84688,S,05539.61289,E,1,12,0.69,15.4,M,-47.6,M,,*42
$GNGSA,A,3,12,23,24,25,28,29,15,18,05,20,13,10,1.22,0.69,1.01*19
$GNGSA,A,3,78,82,80,68,79,67,83,,,,,,1.22,0.69,1.01*15
$GPGSV,5,1,17,05,37,034,22,10,07,213,10,12,73,092,29,13,13,105,08*71
$GPGSV,5,2,17,15,40,134,27,18,31,294,14,20,05,033,19,23,48,212,16*7E
$GPGSV,5,3,17,24,31,175,22,25,61,340,26,28,05,290,18,29,15,348,29*7B
$GPGSV,5,4,17,36,52,277,,40,86,351,,41,58,082,,49,32,274,*7C
$GPGSV,5,5,17,50,10,089,*4A
$GLGSV,3,1,09,66,12,060,,67,39,112,14,68,28,173,27,78,44,168,32*62
$GLGSV,3,2,09,79,71,287,22,80,20,326,20,81,01,018,12,82,11,336,25*6E
$GLGSV,3,3,09,83,09,287,25*54
$GNGLL,0419.84688,S,05539.61289,E,064003.00,A,A*63
$GNRMC,064004.00,A,0419.84687,S,05539.61284,E,0.035,,260525,,,A*7F
$GNVTG,,T,,M,0.035,N,0.064,K,A*39
$GNGGA,064004.00,0419.84687,S,05539.61284,E,1,12,0.69,15.5,M,-47.6,M,,*46
$GNGSA,A,3,12,23,24,25,28,29,15,18,05,20,13,10,1.22,0.69,1.01*19
$GNGSA,A,3,78,82,80,68,79,67,83,,,,,,1.22,0.69,1.01*15
$GPGSV,5,1,17,05,37,034,22,10,07,213,10,12,73,092,29,13,13,105,08*71
$GPGSV,5,2,17,15,40,134,27,18,31,294,14,20,05,033,19,23,48,212,17*7F
$GPGSV,5,3,17,24,31,175,22,25,61,340,26,28,05,290,19,29,15,348,30*72
$GPGSV,5,4,17,36,52,277,,40,86,351,,41,58,082,,49,32,274,*7C
$GPGSV,5,5,17,50,10,089,*4A
$GLGSV,3,1,09,66,12,060,,67,39,112,15,68,28,173,26,78,44,168,33*63
$GLGSV,3,2,09,79,71,287,22,80,20,326,19,81,01,018,08,82,11,336,25*6F
$GLGSV,3,3,09,83,09,287,25*54
$GNGLL,0419.84687,S,05539.61284,E,064004.00,A,A*66
$GNRMC,064005.00,A,0419.84687,S,05539.61278,E,0.073,,260525,,,A*7F
$GNVTG,,T,,M,0.073,N,0.135,K,A*3E
$GNGGA,064005.00,0419.84687,S,05539.61278,E,1,12,0.69,15.6,M,-47.6,M,,*47
$GNGSA,A,3,12,23,24,25,28,29,15,18,05,20,,,1.22,0.69,1.01*1A
$GNGSA,A,3,78,82,80,68,79,67,83,,,,,,1.22,0.69,1.01*15
$GPGSV,5,1,17,05,37,034,23,10,07,213,11,12,73,092,29,13,13,105,09*70
$GPGSV,5,2,17,15,40,134,28,18,31,294,16,20,05,033,20,23,48,212,19*76
$GPGSV,5,3,17,24,31,175,23,25,61,340,26,28,05,290,19,29,15,348,30*73
$GPGSV,5,4,17,36,52,277,,40,86,351,,41,58,082,,49,32,274,*7C
$GPGSV,5,5,17,50,10,089,*4A
$GLGSV,3,1,09,66,12,060,,67,39,112,15,68,28,173,27,78,44,168,32*63
$GLGSV,3,2,09,79,71,287,23,80,20,326,20,81,01,018,09,82,11,336,26*66
$GLGSV,3,3,09,83,09,287,25*54
$GNGLL,0419.84687,S,05539.61278,E,064005.00,A,A*64
$GNRMC,064006.00,A,0419.84686,S,05539.61272,E,0.104,,260525,,,A*76
$GNVTG,,T,,M,0.104,N,0.193,K,A*33
$GNGGA,064006.00,0419.84686,S,05539.61272,E,1,12,0.69,15.8,M,-47.6,M,,*41
$GNGSA,A,3,12,23,24,25,28,29,15,18,05,20,,,1.22,0.69,1.01*1A
$GNGSA,A,3,78,82,80,68,79,67,83,,,,,,1.22,0.69,1.01*15
$GPGSV,5,1,17,05,37,034,23,10,07,213,11,12,73,092,30,13,13,105,09*78
$GPGSV,5,2,17,15,40,134,27,18,31,294,17,20,05,033,21,23,48,212,21*72
$GPGSV,5,3,17,24,31,175,23,25,61,340,27,28,05,290,18,29,15,348,30*73
$GPGSV,5,4,17,36,52,277,,40,86,351,,41,58,082,,49,32,274,*7C
$GPGSV,5,5,17,50,10,089,*4A
$GLGSV,3,1,09,66,12,060,,67,39,112,16,68,28,173,27,78,44,168,32*60
$GLGSV,3,2,09,79,71,287,23,80,20,326,21,81,01,018,08,82,11,336,26*66
$GLGSV,3,3,09,83,09,287,25*54
$GNGLL,0419.84686,S,05539.61272,E,064006.00,A,A*6C
$GNRMC,064007.00,A,0419.84687,S,05539.61262,E,0.189,,260525,,,A*72
$GNVTG,,T,,M,0.189,N,0.349,K,A*33
$GNGGA,064007.00,0419.84687,S,05539.61262,E,1,12,0.69,15.8,M,-47.6,M,,*40
$GNGSA,A,3,12,23,24,25,28,29,15,18,05,20,,,1.22,0.69,1.01*1A
$GNGSA,A,3,78,82,80,68,79,67,83,,,,,,1.22,0.69,1.01*15
$GPGSV,5,1,17,05,37,034,25,10,07,213,12,12,73,092,31,13,13,105,09*7C
$GPGSV,5,2,17,15,40,134,29,18,31,294,19,20,05,033,22,23,48,212,22*72
$GPGSV,5,3,17,24,31,175,23,25,61,340,27,28,05,290,16,29,15,348,31*7C
$GPGSV,5,4,17,36,52,277,,40,86,351,,41,58,082,,49,32,274,*7C
$GPGSV,5,5,17,50,10,089,*4A
$GLGSV,3,1,09,66,12,060,,67,39,112,15,68,28,173,26,78,44,168,33*63
$GLGSV,3,2,09,79,71,287,23,80,20,326,21,81,01,018,14,82,11,336,26*6B
$GLGSV,3,3,09,83,09,287,24*55
$GNGLL,0419.84687,S,05539.61262,E,064007.00,A,A*6D
$GNRMC,064010.00,A,0419.84689,S,05539.61215,E,0.256,,260525,,,A*7B
$GNVTG,,T,,M,0.256,N,0.473,K,A*3C
$GNGGA,064010.00,0419.84689,S,05539.61215,E,1,12,0.69,16.4,M,-47.6,M,,*47
$GNGSA,A,3,12,23,24,25,28,29,15,18,05,20,10,,1.22,0.69,1.01*1B
$GNGSA,A,3,78,82,80,68,79,67,83,,,,,,1.22,0.69,1.01*15
$GPGSV,5,1,17,05,37,034,26,10,07,213,13,12,73,092,30,13,13,105,05*73
$GPGSV,5,2,17,15,40,134,28,18,31,294,19,20,05,033,22,23,48,212,24*75
$GPGSV,5,3,17,24,31,175,23,25,61,340,27,28,05,290,19,29,15,348,30*72
$GPGSV,5,4,17,36,52,277,,40,86,351,,41,58,082,,49,32,274,*7C
$GPGSV,5,5,17,50,10,089,*4A
$GLGSV,3,1,09,66,12,060,,67,39,112,12,68,28,173,26,78,44,168,33*64
$GLGSV,3,2,09,79,71,287,23,80,20,326,22,81,01,018,14,82,11,336,26*68
$GLGSV,3,3,09,83,09,287,22*53
$GNGLL,0419.84689,S,05539.61215,E,064010.00,A,A*65
$GNRMC,064011.00,A,0419.84689,S,05539.61198,E,0.363,,260525,,,A*7B
$GNVTG,,T,,M,0.363,N,0.673,K,A*39
$GNGGA,064011.00,0419.84689,S,05539.61198,E,1,12,0.72,16.8,M,-47.6,M,,*46
$GNGSA,A,3,12,23,24,25,28,29,15,18,05,20,10,,1.24,0.72,1.01*17
$GNGSA,A,3,78,82,80,68,79,83,,,,,,,1.24,0.72,1.01*18
$GPGSV,5,1,17,05,37,034,26,10,07,213,13,12,73,092,29,13,13,105,05*7B
$GPGSV,5,2,17,15,40,134,28,18,31,294,20,20,05,033,22,23,48,212,25*7E
$GPGSV,5,3,17,24,31,175,23,25,61,340,27,28,05,290,19,29,15,348,29*7A
$GPGSV,5,4,17,36,52,277,,40,86,351,,41,58,082,,49,32,274,*7C
$GPGSV,5,5,17,50,10,089,*4A
$GLGSV,3,1,09,66,12,060,,67,39,112,,68,28,173,25,78,44,168,32*65
$GLGSV,3,2,09,79,71,287,23,80,20,326,22,81,01,018,10,82,11,336,25*6F
$GLGSV,3,3,09,83,09,287,22*53
$GNGLL,0419.84689,S,05539.61198,E,064011.00,A,A*62
$GNRMC,064012.00,A,0419.84689,S,05539.61190,E,0.041,,260525,,,A*73
$GNVTG,,T,,M,0.041,N,0.076,K,A*39
$GNGGA,064012.00,0419.84689,S,05539.61190,E,1,12,0.72,17.0,M,-47.6,M,,*44
$GNGSA,A,3,12,23,24,25,28,29,15,18,05,20,10,,1.24,0.72,1.01*17
$GNGSA,A,3,78,82,80,68,79,83,,,,,,,1.24,0.72,1.01*18
$GPGSV,5,1,17,05,37,034,24,10,07,213,13,12,73,092,30,13,13,105,05*71
$GPGSV,5,2,17,15,40,134,29,18,31,294,21,20,05,033,22,23,48,212,26*7D
$GPGSV,5,3,17,24,31,175,24,25,61,340,26,28,05,290,19,29,15,348,29*7C
$GPGSV,5,4,17,36,52,277,,40,86,351,,41,58,082,,49,32,274,*7C
$GPGSV,5,5,17,50,10,089,*4A
$GLGSV,3,1,09,66,12,060,,67,39,112,,68,28,173,25,78,44,168,32*65
$GLGSV,3,2,09,79,71,287,23,80,20,326,23,81,01,018,09,82,11,336,25*66
$GLGSV,3,3,09,83,09,287,21*50
$GNGLL,0419.84689,S,05539.61190,E,064012.00,A,A*69
$GNRMC,064015.00,A,0419.84700,S,05539.61152,E,1.056,194.98,260525,,,A*6E
$GNVTG,194.98,T,,M,1.056,N,1.955,K,A*24
$GNGGA,064015.00,0419.84700,S,05539.61152,E,1,12,0.72,17.6,M,-47.6,M,,*4B
$GNGSA,A,3,12,23,24,25,28,29,15,18,05,20,10,,1.24,0.72,1.01*17
$GNGSA,A,3,78,82,80,68,79,83,,,,,,,1.24,0.72,1.01*18
$GPGSV,5,1,17,05,37,034,17,10,07,213,18,12,73,092,20,13,13,105,*7E
$GPGSV,5,2,17,15,40,134,26,18,31,294,15,20,05,033,20,23,48,212,23*72
$GPGSV,5,3,17,24,31,175,25,25,61,340,24,28,05,290,20,29,15,348,26*7A
$GPGSV,5,4,17,36,52,277,,40,86,351,,41,58,082,,49,32,274,*7C
$GPGSV,5,5,17,50,10,089,*4A
$GLGSV,3,1,09,66,12,060,,67,39,112,,68,28,173,24,78,44,168,30*66
$GLGSV,3,2,09,79,71,287,24,80,20,326,23,81,01,018,11,82,11,336,24*69
$GLGSV,3,3,09,83,09,287,20*51
$GNGLL,0419.84700,S,05539.61152,E,064015.00,A,A*60
$GNRMC,064017.00,A,0419.84693,S,05539.61175,E,1.183,132.85,260525,,,A*6B
$GNVTG,132.85,T,,M,1.183,N,2.190,K,A*2F
$GNGGA,064017.00,0419.84693,S,05539.61175,E,1,12,0.68,18.0,M,-47.6,M,,*45
$GNGSA,A,3,12,23,24,25,28,29,15,18,05,20,10,,1.15,0.68,0.93*14
$GNGSA,A,3,78,82,80,68,79,83,,,,,,,1.15,0.68,0.93*1B
$GPGSV,5,1,17,05,37,034,18,10,07,213,11,12,73,092,23,13,13,105,*7B
$GPGSV,5,2,17,15,40,134,25,18,31,294,21,20,05,033,21,23,48,212,24*70
$GPGSV,5,3,17,24,31,175,24,25,61,340,24,28,05,290,18,29,15,348,26*70
$GPGSV,5,4,17,36,52,277,,40,86,351,,41,58,082,,49,32,274,*7C
$GPGSV,5,5,17,50,10,089,*4A
$GLGSV,3,1,09,66,11,060,,67,39,112,,68,28,173,24,78,44,168,31*64
$GLGSV,3,2,09,79,71,287,25,80,20,326,23,81,01,018,11,82,11,336,26*6A
$GLGSV,3,3,09,83,09,287,18*5A
$GNGLL,0419.84693,S,05539.61175,E,064017.00,A,A*6C
$GNRMC,064018.00,A,0419.84691,S,05539.61167,E,0.358,,260525,,,A*73
$GNVTG,,T,,M,0.358,N,0.664,K,A*37
$GNGGA,064018.00,0419.84691,S,05539.61167,E,1,12,0.72,18.2,M,-47.6,M,,*42
$GNGSA,A,3,12,23,24,25,28,29,15,18,05,20,10,,1.24,0.72,1.01*17
$GNGSA,A,3,78,82,80,68,79,83,,,,,,,1.24,0.72,1.01*18
$GPGSV,5,1,17,05,37,034,22,10,07,213,16,12,73,092,22,13,13,105,*74
$GPGSV,5,2,17,15,40,134,24,18,31,294,23,20,05,033,20,23,48,212,26*70
$GPGSV,5,3,17,24,31,175,22,25,61,340,21,28,05,290,18,29,15,348,26*73
$GPGSV,5,4,17,36,52,277,,40,86,351,,41,58,082,,49,32,274,*7C
$GPGSV,5,5,17,50,10,089,*4A
$GLGSV,3,1,09,66,11,060,,67,40,112,,68,28,173,24,78,44,168,30*6B
$GLGSV,3,2,09,79,71,287,25,80,20,326,20,81,01,018,10,82,11,336,26*68
$GLGSV,3,3,09,83,09,287,15*57
$GNGLL,0419.84691,S,05539.61167,E,064018.00,A,A*62
$GNRMC,064019.00,A,0419.84687,S,05539.61164,E,0.130,,260525,,,A*7A
$GNVTG,,T,,M,0.130,N,0.241,K,A*38
$GNGGA,064019.00,0419.84687,S,05539.61164,E,1,12,0.72,18.5,M,-47.6,M,,*40
$GNGSA,A,3,12,23,24,25,28,29,15,18,05,20,10,,1.24,0.72,1.01*17
$GNGSA,A,3,78,82,80,68,79,83,,,,,,,1.24,0.72,1.01*18
$GPGSV,5,1,17,05,37,034,25,10,07,213,15,12,73,092,22,13,13,105,*70
$GPGSV,5,2,17,15,40,134,24,18,31,294,24,20,05,033,19,23,48,212,27*7C
$GPGSV,5,3,17,24,31,175,20,25,61,340,20,28,05,290,17,29,15,348,27*7E
$GPGSV,5,4,17,36,52,277,,40,86,351,,41,58,082,,49,32,274,*7C
$GPGSV,5,5,17,50,10,089,*4A
$GLGSV,3,1,09,66,11,060,,67,40,112,,68,28,172,23,78,44,168,29*65
$GLGSV,3,2,09,79,71,287,26,80,20,326,14,81,01,018,10,82,11,336,27*6D
$GLGSV,3,3,09,83,09,287,13*51
$GNGLL,0419.84687,S,05539.61164,E,064019.00,A,A*67
$GNRMC,064020.00,A,0419.84677,S,05539.61163,E,0.325,,260525,,,A*7E
$GNVTG,,T,,M,0.325,N,0.602,K,A*3D
$GNGGA,064020.00,0419.84677,S,05539.61163,E,1,12,0.72,19.1,M,-47.6,M,,*47
$GNGSA,A,3,12,23,24,25,28,29,15,18,05,20,,,1.24,0.72,1.01*16
$GNGSA,A,3,78,82,80,68,79,83,,,,,,,1.24,0.72,1.01*18
$GPGSV,5,1,17,05,37,034,24,10,07,213,07,12,73,092,23,13,13,105,*73
$GPGSV,5,2,17,15,40,134,22,18,31,294,23,20,05,033,18,23,48,212,24*7F
$GPGSV,5,3,17,24,31,175,20,25,61,340,19,28,05,290,16,29,15,348,25*77
$GPGSV,5,4,17,36,52,277,,40,86,351,,41,58,082,,49,32,274,*7C
$GPGSV,5,5,17,50,10,089,*4A
$GLGSV,3,1,09,66,11,060,,67,40,112,,68,28,172,22,78,44,168,29*64
$GLGSV,3,2,09,79,71,287,23,80,20,326,15,81,01,018,09,82,11,336,26*60
$GLGSV,3,3,09,83,09,287,16*54
$GNGLL,0419.84677,S,05539.61163,E,064020.00,A,A*65
$GNRMC,064022.00,A,0419.84670,S,05539.61164,E,0.295,,260525,,,A*76
$GNVTG,,T,,M,0.295,N,0.547,K,A*35
$GNGGA,064022.00,0419.84670,S,05539.61164,E,1,12,0.72,19.4,M,-47.6,M,,*40
$GNGSA,A,3,12,23,24,25,28,29,15,18,05,20,,,1.24,0.72,1.01*16
$GNGSA,A,3,78,82,80,68,79,83,,,,,,,1.24,0.72,1.01*18
$GPGSV,5,1,17,05,37,034,23,10,07,213,09,12,73,092,28,13,13,105,*71
$GPGSV,5,2,17,15,40,134,21,18,31,294,25,20,05,033,18,23,48,212,17*7A
$GPGSV,5,3,17,24,31,175,25,25,61,340,24,28,05,290,19,29,15,348,27*71
$GPGSV,5,4,17,36,52,277,,40,86,351,,41,58,082,,49,32,274,*7C
$GPGSV,5,5,17,50,10,089,*4A
$GLGSV,3,1,09,66,11,060,,67,40,112,,68,28,172,24,78,44,168,32*68
$GLGSV,3,2,09,79,71,287,24,80,20,326,21,81,01,018,09,82,11,336,26*60
$GLGSV,3,3,09,83,09,287,21*50
$GNGLL,0419.84670,S,05539.61164,E,064022.00,A,A*67
$GNRMC,064023.00,A,0419.84672,S,05539.61135,E,0.993,,260525,,,A*7C
$GNVTG,,T,,M,0.993,N,1.840,K,A*33
$GNGGA,064023.00,0419.84672,S,05539.61135,E,1,12,0.72,20.1,M,-47.6,M,,*48
$GNGSA,A,3,12,23,24,25,28,29,15,18,05,20,10,,1.24,0.72,1.01*17
$GNGSA,A,3,78,82,80,68,79,83,,,,,,,1.24,0.72,1.01*18
$GPGSV,5,1,17,05,37,034,24,10,07,213,15,12,73,092,29,13,13,105,*7A
$GPGSV,5,2,17,15,40,134,21,18,31,294,24,20,05,033,17,23,48,212,16*75
$GPGSV,5,3,17,24,31,175,26,25,61,340,24,28,05,290,18,29,15,348,25*71
$GPGSV,5,4,17,36,52,277,,40,86,351,,41,58,082,,49,32,274,*7C
$GNRMC,064026.00,A,0419.84683,S,05539.61109,E,0.046,,260525,,,A*79
$GNVTG,,T,,M,0.046,N,0.086,K,A*31
$GNGGA,064026.00,0419.84683,S,05539.61109,E,1,12,0.84,20.0,M,-47.6,M,,*44
$GNGSA,A,3,12,23,24,25,28,29,15,18,05,10,,,1.43,0.84,1.16*1B
$GNGSA,A,3,78,82,80,68,79,83,,,,,,,1.43,0.84,1.16*16
$GPGSV,5,1,17,05,37,034,23,10,07,213,09,12,73,092,28,13,13,105,*71
$GPGSV,5,2,17,15,40,134,23,18,31,294,22,20,05,033,17,23,48,212,22*76
$GPGSV,5,3,17,24,31,175,26,25,61,340,25,28,05,290,22,29,15,348,25*79
$GPGSV,5,4,17,36,52,277,,40,86,351,,41,58,082,,49,32,274,*7C
$GPGSV,5,5,17,50,10,089,*4A
$GLGSV,3,1,09,66,11,060,,67,40,112,,68,28,172,22,78,44,168,27*6A
$GLGSV,3,2,09,79,71,287,20,80,20,326,23,81,01,018,12,82,11,336,26*6C
$GLGSV,3,3,09,83,09,287,19*5B
$GNGLL,0419.84683,S,05539.61109,E,064026.00,A,A*64
$GNRMC,064028.00,A,0419.84689,S,05539.61072,E,1.083,,260525,,,A*78
$GNVTG,,T,,M,1.083,N,2.005,K,A*30
$GNGGA,064028.00,0419.84689,S,05539.61072,E,1,12,0.84,20.4,M,-47.6,M,,*49
$GNGSA,A,3,12,23,24,25,28,29,15,18,05,10,,,1.43,0.84,1.16*1B
$GNGSA,A,3,78,82,80,68,79,83,,,,,,,1.43,0.84,1.16*16
$GPGSV,5,1,17,05,37,034,19,10,07,213,08,12,73,092,28,13,13,105,*79
$GPGSV,5,2,17,15,40,134,23,18,31,294,22,20,05,033,18,23,48,212,20*7B
$GPGSV,5,3,17,24,31,175,25,25,61,340,24,28,05,290,22,29,15,348,25*7B
$GPGSV,5,4,17,36,52,277,,40,86,351,,41,58,082,,49,32,274,*7C
$GPGSV,5,5,17,50,10,089,*4A
$GLGSV,3,1,09,66,11,060,,67,40,112,,68,28,172,20,78,44,168,29*66
$GLGSV,3,2,09,79,71,287,16,80,20,326,20,81,01,018,12,82,11,336,25*69
$GLGSV,3,3,09,83,09,287,12*50
$GNGLL,0419.84689,S,05539.61072,E,064028.00,A,A*6D
$GNGLL,0419.84687,S,05539.61082,E,064030.00,A,A*65
$GNRMC,064038.00,A,0419.84691,S,05539.61171,E,0.165,,260525,,,A*7A
$GNVTG,,T,,M,0.165,N,0.305,K,A*39
$GNGGA,064038.00,0419.84691,S,05539.61171,E,1,12,0.84,17.6,M,-47.6,M,,*45
$GNGSA,A,3,12,23,24,25,28,29,15,18,05,,,,1.43,0.84,1.16*1A
$GNGSA,A,3,78,82,80,68,79,83,,,,,,,1.43,0.84,1.16*16
$GPGSV,5,1,17,05,37,034,20,10,07,213,15,12,73,092,32,13,13,105,*74
$GPGSV,5,2,17,15,40,134,26,18,31,294,28,20,05,033,19,23,48,212,26*73
$GPGSV,5,3,17,24,31,175,29,25,61,340,30,28,05,290,22,29,15,348,30*76
$GPGSV,5,4,17,36,52,277,,40,86,351,,41,58,082,,49,32,274,*7C
$GPGSV,5,5,17,50,10,089,*4A
$GLGSV,3,1,09,66,11,060,,67,40,112,,68,28,172,20,78,43,168,32*6B
$GLGSV,3,2,09,79,71,285,22,80,21,326,20,81,01,019,10,82,11,337,24*6E
$GLGSV,3,3,09,83,09,288,13*5E
$GNGLL,0419.84691,S,05539.61171,E,064038.00,A,A*67
$GPGSV,5,4,17,36,52,277,,40,86,351,,41,58,082,,49,32,274,*7C
$GPGSV,5,5,17,50,10,089,*4A
$GLGSV,3,1,09,66,11,060,,67,40,112,,68,28,172,18,78,43,168,33*61
$GLGSV,3,2,09,79,71,285,24,80,21,326,22,81,01,019,15,82,11,337,26*6D
$GLGSV,3,3,09,83,09,288,23*5D
$GNGLL,0419.84700,S,05539.61211,E,064041.00,A,A*65
$GNRMC,064042.00,A,0419.84700,S,05539.61217,E,0.149,,260525,,,A*73
$GNVTG,,T,,M,0.149,N,0.277,K,A*33
$GNGGA,064042.00,0419.84700,S,05539.61217,E,1,12,0.84,15.6,M,-47.6,M,,*40
$GNGSA,A,3,12,23,24,25,28,29,15,18,05,10,,,1.43,0.84,1.16*1B
$GNGSA,A,3,78,82,80,68,79,83,,,,,,,1.43,0.84,1.16*16
$GPGSV,5,1,17,05,37,034,20,10,07,213,13,12,73,092,33,13,13,105,*73
$GPGSV,5,2,17,15,40,134,25,18,31,294,24,20,05,033,19,23,48,212,22*78
$GPGSV,5,3,17,24,31,175,29,25,61,340,27,28,05,290,19,29,15,348,26*7F
$GPGSV,5,4,17,36,52,277,,40,86,351,,41,58,082,,49,32,274,*7C
$GPGSV,5,5,17,50,10,089,*4A
$GLGSV,3,1,09,66,11,060,,67,40,112,,68,28,172,19,78,43,168,32*61
$GLGSV,3,2,09,79,71,285,23,80,21,326,24,81,01,019,13,82,11,337,26*6A
$GLGSV,3,3,09,83,09,288,25*5B
$GNGLL,0419.84700,S,05539.61217,E,064042.00,A,A*60
$GNRMC,064043.00,A,0419.84702,S,05539.61225,E,0.068,,260525,,,A*73
$GNVTG,,T,,M,0.068,N,0.126,K,A*36
$GNGGA,064043.00,0419.84702,S,05539.61225,E,1,12,0.84,15.1,M,-47.6,M,,*45
$GNGSA,A,3,12,23,24,25,28,29,15,18,05,10,,,1.43,0.84,1.16*1B
$GNGSA,A,3,78,82,80,68,79,83,,,,,,,1.43,0.84,1.16*16
$GPGSV,5,1,17,05,37,034,21,10,07,213,13,12,73,092,33,13,13,105,*72
$GPGSV,5,2,17,15,40,134,24,18,31,294,26,20,05,033,19,23,48,212,25*7C
$GPGSV,5,3,17,24,31,175,28,25,61,340,27,28,05,290,19,29,15,348,26*7E
$GPGSV,5,4,17,36,52,277,,40,86,351,,41,58,082,,49,32,274,*7C
$GPGSV,5,5,17,50,10,089,*4A
$GLGSV,3,1,09,66,11,060,,67,40,112,,68,28,172,20,78,43,168,33*6A
$GLGSV,3,2,09,79,71,285,23,80,21,326,25,81,01,019,13,82,11,337,26*6B
$GLGSV,3,3,09,83,09,288,25*5B
$GNGLL,0419.84702,S,05539.61225,E,064043.00,A,A*62
$GNRMC,064045.00,A,0419.84699,S,05539.61241,E,0.056,,260525,,,A*79
$GNVTG,,T,,M,0.056,N,0.104,K,A*3B
$GNGGA,064045.00,0419.84699,S,05539.61241,E,1,12,0.84,14.4,M,-47.6,M,,*46
$GNGSA,A,3,12,23,24,25,28,29,15,18,05,10,,,1.43,0.84,1.16*1B
$GNGSA,A,3,78,82,80,68,79,83,,,,,,,1.43,0.84,1.16*16
$GPGSV,5,1,17,05,37,034,21,10,07,213,10,12,73,092,32,13,13,105,*70
$GPGSV,5,2,17,15,40,134,26,18,31,294,27,20,05,033,16,23,48,212,29*7C
$GPGSV,5,3,17,24,31,175,29,25,61,340,26,28,05,290,22,29,15,348,25*75
$GPGSV,5,4,17,36,52,277,,40,86,351,,41,58,082,,49,32,274,*7C
$GPGSV,5,5,17,50,10,089,*4A
$GLGSV,3,1,09,66,11,060,,67,40,112,,68,28,172,18,78,43,168,32*60
$GLGSV,3,2,09,79,71,285,24,80,21,326,23,81,01,019,17,82,11,337,27*6F
$GLGSV,3,3,09,83,09,288,25*5B
$GNGLL,0419.84699,S,05539.61241,E,064045.00,A,A*65
$GNRMC,064046.00,A,0419.84700,S,05539.61248,E,0.111,,260525,,,A*70
$GNVTG,,T,,M,0.111,N,0.205,K,A*3B
$GNGGA,064046.00,0419.84700,S,05539.61248,E,1,12,0.84,14.3,M,-47.6,M,,*4A
$GNGSA,A,3,12,23,24,25,28,29,15,18,05,10,,,1.43,0.84,1.16*1B
$GNGSA,A,3,78,82,80,68,79,83,,,,,,,1.43,0.84,1.16*16
$GPGSV,5,1,17,05,37,034,19,10,07,213,14,12,73,092,32,13,13,105,*7F
$GPGSV,5,2,17,15,40,134,27,18,31,294,27,20,05,033,14,23,48,212,28*7E
$GPGSV,5,3,17,24,31,175,30,25,61,340,27,28,05,290,21,29,15,348,25*7F
$GPGSV,5,4,17,36,52,277,,40,86,351,,41,58,082,,49,32,274,*7C
$GPGSV,5,5,17,50,10,089,*4A
$GLGSV,3,1,09,66,11,060,,67,40,112,,68,28,172,20,78,43,168,32*6B
$GLGSV,3,2,09,79,71,285,22,80,21,326,23,81,01,019,10,82,11,337,27*6E
$GLGSV,3,3,09,83,09,288,23*5D
$GNGLL,0419.84700,S,05539.61248,E,064046.00,A,A*6E
$GNRMC,064048.00,A,0419.84696,S,05539.61265,E,0.068,,260525,,,A*70
$GNVTG,,T,,M,0.068,N,0.127,K,A*37
$GNGGA,064048.00,0419.84696,S,05539.61265,E,1,12,0.84,14.0,M,-47.6,M,,*46
$GNGSA,A,3,12,23,24,25,28,29,15,18,05,10,,,1.43,0.84,1.16*1B
$GNGSA,A,3,78,82,80,68,79,83,,,,,,,1.43,0.84,1.16*16
$GPGSV,5,1,17,05,37,034,21,10,07,213,11,12,73,092,31,13,13,105,*72
$GPGSV,5,2,17,15,40,134,27,18,31,294,25,20,05,033,15,23,48,212,28*7D
$GPGSV,5,3,17,24,31,175,29,25,61,340,28,28,05,290,22,29,15,348,27*79
$GPGSV,5,4,17,36,52,277,,40,86,351,,41,58,082,,49,32,274,*7C
$GPGSV,5,5,17,50,10,089,*4A
$GLGSV,3,1,09,66,11,060,,67,40,112,,68,28,172,22,78,43,168,32*69
$GLGSV,3,2,09,79,71,285,25,80,21,326,22,81,01,019,15,82,11,337,27*6D
$GLGSV,3,3,09,83,09,288,23*5D
$GNGLL,0419.84696,S,05539.61265,E,064048.00,A,A*61
$GNRMC,064050.00,A,0419.84702,S,05539.61280,E,0.024,,260525,,,A*76
$GNVTG,,T,,M,0.024,N,0.044,K,A*3B
$GNGGA,064050.00,0419.84702,S,05539.61280,E,1,12,0.84,13.6,M,-47.6,M,,*49
$GNGSA,A,3,12,23,24,25,28,29,15,18,05,10,,,1.43,0.84,1.16*1B
$GNGSA,A,3,78,82,80,68,79,83,,,,,,,1.43,0.84,1.16*16
$GPGSV,5,1,17,05,37,034,21,10,08,213,12,12,73,092,32,13,13,105,*7D
$GPGSV,5,2,17,15,40,134,27,18,31,294,23,20,05,033,18,23,48,212,26*78
$GPGSV,5,3,17,24,31,175,28,25,61,340,31,28,05,290,25,29,15,348,27*77
$GPGSV,5,4,17,36,52,277,,40,86,351,,41,58,082,,49,32,274,*7C
$GPGSV,5,5,17,50,10,089,*4A
$GLGSV,3,1,09,66,11,060,,67,40,112,,68,28,172,20,78,43,168,31*68
$GLGSV,3,2,09,79,71,285,25,80,21,326,22,81,01,019,18,82,11,337,23*64
$GLGSV,3,3,09,83,09,288,18*55
$GNGLL,0419.84702,S,05539.61280,E,064050.00,A,A*6F
$GNRMC,064051.00,A,0419.84705,S,05539.61285,E,0.048,,260525,,,A*7F
$GNVTG,,T,,M,0.048,N,0.090,K,A*38
$GNGGA,064051.00,0419.84705,S,05539.61285,E,1,12,0.84,13.4,M,-47.6,M,,*48
$GNGSA,A,3,12,23,24,25,28,29,15,18,05,10,,,1.43,0.84,1.16*1B
$GNGSA,A,3,78,82,80,68,79,83,,,,,,,1.43,0.84,1.16*16
$GPGSV,5,1,17,05,37,034,20,10,08,213,11,12,73,094,30,13,13,105,*7B
$GPGSV,5,2,17,15,40,134,27,18,31,294,25,20,05,033,20,23,48,212,27*74
$GPGSV,5,3,17,24,31,175,28,25,61,340,31,28,05,290,25,29,15,348,26*76
$GPGSV,5,4,17,36,52,277,,40,86,351,,41,58,082,,49,32,274,*7C
$GPGSV,5,5,17,50,10,089,*4A
$GLGSV,3,1,09,66,11,060,,67,40,112,,68,28,172,21,78,43,168,31*69
$GLGSV,3,2,09,79,71,285,24,80,21,326,20,81,01,019,20,82,11,337,24*6B
$GLGSV,3,3,09,83,09,288,15*58
$GNGLL,0419.84705,S,05539.61285,E,064051.00,A,A*6C
$GNRMC,064052.00,A,0419.84711,S,05539.61285,E,0.225,,260525,,,A*70
$GNVTG,,T,,M,0.225,N,0.417,K,A*3A
$GNGGA,064052.00,0419.84711,S,05539.61285,E,1,12,0.84,13.3,M,-47.6,M,,*49
$GNGSA,A,3,12,23,24,25,28,29,15,18,05,10,,,1.43,0.84,1.16*1B
$GNGSA,A,3,78,82,80,68,79,83,,,,,,,1.43,0.84,1.16*16
$GPGSV,5,1,17,05,37,034,20,10,08,213,11,12,73,094,30,13,13,104,*7A
$GPGSV,5,2,17,15,40,134,27,18,31,294,25,20,05,033,22,23,48,212,28*79
$GPGSV,5,3,17,24,31,175,28,25,61,340,30,28,05,290,25,29,15,348,24*75
$GPGSV,5,4,17,36,52,277,,40,86,351,,41,58,082,,49,32,274,*7C
$GPGSV,5,5,17,50,10,089,*4A
$GLGSV,3,1,09,66,11,060,,67,40,112,,68,28,172,21,78,43,168,30*68
$GLGSV,3,2,09,79,71,285,23,80,21,326,19,81,01,019,21,82,11,337,26*65
$GLGSV,3,3,09,83,09,288,14*59
$GNGLL,0419.84711,S,05539.61285,E,064052.00,A,A*6A
