$GNGSA,A,3,78,82,68,79,67,83,,,,,,,1.51,0.89,1.22*16
$GPGSV,5,1,17,05,36,034,17,10,08,213,10,12,73,096,19,13,13,103,10*71
$GPGSV,5,2,17,15,41,133,31,18,31,295,34,20,05,033,10,23,49,212,25*74
$GPGSV,5,3,17,24,31,174,24,25,62,340,31,28,06,289,19,29,15,349,25*7E
$GPGSV,5,4,17,36,52,277,33,40,86,351,34,41,58,082,,49,32,274,*7B
$GPGSV,5,5,17,50,10,089,*4A
$GNRMC,064214.00,A,0419.85580,S,05539.60168,E,0.055,,260525,,,A*7F
$GNRMC,064215.00,A,0419.85583,S,05539.60162,E,0.062,,260525,,,A*73
$GNVTG,,T,,M,0.062,N,0.116,K,A*3F
$GNGGA,064215.00,0419.85583,S,05539.60162,E,1,12,0.89,15.8,M,-47.6,M,,*4B
$GNGSA,A,3,23,24,25,28,29,15,18,05,,,,,1.51,0.89,1.22*10
$GNGSA,A,3,78,82,68,79,67,83,,,,,,,1.51,0.89,1.22*16
$GPGSV,5,1,17,05,36,034,19,10,08,213,06,12,73,096,16,13,13,103,08*7E
$GPGSV,5,2,17,15,41,133,35,18,31,295,35,20,04,033,09,23,49,212,23*7E
$GPGSV,5,3,17,24,31,174,23,25,62,340,33,28,06,289,14,29,15,349,25*76
$GPGSV,5,4,17,36,52,277,36,40,86,351,36,41,58,082,,49,32,274,*7C
$GPGSV,5,5,17,50,10,089,*4A
$GLGSV,3,1,09,66,11,059,,67,40,111,28,68,28,172,14,78,42,168,28*65
$GLGSV,3,2,09,79,71,282,32,80,21,325,,81,01,019,12,82,11,337,20*6F
$GLGSV,3,3,09,83,09,289,32*5C
$GNGLL,0419.85583,S,05539.60162,E,064215.00,A,A*68
$GNRMC,064216.00,A,0419.85586,S,05539.60159,E,0.145,,260525,,,A*79
$GNVTG,,T,,M,0.145,N,0.269,K,A*30
$GNGGA,064216.00,0419.85586,S,05539.60159,E,1,12,0.89,15.7,M,-47.6,M,,*4A
$GNGSA,A,3,12,23,24,25,28,29,15,18,05,10,,,1.51,0.89,1.22*12
$GNGSA,A,3,78,82,68,79,67,83,,,,,,,1.51,0.89,1.22*16
$GPGSV,5,1,17,05,36,034,21,10,08,213,13,12,73,096,13,13,13,103,08*74
$GPGSV,5,2,17,15,41,133,36,18,31,295,36,20,04,033,09,23,49,213,23*7F
$GPGSV,5,3,17,24,31,174,24,25,62,340,35,28,06,289,15,29,15,349,25*76
$GPGSV,5,4,17,36,52,277,39,40,86,351,37,41,58,082,,49,32,274,*72
$GPGSV,5,5,17,50,10,089,*4A
$GLGSV,3,1,09,66,11,059,,67,40,111,31,68,28,172,18,78,42,168,30*68
$GLGSV,3,2,09,79,71,282,33,80,21,325,,81,01,019,10,82,11,337,20*6C
$GLGSV,3,3,09,83,09,289,33*5D
$GNGLL,0419.85586,S,05539.60159,E,064216.00,A,A*66
$GLGSV,3,3,09,83,09,289,34*5A
$GNGLL,0419.85617,S,05539.60132,E,064222.00,A,A*67
$GNRMC,064224.00,A,0419.85602,S,05539.60140,E,0.125,,260525,,,A*79
$GNVTG,,T,,M,0.125,N,0.232,K,A*38
$GNGGA,064224.00,0419.85602,S,05539.60140,E,1,12,0.77,16.2,M,-47.6,M,,*4B
$GNGSA,A,3,12,23,24,25,28,29,15,18,05,10,,,1.37,0.77,1.13*11
$GNGSA,A,3,78,82,80,68,79,67,83,,,,,,1.37,0.77,1.13*1D
$GPGSV,5,1,17,05,36,034,19,10,08,213,10,12,73,096,17,13,13,103,*70
$GPGSV,5,2,17,15,41,133,31,18,31,295,30,20,04,033,12,23,49,213,23*74
$GPGSV,5,3,17,24,31,174,23,25,63,339,33,28,06,289,13,29,15,349,26*7D
$GPGSV,5,4,17,36,52,277,35,40,86,351,33,41,58,082,,49,32,274,*7A
$GPGSV,5,5,17,50,10,089,*4A
$GLGSV,3,1,09,66,11,059,,67,40,111,26,68,28,172,20,78,42,168,29*6D
$GLGSV,3,2,09,79,71,282,31,80,21,325,13,81,01,019,12,82,11,337,19*64
$GLGSV,3,3,09,83,09,289,32*5C
$GNGLL,0419.85602,S,05539.60140,E,064224.00,A,A*60
$GNRMC,064225.00,A,0419.85604,S,05539.60139,E,0.045,,260525,,,A*77
$GNVTG,,T,,M,0.045,N,0.083,K,A*37
$GNGGA,064225.00,0419.85604,S,05539.60139,E,1,12,0.77,16.2,M,-47.6,M,,*42
$GNGSA,A,3,12,23,24,25,28,29,15,18,05,10,,,1.37,0.77,1.13*11
$GNGSA,A,3,78,82,80,68,79,67,83,,,,,,1.37,0.77,1.13*1D
$GPGSV,5,1,17,05,36,034,22,10,08,213,09,12,73,096,21,13,13,103,*75
$GPGSV,5,2,17,15,41,133,35,18,31,295,34,20,04,033,13,23,49,213,22*74
$GPGSV,5,3,17,24,31,174,21,25,63,339,36,28,06,289,12,29,15,349,27*7A
$GPGSV,5,4,17,36,52,277,37,40,86,351,36,41,58,082,,49,32,274,*7D
$GPGSV,5,5,17,50,10,089,*4A
$GLGSV,3,1,09,66,11,059,,67,40,111,26,68,28,172,19,78,42,168,30*6F
$GLGSV,3,2,09,79,71,282,33,80,21,325,14,81,01,019,08,82,11,337,17*64
$GLGSV,3,3,09,83,09,289,31*5F
$GNGLL,0419.85604,S,05539.60139,E,064225.00,A,A*69
$GNRMC,064226.00,A,0419.85611,S,05539.60133,E,0.100,,260525,,,A*7A
$GNVTG,,T,,M,0.100,N,0.185,K,A*30
$GNGGA,064226.00,0419.85611,S,05539.60133,E,1,12,0.77,16.2,M,-47.6,M,,*4F
$GNGSA,A,3,12,23,24,25,28,29,15,18,05,10,,,1.37,0.77,1.13*11
$GNGSA,A,3,78,82,80,68,79,67,83,,,,,,1.37,0.77,1.13*1D
$GPGSV,5,1,17,05,36,034,22,10,08,213,10,12,73,096,21,13,13,103,*7D
$GPGSV,5,2,17,15,41,133,32,18,31,295,36,20,04,033,13,23,49,213,19*79
$GPGSV,5,3,17,24,31,174,23,25,63,339,36,28,06,289,14,29,15,349,27*7E
$GPGSV,5,4,17,36,52,277,35,40,86,351,34,41,58,082,,49,32,274,*7D
$GPGSV,5,5,17,50,10,089,*4A
$GLGSV,3,1,09,66,11,059,,67,40,111,25,68,28,172,20,78,42,168,30*66
$GLGSV,3,2,09,79,71,282,33,80,21,325,18,81,01,019,10,82,11,337,17*61
$GLGSV,3,3,09,83,09,289,31*5F
$GNGLL,0419.85611,S,05539.60133,E,064226.00,A,A*64
$GNRMC,064227.00,A,0419.85614,S,05539.60131,E,0.034,,260525,,,A*7A
$GNVTG,,T,,M,0.034,N,0.062,K,A*3E
$GNGGA,064227.00,0419.85614,S,05539.60131,E,1,12,0.77,16.4,M,-47.6,M,,*4F
$GNGSA,A,3,12,23,24,25,28,29,15,18,05,10,,,1.37,0.77,1.13*11
$GNGSA,A,3,78,82,80,68,79,67,83,,,,,,1.37,0.77,1.13*1D
$GPGSV,5,1,17,05,36,034,24,10,08,213,10,12,73,096,24,13,13,103,*7E
$GPGSV,5,2,17,15,41,133,32,18,31,295,35,20,04,033,11,23,49,213,18*79
$GPGSV,5,3,17,24,31,174,25,25,63,339,33,28,06,289,14,29,15,349,25*7F
$GPGSV,5,4,17,36,52,277,38,40,86,351,34,41,58,082,,49,32,274,*70
$GPGSV,5,5,17,50,10,089,*4A
$GLGSV,3,1,09,66,11,059,,67,40,111,26,68,28,172,21,78,42,168,30*64
$GLGSV,3,2,09,79,71,282,31,80,21,325,18,81,01,019,10,82,11,337,18*6C
$GLGSV,3,3,09,83,09,289,34*5A
$GNGLL,0419.85614,S,05539.60131,E,064227.00,A,A*62
$GNRMC,064229.00,A,0419.85611,S,05539.60135,E,0.072,,260525,,,A*77
$GNVTG,,T,,M,0.072,N,0.133,K,A*39
$GNGGA,064229.00,0419.85611,S,05539.60135,E,1,12,0.77,16.3,M,-47.6,M,,*47
$GNGSA,A,3,12,23,24,25,28,29,15,18,05,10,,,1.37,0.77,1.13*11
$GNGSA,A,3,78,82,80,68,79,67,83,,,,,,1.37,0.77,1.13*1D
$GPGSV,5,1,17,05,36,034,21,10,08,213,11,12,73,096,20,13,13,103,*7E
$GPGSV,5,2,17,15,41,133,32,18,31,295,35,20,04,033,11,23,49,213,18*79
$GPGSV,5,3,17,24,31,174,27,25,63,339,34,28,06,289,16,29,15,349,23*7E
$GPGSV,5,4,17,36,52,277,38,40,86,351,35,41,58,082,,49,32,274,*71
$GPGSV,5,5,17,50,10,089,*4A
$GNRMC,064230.00,A,0419.85613,S,05539.60136,E,0.034,,260525,,,A*7C
$GNVTG,,T,,M,0.034,N,0.063,K,A*3F
$GNRMC,064231.00,A,0419.85597,S,05539.60147,E,0.605,,260525,,,A*70
$GNVTG,,T,,M,0.605,N,1.121,K,A*3D
$GNGGA,064231.00,0419.85597,S,05539.60147,E,1,12,0.77,16.2,M,-47.6,M,,*47
$GNGSA,A,3,12,23,24,25,28,29,15,18,05,10,,,1.37,0.77,1.13*11
$GNGSA,A,3,78,82,80,68,79,67,83,,,,,,1.37,0.77,1.13*1D
$GPGSV,5,1,17,05,36,034,19,10,08,213,11,12,73,096,23,13,13,103,*76
$GPGSV,5,2,17,15,41,133,32,18,31,295,32,20,04,033,13,23,49,213,18*7C
$GPGSV,5,3,17,24,31,174,25,25,63,339,28,28,06,289,17,29,15,349,20*73
$GPGSV,5,4,17,36,52,277,33,40,86,351,30,41,58,082,,49,32,274,*7F
$GPGSV,5,5,17,50,10,089,*4A
$GLGSV,3,1,09,66,11,059,,67,40,111,22,68,28,172,19,78,42,168,29*63
$GLGSV,3,2,09,79,71,282,29,80,21,325,11,81,01,019,11,82,11,337,16*63
$GLGSV,3,3,09,83,09,289,32*5C
$GNGLL,0419.85597,S,05539.60147,E,064231.00,A,A*6C
$GNRMC,064232.00,A,0419.85589,S,05539.60151,E,0.224,,260525,,,A*7C
$GNVTG,,T,,M,0.224,N,0.415,K,A*39
$GNGGA,064232.00,0419.85589,S,05539.60151,E,1,12,0.77,16.3,M,-47.6,M,,*4D
$GNGSA,A,3,12,23,24,25,28,29,15,18,05,10,,,1.37,0.77,1.13*11
$GNGSA,A,3,78,82,80,68,79,67,83,,,,,,1.37,0.77,1.13*1D
$GPGSV,5,1,17,05,36,034,18,10,08,213,11,12,73,096,22,13,13,103,*76
$GPGSV,5,2,17,15,41,133,31,18,31,295,32,20,04,033,11,23,49,213,19*7C
$GPGSV,5,3,17,24,31,174,24,25,63,339,28,28,06,289,16,29,15,349,20*73
$GPGSV,5,4,17,36,52,277,33,40,86,351,30,41,58,082,,49,32,274,*7F
$GPGSV,5,5,17,50,10,089,*4A
$GLGSV,3,1,09,66,11,059,,67,40,111,24,68,28,172,20,78,42,168,29*6F
$GLGSV,3,2,09,79,71,282,30,80,21,325,11,81,01,019,09,82,11,337,14*60
$GLGSV,3,3,09,83,09,289,32*5C
$GNGLL,0419.85589,S,05539.60151,E,064232.00,A,A*67
$GNRMC,064233.00,A,0419.85595,S,05539.60143,E,0.158,,260525,,,A*7B
$GNVTG,,T,,M,0.158,N,0.292,K,A*38
$GNGGA,064233.00,0419.85595,S,05539.60143,E,1,12,0.77,16.5,M,-47.6,M,,*44
$GNGSA,A,3,12,23,24,25,28,29,15,18,05,,,,1.37,0.77,1.13*10
$GNGSA,A,3,78,82,80,68,79,67,83,,,,,,1.37,0.77,1.13*1D
$GPGSV,5,1,17,05,36,034,20,10,08,213,11,12,73,096,23,13,13,103,*7C
$GPGSV,5,2,17,15,41,133,36,18,31,295,36,20,04,033,11,23,49,213,22*77
$GPGSV,5,3,17,24,31,174,24,25,63,339,35,28,06,289,15,29,15,349,22*7E
$GPGSV,5,4,17,36,52,277,38,40,86,351,35,41,58,082,,49,32,274,*71
$GPGSV,5,5,17,50,10,089,*4A
$GLGSV,3,1,09,66,11,059,,67,40,111,26,68,28,172,19,78,42,168,30*6F
$GLGSV,3,2,09,79,71,282,33,80,21,325,16,81,01,019,11,82,11,337,13*6A
$GLGSV,3,3,09,83,09,289,34*5A
$GNGLL,0419.85595,S,05539.60143,E,064233.00,A,A*68
$GNRMC,064234.00,A,0419.85596,S,05539.60141,E,0.021,,260525,,,A*72
$GNVTG,,T,,M,0.021,N,0.038,K,A*35
$GNGGA,064234.00,0419.85596,S,05539.60141,E,1,12,0.77,16.7,M,-47.6,M,,*40
$GNGSA,A,3,12,23,24,25,28,29,15,18,05,,,,1.37,0.77,1.13*10
$GNGSA,A,3,78,82,80,68,79,67,83,,,,,,1.37,0.77,1.13*1D
$GPGSV,5,1,17,05,36,034,20,10,08,213,11,12,73,096,23,13,13,103,20*7E
$GPGSV,5,2,17,15,41,133,29,18,31,295,32,20,04,033,14,23,49,213,22*78
$GPGSV,5,3,17,24,31,174,22,25,63,339,32,28,06,289,16,29,15,349,22*7C
$GPGSV,5,4,17,36,52,277,33,40,86,351,31,41,58,082,,49,32,274,*7E
$GPGSV,5,5,17,50,10,089,*4A
$GLGSV,3,1,09,66,11,059,,67,40,111,27,68,28,172,18,78,42,168,28*66
$GLGSV,3,2,09,79,71,282,29,80,21,325,12,81,01,019,12,82,11,337,17*62
$GLGSV,3,3,09,83,09,289,33*5D
$GNGLL,0419.85596,S,05539.60141,E,064234.00,A,A*6E
$GNRMC,064235.00,A,0419.85595,S,05539.60137,E,0.063,,260525,,,A*77
$GNVTG,,T,,M,0.063,N,0.117,K,A*3F
$GNGGA,064235.00,0419.85595,S,05539.60137,E,1,12,0.77,16.8,M,-47.6,M,,*4C
$GNGSA,A,3,12,23,24,25,28,29,15,18,05,,,,1.37,0.77,1.13*10
$GNGSA,A,3,78,82,80,68,79,67,83,,,,,,1.37,0.77,1.13*1D
$GPGSV,5,1,17,05,36,034,18,10,08,213,11,12,73,096,23,13,13,103,17*71
$GPGSV,5,2,17,15,41,133,33,18,31,295,33,20,04,033,13,23,49,213,21*76
$GPGSV,5,3,17,24,31,174,22,25,63,339,33,28,06,289,16,29,15,349,22*7D
$GPGSV,5,4,17,36,52,277,36,40,86,351,35,41,58,082,,49,32,274,*7F
$GPGSV,5,5,17,50,10,089,*4A
$GLGSV,3,1,09,66,11,059,,67,40,111,31,68,28,172,20,78,42,168,29*6B
$GLGSV,3,2,09,79,71,282,32,80,21,325,16,81,01,019,11,82,11,337,20*6B
$GLGSV,3,3,09,83,09,289,34*5A
$GNGLL,0419.85595,S,05539.60137,E,064235.00,A,A*6D
$GNVTG,,T,,M,0.082,N,0.151,K,A*32
$GNGGA,064236.00,0419.85595,S,05539.60135,E,1,12,0.77,16.8,M,-47.6,M,,*4D
$GNGSA,A,3,12,23,24,25,28,29,15,18,05,,,,1.37,0.77,1.13*10
$GNGSA,A,3,78,82,80,68,79,67,83,,,,,,1.37,0.77,1.13*1D
$GPGSV,5,1,17,05,36,034,16,10,08,213,11,12,73,096,22,13,13,103,14*7D
$GPGSV,5,2,17,15,41,133,33,18,31,295,34,20,04,033,12,23,49,213,20*71
$GPGSV,5,3,17,24,31,174,23,25,63,339,33,28,06,289,19,29,15,349,24*75
$GPGSV,5,4,17,36,52,277,35,40,86,351,34,41,58,082,,49,32,274,*7D
$GPGSV,5,5,17,50,10,089,*4A
$GLGSV,3,1,09,66,11,059,,67,40,111,29,68,28,172,21,78,42,168,29*63
$GLGSV,3,2,09,79,71,282,32,80,21,325,18,81,01,019,13,82,11,337,21*66
$GLGSV,3,3,09,83,09,289,34*5A
$GNGLL,0419.85595,S,05539.60135,E,064236.00,A,A*6C
$GNRMC,064237.00,A,0419.85590,S,05539.60137,E,0.222,,260525,,,A*77
$GNRMC,064238.00,A,0419.85595,S,05539.60135,E,0.260,,260525,,,A*79
$GNVTG,,T,,M,0.260,N,0.482,K,A*37
$GNGGA,064238.00,0419.85595,S,05539.60135,E,1,12,0.77,17.0,M,-47.6,M,,*4A
$GNGSA,A,3,12,23,24,25,28,29,15,18,05,,,,1.37,0.77,1.13*10
$GNRMC,064242.00,A,0419.85609,S,05539.60138,E,0.123,,260525,,,A*7B
$GNVTG,,T,,M,0.123,N,0.228,K,A*35
$GNGGA,064242.00,0419.85609,S,05539.60138,E,1,12,0.75,16.9,M,-47.6,M,,*46
$GNGSA,A,3,12,23,24,25,28,29,15,18,05,10,,,1.31,0.75,1.08*1F
$GNGSA,A,3,78,82,80,79,67,83,,,,,,,1.31,0.75,1.08*1D
$GPGSV,5,1,17,05,36,034,17,10,08,213,11,12,73,096,22,13,13,103,08*71
$GPGSV,5,2,17,15,41,133,33,18,31,295,30,20,04,033,,23,49,213,21*77
$GPGSV,5,3,17,24,31,174,24,25,63,339,34,28,06,289,18,29,15,349,25*75
$GPGSV,5,4,17,36,52,277,35,40,86,351,34,41,58,082,,49,32,274,*7D
$GPGSV,5,5,17,50,10,089,*4A
$GLGSV,3,1,09,66,11,059,,67,40,111,25,68,28,172,19,78,42,168,30*6C
$GLGSV,3,2,09,79,71,282,29,80,21,325,15,81,01,019,14,82,11,337,21*66
$GLGSV,3,3,09,83,09,289,34*5A
$GNGLL,0419.85609,S,05539.60138,E,064242.00,A,A*64
$GNRMC,064244.00,A,0419.85629,S,05539.60127,E,0.115,,260525,,,A*74
$GNVTG,,T,,M,0.115,N,0.213,K,A*38
$GNGGA,064244.00,0419.85629,S,05539.60127,E,1,12,0.81,17.3,M,-47.6,M,,*4C
$GNGSA,A,3,12,23,24,25,28,29,15,18,05,10,,,1.43,0.81,1.18*10
$GNGSA,A,3,78,82,80,79,67,83,,,,,,,1.43,0.81,1.18*12
$GPGSV,5,1,17,05,36,034,19,10,08,213,11,12,73,096,22,13,13,103,08*7F
$GPGSV,5,2,17,15,41,133,34,18,31,295,36,20,04,033,,23,49,213,21*76
$GPGSV,5,3,17,24,31,174,25,25,63,339,34,28,06,289,19,29,15,349,24*74
$GPGSV,5,4,17,36,52,277,38,40,86,351,33,41,58,082,,49,32,274,*77
$GPGSV,5,5,17,50,10,089,*4A
$GLGSV,3,1,09,66,11,059,,67,40,111,24,68,28,172,18,78,42,168,30*6C
$GLGSV,3,2,09,79,71,282,32,80,21,325,14,81,01,019,10,82,11,337,22*6A
$GLGSV,3,3,09,83,09,289,34*5A
$GNGLL,0419.85629,S,05539.60127,E,064244.00,A,A*6E
$GNRMC,064245.00,A,0419.85632,S,05539.60128,E,0.221,,260525,,,A*74
$GNVTG,,T,,M,0.221,N,0.409,K,A*31
$GNGGA,064245.00,0419.85632,S,05539.60128,E,1,12,0.81,17.3,M,-47.6,M,,*48
$GNGSA,A,3,12,23,24,25,28,29,15,18,05,10,,,1.42,0.81,1.17*1E
$GNGSA,A,3,78,82,80,79,67,83,,,,,,,1.42,0.81,1.17*1C
$GPGSV,5,1,17,05,36,034,19,10,08,213,09,12,73,096,24,13,13,103,*78
$GPGSV,5,2,17,15,41,133,34,18,31,295,36,20,04,033,,23,49,213,22*75
$GPGSV,5,3,17,24,31,174,26,25,63,339,35,28,06,289,21,29,15,349,24*7D
$GPGSV,5,4,17,36,52,277,37,40,86,351,34,41,58,082,,49,32,274,*7F
$GPGSV,5,5,17,50,10,089,*4A
$GLGSV,3,1,09,66,11,059,,67,40,111,24,68,28,172,18,78,42,168,29*64
$GLGSV,3,2,09,79,71,282,32,80,21,325,16,81,01,019,11,82,11,337,21*6A
$GLGSV,3,3,09,83,09,289,34*5A
$GNGLL,0419.85632,S,05539.60128,E,064245.00,A,A*6A
$GNRMC,064246.00,A,0419.85639,S,05539.60126,E,0.408,,260525,,,A*7F
$GNVTG,,T,,M,0.408,N,0.757,K,A*34
$GNGGA,064246.00,0419.85639,S,05539.60126,E,1,12,0.81,17.4,M,-47.6,M,,*49
$GNGSA,A,3,12,23,24,25,28,29,15,18,05,10,,,1.42,0.81,1.17*1E
$GNGSA,A,3,78,82,80,68,79,67,83,,,,,,1.42,0.81,1.17*12
$GPGSV,5,1,17,05,36,034,21,10,08,213,09,12,73,096,24,13,13,103,*73
$GPGSV,5,2,17,15,41,133,36,18,31,295,36,20,04,033,,23,49,213,23*76
$GPGSV,5,3,17,24,31,174,27,25,63,339,36,28,06,289,22,29,15,349,23*7B
$GPGSV,5,4,17,36,52,277,38,40,86,351,37,41,58,082,,49,32,274,*73
$GPGSV,5,5,17,50,10,089,*4A
$GLGSV,3,1,09,66,11,059,,67,40,111,24,68,28,172,18,78,42,168,30*6C
$GLGSV,3,2,09,79,71,282,33,80,21,325,17,81,01,019,10,82,11,337,20*6A
$GLGSV,3,3,09,83,09,289,36*58
$GNGLL,0419.85639,S,05539.60126,E,064246.00,A,A*6C
$GLGSV,3,2,09,79,71,282,34,80,21,325,15,81,01,019,14,82,11,337,14*6C
$GLGSV,3,3,09,83,09,289,34*5A
$GNGLL,0419.85648,S,05539.60124,E,064248.00,A,A*66
$GNRMC,064252.00,A,0419.85648,S,05539.60133,E,0.190,,260525,,,A*7C
$GNVTG,,T,,M,0.190,N,0.353,K,A*30
$GNGGA,064252.00,0419.85648,S,05539.60133,E,1,12,0.90,17.3,M,-47.6,M,,*49
$GNGSA,A,3,12,23,24,25,28,29,15,18,10,,,,1.48,0.90,1.17*11
$GNGSA,A,3,78,82,80,68,79,67,83,,,,,,1.48,0.90,1.17*18
$GPGSV,5,1,17,05,36,034,17,10,08,213,09,12,73,096,18,13,13,103,09*70
$GPGSV,5,2,17,15,41,133,36,18,31,295,37,20,04,033,15,23,49,213,27*77
$GPGSV,5,3,17,24,31,174,24,25,63,339,29,28,06,289,24,29,15,349,23*70
$GPGSV,5,4,17,36,52,277,37,40,86,351,34,41,58,082,,49,32,274,*7F
$GPGSV,5,5,17,50,10,089,*4A
$GLGSV,3,1,09,66,11,059,,67,40,110,18,68,29,171,15,78,42,168,28*64
$GLGSV,3,2,09,79,71,282,32,80,21,325,15,81,01,019,08,82,11,337,16*65
$GLGSV,3,3,09,83,09,289,31*5F
$GNGLL,0419.85648,S,05539.60133,E,064252.00,A,A*6B
$GPGSV,5,3,17,24,31,174,27,25,63,339,31,28,06,289,24,29,15,349,24*7D
$GPGSV,5,4,17,36,52,277,37,40,86,351,38,41,58,082,,49,32,274,*73
$GPGSV,5,5,17,50,10,089,*4A
$GLGSV,3,1,09,66,11,059,,67,40,110,25,68,29,171,21,78,42,168,31*65
$GLGSV,3,2,09,79,71,282,34,80,21,325,14,81,01,019,11,82,11,337,15*69
$GLGSV,3,3,09,83,09,289,30*5E
$GNGLL,0419.85645,S,05539.60139,E,064254.00,A,A*6A
$GNRMC,064257.00,A,0419.85657,S,05539.60134,E,0.094,,260525,,,A*75
$GNVTG,,T,,M,0.094,N,0.174,K,A*32
$GNGGA,064257.00,0419.85657,S,05539.60134,E,1,12,0.75,16.9,M,-47.6,M,,*45
$GNGSA,A,3,12,23,24,25,28,29,15,18,05,10,,,1.31,0.75,1.08*1F
$GNGSA,A,3,78,82,80,68,79,67,83,,,,,,1.31,0.75,1.08*13
$GPGSV,5,1,17,05,36,034,24,10,08,213,09,12,73,096,20,13,13,103,07*75
$GPGSV,5,2,17,15,41,133,35,18,31,295,34,20,04,033,08,23,49,213,23*7F
$GPGSV,5,3,17,24,31,174,26,25,63,339,32,28,06,289,23,29,15,349,25*79
$GNRMC,064302.00,A,0419.85679,S,05539.60124,E,0.208,,260525,,,A*7E
$GNVTG,,T,,M,0.208,N,0.385,K,A*39
$GNGGA,064302.00,0419.85679,S,05539.60124,E,1,12,0.81,16.6,M,-47.6,M,,*4D
$GNGSA,A,3,12,23,24,25,28,29,15,18,05,13,10,,1.42,0.81,1.17*1C
$GNGSA,A,3,78,82,80,68,79,67,83,,,,,,1.42,0.81,1.17*12
$GPGSV,5,1,17,05,36,034,23,10,08,213,10,12,73,096,20,13,13,103,08*75
$GPGSV,5,2,17,15,41,133,36,18,31,295,33,20,04,033,,23,49,213,21*71
$GPGSV,5,3,17,24,31,174,25,25,63,339,33,28,06,289,26,29,15,349,22*79
$GPGSV,5,4,17,36,52,277,40,40,86,351,38,41,58,082,,49,32,274,*73
$GPGSV,5,5,17,50,10,089,*4A
$GLGSV,3,1,09,66,11,059,,67,40,110,29,68,29,171,20,78,42,168,31*68
$GLGSV,3,2,09,79,71,280,32,80,22,325,19,81,01,020,10,82,11,337,21*6F
$GLGSV,3,3,09,83,09,289,31*5F
$GNGLL,0419.85679,S,05539.60124,E,064302.00,A,A*6B
$GNRMC,064305.00,A,0419.85689,S,05539.60117,E,0.045,,260525,,,A*7D
$GNVTG,,T,,M,0.045,N,0.083,K,A*37
$GNGGA,064305.00,0419.85689,S,05539.60117,E,1,12,0.77,17.0,M,-47.6,M,,*4B
$GNGSA,A,3,12,23,24,25,28,29,15,18,05,10,,,1.37,0.77,1.13*11
$GNGSA,A,3,78,82,80,68,79,67,83,,,,,,1.37,0.77,1.13*1D
$GPGSV,5,1,17,05,36,034,17,10,08,213,09,12,73,096,21,13,13,103,07*74
$GPGSV,5,2,17,15,41,133,37,18,31,295,36,20,04,033,,23,49,213,18*7F
$GPGSV,5,3,17,24,31,174,26,25,63,339,34,28,06,289,22,29,15,349,24*7F
$GPGSV,5,4,17,36,52,277,40,40,86,351,39,41,58,082,,49,32,274,*72
$GPGSV,5,5,17,50,10,089,*4A
$GLGSV,3,1,09,66,11,059,,67,40,110,29,68,29,171,22,78,42,168,30*6B
$GLGSV,3,2,09,79,71,280,31,80,22,325,17,81,01,020,09,82,11,338,17*60
$GLGSV,3,3,09,83,09,289,31*5F
$GNGLL,0419.85689,S,05539.60117,E,064305.00,A,A*63
$GNRMC,064306.00,A,0419.85690,S,05539.60117,E,0.073,,260525,,,A*73
$GNVTG,,T,,M,0.073,N,0.136,K,A*3D
$GNGGA,064306.00,0419.85690,S,05539.60117,E,1,12,0.77,17.0,M,-47.6,M,,*40
$GNGSA,A,3,12,23,24,25,28,29,15,18,05,10,,,1.37,0.77,1.13*11
$GNGSA,A,3,78,82,80,68,79,67,83,,,,,,1.37,0.77,1.13*1D
$GPGSV,5,1,17,05,36,034,16,10,08,213,09,12,73,096,18,13,13,103,*78
$GPGSV,5,2,17,15,41,133,35,18,31,295,32,20,04,033,,23,49,213,19*78
$GPGSV,5,3,17,24,31,174,25,25,63,339,35,28,06,289,21,29,15,349,25*7F
$GPGSV,5,4,17,36,52,277,40,40,86,351,39,41,58,082,,49,32,274,*72
$GPGSV,5,5,17,50,10,089,*4A
$GLGSV,3,1,09,66,11,059,,67,40,110,28,68,29,171,22,78,42,168,29*62
$GLGSV,3,2,09,79,71,280,33,80,22,325,15,81,01,020,11,82,11,338,19*67
$GLGSV,3,3,09,83,09,289,32*5C
$GNGLL,0419.85690,S,05539.60117,E,064306.00,A,A*68
$GNRMC,064307.00,A,0419.85690,S,05539.60117,E,0.059,,260525,,,A*7A
$GNVTG,,T,,M,0.059,N,0.110,K,A*31
$GNGGA,064307.00,0419.85690,S,05539.60117,E,1,12,0.77,17.0,M,-47.6,M,,*41
$GNGSA,A,3,12,23,24,25,28,29,15,18,05,10,,,1.37,0.77,1.13*11
$GNGSA,A,3,78,82,80,68,79,67,83,,,,,,1.37,0.77,1.13*1D
$GPGSV,5,1,17,05,36,034,17,10,08,213,10,12,73,096,15,13,13,103,*7C
$GPGSV,5,2,17,15,41,133,35,18,31,295,33,20,04,033,,23,49,213,18*78
$GPGSV,5,3,17,24,31,174,24,25,63,339,34,28,06,289,19,29,15,349,25*74
$GPGSV,5,4,17,36,52,277,38,40,86,351,38,41,58,082,,49,32,274,*7C
$GPGSV,5,5,17,50,10,089,*4A
$GLGSV,3,1,09,66,11,059,,67,40,110,29,68,29,171,22,78,42,168,30*6B
$GLGSV,3,2,09,79,71,280,33,80,22,325,14,81,01,020,07,82,11,338,21*6A
$GLGSV,3,3,09,83,09,289,32*5C
$GNGLL,0419.85690,S,05539.60117,E,064307.00,A,A*69
$GNRMC,064308.00,A,0419.85690,S,05539.60117,E,0.075,,260525,,,A*7B
$GNVTG,,T,,M,0.075,N,0.139,K,A*34
$GNGGA,064308.00,0419.85690,S,05539.60117,E,1,12,0.81,17.0,M,-47.6,M,,*47
$GNGSA,A,3,12,23,24,25,28,29,15,18,05,10,,,1.42,0.81,1.17*1E
$GNGSA,A,3,78,82,80,68,79,67,83,,,,,,1.42,0.81,1.17*12
$GPGSV,5,1,17,05,36,034,18,10,08,213,10,12,73,096,13,13,13,103,*75
$GPGSV,5,2,17,15,41,133,32,18,31,295,36,20,04,033,,23,49,213,19*7B
$GPGSV,5,3,17,24,31,174,24,25,63,339,31,28,06,289,20,29,15,349,25*7B
$GPGSV,5,4,17,36,52,277,36,40,86,351,37,41,58,082,,49,32,274,*7D
$GPGSV,5,5,17,50,10,089,*4A
$GLGSV,3,1,09,66,11,059,,67,40,110,28,68,29,171,22,78,42,168,31*6B
$GLGSV,3,2,09,79,71,280,34,80,22,325,15,81,01,020,09,82,11,338,22*61
$GLGSV,3,3,09,83,09,289,34*5A
$GNGLL,0419.85690,S,05539.60117,E,064308.00,A,A*66
$GNRMC,064309.00,A,0419.85685,S,05539.60120,E,0.076,,260525,,,A*79
$GNVTG,,T,,M,0.076,N,0.141,K,A*38
$GNGGA,064309.00,0419.85685,S,05539.60120,E,1,12,0.74,17.1,M,-47.6,M,,*4D
$GNGSA,A,3,12,23,24,25,28,29,15,18,05,10,,,1.29,0.74,1.06*19
$GNGSA,A,3,78,82,80,68,79,67,83,,,,,,1.29,0.74,1.06*15
$GPGSV,5,1,17,05,36,034,18,10,08,213,10,12,73,096,12,13,13,103,*74
$GPGSV,5,2,17,15,41,133,30,18,31,295,35,20,04,033,,23,49,213,20*70
$GPGSV,5,3,17,24,31,174,24,25,63,339,30,28,06,289,24,29,15,349,23*78
$GPGSV,5,4,17,36,52,277,36,40,86,351,36,41,58,082,,49,32,274,*7C
$GPGSV,5,5,17,50,10,089,*4A
$GLGSV,3,1,09,66,11,059,,67,40,110,27,68,29,171,21,78,42,168,31*67
$GLGSV,3,2,09,79,71,280,32,80,22,325,15,81,01,020,09,82,11,338,21*64
$GLGSV,3,3,09,83,09,289,33*5D
$GNGLL,0419.85685,S,05539.60120,E,064309.00,A,A*67
$GNRMC,064310.00,A,0419.85680,S,05539.60124,E,0.055,,260525,,,A*71
$GNVTG,,T,,M,0.055,N,0.102,K,A*3E
$GNGGA,064310.00,0419.85680,S,05539.60124,E,1,12,0.77,17.0,M,-47.6,M,,*46
$GNGSA,A,3,12,23,24,25,28,29,15,18,05,10,,,1.37,0.77,1.13*11
$GNGSA,A,3,78,82,80,68,79,67,83,,,,,,1.37,0.77,1.13*1D
$GPGSV,5,1,17,05,36,034,19,10,08,213,10,12,73,096,13,13,13,103,*74
$GPGSV,5,2,17,15,41,133,31,18,31,295,36,20,04,033,,23,49,213,23*71
$GPGSV,5,3,17,24,31,174,26,25,63,339,32,28,06,289,27,29,15,349,26*7E
$GPGSV,5,4,17,36,52,277,39,40,86,351,38,41,58,082,,49,32,274,*7D
$GPGSV,5,5,17,50,10,089,*4A
$GLGSV,3,1,09,66,11,059,,67,40,110,27,68,29,171,21,78,42,168,31*67
$GLGSV,3,2,09,79,71,280,33,80,22,325,15,81,01,020,07,82,11,338,18*61
$GLGSV,3,3,09,83,09,289,32*5C
$GNGLL,0419.85680,S,05539.60124,E,064310.00,A,A*6E
$GNRMC,064311.00,A,0419.85676,S,05539.60128,E,0.053,,260525,,,A*73
$GNVTG,,T,,M,0.053,N,0.099,K,A*3B
$GNGGA,064311.00,0419.85676,S,05539.60128,E,1,12,0.77,17.0,M,-47.6,M,,*42
$GNGSA,A,3,12,23,24,25,28,29,15,18,05,10,,,1.37,0.77,1.13*11
$GNGSA,A,3,78,82,80,68,79,67,83,,,,,,1.37,0.77,1.13*1D
$GPGSV,5,1,17,05,36,034,21,10,08,213,10,12,73,096,15,13,13,103,*79
$GPGSV,5,2,17,15,41,133,32,18,31,295,35,20,04,033,,23,49,213,25*77
$GPGSV,5,3,17,24,31,174,26,25,63,339,33,28,06,289,26,29,15,349,26*7E
$GPGSV,5,4,17,36,52,277,39,40,86,351,38,41,58,082,,49,32,274,*7D
$GPGSV,5,5,17,50,10,089,*4A
$GLGSV,3,1,09,66,11,059,,67,40,110,26,68,29,171,20,78,42,168,32*64
$GLGSV,3,2,09,79,71,280,33,80,22,325,11,81,01,020,09,82,11,338,15*66
$GLGSV,3,3,09,83,09,289,32*5C
$GNGLL,0419.85676,S,05539.60128,E,064311.00,A,A*6A
$GNGGA,064312.00,0419.85670,S,05539.60133,E,1,12,0.74,17.0,M,-47.6,M,,*4E
$GNGSA,A,3,12,23,24,25,28,29,15,18,05,10,,,1.29,0.74,1.06*19
$GNGSA,A,3,78,82,80,68,79,67,83,,,,,,1.29,0.74,1.06*15
$GPGSV,5,1,17,05,36,034,23,10,08,213,10,12,73,096,16,13,13,103,*78
$GPGSV,5,2,17,15,41,133,32,18,31,295,34,20,04,033,,23,49,213,24*77
$GPGSV,5,3,17,24,31,174,25,25,63,339,33,28,06,289,27,29,15,349,25*7F
$GPGSV,5,4,17,36,52,277,38,40,86,351,38,41,58,082,,49,32,274,*7C
$GPGSV,5,5,17,50,10,089,*4A
$GLGSV,3,1,09,66,11,059,,67,40,110,26,68,29,171,20,78,42,168,32*64
$GLGSV,3,2,09,79,71,280,33,80,22,325,11,81,01,020,10,82,11,338,17*6C
$GLGSV,3,3,09,83,09,289,32*5C
$GNGLL,0419.85670,S,05539.60133,E,064312.00,A,A*65
$GNGSA,A,3,12,23,24,25,28,29,15,18,05,10,,,1.37,0.77,1.13*11
$GNGSA,A,3,78,82,80,68,79,67,83,,,,,,1.37,0.77,1.13*1D
$GPGSV,5,1,17,05,36,033,23,10,08,213,14,12,73,096,22,13,13,103,*7C
$GPGSV,5,2,17,15,41,133,30,18,31,295,36,20,04,033,,23,49,213,26*75
$GPGSV,5,3,17,24,31,174,26,25,63,339,34,28,06,289,28,29,15,349,25*74
$GPGSV,5,4,17,36,52,277,36,40,86,351,36,41,58,082,,49,32,274,*7C
$GPGSV,5,5,17,50,10,089,*4A
$GLGSV,3,1,09,66,11,059,,67,40,110,24,68,29,171,23,78,42,168,32*65
$GLGSV,3,2,09,79,71,280,33,80,22,325,15,81,01,020,09,82,11,338,15*62
$GLGSV,3,3,09,83,09,289,32*5C
$GNGLL,0419.85657,S,05539.60139,E,064314.00,A,A*6C
$GNRMC,064315.00,A,0419.85656,S,05539.60137,E,0.083,,260525,,,A*76
$GNVTG,,T,,M,0.083,N,0.154,K,A*36
$GNGGA,064315.00,0419.85656,S,05539.60137,E,1,12,0.73,17.3,M,-47.6,M,,*4D
$GNGSA,A,3,12,23,24,25,28,29,15,18,05,10,,,1.29,0.73,1.06*1E
$GNGSA,A,3,78,82,80,68,79,67,83,,,,,,1.29,0.73,1.06*12
$GPGSV,5,1,17,05,36,033,21,10,08,213,09,12,73,096,22,13,13,103,*72
$GPGSV,5,2,17,15,41,133,29,18,31,295,28,20,04,033,,23,49,213,25*71
$GPGSV,5,3,17,24,31,174,26,25,63,339,33,28,06,289,28,29,15,349,24*72
$GPGSV,5,4,17,36,52,277,35,40,86,351,37,41,58,082,,49,32,274,*7E
$GPGSV,5,5,17,50,10,089,*4A
$GLGSV,3,1,09,66,11,059,,67,40,110,24,68,29,171,25,78,42,168,33*62
$GLGSV,3,2,09,79,71,280,33,80,22,325,16,81,01,020,10,82,11,338,14*68
$GLGSV,3,3,09,83,09,289,31*5F
$GNGLL,0419.85656,S,05539.60137,E,064315.00,A,A*62
$GNRMC,064316.00,A,0419.85656,S,05539.60135,E,0.029,,260525,,,A*77
$GNVTG,,T,,M,0.029,N,0.054,K,A*37
$GNGGA,064316.00,0419.85656,S,05539.60135,E,1,12,0.77,17.4,M,-47.6,M,,*4F
$GNGSA,A,3,12,23,24,25,28,29,15,18,05,10,,,1.37,0.77,1.13*11
$GNGSA,A,3,78,82,80,68,79,67,83,,,,,,1.37,0.77,1.13*1D
$GPGSV,5,1,17,05,36,033,19,10,08,213,08,12,73,096,20,13,13,103,*7A
$GPGSV,5,2,17,15,41,133,29,18,31,295,30,20,04,033,,23,49,213,23*7E
$GPGSV,5,3,17,24,31,174,27,25,63,339,32,28,06,289,27,29,15,349,26*7F
$GPGSV,5,4,17,36,52,277,36,40,86,351,37,41,58,082,,49,32,274,*7D
$GPGSV,5,5,17,50,10,089,*4A
$GLGSV,3,1,09,66,11,059,,67,40,110,24,68,29,171,24,78,42,168,33*63
$GLGSV,3,2,09,79,71,280,35,80,22,325,15,81,01,020,10,82,11,338,16*6F
$GLGSV,3,3,09,83,09,289,31*5F
$GNGLL,0419.85656,S,05539.60135,E,064316.00,A,A*63
$GNRMC,064317.00,A,0419.85657,S,05539.60130,E,0.077,,260525,,,A*79
$GNVTG,,T,,M,0.077,N,0.142,K,A*3A
$GNGGA,064317.00,0419.85657,S,05539.60130,E,1,12,0.77,17.6,M,-47.6,M,,*48
$GNGSA,A,3,12,23,24,25,28,29,15,18,05,10,,,1.37,0.77,1.13*11
$GNGSA,A,3,78,82,80,68,79,67,83,,,,,,1.37,0.77,1.13*1D
$GPGSV,5,1,17,05,36,033,17,10,08,213,10,12,73,096,20,13,13,103,*7D
$GPGSV,5,2,17,15,41,133,29,18,31,295,32,20,04,033,,23,49,213,20*7F
$GPGSV,5,3,17,24,31,174,26,25,63,339,31,28,06,289,27,29,15,349,26*7D
$GPGSV,5,4,17,36,52,277,36,40,86,351,37,41,58,082,,49,32,274,*7D
$GPGSV,5,5,17,50,10,089,*4A
$GLGSV,3,1,09,66,11,059,,67,40,110,26,68,29,171,24,78,42,168,32*60
$GLGSV,3,2,09,79,71,280,35,80,22,325,17,81,01,020,09,82,11,338,15*66
$GLGSV,3,3,09,83,09,289,30*5E
$GNGLL,0419.85657,S,05539.60130,E,064317.00,A,A*66
$GNRMC,064318.00,A,0419.85657,S,05539.60128,E,0.008,,260525,,,A*77
$GNVTG,,T,,M,0.008,N,0.016,K,A*32
$GNGGA,064318.00,0419.85657,S,05539.60128,E,1,12,0.77,17.7,M,-47.6,M,,*4F
$GNGSA,A,3,12,23,24,25,28,29,15,18,05,10,,,1.37,0.77,1.13*11
$GNGSA,A,3,78,82,80,68,79,67,83,,,,,,1.37,0.77,1.13*1D
$GPGSV,5,1,17,05,36,033,18,10,08,213,09,12,73,096,22,13,13,103,*78
$GPGSV,5,2,17,15,41,133,29,18,31,295,31,20,04,033,,23,49,213,16*79
$GPGSV,5,3,17,24,31,174,27,25,63,339,31,28,06,289,29,29,15,349,26*72
$GPGSV,5,4,17,36,52,277,36,40,86,351,38,41,58,082,,49,32,274,*72
$GPGSV,5,5,17,50,10,089,*4A
$GLGSV,3,1,09,66,11,059,,67,40,110,27,68,29,171,25,78,42,168,32*60
$GLGSV,3,2,09,79,71,280,35,80,22,325,18,81,01,020,12,82,11,338,17*61
$GLGSV,3,3,09,83,09,289,31*5F
$GNRMC,064319.00,A,0419.85657,S,05539.60125,E,0.022,,260525,,,A*73
$GNVTG,,T,,M,0.022,N,0.041,K,A*38
$GNGGA,064319.00,0419.85657,S,05539.60125,E,1,12,0.77,17.8,M,-47.6,M,,*4C
$GNGSA,A,3,12,23,24,25,28,29,15,18,05,10,,,1.37,0.77,1.13*11
$GNGSA,A,3,78,82,80,68,79,67,83,,,,,,1.37,0.77,1.13*1D
$GPGSV,5,1,17,05,36,033,20,10,09,213,09,12,73,096,22,13,13,103,*72
$GPGSV,5,2,17,15,41,133,29,18,31,295,32,20,04,033,,23,49,213,15*79
$GPGSV,5,3,17,24,31,174,27,25,63,339,33,28,06,289,28,29,15,349,26*71
$GPGSV,5,4,17,36,52,277,36,40,86,351,37,41,58,082,,49,32,274,*7D
$GPGSV,5,5,17,50,10,089,*4A
$GLGSV,3,1,09,66,11,059,,67,40,110,28,68,29,171,25,78,42,168,32*6F
$GLGSV,3,2,09,79,71,280,35,80,22,325,20,81,01,020,08,82,11,338,18*6E
$GLGSV,3,3,09,83,09,289,32*5C
$GNGLL,0419.85657,S,05539.60125,E,064319.00,A,A*6C
$GNRMC,064320.00,A,0419.85659,S,05539.60120,E,0.126,,260525,,,A*77
$GNVTG,,T,,M,0.126,N,0.232,K,A*3B
$GNGGA,064320.00,0419.85659,S,05539.60120,E,1,12,0.77,18.1,M,-47.6,M,,*4B
$GNGSA,A,3,12,23,24,25,28,29,15,18,05,10,,,1.37,0.77,1.13*11
$GNGSA,A,3,78,82,80,68,79,67,83,,,,,,1.37,0.77,1.13*1D
$GPGSV,5,1,17,05,36,033,19,10,09,213,08,12,73,096,22,13,13,103,*79
$GPGSV,5,2,17,15,41,133,29,18,31,295,31,20,04,033,,23,49,213,15*7A
$GPGSV,5,3,17,24,31,174,28,25,63,339,33,28,06,289,28,29,15,349,24*7C
$GPGSV,5,4,17,36,52,277,36,40,86,351,38,41,58,082,,49,32,274,*72
$GPGSV,5,5,17,50,10,089,*4A
$GLGSV,3,1,09,66,11,059,,67,40,110,28,68,29,171,24,78,42,168,32*6E
$GLGSV,3,2,09,79,71,280,35,80,22,325,22,81,01,020,08,82,11,338,18*6C
$GLGSV,3,3,09,83,09,289,32*5C
$GNGLL,0419.85659,S,05539.60120,E,064320.00,A,A*6D
$GNRMC,064323.00,A,0419.85672,S,05539.60108,E,0.143,,260525,,,A*74
$GNVTG,,T,,M,0.143,N,0.265,K,A*3A
$GNGGA,064323.00,0419.85672,S,05539.60108,E,1,12,0.77,18.3,M,-47.6,M,,*49
$GNGSA,A,3,12,23,24,25,28,29,15,18,05,10,,,1.37,0.77,1.13*11
$GNGSA,A,3,78,82,80,68,79,67,83,,,,,,1.37,0.77,1.13*1D
$GPGSV,5,1,17,05,36,033,22,10,09,213,12,12,73,099,19,13,13,103,*7D
$GPGSV,5,2,17,15,41,133,31,18,31,295,30,20,04,033,,23,49,213,24*70
$GPGSV,5,3,17,24,31,174,28,25,63,339,34,28,06,289,30,29,15,349,25*73
$GPGSV,5,4,17,36,52,277,35,40,86,351,38,41,58,082,,49,32,274,*71
$GPGSV,5,5,17,50,10,089,*4A
$GLGSV,3,1,09,66,11,059,,67,40,110,26,68,29,171,25,78,42,168,32*61
$GLGSV,3,2,09,79,71,280,33,80,22,325,18,81,01,020,07,82,11,338,17*63
$GLGSV,3,3,09,83,09,289,33*5D
$GNGLL,0419.85672,S,05539.60108,E,064323.00,A,A*6D
$GNRMC,064324.00,A,0419.85675,S,05539.60103,E,0.134,,260525,,,A*7F
$GNVTG,,T,,M,0.134,N,0.248,K,A*35
$GNGGA,064324.00,0419.85675,S,05539.60103,E,1,12,0.73,18.4,M,-47.6,M,,*41
$GNGSA,A,3,12,23,24,25,28,29,15,18,05,10,,,1.29,0.73,1.06*1E
$GNGSA,A,3,78,82,80,68,79,67,83,,,,,,1.29,0.73,1.06*12
$GPGSV,5,1,17,05,36,033,22,10,09,213,11,12,73,099,21,13,13,103,*75
$GPGSV,5,2,17,15,41,132,30,18,31,295,30,20,04,033,,23,49,213,22*76
$GPGSV,5,3,17,24,31,174,27,25,63,339,33,28,06,289,29,29,15,349,24*72
$GPGSV,5,4,17,36,52,277,36,40,86,351,38,41,58,082,,49,32,274,*72
$GPGSV,5,5,17,50,10,089,*4A
$GLGSV,3,1,09,66,11,059,,67,40,110,26,68,29,171,24,78,42,168,32*60
$GLGSV,3,2,09,79,71,280,33,80,22,325,18,81,01,020,09,82,11,338,18*62
$GLGSV,3,3,09,83,09,289,33*5D
$GNGLL,0419.85675,S,05539.60103,E,064324.00,A,A*66
$GLGSV,3,1,09,66,11,059,,67,40,110,26,68,29,171,25,78,42,168,32*61
$GLGSV,3,2,09,79,71,280,35,80,22,325,19,81,01,020,07,82,11,338,17*64
$GLGSV,3,3,09,83,09,289,32*5C
$GNGLL,0419.85676,S,05539.60096,E,064325.00,A,A*69
$GNRMC,064329.00,A,0419.85681,S,05539.60078,E,0.124,,260525,,,A*75
$GNVTG,,T,,M,0.124,N,0.230,K,A*3B
$GNGGA,064329.00,0419.85681,S,05539.60078,E,1,12,0.77,18.6,M,-47.6,M,,*4C
$GNGSA,A,3,12,23,24,25,28,29,15,18,05,10,,,1.37,0.77,1.13*11
$GNGSA,A,3,78,82,80,68,79,67,83,,,,,,1.37,0.77,1.13*1D
$GNRMC,064330.00,A,0419.85680,S,05539.60076,E,0.047,,260525,,,A*76
$GNVTG,,T,,M,0.047,N,0.087,K,A*31
$GNGGA,064330.00,0419.85680,S,05539.60076,E,1,12,0.73,18.6,M,-47.6,M,,*4F
$GNGSA,A,3,12,23,24,25,28,29,15,18,05,10,,,1.29,0.73,1.06*1E
$GNGSA,A,3,78,82,80,68,79,67,83,,,,,,1.29,0.73,1.06*12
$GPGSV,5,5,17,50,10,089,*4A
$GLGSV,3,1,09,66,11,059,,67,40,110,25,68,29,171,23,78,42,168,32*64
$GLGSV,3,2,09,79,71,280,33,80,22,325,19,81,01,020,09,82,11,338,16*6D
$GLGSV,3,3,09,83,09,289,32*5C
$GNGLL,0419.85685,S,05539.60070,E,064331.00,A,A*68
$GNVTG,,T,,M,0.090,N,0.166,K,A*35
$GNGGA,064333.00,0419.85686,S,05539.60065,E,1,12,0.73,18.9,M,-47.6,M,,*47
$GNGSA,A,3,12,23,24,25,28,29,15,18,05,10,,,1.29,0.73,1.06*1E
$GNGSA,A,3,78,82,80,68,79,67,83,,,,,,1.29,0.73,1.06*12
$GPGSV,5,1,17,05,36,033,26,10,09,213,13,12,73,099,22,13,13,103,*70
$GPGSV,5,2,17,15,41,132,31,18,31,296,31,20,04,033,,23,50,213,24*7B
$GPGSV,5,3,17,24,30,173,26,25,63,339,31,28,06,289,26,29,15,349,23*7F
$GPGSV,5,4,17,36,52,277,35,40,86,351,38,41,58,082,,49,32,274,*71
$GPGSV,5,5,17,50,10,089,*4A
$GLGSV,3,1,09,66,11,059,,67,40,110,26,68,29,171,21,78,42,168,32*65
$GLGSV,3,2,09,79,71,280,33,80,22,325,20,81,01,020,08,82,11,338,13*63
$GLGSV,3,3,09,83,09,289,31*5F
$GNGLL,0419.85686,S,05539.60065,E,064333.00,A,A*6D
$GNRMC,064334.00,A,0419.85686,S,05539.60065,E,0.075,,260525,,,A*77
$GNVTG,,T,,M,0.075,N,0.138,K,A*35
$GNGGA,064334.00,0419.85686,S,05539.60065,E,1,12,0.77,18.8,M,-47.6,M,,*45
$GNGSA,A,3,12,23,24,25,28,29,15,18,05,10,,,1.37,0.77,1.13*11
$GNGSA,A,3,78,82,80,68,79,67,83,,,,,,1.37,0.77,1.13*1D
$GPGSV,5,1,17,05,36,033,26,10,09,213,13,12,73,099,23,13,13,103,*71
$GPGSV,5,2,17,15,41,132,29,18,31,296,30,20,04,033,,23,50,213,23*74
$GPGSV,5,3,17,24,30,173,27,25,63,339,35,28,06,289,26,29,15,349,24*7D
$GPGSV,5,4,17,36,52,277,35,40,86,351,39,41,58,082,,49,32,274,*70
$GPGSV,5,5,17,50,10,089,*4A
$GLGSV,3,1,09,66,11,059,,67,40,110,25,68,29,171,22,78,42,168,31*66
$GLGSV,3,2,09,79,71,280,33,80,22,325,20,81,01,020,09,82,11,338,16*67
$GLGSV,3,3,09,83,09,289,32*5C
$GNGLL,0419.85686,S,05539.60065,E,064334.00,A,A*6A
$GNRMC,064336.00,A,0419.85689,S,05539.60055,E,0.109,,260525,,,A*73
$GNVTG,,T,,M,0.109,N,0.201,K,A*36
$GNGGA,064336.00,0419.85689,S,05539.60055,E,1,12,0.77,19.1,M,-47.6,M,,*43
$GNGSA,A,3,12,23,24,25,28,29,15,18,05,10,,,1.37,0.77,1.13*11
$GNGSA,A,3,78,82,80,68,79,67,83,,,,,,1.37,0.77,1.13*1D
$GPGSV,5,1,17,05,36,033,19,10,09,213,13,12,73,099,26,13,13,103,*78
$GPGSV,5,2,17,15,41,132,33,18,31,296,34,20,04,033,,23,50,213,29*71
$GPGSV,5,3,17,24,30,173,27,25,63,339,31,28,06,288,27,29,15,349,24*79
$GPGSV,5,4,17,36,52,277,40,40,86,351,39,41,58,082,,49,32,274,*72
$GPGSV,5,5,17,50,10,089,*4A
$GLGSV,3,1,09,66,11,059,,67,40,110,26,68,29,171,25,78,42,168,29*6B
$GLGSV,3,2,09,79,71,280,22,80,22,325,18,81,01,020,10,82,11,338,19*6B
$GLGSV,3,3,09,83,09,289,31*5F
$GNGLL,0419.85689,S,05539.60055,E,064336.00,A,A*64
$GNRMC,064337.00,A,0419.85691,S,05539.60050,E,0.073,,260525,,,A*72
$GNVTG,,T,,M,0.073,N,0.136,K,A*3D
$GNGGA,064337.00,0419.85691,S,05539.60050,E,1,12,0.77,19.3,M,-47.6,M,,*4C
$GNGSA,A,3,12,23,24,25,28,29,15,18,05,10,,,1.37,0.77,1.13*11
$GNGSA,A,3,78,82,80,68,79,67,83,,,,,,1.37,0.77,1.13*1D
$GPGSV,5,1,17,05,36,033,17,10,09,213,09,12,73,099,26,13,13,103,*7D
$GPGSV,5,2,17,15,41,132,34,18,31,296,32,20,04,033,,23,50,213,28*71
$GPGSV,5,3,17,24,30,173,27,25,63,339,32,28,06,288,26,29,16,350,22*76
$GPGSV,5,4,17,36,52,277,38,40,86,351,39,41,58,082,,49,32,274,*7D
$GPGSV,5,5,17,50,10,089,*4A
$GLGSV,3,1,09,66,11,059,,67,40,110,27,68,29,171,25,78,42,168,29*6A
$GLGSV,3,2,09,79,71,280,24,80,22,325,17,81,01,020,10,82,11,338,20*68
$GLGSV,3,3,09,83,09,289,32*5C
$GNGLL,0419.85691,S,05539.60050,E,064337.00,A,A*69
$GNRMC,064338.00,A,0419.85689,S,05539.60051,E,0.123,,260525,,,A*71
$GNVTG,,T,,M,0.123,N,0.227,K,A*3A
$GNGGA,064338.00,0419.85689,S,05539.60051,E,1,12,0.77,19.3,M,-47.6,M,,*4B
$GNGSA,A,3,12,23,24,25,28,29,15,18,05,10,,,1.37,0.77,1.13*11
$GNGSA,A,3,78,82,80,68,79,67,83,,,,,,1.37,0.77,1.13*1D
$GPGSV,5,1,17,05,36,033,15,10,09,213,09,12,73,099,24,13,13,103,*7D
$GPGSV,5,2,17,15,41,132,34,18,31,296,26,20,04,033,,23,50,213,27*7B
$GPGSV,5,3,17,24,30,173,27,25,63,339,34,28,06,288,26,29,16,350,25*77
$GPGSV,5,4,17,36,52,277,36,40,86,351,39,41,58,082,,49,32,274,*73
$GPGSV,5,5,17,50,10,089,*4A
$GLGSV,3,1,09,66,11,059,,67,40,110,27,68,29,171,26,78,42,168,29*69
$GLGSV,3,2,09,79,71,280,27,80,22,325,16,81,01,020,09,82,11,338,20*62
$GLGSV,3,3,09,83,09,289,33*5D
$GNGLL,0419.85689,S,05539.60051,E,064338.00,A,A*6E
$GNGSA,A,3,12,23,24,25,28,29,15,18,05,10,,,1.29,0.73,1.06*1E
$GNGSA,A,3,78,82,80,68,79,67,83,,,,,,1.29,0.73,1.06*12
$GPGSV,5,1,17,05,36,033,16,10,09,213,09,12,73,099,25,13,13,103,*7F
$GPGSV,5,2,17,15,41,132,34,18,31,296,26,20,04,033,,23,50,213,26*7A
$GPGSV,5,3,17,24,30,173,27,25,63,339,34,28,06,288,25,29,16,350,24*75
$GPGSV,5,4,17,36,52,277,36,40,86,351,39,41,58,082,,49,32,274,*73
$GPGSV,5,5,17,50,10,089,*4A
$GLGSV,3,1,09,66,11,059,,67,40,110,27,68,29,171,26,78,42,168,29*69
$GLGSV,3,2,09,79,71,280,28,80,22,325,14,81,01,020,11,82,11,338,19*6C
$GLGSV,3,3,09,83,09,289,34*5A
$GNGLL,0419.85690,S,05539.60050,E,064339.00,A,A*66
$GNRMC,064342.00,A,0419.85702,S,05539.60043,E,0.149,,260525,,,A*71
$GNVTG,,T,,M,0.149,N,0.275,K,A*31
$GNGGA,064342.00,0419.85702,S,05539.60043,E,1,12,0.77,19.4,M,-47.6,M,,*40
$GNGSA,A,3,12,23,24,25,28,29,15,18,05,10,,,1.37,0.77,1.13*11
$GNGSA,A,3,78,82,80,68,79,67,83,,,,,,1.37,0.77,1.13*1D
$GPGSV,5,1,17,05,36,033,19,10,09,213,09,12,73,099,30,13,13,103,13*76
$GPGSV,5,2,17,15,41,132,35,18,31,296,31,20,04,033,,23,50,213,28*73
$GPGSV,5,3,17,24,30,173,26,25,63,339,33,28,06,288,26,29,16,350,24*70
$GPGSV,5,4,17,36,52,277,36,40,86,351,39,41,58,082,,49,32,274,*73
$GPGSV,5,5,17,50,10,089,*4A
$GLGSV,3,1,09,66,11,059,,67,40,110,27,68,29,171,23,78,42,168,29*6C
$GLGSV,3,2,09,79,71,280,25,80,22,325,12,81,01,020,10,82,11,338,20*6C
$GLGSV,3,3,09,83,09,289,33*5D
$GNGLL,0419.85702,S,05539.60043,E,064342.00,A,A*62
$GNRMC,064343.00,A,0419.85700,S,05539.60042,E,0.084,,260525,,,A*73
$GNVTG,,T,,M,0.084,N,0.156,K,A*33
$GNGGA,064343.00,0419.85700,S,05539.60042,E,1,12,0.77,19.4,M,-47.6,M,,*42
$GNGSA,A,3,12,23,24,25,28,29,15,18,05,10,,,1.37,0.77,1.13*11
$GNGSA,A,3,78,82,80,68,79,67,83,,,,,,1.37,0.77,1.13*1D
$GPGSV,5,1,17,05,36,033,21,10,09,213,12,12,73,099,29,13,13,103,13*7F
$GPGSV,5,2,17,15,41,132,34,18,31,296,30,20,04,033,10,23,50,213,30*7B
$GPGSV,5,3,17,24,30,173,27,25,63,339,33,28,06,288,26,29,16,350,25*70
$GPGSV,5,4,17,36,52,277,36,40,86,351,39,41,58,082,,49,32,274,*73
$GPGSV,5,5,17,50,10,089,*4A
$GLGSV,3,1,09,66,11,059,,67,40,110,27,68,29,171,25,78,42,168,29*6A
$GLGSV,3,2,09,79,71,280,26,80,22,325,12,81,01,020,11,82,11,338,19*64
$GLGSV,3,3,09,83,09,289,34*5A
$GNGLL,0419.85700,S,05539.60042,E,064343.00,A,A*60
$GNRMC,064344.00,A,0419.85696,S,05539.60045,E,0.029,,260525,,,A*7A
$GNVTG,,T,,M,0.029,N,0.054,K,A*37
$GNRMC,064345.00,A,0419.85689,S,05539.60052,E,0.154,,260525,,,A*78
$GNVTG,,T,,M,0.154,N,0.285,K,A*32
$GNGGA,064345.00,0419.85689,S,05539.60052,E,1,12,0.77,19.3,M,-47.6,M,,*42
$GNGSA,A,3,12,23,24,25,28,29,15,18,05,13,10,,1.37,0.77,1.13*13
$GNGSA,A,3,78,82,80,68,79,67,83,,,,,,1.37,0.77,1.13*1D
$GPGSV,5,1,17,05,36,033,22,10,09,213,17,12,73,099,29,13,13,103,12*78
$GPGSV,5,2,17,15,41,132,34,18,31,296,31,20,04,033,09,23,50,213,30*72
$GPGSV,5,3,17,24,30,173,27,25,63,339,33,28,06,288,26,29,16,350,25*70
$GPGSV,5,4,17,36,52,277,36,40,86,351,39,41,58,082,,49,32,274,*73
$GPGSV,5,5,17,50,10,089,*4A
$GNRMC,064346.00,A,0419.85685,S,05539.60054,E,0.027,,260525,,,A*74
$GNVTG,,T,,M,0.027,N,0.050,K,A*3D
$GNGGA,064346.00,0419.85685,S,05539.60054,E,1,12,0.77,19.2,M,-47.6,M,,*4A
$GNGSA,A,3,12,23,24,25,28,29,15,18,05,13,10,,1.37,0.77,1.13*13
$GNGSA,A,3,78,82,80,68,79,67,83,,,,,,1.37,0.77,1.13*1D
$GPGSV,5,1,17,05,36,033,22,10,09,213,11,12,73,099,29,13,13,103,11*7D
$GPGSV,5,2,17,15,41,132,34,18,31,296,30,20,04,033,08,23,50,213,29*7A
$GPGSV,5,3,17,24,30,173,27,25,63,339,34,28,06,288,26,29,16,350,25*77
$GPGSV,5,4,17,36,52,277,37,40,86,351,39,41,58,082,,49,32,274,*72
$GPGSV,5,5,17,50,10,089,*4A
$GLGSV,3,1,09,66,11,059,,67,40,110,26,68,29,171,26,78,42,168,30*60
$GLGSV,3,2,09,79,71,280,26,80,22,325,14,81,01,020,07,82,11,338,21*6E
$GLGSV,3,3,09,83,09,289,33*5D
$GNGLL,0419.85685,S,05539.60054,E,064346.00,A,A*6E
$GNRMC,064347.00,A,0419.85683,S,05539.60055,E,0.154,,260525,,,A*77
$GNVTG,,T,,M,0.154,N,0.286,K,A*31
$GNGGA,064347.00,0419.85683,S,05539.60055,E,1,12,0.77,19.0,M,-47.6,M,,*4E
$GNGSA,A,3,12,23,24,25,28,29,15,18,05,13,10,,1.37,0.77,1.13*13
$GNGSA,A,3,78,82,80,68,79,67,83,,,,,,1.37,0.77,1.13*1D
$GPGSV,5,1,17,05,36,033,22,10,09,213,13,12,73,099,30,13,13,103,11*77
$GPGSV,5,2,17,15,41,132,34,18,31,296,29,20,04,033,08,23,50,213,29*72
$GPGSV,5,3,17,24,30,173,26,25,63,339,34,28,06,288,25,29,16,350,25*75
$GPGSV,5,4,17,36,52,277,36,40,86,351,39,41,58,082,,49,32,274,*73
$GPGSV,5,5,17,50,10,089,*4A
$GLGSV,3,1,09,66,11,059,,67,40,110,25,68,29,171,26,78,42,168,30*63
$GLGSV,3,2,09,79,71,280,26,80,22,325,13,81,01,020,09,82,11,338,22*64
$GLGSV,3,3,09,83,09,289,33*5D
$GNGLL,0419.85683,S,05539.60055,E,064347.00,A,A*68
$GNRMC,064348.00,A,0419.85684,S,05539.60053,E,0.100,,260525,,,A*78
$GNVTG,,T,,M,0.100,N,0.184,K,A*31
$GNGGA,064348.00,0419.85684,S,05539.60053,E,1,12,0.69,18.9,M,-47.6,M,,*47
$GNGSA,A,3,12,23,24,25,28,29,15,18,05,13,10,,1.20,0.69,0.98*18
$GNGSA,A,3,78,82,80,68,79,67,83,,,,,,1.20,0.69,0.98*16
$GPGSV,5,1,17,05,36,033,24,10,09,213,10,12,73,099,31,13,13,103,11*73
$GPGSV,5,2,17,15,41,132,34,18,31,296,30,20,04,033,08,23,50,213,29*7A
$GPGSV,5,3,17,24,30,173,27,25,63,339,34,28,06,288,26,29,16,350,25*77
$GPGSV,5,4,17,36,52,277,36,40,86,351,39,41,58,082,,49,32,274,*73
$GPGSV,5,5,17,50,10,089,*4A
$GLGSV,3,1,09,66,11,059,,67,40,110,26,68,29,171,24,78,42,168,30*62
$GLGSV,3,2,09,79,71,280,26,80,22,325,13,81,01,020,12,82,11,338,22*6E
$GLGSV,3,3,09,83,09,289,33*5D
$GNGLL,0419.85684,S,05539.60053,E,064348.00,A,A*66
$GNRMC,064349.00,A,0419.85687,S,05539.60051,E,0.131,,260525,,,A*7A
$GNVTG,,T,,M,0.131,N,0.242,K,A*3A
$GNGGA,064349.00,0419.85687,S,05539.60051,E,1,12,0.77,18.9,M,-47.6,M,,*48
$GNGSA,A,3,12,23,24,25,28,29,15,18,05,13,10,,1.37,0.77,1.13*13
$GNGSA,A,3,78,82,80,68,79,67,83,,,,,,1.37,0.77,1.13*1D
$GPGSV,5,1,17,05,36,033,25,10,09,213,11,12,73,099,31,13,13,103,11*73
$GPGSV,5,2,17,15,41,132,34,18,31,296,29,20,04,033,08,23,50,213,29*72
$GPGSV,5,3,17,24,30,173,27,25,63,339,34,28,06,288,26,29,16,350,24*76
$GPGSV,5,4,17,36,52,277,36,40,86,351,39,41,58,082,,49,32,274,*73
$GPGSV,5,5,17,50,10,089,*4A
$GLGSV,3,1,09,66,11,059,,67,40,110,26,68,29,171,24,78,42,168,29*6A
$GLGSV,3,2,09,79,71,280,26,80,22,325,13,81,01,020,09,82,11,338,20*66
$GLGSV,3,3,09,83,09,289,33*5D
$GNGLL,0419.85687,S,05539.60051,E,064349.00,A,A*66
$GNRMC,064350.00,A,0419.85688,S,05539.60051,E,0.054,,260525,,,A*7F
$GNVTG,,T,,M,0.054,N,0.099,K,A*3C
$GNGGA,064350.00,0419.85688,S,05539.60051,E,1,12,0.77,18.8,M,-47.6,M,,*4E
$GNGSA,A,3,12,23,24,25,28,29,15,18,05,13,10,,1.37,0.77,1.13*13
$GNGSA,A,3,78,82,80,68,79,67,83,,,,,,1.37,0.77,1.13*1D
$GPGSV,5,1,17,05,36,033,26,10,09,213,12,12,73,099,30,13,13,103,10*73
$GPGSV,5,2,17,15,41,132,34,18,31,296,29,20,04,033,08,23,50,213,29*72
$GPGSV,5,3,17,24,30,173,26,25,63,339,35,28,06,288,26,29,16,350,24*76
$GPGSV,5,4,17,36,52,277,37,40,86,351,39,41,58,082,,49,32,274,*72
$GPGSV,5,5,17,50,10,089,*4A
$GLGSV,3,1,09,66,11,059,,67,40,110,27,68,29,171,25,78,42,168,29*6A
$GLGSV,3,2,09,79,71,280,26,80,22,325,14,81,01,020,11,82,11,338,18*63
$GLGSV,3,3,09,83,09,289,33*5D
$GNGLL,0419.85688,S,05539.60051,E,064350.00,A,A*61
$GPGSV,5,2,17,15,41,132,33,18,31,296,30,20,04,033,08,23,50,213,29*7D
$GPGSV,5,3,17,24,30,173,26,25,63,339,34,28,06,288,26,29,16,350,22*71
$GPGSV,5,4,17,36,52,277,39,40,86,351,39,41,58,082,,49,32,274,*7C
$GPGSV,5,5,17,50,10,089,*4A
$GLGSV,3,1,09,66,11,059,,67,40,110,26,68,29,171,26,78,42,168,29*68
$GLGSV,3,2,09,79,71,280,26,80,22,325,12,81,01,020,10,82,11,338,17*6B
$GLGSV,3,3,09,83,09,289,33*5D
$GNGLL,0419.85689,S,05539.60052,E,064351.00,A,A*62
$GPGSV,5,2,17,15,41,132,29,18,31,296,31,20,04,033,,23,50,213,27*71
$GPGSV,5,3,17,24,30,173,22,25,63,339,30,28,06,288,22,29,16,350,14*70
$GPGSV,5,4,17,36,52,277,37,40,86,351,37,41,58,082,,49,32,274,*7C
$GPGSV,5,5,17,50,10,089,*4A
$GLGSV,3,1,09,66,11,059,,67,40,110,26,68,29,171,26,78,42,168,27*66
$GLGSV,3,2,09,79,71,280,30,80,22,325,13,81,01,020,11,82,11,338,15*6E
$GLGSV,3,3,09,83,09,289,33*5D
$GNGLL,0419.85679,S,05539.60057,E,064354.00,A,A*6D
$GNRMC,064355.00,A,0419.85678,S,05539.60057,E,0.053,,260525,,,A*74
$GNVTG,,T,,M,0.053,N,0.098,K,A*3A
$GNGGA,064355.00,0419.85678,S,05539.60057,E,1,12,0.81,18.7,M,-47.6,M,,*44
$GNGSA,A,3,12,23,24,25,28,15,18,05,10,,,,1.42,0.81,1.16*14
$GNGSA,A,3,78,82,80,68,79,67,83,,,,,,1.42,0.81,1.16*13
$GPGSV,5,1,17,05,36,033,29,10,09,213,14,12,73,099,30,13,13,103,10*7A
$GPGSV,5,2,17,15,41,132,28,18,31,296,31,20,04,033,,23,50,213,25*72
$GPGSV,5,3,17,24,30,173,20,25,63,339,29,28,06,288,22,29,16,350,*7F
$GPGSV,5,4,17,36,52,277,37,40,86,351,38,41,58,082,,49,32,274,*73
$GNRMC,064357.00,A,0419.85680,S,05539.60061,E,0.047,,260525,,,A*71
$GNVTG,,T,,M,0.047,N,0.086,K,A*30
$GNGGA,064357.00,0419.85680,S,05539.60061,E,1,12,0.84,18.6,M,-47.6,M,,*40
$GNGSA,A,3,12,23,24,25,28,15,18,05,13,10,,,1.46,0.84,1.20*12
$GNGSA,A,3,78,82,80,68,79,67,83,,,,,,1.46,0.84,1.20*17
$GPGSV,5,1,17,05,36,033,26,10,09,213,09,12,73,099,30,13,13,103,09*71
$GPGSV,5,2,17,15,41,132,28,18,31,296,26,20,04,033,,23,50,213,26*77
$GPGSV,5,3,17,24,30,173,19,25,63,339,32,28,06,288,20,29,16,350,*7D
$GPGSV,5,4,17,36,52,277,34,40,86,351,38,41,58,082,,49,32,274,*70
$GPGSV,5,5,17,50,10,089,*4A
$GNRMC,064358.00,A,0419.85679,S,05539.60065,E,0.073,,260525,,,A*7B
$GNVTG,,T,,M,0.073,N,0.136,K,A*3D
$GNGGA,064358.00,0419.85679,S,05539.60065,E,1,12,0.84,18.5,M,-47.6,M,,*4E
$GNGSA,A,3,12,23,24,25,28,15,18,05,13,10,,,1.46,0.84,1.20*12
$GNGSA,A,3,78,82,80,68,79,67,83,,,,,,1.46,0.84,1.20*17
$GPGSV,5,1,17,05,36,033,26,10,09,213,13,12,73,099,31,13,13,103,09*7B
$GNRMC,064359.00,A,0419.85676,S,05539.60069,E,0.107,,260525,,,A*7B
$GNVTG,,T,,M,0.107,N,0.199,K,A*3A
$GNGGA,064359.00,0419.85676,S,05539.60069,E,1,12,0.84,18.4,M,-47.6,M,,*4D
$GNGSA,A,3,12,23,24,25,28,15,18,05,13,10,,,1.46,0.84,1.20*12
$GNGSA,A,3,78,82,80,68,79,67,83,,,,,,1.46,0.84,1.20*17
$GPGSV,5,1,17,05,36,033,26,10,09,213,11,12,73,099,32,13,13,103,09*7A
$GPGSV,5,2,17,15,41,132,24,18,31,296,32,20,04,033,,23,50,213,23*7B
$GPGSV,5,3,17,24,30,173,20,25,63,339,32,28,06,288,21,29,16,350,*76
$GPGSV,5,4,17,36,52,277,37,40,86,351,38,41,58,082,,49,32,274,*73
$GPGSV,5,5,17,50,10,089,*4A
$GLGSV,3,1,09,66,11,059,,67,40,110,21,68,29,171,25,78,42,168,31*65
$GLGSV,3,2,09,79,71,280,29,80,22,325,15,81,01,020,13,82,11,338,16*61
$GLGSV,3,3,09,83,09,289,31*5F
$GNGLL,0419.85676,S,05539.60069,E,064359.00,A,A*62
$GNRMC,064400.00,A,0419.85674,S,05539.60074,E,0.093,,260525,,,A*72
$GNVTG,,T,,M,0.093,N,0.172,K,A*33
$GNGGA,064400.00,0419.85674,S,05539.60074,E,1,12,0.77,18.1,M,-47.6,M,,*41
$GNGSA,A,3,12,23,24,25,28,15,18,05,10,,,,1.34,0.77,1.10*1A
$GNGSA,A,3,78,82,80,68,79,67,83,,,,,,1.34,0.77,1.10*1D
$GPGSV,5,1,17,05,36,033,28,10,09,213,10,12,73,099,32,13,13,103,09*75
$GPGSV,5,2,17,15,41,132,26,18,31,296,30,20,04,033,,23,50,213,22*7A
$GPGSV,5,3,17,24,30,173,19,25,63,339,32,28,06,288,24,29,16,350,*79
$GPGSV,5,4,17,36,52,277,37,40,86,351,36,41,58,082,,49,32,274,*7D
$GPGSV,5,5,17,50,10,089,*4A
$GLGSV,3,1,09,66,11,059,,67,40,110,21,68,29,171,24,78,42,168,29*6D
$GLGSV,3,2,09,79,71,280,29,80,22,325,14,81,01,020,12,82,11,338,17*60
$GLGSV,3,3,09,83,09,289,33*5D
$GNGLL,0419.85674,S,05539.60074,E,064400.00,A,A*67
$GNRMC,064401.00,A,0419.85673,S,05539.60079,E,0.103,,260525,,,A*71
$GNVTG,,T,,M,0.103,N,0.191,K,A*36
$GNGGA,064401.00,0419.85673,S,05539.60079,E,1,12,0.81,18.0,M,-47.6,M,,*42
$GNGSA,A,3,12,23,24,25,28,15,18,05,10,,,,1.42,0.81,1.16*14
$GNGSA,A,3,78,82,80,68,79,67,83,,,,,,1.42,0.81,1.16*13
$GPGSV,5,1,17,05,36,033,30,10,09,213,14,12,73,099,32,13,13,103,09*78
$GPGSV,5,2,17,15,41,132,28,18,31,296,34,20,04,033,,23,50,213,20*72
$GPGSV,5,3,17,24,30,173,21,25,63,339,32,28,06,288,25,29,16,350,15*77
$GPGSV,5,4,17,36,52,277,36,40,86,351,38,41,58,082,,49,32,274,*72
$GPGSV,5,5,17,50,10,089,*4A
$GLGSV,3,1,09,66,11,059,,67,40,110,20,68,29,171,24,78,42,168,28*6D
$GLGSV,3,2,09,79,71,280,32,80,22,325,10,81,01,020,12,82,11,338,17*6E
$GLGSV,3,3,09,83,09,289,34*5A
$GNGLL,0419.85673,S,05539.60079,E,064401.00,A,A*6C
$GNRMC,064402.00,A,0419.85673,S,05539.60080,E,0.054,,260525,,,A*77
$GNVTG,,T,,M,0.054,N,0.100,K,A*3D
$GNGGA,064402.00,0419.85673,S,05539.60080,E,1,12,0.82,18.0,M,-47.6,M,,*44
$GNGSA,A,3,12,23,24,25,28,15,18,05,10,,,,1.42,0.82,1.16*17
$GNGSA,A,3,78,82,68,79,67,83,,,,,,,1.42,0.82,1.16*18
$GPGSV,5,1,17,05,36,033,31,10,09,213,14,12,73,099,32,13,13,103,08*78
$GPGSV,5,2,17,15,41,132,28,18,31,296,29,20,04,033,,23,50,213,18*75
$GPGSV,5,3,17,24,30,173,21,25,63,339,32,28,06,288,27,29,16,350,14*74
$GPGSV,5,4,17,36,52,277,37,40,86,351,37,41,58,082,,49,32,274,*7C
$GPGSV,5,5,17,50,10,089,*4A
$GLGSV,3,1,09,66,11,058,,67,40,110,19,68,29,171,25,78,42,168,29*66
$GLGSV,3,2,09,79,71,280,32,80,22,325,08,81,01,020,09,82,11,338,18*62
$GLGSV,3,3,09,83,09,289,34*5A
$GNGLL,0419.85673,S,05539.60080,E,064402.00,A,A*69
$GNRMC,064403.00,A,0419.85668,S,05539.60086,E,0.235,,260525,,,A*7F
$GNVTG,,T,,M,0.235,N,0.436,K,A*38
$GNGGA,064403.00,0419.85668,S,05539.60086,E,1,12,0.78,17.8,M,-47.6,M,,*4B
$GNGSA,A,3,12,23,24,25,28,15,18,05,10,,,,1.35,0.78,1.10*14
$GNGSA,A,3,78,82,80,68,79,67,83,,,,,,1.35,0.78,1.10*13
$GPGSV,5,1,17,05,36,033,30,10,09,213,14,12,73,099,31,13,13,103,*72
$GPGSV,5,2,17,15,41,132,28,18,31,296,30,20,04,033,,23,50,213,20*76
$GPGSV,5,3,17,24,30,173,21,25,63,339,31,28,06,288,27,29,16,350,14*77
$GPGSV,5,4,17,36,52,277,36,40,86,351,37,41,58,082,,49,32,274,*7D
$GPGSV,5,5,17,50,10,089,*4A
$GLGSV,3,1,09,66,11,058,,67,40,109,20,68,29,171,25,78,42,168,29*64
$GLGSV,3,2,09,79,71,280,32,80,22,325,10,81,01,020,11,82,11,338,17*6D
$GLGSV,3,3,09,83,09,289,34*5A
$GNGLL,0419.85668,S,05539.60086,E,064403.00,A,A*64
$GNRMC,064404.00,A,0419.85662,S,05539.60090,E,0.217,,260525,,,A*75
$GNVTG,,T,,M,0.217,N,0.402,K,A*3F
$GNGGA,064404.00,0419.85662,S,05539.60090,E,1,12,0.82,17.8,M,-47.6,M,,*44
$GNGSA,A,3,12,23,24,25,28,15,18,05,10,,,,1.42,0.82,1.16*17
$GNGSA,A,3,78,82,80,68,79,67,83,,,,,,1.42,0.82,1.16*10
$GPGSV,5,1,17,05,36,033,30,10,09,213,15,12,73,099,30,13,13,103,*72
$GPGSV,5,2,17,15,41,132,26,18,31,296,30,20,04,033,,23,50,213,18*73
$GPGSV,5,3,17,24,30,173,21,25,63,339,32,28,06,288,26,29,16,350,15*74
$GPGSV,5,4,17,36,52,277,36,40,86,351,37,41,58,082,,49,32,274,*7D
$GPGSV,5,5,17,50,10,089,*4A
$GLGSV,3,1,09,66,11,058,,67,40,109,20,68,29,171,25,78,42,168,29*64
$GLGSV,3,2,09,79,71,280,32,80,22,325,12,81,01,020,13,82,11,338,15*6F
$GLGSV,3,3,09,83,09,289,35*5B
$GNGLL,0419.85662,S,05539.60090,E,064404.00,A,A*6E
$GNRMC,064405.00,A,0419.85660,S,05539.60091,E,0.062,,260525,,,A*77
$GNVTG,,T,,M,0.062,N,0.116,K,A*3F
$GNGGA,064405.00,0419.85660,S,05539.60091,E,1,12,0.78,17.8,M,-47.6,M,,*43
$GNGSA,A,3,12,23,24,25,28,29,15,18,05,10,,,1.37,0.78,1.13*1E
$GNGSA,A,3,78,82,80,68,79,67,83,,,,,,1.37,0.78,1.13*12
$GPGSV,5,1,17,05,36,033,31,10,09,213,15,12,73,099,31,13,13,103,*72
$GPGSV,5,2,17,15,41,132,26,18,31,296,30,20,04,033,,23,50,213,17*7C
$GPGSV,5,3,17,24,30,173,20,25,63,339,32,28,06,288,26,29,16,350,16*76
$GPGSV,5,4,17,36,52,277,36,40,86,351,37,41,58,082,,49,32,274,*7D
$GPGSV,5,5,17,50,10,089,*4A
$GLGSV,3,1,09,66,11,058,,67,40,109,21,68,29,171,25,78,42,168,30*6D
$GLGSV,3,2,09,79,71,280,31,80,22,325,14,81,01,020,14,82,11,338,15*6D
$GLGSV,3,3,09,83,09,289,35*5B
$GNGLL,0419.85660,S,05539.60091,E,064405.00,A,A*6C
$GNRMC,064406.00,A,0419.85658,S,05539.60089,E,0.053,,260525,,,A*74
$GNVTG,,T,,M,0.053,N,0.098,K,A*3A
$GNGGA,064406.00,0419.85658,S,05539.60089,E,1,12,0.77,17.9,M,-47.6,M,,*4C
$GNGSA,A,3,12,23,24,25,28,29,15,18,05,10,,,1.37,0.77,1.13*11
$GNGSA,A,3,78,82,80,68,79,67,83,,,,,,1.37,0.77,1.13*1D
$GPGSV,5,1,17,05,36,033,31,10,09,213,15,12,73,099,30,13,13,103,*73
$GPGSV,5,2,17,15,41,132,25,18,31,296,30,20,04,033,,23,50,213,15*7D
$GPGSV,5,3,17,24,30,173,18,25,63,339,32,28,06,288,26,29,16,350,17*7C
$GPGSV,5,4,17,36,52,277,36,40,86,351,37,41,58,082,,49,32,274,*7D
$GPGSV,5,5,17,50,10,089,*4A
$GLGSV,3,1,09,66,11,058,,67,40,109,21,68,29,171,25,78,42,168,29*65
$GLGSV,3,2,09,79,71,280,31,80,22,325,15,81,01,020,10,82,11,338,17*6A
$GLGSV,3,3,09,83,09,289,34*5A
$GNGLL,0419.85658,S,05539.60089,E,064406.00,A,A*6D
$GPGSV,5,4,17,36,52,277,36,40,86,351,37,41,58,082,,49,32,274,*7D
$GPGSV,5,5,17,50,10,089,*4A
$GLGSV,3,1,09,66,11,058,,67,40,109,21,68,29,171,25,78,42,168,29*65
$GLGSV,3,2,09,79,71,280,31,80,22,325,11,81,01,020,12,82,11,338,16*6D
$GLGSV,3,3,09,83,09,289,34*5A
$GNGLL,0419.85657,S,05539.60090,E,064407.00,A,A*6B
$GLGSV,3,2,09,79,71,280,30,80,22,325,12,81,01,020,15,82,11,338,18*66
$GLGSV,3,3,09,83,09,289,34*5A
$GNGLL,0419.85660,S,05539.60085,E,064408.00,A,A*64
$GPGSV,5,5,17,50,10,089,*4A
$GLGSV,3,1,09,66,11,058,,67,40,109,21,68,29,171,25,78,42,168,29*65
$GLGSV,3,2,09,79,71,280,30,80,22,325,11,81,01,020,12,82,11,338,18*62
$GLGSV,3,3,09,83,09,289,34*5A
$GNGLL,0419.85660,S,05539.60088,E,064409.00,A,A*68
$GNRMC,064417.00,A,0419.85647,S,05539.60101,E,0.121,,260525,,,A*7F
$GNVTG,,T,,M,0.121,N,0.224,K,A*3B
$GNGGA,064417.00,0419.85647,S,05539.60101,E,1,12,0.73,17.7,M,-47.6,M,,*49
$GNGSA,A,3,12,23,24,25,28,29,15,18,05,10,,,1.29,0.73,1.06*1E
$GNRMC,064419.00,A,0419.85644,S,05539.60111,E,0.075,,260525,,,A*73
$GNVTG,,T,,M,0.075,N,0.140,K,A*3A
$GNGGA,064419.00,0419.85644,S,05539.60111,E,1,12,0.73,17.4,M,-47.6,M,,*46
$GNGSA,A,3,12,23,24,25,28,29,15,18,05,10,,,1.29,0.73,1.06*1E
$GNGSA,A,3,78,82,80,68,79,67,83,,,,,,1.29,0.73,1.06*12
$GPGSV,5,1,17,05,36,033,29,10,09,213,16,12,73,099,30,13,13,103,*79
$GPGSV,5,2,17,15,41,132,25,18,31,296,30,20,04,033,,23,50,213,17*7F
$GNRMC,064420.00,A,0419.85645,S,05539.60110,E,0.085,,260525,,,A*76
$GNVTG,,T,,M,0.085,N,0.158,K,A*3C
$GNGGA,064420.00,0419.85645,S,05539.60110,E,1,12,0.73,17.4,M,-47.6,M,,*4C
$GNGSA,A,3,12,23,24,25,28,29,15,18,05,10,,,1.29,0.73,1.06*1E
$GNGSA,A,3,78,82,80,68,79,67,83,,,,,,1.29,0.73,1.06*12
$GPGSV,5,1,17,05,36,033,30,10,09,213,16,12,73,099,30,13,13,103,*71
$GPGSV,5,2,17,15,41,132,27,18,31,296,30,20,04,033,,23,50,213,14*7E
$GPGSV,5,3,17,24,30,173,18,25,63,339,31,28,06,288,28,29,16,350,17*71
$GPGSV,5,4,17,36,52,277,35,40,86,351,38,41,58,082,,49,32,274,*71
$GPGSV,5,5,17,50,10,089,*4A
$GLGSV,3,1,09,66,11,058,,67,40,109,24,68,29,171,27,78,41,168,29*61
$GLGSV,3,2,09,79,71,278,32,80,22,324,15,81,01,020,10,82,11,338,19*61
$GLGSV,3,3,09,83,09,290,34*52
$GNGLL,0419.85645,S,05539.60110,E,064420.00,A,A*64
$GNRMC,064421.00,A,0419.85643,S,05539.60113,E,0.030,,260525,,,A*7C
$GNVTG,,T,,M,0.030,N,0.056,K,A*3D
$GNGGA,064421.00,0419.85643,S,05539.60113,E,1,12,0.77,17.4,M,-47.6,M,,*4C
$GNGSA,A,3,12,23,24,25,28,29,15,18,05,10,,,1.37,0.77,1.13*11
$GNGSA,A,3,78,82,80,68,79,67,83,,,,,,1.37,0.77,1.13*1D
$GPGSV,5,1,17,05,36,033,30,10,09,213,14,12,73,099,30,13,13,103,*73
$GPGSV,5,2,17,15,41,132,26,18,31,296,30,20,04,033,,23,50,213,13*78
$GPGSV,5,3,17,24,30,173,18,25,63,339,30,28,06,288,28,29,16,350,19*7E
$GPGSV,5,4,17,36,52,277,35,40,86,351,39,41,58,082,,49,32,274,*70
$GPGSV,5,5,17,50,10,089,*4A
$GLGSV,3,1,09,66,11,058,,67,40,109,23,68,29,171,26,78,41,168,29*67
$GLGSV,3,2,09,79,71,278,32,80,22,324,13,81,01,020,15,82,11,338,20*68
$GLGSV,3,3,09,83,09,290,34*52
$GNGLL,0419.85643,S,05539.60113,E,064421.00,A,A*60
$GNRMC,064422.00,A,0419.85641,S,05539.60115,E,0.030,,260525,,,A*7B
$GNVTG,,T,,M,0.030,N,0.056,K,A*3D
$GNGGA,064422.00,0419.85641,S,05539.60115,E,1,12,0.81,17.4,M,-47.6,M,,*42
$GNGSA,A,3,12,24,25,28,29,15,18,05,10,,,,1.43,0.81,1.17*1E
$GNGSA,A,3,78,82,80,68,79,67,83,,,,,,1.43,0.81,1.17*13
$GPGSV,5,1,17,05,36,033,30,10,09,213,11,12,73,099,29,13,13,103,*7E
$GPGSV,5,2,17,15,41,132,26,18,31,296,31,20,04,033,,23,50,213,10*7A
$GPGSV,5,3,17,24,30,173,18,25,63,339,30,28,06,288,28,29,16,350,19*7E
$GPGSV,5,4,17,36,52,277,35,40,86,351,39,41,58,082,,49,32,274,*70
$GPGSV,5,5,17,50,10,089,*4A
$GLGSV,3,1,09,66,11,058,,67,40,109,24,68,29,171,25,78,41,168,29*63
$GLGSV,3,2,09,79,71,278,31,80,22,324,12,81,01,020,13,82,11,338,19*66
$GLGSV,3,3,09,83,09,290,34*52
$GNGLL,0419.85641,S,05539.60115,E,064422.00,A,A*67
$GNRMC,064423.00,A,0419.85641,S,05539.60114,E,0.047,,260525,,,A*7B
$GNVTG,,T,,M,0.047,N,0.087,K,A*31
$GNGGA,064423.00,0419.85641,S,05539.60114,E,1,12,0.81,17.4,M,-47.6,M,,*42
$GNGSA,A,3,12,24,25,28,29,15,18,05,10,,,,1.43,0.81,1.17*1E
$GNGSA,A,3,78,82,80,68,79,67,83,,,,,,1.43,0.81,1.17*13
$GPGSV,5,1,17,05,36,033,29,10,09,213,12,12,73,099,29,13,13,103,*75
$GPGSV,5,2,17,15,41,132,26,18,31,296,31,20,04,033,,23,50,213,*7B
$GPGSV,5,3,17,24,30,173,19,25,63,339,31,28,06,288,28,29,16,350,18*7F
$GPGSV,5,4,17,36,52,277,35,40,86,351,39,41,58,082,,49,32,274,*70
$GPGSV,5,5,17,50,10,089,*4A
$GLGSV,3,1,09,66,11,058,,67,40,109,23,68,29,171,25,78,41,168,29*64
$GLGSV,3,2,09,79,71,278,32,80,22,324,11,81,01,020,12,82,11,338,19*67
$GLGSV,3,3,09,83,09,290,34*52
$GNGLL,0419.85641,S,05539.60114,E,064423.00,A,A*67
$GNRMC,064424.00,A,0419.85639,S,05539.60116,E,0.096,,260525,,,A*7D
$GNVTG,,T,,M,0.096,N,0.178,K,A*3C
$GNGGA,064424.00,0419.85639,S,05539.60116,E,1,12,0.82,17.4,M,-47.6,M,,*4B
$GNGSA,A,3,12,24,25,28,29,15,18,05,10,,,,1.43,0.82,1.17*1D
$GNGSA,A,3,78,82,80,68,79,67,83,,,,,,1.43,0.82,1.17*10
$GPGSV,5,1,17,05,36,033,30,10,09,213,14,12,73,099,29,13,13,103,*7B
$GPGSV,5,2,17,15,41,132,27,18,31,296,31,20,04,033,,23,50,213,*7A
$GPGSV,5,3,17,24,30,173,19,25,63,339,30,28,06,288,28,29,16,350,18*7E
$GPGSV,5,4,17,36,52,277,35,40,86,351,39,41,58,082,,49,32,274,*70
$GPGSV,5,5,17,50,10,089,*4A
$GLGSV,3,1,09,66,11,058,,67,40,109,23,68,29,171,25,78,41,168,30*6C
$GLGSV,3,2,09,79,71,278,32,80,22,324,12,81,01,020,16,82,11,338,20*6A
$GLGSV,3,3,09,83,09,290,34*52
$GNGLL,0419.85639,S,05539.60116,E,064424.00,A,A*6D
$GNRMC,064425.00,A,0419.85636,S,05539.60120,E,0.041,,260525,,,A*7C
$GNVTG,,T,,M,0.041,N,0.075,K,A*3A
$GNGGA,064425.00,0419.85636,S,05539.60120,E,1,12,0.81,17.4,M,-47.6,M,,*43
$GNGSA,A,3,12,24,25,28,29,15,18,05,10,,,,1.43,0.81,1.17*1E
$GNGSA,A,3,78,82,80,68,79,67,83,,,,,,1.43,0.81,1.17*13
$GPGSV,5,1,17,05,36,033,32,10,09,213,15,12,73,099,29,13,13,103,*78
$GPGSV,5,2,17,15,41,132,27,18,31,296,31,20,04,033,,23,50,213,06*7C
$GPGSV,5,3,17,24,30,173,19,25,63,339,32,28,06,288,30,29,16,350,19*74
$GPGSV,5,4,17,36,52,277,35,40,86,351,38,41,58,082,,49,32,274,*71
$GPGSV,5,5,17,50,10,089,*4A
$GLGSV,3,1,09,66,11,058,,67,40,109,22,68,29,171,25,78,41,168,29*65
$GLGSV,3,2,09,79,71,278,31,80,22,324,16,81,01,020,11,82,11,338,20*6A
$GLGSV,3,3,09,83,09,290,34*52
$GNGLL,0419.85636,S,05539.60120,E,064425.00,A,A*66
$GNRMC,064426.00,A,0419.85635,S,05539.60119,E,0.084,,260525,,,A*7F
$GNVTG,,T,,M,0.084,N,0.156,K,A*33
$GNGGA,064426.00,0419.85635,S,05539.60119,E,1,12,0.77,17.4,M,-47.6,M,,*40
$GNGSA,A,3,12,24,25,28,29,15,18,05,10,,,,1.36,0.77,1.12*10
$GNGSA,A,3,78,82,80,68,79,67,83,,,,,,1.36,0.77,1.12*1D
$GPGSV,5,1,17,05,36,033,31,10,09,213,16,12,73,099,30,13,13,103,*70
$GPGSV,5,2,17,15,41,132,27,18,31,296,31,20,04,033,,23,50,213,07*7D
$GPGSV,5,3,17,24,30,173,21,25,63,339,32,28,06,288,30,29,16,350,20*75
$GPGSV,5,4,17,36,52,277,35,40,86,351,39,41,58,082,,49,32,274,*70
$GPGSV,5,5,17,50,10,089,*4A
$GLGSV,3,1,09,66,11,058,,67,40,109,22,68,29,171,25,78,41,168,28*64
$GLGSV,3,2,09,79,71,278,31,80,22,324,12,81,01,020,07,82,11,338,20*69
$GLGSV,3,3,09,83,09,290,34*52
$GNGLL,0419.85635,S,05539.60119,E,064426.00,A,A*6C
$GLGSV,3,3,09,83,09,290,34*52
$GNGLL,0419.85634,S,05539.60119,E,064427.00,A,A*6C
$GNRMC,064429.00,A,0419.85631,S,05539.60124,E,0.030,,260525,,,A*75
$GNVTG,,T,,M,0.030,N,0.055,K,A*3E
$GNGGA,064429.00,0419.85631,S,05539.60124,E,1,12,0.73,17.3,M,-47.6,M,,*46
$GPGSV,5,3,17,24,30,173,12,25,63,339,31,28,06,288,29,29,16,350,14*79
$GPGSV,5,4,17,36,52,277,35,40,86,351,39,41,58,082,,49,32,274,*70
$GPGSV,5,5,17,50,10,089,*4A
$GLGSV,3,1,09,66,11,058,,67,40,109,23,68,29,171,24,78,41,168,30*6D
$GLGSV,3,2,09,79,71,278,33,80,22,324,13,81,01,020,10,82,11,338,19*66
$GLGSV,3,3,09,83,09,290,34*52
$GNGLL,0419.85629,S,05539.60125,E,064438.00,A,A*61
$GNRMC,064441.00,A,0419.85624,S,05539.60122,E,0.075,,260525,,,A*78
$GNVTG,,T,,M,0.075,N,0.139,K,A*34
$GNGGA,064441.00,0419.85624,S,05539.60122,E,1,12,0.78,17.9,M,-47.6,M,,*4B
$GNGSA,A,3,12,23,24,25,28,29,15,18,05,10,,,1.37,0.78,1.13*1E
