$GNRMC,113846.00,A,0419.94665,S,05539.75400,E,0.020,,260525,,,D*73
$GLGSV,3,3,09,,,,37*68
$GNGLL,0419.94665,S,05539.75400,E,113846.00,A,D*6E
$GNRMC,113847.00,A,0419.94665,S,05539.75400,E,0.043,,260525,,,D*77
$GNVTG,,T,,M,0.043,N,0.080,K,D*37
$GNGGA,113847.00,0419.94665,S,05539.75400,E,2,12,0.57,64.0,M,-47.6,M,,0000*47
$GNGSA,A,3,32,29,26,10,28,18,31,16,27,41,,,1.30,0.57,1.17*12
$GNGSA,A,3,69,82,70,83,80,73,71,84,,,,,1.30,0.57,1.17*14
$GPGSV,5,1,17,08,00,322,20,10,19,354,37,16,25,253,22,18,31,070,32*74
$GPGSV,5,2,17,23,05,032,32,25,03,131,15,26,29,221,25,27,34,318,37*7A
$GPGSV,5,3,17,28,42,163,39,29,22,146,35,31,27,193,30,32,70,353,38*72
$GPGSV,5,4,17,36,52,277,36,40,84,353,36,41,58,082,33,49,32,274,*7C
$GPGSV,5,5,17,50,10,089,*4A
$GLGSV,3,1,09,69,24,002,31,70,50,279,27,71,23,228,21,73,14,206,13*67
$GLGSV,3,2,09,80,12,153,28,82,20,130,29,83,48,074,36,84,26,006,18*6C
$GLGSV,3,3,09,,,,38*67
$GNGLL,0419.94665,S,05539.75400,E,113847.00,A,D*6F
$GNRMC,113848.00,A,0419.94665,S,05539.75399,E,0.017,,260525,,,D*7E
$GNVTG,,T,,M,0.017,N,0.032,K,D*3F
$GNGGA,113848.00,0419.94665,S,05539.75399,E,2,12,0.57,63.9,M,-47.6,M,,0000*41
$GNGSA,A,3,32,29,26,10,28,18,31,16,27,41,,,1.30,0.57,1.17*12
$GNGSA,A,3,69,82,70,83,80,73,71,84,,,,,1.30,0.57,1.17*14
$GPGSV,5,1,17,08,00,322,20,10,19,354,37,16,25,253,24,18,31,070,33*73
$GPGSV,5,2,17,23,05,032,31,25,03,131,12,26,29,221,26,27,34,318,38*72
$GPGSV,5,3,17,28,42,163,39,29,22,146,36,31,27,193,31,32,70,353,39*71
$GPGSV,5,4,17,36,52,277,38,40,84,353,37,41,58,082,35,49,32,274,*75
$GPGSV,5,5,17,50,10,089,*4A
$GNRMC,113849.00,A,0419.94664,S,05539.75398,E,0.005,,260525,,,D*7C
$GNVTG,,T,,M,0.005,N,0.009,K,D*34
$GNGGA,113849.00,0419.94664,S,05539.75398,E,2,12,0.57,63.8,M,-47.6,M,,0000*41
$GNGSA,A,3,32,29,26,10,28,18,31,16,27,41,,,1.30,0.57,1.17*12
$GNGSA,A,3,69,82,70,83,80,73,71,84,,,,,1.30,0.57,1.17*14
$GPGSV,5,1,17,08,00,322,22,10,19,354,39,16,25,253,25,18,31,070,34*79
$GPGSV,5,2,17,23,05,032,36,25,03,131,10,26,29,221,27,27,34,318,39*77
$GPGSV,5,3,17,28,42,163,40,29,22,146,36,31,27,193,31,32,70,353,39*7F
$GPGSV,5,4,17,36,52,277,40,40,84,353,39,41,58,082,38,49,32,274,*79
$GPGSV,5,5,17,50,10,089,*4A
$GLGSV,3,1,09,69,24,002,33,70,50,279,30,71,23,228,23,73,14,205,15*64
$GLGSV,3,2,09,80,12,153,28,82,20,130,31,83,48,074,37,84,26,006,17*6B
$GLGSV,3,3,09,,,,39*66
$GNGLL,0419.94664,S,05539.75398,E,113849.00,A,D*66
$GNRMC,113850.00,A,0419.94664,S,05539.75397,E,0.043,,260525,,,D*79
$GNVTG,,T,,M,0.043,N,0.079,K,D*31
$GNGGA,113850.00,0419.94664,S,05539.75397,E,2,12,0.57,63.7,M,-47.6,M,,0000*49
$GNGSA,A,3,32,29,26,10,28,18,31,16,27,41,,,1.30,0.57,1.17*12
$GNGSA,A,3,69,82,70,83,80,73,71,84,,,,,1.30,0.57,1.17*14
$GPGSV,5,1,17,08,00,322,24,10,19,354,39,16,25,253,26,18,31,070,35*7D
$GPGSV,5,2,17,23,05,032,36,25,03,131,10,26,29,221,28,27,34,318,39*78
$GPGSV,5,3,17,28,42,163,40,29,22,146,37,31,27,193,32,32,70,353,40*73
$GPGSV,5,4,17,36,52,277,40,40,84,353,39,41,58,082,37,49,32,274,*76
$GPGSV,5,5,17,50,10,089,*4A
$GLGSV,3,1,09,69,24,002,33,70,50,279,31,71,23,228,24,73,14,205,13*64
$GLGSV,3,2,09,80,12,153,30,82,20,130,32,83,48,074,37,84,26,006,19*6F
$GLGSV,3,3,09,,,,39*66
$GNGLL,0419.94664,S,05539.75397,E,113850.00,A,D*61
$GNRMC,113851.00,A,0419.94661,S,05539.75397,E,0.058,,260525,,,D*77
$GNVTG,,T,,M,0.058,N,0.107,K,D*33
$GNGGA,113851.00,0419.94661,S,05539.75397,E,2,12,0.57,63.7,M,-47.6,M,,0000*4D
$GNGSA,A,3,32,29,26,10,28,18,31,16,27,41,,,1.30,0.57,1.17*12
$GNGSA,A,3,69,82,70,83,80,73,71,84,,,,,1.30,0.57,1.17*14
$GPGSV,5,1,17,08,00,322,25,10,19,354,39,16,25,253,27,18,31,070,35*7D
$GPGSV,5,2,17,23,05,032,36,25,03,131,15,26,29,221,29,27,34,318,39*7C
$GPGSV,5,3,17,28,42,163,39,29,22,146,37,31,27,193,32,32,70,353,40*7D
$GPGSV,5,4,17,36,52,277,40,40,84,353,37,41,58,082,39,49,32,274,*76
$GNRMC,113852.00,A,0419.94660,S,05539.75396,E,0.020,,260525,,,D*7B
$GNVTG,,T,,M,0.020,N,0.037,K,D*3E
$GNGGA,113852.00,0419.94660,S,05539.75396,E,2,12,0.57,63.7,M,-47.6,M,,0000*4E
$GNGSA,A,3,32,29,26,10,28,18,31,16,27,41,,,1.30,0.57,1.17*12
$GNGSA,A,3,69,82,70,83,80,73,71,84,,,,,1.30,0.57,1.17*14
$GPGSV,5,1,17,08,00,322,23,10,19,354,38,16,25,253,28,18,31,070,34*74
$GPGSV,5,2,17,23,05,032,33,25,03,131,,26,29,221,29,27,34,318,39*7D
$GPGSV,5,3,17,28,42,163,37,29,22,146,35,31,27,193,32,32,70,353,40*71
$GPGSV,5,4,17,36,52,277,39,40,84,353,37,41,58,082,39,49,32,274,*78
$GPGSV,5,5,17,50,10,089,*4A
$GLGSV,3,1,09,69,24,002,34,70,50,279,30,71,23,228,21,73,14,205,11*65
$GLGSV,3,2,09,80,12,153,30,82,20,130,35,83,48,074,37,84,26,006,19*68
$GLGSV,3,3,09,,,,38*67
$GNGLL,0419.94660,S,05539.75396,E,113852.00,A,D*66
$GNRMC,113853.00,A,0419.94659,S,05539.75394,E,0.020,,260525,,,D*72
$GNVTG,,T,,M,0.020,N,0.037,K,D*3E
$GNGGA,113853.00,0419.94659,S,05539.75394,E,2,12,0.59,63.7,M,-47.6,M,,0000*49
$GNGSA,A,3,32,29,26,10,28,18,31,16,27,41,,,1.31,0.59,1.17*1D
$GNGSA,A,3,69,82,70,83,80,73,84,,,,,,1.31,0.59,1.17*1D
$GPGSV,5,1,17,08,00,322,19,10,19,354,38,16,25,253,29,18,31,070,33*7B
$GPGSV,5,2,17,23,05,032,35,25,03,131,,26,29,221,29,27,34,318,39*7B
$GPGSV,5,3,17,28,42,163,36,29,22,146,35,31,27,193,31,32,70,353,39*7D
$GPGSV,5,4,17,36,52,277,38,40,84,353,38,41,58,082,38,49,32,274,*77
$GPGSV,5,5,17,50,10,089,*4A
$GLGSV,3,1,09,69,24,002,34,70,50,279,31,71,23,228,14,73,14,205,09*6B
$GLGSV,3,2,09,80,12,153,30,82,20,130,34,83,48,074,37,84,26,006,19*69
$GLGSV,3,3,09,,,,40*68
$GNGLL,0419.94659,S,05539.75394,E,113853.00,A,D*6F
$GNRMC,113854.00,A,0419.94658,S,05539.75393,E,0.016,,260525,,,D*76
$GNVTG,,T,,M,0.016,N,0.029,K,D*34
$GNGGA,113854.00,0419.94658,S,05539.75393,E,2,12,0.57,63.7,M,-47.6,M,,0000*46
$GNGSA,A,3,32,29,26,10,28,18,31,16,27,41,,,1.30,0.57,1.17*12
$GNGSA,A,3,69,82,70,83,80,73,71,84,,,,,1.30,0.57,1.17*14
$GPGSV,5,1,17,08,00,322,15,10,19,354,38,16,25,253,29,18,31,070,33*77
$GPGSV,5,2,17,23,04,032,35,25,03,131,,26,29,221,29,27,34,318,39*7A
$GPGSV,5,3,17,28,42,163,38,29,22,146,37,31,27,193,32,32,70,353,38*73
$GPGSV,5,4,17,36,52,277,38,40,84,353,38,41,58,082,37,49,32,274,*78
$GPGSV,5,5,17,50,10,089,*4A
$GLGSV,3,1,09,69,24,002,34,70,50,279,31,71,23,228,12,73,14,205,12*67
$GNRMC,113855.00,A,0419.94658,S,05539.75392,E,0.004,,260525,,,D*75
$GNVTG,,T,,M,0.004,N,0.008,K,D*34
$GNGGA,113855.00,0419.94658,S,05539.75392,E,2,12,0.58,63.7,M,-47.6,M,,0000*49
$GNGSA,A,3,32,29,26,10,28,18,31,16,27,41,,,1.33,0.58,1.20*1A
$GNGSA,A,3,69,82,70,83,80,71,84,,,,,,1.33,0.58,1.20*18
$GPGSV,5,1,17,08,00,322,13,10,19,354,37,16,25,253,30,18,31,070,34*71
$GPGSV,5,2,17,23,04,032,34,25,03,131,,26,29,221,28,27,34,318,39*7A
$GPGSV,5,3,17,28,42,163,38,29,22,146,37,31,27,193,30,32,70,353,39*70
$GPGSV,5,4,17,36,52,277,38,40,84,353,37,41,58,082,37,49,32,274,*77
$GPGSV,5,5,17,50,10,089,*4A
$GLGSV,3,1,09,69,24,002,33,70,50,279,30,71,23,228,14,73,14,205,*64
$GLGSV,3,2,09,80,12,153,32,82,20,130,31,83,48,074,36,84,26,006,19*6F
$GLGSV,3,3,09,,,,37*68
$GNGLL,0419.94658,S,05539.75392,E,113855.00,A,D*6E
$GNRMC,113856.00,A,0419.94657,S,05539.75391,E,0.055,,260525,,,D*7E
$GNVTG,,T,,M,0.055,N,0.102,K,D*3B
$GNGGA,113856.00,0419.94657,S,05539.75391,E,2,12,0.58,63.7,M,-47.6,M,,0000*46
$GNGSA,A,3,32,29,26,10,28,18,31,16,27,41,,,1.33,0.58,1.20*1A
$GNGSA,A,3,69,82,70,83,80,71,84,,,,,,1.33,0.58,1.20*18
$GPGSV,5,1,17,08,00,322,,10,19,354,37,16,25,253,29,18,31,070,33*7C
$GPGSV,5,2,17,23,04,032,35,25,03,131,,26,29,221,26,27,34,318,39*75
$GPGSV,5,3,17,28,42,163,38,29,22,146,37,31,27,193,28,32,70,353,39*79
$GPGSV,5,4,17,36,52,277,38,40,84,353,37,41,58,082,37,49,32,274,*77
$GPGSV,5,5,17,50,10,089,*4A
$GLGSV,3,1,09,69,24,002,33,70,50,279,29,71,23,228,18,73,14,205,*60
$GLGSV,3,2,09,80,12,152,32,82,20,130,31,83,48,074,36,84,26,006,19*6E
$GLGSV,3,3,09,,,,37*68
$GNGLL,0419.94657,S,05539.75391,E,113856.00,A,D*61
$GNRMC,113858.00,A,0419.94654,S,05539.75389,E,0.014,,260525,,,D*7F
$GNVTG,,T,,M,0.014,N,0.025,K,D*3A
$GNGGA,113858.00,0419.94654,S,05539.75389,E,2,12,0.58,63.7,M,-47.6,M,,0000*42
$GNGSA,A,3,32,29,26,10,28,18,31,16,27,41,,,1.33,0.58,1.20*1A
$GNGSA,A,3,69,82,70,83,80,71,84,,,,,,1.33,0.58,1.20*18
$GPGSV,5,1,17,08,00,322,,10,19,354,37,16,25,253,28,18,31,070,33*7D
$GPGSV,5,2,17,23,04,032,30,25,03,131,08,26,29,221,26,27,34,318,39*78
$GPGSV,5,3,17,28,42,163,38,29,22,146,37,31,27,193,28,32,70,353,39*79
$GPGSV,5,4,17,36,52,277,38,40,84,353,37,41,58,082,38,49,32,274,*78
$GPGSV,5,5,17,50,10,089,*4A
$GLGSV,3,1,09,69,24,002,32,70,50,279,29,71,23,228,20,73,14,205,*6A
$GLGSV,3,2,09,80,12,152,32,82,20,130,31,83,48,074,35,84,26,006,17*63
$GLGSV,3,3,09,,,,37*68
$GNGLL,0419.94654,S,05539.75389,E,113858.00,A,D*65
$GNRMC,113900.00,A,0419.94652,S,05539.75387,E,0.016,,260525,,,D*79
$GNVTG,,T,,M,0.016,N,0.030,K,D*3C
$GNGGA,113900.00,0419.94652,S,05539.75387,E,2,12,0.58,63.6,M,-47.6,M,,0000*47
$GNGSA,A,3,32,29,26,10,28,18,31,16,27,41,,,1.33,0.58,1.20*1A
$GNGSA,A,3,69,82,70,83,80,71,84,,,,,,1.33,0.58,1.20*18
$GPGSV,5,1,17,08,00,322,,10,19,354,37,16,25,253,29,18,31,070,35*7A
$GPGSV,5,2,17,23,04,032,34,25,03,131,13,26,29,221,28,27,34,318,39*78
$GPGSV,5,3,17,28,42,163,39,29,22,146,36,31,27,193,29,32,70,353,38*79
$GPGSV,5,4,17,36,52,277,37,40,84,353,37,41,58,082,36,49,32,274,*79
$GPGSV,5,5,17,50,10,089,*4A
$GLGSV,3,1,09,69,24,002,32,70,50,279,28,71,23,228,19,73,14,205,*61
$GLGSV,3,2,09,80,12,152,30,82,20,130,32,83,48,075,35,84,27,006,18*6D
$GLGSV,3,3,09,,,,38*67
$GNGLL,0419.94652,S,05539.75387,E,113900.00,A,D*61
$GNRMC,113901.00,A,0419.94651,S,05539.75387,E,0.013,,260525,,,D*7E
$GNVTG,,T,,M,0.013,N,0.023,K,D*3B
$GNGGA,113901.00,0419.94651,S,05539.75387,E,2,12,0.58,63.7,M,-47.6,M,,0000*44
$GNGSA,A,3,32,29,26,10,28,18,31,16,27,41,,,1.33,0.58,1.20*1A
$GNGSA,A,3,69,82,70,83,80,71,84,,,,,,1.33,0.58,1.20*18
$GPGSV,5,1,17,08,00,322,,10,19,354,38,16,25,253,27,18,31,070,34*7A
$GPGSV,5,2,17,23,04,032,37,25,03,131,14,26,29,221,30,27,34,318,39*75
$GPGSV,5,3,17,28,42,163,39,29,22,146,36,31,27,193,34,32,70,353,39*74
$GPGSV,5,4,17,36,52,277,38,40,84,353,37,41,58,082,36,49,32,274,*76
$GPGSV,5,5,17,50,10,089,*4A
$GLGSV,3,1,09,69,24,002,33,70,50,279,29,71,23,228,20,73,14,205,*6B
$GLGSV,3,2,09,80,12,152,30,82,20,130,32,83,48,075,36,84,27,006,20*65
$GLGSV,3,3,09,,,,38*67
$GNGLL,0419.94651,S,05539.75387,E,113901.00,A,D*63
$GNRMC,113902.00,A,0419.94650,S,05539.75386,E,0.006,,260525,,,D*79
$GNVTG,,T,,M,0.006,N,0.011,K,D*3E
$GNGGA,113902.00,0419.94650,S,05539.75386,E,2,12,0.58,63.7,M,-47.6,M,,0000*47
$GNGSA,A,3,32,29,26,10,28,18,31,16,27,41,,,1.33,0.58,1.20*1A
$GNGSA,A,3,69,82,70,83,80,71,84,,,,,,1.33,0.58,1.20*18
$GPGSV,5,1,17,08,00,322,,10,19,354,38,16,25,253,27,18,31,070,34*7A
$GPGSV,5,2,17,23,04,032,35,25,03,131,14,26,29,221,30,27,34,318,39*77
$GPGSV,5,3,17,28,42,163,39,29,22,146,36,31,27,193,36,32,70,353,40*78
$GPGSV,5,4,17,36,52,277,38,40,84,353,39,41,58,082,38,49,32,274,*76
$GPGSV,5,5,17,50,10,089,*4A
$GLGSV,3,1,09,69,24,002,34,70,50,279,29,71,23,228,20,73,14,205,17*6A
$GLGSV,3,2,09,80,12,152,30,82,20,130,32,83,48,075,36,84,27,006,20*65
$GLGSV,3,3,09,,,,39*66
$GNGLL,0419.94650,S,05539.75386,E,113902.00,A,D*60
$GNRMC,113903.00,A,0419.94650,S,05539.75386,E,0.021,,260525,,,D*7D
$GNVTG,,T,,M,0.021,N,0.039,K,D*31
$GNGGA,113903.00,0419.94650,S,05539.75386,E,2,12,0.58,63.7,M,-47.6,M,,0000*46
$GNGSA,A,3,32,29,26,10,28,18,31,16,27,41,,,1.33,0.58,1.20*1A
$GNGSA,A,3,69,82,70,83,80,71,84,,,,,,1.33,0.58,1.20*18
$GPGSV,5,1,17,08,00,322,,10,19,354,39,16,25,253,27,18,31,070,35*7A
$GPGSV,5,2,17,23,04,032,35,25,03,131,16,26,29,221,31,27,34,318,39*74
$GPGSV,5,3,17,28,42,163,38,29,22,146,36,31,27,193,34,32,70,353,40*7B
$GPGSV,5,4,17,36,52,277,38,40,84,353,40,41,58,082,36,49,32,274,*76
$GPGSV,5,5,17,50,10,089,*4A
$GLGSV,3,1,09,69,24,002,33,70,50,279,29,71,23,228,21,73,14,205,*6A
$GLGSV,3,2,09,80,12,152,28,82,20,130,32,83,48,075,36,84,27,006,20*6C
$GLGSV,3,3,09,,,,40*68
$GNGLL,0419.94650,S,05539.75386,E,113903.00,A,D*61
$GLGSV,3,1,09,69,24,002,33,70,50,279,29,71,23,228,22,73,14,205,*69
$GLGSV,3,2,09,80,12,152,28,82,20,130,32,83,48,075,35,84,27,006,20*6F
$GLGSV,3,3,09,,,,40*68
$GNGLL,0419.94649,S,05539.75385,E,113904.00,A,D*6D
$GNRMC,113905.00,A,0419.94649,S,05539.75384,E,0.044,,260525,,,D*72
$GNVTG,,T,,M,0.044,N,0.081,K,D*31
$GNGGA,113905.00,0419.94649,S,05539.75384,E,2,12,0.58,63.6,M,-47.6,M,,0000*4B
$GNGSA,A,3,32,29,26,10,28,18,31,16,27,41,,,1.33,0.58,1.20*1A
$GNGSA,A,3,69,82,70,83,80,71,84,,,,,,1.33,0.58,1.20*18
$GPGSV,5,1,17,08,00,322,21,10,19,354,39,16,25,253,28,18,31,070,35*76
$GPGSV,5,2,17,23,04,032,27,25,03,131,19,26,29,221,31,27,34,318,39*78
$GPGSV,5,3,17,28,42,163,39,29,22,146,36,31,27,193,35,32,70,353,40*7B
$GPGSV,5,4,17,36,52,277,38,40,84,353,39,41,58,082,37,49,32,274,*79
$GPGSV,5,5,17,50,10,089,*4A
$GLGSV,3,1,09,69,24,002,34,70,50,279,29,71,23,228,22,73,14,205,17*68
$GLGSV,3,2,09,80,12,152,28,82,20,130,31,83,48,075,36,84,27,006,20*6F
$GLGSV,3,3,09,,,,40*68
$GNGLL,0419.94649,S,05539.75384,E,113905.00,A,D*6D
$GNRMC,113906.00,A,0419.94649,S,05539.75382,E,0.022,,260525,,,D*77
$GNVTG,,T,,M,0.022,N,0.041,K,D*3D
$GNGGA,113906.00,0419.94649,S,05539.75382,E,2,12,0.58,63.6,M,-47.6,M,,0000*4E
$GNGSA,A,3,32,29,26,10,28,18,31,16,27,41,,,1.33,0.58,1.20*1A
$GNGSA,A,3,69,82,70,83,80,71,84,,,,,,1.33,0.58,1.20*18
$GPGSV,5,1,17,08,00,322,20,10,19,354,39,16,25,253,29,18,31,070,35*76
$GPGSV,5,2,17,23,04,032,34,25,03,131,19,26,29,221,32,27,34,318,39*79
$GPGSV,5,3,17,28,42,163,39,29,22,146,36,31,27,193,35,32,70,353,39*75
$GPGSV,5,4,17,36,52,277,39,40,84,353,38,41,58,082,37,49,32,274,*79
$GPGSV,5,5,17,50,10,089,*4A
$GLGSV,3,1,09,69,24,002,34,70,50,279,30,71,23,228,22,73,14,205,14*63
$GLGSV,3,2,09,80,12,152,29,82,20,130,31,83,48,075,35,84,27,006,21*6C
$GLGSV,3,3,09,,,,38*67
$GNGLL,0419.94649,S,05539.75382,E,113906.00,A,D*68
$GNRMC,113907.00,A,0419.94649,S,05539.75382,E,0.024,,260525,,,D*70
$GNVTG,,T,,M,0.024,N,0.045,K,D*3F
$GNGGA,113907.00,0419.94649,S,05539.75382,E,2,12,0.58,63.6,M,-47.6,M,,0000*4F
$GNGSA,A,3,32,29,26,10,28,18,31,16,27,41,,,1.33,0.58,1.20*1A
$GNGSA,A,3,69,82,70,83,80,71,84,,,,,,1.33,0.58,1.20*18
$GPGSV,5,1,17,08,00,322,20,10,19,354,39,16,25,253,30,18,31,070,36*7D
$GPGSV,5,2,17,23,04,032,35,25,03,131,18,26,29,221,32,27,34,318,40*77
$GPGSV,5,3,17,28,42,163,39,29,22,146,36,31,27,193,34,32,70,353,39*74
$GPGSV,5,4,17,36,52,277,39,40,84,353,38,41,58,082,37,49,32,274,*79
$GPGSV,5,5,17,50,10,089,*4A
$GLGSV,3,1,09,69,24,002,34,70,50,279,30,71,23,228,21,73,14,205,12*66
$GLGSV,3,2,09,80,12,152,29,82,20,130,32,83,48,075,35,84,27,006,22*6C
$GLGSV,3,3,09,,,,38*67
$GNGLL,0419.94649,S,05539.75382,E,113907.00,A,D*69
$GNRMC,113909.00,A,0419.94649,S,05539.75381,E,0.013,,260525,,,D*79
$GNVTG,,T,,M,0.013,N,0.024,K,D*3C
$GNGGA,113909.00,0419.94649,S,05539.75381,E,2,12,0.58,63.5,M,-47.6,M,,0000*41
$GNGSA,A,3,32,29,26,10,28,18,31,16,27,41,,,1.33,0.58,1.20*1A
$GNGSA,A,3,69,82,70,83,80,73,71,84,,,,,1.33,0.58,1.20*1C
$GPGSV,5,1,17,08,00,322,23,10,19,354,38,16,25,253,29,18,31,070,35*74
$GPGSV,5,2,17,23,04,032,30,25,03,131,16,26,29,221,31,27,34,318,39*71
$GPGSV,5,3,17,28,42,163,39,29,22,146,36,31,27,193,35,32,70,353,39*75
$GPGSV,5,4,17,36,52,277,39,40,84,353,38,41,58,082,36,49,32,274,*78
$GPGSV,5,5,17,50,10,089,*4A
$GLGSV,3,1,09,69,24,002,35,70,50,279,30,71,23,228,22,73,14,205,14*62
$GLGSV,3,2,09,80,12,152,28,82,20,130,31,83,48,075,36,84,27,006,22*6D
$GLGSV,3,3,09,,,,38*67
$GNGLL,0419.94649,S,05539.75381,E,113909.00,A,D*64
$GNRMC,113912.00,A,0419.94650,S,05539.75380,E,0.025,,260525,,,D*7F
$GNVTG,,T,,M,0.025,N,0.047,K,D*3C
$GNGGA,113912.00,0419.94650,S,05539.75380,E,2,12,0.57,63.3,M,-47.6,M,,0000*4B
$GNGSA,A,3,32,29,26,10,28,18,31,16,27,41,,,1.30,0.57,1.16*13
$GNGSA,A,3,69,82,70,83,80,73,71,84,,,,,1.30,0.57,1.16*15
$GPGSV,5,1,17,08,00,321,26,10,19,354,38,16,25,253,29,18,31,070,35*72
$GPGSV,5,2,17,23,04,032,33,25,03,131,14,26,29,221,31,27,34,318,39*70
$GPGSV,5,3,17,28,42,163,40,29,22,146,37,31,27,193,35,32,70,353,39*7A
$GPGSV,5,4,17,36,52,277,39,40,84,353,38,41,58,082,36,49,32,274,*78
$GPGSV,5,5,17,50,10,089,*4A
$GLGSV,3,1,09,69,24,002,34,70,50,279,30,71,23,228,22,73,14,205,16*61
$GLGSV,3,2,09,80,12,152,28,82,20,130,32,83,48,075,36,84,27,006,22*6E
$GLGSV,3,3,09,,,,38*67
$GNGLL,0419.94650,S,05539.75380,E,113912.00,A,D*67
$GNRMC,113914.00,A,0419.94651,S,05539.75381,E,0.017,,260525,,,D*78
$GNVTG,,T,,M,0.017,N,0.032,K,D*3F
$GNGGA,113914.00,0419.94651,S,05539.75381,E,2,12,0.57,63.1,M,-47.6,M,,0000*4F
$GNGSA,A,3,32,29,26,10,28,18,31,16,27,41,,,1.30,0.57,1.16*13
$GNGSA,A,3,69,82,70,83,80,73,71,84,,,,,1.30,0.57,1.16*15
$GPGSV,5,1,17,08,00,321,25,10,19,354,38,16,25,253,29,18,31,070,34*70
$GPGSV,5,2,17,23,04,032,30,25,03,131,17,26,29,221,32,27,34,318,39*73
$GPGSV,5,3,17,28,42,163,40,29,22,146,37,31,27,193,34,32,70,353,39*7B
$GPGSV,5,4,17,36,52,277,39,40,84,353,38,41,58,082,36,49,32,274,*78
$GPGSV,5,5,17,50,10,089,*4A
$GLGSV,3,1,09,69,24,002,35,70,50,279,30,71,23,228,22,73,14,205,16*60
$GLGSV,3,2,09,80,12,152,29,82,20,130,31,83,48,075,36,84,27,006,21*6F
$GLGSV,3,3,09,,,,38*67
$GNGLL,0419.94651,S,05539.75381,E,113914.00,A,D*61
$GNRMC,113915.00,A,0419.94650,S,05539.75381,E,0.035,,260525,,,D*78
$GNVTG,,T,,M,0.035,N,0.065,K,D*3D
$GNGGA,113915.00,0419.94650,S,05539.75381,E,2,12,0.57,63.0,M,-47.6,M,,0000*4E
$GNGSA,A,3,32,29,26,10,28,18,31,16,27,41,,,1.30,0.57,1.16*13
$GNGSA,A,3,69,82,70,83,80,73,71,84,,,,,1.30,0.57,1.16*15
$GPGSV,5,1,17,08,00,321,27,10,19,354,39,16,25,253,29,18,31,070,35*72
$GPGSV,5,2,17,23,04,032,28,25,03,131,19,26,29,221,32,27,34,318,39*74
$GPGSV,5,3,17,28,42,163,39,29,22,146,37,31,27,193,34,32,70,353,39*75
$GPGSV,5,4,17,36,52,277,39,40,84,353,38,41,58,082,36,49,32,274,*78
$GPGSV,5,5,17,50,10,089,*4A
$GLGSV,3,1,09,69,24,002,35,70,50,279,30,71,23,228,21,73,14,205,15*60
$GLGSV,3,2,09,80,12,152,29,82,20,130,32,83,48,075,36,84,27,006,21*6C
$GLGSV,3,3,09,,,,38*67
$GNGLL,0419.94650,S,05539.75381,E,113915.00,A,D*61
$GNGGA,113916.00,0419.94650,S,05539.75382,E,2,12,0.57,62.9,M,-47.6,M,,0000*46
$GNGSA,A,3,32,29,26,10,28,18,31,16,27,41,,,1.30,0.57,1.16*13
$GNGSA,A,3,69,82,70,83,80,73,71,84,,,,,1.30,0.57,1.16*15
$GPGSV,5,1,17,08,00,321,30,10,19,354,39,16,25,253,29,18,31,070,35*74
$GPGSV,5,2,17,23,04,032,26,25,03,131,19,26,29,221,32,27,34,318,39*7A
$GPGSV,5,3,17,28,42,163,39,29,22,146,37,31,27,193,34,32,70,353,39*75
$GPGSV,5,4,17,36,52,277,39,40,84,353,38,41,58,082,36,49,32,274,*78
$GPGSV,5,5,17,50,10,089,*4A
$GLGSV,3,1,09,69,24,002,35,70,50,279,30,71,23,228,21,73,14,205,14*61
$GLGSV,3,2,09,80,12,152,29,82,20,130,32,83,48,075,36,84,27,006,21*6C
$GLGSV,3,3,09,,,,38*67
$GNGLL,0419.94650,S,05539.75382,E,113916.00,A,D*61
$GNRMC,113917.00,A,0419.94650,S,05539.75382,E,0.012,,260525,,,D*7C
$GNVTG,,T,,M,0.012,N,0.022,K,D*3B
$GNGGA,113917.00,0419.94650,S,05539.75382,E,2,12,0.57,62.9,M,-47.6,M,,0000*47
$GNGSA,A,3,32,29,26,10,28,18,31,16,27,41,,,1.30,0.57,1.16*13
$GNGSA,A,3,69,82,70,83,80,73,71,84,,,,,1.30,0.57,1.16*15
$GPGSV,5,1,17,08,00,321,31,10,19,354,40,16,25,253,30,18,31,070,35*73
$GPGSV,5,2,17,23,04,032,,25,03,131,19,26,29,221,32,27,34,318,39*7E
$GPGSV,5,3,17,28,42,163,39,29,22,146,37,31,27,193,34,32,70,353,39*75
$GPGSV,5,4,17,36,52,277,39,40,84,353,38,41,58,082,36,49,32,274,*78
$GPGSV,5,5,17,50,10,089,*4A
$GLGSV,3,1,09,69,24,002,35,70,50,279,30,71,23,228,21,73,14,205,15*60
$GLGSV,3,2,09,80,12,152,28,82,20,130,32,83,48,075,36,84,27,006,21*6D
$GLGSV,3,3,09,,,,38*67
$GNGLL,0419.94650,S,05539.75382,E,113917.00,A,D*60
$GNRMC,113919.00,A,0419.94650,S,05539.75383,E,0.009,,260525,,,D*79
$GNVTG,,T,,M,0.009,N,0.017,K,D*37
$GNGGA,113919.00,0419.94650,S,05539.75383,E,2,12,0.57,62.8,M,-47.6,M,,0000*49
$GNGSA,A,3,32,29,26,10,28,18,31,16,27,41,,,1.30,0.57,1.16*13
$GNGSA,A,3,69,82,70,83,80,73,71,84,,,,,1.30,0.57,1.16*15
$GPGSV,5,1,17,08,00,321,30,10,19,354,39,16,25,253,30,18,31,070,35*7C
$GPGSV,5,2,17,23,04,032,30,25,03,131,17,26,29,221,31,27,34,318,39*70
$GPGSV,5,3,17,28,42,163,39,29,22,146,37,31,27,193,35,32,70,353,39*74
$GPGSV,5,4,17,36,52,277,39,40,84,353,38,41,58,082,36,49,32,274,*78
$GPGSV,5,5,17,50,10,089,*4A
$GLGSV,3,1,09,69,24,002,35,70,50,279,29,71,23,228,20,73,14,205,16*6A
$GLGSV,3,2,09,80,12,152,28,82,20,130,32,83,48,075,36,84,27,006,22*6E
$GLGSV,3,3,09,,,,38*67
$GNGLL,0419.94650,S,05539.75383,E,113919.00,A,D*6F
$GNRMC,113920.00,A,0419.94651,S,05539.75383,E,0.018,,260525,,,D*72
$GNVTG,,T,,M,0.018,N,0.034,K,D*36
$GNGGA,113920.00,0419.94651,S,05539.75383,E,2,12,0.57,62.8,M,-47.6,M,,0000*42
$GNGSA,A,3,32,29,26,10,28,18,31,16,27,41,,,1.30,0.57,1.16*13
$GNGSA,A,3,69,82,70,83,80,73,71,84,,,,,1.30,0.57,1.16*15
$GPGSV,5,1,17,08,00,321,28,10,19,354,39,16,25,252,30,18,31,070,35*74
$GPGSV,5,2,17,23,04,032,31,25,03,131,16,26,29,221,32,27,34,318,39*73
$GPGSV,5,3,17,28,42,163,39,29,22,146,37,31,27,193,35,32,70,353,39*74
$GPGSV,5,4,17,36,52,277,39,40,84,353,38,41,58,082,36,49,32,274,*78
$GPGSV,5,5,17,50,10,089,*4A
$GLGSV,3,1,09,69,24,002,35,70,50,279,30,71,23,228,21,73,14,205,16*63
$GLGSV,3,2,09,80,12,152,29,82,20,130,33,83,48,075,36,84,27,006,22*6E
$GLGSV,3,3,09,,,,38*67
$GNGLL,0419.94651,S,05539.75383,E,113920.00,A,D*64
$GNRMC,113921.00,A,0419.94651,S,05539.75382,E,0.022,,260525,,,D*7B
$GNVTG,,T,,M,0.022,N,0.041,K,D*3D
$GNGGA,113921.00,0419.94651,S,05539.75382,E,2,12,0.57,62.8,M,-47.6,M,,0000*42
$GNGSA,A,3,32,29,26,10,28,18,31,16,27,41,,,1.30,0.57,1.16*13
$GNGSA,A,3,69,82,70,83,80,73,71,84,,,,,1.30,0.57,1.16*15
$GPGSV,5,1,17,08,00,321,26,10,19,354,39,16,25,252,30,18,31,070,35*7A
$GPGSV,5,2,17,23,04,032,30,25,03,131,15,26,29,221,31,27,34,318,39*72
$GPGSV,5,3,17,28,42,163,39,29,22,146,37,31,27,193,35,32,70,353,39*74
$GPGSV,5,4,17,36,52,277,38,40,84,353,38,41,58,082,36,49,32,274,*79
$GPGSV,5,5,17,50,10,089,*4A
$GLGSV,3,1,09,69,24,002,35,70,50,279,30,71,23,228,20,73,14,205,16*62
$GLGSV,3,2,09,80,12,152,29,82,20,130,32,83,48,075,36,84,27,006,22*6F
$GLGSV,3,3,09,,,,38*67
$GNGLL,0419.94651,S,05539.75382,E,113921.00,A,D*64
$GNRMC,113922.00,A,0419.94651,S,05539.75382,E,0.025,,260525,,,D*7F
$GNVTG,,T,,M,0.025,N,0.046,K,D*3D
$GNGGA,113922.00,0419.94651,S,05539.75382,E,2,12,0.57,62.8,M,-47.6,M,,0000*41
$GNGSA,A,3,32,29,26,10,28,18,31,16,27,41,,,1.30,0.57,1.16*13
$GNGSA,A,3,69,82,70,83,80,73,71,84,,,,,1.30,0.57,1.16*15
$GPGSV,5,1,17,08,00,321,27,10,19,354,39,16,25,252,30,18,31,071,35*7A
$GPGSV,5,2,17,23,04,032,28,25,03,131,15,26,29,221,32,27,34,318,39*78
$GPGSV,5,3,17,28,42,163,39,29,22,146,37,31,27,193,35,32,70,353,38*75
$GPGSV,5,4,17,36,52,277,39,40,84,353,38,41,58,082,36,49,32,274,*78
$GPGSV,5,5,17,50,10,089,*4A
$GLGSV,3,1,09,69,24,002,35,70,50,279,30,71,23,228,21,73,14,205,15*60
$GLGSV,3,2,09,80,12,152,29,82,20,130,32,83,48,075,36,84,27,006,22*6F
$GLGSV,3,3,09,,,,38*67
$GNGLL,0419.94651,S,05539.75382,E,113922.00,A,D*67
$GNRMC,113923.00,A,0419.94651,S,05539.75381,E,0.036,,260525,,,D*7F
$GNVTG,,T,,M,0.036,N,0.067,K,D*3C
$GNGGA,113923.00,0419.94651,S,05539.75381,E,2,12,0.57,62.8,M,-47.6,M,,0000*43
$GNGSA,A,3,32,29,26,10,28,18,31,16,27,41,,,1.30,0.57,1.16*13
$GNGSA,A,3,69,82,70,83,80,73,71,84,,,,,1.30,0.57,1.16*15
$GPGSV,5,1,17,08,00,321,33,10,19,354,39,16,25,252,29,18,31,071,35*77
$GPGSV,5,2,17,23,04,032,26,25,03,131,14,26,29,221,31,27,34,318,39*74
$GPGSV,5,3,17,28,42,163,39,29,22,146,37,31,27,193,34,32,70,353,38*74
$GPGSV,5,4,17,36,52,277,39,40,84,353,38,41,58,082,36,49,32,274,*78
$GPGSV,5,5,17,50,10,089,*4A
$GLGSV,3,1,09,69,24,002,35,70,50,279,30,71,23,228,21,73,14,205,15*60
$GLGSV,3,2,09,80,12,152,29,82,20,130,32,83,48,075,36,84,27,006,22*6F
$GLGSV,3,3,09,,,,38*67
$GNGLL,0419.94651,S,05539.75381,E,113923.00,A,D*65
$GNRMC,113924.00,A,0419.94651,S,05539.75382,E,0.020,,260525,,,D*7C
$GNVTG,,T,,M,0.020,N,0.038,K,D*31
$GNGGA,113924.00,0419.94651,S,05539.75382,E,2,12,0.57,62.9,M,-47.6,M,,0000*46
$GNGSA,A,3,32,29,26,10,28,18,31,16,27,41,,,1.30,0.57,1.16*13
$GNGSA,A,3,69,82,70,83,80,73,71,84,,,,,1.30,0.57,1.16*15
$GPGSV,5,1,17,08,00,321,33,10,19,354,39,16,25,252,30,18,31,071,35*7F
$GPGSV,5,2,17,23,04,032,33,25,03,131,15,26,29,221,32,27,34,318,39*72
$GPGSV,5,3,17,28,42,163,39,29,22,146,37,31,27,193,34,32,70,353,38*74
$GPGSV,5,4,17,36,52,277,39,40,84,353,38,41,58,082,36,49,32,274,*78
$GPGSV,5,5,17,50,10,089,*4A
$GLGSV,3,1,09,69,24,002,35,70,50,279,30,71,23,228,21,73,14,205,15*60
$GLGSV,3,2,09,80,12,152,29,82,20,130,32,83,48,075,36,84,27,006,22*6F
$GLGSV,3,3,09,,,,38*67
$GNGLL,0419.94651,S,05539.75382,E,113924.00,A,D*61
$GNRMC,113925.00,A,0419.94650,S,05539.75382,E,0.029,,260525,,,D*75
$GNVTG,,T,,M,0.029,N,0.054,K,D*32
$GNGGA,113925.00,0419.94650,S,05539.75382,E,2,12,0.57,62.9,M,-47.6,M,,0000*46
$GNGSA,A,3,32,29,26,10,28,18,31,16,27,41,,,1.30,0.57,1.16*13
$GNGSA,A,3,69,82,70,83,80,73,71,84,,,,,1.30,0.57,1.16*15
$GPGSV,5,1,17,08,00,321,32,10,19,354,38,16,25,252,31,18,31,071,35*7E
$GPGSV,5,2,17,23,04,032,34,25,03,131,17,26,29,221,31,27,34,318,39*74
$GPGSV,5,3,17,28,42,163,38,29,22,146,37,31,27,193,32,32,70,353,38*73
$GPGSV,5,4,17,36,52,277,38,40,84,353,38,41,58,082,37,49,32,274,*78
$GPGSV,5,5,17,50,10,089,*4A
$GLGSV,3,1,09,69,24,002,35,70,50,279,29,71,23,228,18,73,14,205,14*63
$GLGSV,3,2,09,80,12,152,31,82,20,130,32,83,48,075,36,84,27,006,21*65
$GLGSV,3,3,09,,,,38*67
$GNGLL,0419.94650,S,05539.75382,E,113925.00,A,D*61
$GNRMC,113926.00,A,0419.94651,S,05539.75381,E,0.037,,260525,,,D*7B
$GNVTG,,T,,M,0.037,N,0.068,K,D*32
$GNGGA,113926.00,0419.94651,S,05539.75381,E,2,12,0.57,62.9,M,-47.6,M,,0000*47
$GNGSA,A,3,32,29,26,10,28,18,31,16,27,41,,,1.30,0.57,1.16*13
$GNGSA,A,3,69,82,70,83,80,73,71,84,,,,,1.30,0.57,1.16*15
$GPGSV,5,1,17,08,00,321,30,10,19,354,38,16,25,252,30,18,31,071,35*7D
$GPGSV,5,2,17,23,04,032,33,25,03,131,18,26,29,221,30,27,34,318,39*7D
$GPGSV,5,3,17,28,42,163,39,29,22,146,38,31,27,193,31,32,70,353,38*7E
$GPGSV,5,4,17,36,52,277,38,40,84,353,38,41,58,082,37,49,32,274,*78
$GPGSV,5,5,17,50,10,089,*4A
$GLGSV,3,1,09,69,24,002,34,70,50,279,29,71,23,228,17,73,14,205,13*6A
$GLGSV,3,2,09,80,12,152,31,82,20,130,31,83,48,075,36,84,27,006,20*67
$GLGSV,3,3,09,,,,38*67
$GNGLL,0419.94651,S,05539.75381,E,113926.00,A,D*60
$GNRMC,113927.00,A,0419.94650,S,05539.75380,E,0.020,,260525,,,D*7C
$GNVTG,,T,,M,0.020,N,0.037,K,D*3E
$GNGGA,113927.00,0419.94650,S,05539.75380,E,2,12,0.58,62.9,M,-47.6,M,,0000*49
$GNGSA,A,3,32,29,26,10,28,18,31,16,27,41,,,1.33,0.58,1.20*1A
$GNGSA,A,3,69,82,70,83,80,71,84,,,,,,1.33,0.58,1.20*18
$GPGSV,5,1,17,08,00,321,28,10,19,354,39,16,25,252,29,18,31,071,34*7C
$GPGSV,5,2,17,23,04,032,29,25,03,131,18,26,29,221,29,27,34,318,39*7E
$GPGSV,5,3,17,28,42,163,39,29,22,146,38,31,27,193,30,32,70,353,39*7E
$GPGSV,5,4,17,36,52,277,37,40,84,353,38,41,58,082,37,49,32,274,*77
$GPGSV,5,5,17,50,10,089,*4A
$GLGSV,3,1,09,69,24,002,35,70,50,279,29,71,23,228,15,73,14,205,09*62
$GLGSV,3,2,09,80,12,152,31,82,20,130,30,83,48,075,36,84,27,006,20*66
$GLGSV,3,3,09,,,,38*67
$GNGLL,0419.94650,S,05539.75380,E,113927.00,A,D*61
$GNRMC,113928.00,A,0419.94650,S,05539.75379,E,0.010,,260525,,,D*76
$GNVTG,,T,,M,0.010,N,0.018,K,D*30
$GNGGA,113928.00,0419.94650,S,05539.75379,E,2,12,0.57,63.0,M,-47.6,M,,0000*47
$GNGSA,A,3,32,29,26,10,28,18,31,16,27,41,,,1.30,0.57,1.16*13
$GNGSA,A,3,69,82,70,83,80,73,71,84,,,,,1.30,0.57,1.16*15
$GPGSV,5,1,17,08,00,321,25,10,19,354,39,16,25,252,33,18,31,071,34*7A
$GPGSV,5,2,17,23,04,032,34,25,03,131,18,26,29,221,29,27,34,318,39*72
$GPGSV,5,3,17,28,42,163,39,29,22,146,38,31,27,193,30,32,70,353,38*7F
$GPGSV,5,4,17,36,52,277,38,40,84,353,38,41,58,082,37,49,32,274,*78
$GPGSV,5,5,17,50,10,089,*4A
$GLGSV,3,1,09,69,24,002,35,70,50,279,29,71,23,228,13,73,14,205,09*64
$GLGSV,3,2,09,80,12,152,31,82,20,130,30,83,48,075,36,84,27,006,20*66
$GLGSV,3,3,09,,,,38*67
$GNGLL,0419.94650,S,05539.75379,E,113928.00,A,D*68
$GNRMC,113929.00,A,0419.94650,S,05539.75379,E,0.019,,260525,,,D*7E
$GNVTG,,T,,M,0.019,N,0.035,K,D*36
$GNGGA,113929.00,0419.94650,S,05539.75379,E,2,12,0.57,63.0,M,-47.6,M,,0000*46
$GNGSA,A,3,32,29,26,10,28,18,31,16,27,41,,,1.30,0.57,1.16*13
$GNGSA,A,3,69,82,70,83,80,73,71,84,,,,,1.30,0.57,1.16*15
$GPGSV,5,1,17,08,00,321,21,10,19,354,38,16,25,252,32,18,31,071,35*7F
$GPGSV,5,2,17,23,04,032,33,25,03,131,18,26,29,221,30,27,34,318,38*7C
$GPGSV,5,3,17,28,42,163,39,29,22,146,37,31,27,193,31,32,70,353,38*71
$GPGSV,5,4,17,36,52,277,38,40,84,353,38,41,58,082,37,49,32,274,*78
$GPGSV,5,5,17,50,10,089,*4A
$GLGSV,3,1,09,69,24,002,35,70,50,279,29,71,23,228,14,73,14,205,11*6A
$GLGSV,3,2,09,80,12,152,31,82,20,130,31,83,48,075,35,84,27,006,20*64
$GLGSV,3,3,09,,,,38*67
$GNGLL,0419.94650,S,05539.75379,E,113929.00,A,D*69
$GNRMC,113930.00,A,0419.94650,S,05539.75377,E,0.020,,260525,,,D*72
$GNVTG,,T,,M,0.020,N,0.037,K,D*3E
$GNGGA,113930.00,0419.94650,S,05539.75377,E,2,12,0.57,63.1,M,-47.6,M,,0000*41
$GNGSA,A,3,32,29,26,10,28,18,31,16,27,41,,,1.30,0.57,1.16*13
$GNGSA,A,3,69,82,70,83,80,73,71,84,,,,,1.30,0.57,1.16*15
$GPGSV,5,1,17,08,00,321,16,10,19,354,38,16,25,252,32,18,31,071,36*78
$GPGSV,5,2,17,23,04,032,36,25,03,131,20,26,29,221,30,27,35,318,38*73
$GPGSV,5,3,17,28,42,163,39,29,22,146,37,31,27,193,32,32,70,353,38*72
$GPGSV,5,4,17,36,52,277,38,40,84,353,37,41,58,082,37,49,32,274,*77
$GPGSV,5,5,17,50,10,089,*4A
$GLGSV,3,1,09,69,24,002,35,70,50,279,29,71,23,228,14,73,14,205,11*6A
$GLGSV,3,2,09,80,12,152,30,82,20,130,32,83,48,075,36,84,27,006,20*65
$GLGSV,3,3,09,,,,38*67
$GNGLL,0419.94650,S,05539.75377,E,113930.00,A,D*6F
$GNRMC,113931.00,A,0419.94650,S,05539.75377,E,0.048,,260525,,,D*7D
$GNVTG,,T,,M,0.048,N,0.089,K,D*35
$GNGGA,113931.00,0419.94650,S,05539.75377,E,2,12,0.57,63.1,M,-47.6,M,,0000*40
$GNGSA,A,3,32,29,26,10,28,18,31,16,27,41,,,1.30,0.57,1.16*13
$GNGSA,A,3,69,82,70,83,80,73,71,84,,,,,1.30,0.57,1.16*15
$GPGSV,5,1,17,08,00,321,22,10,19,354,38,16,25,252,29,18,31,071,36*75
$GPGSV,5,2,17,23,04,032,37,25,03,131,21,26,29,221,31,27,35,318,39*73
$GPGSV,5,3,17,28,43,162,39,29,22,146,35,31,27,193,32,32,70,353,39*71
$GPGSV,5,4,17,36,52,277,38,40,84,353,38,41,58,082,36,49,32,274,*79
$GNRMC,113932.00,A,0419.94651,S,05539.75375,E,0.123,,260525,,,D*71
$GNVTG,,T,,M,0.123,N,0.227,K,D*3F
$GNGGA,113932.00,0419.94651,S,05539.75375,E,2,12,0.57,63.1,M,-47.6,M,,0000*40
$GNGSA,A,3,32,29,26,10,28,18,31,16,27,41,,,1.30,0.57,1.16*13
$GNGSA,A,3,69,82,70,83,80,73,71,84,,,,,1.30,0.57,1.16*15
$GPGSV,5,2,17,23,04,032,34,25,03,131,20,26,29,221,29,27,35,318,39*78
$GPGSV,5,3,17,28,43,162,39,29,22,146,37,31,27,193,31,32,70,353,38*71
$GPGSV,5,4,17,36,52,277,38,40,84,353,38,41,58,082,37,49,32,274,*78
$GPGSV,5,5,17,50,10,089,*4A
$GLGSV,3,1,09,69,24,002,35,70,50,279,30,71,23,228,14,73,14,205,11*62
$GLGSV,3,2,09,80,12,152,31,82,20,130,31,83,48,075,36,84,27,006,21*66
$GLGSV,3,3,09,,,,38*67
$GNGLL,0419.94651,S,05539.75375,E,113932.00,A,D*6E
$GLGSV,3,2,09,80,12,152,30,82,20,130,34,83,48,075,38,84,27,006,20*6D
$GLGSV,3,3,09,,,,41*69
$GNGLL,0419.94651,S,05539.75373,E,113933.00,A,D*69
$GNRMC,113935.00,A,0419.94652,S,05539.75369,E,0.038,,260525,,,D*73
$GNVTG,,T,,M,0.038,N,0.069,K,D*3C
$GNGGA,113935.00,0419.94652,S,05539.75369,E,2,12,0.57,63.1,M,-47.6,M,,0000*49
$GNGSA,A,3,32,29,26,10,28,18,31,16,27,41,,,1.30,0.57,1.16*13
$GNGSA,A,3,69,82,70,83,80,73,71,84,,,,,1.30,0.57,1.16*15
$GPGSV,5,1,17,08,00,321,31,10,19,354,38,16,25,252,28,18,31,071,35*75
$GPGSV,5,2,17,23,04,032,36,25,03,131,19,26,29,221,24,27,35,318,38*7C
$GPGSV,5,3,17,28,43,162,37,29,22,146,37,31,27,193,33,32,69,354,37*7D
$GPGSV,5,4,17,36,52,277,35,40,84,353,39,41,58,082,35,49,32,274,*76
$GPGSV,5,5,17,50,10,089,*4A
$GLGSV,3,1,09,69,24,002,34,70,50,279,28,71,23,228,22,73,14,205,11*6F
$GLGSV,3,2,09,80,12,152,29,82,20,130,32,83,48,075,36,84,27,006,20*6D
$GLGSV,3,3,09,,,,40*68
$GNGLL,0419.94652,S,05539.75369,E,113935.00,A,D*67
$GNRMC,113936.00,A,0419.94652,S,05539.75367,E,0.030,,260525,,,D*76
$GNVTG,,T,,M,0.030,N,0.056,K,D*38
$GNGGA,113936.00,0419.94652,S,05539.75367,E,2,12,0.57,63.1,M,-47.6,M,,0000*44
$GNGSA,A,3,32,29,26,10,28,18,31,16,27,41,,,1.30,0.57,1.16*13
$GNGSA,A,3,69,82,70,83,80,73,71,84,,,,,1.30,0.57,1.16*15
$GPGSV,5,1,17,08,00,321,29,10,19,354,39,16,25,252,28,18,31,071,36*7E
$GPGSV,5,2,17,23,04,032,31,25,03,131,21,26,29,221,22,27,35,318,38*76
$GPGSV,5,3,17,28,43,162,37,29,22,146,37,31,27,193,33,32,69,354,37*7D
$GPGSV,5,4,17,36,52,277,35,40,84,353,40,41,58,082,35,49,32,274,*78
$GPGSV,5,5,17,50,10,089,*4A
$GLGSV,3,1,09,69,24,002,34,70,50,279,28,71,23,228,24,73,14,205,11*69
$GLGSV,3,2,09,80,12,152,29,82,20,130,32,83,48,075,36,84,27,006,19*67
$GLGSV,3,3,09,,,,40*68
$GNGLL,0419.94652,S,05539.75367,E,113936.00,A,D*6A
$GNRMC,113937.00,A,0419.94653,S,05539.75366,E,0.044,,260525,,,D*74
$GNVTG,,T,,M,0.044,N,0.082,K,D*32
$GNGGA,113937.00,0419.94653,S,05539.75366,E,2,12,0.57,63.1,M,-47.6,M,,0000*45
$GNGSA,A,3,32,29,26,10,28,18,31,16,27,41,,,1.30,0.57,1.16*13
$GNGSA,A,3,69,82,70,83,80,73,71,84,,,,,1.30,0.57,1.16*15
$GPGSV,5,1,17,08,00,321,28,10,19,354,40,16,25,252,28,18,31,071,36*71
$GPGSV,5,2,17,23,04,032,24,25,03,131,22,26,29,221,21,27,35,318,38*72
$GPGSV,5,3,17,28,43,162,38,29,22,146,37,31,27,193,33,32,69,354,37*72
$GPGSV,5,4,17,36,52,277,35,40,84,353,39,41,58,082,35,49,32,274,*76
$GPGSV,5,5,17,50,10,089,*4A
$GLGSV,3,1,09,69,24,002,34,70,50,279,28,71,23,228,23,73,14,205,09*67
$GLGSV,3,2,09,80,12,152,29,82,20,130,32,83,48,075,36,84,27,006,19*67
$GLGSV,3,3,09,,,,40*68
$GNGLL,0419.94653,S,05539.75366,E,113937.00,A,D*6B
$GNRMC,113938.00,A,0419.94653,S,05539.75365,E,0.028,,260525,,,D*72
$GNVTG,,T,,M,0.028,N,0.052,K,D*35
$GNGGA,113938.00,0419.94653,S,05539.75365,E,2,12,0.57,63.1,M,-47.6,M,,0000*49
$GNGSA,A,3,32,29,26,10,28,18,31,16,27,41,,,1.30,0.57,1.16*13
$GNGSA,A,3,69,82,70,83,80,73,71,84,,,,,1.30,0.57,1.16*15
$GPGSV,5,1,17,08,00,321,27,10,19,354,39,16,25,252,28,18,31,071,36*70
$GPGSV,5,2,17,23,04,032,31,25,03,131,24,26,29,221,22,27,35,318,39*72
$GPGSV,5,3,17,28,43,162,37,29,22,146,37,31,27,193,33,32,69,354,36*7C
$GPGSV,5,4,17,36,52,277,35,40,84,353,39,41,58,082,35,49,32,274,*76
$GPGSV,5,5,17,50,10,089,*4A
$GLGSV,3,1,09,69,24,002,35,70,50,279,28,71,23,228,24,73,14,205,12*6B
$GLGSV,3,2,09,80,12,152,28,82,20,130,31,83,48,075,36,84,27,006,19*65
$GLGSV,3,3,09,,,,40*68
$GNGLL,0419.94653,S,05539.75365,E,113938.00,A,D*67
$GNRMC,113939.00,A,0419.94653,S,05539.75365,E,0.033,,260525,,,D*79
$GNVTG,,T,,M,0.033,N,0.062,K,D*3C
$GNGGA,113939.00,0419.94653,S,05539.75365,E,2,12,0.57,63.1,M,-47.6,M,,0000*48
$GNGSA,A,3,32,29,26,10,28,18,31,16,27,41,,,1.30,0.57,1.16*13
$GNGSA,A,3,69,82,70,83,80,73,71,84,,,,,1.30,0.57,1.16*15
$GPGSV,5,1,17,08,00,321,26,10,19,354,39,16,25,252,29,18,31,071,36*70
$GPGSV,5,2,17,23,04,032,30,25,03,131,23,26,29,221,24,27,35,318,39*72
$GPGSV,5,3,17,28,43,162,38,29,22,146,37,31,27,193,33,32,69,354,37*72
$GPGSV,5,4,17,36,52,277,35,40,84,353,39,41,58,082,35,49,32,274,*76
$GPGSV,5,5,17,50,10,089,*4A
$GLGSV,3,1,09,69,24,002,36,70,50,279,27,71,23,228,25,73,14,205,08*6D
$GLGSV,3,2,09,80,12,152,28,82,20,130,31,83,48,075,37,84,27,006,21*6F
$GLGSV,3,3,09,,,,39*66
$GNGLL,0419.94653,S,05539.75365,E,113939.00,A,D*66
$GNRMC,113943.00,A,0419.94653,S,05539.75364,E,0.029,,260525,,,D*7E
$GNVTG,,T,,M,0.029,N,0.054,K,D*32
$GNGGA,113943.00,0419.94653,S,05539.75364,E,2,12,0.57,63.0,M,-47.6,M,,0000*45
$GNGSA,A,3,32,29,26,10,28,18,31,16,27,41,,,1.29,0.57,1.16*1B
$GNGSA,A,3,69,82,70,83,80,73,71,84,,,,,1.29,0.57,1.16*1D
$GPGSV,5,1,17,08,00,321,17,10,19,354,38,16,25,252,27,18,31,071,34*7F
$GPGSV,5,2,17,23,04,032,26,25,03,131,16,26,29,221,30,27,35,318,39*76
$GPGSV,5,3,17,28,43,162,38,29,22,146,37,31,27,193,32,32,69,354,38*7C
$GPGSV,5,4,17,36,52,277,38,40,84,353,37,41,58,082,36,49,32,274,*76
$GPGSV,5,5,17,50,10,089,*4A
$GLGSV,3,1,09,69,24,002,35,70,50,279,30,71,23,228,19,73,14,205,13*6D
$GLGSV,3,2,09,80,12,152,30,82,20,130,31,83,48,075,37,84,27,006,20*67
$GLGSV,3,3,09,,,,39*66
$GNGLL,0419.94653,S,05539.75364,E,113943.00,A,D*6A
$GNRMC,113946.00,A,0419.94653,S,05539.75362,E,0.012,,260525,,,D*75
$GNVTG,,T,,M,0.012,N,0.021,K,D*38
$GNGGA,113946.00,0419.94653,S,05539.75362,E,2,12,0.57,62.8,M,-47.6,M,,0000*4F
$GNGSA,A,3,32,29,26,10,28,18,31,16,27,41,,,1.29,0.57,1.16*1B
$GNGSA,A,3,69,82,70,83,80,73,71,84,,,,,1.29,0.57,1.16*1D
$GPGSV,5,1,17,08,00,321,26,10,19,354,39,16,25,252,27,18,31,071,34*7C
$GPGSV,5,2,17,23,04,032,30,25,03,131,19,26,29,221,29,27,35,318,39*76
$GPGSV,5,3,17,28,43,162,38,29,22,146,36,31,27,193,33,32,69,354,38*7C
$GPGSV,5,4,17,36,52,277,37,40,84,353,38,41,58,082,36,49,32,274,*76
$GPGSV,5,5,17,50,10,089,*4A
$GLGSV,3,1,09,69,24,002,35,70,50,279,30,71,23,228,14,73,14,205,11*62
$GLGSV,3,2,09,80,12,152,27,82,20,130,32,83,48,075,37,84,27,006,21*63
$GLGSV,3,3,09,,,,39*66
$GNGLL,0419.94653,S,05539.75362,E,113946.00,A,D*69
$GNRMC,113947.00,A,0419.94653,S,05539.75361,E,0.008,,260525,,,D*7C
$GNVTG,,T,,M,0.008,N,0.015,K,D*34
$GNGGA,113947.00,0419.94653,S,05539.75361,E,2,12,0.57,62.7,M,-47.6,M,,0000*42
$GNGSA,A,3,32,29,26,10,28,18,31,16,27,41,,,1.29,0.57,1.16*1B
$GNGSA,A,3,69,82,70,83,80,73,71,84,,,,,1.29,0.57,1.16*1D
$GPGSV,5,1,17,08,00,321,28,10,19,354,39,16,25,252,27,18,31,071,35*73
$GPGSV,5,2,17,23,04,032,29,25,03,131,20,26,29,221,28,27,35,318,39*75
$GPGSV,5,3,17,28,43,162,38,29,22,146,36,31,27,193,32,32,69,354,39*7C
$GPGSV,5,4,17,36,52,277,36,40,84,353,38,41,58,082,36,49,32,274,*77
$GPGSV,5,5,17,50,10,089,*4A
$GLGSV,3,1,09,69,24,002,36,70,50,279,29,71,23,228,15,73,14,205,12*6B
$GLGSV,3,2,09,80,12,152,27,82,20,130,32,83,48,075,37,84,27,006,22*60
$GLGSV,3,3,09,,,,40*68
$GNGLL,0419.94653,S,05539.75361,E,113947.00,A,D*6B
$GNRMC,113948.00,A,0419.94653,S,05539.75362,E,0.009,,260525,,,D*71
$GNVTG,,T,,M,0.009,N,0.018,K,D*38
$GNGGA,113948.00,0419.94653,S,05539.75362,E,2,12,0.57,62.6,M,-47.6,M,,0000*4F
$GNGSA,A,3,32,29,26,10,28,18,31,16,27,41,,,1.29,0.57,1.16*1B
$GNGSA,A,3,69,82,70,83,80,73,71,84,,,,,1.29,0.57,1.16*1D
$GPGSV,5,1,17,08,00,321,29,10,19,354,39,16,25,252,26,18,31,071,35*73
$GPGSV,5,2,17,23,04,032,33,25,03,131,21,26,29,221,28,27,35,318,39*7F
$GPGSV,5,3,17,28,43,162,38,29,22,146,36,31,27,193,32,32,69,354,39*7C
$GPGSV,5,4,17,36,52,277,37,40,84,353,38,41,58,082,36,49,32,274,*76
$GPGSV,5,5,17,50,10,089,*4A
$GLGSV,3,1,09,69,24,002,36,70,50,279,29,71,23,228,16,73,14,205,13*69
$GLGSV,3,2,09,80,12,152,27,82,20,130,32,83,48,075,37,84,27,006,22*60
$GLGSV,3,3,09,,,,40*68
$GNGLL,0419.94653,S,05539.75362,E,113948.00,A,D*67
$GPGSV,5,4,17,36,52,277,37,40,84,353,38,41,58,082,36,49,32,274,*76
$GPGSV,5,5,17,50,10,089,*4A
$GLGSV,3,1,09,69,24,002,35,70,50,279,29,71,23,228,16,73,14,205,16*6F
$GLGSV,3,2,09,80,12,152,26,82,20,130,32,83,48,075,37,84,27,006,22*61
$GLGSV,3,3,09,,,,40*68
$GNGLL,0419.94653,S,05539.75361,E,113949.00,A,D*65
$GPGSV,5,5,17,50,10,089,*4A
$GLGSV,3,1,09,69,24,002,35,70,50,279,29,71,23,228,17,73,14,205,13*6B
$GLGSV,3,2,09,80,12,152,26,82,20,130,32,83,48,075,36,84,27,006,21*63
$GLGSV,3,3,09,,,,39*66
$GNGLL,0419.94653,S,05539.75360,E,113950.00,A,D*6C
$GNRMC,113951.00,A,0419.94652,S,05539.75360,E,0.033,,260525,,,D*73
$GNVTG,,T,,M,0.033,N,0.060,K,D*3E
$GNGGA,113951.00,0419.94652,S,05539.75360,E,2,12,0.57,62.5,M,-47.6,M,,0000*47
$GNGSA,A,3,32,29,26,10,28,18,31,16,27,41,,,1.29,0.57,1.16*1B
$GNGSA,A,3,69,82,70,83,80,73,71,84,,,,,1.29,0.57,1.16*1D
$GPGSV,5,1,17,08,00,321,25,10,19,354,38,16,25,252,27,18,31,071,33*79
$GPGSV,5,2,17,23,04,032,35,25,03,131,18,26,29,221,29,27,35,318,39*72
$GPGSV,5,3,17,28,43,162,36,29,22,146,33,31,27,193,33,32,69,354,37*78
$GPGSV,5,4,17,36,52,277,37,40,84,353,36,41,58,082,36,49,32,274,*78
$GPGSV,5,5,17,50,10,089,*4A
$GLGSV,3,1,09,69,24,002,35,70,50,279,29,71,23,228,19,73,14,205,13*65
$GLGSV,3,2,09,80,12,152,26,82,20,130,32,83,48,075,36,84,27,006,20*62
$GLGSV,3,3,09,,,,39*66
$GNGLL,0419.94652,S,05539.75360,E,113951.00,A,D*6C
$GNGSA,A,3,32,29,26,10,28,18,31,16,27,41,,,1.29,0.57,1.16*1B
$GNGSA,A,3,69,82,70,83,80,73,71,84,,,,,1.29,0.57,1.16*1D
$GPGSV,5,1,17,08,00,321,21,10,19,354,36,16,25,252,27,18,31,071,33*73
$GPGSV,5,2,17,23,04,032,33,25,03,131,15,26,29,221,27,27,35,318,38*76
$GPGSV,5,3,17,28,43,162,36,29,22,146,34,31,27,193,32,32,69,354,39*70
$GPGSV,5,4,17,36,52,277,36,40,84,353,38,41,58,082,36,49,32,274,*77
$GPGSV,5,5,17,50,10,089,*4A
$GLGSV,3,1,09,69,24,002,35,70,50,279,28,71,23,228,18,73,14,205,13*65
$GLGSV,3,2,09,80,12,152,26,82,20,130,32,83,48,075,38,84,27,006,20*6C
$GLGSV,3,3,09,,,,41*69
$GNGLL,0419.94652,S,05539.75361,E,113952.00,A,D*6E
$GNRMC,113954.00,A,0419.94652,S,05539.75361,E,0.028,,260525,,,D*7D
$GNVTG,,T,,M,0.028,N,0.052,K,D*35
$GNGGA,113954.00,0419.94652,S,05539.75361,E,2,12,0.57,62.4,M,-47.6,M,,0000*42
$GNGSA,A,3,32,29,26,10,28,18,31,16,27,41,,,1.29,0.57,1.16*1B
$GNGSA,A,3,69,82,70,83,80,73,71,84,,,,,1.29,0.57,1.16*1D
$GPGSV,5,1,17,08,00,321,22,10,19,354,39,16,25,252,28,18,31,071,34*77
$GNRMC,113955.00,A,0419.94652,S,05539.75361,E,0.019,,260525,,,D*7E
$GNVTG,,T,,M,0.019,N,0.036,K,D*35
$GNGGA,113955.00,0419.94652,S,05539.75361,E,2,12,0.58,62.3,M,-47.6,M,,0000*4B
$GNGSA,A,3,32,29,26,10,28,18,31,16,27,41,,,1.33,0.58,1.20*1A
$GNGSA,A,3,69,82,70,83,80,71,84,,,,,,1.33,0.58,1.20*18
$GPGSV,5,1,17,08,00,321,25,10,19,354,39,16,25,252,29,18,31,071,35*70
$GPGSV,5,2,17,23,04,032,28,25,03,131,12,26,29,221,27,27,35,318,39*7A
$GPGSV,5,3,17,28,43,162,38,29,22,146,36,31,27,193,30,32,69,354,38*7F
$GPGSV,5,4,17,36,52,277,38,40,84,353,37,41,58,082,37,49,32,274,*77
$GPGSV,5,5,17,50,10,089,*4A
$GLGSV,3,1,09,69,24,002,37,70,50,279,31,71,23,228,16,73,14,205,*63
$GLGSV,3,2,09,80,12,152,28,82,20,130,32,83,48,075,37,84,27,006,22*6F
$GNRMC,113956.00,A,0419.94651,S,05539.75361,E,0.015,,260525,,,D*72
$GNVTG,,T,,M,0.015,N,0.027,K,D*39
$GNGGA,113956.00,0419.94651,S,05539.75361,E,2,12,0.58,62.3,M,-47.6,M,,0000*4B
$GNRMC,113957.00,A,0419.94651,S,05539.75361,E,0.008,,260525,,,D*7F
$GNVTG,,T,,M,0.008,N,0.015,K,D*34
$GNGGA,113957.00,0419.94651,S,05539.75361,E,2,12,0.58,62.3,M,-47.6,M,,0000*4A
$GNGSA,A,3,32,29,26,10,28,18,31,16,27,41,,,1.33,0.58,1.20*1A
$GNRMC,113958.00,A,0419.94651,S,05539.75360,E,0.039,,260525,,,D*73
$GNVTG,,T,,M,0.039,N,0.072,K,D*37
$GNGGA,113958.00,0419.94651,S,05539.75360,E,2,12,0.58,62.2,M,-47.6,M,,0000*45
$GNGSA,A,3,32,29,26,10,28,18,31,16,27,41,,,1.33,0.58,1.20*1A
$GNGSA,A,3,69,82,70,83,80,71,84,,,,,,1.33,0.58,1.20*18
$GPGSV,5,1,17,08,00,321,23,10,19,354,38,16,25,252,29,18,31,071,34*76
$GPGSV,5,2,17,23,04,032,38,25,03,131,15,26,29,221,28,27,35,318,38*72
$GPGSV,5,3,17,28,43,162,37,29,22,146,36,31,27,193,31,32,69,354,38*71
$GPGSV,5,4,17,36,52,277,37,40,84,353,38,41,58,082,36,49,32,274,*76
$GPGSV,5,5,17,50,10,089,*4A
$GLGSV,3,1,09,69,24,002,36,70,50,279,30,71,23,228,15,73,14,205,17*66
$GLGSV,3,2,09,80,12,152,26,82,20,130,32,83,48,075,37,84,27,006,22*61
$GLGSV,3,3,09,,,,40*68
$GNGLL,0419.94651,S,05539.75360,E,113958.00,A,D*66
$GNRMC,113959.00,A,0419.94650,S,05539.75359,E,0.025,,260525,,,D*74
$GNVTG,,T,,M,0.025,N,0.046,K,D*3D
$GNGGA,113959.00,0419.94650,S,05539.75359,E,2,12,0.58,62.2,M,-47.6,M,,0000*4F
$GNGSA,A,3,32,29,26,10,28,18,31,16,27,41,,,1.33,0.58,1.20*1A
$GNGSA,A,3,69,82,70,83,80,71,84,,,,,,1.33,0.58,1.20*18
$GPGSV,5,1,17,08,00,321,21,10,19,354,38,16,25,252,29,18,31,071,34*74
$GPGSV,5,2,17,23,04,032,37,25,03,131,15,26,29,221,28,27,35,318,38*7D
$GPGSV,5,3,17,28,43,162,37,29,22,146,36,31,27,193,31,32,69,354,38*71
$GPGSV,5,4,17,36,52,277,38,40,84,353,37,41,58,082,36,49,32,274,*76
$GPGSV,5,5,17,50,10,089,*4A
$GLGSV,3,1,09,69,24,002,37,70,50,279,31,71,23,228,15,73,14,205,15*64
$GLGSV,3,2,09,80,12,152,27,82,20,130,31,83,48,075,37,84,27,006,22*63
$GLGSV,3,3,09,,,,40*68
$GNGLL,0419.94650,S,05539.75359,E,113959.00,A,D*6C
$GNRMC,114001.00,A,0419.94650,S,05539.75360,E,0.002,,260525,,,D*78
$GNVTG,,T,,M,0.002,N,0.004,K,D*3E
$GNGGA,114001.00,0419.94650,S,05539.75360,E,2,12,0.57,62.2,M,-47.6,M,,0000*49
$GNGSA,A,3,32,29,26,10,28,18,31,16,27,41,,,1.29,0.57,1.16*1B
$GNGSA,A,3,69,82,70,83,80,73,71,84,,,,,1.29,0.57,1.16*1D
$GPGSV,5,1,17,08,00,321,16,10,19,354,39,16,25,252,26,18,31,071,33*79
$GPGSV,5,2,17,23,04,032,30,25,03,131,13,26,29,221,29,27,35,318,38*7D
$GPGSV,5,3,17,28,43,162,37,29,22,146,35,31,27,193,32,32,69,354,39*70
$GPGSV,5,4,17,36,52,277,36,40,84,353,37,41,58,082,35,49,32,274,*7B
$GPGSV,5,5,17,50,10,089,*4A
$GLGSV,3,1,09,69,24,003,36,70,50,280,29,71,23,228,18,73,14,205,17*64
$GLGSV,3,2,09,80,12,152,26,82,20,130,32,83,48,075,37,84,27,006,21*62
$GLGSV,3,3,09,,,,40*68
$GNGLL,0419.94650,S,05539.75360,E,114001.00,A,D*65
$GNRMC,114002.00,A,0419.94650,S,05539.75359,E,0.037,,260525,,,D*77
$GNVTG,,T,,M,0.037,N,0.069,K,D*33
$GNGGA,114002.00,0419.94650,S,05539.75359,E,2,12,0.57,62.2,M,-47.6,M,,0000*40
$GNGSA,A,3,32,29,26,10,28,18,31,16,27,41,,,1.29,0.57,1.16*1B
$GNGSA,A,3,69,82,70,83,80,73,71,84,,,,,1.29,0.57,1.16*1D
$GPGSV,5,1,17,08,00,321,18,10,19,354,39,16,25,252,27,18,31,071,33*76
$GPGSV,5,2,17,23,04,032,32,25,03,131,12,26,29,221,28,27,35,318,38*7F
$GPGSV,5,3,17,28,43,162,37,29,22,146,35,31,27,193,32,32,69,354,38*71
$GPGSV,5,4,17,36,52,277,38,40,84,353,38,41,58,082,35,49,32,274,*7A
$GPGSV,5,5,17,50,10,089,*4A
$GLGSV,3,1,09,69,24,003,34,70,50,280,29,71,23,229,18,73,14,205,17*67
$GLGSV,3,2,09,80,12,152,25,82,20,130,32,83,48,075,36,84,27,006,21*60
$GLGSV,3,3,09,,,,39*66
$GNGLL,0419.94650,S,05539.75359,E,114002.00,A,D*6C
$GNRMC,114003.00,A,0419.94650,S,05539.75360,E,0.003,,260525,,,D*7B
$GNVTG,,T,,M,0.003,N,0.005,K,D*3E
$GNGGA,114003.00,0419.94650,S,05539.75360,E,2,12,0.57,62.2,M,-47.6,M,,0000*4B
$GNGSA,A,3,32,29,26,10,28,18,31,16,27,41,,,1.29,0.57,1.16*1B
$GNGSA,A,3,69,82,70,83,80,73,71,84,,,,,1.29,0.57,1.16*1D
$GPGSV,5,1,17,08,00,321,19,10,19,354,39,16,25,252,28,18,31,071,33*78
$GPGSV,5,2,17,23,04,032,32,25,03,131,11,26,29,221,27,27,35,318,38*73
$GPGSV,5,3,17,28,43,162,36,29,22,146,35,31,27,193,32,32,69,354,37*7F
$GPGSV,5,4,17,36,52,277,36,40,84,353,37,41,58,082,36,49,32,274,*78
$GPGSV,5,5,17,50,10,089,*4A
$GLGSV,3,1,09,69,24,003,34,70,50,280,28,71,23,229,19,73,14,205,16*66
$GLGSV,3,2,09,80,12,152,25,82,20,130,32,83,48,075,36,84,27,006,20*61
$GLGSV,3,3,09,,,,39*66
$GNGLL,0419.94650,S,05539.75360,E,114003.00,A,D*67
$GNRMC,114004.00,A,0419.94649,S,05539.75359,E,0.032,,260525,,,D*7C
$GNVTG,,T,,M,0.032,N,0.059,K,D*35
$GNGGA,114004.00,0419.94649,S,05539.75359,E,2,12,0.57,62.3,M,-47.6,M,,0000*4F
$GNGSA,A,3,32,29,26,10,28,18,31,16,27,41,,,1.29,0.57,1.16*1B
$GNGSA,A,3,69,82,70,83,80,73,71,84,,,,,1.29,0.57,1.16*1D
$GPGSV,5,1,17,08,00,321,19,10,19,354,40,16,25,252,29,18,31,071,33*77
$GPGSV,5,2,17,23,04,032,25,25,03,131,09,26,29,221,27,27,35,318,39*7D
$GPGSV,5,3,17,28,43,162,37,29,22,146,35,31,27,193,32,32,69,354,38*71
$GPGSV,5,4,17,36,52,277,36,40,84,353,38,41,58,082,36,49,32,274,*77
$GPGSV,5,5,17,50,10,089,*4A
$GLGSV,3,1,09,69,24,003,34,70,50,280,28,71,23,229,18,73,14,205,15*64
$GLGSV,3,2,09,80,12,152,25,82,20,130,32,83,48,075,37,84,27,006,19*6A
$GLGSV,3,3,09,,,,40*68
$GNGLL,0419.94649,S,05539.75359,E,114004.00,A,D*62
$GNRMC,114005.00,A,0419.94649,S,05539.75359,E,0.014,,260525,,,D*79
$GNVTG,,T,,M,0.014,N,0.026,K,D*39
$GNGGA,114005.00,0419.94649,S,05539.75359,E,2,12,0.57,62.3,M,-47.6,M,,0000*4E
$GNGSA,A,3,32,29,26,10,28,18,31,16,27,41,,,1.29,0.57,1.16*1B
$GNGSA,A,3,69,82,70,83,80,73,71,84,,,,,1.29,0.57,1.16*1D
$GPGSV,5,1,17,08,00,321,20,10,19,354,40,16,25,252,30,18,31,071,34*72
$GPGSV,5,2,17,23,04,032,25,25,03,131,15,26,29,221,27,27,35,318,38*71
$GPGSV,5,3,17,28,43,162,37,29,22,146,35,31,27,193,32,32,69,354,38*71
$GPGSV,5,4,17,36,52,277,36,40,84,353,38,41,58,082,36,49,32,274,*77
$GPGSV,5,5,17,50,10,089,*4A
$GLGSV,3,1,10,69,24,003,34,70,50,280,27,71,23,229,18,73,14,205,16*60
$GLGSV,3,2,10,74,00,245,,80,12,152,25,82,20,130,32,83,48,075,37*65
$GLGSV,3,3,10,84,27,006,19,,,,40*57
$GNGLL,0419.94649,S,05539.75359,E,114005.00,A,D*63
$GNRMC,114006.00,A,0419.94648,S,05539.75359,E,0.022,,260525,,,D*7E
$GNVTG,,T,,M,0.022,N,0.040,K,D*3C
$GNGGA,114006.00,0419.94648,S,05539.75359,E,2,12,0.57,62.4,M,-47.6,M,,0000*4B
$GNGSA,A,3,32,29,26,10,28,18,31,16,27,41,,,1.29,0.57,1.16*1B
$GNGSA,A,3,69,82,70,83,80,73,71,84,,,,,1.29,0.57,1.16*1D
$GPGSV,5,1,17,08,00,321,19,10,19,354,39,16,25,252,30,18,31,071,33*71
$GPGSV,5,2,17,23,04,032,32,25,03,131,09,26,29,221,28,27,35,318,39*74
$GPGSV,5,3,17,28,43,162,37,29,22,146,35,31,27,193,32,32,69,354,38*71
$GPGSV,5,4,17,36,52,277,36,40,84,353,38,41,58,082,36,49,32,274,*77
$GPGSV,5,5,17,50,10,089,*4A
$GLGSV,3,1,10,69,24,003,35,70,50,280,28,71,23,229,17,73,14,205,16*61
$GLGSV,3,2,10,74,00,245,,80,12,152,25,82,20,130,32,83,48,075,36*64
$GLGSV,3,3,10,84,27,006,20,,,,40*5D
$GNGLL,0419.94648,S,05539.75359,E,114006.00,A,D*61
$GPGSV,5,2,17,23,04,032,33,25,03,131,12,26,29,221,27,27,35,318,38*71
$GPGSV,5,3,17,28,43,162,37,29,22,146,36,31,27,193,31,32,69,354,38*71
$GPGSV,5,4,17,36,52,277,36,40,84,353,38,41,58,082,38,49,32,274,*79
$GPGSV,5,5,17,50,10,089,*4A
$GLGSV,3,1,10,69,24,003,35,70,50,280,28,71,23,229,19,73,14,205,12*6B
$GLGSV,3,2,10,74,00,245,,80,12,152,28,82,20,130,31,83,48,075,37*6B
$GLGSV,3,3,10,84,27,006,19,,,,40*57
$GNGLL,0419.94645,S,05539.75359,E,114012.00,A,D*69
$GNRMC,114013.00,A,0419.94645,S,05539.75358,E,0.012,,260525,,,D*75
$GNVTG,,T,,M,0.012,N,0.022,K,D*3B
$GNGGA,114013.00,0419.94645,S,05539.75358,E,2,12,0.58,62.7,M,-47.6,M,,0000*4F
$GNGSA,A,3,32,29,26,10,28,18,31,16,27,41,,,1.33,0.58,1.20*1A
$GNGSA,A,3,69,82,70,83,80,71,84,,,,,,1.33,0.58,1.20*18
$GPGSV,5,1,17,08,00,321,19,10,19,354,39,16,25,252,19,18,31,071,35*7C
$GPGSV,5,2,17,23,04,032,34,25,03,131,14,26,29,221,26,27,35,318,38*71
$GPGSV,5,3,17,28,43,162,36,29,22,146,36,31,27,193,31,32,69,354,38*70
$GPGSV,5,4,17,36,52,277,36,40,84,353,38,41,58,082,38,49,32,274,*79
$GPGSV,5,5,17,50,10,089,*4A
$GLGSV,3,1,10,69,24,003,34,70,50,280,28,71,23,229,17,73,14,205,10*66
$GLGSV,3,2,10,74,00,245,,80,12,152,28,82,20,131,32,83,48,075,37*69
$GLGSV,3,3,10,84,27,006,18,,,,41*57
$GNGLL,0419.94645,S,05539.75358,E,114013.00,A,D*69
$GPGSV,5,1,17,08,00,321,18,10,19,354,38,16,25,252,21,18,31,071,35*77
$GPGSV,5,2,17,23,04,032,28,25,03,131,10,26,29,221,27,27,35,318,38*79
$GPGSV,5,3,17,28,43,162,39,29,22,146,36,31,27,193,33,32,69,354,36*73
$GPGSV,5,4,17,36,52,277,38,40,84,353,38,41,58,082,36,49,32,274,*79
$GPGSV,5,5,17,50,10,089,*4A
$GLGSV,3,1,10,69,24,003,33,70,50,280,29,71,23,229,16,73,14,205,12*63
$GLGSV,3,2,10,74,00,245,,80,12,152,28,82,20,131,31,83,48,076,36*68
$GLGSV,3,3,10,84,27,006,17,,,,39*57
$GNGLL,0419.94644,S,05539.75357,E,114014.00,A,D*60
$GNRMC,114015.00,A,0419.94644,S,05539.75356,E,0.019,,260525,,,D*77
$GNVTG,,T,,M,0.019,N,0.035,K,D*36
$GNGGA,114015.00,0419.94644,S,05539.75356,E,2,12,0.57,62.7,M,-47.6,M,,0000*49
$GNGSA,A,3,32,29,26,10,28,18,31,16,27,41,,,1.29,0.57,1.16*1B
$GNGSA,A,3,69,82,70,83,80,73,71,84,,,,,1.29,0.57,1.16*1D
$GPGSV,5,1,17,08,00,321,16,10,19,354,38,16,25,252,24,18,31,071,35*7C
$GPGSV,5,2,17,23,04,032,25,25,03,131,16,26,29,221,26,27,35,318,38*73
$GPGSV,5,3,17,28,43,162,39,29,22,146,38,31,27,193,28,32,69,354,37*76
$GPGSV,5,4,17,36,52,277,38,40,84,353,38,41,58,082,38,49,32,274,*77
$GLGSV,3,1,10,69,24,003,33,70,50,280,30,71,23,229,18,73,14,205,13*64
$GLGSV,3,2,10,74,00,245,,80,12,152,28,82,20,131,31,83,48,076,35*6B
$GLGSV,3,3,10,84,27,006,18,,,,38*59
$GNGLL,0419.94644,S,05539.75356,E,114015.00,A,D*60
$GLGSV,3,2,10,74,00,245,,80,12,152,26,82,20,131,26,83,48,076,35*63
$GLGSV,3,3,10,84,27,006,17,,,,39*57
$GNGLL,0419.94643,S,05539.75357,E,114017.00,A,D*64
$GLGSV,3,2,10,74,00,245,,80,12,152,26,82,20,131,23,83,48,076,34*67
$GLGSV,3,3,10,84,27,006,14,,,,40*5A
$GNGLL,0419.94640,S,05539.75357,E,114020.00,A,D*63
$GNRMC,114027.00,A,0419.94642,S,05539.75356,E,0.002,,260525,,,D*7A
$GNVTG,,T,,M,0.002,N,0.003,K,D*39
$GNGGA,114027.00,0419.94642,S,05539.75356,E,2,12,0.57,63.5,M,-47.6,M,,0000*4D
$GNGSA,A,3,32,29,26,10,28,18,31,16,27,41,,,1.29,0.57,1.16*1B
$GNGSA,A,3,69,82,70,83,80,73,71,84,,,,,1.29,0.57,1.16*1D
$GPGSV,5,1,17,08,01,321,27,10,19,354,40,16,25,252,27,18,31,071,36*70
$GPGSV,5,2,17,23,04,032,30,25,03,131,13,26,29,221,29,27,35,318,41*73
$GPGSV,5,3,17,28,43,162,40,29,22,146,39,31,27,193,32,32,69,354,37*72
$GPGSV,5,4,17,36,52,277,39,40,84,353,39,41,58,082,36,49,32,274,*79
$GPGSV,5,5,17,50,10,089,*4A
$GLGSV,3,1,10,69,24,003,34,70,50,280,30,71,23,229,20,73,14,205,09*63
$GLGSV,3,2,10,74,00,245,,80,12,152,29,82,20,131,33,83,48,076,35*68
$GLGSV,3,3,10,84,27,006,18,,,,40*56
$GNGLL,0419.94642,S,05539.75356,E,114027.00,A,D*67
$GLGSV,3,1,10,69,24,003,34,70,50,280,30,71,23,229,17,73,14,205,10*6F
$GLGSV,3,2,10,74,00,245,,80,12,152,29,82,20,131,33,83,48,076,35*68
$GLGSV,3,3,10,84,27,006,16,,,,40*58
$GNGLL,0419.94640,S,05539.75363,E,114031.00,A,D*64
$GNRMC,114034.00,A,0419.94638,S,05539.75369,E,0.023,,260525,,,D*7A
$GNRMC,114036.00,A,0419.94638,S,05539.75369,E,0.021,,260525,,,D*7A
$GNVTG,,T,,M,0.021,N,0.038,K,D*30
$GNGGA,114036.00,0419.94638,S,05539.75369,E,2,12,0.58,63.5,M,-47.6,M,,0000*43
$GNGSA,A,3,32,29,26,10,28,18,31,16,27,41,,,1.33,0.58,1.20*1A
$GNGSA,A,3,69,82,70,83,80,73,71,84,,,,,1.33,0.58,1.20*1C
$GPGSV,5,1,17,08,01,321,27,10,19,355,39,16,25,252,27,18,31,071,36*7F
$GPGSV,5,2,17,23,04,032,30,25,03,131,14,26,29,221,29,27,35,318,41*74
$GPGSV,5,3,17,28,43,162,39,29,22,146,37,31,27,193,32,32,69,354,39*7C
$GPGSV,5,4,17,36,52,277,39,40,84,353,39,41,58,082,36,49,32,274,*79
$GPGSV,5,5,17,50,10,089,*4A
$GLGSV,3,1,10,69,24,003,35,70,50,280,30,71,23,229,16,73,14,205,10*6F
$GLGSV,3,2,10,74,00,245,,80,12,152,27,82,20,131,33,83,48,076,35*66
$GLGSV,3,3,10,84,27,006,15,,,,40*5B
$GNGLL,0419.94638,S,05539.75369,E,114036.00,A,D*66
$GNRMC,114037.00,A,0419.94639,S,05539.75369,E,0.034,,260525,,,D*7E
$GNVTG,,T,,M,0.034,N,0.063,K,D*3A
$GNGGA,114037.00,0419.94639,S,05539.75369,E,2,12,0.57,63.5,M,-47.6,M,,0000*4C
$GNGSA,A,3,32,29,26,10,28,18,31,16,27,41,,,1.29,0.57,1.16*1B
$GNGSA,A,3,69,82,70,83,80,73,71,84,,,,,1.29,0.57,1.16*1D
$GPGSV,5,1,17,08,01,321,26,10,19,355,39,16,25,252,27,18,32,072,36*7E
$GPGSV,5,2,17,23,04,032,32,25,03,131,17,26,29,221,28,27,35,318,39*7B
$GPGSV,5,3,17,28,43,162,38,29,22,146,37,31,27,193,32,32,69,354,37*73
$GPGSV,5,4,17,36,52,277,39,40,84,353,38,41,58,082,36,49,32,274,*78
$GPGSV,5,5,17,50,10,089,*4A
$GNRMC,114038.00,A,0419.94639,S,05539.75369,E,0.030,,260525,,,D*75
$GNVTG,,T,,M,0.030,N,0.055,K,D*3B
$GNGGA,114038.00,0419.94639,S,05539.75369,E,2,12,0.58,63.6,M,-47.6,M,,0000*4F
$GNGSA,A,3,32,29,26,10,28,18,31,16,27,41,,,1.33,0.58,1.20*1A
$GNGSA,A,3,69,82,70,83,80,71,84,,,,,,1.33,0.58,1.20*18
$GPGSV,5,1,17,08,01,321,24,10,19,355,39,16,25,252,27,18,32,072,36*7C
$GPGSV,5,2,17,23,04,032,34,25,03,131,17,26,29,221,28,27,35,318,39*7D
$GPGSV,5,3,17,28,43,162,39,29,22,146,37,31,27,193,32,32,69,354,37*72
$GPGSV,5,4,17,36,52,277,39,40,84,353,38,41,58,082,35,49,32,274,*7B
$GPGSV,5,5,17,50,10,089,*4A
$GLGSV,3,1,10,69,24,003,35,70,50,280,31,71,23,229,15,73,14,205,06*6A
$GLGSV,3,2,10,74,00,245,,80,12,152,28,82,20,131,33,83,48,076,35*69
$GLGSV,3,3,10,84,27,006,14,,,,40*5A
$GNGLL,0419.94639,S,05539.75369,E,114038.00,A,D*69
$GNRMC,114045.00,A,0419.94641,S,05539.75368,E,0.014,,260525,,,D*77
$GNVTG,,T,,M,0.014,N,0.026,K,D*39
$GNGGA,114045.00,0419.94641,S,05539.75368,E,2,12,0.58,63.8,M,-47.6,M,,0000*45
$GNGSA,A,3,32,29,26,10,28,18,31,16,27,41,,,1.33,0.58,1.20*1A
$GNGSA,A,3,69,82,70,83,80,73,71,84,,,,,1.33,0.58,1.20*1C
$GPGSV,5,1,17,08,01,321,17,10,19,355,40,16,25,252,23,18,32,072,36*76
$GPGSV,5,2,17,23,04,033,26,25,03,130,14,26,29,220,29,27,35,318,40*73
$GPGSV,5,3,17,28,43,162,39,29,22,146,38,31,27,193,33,32,69,354,38*73
$GPGSV,5,4,17,36,52,277,37,40,84,353,39,41,58,082,36,49,32,274,*77
$GPGSV,5,5,17,50,10,089,*4A
$GLGSV,3,1,10,69,24,003,36,70,50,280,27,71,23,229,15,73,14,205,11*68
$GLGSV,3,2,10,74,00,245,,80,12,152,29,82,20,131,32,83,48,076,35*69
$GLGSV,3,3,10,84,27,006,22,,,,36*5E
$GNGLL,0419.94641,S,05539.75368,E,114045.00,A,D*6D
$GNRMC,114049.00,A,0419.94639,S,05539.75373,E,0.063,,260525,,,D*7E
$GNVTG,,T,,M,0.063,N,0.117,K,D*3A
$GNGGA,114049.00,0419.94639,S,05539.75373,E,2,12,0.58,64.0,M,-47.6,M,,0000*43
$GNGSA,A,3,32,29,26,10,28,18,31,16,27,41,,,1.33,0.58,1.20*1A
$GNGSA,A,3,69,82,70,83,80,71,84,,,,,,1.33,0.58,1.20*18
$GPGSV,5,1,17,08,01,321,,10,19,355,38,16,25,252,24,18,32,072,35*7B
$GPGSV,5,2,17,23,04,033,34,25,03,130,08,26,29,220,31,27,35,318,39*7A
$GPGSV,5,3,17,28,43,161,37,29,21,146,38,31,28,193,34,32,69,354,37*7A
$GPGSV,5,4,17,36,52,277,38,40,84,353,38,41,58,082,37,49,32,274,*78
$GPGSV,5,5,17,50,10,089,*4A
$GLGSV,3,1,10,69,24,003,36,70,50,280,30,71,23,229,18,73,14,205,07*64
$GLGSV,3,2,10,74,00,245,,80,12,152,30,82,20,131,34,83,48,076,35*67
$GLGSV,3,3,10,84,27,006,18,,,,38*59
$GNGLL,0419.94639,S,05539.75373,E,114049.00,A,D*64
$GNRMC,114050.00,A,0419.94639,S,05539.75373,E,0.026,,260525,,,D*77
$GNVTG,,T,,M,0.026,N,0.047,K,D*3F
$GNGGA,114050.00,0419.94639,S,05539.75373,E,2,12,0.57,64.1,M,-47.6,M,,0000*45
$GNGSA,A,3,32,29,26,10,28,18,31,16,27,41,,,1.29,0.57,1.16*1B
$GNGSA,A,3,69,82,70,83,80,73,71,84,,,,,1.29,0.57,1.16*1D
$GPGSV,5,1,17,08,01,321,25,10,19,355,38,16,25,252,23,18,32,072,34*7A
$GPGSV,5,2,17,23,04,033,32,25,03,130,09,26,29,220,31,27,35,318,39*7D
$GPGSV,5,3,17,28,43,161,37,29,21,146,38,31,28,193,33,32,68,354,38*73
$GPGSV,5,4,17,36,52,277,38,40,84,353,38,41,58,082,37,49,32,274,*78
$GPGSV,5,5,17,50,10,089,*4A
$GLGSV,3,1,10,69,24,003,36,70,50,280,30,71,23,229,16,73,14,205,11*6D
$GLGSV,3,2,10,74,00,245,,80,12,152,30,82,20,131,33,83,48,076,35*60
$GLGSV,3,3,10,84,27,006,19,,,,39*59
$GNGLL,0419.94639,S,05539.75373,E,114050.00,A,D*6C
$GNRMC,114051.00,A,0419.94639,S,05539.75374,E,0.016,,260525,,,D*72
$GNVTG,,T,,M,0.016,N,0.030,K,D*3C
$GNGGA,114051.00,0419.94639,S,05539.75374,E,2,12,0.57,64.2,M,-47.6,M,,0000*40
$GNGSA,A,3,32,29,26,10,28,18,31,16,27,41,,,1.29,0.57,1.16*1B
$GNGSA,A,3,69,82,70,83,80,73,71,84,,,,,1.29,0.57,1.16*1D
$GPGSV,5,1,17,08,01,321,25,10,19,355,38,16,25,252,22,18,32,072,34*7B
$GPGSV,5,2,17,23,04,033,27,25,03,130,09,26,29,220,31,27,35,318,39*79
$GPGSV,5,3,17,28,43,161,37,29,21,146,38,31,28,193,33,32,68,354,38*73
$GPGSV,5,4,17,36,52,277,38,40,84,353,39,41,58,082,36,49,32,274,*78
$GPGSV,5,5,17,50,10,089,*4A
$GLGSV,3,1,10,69,24,003,35,70,50,280,31,71,23,229,12,73,14,205,11*6B
$GLGSV,3,2,10,74,00,245,,80,12,152,31,82,20,131,33,83,48,076,35*61
$GLGSV,3,3,10,84,27,006,19,,,,39*59
$GNGLL,0419.94639,S,05539.75374,E,114051.00,A,D*6A
$GNRMC,114052.00,A,0419.94638,S,05539.75375,E,0.052,,260525,,,D*71
$GNVTG,,T,,M,0.052,N,0.097,K,D*31
$GNGGA,114052.00,0419.94638,S,05539.75375,E,2,12,0.58,64.2,M,-47.6,M,,0000*4C
$GNGSA,A,3,32,29,26,10,28,18,31,16,27,41,,,1.33,0.58,1.20*1A
$GNGSA,A,3,69,82,70,83,80,73,71,84,,,,,1.33,0.58,1.20*1C
$GPGSV,5,1,17,08,01,321,25,10,19,355,37,16,25,252,23,18,32,072,34*75
$GPGSV,5,2,17,23,04,033,28,25,03,130,11,26,29,220,31,27,35,318,39*7F
$GPGSV,5,3,17,28,43,161,37,29,21,146,38,31,28,193,34,32,68,354,37*7B
$GPGSV,5,4,17,36,52,277,38,40,84,353,39,41,58,082,36,49,32,274,*78
$GPGSV,5,5,17,50,10,089,*4A
$GLGSV,3,1,10,69,24,003,35,70,50,280,31,71,23,229,14,73,14,205,08*65
$GLGSV,3,2,10,74,00,245,,80,12,152,31,82,20,131,33,83,48,076,35*61
$GLGSV,3,3,10,84,27,006,20,,,,39*53
$GNGLL,0419.94638,S,05539.75375,E,114052.00,A,D*69
$GNRMC,114054.00,A,0419.94636,S,05539.75376,E,0.013,,260525,,,D*7F
$GNVTG,,T,,M,0.013,N,0.024,K,D*3C
$GNGGA,114054.00,0419.94636,S,05539.75376,E,2,12,0.57,64.3,M,-47.6,M,,0000*49
$GNGSA,A,3,32,29,26,10,28,18,31,16,27,41,,,1.29,0.57,1.16*1B
$GNGSA,A,3,69,82,70,83,80,73,71,84,,,,,1.29,0.57,1.16*1D
$GPGSV,5,1,17,08,01,321,31,10,19,355,38,16,25,252,25,18,32,072,36*7B
$GPGSV,5,2,17,23,04,033,33,25,03,130,15,26,29,220,31,27,35,318,39*71
$GPGSV,5,3,17,28,43,161,38,29,21,146,38,31,28,193,34,32,68,354,37*74
$GPGSV,5,4,17,36,52,277,39,40,84,353,38,41,58,082,37,49,32,274,*79
$GPGSV,5,5,17,50,10,089,*4A
$GLGSV,3,1,10,69,24,003,35,70,50,280,31,71,23,229,17,73,14,205,09*67
$GLGSV,3,2,10,74,00,245,,80,12,152,31,82,20,131,33,83,48,076,36*62
$GLGSV,3,3,10,84,27,006,20,,,,38*52
$GNGLL,0419.94636,S,05539.75376,E,114054.00,A,D*62
$GNGGA,114055.00,0419.94636,S,05539.75376,E,2,12,0.58,64.3,M,-47.6,M,,0000*47
$GNGSA,A,3,32,29,26,10,28,18,31,16,27,41,,,1.33,0.58,1.20*1A
$GNGSA,A,3,69,82,70,83,80,73,71,84,,,,,1.33,0.58,1.20*1C
