$GNRMC,113438.00,A,0419.94176,S,05539.74681,E,0.024,,260525,,,A*78
$GNVTG,,T,,M,0.024,N,0.044,K,A*3B
$GNGGA,113438.00,0419.94176,S,05539.74681,E,1,12,0.63,64.1,M,-47.6,M,,*49
$GNGSA,A,3,32,29,26,10,28,18,31,16,27,,,,1.53,0.63,1.39*19
$GLGSV,3,2,09,80,12,155,30,82,21,128,36,83,47,071,34,84,24,005,24*63
$GLGSV,3,3,09,,,,36*69
$GNGLL,0419.94176,S,05539.74681,E,113438.00,A,A*61
$GNRMC,113439.00,A,0419.94176,S,05539.74681,E,0.072,,260525,,,A*7A
$GNVTG,,T,,M,0.072,N,0.133,K,A*39
$GNGGA,113439.00,0419.94176,S,05539.74681,E,1,12,0.60,64.1,M,-47.6,M,,*4B
$GNGSA,A,3,32,29,26,10,28,18,31,16,27,,,,1.44,0.60,1.31*14
$GNGSA,A,3,69,82,70,83,80,73,71,,,,,,1.44,0.60,1.31*1B
$GPGSV,4,1,16,10,20,352,35,16,25,255,22,18,31,068,31,23,05,030,23*79
$GPGSV,4,2,16,25,03,133,27,26,29,223,23,27,33,319,35,28,41,164,37*75
$GPGSV,4,3,16,29,24,146,36,31,26,195,40,32,71,352,38,36,52,277,*75
$GPGSV,4,4,16,40,84,353,37,41,58,082,,49,32,274,,50,10,089,*7D
$GLGSV,3,1,09,69,27,002,32,70,51,275,19,71,21,226,22,73,14,208,23*65
$GLGSV,3,2,09,80,12,154,23,82,21,128,29,83,47,071,31,84,24,005,22*6D
$GLGSV,3,3,09,,,,29*67
$GNGLL,0419.94176,S,05539.74681,E,113439.00,A,A*60
$GNRMC,113441.00,A,0419.94177,S,05539.74680,E,0.034,,260525,,,A*77
$GNVTG,,T,,M,0.034,N,0.062,K,A*3E
$GNGGA,113441.00,0419.94177,S,05539.74680,E,1,12,0.60,63.9,M,-47.6,M,,*4B
$GNGSA,A,3,32,29,26,10,28,18,31,16,27,,,,1.44,0.60,1.31*14
$GNGSA,A,3,69,82,70,83,80,73,71,,,,,,1.44,0.60,1.31*1B
$GPGSV,4,1,16,10,20,352,36,16,25,255,25,18,31,068,32,23,05,030,25*78
$GPGSV,4,2,16,25,03,133,32,26,29,223,33,27,33,319,39,28,41,164,39*72
$GPGSV,4,3,16,29,24,146,39,31,26,195,41,32,71,352,40,36,52,277,*74
$GPGSV,4,4,16,40,84,353,37,41,58,082,,49,32,274,,50,10,089,*7D
$GLGSV,3,1,09,69,27,002,35,70,51,275,21,71,21,226,29,73,14,208,25*64
$GLGSV,3,2,09,80,12,154,32,82,21,128,36,83,47,071,38,84,24,005,22*6A
$GLGSV,3,3,09,,,,37*68
$GNGLL,0419.94177,S,05539.74680,E,113441.00,A,A*6F
$GNRMC,113443.00,A,0419.94196,S,05539.74619,E,1.774,262.44,260525,,,A*60
$GNVTG,262.44,T,,M,1.774,N,3.286,K,A*2F
$GNGGA,113443.00,0419.94196,S,05539.74619,E,1,12,0.60,63.5,M,-47.6,M,,*4A
$GNGSA,A,3,32,29,26,10,28,18,31,16,27,,,,1.44,0.60,1.31*14
$GNGSA,A,3,69,82,70,83,80,73,71,,,,,,1.44,0.60,1.31*1B
$GPGSV,4,1,16,10,20,352,34,16,25,255,39,18,31,068,38,23,05,030,22*7A
$GPGSV,4,2,16,25,03,133,26,26,29,223,31,27,33,319,29,28,41,164,39*74
$GPGSV,4,3,16,29,24,146,37,31,26,195,34,32,71,352,40,36,52,277,*78
$GPGSV,4,4,16,40,84,353,42,41,58,082,,49,32,274,,50,10,089,*7F
$GLGSV,3,1,09,69,27,002,32,70,51,275,23,71,21,226,39,73,14,208,35*61
$GLGSV,3,2,09,80,12,154,32,82,21,128,36,83,47,071,37,84,24,005,19*6D
$GLGSV,3,3,09,,,,29*67
$GNGLL,0419.94196,S,05539.74619,E,113443.00,A,A*62
$GNRMC,113445.00,A,0419.94193,S,05539.74609,E,0.025,,260525,,,A*78
$GNVTG,,T,,M,0.025,N,0.047,K,A*39
$GNGGA,113445.00,0419.94193,S,05539.74609,E,1,12,0.60,63.4,M,-47.6,M,,*49
$GNGSA,A,3,32,29,26,10,28,18,31,16,27,,,,1.44,0.60,1.31*14
$GNGSA,A,3,69,82,70,83,80,73,71,,,,,,1.44,0.60,1.31*1B
$GPGSV,4,1,16,10,20,352,32,16,25,255,32,18,31,068,36,23,05,030,16*7E
$GPGSV,4,2,16,25,03,133,28,26,29,223,35,27,33,319,24,28,41,164,41*7C
$GPGSV,4,3,16,29,24,146,38,31,26,195,34,32,71,352,44,36,52,277,*73
$GPGSV,4,4,16,40,84,353,40,41,58,082,,49,32,274,,50,10,089,*7D
$GLGSV,3,1,09,69,27,002,33,70,51,275,28,71,21,226,34,73,14,208,27*65
$GLGSV,3,2,09,80,12,154,26,82,21,128,38,83,47,071,38,84,24,005,21*62
$GLGSV,3,3,09,,,,36*69
$GNGLL,0419.94193,S,05539.74609,E,113445.00,A,A*60
$GNRMC,113447.00,A,0419.94194,S,05539.74613,E,0.022,,260525,,,A*71
$GNVTG,,T,,M,0.022,N,0.041,K,A*38
$GNGGA,113447.00,0419.94194,S,05539.74613,E,1,12,0.60,63.5,M,-47.6,M,,*46
$GNGSA,A,3,32,29,26,10,28,18,31,16,27,,,,1.44,0.60,1.31*14
$GNGSA,A,3,69,82,70,83,80,73,71,,,,,,1.44,0.60,1.31*1B
$GPGSV,4,1,16,10,20,352,32,16,25,255,32,18,31,068,33,23,05,030,17*7A
$GPGSV,4,2,16,25,03,133,27,26,29,223,35,27,33,319,22,28,41,164,40*74
$GPGSV,4,3,16,29,24,146,37,31,26,195,32,32,71,352,45,36,52,277,41*7E
$GPGSV,4,4,16,40,84,353,41,41,58,082,36,49,32,274,,50,10,089,*79
$GLGSV,3,1,09,69,27,002,32,70,51,275,28,71,21,226,35,73,14,208,28*6A
$GLGSV,3,2,09,80,12,154,26,82,21,128,39,83,47,071,39,84,24,005,23*60
$GLGSV,3,3,09,,,,37*68
$GNGLL,0419.94194,S,05539.74613,E,113447.00,A,A*6E
$GNRMC,113448.00,A,0419.94196,S,05539.74616,E,0.022,,260525,,,A*79
$GNVTG,,T,,M,0.022,N,0.041,K,A*38
$GNGGA,113448.00,0419.94196,S,05539.74616,E,1,12,0.60,63.6,M,-47.6,M,,*4D
$GNGSA,A,3,32,29,26,10,28,18,31,16,27,,,,1.44,0.60,1.31*14
$GNGSA,A,3,69,82,70,83,80,73,71,,,,,,1.44,0.60,1.31*1B
$GPGSV,4,1,16,10,20,352,31,16,25,255,31,18,31,068,35,23,05,030,18*73
$GPGSV,4,2,16,25,03,133,27,26,29,223,35,27,33,319,21,28,41,164,41*76
$GPGSV,4,3,16,29,24,146,37,31,26,195,33,32,71,352,45,36,52,277,41*7F
$GPGSV,4,4,16,40,84,353,41,41,58,082,39,49,32,274,,50,10,089,*76
$GLGSV,3,1,09,69,27,002,30,70,51,275,28,71,21,226,35,73,14,208,27*67
$GLGSV,3,2,09,80,12,154,24,82,21,128,39,83,47,071,36,84,24,005,22*6C
$GLGSV,3,3,09,,,,37*68
$GNGLL,0419.94196,S,05539.74616,E,113448.00,A,A*66
$GNRMC,113449.00,A,0419.94196,S,05539.74616,E,0.016,,260525,,,A*7F
$GNVTG,,T,,M,0.016,N,0.029,K,A*31
$GNGGA,113449.00,0419.94196,S,05539.74616,E,1,12,0.60,63.6,M,-47.6,M,,*4C
$GNGSA,A,3,32,29,26,10,28,18,31,16,27,,,,1.44,0.60,1.31*14
$GPGSV,4,1,16,10,20,352,32,16,25,255,32,18,31,068,34,23,05,030,21*78
$GPGSV,4,2,16,25,03,133,27,26,29,223,35,27,33,319,21,28,41,164,41*76
$GPGSV,4,3,16,29,24,146,38,31,26,195,32,32,71,352,45,36,52,277,41*71
$GPGSV,4,4,16,40,84,353,40,41,58,082,39,49,32,274,,50,10,089,*77
$GLGSV,3,1,09,69,27,002,33,70,51,275,28,71,21,226,34,73,14,208,27*65
$GLGSV,3,2,09,80,12,154,25,82,21,128,39,83,47,071,40,84,24,005,24*6A
$GLGSV,3,3,09,,,,38*67
$GNGLL,0419.94196,S,05539.74616,E,113449.00,A,A*67
$GNRMC,113450.00,A,0419.94196,S,05539.74615,E,0.032,,260525,,,A*72
$GNVTG,,T,,M,0.032,N,0.059,K,A*30
$GNGGA,113450.00,0419.94196,S,05539.74615,E,1,12,0.60,63.6,M,-47.6,M,,*47
$GNGSA,A,3,32,29,26,10,28,18,31,16,27,,,,1.44,0.60,1.31*14
$GNGSA,A,3,69,82,70,83,80,73,71,,,,,,1.44,0.60,1.31*1B
$GPGSV,4,1,16,10,20,352,32,16,25,255,32,18,31,068,34,23,05,030,21*78
$GPGSV,4,2,16,25,03,133,27,26,29,223,35,27,33,319,22,28,41,164,41*75
$GPGSV,4,3,16,29,24,146,37,31,26,195,33,32,71,352,45,36,52,277,41*7F
$GPGSV,4,4,16,40,84,353,41,41,58,082,38,49,32,274,,50,10,089,*77
$GLGSV,3,1,09,69,27,002,34,70,51,275,28,71,21,226,34,73,14,208,27*62
$GLGSV,3,2,09,80,12,154,25,82,21,128,39,83,47,071,39,84,24,005,24*64
$GLGSV,3,3,09,,,,37*68
$GNGLL,0419.94196,S,05539.74615,E,113450.00,A,A*6C
$GNRMC,113451.00,A,0419.94196,S,05539.74615,E,0.021,,260525,,,A*71
$GNVTG,,T,,M,0.021,N,0.039,K,A*34
$GNGGA,113451.00,0419.94196,S,05539.74615,E,1,12,0.60,63.7,M,-47.6,M,,*47
$GNGSA,A,3,32,29,26,10,28,18,31,16,27,,,,1.44,0.60,1.31*14
$GNGSA,A,3,69,82,70,83,80,73,71,,,,,,1.44,0.60,1.31*1B
$GPGSV,4,1,16,10,20,352,28,16,25,255,33,18,31,068,34,23,05,030,22*71
$GPGSV,4,2,16,25,03,133,27,26,29,223,36,27,33,319,22,28,41,164,41*76
$GPGSV,4,3,16,29,24,146,36,31,26,195,32,32,71,352,45,36,52,277,41*7F
$GPGSV,4,4,16,40,84,353,41,41,58,082,39,49,32,274,,50,10,089,*76
$GLGSV,3,1,09,69,27,002,34,70,51,275,28,71,21,226,34,73,14,208,28*6D
$GLGSV,3,2,09,80,12,154,25,82,21,128,38,83,47,071,40,84,24,005,24*6B
$GLGSV,3,3,09,,,,37*68
$GNGLL,0419.94196,S,05539.74615,E,113451.00,A,A*6D
$GNGLL,0419.94196,S,05539.74616,E,113452.00,A,A*6D
$GNGSA,A,3,32,29,26,10,28,18,31,16,27,,,,1.44,0.60,1.31*14
$GNGSA,A,3,69,82,70,83,80,73,71,,,,,,1.44,0.60,1.31*1B
$GPGSV,4,1,16,10,20,352,28,16,25,255,32,18,31,068,32,23,05,030,22*76
$GPGSV,4,2,16,25,03,133,26,26,29,223,35,27,33,319,22,28,41,164,40*75
$GPGSV,4,3,16,29,24,146,37,31,26,195,32,32,71,352,45,36,52,277,41*7E
$GPGSV,4,4,16,40,84,353,41,41,58,082,39,49,32,274,,50,10,089,*76
$GLGSV,3,1,09,69,27,002,30,70,51,275,27,71,21,226,34,73,14,208,28*66
$GLGSV,3,2,09,80,12,154,25,82,21,128,39,83,47,071,38,84,24,005,24*65
$GLGSV,3,3,09,,,,36*69
$GNGLL,0419.94196,S,05539.74616,E,113453.00,A,A*6C
$GNRMC,113455.00,A,0419.94198,S,05539.74619,E,0.020,,260525,,,A*76
$GNVTG,,T,,M,0.020,N,0.037,K,A*3B
$GNGGA,113455.00,0419.94198,S,05539.74619,E,1,12,0.60,63.8,M,-47.6,M,,*4E
$GNGSA,A,3,32,29,26,10,28,18,31,16,27,,,,1.44,0.60,1.31*14
$GNGSA,A,3,69,82,70,83,80,73,71,,,,,,1.44,0.60,1.31*1B
$GPGSV,4,1,16,10,20,352,29,16,25,255,33,18,31,068,33,23,05,030,18*7E
$GPGSV,4,2,16,25,03,133,26,26,29,223,35,27,33,319,20,28,41,164,40*77
$GPGSV,4,3,16,29,24,146,37,31,26,195,33,32,71,352,45,36,52,277,41*7F
$GPGSV,4,4,16,40,84,353,40,41,58,082,39,49,32,274,,50,10,089,*77
$GLGSV,3,1,09,69,27,002,29,70,51,275,28,71,21,226,34,73,14,208,27*6E
$GLGSV,3,2,09,80,12,154,25,82,21,128,39,83,47,071,38,84,24,005,22*63
$GLGSV,3,3,09,,,,36*69
$GNGLL,0419.94198,S,05539.74619,E,113455.00,A,A*6B
$GNRMC,113456.00,A,0419.94198,S,05539.74621,E,0.024,,260525,,,A*7A
$GNVTG,,T,,M,0.024,N,0.045,K,A*3A
$GNGGA,113456.00,0419.94198,S,05539.74621,E,1,12,0.60,63.8,M,-47.6,M,,*46
$GNGSA,A,3,32,29,26,10,28,18,31,16,27,,,,1.44,0.60,1.31*14
$GNGSA,A,3,69,82,70,83,80,73,71,,,,,,1.44,0.60,1.31*1B
$GPGSV,4,1,16,10,20,352,29,16,25,255,33,18,31,068,34,23,05,030,20*72
$GPGSV,4,2,16,25,03,133,27,26,29,223,35,27,33,319,19,28,41,164,40*7C
$GPGSV,4,3,16,29,24,146,37,31,26,195,34,32,71,352,45,36,52,277,41*78
$GPGSV,4,4,16,40,84,353,40,41,58,082,39,49,32,274,,50,10,089,*77
$GLGSV,3,1,09,69,27,002,29,70,51,275,28,71,21,226,34,73,14,208,27*6E
$GLGSV,3,2,09,80,12,154,25,82,21,128,39,83,47,071,41,84,24,005,22*6D
$GLGSV,3,3,09,,,,36*69
$GNGLL,0419.94198,S,05539.74621,E,113456.00,A,A*63
$GNRMC,113457.00,A,0419.94199,S,05539.74621,E,0.019,,260525,,,A*74
$GNVTG,,T,,M,0.019,N,0.035,K,A*33
$GNGGA,113457.00,0419.94199,S,05539.74621,E,1,12,0.60,63.8,M,-47.6,M,,*46
$GNGSA,A,3,32,29,26,10,28,18,31,16,27,,,,1.44,0.60,1.31*14
$GNGSA,A,3,69,82,70,83,80,73,71,,,,,,1.44,0.60,1.31*1B
$GPGSV,4,1,16,10,20,352,28,16,25,255,32,18,31,068,35,23,05,030,21*72
$GPGSV,4,2,16,25,03,133,26,26,29,223,35,27,33,319,18,28,41,164,40*7C
$GPGSV,4,3,16,29,24,146,37,31,26,195,34,32,71,352,45,36,52,277,41*78
$GPGSV,4,4,16,40,84,353,40,41,58,082,39,49,32,274,,50,10,089,*77
$GLGSV,3,1,09,69,27,002,29,70,51,275,28,71,21,226,33,73,14,208,26*68
$GLGSV,3,2,09,80,12,154,23,82,21,128,39,83,47,071,40,84,24,005,21*69
$GLGSV,3,3,09,,,,36*69
$GNGLL,0419.94199,S,05539.74621,E,113457.00,A,A*63
$GNRMC,113458.00,A,0419.94200,S,05539.74622,E,0.008,,260525,,,A*7B
$GNVTG,,T,,M,0.008,N,0.014,K,A*30
$GNGGA,113458.00,0419.94200,S,05539.74622,E,1,12,0.60,63.8,M,-47.6,M,,*49
$GNGSA,A,3,32,29,26,10,28,18,31,16,27,,,,1.44,0.60,1.31*14
$GNGSA,A,3,69,82,70,83,80,73,71,,,,,,1.44,0.60,1.31*1B
$GPGSV,4,1,16,10,20,352,28,16,25,255,32,18,31,068,35,23,05,030,21*72
$GPGSV,4,2,16,25,03,133,26,26,29,223,35,27,33,319,17,28,41,164,40*73
$GPGSV,4,3,16,29,24,146,37,31,26,195,34,32,71,352,45,36,52,277,41*78
$GPGSV,4,4,16,40,84,353,40,41,58,082,39,49,32,274,,50,10,089,*77
$GLGSV,3,1,09,69,27,002,29,70,51,275,28,71,21,226,33,73,14,208,27*69
$GLGSV,3,2,09,80,12,154,23,82,21,128,39,83,47,071,40,84,24,005,20*68
$GLGSV,3,3,09,,,,37*68
$GNGLL,0419.94200,S,05539.74622,E,113458.00,A,A*6C
$GNRMC,113459.00,A,0419.94201,S,05539.74623,E,0.019,,260525,,,A*7A
$GNVTG,,T,,M,0.019,N,0.036,K,A*30
$GNGGA,113459.00,0419.94201,S,05539.74623,E,1,12,0.60,63.9,M,-47.6,M,,*49
$GNGSA,A,3,32,29,26,10,28,18,31,16,27,,,,1.44,0.60,1.31*14
$GNGSA,A,3,69,82,70,83,80,73,71,,,,,,1.44,0.60,1.31*1B
$GPGSV,4,1,16,10,20,352,28,16,25,255,32,18,31,068,36,23,05,030,20*70
$GPGSV,4,2,16,25,03,133,26,26,29,223,35,27,33,319,16,28,41,164,40*72
$GPGSV,4,3,16,29,24,146,37,31,26,195,34,32,71,352,45,36,52,277,41*78
$GPGSV,4,4,16,40,84,353,40,41,58,082,39,49,32,274,,50,10,089,*77
$GLGSV,3,1,09,69,27,002,29,70,51,275,28,71,21,226,33,73,14,208,27*69
$GLGSV,3,2,09,80,12,154,24,82,21,128,38,83,47,071,40,84,24,005,20*6E
$GLGSV,3,3,09,,,,37*68
$GNGLL,0419.94201,S,05539.74623,E,113459.00,A,A*6D
$GNRMC,113500.00,A,0419.94202,S,05539.74623,E,0.022,,260525,,,A*7C
$GNVTG,,T,,M,0.022,N,0.042,K,A*3B
$GNGGA,113500.00,0419.94202,S,05539.74623,E,1,12,0.60,63.9,M,-47.6,M,,*47
$GNGSA,A,3,32,29,26,10,28,18,31,16,27,,,,1.44,0.60,1.31*14
$GNGSA,A,3,69,82,70,83,80,73,71,,,,,,1.44,0.60,1.31*1B
$GPGSV,4,1,16,10,20,352,28,16,25,255,32,18,31,068,36,23,05,030,21*71
$GPGSV,4,2,16,25,03,133,26,26,29,223,35,27,33,319,12,28,41,164,40*76
$GPGSV,4,3,16,29,24,146,37,31,26,195,35,32,71,352,45,36,52,277,41*79
$GPGSV,4,4,16,40,84,353,40,41,58,082,39,49,32,274,,50,10,089,*77
$GLGSV,3,1,09,69,26,002,29,70,51,275,28,71,21,226,34,73,14,208,27*6F
$GLGSV,3,2,09,80,12,154,25,82,21,128,38,83,47,071,40,84,24,005,20*6F
$GLGSV,3,3,09,,,,37*68
$GNGLL,0419.94202,S,05539.74623,E,113500.00,A,A*63
$GNRMC,113501.00,A,0419.94202,S,05539.74626,E,0.028,,260525,,,A*72
$GNVTG,,T,,M,0.028,N,0.052,K,A*30
$GNGGA,113501.00,0419.94202,S,05539.74626,E,1,12,0.60,63.9,M,-47.6,M,,*43
$GNGSA,A,3,32,29,26,10,28,18,31,16,27,,,,1.44,0.60,1.31*14
$GNGSA,A,3,69,82,70,83,80,73,71,,,,,,1.44,0.60,1.31*1B
$GPGSV,4,1,16,10,20,352,29,16,25,255,33,18,31,068,33,23,05,030,21*74
$GPGSV,4,2,16,25,03,133,25,26,29,223,33,27,33,319,17,28,41,164,42*74
$GPGSV,4,3,16,29,24,146,38,31,26,195,35,32,71,352,44,36,52,277,41*77
$GPGSV,4,4,16,40,84,353,40,41,58,082,39,49,32,274,,50,10,089,*77
$GLGSV,3,1,09,69,26,002,29,70,51,276,28,71,21,226,33,73,14,208,32*6F
$GLGSV,3,2,09,80,12,154,26,82,21,128,38,83,47,071,41,84,24,005,20*6D
$GLGSV,3,3,09,,,,37*68
$GNGLL,0419.94202,S,05539.74626,E,113501.00,A,A*67
$GNRMC,113502.00,A,0419.94203,S,05539.74626,E,0.033,,260525,,,A*7A
$GNVTG,,T,,M,0.033,N,0.061,K,A*3A
$GNGGA,113502.00,0419.94203,S,05539.74626,E,1,12,0.60,63.9,M,-47.6,M,,*41
$GNGSA,A,3,32,29,26,10,28,18,31,16,27,,,,1.44,0.60,1.31*14
$GNGSA,A,3,69,82,70,83,80,73,71,,,,,,1.44,0.60,1.31*1B
$GPGSV,4,1,16,10,20,352,31,16,25,255,32,18,31,068,27,23,05,030,21*79
$GPGSV,4,2,16,25,03,133,25,26,29,223,33,27,33,319,15,28,41,164,43*77
$GPGSV,4,3,16,29,24,146,38,31,26,195,32,32,71,352,45,36,52,277,41*71
$GPGSV,4,4,16,40,84,353,38,41,58,082,40,49,32,274,,50,10,089,*76
$GLGSV,3,1,09,69,26,002,31,70,51,276,28,71,22,227,29,73,14,208,32*6F
$GLGSV,3,2,09,80,12,154,27,82,21,128,38,83,47,071,41,84,24,005,22*6E
$GLGSV,3,3,09,,,,36*69
$GNGLL,0419.94203,S,05539.74626,E,113502.00,A,A*65
$GNRMC,113503.00,A,0419.94202,S,05539.74628,E,0.045,,260525,,,A*75
$GNVTG,,T,,M,0.045,N,0.083,K,A*37
$GNGGA,113503.00,0419.94202,S,05539.74628,E,1,12,0.60,63.9,M,-47.6,M,,*4F
$GNGSA,A,3,32,29,26,10,28,18,31,16,27,,,,1.44,0.60,1.31*14
$GNGSA,A,3,69,82,70,83,80,73,71,,,,,,1.44,0.60,1.31*1B
$GPGSV,4,1,16,10,20,352,33,16,25,255,32,18,31,068,36,23,05,030,21*7B
$GPGSV,4,2,16,25,03,133,24,26,29,223,33,27,33,319,17,28,41,164,41*76
$GPGSV,4,3,16,29,24,146,36,31,26,195,36,32,71,352,45,36,52,277,41*7B
$GPGSV,4,4,16,40,84,353,40,41,58,082,36,49,32,274,,50,10,089,*78
$GLGSV,3,1,09,69,26,002,32,70,51,276,29,71,22,227,34,73,14,208,26*64
$GLGSV,3,2,09,80,12,154,25,82,21,128,37,83,47,071,39,84,24,005,22*6C
$GLGSV,3,3,09,,,,37*68
$GNGLL,0419.94202,S,05539.74628,E,113503.00,A,A*6B
$GLGSV,3,1,09,69,26,002,32,70,51,276,29,71,22,227,34,73,14,207,24*69
$GLGSV,3,2,09,80,12,154,25,82,21,128,39,83,47,071,40,84,24,005,23*6D
$GLGSV,3,3,09,,,,37*68
$GNGLL,0419.94203,S,05539.74629,E,113504.00,A,A*6C
$GNRMC,113505.00,A,0419.94204,S,05539.74632,E,0.012,,260525,,,A*7C
$GNVTG,,T,,M,0.012,N,0.022,K,A*3E
$GNGGA,113505.00,0419.94204,S,05539.74632,E,1,12,0.60,63.9,M,-47.6,M,,*44
$GNGSA,A,3,32,29,26,10,28,18,31,16,27,,,,1.44,0.60,1.31*14
$GNGSA,A,3,69,82,70,83,80,73,71,,,,,,1.44,0.60,1.31*1B
$GPGSV,4,1,16,10,20,352,34,16,25,255,33,18,31,068,34,23,05,030,21*7F
$GPGSV,4,2,16,25,03,133,22,26,29,223,35,27,33,319,18,28,41,164,39*76
$GPGSV,4,3,16,29,24,146,32,31,26,195,33,32,71,352,46,36,52,277,41*79
$GPGSV,4,4,16,40,84,353,41,41,58,082,40,49,32,274,,50,10,089,*78
$GLGSV,3,1,09,69,26,002,32,70,51,276,29,71,22,227,35,73,14,207,26*6A
$GLGSV,3,2,09,80,12,154,22,82,21,128,39,83,47,071,38,84,24,005,23*65
$GLGSV,3,3,09,,,,38*67
$GNGLL,0419.94204,S,05539.74632,E,113505.00,A,A*60
$GNRMC,113508.00,A,0419.94206,S,05539.74635,E,0.022,,260525,,,A*77
$GNVTG,,T,,M,0.022,N,0.041,K,A*38
$GNGGA,113508.00,0419.94206,S,05539.74635,E,1,12,0.60,64.2,M,-47.6,M,,*40
$GNGSA,A,3,32,29,26,10,28,18,31,16,27,,,,1.44,0.60,1.31*14
$GNGSA,A,3,69,82,70,83,80,73,71,,,,,,1.44,0.60,1.31*1B
$GPGSV,4,1,16,10,20,352,34,16,25,255,32,18,31,068,36,23,05,030,21*7C
$GPGSV,4,2,16,25,03,133,25,26,29,223,34,27,33,319,20,28,41,164,39*7B
$GPGSV,4,3,16,29,24,146,38,31,26,195,33,32,71,352,44,36,52,277,41*71
$GPGSV,4,4,16,40,84,353,41,41,58,082,38,49,32,274,,50,10,089,*77
$GLGSV,3,1,09,69,26,002,30,70,51,276,29,71,22,227,35,73,14,207,25*6B
$GLGSV,3,2,09,80,12,154,25,82,21,128,39,83,47,071,40,84,24,005,22*6C
$GLGSV,3,3,09,,,,36*69
$GNGLL,0419.94206,S,05539.74635,E,113508.00,A,A*68
$GNRMC,113509.00,A,0419.94207,S,05539.74636,E,0.012,,260525,,,A*77
$GNVTG,,T,,M,0.012,N,0.023,K,A*3F
$GNGGA,113509.00,0419.94207,S,05539.74636,E,1,12,0.60,64.2,M,-47.6,M,,*43
$GNGSA,A,3,32,29,26,10,28,18,31,16,27,,,,1.44,0.60,1.31*14
$GNGSA,A,3,69,82,70,83,80,73,71,,,,,,1.44,0.60,1.31*1B
$GPGSV,4,1,16,10,20,352,34,16,25,255,32,18,31,068,34,23,05,030,21*7E
$GPGSV,4,2,16,25,03,133,25,26,29,223,34,27,33,319,21,28,41,164,40*74
$GPGSV,4,3,16,29,24,146,38,31,26,195,34,32,71,352,44,36,52,277,41*76
$GPGSV,4,4,16,40,84,353,41,41,58,082,38,49,32,274,,50,10,089,*77
$GLGSV,3,1,09,69,26,002,30,70,51,276,29,71,22,227,34,73,14,207,25*6A
$GLGSV,3,2,09,80,12,154,25,82,21,128,39,83,47,071,40,84,24,005,22*6C
$GLGSV,3,3,09,,,,36*69
$GNGLL,0419.94207,S,05539.74636,E,113509.00,A,A*6B
$GNRMC,113510.00,A,0419.94208,S,05539.74636,E,0.023,,260525,,,A*72
$GNVTG,,T,,M,0.023,N,0.042,K,A*3A
$GNGGA,113510.00,0419.94208,S,05539.74636,E,1,12,0.60,64.2,M,-47.6,M,,*44
$GNGSA,A,3,32,29,26,10,28,18,31,16,27,,,,1.44,0.60,1.31*14
$GNGSA,A,3,69,82,70,83,80,73,71,,,,,,1.44,0.60,1.31*1B
$GPGSV,4,1,16,10,20,352,34,16,25,255,32,18,31,068,36,23,05,030,21*7C
$GPGSV,4,2,16,25,03,133,25,26,29,223,34,27,33,319,22,28,41,164,40*77
$GPGSV,4,3,16,29,24,146,38,31,26,195,34,32,71,352,45,36,52,277,41*77
$GPGSV,4,4,16,40,84,353,41,41,58,082,38,49,32,274,,50,10,089,*77
$GLGSV,3,1,09,69,26,002,29,70,51,276,29,71,22,227,34,73,14,207,23*64
$GLGSV,3,2,09,80,12,154,26,82,21,128,38,83,47,071,38,84,24,005,22*61
$GLGSV,3,3,09,,,,36*69
$GNGLL,0419.94208,S,05539.74636,E,113510.00,A,A*6C
$GNRMC,113511.00,A,0419.94208,S,05539.74638,E,0.008,,260525,,,A*74
$GNVTG,,T,,M,0.008,N,0.015,K,A*31
$GNGGA,113511.00,0419.94208,S,05539.74638,E,1,12,0.60,64.2,M,-47.6,M,,*4B
$GNGSA,A,3,32,29,26,10,28,18,31,16,27,,,,1.44,0.60,1.31*14
$GNGSA,A,3,69,82,70,83,80,73,71,,,,,,1.44,0.60,1.31*1B
$GPGSV,4,1,16,10,20,352,32,16,25,255,32,18,31,068,35,23,05,030,22*7A
$GPGSV,4,2,16,25,03,133,25,26,29,223,34,27,33,319,21,28,41,164,41*75
$GPGSV,4,3,16,29,24,146,38,31,26,195,34,32,71,352,45,36,52,277,41*77
$GPGSV,4,4,16,40,84,353,40,41,58,082,38,49,32,274,,50,10,089,*76
$GLGSV,3,1,09,69,26,002,30,70,51,276,29,71,22,227,35,73,14,207,23*6D
$GLGSV,3,2,09,80,12,154,25,82,21,128,39,83,47,071,40,84,24,005,22*6C
$GLGSV,3,3,09,,,,36*69
$GNGLL,0419.94208,S,05539.74638,E,113511.00,A,A*63
$GNRMC,113512.00,A,0419.94208,S,05539.74639,E,0.021,,260525,,,A*7D
$GNVTG,,T,,M,0.021,N,0.039,K,A*34
$GNGGA,113512.00,0419.94208,S,05539.74639,E,1,12,0.60,64.1,M,-47.6,M,,*4A
$GNGSA,A,3,32,29,26,10,28,18,31,16,27,,,,1.44,0.60,1.31*14
$GNGSA,A,3,69,82,70,83,80,73,71,,,,,,1.44,0.60,1.31*1B
$GPGSV,4,1,16,10,20,352,31,16,25,255,32,18,31,068,35,23,05,030,22*79
$GPGSV,4,2,16,25,03,133,25,26,29,223,35,27,33,319,19,28,41,164,40*7E
$GPGSV,4,3,16,29,24,146,37,31,26,195,34,32,71,352,45,36,52,277,41*78
$GPGSV,4,4,16,40,84,353,40,41,58,082,38,49,32,274,,50,10,089,*76
$GLGSV,3,1,09,69,26,002,31,70,51,276,29,71,22,227,35,73,14,207,25*6A
$GLGSV,3,2,09,80,12,154,25,82,21,128,39,83,47,071,40,84,24,005,22*6C
$GLGSV,3,3,09,,,,35*6A
$GNGLL,0419.94208,S,05539.74639,E,113512.00,A,A*61
$GNRMC,113513.00,A,0419.94208,S,05539.74639,E,0.013,,260525,,,A*7D
$GNVTG,,T,,M,0.013,N,0.024,K,A*39
$GNGGA,113513.00,0419.94208,S,05539.74639,E,1,12,0.60,64.2,M,-47.6,M,,*48
$GNGSA,A,3,32,29,26,10,28,18,31,16,27,,,,1.44,0.60,1.31*14
$GNGSA,A,3,69,82,70,83,80,73,71,,,,,,1.44,0.60,1.31*1B
$GPGSV,4,1,16,10,20,352,31,16,25,255,32,18,31,068,36,23,05,030,22*7A
$GPGSV,4,2,16,25,03,133,26,26,29,223,34,27,33,319,18,28,41,164,40*7D
$GPGSV,4,3,16,29,24,146,37,31,26,195,34,32,71,352,44,36,52,277,41*79
$GPGSV,4,4,16,40,84,353,40,41,58,082,38,49,32,274,,50,10,089,*76
$GLGSV,3,1,09,69,26,002,31,70,51,276,29,71,22,227,35,73,14,207,25*6A
$GLGSV,3,2,09,80,12,154,25,82,21,128,39,83,47,071,40,84,24,005,22*6C
$GLGSV,3,3,09,,,,35*6A
$GNGLL,0419.94208,S,05539.74639,E,113513.00,A,A*60
$GNRMC,113514.00,A,0419.94208,S,05539.74640,E,0.007,,260525,,,A*71
$GNVTG,,T,,M,0.007,N,0.013,K,A*38
$GNGGA,113514.00,0419.94208,S,05539.74640,E,1,12,0.60,64.1,M,-47.6,M,,*42
$GNGSA,A,3,32,29,26,10,28,18,31,16,27,,,,1.44,0.60,1.31*14
$GNGSA,A,3,69,82,70,83,80,73,71,,,,,,1.44,0.60,1.31*1B
$GPGSV,4,1,16,10,20,352,32,16,25,255,32,18,31,068,35,23,05,030,21*79
$GPGSV,4,2,16,25,03,133,27,26,29,223,34,27,33,319,16,28,41,164,40*72
$GPGSV,4,3,16,29,24,146,38,31,26,195,34,32,71,352,44,36,52,277,41*76
$GPGSV,4,4,16,40,84,353,40,41,58,082,38,49,32,274,,50,10,089,*76
$GLGSV,3,1,09,69,26,002,31,70,51,276,29,71,22,227,35,73,14,207,25*6A
$GLGSV,3,2,09,80,12,154,25,82,21,128,39,83,47,072,40,84,24,005,22*6F
$GLGSV,3,3,09,,,,36*69
$GNGLL,0419.94208,S,05539.74640,E,113514.00,A,A*69
$GNRMC,113517.00,A,0419.94209,S,05539.74642,E,0.023,,260525,,,A*77
$GNVTG,,T,,M,0.023,N,0.042,K,A*3A
$GNGGA,113517.00,0419.94209,S,05539.74642,E,1,12,0.60,64.1,M,-47.6,M,,*42
$GNGSA,A,3,32,29,26,10,28,18,31,16,27,,,,1.44,0.60,1.31*14
$GNGSA,A,3,69,82,70,83,80,73,71,,,,,,1.44,0.60,1.31*1B
$GPGSV,4,1,16,10,20,352,32,16,25,255,33,18,31,068,35,23,05,030,19*73
$GPGSV,4,2,16,25,03,133,26,26,29,223,35,27,33,319,15,28,41,164,40*71
$GPGSV,4,3,16,29,24,146,37,31,26,195,35,32,71,352,44,36,52,277,41*78
$GPGSV,4,4,16,40,84,353,41,41,58,082,40,49,32,274,,50,10,089,*78
$GLGSV,3,1,09,69,26,002,31,70,51,276,30,71,22,227,35,73,14,207,25*62
$GLGSV,3,2,09,80,12,154,25,82,21,128,38,83,47,072,39,84,25,005,22*61
$GLGSV,3,3,09,,,,35*6A
$GNGLL,0419.94209,S,05539.74642,E,113517.00,A,A*69
$GNRMC,113518.00,A,0419.94210,S,05539.74643,E,0.002,,260525,,,A*72
$GNVTG,,T,,M,0.002,N,0.003,K,A*3C
$GNGGA,113518.00,0419.94210,S,05539.74643,E,1,12,0.60,64.2,M,-47.6,M,,*47
$GNGSA,A,3,32,29,26,10,28,18,31,16,27,,,,1.44,0.60,1.31*14
$GNGSA,A,3,69,82,70,83,80,73,71,,,,,,1.44,0.60,1.31*1B
$GPGSV,4,1,16,10,20,352,32,16,25,255,33,18,31,068,35,23,05,030,20*79
$GPGSV,4,2,16,25,03,133,26,26,29,223,35,27,33,319,16,28,41,164,40*72
$GPGSV,4,3,16,29,24,146,37,31,26,195,35,32,71,352,44,36,52,277,41*78
$GPGSV,4,4,16,40,84,353,40,41,58,082,40,49,32,274,,50,10,089,*79
$GLGSV,3,1,09,69,26,002,27,70,51,276,29,71,22,227,35,73,14,207,25*6D
$GLGSV,3,2,09,80,12,154,24,82,21,128,38,83,47,072,39,84,25,005,22*60
$GLGSV,3,3,09,,,,35*6A
$GNGLL,0419.94210,S,05539.74643,E,113518.00,A,A*6F
$GNRMC,113519.00,A,0419.94210,S,05539.74644,E,0.036,,260525,,,A*73
$GNVTG,,T,,M,0.036,N,0.067,K,A*39
$GNRMC,113520.00,A,0419.94212,S,05539.74644,E,0.005,,260525,,,A*7B
$GNVTG,,T,,M,0.005,N,0.009,K,A*31
$GNGGA,113520.00,0419.94212,S,05539.74644,E,1,12,0.60,64.3,M,-47.6,M,,*48
$GNGSA,A,3,32,29,26,10,28,18,31,16,27,,,,1.44,0.60,1.31*14
$GNGSA,A,3,69,82,70,83,80,73,71,,,,,,1.44,0.60,1.31*1B
$GPGSV,4,1,16,10,20,352,34,16,25,255,33,18,31,068,36,23,05,030,22*7E
$GPGSV,4,2,16,25,03,132,26,26,29,223,35,27,33,319,23,28,41,164,41*74
$GPGSV,4,3,16,29,24,146,37,31,26,195,34,32,71,352,45,36,52,277,41*78
$GPGSV,4,4,16,40,84,353,41,41,58,082,38,49,32,274,,50,10,089,*77
$GLGSV,3,1,09,69,26,002,28,70,51,276,29,71,22,227,34,73,14,207,23*65
$GLGSV,3,2,09,80,12,154,24,82,21,128,37,83,47,072,38,84,25,005,23*6F
$GLGSV,3,3,09,,,,35*6A
$GNGLL,0419.94212,S,05539.74644,E,113520.00,A,A*61
$GNRMC,113521.00,A,0419.94213,S,05539.74645,E,0.002,,260525,,,A*7D
$GNVTG,,T,,M,0.002,N,0.004,K,A*3B
$GNGGA,113521.00,0419.94213,S,05539.74645,E,1,12,0.60,64.3,M,-47.6,M,,*49
$GNGSA,A,3,32,29,26,10,28,18,31,16,27,,,,1.44,0.60,1.31*14
$GNGSA,A,3,69,82,70,83,80,73,71,,,,,,1.44,0.60,1.31*1B
$GPGSV,4,1,16,10,20,352,34,16,25,255,33,18,31,068,36,23,05,030,23*7F
$GPGSV,4,2,16,25,03,132,26,26,29,223,35,27,33,319,25,28,41,164,41*72
$GPGSV,4,3,16,29,24,146,36,31,26,195,34,32,71,352,45,36,52,277,41*79
$GPGSV,4,4,16,40,84,353,41,41,58,082,40,49,32,274,,50,10,089,*78
$GLGSV,3,1,09,69,26,002,29,70,51,276,28,71,22,227,34,73,14,207,25*63
$GLGSV,3,2,09,80,12,154,24,82,21,128,37,83,47,072,37,84,25,005,23*60
$GLGSV,3,3,09,,,,36*69
$GNGLL,0419.94213,S,05539.74645,E,113521.00,A,A*60
$GNRMC,113522.00,A,0419.94214,S,05539.74646,E,0.020,,260525,,,A*7A
$GNVTG,,T,,M,0.020,N,0.038,K,A*34
$GNGGA,113522.00,0419.94214,S,05539.74646,E,1,12,0.60,64.4,M,-47.6,M,,*49
$GNGSA,A,3,32,29,26,10,28,18,31,16,27,,,,1.44,0.60,1.31*14
$GNGSA,A,3,69,82,70,83,80,73,71,,,,,,1.44,0.60,1.31*1B
$GPGSV,4,1,16,10,20,352,29,16,25,255,32,18,31,068,35,23,05,030,22*70
$GPGSV,4,2,16,25,03,132,27,26,29,223,35,27,33,319,24,28,41,164,40*73
$GPGSV,4,3,16,29,24,146,38,31,26,195,34,32,71,352,46,36,52,277,41*74
$GPGSV,4,4,16,40,84,353,40,41,58,082,38,49,32,274,,50,10,089,*76
$GLGSV,3,1,09,69,26,002,30,70,51,276,28,71,22,227,33,73,14,207,26*6F
$GLGSV,3,2,09,80,12,154,23,82,21,128,39,83,47,072,40,84,25,005,22*68
$GLGSV,3,3,09,,,,35*6A
$GNGLL,0419.94214,S,05539.74646,E,113522.00,A,A*67
$GNRMC,113524.00,A,0419.94215,S,05539.74646,E,0.017,,260525,,,A*79
$GNVTG,,T,,M,0.017,N,0.032,K,A*3A
$GNGGA,113524.00,0419.94215,S,05539.74646,E,1,12,0.60,64.4,M,-47.6,M,,*4E
$GNGSA,A,3,32,29,26,10,28,18,31,16,27,,,,1.44,0.60,1.31*14
$GNGSA,A,3,69,82,70,83,80,73,71,,,,,,1.44,0.60,1.31*1B
$GPGSV,4,1,16,10,20,352,30,16,25,255,32,18,31,068,35,23,05,030,20*7A
$GPGSV,4,2,16,25,03,132,28,26,29,223,35,27,33,319,19,28,41,164,42*70
$GPGSV,4,3,16,29,24,146,38,31,26,195,34,32,71,352,44,36,52,277,41*76
$GPGSV,4,4,16,40,84,353,40,41,58,082,37,49,32,274,,50,10,089,*79
$GLGSV,3,1,09,69,26,002,31,70,51,276,28,71,22,227,33,73,14,207,29*61
$GLGSV,3,2,09,80,12,154,25,82,21,128,39,83,47,072,40,84,25,005,20*6C
$GLGSV,3,3,09,,,,36*69
$GNGLL,0419.94215,S,05539.74646,E,113524.00,A,A*60
$GNRMC,113525.00,A,0419.94216,S,05539.74647,E,0.024,,260525,,,A*7A
$GNRMC,113526.00,A,0419.94217,S,05539.74648,E,0.015,,260525,,,A*75
$GNVTG,,T,,M,0.015,N,0.028,K,A*33
$GNGGA,113526.00,0419.94217,S,05539.74648,E,1,12,0.60,64.5,M,-47.6,M,,*41
$GNGSA,A,3,32,29,26,10,28,18,31,16,27,,,,1.44,0.60,1.31*14
$GNGSA,A,3,69,82,70,83,80,73,71,,,,,,1.44,0.60,1.31*1B
$GPGSV,4,1,16,10,20,352,31,16,25,255,32,18,31,068,35,23,05,030,18*70
$GPGSV,4,2,16,25,03,132,27,26,29,223,35,27,33,319,19,28,41,164,41*7C
$GPGSV,4,3,16,29,24,146,38,31,26,195,33,32,71,352,45,36,52,277,41*70
$GPGSV,4,4,16,40,84,353,40,41,58,082,38,49,32,274,,50,10,089,*76
$GLGSV,3,1,09,69,26,002,32,70,51,276,28,71,22,227,34,73,14,207,29*65
$GLGSV,3,2,09,80,12,154,26,82,21,128,39,83,47,072,41,84,25,005,21*6F
$GLGSV,3,3,09,,,,34*6B
$GNGLL,0419.94217,S,05539.74648,E,113526.00,A,A*6E
$GNRMC,113527.00,A,0419.94218,S,05539.74649,E,0.022,,260525,,,A*7E
$GNVTG,,T,,M,0.022,N,0.040,K,A*39
$GNGGA,113527.00,0419.94218,S,05539.74649,E,1,12,0.60,64.5,M,-47.6,M,,*4E
$GNGSA,A,3,32,29,26,10,28,18,31,16,27,,,,1.44,0.60,1.31*14
$GNGSA,A,3,69,82,70,83,80,73,71,,,,,,1.44,0.60,1.31*1B
$GPGSV,4,1,16,10,20,352,32,16,25,255,32,18,31,068,35,23,05,030,18*73
$GPGSV,4,2,16,25,03,132,28,26,29,223,35,27,33,319,17,28,41,164,42*7E
$GPGSV,4,3,16,29,24,146,38,31,26,195,34,32,71,352,46,36,52,277,41*74
$GPGSV,4,4,16,40,84,353,40,41,58,082,38,49,32,274,,50,10,089,*76
$GLGSV,3,1,09,69,26,002,36,70,51,276,28,71,22,227,34,73,14,207,30*69
$GLGSV,3,2,09,80,12,154,26,82,21,128,38,83,47,072,40,84,25,005,23*6D
$GLGSV,3,3,09,,,,36*69
$GNGLL,0419.94218,S,05539.74649,E,113527.00,A,A*61
$GNRMC,113528.00,A,0419.94218,S,05539.74651,E,0.022,,260525,,,A*78
$GNVTG,,T,,M,0.022,N,0.040,K,A*39
$GNGGA,113528.00,0419.94218,S,05539.74651,E,1,12,0.60,64.5,M,-47.6,M,,*48
$GNGSA,A,3,32,29,26,10,28,18,31,16,27,,,,1.44,0.60,1.31*14
$GNGSA,A,3,69,82,70,83,80,73,71,,,,,,1.44,0.60,1.31*1B
$GPGSV,4,1,16,10,20,352,30,16,25,255,33,18,31,068,34,23,05,030,18*71
$GPGSV,4,2,16,25,03,132,28,26,29,223,35,27,33,319,18,28,41,164,42*71
$GPGSV,4,3,16,29,24,146,36,31,26,195,34,32,71,352,45,36,52,277,41*79
$GPGSV,4,4,16,40,84,353,40,41,58,082,38,49,32,274,,50,10,089,*76
$GLGSV,3,1,09,69,26,002,33,70,51,276,28,71,22,227,34,73,14,207,31*6D
$GLGSV,3,2,09,80,12,154,26,82,21,128,38,83,47,072,39,84,25,005,24*64
$GLGSV,3,3,09,,,,36*69
$GNGLL,0419.94218,S,05539.74651,E,113528.00,A,A*67
$GNRMC,113529.00,A,0419.94218,S,05539.74651,E,0.023,,260525,,,A*78
$GNVTG,,T,,M,0.023,N,0.042,K,A*3A
$GNGGA,113529.00,0419.94218,S,05539.74651,E,1,12,0.60,64.5,M,-47.6,M,,*49
$GNGSA,A,3,32,29,26,10,28,18,31,16,27,,,,1.44,0.60,1.31*14
$GNGSA,A,3,69,82,70,83,80,73,71,,,,,,1.44,0.60,1.31*1B
$GPGSV,4,1,16,10,20,353,31,16,25,255,33,18,31,068,34,23,05,030,20*7A
$GPGSV,4,2,16,25,03,132,28,26,29,223,35,27,33,319,19,28,41,164,42*70
$GPGSV,4,3,16,29,24,146,36,31,26,195,35,32,71,352,45,36,52,277,40*79
$GPGSV,4,4,16,40,84,353,40,41,58,082,36,49,32,274,,50,10,089,*78
$GLGSV,3,1,09,69,26,002,34,70,51,276,28,71,22,227,34,73,14,207,31*6A
$GLGSV,3,2,09,80,12,154,26,82,21,128,37,83,47,072,40,84,25,005,25*64
$GLGSV,3,3,09,,,,37*68
$GNGLL,0419.94218,S,05539.74651,E,113529.00,A,A*66
$GNRMC,113530.00,A,0419.94219,S,05539.74651,E,0.018,,260525,,,A*79
$GNVTG,,T,,M,0.018,N,0.034,K,A*33
$GNGGA,113530.00,0419.94219,S,05539.74651,E,1,12,0.60,64.6,M,-47.6,M,,*43
$GNGSA,A,3,32,29,26,10,28,18,31,16,27,,,,1.44,0.60,1.31*14
$GNGSA,A,3,69,82,70,83,80,73,71,,,,,,1.44,0.60,1.31*1B
$GPGSV,4,1,16,10,20,353,32,16,25,255,32,18,31,068,34,23,05,030,19*72
$GPGSV,4,2,16,25,03,132,28,26,29,223,35,27,33,319,18,28,41,164,42*71
$GPGSV,4,3,16,29,24,146,37,31,26,195,35,32,71,352,45,36,52,277,41*79
$GPGSV,4,4,16,40,84,353,40,41,58,082,37,49,32,274,,50,10,089,*79
$GLGSV,3,1,09,69,26,002,32,70,51,276,28,71,22,227,35,73,14,207,31*6D
$GLGSV,3,2,09,80,12,154,26,82,21,128,37,83,47,072,40,84,25,005,24*65
$GLGSV,3,3,09,,,,36*69
$GNGLL,0419.94219,S,05539.74651,E,113530.00,A,A*6F
$GNRMC,113532.00,A,0419.94220,S,05539.74651,E,0.028,,260525,,,A*72
$GNVTG,,T,,M,0.028,N,0.052,K,A*30
$GNGGA,113532.00,0419.94220,S,05539.74651,E,1,12,0.60,64.6,M,-47.6,M,,*4B
$GNGSA,A,3,32,29,26,10,28,18,31,16,27,,,,1.44,0.60,1.31*14
$GNGSA,A,3,69,82,70,83,80,73,71,,,,,,1.44,0.60,1.31*1B
$GPGSV,4,1,16,10,20,353,31,16,25,255,33,18,31,068,36,23,05,030,18*73
$GPGSV,4,2,16,25,03,132,28,26,29,223,36,27,33,319,17,28,41,164,42*7D
$GPGSV,4,3,16,29,24,146,37,31,26,195,35,32,71,352,45,36,52,277,41*79
$GPGSV,4,4,16,40,84,353,40,41,58,082,38,49,32,274,,50,10,089,*76
$GLGSV,3,1,09,69,26,002,27,70,51,276,29,71,22,227,33,73,14,207,32*6D
$GLGSV,3,2,09,80,12,154,26,82,21,128,38,83,47,072,39,84,25,005,21*61
$GLGSV,3,3,09,,,,36*69
$GNGLL,0419.94220,S,05539.74651,E,113532.00,A,A*67
$GNRMC,113533.00,A,0419.94220,S,05539.74651,E,0.016,,260525,,,A*7E
$GNVTG,,T,,M,0.016,N,0.029,K,A*31
$GNGGA,113533.00,0419.94220,S,05539.74651,E,1,12,0.60,64.6,M,-47.6,M,,*4A
$GNGSA,A,3,32,29,26,10,28,18,31,16,27,,,,1.44,0.60,1.31*14
$GNGSA,A,3,69,82,70,83,80,73,71,,,,,,1.44,0.60,1.31*1B
$GPGSV,4,1,16,10,20,353,31,16,25,255,33,18,31,068,35,23,05,030,18*70
$GPGSV,4,2,16,25,03,132,28,26,29,223,36,27,33,319,14,28,41,164,42*7E
$GPGSV,4,3,16,29,24,146,37,31,26,195,35,32,71,352,45,36,52,277,41*79
$GPGSV,4,4,16,40,84,353,40,41,58,082,38,49,32,274,,50,10,089,*76
$GLGSV,3,1,09,69,26,002,28,70,51,276,29,71,22,227,34,73,14,207,32*65
$GLGSV,3,2,09,80,12,154,26,82,21,128,38,83,47,072,39,84,25,005,22*62
$GLGSV,3,3,09,,,,35*6A
$GNGLL,0419.94220,S,05539.74651,E,113533.00,A,A*66
$GNRMC,113534.00,A,0419.94219,S,05539.74652,E,0.019,,260525,,,A*7F
$GNVTG,,T,,M,0.019,N,0.035,K,A*33
$GNGGA,113534.00,0419.94219,S,05539.74652,E,1,12,0.60,64.6,M,-47.6,M,,*44
$GNGSA,A,3,32,29,26,10,28,18,31,16,27,,,,1.44,0.60,1.31*14
$GNGSA,A,3,69,82,70,83,80,73,71,,,,,,1.44,0.60,1.31*1B
$GPGSV,4,1,16,10,20,353,32,16,25,255,33,18,31,068,35,23,05,030,20*78
$GPGSV,4,2,16,25,03,132,28,26,29,223,35,27,33,319,16,28,41,164,42*7F
$GPGSV,4,3,16,29,24,146,37,31,26,195,35,32,71,352,45,36,52,277,41*79
$GPGSV,4,4,16,40,84,353,40,41,58,082,37,49,32,274,,50,10,089,*79
$GLGSV,3,1,09,69,26,002,28,70,51,276,29,71,22,227,36,73,14,207,31*64
$GLGSV,3,2,09,80,12,154,25,82,21,128,38,83,47,072,39,84,25,005,23*60
$GLGSV,3,3,09,,,,35*6A
$GNGLL,0419.94219,S,05539.74652,E,113534.00,A,A*68
$GNRMC,113535.00,A,0419.94221,S,05539.74653,E,0.019,,260525,,,A*74
$GNVTG,,T,,M,0.019,N,0.035,K,A*33
$GNGGA,113535.00,0419.94221,S,05539.74653,E,1,12,0.60,64.7,M,-47.6,M,,*4E
$GNGSA,A,3,32,29,26,10,28,18,31,16,27,,,,1.44,0.60,1.31*14
$GNGSA,A,3,69,82,70,83,80,73,71,,,,,,1.44,0.60,1.31*1B
$GPGSV,4,1,16,10,20,353,32,16,25,254,33,18,31,068,35,23,05,030,22*7B
$GPGSV,4,2,16,25,03,132,28,26,29,223,34,27,33,319,16,28,41,164,43*7F
$GPGSV,4,3,16,29,24,146,35,31,26,195,35,32,71,352,45,36,52,277,41*7B
$GPGSV,4,4,16,40,84,353,41,41,58,082,37,49,32,274,,50,10,089,*78
$GLGSV,3,1,09,69,26,002,28,70,51,276,29,71,22,227,36,73,14,207,30*65
$GLGSV,3,2,09,80,12,154,26,82,21,128,36,83,47,072,37,84,25,005,21*61
$GLGSV,3,3,09,,,,38*67
$GNGLL,0419.94221,S,05539.74653,E,113535.00,A,A*63
$GNRMC,113537.00,A,0419.94221,S,05539.74653,E,0.017,,260525,,,A*78
$GNVTG,,T,,M,0.017,N,0.032,K,A*3A
$GNGGA,113537.00,0419.94221,S,05539.74653,E,1,12,0.60,64.6,M,-47.6,M,,*4D
$GNGSA,A,3,32,29,26,10,28,18,31,16,27,,,,1.44,0.60,1.31*14
$GNGSA,A,3,69,82,70,83,80,73,71,,,,,,1.44,0.60,1.31*1B
$GPGSV,4,1,16,10,20,353,32,16,25,254,32,18,31,069,36,23,05,030,21*7B
$GPGSV,4,2,16,25,03,132,28,26,29,223,35,27,33,319,21,28,41,164,42*7B
$GPGSV,4,3,16,29,24,146,38,31,26,195,35,32,71,352,45,36,52,277,41*76
$GPGSV,4,4,16,40,84,353,40,41,58,082,37,49,32,274,,50,10,089,*79
$GLGSV,3,1,09,69,26,002,34,70,51,276,29,71,22,227,34,73,14,207,31*6B
$GLGSV,3,2,09,80,12,154,26,82,21,128,37,83,47,072,38,84,25,005,22*6C
$GLGSV,3,3,09,,,,36*69
$GNGLL,0419.94221,S,05539.74653,E,113537.00,A,A*61
$GNRMC,113538.00,A,0419.94221,S,05539.74653,E,0.011,,260525,,,A*71
$GNVTG,,T,,M,0.011,N,0.021,K,A*3E
$GNGGA,113538.00,0419.94221,S,05539.74653,E,1,12,0.60,64.6,M,-47.6,M,,*42
$GNGSA,A,3,32,29,26,10,28,18,31,16,27,,,,1.44,0.60,1.31*14
$GNGSA,A,3,69,82,70,83,80,73,71,,,,,,1.44,0.60,1.31*1B
$GPGSV,4,1,16,10,20,353,32,16,25,254,32,18,31,069,33,23,05,030,21*7E
$GPGSV,4,2,16,25,03,132,29,26,29,223,35,27,33,319,21,28,41,164,42*7A
$GPGSV,4,3,16,29,24,146,36,31,26,195,35,32,71,352,46,36,52,277,41*7B
$GPGSV,4,4,16,40,84,353,41,41,58,082,36,49,32,274,,50,10,089,*79
$GLGSV,3,1,09,69,26,002,29,70,51,276,29,71,22,227,35,73,14,207,31*66
$GLGSV,3,2,09,80,12,154,25,82,21,128,38,83,47,072,38,84,25,005,23*61
$GLGSV,3,3,09,,,,36*69
$GNGLL,0419.94221,S,05539.74653,E,113538.00,A,A*6E
$GNRMC,113539.00,A,0419.94221,S,05539.74653,E,0.070,,260525,,,A*77
$GNVTG,,T,,M,0.070,N,0.130,K,A*38
$GNGGA,113539.00,0419.94221,S,05539.74653,E,1,12,0.60,64.6,M,-47.6,M,,*43
$GNGSA,A,3,32,29,26,10,28,18,31,16,27,,,,1.44,0.60,1.31*14
$GNGSA,A,3,69,82,70,83,80,73,71,,,,,,1.44,0.60,1.31*1B
$GPGSV,4,1,16,10,20,353,31,16,25,254,32,18,31,069,36,23,05,030,19*73
$GPGSV,4,2,16,25,03,132,28,26,29,223,35,27,33,319,22,28,41,164,42*78
$GPGSV,4,3,16,29,24,146,36,31,26,195,35,32,71,352,45,36,52,277,38*76
$GPGSV,4,4,16,40,84,353,41,41,58,082,38,49,32,274,,50,10,089,*77
$GLGSV,3,1,09,69,26,002,29,70,51,276,29,71,22,227,34,73,14,207,32*64
$GLGSV,3,2,09,80,12,154,26,82,21,128,37,83,47,072,40,84,25,005,22*63
$GLGSV,3,3,09,,,,35*6A
$GNGLL,0419.94221,S,05539.74653,E,113539.00,A,A*6F
$GNRMC,113540.00,A,0419.94231,S,05539.74714,E,3.250,118.47,260525,,,A*6C
$GNVTG,118.47,T,,M,3.250,N,6.018,K,A*23
$GNGGA,113540.00,0419.94231,S,05539.74714,E,1,12,0.60,64.4,M,-47.6,M,,*4C
$GNGSA,A,3,32,29,26,10,28,18,31,16,27,,,,1.44,0.60,1.31*14
$GNGSA,A,3,69,82,70,83,80,73,71,,,,,,1.44,0.60,1.31*1B
$GPGSV,4,1,16,10,20,353,34,16,25,254,39,18,31,069,38,23,05,030,20*79
$GPGSV,4,2,16,25,03,132,27,26,29,223,39,27,33,319,34,28,41,164,35*7C
$GPGSV,4,3,16,29,24,146,30,31,26,195,39,32,71,352,42,36,52,277,37*74
$GPGSV,4,4,16,40,84,353,38,41,58,082,36,49,32,274,,50,10,089,*77
$GLGSV,3,1,09,69,26,002,29,70,51,276,28,71,22,227,37,73,14,207,37*63
$GLGSV,3,2,09,80,12,154,28,82,21,128,34,83,47,072,36,84,25,005,21*6C
$GLGSV,3,3,09,,,,35*6A
$GNGLL,0419.94231,S,05539.74714,E,113540.00,A,A*62
$GNRMC,113541.00,A,0419.94224,S,05539.74735,E,0.629,,260525,,,A*76
$GNVTG,,T,,M,0.629,N,1.165,K,A*33
$GNGGA,113541.00,0419.94224,S,05539.74735,E,1,12,0.60,64.2,M,-47.6,M,,*4C
$GNGSA,A,3,32,29,26,10,28,18,31,16,27,,,,1.44,0.60,1.31*14
$GNGSA,A,3,69,82,70,83,80,73,71,,,,,,1.44,0.60,1.31*1B
$GPGSV,4,1,16,10,20,353,34,16,25,254,27,18,31,069,27,23,05,031,20*79
$GPGSV,4,2,16,25,03,132,26,26,29,223,30,27,33,319,34,28,41,164,30*71
$GPGSV,4,3,16,29,24,146,34,31,26,195,34,32,71,352,34,36,52,277,29*73
$GPGSV,4,4,16,40,84,353,29,41,58,082,30,49,32,274,,50,10,089,*71
$GLGSV,3,1,09,69,26,002,35,70,51,276,14,71,22,227,23,73,14,207,22*60
$GLGSV,3,2,09,80,12,154,26,82,21,128,31,83,47,072,32,84,25,005,20*62
$GLGSV,3,3,09,,,,31*6E
$GNGLL,0419.94224,S,05539.74735,E,113541.00,A,A*64
$GNRMC,113542.00,A,0419.94222,S,05539.74736,E,0.202,,260525,,,A*7D
$GNVTG,,T,,M,0.202,N,0.374,K,A*3D
$GNGGA,113542.00,0419.94222,S,05539.74736,E,1,12,0.60,64.2,M,-47.6,M,,*4A
$GNGSA,A,3,32,29,26,10,28,18,31,16,27,,,,1.44,0.60,1.31*14
$GNGSA,A,3,69,82,70,83,80,73,71,,,,,,1.44,0.60,1.31*1B
$GPGSV,4,1,16,10,20,353,37,16,25,254,28,18,31,069,32,23,05,031,25*74
$GPGSV,4,2,16,25,03,132,27,26,29,223,35,27,33,319,29,28,41,164,29*71
$GPGSV,4,3,16,29,24,146,35,31,26,195,33,32,71,352,40,36,52,277,*7D
$GPGSV,4,4,16,40,84,353,37,41,58,082,34,49,32,274,,50,10,089,*7A
$GLGSV,3,1,09,69,26,002,42,70,51,276,17,71,22,227,31,73,14,207,23*61
$GLGSV,3,2,09,80,12,154,27,82,21,128,35,83,47,072,35,84,25,005,30*61
$GLGSV,3,3,09,,,,35*6A
$GNGLL,0419.94222,S,05539.74736,E,113542.00,A,A*62
$GNRMC,113543.00,A,0419.94217,S,05539.74737,E,0.041,,260525,,,A*7E
$GNVTG,,T,,M,0.041,N,0.075,K,A*3A
$GNGGA,113543.00,0419.94217,S,05539.74737,E,1,12,0.60,63.9,M,-47.6,M,,*40
$GNGSA,A,3,32,29,26,10,28,18,31,16,27,,,,1.44,0.60,1.31*14
$GNGSA,A,3,69,82,70,83,80,73,71,,,,,,1.44,0.60,1.31*1B
$GPGSV,4,1,16,10,20,353,37,16,25,254,31,18,31,069,36,23,05,031,32*7E
$GPGSV,4,2,16,25,03,132,27,26,29,223,38,27,33,319,31,28,41,164,37*7A
$GPGSV,4,3,16,29,24,146,37,31,26,195,33,32,71,352,46,36,52,277,*79
$GPGSV,4,4,16,40,84,353,43,41,58,082,37,49,32,274,,50,10,089,*7A
$GLGSV,3,1,09,69,26,002,41,70,51,276,22,71,22,227,36,73,14,207,23*63
$GLGSV,3,2,09,80,12,154,25,82,21,128,31,83,47,072,38,84,25,005,30*6A
$GLGSV,3,3,09,,,,30*6F
$GNGLL,0419.94217,S,05539.74737,E,113543.00,A,A*64
$GNRMC,113544.00,A,0419.94215,S,05539.74739,E,0.103,,260525,,,A*72
$GNVTG,,T,,M,0.103,N,0.191,K,A*36
$GNGGA,113544.00,0419.94215,S,05539.74739,E,1,12,0.60,64.0,M,-47.6,M,,*45
$GNGSA,A,3,32,29,26,10,28,18,31,16,27,,,,1.44,0.60,1.31*14
$GNGSA,A,3,69,82,70,83,80,73,71,,,,,,1.44,0.60,1.31*1B
$GPGSV,4,1,16,10,20,353,39,16,25,254,35,18,31,069,38,23,05,031,30*78
$GPGSV,4,2,16,25,03,132,28,26,29,222,40,27,33,319,35,28,41,164,34*7C
$GPGSV,4,3,16,29,24,146,37,31,26,195,40,32,71,352,46,36,52,277,*7D
$GPGSV,4,4,16,40,84,353,43,41,58,082,37,49,32,274,,50,10,089,*7A
$GLGSV,3,1,09,69,26,002,42,70,51,276,24,71,22,227,34,73,14,207,23*64
$GLGSV,3,2,09,80,12,154,23,82,21,128,32,83,47,072,38,84,25,005,31*6E
$GLGSV,3,3,09,,,,31*6E
$GNGLL,0419.94215,S,05539.74739,E,113544.00,A,A*6F
$GNRMC,113545.00,A,0419.94214,S,05539.74739,E,0.086,,260525,,,A*7E
$GNVTG,,T,,M,0.086,N,0.159,K,A*3E
$GNGGA,113545.00,0419.94214,S,05539.74739,E,1,12,0.60,64.0,M,-47.6,M,,*45
$GNGSA,A,3,32,29,26,10,28,18,31,16,27,,,,1.44,0.60,1.31*14
$GNGSA,A,3,69,82,70,83,80,73,71,,,,,,1.44,0.60,1.31*1B
$GPGSV,4,1,16,10,20,353,39,16,25,254,31,18,31,069,33,23,05,031,29*7F
$GPGSV,4,2,16,25,03,132,34,26,29,222,36,27,34,319,35,28,41,164,37*74
$GPGSV,4,3,16,29,24,146,39,31,26,195,36,32,71,352,43,36,52,277,*77
$GPGSV,4,4,16,40,84,353,40,41,58,082,29,49,32,274,,50,10,089,*76
$GLGSV,3,1,09,69,26,002,40,70,51,276,23,71,22,227,30,73,14,207,21*67
$GLGSV,3,2,09,80,12,154,24,82,21,128,37,83,47,072,32,84,25,005,30*67
$GLGSV,3,3,09,,,,33*6C
$GNGLL,0419.94214,S,05539.74739,E,113545.00,A,A*6F
$GNRMC,113546.00,A,0419.94216,S,05539.74736,E,0.159,,260525,,,A*73
$GNVTG,,T,,M,0.159,N,0.294,K,A*3F
$GNGGA,113546.00,0419.94216,S,05539.74736,E,1,12,0.60,63.9,M,-47.6,M,,*45
$GNGSA,A,3,32,29,26,10,28,18,31,16,27,,,,1.44,0.60,1.31*14
$GNGSA,A,3,69,82,70,83,80,73,71,,,,,,1.44,0.60,1.31*1B
$GPGSV,4,1,16,10,20,353,40,16,25,254,30,18,31,069,38,23,05,031,31*72
$GPGSV,4,2,16,25,03,132,32,26,29,222,35,27,34,319,38,28,42,164,41*7E
$GPGSV,4,3,16,29,24,146,36,31,26,195,36,32,71,352,45,36,52,277,*7E
$GPGSV,4,4,16,40,84,353,38,41,58,082,27,49,32,274,,50,10,089,*77
$GLGSV,3,1,09,69,26,002,42,70,51,276,20,71,22,227,29,73,14,207,22*6D
$GLGSV,3,2,09,80,12,154,24,82,21,128,33,83,47,072,32,84,25,005,31*62
$GLGSV,3,3,09,,,,36*69
$GNGLL,0419.94216,S,05539.74736,E,113546.00,A,A*61
$GNRMC,113547.00,A,0419.94217,S,05539.74735,E,0.028,,260525,,,A*77
$GNVTG,,T,,M,0.028,N,0.052,K,A*30
$GNGGA,113547.00,0419.94217,S,05539.74735,E,1,12,0.60,63.9,M,-47.6,M,,*46
$GNGSA,A,3,32,29,26,10,28,18,31,16,27,,,,1.44,0.60,1.31*14
$GNGSA,A,3,69,82,70,83,80,73,71,,,,,,1.44,0.60,1.31*1B
$GPGSV,4,1,16,10,20,353,38,16,25,254,29,18,31,069,36,23,05,031,30*7A
$GPGSV,4,2,16,25,03,132,26,26,29,222,37,27,34,319,36,28,42,164,30*71
$GPGSV,4,3,16,29,23,146,34,31,26,195,38,32,71,352,44,36,52,277,*74
$GPGSV,4,4,16,40,84,353,39,41,58,082,33,49,32,274,,50,10,089,*73
$GLGSV,3,1,09,69,26,002,39,70,51,276,21,71,22,227,33,73,14,207,24*6D
$GLGSV,3,2,09,80,12,154,22,82,21,128,32,83,47,072,36,84,25,005,30*60
$GLGSV,3,3,09,,,,33*6C
$GNGLL,0419.94217,S,05539.74735,E,113547.00,A,A*62
$GNRMC,113548.00,A,0419.94221,S,05539.74738,E,0.381,,260525,,,A*70
$GNVTG,,T,,M,0.381,N,0.706,K,A*36
$GNGGA,113548.00,0419.94221,S,05539.74738,E,1,12,0.60,63.8,M,-47.6,M,,*40
$GNGSA,A,3,32,29,26,10,28,18,31,16,27,,,,1.44,0.60,1.31*14
$GNGSA,A,3,69,82,70,83,80,73,71,,,,,,1.44,0.60,1.31*1B
$GPGSV,4,1,16,10,20,353,33,16,25,254,33,18,31,069,28,23,05,031,29*7D
$GPGSV,4,2,16,25,03,132,29,26,29,222,35,27,34,319,33,28,42,164,29*71
$GPGSV,4,3,16,29,23,146,39,31,26,195,39,32,71,352,38,36,52,277,*73
$GPGSV,4,4,16,40,84,353,34,41,58,082,36,49,32,274,,50,10,089,*7B
$GLGSV,3,1,09,69,26,002,37,70,51,276,22,71,22,227,29,73,14,207,24*6B
$GLGSV,3,2,09,80,12,154,29,82,21,128,35,83,47,072,36,84,25,005,20*6D
$GLGSV,3,3,09,,,,34*6B
$GNGLL,0419.94221,S,05539.74738,E,113548.00,A,A*65
$GNRMC,113549.00,A,0419.94222,S,05539.74737,E,0.030,,260525,,,A*74
$GNVTG,,T,,M,0.030,N,0.055,K,A*3E
$GNGGA,113549.00,0419.94222,S,05539.74737,E,1,12,0.60,63.8,M,-47.6,M,,*4D
$GNGSA,A,3,32,29,26,10,28,18,31,16,27,,,,1.44,0.60,1.31*14
$GNGSA,A,3,69,82,70,83,80,73,71,,,,,,1.44,0.60,1.31*1B
$GPGSV,4,1,16,10,20,353,39,16,25,254,30,18,31,069,36,23,05,031,28*7A
$GPGSV,4,2,16,25,03,132,29,26,29,222,35,27,34,319,36,28,42,164,29*74
$GPGSV,4,3,16,29,23,146,36,31,26,194,40,32,71,352,37,36,52,277,*7C
$GPGSV,4,4,16,40,84,353,34,41,58,082,32,49,32,274,,50,10,089,*7F
$GLGSV,3,1,09,69,26,002,41,70,51,276,22,71,22,227,23,73,14,207,26*62
$GLGSV,3,2,09,80,12,154,29,82,21,128,35,83,47,072,32,84,25,005,30*68
$GLGSV,3,3,09,,,,34*6B
$GNGLL,0419.94222,S,05539.74737,E,113549.00,A,A*68
$GNRMC,113550.00,A,0419.94219,S,05539.74731,E,0.144,,260525,,,A*70
$GNVTG,,T,,M,0.144,N,0.267,K,A*3F
$GNGGA,113550.00,0419.94219,S,05539.74731,E,1,12,0.60,64.0,M,-47.6,M,,*44
$GNGSA,A,3,32,29,26,10,28,18,31,16,27,,,,1.44,0.60,1.31*14
$GNGSA,A,3,69,82,70,83,80,73,71,,,,,,1.44,0.60,1.31*1B
$GPGSV,4,1,16,10,20,353,37,16,25,254,33,18,31,069,33,23,05,031,29*73
$GPGSV,4,2,16,25,03,132,29,26,29,222,37,27,34,319,29,28,42,164,37*77
$GPGSV,4,3,16,29,23,146,41,31,26,194,41,32,71,352,39,36,52,277,*73
$GPGSV,4,4,16,40,84,353,37,41,58,082,38,49,32,274,,50,10,089,*76
$GLGSV,3,1,09,69,26,002,40,70,51,276,23,71,22,227,25,73,14,207,27*65
$GLGSV,3,2,09,80,12,154,34,82,21,128,38,83,47,072,40,84,25,005,30*6C
$GLGSV,3,3,09,,,,34*6B
$GNGLL,0419.94219,S,05539.74731,E,113550.00,A,A*6E
$GNRMC,113551.00,A,0419.94218,S,05539.74726,E,0.071,,260525,,,A*71
$GNVTG,,T,,M,0.071,N,0.131,K,A*38
$GNGGA,113551.00,0419.94218,S,05539.74726,E,1,12,0.60,64.0,M,-47.6,M,,*42
$GNGSA,A,3,32,29,26,10,28,18,31,16,27,,,,1.44,0.60,1.31*14
$GNGSA,A,3,69,82,70,83,80,73,71,,,,,,1.44,0.60,1.31*1B
$GPGSV,4,1,16,10,20,353,35,16,25,254,32,18,31,069,33,23,05,031,22*7B
$GPGSV,4,2,16,25,03,132,20,26,29,222,35,27,34,319,35,28,42,164,36*70
$GPGSV,4,3,16,29,23,146,36,31,26,194,37,32,71,352,34,36,52,277,*7F
$GPGSV,4,4,16,40,84,353,30,41,58,082,31,49,32,274,,50,10,089,*78
$GLGSV,3,1,09,69,26,002,36,70,51,276,21,71,22,227,31,73,14,207,32*67
$GLGSV,3,2,09,80,12,154,29,82,21,128,35,83,47,072,35,84,25,005,24*6A
$GLGSV,3,3,09,,,,28*66
$GNGLL,0419.94218,S,05539.74726,E,113551.00,A,A*68
$GNRMC,113552.00,A,0419.94220,S,05539.74728,E,0.348,118.67,260525,,,A*69
$GNVTG,118.67,T,,M,0.348,N,0.645,K,A*22
$GNGGA,113552.00,0419.94220,S,05539.74728,E,1,12,0.60,64.0,M,-47.6,M,,*44
$GNGSA,A,3,32,29,26,10,28,18,31,16,27,,,,1.44,0.60,1.31*14
$GNGSA,A,3,69,82,70,83,80,73,71,,,,,,1.44,0.60,1.31*1B
$GPGSV,4,1,16,10,20,353,38,16,25,254,34,18,31,069,36,23,05,031,31*77
$GPGSV,4,2,16,25,03,132,21,26,29,222,39,27,34,319,32,28,42,164,38*74
$GPGSV,4,3,16,29,23,146,39,31,26,194,41,32,71,352,37,36,52,277,*72
$GPGSV,4,4,16,40,84,353,37,41,58,082,39,49,32,274,,50,10,089,*77
$GLGSV,3,1,09,69,26,002,40,70,51,276,22,71,22,227,30,73,14,207,31*67
$GLGSV,3,2,09,80,12,154,30,82,21,128,37,83,47,072,41,84,25,005,23*64
$GLGSV,3,3,09,,,,38*67
$GNGLL,0419.94220,S,05539.74728,E,113552.00,A,A*6E
$GNRMC,113553.00,A,0419.94221,S,05539.74728,E,0.038,,260525,,,A*7A
$GNVTG,,T,,M,0.038,N,0.070,K,A*31
$GNGGA,113553.00,0419.94221,S,05539.74728,E,1,12,0.60,64.0,M,-47.6,M,,*44
$GNGSA,A,3,32,29,26,10,28,18,31,16,27,,,,1.44,0.60,1.31*14
$GNGSA,A,3,69,82,70,83,80,73,71,,,,,,1.44,0.60,1.31*1B
$GPGSV,4,1,16,10,20,353,37,16,25,254,33,18,31,069,36,23,05,031,32*7C
$GPGSV,4,2,16,25,03,132,24,26,29,222,36,27,34,319,33,28,42,164,32*75
$GPGSV,4,3,16,29,23,146,37,31,26,194,41,32,71,352,40,36,52,277,*7C
$GPGSV,4,4,16,40,84,353,37,41,58,082,34,49,32,274,,50,10,089,*7A
$GLGSV,3,1,09,69,26,002,41,70,51,276,23,71,22,227,30,73,14,207,30*66
$GLGSV,3,2,09,80,12,154,32,82,21,128,35,83,47,072,32,84,25,005,30*62
$GLGSV,3,3,09,,,,32*6D
$GNGLL,0419.94221,S,05539.74728,E,113553.00,A,A*6E
$GNRMC,113556.00,A,0419.94218,S,05539.74724,E,0.022,,260525,,,A*72
$GNVTG,,T,,M,0.022,N,0.041,K,A*38
$GNGGA,113556.00,0419.94218,S,05539.74724,E,1,12,0.60,64.2,M,-47.6,M,,*45
$GNGSA,A,3,32,29,26,10,28,18,31,16,27,,,,1.44,0.60,1.31*14
$GNGSA,A,3,69,82,70,83,80,73,71,,,,,,1.44,0.60,1.31*1B
$GPGSV,4,1,16,10,20,353,33,16,25,254,30,18,31,069,34,23,05,031,31*7A
$GPGSV,4,2,16,25,03,132,25,26,29,222,34,27,34,319,31,28,42,164,31*77
$GPGSV,4,3,16,29,23,146,33,31,26,194,37,32,71,352,37,36,52,277,*79
$GPGSV,4,4,16,40,84,353,33,41,58,082,32,49,32,274,,50,10,089,*78
$GLGSV,3,1,09,69,26,002,34,70,51,276,20,71,22,227,26,73,14,207,29*68
$GLGSV,3,2,09,80,12,154,26,82,21,128,31,83,47,072,29,84,25,005,21*69
$GLGSV,3,3,09,,,,28*66
$GNGLL,0419.94218,S,05539.74724,E,113556.00,A,A*6D
$GNRMC,113557.00,A,0419.94217,S,05539.74724,E,0.018,,260525,,,A*75
$GNVTG,,T,,M,0.018,N,0.034,K,A*33
$GNGGA,113557.00,0419.94217,S,05539.74724,E,1,12,0.60,64.2,M,-47.6,M,,*4B
$GNGSA,A,3,32,29,26,10,28,18,31,16,27,,,,1.44,0.60,1.31*14
$GNGSA,A,3,69,82,70,83,80,73,71,,,,,,1.44,0.60,1.31*1B
$GPGSV,4,1,16,10,20,353,35,16,25,254,33,18,31,069,37,23,05,031,34*79
$GPGSV,4,2,16,25,03,132,26,26,29,222,36,27,34,319,32,28,42,164,35*71
$GPGSV,4,3,16,29,23,146,34,31,26,194,39,32,71,352,40,36,52,277,*70
$GPGSV,4,4,16,40,84,353,36,41,58,082,35,49,32,274,,50,10,089,*7A
$GLGSV,3,1,09,69,26,002,39,70,51,276,21,71,22,227,27,73,14,207,29*65
$GLGSV,3,2,09,80,12,154,31,82,21,128,31,83,47,072,33,84,25,005,29*6C
$GLGSV,3,3,09,,,,33*6C
$GNGLL,0419.94217,S,05539.74724,E,113557.00,A,A*63
$GNRMC,113558.00,A,0419.94217,S,05539.74721,E,0.019,,260525,,,A*7E
$GNVTG,,T,,M,0.019,N,0.035,K,A*33
$GNGGA,113558.00,0419.94217,S,05539.74721,E,1,12,0.60,64.3,M,-47.6,M,,*40
$GNGSA,A,3,32,29,26,10,28,18,31,16,27,,,,1.44,0.60,1.31*14
$GNGSA,A,3,69,82,70,83,80,73,71,,,,,,1.44,0.60,1.31*1B
$GPGSV,4,1,16,10,20,353,35,16,25,254,32,18,31,069,34,23,05,031,29*77
$GPGSV,4,2,16,25,03,132,28,26,29,222,38,27,34,319,32,28,42,164,32*76
$GPGSV,4,3,16,29,23,146,36,31,26,194,39,32,71,352,40,36,52,277,*72
$GPGSV,4,4,16,40,84,353,36,41,58,082,33,49,32,274,,50,10,089,*7C
$GLGSV,3,1,09,69,26,002,39,70,51,276,21,71,22,227,27,73,14,207,29*65
$GLGSV,3,2,09,80,12,154,31,82,21,128,34,83,47,072,32,84,25,005,29*68
$GLGSV,3,3,09,,,,34*6B
$GNGLL,0419.94217,S,05539.74721,E,113558.00,A,A*69
$GNRMC,113600.00,A,0419.94216,S,05539.74718,E,0.003,,260525,,,A*70
$GNVTG,,T,,M,0.003,N,0.006,K,A*38
$GNGGA,113600.00,0419.94216,S,05539.74718,E,1,12,0.60,64.4,M,-47.6,M,,*42
$GNGSA,A,3,32,29,26,10,28,18,31,16,27,,,,1.44,0.60,1.31*14
$GNGSA,A,3,69,82,70,83,80,73,71,,,,,,1.44,0.60,1.31*1B
$GPGSV,4,1,16,10,20,353,35,16,25,254,31,18,31,069,36,23,05,031,30*7E
$GPGSV,4,2,16,25,03,132,26,26,29,222,35,27,34,319,31,28,42,164,33*77
$GPGSV,4,3,16,29,23,146,34,31,26,194,36,32,71,352,38,36,52,277,*70
$GPGSV,4,4,16,40,84,353,34,41,58,082,35,49,32,274,,50,10,089,*78
$GLGSV,3,1,09,69,26,002,37,70,51,276,20,71,22,227,27,73,14,207,28*6B
$GLGSV,3,2,09,80,12,154,29,82,21,128,31,83,47,072,31,84,25,005,27*69
$GLGSV,3,3,09,,,,32*6D
$GNGLL,0419.94216,S,05539.74718,E,113600.00,A,A*6C
$GNRMC,113601.00,A,0419.94216,S,05539.74716,E,0.022,,260525,,,A*7C
$GNVTG,,T,,M,0.022,N,0.040,K,A*39
$GNGGA,113601.00,0419.94216,S,05539.74716,E,1,12,0.60,64.4,M,-47.6,M,,*4D
$GNGSA,A,3,32,29,26,10,28,18,31,16,27,,,,1.44,0.60,1.31*14
$GNGSA,A,3,69,82,70,83,80,73,71,,,,,,1.44,0.60,1.31*1B
$GPGSV,4,1,16,10,20,353,35,16,25,254,32,18,31,069,36,23,05,031,29*75
$GPGSV,4,2,16,25,03,132,23,26,29,222,36,27,34,319,31,28,42,164,32*70
$GPGSV,4,3,16,29,23,146,33,31,26,194,37,32,71,352,39,36,52,277,*77
$GPGSV,4,4,16,40,84,353,34,41,58,082,35,49,32,274,,50,10,089,*78
$GLGSV,3,1,09,69,26,002,37,70,51,276,19,71,22,227,27,73,14,207,28*61
$GLGSV,3,2,09,80,12,154,30,82,21,128,31,83,47,072,32,84,25,005,27*62
$GLGSV,3,3,09,,,,32*6D
$GNGLL,0419.94216,S,05539.74716,E,113601.00,A,A*63
$GNRMC,113602.00,A,0419.94216,S,05539.74715,E,0.072,,260525,,,A*79
$GNVTG,,T,,M,0.072,N,0.133,K,A*39
$GNGGA,113602.00,0419.94216,S,05539.74715,E,1,12,0.60,64.4,M,-47.6,M,,*4D
$GNGSA,A,3,32,29,26,10,28,18,31,16,27,,,,1.44,0.60,1.31*14
$GNGSA,A,3,69,82,70,83,80,73,71,,,,,,1.44,0.60,1.31*1B
$GPGSV,4,1,16,10,20,353,37,16,25,254,34,18,31,069,39,23,05,031,29*7E
$GPGSV,4,2,16,25,03,132,24,26,29,222,38,27,34,319,35,28,42,164,33*7C
$GPGSV,4,3,16,29,23,146,37,31,26,194,37,32,71,352,40,36,52,277,*7D
$GPGSV,4,4,16,40,84,353,37,41,58,082,37,49,32,274,,50,10,089,*79
$GLGSV,3,1,09,69,26,002,38,70,51,276,18,71,22,227,29,73,14,207,28*61
$GLGSV,3,2,09,80,12,154,30,82,21,128,32,83,47,072,33,84,25,005,28*6F
$GLGSV,3,3,09,,,,32*6D
$GNGLL,0419.94216,S,05539.74715,E,113602.00,A,A*63
$GNRMC,113604.00,A,0419.94217,S,05539.74712,E,0.059,,260525,,,A*70
$GNVTG,,T,,M,0.059,N,0.109,K,A*39
$GNGGA,113604.00,0419.94217,S,05539.74712,E,1,12,0.60,64.5,M,-47.6,M,,*4C
$GNGSA,A,3,32,29,26,10,28,18,31,16,27,,,,1.44,0.60,1.31*14
$GNGSA,A,3,69,82,70,83,80,73,71,,,,,,1.44,0.60,1.31*1B
$GPGSV,4,1,16,10,20,353,34,16,25,254,32,18,31,069,34,23,05,031,29*76
$GPGSV,4,2,16,25,03,132,25,26,29,222,35,27,34,319,32,28,42,164,31*75
$GPGSV,4,3,16,29,23,146,33,31,26,194,36,32,71,352,38,36,52,277,30*74
$GPGSV,4,4,16,40,84,353,32,41,58,082,35,49,32,274,,50,10,089,*7E
$GLGSV,3,1,09,69,26,002,35,70,51,276,21,71,22,227,21,73,14,207,28*6E
$GLGSV,3,2,09,80,12,154,30,82,21,128,32,83,47,072,33,84,25,005,27*60
$GLGSV,3,3,09,,,,34*6B
$GNGLL,0419.94217,S,05539.74712,E,113604.00,A,A*63
$GNRMC,113605.00,A,0419.94218,S,05539.74711,E,0.038,,260525,,,A*7A
$GNVTG,,T,,M,0.038,N,0.070,K,A*31
$GNGGA,113605.00,0419.94218,S,05539.74711,E,1,12,0.60,64.5,M,-47.6,M,,*41
$GNGSA,A,3,32,29,26,10,28,18,31,16,27,,,,1.44,0.60,1.31*14
$GNGSA,A,3,69,82,70,83,80,73,71,,,,,,1.44,0.60,1.31*1B
$GPGSV,4,1,16,10,20,353,34,16,25,254,32,18,31,069,36,23,05,031,29*74
$GPGSV,4,2,16,25,03,132,23,26,29,222,35,27,34,319,31,28,42,164,30*71
$GPGSV,4,3,16,29,23,146,33,31,26,194,38,32,71,352,38,36,52,277,30*7A
$GPGSV,4,4,16,40,84,353,35,41,58,082,35,49,32,274,,50,10,089,*79
$GLGSV,3,1,09,69,26,002,35,70,51,276,20,71,22,227,22,73,14,207,27*63
$GLGSV,3,2,09,80,12,154,29,82,21,128,30,83,47,072,32,84,25,005,27*6B
$GLGSV,3,3,09,,,,32*6D
$GNGLL,0419.94218,S,05539.74711,E,113605.00,A,A*6E
$GNRMC,113606.00,A,0419.94219,S,05539.74709,E,0.037,,260525,,,A*7E
$GNVTG,,T,,M,0.037,N,0.069,K,A*36
$GNGGA,113606.00,0419.94219,S,05539.74709,E,1,12,0.60,64.5,M,-47.6,M,,*4A
$GNGSA,A,3,32,29,26,10,28,18,31,16,27,,,,1.44,0.60,1.31*14
$GNGSA,A,3,69,82,70,83,80,73,71,,,,,,1.44,0.60,1.31*1B
$GPGSV,4,1,16,10,20,353,35,16,25,254,36,18,31,069,39,23,05,031,28*7F
$GPGSV,4,2,16,25,03,132,24,26,29,222,38,27,34,319,32,28,42,164,35*7D
$GPGSV,4,3,16,29,23,146,34,31,26,194,40,32,71,352,42,36,52,277,31*7E
$GPGSV,4,4,16,40,84,353,36,41,58,082,35,49,32,274,,50,10,089,*7A
$GLGSV,3,1,09,69,26,002,38,70,51,276,18,71,22,227,30,73,14,207,27*66
$GLGSV,3,2,09,80,12,154,30,82,21,128,32,83,47,072,36,84,25,005,26*64
$GLGSV,3,3,09,,,,36*69
$GNGLL,0419.94219,S,05539.74709,E,113606.00,A,A*65
$GNRMC,113607.00,A,0419.94219,S,05539.74707,E,0.023,,260525,,,A*74
$GNVTG,,T,,M,0.023,N,0.042,K,A*3A
$GNGGA,113607.00,0419.94219,S,05539.74707,E,1,12,0.60,64.5,M,-47.6,M,,*45
$GNGSA,A,3,32,29,26,10,28,18,31,16,27,,,,1.44,0.60,1.31*14
$GNGSA,A,3,69,82,70,83,80,73,71,,,,,,1.44,0.60,1.31*1B
$GPGSV,4,1,16,10,20,353,36,16,25,254,36,18,31,069,40,23,05,031,28*72
$GPGSV,4,2,16,25,03,132,25,26,29,222,39,27,34,319,32,28,42,164,35*7D
$GPGSV,4,3,16,29,23,146,35,31,26,194,41,32,71,352,42,36,52,277,29*77
$GPGSV,4,4,16,40,84,353,36,41,58,082,36,49,32,274,,50,10,089,*79
$GLGSV,3,1,09,69,26,002,39,70,51,276,18,71,22,227,31,73,14,207,28*69
$GLGSV,3,2,09,80,12,154,32,82,21,128,33,83,47,072,36,84,25,005,27*66
$GLGSV,3,3,09,,,,35*6A
$GNGLL,0419.94219,S,05539.74707,E,113607.00,A,A*6A
$GNRMC,113608.00,A,0419.94219,S,05539.74704,E,0.004,,260525,,,A*7D
$GNVTG,,T,,M,0.004,N,0.008,K,A*31
$GNGGA,113608.00,0419.94219,S,05539.74704,E,1,12,0.60,64.6,M,-47.6,M,,*4A
$GNGSA,A,3,32,29,26,10,28,18,31,16,27,,,,1.44,0.60,1.31*14
$GNGSA,A,3,69,82,70,83,80,73,71,,,,,,1.44,0.60,1.31*1B
$GPGSV,4,1,16,10,20,353,37,16,25,254,36,18,31,069,41,23,05,031,27*7D
$GPGSV,4,2,16,25,03,132,24,26,29,222,38,27,34,319,32,28,42,164,34*7C
$GPGSV,4,3,16,29,23,146,36,31,26,194,41,32,71,352,41,36,52,277,29*77
$GPGSV,4,4,16,40,84,353,36,41,58,082,37,49,32,274,,50,10,089,*78
$GLGSV,3,1,09,69,26,002,39,70,51,276,19,71,22,227,32,73,14,207,29*6A
$GLGSV,3,2,09,80,12,154,33,82,21,128,34,83,47,072,37,84,25,005,27*61
$GLGSV,3,3,09,,,,35*6A
$GNGLL,0419.94219,S,05539.74704,E,113608.00,A,A*66
$GNRMC,113609.00,A,0419.94218,S,05539.74704,E,0.024,,260525,,,A*7F
$GNVTG,,T,,M,0.024,N,0.045,K,A*3A
$GNGGA,113609.00,0419.94218,S,05539.74704,E,1,12,0.58,64.7,M,-47.6,M,,*40
$GNGSA,A,3,32,29,26,10,28,18,31,16,27,,,,1.41,0.58,1.29*13
$GNGSA,A,3,69,82,70,83,80,73,71,84,,,,,1.41,0.58,1.29*10
$GPGSV,4,1,16,10,20,353,37,16,25,254,36,18,31,069,41,23,05,031,27*7D
$GPGSV,4,2,16,25,03,132,22,26,29,222,38,27,34,319,32,28,42,164,34*7A
$GPGSV,4,3,16,29,23,146,36,31,26,194,41,32,71,352,41,36,52,277,29*77
$GPGSV,4,4,16,40,84,353,36,41,58,082,37,49,32,274,,50,10,089,*78
$GLGSV,3,1,09,69,26,002,40,70,51,276,20,71,22,227,33,73,14,207,29*6F
$GLGSV,3,2,09,80,12,154,33,82,21,128,34,83,47,072,37,84,25,005,28*6E
$GLGSV,3,3,09,,,,35*6A
$GNGLL,0419.94218,S,05539.74704,E,113609.00,A,A*66
$GNRMC,113610.00,A,0419.94218,S,05539.74703,E,0.011,,260525,,,A*76
$GNVTG,,T,,M,0.011,N,0.019,K,A*35
$GNGGA,113610.00,0419.94218,S,05539.74703,E,1,12,0.58,64.7,M,-47.6,M,,*4F
$GNGSA,A,3,32,29,26,10,28,18,31,16,27,,,,1.41,0.58,1.29*13
$GNGSA,A,3,69,82,70,83,80,73,71,84,,,,,1.41,0.58,1.29*10
$GPGSV,4,1,16,10,20,353,38,16,25,254,36,18,31,069,40,23,05,031,28*7C
$GPGSV,4,2,16,25,03,132,22,26,29,222,39,27,34,319,33,28,42,164,34*7A
$GPGSV,4,3,16,29,23,146,36,31,26,194,41,32,71,352,41,36,52,277,29*77
$GPGSV,4,4,16,40,84,353,36,41,58,082,37,49,32,274,,50,10,089,*78
$GLGSV,3,1,09,69,26,002,40,70,51,276,21,71,22,227,32,73,14,207,31*66
$GLGSV,3,2,09,80,12,154,34,82,21,128,35,83,47,072,37,84,25,005,27*67
$GLGSV,3,3,09,,,,36*69
$GNGLL,0419.94218,S,05539.74703,E,113610.00,A,A*69
$GNRMC,113611.00,A,0419.94218,S,05539.74702,E,0.020,,260525,,,A*74
$GNVTG,,T,,M,0.020,N,0.036,K,A*3A
$GNGGA,113611.00,0419.94218,S,05539.74702,E,1,12,0.58,64.8,M,-47.6,M,,*40
$GNGSA,A,3,32,29,26,10,28,18,31,16,27,,,,1.41,0.58,1.29*13
$GNGSA,A,3,69,82,70,83,80,73,71,84,,,,,1.41,0.58,1.29*10
$GPGSV,4,1,16,10,20,353,37,16,25,254,35,18,31,069,40,23,05,031,28*70
$GPGSV,4,2,16,25,03,132,22,26,29,222,39,27,34,319,33,28,42,164,34*7A
$GPGSV,4,3,16,29,23,146,36,31,26,194,40,32,71,352,41,36,52,277,29*76
$GPGSV,4,4,16,40,84,353,36,41,58,082,38,49,32,274,,50,10,089,*77
$GLGSV,3,1,09,69,26,002,40,70,51,276,20,71,22,227,33,73,14,207,31*66
$GLGSV,3,2,09,80,12,154,33,82,21,128,35,83,47,072,39,84,25,005,27*6E
$GLGSV,3,3,09,,,,36*69
$GNGLL,0419.94218,S,05539.74702,E,113611.00,A,A*69
$GNRMC,113612.00,A,0419.94218,S,05539.74700,E,0.040,,260525,,,A*73
$GNVTG,,T,,M,0.040,N,0.075,K,A*3B
$GNGGA,113612.00,0419.94218,S,05539.74700,E,1,12,0.58,64.8,M,-47.6,M,,*41
$GNGSA,A,3,32,29,26,10,28,18,31,16,27,,,,1.41,0.58,1.29*13
$GNGSA,A,3,69,82,70,83,80,73,71,84,,,,,1.41,0.58,1.29*10
$GPGSV,4,1,16,10,20,353,39,16,25,254,37,18,31,069,38,23,05,031,28*73
$GPGSV,4,2,16,25,03,132,22,26,29,222,38,27,34,319,32,28,42,164,34*7A
$GPGSV,4,3,16,29,23,146,36,31,26,194,41,32,71,352,40,36,52,277,29*76
$GPGSV,4,4,16,40,84,353,37,41,58,082,36,49,32,274,,50,10,089,*78
$GLGSV,3,1,09,69,26,002,40,70,51,276,20,71,22,227,32,73,14,207,32*64
$GLGSV,3,2,09,80,12,154,32,82,21,128,35,83,47,072,37,84,25,005,28*6E
$GLGSV,3,3,09,,,,36*69
$GNGLL,0419.94218,S,05539.74700,E,113612.00,A,A*68
$GNRMC,113613.00,A,0419.94218,S,05539.74699,E,0.049,,260525,,,A*7A
$GNVTG,,T,,M,0.049,N,0.091,K,A*38
$GNGGA,113613.00,0419.94218,S,05539.74699,E,1,12,0.58,64.9,M,-47.6,M,,*40
$GNGSA,A,3,32,29,26,10,28,18,31,16,27,,,,1.41,0.58,1.29*13
$GNGSA,A,3,69,82,70,83,80,73,71,84,,,,,1.41,0.58,1.29*10
$GPGSV,4,1,16,10,20,353,34,16,25,254,34,18,31,069,37,23,05,031,27*7D
$GPGSV,4,2,16,25,03,132,24,26,29,222,37,27,34,319,37,28,42,164,33*71
$GPGSV,4,3,16,29,23,146,36,31,26,194,40,32,71,352,40,36,52,277,34*7B
$GPGSV,4,4,16,40,84,353,37,41,58,082,37,49,32,274,,50,10,089,*79
$GLGSV,3,1,09,69,26,002,37,70,51,276,21,71,22,227,32,73,14,207,31*66
$GLGSV,3,2,09,80,12,154,32,82,21,128,35,83,47,072,35,84,25,005,28*6C
$GLGSV,3,3,09,,,,36*69
$GNGLL,0419.94218,S,05539.74699,E,113613.00,A,A*68
$GNRMC,113614.00,A,0419.94219,S,05539.74695,E,0.032,,260525,,,A*7C
$GNVTG,,T,,M,0.032,N,0.059,K,A*30
$GNGGA,113614.00,0419.94219,S,05539.74695,E,1,12,0.58,65.0,M,-47.6,M,,*42
$GNGSA,A,3,32,29,26,10,28,18,31,16,27,,,,1.41,0.58,1.29*13
$GNGSA,A,3,69,82,70,83,80,73,71,84,,,,,1.41,0.58,1.29*10
$GPGSV,4,1,16,10,20,353,35,16,25,254,31,18,31,069,38,23,05,031,28*79
$GPGSV,4,2,16,25,03,132,25,26,29,222,38,27,34,319,36,28,42,164,33*7E
