$GNGGA,084021.00,0419.83773,S,05539.63793,E,1,12,0.67,5.6,M,-47.6,M,,*7F
$GNGSA,A,3,25,23,12,15,10,29,18,24,28,32,26,,1.31,0.67,1.12*17
$GNGSA,A,3,68,80,67,82,69,73,,,,,,,1.31,0.67,1.12*1A
$GPGSV,5,1,17,10,47,253,26,12,26,154,15,15,33,059,31,18,17,349,21*72
$GPGSV,5,2,17,23,57,329,26,24,15,128,13,25,56,181,22,26,14,307,19*7D
$GPGSV,5,4,17,36,52,277,,40,85,352,,41,58,082,37,49,32,274,*78
$GPGSV,5,5,17,50,10,089,*4A
$GLGSV,3,1,09,67,20,035,14,68,65,070,36,69,49,184,10,73,12,300,12*68
$GLGSV,3,2,09,79,27,182,20,80,42,248,17,81,04,075,,82,09,031,12*64
$GLGSV,3,3,09,83,04,344,10*51
$GNGLL,0419.83773,S,05539.63793,E,084021.00,A,A*63
$GNRMC,084023.00,A,0419.83772,S,05539.63770,E,0.883,,260525,,,A*71
$GNVTG,,T,,M,0.883,N,1.636,K,A*3C
$GNGGA,084023.00,0419.83772,S,05539.63770,E,1,12,0.72,5.6,M,-47.6,M,,*75
$GNGSA,A,3,25,23,12,15,10,29,18,24,28,32,26,,1.43,0.72,1.23*14
$GNGSA,A,3,68,80,67,82,69,73,,,,,,,1.43,0.72,1.23*19
$GPGSV,5,1,17,10,47,253,22,12,26,154,13,15,33,059,29,18,17,349,16*7D
$GPGSV,5,2,17,23,57,329,21,24,15,128,12,25,56,180,20,26,14,307,17*76
$GPGSV,5,3,17,28,13,237,08,29,45,037,25,31,02,259,07,32,22,203,17*79
$GNRMC,084024.00,A,0419.83758,S,05539.63768,E,0.445,,260525,,,A*71
$GNVTG,,T,,M,0.445,N,0.823,K,A*31
$GNGGA,084024.00,0419.83758,S,05539.63768,E,1,12,0.65,5.5,M,-47.6,M,,*76
$GNGSA,A,3,25,23,12,15,10,29,18,24,28,32,26,,1.28,0.65,1.10*1F
$GNGSA,A,3,68,79,80,67,82,69,73,,,,,,1.28,0.65,1.10*1C
$GPGSV,5,1,17,10,47,253,23,12,26,154,12,15,33,059,30,18,17,349,14*77
$GPGSV,5,2,17,23,57,329,22,24,15,128,14,25,56,180,19,26,14,307,19*77
$GPGSV,5,3,17,28,13,237,10,29,45,037,26,31,02,259,09,32,22,203,18*72
$GPGSV,5,4,17,36,52,277,,40,85,352,,41,58,082,35,49,32,274,*7A
$GPGSV,5,5,17,50,10,089,*4A
$GLGSV,3,1,09,67,20,035,10,68,65,070,37,69,49,184,17,73,12,300,13*6B
$GLGSV,3,2,09,79,27,182,18,80,42,248,19,81,04,075,,82,09,031,14*67
$GLGSV,3,3,09,83,04,344,09*59
$GNGLL,0419.83758,S,05539.63768,E,084024.00,A,A*6B
$GNRMC,084028.00,A,0419.83760,S,05539.63773,E,0.587,,260525,,,A*73
$GNVTG,,T,,M,0.587,N,1.087,K,A*39
$GNGGA,084028.00,0419.83760,S,05539.63773,E,1,12,0.62,4.1,M,-47.6,M,,*79
$GNRMC,084031.00,A,0419.83736,S,05539.63820,E,0.551,,260525,,,A*7A
$GNVTG,,T,,M,0.551,N,1.021,K,A*3E
$GNGGA,084031.00,0419.83736,S,05539.63820,E,1,12,0.62,3.7,M,-47.6,M,,*7A
$GNGSA,A,3,25,23,12,15,10,29,18,24,28,32,26,,1.23,0.62,1.06*14
$GNGSA,A,3,68,79,80,67,82,73,,,,,,,1.23,0.62,1.06*18
$GPGSV,5,1,17,10,47,253,23,12,26,154,15,15,33,059,31,18,17,349,21*77
$GPGSV,5,2,17,23,57,329,28,24,15,128,17,25,56,180,26,26,14,307,17*7C
$GPGSV,5,3,17,28,13,237,08,29,45,038,32,31,02,259,09,32,22,202,19*71
$GPGSV,5,4,17,36,52,277,,40,85,352,,41,58,082,34,49,32,274,*7B
$GPGSV,5,5,17,50,10,089,*4A
$GLGSV,3,1,09,67,20,035,16,68,65,070,36,69,49,184,27,73,12,300,10*6C
$GLGSV,3,2,09,79,27,182,13,80,42,248,22,81,04,075,,82,09,031,11*61
$GLGSV,3,3,09,83,04,344,14*55
$GNGLL,0419.83736,S,05539.63820,E,084031.00,A,A*64
$GNRMC,084033.00,A,0419.83740,S,05539.63828,E,0.370,,260525,,,A*74
$GNVTG,,T,,M,0.370,N,0.684,K,A*33
$GNGGA,084033.00,0419.83740,S,05539.63828,E,1,12,0.64,2.3,M,-47.6,M,,*72
$GNGSA,A,3,25,23,12,15,10,29,18,24,28,32,26,,1.25,0.64,1.07*15
$GNGSA,A,3,68,79,80,82,69,73,,,,,,,1.25,0.64,1.07*17
$GPGSV,5,1,17,10,47,253,24,12,26,154,13,15,33,059,32,18,17,349,23*77
$GPGSV,5,2,17,23,57,329,27,24,15,128,15,25,56,180,25,26,14,307,20*76
$GPGSV,5,3,17,28,13,237,13,29,45,038,30,31,02,259,09,32,22,202,14*74
$GPGSV,5,4,17,36,52,277,,40,85,352,,41,58,082,37,49,32,274,*78
$GPGSV,5,5,17,50,10,089,*4A
$GLGSV,3,1,09,67,20,035,,68,65,070,37,69,49,184,24,73,12,300,09*61
$GLGSV,3,2,09,79,27,182,12,80,42,248,20,81,04,075,,82,09,031,09*6B
$GLGSV,3,3,09,83,04,344,13*52
$GNGLL,0419.83740,S,05539.63828,E,084033.00,A,A*6F
$GNRMC,084034.00,A,0419.83746,S,05539.63810,E,0.880,,260525,,,A*7A
$GNVTG,,T,,M,0.880,N,1.629,K,A*31
$GNGGA,084034.00,0419.83746,S,05539.63810,E,1,12,0.64,1.1,M,-47.6,M,,*79
$GNGSA,A,3,25,23,12,15,10,29,18,24,28,32,26,,1.25,0.64,1.07*15
$GNGSA,A,3,68,79,80,82,69,73,,,,,,,1.25,0.64,1.07*17
$GPGSV,5,1,17,10,47,253,24,12,26,154,14,15,33,059,32,18,17,349,23*70
$GPGSV,5,2,17,23,57,329,26,24,15,128,12,25,56,180,22,26,14,307,20*77
$GPGSV,5,3,17,28,13,237,11,29,45,038,26,31,02,259,09,32,22,202,13*76
$GPGSV,5,4,17,36,52,277,,40,85,352,,41,58,082,36,49,32,274,*79
$GPGSV,5,5,17,50,10,089,*4A
$GLGSV,3,1,09,67,20,035,,68,65,070,32,69,49,184,24,73,12,300,08*65
$GLGSV,3,2,09,79,27,182,11,80,42,248,19,81,04,075,,82,09,031,13*69
$GLGSV,3,3,09,83,04,344,10*51
$GNGLL,0419.83746,S,05539.63810,E,084034.00,A,A*65
$GNRMC,084035.00,A,0419.83731,S,05539.63818,E,0.369,,260525,,,A*7F
$GNVTG,,T,,M,0.369,N,0.683,K,A*3C
$GNGGA,084035.00,0419.83731,S,05539.63818,E,1,12,0.71,1.1,M,-47.6,M,,*74
$GNGSA,A,3,25,23,12,15,10,29,18,24,28,32,26,,1.44,0.71,1.25*16
$GNGSA,A,3,68,79,80,82,69,73,,,,,,,1.44,0.71,1.25*14
$GPGSV,5,1,17,10,47,253,24,12,26,154,17,15,33,059,31,18,17,349,23*70
$GPGSV,5,2,17,23,57,329,26,24,15,128,12,25,56,180,19,26,14,307,18*74
$GPGSV,5,3,17,28,13,237,14,29,45,038,30,31,02,259,10,32,22,202,16*79
$GPGSV,5,4,17,36,52,277,,40,85,352,,41,58,082,32,49,32,274,*7D
$GPGSV,5,5,17,50,10,089,*4A
$GLGSV,3,1,09,67,20,035,,68,65,070,33,69,49,184,23,73,12,300,08*63
$GLGSV,3,2,09,79,27,182,08,80,42,248,17,81,04,075,,82,09,031,09*64
$GLGSV,3,3,09,83,04,344,08*58
$GNGLL,0419.83731,S,05539.63818,E,084035.00,A,A*6C
$GPGSV,5,5,17,50,10,089,*4A
$GLGSV,3,1,09,67,20,035,,68,65,070,35,69,49,184,22,73,12,300,09*65
$GLGSV,3,2,09,79,27,182,11,80,42,248,10,81,04,075,,82,09,031,08*6A
$GLGSV,3,3,09,83,04,344,05*55
$GNGLL,0419.83734,S,05539.63811,E,084037.00,A,A*62
$GNRMC,084041.00,A,0419.83687,S,05539.63836,E,0.037,,260525,,,A*74
$GNVTG,,T,,M,0.037,N,0.068,K,A*37
$GNGGA,084041.00,0419.83687,S,05539.63836,E,1,12,0.74,0.0,M,-47.6,M,,*72
$GNGSA,A,3,25,23,12,15,10,29,18,24,28,32,26,,1.49,0.74,1.29*12
$GNGSA,A,3,68,79,80,82,69,73,,,,,,,1.49,0.74,1.29*10
$GPGSV,5,1,17,10,47,253,25,12,26,154,17,15,33,059,30,18,17,349,17*77
$GPGSV,5,2,17,23,57,329,27,24,15,128,15,25,56,180,20,26,14,307,09*78
$GPGSV,5,3,17,28,13,237,12,29,45,038,28,31,02,259,11,32,22,202,11*70
$GPGSV,5,4,17,36,52,277,,40,85,352,,41,58,082,36,49,32,274,*79
$GPGSV,5,5,17,50,10,089,*4A
$GLGSV,3,1,09,67,20,035,,68,65,070,38,69,49,184,20,73,12,300,18*6A
$GLGSV,3,2,09,79,27,182,12,80,42,248,20,81,04,075,,82,09,031,11*62
$GLGSV,3,3,09,83,04,344,10*51
$GNGLL,0419.83687,S,05539.63836,E,084041.00,A,A*6F
$GNRMC,084046.00,A,0419.83632,S,05539.63859,E,0.089,,260525,,,A*71
$GNVTG,,T,,M,0.089,N,0.165,K,A*3E
$GNGGA,084046.00,0419.83632,S,05539.63859,E,1,12,0.69,-0.2,M,-47.6,M,,*51
$GNGSA,A,3,25,23,12,15,10,29,18,24,28,32,26,,1.34,0.69,1.15*1B
$GNGSA,A,3,68,79,80,82,69,73,,,,,,,1.34,0.69,1.15*19
$GPGSV,5,1,17,10,47,253,25,12,26,154,20,15,33,059,31,18,17,349,15*70
$GPGSV,5,2,17,23,57,329,31,24,15,128,12,25,56,180,25,26,14,307,12*77
$GPGSV,5,3,17,28,13,237,13,29,45,038,29,31,02,259,10,32,22,202,16*76
$GPGSV,5,4,17,36,52,277,,40,85,352,,41,58,082,36,49,32,274,*79
$GPGSV,5,5,17,50,10,089,*4A
$GLGSV,3,1,09,67,20,035,,68,65,070,35,69,49,184,17,73,12,300,12*69
$GLGSV,3,2,09,79,27,182,11,80,42,248,15,81,04,075,,82,09,031,08*6F
$GLGSV,3,3,09,83,04,344,13*52
$GNGLL,0419.83632,S,05539.63859,E,084046.00,A,A*6F
$GNRMC,084049.00,A,0419.83601,S,05539.63872,E,0.038,,260525,,,A*7D
$GNVTG,,T,,M,0.038,N,0.071,K,A*30
$GNGGA,084049.00,0419.83601,S,05539.63872,E,1,12,0.74,-0.2,M,-47.6,M,,*5B
$GNGSA,A,3,25,23,12,15,10,29,18,24,28,32,26,,1.49,0.74,1.29*12
$GNGSA,A,3,68,79,80,69,73,,,,,,,,1.49,0.74,1.29*1A
$GPGSV,5,1,17,10,47,253,21,12,26,154,12,15,33,059,30,18,17,349,21*73
$GPGSV,5,2,17,23,57,329,29,24,15,128,12,25,56,180,23,26,14,307,14*7E
$GPGSV,5,3,17,28,13,237,08,29,45,038,27,31,02,259,11,32,22,202,17*72
$GPGSV,5,4,17,36,52,277,,40,85,352,,41,58,082,35,49,32,274,*7A
$GPGSV,5,5,17,50,10,089,*4A
$GLGSV,3,1,09,67,20,035,,68,65,070,37,69,49,184,20,73,12,300,11*6C
$GLGSV,3,2,09,79,27,182,16,80,42,248,14,81,04,075,,82,09,031,06*67
$GLGSV,3,3,09,83,04,344,10*51
$GNGLL,0419.83601,S,05539.63872,E,084049.00,A,A*69
$GNRMC,084054.00,A,0419.83610,S,05539.63902,E,0.151,,260525,,,A*79
$GNVTG,,T,,M,0.151,N,0.280,K,A*32
$GNGGA,084054.00,0419.83610,S,05539.63902,E,1,12,0.70,-1.0,M,-47.6,M,,*56
$GNGSA,A,3,25,23,12,15,10,29,18,24,28,32,26,,1.35,0.70,1.16*11
$GNGSA,A,3,68,79,80,82,73,,,,,,,,1.35,0.70,1.16*1C
$GPGSV,5,1,17,10,47,253,22,12,26,154,08,15,33,059,32,18,17,349,22*7A
$GPGSV,5,2,17,23,57,329,30,24,15,128,08,25,56,180,21,26,14,307,13*78
$GPGSV,5,3,17,28,13,237,08,29,45,038,28,31,02,259,09,32,22,202,17*74
$GPGSV,5,4,17,36,52,277,,40,85,352,,41,58,082,36,49,32,274,*79
$GPGSV,5,5,17,50,10,089,*4A
$GLGSV,3,1,09,67,19,035,,68,65,069,37,69,49,184,,73,12,300,14*69
$GLGSV,3,2,09,79,27,182,19,80,42,248,21,81,04,075,,82,09,031,11*68
$GLGSV,3,3,09,83,04,344,10*51
$GNGLL,0419.83610,S,05539.63902,E,084054.00,A,A*63
$GNRMC,084055.00,A,0419.83632,S,05539.63901,E,0.410,,260525,,,A*7B
$GNVTG,,T,,M,0.410,N,0.759,K,A*33
$GNGGA,084055.00,0419.83632,S,05539.63901,E,1,12,0.70,-1.7,M,-47.6,M,,*53
$GNGSA,A,3,25,23,12,15,10,29,18,24,28,32,26,,1.35,0.70,1.16*11
$GNGSA,A,3,68,79,80,82,73,,,,,,,,1.35,0.70,1.16*1C
$GPGSV,5,1,17,10,47,253,22,12,26,154,09,15,33,059,32,18,17,349,22*7B
$GPGSV,5,2,17,23,57,329,30,24,15,128,08,25,56,180,21,26,14,307,13*78
$GPGSV,5,3,17,28,13,237,09,29,45,038,27,31,02,259,11,32,22,202,17*73
$GPGSV,5,4,17,36,52,277,,40,85,352,,41,58,082,36,49,32,274,*79
$GPGSV,5,5,17,50,10,089,*4A
$GLGSV,3,1,09,67,19,035,,68,65,069,37,69,49,184,,73,12,300,18*65
$GLGSV,3,2,09,79,27,182,20,80,42,248,21,81,04,075,,82,09,031,10*63
$GLGSV,3,3,09,83,04,344,11*50
$GNGLL,0419.83632,S,05539.63901,E,084055.00,A,A*61
$GNRMC,084058.00,A,0419.83662,S,05539.63900,E,0.207,,260525,,,A*72
$GNVTG,,T,,M,0.207,N,0.384,K,A*37
$GNGGA,084058.00,0419.83662,S,05539.63900,E,1,12,0.75,-2.0,M,-47.6,M,,*5B
$GNGSA,A,3,25,23,12,15,10,29,18,24,28,32,26,,1.51,0.75,1.31*13
$GNGSA,A,3,68,79,80,73,,,,,,,,,1.51,0.75,1.31*14
$GPGSV,5,1,17,10,47,253,23,12,26,154,10,15,33,059,33,18,17,349,21*70
$GPGSV,5,2,17,23,57,329,31,24,15,128,13,25,56,180,23,26,14,307,12*70
$GPGSV,5,3,17,28,13,237,09,29,45,038,27,31,02,259,10,32,22,202,18*7D
$GPGSV,5,4,17,36,52,277,,40,85,352,,41,58,082,36,49,32,274,*79
$GPGSV,5,5,17,50,10,089,*4A
$GLGSV,3,1,09,67,19,035,,68,65,069,36,69,49,184,20,73,12,299,16*69
$GLGSV,3,2,09,79,27,182,19,80,42,248,19,81,04,075,,82,09,031,07*64
$GLGSV,3,3,09,83,04,344,11*50
$GNGLL,0419.83662,S,05539.63900,E,084058.00,A,A*68
$GNRMC,084101.00,A,0419.83673,S,05539.63922,E,0.135,,260525,,,A*7D
$GNVTG,,T,,M,0.135,N,0.251,K,A*3C
$GNGGA,084101.00,0419.83673,S,05539.63922,E,1,12,0.69,-1.5,M,-47.6,M,,*5D
$GNGSA,A,3,25,23,12,15,10,29,18,28,32,26,,,1.34,0.69,1.15*1D
$GNGSA,A,3,68,79,80,82,69,73,,,,,,,1.34,0.69,1.15*19
$GPGSV,5,1,17,10,47,253,20,12,26,154,11,15,33,059,31,18,17,349,22*73
$GPGSV,5,2,17,23,57,329,30,24,15,128,,25,56,180,24,26,14,307,14*72
$GPGSV,5,3,17,28,13,237,09,29,45,038,23,31,02,259,11,32,22,202,17*77
$GPGSV,5,4,17,36,52,277,,40,85,352,,41,58,082,36,49,32,274,*79
$GPGSV,5,5,17,50,10,089,*4A
$GLGSV,3,1,09,67,19,035,,68,65,069,37,69,49,184,22,73,12,299,11*6D
$GLGSV,3,2,09,79,27,182,20,80,42,248,15,81,04,075,,82,09,031,09*6C
$GLGSV,3,3,09,83,04,344,11*50
$GNGLL,0419.83673,S,05539.63922,E,084101.00,A,A*65
$GNRMC,084104.00,A,0419.83704,S,05539.63939,E,0.108,,260525,,,A*7D
$GNVTG,,T,,M,0.108,N,0.200,K,A*36
$GNGGA,084104.00,0419.83704,S,05539.63939,E,1,12,0.69,-1.3,M,-47.6,M,,*55
$GNGSA,A,3,25,23,12,15,10,29,18,28,32,26,,,1.34,0.69,1.15*1D
$GNGSA,A,3,68,79,80,82,69,73,,,,,,,1.34,0.69,1.15*19
$GPGSV,5,1,17,10,47,253,18,12,26,154,11,15,33,059,31,18,17,349,25*7F
$GPGSV,5,2,17,23,57,329,31,24,15,128,14,25,56,180,23,26,14,307,15*70
$GPGSV,5,3,17,28,13,237,12,29,45,038,27,31,02,259,10,32,22,202,18*77
$GPGSV,5,4,17,36,52,277,,40,85,352,,41,58,082,36,49,32,274,*79
$GPGSV,5,5,17,50,10,089,*4A
$GLGSV,3,1,09,67,19,035,18,68,65,069,36,69,49,184,25,73,12,299,10*63
$GLGSV,3,2,09,79,27,181,19,80,42,248,11,81,04,075,,82,09,031,11*68
$GLGSV,3,3,09,83,04,344,12*53
$GNGLL,0419.83704,S,05539.63939,E,084104.00,A,A*6B
$GNRMC,084105.00,A,0419.83737,S,05539.63938,E,0.191,,260525,,,A*7D
$GNVTG,,T,,M,0.191,N,0.353,K,A*31
$GNGGA,084105.00,0419.83737,S,05539.63938,E,1,12,0.73,-1.6,M,-47.6,M,,*5B
$GNGSA,A,3,25,23,12,15,10,29,18,28,32,26,,,1.34,0.73,1.13*10
$GNGSA,A,3,68,79,80,82,69,73,,,,,,,1.34,0.73,1.13*14
$GPGSV,5,1,17,10,47,253,16,12,26,154,09,15,33,059,31,18,17,349,25*78
$GPGSV,5,2,17,23,57,329,31,24,15,128,16,25,56,180,25,26,14,307,17*76
$GPGSV,5,3,17,28,13,237,08,29,45,038,29,31,02,259,10,32,22,202,16*7C
$GPGSV,5,4,17,36,52,277,,40,85,352,,41,58,082,36,49,32,274,*79
$GPGSV,5,5,17,50,10,089,*4A
$GLGSV,3,1,09,67,19,035,18,68,65,069,37,69,49,184,25,73,12,299,10*62
$GLGSV,3,2,09,79,27,181,21,80,42,247,13,81,04,075,,82,09,031,10*6F
$GLGSV,3,3,09,83,04,344,10*51
$GNGLL,0419.83737,S,05539.63938,E,084105.00,A,A*6B
$GNRMC,084107.00,A,0419.83761,S,05539.63939,E,0.144,,260525,,,A*75
$GNVTG,,T,,M,0.144,N,0.267,K,A*3F
$GNGGA,084107.00,0419.83761,S,05539.63939,E,1,12,0.65,-1.1,M,-47.6,M,,*5B
$GNGSA,A,3,25,23,12,15,10,29,18,24,28,32,26,,1.26,0.65,1.08*18
$GNGSA,A,3,68,79,80,67,82,69,73,,,,,,1.26,0.65,1.08*1B
$GPGSV,5,1,17,10,47,253,22,12,26,154,10,15,33,059,31,18,17,349,28*7A
$GPGSV,5,2,17,23,57,329,30,24,15,128,16,25,56,180,25,26,14,307,12*72
$GPGSV,5,3,17,28,13,237,10,29,45,038,29,31,02,259,12,32,22,202,16*77
$GPGSV,5,4,17,36,52,277,,40,85,352,,41,58,082,36,49,32,274,*79
$GPGSV,5,5,17,50,10,089,*4A
$GLGSV,3,1,09,67,19,035,19,68,65,069,37,69,49,184,25,73,12,299,10*63
$GLGSV,3,2,09,79,27,181,22,80,42,247,12,81,04,075,,82,10,032,09*6E
$GLGSV,3,3,09,83,04,344,12*53
$GNGLL,0419.83761,S,05539.63939,E,084107.00,A,A*6B
$GNRMC,084108.00,A,0419.83783,S,05539.63934,E,0.411,,260525,,,A*7E
$GNVTG,,T,,M,0.411,N,0.760,K,A*38
$GNGGA,084108.00,0419.83783,S,05539.63934,E,1,12,0.79,-1.5,M,-47.6,M,,*5C
$GNGSA,A,3,25,23,12,15,10,29,18,24,28,32,26,,1.55,0.79,1.33*19
$GNGSA,A,3,68,79,80,67,82,69,73,,,,,,1.55,0.79,1.33*1A
$GPGSV,5,1,17,10,47,253,22,12,26,154,11,15,33,059,31,18,17,349,26*75
$GPGSV,5,2,17,23,57,329,30,24,15,128,16,25,56,180,25,26,14,307,10*70
$GPGSV,5,3,17,28,13,237,10,29,45,038,29,31,02,259,08,32,22,202,19*73
$GPGSV,5,4,17,36,52,277,,40,85,352,,41,58,082,36,49,32,274,*79
$GPGSV,5,5,17,50,10,089,*4A
$GLGSV,3,1,09,67,19,035,17,68,65,069,37,69,49,184,24,73,12,299,10*6C
$GLGSV,3,2,09,79,27,181,22,80,42,247,13,81,04,075,,82,10,032,11*66
$GLGSV,3,3,09,83,04,345,12*52
$GNGLL,0419.83783,S,05539.63934,E,084108.00,A,A*65
$GNRMC,084111.00,A,0419.83811,S,05539.63927,E,0.151,,260525,,,A*71
$GNVTG,,T,,M,0.151,N,0.280,K,A*32
$GNGGA,084111.00,0419.83811,S,05539.63927,E,1,12,0.70,-1.4,M,-47.6,M,,*5A
$GNGSA,A,3,25,23,12,15,10,29,18,24,28,32,26,,1.38,0.70,1.19*13
$GNGSA,A,3,68,79,80,67,82,69,73,,,,,,1.38,0.70,1.19*10
$GPGSV,5,1,17,10,47,253,22,12,26,154,11,15,33,059,31,18,17,349,25*76
$GPGSV,5,2,17,23,57,329,29,24,15,128,15,25,56,180,23,26,14,307,12*7F
$GPGSV,5,3,17,28,13,237,11,29,45,038,28,31,02,259,11,32,22,202,22*73
$GPGSV,5,4,17,36,52,277,,40,85,352,,41,58,082,36,49,32,274,*79
$GPGSV,5,5,17,50,10,089,*4A
$GLGSV,3,1,09,67,19,035,16,68,65,069,38,69,49,184,25,73,12,299,10*63
$GLGSV,3,2,09,79,27,181,23,80,42,247,12,81,04,075,,82,10,032,08*6E
$GLGSV,3,3,09,83,04,345,12*52
$GNGLL,0419.83811,S,05539.63927,E,084111.00,A,A*6B
$GNRMC,084112.00,A,0419.83820,S,05539.63926,E,0.035,,260525,,,A*72
$GNVTG,,T,,M,0.035,N,0.064,K,A*39
$GNGGA,084112.00,0419.83820,S,05539.63926,E,1,12,0.62,-1.7,M,-47.6,M,,*5A
$GNGSA,A,3,25,23,12,15,10,29,18,24,28,32,26,,1.23,0.62,1.07*15
$GNGSA,A,3,68,79,80,67,82,69,73,,,,,,1.23,0.62,1.07*16
$GPGSV,5,1,17,10,47,253,23,12,26,154,11,15,33,059,31,18,17,349,24*76
$GPGSV,5,2,17,23,57,329,30,24,15,128,13,25,56,180,23,26,14,307,10*73
$GPGSV,5,3,17,28,13,237,09,29,45,038,28,31,02,259,07,32,22,202,21*7E
$GPGSV,5,4,17,36,52,277,,40,85,352,,41,58,082,28,49,32,274,*76
$GPGSV,5,5,17,50,10,089,*4A
$GLGSV,3,1,09,67,19,035,15,68,65,069,32,69,49,184,22,73,12,299,10*6D
$GLGSV,3,2,09,79,27,181,24,80,42,247,12,81,04,075,,82,10,032,08*69
$GLGSV,3,3,09,83,04,345,11*51
$GNGLL,0419.83820,S,05539.63926,E,084112.00,A,A*6B
$GNRMC,084114.00,A,0419.83830,S,05539.63929,E,0.204,,260525,,,A*7A
$GNVTG,,T,,M,0.204,N,0.378,K,A*37
$GNGGA,084114.00,0419.83830,S,05539.63929,E,1,12,0.64,-1.6,M,-47.6,M,,*55
$GNGSA,A,3,25,23,12,15,10,29,18,24,28,32,26,,1.23,0.64,1.05*11
$GNGSA,A,3,68,79,80,67,82,73,,,,,,,1.23,0.64,1.05*1D
$GPGSV,5,1,17,10,47,253,22,12,26,154,10,15,33,059,29,18,17,349,20*7B
$GPGSV,5,2,17,23,57,329,30,24,15,128,12,25,56,180,20,26,14,307,11*70
$GPGSV,5,3,17,28,13,237,08,29,45,038,28,31,02,259,08,32,22,202,18*7A
$GPGSV,5,4,17,36,52,277,,40,85,352,,41,58,082,34,49,32,274,*7B
$GPGSV,5,5,17,50,10,089,*4A
$GLGSV,3,1,09,67,19,035,11,68,65,069,38,69,49,184,,73,12,299,12*61
$GLGSV,3,2,09,79,27,181,19,80,42,247,13,81,04,075,,82,10,032,08*66
$GLGSV,3,3,09,83,04,345,10*50
$GNGLL,0419.83830,S,05539.63929,E,084114.00,A,A*63
$GNRMC,084118.00,A,0419.83829,S,05539.63950,E,0.108,,260525,,,A*7F
$GNVTG,,T,,M,0.108,N,0.201,K,A*37
$GNGGA,084118.00,0419.83829,S,05539.63950,E,1,12,0.67,-1.2,M,-47.6,M,,*58
$GNGSA,A,3,25,23,12,15,10,29,18,24,28,32,,,1.28,0.67,1.09*11
$GNGSA,A,3,68,79,80,82,69,73,,,,,,,1.28,0.67,1.09*17
$GPGSV,5,1,17,10,47,253,26,12,26,154,15,15,33,059,29,18,17,349,25*7F
$GPGSV,5,2,17,23,57,329,32,24,15,128,15,25,56,180,22,26,14,307,10*76
$GPGSV,5,3,17,28,13,237,09,29,45,038,31,31,02,259,09,32,22,202,22*7B
$GPGSV,5,4,17,36,52,277,,40,85,352,,41,58,082,35,49,32,274,*7A
$GPGSV,5,5,17,50,10,089,*4A
$GLGSV,3,1,09,67,19,035,,68,65,069,36,69,49,184,21,73,12,299,10*6E
$GLGSV,3,2,09,79,27,181,22,80,42,247,19,81,04,075,,82,10,032,14*69
$GLGSV,3,3,09,83,04,345,10*50
$GNGLL,0419.83829,S,05539.63950,E,084118.00,A,A*69
$GNRMC,084120.00,A,0419.83836,S,05539.63970,E,0.293,,260525,,,A*79
$GNVTG,,T,,M,0.293,N,0.543,K,A*37
$GNGGA,084120.00,0419.83836,S,05539.63970,E,1,12,0.79,-1.1,M,-47.6,M,,*53
$GNGSA,A,3,25,23,12,15,10,29,18,24,28,32,,,1.60,0.79,1.39*11
$GNGSA,A,3,68,79,80,69,,,,,,,,,1.60,0.79,1.39*19
$GPGSV,5,1,17,10,47,253,27,12,26,154,10,15,33,059,30,18,17,349,24*72
$GPGSV,5,2,17,23,57,329,32,24,15,128,14,25,56,180,20,26,14,307,08*7C
$GPGSV,5,3,17,28,13,237,13,29,45,038,31,31,02,259,09,32,22,202,23*71
$GPGSV,5,4,17,36,52,277,,40,85,352,,41,58,082,35,49,32,274,*7A
$GPGSV,5,5,17,50,10,089,*4A
$GLGSV,3,1,09,67,19,035,,68,65,069,31,69,49,184,18,73,12,299,07*65
$GLGSV,3,2,09,79,27,181,23,80,42,247,17,81,04,075,,82,10,032,07*64
$GLGSV,3,3,09,83,04,345,08*59
$GNGLL,0419.83836,S,05539.63970,E,084120.00,A,A*6E
$GNRMC,084121.00,A,0419.83825,S,05539.63971,E,0.461,,260525,,,A*70
$GNVTG,,T,,M,0.461,N,0.855,K,A*36
$GNGGA,084121.00,0419.83825,S,05539.63971,E,1,12,0.67,-0.5,M,-47.6,M,,*5B
$GNGSA,A,3,25,23,12,15,10,29,18,24,28,32,,,1.28,0.67,1.09*11
$GNGSA,A,3,68,79,80,82,69,73,,,,,,,1.28,0.67,1.09*17
$GPGSV,5,1,17,10,47,253,27,12,26,154,10,15,33,059,29,18,17,349,23*7D
$GPGSV,5,2,17,23,57,329,32,24,15,128,13,25,56,180,21,26,14,307,08*7A
$GPGSV,5,3,17,28,13,237,10,29,45,038,31,31,02,259,09,32,22,202,23*72
$GPGSV,5,4,17,36,52,277,,40,85,352,,41,58,082,33,49,32,274,*7C
$GPGSV,5,5,17,50,10,089,*4A
$GLGSV,3,1,09,67,19,035,,68,65,069,33,69,49,184,17,73,12,299,10*6E
$GLGSV,3,2,09,79,27,181,22,80,42,247,17,81,04,075,,82,10,032,11*62
$GLGSV,3,3,09,83,04,345,12*52
$GNGLL,0419.83825,S,05539.63971,E,084121.00,A,A*6C
$GNRMC,084122.00,A,0419.83847,S,05539.63977,E,0.831,,260525,,,A*78
$GNVTG,,T,,M,0.831,N,1.540,K,A*37
$GNGGA,084122.00,0419.83847,S,05539.63977,E,1,12,0.70,-0.4,M,-47.6,M,,*5D
$GNGSA,A,3,25,23,12,15,10,29,18,24,28,32,,,1.38,0.70,1.19*17
$GNGSA,A,3,68,79,80,69,73,,,,,,,,1.38,0.70,1.19*1B
$GPGSV,5,1,17,10,47,253,26,12,26,154,11,15,33,059,28,18,17,349,22*7D
$GPGSV,5,2,17,23,57,329,30,24,15,128,11,25,56,180,20,26,14,307,08*7B
$GPGSV,5,3,17,28,13,237,12,29,45,038,25,31,02,259,11,32,22,202,22*7D
$GPGSV,5,4,17,36,52,277,,40,85,352,,41,58,082,32,49,32,274,*7D
$GPGSV,5,5,17,50,10,089,*4A
$GLGSV,3,1,09,67,19,035,,68,65,069,30,69,49,184,17,73,12,299,09*65
$GLGSV,3,2,09,79,27,181,20,80,42,247,16,81,04,075,,82,10,032,07*66
$GLGSV,3,3,09,83,04,345,10*50
$GNGLL,0419.83847,S,05539.63977,E,084122.00,A,A*6D
$GNRMC,084123.00,A,0419.83863,S,05539.63984,E,0.293,,260525,,,A*71
$GNVTG,,T,,M,0.293,N,0.542,K,A*36
$GNGGA,084123.00,0419.83863,S,05539.63984,E,1,12,0.93,-0.4,M,-47.6,M,,*5B
$GNGSA,A,3,25,23,12,15,10,29,18,28,32,,,,1.85,0.93,1.60*14
$GNGSA,A,3,68,79,80,82,69,73,,,,,,,1.85,0.93,1.60*14
$GPGSV,5,1,17,10,47,254,27,12,26,154,13,15,33,059,27,18,17,349,22*76
$GPGSV,5,2,17,23,57,329,29,24,15,128,09,25,56,180,18,26,14,307,07*7E
$GPGSV,5,3,17,28,13,237,08,29,45,038,28,31,02,259,05,32,22,202,22*7E
$GPGSV,5,4,17,36,52,277,,40,85,352,,41,58,082,34,49,32,274,*7B
$GPGSV,5,5,17,50,10,089,*4A
$GLGSV,3,1,09,67,19,035,,68,65,069,35,69,49,184,19,73,12,299,10*66
$GLGSV,3,2,09,79,27,181,18,80,42,247,17,81,04,075,,82,10,032,08*63
$GLGSV,3,3,09,83,04,345,05*54
$GNGLL,0419.83863,S,05539.63984,E,084123.00,A,A*66
$GNRMC,084124.00,A,0419.83865,S,05539.63991,E,0.071,,260525,,,A*7A
$GNVTG,,T,,M,0.071,N,0.131,K,A*38
$GNGGA,084124.00,0419.83865,S,05539.63991,E,1,12,0.73,-0.6,M,-47.6,M,,*52
$GNGSA,A,3,25,23,12,15,10,29,18,28,32,,,,1.38,0.73,1.17*1C
$GNGSA,A,3,68,79,80,82,69,73,,,,,,,1.38,0.73,1.17*1C
$GPGSV,5,1,17,10,47,254,29,12,26,154,13,15,33,059,28,18,17,349,23*76
$GPGSV,5,2,17,23,57,329,31,24,15,128,09,25,56,180,08,26,14,307,08*79
$GPGSV,5,3,17,28,13,237,10,29,45,038,32,31,02,259,08,32,22,202,25*76
$GPGSV,5,4,17,36,52,277,,40,85,352,,41,58,082,36,49,32,274,*79
$GPGSV,5,5,17,50,10,089,*4A
$GLGSV,3,1,09,67,19,035,,68,65,069,36,69,49,184,21,73,12,299,11*6F
$GLGSV,3,2,09,79,27,181,20,80,42,247,19,81,04,075,,82,10,032,11*6E
$GLGSV,3,3,09,83,04,345,11*51
$GNGLL,0419.83865,S,05539.63991,E,084124.00,A,A*63
$GNRMC,084125.00,A,0419.83867,S,05539.63997,E,0.221,,260525,,,A*78
$GNVTG,,T,,M,0.221,N,0.408,K,A*30
$GNGGA,084125.00,0419.83867,S,05539.63997,E,1,12,0.67,-0.6,M,-47.6,M,,*52
$GNGSA,A,3,25,23,12,15,10,29,18,24,28,32,,,1.28,0.67,1.09*11
$GNGSA,A,3,68,79,80,82,69,73,,,,,,,1.28,0.67,1.09*17
$GPGSV,5,1,17,10,47,254,29,12,26,154,11,15,33,059,29,18,17,349,22*74
$GPGSV,5,2,17,23,57,329,26,24,15,128,10,25,56,180,19,26,14,307,08*77
$GPGSV,5,3,17,28,13,237,09,29,45,038,27,31,02,259,11,32,22,202,25*72
$GPGSV,5,4,17,36,52,277,,40,85,352,,41,58,082,32,49,32,274,*7D
$GPGSV,5,5,17,50,10,089,*4A
$GLGSV,3,1,09,67,19,035,,68,65,069,32,69,49,184,21,73,12,299,14*6E
$GLGSV,3,2,09,79,27,181,20,80,42,247,19,81,04,075,,82,10,032,08*66
$GLGSV,3,3,09,83,04,345,12*52
$GNGLL,0419.83867,S,05539.63997,E,084125.00,A,A*66
$GNRMC,084126.00,A,0419.83869,S,05539.64002,E,0.066,,260525,,,A*76
$GNVTG,,T,,M,0.066,N,0.123,K,A*3D
$GNGGA,084126.00,0419.83869,S,05539.64002,E,1,12,0.93,-0.8,M,-47.6,M,,*58
$GNGSA,A,3,25,23,12,15,10,29,18,24,28,32,,,1.85,0.93,1.60*12
$GNGSA,A,3,68,79,80,82,69,73,,,,,,,1.85,0.93,1.60*14
$GPGSV,5,1,17,10,47,254,29,12,26,154,13,15,33,059,28,18,17,349,20*75
$GPGSV,5,2,17,23,57,329,31,24,15,128,11,25,56,180,20,26,14,307,*72
$GPGSV,5,3,17,28,13,237,08,29,45,038,29,31,02,259,12,32,22,202,25*7E
$GPGSV,5,4,17,36,52,277,,40,85,352,,41,58,082,35,49,32,274,*7A
$GPGSV,5,5,17,50,10,089,*4A
$GLGSV,3,1,09,67,19,035,,68,65,069,35,69,49,184,20,73,12,299,09*64
$GLGSV,3,2,09,79,27,181,19,80,42,247,17,81,04,075,,82,10,032,09*63
$GLGSV,3,3,09,83,04,345,10*50
$GNGLL,0419.83869,S,05539.64002,E,084126.00,A,A*69
$GNRMC,084127.00,A,0419.83879,S,05539.64007,E,0.227,,260525,,,A*74
$GNVTG,,T,,M,0.227,N,0.421,K,A*3D
$GNGGA,084127.00,0419.83879,S,05539.64007,E,1,12,0.73,-0.9,M,-47.6,M,,*52
$GNGSA,A,3,25,23,12,15,10,29,18,24,28,32,,,1.38,0.73,1.17*1A
$GNGSA,A,3,68,79,80,82,69,73,,,,,,,1.38,0.73,1.17*1C
$GPGSV,5,1,17,10,47,254,27,12,26,154,10,15,33,059,26,18,17,349,18*7D
$GPGSV,5,2,17,23,57,329,27,24,15,128,11,25,56,180,21,26,14,307,*74
$GPGSV,5,3,17,28,13,237,08,29,45,038,30,31,02,259,07,32,22,202,23*74
$GPGSV,5,4,17,36,52,277,,40,85,352,,41,58,082,32,49,32,274,*7D
$GPGSV,5,5,17,50,10,089,*4A
$GLGSV,3,1,09,67,19,035,,68,65,069,34,69,49,184,18,73,12,299,11*67
$GLGSV,3,2,09,79,27,181,18,80,42,247,16,81,04,075,,82,10,032,11*6A
$GLGSV,3,3,09,83,04,345,10*50
$GNGLL,0419.83879,S,05539.64007,E,084127.00,A,A*6C
$GNRMC,084128.00,A,0419.83877,S,05539.64006,E,0.224,,260525,,,A*77
$GNVTG,,T,,M,0.224,N,0.415,K,A*39
$GNGGA,084128.00,0419.83877,S,05539.64006,E,1,12,0.73,-1.0,M,-47.6,M,,*5A
$GNGSA,A,3,25,23,12,15,10,29,18,24,28,32,,,1.38,0.73,1.17*1A
$GNGSA,A,3,68,79,80,82,69,73,,,,,,,1.38,0.73,1.17*1C
$GPGSV,5,1,17,10,47,254,25,12,26,154,10,15,33,059,26,18,17,349,16*71
$GPGSV,5,2,17,23,57,329,27,24,15,128,11,25,56,180,23,26,14,307,*76
$GPGSV,5,3,17,28,13,237,09,29,45,038,30,31,02,259,10,32,22,202,21*71
$GPGSV,5,4,17,36,52,277,,40,85,352,,41,58,082,31,49,32,274,*7E
$GPGSV,5,5,17,50,10,089,*4A
$GLGSV,3,1,09,67,19,035,,68,65,069,30,69,49,184,16,73,12,299,10*6C
$GLGSV,3,2,09,79,27,181,17,80,42,247,14,81,04,075,,82,10,032,10*66
$GLGSV,3,3,09,83,04,345,07*56
$GNGLL,0419.83877,S,05539.64006,E,084128.00,A,A*6C
$GNRMC,084129.00,A,0419.83878,S,05539.64001,E,0.094,,260525,,,A*77
$GNVTG,,T,,M,0.094,N,0.174,K,A*32
$GNGGA,084129.00,0419.83878,S,05539.64001,E,1,12,0.93,-1.0,M,-47.6,M,,*5D
$GNGSA,A,3,25,23,12,15,10,29,18,24,32,,,,1.85,0.93,1.60*18
$GNGSA,A,3,68,79,80,69,73,,,,,,,,1.85,0.93,1.60*1E
$GPGSV,5,1,17,10,47,254,24,12,26,154,11,15,33,059,26,18,17,349,15*72
$GPGSV,5,2,17,23,57,329,28,24,15,128,11,25,56,180,25,26,14,307,*7F
$GPGSV,5,3,17,28,13,237,07,29,45,038,30,31,02,259,08,32,22,202,19*7D
$GPGSV,5,4,17,36,52,277,,40,85,352,,41,58,082,32,49,32,274,*7D
$GPGSV,5,5,17,50,10,089,*4A
$GLGSV,3,1,09,67,19,035,,68,65,069,30,69,49,184,14,73,12,299,09*66
$GLGSV,3,2,09,79,27,181,16,80,42,247,10,81,04,075,,82,10,032,07*65
$GLGSV,3,3,09,83,04,345,06*57
$GNGLL,0419.83878,S,05539.64001,E,084129.00,A,A*65
$GNRMC,084130.00,A,0419.83880,S,05539.63999,E,0.167,,260525,,,A*7A
$GNVTG,,T,,M,0.167,N,0.309,K,A*37
$GNGGA,084130.00,0419.83880,S,05539.63999,E,1,12,0.73,-1.1,M,-47.6,M,,*52
$GNGSA,A,3,25,23,12,15,10,29,18,24,28,32,,,1.38,0.73,1.17*1A
$GNGSA,A,3,68,79,80,82,69,73,,,,,,,1.38,0.73,1.17*1C
$GPGSV,5,1,17,10,47,254,24,12,26,154,18,15,33,059,27,18,17,349,17*78
$GPGSV,5,2,17,23,57,329,29,24,15,128,11,25,56,180,25,26,14,307,*7E
$GPGSV,5,3,17,28,13,237,08,29,45,038,31,31,02,259,10,32,22,202,17*74
$GPGSV,5,4,17,36,52,277,,40,85,352,,41,58,082,34,49,32,274,*7B
$GPGSV,5,5,17,50,10,089,*4A
$GLGSV,3,1,09,67,19,035,,68,65,069,32,69,49,184,16,73,12,299,09*66
$GLGSV,3,2,09,79,27,181,18,80,42,247,10,81,04,075,,82,10,032,10*6D
$GLGSV,3,3,09,83,04,345,10*50
$GNGLL,0419.83880,S,05539.63999,E,084130.00,A,A*65
$GPGSV,5,5,17,50,10,089,*4A
$GLGSV,3,1,09,67,19,035,,68,65,069,35,69,49,184,17,73,12,299,10*68
$GLGSV,3,2,09,79,27,181,19,80,42,247,13,81,04,075,,82,10,032,15*6A
$GLGSV,3,3,09,83,04,345,12*52
$GNGLL,0419.83881,S,05539.63993,E,084131.00,A,A*6F
$GNRMC,084133.00,A,0419.83859,S,05539.63983,E,0.439,,260525,,,A*78
$GNVTG,,T,,M,0.439,N,0.814,K,A*3E
$GNGGA,084133.00,0419.83859,S,05539.63983,E,1,12,0.91,-1.7,M,-47.6,M,,*54
$GNGSA,A,3,25,23,15,10,29,18,24,32,,,,,1.62,0.91,1.34*11
$GNGSA,A,3,68,82,69,73,,,,,,,,,1.62,0.91,1.34*18
$GPGSV,5,1,17,10,47,254,26,12,26,154,07,15,33,059,27,18,17,350,18*73
$GPGSV,5,2,17,23,57,329,28,24,15,128,09,25,56,180,25,26,14,307,08*7E
$GPGSV,5,3,17,28,13,237,06,29,45,038,29,31,02,259,09,32,22,202,19*75
$GPGSV,5,4,17,36,52,277,,40,85,352,,41,58,082,34,49,32,274,*7B
$GPGSV,5,5,17,50,10,089,*4A
$GLGSV,3,1,09,67,19,035,,68,65,069,32,69,49,184,14,73,12,299,08*65
$GLGSV,3,2,09,79,27,181,,80,42,247,,81,04,075,,82,10,032,11*64
$GLGSV,3,3,09,83,04,345,08*59
$GNGLL,0419.83859,S,05539.63983,E,084133.00,A,A*69
$GNRMC,084134.00,A,0419.83856,S,05539.63980,E,0.097,,260525,,,A*73
$GNVTG,,T,,M,0.097,N,0.181,K,A*3B
$GNGGA,084134.00,0419.83856,S,05539.63980,E,1,12,0.79,-1.9,M,-47.6,M,,*57
$GNGSA,A,3,25,23,12,15,10,29,18,24,28,32,,,1.46,0.79,1.22*1F
$GNGSA,A,3,68,82,69,73,,,,,,,,,1.46,0.79,1.22*1F
$GPGSV,5,1,17,10,47,254,27,12,26,154,12,15,33,059,32,18,17,350,19*73
$GPGSV,5,2,17,23,57,329,29,24,15,128,10,25,56,180,27,26,14,307,15*79
$GPGSV,5,3,17,28,13,237,13,29,45,038,31,31,02,259,09,32,22,202,24*76
$GPGSV,5,4,17,36,52,277,,40,85,352,,41,58,082,35,49,32,274,*7A
$GPGSV,5,5,17,50,10,089,*4A
$GLGSV,3,1,09,67,19,035,,68,65,069,35,69,49,184,14,73,12,299,12*69
$GLGSV,3,2,09,79,27,181,,80,42,247,,81,04,075,,82,10,032,08*6C
$GLGSV,3,3,09,83,04,345,11*51
$GNGLL,0419.83856,S,05539.63980,E,084134.00,A,A*62
$GNRMC,084137.00,A,0419.83854,S,05539.63944,E,0.047,,260525,,,A*77
$GNVTG,,T,,M,0.047,N,0.087,K,A*31
$GNGGA,084137.00,0419.83854,S,05539.63944,E,1,12,0.68,-1.4,M,-47.6,M,,*53
$GNGSA,A,3,25,23,12,15,10,29,18,24,28,32,26,,1.27,0.68,1.08*14
$GNGSA,A,3,68,82,69,73,,,,,,,,,1.27,0.68,1.08*10
$GPGSV,5,1,17,10,47,254,22,12,26,154,18,15,33,059,28,18,17,350,22*7F
$GPGSV,5,2,17,23,56,330,31,24,15,127,15,25,55,180,24,26,14,307,18*7E
$GPGSV,5,3,17,28,13,237,09,29,45,038,28,31,02,259,08,32,22,202,25*75
$GPGSV,5,4,17,36,52,277,,40,85,352,,41,58,082,33,49,32,274,*7C
$GPGSV,5,5,17,50,10,089,*4A
$GLGSV,3,1,09,67,19,035,,68,65,069,36,69,49,184,24,73,12,299,11*6A
$GLGSV,3,2,09,79,27,181,21,80,42,247,,81,04,075,,82,10,032,12*64
$GLGSV,3,3,09,83,04,345,10*50
$GNGLL,0419.83854,S,05539.63944,E,084137.00,A,A*6B
$GPGSV,5,3,17,28,13,237,06,29,45,038,31,31,02,259,08,32,22,202,27*70
$GPGSV,5,4,17,36,52,277,,40,85,352,,41,58,082,34,49,32,274,*7B
$GPGSV,5,5,17,50,10,089,*4A
$GLGSV,3,1,09,67,19,035,,68,65,069,38,69,49,184,25,73,12,299,09*6C
$GLGSV,3,2,09,79,27,181,21,80,42,247,,81,04,075,,82,10,032,10*66
$GLGSV,3,3,09,83,04,345,09*58
$GNGLL,0419.83853,S,05539.63941,E,084138.00,A,A*66
$GNRMC,084139.00,A,0419.83860,S,05539.63944,E,0.270,,260525,,,A*78
$GNVTG,,T,,M,0.270,N,0.499,K,A*3C
$GNGGA,084139.00,0419.83860,S,05539.63944,E,1,12,0.72,-1.1,M,-47.6,M,,*54
$GNGSA,A,3,25,23,12,15,10,29,18,24,32,26,,,1.37,0.72,1.16*1B
$GNGSA,A,3,68,79,82,69,73,,,,,,,,1.37,0.72,1.16*1B
$GPGSV,5,1,17,10,47,254,23,12,26,154,20,15,33,059,32,18,17,350,20*7C
$GPGSV,5,2,17,23,56,330,30,24,15,127,10,25,55,180,25,26,15,306,18*7B
$GPGSV,5,3,17,28,13,237,07,29,45,038,30,31,02,259,08,32,22,202,26*71
$GPGSV,5,4,17,36,52,277,,40,85,352,,41,58,082,31,49,32,274,*7E
$GPGSV,5,5,17,50,10,089,*4A
$GLGSV,3,1,09,67,19,035,,68,65,069,33,69,49,184,25,73,12,299,11*6E
$GLGSV,3,2,09,79,27,181,21,80,42,247,25,81,04,075,,82,10,032,13*62
$GLGSV,3,3,09,83,04,345,12*52
$GNGLL,0419.83860,S,05539.63944,E,084139.00,A,A*62
$GNRMC,084142.00,A,0419.83855,S,05539.63951,E,0.284,,260525,,,A*7D
$GNVTG,,T,,M,0.284,N,0.526,K,A*32
$GNGGA,084142.00,0419.83855,S,05539.63951,E,1,12,0.69,-1.2,M,-47.6,M,,*53
$GNGSA,A,3,25,23,12,15,10,29,18,24,28,32,26,,1.34,0.69,1.15*1B
$GNGSA,A,3,68,79,80,82,69,73,,,,,,,1.34,0.69,1.15*19
$GPGSV,5,1,17,10,47,254,24,12,26,154,15,15,33,059,29,18,17,350,22*75
$GPGSV,5,2,17,23,56,330,14,24,15,127,09,25,55,180,23,26,15,306,16*7D
$GPGSV,5,3,17,28,13,236,12,29,45,039,29,31,02,259,11,32,22,202,26*75
$GPGSV,5,4,17,36,52,277,,40,85,352,,41,58,082,35,49,32,274,*7A
$GPGSV,5,5,17,50,10,089,*4A
$GLGSV,3,1,09,67,19,035,,68,65,069,36,69,49,184,26,73,12,299,14*6D
$GLGSV,3,2,09,79,27,181,18,80,42,247,26,81,04,075,,82,10,032,09*60
$GLGSV,3,3,09,83,04,345,12*52
$GNGLL,0419.83855,S,05539.63951,E,084142.00,A,A*6C
$GNRMC,084143.00,A,0419.83859,S,05539.63957,E,0.209,,260525,,,A*73
$GNVTG,,T,,M,0.209,N,0.387,K,A*3A
$GNGGA,084143.00,0419.83859,S,05539.63957,E,1,12,0.76,-1.2,M,-47.6,M,,*56
$GNGSA,A,3,25,23,12,15,10,29,18,24,28,32,26,,1.41,0.76,1.19*1B
$GNGSA,A,3,68,79,80,82,69,73,,,,,,,1.41,0.76,1.19*19
$GPGSV,5,1,17,10,47,254,22,12,26,154,16,15,33,059,31,18,17,350,24*7F
$GPGSV,5,2,17,23,56,330,18,24,15,127,09,25,55,180,20,26,15,306,15*71
$GPGSV,5,3,17,28,13,236,11,29,45,039,29,31,02,258,10,32,22,202,26*76
$GPGSV,5,4,17,36,52,277,,40,85,352,,41,58,082,37,49,32,274,*78
$GPGSV,5,5,17,50,10,089,*4A
$GLGSV,3,1,09,67,19,035,,68,65,069,36,69,49,184,28,73,12,299,16*61
$GLGSV,3,2,09,79,27,181,15,80,42,247,24,81,04,075,,82,10,032,11*66
$GLGSV,3,3,09,83,04,345,15*55
$GNGLL,0419.83859,S,05539.63957,E,084143.00,A,A*67
$GNRMC,084144.00,A,0419.83864,S,05539.63954,E,0.120,,260525,,,A*71
$GNVTG,,T,,M,0.120,N,0.222,K,A*3C
$GNGGA,084144.00,0419.83864,S,05539.63954,E,1,12,0.70,-0.8,M,-47.6,M,,*51
$GNGSA,A,3,25,23,12,15,10,29,18,24,28,32,26,,1.34,0.70,1.15*13
$GNGSA,A,3,68,79,80,82,69,73,,,,,,,1.34,0.70,1.15*11
$GPGSV,5,1,17,10,47,254,24,12,26,154,17,15,33,059,30,18,17,350,25*78
$GPGSV,5,2,17,23,56,330,19,24,15,127,18,25,55,180,18,26,15,306,12*7C
$GPGSV,5,3,17,28,13,236,12,29,45,039,29,31,02,258,09,32,23,202,27*7D
$GPGSV,5,4,17,36,52,277,,40,85,352,,41,58,082,36,49,32,274,*79
$GPGSV,5,5,17,50,10,089,*4A
$GLGSV,3,1,09,67,19,035,,68,65,069,34,69,49,184,28,73,12,299,10*65
$GLGSV,3,2,09,79,27,181,14,80,42,247,21,81,04,075,,82,10,032,09*6B
$GLGSV,3,3,09,83,04,345,11*51
$GNGLL,0419.83864,S,05539.63954,E,084144.00,A,A*6D
$GNRMC,084145.00,A,0419.83870,S,05539.63960,E,0.236,,260525,,,A*76
$GNVTG,,T,,M,0.236,N,0.436,K,A*3B
$GNGGA,084145.00,0419.83870,S,05539.63960,E,1,12,0.71,-1.0,M,-47.6,M,,*5A
$GNGSA,A,3,25,23,12,15,10,29,18,24,28,32,41,,1.33,0.71,1.13*12
$GNGSA,A,3,68,79,80,82,69,73,,,,,,,1.33,0.71,1.13*11
$GPGSV,5,1,17,10,47,254,22,12,26,154,17,15,33,059,29,18,17,350,25*76
$GPGSV,5,2,17,23,56,330,20,24,15,127,18,25,55,180,17,26,15,306,09*73
$GPGSV,5,3,17,28,13,236,17,29,45,039,29,31,02,258,10,32,23,202,27*70
$GPGSV,5,4,17,36,52,277,,40,85,352,,41,58,082,36,49,32,274,*79
$GPGSV,5,5,17,50,10,089,*4A
$GLGSV,3,1,09,67,19,035,,68,65,069,34,69,49,184,27,73,12,299,13*69
$GNRMC,084146.00,A,0419.83868,S,05539.63958,E,0.339,,260525,,,A*79
$GNVTG,,T,,M,0.339,N,0.629,K,A*39
$GNGGA,084146.00,0419.83868,S,05539.63958,E,1,12,0.71,-0.8,M,-47.6,M,,*52
$GNGSA,A,3,25,23,12,15,10,29,18,24,28,32,26,41,1.33,0.71,1.13*16
$GNGSA,A,3,68,79,80,82,69,73,,,,,,,1.33,0.71,1.13*11
$GPGSV,5,1,17,10,47,254,27,12,26,154,16,15,33,059,29,18,17,350,26*71
$GPGSV,5,2,17,23,56,330,29,24,15,127,18,25,55,180,19,26,15,306,11*7D
$GPGSV,5,3,17,28,13,236,17,29,45,039,30,31,02,258,15,32,23,202,28*72
$GPGSV,5,4,17,36,52,277,,40,85,352,,41,58,082,35,49,32,274,*7A
$GPGSV,5,5,17,50,10,089,*4A
$GLGSV,3,1,09,67,19,035,19,68,65,069,32,69,49,184,25,73,12,299,14*62
$GLGSV,3,2,09,79,27,181,18,80,42,247,23,81,04,075,,82,10,032,12*6F
$GLGSV,3,3,09,83,04,345,11*51
$GNGLL,0419.83868,S,05539.63958,E,084146.00,A,A*6F
$GNRMC,084147.00,A,0419.83868,S,05539.63960,E,0.026,,260525,,,D*7B
$GNVTG,,T,,M,0.026,N,0.049,K,D*31
$GNGGA,084147.00,0419.83868,S,05539.63960,E,2,12,0.74,-1.1,M,-47.6,M,,0000*56
$GNGSA,A,3,25,23,12,15,10,29,18,24,32,26,41,,1.48,0.74,1.28*1D
$GNGSA,A,3,68,79,80,82,69,73,,,,,,,1.48,0.74,1.28*10
$GPGSV,5,1,17,10,47,254,27,12,26,154,18,15,33,059,29,18,17,350,26*7F
$GPGSV,5,2,17,23,56,330,29,24,15,127,18,25,55,180,23,26,15,306,11*74
$GPGSV,5,3,17,28,13,236,07,29,45,039,31,31,02,258,09,32,23,202,28*7F
$GPGSV,5,4,17,36,52,277,,40,85,352,,41,58,082,36,49,32,274,*79
$GPGSV,5,5,17,50,10,089,*4A
$GLGSV,3,1,09,67,19,035,,68,65,069,32,69,49,184,22,73,12,299,15*6C
$GLGSV,3,2,09,79,27,181,20,80,42,247,24,81,04,075,,82,10,032,09*69
$GLGSV,3,3,09,83,04,345,10*50
$GNGLL,0419.83868,S,05539.63960,E,084147.00,A,D*60
$GNRMC,084148.00,A,0419.83862,S,05539.63949,E,0.187,,260525,,,D*7F
$GNVTG,,T,,M,0.187,N,0.346,K,D*37
$GNGGA,084148.00,0419.83862,S,05539.63949,E,2,12,0.68,-1.2,M,-47.6,M,,0000*56
$GNGSA,A,3,25,23,12,15,10,29,18,24,32,26,41,,1.31,0.68,1.12*17
$GNGSA,A,3,68,79,80,82,69,73,,,,,,,1.31,0.68,1.12*1A
$GPGSV,5,1,17,10,47,254,28,12,26,154,21,15,33,059,31,18,17,350,28*7D
$GPGSV,5,2,17,23,56,330,31,24,15,127,18,25,55,180,24,26,15,306,09*73
$GPGSV,5,3,17,28,13,236,09,29,45,039,32,31,02,258,08,32,23,202,28*73
$GPGSV,5,4,17,36,52,277,,40,85,352,,41,58,082,36,49,32,274,*79
$GPGSV,5,5,17,50,10,089,*4A
$GLGSV,3,1,09,67,19,035,,68,65,069,32,69,49,184,18,73,12,299,18*68
$GLGSV,3,2,09,79,27,181,20,80,42,247,22,81,04,075,,82,10,032,11*66
$GLGSV,3,3,09,83,04,345,10*50
$GNGLL,0419.83862,S,05539.63949,E,084148.00,A,D*6E
$GNRMC,084149.00,A,0419.83854,S,05539.63938,E,0.051,,260525,,,D*77
$GNVTG,,T,,M,0.051,N,0.094,K,D*31
$GNGGA,084149.00,0419.83854,S,05539.63938,E,2,12,0.66,-1.2,M,-47.6,M,,0000*5A
$GNGSA,A,3,25,23,12,15,10,29,18,24,28,32,26,41,1.26,0.66,1.08*1E
$GNGSA,A,3,68,79,80,82,69,73,,,,,,,1.26,0.66,1.08*19
$GPGSV,5,1,17,10,47,254,27,12,26,154,21,15,33,059,32,18,17,350,28*71
$GPGSV,5,2,17,23,56,330,32,24,15,127,18,25,55,180,24,26,15,306,12*7A
$GPGSV,5,3,17,28,13,236,14,29,45,039,32,31,02,258,10,32,23,202,28*76
$GPGSV,5,4,17,36,52,277,,40,85,352,,41,58,082,36,49,32,274,*79
$GPGSV,5,5,17,50,10,089,*4A
$GLGSV,3,1,09,67,19,035,,68,65,069,32,69,49,184,11,73,12,299,17*6E
$GLGSV,3,2,09,79,27,181,20,80,42,247,20,81,04,075,,82,10,032,09*6D
$GLGSV,3,3,09,83,04,345,09*58
$GNGLL,0419.83854,S,05539.63938,E,084149.00,A,D*6C
$GNRMC,084150.00,A,0419.83852,S,05539.63937,E,0.056,,260525,,,A*74
$GNVTG,,T,,M,0.056,N,0.104,K,A*3B
$GNGGA,084150.00,0419.83852,S,05539.63937,E,1,12,0.74,-1.4,M,-47.6,M,,*5D
$GNGSA,A,3,25,23,12,15,10,29,18,24,28,32,26,41,1.48,0.74,1.27*18
$GNGSA,A,3,68,79,80,82,73,,,,,,,,1.48,0.74,1.27*10
$GPGSV,5,1,17,10,47,254,27,12,26,154,19,15,33,059,30,18,17,350,28*78
$GPGSV,5,2,17,23,56,330,31,24,15,127,11,25,55,180,23,26,15,306,12*77
$GPGSV,5,3,17,28,13,236,16,29,45,039,30,31,02,258,10,32,23,202,28*76
$GPGSV,5,4,17,36,52,277,,40,85,352,,41,58,082,36,49,32,274,*79
$GPGSV,5,5,17,50,10,089,*4A
$GLGSV,3,1,09,67,19,035,19,68,65,069,33,69,49,184,23,73,12,299,16*67
$GLGSV,3,2,09,79,27,181,20,80,42,247,18,81,04,075,,82,10,032,07*68
$GLGSV,3,3,09,83,04,345,10*50
$GNGLL,0419.83852,S,05539.63937,E,084150.00,A,A*68
$GNRMC,084151.00,A,0419.83849,S,05539.63933,E,0.075,,260525,,,A*7A
$GNVTG,,T,,M,0.075,N,0.138,K,A*35
$GNGGA,084151.00,0419.83849,S,05539.63933,E,1,12,0.69,-1.4,M,-47.6,M,,*5E
$GNGSA,A,3,25,23,12,15,10,29,18,24,28,32,26,41,1.29,0.69,1.09*1F
$GNGSA,A,3,68,79,80,82,73,,,,,,,,1.29,0.69,1.09*17
$GPGSV,5,1,17,10,47,254,27,12,26,154,17,15,33,059,30,18,17,350,28*76
$GPGSV,5,2,17,23,56,330,29,24,15,127,11,25,55,180,23,26,15,306,15*79
$GPGSV,5,3,17,28,13,236,16,29,45,039,30,31,02,258,09,32,23,202,28*7E
$GPGSV,5,4,17,36,52,277,,40,85,352,,41,58,082,35,49,32,274,*7A
$GPGSV,5,5,17,50,10,089,*4A
$GLGSV,3,1,09,67,19,035,19,68,65,069,32,69,49,184,23,73,12,299,13*63
$GLGSV,3,2,09,79,27,181,21,80,42,247,20,81,04,075,,82,10,032,10*64
$GLGSV,3,3,09,83,04,345,08*59
$GNGLL,0419.83849,S,05539.63933,E,084151.00,A,A*67
$GNRMC,084152.00,A,0419.83847,S,05539.63933,E,0.089,,260525,,,A*74
$GNVTG,,T,,M,0.089,N,0.164,K,A*3F
$GNGGA,084152.00,0419.83847,S,05539.63933,E,1,12,0.69,-1.4,M,-47.6,M,,*53
$GNGSA,A,3,25,23,12,15,10,29,18,24,28,32,26,41,1.29,0.69,1.09*1F
$GNGSA,A,3,68,79,80,82,69,73,,,,,,,1.29,0.69,1.09*18
$GPGSV,5,1,17,10,47,254,26,12,26,154,16,15,33,059,29,18,17,350,28*7E
$GPGSV,5,2,17,23,56,330,29,24,15,127,11,25,55,180,23,26,15,306,14*78
$GPGSV,5,3,17,28,13,236,14,29,45,039,29,31,02,258,09,32,23,202,28*74
$GPGSV,5,4,17,36,52,277,,40,85,352,,41,58,082,35,49,32,274,*7A
$GPGSV,5,5,17,50,10,089,*4A
$GLGSV,3,1,09,67,19,035,19,68,65,069,33,69,49,184,23,73,12,299,13*62
$GLGSV,3,2,09,79,27,181,20,80,42,247,20,81,04,075,,82,10,032,13*66
$GLGSV,3,3,09,83,04,345,09*58
$GNGLL,0419.83847,S,05539.63933,E,084152.00,A,A*6A
$GPGSV,5,4,17,36,52,277,,40,85,352,,41,58,082,36,49,32,274,*79
$GPGSV,5,5,17,50,10,089,*4A
$GLGSV,3,1,09,67,19,035,20,68,65,069,33,69,49,184,23,73,12,299,12*69
$GLGSV,3,2,09,79,27,181,19,80,42,247,18,81,04,075,,82,10,032,09*6C
$GLGSV,3,3,09,83,04,345,08*59
$GNGLL,0419.83844,S,05539.63932,E,084153.00,A,A*69
$GNRMC,084154.00,A,0419.83837,S,05539.63926,E,0.155,,260525,,,A*71
$GNVTG,,T,,M,0.155,N,0.288,K,A*3E
$GNGGA,084154.00,0419.83837,S,05539.63926,E,1,12,0.69,-1.2,M,-47.6,M,,*50
$GNGSA,A,3,25,23,12,15,10,29,18,28,32,26,41,,1.29,0.69,1.09*19
$GNGSA,A,3,68,79,80,67,82,69,73,,,,,,1.29,0.69,1.09*19
$GPGSV,5,1,17,10,47,254,25,12,26,154,20,15,33,059,29,18,17,350,27*77
$GPGSV,5,2,17,23,56,330,29,24,15,127,11,25,55,180,22,26,15,306,08*74
$GPGSV,5,3,17,28,13,236,13,29,45,039,31,31,02,258,12,32,23,202,27*7F
$GPGSV,5,4,17,36,52,277,,40,85,352,,41,58,082,37,49,32,274,*78
$GPGSV,5,5,17,50,10,089,*4A
$GLGSV,3,1,09,67,19,035,19,68,65,069,33,69,49,184,23,73,12,299,13*62
$GLGSV,3,2,09,79,27,181,18,80,42,247,17,81,04,075,,82,10,032,09*62
$GLGSV,3,3,09,83,04,345,09*58
$GNGLL,0419.83837,S,05539.63926,E,084154.00,A,A*6F
$GNRMC,084155.00,A,0419.83832,S,05539.63925,E,0.038,,260525,,,A*7C
$GNVTG,,T,,M,0.038,N,0.071,K,A*30
$GNGGA,084155.00,0419.83832,S,05539.63925,E,1,12,0.69,-1.3,M,-47.6,M,,*56
$GNGSA,A,3,25,23,12,15,10,29,18,28,32,26,41,,1.29,0.69,1.09*19
$GNGSA,A,3,68,79,80,67,82,69,73,,,,,,1.29,0.69,1.09*19
$GPGSV,5,1,17,10,47,254,22,12,26,154,20,15,33,059,28,18,17,350,27*71
$GPGSV,5,2,17,23,56,330,29,24,15,127,11,25,55,180,20,26,15,306,14*7B
$GPGSV,5,3,17,28,13,236,14,29,45,039,31,31,02,258,10,32,23,202,27*7A
$GPGSV,5,4,17,36,52,277,,40,85,352,,41,58,082,37,49,32,274,*78
$GPGSV,5,5,17,50,10,089,*4A
$GLGSV,3,1,09,67,19,035,19,68,65,069,33,69,49,184,23,73,12,299,16*67
$GLGSV,3,2,09,79,27,181,18,80,42,247,18,81,04,075,,82,10,032,10*65
$GLGSV,3,3,09,83,04,345,08*59
$GNGLL,0419.83832,S,05539.63925,E,084155.00,A,A*68
$GNRMC,084156.00,A,0419.83833,S,05539.63926,E,0.212,,260525,,,A*77
$GNVTG,,T,,M,0.212,N,0.392,K,A*34
$GNGGA,084156.00,0419.83833,S,05539.63926,E,1,12,0.74,-1.4,M,-47.6,M,,*5C
$GNGSA,A,3,25,23,12,15,10,29,18,28,32,26,41,,1.48,0.74,1.27*1E
$GNGSA,A,3,68,79,80,67,82,69,73,,,,,,1.48,0.74,1.27*1E
$GPGSV,5,1,17,10,47,254,21,12,26,154,20,15,33,059,26,18,17,350,27*7C
$GPGSV,5,2,17,23,56,330,27,24,15,127,09,25,55,180,20,26,15,306,08*71
$GPGSV,5,3,17,28,13,236,16,29,45,039,30,31,02,258,09,32,23,202,27*71
$GPGSV,5,4,17,36,52,277,,40,85,352,,41,58,082,37,49,32,274,*78
$GPGSV,5,5,17,50,10,089,*4A
$GLGSV,3,1,09,67,19,035,19,68,65,069,33,69,49,184,22,73,12,299,16*66
$GLGSV,3,2,09,79,27,181,17,80,42,247,18,81,04,075,,82,10,032,09*62
$GLGSV,3,3,09,83,04,345,10*50
$GNGLL,0419.83833,S,05539.63926,E,084156.00,A,A*69
$GNRMC,084157.00,A,0419.83832,S,05539.63915,E,0.286,,260525,,,A*7A
$GNVTG,,T,,M,0.286,N,0.529,K,A*3F
$GNGGA,084157.00,0419.83832,S,05539.63915,E,1,12,0.69,-1.3,M,-47.6,M,,*57
$GNGSA,A,3,25,23,12,15,10,29,18,28,32,26,41,,1.29,0.69,1.09*19
$GNGSA,A,3,68,79,80,67,82,69,73,,,,,,1.29,0.69,1.09*19
$GPGSV,5,1,17,10,47,254,22,12,26,154,19,15,33,059,24,18,17,350,25*75
$GPGSV,5,2,17,23,56,330,25,24,15,127,09,25,55,180,19,26,15,306,12*72
$GPGSV,5,3,17,28,13,236,16,29,45,039,28,31,02,258,11,32,23,202,26*70
$GPGSV,5,4,17,36,52,277,,40,85,352,,41,58,082,37,49,32,274,*78
$GNRMC,084159.00,A,0419.83835,S,05539.63897,E,0.203,,260525,,,D*70
$GNVTG,,T,,M,0.203,N,0.376,K,D*3B
$GNGGA,084159.00,0419.83835,S,05539.63897,E,2,12,0.74,-1.5,M,-47.6,M,,0000*5C
$GNGSA,A,3,25,23,12,15,10,29,18,28,32,26,41,,1.48,0.74,1.28*11
$GNGSA,A,3,68,79,80,67,82,69,73,,,,,,1.48,0.74,1.28*11
$GPGSV,5,1,17,10,47,254,20,12,26,154,15,15,33,059,19,18,17,350,22*72
$GPGSV,5,2,17,23,56,330,22,24,15,127,,25,55,180,18,26,15,306,11*7E
$GPGSV,5,3,17,28,13,236,14,29,45,039,29,31,02,258,07,32,23,202,25*77
$GPGSV,5,4,17,36,52,277,,40,85,352,,41,58,082,36,49,32,274,*79
$GPGSV,5,5,17,50,10,089,*4A
$GLGSV,3,1,09,67,19,035,16,68,65,069,33,69,49,184,23,73,12,299,12*6C
$GLGSV,3,2,09,79,27,181,11,80,42,247,17,81,04,075,,82,10,032,11*62
$GLGSV,3,3,09,83,04,345,12*52
$GNGLL,0419.83835,S,05539.63897,E,084159.00,A,D*6E
$GNRMC,084200.00,A,0419.83827,S,05539.63879,E,0.583,,260525,,,A*76
$GNVTG,,T,,M,0.583,N,1.079,K,A*3C
$GNGGA,084200.00,0419.83827,S,05539.63879,E,1,12,0.76,-1.3,M,-47.6,M,,*57
$GNGSA,A,3,25,23,12,15,10,29,18,28,32,26,41,,1.40,0.76,1.18*18
$GNGSA,A,3,68,80,67,82,69,73,,,,,,,1.40,0.76,1.18*16
$GPGSV,5,1,17,10,47,254,19,12,26,154,14,15,33,059,19,18,17,350,22*79
$GPGSV,5,2,17,23,56,330,21,24,15,127,,25,55,180,16,26,15,306,14*76
$GPGSV,5,3,17,28,13,236,13,29,45,039,29,31,02,258,06,32,23,202,26*72
$GPGSV,5,4,17,36,52,277,,40,85,352,,41,58,082,36,49,32,274,*79
$GPGSV,5,5,17,50,10,089,*4A
$GLGSV,3,1,09,67,19,035,16,68,65,069,33,69,49,184,24,73,12,299,12*6B
$GLGSV,3,2,09,79,27,181,,80,42,247,18,81,04,075,,82,10,032,09*64
$GLGSV,3,3,09,83,04,345,08*59
$GNGLL,0419.83827,S,05539.63879,E,084200.00,A,A*67
$GNRMC,084201.00,A,0419.83835,S,05539.63875,E,0.075,,260525,,,A*74
$GNVTG,,T,,M,0.075,N,0.139,K,A*34
$GNGGA,084201.00,0419.83835,S,05539.63875,E,1,12,0.74,-1.0,M,-47.6,M,,*58
$GNGSA,A,3,25,23,12,15,10,29,18,28,32,26,41,,1.39,0.74,1.17*1B
$GNGSA,A,3,68,80,67,82,69,73,,,,,,,1.39,0.74,1.17*15
$GPGSV,5,1,17,10,47,254,16,12,26,154,15,15,33,059,19,18,17,350,21*74
$GPGSV,5,2,17,23,56,330,20,24,15,127,,25,55,180,12,26,15,306,15*72
$GPGSV,5,3,17,28,13,236,12,29,45,039,30,31,02,258,07,32,23,202,24*78
$GPGSV,5,4,17,36,52,277,,40,85,352,,41,58,082,36,49,32,274,*79
$GPGSV,5,5,17,50,10,089,*4A
$GLGSV,3,1,09,67,19,035,17,68,65,069,34,69,49,184,25,73,12,299,12*6C
$GLGSV,3,2,09,79,27,181,,80,42,247,17,81,04,075,,82,10,032,10*63
$GLGSV,3,3,09,83,04,345,10*50
$GNGLL,0419.83835,S,05539.63875,E,084201.00,A,A*69
$GPGSV,5,4,17,36,52,277,,40,85,352,,41,58,082,36,49,32,274,*79
$GPGSV,5,5,17,50,10,089,*4A
$GLGSV,3,1,09,67,19,035,20,68,65,069,34,69,49,184,24,73,12,299,11*6A
$GLGSV,3,2,09,79,27,181,,80,42,247,18,81,04,075,,82,10,032,11*6D
$GLGSV,3,3,09,83,04,345,16*56
$GNGLL,0419.83846,S,05539.63880,E,084202.00,A,D*61
$GNRMC,084203.00,A,0419.83865,S,05539.63898,E,0.786,,260525,,,A*7B
$GNVTG,,T,,M,0.786,N,1.455,K,A*31
$GNGGA,084203.00,0419.83865,S,05539.63898,E,1,12,0.74,-1.4,M,-47.6,M,,*58
$GNGSA,A,3,25,23,12,15,10,29,18,28,32,26,41,,1.39,0.74,1.17*1B
$GNGSA,A,3,68,80,67,82,69,73,,,,,,,1.39,0.74,1.17*15
$GPGSV,5,1,17,10,47,254,22,12,26,154,13,15,33,059,16,18,17,350,20*7B
$GPGSV,5,2,17,23,56,330,20,24,15,127,,25,55,180,13,26,15,306,14*72
$GPGSV,5,3,17,28,13,236,13,29,45,039,29,31,02,258,11,32,23,202,23*71
$GPGSV,5,4,17,36,52,277,,40,85,352,,41,58,082,38,49,32,274,*77
$GPGSV,5,5,17,50,10,089,*4A
$GLGSV,3,1,09,67,19,035,20,68,65,069,34,69,49,184,23,73,12,299,09*64
$GLGSV,3,2,09,79,27,181,,80,42,247,18,81,04,075,,82,10,032,11*6D
$GLGSV,3,3,09,83,04,345,09*58
$GNGLL,0419.83865,S,05539.63898,E,084203.00,A,A*6D
$GNRMC,084204.00,A,0419.83880,S,05539.63897,E,0.400,,260525,,,A*75
$GNVTG,,T,,M,0.400,N,0.740,K,A*3A
$GNGGA,084204.00,0419.83880,S,05539.63897,E,1,12,0.86,-1.5,M,-47.6,M,,*57
$GNGSA,A,3,25,23,15,10,29,18,28,32,26,41,,,1.57,0.86,1.31*19
$GNGSA,A,3,68,80,67,82,69,73,,,,,,,1.57,0.86,1.31*14
$GPGSV,5,1,17,10,47,254,25,12,26,154,,15,33,059,15,18,17,350,19*77
$GPGSV,5,2,17,23,56,330,22,24,15,127,,25,55,180,07,26,15,306,11*70
$GPGSV,5,3,17,28,13,236,14,29,45,039,31,31,02,258,10,32,23,202,22*7F
$GPGSV,5,4,17,36,52,277,,40,85,352,,41,58,082,37,49,32,274,*78
$GPGSV,5,5,17,50,10,089,*4A
$GLGSV,3,1,09,67,19,035,18,68,65,069,34,69,49,184,23,73,12,299,08*6E
$GLGSV,3,2,09,79,27,181,,80,42,247,18,81,04,075,,82,10,032,08*65
$GLGSV,3,3,09,83,04,345,09*58
$GNGLL,0419.83880,S,05539.63897,E,084204.00,A,A*6E
$GNRMC,084205.00,A,0419.83885,S,05539.63898,E,0.168,,260525,,,D*70
$GNVTG,,T,,M,0.168,N,0.312,K,D*37
$GNGGA,084205.00,0419.83885,S,05539.63898,E,2,12,0.89,-1.7,M,-47.6,M,,0000*52
$GNGSA,A,3,25,23,15,10,29,18,28,32,26,41,,,1.78,0.89,1.54*18
$GNGSA,A,3,68,80,67,69,73,,,,,,,,1.78,0.89,1.54*1F
$GPGSV,5,1,17,10,47,254,23,12,26,154,,15,33,059,14,18,17,350,20*7A
$GPGSV,5,2,17,23,56,330,24,24,15,127,,25,55,180,13,26,15,306,09*7A
$GPGSV,5,3,17,28,13,236,14,29,45,039,30,31,02,258,10,32,23,202,23*7F
$GPGSV,5,4,17,36,52,277,,40,85,352,,41,58,082,37,49,32,274,*78
$GPGSV,5,5,17,50,10,089,*4A
$GLGSV,3,1,09,67,19,035,14,68,65,069,33,69,49,184,25,73,12,299,12*68
$GLGSV,3,2,09,79,27,181,,80,42,247,16,81,04,075,,82,10,032,05*66
$GLGSV,3,3,09,83,04,345,11*51
$GNGLL,0419.83885,S,05539.63898,E,084205.00,A,D*60
$GNRMC,084206.00,A,0419.83899,S,05539.63890,E,0.428,,260525,,,A*72
$GNVTG,,T,,M,0.428,N,0.792,K,A*3F
$GNGGA,084206.00,0419.83899,S,05539.63890,E,1,12,0.83,-2.3,M,-47.6,M,,*5A
$GNGSA,A,3,25,23,15,10,29,18,28,32,26,41,,,1.46,0.83,1.19*16
$GNGSA,A,3,68,80,67,82,69,73,,,,,,,1.46,0.83,1.19*1B
$GPGSV,5,1,17,10,47,254,22,12,26,154,05,15,33,059,16,18,17,350,22*7E
$GPGSV,5,2,17,23,56,330,24,24,15,127,,25,55,180,11,26,15,306,11*71
$GPGSV,5,3,17,28,13,236,15,29,45,039,29,31,02,258,07,32,23,202,24*77
$GPGSV,5,4,17,36,52,277,,40,85,352,,41,58,082,37,49,32,274,*78
$GPGSV,5,5,17,50,10,089,*4A
$GLGSV,3,1,09,67,19,035,15,68,65,069,32,69,49,184,26,73,12,299,14*6D
$GLGSV,3,2,09,79,27,181,,80,42,247,14,81,04,075,,82,10,032,08*69
$GLGSV,3,3,09,83,04,345,12*52
$GNGLL,0419.83899,S,05539.63890,E,084206.00,A,A*63
$GNRMC,084208.00,A,0419.83899,S,05539.63889,E,0.402,,260525,,,D*79
$GNVTG,,T,,M,0.402,N,0.744,K,D*39
$GNGGA,084208.00,0419.83899,S,05539.63889,E,2,12,0.79,-2.5,M,-47.6,M,,0000*5C
$GNGSA,A,3,25,23,15,10,29,18,28,32,26,41,,,1.43,0.79,1.19*16
$GNGSA,A,3,68,80,67,82,69,73,,,,,,,1.43,0.79,1.19*1B
$GPGSV,5,1,17,10,47,254,21,12,26,154,15,15,33,059,25,18,17,350,24*7A
$GPGSV,5,2,17,23,56,330,27,24,15,127,,25,55,180,21,26,15,306,09*78
$GPGSV,5,3,17,28,13,236,15,29,45,039,28,31,02,258,08,32,23,202,22*7F
$GPGSV,5,4,17,36,52,277,,40,85,352,,41,58,082,37,49,32,274,*78
$GPGSV,5,5,17,50,10,089,*4A
$GLGSV,3,1,09,67,19,035,15,68,65,067,32,69,49,184,26,73,12,299,14*63
$GLGSV,3,2,09,79,27,181,15,80,42,247,16,81,04,075,,82,10,032,13*65
$GLGSV,3,3,09,83,04,345,12*52
$GNGLL,0419.83899,S,05539.63889,E,084208.00,A,D*60
$GNRMC,084210.00,A,0419.83903,S,05539.63893,E,0.166,,260525,,,A*7B
$GNVTG,,T,,M,0.166,N,0.308,K,A*37
$GNGGA,084210.00,0419.83903,S,05539.63893,E,1,12,0.69,-3.1,M,-47.6,M,,*5B
$GNGSA,A,3,25,23,12,15,10,29,18,28,32,26,41,,1.27,0.69,1.07*19
$GNGSA,A,3,68,79,80,67,82,69,73,,,,,,1.27,0.69,1.07*19
$GPGSV,5,1,17,10,47,254,26,12,26,154,15,15,33,059,25,18,17,350,23*7A
$GPGSV,5,2,17,23,56,330,27,24,15,127,07,25,55,180,22,26,15,306,09*7C
$GPGSV,5,3,17,28,13,236,16,29,45,039,29,31,02,258,08,32,23,202,19*75
$GPGSV,5,4,17,36,52,277,,40,85,352,,41,58,082,36,49,32,274,*79
$GPGSV,5,5,17,50,10,089,*4A
$GLGSV,3,1,09,67,19,035,15,68,65,067,32,69,50,184,26,73,12,299,14*6B
$GLGSV,3,2,09,79,27,181,19,80,42,247,11,81,04,075,,82,10,032,08*64
$GLGSV,3,3,09,83,04,345,16*56
$GNGLL,0419.83903,S,05539.63893,E,084210.00,A,A*65
$GNRMC,084211.00,A,0419.83906,S,05539.63908,E,0.192,,260525,,,A*77
$GNVTG,,T,,M,0.192,N,0.355,K,A*34
$GNGGA,084211.00,0419.83906,S,05539.63908,E,1,12,0.79,-4.0,M,-47.6,M,,*5B
$GNGSA,A,3,25,23,12,15,10,29,18,28,32,26,41,,1.54,0.79,1.32*1A
$GNGSA,A,3,68,79,80,67,82,69,73,,,,,,1.54,0.79,1.32*1A
$GPGSV,5,1,17,10,47,254,29,12,26,154,14,15,33,059,22,18,17,350,20*70
$GPGSV,5,2,17,23,56,330,24,24,15,127,08,25,55,180,22,26,15,306,10*78
$GPGSV,5,3,17,28,13,236,16,29,45,039,29,31,02,258,08,32,23,202,18*74
$GPGSV,5,4,17,36,52,277,,40,85,352,,41,58,082,37,49,32,274,*78
$GPGSV,5,5,17,50,10,089,*4A
$GLGSV,3,1,09,67,19,035,15,68,65,067,32,69,50,184,27,73,12,299,09*66
$GLGSV,3,2,09,79,27,181,19,80,42,247,13,81,04,075,,82,10,032,10*6F
$GLGSV,3,3,09,83,04,345,12*52
$GNGLL,0419.83906,S,05539.63908,E,084211.00,A,A*62
$GNRMC,084212.00,A,0419.83908,S,05539.63923,E,0.131,,260525,,,A*7A
$GNVTG,,T,,M,0.131,N,0.242,K,A*3A
$GNGGA,084212.00,0419.83908,S,05539.63923,E,1,12,0.76,-4.5,M,-47.6,M,,*55
$GNGSA,A,3,25,23,15,10,29,18,28,32,26,41,,,1.36,0.76,1.13*11
$GNGSA,A,3,68,79,80,67,82,69,73,,,,,,1.36,0.76,1.13*12
$GPGSV,5,1,17,10,47,254,30,12,26,154,10,15,33,059,18,18,17,350,18*7E
$GPGSV,5,2,17,23,56,330,23,24,15,127,12,25,55,180,21,26,15,306,09*7F
$GPGSV,5,3,17,28,13,236,16,29,45,039,31,31,02,258,07,32,23,202,19*73
$GPGSV,5,4,17,36,52,277,,40,85,352,,41,58,082,36,49,32,274,*79
$GPGSV,5,5,17,50,10,089,*4A
$GLGSV,3,1,09,67,19,035,14,68,65,067,32,69,50,184,27,73,12,299,13*6C
$GLGSV,3,2,09,79,27,181,16,80,42,247,18,81,04,075,,82,10,032,08*62
$GLGSV,3,3,09,83,04,345,12*52
$GNGLL,0419.83908,S,05539.63923,E,084212.00,A,A*66
$GNRMC,084213.00,A,0419.83910,S,05539.63934,E,0.127,,260525,,,A*73
$GNVTG,,T,,M,0.127,N,0.236,K,A*3E
$GNGGA,084213.00,0419.83910,S,05539.63934,E,1,12,0.69,-4.9,M,-47.6,M,,*59
$GNGSA,A,3,25,23,12,15,10,29,18,28,32,26,41,,1.27,0.69,1.07*19
$GNGSA,A,3,68,79,80,67,82,69,73,,,,,,1.27,0.69,1.07*19
$GPGSV,5,1,17,10,47,254,31,12,26,154,19,15,33,059,18,18,17,350,17*79
$GPGSV,5,2,17,23,56,330,22,24,15,127,12,25,55,180,21,26,15,306,12*74
$GPGSV,5,3,17,28,13,236,16,29,45,039,31,31,02,258,09,32,23,202,21*76
$GPGSV,5,4,17,36,52,277,,40,85,352,,41,58,082,37,49,32,274,*78
$GPGSV,5,5,17,50,10,089,*4A
$GLGSV,3,1,09,67,19,035,14,68,65,067,33,69,50,184,28,73,12,299,15*64
$GLGSV,3,2,09,79,27,181,14,80,42,247,19,81,04,075,,82,10,032,08*61
$GLGSV,3,3,09,83,04,345,14*54
$GNGLL,0419.83910,S,05539.63934,E,084213.00,A,A*68
$GNRMC,084214.00,A,0419.83905,S,05539.63929,E,0.094,,260525,,,D*70
$GNVTG,,T,,M,0.094,N,0.174,K,D*37
$GNGGA,084214.00,0419.83905,S,05539.63929,E,2,12,0.71,-4.5,M,-47.6,M,,0000*50
$GNGSA,A,3,25,23,12,15,10,29,18,24,28,32,26,41,1.41,0.71,1.22*11
$GNGSA,A,3,68,79,80,67,82,69,73,,,,,,1.41,0.71,1.22*17
$GPGSV,5,1,17,10,47,254,30,12,26,154,18,15,33,059,24,18,17,350,20*72
$GPGSV,5,2,17,23,56,330,25,24,15,127,13,25,55,180,19,26,15,306,14*7F
$GPGSV,5,3,17,28,13,236,15,29,45,039,31,31,02,258,07,32,23,202,21*7B
$GPGSV,5,4,17,36,52,277,,40,85,352,,41,58,082,37,49,32,274,*78
$GPGSV,5,5,17,50,10,089,*4A
$GLGSV,3,1,09,67,19,035,17,68,65,067,33,69,50,184,27,73,12,299,17*6A
$GLGSV,3,2,09,79,27,181,16,80,42,247,18,81,04,075,,82,10,032,11*6A
$GLGSV,3,3,09,83,04,345,10*50
$GNGLL,0419.83905,S,05539.63929,E,084214.00,A,D*62
$GNRMC,084215.00,A,0419.83900,S,05539.63928,E,0.180,,260525,,,D*71
$GNVTG,,T,,M,0.180,N,0.333,K,D*32
$GNGGA,084215.00,0419.83900,S,05539.63928,E,2,12,0.69,-4.7,M,-47.6,M,,0000*5E
$GNGSA,A,3,25,23,12,15,10,29,18,24,28,32,26,41,1.27,0.69,1.07*1F
$GNGSA,A,3,68,79,80,67,82,69,73,,,,,,1.27,0.69,1.07*19
$GPGSV,5,1,17,10,47,254,29,12,26,154,19,15,33,059,26,18,17,350,22*7B
$GPGSV,5,2,17,23,56,330,27,24,15,127,13,25,55,180,20,26,15,306,13*70
$GPGSV,5,3,17,28,13,236,14,29,45,039,31,31,02,258,10,32,23,202,21*7C
$GPGSV,5,4,17,36,52,277,,40,85,352,,41,58,082,36,49,32,274,*79
$GPGSV,5,5,17,50,10,089,*4A
$GLGSV,3,1,09,67,19,035,20,68,65,067,33,69,50,184,27,73,12,299,17*6E
$GLGSV,3,2,09,79,27,181,20,80,42,247,17,81,04,075,,82,10,032,08*68
$GLGSV,3,3,09,83,04,345,13*53
$GNGLL,0419.83900,S,05539.63928,E,084215.00,A,D*67
$GNRMC,084216.00,A,0419.83886,S,05539.63929,E,0.286,,260525,,,D*79
$GNVTG,,T,,M,0.286,N,0.530,K,D*32
$GNGGA,084216.00,0419.83886,S,05539.63929,E,2,12,0.69,-4.1,M,-47.6,M,,0000*55
$GNGSA,A,3,25,23,12,15,10,29,18,24,28,32,26,41,1.27,0.69,1.07*1F
$GNGSA,A,3,68,79,80,67,82,69,73,,,,,,1.27,0.69,1.07*19
$GPGSV,5,1,17,10,47,254,29,12,26,154,18,15,33,059,26,18,17,350,22*7A
$GPGSV,5,2,17,23,56,330,27,24,15,127,13,25,55,180,21,26,15,306,15*77
$GPGSV,5,3,17,28,13,236,13,29,45,039,32,31,02,258,08,32,23,202,21*71
$GPGSV,5,4,17,36,52,277,,40,85,352,,41,58,082,36,49,32,274,*79
$GPGSV,5,5,17,50,10,089,*4A
$GLGSV,3,1,09,67,19,035,19,68,65,067,33,69,50,184,26,73,12,299,18*6A
$GLGSV,3,2,09,79,27,181,21,80,42,247,16,81,04,075,,82,10,032,13*62
$GLGSV,3,3,09,83,04,345,13*53
$GNGLL,0419.83886,S,05539.63929,E,084216.00,A,D*6A
$GNRMC,084217.00,A,0419.83881,S,05539.63938,E,0.141,,260525,,,D*77
$GNVTG,,T,,M,0.141,N,0.262,K,D*3A
$GNGGA,084217.00,0419.83881,S,05539.63938,E,2,12,0.69,-4.5,M,-47.6,M,,0000*57
$GNGSA,A,3,25,23,12,15,10,29,18,24,28,32,26,41,1.28,0.69,1.08*1F
$GNGSA,A,3,68,79,80,67,82,69,,,,,,,1.28,0.69,1.08*1D
$GPGSV,5,1,17,10,47,254,29,12,26,154,16,15,33,059,26,18,17,350,22*74
$GPGSV,5,2,17,23,56,330,27,24,15,127,13,25,55,180,21,26,15,306,14*76
$GPGSV,5,3,17,28,13,236,12,29,45,039,33,31,02,258,11,32,23,202,21*79
$GPGSV,5,4,17,36,52,277,,40,85,352,,41,58,082,37,49,32,274,*78
$GPGSV,5,5,17,50,10,089,*4A
$GLGSV,3,1,09,67,19,035,17,68,65,067,33,69,50,184,25,73,12,299,08*66
$GLGSV,3,2,09,79,27,181,21,80,42,247,15,81,04,075,,82,10,032,10*62
$GLGSV,3,3,09,83,04,345,15*55
$GNGLL,0419.83881,S,05539.63938,E,084217.00,A,D*6C
$GNRMC,084218.00,A,0419.83883,S,05539.63943,E,0.309,,260525,,,D*78
$GNVTG,,T,,M,0.309,N,0.572,K,D*32
$GNGGA,084218.00,0419.83883,S,05539.63943,E,2,12,0.75,-4.4,M,-47.6,M,,0000*5A
$GNGSA,A,3,25,23,12,15,10,29,18,24,28,32,26,41,1.34,0.75,1.11*17
$GNGSA,A,3,68,79,80,67,82,69,,,,,,,1.34,0.75,1.11*15
$GPGSV,5,1,17,10,47,254,29,12,26,154,14,15,33,059,26,18,17,350,21*75
$GPGSV,5,2,17,23,56,330,28,24,15,127,13,25,55,180,21,26,15,306,10*7D
$GPGSV,5,3,17,28,13,236,11,29,45,039,32,31,02,258,12,32,23,202,22*7B
$GPGSV,5,4,17,36,52,277,,40,85,352,,41,58,082,37,49,32,274,*78
$GPGSV,5,5,17,50,10,089,*4A
$GLGSV,3,1,09,67,19,035,16,68,65,067,33,69,50,184,26,73,12,299,08*64
$GLGSV,3,2,09,79,27,181,20,80,42,247,13,81,04,075,,82,10,032,12*67
$GLGSV,3,3,09,83,04,345,08*59
$GNGLL,0419.83883,S,05539.63943,E,084218.00,A,D*6D
$GNRMC,084220.00,A,0419.83874,S,05539.63935,E,0.072,,260525,,,D*75
$GNVTG,,T,,M,0.072,N,0.134,K,D*3B
$GNGGA,084220.00,0419.83874,S,05539.63935,E,2,12,0.73,-3.8,M,-47.6,M,,0000*55
$GNGSA,A,3,25,23,12,15,10,29,18,24,28,32,26,41,1.45,0.73,1.26*13
$GNGSA,A,3,68,79,80,67,82,69,,,,,,,1.45,0.73,1.26*11
$GPGSV,5,1,17,10,47,254,27,12,26,154,13,15,33,059,25,18,17,350,21*7F
$GPGSV,5,2,17,23,56,330,25,24,15,127,09,25,55,180,26,26,15,306,10*7C
$GPGSV,5,3,17,28,13,236,15,29,45,039,31,31,02,258,11,32,23,202,23*7E
$GPGSV,5,4,17,36,52,277,,40,85,352,,41,58,082,37,49,32,274,*78
$GPGSV,5,5,17,50,10,089,*4A
$GLGSV,3,1,09,67,19,035,15,68,65,067,33,69,50,184,27,73,12,299,09*67
$GLGSV,3,2,09,79,26,181,20,80,41,246,13,81,04,075,,82,10,032,13*65
$GLGSV,3,3,09,83,04,345,09*58
$GNGLL,0419.83874,S,05539.63935,E,084220.00,A,D*6F
$GNRMC,084221.00,A,0419.83878,S,05539.63933,E,0.296,,260525,,,A*73
$GNVTG,,T,,M,0.296,N,0.549,K,A*38
$GNGGA,084221.00,0419.83878,S,05539.63933,E,1,12,0.83,-3.7,M,-47.6,M,,*5D
$GNGSA,A,3,25,23,15,10,29,18,24,28,32,26,41,,1.42,0.83,1.15*18
$GNGSA,A,3,68,79,80,67,82,69,,,,,,,1.42,0.83,1.15*19
$GPGSV,5,1,17,10,47,254,26,12,26,154,,15,33,059,25,18,17,350,22*7F
$GPGSV,5,2,17,23,56,330,24,24,15,127,09,25,55,180,27,26,15,306,11*7D
$GPGSV,5,3,17,28,13,236,15,29,45,039,31,31,02,258,11,32,23,202,24*79
$GPGSV,5,4,17,36,52,277,,40,85,352,,41,58,082,37,49,32,274,*78
$GPGSV,5,5,17,50,10,089,*4A
$GLGSV,3,1,09,67,19,035,15,68,65,067,33,69,50,184,26,73,12,299,09*66
$GLGSV,3,2,09,79,26,181,20,80,41,246,17,81,04,076,,82,10,032,15*64
$GLGSV,3,3,09,83,04,345,10*50
$GNGLL,0419.83878,S,05539.63933,E,084221.00,A,A*61
$GNRMC,084223.00,A,0419.83885,S,05539.63926,E,0.177,,260525,,,D*7E
$GNVTG,,T,,M,0.177,N,0.328,K,D*30
$GNGGA,084223.00,0419.83885,S,05539.63926,E,2,12,0.76,-3.2,M,-47.6,M,,0000*55
$GNGSA,A,3,25,23,15,10,29,18,24,28,32,26,41,,1.36,0.76,1.14*10
$GNGSA,A,3,68,79,80,67,82,69,73,,,,,,1.36,0.76,1.14*15
$GPGSV,5,1,17,10,47,254,25,12,26,154,,15,33,059,25,18,17,350,22*7C
$GPGSV,5,2,17,23,56,330,25,24,15,127,09,25,55,180,25,26,15,306,11*7E
$GPGSV,5,3,17,28,13,236,16,29,45,039,31,31,02,258,10,32,23,202,25*7A
$GPGSV,5,4,17,36,52,277,,40,85,352,,41,58,082,36,49,32,274,*79
$GPGSV,5,5,17,50,10,089,*4A
$GLGSV,3,1,09,67,19,035,17,68,65,067,33,69,50,184,25,73,12,299,12*6D
$GLGSV,3,2,09,79,26,181,21,80,41,246,11,81,04,076,,82,10,032,13*65
$GLGSV,3,3,09,83,04,345,10*50
$GNGLL,0419.83885,S,05539.63926,E,084223.00,A,D*60
$GNRMC,084226.00,A,0419.83889,S,05539.63901,E,0.238,,260525,,,A*7F
$GNVTG,,T,,M,0.238,N,0.442,K,A*36
$GNGGA,084226.00,0419.83889,S,05539.63901,E,1,12,0.79,-2.5,M,-47.6,M,,*53
$GNGSA,A,3,25,23,15,10,29,18,24,28,32,26,41,,1.40,0.79,1.15*1F
