$GNRMC,105208.00,A,0419.92617,S,05539.66094,E,0.344,,260525,,,A*78
$GNVTG,,T,,M,0.344,N,0.637,K,A*3C
$GNGGA,105208.00,0419.92617,S,05539.66094,E,1,10,0.89,36.7,M,-47.6,M,,*4B
$GNRMC,105209.00,A,0419.92612,S,05539.66081,E,0.271,,260525,,,A*7F
$GNVTG,,T,,M,0.271,N,0.502,K,A*3E
$GNGGA,105209.00,0419.92612,S,05539.66081,E,1,10,0.89,37.1,M,-47.6,M,,*4C
$GNGSA,A,3,32,29,26,10,28,31,16,,,,,,1.93,0.89,1.71*11
$GNGSA,A,3,69,82,80,,,,,,,,,,1.93,0.89,1.71*1C
$GPGSV,5,1,17,10,29,335,21,16,23,276,21,18,26,046,,23,12,015,14*7D
$GPGSV,5,2,17,24,04,071,,25,11,147,,26,31,244,28,27,16,327,18*7A
$GPGSV,5,3,17,28,30,183,21,29,41,136,22,31,16,209,19,32,84,226,38*75
$GPGSV,5,4,17,36,52,277,,40,84,353,,41,58,082,,49,32,274,*7C
$GPGSV,5,5,17,50,10,089,*4A
$GLGSV,3,1,10,68,05,018,,69,49,356,17,70,47,236,16,71,06,211,17*60
$GLGSV,3,2,10,73,15,229,22,80,15,175,18,82,27,103,10,83,35,043,*6C
$GLGSV,3,3,10,84,08,353,,,,,31*57
$GNGLL,0419.92612,S,05539.66081,E,105209.00,A,A*64
$GNRMC,105210.00,A,0419.92597,S,05539.66069,E,0.400,,260525,,,A*7F
$GNVTG,,T,,M,0.400,N,0.741,K,A*3B
$GNGGA,105210.00,0419.92597,S,05539.66069,E,1,10,0.89,37.2,M,-47.6,M,,*4F
$GNGSA,A,3,32,29,26,10,28,31,16,,,,,,1.93,0.89,1.71*11
$GNGSA,A,3,69,82,80,,,,,,,,,,1.93,0.89,1.71*1C
$GPGSV,5,1,17,10,29,335,25,16,23,276,21,18,26,046,,23,12,015,12*7F
$GPGSV,5,2,17,24,04,071,,25,11,147,,26,31,244,28,27,16,327,*73
$GPGSV,5,3,17,28,30,183,22,29,41,136,20,31,16,209,18,32,84,226,38*75
$GPGSV,5,4,17,36,52,277,,40,84,353,,41,58,082,,49,32,274,*7C
$GPGSV,5,5,17,50,10,089,*4A
$GLGSV,3,1,10,68,05,018,,69,49,356,17,70,47,236,18,71,06,211,19*60
$GLGSV,3,2,10,73,15,229,23,80,15,175,21,82,27,103,10,83,35,043,*67
$GLGSV,3,3,10,84,08,353,,,,,39*5F
$GNGLL,0419.92597,S,05539.66069,E,105210.00,A,A*64
$GNRMC,105211.00,A,0419.92584,S,05539.66071,E,0.188,,260525,,,A*70
$GNVTG,,T,,M,0.188,N,0.349,K,A*32
$GNGGA,105211.00,0419.92584,S,05539.66071,E,1,10,1.14,37.1,M,-47.6,M,,*43
$GNGSA,A,3,32,29,26,10,28,31,16,,,,,,2.22,1.14,1.90*12
$GNGSA,A,3,69,82,80,,,,,,,,,,2.22,1.14,1.90*1F
$GPGSV,5,1,17,10,29,335,25,16,23,276,23,18,26,046,19,23,12,015,*76
$GPGSV,5,2,17,24,04,071,,25,11,147,,26,31,244,29,27,16,327,22*72
$GPGSV,5,3,17,28,30,183,23,29,41,136,23,31,16,209,23,32,84,226,40*70
$GPGSV,5,4,17,36,52,277,,40,84,353,,41,58,082,,49,32,274,*7C
$GPGSV,5,5,17,50,10,089,*4A
$GLGSV,3,1,10,68,05,018,,69,49,356,25,70,47,236,20,71,06,211,18*6B
$GLGSV,3,2,10,73,15,229,25,80,15,175,23,82,27,103,12,83,35,043,*61
$GLGSV,3,3,10,84,08,353,,,,,37*51
$GNGLL,0419.92584,S,05539.66071,E,105211.00,A,A*6E
$GNRMC,105212.00,A,0419.92593,S,05539.66045,E,0.460,,260525,,,A*71
$GNVTG,,T,,M,0.460,N,0.852,K,A*30
$GNGGA,105212.00,0419.92593,S,05539.66045,E,1,10,0.89,37.6,M,-47.6,M,,*43
$GNGSA,A,3,32,29,26,10,28,31,16,,,,,,1.93,0.89,1.71*11
$GNGSA,A,3,69,82,80,,,,,,,,,,1.93,0.89,1.71*1C
$GPGSV,5,1,17,10,29,335,23,16,23,276,25,18,26,046,,23,12,015,*7E
$GPGSV,5,2,17,24,04,071,,25,11,147,,26,31,244,29,27,16,327,23*73
$GPGSV,5,3,17,28,30,183,31,29,41,136,24,31,16,209,26,32,84,226,44*75
$GPGSV,5,4,17,36,52,277,,40,84,353,,41,58,082,,49,32,274,*7C
$GPGSV,5,5,17,50,10,089,*4A
$GLGSV,3,1,10,68,05,018,,69,49,356,23,70,47,236,20,71,06,211,18*6D
$GLGSV,3,2,10,73,15,229,26,80,15,175,22,82,27,103,12,83,35,043,*63
$GLGSV,3,3,10,84,08,353,,,,,37*51
$GNGLL,0419.92593,S,05539.66045,E,105212.00,A,A*6C
$GNRMC,105213.00,A,0419.92587,S,05539.66032,E,0.245,,260525,,,A*74
$GNVTG,,T,,M,0.245,N,0.454,K,A*3B
$GNGGA,105213.00,0419.92587,S,05539.66032,E,1,10,0.89,38.0,M,-47.6,M,,*4E
$GNGSA,A,3,32,29,26,10,28,31,16,,,,,,1.93,0.89,1.71*11
$GNGSA,A,3,69,82,80,,,,,,,,,,1.93,0.89,1.71*1C
$GPGSV,5,1,17,10,29,335,25,16,23,276,22,18,26,046,,23,12,015,*7F
$GPGSV,5,2,17,24,04,071,,25,11,147,,26,31,244,32,27,16,327,*78
$GPGSV,5,3,17,28,30,183,32,29,41,136,24,31,16,209,31,32,84,226,42*76
$GPGSV,5,4,17,36,52,277,,40,84,353,,41,58,082,,49,32,274,*7C
$GPGSV,5,5,17,50,10,089,*4A
$GLGSV,3,1,10,68,05,018,,69,49,356,22,70,47,236,19,71,06,211,21*6C
$GLGSV,3,2,10,73,15,229,25,80,15,175,22,82,27,103,15,83,35,043,24*61
$GLGSV,3,3,10,84,08,353,,,,,37*51
$GNGLL,0419.92587,S,05539.66032,E,105213.00,A,A*68
$GNRMC,105215.00,A,0419.92562,S,05539.66029,E,0.118,,260525,,,A*78
$GNVTG,,T,,M,0.118,N,0.219,K,A*3F
$GNGGA,105215.00,0419.92562,S,05539.66029,E,1,10,0.89,37.6,M,-47.6,M,,*40
$GNGSA,A,3,32,29,26,10,28,31,16,,,,,,1.93,0.89,1.71*11
$GNGSA,A,3,69,82,80,,,,,,,,,,1.93,0.89,1.71*1C
$GPGSV,5,1,17,10,29,335,25,16,23,276,20,18,26,046,,23,12,015,*7D
$GPGSV,5,2,17,24,04,071,,25,11,147,,26,31,244,30,27,16,327,21*79
$GPGSV,5,3,17,28,30,183,35,29,41,136,24,31,16,209,33,32,84,226,42*73
$GPGSV,5,4,17,36,52,277,,40,84,353,,41,58,082,,49,32,274,*7C
$GPGSV,5,5,17,50,10,089,*4A
$GLGSV,3,1,10,68,05,018,,69,49,356,21,70,47,236,19,71,06,211,22*6C
$GLGSV,3,2,10,73,15,229,26,80,15,175,19,82,27,103,17,83,35,043,18*67
$GLGSV,3,3,10,84,08,353,,,,,35*53
$GNGLL,0419.92562,S,05539.66029,E,105215.00,A,A*6F
$GNRMC,105216.00,A,0419.92569,S,05539.66012,E,0.127,,260525,,,A*74
$GNVTG,,T,,M,0.127,N,0.235,K,A*3D
$GNGGA,105216.00,0419.92569,S,05539.66012,E,1,10,0.89,38.2,M,-47.6,M,,*4B
$GNGSA,A,3,32,29,26,10,28,31,16,,,,,,1.93,0.89,1.71*11
$GNGSA,A,3,69,82,80,,,,,,,,,,1.93,0.89,1.71*1C
$GPGSV,5,1,17,10,29,335,25,16,23,276,21,18,26,046,25,23,12,015,*7B
$GPGSV,5,2,17,24,04,071,,25,11,147,,26,31,244,30,27,16,327,19*72
$GPGSV,5,3,17,28,30,183,31,29,41,136,24,31,16,209,33,32,84,226,42*77
$GPGSV,5,4,17,36,52,277,,40,84,353,,41,58,082,,49,32,274,*7C
$GPGSV,5,5,17,50,10,089,*4A
$GLGSV,3,1,10,68,05,018,,69,49,356,21,70,47,236,17,71,06,211,23*63
$GLGSV,3,2,10,73,15,229,25,80,15,175,22,82,27,103,17,83,35,043,16*62
$GLGSV,3,3,10,84,08,353,,,,,37*51
$GNGLL,0419.92569,S,05539.66012,E,105216.00,A,A*6F
$GNRMC,105217.00,A,0419.92550,S,05539.66019,E,0.028,,260525,,,A*7A
$GNVTG,,T,,M,0.028,N,0.052,K,A*30
$GNGGA,105217.00,0419.92550,S,05539.66019,E,1,10,0.89,37.9,M,-47.6,M,,*4F
$GNGSA,A,3,32,29,26,10,28,31,16,,,,,,1.93,0.89,1.71*11
$GNGSA,A,3,69,82,80,,,,,,,,,,1.93,0.89,1.71*1C
$GPGSV,5,1,17,10,29,335,26,16,23,276,21,18,26,046,23,23,12,015,*7E
$GPGSV,5,2,17,24,04,071,,25,11,147,,26,31,244,33,27,16,327,*79
$GPGSV,5,3,17,28,30,183,32,29,41,136,25,31,16,209,27,32,84,226,43*71
$GPGSV,5,4,17,36,52,277,,40,84,353,,41,58,082,,49,32,274,*7C
$GPGSV,5,5,17,50,10,089,*4A
$GLGSV,3,1,10,68,05,018,,69,49,356,21,70,47,236,15,71,06,211,22*60
$GLGSV,3,2,10,73,15,229,24,80,15,175,21,82,27,103,22,83,35,043,15*65
$GLGSV,3,3,10,84,08,353,,,,,36*50
$GNGLL,0419.92550,S,05539.66019,E,105217.00,A,A*6F
$GNRMC,105218.00,A,0419.92544,S,05539.66021,E,0.117,,260525,,,A*76
$GNVTG,,T,,M,0.117,N,0.217,K,A*3E
$GNGGA,105218.00,0419.92544,S,05539.66021,E,1,10,0.89,37.9,M,-47.6,M,,*4E
$GNGSA,A,3,32,29,26,10,28,31,16,,,,,,1.93,0.89,1.71*11
$GNGSA,A,3,69,82,80,,,,,,,,,,1.93,0.89,1.71*1C
$GPGSV,5,1,17,10,29,335,24,16,23,276,21,18,26,046,23,23,12,015,*7C
$GPGSV,5,2,17,24,04,071,,25,11,147,21,26,31,244,33,27,16,327,*7A
$GPGSV,5,3,17,28,30,183,33,29,41,136,26,31,16,209,29,32,84,226,43*7D
$GPGSV,5,4,17,36,52,277,,40,84,353,,41,58,082,,49,32,274,*7C
$GPGSV,5,5,17,50,10,089,*4A
$GLGSV,3,1,10,68,05,018,,69,49,356,20,70,47,236,14,71,06,211,19*68
$GLGSV,3,2,10,73,15,229,25,80,15,175,20,82,27,103,22,83,35,043,16*66
$GLGSV,3,3,10,84,08,353,,,,,36*50
$GNGLL,0419.92544,S,05539.66021,E,105218.00,A,A*6E
$GNRMC,105219.00,A,0419.92534,S,05539.66023,E,0.089,,260525,,,A*74
$GNVTG,,T,,M,0.089,N,0.166,K,A*3D
$GNGGA,105219.00,0419.92534,S,05539.66023,E,1,11,0.77,37.9,M,-47.6,M,,*4A
$GNGSA,A,3,32,29,26,10,28,18,31,16,,,,,1.75,0.77,1.58*1A
$GNGSA,A,3,69,82,80,,,,,,,,,,1.75,0.77,1.58*1E
$GPGSV,5,1,17,10,29,335,26,16,23,276,22,18,26,046,23,23,12,015,*7D
$GPGSV,5,2,17,24,04,071,,25,11,147,,26,31,244,32,27,16,327,24*7E
$GPGSV,5,3,17,28,30,183,30,29,41,136,27,31,16,209,31,32,84,226,43*76
$GPGSV,5,4,17,36,52,277,,40,84,353,,41,58,082,,49,32,274,*7C
$GPGSV,5,5,17,50,10,089,*4A
$GLGSV,3,1,10,68,05,018,,69,49,356,22,70,47,236,16,71,06,211,17*66
$GLGSV,3,2,10,73,15,229,25,80,15,175,20,82,27,103,20,83,35,043,15*67
$GLGSV,3,3,10,84,08,353,,,,,37*51
$GNGLL,0419.92534,S,05539.66023,E,105219.00,A,A*6A
$GNRMC,105220.00,A,0419.92542,S,05539.66020,E,0.215,,260525,,,A*7B
$GNVTG,,T,,M,0.215,N,0.399,K,A*38
$GNGGA,105220.00,0419.92542,S,05539.66020,E,1,10,0.89,38.3,M,-47.6,M,,*47
$GNGSA,A,3,32,29,26,10,28,31,16,,,,,,1.93,0.89,1.71*11
$GNGSA,A,3,69,82,80,,,,,,,,,,1.93,0.89,1.71*1C
$GPGSV,5,1,17,10,29,335,26,16,23,276,20,18,26,046,,23,12,015,*7E
$GPGSV,5,2,17,24,04,071,,25,11,147,,26,31,244,32,27,16,327,23*79
$GPGSV,5,3,17,28,30,183,31,29,41,136,26,31,16,209,34,32,84,226,43*73
$GPGSV,5,4,17,36,52,277,,40,84,353,,41,58,082,35,49,32,274,*7A
$GPGSV,5,5,17,50,10,089,*4A
$GLGSV,3,1,10,68,05,018,,69,49,356,23,70,47,236,18,71,06,211,18*66
$GLGSV,3,2,10,73,15,229,26,80,15,175,18,82,27,103,18,83,35,043,15*64
$GLGSV,3,3,10,84,08,353,,,,,39*5F
$GNGLL,0419.92542,S,05539.66020,E,105220.00,A,A*62
$GNRMC,105221.00,A,0419.92543,S,05539.66028,E,0.100,,260525,,,A*74
$GNVTG,,T,,M,0.100,N,0.185,K,A*30
$GNGGA,105221.00,0419.92543,S,05539.66028,E,1,10,0.89,38.4,M,-47.6,M,,*48
$GNGSA,A,3,32,29,26,10,28,31,16,,,,,,1.93,0.89,1.71*11
$GNGSA,A,3,69,82,80,,,,,,,,,,1.93,0.89,1.71*1C
$GPGSV,5,1,17,10,29,335,27,16,23,276,19,18,26,046,,23,12,015,*75
$GPGSV,5,2,17,24,04,071,,25,11,147,,26,31,244,35,27,16,327,24*79
$GPGSV,5,3,17,28,30,183,30,29,41,136,27,31,16,209,33,32,84,226,41*76
$GPGSV,5,4,17,36,52,277,,40,84,353,,41,58,082,34,49,32,274,*7B
$GPGSV,5,5,17,50,10,089,*4A
$GLGSV,3,1,10,68,05,018,,69,49,356,22,70,47,236,18,71,06,211,22*6E
$GLGSV,3,2,10,73,15,229,27,80,15,175,17,82,27,103,19,83,35,043,17*69
$GLGSV,3,3,10,84,08,353,,,,,36*50
$GNGLL,0419.92543,S,05539.66028,E,105221.00,A,A*6A
$GNRMC,105222.00,A,0419.92546,S,05539.66025,E,0.269,,260525,,,A*73
$GNVTG,,T,,M,0.269,N,0.497,K,A*3A
$GNGGA,105222.00,0419.92546,S,05539.66025,E,1,10,0.89,38.7,M,-47.6,M,,*40
$GNGSA,A,3,32,29,26,10,28,31,16,,,,,,1.93,0.89,1.71*11
$GNGSA,A,3,69,82,80,,,,,,,,,,1.93,0.89,1.71*1C
$GPGSV,5,1,17,10,29,335,26,16,23,276,18,18,26,046,,23,12,015,*75
$GPGSV,5,2,17,24,04,071,,25,11,147,,26,31,244,34,27,16,327,21*7D
$GPGSV,5,3,17,28,30,183,29,29,41,136,27,31,16,209,32,32,84,226,43*7D
$GPGSV,5,4,17,36,52,277,,40,84,353,,41,58,082,32,49,32,274,*7D
$GPGSV,5,5,17,50,10,089,*4A
$GLGSV,3,1,10,68,05,018,,69,49,356,21,70,47,236,19,71,06,211,23*6D
$GNRMC,105226.00,A,0419.92549,S,05539.65990,E,0.115,,260525,,,A*74
$GNVTG,,T,,M,0.115,N,0.214,K,A*3F
$GNGGA,105226.00,0419.92549,S,05539.65990,E,1,10,0.89,38.8,M,-47.6,M,,*40
$GNGSA,A,3,32,29,26,10,28,31,16,,,,,,1.93,0.89,1.71*11
$GNGSA,A,3,69,82,80,,,,,,,,,,1.93,0.89,1.71*1C
$GPGSV,5,1,17,10,29,335,22,16,23,276,22,18,26,046,24,23,12,015,*7E
$GPGSV,5,2,17,24,04,071,,25,11,147,,26,31,244,32,27,16,327,23*79
$GPGSV,5,3,17,28,30,183,34,29,41,136,22,31,16,209,24,32,84,226,41*71
$GPGSV,5,4,17,36,52,277,,40,84,353,,41,58,082,31,49,32,274,*7E
$GPGSV,5,5,17,50,10,089,*4A
$GLGSV,3,1,10,68,05,018,,69,49,356,21,70,47,236,20,71,06,211,17*60
$GLGSV,3,2,10,73,15,229,27,80,15,175,21,82,27,103,21,83,35,043,18*68
$GLGSV,3,3,10,84,08,353,,,,,37*51
$GNGLL,0419.92549,S,05539.65990,E,105226.00,A,A*6E
$GNRMC,105227.00,A,0419.92529,S,05539.65985,E,0.434,,260525,,,A*71
$GNVTG,,T,,M,0.434,N,0.804,K,A*32
$GNGGA,105227.00,0419.92529,S,05539.65985,E,1,10,0.89,38.6,M,-47.6,M,,*4D
$GNGSA,A,3,32,29,26,10,28,31,16,,,,,,1.93,0.89,1.71*11
$GNGSA,A,3,69,82,80,,,,,,,,,,1.93,0.89,1.71*1C
$GPGSV,5,1,17,10,29,335,22,16,23,276,23,18,26,046,22,23,12,015,*79
$GPGSV,5,2,17,24,04,071,,25,11,147,,26,31,244,26,27,16,327,23*7C
$GPGSV,5,3,17,28,30,183,31,29,41,136,29,31,16,209,29,32,84,226,43*70
$GPGSV,5,4,17,36,52,277,,40,84,353,,41,58,082,30,49,32,274,*7F
$GPGSV,5,5,17,50,10,089,*4A
$GLGSV,3,1,10,68,05,018,,69,49,356,21,70,47,236,20,71,06,211,23*67
$GLGSV,3,2,10,73,15,229,26,80,15,175,22,82,27,103,19,83,35,043,19*60
$GLGSV,3,3,10,84,08,353,,,,,36*50
$GNGLL,0419.92529,S,05539.65985,E,105227.00,A,A*6D
$GNRMC,105228.00,A,0419.92515,S,05539.65993,E,0.318,,260525,,,A*7F
$GNVTG,,T,,M,0.318,N,0.589,K,A*33
$GNGGA,105228.00,0419.92515,S,05539.65993,E,1,10,0.89,38.3,M,-47.6,M,,*4F
$GNGSA,A,3,32,29,26,10,28,31,16,,,,,,1.93,0.89,1.71*11
$GNGSA,A,3,69,82,80,,,,,,,,,,1.93,0.89,1.71*1C
$GPGSV,5,1,17,10,29,335,22,16,23,276,23,18,26,046,22,23,12,015,*79
$GPGSV,5,2,17,24,04,071,,25,11,147,,26,31,244,33,27,16,327,23*78
$GPGSV,5,3,17,28,30,183,30,29,41,136,19,31,16,209,31,32,84,226,41*79
$GPGSV,5,4,17,36,52,277,,40,84,353,,41,58,082,32,49,32,274,*7D
$GPGSV,5,5,17,50,10,089,*4A
$GLGSV,3,1,10,68,05,018,,69,49,356,21,70,47,236,19,71,06,211,25*6B
$GLGSV,3,2,10,73,15,229,26,80,15,175,20,82,27,103,19,83,35,043,22*6A
$GLGSV,3,3,10,84,08,353,,,,,36*50
$GNGLL,0419.92515,S,05539.65993,E,105228.00,A,A*6A
$GNRMC,105229.00,A,0419.92514,S,05539.66005,E,0.317,,260525,,,A*75
$GNVTG,,T,,M,0.317,N,0.587,K,A*32
$GNGGA,105229.00,0419.92514,S,05539.66005,E,1,10,0.89,38.1,M,-47.6,M,,*48
$GNGSA,A,3,32,29,26,10,28,31,16,,,,,,1.93,0.89,1.71*11
$GPGSV,5,1,17,10,29,335,24,16,23,276,21,18,26,046,22,23,12,015,*7D
$GPGSV,5,2,17,24,04,071,,25,11,147,,26,31,244,31,27,16,327,24*7D
$GPGSV,5,3,17,28,30,183,32,29,41,136,22,31,16,209,22,32,84,226,42*72
$GPGSV,5,4,17,36,52,277,,40,84,353,,41,58,082,32,49,32,274,*7D
$GPGSV,5,5,17,50,10,089,*4A
$GLGSV,3,1,10,68,05,018,,69,49,356,25,70,47,236,19,71,06,211,22*68
$GLGSV,3,2,10,73,15,229,25,80,15,175,19,82,27,103,19,83,35,043,16*64
$GLGSV,3,3,10,84,08,353,,,,,36*50
$GNGLL,0419.92525,S,05539.65993,E,105230.00,A,A*60
$GNRMC,105234.00,A,0419.92499,S,05539.65989,E,0.055,,260525,,,A*76
$GNVTG,,T,,M,0.055,N,0.102,K,A*3E
$GNGGA,105234.00,0419.92499,S,05539.65989,E,1,11,0.77,37.5,M,-47.6,M,,*45
$GNGSA,A,3,32,29,26,10,28,18,31,16,,,,,1.75,0.77,1.58*1A
$GNGSA,A,3,69,82,80,,,,,,,,,,1.75,0.77,1.58*1E
$GPGSV,5,1,17,10,29,335,25,16,23,276,26,18,26,046,23,23,12,015,*7A
$GPGSV,5,2,17,24,04,071,,25,11,147,21,26,31,244,29,27,16,327,21*72
$GPGSV,5,3,17,28,30,183,35,29,41,136,27,31,16,209,28,32,84,226,42*7A
$GPGSV,5,4,17,36,52,277,,40,84,353,,41,58,082,36,49,32,274,*79
$GPGSV,5,5,17,50,10,089,*4A
$GLGSV,3,1,10,68,05,018,,69,49,356,22,70,47,237,18,71,07,212,19*65
$GLGSV,3,2,10,73,15,228,26,80,15,175,20,82,27,103,19,83,35,043,17*6D
$GLGSV,3,3,10,84,08,353,,,,,32*54
$GNGLL,0419.92499,S,05539.65989,E,105234.00,A,A*69
$GNRMC,105235.00,A,0419.92508,S,05539.65979,E,0.067,,260525,,,A*70
$GNVTG,,T,,M,0.067,N,0.124,K,A*3B
$GNGGA,105235.00,0419.92508,S,05539.65979,E,1,11,0.77,37.7,M,-47.6,M,,*40
$GNGSA,A,3,32,29,26,10,28,18,31,16,,,,,1.75,0.77,1.58*1A
$GNGSA,A,3,69,82,80,,,,,,,,,,1.75,0.77,1.58*1E
$GPGSV,5,1,17,10,29,335,26,16,23,276,23,18,26,046,23,23,12,015,*7C
$GPGSV,5,2,17,24,04,071,,25,11,147,18,26,31,244,30,27,16,327,22*73
$GPGSV,5,3,17,28,30,183,34,29,41,136,31,31,16,209,27,32,84,226,42*73
$GPGSV,5,4,17,36,52,277,,40,84,353,,41,58,082,34,49,32,274,*7B
$GPGSV,5,5,17,50,10,089,*4A
$GLGSV,3,1,10,68,05,018,,69,49,356,23,70,47,237,18,71,07,212,19*64
$GLGSV,3,2,10,73,15,228,25,80,15,175,22,82,27,103,21,83,35,043,19*69
$GLGSV,3,3,10,84,08,353,,,,,35*53
$GNGLL,0419.92508,S,05539.65979,E,105235.00,A,A*6E
$GNRMC,105236.00,A,0419.92519,S,05539.65971,E,0.063,,260525,,,A*7F
$GNVTG,,T,,M,0.063,N,0.116,K,A*3E
$GNGGA,105236.00,0419.92519,S,05539.65971,E,1,11,0.77,37.9,M,-47.6,M,,*45
$GNGSA,A,3,32,29,26,10,28,18,31,16,,,,,1.75,0.77,1.58*1A
$GNGSA,A,3,69,82,80,,,,,,,,,,1.75,0.77,1.58*1E
$GPGSV,5,1,17,10,29,335,31,16,23,276,23,18,26,046,22,23,12,015,*7B
$GPGSV,5,2,17,24,04,071,,25,11,147,16,26,31,244,31,27,16,327,22*7C
$GPGSV,5,3,17,28,30,183,34,29,41,136,30,31,16,209,26,32,84,226,42*73
$GPGSV,5,4,17,36,52,277,,40,84,353,,41,58,082,34,49,32,274,*7B
$GPGSV,5,5,17,50,10,089,*4A
$GLGSV,3,1,10,68,05,018,,69,49,356,27,70,47,237,18,71,07,212,21*6B
$GLGSV,3,2,10,73,15,228,26,80,15,175,29,82,27,103,20,83,35,043,19*60
$GLGSV,3,3,10,84,08,353,,,,,35*53
$GNGLL,0419.92519,S,05539.65971,E,105236.00,A,A*65
$GNRMC,105237.00,A,0419.92525,S,05539.65971,E,0.243,,260525,,,A*71
$GNVTG,,T,,M,0.243,N,0.451,K,A*38
$GNGGA,105237.00,0419.92525,S,05539.65971,E,1,11,0.77,38.1,M,-47.6,M,,*4C
$GNGSA,A,3,32,29,26,10,28,18,31,16,,,,,1.75,0.77,1.58*1A
$GNGSA,A,3,69,82,80,,,,,,,,,,1.75,0.77,1.58*1E
$GPGSV,5,1,17,10,29,335,30,16,23,276,26,18,26,046,25,23,12,015,*78
$GPGSV,5,2,17,24,04,071,,25,11,147,16,26,31,244,31,27,16,327,24*7A
$GPGSV,5,3,17,28,30,183,34,29,41,136,28,31,16,209,32,32,84,226,43*7E
$GPGSV,5,4,17,36,52,277,,40,84,353,,41,58,082,36,49,32,274,*79
$GPGSV,5,5,17,50,10,089,*4A
$GLGSV,3,1,10,68,05,018,,69,49,356,27,70,47,237,18,71,07,212,19*60
$GLGSV,3,2,10,73,15,228,23,80,15,175,28,82,27,103,18,83,35,043,21*64
$GLGSV,3,3,10,84,08,353,,,,,35*53
$GNGLL,0419.92525,S,05539.65971,E,105237.00,A,A*6B
$GNRMC,105238.00,A,0419.92517,S,05539.65979,E,0.335,,260525,,,A*77
$GNVTG,,T,,M,0.335,N,0.621,K,A*3D
$GNGGA,105238.00,0419.92517,S,05539.65979,E,1,12,0.74,37.9,M,-47.6,M,,*4D
$GNGSA,A,3,32,29,26,10,28,18,31,25,16,,,,1.65,0.74,1.47*11
$GNGSA,A,3,69,82,80,,,,,,,,,,1.65,0.74,1.47*12
$GPGSV,5,1,17,10,29,335,23,16,23,276,26,18,26,046,22,23,12,015,*7D
$GPGSV,5,2,17,24,04,071,,25,11,147,15,26,31,244,32,27,16,327,23*7D
$GPGSV,5,3,17,28,30,183,31,29,41,136,28,31,16,209,32,32,84,226,42*7A
$GPGSV,5,4,17,36,52,277,,40,84,353,,41,58,082,32,49,32,274,*7D
$GPGSV,5,5,17,50,10,089,*4A
$GLGSV,3,1,10,68,05,018,,69,49,356,24,70,47,237,19,71,07,212,20*68
$GLGSV,3,2,10,73,15,228,22,80,15,175,27,82,27,103,17,83,35,043,22*66
$GLGSV,3,3,10,84,08,353,,,,,36*50
$GNGLL,0419.92517,S,05539.65979,E,105238.00,A,A*6D
$GNRMC,105240.00,A,0419.92514,S,05539.65979,E,0.482,,260525,,,A*70
$GNVTG,,T,,M,0.482,N,0.892,K,A*30
$GNGGA,105240.00,0419.92514,S,05539.65979,E,1,12,0.74,37.9,M,-47.6,M,,*41
$GNGSA,A,3,32,29,26,10,28,18,31,25,16,,,,1.65,0.74,1.47*11
$GNGSA,A,3,69,82,80,,,,,,,,,,1.65,0.74,1.47*12
$GPGSV,5,1,17,10,29,335,29,16,23,276,25,18,26,046,24,23,12,015,*72
$GPGSV,5,2,17,24,04,071,,25,11,147,14,26,31,244,33,27,16,327,20*7E
$GPGSV,5,3,17,28,30,183,32,29,41,136,28,31,16,209,30,32,84,226,42*7B
$GPGSV,5,4,17,36,52,277,,40,84,353,,41,58,082,35,49,32,274,*7A
$GPGSV,5,5,17,50,10,089,*4A
$GLGSV,3,1,10,68,05,018,,69,49,356,24,70,47,237,20,71,07,212,21*63
$GLGSV,3,2,10,73,15,228,26,80,15,175,23,82,27,103,15,83,35,043,20*66
$GLGSV,3,3,10,84,08,353,,,,,36*50
$GNGLL,0419.92514,S,05539.65979,E,105240.00,A,A*61
$GNRMC,105241.00,A,0419.92513,S,05539.65977,E,0.167,,260525,,,A*76
$GNVTG,,T,,M,0.167,N,0.309,K,A*37
$GNGGA,105241.00,0419.92513,S,05539.65977,E,1,12,0.74,37.9,M,-47.6,M,,*49
$GNGSA,A,3,32,29,26,10,28,18,31,25,16,,,,1.65,0.74,1.47*11
$GNGSA,A,3,69,82,80,,,,,,,,,,1.65,0.74,1.47*12
$GPGSV,5,1,17,10,29,335,22,16,23,276,26,18,26,046,22,23,12,015,*7C
$GPGSV,5,2,17,24,04,071,,25,11,147,15,26,31,244,29,27,16,327,16*71
$GPGSV,5,3,17,28,30,183,31,29,41,136,28,31,16,209,30,32,84,226,42*78
$GPGSV,5,4,17,36,52,277,,40,84,353,,41,58,082,34,49,32,274,*7B
$GPGSV,5,5,17,50,10,089,*4A
$GLGSV,3,1,10,68,05,018,,69,49,356,26,70,47,237,20,71,07,212,23*63
$GLGSV,3,2,10,73,15,228,27,80,15,174,22,82,27,103,14,83,35,043,20*66
$GLGSV,3,3,10,84,08,353,,,,,34*52
$GNGLL,0419.92513,S,05539.65977,E,105241.00,A,A*69
$GNRMC,105242.00,A,0419.92511,S,05539.65976,E,0.224,,260525,,,A*72
$GNVTG,,T,,M,0.224,N,0.416,K,A*3A
$GNGGA,105242.00,0419.92511,S,05539.65976,E,1,11,0.86,37.9,M,-47.6,M,,*47
$GNGSA,A,3,32,29,26,10,28,31,25,16,,,,,1.78,0.86,1.56*19
$GNGSA,A,3,69,82,80,,,,,,,,,,1.78,0.86,1.56*13
$GPGSV,5,1,17,10,29,335,22,16,23,276,26,18,26,046,,23,12,015,*7C
$GPGSV,5,2,17,24,04,071,,25,11,147,17,26,31,244,30,27,16,327,*7C
$GPGSV,5,4,17,36,52,277,,40,84,353,,41,58,082,34,49,32,274,*7B
$GPGSV,5,5,17,50,10,089,*4A
$GLGSV,3,1,10,68,05,018,,69,49,356,28,70,47,237,19,71,07,212,25*61
$GLGSV,3,2,10,73,15,228,26,80,15,174,19,82,27,103,14,83,35,043,19*65
$GLGSV,3,3,10,84,08,353,,,,,37*51
$GNGLL,0419.92511,S,05539.65976,E,105242.00,A,A*69
$GNRMC,105243.00,A,0419.92518,S,05539.65972,E,0.071,,260525,,,A*7C
$GNVTG,,T,,M,0.071,N,0.132,K,A*3B
$GNGGA,105243.00,0419.92518,S,05539.65972,E,1,11,0.86,38.1,M,-47.6,M,,*4C
$GNGSA,A,3,32,29,26,10,28,31,25,16,,,,,1.78,0.86,1.56*19
$GNGSA,A,3,69,82,80,,,,,,,,,,1.78,0.86,1.56*13
$GPGSV,5,1,17,10,29,335,23,16,23,276,24,18,26,046,,23,12,015,*7F
$GPGSV,5,2,17,24,04,071,,25,11,147,17,26,31,244,31,27,16,327,24*7B
$GPGSV,5,3,17,28,30,183,34,29,41,136,28,31,16,209,25,32,84,226,44*7F
$GPGSV,5,4,17,36,52,277,,40,84,353,,41,58,082,33,49,32,274,*7C
$GPGSV,5,5,17,50,10,089,*4A
$GLGSV,3,1,10,68,05,018,,69,49,356,27,70,47,237,19,71,07,212,24*6F
$GLGSV,3,2,10,73,15,228,25,80,15,174,21,82,27,104,18,83,35,043,18*67
$GLGSV,3,3,10,84,08,353,,,,,37*51
$GNGLL,0419.92518,S,05539.65972,E,105243.00,A,A*65
$GNRMC,105244.00,A,0419.92534,S,05539.65962,E,0.309,,260525,,,A*78
$GNVTG,,T,,M,0.309,N,0.572,K,A*37
$GNGGA,105244.00,0419.92534,S,05539.65962,E,1,11,0.86,38.4,M,-47.6,M,,*41
$GNGSA,A,3,32,29,26,10,28,31,25,16,,,,,1.78,0.86,1.56*19
$GNGSA,A,3,69,82,80,,,,,,,,,,1.78,0.86,1.56*13
$GPGSV,5,1,17,10,29,335,30,16,23,276,24,18,26,046,,23,12,015,*7D
$GPGSV,5,2,17,24,04,071,,25,11,147,18,26,31,244,30,27,16,327,24*75
$GPGSV,5,3,17,28,30,183,33,29,41,136,26,31,16,209,27,32,84,226,44*74
$GPGSV,5,4,17,36,52,277,,40,84,353,,41,58,082,33,49,32,274,*7C
$GPGSV,5,5,17,50,10,089,*4A
$GLGSV,3,1,10,68,05,018,,69,49,356,26,70,47,237,19,71,07,212,24*6E
$GLGSV,3,2,10,73,15,228,25,80,15,174,21,82,27,104,16,83,35,043,18*69
$GLGSV,3,3,10,84,08,353,,,,,36*50
$GNGLL,0419.92534,S,05539.65962,E,105244.00,A,A*6D
$GNRMC,105245.00,A,0419.92546,S,05539.65960,E,0.089,,260525,,,A*75
$GNVTG,,T,,M,0.089,N,0.165,K,A*3E
$GNGGA,105245.00,0419.92546,S,05539.65960,E,1,11,0.86,38.5,M,-47.6,M,,*46
$GNGSA,A,3,32,29,26,10,28,31,25,16,,,,,1.78,0.86,1.56*19
$GNGSA,A,3,69,82,80,,,,,,,,,,1.78,0.86,1.56*13
$GPGSV,5,1,17,10,29,335,29,16,23,276,24,18,26,046,25,23,12,015,*72
$GPGSV,5,2,17,24,04,071,,25,11,147,18,26,31,244,30,27,16,327,*73
$GPGSV,5,3,17,28,30,183,36,29,41,136,26,31,16,209,28,32,84,226,43*79
$GPGSV,5,4,17,36,52,277,,40,84,353,,41,58,082,35,49,32,274,*7A
$GPGSV,5,5,17,50,10,089,*4A
$GLGSV,3,1,10,68,05,018,,69,49,356,27,70,47,237,20,71,07,212,21*60
$GLGSV,3,2,10,73,15,228,24,80,15,174,24,82,27,104,18,83,35,043,18*63
$GLGSV,3,3,10,84,08,353,,,,,36*50
$GNGLL,0419.92546,S,05539.65960,E,105245.00,A,A*6B
$GNRMC,105252.00,A,0419.92556,S,05539.65959,E,0.135,,260525,,,A*7E
$GNVTG,,T,,M,0.135,N,0.250,K,A*3D
$GNGGA,105252.00,0419.92556,S,05539.65959,E,1,11,0.77,38.5,M,-47.6,M,,*45
$GNGSA,A,3,32,29,26,10,28,18,31,16,,,,,1.76,0.77,1.58*19
$GNGSA,A,3,69,82,80,,,,,,,,,,1.76,0.77,1.58*1D
$GPGSV,5,1,17,10,29,335,26,16,23,276,27,18,26,046,25,23,12,015,*7E
$GPGSV,5,2,17,24,04,071,,25,11,147,,26,31,244,32,27,16,327,21*7B
$GPGSV,5,3,17,28,30,183,36,29,41,136,23,31,16,209,26,32,84,226,41*70
$GPGSV,5,4,17,36,52,277,,40,84,353,41,41,58,082,35,49,32,274,*7F
$GPGSV,5,5,17,50,10,089,*4A
$GLGSV,3,1,10,68,05,018,,69,49,356,22,70,47,237,19,71,07,212,26*68
$GLGSV,3,2,10,73,15,228,25,80,15,174,26,82,27,104,19,83,35,043,16*6F
$GLGSV,3,3,10,84,08,353,,,,,35*53
$GNGLL,0419.92556,S,05539.65959,E,105252.00,A,A*66
$GNRMC,105253.00,A,0419.92563,S,05539.65953,E,0.093,,260525,,,A*7E
$GNVTG,,T,,M,0.093,N,0.172,K,A*33
$GNGGA,105253.00,0419.92563,S,05539.65953,E,1,11,0.77,38.6,M,-47.6,M,,*4B
$GNGSA,A,3,32,29,26,10,28,18,31,16,,,,,1.76,0.77,1.58*19
$GNGSA,A,3,69,82,80,,,,,,,,,,1.76,0.77,1.58*1D
$GPGSV,5,1,17,10,29,335,24,16,23,276,26,18,26,046,25,23,12,015,*7D
$GPGSV,5,2,17,24,04,071,,25,11,147,,26,31,244,31,27,16,327,20*79
$GPGSV,5,3,17,28,30,183,32,29,41,136,30,31,16,209,29,32,84,226,43*7B
$GPGSV,5,4,17,36,52,277,,40,84,353,41,41,58,082,33,49,32,274,*79
$GPGSV,5,5,17,50,10,089,*4A
$GLGSV,3,1,10,68,05,018,,69,49,356,22,70,47,237,18,71,07,212,24*6B
$GLGSV,3,2,10,73,15,228,25,80,15,174,31,82,27,104,20,83,35,043,19*6C
$GLGSV,3,3,10,84,08,353,,,,,37*51
$GNGLL,0419.92563,S,05539.65953,E,105253.00,A,A*6B
$GNRMC,105254.00,A,0419.92571,S,05539.65949,E,0.174,,260525,,,A*79
$GNVTG,,T,,M,0.174,N,0.322,K,A*3C
$GNGGA,105254.00,0419.92571,S,05539.65949,E,1,11,0.77,38.7,M,-47.6,M,,*45
$GNGSA,A,3,32,29,26,10,28,18,31,16,,,,,1.76,0.77,1.58*19
$GNGSA,A,3,69,82,80,,,,,,,,,,1.76,0.77,1.58*1D
$GPGSV,5,1,17,10,29,335,22,16,23,276,26,18,26,046,25,23,12,015,*7B
$GPGSV,5,2,17,24,04,071,,25,11,147,,26,31,244,33,27,16,327,*79
$GPGSV,5,3,17,28,30,183,30,29,41,136,23,31,16,209,30,32,84,226,41*71
$GPGSV,5,4,17,36,52,277,,40,84,353,41,41,58,082,33,49,32,274,*79
$GPGSV,5,5,17,50,10,089,*4A
$GLGSV,3,1,10,68,05,018,,69,49,356,22,70,47,237,20,71,07,212,22*66
$GLGSV,3,2,10,73,15,228,23,80,15,174,25,82,27,104,20,83,35,043,19*6F
$GLGSV,3,3,10,84,08,353,,,,,37*51
$GNGLL,0419.92571,S,05539.65949,E,105254.00,A,A*64
$GNRMC,105255.00,A,0419.92573,S,05539.65949,E,0.160,,260525,,,A*7F
$GNVTG,,T,,M,0.160,N,0.297,K,A*36
$GNGGA,105255.00,0419.92573,S,05539.65949,E,1,11,0.77,38.7,M,-47.6,M,,*46
$GNGSA,A,3,32,29,26,10,28,18,31,16,,,,,1.76,0.77,1.58*19
$GNGSA,A,3,69,82,80,,,,,,,,,,1.76,0.77,1.58*1D
$GPGSV,5,1,17,10,29,335,21,16,23,276,27,18,26,046,25,23,12,015,*79
$GPGSV,5,2,17,24,04,071,,25,11,147,,26,31,244,34,27,16,327,24*78
$GPGSV,5,3,17,28,30,183,31,29,41,136,22,31,16,209,26,32,84,226,43*74
$GPGSV,5,4,17,36,52,277,,40,84,353,41,41,58,082,34,49,32,274,*7E
$GPGSV,5,5,17,50,10,089,*4A
$GLGSV,3,1,10,68,05,018,,69,49,356,21,70,47,237,23,71,07,212,21*65
$GLGSV,3,2,10,73,15,228,23,80,15,174,25,82,27,104,21,83,35,043,21*65
$GLGSV,3,3,10,84,08,353,,,,,39*5F
$GNGLL,0419.92573,S,05539.65949,E,105255.00,A,A*67
$GNRMC,105257.00,A,0419.92576,S,05539.65938,E,0.199,,260525,,,A*78
$GNVTG,,T,,M,0.199,N,0.369,K,A*30
$GNGGA,105257.00,0419.92576,S,05539.65938,E,1,10,0.89,38.8,M,-47.6,M,,*48
$GNGSA,A,3,32,29,26,10,28,31,16,,,,,,1.93,0.89,1.71*11
$GNGSA,A,3,69,82,80,,,,,,,,,,1.93,0.89,1.71*1C
$GPGSV,5,1,17,10,29,335,22,16,23,276,26,18,26,046,23,23,12,015,*7D
$GNRMC,105258.00,A,0419.92566,S,05539.65935,E,0.194,,260525,,,A*76
$GNVTG,,T,,M,0.194,N,0.359,K,A*3E
$GNGGA,105258.00,0419.92566,S,05539.65935,E,1,10,0.89,38.8,M,-47.6,M,,*4B
$GNGSA,A,3,32,29,26,10,28,31,16,,,,,,1.93,0.89,1.71*11
$GNGSA,A,3,69,82,80,,,,,,,,,,1.93,0.89,1.71*1C
$GPGSV,5,1,17,10,29,335,23,16,23,276,26,18,26,046,22,23,12,015,*7D
$GPGSV,5,2,17,24,04,071,,25,11,147,,26,31,244,16,27,16,327,24*78
$GPGSV,5,3,17,28,30,183,35,29,41,136,25,31,16,209,28,32,84,226,42*78
$GPGSV,5,4,17,36,52,277,,40,84,353,42,41,58,082,34,49,32,274,*7D
$GPGSV,5,5,17,50,10,089,*4A
$GLGSV,3,1,10,68,05,018,,69,49,356,27,70,47,237,21,71,07,212,20*60
$GLGSV,3,2,10,73,15,228,22,80,15,174,21,82,27,104,17,83,35,043,16*61
$GLGSV,3,3,10,84,08,353,,,,,37*51
$GNGLL,0419.92566,S,05539.65935,E,105258.00,A,A*65
$GNRMC,105259.00,A,0419.92560,S,05539.65937,E,0.027,,260525,,,A*7A
$GNVTG,,T,,M,0.027,N,0.050,K,A*3D
$GNGGA,105259.00,0419.92560,S,05539.65937,E,1,10,0.89,38.7,M,-47.6,M,,*41
$GNGSA,A,3,32,29,26,10,28,31,16,,,,,,1.93,0.89,1.71*11
$GNGSA,A,3,69,82,80,,,,,,,,,,1.93,0.89,1.71*1C
$GPGSV,5,1,17,10,28,336,25,16,23,276,27,18,26,046,,23,12,015,*78
$GPGSV,5,2,17,24,04,071,,25,11,147,,26,31,244,17,27,16,327,23*7E
$GPGSV,5,3,17,28,30,183,34,29,41,136,26,31,16,209,28,32,84,226,45*7D
$GPGSV,5,4,17,36,52,277,,40,84,353,41,41,58,082,32,49,32,274,*78
$GPGSV,5,5,17,50,10,089,*4A
$GLGSV,3,1,10,68,05,018,,69,49,356,28,70,47,237,20,71,07,212,20*6E
$GLGSV,3,2,10,73,15,228,23,80,15,174,19,82,27,104,17,83,35,043,17*6A
$GLGSV,3,3,10,84,08,353,,,,,36*50
$GNGLL,0419.92560,S,05539.65937,E,105259.00,A,A*60
$GNRMC,105300.00,A,0419.92565,S,05539.65936,E,0.104,,260525,,,A*73
$GNVTG,,T,,M,0.104,N,0.193,K,A*33
$GNGGA,105300.00,0419.92565,S,05539.65936,E,1,10,0.89,38.8,M,-47.6,M,,*47
$GNGSA,A,3,32,29,26,10,28,31,16,,,,,,1.93,0.89,1.71*11
$GNGSA,A,3,69,82,80,,,,,,,,,,1.93,0.89,1.71*1C
$GPGSV,5,1,17,10,28,336,26,16,23,276,27,18,26,046,,23,12,015,*7B
$GPGSV,5,2,17,24,04,071,,25,11,147,,26,31,244,29,27,16,327,22*72
$GPGSV,5,3,17,28,30,183,32,29,41,136,30,31,16,209,27,32,84,226,44*72
$GPGSV,5,4,17,36,52,277,,40,84,353,42,41,58,082,35,49,32,274,*7C
$GPGSV,5,5,17,50,10,089,*4A
$GLGSV,3,1,10,68,05,018,,69,49,356,27,70,47,237,20,71,07,212,19*6B
$GLGSV,3,2,10,73,15,228,22,80,15,174,21,82,27,104,17,83,35,043,19*6E
$GLGSV,3,3,10,84,08,353,,,,,36*50
$GNGLL,0419.92565,S,05539.65936,E,105300.00,A,A*69
$GNRMC,105301.00,A,0419.92576,S,05539.65940,E,0.131,,260525,,,A*77
$GNVTG,,T,,M,0.131,N,0.243,K,A*3B
$GNGGA,105301.00,0419.92576,S,05539.65940,E,1,10,0.89,38.9,M,-47.6,M,,*44
$GNGSA,A,3,32,29,26,10,28,31,16,,,,,,1.93,0.89,1.71*11
$GNGSA,A,3,69,82,80,,,,,,,,,,1.93,0.89,1.71*1C
$GPGSV,5,1,17,10,28,336,24,16,23,276,25,18,26,046,,23,12,015,*7B
$GPGSV,5,2,17,24,04,071,,25,11,147,,26,31,244,30,27,16,327,22*7A
$GPGSV,5,3,17,28,30,183,35,29,41,136,28,31,16,209,26,32,84,226,43*7A
$GPGSV,5,4,17,36,52,277,,40,84,353,41,41,58,082,34,49,32,274,*7E
$GPGSV,5,5,17,50,10,089,*4A
$GLGSV,3,1,10,68,05,018,,69,49,356,25,70,47,237,21,71,07,212,19*68
$GLGSV,3,2,10,73,15,228,22,80,15,174,29,82,27,104,18,83,35,043,21*62
$GLGSV,3,3,10,84,08,353,,,,,36*50
$GNGLL,0419.92576,S,05539.65940,E,105301.00,A,A*6B
$GNRMC,105302.00,A,0419.92580,S,05539.65941,E,0.145,,260525,,,D*7A
$GNVTG,,T,,M,0.145,N,0.269,K,D*35
$GNGGA,105302.00,0419.92580,S,05539.65941,E,2,11,0.77,38.8,M,-47.6,M,,0000*4D
$GNGSA,A,3,32,29,26,10,28,18,31,16,,,,,1.76,0.77,1.58*19
$GNGSA,A,3,69,82,80,,,,,,,,,,1.76,0.77,1.58*1D
$GPGSV,5,1,17,10,28,336,25,16,23,276,25,18,26,046,28,23,12,015,*70
$GPGSV,5,2,17,24,04,071,,25,11,147,,26,31,244,30,27,16,327,23*7B
$GPGSV,5,3,17,28,30,183,34,29,41,136,29,31,16,209,27,32,84,226,42*7A
$GPGSV,5,4,17,36,52,277,,40,84,353,41,41,58,082,33,49,32,274,*79
$GPGSV,5,5,17,50,10,089,*4A
$GLGSV,3,1,10,68,05,018,,69,49,356,24,70,47,237,21,71,07,212,19*69
$GLGSV,3,2,10,73,15,228,21,80,15,174,30,82,27,104,18,83,35,043,20*68
$GLGSV,3,3,10,84,08,353,,,,,36*50
$GNGLL,0419.92580,S,05539.65941,E,105302.00,A,D*65
$GNRMC,105303.00,A,0419.92586,S,05539.65940,E,0.165,,260525,,,D*7E
$GNVTG,,T,,M,0.165,N,0.306,K,D*3F
$GNGGA,105303.00,0419.92586,S,05539.65940,E,2,10,0.89,38.8,M,-47.6,M,,0000*4B
$GNGSA,A,3,32,29,26,10,28,31,16,,,,,,1.93,0.89,1.71*11
$GNRMC,105304.00,A,0419.92591,S,05539.65939,E,0.079,,260525,,,D*7D
$GNVTG,,T,,M,0.079,N,0.145,K,D*36
$GNGGA,105304.00,0419.92591,S,05539.65939,E,2,10,0.89,38.9,M,-47.6,M,,0000*45
$GNGSA,A,3,32,29,26,10,28,31,16,,,,,,1.93,0.89,1.71*11
$GNGSA,A,3,69,82,80,,,,,,,,,,1.93,0.89,1.71*1C
$GPGSV,5,1,17,10,28,336,25,16,23,276,27,18,26,046,,23,12,015,*78
$GPGSV,5,2,17,24,04,071,,25,11,147,,26,31,244,29,27,16,327,20*70
$GPGSV,5,3,17,28,30,183,36,29,41,136,27,31,16,209,27,32,84,226,44*70
$GPGSV,5,4,17,36,52,277,,40,84,353,42,41,58,082,36,49,32,274,*7F
$GPGSV,5,5,17,50,10,089,*4A
$GLGSV,3,1,10,68,05,018,,69,49,356,22,70,47,237,20,71,07,212,14*63
$GLGSV,3,2,10,73,15,228,22,80,15,174,27,82,27,104,16,83,35,043,20*63
$GLGSV,3,3,10,84,08,353,,,,,36*50
$GNGLL,0419.92591,S,05539.65939,E,105304.00,A,D*6C
$GNRMC,105307.00,A,0419.92597,S,05539.65952,E,0.251,,260525,,,D*7D
$GNVTG,,T,,M,0.251,N,0.465,K,D*39
$GNGGA,105307.00,0419.92597,S,05539.65952,E,2,10,0.89,38.9,M,-47.6,M,,0000*4D
$GNGSA,A,3,32,29,26,10,28,31,16,,,,,,1.93,0.89,1.71*11
$GNGSA,A,3,69,82,80,,,,,,,,,,1.93,0.89,1.71*1C
$GPGSV,5,1,17,10,28,336,22,16,23,275,26,18,26,047,24,23,12,015,*7A
$GPGSV,5,2,17,24,04,071,,25,11,147,,26,31,244,31,27,16,327,21*78
$GPGSV,5,3,17,28,30,183,31,29,41,136,24,31,16,209,26,32,84,226,43*72
$GPGSV,5,4,17,36,52,277,,40,84,353,42,41,58,082,31,49,32,274,*78
$GPGSV,5,5,17,50,10,089,*4A
$GLGSV,3,1,10,68,05,018,,69,49,356,27,70,47,237,22,71,07,212,19*69
$GLGSV,3,2,10,73,15,228,25,80,15,174,22,82,27,104,12,83,35,043,19*6F
$GLGSV,3,3,10,84,08,353,,,,,35*53
$GNGLL,0419.92597,S,05539.65952,E,105307.00,A,D*64
$GNRMC,105310.00,A,0419.92609,S,05539.65949,E,0.192,,260525,,,D*79
$GNVTG,,T,,M,0.192,N,0.356,K,D*32
$GNGGA,105310.00,0419.92609,S,05539.65949,E,2,11,0.77,39.2,M,-47.6,M,,0000*4F
$GNGSA,A,3,32,29,26,10,28,18,31,16,,,,,1.76,0.77,1.58*19
$GNGSA,A,3,69,82,80,,,,,,,,,,1.76,0.77,1.58*1D
$GPGSV,5,1,17,10,28,336,26,16,23,275,27,18,26,047,23,23,12,015,*78
$GPGSV,5,2,17,24,04,071,,25,11,147,,26,31,244,28,27,16,327,23*72
$GPGSV,5,3,17,28,30,183,32,29,41,136,21,31,16,209,21,32,84,226,42*72
$GNRMC,105312.00,A,0419.92624,S,05539.65935,E,0.083,,260525,,,D*7E
$GNVTG,,T,,M,0.083,N,0.154,K,D*33
$GNGGA,105312.00,0419.92624,S,05539.65935,E,2,10,0.89,39.7,M,-47.6,M,,0000*4C
$GNGSA,A,3,32,29,26,10,28,31,16,,,,,,1.93,0.89,1.71*11
$GNGSA,A,3,69,82,80,,,,,,,,,,1.93,0.89,1.71*1C
$GPGSV,5,1,17,10,28,336,26,16,23,275,28,18,26,047,22,23,12,016,*75
$GPGSV,5,2,17,24,04,070,,25,11,147,,26,31,244,30,27,16,327,21*78
$GPGSV,5,3,17,28,30,183,31,29,41,136,22,31,16,209,25,32,84,226,42*76
$GNRMC,105313.00,A,0419.92620,S,05539.65935,E,0.221,,260525,,,D*71
$GNVTG,,T,,M,0.221,N,0.409,K,D*34
$GNGGA,105313.00,0419.92620,S,05539.65935,E,2,11,0.77,39.6,M,-47.6,M,,0000*48
$GNGSA,A,3,32,29,26,10,28,18,31,16,,,,,1.76,0.77,1.58*19
$GNGSA,A,3,69,82,80,,,,,,,,,,1.76,0.77,1.58*1D
$GPGSV,5,1,17,10,28,336,25,16,23,275,27,18,26,047,25,23,12,016,*7E
$GPGSV,5,2,17,24,04,070,,25,11,146,,26,31,244,28,27,16,327,20*71
$GPGSV,5,3,17,28,30,183,34,29,41,136,21,31,16,209,23,32,84,226,43*77
$GPGSV,5,4,17,36,52,277,,40,84,353,42,41,58,082,34,49,32,274,*7D
$GPGSV,5,5,17,50,10,089,*4A
$GLGSV,3,1,10,68,05,018,,69,49,356,24,70,47,237,22,71,07,212,*62
$GLGSV,3,2,10,73,15,228,23,80,15,174,26,82,27,104,14,83,35,043,18*6A
$GLGSV,3,3,10,84,08,353,,,,,37*51
$GNGLL,0419.92620,S,05539.65935,E,105313.00,A,D*6F
$GNRMC,105314.00,A,0419.92623,S,05539.65933,E,0.232,,260525,,,D*71
$GNVTG,,T,,M,0.232,N,0.430,K,D*3C
$GNGGA,105314.00,0419.92623,S,05539.65933,E,2,11,0.85,39.8,M,-47.6,M,,0000*49
$GNGSA,A,3,32,29,26,10,28,18,31,16,,,,,1.82,0.85,1.61*15
$GNGSA,A,3,69,82,80,,,,,,,,,,1.82,0.85,1.61*11
$GPGSV,5,1,17,10,28,336,24,16,23,275,25,18,26,047,25,23,12,016,*7D
$GPGSV,5,2,17,24,04,070,,25,11,146,,26,31,244,29,27,16,327,19*7A
$GPGSV,5,3,17,28,30,183,37,29,41,136,25,31,16,209,30,32,84,226,43*72
$GPGSV,5,4,17,36,52,277,,40,84,353,43,41,58,082,33,49,32,274,*7B
$GPGSV,5,5,17,50,10,089,*4A
$GLGSV,3,1,10,68,05,018,,69,49,356,25,70,47,237,23,71,07,212,*62
$GLGSV,3,2,10,73,15,228,24,80,15,174,25,82,27,104,13,83,35,043,18*69
$GLGSV,3,3,10,84,08,353,,,,,35*53
$GNGLL,0419.92623,S,05539.65933,E,105314.00,A,D*6D
$GNRMC,105315.00,A,0419.92625,S,05539.65936,E,0.091,,260525,,,D*78
$GNVTG,,T,,M,0.091,N,0.168,K,D*3F
$GNGGA,105315.00,0419.92625,S,05539.65936,E,2,11,0.77,39.8,M,-47.6,M,,0000*46
$GNGSA,A,3,32,29,26,10,28,18,31,16,,,,,1.76,0.77,1.58*19
$GNGSA,A,3,69,82,80,,,,,,,,,,1.76,0.77,1.58*1D
$GPGSV,5,1,17,10,28,336,24,16,23,275,25,18,26,047,25,23,12,016,22*7D
$GPGSV,5,2,17,24,04,070,,25,11,146,,26,31,244,29,27,17,327,20*71
$GPGSV,5,3,17,28,30,183,35,29,41,136,27,31,16,209,29,32,84,226,40*79
$GPGSV,5,4,17,36,52,277,,40,84,353,41,41,58,082,33,49,32,274,*79
$GPGSV,5,5,17,50,10,089,*4A
$GLGSV,3,1,10,68,05,018,,69,49,356,25,70,47,237,22,71,07,212,*63
$GLGSV,3,2,10,73,15,228,24,80,15,174,31,82,27,104,18,83,35,043,18*67
$GLGSV,3,3,10,84,08,353,,,,,36*50
$GNGLL,0419.92625,S,05539.65936,E,105315.00,A,D*6F
$GNRMC,105316.00,A,0419.92633,S,05539.65931,E,0.093,,260525,,,D*79
$GNVTG,,T,,M,0.093,N,0.172,K,D*36
$GNGGA,105316.00,0419.92633,S,05539.65931,E,2,11,0.77,40.0,M,-47.6,M,,0000*43
$GNGSA,A,3,32,29,26,10,28,18,31,16,,,,,1.76,0.77,1.58*19
$GNGSA,A,3,69,82,80,,,,,,,,,,1.76,0.77,1.58*1D
$GPGSV,5,1,17,10,28,336,26,16,23,275,23,18,26,047,26,23,12,016,*7A
$GPGSV,5,2,17,24,04,070,,25,11,146,,26,31,244,33,27,17,327,21*7B
$GPGSV,5,3,17,28,30,182,34,29,41,136,24,31,16,209,20,32,84,226,43*70
$GPGSV,5,4,17,36,52,277,,40,84,353,39,41,58,082,34,49,32,274,*71
$GPGSV,5,5,17,50,10,089,*4A
$GLGSV,3,1,10,68,05,018,,69,49,356,25,70,47,237,21,71,07,212,25*67
$GLGSV,3,2,10,73,15,228,25,80,15,174,30,82,27,104,13,83,35,043,18*6C
$GLGSV,3,3,10,84,08,353,,,,,37*51
$GNGLL,0419.92633,S,05539.65931,E,105316.00,A,D*6C
$GNRMC,105317.00,A,0419.92640,S,05539.65929,E,0.125,,260525,,,D*79
$GNVTG,,T,,M,0.125,N,0.231,K,D*3E
$GNGGA,105317.00,0419.92640,S,05539.65929,E,2,11,0.77,40.1,M,-47.6,M,,0000*4E
$GNGSA,A,3,32,29,26,10,28,18,31,16,,,,,1.76,0.77,1.58*19
$GNGSA,A,3,69,82,80,,,,,,,,,,1.76,0.77,1.58*1D
$GPGSV,5,1,17,10,28,336,27,16,23,275,22,18,26,047,25,23,12,016,*79
$GPGSV,5,2,17,24,04,070,,25,11,146,,26,31,244,33,27,17,327,21*7B
$GPGSV,5,3,17,28,30,182,33,29,40,136,27,31,16,209,29,32,84,226,42*7D
$GPGSV,5,4,17,36,52,277,,40,84,353,42,41,58,082,34,49,32,274,*7D
$GPGSV,5,5,17,50,10,089,*4A
$GLGSV,3,1,10,68,05,018,,69,49,356,25,70,47,237,22,71,07,212,21*60
$GLGSV,3,2,10,73,15,228,23,80,15,174,30,82,27,104,17,83,35,043,20*65
$GLGSV,3,3,10,84,08,353,,,,,39*5F
$GNGLL,0419.92640,S,05539.65929,E,105317.00,A,D*60
$GNRMC,105318.00,A,0419.92644,S,05539.65917,E,0.105,,260525,,,D*7D
$GNVTG,,T,,M,0.105,N,0.194,K,D*30
$GNGGA,105318.00,0419.92644,S,05539.65917,E,2,11,0.77,40.4,M,-47.6,M,,0000*4D
$GNGSA,A,3,32,29,26,10,28,18,31,16,,,,,1.76,0.77,1.58*19
$GNGSA,A,3,69,82,80,,,,,,,,,,1.76,0.77,1.58*1D
$GPGSV,5,1,17,10,28,336,25,16,23,275,25,18,26,047,25,23,12,016,*7C
$GPGSV,5,2,17,24,04,070,,25,11,146,,26,31,244,28,27,17,327,20*70
$GPGSV,5,3,17,28,30,182,33,29,40,136,32,31,16,209,28,32,84,226,41*7B
$GPGSV,5,4,17,36,52,277,,40,84,353,42,41,58,082,32,49,32,274,*7B
$GPGSV,5,5,17,50,10,089,*4A
$GLGSV,3,1,10,68,05,018,,69,49,356,23,70,47,237,22,71,07,212,19*6D
$GLGSV,3,2,10,73,15,228,22,80,15,174,29,82,27,104,11,83,35,043,18*61
$GLGSV,3,3,10,84,08,353,,,,,36*50
$GNGLL,0419.92644,S,05539.65917,E,105318.00,A,D*66
$GNRMC,105319.00,A,0419.92651,S,05539.65907,E,0.230,,260525,,,D*7C
$GNVTG,,T,,M,0.230,N,0.427,K,D*38
$GNGGA,105319.00,0419.92651,S,05539.65907,E,2,10,0.89,40.6,M,-47.6,M,,0000*4B
$GNGSA,A,3,32,29,26,10,28,31,16,,,,,,1.93,0.89,1.71*11
$GNGSA,A,3,69,82,80,,,,,,,,,,1.93,0.89,1.71*1C
$GPGSV,5,1,17,10,28,336,24,16,23,275,26,18,26,047,,23,12,016,*79
$GPGSV,5,2,17,24,04,070,,25,11,146,,26,31,244,25,27,17,327,20*7D
$GPGSV,5,3,17,28,30,182,34,29,40,136,30,31,16,208,28,32,84,226,44*7A
$GPGSV,5,4,17,36,52,277,,40,84,353,43,41,58,082,32,49,32,274,*7A
$GPGSV,5,5,17,50,10,089,*4A
$GLGSV,3,1,10,68,05,018,,69,49,356,22,70,47,237,22,71,07,212,18*6D
$GLGSV,3,2,10,73,15,228,22,80,15,174,27,82,27,104,14,83,35,043,18*6A
$GLGSV,3,3,10,84,08,353,,,,,36*50
$GNGLL,0419.92651,S,05539.65907,E,105319.00,A,D*62
$GPGSV,5,3,17,28,30,182,34,29,40,136,27,31,16,208,26,32,84,231,41*71
$GPGSV,5,4,17,36,52,277,,40,84,353,43,41,58,082,34,49,32,274,*7C
$GPGSV,5,5,17,50,10,089,*4A
$GLGSV,3,1,10,68,05,018,,69,49,356,22,70,47,237,23,71,07,212,20*67
$GLGSV,3,2,10,73,15,228,26,80,15,174,26,82,27,104,17,83,35,043,20*67
$GLGSV,3,3,10,84,08,353,,,,,36*50
$GNGLL,0419.92686,S,05539.65884,E,105322.00,A,D*6A
$GNRMC,105328.00,A,0419.92714,S,05539.65845,E,0.030,,260525,,,D*7B
$GNVTG,,T,,M,0.030,N,0.055,K,D*3B
$GNGGA,105328.00,0419.92714,S,05539.65845,E,2,10,0.89,42.3,M,-47.6,M,,0000*49
$GNGSA,A,3,32,29,26,10,28,31,16,,,,,,1.93,0.89,1.71*11
$GNGSA,A,3,69,82,80,,,,,,,,,,1.93,0.89,1.71*1C
$GPGSV,5,1,17,10,28,336,23,16,23,275,27,18,26,047,,23,12,016,*7F
$GPGSV,5,2,17,24,04,070,,25,11,146,,26,31,244,21,27,17,327,23*7A
$GPGSV,5,3,17,28,30,182,34,29,40,136,30,31,16,208,22,32,84,231,41*73
$GPGSV,5,4,17,36,52,277,,40,84,353,42,41,58,082,30,49,32,274,*79
$GPGSV,5,5,17,50,10,089,*4A
$GLGSV,3,1,10,68,05,018,,69,49,356,28,70,47,237,24,71,07,212,21*6B
$GLGSV,3,2,10,73,15,228,27,80,15,174,29,82,27,104,13,83,35,043,20*6D
$GLGSV,3,3,10,84,08,353,,,,,37*51
$GNGLL,0419.92714,S,05539.65845,E,105328.00,A,D*67
$GNRMC,105332.00,A,0419.92719,S,05539.65828,E,0.163,,260525,,,D*71
$GNVTG,,T,,M,0.163,N,0.303,K,D*3C
$GNGGA,105332.00,0419.92719,S,05539.65828,E,2,11,0.86,42.4,M,-47.6,M,,0000*4D
$GNGSA,A,3,32,29,26,10,28,31,25,16,,,,,1.78,0.86,1.56*19
$GNGSA,A,3,69,82,80,,,,,,,,,,1.78,0.86,1.56*13
$GPGSV,5,1,17,10,28,336,28,16,23,275,27,18,26,047,,23,12,016,*74
$GPGSV,5,2,17,24,04,070,,25,11,146,18,26,31,244,28,27,17,327,20*79
$GPGSV,5,3,17,28,30,182,31,29,40,136,30,31,16,208,30,32,84,231,42*76
$GPGSV,5,4,17,36,52,277,,40,84,353,41,41,58,082,36,49,32,274,*7C
$GPGSV,5,5,17,50,10,089,*4A
$GLGSV,3,1,10,68,05,018,,69,49,356,25,70,47,237,23,71,07,212,21*61
$GLGSV,3,2,10,73,15,228,27,80,15,174,28,82,27,104,18,83,35,043,18*6C
$GLGSV,3,3,10,84,08,353,,,,,37*51
$GNGLL,0419.92719,S,05539.65828,E,105332.00,A,D*6A
$GNRMC,105334.00,A,0419.92726,S,05539.65812,E,0.087,,260525,,,D*79
$GNVTG,,T,,M,0.087,N,0.162,K,D*32
$GNGGA,105334.00,0419.92726,S,05539.65812,E,2,11,0.86,42.5,M,-47.6,M,,0000*4F
$GNGSA,A,3,32,29,26,10,28,31,25,16,,,,,1.78,0.86,1.56*19
$GNGSA,A,3,69,82,80,,,,,,,,,,1.78,0.86,1.56*13
$GPGSV,5,1,17,10,28,336,27,16,23,275,28,18,26,047,23,23,12,016,*75
$GPGSV,5,2,17,24,04,070,,25,11,146,18,26,31,244,30,27,17,327,21*71
$GPGSV,5,3,17,28,30,182,35,29,40,136,34,31,16,208,24,32,84,231,42*73
$GPGSV,5,4,17,36,52,277,,40,84,353,41,41,58,082,36,49,32,274,*7C
$GPGSV,5,5,17,50,10,089,*4A
$GLGSV,3,1,10,68,05,018,,69,49,356,23,70,47,237,24,71,07,212,18*6A
$GLGSV,3,2,10,73,15,228,27,80,15,174,30,82,27,104,17,83,35,043,17*65
$GLGSV,3,3,10,84,08,353,,,,,37*51
$GNGLL,0419.92726,S,05539.65812,E,105334.00,A,D*69
$GNRMC,105335.00,A,0419.92718,S,05539.65810,E,0.427,,260525,,,D*79
$GNVTG,,T,,M,0.427,N,0.790,K,D*37
$GNGGA,105335.00,0419.92718,S,05539.65810,E,2,12,0.74,42.2,M,-47.6,M,,0000*48
$GNGSA,A,3,32,29,26,10,28,18,31,25,16,,,,1.65,0.74,1.48*1E
$GNGSA,A,3,69,82,80,,,,,,,,,,1.65,0.74,1.48*1D
$GPGSV,5,1,17,10,28,336,23,16,23,275,25,18,26,047,22,23,12,016,*7D
$GPGSV,5,2,17,24,04,070,,25,11,146,15,26,31,244,32,27,17,327,21*7E
$GPGSV,5,3,17,28,30,182,35,29,40,136,24,31,16,208,25,32,84,231,42*73
$GPGSV,5,4,17,36,52,277,,40,84,353,43,41,58,082,35,49,32,274,*7D
$GPGSV,5,5,17,50,10,089,*4A
$GLGSV,3,1,10,68,05,018,,69,49,356,20,70,47,237,25,71,07,212,18*68
$GLGSV,3,2,10,73,15,228,27,80,15,174,30,82,27,104,18,83,35,043,18*65
$GLGSV,3,3,10,84,08,353,,,,,35*53
$GNGLL,0419.92718,S,05539.65810,E,105335.00,A,D*67
$GNRMC,105336.00,A,0419.92715,S,05539.65815,E,0.167,,260525,,,D*73
$GNVTG,,T,,M,0.167,N,0.310,K,D*3A
$GNGGA,105336.00,0419.92715,S,05539.65815,E,2,12,0.74,41.9,M,-47.6,M,,0000*4B
$GNGSA,A,3,32,29,26,10,28,18,31,25,16,,,,1.65,0.74,1.48*1E
$GNGSA,A,3,69,82,80,,,,,,,,,,1.65,0.74,1.48*1D
$GPGSV,5,1,17,10,28,336,23,16,23,275,26,18,26,047,21,23,12,016,*7D
$GPGSV,5,2,17,24,04,070,,25,11,146,17,26,31,244,32,27,17,327,23*7E
$GPGSV,5,3,17,28,30,182,36,29,40,136,29,31,16,208,25,32,84,231,42*7D
$GPGSV,5,4,17,36,52,277,,40,84,353,41,41,58,082,32,49,32,274,*78
$GPGSV,5,5,17,50,10,089,*4A
$GLGSV,3,1,10,68,05,018,,69,49,356,20,70,47,237,25,71,07,212,18*68
$GLGSV,3,2,10,73,15,228,28,80,15,174,31,82,27,104,17,83,35,043,22*6D
$GLGSV,3,3,10,84,08,353,,,,,38*5E
$GNGLL,0419.92715,S,05539.65815,E,105336.00,A,D*6C
$GNRMC,105337.00,A,0419.92704,S,05539.65828,E,0.273,,260525,,,D*7A
$GNVTG,,T,,M,0.273,N,0.505,K,D*3E
$GNGGA,105337.00,0419.92704,S,05539.65828,E,2,12,0.74,41.6,M,-47.6,M,,0000*4B
$GNGSA,A,3,32,29,26,10,28,18,31,25,16,,,,1.65,0.74,1.48*1E
$GNGSA,A,3,69,82,80,,,,,,,,,,1.65,0.74,1.48*1D
$GPGSV,5,1,17,10,28,336,24,16,23,275,26,18,26,047,20,23,12,016,21*78
$GPGSV,5,2,17,24,04,070,,25,11,146,19,26,31,244,33,27,17,327,22*70
$GPGSV,5,3,17,28,30,182,35,29,40,136,28,31,16,208,23,32,84,231,44*7F
$GPGSV,5,4,17,36,52,277,,40,84,353,40,41,58,082,32,49,32,274,*79
$GPGSV,5,5,17,50,10,089,*4A
$GPGSV,5,4,17,36,52,277,,40,84,353,42,41,58,082,32,49,32,274,*7B
$GPGSV,5,5,17,50,10,089,*4A
$GLGSV,3,1,10,68,05,018,,69,49,356,26,70,47,237,25,71,07,212,20*65
$GLGSV,3,2,10,73,15,228,29,80,15,174,30,82,27,104,17,83,35,043,21*6E
$GLGSV,3,3,10,84,08,353,,,,,38*5E
$GNGLL,0419.92696,S,05539.65844,E,105338.00,A,D*6C
$GNRMC,105339.00,A,0419.92703,S,05539.65846,E,0.067,,260525,,,D*7C
$GNVTG,,T,,M,0.067,N,0.125,K,D*3F
$GNGGA,105339.00,0419.92703,S,05539.65846,E,2,12,0.74,41.3,M,-47.6,M,,0000*4F
$GNGSA,A,3,32,29,26,10,28,18,31,25,16,,,,1.65,0.74,1.48*1E
$GNGSA,A,3,69,82,80,,,,,,,,,,1.65,0.74,1.48*1D
$GPGSV,5,1,17,10,28,336,23,16,23,275,26,18,26,047,20,23,12,016,18*75
$GPGSV,5,2,17,24,04,070,,25,11,146,17,26,31,244,30,27,17,327,20*7F
$GPGSV,5,3,17,28,30,182,34,29,40,136,27,31,16,208,16,32,84,231,44*77
$GNRMC,105340.00,A,0419.92707,S,05539.65847,E,0.106,,260525,,,D*71
$GNVTG,,T,,M,0.106,N,0.196,K,D*31
$GNGGA,105340.00,0419.92707,S,05539.65847,E,2,12,0.68,41.2,M,-47.6,M,,0000*48
$GNGSA,A,3,32,29,26,10,28,18,31,23,25,16,,,1.46,0.68,1.29*14
$GNGSA,A,3,69,82,80,,,,,,,,,,1.46,0.68,1.29*16
$GPGSV,5,1,17,10,28,336,30,16,23,275,27,18,26,047,20,23,12,016,18*76
$GPGSV,5,2,17,24,04,070,,25,11,146,16,26,31,244,31,27,17,327,19*75
$GPGSV,5,3,17,28,30,182,30,29,40,136,29,31,16,208,19,32,84,231,42*74
$GPGSV,5,4,17,36,52,277,,40,84,353,41,41,58,082,34,49,32,274,*7E
$GPGSV,5,5,17,50,10,089,*4A
$GLGSV,3,1,10,68,05,018,,69,49,356,28,70,47,237,24,71,07,212,21*6B
$GLGSV,3,2,10,73,15,228,22,80,15,174,28,82,27,104,18,83,35,043,20*62
$GLGSV,3,3,10,84,08,353,,,,,36*50
$GNGLL,0419.92707,S,05539.65847,E,105340.00,A,D*69
$GNRMC,105341.00,A,0419.92708,S,05539.65844,E,0.089,,260525,,,D*7A
$GNVTG,,T,,M,0.089,N,0.164,K,D*3A
$GNGGA,105341.00,0419.92708,S,05539.65844,E,2,12,0.68,41.2,M,-47.6,M,,0000*45
$GNGSA,A,3,32,29,26,10,28,18,31,23,25,16,,,1.46,0.68,1.29*14
$GNGSA,A,3,69,82,80,,,,,,,,,,1.46,0.68,1.29*16
$GPGSV,5,1,17,10,28,336,21,16,23,275,28,18,26,047,19,23,12,016,18*73
$GPGSV,5,2,17,24,04,070,,25,11,146,13,26,31,244,30,27,17,327,18*70
$GPGSV,5,3,17,28,30,182,31,29,40,136,27,31,16,208,18,32,84,231,44*7C
$GPGSV,5,4,17,36,52,277,,40,84,353,42,41,58,082,35,49,32,274,*7C
$GPGSV,5,5,17,50,10,089,*4A
$GLGSV,3,1,10,68,05,018,,69,49,356,28,70,47,237,24,71,07,212,21*6B
$GLGSV,3,2,10,73,15,228,24,80,15,174,28,82,27,104,18,83,35,043,22*66
$GLGSV,3,3,10,84,08,353,,,,,35*53
$GNGLL,0419.92708,S,05539.65844,E,105341.00,A,D*64
$GNRMC,105342.00,A,0419.92712,S,05539.65841,E,0.162,,260525,,,D*73
$GNVTG,,T,,M,0.162,N,0.301,K,D*3F
$GNGGA,105342.00,0419.92712,S,05539.65841,E,2,12,0.71,41.3,M,-47.6,M,,0000*41
$GNGSA,A,3,32,29,26,10,28,18,31,23,16,,,,1.54,0.71,1.37*17
$GNGSA,A,3,69,82,80,,,,,,,,,,1.54,0.71,1.37*12
$GPGSV,5,1,17,10,28,336,24,16,23,275,27,18,26,047,19,23,12,016,20*72
$GPGSV,5,2,17,24,04,070,,25,11,146,10,26,31,244,30,27,17,327,19*72
$GPGSV,5,3,17,28,30,182,33,29,40,136,32,31,16,208,18,32,84,231,44*7A
$GPGSV,5,4,17,36,52,277,,40,84,353,43,41,58,082,36,49,32,274,*7E
$GPGSV,5,5,17,50,10,089,*4A
$GLGSV,3,1,10,68,05,018,,69,49,356,27,70,47,237,23,71,07,212,20*62
$GLGSV,3,2,10,73,15,228,30,80,15,174,30,82,27,104,17,83,35,043,22*65
$GLGSV,3,3,10,84,08,353,,,,,31*57
$GNGLL,0419.92712,S,05539.65841,E,105342.00,A,D*69
$GNRMC,105351.00,A,0419.92773,S,05539.65844,E,0.453,,260525,,,D*74
$GNVTG,,T,,M,0.453,N,0.839,K,D*38
$GNGGA,105351.00,0419.92773,S,05539.65844,E,2,12,0.68,41.7,M,-47.6,M,,0000*4D
$GNGSA,A,3,32,29,26,10,28,18,31,23,25,16,,,1.46,0.68,1.29*14
$GNGSA,A,3,69,82,80,,,,,,,,,,1.46,0.68,1.29*16
$GPGSV,5,1,17,10,28,336,23,16,23,275,28,18,26,047,21,23,12,016,16*74
$GPGSV,5,2,17,24,04,070,,25,11,146,19,26,31,244,32,27,17,327,19*79
$GPGSV,5,3,17,28,30,182,36,29,40,136,25,31,16,208,19,32,84,231,43*7F
$GPGSV,5,4,17,36,52,277,,40,84,353,42,41,58,082,33,49,32,274,*7A
$GPGSV,5,5,17,50,10,089,*4A
$GLGSV,3,1,10,68,04,019,,69,48,356,21,70,47,238,25,71,07,212,19*66
$GLGSV,3,2,10,73,15,228,29,80,15,174,30,82,27,104,12,83,35,043,21*6B
$GLGSV,3,3,10,84,08,353,,,,,35*53
$GNGLL,0419.92773,S,05539.65844,E,105351.00,A,D*69
$GNRMC,105352.00,A,0419.92777,S,05539.65849,E,0.077,,260525,,,D*7C
$GNVTG,,T,,M,0.077,N,0.143,K,D*3E
$GNGGA,105352.00,0419.92777,S,05539.65849,E,2,12,0.68,41.7,M,-47.6,M,,0000*47
$GNGSA,A,3,32,29,26,10,28,18,31,23,25,16,,,1.46,0.68,1.29*14
$GNGSA,A,3,69,82,80,,,,,,,,,,1.46,0.68,1.29*16
$GPGSV,5,1,17,10,28,336,25,16,23,275,29,18,26,047,20,23,12,016,17*73
$GPGSV,5,2,17,24,04,070,,25,11,146,18,26,31,244,31,27,17,327,17*75
$GPGSV,5,3,17,28,30,182,33,29,40,136,31,31,16,208,24,32,84,231,43*71
$GPGSV,5,4,17,36,52,277,,40,84,353,41,41,58,082,33,49,32,274,*79
$GPGSV,5,5,17,50,10,089,*4A
$GLGSV,3,1,10,68,04,019,,69,48,356,22,70,47,238,26,71,07,212,18*67
$GLGSV,3,2,10,73,15,228,31,80,15,174,31,82,27,104,17,83,35,043,19*6D
$GLGSV,3,3,10,84,08,353,,,,,35*53
$GNGLL,0419.92777,S,05539.65849,E,105352.00,A,D*63
$GNRMC,105353.00,A,0419.92785,S,05539.65853,E,0.210,,260525,,,D*78
$GNVTG,,T,,M,0.210,N,0.389,K,D*39
$GNGGA,105353.00,0419.92785,S,05539.65853,E,2,12,0.68,41.8,M,-47.6,M,,0000*4F
$GNGSA,A,3,32,29,26,10,28,18,31,23,25,16,,,1.46,0.68,1.29*14
$GNGSA,A,3,69,82,80,,,,,,,,,,1.46,0.68,1.29*16
$GPGSV,5,1,17,10,28,336,22,16,23,275,29,18,26,047,22,23,12,016,19*78
$GPGSV,5,2,17,24,04,070,,25,11,146,18,26,31,244,32,27,17,327,16*77
$GPGSV,5,3,17,28,30,182,31,29,40,136,32,31,16,208,24,32,84,231,42*71
$GPGSV,5,4,17,36,52,277,,40,84,353,42,41,58,082,32,49,32,274,*7B
$GPGSV,5,5,17,50,10,089,*4A
$GLGSV,3,1,10,68,04,019,,69,48,356,25,70,47,238,25,71,07,212,18*63
$GLGSV,3,2,10,73,15,228,25,80,15,174,30,82,27,104,19,83,35,043,21*6C
$GLGSV,3,3,10,84,08,353,,,,,35*53
$GNGLL,0419.92785,S,05539.65853,E,105353.00,A,D*64
$GNRMC,105354.00,A,0419.92770,S,05539.65877,E,0.264,,260525,,,D*70
$GNVTG,,T,,M,0.264,N,0.488,K,D*3C
$GNGGA,105354.00,0419.92770,S,05539.65877,E,2,12,0.68,41.5,M,-47.6,M,,0000*49
$GNGSA,A,3,32,29,26,10,28,18,31,23,25,16,,,1.46,0.68,1.29*14
$GNGSA,A,3,69,82,80,,,,,,,,,,1.46,0.68,1.29*16
$GPGSV,5,1,17,10,28,336,20,16,23,275,20,18,26,047,22,23,12,016,19*73
$GPGSV,5,2,17,24,04,070,,25,11,146,16,26,31,244,35,27,17,327,18*70
$GPGSV,5,3,17,28,30,182,34,29,40,136,31,31,16,208,27,32,84,231,41*77
$GPGSV,5,4,17,36,52,277,,40,84,353,41,41,58,082,33,49,32,274,*79
$GPGSV,5,5,17,50,10,089,*4A
$GLGSV,3,1,10,68,04,019,,69,48,356,24,70,47,238,25,71,07,212,19*63
$GLGSV,3,2,10,73,15,228,26,80,15,174,34,82,27,104,19,83,35,043,20*6A
$GLGSV,3,3,10,84,08,353,,,,,36*50
$GNGLL,0419.92770,S,05539.65877,E,105354.00,A,D*6F
$GNRMC,105355.00,A,0419.92779,S,05539.65884,E,0.081,,260525,,,D*7D
$GNVTG,,T,,M,0.081,N,0.150,K,D*35
$GNGGA,105355.00,0419.92779,S,05539.65884,E,2,12,0.68,41.7,M,-47.6,M,,0000*4F
$GNGSA,A,3,32,29,26,10,28,18,31,23,25,16,,,1.46,0.68,1.29*14
$GNGSA,A,3,69,82,80,,,,,,,,,,1.46,0.68,1.29*16
$GPGSV,5,1,17,10,28,336,29,16,23,275,23,18,26,047,20,23,12,016,16*74
$GPGSV,5,2,17,24,04,070,,25,11,146,19,26,31,244,34,27,17,327,19*7F
$GPGSV,5,3,17,28,30,182,36,29,40,136,30,31,16,208,25,32,84,231,44*73
$GPGSV,5,4,17,36,52,277,,40,84,353,41,41,58,082,33,49,32,274,*79
$GPGSV,5,5,17,50,10,089,*4A
$GLGSV,3,1,10,68,04,019,,69,48,356,22,70,47,238,25,71,07,212,18*64
$GLGSV,3,2,10,73,15,228,26,80,15,174,34,82,27,104,20,83,35,043,21*61
$GLGSV,3,3,10,84,08,353,,,,,38*5E
$GNGLL,0419.92779,S,05539.65884,E,105355.00,A,D*6B
$GNRMC,105356.00,A,0419.92781,S,05539.65888,E,0.137,,260525,,,D*79
$GNVTG,,T,,M,0.137,N,0.254,K,D*3E
$GNGGA,105356.00,0419.92781,S,05539.65888,E,2,12,0.68,41.7,M,-47.6,M,,0000*47
$GNGSA,A,3,32,29,26,10,28,18,31,23,25,16,,,1.46,0.68,1.29*14
$GNGSA,A,3,69,82,80,,,,,,,,,,1.46,0.68,1.29*16
$GPGSV,5,1,17,10,28,336,21,16,23,275,23,18,26,047,17,23,12,016,14*7A
$GPGSV,5,2,17,24,04,070,,25,11,146,19,26,31,244,33,27,17,327,19*78
$GPGSV,5,3,17,28,30,182,34,29,40,136,30,31,16,208,25,32,84,231,44*71
$GPGSV,5,4,17,36,52,277,,40,84,353,42,41,58,082,34,49,32,274,*7D
$GPGSV,5,5,17,50,10,089,*4A
$GLGSV,3,1,10,68,04,019,,69,48,356,20,70,47,238,27,71,07,212,19*65
$GLGSV,3,2,10,73,15,228,30,80,15,174,32,82,27,104,19,83,35,043,20*6B
$GLGSV,3,3,10,84,08,353,,,,,39*5F
$GNGLL,0419.92781,S,05539.65888,E,105356.00,A,D*63
$GPGSV,5,1,17,10,28,336,28,16,23,275,24,18,26,047,14,23,12,016,11*72
$GPGSV,5,2,17,24,04,070,,25,11,146,16,26,31,244,32,27,17,327,18*77
$GPGSV,5,3,17,28,30,182,34,29,40,136,31,31,16,208,26,32,84,231,40*77
$GPGSV,5,4,17,36,52,277,,40,84,353,44,41,58,082,34,49,32,274,*7B
$GPGSV,5,5,17,50,10,089,*4A
$GLGSV,3,1,10,68,04,019,,69,48,356,19,70,47,238,26,71,07,212,20*64
$GLGSV,3,2,10,73,15,228,31,80,15,174,30,82,27,104,18,83,35,043,21*68
$GLGSV,3,3,10,84,08,353,,,,,37*51
$GNGLL,0419.92786,S,05539.65889,E,105357.00,A,D*64
$GNRMC,105358.00,A,0419.92776,S,05539.65900,E,0.248,,260525,,,D*75
$GNVTG,,T,,M,0.248,N,0.458,K,D*3F
$GNGGA,105358.00,0419.92776,S,05539.65900,E,2,12,0.74,41.7,M,-47.6,M,,0000*4D
$GNGSA,A,3,32,29,26,10,28,18,31,25,16,,,,1.66,0.74,1.48*1D
$GNGSA,A,3,69,82,80,,,,,,,,,,1.66,0.74,1.48*1E
$GPGSV,5,1,17,10,28,336,21,16,23,275,25,18,26,047,14,23,12,016,09*73
$GPGSV,5,2,17,24,04,070,,25,11,146,16,26,31,244,34,27,17,327,17*7E
$GPGSV,5,3,17,28,30,182,30,29,40,136,27,31,16,208,24,32,84,231,42*74
$GPGSV,5,4,17,36,52,277,,40,84,353,41,41,58,082,34,49,32,274,*7E
$GPGSV,5,5,17,50,10,089,*4A
$GLGSV,3,1,10,68,04,019,,69,48,356,21,70,47,238,25,71,07,212,18*67
$GLGSV,3,2,10,73,15,228,30,80,15,174,30,82,27,105,17,83,35,043,21*67
$GLGSV,3,3,10,84,08,353,,,,,36*50
$GNGLL,0419.92776,S,05539.65900,E,105358.00,A,D*64
$GNRMC,105359.00,A,0419.92794,S,05539.65898,E,0.206,,260525,,,D*72
$GNVTG,,T,,M,0.206,N,0.381,K,D*36
$GNGGA,105359.00,0419.92794,S,05539.65898,E,2,12,0.74,42.1,M,-47.6,M,,0000*45
$GNGSA,A,3,32,29,26,10,28,18,31,25,16,,,,1.66,0.74,1.48*1D
$GNGSA,A,3,69,82,80,,,,,,,,,,1.66,0.74,1.48*1E
$GPGSV,5,1,17,10,28,336,29,16,23,275,25,18,26,047,14,23,12,016,08*7A
$GPGSV,5,2,17,24,04,070,,25,11,146,17,26,31,244,33,27,17,327,17*78
$GPGSV,5,3,17,28,30,182,36,29,40,136,28,31,16,208,23,32,84,231,44*7C
$GPGSV,5,4,17,36,52,277,,40,84,353,44,41,58,082,34,49,32,274,*7B
$GPGSV,5,5,17,50,10,089,*4A
$GLGSV,3,1,10,68,04,019,,69,48,356,19,70,47,238,25,71,07,212,15*61
$GLGSV,3,2,10,73,15,228,25,80,15,174,29,82,27,105,16,83,35,044,20*6C
$GLGSV,3,3,10,84,08,353,,,,,37*51
$GNGLL,0419.92794,S,05539.65898,E,105359.00,A,D*69
$GNRMC,105400.00,A,0419.92791,S,05539.65904,E,0.248,,260525,,,D*72
$GNVTG,,T,,M,0.248,N,0.460,K,D*34
$GNGGA,105400.00,0419.92791,S,05539.65904,E,2,12,0.74,42.1,M,-47.6,M,,0000*4F
$GNGSA,A,3,32,29,26,10,28,18,31,25,16,,,,1.66,0.74,1.48*1D
$GNGSA,A,3,69,82,80,,,,,,,,,,1.66,0.74,1.48*1E
$GPGSV,5,1,17,10,28,336,26,16,23,275,26,18,26,047,16,23,12,016,08*74
$GPGSV,5,2,17,24,04,070,,25,11,146,17,26,31,244,29,27,17,327,16*72
$GPGSV,5,3,17,28,30,182,35,29,40,136,29,31,16,208,21,32,84,231,42*7A
$GPGSV,5,4,17,36,52,277,,40,84,353,43,41,58,082,34,49,32,274,*7C
$GPGSV,5,5,17,50,10,089,*4A
$GLGSV,3,1,10,68,04,019,,69,48,356,18,70,47,238,25,71,07,212,16*63
$GLGSV,3,2,10,73,15,228,29,80,15,174,28,82,27,105,16,83,35,044,18*6A
$GLGSV,3,3,10,84,09,354,,,,,35*55
$GNGLL,0419.92791,S,05539.65904,E,105400.00,A,D*63
$GNRMC,105401.00,A,0419.92798,S,05539.65908,E,0.247,,260525,,,D*79
$GNVTG,,T,,M,0.247,N,0.457,K,D*3F
$GNGGA,105401.00,0419.92798,S,05539.65908,E,2,12,0.74,42.2,M,-47.6,M,,0000*48
$GNGSA,A,3,32,29,26,10,28,18,31,25,16,,,,1.66,0.74,1.48*1D
$GNGSA,A,3,69,82,80,,,,,,,,,,1.66,0.74,1.48*1E
$GPGSV,5,1,17,10,28,336,24,16,23,275,26,18,26,047,19,23,12,016,08*79
$GPGSV,5,2,17,24,04,070,,25,11,146,17,26,31,244,32,27,17,327,16*78
$GPGSV,5,3,17,28,30,182,32,29,40,136,29,31,16,208,29,32,84,231,41*76
$GPGSV,5,4,17,36,52,277,,40,84,353,43,41,58,082,34,49,32,274,*7C
$GPGSV,5,5,17,50,10,089,*4A
$GLGSV,3,1,10,68,04,019,,69,48,356,21,70,47,238,25,71,07,212,16*69
$GLGSV,3,2,10,73,15,228,19,80,15,174,29,82,27,105,15,83,35,044,17*64
$GLGSV,3,3,10,84,09,354,,,,,36*56
$GNGLL,0419.92798,S,05539.65908,E,105401.00,A,D*67
$GNRMC,105402.00,A,0419.92801,S,05539.65914,E,0.067,,260525,,,D*78
$GNVTG,,T,,M,0.067,N,0.124,K,D*3E
$GNGGA,105402.00,0419.92801,S,05539.65914,E,2,12,0.74,42.2,M,-47.6,M,,0000*49
$GNGSA,A,3,32,29,26,10,28,18,31,25,16,,,,1.66,0.74,1.48*1D
$GNGSA,A,3,69,82,80,,,,,,,,,,1.66,0.74,1.48*1E
$GPGSV,5,1,17,10,28,336,21,16,23,275,25,18,26,047,18,23,12,016,08*7E
$GPGSV,5,2,17,24,04,070,,25,11,146,16,26,31,244,34,27,17,327,17*7E
$GPGSV,5,3,17,28,30,182,35,29,40,136,18,31,16,208,26,32,84,231,42*7F
$GPGSV,5,4,17,36,52,277,,40,84,353,41,41,58,082,34,49,32,274,*7E
$GPGSV,5,5,17,50,10,089,*4A
$GLGSV,3,1,10,68,04,019,,69,48,356,22,70,47,238,25,71,07,212,19*65
$GLGSV,3,2,10,73,15,228,22,80,15,174,29,82,27,105,15,83,35,044,16*6D
$GLGSV,3,3,10,84,09,354,,,,,37*57
$GNGLL,0419.92801,S,05539.65914,E,105402.00,A,D*66
$GNRMC,105406.00,A,0419.92802,S,05539.65935,E,0.152,,260525,,,D*7B
$GNVTG,,T,,M,0.152,N,0.282,K,D*36
$GNGGA,105406.00,0419.92802,S,05539.65935,E,2,12,0.72,42.2,M,-47.6,M,,0000*4B
$GNGSA,A,3,32,29,26,10,28,18,31,25,16,,,,1.61,0.72,1.44*10
$GNGSA,A,3,69,82,80,73,,,,,,,,,1.61,0.72,1.44*17
$GPGSV,5,1,17,10,28,336,21,16,23,275,26,18,26,047,19,23,12,016,08*7C
$GPGSV,5,2,17,24,04,070,,25,11,146,15,26,31,244,33,27,17,327,17*7A
$GPGSV,5,3,17,28,30,182,33,29,40,136,31,31,16,208,16,32,84,231,43*70
$GPGSV,5,4,17,36,52,277,,40,84,353,41,41,58,082,34,49,32,274,*7E
$GPGSV,5,5,17,50,10,089,*4A
$GLGSV,3,1,10,68,04,019,,69,48,356,20,70,47,238,24,71,07,212,22*6E
$GLGSV,3,2,10,73,15,228,29,80,15,174,31,82,27,105,16,83,35,044,20*69
$GLGSV,3,3,10,84,09,354,,,,,36*56
$GNGLL,0419.92802,S,05539.65935,E,105406.00,A,D*62
$GNRMC,105407.00,A,0419.92802,S,05539.65940,E,0.011,,260525,,,D*7E
$GNVTG,,T,,M,0.011,N,0.021,K,D*3B
$GNGGA,105407.00,0419.92802,S,05539.65940,E,2,12,0.72,42.1,M,-47.6,M,,0000*4B
$GNGSA,A,3,32,29,26,10,28,18,31,25,16,,,,1.61,0.72,1.44*10
$GNGSA,A,3,69,82,80,73,,,,,,,,,1.61,0.72,1.44*17
$GPGSV,5,1,17,10,28,336,22,16,23,275,25,18,26,047,18,23,12,016,08*7D
$GPGSV,5,2,17,24,04,070,,25,11,146,16,26,31,244,34,27,17,327,18*71
$GPGSV,5,3,17,28,30,182,32,29,40,136,27,31,16,208,18,32,84,231,41*7A
$GPGSV,5,4,17,36,52,277,,40,84,353,41,41,58,082,34,49,32,274,*7E
$GPGSV,5,5,17,50,10,089,*4A
$GLGSV,3,1,10,68,04,019,,69,48,356,21,70,47,238,25,71,07,212,22*6E
$GLGSV,3,2,10,73,15,228,28,80,15,174,31,82,27,105,15,83,35,044,20*6B
$GLGSV,3,3,10,84,09,354,,,,,35*55
$GNGLL,0419.92802,S,05539.65940,E,105407.00,A,D*61
$GNRMC,105408.00,A,0419.92807,S,05539.65943,E,0.101,,260525,,,D*77
$GNVTG,,T,,M,0.101,N,0.188,K,D*39
$GNGGA,105408.00,0419.92807,S,05539.65943,E,2,12,0.72,42.0,M,-47.6,M,,0000*43
$GNGSA,A,3,32,29,26,10,28,18,31,25,16,,,,1.61,0.72,1.44*10
$GNGSA,A,3,69,82,80,73,,,,,,,,,1.61,0.72,1.44*17
$GPGSV,5,1,17,10,28,336,23,16,23,275,26,18,26,047,19,23,12,016,08*7E
$GPGSV,5,2,17,24,04,070,,25,11,146,15,26,31,244,33,27,17,327,18*75
$GPGSV,5,3,17,28,30,182,39,29,40,136,28,31,16,208,21,32,84,231,41*74
$GPGSV,5,4,17,36,52,277,,40,84,353,42,41,58,082,33,49,32,274,*7A
$GPGSV,5,5,17,50,10,089,*4A
$GLGSV,3,1,10,68,04,019,,69,48,356,20,70,47,238,25,71,07,212,22*6F
$GLGSV,3,2,10,73,15,228,29,80,15,174,31,82,27,105,16,83,35,044,19*63
$GLGSV,3,3,10,84,09,354,,,,,35*55
$GNGLL,0419.92807,S,05539.65943,E,105408.00,A,D*68
$GNRMC,105411.00,A,0419.92795,S,05539.65946,E,0.190,,260525,,,D*76
$GNVTG,,T,,M,0.190,N,0.352,K,D*34
$GNGGA,105411.00,0419.92795,S,05539.65946,E,2,12,0.72,42.0,M,-47.6,M,,0000*4A
$GNGSA,A,3,32,29,26,10,28,18,31,25,16,,,,1.61,0.72,1.44*10
$GNGSA,A,3,69,82,80,73,,,,,,,,,1.61,0.72,1.44*17
$GPGSV,5,1,17,10,28,336,24,16,23,275,26,18,26,047,20,23,12,016,08*73
$GPGSV,5,2,17,24,04,070,,25,11,146,13,26,31,244,28,27,17,327,17*76
$GPGSV,5,3,17,28,30,182,36,29,40,136,34,31,16,208,19,32,84,231,40*7C
$GPGSV,5,4,17,36,52,277,,40,84,353,42,41,58,082,31,49,32,274,*78
$GPGSV,5,5,17,50,10,089,*4A
$GLGSV,3,1,10,68,04,019,,69,48,356,23,70,47,238,25,71,07,212,20*6E
$GLGSV,3,2,10,73,15,228,29,80,15,174,29,82,27,105,17,83,35,044,18*6A
$GLGSV,3,3,10,84,09,354,,,,,37*57
$GNGLL,0419.92795,S,05539.65946,E,105411.00,A,D*61
$GNRMC,105413.00,A,0419.92799,S,05539.65952,E,0.219,,260525,,,D*7F
$GNVTG,,T,,M,0.219,N,0.406,K,D*30
$GNGGA,105413.00,0419.92799,S,05539.65952,E,2,12,0.72,42.2,M,-47.6,M,,0000*43
$GNGSA,A,3,32,29,26,10,28,18,31,25,16,,,,1.61,0.72,1.44*10
$GNGSA,A,3,69,82,80,73,,,,,,,,,1.61,0.72,1.44*17
