b0@.A
#e K"d%<H,
 Bc{4Ta:R 
Yh
AfB5*:CLMVW1U!Xb.$GNRMC,120213.00,A,0419.74184,S,05539.73480,E,0.112,,220525,,,A*70
$GNVTG,,T,,M,0.112,N,0.208,K,A*35
$GNGNS,120213.00,0419.74184,S,05539.73480,E,AA,14,0.68,6.3,-47.6,,*50
$GNGGA,120213.00,0419.74184,S,05539.73480,E,1,12,0.68,6.3,M,-47.6,M,,*7C
$GNGSA,A,3,32,28,27,18,26,31,16,29,10,,,,1.70,0.68,1.56*1A
$GNGSA,A,3,66,87,65,88,67,,,,,,,,1.70,0.68,1.56*1B
$GPGSV,5,1,17,08,02,321,22,10,18,357,35,16,25,249,27,18,32,075,17*78
$GPGSV,5,2,17,23,04,034,31,25,02,129,,26,29,218,18,27,37,316,28*75
$GPGSV,5,3,17,28,44,160,20,29,20,147,10,31,29,191,20,32,66,355,27*79
$GPGSV,5,4,17,36,52,277,,40,84,353,,41,58,082,,49,32,274,*7C
$GPGSV,5,5,17,50,10,089,*4A
$GLGSV,2,1,08,65,26,358,23,66,53,298,23,67,24,232,18,76,12,149,*61
$GLGSV,2,2,08,77,15,195,,86,20,130,,87,49,085,22,88,30,003,27*60
$GNGLL,0419.74184,S,05539.73480,E,120213.00,A,A*69
$GNGRS,120213.00,1,-12.5,0.0,-9.5,-12.7,3.6,-1.3,-4.9,17.1,-2.5,,,*49
$GNGRS,120213.00,1,-2.0,-7.3,0.1,1.4,6.8,,,,,,,*71
$GNGST,120213.00,73713,,,,3.7,5.3,8.4*75
$GNZDA,120213.00,22,05,2025,00,00*7B
$GNGBS,120213.00,3.7,5.3,8.4,,,,*52
$GNTXT,01,01,01,More than 100 frame errors, UART RX was disabled*70
b0@.A
#e K"D%<,) Bc{4Ta:R 
Yh
AfB5*CLMVW1UXb.($GNRMC,120214.00,A,0419.74188,S,05539.73481,E,0.212,,220525,,,A*79
$GNVTG,,T,,M,0.212,N,0.393,K,A*35
$GNGNS,120214.00,0419.74188,S,05539.73481,E,AA,14,0.68,6.2,-47.6,,*5B
$GNGGA,120214.00,0419.74188,S,05539.73481,E,1,12,0.68,6.2,M,-47.6,M,,*77
$GNGSA,A,3,32,28,27,18,26,31,16,29,10,,,,1.70,0.68,1.56*1A
$GNGSA,A,3,66,87,65,88,67,,,,,,,,1.70,0.68,1.56*1B
$GPGSV,5,1,17,08,02,321,22,10,18,357,35,16,25,249,27,18,32,075,18*77
$GPGSV,5,2,17,23,04,034,31,25,02,129,,26,29,218,17,27,37,316,28*7A
$GPGSV,5,3,17,28,44,160,17,29,20,147,11,31,29,191,20,32,66,355,26*7D
$GPGSV,5,4,17,36,52,277,,40,84,353,,41,58,082,,49,32,274,*7C
$GPGSV,5,5,17,50,10,089,*4A
$GLGSV,2,1,08,65,26,358,23,66,53,298,22,67,24,232,17,76,12,149,*6F
$GLGSV,2,2,08,77,15,195,,86,20,130,,87,49,085,21,88,30,003,26*62
$GNGLL,0419.74188,S,05539.73481,E,120214.00,A,A*63
$GNGRS,120214.00,1,-9.9,0.4,-8.7,-13.9,0.7,-0.5,-3.8,17.3,-2.5,,,*71
$GNGRS,120214.00,1,-3.4,-8.1,-0.6,1.7,8.0,,,,,,,*51
$GNGST,120214.00,108967,,,,3.8,5.3,8.4*4D
$GNZDA,120214.00,22,05,2025,00,00*7C
$GNGBS,120214.00,3.8,5.3,8.4,,,,*5A
$GNTXT,01,01,01,More than 100 frame errors, UART RX was disabled*70
b0@.A
#e K!"#%<,; Bcz{4Ta:R 
Yh
AfB5*?CLMVW1U3X^Ib.j$GNRMC,120215.00,A,0419.74197,S,05539.73486,E,0.236,,220525,,,A*77
$GNVTG,,T,,M,0.236,N,0.438,K,A*35
$GNGNS,120215.00,0419.74197,S,05539.73486,E,AA,13,0.76,6.1,-47.6,,*58
$GNGGA,120215.00,0419.74197,S,05539.73486,E,1,12,0.76,6.1,M,-47.6,M,,*73
$GNGSA,A,3,32,28,27,18,26,31,16,10,,,,,1.87,0.76,1.71*13
$GNGSA,A,3,66,87,65,88,67,,,,,,,,1.87,0.76,1.71*19
$GPGSV,5,1,17,08,02,321,21,10,18,357,35,16,25,249,27,18,32,075,17*7B
$GPGSV,5,2,17,23,04,034,33,25,02,129,,26,29,218,17,27,37,316,28*78
$GPGSV,5,3,17,28,44,160,16,29,20,147,11,31,29,191,19,32,66,355,26*76
$GPGSV,5,4,17,36,52,277,,40,84,353,,41,58,082,,49,32,274,*7C
$GPGSV,5,5,17,50,10,089,*4A
$GLGSV,2,1,08,65,26,358,23,66,53,298,21,67,24,232,16,76,12,149,*6D
$GLGSV,2,2,08,77,15,195,,86,20,130,,87,49,085,21,88,30,003,27*63
$GNGLL,0419.74197,S,05539.73486,E,120215.00,A,A*6B
$GNGRS,120215.00,1,-9.0,-1.2,-8.9,-16.0,0.3,-2.0,-5.2,-2.3,,,,*43
$GNGRS,120215.00,1,-1.9,-7.2,-0.7,-1.6,10.4,,,,,,,*43
$GNGST,120215.00,48,,,,3.8,5.3,8.4*41
$GNZDA,120215.00,22,05,2025,00,00*7D
$GNGBS,120215.00,3.8,5.3,8.4,,,,*5B
$GNTXT,01,01,01,More than 100 frame errors, UART RX was disabled*70
b0@.A
#e,X K "F%<, Bc{4Ta:R 
Yh
AfuB5*CILMVW1UXtb.sB$GNRMC,120216.00,A,0419.74202,S,05539.73484,E,0.213,,220525,,,A*7E
$GNVTG,,T,,M,0.213,N,0.394,K,A*33
$GNGNS,120216.00,0419.74202,S,05539.73484,E,AA,13,0.76,6.0,-47.6,,*57
$GNGGA,120216.00,0419.74202,S,05539.73484,E,1,12,0.76,6.0,M,-47.6,M,,*7C
$GNGSA,A,3,32,28,27,18,26,31,16,10,,,,,1.87,0.76,1.71*13
$GNGSA,A,3,66,87,65,88,67,,,,,,,,1.87,0.76,1.71*19
$GPGSV,5,1,17,08,02,321,20,10,18,357,35,16,25,249,27,18,32,075,19*74
$GPGSV,5,2,17,23,04,034,32,25,02,129,,26,29,218,17,27,37,316,28*79
$GPGSV,5,3,17,28,44,160,13,29,20,147,11,31,29,191,17,32,66,355,26*7D
$GPGSV,5,4,17,36,52,277,,40,84,353,,41,58,082,,49,32,274,*7C
$GPGSV,5,5,17,50,10,089,*4A
$GLGSV,2,1,08,65,26,358,22,66,53,298,21,67,24,232,11,76,12,149,*6B
$GLGSV,2,2,08,77,15,195,,86,20,130,,87,49,085,21,88,30,003,28*6C
$GNGLL,0419.74202,S,05539.73484,E,120216.00,A,A*65
$GNGRS,120216.00,1,-7.4,-1.1,-7.8,-18.1,-0.3,-0.9,-4.2,-2.1,,,,*6D
$GNGRS,120216.00,1,-2.5,-11.5,1.2,-3.8,11.0,,,,,,,*5F
$GNGST,120216.00,52,,,,3.8,5.4,8.5*4F
$GNZDA,120216.00,22,05,2025,00,00*7E
$GNGBS,120216.00,3.8,5.4,8.5,,,,*5E
$GNTXT,01,01,01,More than 100 frame errors, UART RX was disabled*70
b0@x.A
#e.& K
 "W%<,du Bc{4Ta:R 
Yh
AfB5*CLMVW1UXcbx.[`$GNRMC,120217.00,A,0419.74197,S,05539.73476,E,0.066,,220525,,,A*7D
$GNVTG,,T,,M,0.066,N,0.122,K,A*3C
$GNGNS,120217.00,0419.74197,S,05539.73476,E,AA,13,0.88,6.0,-47.6,,*55
$GNGGA,120217.00,0419.74197,S,05539.73476,E,1,12,0.88,6.0,M,-47.6,M,,*7E
$GNGSA,A,3,32,28,27,18,26,31,16,10,,,,,1.98,0.88,1.77*1A
$GNGSA,A,3,66,87,65,88,67,,,,,,,,1.98,0.88,1.77*10
$GPGSV,5,1,17,08,02,321,21,10,18,357,35,16,25,249,27,18,32,075,20*7F
$GPGSV,5,2,17,23,04,034,32,25,02,129,,26,29,218,17,27,37,316,28*79
$GPGSV,5,3,17,28,44,159,12,29,20,147,11,31,29,191,17,32,66,355,26*76
$GPGSV,5,4,17,36,52,277,,40,84,353,,41,58,082,,49,32,274,*7C
$GPGSV,5,5,17,50,10,089,*4A
$GLGSV,2,1,08,65,26,358,22,66,53,298,23,67,24,232,12,76,12,149,*6A
$GLGSV,2,2,08,77,15,195,,86,20,130,,87,49,085,21,88,30,003,28*6C
$GNGLL,0419.74197,S,05539.73476,E,120217.00,A,A*66
$GNGRS,120217.00,1,-6.3,-1.6,-5.9,-20.4,-3.2,-1.4,-2.2,-2.1,,,,*68
$GNGRS,120217.00,1,-3.5,-13.7,2.1,-6.7,7.8,,,,,,,*6A
$GNGST,120217.00,52,,,,3.9,5.4,8.5*4F
$GNZDA,120217.00,22,05,2025,00,00*7F
$GNGBS,120217.00,3.9,5.4,8.5,,,,*5E
$GNTXT,01,01,01,More than 100 frame errors, UART RX was disabled*70
b0@`.A
$e.5 K "%<,p Bc{4Ta:R 
Yh
AfB5*oC7LMVW1UX]b`.C$GNRMC,120218.00,A,0419.74194,S,05539.73466,E,0.173,,220525,,,A*75
$GNVTG,,T,,M,0.173,N,0.321,K,A*38
$GNGNS,120218.00,0419.74194,S,05539.73466,E,AA,13,0.76,6.1,-47.6,,*58
$GNGGA,120218.00,0419.74194,S,05539.73466,E,1,12,0.76,6.1,M,-47.6,M,,*73
$GNGSA,A,3,32,28,27,18,26,31,16,10,,,,,1.87,0.76,1.71*13
$GNGSA,A,3,66,87,65,88,67,,,,,,,,1.87,0.76,1.71*19
$GPGSV,5,1,17,08,02,321,22,10,18,357,36,16,25,249,27,18,32,075,21*7E
$GPGSV,5,2,17,23,04,034,32,25,02,129,,26,29,218,16,27,37,316,28*78
$GPGSV,5,3,17,28,44,159,15,29,19,147,11,31,29,191,19,32,66,355,26*75
$GPGSV,5,4,17,36,52,277,,40,84,353,,41,58,082,,49,32,274,*7C
$GPGSV,5,5,17,50,10,089,*4A
$GLGSV,2,1,08,65,26,358,23,66,53,298,24,67,24,232,14,76,12,149,*6A
$GLGSV,2,2,08,77,15,195,,86,20,130,,87,49,085,22,88,30,003,29*6E
$GNGLL,0419.74194,S,05539.73466,E,120218.00,A,A*6B
$GNGRS,120218.00,1,-2.8,-0.9,-3.6,-19.0,-3.4,0.0,-2.0,-2.1,,,,*4D
$GNGRS,120218.00,1,-4.0,-13.6,2.5,-5.7,8.2,,,,,,,*64
$GNGST,120218.00,46,,,,3.9,5.4,8.5*45
$GNZDA,120218.00,22,05,2025,00,00*70
$GNGBS,120218.00,3.9,5.4,8.5,,,,*51
$GNTXT,01,01,01,More than 100 frame errors, UART RX was disabled*70
b0@H/A
%e2 K0!"C%<C,$C Bct{4Ta:R 
Yh
AfB5*~C4LMVW1UEX_lbH/+>$GNRMC,120219.00,A,0419.74192,S,05539.73457,E,0.060,,220525,,,A*73
$GNVTG,,T,,M,0.060,N,0.110,K,A*3B
$GNGNS,120219.00,0419.74192,S,05539.73457,E,AA,13,0.76,6.2,-47.6,,*5E
$GNGGA,120219.00,0419.74192,S,05539.73457,E,1,12,0.76,6.2,M,-47.6,M,,*75
$GNGSA,A,3,32,28,27,18,26,31,16,10,,,,,1.87,0.76,1.71*13
$GNGSA,A,3,66,87,65,88,67,,,,,,,,1.87,0.76,1.71*19
$GPGSV,5,1,17,08,02,321,24,10,18,357,37,16,25,249,27,18,32,075,22*7A
$GPGSV,5,2,17,23,04,034,33,25,02,129,,26,29,218,18,27,37,316,29*76
$GPGSV,5,3,17,28,44,159,17,29,19,147,11,31,29,191,20,32,66,355,27*7C
$GPGSV,5,4,17,36,52,277,,40,84,353,,41,58,082,,49,32,274,*7C
$GPGSV,5,5,17,50,10,089,*4A
$GLGSV,2,1,08,65,26,358,23,66,53,298,24,67,24,232,17,76,12,149,*69
$GLGSV,2,2,08,77,15,195,,86,20,130,,87,49,085,21,88,30,003,29*6D
$GNGLL,0419.74192,S,05539.73457,E,120219.00,A,A*6E
$GNGRS,120219.00,1,1.2,0.4,-4.5,-17.4,-4.4,0.7,-1.2,-2.1,,,,*47
$GNGRS,120219.00,1,-3.9,-12.1,4.5,-3.5,5.6,,,,,,,*66
$GNGST,120219.00,44,,,,3.9,5.4,8.5*46
$GNZDA,120219.00,22,05,2025,00,00*71
$GNGBS,120219.00,3.9,5.4,8.5,,,,*50
$GNTXT,01,01,01,More than 100 frame errors, UART RX was disabled*70
b0@0/A
%e
& Kg!"%<,U Bc6{4Ta:R 
Yh
AfpB5*pCLMVW1U0X9b0/$GNRMC,120220.00,A,0419.74172,S,05539.73422,E,0.606,,220525,,,A*73
$GNVTG,,T,,M,0.606,N,1.122,K,A*3D
$GNGNS,120220.00,0419.74172,S,05539.73422,E,AA,13,0.76,6.5,-47.6,,*5F
$GNGGA,120220.00,0419.74172,S,05539.73422,E,1,12,0.76,6.5,M,-47.6,M,,*74
$GNGSA,A,3,32,28,27,18,26,31,16,10,,,,,1.87,0.76,1.71*13
$GNGSA,A,3,66,87,65,88,67,,,,,,,,1.87,0.76,1.71*19
$GPGSV,5,1,17,08,02,321,25,10,18,357,37,16,25,249,27,18,32,075,23*7A
$GPGSV,5,2,17,23,04,034,33,25,02,129,,26,29,218,19,27,37,316,29*77
$GPGSV,5,3,17,28,44,159,17,29,19,147,14,31,29,191,19,32,66,355,27*73
$GPGSV,5,4,17,36,52,277,,40,84,353,,41,58,082,,49,32,274,*7C
$GPGSV,5,5,17,50,10,089,*4A
$GLGSV,2,1,08,65,26,358,23,66,53,298,23,67,24,232,17,76,12,149,*6E
$GLGSV,2,2,08,77,15,195,,86,20,130,,87,49,085,20,88,30,003,29*6C
$GNGLL,0419.74172,S,05539.73422,E,120220.00,A,A*68
$GNGRS,120220.00,1,0.5,0.9,-5.9,-16.9,-3.9,2.1,0.4,-2.5,,,,*67
$GNGRS,120220.00,1,-4.0,-12.3,3.7,-0.5,5.0,,,,,,,*60
$GNGST,120220.00,44,,,,3.9,5.4,8.5*4C
$GNZDA,120220.00,22,05,2025,00,00*7B
$GNGBS,120220.00,3.9,5.4,8.5,,,,*5A
$GNTXT,01,01,01,More than 100 frame errors, UART RX was disabled*70
b0@/A
%e K:!"%<, Bc{4Ta:R 
Yh
AfcB5*CLMVW1U_X\b/z$GNRMC,120221.00,A,0419.74155,S,05539.73392,E,0.456,,220525,,,A*7C
$GNVTG,,T,,M,0.456,N,0.844,K,A*32
$GNGNS,120221.00,0419.74155,S,05539.73392,E,AA,13,0.76,6.8,-47.6,,*5A
$GNGGA,120221.00,0419.74155,S,05539.73392,E,1,12,0.76,6.8,M,-47.6,M,,*71
$GNGSA,A,3,32,28,27,18,26,31,16,10,,,,,1.87,0.76,1.71*13
$GNGSA,A,3,66,87,65,88,67,,,,,,,,1.87,0.76,1.71*19
$GPGSV,5,1,17,08,02,321,25,10,18,357,37,16,25,249,27,18,32,075,25*7C
$GPGSV,5,2,17,23,04,034,33,25,02,129,,26,29,218,19,27,37,316,29*77
$GPGSV,5,3,17,28,44,159,19,29,19,147,,31,29,191,20,32,66,355,28*7D
$GPGSV,5,4,17,36,52,277,,40,84,353,,41,58,082,,49,32,274,*7C
$GPGSV,5,5,17,50,10,089,*4A
$GLGSV,2,1,08,65,26,358,23,66,53,298,22,67,24,232,17,76,12,149,*6F
$GLGSV,2,2,08,77,15,195,,86,20,130,,87,49,085,20,88,30,003,29*6C
$GNGLL,0419.74155,S,05539.73392,E,120221.00,A,A*60
$GNGRS,120221.00,1,2.2,-0.7,-2.4,-17.3,-3.8,4.5,-0.8,-2.6,,,,*60
$GNGRS,120221.00,1,-3.0,-14.4,6.1,-1.0,2.7,,,,,,,*60
$GNGST,120221.00,42,,,,3.9,5.4,8.5*4B
$GNZDA,120221.00,22,05,2025,00,00*7A
$GNGBS,120221.00,3.9,5.4,8.5,,,,*5B
$GNTXT,01,01,01,More than 100 frame errors, UART RX was disabled*70
b0@/A
&e KL!";W%<(,P9 Bc{4Ta:R 
Yh
AfB5*CLMVW1UWX&Wb/Rs$GNRMC,120222.00,A,0419.74149,S,05539.73371,E,0.253,,220525,,,A*7C
$GNVTG,,T,,M,0.253,N,0.469,K,A*32
$GNGNS,120222.00,0419.74149,S,05539.73371,E,AA,13,0.76,7.0,-47.6,,*50
$GNGGA,120222.00,0419.74149,S,05539.73371,E,1,12,0.76,7.0,M,-47.6,M,,*7B
$GNGSA,A,3,32,28,27,18,26,31,16,10,,,,,1.87,0.76,1.71*13
$GNGSA,A,3,66,87,65,88,67,,,,,,,,1.87,0.76,1.71*19
$GPGSV,5,1,17,08,02,321,26,10,18,357,38,16,25,249,27,18,32,075,25*70
$GPGSV,5,2,17,23,04,034,33,25,02,129,,26,29,218,20,27,37,316,29*7D
$GPGSV,5,3,17,28,44,159,19,29,19,147,18,31,29,191,21,32,66,355,28*75
$GPGSV,5,4,17,36,52,277,,40,84,353,,41,58,082,,49,32,274,*7C
$GPGSV,5,5,17,50,10,089,*4A
$GLGSV,2,1,08,65,26,358,22,66,53,298,21,67,24,232,18,76,12,149,*62
$GLGSV,2,2,08,77,15,195,,86,20,130,,87,49,085,19,88,30,003,29*66
$GNGLL,0419.74149,S,05539.73371,E,120222.00,A,A*63
$GNGRS,120222.00,1,4.5,-1.8,-2.2,-19.7,-4.3,4.6,2.0,-2.6,,,,*48
$GNGRS,120222.00,1,-1.0,-14.5,4.8,-1.0,1.5,,,,,,,*6A
$GNGST,120222.00,42,,,,3.9,5.4,8.5*48
$GNZDA,120222.00,22,05,2025,00,00*79
$GNGBS,120222.00,3.9,5.4,8.5,,,,*58
$GNTXT,01,01,01,More than 100 frame errors, UART RX was disabled*70
b0@/A
$ef K{ ";%<n,AU Bc{4Ta:R 
Yh
Af
B5*C3LMVW1UXoQb/)$GNRMC,120223.00,A,0419.74141,S,05539.73349,E,0.244,,220525,,,A*78
$GNVTG,,T,,M,0.244,N,0.452,K,A*3C
$GNGNS,120223.00,0419.74141,S,05539.73349,E,AA,13,0.76,7.3,-47.6,,*51
$GNGGA,120223.00,0419.74141,S,05539.73349,E,1,12,0.76,7.3,M,-47.6,M,,*7A
$GNGSA,A,3,32,28,27,18,26,31,16,10,,,,,1.87,0.76,1.71*13
$GNGSA,A,3,66,87,65,88,67,,,,,,,,1.87,0.76,1.71*19
$GPGSV,5,1,17,08,02,321,26,10,18,357,36,16,25,249,27,18,32,075,25*7E
$GPGSV,5,2,17,23,04,034,32,25,02,129,,26,29,218,18,27,37,316,28*76
$GPGSV,5,3,17,28,44,159,19,29,19,147,16,31,29,191,20,32,66,355,27*75
$GPGSV,5,4,17,36,52,277,,40,84,353,,41,58,082,,49,32,274,*7C
$GPGSV,5,5,17,50,10,089,*4A
$GLGSV,2,1,08,65,26,358,22,66,53,298,22,67,24,232,18,76,12,149,*61
$GLGSV,2,2,08,77,15,195,,86,20,130,,87,49,085,18,88,30,003,29*67
$GNGLL,0419.74141,S,05539.73349,E,120223.00,A,A*61
$GNGRS,120223.00,1,7.1,0.6,-4.0,-19.3,-5.7,4.8,3.6,-2.7,,,,*61
$GNGRS,120223.00,1,-0.4,-13.3,2.7,0.0,0.5,,,,,,,*4B
$GNGST,120223.00,45,,,,3.9,5.3,8.5*49
$GNZDA,120223.00,22,05,2025,00,00*78
$GNGBS,120223.00,3.9,5.3,8.5,,,,*5E
$GNTXT,01,01,01,More than 100 frame errors, UART RX was disabled*70
b0@/A
$eE K "g%<_,O Bc{4Ta:R 
Yh
Af'B5*CXLMVW1UXlb/6$GNRMC,120224.00,A,0419.74133,S,05539.73329,E,0.118,,220525,,,A*76
$GNVTG,,T,,M,0.118,N,0.218,K,A*3E
$GNGNS,120224.00,0419.74133,S,05539.73329,E,AA,13,0.76,7.6,-47.6,,*50
$GNGGA,120224.00,0419.74133,S,05539.73329,E,1,12,0.76,7.6,M,-47.6,M,,*7B
$GNGSA,A,3,32,28,27,18,26,31,16,10,,,,,1.87,0.76,1.71*13
$GNGSA,A,3,66,87,65,88,67,,,,,,,,1.87,0.76,1.71*19
$GPGSV,5,1,17,08,02,321,26,10,18,357,36,16,25,249,27,18,32,075,24*7F
$GPGSV,5,2,17,23,04,034,32,25,02,129,,26,29,218,19,27,37,316,28*77
$GPGSV,5,3,17,28,44,159,19,29,19,147,16,31,29,191,21,32,66,355,28*7B
$GPGSV,5,4,17,36,52,277,,40,84,353,,41,58,082,,49,32,274,*7C
$GPGSV,5,5,17,50,10,089,*4A
$GLGSV,2,1,08,65,26,358,21,66,53,298,22,67,24,232,18,76,12,149,*62
$GLGSV,2,2,08,77,15,195,,86,20,130,,87,49,085,17,88,30,003,28*69
$GNGLL,0419.74133,S,05539.73329,E,120224.00,A,A*65
$GNGRS,120224.00,1,6.6,0.8,0.9,-20.7,-6.2,4.7,0.7,-2.5,,,,*49
$GNGRS,120224.00,1,-1.2,-13.5,2.9,2.7,-1.7,,,,,,,*68
$GNGST,120224.00,45,,,,3.9,5.3,8.5*4E
$GNZDA,120224.00,22,05,2025,00,00*7F
$GNGBS,120224.00,3.9,5.3,8.5,,,,*59
$GNTXT,01,01,01,More than 100 frame errors, UART RX was disabled*70
b0@/A
$en Kf "m%<, Bc{4Ta:R 
Yh
AfB5*tCLMVW1UXb/$GNRMC,120225.00,A,0419.74136,S,05539.73326,E,0.166,,220525,,,A*74
$GNVTG,,T,,M,0.166,N,0.307,K,A*38
$GNGNS,120225.00,0419.74136,S,05539.73326,E,AA,13,0.76,7.7,-47.6,,*5A
$GNGGA,120225.00,0419.74136,S,05539.73326,E,1,12,0.76,7.7,M,-47.6,M,,*71
$GNGSA,A,3,32,28,27,18,26,31,16,10,,,,,1.87,0.76,1.71*13
$GNGSA,A,3,66,87,65,88,67,,,,,,,,1.87,0.76,1.71*19
$GPGSV,5,1,17,08,02,321,27,10,18,357,36,16,25,249,27,18,32,075,23*79
$GPGSV,5,2,17,23,04,034,32,25,02,129,,26,29,218,20,27,37,316,28*7D
$GPGSV,5,3,17,28,44,159,20,29,19,147,16,31,29,191,21,32,66,355,28*71
$GPGSV,5,4,17,36,52,277,,40,84,353,,41,58,082,,49,32,274,*7C
$GPGSV,5,5,17,50,10,089,*4A
$GLGSV,2,1,08,65,26,358,23,66,53,298,22,67,24,232,20,76,12,149,*6B
$GLGSV,2,2,08,77,15,195,,86,20,130,,87,49,085,18,88,30,003,29*67
$GNGLL,0419.74136,S,05539.73326,E,120225.00,A,A*6E
$GNGRS,120225.00,1,5.4,1.8,1.3,-19.5,-5.3,7.1,-1.5,-2.5,,,,*62
$GNGRS,120225.00,1,-1.4,-13.0,4.1,-1.2,-1.1,,,,,,,*49
$GNGST,120225.00,43,,,,3.9,5.3,8.5*49
$GNZDA,120225.00,22,05,2025,00,00*7E
$GNGBS,120225.00,3.9,5.3,8.5,,,,*58
$GNTXT,01,01,01,More than 100 frame errors, UART RX was disabled*70
b0@/A
%e K "p.%<+,l) Bc{4Ta:R 
Yh[
AfB5*C|LMVW1UXb/$GNRMC,120226.00,A,0419.74134,S,05539.73318,E,0.209,,220525,,,A*72
$GNVTG,,T,,M,0.209,N,0.387,K,A*3A
$GNGNS,120226.00,0419.74134,S,05539.73318,E,AA,14,0.75,7.9,-47.6,,*5C
$GNGGA,120226.00,0419.74134,S,05539.73318,E,1,12,0.75,7.9,M,-47.6,M,,*70
$GNGSA,A,3,32,28,27,18,26,31,16,29,10,,,,1.74,0.75,1.57*13
$GNGSA,A,3,66,87,65,88,67,,,,,,,,1.74,0.75,1.57*12
$GPGSV,5,1,17,08,02,321,27,10,18,357,37,16,25,249,27,18,32,075,23*78
$GPGSV,5,2,17,23,04,034,32,25,02,129,,26,29,218,21,27,37,316,27*73
$GPGSV,5,3,17,28,44,159,21,29,19,147,15,31,29,191,21,32,66,355,28*73
$GPGSV,5,4,17,36,52,277,,40,84,353,,41,58,082,,49,32,274,*7C
$GPGSV,5,5,17,50,10,089,*4A
$GLGSV,2,1,08,65,26,358,22,66,53,298,22,67,24,232,20,76,12,149,*6A
$GLGSV,2,2,08,77,15,195,,86,20,130,,87,49,085,17,88,30,003,29*68
$GNGLL,0419.74134,S,05539.73318,E,120226.00,A,A*62
$GNGRS,120226.00,1,4.2,3.6,0.4,-23.6,-4.7,7.5,0.0,-7.3,-2.6,,,*4A
$GNGRS,120226.00,1,0.2,-12.8,4.2,1.4,1.2,,,,,,,*6F
$GNGST,120226.00,45,,,,3.9,5.4,8.5*4B
$GNZDA,120226.00,22,05,2025,00,00*7D
$GNGBS,120226.00,3.9,5.4,8.5,,,,*5C
$GNTXT,01,01,01,More than 100 frame errors, UART RX was disabled*70
b0@"/A
$e K!"t%<,$F Bc{4Ta:R 
Yh
AfB5*CLMVW1UX!b"/kn$GNRMC,120227.00,A,0419.74135,S,05539.73314,E,0.103,,220525,,,A*77
$GNVTG,,T,,M,0.103,N,0.190,K,A*37
$GNGNS,120227.00,0419.74135,S,05539.73314,E,AA,14,0.75,8.0,-47.6,,*56
$GNGGA,120227.00,0419.74135,S,05539.73314,E,1,12,0.75,8.0,M,-47.6,M,,*7A
$GNGSA,A,3,32,28,27,18,26,31,16,29,10,,,,1.74,0.75,1.57*13
$GNGSA,A,3,66,87,65,88,67,,,,,,,,1.74,0.75,1.57*12
$GPGSV,5,1,17,08,02,321,27,10,18,357,36,16,25,249,27,18,32,075,24*7E
$GPGSV,5,2,17,23,04,034,33,25,02,129,,26,29,218,21,27,37,316,27*72
$GPGSV,5,3,17,28,44,159,21,29,19,147,16,31,29,191,21,32,66,355,28*70
$GPGSV,5,4,17,36,52,277,,40,84,353,,41,58,082,,49,32,274,*7C
$GPGSV,5,5,17,50,10,089,*4A
$GLGSV,2,1,08,65,26,358,22,66,53,298,23,67,24,232,19,76,12,149,*61
$GLGSV,2,2,08,77,15,195,,86,20,130,,87,49,085,17,88,30,003,29*68
$GNGLL,0419.74135,S,05539.73314,E,120227.00,A,A*6E
$GNGRS,120227.00,1,1.9,4.6,2.0,-23.2,-3.6,8.4,0.3,-7.3,-2.8,,,*45
$GNGRS,120227.00,1,0.2,-12.8,5.1,8.0,0.1,,,,,,,*63
$GNGST,120227.00,44,,,,3.9,5.4,8.5*4B
$GNZDA,120227.00,22,05,2025,00,00*7C
$GNGBS,120227.00,3.9,5.4,8.5,,,,*5D
$GNTXT,01,01,01,More than 100 frame errors, UART RX was disabled*70
b0@p&/A
$eH K "t@%<,] Bck{4Ta:R 
Yh
AfB5*CLMVW1U^XBbp&/Sb$GNRMC,120228.00,A,0419.74146,S,05539.73322,E,0.173,,220525,,,A*7E
$GNVTG,,T,,M,0.173,N,0.320,K,A*39
$GNGNS,120228.00,0419.74146,S,05539.73322,E,AA,14,0.75,8.1,-47.6,,*59
$GNGGA,120228.00,0419.74146,S,05539.73322,E,1,12,0.75,8.1,M,-47.6,M,,*75
$GNGSA,A,3,32,28,27,18,26,31,16,29,10,,,,1.74,0.75,1.57*13
$GNGSA,A,3,66,87,65,88,67,,,,,,,,1.74,0.75,1.57*12
$GPGSV,5,1,17,08,02,321,27,10,18,357,36,16,25,249,27,18,32,075,24*7E
$GPGSV,5,2,17,23,04,034,32,25,02,129,,26,29,218,19,27,37,316,27*78
$GPGSV,5,3,17,28,44,159,21,29,19,147,14,31,29,191,21,32,66,355,28*72
$GPGSV,5,4,17,36,52,277,,40,84,353,,41,58,082,,49,32,274,*7C
$GPGSV,5,5,17,50,10,089,*4A
$GLGSV,2,1,08,65,26,358,22,66,53,298,23,67,24,232,18,76,12,149,*60
$GLGSV,2,2,08,77,15,195,,86,20,130,,87,49,085,15,88,30,003,28*6B
$GNGLL,0419.74146,S,05539.73322,E,120228.00,A,A*60
$GNGRS,120228.00,1,3.6,6.8,2.6,-23.6,-4.5,9.3,0.7,-9.3,-2.9,,,*40
$GNGRS,120228.00,1,1.4,-11.9,6.8,7.0,1.3,,,,,,,*6F
$GNGST,120228.00,46,,,,3.9,5.4,8.5*46
$GNZDA,120228.00,22,05,2025,00,00*73
$GNGBS,120228.00,3.9,5.4,8.5,,,,*52
$GNTXT,01,01,01,More than 100 frame errors, UART RX was disabled*70
b0@X*/A
$eb K "i%<, Bc{4Ta:R 
Yh
AfB5*;CLMVW1UmXbX*/;:>$GNRMC,120229.00,A,0419.74153,S,05539.73328,E,0.177,,220525,,,A*75
$GNVTG,,T,,M,0.177,N,0.329,K,A*34
$GNGNS,120229.00,0419.74153,S,05539.73328,E,AA,14,0.75,8.3,-47.6,,*54
$GNGGA,120229.00,0419.74153,S,05539.73328,E,1,12,0.75,8.3,M,-47.6,M,,*78
$GNGSA,A,3,32,28,27,18,26,31,16,29,10,,,,1.74,0.75,1.57*13
$GNGSA,A,3,66,87,65,88,67,,,,,,,,1.74,0.75,1.57*12
$GPGSV,5,1,17,08,02,321,27,10,18,357,36,16,25,249,27,18,32,075,24*7E
$GPGSV,5,2,17,23,04,034,32,25,02,129,,26,29,218,18,27,37,316,28*76
$GPGSV,5,3,17,28,44,159,20,29,19,147,14,31,29,191,21,32,66,355,28*73
$GPGSV,5,4,17,36,52,277,,40,84,353,,41,58,082,,49,32,274,*7C
$GPGSV,5,5,17,50,10,089,*4A
$GLGSV,2,1,08,65,26,358,23,66,53,298,23,67,24,232,19,76,12,149,*60
$GLGSV,2,2,08,77,15,195,,86,20,130,,87,49,085,09,88,30,003,28*66
$GNGLL,0419.74153,S,05539.73328,E,120229.00,A,A*6F
$GNGRS,120229.00,1,4.5,4.9,2.0,-23.4,-5.6,9.7,-1.6,-7.7,-2.7,,,*6D
$GNGRS,120229.00,1,3.1,-11.7,6.5,7.5,1.3,,,,,,,*6F
$GNGST,120229.00,83147,,,,3.9,5.5,8.5*7D
$GNZDA,120229.00,22,05,2025,00,00*72
$GNGBS,120229.00,3.9,5.5,8.5,,,,*52
$GNTXT,01,01,01,More than 100 frame errors, UART RX was disabled*70
b0@@./A
$ex KB "`p%<,W Bc{4Ta:R 
Yh
AfB5*CuLMVW1UX[b@./#$GNRMC,120230.00,A,0419.74160,S,05539.73336,E,0.233,,220525,,,A*71
$GNVTG,,T,,M,0.233,N,0.432,K,A*3A
$GNGNS,120230.00,0419.74160,S,05539.73336,E,AA,14,0.75,8.4,-47.6,,*54
$GNGGA,120230.00,0419.74160,S,05539.73336,E,1,12,0.75,8.4,M,-47.6,M,,*78
$GNGSA,A,3,32,28,27,18,26,31,16,29,10,,,,1.74,0.75,1.57*13
$GNGSA,A,3,66,87,65,88,67,,,,,,,,1.74,0.75,1.57*12
$GPGSV,5,1,17,08,02,321,27,10,18,357,36,16,25,249,27,18,32,075,23*79
$GPGSV,5,2,17,23,04,034,32,25,02,129,,26,29,218,19,27,37,316,28*77
$GPGSV,5,3,17,28,44,159,20,29,19,147,14,31,29,191,22,32,66,355,28*70
$GPGSV,5,4,17,36,52,277,,40,84,353,,41,58,082,,49,32,274,*7C
$GPGSV,5,5,17,50,10,089,*4A
$GLGSV,2,1,08,65,26,358,23,66,53,298,22,67,24,232,19,76,12,149,*61
$GLGSV,2,2,08,77,15,195,,86,20,130,,87,49,085,12,88,30,003,28*6C
$GNGLL,0419.74160,S,05539.73336,E,120230.00,A,A*68
$GNGRS,120230.00,1,5.0,6.0,2.4,-22.4,-4.0,7.9,-1.4,-5.7,-2.9,,,*66
$GNGRS,120230.00,1,2.4,-11.4,7.0,8.0,1.2,,,,,,,*6F
$GNGST,120230.00,83147,,,,3.9,5.5,8.5*75
$GNZDA,120230.00,22,05,2025,00,00*7A
$GNGBS,120230.00,3.9,5.5,8.5,,,,*5A
$GNTXT,01,01,01,More than 100 frame errors, UART RX was disabled*70
b0@(2/A
$e K "|5%<, Bc{4Ta:R 
Yh2
AfB5*CLMVW
1UXob(2/$GNRMC,120231.00,A,0419.74161,S,05539.73335,E,0.061,,220525,,,A*77
$GNVTG,,T,,M,0.061,N,0.114,K,A*3E
$GNGNS,120231.00,0419.74161,S,05539.73335,E,AA,14,0.75,8.6,-47.6,,*55
$GNGGA,120231.00,0419.74161,S,05539.73335,E,1,12,0.75,8.6,M,-47.6,M,,*79
$GNGSA,A,3,32,28,27,18,26,31,16,29,10,,,,1.74,0.75,1.57*13
$GNGSA,A,3,66,87,65,88,67,,,,,,,,1.74,0.75,1.57*12
$GPGSV,5,1,17,08,02,321,28,10,18,357,36,16,25,249,28,18,32,075,23*79
$GPGSV,5,2,17,23,04,034,32,25,02,129,,26,29,218,21,27,37,316,28*7C
$GPGSV,5,3,17,28,44,159,21,29,19,147,15,31,29,191,22,32,66,355,28*70
$GPGSV,5,4,17,36,52,277,,40,84,353,,41,58,082,,49,32,274,*7C
$GPGSV,5,5,17,50,10,089,*4A
$GLGSV,2,1,08,65,26,358,23,66,53,298,21,67,24,232,18,76,12,149,*63
$GLGSV,2,2,08,77,15,195,,86,20,130,,87,49,085,10,88,30,003,27*61
$GNGLL,0419.74161,S,05539.73335,E,120231.00,A,A*6B
$GNGRS,120231.00,1,6.4,6.6,1.4,-22.7,-4.6,9.1,-0.6,-5.9,-2.8,,,*6A
$GNGRS,120231.00,1,1.8,-2.3,7.5,7.1,1.7,,,,,,,*5A
$GNGST,120231.00,48,,,,3.9,5.6,8.5*42
$GNZDA,120231.00,22,05,2025,00,00*7B
$GNGBS,120231.00,3.9,5.6,8.5,,,,*58
$GNTXT,01,01,01,More than 100 frame errors, UART RX was disabled*70
b0@6/A
$e K "i%<,@ Bc{4Ta:R 
Yh
Af[B5*CLMVW
1U}XRb6/s$GNRMC,120232.00,A,0419.74166,S,05539.73343,E,0.324,,220525,,,A*70
$GNVTG,,T,,M,0.324,N,0.599,K,A*3D
$GNGNS,120232.00,0419.74166,S,05539.73343,E,AA,14,0.75,8.8,-47.6,,*5E
$GNGGA,120232.00,0419.74166,S,05539.73343,E,1,12,0.75,8.8,M,-47.6,M,,*72
$GNGSA,A,3,32,28,27,18,26,31,16,29,10,,,,1.74,0.75,1.57*13
$GNGSA,A,3,66,87,65,88,67,,,,,,,,1.74,0.75,1.57*12
$GPGSV,5,1,17,08,02,321,29,10,18,357,36,16,25,249,28,18,32,075,21*7A
$GPGSV,5,2,17,23,04,034,32,25,02,129,,26,29,218,20,27,37,316,29*7C
$GPGSV,5,3,17,28,44,159,22,29,19,147,16,31,29,191,22,32,66,355,29*71
$GPGSV,5,4,17,36,52,277,,40,84,353,,41,58,082,,49,32,274,*7C
$GPGSV,5,5,17,50,10,089,*4A
$GLGSV,2,1,08,65,26,358,23,66,53,298,22,67,24,232,18,76,12,149,*60
$GLGSV,2,2,08,77,15,195,,86,20,130,,87,49,085,10,88,30,003,27*61
$GNGLL,0419.74166,S,05539.73343,E,120232.00,A,A*6E
$GNGRS,120232.00,1,5.0,5.8,0.3,-24.2,-6.0,7.9,-2.3,-5.8,-2.6,,,*6C
$GNGRS,120232.00,1,4.4,3.8,8.6,5.9,2.0,,,,,,,*75
$GNGST,120232.00,96451,,,,3.9,5.6,8.5*72
$GNZDA,120232.00,22,05,2025,00,00*78
$GNGBS,120232.00,3.9,5.6,8.5,,,,*5B
$GNTXT,01,01,01,More than 100 frame errors, UART RX was disabled*70
b0@9/A
$e K!"%<U,a BcL{4Ta:R 
Yh
AfB5*CXLMVW1U_XFb9/#$GNRMC,120233.00,A,0419.74171,S,05539.73353,E,0.156,,220525,,,A*71
$GNVTG,,T,,M,0.156,N,0.289,K,A*3C
$GNGNS,120233.00,0419.74171,S,05539.73353,E,AA,14,0.75,8.8,-47.6,,*58
$GNGGA,120233.00,0419.74171,S,05539.73353,E,1,12,0.75,8.8,M,-47.6,M,,*74
$GNGSA,A,3,32,28,27,18,26,31,16,29,10,,,,1.74,0.75,1.57*13
$GNGSA,A,3,66,87,65,88,67,,,,,,,,1.74,0.75,1.57*12
$GPGSV,5,1,17,08,02,321,29,10,18,357,36,16,25,249,28,18,32,075,21*7A
$GPGSV,5,2,17,23,04,034,33,25,02,129,,26,29,218,19,27,37,316,29*77
$GPGSV,5,3,17,28,44,159,22,29,19,147,15,31,29,191,23,32,66,355,31*7A
$GPGSV,5,4,17,36,52,277,,40,84,353,,41,58,082,,49,32,274,*7C
$GPGSV,5,5,17,50,10,089,*4A
$GLGSV,2,1,08,65,26,358,23,66,53,298,21,67,24,232,17,76,12,149,*6C
$GLGSV,2,2,08,77,15,195,,86,20,130,,87,49,085,14,88,30,003,26*64
$GNGLL,0419.74171,S,05539.73353,E,120233.00,A,A*68
$GNGRS,120233.00,1,0.8,8.7,-1.7,-23.6,-5.0,5.2,-2.4,-5.4,-2.4,,,*4A
$GNGRS,120233.00,1,5.0,3.5,7.0,8.4,0.9,,,,,,,*7E
$GNGST,120233.00,139688,,,,3.9,5.6,8.5*41
$GNZDA,120233.00,22,05,2025,00,00*79
$GNGBS,120233.00,3.9,5.6,8.5,,,,*5A
$GNTXT,01,01,01,More than 100 frame errors, UART RX was disabled*70
b0@=/A
$e K; "g%<, Bc{4Ta:R 
Yh
AfB5*CLMVW1UsXb=/'p4$GNRMC,120234.00,A,0419.74188,S,05539.73377,E,0.306,,220525,,,A*71
$GNVTG,,T,,M,0.306,N,0.567,K,A*3C
$GNGNS,120234.00,0419.74188,S,05539.73377,E,AA,14,0.75,8.9,-47.6,,*5E
$GNGGA,120234.00,0419.74188,S,05539.73377,E,1,12,0.75,8.9,M,-47.6,M,,*72
$GNGSA,A,3,32,28,27,18,26,31,16,29,10,,,,1.74,0.75,1.57*13
$GNGSA,A,3,66,87,65,88,67,,,,,,,,1.74,0.75,1.57*12
$GPGSV,5,1,17,08,02,321,29,10,18,357,36,16,25,249,28,18,32,075,20*7B
$GPGSV,5,2,17,23,04,034,32,25,02,129,,26,29,218,18,27,37,316,28*76
$GPGSV,5,3,17,28,44,159,21,29,19,147,15,31,29,191,22,32,66,355,31*78
$GPGSV,5,4,17,36,52,277,,40,84,353,,41,58,082,,49,32,274,*7C
$GPGSV,5,5,17,50,10,089,*4A
$GLGSV,2,1,08,65,26,358,23,66,53,298,20,67,24,232,17,76,12,149,*6D
$GLGSV,2,2,08,77,15,195,,86,20,130,,87,49,085,14,88,30,003,26*64
$GNGLL,0419.74188,S,05539.73377,E,120234.00,A,A*6F
$GNGRS,120234.00,1,2.7,11.9,-2.9,-25.0,-1.2,4.8,-0.6,-3.0,-2.6,,,*76
$GNGRS,120234.00,1,7.7,11.4,9.0,9.8,-0.9,,,,,,,*60
$GNGST,120234.00,47,,,,3.9,5.7,8.4*48
$GNZDA,120234.00,22,05,2025,00,00*7E
$GNGBS,120234.00,3.9,5.7,8.4,,,,*5D
$GNTXT,01,01,01,More than 100 frame errors, UART RX was disabled*70
b0@A/A
$e K "m%<,QZ  Bc{4Ta:R 
Yh
AfB5*CLMVW1UX`bA/+H$GNRMC,120235.00,A,0419.74194,S,05539.73380,E,0.095,,220525,,,A*7C
$GNVTG,,T,,M,0.095,N,0.176,K,A*31
$GNGNS,120235.00,0419.74194,S,05539.73380,E,AA,13,0.78,9.1,-47.6,,*59
$GNGGA,120235.00,0419.74194,S,05539.73380,E,1,12,0.78,9.1,M,-47.6,M,,*72
$GNGSA,A,3,32,28,27,18,31,16,29,10,,,,,1.75,0.78,1.57*1B
$GNGSA,A,3,66,87,65,88,67,,,,,,,,1.75,0.78,1.57*1E
$GPGSV,5,1,17,08,02,321,29,10,18,357,36,16,25,249,28,18,32,075,20*7B
$GPGSV,5,2,17,23,04,034,32,25,02,129,,26,29,218,16,27,37,316,28*78
$GPGSV,5,3,17,28,44,159,21,29,19,147,17,31,29,191,23,32,66,355,32*78
$GPGSV,5,4,17,36,52,277,,40,84,353,,41,58,082,,49,32,274,*7C
$GPGSV,5,5,17,50,10,089,*4A
$GLGSV,2,1,08,65,26,358,23,66,53,298,20,67,24,232,15,76,12,149,*6F
$GLGSV,2,2,08,77,15,195,,86,20,130,,87,49,085,14,88,30,003,26*64
$GNGLL,0419.74194,S,05539.73380,E,120235.00,A,A*6B
$GNGRS,120235.00,1,2.8,11.0,4.0,-26.8,3.5,-1.0,-3.0,-3.1,,,,*53
$GNGRS,120235.00,1,6.7,3.9,10.2,11.2,2.5,,,,,,,*74
$GNGST,120235.00,103851,,,,3.9,5.7,8.4*44
$GNZDA,120235.00,22,05,2025,00,00*7F
$GNGBS,120235.00,3.9,5.7,8.4,,,,*5C
$GNTXT,01,01,01,More than 100 frame errors, UART RX was disabled*70
b0@E/A
$e9 K "m%</, Bc{4Ta:R 
Yh
AfB5*CLMVW1UX
bE// $GNRMC,120236.00,A,0419.74190,S,05539.73375,E,0.040,,220525,,,A*79
$GNVTG,,T,,M,0.040,N,0.074,K,A*3A
$GNGNS,120236.00,0419.74190,S,05539.73375,E,AA,13,0.78,9.4,-47.6,,*51
$GNGGA,120236.00,0419.74190,S,05539.73375,E,1,12,0.78,9.4,M,-47.6,M,,*7A
$GNGSA,A,3,32,28,27,18,31,16,29,10,,,,,1.75,0.78,1.57*1B
$GNGSA,A,3,66,87,65,88,67,,,,,,,,1.75,0.78,1.57*1E
$GPGSV,5,1,17,08,02,321,30,10,18,357,36,16,25,249,28,18,32,075,19*79
$GPGSV,5,2,17,23,04,034,32,25,02,129,,26,29,218,16,27,37,316,29*79
$GPGSV,5,3,17,28,44,159,19,29,19,147,18,31,29,191,23,32,66,355,31*7F
$GPGSV,5,4,17,36,52,277,,40,84,353,,41,58,082,,49,32,274,*7C
$GPGSV,5,5,17,50,10,089,*4A
$GLGSV,2,1,08,65,26,358,22,66,53,298,20,67,24,232,12,76,12,149,*69
$GLGSV,2,2,08,77,15,195,,86,20,130,,87,49,085,14,88,30,003,26*64
$GNGLL,0419.74190,S,05539.73375,E,120236.00,A,A*66
$GNGRS,120236.00,1,2.6,12.0,-4.6,-27.9,4.4,0.6,-5.6,-3.1,,,,*5A
$GNGRS,120236.00,1,9.1,3.9,12.7,12.9,4.6,,,,,,,*74
$GNGST,120236.00,152315,,,,3.9,5.7,8.4*48
$GNZDA,120236.00,22,05,2025,00,00*7C
$GNGBS,120236.00,3.9,5.7,8.4,,,,*5F
$GNTXT,01,01,01,More than 100 frame errors, UART RX was disabled*70
b0@I/A
$e K7"kr%<I, Bc,{4Ta:R 
Yh
AfB5*nCLMVW1UXbI/{3l$GNRMC,120237.00,A,0419.74187,S,05539.73371,E,0.121,,220525,,,A*7C
$GNVTG,,T,,M,0.121,N,0.224,K,A*3B
$GNGNS,120237.00,0419.74187,S,05539.73371,E,AA,14,0.84,9.5,-47.6,,*57
$GNGGA,120237.00,0419.74187,S,05539.73371,E,1,12,0.84,9.5,M,-47.6,M,,*7B
$GNGSA,A,3,32,28,27,18,26,31,16,29,10,,,,1.85,0.84,1.64*13
$GNGSA,A,3,66,87,65,88,67,,,,,,,,1.85,0.84,1.64*12
$GPGSV,5,1,17,08,02,321,29,10,18,357,36,16,25,249,28,18,32,075,18*70
$GPGSV,5,2,17,23,04,034,31,25,02,129,,26,29,218,18,27,37,316,29*74
$GPGSV,5,3,17,28,44,159,20,29,19,147,18,31,29,191,23,32,66,355,30*74
$GPGSV,5,4,17,36,52,277,,40,84,353,,41,58,082,,49,32,274,*7C
$GPGSV,5,5,17,50,10,089,*4A
$GLGSV,2,1,08,65,26,358,22,66,53,298,21,67,24,232,13,76,12,149,*69
$GLGSV,2,2,08,77,15,195,,86,20,130,,87,49,085,08,88,30,003,25*6A
$GNGLL,0419.74187,S,05539.73371,E,120237.00,A,A*65
$GNGRS,120237.00,1,0.4,12.1,-4.4,-25.1,-1.4,2.8,-0.1,-6.0,-2.8,,,*79
$GNGRS,120237.00,1,8.8,73.6,12.1,12.8,5.2,,,,,,,*47
$GNGST,120237.00,47,,,,3.8,5.7,8.3*4D
$GNZDA,120237.00,22,05,2025,00,00*7D
$GNGBS,120237.00,3.8,5.7,8.3,,,,*58
$GNTXT,01,01,01,More than 100 frame errors, UART RX was disabled*70
b0@M/A
$e K "a%<N,g Bc.{4Ta:R 
Yh
AfB5*?C7LMVW1UoXIbM/c7$GNRMC,120238.00,A,0419.74192,S,05539.73381,E,0.039,,220525,,,A*70
$GNVTG,,T,,M,0.039,N,0.073,K,A*33
$GNGNS,120238.00,0419.74192,S,05539.73381,E,AA,14,0.75,9.6,-47.6,,*5E
$GNGGA,120238.00,0419.74192,S,05539.73381,E,1,12,0.75,9.6,M,-47.6,M,,*72
$GNGSA,A,3,32,28,27,18,26,31,16,29,10,,,,1.74,0.75,1.57*13
$GNGSA,A,3,66,87,65,88,67,,,,,,,,1.74,0.75,1.57*12
$GPGSV,5,1,17,08,02,321,29,10,18,357,36,16,25,249,28,18,32,075,19*71
$GPGSV,5,2,17,23,04,034,32,25,02,129,,26,29,218,18,27,37,316,29*77
$GPGSV,5,3,17,28,44,159,23,29,19,147,17,31,29,191,23,32,66,355,29*70
$GPGSV,5,4,17,36,52,277,,40,84,353,,41,58,082,,49,32,274,*7C
$GPGSV,5,5,17,50,10,089,*4A
$GLGSV,2,1,08,65,26,358,23,66,53,298,22,67,24,232,15,76,12,149,*6D
$GLGSV,2,2,08,77,15,195,,86,20,130,,87,49,085,08,88,30,003,26*69
$GNGLL,0419.74192,S,05539.73381,E,120238.00,A,A*61
$GNGRS,120238.00,1,3.0,7.5,-6.9,-22.8,0.3,0.2,1.7,-6.7,-2.8,,,*4E
$GNGRS,120238.00,1,8.3,3.7,12.2,11.0,5.7,,,,,,,*78
$GNGST,120238.00,3299292,,,,3.8,5.7,8.3*79
$GNZDA,120238.00,22,05,2025,00,00*72
$GNGBS,120238.00,3.8,5.7,8.3,,,,*57
$GNTXT,01,01,01,More than 100 frame errors, UART RX was disabled*70
b0@hQ/A
$e K"P+%<!,Q Bc5{4Ta:R 
Yh
AfjB5*CLMVW1U;X.bhQ/K;<$GNRMC,120239.00,A,0419.74197,S,05539.73386,E,0.107,,220525,,,A*7F
$GNVTG,,T,,M,0.107,N,0.198,K,A*3B
$GNGNS,120239.00,0419.74197,S,05539.73386,E,AA,14,0.75,9.8,-47.6,,*53
$GNGGA,120239.00,0419.74197,S,05539.73386,E,1,12,0.75,9.8,M,-47.6,M,,*7F
$GNGSA,A,3,32,28,27,18,26,31,16,29,10,,,,1.74,0.75,1.57*13
$GNGSA,A,3,66,87,65,88,67,,,,,,,,1.74,0.75,1.57*12
$GPGSV,5,1,17,08,02,321,30,10,18,357,36,16,25,249,28,18,32,075,19*79
$GPGSV,5,2,17,23,04,034,31,25,02,129,,26,29,218,18,27,37,316,29*74
$GPGSV,5,3,17,28,44,159,25,29,19,147,16,31,29,191,23,32,66,355,28*76
$GPGSV,5,4,17,36,52,277,,40,84,353,,41,58,082,,49,32,274,*7C
$GPGSV,5,5,17,50,10,089,*4A
$GLGSV,2,1,08,65,26,358,23,66,53,298,24,67,24,232,15,76,12,149,*6B
$GLGSV,2,2,08,77,15,195,,86,20,130,,87,49,085,08,88,30,003,26*69
$GNGLL,0419.74197,S,05539.73386,E,120239.00,A,A*62
$GNGRS,120239.00,1,5.6,5.9,-4.8,-23.5,0.4,-1.2,1.3,-6.4,-2.6,,,*6C
$GNGRS,120239.00,1,7.8,3.2,13.9,11.9,5.3,,,,,,,*7F
$GNGST,120239.00,3299292,,,,3.8,5.7,8.3*78
$GNZDA,120239.00,22,05,2025,00,00*73
$GNGBS,120239.00,3.8,5.7,8.3,,,,*56
$GNTXT,01,01,01,More than 100 frame errors, UART RX was disabled*70
b0@PU/A
$e8 Kp"4 %<l,JX Bc{4Ta:R 
Yh
AfB5*CmLMVW1UX$#bPU/3?$GNRMC,120240.00,A,0419.74199,S,05539.73387,E,0.052,,220525,,,A*7F
$GNVTG,,T,,M,0.052,N,0.097,K,A*34
$GNGNS,120240.00,0419.74199,S,05539.73387,E,AA,14,0.75,10.0,-47.6,,*62
$GNGGA,120240.00,0419.74199,S,05539.73387,E,1,12,0.75,10.0,M,-47.6,M,,*4E
$GNGSA,A,3,32,28,27,18,26,31,16,29,10,,,,1.74,0.75,1.57*13
$GNGSA,A,3,66,87,65,88,67,,,,,,,,1.74,0.75,1.57*12
$GPGSV,5,1,17,08,02,321,30,10,18,357,36,16,25,249,27,18,32,075,18*77
$GPGSV,5,2,17,23,04,034,31,25,02,129,,26,29,218,17,27,37,316,29*7B
$GPGSV,5,3,17,28,44,159,25,29,19,147,16,31,29,191,23,32,66,355,29*77
$GPGSV,5,4,17,36,52,277,,40,84,353,,41,58,082,,49,32,274,*7C
$GPGSV,5,5,17,50,10,089,*4A
$GLGSV,2,1,08,65,26,358,24,66,53,298,24,67,24,232,16,76,12,149,*6F
$GLGSV,2,2,08,77,15,195,,86,20,130,,87,49,085,08,88,30,003,26*69
$GNGLL,0419.74199,S,05539.73387,E,120240.00,A,A*63
$GNGRS,120240.00,1,2.8,6.9,-4.0,-21.9,2.9,0.9,3.1,-6.9,-2.6,,,*4B
$GNGRS,120240.00,1,7.7,4.8,14.5,13.2,6.2,,,,,,,*73
$GNGST,120240.00,52,,,,3.8,5.7,8.3*49
$GNZDA,120240.00,22,05,2025,00,00*7D
$GNGBS,120240.00,3.8,5.7,8.3,,,,*58
$GNTXT,01,01,01,More than 100 frame errors, UART RX was disabled*70
b0@8Y/A
$e K"*i%<B, Bc{4Ta:R 
Yh
AfPB5*CLMVW1UXwb8Y/CX$GNRMC,120241.00,A,0419.74200,S,05539.73387,E,0.104,,220525,,,A*7F
$GNVTG,,T,,M,0.104,N,0.193,K,A*33
$GNGNS,120241.00,0419.74200,S,05539.73387,E,AA,14,0.75,10.1,-47.6,,*61
$GNGGA,120241.00,0419.74200,S,05539.73387,E,1,12,0.75,10.1,M,-47.6,M,,*4D
$GNGSA,A,3,32,28,27,18,26,31,16,29,10,,,,1.74,0.75,1.57*13
$GNGSA,A,3,66,87,65,88,67,,,,,,,,1.74,0.75,1.57*12
$GPGSV,5,1,17,08,02,321,31,10,18,357,36,16,25,249,28,18,32,075,17*76
$GPGSV,5,2,17,23,04,034,31,25,02,129,,26,29,218,17,27,37,316,30*73
$GPGSV,5,3,17,28,44,159,26,29,19,147,16,31,29,191,23,32,66,355,29*74
$GPGSV,5,4,17,36,52,277,,40,84,353,,41,58,082,,49,32,274,*7C
$GPGSV,5,5,17,50,10,089,*4A
$GLGSV,2,1,08,65,26,358,25,66,53,298,24,67,24,232,16,76,12,149,*6E
$GLGSV,2,2,08,77,15,195,,86,20,130,,87,49,085,08,88,30,003,26*69
$GNGLL,0419.74200,S,05539.73387,E,120241.00,A,A*61
$GNGRS,120241.00,1,-0.3,4.4,-1.9,-20.8,3.6,1.4,2.5,-8.2,-2.3,,,*6A
$GNGRS,120241.00,1,9.2,3.8,13.6,12.8,1.4,,,,,,,*70
$GNGST,120241.00,23281,,,,3.7,5.7,8.3*7A
$GNZDA,120241.00,22,05,2025,00,00*7C
$GNGBS,120241.00,3.7,5.7,8.3,,,,*56
$GNTXT,01,01,01,More than 100 frame errors, UART RX was disabled*70
b0@ ]/A
$e K"6+%<,M Bc{4Ta:R 
Yh
AfB5*CLMVW1UzX|b ]/G0t$GNRMC,120242.00,A,0419.74198,S,05539.73383,E,0.120,,220525,,,A*7C
$GNVTG,,T,,M,0.120,N,0.223,K,A*3D
$GNGNS,120242.00,0419.74198,S,05539.73383,E,AA,14,0.68,10.2,-47.6,,*6B
$GNGGA,120242.00,0419.74198,S,05539.73383,E,1,12,0.68,10.2,M,-47.6,M,,*47
$GNGSA,A,3,32,28,27,18,26,31,16,29,10,,,,1.70,0.68,1.56*1A
$GNGSA,A,3,66,87,65,88,67,,,,,,,,1.70,0.68,1.56*1B
$GPGSV,5,1,17,08,02,321,31,10,18,357,36,16,25,249,28,18,32,075,17*76
$GPGSV,5,2,17,23,04,034,31,25,02,129,,26,29,218,18,27,37,316,30*7C
$GPGSV,5,3,17,28,44,159,26,29,19,147,15,31,29,191,22,32,66,355,30*7E
$GPGSV,5,4,17,36,52,277,,40,84,353,,41,58,082,,49,32,274,*7C
$GPGSV,5,5,17,50,10,089,*4A
$GLGSV,2,1,08,65,25,358,25,66,53,298,23,67,24,232,15,76,12,149,*69
$GLGSV,2,2,08,77,15,195,,86,20,130,,87,49,085,08,88,30,003,26*69
$GNGLL,0419.74198,S,05539.73383,E,120242.00,A,A*64
$GNGRS,120242.00,1,-1.2,1.8,-0.9,-18.9,5.6,-0.6,-0.4,-6.9,-2.6,,,*6D
$GNGRS,120242.00,1,7.9,3.8,14.7,12.4,2.3,,,,,,,*78
$GNGST,120242.00,33652,,,,3.7,5.6,8.3*73
$GNZDA,120242.00,22,05,2025,00,00*7F
$GNGBS,120242.00,3.7,5.6,8.3,,,,*54
$GNTXT,01,01,01,More than 100 frame errors, UART RX was disabled*70
b0@a/A
$e K"%<H,^
 Bc{4Ta:R 
Yh
AfB4+CwLMVW1U:Xba/J$GNRMC,120243.00,A,0419.74200,S,05539.73382,E,0.113,,220525,,,A*7E
$GNVTG,,T,,M,0.113,N,0.210,K,A*3D
$GNGNS,120243.00,0419.74200,S,05539.73382,E,AA,14,0.84,10.2,-47.6,,*6B
$GNGGA,120243.00,0419.74200,S,05539.73382,E,1,12,0.84,10.2,M,-47.6,M,,*47
$GNGSA,A,3,32,28,27,18,26,31,16,29,10,,,,1.85,0.84,1.64*13
$GNGSA,A,3,66,87,65,88,67,,,,,,,,1.85,0.84,1.64*12
$GPGSV,5,1,17,08,02,321,31,10,18,357,36,16,25,249,28,18,32,075,18*79
$GPGSV,5,2,17,23,04,034,31,25,02,129,,26,29,218,18,27,37,316,29*74
$GPGSV,5,3,17,28,44,159,26,29,19,147,14,31,29,191,23,32,66,355,29*76
$GPGSV,5,4,17,36,52,277,,40,84,353,,41,58,082,,49,32,274,*7C
$GPGSV,5,5,17,50,10,089,*4A
$GLGSV,2,1,08,65,25,358,25,66,52,299,22,67,24,232,16,76,12,149,*6B
$GLGSV,2,2,08,77,15,195,,86,20,130,,87,49,085,09,88,30,003,27*69
$GNGLL,0419.74200,S,05539.73382,E,120243.00,A,A*66
$GNGRS,120243.00,1,-1.0,0.9,-1.8,-20.9,6.5,0.1,0.0,-8.1,-2.5,,,*63
$GNGRS,120243.00,1,9.2,-73.7,14.9,13.0,1.2,,,,,,,*60
$GNGST,120243.00,42,,,,3.7,5.6,8.3*45
$GNZDA,120243.00,22,05,2025,00,00*7E
$GNGBS,120243.00,3.7,5.6,8.3,,,,*55
$GNTXT,01,01,01,More than 100 frame errors, UART RX was disabled*70
b0@d/A
$e K"R%<,L Bcu{4Ta:R 
Yh
Af<B4+CLMVW1UXdAbd/N2$GNRMC,120244.00,A,0419.74198,S,05539.73376,E,0.155,,220525,,,A*72
$GNVTG,,T,,M,0.155,N,0.288,K,A*3E
$GNGNS,120244.00,0419.74198,S,05539.73376,E,AA,14,0.68,10.4,-47.6,,*61
$GNGGA,120244.00,0419.74198,S,05539.73376,E,1,12,0.68,10.4,M,-47.6,M,,*4D
$GNGSA,A,3,32,28,27,18,26,31,16,29,10,,,,1.70,0.68,1.56*1A
$GNGSA,A,3,66,87,65,88,67,,,,,,,,1.70,0.68,1.56*1B
$GPGSV,5,1,17,08,02,321,31,10,18,357,36,16,25,249,28,18,32,075,18*79
$GPGSV,5,2,17,23,04,034,31,25,02,129,,26,29,218,16,27,37,316,30*72
$GPGSV,5,3,17,28,44,159,26,29,19,147,14,31,29,191,24,32,66,355,30*79
$GPGSV,5,4,17,36,52,277,,40,84,353,,41,58,082,,49,32,274,*7C
$GPGSV,5,5,17,50,10,089,*4A
$GLGSV,2,1,08,65,25,358,26,66,52,299,22,67,25,232,16,76,12,149,*69
$GLGSV,2,2,08,77,15,195,,86,20,130,,87,49,085,13,88,30,003,27*62
$GNGLL,0419.74198,S,05539.73376,E,120244.00,A,A*68
$GNGRS,120244.00,1,-1.4,0.1,-0.6,-19.0,7.3,1.3,-0.9,-9.5,-2.6,,,*42
$GNGRS,120244.00,1,9.1,4.1,13.4,11.2,0.2,,,,,,,*74
$GNGST,120244.00,44869,,,,3.6,5.6,8.2*73
$GNZDA,120244.00,22,05,2025,00,00*79
$GNGBS,120244.00,3.6,5.6,8.2,,,,*52
$GNTXT,01,01,01,More than 100 frame errors, UART RX was disabled*70
b0@h/A
$e K"<%<,@XT Bch{4Ta:R 
Yh
Af}B4+CLMVW
1UX6bh/R$GNRMC,120245.00,A,0419.74198,S,05539.73377,E,0.188,,220525,,,A*72
$GNVTG,,T,,M,0.188,N,0.348,K,A*33
$GNGNS,120245.00,0419.74198,S,05539.73377,E,AA,14,0.68,10.3,-47.6,,*66
$GNGGA,120245.00,0419.74198,S,05539.73377,E,1,12,0.68,10.3,M,-47.6,M,,*4A
$GNGSA,A,3,32,28,27,18,26,31,16,29,10,,,,1.70,0.68,1.56*1A
$GNGSA,A,3,66,87,65,88,67,,,,,,,,1.70,0.68,1.56*1B
$GPGSV,5,1,17,08,02,321,30,10,18,357,36,16,25,249,28,18,32,075,18*78
$GPGSV,5,2,17,23,04,034,31,25,02,129,,26,29,218,14,27,37,316,30*70
$GPGSV,5,3,17,28,44,159,27,29,19,147,15,31,29,191,24,32,66,355,30*79
$GPGSV,5,4,17,36,52,277,,40,84,353,,41,58,082,,49,32,274,*7C
$GPGSV,5,5,17,50,10,089,*4A
$GLGSV,2,1,08,65,25,358,26,66,52,299,23,67,25,232,16,76,12,149,*68
$GLGSV,2,2,08,77,15,195,,86,20,130,,87,49,085,10,88,30,003,27*61
$GNGLL,0419.74198,S,05539.73377,E,120245.00,A,A*68
$GNGRS,120245.00,1,-4.1,0.6,-4.9,-17.8,9.8,0.8,-0.5,-9.4,-2.6,,,*4B
$GNGRS,120245.00,1,6.4,4.0,11.5,10.4,-0.4,,,,,,,*51
$GNGST,120245.00,67303,,,,3.6,5.5,8.2*77
$GNZDA,120245.00,22,05,2025,00,00*78
$GNGBS,120245.00,3.6,5.5,8.2,,,,*50
$GNTXT,01,01,01,More than 100 frame errors, UART RX was disabled*70
b0@l/A
$e K"%<3,W Bc{4Ta:R 
Yh
AfPB4+CLMVW
1UX&bl/V$GNRMC,120246.00,A,0419.74192,S,05539.73366,E,0.046,,220525,,,A*78
$GNVTG,,T,,M,0.046,N,0.085,K,A*32
$GNGNS,120246.00,0419.74192,S,05539.73366,E,AA,14,0.68,10.4,-47.6,,*68
$GNGGA,120246.00,0419.74192,S,05539.73366,E,1,12,0.68,10.4,M,-47.6,M,,*44
$GNGSA,A,3,32,28,27,18,26,31,16,29,10,,,,1.70,0.68,1.56*1A
$GNGSA,A,3,66,87,65,88,67,,,,,,,,1.70,0.68,1.56*1B
$GPGSV,5,1,17,08,02,321,29,10,18,357,36,16,25,249,28,18,32,075,20*7B
$GPGSV,5,2,17,23,04,034,31,25,02,129,,26,29,218,14,27,37,316,30*70
$GPGSV,5,3,17,28,44,159,27,29,19,147,15,31,29,191,24,32,66,355,30*79
$GPGSV,5,4,17,36,52,277,,40,84,353,,41,58,082,,49,32,274,*7C
$GPGSV,5,5,17,50,10,089,*4A
$GLGSV,2,1,08,65,25,358,26,66,52,299,24,67,25,232,17,76,12,149,*6E
$GLGSV,2,2,08,77,15,195,,86,20,130,,87,49,085,10,88,30,003,27*61
$GNGLL,0419.74192,S,05539.73366,E,120246.00,A,A*61
$GNGRS,120246.00,1,-6.1,0.9,-2.1,-16.6,13.0,0.3,-0.3,-12.7,-2.6,,,*43
$GNGRS,120246.00,1,5.2,-2.6,11.0,10.6,-0.3,,,,,,,*7A
$GNGST,120246.00,52,,,,3.5,5.4,8.2*40
$GNZDA,120246.00,22,05,2025,00,00*7B
$GNGBS,120246.00,3.5,5.4,8.2,,,,*51
$GNTXT,01,01,01,More than 100 frame errors, UART RX was disabled*70
b0@p/A
$e K"G%<!, Bc{4Ta:R 
Yh
AfyB4+CLMVW
1UXZbp/Zfj$GNRMC,120247.00,A,0419.74190,S,05539.73359,E,0.014,,220525,,,A*70
$GNVTG,,T,,M,0.014,N,0.025,K,A*3F
$GNGNS,120247.00,0419.74190,S,05539.73359,E,AA,14,0.68,10.3,-47.6,,*60
$GNGGA,120247.00,0419.74190,S,05539.73359,E,1,12,0.68,10.3,M,-47.6,M,,*4C
$GNGSA,A,3,32,28,27,18,26,31,16,29,10,,,,1.70,0.68,1.56*1A
$GNGSA,A,3,66,87,65,88,67,,,,,,,,1.70,0.68,1.56*1B
$GPGSV,5,1,17,08,02,321,28,10,18,357,36,16,25,249,28,18,32,075,19*70
$GPGSV,5,2,17,23,04,034,31,25,02,129,,26,29,218,14,27,37,316,29*78
$GPGSV,5,3,17,28,44,159,27,29,19,147,15,31,29,191,23,32,66,355,29*76
$GPGSV,5,4,17,36,52,277,,40,84,353,,41,58,082,,49,32,274,*7C
$GPGSV,5,5,17,50,10,089,*4A
$GLGSV,2,1,08,65,25,358,26,66,52,299,24,67,25,232,17,76,12,149,*6E
$GLGSV,2,2,08,77,15,195,,86,20,130,,87,49,085,10,88,30,003,26*60
$GNGLL,0419.74190,S,05539.73359,E,120247.00,A,A*6E
$GNGRS,120247.00,1,-8.1,0.2,-4.8,-13.7,16.1,1.4,0.2,-13.1,-2.8,,,*6B
$GNGRS,120247.00,1,3.9,4.2,11.4,9.9,-1.1,,,,,,,*69
$GNGST,120247.00,73713,,,,3.5,5.4,8.2*77
$GNZDA,120247.00,22,05,2025,00,00*7A
$GNGBS,120247.00,3.5,5.4,8.2,,,,*50
$GNTXT,01,01,01,More than 100 frame errors, UART RX was disabled*70
b0@t/A
$e K"=%<,x Bc{4Ta:R 
Yh
Af.B4+CLMVW1UX}bt/s^>$GNRMC,120248.00,A,0419.74183,S,05539.73346,E,0.247,,220525,,,A*77
$GNVTG,,T,,M,0.247,N,0.457,K,A*3A
$GNGNS,120248.00,0419.74183,S,05539.73346,E,AA,14,0.68,10.4,-47.6,,*64
$GNGGA,120248.00,0419.74183,S,05539.73346,E,1,12,0.68,10.4,M,-47.6,M,,*48
$GNGSA,A,3,32,28,27,18,26,31,16,29,10,,,,1.70,0.68,1.56*1A
$GNGSA,A,3,66,87,65,88,67,,,,,,,,1.70,0.68,1.56*1B
$GPGSV,5,1,17,08,02,321,27,10,18,357,36,16,25,249,28,18,32,075,20*75
$GPGSV,5,2,17,23,04,034,30,25,02,129,,26,29,218,14,27,37,316,29*79
$GPGSV,5,3,17,28,44,159,26,29,19,147,14,31,29,191,23,32,66,355,29*76
$GPGSV,5,4,17,36,52,277,,40,84,353,,41,58,082,,49,32,274,*7C
$GPGSV,5,5,17,50,10,089,*4A
$GLGSV,2,1,08,65,25,358,26,66,52,299,24,67,25,232,16,76,12,149,*6F
$GLGSV,2,2,08,77,15,195,,86,20,130,,87,49,085,13,88,30,003,26*63
$GNGLL,0419.74183,S,05539.73346,E,120248.00,A,A*6D
$GNGRS,120248.00,1,-5.4,2.8,2.5,-13.0,13.4,3.9,-0.9,-14.2,-2.8,,,*68
$GNGRS,120248.00,1,4.4,4.4,10.7,10.0,-2.3,,,,,,,*58
$GNGST,120248.00,108967,,,,3.4,5.3,8.2*4E
$GNZDA,120248.00,22,05,2025,00,00*75
$GNGBS,120248.00,3.4,5.3,8.2,,,,*59
$GNTXT,01,01,01,More than 100 frame errors, UART RX was disabled*70
b0@xx/A
$e] K"t%<=,V Bco{4Ta:R 
Yh
AfB4+CLMVW1UXm,bxx/[b:$GNRMC,120249.00,A,0419.74179,S,05539.73339,E,0.240,,220525,,,A*7C
$GNVTG,,T,,M,0.240,N,0.445,K,A*3E
$GNGNS,120249.00,0419.74179,S,05539.73339,E,AA,14,0.68,10.5,-47.6,,*69
$GNGGA,120249.00,0419.74179,S,05539.73339,E,1,12,0.68,10.5,M,-47.6,M,,*45
$GNGSA,A,3,32,28,27,18,26,31,16,29,10,,,,1.70,0.68,1.56*1A
$GNGSA,A,3,66,87,65,88,67,,,,,,,,1.70,0.68,1.56*1B
$GPGSV,5,1,17,08,02,321,27,10,18,357,36,16,25,249,28,18,32,075,20*75
$GPGSV,5,2,17,23,04,034,30,25,02,129,,26,29,218,11,27,37,316,30*74
$GPGSV,5,3,17,28,44,159,26,29,19,147,13,31,29,191,23,32,66,355,29*71
$GPGSV,5,4,17,36,52,277,,40,84,353,,41,58,082,,49,32,274,*7C
$GPGSV,5,5,17,50,10,089,*4A
$GLGSV,2,1,08,65,25,358,25,66,52,299,23,67,25,232,17,76,12,149,*6A
$GLGSV,2,2,08,77,15,195,,86,20,130,,87,49,085,09,88,30,003,25*6B
$GNGLL,0419.74179,S,05539.73339,E,120249.00,A,A*61
$GNGRS,120249.00,1,-1.4,5.4,-2.0,-13.1,14.4,3.4,0.9,-15.3,-2.8,,,*68
$GNGRS,120249.00,1,7.4,-10.1,9.4,10.1,-3.8,,,,,,,*77
$GNGST,120249.00,57,,,,3.4,5.3,8.2*4C
$GNZDA,120249.00,22,05,2025,00,00*74
$GNGBS,120249.00,3.4,5.3,8.2,,,,*58
$GNTXT,01,01,01,More than 100 frame errors, UART RX was disabled*70
b0@`|/A
$e[ K",%<,H Bc\{4Ta:R 
Yh
AfRB4+&CLMVW1UyX:ub`|/Cf$GNRMC,120250.00,A,0419.74178,S,05539.73338,E,0.106,,220525,,,A*75
$GNVTG,,T,,M,0.106,N,0.196,K,A*34
$GNGNS,120250.00,0419.74178,S,05539.73338,E,AA,13,0.71,10.7,-47.6,,*6C
$GNGGA,120250.00,0419.74178,S,05539.73338,E,1,12,0.71,10.7,M,-47.6,M,,*47
$GNGSA,A,3,32,28,27,18,31,16,29,10,,,,,1.71,0.71,1.56*17
$GNGSA,A,3,66,87,65,88,67,,,,,,,,1.71,0.71,1.56*12
$GPGSV,5,1,17,08,02,321,26,10,18,357,36,16,25,249,27,18,32,075,21*7A
$GPGSV,5,2,17,23,04,034,31,25,02,129,,26,29,218,14,27,37,316,30*70
$GPGSV,5,3,17,28,44,159,26,29,19,147,14,31,29,191,23,32,66,355,29*76
$GPGSV,5,4,17,36,52,277,,40,84,353,,41,58,082,,49,32,274,*7C
$GPGSV,5,5,17,50,10,089,*4A
$GNTXT,01,01,01,More than 100 frame errors, UART RX was disabled*70
$GLGSV,2,1,08,65,25,358,26,66,52,299,22,67,25,232,17,76,12,149,*68
$GLGSV,2,2,08,77,15,195,,86,20,130,,87,49,085,11,88,30,003,25*62
$GNGLL,0419.74178,S,05539.73338,E,120250.00,A,A*69
$GNGRS,120250.00,1,0.9,5.8,-5.3,-13.3,2.3,3.5,-18.9,-2.8,,,,*5A
$GNGRS,120250.00,1,8.1,3.8,8.5,10.8,-6.2,,,,,,,*65
$GNGST,120250.00,166295,,,,3.4,5.3,8.2*49
$GNZDA,120250.00,22,05,2025,00,00*7C
$GNGBS,120250.00,3.4,5.3,8.2,,,,*50
b0@H/A
#e= KO"%<7,J BcR{4Ta:R 
Yh
AfB4+qCLMVW1UWX4bH/+j
$GNRMC,120251.00,A,0419.74178,S,05539.73335,E,0.128,,220525,,,A*75
$GNVTG,,T,,M,0.128,N,0.236,K,A*31
$GNGNS,120251.00,0419.74178,S,05539.73335,E,AA,14,0.68,10.8,-47.6,,*60
$GNGGA,120251.00,0419.74178,S,05539.73335,E,1,12,0.68,10.8,M,-47.6,M,,*4C
$GNGSA,A,3,32,28,27,18,26,31,16,29,10,,,,1.70,0.68,1.56*1A
$GNGSA,A,3,66,87,65,88,67,,,,,,,,1.70,0.68,1.56*1B
$GPGSV,5,1,17,08,02,321,27,10,18,357,35,16,25,249,28,18,32,075,22*74
$GPGSV,5,2,17,23,04,034,31,25,02,129,,26,29,218,14,27,37,316,29*78
$GPGSV,5,3,17,28,44,159,27,29,19,147,14,31,29,191,23,32,66,355,28*76
$GPGSV,5,4,17,36,52,277,,40,84,353,,41,58,082,,49,32,274,*7C
$GPGSV,5,5,17,50,10,089,*4A
$GLGSV,2,1,08,65,25,358,26,66,52,299,22,67,25,232,16,76,12,149,*69
$GLGSV,2,2,08,77,15,195,,86,20,130,,87,49,085,11,88,30,003,26*61
$GNGLL,0419.74178,S,05539.73335,E,120251.00,A,A*65
$GNGRS,120251.00,1,0.8,4.2,-2.0,-14.6,13.0,1.4,3.2,-14.6,-2.6,,,*45
$GNGRS,120251.00,1,8.8,3.4,9.7,11.6,-6.1,,,,,,,*6E
$GNGST,120251.00,3179277,,,,3.3,5.2,8.2*7F
$GNZDA,120251.00,22,05,2025,00,00*7D
$GNGBS,120251.00,3.3,5.2,8.2,,,,*57
$GNTXT,01,01,01,More than 100 frame errors, UART RX was disabled*70
b0@0/A
$e5y K"c%<H, BcA{4Ta:R 
Yh
Af%B4+CLMVW1UNXeb0/nr$GNRMC,120252.00,A,0419.74181,S,05539.73331,E,0.019,,220525,,,A*77
$GNVTG,,T,,M,0.019,N,0.036,K,A*30
$GNGNS,120252.00,0419.74181,S,05539.73331,E,AA,14,0.68,10.8,-47.6,,*61
$GNGGA,120252.00,0419.74181,S,05539.73331,E,1,12,0.68,10.8,M,-47.6,M,,*4D
$GNGSA,A,3,32,28,27,18,26,31,16,29,10,,,,1.70,0.68,1.56*1A
$GNGSA,A,3,66,87,65,88,67,,,,,,,,1.70,0.68,1.56*1B
$GPGSV,5,1,17,08,02,321,26,10,18,357,36,16,25,249,28,18,32,075,21*75
$GPGSV,5,2,17,23,04,034,29,25,02,129,,26,29,218,14,27,37,316,28*70
$GPGSV,5,3,17,28,44,159,27,29,19,147,12,31,29,191,22,32,66,355,20*79
$GPGSV,5,4,17,36,52,277,,40,84,353,,41,58,082,,49,32,274,*7C
$GPGSV,5,5,17,50,10,089,*4A
$GLGSV,2,1,08,65,25,358,25,66,52,299,22,67,25,232,15,76,12,149,*69
$GLGSV,2,2,08,77,15,195,,86,20,130,,87,49,085,20,88,30,003,24*61
$GNGLL,0419.74181,S,05539.73331,E,120252.00,A,A*64
$GNGRS,120252.00,1,-1.9,4.8,-1.8,-13.5,13.8,1.7,3.8,-8.2,-2.0,,,*50
$GNGRS,120252.00,1,9.1,-14.6,8.0,8.7,-8.3,,,,,,,*4F
$GNGST,120252.00,54,,,,3.3,5.2,8.3*42
$GNZDA,120252.00,22,05,2025,00,00*7E
$GNGBS,120252.00,3.3,5.2,8.3,,,,*55
$GNTXT,01,01,01,More than 100 frame errors, UART RX was disabled*70
b0@/A
$e>z K"6%<
,
w Bcb{4Ta:R 
Yh
AfWB4+C{LMVW1U@XM[b/qu$GNRMC,120253.00,A,0419.74183,S,05539.73322,E,0.109,,220525,,,A*76
$GNVTG,,T,,M,0.109,N,0.201,K,A*36
$GNGNS,120253.00,0419.74183,S,05539.73322,E,AA,14,0.68,10.9,-47.6,,*61
$GNGGA,120253.00,0419.74183,S,05539.73322,E,1,12,0.68,10.9,M,-47.6,M,,*4D
$GNGSA,A,3,32,28,27,18,26,31,16,29,10,,,,1.70,0.68,1.56*1A
$GNGSA,A,3,66,87,65,88,67,,,,,,,,1.70,0.68,1.56*1B
$GPGSV,5,1,17,08,02,321,25,10,18,357,36,16,25,249,28,18,32,075,20*77
$GPGSV,5,2,17,23,04,034,28,25,02,129,,26,29,218,14,27,37,316,28*71
$GPGSV,5,3,17,28,44,159,26,29,19,147,10,31,29,191,22,32,66,355,19*70
$GPGSV,5,4,17,36,52,277,,40,84,353,,41,58,082,,49,32,274,*7C
$GPGSV,5,5,17,50,10,089,*4A
$GLGSV,2,1,08,65,25,358,24,66,52,299,21,67,25,232,13,76,12,149,*6D
$GLGSV,2,2,08,77,15,195,,86,20,130,,87,49,085,18,88,30,003,23*6D
$GNGLL,0419.74183,S,05539.73322,E,120253.00,A,A*65
$GNGRS,120253.00,1,-1.6,5.0,0.1,-15.6,12.8,-0.3,3.8,-3.9,-1.9,,,*54
$GNGRS,120253.00,1,10.4,0.6,8.5,8.5,-6.5,,,,,,,*64
$GNGST,120253.00,59,,,,3.3,5.1,8.5*4B
$GNZDA,120253.00,22,05,2025,00,00*7F
$GNGBS,120253.00,3.3,5.1,8.5,,,,*51
$GNTXT,01,01,01,More than 100 frame errors, UART RX was disabled*70
$GNTXT,01,01,01,More than 100 frame errors, UART RX was disabled*70
b0@/A
%e^ K"]%<q,w Bc{4Ta:R 
Yh
AfB4+CMLMVW1UX}b/uM?$GNRMC,120254.00,A,0419.74184,S,05539.73315,E,0.110,,220525,,,A*7A
$GNVTG,,T,,M,0.110,N,0.203,K,A*3C
$GNGNS,120254.00,0419.74184,S,05539.73315,E,AA,13,0.76,11.1,-47.6,,*64
$GNGGA,120254.00,0419.74184,S,05539.73315,E,1,12,0.76,11.1,M,-47.6,M,,*4F
$GNGSA,A,3,32,28,27,18,26,31,16,10,,,,,1.87,0.76,1.71*13
$GNGSA,A,3,66,87,65,88,67,,,,,,,,1.87,0.76,1.71*19
$GPGSV,5,1,17,08,02,321,25,10,18,357,37,16,25,249,27,18,32,075,19*73
$GPGSV,5,2,17,23,04,034,27,25,02,129,,26,29,218,14,27,37,316,28*7E
$GPGSV,5,3,17,28,44,159,26,29,19,147,09,31,29,191,21,32,66,355,21*70
$GPGSV,5,4,17,36,52,277,,40,84,353,,41,58,082,,49,32,274,*7C
$GPGSV,5,5,17,50,10,089,*4A
$GLGSV,2,1,08,65,25,358,25,66,52,299,20,67,25,232,11,76,12,149,*6F
$GLGSV,2,2,08,77,15,194,,86,20,130,,87,49,085,21,88,30,003,23*66
$GNGLL,0419.74184,S,05539.73315,E,120254.00,A,A*61
$GNGRS,120254.00,1,1.4,6.8,-1.4,-15.0,13.7,-1.4,4.1,-1.6,,,,*58
$GNGRS,120254.00,1,10.2,-0.5,4.3,6.7,-6.9,,,,,,,*41
$GNGST,120254.00,53,,,,3.3,5.1,8.6*45
$GNZDA,120254.00,22,05,2025,00,00*78
$GNGBS,120254.00,3.3,5.1,8.6,,,,*55
b0@/@
$em K"4f%<,D Bc{4Ta:R 
Yh
AfB4+CSLMVW1UX-b/y$$GNRMC,120255.00,A,0419.74186,S,05539.73310,E,0.120,,220525,,,A*7F
$GNVTG,,T,,M,0.120,N,0.223,K,A*3D
$GNGNS,120255.00,0419.74186,S,05539.73310,E,AA,12,0.78,11.2,-47.6,,*6E
$GNGGA,120255.00,0419.74186,S,05539.73310,E,1,12,0.78,11.2,M,-47.6,M,,*44
$GNGSA,A,3,32,28,27,18,26,31,16,10,,,,,1.91,0.78,1.75*1E
$GNGSA,A,3,66,87,65,88,,,,,,,,,1.91,0.78,1.75*15
$GPGSV,5,1,17,08,02,320,25,10,18,357,36,16,25,249,27,18,32,075,20*79
$GPGSV,5,2,17,23,04,034,29,25,02,129,,26,29,218,14,27,37,316,28*70
$GPGSV,5,3,17,28,44,159,26,29,19,147,08,31,29,191,22,32,66,355,24*77
$GPGSV,5,4,17,36,52,277,,40,84,353,,41,58,082,,49,32,274,*7C
$GPGSV,5,5,17,50,10,089,*4A
$GLGSV,2,1,08,65,25,358,24,66,52,299,21,67,25,232,09,76,12,149,*66
$GLGSV,2,2,08,77,15,194,,86,20,130,,87,49,085,22,88,30,003,23*65
$GNGLL,0419.74186,S,05539.73310,E,120255.00,A,A*67
$GNGRS,120255.00,1,1.8,8.4,1.3,-12.6,16.4,-0.6,7.1,-1.5,,,,*79
$GNGRS,120255.00,1,9.4,-3.5,2.7,9.2,,,,,,,,*79
$GNGST,120255.00,43,,,,3.3,5.1,8.7*44
$GNZDA,120255.00,22,05,2025,00,00*79
$GNGBS,120255.00,3.3,5.1,8.7,,,,*55
$GNTXT,01,01,01,More than 100 frame errors, UART RX was disabled*70
b0@/@
$e~ K"%<,- Bc{4Ta:R 
Yh
AfB4+CDLMVW1UX{b/}$GNRMC,120256.00,A,0419.74187,S,05539.73304,E,0.023,,220525,,,A*7A
$GNVTG,,T,,M,0.023,N,0.043,K,A*3B
$GNGNS,120256.00,0419.74187,S,05539.73304,E,AA,14,0.68,11.4,-47.6,,*68
$GNGGA,120256.00,0419.74187,S,05539.73304,E,1,12,0.68,11.4,M,-47.6,M,,*44
$GNGSA,A,3,32,28,27,18,26,31,16,29,10,,,,1.70,0.68,1.56*1A
$GNGSA,A,3,66,87,65,88,67,,,,,,,,1.70,0.68,1.56*1B
$GPGSV,5,1,17,08,02,320,25,10,18,357,36,16,25,249,27,18,32,075,21*78
$GPGSV,5,2,17,23,04,034,29,25,02,129,,26,29,218,14,27,37,316,28*70
$GPGSV,5,3,17,28,44,159,27,29,19,147,11,31,29,191,24,32,66,355,24*78
$GPGSV,5,4,17,36,52,277,,40,84,353,,41,58,082,,49,32,274,*7C
$GPGSV,5,5,17,50,10,089,*4A
$GLGSV,2,1,08,65,25,358,23,66,52,299,21,67,25,232,14,76,12,149,*6D
$GLGSV,2,2,08,77,15,194,,86,20,130,,87,49,085,20,88,30,003,23*67
$GNGLL,0419.74187,S,05539.73304,E,120256.00,A,A*60
$GNGRS,120256.00,1,2.0,6.7,4.6,-10.1,14.3,-0.8,4.2,-2.1,-1.3,,,*74
$GNGRS,120256.00,1,9.6,-5.2,4.7,6.4,-7.0,,,,,,,*72
$GNGST,120256.00,50,,,,3.3,5.1,8.8*4A
$GNZDA,120256.00,22,05,2025,00,00*7A
$GNGBS,120256.00,3.3,5.1,8.8,,,,*59
$GNTXT,01,01,01,More than 100 frame errors, UART RX was disabled*70
b0@/@>
#e7 K"< %<,8Q Bc{4Ta:R 
Yh
AfB4+C%LMVW1UTX8>Zb/h$GNRMC,120257.00,A,0419.74187,S,05539.73298,E,0.049,,220525,,,A*73
$GNVTG,,T,,M,0.049,N,0.092,K,A*3B
$GNGNS,120257.00,0419.74187,S,05539.73298,E,AA,14,0.68,11.8,-47.6,,*61
$GNGGA,120257.00,0419.74187,S,05539.73298,E,1,12,0.68,11.8,M,-47.6,M,,*4D
$GNGSA,A,3,32,28,27,18,26,31,16,29,10,,,,1.70,0.68,1.56*1A
$GNGSA,A,3,66,87,65,88,67,,,,,,,,1.70,0.68,1.56*1B
$GPGSV,5,1,17,08,02,320,25,10,18,357,35,16,25,249,28,18,32,075,21*74
$GPGSV,5,2,17,23,04,034,29,25,02,129,,26,29,218,15,27,37,316,29*70
$GPGSV,5,3,17,28,44,159,26,29,19,147,14,31,29,191,25,32,66,355,25*7C
$GPGSV,5,4,17,36,52,277,,40,84,353,,41,58,082,,49,32,274,*7C
$GPGSV,5,5,17,50,10,089,*4A
$GLGSV,2,1,08,65,25,358,24,66,52,299,21,67,25,232,16,76,12,149,*68
$GLGSV,2,2,08,77,15,194,,86,20,130,,87,49,085,20,88,30,003,23*67
$GNGLL,0419.74187,S,05539.73298,E,120257.00,A,A*65
$GNGRS,120257.00,1,2.4,4.8,1.6,-7.9,15.7,0.8,3.1,-4.6,-1.2,,,*6B
$GNGRS,120257.00,1,9.9,-6.8,4.9,5.7,-7.3,,,,,,,*78
$GNTXT,01,01,01,More than 100 frame errors, UART RX was disabled*70
$GNGST,120257.00,45,,,,3.3,5.0,9.0*47
$GNZDA,120257.00,22,05,2025,00,00*7B
$GNGBS,120257.00,3.3,5.0,9.0,,,,*50
b0@/@
"e K" %<, Bc5{4Ta:R 
Yh
AfB4+CLMVW1UXb/$GNRMC,120258.00,A,0419.74189,S,05539.73290,E,0.108,,220525,,,A*7E
$GNVTG,,T,,M,0.108,N,0.200,K,A*36
$GNGNS,120258.00,0419.74189,S,05539.73290,E,AA,14,0.68,11.9,-47.6,,*69
$GNGGA,120258.00,0419.74189,S,05539.73290,E,1,12,0.68,11.9,M,-47.6,M,,*45
$GNGSA,A,3,32,28,27,18,26,31,16,29,10,,,,1.70,0.68,1.56*1A
$GNGSA,A,3,66,87,65,88,67,,,,,,,,1.70,0.68,1.56*1B
$GPGSV,5,1,17,08,02,320,25,10,18,357,34,16,25,249,28,18,32,075,24*70
$GPGSV,5,2,17,23,04,034,29,25,02,129,,26,29,218,16,27,37,316,32*79
$GPGSV,5,3,17,28,44,159,29,29,19,147,17,31,29,191,23,32,66,355,25*76
$GPGSV,5,4,17,36,52,277,,40,84,353,,41,58,082,,49,32,274,*7C
$GPGSV,5,5,17,50,10,089,*4A
$GLGSV,2,1,08,65,25,358,23,66,52,299,23,67,25,232,18,76,12,149,*63
$GLGSV,2,2,08,77,15,194,,86,20,130,,87,49,085,22,88,30,003,23*65
$GNGLL,0419.74189,S,05539.73290,E,120258.00,A,A*6C
$GNGRS,120258.00,1,3.1,2.7,-1.2,-8.1,14.8,2.8,1.5,-2.6,-0.8,,,*40
$GNGRS,120258.00,1,7.9,-8.8,2.3,5.3,-7.5,,,,,,,*79
$GNGST,120258.00,42,,,,3.2,4.9,9.0*46
$GNZDA,120258.00,22,05,2025,00,00*74
$GNGBS,120258.00,3.2,4.9,9.0,,,,*56
$GNTXT,01,01,01,More than 100 frame errors, UART RX was disabled*70
$GNTXT,01,01,01,More than 100 frame errors, UART RX was disabled*70
b0@/@
"e K"%<,- Bc<{4Ta:R 
Yh
AfB4+C*LMVW1UXn(b/k8$GNRMC,120259.00,A,0419.74190,S,05539.73283,E,0.052,,220525,,,A*7B
$GNVTG,,T,,M,0.052,N,0.096,K,A*35
$GNGNS,120259.00,0419.74190,S,05539.73283,E,AA,14,0.68,11.9,-47.6,,*62
$GNGGA,120259.00,0419.74190,S,05539.73283,E,1,12,0.68,11.9,M,-47.6,M,,*4E
$GNGSA,A,3,32,28,27,18,26,31,16,29,10,,,,1.70,0.68,1.56*1A
$GNGSA,A,3,66,87,65,88,67,,,,,,,,1.70,0.68,1.56*1B
$GPGSV,5,1,17,08,02,320,25,10,18,357,34,16,25,249,28,18,32,075,23*77
$GPGSV,5,2,17,23,04,034,29,25,02,129,,26,29,218,15,27,37,316,31*79
$GPGSV,5,3,17,28,44,159,27,29,19,147,16,31,29,191,23,32,66,355,26*7A
$GPGSV,5,4,17,36,52,277,,40,84,353,,41,58,082,,49,32,274,*7C
$GPGSV,5,5,17,50,10,089,*4A
$GLGSV,2,1,08,65,25,358,25,66,52,299,20,67,25,232,16,76,12,149,*68
$GLGSV,2,2,08,77,15,194,,86,20,130,,87,49,085,21,88,30,003,22*67
$GNGLL,0419.74190,S,05539.73283,E,120259.00,A,A*67
$GNGRS,120259.00,1,5.7,0.5,-1.1,-8.2,12.7,5.1,2.4,-2.6,-0.7,,,*4B
$GNGRS,120259.00,1,8.0,-11.3,1.4,4.6,-9.8,,,,,,,*4E
$GNGST,120259.00,44,,,,3.2,4.9,9.1*40
$GNZDA,120259.00,22,05,2025,00,00*75
$GNGBS,120259.00,3.2,4.9,9.1,,,,*56
$GNTXT,01,01,01,More than 100 frame errors, UART RX was disabled*70
b0@p/@&
"e K"%<A,f Bc{4Ta:R 
Yh
AfB4+CLMVW1UHX[bp/S\$GNRMC,120300.00,A,0419.74184,S,05539.73270,E,0.169,,220525,,,A*76
$GNVTG,,T,,M,0.169,N,0.312,K,A*33
$GNGNS,120300.00,0419.74184,S,05539.73270,E,AA,14,0.68,12.3,-47.6,,*6F
$GNGGA,120300.00,0419.74184,S,05539.73270,E,1,12,0.68,12.3,M,-47.6,M,,*43
$GNGSA,A,3,32,28,27,18,26,31,16,29,10,,,,1.70,0.68,1.56*1A
$GNGSA,A,3,66,87,65,88,67,,,,,,,,1.70,0.68,1.56*1B
$GPGSV,5,1,17,08,02,320,26,10,18,357,34,16,25,249,28,18,32,075,22*75
$GPGSV,5,2,17,23,04,034,28,25,02,129,,26,29,218,14,27,37,316,31*79
$GPGSV,5,3,17,28,44,159,25,29,19,147,15,31,29,191,24,32,66,355,27*7D
$GPGSV,5,4,17,36,52,277,,40,84,353,,41,58,082,,49,32,274,*7C
$GPGSV,5,5,17,50,10,089,*4A
$GLGSV,2,1,08,65,25,358,26,66,52,299,19,67,25,232,15,76,12,149,*62
$GLGSV,2,2,08,77,15,194,,86,20,130,,87,49,085,20,88,30,003,22*66
$GNGLL,0419.74184,S,05539.73270,E,120300.00,A,A*63
$GNGRS,120300.00,1,3.8,1.0,-1.9,-7.7,14.9,1.9,1.5,-3.5,-0.7,,,*4D
$GNGRS,120300.00,1,7.8,-14.6,1.7,3.5,-13.8,,,,,,,*78
$GNGST,120300.00,46,,,,3.2,4.9,9.2*4C
$GNZDA,120300.00,22,05,2025,00,00*78
$GNGBS,120300.00,3.2,4.9,9.2,,,,*58
b0@X/@c
"e7 K#s%<,i:0 Bc7{4Ta:R 
Yh
Af,B4+ECLMVW1UXbX/;4$GNRMC,120301.00,A,0419.74174,S,05539.73252,E,0.365,,220525,,,A*76
$GNVTG,,T,,M,0.365,N,0.676,K,A*3A
$GNGNS,120301.00,0419.74174,S,05539.73252,E,AA,14,0.68,12.8,-47.6,,*6A
$GNGGA,120301.00,0419.74174,S,05539.73252,E,1,12,0.68,12.8,M,-47.6,M,,*46
$GNGSA,A,3,32,28,27,18,26,31,16,29,10,,,,1.70,0.68,1.56*1A
$GNGSA,A,3,66,87,65,88,67,,,,,,,,1.70,0.68,1.56*1B
$GPGSV,5,1,17,08,02,320,27,10,18,357,34,16,25,249,29,18,32,075,21*76
$GPGSV,5,2,17,23,04,035,29,25,02,129,,26,29,218,14,27,37,316,29*70
$GPGSV,5,3,17,28,44,159,24,29,19,147,13,31,29,191,24,32,66,355,25*78
$GPGSV,5,4,17,36,52,277,,40,84,353,,41,58,082,,49,32,274,*7C
$GPGSV,5,5,17,50,10,089,*4A
$GLGSV,2,1,08,65,25,358,26,66,52,299,19,67,25,232,15,76,12,149,*62
$GLGSV,2,2,08,77,15,194,,86,20,130,,87,49,085,20,88,30,003,22*66
$GNGLL,0419.74174,S,05539.73252,E,120301.00,A,A*6D
$GNGRS,120301.00,1,3.1,3.6,1.9,-10.2,16.5,0.5,0.6,-4.5,-0.5,,,*5B
$GNGRS,120301.00,1,8.4,-13.3,0.4,1.5,-15.9,,,,,,,*7F
$GNGST,120301.00,47,,,,3.2,4.9,9.3*4D
$GNZDA,120301.00,22,05,2025,00,00*79
$GNGBS,120301.00,3.2,4.9,9.3,,,,*58
$GNTXT,01,01,01,More than 100 frame errors, UART RX was disabled*70
b0@@/@;
#e Ku#%<,
 Bc{4Ta:R 
Yh
AfB4+8CGLMVW1UXb@/#p$GNRMC,120302.00,A,0419.74170,S,05539.73248,E,0.199,,220525,,,A*7B
$GNVTG,,T,,M,0.199,N,0.369,K,A*30
$GNGNS,120302.00,0419.74170,S,05539.73248,E,AA,13,0.76,13.2,-47.6,,*65
$GNGGA,120302.00,0419.74170,S,05539.73248,E,1,12,0.76,13.2,M,-47.6,M,,*4E
