b0@U+A
 c H~!9|$=+j #Db{4Ta:R 
Yg
Ae#B6'CLMVW0RX%2bU+?$GNRMC,115818.00,A,0419.74223,S,05539.72882,E,0.041,,220525,,,A*71
$GNVTG,,T,,M,0.041,N,0.077,K,A*38
$GNGNS,115818.00,0419.74223,S,05539.72882,E,AA,13,0.89,7.4,-47.6,,*58
$GNGGA,115818.00,0419.74223,S,05539.72882,E,1,12,0.89,7.4,M,-47.6,M,,*73
$GNGSA,A,3,32,28,27,18,26,31,16,10,,,,,1.96,0.89,1.75*17
$GNGSA,A,3,66,87,65,88,67,,,,,,,,1.96,0.89,1.75*1D
$GPGSV,5,1,17,08,01,321,19,10,19,355,32,16,25,251,24,18,32,072,16*7B
$GPGSV,5,2,17,23,04,033,17,25,03,130,,26,29,220,24,27,36,317,29*7A
$GPGSV,5,3,17,28,43,161,26,29,21,146,,31,28,193,15,32,68,354,35*71
$GPGSV,5,4,17,36,52,277,,40,84,353,,41,58,082,,49,32,274,*7C
$GPGSV,5,5,17,50,10,089,*4A
$GLGSV,2,1,08,65,28,357,28,66,54,295,25,67,23,230,19,76,13,151,*6B
$GLGSV,2,2,08,77,15,197,,86,21,128,,87,48,082,17,88,28,002,37*63
$GNGLL,0419.74223,S,05539.72882,E,115818.00,A,A*6F
$GNGRS,115818.00,1,-0.4,0.1,-0.9,-62.7,-6.4,16.4,-8.0,-0.9,,,,*5B
$GNGRS,115818.00,1,-7.4,7.2,2.9,-1.2,-5.3,,,,,,,*5F
$GNGST,115818.00,44,,,,4.7,6.0,6.9*47
$GNZDA,115818.00,22,05,2025,00,00*7C
$GNGBS,115818.00,4.7,6.0,6.9,,,,*51
$GNTXT,01,01,01,More than 100 frame errors, UART RX was disabled*70
b0@Y+A
$c H4!6!$=K+ (Db{4Ta:R 
Yg
AeB6'C-LMVW0RX&fAbY+Cp$GNRMC,115819.00,A,0419.74219,S,05539.72886,E,0.186,,220525,,,A*77
$GNVTG,,T,,M,0.186,N,0.345,K,A*30
$GNGNS,115819.00,0419.74219,S,05539.72886,E,AA,12,0.94,7.5,-47.6,,*58
$GNGGA,115819.00,0419.74219,S,05539.72886,E,1,12,0.94,7.5,M,-47.6,M,,*72
$GNGSA,A,3,32,28,27,18,26,16,10,,,,,,2.03,0.94,1.80*1C
$GNGSA,A,3,66,87,65,88,67,,,,,,,,2.03,0.94,1.80*14
$GPGSV,5,1,17,08,01,321,17,10,19,355,36,16,25,251,23,18,32,072,16*76
$GPGSV,5,2,17,23,04,033,18,25,03,130,,26,29,220,23,27,36,317,33*79
$GPGSV,5,3,17,28,43,161,26,29,21,146,,31,28,193,,32,68,354,40*77
$GPGSV,5,4,17,36,52,277,,40,84,353,,41,58,082,,49,32,274,*7C
$GPGSV,5,5,17,50,10,089,*4A
$GLGSV,2,1,08,65,28,357,28,66,54,295,23,67,23,230,17,76,13,151,*63
$GLGSV,2,2,08,77,15,197,,86,21,128,,87,48,082,16,88,28,002,38*6D
$GNGLL,0419.74219,S,05539.72886,E,115819.00,A,A*63
$GNGRS,115819.00,1,-0.4,2.1,3.3,-48.1,-7.1,-7.4,-0.9,,,,,*60
$GNGRS,115819.00,1,-8.3,7.8,4.4,-1.0,-7.2,,,,,,,*56
$GNGST,115819.00,44,,,,4.7,5.9,6.8*4D
$GNZDA,115819.00,22,05,2025,00,00*7D
$GNGBS,115819.00,4.7,5.9,6.8,,,,*5B
$GNTXT,01,01,01,More than 100 frame errors, UART RX was disabled*70
b0@]+A
$c HW! $=+ (Db{4Ta:R 
Yg
A"eB6'uC}LMVW0RX,b]+GHt$GNRMC,115820.00,A,0419.74215,S,05539.72891,E,0.181,,220525,,,A*70
$GNVTG,,T,,M,0.181,N,0.335,K,A*30
$GNGNS,115820.00,0419.74215,S,05539.72891,E,AA,12,0.94,7.6,-47.6,,*5B
$GNGGA,115820.00,0419.74215,S,05539.72891,E,1,12,0.94,7.6,M,-47.6,M,,*71
$GNGSA,A,3,32,28,27,18,26,16,10,,,,,,2.03,0.94,1.80*1C
$GNGSA,A,3,66,87,65,88,67,,,,,,,,2.03,0.94,1.80*14
$GPGSV,5,1,17,08,01,321,17,10,19,355,36,16,25,251,24,18,32,072,18*7F
$GPGSV,5,2,17,23,04,033,19,25,03,130,,26,29,220,23,27,36,317,32*79
$GPGSV,5,3,17,28,43,161,26,29,21,146,,31,28,193,,32,68,354,40*77
$GPGSV,5,4,17,36,52,277,,40,84,353,,41,58,082,,49,32,274,*7C
$GPGSV,5,5,17,50,10,089,*4A
$GLGSV,2,1,08,65,28,357,34,66,54,295,25,67,23,230,20,76,13,151,*6C
$GLGSV,2,2,08,77,15,197,,86,21,128,,87,48,082,19,88,28,002,44*69
$GNGLL,0419.74215,S,05539.72891,E,115820.00,A,A*63
$GNGRS,115820.00,1,-0.2,4.6,-0.3,-42.6,-6.4,-7.7,-0.9,,,,,*49
$GNGRS,115820.00,1,-6.5,7.5,4.1,-1.1,-9.0,,,,,,,*51
$GNGST,115820.00,42,,,,4.6,5.9,6.6*4E
$GNZDA,115820.00,22,05,2025,00,00*77
$GNGBS,115820.00,4.6,5.9,6.6,,,,*5E
$GNTXT,01,01,01,More than 100 frame errors, UART RX was disabled*70
b0@a+A
$c H!^ $=R+ )Db{4Ta:R 
Yg
A!eB6'}CLMVW0RX)j&ba+{K $GNRMC,115821.00,A,0419.74208,S,05539.72892,E,0.089,,220525,,,A*77
$GNVTG,,T,,M,0.089,N,0.165,K,A*3E
$GNGNS,115821.00,0419.74208,S,05539.72892,E,AA,12,0.94,7.7,-47.6,,*54
$GNGGA,115821.00,0419.74208,S,05539.72892,E,1,12,0.94,7.7,M,-47.6,M,,*7E
$GNGSA,A,3,32,28,27,18,26,16,10,,,,,,2.03,0.94,1.80*1C
$GNGSA,A,3,66,87,65,88,67,,,,,,,,2.03,0.94,1.80*14
$GPGSV,5,1,17,08,01,321,17,10,19,355,36,16,25,251,24,18,32,072,18*7F
$GPGSV,5,2,17,23,04,033,20,25,03,130,,26,29,220,25,27,36,317,32*75
$GPGSV,5,3,17,28,43,161,26,29,21,146,,31,28,193,,32,68,354,41*76
$GPGSV,5,4,17,36,52,277,,40,84,353,,41,58,082,,49,32,274,*7C
$GPGSV,5,5,17,50,10,089,*4A
$GLGSV,2,1,08,65,28,357,33,66,54,295,25,67,23,230,19,76,13,151,*61
$GLGSV,2,2,08,77,15,197,,86,21,128,,87,48,082,19,88,28,002,41*6C
$GNGLL,0419.74208,S,05539.72892,E,115821.00,A,A*6D
$GNGRS,115821.00,1,0.1,5.2,5.9,-35.9,-5.6,-8.5,-1.2,,,,,*48
$GNGRS,115821.00,1,-6.4,7.3,4.7,-1.3,-10.1,,,,,,,*6A
$GNGST,115821.00,35,,,,4.5,5.8,6.5*4E
$GNZDA,115821.00,22,05,2025,00,00*76
$GNGBS,115821.00,4.5,5.8,6.5,,,,*5E
$GNTXT,01,01,01,More than 100 frame errors, UART RX was disabled*70
b0@e+A
$cg H?!I $=+ (Db{4Ta:R 
Yg
A"erB6'CLMVW0RX+{"be+cOD$GNRMC,115822.00,A,0419.74204,S,05539.72895,E,0.102,,220525,,,A*7D
$GNVTG,,T,,M,0.102,N,0.188,K,A*3F
$GNGNS,115822.00,0419.74204,S,05539.72895,E,AA,12,0.94,7.8,-47.6,,*53
$GNGGA,115822.00,0419.74204,S,05539.72895,E,1,12,0.94,7.8,M,-47.6,M,,*79
$GNGSA,A,3,32,28,27,18,26,16,10,,,,,,2.03,0.94,1.80*1C
$GNGSA,A,3,66,87,65,88,67,,,,,,,,2.03,0.94,1.80*14
$GPGSV,5,1,17,08,01,321,18,10,19,355,36,16,25,251,25,18,32,072,20*7A
$GPGSV,5,2,17,23,04,033,21,25,03,130,,26,29,220,26,27,36,317,32*77
$GPGSV,5,3,17,28,43,161,26,29,21,146,,31,28,193,,32,68,354,40*77
$GPGSV,5,4,17,36,52,277,,40,84,353,,41,58,082,,49,32,274,*7C
$GPGSV,5,5,17,50,10,089,*4A
$GLGSV,2,1,08,65,28,357,34,66,54,295,27,67,23,230,20,76,13,151,*6E
$GLGSV,2,2,08,77,15,197,,86,21,128,,87,48,082,20,88,28,002,43*64
$GNGLL,0419.74204,S,05539.72895,E,115822.00,A,A*65
$GNGRS,115822.00,1,0.1,4.8,4.7,-32.6,-4.4,-6.3,-1.5,,,,,*4B
$GNGRS,115822.00,1,-8.7,7.2,8.8,-1.3,-7.8,,,,,,,*59
$GNGST,115822.00,40,,,,4.4,5.8,6.4*4F
$GNZDA,115822.00,22,05,2025,00,00*75
$GNGBS,115822.00,4.4,5.8,6.4,,,,*5D
$GNTXT,01,01,01,More than 100 frame errors, UART RX was disabled*70
b0@hi+A
!cU I!s$=+ $Db{4Ta:R 
Yg
AeB6''C;LMVW0RX)abhi+KS$GNRMC,115823.00,A,0419.74205,S,05539.72897,E,0.274,,220525,,,A*7D
$GNVTG,,T,,M,0.274,N,0.507,K,A*3E
$GNGNS,115823.00,0419.74205,S,05539.72897,E,AA,12,0.80,7.8,-47.6,,*54
$GNGGA,115823.00,0419.74205,S,05539.72897,E,1,12,0.80,7.8,M,-47.6,M,,*7E
$GNGSA,A,3,32,28,27,18,26,16,10,,,,,,1.90,0.80,1.72*1D
$GNGSA,A,3,66,87,65,88,67,,,,,,,,1.90,0.80,1.72*15
$GPGSV,5,1,17,08,01,321,18,10,19,355,33,16,25,251,23,18,32,073,18*73
$GPGSV,5,2,17,23,04,033,18,25,03,130,,26,29,220,23,27,36,317,27*7C
$GPGSV,5,3,17,28,43,161,24,29,21,146,,31,28,193,,32,68,354,36*74
$GPGSV,5,4,17,36,52,277,,40,84,353,,41,58,082,,49,32,274,*7C
$GPGSV,5,5,17,50,10,089,*4A
$GLGSV,2,1,08,65,28,357,31,66,54,295,25,67,23,230,18,76,13,151,*62
$GLGSV,2,2,08,77,15,197,,86,21,128,,87,48,082,20,88,28,002,41*66
$GNGLL,0419.74205,S,05539.72897,E,115823.00,A,A*67
$GNGRS,115823.00,1,0.2,4.5,2.6,-31.4,-2.6,-5.7,-1.7,,,,,*43
$GNGRS,115823.00,1,-9.8,4.1,7.8,-1.2,-9.7,,,,,,,*59
$GNGST,115823.00,45,,,,4.4,5.8,6.4*4B
$GNZDA,115823.00,22,05,2025,00,00*74
$GNGBS,115823.00,4.4,5.8,6.4,,,,*5C
$GNTXT,01,01,01,More than 100 frame errors, UART RX was disabled*70
b0@Pm+A
$cM I<!$=>+ 'Db{4Ta:R 
Yg
A!e4B6'CLMVW0RX+obPm+3W$GNRMC,115824.00,A,0419.74206,S,05539.72911,E,0.444,,220525,,,A*73
$GNVTG,,T,,M,0.444,N,0.822,K,A*31
$GNGNS,115824.00,0419.74206,S,05539.72911,E,AA,12,0.94,7.8,-47.6,,*5A
$GNGGA,115824.00,0419.74206,S,05539.72911,E,1,12,0.94,7.8,M,-47.6,M,,*70
$GNGSA,A,3,32,28,27,18,26,16,10,,,,,,2.03,0.94,1.80*1C
$GNGSA,A,3,66,87,65,88,67,,,,,,,,2.03,0.94,1.80*14
$GPGSV,5,1,17,08,01,321,19,10,19,355,36,16,25,251,24,18,32,073,19*71
$GPGSV,5,2,17,23,04,033,16,25,03,130,,26,29,220,24,27,36,317,30*73
$GPGSV,5,3,17,28,43,161,25,29,21,146,,31,28,193,,32,68,354,39*7A
$GPGSV,5,4,17,36,52,277,,40,84,353,,41,58,082,,49,32,274,*7C
$GPGSV,5,5,17,50,10,089,*4A
$GLGSV,2,1,08,65,28,357,33,66,54,295,26,67,23,230,17,76,13,151,*6C
$GLGSV,2,2,08,77,15,197,,86,21,128,,87,48,082,20,88,28,002,43*64
$GNGLL,0419.74206,S,05539.72911,E,115824.00,A,A*6C
$GNGRS,115824.00,1,0.2,4.8,3.2,-30.1,-3.6,-7.6,-1.8,,,,,*45
$GNGRS,115824.00,1,-9.9,2.2,8.2,-1.0,-10.2,,,,,,,*60
$GNGST,115824.00,43,,,,4.4,5.8,6.3*4D
$GNZDA,115824.00,22,05,2025,00,00*73
$GNGBS,115824.00,4.4,5.8,6.3,,,,*5C
$GNTXT,01,01,01,More than 100 frame errors, UART RX was disabled*70
b0@8q+A
$c] I!A3$=z+^ (Db{4Ta:R 
Yg
A"eB6'\C5LMVW0RX+h9b8q+[|$GNRMC,115825.00,A,0419.74203,S,05539.72904,E,0.339,,220525,,,A*7E
$GNVTG,,T,,M,0.339,N,0.628,K,A*38
$GNGNS,115825.00,0419.74203,S,05539.72904,E,AA,12,0.80,8.0,-47.6,,*58
$GNGGA,115825.00,0419.74203,S,05539.72904,E,1,12,0.80,8.0,M,-47.6,M,,*72
$GNGSA,A,3,32,28,27,18,26,16,10,,,,,,1.90,0.80,1.72*1D
$GNGSA,A,3,66,87,65,88,67,,,,,,,,1.90,0.80,1.72*15
$GPGSV,5,1,17,08,01,321,20,10,19,355,36,16,25,251,24,18,32,073,21*70
$GPGSV,5,2,17,23,04,033,17,25,03,130,,26,29,220,25,27,36,317,31*72
$GPGSV,5,3,17,28,43,161,26,29,21,146,,31,28,193,,32,68,354,40*77
$GPGSV,5,4,17,36,52,277,,40,84,353,,41,58,082,,49,32,274,*7C
$GPGSV,5,5,17,50,10,089,*4A
$GLGSV,2,1,08,65,28,357,34,66,54,295,26,67,23,230,19,76,13,151,*65
$GLGSV,2,2,08,77,15,197,,86,21,128,07,87,48,082,21,88,28,002,43*62
$GNGLL,0419.74203,S,05539.72904,E,115825.00,A,A*6C
$GNGRS,115825.00,1,0.1,6.1,6.3,-29.4,-4.6,-8.9,-1.6,,,,,*4C
$GNGRS,115825.00,1,-9.3,-0.5,1.6,-1.5,-9.7,,,,,,,*76
$GNGST,115825.00,40,,,,4.3,5.7,6.3*47
$GNZDA,115825.00,22,05,2025,00,00*72
$GNGBS,115825.00,4.3,5.7,6.3,,,,*55
$GNTXT,01,01,01,More than 100 frame errors, UART RX was disabled*70
b0@ u+A
%cW I!
D $=v+ (Db{4Ta:R 
Yg
A"eQB6'9CLMVW0RX+2db u+_X$GNRMC,115826.00,A,0419.74199,S,05539.72907,E,0.202,,220525,,,A*77
$GNVTG,,T,,M,0.202,N,0.375,K,A*3C
$GNGNS,115826.00,0419.74199,S,05539.72907,E,AA,12,0.94,8.0,-47.6,,*5D
$GNGGA,115826.00,0419.74199,S,05539.72907,E,1,12,0.94,8.0,M,-47.6,M,,*77
$GNGSA,A,3,32,28,27,18,26,16,10,,,,,,2.03,0.94,1.80*1C
$GNGSA,A,3,66,87,65,88,67,,,,,,,,2.03,0.94,1.80*14
$GPGSV,5,1,17,08,01,321,21,10,19,355,37,16,25,251,25,18,32,073,22*72
$GPGSV,5,2,17,23,04,033,19,25,03,130,,26,29,220,26,27,36,317,32*7C
$GPGSV,5,3,17,28,43,161,26,29,21,146,,31,28,193,,32,68,354,40*77
$GPGSV,5,4,17,36,52,277,,40,84,353,,41,58,082,,49,32,274,*7C
$GPGSV,5,5,17,50,10,089,*4A
$GLGSV,2,1,08,65,28,357,34,66,54,295,27,67,23,230,19,76,13,151,*64
$GLGSV,2,2,08,77,15,197,,86,21,128,,87,48,082,21,88,28,002,43*65
$GNGLL,0419.74199,S,05539.72907,E,115826.00,A,A*6C
$GNGRS,115826.00,1,0.0,6.4,3.7,-31.0,-7.0,-7.4,-1.7,,,,,*41
$GNGRS,115826.00,1,-9.7,-1.1,8.5,-2.1,-10.5,,,,,,,*43
$GNGST,115826.00,37,,,,4.3,5.7,6.2*45
$GNZDA,115826.00,22,05,2025,00,00*71
$GNGBS,115826.00,4.3,5.7,6.2,,,,*57
$GNTXT,01,01,01,More than 100 frame errors, UART RX was disabled*70
b0@y+A
%cOg I!) $=7+y )Db{4Ta:R 
Yg
A!eB6'dCLMVW0RX+#by+b/I$GNRMC,115827.00,A,0419.74191,S,05539.72912,E,0.136,,220525,,,A*7E
$GNVTG,,T,,M,0.136,N,0.252,K,A*3C
$GNGNS,115827.00,0419.74191,S,05539.72912,E,AA,12,0.94,8.3,-47.6,,*53
$GNGGA,115827.00,0419.74191,S,05539.72912,E,1,12,0.94,8.3,M,-47.6,M,,*79
$GNGSA,A,3,32,28,27,18,26,16,10,,,,,,2.03,0.94,1.80*1C
$GNGSA,A,3,66,87,65,88,67,,,,,,,,2.03,0.94,1.80*14
$GPGSV,5,1,17,08,01,321,21,10,19,355,37,16,25,251,26,18,32,073,22*71
$GPGSV,5,2,17,23,04,033,20,25,03,130,,26,29,220,26,27,36,317,32*76
$GPGSV,5,3,17,28,43,161,26,29,21,146,,31,28,193,,32,68,354,41*76
$GPGSV,5,4,17,36,52,277,,40,84,353,,41,58,082,,49,32,274,*7C
$GPGSV,5,5,17,50,10,089,*4A
$GLGSV,2,1,08,65,28,357,33,66,54,295,27,67,23,230,18,76,13,151,*62
$GLGSV,2,2,08,77,15,197,,86,21,128,,87,48,082,22,88,28,002,43*66
$GNGLL,0419.74191,S,05539.72912,E,115827.00,A,A*61
$GNGRS,115827.00,1,0.0,6.3,3.1,-31.2,-7.3,-9.2,-1.8,,,,,*47
$GNGRS,115827.00,1,-9.2,-1.0,4.8,-2.2,-10.9,,,,,,,*48
$GNGST,115827.00,36,,,,4.2,5.6,6.0*47
$GNZDA,115827.00,22,05,2025,00,00*70
$GNGBS,115827.00,4.2,5.6,6.0,,,,*54
$GNTXT,01,01,01,More than 100 frame errors, UART RX was disabled*70
b0@|+A
$cj I!$=u+ (Db{4Ta:R 
Yg
A eB6'CLMVW0RX*b|+f$GNRMC,115828.00,A,0419.74184,S,05539.72922,E,0.138,,220525,,,A*78
$GNVTG,,T,,M,0.138,N,0.255,K,A*35
$GNGNS,115828.00,0419.74184,S,05539.72922,E,AA,12,0.94,8.5,-47.6,,*5D
$GNGGA,115828.00,0419.74184,S,05539.72922,E,1,12,0.94,8.5,M,-47.6,M,,*77
$GNGSA,A,3,32,28,27,18,26,16,10,,,,,,2.03,0.94,1.80*1C
$GNGSA,A,3,66,87,65,88,67,,,,,,,,2.03,0.94,1.80*14
$GPGSV,5,1,17,08,01,321,19,10,19,355,36,16,25,251,26,18,32,073,20*79
$GPGSV,5,2,17,23,04,033,21,25,03,130,,26,29,220,26,27,36,317,31*74
$GPGSV,5,3,17,28,43,161,26,29,21,146,05,31,28,193,,32,68,354,40*72
$GPGSV,5,4,17,36,52,277,,40,84,353,,41,58,082,,49,32,274,*7C
$GPGSV,5,5,17,50,10,089,*4A
$GLGSV,2,1,08,65,28,357,32,66,54,295,27,67,23,230,18,76,13,151,*63
$GLGSV,2,2,08,77,15,197,,86,21,128,,87,48,082,22,88,28,002,42*67
$GNGLL,0419.74184,S,05539.72922,E,115828.00,A,A*69
$GNGRS,115828.00,1,-0.1,5.3,1.2,-31.8,-6.4,-8.0,-1.5,,,,,*64
$GNGRS,115828.00,1,-8.1,0.2,6.4,-2.3,-9.9,,,,,,,*5C
$GNGST,115828.00,36,,,,4.1,5.6,6.0*4B
$GNZDA,115828.00,22,05,2025,00,00*7F
$GNGBS,115828.00,4.1,5.6,6.0,,,,*58
$GNTXT,01,01,01,More than 100 frame errors, UART RX was disabled*70
b0@+A
$c\ I!?$=+ (Db{4Ta:R 
Yg
A exB6'CLMVW0R$X*b+j
$GNRMC,115829.00,A,0419.74182,S,05539.72935,E,0.146,,220525,,,A*70
$GNVTG,,T,,M,0.146,N,0.271,K,A*3A
$GNGNS,115829.00,0419.74182,S,05539.72935,E,AA,12,0.94,8.5,-47.6,,*5C
$GNGGA,115829.00,0419.74182,S,05539.72935,E,1,12,0.94,8.5,M,-47.6,M,,*76
$GNGSA,A,3,32,28,27,18,26,16,10,,,,,,2.03,0.94,1.80*1C
$GNGSA,A,3,66,87,65,88,67,,,,,,,,2.03,0.94,1.80*14
$GPGSV,5,1,17,08,01,321,17,10,19,355,36,16,25,251,26,18,32,073,19*7D
$GPGSV,5,2,17,23,04,033,21,25,02,130,,26,29,220,26,27,36,317,31*75
$GPGSV,5,3,17,28,43,161,27,29,21,146,07,31,28,193,,32,68,354,40*71
$GPGSV,5,4,17,36,52,277,,40,84,353,,41,58,082,,49,32,274,*7C
$GPGSV,5,5,17,50,10,089,*4A
$GLGSV,2,1,08,65,28,357,32,66,54,295,28,67,23,230,17,76,13,151,*63
$GLGSV,2,2,08,77,15,197,,86,21,128,,87,48,082,22,88,28,002,42*67
$GNGLL,0419.74182,S,05539.72935,E,115829.00,A,A*68
$GNGRS,115829.00,1,0.0,7.2,2.8,-33.1,-4.8,-7.4,-1.6,,,,,*4E
$GNGRS,115829.00,1,-10.7,0.4,6.3,-2.6,-10.2,,,,,,,*55
$GNGST,115829.00,37,,,,4.0,5.5,5.9*43
$GNZDA,115829.00,22,05,2025,00,00*7E
$GNGBS,115829.00,4.0,5.5,5.9,,,,*51
$GNTXT,01,01,01,More than 100 frame errors, UART RX was disabled*70
b0@+A
#cI I!bF$=1+)\ 'Db{4Ta:R 
Yg
A!eB6'CLMVW0R{X*b+nr$GNRMC,115830.00,A,0419.74180,S,05539.72952,E,0.146,,220525,,,A*7B
$GNVTG,,T,,M,0.146,N,0.270,K,A*3B
$GNGNS,115830.00,0419.74180,S,05539.72952,E,AA,12,0.94,8.5,-47.6,,*57
$GNGGA,115830.00,0419.74180,S,05539.72952,E,1,12,0.94,8.5,M,-47.6,M,,*7D
$GNGSA,A,3,32,28,27,18,26,16,10,,,,,,2.03,0.94,1.80*1C
$GNGSA,A,3,66,87,65,88,67,,,,,,,,2.03,0.94,1.80*14
$GPGSV,5,1,17,08,01,321,19,10,19,355,35,16,25,251,26,18,32,073,19*70
$GPGSV,5,2,17,23,04,033,22,25,02,130,,26,29,219,26,27,36,317,31*7C
$GPGSV,5,3,17,28,43,161,27,29,21,146,09,31,28,193,18,32,68,354,39*78
$GPGSV,5,4,17,36,52,277,,40,84,353,,41,58,082,,49,32,274,*7C
$GPGSV,5,5,17,50,10,089,*4A
$GLGSV,2,1,08,65,28,357,33,66,54,295,30,67,23,230,16,76,13,151,*6A
$GLGSV,2,2,08,77,15,197,,86,21,128,,87,48,082,22,88,28,002,42*67
$GNGLL,0419.74180,S,05539.72952,E,115830.00,A,A*63
$GNGRS,115830.00,1,-0.4,8.1,0.5,-31.8,-4.4,-8.1,-1.8,,,,,*6F
$GNGRS,115830.00,1,-10.0,-1.3,6.4,-2.5,-11.0,,,,,,,*76
$GNGST,115830.00,36,,,,4.0,5.5,5.8*4B
$GNZDA,115830.00,22,05,2025,00,00*76
$GNGBS,115830.00,4.0,5.5,5.8,,,,*58
$GNTXT,01,01,01,More than 100 frame errors, UART RX was disabled*70
b0@+A
#cs Ig! $=v+
 &Db{4Ta:R 
Yg
A elB6'KCLMVW0RX*b+r$GNRMC,115831.00,A,0419.74182,S,05539.72964,E,0.183,,220525,,,A*74
$GNVTG,,T,,M,0.183,N,0.339,K,A*3E
$GNGNS,115831.00,0419.74182,S,05539.72964,E,AA,12,0.94,8.5,-47.6,,*51
$GNGGA,115831.00,0419.74182,S,05539.72964,E,1,12,0.94,8.5,M,-47.6,M,,*7B
$GNGSA,A,3,32,28,27,18,26,16,10,,,,,,2.03,0.94,1.80*1C
$GNGSA,A,3,66,87,65,88,67,,,,,,,,2.03,0.94,1.80*14
$GPGSV,5,1,17,08,01,321,21,10,19,355,35,16,25,251,25,18,32,073,20*72
$GPGSV,5,2,17,23,04,033,22,25,02,130,,26,29,219,26,27,36,317,32*7F
$GPGSV,5,3,17,28,43,161,27,29,21,146,10,31,28,193,17,32,68,354,38*7E
$GPGSV,5,4,17,36,52,277,,40,84,353,,41,58,082,,49,32,274,*7C
$GPGSV,5,5,17,50,10,089,*4A
$GLGSV,2,1,08,65,28,357,32,66,54,295,31,67,23,230,16,76,13,151,*6A
$GLGSV,2,2,08,77,15,197,,86,21,128,,87,48,082,21,88,28,002,42*64
$GNGLL,0419.74182,S,05539.72964,E,115831.00,A,A*65
$GNGRS,115831.00,1,-0.1,5.3,1.2,-32.3,-1.3,-9.0,-1.4,,,,,*64
$GNGRS,115831.00,1,-6.9,-0.4,6.2,-2.6,-11.5,,,,,,,*4F
$GNGST,115831.00,37,,,,3.9,5.4,5.8*44
$GNZDA,115831.00,22,05,2025,00,00*77
$GNGBS,115831.00,3.9,5.4,5.8,,,,*56
$GNTXT,01,01,01,More than 100 frame errors, UART RX was disabled*70
b0@+A
#cq I!H* $=+i (Db{4Ta:R 
Yg
A elB6'NCLMVW0RX*b+svfB$GNRMC,115832.00,A,0419.74184,S,05539.72974,E,0.150,,220525,,,A*7E
$GNVTG,,T,,M,0.150,N,0.277,K,A*3B
$GNGNS,115832.00,0419.74184,S,05539.72974,E,AA,12,0.94,8.5,-47.6,,*55
$GNGGA,115832.00,0419.74184,S,05539.72974,E,1,12,0.94,8.5,M,-47.6,M,,*7F
$GNGSA,A,3,32,28,27,18,26,16,10,,,,,,2.03,0.94,1.80*1C
$GNGSA,A,3,66,87,65,88,67,,,,,,,,2.03,0.94,1.80*14
$GPGSV,5,1,17,08,01,321,22,10,19,355,35,16,25,251,25,18,32,073,19*7B
$GPGSV,5,2,17,23,04,033,22,25,02,130,,26,29,219,26,27,36,317,32*7F
$GPGSV,5,3,17,28,43,161,27,29,21,146,09,31,28,193,,32,68,354,40*7F
$GPGSV,5,4,17,36,52,277,,40,84,353,,41,58,082,,49,32,274,*7C
$GPGSV,5,5,17,50,10,089,*4A
$GLGSV,2,1,08,65,28,357,32,66,54,295,31,67,23,230,15,76,13,151,*69
$GLGSV,2,2,08,77,15,197,,86,21,128,,87,48,082,23,88,28,002,42*66
$GNGLL,0419.74184,S,05539.72974,E,115832.00,A,A*61
$GNGRS,115832.00,1,0.1,3.6,0.0,-31.5,0.4,-8.3,-1.4,,,,,*66
$GNGRS,115832.00,1,-9.5,-0.7,6.2,-2.6,-11.1,,,,,,,*48
$GNGST,115832.00,37,,,,3.9,5.4,5.7*48
$GNZDA,115832.00,22,05,2025,00,00*74
$GNGBS,115832.00,3.9,5.4,5.7,,,,*5A
$GNTXT,01,01,01,More than 100 frame errors, UART RX was disabled*70
b0@x+A
#c. IX!&!$=%+= (Db,{4Ta:R 
Yg
A!e]B6'CFLMVW0RX*bx+[z>$GNRMC,115833.00,A,0419.74186,S,05539.72971,E,0.219,,220525,,,A*76
$GNVTG,,T,,M,0.219,N,0.406,K,A*35
$GNGNS,115833.00,0419.74186,S,05539.72971,E,AA,12,0.94,8.6,-47.6,,*50
$GNGGA,115833.00,0419.74186,S,05539.72971,E,1,12,0.94,8.6,M,-47.6,M,,*7A
$GNGSA,A,3,32,28,27,18,26,16,10,,,,,,2.03,0.94,1.80*1C
$GNGSA,A,3,66,87,65,88,67,,,,,,,,2.03,0.94,1.80*14
$GPGSV,5,1,17,08,01,321,22,10,19,355,35,16,25,251,24,18,32,073,19*7A
$GPGSV,5,2,17,23,04,033,23,25,02,130,,26,29,219,26,27,36,317,33*7F
$GPGSV,5,3,17,28,43,161,26,29,21,147,09,31,28,193,,32,68,354,40*7F
$GPGSV,5,4,17,36,52,277,,40,84,353,,41,58,082,,49,32,274,*7C
$GPGSV,5,5,17,50,10,089,*4A
$GLGSV,2,1,08,65,28,357,33,66,54,295,30,67,23,230,15,76,13,151,*69
$GLGSV,2,2,08,77,15,197,,86,21,128,,87,48,082,23,88,28,002,42*66
$GNGLL,0419.74186,S,05539.72971,E,115833.00,A,A*67
$GNGRS,115833.00,1,0.4,3.2,5.5,-29.8,-0.7,-7.2,-1.3,,,,,*45
$GNGRS,115833.00,1,-5.7,-0.6,6.1,-2.9,-9.5,,,,,,,*77
$GNGST,115833.00,39,,,,3.8,5.3,5.7*41
$GNZDA,115833.00,22,05,2025,00,00*75
$GNGBS,115833.00,3.8,5.3,5.7,,,,*5D
$GNTXT,01,01,01,More than 100 frame errors, UART RX was disabled*70
b0@`+A
"c. I!z\!$=4+ (Db3{4Ta:R 
Yg
A!e6B6'CLMVW0RBX*b`+C~$GNRMC,115834.00,A,0419.74195,S,05539.72973,E,0.392,,220525,,,A*73
$GNVTG,,T,,M,0.392,N,0.725,K,A*35
$GNGNS,115834.00,0419.74195,S,05539.72973,E,AA,12,0.94,8.5,-47.6,,*54
$GNGGA,115834.00,0419.74195,S,05539.72973,E,1,12,0.94,8.5,M,-47.6,M,,*7E
$GNGSA,A,3,32,28,27,18,26,16,10,,,,,,2.03,0.94,1.80*1C
$GNGSA,A,3,66,87,65,88,67,,,,,,,,2.03,0.94,1.80*14
$GPGSV,5,1,17,08,01,321,21,10,19,355,34,16,25,251,24,18,32,073,19*78
$GPGSV,5,2,17,23,04,033,24,25,02,130,,26,29,219,25,27,36,317,33*7B
$GPGSV,5,3,17,28,43,161,25,29,21,147,09,31,28,193,,32,68,354,40*7C
$GPGSV,5,4,17,36,52,277,,40,84,353,,41,58,082,,49,32,274,*7C
$GPGSV,5,5,17,50,10,089,*4A
$GLGSV,2,1,08,65,28,357,33,66,54,295,28,67,23,230,13,76,13,151,*66
$GLGSV,2,2,08,77,15,197,,86,21,128,,87,48,082,22,88,28,002,42*67
$GNGLL,0419.74195,S,05539.72973,E,115834.00,A,A*60
$GNGRS,115834.00,1,0.5,4.6,5.6,-26.9,0.9,-4.7,-1.1,,,,,*6A
$GNGRS,115834.00,1,-6.0,3.2,5.7,-2.9,-5.1,,,,,,,*53
$GNGST,115834.00,40,,,,3.8,5.3,5.6*49
$GNZDA,115834.00,22,05,2025,00,00*72
$GNGBS,115834.00,3.8,5.3,5.6,,,,*5B
$GNTXT,01,01,01,More than 100 frame errors, UART RX was disabled*70
b0@H+A
"c I!
!$=X+{ (DbU{4Ta:R 
Yg
A!e)B6'&C>LMVW0RqX*tbH++z$GNRMC,115835.00,A,0419.74199,S,05539.72979,E,0.277,,220525,,,A*7E
$GNVTG,,T,,M,0.277,N,0.514,K,A*3F
$GNGNS,115835.00,0419.74199,S,05539.72979,E,AA,12,0.94,8.5,-47.6,,*53
$GNGGA,115835.00,0419.74199,S,05539.72979,E,1,12,0.94,8.5,M,-47.6,M,,*79
$GNGSA,A,3,32,28,27,18,26,16,10,,,,,,2.03,0.94,1.80*1C
$GNGSA,A,3,66,87,65,88,67,,,,,,,,2.03,0.94,1.80*14
$GPGSV,5,1,17,08,01,321,20,10,19,355,34,16,25,251,24,18,32,073,20*73
$GPGSV,5,2,17,23,04,033,24,25,02,130,,26,29,219,25,27,36,317,33*7B
$GPGSV,5,3,17,28,43,161,23,29,21,147,08,31,28,192,,32,68,354,40*7A
$GPGSV,5,4,17,36,52,277,,40,84,353,,41,58,082,,49,32,274,*7C
$GPGSV,5,5,17,50,10,089,*4A
$GLGSV,2,1,08,65,28,357,33,66,54,295,28,67,23,230,13,76,13,151,*66
$GLGSV,2,2,08,77,15,197,,86,21,128,,87,48,082,23,88,28,002,42*66
$GNGLL,0419.74199,S,05539.72979,E,115835.00,A,A*67
$GNGRS,115835.00,1,0.8,5.2,3.4,-24.2,0.1,-5.2,-1.2,,,,,*61
$GNGRS,115835.00,1,-15.0,3.7,5.5,-2.7,-4.5,,,,,,,*6C
$GNGST,115835.00,41,,,,3.8,5.2,5.6*48
$GNZDA,115835.00,22,05,2025,00,00*73
$GNGBS,115835.00,3.8,5.2,5.6,,,,*5B
$GNTXT,01,01,01,More than 100 frame errors, UART RX was disabled*70
b0@0+A
"c I!w!$=+ (Db]{4Ta:R 
Yg
A!eB6'CULMVW0RX*b0+$GNRMC,115836.00,A,0419.74201,S,05539.72980,E,0.230,,220525,,,A*7A
$GNVTG,,T,,M,0.230,N,0.425,K,A*3F
$GNGNS,115836.00,0419.74201,S,05539.72980,E,AA,12,0.94,8.6,-47.6,,*57
$GNGGA,115836.00,0419.74201,S,05539.72980,E,1,12,0.94,8.6,M,-47.6,M,,*7D
$GNGSA,A,3,32,28,27,18,26,16,10,,,,,,2.03,0.94,1.80*1C
$GNGSA,A,3,66,87,65,88,67,,,,,,,,2.03,0.94,1.80*14
$GPGSV,5,1,17,08,01,321,20,10,19,355,34,16,25,251,23,18,32,073,21*75
$GPGSV,5,2,17,23,04,033,23,25,02,130,,26,29,219,25,27,36,317,33*7C
$GPGSV,5,3,17,28,43,161,22,29,21,147,09,31,28,192,,32,68,354,40*7A
$GPGSV,5,4,17,36,52,277,,40,84,353,,41,58,082,,49,32,274,*7C
$GPGSV,5,5,17,50,10,089,*4A
$GLGSV,2,1,08,65,28,357,33,66,54,295,26,67,23,230,14,76,13,151,*6F
$GLGSV,2,2,08,77,15,197,,86,21,128,,87,48,082,21,88,28,002,42*64
$GNGLL,0419.74201,S,05539.72980,E,115836.00,A,A*60
$GNGRS,115836.00,1,0.9,5.2,3.9,-23.3,-1.4,-5.5,-1.1,,,,,*45
$GNGRS,115836.00,1,-12.6,1.8,5.2,-2.7,-4.3,,,,,,,*62
$GNGST,115836.00,41,,,,3.8,5.2,5.6*4B
$GNZDA,115836.00,22,05,2025,00,00*70
$GNGBS,115836.00,3.8,5.2,5.6,,,,*58
$GNTXT,01,01,01,More than 100 frame errors, UART RX was disabled*70
b0@+A
"c I_!I!$=+
6 (Db]{4Ta:R 
Yg
A!eB6'zCLMVW0RX*#b+G$GNRMC,115837.00,A,0419.74204,S,05539.72982,E,0.267,,220525,,,A*7E
$GNVTG,,T,,M,0.267,N,0.495,K,A*36
$GNGNS,115837.00,0419.74204,S,05539.72982,E,AA,12,0.94,8.6,-47.6,,*51
$GNGGA,115837.00,0419.74204,S,05539.72982,E,1,12,0.94,8.6,M,-47.6,M,,*7B
$GNGSA,A,3,32,28,27,18,26,16,10,,,,,,2.03,0.94,1.80*1C
$GNGSA,A,3,66,87,65,88,67,,,,,,,,2.03,0.94,1.80*14
$GPGSV,5,1,17,08,01,321,20,10,19,355,34,16,25,251,22,18,32,073,21*74
$GPGSV,5,2,17,23,04,033,23,25,02,130,,26,29,219,25,27,36,317,33*7C
$GPGSV,5,3,17,28,43,161,22,29,21,147,10,31,28,192,,32,68,354,40*72
$GPGSV,5,4,17,36,52,277,,40,84,353,,41,58,082,,49,32,274,*7C
$GPGSV,5,5,17,50,10,089,*4A
$GLGSV,2,1,08,65,28,357,33,66,54,295,27,67,23,230,12,76,13,151,*68
$GLGSV,2,2,08,77,15,197,,86,21,128,,87,48,082,20,88,28,002,42*65
$GNGLL,0419.74204,S,05539.72982,E,115837.00,A,A*66
$GNGRS,115837.00,1,0.9,5.1,4.9,-24.6,-0.9,-7.4,-0.7,,,,,*4A
$GNGRS,115837.00,1,-14.1,1.7,4.9,-3.0,-2.8,,,,,,,*6C
$GNGST,115837.00,43,,,,3.9,5.2,5.6*49
$GNZDA,115837.00,22,05,2025,00,00*71
$GNGBS,115837.00,3.9,5.2,5.6,,,,*58
$GNTXT,01,01,01,More than 100 frame errors, UART RX was disabled*70
b0@+A
"c0 IH!>"$=+
7 (Db`{4Ta:R 
Yg
A"eB6'rCLMVW0RX**b+u$GNRMC,115838.00,A,0419.74210,S,05539.72991,E,0.303,,220525,,,A*75
$GNVTG,,T,,M,0.303,N,0.561,K,A*3F
$GNGNS,115838.00,0419.74210,S,05539.72991,E,AA,12,0.82,8.6,-47.6,,*5E
$GNGGA,115838.00,0419.74210,S,05539.72991,E,1,12,0.82,8.6,M,-47.6,M,,*74
$GNGSA,A,3,32,28,27,18,26,16,29,10,,,,,1.81,0.82,1.62*15
$GNGSA,A,3,66,87,65,88,,,,,,,,,1.81,0.82,1.62*17
$GPGSV,5,1,17,08,01,321,21,10,19,355,34,16,25,251,21,18,32,073,21*76
$GPGSV,5,2,17,23,04,033,24,25,02,130,,26,29,219,26,27,36,317,34*7F
$GPGSV,5,3,17,28,43,161,23,29,21,147,10,31,28,192,,32,68,354,40*73
$GPGSV,5,4,17,36,52,277,,40,84,353,,41,58,082,,49,32,274,*7C
$GPGSV,5,5,17,50,10,089,*4A
$GLGSV,2,1,08,65,28,357,34,66,54,295,27,67,23,230,,76,13,151,*6C
$GLGSV,2,2,08,77,15,197,,86,21,128,,87,48,082,20,88,28,002,42*65
$GNGLL,0419.74210,S,05539.72991,E,115838.00,A,A*6E
$GNGRS,115838.00,1,1.0,4.1,1.6,-24.9,0.6,-4.6,15.9,-0.4,,,,*7A
$GNGRS,115838.00,1,-14.2,2.8,4.7,-3.1,,,,,,,,*6A
$GNGST,115838.00,3586708,,,,3.9,5.2,5.6*76
$GNZDA,115838.00,22,05,2025,00,00*7E
$GNGBS,115838.00,3.9,5.2,5.6,,,,*57
$GNTXT,01,01,01,More than 100 frame errors, UART RX was disabled*70
b0@+A
#c I!!$= +
 (Dbu{4Ta:R 
Yg
A!eB5(CLMVW0RX)b+L$GNRMC,115839.00,A,0419.74219,S,05539.72999,E,0.272,,220525,,,A*72
$GNVTG,,T,,M,0.272,N,0.503,K,A*3C
$GNGNS,115839.00,0419.74219,S,05539.72999,E,AA,12,0.82,8.5,-47.6,,*5D
$GNGGA,115839.00,0419.74219,S,05539.72999,E,1,12,0.82,8.5,M,-47.6,M,,*77
$GNGSA,A,3,32,28,27,18,26,16,29,10,,,,,1.81,0.82,1.62*15
$GNGSA,A,3,66,87,65,88,,,,,,,,,1.81,0.82,1.62*17
$GPGSV,5,1,17,08,01,321,22,10,19,355,35,16,25,251,20,18,32,073,22*76
$GPGSV,5,2,17,23,04,033,24,25,02,130,,26,29,219,26,27,36,317,33*78
$GPGSV,5,3,17,28,43,161,24,29,21,147,10,31,28,192,,32,68,354,40*74
$GPGSV,5,4,17,36,52,277,,40,84,353,,41,58,082,,49,32,274,*7C
$GPGSV,5,5,17,50,10,089,*4A
$GLGSV,2,1,08,65,28,357,33,66,53,296,27,67,23,230,,76,13,151,*6F
$GLGSV,2,2,08,77,15,197,,86,21,128,,87,48,082,19,88,28,002,41*6C
$GNGLL,0419.74219,S,05539.72999,E,115839.00,A,A*6E
$GNGRS,115839.00,1,1.2,3.9,2.9,-23.8,-0.6,-3.6,15.6,-0.5,,,,*58
$GNGRS,115839.00,1,-12.7,4.1,5.0,-3.2,,,,,,,,*62
$GNGST,115839.00,3586708,,,,3.9,5.2,5.6*77
$GNZDA,115839.00,22,05,2025,00,00*7F
$GNGBS,115839.00,3.9,5.2,5.6,,,,*56
$GNTXT,01,01,01,More than 100 frame errors, UART RX was disabled*70
b0@+A
"c I!(.!$=+\
o (Dbq{4Ta:R 
Yg
A"e
B5(ZCLMVW0RX*jb+$p$GNRMC,115840.00,A,0419.74218,S,05539.72995,E,0.409,,220525,,,A*7B
$GNVTG,,T,,M,0.409,N,0.757,K,A*35
$GNGNS,115840.00,0419.74218,S,05539.72995,E,AA,12,0.84,8.7,-47.6,,*5A
$GNGGA,115840.00,0419.74218,S,05539.72995,E,1,12,0.84,8.7,M,-47.6,M,,*70
$GNGSA,A,3,32,28,27,18,26,16,29,10,,,,,1.98,0.84,1.80*17
$GNGSA,A,3,66,87,65,88,,,,,,,,,1.98,0.84,1.80*15
$GPGSV,5,1,17,08,01,321,21,10,19,355,34,16,25,251,18,18,32,073,23*7E
$GPGSV,5,2,17,23,04,033,25,25,02,130,,26,29,219,26,27,36,317,33*79
$GPGSV,5,3,17,28,43,161,25,29,21,147,10,31,28,192,,32,68,354,40*75
$GPGSV,5,4,17,36,52,277,,40,84,353,,41,58,082,,49,32,274,*7C
$GPGSV,5,5,17,50,10,089,*4A
$GLGSV,2,1,08,65,28,357,34,66,53,296,26,67,23,230,,76,13,151,*69
$GLGSV,2,2,08,77,15,197,,86,21,128,,87,48,082,18,88,28,002,42*6E
$GNGLL,0419.74218,S,05539.72995,E,115840.00,A,A*6D
$GNGRS,115840.00,1,1.1,3.5,1.6,-23.1,-2.1,-3.3,21.6,-0.5,,,,*5B
$GNGRS,115840.00,1,-11.9,5.2,5.2,-3.2,,,,,,,,*61
$GNGST,115840.00,42,,,,4.0,5.2,5.6*46
$GNZDA,115840.00,22,05,2025,00,00*71
$GNGBS,115840.00,4.0,5.2,5.6,,,,*56
$GNTXT,01,01,01,More than 100 frame errors, UART RX was disabled*70
b0@+A
#c I!!$=+E
p 'Dbw{4Ta:R 
Yg
A"eB5(CLMVW0RX*<b+$GNRMC,115841.00,A,0419.74218,S,05539.73000,E,0.435,,220525,,,A*71
$GNVTG,,T,,M,0.435,N,0.805,K,A*32
$GNGNS,115841.00,0419.74218,S,05539.73000,E,AA,12,0.82,8.8,-47.6,,*56
$GNGGA,115841.00,0419.74218,S,05539.73000,E,1,12,0.82,8.8,M,-47.6,M,,*7C
$GNGSA,A,3,32,28,27,18,26,16,29,10,,,,,1.81,0.82,1.62*15
$GNGSA,A,3,66,87,65,88,,,,,,,,,1.81,0.82,1.62*17
$GPGSV,5,1,17,08,01,321,21,10,19,355,35,16,25,251,17,18,32,073,23*70
$GPGSV,5,2,17,23,04,033,24,25,02,130,,26,29,219,26,27,36,317,33*78
$GPGSV,5,3,17,28,43,161,25,29,21,147,10,31,28,192,,32,68,354,39*7B
$GPGSV,5,4,17,36,52,277,,40,84,353,,41,58,082,,49,32,274,*7C
$GPGSV,5,5,17,50,10,089,*4A
$GLGSV,2,1,08,65,28,357,34,66,53,296,26,67,23,230,,76,13,151,*69
$GLGSV,2,2,08,77,15,197,,86,21,128,,87,48,082,17,88,28,002,42*61
$GNGLL,0419.74218,S,05539.73000,E,115841.00,A,A*68
$GNGRS,115841.00,1,1.2,0.7,1.6,-22.8,-3.8,-3.6,16.5,-0.5,,,,*5A
$GNGRS,115841.00,1,-10.4,4.8,4.9,-3.3,,,,,,,,*6C
$GNGST,115841.00,72313,,,,4.0,5.2,5.7*74
$GNZDA,115841.00,22,05,2025,00,00*70
$GNGBS,115841.00,4.0,5.2,5.7,,,,*56
$GNTXT,01,01,01,More than 100 frame errors, UART RX was disabled*70
b0@+A
"c Iv!!$=+v
 (Dbv{4Ta:R 
Yg
A!eB5(CLMVW0REX*5tb+@$GNRMC,115842.00,A,0419.74217,S,05539.73001,E,0.364,,220525,,,A*7F
$GNVTG,,T,,M,0.364,N,0.675,K,A*38
$GNGNS,115842.00,0419.74217,S,05539.73001,E,AA,12,0.82,9.0,-47.6,,*52
$GNGGA,115842.00,0419.74217,S,05539.73001,E,1,12,0.82,9.0,M,-47.6,M,,*78
$GNGSA,A,3,32,28,27,18,26,16,29,10,,,,,1.81,0.82,1.62*15
$GNGSA,A,3,66,87,65,88,,,,,,,,,1.81,0.82,1.62*17
$GPGSV,5,1,17,08,01,321,23,10,19,355,34,16,25,251,18,18,32,073,23*7C
$GPGSV,5,2,17,23,04,033,23,25,02,130,,26,29,219,25,27,36,317,33*7C
$GPGSV,5,3,17,28,43,161,25,29,21,147,10,31,28,192,,32,68,354,40*75
$GPGSV,5,4,17,36,52,277,,40,84,353,,41,58,082,,49,32,274,*7C
$GPGSV,5,5,17,50,10,089,*4A
$GLGSV,2,1,08,65,28,357,33,66,53,296,26,67,23,230,,76,13,151,*6E
$GLGSV,2,2,08,77,15,197,,86,21,128,,87,48,082,18,88,28,002,42*6E
$GNGLL,0419.74217,S,05539.73001,E,115842.00,A,A*65
$GNGRS,115842.00,1,1.2,-1.4,1.5,-21.9,-3.5,-2.8,17.1,-0.2,,,,*77
$GNGRS,115842.00,1,-11.5,3.2,4.9,-3.4,,,,,,,,*65
$GNGST,115842.00,108469,,,,4.0,5.2,5.7*41
$GNZDA,115842.00,22,05,2025,00,00*73
$GNGBS,115842.00,4.0,5.2,5.7,,,,*55
$GNTXT,01,01,01,More than 100 frame errors, UART RX was disabled*70
b0@+A
"cn I!s!$=+)
 (Db}{4Ta:R 
Yg
A!eB5(>CLMVW0RX*>b+k$GNRMC,115843.00,A,0419.74220,S,05539.73007,E,0.455,,220525,,,A*79
$GNVTG,,T,,M,0.455,N,0.842,K,A*37
$GNGNS,115843.00,0419.74220,S,05539.73007,E,AA,12,0.82,9.1,-47.6,,*50
$GNGGA,115843.00,0419.74220,S,05539.73007,E,1,12,0.82,9.1,M,-47.6,M,,*7A
$GNGSA,A,3,32,28,27,18,26,16,29,10,,,,,1.81,0.82,1.62*15
$GNGSA,A,3,66,87,65,88,,,,,,,,,1.81,0.82,1.62*17
$GPGSV,5,1,17,08,01,321,24,10,19,355,34,16,25,251,20,18,32,073,23*70
$GPGSV,5,2,17,23,04,033,22,25,02,130,,26,29,219,25,27,36,317,33*7D
$GPGSV,5,3,17,28,43,161,25,29,21,147,10,31,28,192,,32,68,354,40*75
$GPGSV,5,4,17,36,52,277,,40,84,353,,41,58,082,,49,32,274,*7C
$GPGSV,5,5,17,50,10,089,*4A
$GLGSV,2,1,08,65,28,357,33,66,53,296,26,67,23,230,,76,13,151,*6E
$GLGSV,2,2,08,77,15,197,,86,21,128,,87,48,082,20,88,28,002,42*65
$GNGLL,0419.74220,S,05539.73007,E,115843.00,A,A*66
$GNGRS,115843.00,1,1.2,-2.1,1.5,-20.3,-3.6,-4.0,1.7,0.0,,,,*68
$GNGRS,115843.00,1,-9.6,4.0,4.8,-3.5,,,,,,,,*5B
$GNGST,115843.00,45,,,,4.0,5.2,5.7*43
$GNZDA,115843.00,22,05,2025,00,00*72
$GNGBS,115843.00,4.0,5.2,5.7,,,,*54
$GNTXT,01,01,01,More than 100 frame errors, UART RX was disabled*70
b0@p+A
#cB IP!os!$=+]
s (Db|{4Ta:R 
Yg
A!eB5(CLMVW0R3X*bp+S$GNRMC,115844.00,A,0419.74219,S,05539.73004,E,0.353,,220525,,,A*76
$GNVTG,,T,,M,0.353,N,0.655,K,A*3E
$GNGNS,115844.00,0419.74219,S,05539.73004,E,AA,12,0.82,9.3,-47.6,,*5C
$GNGGA,115844.00,0419.74219,S,05539.73004,E,1,12,0.82,9.3,M,-47.6,M,,*76
$GNGSA,A,3,32,28,27,18,26,16,29,10,,,,,1.81,0.82,1.62*15
$GNGSA,A,3,66,87,65,88,,,,,,,,,1.81,0.82,1.62*17
$GPGSV,5,1,17,08,01,321,22,10,19,355,35,16,25,251,21,18,32,073,23*76
$GPGSV,5,2,17,23,04,033,22,25,02,130,,26,29,219,25,27,36,317,33*7D
$GPGSV,5,3,17,28,43,161,25,29,21,147,10,31,28,192,,32,68,354,40*75
$GPGSV,5,4,17,36,52,277,,40,84,353,,41,58,082,,49,32,274,*7C
$GPGSV,5,5,17,50,10,089,*4A
$GLGSV,2,1,08,65,28,357,33,66,53,296,25,67,23,230,,76,13,151,*6D
$GLGSV,2,2,08,77,15,197,,86,21,128,,87,48,082,20,88,28,002,42*65
$GNGLL,0419.74219,S,05539.73004,E,115844.00,A,A*68
$GNGRS,115844.00,1,1.2,-1.6,1.5,-19.7,-1.4,-4.5,16.5,-0.3,,,,*7A
$GNGRS,115844.00,1,-8.7,3.1,4.8,-3.5,,,,,,,,*5A
$GNGST,115844.00,195244,,,,4.1,5.2,5.7*4B
$GNZDA,115844.00,22,05,2025,00,00*75
$GNGBS,115844.00,4.1,5.2,5.7,,,,*52
$GNTXT,01,01,01,More than 100 frame errors, UART RX was disabled*70
b0@X+A
#c Ih!'!$=+b
 (Dbw{4Ta:R 
Yg
A!eB5(CLMVW0RX)IbX+;\x$GNRMC,115845.00,A,0419.74215,S,05539.72995,E,0.289,,220525,,,A*7D
$GNVTG,,T,,M,0.289,N,0.535,K,A*3D
$GNGNS,115845.00,0419.74215,S,05539.72995,E,AA,12,0.75,9.5,-47.6,,*5F
$GNGGA,115845.00,0419.74215,S,05539.72995,E,1,12,0.75,9.5,M,-47.6,M,,*75
$GNGSA,A,3,32,28,27,18,26,16,29,10,,,,,1.77,0.75,1.61*17
$GNGSA,A,3,66,87,65,88,,,,,,,,,1.77,0.75,1.61*15
$GPGSV,5,1,17,08,01,321,20,10,19,355,35,16,25,251,22,18,32,073,22*76
$GPGSV,5,2,17,23,04,033,21,25,02,130,,26,29,219,25,27,36,317,33*7E
$GPGSV,5,3,17,28,43,161,25,29,21,147,10,31,28,192,,32,68,354,40*75
$GPGSV,5,4,17,36,52,277,,40,84,353,,41,58,082,,49,32,274,*7C
$GPGSV,5,5,17,50,10,089,*4A
$GLGSV,2,1,08,65,28,357,33,66,53,296,25,67,23,230,,76,13,151,*6D
$GLGSV,2,2,08,77,15,197,,86,21,128,,87,48,082,20,88,28,002,41*66
$GNGLL,0419.74215,S,05539.72995,E,115845.00,A,A*65
$GNGRS,115845.00,1,1.2,-1.6,1.4,-16.9,1.5,-4.9,17.1,-0.2,,,,*5F
$GNGRS,115845.00,1,-8.0,4.9,4.5,-3.3,,,,,,,,*58
$GNGST,115845.00,3434011,,,,4.1,5.2,5.7*75
$GNZDA,115845.00,22,05,2025,00,00*74
$GNGBS,115845.00,4.1,5.2,5.7,,,,*53
$GNTXT,01,01,01,More than 100 frame errors, UART RX was disabled*70
b0@@+A
#c Ik!3"$=m+
= 'Dbg{4Ta:R 
Yg
A"eB5(#CLMVW0RjX*b@+#4$GNRMC,115846.00,A,0419.74206,S,05539.72987,E,0.115,,220525,,,A*79
$GNVTG,,T,,M,0.115,N,0.214,K,A*3F
$GNGNS,115846.00,0419.74206,S,05539.72987,E,AA,12,0.84,9.7,-47.6,,*51
$GNGGA,115846.00,0419.74206,S,05539.72987,E,1,12,0.84,9.7,M,-47.6,M,,*7B
$GNGSA,A,3,32,28,27,18,26,16,29,10,,,,,1.98,0.84,1.80*17
$GNGSA,A,3,66,87,65,88,,,,,,,,,1.98,0.84,1.80*15
$GPGSV,5,1,17,08,01,321,19,10,19,355,35,16,25,251,22,18,32,073,21*7F
$GPGSV,5,2,17,23,04,033,21,25,02,130,,26,29,219,25,27,36,317,34*79
$GPGSV,5,3,17,28,43,161,25,29,21,147,10,31,28,192,,32,68,354,39*7B
$GPGSV,5,4,17,36,52,277,,40,84,353,,41,58,082,,49,32,274,*7C
$GPGSV,5,5,17,50,10,089,*4A
$GLGSV,2,1,08,65,28,357,34,66,53,296,25,67,23,230,,76,13,151,*6A
$GLGSV,2,2,08,77,15,197,,86,21,128,,87,48,082,19,88,28,002,42*6F
$GNGLL,0419.74206,S,05539.72987,E,115846.00,A,A*67
$GNGRS,115846.00,1,1.0,-2.7,1.1,-16.9,0.5,-5.7,51.8,-0.2,,,,*5C
$GNGRS,115846.00,1,-7.3,3.6,4.4,-3.2,,,,,,,,*5F
$GNGST,115846.00,38,,,,4.1,5.2,5.7*4D
$GNZDA,115846.00,22,05,2025,00,00*77
$GNGBS,115846.00,4.1,5.2,5.7,,,,*50
$GNTXT,01,01,01,More than 100 frame errors, UART RX was disabled*70
b0@(+A
#c I
!@"$=F+
[ (Db|{4Ta:R 
Yg
A"eB5(CfLMVW0RX*mkb(+H$GNRMC,115847.00,A,0419.74202,S,05539.72978,E,0.206,,220525,,,A*7D
$GNVTG,,T,,M,0.206,N,0.382,K,A*30
$GNGNS,115847.00,0419.74202,S,05539.72978,E,AA,12,0.75,9.9,-47.6,,*54
$GNGGA,115847.00,0419.74202,S,05539.72978,E,1,12,0.75,9.9,M,-47.6,M,,*7E
$GNGSA,A,3,32,28,27,18,26,16,29,10,,,,,1.77,0.75,1.61*17
$GNGSA,A,3,66,87,65,88,,,,,,,,,1.77,0.75,1.61*15
$GPGSV,5,1,17,08,01,321,19,10,19,355,35,16,25,251,23,18,32,073,21*7E
$GPGSV,5,2,17,23,04,033,22,25,02,130,,26,29,219,24,27,36,317,34*7B
$GPGSV,5,3,17,28,43,161,25,29,21,147,10,31,28,192,,32,68,354,40*75
$GPGSV,5,4,17,36,52,277,,40,84,353,,41,58,082,,49,32,274,*7C
$GPGSV,5,5,17,50,10,089,*4A
$GLGSV,2,1,08,65,28,357,34,66,53,296,26,67,23,230,19,76,13,151,*61
$GLGSV,2,2,08,77,15,197,,86,21,128,,87,48,082,18,88,28,002,42*6E
$GNGLL,0419.74202,S,05539.72978,E,115847.00,A,A*62
$GNGRS,115847.00,1,1.2,-3.1,0.7,-17.8,-0.4,-7.7,16.3,-0.2,,,,*79
$GNGRS,115847.00,1,-6.3,5.0,4.7,-3.2,,,,,,,,*5C
$GNGST,115847.00,3434011,,,,4.1,5.2,5.7*77
$GNZDA,115847.00,22,05,2025,00,00*76
$GNGBS,115847.00,4.1,5.2,5.7,,,,*51
$GNTXT,01,01,01,More than 100 frame errors, UART RX was disabled*70
b0@+A
#c I!)v#$=+
V (Dbt{4Ta:R 
Yg
A"eB5(>CLMVW0RX*>b+$GNRMC,115848.00,A,0419.74199,S,05539.72971,E,0.159,,220525,,,A*73
$GNVTG,,T,,M,0.159,N,0.294,K,A*3F
$GNGNS,115848.00,0419.74199,S,05539.72971,E,AA,12,0.75,10.1,-47.6,,*63
$GNGGA,115848.00,0419.74199,S,05539.72971,E,1,12,0.75,10.1,M,-47.6,M,,*49
$GNGSA,A,3,32,28,27,18,26,16,29,10,,,,,1.77,0.75,1.61*17
$GNGSA,A,3,66,87,65,88,,,,,,,,,1.77,0.75,1.61*15
$GPGSV,5,1,17,08,01,321,18,10,19,355,35,16,25,251,23,18,32,073,21*7F
$GPGSV,5,2,17,23,04,033,22,25,02,130,,26,29,219,24,27,36,317,35*7A
$GPGSV,5,3,17,28,43,161,25,29,21,147,10,31,28,192,,32,68,354,40*75
$GPGSV,5,4,17,36,52,277,,40,84,353,,41,58,082,,49,32,274,*7C
$GPGSV,5,5,17,50,10,089,*4A
$GLGSV,2,1,08,65,28,357,34,66,53,296,26,67,23,230,19,76,13,151,*61
$GLGSV,2,2,08,77,15,197,,86,21,128,,87,48,082,16,88,28,002,42*60
$GNGLL,0419.74199,S,05539.72971,E,115848.00,A,A*65
$GNGRS,115848.00,1,1.2,-3.7,0.2,-18.1,-1.4,-8.2,16.2,0.0,,,,*56
$GNGRS,115848.00,1,-7.1,4.1,4.6,-3.2,,,,,,,,*51
$GNGST,115848.00,3434011,,,,4.1,5.1,5.7*7B
$GNZDA,115848.00,22,05,2025,00,00*79
$GNGBS,115848.00,4.1,5.1,5.7,,,,*5D
$GNTXT,01,01,01,More than 100 frame errors, UART RX was disabled*70
b0@+A
"cY I!"$=+
 'Dbz{4Ta:R 
Yg
A"eB5(/CLMVW0RX*b+$GNRMC,115849.00,A,0419.74197,S,05539.72966,E,0.229,,220525,,,A*7E
$GNVTG,,T,,M,0.229,N,0.425,K,A*37
$GNGNS,115849.00,0419.74197,S,05539.72966,E,AA,11,0.84,10.2,-47.6,,*64
$GNGGA,115849.00,0419.74197,S,05539.72966,E,1,11,0.84,10.2,M,-47.6,M,,*4E
$GNGSA,A,3,32,28,27,18,26,16,10,,,,,,1.98,0.84,1.80*1C
$GNGSA,A,3,66,87,65,88,,,,,,,,,1.98,0.84,1.80*15
$GPGSV,5,1,17,08,01,321,18,10,19,355,34,16,25,251,24,18,32,073,20*78
$GPGSV,5,2,17,23,04,033,22,25,02,130,,26,29,219,24,27,36,317,34*7B
$GPGSV,5,3,17,28,43,161,24,29,21,147,10,31,28,192,,32,68,354,39*7A
$GPGSV,5,4,17,36,52,277,,40,84,353,,41,58,082,,49,32,274,*7C
$GPGSV,5,5,17,50,10,089,*4A
$GLGSV,2,1,08,65,28,357,34,66,53,296,27,67,23,230,18,76,13,151,*61
$GLGSV,2,2,08,77,15,197,,86,21,128,,87,48,082,16,88,28,002,42*60
$GNGLL,0419.74197,S,05539.72966,E,115849.00,A,A*6C
$GNGRS,115849.00,1,1.2,-3.1,0.0,-17.9,-1.2,-9.4,0.2,,,,,*4C
$GNGRS,115849.00,1,-4.7,4.0,4.6,-3.0,,,,,,,,*56
$GNGST,115849.00,39,,,,4.1,5.1,5.7*40
$GNZDA,115849.00,22,05,2025,00,00*78
$GNGBS,115849.00,4.1,5.1,5.7,,,,*5C
$GNTXT,01,01,01,More than 100 frame errors, UART RX was disabled*70
b0@+A
"c3 I!?"$=+c
| 'Dbg{4Ta:R 
Yg
A!eB5(CLMVW0RwX*b+n$GNRMC,115850.00,A,0419.74190,S,05539.72961,E,0.350,,220525,,,A*79
$GNVTG,,T,,M,0.350,N,0.647,K,A*3E
$GNGNS,115850.00,0419.74190,S,05539.72961,E,AA,11,0.84,10.5,-47.6,,*6B
$GNGGA,115850.00,0419.74190,S,05539.72961,E,1,11,0.84,10.5,M,-47.6,M,,*41
$GNGSA,A,3,32,28,27,18,26,16,10,,,,,,1.98,0.84,1.80*1C
$GNGSA,A,3,66,87,65,88,,,,,,,,,1.98,0.84,1.80*15
$GPGSV,5,1,17,08,01,321,19,10,19,355,34,16,25,251,24,18,32,073,18*72
$GPGSV,5,2,17,23,04,033,22,25,02,130,,26,29,219,25,27,36,317,34*7A
$GPGSV,5,3,17,28,43,161,25,29,21,147,10,31,28,192,,32,68,354,39*7B
$GPGSV,5,4,17,36,52,277,,40,84,353,,41,58,082,,49,32,274,*7C
$GPGSV,5,5,17,50,10,089,*4A
$GLGSV,2,1,08,65,28,357,33,66,53,296,26,67,23,230,17,76,13,151,*68
$GLGSV,2,2,08,77,15,197,,86,21,128,,87,48,082,14,88,28,002,42*62
$GNGLL,0419.74190,S,05539.72961,E,115850.00,A,A*64
$GNGRS,115850.00,1,1.0,-4.1,-0.4,-18.7,-1.2,-9.7,0.2,,,,,*6A
$GNGRS,115850.00,1,-4.9,3.8,4.3,-3.1,,,,,,,,*5B
$GNGST,115850.00,44,,,,4.1,5.1,5.7*42
$GNZDA,115850.00,22,05,2025,00,00*70
$GNGBS,115850.00,4.1,5.1,5.7,,,,*54
$GNTXT,01,01,01,More than 100 frame errors, UART RX was disabled*70
b0@+A
#c  I!\`"$=+
 (DbK{4Ta:R 
Yg
A"eB5(CLMVW0RX*4b+j$GNRMC,115851.00,A,0419.74186,S,05539.72961,E,0.327,,220525,,,A*7F
$GNVTG,,T,,M,0.327,N,0.607,K,A*3A
$GNGNS,115851.00,0419.74186,S,05539.72961,E,AA,12,0.80,10.7,-47.6,,*68
$GNGGA,115851.00,0419.74186,S,05539.72961,E,1,12,0.80,10.7,M,-47.6,M,,*42
$GNGSA,A,3,32,28,27,18,26,16,10,,,,,,1.90,0.80,1.72*1D
$GNGSA,A,3,66,87,65,88,67,,,,,,,,1.90,0.80,1.72*15
$GPGSV,5,1,17,08,01,321,17,10,19,355,35,16,25,251,23,18,32,073,16*74
$GPGSV,5,2,17,23,04,033,22,25,02,130,,26,29,219,25,27,36,317,34*7A
$GPGSV,5,3,17,28,43,161,25,29,21,147,10,31,28,192,,32,68,354,40*75
$GPGSV,5,4,17,36,52,277,,40,84,353,,41,58,082,,49,32,274,*7C
$GPGSV,5,5,17,50,10,089,*4A
$GLGSV,2,1,08,65,28,357,34,66,53,296,26,67,23,230,17,76,13,151,*6F
$GLGSV,2,2,08,77,15,197,,86,21,128,,87,48,082,14,88,28,002,42*62
$GNGLL,0419.74186,S,05539.72961,E,115851.00,A,A*62
$GNGRS,115851.00,1,0.7,-3.8,-0.5,-18.1,-1.6,-12.8,0.3,,,,,*54
$GNGRS,115851.00,1,-3.5,3.9,4.3,-2.9,6.9,,,,,,,*78
$GNGST,115851.00,48,,,,4.1,5.1,5.7*4F
$GNZDA,115851.00,22,05,2025,00,00*71
$GNGBS,115851.00,4.1,5.1,5.7,,,,*55
$GNTXT,01,01,01,More than 100 frame errors, UART RX was disabled*70
b0@+A
#c I4!1"$=+@ 'DbR{4Ta:R 
Yg
A"eB5(NCRLMVW0RX*b+B>$GNRMC,115852.00,A,0419.74184,S,05539.72961,E,0.228,,220525,,,A*70
$GNVTG,,T,,M,0.228,N,0.422,K,A*31
$GNGNS,115852.00,0419.74184,S,05539.72961,E,AA,12,0.80,10.8,-47.6,,*66
$GNGGA,115852.00,0419.74184,S,05539.72961,E,1,12,0.80,10.8,M,-47.6,M,,*4C
$GNGSA,A,3,32,28,27,18,26,16,10,,,,,,1.90,0.80,1.72*1D
$GNGSA,A,3,66,87,65,88,67,,,,,,,,1.90,0.80,1.72*15
$GPGSV,5,1,17,08,01,321,17,10,19,355,35,16,25,251,23,18,32,073,15*77
$GPGSV,5,2,17,23,04,033,23,25,02,130,,26,29,219,25,27,36,317,34*7B
$GPGSV,5,3,17,28,43,161,24,29,21,147,,31,28,192,,32,68,354,39*7B
$GPGSV,5,4,17,36,52,277,,40,84,353,,41,58,082,,49,32,274,*7C
$GPGSV,5,5,17,50,10,089,*4A
$GLGSV,2,1,08,65,28,357,34,66,53,296,27,67,23,230,17,76,13,151,*6E
$GLGSV,2,2,08,77,15,197,,86,21,128,,87,48,082,14,88,28,002,42*62
$GNGLL,0419.74184,S,05539.72961,E,115852.00,A,A*63
$GNGRS,115852.00,1,0.8,-4.5,-0.5,-17.4,0.5,-12.9,0.3,,,,,*76
$GNGRS,115852.00,1,-4.3,1.5,4.1,-2.7,-1.7,,,,,,,*5C
$GNGST,115852.00,49,,,,4.2,5.1,5.7*4E
$GNZDA,115852.00,22,05,2025,00,00*72
$GNGBS,115852.00,4.2,5.1,5.7,,,,*55
$GNTXT,01,01,01,More than 100 frame errors, UART RX was disabled*70
b0@+A
"c5 I!v#$=+p 'Db4{4Ta:R 
Yg
A"eB5(CxLMVW0R$X*b+{$GNRMC,115853.00,A,0419.74190,S,05539.72967,E,0.344,,220525,,,A*79
$GNVTG,,T,,M,0.344,N,0.638,K,A*33
$GNGNS,115853.00,0419.74190,S,05539.72967,E,AA,12,0.94,10.7,-47.6,,*6E
$GNGGA,115853.00,0419.74190,S,05539.72967,E,1,12,0.94,10.7,M,-47.6,M,,*44
$GNGSA,A,3,32,28,27,18,26,16,10,,,,,,2.03,0.94,1.80*1C
$GNGSA,A,3,66,87,65,88,67,,,,,,,,2.03,0.94,1.80*14
$GPGSV,5,1,17,08,01,321,18,10,19,355,34,16,25,251,23,18,32,073,13*7F
$GPGSV,5,2,17,23,04,033,23,25,02,130,,26,29,219,24,27,36,317,35*7B
$GPGSV,5,3,17,28,43,161,23,29,21,147,,31,28,192,,32,68,354,39*7C
$GPGSV,5,4,17,36,52,277,,40,84,353,,41,58,082,,49,32,274,*7C
$GPGSV,5,5,17,50,10,089,*4A
$GLGSV,2,1,08,65,28,357,34,66,53,296,28,67,23,230,17,76,13,151,*61
$GLGSV,2,2,08,77,15,197,,86,21,128,,87,48,082,12,88,28,002,42*64
$GNGLL,0419.74190,S,05539.72967,E,115853.00,A,A*61
$GNGRS,115853.00,1,0.5,-4.0,-0.6,-20.5,1.2,-12.5,0.5,,,,,*75
$GNGRS,115853.00,1,-4.9,2.9,4.1,-2.8,-1.4,,,,,,,*54
$GNGST,115853.00,46,,,,4.2,5.1,5.8*4F
$GNZDA,115853.00,22,05,2025,00,00*73
$GNGBS,115853.00,4.2,5.1,5.8,,,,*5B
$GNTXT,01,01,01,More than 100 frame errors, UART RX was disabled*70
b0@+A
"cZ I0!#$=+ 'Db2{4Ta:R 
Yg
A"eB5(-CjLMVW0RX*;}b+c$GNRMC,115854.00,A,0419.74184,S,05539.72969,E,0.204,,220525,,,A*70
$GNVTG,,T,,M,0.204,N,0.378,K,A*37
$GNGNS,115854.00,0419.74184,S,05539.72969,E,AA,12,0.94,10.9,-47.6,,*6C
$GNGGA,115854.00,0419.74184,S,05539.72969,E,1,12,0.94,10.9,M,-47.6,M,,*46
$GNGSA,A,3,32,28,27,18,26,16,10,,,,,,2.03,0.94,1.80*1C
$GNGSA,A,3,66,87,65,88,67,,,,,,,,2.03,0.94,1.80*14
$GPGSV,5,1,17,08,01,321,17,10,19,355,34,16,25,251,24,18,32,073,13*77
$GPGSV,5,2,17,23,04,033,22,25,02,130,,26,29,219,24,27,36,317,35*7A
$GPGSV,5,3,17,28,43,161,24,29,21,147,,31,28,192,,32,68,354,39*7B
$GPGSV,5,4,17,36,52,277,,40,84,353,,41,58,082,,49,32,274,*7C
$GPGSV,5,5,17,50,10,089,*4A
$GLGSV,2,1,08,65,28,357,34,66,53,296,28,67,23,230,15,76,13,151,*63
$GLGSV,2,2,08,77,15,197,,86,21,128,,87,48,082,12,88,28,002,42*64
$GNGLL,0419.74184,S,05539.72969,E,115854.00,A,A*6D
$GNGRS,115854.00,1,0.5,-3.2,-0.7,-20.0,-0.8,-10.8,0.9,,,,,*56
$GNGRS,115854.00,1,-4.7,1.8,4.2,-3.1,-4.1,,,,,,,*54
$GNGST,115854.00,47,,,,4.2,5.1,5.8*49
$GNZDA,115854.00,22,05,2025,00,00*74
$GNGBS,115854.00,4.2,5.1,5.8,,,,*5C
$GNTXT,01,01,01,More than 100 frame errors, UART RX was disabled*70
b0@h+A
"cgk I+!a"$=+} (Db{4Ta:R 
Yh
A"eB5(CLMVW0RX*&xbh+Kv$GNRMC,115855.00,A,0419.74173,S,05539.72972,E,0.387,,220525,,,A*79
$GNVTG,,T,,M,0.387,N,0.716,K,A*31
$GNGNS,115855.00,0419.74173,S,05539.72972,E,AA,12,0.80,11.1,-47.6,,*63
$GNGGA,115855.00,0419.74173,S,05539.72972,E,1,12,0.80,11.1,M,-47.6,M,,*49
$GNGSA,A,3,32,28,27,18,26,16,10,,,,,,1.90,0.80,1.72*1D
$GNGSA,A,3,66,87,65,88,67,,,,,,,,1.90,0.80,1.72*15
$GPGSV,5,1,17,08,01,321,17,10,19,355,34,16,25,251,23,18,32,073,12*71
$GPGSV,5,2,17,23,04,033,21,25,02,130,,26,29,219,23,27,36,317,34*7F
$GPGSV,5,3,17,28,43,161,23,29,21,147,,31,28,192,,32,68,354,40*72
$GPGSV,5,4,17,36,52,277,,40,84,353,,41,58,082,,49,32,274,*7C
$GPGSV,5,5,17,50,10,089,*4A
$GLGSV,2,1,08,65,28,357,34,66,53,296,28,67,23,230,16,76,13,151,*60
$GLGSV,2,2,08,77,15,197,,86,21,128,,87,48,082,13,88,28,002,42*65
$GNGLL,0419.74173,S,05539.72972,E,115855.00,A,A*6E
$GNGRS,115855.00,1,0.0,-3.9,-0.8,-17.5,1.0,-11.7,1.0,,,,,*75
$GNGRS,115855.00,1,-3.4,-1.0,4.3,-3.3,-1.0,,,,,,,*73
$GNGST,115855.00,52,,,,4.3,5.1,5.8*4D
$GNZDA,115855.00,22,05,2025,00,00*75
$GNGBS,115855.00,4.3,5.1,5.8,,,,*5C
$GNTXT,01,01,01,More than 100 frame errors, UART RX was disabled*70
b0@P+A
!c I!;'!$=+ %Db{4Ta:R 
Yh
A eB5(CELMVW0RX(TbP+3$GNRMC,115856.00,A,0419.74198,S,05539.72989,E,0.691,,220525,,,A*79
$GNVTG,,T,,M,0.691,N,1.280,K,A*38
$GNGNS,115856.00,0419.74198,S,05539.72989,E,AA,12,0.80,10.8,-47.6,,*69
$GNGGA,115856.00,0419.74198,S,05539.72989,E,1,12,0.80,10.8,M,-47.6,M,,*43
$GNGSA,A,3,32,28,27,18,26,16,10,,,,,,1.90,0.80,1.72*1D
$GNGSA,A,3,66,87,65,88,67,,,,,,,,1.90,0.80,1.72*15
$GPGSV,5,1,17,08,01,321,16,10,19,355,33,16,25,251,21,18,32,073,12*75
$GPGSV,5,2,17,23,04,033,20,25,02,130,,26,29,219,22,27,36,317,33*78
$GPGSV,5,3,17,28,43,161,22,29,21,147,,31,28,192,,32,68,354,37*73
$GPGSV,5,4,17,36,52,277,,40,84,353,,41,58,082,,49,32,274,*7C
$GPGSV,5,5,17,50,10,089,*4A
$GLGSV,2,1,08,65,28,357,32,66,53,296,28,67,23,230,15,76,13,151,*65
$GLGSV,2,2,08,77,15,197,,86,21,128,,87,48,082,15,88,28,002,40*61
$GNGLL,0419.74198,S,05539.72989,E,115856.00,A,A*6C
$GNGRS,115856.00,1,-0.2,-3.5,-0.7,-16.2,3.0,-11.2,1.4,,,,,*5F
$GNGRS,115856.00,1,-3.5,-0.6,4.3,-3.1,-1.9,,,,,,,*7D
$GNGST,115856.00,51,,,,4.3,5.1,5.9*4C
$GNZDA,115856.00,22,05,2025,00,00*76
$GNGBS,115856.00,4.3,5.1,5.9,,,,*5E
$GNTXT,01,01,01,More than 100 frame errors, UART RX was disabled*70
b0@8+A
!c{ I^!!$=+ &Db{4Ta:R 
Yh
A!fB5(8CLMVW0R!X*b8+zF$GNRMC,115857.00,A,0419.74199,S,05539.72993,E,0.376,,220525,,,A*7E
$GNVTG,,T,,M,0.376,N,0.696,K,A*36
$GNGNS,115857.00,0419.74199,S,05539.72993,E,AA,11,0.94,10.8,-47.6,,*64
$GNGGA,115857.00,0419.74199,S,05539.72993,E,1,11,0.94,10.8,M,-47.6,M,,*4E
$GNGSA,A,3,32,28,27,26,16,10,,,,,,,2.03,0.94,1.80*15
$GNGSA,A,3,66,87,65,88,67,,,,,,,,2.03,0.94,1.80*14
$GPGSV,5,1,17,08,01,321,17,10,19,355,33,16,25,251,21,18,32,073,09*7E
$GPGSV,5,2,17,23,04,033,20,25,02,130,,26,29,219,20,27,36,317,33*7A
$GPGSV,5,3,17,28,43,161,21,29,21,147,,31,28,192,,32,68,354,38*7F
$GPGSV,5,4,17,36,52,277,,40,84,353,,41,58,082,,49,32,274,*7C
$GPGSV,5,5,17,50,10,089,*4A
$GLGSV,2,1,08,65,27,358,33,66,53,296,28,67,23,230,16,76,13,151,*67
$GLGSV,2,2,08,77,15,197,,86,21,128,,87,48,082,15,88,28,002,42*63
$GNGLL,0419.74199,S,05539.72993,E,115857.00,A,A*67
$GNGRS,115857.00,1,-0.4,-3.4,-0.6,1.6,-10.1,1.2,,,,,,*6E
$GNGRS,115857.00,1,-4.6,0.3,4.4,-3.4,-3.1,,,,,,,*58
$GNGST,115857.00,47,,,,4.4,5.1,5.9*4D
$GNZDA,115857.00,22,05,2025,00,00*77
$GNGBS,115857.00,4.4,5.1,5.9,,,,*58
$GNTXT,01,01,01,More than 100 frame errors, UART RX was disabled*70
b0@ +A
!c I|!q!$=+s (Db{4Ta:R 
Yh
A"fB5(ChLMVW0RX*b +R$GNRMC,115858.00,A,0419.74198,S,05539.72992,E,0.358,,220525,,,A*7D
$GNVTG,,T,,M,0.358,N,0.662,K,A*31
$GNGNS,115858.00,0419.74198,S,05539.72992,E,AA,11,0.94,10.8,-47.6,,*6B
$GNGGA,115858.00,0419.74198,S,05539.72992,E,1,11,0.94,10.8,M,-47.6,M,,*41
$GNGSA,A,3,32,28,27,26,16,10,,,,,,,2.03,0.94,1.80*15
$GNGSA,A,3,66,87,65,88,67,,,,,,,,2.03,0.94,1.80*14
$GPGSV,5,1,17,08,01,321,17,10,19,355,33,16,25,251,20,18,32,073,08*7E
$GPGSV,5,2,17,23,04,033,21,25,02,130,,26,29,219,19,27,36,317,33*71
$GPGSV,5,3,17,28,43,161,20,29,21,147,06,31,28,192,,32,68,354,40*77
$GPGSV,5,4,17,36,52,277,,40,84,353,,41,58,082,,49,32,274,*7C
$GPGSV,5,5,17,50,10,089,*4A
$GLGSV,2,1,08,65,27,358,34,66,53,296,28,67,23,230,17,76,13,151,*61
$GLGSV,2,2,08,77,15,197,,86,21,128,,87,48,082,16,88,28,002,42*60
$GNGLL,0419.74198,S,05539.72992,E,115858.00,A,A*68
$GNGRS,115858.00,1,-0.6,-3.3,-0.6,1.5,-8.7,1.7,,,,,,*5D
$GNGRS,115858.00,1,-3.4,0.0,4.0,-3.5,-4.1,,,,,,,*53
$GNGST,115858.00,49,,,,4.5,5.1,6.0*47
$GNZDA,115858.00,22,05,2025,00,00*78
$GNGBS,115858.00,4.5,5.1,6.0,,,,*5C
$GNTXT,01,01,01,More than 100 frame errors, UART RX was disabled*70
b0@+A
"c I>!"\"$=+< (Db{4Ta:R 
YhO
A"fB5(PCLMVW0RX*Hb+)$GNRMC,115859.00,A,0419.74197,S,05539.72990,E,0.176,,220525,,,A*7F
$GNVTG,,T,,M,0.176,N,0.325,K,A*39
$GNGNS,115859.00,0419.74197,S,05539.72990,E,AA,11,0.94,10.7,-47.6,,*68
$GNGGA,115859.00,0419.74197,S,05539.72990,E,1,11,0.94,10.7,M,-47.6,M,,*42
$GNGSA,A,3,32,28,27,26,16,10,,,,,,,2.03,0.94,1.80*15
$GNGSA,A,3,66,87,65,88,67,,,,,,,,2.03,0.94,1.80*14
$GPGSV,5,1,17,08,01,321,17,10,19,355,34,16,25,251,21,18,32,073,07*77
$GPGSV,5,2,17,23,04,033,21,25,02,130,,26,29,219,20,27,36,317,34*7C
$GPGSV,5,3,17,28,43,161,20,29,21,147,07,31,28,192,,32,68,354,40*76
$GPGSV,5,4,17,36,52,277,,40,84,353,,41,58,082,,49,32,274,*7C
$GPGSV,5,5,17,50,10,089,*4A
$GLGSV,2,1,08,65,27,358,34,66,53,296,29,67,24,230,18,76,13,151,*68
$GLGSV,2,2,08,77,15,197,,86,21,128,,87,48,082,18,88,28,002,42*6E
$GNGLL,0419.74197,S,05539.72990,E,115859.00,A,A*64
$GNGRS,115859.00,1,-0.7,-0.5,-0.7,0.9,-8.2,2.2,,,,,,*57
$GNGRS,115859.00,1,-1.8,1.6,4.1,-3.6,-6.3,,,,,,,*59
$GNGST,115859.00,45,,,,4.6,5.1,6.1*48
$GNZDA,115859.00,22,05,2025,00,00*79
$GNGBS,115859.00,4.6,5.1,6.1,,,,*5F
$GNTXT,01,01,01,More than 100 frame errors, UART RX was disabled*70
b0@+A
"c I!"$=+A (Db{4Ta:R 
Yh
A"fB5(CLMVW0RX*b+l$GNRMC,115900.00,A,0419.74202,S,05539.72993,E,0.271,,220525,,,A*7A
$GNVTG,,T,,M,0.271,N,0.501,K,A*3D
$GNGNS,115900.00,0419.74202,S,05539.72993,E,AA,11,0.94,10.5,-47.6,,*6B
$GNGGA,115900.00,0419.74202,S,05539.72993,E,1,11,0.94,10.5,M,-47.6,M,,*41
$GNGSA,A,3,32,28,27,26,16,10,,,,,,,2.03,0.94,1.80*15
$GNGSA,A,3,66,87,65,88,67,,,,,,,,2.03,0.94,1.80*14
$GPGSV,5,1,17,08,01,321,18,10,19,355,34,16,25,251,21,18,32,073,07*78
$GPGSV,5,2,17,23,04,033,21,25,02,130,,26,29,219,20,27,36,317,34*7C
$GPGSV,5,3,17,28,43,161,21,29,21,147,07,31,28,192,,32,68,354,40*77
$GPGSV,5,4,17,36,52,277,,40,84,353,,41,58,082,,49,32,274,*7C
$GPGSV,5,5,17,50,10,089,*4A
$GLGSV,2,1,08,65,27,358,34,66,53,296,29,67,24,230,18,76,13,151,*68
$GLGSV,2,2,08,77,15,197,,86,21,128,,87,48,082,19,88,28,002,42*6F
$GNGLL,0419.74202,S,05539.72993,E,115900.00,A,A*65
$GNGRS,115900.00,1,-0.9,-1.1,-0.7,2.0,-5.6,2.4,,,,,,*55
$GNGRS,115900.00,1,-3.8,2.3,4.2,-3.4,-4.9,,,,,,,*59
$GNGST,115900.00,45,,,,4.6,5.1,6.1*45
$GNZDA,115900.00,22,05,2025,00,00*74
$GNGBS,115900.00,4.6,5.1,6.1,,,,*52
$GNTXT,01,01,01,More than 100 frame errors, UART RX was disabled*70
b0@+A
 c I!,!$=+z (Db{4Ta:R 
Yh
A!fB5(CLMVW0RX(?b+$GNRMC,115901.00,A,0419.74191,S,05539.72988,E,0.223,,220525,,,A*7F
$GNVTG,,T,,M,0.223,N,0.413,K,A*38
$GNGNS,115901.00,0419.74191,S,05539.72988,E,AA,11,0.94,10.7,-47.6,,*6B
$GNGGA,115901.00,0419.74191,S,05539.72988,E,1,11,0.94,10.7,M,-47.6,M,,*41
$GNGSA,A,3,32,28,27,26,16,10,,,,,,,2.03,0.94,1.80*15
$GNGSA,A,3,66,87,65,88,67,,,,,,,,2.03,0.94,1.80*14
$GPGSV,5,1,17,08,01,321,20,10,19,355,32,16,25,251,21,18,32,073,07*75
$GPGSV,5,2,17,23,04,033,21,25,02,130,,26,29,219,21,27,36,317,33*7A
$GPGSV,5,3,17,28,43,161,22,29,21,147,07,31,28,192,,32,68,354,40*74
$GPGSV,5,4,17,36,52,277,,40,84,353,,41,58,082,,49,32,274,*7C
$GPGSV,5,5,17,50,10,089,*4A
$GLGSV,2,1,08,65,27,358,33,66,53,296,29,67,24,230,19,76,13,151,*6E
$GLGSV,2,2,08,77,15,197,,86,21,128,,87,48,082,20,88,28,002,40*67
$GNGLL,0419.74191,S,05539.72988,E,115901.00,A,A*67
$GNGRS,115901.00,1,-1.0,1.3,-0.6,1.3,-3.0,2.7,,,,,,*71
$GNGRS,115901.00,1,-1.0,-0.7,3.9,-3.6,-6.3,,,,,,,*7F
$GNGST,115901.00,37,,,,4.7,5.1,6.1*40
$GNZDA,115901.00,22,05,2025,00,00*75
$GNGBS,115901.00,4.7,5.1,6.1,,,,*52
$GNTXT,01,01,01,More than 100 frame errors, UART RX was disabled*70
b0@,A
!c Ia!"$=+ (Db{4Ta:R 
Yh
A!fwB5(C$LMVW0RyX)}b,J$GNRMC,115902.00,A,0419.74197,S,05539.72989,E,0.278,,220525,,,A*75
$GNVTG,,T,,M,0.278,N,0.516,K,A*32
$GNGNS,115902.00,0419.74197,S,05539.72989,E,AA,13,0.78,10.5,-47.6,,*6D
$GNGGA,115902.00,0419.74197,S,05539.72989,E,1,12,0.78,10.5,M,-47.6,M,,*46
$GNGSA,A,3,32,28,27,18,26,16,29,10,,,,,1.76,0.78,1.58*11
$GNGSA,A,3,66,87,65,88,67,,,,,,,,1.76,0.78,1.58*12
$GPGSV,5,1,17,08,01,321,20,10,19,355,33,16,25,251,21,18,32,073,12*70
$GPGSV,5,2,17,23,04,033,21,25,02,130,,26,29,219,20,27,36,317,34*7C
$GPGSV,5,3,17,28,43,161,21,29,21,147,14,31,28,192,,32,68,354,40*75
$GPGSV,5,4,17,36,52,277,,40,84,353,,41,58,082,,49,32,274,*7C
$GPGSV,5,5,17,50,10,089,*4A
$GLGSV,2,1,08,65,27,358,33,66,53,296,29,67,24,230,20,76,13,151,*64
$GLGSV,2,2,08,77,15,197,,86,21,128,,87,48,082,20,88,28,002,41*66
$GNGLL,0419.74197,S,05539.72989,E,115902.00,A,A*63
$GNGRS,115902.00,1,-0.9,1.6,-0.1,80.3,2.4,-3.5,1.9,2.9,,,,*44
$GNGRS,115902.00,1,-6.0,-3.9,3.8,-3.1,-7.3,,,,,,,*71
$GNGST,115902.00,44,,,,4.7,5.1,6.1*47
$GNZDA,115902.00,22,05,2025,00,00*76
$GNGBS,115902.00,4.7,5.1,6.1,,,,*51
$GNTXT,01,01,01,More than 100 frame errors, UART RX was disabled*70
b0@,A
"c  I!"$=+fb (Db{4Ta:R 
Yh
A!flB5(CeLMVW0RX)b,$GNRMC,115903.00,A,0419.74196,S,05539.72986,E,0.224,,220525,,,A*73
$GNVTG,,T,,M,0.224,N,0.416,K,A*3A
$GNGNS,115903.00,0419.74196,S,05539.72986,E,AA,13,0.71,10.4,-47.6,,*6A
$GNGGA,115903.00,0419.74196,S,05539.72986,E,1,12,0.71,10.4,M,-47.6,M,,*41
$GNGSA,A,3,32,28,27,18,26,16,29,10,,,,,1.72,0.71,1.57*13
$GNGSA,A,3,66,87,65,88,67,,,,,,,,1.72,0.71,1.57*10
$GPGSV,5,1,17,08,01,321,19,10,19,355,34,16,25,251,20,18,32,073,12*7C
$GPGSV,5,2,17,23,04,033,22,25,02,130,,26,29,219,20,27,36,317,34*7F
$GPGSV,5,3,17,28,43,161,21,29,21,147,14,31,28,192,,32,68,354,40*75
$GPGSV,5,4,17,36,52,277,,40,84,353,,41,58,082,,49,32,274,*7C
$GPGSV,5,5,17,50,10,089,*4A
$GLGSV,2,1,08,65,27,358,33,66,53,296,30,67,24,230,20,76,13,151,*6C
$GLGSV,2,2,08,77,15,197,,86,21,128,,87,48,082,20,88,28,002,41*66
$GNGLL,0419.74196,S,05539.72986,E,115903.00,A,A*6C
$GNGRS,115903.00,1,-1.1,1.0,0.2,12.9,2.0,-3.2,16.3,2.9,,,,*5A
$GNGRS,115903.00,1,-3.2,-2.7,3.6,-3.1,-9.2,,,,,,,*79
$GNGST,115903.00,3302837,,,,4.7,5.1,6.2*7B
$GNZDA,115903.00,22,05,2025,00,00*77
$GNGBS,115903.00,4.7,5.1,6.2,,,,*53
$GNTXT,01,01,01,More than 100 frame errors, UART RX was disabled*70
b0@,A
!c* I!"$=8+ (Db{4Ta:R 
Yh
A!fgB5(7CLMVW0R(X)gb,sa$GNRMC,115904.00,A,0419.74183,S,05539.72979,E,0.071,,220525,,,A*72
$GNVTG,,T,,M,0.071,N,0.131,K,A*38
$GNGNS,115904.00,0419.74183,S,05539.72979,E,AA,13,0.71,10.5,-47.6,,*68
$GNGGA,115904.00,0419.74183,S,05539.72979,E,1,12,0.71,10.5,M,-47.6,M,,*43
$GNGSA,A,3,32,28,27,18,26,16,29,10,,,,,1.72,0.71,1.57*13
$GNGSA,A,3,66,87,65,88,67,,,,,,,,1.72,0.71,1.57*10
$GPGSV,5,1,17,08,01,321,19,10,19,355,33,16,25,251,20,18,32,073,12*7B
$GPGSV,5,2,17,23,04,033,22,25,02,130,,26,29,219,21,27,36,317,34*7E
$GPGSV,5,3,17,28,43,161,20,29,21,147,14,31,28,192,,32,68,354,40*74
$GPGSV,5,4,17,36,52,277,,40,84,353,,41,58,082,,49,32,274,*7C
$GPGSV,5,5,17,50,10,089,*4A
$GLGSV,2,1,08,65,27,358,33,66,53,296,29,67,24,230,21,76,13,151,*65
$GLGSV,2,2,08,77,15,197,,86,21,128,,87,48,082,20,88,28,002,41*66
$GNGLL,0419.74183,S,05539.72979,E,115904.00,A,A*6F
$GNGRS,115904.00,1,-1.2,2.8,0.6,13.0,2.1,-3.2,17.0,3.0,,,,*52
$GNGRS,115904.00,1,-2.0,-2.2,3.6,-2.8,-8.5,,,,,,,*76
$GNGST,115904.00,4665903,,,,4.8,5.1,6.2*76
$GNZDA,115904.00,22,05,2025,00,00*70
$GNGBS,115904.00,4.8,5.1,6.2,,,,*5B
$GNTXT,01,01,01,More than 100 frame errors, UART RX was disabled*70
b0@x,A
 cB I!eZ!$=3+8 (Db{4Ta:R 
Yh
A!fSB5(lCWLMVW0R0X)
bx,[9$GNRMC,115905.00,A,0419.74179,S,05539.72975,E,0.106,,220525,,,A*7B
$GNVTG,,T,,M,0.106,N,0.197,K,A*35
$GNGNS,115905.00,0419.74179,S,05539.72975,E,AA,13,0.94,10.4,-47.6,,*6A
$GNGGA,115905.00,0419.74179,S,05539.72975,E,1,12,0.94,10.4,M,-47.6,M,,*41
$GNGSA,A,3,32,28,27,18,26,16,29,10,,,,,2.03,0.94,1.80*17
$GNGSA,A,3,66,87,65,88,67,,,,,,,,2.03,0.94,1.80*14
$GPGSV,5,1,17,08,01,321,18,10,19,355,32,16,25,251,19,18,32,073,12*71
$GPGSV,5,2,17,23,04,033,22,25,02,130,,26,29,219,21,27,36,317,33*79
$GPGSV,5,3,17,28,43,161,19,29,21,147,14,31,28,192,,32,68,354,40*7E
$GPGSV,5,4,17,36,52,277,,40,84,353,,41,58,082,,49,32,274,*7C
$GPGSV,5,5,17,50,10,089,*4A
$GLGSV,2,1,08,65,27,358,33,66,53,296,29,67,24,230,19,76,13,151,*6E
$GLGSV,2,2,08,77,15,197,,86,21,128,,87,48,082,20,88,28,002,41*66
$GNGLL,0419.74179,S,05539.72975,E,115905.00,A,A*67
$GNGRS,115905.00,1,-1.0,3.1,0.5,-26.8,3.5,-2.8,22.5,3.2,,,,*76
$GNGRS,115905.00,1,-6.6,-2.1,3.4,-2.7,-9.4,,,,,,,*7B
$GNGST,115905.00,40,,,,4.8,5.1,6.2*48
$GNZDA,115905.00,22,05,2025,00,00*71
$GNGBS,115905.00,4.8,5.1,6.2,,,,*5A
$GNTXT,01,01,01,More than 100 frame errors, UART RX was disabled*70
b0@`,A
 cb I!g!$=D+o 'Db{4Ta:R 
Yh
A!fgB5(CLMVW0R.X)-b`,C$GNRMC,115906.00,A,0419.74193,S,05539.72981,E,0.303,,220525,,,A*70
$GNVTG,,T,,M,0.303,N,0.561,K,A*3F
$GNGNS,115906.00,0419.74193,S,05539.72981,E,AA,13,0.71,10.0,-47.6,,*69
$GNGGA,115906.00,0419.74193,S,05539.72981,E,1,12,0.71,10.0,M,-47.6,M,,*42
$GNGSA,A,3,32,28,27,18,26,16,29,10,,,,,1.72,0.71,1.57*13
$GNGSA,A,3,66,87,65,88,67,,,,,,,,1.72,0.71,1.57*10
$GPGSV,5,1,17,08,01,321,17,10,19,355,32,16,25,251,19,18,32,073,12*7E
$GPGSV,5,2,17,23,04,033,23,25,02,130,,26,29,219,21,27,36,317,33*78
$GPGSV,5,3,17,28,43,161,19,29,21,147,14,31,28,192,,32,68,354,39*70
$GPGSV,5,4,17,36,52,277,,40,84,353,,41,58,082,,49,32,274,*7C
$GPGSV,5,5,17,50,10,089,*4A
$GLGSV,2,1,08,65,27,358,33,66,53,296,29,67,24,230,19,76,13,151,*6E
$GLGSV,2,2,08,77,15,197,,86,21,128,,87,48,082,21,88,28,002,41*67
$GNGLL,0419.74193,S,05539.72981,E,115906.00,A,A*6B
$GNGRS,115906.00,1,-0.7,3.7,0.7,12.4,2.7,-5.8,15.5,3.5,,,,*56
$GNGRS,115906.00,1,-10.6,-4.7,3.6,-2.4,-8.7,,,,,,,*4C
$GNGST,115906.00,3299776,,,,4.9,5.1,6.3*78
$GNZDA,115906.00,22,05,2025,00,00*72
$GNGBS,115906.00,4.9,5.1,6.3,,,,*59
$GNTXT,01,01,01,More than 100 frame errors, UART RX was disabled*70
b0@H,A
 c I!!$=K+ 'Db{4Ta:R 
Yh
A!fmB5(CLMVW0RsX)8bH,+R$GNRMC,115907.00,A,0419.74194,S,05539.72979,E,0.207,,220525,,,A*74
$GNVTG,,T,,M,0.207,N,0.383,K,A*30
$GNGNS,115907.00,0419.74194,S,05539.72979,E,AA,13,0.71,9.9,-47.6,,*59
$GNGGA,115907.00,0419.74194,S,05539.72979,E,1,12,0.71,9.9,M,-47.6,M,,*72
$GNGSA,A,3,32,28,27,18,26,16,29,10,,,,,1.72,0.71,1.57*13
$GNGSA,A,3,66,87,65,88,67,,,,,,,,1.72,0.71,1.57*10
$GPGSV,5,1,17,08,01,321,15,10,19,355,32,16,25,251,20,18,32,073,12*76
$GPGSV,5,2,17,23,04,033,23,25,02,130,,26,29,219,20,27,36,317,33*79
$GPGSV,5,3,17,28,43,161,18,29,21,147,14,31,28,192,,32,68,354,39*71
$GPGSV,5,4,17,36,52,277,,40,84,353,,41,58,082,,49,32,274,*7C
$GPGSV,5,5,17,50,10,089,*4A
$GLGSV,2,1,08,65,27,358,33,66,53,296,29,67,24,230,19,76,13,151,*6E
$GLGSV,2,2,08,77,15,197,,86,21,128,,87,48,082,22,88,28,002,41*64
