$GNTXT,01,01,01,More than 100 frame errors, UART RX was disabled*70
b0L?f+u9'4~

8^T8
{4#V^:R 
Y"
iAG pHJ!*K"MDLWVXW%XbrP$GNRMC,052108.00,A,0420.01660,S,05539.77972,E,0.198,,230525,,,D*7A
$GNVTG,,T,,M,0.198,N,0.367,K,D*3A
$GNGNS,052108.00,0420.01660,S,05539.77972,E,DA,15,0.72,19.9,-47.6,,0000*67
$GNGGA,052108.00,0420.01660,S,05539.77972,E,2,12,0.72,19.9,M,-47.6,M,,0000*4C
$GNGSA,A,3,24,20,05,13,15,22,12,18,23,,,,1.39,0.72,1.19*17
$GNGSA,A,3,86,74,75,87,71,72,,,,,,,1.39,0.72,1.19*18
$GPGSV,5,1,17,05,63,102,28,11,12,023,,12,43,009,18,13,17,145,24*76
$GPGSV,5,2,17,15,29,179,22,18,29,243,22,20,39,052,27,22,11,126,20*72
$GPGSV,5,3,17,23,10,209,10,24,56,218,15,25,20,340,,29,09,312,*79
$GPGSV,5,4,17,36,52,277,,40,86,350,35,41,58,082,,49,32,274,*7B
$GPGSV,5,5,17,50,10,089,*4A
$GLGSV,3,1,09,65,02,212,,71,16,112,32,72,21,163,27,74,33,145,25*6F
$GLGSV,3,2,09,75,77,068,34,76,27,343,17,86,24,344,13,87,31,293,09*65
$GLGSV,3,3,09,88,06,237,*5C
$GNGLL,0420.01660,S,05539.77972,E,052108.00,A,D*60
$GNGRS,052108.00,1,6.1,1.4,-0.7,6.7,6.3,-16.0,2.6,0.6,19.9,,,*75
$GNGRS,052108.00,1,-1.0,13.2,2.1,1.7,-0.4,-15.3,,,,,,*74
$GNGST,052108.00,87971,,,,4.0,5.1,6.9*78
$GNZDA,052108.00,23,05,2025,00,00*77
$GNGBS,052108.00,4.0,5.1,6.9,,,,*5E
$GNTXT,01,01,01,More than 100 frame errors, UART RX was disabled*70
b0L?f+f#z '4a~|
8T8
{4&V^:R 
Y%
i{AG#pHJ!K"MDLWVXW%XebrjPa$GNRMC,052109.00,A,0420.01660,S,05539.77971,E,0.164,,230525,,,D*7B
$GNVTG,,T,,M,0.164,N,0.304,K,D*3C
$GNGNS,052109.00,0420.01660,S,05539.77971,E,DA,15,0.67,20.0,-47.6,,0000*62
$GNGGA,052109.00,0420.01660,S,05539.77971,E,2,12,0.67,20.0,M,-47.6,M,,0000*49
$GNGSA,A,3,24,20,05,13,15,22,12,18,23,,,,1.30,0.67,1.12*11
$GNGSA,A,3,86,74,75,87,71,72,,,,,,,1.30,0.67,1.12*1E
$GPGSV,5,1,17,05,63,102,28,11,12,023,,12,43,009,16,13,17,145,24*78
$GPGSV,5,2,17,15,29,179,23,18,29,243,22,20,39,052,32,22,11,126,19*7D
$GPGSV,5,3,17,23,10,209,11,24,56,218,09,25,20,340,,29,09,312,*75
$GPGSV,5,4,17,36,52,277,,40,86,350,38,41,58,082,,49,32,274,*76
$GPGSV,5,5,17,50,10,089,*4A
$GLGSV,3,1,09,65,02,212,,71,16,112,35,72,21,163,26,74,33,145,25*69
$GLGSV,3,2,09,75,77,068,34,76,27,343,18,86,24,344,11,87,31,293,18*68
$GLGSV,3,3,09,88,06,237,*5C
$GNGLL,0420.01660,S,05539.77971,E,052109.00,A,D*62
$GNGRS,052109.00,1,-0.2,1.0,-0.9,6.8,5.5,-16.7,3.6,1.2,-18.3,,,*79
$GNGRS,052109.00,1,-2.8,12.2,2.0,-0.9,-0.7,-15.8,,,,,,*54
$GNGST,052109.00,56,,,,4.0,5.1,6.9*4A
$GNZDA,052109.00,23,05,2025,00,00*76
$GNGBS,052109.00,4.0,5.1,6.9,,,,*5F
$GNTXT,01,01,01,More than 100 frame errors, UART RX was disabled*70
b0L?f+ '4~t

8T8
{4'V^:R 
Y'
iAG%pH=J!K"MDLWVX-W%XbrRP9a$GNRMC,052110.00,A,0420.01660,S,05539.77967,E,0.100,,230525,,,D*76
$GNVTG,,T,,M,0.100,N,0.185,K,D*35
$GNGNS,052110.00,0420.01660,S,05539.77967,E,DA,15,0.67,19.9,-47.6,,0000*6E
$GNGGA,052110.00,0420.01660,S,05539.77967,E,2,12,0.67,19.9,M,-47.6,M,,0000*45
$GNGSA,A,3,24,20,05,13,15,22,12,18,23,,,,1.30,0.67,1.12*11
$GNGSA,A,3,86,74,75,87,71,72,,,,,,,1.30,0.67,1.12*1E
$GPGSV,5,1,17,05,63,102,28,11,12,023,,12,43,009,15,13,17,145,24*7B
$GPGSV,5,2,17,15,29,179,25,18,29,243,23,20,39,052,32,22,11,126,19*7A
$GPGSV,5,3,17,23,10,209,14,24,56,218,10,25,20,340,,29,09,312,*78
$GPGSV,5,4,17,36,52,277,,40,86,350,39,41,58,082,,49,32,274,*77
$GPGSV,5,5,17,50,10,089,*4A
$GLGSV,3,1,09,65,02,212,,71,16,112,37,72,21,163,26,74,33,145,25*6B
$GLGSV,3,2,09,75,77,068,34,76,27,343,20,86,24,344,12,87,31,293,11*69
$GLGSV,3,3,09,88,06,237,*5C
$GNGLL,0420.01660,S,05539.77967,E,052110.00,A,D*6D
$GNGRS,052110.00,1,6.4,-1.2,-3.8,6.8,5.0,-16.8,4.7,2.8,19.8,,,*53
$GNGRS,052110.00,1,-4.7,11.8,1.6,4.5,-0.6,-14.8,,,,,,*7C
$GNGST,052110.00,2974704,,,,4.0,5.1,7.0*72
$GNZDA,052110.00,23,05,2025,00,00*7E
$GNGBS,052110.00,4.0,5.1,7.0,,,,*5F
$GNTXT,01,01,01,More than 100 frame errors, UART RX was disabled*70
b0L?f+F'4~
8T8
{4#V^:R 
Y'
ixAG$oHJ!7K#MDLWVXW%Xybr:P$GNRMC,052111.00,A,0420.01672,S,05539.77994,E,0.248,,230525,,,D*77
$GNVTG,,T,,M,0.248,N,0.458,K,D*3F
$GNGNS,052111.00,0420.01672,S,05539.77994,E,DA,14,0.70,20.5,-47.6,,0000*61
$GNGGA,052111.00,0420.01672,S,05539.77994,E,2,12,0.70,20.5,M,-47.6,M,,0000*4B
$GNGSA,A,3,24,20,05,13,15,22,18,23,,,,,1.32,0.70,1.12*16
$GNGSA,A,3,86,74,75,87,71,72,,,,,,,1.32,0.70,1.12*1A
$GPGSV,5,1,17,05,63,102,28,11,12,023,,12,43,009,22,13,17,145,25*7E
$GPGSV,5,2,17,15,29,179,25,18,29,243,23,20,39,052,31,22,11,126,18*78
$GPGSV,5,3,17,23,10,209,14,24,56,218,14,25,20,340,,29,09,312,*7C
$GPGSV,5,4,17,36,52,277,,40,86,350,35,41,58,082,,49,32,274,*7B
$GPGSV,5,5,17,50,10,089,*4A
$GLGSV,3,1,09,65,02,212,,71,16,111,36,72,21,163,27,74,33,145,26*6B
$GLGSV,3,2,09,75,77,068,35,76,27,343,18,86,24,344,13,87,31,293,17*64
$GLGSV,3,3,09,88,06,237,*5C
$GNGLL,0420.01672,S,05539.77994,E,052111.00,A,D*63
$GNGRS,052111.00,1,6.8,-1.3,-3.4,7.8,5.0,-18.5,2.4,20.3,,,,*71
$GNGRS,052111.00,1,-5.3,10.8,1.9,5.3,-0.8,-15.6,,,,,,*70
$GNGST,052111.00,3073197,,,,4.1,5.2,7.0*72
$GNZDA,052111.00,23,05,2025,00,00*7F
$GNGBS,052111.00,4.1,5.2,7.0,,,,*5C
$GNTXT,01,01,01,More than 100 frame errors, UART RX was disabled*70
b0L#?f+jzm'4o~
x8T8
{4&V^:R 
Y'
irAG$oHfJ!K%MDLWVXW%&X}b#r"P1$GNRMC,052112.00,A,0420.01682,S,05539.78012,E,0.366,,230525,,,D*7E
$GNVTG,,T,,M,0.366,N,0.677,K,D*3D
$GNGNS,052112.00,0420.01682,S,05539.78012,E,DA,14,0.75,20.8,-47.6,,0000*6D
$GNGGA,052112.00,0420.01682,S,05539.78012,E,2,12,0.75,20.8,M,-47.6,M,,0000*47
$GNGSA,A,3,24,20,05,13,15,22,18,23,,,,,1.41,0.75,1.19*1C
$GNGSA,A,3,86,74,75,87,71,72,,,,,,,1.41,0.75,1.19*10
$GPGSV,5,1,17,05,63,102,29,11,12,023,,12,43,009,22,13,17,145,27*7D
$GPGSV,5,2,17,15,29,179,26,18,29,243,23,20,39,052,31,22,11,126,17*74
$GPGSV,5,3,17,23,10,209,14,24,56,218,18,25,20,340,,29,09,312,*70
$GPGSV,5,4,17,36,52,277,,40,86,350,38,41,58,082,,49,32,274,*76
$GPGSV,5,5,17,50,10,089,*4A
$GLGSV,3,1,09,65,02,212,,71,16,111,36,72,21,162,27,74,33,145,26*6A
$GLGSV,3,2,09,75,77,068,37,76,27,343,17,86,24,344,13,87,31,293,14*6A
$GLGSV,3,3,09,88,06,237,*5C
$GNGLL,0420.01682,S,05539.78012,E,052112.00,A,D*67
$GNGRS,052112.00,1,-5.0,1.1,-5.4,7.6,3.8,-15.5,1.1,-50.0,,,,*5F
$GNGRS,052112.00,1,-13.8,10.5,1.6,15.7,-0.6,-14.3,,,,,,*72
$GNGST,052112.00,47,,,,4.1,5.2,7.0*4A
$GNZDA,052112.00,23,05,2025,00,00*7C
$GNGBS,052112.00,4.1,5.2,7.0,,,,*5F
$GNTXT,01,01,01,More than 100 frame errors, UART RX was disabled*70
b0Lx'?f+I '49~
8T8
{4)V^:R 
Y&
ihAG$oH@J![K%MDLWVXW%XBbx'r
P$GNRMC,052113.00,A,0420.01683,S,05539.78012,E,0.274,,230525,,,D*7C
$GNVTG,,T,,M,0.274,N,0.507,K,D*3B
$GNGNS,052113.00,0420.01683,S,05539.78012,E,DA,14,0.77,20.9,-47.6,,0000*6E
$GNGGA,052113.00,0420.01683,S,05539.78012,E,2,12,0.77,20.9,M,-47.6,M,,0000*44
$GNGSA,A,3,24,20,05,13,15,22,12,18,23,,,,1.45,0.77,1.22*11
$GNGSA,A,3,74,75,87,71,72,,,,,,,,1.45,0.77,1.22*10
$GPGSV,5,1,17,05,63,102,29,11,12,023,,12,43,009,23,13,17,145,26*7D
$GPGSV,5,2,17,15,29,179,27,18,29,243,25,20,39,052,32,22,11,126,17*70
$GPGSV,5,3,17,23,10,209,14,24,56,218,17,25,20,340,,29,09,312,*7F
$GPGSV,5,4,17,36,52,277,,40,86,350,41,41,58,082,,49,32,274,*78
$GPGSV,5,5,17,50,10,089,*4A
$GLGSV,3,1,09,65,02,212,,71,16,111,36,72,21,162,27,74,33,145,27*6B
$GLGSV,3,2,09,75,77,068,37,76,27,343,18,86,24,344,13,87,31,293,16*67
$GLGSV,3,3,09,88,06,237,*5C
$GNGLL,0420.01683,S,05539.78012,E,052113.00,A,D*67
$GNGRS,052113.00,1,4.6,0.6,-3.6,7.1,2.1,-18.2,-1.8,1.4,19.5,,,*59
$GNGRS,052113.00,1,11.2,1.7,4.1,-0.9,-14.7,,,,,,,*70
$GNGST,052113.00,3073277,,,,4.1,5.2,7.0*7D
$GNZDA,052113.00,23,05,2025,00,00*7D
$GNGBS,052113.00,4.1,5.2,7.0,86,,20.9,97.0*55
$GNTXT,01,01,01,More than 100 frame errors, UART RX was disabled*70
b0L`+?f%+*k!'4~#
u8xT8
{4*V^:R 
Y'
iaAG#o~HJ WK&MDLWVXdW%YX:b`+rP$GNRMC,052114.00,A,0420.01682,S,05539.78011,E,0.155,,230525,,,D*79
$GNVTG,,T,,M,0.155,N,0.286,K,D*35
$GNGNS,052114.00,0420.01682,S,05539.78011,E,DA,14,0.77,21.0,-47.6,,0000*63
$GNGGA,052114.00,0420.01682,S,05539.78011,E,2,12,0.77,21.0,M,-47.6,M,,0000*49
$GNGSA,A,3,24,20,05,13,15,22,12,18,23,,,,1.45,0.77,1.22*11
$GNGSA,A,3,74,75,87,71,72,,,,,,,,1.45,0.77,1.22*10
$GPGSV,5,1,17,05,63,102,30,11,12,023,,12,43,009,23,13,17,145,27*74
$GPGSV,5,2,17,15,29,179,27,18,29,243,26,20,39,052,33,22,11,126,17*72
$GPGSV,5,3,17,23,10,209,17,24,56,218,20,25,20,340,,29,09,312,*78
$GPGSV,5,4,17,36,52,277,,40,86,350,42,41,58,082,,49,32,274,*7B
$GPGSV,5,5,17,50,10,089,*4A
$GLGSV,3,1,09,65,02,212,,71,16,111,35,72,21,162,28,74,32,146,27*65
$GLGSV,3,2,09,75,77,068,38,76,27,343,21,86,24,344,13,87,31,293,12*66
$GLGSV,3,3,09,88,06,237,*5C
$GNGLL,0420.01682,S,05539.78011,E,052114.00,A,D*62
$GNGRS,052114.00,1,3.8,-0.3,0.4,5.5,1.1,-17.6,-0.5,2.7,19.1,,,*55
$GNGRS,052114.00,1,11.1,1.6,3.5,-1.3,-15.1,,,,,,,*7A
$GNGST,052114.00,3075372,,,,4.1,5.1,6.9*73
$GNZDA,052114.00,23,05,2025,00,00*7A
$GNGBS,052114.00,4.1,5.1,6.9,86,,34.6,92.1*57
$GNTXT,01,01,01,More than 100 frame errors, UART RX was disabled*70
b0LH/?fA+K!'4~
F8T8
{4*V^:R 
Y&
i`AG#oHJ K&MGLWVXvW%XbH/rPpf$GNRMC,052115.00,A,0420.01679,S,05539.78010,E,0.089,,230525,,,D*7D
$GNVTG,,T,,M,0.089,N,0.164,K,D*3A
$GNGNS,052115.00,0420.01679,S,05539.78010,E,DA,15,0.81,21.1,-47.6,,0000*6E
$GNGGA,052115.00,0420.01679,S,05539.78010,E,2,12,0.81,21.1,M,-47.6,M,,0000*45
$GNGSA,A,3,24,20,05,13,15,22,12,18,23,,,,1.54,0.81,1.31*1A
$GNGSA,A,3,86,74,75,87,71,72,,,,,,,1.54,0.81,1.31*15
$GPGSV,5,1,17,05,63,102,30,11,12,023,,12,43,009,22,13,17,145,28*7A
$GPGSV,5,2,17,15,29,179,26,18,29,243,27,20,39,052,33,22,11,126,19*7C
$GPGSV,5,3,17,23,10,209,15,24,56,218,20,25,20,340,,29,09,312,*7A
$GPGSV,5,4,17,36,52,277,,40,86,350,42,41,58,082,,49,32,274,*7B
$GPGSV,5,5,17,50,10,089,*4A
$GLGSV,3,1,09,65,02,212,,71,16,111,35,72,21,162,28,74,32,146,27*65
$GLGSV,3,2,09,75,77,071,38,76,27,343,21,86,24,344,14,87,31,293,11*6A
$GLGSV,3,3,09,88,06,237,*5C
$GNGLL,0420.01679,S,05539.78010,E,052115.00,A,D*66
$GNGRS,052115.00,1,2.6,-0.5,-1.9,4.4,0.7,-19.0,-0.4,2.1,21.2,,,*7C
$GNGRS,052115.00,1,-39.8,10.1,1.3,17.4,-1.2,-15.7,,,,,,*7D
$GNGST,052115.00,42,,,,4.0,5.0,6.8*42
$GNZDA,052115.00,23,05,2025,00,00*7B
$GNGBS,052115.00,4.0,5.0,6.8,,,,*52
$GNTXT,01,01,01,More than 100 frame errors, UART RX was disabled*70
b0L03?fr+;)!'4~
8T8
{4*V^:R 
Y&
iuAG#oHJ K&MGsLWVXqW%Xp#b03rPH$GNRMC,052116.00,A,0420.01675,S,05539.78009,E,0.071,,230525,,,D*7D
$GNVTG,,T,,M,0.071,N,0.132,K,D*3E
$GNGNS,052116.00,0420.01675,S,05539.78009,E,DA,15,0.77,21.1,-47.6,,0000*60
$GNGGA,052116.00,0420.01675,S,05539.78009,E,2,12,0.77,21.1,M,-47.6,M,,0000*4B
$GNGSA,A,3,24,20,05,13,15,22,12,18,23,,,,1.45,0.77,1.22*11
$GNGSA,A,3,86,74,75,87,71,72,,,,,,,1.45,0.77,1.22*1E
$GPGSV,5,1,17,05,63,102,30,11,12,023,,12,43,009,23,13,17,145,28*7B
$GPGSV,5,2,17,15,29,179,26,18,29,243,28,20,39,052,33,22,11,126,21*78
$GPGSV,5,3,17,23,10,209,13,24,56,218,21,25,20,340,,29,09,312,*7D
$GPGSV,5,4,17,36,52,277,,40,86,350,42,41,58,082,,49,32,274,*7B
$GPGSV,5,5,17,50,10,089,*4A
$GLGSV,3,1,09,65,02,212,,71,16,111,35,72,21,162,28,74,32,146,27*65
$GLGSV,3,2,09,75,77,071,38,76,28,343,21,86,24,344,16,87,31,293,09*6E
$GLGSV,3,3,09,88,06,237,*5C
$GNGLL,0420.01675,S,05539.78009,E,052116.00,A,D*61
$GNGRS,052116.00,1,1.9,0.0,-1.4,3.0,0.0,-18.6,-2.0,1.4,19.5,,,*59
$GNGRS,052116.00,1,-39.8,10.2,1.2,4.4,-1.2,-15.5,,,,,,*4C
$GNGST,052116.00,156781,,,,4.0,4.9,6.7*4C
$GNZDA,052116.00,23,05,2025,00,00*78
$GNGBS,052116.00,4.0,4.9,6.7,,,,*56
$GNTXT,01,01,01,More than 100 frame errors, UART RX was disabled*70
b0L7?f+5$* '4~C
8T8
{4)V^:R 
Y%
i`AG"oHrJ K&MGmLWVXW
%X!cb7rP 6$GNRMC,052117.00,A,0420.01674,S,05539.78014,E,0.068,,230525,,,D*79
$GNVTG,,T,,M,0.068,N,0.125,K,D*30
$GNGNS,052117.00,0420.01674,S,05539.78014,E,DA,15,0.77,21.2,-47.6,,0000*6F
$GNGGA,052117.00,0420.01674,S,05539.78014,E,2,12,0.77,21.2,M,-47.6,M,,0000*44
$GNGSA,A,3,24,20,05,13,15,22,12,18,23,,,,1.45,0.77,1.22*11
$GNGSA,A,3,86,74,75,87,71,72,,,,,,,1.45,0.77,1.22*1E
$GPGSV,5,1,17,05,63,102,29,11,12,023,,12,43,009,24,13,17,145,27*7B
$GPGSV,5,2,17,15,29,179,25,18,29,243,28,20,39,052,32,22,11,126,20*7B
$GPGSV,5,3,17,23,10,209,16,24,56,218,21,25,20,340,,29,09,312,*78
$GPGSV,5,4,17,36,52,277,,40,86,350,41,41,58,082,,49,32,274,*78
$GPGSV,5,5,17,50,10,089,*4A
$GLGSV,3,1,09,65,02,212,,71,16,111,34,72,21,162,28,74,32,146,27*64
$GLGSV,3,2,09,75,77,071,38,76,28,343,21,86,24,344,17,87,31,293,10*67
$GLGSV,3,3,09,88,06,237,*5C
$GNGLL,0420.01674,S,05539.78014,E,052117.00,A,D*6D
$GNGRS,052117.00,1,3.9,0.0,-2.7,2.9,-1.1,-17.2,-2.0,-2.1,19.3,,,*59
$GNGRS,052117.00,1,-38.8,10.5,1.1,4.4,-1.2,-14.2,,,,,,*4E
$GNGST,052117.00,3071698,,,,4.0,4.8,6.6*73
$GNZDA,052117.00,23,05,2025,00,00*79
$GNGBS,052117.00,4.0,4.8,6.6,,,,*57
$GNTXT,01,01,01,More than 100 frame errors, UART RX was disabled*70
b0L;?f+e '4~
8{T8
{4)V^:R 
Y%
iiAG#ovH#J SK&MG<LWVX\W%Xb;rP$GNRMC,052118.00,A,0420.01676,S,05539.78023,E,0.058,,230525,,,D*73
$GNVTG,,T,,M,0.058,N,0.108,K,D*3C
$GNGNS,052118.00,0420.01676,S,05539.78023,E,DA,15,0.91,21.5,-47.6,,0000*69
$GNGGA,052118.00,0420.01676,S,05539.78023,E,2,12,0.91,21.5,M,-47.6,M,,0000*42
$GNGSA,A,3,24,20,05,13,15,22,12,18,23,,,,1.60,0.91,1.32*1F
$GNGSA,A,3,86,74,75,87,71,72,,,,,,,1.60,0.91,1.32*10
$GPGSV,5,1,17,05,63,102,30,11,12,023,,12,43,009,23,13,17,145,27*74
$GPGSV,5,2,17,15,29,179,26,18,29,243,28,20,39,052,32,22,11,126,18*73
$GPGSV,5,3,17,23,10,209,12,24,56,218,20,25,20,340,,29,09,312,*7D
$GPGSV,5,4,17,36,52,277,,40,86,350,41,41,58,082,,49,32,274,*78
$GPGSV,5,5,17,50,10,089,*4A
$GLGSV,3,1,09,65,02,212,,71,16,111,35,72,21,162,28,74,32,146,26*64
$GLGSV,3,2,09,75,77,071,38,76,28,343,21,86,24,344,17,87,31,293,15*62
$GLGSV,3,3,09,88,06,237,*5C
$GNGLL,0420.01676,S,05539.78023,E,052118.00,A,D*64
$GNGRS,052118.00,1,6.4,0.1,0.1,1.0,-3.1,-13.5,-7.6,-2.4,2.4,,,*46
$GNGRS,052118.00,1,-40.0,11.1,0.6,-142,-1.4,-12.5,,,,,,*76
$GNGST,052118.00,45,,,,4.0,4.7,6.5*43
$GNZDA,052118.00,23,05,2025,00,00*76
$GNGBS,052118.00,4.0,4.7,6.5,,,,*54
$GNTXT,01,01,01,More than 100 frame errors, UART RX was disabled*70
b0L>?f+W '4~\
8T8
{4)V^:R 
Y%
iWAG"o{HJ @K&MGELWVXW%Xfb>rzP$GNRMC,052119.00,A,0420.01672,S,05539.78027,E,0.087,,230525,,,D*70
$GNVTG,,T,,M,0.087,N,0.162,K,D*32
$GNGNS,052119.00,0420.01672,S,05539.78027,E,DA,15,0.77,21.5,-47.6,,0000*60
$GNGGA,052119.00,0420.01672,S,05539.78027,E,2,12,0.77,21.5,M,-47.6,M,,0000*4B
$GNGSA,A,3,24,20,05,13,15,22,12,18,23,,,,1.45,0.77,1.22*11
$GNGSA,A,3,86,74,75,87,71,72,,,,,,,1.45,0.77,1.22*1E
$GPGSV,5,1,17,05,63,102,31,11,12,023,,12,43,009,24,13,17,145,27*72
$GPGSV,5,2,17,15,29,179,25,18,29,243,28,20,39,052,32,22,11,126,17*7F
$GPGSV,5,3,17,23,10,209,15,24,56,218,19,25,20,340,,29,09,312,*70
$GPGSV,5,4,17,36,52,277,,40,86,350,41,41,58,082,,49,32,274,*78
$GPGSV,5,5,17,50,10,089,*4A
$GLGSV,3,1,09,65,02,212,,71,16,111,34,72,21,162,28,74,32,146,26*65
$GLGSV,3,2,09,75,77,071,38,76,28,343,22,86,24,344,17,87,31,293,16*62
$GLGSV,3,3,09,88,06,237,*5C
$GNGLL,0420.01672,S,05539.78027,E,052119.00,A,D*65
$GNGRS,052119.00,1,7.8,0.3,-2.7,0.9,-3.3,-14.4,-5.2,-0.9,19.8,,,*52
$GNGRS,052119.00,1,-42.0,10.9,0.7,4.6,-1.3,-12.7,,,,,,*4E
$GNGST,052119.00,179609,,,,3.9,4.6,6.4*4D
$GNZDA,052119.00,23,05,2025,00,00*77
$GNGBS,052119.00,3.9,4.6,6.4,,,,*5B
$GNTXT,01,01,01,More than 100 frame errors, UART RX was disabled*70
b0LB?f'+I!'4~
8`T8
{4*V^:R 
Y%
iVAG#o|H3J K&MG7LWVXW%XbBrbP_$GNRMC,052120.00,A,0420.01672,S,05539.78028,E,0.035,,230525,,,D*7C
$GNVTG,,T,,M,0.035,N,0.066,K,D*3E
$GNGNS,052120.00,0420.01672,S,05539.78028,E,DA,15,0.77,21.6,-47.6,,0000*66
$GNGGA,052120.00,0420.01672,S,05539.78028,E,2,12,0.77,21.6,M,-47.6,M,,0000*4D
$GNGSA,A,3,24,20,05,13,15,22,12,18,23,,,,1.45,0.77,1.22*11
$GNGSA,A,3,86,74,75,87,71,72,,,,,,,1.45,0.77,1.22*1E
$GPGSV,5,1,17,05,63,102,31,11,12,023,,12,43,009,23,13,17,145,27*75
$GPGSV,5,2,17,15,29,179,25,18,29,243,28,20,39,052,33,22,11,126,16*7F
$GPGSV,5,3,17,23,10,209,17,24,56,218,20,25,20,340,,29,09,312,*78
$GPGSV,5,4,17,36,52,277,,40,86,350,42,41,58,082,,49,32,274,*7B
$GPGSV,5,5,17,50,10,089,*4A
$GLGSV,3,1,09,65,02,212,,71,16,111,35,72,21,162,27,74,32,146,26*6B
$GLGSV,3,2,09,75,77,071,38,76,28,343,22,86,24,344,17,87,31,293,12*66
$GLGSV,3,3,09,88,06,237,*5C
$GNGLL,0420.01672,S,05539.78028,E,052120.00,A,D*60
$GNGRS,052120.00,1,6.1,-0.3,-4.7,2.7,-3.1,-15.3,-5.2,0.7,19.7,,,*5F
$GNGRS,052120.00,1,-41.4,11.8,0.6,4.6,-1.3,-12.3,,,,,,*46
$GNGST,052120.00,3071477,,,,3.9,4.5,6.3*72
$GNZDA,052120.00,23,05,2025,00,00*7D
$GNGBS,052120.00,3.9,4.5,6.3,,,,*55
$GNTXT,01,01,01,More than 100 frame errors, UART RX was disabled*70
b0LF?fF+'!'4~a

8T8
{4*V^:R 
Y%
i_AG"oHJ K&MGLWVXW%X%bFrJP$GNRMC,052121.00,A,0420.01672,S,05539.78025,E,0.023,,230525,,,D*77
$GNVTG,,T,,M,0.023,N,0.043,K,D*3E
$GNGNS,052121.00,0420.01672,S,05539.78025,E,DA,15,0.77,21.5,-47.6,,0000*69
$GNGGA,052121.00,0420.01672,S,05539.78025,E,2,12,0.77,21.5,M,-47.6,M,,0000*42
$GNGSA,A,3,24,20,05,13,15,22,12,18,23,,,,1.45,0.77,1.22*11
$GNGSA,A,3,86,74,75,87,71,72,,,,,,,1.45,0.77,1.22*1E
$GPGSV,5,1,17,05,63,102,31,11,12,023,,12,43,009,21,13,17,145,27*77
$GPGSV,5,2,17,15,29,179,25,18,29,243,28,20,39,052,33,22,11,126,19*70
$GPGSV,5,3,17,23,10,209,10,24,56,218,22,25,20,340,,29,09,312,*7D
$GPGSV,5,4,17,36,52,277,,40,86,350,42,41,58,082,,49,32,274,*7B
$GPGSV,5,5,17,50,10,089,*4A
$GLGSV,3,1,09,65,02,212,,71,16,111,34,72,21,162,28,74,32,146,26*65
$GLGSV,3,2,09,75,77,071,38,76,28,343,21,86,24,344,18,87,31,293,11*69
$GLGSV,3,3,09,88,06,237,*5C
$GNGLL,0420.01672,S,05539.78025,E,052121.00,A,D*6C
$GNGRS,052121.00,1,6.7,-1.2,-1.9,1.9,-2.2,-16.9,-6.0,2.5,19.3,,,*50
$GNGRS,052121.00,1,-40.7,13.1,0.2,1.3,-1.3,-11.5,,,,,,*4F
$GNGST,052121.00,52,,,,3.9,4.5,6.3*45
$GNZDA,052121.00,23,05,2025,00,00*7C
$GNGBS,052121.00,3.9,4.5,6.3,,,,*54
$GNTXT,01,01,01,More than 100 frame errors, UART RX was disabled*70
b0LJ?f+y1 '4~
8T8
{4*V^:R 
Y%
iPAG"oHeJ $K&MGLWVXW
%XbJr2PW/$GNRMC,052122.00,A,0420.01668,S,05539.78021,E,0.035,,230525,,,D*7C
$GNVTG,,T,,M,0.035,N,0.065,K,D*3D
$GNGNS,052122.00,0420.01668,S,05539.78021,E,DA,15,0.77,21.4,-47.6,,0000*64
$GNGGA,052122.00,0420.01668,S,05539.78021,E,2,12,0.77,21.4,M,-47.6,M,,0000*4F
$GNGSA,A,3,24,20,05,13,15,22,12,18,23,,,,1.45,0.77,1.22*11
$GNGSA,A,3,86,74,75,87,71,72,,,,,,,1.45,0.77,1.22*1E
$GPGSV,5,1,17,05,63,102,31,11,12,023,,12,43,009,21,13,17,145,26*76
$GPGSV,5,2,17,15,29,179,25,18,29,243,29,20,39,052,32,22,11,126,20*7A
$GPGSV,5,3,17,23,10,209,13,24,56,218,21,25,20,340,,29,09,312,*7D
$GPGSV,5,4,17,36,52,277,,40,86,350,42,41,58,082,,49,32,274,*7B
$GPGSV,5,5,17,50,10,089,*4A
$GLGSV,3,1,09,65,02,212,,71,16,111,34,72,21,162,28,74,32,146,26*65
$GLGSV,3,2,09,75,77,071,38,76,28,343,21,86,24,344,17,87,31,293,10*67
$GLGSV,3,3,09,88,06,237,*5C
$GNGLL,0420.01668,S,05539.78021,E,052122.00,A,D*60
$GNGRS,052122.00,1,4.6,2.1,-5.5,1.2,0.5,-18.0,-4.9,1.3,17.0,,,*52
$GNGRS,052122.00,1,-41.6,13.2,-0.1,4.4,-1.3,-9.2,,,,,,*5D
$GNGST,052122.00,34059,,,,3.9,4.4,6.2*7A
$GNZDA,052122.00,23,05,2025,00,00*7F
$GNGBS,052122.00,3.9,4.4,6.2,,,,*57
$GNTXT,01,01,01,More than 100 frame errors, UART RX was disabled*70
b0LN ?f+%~ '4~>
8[T8
{4)V^:R 
Y%
ieAG"oHsJ K&MGLWVXW%XwbNrP/$GNRMC,052123.00,A,0420.01668,S,05539.78018,E,0.065,,230525,,,D*72
$GNVTG,,T,,M,0.065,N,0.121,K,D*39
$GNGNS,052123.00,0420.01668,S,05539.78018,E,DA,15,0.77,21.3,-47.6,,0000*68
$GNGGA,052123.00,0420.01668,S,05539.78018,E,2,12,0.77,21.3,M,-47.6,M,,0000*43
$GNGSA,A,3,24,20,05,13,15,22,12,18,23,,,,1.45,0.77,1.22*11
$GNGSA,A,3,86,74,75,87,71,72,,,,,,,1.45,0.77,1.22*1E
$GPGSV,5,1,17,05,63,102,32,11,12,023,,12,43,009,22,13,17,145,27*77
$GPGSV,5,2,17,15,29,179,25,18,29,243,29,20,39,052,32,22,11,126,21*7B
$GPGSV,5,3,17,23,10,209,14,24,56,218,22,25,20,340,,29,09,312,*79
$GPGSV,5,4,17,36,52,277,,40,86,350,41,41,58,082,,49,32,274,*78
$GPGSV,5,5,17,50,10,089,*4A
$GLGSV,3,1,09,65,02,212,,71,16,111,34,72,21,162,28,74,32,146,26*65
$GLGSV,3,2,09,75,77,071,38,76,28,343,21,86,24,344,18,87,31,293,12*6A
$GLGSV,3,3,09,88,06,237,*5C
$GNGLL,0420.01668,S,05539.78018,E,052123.00,A,D*6B
$GNGRS,052123.00,1,3.5,-3.8,-3.2,0.4,0.0,-17.3,-3.3,1.3,15.1,,,*73
$GNGRS,052123.00,1,-41.7,12.2,-0.2,4.3,-1.1,-9.1,,,,,,*59
$GNGST,052123.00,49540,,,,3.9,4.3,6.1*78
$GNZDA,052123.00,23,05,2025,00,00*7E
$GNGBS,052123.00,3.9,4.3,6.1,,,,*52
$GNTXT,01,01,01,More than 100 frame errors, UART RX was disabled*70
b0LpR ?f+V '4~
8zT8
{4)V^:R 
Y%
isAG"ohHJ K&MGLWVXW%XbpRrP$GNRMC,052124.00,A,0420.01670,S,05539.78019,E,0.049,,230525,,,D*73
$GNVTG,,T,,M,0.049,N,0.090,K,D*3C
$GNGNS,052124.00,0420.01670,S,05539.78019,E,DA,15,0.77,21.3,-47.6,,0000*67
$GNGGA,052124.00,0420.01670,S,05539.78019,E,2,12,0.77,21.3,M,-47.6,M,,0000*4C
$GNGSA,A,3,24,20,05,13,15,22,12,18,23,,,,1.45,0.77,1.22*11
$GNGSA,A,3,86,74,75,87,71,72,,,,,,,1.45,0.77,1.22*1E
$GPGSV,5,1,17,05,63,102,32,11,12,023,,12,43,009,22,13,17,145,28*78
$GPGSV,5,2,17,15,29,179,25,18,29,243,28,20,39,052,32,22,11,126,21*7A
$GPGSV,5,3,17,23,10,209,15,24,56,218,21,25,20,340,,29,09,312,*7B
$GPGSV,5,4,17,36,52,277,,40,86,350,41,41,58,082,,49,32,274,*78
$GPGSV,5,5,17,50,10,089,*4A
$GLGSV,3,1,09,65,02,212,,71,16,111,34,72,21,162,28,74,32,146,26*65
$GLGSV,3,2,09,75,77,071,38,76,28,343,21,86,24,344,17,87,31,293,11*66
$GLGSV,3,3,09,88,06,237,*5C
$GNGLL,0420.01670,S,05539.78019,E,052124.00,A,D*64
$GNGRS,052124.00,1,6.3,-3.6,-0.4,-2.3,-1.0,-16.6,-5.4,0.9,12.6,,,*76
$GNGRS,052124.00,1,-41.4,12.4,-0.2,1.8,-1.5,-8.8,,,,,,*59
$GNGST,052124.00,47,,,,3.9,4.3,6.1*40
$GNZDA,052124.00,23,05,2025,00,00*79
$GNGBS,052124.00,3.9,4.3,6.1,,,,*55
$GNTXT,01,01,01,More than 100 frame errors, UART RX was disabled*70
b0LXV ?f#+)`w '4~
8[T8
{4)V^:R 
Y$
iAG"omHJ 7K&MGLWVX8W%XbXVrPd$GNRMC,052125.00,A,0420.01672,S,05539.78022,E,0.022,,230525,,,D*75
$GNVTG,,T,,M,0.022,N,0.041,K,D*3D
$GNGNS,052125.00,0420.01672,S,05539.78022,E,DA,15,0.77,21.4,-47.6,,0000*6B
$GNGGA,052125.00,0420.01672,S,05539.78022,E,2,12,0.77,21.4,M,-47.6,M,,0000*40
$GNGSA,A,3,24,20,05,13,15,22,12,18,23,,,,1.45,0.77,1.22*11
$GNGSA,A,3,86,74,75,87,71,72,,,,,,,1.45,0.77,1.22*1E
$GPGSV,5,1,17,05,63,102,32,11,12,023,,12,43,009,22,13,17,145,27*77
$GPGSV,5,2,17,15,29,179,25,18,29,243,28,20,39,052,32,22,11,126,19*71
$GPGSV,5,3,17,23,10,209,15,24,56,218,21,25,20,340,,29,09,312,*7B
$GPGSV,5,4,17,36,52,277,,40,86,350,41,41,58,082,,49,32,274,*78
$GPGSV,5,5,17,50,10,089,*4A
$GLGSV,3,1,09,65,02,212,,71,16,111,34,72,21,162,28,74,32,146,26*65
$GLGSV,3,2,09,75,77,071,38,76,28,343,22,86,24,344,17,87,31,293,11*65
$GLGSV,3,3,09,88,06,237,*5C
$GNGLL,0420.01672,S,05539.78022,E,052125.00,A,D*6F
$GNGRS,052125.00,1,6.0,-1.0,-2.2,-1.6,1.8,-18.1,-7.3,-1.4,9.5,,,*43
$GNGRS,052125.00,1,-40.4,13.3,-0.2,4.7,-1.5,-8.6,,,,,,*5B
$GNGST,052125.00,24770,,,,3.9,4.2,6.0*74
$GNZDA,052125.00,23,05,2025,00,00*78
$GNGBS,052125.00,3.9,4.2,6.0,,,,*54
$GNTXT,01,01,01,More than 100 frame errors, UART RX was disabled*70
b0L@Z ?f+Wa '4t~C
8T8
{4)V^:R 
Y%
iAG"oHJ K&MGLWVXW%X\b@ZrP$GNRMC,052126.00,A,0420.01673,S,05539.78023,E,0.025,,230525,,,D*71
$GNVTG,,T,,M,0.025,N,0.047,K,D*3C
$GNGNS,052126.00,0420.01673,S,05539.78023,E,DA,15,0.77,21.4,-47.6,,0000*68
$GNGGA,052126.00,0420.01673,S,05539.78023,E,2,12,0.77,21.4,M,-47.6,M,,0000*43
$GNGSA,A,3,24,20,05,13,15,22,12,18,23,,,,1.45,0.77,1.22*11
$GNGSA,A,3,86,74,75,87,71,72,,,,,,,1.45,0.77,1.22*1E
$GPGSV,5,1,17,05,63,102,32,11,12,023,,12,43,009,22,13,17,145,27*77
$GPGSV,5,2,17,15,29,179,25,18,29,243,28,20,39,052,32,22,11,126,19*71
$GPGSV,5,3,17,23,10,209,16,24,56,218,21,25,20,340,,29,09,312,*78
$GPGSV,5,4,17,36,52,277,,40,86,350,41,41,58,082,,49,32,274,*78
$GPGSV,5,5,17,50,10,089,*4A
$GLGSV,3,1,09,65,02,212,,71,16,111,34,72,21,162,28,74,32,146,26*65
$GLGSV,3,2,09,75,77,071,38,76,28,343,22,86,23,344,16,87,31,293,12*60
$GLGSV,3,3,09,88,06,237,*5C
$GNGLL,0420.01673,S,05539.78023,E,052126.00,A,D*6C
$GNGRS,052126.00,1,2.3,1.2,-3.6,-2.9,1.0,-17.2,-6.8,-0.5,9.5,,,*6F
$GNGRS,052126.00,1,-38.3,14.6,-0.2,4.7,-1.2,-7.8,,,,,,*54
$GNGST,052126.00,37155,,,,3.9,4.2,6.0*74
$GNZDA,052126.00,23,05,2025,00,00*7B
$GNGBS,052126.00,3.9,4.2,6.0,,,,*57
$GNTXT,01,01,01,More than 100 frame errors, UART RX was disabled*70
b0L(^ ?f+zO '4~
8T8
{4)V^:R 
Y%
iAG"oHJJ K&MGLWVXW%Xkb(^rP4$GNRMC,052127.00,A,0420.01672,S,05539.78025,E,0.034,,230525,,,D*77
$GNVTG,,T,,M,0.034,N,0.062,K,D*3B
$GNGNS,052127.00,0420.01672,S,05539.78025,E,DA,15,0.91,21.4,-47.6,,0000*66
$GNGGA,052127.00,0420.01672,S,05539.78025,E,2,12,0.91,21.4,M,-47.6,M,,0000*4D
$GNGSA,A,3,24,20,05,13,15,22,12,18,23,,,,1.60,0.91,1.32*1F
$GNGSA,A,3,86,74,75,87,71,72,,,,,,,1.60,0.91,1.32*10
$GPGSV,5,1,17,05,63,102,32,11,12,023,,12,43,009,23,13,17,145,28*79
$GPGSV,5,2,17,15,29,179,24,18,29,243,28,20,39,052,32,22,11,126,19*70
$GPGSV,5,3,17,23,10,209,16,24,56,218,22,25,20,340,,29,09,312,*7B
$GPGSV,5,4,17,36,52,277,,40,86,350,41,41,58,082,,49,32,274,*78
$GPGSV,5,5,17,50,10,089,*4A
$GLGSV,3,1,09,65,02,212,,71,16,111,34,72,21,162,28,74,32,146,26*65
$GLGSV,3,2,09,75,77,071,38,76,28,343,22,86,23,344,16,87,31,293,08*6B
$GLGSV,3,3,09,88,06,237,*5C
$GNGLL,0420.01672,S,05539.78025,E,052127.00,A,D*6A
$GNGRS,052127.00,1,5.0,1.5,-2.4,-2.6,1.4,-15.2,-6.5,-1.8,10.5,,,*5E
$GNGRS,052127.00,1,-36.8,15.3,-0.4,73.6,-1.1,-9.5,,,,,,*63
$GNGST,052127.00,35,,,,3.9,4.1,5.9*4F
$GNZDA,052127.00,23,05,2025,00,00*7A
$GNGBS,052127.00,3.9,4.1,5.9,,,,*5F
$GNTXT,01,01,01,More than 100 frame errors, UART RX was disabled*70
b0Lb ?f+_!'4&~
a8{T8
{4)V^:R 
Y$
iAG"oH!J K&MGLWVXW%X2bbrPf$GNRMC,052128.00,A,0420.01673,S,05539.78028,E,0.127,,230525,,,D*77
$GNVTG,,T,,M,0.127,N,0.235,K,D*38
$GNGNS,052128.00,0420.01673,S,05539.78028,E,DA,15,0.77,21.4,-47.6,,0000*6D
$GNGGA,052128.00,0420.01673,S,05539.78028,E,2,12,0.77,21.4,M,-47.6,M,,0000*46
$GNGSA,A,3,24,20,05,13,15,22,12,18,23,,,,1.45,0.77,1.22*11
$GNGSA,A,3,86,74,75,87,71,72,,,,,,,1.45,0.77,1.22*1E
$GPGSV,5,1,17,05,63,102,32,11,12,023,,12,43,009,23,13,17,145,28*79
$GPGSV,5,2,17,15,29,179,24,18,29,243,28,20,39,052,33,22,11,126,19*71
$GPGSV,5,3,17,23,10,209,16,24,56,218,22,25,20,340,,29,09,312,*7B
$GPGSV,5,4,17,36,52,277,,40,86,350,41,41,58,082,,49,32,274,*78
$GPGSV,5,5,17,50,10,089,*4A
$GLGSV,3,1,09,65,02,212,,71,16,111,34,72,21,162,28,74,32,146,26*65
$GLGSV,3,2,09,75,77,071,38,76,28,343,23,86,23,344,16,87,31,293,11*62
$GLGSV,3,3,09,88,06,238,*53
$GNGLL,0420.01673,S,05539.78028,E,052128.00,A,D*69
$GNGRS,052128.00,1,3.8,0.4,-3.8,-3.1,3.8,-13.0,-5.9,-1.6,8.6,,,*65
$GNGRS,052128.00,1,-35.7,15.7,-0.2,4.7,-1.2,-9.9,,,,,,*5C
$GNGST,052128.00,3071473,,,,3.8,4.1,5.9*72
$GNZDA,052128.00,23,05,2025,00,00*75
$GNGBS,052128.00,3.8,4.1,5.9,,,,*51
$GNTXT,01,01,01,More than 100 frame errors, UART RX was disabled*70
b0Le ?f+"!'4'~m
8T8
{4)V^:R 
Y%
iAG"oH"J %K&MGLWVX<W%X{berP=$GNRMC,052129.00,A,0420.01672,S,05539.78029,E,0.061,,230525,,,D*75
$GNVTG,,T,,M,0.061,N,0.112,K,D*3D
$GNGNS,052129.00,0420.01672,S,05539.78029,E,DA,15,0.77,21.3,-47.6,,0000*6B
$GNGGA,052129.00,0420.01672,S,05539.78029,E,2,12,0.77,21.3,M,-47.6,M,,0000*40
$GNGSA,A,3,24,20,05,13,15,22,12,18,23,,,,1.45,0.77,1.22*11
$GNGSA,A,3,86,74,75,87,71,72,,,,,,,1.45,0.77,1.22*1E
$GPGSV,5,1,17,05,63,102,32,11,12,023,,12,43,009,22,13,17,145,28*78
$GPGSV,5,2,17,15,29,179,25,18,29,243,28,20,39,052,33,22,11,126,19*70
$GPGSV,5,3,17,23,10,209,16,24,56,218,22,25,20,340,,29,09,312,*7B
$GPGSV,5,4,17,36,52,277,,40,86,350,41,41,58,082,,49,32,274,*78
$GPGSV,5,5,17,50,10,089,*4A
$GLGSV,3,1,09,65,02,212,,71,16,111,34,72,21,162,28,74,32,146,26*65
$GLGSV,3,2,09,75,77,071,38,76,28,343,23,86,23,344,16,87,31,293,11*62
$GLGSV,3,3,09,88,06,238,*53
$GNGLL,0420.01672,S,05539.78029,E,052129.00,A,D*68
$GNGRS,052129.00,1,4.7,0.4,-3.0,-2.9,4.6,-11.7,-4.8,-3.6,10.4,,,*58
$GNGRS,052129.00,1,-35.2,15.7,-0.2,4.6,-1.2,-9.9,,,,,,*59
$GNGST,052129.00,3071473,,,,3.8,4.0,5.8*73
$GNZDA,052129.00,23,05,2025,00,00*74
$GNGBS,052129.00,3.8,4.0,5.8,,,,*50
$GNTXT,01,01,01,More than 100 frame errors, UART RX was disabled*70
b0Li ?f+K!'4^~
]8T8
{4)V^:R 
Y%
iAG"oHJ eK&MGLWVXGW%XObirrP]$GNRMC,052130.00,A,0420.01678,S,05539.78033,E,0.087,,230525,,,D*74
$GNVTG,,T,,M,0.087,N,0.160,K,D*30
$GNGNS,052130.00,0420.01678,S,05539.78033,E,DA,15,0.77,21.4,-47.6,,0000*65
$GNGGA,052130.00,0420.01678,S,05539.78033,E,2,12,0.77,21.4,M,-47.6,M,,0000*4E
$GNGSA,A,3,24,20,05,13,15,22,12,18,23,,,,1.45,0.77,1.22*11
$GNGSA,A,3,86,74,75,87,71,72,,,,,,,1.45,0.77,1.22*1E
$GPGSV,5,1,17,05,63,102,32,11,12,023,,12,43,009,21,13,17,145,28*7B
$GPGSV,5,2,17,15,29,179,25,18,29,243,28,20,39,052,33,22,11,126,18*71
$GPGSV,5,3,17,23,10,209,15,24,56,218,21,25,20,340,,29,09,312,*7B
$GPGSV,5,4,17,36,52,277,,40,86,350,41,41,58,082,,49,32,274,*78
$GPGSV,5,5,17,50,10,089,*4A
$GLGSV,3,1,09,65,02,212,,71,16,111,34,72,21,162,28,74,32,146,26*65
$GLGSV,3,2,09,75,77,071,38,76,28,343,23,86,23,344,15,87,31,293,09*68
$GLGSV,3,3,09,88,06,238,*53
$GNGLL,0420.01678,S,05539.78033,E,052130.00,A,D*61
$GNGRS,052130.00,1,4.6,-1.6,-2.7,-2.6,3.3,-11.3,-7.4,-3.2,8.6,,,*40
$GNGRS,052130.00,1,-35.1,16.4,-0.2,5.1,-1.2,-9.0,,,,,,*5D
$GNGST,052130.00,49,,,,3.8,4.0,5.8*43
$GNZDA,052130.00,23,05,2025,00,00*7C
$GNGBS,052130.00,3.8,4.0,5.8,,,,*58
$GNTXT,01,01,01,More than 100 frame errors, UART RX was disabled*70
b0Lm ?fJ+;j!'4~@
8T8
{4)V^:R 
Y%
iAG"ozHKJ K&MGLWVXW
%XbmrZP$GNRMC,052131.00,A,0420.01679,S,05539.78036,E,0.045,,230525,,,D*7F
$GNVTG,,T,,M,0.045,N,0.084,K,D*35
$GNGNS,052131.00,0420.01679,S,05539.78036,E,DA,15,0.77,21.4,-47.6,,0000*60
$GNGGA,052131.00,0420.01679,S,05539.78036,E,2,12,0.77,21.4,M,-47.6,M,,0000*4B
$GNGSA,A,3,24,20,05,13,15,22,12,18,23,,,,1.45,0.77,1.22*11
$GNGSA,A,3,86,74,75,87,71,72,,,,,,,1.45,0.77,1.22*1E
$GPGSV,5,1,17,05,63,102,32,11,12,023,,12,43,009,21,13,17,145,28*7B
$GPGSV,5,2,17,15,29,179,26,18,29,243,28,20,39,052,33,22,11,126,16*7C
$GPGSV,5,3,17,23,10,209,15,24,56,218,22,25,20,340,,29,09,312,*78
$GPGSV,5,4,17,36,52,277,,40,86,350,41,41,58,082,,49,32,274,*78
$GPGSV,5,5,17,50,10,089,*4A
$GLGSV,3,1,09,65,02,212,,71,16,111,34,72,21,162,28,74,32,146,26*65
$GLGSV,3,2,09,75,77,071,38,76,28,343,22,86,23,344,16,87,31,293,10*62
$GLGSV,3,3,09,88,06,238,*53
$GNGLL,0420.01679,S,05539.78036,E,052131.00,A,D*64
$GNGRS,052131.00,1,4.9,-0.4,-1.8,-2.5,1.7,-12.2,-7.1,-4.1,7.9,,,*47
$GNGRS,052131.00,1,-34.4,16.6,-0.2,4.7,-1.3,-9.5,,,,,,*59
$GNGST,052131.00,3097,,,,3.8,3.9,5.7*43
$GNZDA,052131.00,23,05,2025,00,00*7D
$GNGBS,052131.00,3.8,3.9,5.7,,,,*58
$GNTXT,01,01,01,More than 100 frame errors, UART RX was disabled*70
b0Lq ?fu+KH!'4~f
8XT8
{4)V^:R 
Y%
ijAG#ozH_J .K&MGLWVXW%XVAbqrBP-$GNRMC,052132.00,A,0420.01680,S,05539.78038,E,0.046,,230525,,,D*77
$GNVTG,,T,,M,0.046,N,0.085,K,D*37
$GNGNS,052132.00,0420.01680,S,05539.78038,E,DA,15,0.77,21.4,-47.6,,0000*6B
$GNGGA,052132.00,0420.01680,S,05539.78038,E,2,12,0.77,21.4,M,-47.6,M,,0000*40
$GNGSA,A,3,24,20,05,13,15,22,12,18,23,,,,1.45,0.77,1.22*11
$GNGSA,A,3,86,74,75,87,71,72,,,,,,,1.45,0.77,1.22*1E
$GPGSV,5,1,17,05,63,102,32,11,12,023,,12,43,009,20,13,17,145,28*7A
$GPGSV,5,2,17,15,29,179,26,18,29,243,28,20,39,052,33,22,11,126,16*7C
$GPGSV,5,3,17,23,10,209,14,24,56,218,23,25,20,340,,29,09,312,*78
$GPGSV,5,4,17,36,52,277,,40,86,350,41,41,58,082,,49,32,274,*78
$GPGSV,5,5,17,50,10,089,*4A
$GLGSV,3,1,09,65,02,212,,71,16,111,35,72,21,162,28,74,32,146,26*64
$GLGSV,3,2,09,75,77,071,38,76,28,343,23,86,23,344,17,87,31,293,09*6A
$GLGSV,3,3,09,88,06,238,*53
$GNGLL,0420.01680,S,05539.78038,E,052132.00,A,D*6F
$GNGRS,052132.00,1,6.0,-0.7,-1.4,-1.8,2.0,-11.8,-6.9,-3.2,10.4,,,*75
$GNGRS,052132.00,1,-33.7,15.8,-0.4,4.8,-1.3,-9.3,,,,,,*5C
$GNGST,052132.00,4645,,,,3.8,3.9,5.7*4E
$GNZDA,052132.00,23,05,2025,00,00*7E
$GNGBS,052132.00,3.8,3.9,5.7,,,,*5B
$GNTXT,01,01,01,More than 100 frame errors, UART RX was disabled*70
b0Lu?e+e!'4~x
8T8
{4)V^:R 
Y%
izAG#ovHJ _K&MGLWVXW%BX=bur*P$GNRMC,052133.00,A,0420.01682,S,05539.78043,E,0.082,,230525,,,D*70
$GNVTG,,T,,M,0.082,N,0.151,K,D*37
$GNGNS,052133.00,0420.01682,S,05539.78043,E,DA,15,0.91,21.5,-47.6,,0000*6D
$GNGGA,052133.00,0420.01682,S,05539.78043,E,2,12,0.91,21.5,M,-47.6,M,,0000*46
$GNGSA,A,3,24,20,05,13,15,22,12,18,23,,,,1.60,0.91,1.32*1F
$GNGSA,A,3,86,74,75,87,71,72,,,,,,,1.60,0.91,1.32*10
$GPGSV,5,1,17,05,63,101,31,11,12,023,,12,43,009,20,13,17,145,28*7A
$GPGSV,5,2,17,15,29,179,25,18,29,243,28,20,39,052,33,22,11,126,16*7F
$GPGSV,5,3,17,23,10,209,14,24,56,218,24,25,20,340,,29,09,312,*7F
$GPGSV,5,4,17,36,52,277,,40,86,350,41,41,58,082,,49,32,274,*78
$GPGSV,5,5,17,50,10,089,*4A
$GLGSV,3,1,09,65,02,212,,71,16,111,35,72,21,162,28,74,32,146,25*67
$GLGSV,3,2,09,75,77,071,38,76,28,343,22,86,23,344,17,87,31,293,11*62
$GLGSV,3,3,09,88,06,238,*53
$GNGLL,0420.01682,S,05539.78043,E,052133.00,A,D*60
$GNGRS,052133.00,1,4.6,-0.9,0.0,-2.7,1.5,-11.6,-6.7,-3.6,9.6,,,*62
$GNGRS,052133.00,1,-34.1,16.3,-0.6,31.4,-1.4,-10.7,,,,,,*57
$GNGST,052133.00,39,,,,3.8,3.9,5.7*46
$GNZDA,052133.00,23,05,2025,00,00*7F
$GNGBS,052133.00,3.8,3.9,5.7,,,,*5A
$GNTXT,01,01,01,More than 100 frame errors, UART RX was disabled*70
b0Ly ?e+q!'4~
s8xT8
{4)V^:R 
Y%
iwAG"oHBJ K&MGLWVXW%XNbyrPu$GNRMC,052134.00,A,0420.01682,S,05539.78043,E,0.029,,230525,,,D*76
$GNVTG,,T,,M,0.029,N,0.054,K,D*32
$GNGNS,052134.00,0420.01682,S,05539.78043,E,DA,15,0.77,21.5,-47.6,,0000*62
$GNGGA,052134.00,0420.01682,S,05539.78043,E,2,12,0.77,21.5,M,-47.6,M,,0000*49
$GNGSA,A,3,24,20,05,13,15,22,12,18,23,,,,1.45,0.77,1.22*11
$GNGSA,A,3,86,74,75,87,71,72,,,,,,,1.45,0.77,1.22*1E
$GPGSV,5,1,17,05,63,101,32,11,12,023,,12,43,009,19,13,17,145,27*7C
$GPGSV,5,2,17,15,29,179,25,18,29,243,28,20,39,052,33,22,11,126,18*71
$GPGSV,5,3,17,23,10,209,13,24,56,218,24,25,20,340,,29,09,312,*78
$GPGSV,5,4,17,36,52,277,,40,86,350,41,41,58,082,,49,32,274,*78
$GPGSV,5,5,17,50,10,089,*4A
$GLGSV,3,1,09,65,02,212,,71,16,111,34,72,21,162,28,74,32,146,25*66
$GLGSV,3,2,09,75,77,071,38,76,28,343,23,86,23,344,19,87,31,293,08*65
$GLGSV,3,3,09,88,06,238,*53
$GNGLL,0420.01682,S,05539.78043,E,052134.00,A,D*67
$GNGRS,052134.00,1,3.8,-0.8,0.0,-3.7,3.7,-10.5,-8.8,-0.3,11.4,,,*52
$GNGRS,052134.00,1,-33.6,16.9,-0.8,4.6,-1.1,-12.1,,,,,,*61
$GNGST,052134.00,3071473,,,,3.8,3.8,5.6*7E
$GNZDA,052134.00,23,05,2025,00,00*78
$GNGBS,052134.00,3.8,3.8,5.6,,,,*5D
$GNTXT,01,01,01,More than 100 frame errors, UART RX was disabled*70
b0Lh} ?eY+E!'4~
f8T8
{4)V^:R 
Y%
ijAG"oHJ >K&MGLWVXW%Xbh}rPLb$GNRMC,052135.00,A,0420.01684,S,05539.78045,E,0.035,,230525,,,D*7A
$GNVTG,,T,,M,0.035,N,0.065,K,D*3D
$GNGNS,052135.00,0420.01684,S,05539.78045,E,DA,15,0.77,21.5,-47.6,,0000*63
$GNGGA,052135.00,0420.01684,S,05539.78045,E,2,12,0.77,21.5,M,-47.6,M,,0000*48
$GNGSA,A,3,24,20,05,13,15,22,12,18,23,,,,1.45,0.77,1.22*11
$GNGSA,A,3,86,74,75,87,71,72,,,,,,,1.45,0.77,1.22*1E
$GPGSV,5,1,17,05,63,101,32,11,12,023,,12,43,009,20,13,17,145,27*76
$GPGSV,5,2,17,15,29,179,24,18,29,243,28,20,39,052,33,22,11,126,19*71
$GPGSV,5,3,17,23,10,209,13,24,56,218,24,25,20,340,,29,09,312,*78
$GPGSV,5,4,17,36,52,277,,40,86,350,41,41,58,082,,49,32,274,*78
$GPGSV,5,5,17,50,10,089,*4A
$GLGSV,3,1,09,65,02,212,,71,16,111,34,72,21,162,28,74,32,146,26*65
$GLGSV,3,2,09,75,77,071,38,76,28,343,22,86,23,344,19,87,31,293,12*6F
$GLGSV,3,3,09,88,06,238,*53
$GNGLL,0420.01684,S,05539.78045,E,052135.00,A,D*66
$GNGRS,052135.00,1,2.3,-1.2,-1.7,-1.9,1.7,-10.8,-10.8,-1.0,8.7,,,*7A
$GNGRS,052135.00,1,-33.7,16.0,-0.8,4.7,-0.9,-11.3,,,,,,*61
$GNGST,052135.00,3071473,,,,3.8,3.8,5.6*7F
$GNZDA,052135.00,23,05,2025,00,00*79
$GNGBS,052135.00,3.8,3.8,5.6,,,,*5C
$GNTXT,01,01,01,More than 100 frame errors, UART RX was disabled*70
b0LP ?e!+>!'4~z
8.T8
{4)V^:R 
Y%
ioAG#oHJ K&MGLWVXW%X8bPrP$$GNRMC,052136.00,A,0420.01687,S,05539.78047,E,0.012,,230525,,,D*7D
$GNVTG,,T,,M,0.012,N,0.022,K,D*3B
$GNGNS,052136.00,0420.01687,S,05539.78047,E,DA,15,0.91,21.5,-47.6,,0000*69
$GNGGA,052136.00,0420.01687,S,05539.78047,E,2,12,0.91,21.5,M,-47.6,M,,0000*42
$GNGSA,A,3,24,20,05,13,15,22,12,18,23,,,,1.60,0.91,1.32*1F
$GNGSA,A,3,86,74,75,87,71,72,,,,,,,1.60,0.91,1.32*10
$GPGSV,5,1,17,05,63,101,32,11,12,023,,12,43,009,21,13,17,145,27*77
$GPGSV,5,2,17,15,29,179,24,18,29,243,27,20,39,052,33,22,11,126,19*7E
$GPGSV,5,3,17,23,10,209,13,24,56,218,23,25,20,340,,29,09,312,*7F
$GPGSV,5,4,17,36,52,277,,40,86,350,41,41,58,082,,49,32,274,*78
$GPGSV,5,5,17,50,10,089,*4A
$GLGSV,3,1,09,65,02,212,,71,16,111,35,72,21,162,28,74,32,146,26*64
$GLGSV,3,2,09,75,77,071,38,76,28,343,23,86,23,344,19,87,31,293,08*65
$GLGSV,3,3,09,88,06,238,*53
$GNGLL,0420.01687,S,05539.78047,E,052136.00,A,D*64
$GNGRS,052136.00,1,0.5,-1.3,-2.2,-2.9,1.6,-11.6,-9.6,-0.8,7.0,,,*40
$GNGRS,052136.00,1,-34.2,15.4,-0.6,-106,-1.0,-11.0,,,,,,*55
$GNGST,052136.00,39,,,,3.8,3.8,5.6*43
$GNZDA,052136.00,23,05,2025,00,00*7A
$GNGBS,052136.00,3.8,3.8,5.6,,,,*5F
$GNTXT,01,01,01,More than 100 frame errors, UART RX was disabled*70
b0L8?e+[p!'4v~
)8T8
{4(V^:R 
Y%
icAG#oH{J K&MGLWVXW
%X|b8rP2$GNRMC,052137.00,A,0420.01688,S,05539.78048,E,0.056,,230525,,,D*7C
$GNVTG,,T,,M,0.056,N,0.104,K,D*3E
$GNGNS,052137.00,0420.01688,S,05539.78048,E,DA,15,0.77,21.5,-47.6,,0000*60
$GNGGA,052137.00,0420.01688,S,05539.78048,E,2,12,0.77,21.5,M,-47.6,M,,0000*4B
$GNGSA,A,3,24,20,05,13,15,22,12,18,23,,,,1.45,0.77,1.22*11
$GNGSA,A,3,86,74,75,87,71,72,,,,,,,1.45,0.77,1.22*1E
$GPGSV,5,1,17,05,63,101,31,11,12,023,,12,43,009,21,13,17,145,27*74
$GPGSV,5,2,17,15,29,179,23,18,29,243,27,20,39,052,33,22,11,126,18*78
$GPGSV,5,3,17,23,10,209,15,24,56,218,24,25,20,340,,29,09,312,*7E
$GPGSV,5,4,17,36,52,277,,40,86,350,40,41,58,082,,49,32,274,*79
$GPGSV,5,5,17,50,10,089,*4A
$GLGSV,3,1,09,65,02,212,,71,16,111,35,72,21,162,28,74,32,146,26*64
$GLGSV,3,2,09,75,77,071,38,76,28,343,23,86,23,344,18,87,31,293,10*6D
$GLGSV,3,3,09,88,06,238,*53
$GNGLL,0420.01688,S,05539.78048,E,052137.00,A,D*65
$GNGRS,052137.00,1,-0.9,-1.4,-2.7,-3.4,0.9,-11.3,-10.4,1.1,8.1,,,*74
$GNGRS,052137.00,1,-33.1,15.1,-0.5,4.7,-1.1,-11.6,,,,,,*66
$GNGST,052137.00,3071473,,,,3.8,3.8,5.6*7D
$GNZDA,052137.00,23,05,2025,00,00*7B
$GNGBS,052137.00,3.8,3.8,5.6,,,,*5E
$GNTXT,01,01,01,More than 100 frame errors, UART RX was disabled*70
b0L ?e[+!'4}~
+8T8
{4)V^:R 
Y&
ioAG#oHJ ?K&MGLWVXW%XRCb rQ$GNRMC,052138.00,A,0420.01691,S,05539.78048,E,0.057,,230525,,,D*7A
$GNVTG,,T,,M,0.057,N,0.106,K,D*3D
$GNGNS,052138.00,0420.01691,S,05539.78048,E,DA,15,0.77,21.6,-47.6,,0000*64
$GNGGA,052138.00,0420.01691,S,05539.78048,E,2,12,0.77,21.6,M,-47.6,M,,0000*4F
$GNGSA,A,3,24,20,05,13,15,22,12,18,23,,,,1.45,0.77,1.22*11
$GNGSA,A,3,86,74,75,87,71,72,,,,,,,1.45,0.77,1.22*1E
$GPGSV,5,1,17,05,63,101,31,11,12,023,,12,43,009,21,13,17,145,28*7B
$GPGSV,5,2,17,15,29,179,24,18,29,243,27,20,39,052,33,22,11,126,18*7F
$GPGSV,5,3,17,23,10,209,14,24,56,218,24,25,20,340,,29,09,312,*7F
$GPGSV,5,4,17,36,52,277,,40,86,350,41,41,58,082,,49,32,274,*78
$GPGSV,5,5,17,50,10,089,*4A
$GLGSV,3,1,09,65,02,212,,71,16,111,35,72,21,162,28,74,32,146,26*64
$GLGSV,3,2,09,75,77,071,38,76,28,343,24,86,23,344,18,87,31,293,07*6C
$GLGSV,3,3,09,88,06,238,*53
$GNGLL,0420.01691,S,05539.78048,E,052138.00,A,D*62
$GNGRS,052138.00,1,0.0,-1.3,-1.7,-3.6,-0.2,-10.8,-10.0,2.3,8.1,,,*70
$GNGRS,052138.00,1,-31.2,16.0,-0.7,4.8,-1.2,-10.9,,,,,,*6A
$GNGST,052138.00,3071473,,,,3.7,3.7,5.5*71
$GNZDA,052138.00,23,05,2025,00,00*74
$GNGBS,052138.00,3.7,3.7,5.5,,,,*52
$GNTXT,01,01,01,More than 100 frame errors, UART RX was disabled*70
b0L ?e+r]Z!'4~
8T8
{4)V^:R 
Y%
iqAG#oHPJ 9K&MGLWVXW
%,X!brQ$GNRMC,052139.00,A,0420.01690,S,05539.78047,E,0.011,,230525,,,D*77
$GNVTG,,T,,M,0.011,N,0.020,K,D*3A
$GNGNS,052139.00,0420.01690,S,05539.78047,E,DA,15,0.91,21.5,-47.6,,0000*60
$GNGGA,052139.00,0420.01690,S,05539.78047,E,2,12,0.91,21.5,M,-47.6,M,,0000*4B
$GNGSA,A,3,24,20,05,13,15,22,12,18,23,,,,1.60,0.91,1.32*1F
$GNGSA,A,3,86,74,75,87,71,72,,,,,,,1.60,0.91,1.32*10
$GPGSV,5,1,17,05,63,101,32,11,12,023,,12,43,009,21,13,17,145,28*78
$GPGSV,5,2,17,15,29,179,23,18,29,243,27,20,39,052,33,22,11,126,19*79
$GPGSV,5,3,17,23,10,209,12,24,56,218,24,25,20,340,,29,09,312,*79
$GPGSV,5,4,17,36,52,277,,40,86,350,41,41,58,082,,49,32,274,*78
$GPGSV,5,5,17,50,10,089,*4A
$GLGSV,3,1,09,65,02,212,,71,16,111,35,72,21,162,28,74,32,146,26*64
$GLGSV,3,2,09,75,77,071,38,76,28,343,24,86,23,344,18,87,31,293,10*6A
$GLGSV,3,3,09,88,06,238,*53
$GNGLL,0420.01690,S,05539.78047,E,052139.00,A,D*6D
$GNGRS,052139.00,1,0.0,-1.0,-3.6,-1.4,0.9,-10.2,-7.9,0.9,7.5,,,*61
$GNGRS,052139.00,1,-30.5,15.9,-0.3,114,-1.2,-12.0,,,,,,*7E
$GNGST,052139.00,40,,,,3.7,3.7,5.5*41
$GNZDA,052139.00,23,05,2025,00,00*75
$GNGBS,052139.00,3.7,3.7,5.5,,,,*53
$GNTXT,01,01,01,More than 100 frame errors, UART RX was disabled*70
b0L ?e!+
w.O!'4~x
+8T8
{4)V^:R 
Y%
irAG#oHJ K&MGLWVXW%XbrQ]$GNRMC,052140.00,A,0420.01691,S,05539.78046,E,0.047,,230525,,,D*7A
$GNVTG,,T,,M,0.047,N,0.088,K,D*3B
$GNGNS,052140.00,0420.01691,S,05539.78046,E,DA,15,0.77,21.5,-47.6,,0000*66
$GNGGA,052140.00,0420.01691,S,05539.78046,E,2,12,0.77,21.5,M,-47.6,M,,0000*4D
$GNGSA,A,3,24,20,05,13,15,22,12,18,23,,,,1.45,0.77,1.22*11
$GNGSA,A,3,86,74,75,87,71,72,,,,,,,1.45,0.77,1.22*1E
$GPGSV,5,1,17,05,63,101,32,11,12,023,,12,43,010,20,13,17,145,28*71
$GPGSV,5,2,17,15,29,179,23,18,29,243,27,20,39,052,33,22,11,126,19*79
$GPGSV,5,3,17,23,10,209,11,24,56,218,25,25,20,340,,29,09,312,*7B
$GPGSV,5,4,17,36,52,277,,40,86,350,41,41,58,082,,49,32,274,*78
$GPGSV,5,5,17,50,10,089,*4A
$GLGSV,3,1,09,65,02,212,,71,16,111,35,72,21,162,28,74,32,146,26*64
$GLGSV,3,2,09,75,77,071,38,76,28,343,25,86,23,344,19,87,31,293,11*6B
$GLGSV,3,3,09,88,06,238,*53
$GNGLL,0420.01691,S,05539.78046,E,052140.00,A,D*63
$GNGRS,052140.00,1,1.3,-1.2,-2.2,-3.0,3.0,-11.6,-6.5,0.8,5.6,,,*6E
$GNGRS,052140.00,1,-29.1,15.5,-0.2,4.6,-1.2,-10.2,,,,,,*69
$GNGST,052140.00,3071473,,,,3.7,3.7,5.5*7E
$GNZDA,052140.00,23,05,2025,00,00*7B
$GNGBS,052140.00,3.7,3.7,5.5,,,,*5D
$GNTXT,01,01,01,More than 100 frame errors, UART RX was disabled*70
b0L ?e+
PE '4|~
[8+T8
{4)V^:R 
Y&
iVAG#oHJ K&MGLWVX<W%XcbrjQ\$GNRMC,052141.00,A,0420.01694,S,05539.78045,E,0.092,,230525,,,D*75
$GNVTG,,T,,M,0.092,N,0.170,K,D*35
$GNGNS,052141.00,0420.01694,S,05539.78045,E,DA,15,0.77,21.5,-47.6,,0000*61
$GNGGA,052141.00,0420.01694,S,05539.78045,E,2,12,0.77,21.5,M,-47.6,M,,0000*4A
$GNGSA,A,3,24,20,05,13,15,22,12,18,23,,,,1.45,0.77,1.22*11
$GNGSA,A,3,86,74,75,87,71,72,,,,,,,1.45,0.77,1.22*1E
$GPGSV,5,1,17,05,63,101,32,11,12,023,,12,43,010,19,13,17,144,27*75
$GPGSV,5,2,17,15,29,179,24,18,29,243,27,20,39,052,32,22,11,126,18*7E
$GPGSV,5,3,17,23,10,209,11,24,56,218,25,25,20,340,,29,09,312,*7B
$GPGSV,5,4,17,36,52,277,,40,86,350,41,41,58,082,,49,32,274,*78
$GPGSV,5,5,17,50,10,089,*4A
$GLGSV,3,1,09,65,02,212,,71,16,111,35,72,21,162,28,74,32,146,26*64
$GLGSV,3,2,09,75,77,071,38,76,28,343,25,86,23,344,19,87,31,293,08*63
$GLGSV,3,3,09,88,06,238,*53
$GNGLL,0420.01694,S,05539.78045,E,052141.00,A,D*64
$GNGRS,052141.00,1,3.0,-1.3,-3.2,-2.7,3.4,-15.0,-5.8,0.7,6.0,,,*6A
$GNGRS,052141.00,1,-30.1,15.2,0.3,4.7,-1.1,-10.9,,,,,,*42
$GNGST,052141.00,3071473,,,,3.7,3.7,5.5*7F
$GNZDA,052141.00,23,05,2025,00,00*7A
$GNGBS,052141.00,3.7,3.7,5.5,,,,*5C
$GNTXT,01,01,01,More than 100 frame errors, UART RX was disabled*70
b0L?e+
M '4q~
8T8
{4(V^:R 
Y%
iYAG#oHJ K&MGLWVXW%XQbrRQ4-$GNRMC,052142.00,A,0420.01694,S,05539.78044,E,0.057,,230525,,,D*7E
$GNVTG,,T,,M,0.057,N,0.106,K,D*3D
$GNGNS,052142.00,0420.01694,S,05539.78044,E,DA,15,0.91,21.5,-47.6,,0000*6B
$GNGGA,052142.00,0420.01694,S,05539.78044,E,2,12,0.91,21.5,M,-47.6,M,,0000*40
$GNGSA,A,3,24,20,05,13,15,22,12,18,23,,,,1.60,0.91,1.32*1F
$GNGSA,A,3,86,74,75,87,71,72,,,,,,,1.60,0.91,1.32*10
$GPGSV,5,1,17,05,63,101,31,11,12,023,,12,43,010,20,13,17,144,28*73
$GPGSV,5,2,17,15,29,179,24,18,29,243,27,20,39,052,32,22,11,126,18*7E
$GPGSV,5,3,17,23,10,209,13,24,56,218,26,25,20,340,,29,09,312,*7A
$GPGSV,5,4,17,36,52,277,,40,86,350,40,41,58,082,,49,32,274,*79
$GPGSV,5,5,17,50,10,089,*4A
$GLGSV,3,1,09,65,02,212,,71,16,111,35,72,21,162,29,74,32,146,26*65
$GLGSV,3,2,09,75,77,071,38,76,28,343,25,86,23,344,20,87,31,293,08*69
$GLGSV,3,3,09,88,06,238,*53
$GNGLL,0420.01694,S,05539.78044,E,052142.00,A,D*66
$GNGRS,052142.00,1,0.1,-1.4,-2.4,-2.7,4.1,-13.8,-7.4,0.8,5.4,,,*61
$GNGRS,052142.00,1,-28.3,15.2,0.2,-142,-0.9,-9.9,,,,,,*4D
$GNGST,052142.00,39,,,,3.7,3.7,5.5*43
$GNZDA,052142.00,23,05,2025,00,00*79
$GNGBS,052142.00,3.7,3.7,5.5,,,,*5F
$GNTXT,01,01,01,More than 100 frame errors, UART RX was disabled*70
b0L ?eL+
j:(m!'4~
8T8
{4(V^:R 
Y%
iCAG"oHJ MK&MGLWVX^W%Xbr:Q$GNRMC,052143.00,A,0420.01695,S,05539.78045,E,0.060,,230525,,,D*7B
$GNVTG,,T,,M,0.060,N,0.111,K,D*3F
$GNGNS,052143.00,0420.01695,S,05539.78045,E,DA,15,0.77,21.6,-47.6,,0000*61
$GNGGA,052143.00,0420.01695,S,05539.78045,E,2,12,0.77,21.6,M,-47.6,M,,0000*4A
$GNGSA,A,3,24,20,05,13,15,22,12,18,23,,,,1.45,0.77,1.22*11
$GNGSA,A,3,86,74,75,87,71,72,,,,,,,1.45,0.77,1.22*1E
$GPGSV,5,1,17,05,63,101,32,11,12,023,,12,43,010,21,13,17,144,28*71
$GPGSV,5,2,17,15,29,179,24,18,29,243,27,20,39,052,33,22,11,126,18*7F
$GPGSV,5,3,17,23,10,209,14,24,56,218,26,25,20,340,,29,09,312,*7D
$GPGSV,5,4,17,36,52,277,,40,86,350,40,41,58,082,,49,32,274,*79
$GPGSV,5,5,17,50,10,089,*4A
$GLGSV,3,1,09,65,02,212,,71,16,111,34,72,21,162,29,74,32,146,25*67
$GLGSV,3,2,09,75,77,071,38,76,28,343,25,86,23,344,19,87,31,293,16*6C
$GLGSV,3,3,09,88,06,238,*53
$GNGLL,0420.01695,S,05539.78045,E,052143.00,A,D*67
$GNGRS,052143.00,1,0.0,-1.3,-1.8,-2.0,5.5,-16.3,-6.6,1.1,4.2,,,*69
$GNGRS,052143.00,1,-27.2,16.1,0.3,4.7,-0.6,-10.7,,,,,,*4D
$GNGST,052143.00,3097,,,,3.7,3.7,5.5*45
$GNZDA,052143.00,23,05,2025,00,00*78
$GNGBS,052143.00,3.7,3.7,5.5,,,,*5E
$GNTXT,01,01,01,More than 100 frame errors, UART RX was disabled*70
b0L ?e+
55 '4~
g8PT8
{4(V^:R 
Y%
iZAG#oHaJ K&MGLWVXW%XAbr"Q$GNRMC,052144.00,A,0420.01696,S,05539.78049,E,0.093,,230525,,,D*7F
$GNVTG,,T,,M,0.093,N,0.173,K,D*37
$GNGNS,052144.00,0420.01696,S,05539.78049,E,DA,15,0.77,21.7,-47.6,,0000*68
$GNGGA,052144.00,0420.01696,S,05539.78049,E,2,12,0.77,21.7,M,-47.6,M,,0000*43
$GNGSA,A,3,24,20,05,13,15,22,12,18,23,,,,1.45,0.77,1.22*11
$GNGSA,A,3,86,74,75,87,71,72,,,,,,,1.45,0.77,1.22*1E
$GPGSV,5,1,17,05,63,101,32,11,12,023,,12,43,010,21,13,17,144,28*71
$GPGSV,5,2,17,15,29,179,23,18,29,243,26,20,39,052,32,22,11,126,19*79
$GPGSV,5,3,17,23,10,209,14,24,56,218,27,25,20,340,,29,09,312,*7C
$GPGSV,5,4,17,36,52,277,,40,86,350,40,41,58,082,,49,32,274,*79
$GPGSV,5,5,17,50,10,089,*4A
$GLGSV,3,1,09,65,02,212,,71,16,111,35,72,21,162,29,74,32,146,25*66
$GLGSV,3,2,09,75,77,071,38,76,28,343,24,86,23,344,19,87,31,293,08*62
$GLGSV,3,3,09,88,06,238,*53
$GNGLL,0420.01696,S,05539.78049,E,052144.00,A,D*6F
$GNGRS,052144.00,1,0.8,-1.2,2.5,-2.3,6.4,-15.1,-4.6,0.5,6.1,,,*42
$GNGRS,052144.00,1,-26.5,14.8,0.2,4.8,-0.3,-16.9,,,,,,*44
$GNGST,052144.00,4645,,,,3.7,3.6,5.4*4C
$GNZDA,052144.00,23,05,2025,00,00*7F
$GNGBS,052144.00,3.7,3.6,5.4,,,,*59
$GNTXT,01,01,01,More than 100 frame errors, UART RX was disabled*70
b0Lx ?ex+
!'4~~
8T8
{4(V^:R 
Y%
iaAG#oHJ K&MG'LWVXW%<XDbxr
Qe$GNRMC,052145.00,A,0420.01697,S,05539.78050,E,0.026,,230525,,,D*79
$GNVTG,,T,,M,0.026,N,0.048,K,D*30
$GNGNS,052145.00,0420.01697,S,05539.78050,E,DA,15,0.77,21.8,-47.6,,0000*6F
$GNGGA,052145.00,0420.01697,S,05539.78050,E,2,12,0.77,21.8,M,-47.6,M,,0000*44
$GNGSA,A,3,24,20,05,13,15,22,12,18,23,,,,1.45,0.77,1.22*11
$GNGSA,A,3,86,74,75,87,71,72,,,,,,,1.45,0.77,1.22*1E
$GPGSV,5,1,17,05,63,101,32,11,12,023,,12,43,010,20,13,17,144,27*7F
$GPGSV,5,2,17,15,29,179,23,18,29,243,26,20,39,052,33,22,11,126,20*72
$GPGSV,5,3,17,23,10,209,14,24,56,218,27,25,20,340,,29,09,312,*7C
$GPGSV,5,4,17,36,52,277,,40,86,350,40,41,58,082,,49,32,274,*79
$GPGSV,5,5,17,50,10,089,*4A
$GLGSV,3,1,09,65,02,212,,71,16,111,35,72,21,162,28,74,32,146,25*67
$GLGSV,3,2,09,75,77,071,38,76,28,343,25,86,23,344,18,87,31,293,08*62
$GLGSV,3,3,09,88,06,238,*53
$GNGLL,0420.01697,S,05539.78050,E,052145.00,A,D*67
$GNGRS,052145.00,1,-0.3,-1.3,-1.4,-3.3,4.4,-16.1,-5.5,2.5,7.3,,,*48
$GNGRS,052145.00,1,-26.0,14.2,0.4,-17.3,-0.5,-11.2,,,,,,*52
$GNGST,052145.00,50,,,,3.7,3.6,5.4*4B
$GNZDA,052145.00,23,05,2025,00,00*7E
$GNGBS,052145.00,3.7,3.6,5.4,,,,*58
$GNTXT,01,01,01,More than 100 frame errors, UART RX was disabled*70
b0L` ?e+
.!'4~
8KT8
{4)V^:R 
Y%
ibAG#oHJ K&MG;LWVX W
%X|wb`r"Q$GNRMC,052146.00,A,0420.01700,S,05539.78050,E,0.018,,230525,,,D*78
$GNVTG,,T,,M,0.018,N,0.033,K,D*31
$GNGNS,052146.00,0420.01700,S,05539.78050,E,DA,15,0.77,21.9,-47.6,,0000*62
$GNGGA,052146.00,0420.01700,S,05539.78050,E,2,12,0.77,21.9,M,-47.6,M,,0000*49
$GNGSA,A,3,24,20,05,13,15,22,12,18,23,,,,1.45,0.77,1.22*11
$GNGSA,A,3,86,74,75,87,71,72,,,,,,,1.45,0.77,1.22*1E
$GPGSV,5,1,17,05,63,101,32,11,12,023,,12,43,010,20,13,17,144,27*7F
$GPGSV,5,2,17,15,29,179,22,18,29,244,26,20,39,052,33,22,11,126,20*74
$GPGSV,5,3,17,23,10,209,14,24,56,218,26,25,20,340,,29,09,312,*7D
$GPGSV,5,4,17,36,52,277,,40,86,350,41,41,58,082,,49,32,274,*78
$GPGSV,5,5,17,50,10,089,*4A
$GLGSV,3,1,09,65,02,212,,71,16,111,35,72,21,162,28,74,32,146,26*64
$GLGSV,3,2,09,75,77,071,38,76,28,343,25,86,23,344,18,87,31,293,10*6B
$GLGSV,3,3,09,88,06,238,*53
$GNGLL,0420.01700,S,05539.78050,E,052146.00,A,D*6B
$GNGRS,052146.00,1,0.7,-1.2,1.5,-3.2,5.6,-16.4,-5.1,3.9,7.8,,,*4A
$GNGRS,052146.00,1,-25.3,13.0,0.6,4.6,-0.5,-8.7,,,,,,*71
$GNGST,052146.00,3071473,,,,3.7,3.6,5.4*78
$GNZDA,052146.00,23,05,2025,00,00*7D
$GNGBS,052146.00,3.7,3.6,5.4,,,,*5B
$GNTXT,01,01,01,More than 100 frame errors, UART RX was disabled*70
b0LH ?e+
$@!'4~\
\89T8
{4(V^:R 
Y%
ioAG#oHJJ HK&MG@LWVXW%XTbHr&Qk2$GNRMC,052147.00,A,0420.01702,S,05539.78047,E,0.071,,230525,,,D*72
$GNVTG,,T,,M,0.071,N,0.132,K,D*3E
$GNGNS,052147.00,0420.01702,S,05539.78047,E,DA,15,0.77,21.9,-47.6,,0000*67
$GNGGA,052147.00,0420.01702,S,05539.78047,E,2,12,0.77,21.9,M,-47.6,M,,0000*4C
$GNGSA,A,3,24,20,05,13,15,22,12,18,23,,,,1.45,0.77,1.22*11
$GNGSA,A,3,86,74,75,87,71,72,,,,,,,1.45,0.77,1.22*1E
$GPGSV,5,1,17,05,63,101,32,11,12,023,,12,43,010,19,13,17,144,27*75
$GPGSV,5,2,17,15,29,179,22,18,29,244,26,20,39,052,33,22,11,126,20*74
$GPGSV,5,3,17,23,10,209,14,24,56,218,26,25,20,340,,29,09,312,*7D
$GPGSV,5,4,17,36,52,277,,40,86,350,40,41,58,082,,49,32,274,*79
$GPGSV,5,5,17,50,10,089,*4A
$GLGSV,3,1,09,65,02,212,,71,16,111,35,72,21,162,28,74,32,146,26*64
$GLGSV,3,2,09,75,77,071,38,76,28,343,25,86,23,344,18,87,31,293,08*62
$GLGSV,3,3,09,88,06,238,*53
$GNGLL,0420.01702,S,05539.78047,E,052147.00,A,D*6E
$GNGRS,052147.00,1,0.6,-0.9,-0.8,-3.2,5.5,-14.4,-5.1,5.8,8.6,,,*66
$GNGRS,052147.00,1,-22.8,13.5,0.6,4.4,-0.6,-6.9,,,,,,*78
$GNGST,052147.00,3071473,,,,3.7,3.6,5.4*79
$GNZDA,052147.00,23,05,2025,00,00*7C
$GNGBS,052147.00,3.7,3.6,5.4,,,,*5A
$GNTXT,01,01,01,More than 100 frame errors, UART RX was disabled*70
b0L0 ?e+
u!&3~O
8LT8
{4)V^:R 
Y%
iAG#oHJ ^K&MG2LWVX@W%Xb0r*QC$GNRMC,052148.00,A,0420.01703,S,05539.78045,E,0.069,,230525,,,D*77
$GNVTG,,T,,M,0.069,N,0.128,K,D*3C
$GNGNS,052148.00,0420.01703,S,05539.78045,E,DA,15,0.77,21.8,-47.6,,0000*6A
$GNGGA,052148.00,0420.01703,S,05539.78045,E,2,12,0.77,21.8,M,-47.6,M,,0000*41
$GNGSA,A,3,24,20,05,13,15,22,12,18,23,,,,1.45,0.77,1.22*11
$GNGSA,A,3,86,74,75,87,71,72,,,,,,,1.45,0.77,1.22*1E
$GPGSV,5,1,17,05,63,101,32,11,12,023,,12,43,010,20,13,17,144,27*7F
$GPGSV,5,2,17,15,29,179,22,18,29,244,26,20,38,051,33,22,11,126,21*77
$GPGSV,5,3,17,23,10,209,14,24,56,218,26,25,20,340,,29,09,312,*7D
$GPGSV,5,4,17,36,52,277,,40,86,350,41,41,58,082,,49,32,274,*78
$GPGSV,5,5,17,50,10,089,*4A
$GLGSV,3,1,09,65,02,212,,71,16,111,35,72,21,162,28,74,32,146,26*64
$GLGSV,3,2,09,75,77,071,38,76,28,343,25,86,23,344,18,87,31,293,14*6F
$GLGSV,3,3,09,88,06,238,*53
$GNGLL,0420.01703,S,05539.78045,E,052148.00,A,D*62
$GNGRS,052148.00,1,0.8,-0.9,-3.1,-3.5,4.0,-12.0,-6.5,5.4,9.2,,,*62
$GNGRS,052148.00,1,-22.4,13.7,0.5,6.7,0.0,-6.0,,,,,,*59
$GNGST,052148.00,48,,,,3.7,3.6,5.4*4F
$GNZDA,052148.00,23,05,2025,00,00*73
$GNGBS,052148.00,3.7,3.6,5.4,,,,*55
$GNTXT,01,01,01,More than 100 frame errors, UART RX was disabled*70
b0L ?e[+
R &3
8T8
{4(V^:R 
Y&
iAG#oHJ #K&MG=LWVXW%Xbr.Q$GNRMC,052149.00,A,0420.01703,S,05539.78043,E,0.056,,230525,,,D*7C
$GNVTG,,T,,M,0.056,N,0.104,K,D*3E
$GNGNS,052149.00,0420.01703,S,05539.78043,E,DA,15,0.77,21.8,-47.6,,0000*6D
$GNGGA,052149.00,0420.01703,S,05539.78043,E,2,12,0.77,21.8,M,-47.6,M,,0000*46
$GNGSA,A,3,24,20,05,13,15,22,12,18,23,,,,1.45,0.77,1.22*11
$GNGSA,A,3,86,74,75,87,71,72,,,,,,,1.45,0.77,1.22*1E
$GPGSV,5,1,17,05,63,101,32,11,12,023,,12,43,010,19,13,17,144,26*74
$GPGSV,5,2,17,15,29,179,22,18,29,244,26,20,38,051,32,22,11,127,22*74
$GPGSV,5,3,17,23,10,209,14,24,56,218,27,25,20,340,,29,09,312,*7C
$GPGSV,5,4,17,36,52,277,,40,86,350,40,41,58,082,,49,32,274,*79
$GPGSV,5,5,17,50,10,089,*4A
$GLGSV,3,1,09,65,02,212,,71,16,111,35,72,21,162,28,74,32,146,25*67
$GLGSV,3,2,09,75,77,071,38,76,28,343,25,86,23,344,18,87,31,293,11*6A
$GLGSV,3,3,09,88,06,238,*53
$GNGLL,0420.01703,S,05539.78043,E,052149.00,A,D*65
$GNGRS,052149.00,1,-0.1,-1.0,-1.7,-4.3,5.3,-12.8,-5.6,6.6,9.7,,,*44
$GNGRS,052149.00,1,-21.0,13.1,0.6,4.5,-0.2,-8.0,,,,,,*7B
$GNGST,052149.00,27866,,,,3.8,3.6,5.4*70
$GNZDA,052149.00,23,05,2025,00,00*72
$GNGBS,052149.00,3.8,3.6,5.4,,,,*5B
$GNTXT,01,01,01,More than 100 frame errors, UART RX was disabled*70
b0L ?e)+
[s &3
8OT8
{4)V^:R 
Y&
iAG#oH~J K&MGZLWVXW%X^ibr2Qj$GNRMC,052150.00,A,0420.01702,S,05539.78040,E,0.047,,230525,,,D*76
$GNVTG,,T,,M,0.047,N,0.087,K,D*34
$GNGNS,052150.00,0420.01702,S,05539.78040,E,DA,15,0.77,21.7,-47.6,,0000*68
$GNGGA,052150.00,0420.01702,S,05539.78040,E,2,12,0.77,21.7,M,-47.6,M,,0000*43
$GNGSA,A,3,24,20,05,13,15,22,12,18,23,,,,1.45,0.77,1.22*11
$GNGSA,A,3,86,74,75,87,71,72,,,,,,,1.45,0.77,1.22*1E
$GPGSV,5,1,17,05,63,101,32,11,12,023,,12,43,010,19,13,17,144,26*74
$GPGSV,5,2,17,15,29,179,21,18,29,244,25,20,38,051,32,22,11,127,23*75
$GPGSV,5,3,17,23,10,209,15,24,56,218,27,25,20,340,,29,09,312,*7D
$GPGSV,5,4,17,36,52,277,,40,86,350,41,41,58,082,,49,32,274,*78
$GPGSV,5,5,17,50,10,089,*4A
$GLGSV,3,1,09,65,02,212,,71,16,111,35,72,21,162,27,74,32,146,25*68
$GLGSV,3,2,09,75,77,071,38,76,28,343,24,86,23,344,18,87,31,293,14*6E
$GLGSV,3,3,09,88,06,238,*53
$GNGLL,0420.01702,S,05539.78040,E,052150.00,A,D*6F
$GNGRS,052150.00,1,0.8,-1.0,-2.1,-3.0,3.7,-13.4,-6.8,7.6,9.1,,,*6C
$GNGRS,052150.00,1,-22.9,11.7,0.9,4.3,-0.3,-6.4,,,,,,*7F
$GNGST,052150.00,41799,,,,3.8,3.7,5.5*77
$GNZDA,052150.00,23,05,2025,00,00*7A
$GNGBS,052150.00,3.8,3.7,5.5,,,,*53
$GNTXT,01,01,01,More than 100 frame errors, UART RX was disabled*70
b0L ?eH+
Js!&3
8T8
{4)V^:R 
Y&
iAG#oHJ SK%MGPLWVX\W%X'brz6Q$GNRMC,052151.00,A,0420.01697,S,05539.78033,E,0.104,,230525,,,D*78
$GNVTG,,T,,M,0.104,N,0.192,K,D*37
$GNGNS,052151.00,0420.01697,S,05539.78033,E,DA,15,0.91,21.6,-47.6,,0000*69
$GNGGA,052151.00,0420.01697,S,05539.78033,E,2,12,0.91,21.6,M,-47.6,M,,0000*42
$GNGSA,A,3,24,20,05,13,15,22,12,18,23,,,,1.60,0.91,1.32*1F
$GNGSA,A,3,86,74,75,87,71,72,,,,,,,1.60,0.91,1.32*10
$GPGSV,5,1,17,05,63,101,32,11,12,023,,12,43,010,16,13,17,144,26*7B
$GPGSV,5,2,17,15,29,179,22,18,29,244,24,20,38,051,33,22,11,127,24*71
$GPGSV,5,3,17,23,10,209,16,24,56,217,27,25,20,340,,29,09,312,*71
$GPGSV,5,4,17,36,52,277,,40,86,350,41,41,58,082,,49,32,274,*78
$GPGSV,5,5,17,50,10,089,*4A
$GLGSV,3,1,09,65,02,212,,71,16,111,35,72,21,162,27,74,32,146,25*68
$GLGSV,3,2,09,75,77,071,37,76,28,343,25,86,23,344,19,87,31,293,13*66
$GLGSV,3,3,09,88,06,238,*53
$GNGLL,0420.01697,S,05539.78033,E,052151.00,A,D*67
$GNGRS,052151.00,1,2.1,-0.7,-1.8,-1.8,3.7,-13.2,-5.1,9.5,12.9,,,*53
$GNGRS,052151.00,1,-22.1,11.1,0.8,-61.5,-0.3,-8.7,,,,,,*64
$GNGST,052151.00,38,,,,3.8,3.7,5.5*4F
$GNZDA,052151.00,23,05,2025,00,00*7B
$GNGBS,052151.00,3.8,3.7,5.5,,,,*52
$GNTXT,01,01,01,More than 100 frame errors, UART RX was disabled*70
b0L?eG+
Ap@ &3Q
18T8
{4(V^:R 
Y%
iAG#oH?J TK$MG:LWVXJW%X0brb:Q+$GNRMC,052152.00,A,0420.01697,S,05539.78027,E,0.038,,230525,,,D*70
$GNVTG,,T,,M,0.038,N,0.070,K,D*34
$GNGNS,052152.00,0420.01697,S,05539.78027,E,DA,15,0.67,21.5,-47.6,,0000*65
$GNGGA,052152.00,0420.01697,S,05539.78027,E,2,12,0.67,21.5,M,-47.6,M,,0000*4E
$GNGSA,A,3,24,20,05,13,15,22,12,18,23,,,,1.30,0.67,1.12*11
$GNGSA,A,3,86,74,75,87,71,72,,,,,,,1.30,0.67,1.12*1E
$GPGSV,5,1,17,05,63,101,31,11,12,023,,12,43,010,17,13,17,144,25*7A
$GPGSV,5,2,17,15,29,179,22,18,29,244,23,20,38,051,32,22,11,127,23*70
$GPGSV,5,3,17,23,10,209,16,24,56,217,28,25,20,340,,29,09,312,*7E
$GPGSV,5,4,17,36,52,277,,40,86,350,40,41,58,082,,49,32,274,*79
$GPGSV,5,5,17,50,10,089,*4A
$GLGSV,3,1,09,65,02,212,,71,16,111,35,72,21,162,27,74,32,146,25*68
$GLGSV,3,2,09,75,77,071,36,76,28,343,25,86,23,344,18,87,31,293,16*63
$GLGSV,3,3,09,88,06,238,*53
$GNGLL,0420.01697,S,05539.78027,E,052152.00,A,D*61
$GNGRS,052152.00,1,1.9,-0.5,-1.8,-2.6,3.7,-12.0,-4.5,8.3,13.3,,,*5E
$GNGRS,052152.00,1,-19.7,11.1,0.6,4.4,-0.1,-9.6,,,,,,*7A
$GNGST,052152.00,2973941,,,,3.8,3.7,5.5*74
$GNZDA,052152.00,23,05,2025,00,00*78
$GNGBS,052152.00,3.8,3.7,5.5,,,,*51
$GNTXT,01,01,01,More than 100 frame errors, UART RX was disabled*70
b0L?e8+
1!&3
8T8
{4(V^:R 
Y%
iAG#oHJ K#MG,LWVXW%XubrJ>Qz$GNRMC,052153.00,A,0420.01703,S,05539.78028,E,0.083,,230525,,,D*72
$GNVTG,,T,,M,0.083,N,0.154,K,D*33
$GNGNS,052153.00,0420.01703,S,05539.78028,E,DA,15,0.67,21.6,-47.6,,0000*64
$GNGGA,052153.00,0420.01703,S,05539.78028,E,2,12,0.67,21.6,M,-47.6,M,,0000*4F
$GNGSA,A,3,24,20,05,13,15,22,12,18,23,,,,1.30,0.67,1.12*11
$GNGSA,A,3,86,74,75,87,71,72,,,,,,,1.30,0.67,1.12*1E
$GPGSV,5,1,17,05,63,101,29,11,12,023,,12,43,010,17,13,17,144,24*72
$GPGSV,5,2,17,15,29,179,22,18,29,244,22,20,38,051,33,22,11,127,23*70
$GPGSV,5,3,17,23,10,209,16,24,56,217,28,25,20,340,,29,09,312,*7E
$GPGSV,5,4,17,36,52,277,,40,86,350,40,41,58,082,,49,32,274,*79
$GPGSV,5,5,17,50,10,089,*4A
$GLGSV,3,1,09,65,02,212,,71,16,111,35,72,21,162,27,74,32,146,26*6B
$GLGSV,3,2,09,75,77,071,35,76,28,343,25,86,23,344,17,87,31,293,15*6C
$GLGSV,3,3,09,88,06,238,*53
$GNGLL,0420.01703,S,05539.78028,E,052153.00,A,D*63
$GNGRS,052153.00,1,-0.3,-0.6,-2.0,-1.0,3.1,-10.3,-5.5,9.7,14.6,,,*75
$GNGRS,052153.00,1,-18.0,10.3,0.4,4.4,-0.2,-8.7,,,,,,*7F
$GNGST,052153.00,2973941,,,,3.8,3.8,5.6*79
$GNZDA,052153.00,23,05,2025,00,00*79
$GNGBS,052153.00,3.8,3.8,5.6,,,,*5C
$GNTXT,01,01,01,More than 100 frame errors, UART RX was disabled*70
b0L?eJ+
kP&3.
8OT8
{4&V^:R 
Y$
iAG"oHJ <K!MG;LWVXW%Xjbr2BQR$GNRMC,052154.00,A,0420.01705,S,05539.78022,E,0.144,,230525,,,D*73
$GNVTG,,T,,M,0.144,N,0.267,K,D*3A
$GNGNS,052154.00,0420.01705,S,05539.78022,E,DA,15,0.67,21.5,-47.6,,0000*6C
$GNGGA,052154.00,0420.01705,S,05539.78022,E,2,12,0.67,21.5,M,-47.6,M,,0000*47
$GNGSA,A,3,24,20,05,13,15,22,12,18,23,,,,1.30,0.67,1.12*11
$GNGSA,A,3,86,74,75,87,71,72,,,,,,,1.30,0.67,1.12*1E
$GPGSV,5,1,17,05,63,101,28,11,12,023,,12,43,010,14,13,17,144,22*76
$GPGSV,5,2,17,15,29,179,23,18,29,244,22,20,38,051,30,22,11,127,21*70
$GPGSV,5,3,17,23,10,209,14,24,56,217,28,25,20,340,,29,09,312,*7C
$GPGSV,5,4,17,36,52,277,,40,86,350,38,41,58,082,,49,32,274,*76
$GPGSV,5,5,17,50,10,089,*4A
$GLGSV,3,1,09,65,02,212,,71,16,111,34,72,21,162,27,74,32,146,25*69
$GLGSV,3,2,09,75,77,071,33,76,28,343,24,86,23,344,15,87,31,293,12*6E
$GLGSV,3,3,09,88,06,238,*53
$GNGLL,0420.01705,S,05539.78022,E,052154.00,A,D*68
$GNGRS,052154.00,1,0.8,-0.5,-1.8,-1.5,2.3,-9.8,-5.6,11.0,17.4,,,*55
$GNGRS,052154.00,1,-18.3,10.8,0.6,4.6,-0.1,-9.9,,,,,,*7C
$GNGST,052154.00,53,,,,3.8,3.8,5.6*4B
$GNZDA,052154.00,23,05,2025,00,00*7E
$GNGBS,052154.00,3.8,3.8,5.6,,,,*5B
$GNTXT,01,01,01,More than 100 frame errors, UART RX was disabled*70
b0L ?eE
+
LT&3

8HT8
{4&V^:R 
Y#
