$GNTXT,01,01,01,More than 100 frame errors, UART RX was disabled*70
b0LO?j^)y(6u}~g 9YS6
{4V^:R 
Y
h5AGrHJ"KL;LWVVnW "XbOrLF$GNRMC,051701.00,A,0420.02200,S,05539.77728,E,0.303,,230525,,,A*73
$GNVTG,,T,,M,0.303,N,0.561,K,A*3F
$GNGNS,051701.00,0420.02200,S,05539.77728,E,AA,13,0.70,21.9,-47.6,,*61
$GNGGA,051701.00,0420.02200,S,05539.77728,E,1,12,0.70,21.9,M,-47.6,M,,*4A
$GNGSA,A,3,24,20,05,13,15,22,12,18,23,,,,1.50,0.70,1.32*13
$GNGSA,A,3,86,87,71,72,,,,,,,,,1.50,0.70,1.32*1D
$GPGSV,5,1,17,05,63,106,22,11,14,023,,12,41,008,21,13,17,147,21*70
$GPGSV,5,2,17,15,29,181,21,18,28,241,17,20,40,054,15,22,12,125,12*7B
$GPGSV,5,3,17,23,09,209,17,24,57,221,32,25,18,339,,29,09,310,*7F
$GPGSV,5,4,17,36,52,277,,40,86,350,,41,58,082,,49,32,274,*7D
$GPGSV,5,5,17,50,10,089,*4A
$GLGSV,3,1,09,65,01,214,,71,16,114,15,72,20,165,11,74,34,144,06*6C
$GLGSV,3,2,09,75,76,059,,76,25,343,,86,25,342,12,87,32,290,15*6E
$GLGSV,3,3,09,88,06,235,*5E
$GNGLL,0420.02200,S,05539.77728,E,051701.00,A,A*69
$GNGRS,051701.00,1,0.9,8.9,3.5,2.5,1.4,19.2,-11.6,-8.7,-4.1,,,*5B
$GNGRS,051701.00,1,-1.5,3.9,1.9,5.3,,,,,,,,*7F
$GNGST,051701.00,4496251,,,,7.6,6.7,12*5F
$GNZDA,051701.00,23,05,2025,00,00*7B
$GNGBS,051701.00,7.6,6.7,12.1,,,,*6F
$GNTXT,01,01,01,More than 100 frame errors, UART RX was disabled*70
b0LS?j)?7;(6n}U"9:S6
{4V^:R 
Y
hAGr`HJ"KL;LWVVvW "XH_bSrL$GNRMC,051702.00,A,0420.02212,S,05539.77729,E,0.184,,230525,,,A*7F
$GNVTG,,T,,M,0.184,N,0.342,K,A*35
$GNGNS,051702.00,0420.02212,S,05539.77729,E,AA,14,0.68,22.1,-47.6,,*65
$GNGGA,051702.00,0420.02212,S,05539.77729,E,1,12,0.68,22.1,M,-47.6,M,,*49
$GNGSA,A,3,24,20,05,13,15,22,12,18,23,,,,1.46,0.68,1.29*17
$GNGSA,A,3,86,74,87,71,72,,,,,,,,1.46,0.68,1.29*1A
$GPGSV,5,1,17,05,63,106,23,11,14,023,,12,41,008,19,13,17,147,19*71
$GPGSV,5,2,17,15,29,181,22,18,28,241,17,20,40,054,11,22,12,125,16*78
$GPGSV,5,3,17,23,09,209,17,24,57,221,34,25,18,339,,29,09,310,*79
$GPGSV,5,4,17,36,52,277,,40,86,350,,41,58,082,,49,32,274,*7D
$GPGSV,5,5,17,50,10,089,*4A
$GLGSV,3,1,09,65,01,214,,71,16,114,18,72,20,165,14,74,34,144,09*6B
$GLGSV,3,2,09,75,76,059,21,76,25,343,,86,25,342,13,87,32,290,14*6D
$GLGSV,3,3,09,88,06,235,*5E
$GNGLL,0420.02212,S,05539.77729,E,051702.00,A,A*68
$GNGRS,051702.00,1,3.1,8.8,4.8,2.8,3.1,18.8,-12.2,-7.1,-3.5,,,*54
$GNGRS,051702.00,1,-1.4,-3.0,4.7,1.0,4.8,,,,,,,*77
$GNGST,051702.00,4343883,,,,7.7,6.8,12*58
$GNZDA,051702.00,23,05,2025,00,00*78
$GNGBS,051702.00,7.7,6.8,12.3,,,,*60
$GNTXT,01,01,01,More than 100 frame errors, UART RX was disabled*70
b0LV?j)((6S}5#9S6
{4V^:R 
Y
hZAGrYHbJ"5+KL;LWV
V9W "3XFbVrzLQ$GNRMC,051703.00,A,0420.02248,S,05539.77739,E,0.398,,230525,,,A*7F
$GNVTG,,T,,M,0.398,N,0.737,K,A*3C
$GNGNS,051703.00,0420.02248,S,05539.77739,E,AA,14,0.68,23.1,-47.6,,*6B
$GNGGA,051703.00,0420.02248,S,05539.77739,E,1,12,0.68,23.1,M,-47.6,M,,*47
$GNGSA,A,3,24,20,05,13,15,22,12,18,23,,,,1.46,0.68,1.29*17
$GNGSA,A,3,86,74,87,71,72,,,,,,,,1.46,0.68,1.29*1A
$GPGSV,5,1,17,05,63,106,25,11,14,023,,12,41,008,21,13,17,147,19*7C
$GPGSV,5,2,17,15,29,181,21,18,28,241,21,20,40,054,19,22,12,125,09*78
$GPGSV,5,3,17,23,09,209,19,24,57,221,35,25,18,339,,29,09,310,*76
$GPGSV,5,4,17,36,52,277,,40,86,350,,41,58,082,,49,32,274,*7D
$GPGSV,5,5,17,50,10,089,*4A
$GLGSV,3,1,09,65,01,214,,71,16,114,19,72,20,165,16,74,34,144,12*62
$GLGSV,3,2,09,75,76,059,22,76,25,343,,86,25,342,10,87,32,290,15*6C
$GLGSV,3,3,09,88,06,235,*5E
$GNGLL,0420.02248,S,05539.77739,E,051703.00,A,A*67
$GNGRS,051703.00,1,2.1,-6.8,4.2,2.5,2.6,19.8,-12.4,-4.8,-2.0,,,*7F
$GNGRS,051703.00,1,-7.1,111,5.6,0.9,11.2,,,,,,,*72
$GNGST,051703.00,73,,,,7.7,6.9,12*6F
$GNZDA,051703.00,23,05,2025,00,00*79
$GNGBS,051703.00,7.7,6.9,12.4,,,,*67
$GNTXT,01,01,01,More than 100 frame errors, UART RX was disabled*70
b0LZ?j)dV<(6}#9S6
{4V^:R 
Y
hAGrH5J"KL;^LWV
VW "oX0bZrbL$GNRMC,051704.00,A,0420.02270,S,05539.77761,E,0.289,,230525,,,A*7F
$GNVTG,,T,,M,0.289,N,0.535,K,A*3D
$GNGNS,051704.00,0420.02270,S,05539.77761,E,AA,15,0.68,24.3,-47.6,,*6E
$GNGGA,051704.00,0420.02270,S,05539.77761,E,1,12,0.68,24.3,M,-47.6,M,,*43
$GNGSA,A,3,24,20,05,13,15,22,12,18,23,,,,1.31,0.68,1.12*1F
$GNGSA,A,3,86,74,75,87,71,72,,,,,,,1.31,0.68,1.12*10
$GPGSV,5,1,17,05,63,106,26,11,14,023,,12,41,008,22,13,17,147,20*76
$GPGSV,5,2,17,15,29,181,21,18,28,241,22,20,40,054,20,22,12,125,15*7C
$GPGSV,5,3,17,23,09,209,19,24,57,221,35,25,18,339,,29,09,310,*76
$GPGSV,5,4,17,36,52,277,,40,86,350,,41,58,082,,49,32,274,*7D
$GPGSV,5,5,17,50,10,089,*4A
$GLGSV,3,1,09,65,01,214,,71,16,114,18,72,20,165,12,74,34,144,08*6C
$GLGSV,3,2,09,75,76,059,23,76,25,343,,86,25,342,10,87,32,290,16*6E
$GLGSV,3,3,09,88,06,235,*5E
$GNGLL,0420.02270,S,05539.77761,E,051704.00,A,A*66
$GNGRS,051704.00,1,2.7,9.3,4.2,4.5,0.9,19.3,-9.2,-4.5,-3.3,,,*64
$GNGRS,051704.00,1,-1.3,-2.5,0.9,6.2,-0.3,5.6,,,,,,*72
$GNGST,051704.00,2975580,,,,7.7,6.9,12*58
$GNZDA,051704.00,23,05,2025,00,00*7E
$GNGBS,051704.00,7.7,6.9,12.4,,,,*60
$GNTXT,01,01,01,More than 100 frame errors, UART RX was disabled*70
b0L^?jI)(63}w#9!S6
{4V^:R 
Y
hAGr?H2J
"KL;LWVVcW "EXb^rJL!$GNRMC,051705.00,A,0420.02257,S,05539.77767,E,0.348,,230525,,,A*71
$GNVTG,,T,,M,0.348,N,0.644,K,A*34
$GNGNS,051705.00,0420.02257,S,05539.77767,E,AA,15,0.68,24.8,-47.6,,*67
$GNGGA,051705.00,0420.02257,S,05539.77767,E,1,12,0.68,24.8,M,-47.6,M,,*4A
$GNGSA,A,3,24,20,05,13,15,22,12,18,23,,,,1.31,0.68,1.12*1F
$GNGSA,A,3,86,74,75,87,71,72,,,,,,,1.31,0.68,1.12*10
$GPGSV,5,1,17,05,63,106,26,11,14,023,,12,41,008,23,13,17,147,20*77
$GPGSV,5,2,17,15,29,181,21,18,28,241,22,20,40,054,21,22,12,125,16*7E
$GPGSV,5,3,17,23,09,209,19,24,57,221,35,25,18,339,,29,09,310,*76
$GPGSV,5,4,17,36,52,277,,40,86,350,,41,58,082,,49,32,274,*7D
$GPGSV,5,5,17,50,10,089,*4A
$GLGSV,3,1,09,65,01,214,,71,16,114,17,72,20,165,14,74,34,144,10*6C
$GLGSV,3,2,09,75,76,059,24,76,25,343,,86,25,342,12,87,32,290,18*65
$GLGSV,3,3,09,88,06,235,*5E
$GNGLL,0420.02257,S,05539.77767,E,051705.00,A,A*64
$GNGRS,051705.00,1,0.3,8.2,3.3,7.2,2.3,19.1,-10.0,-1.1,-3.0,,,*53
$GNGRS,051705.00,1,-1.6,-2.6,10.0,8.4,-1.9,5.6,,,,,,*4E
$GNGST,051705.00,2977530,,,,7.7,6.8,12*51
$GNZDA,051705.00,23,05,2025,00,00*7F
$GNGBS,051705.00,7.7,6.8,12.4,,,,*60
$GNTXT,01,01,01,More than 100 frame errors, UART RX was disabled*70
b0Lb?j).(6}#9US6
{4V^:R 
Y
hHAGrHJ"KL;zLWVVW "bXbbr2L}$GNRMC,051706.00,A,0420.02248,S,05539.77765,E,0.154,,230525,,,A*71
$GNVTG,,T,,M,0.154,N,0.285,K,A*32
$GNGNS,051706.00,0420.02248,S,05539.77765,E,AA,15,0.69,24.9,-47.6,,*68
$GNGGA,051706.00,0420.02248,S,05539.77765,E,1,12,0.69,24.9,M,-47.6,M,,*45
$GNGSA,A,3,24,20,05,13,15,22,12,18,23,,,,1.32,0.69,1.12*1D
$GNGSA,A,3,86,74,75,87,71,72,,,,,,,1.32,0.69,1.12*12
$GPGSV,5,1,17,05,63,106,26,11,14,023,,12,41,008,23,13,17,147,21*76
$GPGSV,5,2,17,15,29,181,21,18,28,241,22,20,40,054,22,22,12,125,16*7D
$GPGSV,5,3,17,23,09,209,20,24,57,221,35,25,18,339,,29,09,310,*7C
$GPGSV,5,4,17,36,52,277,,40,86,350,,41,58,082,,49,32,274,*7D
$GPGSV,5,5,17,50,10,089,*4A
$GLGSV,3,1,09,65,01,214,,71,16,114,17,72,20,165,12,74,34,144,08*63
$GLGSV,3,2,09,75,76,059,24,76,25,343,,86,25,342,12,87,32,290,19*64
$GLGSV,3,3,09,88,06,235,*5E
$GNGLL,0420.02248,S,05539.77765,E,051706.00,A,A*6B
$GNGRS,051706.00,1,0.8,9.4,4.7,5.6,2.4,-5.7,-8.9,0.0,-3.7,,,*52
$GNGRS,051706.00,1,6.7,38.4,11.5,11.2,-3.1,71.3,,,,,,*76
$GNGST,051706.00,63,,,,7.6,6.8,12*6B
$GNZDA,051706.00,23,05,2025,00,00*7C
$GNGBS,051706.00,7.6,6.8,12.3,,,,*65
$GNTXT,01,01,01,More than 100 frame errors, UART RX was disabled*70
b0Lf?j)Ic(6}`_#9CS6
{4V^:R6 
Y
hRAGrHJ"KL;LWVVAW "X9bfrLU$GNRMC,051707.00,A,0420.02261,S,05539.77782,E,1.025,,230525,,,A*74
$GNVTG,,T,,M,1.025,N,1.898,K,A*33
$GNGNS,051707.00,0420.02261,S,05539.77782,E,AA,15,0.68,25.1,-47.6,,*63
$GNGGA,051707.00,0420.02261,S,05539.77782,E,1,12,0.68,25.1,M,-47.6,M,,*4E
$GNGSA,A,3,24,20,05,13,15,22,12,18,23,,,,1.31,0.68,1.12*1F
$GNGSA,A,3,86,74,75,87,71,72,,,,,,,1.31,0.68,1.12*10
$GPGSV,5,1,17,05,63,106,25,11,14,023,,12,41,008,23,13,17,147,21*75
$GPGSV,5,2,17,15,29,181,22,18,28,241,23,20,40,054,22,22,12,125,15*7C
$GPGSV,5,3,17,23,09,209,21,24,57,221,35,25,18,339,,29,09,310,*7D
$GPGSV,5,4,17,36,52,277,,40,86,350,,41,58,082,30,49,32,274,*7E
$GPGSV,5,5,17,50,10,089,*4A
$GLGSV,3,1,09,65,01,214,,71,16,114,17,72,20,165,16,74,34,144,11*6F
$GLGSV,3,2,09,75,76,059,23,76,25,343,,86,25,342,11,87,32,290,20*6A
$GLGSV,3,3,09,88,06,235,*5E
$GNGLL,0420.02261,S,05539.77782,E,051707.00,A,A*68
$GNGRS,051707.00,1,0.7,9.9,4.9,4.9,1.0,18.9,-7.0,1.9,-4.2,,,*45
$GNGRS,051707.00,1,-1.9,-2.7,7.1,12.6,-4.9,5.1,,,,,,*4E
$GNGST,051707.00,5151802,,,,7.6,6.7,12*5A
$GNZDA,051707.00,23,05,2025,00,00*7D
$GNGBS,051707.00,7.6,6.7,12.2,,,,*6A
$GNTXT,01,01,01,More than 100 frame errors, UART RX was disabled*70
b0Lpj?j))P(6}#9;S6
{4V^:R8 
Y
hAGr4HJ"KL;(LWV
VCW "XXwbpjrL-Y$GNRMC,051708.00,A,0420.02267,S,05539.77818,E,1.396,,230525,,,A*7A
$GNVTG,,T,,M,1.396,N,2.585,K,A*3A
$GNGNS,051708.00,0420.02267,S,05539.77818,E,AA,16,0.67,25.5,-47.6,,*6E
$GNGGA,051708.00,0420.02267,S,05539.77818,E,1,12,0.67,25.5,M,-47.6,M,,*40
$GNGSA,A,3,24,20,05,13,15,22,12,18,23,41,,,1.25,0.67,1.06*15
$GNGSA,A,3,86,74,75,87,71,72,,,,,,,1.25,0.67,1.06*1F
$GPGSV,5,1,17,05,63,106,25,11,14,023,,12,41,008,23,13,17,147,21*75
$GPGSV,5,2,17,15,29,181,21,18,28,241,23,20,40,054,22,22,12,125,13*79
$GPGSV,5,3,17,23,09,209,21,24,57,221,35,25,18,339,,29,09,310,*7D
$GPGSV,5,4,17,36,52,277,,40,86,350,,41,58,082,30,49,32,274,*7E
$GPGSV,5,5,17,50,10,089,*4A
$GLGSV,3,1,09,65,01,214,,71,16,114,17,72,20,165,16,74,34,144,08*67
$GLGSV,3,2,09,75,76,059,23,76,25,343,,86,25,342,10,87,32,290,20*6B
$GLGSV,3,3,09,88,06,235,*5E
$GNGLL,0420.02267,S,05539.77818,E,051708.00,A,A*6D
$GNGRS,051708.00,1,0.6,9.0,4.7,5.9,-1.0,18.1,-7.3,2.1,-3.1,145,,*54
$GNGRS,051708.00,1,-1.9,-3.5,0.4,13.7,-4.6,4.3,,,,,,*4C
$GNGST,051708.00,4998859,,,,7.5,6.6,12*55
$GNZDA,051708.00,23,05,2025,00,00*72
$GNGBS,051708.00,7.5,6.6,12.1,,,,*64
$GNTXT,01,01,01,More than 100 frame errors, UART RX was disabled*70
b0LXn?j )(6}b8$9cS6
{4V^:R9 
Y
hAGr?HJ"KL;LWVVW "X/bXnrL$GNRMC,051709.00,A,0420.02243,S,05539.77811,E,0.584,,230525,,,A*70
$GNVTG,,T,,M,0.584,N,1.082,K,A*3F
$GNGNS,051709.00,0420.02243,S,05539.77811,E,AA,16,0.67,24.5,-47.6,,*61
$GNGGA,051709.00,0420.02243,S,05539.77811,E,1,12,0.67,24.5,M,-47.6,M,,*4F
$GNGSA,A,3,24,20,05,13,15,22,12,18,23,41,,,1.25,0.67,1.06*15
$GNGSA,A,3,86,74,75,87,71,72,,,,,,,1.25,0.67,1.06*1F
$GPGSV,5,1,17,05,63,106,26,11,14,023,,12,41,008,23,13,17,147,23*74
$GPGSV,5,2,17,15,29,181,22,18,28,241,24,20,40,054,23,22,12,125,14*7B
$GPGSV,5,3,17,23,09,209,22,24,57,221,36,25,18,339,,29,09,310,*7D
$GPGSV,5,4,17,36,52,277,,40,86,350,,41,58,082,31,49,32,274,*7F
$GPGSV,5,5,17,50,10,089,*4A
$GLGSV,3,1,09,65,01,214,,71,16,114,18,72,20,165,16,74,34,144,09*69
$GLGSV,3,2,09,75,76,059,23,76,25,343,,86,25,342,11,87,32,290,20*6A
$GLGSV,3,3,09,88,06,235,*5E
$GNGLL,0420.02243,S,05539.77811,E,051709.00,A,A*63
$GNGRS,051709.00,1,1.0,7.4,5.4,3.9,2.0,-11.8,-7.5,2.8,-2.0,148,,*5D
$GNGRS,051709.00,1,71.0,-79.8,-0.9,12.6,-4.5,10.0,,,,,,*7B
$GNGST,051709.00,996,,,,7.4,6.5,12*58
$GNZDA,051709.00,23,05,2025,00,00*73
$GNGBS,051709.00,7.4,6.5,11.9,,,,*6C
$GNTXT,01,01,01,More than 100 frame errors, UART RX was disabled*70
b0L@r?j)T(6}$9SS6
{4V^:R7 
Y
hAGrHNJ"FKL;YLWVV/W "XAxb@rrL&$GNRMC,051710.00,A,0420.02250,S,05539.77809,E,0.092,,230525,,,A*71
$GNVTG,,T,,M,0.092,N,0.170,K,A*30
$GNGNS,051710.00,0420.02250,S,05539.77809,E,AA,16,0.67,24.7,-47.6,,*60
$GNGGA,051710.00,0420.02250,S,05539.77809,E,1,12,0.67,24.7,M,-47.6,M,,*4E
$GNGSA,A,3,24,20,05,13,15,22,12,18,23,41,,,1.25,0.67,1.06*15
$GNGSA,A,3,86,74,75,87,71,72,,,,,,,1.25,0.67,1.06*1F
$GPGSV,5,1,17,05,63,106,26,11,14,023,17,12,41,008,25,13,17,147,22*75
$GPGSV,5,2,17,15,29,181,22,18,28,241,24,20,40,054,23,22,12,125,13*7C
$GPGSV,5,3,17,23,09,209,22,24,57,221,36,25,18,339,,29,09,310,*7D
$GPGSV,5,4,17,36,52,277,,40,86,350,,41,58,082,30,49,32,274,*7E
$GPGSV,5,5,17,50,10,089,*4A
$GLGSV,3,1,09,65,01,214,,71,16,114,18,72,20,165,15,74,34,144,08*6B
$GLGSV,3,2,09,75,76,059,23,76,25,343,,86,25,342,15,87,32,290,20*6E
$GLGSV,3,3,09,88,06,235,*5E
$GNGLL,0420.02250,S,05539.77809,E,051710.00,A,A*60
$GNGRS,051710.00,1,0.8,6.4,2.4,3.4,1.4,19.8,-6.1,2.2,-0.7,143,,*74
$GNGRS,051710.00,1,-2.1,-1.9,-1.7,11.8,-8.8,5.9,,,,,,*6B
$GNGST,051710.00,2885988,,,,7.3,6.3,12*59
$GNZDA,051710.00,23,05,2025,00,00*7B
$GNGBS,051710.00,7.3,6.3,11.6,,,,*6A
$GNTXT,01,01,01,More than 100 frame errors, UART RX was disabled*70
b0L(v?j9)M\(6}$96S6
{4V^:R 
Y
hAGrH[J
"lKL;LWVVW "Xb(vrL$GNRMC,051711.00,A,0420.02246,S,05539.77808,E,0.311,,230525,,,A*7E
$GNVTG,,T,,M,0.311,N,0.577,K,A*3B
$GNGNS,051711.00,0420.02246,S,05539.77808,E,AA,15,0.68,24.5,-47.6,,*69
$GNGGA,051711.00,0420.02246,S,05539.77808,E,1,12,0.68,24.5,M,-47.6,M,,*44
$GNGSA,A,3,24,20,05,13,15,22,12,18,23,,,,1.31,0.68,1.12*1F
$GNGSA,A,3,86,74,75,87,71,72,,,,,,,1.31,0.68,1.12*10
$GPGSV,5,1,17,05,63,106,26,11,14,023,15,12,41,008,24,13,17,147,22*76
$GPGSV,5,2,17,15,29,181,22,18,28,241,24,20,40,054,23,22,12,125,16*79
$GPGSV,5,3,17,23,09,209,21,24,57,221,36,25,18,339,,29,09,310,*7E
$GPGSV,5,4,17,36,52,277,,40,86,350,,41,58,082,30,49,32,274,*7E
$GPGSV,5,5,17,50,10,089,*4A
$GLGSV,3,1,09,65,01,214,,71,16,114,18,72,20,165,14,74,34,144,10*63
$GLGSV,3,2,09,75,76,059,24,76,25,343,,86,25,342,13,87,32,290,19*65
$GLGSV,3,3,09,88,06,235,*5E
$GNGLL,0420.02246,S,05539.77808,E,051711.00,A,A*67
$GNGRS,051711.00,1,0.5,4.2,3.1,4.4,0.9,19.9,-4.4,2.4,-0.2,,,*40
$GNGRS,051711.00,1,-2.5,-1.5,1.3,10.5,-8.1,6.0,,,,,,*44
$GNGST,051711.00,2975794,,,,7.2,6.2,11*56
$GNZDA,051711.00,23,05,2025,00,00*7A
$GNGBS,051711.00,7.2,6.2,11.5,,,,*68
$GNTXT,01,01,01,More than 100 frame errors, UART RX was disabled*70
b0Lz?j)^3(6}#9JS6{4V^:R 
Y
hAGrH
J"KL;LWVV}W "rXbzrL$GNRMC,051712.00,A,0420.02242,S,05539.77817,E,0.570,,230525,,,A*76
$GNVTG,,T,,M,0.570,N,1.055,K,A*3E
$GNGNS,051712.00,0420.02242,S,05539.77817,E,AA,15,0.68,24.9,-47.6,,*6C
$GNGGA,051712.00,0420.02242,S,05539.77817,E,1,12,0.68,24.9,M,-47.6,M,,*41
$GNGSA,A,3,24,20,05,13,15,22,12,18,23,,,,1.31,0.68,1.12*1F
$GNGSA,A,3,86,74,75,87,71,72,,,,,,,1.31,0.68,1.12*10
$GPGSV,5,1,17,05,63,106,26,11,14,023,12,12,41,008,23,13,17,147,22*76
$GPGSV,5,2,17,15,29,181,24,18,28,241,25,20,40,054,24,22,12,125,17*78
$GPGSV,5,3,17,23,09,209,20,24,57,221,35,25,18,339,,29,09,310,*7C
$GPGSV,5,4,17,36,52,277,,40,86,350,,41,58,082,30,49,32,274,*7E
$GPGSV,5,5,17,50,10,089,*4A
$GLGSV,3,1,09,65,01,214,,71,16,114,17,72,20,165,15,74,34,144,11*6C
$GLGSV,3,2,09,75,76,059,23,76,25,343,,86,25,342,13,87,32,290,20*68
$GLGSV,3,3,09,88,06,235,*5E
$GNGLL,0420.02242,S,05539.77817,E,051712.00,A,A*6E
$GNGRS,051712.00,1,0.7,4.2,2.8,3.1,1.7,-5.1,-4.2,2.6,-3.3,,,*5A
$GNGRS,051712.00,1,19.2,9.7,-2.7,11.4,-8.9,-10.1,,,,,,*49
$GNGST,051712.00,62,,,,7.1,6.1,11*62
$GNZDA,051712.00,23,05,2025,00,00*79
$GNGBS,051712.00,7.1,6.1,11.4,,,,*6A
$GNTXT,01,01,01,More than 100 frame errors, UART RX was disabled*70
b0L}?j)-(6}Y#9IS6
{4V^:R 
Y
h}AGrH;J":KL;LWVVW "oXb}rLcO$GNRMC,051713.00,A,0420.02238,S,05539.77819,E,0.181,,230525,,,A*7E
$GNVTG,,T,,M,0.181,N,0.335,K,A*30
$GNGNS,051713.00,0420.02238,S,05539.77819,E,AA,15,0.68,25.1,-47.6,,*67
$GNGGA,051713.00,0420.02238,S,05539.77819,E,1,12,0.68,25.1,M,-47.6,M,,*4A
$GNGSA,A,3,24,20,05,13,15,22,12,18,23,,,,1.31,0.68,1.12*1F
$GNGSA,A,3,86,74,75,87,71,72,,,,,,,1.31,0.68,1.12*10
$GPGSV,5,1,17,05,63,106,26,11,14,023,11,12,41,008,23,13,17,147,22*75
$GPGSV,5,2,17,15,29,181,23,18,28,241,25,20,40,054,24,22,12,125,16*7E
$GPGSV,5,3,17,23,09,209,21,24,57,221,35,25,18,339,,29,09,310,*7D
$GPGSV,5,4,17,36,52,277,,40,86,350,,41,58,082,30,49,32,274,*7E
$GPGSV,5,5,17,50,10,089,*4A
$GLGSV,3,1,09,65,01,214,,71,16,114,16,72,20,165,15,74,34,144,13*6F
$GLGSV,3,2,09,75,76,059,23,76,25,343,,86,25,342,14,87,32,290,19*65
$GLGSV,3,3,09,88,06,235,*5E
$GNGLL,0420.02238,S,05539.77819,E,051713.00,A,A*6C
$GNGRS,051713.00,1,0.7,4.6,5.3,1.9,3.0,19.7,-3.4,4.7,-4.2,,,*4A
$GNGRS,051713.00,1,-2.3,-2.0,-3.1,11.3,-8.4,5.7,,,,,,*6D
$GNGST,051713.00,4210764,,,,7.0,6.0,11*55
$GNZDA,051713.00,23,05,2025,00,00*78
$GNGBS,051713.00,7.0,6.0,11.3,,,,*6C
$GNTXT,01,01,01,More than 100 frame errors, UART RX was disabled*70
b0L?j
)JQ(6l}N#9+S6
{4V^:R 
Y
hAGrHJ"=KL;LWVVW "X\brrL;$GNRMC,051714.00,A,0420.02238,S,05539.77824,E,0.551,,230525,,,A*7E
$GNVTG,,T,,M,0.551,N,1.020,K,A*3F
$GNGNS,051714.00,0420.02238,S,05539.77824,E,AA,15,0.68,24.8,-47.6,,*66
$GNGGA,051714.00,0420.02238,S,05539.77824,E,1,12,0.68,24.8,M,-47.6,M,,*4B
$GNGSA,A,3,24,20,05,13,15,22,12,18,23,,,,1.31,0.68,1.12*1F
$GNGSA,A,3,86,74,75,87,71,72,,,,,,,1.31,0.68,1.12*10
$GPGSV,5,1,17,05,63,106,26,11,14,023,10,12,41,008,23,13,17,147,23*75
$GPGSV,5,2,17,15,29,181,23,18,28,241,25,20,40,054,24,22,12,125,18*70
$GPGSV,5,3,17,23,09,209,21,24,57,221,35,25,18,339,,29,09,310,*7D
$GPGSV,5,4,17,36,52,277,,40,86,350,,41,58,082,30,49,32,274,*7E
$GPGSV,5,5,17,50,10,089,*4A
$GLGSV,3,1,09,65,01,214,,71,16,114,14,72,20,165,09,74,34,144,08*6A
$GLGSV,3,2,09,75,76,059,23,76,25,343,,86,25,342,12,87,32,290,19*63
$GLGSV,3,3,09,88,06,235,*5E
$GNGLL,0420.02238,S,05539.77824,E,051714.00,A,A*65
$GNGRS,051714.00,1,0.4,3.6,4.6,3.3,3.4,19.7,-3.1,4.9,-4.3,,,*4B
$GNGRS,051714.00,1,-2.7,-2.0,-2.7,13.0,-8.3,5.4,,,,,,*6C
$GNGST,051714.00,5153561,,,,7.0,6.0,11*50
$GNZDA,051714.00,23,05,2025,00,00*7F
$GNGBS,051714.00,7.0,6.0,11.2,,,,*6A
$GNTXT,01,01,01,More than 100 frame errors, UART RX was disabled*70
b0L?jq)D^M(6}&#98S6
{4V^:R 
Y
hAGrH
QJ
"KL;}LWVV}W "XbrZM!$GNRMC,051715.00,A,0420.02250,S,05539.77826,E,0.253,,230525,,,A*76
$GNVTG,,T,,M,0.253,N,0.468,K,A*33
$GNGNS,051715.00,0420.02250,S,05539.77826,E,AA,15,0.69,25.1,-47.6,,*62
$GNGGA,051715.00,0420.02250,S,05539.77826,E,1,12,0.69,25.1,M,-47.6,M,,*4F
$GNGSA,A,3,24,20,05,13,15,22,12,18,23,,,,1.32,0.69,1.12*1D
$GNGSA,A,3,86,74,75,87,71,72,,,,,,,1.32,0.69,1.12*12
$GPGSV,5,1,17,05,63,106,26,11,14,023,09,12,41,008,23,13,17,147,22*7C
$GPGSV,5,2,17,15,29,181,23,18,28,241,25,20,40,054,24,22,12,125,16*7E
$GPGSV,5,3,17,23,09,209,21,24,57,221,35,25,18,339,,29,09,310,*7D
$GPGSV,5,4,17,36,52,277,,40,86,350,,41,58,082,30,49,32,274,*7E
$GPGSV,5,5,17,50,10,089,*4A
$GLGSV,3,1,09,65,01,214,,71,16,114,12,72,20,165,10,74,34,144,10*6D
$GLGSV,3,2,09,75,76,059,22,76,25,343,,86,25,342,19,87,32,290,20*63
$GLGSV,3,3,09,88,06,235,*5E
$GNGLL,0420.02250,S,05539.77826,E,051715.00,A,A*68
$GNGRS,051715.00,1,0.6,2.8,6.2,3.2,3.5,18.3,-3.3,5.9,-3.5,,,*46
$GNGRS,051715.00,1,1.3,7.4,-1.3,11.9,-10.7,-22.2,,,,,,*44
$GNGST,051715.00,61,,,,6.9,5.9,11*64
$GNZDA,051715.00,23,05,2025,00,00*7E
$GNGBS,051715.00,6.9,5.9,11.1,,,,*6A
$GNTXT,01,01,01,More than 100 frame errors, UART RX was disabled*70
b0L?ja)eu(6:}#9'S6
{4V^:R 
Y
hyAG
rgH-J"'KL;LWVVW "XmbrBM$GNRMC,051716.00,A,0420.02248,S,05539.77819,E,0.282,,230525,,,A*7C
$GNVTG,,T,,M,0.282,N,0.523,K,A*31
$GNGNS,051716.00,0420.02248,S,05539.77819,E,AA,15,0.68,25.0,-47.6,,*64
$GNGGA,051716.00,0420.02248,S,05539.77819,E,1,12,0.68,25.0,M,-47.6,M,,*49
$GNGSA,A,3,24,20,05,13,15,22,12,18,23,,,,1.31,0.68,1.12*1F
$GNGSA,A,3,86,74,75,87,71,72,,,,,,,1.31,0.68,1.12*10
$GPGSV,5,1,17,05,63,106,26,11,14,023,08,12,41,008,23,13,17,147,19*75
$GPGSV,5,2,17,15,29,181,22,18,28,241,25,20,40,054,24,22,12,125,20*7A
$GPGSV,5,3,17,23,09,209,20,24,57,221,35,25,18,339,,29,09,310,*7C
$GPGSV,5,4,17,36,52,277,,40,86,350,,41,58,082,29,49,32,274,*76
$GPGSV,5,5,17,50,10,089,*4A
$GLGSV,3,1,09,65,01,214,,71,16,114,10,72,20,165,13,74,34,144,09*64
$GLGSV,3,2,09,75,76,059,23,76,25,343,,86,25,342,11,87,32,290,19*60
$GLGSV,3,3,09,88,06,235,*5E
$GNGLL,0420.02248,S,05539.77819,E,051716.00,A,A*6E
$GNGRS,051716.00,1,0.4,3.1,6.1,3.6,3.7,15.2,-5.0,6.7,-4.9,,,*45
$GNGRS,051716.00,1,-2.6,-2.2,-0.3,9.7,-16.9,5.6,,,,,,*60
$GNGST,051716.00,2975743,,,,6.9,5.9,11*59
$GNZDA,051716.00,23,05,2025,00,00*7D
$GNGBS,051716.00,6.9,5.9,11.0,,,,*68
$GNTXT,01,01,01,More than 100 frame errors, UART RX was disabled*70
b0L?jU)I^(6}#9'S6
{4V^:R 
Y
iAGrHJ
"KL;LWVVW "Xsbr*M$GNRMC,051717.00,A,0420.02257,S,05539.77823,E,0.361,,230525,,,A*76
$GNVTG,,T,,M,0.361,N,0.669,K,A*30
$GNGNS,051717.00,0420.02257,S,05539.77823,E,AA,14,0.69,24.7,-47.6,,*64
$GNGGA,051717.00,0420.02257,S,05539.77823,E,1,12,0.69,24.7,M,-47.6,M,,*48
$GNGSA,A,3,24,20,05,13,15,22,12,18,23,,,,1.33,0.69,1.14*1A
$GNGSA,A,3,86,74,75,87,72,,,,,,,,1.33,0.69,1.14*13
$GPGSV,5,1,17,05,63,106,27,11,14,023,07,12,41,008,22,13,17,147,18*7B
$GPGSV,5,2,17,15,29,181,22,18,28,241,24,20,40,054,23,22,12,125,21*7D
$GPGSV,5,3,17,23,09,209,20,24,57,221,35,25,18,339,,29,09,310,*7C
$GPGSV,5,4,17,36,52,277,,40,86,350,,41,58,082,29,49,32,274,*76
$GPGSV,5,5,17,50,10,089,*4A
$GLGSV,3,1,09,65,01,214,,71,16,114,08,72,20,165,13,74,34,144,10*65
$GLGSV,3,2,09,75,76,059,22,76,25,343,,86,25,342,13,87,32,290,19*63
$GLGSV,3,3,09,88,06,235,*5E
$GNGLL,0420.02257,S,05539.77823,E,051717.00,A,A*68
$GNGRS,051717.00,1,0.4,2.5,6.0,7.7,1.9,14.8,-4.4,3.5,-5.9,,,*41
$GNGRS,051717.00,1,-3.0,-2.6,-0.1,9.5,5.0,,,,,,,*59
$GNGST,051717.00,3075629,,,,6.9,5.8,11*5C
$GNZDA,051717.00,23,05,2025,00,00*7C
$GNGBS,051717.00,6.9,5.8,10.9,,,,*60
$GNTXT,01,01,01,More than 100 frame errors, UART RX was disabled*70
b0L?jt)n6(6x}m%9S6
{4V^:R 
Y
iAGrHJ"KL;LWVV|W ")XibrMY$GNRMC,051718.00,A,0420.02279,S,05539.77841,E,0.401,,230525,,,A*70
$GNVTG,,T,,M,0.401,N,0.743,K,A*38
$GNGNS,051718.00,0420.02279,S,05539.77841,E,AA,14,0.69,25.0,-47.6,,*65
$GNGGA,051718.00,0420.02279,S,05539.77841,E,1,12,0.69,25.0,M,-47.6,M,,*49
$GNGSA,A,3,24,20,05,13,15,22,12,18,23,,,,1.33,0.69,1.14*1A
$GNGSA,A,3,86,74,75,87,72,,,,,,,,1.33,0.69,1.14*13
$GPGSV,5,1,17,05,63,106,26,11,14,023,,12,41,008,23,13,17,147,19*7D
$GPGSV,5,2,17,15,29,181,21,18,28,241,24,20,40,054,23,22,12,125,20*7F
$GPGSV,5,3,17,23,09,209,20,24,57,221,37,25,18,339,,29,09,310,*7E
$GPGSV,5,4,17,36,52,277,,40,86,350,,41,58,082,29,49,32,274,*76
$GPGSV,5,5,17,50,10,089,*4A
$GLGSV,3,1,09,65,01,214,,71,16,114,09,72,20,165,11,74,34,144,09*6E
$GLGSV,3,2,09,75,76,059,22,76,25,343,,86,25,342,09,87,32,290,17*66
$GLGSV,3,3,09,88,06,235,*5E
$GNGLL,0420.02279,S,05539.77841,E,051718.00,A,A*6F
$GNGRS,051718.00,1,0.3,1.2,6.3,6.4,0.5,13.0,-4.0,4.2,-6.6,,,*46
$GNGRS,051718.00,1,-26.9,55.3,1.6,8.1,-2.3,,,,,,,*75
$GNGST,051718.00,69,,,,6.8,5.8,11*61
$GNZDA,051718.00,23,05,2025,00,00*73
$GNGBS,051718.00,6.8,5.8,10.8,,,,*6F
$GNTXT,01,01,01,More than 100 frame errors, UART RX was disabled*70
b0Lh?j)E\(6E}%9S6
{4V^:R 
Y
i2AGrHJ"KL;;LWVV?W "YXbhrMs$GNRMC,051719.00,A,0420.02297,S,05539.77865,E,1.084,,230525,,,A*7F
$GNVTG,,T,,M,1.084,N,2.008,K,A*3A
$GNGNS,051719.00,0420.02297,S,05539.77865,E,AA,15,0.69,25.2,-47.6,,*61
$GNGGA,051719.00,0420.02297,S,05539.77865,E,1,12,0.69,25.2,M,-47.6,M,,*4C
$GNGSA,A,3,24,20,05,13,15,22,12,18,23,,,,1.33,0.69,1.14*1A
$GNGSA,A,3,86,74,75,87,71,72,,,,,,,1.33,0.69,1.14*15
$GPGSV,5,1,17,05,63,106,25,11,14,023,,12,41,008,23,13,17,147,20*74
$GPGSV,5,2,17,15,29,181,22,18,28,241,23,20,40,054,22,22,12,125,19*70
$GPGSV,5,3,17,23,09,209,19,24,57,221,37,25,18,339,,29,09,310,*74
$GPGSV,5,4,17,36,52,277,,40,86,350,,41,58,082,28,49,32,274,*77
$GPGSV,5,5,17,50,10,089,*4A
$GLGSV,3,1,09,65,01,214,,71,16,114,14,72,20,165,13,74,34,144,11*69
$GLGSV,3,2,09,75,76,059,23,76,25,343,,86,25,342,15,87,32,290,15*68
$GLGSV,3,3,09,88,06,235,*5E
$GNGLL,0420.02297,S,05539.77865,E,051719.00,A,A*68
$GNGRS,051719.00,1,0.3,3.2,5.1,6.0,-3.7,11.6,-1.9,6.5,-5.2,,,*66
$GNGRS,051719.00,1,-1.9,-2.4,3.1,8.6,-26.0,5.4,,,,,,*41
$GNGST,051719.00,4344303,,,,6.9,5.7,11*56
$GNZDA,051719.00,23,05,2025,00,00*72
$GNGBS,051719.00,6.9,5.7,10.8,,,,*60
$GNTXT,01,01,01,More than 100 frame errors, UART RX was disabled*70
b0LP?j)_g:(6S}"9S6
{4V^:R 
Y
iAGrHJ"KL;cLWVV%W "XbPrMK&$GNRMC,051720.00,A,0420.02300,S,05539.77877,E,0.298,,230525,,,A*77
$GNVTG,,T,,M,0.298,N,0.551,K,A*3F
$GNGNS,051720.00,0420.02300,S,05539.77877,E,AA,15,0.69,25.4,-47.6,,*61
$GNGGA,051720.00,0420.02300,S,05539.77877,E,1,12,0.69,25.4,M,-47.6,M,,*4C
$GNGSA,A,3,24,20,05,13,15,22,12,18,23,,,,1.33,0.69,1.14*1A
$GNGSA,A,3,86,74,75,87,71,72,,,,,,,1.33,0.69,1.14*15
$GPGSV,5,1,17,05,63,106,25,11,14,023,,12,41,008,23,13,17,147,21*75
$GPGSV,5,2,17,15,29,181,23,18,28,241,23,20,40,054,22,22,12,125,17*7F
$GPGSV,5,3,17,23,09,209,20,24,57,221,34,25,18,339,,29,09,310,*7D
$GPGSV,5,4,17,36,52,277,,40,86,350,,41,58,082,28,49,32,274,*77
$GPGSV,5,5,17,50,10,089,*4A
$GLGSV,3,1,09,65,01,213,,71,16,114,15,72,20,165,12,74,34,144,09*67
$GLGSV,3,2,09,75,76,059,24,76,25,343,,86,25,342,15,87,32,290,16*6C
$GLGSV,3,3,09,88,06,235,*5E
$GNGLL,0420.02300,S,05539.77877,E,051720.00,A,A*6E
$GNGRS,051720.00,1,-0.2,6.0,4.9,6.2,-6.1,10.5,-1.6,8.3,-4.9,,,*40
$GNGRS,051720.00,1,-2.2,-2.3,3.6,9.8,-23.4,5.3,,,,,,*4A
$GNGST,051720.00,4344995,,,,6.9,5.8,11*56
$GNZDA,051720.00,23,05,2025,00,00*78
$GNGBS,051720.00,6.9,5.8,10.8,,,,*65
$GNTXT,01,01,01,More than 100 frame errors, UART RX was disabled*70
b0L8?j)Ed(6}$9S6
{4V^:R 
Y
iAGrHJ"@KL;LWVVW "X9Kb8rM#$GNRMC,051721.00,A,0420.02297,S,05539.77889,E,0.616,,230525,,,A*7A
$GNVTG,,T,,M,0.616,N,1.141,K,A*39
$GNGNS,051721.00,0420.02297,S,05539.77889,E,AA,15,0.69,25.4,-47.6,,*6E
$GNGGA,051721.00,0420.02297,S,05539.77889,E,1,12,0.69,25.4,M,-47.6,M,,*43
$GNGSA,A,3,24,20,05,13,15,22,12,18,23,,,,1.33,0.69,1.14*1A
$GNGSA,A,3,86,74,75,87,71,72,,,,,,,1.33,0.69,1.14*15
$GPGSV,5,1,17,05,63,106,24,11,14,023,,12,41,008,22,13,17,147,22*76
$GPGSV,5,2,17,15,29,181,28,18,28,241,23,20,40,054,21,22,12,125,15*75
$GPGSV,5,3,17,23,09,209,20,24,57,221,36,25,18,339,,29,09,310,*7F
$GPGSV,5,4,17,36,52,277,,40,86,350,,41,58,082,27,49,32,274,*78
$GPGSV,5,5,17,50,10,089,*4A
$GLGSV,3,1,09,65,01,213,,71,16,114,15,72,20,165,16,74,34,144,09*63
$GLGSV,3,2,09,75,76,059,23,76,25,343,,86,25,342,11,87,32,290,15*6C
$GLGSV,3,3,09,88,06,235,*5E
$GNGLL,0420.02297,S,05539.77889,E,051721.00,A,A*61
$GNGRS,051721.00,1,-0.3,4.7,1.5,3.2,-6.7,7.9,-3.5,7.0,-3.0,,,*76
$GNGRS,051721.00,1,-25.5,-71.0,1.7,9.1,-21.6,5.4,,,,,,*43
$GNGST,051721.00,68,,,,6.8,5.8,11*6A
$GNZDA,051721.00,23,05,2025,00,00*79
$GNGBS,051721.00,6.8,5.8,10.8,,,,*65
$GNTXT,01,01,01,More than 100 frame errors, UART RX was disabled*70
b0L ?j)(6}i$9S6
{4V^:R 
Y
iAGrHJJ"UKL;LWV
VW "&Xfb rM$GNRMC,051722.00,A,0420.02272,S,05539.77868,E,0.740,,230525,,,A*7F
$GNVTG,,T,,M,0.740,N,1.371,K,A*3A
$GNGNS,051722.00,0420.02272,S,05539.77868,E,AA,15,0.69,24.9,-47.6,,*65
$GNGGA,051722.00,0420.02272,S,05539.77868,E,1,12,0.69,24.9,M,-47.6,M,,*48
$GNGSA,A,3,24,20,05,13,15,22,12,18,23,,,,1.33,0.69,1.14*1A
$GNGSA,A,3,86,74,75,87,71,72,,,,,,,1.33,0.69,1.14*15
$GPGSV,5,1,17,05,63,106,25,11,14,023,,12,41,008,22,13,17,147,22*77
$GPGSV,5,2,17,15,29,181,25,18,28,241,23,20,40,054,21,22,12,125,16*7B
$GPGSV,5,3,17,23,09,209,20,24,57,221,36,25,18,339,,29,09,310,*7F
$GPGSV,5,4,17,36,52,277,,40,86,350,,41,58,082,27,49,32,274,*78
$GPGSV,5,5,17,50,10,089,*4A
$GLGSV,3,1,09,65,01,213,,71,16,114,13,72,20,165,14,74,34,144,08*66
$GLGSV,3,2,09,75,76,059,22,76,25,343,,86,25,342,10,87,32,290,16*6F
$GLGSV,3,3,09,88,06,235,*5E
$GNGLL,0420.02272,S,05539.77868,E,051722.00,A,A*66
$GNGRS,051722.00,1,-0.3,4.2,-0.5,0.1,-5.4,6.2,-5.4,6.6,-3.6,,,*50
$GNGRS,051722.00,1,-2.9,-1.7,1.4,10.6,-21.0,5.9,,,,,,*7E
$GNGST,051722.00,4343719,,,,6.8,5.8,11*58
$GNZDA,051722.00,23,05,2025,00,00*7A
$GNGBS,051722.00,6.8,5.8,10.8,,,,*66
$GNTXT,01,01,01,More than 100 frame errors, UART RX was disabled*70
b0L?j=)(~(6Q}`$9S6
{4V^:R 
Y
iAG
rNHMJ"nKL;.LWVVW "XeLbrM^$GNRMC,051723.00,A,0420.02255,S,05539.77862,E,0.407,,230525,,,A*71
$GNVTG,,T,,M,0.407,N,0.754,K,A*38
$GNGNS,051723.00,0420.02255,S,05539.77862,E,AA,14,0.69,25.0,-47.6,,*62
$GNGGA,051723.00,0420.02255,S,05539.77862,E,1,12,0.69,25.0,M,-47.6,M,,*4E
$GNGSA,A,3,24,20,05,13,15,22,12,18,23,,,,1.33,0.69,1.14*1A
$GNGSA,A,3,86,74,75,87,72,,,,,,,,1.33,0.69,1.14*13
$GPGSV,5,1,17,05,63,106,24,11,14,023,,12,41,008,23,13,17,147,22*77
$GPGSV,5,2,17,15,29,181,24,18,28,241,24,20,40,054,21,22,12,125,17*7C
$GPGSV,5,3,17,23,09,209,20,24,57,221,36,25,18,339,,29,09,310,*7F
$GPGSV,5,4,17,36,52,277,,40,86,350,,41,58,082,,49,32,274,*7D
$GPGSV,5,5,17,50,10,089,*4A
$GLGSV,3,1,09,65,01,213,,71,16,114,10,72,20,165,14,74,34,144,07*6A
$GLGSV,3,2,09,75,76,059,22,76,25,343,,86,25,342,08,87,32,290,17*67
$GLGSV,3,3,09,88,06,235,*5E
$GNGLL,0420.02255,S,05539.77862,E,051723.00,A,A*68
$GNGRS,051723.00,1,-0.6,5.9,0.6,0.4,-3.9,4.2,-5.2,4.4,-1.6,,,*78
$GNGRS,051723.00,1,-3.5,-1.5,0.5,10.4,5.9,,,,,,,*42
$GNGST,051723.00,4343719,,,,6.8,5.8,11*59
$GNZDA,051723.00,23,05,2025,00,00*7B
$GNGBS,051723.00,6.8,5.8,10.8,,,,*67
$GNTXT,01,01,01,More than 100 frame errors, UART RX was disabled*70
b0L?j)(6}$9S6
{4V^:R 
Y
ilAGr&H~J"MKL;MLWVVW "X9tbr#M$GNRMC,051724.00,A,0420.02227,S,05539.77840,E,0.491,,230525,,,A*7C
$GNVTG,,T,,M,0.491,N,0.909,K,A*31
$GNGNS,051724.00,0420.02227,S,05539.77840,E,AA,15,0.69,24.5,-47.6,,*65
$GNGGA,051724.00,0420.02227,S,05539.77840,E,1,12,0.69,24.5,M,-47.6,M,,*48
$GNGSA,A,3,24,20,05,13,15,22,12,18,23,,,,1.33,0.69,1.14*1A
$GNGSA,A,3,86,74,75,87,71,72,,,,,,,1.33,0.69,1.14*15
$GPGSV,5,1,17,05,63,106,24,11,14,023,,12,41,008,22,13,17,147,22*76
$GPGSV,5,2,17,15,29,181,24,18,28,241,25,20,40,054,21,22,12,125,18*72
$GPGSV,5,3,17,23,09,209,21,24,57,221,36,25,18,339,,29,09,310,*7E
$GPGSV,5,4,17,36,52,277,,40,86,350,,41,58,082,,49,32,274,*7D
$GPGSV,5,5,17,50,10,089,*4A
$GLGSV,3,1,09,65,01,213,,71,16,114,08,72,20,165,15,74,34,144,09*6C
$GLGSV,3,2,09,75,76,059,22,76,25,343,,86,25,342,11,87,32,290,19*61
$GLGSV,3,3,09,88,06,235,*5E
$GNGLL,0420.02227,S,05539.77840,E,051724.00,A,A*6A
$GNGRS,051724.00,1,-0.6,6.7,-0.5,-0.9,-5.7,1.7,-5.0,2.1,1.6,,,*58
$GNGRS,051724.00,1,-2.6,-148,0.8,10.3,-27.8,-3.9,,,,,,*4F
$GNGST,051724.00,75,,,,6.8,5.8,11*63
$GNZDA,051724.00,23,05,2025,00,00*7C
$GNGBS,051724.00,6.8,5.8,10.8,,,,*60
$GNTXT,01,01,01,More than 100 frame errors, UART RX was disabled*70
b0L?jw)(6}2|$9S6
{4V^:R 
Y
iAGrHJ"KL;LWVV^W "Xbrj'M$GNRMC,051725.00,A,0420.02236,S,05539.77849,E,0.691,,230525,,,A*76
$GNVTG,,T,,M,0.691,N,1.280,K,A*38
$GNGNS,051725.00,0420.02236,S,05539.77849,E,AA,14,0.71,24.2,-47.6,,*62
$GNGGA,051725.00,0420.02236,S,05539.77849,E,1,12,0.71,24.2,M,-47.6,M,,*4E
$GNGSA,A,3,24,20,05,13,15,22,12,18,23,,,,1.36,0.71,1.15*17
$GNGSA,A,3,86,75,87,71,72,,,,,,,,1.36,0.71,1.15*1B
$GPGSV,5,1,17,05,63,106,24,11,14,023,,12,41,008,21,13,17,147,21*76
$GPGSV,5,2,17,15,29,181,22,18,28,241,26,20,40,054,21,22,12,125,19*76
$GPGSV,5,3,17,23,09,209,20,24,57,221,36,25,18,339,,29,09,310,*7F
$GPGSV,5,4,17,36,52,277,,40,86,350,,41,58,082,,49,32,274,*7D
$GPGSV,5,5,17,50,10,089,*4A
$GLGSV,3,1,09,65,01,213,,71,16,114,16,72,20,165,11,74,34,144,07*69
$GLGSV,3,2,09,75,76,059,23,76,25,343,,86,25,342,13,87,32,290,18*63
$GLGSV,3,3,09,88,06,235,*5E
$GNGLL,0420.02236,S,05539.77849,E,051725.00,A,A*62
$GNGRS,051725.00,1,-0.9,6.8,1.2,1.3,-2.8,0.5,-3.5,0.2,1.2,,,*59
$GNGRS,051725.00,1,-1.6,1.4,7.1,-28.3,5.2,,,,,,,*40
$GNGST,051725.00,110651,,,,6.8,5.8,11*62
$GNZDA,051725.00,23,05,2025,00,00*7D
$GNGBS,051725.00,6.8,5.8,10.7,,,,*6E
$GNTXT,01,01,01,More than 100 frame errors, UART RX was disabled*70
b0L?j<)i0M(6E}[$9S6
{4V^:R 
Y
iwAG
qHJ
"KL;^LWVVrW "#X^brR+MZ$GNRMC,051726.00,A,0420.02238,S,05539.77846,E,0.178,,230525,,,A*74
$GNVTG,,T,,M,0.178,N,0.329,K,A*3B
$GNGNS,051726.00,0420.02238,S,05539.77846,E,AA,15,0.69,23.8,-47.6,,*65
$GNGGA,051726.00,0420.02238,S,05539.77846,E,1,12,0.69,23.8,M,-47.6,M,,*48
$GNGSA,A,3,24,20,05,13,15,22,12,18,23,,,,1.33,0.69,1.14*1A
$GNGSA,A,3,86,74,75,87,71,72,,,,,,,1.33,0.69,1.14*15
$GPGSV,5,1,17,05,63,106,24,11,14,023,,12,41,008,21,13,17,147,22*75
$GPGSV,5,2,17,15,29,181,21,18,28,241,26,20,40,054,21,22,12,125,20*7F
$GPGSV,5,3,17,23,09,209,20,24,57,221,36,25,18,339,,29,09,310,*7F
$GPGSV,5,4,17,36,52,277,,40,86,350,,41,58,082,,49,32,274,*7D
$GPGSV,5,5,17,50,10,089,*4A
$GLGSV,3,1,09,65,01,213,,71,16,113,10,72,20,165,14,74,34,144,10*6B
$GLGSV,3,2,09,75,76,059,23,76,25,343,,86,25,342,14,87,32,290,17*6B
$GLGSV,3,3,09,88,06,235,*5E
$GNGLL,0420.02238,S,05539.77846,E,051726.00,A,A*60
$GNGRS,051726.00,1,-0.7,5.8,3.2,3.0,-1.8,-1.6,-4.1,0.0,0.1,,,*7B
$GNGRS,051726.00,1,-1.4,-2.8,0.9,8.0,-28.5,4.8,,,,,,*47
$GNGST,051726.00,157369,,,,6.9,5.8,11*6D
$GNZDA,051726.00,23,05,2025,00,00*7E
$GNGBS,051726.00,6.9,5.8,10.7,,,,*6C
$GNTXT,01,01,01,More than 100 frame errors, UART RX was disabled*70
b0L?j)(6}$9S6
{4V^:R 
Y
iAGqHJ
"*KL;5LWVVqW "pX"br:/M2$GNRMC,051727.00,A,0420.02218,S,05539.77833,E,0.860,,230525,,,A*75
$GNVTG,,T,,M,0.860,N,1.593,K,A*3D
$GNGNS,051727.00,0420.02218,S,05539.77833,E,AA,15,0.69,23.6,-47.6,,*6A
$GNGGA,051727.00,0420.02218,S,05539.77833,E,1,12,0.69,23.6,M,-47.6,M,,*47
$GNGSA,A,3,24,20,05,13,15,22,12,18,23,,,,1.33,0.69,1.14*1A
$GNGSA,A,3,86,74,75,87,71,72,,,,,,,1.33,0.69,1.14*15
$GPGSV,5,1,17,05,63,106,24,11,14,023,,12,41,008,22,13,17,147,21*75
$GPGSV,5,2,17,15,29,181,19,18,28,241,26,20,40,054,21,22,12,125,21*75
$GPGSV,5,3,17,23,09,209,20,24,57,221,36,25,18,339,,29,09,310,*7F
$GPGSV,5,4,17,36,52,277,,40,86,350,,41,58,082,,49,32,274,*7D
$GPGSV,5,5,17,50,10,089,*4A
$GLGSV,3,1,09,65,01,213,,71,16,113,12,72,20,164,12,74,34,144,10*6E
$GLGSV,3,2,09,75,76,059,23,76,25,343,,86,25,342,09,87,32,290,16*66
$GLGSV,3,3,09,88,06,235,*5E
$GNGLL,0420.02218,S,05539.77833,E,051727.00,A,A*61
$GNGRS,051727.00,1,-0.6,4.2,1.6,2.8,-0.8,-5.0,-6.2,-0.5,-1.2,,,*7A
$GNGRS,051727.00,1,11.4,110,0.5,8.8,-54.7,2.0,,,,,,*60
$GNGST,051727.00,74,,,,6.9,5.8,11*60
$GNZDA,051727.00,23,05,2025,00,00*7F
$GNGBS,051727.00,6.9,5.8,10.7,,,,*6D
$GNTXT,01,01,01,More than 100 frame errors, UART RX was disabled*70
b0L?jQ)XL(6R}1$9S6
{4V^:R 
Y
iAGqH2J"KL;VLWVVW "Xbr"3M
W$GNRMC,051728.00,A,0420.02185,S,05539.77826,E,0.564,,230525,,,A*70
$GNVTG,,T,,M,0.564,N,1.044,K,A*3B
$GNGNS,051728.00,0420.02185,S,05539.77826,E,AA,14,0.69,23.1,-47.6,,*60
$GNGGA,051728.00,0420.02185,S,05539.77826,E,1,12,0.69,23.1,M,-47.6,M,,*4C
$GNGSA,A,3,24,20,05,13,15,22,12,18,23,,,,1.33,0.69,1.14*1A
$GNGSA,A,3,86,75,87,71,72,,,,,,,,1.33,0.69,1.14*16
$GPGSV,5,1,17,05,63,106,25,11,14,023,,12,41,008,23,13,17,147,22*76
$GPGSV,5,2,17,15,29,181,20,18,28,241,26,20,40,054,21,22,12,125,20*7E
$GPGSV,5,3,17,23,09,209,20,24,57,221,36,25,18,339,,29,09,310,*7F
$GPGSV,5,4,17,36,52,277,,40,86,350,,41,58,082,,49,32,274,*7D
$GPGSV,5,5,17,50,10,089,*4A
$GLGSV,3,1,09,65,01,213,,71,16,113,12,72,20,164,11,74,34,144,07*6B
$GLGSV,3,2,09,75,76,059,23,76,25,343,,86,25,342,13,87,32,290,15*6E
$GLGSV,3,3,09,88,06,235,*5E
$GNGLL,0420.02185,S,05539.77826,E,051728.00,A,A*6D
$GNGRS,051728.00,1,-0.7,5.9,3.4,0.8,-0.8,-2.4,-4.2,1.4,-2.1,,,*50
$GNGRS,051728.00,1,-2.6,0.9,9.5,10.4,5.6,,,,,,,*6D
$GNGST,051728.00,3074619,,,,7.0,5.8,11*5A
$GNZDA,051728.00,23,05,2025,00,00*70
$GNGBS,051728.00,7.0,5.8,10.7,,,,*6A
$GNTXT,01,01,01,More than 100 frame errors, UART RX was disabled*70
b0Lx?j)5<Hz(6@}$9S6
{4V^:R 
Y
iAGqH+J"KL;LWVVW "zXV2bxr
7M$GNRMC,051729.00,A,0420.02167,S,05539.77832,E,0.734,,230525,,,A*7F
$GNVTG,,T,,M,0.734,N,1.359,K,A*33
$GNGNS,051729.00,0420.02167,S,05539.77832,E,AA,14,0.69,23.6,-47.6,,*6F
$GNGGA,051729.00,0420.02167,S,05539.77832,E,1,12,0.69,23.6,M,-47.6,M,,*43
$GNGSA,A,3,24,20,05,13,15,22,12,18,23,,,,1.33,0.69,1.14*1A
$GNGSA,A,3,86,75,87,71,72,,,,,,,,1.33,0.69,1.14*16
$GPGSV,5,1,17,05,63,106,25,11,14,023,,12,41,008,24,13,17,147,24*77
$GPGSV,5,2,17,15,29,181,21,18,28,241,26,20,40,054,21,22,12,125,18*74
$GPGSV,5,3,17,23,09,209,21,24,57,221,36,25,18,339,,29,09,310,*7E
$GPGSV,5,4,17,36,52,277,,40,86,350,,41,58,082,,49,32,274,*7D
$GPGSV,5,5,17,50,10,089,*4A
$GLGSV,3,1,09,65,01,213,,71,16,113,16,72,20,164,11,74,34,144,06*6E
$GLGSV,3,2,09,75,76,059,22,76,25,343,,86,25,342,11,87,32,290,17*6F
$GLGSV,3,3,09,88,06,235,*5E
$GNGLL,0420.02167,S,05539.77832,E,051729.00,A,A*65
$GNGRS,051729.00,1,-0.7,5.8,4.5,-2.0,-1.8,-3.5,-4.6,1.2,-3.0,,,*72
$GNGRS,051729.00,1,-2.4,-0.3,8.9,10.0,5.6,,,,,,,*40
$GNGST,051729.00,4343920,,,,6.9,5.8,11*56
$GNZDA,051729.00,23,05,2025,00,00*71
$GNGBS,051729.00,6.9,5.8,10.6,,,,*62
$GNTXT,01,01,01,More than 100 frame errors, UART RX was disabled*70
b0L`?j)f(63}M'$9S6
{4V^:R 
Y
iAGq~HOJ"KL>LWVVoW "XXb`r:M$$GNRMC,051730.00,A,0420.02154,S,05539.77825,E,0.640,,230525,,,A*73
$GNVTG,,T,,M,0.640,N,1.185,K,A*32
$GNGNS,051730.00,0420.02154,S,05539.77825,E,AA,15,0.68,24.0,-47.6,,*60
$GNGGA,051730.00,0420.02154,S,05539.77825,E,1,12,0.68,24.0,M,-47.6,M,,*4D
$GNGSA,A,3,24,20,05,13,15,22,12,18,23,,,,1.31,0.68,1.12*1F
$GNGSA,A,3,86,74,75,87,71,72,,,,,,,1.31,0.68,1.12*10
$GPGSV,5,1,17,05,63,106,24,11,14,023,,12,41,008,22,13,17,147,24*70
$GPGSV,5,2,17,15,29,181,21,18,28,241,26,20,40,054,21,22,12,125,18*74
$GPGSV,5,3,17,23,09,209,21,24,57,221,36,25,18,339,,29,09,310,*7E
$GPGSV,5,4,17,36,52,277,,40,86,350,,41,58,082,,49,32,274,*7D
$GPGSV,5,5,17,50,10,089,*4A
$GLGSV,3,1,09,65,01,213,,71,16,113,09,72,20,164,12,74,34,144,13*67
$GLGSV,3,2,09,75,76,062,22,76,25,343,,86,25,342,12,87,32,290,17*64
$GLGSV,3,3,09,88,06,235,*5E
$GNGLL,0420.02154,S,05539.77825,E,051730.00,A,A*6B
$GNGRS,051730.00,1,-0.3,5.6,5.1,-2.5,-2.4,-4.4,-7.8,1.0,-2.2,,,*75
$GNGRS,051730.00,1,8.8,-150,-0.5,9.8,19.2,11.0,,,,,,*44
$GNGST,051730.00,77,,,,6.9,5.7,11*6A
$GNZDA,051730.00,23,05,2025,00,00*79
$GNGBS,051730.00,6.9,5.7,10.6,,,,*65
$GNTXT,01,01,01,More than 100 frame errors, UART RX was disabled*70
b0LH?j)\(6}!9S6
{4V^:R 
Y
ijAGqFH9J"@KL>LWVV"W "QXBbHr>M$GNRMC,051731.00,A,0420.02131,S,05539.77807,E,0.609,,230525,,,A*7C
$GNVTG,,T,,M,0.609,N,1.127,K,A*37
$GNGNS,051731.00,0420.02131,S,05539.77807,E,AA,15,0.68,23.7,-47.6,,*62
$GNGGA,051731.00,0420.02131,S,05539.77807,E,1,12,0.68,23.7,M,-47.6,M,,*4F
$GNGSA,A,3,24,20,05,13,15,22,12,18,23,,,,1.31,0.68,1.12*1F
$GNGSA,A,3,86,74,75,87,71,72,,,,,,,1.31,0.68,1.12*10
$GPGSV,5,1,17,05,63,106,24,11,14,023,,12,41,008,21,13,17,147,25*72
$GPGSV,5,2,17,15,29,181,24,18,28,241,25,20,40,054,22,22,12,125,17*7E
$GPGSV,5,3,17,23,09,209,21,24,57,221,33,25,18,339,,29,09,310,*7B
$GPGSV,5,4,17,36,52,277,,40,86,350,,41,58,082,,49,32,274,*7D
$GPGSV,5,5,17,50,10,089,*4A
$GLGSV,3,1,09,65,01,213,,71,16,113,12,72,20,164,18,74,34,144,09*6C
$GLGSV,3,2,09,75,76,062,23,76,26,343,,86,25,342,12,87,32,290,18*69
$GLGSV,3,3,09,88,06,235,*5E
$GNGLL,0420.02131,S,05539.77807,E,051731.00,A,A*69
$GNGRS,051731.00,1,-0.4,5.2,6.6,-3.2,-4.2,-5.0,-5.8,1.8,-0.2,,,*78
$GNGRS,051731.00,1,-2.2,-1.9,-2.7,8.5,10.9,5.7,,,,,,*46
$GNGST,051731.00,155257,,,,6.9,5.7,11*6A
$GNZDA,051731.00,23,05,2025,00,00*78
$GNGBS,051731.00,6.9,5.7,10.6,,,,*64
$GNTXT,01,01,01,More than 100 frame errors, UART RX was disabled*70
b0L0?jx)'H(6}%9S6
{4V^:R 
Y
inAGq2HJ"JKL>LLWVVW "XRVb0rBMi$GNRMC,051732.00,A,0420.02109,S,05539.77790,E,0.340,,230525,,,A*7D
$GNVTG,,T,,M,0.340,N,0.629,K,A*37
$GNGNS,051732.00,0420.02109,S,05539.77790,E,AA,15,0.68,23.2,-47.6,,*6E
$GNGGA,051732.00,0420.02109,S,05539.77790,E,1,12,0.68,23.2,M,-47.6,M,,*43
$GNGSA,A,3,24,20,05,13,15,22,12,18,23,,,,1.31,0.68,1.12*1F
$GNGSA,A,3,86,74,75,87,71,72,,,,,,,1.31,0.68,1.12*10
$GPGSV,5,1,17,05,63,106,23,11,14,023,,12,41,008,21,13,17,147,24*74
$GPGSV,5,2,17,15,29,181,22,18,28,241,25,20,40,054,21,22,12,125,15*79
$GPGSV,5,3,17,23,09,209,20,24,57,221,37,25,18,339,,29,09,310,*7E
$GPGSV,5,4,17,36,52,277,,40,86,350,,41,58,082,,49,32,274,*7D
$GPGSV,5,5,17,50,10,089,*4A
$GLGSV,3,1,09,65,01,213,,71,16,113,19,72,20,164,13,74,34,144,09*6C
$GLGSV,3,2,09,75,76,062,23,76,26,343,19,86,25,342,12,87,32,290,19*60
$GLGSV,3,3,09,88,06,235,*5E
$GNGLL,0420.02109,S,05539.77790,E,051732.00,A,A*60
$GNGRS,051732.00,1,-0.4,4.0,3.8,-2.9,-4.7,-7.6,-3.3,0.7,0.1,,,*55
$GNGRS,051732.00,1,-2.6,-1.8,-1.8,9.6,10.7,5.4,,,,,,*43
$GNGST,051732.00,232339,,,,6.9,5.7,11*62
$GNZDA,051732.00,23,05,2025,00,00*7B
$GNGBS,051732.00,6.9,5.7,10.5,,,,*64
$GNTXT,01,01,01,More than 100 frame errors, UART RX was disabled*70
b0L?j),O(6n
}89%9S6
{4V^:R 
Y
icAGq|HiJ"KL>LWVVW "XJbrFMA\$GNRMC,051733.00,A,0420.02070,S,05539.77772,E,0.985,,230525,,,A*7C
$GNVTG,,T,,M,0.985,N,1.825,K,A*37
$GNGNS,051733.00,0420.02070,S,05539.77772,E,AA,15,0.68,23.1,-47.6,,*6F
$GNGGA,051733.00,0420.02070,S,05539.77772,E,1,12,0.68,23.1,M,-47.6,M,,*42
$GNGSA,A,3,24,20,05,13,15,22,12,18,23,,,,1.31,0.68,1.12*1F
$GNGSA,A,3,86,74,75,87,71,72,,,,,,,1.31,0.68,1.12*10
$GPGSV,5,1,17,05,63,106,22,11,14,023,,12,41,008,22,13,17,147,25*77
$GPGSV,5,2,17,15,29,181,21,18,28,241,26,20,40,054,21,22,12,125,10*7C
$GPGSV,5,3,17,23,09,209,20,24,57,221,37,25,18,339,,29,09,310,*7E
$GPGSV,5,4,17,36,52,277,,40,86,350,,41,58,082,,49,32,274,*7D
$GPGSV,5,5,17,50,10,089,*4A
$GLGSV,3,1,09,65,01,213,,71,16,113,15,72,20,164,16,74,34,144,09*65
$GLGSV,3,2,09,75,76,062,25,76,26,343,19,86,25,342,08,87,32,290,20*67
$GLGSV,3,3,09,88,06,235,*5E
$GNGLL,0420.02070,S,05539.77772,E,051733.00,A,A*62
$GNGRS,051733.00,1,-0.6,3.7,4.8,-3.7,-1.8,-14.8,-2.1,-0.4,0.6,,,*42
$GNGRS,051733.00,1,50.1,10.3,-3.3,7.8,11.5,1.0,,,,,,*43
$GNGST,051733.00,70,,,,6.9,5.7,10*6F
$GNZDA,051733.00,23,05,2025,00,00*7A
$GNGBS,051733.00,6.9,5.7,10.5,,,,*65
$GNTXT,01,01,01,More than 100 frame errors, UART RX was disabled*70
b0L?j)zt(6'}0j$9S6
{4V^:R 
Y
ivAGqH)J"KL>LWV
VrW "gXI#brJM$GNRMC,051734.00,A,0420.02068,S,05539.77769,E,0.098,,230525,,,A*7D
$GNVTG,,T,,M,0.098,N,0.182,K,A*37
$GNGNS,051734.00,0420.02068,S,05539.77769,E,AA,15,0.68,23.1,-47.6,,*6B
$GNGGA,051734.00,0420.02068,S,05539.77769,E,1,12,0.68,23.1,M,-47.6,M,,*46
$GNGSA,A,3,24,20,05,13,15,22,12,18,23,,,,1.31,0.68,1.12*1F
$GNGSA,A,3,86,74,75,87,71,72,,,,,,,1.31,0.68,1.12*10
$GPGSV,5,1,17,05,63,106,19,11,14,023,,12,41,008,22,13,17,147,25*7F
$GPGSV,5,2,17,15,29,181,20,18,28,241,26,20,40,054,20,22,12,125,12*7E
$GPGSV,5,3,17,23,09,209,20,24,57,221,36,25,18,339,,29,09,310,*7F
$GPGSV,5,4,17,36,52,277,,40,86,350,,41,58,082,,49,32,274,*7D
$GPGSV,5,5,17,50,10,089,*4A
$GLGSV,3,1,09,65,01,213,,71,16,113,15,72,20,164,14,74,34,144,11*6E
$GLGSV,3,2,09,75,76,062,25,76,26,343,19,86,25,342,10,87,32,290,19*64
$GLGSV,3,3,09,88,06,235,*5E
$GNGLL,0420.02068,S,05539.77769,E,051734.00,A,A*66
$GNGRS,051734.00,1,-0.8,2.9,7.2,-5.0,-0.6,-14.9,-3.9,-1.4,3.6,,,*49
$GNGRS,051734.00,1,-1.4,-2.3,-1.0,6.1,15.1,5.5,,,,,,*4E
$GNGST,051734.00,2976654,,,,6.9,5.7,10*52
$GNZDA,051734.00,23,05,2025,00,00*7D
$GNGBS,051734.00,6.9,5.7,10.5,,,,*62
$GNTXT,01,01,01,More than 100 frame errors, UART RX was disabled*70
b0L?j)>(6}$9S6
{4V^:R 
Y
i]AGq5HJ"KL>WLWVVW "6X%brzNM$GNRMC,051735.00,A,0420.02065,S,05539.77769,E,0.133,,230525,,,A*71
$GNVTG,,T,,M,0.133,N,0.246,K,A*3C
$GNGNS,051735.00,0420.02065,S,05539.77769,E,AA,15,0.68,22.9,-47.6,,*6E
$GNGGA,051735.00,0420.02065,S,05539.77769,E,1,12,0.68,22.9,M,-47.6,M,,*43
$GNGSA,A,3,24,20,05,13,15,22,12,18,23,,,,1.31,0.68,1.12*1F
$GNGSA,A,3,86,74,75,87,71,72,,,,,,,1.31,0.68,1.12*10
$GPGSV,5,1,17,05,63,106,18,11,14,023,,12,41,008,23,13,17,147,24*7E
$GPGSV,5,2,17,15,29,181,19,18,28,241,26,20,40,054,20,22,12,125,15*73
$GPGSV,5,3,17,23,09,209,20,24,57,221,36,25,18,339,,29,09,310,*7F
$GPGSV,5,4,17,36,52,277,,40,86,350,,41,58,082,,49,32,274,*7D
$GPGSV,5,5,17,50,10,089,*4A
$GLGSV,3,1,09,65,01,213,,71,16,113,13,72,20,164,12,74,34,144,13*6C
$GLGSV,3,2,09,75,76,062,25,76,26,343,18,86,25,342,07,87,32,290,19*63
$GLGSV,3,3,09,88,06,235,*5E
$GNGLL,0420.02065,S,05539.77769,E,051735.00,A,A*6A
$GNGRS,051735.00,1,-0.7,1.3,5.3,-4.5,2.4,-13.7,-3.1,-3.2,3.9,,,*6E
$GNGRS,051735.00,1,-0.9,-2.6,-1.7,8.2,15.9,5.2,,,,,,*43
$GNGST,051735.00,2980041,,,,6.9,5.7,10*58
$GNZDA,051735.00,23,05,2025,00,00*7C
$GNGBS,051735.00,6.9,5.7,10.5,,,,*63
$GNTXT,01,01,01,More than 100 frame errors, UART RX was disabled*70
b0L?j)(6P}%-%9S6
{4V^:R 
Y
iPAGq~HJ
"CKL>aLWVVW "\X_brbRM$GNRMC,051736.00,A,0420.02067,S,05539.77766,E,0.183,,230525,,,A*74
$GNVTG,,T,,M,0.183,N,0.339,K,A*3E
$GNGNS,051736.00,0420.02067,S,05539.77766,E,AA,15,0.68,22.8,-47.6,,*61
$GNGGA,051736.00,0420.02067,S,05539.77766,E,1,12,0.68,22.8,M,-47.6,M,,*4C
$GNGSA,A,3,24,20,05,13,15,22,12,18,23,,,,1.31,0.68,1.12*1F
$GNGSA,A,3,86,74,75,87,71,72,,,,,,,1.31,0.68,1.12*10
$GPGSV,5,1,17,05,63,106,19,11,14,023,,12,41,008,24,13,17,147,25*79
$GPGSV,5,2,17,15,29,181,19,18,28,241,26,20,40,054,20,22,12,125,16*70
$GPGSV,5,3,17,23,09,209,20,24,57,221,37,25,18,339,,29,09,310,*7E
$GPGSV,5,4,17,36,52,277,,40,86,350,,41,58,082,,49,32,274,*7D
$GPGSV,5,5,17,50,10,089,*4A
$GLGSV,3,1,09,65,01,213,,71,16,113,14,72,20,164,16,74,34,144,10*6C
$GLGSV,3,2,09,75,76,062,24,76,26,343,18,86,25,342,13,87,32,290,20*6D
$GLGSV,3,3,09,88,06,235,*5E
$GNGLL,0420.02067,S,05539.77766,E,051736.00,A,A*64
$GNGRS,051736.00,1,-0.5,0.8,5.4,-6.3,4.1,-12.4,-1.0,-0.7,5.6,,,*6B
$GNGRS,051736.00,1,-13.4,0.7,-1.6,8.6,16.6,0.0,,,,,,*5F
$GNGST,051736.00,66,,,,6.8,5.7,10*6C
$GNZDA,051736.00,23,05,2025,00,00*7F
$GNGBS,051736.00,6.8,5.7,10.4,,,,*60
$GNTXT,01,01,01,More than 100 frame errors, UART RX was disabled*70
b0L?j)9(6}$9S6
{4V^:R 
Y
iAGqHMJ";KL>LWVV>W "XbrJVM$GNRMC,051737.00,A,0420.02082,S,05539.77759,E,0.576,,230525,,,A*7C
$GNVTG,,T,,M,0.576,N,1.067,K,A*39
$GNGNS,051737.00,0420.02082,S,05539.77759,E,AA,14,0.71,22.7,-47.6,,*61
$GNGGA,051737.00,0420.02082,S,05539.77759,E,1,12,0.71,22.7,M,-47.6,M,,*4D
$GNGSA,A,3,24,20,05,13,15,22,12,18,23,,,,1.35,0.71,1.15*14
$GNGSA,A,3,86,75,87,71,72,,,,,,,,1.35,0.71,1.15*18
$GPGSV,5,1,17,05,63,106,18,11,14,023,,12,41,008,25,13,17,147,26*7A
$GPGSV,5,2,17,15,29,181,19,18,28,241,26,20,40,054,20,22,12,125,16*70
$GPGSV,5,3,17,23,09,209,20,24,57,221,36,25,18,339,,29,09,310,*7F
$GPGSV,5,4,17,36,52,277,,40,86,350,,41,58,082,,49,32,274,*7D
$GPGSV,5,5,17,50,10,089,*4A
$GLGSV,3,1,09,65,01,213,,71,16,113,12,72,20,164,14,74,34,144,07*6E
$GLGSV,3,2,09,75,76,062,24,76,26,343,19,86,25,342,09,87,32,290,20*67
$GLGSV,3,3,09,88,06,235,*5E
$GNGLL,0420.02082,S,05539.77759,E,051737.00,A,A*62
$GNGRS,051737.00,1,-0.4,-0.4,4.2,-5.5,5.7,-12.6,0.2,-2.6,5.0,,,*66
$GNGRS,051737.00,1,-1.9,-0.4,9.9,22.4,5.9,,,,,,,*4D
$GNGST,051737.00,150050,,,,6.8,5.6,10*6D
$GNZDA,051737.00,23,05,2025,00,00*7E
$GNGBS,051737.00,6.8,5.6,10.4,,,,*60
$GNTXT,01,01,01,More than 100 frame errors, UART RX was disabled*70
b0L?j)Ag(6|}q$9S6
{4V^:R 
Y
iAG
q>HeJ"QKL>LWVVW "Xbr2ZMxU$GNRMC,051738.00,A,0420.02094,S,05539.77749,E,0.635,,230525,,,A*71
$GNVTG,,T,,M,0.635,N,1.175,K,A*3F
$GNGNS,051738.00,0420.02094,S,05539.77749,E,AA,14,0.69,22.5,-47.6,,*63
$GNGGA,051738.00,0420.02094,S,05539.77749,E,1,12,0.69,22.5,M,-47.6,M,,*4F
$GNGSA,A,3,24,20,05,13,15,22,12,18,23,,,,1.33,0.69,1.14*1A
$GNGSA,A,3,86,74,75,87,72,,,,,,,,1.33,0.69,1.14*13
$GPGSV,5,1,17,05,63,106,16,11,14,023,,12,41,008,24,13,17,147,26*75
$GPGSV,5,2,17,15,29,181,20,18,28,241,26,20,40,054,20,22,12,125,16*7A
$GPGSV,5,3,17,23,09,209,21,24,57,221,36,25,18,339,,29,09,310,*7E
$GPGSV,5,4,17,36,52,277,,40,86,350,,41,58,082,,49,32,274,*7D
$GPGSV,5,5,17,50,10,089,*4A
$GLGSV,3,1,09,65,01,213,,71,16,113,10,72,20,164,13,74,34,144,13*6E
$GLGSV,3,2,09,75,76,062,23,76,26,343,19,86,25,342,09,87,32,290,19*6A
$GLGSV,3,3,09,88,06,235,*5E
$GNGLL,0420.02094,S,05539.77749,E,051738.00,A,A*6B
$GNGRS,051738.00,1,-0.5,1.2,1.8,-5.7,5.8,-11.7,-0.5,-4.1,2.1,,,*6F
$GNGRS,051738.00,1,-2.3,-1.8,-0.1,9.7,6.1,,,,,,,*5B
$GNGST,051738.00,3072877,,,,6.7,5.6,10*52
$GNZDA,051738.00,23,05,2025,00,00*71
$GNGBS,051738.00,6.7,5.6,10.4,,,,*60
$GNTXT,01,01,01,More than 100 frame errors, UART RX was disabled*70
b0L?j)3(6u}6-$9S6
{4V^:R 
Y
ivAGqUHrJ"KL>yLWVVW "XqGbr^MP$GNRMC,051739.00,A,0420.02079,S,05539.77747,E,0.308,,230525,,,A*76
$GNVTG,,T,,M,0.308,N,0.571,K,A*35
$GNGNS,051739.00,0420.02079,S,05539.77747,E,AA,14,0.69,22.1,-47.6,,*6B
$GNGGA,051739.00,0420.02079,S,05539.77747,E,1,12,0.69,22.1,M,-47.6,M,,*47
$GNGSA,A,3,24,20,05,13,15,22,12,18,23,,,,1.33,0.69,1.14*1A
$GNGSA,A,3,86,74,75,87,72,,,,,,,,1.33,0.69,1.14*13
$GPGSV,5,1,17,05,63,106,14,11,14,023,,12,41,008,24,13,17,147,26*77
$GPGSV,5,2,17,15,29,181,21,18,28,241,26,20,40,054,20,22,12,125,17*7A
$GPGSV,5,3,17,23,09,209,20,24,57,221,36,25,18,339,,29,09,310,*7F
$GPGSV,5,4,17,36,52,277,,40,86,350,,41,58,082,,49,32,274,*7D
$GPGSV,5,5,17,50,10,089,*4A
$GLGSV,3,1,09,65,01,213,,71,16,113,08,72,20,164,18,74,34,144,11*6E
$GLGSV,3,2,09,75,76,062,23,76,26,343,19,86,25,342,16,87,32,290,19*64
$GLGSV,3,3,09,88,06,235,*5E
$GNGLL,0420.02079,S,05539.77747,E,051739.00,A,A*67
$GNGRS,051739.00,1,-0.4,1.2,2.4,-4.6,7.0,-12.3,-0.2,-2.9,3.0,,,*64
$GNGRS,051739.00,1,-10.6,-16.1,1.2,10.2,1.1,,,,,,,*46
$GNGST,051739.00,63,,,,6.7,5.6,10*68
$GNZDA,051739.00,23,05,2025,00,00*70
$GNGBS,051739.00,6.7,5.6,10.3,,,,*66
$GNTXT,01,01,01,More than 100 frame errors, UART RX was disabled*70
b0Lp?j)4Y@(6}%9S6
{4V^:R 
Y
iAGqHLJ"DKL>qLWVV+W "XPbprbM(%$GNRMC,051740.00,A,0420.02072,S,05539.77754,E,0.280,,230525,,,A*70
$GNVTG,,T,,M,0.280,N,0.519,K,A*3A
$GNGNS,051740.00,0420.02072,S,05539.77754,E,AA,15,0.69,22.2,-47.6,,*6E
$GNGGA,051740.00,0420.02072,S,05539.77754,E,1,12,0.69,22.2,M,-47.6,M,,*43
$GNGSA,A,3,24,20,05,13,15,22,12,18,23,,,,1.33,0.69,1.14*1A
$GNGSA,A,3,86,74,75,87,71,72,,,,,,,1.33,0.69,1.14*15
$GPGSV,5,1,17,05,63,106,13,11,14,023,,12,41,008,24,13,17,147,26*70
$GPGSV,5,2,17,15,29,181,21,18,28,241,26,20,40,054,19,22,12,125,18*7F
$GPGSV,5,3,17,23,09,209,19,24,57,221,37,25,18,339,,29,09,310,*74
$GPGSV,5,4,17,36,52,277,,40,86,350,,41,58,082,,49,32,274,*7D
$GPGSV,5,5,17,50,10,089,*4A
$GLGSV,3,1,09,65,01,213,,71,16,113,14,72,20,164,15,74,34,144,11*6E
$GLGSV,3,2,09,75,76,062,24,76,26,343,19,86,25,342,08,87,32,290,19*6C
$GLGSV,3,3,09,88,06,235,*5E
$GNGLL,0420.02072,S,05539.77754,E,051740.00,A,A*60
$GNGRS,051740.00,1,-0.5,1.4,7.5,-4.6,8.6,-11.3,-0.3,-1.9,1.3,,,*60
$GNGRS,051740.00,1,-2.1,-1.9,1.1,6.5,42.3,5.9,,,,,,*66
$GNGST,051740.00,180540,,,,6.6,5.7,10*6B
$GNZDA,051740.00,23,05,2025,00,00*7E
$GNGBS,051740.00,6.6,5.7,10.4,,,,*6F
$GNTXT,01,01,01,More than 100 frame errors, UART RX was disabled*70
b0LX?j)Z(6}u$9S6
{4V^:R 
Y
iYAGqqHDJ"UKL>qLWVWW "RX(bXreM$GNRMC,051741.00,A,0420.02052,S,05539.77761,E,0.541,,230525,,,A*7F
$GNVTG,,T,,M,0.541,N,1.003,K,A*3F
$GNGNS,051741.00,0420.02052,S,05539.77761,E,AA,15,0.69,21.9,-47.6,,*63
$GNGGA,051741.00,0420.02052,S,05539.77761,E,1,12,0.69,21.9,M,-47.6,M,,*4E
$GNGSA,A,3,24,20,05,13,15,22,12,18,23,,,,1.33,0.69,1.14*1A
$GNGSA,A,3,86,74,75,87,71,72,,,,,,,1.33,0.69,1.14*15
$GPGSV,5,1,17,05,63,106,14,11,14,023,,12,41,008,24,13,17,147,26*77
$GPGSV,5,2,17,15,29,181,21,18,28,241,26,20,40,054,18,22,12,125,18*7E
$GPGSV,5,3,17,23,09,209,19,24,57,221,36,25,18,339,,29,09,310,*75
$GPGSV,5,4,17,36,52,277,,40,86,350,,41,58,082,,49,32,274,*7D
$GPGSV,5,5,17,50,10,089,*4A
$GLGSV,3,1,09,65,01,213,,71,16,113,13,72,20,164,12,74,34,144,12*6D
$GLGSV,3,2,09,75,76,062,24,76,26,343,18,86,25,343,15,87,32,290,20*6A
$GLGSV,3,3,09,88,06,235,*5E
$GNGLL,0420.02052,S,05539.77761,E,051741.00,A,A*65
$GNGRS,051741.00,1,-0.3,2.1,4.4,-4.2,7.3,-9.1,-3.2,-3.6,1.3,,,*59
$GNGRS,051741.00,1,-2.7,-1.7,1.1,8.5,42.1,5.8,,,,,,*62
$GNGST,051741.00,3074632,,,,6.6,5.7,10*55
$GNZDA,051741.00,23,05,2025,00,00*7F
$GNGBS,051741.00,6.6,5.7,10.4,,,,*6E
$GNTXT,01,01,01,More than 100 frame errors, UART RX was disabled*70
b0L@?j)(6}i!%9S6
{4V^:R 
Y
i2AG
qHJ"KL>eLWVW+
W #XB b@riM$GNRMC,051742.00,A,0420.02052,S,05539.77757,E,0.247,,230525,,,A*78
$GNVTG,,T,,M,0.247,N,0.458,K,A*35
$GNGNS,051742.00,0420.02052,S,05539.77757,E,AA,15,0.67,22.3,-47.6,,*62
$GNGGA,051742.00,0420.02052,S,05539.77757,E,1,12,0.67,22.3,M,-47.6,M,,*4F
$GNGSA,A,3,24,20,05,13,15,22,12,18,23,,,,1.31,0.67,1.12*10
$GNGSA,A,3,86,74,75,87,71,72,,,,,,,1.31,0.67,1.12*1F
$GPGSV,5,1,17,05,63,106,16,11,14,023,,12,41,008,25,13,17,147,26*74
$GPGSV,5,2,17,15,29,181,22,18,28,241,26,20,40,054,19,22,12,125,20*77
$GPGSV,5,3,17,23,09,209,20,24,57,221,37,25,18,339,,29,09,310,*7E
$GPGSV,5,4,17,36,52,277,,40,86,350,,41,58,082,,49,32,274,*7D
$GPGSV,5,5,17,50,10,089,*4A
$GLGSV,3,1,09,65,01,213,,71,16,113,10,72,20,164,11,74,34,144,11*6E
$GLGSV,3,2,09,75,76,062,24,76,26,343,17,86,25,343,09,87,32,291,20*69
$GLGSV,3,3,09,88,06,235,*5E
$GNGLL,0420.02052,S,05539.77757,E,051742.00,A,A*63
$GNGRS,051742.00,1,-0.4,1.9,1.9,-3.6,5.1,-11.8,-3.4,-1.1,0.3,,,*6F
$GNGRS,051742.00,1,26.0,-0.8,1.0,9.1,12.6,0.1,,,,,,*79
$GNGST,051742.00,69,,,,6.5,5.7,10*6D
$GNZDA,051742.00,23,05,2025,00,00*7C
$GNGBS,051742.00,6.5,5.7,10.3,,,,*69
$GNTXT,01,01,01,More than 100 frame errors, UART RX was disabled*70
b0L(?j)J(6} %9S6
{4V^:R 
Y
iAGq/HEJ"5KL>LWVW&W #Xb(rmMZ$GNRMC,051743.00,A,0420.02041,S,05539.77743,E,0.104,,230525,,,A*7A
$GNVTG,,T,,M,0.104,N,0.192,K,A*32
$GNGNS,051743.00,0420.02041,S,05539.77743,E,AA,15,0.67,21.9,-47.6,,*6D
$GNGGA,051743.00,0420.02041,S,05539.77743,E,1,12,0.67,21.9,M,-47.6,M,,*40
$GNGSA,A,3,24,20,05,13,15,22,12,18,23,,,,1.31,0.67,1.12*10
$GNGSA,A,3,86,74,75,87,71,72,,,,,,,1.31,0.67,1.12*1F
$GPGSV,5,1,17,05,63,106,16,11,14,023,,12,41,008,24,13,17,147,27*74
$GPGSV,5,2,17,15,29,181,23,18,28,241,26,20,40,054,18,22,12,125,20*77
$GPGSV,5,3,17,23,09,209,20,24,57,221,37,25,18,339,,29,09,310,*7E
$GPGSV,5,4,17,36,52,277,,40,86,350,,41,58,082,,49,32,274,*7D
$GPGSV,5,5,17,50,10,089,*4A
$GLGSV,3,1,09,65,01,213,,71,16,113,14,72,20,164,17,74,34,144,12*6F
$GLGSV,3,2,09,75,76,062,24,76,26,343,18,86,25,343,11,87,32,291,20*6F
$GLGSV,3,3,09,88,06,236,*5D
$GNGLL,0420.02041,S,05539.77743,E,051743.00,A,A*65
$GNGRS,051743.00,1,-0.2,1.5,-0.2,-4.4,5.3,-8.7,-3.8,1.6,-2.2,,,*7B
$GNGRS,051743.00,1,-2.2,-2.0,5.0,9.7,10.7,5.8,,,,,,*66
$GNGST,051743.00,4206216,,,,6.5,5.6,10*57
$GNZDA,051743.00,23,05,2025,00,00*7D
$GNGBS,051743.00,6.5,5.6,10.3,,,,*69
$GNTXT,01,01,01,More than 100 frame errors, UART RX was disabled*70
b0L?j)D(6}@%9S6
{4V^:R 
Y
iAGqH8J")KL>LWVWW #:XpbrqM$GNRMC,051744.00,A,0420.02024,S,05539.77737,E,0.289,,230525,,,A*7B
$GNVTG,,T,,M,0.289,N,0.535,K,A*3D
$GNGNS,051744.00,0420.02024,S,05539.77737,E,AA,15,0.67,21.6,-47.6,,*65
$GNGGA,051744.00,0420.02024,S,05539.77737,E,1,12,0.67,21.6,M,-47.6,M,,*48
$GNGSA,A,3,24,20,05,13,15,22,12,18,23,,,,1.31,0.67,1.12*10
$GNGSA,A,3,86,74,75,87,71,72,,,,,,,1.31,0.67,1.12*1F
$GPGSV,5,1,17,05,63,106,17,11,14,023,,12,41,008,24,13,17,147,26*74
$GPGSV,5,2,17,15,29,181,23,18,28,241,25,20,40,054,16,22,12,125,18*71
$GPGSV,5,3,17,23,09,209,20,24,57,221,37,25,18,339,,29,09,310,*7E
$GPGSV,5,4,17,36,52,277,,40,86,350,,41,58,082,,49,32,274,*7D
$GPGSV,5,5,17,50,10,089,*4A
$GLGSV,3,1,09,65,01,213,,71,16,113,14,72,20,164,13,74,34,144,11*68
$GLGSV,3,2,09,75,76,062,23,76,26,343,17,86,25,343,12,87,32,291,19*6E
$GLGSV,3,3,09,88,06,236,*5D
$GNGLL,0420.02024,S,05539.77737,E,051744.00,A,A*62
$GNGRS,051744.00,1,-0.4,2.5,-0.2,-4.4,6.8,-9.6,-5.4,-0.1,-0.4,,,*54
$GNGRS,051744.00,1,-2.5,-2.1,6.7,10.8,12.1,5.7,,,,,,*5F
$GNGST,051744.00,2975304,,,,6.5,5.6,10*5B
$GNZDA,051744.00,23,05,2025,00,00*7A
$GNGBS,051744.00,6.5,5.6,10.3,,,,*6E
$GNTXT,01,01,01,More than 100 frame errors, UART RX was disabled*70
b0L?j)VQ8(6_}1%9S6
{4V^:R 
Y
iAGq/H;J"\#KL>4LWVW|W #VXbruM^$GNRMC,051745.00,A,0420.02020,S,05539.77735,E,0.204,,230525,,,A*79
$GNVTG,,T,,M,0.204,N,0.378,K,A*37
$GNGNS,051745.00,0420.02020,S,05539.77735,E,AA,15,0.67,21.4,-47.6,,*60
$GNGGA,051745.00,0420.02020,S,05539.77735,E,1,12,0.67,21.4,M,-47.6,M,,*4D
$GNGSA,A,3,24,20,05,13,15,22,12,18,23,,,,1.31,0.67,1.12*10
$GNGSA,A,3,86,74,75,87,71,72,,,,,,,1.31,0.67,1.12*1F
$GPGSV,5,1,17,05,63,106,18,11,14,023,,12,41,008,24,13,17,147,26*7B
$GPGSV,5,2,17,15,29,181,24,18,28,241,25,20,40,054,15,22,12,125,16*7B
$GPGSV,5,3,17,23,09,209,21,24,57,221,37,25,18,339,,29,09,310,*7F
$GPGSV,5,4,17,36,52,277,,40,86,350,,41,58,082,,49,32,274,*7D
$GPGSV,5,5,17,50,10,089,*4A
$GLGSV,3,1,09,65,01,213,,71,16,113,17,72,20,164,14,74,34,144,13*6E
$GLGSV,3,2,09,75,76,062,23,76,26,343,17,86,25,343,12,87,32,291,19*6E
$GLGSV,3,3,09,88,06,236,*5D
$GNGLL,0420.02020,S,05539.77735,E,051745.00,A,A*65
$GNGRS,051745.00,1,-0.6,0.9,0.2,-4.3,3.4,-7.2,-5.3,0.6,-2.9,,,*52
$GNGRS,051745.00,1,-24.4,90.5,8.2,11.1,10.7,8.3,,,,,,*77
$GNGST,051745.00,70,,,,6.4,5.6,10*62
$GNZDA,051745.00,23,05,2025,00,00*7B
$GNGBS,051745.00,6.4,5.6,10.3,,,,*6E
$GNTXT,01,01,01,More than 100 frame errors, UART RX was disabled*70
b0L?j)tW(6}8%9S6
{4V^:R 
Y
ifAGqHLJ"3KL>,LWV
W5W #X|brryM6$GNRMC,051746.00,A,0420.02010,S,05539.77730,E,0.255,,230525,,,A*78
$GNVTG,,T,,M,0.255,N,0.472,K,A*3E
$GNGNS,051746.00,0420.02010,S,05539.77730,E,AA,15,0.67,21.2,-47.6,,*63
$GNGGA,051746.00,0420.02010,S,05539.77730,E,1,12,0.67,21.2,M,-47.6,M,,*4E
$GNGSA,A,3,24,20,05,13,15,22,12,18,23,,,,1.31,0.67,1.12*10
$GNGSA,A,3,86,74,75,87,71,72,,,,,,,1.31,0.67,1.12*1F
$GPGSV,5,1,17,05,63,106,16,11,14,023,,12,41,008,23,13,17,147,26*72
$GPGSV,5,2,17,15,29,181,24,18,28,241,25,20,40,054,17,22,12,125,18*77
$GPGSV,5,3,17,23,09,209,21,24,57,221,37,25,18,339,,29,09,310,*7F
$GPGSV,5,4,17,36,52,277,,40,86,350,,41,58,082,,49,32,274,*7D
$GPGSV,5,5,17,50,10,089,*4A
$GLGSV,3,1,09,65,01,213,,71,16,113,17,72,20,164,13,74,34,144,12*68
$GLGSV,3,2,09,75,76,062,23,76,26,343,18,86,25,343,10,87,32,291,20*69
$GLGSV,3,3,09,88,06,236,*5D
$GNGLL,0420.02010,S,05539.77730,E,051746.00,A,A*60
$GNGRS,051746.00,1,-0.7,-0.5,-0.7,-5.7,3.4,-7.1,-6.5,-0.6,-3.4,,,*7B
$GNGRS,051746.00,1,-2.0,-2.1,8.1,9.4,10.4,5.9,,,,,,*6D
$GNGST,051746.00,4205875,,,,6.4,5.6,10*5F
$GNZDA,051746.00,23,05,2025,00,00*78
$GNGBS,051746.00,6.4,5.6,10.3,,,,*6D
$GNTXT,01,01,01,More than 100 frame errors, UART RX was disabled*70
b0L?j)O[(65}%9S6
{4V^:R 
Y
iyAGqHPJ";KL>LWV
W/W #XbrZ}M$GNRMC,051747.00,A,0420.02007,S,05539.77712,E,0.504,,230525,,,A*7C
$GNVTG,,T,,M,0.504,N,0.933,K,A*35
$GNGNS,051747.00,0420.02007,S,05539.77712,E,AA,15,0.67,20.7,-47.6,,*60
$GNGGA,051747.00,0420.02007,S,05539.77712,E,1,12,0.67,20.7,M,-47.6,M,,*4D
$GNGSA,A,3,24,20,05,13,15,22,12,18,23,,,,1.31,0.67,1.12*10
$GNGSA,A,3,86,74,75,87,71,72,,,,,,,1.31,0.67,1.12*1F
$GPGSV,5,1,17,05,63,106,18,11,14,023,,12,41,008,23,13,17,147,26*7C
$GPGSV,5,2,17,15,29,181,24,18,28,241,25,20,40,054,18,22,12,125,19*79
$GPGSV,5,3,17,23,09,209,21,24,57,221,37,25,18,339,,29,09,310,*7F
$GPGSV,5,4,17,36,52,277,,40,86,350,,41,58,082,,49,32,274,*7D
$GPGSV,5,5,17,50,10,089,*4A
$GLGSV,3,1,09,65,01,213,,71,16,113,15,72,20,164,11,74,34,144,13*69
$GLGSV,3,2,09,75,76,062,23,76,26,343,18,86,25,343,10,87,32,291,21*68
$GLGSV,3,3,09,88,06,236,*5D
$GNGLL,0420.02007,S,05539.77712,E,051747.00,A,A*67
$GNGRS,051747.00,1,-0.8,0.5,2.2,-4.3,3.5,-8.3,-6.0,-0.5,-3.6,,,*7F
$GNGRS,051747.00,1,-2.1,-2.0,9.0,9.0,9.9,5.9,,,,,,*5D
$GNGST,051747.00,4205983,,,,6.4,5.6,10*56
$GNZDA,051747.00,23,05,2025,00,00*79
$GNGBS,051747.00,6.4,5.6,10.2,,,,*6D
$GNTXT,01,01,01,More than 100 frame errors, UART RX was disabled*70
b0L?i)1!5(6}=e%9S6
{4V^:R 
Y
iAGqaHJ"KL>TLWV
WW #XbrBMa$GNRMC,051748.00,A,0420.02010,S,05539.77703,E,0.386,,230525,,,A*79
$GNVTG,,T,,M,0.386,N,0.716,K,A*30
$GNGNS,051748.00,0420.02010,S,05539.77703,E,AA,14,0.69,20.9,-47.6,,*68
$GNGGA,051748.00,0420.02010,S,05539.77703,E,1,12,0.69,20.9,M,-47.6,M,,*44
$GNGSA,A,3,24,20,05,13,15,22,12,18,23,,,,1.33,0.69,1.14*1A
$GNGSA,A,3,86,75,87,71,72,,,,,,,,1.33,0.69,1.14*16
$GPGSV,5,1,17,05,63,105,17,11,14,023,,12,41,008,22,13,17,147,26*71
$GPGSV,5,2,17,15,29,181,23,18,28,241,25,20,40,054,19,22,12,125,21*74
$GPGSV,5,3,17,23,09,209,21,24,57,221,37,25,18,339,,29,09,310,*7F
