b0L1-E/vn%"#$d&/W",Q{4%V_:R 
Y
tDIE!{YFI:?)JK
O+P;JST
BmU
bU
y$cZ#$GNRMC,060411.00,A,0419.84503,S,05539.71959,E,0.270,,280525,,,D*76
$GNVTG,,T,,M,0.270,N,0.499,K,D*39
$GNGNS,060411.00,0419.84503,S,05539.71959,E,DA,14,0.80,12.9,-47.6,,0000*62
$GNGGA,060411.00,0419.84503,S,05539.71959,E,2,12,0.80,12.9,M,-47.6,M,,0000*48
$GNGSA,A,3,24,05,20,15,12,18,25,23,,,,,1.54,0.80,1.32*1D
$GNGSA,A,3,79,80,84,69,73,85,,,,,,,1.54,0.80,1.32*18
$GPGSV,4,1,16,05,49,045,26,12,69,047,31,13,14,118,21,15,37,149,28*71
$GPGSV,4,2,16,18,34,278,11,20,16,035,17,23,36,207,23,24,38,186,25*7B
$GPGSV,4,3,16,25,47,343,22,28,01,300,,29,12,337,12,36,52,277,*7D
$GPGSV,4,4,16,40,86,351,37,41,58,082,,49,32,274,,50,10,089,*7D
$GLGSV,3,1,10,68,14,073,,69,33,123,22,70,14,191,,73,58,319,22*6F
$GLGSV,3,2,10,74,13,331,,79,07,156,08,80,59,165,29,83,04,012,*67
$GLGSV,3,3,10,84,18,322,10,85,10,273,09*60
$GNGLL,0419.84503,S,05539.71959,E,060411.00,A,D*62
$GNGRS,060411.00,1,-13.7,19.4,-6.2,-0.4,7.2,-23.1,18.3,-4.1,,,,*7C
$GNGRS,060411.00,1,20.9,-4.4,11.3,6.0,-4.7,19.3,,,,,,*64
$GNGST,060411.00,4856426,,,,5.1,8.6,14*55
$GNZDA,060411.00,28,05,2025,00,00*70
$GNGBS,060411.00,5.1,8.6,13.6,,,,*63
$GNTXT,01,01,01,More than 100 frame errors, UART RX was disabled*70
b0L1-E/v%"#A$&/Wh,Q6{4V_:R 
Y
tDIE!{FI:?~JK
O5P;YST
CU

DbU
a(c2$GNRMC,060412.00,A,0419.84495,S,05539.71965,E,0.115,,280525,,,D*74
$GNVTG,,T,,M,0.115,N,0.214,K,D*3A
$GNGNS,060412.00,0419.84495,S,05539.71965,E,DA,15,0.94,13.0,-47.6,,0000*6C
$GNGGA,060412.00,0419.84495,S,05539.71965,E,2,12,0.94,13.0,M,-47.6,M,,0000*47
$GNGSA,A,3,24,05,20,15,12,18,29,25,23,,,,1.70,0.94,1.41*11
$GNGSA,A,3,79,80,84,69,73,85,,,,,,,1.70,0.94,1.41*1F
$GPGSV,4,1,16,05,49,045,24,12,69,047,29,13,14,118,19,15,37,149,26*7F
$GPGSV,4,2,16,18,34,278,15,20,16,035,17,23,36,207,22,24,38,186,24*7F
$GPGSV,4,3,16,25,47,343,21,28,01,300,,29,12,337,13,36,52,277,*7F
$GPGSV,4,4,16,40,86,351,29,41,58,082,,49,32,274,,50,10,089,*72
$GLGSV,3,1,10,68,14,073,,69,33,123,20,70,14,191,,73,58,319,21*6E
$GLGSV,3,2,10,74,13,331,,79,07,156,08,80,59,165,27,83,04,012,*69
$GLGSV,3,3,10,84,18,323,10,85,10,273,10*69
$GNGLL,0419.84495,S,05539.71965,E,060412.00,A,D*60
$GNGRS,060412.00,1,-10.2,17.7,-4.5,-0.9,2.8,-23.5,8.2,16.4,-2.8,,,*55
$GNGRS,060412.00,1,138,-1.7,42.7,4.4,-3.9,-127,,,,,,*4F
$GNGST,060412.00,51,,,,5.1,8.6,14*6D
$GNZDA,060412.00,28,05,2025,00,00*73
$GNGBS,060412.00,5.1,8.6,13.5,,,,*63
$GNTXT,01,01,01,More than 100 frame errors, UART RX was disabled*70
b0L1-E/=v%E"<#$2&/Wh,Q{4!V_:R 
Y
tDIE!{2FI:?JK
O
P;STCU
&bU
I,c
$GNRMC,060413.00,A,0419.84493,S,05539.72018,E,0.632,,280525,,,D*71
$GNVTG,,T,,M,0.632,N,1.170,K,D*38
$GNGNS,060413.00,0419.84493,S,05539.72018,E,DA,15,0.79,13.3,-47.6,,0000*6B
$GNGGA,060413.00,0419.84493,S,05539.72018,E,2,12,0.79,13.3,M,-47.6,M,,0000*40
$GNGSA,A,3,24,05,20,15,12,18,29,25,23,,,,1.47,0.79,1.24*15
$GNGSA,A,3,79,80,84,69,73,85,,,,,,,1.47,0.79,1.24*1B
$GPGSV,4,1,16,05,49,045,24,12,69,047,29,13,14,118,18,15,37,149,26*7E
$GPGSV,4,2,16,18,34,278,11,20,16,035,18,23,36,207,20,24,38,186,25*77
$GPGSV,4,3,16,25,47,343,21,28,01,300,,29,12,337,15,36,52,277,*79
$GPGSV,4,4,16,40,86,351,33,41,58,082,,49,32,274,,50,10,089,*79
$GLGSV,3,1,10,68,14,073,,69,33,123,20,70,14,191,,73,58,319,22*6D
$GLGSV,3,2,10,74,13,331,,79,07,156,10,80,59,165,28,83,04,012,*6F
$GLGSV,3,3,10,84,18,323,09,85,10,274,08*6F
$GNGLL,0419.84493,S,05539.72018,E,060413.00,A,D*67
$GNGRS,060413.00,1,-8.0,17.9,-2.8,0.7,5.7,-22.4,4.4,13.8,-2.1,,,*4B
$GNGRS,060413.00,1,20.2,-2.5,12.6,3.1,-3.8,20.2,,,,,,*6B
$GNGST,060413.00,3299293,,,,5.1,8.7,13*57
$GNZDA,060413.00,28,05,2025,00,00*72
$GNGBS,060413.00,5.1,8.7,13.5,,,,*63
$GNTXT,01,01,01,More than 100 frame errors, UART RX was disabled*70
b0L1-E/v%("k#$&/W,Q/{4"V_:R 
Y
tDIE!{~FI:?LJK
OP!;ST
CU
bU
10c[$GNRMC,060414.00,A,0419.84474,S,05539.72041,E,0.627,,280525,,,D*77
$GNVTG,,T,,M,0.627,N,1.160,K,D*3D
$GNGNS,060414.00,0419.84474,S,05539.72041,E,DA,15,0.84,13.0,-47.6,,0000*68
$GNGGA,060414.00,0419.84474,S,05539.72041,E,2,12,0.84,13.0,M,-47.6,M,,0000*43
$GNGSA,A,3,24,05,20,15,12,18,29,25,23,,,,1.37,0.84,1.08*1E
$GNGSA,A,3,79,80,84,69,73,85,,,,,,,1.37,0.84,1.08*10
$GPGSV,4,1,16,05,49,045,23,12,69,047,28,13,14,118,19,15,37,149,27*78
$GPGSV,4,2,16,18,34,278,16,20,16,035,20,23,36,207,18,24,38,186,26*73
$GPGSV,4,3,16,25,47,343,21,28,01,300,,29,12,337,17,36,52,277,*7B
$GPGSV,4,4,16,40,86,351,34,41,58,082,,49,32,274,,50,10,089,*7E
$GLGSV,3,1,10,68,14,073,,69,33,123,21,70,14,191,,73,58,319,23*6D
$GLGSV,3,2,10,74,13,331,,79,07,156,11,80,59,165,33,83,04,012,*64
$GLGSV,3,3,10,84,18,323,10,85,10,274,11*6F
$GNGLL,0419.84474,S,05539.72041,E,060414.00,A,D*65
$GNGRS,060414.00,1,-10.4,19.7,-2.7,0.4,7.9,-22.0,3.0,14.3,-2.6,,,*7D
$GNGRS,060414.00,1,20.2,-3.0,12.4,1.3,-6.9,20.5,,,,,,*69
$GNGST,060414.00,4665903,,,,5.0,8.8,13*5C
$GNZDA,060414.00,28,05,2025,00,00*75
$GNGBS,060414.00,5.0,8.8,13.4,,,,*6B
$GNTXT,01,01,01,More than 100 frame errors, UART RX was disabled*70
b0Lh1-$E/kv|%"#<$&/W,Q{4"V_:R 
Y
tDIE!{FI:?JK
O
P;xSTCU
0-bhU
4c$GNRMC,060415.00,A,0419.84454,S,05539.72065,E,0.514,,280525,,,D*71
$GNVTG,,T,,M,0.514,N,0.952,K,D*36
$GNGNS,060415.00,0419.84454,S,05539.72065,E,DA,15,0.82,13.1,-47.6,,0000*6A
$GNGGA,060415.00,0419.84454,S,05539.72065,E,2,12,0.82,13.1,M,-47.6,M,,0000*41
$GNGSA,A,3,24,05,20,15,12,18,29,25,23,,,,1.62,0.82,1.40*14
$GNGSA,A,3,79,80,84,69,73,85,,,,,,,1.62,0.82,1.40*1A
$GPGSV,4,1,16,05,49,045,21,12,69,047,31,13,14,118,21,15,37,149,31*7E
$GPGSV,4,2,16,18,34,278,15,20,16,035,22,23,36,207,22,24,38,186,26*7B
$GPGSV,4,3,16,25,47,343,22,28,01,300,,29,12,337,17,36,52,277,*78
$GPGSV,4,4,16,40,86,351,34,41,58,082,,49,32,274,,50,10,089,*7E
$GLGSV,3,1,10,68,14,073,,69,33,123,20,70,14,191,,73,58,319,26*69
$GLGSV,3,2,10,74,13,331,,79,07,156,10,80,59,165,31,83,04,012,*67
$GLGSV,3,3,10,84,18,323,15,85,10,274,13*68
$GNGLL,0419.84454,S,05539.72065,E,060415.00,A,D*60
$GNGRS,060415.00,1,-8.5,20.8,-2.0,-3.0,6.2,-13.9,5.0,15.1,-6.0,,,*6A
$GNGRS,060415.00,1,-126,-1.4,-71.6,-0.2,-6.3,36.3,,,,,,*64
$GNGST,060415.00,47,,,,5.0,8.6,13*6B
$GNZDA,060415.00,28,05,2025,00,00*74
$GNGBS,060415.00,5.0,8.6,13.3,,,,*63
$GNTXT,01,01,01,More than 100 frame errors, UART RX was disabled*70
b0LP1-
!E/fv%"i#$&/W,Q{4"V_:R 
Y
tDIE!{FI:?JK
OP;bSTCZU
+&"bPU
8c+$GNRMC,060416.00,A,0419.84436,S,05539.72056,E,0.060,,280525,,,D*70
$GNVTG,,T,,M,0.060,N,0.112,K,D*3C
$GNGNS,060416.00,0419.84436,S,05539.72056,E,DA,14,0.76,13.1,-47.6,,0000*67
$GNGGA,060416.00,0419.84436,S,05539.72056,E,2,12,0.76,13.1,M,-47.6,M,,0000*4D
$GNGSA,A,3,24,05,20,15,12,18,29,25,23,,,,1.46,0.76,1.25*1A
$GNGSA,A,3,79,80,69,73,85,,,,,,,,1.46,0.76,1.25*18
$GPGSV,4,1,16,05,49,045,20,12,69,047,33,13,14,118,24,15,37,149,31*78
$GPGSV,4,2,16,18,34,278,12,20,16,035,22,23,36,207,24,24,38,186,26*7A
$GPGSV,4,3,16,25,47,343,22,28,01,300,,29,12,337,16,36,52,277,*79
$GPGSV,4,4,16,40,86,351,34,41,58,082,,49,32,274,,50,10,089,*7E
$GLGSV,3,1,10,68,14,073,,69,33,123,20,70,14,191,,73,58,319,27*68
$GLGSV,3,2,10,74,13,331,,79,07,156,09,80,59,165,30,83,04,012,*6E
$GLGSV,3,3,10,84,18,323,07,85,10,274,09*60
$GNGLL,0419.84436,S,05539.72056,E,060416.00,A,D*67
$GNGRS,060416.00,1,-6.2,25.6,-3.1,-3.6,3.6,11.3,9.1,12.3,-8.2,,,*4D
$GNGRS,060416.00,1,20.5,3.5,-1.0,-6.2,18.3,,,,,,,*75
$GNGST,060416.00,194870,,,,4.9,8.5,13*63
$GNZDA,060416.00,28,05,2025,00,00*77
$GNGBS,060416.00,4.9,8.5,13.2,,,,*6A
$GNTXT,01,01,01,More than 100 frame errors, UART RX was disabled*70
b0L81-
 E/v%"U#
$&/W,Qi{4"V_:R 
Y
tDIE!{FI:?aJK
OP;ST
CAU
&"b8U
;ci$GNRMC,060417.00,A,0419.84420,S,05539.72070,E,0.052,,280525,,,D*73
$GNVTG,,T,,M,0.052,N,0.096,K,D*30
$GNGNS,060417.00,0419.84420,S,05539.72070,E,DA,15,0.74,13.2,-47.6,,0000*65
$GNGGA,060417.00,0419.84420,S,05539.72070,E,2,12,0.74,13.2,M,-47.6,M,,0000*4E
$GNGSA,A,3,24,05,20,15,12,18,29,25,23,,,,1.44,0.74,1.23*1C
$GNGSA,A,3,79,80,84,69,73,85,,,,,,,1.44,0.74,1.23*12
$GPGSV,4,1,16,05,49,045,21,12,69,047,32,13,14,118,25,15,37,149,31*79
$GPGSV,4,2,16,18,34,278,11,20,16,035,22,23,36,207,26,24,38,186,25*78
$GPGSV,4,3,16,25,47,343,22,28,01,300,,29,12,337,16,36,52,277,*79
$GPGSV,4,4,16,40,86,351,34,41,58,082,29,49,32,274,,50,10,089,*75
$GLGSV,3,1,10,68,14,073,,69,33,123,21,70,14,191,,73,58,319,28*66
$GLGSV,3,2,10,74,13,331,,79,07,156,09,80,59,165,30,83,04,012,*6E
$GLGSV,3,3,10,84,18,323,10,85,10,274,09*66
$GNGLL,0419.84420,S,05539.72070,E,060417.00,A,D*65
$GNGRS,060417.00,1,-6.2,27.0,-2.5,-3.8,4.3,11.1,8.7,9.9,-8.7,,,*71
$GNGRS,060417.00,1,20.7,-0.6,10.9,-0.6,-6.7,18.3,,,,,,*4F
$GNGST,060417.00,3186564,,,,4.9,8.4,13*5B
$GNZDA,060417.00,28,05,2025,00,00*76
$GNGBS,060417.00,4.9,8.4,13.1,,,,*69
$GNTXT,01,01,01,More than 100 frame errors, UART RX was disabled*70
b0L 1-& E/v%S"x#$8&/W,Q{4#V_:R 
Y
tDIE!{wFI:?JK
O
|AP;STC&U

ab U
?cA$GNRMC,060418.00,A,0419.84409,S,05539.72082,E,0.072,,280525,,,D*78
$GNVTG,,T,,M,0.072,N,0.134,K,D*3B
$GNGNS,060418.00,0419.84409,S,05539.72082,E,DA,15,0.94,13.8,-47.6,,0000*68
$GNGGA,060418.00,0419.84409,S,05539.72082,E,2,12,0.94,13.8,M,-47.6,M,,0000*43
$GNGSA,A,3,24,05,20,15,12,18,29,25,23,,,,1.70,0.94,1.41*11
$GNGSA,A,3,79,80,84,69,73,85,,,,,,,1.70,0.94,1.41*1F
$GPGSV,4,1,16,05,49,045,21,12,69,047,32,13,14,118,25,15,37,149,31*79
$GPGSV,4,2,16,18,34,278,12,20,16,035,22,23,36,207,25,24,38,186,27*7A
$GPGSV,4,3,16,25,47,343,23,28,01,300,,29,12,337,15,36,52,277,*7B
$GPGSV,4,4,16,40,86,351,35,41,58,082,30,49,32,274,,50,10,089,*7C
$GLGSV,3,1,10,68,14,073,,69,33,123,21,70,14,191,,73,58,319,27*69
$GLGSV,3,2,10,74,13,331,,79,07,156,10,80,59,165,30,83,04,012,*66
$GLGSV,3,3,10,84,18,323,09,85,10,274,10*66
$GNGLL,0419.84409,S,05539.72082,E,060418.00,A,D*6C
$GNGRS,060418.00,1,-5.8,28.5,-3.7,-1.7,6.8,39.6,7.5,10.2,-7.1,,,*40
$GNGRS,060418.00,1,168,2.7,98.9,1.2,-3.7,-128,,,,,,*65
$GNGST,060418.00,46,,,,4.8,8.3,13*6B
$GNZDA,060418.00,28,05,2025,00,00*79
$GNGBS,060418.00,4.8,8.3,13.0,,,,*61
$GNTXT,01,01,01,More than 100 frame errors, UART RX was disabled*70
b0L1-
 E/v%
"#
$4&/W,Q{4#V_:R 
Y
tDIE!{FI:?OJK
OP;STC}U
NwbU
Cc`$GNRMC,060419.00,A,0419.84388,S,05539.72088,E,0.145,,280525,,,D*78
$GNVTG,,T,,M,0.145,N,0.269,K,D*35
$GNGNS,060419.00,0419.84388,S,05539.72088,E,DA,15,0.74,13.7,-47.6,,0000*6C
$GNGGA,060419.00,0419.84388,S,05539.72088,E,2,12,0.74,13.7,M,-47.6,M,,0000*47
$GNGSA,A,3,24,05,20,15,12,18,29,25,23,,,,1.44,0.74,1.23*1C
$GNGSA,A,3,79,80,84,69,73,85,,,,,,,1.44,0.74,1.23*12
$GPGSV,4,1,16,05,49,045,23,12,69,047,32,13,14,118,23,15,37,149,31*7D
$GPGSV,4,2,16,18,34,278,10,20,16,035,21,23,36,207,26,24,38,186,28*77
$GPGSV,4,3,16,25,47,343,20,28,01,300,,29,12,337,17,36,52,277,*7A
$GPGSV,4,4,16,40,86,351,35,41,58,082,30,49,32,274,,50,10,089,*7C
$GLGSV,3,1,10,68,14,073,,69,33,123,21,70,14,191,,73,58,319,27*69
$GLGSV,3,2,10,74,13,331,,79,07,156,08,80,59,165,31,83,04,012,*6E
$GLGSV,3,3,10,84,18,323,09,85,10,274,12*64
$GNGLL,0419.84388,S,05539.72088,E,060419.00,A,D*69
$GNGRS,060419.00,1,-6.2,27.9,-2.5,-5.2,2.7,11.8,7.5,12.0,-9.7,,,*4E
$GNGRS,060419.00,1,20.5,1.4,11.5,-0.4,-4.3,18.7,,,,,,*60
$GNGST,060419.00,3183644,,,,4.8,8.2,13*56
$GNZDA,060419.00,28,05,2025,00,00*78
$GNGBS,060419.00,4.8,8.2,13.0,,,,*61
$GNTXT,01,01,01,More than 100 frame errors, UART RX was disabled*70
b0L1-
 E/vT%"#^$&/W,Q{4#V_:R 
Y
tDIE!{8FI:?JK
OP;"ST
CzU
mDbU
Gc$GNRMC,060420.00,A,0419.84370,S,05539.72108,E,0.121,,280525,,,D*7E
$GNVTG,,T,,M,0.121,N,0.225,K,D*3F
$GNGNS,060420.00,0419.84370,S,05539.72108,E,DA,15,0.74,13.7,-47.6,,0000*68
$GNGGA,060420.00,0419.84370,S,05539.72108,E,2,12,0.74,13.7,M,-47.6,M,,0000*43
$GNGSA,A,3,24,05,20,15,12,18,29,25,23,,,,1.44,0.74,1.23*1C
$GNGSA,A,3,79,80,84,69,73,85,,,,,,,1.44,0.74,1.23*12
$GPGSV,4,1,16,05,49,045,23,12,69,047,32,13,14,118,21,15,37,149,31*7F
$GPGSV,4,2,16,18,34,278,13,20,16,035,21,23,36,207,27,24,38,186,29*74
$GPGSV,4,3,16,25,47,343,20,28,01,300,,29,12,337,17,36,52,277,*7A
$GPGSV,4,4,16,40,86,351,35,41,58,082,30,49,32,274,,50,10,089,*7C
$GLGSV,3,1,10,68,14,073,,69,33,123,19,70,14,191,,73,58,319,25*60
$GLGSV,3,2,10,74,13,331,,79,07,156,08,80,59,165,30,83,04,012,*6F
$GLGSV,3,3,10,84,18,323,10,85,10,274,11*6F
$GNGLL,0419.84370,S,05539.72108,E,060420.00,A,D*6D
$GNGRS,060420.00,1,-8.0,26.9,-1.6,-0.7,4.4,11.7,7.2,11.7,-8.5,,,*43
$GNGRS,060420.00,1,20.6,0.3,11.5,0.6,-5.8,19.0,,,,,,*4C
$GNGST,060420.00,4496179,,,,4.7,8.1,13*5F
$GNZDA,060420.00,28,05,2025,00,00*72
$GNGBS,060420.00,4.7,8.1,12.9,,,,*6F
$GNTXT,01,01,01,More than 100 frame errors, UART RX was disabled*70
b0L1,w
E/v%@"6#$&3/W,Q{4#V_:R 
Y
tDIE!{rFI:?JK
OG*P;ST
CbU
!bU
Kc!$GNRMC,060421.00,A,0419.84351,S,05539.72133,E,0.192,,280525,,,D*7C
$GNVTG,,T,,M,0.192,N,0.356,K,D*32
$GNGNS,060421.00,0419.84351,S,05539.72133,E,DA,14,0.79,13.7,-47.6,,0000*6E
$GNGGA,060421.00,0419.84351,S,05539.72133,E,2,12,0.79,13.7,M,-47.6,M,,0000*44
$GNGSA,A,3,24,05,20,15,12,18,29,25,23,,,,1.56,0.79,1.34*14
$GNGSA,A,3,80,84,69,73,85,,,,,,,,1.56,0.79,1.34*14
$GPGSV,4,1,16,05,49,044,22,12,69,047,30,13,14,118,18,15,37,149,30*76
$GPGSV,4,2,16,18,34,278,15,20,16,035,22,23,36,207,28,24,38,186,28*7F
$GPGSV,4,3,16,25,47,343,19,28,01,300,,29,12,337,17,36,52,277,*70
$GPGSV,4,4,16,40,86,351,35,41,58,082,31,49,32,274,,50,10,089,*7D
$GLGSV,3,1,10,68,14,073,,69,33,123,17,70,14,191,,73,58,319,24*6F
$GLGSV,3,2,10,74,13,331,,79,07,156,07,80,59,165,31,83,04,012,*61
$GLGSV,3,3,10,84,18,323,10,85,10,274,13*6D
$GNGLL,0419.84351,S,05539.72133,E,060421.00,A,D*67
$GNGRS,060421.00,1,-9.7,26.8,0.1,-4.5,4.8,0.5,4.5,9.1,-10.5,,,*54
$GNGRS,060421.00,1,-3.6,3.5,1.1,-5.9,86.7,,,,,,,*49
$GNGST,060421.00,55,,,,4.7,8.0,13*6F
$GNZDA,060421.00,28,05,2025,00,00*73
$GNGBS,060421.00,4.7,8.0,12.8,,,,*6E
$GNTXT,01,01,01,More than 100 frame errors, UART RX was disabled*70
b0L1,~E/Gv%["#$&/W,Q{4#V_:R 
Y
tDIE!{hFI:?JK
O#P;STCU
GnbU
qOc$GNRMC,060422.00,A,0419.84341,S,05539.72161,E,0.178,,280525,,,D*7D
$GNVTG,,T,,M,0.178,N,0.329,K,D*3E
$GNGNS,060422.00,0419.84341,S,05539.72161,E,DA,15,0.74,14.3,-47.6,,0000*64
$GNGGA,060422.00,0419.84341,S,05539.72161,E,2,12,0.74,14.3,M,-47.6,M,,0000*4F
$GNGSA,A,3,24,05,20,15,12,18,29,25,23,,,,1.44,0.74,1.23*1C
$GNGSA,A,3,79,80,84,69,73,85,,,,,,,1.44,0.74,1.23*12
$GPGSV,4,1,16,05,49,044,25,12,69,047,30,13,14,118,17,15,37,149,31*7F
$GPGSV,4,2,16,18,34,278,17,20,16,035,24,23,36,207,31,24,38,186,28*73
$GPGSV,4,3,16,25,47,343,18,28,01,300,,29,12,337,15,36,52,277,*73
$GPGSV,4,4,16,40,86,351,35,41,58,082,30,49,32,274,,50,10,089,*7C
$GLGSV,3,1,10,68,14,073,,69,33,123,20,70,14,191,,73,58,319,22*6D
$GLGSV,3,2,10,74,13,331,,79,07,156,12,80,59,165,30,83,04,012,*64
$GLGSV,3,3,10,84,18,323,13,85,10,274,08*64
$GNGLL,0419.84341,S,05539.72161,E,060422.00,A,D*62
$GNGRS,060422.00,1,-10.7,24.3,-2.7,-1.6,8.4,12.2,2.3,7.9,-8.8,,,*4F
$GNGRS,060422.00,1,20.8,-3.7,12.2,1.0,-5.1,19.6,,,,,,*66
$GNGST,060422.00,3183126,,,,4.6,7.9,13*57
$GNZDA,060422.00,28,05,2025,00,00*70
$GNGBS,060422.00,4.6,7.9,12.7,,,,*65
$GNTXT,01,01,01,More than 100 frame errors, UART RX was disabled*70
b0L1,)E/[v%1"#]$&/W,Q{4$V_:R 
Y
tDIE!{FI:?JK
OAP;STCU
bU
YScx$GNRMC,060423.00,A,0419.84338,S,05539.72179,E,0.128,,280525,,,D*7E
$GNVTG,,T,,M,0.128,N,0.238,K,D*3A
$GNGNS,060423.00,0419.84338,S,05539.72179,E,DA,15,0.74,14.8,-47.6,,0000*69
$GNGGA,060423.00,0419.84338,S,05539.72179,E,2,12,0.74,14.8,M,-47.6,M,,0000*42
$GNGSA,A,3,24,05,20,15,12,18,29,25,23,,,,1.44,0.74,1.23*1C
$GNGSA,A,3,79,80,84,69,73,85,,,,,,,1.44,0.74,1.23*12
$GPGSV,4,1,16,05,49,044,26,12,69,047,30,13,14,118,18,15,37,149,30*72
$GPGSV,4,2,16,18,34,278,15,20,16,035,24,23,36,207,30,24,38,186,28*70
$GPGSV,4,3,16,25,47,343,17,28,01,300,,29,12,337,15,36,52,277,*7C
$GPGSV,4,4,16,40,86,351,36,41,58,082,29,49,32,274,,50,10,089,*77
$GLGSV,3,1,10,68,14,073,,69,33,123,19,70,14,191,,73,58,319,20*65
$GLGSV,3,2,10,74,13,331,,79,07,156,08,80,59,165,30,83,04,012,*6F
$GLGSV,3,3,10,84,18,323,12,85,10,274,08*65
$GNGLL,0419.84338,S,05539.72179,E,060423.00,A,D*64
$GNGRS,060423.00,1,-8.6,23.4,-4.2,3.1,8.6,12.5,-1.2,9.1,0.1,,,*5D
$GNGRS,060423.00,1,21.1,-1.3,12.6,-0.5,-6.3,20.2,,,,,,*4B
$GNGST,060423.00,3187930,,,,4.6,7.8,13*5C
$GNZDA,060423.00,28,05,2025,00,00*71
$GNGBS,060423.00,4.6,7.8,12.7,,,,*65
$GNTXT,01,01,01,More than 100 frame errors, UART RX was disabled*70
b0L1,E/;v%"#$&/W,Q{4$V_:R 
Y
tDIE!{FI:?JK
OP;>STCU
?6bU
AWcPY$GNRMC,060424.00,A,0419.84323,S,05539.72188,E,0.105,,280525,,,D*72
$GNVTG,,T,,M,0.105,N,0.194,K,D*30
$GNGNS,060424.00,0419.84323,S,05539.72188,E,DA,15,0.79,15.1,-47.6,,0000*6F
$GNGGA,060424.00,0419.84323,S,05539.72188,E,2,12,0.79,15.1,M,-47.6,M,,0000*44
$GNGSA,A,3,24,05,20,15,12,18,29,25,23,,,,1.47,0.79,1.24*15
$GNGSA,A,3,79,80,84,69,73,85,,,,,,,1.47,0.79,1.24*1B
$GPGSV,4,1,16,05,49,044,26,12,69,047,30,13,14,118,20,15,37,149,30*79
$GPGSV,4,2,16,18,34,278,15,20,16,035,23,23,36,207,30,24,38,186,27*78
$GPGSV,4,3,16,25,47,343,15,28,01,300,,29,12,337,16,36,52,277,*7D
$GPGSV,4,4,16,40,86,351,36,41,58,082,29,49,32,274,,50,10,089,*77
$GLGSV,3,1,10,68,14,073,,69,33,123,17,70,14,191,,73,58,319,18*60
$GLGSV,3,2,10,74,13,331,,79,07,156,08,80,59,165,31,83,04,012,*6E
$GLGSV,3,3,10,84,18,323,09,85,10,274,08*6F
$GNGLL,0419.84323,S,05539.72188,E,060424.00,A,D*67
$GNGRS,060424.00,1,-8.1,24.6,-5.6,-0.4,13.4,-33.6,-2.9,15.0,-0.5,,,*7E
$GNGRS,060424.00,1,-44.6,-1.9,10.1,-1.2,-10.0,15.0,,,,,,*5C
$GNGST,060424.00,65,,,,4.6,7.8,13*6F
$GNZDA,060424.00,28,05,2025,00,00*76
$GNGBS,060424.00,4.6,7.8,12.6,,,,*63
$GNTXT,01,01,01,More than 100 frame errors, UART RX was disabled*70
b0Lx1, E0v2%"#$&/Wr,Q+{4$V_:R 
Y
tDIE!{FI:?JK
O
P ;8STCU
fbxU
)[c($GNRMC,060425.00,A,0419.84305,S,05539.72201,E,0.127,,280525,,,D*75
$GNVTG,,T,,M,0.127,N,0.235,K,D*38
$GNGNS,060425.00,0419.84305,S,05539.72201,E,DA,15,0.74,15.2,-47.6,,0000*66
$GNGGA,060425.00,0419.84305,S,05539.72201,E,2,12,0.74,15.2,M,-47.6,M,,0000*4D
$GNGSA,A,3,24,05,20,15,12,18,29,25,23,,,,1.44,0.74,1.23*1C
$GNGSA,A,3,79,80,84,69,73,85,,,,,,,1.44,0.74,1.23*12
$GPGSV,4,1,16,05,49,044,26,12,69,048,29,13,14,118,20,15,37,149,30*7E
$GPGSV,4,2,16,18,34,278,18,20,16,035,24,23,36,207,30,24,38,186,27*72
$GPGSV,4,3,16,25,47,343,13,28,01,300,,29,12,337,14,36,52,277,*79
$GPGSV,4,4,16,40,86,351,36,41,58,082,30,49,32,274,,50,10,089,*7F
$GLGSV,3,1,10,68,14,073,,69,33,123,17,70,14,191,,73,58,319,19*61
$GLGSV,3,2,10,74,13,331,,79,07,156,10,80,59,165,32,83,04,012,*64
$GLGSV,3,3,10,84,18,323,15,85,10,274,08*62
$GNGLL,0419.84305,S,05539.72201,E,060425.00,A,D*60
$GNGRS,060425.00,1,-7.5,20.8,-5.4,1.8,9.8,10.2,-2.1,16.5,-7.5,,,*4A
$GNGRS,060425.00,1,20.5,0.6,11.6,-0.5,-11.4,18.9,,,,,,*53
$GNGST,060425.00,63130,,,,4.6,7.7,13*55
$GNZDA,060425.00,28,05,2025,00,00*77
$GNGBS,060425.00,4.6,7.7,12.6,,,,*6D
$GNTXT,01,01,01,More than 100 frame errors, UART RX was disabled*70
b0L`1,hE0{vx%"r#M$&C/W,Q{4%V_:R 
Y
tDIE!{FI:?YJK
OP ;nSTCnU
aPb`U
_c7$GNRMC,060426.00,A,0419.84293,S,05539.72209,E,0.197,,280525,,,D*7B
$GNVTG,,T,,M,0.197,N,0.365,K,D*37
$GNGNS,060426.00,0419.84293,S,05539.72209,E,DA,15,0.74,15.2,-47.6,,0000*63
$GNGGA,060426.00,0419.84293,S,05539.72209,E,2,12,0.74,15.2,M,-47.6,M,,0000*48
$GNGSA,A,3,24,05,20,15,12,18,29,25,23,,,,1.44,0.74,1.23*1C
$GNGSA,A,3,79,80,84,69,73,85,,,,,,,1.44,0.74,1.23*12
$GPGSV,4,1,16,05,49,044,26,12,69,048,30,13,14,118,20,15,37,149,30*76
$GPGSV,4,2,16,18,34,278,19,20,16,035,25,23,36,207,31,24,38,186,26*72
$GPGSV,4,3,16,25,47,343,15,28,01,300,,29,12,337,13,36,52,277,*78
$GPGSV,4,4,16,40,86,351,37,41,58,082,29,49,32,274,,50,10,089,*76
$GLGSV,3,1,10,68,14,073,,69,33,123,17,70,14,191,,73,58,319,24*6F
$GLGSV,3,2,10,74,13,331,,79,07,156,08,80,59,165,32,83,04,012,*6D
$GLGSV,3,3,10,84,18,323,12,85,10,274,09*64
$GNGLL,0419.84293,S,05539.72209,E,060426.00,A,D*65
$GNGRS,060426.00,1,-4.5,19.0,-4.3,2.7,3.8,8.8,1.6,13.0,-7.8,,,*5F
$GNGRS,060426.00,1,20.5,3.7,11.3,-2.6,-11.9,18.9,,,,,,*5B
$GNGST,060426.00,94694,,,,4.5,7.6,12*54
$GNZDA,060426.00,28,05,2025,00,00*74
$GNGBS,060426.00,4.5,7.6,12.5,,,,*6F
$GNTXT,01,01,01,More than 100 frame errors, UART RX was disabled*70
b0LH1,_E0v %D"#$&/W,Qc{4%V_:R 
Y
tDIE!{^FI:?-JK
OP;STCcU
JbHU
bc$GNRMC,060427.00,A,0419.84286,S,05539.72223,E,0.081,,280525,,,D*70
$GNVTG,,T,,M,0.081,N,0.150,K,D*35
$GNGNS,060427.00,0419.84286,S,05539.72223,E,DA,15,0.79,15.7,-47.6,,0000*66
$GNGGA,060427.00,0419.84286,S,05539.72223,E,2,12,0.79,15.7,M,-47.6,M,,0000*4D
$GNGSA,A,3,24,05,20,15,12,18,29,25,23,,,,1.56,0.79,1.34*14
$GNGSA,A,3,79,80,84,69,73,85,,,,,,,1.56,0.79,1.34*1A
$GPGSV,4,1,16,05,49,044,26,12,69,048,31,13,14,118,19,15,37,149,32*7F
$GPGSV,4,2,16,18,34,278,20,20,16,035,23,23,36,207,30,24,38,186,26*7F
$GPGSV,4,3,16,25,47,343,16,28,01,300,,29,12,337,15,36,52,277,*7D
$GPGSV,4,4,16,40,86,351,37,41,58,082,30,49,32,274,,50,10,089,*7E
$GLGSV,3,1,10,68,14,073,,69,33,123,17,70,14,191,,73,58,319,24*6F
$GLGSV,3,2,10,74,13,331,,79,07,156,09,80,59,165,30,83,04,012,*6E
$GLGSV,3,3,10,84,18,323,08,85,10,274,09*6F
$GNGLL,0419.84286,S,05539.72223,E,060427.00,A,D*68
$GNGRS,060427.00,1,-6.2,16.3,-2.5,0.7,2.8,6.9,1.0,13.0,-11.3,,,*61
$GNGRS,060427.00,1,63.2,6.5,18.9,-1.6,-12.3,35.0,,,,,,*52
$GNGST,060427.00,56,,,,4.5,7.4,12*62
$GNZDA,060427.00,28,05,2025,00,00*75
$GNGBS,060427.00,4.5,7.4,12.4,,,,*6D
$GNTXT,01,01,01,More than 100 frame errors, UART RX was disabled*70
b0L01, E0iv&%"#$&/W^,Q~{4$V_:R 
Y
tDIE!{PFI:?JK
OP;STCU
b0U
fc$GNRMC,060428.00,A,0419.84278,S,05539.72238,E,0.033,,280525,,,D*7D
$GNVTG,,T,,M,0.033,N,0.062,K,D*3C
$GNGNS,060428.00,0419.84278,S,05539.72238,E,DA,15,0.74,16.0,-47.6,,0000*6B
$GNGGA,060428.00,0419.84278,S,05539.72238,E,2,12,0.74,16.0,M,-47.6,M,,0000*40
$GNGSA,A,3,24,05,20,15,12,18,29,25,23,,,,1.44,0.74,1.23*1C
$GNGSA,A,3,79,80,84,69,73,85,,,,,,,1.44,0.74,1.23*12
$GPGSV,4,1,16,05,49,044,26,12,69,048,32,13,14,118,17,15,37,149,31*71
$GPGSV,4,2,16,18,34,278,18,20,16,035,22,23,36,207,30,24,38,186,26*75
$GPGSV,4,3,16,25,47,343,18,28,01,300,,29,12,337,12,36,52,277,*74
$GPGSV,4,4,16,40,86,351,36,41,58,082,31,49,32,274,,50,10,089,*7E
$GLGSV,3,1,10,68,14,073,,69,33,123,19,70,14,191,,73,58,319,25*60
$GLGSV,3,2,10,74,13,331,,79,07,156,07,80,59,165,31,83,04,012,*61
$GLGSV,3,3,10,84,18,323,09,85,10,274,11*67
$GNGLL,0419.84278,S,05539.72238,E,060428.00,A,D*6C
$GNGRS,060428.00,1,-6.2,14.2,-3.1,5.0,1.0,7.3,1.3,16.3,-12.9,,,*66
$GNGRS,060428.00,1,20.6,7.0,12.0,-1.8,-13.4,19.3,,,,,,*5C
$GNGST,060428.00,206860,,,,4.5,7.3,12*63
$GNZDA,060428.00,28,05,2025,00,00*7A
$GNGBS,060428.00,4.5,7.3,12.4,,,,*65
$GNTXT,01,01,01,More than 100 frame errors, UART RX was disabled*70
b0L1,!E0nu %%"#M$N&/W,Q{4$V_:R 
Y
tDIE!{FI:?JK
OP;ST
CU
bU
jcl$GNRMC,060429.00,A,0419.84274,S,05539.72244,E,0.058,,280525,,,D*76
$GNVTG,,T,,M,0.058,N,0.107,K,D*33
$GNGNS,060429.00,0419.84274,S,05539.72244,E,DA,15,0.74,16.0,-47.6,,0000*6D
$GNGGA,060429.00,0419.84274,S,05539.72244,E,2,12,0.74,16.0,M,-47.6,M,,0000*46
$GNGSA,A,3,24,05,20,15,12,18,29,25,23,,,,1.44,0.74,1.23*1C
$GNGSA,A,3,79,80,84,69,73,85,,,,,,,1.44,0.74,1.23*12
$GPGSV,4,1,16,05,49,044,25,12,69,048,33,13,14,117,14,15,37,149,32*7C
$GPGSV,4,2,16,18,34,278,19,20,16,035,21,23,36,207,29,24,38,186,26*7F
$GPGSV,4,3,16,25,47,343,19,28,01,300,,29,12,337,11,36,52,277,*76
$GPGSV,4,4,16,40,86,351,36,41,58,082,31,49,32,274,,50,10,089,*7E
$GLGSV,3,1,10,68,14,073,,69,33,123,20,70,14,191,,73,58,319,24*6B
$GLGSV,3,2,10,74,13,331,,79,07,156,12,80,59,165,30,83,04,012,*64
$GLGSV,3,3,10,84,18,323,10,85,10,274,15*6B
$GNGLL,0419.84274,S,05539.72244,E,060429.00,A,D*6A
$GNGRS,060429.00,1,-5.1,14.9,-4.3,0.4,-1.5,7.4,1.3,14.9,-6.9,,,*7A
$GNGRS,060429.00,1,20.5,10.5,12.1,-1.2,-14.0,19.5,,,,,,*63
$GNGST,060429.00,3182378,,,,4.4,7.2,12*5C
$GNZDA,060429.00,28,05,2025,00,00*7B
$GNGBS,060429.00,4.4,7.2,12.3,,,,*63
$GNTXT,01,01,01,More than 100 frame errors, UART RX was disabled*70
b0L1,!E0u %C"#$8&/Ws,Q{4$V_:R 
Y
tDIE!{FI:?YJK
OP;STCU
fbU
nc`$GNRMC,060430.00,A,0419.84275,S,05539.72249,E,0.068,,280525,,,D*71
$GNVTG,,T,,M,0.068,N,0.125,K,D*30
$GNGNS,060430.00,0419.84275,S,05539.72249,E,DA,13,0.82,15.9,-47.6,,0000*6C
$GNGGA,060430.00,0419.84275,S,05539.72249,E,2,12,0.82,15.9,M,-47.6,M,,0000*41
$GNGSA,A,3,24,05,20,15,12,18,29,25,23,,,,1.62,0.82,1.40*14
$GNGSA,A,3,80,84,69,73,,,,,,,,,1.62,0.82,1.40*19
$GPGSV,4,1,16,05,49,044,25,12,69,048,33,13,14,117,,15,37,149,32*79
$GPGSV,4,2,16,18,34,278,18,20,16,035,21,23,36,207,28,24,38,186,25*7C
$GPGSV,4,3,16,25,47,343,21,28,01,300,,29,12,337,08,36,52,277,*75
$GPGSV,4,4,16,40,86,351,36,41,58,082,31,49,32,274,,50,10,089,*7E
$GLGSV,3,1,10,68,14,073,,69,33,123,19,70,14,191,,73,58,319,23*66
$GLGSV,3,2,10,74,13,331,,79,07,156,08,80,59,165,29,83,04,012,*67
$GLGSV,3,3,10,84,18,323,13,85,10,274,06*6A
$GNGLL,0419.84275,S,05539.72249,E,060430.00,A,D*6E
$GNGRS,060430.00,1,-3.3,14.2,-2.8,3.2,-2.3,10.1,-18.3,14.0,0.6,,,*7B
$GNGRS,060430.00,1,9.3,48.3,-0.1,-14.5,,,,,,,,*55
$GNGST,060430.00,51,,,,4.4,7.2,12*64
$GNZDA,060430.00,28,05,2025,00,00*73
$GNGBS,060430.00,4.4,7.2,12.3,,,,*6B
$GNTXT,01,01,01,More than 100 frame errors, UART RX was disabled*70
b0L1,!E06u %a"#D$s&i/W,Q{4%V_:R 
Y
tDIE!{qFI:?JK
OP;STCU
_1bU
rc7-$GNRMC,060431.00,A,0419.84275,S,05539.72254,E,0.145,,280525,,,D*72
$GNVTG,,T,,M,0.145,N,0.268,K,D*34
$GNGNS,060431.00,0419.84275,S,05539.72254,E,DA,13,0.81,15.7,-47.6,,0000*6C
$GNGGA,060431.00,0419.84275,S,05539.72254,E,2,12,0.81,15.7,M,-47.6,M,,0000*41
$GNGSA,A,3,24,05,20,15,12,18,29,25,23,,,,1.69,0.81,1.49*15
$GNGSA,A,3,80,84,69,73,,,,,,,,,1.69,0.81,1.49*18
$GPGSV,4,1,16,05,49,044,25,12,69,048,33,13,14,117,,15,37,149,32*79
$GPGSV,4,2,16,18,34,278,17,20,16,035,21,23,36,207,29,24,38,186,24*73
$GPGSV,4,3,16,25,47,343,22,28,01,300,,29,12,337,12,36,52,277,*7D
$GPGSV,4,4,16,40,86,351,37,41,58,082,31,49,32,274,,50,10,089,*7F
$GLGSV,3,1,10,68,14,073,,69,33,123,15,70,14,191,,73,58,319,21*68
$GLGSV,3,2,10,74,13,331,,79,07,156,08,80,59,165,30,83,04,012,*6F
$GLGSV,3,3,10,84,18,323,09,85,10,274,07*60
$GNGLL,0419.84275,S,05539.72254,E,060431.00,A,D*63
$GNGRS,060431.00,1,-1.5,15.6,-1.9,1.0,-4.6,9.2,28.4,13.1,-1.4,,,*40
$GNGRS,060431.00,1,7.8,11.7,1.1,-15.9,,,,,,,,*78
$GNGST,060431.00,3434011,,,,4.4,7.1,12*52
$GNZDA,060431.00,28,05,2025,00,00*72
$GNGBS,060431.00,4.4,7.1,12.3,,,,*69
$GNTXT,01,01,01,More than 100 frame errors, UART RX was disabled*70
b0L1,z!E0u %" #^$&/W,Q
{4$V_:R 
Y
tDIE!{~FI:?FJK
OP;STCkU
bU
vc$GNRMC,060432.00,A,0419.84266,S,05539.72248,E,0.220,,280525,,,D*7E
$GNVTG,,T,,M,0.220,N,0.407,K,D*3B
$GNGNS,060432.00,0419.84266,S,05539.72248,E,DA,12,0.88,15.5,-47.6,,0000*6A
$GNGGA,060432.00,0419.84266,S,05539.72248,E,2,12,0.88,15.5,M,-47.6,M,,0000*46
$GNGSA,A,3,24,05,20,15,12,18,29,25,23,,,,1.76,0.88,1.53*19
$GNGSA,A,3,80,84,73,,,,,,,,,,1.76,0.88,1.53*1B
$GPGSV,4,1,16,05,49,044,26,12,69,048,33,13,14,117,,15,37,149,32*7A
$GPGSV,4,2,16,18,34,278,15,20,16,035,22,23,36,207,27,24,38,186,21*79
$GPGSV,4,3,16,25,47,343,22,28,01,300,,29,12,337,14,36,52,277,*7B
$GPGSV,4,4,16,40,86,351,36,41,58,082,31,49,32,274,,50,10,089,*7E
$GLGSV,3,1,10,68,14,073,,69,33,123,13,70,14,191,,73,58,319,20*6F
$GLGSV,3,2,10,74,13,331,,79,07,156,07,80,59,165,30,83,04,012,*60
$GLGSV,3,3,10,84,18,323,15,85,10,274,08*62
$GNGLL,0419.84266,S,05539.72248,E,060432.00,A,D*6F
$GNGRS,060432.00,1,0.3,14.0,-4.2,-2.6,-5.9,8.0,27.7,14.4,-3.7,,,*4A
$GNGRS,060432.00,1,5.0,11.3,-14.7,,,,,,,,,*54
$GNGST,060432.00,3586708,,,,4.4,7.1,12*56
$GNZDA,060432.00,28,05,2025,00,00*71
$GNGBS,060432.00,4.4,7.1,12.3,69,,-6.2,77.2*7E
$GNTXT,01,01,01,More than 100 frame errors, UART RX was disabled*70
b0L1,T$E0u%"#$&/W-,Q2{4%V_:R 
Y
tDIE
!{<FI:?JK
O$P;ST
CU

UbU
izc$GNRMC,060433.00,A,0419.84267,S,05539.72247,E,0.119,,280525,,,D*78
$GNVTG,,T,,M,0.119,N,0.220,K,D*31
$GNGNS,060433.00,0419.84267,S,05539.72247,E,DA,14,0.91,14.9,-47.6,,0000*66
$GNGGA,060433.00,0419.84267,S,05539.72247,E,2,12,0.91,14.9,M,-47.6,M,,0000*4C
$GNGSA,A,3,24,05,20,15,12,29,25,23,,,,,1.46,0.91,1.14*18
$GNGSA,A,3,79,80,84,69,73,85,,,,,,,1.46,0.91,1.14*1F
$GPGSV,4,1,16,05,49,044,26,12,69,048,36,13,14,117,,15,37,149,31*7C
$GPGSV,4,2,16,18,34,278,,20,16,035,22,23,36,207,25,24,38,186,20*7E
$GPGSV,4,3,16,25,47,343,21,28,01,300,,29,12,337,12,36,52,277,*7E
$GPGSV,4,4,16,40,86,351,37,41,58,082,30,49,32,274,,50,10,089,*7E
$GLGSV,3,1,10,68,14,073,,69,33,123,10,70,14,191,,73,58,319,19*66
$GLGSV,3,2,10,74,13,331,,79,07,156,08,80,59,165,29,83,04,012,*67
$GLGSV,3,3,10,84,18,323,10,85,10,274,10*6E
$GNGLL,0419.84267,S,05539.72247,E,060433.00,A,D*60
$GNGRS,060433.00,1,0.0,13.6,-3.0,0.2,-6.0,0.5,15.8,0.1,,,,*59
$GNGRS,060433.00,1,-17.6,4.7,59.2,10.8,-13.8,32.1,,,,,,*6C
$GNGST,060433.00,65,,,,4.4,7.1,12*63
$GNZDA,060433.00,28,05,2025,00,00*70
$GNGBS,060433.00,4.4,7.1,12.2,,,,*6A
$GNTXT,01,01,01,More than 100 frame errors, UART RX was disabled*70
b0L1,w$E0u%Q"#)$w&/W,
Q{4%V_:R 
Y
tDIE!{FI:?JK
OP;STCU
abU
Q~ce$GNRMC,060434.00,A,0419.84270,S,05539.72244,E,0.107,,280525,,,D*75
$GNVTG,,T,,M,0.107,N,0.197,K,D*31
$GNGNS,060434.00,0419.84270,S,05539.72244,E,DA,14,0.90,14.3,-47.6,,0000*6F
$GNGGA,060434.00,0419.84270,S,05539.72244,E,2,12,0.90,14.3,M,-47.6,M,,0000*45
$GNGSA,A,3,24,05,20,15,12,29,25,23,,,,,1.75,0.90,1.50*19
$GNGSA,A,3,79,80,84,69,73,85,,,,,,,1.75,0.90,1.50*1E
$GPGSV,4,1,16,05,49,044,25,12,69,048,36,13,14,117,,15,37,149,31*7F
$GPGSV,4,2,16,18,34,279,18,20,16,035,22,23,36,207,28,24,38,186,22*79
$GPGSV,4,3,16,25,47,343,21,28,01,300,,29,12,337,10,36,52,277,*7C
$GPGSV,4,4,16,40,86,351,37,41,58,082,29,49,32,274,,50,10,089,*76
$GLGSV,3,1,10,68,14,073,,69,33,123,16,70,14,191,,73,58,319,17*6E
$GLGSV,3,2,10,74,13,331,,79,07,156,11,80,59,165,28,83,04,012,*6E
$GLGSV,3,3,10,84,18,323,11,85,10,274,12*6D
$GNGLL,0419.84270,S,05539.72244,E,060434.00,A,D*62
$GNGRS,060434.00,1,0.1,16.6,-2.2,5.9,-5.9,28.4,14.8,3.7,,,,*62
$GNGRS,060434.00,1,20.2,5.2,11.5,10.5,-13.5,30.6,,,,,,*4C
$GNGST,060434.00,3587847,,,,4.4,7.2,12*56
$GNZDA,060434.00,28,05,2025,00,00*77
$GNGBS,060434.00,4.4,7.2,12.1,,,,*6D
$GNTXT,01,01,01,More than 100 frame errors, UART RX was disabled*70
b0L#1,#E0u %["#$&/W=,Q {4%V_:R 
Y
tDIE!{FI:?cJK
OP;STCU
_b#U
9c$GNRMC,060435.00,A,0419.84270,S,05539.72256,E,0.164,,280525,,,D*72
$GNVTG,,T,,M,0.164,N,0.304,K,D*3C
$GNGNS,060435.00,0419.84270,S,05539.72256,E,DA,13,0.90,13.9,-47.6,,0000*67
$GNGGA,060435.00,0419.84270,S,05539.72256,E,2,12,0.90,13.9,M,-47.6,M,,0000*4A
$GNGSA,A,3,24,05,20,15,12,29,25,23,,,,,1.75,0.90,1.50*19
$GNGSA,A,3,80,84,69,73,85,,,,,,,,1.75,0.90,1.50*10
$GPGSV,4,1,16,05,49,044,26,12,69,048,35,13,14,117,,15,37,149,32*7C
$GPGSV,4,2,16,18,34,279,20,20,16,035,22,23,36,207,28,24,38,186,23*73
$GPGSV,4,3,16,25,47,343,22,28,01,300,,29,12,337,09,36,52,277,*77
$GPGSV,4,4,16,40,86,351,37,41,58,082,30,49,32,274,,50,10,089,*7E
$GLGSV,3,1,10,68,14,073,,69,33,123,11,70,14,191,,73,58,319,15*6B
$GLGSV,3,2,10,74,13,331,,79,07,156,06,80,59,165,27,83,04,012,*67
$GLGSV,3,3,10,84,18,323,11,85,10,274,14*6B
$GNGLL,0419.84270,S,05539.72256,E,060435.00,A,D*60
$GNGRS,060435.00,1,-0.2,15.5,-2.3,3.5,-6.0,28.5,13.4,-0.3,,,,*6C
$GNGRS,060435.00,1,17.0,11.5,10.2,-14.4,24.7,,,,,,,*67
$GNGST,060435.00,3587847,,,,4.4,7.2,12*57
$GNZDA,060435.00,28,05,2025,00,00*76
$GNGBS,060435.00,4.4,7.2,12.1,,,,*6C
$GNTXT,01,01,01,More than 100 frame errors, UART RX was disabled*70
b0Lp'1,#E0u"%"o#T$m&S/W,Q{4%V_:R 
Y
tDIE
!{OFI:?JK
OP;hST
CU
Wybp'U
!co5$GNRMC,060436.00,A,0419.84268,S,05539.72280,E,0.139,,280525,,,D*7B
$GNVTG,,T,,M,0.139,N,0.258,K,D*3C
$GNGNS,060436.00,0419.84268,S,05539.72280,E,DA,14,0.87,13.9,-47.6,,0000*67
$GNGGA,060436.00,0419.84268,S,05539.72280,E,2,12,0.87,13.9,M,-47.6,M,,0000*4D
$GNGSA,A,3,24,05,20,15,12,18,29,25,23,,,,1.92,0.87,1.71*1C
$GNGSA,A,3,80,84,69,73,85,,,,,,,,1.92,0.87,1.71*1C
$GPGSV,4,1,16,05,49,044,26,12,69,048,35,13,14,117,,15,37,149,34*7A
$GPGSV,4,2,16,18,34,279,22,20,15,035,22,23,36,207,28,24,38,186,23*72
$GPGSV,4,3,16,25,47,343,24,28,01,300,,29,12,337,14,36,52,277,*7D
$GPGSV,4,4,16,40,86,351,37,41,58,082,30,49,32,274,,50,10,089,*7E
$GLGSV,3,1,10,68,14,073,20,69,33,123,10,70,14,191,,73,58,319,15*68
$GLGSV,3,2,10,74,13,331,,79,07,156,09,80,59,165,26,83,04,012,*69
$GLGSV,3,3,10,84,18,323,10,85,10,274,17*69
$GNGLL,0419.84268,S,05539.72280,E,060436.00,A,D*61
$GNGRS,060436.00,1,-1.7,14.7,-4.3,-2.3,-5.9,-29.6,-25.8,12.8,-11.7,,,*64
$GNGRS,060436.00,1,19.0,40.7,13.6,-15.7,21.3,,,,,,,*68
$GNGST,060436.00,52,,,,4.3,7.1,12*65
$GNZDA,060436.00,28,05,2025,00,00*75
$GNGBS,060436.00,4.3,7.1,12.1,,,,*6B
$GNTXT,01,01,01,More than 100 frame errors, UART RX was disabled*70
b0LX+1,f#E0u"%"#p$_&/W,Q{4$V_:R 
Y
tDIE!{#FI:?LJK
OP;(STCU
EbX+U
cG$GNRMC,060437.00,A,0419.84272,S,05539.72312,E,0.165,,280525,,,D*72
$GNVTG,,T,,M,0.165,N,0.306,K,D*3F
$GNGNS,060437.00,0419.84272,S,05539.72312,E,DA,14,0.81,14.0,-47.6,,0000*6F
$GNGGA,060437.00,0419.84272,S,05539.72312,E,2,12,0.81,14.0,M,-47.6,M,,0000*45
$GNGSA,A,3,24,05,20,15,12,18,29,25,23,,,,1.69,0.81,1.49*15
$GNGSA,A,3,80,84,69,73,85,,,,,,,,1.69,0.81,1.49*15
$GPGSV,4,1,16,05,49,044,26,12,69,048,35,13,14,117,,15,37,149,34*7A
$GPGSV,4,2,16,18,34,279,22,20,15,035,23,23,36,207,30,24,38,186,21*78
$GPGSV,4,3,16,25,47,343,25,28,01,300,,29,12,337,17,36,52,277,*7F
$GPGSV,4,4,16,40,86,351,36,41,58,082,30,49,32,274,,50,10,089,*7F
$GLGSV,3,1,10,68,14,073,19,69,33,123,17,70,14,191,,73,58,319,17*67
$GLGSV,3,2,10,74,13,331,,79,07,156,09,80,59,165,27,83,04,012,*68
$GLGSV,3,3,10,84,18,323,08,85,10,274,17*60
$GNGLL,0419.84272,S,05539.72312,E,060437.00,A,D*61
$GNGRS,060437.00,1,-2.7,13.8,-6.6,-0.7,-5.5,-31.4,29.8,12.2,-9.3,,,*7E
$GNGRS,060437.00,1,18.3,12.5,2.9,-17.2,22.8,,,,,,,*5E
$GNGST,060437.00,3434306,,,,4.3,7.1,12*56
$GNZDA,060437.00,28,05,2025,00,00*74
$GNGBS,060437.00,4.3,7.1,12.0,,,,*6B
$GNTXT,01,01,01,More than 100 frame errors, UART RX was disabled*70
b0L@/1,#E0u!%"(#$~&/WE,Q1{4$V_:R 
Y
tDIE!{FI:?JK
OP;ST
CU
Qxb@/U
c$GNRMC,060438.00,A,0419.84273,S,05539.72336,E,0.109,,280525,,,D*70
$GNVTG,,T,,M,0.109,N,0.202,K,D*30
$GNGNS,060438.00,0419.84273,S,05539.72336,E,DA,14,0.81,14.1,-47.6,,0000*66
$GNGGA,060438.00,0419.84273,S,05539.72336,E,2,12,0.81,14.1,M,-47.6,M,,0000*4C
$GNGSA,A,3,24,05,20,15,12,18,29,25,23,,,,1.69,0.81,1.49*15
$GNGSA,A,3,80,84,69,73,85,,,,,,,,1.69,0.81,1.49*15
$GPGSV,4,1,16,05,49,044,27,12,69,048,35,13,14,117,,15,37,149,33*7C
$GPGSV,4,2,16,18,34,279,23,20,15,035,23,23,36,207,31,24,38,186,20*79
$GPGSV,4,3,16,25,47,343,25,28,01,300,,29,12,337,16,36,52,277,*7E
$GPGSV,4,4,16,40,86,351,36,41,58,082,30,49,32,274,,50,10,089,*7F
$GLGSV,3,1,10,68,14,073,16,69,33,123,11,70,14,191,,73,58,319,20*6A
$GLGSV,3,2,10,74,13,331,,79,07,156,11,80,59,165,27,83,04,012,*61
$GLGSV,3,3,10,84,18,323,10,85,10,274,16*68
$GNGLL,0419.84273,S,05539.72336,E,060438.00,A,D*69
$GNGRS,060438.00,1,-2.5,15.2,-7.4,-2.7,-5.5,-30.3,31.2,10.9,-6.4,,,*7A
$GNGRS,060438.00,1,17.5,12.8,2.6,-16.6,21.3,,,,,,,*57
$GNGST,060438.00,3434641,,,,4.3,7.0,12*5E
$GNZDA,060438.00,28,05,2025,00,00*7B
$GNGBS,060438.00,4.3,7.0,12.0,,,,*65
$GNTXT,01,01,01,More than 100 frame errors, UART RX was disabled*70
b0L(31,"E0u!%#"9#6$&/W,Q{4$V_:R 
Y
tDIE!{FI:?JK
OqAP;^ST
CU
)b(3U
cj$GNRMC,060439.00,A,0419.84274,S,05539.72339,E,0.116,,280525,,,D*77
$GNVTG,,T,,M,0.116,N,0.215,K,D*38
$GNGNS,060439.00,0419.84274,S,05539.72339,E,DA,14,0.84,14.1,-47.6,,0000*6A
$GNGGA,060439.00,0419.84274,S,05539.72339,E,2,12,0.84,14.1,M,-47.6,M,,0000*40
$GNGSA,A,3,24,05,20,15,12,18,29,25,23,,,,1.60,0.84,1.36*11
$GNGSA,A,3,80,84,69,73,85,,,,,,,,1.60,0.84,1.36*11
$GPGSV,4,1,16,05,49,044,28,12,69,048,34,13,14,117,,15,37,149,33*72
$GPGSV,4,2,16,18,34,279,23,20,15,035,23,23,36,207,31,24,38,185,20*7A
$GPGSV,4,3,16,25,47,343,24,28,01,300,,29,12,337,17,36,52,277,*7E
$GPGSV,4,4,16,40,86,351,36,41,58,082,30,49,32,274,,50,10,089,*7F
$GLGSV,3,1,10,68,14,073,15,69,33,123,13,70,14,191,,73,58,319,20*6B
$GLGSV,3,2,10,74,13,331,,79,07,156,09,80,59,165,27,83,04,012,*68
$GLGSV,3,3,10,84,18,323,10,85,10,274,14*6A
$GNGLL,0419.84274,S,05539.72339,E,060439.00,A,D*60
$GNGRS,060439.00,1,-3.3,14.1,-7.1,-4.8,-5.5,-35.3,29.7,10.4,-3.5,,,*72
$GNGRS,060439.00,1,16.3,-134,12.1,-18.2,17.5,,,,,,,*60
$GNGST,060439.00,51,,,,4.3,6.9,12*60
$GNZDA,060439.00,28,05,2025,00,00*7A
$GNGBS,060439.00,4.3,6.9,11.9,,,,*66
$GNTXT,01,01,01,More than 100 frame errors, UART RX was disabled*70
b0L71,#E0u!%"J#$=&T0W,Q{4$V_:R 
Y
tDIE!{VFI:?ZJK
O
P;ST
C{U
b7U
c$GNRMC,060440.00,A,0419.84272,S,05539.72328,E,0.109,,280525,,,D*71
$GNVTG,,T,,M,0.109,N,0.202,K,D*30
$GNGNS,060440.00,0419.84272,S,05539.72328,E,DA,14,0.80,14.0,-47.6,,0000*67
$GNGGA,060440.00,0419.84272,S,05539.72328,E,2,12,0.80,14.0,M,-47.6,M,,0000*4D
$GNGSA,A,3,24,05,20,15,12,18,29,25,23,,,,1.54,0.80,1.31*15
$GNGSA,A,3,80,84,69,73,85,,,,,,,,1.54,0.80,1.31*15
$GPGSV,4,1,16,05,49,044,27,12,69,048,35,13,14,117,,15,37,149,33*7C
$GPGSV,4,2,16,18,34,279,22,20,15,035,23,23,36,207,30,24,38,185,22*78
$GPGSV,4,3,16,25,48,343,24,28,01,300,,29,12,337,16,36,52,277,*70
$GPGSV,4,4,16,40,86,351,36,41,58,082,31,49,32,274,,50,10,089,*7E
$GLGSV,3,1,10,68,14,073,14,69,33,123,12,70,14,191,,73,58,319,21*6A
$GLGSV,3,2,10,74,13,331,,79,07,156,10,80,59,165,26,83,04,012,*61
$GLGSV,3,3,10,84,18,323,10,85,10,274,13*6D
$GNGLL,0419.84272,S,05539.72328,E,060440.00,A,D*68
$GNGRS,060440.00,1,-6.8,12.6,-7.5,-5.1,-5.4,-45.3,30.3,11.9,0.6,,,*54
$GNGRS,060440.00,1,17.2,11.5,3.4,-17.0,14.9,,,,,,,*59
$GNGST,060440.00,110829,,,,4.3,6.9,12*69
$GNZDA,060440.00,28,05,2025,00,00*74
$GNGBS,060440.00,4.3,6.9,11.9,,,,*68
$GNTXT,01,01,01,More than 100 frame errors, UART RX was disabled*70
b0L:1,#E0u!%"#$`&0W,Q{4$V_ :R 
Y
tDIE!{fFI:?JK
O+P;JSTCnU
,tb:U
c+$GNRMC,060441.00,A,0419.84271,S,05539.72328,E,0.099,,280525,,,D*7B
$GNVTG,,T,,M,0.099,N,0.183,K,D*32
$GNGNS,060441.00,0419.84271,S,05539.72328,E,DA,14,0.80,14.0,-47.6,,0000*65
$GNGGA,060441.00,0419.84271,S,05539.72328,E,2,12,0.80,14.0,M,-47.6,M,,0000*4F
$GNGSA,A,3,24,05,20,15,12,18,29,25,23,,,,1.54,0.80,1.31*15
$GNGSA,A,3,80,84,69,73,85,,,,,,,,1.54,0.80,1.31*15
$GPGSV,4,1,16,05,49,044,28,12,69,048,35,13,14,117,,15,37,149,33*73
$GPGSV,4,2,16,18,34,279,21,20,15,035,23,23,36,207,31,24,38,185,21*79
$GPGSV,4,3,16,25,48,343,26,28,01,300,,29,12,337,15,36,52,277,*71
$GPGSV,4,4,16,40,86,351,36,41,58,082,32,49,32,274,,50,10,089,*7D
$GLGSV,3,1,10,68,14,073,12,69,33,123,18,70,14,191,,73,58,319,24*63
$GLGSV,3,2,10,74,13,331,,79,07,156,09,80,59,165,26,83,04,012,*69
$GLGSV,3,3,10,84,18,323,11,85,10,274,11*6E
$GNGLL,0419.84271,S,05539.72328,E,060441.00,A,D*6A
$GNGRS,060441.00,1,-6.0,9.8,-8.9,-3.1,-5.3,-43.5,29.7,11.6,-6.7,,,*42
$GNGRS,060441.00,1,16.1,11.3,3.6,-15.9,15.8,,,,,,,*55
$GNGST,060441.00,166243,,,,4.3,6.9,12*6F
$GNZDA,060441.00,28,05,2025,00,00*75
$GNGBS,060441.00,4.3,6.9,11.8,,,,*68
$GNTXT,01,01,01,More than 100 frame errors, UART RX was disabled*70
b0L>1,y#E0u!%t"b#x $&}0W,Q
{4%V_!:R 
Y
tDIE
!{FI:?JK
OP;STCU

OYb>U
c}$GNRMC,060442.00,A,0419.84272,S,05539.72335,E,0.014,,280525,,,D*72
$GNVTG,,T,,M,0.014,N,0.025,K,D*3A
$GNGNS,060442.00,0419.84272,S,05539.72335,E,DA,14,1.09,14.1,-47.6,,0000*68
$GNGGA,060442.00,0419.84272,S,05539.72335,E,2,12,1.09,14.1,M,-47.6,M,,0000*42
$GNGSA,A,3,24,05,20,15,12,18,29,25,23,,,,2.16,1.09,1.86*1C
$GNGSA,A,3,79,80,84,69,73,,,,,,,,2.16,1.09,1.86*1F
$GPGSV,4,1,16,05,49,044,29,12,69,048,35,13,14,117,,15,37,149,33*72
$GPGSV,4,2,16,18,34,279,22,20,15,035,22,23,36,207,32,24,38,185,19*73
$GPGSV,4,3,16,25,48,343,27,28,01,300,,29,12,337,14,36,52,277,*71
$GPGSV,4,4,16,40,86,351,37,41,58,082,33,49,32,274,,50,10,089,*7D
$GLGSV,3,1,10,68,14,073,14,69,33,123,10,70,14,191,,73,58,319,26*6F
$GLGSV,3,2,10,74,13,331,,79,07,156,09,80,59,165,27,83,04,012,*68
$GLGSV,3,3,10,84,18,323,12,85,10,274,10*6C
$GNGLL,0419.84272,S,05539.72335,E,060442.00,A,D*66
$GNGRS,060442.00,1,-6.4,6.3,-9.0,-1.4,-5.5,-42.5,27.8,9.1,-8.0,,,*7F
$GNGRS,060442.00,1,-97.7,11.8,-29.3,3.9,-15.8,,,,,,,*58
$GNGST,060442.00,51,,,,4.2,6.8,12*6C
$GNZDA,060442.00,28,05,2025,00,00*76
$GNGBS,060442.00,4.2,6.8,11.8,,,,*6B
$GNTXT,01,01,01,More than 100 frame errors, UART RX was disabled*70
b0LB1,6#E0u!%w"`#,$&0WP,Q
{4%V_!:R 
Y
tDIE!{WFI:?JK
O
*P;STCU
GbBU
ycU$GNRMC,060443.00,A,0419.84271,S,05539.72332,E,0.077,,280525,,,D*72
$GNVTG,,T,,M,0.077,N,0.143,K,D*3E
$GNGNS,060443.00,0419.84271,S,05539.72332,E,DA,15,0.80,13.9,-47.6,,0000*63
$GNGGA,060443.00,0419.84271,S,05539.72332,E,2,12,0.80,13.9,M,-47.6,M,,0000*48
$GNGSA,A,3,24,05,20,15,12,18,29,25,23,,,,1.54,0.80,1.31*15
$GNGSA,A,3,79,80,84,69,73,85,,,,,,,1.54,0.80,1.31*1B
$GPGSV,4,1,16,05,49,044,30,12,69,048,35,13,14,117,,15,37,149,33*7A
$GPGSV,4,2,16,18,34,279,24,20,15,035,21,23,36,207,31,24,38,185,20*7F
$GPGSV,4,3,16,25,48,343,27,28,01,300,,29,12,337,14,36,52,277,*71
$GPGSV,4,4,16,40,86,351,37,41,58,082,33,49,32,274,,50,10,089,*7D
$GLGSV,3,1,10,68,14,073,14,69,33,123,17,70,14,191,,73,58,319,26*68
$GLGSV,3,2,10,74,13,331,,79,07,156,10,80,59,165,27,83,04,012,*60
$GLGSV,3,3,10,84,18,323,12,85,10,274,11*6D
$GNGLL,0419.84271,S,05539.72332,E,060443.00,A,D*63
$GNGRS,060443.00,1,-8.8,0.5,-9.8,-1.4,-5.7,-40.0,26.9,8.5,-6.0,,,*7A
$GNGRS,060443.00,1,20.9,10.3,11.8,3.4,-15.3,17.5,,,,,,*4A
$GNGST,060443.00,3434011,,,,4.2,6.8,12*59
$GNZDA,060443.00,28,05,2025,00,00*77
$GNGBS,060443.00,4.2,6.8,11.8,,,,*6A
$GNTXT,01,01,01,More than 100 frame errors, UART RX was disabled*70
b0LF1,#E0u"%"#$u&b0W,R3
{4&V_!:R 
Y
tDIE!{FI:?JK
O#P;STCU
_bFU
ac-c$GNRMC,060444.00,A,0419.84271,S,05539.72334,E,0.043,,280525,,,D*74
$GNVTG,,T,,M,0.043,N,0.080,K,D*37
$GNGNS,060444.00,0419.84271,S,05539.72334,E,DA,15,0.80,13.5,-47.6,,0000*6E
$GNGGA,060444.00,0419.84271,S,05539.72334,E,2,12,0.80,13.5,M,-47.6,M,,0000*45
$GNGSA,A,3,24,05,20,15,12,18,29,25,23,,,,1.54,0.80,1.31*15
$GNGSA,A,3,79,80,84,69,73,85,,,,,,,1.54,0.80,1.31*1B
$GPGSV,4,1,16,05,49,044,30,12,69,048,35,13,14,117,,15,37,149,34*7D
$GPGSV,4,2,16,18,34,279,23,20,15,035,20,23,36,207,31,24,38,185,19*73
$GPGSV,4,3,16,25,48,343,29,28,01,300,,29,12,338,16,36,52,277,*72
$GPGSV,4,4,16,40,86,351,38,41,58,082,33,49,32,274,,50,10,089,*72
$GLGSV,3,1,10,68,14,073,13,69,33,123,21,70,14,191,,73,58,319,26*6A
$GLGSV,3,2,10,74,13,331,,79,07,156,09,80,59,165,26,83,04,012,*69
$GLGSV,3,3,10,84,18,323,14,85,10,274,09*62
$GNGLL,0419.84271,S,05539.72334,E,060444.00,A,D*62
$GNGRS,060444.00,1,-6.7,0.0,-8.0,-1.3,-5.9,-41.6,26.1,4.6,-6.5,,,*7C
$GNGRS,060444.00,1,20.8,7.6,11.8,4.7,-13.7,18.9,,,,,,*7A
$GNGST,060444.00,3434011,,,,4.2,6.7,12*51
$GNZDA,060444.00,28,05,2025,00,00*70
$GNGBS,060444.00,4.2,6.7,11.7,,,,*6D
$GNTXT,01,01,01,More than 100 frame errors, UART RX was disabled*70
b0LJ1,!E0nu"%l"e# $&0WI,R,
{4&V_!:R 
Y
tD
IE!{FI:?JK
O%P;1ST
CwU
)bJU
Ic$GNRMC,060445.00,A,0419.84270,S,05539.72339,E,0.068,,280525,,,D*70
$GNVTG,,T,,M,0.068,N,0.126,K,D*33
$GNGNS,060445.00,0419.84270,S,05539.72339,E,DA,14,1.09,13.4,-47.6,,0000*63
$GNGGA,060445.00,0419.84270,S,05539.72339,E,2,12,1.09,13.4,M,-47.6,M,,0000*49
$GNGSA,A,3,24,05,20,15,12,18,29,25,23,,,,2.16,1.09,1.86*1C
$GNGSA,A,3,79,80,84,69,73,,,,,,,,2.16,1.09,1.86*1F
$GPGSV,4,1,16,05,49,044,29,12,69,048,33,13,14,117,,15,37,149,34*73
$GPGSV,4,2,16,18,34,279,21,20,15,035,17,23,36,207,32,24,38,185,17*78
$GPGSV,4,3,16,25,48,343,29,28,01,300,,29,12,338,18,36,52,277,*7C
$GPGSV,4,4,16,40,86,351,38,41,58,082,33,49,32,274,,50,10,089,*72
$GLGSV,3,1,10,68,14,073,10,69,33,123,23,70,14,191,,73,58,319,26*6B
$GLGSV,3,2,10,74,13,331,,79,07,156,08,80,59,165,27,83,04,012,*69
$GLGSV,3,3,10,84,18,323,10,85,10,274,09*66
$GNGLL,0419.84270,S,05539.72339,E,060445.00,A,D*6F
$GNGRS,060445.00,1,-5.4,-2.5,-7.7,-1.5,-6.6,-39.9,26.0,5.9,-5.2,,,*5E
$GNGRS,060445.00,1,94.9,5.6,31.9,3.9,-13.5,,,,,,,*61
$GNGST,060445.00,42,,,,4.1,6.6,12*64
$GNZDA,060445.00,28,05,2025,00,00*71
$GNGBS,060445.00,4.1,6.6,11.7,,,,*6E
$GNTXT,01,01,01,More than 100 frame errors, UART RX was disabled*70
b0LN1,!E0^u"%V"#F$M&I0W-,R{4&V_!:R 
Y
tDIE!{FI:?^JK
OP;ST
CU
)bbNU
1c3$GNRMC,060446.00,A,0419.84274,S,05539.72341,E,0.080,,280525,,,D*7E
$GNVTG,,T,,M,0.080,N,0.147,K,D*32
$GNGNS,060446.00,0419.84274,S,05539.72341,E,DA,15,0.90,13.3,-47.6,,0000*6C
$GNGGA,060446.00,0419.84274,S,05539.72341,E,2,12,0.90,13.3,M,-47.6,M,,0000*47
$GNGSA,A,3,24,05,20,15,12,18,29,25,23,,,,1.75,0.90,1.50*10
$GNGSA,A,3,79,80,84,69,73,85,,,,,,,1.75,0.90,1.50*1E
$GPGSV,4,1,16,05,49,044,29,12,69,048,33,13,14,117,,15,37,149,34*73
$GPGSV,4,2,16,18,34,279,20,20,15,035,16,23,36,207,31,24,38,185,14*78
$GPGSV,4,3,16,25,48,343,29,28,01,300,,29,12,338,18,36,52,277,*7C
$GPGSV,4,4,16,40,86,351,38,41,58,082,33,49,32,274,,50,10,089,*72
$GLGSV,3,1,10,68,14,073,08,69,33,123,25,70,14,191,,73,58,319,26*64
$GLGSV,3,2,10,74,13,331,,79,07,156,08,80,59,165,27,83,04,012,*69
$GLGSV,3,3,10,84,18,323,10,85,10,274,09*66
$GNGLL,0419.84274,S,05539.72341,E,060446.00,A,D*67
$GNGRS,060446.00,1,-4.4,-5.2,-7.0,-1.7,-6.7,-41.1,22.7,5.6,-1.8,,,*5D
$GNGRS,060446.00,1,20.8,4.3,11.9,2.5,-11.9,22.5,,,,,,*72
$GNGST,060446.00,3586708,,,,4.1,6.6,12*56
$GNZDA,060446.00,28,05,2025,00,00*72
$GNGBS,060446.00,4.1,6.6,11.7,,,,*6D
$GNTXT,01,01,01,More than 100 frame errors, UART RX was disabled*70
b0LhR1,!E0;u"%C"i# $&0W,,R6{4#V_ :R 
Y
tD
IE!{FI:?JK
OP;STCU
bhRU
c$GNRMC,060447.00,A,0419.84275,S,05539.72350,E,0.035,,280525,,,D*70
$GNVTG,,T,,M,0.035,N,0.064,K,D*3C
$GNGNS,060447.00,0419.84275,S,05539.72350,E,DA,15,0.90,13.3,-47.6,,0000*6C
$GNGGA,060447.00,0419.84275,S,05539.72350,E,2,12,0.90,13.3,M,-47.6,M,,0000*47
$GNGSA,A,3,24,05,20,15,12,18,29,25,23,,,,1.75,0.90,1.50*10
$GNGSA,A,3,79,80,84,69,73,85,,,,,,,1.75,0.90,1.50*1E
$GPGSV,4,1,16,05,49,044,31,12,69,048,33,13,14,117,,15,37,149,34*7A
$GPGSV,4,2,16,18,34,279,17,20,15,035,18,23,36,207,32,24,38,185,12*77
$GPGSV,4,3,16,25,48,343,29,28,01,300,,29,12,338,17,36,52,277,*73
$GPGSV,4,4,16,40,86,351,35,41,58,082,32,49,32,274,,50,10,089,*7E
$GLGSV,3,1,10,68,14,073,10,69,33,123,25,70,14,191,,73,58,319,25*6E
$GLGSV,3,2,10,74,13,331,,79,07,156,12,80,59,165,26,83,04,012,*63
$GLGSV,3,3,10,84,18,323,17,85,10,274,08*60
$GNGLL,0419.84275,S,05539.72350,E,060447.00,A,D*67
$GNGRS,060447.00,1,-4.9,1.4,-7.9,-1.9,-7.1,-39.9,21.0,3.0,-8.1,,,*7D
$GNGRS,060447.00,1,20.7,2.8,12.1,1.3,-11.2,22.6,,,,,,*77
$GNGST,060447.00,3586708,,,,4.1,6.5,12*54
$GNZDA,060447.00,28,05,2025,00,00*73
$GNGBS,060447.00,4.1,6.5,11.8,,,,*60
$GNTXT,01,01,01,More than 100 frame errors, UART RX was disabled*70
b0LPV 1,"E0Cu!%"# $n&0W,R-{4#V_:R 
Y
tD
IE!{FI:?JK
OP;ySTCU
bPVU
c$GNRMC,060448.00,A,0419.84270,S,05539.72349,E,0.049,,280525,,,D*79
$GNVTG,,T,,M,0.049,N,0.091,K,D*3D
$GNGNS,060448.00,0419.84270,S,05539.72349,E,DA,15,0.88,12.9,-47.6,,0000*6C
$GNGGA,060448.00,0419.84270,S,05539.72349,E,2,12,0.88,12.9,M,-47.6,M,,0000*47
$GNGSA,A,3,24,05,20,15,12,18,29,25,23,,,,1.60,0.88,1.34*1F
$GNGSA,A,3,79,80,84,69,73,85,,,,,,,1.60,0.88,1.34*11
$GPGSV,4,1,16,05,49,044,32,12,69,048,34,13,14,117,,15,37,149,33*79
$GPGSV,4,2,16,18,34,279,17,20,15,035,20,23,36,207,32,24,38,185,14*7A
$GPGSV,4,3,16,25,48,343,30,28,01,300,,29,12,338,17,36,52,277,*7B
$GPGSV,4,4,16,40,86,351,35,41,58,082,31,49,32,274,,50,10,089,*7D
$GLGSV,3,1,10,68,14,073,10,69,33,123,25,70,14,191,,73,58,319,24*6F
$GLGSV,3,2,10,74,13,331,,79,07,156,09,80,59,165,24,83,04,012,*6B
$GLGSV,3,3,10,84,18,323,11,85,10,274,09*67
$GNGLL,0419.84270,S,05539.72349,E,060448.00,A,D*65
$GNGRS,060448.00,1,-2.6,0.0,-7.4,-2.4,-7.0,-39.7,18.4,5.1,-6.6,,,*72
$GNGRS,060448.00,1,-95.8,1.2,1.4,1.9,-10.3,41.0,,,,,,*63
$GNGST,060448.00,54,,,,4.0,6.4,12*6D
$GNZDA,060448.00,28,05,2025,00,00*7C
$GNGBS,060448.00,4.0,6.4,11.7,,,,*60
$GNTXT,01,01,01,More than 100 frame errors, UART RX was disabled*70
b0L8Z1,E"E0)u!%"#m$&0WI,RL{4#V_:R 
Y
tDIE!{LFI:?oJK
O(P;STCU

](b8ZU
cdh$GNRMC,060449.00,A,0419.84268,S,05539.72348,E,0.004,,280525,,,D*79
$GNVTG,,T,,M,0.004,N,0.008,K,D*34
$GNGNS,060449.00,0419.84268,S,05539.72348,E,DA,15,0.79,12.6,-47.6,,0000*64
$GNGGA,060449.00,0419.84268,S,05539.72348,E,2,12,0.79,12.6,M,-47.6,M,,0000*4F
$GNGSA,A,3,24,05,20,15,12,18,29,25,23,,,,1.47,0.79,1.24*15
$GNGSA,A,3,79,80,84,69,73,85,,,,,,,1.47,0.79,1.24*1B
$GPGSV,4,1,16,05,49,044,31,12,69,048,34,13,14,117,,15,37,149,33*7A
$GPGSV,4,2,16,18,34,279,18,20,15,035,21,23,36,207,31,24,38,185,18*7B
$GPGSV,4,3,16,25,48,343,30,28,01,300,,29,12,338,18,36,52,277,*74
$GPGSV,4,4,16,40,86,351,35,41,58,082,30,49,32,274,,50,10,089,*7C
$GLGSV,3,1,10,68,14,073,11,69,33,123,24,70,14,191,,73,58,319,23*68
$GLGSV,3,2,10,74,13,331,,79,07,156,08,80,59,165,21,83,04,012,*6F
$GLGSV,3,3,10,84,18,323,15,85,10,274,10*6B
$GNGLL,0419.84268,S,05539.72348,E,060449.00,A,D*6C
$GNGRS,060449.00,1,-0.8,0.7,-9.2,-2.6,-7.3,-39.1,16.1,3.3,-8.4,,,*74
$GNGRS,060449.00,1,20.9,2.2,11.7,0.8,-11.7,18.9,,,,,,*71
$GNGST,060449.00,3301463,,,,4.0,6.4,12*5D
$GNZDA,060449.00,28,05,2025,00,00*7D
$GNGBS,060449.00,4.0,6.4,11.6,,,,*60
$GNTXT,01,01,01,More than 100 frame errors, UART RX was disabled*70
b0L ^1,"E0 u%!%"4#$&X0W,RS{4#V_ :R 
Y
tDIE!{7FI:?JK
OP;gSTCtU
V5b ^U
c<$GNRMC,060450.00,A,0419.84266,S,05539.72344,E,0.018,,280525,,,D*7E
$GNVTG,,T,,M,0.018,N,0.033,K,D*31
$GNGNS,060450.00,0419.84266,S,05539.72344,E,DA,15,0.79,12.4,-47.6,,0000*6C
$GNGGA,060450.00,0419.84266,S,05539.72344,E,2,12,0.79,12.4,M,-47.6,M,,0000*47
$GNGSA,A,3,24,05,20,15,12,18,29,25,23,,,,1.47,0.79,1.24*15
$GNGSA,A,3,79,80,84,69,73,85,,,,,,,1.47,0.79,1.24*1B
$GPGSV,4,1,16,05,49,044,30,12,69,048,34,13,14,117,22,15,37,149,33*7B
$GPGSV,4,2,16,18,34,279,20,20,15,035,21,23,36,207,30,24,38,185,21*7B
$GPGSV,4,3,16,25,48,343,31,28,01,300,,29,12,338,17,36,52,277,*7A
$GPGSV,4,4,16,40,86,351,35,41,58,082,32,49,32,274,,50,10,089,*7E
$GLGSV,3,1,10,68,14,073,14,69,33,123,24,70,14,191,,73,58,319,20*6E
$GLGSV,3,2,10,74,13,331,,79,07,156,09,80,59,165,19,83,04,012,*65
$GLGSV,3,3,10,84,18,323,12,85,10,274,12*6E
$GNGLL,0419.84266,S,05539.72344,E,060450.00,A,D*66
$GNGRS,060450.00,1,-1.7,-0.1,-7.8,-3.1,-7.4,-37.9,16.2,5.3,-5.4,,,*52
$GNGRS,060450.00,1,20.8,3.6,11.4,3.1,-10.3,18.8,,,,,,*70
$GNGST,060450.00,3304176,,,,3.9,6.3,12*58
$GNZDA,060450.00,28,05,2025,00,00*75
$GNGBS,060450.00,3.9,6.3,11.6,,,,*61
$GNTXT,01,01,01,More than 100 frame errors, UART RX was disabled*70
b0Lb1,!E0.u!%"Y#$&H0Wq,R={4&V_ :R 
Y
tDIE!{FI:?JK
OOAP;JSTCU
+bbU
c8$GNRMC,060451.00,A,0419.84259,S,05539.72338,E,0.114,,280525,,,D*75
$GNVTG,,T,,M,0.114,N,0.211,K,D*3E
$GNGNS,060451.00,0419.84259,S,05539.72338,E,DA,15,0.79,11.7,-47.6,,0000*6A
$GNGGA,060451.00,0419.84259,S,05539.72338,E,2,12,0.79,11.7,M,-47.6,M,,0000*41
$GNGSA,A,3,24,05,20,15,12,18,29,25,23,,,,1.47,0.79,1.24*15
$GNGSA,A,3,79,80,84,69,73,85,,,,,,,1.47,0.79,1.24*1B
$GPGSV,4,1,16,05,49,044,29,12,69,048,33,13,14,117,19,15,37,149,33*7C
$GPGSV,4,2,16,18,34,279,19,20,15,035,19,23,36,207,29,24,38,185,22*71
$GPGSV,4,3,16,25,48,343,31,28,01,300,,29,12,338,16,36,52,277,*7B
$GPGSV,4,4,16,40,86,351,38,41,58,082,32,49,32,274,,50,10,089,*73
$GLGSV,3,1,10,68,14,073,14,69,33,123,25,70,14,191,,73,58,319,21*6E
$GLGSV,3,2,10,74,13,331,,79,07,156,12,80,59,165,18,83,04,012,*6E
$GLGSV,3,3,10,84,18,323,15,85,10,274,17*6C
$GNGLL,0419.84259,S,05539.72338,E,060451.00,A,D*60
$GNGRS,060451.00,1,-4.4,-0.4,-8.7,-3.4,-7.2,-37.5,16.0,3.7,-6.0,,,*58
$GNGRS,060451.00,1,167,3.3,14.2,1.4,-10.1,9.6,,,,,,*68
$GNGST,060451.00,53,,,,3.9,6.3,11*68
$GNZDA,060451.00,28,05,2025,00,00*74
$GNGBS,060451.00,3.9,6.3,11.5,,,,*63
$GNTXT,01,01,01,More than 100 frame errors, UART RX was disabled*70
b0Le1,!E0$u!%"#$-&V0W,R{4%V_:R 
Y
tDIE!{FI:?%JK
OP;STCmU
7/beU
c$GNRMC,060452.00,A,0419.84252,S,05539.72334,E,0.142,,280525,,,D*72
$GNVTG,,T,,M,0.142,N,0.263,K,D*38
$GNGNS,060452.00,0419.84252,S,05539.72334,E,DA,15,0.79,11.1,-47.6,,0000*68
$GNGGA,060452.00,0419.84252,S,05539.72334,E,2,12,0.79,11.1,M,-47.6,M,,0000*43
$GNGSA,A,3,24,05,20,15,12,18,29,25,23,,,,1.47,0.79,1.24*15
$GNGSA,A,3,79,80,84,69,73,85,,,,,,,1.47,0.79,1.24*1B
$GPGSV,4,1,16,05,49,044,30,12,69,048,33,13,14,117,18,15,37,149,33*75
$GPGSV,4,2,16,18,34,279,17,20,15,035,17,23,36,207,30,24,38,185,21*7A
$GPGSV,4,3,16,25,48,343,31,28,01,300,,29,12,338,17,36,52,277,*7A
$GPGSV,4,4,16,40,86,351,37,41,58,082,31,49,32,274,,50,10,089,*7F
$GLGSV,3,1,10,68,14,073,13,69,33,123,26,70,14,191,,73,58,319,21*6A
$GLGSV,3,2,10,74,13,331,,79,07,156,08,80,59,165,18,83,04,012,*65
$GLGSV,3,3,10,84,18,323,14,85,10,274,18*62
$GNGLL,0419.84252,S,05539.72334,E,060452.00,A,D*64
$GNGRS,060452.00,1,-4.3,-8.6,-7.9,-3.2,-7.3,-39.0,17.5,2.4,-4.7,,,*58
$GNGRS,060452.00,1,20.8,4.5,11.3,1.9,-9.9,18.5,,,,,,*44
$GNGST,060452.00,109401,,,,3.9,6.2,11*61
$GNZDA,060452.00,28,05,2025,00,00*77
$GNGBS,060452.00,3.9,6.2,11.4,,,,*60
$GNTXT,01,01,01,More than 100 frame errors, UART RX was disabled*70
b0Li1,I!E0uE!%"#$&>0WA,R{4%V_:R 
Y
tDIE!{FI:?JK
OP;STC6U
biU
c$GNRMC,060453.00,A,0419.84250,S,05539.72321,E,0.052,,280525,,,D*75
$GNVTG,,T,,M,0.052,N,0.097,K,D*31
$GNGNS,060453.00,0419.84250,S,05539.72321,E,DA,14,0.79,10.7,-47.6,,0000*69
$GNGGA,060453.00,0419.84250,S,05539.72321,E,2,12,0.79,10.7,M,-47.6,M,,0000*43
$GNGSA,A,3,24,05,20,15,12,18,29,25,23,,,,1.47,0.79,1.24*15
$GNGSA,A,3,80,84,69,73,85,,,,,,,,1.47,0.79,1.24*15
$GPGSV,4,1,16,05,49,044,31,12,69,048,33,13,14,117,18,15,37,149,33*74
$GPGSV,4,2,16,18,34,279,16,20,15,035,17,23,36,207,29,24,38,185,22*70
$GPGSV,4,3,16,25,48,343,30,28,01,300,,29,12,338,18,36,52,277,*74
$GPGSV,4,4,16,40,86,351,37,41,58,082,31,49,32,274,,50,10,089,*7F
$GLGSV,3,1,10,68,14,073,14,69,33,123,26,70,14,191,,73,58,319,22*6E
$GLGSV,3,2,10,74,13,331,,79,07,156,07,80,59,165,19,83,04,012,*6B
$GLGSV,3,3,10,84,18,323,14,85,10,274,18*62
$GNGLL,0419.84250,S,05539.72321,E,060453.00,A,D*63
$GNGRS,060453.00,1,-4.5,-7.0,-11.0,-3.4,-7.5,-40.7,17.5,5.8,4.4,,,*44
$GNGRS,060453.00,1,4.7,10.8,1.7,-7.8,18.0,,,,,,,*5D
$GNGST,060453.00,161982,,,,3.8,6.2,11*69
$GNZDA,060453.00,28,05,2025,00,00*76
$GNGBS,060453.00,3.8,6.2,11.4,,,,*60
$GNTXT,01,01,01,More than 100 frame errors, UART RX was disabled*70
b0Lm 1, E0u4 %"4#$&0Ww,R{4%V_:R 
Y
tDIE!{FI:?JK
O
>AP;STCU
cVbmU
qca$GNRMC,060454.00,A,0419.84248,S,05539.72305,E,0.065,,280525,,,D*79
$GNVTG,,T,,M,0.065,N,0.120,K,D*38
$GNGNS,060454.00,0419.84248,S,05539.72305,E,DA,14,0.79,10.1,-47.6,,0000*67
$GNGGA,060454.00,0419.84248,S,05539.72305,E,2,12,0.79,10.1,M,-47.6,M,,0000*4D
$GNGSA,A,3,24,05,20,15,12,18,29,25,23,,,,1.47,0.79,1.24*15
$GNGSA,A,3,80,84,69,73,85,,,,,,,,1.47,0.79,1.24*15
$GPGSV,4,1,16,05,49,044,32,12,69,048,32,13,14,117,19,15,37,149,32*76
$GPGSV,4,2,16,18,34,279,15,20,15,035,17,23,36,207,31,24,38,185,22*7A
$GPGSV,4,3,16,25,48,343,30,28,01,300,,29,12,338,18,36,52,277,*74
$GPGSV,4,4,16,40,86,351,37,41,58,082,30,49,32,274,,50,10,089,*7E
$GLGSV,3,1,10,68,14,073,13,69,33,123,26,70,14,191,,73,58,319,22*69
$GLGSV,3,2,10,74,13,331,,79,07,156,10,80,59,165,19,83,04,012,*6D
$GLGSV,3,3,10,84,18,323,12,85,10,274,16*6A
$GNGLL,0419.84248,S,05539.72305,E,060454.00,A,D*6B
$GNGRS,060454.00,1,-5.1,-8.1,-11.1,-3.2,-7.4,-40.4,16.8,3.8,2.0,,,*45
$GNGRS,060454.00,1,5.3,-7.6,1.6,-8.3,16.3,,,,,,,*42
$GNGST,060454.00,53,,,,3.8,6.1,11*6E
$GNZDA,060454.00,28,05,2025,00,00*71
$GNGBS,060454.00,3.8,6.1,11.3,,,,*63
$GNTXT,01,01,01,More than 100 frame errors, UART RX was disabled*70
b0Lq0,.E0u %"?#& $&(0WH,Rb{4$V_:R 
Y
tDIE!{FI:?kJK
O
4P;STCU
bqU
Ycs$GNRMC,060455.00,A,0419.84245,S,05539.72292,E,0.193,,280525,,,D*72
$GNVTG,,T,,M,0.193,N,0.358,K,D*3D
$GNGNS,060455.00,0419.84245,S,05539.72292,E,DA,14,0.79,9.8,-47.6,,0000*55
$GNGGA,060455.00,0419.84245,S,05539.72292,E,2,12,0.79,9.8,M,-47.6,M,,0000*7F
$GNGSA,A,3,24,05,20,15,12,18,29,25,23,,,,1.47,0.79,1.24*15
$GNGSA,A,3,80,84,69,73,85,,,,,,,,1.47,0.79,1.24*15
$GPGSV,4,1,16,05,48,044,31,12,69,048,31,13,14,117,18,15,37,149,32*76
$GPGSV,4,2,16,18,34,279,16,20,15,035,17,23,36,207,32,24,38,185,22*7A
$GPGSV,4,3,16,25,48,343,30,28,01,300,,29,12,338,17,36,52,277,*7B
$GPGSV,4,4,16,40,86,351,36,41,58,082,31,49,32,274,,50,10,089,*7E
$GLGSV,3,1,10,68,14,073,14,69,33,123,26,70,14,191,,73,58,319,19*66
$GLGSV,3,2,10,74,13,331,,79,07,156,10,80,59,165,18,83,04,012,*6C
$GLGSV,3,3,10,84,18,323,14,85,10,274,15*6F
$GNGLL,0419.84245,S,05539.72292,E,060455.00,A,D*68
$GNGRS,060455.00,1,-4.7,-12.3,-12.4,-3.0,-6.2,-40.3,18.9,5.8,-0.8,,,*50
$GNGRS,060455.00,1,4.3,11.6,-1.0,-9.2,14.2,,,,,,,*70
$GNGST,060455.00,199554,,,,3.8,6.0,11*6D
$GNZDA,060455.00,28,05,2025,00,00*70
$GNGBS,060455.00,3.8,6.0,11.3,,,,*63
$GNTXT,01,01,01,More than 100 frame errors, UART RX was disabled*70
b0Lu0,pE0DuY %"#$&0W,Rw{4%V_:R 
Y
tDIE!{VFI:?8JK
O$P;STCoU
;=buU
AcK1$GNRMC,060456.00,A,0419.84246,S,05539.72278,E,0.120,,280525,,,D*7E
$GNVTG,,T,,M,0.120,N,0.222,K,D*39
$GNGNS,060456.00,0419.84246,S,05539.72278,E,DA,14,0.79,9.4,-47.6,,0000*5D
$GNGGA,060456.00,0419.84246,S,05539.72278,E,2,12,0.79,9.4,M,-47.6,M,,0000*77
$GNGSA,A,3,24,05,20,15,12,18,29,25,23,,,,1.47,0.79,1.24*15
$GNGSA,A,3,80,84,69,73,85,,,,,,,,1.47,0.79,1.24*15
$GPGSV,4,1,16,05,48,044,31,12,69,048,30,13,14,117,19,15,37,149,32*76
$GPGSV,4,2,16,18,34,279,16,20,15,035,16,23,36,207,31,24,38,185,22*78
$GPGSV,4,3,16,25,48,343,31,28,01,300,,29,12,338,15,36,52,277,*78
$GPGSV,4,4,16,40,86,351,37,41,58,082,30,49,32,274,,50,10,089,*7E
$GLGSV,3,1,10,68,14,073,15,69,33,123,26,70,14,191,,73,58,319,14*6A
$GLGSV,3,2,10,74,13,331,,79,07,156,09,80,59,165,20,83,04,012,*6F
$GLGSV,3,3,10,84,18,323,13,85,10,274,14*69
$GNGLL,0419.84246,S,05539.72278,E,060456.00,A,D*6C
$GNGRS,060456.00,1,-6.1,-14.2,-8.4,-2.4,-7.0,-41.1,16.5,1.5,4.3,,,*47
$GNGRS,060456.00,1,4.3,11.3,-1.7,-12.2,10.5,,,,,,,*48
$GNGST,060456.00,3299292,,,,3.8,6.0,11*53
$GNZDA,060456.00,28,05,2025,00,00*73
$GNGBS,060456.00,3.8,6.0,11.3,,,,*60
$GNTXT,01,01,01,More than 100 frame errors, UART RX was disabled*70
b0Lxy#0,E0{u%"/#$&0W,R{4$V_:R 
Y
tDIE!{rFI:?QJK
OP;ST
C"U
bxyU
)c#$GNRMC,060457.00,A,0419.84251,S,05539.72269,E,0.168,,280525,,,D*75
$GNVTG,,T,,M,0.168,N,0.312,K,D*37
$GNGNS,060457.00,0419.84251,S,05539.72269,E,DA,15,0.76,9.3,-47.6,,0000*53
$GNGGA,060457.00,0419.84251,S,05539.72269,E,2,12,0.76,9.3,M,-47.6,M,,0000*78
$GNGSA,A,3,24,05,20,15,12,18,29,25,23,,,,1.29,0.76,1.04*10
$GNGSA,A,3,79,80,84,69,73,85,,,,,,,1.29,0.76,1.04*1E
$GPGSV,4,1,16,05,48,044,35,12,69,048,29,13,14,117,21,15,37,149,31*72
$GPGSV,4,2,16,18,34,279,13,20,15,035,21,23,36,207,31,24,38,185,22*79
$GPGSV,4,3,16,25,48,343,31,28,01,300,,29,12,338,15,36,52,277,*78
$GPGSV,4,4,16,40,86,351,36,41,58,082,31,49,32,274,,50,10,089,*7E
$GLGSV,3,1,10,68,14,073,15,69,33,123,25,70,14,191,,73,58,319,12*6F
$GLGSV,3,2,10,74,13,331,,79,07,156,12,80,59,165,21,83,04,012,*64
$GLGSV,3,3,10,84,18,323,10,85,10,274,14*6A
$GNGLL,0419.84251,S,05539.72269,E,060457.00,A,D*6B
$GNGRS,060457.00,1,-8.0,-8.0,-10.7,-1.0,-1.3,-43.0,13.0,1.9,0.1,,,*47
$GNGRS,060457.00,1,7.6,1.8,43.9,-1.4,-12.0,10.2,,,,,,*63
$GNGST,060457.00,60,,,,3.7,5.9,11*69
$GNZDA,060457.00,28,05,2025,00,00*72
$GNGBS,060457.00,3.7,5.9,11.2,,,,*65
$GNTXT,01,01,01,More than 100 frame errors, UART RX was disabled*70
b0L`}"0,EE0u%"w#$&R0WM,Rq{4$V_:R 
Y
tDIE!{FI:?JK
O[P;cSTCU
b`}U
c$GNRMC,060458.00,A,0419.84254,S,05539.72251,E,0.034,,280525,,,D*7C
$GNVTG,,T,,M,0.034,N,0.063,K,D*3A
$GNGNS,060458.00,0419.84254,S,05539.72251,E,DA,14,0.83,9.4,-47.6,,0000*5E
$GNGGA,060458.00,0419.84254,S,05539.72251,E,2,12,0.83,9.4,M,-47.6,M,,0000*74
$GNGSA,A,3,24,05,20,15,12,18,29,25,23,,,,1.64,0.83,1.41*12
$GNGSA,A,3,79,80,84,69,85,,,,,,,,1.64,0.83,1.41*18
$GPGSV,4,1,16,05,48,044,34,12,69,048,29,13,14,117,20,15,37,149,31*72
$GPGSV,4,2,16,18,34,279,12,20,15,035,22,23,36,207,30,24,38,185,22*7A
$GPGSV,4,3,16,25,48,343,31,28,01,300,,29,12,338,15,36,52,277,*78
