b0L/*CF53sv%!y"&`%o2Wa+
S<{4V_:R 
Y
tDGE"yFI;<{JJ
OP9#ST
DU

<bU
/g3$GNRMC,060836.00,A,0419.83192,S,05539.71999,E,0.152,,280525,,,A*7E
$GNVTG,,T,,M,0.152,N,0.281,K,A*30
$GNGNS,060836.00,0419.83192,S,05539.71999,E,AA,15,0.76,13.2,-47.6,,*6B
$GNGGA,060836.00,0419.83192,S,05539.71999,E,1,12,0.76,13.2,M,-47.6,M,,*46
$GNGSA,A,3,24,05,20,15,12,13,18,29,25,23,,,1.39,0.76,1.17*11
$GNGSA,A,3,80,84,69,73,85,,,,,,,,1.39,0.76,1.17*13
$GPGSV,4,1,16,05,47,042,28,12,70,053,25,13,14,115,17,15,37,147,11*72
$GPGSV,4,2,16,18,33,281,31,20,14,034,20,23,38,208,19,24,37,184,23*7C
$GPGSV,4,3,16,25,50,343,31,28,02,299,,29,12,339,10,36,52,277,*77
$GPGSV,4,4,16,40,86,351,,41,58,082,,49,32,274,,50,10,089,*79
$GLGSV,3,1,10,68,14,071,,69,34,121,16,70,15,190,,73,59,316,25*66
$GLGSV,3,2,10,74,14,330,,79,05,156,06,80,57,166,15,83,03,014,*6E
$GLGSV,3,3,10,84,17,324,10,85,10,276,10*64
$GNGLL,0419.83192,S,05539.71999,E,060836.00,A,A*69
$GNGRS,060836.00,1,1.1,3.2,-13.7,2.3,-22.5,8.9,1.2,-30.1,3.5,-11.8,,*55
$GNGRS,060836.00,1,-9.9,-51.2,-30.7,-6.5,-7.1,,,,,,,*5F
$GNGST,060836.00,55,,,,4.9,4.1,12*67
$GNZDA,060836.00,28,05,2025,00,00*79
$GNGBS,060836.00,4.9,4.1,11.6,,,,*6A
$GNTXT,01,01,01,More than 100 frame errors, UART RX was disabled*70
b0L/*F5s%!"&%f2W+S:{4V_:R 
Y
tDGE"yVFI;<OJJ
O
P9FSTDU
~?bU
3g$GNRMC,060837.00,A,0419.83181,S,05539.71989,E,0.498,,280525,,,A*7F
$GNVTG,,T,,M,0.498,N,0.923,K,A*30
$GNGNS,060837.00,0419.83181,S,05539.71989,E,AA,15,0.70,12.9,-47.6,,*65
$GNGGA,060837.00,0419.83181,S,05539.71989,E,1,12,0.70,12.9,M,-47.6,M,,*48
$GNGSA,A,3,24,05,20,15,12,13,18,29,25,23,,,1.32,0.70,1.12*19
$GNGSA,A,3,80,84,69,73,85,,,,,,,,1.32,0.70,1.12*1B
$GPGSV,4,1,16,05,47,042,26,12,70,053,22,13,14,115,15,15,37,147,11*79
$GPGSV,4,2,16,18,33,281,29,20,14,034,18,23,38,208,17,24,37,184,22*71
$GPGSV,4,3,16,25,50,343,26,28,02,299,,29,12,339,12,36,52,277,*73
$GPGSV,4,4,16,40,86,351,,41,58,082,,49,32,274,,50,10,089,*79
$GLGSV,3,1,10,68,14,071,,69,34,121,18,70,15,190,,73,59,316,23*6E
$GLGSV,3,2,10,74,14,330,,79,05,156,09,80,57,166,14,83,03,014,*60
$GLGSV,3,3,10,84,17,324,09,85,10,276,07*6A
$GNGLL,0419.83181,S,05539.71989,E,060837.00,A,A*6B
$GNGRS,060837.00,1,1.0,4.8,-14.1,2.6,-23.2,9.0,0.0,23.6,7.5,-10.3,,*77
$GNGRS,060837.00,1,-9.5,12.3,3.4,-4.3,19.2,,,,,,,*72
$GNGST,060837.00,5506669,,,,5.0,4.2,12*52
$GNZDA,060837.00,28,05,2025,00,00*78
$GNGBS,060837.00,5.0,4.2,11.8,,,,*6E
$GNTXT,01,01,01,More than 100 frame errors, UART RX was disabled*70
b0L/*|F5s%"!#"~&9%K 2W+S{4V_:R 
Y
tDGE"yFI;<LJJ
O
P
9eSTDU
bU
q7gv$GNRMC,060838.00,A,0419.83168,S,05539.71988,E,0.315,,280525,,,A*74
$GNVTG,,T,,M,0.315,N,0.584,K,A*33
$GNGNS,060838.00,0419.83168,S,05539.71988,E,AA,13,0.84,12.0,-47.6,,*68
$GNGGA,060838.00,0419.83168,S,05539.71988,E,1,12,0.84,12.0,M,-47.6,M,,*43
$GNGSA,A,3,24,05,20,15,12,13,18,29,25,23,,,1.71,0.84,1.49*1B
$GNGSA,A,3,80,69,73,,,,,,,,,,1.71,0.84,1.49*18
$GPGSV,4,1,16,05,47,042,31,12,70,053,26,13,14,115,15,15,37,147,15*7F
$GPGSV,4,2,16,18,33,281,34,20,14,034,16,23,38,208,21,24,37,184,26*72
$GPGSV,4,3,16,25,50,343,32,28,02,299,,29,12,339,12,36,52,277,*76
$GPGSV,4,4,16,40,86,351,,41,58,082,,49,32,274,,50,10,089,*79
$GLGSV,3,1,10,68,14,071,,69,34,121,18,70,15,190,,73,59,316,30*6C
$GLGSV,3,2,10,74,14,330,,79,05,156,07,80,57,166,10,83,03,014,*6A
$GLGSV,3,3,10,84,17,324,07,85,10,276,05*66
$GNGLL,0419.83168,S,05539.71988,E,060838.00,A,A*62
$GNGRS,060838.00,1,0.8,3.8,-14.1,1.5,-20.9,10.0,2.9,22.9,4.0,-9.7,,*79
$GNGRS,060838.00,1,-9.2,1.9,-4.4,,,,,,,,,*78
$GNGST,060838.00,51,,,,5.1,4.3,12*66
$GNZDA,060838.00,28,05,2025,00,00*77
$GNGBS,060838.00,5.1,4.3,11.9,,,,*60
$GNTXT,01,01,01,More than 100 frame errors, UART RX was disabled*70
b0L /*F5s%E#!"&w%!2WT+S{4V_:R 
Y
tDGE"yFI;<JJ
O
8P9STDU

HbU
Y;gNk$GNRMC,060839.00,A,0419.83170,S,05539.71982,E,0.042,,280525,,,A*77
$GNVTG,,T,,M,0.042,N,0.078,K,A*34
$GNGNS,060839.00,0419.83170,S,05539.71982,E,AA,15,0.70,11.5,-47.6,,*61
$GNGGA,060839.00,0419.83170,S,05539.71982,E,1,12,0.70,11.5,M,-47.6,M,,*4C
$GNGSA,A,3,24,05,20,15,12,13,18,29,25,23,,,1.29,0.70,1.09*19
$GNGSA,A,3,80,84,69,73,85,,,,,,,,1.29,0.70,1.09*1B
$GPGSV,4,1,16,05,47,042,32,12,70,053,26,13,14,115,17,15,37,147,17*7C
$GPGSV,4,2,16,18,33,281,35,20,14,034,15,23,38,208,23,24,37,184,27*73
$GPGSV,4,3,16,25,50,343,33,28,02,299,,29,12,339,12,36,52,277,*77
$GPGSV,4,4,16,40,86,351,,41,58,082,,49,32,274,,50,10,089,*79
$GLGSV,3,1,10,68,14,071,,69,34,121,29,70,15,190,,73,59,316,30*6E
$GLGSV,3,2,10,74,14,330,,79,05,156,10,80,57,166,12,83,03,014,*6E
$GLGSV,3,3,10,84,17,324,12,85,10,276,10*66
$GNGLL,0419.83170,S,05539.71982,E,060839.00,A,A*60
$GNGRS,060839.00,1,2.5,-0.5,-12.5,3.3,-17.8,8.0,2.8,-0.2,0.8,-6.5,,*78
$GNGRS,060839.00,1,-8.3,32.5,0.3,-3.4,-11.1,,,,,,,*5D
$GNGST,060839.00,60,,,,5.0,4.2,12*65
$GNZDA,060839.00,28,05,2025,00,00*76
$GNGBS,060839.00,5.0,4.2,11.8,,,,*60
$GNTXT,01,01,01,More than 100 frame errors, UART RX was disabled*70
b0L/*EF5s%"!"&=% 2W+
S/{4V_:R 
Y
tDGE"yeFI;<JJ
Oj
P9STDU
zbU
A?g&$GNRMC,060840.00,A,0419.83172,S,05539.71983,E,0.072,,280525,,,A*79
$GNVTG,,T,,M,0.072,N,0.133,K,A*39
$GNGNS,060840.00,0419.83172,S,05539.71983,E,AA,15,0.70,10.8,-47.6,,*60
$GNGGA,060840.00,0419.83172,S,05539.71983,E,1,12,0.70,10.8,M,-47.6,M,,*4D
$GNGSA,A,3,24,05,20,15,12,13,18,29,25,23,,,1.32,0.70,1.12*19
$GNGSA,A,3,80,84,69,73,85,,,,,,,,1.32,0.70,1.12*1B
$GPGSV,4,1,16,05,47,042,31,12,70,053,25,13,14,115,18,15,37,147,19*7D
$GPGSV,4,2,16,18,33,281,34,20,14,034,16,23,38,208,23,24,37,184,26*70
$GPGSV,4,3,16,25,50,343,32,28,02,299,,29,12,339,10,36,52,277,*74
$GPGSV,4,4,16,40,86,351,,41,58,082,,49,32,274,,50,10,089,*79
$GLGSV,3,1,10,68,14,071,,69,34,121,27,70,15,190,,73,59,316,31*61
$GLGSV,3,2,10,74,14,330,,79,05,156,09,80,57,166,19,83,03,014,*6D
$GLGSV,3,3,10,84,17,324,08,85,10,276,11*6C
$GNGLL,0419.83172,S,05539.71983,E,060840.00,A,A*6D
$GNGRS,060840.00,1,6.7,3.2,-13.1,3.9,-18.3,6.6,2.4,23.5,4.7,-4.5,,*44
$GNGRS,060840.00,1,-8.2,12.2,1.0,-3.5,19.1,,,,,,,*71
$GNGST,060840.00,4496890,,,,4.9,4.1,12*58
$GNZDA,060840.00,28,05,2025,00,00*78
$GNGBS,060840.00,4.9,4.1,11.9,,,,*64
$GNTXT,01,01,01,More than 100 frame errors, UART RX was disabled*70
b0Lx/**F5s%"!")&% 2W4+S{4V_:R 
Y
tDGE"yFI;<PJJ
OS
P9STDU
Qp&bxU
)Cg;$GNRMC,060841.00,A,0419.83169,S,05539.71976,E,0.196,,280525,,,A*73
$GNVTG,,T,,M,0.196,N,0.362,K,A*34
$GNGNS,060841.00,0419.83169,S,05539.71976,E,AA,15,0.70,10.2,-47.6,,*6B
$GNGGA,060841.00,0419.83169,S,05539.71976,E,1,12,0.70,10.2,M,-47.6,M,,*46
$GNGSA,A,3,24,05,20,15,12,13,18,29,25,23,,,1.32,0.70,1.12*19
$GNGSA,A,3,80,84,69,73,85,,,,,,,,1.32,0.70,1.12*1B
$GPGSV,4,1,16,05,47,042,30,12,70,053,23,13,14,115,18,15,37,147,20*70
$GPGSV,4,2,16,18,33,281,34,20,14,034,15,23,38,208,24,24,37,184,26*74
$GPGSV,4,3,16,25,50,343,32,28,02,299,,29,12,339,13,36,52,277,*77
$GPGSV,4,4,16,40,86,351,,41,58,082,,49,32,274,,50,10,089,*79
$GLGSV,3,1,10,68,14,071,,69,34,121,15,70,15,190,,73,59,316,31*60
$GLGSV,3,2,10,74,14,330,,79,05,156,11,80,57,166,18,83,03,014,*65
$GLGSV,3,3,10,84,17,324,13,85,10,276,14*63
$GNGLL,0419.83169,S,05539.71976,E,060841.00,A,A*6C
$GNGRS,060841.00,1,7.0,0.4,-15.0,4.4,-18.7,7.0,5.1,23.0,5.6,-6.1,,*49
$GNGRS,060841.00,1,-8.8,11.7,2.4,-6.9,18.7,,,,,,,*75
$GNGST,060841.00,4496177,,,,4.8,4.0,12*59
$GNZDA,060841.00,28,05,2025,00,00*79
$GNGBS,060841.00,4.8,4.0,11.9,,,,*65
$GNTXT,01,01,01,More than 100 frame errors, UART RX was disabled*70
b0L`/*_F5s%|"!D"A&%2W+S<{4V_ :R 
Y
tDGE"yUFI;<JJ
OP9ST
Db/U
x+\b`U
Gg$GNRMC,060842.00,A,0419.83167,S,05539.71975,E,0.108,,280525,,,A*7A
$GNVTG,,T,,M,0.108,N,0.200,K,A*36
$GNGNS,060842.00,0419.83167,S,05539.71975,E,AA,14,0.73,9.6,-47.6,,*5B
$GNGGA,060842.00,0419.83167,S,05539.71975,E,1,12,0.73,9.6,M,-47.6,M,,*77
$GNGSA,A,3,24,05,20,15,12,13,18,25,23,,,,1.38,0.73,1.17*1E
$GNGSA,A,3,80,84,69,73,85,,,,,,,,1.38,0.73,1.17*17
$GPGSV,4,1,16,05,47,042,28,12,70,053,21,13,14,115,18,15,37,147,19*71
$GPGSV,4,2,16,18,33,281,34,20,14,034,15,23,38,208,24,24,37,184,25*77
$GPGSV,4,3,16,25,50,343,31,28,02,299,,29,12,339,21,36,52,277,*75
$GPGSV,4,4,16,40,86,351,,41,58,082,32,49,32,274,,50,10,089,*78
$GLGSV,3,1,10,68,14,071,,69,34,121,15,70,15,190,,73,59,316,30*61
$GLGSV,3,2,10,74,14,330,,79,05,156,12,80,57,166,18,83,03,014,*66
$GLGSV,3,3,10,84,17,324,10,85,10,276,12*66
$GNGLL,0419.83167,S,05539.71975,E,060842.00,A,A*62
$GNGRS,060842.00,1,9.1,-1.6,-14.7,6.4,-15.8,5.3,3.2,7.3,-8.2,,,*7C
$GNGRS,060842.00,1,-8.7,121,6.0,-7.9,-14.2,,,,,,,*77
$GNGST,060842.00,54,,,,4.8,4.0,12*65
$GNZDA,060842.00,28,05,2025,00,00*7A
$GNGBS,060842.00,4.8,4.0,12.0,,,,*6C
$GNTXT,01,01,01,More than 100 frame errors, UART RX was disabled*70
b0LH/*F5VsK%-#!"#&%+ 2W+S{4V_ :R 
Y
tDGE"yzFI;<zJJ
O
P9ST
DU

bHU
Jg$GNRMC,060843.00,A,0419.83165,S,05539.71974,E,0.137,,280525,,,A*74
$GNVTG,,T,,M,0.137,N,0.254,K,A*3B
$GNGNS,060843.00,0419.83165,S,05539.71974,E,AA,14,0.70,9.2,-47.6,,*5E
$GNGGA,060843.00,0419.83165,S,05539.71974,E,1,12,0.70,9.2,M,-47.6,M,,*72
$GNGSA,A,3,24,05,20,15,12,13,18,25,23,,,,1.32,0.70,1.12*12
$GNGSA,A,3,80,84,69,73,85,,,,,,,,1.32,0.70,1.12*1B
$GPGSV,4,1,16,05,47,042,27,12,70,053,20,13,14,115,17,15,37,147,22*78
$GPGSV,4,2,16,18,33,281,35,20,14,034,16,23,38,208,24,24,37,184,25*75
$GPGSV,4,3,16,25,50,343,32,28,02,299,,29,12,339,20,36,52,277,*77
$GPGSV,4,4,16,40,86,351,,41,58,082,32,49,32,274,,50,10,089,*78
$GLGSV,3,1,10,68,14,071,,69,34,121,18,70,15,190,,73,59,316,31*6D
$GLGSV,3,2,10,74,14,330,,79,05,156,09,80,57,166,20,83,03,014,*67
$GLGSV,3,3,10,84,17,324,10,85,10,276,10*64
$GNGLL,0419.83165,S,05539.71974,E,060843.00,A,A*60
$GNGRS,060843.00,1,8.1,2.0,-15.0,5.6,-14.5,5.9,3.9,6.5,-11.0,,,*63
$GNGRS,060843.00,1,-5.5,12.4,8.9,-3.9,19.2,,,,,,,*71
$GNGST,060843.00,4496177,,,,4.7,4.0,12*54
$GNZDA,060843.00,28,05,2025,00,00*7B
$GNGBS,060843.00,4.7,4.0,12.0,,,,*62
$GNTXT,01,01,01,More than 100 frame errors, UART RX was disabled*70
b0L0/*F5_s%P"!"&%!2W+S{4V_":R 
Y
tDGE"yFI;<JJ
O
v
P9+STDU

Vhb0U
Ngp$GNRMC,060844.00,A,0419.83166,S,05539.71972,E,0.077,,280525,,,A*73
$GNVTG,,T,,M,0.077,N,0.142,K,A*3A
$GNGNS,060844.00,0419.83166,S,05539.71972,E,AA,14,0.70,8.9,-47.6,,*56
$GNGGA,060844.00,0419.83166,S,05539.71972,E,1,12,0.70,8.9,M,-47.6,M,,*7A
$GNGSA,A,3,24,05,20,15,12,13,18,25,23,,,,1.32,0.70,1.12*12
$GNGSA,A,3,80,84,69,73,85,,,,,,,,1.32,0.70,1.12*1B
$GPGSV,4,1,16,05,47,042,27,12,70,053,18,13,14,115,20,15,37,147,25*70
$GPGSV,4,2,16,18,33,281,34,20,14,034,19,23,38,208,24,24,37,184,25*7B
$GPGSV,4,3,16,25,50,343,33,28,02,299,,29,12,339,18,36,52,277,*7D
$GPGSV,4,4,16,40,86,351,,41,58,082,34,49,32,274,,50,10,089,*7E
$GLGSV,3,1,10,68,14,071,,69,34,121,20,70,15,190,,73,59,316,31*66
$GLGSV,3,2,10,74,14,330,,79,05,156,10,80,57,166,23,83,03,014,*6C
$GLGSV,3,3,10,84,17,324,12,85,10,276,10*66
$GNGLL,0419.83166,S,05539.71972,E,060844.00,A,A*62
$GNGRS,060844.00,1,6.5,-3.2,-13.3,5.9,-17.0,6.5,4.5,7.5,-8.8,,,*79
$GNGRS,060844.00,1,-2.1,12.1,9.5,1.7,18.8,,,,,,,*57
$GNGST,060844.00,4496177,,,,4.7,3.9,12*5D
$GNZDA,060844.00,28,05,2025,00,00*7C
$GNGBS,060844.00,4.7,3.9,12.0,,,,*6B
$GNTXT,01,01,01,More than 100 frame errors, UART RX was disabled*70
b0L/*^F5s%[!!"&%} 2W+S{4V_":R 
Y
tDGE"yFI;<JJ
O|P9hSTD>U
bU
Rg]$GNRMC,060845.00,A,0419.83168,S,05539.71966,E,0.076,,280525,,,A*78
$GNVTG,,T,,M,0.076,N,0.141,K,A*38
$GNGNS,060845.00,0419.83168,S,05539.71966,E,AA,14,0.84,8.9,-47.6,,*57
$GNGGA,060845.00,0419.83168,S,05539.71966,E,1,12,0.84,8.9,M,-47.6,M,,*7B
$GNGSA,A,3,24,05,20,15,12,13,18,25,23,,,,1.71,0.84,1.49*10
$GNGSA,A,3,80,84,69,73,85,,,,,,,,1.71,0.84,1.49*19
$GPGSV,4,1,16,05,47,042,27,12,70,053,15,13,14,115,20,15,37,147,24*7C
$GPGSV,4,2,16,18,33,281,33,20,14,034,21,23,38,208,22,24,37,184,25*71
$GPGSV,4,3,16,25,50,343,32,28,02,299,,29,12,339,16,36,52,277,*72
$GPGSV,4,4,16,40,86,351,,41,58,082,34,49,32,274,,50,10,089,*7E
$GLGSV,3,1,10,68,14,071,,69,34,121,23,70,15,190,,73,59,316,30*64
$GLGSV,3,2,10,74,14,330,,79,05,156,11,80,57,166,24,83,03,014,*6A
$GLGSV,3,3,10,84,17,324,09,85,10,276,09*64
$GNGLL,0419.83168,S,05539.71966,E,060845.00,A,A*68
$GNGRS,060845.00,1,6.4,-1.6,-13.1,6.0,-16.3,4.0,4.5,6.6,-10.1,,,*40
$GNGRS,060845.00,1,-1.5,159,7.8,2.5,60.3,,,,,,,*76
$GNGST,060845.00,41,,,,4.6,3.9,12*66
$GNZDA,060845.00,28,05,2025,00,00*7D
$GNGBS,060845.00,4.6,3.9,12.1,,,,*6A
$GNTXT,01,01,01,More than 100 frame errors, UART RX was disabled*70
b0L/*@F5:s%(!!"W&% 2W+S%{4V_":R 
Y
tDGE"yFI;<JJ
O
P9STDU
bU
Vg5@$GNRMC,060846.00,A,0419.83180,S,05539.71962,E,0.086,,280525,,,A*76
$GNVTG,,T,,M,0.086,N,0.160,K,A*34
$GNGNS,060846.00,0419.83180,S,05539.71962,E,AA,15,0.68,9.3,-47.6,,*5E
$GNGGA,060846.00,0419.83180,S,05539.71962,E,1,12,0.68,9.3,M,-47.6,M,,*73
$GNGSA,A,3,24,05,20,15,12,13,18,29,25,23,,,1.27,0.68,1.07*10
$GNGSA,A,3,80,84,69,73,85,,,,,,,,1.27,0.68,1.07*12
$GPGSV,4,1,16,05,47,042,28,12,70,053,15,13,14,115,19,15,37,147,24*79
$GPGSV,4,2,16,18,33,281,33,20,14,034,21,23,38,208,19,24,37,184,25*79
$GPGSV,4,3,16,25,50,343,32,28,02,299,,29,12,339,16,36,52,277,*72
$GPGSV,4,4,16,40,86,351,,41,58,082,34,49,32,274,,50,10,089,*7E
$GLGSV,3,1,10,68,14,071,,69,34,121,22,70,15,190,,73,59,316,31*64
$GLGSV,3,2,10,74,14,330,,79,05,156,11,80,57,166,23,83,03,014,*6D
$GLGSV,3,3,10,84,17,324,08,85,10,276,09*65
$GNGLL,0419.83180,S,05539.71962,E,060846.00,A,A*69
$GNGRS,060846.00,1,7.2,-4.5,-11.9,8.1,-12.2,4.4,4.7,-30.3,6.7,-12.7,,*72
$GNGRS,060846.00,1,0.2,12.7,6.5,1.4,19.7,,,,,,,*7D
$GNGST,060846.00,3071475,,,,4.6,3.9,12*53
$GNZDA,060846.00,28,05,2025,00,00*7E
$GNGBS,060846.00,4.6,3.9,12.1,,,,*69
$GNTXT,01,01,01,More than 100 frame errors, UART RX was disabled*70
b0L/*F5#s% !"&H%B!2W~+SQ{4V_!:R 
Y
tDGE"yPFI;<JJ
O
P9)STDU
bU
Zg$GNRMC,060847.00,A,0419.83187,S,05539.71955,E,0.054,,280525,,,A*7B
$GNVTG,,T,,M,0.054,N,0.100,K,A*3D
$GNGNS,060847.00,0419.83187,S,05539.71955,E,AA,15,0.68,9.9,-47.6,,*56
$GNGGA,060847.00,0419.83187,S,05539.71955,E,1,12,0.68,9.9,M,-47.6,M,,*7B
$GNGSA,A,3,24,05,20,15,12,13,18,29,25,23,,,1.27,0.68,1.07*10
$GNGSA,A,3,80,84,69,73,85,,,,,,,,1.27,0.68,1.07*12
$GPGSV,4,1,16,05,47,042,27,12,70,053,18,13,14,115,16,15,37,147,26*76
$GPGSV,4,2,16,18,33,281,32,20,14,034,21,23,38,208,18,24,37,184,23*7F
$GPGSV,4,3,16,25,50,343,33,28,02,299,,29,12,339,17,36,52,277,*72
$GPGSV,4,4,16,40,86,351,,41,58,082,33,49,32,274,,50,10,089,*79
$GLGSV,3,1,10,68,14,071,,69,34,121,22,70,15,190,,73,59,316,31*64
$GLGSV,3,2,10,74,14,330,,79,05,156,09,80,57,166,21,83,03,014,*66
$GLGSV,3,3,10,84,17,324,07,85,10,276,09*6A
$GNGLL,0419.83187,S,05539.71955,E,060847.00,A,A*6B
$GNGRS,060847.00,1,8.3,-3.0,-10.5,7.4,-7.3,4.1,4.1,-19.7,6.4,-17.2,,*42
$GNGRS,060847.00,1,0.4,12.8,5.9,4.3,19.9,,,,,,,*76
$GNGST,060847.00,3071477,,,,4.6,3.9,12*50
$GNZDA,060847.00,28,05,2025,00,00*7F
$GNGBS,060847.00,4.6,3.9,12.1,,,,*68
$GNTXT,01,01,01,More than 100 frame errors, UART RX was disabled*70
b0L/*F5z
s% !"&A%"2WL+S{4V_!:R 
Y
tDGE"y?FI;<JJ
O1P9ESTDU
[bU
^g$GNRMC,060848.00,A,0419.83186,S,05539.71955,E,0.073,,280525,,,A*70
$GNVTG,,T,,M,0.073,N,0.135,K,A*3E
$GNGNS,060848.00,0419.83186,S,05539.71955,E,AA,15,0.78,9.9,-47.6,,*59
$GNGGA,060848.00,0419.83186,S,05539.71955,E,1,12,0.78,9.9,M,-47.6,M,,*74
$GNGSA,A,3,24,05,20,15,12,13,18,29,25,23,,,1.47,0.78,1.25*17
$GNGSA,A,3,80,84,69,73,85,,,,,,,,1.47,0.78,1.25*15
$GPGSV,4,1,16,05,47,042,29,12,70,053,24,13,14,115,10,15,37,147,24*73
$GPGSV,4,2,16,18,33,281,32,20,14,034,21,23,38,208,19,24,37,184,22*7F
$GPGSV,4,3,16,25,50,343,34,28,02,299,,29,12,339,18,36,52,277,*7A
$GPGSV,4,4,16,40,86,351,,41,58,082,33,49,32,274,,50,10,089,*79
$GLGSV,3,1,10,68,14,071,18,69,34,121,20,70,15,190,,73,59,316,31*6F
$GLGSV,3,2,10,74,14,330,,79,05,156,11,80,57,166,21,83,03,014,*6F
$GLGSV,3,3,10,84,17,324,11,85,10,276,09*6D
$GNGLL,0419.83186,S,05539.71955,E,060848.00,A,A*65
$GNGRS,060848.00,1,6.4,-0.6,-11.2,5.4,-3.9,4.2,4.2,-18.5,5.9,-19.8,,*42
$GNGRS,060848.00,1,0.7,-28.2,5.7,-0.1,-88.7,,,,,,,*5A
$GNGST,060848.00,49,,,,4.6,3.9,12*63
$GNZDA,060848.00,28,05,2025,00,00*70
$GNGBS,060848.00,4.6,3.9,12.1,,,,*67
$GNTXT,01,01,01,More than 100 frame errors, UART RX was disabled*70
b0L/*F5js%T !"&Q%7#2W+S{4V_":R 
Y
tDGE"yFI;<JJ
O
P9ST
DU

BbU
ibgw$GNRMC,060849.00,A,0419.83183,S,05539.71945,E,0.250,,280525,,,A*76
$GNVTG,,T,,M,0.250,N,0.463,K,A*3B
$GNGNS,060849.00,0419.83183,S,05539.71945,E,AA,14,0.74,10.5,-47.6,,*65
$GNGGA,060849.00,0419.83183,S,05539.71945,E,1,12,0.74,10.5,M,-47.6,M,,*49
$GNGSA,A,3,24,05,20,15,12,18,29,25,23,,,,1.42,0.74,1.21*18
$GNGSA,A,3,80,84,69,73,85,,,,,,,,1.42,0.74,1.21*18
$GPGSV,4,1,16,05,47,042,30,12,70,053,25,13,14,115,09,15,37,147,24*72
$GPGSV,4,2,16,18,33,281,32,20,14,034,23,23,38,208,18,24,37,184,22*7C
$GPGSV,4,3,16,25,50,343,35,28,02,299,,29,12,339,17,36,52,277,*74
$GPGSV,4,4,16,40,86,351,,41,58,082,34,49,32,274,,50,10,089,*7E
$GLGSV,3,1,10,68,14,071,,69,34,121,19,70,15,190,,73,59,316,30*6D
$GLGSV,3,2,10,74,14,330,,79,05,156,09,80,57,166,21,83,03,014,*66
$GLGSV,3,3,10,84,17,324,10,85,10,276,10*64
$GNGLL,0419.83183,S,05539.71945,E,060849.00,A,A*60
$GNGRS,060849.00,1,5.7,-8.0,-12.5,3.4,-1.5,3.9,-17.6,5.3,-19.7,,,*6C
$GNGRS,060849.00,1,-0.1,12.9,7.7,-2.4,19.8,,,,,,,*70
$GNGST,060849.00,4496177,,,,4.6,3.9,12*51
$GNZDA,060849.00,28,05,2025,00,00*71
$GNGBS,060849.00,4.6,3.9,12.1,,,,*66
$GNTXT,01,01,01,More than 100 frame errors, UART RX was disabled*70
b0L/*oF5's%f!"&%#2W+S{4V_":R 
Y
uDGE"yFI;<~JJ
OP9STDU
bU
Qfg$GNRMC,060850.00,A,0419.83188,S,05539.71939,E,0.045,,280525,,,A*78
$GNVTG,,T,,M,0.045,N,0.083,K,A*37
$GNGNS,060850.00,0419.83188,S,05539.71939,E,AA,15,0.68,11.0,-47.6,,*65
$GNGGA,060850.00,0419.83188,S,05539.71939,E,1,12,0.68,11.0,M,-47.6,M,,*48
$GNGSA,A,3,24,05,20,15,12,13,18,29,25,23,,,1.27,0.68,1.07*10
$GNGSA,A,3,80,84,69,73,85,,,,,,,,1.27,0.68,1.07*12
$GPGSV,4,1,16,05,47,042,29,12,70,053,26,13,14,115,09,15,37,147,22*7F
$GPGSV,4,2,16,18,33,281,31,20,14,034,23,23,38,208,17,24,37,184,21*73
$GPGSV,4,3,16,25,50,343,35,28,02,299,,29,12,339,17,36,52,277,*74
$GPGSV,4,4,16,40,86,351,,41,58,082,34,49,32,274,,50,10,089,*7E
$GLGSV,3,1,10,68,14,071,,69,34,121,18,70,15,190,,73,59,316,29*64
$GLGSV,3,2,10,74,14,330,,79,05,156,11,80,57,166,19,83,03,014,*64
$GLGSV,3,3,10,84,17,324,11,85,10,276,09*6D
$GNGLL,0419.83188,S,05539.71939,E,060850.00,A,A*68
$GNGRS,060850.00,1,4.6,-6.6,-13.3,3.6,0.4,10.4,4.0,-16.4,4.8,-16.5,,*55
$GNGRS,060850.00,1,-0.8,13.1,9.2,-3.9,19.9,,,,,,,*7E
$GNGST,060850.00,4344409,,,,4.6,3.9,12*5D
$GNZDA,060850.00,28,05,2025,00,00*79
$GNGBS,060850.00,4.6,3.9,12.1,,,,*6E
$GNTXT,01,01,01,More than 100 frame errors, UART RX was disabled*70
b0L/*"F5s%#!"&,%##2W+S{4V_!:R 
Y
uDGE"yFI;<JJ
OOP9STDU

wbbU
9jgmG$GNRMC,060851.00,A,0419.83187,S,05539.71930,E,0.171,,280525,,,A*79
$GNVTG,,T,,M,0.171,N,0.317,K,A*3F
$GNGNS,060851.00,0419.83187,S,05539.71930,E,AA,15,0.76,11.1,-47.6,,*6C
$GNGGA,060851.00,0419.83187,S,05539.71930,E,1,12,0.76,11.1,M,-47.6,M,,*41
$GNGSA,A,3,24,05,20,15,12,13,18,29,25,23,,,1.45,0.76,1.23*1D
$GNGSA,A,3,80,84,69,73,85,,,,,,,,1.45,0.76,1.23*1F
$GPGSV,4,1,16,05,47,042,29,12,70,053,26,13,14,115,07,15,37,147,22*71
$GPGSV,4,2,16,18,33,281,35,20,14,034,21,23,38,208,14,24,37,184,22*75
$GPGSV,4,3,16,25,50,343,35,28,02,299,,29,12,339,16,36,52,277,*75
$GPGSV,4,4,16,40,86,351,,41,58,082,33,49,32,274,,50,10,089,*79
$GLGSV,3,1,10,68,14,071,,69,34,121,17,70,15,190,,73,59,316,29*6B
$GLGSV,3,2,10,74,14,330,,79,05,156,09,80,57,166,20,83,03,014,*67
$GLGSV,3,3,10,84,17,324,09,85,10,276,10*6C
$GNGLL,0419.83187,S,05539.71930,E,060851.00,A,A*6F
$GNGRS,060851.00,1,5.5,-4.8,-13.8,5.2,3.8,-48.5,4.1,-13.7,4.6,-17.5,,*75
$GNGRS,060851.00,1,-0.9,-134,7.3,-3.7,-6.5,,,,,,,*66
$GNGST,060851.00,55,,,,4.6,3.9,12*66
$GNZDA,060851.00,28,05,2025,00,00*78
$GNGBS,060851.00,4.6,3.9,12.1,,,,*6F
$GNTXT,01,01,01,More than 100 frame errors, UART RX was disabled*70
b0Lp/*F5s"%D"!"e&%#2W|+S;{4V_ :R 
Y
uDGE"yFI;<(JJ
O
P9STDU
$bpU
!ngE$GNRMC,060852.00,A,0419.83199,S,05539.71929,E,0.294,,280525,,,A*75
$GNVTG,,T,,M,0.294,N,0.545,K,A*36
$GNGNS,060852.00,0419.83199,S,05539.71929,E,AA,15,0.74,11.2,-47.6,,*69
$GNGGA,060852.00,0419.83199,S,05539.71929,E,1,12,0.74,11.2,M,-47.6,M,,*44
$GNGSA,A,3,24,05,20,15,12,13,18,29,25,23,,,1.42,0.74,1.21*1A
$GNGSA,A,3,80,84,69,73,85,,,,,,,,1.42,0.74,1.21*18
$GPGSV,4,1,16,05,47,042,29,12,70,053,27,13,14,115,11,15,37,147,22*77
$GPGSV,4,2,16,18,33,281,34,20,14,034,20,23,38,208,15,24,37,184,24*72
$GPGSV,4,3,16,25,50,343,35,28,02,299,,29,12,339,17,36,52,277,*74
$GPGSV,4,4,16,40,86,351,,41,58,082,32,49,32,274,,50,10,089,*78
$GLGSV,3,1,10,68,14,071,,69,34,121,18,70,15,190,,73,59,316,30*6C
$GLGSV,3,2,10,74,14,330,,79,05,156,07,80,57,166,22,83,03,014,*6B
$GLGSV,3,3,10,84,17,324,08,85,10,276,11*6C
$GNGLL,0419.83199,S,05539.71929,E,060852.00,A,A*6B
$GNGRS,060852.00,1,5.4,-2.3,-14.4,5.8,3.8,20.8,4.0,-12.2,3.8,-18.7,,*54
$GNGRS,060852.00,1,-3.4,12.7,7.4,-4.7,19.5,,,,,,,*79
$GNGST,060852.00,3179279,,,,4.6,3.9,12*55
$GNZDA,060852.00,28,05,2025,00,00*7B
$GNGBS,060852.00,4.6,3.9,12.1,,,,*6C
$GNTXT,01,01,01,More than 100 frame errors, UART RX was disabled*70
b0LX/*5F5
s%!!"&+%#2W"+S{4V_:R 
Y
uDGE"y]FI;<JJ
O}
P9STDU
bXU
rg$GNRMC,060853.00,A,0419.83209,S,05539.71928,E,0.247,,280525,,,A*71
$GNVTG,,T,,M,0.247,N,0.458,K,A*35
$GNGNS,060853.00,0419.83209,S,05539.71928,E,AA,15,0.74,11.5,-47.6,,*64
$GNGGA,060853.00,0419.83209,S,05539.71928,E,1,12,0.74,11.5,M,-47.6,M,,*49
$GNGSA,A,3,24,05,20,15,12,13,18,29,25,23,,,1.42,0.74,1.21*1A
$GNGSA,A,3,80,84,69,73,85,,,,,,,,1.42,0.74,1.21*18
$GPGSV,4,1,16,05,47,042,29,12,70,053,27,13,14,115,10,15,37,147,21*75
$GPGSV,4,2,16,18,33,281,33,20,14,034,19,23,38,208,13,24,37,184,25*78
$GPGSV,4,3,16,25,50,343,35,28,02,299,,29,12,339,15,36,52,277,*76
$GPGSV,4,4,16,40,86,351,,41,58,082,31,49,32,274,,50,10,089,*7B
$GLGSV,3,1,10,68,14,071,,69,34,121,21,70,15,190,,73,59,316,30*66
$GLGSV,3,2,10,74,14,330,,79,05,156,09,80,57,166,22,83,03,014,*65
$GLGSV,3,3,10,84,17,324,08,85,10,276,12*6F
$GNGLL,0419.83209,S,05539.71928,E,060853.00,A,A*61
$GNGRS,060853.00,1,4.9,3.1,-15.1,5.3,4.0,20.6,4.2,-10.9,2.9,-20.1,,*7F
$GNGRS,060853.00,1,-0.6,12.7,8.6,-3.7,19.5,,,,,,,*73
$GNGST,060853.00,3179280,,,,4.6,3.9,12*52
$GNZDA,060853.00,28,05,2025,00,00*7A
$GNGBS,060853.00,4.6,3.9,12.1,,,,*6D
$GNTXT,01,01,01,More than 100 frame errors, UART RX was disabled*70
b0L@/*F5s-% !"&S%"2W+S{4V_:R 
Y
uDGE"yFI;<JJ
OCP9jST
D4U
b@U
ug|$GNRMC,060854.00,A,0419.83217,S,05539.71926,E,0.135,,280525,,,A*71
$GNVTG,,T,,M,0.135,N,0.251,K,A*3C
$GNGNS,060854.00,0419.83217,S,05539.71926,E,AA,15,0.83,11.7,-47.6,,*68
$GNGGA,060854.00,0419.83217,S,05539.71926,E,1,12,0.83,11.7,M,-47.6,M,,*45
$GNGSA,A,3,24,05,20,15,12,13,18,29,25,23,,,1.62,0.83,1.39*19
$GNGSA,A,3,80,84,69,73,85,,,,,,,,1.62,0.83,1.39*1B
$GPGSV,4,1,16,05,47,042,28,12,70,053,29,13,14,115,09,15,37,147,22*71
$GPGSV,4,2,16,18,33,281,32,20,14,034,18,23,38,208,13,24,37,184,24*79
$GPGSV,4,3,16,25,50,343,34,28,02,299,,29,12,339,15,36,52,277,*77
$GPGSV,4,4,16,40,86,351,,41,58,082,31,49,32,274,,50,10,089,*7B
$GLGSV,3,1,10,68,14,071,,69,34,121,22,70,15,190,,73,59,316,28*6C
$GLGSV,3,2,10,74,14,330,,79,05,156,09,80,57,166,21,83,03,014,*66
$GLGSV,3,3,10,84,17,324,10,85,10,276,09*6C
$GNGLL,0419.83217,S,05539.71926,E,060854.00,A,A*67
$GNGRS,060854.00,1,5.4,0.3,-16.2,6.6,1.5,117,3.9,-8.2,2.7,-19.6,,*63
$GNGRS,060854.00,1,-1.5,135,7.5,0.0,-59.7,,,,,,,*55
$GNGST,060854.00,44,,,,4.6,3.9,12*63
$GNZDA,060854.00,28,05,2025,00,00*7D
$GNGBS,060854.00,4.6,3.9,12.1,,,,*6A
$GNTXT,01,01,01,More than 100 frame errors, UART RX was disabled*70
b0L(/*6F5s,%p !"&%#2W+SB{4V_ :R 
Y
uDGE"yFI;<4JJ
O

P9cST
DU
XGb(U
yg$GNRMC,060855.00,A,0419.83226,S,05539.71927,E,0.017,,280525,,,A*72
$GNVTG,,T,,M,0.017,N,0.032,K,A*3A
$GNGNS,060855.00,0419.83226,S,05539.71927,E,AA,15,0.74,12.0,-47.6,,*66
$GNGGA,060855.00,0419.83226,S,05539.71927,E,1,12,0.74,12.0,M,-47.6,M,,*4B
$GNGSA,A,3,24,05,20,15,12,13,18,29,25,23,,,1.42,0.74,1.21*1A
$GNGSA,A,3,80,84,69,73,85,,,,,,,,1.42,0.74,1.21*18
$GPGSV,4,1,16,05,47,042,28,12,70,053,30,13,14,115,07,15,37,147,23*76
$GPGSV,4,2,16,18,33,281,32,20,14,034,18,23,38,208,11,24,37,184,25*7A
$GPGSV,4,3,16,25,50,343,35,28,02,299,,29,12,339,17,36,52,277,*74
$GPGSV,4,4,16,40,86,351,,41,58,082,32,49,32,274,,50,10,089,*78
$GLGSV,3,1,10,68,14,071,,69,34,121,24,70,15,190,,73,59,316,28*6A
$GLGSV,3,2,10,74,14,330,,79,05,156,10,80,57,166,22,83,03,014,*6D
$GLGSV,3,3,10,84,17,324,10,85,10,276,14*60
$GNGLL,0419.83226,S,05539.71927,E,060855.00,A,A*65
$GNGRS,060855.00,1,4.0,0.5,-15.5,6.2,4.2,20.9,4.0,-7.0,1.9,-18.8,,*40
$GNGRS,060855.00,1,-1.6,12.7,9.0,-4.6,19.6,,,,,,,*76
$GNGST,060855.00,3179923,,,,4.6,3.9,12*56
$GNZDA,060855.00,28,05,2025,00,00*7C
$GNGBS,060855.00,4.6,3.9,12.0,,,,*6A
$GNTXT,01,01,01,More than 100 frame errors, UART RX was disabled*70
b0L/*+F5s(%.!"T
&;%#2W+SO{4V_ :R 
Y
uDGE"yFI;<nJJ
O
P9ST
DU

bU
}gL$GNRMC,060856.00,A,0419.83234,S,05539.71925,E,0.023,,280525,,,A*77
$GNVTG,,T,,M,0.023,N,0.043,K,A*3B
$GNGNS,060856.00,0419.83234,S,05539.71925,E,AA,14,0.78,12.4,-47.6,,*6D
$GNGGA,060856.00,0419.83234,S,05539.71925,E,1,12,0.78,12.4,M,-47.6,M,,*41
$GNGSA,A,3,24,05,20,15,12,13,18,29,25,,,,1.44,0.78,1.21*11
$GNGSA,A,3,80,84,69,73,85,,,,,,,,1.44,0.78,1.21*12
$GPGSV,4,1,16,05,47,042,28,12,70,053,30,13,14,115,07,15,37,147,26*73
$GPGSV,4,2,16,18,33,281,31,20,14,034,19,23,38,208,10,24,37,184,27*7B
$GPGSV,4,3,16,25,50,343,35,28,02,299,,29,12,339,18,36,52,277,*7B
$GPGSV,4,4,16,40,86,351,,41,58,082,32,49,32,274,,50,10,089,*78
$GLGSV,3,1,10,68,14,071,,69,34,121,23,70,15,190,,73,59,316,28*6D
$GLGSV,3,2,10,74,14,330,,79,05,156,08,80,57,166,22,83,03,014,*64
$GLGSV,3,3,10,84,17,324,10,85,10,276,12*66
$GNGLL,0419.83234,S,05539.71925,E,060856.00,A,A*67
$GNGRS,060856.00,1,2.4,3.0,-14.5,5.6,0.2,20.9,4.1,-6.9,1.6,,,*71
$GNGRS,060856.00,1,-0.9,12.8,7.4,1.1,19.6,,,,,,,*51
$GNGST,060856.00,3300800,,,,4.5,3.9,12*5A
$GNZDA,060856.00,28,05,2025,00,00*7F
$GNGBS,060856.00,4.5,3.9,12.0,,,,*6A
$GNTXT,01,01,01,More than 100 frame errors, UART RX was disabled*70
b0L"/*F5s`%B!"X&$%#2W+S{4V_ :R 
Y
uDGE"x8FI;<rJJ
O
P9STD,U
zb"U
g{$GNRMC,060857.00,A,0419.83237,S,05539.71922,E,0.028,,280525,,,A*79
$GNVTG,,T,,M,0.028,N,0.052,K,A*30
$GNGNS,060857.00,0419.83237,S,05539.71922,E,AA,15,0.80,12.9,-47.6,,*63
$GNGGA,060857.00,0419.83237,S,05539.71922,E,1,12,0.80,12.9,M,-47.6,M,,*4E
$GNGSA,A,3,24,05,20,15,12,13,18,29,25,23,,,1.47,0.80,1.23*16
$GNGSA,A,3,80,84,69,73,85,,,,,,,,1.47,0.80,1.23*14
$GPGSV,4,1,16,05,47,042,27,12,70,053,29,13,14,115,07,15,37,147,24*76
$GPGSV,4,2,16,18,33,281,31,20,14,034,18,23,38,208,12,24,37,184,29*76
$GPGSV,4,3,16,25,50,343,35,28,02,299,,29,12,339,18,36,52,277,*7B
$GPGSV,4,4,16,40,86,351,,41,58,082,32,49,32,274,,50,10,089,*78
$GLGSV,3,1,10,68,14,071,,69,34,120,25,70,15,190,,73,59,316,28*6A
$GLGSV,3,2,10,74,14,330,,79,05,156,10,80,57,166,23,83,03,014,*6C
$GLGSV,3,3,10,84,17,324,07,85,10,276,16*64
$GNGLL,0419.83237,S,05539.71922,E,060857.00,A,A*62
$GNGRS,060857.00,1,-2.5,-0.5,-17.0,3.2,6.6,-24.6,4.3,-7.5,1.3,-20.1,,*6D
$GNGRS,060857.00,1,-2.6,-50.8,8.2,-1.4,-9.0,,,,,,,*4D
$GNGST,060857.00,47,,,,4.4,3.9,12*61
$GNZDA,060857.00,28,05,2025,00,00*7E
$GNGBS,060857.00,4.4,3.9,11.9,,,,*60
$GNTXT,01,01,01,More than 100 frame errors, UART RX was disabled*70
b0L&/*F5sX% !"&a%"2Wb+Sh{4V_:R 
Y
uDGE"x#FI;<)JJ
O
P9STDU
b&U
gS$GNRMC,060858.00,A,0419.83249,S,05539.71915,E,0.245,,280525,,,A*72
$GNVTG,,T,,M,0.245,N,0.453,K,A*3C
$GNGNS,060858.00,0419.83249,S,05539.71915,E,AA,15,0.74,13.5,-47.6,,*67
$GNGGA,060858.00,0419.83249,S,05539.71915,E,1,12,0.74,13.5,M,-47.6,M,,*4A
$GNGSA,A,3,24,05,20,15,12,13,18,29,25,23,,,1.42,0.74,1.21*1A
$GNGSA,A,3,80,84,69,73,85,,,,,,,,1.42,0.74,1.21*18
$GPGSV,4,1,16,05,47,042,25,12,70,053,27,13,14,115,07,15,37,147,22*7C
$GPGSV,4,2,16,18,33,281,32,20,14,034,16,23,38,208,11,24,37,184,28*79
$GPGSV,4,3,16,25,50,343,34,28,02,299,,29,12,339,18,36,52,277,*7A
$GPGSV,4,4,16,40,86,351,,41,58,082,30,49,32,274,,50,10,089,*7A
$GLGSV,3,1,10,68,14,071,,69,34,120,25,70,16,189,,73,59,316,28*61
$GLGSV,3,2,10,74,14,330,,79,05,156,09,80,57,166,22,83,03,014,*65
$GLGSV,3,3,10,84,17,324,11,85,10,276,09*6D
$GNGLL,0419.83249,S,05539.71915,E,060858.00,A,A*60
$GNGRS,060858.00,1,1.3,-3.6,-16.1,1.9,5.4,21.4,4.5,-6.6,1.0,-19.5,,*61
$GNGRS,060858.00,1,-3.0,12.9,10.6,-2.2,19.7,,,,,,,*4C
$GNGST,060858.00,4496177,,,,4.4,3.9,12*53
$GNZDA,060858.00,28,05,2025,00,00*71
$GNGBS,060858.00,4.4,3.9,11.9,,,,*6F
$GNTXT,01,01,01,More than 100 frame errors, UART RX was disabled*70
b0L*/*oF5&sv%@ !"H&%m"2W@+S{4V_:R 
Y
uDGE"xvFI;<JJ
O
P9STDU
Vb*U
yg+u$GNRMC,060859.00,A,0419.83257,S,05539.71905,E,0.209,,280525,,,A*75
$GNVTG,,T,,M,0.209,N,0.386,K,A*3B
$GNGNS,060859.00,0419.83257,S,05539.71905,E,AA,15,0.68,14.2,-47.6,,*65
$GNGGA,060859.00,0419.83257,S,05539.71905,E,1,12,0.68,14.2,M,-47.6,M,,*48
$GNGSA,A,3,24,05,20,15,12,13,18,29,25,23,,,1.26,0.68,1.07*11
$GNGSA,A,3,80,84,69,73,85,,,,,,,,1.26,0.68,1.07*13
$GPGSV,4,1,16,05,47,042,24,12,70,053,27,13,14,115,07,15,37,147,22*7D
$GPGSV,4,2,16,18,33,281,32,20,14,034,13,23,38,208,11,24,37,184,28*7C
$GPGSV,4,3,16,25,50,343,34,28,02,299,,29,12,339,17,36,52,277,*75
$GPGSV,4,4,16,40,86,351,,41,58,082,30,49,32,274,,50,10,089,*7A
$GLGSV,3,1,10,68,14,071,,69,34,120,24,70,16,189,,73,59,316,26*6E
$GLGSV,3,2,10,74,14,330,,79,05,156,09,80,57,166,19,83,03,014,*6D
$GLGSV,3,3,10,84,17,324,11,85,10,276,14*61
$GNGLL,0419.83257,S,05539.71905,E,060859.00,A,A*6F
$GNGRS,060859.00,1,-1.5,-6.6,-17.2,0.6,10.6,21.7,4.3,-6.0,0.6,-24.2,,*79
$GNGRS,060859.00,1,-6.2,13.0,11.4,-0.7,19.8,,,,,,,*49
$GNGST,060859.00,5319948,,,,4.3,3.9,12*50
$GNZDA,060859.00,28,05,2025,00,00*70
$GNGBS,060859.00,4.3,3.9,12.0,,,,*63
$GNTXT,01,01,01,More than 100 frame errors, UART RX was disabled*70
b0L./*{F5s% !"p&%"2W%+SV{4V_:R 
Y
uDGE"xSFI;<xJJ
OP9MST
DU
b.U
ag$GNRMC,060900.00,A,0419.83267,S,05539.71902,E,0.121,,280525,,,A*75
$GNVTG,,T,,M,0.121,N,0.225,K,A*3A
$GNGNS,060900.00,0419.83267,S,05539.71902,E,AA,14,0.76,14.4,-47.6,,*64
$GNGGA,060900.00,0419.83267,S,05539.71902,E,1,12,0.76,14.4,M,-47.6,M,,*48
$GNGSA,A,3,24,05,20,15,12,18,29,25,23,,,,1.45,0.76,1.23*1F
$GNGSA,A,3,80,84,69,73,85,,,,,,,,1.45,0.76,1.23*1F
$GPGSV,4,1,16,05,47,042,23,12,70,053,28,13,14,115,07,15,37,147,22*75
$GPGSV,4,2,16,18,33,281,32,20,14,034,11,23,38,208,13,24,37,184,28*7C
$GPGSV,4,3,16,25,50,343,34,28,02,299,,29,12,339,19,36,52,277,*7B
$GPGSV,4,4,16,40,86,351,,41,58,082,31,49,32,274,,50,10,089,*7B
$GLGSV,3,1,10,68,14,071,,69,34,120,24,70,16,189,,73,59,316,27*6F
$GLGSV,3,2,10,74,14,330,,79,05,156,11,80,57,166,19,83,03,014,*64
$GLGSV,3,3,10,84,17,324,10,85,10,276,12*66
$GNGLL,0419.83267,S,05539.71902,E,060900.00,A,A*66
$GNGRS,060900.00,1,5.4,-3.9,-19.4,1.8,1.9,3.9,-6.8,0.4,-27.9,,,*7B
$GNGRS,060900.00,1,-4.3,-31.7,11.1,1.2,7.1,,,,,,,*77
$GNGST,060900.00,54,,,,4.3,4.0,12*69
$GNZDA,060900.00,28,05,2025,00,00*7D
$GNGBS,060900.00,4.3,4.0,12.0,,,,*60
$GNTXT,01,01,01,More than 100 frame errors, UART RX was disabled*70
b0L2/*nF5
s%B !"&r%z"2W+S{4V_:R 
Y
uDGE"xFI<;tJJ
O
P9STDU
?b2U
IgE$GNRMC,060901.00,A,0419.83270,S,05539.71901,E,0.193,,280525,,,A*78
$GNVTG,,T,,M,0.193,N,0.358,K,A*38
$GNGNS,060901.00,0419.83270,S,05539.71901,E,AA,13,0.85,14.3,-47.6,,*6C
$GNGGA,060901.00,0419.83270,S,05539.71901,E,1,12,0.85,14.3,M,-47.6,M,,*47
$GNGSA,A,3,24,05,15,12,18,29,25,23,,,,,1.62,0.85,1.38*1E
$GNGSA,A,3,80,84,69,73,85,,,,,,,,1.62,0.85,1.38*1C
$GPGSV,4,1,16,05,47,042,22,12,70,053,29,13,14,115,10,15,37,147,22*73
$GPGSV,4,2,16,18,33,281,32,20,14,034,,23,38,208,17,24,37,184,29*79
$GPGSV,4,3,16,25,50,343,34,28,02,299,,29,12,339,20,36,52,277,*71
$GPGSV,4,4,16,40,86,351,,41,58,082,31,49,32,274,,50,10,089,*7B
$GLGSV,3,1,10,68,14,071,,69,34,120,23,70,16,189,,73,60,315,27*61
$GLGSV,3,2,10,74,14,330,,79,05,156,09,80,57,166,22,83,03,014,*65
$GLGSV,3,3,10,84,17,324,09,85,10,276,11*6D
$GNGLL,0419.83270,S,05539.71901,E,060901.00,A,A*62
$GNGRS,060901.00,1,3.8,1.1,3.2,-1.0,4.1,-10.1,0.3,-29.6,,,,*73
$GNGRS,060901.00,1,-3.4,12.5,10.4,1.2,19.4,,,,,,,*66
$GNGST,060901.00,3302535,,,,4.2,4.0,12*59
$GNZDA,060901.00,28,05,2025,00,00*7C
$GNGBS,060901.00,4.2,4.0,12.1,,,,*61
$GNTXT,01,01,01,More than 100 frame errors, UART RX was disabled*70
b0L6/*F5xs%!!s"&h%F!2W+S6{4V_:R 
Y
uDGE"xmFI<;JJ
O
P9?STDU
bLb6U
1g$GNRMC,060902.00,A,0419.83267,S,05539.71912,E,0.106,,280525,,,A*73
$GNVTG,,T,,M,0.106,N,0.196,K,A*34
$GNGNS,060902.00,0419.83267,S,05539.71912,E,AA,13,0.92,13.5,-47.6,,*6C
$GNGGA,060902.00,0419.83267,S,05539.71912,E,1,12,0.92,13.5,M,-47.6,M,,*47
$GNGSA,A,3,24,05,15,12,18,29,25,23,,,,,1.66,0.92,1.39*1D
$GNGSA,A,3,80,84,69,73,85,,,,,,,,1.66,0.92,1.39*1F
$GPGSV,4,1,16,05,47,042,25,12,70,053,30,13,14,115,12,15,37,147,23*7F
$GPGSV,4,2,16,18,33,281,33,20,14,034,,23,38,208,17,24,37,184,28*79
$GPGSV,4,3,16,25,50,343,33,28,02,299,,29,12,339,21,36,52,277,*77
$GPGSV,4,4,16,40,86,351,,41,58,082,31,49,32,274,,50,10,089,*7B
$GLGSV,3,1,10,68,14,071,,69,34,120,23,70,16,189,,73,60,315,26*60
$GLGSV,3,2,10,74,15,330,,79,05,156,12,80,57,166,23,83,03,014,*6F
$GLGSV,3,3,10,84,17,324,12,85,10,276,08*6F
$GNGLL,0419.83267,S,05539.71912,E,060902.00,A,A*65
$GNGRS,060902.00,1,-1.9,7.4,4.4,-1.4,3.7,-9.7,-0.1,-29.7,,,,*49
$GNGRS,060902.00,1,-4.5,11.9,8.8,2.5,18.9,,,,,,,*51
$GNGST,060902.00,4856426,,,,4.2,4.0,12*54
$GNZDA,060902.00,28,05,2025,00,00*7F
$GNGBS,060902.00,4.2,4.0,12.1,,,,*62
$GNTXT,01,01,01,More than 100 frame errors, UART RX was disabled*70
b0Lh:/*lF5vsY%!!Y"&a% 2W+S4{4V_:R 
Y
uDGE"x:FI<;JJ
OP9hSTDU

!!rbh:U
g$GNRMC,060903.00,A,0419.83271,S,05539.71912,E,0.040,,280525,,,A*76
$GNVTG,,T,,M,0.040,N,0.075,K,A*3B
$GNGNS,060903.00,0419.83271,S,05539.71912,E,AA,14,0.94,13.8,-47.6,,*66
$GNGGA,060903.00,0419.83271,S,05539.71912,E,1,12,0.94,13.8,M,-47.6,M,,*4A
$GNGSA,A,3,24,05,15,12,13,18,29,25,23,,,,1.64,0.94,1.34*16
$GNGSA,A,3,80,84,69,73,85,,,,,,,,1.64,0.94,1.34*16
$GPGSV,4,1,16,05,47,042,25,12,70,053,30,13,14,115,07,15,37,147,23*7B
$GPGSV,4,2,16,18,33,281,33,20,14,034,,23,38,208,17,24,37,184,28*79
$GPGSV,4,3,16,25,50,343,32,28,02,299,,29,12,339,21,36,52,277,*76
$GPGSV,4,4,16,40,86,351,,41,58,082,31,49,32,274,,50,10,089,*7B
$GLGSV,3,1,10,68,14,071,,69,34,120,22,70,16,189,,73,60,315,26*61
$GLGSV,3,2,10,74,15,330,,79,05,156,09,80,57,166,21,83,03,014,*67
$GLGSV,3,3,10,84,17,324,08,85,10,276,10*6D
$GNGLL,0419.83271,S,05539.71912,E,060903.00,A,A*63
$GNGRS,060903.00,1,-0.7,11.3,7.4,3.7,-22.2,3.5,-9.7,-0.4,-29.8,,,*61
$GNGRS,060903.00,1,-4.1,50.3,8.3,5.0,86.3,,,,,,,*5F
$GNGST,060903.00,48,,,,4.2,4.1,12*67
$GNZDA,060903.00,28,05,2025,00,00*7E
$GNGBS,060903.00,4.2,4.1,12.2,,,,*61
$GNTXT,01,01,01,More than 100 frame errors, UART RX was disabled*70
b0LP>/*F5osK%R !z"&%K!2W+S{4V_:R 
Y
uDGE"xFI<;LJJ
O

P9USTDU

ObP>U
gc}$GNRMC,060904.00,A,0419.83274,S,05539.71910,E,0.126,,280525,,,A*77
$GNVTG,,T,,M,0.126,N,0.233,K,A*3A
$GNGNS,060904.00,0419.83274,S,05539.71910,E,AA,14,0.92,14.2,-47.6,,*6D
$GNGGA,060904.00,0419.83274,S,05539.71910,E,1,12,0.92,14.2,M,-47.6,M,,*41
$GNGSA,A,3,24,05,15,12,13,18,29,25,23,,,,1.66,0.92,1.39*1F
$GNGSA,A,3,80,84,69,73,85,,,,,,,,1.66,0.92,1.39*1F
$GPGSV,4,1,16,05,47,042,26,12,70,053,29,13,14,115,09,15,37,147,22*7F
$GPGSV,4,2,16,18,33,281,32,20,14,034,,23,38,208,17,24,37,184,28*78
$GPGSV,4,3,16,25,50,343,33,28,02,299,,29,12,339,22,36,52,277,*74
$GPGSV,4,4,16,40,86,351,,41,58,082,31,49,32,274,,50,10,089,*7B
$GLGSV,3,1,10,68,14,071,,69,34,120,23,70,16,189,,73,60,315,26*60
$GLGSV,3,2,10,74,15,330,,79,05,156,10,80,57,166,20,83,03,014,*6E
$GLGSV,3,3,10,84,17,324,11,85,10,276,10*65
$GNGLL,0419.83274,S,05539.71910,E,060904.00,A,A*63
$GNGRS,060904.00,1,-4.4,12.3,5.9,3.7,21.2,3.8,-11.3,-0.8,-28.4,,,*72
$GNGRS,060904.00,1,-4.3,12.8,7.4,5.9,19.8,,,,,,,*5B
$GNGST,060904.00,4856426,,,,4.2,4.1,12*53
$GNZDA,060904.00,28,05,2025,00,00*79
$GNGBS,060904.00,4.2,4.1,12.3,,,,*67
$GNTXT,01,01,01,More than 100 frame errors, UART RX was disabled*70
b0L8B/*{F5$s\%k !"&:%!2W+St{4V_ :R 
Y
uDGE"xBFI<;CJJ
OP9TSTDU
Xb8BU
g:$GNRMC,060905.00,A,0419.83270,S,05539.71910,E,0.080,,280525,,,A*7F
$GNVTG,,T,,M,0.080,N,0.149,K,A*39
$GNGNS,060905.00,0419.83270,S,05539.71910,E,AA,14,0.75,14.6,-47.6,,*65
$GNGGA,060905.00,0419.83270,S,05539.71910,E,1,12,0.75,14.6,M,-47.6,M,,*49
$GNGSA,A,3,24,05,15,12,13,18,29,25,23,,,,1.35,0.75,1.13*18
$GNGSA,A,3,80,84,69,73,85,,,,,,,,1.35,0.75,1.13*18
$GPGSV,4,1,16,05,47,042,27,12,70,053,29,13,14,115,09,15,37,147,23*7F
$GPGSV,4,2,16,18,33,281,32,20,14,034,,23,38,208,16,24,37,184,28*79
$GPGSV,4,3,16,25,50,343,33,28,02,299,,29,12,339,22,36,52,277,*74
$GPGSV,4,4,16,40,86,351,,41,58,082,32,49,32,274,,50,10,089,*78
$GLGSV,3,1,10,68,14,071,,69,34,120,23,70,16,189,,73,60,315,26*60
$GLGSV,3,2,10,74,15,330,,79,05,156,07,80,57,166,21,83,03,014,*69
$GLGSV,3,3,10,84,17,324,12,85,10,276,11*67
$GNGLL,0419.83270,S,05539.71910,E,060905.00,A,A*66
$GNGRS,060905.00,1,-8.4,11.5,6.2,2.9,21.4,4.0,-11.6,-1.3,-27.6,,,*76
$GNGRS,060905.00,1,-6.8,12.8,5.8,5.8,20.0,,,,,,,*5E
$GNGST,060905.00,5506669,,,,4.1,4.1,12*51
$GNZDA,060905.00,28,05,2025,00,00*78
$GNGBS,060905.00,4.1,4.1,12.2,,,,*64
$GNTXT,01,01,01,More than 100 frame errors, UART RX was disabled*70
b0L F/*F5s1%!!{"&<% 2Wr+S{4V_:R 
Y
uDGE"xFI<;JJ
OYP9STDCU
b FU
gJ$GNRMC,060906.00,A,0419.83266,S,05539.71912,E,0.065,,280525,,,A*72
$GNVTG,,T,,M,0.065,N,0.120,K,A*3D
$GNGNS,060906.00,0419.83266,S,05539.71912,E,AA,14,0.77,15.0,-47.6,,*66
$GNGGA,060906.00,0419.83266,S,05539.71912,E,1,12,0.77,15.0,M,-47.6,M,,*4A
$GNGSA,A,3,24,05,15,12,13,18,29,25,23,,,,1.40,0.77,1.17*1C
$GNGSA,A,3,80,84,69,73,85,,,,,,,,1.40,0.77,1.17*1C
$GPGSV,4,1,16,05,47,042,31,12,70,053,29,13,14,115,14,15,37,147,23*74
$GPGSV,4,2,16,18,33,281,33,20,14,034,,23,38,208,20,24,37,184,27*72
$GPGSV,4,3,16,25,50,343,32,28,02,299,,29,12,339,21,36,52,277,*76
$GPGSV,4,4,16,40,86,351,,41,58,082,31,49,32,274,,50,10,089,*7B
$GLGSV,3,1,10,68,14,071,,69,34,120,24,70,16,189,,73,60,315,26*67
$GLGSV,3,2,10,74,15,330,,79,05,156,13,80,57,166,20,83,03,014,*6D
$GLGSV,3,3,10,84,17,324,09,85,10,276,12*6E
$GNGLL,0419.83266,S,05539.71912,E,060906.00,A,A*60
$GNGRS,060906.00,1,-5.9,9.8,7.0,2.5,21.0,3.8,-13.3,-1.4,-27.6,,,*45
$GNGRS,060906.00,1,-8.3,-53.1,2.3,5.1,1.7,,,,,,,*48
$GNGST,060906.00,51,,,,4.1,4.1,12*69
$GNZDA,060906.00,28,05,2025,00,00*7B
$GNGBS,060906.00,4.1,4.1,12.2,,,,*67
$GNTXT,01,01,01,More than 100 frame errors, UART RX was disabled*70
b0LJ/*+F5Fs%!H"&T%2W+S{4V_:R 
Y
uDGE"xAFI<;JJ
O
P9STDU

{UbJU
g$GNRMC,060907.00,A,0419.83258,S,05539.71927,E,0.434,,280525,,,A*78
$GNVTG,,T,,M,0.434,N,0.803,K,A*35
$GNGNS,060907.00,0419.83258,S,05539.71927,E,AA,14,0.75,14.9,-47.6,,*66
$GNGGA,060907.00,0419.83258,S,05539.71927,E,1,12,0.75,14.9,M,-47.6,M,,*4A
$GNGSA,A,3,24,05,15,12,13,18,29,25,23,,,,1.35,0.75,1.13*18
$GNGSA,A,3,80,84,69,73,85,,,,,,,,1.35,0.75,1.13*18
$GPGSV,4,1,16,05,47,042,29,12,70,053,28,13,14,115,16,15,37,147,23*7E
$GPGSV,4,2,16,18,33,281,29,20,14,034,,23,38,208,20,24,37,184,26*78
$GPGSV,4,3,16,25,50,343,25,28,02,299,,29,12,339,20,36,52,277,*71
$GPGSV,4,4,16,40,86,351,,41,58,082,30,49,32,274,,50,10,089,*7A
$GLGSV,3,1,10,68,14,071,,69,34,120,24,70,16,189,,73,60,315,26*67
$GLGSV,3,2,10,74,15,330,,79,05,156,08,80,57,166,21,83,03,014,*66
$GLGSV,3,3,10,84,17,324,09,85,10,276,10*6C
$GNGLL,0419.83258,S,05539.71927,E,060907.00,A,A*6A
$GNGRS,060907.00,1,-2.4,3.0,7.4,0.7,20.7,3.3,-13.0,1.7,-32.4,,,*6E
$GNGRS,060907.00,1,-7.4,12.6,0.7,6.4,19.8,,,,,,,*58
$GNGST,060907.00,4496177,,,,4.1,4.1,12*52
$GNZDA,060907.00,28,05,2025,00,00*7A
$GNGBS,060907.00,4.1,4.1,12.2,,,,*66
$GNTXT,01,01,01,More than 100 frame errors, UART RX was disabled*70
b0LM/*F5DsC%!"&|%J2W+S{4V_:R 
Y
uDGE"xFI<;JJ
O
P8STDU
bMU
g$GNRMC,060908.00,A,0419.83240,S,05539.71930,E,0.589,,280525,,,A*7F
$GNVTG,,T,,M,0.589,N,1.091,K,A*30
$GNGNS,060908.00,0419.83240,S,05539.71930,E,AA,14,0.75,14.6,-47.6,,*69
$GNGGA,060908.00,0419.83240,S,05539.71930,E,1,12,0.75,14.6,M,-47.6,M,,*45
$GNGSA,A,3,24,05,15,12,13,18,29,25,23,,,,1.35,0.75,1.13*18
$GNGSA,A,3,80,84,69,73,85,,,,,,,,1.35,0.75,1.13*18
$GPGSV,4,1,16,05,47,042,29,12,70,053,28,13,14,115,16,15,37,147,23*7E
$GPGSV,4,2,16,18,33,281,30,20,14,034,,23,38,208,18,24,37,184,25*78
$GPGSV,4,3,16,25,50,343,27,28,02,299,,29,12,339,19,36,52,277,*79
$GPGSV,4,4,16,40,86,351,,41,58,082,29,49,32,274,,50,10,089,*72
$GLGSV,3,1,10,68,14,071,,69,34,120,24,70,16,189,,73,60,315,25*64
$GLGSV,3,2,10,74,15,330,,79,05,156,11,80,56,166,20,83,03,014,*6E
$GLGSV,3,3,10,84,17,324,08,85,10,276,12*6F
$GNGLL,0419.83240,S,05539.71930,E,060908.00,A,A*6A
$GNGRS,060908.00,1,-1.8,4.7,9.3,-4.4,18.6,5.4,-13.2,1.7,-37.2,,,*47
$GNGRS,060908.00,1,-7.9,12.2,-0.3,4.4,19.7,,,,,,,*7A
$GNGST,060908.00,4496177,,,,4.1,4.1,12*5D
$GNZDA,060908.00,28,05,2025,00,00*75
$GNGBS,060908.00,4.1,4.1,12.2,,,,*69
$GNTXT,01,01,01,More than 100 frame errors, UART RX was disabled*70
b0LQ/*F5s%!"&%2W+S{4V_:R 
Y
uDGE"xFI<;JJ
OO*P82STD*U
z'bQU
gs$GNRMC,060909.00,A,0419.83236,S,05539.71954,E,0.512,,280525,,,A*7F
$GNVTG,,T,,M,0.512,N,0.949,K,A*3F
$GNGNS,060909.00,0419.83236,S,05539.71954,E,AA,14,0.84,12.9,-47.6,,*6C
$GNGGA,060909.00,0419.83236,S,05539.71954,E,1,12,0.84,12.9,M,-47.6,M,,*40
$GNGSA,A,3,24,05,15,12,13,18,29,25,23,,,,1.58,0.84,1.34*18
$GNGSA,A,3,80,84,69,73,85,,,,,,,,1.58,0.84,1.34*18
$GPGSV,4,1,16,05,47,042,29,12,70,053,28,13,14,115,15,15,37,147,24*7A
$GPGSV,4,2,16,18,33,281,31,20,14,034,,23,38,208,18,24,37,184,25*79
$GPGSV,4,3,16,25,50,343,29,28,02,299,,29,12,339,20,36,52,277,*7D
$GPGSV,4,4,16,40,86,351,,41,58,082,30,49,32,274,,50,10,089,*7A
$GLGSV,3,1,10,68,14,071,,69,34,120,22,70,16,189,,73,60,315,24*63
$GLGSV,3,2,10,74,15,330,,79,05,156,13,80,56,166,17,83,03,014,*68
$GLGSV,3,3,10,84,17,324,08,85,10,276,12*6F
$GNGLL,0419.83236,S,05539.71954,E,060909.00,A,A*68
$GNGRS,060909.00,1,-1.2,5.2,9.1,-7.7,22.3,3.9,-11.3,-5.0,-34.3,,,*62
$GNGRS,060909.00,1,-9.7,-135,-1.2,4.1,-43.4,,,,,,,*5A
$GNGST,060909.00,44,,,,4.1,4.1,12*62
$GNZDA,060909.00,28,05,2025,00,00*74
$GNGBS,060909.00,4.1,4.1,12.2,,,,*68
$GNTXT,01,01,01,More than 100 frame errors, UART RX was disabled*70
b0LU/*F5/s%!!N"&i%22W+S-{4V_:R 
Y
uDGE"xFI<;JJ
O
P8STDU
bUU
qgq$GNRMC,060910.00,A,0419.83241,S,05539.71960,E,0.185,,280525,,,A*7A
$GNVTG,,T,,M,0.185,N,0.342,K,A*34
$GNGNS,060910.00,0419.83241,S,05539.71960,E,AA,13,0.81,12.4,-47.6,,*6C
$GNGGA,060910.00,0419.83241,S,05539.71960,E,1,12,0.81,12.4,M,-47.6,M,,*47
$GNGSA,A,3,24,05,15,12,13,18,29,25,23,,,,1.48,0.81,1.24*1D
$GNGSA,A,3,80,84,69,73,,,,,,,,,1.48,0.81,1.24*10
$GPGSV,4,1,16,05,47,042,30,12,70,053,28,13,14,115,11,15,37,147,23*71
$GPGSV,4,2,16,18,33,281,33,20,14,034,,23,38,208,18,24,37,184,25*7B
$GPGSV,4,3,16,25,50,343,29,28,02,299,,29,12,339,20,36,52,277,*7D
$GPGSV,4,4,16,40,86,351,,41,58,082,30,49,32,274,,50,10,089,*7A
$GLGSV,3,1,10,68,14,071,,69,34,120,23,70,16,189,,73,60,315,26*60
$GLGSV,3,2,10,74,15,330,,79,05,156,07,80,56,166,17,83,03,014,*6D
$GLGSV,3,3,10,84,17,324,07,85,10,276,07*64
$GNGLL,0419.83241,S,05539.71960,E,060910.00,A,A*67
$GNGRS,060910.00,1,-2.1,2.8,9.3,-7.2,33.3,5.9,-9.8,-5.8,-32.2,,,*5B
$GNGRS,060910.00,1,-10.0,12.4,-1.2,2.0,,,,,,,,*59
$GNGST,060910.00,3326,,,,4.2,4.1,12*6D
$GNZDA,060910.00,28,05,2025,00,00*7C
$GNGBS,060910.00,4.2,4.1,12.3,,,,*62
$GNTXT,01,01,01,More than 100 frame errors, UART RX was disabled*70
b0LY/*hF5G
s%X!!"&%2W+S{4V_:R 
Y
uDGE"xFI<;lJJ
O
P8ST
DU
^EbYU
YgIC$GNRMC,060911.00,A,0419.83244,S,05539.71971,E,0.304,,280525,,,A*75
$GNVTG,,T,,M,0.304,N,0.564,K,A*3D
$GNGNS,060911.00,0419.83244,S,05539.71971,E,AA,14,0.75,11.5,-47.6,,*66
$GNGGA,060911.00,0419.83244,S,05539.71971,E,1,12,0.75,11.5,M,-47.6,M,,*4A
$GNGSA,A,3,24,05,15,12,13,18,29,25,23,,,,1.35,0.75,1.13*18
$GNGSA,A,3,80,84,69,73,85,,,,,,,,1.35,0.75,1.13*18
$GPGSV,4,1,16,05,47,042,30,12,70,053,28,13,14,115,10,15,37,147,23*70
$GPGSV,4,2,16,18,33,281,33,20,14,034,,23,38,208,20,24,37,184,25*70
$GPGSV,4,3,16,25,50,343,30,28,02,299,,29,12,339,18,36,52,277,*7E
$GPGSV,4,4,16,40,86,351,,41,58,082,30,49,32,274,,50,10,089,*7A
$GLGSV,3,1,10,68,14,071,,69,34,120,24,70,16,189,,73,60,315,27*66
$GLGSV,3,2,10,74,15,330,,79,05,156,08,80,56,166,19,83,03,014,*6C
$GLGSV,3,3,10,84,17,324,10,85,10,276,09*6C
$GNGLL,0419.83244,S,05539.71971,E,060911.00,A,A*63
$GNGRS,060911.00,1,0.0,-1.5,6.0,-4.4,44.9,2.0,-8.3,-3.4,-28.3,,,*50
$GNGRS,060911.00,1,-9.0,11.8,-3.3,-1.5,18.9,,,,,,,*59
$GNGST,060911.00,3179280,,,,4.2,4.1,12*5E
$GNZDA,060911.00,28,05,2025,00,00*7D
$GNGBS,060911.00,4.2,4.1,12.3,,,,*63
$GNTXT,01,01,01,More than 100 frame errors, UART RX was disabled*70
b0L]/*F5k
s%!h"&%2W+S{4V_:R 
Y
uDGE"x8FI<;JJ
OHP8rSTEaU
[b]U
Ag!$GNRMC,060912.00,A,0419.83246,S,05539.71997,E,0.507,,280525,,,A*79
$GNVTG,,T,,M,0.507,N,0.940,K,A*32
$GNGNS,060912.00,0419.83246,S,05539.71997,E,AA,14,0.81,10.2,-47.6,,*62
$GNGGA,060912.00,0419.83246,S,05539.71997,E,1,12,0.81,10.2,M,-47.6,M,,*4E
$GNGSA,A,3,24,05,15,12,13,18,29,25,23,,,,1.48,0.81,1.24*1D
$GNGSA,A,3,80,84,69,73,85,,,,,,,,1.48,0.81,1.24*1D
$GPGSV,4,1,16,05,47,042,29,12,70,053,28,13,14,115,10,15,37,147,23*78
$GPGSV,4,2,16,18,33,281,30,20,14,034,,23,38,208,20,24,37,184,26*70
$GPGSV,4,3,16,25,50,343,31,28,02,299,,29,12,339,18,36,52,277,*7F
$GPGSV,4,4,16,40,86,351,,41,58,082,30,49,32,274,,50,10,089,*7A
$GLGSV,3,1,10,68,14,071,,69,34,120,25,70,16,189,,73,60,315,27*67
$GLGSV,3,2,10,74,15,330,,79,05,156,09,80,56,166,18,83,03,014,*6C
$GLGSV,3,3,10,84,17,325,11,85,10,276,11*65
$GNGLL,0419.83246,S,05539.71997,E,060912.00,A,A*6A
$GNGRS,060912.00,1,1.6,8.0,4.6,-1.5,55.3,-1.5,-8.4,-3.3,-25.3,,,*59
$GNGRS,060912.00,1,-9.1,-14.4,-4.6,-2.4,42.8,,,,,,,*71
$GNGST,060912.00,51,,,,4.2,4.1,12*6F
$GNZDA,060912.00,28,05,2025,00,00*7E
$GNGBS,060912.00,4.2,4.1,12.2,,,,*61
$GNTXT,01,01,01,More than 100 frame errors, UART RX was disabled*70
b0Lxa/*F5s%!"&% 2W+Sq{4V_:R 
Y
uDGE"xFI<;JJ
O5P8STEU
,bxaU
)g$GNRMC,060913.00,A,0419.83246,S,05539.72003,E,0.169,,280525,,,A*73
$GNVTG,,T,,M,0.169,N,0.313,K,A*32
$GNGNS,060913.00,0419.83246,S,05539.72003,E,AA,14,0.75,10.2,-47.6,,*6F
$GNGGA,060913.00,0419.83246,S,05539.72003,E,1,12,0.75,10.2,M,-47.6,M,,*43
$GNGSA,A,3,24,05,15,12,13,18,29,25,23,,,,1.35,0.75,1.13*18
$GNGSA,A,3,80,84,69,73,85,,,,,,,,1.35,0.75,1.13*18
$GPGSV,4,1,16,05,47,042,28,12,70,053,30,13,14,115,13,15,37,147,23*73
$GPGSV,4,2,16,18,33,281,31,20,14,034,,23,38,208,21,24,37,184,26*70
$GPGSV,4,3,16,25,50,343,32,28,02,299,,29,12,339,18,36,52,277,*7C
$GPGSV,4,4,16,40,86,351,,41,58,082,31,49,32,274,,50,10,089,*7B
$GLGSV,3,1,10,68,14,071,,69,34,120,25,70,16,189,,73,60,315,28*68
$GLGSV,3,2,10,74,15,330,,79,05,156,09,80,56,166,17,83,03,014,*63
$GLGSV,3,3,10,84,17,325,13,85,10,276,08*6F
$GNGLL,0419.83246,S,05539.72003,E,060913.00,A,A*6C
$GNGRS,060913.00,1,1.3,7.5,4.5,2.5,55.7,1.7,-6.5,-8.7,-26.4,,,*55
$GNGRS,060913.00,1,-10.6,12.8,-5.9,-0.4,19.9,,,,,,,*6B
$GNGST,060913.00,4496890,,,,4.2,4.1,12*54
$GNZDA,060913.00,28,05,2025,00,00*7F
$GNGBS,060913.00,4.2,4.1,12.3,,,,*61
$GNTXT,01,01,01,More than 100 frame errors, UART RX was disabled*70
b0L`e/*F5
s%F!"&Y%\ 2W+S{4V_ :R 
Y
uDGE"x0FI<;JJ
OP88STEU
fb`eU
g{$GNRMC,060914.00,A,0419.83241,S,05539.72002,E,0.145,,280525,,,A*7C
$GNVTG,,T,,M,0.145,N,0.268,K,A*31
$GNGNS,060914.00,0419.83241,S,05539.72002,E,AA,14,0.85,10.3,-47.6,,*60
$GNGGA,060914.00,0419.83241,S,05539.72002,E,1,12,0.85,10.3,M,-47.6,M,,*4C
$GNGSA,A,3,24,05,15,12,13,18,29,25,23,,,,1.62,0.85,1.38*1C
$GNGSA,A,3,80,84,69,73,85,,,,,,,,1.62,0.85,1.38*1C
$GPGSV,4,1,16,05,47,042,28,12,70,053,31,13,14,115,10,15,37,147,23*71
$GPGSV,4,2,16,18,33,281,31,20,14,034,,23,38,208,24,24,37,184,26*75
$GPGSV,4,3,16,25,50,343,32,28,02,299,,29,12,339,21,36,52,277,*76
$GPGSV,4,4,16,40,86,351,,41,58,082,32,49,32,274,,50,10,089,*78
$GLGSV,3,1,10,68,14,071,,69,34,120,27,70,16,189,,73,60,315,29*6B
$GLGSV,3,2,10,74,15,330,,79,05,156,09,80,56,166,19,83,03,014,*6D
$GLGSV,3,3,10,84,17,325,13,85,10,276,11*67
$GNGLL,0419.83241,S,05539.72002,E,060914.00,A,A*6D
$GNGRS,060914.00,1,0.9,2.6,3.3,-0.6,56.5,2.6,-5.7,-5.9,-22.2,,,*71
$GNGRS,060914.00,1,-9.7,12.8,-7.2,-1.0,20.1,,,,,,,*5B
$GNGST,060914.00,4665903,,,,4.3,4.1,12*57
$GNZDA,060914.00,28,05,2025,00,00*78
$GNGBS,060914.00,4.3,4.1,12.2,,,,*66
$GNTXT,01,01,01,More than 100 frame errors, UART RX was disabled*70
b0LHi/*;F5sk %Z !"Y&% 2W+SR{4V_!:R 
Y
uDGE"xFI<;RJJ
On'P8STEp
U
bHiU
g$GNRMC,060915.00,A,0419.83229,S,05539.72001,E,0.043,,280525,,,A*77
$GNVTG,,T,,M,0.043,N,0.080,K,A*32
$GNGNS,060915.00,0419.83229,S,05539.72001,E,AA,14,0.91,10.3,-47.6,,*69
$GNGGA,060915.00,0419.83229,S,05539.72001,E,1,12,0.91,10.3,M,-47.6,M,,*45
$GNGSA,A,3,24,05,15,12,13,18,29,25,23,,,,1.86,0.91,1.62*1C
$GNGSA,A,3,80,84,69,73,85,,,,,,,,1.86,0.91,1.62*1C
$GPGSV,4,1,16,05,47,042,27,12,70,053,31,13,14,115,09,15,37,147,23*76
$GPGSV,4,2,16,18,33,281,32,20,14,034,09,23,38,208,27,24,37,184,26*7C
$GPGSV,4,3,16,25,50,343,32,28,02,299,,29,12,339,21,36,52,277,*76
$GPGSV,4,4,16,40,86,351,,41,58,082,33,49,32,274,,50,10,089,*79
$GLGSV,3,1,10,68,14,071,,69,34,120,28,70,16,189,,73,60,315,28*65
$GLGSV,3,2,10,74,15,330,,79,05,156,08,80,56,166,21,83,03,014,*67
$GLGSV,3,3,10,84,17,325,11,85,10,276,12*66
$GNGLL,0419.83229,S,05539.72001,E,060915.00,A,A*61
$GNGRS,060915.00,1,1.7,10.8,0.9,1.7,83.0,4.9,-4.3,-3.1,-18.6,,,*64
$GNGRS,060915.00,1,-7.5,26.7,-8.1,0.8,-51.2,,,,,,,*5E
$GNGST,060915.00,33,,,,4.2,4.0,12*6D
$GNZDA,060915.00,28,05,2025,00,00*79
$GNGBS,060915.00,4.2,4.0,12.2,,,,*67
$GNTXT,01,01,01,More than 100 frame errors, UART RX was disabled*70
b0L0m/*jF51sY%Q !j">& %!2W+S{4V_":R 
Y
uDGE"xFI<;lJJ
O.P8STEU
Izb0mU
gH$GNRMC,060916.00,A,0419.83221,S,05539.72001,E,0.059,,280525,,,A*77
$GNVTG,,T,,M,0.059,N,0.110,K,A*31
$GNGNS,060916.00,0419.83221,S,05539.72001,E,AA,14,0.85,10.2,-47.6,,*66
$GNGGA,060916.00,0419.83221,S,05539.72001,E,1,12,0.85,10.2,M,-47.6,M,,*4A
$GNGSA,A,3,24,05,15,12,13,18,29,25,23,,,,1.62,0.85,1.38*1C
$GNGSA,A,3,80,84,69,73,85,,,,,,,,1.62,0.85,1.38*1C
$GPGSV,4,1,16,05,47,042,27,12,70,053,30,13,14,115,13,15,37,147,23*7C
$GPGSV,4,2,16,18,33,281,32,20,14,034,17,23,38,208,27,24,37,184,26*73
$GPGSV,4,3,16,25,50,343,33,28,02,299,,29,12,339,22,36,52,277,*74
$GPGSV,4,4,16,40,86,351,,41,58,082,34,49,32,274,,50,10,089,*7E
$GLGSV,3,1,10,68,14,071,,69,34,120,26,70,16,189,,73,60,315,27*64
$GLGSV,3,2,10,74,15,330,,79,05,156,11,80,56,166,21,83,03,014,*6F
$GLGSV,3,3,10,84,17,325,08,85,10,276,09*64
$GNGLL,0419.83221,S,05539.72001,E,060916.00,A,A*6A
$GNGRS,060916.00,1,1.7,8.7,0.8,3.1,21.4,3.6,-3.2,-5.0,-15.0,,,*5A
$GNGRS,060916.00,1,-8.0,12.7,-8.8,3.6,19.6,,,,,,,*71
$GNGST,060916.00,3303152,,,,4.2,4.0,12*5B
$GNZDA,060916.00,28,05,2025,00,00*7A
$GNGBS,060916.00,4.2,4.0,12.1,,,,*67
$GNTXT,01,01,01,More than 100 frame errors, UART RX was disabled*70
b0Lq/*"F5sj% !,"&0% 2W+SF{4V_!:R 
Y
uDGE"x@FI<;JJ
OEP8STEU
bqU
gX$GNRMC,060917.00,A,0419.83214,S,05539.72001,E,0.076,,280525,,,A*7D
$GNVTG,,T,,M,0.076,N,0.141,K,A*38
$GNGNS,060917.00,0419.83214,S,05539.72001,E,AA,15,0.74,10.3,-47.6,,*6F
$GNGGA,060917.00,0419.83214,S,05539.72001,E,1,12,0.74,10.3,M,-47.6,M,,*42
$GNGSA,A,3,24,05,20,15,12,13,18,29,25,23,,,1.42,0.74,1.21*1A
$GNGSA,A,3,80,84,69,73,85,,,,,,,,1.42,0.74,1.21*18
$GPGSV,4,1,16,05,47,042,26,12,70,053,29,13,14,115,08,15,37,147,23*7F
$GPGSV,4,2,16,18,33,281,32,20,14,034,20,23,38,208,27,24,37,184,26*77
$GPGSV,4,3,16,25,50,343,32,28,02,299,,29,12,339,22,36,52,277,*75
$GPGSV,4,4,16,40,86,351,,41,58,082,33,49,32,274,,50,10,089,*79
$GLGSV,3,1,10,68,14,071,,69,34,120,24,70,16,189,,73,60,315,26*67
$GLGSV,3,2,10,74,15,330,,79,05,156,08,80,56,166,21,83,03,014,*67
$GLGSV,3,3,10,84,17,325,08,85,10,276,09*64
$GNGLL,0419.83214,S,05539.72001,E,060917.00,A,A*6D
$GNGRS,060917.00,1,1.8,5.5,-1.0,2.2,14.6,21.5,5.6,-1.9,-5.2,-14.9,,*64
$GNGRS,060917.00,1,-7.8,12.7,-9.6,4.3,19.7,,,,,,,*7B
$GNGST,060917.00,4496177,,,,4.1,4.0,12*52
$GNZDA,060917.00,28,05,2025,00,00*7B
$GNGBS,060917.00,4.1,4.0,12.0,,,,*64
$GNTXT,01,01,01,More than 100 frame errors, UART RX was disabled*70
b0Lu/*F5
s%!r"&%2W+S;{4V_":R 
Y
uDGE"xFI<;OJJ
O46P8STEU

wbuU
g0$GNRMC,060918.00,A,0419.83210,S,05539.71995,E,0.044,,280525,,,A*70
$GNVTG,,T,,M,0.044,N,0.082,K,A*37
$GNGNS,060918.00,0419.83210,S,05539.71995,E,AA,15,0.76,10.8,-47.6,,*6A
$GNGGA,060918.00,0419.83210,S,05539.71995,E,1,12,0.76,10.8,M,-47.6,M,,*47
$GNGSA,A,3,24,05,20,15,12,13,18,29,25,23,,,1.44,0.76,1.23*1C
$GNGSA,A,3,80,84,69,73,85,,,,,,,,1.44,0.76,1.23*1E
$GPGSV,4,1,16,05,47,042,26,12,70,053,28,13,14,115,10,15,37,147,22*76
$GPGSV,4,2,16,18,33,281,31,20,14,034,21,23,38,208,27,24,37,184,27*74
$GPGSV,4,3,16,25,50,343,30,28,02,299,,29,12,339,21,36,52,277,*74
$GPGSV,4,4,16,40,86,351,,41,58,082,34,49,32,274,,50,10,089,*7E
$GLGSV,3,1,10,68,14,071,,69,34,120,22,70,16,189,,73,60,315,25*62
$GLGSV,3,2,10,74,15,330,,79,05,156,09,80,56,166,21,83,03,014,*66
$GLGSV,3,3,10,84,17,325,08,85,10,276,10*6C
$GNGLL,0419.83210,S,05539.71995,E,060918.00,A,A*61
$GNGRS,060918.00,1,2.2,4.6,-7.4,-0.1,14.6,58.2,6.3,0.6,-5.3,-12.8,,*64
$GNGRS,060918.00,1,-5.3,-134,-10.9,3.4,-7.8,,,,,,,*56
$GNGST,060918.00,48,,,,4.1,4.0,12*6F
$GNZDA,060918.00,28,05,2025,00,00*74
$GNGBS,060918.00,4.1,4.0,12.0,,,,*6B
$GNTXT,01,01,01,More than 100 frame errors, UART RX was disabled*70
b0Lx/*QF5Rs`% !+"&a%2W&+S{4V_!:R 
Y
uDGE"xYFI<;JJ
O
;P8/STEU
e-bxU
gq$GNRMC,060919.00,A,0419.83202,S,05539.71987,E,0.296,,280525,,,A*7C
$GNVTG,,T,,M,0.296,N,0.547,K,A*36
$GNGNS,060919.00,0419.83202,S,05539.71987,E,AA,15,0.74,11.0,-47.6,,*60
$GNGGA,060919.00,0419.83202,S,05539.71987,E,1,12,0.74,11.0,M,-47.6,M,,*4D
$GNGSA,A,3,24,05,20,15,12,13,18,29,25,23,,,1.42,0.74,1.21*1A
$GNGSA,A,3,80,84,69,73,85,,,,,,,,1.42,0.74,1.21*18
$GPGSV,4,1,16,05,47,042,27,12,70,053,26,13,14,115,11,15,37,147,22*78
$GPGSV,4,2,16,18,33,282,32,20,14,034,21,23,38,208,26,24,37,184,26*74
$GPGSV,4,3,16,25,50,343,29,28,02,299,,29,12,339,19,36,52,277,*77
$GPGSV,4,4,16,40,86,351,,41,58,082,33,49,32,274,,50,10,089,*79
$GLGSV,3,1,10,68,14,071,,69,34,120,21,70,16,189,,73,60,315,25*61
$GLGSV,3,2,10,74,15,330,,79,05,156,10,80,56,166,22,83,03,014,*6D
$GLGSV,3,3,10,84,17,325,09,85,10,276,13*6E
$GNGLL,0419.83202,S,05539.71987,E,060919.00,A,A*60
$GNGRS,060919.00,1,1.8,11.1,-16.0,-0.7,21.3,21.4,5.6,1.7,-4.7,-11.8,,*66
$GNGRS,060919.00,1,-7.2,12.6,-11.9,1.9,19.6,,,,,,,*46
$GNGST,060919.00,3179279,,,,4.0,4.0,12*53
$GNZDA,060919.00,28,05,2025,00,00*75
$GNGBS,060919.00,4.0,4.0,12.0,,,,*6B
$GNTXT,01,01,01,More than 100 frame errors, UART RX was disabled*70
b0L|/*F5$sL% !")&<%2W+S{4V_":R 
Y
uDGE"xFI<;JJ
O>P8STEU
b|U
g$GNRMC,060920.00,A,0419.83192,S,05539.71993,E,0.088,,280525,,,A*74
$GNVTG,,T,,M,0.088,N,0.163,K,A*39
$GNGNS,060920.00,0419.83192,S,05539.71993,E,AA,15,0.85,11.0,-47.6,,*6B
$GNGGA,060920.00,0419.83192,S,05539.71993,E,1,12,0.85,11.0,M,-47.6,M,,*46
$GNGSA,A,3,24,05,20,15,12,13,18,29,25,23,,,1.62,0.85,1.38*1E
$GNGSA,A,3,80,84,69,73,85,,,,,,,,1.62,0.85,1.38*1C
$GPGSV,4,1,16,05,47,042,28,12,70,053,27,13,14,115,12,15,37,147,22*75
$GPGSV,4,2,16,18,33,282,32,20,14,034,20,23,38,208,27,24,37,184,26*74
$GPGSV,4,3,16,25,50,343,31,28,02,299,,29,12,339,18,36,52,277,*7F
$GPGSV,4,4,16,40,86,351,,41,58,082,34,49,32,274,,50,10,089,*7E
$GLGSV,3,1,10,68,14,071,,69,34,120,21,70,16,189,,73,60,315,27*63
$GLGSV,3,2,10,74,15,330,,79,05,156,09,80,56,166,23,83,03,014,*64
$GLGSV,3,3,10,84,17,325,12,85,10,276,13*64
$GNGLL,0419.83192,S,05539.71993,E,060920.00,A,A*65
$GNGRS,060920.00,1,2.5,16.8,-22.6,-2.6,23.4,21.2,2.3,2.5,-8.6,-9.6,,*54
$GNGRS,060920.00,1,-7.6,12.5,-13.7,2.3,19.6,,,,,,,*4E
$GNGST,060920.00,3299295,,,,4.0,4.0,12*56
$GNZDA,060920.00,28,05,2025,00,00*7F
$GNGBS,060920.00,4.0,4.0,12.1,,,,*60
$GNTXT,01,01,01,More than 100 frame errors, UART RX was disabled*70
b0L/*pF5s%!"#&V%c 2Wp+S{4V_#:R 
Y
uDGE"xFI<;JJ
ODP8STEU
;ibU
igA$GNRMC,060921.00,A,0419.83191,S,05539.71996,E,0.209,,280525,,,A*78
$GNVTG,,T,,M,0.209,N,0.388,K,A*35
$GNGNS,060921.00,0419.83191,S,05539.71996,E,AA,15,0.91,11.5,-47.6,,*6C
$GNGGA,060921.00,0419.83191,S,05539.71996,E,1,12,0.91,11.5,M,-47.6,M,,*41
$GNGSA,A,3,24,05,20,15,12,13,18,29,25,23,,,1.86,0.91,1.62*1E
$GNGSA,A,3,80,84,69,73,85,,,,,,,,1.86,0.91,1.62*1C
$GPGSV,4,1,16,05,47,042,31,12,70,053,28,13,14,115,07,15,37,147,21*75
$GPGSV,4,2,16,18,33,282,31,20,14,034,20,23,38,208,29,24,37,184,26*79
$GPGSV,4,3,16,25,50,343,32,28,02,299,,29,12,339,16,36,52,277,*72
$GPGSV,4,4,16,40,86,351,,41,58,082,35,49,32,274,,50,10,089,*7F
$GLGSV,3,1,10,68,14,071,,69,34,120,20,70,16,189,,73,60,315,26*63
$GLGSV,3,2,10,74,15,330,,79,05,156,11,80,56,166,26,83,03,014,*68
$GLGSV,3,3,10,84,17,325,08,85,10,276,13*6F
$GNGLL,0419.83191,S,05539.71996,E,060921.00,A,A*62
$GNGRS,060921.00,1,3.6,3.7,-22.7,-3.4,20.6,66.1,2.6,-0.9,-1.4,-4.3,,*4A
$GNGRS,060921.00,1,-7.8,-134,-13.3,2.7,-46.7,,,,,,,*64
$GNGST,060921.00,37,,,,4.0,4.0,12*6C
$GNZDA,060921.00,28,05,2025,00,00*7E
$GNGBS,060921.00,4.0,4.0,12.2,,,,*62
$GNTXT,01,01,01,More than 100 frame errors, UART RX was disabled*70
b0L/*F5%sq% !"&% 2W+S{4V_":R 
Y
uDGE"xqFI<;JJ
OZP8VST
EU
bU
Qg$GNRMC,060922.00,A,0419.83192,S,05539.71994,E,0.028,,280525,,,A*7B
$GNVTG,,T,,M,0.028,N,0.051,K,A*33
$GNGNS,060922.00,0419.83192,S,05539.71994,E,AA,15,0.85,12.1,-47.6,,*6C
$GNGGA,060922.00,0419.83192,S,05539.71994,E,1,12,0.85,12.1,M,-47.6,M,,*41
$GNGSA,A,3,24,05,20,15,12,13,18,29,25,23,,,1.62,0.85,1.38*1E
$GNGSA,A,3,80,84,69,73,85,,,,,,,,1.62,0.85,1.38*1C
$GPGSV,4,1,16,05,47,042,31,12,70,053,29,13,14,115,14,15,37,147,22*75
$GPGSV,4,2,16,18,33,282,32,20,14,034,20,23,38,208,28,24,37,184,26*7B
$GPGSV,4,3,16,25,50,343,32,28,02,299,,29,12,339,15,36,52,277,*71
$GPGSV,4,4,16,40,86,351,,41,58,082,34,49,32,274,,50,10,089,*7E
$GLGSV,3,1,10,68,14,071,,69,34,120,20,70,16,189,,73,60,315,27*62
$GLGSV,3,2,10,74,15,330,,79,05,156,09,80,56,166,25,83,03,014,*62
$GLGSV,3,3,10,84,17,325,10,85,10,276,14*61
$GNGLL,0419.83192,S,05539.71994,E,060922.00,A,A*60
$GNGRS,060922.00,1,4.7,4.1,-20.7,-3.6,15.7,21.6,2.8,-5.1,-5.9,-2.7,,*45
$GNGRS,060922.00,1,-9.4,12.9,-14.2,2.1,20.0,,,,,,,*40
$GNGST,060922.00,3299293,,,,3.9,4.0,12*5C
$GNZDA,060922.00,28,05,2025,00,00*7D
$GNGBS,060922.00,3.9,4.0,12.2,,,,*6F
$GNTXT,01,01,01,More than 100 frame errors, UART RX was disabled*70
b0L/*F5|s%S!"&u% 2W+S{4V_!:R 
Y
uDGE"xFI<;JJ
OP8STEU

bU
9gg$GNRMC,060923.00,A,0419.83190,S,05539.71989,E,0.117,,280525,,,A*79
$GNVTG,,T,,M,0.117,N,0.217,K,A*3E
$GNGNS,060923.00,0419.83190,S,05539.71989,E,AA,15,0.90,12.4,-47.6,,*62
$GNGGA,060923.00,0419.83190,S,05539.71989,E,1,12,0.90,12.4,M,-47.6,M,,*4F
$GNGSA,A,3,24,05,20,15,12,13,18,29,25,23,,,1.74,0.90,1.49*1B
$GNGSA,A,3,80,84,69,73,85,,,,,,,,1.74,0.90,1.49*19
$GPGSV,4,1,16,05,47,042,31,12,70,053,28,13,14,115,09,15,37,147,21*7B
$GPGSV,4,2,16,18,33,282,31,20,14,034,20,23,38,208,27,24,37,184,26*77
$GPGSV,4,3,16,25,50,343,32,28,02,299,,29,12,339,14,36,52,277,*70
$GPGSV,4,4,16,40,86,351,,41,58,082,33,49,32,274,,50,10,089,*79
$GLGSV,3,1,10,68,14,071,,69,34,120,19,70,16,189,,73,60,315,27*68
$GLGSV,3,2,10,74,15,330,,79,05,156,09,80,56,166,23,83,03,014,*64
$GLGSV,3,3,10,84,17,325,12,85,10,276,10*67
$GNGLL,0419.83190,S,05539.71989,E,060923.00,A,A*6F
$GNGRS,060923.00,1,4.0,4.5,-23.9,-4.3,16.6,22.1,5.0,-5.7,-6.1,-1.4,,*4C
$GNGRS,060923.00,1,-10.1,12.8,-15.1,2.1,20.2,,,,,,,*7D
$GNGST,060923.00,5193,,,,3.9,4.0,12*6A
$GNZDA,060923.00,28,05,2025,00,00*7C
$GNGBS,060923.00,3.9,4.0,12.3,,,,*6F
