$GNTXT,01,01,01,More than 100 frame errors, UART RX was disabled*70
$GNRMC,074559.00,A,0419.84365,S,05539.91604,E,0.195,,200525,,,A*74
$GNVTG,,T,,M,0.195,N,0.360,K,A*35
$GNGGA,074559.00,0419.84365,S,05539.91604,E,1,12,0.73,9.6,M,-47.6,M,,*75
$GNGSA,A,3,05,12,24,18,15,25,23,13,10,,,,1.30,0.73,1.08*1B
$GNGSA,A,3,80,73,69,84,70,74,,,,,,,1.30,0.73,1.08*18
$GPGSV,4,1,15,05,20,028,27,10,23,217,13,12,61,140,39,13,11,086,29*7A
$GPGSV,4,2,15,15,44,109,31,18,26,315,17,23,65,235,28,24,23,159,24*79
$GPGSV,4,3,15,25,81,306,29,28,10,272,,29,23,003,,36,52,277,*7F
$GPGSV,4,4,15,40,86,351,,41,58,082,,49,32,274,*4F
$GLGSV,3,1,10,68,01,041,12,69,37,075,31,70,41,168,11,71,06,200,*6B
$GLGSV,3,2,10,73,62,228,13,74,39,304,14,80,22,166,11,84,06,354,11*65
$GLGSV,3,3,10,85,03,308,,,,,23*50
$GNGLL,0419.84365,S,05539.91604,E,074559.00,A,A*60
$GNTXT,01,01,01,More than 100 frame errors, UART RX was disabled*70
$GNRMC,074600.00,A,0419.84362,S,05539.91606,E,0.103,,200525,,,A*71
$GNVTG,,T,,M,0.103,N,0.190,K,A*37
$GNGGA,074600.00,0419.84362,S,05539.91606,E,1,12,0.82,9.5,M,-47.6,M,,*72
$GNGSA,A,3,05,12,24,15,25,23,13,10,,,,,1.43,0.82,1.17*16
$GNGSA,A,3,80,73,69,70,74,,,,,,,,1.43,0.82,1.17*10
$GPGSV,4,1,15,05,20,028,25,10,23,217,11,12,61,140,39,13,11,086,31*73
$GPGSV,4,2,15,15,44,109,32,18,26,315,15,23,65,235,26,24,23,159,24*76
$GPGSV,4,3,15,25,81,306,29,28,10,272,,29,23,003,23,36,52,277,*7E
$GPGSV,4,4,15,40,86,351,,41,58,082,,49,32,274,*4F
$GLGSV,3,1,10,68,01,041,08,69,37,074,37,70,41,168,11,71,06,200,*67
$GLGSV,3,2,10,73,62,228,10,74,39,304,13,80,22,166,10,84,06,354,06*66
$GLGSV,3,3,10,85,03,308,,,,,21*52
$GNGLL,0419.84362,S,05539.91606,E,074600.00,A,A*6A
$GNTXT,01,01,01,More than 100 frame errors, UART RX was disabled*70
$GNRMC,074601.00,A,0419.84356,S,05539.91602,E,0.066,,200525,,,A*71
$GNVTG,,T,,M,0.066,N,0.122,K,A*3C
$GNGGA,074601.00,0419.84356,S,05539.91602,E,1,12,0.82,9.5,M,-47.6,M,,*70
$GNGSA,A,3,05,12,24,18,15,25,23,13,10,,,,1.43,0.82,1.17*1F
$GNGSA,A,3,80,73,69,84,70,74,,,,,,,1.43,0.82,1.17*1C
$GPGSV,4,1,15,05,20,028,26,10,23,217,14,12,61,140,37,13,11,086,30*7A
$GPGSV,4,2,15,15,44,109,37,18,26,315,13,23,65,235,27,24,23,159,25*75
$GPGSV,4,3,15,25,81,306,30,28,10,272,,29,23,003,22,36,52,277,*77
$GPGSV,4,4,15,40,86,351,,41,58,082,,49,32,274,*4F
$GLGSV,3,1,10,68,01,041,08,69,37,074,37,70,42,167,12,71,06,200,*68
$GLGSV,3,2,10,73,62,228,21,74,39,304,15,80,22,166,13,84,06,354,09*6E
$GLGSV,3,3,10,85,03,308,,,,,30*52
$GNGLL,0419.84356,S,05539.91602,E,074601.00,A,A*68
$GNTXT,01,01,01,More than 100 frame errors, UART RX was disabled*70
$GNRMC,074602.00,A,0419.84345,S,05539.91595,E,0.042,,200525,,,A*7B
$GNVTG,,T,,M,0.042,N,0.078,K,A*34
$GNGGA,074602.00,0419.84345,S,05539.91595,E,1,12,0.76,9.4,M,-47.6,M,,*76
$GNGSA,A,3,05,12,24,18,15,25,23,13,29,10,,,1.35,0.76,1.12*1B
$GNGSA,A,3,80,73,69,84,70,74,,,,,,,1.35,0.76,1.12*13
$GPGSV,4,1,16,05,20,028,31,10,23,217,10,12,61,140,37,13,11,086,32*79
$GPGSV,4,2,16,15,44,109,35,18,26,315,12,23,65,235,27,24,23,159,25*75
$GPGSV,4,3,16,25,81,306,29,28,10,272,,29,23,003,23,36,52,277,*7D
$GPGSV,4,4,16,40,86,351,,41,58,082,,42,,,41,49,32,274,*4F
$GLGSV,3,1,10,68,01,041,09,69,37,074,39,70,42,167,13,71,07,199,*64
$GLGSV,3,2,10,73,62,228,11,74,39,304,16,80,22,166,14,84,06,354,09*69
$GLGSV,3,3,10,85,03,308,,,,,23*50
$GNGLL,0419.84345,S,05539.91595,E,074602.00,A,A*64
$GNTXT,01,01,01,More than 100 frame errors, UART RX was disabled*70
$GNRMC,074603.00,A,0419.84342,S,05539.91592,E,0.056,,200525,,,A*7F
$GNVTG,,T,,M,0.056,N,0.104,K,A*3B
$GNGGA,074603.00,0419.84342,S,05539.91592,E,1,12,0.76,9.3,M,-47.6,M,,*70
$GNGSA,A,3,05,12,24,18,15,25,23,13,29,10,,,1.35,0.76,1.12*1B
$GNGSA,A,3,80,73,69,84,70,74,,,,,,,1.35,0.76,1.12*13
$GPGSV,4,1,16,05,20,028,31,10,23,217,10,12,61,140,36,13,11,086,33*79
$GPGSV,4,2,16,15,44,109,37,18,26,315,16,23,65,235,27,24,23,159,26*70
$GPGSV,4,3,16,25,81,306,28,28,10,272,,29,23,003,21,36,52,277,*7E
$GPGSV,4,4,16,40,86,351,,41,58,082,,42,,,42,49,32,274,*4C
$GLGSV,3,1,10,68,01,041,11,69,37,074,39,70,42,167,15,71,07,199,*6B
$GLGSV,3,2,10,73,62,228,13,74,39,304,16,80,22,166,12,84,06,354,09*6D
$GLGSV,3,3,10,85,03,308,,,,,23*50
$GNGLL,0419.84342,S,05539.91592,E,074603.00,A,A*65
$GNTXT,01,01,01,More than 100 frame errors, UART RX was disabled*70
$GNRMC,074604.00,A,0419.84337,S,05539.91592,E,0.072,,200525,,,A*7C
$GNVTG,,T,,M,0.072,N,0.132,K,A*38
$GNGGA,074604.00,0419.84337,S,05539.91592,E,1,12,0.76,9.4,M,-47.6,M,,*72
$GNGSA,A,3,05,12,24,18,15,25,23,13,29,10,,,1.35,0.76,1.12*1B
$GNGSA,A,3,80,73,69,84,70,74,,,,,,,1.35,0.76,1.12*13
$GPGSV,4,1,16,05,20,028,30,10,23,217,12,12,61,140,37,13,11,086,34*7C
$GPGSV,4,2,16,15,44,109,36,18,26,315,09,23,65,235,26,24,23,159,26*7E
$GPGSV,4,3,16,25,81,306,27,28,10,272,,29,23,003,21,36,52,277,*71
$GPGSV,4,4,16,40,86,351,,41,58,082,,42,,,42,49,32,274,*4C
$GLGSV,3,1,10,68,01,041,08,69,37,074,39,70,42,167,13,71,07,199,*65
$GLGSV,3,2,10,73,61,227,11,74,39,304,17,80,22,166,12,84,06,354,10*6A
$GLGSV,3,3,10,85,03,308,,,,,23*50
$GNGLL,0419.84337,S,05539.91592,E,074604.00,A,A*60
$GNTXT,01,01,01,More than 100 frame errors, UART RX was disabled*70
$GNRMC,074605.00,A,0419.84332,S,05539.91589,E,0.104,,200525,,,A*72
$GNVTG,,T,,M,0.104,N,0.192,K,A*32
$GNGGA,074605.00,0419.84332,S,05539.91589,E,1,12,0.85,9.5,M,-47.6,M,,*71
$GNGSA,A,3,05,12,24,18,15,25,23,13,29,10,,,1.42,0.85,1.14*11
$GNGSA,A,3,80,73,69,84,70,,,,,,,,1.42,0.85,1.14*1A
$GPGSV,4,1,16,05,20,028,34,10,23,217,10,12,61,140,39,13,11,086,37*77
$GPGSV,4,2,16,15,44,109,36,18,26,315,13,23,65,235,25,24,23,159,25*75
$GPGSV,4,3,16,25,81,306,27,28,10,272,,29,23,003,20,36,52,277,*70
$GPGSV,4,4,16,40,86,351,,41,58,082,,42,,,41,49,32,274,*4F
$GLGSV,3,1,10,68,01,041,12,69,37,074,41,70,42,167,08,71,07,199,*6B
$GLGSV,3,2,10,73,61,227,19,74,40,303,06,80,22,166,12,84,06,354,10*6B
$GLGSV,3,3,10,85,03,308,,,,,21*52
$GNGLL,0419.84332,S,05539.91589,E,074605.00,A,A*6E
$GNTXT,01,01,01,More than 100 frame errors, UART RX was disabled*70
$GNRMC,074606.00,A,0419.84329,S,05539.91590,E,0.087,,200525,,,A*79
$GNVTG,,T,,M,0.087,N,0.162,K,A*37
$GNGGA,074606.00,0419.84329,S,05539.91590,E,1,12,1.04,9.7,M,-47.6,M,,*7A
$GNGSA,A,3,05,12,24,18,15,25,23,13,29,,,,1.71,1.04,1.36*18
$GNGSA,A,3,80,73,69,84,70,,,,,,,,1.71,1.04,1.36*12
$GPGSV,4,1,16,05,20,028,34,10,23,217,,12,61,140,38,13,11,086,37*77
$GPGSV,4,2,16,15,44,109,33,18,26,315,13,23,65,235,25,24,23,159,25*70
$GPGSV,4,3,16,25,81,306,28,28,10,272,,29,23,003,20,36,52,277,*7F
$GPGSV,4,4,16,40,86,351,,41,58,082,,42,,,41,49,32,274,*4F
$GLGSV,3,1,10,68,01,041,10,69,37,074,42,70,42,167,16,71,07,199,*65
$GLGSV,3,2,10,73,61,227,19,74,40,303,08,80,22,166,15,84,06,354,08*6B
$GLGSV,3,3,10,85,03,308,,,,,23*50
$GNGLL,0419.84329,S,05539.91590,E,074606.00,A,A*6F
$GNTXT,01,01,01,More than 100 frame errors, UART RX was disabled*70
$GNRMC,074607.00,A,0419.84323,S,05539.91594,E,0.177,,200525,,,A*78
$GNVTG,,T,,M,0.177,N,0.328,K,A*35
$GNGGA,074607.00,0419.84323,S,05539.91594,E,1,12,1.04,9.8,M,-47.6,M,,*7A
$GNGSA,A,3,05,12,24,18,15,25,23,13,29,,,,1.71,1.04,1.36*18
$GNGSA,A,3,80,73,69,84,70,,,,,,,,1.71,1.04,1.36*12
$GPGSV,4,1,16,05,20,028,34,10,23,217,06,12,61,140,36,13,11,086,37*7F
$GPGSV,4,2,16,15,44,109,34,18,26,315,11,23,65,235,24,24,23,159,24*75
$GPGSV,4,3,16,25,81,306,27,28,10,272,,29,23,003,19,36,52,277,*7A
$GPGSV,4,4,16,40,86,351,,41,58,082,,42,,,41,49,32,274,*4F
$GLGSV,3,1,10,68,01,041,11,69,37,074,41,70,42,167,09,71,07,199,*69
$GLGSV,3,2,10,73,61,227,23,74,40,303,09,80,22,166,16,84,06,354,09*61
$GLGSV,3,3,10,85,03,308,,,,,24*57
$GNGLL,0419.84323,S,05539.91594,E,074607.00,A,A*60
$GNTXT,01,01,01,More than 100 frame errors, UART RX was disabled*70
$GNRMC,074608.00,A,0419.84322,S,05539.91597,E,0.092,,200525,,,A*7F
$GNVTG,,T,,M,0.092,N,0.170,K,A*30
$GNGGA,074608.00,0419.84322,S,05539.91597,E,1,12,0.88,10.0,M,-47.6,M,,*42
$GNGSA,A,3,05,12,24,18,15,25,23,13,29,,,,1.55,0.88,1.27*1B
$GNGSA,A,3,80,73,69,84,70,74,,,,,,,1.55,0.88,1.27*12
$GPGSV,4,1,16,05,20,028,34,10,23,217,08,12,61,140,37,13,11,086,37*70
$GPGSV,4,2,16,15,44,109,35,18,26,315,10,23,65,235,22,24,23,159,23*74
$GPGSV,4,3,16,25,81,306,29,28,10,272,,29,23,003,20,36,52,277,*7E
$GPGSV,4,4,16,40,86,351,,41,58,082,,42,,,43,49,32,274,*4D
$GLGSV,3,1,10,68,01,041,11,69,37,074,40,70,42,167,13,71,07,199,*63
$GLGSV,3,2,10,73,61,227,23,74,40,303,08,80,22,166,16,84,06,354,12*6A
$GLGSV,3,3,10,85,03,308,,,,,25*56
$GNGLL,0419.84322,S,05539.91597,E,074608.00,A,A*6D
$GNTXT,01,01,01,More than 100 frame errors, UART RX was disabled*70
$GNRMC,074609.00,A,0419.84321,S,05539.91603,E,0.126,,200525,,,A*7D
$GNVTG,,T,,M,0.126,N,0.232,K,A*3B
$GNGGA,074609.00,0419.84321,S,05539.91603,E,1,12,0.88,10.3,M,-47.6,M,,*4D
$GNGSA,A,3,05,12,24,18,15,25,23,13,29,,,,1.55,0.88,1.27*1B
$GNGSA,A,3,80,73,69,84,70,74,,,,,,,1.55,0.88,1.27*12
$GPGSV,4,1,16,05,20,028,34,10,23,217,10,12,61,140,36,13,11,086,37*78
$GPGSV,4,2,16,15,44,109,35,18,26,315,11,23,65,235,22,24,23,159,23*75
$GPGSV,4,3,16,25,81,306,28,28,10,272,,29,23,003,19,36,52,277,*75
$GPGSV,4,4,16,40,86,351,,41,58,082,,42,,,41,49,32,274,*4F
$GLGSV,3,1,10,68,01,041,11,69,37,074,41,70,42,167,13,71,07,199,*62
$GLGSV,3,2,10,73,61,227,24,74,40,303,16,80,22,166,14,84,06,354,08*6B
$GLGSV,3,3,10,85,03,308,,,,,25*56
$GNGLL,0419.84321,S,05539.91603,E,074609.00,A,A*61
$GNTXT,01,01,01,More than 100 frame errors, UART RX was disabled*70
$GNRMC,074610.00,A,0419.84319,S,05539.91607,E,0.121,,200525,,,A*7D
$GNVTG,,T,,M,0.121,N,0.225,K,A*3A
$GNGGA,074610.00,0419.84319,S,05539.91607,E,1,12,0.88,10.5,M,-47.6,M,,*4C
$GNGSA,A,3,05,12,24,18,15,25,23,13,29,,,,1.55,0.88,1.27*1B
$GNGSA,A,3,80,73,69,84,70,74,,,,,,,1.55,0.88,1.27*12
$GPGSV,4,1,16,05,20,028,33,10,23,217,12,12,61,140,36,13,11,086,37*7D
$GPGSV,4,2,16,15,44,109,34,18,26,315,10,23,65,235,22,24,23,159,24*72
$GPGSV,4,3,16,25,81,306,28,28,10,272,,29,23,003,18,36,52,277,*74
$GPGSV,4,4,16,40,86,351,,41,58,082,,42,,,40,49,32,274,*4E
$GLGSV,3,1,10,68,01,041,10,69,37,074,40,70,42,167,13,71,07,199,*62
$GLGSV,3,2,10,73,61,227,25,74,40,303,11,80,22,166,15,84,06,354,07*63
$GLGSV,3,3,10,85,03,308,,,,,24*57
$GNGLL,0419.84319,S,05539.91607,E,074610.00,A,A*66
$GNTXT,01,01,01,More than 100 frame errors, UART RX was disabled*70
$GNRMC,074611.00,A,0419.84317,S,05539.91609,E,0.077,,200525,,,A*7E
$GNVTG,,T,,M,0.077,N,0.143,K,A*3B
$GNGGA,074611.00,0419.84317,S,05539.91609,E,1,12,0.88,10.7,M,-47.6,M,,*4F
$GNGSA,A,3,05,12,24,18,15,25,23,13,29,,,,1.55,0.88,1.27*1B
$GNGSA,A,3,80,73,69,84,70,74,,,,,,,1.55,0.88,1.27*12
$GPGSV,4,1,16,05,20,028,34,10,23,217,14,12,61,140,40,13,11,086,39*73
$GPGSV,4,2,16,15,44,109,35,18,26,315,12,23,65,235,21,24,23,159,25*73
$GPGSV,4,3,16,25,81,306,27,28,10,272,,29,23,003,19,36,52,277,*7A
$GPGSV,4,4,16,40,86,351,,41,58,082,,42,,,44,49,32,274,*4A
$GLGSV,3,1,10,68,01,041,09,69,37,074,40,70,42,167,14,71,07,199,*6D
$GLGSV,3,2,10,73,61,227,23,74,40,303,11,80,22,166,16,84,06,354,09*68
$GLGSV,3,3,10,85,03,308,,,,,25*56
$GNGLL,0419.84317,S,05539.91609,E,074611.00,A,A*67
$GNTXT,01,01,01,More than 100 frame errors, UART RX was disabled*70
$GNRMC,074612.00,A,0419.84318,S,05539.91627,E,0.481,,200525,,,A*73
$GNVTG,,T,,M,0.481,N,0.891,K,A*30
$GNGGA,074612.00,0419.84318,S,05539.91627,E,1,12,0.67,10.9,M,-47.6,M,,*40
$GNGSA,A,3,05,12,24,18,15,25,23,13,29,10,,,1.19,0.67,0.98*16
$GNGSA,A,3,80,73,69,84,70,74,,,,,,,1.19,0.67,0.98*1E
$GPGSV,4,1,16,05,20,028,30,10,23,217,09,12,61,140,34,13,11,086,34*75
$GPGSV,4,2,16,15,44,109,30,18,26,315,09,23,65,235,19,24,23,159,22*70
$GPGSV,4,3,16,25,81,306,25,28,10,272,,29,23,003,18,36,52,277,*79
$GPGSV,4,4,16,40,86,351,,41,58,082,,42,,,39,49,32,274,*40
$GLGSV,3,1,10,68,01,041,09,69,37,074,39,70,42,167,10,71,07,199,*67
$GLGSV,3,2,10,73,61,227,21,74,40,303,10,80,22,166,15,84,06,354,09*68
$GLGSV,3,3,10,85,03,308,,,,,23*50
$GNGLL,0419.84318,S,05539.91627,E,074612.00,A,A*67
$GNTXT,01,01,01,More than 100 frame errors, UART RX was disabled*70
$GNRMC,074613.00,A,0419.84316,S,05539.91633,E,0.261,,200525,,,A*71
$GNVTG,,T,,M,0.261,N,0.484,K,A*30
$GNGGA,074613.00,0419.84316,S,05539.91633,E,1,12,0.69,11.1,M,-47.6,M,,*4D
$GNGSA,A,3,05,12,24,18,15,25,23,13,29,10,,,1.27,0.69,1.07*12
$GNGSA,A,3,80,73,69,84,70,74,,,,,,,1.27,0.69,1.07*1A
$GPGSV,4,1,16,05,20,028,32,10,23,217,16,12,61,140,37,13,11,086,37*79
$GPGSV,4,2,16,15,44,109,35,18,26,315,16,23,65,235,19,24,23,159,22*7B
$GPGSV,4,3,16,25,81,306,25,28,10,272,,29,23,003,18,36,52,277,*79
$GPGSV,4,4,16,40,86,351,,41,58,082,,42,,,41,49,32,274,*4F
$GLGSV,3,1,10,68,01,041,13,69,37,074,40,70,42,167,15,71,07,199,*67
$GLGSV,3,2,10,73,61,227,21,74,40,303,13,80,22,166,14,84,06,354,11*63
$GLGSV,3,3,10,85,03,308,,,,,24*57
$GNGLL,0419.84316,S,05539.91633,E,074613.00,A,A*6D
$GNTXT,01,01,01,More than 100 frame errors, UART RX was disabled*70
$GNRMC,074614.00,A,0419.84311,S,05539.91635,E,0.236,,200525,,,A*75
$GNVTG,,T,,M,0.236,N,0.438,K,A*35
$GNGGA,074614.00,0419.84311,S,05539.91635,E,1,12,0.85,11.3,M,-47.6,M,,*4B
$GNGSA,A,3,05,12,24,18,15,25,23,13,29,10,,,1.42,0.85,1.14*11
$GNGSA,A,3,80,73,69,84,70,74,,,,,,,1.42,0.85,1.14*19
$GPGSV,4,1,16,05,20,028,34,10,23,217,13,12,61,140,38,13,11,086,37*75
$GPGSV,4,2,16,15,44,109,36,18,26,315,14,23,65,235,20,24,23,159,22*70
$GPGSV,4,3,16,25,81,306,25,28,10,272,,29,23,003,20,36,52,277,*72
$GPGSV,4,4,16,40,86,351,,41,58,082,,42,,,42,49,32,274,*4C
$GLGSV,3,1,10,68,01,041,10,69,37,074,40,70,42,167,15,71,07,199,*64
$GLGSV,3,2,10,73,61,227,20,74,40,303,10,80,22,166,13,84,06,354,11*66
$GLGSV,3,3,10,85,03,308,,,,,25*56
$GNGLL,0419.84311,S,05539.91635,E,074614.00,A,A*6B
$GNTXT,01,01,01,More than 100 frame errors, UART RX was disabled*70
$GNRMC,074615.00,A,0419.84310,S,05539.91632,E,0.070,,200525,,,A*72
$GNVTG,,T,,M,0.070,N,0.130,K,A*38
$GNGGA,074615.00,0419.84310,S,05539.91632,E,1,12,0.69,11.4,M,-47.6,M,,*49
$GNGSA,A,3,05,12,24,18,15,25,23,13,29,10,,,1.27,0.69,1.07*12
$GNGSA,A,3,80,73,69,84,70,74,,,,,,,1.27,0.69,1.07*1A
$GPGSV,4,1,16,05,20,028,34,10,23,217,14,12,61,140,38,13,11,086,37*72
$GPGSV,4,2,16,15,44,109,36,18,26,315,13,23,65,235,22,24,23,159,22*75
$GPGSV,4,3,16,25,81,306,27,28,10,272,,29,23,003,19,36,52,277,*7A
$GPGSV,4,4,16,40,86,351,,41,58,082,,42,,,42,49,32,274,*4C
$GLGSV,3,1,10,68,01,041,08,69,37,074,40,70,42,167,12,71,07,199,*6A
$GLGSV,3,2,10,73,61,227,21,74,40,303,13,80,22,166,13,84,06,355,08*6D
$GLGSV,3,3,10,85,03,308,,,,,26*55
$GNGLL,0419.84310,S,05539.91632,E,074615.00,A,A*6C
$GNTXT,01,01,01,More than 100 frame errors, UART RX was disabled*70
$GNRMC,074616.00,A,0419.84307,S,05539.91634,E,0.024,,200525,,,A*70
$GNVTG,,T,,M,0.024,N,0.045,K,A*3A
$GNGGA,074616.00,0419.84307,S,05539.91634,E,1,12,0.69,11.7,M,-47.6,M,,*49
$GNGSA,A,3,05,12,24,18,15,25,23,13,29,10,,,1.27,0.69,1.07*12
$GNGSA,A,3,80,73,69,84,70,74,,,,,,,1.27,0.69,1.07*1A
$GPGSV,4,1,16,05,20,028,34,10,23,217,17,12,61,140,38,13,11,086,37*71
$GPGSV,4,2,16,15,44,109,36,18,26,315,14,23,65,235,21,24,23,159,22*71
$GPGSV,4,3,16,25,81,306,27,28,10,272,,29,23,003,21,36,52,277,*71
$GPGSV,4,4,16,40,86,351,,41,58,082,,42,,,43,49,32,274,*4D
$GLGSV,3,1,10,68,01,041,09,69,37,074,40,70,42,167,14,71,07,199,*6D
$GLGSV,3,2,10,73,61,227,22,74,40,303,14,80,22,166,13,84,06,355,10*60
$GLGSV,3,3,10,85,03,308,,,,,25*56
$GNGLL,0419.84307,S,05539.91634,E,074616.00,A,A*6F
$GNTXT,01,01,01,More than 100 frame errors, UART RX was disabled*70
$GNRMC,074617.00,A,0419.84307,S,05539.91630,E,0.006,,200525,,,A*75
$GNVTG,,T,,M,0.006,N,0.011,K,A*3B
$GNGGA,074617.00,0419.84307,S,05539.91630,E,1,12,0.70,11.7,M,-47.6,M,,*44
$GNGSA,A,3,05,12,24,18,15,25,23,13,29,10,,,1.28,0.70,1.07*15
$GNGSA,A,3,80,73,69,84,70,74,,,,,,,1.28,0.70,1.07*1D
$GPGSV,4,1,16,05,20,028,32,10,23,217,13,12,61,140,37,13,11,086,36*7D
$GPGSV,4,2,16,15,44,109,36,18,26,315,14,23,65,235,21,24,23,159,20*73
$GPGSV,4,3,16,25,81,306,26,28,10,272,,29,23,003,21,36,52,277,*70
$GPGSV,4,4,16,40,86,351,,41,58,082,,42,,,42,49,32,274,*4C
$GLGSV,3,1,10,68,01,041,12,69,37,074,40,70,42,167,11,71,07,199,*62
$GLGSV,3,2,10,73,61,227,22,74,40,303,14,80,22,166,12,84,06,355,08*68
$GLGSV,3,3,10,85,03,308,,,,,24*57
$GNGLL,0419.84307,S,05539.91630,E,074617.00,A,A*6A
$GNTXT,01,01,01,More than 100 frame errors, UART RX was disabled*70
$GNRMC,074618.00,A,0419.84306,S,05539.91638,E,0.122,,200525,,,A*74
$GNVTG,,T,,M,0.122,N,0.227,K,A*3B
$GNGGA,074618.00,0419.84306,S,05539.91638,E,1,12,0.69,11.9,M,-47.6,M,,*44
$GNGSA,A,3,05,12,24,18,15,25,23,13,29,10,,,1.27,0.69,1.07*12
$GNGSA,A,3,80,73,69,84,70,74,,,,,,,1.27,0.69,1.07*1A
$GPGSV,4,1,16,05,20,028,34,10,23,217,16,12,61,140,37,13,11,086,37*7F
$GPGSV,4,2,16,15,44,109,36,18,26,315,11,23,65,235,20,24,23,159,21*76
$GPGSV,4,3,16,25,81,306,29,28,10,272,,29,23,003,19,36,52,277,*74
$GPGSV,4,4,16,40,86,351,,41,58,082,,42,,,42,49,32,274,*4C
$GLGSV,3,1,10,68,01,041,08,69,37,074,40,70,42,167,19,71,07,199,*61
$GLGSV,3,2,10,73,61,227,22,74,40,303,13,80,22,166,11,84,06,355,09*6D
$GLGSV,3,3,10,85,03,308,,,,,24*57
$GNGLL,0419.84306,S,05539.91638,E,074618.00,A,A*6C
$GNTXT,01,01,01,More than 100 frame errors, UART RX was disabled*70
$GNRMC,074619.00,A,0419.84304,S,05539.91644,E,0.090,,200525,,,A*74
$GNVTG,,T,,M,0.090,N,0.166,K,A*35
$GNGGA,074619.00,0419.84304,S,05539.91644,E,1,12,0.69,12.1,M,-47.6,M,,*47
$GNGSA,A,3,05,12,24,18,15,25,23,13,29,10,,,1.27,0.69,1.07*12
$GNGSA,A,3,80,73,69,84,70,74,,,,,,,1.27,0.69,1.07*1A
$GPGSV,4,1,16,05,20,028,34,10,23,217,13,12,61,140,37,13,11,086,36*7B
$GPGSV,4,2,16,15,44,109,36,18,26,315,13,23,65,235,19,24,23,159,22*7D
$GPGSV,4,3,16,25,81,306,27,28,10,272,,29,23,003,21,36,52,277,*71
$GPGSV,4,4,16,40,86,351,,41,58,082,,42,,,42,49,32,274,*4C
$GLGSV,3,1,10,68,01,041,12,69,37,074,41,70,42,167,13,71,07,199,*61
$GLGSV,3,2,10,73,61,227,22,74,40,303,12,80,22,166,10,84,06,355,09*6D
$GLGSV,3,3,10,85,03,308,,,,,24*57
$GNGLL,0419.84304,S,05539.91644,E,074619.00,A,A*64
$GNTXT,01,01,01,More than 100 frame errors, UART RX was disabled*70
$GNRMC,074620.00,A,0419.84304,S,05539.91643,E,0.104,,200525,,,A*75
$GNVTG,,T,,M,0.104,N,0.192,K,A*32
$GNGGA,074620.00,0419.84304,S,05539.91643,E,1,12,0.73,12.2,M,-47.6,M,,*42
$GNGSA,A,3,05,12,24,18,15,25,23,13,29,10,,,1.29,0.73,1.07*17
$GNGSA,A,3,80,73,69,84,70,74,,,,,,,1.29,0.73,1.07*1F
$GPGSV,4,1,16,05,20,028,34,10,23,217,16,12,61,140,37,13,11,086,36*7E
$GPGSV,4,2,16,15,44,109,36,18,26,315,11,23,65,235,21,24,23,159,21*77
$GPGSV,4,3,16,25,81,306,28,28,10,272,,29,23,003,20,36,52,277,*7F
$GPGSV,4,4,16,40,86,351,,41,58,082,,42,,,42,49,32,274,*4C
$GLGSV,3,1,10,68,01,041,07,69,37,074,41,70,42,167,08,71,07,199,*6F
$GLGSV,3,2,10,73,61,227,21,74,40,303,09,80,22,166,12,84,06,355,08*67
$GLGSV,3,3,10,85,03,308,,,,,23*50
$GNGLL,0419.84304,S,05539.91643,E,074620.00,A,A*69
$GNTXT,01,01,01,More than 100 frame errors, UART RX was disabled*70
$GNRMC,074621.00,A,0419.84303,S,05539.91638,E,0.019,,200525,,,A*72
$GNVTG,,T,,M,0.019,N,0.036,K,A*30
$GNGGA,074621.00,0419.84303,S,05539.91638,E,1,12,0.72,12.2,M,-47.6,M,,*49
$GNGSA,A,3,05,12,24,18,15,25,23,13,29,10,,,1.31,0.72,1.10*19
$GNGSA,A,3,73,69,84,70,74,,,,,,,,1.31,0.72,1.10*19
$GPGSV,4,1,16,05,20,028,36,10,23,217,12,12,61,140,37,13,11,086,39*77
$GPGSV,4,2,16,15,44,109,38,18,26,315,14,23,65,235,22,24,23,159,22*7C
$GPGSV,4,3,16,25,81,306,29,28,10,272,,29,23,003,20,36,52,277,*7E
$GPGSV,4,4,16,40,86,351,,41,58,082,,42,,,44,49,32,274,*4A
$GLGSV,3,1,10,68,01,041,10,69,37,074,39,70,42,167,15,71,07,199,*6A
$GLGSV,3,2,10,73,61,227,21,74,40,303,09,80,22,166,09,84,06,355,11*65
$GLGSV,3,3,10,85,03,308,,,,,24*57
$GNGLL,0419.84303,S,05539.91638,E,074621.00,A,A*63
$GNTXT,01,01,01,More than 100 frame errors, UART RX was disabled*70
$GNRMC,074622.00,A,0419.84303,S,05539.91640,E,0.025,,200525,,,A*71
$GNVTG,,T,,M,0.025,N,0.046,K,A*38
$GNGGA,074622.00,0419.84303,S,05539.91640,E,1,12,0.69,12.4,M,-47.6,M,,*49
$GNGSA,A,3,05,12,24,18,15,25,23,13,29,10,,,1.27,0.69,1.07*12
$GNGSA,A,3,80,73,69,84,70,74,,,,,,,1.27,0.69,1.07*1A
$GPGSV,4,1,16,05,20,028,35,10,23,217,12,12,61,140,38,13,11,086,37*75
$GPGSV,4,2,16,15,44,109,36,18,26,315,11,23,65,235,22,24,23,159,23*76
$GPGSV,4,3,16,25,81,306,28,28,10,272,,29,23,003,21,36,52,277,*7E
$GPGSV,4,4,16,40,86,351,,41,58,082,,42,,,42,49,32,274,*4C
$GLGSV,3,1,10,68,01,041,09,69,37,074,41,70,42,167,13,71,07,199,*6B
$GLGSV,3,2,10,73,61,227,21,74,40,303,11,80,22,166,11,84,06,355,08*6D
$GLGSV,3,3,10,85,03,308,,,,,25*56
$GNGLL,0419.84303,S,05539.91640,E,074622.00,A,A*6F
$GNTXT,01,01,01,More than 100 frame errors, UART RX was disabled*70
$GNRMC,074623.00,A,0419.84302,S,05539.91641,E,0.050,,200525,,,A*72
$GNVTG,,T,,M,0.050,N,0.092,K,A*33
$GNGGA,074623.00,0419.84302,S,05539.91641,E,1,12,0.87,12.6,M,-47.6,M,,*4A
$GNGSA,A,3,05,12,24,18,15,25,23,13,29,10,,,1.46,0.87,1.17*14
$GNGSA,A,3,73,69,84,70,74,,,,,,,,1.46,0.87,1.17*14
$GPGSV,4,1,16,05,20,028,32,10,23,217,15,12,61,140,36,13,11,086,36*7A
$GPGSV,4,2,16,15,44,109,36,18,26,315,09,23,65,235,20,24,23,159,23*7D
$GPGSV,4,3,16,25,81,306,27,28,10,272,,29,23,003,18,36,52,277,*7B
$GPGSV,4,4,16,40,86,351,,41,58,082,,42,,,40,49,32,274,*4E
$GLGSV,3,1,10,68,01,041,11,69,37,074,41,70,42,167,14,71,07,199,*65
$GLGSV,3,2,10,73,61,227,22,74,40,303,12,80,22,166,10,84,06,355,11*64
$GLGSV,3,3,10,85,03,308,,,,,24*57
$GNGLL,0419.84302,S,05539.91641,E,074623.00,A,A*6E
$GNTXT,01,01,01,More than 100 frame errors, UART RX was disabled*70
$GNRMC,074624.00,A,0419.84302,S,05539.91646,E,0.034,,200525,,,A*70
$GNVTG,,T,,M,0.034,N,0.063,K,A*3F
$GNGGA,074624.00,0419.84302,S,05539.91646,E,1,12,0.69,12.7,M,-47.6,M,,*4B
$GNGSA,A,3,05,12,24,18,15,25,23,13,29,10,,,1.27,0.69,1.07*12
$GNGSA,A,3,80,73,69,70,74,,,,,,,,1.27,0.69,1.07*16
$GPGSV,4,1,16,05,20,028,33,10,23,217,12,12,61,140,35,13,11,086,36*7F
$GPGSV,4,2,16,15,44,109,36,18,26,315,09,23,65,235,19,24,23,159,22*76
$GPGSV,4,3,16,25,81,306,28,28,10,272,,29,23,003,18,36,52,277,*74
$GPGSV,4,4,16,40,86,351,,41,58,082,,42,,,41,49,32,274,*4F
$GLGSV,3,1,10,68,01,041,09,69,37,074,40,70,42,167,15,71,07,199,*6C
$GLGSV,3,2,10,73,61,227,22,74,40,303,13,80,22,166,12,84,06,355,07*60
$GLGSV,3,3,10,85,03,308,,,,,25*56
$GNGLL,0419.84302,S,05539.91646,E,074624.00,A,A*6E
$GNTXT,01,01,01,More than 100 frame errors, UART RX was disabled*70
$GNRMC,074625.00,A,0419.84303,S,05539.91655,E,0.131,,200525,,,A*76
$GNVTG,,T,,M,0.131,N,0.243,K,A*3B
$GNGGA,074625.00,0419.84303,S,05539.91655,E,1,12,0.69,12.8,M,-47.6,M,,*46
$GNGSA,A,3,05,12,24,18,15,25,23,13,29,10,,,1.27,0.69,1.07*12
$GNGSA,A,3,80,73,69,84,70,74,,,,,,,1.27,0.69,1.07*1A
$GPGSV,4,1,16,05,20,028,29,10,23,217,08,12,61,140,31,13,11,086,29*75
$GPGSV,4,2,16,15,44,109,30,18,26,315,09,23,65,235,18,24,23,159,21*72
$GPGSV,4,3,16,25,81,306,26,28,10,272,,29,23,003,17,36,52,277,*75
$GPGSV,4,4,16,40,86,351,,41,58,082,,42,,,33,49,32,274,*4A
$GLGSV,3,1,10,68,01,041,11,69,37,074,38,70,42,167,11,71,07,199,*6E
$GLGSV,3,2,10,73,61,227,21,74,40,303,15,80,22,166,12,84,06,355,08*6A
$GLGSV,3,3,10,85,03,308,,,,,24*57
$GNGLL,0419.84303,S,05539.91655,E,074625.00,A,A*6C
$GNTXT,01,01,01,More than 100 frame errors, UART RX was disabled*70
$GNRMC,074626.00,A,0419.84306,S,05539.91664,E,0.210,,200525,,,A*72
$GNVTG,,T,,M,0.210,N,0.389,K,A*3C
$GNGGA,074626.00,0419.84306,S,05539.91664,E,1,12,0.79,13.0,M,-47.6,M,,*4A
$GNGSA,A,3,05,12,24,18,15,25,23,13,29,10,,,1.41,0.79,1.16*13
$GNGSA,A,3,80,73,69,84,70,74,,,,,,,1.41,0.79,1.16*1B
$GPGSV,4,1,16,05,20,028,29,10,23,217,12,12,61,140,32,13,11,086,32*77
$GPGSV,4,2,16,15,44,109,29,18,26,315,12,23,65,235,18,24,23,159,20*71
$GPGSV,4,3,16,25,81,306,25,28,10,272,,29,23,003,17,36,52,277,*76
$GPGSV,4,4,16,40,86,351,,41,58,082,,42,,,36,49,32,274,*4F
$GLGSV,3,1,10,68,01,041,09,69,37,074,36,70,42,167,13,71,07,199,*6B
$GLGSV,3,2,10,73,61,227,21,74,40,303,10,80,22,166,10,84,06,355,10*64
$GLGSV,3,3,10,85,03,308,,,,,23*50
$GNGLL,0419.84306,S,05539.91664,E,074626.00,A,A*68
$GNTXT,01,01,01,More than 100 frame errors, UART RX was disabled*70
$GNRMC,074627.00,A,0419.84306,S,05539.91666,E,0.155,,200525,,,A*73
$GNVTG,,T,,M,0.155,N,0.288,K,A*3E
$GNGGA,074627.00,0419.84306,S,05539.91666,E,1,12,0.69,13.2,M,-47.6,M,,*4A
$GNGSA,A,3,05,12,24,18,15,25,23,13,29,10,,,1.27,0.69,1.07*12
$GNGSA,A,3,80,73,69,84,70,74,,,,,,,1.27,0.69,1.07*1A
$GPGSV,4,1,16,05,20,028,30,10,23,217,10,12,61,140,32,13,11,086,32*7D
$GPGSV,4,2,16,15,44,109,30,18,26,315,10,23,65,235,17,24,23,159,21*75
$GPGSV,4,3,16,25,81,306,25,28,10,272,,29,23,003,17,36,52,277,*76
$GPGSV,4,4,16,40,86,351,,41,58,082,,42,,,36,49,32,274,*4F
$GLGSV,3,1,10,68,01,041,10,69,37,074,37,70,42,167,10,71,07,199,*61
$GLGSV,3,2,10,73,61,227,20,74,40,303,10,80,22,166,11,84,06,355,09*6C
$GLGSV,3,3,10,85,03,308,,,,,24*57
$GNGLL,0419.84306,S,05539.91666,E,074627.00,A,A*6B
$GNTXT,01,01,01,More than 100 frame errors, UART RX was disabled*70
$GNRMC,074628.00,A,0419.84304,S,05539.91657,E,0.067,,200525,,,A*7C
$GNVTG,,T,,M,0.067,N,0.124,K,A*3B
$GNGGA,074628.00,0419.84304,S,05539.91657,E,1,12,0.72,13.1,M,-47.6,M,,*4C
$GNGSA,A,3,05,12,24,18,15,25,23,13,29,10,,,1.31,0.72,1.10*19
$GNGSA,A,3,73,69,84,70,74,,,,,,,,1.31,0.72,1.10*19
$GPGSV,4,1,16,05,20,028,34,10,23,217,14,12,61,140,39,13,11,086,37*73
$GPGSV,4,2,16,15,44,109,36,18,26,315,11,23,65,235,17,24,23,159,23*70
$GPGSV,4,3,16,25,81,306,26,28,10,272,,29,23,003,18,36,52,277,*7A
$GPGSV,4,4,16,40,86,351,,41,58,082,,42,,,42,49,32,274,*4C
$GLGSV,3,1,10,68,01,041,06,69,37,074,41,70,42,167,09,71,07,199,*6F
$GLGSV,3,2,10,73,61,227,20,74,40,303,11,80,22,166,08,84,06,355,07*6B
$GLGSV,3,3,10,85,03,308,,,,,25*56
$GNGLL,0419.84304,S,05539.91657,E,074628.00,A,A*64
$GNTXT,01,01,01,More than 100 frame errors, UART RX was disabled*70
$GNRMC,074629.00,A,0419.84304,S,05539.91651,E,0.084,,200525,,,A*76
$GNVTG,,T,,M,0.084,N,0.155,K,A*30
$GNGGA,074629.00,0419.84304,S,05539.91651,E,1,12,1.11,13.2,M,-47.6,M,,*4C
$GNGSA,A,3,05,12,24,18,15,25,23,13,29,10,,,1.84,1.11,1.47*11
$GNGSA,A,3,73,69,84,70,74,,,,,,,,1.84,1.11,1.47*11
$GPGSV,4,1,16,05,20,028,34,10,24,218,17,12,61,140,36,13,11,086,33*73
$GPGSV,4,2,16,15,44,109,36,18,26,315,07,23,65,235,18,24,23,159,23*78
$GPGSV,4,3,16,25,81,306,28,28,10,272,,29,23,003,19,36,52,277,*75
$GPGSV,4,4,16,40,86,351,,41,58,082,,42,,,40,49,32,274,*4E
$GLGSV,3,1,10,68,01,041,10,69,37,074,39,70,42,167,16,71,07,199,*69
$GLGSV,3,2,10,73,61,227,22,74,40,303,14,80,22,166,08,84,06,355,10*6A
$GLGSV,3,3,10,85,03,308,,,,,26*55
$GNGLL,0419.84304,S,05539.91651,E,074629.00,A,A*63
$GNTXT,01,01,01,More than 100 frame errors, UART RX was disabled*70
$GNRMC,074630.00,A,0419.84303,S,05539.91642,E,0.125,,200525,,,A*71
$GNVTG,,T,,M,0.125,N,0.231,K,A*3B
$GNGGA,074630.00,0419.84303,S,05539.91642,E,1,12,0.72,13.3,M,-47.6,M,,*44
$GNGSA,A,3,05,12,24,18,15,25,23,13,29,10,,,1.31,0.72,1.10*19
$GNGSA,A,3,80,73,69,84,70,74,,,,,,,1.31,0.72,1.10*11
$GPGSV,4,1,16,05,20,028,34,10,24,218,13,12,61,140,38,13,11,086,36*7C
$GPGSV,4,2,16,15,44,109,35,18,26,315,10,23,65,235,16,24,23,159,23*73
$GPGSV,4,3,16,25,81,306,27,28,10,272,,29,23,003,18,36,52,277,*7B
$GPGSV,4,4,16,40,86,351,,41,58,082,,42,,,42,49,32,274,*4C
$GLGSV,3,1,10,68,01,041,11,69,37,074,41,70,42,167,15,71,07,199,*64
$GLGSV,3,2,10,73,61,227,22,74,40,303,14,80,22,166,13,84,06,355,09*68
$GLGSV,3,3,10,85,03,308,,,,,26*55
$GNGLL,0419.84303,S,05539.91642,E,074630.00,A,A*6E
$GNTXT,01,01,01,More than 100 frame errors, UART RX was disabled*70
$GNRMC,074631.00,A,0419.84303,S,05539.91645,E,0.051,,200525,,,A*75
$GNVTG,,T,,M,0.051,N,0.094,K,A*34
$GNGGA,074631.00,0419.84303,S,05539.91645,E,1,12,0.72,13.5,M,-47.6,M,,*44
$GNGSA,A,3,05,12,24,18,15,25,23,13,29,10,,,1.31,0.72,1.10*19
$GNGSA,A,3,80,73,69,84,70,74,,,,,,,1.31,0.72,1.10*11
$GPGSV,4,1,16,05,20,028,31,10,24,218,09,12,60,141,36,13,11,086,34*7E
$GPGSV,4,2,16,15,44,109,33,18,26,315,09,23,65,235,16,24,23,159,22*7C
$GPGSV,4,3,16,25,81,306,26,28,10,272,,29,23,003,18,36,52,277,*7A
$GPGSV,4,4,16,40,86,351,,41,58,082,,42,,,40,49,32,274,*4E
$GLGSV,3,1,10,68,01,041,14,69,37,074,40,70,42,167,16,71,07,199,*63
$GLGSV,3,2,10,73,61,227,22,74,40,303,14,80,22,166,13,84,06,355,08*69
$GLGSV,3,3,10,85,03,308,,,,,27*54
$GNGLL,0419.84303,S,05539.91645,E,074631.00,A,A*68
$GNTXT,01,01,01,More than 100 frame errors, UART RX was disabled*70
$GNRMC,074632.00,A,0419.84302,S,05539.91643,E,0.007,,200525,,,A*72
$GNVTG,,T,,M,0.007,N,0.012,K,A*39
$GNGGA,074632.00,0419.84302,S,05539.91643,E,1,12,0.94,13.7,M,-47.6,M,,*4A
$GNGSA,A,3,05,12,24,18,15,25,23,13,29,10,,,1.66,0.94,1.36*17
$GNGSA,A,3,80,73,69,84,70,74,,,,,,,1.66,0.94,1.36*1F
$GPGSV,4,1,16,05,20,028,34,10,24,218,12,12,60,141,37,13,11,085,39*7E
$GPGSV,4,2,16,15,44,109,38,18,26,315,12,23,65,235,19,24,23,159,25*75
$GPGSV,4,3,16,25,81,306,28,28,10,272,,29,23,003,19,36,52,277,*75
$GPGSV,4,4,16,40,86,351,,41,58,082,,42,,,43,49,32,274,*4D
$GLGSV,3,1,10,68,01,041,07,69,37,074,41,70,42,167,10,71,07,199,*66
$GLGSV,3,2,10,73,61,227,22,74,40,303,14,80,22,166,11,84,06,355,09*6A
$GLGSV,3,3,10,85,03,308,,,,,27*54
$GNGLL,0419.84302,S,05539.91643,E,074632.00,A,A*6C
$GNTXT,01,01,01,More than 100 frame errors, UART RX was disabled*70
$GNRMC,074633.00,A,0419.84301,S,05539.91646,E,0.047,,200525,,,A*71
$GNVTG,,T,,M,0.047,N,0.087,K,A*31
$GNGGA,074633.00,0419.84301,S,05539.91646,E,1,12,0.69,13.8,M,-47.6,M,,*40
$GNGSA,A,3,05,12,24,18,15,25,23,13,29,10,,,1.27,0.69,1.07*12
$GNGSA,A,3,80,73,69,84,70,74,,,,,,,1.27,0.69,1.07*1A
$GPGSV,4,1,16,05,20,028,31,10,24,218,17,12,60,141,34,13,11,085,35*71
$GPGSV,4,2,16,15,44,109,35,18,26,315,08,23,65,235,20,24,23,159,25*79
$GPGSV,4,3,16,25,81,306,28,28,10,272,,29,23,003,19,36,52,277,*75
$GPGSV,4,4,16,40,86,351,,41,58,082,,42,,,38,49,32,274,*41
$GLGSV,3,1,10,68,01,041,11,69,37,074,39,70,42,167,14,71,07,199,*6A
$GLGSV,3,2,10,73,61,227,22,74,40,303,15,80,22,166,18,84,06,355,11*6B
$GLGSV,3,3,10,85,03,308,,,,,29*5A
$GNGLL,0419.84301,S,05539.91646,E,074633.00,A,A*6B
$GNTXT,01,01,01,More than 100 frame errors, UART RX was disabled*70
$GNRMC,074634.00,A,0419.84299,S,05539.91645,E,0.027,,200525,,,A*73
$GNVTG,,T,,M,0.027,N,0.050,K,A*3D
$GNGGA,074634.00,0419.84299,S,05539.91645,E,1,12,0.69,13.9,M,-47.6,M,,*45
$GNGSA,A,3,05,12,24,18,15,25,23,13,29,10,,,1.27,0.69,1.07*12
$GNGSA,A,3,80,73,69,84,70,74,,,,,,,1.27,0.69,1.07*1A
$GPGSV,4,1,16,05,20,028,33,10,24,218,13,12,60,141,38,13,11,085,37*79
$GPGSV,4,2,16,15,44,108,36,18,26,315,10,23,65,235,20,24,23,159,24*73
$GPGSV,4,3,16,25,81,306,28,28,10,272,,29,23,003,20,36,52,277,*7F
$GPGSV,4,4,16,40,86,351,,41,58,082,,42,,,43,49,32,274,*4D
$GLGSV,3,1,10,68,01,041,10,69,37,074,41,70,42,167,16,71,07,199,*66
$GLGSV,3,2,10,73,61,227,24,74,40,303,13,80,22,166,19,84,06,355,09*63
$GLGSV,3,3,10,85,03,308,,,,,29*5A
$GNGLL,0419.84299,S,05539.91645,E,074634.00,A,A*6F
$GNTXT,01,01,01,More than 100 frame errors, UART RX was disabled*70
$GNRMC,074635.00,A,0419.84297,S,05539.91652,E,0.138,,200525,,,A*75
$GNVTG,,T,,M,0.138,N,0.255,K,A*35
$GNGGA,074635.00,0419.84297,S,05539.91652,E,1,12,0.73,14.1,M,-47.6,M,,*48
$GNGSA,A,3,05,12,24,18,15,25,23,13,29,10,,,1.29,0.73,1.07*17
$GNGSA,A,3,80,73,69,84,70,74,,,,,,,1.29,0.73,1.07*1F
$GPGSV,4,1,16,05,20,028,29,10,24,218,12,12,60,141,32,13,11,085,31*7F
$GPGSV,4,2,16,15,44,108,33,18,26,315,11,23,65,235,19,24,23,159,22*7B
$GPGSV,4,3,16,25,81,306,21,28,10,272,,29,23,003,18,36,52,277,*7D
$GPGSV,4,4,16,40,86,351,,41,58,082,,42,,,37,49,32,274,*4E
$GLGSV,3,1,10,68,01,041,09,69,37,074,39,70,42,167,15,71,07,199,*62
$GLGSV,3,2,10,73,61,227,23,74,40,303,16,80,22,166,13,84,06,355,12*61
$GLGSV,3,3,10,85,03,308,,,,,28*5B
$GNGLL,0419.84297,S,05539.91652,E,074635.00,A,A*66
$GNTXT,01,01,01,More than 100 frame errors, UART RX was disabled*70
$GNRMC,074636.00,A,0419.84293,S,05539.91653,E,0.050,,200525,,,A*7C
$GNVTG,,T,,M,0.050,N,0.093,K,A*32
$GNGGA,074636.00,0419.84293,S,05539.91653,E,1,12,0.69,14.2,M,-47.6,M,,*46
$GNGSA,A,3,05,12,24,18,15,25,23,13,29,10,,,1.27,0.69,1.07*12
$GNGSA,A,3,80,73,69,84,70,74,,,,,,,1.27,0.69,1.07*1A
$GPGSV,4,1,16,05,20,028,34,10,24,218,12,12,60,141,37,13,11,085,37*70
$GPGSV,4,2,16,15,44,108,36,18,26,315,07,23,65,235,16,24,23,159,22*76
$GPGSV,4,3,16,25,81,306,24,28,10,272,,29,23,003,17,36,52,277,*77
$GPGSV,4,4,16,40,86,351,,41,58,082,,42,,,42,49,32,274,*4C
$GLGSV,3,1,10,68,01,041,10,69,37,074,40,70,42,167,16,71,07,199,*67
$GLGSV,3,2,10,73,61,227,22,74,40,303,10,80,22,166,17,84,06,355,11*61
$GLGSV,3,3,10,85,03,308,,,,,29*5A
$GNGLL,0419.84293,S,05539.91653,E,074636.00,A,A*60
$GNTXT,01,01,01,More than 100 frame errors, UART RX was disabled*70
$GNRMC,074637.00,A,0419.84292,S,05539.91644,E,0.034,,200525,,,A*78
$GNVTG,,T,,M,0.034,N,0.064,K,A*38
$GNGGA,074637.00,0419.84292,S,05539.91644,E,1,12,0.69,14.2,M,-47.6,M,,*40
$GNGSA,A,3,05,12,24,18,15,25,23,13,29,10,,,1.27,0.69,1.07*12
$GNGSA,A,3,80,73,69,70,74,,,,,,,,1.27,0.69,1.07*16
$GPGSV,4,1,16,05,20,028,34,10,24,218,13,12,60,141,37,13,11,085,37*71
$GPGSV,4,2,16,15,44,108,36,18,26,315,12,23,65,235,17,24,23,159,25*74
$GPGSV,4,3,16,25,81,306,25,28,10,272,,29,23,003,17,36,52,277,*76
$GPGSV,4,4,16,40,86,351,,41,58,082,,42,,,42,49,32,274,*4C
$GLGSV,3,1,10,68,01,041,08,69,37,074,41,70,42,167,13,71,07,199,*6A
$GLGSV,3,2,10,73,61,227,23,74,40,303,14,80,22,166,10,84,06,355,06*65
$GLGSV,3,3,10,85,03,308,,,,,28*5B
$GNGLL,0419.84292,S,05539.91644,E,074637.00,A,A*66
$GNTXT,01,01,01,More than 100 frame errors, UART RX was disabled*70
$GNRMC,074638.00,A,0419.84289,S,05539.91636,E,0.022,,200525,,,A*7F
$GNVTG,,T,,M,0.022,N,0.041,K,A*38
$GNGGA,074638.00,0419.84289,S,05539.91636,E,1,12,0.76,14.2,M,-47.6,M,,*4E
$GNGSA,A,3,05,12,24,18,15,25,23,13,29,10,,,1.35,0.76,1.12*1B
$GNGSA,A,3,80,73,69,70,74,,,,,,,,1.35,0.76,1.12*1F
$GPGSV,4,1,16,05,20,028,34,10,24,218,14,12,60,141,37,13,11,085,38*79
$GPGSV,4,2,16,15,44,108,38,18,26,315,10,23,65,235,18,24,23,159,25*77
$GPGSV,4,3,16,25,81,306,28,28,10,272,,29,23,003,18,36,52,277,*74
$GPGSV,4,4,16,40,86,351,,41,58,082,,42,,,43,49,32,274,*4D
$GLGSV,3,1,10,68,01,041,09,69,37,074,40,70,42,167,15,71,07,199,*6C
$GLGSV,3,2,10,73,61,227,24,74,40,303,12,80,22,166,19,84,06,355,11*6B
$GLGSV,3,3,10,85,03,308,,,,,28*5B
$GNGLL,0419.84289,S,05539.91636,E,074638.00,A,A*66
$GNTXT,01,01,01,More than 100 frame errors, UART RX was disabled*70
$GNRMC,074639.00,A,0419.84288,S,05539.91634,E,0.046,,200525,,,A*7F
$GNVTG,,T,,M,0.046,N,0.086,K,A*31
$GNGGA,074639.00,0419.84288,S,05539.91634,E,1,12,0.70,14.3,M,-47.6,M,,*4B
$GNGSA,A,3,05,12,24,18,15,25,13,29,10,,,,1.31,0.70,1.11*1B
$GNGSA,A,3,80,73,69,70,74,,,,,,,,1.31,0.70,1.11*1E
$GPGSV,4,1,16,05,20,028,35,10,24,218,08,12,60,141,37,13,11,085,38*75
$GPGSV,4,2,16,15,44,108,35,18,26,315,08,23,65,235,,24,23,159,26*79
$GPGSV,4,3,16,25,81,306,28,28,10,272,,29,23,003,20,36,52,277,*7F
$GPGSV,4,4,16,40,86,351,,41,58,082,,42,,,43,49,32,274,*4D
$GLGSV,3,1,10,68,01,041,16,69,37,074,41,70,42,167,11,71,07,199,*67
$GLGSV,3,2,10,73,61,227,23,74,40,303,14,80,22,166,16,84,06,355,08*6D
$GLGSV,3,3,10,85,03,308,,,,,29*5A
$GNGLL,0419.84288,S,05539.91634,E,074639.00,A,A*64
$GNTXT,01,01,01,More than 100 frame errors, UART RX was disabled*70
$GNRMC,074640.00,A,0419.84287,S,05539.91630,E,0.102,,200525,,,A*7B
$GNVTG,,T,,M,0.102,N,0.189,K,A*3E
$GNGGA,074640.00,0419.84287,S,05539.91630,E,1,12,0.70,14.3,M,-47.6,M,,*4E
$GNGSA,A,3,05,12,24,18,15,25,13,29,10,,,,1.31,0.70,1.11*1B
$GNGSA,A,3,80,73,69,70,74,,,,,,,,1.31,0.70,1.11*1E
$GPGSV,4,1,16,05,20,028,35,10,24,218,11,12,60,141,37,13,11,085,38*7D
$GPGSV,4,2,16,15,44,108,37,18,26,315,12,23,65,235,,24,23,159,26*70
$GPGSV,4,3,16,25,81,306,27,28,10,272,,29,23,003,20,36,52,277,*70
$GPGSV,4,4,16,40,86,351,,41,58,082,,42,,,43,49,32,274,*4D
$GLGSV,3,1,10,68,01,041,10,69,37,074,41,70,42,167,12,71,07,199,*62
$GLGSV,3,2,10,73,61,227,23,74,40,303,09,80,22,166,17,84,06,355,08*60
$GLGSV,3,3,10,85,03,308,,,,,28*5B
$GNGLL,0419.84287,S,05539.91630,E,074640.00,A,A*61
$GNTXT,01,01,01,More than 100 frame errors, UART RX was disabled*70
$GNRMC,074641.00,A,0419.84287,S,05539.91626,E,0.021,,200525,,,A*7D
$GNVTG,,T,,M,0.021,N,0.039,K,A*34
$GNGGA,074641.00,0419.84287,S,05539.91626,E,1,12,0.76,14.3,M,-47.6,M,,*4E
$GNGSA,A,3,05,12,24,18,15,25,13,29,10,,,,1.39,0.76,1.16*12
$GNGSA,A,3,80,73,69,70,74,,,,,,,,1.39,0.76,1.16*17
$GPGSV,4,1,16,05,20,028,34,10,24,218,14,12,60,141,38,13,11,085,38*76
$GPGSV,4,2,16,15,44,108,38,18,26,315,09,23,65,236,,24,23,159,26*76
$GPGSV,4,3,16,25,81,306,29,28,10,272,,29,23,003,20,36,52,277,*7E
$GPGSV,4,4,16,40,86,351,,41,58,082,,42,,,43,49,32,274,*4D
$GLGSV,3,1,10,68,01,041,10,69,37,074,40,70,42,167,15,71,07,199,*64
$GLGSV,3,2,10,73,61,227,23,74,40,303,13,80,22,166,17,84,06,355,09*6A
$GLGSV,3,3,10,85,03,308,,,,,28*5B
$GNGLL,0419.84287,S,05539.91626,E,074641.00,A,A*67
$GNTXT,01,01,01,More than 100 frame errors, UART RX was disabled*70
$GNRMC,074642.00,A,0419.84287,S,05539.91622,E,0.101,,200525,,,A*79
$GNVTG,,T,,M,0.101,N,0.186,K,A*32
$GNGGA,074642.00,0419.84287,S,05539.91622,E,1,12,0.70,14.3,M,-47.6,M,,*4F
$GNGSA,A,3,05,12,24,18,15,25,13,29,10,,,,1.31,0.70,1.11*1B
$GNGSA,A,3,80,73,69,70,74,,,,,,,,1.31,0.70,1.11*1E
$GPGSV,4,1,16,05,20,028,34,10,24,218,14,12,60,141,37,13,11,085,37*76
$GPGSV,4,2,16,15,44,108,37,18,26,315,08,23,65,236,,24,23,159,25*7B
$GPGSV,4,3,16,25,81,306,28,28,10,272,,29,23,003,20,36,52,277,*7F
$GPGSV,4,4,16,40,86,351,,41,58,082,,42,,,43,49,32,274,*4D
$GLGSV,3,1,10,68,01,041,09,69,37,074,42,70,42,167,17,71,07,199,*6C
$GLGSV,3,2,10,73,61,227,22,74,40,303,10,80,22,166,17,84,06,355,09*68
$GLGSV,3,3,10,85,03,308,,,,,29*5A
$GNGLL,0419.84287,S,05539.91622,E,074642.00,A,A*60
$GNTXT,01,01,01,More than 100 frame errors, UART RX was disabled*70
$GNRMC,074643.00,A,0419.84286,S,05539.91617,E,0.046,,200525,,,A*7D
$GNVTG,,T,,M,0.046,N,0.085,K,A*32
$GNGGA,074643.00,0419.84286,S,05539.91617,E,1,12,0.70,14.3,M,-47.6,M,,*49
$GNGSA,A,3,05,12,24,18,15,25,13,29,10,,,,1.31,0.70,1.11*1B
$GNGSA,A,3,80,73,69,70,74,,,,,,,,1.31,0.70,1.11*1E
$GPGSV,4,1,16,05,20,028,34,10,24,218,12,12,60,141,37,13,11,085,37*70
$GPGSV,4,2,16,15,44,108,37,18,26,315,10,23,65,236,,24,23,159,25*72
$GPGSV,4,3,16,25,81,303,28,28,10,272,,29,23,003,20,36,52,277,*7A
$GPGSV,4,4,16,40,86,351,,41,58,082,,42,,,43,49,32,274,*4D
$GLGSV,3,1,10,68,01,041,11,69,37,074,41,70,42,167,15,71,07,199,*64
$GLGSV,3,2,10,73,61,227,23,74,40,303,11,80,22,166,16,84,06,355,08*68
$GLGSV,3,3,10,85,03,308,,,,,29*5A
$GNGLL,0419.84286,S,05539.91617,E,074643.00,A,A*66
$GNTXT,01,01,01,More than 100 frame errors, UART RX was disabled*70
$GNRMC,074644.00,A,0419.84285,S,05539.91615,E,0.020,,200525,,,A*7B
$GNVTG,,T,,M,0.020,N,0.036,K,A*3A
$GNGGA,074644.00,0419.84285,S,05539.91615,E,1,12,0.70,14.3,M,-47.6,M,,*4F
$GNGSA,A,3,05,12,24,18,15,25,13,29,10,,,,1.31,0.70,1.11*1B
$GNGSA,A,3,80,73,69,84,70,74,,,,,,,1.31,0.70,1.11*12
$GPGSV,4,1,16,05,20,028,34,10,24,218,16,12,60,141,37,13,11,085,38*7B
$GPGSV,4,2,16,15,44,108,38,18,26,315,11,23,65,236,,24,23,159,24*7D
$GPGSV,4,3,16,25,81,303,31,28,10,272,,29,23,003,20,36,52,277,*72
$GPGSV,4,4,16,40,86,351,,41,58,082,,42,,,43,49,32,274,*4D
$GLGSV,3,1,10,68,01,041,12,69,37,074,40,70,42,167,13,71,07,199,*60
$GLGSV,3,2,10,73,61,227,23,74,40,303,12,80,22,166,18,84,06,355,08*65
$GLGSV,3,3,10,85,03,308,,,,,29*5A
$GNGLL,0419.84285,S,05539.91615,E,074644.00,A,A*60
$GNTXT,01,01,01,More than 100 frame errors, UART RX was disabled*70
$GNRMC,074645.00,A,0419.84286,S,05539.91615,E,0.045,,200525,,,A*7A
$GNVTG,,T,,M,0.045,N,0.084,K,A*30
$GNGGA,074645.00,0419.84286,S,05539.91615,E,1,12,0.70,14.3,M,-47.6,M,,*4D
$GNGSA,A,3,05,12,24,18,15,25,13,29,10,,,,1.31,0.70,1.11*1B
$GNGSA,A,3,80,73,69,70,74,,,,,,,,1.31,0.70,1.11*1E
$GPGSV,4,1,16,05,20,028,35,10,24,218,13,12,60,141,37,13,11,085,36*71
$GPGSV,4,2,16,15,44,108,36,18,26,315,09,23,65,236,,24,23,159,25*7B
$GPGSV,4,3,16,25,81,303,29,28,10,272,,29,23,003,20,36,52,277,*7B
$GPGSV,4,4,16,40,86,351,,41,58,082,,42,,,42,49,32,274,*4C
$GLGSV,3,1,10,68,01,041,16,69,37,074,40,70,42,167,15,71,07,199,*62
$GLGSV,3,2,10,73,61,227,22,74,40,303,12,80,22,166,19,84,06,355,06*6B
$GLGSV,3,3,10,85,03,308,,,,,30*52
$GNGLL,0419.84286,S,05539.91615,E,074645.00,A,A*62
$GNTXT,01,01,01,More than 100 frame errors, UART RX was disabled*70
$GNRMC,074646.00,A,0419.84288,S,05539.91607,E,0.107,,200525,,,A*73
$GNVTG,,T,,M,0.107,N,0.199,K,A*3A
$GNGGA,074646.00,0419.84288,S,05539.91607,E,1,12,0.70,14.3,M,-47.6,M,,*43
$GNGSA,A,3,05,12,24,18,15,25,13,29,10,,,,1.31,0.70,1.11*1B
$GNGSA,A,3,80,73,69,84,70,74,,,,,,,1.31,0.70,1.11*12
$GPGSV,4,1,16,05,20,028,34,10,24,218,10,12,60,141,36,13,11,085,38*7C
$GPGSV,4,2,16,15,44,108,36,18,26,315,11,23,65,236,,24,23,159,25*72
$GPGSV,4,3,16,25,81,303,29,28,10,272,,29,23,003,19,36,52,277,*71
$GPGSV,4,4,16,40,86,351,,41,58,082,,42,,,44,49,32,274,*4A
$GLGSV,3,1,10,68,01,041,17,69,37,074,40,70,42,167,11,71,07,199,*67
$GLGSV,3,2,10,73,61,227,23,74,40,303,10,80,22,166,19,84,06,355,10*6F
$GLGSV,3,3,10,85,03,308,,,,,28*5B
$GNGLL,0419.84288,S,05539.91607,E,074646.00,A,A*6C
$GNTXT,01,01,01,More than 100 frame errors, UART RX was disabled*70
$GNRMC,074647.00,A,0419.84290,S,05539.91609,E,0.066,,200525,,,A*73
$GNVTG,,T,,M,0.066,N,0.122,K,A*3C
$GNGGA,074647.00,0419.84290,S,05539.91609,E,1,12,0.70,14.4,M,-47.6,M,,*42
$GNGSA,A,3,05,12,24,18,15,25,13,29,10,,,,1.31,0.70,1.11*1B
$GNGSA,A,3,80,73,69,70,74,,,,,,,,1.31,0.70,1.11*1E
$GPGSV,4,1,16,05,20,028,36,10,24,218,15,12,60,141,37,13,11,085,38*7A
$GPGSV,4,2,16,15,44,108,37,18,26,315,09,23,65,236,,24,23,159,26*79
$GPGSV,4,3,16,25,81,303,31,28,10,272,,29,23,004,19,36,52,277,*7F
$GPGSV,4,4,16,40,86,351,,41,58,082,,42,,,43,49,32,274,*4D
$GLGSV,3,1,10,68,01,041,16,69,37,074,40,70,42,167,12,71,07,199,*65
$GLGSV,3,2,10,73,61,227,24,74,40,303,11,80,22,166,19,84,06,355,09*61
$GLGSV,3,3,10,85,03,308,,,,,29*5A
$GNGLL,0419.84290,S,05539.91609,E,074647.00,A,A*6A
$GNTXT,01,01,01,More than 100 frame errors, UART RX was disabled*70
$GNRMC,074648.00,A,0419.84292,S,05539.91612,E,0.070,,200525,,,A*73
$GNVTG,,T,,M,0.070,N,0.130,K,A*38
$GNGGA,074648.00,0419.84292,S,05539.91612,E,1,12,0.70,14.4,M,-47.6,M,,*45
$GNGSA,A,3,05,12,24,18,15,25,13,29,10,,,,1.31,0.70,1.11*1B
$GNGSA,A,3,80,73,69,70,74,,,,,,,,1.31,0.70,1.11*1E
$GPGSV,4,1,16,05,20,028,34,10,24,218,14,12,60,141,36,13,11,085,35*75
$GPGSV,4,2,16,15,44,108,35,18,26,315,10,23,65,236,,24,23,159,25*70
$GPGSV,4,3,16,25,81,303,30,28,10,272,,29,23,004,18,36,52,277,*7F
$GPGSV,4,4,16,40,86,351,,41,58,082,,42,,,42,49,32,274,*4C
$GLGSV,3,1,10,68,01,041,13,69,37,074,40,70,42,167,08,71,07,199,*6B
$GLGSV,3,2,10,73,61,227,23,74,40,303,12,80,22,166,19,84,06,355,10*6D
$GLGSV,3,3,10,85,03,308,,,,,30*52
$GNGLL,0419.84292,S,05539.91612,E,074648.00,A,A*6D
$GNTXT,01,01,01,More than 100 frame errors, UART RX was disabled*70
$GNRMC,074649.00,A,0419.84294,S,05539.91607,E,0.076,,200525,,,A*76
$GNVTG,,T,,M,0.076,N,0.141,K,A*38
$GNGGA,074649.00,0419.84294,S,05539.91607,E,1,12,0.74,14.4,M,-47.6,M,,*42
$GNGSA,A,3,05,12,24,18,15,25,13,29,10,,,,1.33,0.74,1.11*1D
$GNGSA,A,3,80,73,69,70,,,,,,,,,1.33,0.74,1.11*1B
$GPGSV,4,1,16,05,20,028,34,10,24,218,15,12,60,141,36,13,11,085,37*76
$GPGSV,4,2,16,15,44,108,38,18,26,315,11,23,65,236,,24,23,159,26*7F
$GPGSV,4,3,16,25,81,303,31,28,10,272,,29,23,004,17,36,52,277,*71
$GPGSV,4,4,16,40,86,351,,41,58,082,,42,,,43,49,32,274,*4D
$GLGSV,3,1,10,68,01,041,11,69,37,074,40,70,42,167,15,71,07,199,*65
$GLGSV,3,2,10,73,61,227,23,74,40,303,07,80,22,166,19,84,06,355,08*60
$GLGSV,3,3,10,85,03,308,,,,,30*52
$GNGLL,0419.84294,S,05539.91607,E,074649.00,A,A*6E
$GNTXT,01,01,01,More than 100 frame errors, UART RX was disabled*70
$GNRMC,074650.00,A,0419.84293,S,05539.91609,E,0.093,,200525,,,A*7C
$GNVTG,,T,,M,0.093,N,0.173,K,A*32
$GNGGA,074650.00,0419.84293,S,05539.91609,E,1,12,0.86,14.4,M,-47.6,M,,*4E
$GNGSA,A,3,05,12,24,15,25,13,29,10,,,,,1.46,0.86,1.17*1D
$GNGSA,A,3,80,73,69,70,74,,,,,,,,1.46,0.86,1.17*11
$GPGSV,4,1,16,05,20,028,33,10,24,218,14,12,60,141,36,13,11,085,37*70
$GPGSV,4,2,16,15,44,108,37,18,26,315,07,23,65,236,,24,23,159,26*77
$GPGSV,4,3,16,25,81,303,31,28,10,272,,29,23,004,17,36,52,277,*71
$GPGSV,4,4,16,40,86,351,,41,58,082,,42,,,43,49,32,274,*4D
$GLGSV,3,1,10,68,01,041,13,69,37,074,40,70,42,167,14,71,07,199,*66
$GLGSV,3,2,10,73,61,227,23,74,40,303,09,80,22,166,19,84,06,355,09*6F
$GLGSV,3,3,10,85,03,308,,,,,30*52
$GNGLL,0419.84293,S,05539.91609,E,074650.00,A,A*6F
$GNTXT,01,01,01,More than 100 frame errors, UART RX was disabled*70
$GNRMC,074651.00,A,0419.84294,S,05539.91609,E,0.060,,200525,,,A*76
$GNVTG,,T,,M,0.060,N,0.112,K,A*39
$GNGGA,074651.00,0419.84294,S,05539.91609,E,1,12,0.70,14.5,M,-47.6,M,,*40
$GNGSA,A,3,05,12,24,18,15,25,13,29,10,,,,1.31,0.70,1.11*1B
$GNGSA,A,3,80,73,69,70,74,,,,,,,,1.31,0.70,1.11*1E
$GPGSV,4,1,16,05,20,028,34,10,24,218,11,12,60,141,36,13,11,085,37*72
$GPGSV,4,2,16,15,44,108,36,18,26,315,13,23,65,236,,24,23,159,26*73
$GPGSV,4,3,16,25,81,303,31,28,10,272,,29,23,004,16,36,52,277,*70
$GPGSV,4,4,16,40,86,351,,41,58,082,,42,,,43,49,32,274,*4D
$GLGSV,3,1,10,68,01,041,13,69,37,074,40,70,42,167,11,71,07,199,*63
$GLGSV,3,2,10,73,61,227,23,74,40,303,07,80,22,166,20,84,06,355,09*6B
$GLGSV,3,3,10,85,03,308,,,,,31*53
$GNGLL,0419.84294,S,05539.91609,E,074651.00,A,A*69
$GNTXT,01,01,01,More than 100 frame errors, UART RX was disabled*70
$GNRMC,074652.00,A,0419.84294,S,05539.91611,E,0.030,,200525,,,A*79
$GNVTG,,T,,M,0.030,N,0.056,K,A*3D
$GNGGA,074652.00,0419.84294,S,05539.91611,E,1,12,0.70,14.6,M,-47.6,M,,*49
$GNGSA,A,3,05,12,24,18,15,25,13,29,10,,,,1.31,0.70,1.11*1B
$GNGSA,A,3,80,73,69,70,74,,,,,,,,1.31,0.70,1.11*1E
$GPGSV,4,1,16,05,20,028,33,10,24,218,14,12,60,141,34,13,11,085,36*73
$GPGSV,4,2,16,15,44,108,36,18,26,315,09,23,65,236,,24,23,159,25*7B
$GPGSV,4,3,16,25,81,303,31,28,10,272,,29,23,004,15,36,52,277,*73
$GPGSV,4,4,16,40,86,351,,41,58,082,,42,,,41,49,32,274,*4F
$GLGSV,3,1,10,68,01,041,10,69,37,074,40,70,42,167,11,71,07,199,*60
$GLGSV,3,2,10,73,61,227,22,74,40,303,13,80,22,166,20,84,06,355,09*6F
$GLGSV,3,3,10,85,03,308,,,,,30*52
$GNGLL,0419.84294,S,05539.91611,E,074652.00,A,A*63
$GNTXT,01,01,01,More than 100 frame errors, UART RX was disabled*70
$GNRMC,074653.00,A,0419.84294,S,05539.91613,E,0.049,,200525,,,A*74
$GNVTG,,T,,M,0.049,N,0.090,K,A*39
$GNGGA,074653.00,0419.84294,S,05539.91613,E,1,12,0.82,14.6,M,-47.6,M,,*47
$GNGSA,A,3,05,12,24,18,15,25,13,29,10,,,,1.37,0.82,1.10*11
$GNGSA,A,3,80,73,69,84,70,74,,,,,,,1.37,0.82,1.10*18
$GPGSV,4,1,16,05,20,028,33,10,24,218,13,12,60,141,35,13,11,085,37*74
$GPGSV,4,2,16,15,44,108,36,18,26,315,12,23,65,236,,24,23,159,26*72
$GPGSV,4,3,16,25,81,303,30,28,10,272,,29,23,004,15,36,52,277,*72
$GPGSV,4,4,16,40,86,351,,41,58,082,,42,,,42,49,32,274,*4C
$GLGSV,3,1,10,68,01,041,08,69,37,074,41,70,42,167,10,71,07,199,*69
$GLGSV,3,2,10,73,61,227,23,74,40,303,11,80,22,166,19,84,06,355,10*6E
$GLGSV,3,3,10,85,03,308,,,,,30*52
$GNGLL,0419.84294,S,05539.91613,E,074653.00,A,A*60
$GNTXT,01,01,01,More than 100 frame errors, UART RX was disabled*70
$GNRMC,074654.00,A,0419.84295,S,05539.91610,E,0.072,,200525,,,A*79
$GNVTG,,T,,M,0.072,N,0.134,K,A*3E
$GNGGA,074654.00,0419.84295,S,05539.91610,E,1,12,0.70,14.6,M,-47.6,M,,*4F
$GNGSA,A,3,05,12,24,18,15,25,13,29,10,,,,1.31,0.70,1.11*1B
$GNGSA,A,3,80,73,69,84,70,74,,,,,,,1.31,0.70,1.11*12
$GPGSV,4,1,16,05,20,028,33,10,24,218,15,12,60,141,35,13,11,085,37*72
$GPGSV,4,2,16,15,44,108,36,18,26,315,11,23,65,236,,24,23,159,26*71
$GPGSV,4,3,16,25,81,303,30,28,10,272,,29,23,004,16,36,52,277,*71
$GPGSV,4,4,16,40,86,351,,41,58,082,,42,,,42,49,32,274,*4C
$GLGSV,3,1,10,68,01,041,10,69,37,074,40,70,42,167,11,71,07,199,*60
$GLGSV,3,2,10,73,61,227,23,74,40,303,08,80,22,166,18,84,06,355,10*67
$GLGSV,3,3,10,85,03,308,,,,,30*52
$GNGLL,0419.84295,S,05539.91610,E,074654.00,A,A*65
$GNTXT,01,01,01,More than 100 frame errors, UART RX was disabled*70
$GNRMC,074655.00,A,0419.84296,S,05539.91606,E,0.094,,200525,,,A*74
$GNVTG,,T,,M,0.094,N,0.174,K,A*32
$GNGGA,074655.00,0419.84296,S,05539.91606,E,1,12,0.70,14.6,M,-47.6,M,,*4A
$GNGSA,A,3,05,12,24,18,15,25,13,29,10,,,,1.31,0.70,1.11*1B
$GNGSA,A,3,80,73,69,84,70,74,,,,,,,1.31,0.70,1.11*12
$GPGSV,4,1,16,05,20,028,34,10,24,218,17,12,60,141,36,13,11,085,37*74
$GPGSV,4,2,16,15,44,108,37,18,26,315,10,23,65,236,,24,23,159,26*71
$GPGSV,4,3,16,25,81,303,32,28,10,272,,29,23,004,14,36,52,277,*71
$GPGSV,4,4,16,40,86,351,,41,58,082,,42,,,42,49,32,274,*4C
$GLGSV,3,1,10,68,01,041,09,69,37,074,40,70,42,167,10,71,07,199,*69
$GLGSV,3,2,10,73,61,227,24,74,40,303,10,80,22,166,20,84,06,355,10*62
$GLGSV,3,3,10,85,03,308,,,,,30*52
$GNGLL,0419.84296,S,05539.91606,E,074655.00,A,A*60
$GNTXT,01,01,01,More than 100 frame errors, UART RX was disabled*70
$GNRMC,074656.00,A,0419.84299,S,05539.91603,E,0.131,,200525,,,A*73
$GNVTG,,T,,M,0.131,N,0.242,K,A*3A
$GNGGA,074656.00,0419.84299,S,05539.91603,E,1,12,0.70,14.7,M,-47.6,M,,*42
$GNGSA,A,3,05,12,24,18,15,25,13,29,10,,,,1.31,0.70,1.11*1B
$GNGSA,A,3,80,73,69,70,74,,,,,,,,1.31,0.70,1.11*1E
$GPGSV,4,1,16,05,20,028,29,10,24,218,12,12,60,141,29,13,11,085,31*75
$GPGSV,4,2,16,15,44,108,31,18,26,315,10,23,65,236,,24,23,159,25*74
$GPGSV,4,3,16,25,81,303,25,28,10,272,,29,23,004,15,36,52,277,*76
$GPGSV,4,4,16,40,86,351,,41,58,082,,42,,,34,49,32,274,*4D
$GLGSV,3,1,10,68,01,041,12,69,37,074,36,70,42,167,12,71,07,199,*60
$GLGSV,3,2,10,73,61,227,24,74,40,303,12,80,22,166,19,84,06,355,10*6A
$GLGSV,3,3,10,85,03,308,,,,,30*52
$GNGLL,0419.84299,S,05539.91603,E,074656.00,A,A*69
$GNTXT,01,01,01,More than 100 frame errors, UART RX was disabled*70
$GNRMC,074657.00,A,0419.84299,S,05539.91595,E,0.087,,200525,,,A*72
$GNVTG,,T,,M,0.087,N,0.162,K,A*37
$GNGGA,074657.00,0419.84299,S,05539.91595,E,1,12,0.70,14.7,M,-47.6,M,,*4F
$GNGSA,A,3,05,12,24,18,15,25,13,29,10,,,,1.31,0.70,1.11*1B
$GNGSA,A,3,80,73,69,70,74,,,,,,,,1.31,0.70,1.11*1E
$GPGSV,4,1,16,05,20,028,36,10,24,218,16,12,60,141,37,13,11,085,39*78
$GPGSV,4,2,16,15,44,108,39,18,26,315,15,23,65,236,,24,23,159,24*78
$GPGSV,4,3,16,25,81,303,34,28,10,272,,29,23,004,14,36,52,277,*77
$GPGSV,4,4,16,40,86,351,,41,58,082,,42,,,44,49,32,274,*4A
$GLGSV,3,1,10,68,01,041,10,69,37,074,39,70,42,167,08,71,07,199,*66
$GLGSV,3,2,10,73,61,227,23,74,40,303,11,80,22,166,18,84,06,355,10*6F
$GLGSV,3,3,10,85,03,308,,,,,30*52
$GNGLL,0419.84299,S,05539.91595,E,074657.00,A,A*64
$GNTXT,01,01,01,More than 100 frame errors, UART RX was disabled*70
$GNRMC,074658.00,A,0419.84299,S,05539.91592,E,0.075,,200525,,,A*77
$GNVTG,,T,,M,0.075,N,0.140,K,A*3A
$GNGGA,074658.00,0419.84299,S,05539.91592,E,1,12,0.73,14.8,M,-47.6,M,,*4B
$GNGSA,A,3,05,12,24,18,15,25,13,10,,,,,1.34,0.73,1.13*14
$GNGSA,A,3,80,73,69,70,74,,,,,,,,1.34,0.73,1.13*1A
$GPGSV,4,1,16,05,20,028,32,10,24,218,09,12,60,141,37,13,11,085,37*7C
$GPGSV,4,2,16,15,44,108,36,18,26,315,16,23,65,236,,24,23,159,26*76
$GPGSV,4,3,16,25,81,303,29,28,10,272,,29,23,004,,36,52,277,*7E
$GPGSV,4,4,16,40,86,351,,41,58,082,,42,,,43,49,32,274,*4D
$GLGSV,3,1,10,68,01,041,10,69,37,074,39,70,42,167,11,71,07,199,*6E
$GLGSV,3,2,10,73,61,227,21,74,40,303,14,80,22,166,20,84,06,355,08*6A
$GLGSV,3,3,10,85,03,308,,,,,29*5A
$GNGLL,0419.84299,S,05539.91592,E,074658.00,A,A*6C
$GNTXT,01,01,01,More than 100 frame errors, UART RX was disabled*70
$GNRMC,074659.00,A,0419.84298,S,05539.91592,E,0.057,,200525,,,A*77
$GNVTG,,T,,M,0.057,N,0.105,K,A*3B
$GNGGA,074659.00,0419.84298,S,05539.91592,E,1,12,0.85,14.8,M,-47.6,M,,*42
$GNGSA,A,3,05,12,24,18,15,25,13,10,,,,,1.49,0.85,1.22*15
$GNGSA,A,3,80,73,69,70,74,,,,,,,,1.49,0.85,1.22*1B
$GPGSV,4,1,16,05,20,028,33,10,24,218,12,12,60,141,36,13,11,085,37*76
$GPGSV,4,2,16,15,44,108,37,18,26,315,11,23,65,236,,24,23,159,26*70
$GPGSV,4,3,16,25,81,303,30,28,10,272,,29,23,004,17,36,52,277,*70
$GPGSV,4,4,16,40,86,351,,41,58,082,,42,,,43,49,32,274,*4D
$GLGSV,3,1,10,68,01,041,08,69,37,074,39,70,42,167,11,71,07,199,*67
$GLGSV,3,2,10,73,61,227,20,74,40,303,12,80,22,166,19,84,06,355,09*66
$GLGSV,3,3,10,85,03,308,,,,,29*5A
$GNGLL,0419.84298,S,05539.91592,E,074659.00,A,A*6C
$GNTXT,01,01,01,More than 100 frame errors, UART RX was disabled*70
$GNRMC,074700.00,A,0419.84296,S,05539.91585,E,0.059,,200525,,,A*7C
$GNVTG,,T,,M,0.059,N,0.110,K,A*31
$GNGGA,074700.00,0419.84296,S,05539.91585,E,1,12,0.73,14.8,M,-47.6,M,,*4E
$GNGSA,A,3,05,12,24,18,15,25,13,10,,,,,1.34,0.73,1.13*14
$GNGSA,A,3,80,73,69,70,74,,,,,,,,1.34,0.73,1.13*1A
$GPGSV,4,1,16,05,20,028,33,10,24,218,11,12,60,141,36,13,11,085,37*75
$GPGSV,4,2,16,15,44,108,37,18,26,315,14,23,65,236,,24,23,159,26*75
$GPGSV,4,3,16,25,81,303,31,28,10,272,,29,23,004,16,36,52,277,*70
$GPGSV,4,4,16,40,86,351,,41,58,082,,42,,,43,49,32,274,*4D
$GLGSV,3,1,10,68,01,041,07,69,37,074,39,70,42,167,10,71,07,199,*69
$GLGSV,3,2,10,73,61,227,21,74,40,303,09,80,22,166,18,84,06,355,09*6C
$GLGSV,3,3,10,85,03,308,,,,,29*5A
$GNGLL,0419.84296,S,05539.91585,E,074700.00,A,A*69
$GNTXT,01,01,01,More than 100 frame errors, UART RX was disabled*70
$GNRMC,074701.00,A,0419.84292,S,05539.91583,E,0.065,,200525,,,A*70
$GNVTG,,T,,M,0.065,N,0.121,K,A*3C
$GNGGA,074701.00,0419.84292,S,05539.91583,E,1,12,0.73,14.7,M,-47.6,M,,*42
$GNGSA,A,3,05,12,24,18,15,25,13,10,,,,,1.34,0.73,1.13*14
$GNGSA,A,3,80,73,69,70,74,,,,,,,,1.34,0.73,1.13*1A
$GPGSV,4,1,16,05,20,028,33,10,24,218,14,12,60,141,36,13,11,085,37*70
$GPGSV,4,2,16,15,44,108,37,18,26,315,17,23,65,236,,24,23,159,26*76
$GPGSV,4,3,16,25,81,303,31,28,10,272,,29,23,004,15,36,52,277,*73
$GPGSV,4,4,16,40,86,351,,41,58,082,,42,,,42,49,32,274,*4C
$GLGSV,3,1,10,68,01,041,12,69,37,074,40,70,42,167,10,71,07,199,*63
$GLGSV,3,2,10,73,61,227,20,74,40,303,12,80,22,166,18,84,06,355,07*69
$GLGSV,3,3,10,85,03,308,,,,,30*52
$GNGLL,0419.84292,S,05539.91583,E,074701.00,A,A*6A
$GNTXT,01,01,01,More than 100 frame errors, UART RX was disabled*70
$GNRMC,074702.00,A,0419.84291,S,05539.91582,E,0.037,,200525,,,A*76
$GNVTG,,T,,M,0.037,N,0.068,K,A*37
$GNGGA,074702.00,0419.84291,S,05539.91582,E,1,12,0.91,14.7,M,-47.6,M,,*4F
$GNGSA,A,3,05,12,24,18,15,25,13,10,,,,,1.53,0.91,1.22*1B
$GNGSA,A,3,80,73,69,70,74,,,,,,,,1.53,0.91,1.22*15
$GPGSV,4,1,16,05,20,028,32,10,24,218,16,12,60,141,36,13,11,085,37*73
$GPGSV,4,2,16,15,44,108,37,18,26,315,12,23,65,236,,24,23,159,25*70
$GPGSV,4,3,16,25,81,303,30,28,10,272,,29,23,004,17,36,52,277,*70
$GPGSV,4,4,16,40,86,351,,41,58,082,,42,,,42,49,32,274,*4C
$GLGSV,3,1,10,68,01,041,08,69,37,074,39,70,42,167,10,71,07,199,*66
$GLGSV,3,2,10,73,61,227,20,74,40,303,11,80,22,166,17,84,06,355,10*63
$GLGSV,3,3,10,85,03,308,,,,,30*52
$GNGLL,0419.84291,S,05539.91582,E,074702.00,A,A*6B
$GNTXT,01,01,01,More than 100 frame errors, UART RX was disabled*70
$GNRMC,074703.00,A,0419.84293,S,05539.91575,E,0.164,,200525,,,A*7A
$GNVTG,,T,,M,0.164,N,0.303,K,A*3E
$GNGGA,074703.00,0419.84293,S,05539.91575,E,1,12,0.70,14.6,M,-47.6,M,,*4A
$GNGSA,A,3,05,12,24,18,15,25,13,29,10,,,,1.31,0.70,1.11*1B
$GNGSA,A,3,80,73,69,70,74,,,,,,,,1.31,0.70,1.11*1E
$GPGSV,4,1,16,05,20,028,32,10,24,218,08,12,60,141,36,13,11,085,37*7C
$GPGSV,4,2,16,15,44,108,37,18,26,315,12,23,65,236,,24,23,159,25*70
$GPGSV,4,3,16,25,81,303,31,28,10,272,,29,23,004,16,36,52,277,*70
$GPGSV,4,4,16,40,86,351,,41,58,082,,42,,,43,49,32,274,*4D
$GLGSV,3,1,10,68,01,041,08,69,37,074,39,70,42,167,09,71,07,199,*6E
$GLGSV,3,2,10,73,61,227,20,74,40,303,12,80,22,166,18,84,06,355,10*6F
$GLGSV,3,3,10,85,03,308,,,,,31*53
$GNGLL,0419.84293,S,05539.91575,E,074703.00,A,A*60
$GNTXT,01,01,01,More than 100 frame errors, UART RX was disabled*70
$GNRMC,074704.00,A,0419.84293,S,05539.91575,E,0.072,,200525,,,A*7B
$GNVTG,,T,,M,0.072,N,0.133,K,A*39
$GNGGA,074704.00,0419.84293,S,05539.91575,E,1,12,0.70,14.6,M,-47.6,M,,*4D
$GNGSA,A,3,05,12,24,18,15,25,13,29,10,,,,1.31,0.70,1.11*1B
$GNGSA,A,3,80,73,69,70,74,,,,,,,,1.31,0.70,1.11*1E
$GPGSV,4,1,16,05,20,028,31,10,24,218,12,12,60,141,35,13,11,085,37*77
$GPGSV,4,2,16,15,44,108,37,18,26,315,09,23,65,236,,24,23,159,25*7A
$GPGSV,4,3,16,25,81,303,31,28,10,272,,29,23,004,16,36,52,277,*70
$GPGSV,4,4,16,40,86,351,,41,58,082,,42,,,42,49,32,274,*4C
$GLGSV,3,1,10,68,01,041,11,69,37,074,40,70,42,167,12,71,07,199,*62
$GLGSV,3,2,10,73,61,227,19,74,40,303,14,80,22,166,21,84,06,355,11*68
$GLGSV,3,3,10,85,03,308,,,,,31*53
$GNGLL,0419.84293,S,05539.91575,E,074704.00,A,A*67
$GNTXT,01,01,01,More than 100 frame errors, UART RX was disabled*70
$GNRMC,074705.00,A,0419.84292,S,05539.91577,E,0.082,,200525,,,A*76
$GNVTG,,T,,M,0.082,N,0.152,K,A*31
$GNGGA,074705.00,0419.84292,S,05539.91577,E,1,12,0.78,14.7,M,-47.6,M,,*46
$GNGSA,A,3,05,12,24,18,15,25,13,29,10,,,,1.37,0.78,1.13*17
$GNGSA,A,3,80,73,69,84,70,74,,,,,,,1.37,0.78,1.13*1E
$GPGSV,4,1,16,05,20,028,32,10,24,218,09,12,60,141,38,13,11,085,38*7C
$GPGSV,4,2,16,15,44,108,38,18,26,315,20,23,65,236,,24,23,159,25*7E
$GPGSV,4,3,16,25,81,303,32,28,10,272,,29,23,004,16,36,52,277,*73
$GPGSV,4,4,16,40,86,351,,41,58,082,,42,,,43,49,32,274,*4D
$GLGSV,3,1,10,68,01,041,12,69,37,074,39,70,42,167,12,71,07,199,*6F
$GLGSV,3,2,10,73,61,227,19,74,40,303,14,80,22,166,21,84,06,355,10*69
$GLGSV,3,3,10,85,03,308,,,,,30*52
$GNGLL,0419.84292,S,05539.91577,E,074705.00,A,A*65
$GNTXT,01,01,01,More than 100 frame errors, UART RX was disabled*70
$GNRMC,074706.00,A,0419.84290,S,05539.91573,E,0.121,,200525,,,A*7B
$GNVTG,,T,,M,0.121,N,0.224,K,A*3B
$GNGGA,074706.00,0419.84290,S,05539.91573,E,1,12,0.70,14.6,M,-47.6,M,,*4A
$GNGSA,A,3,05,12,24,18,15,25,13,29,10,,,,1.31,0.70,1.11*1B
$GNGSA,A,3,80,73,69,84,70,74,,,,,,,1.31,0.70,1.11*12
$GPGSV,4,1,16,05,20,028,32,10,24,218,11,12,60,141,38,13,11,085,38*75
$GPGSV,4,2,16,15,44,108,39,18,26,315,18,23,65,236,,24,23,159,26*77
$GPGSV,4,3,16,25,81,303,32,28,10,272,,29,23,004,18,36,52,277,*7D
$GPGSV,4,4,16,40,86,351,,41,58,082,,42,,,44,49,32,274,*4A
$GLGSV,3,1,10,68,01,041,09,69,37,074,39,70,42,167,09,71,07,199,*6F
$GLGSV,3,2,10,73,61,227,19,74,40,303,14,80,22,166,20,84,06,355,10*68
$GLGSV,3,3,10,85,03,308,,,,,31*53
$GNGLL,0419.84290,S,05539.91573,E,074706.00,A,A*60
$GNTXT,01,01,01,More than 100 frame errors, UART RX was disabled*70
$GNRMC,074707.00,A,0419.84287,S,05539.91562,E,0.167,,200525,,,A*7E
$GNVTG,,T,,M,0.167,N,0.309,K,A*37
$GNGGA,074707.00,0419.84287,S,05539.91562,E,1,12,0.73,14.4,M,-47.6,M,,*4C
$GNGSA,A,3,05,12,24,18,15,25,13,29,10,,,,1.34,0.73,1.13*1F
$GNGSA,A,3,80,73,69,84,70,74,,,,,,,1.34,0.73,1.13*16
$GPGSV,4,1,16,05,20,028,32,10,24,218,12,12,60,141,37,13,11,085,38*79
$GPGSV,4,2,16,15,44,108,38,18,26,315,19,23,65,236,,24,23,159,26*77
$GPGSV,4,3,16,25,81,303,32,28,10,272,,29,23,004,17,36,52,277,*72
$GPGSV,4,4,16,40,86,351,,41,58,082,,42,,,43,49,32,274,*4D
$GLGSV,3,1,10,68,01,041,12,69,37,074,39,70,42,167,09,71,07,199,*65
$GLGSV,3,2,10,73,61,227,20,74,40,303,13,80,22,166,20,84,06,355,07*63
$GLGSV,3,3,10,85,03,308,,,,,31*53
$GNGLL,0419.84287,S,05539.91562,E,074707.00,A,A*67
$GNTXT,01,01,01,More than 100 frame errors, UART RX was disabled*70
$GNRMC,074708.00,A,0419.84286,S,05539.91559,E,0.126,,200525,,,A*7D
$GNVTG,,T,,M,0.126,N,0.234,K,A*3D
$GNGGA,074708.00,0419.84286,S,05539.91559,E,1,12,0.86,14.4,M,-47.6,M,,*40
$GNGSA,A,3,05,12,24,18,15,25,13,29,10,,,,1.47,0.86,1.20*11
$GNGSA,A,3,80,73,69,84,70,74,,,,,,,1.47,0.86,1.20*18
$GPGSV,4,1,16,05,20,028,32,10,24,218,08,12,60,141,37,13,11,085,38*72
$GPGSV,4,2,16,15,44,108,38,18,26,315,18,23,65,236,,24,23,159,27*77
$GPGSV,4,3,16,25,81,303,32,28,10,272,,29,23,004,18,36,52,277,*7D
$GPGSV,4,4,16,40,86,351,,41,58,082,,42,,,42,49,32,274,*4C
$GLGSV,3,1,10,68,01,041,09,69,37,074,39,70,42,167,08,71,07,199,*6E
$GLGSV,3,2,10,73,61,227,19,74,40,303,08,80,22,166,21,84,06,355,11*65
$GLGSV,3,3,10,85,03,308,,,,,32*50
$GNGLL,0419.84286,S,05539.91559,E,074708.00,A,A*61
$GNTXT,01,01,01,More than 100 frame errors, UART RX was disabled*70
$GNRMC,074709.00,A,0419.84285,S,05539.91562,E,0.078,,200525,,,A*7D
$GNVTG,,T,,M,0.078,N,0.144,K,A*33
$GNGGA,074709.00,0419.84285,S,05539.91562,E,1,12,0.70,14.5,M,-47.6,M,,*42
$GNGSA,A,3,05,12,24,18,15,25,13,29,10,,,,1.31,0.70,1.11*1B
$GNGSA,A,3,80,73,69,84,70,74,,,,,,,1.31,0.70,1.11*12
$GPGSV,4,1,16,05,20,028,30,10,24,218,16,12,60,141,36,13,11,085,38*7E
$GPGSV,4,2,16,15,44,108,37,18,26,315,15,23,65,236,,24,23,159,26*74
