$GNTXT,01,01,01,More than 100 frame errors, UART RX was disabled*70
$GNRMC,074150.00,A,0419.84114,S,05539.92316,E,0.046,,200525,,,D*72
$GNVTG,,T,,M,0.046,N,0.085,K,D*37
$GNGGA,074150.00,0419.84114,S,05539.92316,E,2,12,0.69,9.7,M,-47.6,M,,0000*70
$GNGSA,A,3,05,12,24,18,15,25,23,13,29,10,,,1.27,0.69,1.07*12
$GNGSA,A,3,80,73,69,84,70,74,,,,,,,1.27,0.69,1.07*1A
$GPGSV,4,1,15,05,22,028,32,10,22,217,23,12,62,138,35,13,11,087,32*75
$GPGSV,4,2,15,15,44,111,36,18,27,313,33,23,64,232,31,24,24,161,34*75
$GPGSV,4,3,15,25,79,314,32,28,09,274,,29,22,002,32,36,52,277,32*7F
$GPGSV,4,4,15,40,86,351,34,41,58,082,30,49,32,274,*4B
$GLGSV,3,1,10,68,02,043,13,69,37,078,28,70,40,169,27,71,05,201,*69
$GLGSV,3,2,10,73,63,232,33,74,38,307,24,80,24,167,37,84,07,352,13*6A
$GLGSV,3,3,10,85,04,306,,,,,38*53
$GNGLL,0419.84114,S,05539.92316,E,074150.00,A,D*69
$GNTXT,01,01,01,More than 100 frame errors, UART RX was disabled*70
$GNRMC,074151.00,A,0419.84116,S,05539.92315,E,0.029,,200525,,,D*7B
$GNVTG,,T,,M,0.029,N,0.054,K,D*32
$GNGGA,074151.00,0419.84116,S,05539.92315,E,2,12,0.76,9.7,M,-47.6,M,,0000*7E
$GNGSA,A,3,05,12,24,18,15,25,23,13,29,,,,1.32,0.76,1.08*16
$GNGSA,A,3,80,73,69,84,70,74,,,,,,,1.32,0.76,1.08*1F
$GPGSV,4,1,15,05,22,028,28,10,22,217,14,12,62,138,35,13,11,087,30*78
$GPGSV,4,2,15,15,44,111,37,18,27,313,31,23,64,232,29,24,24,161,32*79
$GPGSV,4,3,15,25,79,314,34,28,09,274,,29,22,002,27,36,52,277,28*76
$GPGSV,4,4,15,40,86,351,37,41,58,082,,49,32,274,*4B
$GLGSV,3,1,10,68,02,043,09,69,37,078,30,70,40,169,25,71,05,201,*69
$GLGSV,3,2,10,73,63,232,30,74,38,307,20,80,24,167,39,84,07,352,13*63
$GLGSV,3,3,10,85,04,306,,,,,41*5D
$GNGLL,0419.84116,S,05539.92315,E,074151.00,A,D*69
$GNTXT,01,01,01,More than 100 frame errors, UART RX was disabled*70
$GNRMC,074152.00,A,0419.84118,S,05539.92308,E,0.055,,200525,,,D*71
$GNVTG,,T,,M,0.055,N,0.101,K,D*38
$GNGGA,074152.00,0419.84118,S,05539.92308,E,2,12,0.79,9.8,M,-47.6,M,,0000*7F
$GNGSA,A,3,05,12,24,18,15,25,23,13,29,,,,1.41,0.79,1.18*1C
$GNGSA,A,3,80,73,69,84,70,74,,,,,,,1.41,0.79,1.18*15
$GPGSV,4,1,15,05,22,028,29,10,22,217,,12,62,138,36,13,11,087,34*7B
$GPGSV,4,2,15,15,44,111,41,18,27,313,36,23,64,232,34,24,24,161,36*77
$GPGSV,4,3,15,25,79,314,40,28,09,274,,29,22,002,33,36,52,277,27*7F
$GPGSV,4,4,15,40,86,351,41,41,58,082,,49,32,274,*4A
$GLGSV,3,1,10,68,02,043,09,69,37,078,37,70,40,169,26,71,05,201,*6D
$GLGSV,3,2,10,73,63,232,32,74,38,307,20,80,24,167,41,84,07,352,15*68
$GLGSV,3,3,10,85,04,306,,,,,42*5E
$GNGLL,0419.84118,S,05539.92308,E,074152.00,A,D*68
$GNTXT,01,01,01,More than 100 frame errors, UART RX was disabled*70
$GNRMC,074153.00,A,0419.84118,S,05539.92308,E,0.076,,200525,,,D*71
$GNVTG,,T,,M,0.076,N,0.141,K,D*3D
$GNGGA,074153.00,0419.84118,S,05539.92308,E,2,12,0.79,9.8,M,-47.6,M,,0000*7E
$GNGSA,A,3,05,12,24,18,15,25,23,13,29,,,,1.41,0.79,1.18*1C
$GNGSA,A,3,80,73,69,84,70,74,,,,,,,1.41,0.79,1.18*15
$GPGSV,4,1,15,05,22,028,28,10,22,217,,12,62,138,37,13,11,087,36*79
$GPGSV,4,2,15,15,44,111,43,18,27,313,34,23,64,232,35,24,24,161,37*77
$GPGSV,4,3,15,25,79,314,41,28,09,274,,29,22,002,35,36,52,277,*7D
$GPGSV,4,4,15,40,86,351,41,41,58,082,,49,32,274,*4A
$GLGSV,3,1,10,68,02,043,12,69,37,078,40,70,40,169,27,71,05,201,*66
$GLGSV,3,2,10,73,63,232,31,74,38,307,18,80,24,167,40,84,07,352,13*67
$GLGSV,3,3,10,85,04,306,,,,,42*5E
$GNGLL,0419.84118,S,05539.92308,E,074153.00,A,D*69
$GNTXT,01,01,01,More than 100 frame errors, UART RX was disabled*70
$GNRMC,074154.00,A,0419.84121,S,05539.92308,E,0.025,,200525,,,D*7A
$GNVTG,,T,,M,0.025,N,0.047,K,D*3C
$GNGGA,074154.00,0419.84121,S,05539.92308,E,2,12,0.76,10.0,M,-47.6,M,,0000*4C
$GNGSA,A,3,05,12,24,18,15,25,23,13,29,,,,1.32,0.76,1.08*16
$GNGSA,A,3,80,73,69,84,70,74,,,,,,,1.32,0.76,1.08*1F
$GPGSV,4,1,15,05,22,028,27,10,22,217,,12,62,138,37,13,11,087,36*76
$GPGSV,4,2,15,15,44,111,43,18,27,313,34,23,64,232,34,24,24,161,37*76
$GPGSV,4,3,15,25,79,314,41,28,09,274,,29,22,002,35,36,52,277,*7D
$GPGSV,4,4,15,40,86,351,42,41,58,082,,49,32,274,*49
$GLGSV,3,1,10,68,02,043,16,69,37,078,40,70,40,169,28,71,05,201,*6D
$GLGSV,3,2,10,73,63,232,30,74,38,307,17,80,24,167,41,84,07,352,12*69
$GLGSV,3,3,10,85,04,306,,,,,41*5D
$GNGLL,0419.84121,S,05539.92308,E,074154.00,A,D*64
$GNTXT,01,01,01,More than 100 frame errors, UART RX was disabled*70
$GNRMC,074155.00,A,0419.84125,S,05539.92308,E,0.030,,200525,,,D*7B
$GNVTG,,T,,M,0.030,N,0.056,K,D*38
$GNGGA,074155.00,0419.84125,S,05539.92308,E,2,12,0.79,10.1,M,-47.6,M,,0000*47
$GNGSA,A,3,05,12,24,18,15,25,23,13,29,,,,1.41,0.79,1.18*1C
$GNGSA,A,3,80,73,69,84,70,74,,,,,,,1.41,0.79,1.18*15
$GPGSV,4,1,15,05,22,028,28,10,22,217,,12,62,138,37,13,11,087,36*79
$GPGSV,4,2,15,15,44,111,43,18,27,313,35,23,64,232,34,24,24,161,37*77
$GPGSV,4,3,15,25,79,314,41,28,09,274,,29,22,002,36,36,52,277,*7E
$GPGSV,4,4,15,40,86,351,43,41,58,082,,49,32,274,*48
$GLGSV,3,1,10,68,02,043,13,69,37,078,39,70,40,169,29,71,05,201,*67
$GLGSV,3,2,10,73,63,232,30,74,38,307,15,80,24,167,41,84,07,352,14*6D
$GLGSV,3,3,10,85,04,306,,,,,41*5D
$GNGLL,0419.84125,S,05539.92308,E,074155.00,A,D*61
$GNTXT,01,01,01,More than 100 frame errors, UART RX was disabled*70
$GNRMC,074156.00,A,0419.84125,S,05539.92308,E,0.046,,200525,,,D*79
$GNVTG,,T,,M,0.046,N,0.086,K,D*34
$GNGGA,074156.00,0419.84125,S,05539.92308,E,2,12,0.79,10.2,M,-47.6,M,,0000*47
$GNGSA,A,3,05,12,24,18,15,25,23,13,29,,,,1.41,0.79,1.18*1C
$GNGSA,A,3,80,73,69,84,70,74,,,,,,,1.41,0.79,1.18*15
$GPGSV,4,1,15,05,22,028,28,10,22,217,,12,62,138,36,13,11,087,36*78
$GPGSV,4,2,15,15,44,111,43,18,27,313,36,23,64,232,34,24,24,161,37*74
$GPGSV,4,3,15,25,79,314,41,28,09,274,,29,22,002,35,36,52,277,*7D
$GPGSV,4,4,15,40,86,351,43,41,58,082,,49,32,274,*48
$GLGSV,3,1,10,68,02,043,11,69,37,078,39,70,40,169,29,71,05,201,*65
$GLGSV,3,2,10,73,63,232,29,74,38,307,14,80,24,167,41,84,07,352,11*61
$GLGSV,3,3,10,85,04,306,,,,,41*5D
$GNGLL,0419.84125,S,05539.92308,E,074156.00,A,D*62
$GNTXT,01,01,01,More than 100 frame errors, UART RX was disabled*70
$GNRMC,074157.00,A,0419.84124,S,05539.92309,E,0.050,,200525,,,D*7F
$GNVTG,,T,,M,0.050,N,0.092,K,D*36
$GNGGA,074157.00,0419.84124,S,05539.92309,E,2,12,0.76,10.3,M,-47.6,M,,0000*48
$GNGSA,A,3,05,12,24,18,15,25,23,13,29,,,,1.32,0.76,1.08*16
$GNGSA,A,3,80,73,69,84,70,74,,,,,,,1.32,0.76,1.08*1F
$GPGSV,4,1,15,05,22,028,30,10,22,217,,12,62,138,38,13,11,087,36*7F
$GPGSV,4,2,15,15,44,111,42,18,27,313,36,23,64,232,37,24,24,161,38*79
$GPGSV,4,3,15,25,79,314,41,28,09,274,,29,22,002,35,36,52,277,*7D
$GPGSV,4,4,15,40,86,351,42,41,58,082,,49,32,274,*49
$GLGSV,3,1,10,68,02,043,16,69,37,078,39,70,40,169,29,71,05,201,*62
$GLGSV,3,2,10,73,63,232,34,74,38,307,13,80,24,167,41,84,07,352,11*6A
$GLGSV,3,3,10,85,04,306,,,,,41*5D
$GNGLL,0419.84124,S,05539.92309,E,074157.00,A,D*63
$GNTXT,01,01,01,More than 100 frame errors, UART RX was disabled*70
$GNRMC,074158.00,A,0419.84123,S,05539.92312,E,0.011,,200525,,,D*78
$GNVTG,,T,,M,0.011,N,0.021,K,D*3B
$GNGGA,074158.00,0419.84123,S,05539.92312,E,2,12,0.79,10.3,M,-47.6,M,,0000*45
$GNGSA,A,3,05,12,24,18,15,25,23,13,29,,,,1.41,0.79,1.18*1C
$GNGSA,A,3,80,73,69,84,70,74,,,,,,,1.41,0.79,1.18*15
$GPGSV,4,1,15,05,22,028,31,10,22,217,24,12,62,138,37,13,11,087,33*72
$GPGSV,4,2,15,15,44,111,42,18,27,313,36,23,64,232,36,24,24,161,38*78
$GPGSV,4,3,15,25,79,314,41,28,09,274,,29,22,002,35,36,52,277,*7D
$GPGSV,4,4,15,40,86,351,42,41,58,082,,49,32,274,*49
$GLGSV,3,1,10,68,02,043,18,69,37,078,38,70,40,169,29,71,05,201,*6D
$GLGSV,3,2,10,73,63,232,33,74,38,307,15,80,24,167,41,84,07,352,15*6F
$GLGSV,3,3,10,85,04,306,,,,,41*5D
$GNGLL,0419.84123,S,05539.92312,E,074158.00,A,D*61
$GNTXT,01,01,01,More than 100 frame errors, UART RX was disabled*70
$GNRMC,074159.00,A,0419.84123,S,05539.92315,E,0.027,,200525,,,D*7B
$GNVTG,,T,,M,0.027,N,0.051,K,D*39
$GNGGA,074159.00,0419.84123,S,05539.92315,E,2,12,0.79,10.4,M,-47.6,M,,0000*44
$GNGSA,A,3,05,12,24,18,15,25,23,13,29,,,,1.41,0.79,1.18*1C
$GNGSA,A,3,80,73,69,84,70,74,,,,,,,1.41,0.79,1.18*15
$GPGSV,4,1,15,05,22,028,30,10,22,217,23,12,62,138,37,13,11,087,33*74
$GPGSV,4,2,15,15,44,111,42,18,27,313,37,23,64,232,35,24,24,161,39*7B
$GPGSV,4,3,15,25,79,314,41,28,09,274,,29,22,002,35,36,52,277,*7D
$GPGSV,4,4,15,40,86,351,42,41,58,082,,49,32,274,*49
$GLGSV,3,1,10,68,02,043,18,69,37,078,39,70,40,169,29,71,05,201,*6C
$GLGSV,3,2,10,73,63,232,33,74,38,307,16,80,24,167,41,84,07,352,16*6F
$GLGSV,3,3,10,85,04,306,,,,,42*5E
$GNGLL,0419.84123,S,05539.92315,E,074159.00,A,D*67
$GNTXT,01,01,01,More than 100 frame errors, UART RX was disabled*70
$GNRMC,074200.00,A,0419.84122,S,05539.92319,E,0.020,,200525,,,D*7E
$GNVTG,,T,,M,0.020,N,0.038,K,D*31
$GNGGA,074200.00,0419.84122,S,05539.92319,E,2,12,0.69,10.4,M,-47.6,M,,0000*47
$GNGSA,A,3,05,12,24,18,15,25,23,13,29,10,,,1.27,0.69,1.07*12
$GNGSA,A,3,80,73,69,70,74,,,,,,,,1.27,0.69,1.07*16
$GPGSV,4,1,15,05,22,028,30,10,22,217,22,12,62,138,37,13,11,087,33*75
$GPGSV,4,2,15,15,44,111,43,18,27,313,37,23,64,232,36,24,24,161,38*78
$GPGSV,4,3,15,25,79,314,41,28,09,274,,29,22,002,35,36,52,277,*7D
$GPGSV,4,4,15,40,86,351,42,41,58,082,,49,32,274,*49
$GLGSV,3,1,10,68,02,043,19,69,37,078,39,70,40,169,29,71,05,201,*6D
$GLGSV,3,2,10,73,63,232,33,74,38,307,18,80,24,167,42,84,07,352,05*60
$GLGSV,3,3,10,85,04,306,,,,,42*5E
$GNGLL,0419.84122,S,05539.92319,E,074200.00,A,D*65
$GNTXT,01,01,01,More than 100 frame errors, UART RX was disabled*70
$GNRMC,074201.00,A,0419.84121,S,05539.92321,E,0.034,,200525,,,D*72
$GNVTG,,T,,M,0.034,N,0.063,K,D*3A
$GNGGA,074201.00,0419.84121,S,05539.92321,E,2,12,0.69,10.5,M,-47.6,M,,0000*4F
$GNGSA,A,3,05,12,24,18,15,25,23,13,29,10,,,1.27,0.69,1.07*12
$GNGSA,A,3,80,73,69,70,74,,,,,,,,1.27,0.69,1.07*16
$GPGSV,4,1,15,05,22,028,30,10,22,217,22,12,62,138,37,13,11,087,34*72
$GPGSV,4,2,15,15,44,111,42,18,27,313,36,23,64,232,35,24,24,161,39*7A
$GPGSV,4,3,15,25,79,314,40,28,09,274,,29,22,002,35,36,52,277,*7C
$GPGSV,4,4,15,40,86,351,42,41,58,082,,49,32,274,*49
$GLGSV,3,1,10,68,02,043,18,69,37,078,40,70,40,169,29,71,05,201,*62
$GLGSV,3,2,10,73,63,232,31,74,38,307,18,80,24,167,41,84,07,352,07*63
$GLGSV,3,3,10,85,04,306,,,,,41*5D
$GNGLL,0419.84121,S,05539.92321,E,074201.00,A,D*6C
$GNTXT,01,01,01,More than 100 frame errors, UART RX was disabled*70
$GNRMC,074202.00,A,0419.84123,S,05539.92321,E,0.032,,200525,,,D*75
$GNVTG,,T,,M,0.032,N,0.059,K,D*35
$GNGGA,074202.00,0419.84123,S,05539.92321,E,2,12,0.69,10.5,M,-47.6,M,,0000*4E
$GNGSA,A,3,05,12,24,18,15,25,23,13,29,10,,,1.27,0.69,1.07*12
$GNGSA,A,3,80,73,69,70,74,,,,,,,,1.27,0.69,1.07*16
$GPGSV,4,1,15,05,22,028,29,10,22,217,29,12,62,138,39,13,11,087,35*7E
$GPGSV,4,2,15,15,44,111,42,18,27,313,36,23,64,232,32,24,24,161,38*7C
$GPGSV,4,3,15,25,79,314,38,28,09,274,,29,22,002,33,36,52,277,*75
$GPGSV,4,4,15,40,86,351,42,41,58,082,,49,32,274,*49
$GLGSV,3,1,10,68,02,043,19,69,37,078,36,70,40,169,29,71,05,201,*62
$GLGSV,3,2,10,73,63,232,31,74,38,307,18,80,24,167,41,84,07,352,09*6D
$GLGSV,3,3,10,85,04,306,,,,,42*5E
$GNGLL,0419.84123,S,05539.92321,E,074202.00,A,D*6D
$GNTXT,01,01,01,More than 100 frame errors, UART RX was disabled*70
$GNRMC,074203.00,A,0419.84124,S,05539.92320,E,0.011,,200525,,,D*73
$GNVTG,,T,,M,0.011,N,0.021,K,D*3B
$GNGGA,074203.00,0419.84124,S,05539.92320,E,2,12,0.69,10.5,M,-47.6,M,,0000*49
$GNGSA,A,3,05,12,24,18,15,25,23,13,29,10,,,1.27,0.69,1.07*12
$GNGSA,A,3,80,73,69,70,74,,,,,,,,1.27,0.69,1.07*16
$GPGSV,4,1,15,05,22,028,31,10,22,217,30,12,62,138,41,13,11,087,37*72
$GPGSV,4,2,15,15,44,111,41,18,27,313,35,23,64,232,37,24,24,161,38*79
$GPGSV,4,3,15,25,79,314,39,28,09,274,,29,22,002,32,36,52,277,*75
$GPGSV,4,4,15,40,86,351,40,41,58,082,,49,32,274,*4B
$GLGSV,3,1,10,68,02,043,16,69,37,078,36,70,40,169,29,71,05,201,*6D
$GLGSV,3,2,10,73,63,232,34,74,38,307,20,80,24,167,41,84,07,352,08*62
$GLGSV,3,3,10,85,04,306,,,,,42*5E
$GNGLL,0419.84124,S,05539.92320,E,074203.00,A,D*6A
$GNTXT,01,01,01,More than 100 frame errors, UART RX was disabled*70
$GNRMC,074204.00,A,0419.84123,S,05539.92324,E,0.009,,200525,,,D*7E
$GNVTG,,T,,M,0.009,N,0.017,K,D*37
$GNGGA,074204.00,0419.84123,S,05539.92324,E,2,12,0.69,10.5,M,-47.6,M,,0000*4D
$GNGSA,A,3,05,12,24,18,15,25,23,13,29,10,,,1.27,0.69,1.07*12
$GNGSA,A,3,80,73,69,84,70,74,,,,,,,1.27,0.69,1.07*1A
$GPGSV,4,1,15,05,22,028,32,10,22,217,24,12,62,138,40,13,11,087,34*76
$GPGSV,4,2,15,15,44,111,39,18,27,313,36,23,64,232,37,24,24,161,39*74
$GPGSV,4,3,15,25,79,314,39,28,09,274,,29,22,002,31,36,52,277,*76
$GPGSV,4,4,15,40,86,351,41,41,58,082,,49,32,274,*4A
$GLGSV,3,1,10,68,02,043,14,69,37,078,34,70,40,169,29,71,05,201,*6D
$GLGSV,3,2,10,73,63,232,36,74,38,307,23,80,24,167,42,84,07,352,12*6B
$GLGSV,3,3,10,85,04,306,,,,,42*5E
$GNGLL,0419.84123,S,05539.92324,E,074204.00,A,D*6E
$GNTXT,01,01,01,More than 100 frame errors, UART RX was disabled*70
$GNRMC,074205.00,A,0419.84123,S,05539.92324,E,0.029,,200525,,,D*7D
$GNVTG,,T,,M,0.029,N,0.054,K,D*32
$GNGGA,074205.00,0419.84123,S,05539.92324,E,2,12,0.69,10.5,M,-47.6,M,,0000*4C
$GNGSA,A,3,05,12,24,18,15,25,23,13,29,10,,,1.27,0.69,1.07*12
$GNGSA,A,3,80,73,69,70,74,,,,,,,,1.27,0.69,1.07*16
$GPGSV,4,1,15,05,22,028,33,10,22,217,29,12,62,138,41,13,11,087,35*7A
$GPGSV,4,2,15,15,44,111,44,18,27,313,39,23,64,232,39,24,24,161,41*70
$GPGSV,4,3,15,25,79,314,43,28,09,274,,29,22,002,36,36,52,277,*7C
$GPGSV,4,4,15,40,86,351,43,41,58,082,,49,32,274,*48
$GLGSV,3,1,10,68,02,043,14,69,37,078,32,70,40,169,25,71,05,201,*67
$GLGSV,3,2,10,73,63,232,34,74,38,307,25,80,24,167,39,84,07,352,10*61
$GLGSV,3,3,10,85,04,306,,,,,39*52
$GNGLL,0419.84123,S,05539.92324,E,074205.00,A,D*6F
$GNTXT,01,01,01,More than 100 frame errors, UART RX was disabled*70
$GNRMC,074206.00,A,0419.84124,S,05539.92323,E,0.088,,200525,,,D*75
$GNVTG,,T,,M,0.088,N,0.164,K,D*3B
$GNGGA,074206.00,0419.84124,S,05539.92323,E,2,12,0.69,10.5,M,-47.6,M,,0000*4F
$GNGSA,A,3,05,12,24,18,15,25,23,13,29,10,,,1.27,0.69,1.07*12
$GNGSA,A,3,80,73,69,84,70,74,,,,,,,1.27,0.69,1.07*1A
$GPGSV,4,1,15,05,22,028,34,10,22,217,30,12,62,138,41,13,11,087,36*76
$GPGSV,4,2,15,15,44,111,43,18,27,313,39,23,64,232,39,24,24,161,41*77
$GPGSV,4,3,15,25,79,314,43,28,09,274,,29,22,002,35,36,52,277,*7F
$GPGSV,4,4,15,40,86,351,44,41,58,082,,49,32,274,*4F
$GLGSV,3,1,10,68,02,043,14,69,37,078,33,70,40,169,27,71,05,201,*64
$GLGSV,3,2,10,73,63,232,35,74,38,307,25,80,24,167,40,84,07,352,12*6C
$GLGSV,3,3,10,85,04,306,,,,,41*5D
$GNGLL,0419.84124,S,05539.92323,E,074206.00,A,D*6C
$GNTXT,01,01,01,More than 100 frame errors, UART RX was disabled*70
$GNRMC,074207.00,A,0419.84127,S,05539.92322,E,0.069,,200525,,,D*79
$GNVTG,,T,,M,0.069,N,0.128,K,D*3C
$GNGGA,074207.00,0419.84127,S,05539.92322,E,2,12,0.69,10.6,M,-47.6,M,,0000*4F
$GNGSA,A,3,05,12,24,18,15,25,23,13,29,10,,,1.27,0.69,1.07*12
$GNGSA,A,3,80,73,69,84,70,74,,,,,,,1.27,0.69,1.07*1A
$GPGSV,4,1,15,05,22,028,34,10,22,217,31,12,62,138,41,13,11,087,35*74
$GPGSV,4,2,15,15,44,111,44,18,27,313,40,23,64,232,38,24,24,161,41*7F
$GPGSV,4,3,15,25,79,314,44,28,09,274,,29,22,002,35,36,52,277,*78
$GPGSV,4,4,15,40,86,351,44,41,58,082,,49,32,274,*4F
$GLGSV,3,1,10,68,02,043,14,69,37,078,35,70,40,169,29,71,05,201,*6C
$GLGSV,3,2,10,73,63,232,36,74,38,307,26,80,24,167,43,84,07,352,13*6E
$GLGSV,3,3,10,85,04,306,,,,,43*5F
$GNGLL,0419.84127,S,05539.92322,E,074207.00,A,D*6F
$GNTXT,01,01,01,More than 100 frame errors, UART RX was disabled*70
$GNRMC,074208.00,A,0419.84130,S,05539.92323,E,0.031,,200525,,,D*7C
$GNVTG,,T,,M,0.031,N,0.058,K,D*37
$GNGGA,074208.00,0419.84130,S,05539.92323,E,2,12,0.66,10.5,M,-47.6,M,,0000*4B
$GNGSA,A,3,05,12,24,18,15,25,23,13,29,10,,,1.19,0.66,0.98*17
$GNGSA,A,3,80,73,69,84,70,74,,,,,,,1.19,0.66,0.98*1F
$GPGSV,4,1,15,05,22,028,33,10,22,217,30,12,62,138,40,13,11,087,37*71
$GPGSV,4,2,15,15,44,111,44,18,27,313,41,23,64,232,38,24,24,161,41*7E
$GPGSV,4,3,15,25,79,314,44,28,09,274,,29,22,002,35,36,52,277,*78
$GPGSV,4,4,15,40,86,351,45,41,58,082,,49,32,274,*4E
$GLGSV,3,1,10,68,02,043,15,69,37,078,36,70,40,169,30,71,05,201,*66
$GLGSV,3,2,10,73,63,232,36,74,38,307,27,80,24,167,43,84,07,352,16*6A
$GLGSV,3,3,10,85,04,306,,,,,43*5F
$GNGLL,0419.84130,S,05539.92323,E,074208.00,A,D*67
$GNTXT,01,01,01,More than 100 frame errors, UART RX was disabled*70
$GNRMC,074209.00,A,0419.84131,S,05539.92325,E,0.047,,200525,,,D*7B
$GNVTG,,T,,M,0.047,N,0.087,K,D*34
$GNGGA,074209.00,0419.84131,S,05539.92325,E,2,12,0.69,10.5,M,-47.6,M,,0000*42
$GNGSA,A,3,05,12,24,18,15,25,23,13,29,10,,,1.27,0.69,1.07*12
$GNGSA,A,3,80,73,69,84,70,74,,,,,,,1.27,0.69,1.07*1A
$GPGSV,4,1,15,05,22,028,34,10,22,217,30,12,62,138,41,13,11,087,36*76
$GPGSV,4,2,15,15,44,111,44,18,27,313,40,23,64,232,38,24,24,161,41*7F
$GPGSV,4,3,15,25,79,314,44,28,09,274,,29,22,002,35,36,52,277,*78
$GPGSV,4,4,15,40,86,351,44,41,58,082,,49,32,274,*4F
$GLGSV,3,1,10,68,02,043,14,69,37,078,36,70,40,169,30,71,05,201,*67
$GLGSV,3,2,10,73,63,232,35,74,38,307,27,80,24,167,42,84,07,352,18*66
$GLGSV,3,3,10,85,04,306,,,,,43*5F
$GNGLL,0419.84131,S,05539.92325,E,074209.00,A,D*61
$GNTXT,01,01,01,More than 100 frame errors, UART RX was disabled*70
$GNRMC,074210.00,A,0419.84132,S,05539.92325,E,0.063,,200525,,,D*76
$GNVTG,,T,,M,0.063,N,0.117,K,D*3A
$GNGGA,074210.00,0419.84132,S,05539.92325,E,2,12,0.69,10.5,M,-47.6,M,,0000*49
$GNGSA,A,3,05,12,24,18,15,25,23,13,29,10,,,1.27,0.69,1.07*12
$GNGSA,A,3,80,73,69,84,70,74,,,,,,,1.27,0.69,1.07*1A
$GPGSV,4,1,15,05,22,028,33,10,22,217,29,12,62,138,35,13,11,087,35*79
$GPGSV,4,2,15,15,44,111,39,18,27,313,35,23,64,232,34,24,24,161,38*75
$GPGSV,4,3,15,25,79,314,38,28,09,274,,29,22,002,34,36,52,277,*72
$GPGSV,4,4,15,40,86,351,41,41,58,082,,49,32,274,*4A
$GLGSV,3,1,10,68,02,043,17,69,37,078,35,70,40,169,30,71,05,201,*67
$GLGSV,3,2,10,73,63,232,31,74,38,307,27,80,24,167,37,84,07,352,16*6E
$GLGSV,3,3,10,85,04,306,,,,,39*52
$GNGLL,0419.84132,S,05539.92325,E,074210.00,A,D*6A
$GNTXT,01,01,01,More than 100 frame errors, UART RX was disabled*70
$GNRMC,074211.00,A,0419.84134,S,05539.92324,E,0.078,,200525,,,D*7A
$GNVTG,,T,,M,0.078,N,0.144,K,D*36
$GNGGA,074211.00,0419.84134,S,05539.92324,E,2,12,0.66,10.5,M,-47.6,M,,0000*40
$GNGSA,A,3,05,12,24,18,15,25,23,13,29,10,,,1.19,0.66,0.98*17
$GNGSA,A,3,80,73,69,84,70,74,,,,,,,1.19,0.66,0.98*1F
$GPGSV,4,1,15,05,22,028,32,10,22,217,29,12,62,138,39,13,11,087,36*77
$GPGSV,4,2,15,15,44,111,44,18,27,313,39,23,64,232,37,24,24,161,40*7F
$GPGSV,4,3,15,25,79,314,44,28,09,274,,29,22,002,34,36,52,277,*79
$GPGSV,4,4,15,40,86,351,44,41,58,082,,49,32,274,*4F
$GLGSV,3,1,10,68,02,043,19,69,37,078,36,70,40,169,30,71,05,201,*6A
$GLGSV,3,2,10,73,63,232,35,74,38,307,26,80,24,167,42,84,07,352,15*6A
$GLGSV,3,3,10,85,04,306,,,,,42*5E
$GNGLL,0419.84134,S,05539.92324,E,074211.00,A,D*6C
$GNTXT,01,01,01,More than 100 frame errors, UART RX was disabled*70
$GNRMC,074212.00,A,0419.84135,S,05539.92323,E,0.052,,200525,,,D*77
$GNVTG,,T,,M,0.052,N,0.097,K,D*31
$GNGGA,074212.00,0419.84135,S,05539.92323,E,2,12,0.69,10.5,M,-47.6,M,,0000*4A
$GNGSA,A,3,05,12,24,18,15,25,23,13,29,10,,,1.27,0.69,1.07*12
$GNGSA,A,3,80,73,69,84,70,74,,,,,,,1.27,0.69,1.07*1A
$GPGSV,4,1,15,05,22,028,32,10,22,217,30,12,62,138,39,13,11,087,35*7C
$GPGSV,4,2,15,15,44,111,44,18,27,313,39,23,64,232,37,24,24,161,40*7F
$GPGSV,4,3,15,25,79,314,44,28,09,274,,29,22,002,35,36,52,277,*78
$GPGSV,4,4,15,40,86,351,44,41,58,082,,49,32,274,*4F
$GLGSV,3,1,10,68,02,043,15,69,37,078,36,70,40,169,30,71,05,201,*66
$GLGSV,3,2,10,73,63,232,35,74,38,307,25,80,24,167,42,84,07,352,16*6A
$GLGSV,3,3,10,85,04,306,,,,,42*5E
$GNGLL,0419.84135,S,05539.92323,E,074212.00,A,D*69
$GNTXT,01,01,01,More than 100 frame errors, UART RX was disabled*70
$GNRMC,074213.00,A,0419.84136,S,05539.92323,E,0.019,,200525,,,D*7A
$GNVTG,,T,,M,0.019,N,0.035,K,D*36
$GNGGA,074213.00,0419.84136,S,05539.92323,E,2,12,0.69,10.4,M,-47.6,M,,0000*49
$GNGSA,A,3,05,12,24,18,15,25,23,13,29,10,,,1.27,0.69,1.07*12
$GNGSA,A,3,80,73,69,84,70,74,,,,,,,1.27,0.69,1.07*1A
$GPGSV,4,1,15,05,22,028,32,10,22,217,29,12,62,138,39,13,11,087,35*74
$GPGSV,4,2,15,15,44,111,44,18,27,313,40,23,64,232,38,24,24,161,40*7E
$GPGSV,4,3,15,25,79,314,44,28,09,274,,29,22,002,35,36,52,277,*78
$GPGSV,4,4,15,40,86,351,44,41,58,082,,49,32,274,*4F
$GLGSV,3,1,10,68,02,043,18,69,37,078,36,70,40,169,30,71,05,201,*6B
$GLGSV,3,2,10,73,63,232,35,74,38,307,25,80,24,167,42,84,07,352,13*6F
$GLGSV,3,3,10,85,04,306,,,,,42*5E
$GNGLL,0419.84136,S,05539.92323,E,074213.00,A,D*6B
$GNTXT,01,01,01,More than 100 frame errors, UART RX was disabled*70
$GNRMC,074214.00,A,0419.84137,S,05539.92322,E,0.011,,200525,,,D*75
$GNVTG,,T,,M,0.011,N,0.021,K,D*3B
$GNGGA,074214.00,0419.84137,S,05539.92322,E,2,12,0.69,10.5,M,-47.6,M,,0000*4F
$GNGSA,A,3,05,12,24,18,15,25,23,13,29,10,,,1.27,0.69,1.07*12
$GNGSA,A,3,80,73,69,84,70,74,,,,,,,1.27,0.69,1.07*1A
$GPGSV,4,1,15,05,22,028,32,10,22,217,29,12,62,138,39,13,11,087,35*74
$GPGSV,4,2,15,15,44,111,44,18,27,313,39,23,64,232,38,24,24,161,40*70
$GPGSV,4,3,15,25,79,314,44,28,09,274,,29,22,002,34,36,52,277,*79
$GPGSV,4,4,15,40,86,351,43,41,58,082,,49,32,274,*48
$GLGSV,3,1,10,68,02,043,15,69,37,078,37,70,40,169,30,71,05,201,*67
$GLGSV,3,2,10,73,63,232,34,74,38,307,25,80,24,167,42,84,07,352,12*6F
$GLGSV,3,3,10,85,04,306,,,,,42*5E
$GNGLL,0419.84137,S,05539.92322,E,074214.00,A,D*6C
$GNTXT,01,01,01,More than 100 frame errors, UART RX was disabled*70
$GNRMC,074215.00,A,0419.84138,S,05539.92321,E,0.045,,200525,,,D*79
$GNVTG,,T,,M,0.045,N,0.083,K,D*32
$GNGGA,074215.00,0419.84138,S,05539.92321,E,2,12,0.69,10.5,M,-47.6,M,,0000*42
$GNGSA,A,3,05,12,24,18,15,25,23,13,29,10,,,1.27,0.69,1.07*12
$GNGSA,A,3,80,73,69,84,70,74,,,,,,,1.27,0.69,1.07*1A
$GPGSV,4,1,15,05,22,028,32,10,22,217,29,12,62,138,39,13,11,087,35*74
$GPGSV,4,2,15,15,44,111,44,18,27,313,39,23,64,232,38,24,24,161,40*70
$GPGSV,4,3,15,25,79,314,44,28,09,274,,29,22,002,34,36,52,277,*79
$GPGSV,4,4,15,40,86,351,43,41,58,082,,49,32,274,*48
$GLGSV,3,1,10,68,02,043,14,69,37,077,36,70,40,169,31,71,05,201,*69
$GLGSV,3,2,10,73,63,232,34,74,38,307,25,80,24,167,42,84,07,352,13*6E
$GLGSV,3,3,10,85,04,306,,,,,42*5E
$GNGLL,0419.84138,S,05539.92321,E,074215.00,A,D*61
$GNTXT,01,01,01,More than 100 frame errors, UART RX was disabled*70
$GNRMC,074216.00,A,0419.84139,S,05539.92321,E,0.033,,200525,,,D*7A
$GNVTG,,T,,M,0.033,N,0.061,K,D*3F
$GNGGA,074216.00,0419.84139,S,05539.92321,E,2,12,0.69,10.5,M,-47.6,M,,0000*40
$GNGSA,A,3,05,12,24,18,15,25,23,13,29,10,,,1.27,0.69,1.07*12
$GNGSA,A,3,80,73,69,84,70,74,,,,,,,1.27,0.69,1.07*1A
$GPGSV,4,1,15,05,22,028,32,10,22,217,29,12,62,138,39,13,11,087,35*74
$GPGSV,4,2,15,15,44,111,44,18,27,313,39,23,64,232,38,24,24,161,40*70
$GPGSV,4,3,15,25,79,314,44,28,09,274,,29,22,002,34,36,52,277,*79
$GPGSV,4,4,15,40,86,351,43,41,58,082,,49,32,274,*48
$GLGSV,3,1,10,68,02,043,16,69,37,077,36,70,40,169,31,71,05,201,*6B
$GLGSV,3,2,10,73,63,232,34,74,38,307,25,80,24,167,42,84,07,352,11*6C
$GLGSV,3,3,10,85,04,306,,,,,42*5E
$GNGLL,0419.84139,S,05539.92321,E,074216.00,A,D*63
$GNTXT,01,01,01,More than 100 frame errors, UART RX was disabled*70
$GNRMC,074217.00,A,0419.84140,S,05539.92322,E,0.028,,200525,,,D*7C
$GNVTG,,T,,M,0.028,N,0.052,K,D*35
$GNGGA,074217.00,0419.84140,S,05539.92322,E,2,12,0.69,10.4,M,-47.6,M,,0000*4D
$GNGSA,A,3,05,12,24,18,15,25,23,13,29,10,,,1.27,0.69,1.07*12
$GNGSA,A,3,80,73,69,84,70,74,,,,,,,1.27,0.69,1.07*1A
$GPGSV,4,1,15,05,22,028,32,10,22,217,29,12,62,138,39,13,11,087,36*77
$GPGSV,4,2,15,15,44,111,44,18,27,313,40,23,64,232,38,24,24,161,40*7E
$GPGSV,4,3,15,25,79,314,44,28,09,274,,29,22,002,34,36,52,277,*79
$GPGSV,4,4,15,40,86,351,43,41,58,082,,49,32,274,*48
$GLGSV,3,1,10,68,02,043,15,69,37,077,36,70,40,169,31,71,05,200,*69
$GLGSV,3,2,10,73,63,232,33,74,38,307,24,80,24,167,42,84,07,352,14*6F
$GLGSV,3,3,10,85,04,306,,,,,42*5E
$GNGLL,0419.84140,S,05539.92322,E,074217.00,A,D*6F
$GNTXT,01,01,01,More than 100 frame errors, UART RX was disabled*70
$GNRMC,074218.00,A,0419.84142,S,05539.92323,E,0.031,,200525,,,D*78
$GNVTG,,T,,M,0.031,N,0.057,K,D*38
$GNGGA,074218.00,0419.84142,S,05539.92323,E,2,12,0.69,10.5,M,-47.6,M,,0000*40
$GNGSA,A,3,05,12,24,18,15,25,23,13,29,10,,,1.27,0.69,1.07*12
$GNGSA,A,3,80,73,69,84,70,74,,,,,,,1.27,0.69,1.07*1A
$GPGSV,4,1,15,05,22,028,31,10,22,217,29,12,62,138,39,13,11,087,36*74
$GPGSV,4,2,15,15,44,111,44,18,27,313,40,23,64,232,38,24,24,161,40*7E
$GPGSV,4,3,15,25,79,314,44,28,09,274,,29,22,002,34,36,52,277,*79
$GPGSV,4,4,15,40,86,351,43,41,58,082,,49,32,274,*48
$GLGSV,3,1,10,68,02,043,13,69,37,077,37,70,40,169,30,71,05,200,*6F
$GLGSV,3,2,10,73,63,232,33,74,38,307,23,80,24,167,42,84,07,352,14*68
$GLGSV,3,3,10,85,04,306,,,,,42*5E
$GNGLL,0419.84142,S,05539.92323,E,074218.00,A,D*63
$GNTXT,01,01,01,More than 100 frame errors, UART RX was disabled*70
$GNRMC,074219.00,A,0419.84144,S,05539.92323,E,0.056,,200525,,,D*7E
$GNVTG,,T,,M,0.056,N,0.103,K,D*39
$GNGGA,074219.00,0419.84144,S,05539.92323,E,2,12,0.69,10.5,M,-47.6,M,,0000*47
$GNGSA,A,3,05,12,24,18,15,25,23,13,29,10,,,1.27,0.69,1.07*12
$GNGSA,A,3,80,73,69,84,70,74,,,,,,,1.27,0.69,1.07*1A
$GPGSV,4,1,15,05,22,028,32,10,22,217,29,12,62,138,38,13,11,087,35*75
$GPGSV,4,2,15,15,44,111,43,18,27,313,39,23,64,232,37,24,24,161,40*78
$GPGSV,4,3,15,25,79,314,44,28,09,274,,29,22,002,34,36,52,277,*79
$GPGSV,4,4,15,40,86,351,43,41,58,082,,49,32,274,*48
$GLGSV,3,1,10,68,02,043,15,69,37,077,37,70,40,169,30,71,05,200,*69
$GLGSV,3,2,10,73,63,231,33,74,38,307,23,80,24,167,42,84,07,352,13*6C
$GLGSV,3,3,10,85,04,306,,,,,43*5F
$GNGLL,0419.84144,S,05539.92323,E,074219.00,A,D*64
$GNTXT,01,01,01,More than 100 frame errors, UART RX was disabled*70
$GNRMC,074220.00,A,0419.84146,S,05539.92323,E,0.038,,200525,,,D*7E
$GNVTG,,T,,M,0.038,N,0.070,K,D*34
$GNGGA,074220.00,0419.84146,S,05539.92323,E,2,12,0.69,10.5,M,-47.6,M,,0000*4F
$GNGSA,A,3,05,12,24,18,15,25,23,13,29,10,,,1.27,0.69,1.07*12
$GNGSA,A,3,80,73,69,84,70,74,,,,,,,1.27,0.69,1.07*1A
$GPGSV,4,1,15,05,22,028,33,10,22,217,29,12,62,138,39,13,11,087,36*76
$GPGSV,4,2,15,15,44,111,42,18,27,313,38,23,64,232,38,24,24,161,41*76
$GPGSV,4,3,15,25,79,314,44,28,09,274,,29,22,002,34,36,52,277,*79
$GPGSV,4,4,15,40,86,351,43,41,58,082,,49,32,274,*48
$GLGSV,3,1,10,68,02,043,12,69,37,077,37,70,40,169,30,71,05,200,*6E
$GLGSV,3,2,10,73,63,231,34,74,39,306,22,80,24,167,42,84,07,352,15*6C
$GLGSV,3,3,10,85,04,306,,,,,42*5E
$GNGLL,0419.84146,S,05539.92323,E,074220.00,A,D*6C
$GNTXT,01,01,01,More than 100 frame errors, UART RX was disabled*70
$GNRMC,074221.00,A,0419.84147,S,05539.92323,E,0.018,,200525,,,D*7C
$GNVTG,,T,,M,0.018,N,0.033,K,D*31
$GNGGA,074221.00,0419.84147,S,05539.92323,E,2,12,0.69,10.5,M,-47.6,M,,0000*4F
$GNGSA,A,3,05,12,24,18,15,25,23,13,29,10,,,1.27,0.69,1.07*12
$GNGSA,A,3,80,73,69,84,70,74,,,,,,,1.27,0.69,1.07*1A
$GPGSV,4,1,15,05,22,028,33,10,22,217,30,12,62,138,39,13,11,087,36*7E
$GPGSV,4,2,15,15,44,111,42,18,27,313,37,23,64,232,38,24,24,161,41*79
$GPGSV,4,3,15,25,79,314,44,28,09,274,,29,22,002,34,36,52,277,*79
$GPGSV,4,4,15,40,86,351,44,41,58,082,,49,32,274,*4F
$GLGSV,3,1,10,68,02,043,16,69,37,077,37,70,40,169,31,71,05,200,*6B
$GLGSV,3,2,10,73,63,231,34,74,39,306,22,80,24,167,42,84,07,352,15*6C
$GLGSV,3,3,10,85,04,306,,,,,42*5E
$GNGLL,0419.84147,S,05539.92323,E,074221.00,A,D*6C
$GNTXT,01,01,01,More than 100 frame errors, UART RX was disabled*70
$GNRMC,074222.00,A,0419.84148,S,05539.92323,E,0.033,,200525,,,D*79
$GNVTG,,T,,M,0.033,N,0.060,K,D*3E
$GNGGA,074222.00,0419.84148,S,05539.92323,E,2,12,0.69,10.4,M,-47.6,M,,0000*42
$GNGSA,A,3,05,12,24,18,15,25,23,13,29,10,,,1.27,0.69,1.07*12
$GNGSA,A,3,80,73,69,84,70,74,,,,,,,1.27,0.69,1.07*1A
$GPGSV,4,1,15,05,22,028,33,10,22,217,31,12,62,138,39,13,11,087,36*7F
$GPGSV,4,2,15,15,44,111,42,18,27,313,37,23,64,232,38,24,24,161,41*79
$GPGSV,4,3,15,25,79,314,44,28,09,274,,29,22,002,34,36,52,277,*79
$GPGSV,4,4,15,40,86,351,44,41,58,082,,49,32,274,*4F
$GLGSV,3,1,10,68,02,043,17,69,37,077,37,70,40,169,31,71,05,200,*6A
$GLGSV,3,2,10,73,63,231,34,74,39,306,21,80,24,167,42,84,07,352,11*6B
$GLGSV,3,3,10,85,04,306,,,,,41*5D
$GNGLL,0419.84148,S,05539.92323,E,074222.00,A,D*60
$GNTXT,01,01,01,More than 100 frame errors, UART RX was disabled*70
$GNRMC,074223.00,A,0419.84149,S,05539.92323,E,0.019,,200525,,,D*71
$GNVTG,,T,,M,0.019,N,0.034,K,D*37
$GNGGA,074223.00,0419.84149,S,05539.92323,E,2,12,0.69,10.4,M,-47.6,M,,0000*42
$GNGSA,A,3,05,12,24,18,15,25,23,13,29,10,,,1.27,0.69,1.07*12
$GNGSA,A,3,80,73,69,84,70,74,,,,,,,1.27,0.69,1.07*1A
$GPGSV,4,1,15,05,22,028,32,10,22,217,31,12,62,138,39,13,11,087,36*7E
$GPGSV,4,2,15,15,44,111,42,18,27,313,37,23,64,232,38,24,24,161,41*79
$GPGSV,4,3,15,25,79,314,44,28,09,274,,29,22,002,33,36,52,277,*7E
$GPGSV,4,4,15,40,86,351,44,41,58,082,,49,32,274,*4F
$GLGSV,3,1,10,68,02,043,18,69,37,077,37,70,40,169,31,71,05,200,*65
$GLGSV,3,2,10,73,63,231,34,74,39,306,21,80,24,167,42,84,07,352,16*6C
$GLGSV,3,3,10,85,04,306,,,,,41*5D
$GNGLL,0419.84149,S,05539.92323,E,074223.00,A,D*60
$GNTXT,01,01,01,More than 100 frame errors, UART RX was disabled*70
$GNRMC,074224.00,A,0419.84149,S,05539.92324,E,0.027,,200525,,,D*7C
$GNVTG,,T,,M,0.027,N,0.049,K,D*30
$GNGGA,074224.00,0419.84149,S,05539.92324,E,2,12,0.69,10.3,M,-47.6,M,,0000*45
$GNGSA,A,3,05,12,24,18,15,25,23,13,29,10,,,1.27,0.69,1.07*12
$GNGSA,A,3,80,73,69,84,70,74,,,,,,,1.27,0.69,1.07*1A
$GPGSV,4,1,15,05,22,028,32,10,22,217,30,12,62,138,36,13,11,087,33*75
$GPGSV,4,2,15,15,44,111,38,18,27,313,37,23,64,232,35,24,24,161,38*77
$GPGSV,4,3,15,25,79,314,40,28,09,274,,29,22,002,34,36,52,277,*7D
$GPGSV,4,4,15,40,86,351,40,41,58,082,,49,32,274,*4B
$GLGSV,3,1,10,68,02,043,15,69,37,077,33,70,40,169,31,71,05,200,*6C
$GLGSV,3,2,10,73,63,231,33,74,39,306,21,80,24,167,37,84,07,352,13*6C
$GLGSV,3,3,10,85,04,306,,,,,36*5D
$GNGLL,0419.84149,S,05539.92324,E,074224.00,A,D*60
$GNTXT,01,01,01,More than 100 frame errors, UART RX was disabled*70
$GNRMC,074225.00,A,0419.84150,S,05539.92324,E,0.035,,200525,,,D*76
$GNVTG,,T,,M,0.035,N,0.065,K,D*3D
$GNGGA,074225.00,0419.84150,S,05539.92324,E,2,12,0.69,10.2,M,-47.6,M,,0000*4D
$GNGSA,A,3,05,12,24,18,15,25,23,13,29,10,,,1.27,0.69,1.07*12
$GNGSA,A,3,80,73,69,70,74,,,,,,,,1.27,0.69,1.07*16
$GPGSV,4,1,15,05,22,028,31,10,22,217,30,12,62,138,38,13,11,087,36*7D
$GPGSV,4,2,15,15,44,111,41,18,27,313,37,23,64,232,36,24,24,161,40*75
$GPGSV,4,3,15,25,79,314,43,28,09,274,,29,22,002,33,36,52,277,*79
$GPGSV,4,4,15,40,86,351,43,41,58,082,,49,32,274,*48
$GLGSV,3,1,10,68,02,043,10,69,37,077,36,70,40,169,30,71,05,200,*6D
$GLGSV,3,2,10,73,63,231,34,74,39,306,18,80,24,167,42,84,07,352,08*69
$GLGSV,3,3,10,85,04,306,,,,,42*5E
$GNGLL,0419.84150,S,05539.92324,E,074225.00,A,D*69
$GNTXT,01,01,01,More than 100 frame errors, UART RX was disabled*70
$GNRMC,074226.00,A,0419.84151,S,05539.92325,E,0.016,,200525,,,D*74
$GNVTG,,T,,M,0.016,N,0.029,K,D*34
$GNGGA,074226.00,0419.84151,S,05539.92325,E,2,12,0.69,10.2,M,-47.6,M,,0000*4E
$GNGSA,A,3,05,12,24,18,15,25,23,13,29,10,,,1.27,0.69,1.07*12
$GNGSA,A,3,80,73,69,84,70,74,,,,,,,1.27,0.69,1.07*1A
$GPGSV,4,1,15,05,22,028,32,10,22,217,31,12,62,138,38,13,11,087,35*7C
$GPGSV,4,2,15,15,44,111,41,18,27,313,37,23,64,232,36,24,24,161,40*75
$GPGSV,4,3,15,25,79,314,42,28,09,274,,29,22,002,33,36,52,277,*78
$GPGSV,4,4,15,40,86,351,42,41,58,082,,49,32,274,*49
$GLGSV,3,1,10,68,02,043,15,69,37,077,36,70,40,169,31,71,05,200,*69
$GLGSV,3,2,10,73,63,231,34,74,39,306,19,80,24,167,42,84,07,352,13*62
$GLGSV,3,3,10,85,04,306,,,,,41*5D
$GNGLL,0419.84151,S,05539.92325,E,074226.00,A,D*6A
$GNTXT,01,01,01,More than 100 frame errors, UART RX was disabled*70
$GNRMC,074227.00,A,0419.84152,S,05539.92325,E,0.025,,200525,,,D*76
$GNVTG,,T,,M,0.025,N,0.047,K,D*3C
$GNGGA,074227.00,0419.84152,S,05539.92325,E,2,12,0.69,10.2,M,-47.6,M,,0000*4C
$GNGSA,A,3,05,12,24,18,15,25,23,13,29,10,,,1.27,0.69,1.07*12
$GNGSA,A,3,80,73,69,84,70,74,,,,,,,1.27,0.69,1.07*1A
$GPGSV,4,1,15,05,22,028,32,10,22,217,21,12,62,138,40,13,11,087,34*73
$GPGSV,4,2,15,15,44,111,43,18,27,313,37,23,64,232,36,24,24,161,40*77
$GPGSV,4,3,15,25,79,314,40,28,09,274,,29,22,002,34,36,52,277,*7D
$GPGSV,4,4,15,40,86,351,40,41,58,082,,49,32,274,*4B
$GLGSV,3,1,10,68,02,043,16,69,37,077,38,70,40,169,31,71,05,200,*64
$GLGSV,3,2,10,73,63,231,34,74,39,306,21,80,24,167,43,84,07,352,15*6E
$GLGSV,3,3,10,85,04,306,,,,,44*58
$GNGLL,0419.84152,S,05539.92325,E,074227.00,A,D*68
$GNTXT,01,01,01,More than 100 frame errors, UART RX was disabled*70
$GNRMC,074228.00,A,0419.84153,S,05539.92326,E,0.019,,200525,,,D*74
$GNVTG,,T,,M,0.019,N,0.036,K,D*35
$GNGGA,074228.00,0419.84153,S,05539.92326,E,2,12,0.69,10.1,M,-47.6,M,,0000*42
$GNGSA,A,3,05,12,24,18,15,25,23,13,29,10,,,1.27,0.69,1.07*12
$GNGSA,A,3,80,73,69,84,70,74,,,,,,,1.27,0.69,1.07*1A
$GPGSV,4,1,15,05,22,028,32,10,22,217,18,12,62,138,39,13,11,087,33*70
$GPGSV,4,2,15,15,44,111,42,18,27,313,38,23,64,232,35,24,24,161,40*7A
$GPGSV,4,3,15,25,79,314,40,28,09,274,,29,22,002,36,36,52,277,*7F
$GPGSV,4,4,15,40,86,351,40,41,58,082,,49,32,274,*4B
$GLGSV,3,1,10,68,02,043,13,69,37,077,39,70,40,169,31,71,05,200,*60
$GLGSV,3,2,10,73,63,231,33,74,39,306,22,80,24,167,43,84,07,352,18*67
$GLGSV,3,3,10,85,04,306,,,,,44*58
$GNGLL,0419.84153,S,05539.92326,E,074228.00,A,D*65
$GNTXT,01,01,01,More than 100 frame errors, UART RX was disabled*70
$GNRMC,074229.00,A,0419.84152,S,05539.92327,E,0.042,,200525,,,D*7B
$GNVTG,,T,,M,0.042,N,0.078,K,D*31
$GNGGA,074229.00,0419.84152,S,05539.92327,E,2,12,0.69,10.1,M,-47.6,M,,0000*43
$GNGSA,A,3,05,12,24,18,15,25,23,13,29,10,,,1.27,0.69,1.07*12
$GNGSA,A,3,80,73,69,84,70,74,,,,,,,1.27,0.69,1.07*1A
$GPGSV,4,1,15,05,22,028,32,10,22,217,16,12,62,138,40,13,11,087,32*71
$GPGSV,4,2,15,15,44,111,42,18,27,313,36,23,64,232,36,24,24,161,39*79
$GPGSV,4,3,15,25,79,314,40,28,09,274,,29,22,002,36,36,52,277,*7F
$GPGSV,4,4,15,40,86,351,39,41,58,082,,49,32,274,*45
$GLGSV,3,1,10,68,02,043,15,69,37,077,37,70,40,169,30,71,05,200,*69
$GLGSV,3,2,10,73,63,231,33,74,39,306,22,80,24,167,41,84,07,352,16*6B
$GLGSV,3,3,10,85,04,306,,,,,42*5E
$GNGLL,0419.84152,S,05539.92327,E,074229.00,A,D*64
$GNTXT,01,01,01,More than 100 frame errors, UART RX was disabled*70
$GNRMC,074230.00,A,0419.84153,S,05539.92327,E,0.011,,200525,,,D*74
$GNVTG,,T,,M,0.011,N,0.020,K,D*3A
$GNGGA,074230.00,0419.84153,S,05539.92327,E,2,12,0.79,10.1,M,-47.6,M,,0000*4B
$GNGSA,A,3,05,12,24,18,15,25,23,13,29,,,,1.41,0.79,1.17*13
$GNGSA,A,3,80,73,69,84,70,74,,,,,,,1.41,0.79,1.17*1A
$GPGSV,4,1,15,05,22,028,31,10,22,217,25,12,62,138,39,13,11,087,37*79
$GPGSV,4,2,15,15,44,111,41,18,27,313,36,23,64,232,36,24,24,161,40*74
$GPGSV,4,3,15,25,79,314,40,28,09,274,,29,22,002,35,36,52,277,*7C
$GPGSV,4,4,15,40,86,351,42,41,58,082,,49,32,274,*49
$GLGSV,3,1,10,68,02,043,16,69,37,077,37,70,40,169,29,71,05,200,*62
$GLGSV,3,2,10,73,63,231,32,74,39,306,21,80,24,167,40,84,07,353,12*6D
$GLGSV,3,3,10,85,04,306,,,,,42*5E
$GNGLL,0419.84153,S,05539.92327,E,074230.00,A,D*6D
$GNTXT,01,01,01,More than 100 frame errors, UART RX was disabled*70
$GNRMC,074231.00,A,0419.84153,S,05539.92327,E,0.008,,200525,,,D*7D
$GNVTG,,T,,M,0.008,N,0.015,K,D*34
$GNGGA,074231.00,0419.84153,S,05539.92327,E,2,12,0.79,10.1,M,-47.6,M,,0000*4A
$GNGSA,A,3,05,12,24,18,15,25,23,13,29,,,,1.41,0.79,1.17*13
$GNGSA,A,3,80,73,69,84,70,74,,,,,,,1.41,0.79,1.17*1A
$GPGSV,4,1,15,05,22,028,29,10,22,217,24,12,62,138,35,13,11,087,33*79
$GPGSV,4,2,15,15,44,111,37,18,27,313,34,23,64,232,34,24,24,161,36*74
$GPGSV,4,3,15,25,79,314,37,28,09,274,,29,22,002,34,36,52,277,*7D
$GPGSV,4,4,15,40,86,351,37,41,58,082,,49,32,274,*4B
$GLGSV,3,1,10,68,02,043,13,69,37,077,34,70,40,169,27,71,05,200,*6A
$GLGSV,3,2,10,73,63,231,31,74,39,306,19,80,24,167,36,84,07,353,12*64
$GLGSV,3,3,10,85,04,306,,,,,37*5C
$GNGLL,0419.84153,S,05539.92327,E,074231.00,A,D*6C
$GNTXT,01,01,01,More than 100 frame errors, UART RX was disabled*70
$GNRMC,074232.00,A,0419.84154,S,05539.92328,E,0.032,,200525,,,D*7F
$GNVTG,,T,,M,0.032,N,0.059,K,D*35
$GNGGA,074232.00,0419.84154,S,05539.92328,E,2,12,0.79,10.1,M,-47.6,M,,0000*41
$GNGSA,A,3,05,12,24,18,15,25,23,13,29,,,,1.41,0.79,1.17*13
$GNGSA,A,3,80,73,69,84,70,74,,,,,,,1.41,0.79,1.17*1A
$GPGSV,4,1,15,05,22,028,26,10,22,217,22,12,62,138,37,13,11,087,34*75
$GPGSV,4,2,15,15,44,111,39,18,27,313,35,23,64,232,32,24,24,161,38*73
$GPGSV,4,3,15,25,79,314,39,28,09,274,,29,22,002,34,36,52,277,*73
$GPGSV,4,4,15,40,86,351,39,41,58,082,,49,32,274,*45
$GLGSV,3,1,10,68,02,043,13,69,37,077,41,70,40,169,31,71,05,200,*6F
$GLGSV,3,2,10,73,63,231,33,74,39,306,20,80,24,167,42,84,07,353,13*6E
$GLGSV,3,3,10,85,04,306,,,,,43*5F
$GNGLL,0419.84154,S,05539.92328,E,074232.00,A,D*67
$GNTXT,01,01,01,More than 100 frame errors, UART RX was disabled*70
$GNRMC,074233.00,A,0419.84153,S,05539.92327,E,0.111,,200525,,,D*76
$GNVTG,,T,,M,0.111,N,0.205,K,D*3E
$GNGGA,074233.00,0419.84153,S,05539.92327,E,2,12,0.69,10.0,M,-47.6,M,,0000*48
$GNGSA,A,3,05,12,24,18,15,25,23,13,29,10,,,1.27,0.69,1.07*12
$GNGSA,A,3,80,73,69,84,70,74,,,,,,,1.27,0.69,1.07*1A
$GPGSV,4,1,15,05,22,028,26,10,22,217,22,12,62,138,32,13,11,087,31*75
$GPGSV,4,2,15,15,44,111,36,18,27,313,32,23,64,232,29,24,24,161,35*7C
$GPGSV,4,3,15,25,79,314,35,28,09,274,,29,22,002,31,36,52,277,*7A
$GPGSV,4,4,15,40,86,351,35,41,58,082,,49,32,274,*49
$GLGSV,3,1,10,68,02,043,14,69,37,077,35,70,40,169,24,71,05,200,*6F
$GLGSV,3,2,10,73,63,231,27,74,39,306,21,80,24,167,37,84,07,353,13*68
$GLGSV,3,3,10,85,04,306,,,,,37*5C
$GNGLL,0419.84153,S,05539.92327,E,074233.00,A,D*6E
$GNTXT,01,01,01,More than 100 frame errors, UART RX was disabled*70
$GNRMC,074234.00,A,0419.84153,S,05539.92327,E,0.031,,200525,,,D*72
$GNVTG,,T,,M,0.031,N,0.058,K,D*37
$GNGGA,074234.00,0419.84153,S,05539.92327,E,2,12,0.69,10.0,M,-47.6,M,,0000*4F
$GNGSA,A,3,05,12,24,18,15,25,23,13,29,10,,,1.27,0.69,1.07*12
$GNGSA,A,3,80,73,69,84,70,74,,,,,,,1.27,0.69,1.07*1A
$GPGSV,4,1,15,05,22,028,25,10,22,217,21,12,62,138,35,13,11,087,34*77
$GPGSV,4,2,15,15,44,111,40,18,27,313,35,23,64,232,33,24,24,161,37*73
$GPGSV,4,3,15,25,79,314,39,28,09,274,,29,22,002,34,36,52,277,*73
$GPGSV,4,4,15,40,86,351,40,41,58,082,,49,32,274,*4B
$GLGSV,3,1,10,68,02,043,09,69,37,077,36,70,40,169,25,71,05,200,*61
$GLGSV,3,2,10,73,63,231,27,74,39,306,19,80,24,167,37,84,07,353,10*60
$GLGSV,3,3,10,85,04,306,,,,,38*53
$GNGLL,0419.84153,S,05539.92327,E,074234.00,A,D*69
$GNTXT,01,01,01,More than 100 frame errors, UART RX was disabled*70
$GNRMC,074235.00,A,0419.84155,S,05539.92329,E,0.024,,200525,,,D*7F
$GNVTG,,T,,M,0.024,N,0.045,K,D*3F
$GNGGA,074235.00,0419.84155,S,05539.92329,E,2,12,0.69,9.9,M,-47.6,M,,0000*77
$GNGSA,A,3,05,12,24,18,15,25,23,13,29,10,,,1.27,0.69,1.07*12
$GNGSA,A,3,80,73,69,84,70,74,,,,,,,1.27,0.69,1.07*1A
$GPGSV,4,1,15,05,22,028,27,10,22,217,22,12,62,138,37,13,11,087,34*74
$GPGSV,4,2,15,15,44,111,40,18,27,313,36,23,64,232,34,24,24,161,38*78
$GPGSV,4,3,15,25,79,314,39,28,09,274,,29,22,002,35,36,52,277,*72
$GPGSV,4,4,15,40,86,351,39,41,58,082,,49,32,274,*45
$GLGSV,3,1,10,68,02,043,13,69,37,077,39,70,40,169,27,71,05,200,*67
$GLGSV,3,2,10,73,63,231,31,74,39,306,19,80,24,167,41,84,07,353,12*64
$GLGSV,3,3,10,85,04,306,,,,,42*5E
$GNGLL,0419.84155,S,05539.92329,E,074235.00,A,D*60
$GNTXT,01,01,01,More than 100 frame errors, UART RX was disabled*70
$GNRMC,074236.00,A,0419.84156,S,05539.92330,E,0.031,,200525,,,D*73
$GNVTG,,T,,M,0.031,N,0.057,K,D*38
$GNGGA,074236.00,0419.84156,S,05539.92330,E,2,12,0.69,9.9,M,-47.6,M,,0000*7F
$GNGSA,A,3,05,12,24,18,15,25,23,13,29,10,,,1.27,0.69,1.07*12
$GNGSA,A,3,80,73,69,84,70,74,,,,,,,1.27,0.69,1.07*1A
$GPGSV,4,1,15,05,22,028,27,10,22,217,22,12,62,138,36,13,11,087,33*72
$GPGSV,4,2,15,15,44,111,38,18,27,313,35,23,64,232,34,24,24,161,37*7B
$GPGSV,4,3,15,25,79,314,37,28,09,274,,29,22,002,32,36,52,277,*7B
$GPGSV,4,4,15,40,86,351,38,41,58,082,,49,32,274,*44
$GLGSV,3,1,10,68,02,043,11,69,37,077,39,70,40,169,28,71,05,200,*6A
$GLGSV,3,2,10,73,63,231,32,74,39,306,20,80,24,167,41,84,07,353,09*67
$GLGSV,3,3,10,85,04,306,,,,,42*5E
$GNGLL,0419.84156,S,05539.92330,E,074236.00,A,D*68
$GNTXT,01,01,01,More than 100 frame errors, UART RX was disabled*70
$GNRMC,074237.00,A,0419.84157,S,05539.92330,E,0.027,,200525,,,D*74
$GNVTG,,T,,M,0.027,N,0.051,K,D*39
$GNGGA,074237.00,0419.84157,S,05539.92330,E,2,12,0.69,9.9,M,-47.6,M,,0000*7F
$GNGSA,A,3,05,12,24,18,15,25,23,13,29,10,,,1.27,0.69,1.07*12
$GNGSA,A,3,80,73,69,84,70,74,,,,,,,1.27,0.69,1.07*1A
$GPGSV,4,1,15,05,22,028,27,10,22,217,23,12,62,138,36,13,11,087,34*74
$GPGSV,4,2,15,15,44,111,39,18,27,313,36,23,64,232,34,24,24,161,38*76
$GPGSV,4,3,15,25,79,314,38,28,09,274,,29,22,002,33,36,52,277,*75
$GPGSV,4,4,15,40,86,351,39,41,58,082,,49,32,274,*45
$GLGSV,3,1,10,68,02,043,15,69,37,077,39,70,40,169,28,71,05,200,*6E
$GLGSV,3,2,10,73,63,231,32,74,39,306,21,80,24,167,40,84,07,353,17*68
$GLGSV,3,3,10,85,04,306,,,,,41*5D
$GNGLL,0419.84157,S,05539.92330,E,074237.00,A,D*68
$GNTXT,01,01,01,More than 100 frame errors, UART RX was disabled*70
$GNRMC,074238.00,A,0419.84157,S,05539.92332,E,0.017,,200525,,,D*7A
$GNVTG,,T,,M,0.017,N,0.031,K,D*3C
$GNGGA,074238.00,0419.84157,S,05539.92332,E,2,12,0.66,9.8,M,-47.6,M,,0000*7C
$GNGSA,A,3,05,12,24,18,15,25,23,13,29,10,,,1.19,0.66,0.98*17
$GNGSA,A,3,80,73,69,84,70,74,,,,,,,1.19,0.66,0.98*1F
$GPGSV,4,1,15,05,22,028,27,10,22,217,24,12,62,138,37,13,11,087,35*73
$GPGSV,4,2,15,15,44,111,40,18,27,313,36,23,64,232,34,24,24,161,39*79
$GPGSV,4,3,15,25,79,314,39,28,09,274,,29,22,002,34,36,52,277,*73
$GPGSV,4,4,15,40,86,351,39,41,58,082,,49,32,274,*45
$GLGSV,3,1,10,68,02,043,14,69,37,077,39,70,40,169,28,71,05,200,*6F
$GLGSV,3,2,10,73,63,231,32,74,39,306,21,80,24,167,40,84,07,353,11*6E
$GLGSV,3,3,10,85,04,306,,,,,41*5D
$GNGLL,0419.84157,S,05539.92332,E,074238.00,A,D*65
$GNTXT,01,01,01,More than 100 frame errors, UART RX was disabled*70
$GNRMC,074239.00,A,0419.84158,S,05539.92333,E,0.006,,200525,,,D*75
$GNVTG,,T,,M,0.006,N,0.010,K,D*3F
$GNGGA,074239.00,0419.84158,S,05539.92333,E,2,12,0.69,9.8,M,-47.6,M,,0000*7C
$GNGSA,A,3,05,12,24,18,15,25,23,13,29,10,,,1.27,0.69,1.07*12
$GNGSA,A,3,80,73,69,84,70,74,,,,,,,1.27,0.69,1.07*1A
$GPGSV,4,1,15,05,21,028,27,10,22,217,24,12,62,138,35,13,11,087,33*74
$GPGSV,4,2,15,15,44,111,38,18,27,313,34,23,64,232,32,24,24,161,37*7C
$GPGSV,4,3,15,25,79,314,39,28,09,274,,29,22,002,32,36,52,277,*75
$GPGSV,4,4,15,40,86,351,38,41,58,082,,49,32,274,*44
$GLGSV,3,1,10,68,02,043,12,69,37,077,38,70,40,169,28,71,05,200,*68
$GLGSV,3,2,10,73,63,231,31,74,39,306,21,80,24,167,41,84,07,353,15*68
$GLGSV,3,3,10,85,04,306,,,,,41*5D
$GNGLL,0419.84158,S,05539.92333,E,074239.00,A,D*6A
$GNTXT,01,01,01,More than 100 frame errors, UART RX was disabled*70
$GNRMC,074240.00,A,0419.84158,S,05539.92334,E,0.020,,200525,,,D*78
$GNVTG,,T,,M,0.020,N,0.037,K,D*3E
$GNGGA,074240.00,0419.84158,S,05539.92334,E,2,12,0.69,9.7,M,-47.6,M,,0000*7A
$GNGSA,A,3,05,12,24,18,15,25,23,13,29,10,,,1.27,0.69,1.07*12
$GNGSA,A,3,80,73,69,84,70,74,,,,,,,1.27,0.69,1.07*1A
$GPGSV,4,1,15,05,21,028,27,10,22,217,24,12,62,138,38,13,11,087,34*7E
$GPGSV,4,2,15,15,44,111,40,18,27,313,36,23,64,232,34,24,24,161,38*78
$GPGSV,4,3,15,25,79,314,39,28,09,274,,29,22,002,34,36,52,277,*73
$GPGSV,4,4,15,40,86,351,39,41,58,082,,49,32,274,*45
$GLGSV,3,1,10,68,02,043,11,69,37,077,39,70,40,169,28,71,05,200,*6A
$GLGSV,3,2,10,73,63,231,31,74,39,306,21,80,24,167,41,84,07,353,11*6C
$GLGSV,3,3,10,85,04,306,,,,,41*5D
$GNGLL,0419.84158,S,05539.92334,E,074240.00,A,D*63
$GNTXT,01,01,01,More than 100 frame errors, UART RX was disabled*70
$GNRMC,074241.00,A,0419.84158,S,05539.92335,E,0.012,,200525,,,D*79
$GNVTG,,T,,M,0.012,N,0.022,K,D*3B
$GNGGA,074241.00,0419.84158,S,05539.92335,E,2,12,0.69,9.6,M,-47.6,M,,0000*7B
$GNGSA,A,3,05,12,24,18,15,25,23,13,29,10,,,1.27,0.69,1.07*12
$GNGSA,A,3,80,73,69,84,70,74,,,,,,,1.27,0.69,1.07*1A
$GPGSV,4,1,15,05,21,028,28,10,22,217,25,12,62,138,38,13,11,087,35*71
$GPGSV,4,2,15,15,44,111,41,18,27,313,36,23,64,232,35,24,24,161,39*79
$GPGSV,4,3,15,25,79,314,39,28,09,274,,29,22,002,35,36,52,277,*72
$GPGSV,4,4,15,40,86,351,40,41,58,082,,49,32,274,*4B
$GLGSV,3,1,10,68,02,043,11,69,37,077,39,70,40,169,28,71,05,200,*6A
$GLGSV,3,2,10,73,63,231,32,74,39,306,21,80,24,167,41,84,07,353,17*69
$GLGSV,3,3,10,85,04,306,,,,,41*5D
$GNGLL,0419.84158,S,05539.92335,E,074241.00,A,D*63
$GNTXT,01,01,01,More than 100 frame errors, UART RX was disabled*70
$GNRMC,074242.00,A,0419.84159,S,05539.92338,E,0.036,,200525,,,D*70
$GNVTG,,T,,M,0.036,N,0.067,K,D*3C
$GNGGA,074242.00,0419.84159,S,05539.92338,E,2,12,0.69,9.6,M,-47.6,M,,0000*74
$GNGSA,A,3,05,12,24,18,15,25,23,13,29,10,,,1.27,0.69,1.07*12
$GNGSA,A,3,80,73,69,84,70,74,,,,,,,1.27,0.69,1.07*1A
$GPGSV,4,1,15,05,21,028,29,10,22,217,26,12,62,138,38,13,11,087,35*73
$GPGSV,4,2,15,15,44,111,41,18,27,313,37,23,64,232,36,24,24,161,39*7B
$GPGSV,4,3,15,25,79,314,39,28,09,274,,29,22,002,35,36,52,277,*72
$GPGSV,4,4,15,40,86,351,40,41,58,082,,49,32,274,*4B
$GLGSV,3,1,10,68,02,043,10,69,37,077,40,70,40,169,29,71,05,200,*64
$GLGSV,3,2,10,73,63,231,33,74,39,306,22,80,24,167,42,84,07,353,16*69
$GLGSV,3,3,10,85,04,306,,,,,43*5F
$GNGLL,0419.84159,S,05539.92338,E,074242.00,A,D*6C
$GNTXT,01,01,01,More than 100 frame errors, UART RX was disabled*70
$GNRMC,074243.00,A,0419.84161,S,05539.92339,E,0.009,,200525,,,D*77
$GNVTG,,T,,M,0.009,N,0.017,K,D*37
$GNGGA,074243.00,0419.84161,S,05539.92339,E,2,12,0.69,9.6,M,-47.6,M,,0000*7F
$GNGSA,A,3,05,12,24,18,15,25,23,13,29,10,,,1.27,0.69,1.07*12
$GNGSA,A,3,80,73,69,84,70,74,,,,,,,1.27,0.69,1.07*1A
$GPGSV,4,1,15,05,21,028,28,10,22,217,25,12,62,138,36,13,11,087,33*79
$GPGSV,4,2,15,15,44,111,39,18,27,313,35,23,64,232,33,24,24,161,37*7D
$GPGSV,4,3,15,25,79,314,36,28,09,274,,29,22,002,34,36,52,277,*7C
$GPGSV,4,4,15,40,86,351,36,41,58,082,,49,32,274,*4A
$GLGSV,3,1,10,68,02,043,11,69,37,077,38,70,40,169,28,71,05,200,*6B
$GLGSV,3,2,10,73,63,231,32,74,39,306,21,80,24,167,39,84,07,353,15*64
$GLGSV,3,3,10,85,04,306,,,,,40*5C
$GNGLL,0419.84161,S,05539.92339,E,074243.00,A,D*67
$GNTXT,01,01,01,More than 100 frame errors, UART RX was disabled*70
$GNRMC,074244.00,A,0419.84162,S,05539.92342,E,0.030,,200525,,,D*75
$GNVTG,,T,,M,0.030,N,0.056,K,D*38
$GNGGA,074244.00,0419.84162,S,05539.92342,E,2,12,0.66,9.6,M,-47.6,M,,0000*78
$GNGSA,A,3,05,12,24,18,15,25,23,13,29,10,,,1.19,0.66,0.98*17
$GNGSA,A,3,80,73,69,84,70,74,,,,,,,1.19,0.66,0.98*1F
$GPGSV,4,1,15,05,21,028,32,10,22,217,23,12,62,138,38,13,11,087,36*7F
$GPGSV,4,2,15,15,44,111,43,18,27,313,39,23,64,232,37,24,24,161,39*76
$GPGSV,4,3,15,25,79,314,41,28,09,274,,29,22,002,34,36,52,277,*7C
$GPGSV,4,4,15,40,86,351,41,41,58,082,,49,32,274,*4A
$GLGSV,3,1,10,68,02,043,14,69,37,077,38,70,40,169,28,71,05,200,*6E
$GLGSV,3,2,10,73,63,231,33,74,39,306,21,80,24,167,41,84,07,353,11*6E
$GLGSV,3,3,10,85,04,306,,,,,42*5E
$GNGLL,0419.84162,S,05539.92342,E,074244.00,A,D*6F
$GNTXT,01,01,01,More than 100 frame errors, UART RX was disabled*70
$GNRMC,074245.00,A,0419.84162,S,05539.92345,E,0.011,,200525,,,D*70
$GNVTG,,T,,M,0.011,N,0.020,K,D*3A
$GNGGA,074245.00,0419.84162,S,05539.92345,E,2,12,0.69,9.5,M,-47.6,M,,0000*72
$GNGSA,A,3,05,12,24,18,15,25,23,13,29,10,,,1.27,0.69,1.07*12
$GNGSA,A,3,80,73,69,84,70,74,,,,,,,1.27,0.69,1.07*1A
$GPGSV,4,1,15,05,21,028,31,10,22,217,23,12,62,138,38,13,11,087,35*7F
$GPGSV,4,2,15,15,44,111,42,18,27,313,38,23,64,232,36,24,24,161,39*77
$GPGSV,4,3,15,25,79,314,39,28,09,274,,29,22,002,35,36,52,277,*72
$GPGSV,4,4,15,40,86,351,40,41,58,082,,49,32,274,*4B
$GLGSV,3,1,10,68,02,043,11,69,37,077,39,70,40,169,29,71,05,200,*6B
$GLGSV,3,2,10,73,63,231,36,74,39,306,21,80,24,167,42,84,07,353,13*6A
$GLGSV,3,3,10,85,04,306,,,,,43*5F
$GNGLL,0419.84162,S,05539.92345,E,074245.00,A,D*69
$GNTXT,01,01,01,More than 100 frame errors, UART RX was disabled*70
$GNRMC,074246.00,A,0419.84162,S,05539.92347,E,0.011,,200525,,,D*71
$GNVTG,,T,,M,0.011,N,0.021,K,D*3B
$GNGGA,074246.00,0419.84162,S,05539.92347,E,2,12,0.69,9.5,M,-47.6,M,,0000*73
$GNGSA,A,3,05,12,24,18,15,25,23,13,29,10,,,1.27,0.69,1.07*12
$GNGSA,A,3,80,73,69,84,70,74,,,,,,,1.27,0.69,1.07*1A
$GPGSV,4,1,15,05,21,028,30,10,22,217,25,12,62,139,37,13,11,087,35*76
$GPGSV,4,2,15,15,44,111,40,18,27,313,35,23,64,232,36,24,24,161,38*79
$GPGSV,4,3,15,25,79,314,38,28,09,274,,29,22,002,34,36,52,277,*72
$GPGSV,4,4,15,40,86,351,38,41,58,082,,49,32,274,*44
$GLGSV,3,1,10,68,02,043,11,69,37,077,37,70,40,169,28,71,05,200,*64
$GLGSV,3,2,10,73,63,231,34,74,39,306,22,80,24,167,40,84,07,353,14*6E
$GLGSV,3,3,10,85,04,306,,,,,42*5E
$GNGLL,0419.84162,S,05539.92347,E,074246.00,A,D*68
$GNTXT,01,01,01,More than 100 frame errors, UART RX was disabled*70
$GNRMC,074247.00,A,0419.84160,S,05539.92354,E,0.039,,200525,,,D*7A
$GNVTG,,T,,M,0.039,N,0.072,K,D*37
$GNGGA,074247.00,0419.84160,S,05539.92354,E,2,12,0.66,9.5,M,-47.6,M,,0000*7D
$GNGSA,A,3,05,12,24,18,15,25,23,13,29,10,,,1.19,0.66,0.98*17
$GNGSA,A,3,80,73,69,84,70,74,,,,,,,1.19,0.66,0.98*1F
$GPGSV,4,1,15,05,21,028,29,10,22,217,29,12,62,139,37,13,11,087,34*73
$GPGSV,4,2,15,15,44,111,40,18,27,313,36,23,64,232,39,24,24,161,39*74
$GPGSV,4,3,15,25,79,314,39,28,09,274,,29,22,002,35,36,52,277,*72
$GPGSV,4,4,15,40,86,351,39,41,58,082,,49,32,274,*45
$GLGSV,3,1,10,68,02,043,14,69,37,077,38,70,40,169,29,71,05,200,*6F
$GLGSV,3,2,10,73,63,231,36,74,39,306,21,80,24,167,42,84,07,353,14*6D
$GLGSV,3,3,10,85,04,306,,,,,43*5F
$GNGLL,0419.84160,S,05539.92354,E,074247.00,A,D*69
$GNTXT,01,01,01,More than 100 frame errors, UART RX was disabled*70
$GNRMC,074248.00,A,0419.84160,S,05539.92355,E,0.026,,200525,,,D*7A
$GNVTG,,T,,M,0.026,N,0.049,K,D*31
$GNGGA,074248.00,0419.84160,S,05539.92355,E,2,12,0.69,9.5,M,-47.6,M,,0000*7C
$GNGSA,A,3,05,12,24,18,15,25,23,13,29,10,,,1.27,0.69,1.07*12
$GNGSA,A,3,80,73,69,84,70,74,,,,,,,1.27,0.69,1.07*1A
$GPGSV,4,1,15,05,21,028,30,10,22,217,32,12,62,139,39,13,11,087,37*7C
$GPGSV,4,2,15,15,44,111,40,18,27,313,40,23,64,232,40,24,24,161,40*75
$GPGSV,4,3,15,25,79,314,39,28,09,274,,29,22,002,37,36,52,277,*70
$GPGSV,4,4,15,40,86,351,40,41,58,082,,49,32,274,*4B
$GLGSV,3,1,10,68,02,043,10,69,37,077,37,70,40,169,31,71,05,200,*6D
$GLGSV,3,2,10,73,63,231,32,74,39,306,24,80,24,167,41,84,07,353,13*68
$GLGSV,3,3,10,85,04,306,,,,,42*5E
$GNGLL,0419.84160,S,05539.92355,E,074248.00,A,D*67
$GNTXT,01,01,01,More than 100 frame errors, UART RX was disabled*70
$GNRMC,074249.00,A,0419.84159,S,05539.92358,E,0.043,,200525,,,D*7F
$GNVTG,,T,,M,0.043,N,0.080,K,D*37
$GNGGA,074249.00,0419.84159,S,05539.92358,E,2,12,0.69,9.4,M,-47.6,M,,0000*7B
$GNGSA,A,3,05,12,24,18,15,25,23,13,29,10,,,1.27,0.69,1.07*12
$GNGSA,A,3,80,73,69,84,70,74,,,,,,,1.27,0.69,1.07*1A
$GPGSV,4,1,15,05,21,028,30,10,22,217,34,12,62,139,41,13,11,087,35*77
$GPGSV,4,2,15,15,44,110,41,18,27,313,41,23,64,232,41,24,24,161,42*77
$GPGSV,4,3,15,25,79,314,43,28,09,274,,29,22,002,37,36,52,277,*7D
$GPGSV,4,4,15,40,86,351,42,41,58,082,,49,32,274,*49
$GLGSV,3,1,10,68,02,043,10,69,37,077,38,70,40,169,30,71,05,200,*63
$GLGSV,3,2,10,73,63,231,36,74,39,306,24,80,24,167,42,84,07,353,15*69
$GLGSV,3,3,10,85,04,306,,,,,41*5D
$GNGLL,0419.84159,S,05539.92358,E,074249.00,A,D*61
$GNTXT,01,01,01,More than 100 frame errors, UART RX was disabled*70
$GNRMC,074250.00,A,0419.84160,S,05539.92358,E,0.088,,200525,,,D*7A
$GNVTG,,T,,M,0.088,N,0.164,K,D*3B
$GNGGA,074250.00,0419.84160,S,05539.92358,E,2,12,0.69,9.4,M,-47.6,M,,0000*79
$GNGSA,A,3,05,12,24,18,15,25,23,13,29,10,,,1.27,0.69,1.07*12
$GNGSA,A,3,80,73,69,84,70,74,,,,,,,1.27,0.69,1.07*1A
$GPGSV,4,1,15,05,21,028,29,10,22,217,34,12,62,139,37,13,11,087,34*7F
$GPGSV,4,2,15,15,44,110,38,18,27,313,37,23,64,232,37,24,24,161,39*75
$GPGSV,4,3,15,25,79,314,39,28,09,274,,29,22,002,35,36,52,277,*72
$GPGSV,4,4,15,40,86,351,39,41,58,082,,49,32,274,*45
$GLGSV,3,1,10,68,02,043,14,69,37,077,37,70,40,169,30,71,05,200,*68
$GLGSV,3,2,10,73,63,231,35,74,39,306,23,80,24,167,37,84,07,353,14*6E
$GLGSV,3,3,10,85,04,306,,,,,36*5D
$GNGLL,0419.84160,S,05539.92358,E,074250.00,A,D*63
$GNTXT,01,01,01,More than 100 frame errors, UART RX was disabled*70
$GNRMC,074251.00,A,0419.84161,S,05539.92356,E,0.086,,200525,,,D*7A
$GNVTG,,T,,M,0.086,N,0.159,K,D*3B
$GNGGA,074251.00,0419.84161,S,05539.92356,E,2,12,0.69,9.4,M,-47.6,M,,0000*77
$GNGSA,A,3,05,12,24,18,15,25,23,13,29,10,,,1.27,0.69,1.07*12
$GNGSA,A,3,80,73,69,84,70,74,,,,,,,1.27,0.69,1.07*1A
$GPGSV,4,1,15,05,21,028,30,10,22,217,28,12,62,139,38,13,11,087,34*75
$GPGSV,4,2,15,15,44,110,40,18,27,313,37,23,64,232,40,24,24,161,41*75
$GPGSV,4,3,15,25,79,314,41,28,09,274,,29,22,002,36,36,52,277,*7E
$GPGSV,4,4,15,40,86,351,41,41,58,082,,49,32,274,*4A
$GLGSV,3,1,10,68,02,043,14,69,37,077,40,70,40,169,30,71,05,200,*68
$GLGSV,3,2,10,73,63,231,37,74,39,306,20,80,24,167,42,84,07,353,17*6E
$GLGSV,3,3,10,85,04,306,,,,,43*5F
$GNGLL,0419.84161,S,05539.92356,E,074251.00,A,D*6D
$GNTXT,01,01,01,More than 100 frame errors, UART RX was disabled*70
$GNRMC,074252.00,A,0419.84161,S,05539.92356,E,0.039,,200525,,,D*7D
$GNVTG,,T,,M,0.039,N,0.073,K,D*36
$GNGGA,074252.00,0419.84161,S,05539.92356,E,2,12,0.69,9.4,M,-47.6,M,,0000*74
$GNGSA,A,3,05,12,24,18,15,25,23,13,29,10,,,1.27,0.69,1.07*12
$GNGSA,A,3,80,73,69,84,70,74,,,,,,,1.27,0.69,1.07*1A
$GPGSV,4,1,15,05,21,028,31,10,22,217,28,12,62,139,42,13,11,087,35*78
$GPGSV,4,2,15,15,44,110,44,18,26,314,41,23,64,232,41,24,24,161,42*74
$GPGSV,4,3,15,25,79,314,42,28,09,274,,29,22,002,37,36,52,277,*7C
$GPGSV,4,4,15,40,86,351,41,41,58,082,35,49,32,274,*4C
$GLGSV,3,1,10,68,02,043,13,69,37,077,38,70,40,169,30,71,05,200,*60
$GLGSV,3,2,10,73,63,231,35,74,39,306,23,80,24,167,41,84,07,353,14*6F
$GLGSV,3,3,10,85,04,306,,,,,43*5F
$GNGLL,0419.84161,S,05539.92356,E,074252.00,A,D*6E
$GNTXT,01,01,01,More than 100 frame errors, UART RX was disabled*70
$GNRMC,074253.00,A,0419.84160,S,05539.92356,E,0.052,,200525,,,D*70
$GNVTG,,T,,M,0.052,N,0.096,K,D*30
$GNGGA,074253.00,0419.84160,S,05539.92356,E,2,12,0.69,9.3,M,-47.6,M,,0000*73
$GNGSA,A,3,05,12,24,18,15,25,23,13,29,10,,,1.27,0.69,1.07*12
$GNGSA,A,3,80,73,69,84,70,74,,,,,,,1.27,0.69,1.07*1A
$GPGSV,4,1,15,05,21,028,32,10,22,217,34,12,62,139,42,13,11,087,34*77
$GPGSV,4,2,15,15,44,110,42,18,26,314,39,23,64,232,39,24,24,161,41*71
$GPGSV,4,3,15,25,79,314,41,28,09,274,,29,22,002,37,36,52,277,*7F
$GPGSV,4,4,15,40,86,351,42,41,58,082,35,49,32,274,*4F
$GLGSV,3,1,10,68,02,043,15,69,37,077,33,70,40,169,29,71,05,200,*65
$GLGSV,3,2,10,73,63,231,35,74,39,306,23,80,24,167,41,84,07,353,17*6C
$GLGSV,3,3,10,85,04,306,,,,,42*5E
$GNGLL,0419.84160,S,05539.92356,E,074253.00,A,D*6E
$GNTXT,01,01,01,More than 100 frame errors, UART RX was disabled*70
$GNRMC,074254.00,A,0419.84159,S,05539.92357,E,0.023,,200525,,,D*7A
$GNVTG,,T,,M,0.023,N,0.042,K,D*3F
$GNGGA,074254.00,0419.84159,S,05539.92357,E,2,12,0.69,9.3,M,-47.6,M,,0000*7F
$GNGSA,A,3,05,12,24,18,15,25,23,13,29,10,,,1.27,0.69,1.07*12
$GNGSA,A,3,80,73,69,84,70,74,,,,,,,1.27,0.69,1.07*1A
$GPGSV,4,1,15,05,21,028,32,10,22,217,34,12,62,139,43,13,11,087,38*7A
$GPGSV,4,2,15,15,44,110,44,18,26,314,40,23,64,232,39,24,24,161,42*7A
$GPGSV,4,3,15,25,79,314,43,28,09,274,,29,22,002,36,36,52,277,*7C
$GPGSV,4,4,15,40,86,351,43,41,58,082,36,49,32,274,*4D
$GLGSV,3,1,10,68,02,043,15,69,37,077,40,70,40,169,31,71,05,200,*68
$GLGSV,3,2,10,73,63,231,33,74,39,306,24,80,24,167,43,84,07,353,12*6A
$GLGSV,3,3,10,85,04,306,,,,,44*58
$GNGLL,0419.84159,S,05539.92357,E,074254.00,A,D*62
$GNTXT,01,01,01,More than 100 frame errors, UART RX was disabled*70
$GNRMC,074255.00,A,0419.84159,S,05539.92358,E,0.010,,200525,,,D*74
$GNVTG,,T,,M,0.010,N,0.019,K,D*31
$GNGGA,074255.00,0419.84159,S,05539.92358,E,2,12,0.69,9.3,M,-47.6,M,,0000*71
$GNGSA,A,3,05,12,24,18,15,25,23,13,29,10,,,1.27,0.69,1.07*12
$GNGSA,A,3,80,73,69,84,70,74,,,,,,,1.27,0.69,1.07*1A
$GPGSV,4,1,15,05,21,028,32,10,22,217,35,12,62,139,40,13,11,087,38*78
$GPGSV,4,2,15,15,44,110,43,18,26,314,39,23,64,232,38,24,24,161,40*70
$GPGSV,4,3,15,25,79,314,42,28,09,274,,29,22,002,34,36,52,277,*7F
$GPGSV,4,4,15,40,86,351,43,41,58,082,36,49,32,274,*4D
$GLGSV,3,1,10,68,02,043,14,69,37,077,37,70,40,169,31,71,05,200,*69
$GLGSV,3,2,10,73,63,231,32,74,39,306,23,80,24,167,40,84,07,353,15*68
$GLGSV,3,3,10,85,04,306,,,,,42*5E
$GNGLL,0419.84159,S,05539.92358,E,074255.00,A,D*6C
$GNTXT,01,01,01,More than 100 frame errors, UART RX was disabled*70
$GNRMC,074256.00,A,0419.84158,S,05539.92359,E,0.013,,200525,,,D*74
$GNVTG,,T,,M,0.013,N,0.024,K,D*3C
$GNGGA,074256.00,0419.84158,S,05539.92359,E,2,12,0.69,9.3,M,-47.6,M,,0000*72
$GNGSA,A,3,05,12,24,18,15,25,23,13,29,10,,,1.27,0.69,1.07*12
$GNGSA,A,3,80,73,69,84,70,74,,,,,,,1.27,0.69,1.07*1A
$GPGSV,4,1,15,05,21,028,32,10,22,217,35,12,62,139,39,13,11,087,37*79
$GPGSV,4,2,15,15,44,110,43,18,26,314,39,23,64,233,35,24,24,161,40*7C
$GPGSV,4,3,15,25,79,314,43,28,09,274,,29,22,002,34,36,52,277,*7E
$GPGSV,4,4,15,40,86,351,44,41,58,082,39,49,32,274,*45
$GLGSV,3,1,10,68,02,043,11,69,37,077,36,70,40,169,31,71,05,200,*6D
$GLGSV,3,2,10,73,63,231,30,74,39,306,24,80,24,167,41,84,07,353,14*6D
$GLGSV,3,3,10,85,04,306,,,,,39*52
$GNGLL,0419.84158,S,05539.92359,E,074256.00,A,D*6F
$GNTXT,01,01,01,More than 100 frame errors, UART RX was disabled*70
$GNRMC,074257.00,A,0419.84158,S,05539.92359,E,0.038,,200525,,,D*7C
$GNVTG,,T,,M,0.038,N,0.071,K,D*35
$GNGGA,074257.00,0419.84158,S,05539.92359,E,2,12,0.69,9.3,M,-47.6,M,,0000*73
$GNGSA,A,3,05,12,24,18,15,25,23,13,29,10,,,1.27,0.69,1.07*12
$GNGSA,A,3,80,73,69,84,70,74,,,,,,,1.27,0.69,1.07*1A
$GPGSV,4,1,15,05,21,028,32,10,22,217,29,12,62,139,42,13,11,087,36*79
$GPGSV,4,2,15,15,44,110,41,18,26,314,38,23,64,233,38,24,24,160,40*73
$GPGSV,4,3,15,25,79,314,43,28,09,274,,29,22,002,34,36,52,277,*7E
$GPGSV,4,4,15,40,86,351,44,41,58,082,39,49,32,274,*45
$GLGSV,3,1,10,68,02,043,12,69,37,077,36,70,40,169,30,71,05,200,*6F
$GLGSV,3,2,10,73,63,231,34,74,39,306,23,80,24,167,41,84,07,353,13*69
$GLGSV,3,3,10,85,04,306,,,,,41*5D
$GNGLL,0419.84158,S,05539.92359,E,074257.00,A,D*6E
$GNTXT,01,01,01,More than 100 frame errors, UART RX was disabled*70
$GNRMC,074258.00,A,0419.84157,S,05539.92360,E,0.036,,200525,,,D*78
$GNVTG,,T,,M,0.036,N,0.066,K,D*3D
$GNGGA,074258.00,0419.84157,S,05539.92360,E,2,12,0.69,9.4,M,-47.6,M,,0000*7E
$GNGSA,A,3,05,12,24,18,15,25,23,13,29,10,,,1.27,0.69,1.07*12
$GNGSA,A,3,80,73,69,84,70,74,,,,,,,1.27,0.69,1.07*1A
$GPGSV,4,1,15,05,21,028,31,10,22,217,35,12,62,139,40,13,11,087,35*76
$GPGSV,4,2,15,15,44,110,42,18,26,314,37,23,64,233,37,24,24,160,40*70
$GPGSV,4,3,15,25,80,312,42,28,09,274,,29,22,002,35,36,52,277,*7E
$GPGSV,4,4,15,40,86,351,44,41,58,082,38,49,32,274,*44
$GLGSV,3,1,10,68,02,043,14,69,37,077,36,70,40,169,29,71,05,200,*61
$GLGSV,3,2,10,73,63,231,33,74,39,306,23,80,24,167,41,84,07,353,15*68
$GLGSV,3,3,10,85,04,306,,,,,40*5C
$GNGLL,0419.84157,S,05539.92360,E,074258.00,A,D*64
$GNTXT,01,01,01,More than 100 frame errors, UART RX was disabled*70
$GNRMC,074259.00,A,0419.84157,S,05539.92361,E,0.026,,200525,,,D*79
$GNVTG,,T,,M,0.026,N,0.048,K,D*30
$GNGGA,074259.00,0419.84157,S,05539.92361,E,2,12,0.69,9.4,M,-47.6,M,,0000*7E
$GNGSA,A,3,05,12,24,18,15,25,23,13,29,10,,,1.27,0.69,1.07*12
$GNGSA,A,3,80,73,69,84,70,74,,,,,,,1.27,0.69,1.07*1A
$GPGSV,4,1,15,05,21,028,31,10,22,217,34,12,62,139,39,13,11,087,34*78
$GPGSV,4,2,15,15,44,110,42,18,26,314,38,23,64,233,36,24,24,160,40*7E
$GPGSV,4,3,15,25,80,312,42,28,09,274,,29,22,002,35,36,52,277,*7E
$GPGSV,4,4,15,40,86,351,44,41,58,082,38,49,32,274,*44
$GLGSV,3,1,10,68,02,043,12,69,37,077,36,70,40,169,29,71,05,200,*67
$GLGSV,3,2,10,73,63,231,32,74,39,306,24,80,24,167,41,84,07,353,16*6D
$GLGSV,3,3,10,85,04,306,,,,,40*5C
$GNGLL,0419.84157,S,05539.92361,E,074259.00,A,D*64
$GNTXT,01,01,01,More than 100 frame errors, UART RX was disabled*70
$GNRMC,074300.00,A,0419.84157,S,05539.92363,E,0.044,,200525,,,D*72
$GNVTG,,T,,M,0.044,N,0.082,K,D*32
$GNGGA,074300.00,0419.84157,S,05539.92363,E,2,12,0.69,9.4,M,-47.6,M,,0000*71
$GNGSA,A,3,05,12,24,18,15,25,23,13,29,10,,,1.27,0.69,1.07*12
$GNGSA,A,3,80,73,69,84,70,74,,,,,,,1.27,0.69,1.07*1A
$GPGSV,4,1,15,05,21,028,30,10,22,217,33,12,62,139,38,13,11,087,34*7F
