$GNTXT,01,01,01,More than 100 frame errors, UART RX was disabled*70
$GNRMC,073748.00,A,0419.84051,S,05539.92983,E,0.033,,200525,,,A*7B
$GNVTG,,T,,M,0.033,N,0.061,K,A*3A
$GNGGA,073748.00,0419.84051,S,05539.92983,E,1,12,0.66,9.0,M,-47.6,M,,*75
$GNGSA,A,3,05,12,24,18,15,25,23,13,29,10,,,1.18,0.66,0.98*16
$GNGSA,A,3,80,73,69,84,70,74,,,,,,,1.18,0.66,0.98*1E
$GPGSV,4,1,15,05,23,029,39,10,20,216,38,12,64,135,37,13,11,089,35*77
$GPGSV,4,2,15,15,44,115,34,18,27,311,35,23,62,228,34,24,25,163,36*7E
$GPGSV,4,3,15,25,77,322,36,28,09,276,,29,21,000,34,36,52,277,33*74
$GPGSV,4,4,15,40,86,351,39,41,58,082,34,49,32,274,*42
$GLGSV,3,1,10,68,03,045,36,69,38,080,33,70,38,171,20,71,03,202,*6F
$GLGSV,3,2,10,73,64,237,33,74,37,309,30,80,26,167,31,84,07,351,22*69
$GLGSV,3,3,10,85,04,304,,,,,32*5B
$GNGLL,0419.84051,S,05539.92983,E,073748.00,A,A*62
$GNTXT,01,01,01,More than 100 frame errors, UART RX was disabled*70
$GNRMC,073749.00,A,0419.84052,S,05539.92981,E,0.028,,200525,,,A*71
$GNVTG,,T,,M,0.028,N,0.052,K,A*30
$GNGGA,073749.00,0419.84052,S,05539.92981,E,1,12,0.66,9.0,M,-47.6,M,,*75
$GNGSA,A,3,05,12,24,18,15,25,23,13,29,10,,,1.18,0.66,0.98*16
$GNGSA,A,3,80,73,69,84,70,74,,,,,,,1.18,0.66,0.98*1E
$GPGSV,4,1,15,05,23,029,41,10,20,216,38,12,64,135,39,13,11,089,37*74
$GPGSV,4,2,15,15,44,114,36,18,27,311,36,23,62,228,35,24,25,163,39*70
$GPGSV,4,3,15,25,77,322,36,28,09,276,,29,21,000,34,36,52,277,33*74
$GPGSV,4,4,15,40,86,351,41,41,58,082,35,49,32,274,*4C
$GLGSV,3,1,10,68,03,045,37,69,38,080,37,70,38,171,19,71,03,202,*60
$GLGSV,3,2,10,73,64,237,33,74,37,309,30,80,26,167,32,84,07,351,22*6A
$GLGSV,3,3,10,85,04,304,,,,,32*5B
$GNGLL,0419.84052,S,05539.92981,E,073749.00,A,A*62
$GNTXT,01,01,01,More than 100 frame errors, UART RX was disabled*70
$GNRMC,073750.00,A,0419.84053,S,05539.92980,E,0.047,,200525,,,A*70
$GNVTG,,T,,M,0.047,N,0.087,K,A*31
$GNGGA,073750.00,0419.84053,S,05539.92980,E,1,12,0.66,9.0,M,-47.6,M,,*7D
$GNGSA,A,3,05,12,24,18,15,25,23,13,29,10,,,1.18,0.66,0.98*16
$GNGSA,A,3,80,73,69,84,70,74,,,,,,,1.18,0.66,0.98*1E
$GPGSV,4,1,15,05,23,029,41,10,20,216,39,12,64,135,39,13,11,089,37*75
$GPGSV,4,2,15,15,44,114,38,18,27,311,37,23,62,228,36,24,25,163,39*7C
$GPGSV,4,3,15,25,77,322,38,28,09,276,,29,21,000,35,36,52,277,34*7C
$GPGSV,4,4,15,40,86,351,40,41,58,082,38,49,32,274,*40
$GLGSV,3,1,10,68,03,045,38,69,38,080,38,70,38,171,20,71,03,202,*6A
$GLGSV,3,2,10,73,64,237,35,74,37,309,31,80,26,167,34,84,07,351,21*68
$GLGSV,3,3,10,85,04,304,,,,,34*5D
$GNGLL,0419.84053,S,05539.92980,E,073750.00,A,A*6A
$GNTXT,01,01,01,More than 100 frame errors, UART RX was disabled*70
$GNRMC,073751.00,A,0419.84054,S,05539.92980,E,0.011,,200525,,,A*75
$GNVTG,,T,,M,0.011,N,0.021,K,A*3E
$GNGGA,073751.00,0419.84054,S,05539.92980,E,1,12,0.66,9.0,M,-47.6,M,,*7B
$GNGSA,A,3,05,12,24,18,15,25,23,13,29,10,,,1.18,0.66,0.98*16
$GNGSA,A,3,80,73,69,84,70,74,,,,,,,1.18,0.66,0.98*1E
$GPGSV,4,1,15,05,23,029,42,10,20,216,39,12,64,135,42,13,11,089,36*7B
$GPGSV,4,2,15,15,44,114,36,18,27,311,37,23,62,228,36,24,25,163,40*7C
$GPGSV,4,3,15,25,77,322,39,28,09,276,,29,21,000,36,36,52,277,36*7C
$GPGSV,4,4,15,40,86,351,42,41,58,082,36,49,32,274,*4C
$GLGSV,3,1,10,68,03,045,41,69,38,080,39,70,38,171,21,71,03,202,*64
$GLGSV,3,2,10,73,64,237,35,74,37,309,32,80,26,167,34,84,07,351,22*68
$GLGSV,3,3,10,85,04,304,,,,,36*5F
$GNGLL,0419.84054,S,05539.92980,E,073751.00,A,A*6C
$GNTXT,01,01,01,More than 100 frame errors, UART RX was disabled*70
$GNRMC,073752.00,A,0419.84054,S,05539.92981,E,0.034,,200525,,,A*70
$GNVTG,,T,,M,0.034,N,0.062,K,A*3E
$GNGGA,073752.00,0419.84054,S,05539.92981,E,1,12,0.66,9.1,M,-47.6,M,,*78
$GNGSA,A,3,05,12,24,18,15,25,23,13,29,10,,,1.18,0.66,0.98*16
$GNGSA,A,3,80,73,69,84,70,74,,,,,,,1.18,0.66,0.98*1E
$GPGSV,4,1,15,05,23,029,42,10,20,216,38,12,64,135,40,13,11,089,36*78
$GPGSV,4,2,15,15,44,114,39,18,27,311,35,23,62,228,34,24,25,163,38*7C
$GPGSV,4,3,15,25,77,322,38,28,09,276,,29,21,000,38,36,52,277,34*71
$GPGSV,4,4,15,40,86,351,41,41,58,082,38,49,32,274,*41
$GLGSV,3,1,10,68,03,045,42,69,38,080,39,70,38,171,22,71,03,202,*64
$GLGSV,3,2,10,73,64,237,34,74,37,309,30,80,26,167,32,84,07,351,24*6B
$GLGSV,3,3,10,85,04,304,,,,,33*5A
$GNGLL,0419.84054,S,05539.92981,E,073752.00,A,A*6E
$GNTXT,01,01,01,More than 100 frame errors, UART RX was disabled*70
$GNRMC,073753.00,A,0419.84054,S,05539.92981,E,0.030,,200525,,,A*75
$GNVTG,,T,,M,0.030,N,0.055,K,A*3E
$GNGGA,073753.00,0419.84054,S,05539.92981,E,1,12,0.66,9.1,M,-47.6,M,,*79
$GNGSA,A,3,05,12,24,18,15,25,23,13,29,10,,,1.18,0.66,0.98*16
$GNGSA,A,3,80,73,69,84,70,74,,,,,,,1.18,0.66,0.98*1E
$GPGSV,4,1,15,05,23,029,42,10,20,216,37,12,64,135,38,13,11,089,37*79
$GPGSV,4,2,15,15,44,114,39,18,27,311,34,23,62,228,33,24,25,163,38*7A
$GPGSV,4,3,15,25,77,322,38,28,09,276,,29,21,000,38,36,52,277,32*77
$GPGSV,4,4,15,40,86,351,41,41,58,082,38,49,32,274,*41
$GLGSV,3,1,10,68,03,045,40,69,38,080,38,70,38,171,22,71,03,202,*67
$GLGSV,3,2,10,73,64,237,33,74,37,309,30,80,26,167,32,84,07,351,25*6D
$GLGSV,3,3,10,85,04,304,,,,,33*5A
$GNGLL,0419.84054,S,05539.92981,E,073753.00,A,A*6F
$GNTXT,01,01,01,More than 100 frame errors, UART RX was disabled*70
$GNRMC,073754.00,A,0419.84055,S,05539.92981,E,0.024,,200525,,,A*76
$GNVTG,,T,,M,0.024,N,0.045,K,A*3A
$GNGGA,073754.00,0419.84055,S,05539.92981,E,1,12,0.66,9.2,M,-47.6,M,,*7C
$GNGSA,A,3,05,12,24,18,15,25,23,13,29,10,,,1.18,0.66,0.98*16
$GNGSA,A,3,80,73,69,84,70,74,,,,,,,1.18,0.66,0.98*1E
$GPGSV,4,1,15,05,23,029,43,10,20,216,39,12,64,135,40,13,11,089,37*79
$GPGSV,4,2,15,15,44,114,38,18,27,311,34,23,62,228,36,24,25,163,38*7E
$GPGSV,4,3,15,25,77,322,38,28,09,276,,29,21,000,38,36,52,277,31*74
$GPGSV,4,4,15,40,86,351,42,41,58,082,38,49,32,274,*42
$GLGSV,3,1,10,68,03,045,43,69,38,080,41,70,38,171,23,71,03,202,*6B
$GLGSV,3,2,10,73,64,237,34,74,37,309,31,80,26,167,32,84,07,351,26*68
$GLGSV,3,3,10,85,04,304,,,,,34*5D
$GNGLL,0419.84055,S,05539.92981,E,073754.00,A,A*69
$GNTXT,01,01,01,More than 100 frame errors, UART RX was disabled*70
$GNRMC,073755.00,A,0419.84056,S,05539.92981,E,0.003,,200525,,,A*71
$GNVTG,,T,,M,0.003,N,0.006,K,A*38
$GNGGA,073755.00,0419.84056,S,05539.92981,E,1,12,0.66,9.2,M,-47.6,M,,*7E
$GNGSA,A,3,05,12,24,18,15,25,23,13,29,10,,,1.18,0.66,0.98*16
$GNGSA,A,3,80,73,69,84,70,74,,,,,,,1.18,0.66,0.98*1E
$GPGSV,4,1,15,05,23,029,42,10,20,216,40,12,64,135,41,13,11,089,39*79
$GPGSV,4,2,15,15,44,114,38,18,27,311,35,23,62,228,37,24,25,163,38*7E
$GPGSV,4,3,15,25,77,322,38,28,09,276,,29,21,000,37,36,52,277,32*78
$GPGSV,4,4,15,40,86,351,42,41,58,082,38,49,32,274,*42
$GLGSV,3,1,10,68,03,045,43,69,38,080,38,70,38,171,24,71,03,202,*62
$GLGSV,3,2,10,73,64,237,35,74,37,309,31,80,26,167,31,84,07,351,26*6A
$GLGSV,3,3,10,85,04,304,,,,,34*5D
$GNGLL,0419.84056,S,05539.92981,E,073755.00,A,A*6B
$GNTXT,01,01,01,More than 100 frame errors, UART RX was disabled*70
$GNRMC,073756.00,A,0419.84057,S,05539.92981,E,0.011,,200525,,,A*70
$GNVTG,,T,,M,0.011,N,0.021,K,A*3E
$GNGGA,073756.00,0419.84057,S,05539.92981,E,1,12,0.66,9.2,M,-47.6,M,,*7C
$GNGSA,A,3,05,12,24,18,15,25,23,13,29,10,,,1.18,0.66,0.98*16
$GNGSA,A,3,80,73,69,84,70,74,,,,,,,1.18,0.66,0.98*1E
$GPGSV,4,1,15,05,23,029,39,10,20,216,35,12,64,135,38,13,11,089,34*74
$GPGSV,4,2,15,15,44,114,33,18,27,311,31,23,62,229,34,24,25,163,36*7D
$GPGSV,4,3,15,25,77,322,36,28,09,276,,29,21,000,34,36,52,277,31*76
$GPGSV,4,4,15,40,86,351,39,41,58,082,35,49,32,274,*43
$GLGSV,3,1,10,68,03,045,36,69,38,080,32,70,38,171,23,71,03,202,*6D
$GLGSV,3,2,10,73,64,237,31,74,37,309,25,80,26,167,27,84,07,351,24*6E
$GLGSV,3,3,10,85,04,304,,,,,30*59
$GNGLL,0419.84057,S,05539.92981,E,073756.00,A,A*69
$GNTXT,01,01,01,More than 100 frame errors, UART RX was disabled*70
$GNRMC,073757.00,A,0419.84057,S,05539.92980,E,0.005,,200525,,,A*75
$GNVTG,,T,,M,0.005,N,0.009,K,A*31
$GNGGA,073757.00,0419.84057,S,05539.92980,E,1,12,0.66,9.2,M,-47.6,M,,*7C
$GNGSA,A,3,05,12,24,18,15,25,23,13,29,10,,,1.18,0.66,0.98*16
$GNGSA,A,3,80,73,69,84,70,74,,,,,,,1.18,0.66,0.98*1E
$GPGSV,4,1,15,05,23,029,41,10,20,216,38,12,64,135,41,13,11,089,37*7B
$GPGSV,4,2,15,15,44,114,34,18,27,311,33,23,62,229,35,24,25,162,38*76
$GPGSV,4,3,15,25,77,322,39,28,09,276,,29,21,000,34,36,52,277,32*7A
$GPGSV,4,4,15,40,86,351,42,41,58,082,36,49,32,274,*4C
$GLGSV,3,1,10,68,03,045,39,69,38,080,35,70,38,171,22,71,03,202,*64
$GLGSV,3,2,10,73,64,237,35,74,37,309,31,80,26,167,32,84,07,351,24*6B
$GLGSV,3,3,10,85,04,304,,,,,34*5D
$GNGLL,0419.84057,S,05539.92980,E,073757.00,A,A*69
$GNTXT,01,01,01,More than 100 frame errors, UART RX was disabled*70
$GNRMC,073758.00,A,0419.84058,S,05539.92981,E,0.026,,200525,,,A*75
$GNVTG,,T,,M,0.026,N,0.048,K,A*35
$GNGGA,073758.00,0419.84058,S,05539.92981,E,1,12,0.66,9.3,M,-47.6,M,,*7C
$GNGSA,A,3,05,12,24,18,15,25,23,13,29,10,,,1.18,0.66,0.98*16
$GNGSA,A,3,80,73,69,84,70,74,,,,,,,1.18,0.66,0.98*1E
$GPGSV,4,1,15,05,23,029,42,10,20,216,40,12,64,135,42,13,11,089,37*74
$GPGSV,4,2,15,15,44,114,37,18,27,311,35,23,62,229,35,24,25,162,40*7C
$GPGSV,4,3,15,25,78,320,39,28,09,276,,29,21,000,35,36,52,277,33*77
$GPGSV,4,4,15,40,86,351,42,41,58,082,38,49,32,274,*42
$GLGSV,3,1,10,68,03,045,41,69,38,080,38,70,38,171,23,71,03,202,*67
$GLGSV,3,2,10,73,64,237,35,74,37,309,31,80,26,167,32,84,07,351,24*6B
$GLGSV,3,3,10,85,04,304,,,,,35*5C
$GNGLL,0419.84058,S,05539.92981,E,073758.00,A,A*68
$GNTXT,01,01,01,More than 100 frame errors, UART RX was disabled*70
$GNRMC,073759.00,A,0419.84059,S,05539.92981,E,0.008,,200525,,,A*79
$GNVTG,,T,,M,0.008,N,0.015,K,A*31
$GNGGA,073759.00,0419.84059,S,05539.92981,E,1,12,0.66,9.3,M,-47.6,M,,*7C
$GNGSA,A,3,05,12,24,18,15,25,23,13,29,10,,,1.18,0.66,0.98*16
$GNGSA,A,3,80,73,69,84,70,74,,,,,,,1.18,0.66,0.98*1E
$GPGSV,4,1,15,05,23,029,40,10,20,216,37,12,64,135,40,13,11,089,36*75
$GPGSV,4,2,15,15,44,114,36,18,27,311,35,23,62,229,36,24,25,162,35*7C
$GPGSV,4,3,15,25,78,320,36,28,09,276,,29,21,000,35,36,52,277,33*78
$GPGSV,4,4,15,40,86,351,39,41,58,082,36,49,32,274,*40
$GLGSV,3,1,10,68,03,045,35,69,38,080,33,70,38,171,23,71,03,202,*6F
$GLGSV,3,2,10,73,64,237,33,74,37,309,26,80,26,167,29,84,07,351,25*60
$GLGSV,3,3,10,85,04,304,,,,,32*5B
$GNGLL,0419.84059,S,05539.92981,E,073759.00,A,A*68
$GNTXT,01,01,01,More than 100 frame errors, UART RX was disabled*70
$GNRMC,073800.00,A,0419.84060,S,05539.92980,E,0.022,,200525,,,A*79
$GNVTG,,T,,M,0.022,N,0.040,K,A*39
$GNGGA,073800.00,0419.84060,S,05539.92980,E,1,12,0.66,9.3,M,-47.6,M,,*74
$GNGSA,A,3,05,12,24,18,15,25,23,13,29,10,,,1.18,0.66,0.98*16
$GNGSA,A,3,80,73,69,84,70,74,,,,,,,1.18,0.66,0.98*1E
$GPGSV,4,1,15,05,23,029,40,10,20,216,37,12,64,135,41,13,11,089,37*75
$GPGSV,4,2,15,15,44,114,38,18,27,311,35,23,62,229,35,24,25,162,36*72
$GPGSV,4,3,15,25,78,320,37,28,09,276,,29,21,000,35,36,52,277,32*78
$GPGSV,4,4,15,40,86,351,40,41,58,082,36,49,32,274,*4E
$GLGSV,3,1,10,68,03,045,34,69,38,080,34,70,38,171,21,71,03,202,*6B
$GLGSV,3,2,10,73,64,237,32,74,37,309,27,80,26,167,29,84,07,351,23*66
$GLGSV,3,3,10,85,04,304,,,,,32*5B
$GNGLL,0419.84060,S,05539.92980,E,073800.00,A,A*60
$GNTXT,01,01,01,More than 100 frame errors, UART RX was disabled*70
$GNRMC,073801.00,A,0419.84060,S,05539.92979,E,0.026,,200525,,,A*7A
$GNVTG,,T,,M,0.026,N,0.048,K,A*35
$GNGGA,073801.00,0419.84060,S,05539.92979,E,1,12,0.66,9.3,M,-47.6,M,,*73
$GNGSA,A,3,05,12,24,18,15,25,23,13,29,10,,,1.18,0.66,0.98*16
$GNGSA,A,3,80,73,69,84,70,74,,,,,,,1.18,0.66,0.98*1E
$GPGSV,4,1,15,05,23,029,40,10,20,216,37,12,64,135,40,13,11,089,36*75
$GPGSV,4,2,15,15,44,114,35,18,27,311,35,23,62,229,35,24,25,162,37*7E
$GPGSV,4,3,15,25,78,320,37,28,09,276,,29,21,000,35,36,52,277,31*7B
$GPGSV,4,4,15,40,86,351,41,41,58,082,36,49,32,274,*4F
$GLGSV,3,1,10,68,03,045,31,69,38,080,31,70,38,171,21,71,03,202,*6B
$GLGSV,3,2,10,73,64,237,32,74,37,309,26,80,26,167,29,84,07,351,24*60
$GLGSV,3,3,10,85,04,304,,,,,32*5B
$GNGLL,0419.84060,S,05539.92979,E,073801.00,A,A*67
$GNTXT,01,01,01,More than 100 frame errors, UART RX was disabled*70
$GNRMC,073802.00,A,0419.84059,S,05539.92978,E,0.024,,200525,,,A*70
$GNVTG,,T,,M,0.024,N,0.044,K,A*3B
$GNGGA,073802.00,0419.84059,S,05539.92978,E,1,12,0.66,9.3,M,-47.6,M,,*7B
$GNGSA,A,3,05,12,24,18,15,25,23,13,29,10,,,1.18,0.66,0.98*16
$GNGSA,A,3,80,73,69,84,70,74,,,,,,,1.18,0.66,0.98*1E
$GPGSV,4,1,15,05,23,029,40,10,20,216,37,12,64,135,40,13,11,089,38*7B
$GPGSV,4,2,15,15,44,114,38,18,27,311,35,23,62,229,35,24,25,162,37*73
$GPGSV,4,3,15,25,78,320,37,28,09,276,,29,21,001,35,36,52,277,32*79
$GPGSV,4,4,15,40,86,351,41,41,58,082,37,49,32,274,*4E
$GLGSV,3,1,10,68,03,045,35,69,38,080,37,70,38,171,21,71,03,202,*69
$GLGSV,3,2,10,73,64,237,36,74,37,309,32,80,26,167,33,84,07,351,24*6A
$GLGSV,3,3,10,85,04,304,,,,,34*5D
$GNGLL,0419.84059,S,05539.92978,E,073802.00,A,A*6F
$GNTXT,01,01,01,More than 100 frame errors, UART RX was disabled*70
$GNRMC,073803.00,A,0419.84059,S,05539.92978,E,0.019,,200525,,,A*7F
$GNVTG,,T,,M,0.019,N,0.036,K,A*30
$GNGGA,073803.00,0419.84059,S,05539.92978,E,1,12,0.66,9.3,M,-47.6,M,,*7A
$GNGSA,A,3,05,12,24,18,15,25,23,13,29,10,,,1.18,0.66,0.98*16
$GNGSA,A,3,80,73,69,84,70,74,,,,,,,1.18,0.66,0.98*1E
$GPGSV,4,1,15,05,23,029,40,10,20,216,37,12,64,135,40,13,11,089,36*75
$GPGSV,4,2,15,15,44,114,37,18,27,311,35,23,62,229,35,24,25,162,37*7C
$GPGSV,4,3,15,25,78,320,37,28,09,276,,29,21,001,35,36,52,277,33*78
$GPGSV,4,4,15,40,86,351,41,41,58,082,37,49,32,274,*4E
$GLGSV,3,1,10,68,03,045,37,69,38,080,37,70,38,171,21,71,03,202,*6B
$GLGSV,3,2,10,73,64,237,36,74,37,309,32,80,26,167,33,84,07,351,24*6A
$GLGSV,3,3,10,85,04,304,,,,,36*5F
$GNGLL,0419.84059,S,05539.92978,E,073803.00,A,A*6E
$GNTXT,01,01,01,More than 100 frame errors, UART RX was disabled*70
$GNRMC,073804.00,A,0419.84059,S,05539.92976,E,0.019,,200525,,,A*76
$GNVTG,,T,,M,0.019,N,0.035,K,A*33
$GNGGA,073804.00,0419.84059,S,05539.92976,E,1,12,0.66,9.3,M,-47.6,M,,*73
$GNGSA,A,3,05,12,24,18,15,25,23,13,29,10,,,1.18,0.66,0.98*16
$GNGSA,A,3,80,73,69,84,70,74,,,,,,,1.18,0.66,0.98*1E
$GPGSV,4,1,15,05,23,029,40,10,20,216,37,12,64,135,40,13,11,089,34*77
$GPGSV,4,2,15,15,44,114,36,18,27,311,34,23,62,229,35,24,25,162,37*7C
$GPGSV,4,3,15,25,78,320,36,28,09,276,,29,21,001,34,36,52,277,32*79
$GPGSV,4,4,15,40,86,351,40,41,58,082,34,49,32,274,*4C
$GLGSV,3,1,10,68,03,045,33,69,38,080,32,70,38,171,20,71,03,202,*6B
$GLGSV,3,2,10,73,64,237,30,74,37,309,26,80,26,167,28,84,07,351,23*64
$GLGSV,3,3,10,85,04,304,,,,,30*59
$GNGLL,0419.84059,S,05539.92976,E,073804.00,A,A*67
$GNTXT,01,01,01,More than 100 frame errors, UART RX was disabled*70
$GNRMC,073805.00,A,0419.84060,S,05539.92976,E,0.019,,200525,,,A*7D
$GNVTG,,T,,M,0.019,N,0.035,K,A*33
$GNGGA,073805.00,0419.84060,S,05539.92976,E,1,12,0.66,9.2,M,-47.6,M,,*79
$GNGSA,A,3,05,12,24,18,15,25,23,13,29,10,,,1.18,0.66,0.98*16
$GNGSA,A,3,80,73,69,84,70,74,,,,,,,1.18,0.66,0.98*1E
$GPGSV,4,1,15,05,23,029,41,10,20,216,37,12,64,135,41,13,11,089,33*70
$GPGSV,4,2,15,15,44,114,38,18,27,311,35,23,62,229,35,24,25,162,37*73
$GPGSV,4,3,15,25,78,320,37,28,09,276,,29,21,001,35,36,52,277,33*78
$GPGSV,4,4,15,40,86,351,41,41,58,082,38,49,32,274,*41
$GLGSV,3,1,10,68,03,045,40,69,38,080,35,70,38,171,21,71,03,202,*69
$GLGSV,3,2,10,73,64,237,35,74,37,309,32,80,26,167,32,84,07,351,23*6F
$GLGSV,3,3,10,85,04,304,,,,,36*5F
$GNGLL,0419.84060,S,05539.92976,E,073805.00,A,A*6C
$GNTXT,01,01,01,More than 100 frame errors, UART RX was disabled*70
$GNRMC,073806.00,A,0419.84061,S,05539.92974,E,0.028,,200525,,,A*7F
$GNVTG,,T,,M,0.028,N,0.052,K,A*30
$GNGGA,073806.00,0419.84061,S,05539.92974,E,1,12,0.66,9.2,M,-47.6,M,,*79
$GNGSA,A,3,05,12,24,18,15,25,23,13,29,10,,,1.18,0.66,0.98*16
$GNGSA,A,3,80,73,69,84,70,74,,,,,,,1.18,0.66,0.98*1E
$GPGSV,4,1,15,05,23,029,39,10,20,216,37,12,64,135,40,13,11,089,37*7A
$GPGSV,4,2,15,15,44,114,35,18,27,311,35,23,62,229,35,24,25,162,37*7E
$GPGSV,4,3,15,25,78,320,36,28,09,276,,29,21,001,35,36,52,277,32*78
$GPGSV,4,4,15,40,86,351,40,41,58,082,35,49,32,274,*4D
$GLGSV,3,1,10,68,03,045,36,69,38,080,32,70,38,171,21,71,03,202,*6F
$GLGSV,3,2,10,73,64,237,31,74,37,309,26,80,26,167,28,84,07,351,23*65
$GLGSV,3,3,10,85,04,304,,,,,32*5B
$GNGLL,0419.84061,S,05539.92974,E,073806.00,A,A*6C
$GNTXT,01,01,01,More than 100 frame errors, UART RX was disabled*70
$GNRMC,073807.00,A,0419.84062,S,05539.92973,E,0.011,,200525,,,A*70
$GNVTG,,T,,M,0.011,N,0.020,K,A*3F
$GNGGA,073807.00,0419.84062,S,05539.92973,E,1,12,0.66,9.1,M,-47.6,M,,*7F
$GNGSA,A,3,05,12,24,18,15,25,23,13,29,10,,,1.18,0.66,0.98*16
$GNGSA,A,3,80,73,69,84,70,74,,,,,,,1.18,0.66,0.98*1E
$GPGSV,4,1,15,05,23,029,41,10,20,216,37,12,64,135,37,13,11,089,36*74
$GPGSV,4,2,15,15,44,114,38,18,27,311,35,23,62,229,35,24,25,162,37*73
$GPGSV,4,3,15,25,78,320,36,28,09,276,,29,21,001,35,36,52,277,33*79
$GPGSV,4,4,15,40,86,351,39,41,58,082,37,49,32,274,*41
$GLGSV,3,1,10,68,03,045,39,69,38,080,35,70,38,171,21,71,03,202,*67
$GLGSV,3,2,10,73,64,237,35,74,37,309,31,80,26,167,32,84,07,351,23*6C
$GLGSV,3,3,10,85,04,304,,,,,32*5B
$GNGLL,0419.84062,S,05539.92973,E,073807.00,A,A*69
$GNTXT,01,01,01,More than 100 frame errors, UART RX was disabled*70
$GNRMC,073808.00,A,0419.84062,S,05539.92972,E,0.015,,200525,,,A*7A
$GNVTG,,T,,M,0.015,N,0.028,K,A*33
$GNGGA,073808.00,0419.84062,S,05539.92972,E,1,12,0.66,9.1,M,-47.6,M,,*71
$GNGSA,A,3,05,12,24,18,15,25,23,13,29,10,,,1.18,0.66,0.98*16
$GNGSA,A,3,80,73,69,84,70,74,,,,,,,1.18,0.66,0.98*1E
$GPGSV,4,1,15,05,23,029,41,10,20,216,36,12,64,135,38,13,11,089,35*79
$GPGSV,4,2,15,15,44,114,38,18,27,311,36,23,62,229,34,24,25,162,37*71
$GPGSV,4,3,15,25,78,320,35,28,09,276,,29,21,001,34,36,52,277,33*7B
$GPGSV,4,4,15,40,86,351,39,41,58,082,37,49,32,274,*41
$GLGSV,3,1,10,68,03,045,37,69,38,080,34,70,38,171,20,71,03,202,*69
$GLGSV,3,2,10,73,64,237,32,74,37,309,27,80,26,167,28,84,07,351,22*66
$GLGSV,3,3,10,85,04,304,,,,,31*58
$GNGLL,0419.84062,S,05539.92972,E,073808.00,A,A*67
$GNTXT,01,01,01,More than 100 frame errors, UART RX was disabled*70
$GNRMC,073809.00,A,0419.84063,S,05539.92971,E,0.037,,200525,,,A*79
$GNVTG,,T,,M,0.037,N,0.068,K,A*37
$GNGGA,073809.00,0419.84063,S,05539.92971,E,1,12,0.66,9.2,M,-47.6,M,,*71
$GNGSA,A,3,05,12,24,18,15,25,23,13,29,10,,,1.18,0.66,0.98*16
$GNGSA,A,3,80,73,69,84,70,74,,,,,,,1.18,0.66,0.98*1E
$GPGSV,4,1,15,05,23,029,40,10,20,216,37,12,64,135,40,13,11,089,35*76
$GPGSV,4,2,15,15,44,114,38,18,27,311,35,23,62,229,34,24,25,162,37*72
$GPGSV,4,3,15,25,78,320,36,28,09,276,,29,21,001,35,36,52,277,32*78
$GPGSV,4,4,15,40,86,351,40,41,58,082,35,49,32,274,*4D
$GLGSV,3,1,10,68,03,045,38,69,38,080,39,70,38,171,19,71,03,202,*61
$GLGSV,3,2,10,73,64,237,35,74,37,309,27,80,26,167,34,84,07,351,22*6C
$GLGSV,3,3,10,85,04,304,,,,,34*5D
$GNGLL,0419.84063,S,05539.92971,E,073809.00,A,A*64
$GNTXT,01,01,01,More than 100 frame errors, UART RX was disabled*70
$GNRMC,073810.00,A,0419.84062,S,05539.92969,E,0.051,,200525,,,A*79
$GNVTG,,T,,M,0.051,N,0.095,K,A*35
$GNGGA,073810.00,0419.84062,S,05539.92969,E,1,12,0.66,9.2,M,-47.6,M,,*71
$GNGSA,A,3,05,12,24,18,15,25,23,13,29,10,,,1.18,0.66,0.98*16
$GNGSA,A,3,80,73,69,84,70,74,,,,,,,1.18,0.66,0.98*1E
$GPGSV,4,1,15,05,23,029,41,10,20,216,38,12,64,135,39,13,11,089,35*76
$GPGSV,4,2,15,15,44,114,38,18,27,311,31,23,62,229,32,24,25,162,37*70
$GPGSV,4,3,15,25,78,320,37,28,09,276,,29,21,001,34,36,52,277,30*7A
$GPGSV,4,4,15,40,86,351,41,41,58,082,35,49,32,274,*4C
$GLGSV,3,1,10,68,03,045,40,69,38,080,39,70,38,171,18,71,03,202,*6F
$GLGSV,3,2,10,73,64,237,32,74,37,309,28,80,26,167,29,84,07,351,24*6E
$GLGSV,3,3,10,85,04,304,,,,,31*58
$GNGLL,0419.84062,S,05539.92969,E,073810.00,A,A*64
$GNTXT,01,01,01,More than 100 frame errors, UART RX was disabled*70
$GNRMC,073811.00,A,0419.84061,S,05539.92967,E,0.022,,200525,,,A*71
$GNVTG,,T,,M,0.022,N,0.040,K,A*39
$GNGGA,073811.00,0419.84061,S,05539.92967,E,1,12,0.66,9.2,M,-47.6,M,,*7D
$GNGSA,A,3,05,12,24,18,15,25,23,13,29,10,,,1.18,0.66,0.98*16
$GNGSA,A,3,80,73,69,84,70,74,,,,,,,1.18,0.66,0.98*1E
$GPGSV,4,1,15,05,23,029,41,10,20,216,38,12,64,135,39,13,11,089,35*76
$GPGSV,4,2,15,15,44,114,39,18,27,311,31,23,62,229,34,24,25,162,37*77
$GPGSV,4,3,15,25,78,320,39,28,09,276,,29,21,001,34,36,52,277,30*74
$GPGSV,4,4,15,40,86,351,41,41,58,082,36,49,32,274,*4F
$GLGSV,3,1,10,68,03,045,40,69,38,080,38,70,38,171,17,71,03,202,*61
$GLGSV,3,2,10,73,64,237,33,74,37,309,28,80,26,167,28,84,07,351,23*69
$GLGSV,3,3,10,85,04,304,,,,,31*58
$GNGLL,0419.84061,S,05539.92967,E,073811.00,A,A*68
$GNTXT,01,01,01,More than 100 frame errors, UART RX was disabled*70
$GNRMC,073812.00,A,0419.84059,S,05539.92964,E,0.054,,200525,,,A*7B
$GNVTG,,T,,M,0.054,N,0.100,K,A*3D
$GNGGA,073812.00,0419.84059,S,05539.92964,E,1,12,0.66,9.2,M,-47.6,M,,*76
$GNGSA,A,3,05,12,24,18,15,25,23,13,29,10,,,1.18,0.66,0.98*16
$GNGSA,A,3,80,73,69,84,70,74,,,,,,,1.18,0.66,0.98*1E
$GPGSV,4,1,15,05,23,029,43,10,20,216,41,12,64,135,42,13,11,089,39*7A
$GPGSV,4,2,15,15,44,114,39,18,27,311,37,23,62,229,39,24,25,162,39*72
$GPGSV,4,3,15,25,78,320,41,28,09,276,,29,21,001,36,36,52,277,*7A
$GPGSV,4,4,15,40,86,351,45,41,58,082,36,49,32,274,*4B
$GLGSV,3,1,10,68,03,045,35,69,38,080,34,70,38,171,18,71,03,202,*60
$GLGSV,3,2,10,73,64,237,32,74,37,309,29,80,26,167,29,84,07,351,24*6F
$GLGSV,3,3,10,85,04,304,,,,,28*50
$GNGLL,0419.84059,S,05539.92964,E,073812.00,A,A*63
$GNTXT,01,01,01,More than 100 frame errors, UART RX was disabled*70
$GNRMC,073813.00,A,0419.84058,S,05539.92963,E,0.071,,200525,,,A*7B
$GNVTG,,T,,M,0.071,N,0.131,K,A*38
$GNGGA,073813.00,0419.84058,S,05539.92963,E,1,12,0.66,9.1,M,-47.6,M,,*72
$GNGSA,A,3,05,12,24,18,15,25,23,13,29,10,,,1.18,0.66,0.98*16
$GNGSA,A,3,80,73,69,84,70,74,,,,,,,1.18,0.66,0.98*1E
$GPGSV,4,1,15,05,23,029,43,10,20,216,39,12,64,135,41,13,11,089,35*7A
$GPGSV,4,2,15,15,44,114,42,18,27,311,40,23,62,229,38,24,25,162,39*7F
$GPGSV,4,3,15,25,78,320,40,28,09,276,,29,21,001,38,36,52,277,*75
$GPGSV,4,4,15,40,86,351,43,41,58,082,39,49,32,274,*42
$GLGSV,3,1,10,68,03,045,35,69,38,080,35,70,38,171,17,71,03,202,*6E
$GLGSV,3,2,10,73,64,237,34,74,37,309,29,80,26,167,32,84,07,351,22*65
$GLGSV,3,3,10,85,04,304,,,,,33*5A
$GNGLL,0419.84058,S,05539.92963,E,073813.00,A,A*64
$GNTXT,01,01,01,More than 100 frame errors, UART RX was disabled*70
$GNRMC,073814.00,A,0419.84058,S,05539.92963,E,0.043,,200525,,,A*7D
$GNVTG,,T,,M,0.043,N,0.080,K,A*32
$GNGGA,073814.00,0419.84058,S,05539.92963,E,1,12,0.66,9.2,M,-47.6,M,,*76
$GNGSA,A,3,05,12,24,18,15,25,23,13,29,10,,,1.18,0.66,0.98*16
$GNGSA,A,3,80,73,69,84,70,74,,,,,,,1.18,0.66,0.98*1E
$GPGSV,4,1,15,05,23,029,43,10,20,216,40,12,64,135,42,13,11,089,38*7A
$GPGSV,4,2,15,15,44,114,42,18,27,311,40,23,62,229,38,24,25,162,40*71
$GPGSV,4,3,15,25,78,320,39,28,09,276,,29,21,001,39,36,52,277,*7A
$GPGSV,4,4,15,40,86,351,42,41,58,082,40,49,32,274,*4D
$GLGSV,3,1,10,68,03,045,30,69,38,080,35,70,38,171,14,71,03,202,*68
$GLGSV,3,2,10,73,64,237,30,74,37,309,29,80,26,167,30,84,07,351,19*6B
$GLGSV,3,3,10,85,04,304,,,,,31*58
$GNGLL,0419.84058,S,05539.92963,E,073814.00,A,A*63
$GNTXT,01,01,01,More than 100 frame errors, UART RX was disabled*70
$GNRMC,073815.00,A,0419.84057,S,05539.92961,E,0.007,,200525,,,A*71
$GNVTG,,T,,M,0.007,N,0.013,K,A*38
$GNGGA,073815.00,0419.84057,S,05539.92961,E,1,12,0.66,9.2,M,-47.6,M,,*7A
$GNGSA,A,3,05,12,24,18,15,25,23,13,29,10,,,1.18,0.66,0.98*16
$GNGSA,A,3,80,73,69,84,70,74,,,,,,,1.18,0.66,0.98*1E
$GPGSV,4,1,15,05,23,029,41,10,20,216,38,12,64,135,40,13,11,089,38*75
$GPGSV,4,2,15,15,44,114,39,18,27,311,38,23,62,229,36,24,25,162,39*72
$GPGSV,4,3,15,25,78,320,38,28,09,276,,29,21,001,38,36,52,277,*7A
$GPGSV,4,4,15,40,86,351,40,41,58,082,38,49,32,274,*40
$GLGSV,3,1,10,68,03,045,30,69,38,080,34,70,38,171,14,71,03,202,*69
$GLGSV,3,2,10,73,64,237,31,74,37,309,29,80,26,167,29,84,07,351,19*62
$GLGSV,3,3,10,85,04,304,,,,,30*59
$GNGLL,0419.84057,S,05539.92961,E,073815.00,A,A*6F
$GNTXT,01,01,01,More than 100 frame errors, UART RX was disabled*70
$GNRMC,073816.00,A,0419.84056,S,05539.92960,E,0.006,,200525,,,A*73
$GNVTG,,T,,M,0.006,N,0.011,K,A*3B
$GNGGA,073816.00,0419.84056,S,05539.92960,E,1,12,0.67,9.1,M,-47.6,M,,*7B
$GNGSA,A,3,05,12,24,18,15,25,23,13,29,10,,,1.19,0.67,0.98*16
$GNGSA,A,3,80,73,69,84,74,,,,,,,,1.19,0.67,0.98*19
$GPGSV,4,1,15,05,23,029,42,10,20,216,38,12,64,135,41,13,11,089,35*7A
$GPGSV,4,2,15,15,44,114,37,18,27,311,38,23,62,229,36,24,25,162,38*7D
$GPGSV,4,3,15,25,78,320,39,28,09,276,,29,21,001,37,36,52,277,*74
$GPGSV,4,4,15,40,86,351,42,41,58,082,37,49,32,274,*4D
$GLGSV,3,1,10,68,03,045,31,69,38,080,34,70,38,171,12,71,03,202,*6E
$GLGSV,3,2,10,73,64,237,31,74,37,309,29,80,26,167,28,84,07,351,18*62
$GLGSV,3,3,10,85,04,304,,,,,29*51
$GNGLL,0419.84056,S,05539.92960,E,073816.00,A,A*6C
$GNTXT,01,01,01,More than 100 frame errors, UART RX was disabled*70
$GNRMC,073817.00,A,0419.84056,S,05539.92959,E,0.010,,200525,,,A*7F
$GNVTG,,T,,M,0.010,N,0.018,K,A*35
$GNGGA,073817.00,0419.84056,S,05539.92959,E,1,12,0.66,9.1,M,-47.6,M,,*71
$GNGSA,A,3,05,12,24,18,15,25,23,13,29,10,,,1.18,0.66,0.98*16
$GNGSA,A,3,80,73,69,84,70,74,,,,,,,1.18,0.66,0.98*1E
$GPGSV,4,1,15,05,23,029,43,10,20,216,40,12,64,135,41,13,11,089,39*78
$GPGSV,4,2,15,15,44,114,40,18,27,311,38,23,62,229,37,24,25,162,39*7D
$GPGSV,4,3,15,25,78,320,39,28,09,276,,29,21,001,38,36,52,277,*7B
$GPGSV,4,4,15,40,86,351,42,41,58,082,38,49,32,274,*42
$GLGSV,3,1,10,68,03,045,33,69,38,080,34,70,38,171,17,71,03,202,*69
$GLGSV,3,2,10,73,64,237,31,74,37,309,30,80,26,167,29,84,07,351,18*6B
$GLGSV,3,3,10,85,04,304,,,,,30*59
$GNGLL,0419.84056,S,05539.92959,E,073817.00,A,A*67
$GNTXT,01,01,01,More than 100 frame errors, UART RX was disabled*70
$GNRMC,073818.00,A,0419.84056,S,05539.92958,E,0.019,,200525,,,A*78
$GNVTG,,T,,M,0.019,N,0.035,K,A*33
$GNGGA,073818.00,0419.84056,S,05539.92958,E,1,12,0.66,9.2,M,-47.6,M,,*7C
$GNGSA,A,3,05,12,24,18,15,25,23,13,29,10,,,1.18,0.66,0.98*16
$GNGSA,A,3,80,73,69,84,70,74,,,,,,,1.18,0.66,0.98*1E
$GPGSV,4,1,15,05,23,029,41,10,20,216,39,12,64,135,40,13,11,089,36*7A
$GPGSV,4,2,15,15,44,114,40,18,27,311,36,23,62,229,34,24,25,162,38*71
$GPGSV,4,3,15,25,78,320,37,28,09,276,,29,21,001,34,36,52,277,*79
$GPGSV,4,4,15,40,86,351,40,41,58,082,38,49,32,274,*40
$GLGSV,3,1,10,68,03,045,34,69,38,080,32,70,38,171,19,71,03,202,*66
$GLGSV,3,2,10,73,64,237,31,74,37,309,30,80,26,167,30,84,07,351,18*63
$GLGSV,3,3,10,85,04,304,,,,,31*58
$GNGLL,0419.84056,S,05539.92958,E,073818.00,A,A*69
$GNTXT,01,01,01,More than 100 frame errors, UART RX was disabled*70
$GNRMC,073819.00,A,0419.84055,S,05539.92957,E,0.049,,200525,,,A*70
$GNVTG,,T,,M,0.049,N,0.091,K,A*38
$GNGGA,073819.00,0419.84055,S,05539.92957,E,1,12,0.66,9.2,M,-47.6,M,,*71
$GNGSA,A,3,05,12,24,18,15,25,23,13,29,10,,,1.18,0.66,0.98*16
$GNGSA,A,3,80,73,69,84,70,74,,,,,,,1.18,0.66,0.98*1E
$GPGSV,4,1,15,05,23,029,41,10,20,216,39,12,64,135,41,13,11,089,36*7B
$GPGSV,4,2,15,15,44,114,38,18,27,311,37,23,62,229,37,24,25,162,38*7C
$GPGSV,4,3,15,25,78,320,38,28,09,276,,29,21,001,35,36,52,277,*77
$GPGSV,4,4,15,40,86,351,42,41,58,082,35,49,32,274,*4F
$GLGSV,3,1,10,68,03,045,37,69,38,080,37,70,38,171,18,71,03,202,*61
$GLGSV,3,2,10,73,64,237,31,74,37,309,34,80,26,167,34,84,07,351,16*6D
$GLGSV,3,3,10,85,04,304,,,,,35*5C
$GNGLL,0419.84055,S,05539.92957,E,073819.00,A,A*64
$GNTXT,01,01,01,More than 100 frame errors, UART RX was disabled*70
$GNRMC,073820.00,A,0419.84055,S,05539.92956,E,0.017,,200525,,,A*70
$GNVTG,,T,,M,0.017,N,0.032,K,A*3A
$GNGGA,073820.00,0419.84055,S,05539.92956,E,1,12,0.66,9.1,M,-47.6,M,,*79
$GNGSA,A,3,05,12,24,18,15,25,23,13,29,10,,,1.18,0.66,0.98*16
$GNGSA,A,3,80,73,69,84,70,74,,,,,,,1.18,0.66,0.98*1E
$GPGSV,4,1,15,05,23,029,41,10,20,216,38,12,64,135,41,13,11,089,36*7A
$GPGSV,4,2,15,15,44,114,37,18,27,311,36,23,62,229,36,24,25,162,38*73
$GPGSV,4,3,15,25,78,320,39,28,09,276,,29,21,001,36,36,52,277,*75
$GPGSV,4,4,15,40,86,351,42,41,58,082,35,49,32,274,*4F
$GLGSV,3,1,10,68,03,045,32,69,38,080,33,70,38,171,19,71,03,202,*61
$GLGSV,3,2,10,73,64,237,31,74,37,309,31,80,26,167,29,84,07,351,18*6A
$GLGSV,3,3,10,85,04,304,,,,,33*5A
$GNGLL,0419.84055,S,05539.92956,E,073820.00,A,A*6F
$GNTXT,01,01,01,More than 100 frame errors, UART RX was disabled*70
$GNRMC,073821.00,A,0419.84054,S,05539.92955,E,0.034,,200525,,,A*72
$GNVTG,,T,,M,0.034,N,0.064,K,A*38
$GNGGA,073821.00,0419.84054,S,05539.92955,E,1,12,0.66,9.1,M,-47.6,M,,*7A
$GNGSA,A,3,05,12,24,18,15,25,23,13,29,10,,,1.18,0.66,0.98*16
$GNGSA,A,3,80,73,69,84,70,74,,,,,,,1.18,0.66,0.98*1E
$GPGSV,4,1,15,05,23,029,41,10,20,216,38,12,64,135,40,13,11,089,35*78
$GPGSV,4,2,15,15,44,114,36,18,27,311,36,23,62,229,36,24,25,162,37*7D
$GPGSV,4,3,15,25,78,320,38,28,09,276,,29,21,001,36,36,52,277,*74
$GPGSV,4,4,15,40,86,351,41,41,58,082,34,49,32,274,*4D
$GLGSV,3,1,10,68,03,045,32,69,38,080,33,70,38,171,17,71,03,202,*6F
$GLGSV,3,2,10,73,64,237,30,74,37,309,29,80,26,167,27,84,07,351,18*6C
$GLGSV,3,3,10,85,04,304,,,,,31*58
$GNGLL,0419.84054,S,05539.92955,E,073821.00,A,A*6C
$GNTXT,01,01,01,More than 100 frame errors, UART RX was disabled*70
$GNRMC,073822.00,A,0419.84053,S,05539.92956,E,0.025,,200525,,,A*75
$GNVTG,,T,,M,0.025,N,0.047,K,A*39
$GNGGA,073822.00,0419.84053,S,05539.92956,E,1,12,0.66,9.1,M,-47.6,M,,*7D
$GNGSA,A,3,05,12,24,18,15,25,23,13,29,10,,,1.18,0.66,0.98*16
$GNGSA,A,3,80,73,69,84,70,74,,,,,,,1.18,0.66,0.98*1E
$GPGSV,4,1,15,05,23,029,40,10,20,216,38,12,64,135,40,13,11,089,36*7A
$GPGSV,4,2,15,15,44,114,37,18,27,311,36,23,62,229,36,24,25,162,36*7D
$GPGSV,4,3,15,25,78,320,38,28,09,276,,29,21,001,36,36,52,277,*74
$GPGSV,4,4,15,40,86,351,40,41,58,082,35,49,32,274,*4D
$GLGSV,3,1,10,68,03,045,31,69,38,080,32,70,38,171,15,71,03,202,*6F
$GLGSV,3,2,10,73,64,237,30,74,37,309,28,80,26,167,26,84,07,351,17*63
$GLGSV,3,3,10,85,04,304,,,,,29*51
$GNGLL,0419.84053,S,05539.92956,E,073822.00,A,A*6B
$GNTXT,01,01,01,More than 100 frame errors, UART RX was disabled*70
$GNRMC,073823.00,A,0419.84053,S,05539.92956,E,0.011,,200525,,,A*73
$GNVTG,,T,,M,0.011,N,0.020,K,A*3F
$GNGGA,073823.00,0419.84053,S,05539.92956,E,1,12,0.66,9.1,M,-47.6,M,,*7C
$GNGSA,A,3,05,12,24,18,15,25,23,13,29,10,,,1.18,0.66,0.98*16
$GNGSA,A,3,80,73,69,84,70,74,,,,,,,1.18,0.66,0.98*1E
$GPGSV,4,1,15,05,23,029,40,10,20,216,38,12,64,135,40,13,11,089,35*79
$GPGSV,4,2,15,15,44,114,37,18,27,311,37,23,62,229,35,24,25,162,37*7E
$GPGSV,4,3,15,25,78,320,38,28,09,276,,29,21,001,35,36,52,277,*77
$GPGSV,4,4,15,40,86,351,40,41,58,082,34,49,32,274,*4C
$GLGSV,3,1,10,68,03,045,33,69,38,080,35,70,38,171,16,71,03,202,*69
$GLGSV,3,2,10,73,64,237,34,74,37,309,31,80,26,167,27,84,07,351,18*61
$GLGSV,3,3,10,85,04,304,,,,,31*58
$GNGLL,0419.84053,S,05539.92956,E,073823.00,A,A*6A
$GNTXT,01,01,01,More than 100 frame errors, UART RX was disabled*70
$GNRMC,073824.00,A,0419.84054,S,05539.92954,E,0.040,,200525,,,A*75
$GNVTG,,T,,M,0.040,N,0.073,K,A*3D
$GNGGA,073824.00,0419.84054,S,05539.92954,E,1,12,0.66,9.1,M,-47.6,M,,*7E
$GNGSA,A,3,05,12,24,18,15,25,23,13,29,10,,,1.18,0.66,0.98*16
$GNGSA,A,3,80,73,69,84,70,74,,,,,,,1.18,0.66,0.98*1E
$GPGSV,4,1,15,05,23,029,40,10,20,216,37,12,64,135,39,13,11,089,36*7B
$GPGSV,4,2,15,15,44,114,37,18,27,311,35,23,62,229,34,24,25,162,37*7D
$GPGSV,4,3,15,25,78,320,36,28,09,276,,29,21,001,34,36,52,277,*78
$GPGSV,4,4,15,40,86,351,40,41,58,082,33,49,32,274,*4B
$GLGSV,3,1,10,68,03,045,35,69,38,080,40,70,38,171,18,71,03,202,*63
$GLGSV,3,2,10,73,64,237,36,74,37,309,33,80,26,167,32,84,07,351,19*64
$GLGSV,3,3,10,85,04,304,,,,,34*5D
$GNGLL,0419.84054,S,05539.92954,E,073824.00,A,A*68
$GNTXT,01,01,01,More than 100 frame errors, UART RX was disabled*70
$GNRMC,073825.00,A,0419.84054,S,05539.92955,E,0.046,,200525,,,A*73
$GNVTG,,T,,M,0.046,N,0.085,K,A*32
$GNGGA,073825.00,0419.84054,S,05539.92955,E,1,12,0.66,9.0,M,-47.6,M,,*7F
$GNGSA,A,3,05,12,24,18,15,25,23,13,29,10,,,1.18,0.66,0.98*16
$GNGSA,A,3,80,73,69,84,70,74,,,,,,,1.18,0.66,0.98*1E
$GPGSV,4,1,15,05,23,029,42,10,20,216,39,12,64,135,42,13,11,089,35*78
$GPGSV,4,2,15,15,44,114,36,18,27,311,36,23,62,229,36,24,25,162,39*73
$GPGSV,4,3,15,25,78,320,38,28,09,276,,29,21,001,35,36,52,277,35*71
$GPGSV,4,4,15,40,86,351,41,41,58,082,36,49,32,274,*4F
$GLGSV,3,1,10,68,03,045,38,69,38,080,39,70,38,171,20,71,03,202,*6B
$GLGSV,3,2,10,73,64,237,37,74,37,309,34,80,26,167,34,84,07,351,21*6F
$GLGSV,3,3,10,85,04,304,,,,,36*5F
$GNGLL,0419.84054,S,05539.92955,E,073825.00,A,A*68
$GNTXT,01,01,01,More than 100 frame errors, UART RX was disabled*70
$GNRMC,073826.00,A,0419.84053,S,05539.92955,E,0.014,,200525,,,A*70
$GNVTG,,T,,M,0.014,N,0.026,K,A*3C
$GNGGA,073826.00,0419.84053,S,05539.92955,E,1,12,0.66,9.1,M,-47.6,M,,*7A
$GNGSA,A,3,05,12,24,18,15,25,23,13,29,10,,,1.18,0.66,0.98*16
$GNGSA,A,3,80,73,69,84,70,74,,,,,,,1.18,0.66,0.98*1E
$GPGSV,4,1,15,05,23,029,39,10,20,216,37,12,64,135,40,13,11,089,35*78
$GPGSV,4,2,15,15,44,114,36,18,27,311,34,23,62,229,34,24,25,162,37*7D
$GPGSV,4,3,15,25,78,320,36,28,09,276,,29,21,001,33,36,52,277,33*7F
$GPGSV,4,4,15,40,86,351,40,41,58,082,36,49,32,274,*4E
$GLGSV,3,1,10,68,03,045,36,69,38,080,37,70,38,171,20,71,03,202,*6B
$GLGSV,3,2,10,73,64,237,34,74,37,309,32,80,26,167,33,84,07,351,21*6D
$GLGSV,3,3,10,85,04,304,,,,,36*5F
$GNGLL,0419.84053,S,05539.92955,E,073826.00,A,A*6C
$GNTXT,01,01,01,More than 100 frame errors, UART RX was disabled*70
$GNRMC,073827.00,A,0419.84051,S,05539.92955,E,0.051,,200525,,,A*72
$GNVTG,,T,,M,0.051,N,0.095,K,A*35
$GNGGA,073827.00,0419.84051,S,05539.92955,E,1,12,0.66,9.1,M,-47.6,M,,*79
$GNGSA,A,3,05,12,24,18,15,25,23,13,29,10,,,1.18,0.66,0.98*16
$GNGSA,A,3,80,73,69,84,70,74,,,,,,,1.18,0.66,0.98*1E
$GPGSV,4,1,15,05,23,029,41,10,20,216,38,12,64,135,39,13,11,089,39*7A
$GPGSV,4,2,15,15,44,114,34,18,27,311,35,23,62,229,35,24,25,162,37*7F
$GPGSV,4,3,15,25,78,320,38,28,09,276,,29,21,001,38,36,52,277,31*78
$GPGSV,4,4,15,40,86,351,41,41,58,082,37,49,32,274,*4E
$GLGSV,3,1,10,68,03,045,35,69,38,080,36,70,38,171,23,71,03,202,*6A
$GLGSV,3,2,10,73,64,237,37,74,37,309,31,80,26,167,33,84,07,351,24*68
$GLGSV,3,3,10,85,04,304,,,,,38*51
$GNGLL,0419.84051,S,05539.92955,E,073827.00,A,A*6F
$GNTXT,01,01,01,More than 100 frame errors, UART RX was disabled*70
$GNRMC,073828.00,A,0419.84051,S,05539.92953,E,0.061,,200525,,,A*78
$GNVTG,,T,,M,0.061,N,0.113,K,A*39
$GNGGA,073828.00,0419.84051,S,05539.92953,E,1,12,0.66,9.1,M,-47.6,M,,*70
$GNGSA,A,3,05,12,24,18,15,25,23,13,29,10,,,1.18,0.66,0.98*16
$GNGSA,A,3,80,73,69,84,70,74,,,,,,,1.18,0.66,0.98*1E
$GPGSV,4,1,15,05,23,029,38,10,20,216,36,12,64,135,37,13,11,089,36*7B
$GPGSV,4,2,15,15,44,114,34,18,27,311,32,23,62,229,35,24,25,162,37*78
$GPGSV,4,3,15,25,78,320,36,28,09,276,,29,21,001,35,36,52,277,30*7A
$GPGSV,4,4,15,40,86,351,38,41,58,082,36,49,32,274,*41
$GLGSV,3,1,10,68,03,045,31,69,38,080,30,70,38,171,24,71,03,202,*6F
$GLGSV,3,2,10,73,64,237,28,74,37,309,30,80,26,167,27,84,07,351,25*63
$GLGSV,3,3,10,85,04,304,,,,,30*59
$GNGLL,0419.84051,S,05539.92953,E,073828.00,A,A*66
$GNTXT,01,01,01,More than 100 frame errors, UART RX was disabled*70
$GNRMC,073829.00,A,0419.84050,S,05539.92953,E,0.038,,200525,,,A*74
$GNVTG,,T,,M,0.038,N,0.071,K,A*30
$GNGGA,073829.00,0419.84050,S,05539.92953,E,1,12,0.66,9.0,M,-47.6,M,,*71
$GNGSA,A,3,05,12,24,18,15,25,23,13,29,10,,,1.18,0.66,0.98*16
$GNGSA,A,3,80,73,69,84,70,74,,,,,,,1.18,0.66,0.98*1E
$GPGSV,4,1,15,05,23,029,42,10,20,216,39,12,64,135,40,13,11,089,33*7C
$GPGSV,4,2,15,15,44,114,37,18,27,311,35,23,62,229,35,24,25,162,39*72
$GPGSV,4,3,15,25,78,320,38,28,09,276,,29,21,001,38,36,52,277,30*79
$GPGSV,4,4,15,40,86,351,41,41,58,082,38,49,32,274,*41
$GLGSV,3,1,10,68,03,044,31,69,38,080,37,70,38,171,23,71,03,202,*6E
$GLGSV,3,2,10,73,64,237,34,74,37,309,30,80,26,167,31,84,07,351,24*68
$GLGSV,3,3,10,85,04,304,,,,,35*5C
$GNGLL,0419.84050,S,05539.92953,E,073829.00,A,A*66
$GNTXT,01,01,01,More than 100 frame errors, UART RX was disabled*70
$GNRMC,073830.00,A,0419.84049,S,05539.92954,E,0.020,,200525,,,A*7A
$GNVTG,,T,,M,0.020,N,0.036,K,A*3A
$GNGGA,073830.00,0419.84049,S,05539.92954,E,1,12,0.66,9.0,M,-47.6,M,,*76
$GNGSA,A,3,05,12,24,18,15,25,23,13,29,10,,,1.18,0.66,0.98*16
$GNGSA,A,3,80,73,69,84,70,74,,,,,,,1.18,0.66,0.98*1E
$GPGSV,4,1,15,05,23,029,42,10,20,216,39,12,64,135,41,13,11,089,36*78
$GPGSV,4,2,15,15,44,114,37,18,27,311,35,23,62,229,36,24,25,162,39*71
$GPGSV,4,3,15,25,78,320,39,28,09,276,,29,21,001,38,36,52,277,31*79
$GPGSV,4,4,15,40,86,351,41,41,58,082,38,49,32,274,*41
$GLGSV,3,1,10,68,03,044,32,69,38,079,40,70,38,171,24,71,03,202,*6C
$GLGSV,3,2,10,73,64,237,35,74,37,309,31,80,26,167,33,84,07,351,25*6B
$GLGSV,3,3,10,85,04,304,,,,,36*5F
$GNGLL,0419.84049,S,05539.92954,E,073830.00,A,A*61
$GNTXT,01,01,01,More than 100 frame errors, UART RX was disabled*70
$GNRMC,073831.00,A,0419.84048,S,05539.92957,E,0.033,,200525,,,A*7B
$GNVTG,,T,,M,0.033,N,0.061,K,A*3A
$GNGGA,073831.00,0419.84048,S,05539.92957,E,1,12,0.66,9.1,M,-47.6,M,,*74
$GNGSA,A,3,05,12,24,18,15,25,23,13,29,10,,,1.18,0.66,0.98*16
$GNGSA,A,3,80,73,69,84,70,74,,,,,,,1.18,0.66,0.98*1E
$GPGSV,4,1,15,05,23,029,43,10,20,216,39,12,64,135,40,13,11,089,37*79
$GPGSV,4,2,15,15,44,114,39,18,27,311,36,23,62,229,36,24,25,162,39*7C
$GPGSV,4,3,15,25,78,320,38,28,09,276,,29,21,001,38,36,52,277,35*7C
$GPGSV,4,4,15,40,86,351,41,41,58,082,36,49,32,274,*4F
$GLGSV,3,1,10,68,03,044,36,69,38,079,39,70,38,170,23,71,03,202,*60
$GLGSV,3,2,10,73,64,237,35,74,37,309,30,80,26,167,32,84,07,351,26*68
$GLGSV,3,3,10,85,04,304,,,,,36*5F
$GNGLL,0419.84048,S,05539.92957,E,073831.00,A,A*62
$GNTXT,01,01,01,More than 100 frame errors, UART RX was disabled*70
$GNRMC,073832.00,A,0419.84047,S,05539.92957,E,0.007,,200525,,,A*70
$GNVTG,,T,,M,0.007,N,0.013,K,A*38
$GNGGA,073832.00,0419.84047,S,05539.92957,E,1,12,0.66,9.1,M,-47.6,M,,*78
$GNGSA,A,3,05,12,24,18,15,25,23,13,29,10,,,1.18,0.66,0.98*16
$GNGSA,A,3,80,73,69,84,70,74,,,,,,,1.18,0.66,0.98*1E
$GPGSV,4,1,15,05,23,029,43,10,20,216,39,12,64,135,40,13,11,089,37*79
$GPGSV,4,2,15,15,44,114,40,18,27,311,35,23,62,229,36,24,25,162,39*71
$GPGSV,4,3,15,25,78,320,39,28,09,276,,29,21,001,37,36,52,277,35*72
$GPGSV,4,4,15,40,86,351,42,41,58,082,35,49,32,274,*4F
$GLGSV,3,1,10,68,03,044,36,69,38,079,36,70,38,170,22,71,04,201,*6A
$GLGSV,3,2,10,73,64,237,35,74,37,309,30,80,26,167,32,84,07,351,26*68
$GLGSV,3,3,10,85,04,304,,,,,33*5A
$GNGLL,0419.84047,S,05539.92957,E,073832.00,A,A*6E
$GNTXT,01,01,01,More than 100 frame errors, UART RX was disabled*70
$GNRMC,073833.00,A,0419.84046,S,05539.92959,E,0.007,,200525,,,A*7E
$GNVTG,,T,,M,0.007,N,0.013,K,A*38
$GNGGA,073833.00,0419.84046,S,05539.92959,E,1,12,0.66,9.1,M,-47.6,M,,*76
$GNGSA,A,3,05,12,24,18,15,25,23,13,29,10,,,1.18,0.66,0.98*16
$GNGSA,A,3,80,73,69,84,70,74,,,,,,,1.18,0.66,0.98*1E
$GPGSV,4,1,15,05,23,029,43,10,20,216,39,12,64,135,40,13,11,089,36*78
$GPGSV,4,2,15,15,44,114,35,18,27,311,34,23,62,229,36,24,25,162,38*73
$GPGSV,4,3,15,25,78,320,39,28,09,276,,29,21,001,37,36,52,277,35*72
$GPGSV,4,4,15,40,86,351,42,41,58,082,35,49,32,274,*4F
$GLGSV,3,1,10,68,03,044,37,69,38,079,39,70,38,170,21,71,04,201,*67
$GLGSV,3,2,10,73,64,237,35,74,37,309,31,80,26,167,32,84,07,351,26*69
$GLGSV,3,3,10,85,04,304,,,,,32*5B
$GNGLL,0419.84046,S,05539.92959,E,073833.00,A,A*60
$GNTXT,01,01,01,More than 100 frame errors, UART RX was disabled*70
$GNRMC,073834.00,A,0419.84045,S,05539.92959,E,0.024,,200525,,,A*7B
$GNVTG,,T,,M,0.024,N,0.044,K,A*3B
$GNGGA,073834.00,0419.84045,S,05539.92959,E,1,12,0.66,9.2,M,-47.6,M,,*71
$GNGSA,A,3,05,12,24,18,15,25,23,13,29,10,,,1.18,0.66,0.98*16
$GNGSA,A,3,80,73,69,84,70,74,,,,,,,1.18,0.66,0.98*1E
$GPGSV,4,1,15,05,23,029,42,10,20,216,39,12,64,135,40,13,11,089,37*78
$GPGSV,4,2,15,15,44,114,39,18,27,311,34,23,62,229,36,24,25,162,39*7E
$GPGSV,4,3,15,25,78,320,39,28,09,276,,29,21,001,38,36,52,277,34*7C
$GPGSV,4,4,15,40,86,351,42,41,58,082,36,49,32,274,*4C
$GLGSV,3,1,10,68,03,044,39,69,38,079,39,70,38,170,21,71,04,201,*69
$GLGSV,3,2,10,73,64,235,36,74,37,309,31,80,26,167,32,84,07,351,26*68
$GLGSV,3,3,10,85,04,304,,,,,32*5B
$GNGLL,0419.84045,S,05539.92959,E,073834.00,A,A*64
$GNTXT,01,01,01,More than 100 frame errors, UART RX was disabled*70
$GNRMC,073835.00,A,0419.84043,S,05539.92959,E,0.030,,200525,,,A*79
$GNVTG,,T,,M,0.030,N,0.056,K,A*3D
$GNGGA,073835.00,0419.84043,S,05539.92959,E,1,12,0.66,9.3,M,-47.6,M,,*77
$GNGSA,A,3,05,12,24,18,15,25,23,13,29,10,,,1.18,0.66,0.98*16
$GNGSA,A,3,80,73,69,84,70,74,,,,,,,1.18,0.66,0.98*1E
$GPGSV,4,1,15,05,23,029,42,10,20,216,39,12,64,135,40,13,11,089,38*77
$GPGSV,4,2,15,15,44,114,39,18,27,311,33,23,62,229,36,24,25,162,39*79
$GPGSV,4,3,15,25,78,320,39,28,09,276,,29,21,001,38,36,52,277,34*7C
$GPGSV,4,4,15,40,86,351,42,41,58,082,36,49,32,274,*4C
$GLGSV,3,1,10,68,03,044,36,69,38,079,39,70,38,170,22,71,04,201,*65
$GLGSV,3,2,10,73,64,235,35,74,37,308,30,80,26,167,32,84,07,351,26*6B
$GLGSV,3,3,10,85,04,304,,,,,32*5B
$GNGLL,0419.84043,S,05539.92959,E,073835.00,A,A*63
$GNTXT,01,01,01,More than 100 frame errors, UART RX was disabled*70
$GNRMC,073836.00,A,0419.84042,S,05539.92960,E,0.014,,200525,,,A*77
$GNVTG,,T,,M,0.014,N,0.026,K,A*3C
$GNGGA,073836.00,0419.84042,S,05539.92960,E,1,12,0.66,9.3,M,-47.6,M,,*7F
$GNGSA,A,3,05,12,24,18,15,25,23,13,29,10,,,1.18,0.66,0.98*16
$GNGSA,A,3,80,73,69,84,70,74,,,,,,,1.18,0.66,0.98*1E
$GPGSV,4,1,15,05,23,029,42,10,20,216,39,12,64,135,39,13,11,089,37*76
$GPGSV,4,2,15,15,44,114,39,18,27,311,34,23,62,229,36,24,25,162,39*7E
$GPGSV,4,3,15,25,78,320,39,28,09,276,,29,21,001,38,36,52,277,34*7C
$GPGSV,4,4,15,40,86,351,42,41,58,082,36,49,32,274,*4C
$GLGSV,3,1,10,68,03,044,38,69,38,079,39,70,38,170,22,71,04,201,*6B
$GLGSV,3,2,10,73,64,235,35,74,37,308,31,80,26,167,32,84,07,351,26*6A
$GLGSV,3,3,10,85,04,304,,,,,33*5A
$GNGLL,0419.84042,S,05539.92960,E,073836.00,A,A*6B
$GNTXT,01,01,01,More than 100 frame errors, UART RX was disabled*70
$GNRMC,073837.00,A,0419.84042,S,05539.92961,E,0.028,,200525,,,A*78
$GNVTG,,T,,M,0.028,N,0.051,K,A*33
$GNGGA,073837.00,0419.84042,S,05539.92961,E,1,12,0.66,9.4,M,-47.6,M,,*78
$GNGSA,A,3,05,12,24,18,15,25,23,13,29,10,,,1.18,0.66,0.98*16
$GNGSA,A,3,80,73,69,84,70,74,,,,,,,1.18,0.66,0.98*1E
$GPGSV,4,1,15,05,23,029,42,10,20,216,38,12,64,135,39,13,11,089,36*76
$GPGSV,4,2,15,15,44,114,38,18,27,311,34,23,62,229,36,24,25,162,38*7E
$GPGSV,4,3,15,25,78,320,38,28,09,276,,29,21,001,38,36,52,277,34*7D
$GPGSV,4,4,15,40,86,351,41,41,58,082,34,49,32,274,*4D
$GLGSV,3,1,10,68,03,044,35,69,38,079,36,70,38,170,22,71,04,201,*69
$GLGSV,3,2,10,73,64,235,34,74,37,308,29,80,26,167,29,84,07,351,26*68
$GLGSV,3,3,10,85,04,304,,,,,31*58
$GNGLL,0419.84042,S,05539.92961,E,073837.00,A,A*6B
$GNTXT,01,01,01,More than 100 frame errors, UART RX was disabled*70
$GNRMC,073838.00,A,0419.84042,S,05539.92960,E,0.095,,200525,,,A*70
$GNVTG,,T,,M,0.095,N,0.175,K,A*32
$GNGGA,073838.00,0419.84042,S,05539.92960,E,1,12,0.66,9.4,M,-47.6,M,,*76
$GNGSA,A,3,05,12,24,18,15,25,23,13,29,10,,,1.18,0.66,0.98*16
$GNGSA,A,3,80,73,69,84,70,74,,,,,,,1.18,0.66,0.98*1E
$GPGSV,4,1,15,05,23,029,44,10,20,216,41,12,64,135,41,13,11,089,39*7E
$GPGSV,4,2,15,15,44,114,40,18,27,311,35,23,62,229,37,24,25,162,40*7E
$GPGSV,4,3,15,25,78,320,41,28,09,276,,29,21,001,40,36,52,277,35*7D
$GPGSV,4,4,15,40,86,351,44,41,58,082,37,49,32,274,*4B
$GLGSV,3,1,10,68,03,044,27,69,38,079,36,70,38,170,22,71,04,201,*6A
$GLGSV,3,2,10,73,64,235,35,74,37,308,31,80,26,167,29,84,07,351,25*63
$GLGSV,3,3,10,85,04,304,,,,,32*5B
$GNGLL,0419.84042,S,05539.92960,E,073838.00,A,A*65
$GNTXT,01,01,01,More than 100 frame errors, UART RX was disabled*70
$GNRMC,073839.00,A,0419.84041,S,05539.92957,E,0.017,,200525,,,A*7C
$GNVTG,,T,,M,0.017,N,0.031,K,A*39
$GNGGA,073839.00,0419.84041,S,05539.92957,E,1,12,0.66,9.5,M,-47.6,M,,*71
$GNGSA,A,3,05,12,24,18,15,25,23,13,29,10,,,1.18,0.66,0.98*16
$GNGSA,A,3,80,73,69,84,70,74,,,,,,,1.18,0.66,0.98*1E
$GPGSV,4,1,15,05,23,029,44,10,20,216,41,12,64,135,41,13,11,089,40*70
$GPGSV,4,2,15,15,44,114,41,18,27,311,36,23,62,229,38,24,25,162,40*73
$GPGSV,4,3,15,25,78,320,41,28,09,276,,29,21,001,40,36,52,277,36*7E
$GPGSV,4,4,15,40,86,351,44,41,58,082,37,49,32,274,*4B
$GLGSV,3,1,10,68,03,044,30,69,38,079,37,70,38,170,21,71,04,201,*6E
$GLGSV,3,2,10,73,64,235,36,74,37,308,31,80,26,167,30,84,07,351,24*69
$GLGSV,3,3,10,85,04,304,,,,,32*5B
$GNGLL,0419.84041,S,05539.92957,E,073839.00,A,A*63
$GNTXT,01,01,01,More than 100 frame errors, UART RX was disabled*70
$GNRMC,073840.00,A,0419.84041,S,05539.92956,E,0.014,,200525,,,A*70
$GNVTG,,T,,M,0.014,N,0.027,K,A*3D
$GNGGA,073840.00,0419.84041,S,05539.92956,E,1,12,0.66,9.5,M,-47.6,M,,*7E
$GNGSA,A,3,05,12,24,18,15,25,23,13,29,10,,,1.18,0.66,0.98*16
$GNGSA,A,3,80,73,69,84,70,74,,,,,,,1.18,0.66,0.98*1E
$GPGSV,4,1,15,05,23,029,43,10,20,216,41,12,64,135,41,13,11,089,39*79
$GPGSV,4,2,15,15,44,114,40,18,27,311,35,23,62,229,37,24,25,162,40*7E
$GPGSV,4,3,15,25,78,320,41,28,09,276,,29,21,001,40,36,52,277,36*7E
$GPGSV,4,4,15,40,86,351,44,41,58,082,38,49,32,274,*44
$GLGSV,3,1,10,68,03,044,36,69,38,079,37,70,38,170,22,71,04,201,*6B
$GLGSV,3,2,10,73,64,235,36,74,37,308,31,80,26,167,30,84,07,351,25*68
$GLGSV,3,3,10,85,04,304,,,,,32*5B
$GNGLL,0419.84041,S,05539.92956,E,073840.00,A,A*6C
$GNTXT,01,01,01,More than 100 frame errors, UART RX was disabled*70
$GNRMC,073841.00,A,0419.84041,S,05539.92955,E,0.023,,200525,,,A*76
$GNVTG,,T,,M,0.023,N,0.043,K,A*3B
$GNGGA,073841.00,0419.84041,S,05539.92955,E,1,12,0.66,9.5,M,-47.6,M,,*7C
$GNGSA,A,3,05,12,24,18,15,25,23,13,29,10,,,1.18,0.66,0.98*16
$GNGSA,A,3,80,73,69,84,70,74,,,,,,,1.18,0.66,0.98*1E
$GPGSV,4,1,15,05,23,029,42,10,20,216,38,12,64,135,41,13,11,089,37*78
$GPGSV,4,2,15,15,44,114,38,18,27,311,34,23,62,229,37,24,25,162,37*70
$GPGSV,4,3,15,25,78,320,40,28,09,276,,29,21,001,37,36,52,277,35*7C
$GPGSV,4,4,15,40,86,351,42,41,58,082,34,49,32,274,*4E
$GLGSV,3,1,10,68,03,044,32,69,38,079,33,70,38,170,22,71,04,201,*6B
$GLGSV,3,2,10,73,64,235,32,74,37,308,30,80,25,167,29,84,07,351,25*66
$GLGSV,3,3,10,85,04,304,,,,,25*5D
$GNGLL,0419.84041,S,05539.92955,E,073841.00,A,A*6E
$GNTXT,01,01,01,More than 100 frame errors, UART RX was disabled*70
$GNRMC,073842.00,A,0419.84041,S,05539.92954,E,0.015,,200525,,,A*71
$GNVTG,,T,,M,0.015,N,0.028,K,A*33
$GNGGA,073842.00,0419.84041,S,05539.92954,E,1,12,0.66,9.6,M,-47.6,M,,*7D
$GNGSA,A,3,05,12,24,18,15,25,23,13,29,10,,,1.18,0.66,0.98*16
$GNGSA,A,3,80,73,69,84,70,74,,,,,,,1.18,0.66,0.98*1E
$GPGSV,4,1,15,05,23,029,43,10,20,216,41,12,64,135,40,13,11,089,39*78
$GPGSV,4,2,15,15,44,114,40,18,27,311,34,23,62,229,37,24,25,162,40*7F
$GPGSV,4,3,15,25,78,320,41,28,09,276,,29,21,001,38,36,52,277,35*72
$GPGSV,4,4,15,40,86,351,44,41,58,082,36,49,32,274,*4A
$GLGSV,3,1,10,68,03,044,36,69,38,079,37,70,38,170,20,71,04,201,*69
$GLGSV,3,2,10,73,64,235,36,74,37,308,30,80,25,167,29,84,07,351,24*63
$GLGSV,3,3,10,85,04,304,,,,,33*5A
$GNGLL,0419.84041,S,05539.92954,E,073842.00,A,A*6C
$GNTXT,01,01,01,More than 100 frame errors, UART RX was disabled*70
$GNRMC,073843.00,A,0419.84040,S,05539.92955,E,0.018,,200525,,,A*7D
$GNVTG,,T,,M,0.018,N,0.033,K,A*34
$GNGGA,073843.00,0419.84040,S,05539.92955,E,1,12,0.66,9.6,M,-47.6,M,,*7C
$GNGSA,A,3,05,12,24,18,15,25,23,13,29,10,,,1.18,0.66,0.98*16
$GNGSA,A,3,80,73,69,84,70,74,,,,,,,1.18,0.66,0.98*1E
$GPGSV,4,1,15,05,23,029,44,10,20,216,41,12,64,135,41,13,11,089,39*7E
$GPGSV,4,2,15,15,44,114,40,18,27,311,35,23,62,229,37,24,25,162,40*7E
$GPGSV,4,3,15,25,78,320,41,28,09,276,,29,21,001,39,36,52,277,35*73
$GPGSV,4,4,15,40,86,351,43,41,58,082,36,49,32,274,*4D
$GLGSV,3,1,10,68,03,044,35,69,38,079,38,70,38,170,20,71,04,201,*65
$GLGSV,3,2,10,73,64,235,37,74,37,308,31,80,25,167,30,84,07,351,24*6B
$GLGSV,3,3,10,85,04,304,,,,,34*5D
$GNGLL,0419.84040,S,05539.92955,E,073843.00,A,A*6D
$GNTXT,01,01,01,More than 100 frame errors, UART RX was disabled*70
$GNRMC,073844.00,A,0419.84040,S,05539.92954,E,0.028,,200525,,,A*78
$GNVTG,,T,,M,0.028,N,0.052,K,A*30
$GNGGA,073844.00,0419.84040,S,05539.92954,E,1,12,0.66,9.6,M,-47.6,M,,*7A
$GNGSA,A,3,05,12,24,18,15,25,23,13,29,10,,,1.18,0.66,0.98*16
$GNGSA,A,3,80,73,69,84,70,74,,,,,,,1.18,0.66,0.98*1E
$GPGSV,4,1,15,05,23,029,44,10,20,216,40,12,64,135,41,13,11,089,40*71
$GPGSV,4,2,15,15,44,114,40,18,27,311,35,23,62,229,37,24,25,162,39*70
$GPGSV,4,3,15,25,78,320,40,28,09,276,,29,21,001,39,36,52,277,36*71
$GPGSV,4,4,15,40,86,351,43,41,58,082,36,49,32,274,*4D
$GLGSV,3,1,10,68,03,044,34,69,38,079,37,70,38,170,21,71,04,201,*6A
$GLGSV,3,2,10,73,64,235,34,74,37,308,30,80,25,167,29,84,07,351,25*60
$GLGSV,3,3,10,85,04,304,,,,,33*5A
$GNGLL,0419.84040,S,05539.92954,E,073844.00,A,A*6B
$GNTXT,01,01,01,More than 100 frame errors, UART RX was disabled*70
$GNRMC,073845.00,A,0419.84039,S,05539.92953,E,0.021,,200525,,,A*79
$GNVTG,,T,,M,0.021,N,0.039,K,A*34
$GNGGA,073845.00,0419.84039,S,05539.92953,E,1,12,0.66,9.6,M,-47.6,M,,*72
$GNGSA,A,3,05,12,24,18,15,25,23,13,29,10,,,1.18,0.66,0.98*16
$GNGSA,A,3,80,73,69,84,70,74,,,,,,,1.18,0.66,0.98*1E
$GPGSV,4,1,15,05,23,029,44,10,20,216,40,12,64,135,41,13,11,089,38*7E
$GPGSV,4,2,15,15,44,114,40,18,27,311,35,23,62,229,37,24,25,162,39*70
$GPGSV,4,3,15,25,78,320,40,28,09,276,,29,21,001,39,36,52,277,36*71
$GPGSV,4,4,15,40,86,351,43,41,58,082,36,49,32,274,*4D
$GLGSV,3,1,10,68,03,044,33,69,38,079,37,70,38,170,22,71,04,201,*6E
$GLGSV,3,2,10,73,64,235,35,74,37,308,30,80,25,167,29,84,07,351,25*61
$GLGSV,3,3,10,85,04,304,,,,,33*5A
$GNGLL,0419.84039,S,05539.92953,E,073845.00,A,A*63
$GNTXT,01,01,01,More than 100 frame errors, UART RX was disabled*70
$GNRMC,073846.00,A,0419.84039,S,05539.92953,E,0.022,,200525,,,A*79
$GNVTG,,T,,M,0.022,N,0.040,K,A*39
$GNGGA,073846.00,0419.84039,S,05539.92953,E,1,12,0.66,9.7,M,-47.6,M,,*70
$GNGSA,A,3,05,12,24,18,15,25,23,13,29,10,,,1.18,0.66,0.98*16
$GNGSA,A,3,80,73,69,84,70,74,,,,,,,1.18,0.66,0.98*1E
$GPGSV,4,1,15,05,23,029,43,10,20,216,40,12,64,135,40,13,11,089,37*77
$GPGSV,4,2,15,15,44,114,39,18,27,311,35,23,62,229,37,24,25,162,41*71
$GPGSV,4,3,15,25,78,320,39,28,09,276,,29,21,001,39,36,52,277,35*7C
$GPGSV,4,4,15,40,86,351,43,41,58,082,35,49,32,274,*4E
$GLGSV,3,1,10,68,03,044,33,69,38,079,38,70,38,170,20,71,04,201,*63
$GLGSV,3,2,10,73,64,235,36,74,37,308,30,80,25,167,30,84,07,351,26*69
$GLGSV,3,3,10,85,04,305,,,,,33*5B
$GNGLL,0419.84039,S,05539.92953,E,073846.00,A,A*60
$GNTXT,01,01,01,More than 100 frame errors, UART RX was disabled*70
$GNRMC,073847.00,A,0419.84038,S,05539.92951,E,0.029,,200525,,,A*70
$GNVTG,,T,,M,0.029,N,0.054,K,A*37
$GNGGA,073847.00,0419.84038,S,05539.92951,E,1,12,0.66,9.7,M,-47.6,M,,*72
$GNGSA,A,3,05,12,24,18,15,25,23,13,29,10,,,1.18,0.66,0.98*16
$GNGSA,A,3,80,73,69,84,70,74,,,,,,,1.18,0.66,0.98*1E
$GPGSV,4,1,15,05,23,029,43,10,20,216,40,12,64,135,41,13,11,089,38*79
$GPGSV,4,2,15,15,44,114,40,18,27,311,35,23,62,229,37,24,25,162,39*70
$GPGSV,4,3,15,25,78,320,39,28,09,276,,29,21,001,39,36,52,277,35*7C
$GPGSV,4,4,15,40,86,351,43,41,58,082,36,49,32,274,*4D
$GLGSV,3,1,10,68,03,044,33,69,38,079,38,70,38,170,21,71,04,201,*62
$GLGSV,3,2,10,73,64,235,36,74,37,308,30,80,25,167,30,84,07,351,26*69
$GLGSV,3,3,10,85,04,305,,,,,33*5B
$GNGLL,0419.84038,S,05539.92951,E,073847.00,A,A*62
$GNTXT,01,01,01,More than 100 frame errors, UART RX was disabled*70
$GNRMC,073848.00,A,0419.84038,S,05539.92950,E,0.026,,200525,,,A*71
$GNVTG,,T,,M,0.026,N,0.049,K,A*34
$GNGGA,073848.00,0419.84038,S,05539.92950,E,1,12,0.66,9.6,M,-47.6,M,,*7D
$GNGSA,A,3,05,12,24,18,15,25,23,13,29,10,,,1.18,0.66,0.98*16
$GNGSA,A,3,80,73,69,84,70,74,,,,,,,1.18,0.66,0.98*1E
$GPGSV,4,1,15,05,23,029,44,10,20,216,40,12,64,135,41,13,11,089,39*7F
$GPGSV,4,2,15,15,44,114,38,18,27,311,35,23,62,229,37,24,25,162,39*7F
$GPGSV,4,3,15,25,78,320,40,28,09,276,,29,21,001,39,36,52,277,35*72
$GPGSV,4,4,15,40,86,351,43,41,58,082,36,49,32,274,*4D
$GLGSV,3,1,10,68,03,044,34,69,38,079,35,70,38,170,22,71,04,201,*6B
$GLGSV,3,2,10,73,64,235,36,74,37,308,30,80,25,167,30,84,07,351,25*6A
$GLGSV,3,3,10,85,04,305,,,,,33*5B
$GNGLL,0419.84038,S,05539.92950,E,073848.00,A,A*6C
$GNTXT,01,01,01,More than 100 frame errors, UART RX was disabled*70
$GNRMC,073849.00,A,0419.84037,S,05539.92949,E,0.018,,200525,,,A*7A
$GNVTG,,T,,M,0.018,N,0.034,K,A*33
$GNGGA,073849.00,0419.84037,S,05539.92949,E,1,12,0.66,9.7,M,-47.6,M,,*7A
$GNGSA,A,3,05,12,24,18,15,25,23,13,29,10,,,1.18,0.66,0.98*16
$GNGSA,A,3,80,73,69,84,70,74,,,,,,,1.18,0.66,0.98*1E
$GPGSV,4,1,15,05,23,029,43,10,20,216,40,12,64,135,41,13,11,089,38*79
$GPGSV,4,2,15,15,44,114,40,18,27,311,35,23,62,229,37,24,25,162,39*70
$GPGSV,4,3,15,25,78,320,40,28,09,276,,29,21,001,38,36,52,277,35*73
$GPGSV,4,4,15,40,86,351,42,41,58,082,36,49,32,274,*4C
$GLGSV,3,1,10,68,03,044,37,69,38,079,38,70,38,170,23,71,04,201,*64
$GLGSV,3,2,10,73,64,235,36,74,37,308,29,80,25,167,30,84,07,351,25*62
$GLGSV,3,3,10,85,04,305,,,,,33*5B
$GNGLL,0419.84037,S,05539.92949,E,073849.00,A,A*6A
$GNTXT,01,01,01,More than 100 frame errors, UART RX was disabled*70
$GNRMC,073850.00,A,0419.84037,S,05539.92948,E,0.007,,200525,,,A*7D
$GNVTG,,T,,M,0.007,N,0.013,K,A*38
$GNGGA,073850.00,0419.84037,S,05539.92948,E,1,12,0.66,9.7,M,-47.6,M,,*73
$GNGSA,A,3,05,12,24,18,15,25,23,13,29,10,,,1.18,0.66,0.98*16
$GNGSA,A,3,80,73,69,84,70,74,,,,,,,1.18,0.66,0.98*1E
$GPGSV,4,1,15,05,23,029,43,10,20,216,39,12,64,135,41,13,11,089,38*77
$GPGSV,4,2,15,15,44,114,39,18,27,311,34,23,62,229,37,24,25,162,39*7F
$GPGSV,4,3,15,25,78,320,40,28,09,276,,29,21,001,39,36,52,277,35*72
$GPGSV,4,4,15,40,86,351,42,41,58,082,35,49,32,274,*4F
$GLGSV,3,1,10,68,03,044,38,69,38,079,38,70,38,170,21,71,04,201,*69
$GLGSV,3,2,10,73,64,235,35,74,37,308,29,80,25,167,30,84,07,351,25*61
$GLGSV,3,3,10,85,04,305,,,,,33*5B
$GNGLL,0419.84037,S,05539.92948,E,073850.00,A,A*63
$GNTXT,01,01,01,More than 100 frame errors, UART RX was disabled*70
$GNRMC,073851.00,A,0419.84037,S,05539.92947,E,0.025,,200525,,,A*73
$GNVTG,,T,,M,0.025,N,0.046,K,A*38
$GNGGA,073851.00,0419.84037,S,05539.92947,E,1,12,0.66,9.7,M,-47.6,M,,*7D
$GNGSA,A,3,05,12,24,18,15,25,23,13,29,10,,,1.18,0.66,0.98*16
$GNGSA,A,3,80,73,69,84,70,74,,,,,,,1.18,0.66,0.98*1E
$GPGSV,4,1,15,05,23,029,43,10,20,216,40,12,64,135,41,13,11,089,38*79
$GPGSV,4,2,15,15,44,114,40,18,27,311,34,23,62,229,37,24,25,162,39*71
$GPGSV,4,3,15,25,78,320,40,28,09,276,,29,21,001,39,36,52,277,35*72
$GPGSV,4,4,15,40,86,351,42,41,58,082,36,49,32,274,*4C
$GLGSV,3,1,10,68,03,044,39,69,38,079,38,70,38,170,21,71,04,201,*68
$GLGSV,3,2,10,73,64,235,36,74,37,308,29,80,25,167,30,84,07,351,25*62
$GLGSV,3,3,10,85,04,305,,,,,33*5B
$GNGLL,0419.84037,S,05539.92947,E,073851.00,A,A*6D
$GNTXT,01,01,01,More than 100 frame errors, UART RX was disabled*70
$GNRMC,073852.00,A,0419.84037,S,05539.92946,E,0.021,,200525,,,A*75
$GNVTG,,T,,M,0.021,N,0.038,K,A*35
$GNGGA,073852.00,0419.84037,S,05539.92946,E,1,12,0.66,9.7,M,-47.6,M,,*7F
$GNGSA,A,3,05,12,24,18,15,25,23,13,29,10,,,1.18,0.66,0.98*16
$GNGSA,A,3,80,73,69,84,70,74,,,,,,,1.18,0.66,0.98*1E
$GPGSV,4,1,15,05,23,029,43,10,20,216,39,12,64,135,41,13,11,089,38*77
$GPGSV,4,2,15,15,44,114,39,18,27,311,34,23,62,229,37,24,25,162,39*7F
$GPGSV,4,3,15,25,78,320,40,28,09,276,,29,21,001,39,36,52,277,36*71
$GPGSV,4,4,15,40,86,351,43,41,58,082,36,49,32,274,*4D
$GLGSV,3,1,10,68,03,044,38,69,38,079,38,70,38,170,22,71,04,201,*6A
$GLGSV,3,2,10,73,64,235,36,74,37,308,29,80,25,167,29,84,07,351,25*6A
$GLGSV,3,3,10,85,04,305,,,,,33*5B
$GNGLL,0419.84037,S,05539.92946,E,073852.00,A,A*6F
$GNTXT,01,01,01,More than 100 frame errors, UART RX was disabled*70
$GNRMC,073853.00,A,0419.84037,S,05539.92945,E,0.012,,200525,,,A*77
$GNVTG,,T,,M,0.012,N,0.021,K,A*3D
$GNGGA,073853.00,0419.84037,S,05539.92945,E,1,12,0.66,9.7,M,-47.6,M,,*7D
$GNGSA,A,3,05,12,24,18,15,25,23,13,29,10,,,1.18,0.66,0.98*16
$GNGSA,A,3,80,73,69,84,70,74,,,,,,,1.18,0.66,0.98*1E
$GPGSV,4,1,15,05,23,029,43,10,20,216,39,12,64,135,41,13,11,089,39*76
$GPGSV,4,2,15,15,44,114,40,18,27,311,34,23,62,229,36,24,25,162,37*7E
$GPGSV,4,3,15,25,78,320,40,28,09,276,,29,21,001,39,36,52,277,35*72
$GPGSV,4,4,15,40,86,351,43,41,58,082,35,49,32,274,*4E
$GLGSV,3,1,10,68,03,044,38,69,38,079,37,70,38,170,22,71,04,201,*65
$GLGSV,3,2,10,73,64,235,35,74,37,308,29,80,25,167,29,84,07,351,25*69
$GLGSV,3,3,10,85,04,305,,,,,33*5B
$GNGLL,0419.84037,S,05539.92945,E,073853.00,A,A*6D
$GNTXT,01,01,01,More than 100 frame errors, UART RX was disabled*70
$GNRMC,073854.00,A,0419.84036,S,05539.92945,E,0.063,,200525,,,D*72
$GNVTG,,T,,M,0.063,N,0.116,K,D*3B
$GNGGA,073854.00,0419.84036,S,05539.92945,E,2,12,0.66,9.8,M,-47.6,M,,0000*77
$GNGSA,A,3,05,12,24,18,15,25,23,13,29,10,,,1.18,0.66,0.98*16
$GNGSA,A,3,80,73,69,84,70,74,,,,,,,1.18,0.66,0.98*1E
$GPGSV,4,1,15,05,23,029,43,10,20,216,40,12,64,135,41,13,11,089,38*79
$GPGSV,4,2,15,15,44,114,38,18,27,311,34,23,62,229,36,24,25,162,38*7E
$GPGSV,4,3,15,25,78,320,40,28,09,276,,29,21,001,39,36,52,277,35*72
$GPGSV,4,4,15,40,86,351,43,41,58,082,35,49,32,274,*4E
$GLGSV,3,1,10,68,03,044,38,69,38,079,37,70,38,170,23,71,04,201,*64
$GLGSV,3,2,10,73,64,235,35,74,37,308,29,80,25,167,29,84,07,351,25*69
$GLGSV,3,3,10,85,04,305,,,,,33*5B
$GNGLL,0419.84036,S,05539.92945,E,073854.00,A,D*6E
$GNTXT,01,01,01,More than 100 frame errors, UART RX was disabled*70
$GNRMC,073855.00,A,0419.84035,S,05539.92944,E,0.018,,200525,,,D*7D
$GNVTG,,T,,M,0.018,N,0.034,K,D*36
$GNGGA,073855.00,0419.84035,S,05539.92944,E,2,12,0.66,9.8,M,-47.6,M,,0000*74
$GNGSA,A,3,05,12,24,18,15,25,23,13,29,10,,,1.18,0.66,0.98*16
$GNGSA,A,3,80,73,69,84,70,74,,,,,,,1.18,0.66,0.98*1E
$GPGSV,4,1,15,05,23,029,41,10,20,216,40,12,64,135,38,13,11,089,35*78
$GPGSV,4,2,15,15,44,114,38,18,27,311,34,23,62,229,36,24,25,162,36*70
$GPGSV,4,3,15,25,78,320,40,28,09,276,,29,21,001,39,36,52,277,34*73
$GPGSV,4,4,15,40,86,351,41,41,58,082,36,49,32,274,*4F
$GLGSV,3,1,10,68,03,044,34,69,38,079,34,70,38,170,22,71,04,201,*6A
$GLGSV,3,2,10,73,64,235,30,74,37,308,29,80,25,167,29,84,07,351,24*6D
$GLGSV,3,3,10,85,04,305,,,,,31*59
$GNGLL,0419.84035,S,05539.92944,E,073855.00,A,D*6D
$GNTXT,01,01,01,More than 100 frame errors, UART RX was disabled*70
$GNRMC,073856.00,A,0419.84035,S,05539.92943,E,0.022,,200525,,,D*70
$GNVTG,,T,,M,0.022,N,0.042,K,D*3E
$GNGGA,073856.00,0419.84035,S,05539.92943,E,2,12,0.66,9.9,M,-47.6,M,,0000*71
$GNGSA,A,3,05,12,24,18,15,25,23,13,29,10,,,1.18,0.66,0.98*16
$GNGSA,A,3,80,73,69,84,70,74,,,,,,,1.18,0.66,0.98*1E
$GPGSV,4,1,15,05,23,029,44,10,20,216,42,12,64,135,41,13,11,089,41*72
$GPGSV,4,2,15,15,44,114,39,18,27,311,34,23,62,229,37,24,25,162,39*7F
$GPGSV,4,3,15,25,78,320,42,28,09,276,,29,21,001,41,36,52,277,34*7E
$GPGSV,4,4,15,40,86,351,43,41,58,082,39,49,32,274,*42
$GLGSV,3,1,10,68,03,044,36,69,38,079,39,70,38,170,21,71,04,201,*66
$GLGSV,3,2,10,73,64,235,33,74,37,308,30,80,25,167,29,84,07,351,24*66
$GLGSV,3,3,10,85,04,305,,,,,28*51
$GNGLL,0419.84035,S,05539.92943,E,073856.00,A,D*69
$GNTXT,01,01,01,More than 100 frame errors, UART RX was disabled*70
$GNRMC,073857.00,A,0419.84035,S,05539.92942,E,0.016,,200525,,,D*77
$GNVTG,,T,,M,0.016,N,0.030,K,D*3C
$GNGGA,073857.00,0419.84035,S,05539.92942,E,2,12,0.66,9.9,M,-47.6,M,,0000*71
$GNGSA,A,3,05,12,24,18,15,25,23,13,29,10,,,1.18,0.66,0.98*16
$GNGSA,A,3,80,73,69,84,70,74,,,,,,,1.18,0.66,0.98*1E
$GPGSV,4,1,15,05,23,029,44,10,20,216,42,12,64,135,42,13,11,089,41*71
$GPGSV,4,2,15,15,44,114,41,18,27,311,35,23,62,229,38,24,25,162,40*70
$GPGSV,4,3,15,25,78,320,42,28,09,276,,29,21,001,41,36,52,277,36*7C
$GPGSV,4,4,15,40,86,351,44,41,58,082,38,49,32,274,*44
$GLGSV,3,1,10,68,03,044,36,69,38,079,39,70,38,170,20,71,04,201,*67
$GLGSV,3,2,10,73,64,235,35,74,37,308,30,80,25,167,30,84,07,351,24*68
$GLGSV,3,3,10,85,04,305,,,,,30*58
$GNGLL,0419.84035,S,05539.92942,E,073857.00,A,D*69
$GNTXT,01,01,01,More than 100 frame errors, UART RX was disabled*70
$GNRMC,073858.00,A,0419.84035,S,05539.92941,E,0.016,,200525,,,D*7B
$GNVTG,,T,,M,0.016,N,0.030,K,D*3C
$GNGGA,073858.00,0419.84035,S,05539.92941,E,2,12,0.66,9.9,M,-47.6,M,,0000*7D
$GNGSA,A,3,05,12,24,18,15,25,23,13,29,10,,,1.18,0.66,0.98*16
$GNGSA,A,3,80,73,69,84,70,74,,,,,,,1.18,0.66,0.98*1E
$GPGSV,4,1,15,05,23,029,44,10,20,216,41,12,64,135,42,13,11,089,40*73
$GPGSV,4,2,15,15,44,114,41,18,27,311,35,23,62,229,38,24,25,162,39*7E
