$GNTXT,01,01,01,More than 100 frame errors, UART RX was disabled*70
b0LwM
*
!o%w_B 8
!<b!9 {4Ta%:RC 
YuBVxCDL#mtMZNEQX1W!}XIbwL;$GNRMC,132100.00,A,0419.95621,S,05539.88317,E,0.048,,220525,,,D*73
$GNVTG,,T,,M,0.048,N,0.089,K,D*35
$GNGNS,132100.00,0419.95621,S,05539.88317,E,DA,19,0.55,13.4,-47.6,,0000*6D
$GNGGA,132100.00,0419.95621,S,05539.88317,E,2,12,0.55,13.4,M,-47.6,M,,0000*4A
$GNGSA,A,3,32,28,27,18,26,31,16,10,08,41,04,,1.07,0.55,0.92*1F
$GNGSA,A,3,66,87,88,67,77,76,81,68,,,,,1.07,0.55,0.92*19
$GPGSV,5,1,17,02,07,333,,04,10,229,26,08,26,298,23,10,13,028,33*72
$GPGSV,5,2,17,16,24,212,27,18,27,119,37,23,01,066,,26,29,181,29*70
$GPGSV,5,3,17,27,56,265,32,28,60,098,33,31,57,162,33,32,30,009,30*7F
$GPGSV,5,4,17,36,52,277,30,40,84,353,,41,58,082,37,49,32,274,*7B
$GPGSV,5,5,17,50,10,089,*4A
$GLGSV,3,1,09,66,23,342,14,67,29,281,17,68,07,236,22,76,15,109,35*6D
$GLGSV,3,2,09,77,23,156,24,78,04,210,21,81,22,344,16,87,33,144,31*62
$GLGSV,3,3,09,88,73,031,27*5F
$GNGLL,0419.95621,S,05539.88317,E,132100.00,A,D*64
$GNGRS,132100.00,1,2.7,-1.0,0.3,-1.6,4.3,-0.4,2.0,1.1,-0.7,173,4.6,*60
$GNGRS,132100.00,1,1.2,3.8,4.7,-0.9,3.5,-1.4,3.1,-14.0,,,,*4A
$GNGST,132100.00,72404,,,,1.6,1.6,3.3*7D
$GNZDA,132100.00,22,05,2025,00,00*79
$GNGBS,132100.00,1.6,1.6,3.3,,,,*5E
b0LwM
*
$w[BZ 8M
!<b!9 ({4Ta$:RC 
YuwBV!ClDL!m^MN:QXW!XI9bwwL$GNRMC,132101.00,A,0419.95621,S,05539.88317,E,0.022,,220525,,,D*7E
$GNVTG,,T,,M,0.022,N,0.041,K,D*3D
$GNGNS,132101.00,0419.95621,S,05539.88317,E,DA,19,0.55,13.5,-47.6,,0000*6D
$GNGGA,132101.00,0419.95621,S,05539.88317,E,2,12,0.55,13.5,M,-47.6,M,,0000*4A
$GNGSA,A,3,32,28,27,18,26,31,16,10,08,41,04,,1.07,0.55,0.92*1F
$GNGSA,A,3,66,87,88,67,77,76,81,68,,,,,1.07,0.55,0.92*19
$GPGSV,5,1,17,02,07,333,,04,10,229,27,08,26,298,22,10,13,028,31*70
$GPGSV,5,2,17,16,24,212,30,18,27,119,36,23,01,066,,26,29,181,28*76
$GPGSV,5,3,17,27,56,264,32,28,60,098,33,31,57,162,33,32,30,009,30*7E
$GPGSV,5,4,17,36,52,277,29,40,84,353,,41,58,082,36,49,32,274,*72
$GPGSV,5,5,17,50,10,089,*4A
$GNTXT,01,01,01,More than 100 frame errors, UART RX was disabled*70
$GLGSV,3,1,09,66,23,342,13,67,29,281,17,68,07,236,23,76,15,109,33*6D
$GLGSV,3,2,09,77,23,156,23,78,04,210,21,81,22,344,15,87,33,144,30*67
$GLGSV,3,3,09,88,73,031,25*5D
$GNGLL,0419.95621,S,05539.88317,E,132101.00,A,D*65
$GNGRS,132101.00,1,3.0,-1.2,-1.8,-1.6,3.5,-1.1,2.5,-2.4,-0.4,173,3.9,*62
$GNGRS,132101.00,1,-7.4,5.4,2.7,-1.5,2.0,-1.6,2.1,-13.4,,,,*63
$GNGST,132101.00,917,,,,1.7,1.6,3.3*77
$GNZDA,132101.00,22,05,2025,00,00*78
$GNGBS,132101.00,1.7,1.6,3.3,,,,*5E
$GNTXT,01,01,01,More than 100 frame errors, UART RX was disabled*70
b0LwM
G*
 %wVB"8
"<a"9 {4Ta%:RnC 
Y!uBVCEDL&mbMNQXW"!kXI\bw_LV$GNRMC,132102.00,A,0419.95621,S,05539.88317,E,0.016,,220525,,,D*7A
$GNVTG,,T,,M,0.016,N,0.030,K,D*3C
$GNGNS,132102.00,0419.95621,S,05539.88317,E,DA,19,0.55,13.5,-47.6,,0000*6E
$GNGGA,132102.00,0419.95621,S,05539.88317,E,2,12,0.55,13.5,M,-47.6,M,,0000*49
$GNGSA,A,3,32,28,27,18,26,31,16,10,08,41,04,,1.07,0.55,0.92*1F
$GNGSA,A,3,66,87,88,67,77,76,81,68,,,,,1.07,0.55,0.92*19
$GPGSV,5,1,17,02,07,333,,04,10,229,28,08,26,298,23,10,13,028,32*7D
$GPGSV,5,2,17,16,24,212,31,18,27,119,37,23,01,066,,26,29,181,30*7F
$GPGSV,5,3,17,27,56,264,34,28,60,097,34,31,57,162,34,32,30,009,31*76
$GPGSV,5,4,17,36,52,277,30,40,84,353,,41,58,082,37,49,32,274,*7B
$GPGSV,5,5,17,50,10,089,*4A
$GLGSV,3,1,09,66,23,342,15,67,29,281,20,68,07,236,26,76,15,109,38*61
$GLGSV,3,2,09,77,23,156,25,78,04,210,22,81,22,344,17,87,33,144,34*64
$GLGSV,3,3,09,88,73,031,27*5F
$GNGLL,0419.95621,S,05539.88317,E,132102.00,A,D*66
$GNGRS,132102.00,1,2.4,-0.9,-0.1,-1.7,2.0,0.1,-0.8,-0.2,-1.0,173,3.3,*66
$GNGRS,132102.00,1,1.3,6.2,1.6,-1.9,5.1,-1.6,5.0,-15.4,,,,*41
$GNGST,132102.00,77767,,,,1.7,1.6,3.3*7D
$GNZDA,132102.00,22,05,2025,00,00*7B
$GNGBS,132102.00,1.7,1.6,3.3,,,,*5D
b0LhwM
*
 7w~B#8y
<a#9  /{4Ta :R~C 
YuBVvCPDLmM}NQXZW!XI
bhwGM$GNRMC,132103.00,A,0419.95616,S,05539.88316,E,0.418,,220525,,,D*74
$GNVTG,,T,,M,0.418,N,0.774,K,D*31
$GNGNS,132103.00,0419.95616,S,05539.88316,E,DA,19,0.55,13.5,-47.6,,0000*6A
$GNGGA,132103.00,0419.95616,S,05539.88316,E,2,12,0.55,13.5,M,-47.6,M,,0000*4D
$GNGSA,A,3,32,28,27,18,26,31,16,10,08,41,04,,1.07,0.55,0.92*1F
$GNGSA,A,3,66,87,88,67,77,76,81,68,,,,,1.07,0.55,0.92*19
$GPGSV,5,1,17,02,07,333,,04,10,229,29,08,26,298,24,10,13,028,32*7B
$GPGSV,5,2,17,16,24,212,27,18,27,119,27,23,01,066,,26,29,181,35*7C
$GNTXT,01,01,01,More than 100 frame errors, UART RX was disabled*70
$GPGSV,5,3,17,27,56,264,30,28,60,097,31,31,57,162,35,32,30,009,32*75
$GPGSV,5,4,17,36,52,277,,40,84,353,,41,58,082,32,49,32,274,*7D
$GPGSV,5,5,17,50,10,089,*4A
$GLGSV,3,1,09,66,23,342,19,67,29,281,21,68,07,236,26,76,15,109,28*6D
$GLGSV,3,2,09,77,23,156,25,78,04,210,24,81,22,344,17,87,33,144,29*6E
$GLGSV,3,3,09,88,73,031,27*5F
$GNGLL,0419.95616,S,05539.88316,E,132103.00,A,D*62
$GNGRS,132103.00,1,-2.1,-0.9,-1.4,-1.3,2.5,-0.3,0.5,-2.7,-0.9,173,4.9,*47
$GNGRS,132103.00,1,1.2,1.3,0.0,-1.8,3.8,-1.2,3.5,-16.4,,,,*4A
$GNGST,132103.00,112624,,,,1.7,1.6,3.4*4F
$GNZDA,132103.00,22,05,2025,00,00*7A
$GNGBS,132103.00,1.7,1.6,3.4,,,,*5B
$GNTXT,01,01,01,More than 100 frame errors, UART RX was disabled*70
b0LPwM
*"
yewB!88
 <a9S {4Ta$:RkC 
Y u}BVCDL#mMNRQXHW!XI?bPw/M($GNRMC,132104.00,A,0419.95619,S,05539.88322,E,0.170,,220525,,,D*70
$GNVTG,,T,,M,0.170,N,0.314,K,D*38
$GNGNS,132104.00,0419.95619,S,05539.88322,E,DA,19,0.55,13.5,-47.6,,0000*65
$GNGGA,132104.00,0419.95619,S,05539.88322,E,2,12,0.55,13.5,M,-47.6,M,,0000*42
$GNGSA,A,3,32,28,27,18,26,31,16,10,08,41,04,,1.07,0.55,0.92*1F
$GNGSA,A,3,66,87,88,67,77,76,81,68,,,,,1.07,0.55,0.92*19
$GPGSV,5,1,17,02,07,333,,04,10,229,29,08,26,298,30,10,13,028,30*7C
$GPGSV,5,2,17,16,24,212,26,18,27,119,31,23,01,066,,26,29,181,33*7C
$GPGSV,5,3,17,27,56,264,30,28,60,097,32,31,57,162,28,32,30,009,25*7C
$GPGSV,5,4,17,36,52,277,,40,84,353,,41,58,082,36,49,32,274,*79
$GPGSV,5,5,17,50,10,089,*4A
$GLGSV,3,1,09,66,23,342,16,67,29,281,27,68,07,236,31,76,15,109,35*6E
$GLGSV,3,2,09,77,23,156,30,78,04,210,31,81,22,344,15,87,33,144,21*64
$GLGSV,3,3,09,88,73,031,26*5E
$GNGLL,0419.95619,S,05539.88322,E,132104.00,A,D*6D
$GNGRS,132104.00,1,-1.1,2.4,-3.6,-0.7,0.6,0.8,1.0,1.2,0.3,173,5.1,*42
$GNGRS,132104.00,1,15.3,4.1,-1.9,-3.0,1.4,0.3,3.3,-12.8,,,,*7C
$GNGST,132104.00,917,,,,1.7,1.6,3.4*75
$GNZDA,132104.00,22,05,2025,00,00*7D
$GNGBS,132104.00,1.7,1.6,3.4,,,,*5C
$GNTXT,01,01,01,More than 100 frame errors, UART RX was disabled*70
b0L8 wM'
#*
f*wB(3(8
'<av): {4Ta):R`C 
Y(uBVCzD#/L)mM"N"QXW%!
X#IEfb8 w
Mt$GNRMC,132105.00,A,0419.95619,S,05539.88331,E,0.029,,220525,,,D*7E
$GNVTG,,T,,M,0.029,N,0.053,K,D*35
$GNGNS,132105.00,0419.95619,S,05539.88331,E,DA,19,0.55,14.0,-47.6,,0000*64
$GNGGA,132105.00,0419.95619,S,05539.88331,E,2,12,0.55,14.0,M,-47.6,M,,0000*43
$GNGSA,A,3,32,28,27,18,26,31,16,10,08,41,04,,1.07,0.55,0.92*1F
$GNGSA,A,3,66,87,88,67,77,76,81,68,,,,,1.07,0.55,0.92*19
$GPGSV,5,1,17,02,07,333,,04,10,229,39,08,26,298,35,10,13,028,31*79
$GPGSV,5,2,17,16,24,212,31,18,27,119,42,23,01,066,,26,29,181,40*7A
$GPGSV,5,3,17,27,56,264,40,28,60,097,39,31,58,161,41,32,30,009,31*76
$GPGSV,5,4,17,36,52,277,,40,84,353,,41,58,082,41,49,32,274,*79
$GPGSV,5,5,17,50,10,089,*4A
$GLGSV,3,1,09,66,23,342,20,67,29,281,28,68,07,236,35,76,15,109,41*63
$GLGSV,3,2,09,77,23,156,34,78,04,210,34,81,22,344,20,87,33,144,37*64
$GLGSV,3,3,09,88,73,031,35*5C
$GNGLL,0419.95619,S,05539.88331,E,132105.00,A,D*6E
$GNGRS,132105.00,1,-0.7,3.7,-2.6,-3.4,0.5,1.5,-1.1,6.1,-1.1,172,5.3,*4D
$GNGRS,132105.00,1,1.7,2.7,5.8,-3.9,2.4,-0.7,2.4,-9.8,,,,*7B
$GNGST,132105.00,917,,,,1.7,1.6,3.2*72
$GNZDA,132105.00,22,05,2025,00,00*7C
$GNGBS,132105.00,1.7,1.6,3.2,,,,*5B
$GNTXT,01,01,01,More than 100 frame errors, UART RX was disabled*70
b0L $wM'
\$*
 c*wOB(G(8:
&<a*: {4Ta(:RtC 
Y$uBVCID$L'mM"N"QX?W&!X#Iab $wMK$GNRMC,132106.00,A,0419.95618,S,05539.88330,E,0.027,,220525,,,D*73
$GNVTG,,T,,M,0.027,N,0.050,K,D*38
$GNGNS,132106.00,0419.95618,S,05539.88330,E,DA,19,0.55,14.0,-47.6,,0000*67
$GNGGA,132106.00,0419.95618,S,05539.88330,E,2,12,0.55,14.0,M,-47.6,M,,0000*40
$GNGSA,A,3,32,28,27,18,26,31,16,10,08,41,04,,1.07,0.55,0.92*1F
$GNGSA,A,3,66,87,88,67,77,76,81,68,,,,,1.07,0.55,0.92*19
$GPGSV,5,1,17,02,07,333,,04,10,229,39,08,26,298,36,10,13,028,30*7B
$GPGSV,5,2,17,16,24,212,32,18,27,119,42,23,01,066,,26,29,181,40*79
$GPGSV,5,3,17,27,56,264,40,28,60,097,38,31,58,161,42,32,30,009,31*74
$GPGSV,5,4,17,36,52,277,,40,84,353,,41,58,082,40,49,32,274,*78
$GPGSV,5,5,17,50,10,089,*4A
$GLGSV,3,1,09,66,23,342,27,67,29,281,29,68,07,236,36,76,15,109,39*69
$GLGSV,3,2,09,77,23,156,34,78,04,210,34,81,22,344,21,87,33,144,38*6A
$GLGSV,3,3,09,88,73,031,35*5C
$GNGLL,0419.95618,S,05539.88330,E,132106.00,A,D*6D
$GNGRS,132106.00,1,-3.6,2.3,-2.0,-4.3,0.7,-0.5,1.0,0.1,4.3,173,6.0,*60
$GNGRS,132106.00,1,1.9,1.8,4.9,-7.0,5.4,-3.7,3.2,-8.8,,,,*75
$GNGST,132106.00,917,,,,1.6,1.5,3.1*70
$GNZDA,132106.00,22,05,2025,00,00*7F
$GNGBS,132106.00,1.6,1.5,3.1,,,,*59
$GNTXT,01,01,01,More than 100 frame errors, UART RX was disabled*70
b0L(wM&
$*
M!*wB)(8,
&<a*:A {4$Ta):RrC 
Y(uBV?CkD#L)mM"-N"QX;W&!bX#Ib(wM#]$GNRMC,132107.00,A,0419.95617,S,05539.88328,E,0.022,,220525,,,D*71
$GNVTG,,T,,M,0.022,N,0.040,K,D*3C
$GNGNS,132107.00,0419.95617,S,05539.88328,E,DA,19,0.55,14.2,-47.6,,0000*62
$GNGGA,132107.00,0419.95617,S,05539.88328,E,2,12,0.55,14.2,M,-47.6,M,,0000*45
$GNGSA,A,3,32,28,27,18,26,31,16,10,08,41,04,,1.07,0.55,0.92*1F
$GNGSA,A,3,66,87,88,67,77,76,81,68,,,,,1.07,0.55,0.92*19
$GPGSV,5,1,17,02,07,333,,04,10,229,38,08,26,298,36,10,13,028,31*7B
$GPGSV,5,2,17,16,24,212,33,18,27,119,42,23,01,066,,26,29,181,41*79
$GPGSV,5,3,17,27,56,264,40,28,60,097,38,31,58,161,42,32,30,009,31*74
$GPGSV,5,4,17,36,52,277,,40,84,353,36,41,58,082,41,49,32,274,*7C
$GPGSV,5,5,17,50,10,089,*4A
$GLGSV,3,1,09,66,23,342,27,67,29,281,29,68,07,236,35,76,15,109,41*65
$GLGSV,3,2,09,77,23,156,34,78,04,210,34,81,22,344,22,87,33,144,38*69
$GLGSV,3,3,09,88,73,031,35*5C
$GNGLL,0419.95617,S,05539.88328,E,132107.00,A,D*6A
$GNGRS,132107.00,1,-0.3,1.6,0.4,-2.9,-0.4,0.6,-2.8,0.8,2.0,173,4.2,*6C
$GNGRS,132107.00,1,0.6,1.0,1.7,-4.0,3.0,-3.6,3.1,-7.9,,,,*74
$GNGST,132107.00,917,,,,1.6,1.4,3.0*71
$GNZDA,132107.00,22,05,2025,00,00*7E
$GNGBS,132107.00,1.6,1.4,3.0,,,,*58
b0L+wM%
$*N
 *wJB((8
&<a+:  {4'Ta*:RC 
Y&uBV=CD#.L(m?M"N"QXW&!X#Iw:b+wM$GNRMC,132108.00,A,0419.95615,S,05539.88330,E,0.023,,220525,,,D*74
$GNVTG,,T,,M,0.023,N,0.042,K,D*3F
$GNGNS,132108.00,0419.95615,S,05539.88330,E,DA,19,0.55,14.4,-47.6,,0000*60
$GNGGA,132108.00,0419.95615,S,05539.88330,E,2,12,0.55,14.4,M,-47.6,M,,0000*47
$GNGSA,A,3,32,28,27,18,26,31,16,10,08,41,04,,1.07,0.55,0.92*1F
$GNGSA,A,3,66,87,88,67,77,76,81,68,,,,,1.07,0.55,0.92*19
$GPGSV,5,1,17,02,07,333,,04,10,229,37,08,26,298,36,10,13,028,30*75
$GPGSV,5,2,17,16,24,212,32,18,27,119,42,23,01,066,,26,29,181,40*79
$GPGSV,5,3,17,27,56,264,40,28,60,097,38,31,58,161,43,32,30,009,32*76
$GPGSV,5,4,17,36,52,277,,40,84,353,39,41,58,082,42,49,32,274,*70
$GPGSV,5,5,17,50,10,089,*4A
$GNTXT,01,01,01,More than 100 frame errors, UART RX was disabled*70
$GLGSV,3,1,09,66,23,342,27,67,29,281,29,68,07,236,35,76,15,109,40*64
$GLGSV,3,2,09,77,23,156,34,78,04,210,34,81,22,344,23,87,33,144,38*68
$GLGSV,3,3,09,88,73,031,35*5C
$GNGLL,0419.95615,S,05539.88330,E,132108.00,A,D*6E
$GNGRS,132108.00,1,2.3,1.6,-1.1,-1.8,-0.9,0.2,-0.6,2.8,0.8,173,4.8,*60
$GNGRS,132108.00,1,0.6,0.0,-0.1,-8.2,2.5,-4.5,5.1,-9.8,,,,*57
$GNGST,132108.00,917,,,,1.6,1.4,2.9*76
$GNZDA,132108.00,22,05,2025,00,00*71
$GNGBS,132108.00,1.6,1.4,2.9,,,,*5F
$GNTXT,01,01,01,More than 100 frame errors, UART RX was disabled*70
b0L/wM%
$*?
 *wOB(;(8*
&<a*:  ,{%4'Ta):R~C 
Y!uEBV=CD#L&mM!
N"*QXW(!mX$IV&b/wM$GNRMC,132109.00,A,0419.95616,S,05539.88334,E,0.036,,220525,,,D*76
$GNVTG,,T,,M,0.036,N,0.067,K,D*3C
$GNGNS,132109.00,0419.95616,S,05539.88334,E,DA,19,0.55,14.5,-47.6,,0000*67
$GNGGA,132109.00,0419.95616,S,05539.88334,E,2,12,0.55,14.5,M,-47.6,M,,0000*40
$GNGSA,A,3,32,28,27,18,26,31,16,10,08,41,04,,1.07,0.55,0.92*1F
$GNGSA,A,3,66,87,88,67,77,76,81,68,,,,,1.07,0.55,0.92*19
$GPGSV,5,1,17,02,07,333,,04,10,229,37,08,26,298,36,10,13,028,31*74
$GPGSV,5,2,17,16,24,212,32,18,27,119,42,23,01,066,,26,29,181,40*79
$GPGSV,5,3,17,27,56,264,40,28,60,097,38,31,58,161,42,32,30,009,32*77
$GPGSV,5,4,17,36,52,277,37,40,84,353,39,41,58,082,41,49,32,274,*77
$GPGSV,5,5,17,50,10,089,*4A
$GLGSV,3,1,09,66,23,342,27,67,29,281,30,68,07,236,35,76,15,109,38*63
$GLGSV,3,2,09,77,23,156,33,78,04,210,34,81,22,344,22,87,33,144,40*61
$GLGSV,3,3,09,88,73,031,36*5F
$GNGLL,0419.95616,S,05539.88334,E,132109.00,A,D*68
$GNGRS,132109.00,1,3.0,2.5,-2.1,-1.8,0.6,0.1,-0.1,-0.8,0.6,173,3.8,*60
$GNGRS,132109.00,1,0.6,1.1,-1.7,-4.9,5.2,-3.6,7.1,-10.5,,,,*65
$GNGST,132109.00,917,,,,1.6,1.4,2.9*77
$GNZDA,132109.00,22,05,2025,00,00*70
$GNGBS,132109.00,1.6,1.4,2.9,,,,*5E
$GNTXT,01,01,01,More than 100 frame errors, UART RX was disabled*70
b0L3wM%
$*F
 2*w0B)'8
&<ap*:. [{%4'Ta):RC 
Y(uBVjC]D#L(mM!N"gQX?W&!X$IMb3wM$GNRMC,132110.00,A,0419.95616,S,05539.88335,E,0.021,,220525,,,D*79
$GNVTG,,T,,M,0.021,N,0.038,K,D*30
$GNGNS,132110.00,0419.95616,S,05539.88335,E,DA,19,0.55,14.6,-47.6,,0000*6D
$GNGGA,132110.00,0419.95616,S,05539.88335,E,2,12,0.55,14.6,M,-47.6,M,,0000*4A
$GNGSA,A,3,32,28,27,18,26,31,16,10,08,41,04,,1.07,0.55,0.92*1F
$GNGSA,A,3,66,87,88,67,77,76,81,68,,,,,1.07,0.55,0.92*19
$GPGSV,5,1,17,02,07,333,,04,10,229,37,08,26,298,36,10,13,028,31*74
$GPGSV,5,2,17,16,24,212,32,18,27,119,42,23,01,066,,26,29,181,41*78
$GPGSV,5,3,17,27,56,264,39,28,60,097,38,31,58,161,42,32,30,009,31*7A
$GPGSV,5,4,17,36,52,277,37,40,84,353,39,41,58,082,41,49,32,274,*77
$GPGSV,5,5,17,50,10,089,*4A
$GLGSV,3,1,09,66,23,342,27,67,29,281,30,68,07,236,35,76,15,109,40*6C
$GLGSV,3,2,09,77,23,156,33,78,04,210,34,81,22,344,23,87,33,144,38*6F
$GLGSV,3,3,09,88,73,031,36*5F
$GNGLL,0419.95616,S,05539.88335,E,132110.00,A,D*61
$GNGRS,132110.00,1,3.5,1.1,-0.5,-2.1,-0.5,0.5,-2.1,2.4,0.7,173,4.1,*62
$GNGRS,132110.00,1,1.1,0.0,-0.3,-6.7,7.3,-1.3,5.7,-7.9,,,,*58
$GNGST,132110.00,917,,,,1.5,1.3,2.8*7A
$GNZDA,132110.00,22,05,2025,00,00*78
$GNGBS,132110.00,1.5,1.3,2.8,,,,*53
$GNTXT,01,01,01,More than 100 frame errors, UART RX was disabled*70
b0L7wM%
#*
!j'w!B(&8
#<a': {$4%Ta':RC 
Y&uEBVCD#XL)mM"N!mQX!W&!X#Ib7w!M$GNRMC,132111.00,A,0419.95617,S,05539.88335,E,0.019,,220525,,,D*72
$GNVTG,,T,,M,0.019,N,0.035,K,D*36
$GNGNS,132111.00,0419.95617,S,05539.88335,E,DA,19,0.55,14.5,-47.6,,0000*6E
$GNGGA,132111.00,0419.95617,S,05539.88335,E,2,12,0.55,14.5,M,-47.6,M,,0000*49
$GNGSA,A,3,32,28,27,18,26,31,16,10,08,41,04,,1.07,0.55,0.92*1F
$GNGSA,A,3,66,87,88,67,77,76,81,68,,,,,1.07,0.55,0.92*19
$GPGSV,5,1,17,02,07,333,,04,10,229,37,08,26,298,35,10,13,028,27*70
$GPGSV,5,2,17,16,24,212,33,18,27,119,39,23,01,066,,26,29,181,40*74
$GPGSV,5,3,17,27,56,264,38,28,60,097,35,31,58,161,39,32,30,009,30*7B
$GPGSV,5,4,17,36,52,277,36,40,84,353,37,41,58,082,39,49,32,274,*77
$GPGSV,5,5,17,50,10,089,*4A
$GLGSV,3,1,09,66,23,342,27,67,29,281,30,68,07,236,35,76,15,109,41*6D
$GLGSV,3,2,09,77,23,156,34,78,04,210,33,81,22,344,22,87,33,144,38*6E
$GLGSV,3,3,09,88,73,031,35*5C
$GNGLL,0419.95617,S,05539.88335,E,132111.00,A,D*61
$GNGRS,132111.00,1,1.3,1.8,-0.5,-2.2,0.0,-0.1,-1.5,2.4,1.9,173,4.9,*6C
$GNGRS,132111.00,1,0.3,1.8,-1.2,-2.3,6.8,-0.8,8.0,-6.8,,,,*59
$GNGST,132111.00,917,,,,1.5,1.3,2.7*74
$GNZDA,132111.00,22,05,2025,00,00*79
$GNGBS,132111.00,1.5,1.3,2.7,,,,*5D
$GNTXT,01,01,01,More than 100 frame errors, UART RX was disabled*70
b0L;wM$
#*
f!k'wAB'&8
#<a%: n{%4&Ta':RC 
Y uUBVGC2D"L%mM"N!bQXW(!X#I>2b;wo%MZV$GNRMC,132112.00,A,0419.95617,S,05539.88334,E,0.029,,220525,,,D*73
$GNVTG,,T,,M,0.029,N,0.054,K,D*32
$GNGNS,132112.00,0419.95617,S,05539.88334,E,DA,19,0.55,14.5,-47.6,,0000*6C
$GNGGA,132112.00,0419.95617,S,05539.88334,E,2,12,0.55,14.5,M,-47.6,M,,0000*4B
$GNGSA,A,3,32,28,27,18,26,31,16,10,08,41,04,,1.07,0.55,0.92*1F
$GNGSA,A,3,66,87,88,67,77,76,81,68,,,,,1.07,0.55,0.92*19
$GPGSV,5,1,17,02,07,333,,04,10,229,36,08,26,298,35,10,13,028,27*71
$GPGSV,5,2,17,16,24,212,33,18,27,119,39,23,01,066,,26,29,181,39*7A
$GPGSV,5,3,17,27,56,264,38,28,60,097,35,31,58,161,37,32,30,009,31*74
$GPGSV,5,4,17,36,52,277,37,40,84,353,38,41,58,082,39,49,32,274,*79
$GPGSV,5,5,17,50,10,089,*4A
$GLGSV,3,1,09,66,23,342,26,67,29,281,31,68,07,236,34,76,15,109,37*6D
$GLGSV,3,2,09,77,23,156,34,78,04,210,33,81,22,344,22,87,33,144,40*61
$GLGSV,3,3,09,88,73,031,35*5C
$GNGLL,0419.95617,S,05539.88334,E,132112.00,A,D*63
$GNGRS,132112.00,1,1.1,2.0,-1.1,-1.9,-0.1,-0.7,1.1,3.6,1.3,173,4.4,*6C
$GNGRS,132112.00,1,0.7,1.4,-0.5,-2.1,6.8,-0.4,10.0,-5.8,,,,*60
$GNGST,132112.00,917,,,,1.5,1.3,2.7*77
$GNZDA,132112.00,22,05,2025,00,00*7A
$GNGBS,132112.00,1.5,1.3,2.7,,,,*5E
$GNTXT,01,01,01,More than 100 frame errors, UART RX was disabled*70
b0Lx?wM%
$*z
!(wMB)&8
$<a&: #{&4'Ta':RC 
Y&uXBViCD!L(mM"N!eQXW'!X#Iobx?wW)M2$GNRMC,132113.00,A,0419.95618,S,05539.88334,E,0.016,,220525,,,D*71
$GNVTG,,T,,M,0.016,N,0.030,K,D*3C
$GNGNS,132113.00,0419.95618,S,05539.88334,E,DA,19,0.55,14.4,-47.6,,0000*63
$GNGGA,132113.00,0419.95618,S,05539.88334,E,2,12,0.55,14.4,M,-47.6,M,,0000*44
$GNGSA,A,3,32,28,27,18,26,31,16,10,08,41,04,,1.07,0.55,0.92*1F
$GNGSA,A,3,66,87,88,67,77,76,81,68,,,,,1.07,0.55,0.92*19
$GPGSV,5,1,17,02,07,333,,04,10,229,37,08,26,298,36,10,13,028,28*7C
$GPGSV,5,2,17,16,24,212,33,18,27,119,40,23,01,066,,26,29,181,41*7B
$GPGSV,5,3,17,27,56,264,38,28,60,097,36,31,58,161,38,32,30,009,31*78
$GPGSV,5,4,17,36,52,277,38,40,84,353,39,41,58,082,39,49,32,274,*77
$GPGSV,5,5,17,50,10,089,*4A
$GLGSV,3,1,09,66,23,342,25,67,29,281,31,68,07,236,33,76,15,109,40*69
$GLGSV,3,2,09,77,23,156,34,78,04,210,33,81,22,344,20,87,33,144,39*6D
$GLGSV,3,3,09,88,73,031,35*5C
$GNGLL,0419.95618,S,05539.88334,E,132113.00,A,D*6D
$GNGRS,132113.00,1,0.4,1.9,-0.5,-1.8,-0.2,-0.2,-0.5,5.3,1.2,173,4.4,*4B
$GNGRS,132113.00,1,1.1,1.4,-1.5,-7.6,6.4,-0.4,9.7,-5.7,,,,*59
$GNGST,132113.00,917,,,,1.5,1.3,2.7*76
$GNZDA,132113.00,22,05,2025,00,00*7B
$GNGBS,132113.00,1.5,1.3,2.7,,,,*5F
$GNTXT,01,01,01,More than 100 frame errors, UART RX was disabled*70
b0L`CwM%
%*g
o!X(w4B)'8
$<a':  {&4'Ta(:RC 
Y'uNBV~CD!L(mM"~N"kQXW)!X#I@cb`Cw?-M
&$GNRMC,132114.00,A,0419.95618,S,05539.88335,E,0.018,,220525,,,D*79
$GNVTG,,T,,M,0.018,N,0.034,K,D*36
$GNGNS,132114.00,0419.95618,S,05539.88335,E,DA,19,0.55,14.4,-47.6,,0000*65
$GNGGA,132114.00,0419.95618,S,05539.88335,E,2,12,0.55,14.4,M,-47.6,M,,0000*42
$GNGSA,A,3,32,28,27,18,26,31,16,10,08,41,04,,1.07,0.55,0.92*1F
$GNGSA,A,3,66,87,88,67,77,76,81,68,,,,,1.07,0.55,0.92*19
$GPGSV,5,1,17,02,07,333,,04,10,229,37,08,26,298,37,10,13,028,29*7C
$GPGSV,5,2,17,16,24,212,33,18,27,119,40,23,01,066,,26,29,181,41*7B
$GPGSV,5,3,17,27,56,264,39,28,60,097,36,31,58,161,39,32,30,009,32*7B
$GPGSV,5,4,17,36,52,277,38,40,84,353,39,41,58,082,40,49,32,274,*79
$GPGSV,5,5,17,50,10,089,*4A
$GLGSV,3,1,09,66,23,342,25,67,29,281,31,68,07,236,33,76,15,109,40*69
$GLGSV,3,2,09,77,23,156,34,78,04,210,34,81,22,344,20,87,33,144,41*65
$GLGSV,3,3,09,88,73,031,35*5C
$GNGLL,0419.95618,S,05539.88335,E,132114.00,A,D*6B
$GNGRS,132114.00,1,0.2,1.7,-0.7,-2.0,-0.4,0.3,-4.2,6.2,1.0,173,4.7,*67
$GNGRS,132114.00,1,-1.3,1.4,-1.9,-7.4,6.4,-0.6,7.5,-5.8,,,,*7E
$GNGST,132114.00,917,,,,1.5,1.2,2.7*70
$GNZDA,132114.00,22,05,2025,00,00*7C
$GNGBS,132114.00,1.5,1.2,2.7,,,,*59
$GNTXT,01,01,01,More than 100 frame errors, UART RX was disabled*70
b0LHGwM%
%*X
!})w8B('8
&<a':  {&4)Ta(:RC 
Y$uOBVCD!L&mM"^N"ZQXW'!X#IBbHGw'1M$GNRMC,132115.00,A,0419.95619,S,05539.88336,E,0.027,,220525,,,D*76
$GNVTG,,T,,M,0.027,N,0.050,K,D*38
$GNGNS,132115.00,0419.95619,S,05539.88336,E,DA,19,0.55,14.4,-47.6,,0000*66
$GNGGA,132115.00,0419.95619,S,05539.88336,E,2,12,0.55,14.4,M,-47.6,M,,0000*41
$GNGSA,A,3,32,28,27,18,26,31,16,10,08,41,04,,1.07,0.55,0.92*1F
$GNGSA,A,3,66,87,88,67,77,76,81,68,,,,,1.07,0.55,0.92*19
$GPGSV,5,1,17,02,07,333,,04,10,229,37,08,26,298,37,10,13,028,28*7D
$GPGSV,5,2,17,16,24,212,33,18,27,119,41,23,01,066,,26,29,181,40*7B
$GPGSV,5,3,17,27,56,264,39,28,60,097,38,31,58,161,39,32,30,009,32*75
$GPGSV,5,4,17,36,52,277,38,40,84,353,41,41,58,082,40,49,32,274,*76
$GPGSV,5,5,17,50,10,089,*4A
$GLGSV,3,1,09,66,23,342,24,67,29,281,31,68,07,236,33,76,15,109,38*67
$GLGSV,3,2,09,77,23,156,34,78,04,210,34,81,22,344,20,87,33,144,39*6A
$GLGSV,3,3,09,88,73,031,35*5C
$GNGLL,0419.95619,S,05539.88336,E,132115.00,A,D*68
$GNGRS,132115.00,1,0.3,1.8,-0.5,-2.0,-0.5,0.3,-3.9,3.8,0.9,173,4.6,*61
$GNGRS,132115.00,1,-0.2,1.6,-1.9,-10.0,6.1,-0.4,10.5,-5.9,,,,*7F
$GNGST,132115.00,917,,,,1.5,1.2,2.6*70
$GNZDA,132115.00,22,05,2025,00,00*7D
$GNGBS,132115.00,1.5,1.2,2.6,,,,*59
$GNTXT,01,01,01,More than 100 frame errors, UART RX was disabled*70
b0L0KwM%
%*>
x#*w/B)(8
&<a):   {'4)Ta):RC 
Y(uBBVC)DL(mM"?N"ZQXW'!X#IQJb0Kw5M$GNRMC,132116.00,A,0419.95620,S,05539.88337,E,0.029,,220525,,,D*70
$GNVTG,,T,,M,0.029,N,0.054,K,D*32
$GNGNS,132116.00,0419.95620,S,05539.88337,E,DA,19,0.55,14.4,-47.6,,0000*6E
$GNGGA,132116.00,0419.95620,S,05539.88337,E,2,12,0.55,14.4,M,-47.6,M,,0000*49
$GNGSA,A,3,32,28,27,18,26,31,16,10,08,41,04,,1.07,0.55,0.92*1F
$GNGSA,A,3,66,87,88,67,77,76,81,68,,,,,1.07,0.55,0.92*19
$GPGSV,5,1,17,02,07,333,,04,10,229,37,08,26,298,37,10,13,028,27*72
$GPGSV,5,2,17,16,24,212,35,18,27,119,42,23,01,066,,26,29,181,41*7F
$GPGSV,5,3,17,27,56,264,40,28,60,097,38,31,58,161,41,32,30,009,32*74
$GPGSV,5,4,17,36,52,277,39,40,84,353,41,41,58,082,41,49,32,274,*76
$GPGSV,5,5,17,50,10,089,*4A
$GLGSV,3,1,09,66,23,342,25,67,29,281,31,68,07,236,31,76,15,109,40*6B
$GLGSV,3,2,09,77,23,156,34,78,04,210,34,81,22,344,20,87,33,144,39*6A
$GLGSV,3,3,09,88,73,031,35*5C
$GNGLL,0419.95620,S,05539.88337,E,132116.00,A,D*60
$GNGRS,132116.00,1,-1.1,1.9,-0.1,-2.1,-0.7,0.3,-3.5,6.3,0.6,173,4.7,*46
$GNGRS,132116.00,1,-0.2,1.7,-6.4,-9.8,5.8,-0.7,11.7,-5.8,,,,*4C
$GNGST,132116.00,917,,,,1.5,1.2,2.6*73
$GNZDA,132116.00,22,05,2025,00,00*7E
$GNGBS,132116.00,1.5,1.2,2.6,,,,*5A
b0LOwM$
$*/
"M'w3B('8
%<a':H  c{%4(Ta%:RC 
Y'uGBVCID L'mM 3N!\QX8W%!X"I6bOw8M$GNRMC,132117.00,A,0419.95621,S,05539.88337,E,0.001,,220525,,,D*7A
$GNVTG,,T,,M,0.001,N,0.002,K,D*3B
$GNGNS,132117.00,0419.95621,S,05539.88337,E,DA,19,0.55,14.4,-47.6,,0000*6E
$GNGGA,132117.00,0419.95621,S,05539.88337,E,2,12,0.55,14.4,M,-47.6,M,,0000*49
$GNGSA,A,3,32,28,27,18,26,31,16,10,08,41,04,,1.07,0.55,0.92*1F
$GNGSA,A,3,66,87,88,67,77,76,81,68,,,,,1.07,0.55,0.92*19
$GPGSV,5,1,17,02,07,333,,04,10,229,36,08,26,298,36,10,13,028,29*7C
$GPGSV,5,2,17,16,24,212,34,18,27,119,39,23,01,066,,26,29,181,40*73
$GPGSV,5,3,17,27,56,264,39,28,60,097,37,31,58,161,39,32,30,009,32*7A
$GPGSV,5,4,17,36,52,277,37,40,84,353,40,41,58,082,37,49,32,274,*78
$GPGSV,5,5,17,50,10,089,*4A
$GLGSV,3,1,09,66,23,342,25,67,29,281,28,68,07,236,32,76,15,109,39*6E
$GLGSV,3,2,09,77,23,156,32,78,04,210,33,81,22,344,20,87,33,144,37*65
$GLGSV,3,3,09,88,73,031,34*5D
$GNGLL,0419.95621,S,05539.88337,E,132117.00,A,D*60
$GNGRS,132117.00,1,-1.6,-0.3,0.0,-2.1,-0.7,0.7,-1.8,7.2,0.5,173,4.5,*40
$GNGRS,132117.00,1,-0.9,1.6,-5.4,-7.0,5.6,-0.7,10.8,-5.3,,,,*49
$GNTXT,01,01,01,More than 100 frame errors, UART RX was disabled*70
$GNGST,132117.00,917,,,,1.5,1.2,2.6*72
$GNZDA,132117.00,22,05,2025,00,00*7F
$GNGBS,132117.00,1.5,1.2,2.6,,,,*5B
$GNTXT,01,01,01,More than 100 frame errors, UART RX was disabled*70
b0LSwM'
%*
"")w&B)'8
%<a5):J  {&4)Ta(:RC 
Y&u3BVChDL&mM qN#AQXW&!X!IWbSw<Mm$GNRMC,132118.00,A,0419.95621,S,05539.88337,E,0.038,,220525,,,D*7F
$GNVTG,,T,,M,0.038,N,0.070,K,D*34
$GNGNS,132118.00,0419.95621,S,05539.88337,E,DA,19,0.55,14.5,-47.6,,0000*60
$GNGGA,132118.00,0419.95621,S,05539.88337,E,2,12,0.55,14.5,M,-47.6,M,,0000*47
$GNGSA,A,3,32,28,27,18,26,31,16,10,08,41,04,,1.07,0.55,0.92*1F
$GNGSA,A,3,66,87,88,67,77,76,81,68,,,,,1.07,0.55,0.92*19
$GPGSV,5,1,17,02,07,333,,04,10,229,39,08,26,298,37,10,13,028,30*7A
$GPGSV,5,2,17,16,24,212,34,18,27,119,41,23,01,066,,26,29,181,41*7D
$GPGSV,5,3,17,27,56,264,39,28,60,097,37,31,58,161,41,32,30,009,32*75
$GPGSV,5,4,17,36,52,277,38,40,84,353,41,41,58,082,40,49,32,274,*76
$GPGSV,5,5,17,50,10,089,*4A
$GLGSV,3,1,09,66,23,342,23,67,29,281,29,68,07,236,31,76,15,109,38*6B
$GLGSV,3,2,09,77,23,156,32,78,04,210,35,81,22,344,13,87,33,144,38*6C
$GLGSV,3,3,09,88,73,031,33*5A
$GNGLL,0419.95621,S,05539.88337,E,132118.00,A,D*6F
$GNGRS,132118.00,1,-2.3,5.6,-0.2,-2.2,-0.8,0.7,-3.4,8.0,0.3,173,4.3,*44
$GNGRS,132118.00,1,-0.6,1.7,0.9,-11.8,6.2,-0.9,10.0,-6.0,,,,*53
$GNGST,132118.00,67042,,,,1.5,1.2,2.6*75
$GNZDA,132118.00,22,05,2025,00,00*70
$GNGBS,132118.00,1.5,1.2,2.6,,,,*54
b0LVwM&
&*
")wB)(8
&<ay(:K  {&4)Ta(:RdC 
Y(u9BVPCUDL'mM N##QXW&!X!IvubVw@MD@$GNRMC,132119.00,A,0419.95619,S,05539.88338,E,0.063,,220525,,,D*74
$GNVTG,,T,,M,0.063,N,0.116,K,D*3B
$GNGNS,132119.00,0419.95619,S,05539.88338,E,DA,19,0.55,14.5,-47.6,,0000*65
$GNGGA,132119.00,0419.95619,S,05539.88338,E,2,12,0.55,14.5,M,-47.6,M,,0000*42
$GNGSA,A,3,32,28,27,18,26,31,16,10,08,41,04,,1.07,0.55,0.92*1F
$GNGSA,A,3,66,87,88,67,77,76,81,68,,,,,1.07,0.55,0.92*19
$GPGSV,5,1,17,02,07,333,,04,10,229,38,08,26,298,38,10,13,028,30*74
$GPGSV,5,2,17,16,24,212,34,18,27,119,41,23,01,066,,26,29,181,41*7D
$GPGSV,5,3,17,27,56,264,40,28,60,097,38,31,58,161,40,32,30,009,32*75
$GPGSV,5,4,17,36,52,277,38,40,84,353,41,41,58,082,40,49,32,274,*76
$GPGSV,5,5,17,50,10,089,*4A
$GLGSV,3,1,09,66,23,342,21,67,29,281,30,68,07,236,31,76,15,109,39*60
$GLGSV,3,2,09,77,23,156,32,78,04,210,35,81,22,344,17,87,33,144,38*68
$GLGSV,3,3,09,88,73,031,33*5A
$GNTXT,01,01,01,More than 100 frame errors, UART RX was disabled*70
$GNGLL,0419.95619,S,05539.88338,E,132119.00,A,D*6A
$GNGRS,132119.00,1,2.6,3.8,-0.1,-2.3,-0.7,0.7,-6.2,9.0,0.1,173,4.4,*6F
$GNGRS,132119.00,1,0.8,1.5,-1.4,-19.6,4.9,-1.0,10.1,-6.2,,,,*56
$GNGST,132119.00,67042,,,,1.5,1.2,2.6*74
$GNZDA,132119.00,22,05,2025,00,00*71
$GNGBS,132119.00,1.5,1.2,2.6,,,,*55
b0LZwM&
&*
c")wB)(8
&<a(:T !'{'4)Ta(:RZC 
Y&u#BVCnDL'mM N"QXW'!X!IAbZwDM$GNRMC,132120.00,A,0419.95618,S,05539.88338,E,0.014,,220525,,,D*7F
$GNVTG,,T,,M,0.014,N,0.026,K,D*39
$GNGNS,132120.00,0419.95618,S,05539.88338,E,DA,19,0.55,14.5,-47.6,,0000*6E
$GNGGA,132120.00,0419.95618,S,05539.88338,E,2,12,0.55,14.5,M,-47.6,M,,0000*49
$GNGSA,A,3,32,28,27,18,26,31,16,10,08,41,04,,1.07,0.55,0.92*1F
$GNGSA,A,3,66,87,88,67,77,76,81,68,,,,,1.07,0.55,0.92*19
$GPGSV,5,1,17,02,07,333,,04,10,229,38,08,26,298,38,10,13,028,31*75
$GPGSV,5,2,17,16,24,212,34,18,27,119,41,23,01,066,,26,29,181,41*7D
$GPGSV,5,3,17,27,56,264,40,28,60,097,38,31,58,161,40,32,30,009,33*74
$GPGSV,5,4,17,36,52,277,39,40,84,353,41,41,58,082,40,49,32,274,*77
$GPGSV,5,5,17,50,10,089,*4A
$GLGSV,3,1,09,66,23,342,21,67,29,281,31,68,07,236,31,76,15,109,39*61
$GLGSV,3,2,09,77,23,156,32,78,04,210,34,81,22,344,15,87,33,144,39*6A
$GLGSV,3,3,09,88,73,031,33*5A
$GNGLL,0419.95618,S,05539.88338,E,132120.00,A,D*61
$GNGRS,132120.00,1,0.4,1.3,-0.1,-2.5,-0.6,0.8,-3.1,8.7,0.1,172,4.3,*62
$GNGRS,132120.00,1,1.5,1.6,-5.8,-11.7,4.7,-1.1,10.0,-5.9,,,,*54
$GNGST,132120.00,917,,,,1.5,1.2,2.6*76
$GNZDA,132120.00,22,05,2025,00,00*7B
$GNGBS,132120.00,1.5,1.2,2.6,,,,*5F
$GNTXT,01,01,01,More than 100 frame errors, UART RX was disabled*70
b0L^wM&
&*2
j")wB*(8
&<a#(:} !{'4)Ta(:RmC 
Y*u"BVC DL&mM 0N#QXW&!X!I/!b^wHM$GNRMC,132121.00,A,0419.95619,S,05539.88338,E,0.060,,220525,,,D*7C
$GNVTG,,T,,M,0.060,N,0.110,K,D*3E
$GNGNS,132121.00,0419.95619,S,05539.88338,E,DA,19,0.55,14.5,-47.6,,0000*6E
$GNGGA,132121.00,0419.95619,S,05539.88338,E,2,12,0.55,14.5,M,-47.6,M,,0000*49
$GNGSA,A,3,32,28,27,18,26,31,16,10,08,41,04,,1.07,0.55,0.92*1F
$GNGSA,A,3,66,87,88,67,77,76,81,68,,,,,1.07,0.55,0.92*19
$GPGSV,5,1,17,02,07,333,,04,10,229,38,08,26,298,38,10,13,028,31*75
$GPGSV,5,2,17,16,24,212,34,18,27,119,41,23,01,066,,26,29,181,42*7E
$GPGSV,5,3,17,27,56,264,40,28,60,097,38,31,58,161,40,32,30,009,33*74
$GPGSV,5,4,17,36,52,277,39,40,84,353,41,41,58,082,40,49,32,274,*77
$GPGSV,5,5,17,50,10,089,*4A
$GLGSV,3,1,09,66,23,342,21,67,29,281,31,68,07,236,31,76,15,109,38*60
$GLGSV,3,2,09,77,23,156,32,78,04,210,35,81,22,344,14,87,33,144,38*6B
$GLGSV,3,3,09,88,73,031,33*5A
$GNGLL,0419.95619,S,05539.88338,E,132121.00,A,D*61
$GNGRS,132121.00,1,-0.5,2.9,0.0,-2.8,-0.5,1.2,-2.8,8.7,0.5,173,4.1,*60
$GNGRS,132121.00,1,2.2,1.9,-7.4,-7.4,3.0,-0.8,10.2,-5.1,,,,*66
$GNGST,132121.00,1136,,,,1.5,1.2,2.6*4D
$GNZDA,132121.00,22,05,2025,00,00*7A
$GNGBS,132121.00,1.5,1.2,2.6,,,,*5E
$GNTXT,01,01,01,More than 100 frame errors, UART RX was disabled*70
b0LbwM&
&*>
p"p)wB)(8
&<as(: !{&4)Ta(:RtC 
Y$u)BVCDL(mM N"HQXW&!X!IbbwLMx$GNRMC,132122.00,A,0419.95619,S,05539.88337,E,0.013,,220525,,,D*74
$GNVTG,,T,,M,0.013,N,0.024,K,D*3C
$GNGNS,132122.00,0419.95619,S,05539.88337,E,DA,19,0.55,14.5,-47.6,,0000*62
$GNGGA,132122.00,0419.95619,S,05539.88337,E,2,12,0.55,14.5,M,-47.6,M,,0000*45
$GNGSA,A,3,32,28,27,18,26,31,16,10,08,41,04,,1.07,0.55,0.92*1F
$GNGSA,A,3,66,87,88,67,77,76,81,68,,,,,1.07,0.55,0.92*19
$GPGSV,5,1,17,02,07,333,,04,10,229,38,08,26,298,38,10,13,028,31*75
$GPGSV,5,2,17,16,24,212,34,18,27,119,41,23,01,066,,26,29,181,41*7D
$GPGSV,5,3,17,27,56,264,40,28,60,097,38,31,58,161,40,32,30,009,33*74
$GPGSV,5,4,17,36,52,277,38,40,84,353,41,41,58,082,40,49,32,274,*76
$GPGSV,5,5,17,50,10,089,*4A
$GNTXT,01,01,01,More than 100 frame errors, UART RX was disabled*70
$GLGSV,3,1,09,66,23,342,21,67,29,281,31,68,07,236,31,76,15,109,40*6F
$GLGSV,3,2,09,77,23,156,32,78,04,210,34,81,22,344,16,87,33,144,38*68
$GLGSV,3,3,09,88,73,031,33*5A
$GNGLL,0419.95619,S,05539.88337,E,132122.00,A,D*6D
$GNGRS,132122.00,1,1.4,1.1,-0.2,-2.7,-0.3,1.4,-4.0,6.2,0.6,173,4.1,*63
$GNGRS,132122.00,1,4.1,1.9,-5.7,-10.8,4.6,-0.7,10.0,-5.4,,,,*52
$GNGST,132122.00,1136,,,,1.5,1.2,2.6*4E
$GNZDA,132122.00,22,05,2025,00,00*79
$GNGBS,132122.00,1.5,1.2,2.6,,,,*5D
b0LfwM&
&*J
")w
B)(8
&<aa(: !K{'4)Ta(:RC 
Y)u9BVCD8L%mM!N#QXW'!X"IbfwgPM$GNRMC,132123.00,A,0419.95621,S,05539.88335,E,0.056,,220525,,,D*7D
$GNVTG,,T,,M,0.056,N,0.104,K,D*3E
$GNGNS,132123.00,0419.95621,S,05539.88335,E,DA,19,0.55,14.5,-47.6,,0000*6A
$GNGGA,132123.00,0419.95621,S,05539.88335,E,2,12,0.55,14.5,M,-47.6,M,,0000*4D
$GNGSA,A,3,32,28,27,18,26,31,16,10,08,41,04,,1.07,0.55,0.92*1F
$GNGSA,A,3,66,87,88,67,77,76,81,68,,,,,1.07,0.55,0.92*19
$GNTXT,01,01,01,More than 100 frame errors, UART RX was disabled*70
$GPGSV,5,1,17,02,07,333,,04,10,229,38,08,26,298,38,10,13,028,31*75
$GPGSV,5,2,17,16,24,212,34,18,27,119,41,23,01,066,,26,29,181,41*7D
$GPGSV,5,3,17,27,56,264,40,28,60,097,38,31,58,161,40,32,30,009,33*74
$GPGSV,5,4,17,36,52,277,39,40,84,353,41,41,58,082,40,49,32,274,*77
$GPGSV,5,5,17,50,10,089,*4A
$GLGSV,3,1,09,66,23,342,23,67,29,281,31,68,07,236,31,76,15,109,37*6D
$GLGSV,3,2,09,77,23,156,33,78,04,210,35,81,22,344,15,87,33,144,39*6A
$GLGSV,3,3,09,88,73,031,34*5D
$GNGLL,0419.95621,S,05539.88335,E,132123.00,A,D*65
$GNGRS,132123.00,1,-1.8,1.0,-0.2,-2.5,-0.4,1.6,4.4,4.1,0.7,173,4.2,*6F
$GNGRS,132123.00,1,4.8,1.5,-5.5,-8.3,2.8,-0.8,10.5,-4.6,,,,*67
$GNGST,132123.00,917,,,,1.5,1.2,2.6*75
$GNZDA,132123.00,22,05,2025,00,00*78
$GNGBS,132123.00,1.5,1.2,2.6,,,,*5C
$GNTXT,01,01,01,More than 100 frame errors, UART RX was disabled*70
b0LpjwM&
'*A
!p)wB)(8
&<a(: !2{&4)Ta(:RC 
Y*u!BVC.D L&mM!N#[QXW'!tX#I>bpjwOTM|H$GNRMC,132124.00,A,0419.95623,S,05539.88335,E,0.030,,220525,,,D*78
$GNVTG,,T,,M,0.030,N,0.055,K,D*3B
$GNGNS,132124.00,0419.95623,S,05539.88335,E,DA,19,0.55,14.6,-47.6,,0000*6C
$GNGGA,132124.00,0419.95623,S,05539.88335,E,2,12,0.55,14.6,M,-47.6,M,,0000*4B
$GNGSA,A,3,32,28,27,18,26,31,16,10,08,41,04,,1.07,0.55,0.92*1F
$GNGSA,A,3,66,87,88,67,77,76,81,68,,,,,1.07,0.55,0.92*19
$GPGSV,5,1,17,02,07,333,,04,10,229,38,08,26,298,39,10,13,028,31*74
$GPGSV,5,2,17,16,24,212,33,18,27,119,41,23,01,066,,26,29,181,41*7A
$GPGSV,5,3,17,27,56,264,40,28,60,097,38,31,58,161,40,32,30,009,33*74
$GPGSV,5,4,17,36,52,277,38,40,84,353,41,41,58,082,40,49,32,274,*76
$GPGSV,5,5,17,50,10,089,*4A
$GLGSV,3,1,09,66,23,342,23,67,29,281,31,68,07,236,32,76,15,109,38*61
$GLGSV,3,2,09,77,23,156,33,78,04,210,35,81,22,344,16,87,33,144,39*69
$GLGSV,3,3,09,88,73,031,35*5C
$GNGLL,0419.95623,S,05539.88335,E,132124.00,A,D*60
$GNGRS,132124.00,1,-4.6,1.5,-0.2,-2.3,-0.7,1.7,3.7,2.7,0.7,173,4.3,*67
$GNGRS,132124.00,1,4.1,1.2,-1.2,-7.2,6.8,-0.9,10.1,-5.1,,,,*64
$GNGST,132124.00,5441,,,,1.5,1.2,2.6*49
$GNZDA,132124.00,22,05,2025,00,00*7F
$GNGBS,132124.00,1.5,1.2,2.6,,,,*5B
b0LXnwM%
'*,
 m!F(wB)(8
&<a): !M{&4)Ta(:RC 
Y$u+BVCoD L'm~M!N#QXW'!jX#Iv<bXnw7XMT$GNRMC,132125.00,A,0419.95625,S,05539.88334,E,0.023,,220525,,,D*7C
$GNVTG,,T,,M,0.023,N,0.044,K,D*39
$GNGNS,132125.00,0419.95625,S,05539.88334,E,DA,19,0.55,14.6,-47.6,,0000*6A
$GNGGA,132125.00,0419.95625,S,05539.88334,E,2,12,0.55,14.6,M,-47.6,M,,0000*4D
$GNGSA,A,3,32,28,27,18,26,31,16,10,08,41,04,,1.07,0.55,0.92*1F
$GNGSA,A,3,66,87,88,67,77,76,81,68,,,,,1.07,0.55,0.92*19
$GPGSV,5,1,17,02,07,333,,04,10,229,37,08,26,298,39,10,13,028,32*78
$GPGSV,5,2,17,16,24,212,33,18,27,119,40,23,01,066,,26,29,181,41*7B
$GPGSV,5,3,17,27,56,264,40,28,60,097,38,31,58,161,41,32,30,009,33*75
$GNTXT,01,01,01,More than 100 frame errors, UART RX was disabled*70
$GPGSV,5,4,17,36,52,277,38,40,84,353,41,41,58,082,40,49,32,274,*76
$GPGSV,5,5,17,50,10,089,*4A
$GLGSV,3,1,09,66,23,342,23,67,29,281,31,68,07,236,32,76,15,109,39*60
$GLGSV,3,2,09,77,23,156,33,78,04,210,35,81,22,344,15,87,33,144,39*6A
$GLGSV,3,3,09,88,73,031,35*5C
$GNGLL,0419.95625,S,05539.88334,E,132125.00,A,D*66
$GNGRS,132125.00,1,-4.4,1.6,-0.3,-2.3,-0.3,1.5,5.8,3.6,0.4,173,4.4,*6D
$GNGRS,132125.00,1,1.8,1.1,-5.9,-6.6,4.4,-1.3,9.8,-5.2,,,,*57
$GNGST,132125.00,8096,,,,1.5,1.2,2.6*4B
$GNZDA,132125.00,22,05,2025,00,00*7E
$GNGBS,132125.00,1.5,1.2,2.6,,,,*5A
$GNTXT,01,01,01,More than 100 frame errors, UART RX was disabled*70
b0L@rwM&
&*8
  +(wB)(8
&<a): !{&4)Ta(:RC 
Y&u.BVVCD L'mpM!
N#QXW(!qX"INb@rw\M,$GNRMC,132126.00,A,0419.95628,S,05539.88333,E,0.041,,220525,,,D*71
$GNVTG,,T,,M,0.041,N,0.076,K,D*3C
$GNGNS,132126.00,0419.95628,S,05539.88333,E,DA,19,0.55,14.6,-47.6,,0000*63
$GNGGA,132126.00,0419.95628,S,05539.88333,E,2,12,0.55,14.6,M,-47.6,M,,0000*44
$GNGSA,A,3,32,28,27,18,26,31,16,10,08,41,04,,1.07,0.55,0.92*1F
$GNGSA,A,3,66,87,88,67,77,76,81,68,,,,,1.07,0.55,0.92*19
$GPGSV,5,1,17,02,07,333,,04,10,229,38,08,26,298,38,10,13,028,32*76
$GPGSV,5,2,17,16,24,212,32,18,27,119,40,23,01,066,,26,29,181,41*7A
$GPGSV,5,3,17,27,56,264,40,28,60,097,38,31,58,161,41,32,30,009,33*75
$GPGSV,5,4,17,36,52,277,38,40,84,353,41,41,58,082,40,49,32,274,*76
$GPGSV,5,5,17,50,10,089,*4A
$GLGSV,3,1,09,66,23,342,23,67,29,281,31,68,07,236,32,76,15,109,39*60
$GLGSV,3,2,09,77,23,156,33,78,04,210,35,81,22,344,20,87,33,144,40*62
$GLGSV,3,3,09,88,73,031,34*5D
$GNGLL,0419.95628,S,05539.88333,E,132126.00,A,D*6F
$GNGRS,132126.00,1,-3.5,1.5,-0.6,-2.3,-0.5,1.3,3.0,1.6,0.6,173,4.5,*61
$GNGRS,132126.00,1,0.9,1.1,-6.9,-6.4,2.7,-1.4,-3.4,-8.7,,,,*74
$GNGST,132126.00,917,,,,1.5,1.2,2.6*70
$GNZDA,132126.00,22,05,2025,00,00*7D
$GNGBS,132126.00,1.5,1.2,2.6,,,,*59
b0L(vwM&
&*1
  3)wB)(8
&<a):v !M{&4)Ta(:RC 
Y)u8BVC^D L'mYM!N#QXW(!NX"I!ab(vw`M$GNRMC,132127.00,A,0419.95630,S,05539.88333,E,0.022,,220525,,,D*7C
$GNVTG,,T,,M,0.022,N,0.041,K,D*3D
$GNGNS,132127.00,0419.95630,S,05539.88333,E,DA,19,0.55,14.6,-47.6,,0000*6B
$GNGGA,132127.00,0419.95630,S,05539.88333,E,2,12,0.55,14.6,M,-47.6,M,,0000*4C
$GNGSA,A,3,32,28,27,18,26,31,16,10,08,41,04,,1.07,0.55,0.92*1F
$GNGSA,A,3,66,87,88,67,77,76,81,68,,,,,1.07,0.55,0.92*19
$GPGSV,5,1,17,02,07,333,,04,10,229,38,08,26,298,38,10,13,028,32*76
$GPGSV,5,2,17,16,24,212,32,18,27,119,41,23,01,066,,26,29,181,41*7B
$GPGSV,5,3,17,27,56,264,40,28,60,097,38,31,58,161,41,32,30,009,33*75
$GPGSV,5,4,17,36,52,277,38,40,84,353,41,41,58,082,40,49,32,274,*76
$GPGSV,5,5,17,50,10,089,*4A
$GLGSV,3,1,09,66,23,342,22,67,29,281,31,68,07,236,32,76,15,109,39*61
$GLGSV,3,2,09,77,23,156,33,78,04,210,35,81,22,344,14,87,33,144,40*65
$GLGSV,3,3,09,88,73,031,34*5D
$GNGLL,0419.95630,S,05539.88333,E,132127.00,A,D*67
$GNGRS,132127.00,1,-4.3,1.5,-0.6,-2.7,-0.6,1.2,0.5,2.3,0.5,173,4.5,*64
$GNGRS,132127.00,1,0.2,0.8,-7.3,-6.7,-2.6,-1.7,10.0,-3.2,,,,*44
$GNGST,132127.00,117986,,,,1.5,1.2,2.6*4E
$GNZDA,132127.00,22,05,2025,00,00*7C
$GNGBS,132127.00,1.5,1.2,2.6,,,,*58
$GNTXT,01,01,01,More than 100 frame errors, UART RX was disabled*70
$GNTXT,01,01,01,More than 100 frame errors, UART RX was disabled*70
b0LzwM%
&*+
  )wB)'8
&<a):f !]{&4)Ta(:RC 
Y%u@BVCDL$m_M N"QXW%!ZX!IfbzwcM$GNRMC,132128.00,A,0419.95631,S,05539.88332,E,0.037,,220525,,,D*77
$GNVTG,,T,,M,0.037,N,0.068,K,D*32
$GNGNS,132128.00,0419.95631,S,05539.88332,E,DA,19,0.55,14.7,-47.6,,0000*65
$GNGGA,132128.00,0419.95631,S,05539.88332,E,2,12,0.55,14.7,M,-47.6,M,,0000*42
$GNGSA,A,3,32,28,27,18,26,31,16,10,08,41,04,,1.07,0.55,0.92*1F
$GNGSA,A,3,66,87,88,67,77,76,81,68,,,,,1.07,0.55,0.92*19
$GPGSV,5,1,17,02,07,333,,04,10,229,37,08,26,298,38,10,13,028,32*79
$GPGSV,5,2,17,16,24,212,32,18,27,119,41,23,01,066,,26,29,181,41*7B
$GPGSV,5,3,17,27,56,264,39,28,60,097,38,31,58,161,41,32,30,009,33*7B
$GPGSV,5,4,17,36,52,277,38,40,84,353,41,41,58,082,40,49,32,274,*76
$GPGSV,5,5,17,50,10,089,*4A
$GLGSV,3,1,09,66,23,342,21,67,29,281,30,68,07,236,31,76,15,109,36*6F
$GLGSV,3,2,09,77,23,156,32,78,04,210,34,81,22,344,12,87,33,144,37*63
$GLGSV,3,3,09,88,73,031,33*5A
$GNGLL,0419.95631,S,05539.88332,E,132128.00,A,D*68
$GNGRS,132128.00,1,-1.6,1.7,-0.8,-2.8,-0.4,1.0,-0.9,1.8,0.4,173,4.3,*46
$GNGRS,132128.00,1,-0.2,0.9,-5.6,-10.6,1.7,-1.6,9.9,-10.3,,,,*7A
$GNGST,132128.00,2659974,,,,1.5,1.2,2.6*73
$GNZDA,132128.00,22,05,2025,00,00*73
$GNGBS,132128.00,1.5,1.2,2.6,,,,*57
b0L}wM$
%**
(wB('8
&<a(:W  {%4(Ta':RC 
Y%uHBVC5DcL$mWMN#QXW&!`X"Ib}wgM>$GNRMC,132129.00,A,0419.95632,S,05539.88332,E,0.002,,220525,,,D*73
$GNVTG,,T,,M,0.002,N,0.004,K,D*3E
$GNGNS,132129.00,0419.95632,S,05539.88332,E,DA,19,0.55,14.7,-47.6,,0000*67
$GNGGA,132129.00,0419.95632,S,05539.88332,E,2,12,0.55,14.7,M,-47.6,M,,0000*40
$GNGSA,A,3,32,28,27,18,26,31,16,10,08,41,04,,1.07,0.55,0.92*1F
$GNGSA,A,3,66,87,88,67,77,76,81,68,,,,,1.07,0.55,0.92*19
$GPGSV,5,1,17,02,07,333,,04,10,229,36,08,26,298,37,10,13,028,31*74
$GPGSV,5,2,17,16,24,212,31,18,27,119,40,23,01,066,,26,29,181,40*78
$GPGSV,5,3,17,27,56,264,39,28,60,097,38,31,58,161,40,32,30,009,32*7B
$GPGSV,5,4,17,36,52,277,37,40,84,353,40,41,58,082,39,49,32,274,*76
$GPGSV,5,5,17,50,10,089,*4A
$GLGSV,3,1,09,66,23,342,22,67,29,282,30,68,07,236,30,76,15,109,36*6E
$GLGSV,3,2,09,77,23,156,31,78,04,210,35,81,22,344,17,87,33,144,38*6B
$GLGSV,3,3,09,88,73,031,34*5D
$GNTXT,01,01,01,More than 100 frame errors, UART RX was disabled*70
$GNGLL,0419.95632,S,05539.88332,E,132129.00,A,D*6A
$GNGRS,132129.00,1,-2.8,1.5,-1.1,-2.7,-0.5,0.9,1.7,2.1,0.4,173,4.5,*68
$GNGRS,132129.00,1,0.3,1.0,-2.4,-9.7,1.8,-1.7,1.4,-9.3,,,,*50
$GNGST,132129.00,917,,,,1.5,1.2,2.7*7E
$GNZDA,132129.00,22,05,2025,00,00*72
$GNGBS,132129.00,1.5,1.2,2.7,,,,*57
$GNTXT,01,01,01,More than 100 frame errors, UART RX was disabled*70
b0LwM%
%*0
(wB('8
&<a(:S  {%4(Ta':RC 
Y'u7BVRCDYL%mZM N"QXW&!xX"I<^bwkM$GNRMC,132130.00,A,0419.95633,S,05539.88332,E,0.012,,220525,,,D*7B
$GNVTG,,T,,M,0.012,N,0.021,K,D*38
$GNGNS,132130.00,0419.95633,S,05539.88332,E,DA,19,0.55,14.7,-47.6,,0000*6E
$GNGGA,132130.00,0419.95633,S,05539.88332,E,2,12,0.55,14.7,M,-47.6,M,,0000*49
$GNGSA,A,3,32,28,27,18,26,31,16,10,08,41,04,,1.07,0.55,0.92*1F
$GNGSA,A,3,66,87,88,67,77,76,81,68,,,,,1.07,0.55,0.92*19
$GPGSV,5,1,17,02,07,333,,04,10,229,37,08,26,298,37,10,13,028,31*75
$GPGSV,5,2,17,16,24,212,31,18,27,119,40,23,01,066,,26,29,181,40*78
$GPGSV,5,3,17,27,56,264,39,28,60,097,38,31,58,161,40,32,30,009,32*7B
$GPGSV,5,4,17,36,52,277,37,40,84,353,40,41,58,082,39,49,32,274,*76
$GPGSV,5,5,17,50,10,089,*4A
$GLGSV,3,1,09,66,23,342,23,67,29,282,30,68,08,237,30,76,15,109,37*60
$GLGSV,3,2,09,77,23,156,32,78,04,210,34,81,22,344,15,87,33,144,38*6B
$GLGSV,3,3,09,88,73,031,34*5D
$GNGLL,0419.95633,S,05539.88332,E,132130.00,A,D*63
$GNGRS,132130.00,1,-2.3,1.5,-1.1,-2.6,-0.7,0.8,7.1,-0.4,0.5,173,4.2,*45
$GNGRS,132130.00,1,-1.7,1.2,-4.5,-8.3,5.4,-1.7,10.3,-11.9,,,,*7C
$GNGST,132130.00,77767,,,,1.5,1.2,2.7*7F
$GNZDA,132130.00,22,05,2025,00,00*7A
$GNGBS,132130.00,1.5,1.2,2.7,,,,*5F
b0LwM$
j%*
)wB('8|
&<a(:9  p{%4(Ta':RC 
Y%u2BVCD5L&mdM N#QXW&!X"IGbwoMb$GNRMC,132131.00,A,0419.95636,S,05539.88331,E,0.019,,220525,,,D*77
$GNVTG,,T,,M,0.019,N,0.035,K,D*36
$GNGNS,132131.00,0419.95636,S,05539.88331,E,DA,19,0.55,14.7,-47.6,,0000*69
$GNGGA,132131.00,0419.95636,S,05539.88331,E,2,12,0.55,14.7,M,-47.6,M,,0000*4E
$GNGSA,A,3,32,28,27,18,26,31,16,10,08,41,04,,1.07,0.55,0.92*1F
$GNGSA,A,3,66,87,88,67,77,76,81,68,,,,,1.07,0.55,0.92*19
$GNTXT,01,01,01,More than 100 frame errors, UART RX was disabled*70
$GPGSV,5,1,17,02,07,333,,04,10,229,36,08,26,298,37,10,13,028,31*74
$GPGSV,5,2,17,16,24,212,31,18,27,119,41,23,01,066,,26,29,181,40*79
$GPGSV,5,3,17,27,56,264,39,28,60,097,38,31,58,161,40,32,30,009,32*7B
$GPGSV,5,4,17,36,52,277,37,40,84,353,40,41,58,082,39,49,32,274,*76
$GPGSV,5,5,17,50,10,089,*4A
$GLGSV,3,1,09,66,23,342,23,67,29,282,30,68,08,237,30,76,15,109,38*6F
$GLGSV,3,2,09,77,23,156,32,78,04,210,35,81,22,344,18,87,33,144,38*67
$GLGSV,3,3,09,88,73,031,34*5D
$GNGLL,0419.95636,S,05539.88331,E,132131.00,A,D*64
$GNGRS,132131.00,1,-4.0,1.4,-1.3,-2.7,-0.6,0.6,9.2,-0.1,0.3,173,6.2,*40
$GNGRS,132131.00,1,-0.9,1.3,-4.4,-11.5,6.5,-1.6,10.3,-12.3,,,,*46
$GNGST,132131.00,112624,,,,1.5,1.2,2.7*4A
$GNZDA,132131.00,22,05,2025,00,00*7B
$GNGBS,132131.00,1.5,1.2,2.7,,,,*5E
$GNTXT,01,01,01,More than 100 frame errors, UART RX was disabled*70
b0LwM$
%*
'wB('8}
&<aB(:  N{%4(Ta':RC 
Y&u&BVpCDL%m`M N#QXW&!uX"I'bwsM:v$GNRMC,132132.00,A,0419.95638,S,05539.88331,E,0.021,,220525,,,D*71
$GNVTG,,T,,M,0.021,N,0.040,K,D*3F
$GNGNS,132132.00,0419.95638,S,05539.88331,E,DA,19,0.54,14.7,-47.6,,0000*65
$GNGGA,132132.00,0419.95638,S,05539.88331,E,2,12,0.54,14.7,M,-47.6,M,,0000*42
$GNGSA,A,3,32,28,27,18,26,31,16,10,08,41,04,,1.07,0.54,0.92*1E
$GNGSA,A,3,66,87,88,67,77,76,81,68,,,,,1.07,0.54,0.92*18
$GPGSV,5,1,17,02,07,333,,04,10,229,36,08,26,298,37,10,13,028,31*74
$GPGSV,5,2,17,16,24,212,31,18,27,119,39,23,01,066,,26,29,181,40*76
$GPGSV,5,3,17,27,56,264,39,28,60,097,38,31,58,161,40,32,30,009,32*7B
$GPGSV,5,4,17,36,52,277,37,40,84,353,40,41,58,082,39,49,32,274,*76
$GPGSV,5,5,17,50,10,089,*4A
$GLGSV,3,1,09,66,23,342,23,67,29,282,30,68,08,237,30,76,15,109,37*60
$GLGSV,3,2,09,77,23,156,32,78,04,210,35,81,22,344,16,87,33,144,38*69
$GLGSV,3,3,09,88,73,031,34*5D
$GNGLL,0419.95638,S,05539.88331,E,132132.00,A,D*69
$GNGRS,132132.00,1,-1.8,0.7,-1.3,-2.5,-0.5,-0.2,9.3,-1.0,0.2,173,2.0,*62
$GNGRS,132132.00,1,-1.4,1.2,-3.0,-12.9,5.2,-1.6,10.2,-10.4,,,,*44
$GNGST,132132.00,917,,,,1.5,1.2,2.7*74
$GNZDA,132132.00,22,05,2025,00,00*78
$GNGBS,132132.00,1.5,1.2,2.7,,,,*5D
b0LwM$
%*
(wB(&8~
&<aE):  i{%4(Ta':RC 
Y&u0BVbCRDL&mqM %N#QXW&!lX"I,8bwwwM$GNRMC,132133.00,A,0419.95639,S,05539.88330,E,0.025,,220525,,,D*74
$GNVTG,,T,,M,0.025,N,0.047,K,D*3C
$GNGNS,132133.00,0419.95639,S,05539.88330,E,DA,19,0.54,14.7,-47.6,,0000*64
$GNGGA,132133.00,0419.95639,S,05539.88330,E,2,12,0.54,14.7,M,-47.6,M,,0000*43
$GNGSA,A,3,32,28,27,18,26,31,16,10,08,41,04,,1.07,0.54,0.92*1E
$GNGSA,A,3,66,87,88,67,77,76,81,68,,,,,1.07,0.54,0.92*18
$GPGSV,5,1,17,02,07,333,,04,10,229,36,08,26,298,37,10,13,028,31*74
$GPGSV,5,2,17,16,24,212,31,18,27,119,40,23,01,066,,26,29,181,40*78
$GPGSV,5,3,17,27,56,264,38,28,60,097,38,31,58,161,41,32,30,009,32*7B
$GPGSV,5,4,17,36,52,277,37,40,84,353,40,41,58,082,39,49,32,274,*76
$GPGSV,5,5,17,50,10,089,*4A
$GNTXT,01,01,01,More than 100 frame errors, UART RX was disabled*70
$GLGSV,3,1,09,66,23,342,23,67,29,282,30,68,08,237,31,76,15,109,38*6E
$GLGSV,3,2,09,77,23,156,32,78,04,210,35,81,22,344,17,87,33,144,38*68
$GLGSV,3,3,09,88,73,031,34*5D
$GNGLL,0419.95639,S,05539.88330,E,132133.00,A,D*68
$GNGRS,132133.00,1,-4.1,0.7,-1.3,-2.4,-0.6,-0.3,4.0,-0.1,-0.3,173,5.0,*49
$GNGRS,132133.00,1,-1.6,1.1,-2.4,-12.0,2.9,-1.4,9.9,-10.4,,,,*75
$GNGST,132133.00,917,,,,1.5,1.2,2.7*75
$GNZDA,132133.00,22,05,2025,00,00*79
$GNGBS,132133.00,1.5,1.2,2.7,,,,*5C
$GNTXT,01,01,01,More than 100 frame errors, UART RX was disabled*70
b0LwM$
\%*
 (wB(&8
&<aI):  {%4(Ta':RC 
Y%u0BVCtDL&mWMN#QXW&!X"I=bw_{MF$GNRMC,132134.00,A,0419.95639,S,05539.88330,E,0.014,,220525,,,D*71
$GNVTG,,T,,M,0.014,N,0.026,K,D*39
$GNGNS,132134.00,0419.95639,S,05539.88330,E,DA,19,0.54,14.7,-47.6,,0000*63
$GNGGA,132134.00,0419.95639,S,05539.88330,E,2,12,0.54,14.7,M,-47.6,M,,0000*44
$GNGSA,A,3,32,28,27,18,26,31,16,10,08,41,04,,1.07,0.54,0.92*1E
$GNGSA,A,3,66,87,88,67,77,76,81,68,,,,,1.07,0.54,0.92*18
$GPGSV,5,1,17,02,07,333,,04,10,229,36,08,26,298,37,10,13,028,32*77
$GPGSV,5,2,17,16,24,212,31,18,27,119,40,23,01,066,,26,29,181,40*78
$GPGSV,5,3,17,27,56,264,38,28,60,097,38,31,58,161,41,32,30,009,32*7B
$GPGSV,5,4,17,36,52,277,37,40,84,353,40,41,58,082,39,49,32,274,*76
$GPGSV,5,5,17,50,10,089,*4A
$GLGSV,3,1,09,66,23,342,23,67,29,282,30,68,08,237,31,76,15,109,38*6E
$GLGSV,3,2,09,77,23,156,31,78,04,210,35,81,22,344,19,87,33,144,38*65
$GLGSV,3,3,09,88,73,031,34*5D
$GNGLL,0419.95639,S,05539.88330,E,132134.00,A,D*6F
$GNGRS,132134.00,1,-3.2,0.7,-1.2,-2.4,-0.2,-0.2,5.2,2.4,-0.4,173,3.5,*63
$GNGRS,132134.00,1,-0.9,1.3,1.3,-11.6,1.8,-1.7,9.8,-10.6,,,,*50
$GNGST,132134.00,917,,,,1.5,1.2,2.7*72
$GNZDA,132134.00,22,05,2025,00,00*7E
$GNGBS,132134.00,1.5,1.2,2.7,,,,*5B
$GNTXT,01,01,01,More than 100 frame errors, UART RX was disabled*70
b0LhwM%
9%*
  (wB(&8
'<a6):  {%4(Ta':RC 
Y(u2BVCD(L&mM N#QXW&!X"I|+lbhwGM$GNRMC,132135.00,A,0419.95639,S,05539.88330,E,0.031,,220525,,,D*77
$GNVTG,,T,,M,0.031,N,0.058,K,D*37
$GNGNS,132135.00,0419.95639,S,05539.88330,E,DA,19,0.54,14.7,-47.6,,0000*62
$GNGGA,132135.00,0419.95639,S,05539.88330,E,2,12,0.54,14.7,M,-47.6,M,,0000*45
$GNGSA,A,3,32,28,27,18,26,31,16,10,08,41,04,,1.07,0.54,0.92*1E
$GNGSA,A,3,66,87,88,67,77,76,81,68,,,,,1.07,0.54,0.92*18
$GPGSV,5,1,17,02,07,333,,04,10,229,37,08,26,298,37,10,13,028,32*76
$GPGSV,5,2,17,16,24,212,31,18,27,119,40,23,01,066,,26,29,181,40*78
$GPGSV,5,3,17,27,56,264,38,28,60,097,39,31,58,161,41,32,30,009,32*7A
$GPGSV,5,4,17,36,52,277,37,40,84,353,40,41,58,082,39,49,32,274,*76
$GPGSV,5,5,17,50,10,089,*4A
$GLGSV,3,1,09,66,23,342,21,67,29,282,30,68,08,237,31,76,15,109,38*6C
$GLGSV,3,2,09,77,23,156,32,78,04,210,35,81,22,344,19,87,33,144,38*66
$GLGSV,3,3,09,88,73,031,34*5D
$GNGLL,0419.95639,S,05539.88330,E,132135.00,A,D*6E
$GNGRS,132135.00,1,1.6,0.5,-1.2,-2.4,-0.2,-0.4,5.4,5.1,-0.4,173,3.1,*4D
$GNGRS,132135.00,1,0.0,1.4,-3.9,-10.6,3.9,-2.3,7.3,-9.8,,,,*61
$GNGST,132135.00,917,,,,1.5,1.2,2.7*73
$GNZDA,132135.00,22,05,2025,00,00*7F
$GNGBS,132135.00,1.5,1.2,2.7,,,,*5A
$GNTXT,01,01,01,More than 100 frame errors, UART RX was disabled*70
b0LPwM$
I%*
 (wB(&8
'<a(:  {%4(Ta':RC 
Y'uBVC}DL'mM |N#QXW&!|X"IbPw/M$GNRMC,132136.00,A,0419.95639,S,05539.88330,E,0.016,,220525,,,D*71
$GNVTG,,T,,M,0.016,N,0.029,K,D*34
$GNGNS,132136.00,0419.95639,S,05539.88330,E,DA,19,0.54,14.7,-47.6,,0000*61
$GNGGA,132136.00,0419.95639,S,05539.88330,E,2,12,0.54,14.7,M,-47.6,M,,0000*46
$GNGSA,A,3,32,28,27,18,26,31,16,10,08,41,04,,1.07,0.54,0.92*1E
$GNGSA,A,3,66,87,88,67,77,76,81,68,,,,,1.07,0.54,0.92*18
$GPGSV,5,1,17,02,07,333,,04,10,229,36,08,26,298,37,10,13,028,32*77
$GPGSV,5,2,17,16,24,212,31,18,27,119,40,23,01,066,,26,29,181,40*78
$GPGSV,5,3,17,27,56,264,38,28,60,097,39,31,58,161,40,32,30,009,32*7B
$GPGSV,5,4,17,36,52,277,37,40,84,353,40,41,58,082,39,49,32,274,*76
$GPGSV,5,5,17,50,10,089,*4A
$GLGSV,3,1,09,66,23,342,22,67,29,282,29,68,08,237,31,76,15,109,39*66
$GLGSV,3,2,09,77,23,156,32,78,04,210,35,81,22,344,20,87,33,144,38*6C
$GLGSV,3,3,09,88,73,031,34*5D
$GNGLL,0419.95639,S,05539.88330,E,132136.00,A,D*6D
$GNGRS,132136.00,1,1.3,0.3,-0.9,-2.3,-0.2,-0.3,4.2,5.1,-0.5,173,3.3,*43
$GNGRS,132136.00,1,-0.5,1.2,-3.5,-9.0,3.8,-2.3,7.0,-10.1,,,,*4D
$GNGST,132136.00,917,,,,1.5,1.2,2.7*70
$GNZDA,132136.00,22,05,2025,00,00*7C
$GNGBS,132136.00,1.5,1.2,2.7,,,,*59
b0L8wM$
)%*
  s(wB(&8
'<a):  |{%4(Ta':RC 
Y"uBVCDL%mM N#QXW&!X"ICcb8wMr~$GNRMC,132137.00,A,0419.95639,S,05539.88330,E,0.025,,220525,,,D*70
$GNVTG,,T,,M,0.025,N,0.047,K,D*3C
$GNGNS,132137.00,0419.95639,S,05539.88330,E,DA,19,0.54,14.7,-47.6,,0000*60
$GNGGA,132137.00,0419.95639,S,05539.88330,E,2,12,0.54,14.7,M,-47.6,M,,0000*47
$GNGSA,A,3,32,28,27,18,26,31,16,10,08,41,04,,1.07,0.54,0.92*1E
$GNGSA,A,3,66,87,88,67,77,76,81,68,,,,,1.07,0.54,0.92*18
$GPGSV,5,1,17,02,07,333,,04,10,229,36,08,26,298,37,10,13,028,32*77
$GPGSV,5,2,17,16,24,212,32,18,27,119,40,23,01,066,,26,29,181,40*7B
$GPGSV,5,3,17,27,56,264,38,28,60,097,39,31,58,161,41,32,30,009,32*7A
$GPGSV,5,4,17,36,52,277,37,40,84,353,40,41,58,082,39,49,32,274,*76
$GPGSV,5,5,17,50,10,089,*4A
$GLGSV,3,1,09,66,23,342,22,67,29,282,29,68,08,237,31,76,15,109,37*68
$GLGSV,3,2,09,77,23,156,32,78,04,210,35,81,22,344,21,87,33,144,38*6D
$GLGSV,3,3,09,88,73,031,34*5D
$GNGLL,0419.95639,S,05539.88330,E,132137.00,A,D*6C
$GNGRS,132137.00,1,1.2,0.2,-0.5,-2.5,0.1,-0.1,1.1,7.6,-0.5,173,5.5,*67
$GNGRS,132137.00,1,-0.6,1.4,-1.9,-8.9,5.0,-2.5,6.5,-10.0,,,,*42
$GNGST,132137.00,917,,,,1.5,1.2,2.7*71
$GNZDA,132137.00,22,05,2025,00,00*7D
$GNGBS,132137.00,1.5,1.2,2.7,,,,*58
$GNTXT,01,01,01,More than 100 frame errors, UART RX was disabled*70
$GNTXT,01,01,01,More than 100 frame errors, UART RX was disabled*70
b0L wM$
%*
 [ &)wB(&8
'<a):  {%4(Ta':RfC 
Y(uBVCDEL'lM N#QXW%!X!INb wMI$GNRMC,132138.00,A,0419.95640,S,05539.88328,E,0.024,,220525,,,D*79
$GNVTG,,T,,M,0.024,N,0.044,K,D*3E
$GNGNS,132138.00,0419.95640,S,05539.88328,E,DA,19,0.54,14.7,-47.6,,0000*68
$GNGGA,132138.00,0419.95640,S,05539.88328,E,2,12,0.54,14.7,M,-47.6,M,,0000*4F
$GNGSA,A,3,32,28,27,18,26,31,16,10,08,41,04,,1.07,0.54,0.92*1E
$GNGSA,A,3,66,87,88,67,77,76,81,68,,,,,1.07,0.54,0.92*18
$GPGSV,5,1,17,02,07,333,,04,10,229,36,08,26,298,37,10,13,028,32*77
$GPGSV,5,2,17,16,24,212,32,18,27,119,41,23,01,066,,26,29,181,40*7A
$GPGSV,5,3,17,27,56,264,38,28,60,097,39,31,58,161,41,32,30,009,32*7A
$GPGSV,5,4,17,36,52,277,37,40,84,353,40,41,58,082,39,49,32,274,*76
$GPGSV,5,5,17,50,10,089,*4A
$GLGSV,3,1,09,66,23,342,22,67,29,282,29,68,08,237,31,76,16,108,39*64
$GLGSV,3,2,09,77,23,156,32,78,04,210,35,81,22,344,21,87,33,144,37*62
$GLGSV,3,3,09,88,73,031,33*5A
$GNGLL,0419.95640,S,05539.88328,E,132138.00,A,D*64
$GNGRS,132138.00,1,2.0,-0.1,-0.5,-2.4,0.0,0.1,0.4,6.0,-0.2,173,4.8,*62
$GNGRS,132138.00,1,-1.2,1.5,-0.8,-8.0,7.1,-2.9,7.8,-12.1,,,,*40
$GNGST,132138.00,917,,,,1.5,1.2,2.7*7E
$GNZDA,132138.00,22,05,2025,00,00*72
$GNGBS,132138.00,1.5,1.2,2.7,,,,*57
b0LwM$
%*
 #!
'wB($%8
'<a):  {%4(Ta':RxC 
Y(uBVCD L&lM N"QXW%!X"IbwM!K$GNRMC,132139.00,A,0419.95640,S,05539.88327,E,0.037,,220525,,,D*75
$GNVTG,,T,,M,0.037,N,0.069,K,D*33
$GNGNS,132139.00,0419.95640,S,05539.88327,E,DA,19,0.54,14.7,-47.6,,0000*66
$GNGGA,132139.00,0419.95640,S,05539.88327,E,2,12,0.54,14.7,M,-47.6,M,,0000*41
$GNGSA,A,3,32,28,27,18,26,31,16,10,08,41,04,,1.07,0.54,0.92*1E
$GNGSA,A,3,66,87,88,67,77,76,81,68,,,,,1.07,0.54,0.92*18
$GPGSV,5,1,17,02,07,333,,04,10,229,36,08,26,298,37,10,13,028,32*77
$GPGSV,5,2,17,16,24,212,33,18,27,119,39,23,01,066,,26,29,181,40*74
$GPGSV,5,3,17,27,56,264,37,28,60,097,39,31,58,161,41,32,30,009,32*75
$GPGSV,5,4,17,36,52,277,37,40,84,353,40,41,58,082,39,49,32,274,*76
$GPGSV,5,5,17,50,10,089,*4A
$GLGSV,3,1,09,66,23,342,22,67,29,282,29,68,08,237,32,76,16,108,38*66
$GLGSV,3,2,09,77,23,156,32,78,04,210,34,81,22,344,21,87,33,144,37*63
$GLGSV,3,3,09,88,73,031,34*5D
$GNGLL,0419.95640,S,05539.88327,E,132139.00,A,D*6A
$GNGRS,132139.00,1,2.5,-0.2,-0.4,-2.4,0.4,0.2,2.7,5.5,-0.2,173,5.0,*6D
$GNGRS,132139.00,1,-3.1,1.5,-2.4,-8.3,7.9,-2.7,10.2,-10.7,,,,*73
$GNGST,132139.00,917,,,,1.5,1.2,2.7*7F
$GNZDA,132139.00,22,05,2025,00,00*73
$GNGBS,132139.00,1.5,1.2,2.7,,,,*56
$GNTXT,01,01,01,More than 100 frame errors, UART RX was disabled*70
b0LwM%
&*
 !)wB)&8
'<a):/ !{&4)Ta(:RwC 
Y&uBV#CD 0L&lM N#QXW%!X"I=bwM$GNRMC,132140.00,A,0419.95641,S,05539.88325,E,0.028,,220525,,,D*76
$GNVTG,,T,,M,0.028,N,0.052,K,D*35
$GNGNS,132140.00,0419.95641,S,05539.88325,E,DA,19,0.54,14.7,-47.6,,0000*6B
$GNGGA,132140.00,0419.95641,S,05539.88325,E,2,12,0.54,14.7,M,-47.6,M,,0000*4C
$GNGSA,A,3,32,28,27,18,26,31,16,10,08,41,04,,1.07,0.54,0.92*1E
$GNGSA,A,3,66,87,88,67,77,76,81,68,,,,,1.07,0.54,0.92*18
$GPGSV,5,1,17,02,07,333,,04,10,229,37,08,26,298,38,10,13,028,32*79
$GPGSV,5,2,17,16,24,212,33,18,27,119,41,23,01,066,,26,29,181,41*7A
$GPGSV,5,3,17,27,56,264,38,28,60,097,39,31,58,161,41,32,30,009,33*7B
$GPGSV,5,4,17,36,52,277,38,40,84,353,41,41,58,082,40,49,32,274,*76
$GPGSV,5,5,17,50,10,089,*4A
$GLGSV,3,1,09,66,23,342,22,67,29,282,29,68,08,237,32,76,16,108,38*66
$GLGSV,3,2,09,77,23,156,32,78,05,209,35,81,22,344,21,87,33,144,37*6B
$GLGSV,3,3,09,88,73,031,34*5D
$GNGLL,0419.95641,S,05539.88325,E,132140.00,A,D*67
$GNGRS,132140.00,1,-0.2,-0.3,-0.4,-2.4,0.3,0.5,2.4,6.4,-0.2,173,5.2,*49
$GNTXT,01,01,01,More than 100 frame errors, UART RX was disabled*70
$GNGRS,132140.00,1,-2.2,1.4,-3.2,-8.0,5.0,-2.8,10.2,-9.8,,,,*49
$GNGST,132140.00,917,,,,1.5,1.2,2.7*71
$GNZDA,132140.00,22,05,2025,00,00*7D
$GNGBS,132140.00,1.5,1.2,2.7,,,,*58
b0LwM%
&*
!!(wB)1&8
'<a):& !{&4)Ta(:RxC 
Y)u5BVZCD *L&lM N$QXW&!X!IbwM$GNRMC,132141.00,A,0419.95642,S,05539.88324,E,0.035,,220525,,,D*79
$GNVTG,,T,,M,0.035,N,0.064,K,D*3C
$GNGNS,132141.00,0419.95642,S,05539.88324,E,DA,19,0.54,14.7,-47.6,,0000*68
$GNGGA,132141.00,0419.95642,S,05539.88324,E,2,12,0.54,14.7,M,-47.6,M,,0000*4F
$GNGSA,A,3,32,28,27,18,26,31,16,10,08,41,04,,1.07,0.54,0.92*1E
$GNGSA,A,3,66,87,88,67,77,76,81,68,,,,,1.07,0.54,0.92*18
$GPGSV,5,1,17,02,07,333,,04,10,229,37,08,26,298,38,10,13,028,33*78
$GPGSV,5,2,17,16,24,212,33,18,27,119,40,23,01,066,,26,29,181,41*7B
$GPGSV,5,3,17,27,56,264,38,28,60,097,39,31,58,161,41,32,30,009,33*7B
$GPGSV,5,4,17,36,52,277,38,40,84,353,41,41,58,082,40,49,32,274,*76
$GPGSV,5,5,17,50,10,089,*4A
$GNTXT,01,01,01,More than 100 frame errors, UART RX was disabled*70
$GLGSV,3,1,09,66,23,342,20,67,29,282,28,68,08,237,32,76,16,108,38*65
$GLGSV,3,2,09,77,23,156,32,78,05,209,36,81,22,344,22,87,33,144,38*64
$GLGSV,3,3,09,88,73,031,33*5A
$GNGLL,0419.95642,S,05539.88324,E,132141.00,A,D*64
$GNGRS,132141.00,1,2.0,-0.3,-0.3,-2.4,0.5,0.4,6.5,4.2,0.1,173,4.8,*41
$GNGRS,132141.00,1,-1.7,1.4,-3.1,-8.7,4.9,-2.8,7.5,-9.8,,,,*73
$GNGST,132141.00,917,,,,1.5,1.2,2.7*70
$GNZDA,132141.00,22,05,2025,00,00*7C
$GNGBS,132141.00,1.5,1.2,2.7,,,,*59
$GNTXT,01,01,01,More than 100 frame errors, UART RX was disabled*70
b0LwM%
&*
!!(w*B)/&8
(<a):= ![{&4)Ta(:RC 
Y(u"BV}CD L&lM ON$QXW&!X!IAQbwMt$GNRMC,132142.00,A,0419.95642,S,05539.88323,E,0.050,,220525,,,D*7E
$GNVTG,,T,,M,0.050,N,0.092,K,D*36
$GNGNS,132142.00,0419.95642,S,05539.88323,E,DA,19,0.54,14.7,-47.6,,0000*6C
$GNGGA,132142.00,0419.95642,S,05539.88323,E,2,12,0.54,14.7,M,-47.6,M,,0000*4B
$GNGSA,A,3,32,28,27,18,26,31,16,10,08,41,04,,1.07,0.54,0.92*1E
$GNGSA,A,3,66,87,88,67,77,76,81,68,,,,,1.07,0.54,0.92*18
$GPGSV,5,1,17,02,07,333,,04,10,229,37,08,26,298,38,10,13,028,33*78
$GPGSV,5,2,17,16,24,212,33,18,27,119,40,23,01,066,,26,29,181,41*7B
$GPGSV,5,3,17,27,56,264,38,28,60,097,40,31,58,161,41,32,30,009,33*75
$GPGSV,5,4,17,36,52,277,38,40,84,353,41,41,58,082,40,49,32,274,*76
$GPGSV,5,5,17,50,10,089,*4A
$GLGSV,3,1,09,66,23,342,20,67,29,282,29,68,08,237,32,76,16,108,38*64
$GLGSV,3,2,09,77,23,156,32,78,05,209,36,81,22,344,21,87,33,144,38*67
$GLGSV,3,3,09,88,73,031,33*5A
$GNGLL,0419.95642,S,05539.88323,E,132142.00,A,D*60
$GNGRS,132142.00,1,6.0,-0.4,-0.3,-2.1,0.5,0.6,0.2,-0.1,0.0,173,4.8,*6C
$GNGRS,132142.00,1,-1.3,1.7,-3.7,-8.8,3.4,-3.0,7.4,-12.6,,,,*48
$GNGST,132142.00,917,,,,1.5,1.2,2.7*73
$GNZDA,132142.00,22,05,2025,00,00*7F
$GNGBS,132142.00,1.5,1.2,2.7,,,,*5A
b0LwM%
&*
!!)w+B)2&8
(<a):8  {%4)Ta(:RoC 
Y&u3BVCcD nL&lM 5N$QXW&!X!IVbwM$GNRMC,132143.00,A,0419.95640,S,05539.88322,E,0.033,,220525,,,D*79
$GNVTG,,T,,M,0.033,N,0.062,K,D*3C
$GNGNS,132143.00,0419.95640,S,05539.88322,E,DA,19,0.54,14.6,-47.6,,0000*6F
$GNGGA,132143.00,0419.95640,S,05539.88322,E,2,12,0.54,14.6,M,-47.6,M,,0000*48
$GNGSA,A,3,32,28,27,18,26,31,16,10,08,41,04,,1.07,0.54,0.92*1E
$GNGSA,A,3,66,87,88,67,77,76,81,68,,,,,1.07,0.54,0.92*18
$GPGSV,5,1,17,02,07,333,,04,10,229,37,08,26,298,38,10,13,028,33*78
$GPGSV,5,2,17,16,24,212,33,18,27,119,41,23,01,066,,26,29,181,41*7A
$GPGSV,5,3,17,27,56,264,38,28,60,097,40,31,58,161,41,32,30,009,32*74
$GPGSV,5,4,17,36,52,277,37,40,84,353,41,41,58,082,40,49,32,274,*79
$GPGSV,5,5,17,50,10,089,*4A
$GLGSV,3,1,09,66,23,342,21,67,29,282,29,68,08,237,32,76,16,108,38*65
$GLGSV,3,2,09,77,23,156,32,78,05,209,36,81,23,344,21,87,33,144,38*66
$GLGSV,3,3,09,88,73,031,33*5A
$GNGLL,0419.95640,S,05539.88322,E,132143.00,A,D*62
$GNGRS,132143.00,1,4.3,-0.5,-0.3,-2.1,0.5,0.6,-2.5,5.1,0.0,173,4.8,*6D
$GNGRS,132143.00,1,-1.0,1.6,-1.1,-9.2,3.1,-3.1,7.3,-6.6,,,,*72
$GNGST,132143.00,917,,,,1.5,1.2,2.7*72
$GNZDA,132143.00,22,05,2025,00,00*7E
$GNGBS,132143.00,1.5,1.2,2.7,,,,*5B
$GNTXT,01,01,01,More than 100 frame errors, UART RX was disabled*70
$GNTXT,01,01,01,More than 100 frame errors, UART RX was disabled*70
b0LwM%
&*
!!)w1B)M&8
(<a):M !{&4)Ta(:RC 
Y&u=BVCD!dL&lM!N#QXW&!X"I<IbwoMXD$GNRMC,132144.00,A,0419.95641,S,05539.88321,E,0.017,,220525,,,D*7A
$GNVTG,,T,,M,0.017,N,0.032,K,D*3F
$GNGNS,132144.00,0419.95641,S,05539.88321,E,DA,19,0.54,14.6,-47.6,,0000*6A
$GNGGA,132144.00,0419.95641,S,05539.88321,E,2,12,0.54,14.6,M,-47.6,M,,0000*4D
$GNGSA,A,3,32,28,27,18,26,31,16,10,08,41,04,,1.07,0.54,0.92*1E
$GNGSA,A,3,66,87,88,67,77,76,81,68,,,,,1.07,0.54,0.92*18
$GPGSV,5,1,17,02,07,333,,04,10,229,37,08,26,298,38,10,13,028,33*78
$GPGSV,5,2,17,16,24,212,33,18,27,119,41,23,01,066,,26,29,181,41*7A
$GPGSV,5,3,17,27,56,264,38,28,60,097,40,31,58,161,41,32,30,009,33*75
$GPGSV,5,4,17,36,52,277,38,40,84,353,41,41,58,082,40,49,32,274,*76
$GPGSV,5,5,17,50,10,089,*4A
$GLGSV,3,1,09,66,23,342,21,67,29,282,28,68,08,237,33,76,16,108,38*65
$GLGSV,3,2,09,77,23,156,33,78,05,209,35,81,23,344,23,87,33,144,38*66
$GLGSV,3,3,09,88,73,031,34*5D
$GNGLL,0419.95641,S,05539.88321,E,132144.00,A,D*67
$GNGRS,132144.00,1,-0.8,-0.4,-0.3,-2.1,0.8,0.8,0.0,4.6,0.1,173,4.8,*67
$GNGRS,132144.00,1,-0.3,1.5,-3.1,-7.9,2.3,-3.0,7.0,-9.2,,,,*79
$GNGST,132144.00,917,,,,1.5,1.2,2.7*75
$GNZDA,132144.00,22,05,2025,00,00*79
$GNGBS,132144.00,1.5,1.2,2.7,,,,*5C
b0LxwM%
&*
! )w<B)G&8
(<a):= !,{&4)Ta(:RC 
Y&uABVVCD!L&lM N#QXW&!X!IbxwWM0$GNRMC,132145.00,A,0419.95641,S,05539.88319,E,0.037,,220525,,,D*72
$GNVTG,,T,,M,0.037,N,0.069,K,D*33
$GNGNS,132145.00,0419.95641,S,05539.88319,E,DA,19,0.54,14.6,-47.6,,0000*60
$GNGGA,132145.00,0419.95641,S,05539.88319,E,2,12,0.54,14.6,M,-47.6,M,,0000*47
$GNGSA,A,3,32,28,27,18,26,31,16,10,08,41,04,,1.07,0.54,0.92*1E
$GNGSA,A,3,66,87,88,67,77,76,81,68,,,,,1.07,0.54,0.92*18
$GPGSV,5,1,17,02,07,333,,04,10,229,37,08,26,298,38,10,13,028,33*78
$GPGSV,5,2,17,16,24,212,32,18,27,119,41,23,01,066,,26,29,181,41*7B
$GPGSV,5,3,17,27,56,264,38,28,60,097,40,31,58,161,41,32,30,009,33*75
$GPGSV,5,4,17,36,52,277,38,40,84,353,41,41,58,082,40,49,32,274,*76
$GPGSV,5,5,17,50,10,089,*4A
$GLGSV,3,1,09,66,23,342,21,67,29,282,28,68,08,237,33,76,16,108,38*65
