$GNTXT,01,01,01,More than 100 frame errors, UART RX was disabled*70
b0LzM1&(d
+@'x$D#$8j
"<]x$; %
M{!4&Ta%:R8B 
Y$vBWC#D(L+k)M N#eQWW#X$K#i"bzP^$GNRMC,132455.00,A,0419.95090,S,05539.89273,E,0.052,,220525,,,D*73
$GNVTG,,T,,M,0.052,N,0.096,K,D*30
$GNGNS,132455.00,0419.95090,S,05539.89273,E,DA,20,0.53,13.8,-47.6,,0000*66
$GNGGA,132455.00,0419.95090,S,05539.89273,E,2,12,0.53,13.8,M,-47.6,M,,0000*4B
$GNGSA,A,3,32,28,27,18,26,31,16,10,08,41,04,,1.03,0.53,0.88*16
$GNGSA,A,3,66,87,88,67,77,76,81,78,68,,,,1.03,0.53,0.88*1F
$GPGSV,5,1,17,02,08,333,,04,11,230,31,08,27,296,38,10,13,029,43*71
$GPGSV,5,2,17,16,24,210,30,18,26,120,39,23,01,068,,26,29,180,35*73
$GPGSV,5,3,17,27,56,260,36,28,60,093,34,31,59,159,36,32,28,010,37*77
$GPGSV,5,4,17,36,52,277,33,40,84,353,38,41,58,082,37,49,32,274,*73
$GPGSV,5,5,17,50,10,089,*4A
$GLGSV,3,1,09,66,22,343,23,67,28,283,35,68,08,238,40,76,16,107,43*63
$GLGSV,3,2,09,77,23,154,32,78,05,208,35,81,24,343,29,87,31,145,35*60
$GLGSV,3,3,09,88,75,035,36*5D
$GNGLL,0419.95090,S,05539.89273,E,132455.00,A,D*6F
$GNGRS,132455.00,1,0.8,-1.4,1.1,0.4,-0.7,0.2,-0.6,0.6,1.0,170,5.6,*41
$GNGRS,132455.00,1,-2.3,2.9,-6.0,-8.1,6.4,-2.1,-7.5,6.1,-5.5,,,*7B
$GNGST,132455.00,895,,,,1.1,1.1,2.3*78
$GNZDA,132455.00,22,05,2025,00,00*7C
$GNGBS,132455.00,1.1,1.1,2.3,,,,*5A
$GNTXT,01,01,01,More than 100 frame errors, UART RX was disabled*70
b0LzM"$(f
,;&x+D!!8
"<]3$; %
{!4$Ta%:RLB 
Y$vBWCD$L%k!M`NQWWXK#MxbzoP6$GNRMC,132456.00,A,0419.95090,S,05539.89274,E,0.016,,220525,,,D*77
$GNVTG,,T,,M,0.016,N,0.030,K,D*3C
$GNGNS,132456.00,0419.95090,S,05539.89274,E,DA,20,0.53,13.8,-47.6,,0000*62
$GNGGA,132456.00,0419.95090,S,05539.89274,E,2,12,0.53,13.8,M,-47.6,M,,0000*4F
$GNGSA,A,3,32,28,27,18,26,31,16,10,08,41,04,,1.03,0.53,0.88*16
$GNGSA,A,3,66,87,88,67,77,76,81,78,68,,,,1.03,0.53,0.88*1F
$GPGSV,5,1,17,02,08,333,,04,11,230,34,08,27,296,36,10,13,029,44*7D
$GPGSV,5,2,17,16,24,210,29,18,26,120,38,23,01,068,,26,29,180,33*7C
$GPGSV,5,3,17,27,56,260,33,28,60,093,34,31,59,159,36,32,28,010,37*72
$GPGSV,5,4,17,36,52,277,33,40,84,353,36,41,58,082,37,49,32,274,*7D
$GPGSV,5,5,17,50,10,089,*4A
$GLGSV,3,1,09,66,22,343,21,67,28,283,27,68,08,238,36,76,16,107,37*60
$GLGSV,3,2,09,77,23,154,26,78,05,208,31,81,24,343,20,87,31,145,29*65
$GLGSV,3,3,09,88,75,035,28*52
$GNGLL,0419.95090,S,05539.89274,E,132456.00,A,D*6B
$GNGRS,132456.00,1,0.2,3.1,-0.2,0.4,4.5,0.2,2.6,0.6,1.0,170,2.8,*40
$GNGRS,132456.00,1,-2.7,2.0,-4.3,-8.3,6.1,-2.2,-7.5,7.0,-5.7,,,*72
$GNGST,132456.00,895,,,,1.1,1.1,2.3*7B
$GNZDA,132456.00,22,05,2025,00,00*7F
$GNGBS,132456.00,1.1,1.1,2.3,,,,*59
$GNTXT,01,01,01,More than 100 frame errors, UART RX was disabled*70
b0LxzM!D'(6
.6"y'x*D%%8:
#<]`); )
${&4&Ta':RFB 
Y'vBWIC 0D*L,kM N%IQWW(X&K#*bxzWPt$GNRMC,132457.00,A,0419.95096,S,05539.89274,E,0.005,,220525,,,D*72
$GNVTG,,T,,M,0.005,N,0.009,K,D*34
$GNGNS,132457.00,0419.95096,S,05539.89274,E,DA,20,0.53,13.6,-47.6,,0000*6B
$GNGGA,132457.00,0419.95096,S,05539.89274,E,2,12,0.53,13.6,M,-47.6,M,,0000*46
$GNGSA,A,3,32,28,27,18,26,31,16,10,08,41,04,,1.03,0.53,0.88*16
$GNGSA,A,3,66,87,88,67,77,76,81,78,68,,,,1.03,0.53,0.88*1F
$GPGSV,5,1,17,02,08,333,,04,11,230,33,08,27,296,39,10,13,029,46*77
$GPGSV,5,2,17,16,24,210,34,18,26,120,39,23,01,068,,26,29,180,37*75
$GPGSV,5,3,17,27,56,260,37,28,60,093,35,31,59,159,41,32,28,010,41*76
$GPGSV,5,4,17,36,52,277,38,40,84,353,38,41,58,082,39,49,32,274,*76
$GPGSV,5,5,17,50,10,089,*4A
$GLGSV,3,1,09,66,22,343,20,67,28,283,32,68,08,238,42,76,16,107,44*62
$GLGSV,3,2,09,77,23,154,32,78,05,208,37,81,24,343,21,87,31,145,40*68
$GLGSV,3,3,09,88,75,035,38*53
$GNGLL,0419.95096,S,05539.89274,E,132457.00,A,D*6C
$GNGRS,132457.00,1,0.4,1.0,0.6,0.4,0.2,0.1,3.8,0.5,0.5,170,5.8,*62
$GNGRS,132457.00,1,-4.4,4.8,-5.7,-7.2,9.0,-2.3,-9.9,8.4,-5.7,,,*75
$GNGST,132457.00,895,,,,1.1,1.0,2.2*7A
$GNZDA,132457.00,22,05,2025,00,00*7E
$GNGBS,132457.00,1.1,1.0,2.2,,,,*58
$GNTXT,01,01,01,More than 100 frame errors, UART RX was disabled*70
b0L`zM!'(%
.6!'x;D%&8
#<](; )
2{&4'Ta&:RVB 
Y%vBWCD)L,kM!N%#QWvW'KX&K#ub`z?P$GNRMC,132458.00,A,0419.95099,S,05539.89272,E,0.009,,220525,,,D*78
$GNVTG,,T,,M,0.009,N,0.016,K,D*36
$GNGNS,132458.00,0419.95099,S,05539.89272,E,DA,20,0.53,13.5,-47.6,,0000*6E
$GNGGA,132458.00,0419.95099,S,05539.89272,E,2,12,0.53,13.5,M,-47.6,M,,0000*43
$GNGSA,A,3,32,28,27,18,26,31,16,10,08,41,04,,1.03,0.53,0.88*16
$GNGSA,A,3,66,87,88,67,77,76,81,78,68,,,,1.03,0.53,0.88*1F
$GPGSV,5,1,17,02,08,333,,04,11,230,33,08,27,296,39,10,13,029,46*77
$GPGSV,5,2,17,16,24,210,33,18,26,120,39,23,01,068,,26,29,180,37*72
$GPGSV,5,3,17,27,56,260,38,28,60,093,35,31,59,159,40,32,28,010,41*78
$GPGSV,5,4,17,36,52,277,38,40,84,353,39,41,58,082,38,49,32,274,*76
$GPGSV,5,5,17,50,10,089,*4A
$GLGSV,3,1,09,66,22,343,21,67,28,283,31,68,08,238,41,76,16,107,44*63
$GLGSV,3,2,09,77,23,154,33,78,05,208,37,81,24,343,24,87,31,145,39*62
$GLGSV,3,3,09,88,75,035,38*53
$GNGLL,0419.95099,S,05539.89272,E,132458.00,A,D*6A
$GNGRS,132458.00,1,0.5,2.7,2.7,0.6,1.8,-0.1,1.4,0.5,0.4,170,2.7,*48
$GNGRS,132458.00,1,-5.7,0.7,-4.9,-7.7,2.8,-2.6,-11.6,8.0,-5.8,,,*42
$GNGST,132458.00,895,,,,1.1,1.0,2.2*75
$GNZDA,132458.00,22,05,2025,00,00*71
$GNGBS,132458.00,1.1,1.0,2.2,,,,*57
$GNTXT,01,01,01,More than 100 frame errors, UART RX was disabled*70
b0LHzM!'(
,5u(x'D#O&8
"<]>'; '
8{#4%Ta&:RB 
Y%vBWC D*L+kM!N%lQWW&X%K#CbHz'PD$GNRMC,132459.00,A,0419.95101,S,05539.89273,E,0.040,,220525,,,D*75
$GNVTG,,T,,M,0.040,N,0.074,K,D*3F
$GNGNS,132459.00,0419.95101,S,05539.89273,E,DA,20,0.53,13.4,-47.6,,0000*6F
$GNGGA,132459.00,0419.95101,S,05539.89273,E,2,12,0.53,13.4,M,-47.6,M,,0000*42
$GNGSA,A,3,32,28,27,18,26,31,16,10,08,41,04,,1.03,0.53,0.88*16
$GNGSA,A,3,66,87,88,67,77,76,81,78,68,,,,1.03,0.53,0.88*1F
$GPGSV,5,1,17,02,08,333,,04,11,230,33,08,27,296,39,10,13,029,44*75
$GPGSV,5,2,17,16,24,210,31,18,26,120,40,23,01,068,,26,29,180,35*7C
$GPGSV,5,3,17,27,56,260,38,28,60,093,34,31,59,159,39,32,28,010,39*78
$GPGSV,5,4,17,36,52,277,35,40,84,353,37,41,58,082,38,49,32,274,*75
$GPGSV,5,5,17,50,10,089,*4A
$GLGSV,3,1,09,66,22,343,22,67,28,283,32,68,08,238,42,76,16,107,43*67
$GLGSV,3,2,09,77,23,154,33,78,05,208,37,81,24,343,26,87,31,145,38*61
$GLGSV,3,3,09,88,75,035,37*5C
$GNGLL,0419.95101,S,05539.89273,E,132459.00,A,D*6A
$GNGRS,132459.00,1,0.6,3.2,-0.1,0.4,0.8,-0.4,3.7,0.5,0.2,170,2.1,*60
$GNGRS,132459.00,1,-3.2,1.8,-4.5,-8.5,3.9,-2.9,-11.3,8.8,-5.6,,,*43
$GNGST,132459.00,895,,,,1.0,1.0,2.2*75
$GNZDA,132459.00,22,05,2025,00,00*70
$GNGBS,132459.00,1.0,1.0,2.2,,,,*57
$GNTXT,01,01,01,More than 100 frame errors, UART RX was disabled*70
b0L0zM ((
.0(xD#E'8
"<]); '
M{$4'Ta&:RB 
Y%vBWzC D(L,kM N%(QWJW&KX%K#ab0zP$GNRMC,132500.00,A,0419.95103,S,05539.89273,E,0.032,,220525,,,D*7F
$GNVTG,,T,,M,0.032,N,0.059,K,D*35
$GNGNS,132500.00,0419.95103,S,05539.89273,E,DA,20,0.53,13.3,-47.6,,0000*67
$GNGGA,132500.00,0419.95103,S,05539.89273,E,2,12,0.53,13.3,M,-47.6,M,,0000*4A
$GNGSA,A,3,32,28,27,18,26,31,16,10,08,41,04,,1.03,0.53,0.88*16
$GNGSA,A,3,66,87,88,67,77,76,81,78,68,,,,1.03,0.53,0.88*1F
$GPGSV,5,1,17,02,08,333,,04,11,230,32,08,27,296,40,10,13,029,46*78
$GPGSV,5,2,17,16,24,210,31,18,26,120,40,23,01,068,,26,29,180,35*7C
$GPGSV,5,3,17,27,56,260,39,28,60,093,34,31,59,159,41,32,28,010,39*76
$GPGSV,5,4,17,36,52,277,36,40,84,353,39,41,58,082,38,49,32,274,*78
$GPGSV,5,5,17,50,10,089,*4A
$GLGSV,3,1,09,66,22,343,24,67,28,283,32,68,08,238,40,76,16,107,44*64
$GLGSV,3,2,09,77,23,154,32,78,05,208,37,81,24,343,26,87,31,145,38*60
$GLGSV,3,3,09,88,75,035,37*5C
$GNGLL,0419.95103,S,05539.89273,E,132500.00,A,D*65
$GNGRS,132500.00,1,0.8,2.3,-0.2,0.3,0.7,-0.4,2.0,0.5,0.0,170,1.9,*67
$GNGRS,132500.00,1,-1.3,0.7,-3.5,-5.9,4.4,-2.9,-9.5,8.1,-5.9,,,*76
$GNGST,132500.00,895,,,,1.0,1.0,2.1*7B
$GNZDA,132500.00,22,05,2025,00,00*7D
$GNGBS,132500.00,1.0,1.0,2.1,,,,*59
$GNTXT,01,01,01,More than 100 frame errors, UART RX was disabled*70
b0LzM!((
-3&x
D$&8
#<](; '
Q{$4&Ta&:RB 
Y&vrBW:CTD)L+kM N$sQWW&iX$K#bzPm$GNRMC,132501.00,A,0419.95104,S,05539.89273,E,0.010,,220525,,,D*79
$GNVTG,,T,,M,0.010,N,0.019,K,D*31
$GNGNS,132501.00,0419.95104,S,05539.89273,E,DA,20,0.53,13.3,-47.6,,0000*61
$GNGGA,132501.00,0419.95104,S,05539.89273,E,2,12,0.53,13.3,M,-47.6,M,,0000*4C
$GNGSA,A,3,32,28,27,18,26,31,16,10,08,41,04,,1.03,0.53,0.88*16
$GNGSA,A,3,66,87,88,67,77,76,81,78,68,,,,1.03,0.53,0.88*1F
$GPGSV,5,1,17,02,08,333,,04,11,230,33,08,27,296,40,10,13,029,45*7A
$GPGSV,5,2,17,16,24,210,31,18,26,120,38,23,01,068,,26,29,180,36*70
$GPGSV,5,3,17,27,56,260,38,28,60,093,35,31,59,159,40,32,28,010,39*77
$GPGSV,5,4,17,36,52,277,36,40,84,353,38,41,58,082,38,49,32,274,*79
$GPGSV,5,5,17,50,10,089,*4A
$GLGSV,3,1,09,66,22,343,24,67,28,283,31,68,08,238,41,76,16,107,43*61
$GLGSV,3,2,09,77,23,154,32,78,05,208,36,81,24,343,26,87,31,145,38*61
$GLGSV,3,3,09,88,75,035,36*5D
$GNGLL,0419.95104,S,05539.89273,E,132501.00,A,D*63
$GNGRS,132501.00,1,0.8,-0.4,-0.7,0.1,2.1,-0.4,5.1,0.5,0.0,170,2.7,*46
$GNGRS,132501.00,1,0.6,-1.5,-1.2,-6.8,3.9,-3.1,-11.3,6.3,-5.9,,,*47
$GNGST,132501.00,895,,,,1.0,1.0,2.1*7A
$GNZDA,132501.00,22,05,2025,00,00*7C
$GNGBS,132501.00,1.0,1.0,2.1,,,,*58
$GNTXT,01,01,01,More than 100 frame errors, UART RX was disabled*70
b0LzM!0'(
-; &x D$&85
#<]); (
o{%4&Ta&:RB 
Y&v[BWCD'L*kM WN#QW0W#5X$K#U+{bzPEy$GNRMC,132502.00,A,0419.95104,S,05539.89273,E,0.012,,220525,,,D*78
$GNVTG,,T,,M,0.012,N,0.023,K,D*3A
$GNGNS,132502.00,0419.95104,S,05539.89273,E,DA,20,0.53,13.3,-47.6,,0000*62
$GNGGA,132502.00,0419.95104,S,05539.89273,E,2,12,0.53,13.3,M,-47.6,M,,0000*4F
$GNGSA,A,3,32,28,27,18,26,31,16,10,08,41,04,,1.03,0.53,0.88*16
$GNGSA,A,3,66,87,88,67,77,76,81,78,68,,,,1.03,0.53,0.88*1F
$GPGSV,5,1,17,02,08,333,,04,11,230,33,08,27,296,39,10,13,029,45*74
$GPGSV,5,2,17,16,24,210,32,18,26,120,38,23,01,068,,26,29,180,36*73
$GPGSV,5,3,17,27,56,260,38,28,60,093,35,31,59,159,41,32,28,010,40*78
$GPGSV,5,4,17,36,52,277,37,40,84,353,38,41,58,082,38,49,32,274,*78
$GPGSV,5,5,17,50,10,089,*4A
$GLGSV,3,1,09,66,22,343,23,67,28,283,30,68,08,238,39,76,16,107,42*69
$GLGSV,3,2,09,77,23,154,32,78,05,208,35,81,24,343,25,87,31,145,35*6C
$GLGSV,3,3,09,88,75,035,36*5D
$GNGLL,0419.95104,S,05539.89273,E,132502.00,A,D*60
$GNGRS,132502.00,1,1.1,0.2,0.5,0.3,2.1,-0.8,-0.2,0.6,-0.2,170,3.0,*46
$GNGRS,132502.00,1,0.2,0.5,0.9,-5.2,0.9,-3.2,-9.8,6.8,-6.0,,,*71
$GNGST,132502.00,895,,,,1.0,1.0,2.1*79
$GNZDA,132502.00,22,05,2025,00,00*7F
$GNGBS,132502.00,1.0,1.0,2.1,,,,*5B
b0LzM!((
-g!'xD&}&8-
$<]#*; (
t{$4'Ta&:RB 
Y%vKBW=C,D)L*kMN#QWXW$)X$K#bzP $GNRMC,132503.00,A,0419.95102,S,05539.89274,E,0.067,,220525,,,D*7A
$GNVTG,,T,,M,0.067,N,0.124,K,D*3E
$GNGNS,132503.00,0419.95102,S,05539.89274,E,DA,20,0.53,13.3,-47.6,,0000*62
$GNGGA,132503.00,0419.95102,S,05539.89274,E,2,12,0.53,13.3,M,-47.6,M,,0000*4F
$GNGSA,A,3,32,28,27,18,26,31,16,10,08,41,04,,1.03,0.53,0.88*16
$GNGSA,A,3,66,87,88,67,77,76,81,78,68,,,,1.03,0.53,0.88*1F
$GPGSV,5,1,17,02,08,333,,04,11,230,33,08,27,296,40,10,13,029,45*7A
$GPGSV,5,2,17,16,24,210,33,18,26,120,39,23,01,068,,26,29,180,38*7D
$GNTXT,01,01,01,More than 100 frame errors, UART RX was disabled*70
$GPGSV,5,3,17,27,56,260,38,28,60,093,36,31,59,159,42,32,28,010,40*78
$GPGSV,5,4,17,36,52,277,36,40,84,353,39,41,58,082,38,49,32,274,*78
$GPGSV,5,5,17,50,10,089,*4A
$GLGSV,3,1,09,66,22,343,23,67,28,283,31,68,08,238,41,76,16,107,42*67
$GLGSV,3,2,09,77,23,154,30,78,05,208,35,81,24,343,25,87,31,145,36*6D
$GLGSV,3,3,09,88,75,035,36*5D
$GNGLL,0419.95102,S,05539.89274,E,132503.00,A,D*60
$GNGRS,132503.00,1,1.2,0.3,0.4,0.2,1.3,-0.7,2.4,1.0,0.2,171,2.5,*4D
$GNGRS,132503.00,1,0.6,0.4,-0.2,-2.1,-0.4,-3.3,-9.4,7.0,-6.1,,,*72
$GNGST,132503.00,895,,,,1.0,1.0,2.1*78
$GNZDA,132503.00,22,05,2025,00,00*7E
$GNGBS,132503.00,1.0,1.0,2.1,,,,*5A
$GNTXT,01,01,01,More than 100 frame errors, UART RX was disabled*70
b0LzM!*(
.c"V(xD&W&8
$<]*; (
^{$4'Ta&:RB 
Y)vTBW^CD'L*kMN$QW0W#X#K#7bzP^$GNRMC,132504.00,A,0419.95101,S,05539.89274,E,0.025,,220525,,,D*78
$GNVTG,,T,,M,0.025,N,0.047,K,D*3C
$GNGNS,132504.00,0419.95101,S,05539.89274,E,DA,20,0.53,13.3,-47.6,,0000*66
$GNGGA,132504.00,0419.95101,S,05539.89274,E,2,12,0.53,13.3,M,-47.6,M,,0000*4B
$GNGSA,A,3,32,28,27,18,26,31,16,10,08,41,04,,1.03,0.53,0.88*16
$GNGSA,A,3,66,87,88,67,77,76,81,78,68,,,,1.03,0.53,0.88*1F
$GPGSV,5,1,17,02,08,333,,04,11,230,33,08,27,296,42,10,13,029,46*7B
$GPGSV,5,2,17,16,24,210,34,18,26,120,40,23,01,068,,26,29,180,38*74
$GPGSV,5,3,17,27,56,260,38,28,60,093,36,31,59,159,42,32,28,010,40*78
$GPGSV,5,4,17,36,52,277,36,40,84,353,39,41,58,082,38,49,32,274,*78
$GPGSV,5,5,17,50,10,089,*4A
$GLGSV,3,1,09,66,22,343,18,67,28,283,30,68,08,238,39,76,16,107,42*61
$GLGSV,3,2,09,77,23,154,30,78,05,208,36,81,24,343,21,87,31,145,35*69
$GLGSV,3,3,09,88,75,035,35*5E
$GNGLL,0419.95101,S,05539.89274,E,132504.00,A,D*64
$GNGRS,132504.00,1,0.9,0.2,-0.6,0.0,0.9,-0.7,0.9,1.0,0.0,171,4.0,*69
$GNGRS,132504.00,1,3.5,-0.1,-0.8,-1.0,1.4,-3.0,-7.2,6.9,-6.2,,,*79
$GNGST,132504.00,895,,,,1.0,1.0,2.1*7F
$GNZDA,132504.00,22,05,2025,00,00*79
$GNGBS,132504.00,1.0,1.0,2.1,,,,*5D
$GNTXT,01,01,01,More than 100 frame errors, UART RX was disabled*70
b0LzM"*(
/V#Z&xD&i(8
%<]%+; *
{'4(Ta(:RB 
Y)vMBWC6D'|L*kMN#QWW$X#K#%bzP$GNRMC,132505.00,A,0419.95101,S,05539.89273,E,0.056,,220525,,,D*7A
$GNVTG,,T,,M,0.056,N,0.103,K,D*39
$GNGNS,132505.00,0419.95101,S,05539.89273,E,DA,20,0.53,13.2,-47.6,,0000*61
$GNGGA,132505.00,0419.95101,S,05539.89273,E,2,12,0.53,13.2,M,-47.6,M,,0000*4C
$GNGSA,A,3,32,28,27,18,26,31,16,10,08,41,04,,1.03,0.53,0.88*16
$GNGSA,A,3,66,87,88,67,77,76,81,78,68,,,,1.03,0.53,0.88*1F
$GPGSV,5,1,17,02,08,333,,04,11,230,34,08,27,296,42,10,13,029,47*7D
$GPGSV,5,2,17,16,24,210,35,18,26,120,38,23,01,068,21,26,29,180,38*79
$GPGSV,5,3,17,27,56,260,40,28,60,093,37,31,59,159,43,32,28,010,42*75
$GPGSV,5,4,17,36,52,277,39,40,84,353,40,41,58,082,40,49,32,274,*76
$GPGSV,5,5,17,50,10,089,*4A
$GLGSV,3,1,09,66,22,343,17,67,28,283,29,68,08,238,39,76,16,107,42*66
$GLGSV,3,2,09,77,23,154,31,78,05,208,35,81,24,343,19,87,31,145,36*63
$GLGSV,3,3,09,88,75,035,35*5E
$GNGLL,0419.95101,S,05539.89273,E,132505.00,A,D*62
$GNGRS,132505.00,1,1.3,0.4,-0.7,-0.1,1.1,-0.7,0.9,0.9,0.2,171,5.4,*4E
$GNGRS,132505.00,1,4.2,0.2,-1.1,-2.0,1.3,-2.8,-6.0,6.7,-6.4,,,*58
$GNGST,132505.00,895,,,,1.0,1.0,2.1*7E
$GNZDA,132505.00,22,05,2025,00,00*78
$GNGBS,132505.00,1.0,1.0,2.1,,,,*5C
$GNTXT,01,01,01,More than 100 frame errors, UART RX was disabled*70
b0LzM")(
/v#(xD&l'8
%<]Z+; )
x{'4(Ta':RB 
Y&vOBWwCD&L*kMKN#QWW#X"K#bzP.$GNRMC,132506.00,A,0419.95100,S,05539.89272,E,0.043,,220525,,,D*7D
$GNVTG,,T,,M,0.043,N,0.080,K,D*37
$GNGNS,132506.00,0419.95100,S,05539.89272,E,DA,20,0.53,13.2,-47.6,,0000*62
$GNGGA,132506.00,0419.95100,S,05539.89272,E,2,12,0.53,13.2,M,-47.6,M,,0000*4F
$GNGSA,A,3,32,28,27,18,26,31,16,10,08,41,04,,1.03,0.53,0.88*16
$GNGSA,A,3,66,87,88,67,77,76,81,78,68,,,,1.03,0.53,0.88*1F
$GPGSV,5,1,17,02,08,333,,04,11,230,34,08,27,296,41,10,13,029,47*7E
$GPGSV,5,2,17,16,24,210,35,18,26,120,40,23,01,068,20,26,29,180,38*77
$GPGSV,5,3,17,27,56,260,39,28,60,093,37,31,59,159,43,32,28,010,41*78
$GPGSV,5,4,17,36,52,277,39,40,84,353,40,41,58,082,39,49,32,274,*78
$GPGSV,5,5,17,50,10,089,*4A
$GLGSV,3,1,09,66,22,343,17,67,28,283,29,68,08,238,38,76,16,107,42*67
$GLGSV,3,2,09,77,23,154,31,78,05,208,35,81,24,343,20,87,31,145,35*6A
$GLGSV,3,3,09,88,75,035,34*5F
$GNGLL,0419.95100,S,05539.89272,E,132506.00,A,D*61
$GNGRS,132506.00,1,1.2,0.9,-0.6,0.2,1.1,-0.6,1.6,1.2,0.3,171,4.5,*6A
$GNGRS,132506.00,1,3.7,0.2,-1.2,-3.6,3.3,-2.5,-3.5,6.7,-6.4,,,*52
$GNGST,132506.00,895,,,,1.0,1.0,2.1*7D
$GNZDA,132506.00,22,05,2025,00,00*7B
$GNGBS,132506.00,1.0,1.0,2.1,,,,*5F
$GNTXT,01,01,01,More than 100 frame errors, UART RX was disabled*70
b0LzM#((
.W#0(x%D&d%8
$<]6*; *
v{&4(Ta%:RC 
Y'vYBW<CD&L*kM ?N#QWW$X"K#QbzgP$GNRMC,132507.00,A,0419.95100,S,05539.89272,E,0.030,,220525,,,D*78
$GNVTG,,T,,M,0.030,N,0.055,K,D*3B
$GNGNS,132507.00,0419.95100,S,05539.89272,E,DA,20,0.53,13.2,-47.6,,0000*63
$GNGGA,132507.00,0419.95100,S,05539.89272,E,2,12,0.53,13.2,M,-47.6,M,,0000*4E
$GNGSA,A,3,32,28,27,18,26,31,16,10,08,41,04,,1.03,0.53,0.88*16
$GNGSA,A,3,66,87,88,67,77,76,81,78,68,,,,1.03,0.53,0.88*1F
$GPGSV,5,1,17,02,08,333,,04,11,230,35,08,27,296,40,10,13,029,46*7F
$GPGSV,5,2,17,16,24,210,35,18,26,120,40,23,01,068,20,26,29,180,38*77
$GPGSV,5,3,17,27,56,260,37,28,60,093,36,31,59,159,42,32,28,010,42*75
$GPGSV,5,4,17,36,52,277,38,40,84,353,40,41,58,082,37,49,32,274,*77
$GPGSV,5,5,17,50,10,089,*4A
$GLGSV,3,1,09,66,22,343,15,67,28,283,28,68,08,238,38,76,16,107,42*64
$GLGSV,3,2,09,77,23,154,32,78,05,208,35,81,24,343,19,87,31,145,36*60
$GLGSV,3,3,09,88,75,035,34*5F
$GNGLL,0419.95100,S,05539.89272,E,132507.00,A,D*60
$GNGRS,132507.00,1,1.2,0.5,-0.6,0.4,1.0,-0.3,0.5,0.9,0.3,172,2.8,*65
$GNGRS,132507.00,1,3.2,0.1,-1.2,-4.9,5.8,-2.6,-6.1,6.5,-6.4,,,*50
$GNGST,132507.00,895,,,,1.0,1.0,2.1*7C
$GNZDA,132507.00,22,05,2025,00,00*7A
$GNGBS,132507.00,1.0,1.0,2.1,,,,*5E
$GNTXT,01,01,01,More than 100 frame errors, UART RX was disabled*70
b0LpzM$((3
.R$(x
D&W%8
%<]/+; *
D{'4(Ta&:R1C 
Y(vxB
WiCD&lL*kMN"QWvW$X"K#bpzOPX$GNRMC,132508.00,A,0419.95100,S,05539.89271,E,0.017,,220525,,,D*71
$GNVTG,,T,,M,0.017,N,0.032,K,D*3F
$GNGNS,132508.00,0419.95100,S,05539.89271,E,DA,19,0.55,13.1,-47.6,,0000*60
$GNGGA,132508.00,0419.95100,S,05539.89271,E,2,12,0.55,13.1,M,-47.6,M,,0000*47
$GNGSA,A,3,32,28,27,18,26,31,16,10,08,41,04,,1.05,0.55,0.89*17
$GNGSA,A,3,87,88,67,77,76,81,78,68,,,,,1.05,0.55,0.89*1E
$GPGSV,5,1,17,02,08,333,,04,11,230,36,08,27,296,40,10,13,029,46*7C
$GPGSV,5,2,17,16,24,210,36,18,26,120,40,23,01,068,19,26,29,180,38*7E
$GPGSV,5,3,17,27,56,260,37,28,60,093,37,31,59,159,43,32,28,010,42*75
$GPGSV,5,4,17,36,52,277,39,40,84,353,40,41,58,082,38,49,32,274,*79
$GPGSV,5,5,17,50,10,089,*4A
$GLGSV,3,1,09,66,22,343,10,67,28,283,28,68,08,238,38,76,16,107,42*61
$GLGSV,3,2,09,77,23,154,31,78,05,208,34,81,24,343,18,87,31,145,36*63
$GLGSV,3,3,09,88,75,035,34*5F
$GNGLL,0419.95100,S,05539.89271,E,132508.00,A,D*6C
$GNGRS,132508.00,1,0.7,0.5,-0.1,0.1,0.9,-0.3,-0.3,0.8,0.5,172,6.8,*4C
$GNGRS,132508.00,1,0.3,-1.1,-5.7,4.8,-2.6,-3.9,5.0,-6.6,,,,*76
$GNGST,132508.00,917,,,,1.0,1.0,2.1*78
$GNZDA,132508.00,22,05,2025,00,00*75
$GNGBS,132508.00,1.0,1.0,2.1,,,,*51
$GNTXT,01,01,01,More than 100 frame errors, UART RX was disabled*70
b0LXzM$B'(
/H$(xD&W'8
$<]!*; )
G{&4'Ta&:R2C 
Y%vjBWRCD&ML(kMN"QWW#X"K#AbXz7P0f$GNRMC,132509.00,A,0419.95100,S,05539.89271,E,0.014,,220525,,,D*73
$GNVTG,,T,,M,0.014,N,0.027,K,D*38
$GNGNS,132509.00,0419.95100,S,05539.89271,E,DA,20,0.53,13.1,-47.6,,0000*6D
$GNGGA,132509.00,0419.95100,S,05539.89271,E,2,12,0.53,13.1,M,-47.6,M,,0000*40
$GNGSA,A,3,32,28,27,18,26,31,16,10,08,41,04,,1.03,0.53,0.88*16
$GNGSA,A,3,66,87,88,67,77,76,81,78,68,,,,1.03,0.53,0.88*1F
$GPGSV,5,1,17,02,08,333,,04,11,230,36,08,27,296,39,10,13,029,47*73
$GPGSV,5,2,17,16,24,210,36,18,26,120,40,23,01,068,18,26,29,180,38*7F
$GPGSV,5,3,17,27,56,260,39,28,60,093,36,31,59,159,42,32,28,010,41*78
$GPGSV,5,4,17,36,52,277,38,40,84,353,39,41,58,082,38,49,32,274,*76
$GPGSV,5,5,17,50,10,089,*4A
$GLGSV,3,1,09,66,22,343,16,67,28,283,28,68,08,238,38,76,16,107,40*65
$GLGSV,3,2,09,77,23,154,31,78,05,208,34,81,24,343,18,87,31,145,35*60
$GLGSV,3,3,09,88,75,035,34*5F
$GNGLL,0419.95100,S,05539.89271,E,132509.00,A,D*6D
$GNGRS,132509.00,1,0.7,0.3,0.0,0.2,0.9,-0.3,0.1,0.7,0.3,172,5.8,*41
$GNGRS,132509.00,1,3.4,0.1,-1.1,-7.7,1.5,-2.5,-0.9,4.8,-6.9,,,*50
$GNGST,132509.00,65426,,,,1.0,1.0,2.1*75
$GNZDA,132509.00,22,05,2025,00,00*74
$GNGBS,132509.00,1.0,1.0,2.1,,,,*50
$GNTXT,01,01,01,More than 100 frame errors, UART RX was disabled*70
b0L@zM"6'(
,V$(x/D&M)8
)<]5*; &
{)4(Ta*:RIC 
Y%vXBWCD"BL&kM qN!QWGW$0X!K#,b@zP$GNRMC,132510.00,A,0419.95101,S,05539.89271,E,0.038,,220525,,,D*74
$GNVTG,,T,,M,0.038,N,0.071,K,D*35
$GNGNS,132510.00,0419.95101,S,05539.89271,E,DA,20,0.55,13.1,-47.6,,0000*62
$GNGGA,132510.00,0419.95101,S,05539.89271,E,2,12,0.55,13.1,M,-47.6,M,,0000*4F
$GNGSA,A,3,32,28,27,18,26,31,16,10,08,41,04,,1.05,0.55,0.89*17
$GNGSA,A,3,66,87,88,67,77,76,81,78,68,,,,1.05,0.55,0.89*1E
$GPGSV,5,1,17,02,08,333,,04,11,230,34,08,27,296,39,10,13,029,44*72
$GPGSV,5,2,17,16,24,210,36,18,26,120,40,23,01,068,17,26,29,180,38*70
$GPGSV,5,3,17,27,56,260,41,28,60,093,41,31,59,159,42,32,28,010,38*79
$GPGSV,5,4,17,36,52,277,41,40,84,353,40,41,58,082,42,49,32,274,*7B
$GPGSV,5,5,17,50,10,089,*4A
$GLGSV,3,1,09,66,22,343,20,67,28,283,28,68,08,238,34,76,16,107,38*63
$GLGSV,3,2,09,77,23,154,32,78,05,208,33,81,24,343,21,87,31,145,36*6D
$GLGSV,3,3,09,88,75,035,33*58
$GNGLL,0419.95101,S,05539.89271,E,132510.00,A,D*64
$GNGRS,132510.00,1,0.3,0.5,0.1,0.5,0.8,-0.4,0.1,0.9,0.2,172,8.2,*43
$GNGRS,132510.00,1,-20.9,0.5,-1.2,-7.4,3.7,-2.3,-1.9,7.9,-7.0,,,*40
$GNGST,132510.00,917,,,,1.0,1.0,2.1*71
$GNZDA,132510.00,22,05,2025,00,00*7C
$GNGBS,132510.00,1.0,1.0,2.1,,,,*58
$GNTXT,01,01,01,More than 100 frame errors, UART RX was disabled*70
b0L(zM$(
,D"(x;D&Z(8
)<]I+; &
({&4'Ta+:RZC 
Y&vWBWCD"GL&k2M N lQWWW$QX"K#KK|b(zP6$GNRMC,132511.00,A,0419.95102,S,05539.89271,E,0.045,,220525,,,D*7C
$GNVTG,,T,,M,0.045,N,0.084,K,D*35
$GNGNS,132511.00,0419.95102,S,05539.89271,E,DA,20,0.53,13.0,-47.6,,0000*67
$GNGGA,132511.00,0419.95102,S,05539.89271,E,2,12,0.53,13.0,M,-47.6,M,,0000*4A
$GNGSA,A,3,32,28,27,18,26,31,16,10,08,41,04,,1.03,0.53,0.88*16
$GNGSA,A,3,66,87,88,67,77,76,81,78,68,,,,1.03,0.53,0.88*1F
$GPGSV,5,1,17,02,08,333,,04,11,230,30,08,27,296,36,10,13,029,44*79
$GPGSV,5,2,17,16,24,210,34,18,26,120,40,23,01,068,16,26,29,180,38*73
$GPGSV,5,3,17,27,56,260,40,28,60,093,41,31,59,159,43,32,28,010,38*79
$GPGSV,5,4,17,36,52,277,38,40,84,353,39,41,58,082,43,49,32,274,*7A
$GPGSV,5,5,17,50,10,089,*4A
$GLGSV,3,1,09,66,22,343,19,67,28,283,29,68,08,238,34,76,16,107,38*68
$GLGSV,3,2,09,77,23,154,32,78,05,208,32,81,24,343,22,87,31,145,36*6F
$GLGSV,3,3,09,88,75,035,34*5F
$GNGLL,0419.95102,S,05539.89271,E,132511.00,A,D*66
$GNGRS,132511.00,1,0.4,0.7,-0.1,0.6,0.9,-0.4,2.6,0.7,0.0,172,5.0,*6E
$GNGRS,132511.00,1,2.0,0.8,0.7,-6.0,2.0,-2.1,-4.3,11.3,-7.0,,,*42
$GNGST,132511.00,2595869,,,,1.0,1.0,2.1*73
$GNZDA,132511.00,22,05,2025,00,00*7D
$GNGBS,132511.00,1.0,1.0,2.1,,,,*59
$GNTXT,01,01,01,More than 100 frame errors, UART RX was disabled*70
b0LzM!%(
,5"(x:D&e(8
*<]=); %
{&4&Ta+:REC 
Y&vMBWCD#/L&k7M N QWW$AX!K#tbzP$GNRMC,132512.00,A,0419.95102,S,05539.89271,E,0.020,,220525,,,D*7C
$GNVTG,,T,,M,0.020,N,0.037,K,D*3E
$GNGNS,132512.00,0419.95102,S,05539.89271,E,DA,20,0.53,13.1,-47.6,,0000*65
$GNGGA,132512.00,0419.95102,S,05539.89271,E,2,12,0.53,13.1,M,-47.6,M,,0000*48
$GNGSA,A,3,32,28,27,18,26,31,16,10,08,41,04,,1.03,0.53,0.88*16
$GNGSA,A,3,66,87,88,67,77,76,81,78,68,,,,1.03,0.53,0.88*1F
$GPGSV,5,1,17,02,08,333,,04,11,230,33,08,27,296,37,10,13,029,44*7B
$GPGSV,5,2,17,16,24,210,34,18,26,120,40,23,01,068,,26,29,180,38*74
$GPGSV,5,3,17,27,56,260,40,28,60,093,42,31,59,159,41,32,28,010,37*77
$GPGSV,5,4,17,36,52,277,38,40,84,353,38,41,58,082,43,49,32,274,*7B
$GPGSV,5,5,17,50,10,089,*4A
$GLGSV,3,1,09,66,22,343,12,67,28,283,29,68,08,238,35,76,16,107,38*62
$GLGSV,3,2,09,77,23,154,32,78,05,208,32,81,24,343,21,87,31,145,36*6C
$GLGSV,3,3,09,88,75,035,33*58
$GNGLL,0419.95102,S,05539.89271,E,132512.00,A,D*65
$GNGRS,132512.00,1,0.3,0.6,-0.1,0.6,1.0,-0.2,1.3,0.5,0.2,172,1.8,*6F
$GNGRS,132512.00,1,2.0,0.7,1.5,-4.9,6.8,-2.0,-6.0,7.8,-7.2,,,*74
$GNGST,132512.00,2595869,,,,1.0,1.0,2.1*70
$GNZDA,132512.00,22,05,2025,00,00*7E
$GNGBS,132512.00,1.0,1.0,2.1,,,,*5A
b0LzM#%(
-)!a(x1D&})8
*<]7*; &
{&4&Ta,:RHC 
Y&vGBXE
C
D$L(kM$,NQWW'_X!K#jbzP$GNRMC,132513.00,A,0419.95103,S,05539.89272,E,0.007,,220525,,,D*7A
$GNVTG,,T,,M,0.007,N,0.012,K,D*3C
$GNGNS,132513.00,0419.95103,S,05539.89272,E,DA,20,0.55,13.1,-47.6,,0000*60
$GNGGA,132513.00,0419.95103,S,05539.89272,E,2,12,0.55,13.1,M,-47.6,M,,0000*4D
$GNGSA,A,3,32,28,27,18,26,31,16,10,08,41,04,,1.05,0.55,0.89*17
$GNGSA,A,3,66,87,88,67,77,76,81,78,68,,,,1.05,0.55,0.89*1E
$GPGSV,5,1,17,02,08,333,,04,11,230,35,08,27,296,37,10,13,029,45*7C
$GPGSV,5,2,17,16,24,210,33,18,26,120,40,23,01,068,,26,29,180,38*73
$GPGSV,5,3,17,27,56,260,41,28,60,093,42,31,59,159,42,32,28,010,38*7A
$GPGSV,5,4,17,36,52,277,38,40,84,353,38,41,58,082,44,49,32,274,*7C
$GPGSV,5,5,17,50,10,089,*4A
$GLGSV,3,1,09,66,22,344,16,67,28,283,30,68,08,238,36,76,16,107,40*65
$GLGSV,3,2,09,77,23,154,36,78,05,208,31,81,24,343,22,87,31,145,39*67
$GLGSV,3,3,09,88,75,035,33*58
$GNGLL,0419.95103,S,05539.89272,E,132513.00,A,D*66
$GNGRS,132513.00,1,0.3,0.5,-0.2,0.5,1.3,-0.3,3.5,0.4,-0.1,172,2.5,*4A
$GNGRS,132513.00,1,26.3,0.9,-1.1,-5.0,5.6,-2.3,-6.1,7.1,-7.5,,,*6E
$GNTXT,01,01,01,More than 100 frame errors, UART RX was disabled*70
$GNGST,132513.00,917,,,,1.0,1.0,2.1*72
$GNZDA,132513.00,22,05,2025,00,00*7F
$GNGBS,132513.00,1.0,1.0,2.1,,,,*5B
$GNTXT,01,01,01,More than 100 frame errors, UART RX was disabled*70
b0LzM#%(
-/!(x,D#&8
(<]:'; &
{#4(Ta*:R7C 
Y&v7BXCD%L,kM"lN!\QWkW&kX!K#-bzPf\$GNRMC,132514.00,A,0419.95103,S,05539.89273,E,0.093,,220525,,,D*71
$GNVTG,,T,,M,0.093,N,0.173,K,D*37
$GNGNS,132514.00,0419.95103,S,05539.89273,E,DA,20,0.53,13.1,-47.6,,0000*60
$GNGGA,132514.00,0419.95103,S,05539.89273,E,2,12,0.53,13.1,M,-47.6,M,,0000*4D
$GNGSA,A,3,32,28,27,18,26,31,16,10,08,41,04,,1.03,0.53,0.88*16
$GNGSA,A,3,66,87,88,67,77,76,81,78,68,,,,1.03,0.53,0.88*1F
$GPGSV,5,1,17,02,08,333,,04,11,230,35,08,27,296,37,10,13,029,45*7C
$GPGSV,5,2,17,16,24,210,33,18,26,120,40,23,01,068,,26,29,180,35*7E
$GPGSV,5,3,17,27,56,260,38,28,60,093,40,31,59,159,39,32,28,010,38*7A
$GPGSV,5,4,17,36,52,277,35,40,84,353,40,41,58,082,42,49,32,274,*78
$GPGSV,5,5,17,50,10,089,*4A
$GLGSV,3,1,09,66,22,344,19,67,28,284,31,68,08,238,37,76,16,107,44*69
$GLGSV,3,2,09,77,23,154,34,78,05,208,33,81,24,343,25,87,31,145,38*61
$GLGSV,3,3,09,88,75,035,33*58
$GNGLL,0419.95103,S,05539.89273,E,132514.00,A,D*60
$GNGRS,132514.00,1,0.3,0.6,-0.3,0.4,1.3,-0.3,4.5,0.5,0.0,172,6.5,*60
$GNGRS,132514.00,1,1.9,1.1,-3.0,-8.5,11.3,-2.4,-6.6,3.5,-7.5,,,*64
$GNGST,132514.00,2595869,,,,1.0,1.0,2.1*76
$GNZDA,132514.00,22,05,2025,00,00*78
$GNGBS,132514.00,1.0,1.0,2.1,,,,*5C
$GNTXT,01,01,01,More than 100 frame errors, UART RX was disabled*70
b0LzM"!&((
,a#%(x/DJ-&t'8
(<]>*; '
{$4)Ta+:RGC 
Y&v?BXC=D&L*kMN#@QWW#qX"K#DbzP>$GNRMC,132515.00,A,0419.95102,S,05539.89274,E,0.013,,220525,,,D*7E
$GNVTG,,T,,M,0.013,N,0.024,K,D*3C
$GNGNS,132515.00,0419.95102,S,05539.89274,E,DA,20,0.53,13.1,-47.6,,0000*67
$GNGGA,132515.00,0419.95102,S,05539.89274,E,2,12,0.53,13.1,M,-47.6,M,,0000*4A
$GNGSA,A,3,32,28,27,18,26,31,16,10,08,41,04,,1.03,0.53,0.88*16
$GNGSA,A,3,66,87,88,67,77,76,81,78,68,,,,1.03,0.53,0.88*1F
$GPGSV,5,1,17,02,08,333,,04,11,230,34,08,27,296,38,10,13,029,44*73
$GPGSV,5,2,17,16,24,210,35,18,26,120,40,23,01,068,19,26,29,180,38*7D
$GPGSV,5,3,17,27,56,260,39,28,60,093,40,31,59,159,42,32,28,010,39*76
$GPGSV,5,4,17,36,52,277,36,40,84,353,41,41,58,082,43,49,32,274,*7B
$GPGSV,5,5,17,50,10,089,*4A
$GLGSV,3,1,09,66,22,344,22,67,28,284,30,68,08,238,38,76,16,107,42*69
$GLGSV,3,2,09,77,23,154,31,78,05,208,35,81,24,343,24,87,31,145,35*6E
$GLGSV,3,3,09,88,75,035,34*5F
$GNGLL,0419.95102,S,05539.89274,E,132515.00,A,D*67
$GNGRS,132515.00,1,0.2,0.6,-0.3,0.5,1.2,-0.4,8.0,1.0,0.4,172,-2.2,*40
$GNGRS,132515.00,1,1.7,1.1,-0.5,-7.1,6.4,-2.4,-7.6,5.8,-7.7,,,*5F
$GNGST,132515.00,2595869,,,,1.0,1.0,2.1*77
$GNZDA,132515.00,22,05,2025,00,00*79
$GNGBS,132515.00,1.0,1.0,2.1,,,,*5D
$GNTXT,01,01,01,More than 100 frame errors, UART RX was disabled*70
b0LzM#J%(W
,V"r)x"D%v(8
(<]5*; '
{$4)Ta+:ReC 
Y'v(BXACD&L+kM!N"QWrW#X"K#xbzP,$GNRMC,132516.00,A,0419.95103,S,05539.89275,E,0.016,,220525,,,D*78
$GNVTG,,T,,M,0.016,N,0.030,K,D*3C
$GNGNS,132516.00,0419.95103,S,05539.89275,E,DA,20,0.53,13.1,-47.6,,0000*64
$GNGGA,132516.00,0419.95103,S,05539.89275,E,2,12,0.53,13.1,M,-47.6,M,,0000*49
$GNGSA,A,3,32,28,27,18,26,31,16,10,08,41,04,,1.03,0.53,0.88*16
$GNGSA,A,3,66,87,88,67,77,76,81,78,68,,,,1.03,0.53,0.88*1F
$GPGSV,5,1,17,02,08,333,,04,11,230,35,08,27,296,37,10,13,029,44*7D
$GPGSV,5,2,17,16,24,210,34,18,26,120,41,23,01,068,,26,29,180,37*7A
$GPGSV,5,3,17,27,56,260,40,28,60,093,40,31,59,159,42,32,28,010,39*78
$GPGSV,5,4,17,36,52,277,36,40,84,353,41,41,58,082,43,49,32,274,*7B
$GPGSV,5,5,17,50,10,089,*4A
$GLGSV,3,1,09,66,22,344,23,67,28,284,30,68,08,238,38,76,16,107,43*69
$GLGSV,3,2,09,77,23,154,33,78,05,208,34,81,24,343,26,87,31,145,35*6F
$GLGSV,3,3,09,88,75,035,34*5F
$GNGLL,0419.95103,S,05539.89275,E,132516.00,A,D*64
$GNGRS,132516.00,1,0.3,0.5,-0.3,0.3,1.2,-0.3,6.3,0.9,0.9,173,3.3,*64
$GNGRS,132516.00,1,0.7,1.4,-1.4,-5.5,7.1,-2.5,-6.5,6.8,-7.8,,,*55
$GNGST,132516.00,895,,,,1.0,1.0,2.1*7C
$GNZDA,132516.00,22,05,2025,00,00*7A
$GNGBS,132516.00,1.0,1.0,2.1,,,,*5E
$GNTXT,01,01,01,More than 100 frame errors, UART RX was disabled*70
b0LzM#$(Z
+I!)(x=D#x'8
(<]); '
{"4(Ta+:RmC 
Y'v"BX:CLD'L)kM N"QWW#X"K#SbzwP$GNRMC,132517.00,A,0419.95103,S,05539.89275,E,0.005,,220525,,,D*7B
$GNVTG,,T,,M,0.005,N,0.010,K,D*3C
$GNGNS,132517.00,0419.95103,S,05539.89275,E,DA,20,0.53,13.1,-47.6,,0000*65
$GNGGA,132517.00,0419.95103,S,05539.89275,E,2,12,0.53,13.1,M,-47.6,M,,0000*48
$GNGSA,A,3,32,28,27,18,26,31,16,10,08,41,04,,1.03,0.53,0.88*16
$GNGSA,A,3,66,87,88,67,77,76,81,78,68,,,,1.03,0.53,0.88*1F
$GPGSV,5,1,17,02,08,333,,04,11,230,35,08,27,296,36,10,13,029,43*7B
$GPGSV,5,2,17,16,24,210,33,18,26,120,40,23,01,068,,26,29,180,35*7E
$GPGSV,5,3,17,27,56,260,39,28,60,093,40,31,59,159,41,32,28,010,39*75
$GPGSV,5,4,17,36,52,277,34,40,84,353,40,41,58,082,43,49,32,274,*78
$GPGSV,5,5,17,50,10,089,*4A
$GLGSV,3,1,09,66,22,344,26,67,28,284,30,68,08,238,39,76,16,107,41*6F
$GLGSV,3,2,09,77,23,154,32,78,05,208,34,81,24,343,27,87,31,145,35*6F
$GLGSV,3,3,09,88,75,035,34*5F
$GNGLL,0419.95103,S,05539.89275,E,132517.00,A,D*65
$GNGRS,132517.00,1,0.2,0.1,-0.2,0.6,1.2,-0.2,3.0,0.7,0.9,173,4.2,*6B
$GNGRS,132517.00,1,0.6,1.7,-3.7,-6.9,4.1,-2.6,-5.0,2.4,-7.4,,,*5A
$GNGST,132517.00,895,,,,1.1,1.0,2.1*7C
$GNZDA,132517.00,22,05,2025,00,00*7B
$GNGBS,132517.00,1.1,1.0,2.1,,,,*5E
$GNTXT,01,01,01,More than 100 frame errors, UART RX was disabled*70
b0LzM"$(_
*K"T'x9D#'8
(<](; (
!{!4)Ta+:RiC 
Y&v1BXrC"D'L+kM N!:QWW#X"K#P&bz_P$GNRMC,132518.00,A,0419.95103,S,05539.89276,E,0.012,,220525,,,D*71
$GNVTG,,T,,M,0.012,N,0.023,K,D*3A
$GNGNS,132518.00,0419.95103,S,05539.89276,E,DA,20,0.53,13.2,-47.6,,0000*6A
$GNGGA,132518.00,0419.95103,S,05539.89276,E,2,12,0.53,13.2,M,-47.6,M,,0000*47
$GNGSA,A,3,32,28,27,18,26,31,16,10,08,41,04,,1.03,0.53,0.88*16
$GNGSA,A,3,66,87,88,67,77,76,81,78,68,,,,1.03,0.53,0.88*1F
$GPGSV,5,1,17,02,08,333,,04,11,230,34,08,27,296,36,10,13,029,42*7B
$GPGSV,5,2,17,16,24,210,34,18,26,120,39,23,01,068,,26,29,180,35*77
$GPGSV,5,3,17,27,56,260,39,28,60,093,40,31,59,159,40,32,28,010,40*7A
$GPGSV,5,4,17,36,52,277,33,40,84,353,41,41,58,082,43,49,32,274,*7E
$GPGSV,5,5,17,50,10,089,*4A
$GLGSV,3,1,09,66,22,344,28,67,28,284,30,68,08,238,39,76,16,107,43*63
$GLGSV,3,2,09,77,23,154,32,78,05,208,33,81,24,343,27,87,31,145,35*68
$GLGSV,3,3,09,88,75,035,34*5F
$GNGLL,0419.95103,S,05539.89276,E,132518.00,A,D*69
$GNGRS,132518.00,1,0.3,0.2,-0.5,0.6,1.4,-0.3,3.4,0.7,0.9,173,3.8,*6F
$GNGRS,132518.00,1,-1.4,1.9,-4.3,-7.3,0.0,-2.6,-2.9,0.6,-7.5,,,*77
$GNGST,132518.00,895,,,,1.1,1.0,2.1*73
$GNZDA,132518.00,22,05,2025,00,00*74
$GNGBS,132518.00,1.1,1.0,2.1,,,,*51
$GNTXT,01,01,01,More than 100 frame errors, UART RX was disabled*70
b0Lh{M#%(l
*9"{'x+D#'8
(<]); '
2{"4)Ta+:RwC 
Y&vEBXCD'L+kM N!QWW#X#K# bh{GPr$GNRMC,132519.00,A,0419.95103,S,05539.89276,E,0.055,,220525,,,D*73
$GNVTG,,T,,M,0.055,N,0.101,K,D*38
$GNGNS,132519.00,0419.95103,S,05539.89276,E,DA,20,0.53,13.2,-47.6,,0000*6B
$GNGGA,132519.00,0419.95103,S,05539.89276,E,2,12,0.53,13.2,M,-47.6,M,,0000*46
$GNGSA,A,3,32,28,27,18,26,31,16,10,08,41,04,,1.03,0.53,0.88*16
$GNGSA,A,3,66,87,88,67,77,76,81,78,68,,,,1.03,0.53,0.88*1F
$GPGSV,5,1,17,02,08,333,,04,11,230,35,08,27,296,37,10,13,029,42*7B
$GPGSV,5,2,17,16,24,210,34,18,26,120,39,23,01,068,,26,29,180,35*77
$GPGSV,5,3,17,27,56,260,39,28,60,093,40,31,59,159,41,32,28,010,39*75
$GPGSV,5,4,17,36,52,277,34,40,84,353,41,41,58,082,43,49,32,274,*79
$GPGSV,5,5,17,50,10,089,*4A
$GLGSV,3,1,09,66,22,344,28,67,28,284,31,68,08,238,39,76,16,107,43*62
$GLGSV,3,2,09,77,23,154,32,78,05,208,33,81,24,343,27,87,31,145,35*68
$GLGSV,3,3,09,88,75,035,35*5E
$GNGLL,0419.95103,S,05539.89276,E,132519.00,A,D*68
$GNGRS,132519.00,1,0.5,-0.2,-0.6,0.4,1.5,0.0,3.8,0.6,1.1,173,1.7,*62
$GNGRS,132519.00,1,-2.5,1.5,-0.6,-6.1,-2.4,-2.5,-3.5,2.7,-7.5,,,*5C
$GNGST,132519.00,895,,,,1.1,1.0,2.2*71
$GNZDA,132519.00,22,05,2025,00,00*75
$GNGBS,132519.00,1.1,1.0,2.2,,,,*53
$GNTXT,01,01,01,More than 100 frame errors, UART RX was disabled*70
b0LP{M%(d
,:'x%D('8
&<]+; '
Q{"4+Ta':RyC 
Y(v+BXCD'L*kM N ZQWW$.X#K#;bP{/Pw$GNRMC,132520.00,A,0419.95107,S,05539.89278,E,0.180,,220525,,,D*7A
$GNVTG,,T,,M,0.180,N,0.334,K,D*35
$GNGNS,132520.00,0419.95107,S,05539.89278,E,DA,20,0.53,13.2,-47.6,,0000*6B
$GNGGA,132520.00,0419.95107,S,05539.89278,E,2,12,0.53,13.2,M,-47.6,M,,0000*46
$GNGSA,A,3,32,28,27,18,26,31,16,10,08,41,04,,1.03,0.53,0.88*16
$GNGSA,A,3,66,87,88,67,77,76,81,78,68,,,,1.03,0.53,0.88*1F
$GPGSV,5,1,17,02,08,333,,04,11,230,29,08,27,296,37,10,13,029,44*70
$GPGSV,5,2,17,16,24,210,28,18,26,120,39,23,01,068,,26,29,180,40*78
$GPGSV,5,3,17,27,56,260,39,28,60,093,38,31,59,159,43,32,28,010,39*78
$GPGSV,5,4,17,36,52,277,34,40,84,353,43,41,58,082,39,49,32,274,*76
$GPGSV,5,5,17,50,10,089,*4A
$GLGSV,3,1,09,66,22,344,26,67,28,284,30,68,08,238,39,76,16,107,42*6C
$GLGSV,3,2,09,77,23,154,32,78,05,208,32,81,24,343,24,87,31,145,36*69
$GLGSV,3,3,09,88,75,035,35*5E
$GNGLL,0419.95107,S,05539.89278,E,132520.00,A,D*68
$GNGRS,132520.00,1,0.8,-0.2,-0.7,0.4,1.4,0.0,2.4,0.6,1.0,173,1.3,*6D
$GNGRS,132520.00,1,-2.5,0.5,-1.0,-7.8,4.6,-2.9,-3.5,-1.7,-7.4,,,*52
$GNGST,132520.00,895,,,,1.1,1.0,2.2*7B
$GNZDA,132520.00,22,05,2025,00,00*7F
$GNGBS,132520.00,1.1,1.0,2.2,,,,*59
$GNTXT,01,01,01,More than 100 frame errors, UART RX was disabled*70
b0L8{M'(&
-"'xD'U'8
'<]+; )
Q{$4*Ta':RqC 
Y'v$BXCD&L*kM!0N QWW#X#K#Db8{POB$GNRMC,132521.00,A,0419.95108,S,05539.89279,E,0.030,,220525,,,D*7F
$GNVTG,,T,,M,0.030,N,0.056,K,D*38
$GNGNS,132521.00,0419.95108,S,05539.89279,E,DA,20,0.53,13.3,-47.6,,0000*65
$GNGGA,132521.00,0419.95108,S,05539.89279,E,2,12,0.53,13.3,M,-47.6,M,,0000*48
$GNGSA,A,3,32,28,27,18,26,31,16,10,08,41,04,,1.03,0.53,0.88*16
$GNGSA,A,3,66,87,88,67,77,76,81,78,68,,,,1.03,0.53,0.88*1F
$GPGSV,5,1,17,02,08,333,,04,11,230,26,08,27,296,39,10,13,029,45*70
$GPGSV,5,2,17,16,24,210,34,18,26,120,39,23,01,068,,26,29,180,39*7B
$GPGSV,5,3,17,27,56,260,39,28,60,093,39,31,59,159,43,32,28,010,41*76
$GPGSV,5,4,17,36,52,277,36,40,84,353,42,41,58,082,39,49,32,274,*75
$GPGSV,5,5,17,50,10,089,*4A
$GLGSV,3,1,09,66,22,344,26,67,28,284,30,68,08,238,38,76,16,107,42*6D
$GLGSV,3,2,09,77,23,154,33,78,05,208,32,81,24,343,25,87,31,145,35*6A
$GLGSV,3,3,09,88,75,035,35*5E
$GNGLL,0419.95108,S,05539.89279,E,132521.00,A,D*67
$GNGRS,132521.00,1,0.8,-0.5,-0.7,0.2,0.9,-0.3,-0.1,0.2,0.4,173,-0.9,*42
$GNGRS,132521.00,1,-5.4,1.5,-0.8,-8.0,3.0,-3.1,-2.5,-1.0,-7.6,,,*56
$GNGST,132521.00,895,,,,1.1,1.0,2.2*7A
$GNZDA,132521.00,22,05,2025,00,00*7E
$GNGBS,132521.00,1.1,1.0,2.2,,,,*58
$GNTXT,01,01,01,More than 100 frame errors, UART RX was disabled*70
b0L {M)$(
)!&xD(&8
<](; +
6{!4*Ta(:RC 
Y%vGB XdC[D5L(kM N Q!WW X"K#:b {P&$GNRMC,132522.00,A,0419.95110,S,05539.89280,E,0.090,,220525,,,D*79
$GNVTG,,T,,M,0.090,N,0.167,K,D*31
$GNGNS,132522.00,0419.95110,S,05539.89280,E,DA,20,0.53,13.0,-47.6,,0000*6A
$GNGGA,132522.00,0419.95110,S,05539.89280,E,2,12,0.53,13.0,M,-47.6,M,,0000*47
$GNGSA,A,3,32,28,27,18,26,31,16,10,08,41,04,,1.03,0.53,0.88*16
$GNGSA,A,3,66,87,88,67,77,76,81,78,68,,,,1.03,0.53,0.88*1F
$GPGSV,5,1,17,02,08,333,,04,11,230,41,08,27,296,36,10,13,029,41*7A
$GPGSV,5,2,17,16,24,210,33,18,26,120,38,23,01,068,,26,29,180,40*73
$GPGSV,5,3,17,27,56,260,38,28,60,093,30,31,59,159,40,32,28,010,43*7F
$GPGSV,5,4,17,36,52,277,33,40,84,353,42,41,58,082,40,49,32,274,*7E
$GPGSV,5,5,17,50,10,089,*4A
$GLGSV,3,1,09,66,22,344,32,67,28,284,29,68,08,238,27,76,16,107,40*6C
$GLGSV,3,2,09,77,23,154,32,78,05,208,32,81,24,343,33,87,31,145,32*6B
$GLGSV,3,3,09,88,75,035,34*5F
$GNGLL,0419.95110,S,05539.89280,E,132522.00,A,D*6B
$GNGRS,132522.00,1,0.5,-0.4,-0.2,-2.3,0.1,0.0,0.0,0.2,0.3,173,4.5,*4E
$GNGRS,132522.00,1,-4.1,2.5,-4.5,-9.3,2.1,-0.6,-3.1,-3.2,-7.1,,,*5F
$GNGST,132522.00,895,,,,1.1,1.1,2.2*78
$GNZDA,132522.00,22,05,2025,00,00*7D
$GNGBS,132522.00,1.1,1.1,2.2,,,,*5A
b0L{M'$(@
,$#xD8-
&<]h(; *
X{'4)Ta(:RC 
Y vB XUCDL(jM3N.Q WWWX#K#bb{P$GNRMC,132523.00,A,0419.95110,S,05539.89278,E,0.020,,220525,,,D*74
$GNVTG,,T,,M,0.020,N,0.036,K,D*3F
$GNGNS,132523.00,0419.95110,S,05539.89278,E,DA,20,0.53,12.9,-47.6,,0000*64
$GNGGA,132523.00,0419.95110,S,05539.89278,E,2,12,0.53,12.9,M,-47.6,M,,0000*49
$GNGSA,A,3,32,28,27,18,26,31,16,10,08,41,04,,1.03,0.53,0.88*16
$GNGSA,A,3,66,87,88,67,77,76,81,78,68,,,,1.03,0.53,0.88*1F
$GPGSV,5,1,17,02,08,333,,04,11,230,39,08,27,296,36,10,13,029,44*70
$GPGSV,5,2,17,16,24,210,36,18,26,120,35,23,01,068,,26,29,180,31*7D
$GPGSV,5,3,17,27,56,260,30,28,60,093,38,31,59,159,40,32,28,010,42*7E
$GPGSV,5,4,17,36,52,277,39,40,84,353,41,41,58,082,40,49,32,274,*77
$GPGSV,5,5,17,50,10,089,*4A
$GLGSV,3,1,09,66,22,344,32,67,28,284,31,68,08,238,26,76,16,106,40*65
$GLGSV,3,2,09,77,23,154,30,78,05,208,21,81,24,343,32,87,31,145,23*6A
$GLGSV,3,3,09,88,75,035,35*5E
$GNGLL,0419.95110,S,05539.89278,E,132523.00,A,D*6D
$GNGRS,132523.00,1,0.9,1.0,0.5,-3.6,2.8,-0.2,2.5,0.0,0.6,173,2.2,*60
$GNGRS,132523.00,1,-1.7,3.4,1.0,-8.3,3.1,-6.1,-2.8,-4.7,-8.6,,,*73
$GNGST,132523.00,895,,,,1.1,1.1,2.2*79
$GNZDA,132523.00,22,05,2025,00,00*7C
$GNGBS,132523.00,1.1,1.1,2.2,,,,*5B
$GNTXT,01,01,01,More than 100 frame errors, UART RX was disabled*70
$GNTXT,01,01,01,More than 100 frame errors, UART RX was disabled*70
b0L{M%'#(N
+#&xD8B
&<]+; (
W{'4*Ta(:RC 
Y vBXVC"DL(jMNQW$W!X$K#%b{Ph$GNRMC,132524.00,A,0419.95110,S,05539.89277,E,0.025,,220525,,,D*79
$GNVTG,,T,,M,0.025,N,0.047,K,D*3C
$GNGNS,132524.00,0419.95110,S,05539.89277,E,DA,20,0.53,12.9,-47.6,,0000*6C
$GNGGA,132524.00,0419.95110,S,05539.89277,E,2,12,0.53,12.9,M,-47.6,M,,0000*41
$GNGSA,A,3,32,28,27,18,26,31,16,10,08,41,04,,1.03,0.53,0.88*16
$GNGSA,A,3,66,87,88,67,77,76,81,78,68,,,,1.03,0.53,0.88*1F
$GPGSV,5,1,17,02,08,333,,04,11,230,37,08,27,296,35,10,13,029,43*7A
$GPGSV,5,2,17,16,24,210,35,18,26,120,38,23,01,068,,26,29,180,30*72
$GPGSV,5,3,17,27,56,260,31,28,60,093,38,31,59,159,43,32,28,010,40*7E
$GPGSV,5,4,17,36,52,277,39,40,84,353,42,41,58,082,40,49,32,274,*74
$GPGSV,5,5,17,50,10,089,*4A
$GLGSV,3,1,09,66,22,344,31,67,28,284,34,68,08,238,26,76,16,106,40*63
$GLGSV,3,2,09,77,23,154,30,78,05,208,24,81,24,343,31,87,31,145,26*69
$GLGSV,3,3,09,88,75,035,36*5D
$GNGLL,0419.95110,S,05539.89277,E,132524.00,A,D*65
$GNGRS,132524.00,1,0.9,1.5,5.8,-0.4,-1.2,-0.2,2.9,0.0,0.8,174,5.5,*4A
$GNGRS,132524.00,1,0.9,5.4,-3.6,-11.1,0.2,-3.2,-2.2,-7.5,-11.5,,,*75
$GNGST,132524.00,895,,,,1.1,1.1,2.2*7E
$GNZDA,132524.00,22,05,2025,00,00*7B
$GNGBS,132524.00,1.1,1.1,2.2,,,,*5C
b0L{M#w#(H
) $xcD8)
%<]); '
O{%4(Ta(:RC 
YvdBXrC"DL)jMxNQW>W*X$K#b{Q$GNRMC,132525.00,A,0419.95111,S,05539.89278,E,0.025,,220525,,,D*76
$GNVTG,,T,,M,0.025,N,0.047,K,D*3C
$GNGNS,132525.00,0419.95111,S,05539.89278,E,DA,20,0.53,12.9,-47.6,,0000*63
$GNGGA,132525.00,0419.95111,S,05539.89278,E,2,12,0.53,12.9,M,-47.6,M,,0000*4E
$GNGSA,A,3,32,28,27,18,26,31,16,10,08,41,04,,1.03,0.53,0.88*16
$GNGSA,A,3,66,87,88,67,77,76,81,78,68,,,,1.03,0.53,0.88*1F
$GPGSV,5,1,17,02,08,333,,04,11,230,35,08,27,296,35,10,13,029,41*7A
$GPGSV,5,2,17,16,24,210,32,18,26,120,36,23,01,068,,26,29,180,29*73
$GPGSV,5,3,17,27,56,260,30,28,60,093,37,31,59,159,41,32,28,010,39*7C
$GPGSV,5,4,17,36,52,277,37,40,84,353,40,41,58,082,40,49,32,274,*78
$GPGSV,5,5,17,50,10,089,*4A
$GLGSV,3,1,09,66,22,344,31,67,28,284,34,68,08,238,26,76,16,106,41*62
$GLGSV,3,2,09,77,23,154,30,78,05,208,26,81,24,343,31,87,31,145,29*64
$GLGSV,3,3,09,88,75,035,36*5D
$GNGLL,0419.95111,S,05539.89278,E,132525.00,A,D*6A
$GNGRS,132525.00,1,0.8,2.2,3.0,1.0,0.2,-0.4,7.2,0.1,0.7,173,3.8,*4E
$GNGRS,132525.00,1,3.7,5.5,1.4,-10.9,-6.5,-1.0,-4.5,-1.1,-12.6,,,*73
$GNGST,132525.00,895,,,,1.1,1.1,2.3*7E
$GNZDA,132525.00,22,05,2025,00,00*7A
$GNGBS,132525.00,1.1,1.1,2.3,,,,*5C
$GNTXT,01,01,01,More than 100 frame errors, UART RX was disabled*70
$GNTXT,01,01,01,More than 100 frame errors, UART RX was disabled*70
b0L{M"$(,
* %x&D8
$<]); '
j{$4(Ta(:RC 
Y!vBXC"DL(jyMNQWWX#K#6b{Q:$GNRMC,132526.00,A,0419.95111,S,05539.89279,E,0.036,,220525,,,D*76
$GNVTG,,T,,M,0.036,N,0.066,K,D*3D
$GNGNS,132526.00,0419.95111,S,05539.89279,E,DA,20,0.53,12.9,-47.6,,0000*61
$GNGGA,132526.00,0419.95111,S,05539.89279,E,2,12,0.53,12.9,M,-47.6,M,,0000*4C
$GNGSA,A,3,32,28,27,18,26,31,16,10,08,41,04,,1.03,0.53,0.88*16
$GNGSA,A,3,66,87,88,67,77,76,81,78,68,,,,1.03,0.53,0.88*1F
$GPGSV,5,1,17,02,08,333,,04,11,230,34,08,27,296,36,10,13,029,42*7B
$GPGSV,5,2,17,16,24,210,32,18,26,120,37,23,01,068,,26,29,180,30*7A
$GPGSV,5,3,17,27,56,260,29,28,60,093,36,31,59,159,41,32,28,010,39*75
$GPGSV,5,4,17,36,52,277,36,40,84,353,40,41,58,082,40,49,32,274,*79
$GPGSV,5,5,17,50,10,089,*4A
$GLGSV,3,1,09,66,22,344,31,67,28,284,34,68,08,238,28,76,16,106,40*6D
$GLGSV,3,2,09,77,23,154,29,78,05,208,28,81,24,343,31,87,31,145,29*62
$GLGSV,3,3,09,88,75,035,35*5E
$GNGLL,0419.95111,S,05539.89279,E,132526.00,A,D*68
$GNGRS,132526.00,1,1.1,2.2,1.8,0.4,0.1,-0.5,4.0,0.0,0.4,173,2.0,*42
$GNGRS,132526.00,1,2.5,5.0,0.5,-10.0,-2.9,1.2,-4.8,-2.4,-12.9,,,*5C
$GNGST,132526.00,895,,,,1.1,1.1,2.3*7D
$GNZDA,132526.00,22,05,2025,00,00*79
$GNGBS,132526.00,1.1,1.1,2.3,,,,*5F
$GNTXT,01,01,01,More than 100 frame errors, UART RX was disabled*70
b0L{M#$(V
* #xD8
$<]); (
i{$4(Ta':RC 
Y vB X1C"mDL)jKMNQWWjX$K#k%b{QZ~$GNRMC,132527.00,A,0419.95110,S,05539.89278,E,0.011,,220525,,,D*72
$GNVTG,,T,,M,0.011,N,0.020,K,D*3A
$GNGNS,132527.00,0419.95110,S,05539.89278,E,DA,20,0.53,12.8,-47.6,,0000*61
$GNGGA,132527.00,0419.95110,S,05539.89278,E,2,12,0.53,12.8,M,-47.6,M,,0000*4C
$GNGSA,A,3,32,28,27,18,26,31,16,10,08,41,04,,1.03,0.53,0.88*16
$GNGSA,A,3,66,87,88,67,77,76,81,78,68,,,,1.03,0.53,0.88*1F
$GPGSV,5,1,17,02,08,333,,04,11,230,35,08,27,296,36,10,13,029,42*7A
$GPGSV,5,2,17,16,24,210,32,18,26,120,35,23,01,068,,26,29,180,31*79
$GPGSV,5,3,17,27,56,260,26,28,60,093,36,31,59,159,41,32,28,010,40*74
$GPGSV,5,4,17,36,52,277,36,40,84,353,40,41,58,082,39,49,32,274,*77
$GPGSV,5,5,17,50,10,089,*4A
$GLGSV,3,1,09,66,22,344,32,67,28,284,34,68,08,238,30,76,16,106,41*66
$GLGSV,3,2,09,77,23,154,28,78,05,208,26,81,24,343,31,87,31,145,31*64
$GLGSV,3,3,09,88,75,035,36*5D
$GNGLL,0419.95110,S,05539.89278,E,132527.00,A,D*69
$GNGRS,132527.00,1,1.0,1.6,2.3,2.1,1.9,-0.6,2.4,0.3,0.9,174,2.5,*4E
$GNGRS,132527.00,1,3.0,1.1,1.1,-1.5,1.6,-1.8,-5.9,1.6,-7.8,,,*73
$GNGST,132527.00,895,,,,1.1,1.1,2.3*7C
$GNZDA,132527.00,22,05,2025,00,00*78
$GNGBS,132527.00,1.1,1.1,2.3,,,,*5E
$GNTXT,01,01,01,More than 100 frame errors, UART RX was disabled*70
b0L#{M""(~
)  %x%D8;
$<]l); '
m{$4(Ta':RD 
Y!v"BX/C"DL(j-MRNQWW`X$K#Wb#{oQ2$GNRMC,132528.00,A,0419.95109,S,05539.89278,E,0.038,,220525,,,D*7E
$GNVTG,,T,,M,0.038,N,0.071,K,D*35
$GNGNS,132528.00,0419.95109,S,05539.89278,E,DA,20,0.53,12.9,-47.6,,0000*67
$GNGGA,132528.00,0419.95109,S,05539.89278,E,2,12,0.53,12.9,M,-47.6,M,,0000*4A
$GNGSA,A,3,32,28,27,18,26,31,16,10,08,41,04,,1.03,0.53,0.88*16
$GNGSA,A,3,66,87,88,67,77,76,81,78,68,,,,1.03,0.53,0.88*1F
$GPGSV,5,1,17,02,08,333,,04,11,230,34,08,27,296,34,10,13,029,41*7A
$GPGSV,5,2,17,16,24,210,32,18,26,120,37,23,01,068,,26,29,180,30*7A
$GPGSV,5,3,17,27,56,260,27,28,60,093,36,31,59,159,41,32,28,010,39*7B
$GPGSV,5,4,17,36,52,277,36,40,84,353,40,41,58,082,39,49,32,274,*77
$GPGSV,5,5,17,50,10,089,*4A
$GLGSV,3,1,09,66,22,344,31,67,28,284,34,68,08,238,29,76,16,106,40*6C
$GLGSV,3,2,09,77,23,154,30,78,05,208,26,81,25,343,31,87,31,145,30*6D
$GLGSV,3,3,09,88,75,035,36*5D
$GNGLL,0419.95109,S,05539.89278,E,132528.00,A,D*6E
$GNGRS,132528.00,1,1.1,1.1,3.2,-2.2,2.7,-0.6,2.2,0.3,1.3,174,4.2,*68
$GNGRS,132528.00,1,5.6,1.0,0.9,-5.7,-1.7,-2.1,-10.4,1.5,-8.0,,,*69
$GNGST,132528.00,895,,,,1.1,1.1,2.3*73
$GNZDA,132528.00,22,05,2025,00,00*77
$GNGBS,132528.00,1.1,1.1,2.3,,,,*51
$GNTXT,01,01,01,More than 100 frame errors, UART RX was disabled*70
b0Lx'{M#!(
('!#xiD;8\
$<]x(; &
}{#4&Ta&:R%D 
Y v1BXTC!DL&jvMNmQWYW,X$K#\$%bx'{WQ
N$GNRMC,132529.00,A,0419.95108,S,05539.89278,E,0.013,,220525,,,D*77
$GNVTG,,T,,M,0.013,N,0.024,K,D*3C
$GNGNS,132529.00,0419.95108,S,05539.89278,E,DA,20,0.53,12.9,-47.6,,0000*67
$GNGGA,132529.00,0419.95108,S,05539.89278,E,2,12,0.53,12.9,M,-47.6,M,,0000*4A
$GNGSA,A,3,32,28,27,18,26,31,16,10,08,41,04,,1.03,0.53,0.88*16
$GNGSA,A,3,66,87,88,67,77,76,81,78,68,,,,1.03,0.53,0.88*1F
$GPGSV,5,1,17,02,08,333,,04,11,230,35,08,27,296,33,10,13,029,40*7D
$GPGSV,5,2,17,16,24,210,33,18,26,120,35,23,01,068,,26,29,180,30*79
$GPGSV,5,3,17,27,56,260,27,28,60,093,36,31,59,159,40,32,28,010,38*7B
$GPGSV,5,4,17,36,52,277,35,40,84,353,38,41,58,082,38,49,32,274,*7A
$GPGSV,5,5,17,50,10,089,*4A
$GLGSV,3,1,09,66,22,344,31,67,28,284,33,68,08,238,27,76,16,106,38*6A
$GLGSV,3,2,09,77,23,154,30,78,05,208,24,81,25,343,31,87,31,145,31*6E
$GLGSV,3,3,09,88,75,035,36*5D
$GNGLL,0419.95108,S,05539.89278,E,132529.00,A,D*6E
$GNGRS,132529.00,1,1.2,1.2,-4.2,1.0,-2.0,-0.9,2.3,0.4,1.4,174,4.2,*4B
$GNGRS,132529.00,1,0.8,-2.1,0.9,-6.4,-3.1,-1.4,-9.3,1.1,-11.3,,,*4E
$GNGST,132529.00,895,,,,1.1,1.1,2.3*72
$GNZDA,132529.00,22,05,2025,00,00*76
$GNGBS,132529.00,1.1,1.1,2.3,,,,*50
$GNTXT,01,01,01,More than 100 frame errors, UART RX was disabled*70
b0L`+{M#}!(h
(E"A$xD <8
$<],(; &
{#4&Ta&:R?D 
YvBX[C"DOL)jMN#QWW"X$K#pb`+{?Q$GNRMC,132530.00,A,0419.95107,S,05539.89279,E,0.009,,220525,,,D*7A
$GNVTG,,T,,M,0.009,N,0.017,K,D*37
$GNGNS,132530.00,0419.95107,S,05539.89279,E,DA,20,0.53,12.9,-47.6,,0000*61
$GNGGA,132530.00,0419.95107,S,05539.89279,E,2,12,0.53,12.9,M,-47.6,M,,0000*4C
$GNGSA,A,3,32,28,27,18,26,31,16,10,08,41,04,,1.03,0.53,0.88*16
$GNGSA,A,3,66,87,88,67,77,76,81,78,68,,,,1.03,0.53,0.88*1F
$GPGSV,5,1,17,02,08,333,,04,11,230,35,08,27,296,33,10,13,029,40*7D
$GPGSV,5,2,17,16,24,210,34,18,26,120,36,23,01,068,,26,29,180,32*7F
$GPGSV,5,3,17,27,56,260,26,28,60,093,36,31,59,159,40,32,28,010,38*7A
$GPGSV,5,4,17,36,52,277,35,40,84,353,38,41,58,082,38,49,32,274,*7A
$GPGSV,5,5,17,50,10,089,*4A
$GLGSV,3,1,09,66,22,344,31,67,28,284,34,68,08,238,26,76,16,106,41*62
$GLGSV,3,2,09,77,23,154,29,78,05,208,22,81,25,343,30,87,31,145,34*64
$GLGSV,3,3,09,88,75,035,36*5D
$GNGLL,0419.95107,S,05539.89279,E,132530.00,A,D*68
$GNGRS,132530.00,1,1.5,0.4,-10.1,-0.2,0.6,-1.0,0.7,0.7,1.0,175,3.8,*77
$GNGRS,132530.00,1,-1.7,-2.3,1.7,-6.3,0.2,-0.8,-3.2,0.4,-4.3,,,*74
$GNGST,132530.00,895,,,,1.1,1.1,2.3*7A
$GNZDA,132530.00,22,05,2025,00,00*7E
$GNGBS,132530.00,1.1,1.1,2.3,,,,*58
$GNTXT,01,01,01,More than 100 frame errors, UART RX was disabled*70
b0LH/{M${"(p
(3#5$xD!8
$<];(; &
{$4'Ta':RHD 
YvBXC"DL(jMjNDQWW!X$K#\LbH/{'Q$GNRMC,132531.00,A,0419.95106,S,05539.89279,E,0.032,,220525,,,D*72
$GNVTG,,T,,M,0.032,N,0.058,K,D*34
$GNGNS,132531.00,0419.95106,S,05539.89279,E,DA,20,0.53,12.8,-47.6,,0000*60
$GNGGA,132531.00,0419.95106,S,05539.89279,E,2,12,0.53,12.8,M,-47.6,M,,0000*4D
$GNGSA,A,3,32,28,27,18,26,31,16,10,08,41,04,,1.03,0.53,0.88*16
$GNGSA,A,3,66,87,88,67,77,76,81,78,68,,,,1.03,0.53,0.88*1F
$GPGSV,5,1,17,02,08,333,,04,11,230,36,08,27,296,34,10,13,029,40*79
$GPGSV,5,2,17,16,24,210,35,18,26,120,36,23,01,068,18,26,29,180,33*76
$GPGSV,5,3,17,27,56,260,27,28,60,093,36,31,59,159,40,32,28,010,38*7B
$GPGSV,5,4,17,36,52,277,36,40,84,353,39,41,58,082,39,49,32,274,*79
$GPGSV,5,5,17,50,10,089,*4A
$GLGSV,3,1,09,66,22,344,31,67,28,284,34,68,08,238,27,76,16,106,40*62
$GLGSV,3,2,09,77,23,154,29,78,05,208,20,81,25,343,30,87,31,145,33*61
$GLGSV,3,3,09,88,75,035,36*5D
$GNGLL,0419.95106,S,05539.89279,E,132531.00,A,D*68
$GNGRS,132531.00,1,1.6,0.6,-5.6,0.2,1.9,-1.1,0.5,0.5,1.1,175,3.8,*67
$GNGRS,132531.00,1,0.2,1.5,3.5,-6.3,6.2,-0.8,-3.0,0.7,-3.3,,,*74
$GNGST,132531.00,895,,,,1.1,1.1,2.3*7B
$GNZDA,132531.00,22,05,2025,00,00*7F
$GNGBS,132531.00,1.1,1.1,2.3,,,,*59
$GNTXT,01,01,01,More than 100 frame errors, UART RX was disabled*70
b0L03{M$d"(h
(7#)$xD ^8i
$<])(;^ &
X{$4'Ta':R>D 
Yv!B XvC"DL)jMNXQWW!X#K#/b03{Q$GNRMC,132532.00,A,0419.95106,S,05539.89278,E,0.026,,220525,,,D*75
$GNVTG,,T,,M,0.026,N,0.049,K,D*31
$GNGNS,132532.00,0419.95106,S,05539.89278,E,DA,20,0.53,12.7,-47.6,,0000*6D
$GNGGA,132532.00,0419.95106,S,05539.89278,E,2,12,0.53,12.7,M,-47.6,M,,0000*40
$GNGSA,A,3,32,28,27,18,26,31,16,10,08,41,04,,1.03,0.53,0.88*16
$GNGSA,A,3,66,87,88,67,77,76,81,78,68,,,,1.03,0.53,0.88*1F
$GPGSV,5,1,17,02,08,333,,04,11,230,36,08,27,296,34,10,13,029,40*79
$GPGSV,5,2,17,16,24,210,35,18,26,120,36,23,01,068,17,26,29,180,32*78
$GPGSV,5,3,17,27,56,260,27,28,60,093,36,31,59,159,40,32,28,010,38*7B
$GPGSV,5,4,17,36,52,277,36,40,84,353,39,41,58,082,39,49,32,274,*79
$GPGSV,5,5,17,50,10,089,*4A
$GLGSV,3,1,09,66,22,344,32,67,28,284,34,68,08,238,27,76,16,106,41*60
$GLGSV,3,2,09,77,23,154,29,78,05,208,20,81,25,343,30,87,31,145,33*61
$GLGSV,3,3,09,88,75,035,35*5E
$GNGLL,0419.95106,S,05539.89278,E,132532.00,A,D*6A
$GNGRS,132532.00,1,0.9,0.4,-1.5,0.2,0.9,-1.6,0.4,0.6,1.0,175,3.6,*64
$GNGRS,132532.00,1,1.2,0.1,2.6,-6.2,6.6,-1.1,-6.1,0.9,-5.0,,,*73
$GNGST,132532.00,895,,,,1.1,1.1,2.3*78
$GNZDA,132532.00,22,05,2025,00,00*7C
$GNGBS,132532.00,1.1,1.1,2.3,,,,*5A
$GNTXT,01,01,01,More than 100 frame errors, UART RX was disabled*70
b0L7{M$o"(^
)#-$xDk X8
$<](;s '
F{$4'Ta':R`D 
YvB XC"uD$L(jOMN4QWeW 5X#K#b7{ Qi$GNRMC,132533.00,A,0419.95105,S,05539.89277,E,0.003,,220525,,,D*7F
$GNVTG,,T,,M,0.003,N,0.005,K,D*3E
$GNGNS,132533.00,0419.95105,S,05539.89277,E,DA,20,0.53,12.7,-47.6,,0000*60
$GNGGA,132533.00,0419.95105,S,05539.89277,E,2,12,0.53,12.7,M,-47.6,M,,0000*4D
$GNGSA,A,3,32,28,27,18,26,31,16,10,08,41,04,,1.03,0.53,0.88*16
$GNGSA,A,3,66,87,88,67,77,76,81,78,68,,,,1.03,0.53,0.88*1F
$GPGSV,5,1,17,02,08,333,,04,11,230,36,08,27,296,34,10,13,029,41*78
$GPGSV,5,2,17,16,24,210,35,18,26,120,36,23,01,068,16,26,29,180,32*79
$GPGSV,5,3,17,27,56,260,27,28,60,093,36,31,59,159,40,32,28,010,39*7A
$GPGSV,5,4,17,36,52,277,36,40,84,353,39,41,58,082,39,49,32,274,*79
$GPGSV,5,5,17,50,10,089,*4A
$GLGSV,3,1,09,66,22,344,32,67,28,284,34,68,08,238,27,76,16,106,40*61
$GLGSV,3,2,09,77,23,154,29,78,05,208,20,81,25,343,30,87,31,145,32*60
$GLGSV,3,3,09,88,75,035,35*5E
$GNGLL,0419.95105,S,05539.89277,E,132533.00,A,D*67
$GNGRS,132533.00,1,0.7,0.1,-0.4,0.0,-1.7,-1.4,0.4,0.3,0.9,175,3.7,*40
$GNGRS,132533.00,1,-0.6,0.5,2.6,-6.5,5.1,-1.8,-6.7,0.5,-2.2,,,*5B
$GNGST,132533.00,895,,,,1.1,1.1,2.3*79
$GNZDA,132533.00,22,05,2025,00,00*7D
$GNGBS,132533.00,1.1,1.1,2.3,,,,*5B
$GNTXT,01,01,01,More than 100 frame errors, UART RX was disabled*70
b0L;{M$P"(]
)5#G$xD= 8
$<](; '
E{$4'Ta':RYD 
YvB XC"hDL(jRMSNUQWW X#K#ib;{$QAS$GNRMC,132534.00,A,0419.95104,S,05539.89277,E,0.006,,220525,,,D*7C
$GNVTG,,T,,M,0.006,N,0.011,K,D*3E
$GNGNS,132534.00,0419.95104,S,05539.89277,E,DA,20,0.53,12.6,-47.6,,0000*67
$GNGGA,132534.00,0419.95104,S,05539.89277,E,2,12,0.53,12.6,M,-47.6,M,,0000*4A
$GNGSA,A,3,32,28,27,18,26,31,16,10,08,41,04,,1.03,0.53,0.88*16
$GNGSA,A,3,66,87,88,67,77,76,81,78,68,,,,1.03,0.53,0.88*1F
$GPGSV,5,1,17,02,08,333,,04,11,230,36,08,27,296,34,10,13,029,41*78
$GPGSV,5,2,17,16,24,210,35,18,26,120,36,23,01,068,16,26,29,180,32*79
$GPGSV,5,3,17,27,56,260,27,28,60,093,36,31,59,159,40,32,28,010,39*7A
$GPGSV,5,4,17,36,52,277,36,40,84,353,39,41,58,082,39,49,32,274,*79
$GPGSV,5,5,17,50,10,089,*4A
$GLGSV,3,1,09,66,22,344,32,67,28,284,34,68,08,238,27,76,16,106,40*61
$GLGSV,3,2,09,77,23,154,29,78,05,208,19,81,25,343,31,87,31,146,32*68
$GLGSV,3,3,09,88,75,035,35*5E
$GNGLL,0419.95104,S,05539.89277,E,132534.00,A,D*61
$GNGRS,132534.00,1,0.7,-0.2,-3.0,0.2,-0.2,-1.3,0.7,0.5,0.9,175,3.4,*69
$GNGRS,132534.00,1,2.0,2.2,2.9,-6.6,8.5,-1.7,-0.7,0.9,-3.3,,,*70
$GNGST,132534.00,895,,,,1.1,1.1,2.3*7E
$GNZDA,132534.00,22,05,2025,00,00*7A
$GNGBS,132534.00,1.1,1.1,2.3,,,,*5C
$GNTXT,01,01,01,More than 100 frame errors, UART RX was disabled*70
b0L>{M%<"(\
)3$R$xDa 8!
%<]);p (
L{%4'Ta':RD 
Y vB XC"LDiL%jhMNQWW ]X#K%)mb>{(Q$GNRMC,132535.00,A,0419.95104,S,05539.89277,E,0.007,,220525,,,D*7C
$GNVTG,,T,,M,0.007,N,0.013,K,D*3D
$GNGNS,132535.00,0419.95104,S,05539.89277,E,DA,20,0.53,12.6,-47.6,,0000*66
$GNGGA,132535.00,0419.95104,S,05539.89277,E,2,12,0.53,12.6,M,-47.6,M,,0000*4B
$GNGSA,A,3,32,28,27,18,26,31,16,10,08,41,04,,1.03,0.53,0.88*16
$GNGSA,A,3,66,87,88,67,77,76,81,78,68,,,,1.03,0.53,0.88*1F
$GPGSV,5,1,17,02,08,333,,04,11,230,37,08,27,296,34,10,13,029,41*79
$GPGSV,5,2,17,16,24,210,36,18,26,120,36,23,01,068,16,26,29,180,32*7A
$GPGSV,5,3,17,27,56,260,27,28,60,093,37,31,59,159,41,32,28,010,40*74
$GPGSV,5,4,17,36,52,277,37,40,84,353,39,41,58,082,39,49,32,274,*78
$GPGSV,5,5,17,50,10,089,*4A
$GLGSV,3,1,09,66,22,344,32,67,28,284,34,68,08,238,27,76,16,106,37*61
$GLGSV,3,2,09,77,23,154,30,78,05,208,19,81,25,343,31,87,31,146,32*60
$GLGSV,3,3,09,88,75,037,35*5C
$GNGLL,0419.95104,S,05539.89277,E,132535.00,A,D*60
$GNGRS,132535.00,1,0.8,0.0,-4.8,0.0,-2.9,-1.4,0.8,0.5,0.9,175,3.2,*42
$GNGRS,132535.00,1,1.7,3.5,3.0,-6.9,6.7,-1.5,-3.3,1.3,-4.1,,,*73
$GNGST,132535.00,895,,,,1.1,1.1,2.3*7F
$GNZDA,132535.00,22,05,2025,00,00*7B
$GNGBS,132535.00,1.1,1.1,2.3,,,,*5D
$GNTXT,01,01,01,More than 100 frame errors, UART RX was disabled*70
b0LB{M$,#(q
*,#C%xD8k
$<](;v (
F{$4'Ta':RD 
Y!vB XC"@DBL)jbM(N8QWW IX$K%*bB{,Q$GNRMC,132536.00,A,0419.95103,S,05539.89277,E,0.020,,220525,,,D*7D
$GNVTG,,T,,M,0.020,N,0.038,K,D*31
$GNGNS,132536.00,0419.95103,S,05539.89277,E,DA,20,0.53,12.6,-47.6,,0000*62
$GNGGA,132536.00,0419.95103,S,05539.89277,E,2,12,0.53,12.6,M,-47.6,M,,0000*4F
$GNGSA,A,3,32,28,27,18,26,31,16,10,08,41,04,,1.03,0.53,0.88*16
$GNGSA,A,3,66,87,88,67,77,76,81,78,68,,,,1.03,0.53,0.88*1F
$GPGSV,5,1,17,02,08,333,,04,11,230,36,08,27,296,35,10,13,029,42*7A
$GPGSV,5,2,17,16,24,210,35,18,26,120,37,23,01,068,15,26,29,180,31*78
$GPGSV,5,3,17,27,56,260,27,28,60,093,36,31,59,159,40,32,28,010,40*74
$GPGSV,5,4,17,36,52,277,36,40,84,353,39,41,58,082,39,49,32,274,*79
$GPGSV,5,5,17,50,10,089,*4A
$GLGSV,3,1,09,66,22,344,32,67,28,284,34,68,08,238,27,76,16,106,41*60
$GLGSV,3,2,09,77,23,154,30,78,05,208,21,81,25,343,31,87,31,146,32*6B
$GLGSV,3,3,09,88,75,037,36*5F
$GNGLL,0419.95103,S,05539.89277,E,132536.00,A,D*64
$GNGRS,132536.00,1,0.7,-0.2,-4.1,-0.2,-0.7,-1.4,0.7,0.4,1.1,176,3.0,*4D
$GNGRS,132536.00,1,2.7,5.9,3.0,-7.0,-2.2,-1.6,-6.1,0.6,-4.5,,,*59
$GNGST,132536.00,895,,,,1.1,1.1,2.3*7C
$GNZDA,132536.00,22,05,2025,00,00*78
$GNGBS,132536.00,1.1,1.1,2.3,,,,*5E
$GNTXT,01,01,01,More than 100 frame errors, UART RX was disabled*70
b0LF{M$#(Y
*,#=%xD8
$<](; (
J{$4'Ta':RD 
Y vB XC"?DL(jnMMNQW
W~X$K%_bF{0Q|$GNRMC,132537.00,A,0419.95102,S,05539.89276,E,0.008,,220525,,,D*76
$GNVTG,,T,,M,0.008,N,0.015,K,D*34
$GNGNS,132537.00,0419.95102,S,05539.89276,E,DA,20,0.53,12.5,-47.6,,0000*60
$GNGGA,132537.00,0419.95102,S,05539.89276,E,2,12,0.53,12.5,M,-47.6,M,,0000*4D
$GNGSA,A,3,32,28,27,18,26,31,16,10,08,41,04,,1.03,0.53,0.88*16
$GNGSA,A,3,66,87,88,67,77,76,81,78,68,,,,1.03,0.53,0.88*1F
$GPGSV,5,1,17,02,09,333,,04,11,230,36,08,27,296,35,10,13,029,42*7B
$GPGSV,5,2,17,16,24,210,35,18,26,120,37,23,01,068,14,26,29,180,31*79
$GPGSV,5,3,17,27,56,260,28,28,60,093,36,31,59,159,40,32,28,010,40*7B
$GPGSV,5,4,17,36,52,277,36,40,84,353,39,41,58,082,39,49,32,274,*79
$GPGSV,5,5,17,50,10,089,*4A
$GLGSV,3,1,09,66,22,344,32,67,28,284,34,68,08,238,27,76,16,106,40*61
$GLGSV,3,2,09,77,23,154,29,78,05,208,21,81,25,343,31,87,31,146,31*60
$GLGSV,3,3,09,88,75,037,36*5F
$GNGLL,0419.95102,S,05539.89276,E,132537.00,A,D*65
$GNGRS,132537.00,1,0.7,-0.1,-1.2,-0.2,0.0,-1.1,0.6,0.4,0.9,176,2.6,*69
$GNGRS,132537.00,1,4.1,3.8,2.8,-7.0,0.8,-1.5,-5.0,0.1,-3.7,,,*70
$GNGST,132537.00,895,,,,1.0,1.1,2.2*7D
$GNZDA,132537.00,22,05,2025,00,00*79
$GNGBS,132537.00,1.0,1.1,2.2,,,,*5F
$GNTXT,01,01,01,More than 100 frame errors, UART RX was disabled*70
b0LJ{M%"(2
*#'%xDj8
$<](; (
/{$4'Ta':RD 
Y!v5B XgC"'DL(jM$N1QWWhX$K%JbJ{4Q$GNRMC,132538.00,A,0419.95103,S,05539.89277,E,0.011,,220525,,,D*71
$GNVTG,,T,,M,0.011,N,0.021,K,D*3B
$GNGNS,132538.00,0419.95103,S,05539.89277,E,DA,20,0.53,12.5,-47.6,,0000*6F
$GNGGA,132538.00,0419.95103,S,05539.89277,E,2,12,0.53,12.5,M,-47.6,M,,0000*42
$GNGSA,A,3,32,28,27,18,26,31,16,10,08,41,04,,1.03,0.53,0.88*16
$GNGSA,A,3,66,87,88,67,77,76,81,78,68,,,,1.03,0.53,0.88*1F
$GPGSV,5,1,17,02,09,333,,04,11,230,37,08,27,296,34,10,13,029,42*7B
$GPGSV,5,2,17,16,24,210,35,18,26,120,37,23,01,068,12,26,29,180,29*76
$GPGSV,5,3,17,27,56,260,28,28,60,093,36,31,59,159,40,32,28,010,40*7B
$GPGSV,5,4,17,36,52,277,36,40,84,353,39,41,58,082,39,49,32,274,*79
$GPGSV,5,5,17,50,10,089,*4A
$GLGSV,3,1,09,66,22,344,32,67,28,284,34,68,08,238,27,76,16,106,40*61
$GLGSV,3,2,09,77,23,154,30,78,05,208,21,81,25,343,31,87,31,146,31*68
$GLGSV,3,3,09,88,75,037,36*5F
$GNGLL,0419.95103,S,05539.89277,E,132538.00,A,D*6A
$GNGRS,132538.00,1,0.5,0.0,1.7,-0.2,1.7,-0.5,0.4,0.3,0.5,176,2.8,*64
$GNGRS,132538.00,1,1.0,11.3,2.6,-7.3,0.4,-1.2,-7.6,0.5,-3.5,,,*47
$GNGST,132538.00,895,,,,1.0,1.1,2.2*72
$GNZDA,132538.00,22,05,2025,00,00*76
$GNGBS,132538.00,1.0,1.1,2.2,,,,*50
$GNTXT,01,01,01,More than 100 frame errors, UART RX was disabled*70
b0LN{M%"(5
*#%xDd8l
$<](; (
&{$4'Ta':RD 
Y!vB X!C#DHL'jvMN3QWW VX%K%bN{g8QxL$GNRMC,132539.00,A,0419.95103,S,05539.89277,E,0.018,,220525,,,D*79
$GNVTG,,T,,M,0.018,N,0.033,K,D*31
$GNGNS,132539.00,0419.95103,S,05539.89277,E,DA,20,0.53,12.6,-47.6,,0000*6D
$GNGGA,132539.00,0419.95103,S,05539.89277,E,2,12,0.53,12.6,M,-47.6,M,,0000*40
$GNGSA,A,3,32,28,27,18,26,31,16,10,08,41,04,,1.03,0.53,0.88*16
$GNGSA,A,3,66,87,88,67,77,76,81,78,68,,,,1.03,0.53,0.88*1F
$GPGSV,5,1,17,02,09,333,,04,12,231,37,08,27,296,34,10,13,029,42*79
$GPGSV,5,2,17,16,24,210,35,18,26,120,37,23,01,068,13,26,29,180,30*7F
$GPGSV,5,3,17,27,56,260,28,28,60,093,36,31,59,159,40,32,28,010,40*7B
$GPGSV,5,4,17,36,52,277,36,40,84,353,39,41,58,082,39,49,32,274,*79
$GPGSV,5,5,17,50,10,089,*4A
$GLGSV,3,1,09,66,22,344,32,67,28,284,35,68,08,238,27,76,16,106,39*6E
$GLGSV,3,2,09,77,23,154,30,78,05,208,23,81,25,343,31,87,31,146,32*69
$GLGSV,3,3,09,88,75,037,37*5E
$GNGLL,0419.95103,S,05539.89277,E,132539.00,A,D*6B
$GNGRS,132539.00,1,0.4,-0.2,1.1,-0.2,4.7,-0.2,0.3,0.0,0.5,176,2.4,*47
$GNGRS,132539.00,1,0.3,3.4,2.0,-7.5,4.3,-1.4,-4.9,0.5,-4.4,,,*7F
$GNGST,132539.00,895,,,,1.0,1.1,2.2*73
$GNZDA,132539.00,22,05,2025,00,00*77
$GNGBS,132539.00,1.0,1.1,2.2,,,,*51
$GNTXT,01,01,01,More than 100 frame errors, UART RX was disabled*70
b0LpR{M%"("
*#%xD08
$<](; (
${$4'Ta':RE 
Y v8B!XC"DqL*jvM|NyQWWX%K%bpR{O<QP$GNRMC,132540.00,A,0419.95104,S,05539.89277,E,0.007,,220525,,,D*7E
$GNVTG,,T,,M,0.007,N,0.013,K,D*3D
$GNGNS,132540.00,0419.95104,S,05539.89277,E,DA,20,0.53,12.6,-47.6,,0000*64
$GNGGA,132540.00,0419.95104,S,05539.89277,E,2,12,0.53,12.6,M,-47.6,M,,0000*49
$GNGSA,A,3,32,28,27,18,26,31,16,10,08,41,04,,1.03,0.53,0.88*16
