$GNRMC,073009.00,A,0419.72435,S,05539.84271,E,0.653,,220525,,,A*75
$GNVTG,,T,,M,0.653,N,1.209,K,A*37
$GNGGA,073009.00,0419.72435,S,05539.84271,E,1,12,0.84,28.5,M,-47.6,M,,*43
$GNGSA,A,3,25,12,23,15,18,05,29,10,,,,,1.70,0.84,1.47*13
$GNGSA,A,3,75,71,72,76,,,,,,,,,1.70,0.84,1.47*14
$GPGSV,4,1,16,05,23,029,17,10,20,216,13,12,64,135,28,13,11,089,17*7F
$GPGSV,4,2,16,15,44,114,11,18,27,311,11,23,62,228,24,24,25,162,10*79
$GPGSV,4,3,16,25,77,321,30,28,09,276,,29,21,000,25,36,52,277,*72
$GPGSV,4,4,16,40,86,351,38,41,58,082,,49,32,274,,50,10,089,*72
$GLGSV,3,1,09,65,03,202,,70,11,048,,71,42,086,15,72,42,160,11*6B
$GLGSV,3,2,09,74,22,165,,75,63,216,08,76,33,312,22,86,08,348,*6E
$GLGSV,3,3,09,87,05,307,*52
$GNGLL,0419.72435,S,05539.84271,E,073009.00,A,A*6E
$GNRMC,073010.00,A,0419.72425,S,05539.84296,E,0.213,,220525,,,A*75
$GNVTG,,T,,M,0.213,N,0.395,K,A*32
$GNGGA,073010.00,0419.72425,S,05539.84296,E,1,12,0.91,28.7,M,-47.6,M,,*45
$GNGSA,A,3,25,12,23,15,18,05,29,10,,,,,1.73,0.91,1.47*14
$GNGSA,A,3,75,71,72,76,,,,,,,,,1.73,0.91,1.47*13
$GPGSV,4,1,16,05,23,029,17,10,20,216,11,12,64,135,28,13,11,089,15*7F
$GPGSV,4,2,16,15,44,114,14,18,27,311,11,23,62,228,30,24,25,162,10*79
$GPGSV,4,3,16,25,77,321,33,28,09,276,,29,21,000,25,36,52,277,*71
$GPGSV,4,4,16,40,86,351,38,41,58,082,,49,32,274,,50,10,089,*72
$GLGSV,3,1,09,65,03,202,,70,11,048,,71,42,086,16,72,42,160,12*6B
$GLGSV,3,2,09,74,22,165,,75,63,216,07,76,33,312,22,86,08,348,*61
$GLGSV,3,3,09,87,05,307,*52
$GNGLL,0419.72425,S,05539.84296,E,073010.00,A,A*6E
$GNRMC,073011.00,A,0419.72419,S,05539.84307,E,0.277,,220525,,,A*70
$GNVTG,,T,,M,0.277,N,0.513,K,A*38
$GNGGA,073011.00,0419.72419,S,05539.84307,E,1,10,1.25,29.0,M,-47.6,M,,*48
$GNGSA,A,3,25,12,23,15,05,29,,,,,,,2.72,1.25,2.42*16
$GNGSA,A,3,75,71,72,76,,,,,,,,,2.72,1.25,2.42*19
$GPGSV,4,1,16,05,23,029,20,10,20,216,10,12,64,135,29,13,11,089,14*7A
$GPGSV,4,2,16,15,44,114,13,18,27,311,,23,62,228,30,24,25,162,10*7E
$GPGSV,4,3,16,25,77,321,35,28,09,276,,29,21,000,24,36,52,277,*76
$GPGSV,4,4,16,40,86,351,39,41,58,082,,49,32,274,,50,10,089,*73
$GLGSV,3,1,09,65,03,202,,70,11,048,,71,42,086,16,72,42,160,12*6B
$GLGSV,3,2,09,74,22,165,,75,63,216,07,76,33,312,23,86,08,348,*60
$GLGSV,3,3,09,87,05,307,*52
$GNGLL,0419.72419,S,05539.84307,E,073011.00,A,A*69
$GNRMC,073012.00,A,0419.72419,S,05539.84310,E,0.154,,220525,,,A*77
$GNVTG,,T,,M,0.154,N,0.284,K,A*33
$GNGGA,073012.00,0419.72419,S,05539.84310,E,1,10,1.25,29.1,M,-47.6,M,,*4C
$GNGSA,A,3,25,12,23,15,05,29,,,,,,,2.72,1.25,2.42*16
$GNGSA,A,3,75,71,72,76,,,,,,,,,2.72,1.25,2.42*19
$GPGSV,4,1,16,05,23,029,20,10,21,216,08,12,64,135,30,13,11,089,11*7F
$GPGSV,4,2,16,15,44,114,13,18,27,311,17,23,62,228,30,24,25,162,10*78
$GPGSV,4,3,16,25,77,321,35,28,09,276,,29,21,000,25,36,52,277,*77
$GPGSV,4,4,16,40,86,351,39,41,58,082,,49,32,274,,50,10,089,*73
$GLGSV,3,1,09,65,03,202,,70,11,048,,71,42,086,16,72,42,160,12*6B
$GLGSV,3,2,09,74,22,165,,75,63,216,07,76,33,312,25,86,08,348,*66
$GLGSV,3,3,09,87,05,307,*52
$GNGLL,0419.72419,S,05539.84310,E,073012.00,A,A*6C
$GNRMC,073013.00,A,0419.72416,S,05539.84318,E,0.025,,220525,,,A*76
$GNVTG,,T,,M,0.025,N,0.046,K,A*38
$GNGGA,073013.00,0419.72416,S,05539.84318,E,1,09,1.70,29.1,M,-47.6,M,,*42
$GNGSA,A,3,25,12,23,15,05,29,,,,,,,3.73,1.70,3.32*10
$GNGSA,A,3,75,71,76,,,,,,,,,,3.73,1.70,3.32*1A
$GPGSV,4,1,16,05,23,029,19,10,21,216,07,12,64,135,31,13,11,089,09*72
$GPGSV,4,2,16,15,44,114,16,18,27,311,,23,62,228,29,24,25,162,10*73
$GPGSV,4,3,16,25,77,321,35,28,09,276,,29,21,000,25,36,52,277,*77
$GPGSV,4,4,16,40,86,351,39,41,58,082,,49,32,274,,50,10,089,*73
$GLGSV,3,1,09,65,03,202,,70,11,048,,71,42,086,14,72,42,160,*6A
$GLGSV,3,2,09,74,22,165,,75,63,216,15,76,33,312,25,86,08,348,*65
$GLGSV,3,3,09,87,05,307,*52
$GNGLL,0419.72416,S,05539.84318,E,073013.00,A,A*6A
$GNRMC,073014.00,A,0419.72412,S,05539.84326,E,0.135,,220525,,,A*78
$GNVTG,,T,,M,0.135,N,0.250,K,A*3D
$GNGGA,073014.00,0419.72412,S,05539.84326,E,1,09,1.70,29.1,M,-47.6,M,,*4C
$GNGSA,A,3,25,12,23,15,05,29,,,,,,,3.73,1.70,3.32*10
$GNGSA,A,3,75,71,76,,,,,,,,,,3.73,1.70,3.32*1A
$GPGSV,4,1,16,05,23,029,18,10,21,216,07,12,64,136,30,13,11,089,08*70
$GPGSV,4,2,16,15,44,114,19,18,27,311,,23,62,228,29,24,25,162,10*7C
$GPGSV,4,3,16,25,77,321,35,28,09,276,,29,21,000,24,36,52,277,*76
$GPGSV,4,4,16,40,86,351,39,41,58,082,,49,32,274,,50,10,089,*73
$GLGSV,3,1,09,65,03,202,,70,11,048,,71,42,086,14,72,42,160,*6A
$GLGSV,3,2,09,74,22,165,,75,63,216,15,76,33,312,25,86,08,348,*65
$GLGSV,3,3,09,87,05,307,*52
$GNGLL,0419.72412,S,05539.84326,E,073014.00,A,A*64
$GNRMC,073015.00,A,0419.72413,S,05539.84334,E,0.151,,220525,,,A*79
$GNVTG,,T,,M,0.151,N,0.280,K,A*32
$GNGGA,073015.00,0419.72413,S,05539.84334,E,1,09,1.70,28.8,M,-47.6,M,,*47
$GNGSA,A,3,25,12,23,15,05,29,,,,,,,3.73,1.70,3.32*10
$GNGSA,A,3,75,71,76,,,,,,,,,,3.73,1.70,3.32*1A
$GPGSV,4,1,16,05,23,029,18,10,21,216,06,12,64,136,31,13,11,089,08*70
$GPGSV,4,2,16,15,44,114,20,18,27,311,,23,62,228,29,24,25,162,10*76
$GPGSV,4,3,16,25,77,321,35,28,09,276,,29,21,000,24,36,52,277,*76
$GPGSV,4,4,16,40,86,351,39,41,58,082,,49,32,274,,50,10,089,*73
$GLGSV,3,1,09,65,03,202,,70,11,048,,71,42,086,25,72,42,160,*68
$GLGSV,3,2,09,74,22,165,,75,63,216,13,76,33,312,25,86,08,348,*63
$GLGSV,3,3,09,87,05,307,*52
$GNGLL,0419.72413,S,05539.84334,E,073015.00,A,A*67
$GNRMC,073016.00,A,0419.72408,S,05539.84334,E,0.164,,220525,,,A*76
$GNVTG,,T,,M,0.164,N,0.304,K,A*39
$GNGGA,073016.00,0419.72408,S,05539.84334,E,1,10,1.38,28.8,M,-47.6,M,,*4A
$GNGSA,A,3,25,12,23,15,05,29,13,,,,,,2.57,1.38,2.17*1F
$GNGSA,A,3,75,71,76,,,,,,,,,,2.57,1.38,2.17*17
$GPGSV,4,1,16,05,23,029,17,10,21,216,06,12,64,136,31,13,11,089,10*76
$GPGSV,4,2,16,15,44,114,20,18,27,311,20,23,62,228,29,24,25,162,10*74
$GPGSV,4,3,16,25,77,321,35,28,09,276,,29,21,000,23,36,52,277,*71
$GPGSV,4,4,16,40,86,351,39,41,58,082,,49,32,274,,50,10,089,*73
$GLGSV,3,1,09,65,03,202,,70,11,048,,71,42,086,24,72,42,160,*69
$GLGSV,3,2,09,74,22,165,,75,63,216,13,76,33,312,24,86,08,348,*62
$GLGSV,3,3,09,87,05,307,*52
$GNGLL,0419.72408,S,05539.84334,E,073016.00,A,A*6E
$GNRMC,073017.00,A,0419.72403,S,05539.84337,E,0.116,,220525,,,A*7A
$GNVTG,,T,,M,0.116,N,0.216,K,A*3E
$GNGGA,073017.00,0419.72403,S,05539.84337,E,1,11,1.00,28.6,M,-47.6,M,,*47
$GNGSA,A,3,25,12,23,15,05,24,29,13,,,,,1.82,1.00,1.52*1B
$GNGSA,A,3,75,71,76,,,,,,,,,,1.82,1.00,1.52*15
$GPGSV,4,1,16,05,23,029,17,10,21,216,06,12,64,136,31,13,11,089,11*77
$GPGSV,4,2,16,15,44,113,21,18,27,311,18,23,62,228,29,24,25,162,10*79
$GPGSV,4,3,16,25,77,321,35,28,09,276,,29,21,000,23,36,52,277,*71
$GPGSV,4,4,16,40,86,351,39,41,58,082,,49,32,274,,50,10,089,*73
$GLGSV,3,1,09,65,03,202,,70,11,048,,71,42,086,24,72,42,160,*69
$GLGSV,3,2,09,74,22,165,,75,63,216,13,76,33,312,24,86,08,348,*62
$GLGSV,3,3,09,87,05,307,*52
$GNGLL,0419.72403,S,05539.84337,E,073017.00,A,A*67
$GNRMC,073018.00,A,0419.72406,S,05539.84341,E,0.100,,220525,,,A*76
$GNVTG,,T,,M,0.100,N,0.185,K,A*30
$GNGGA,073018.00,0419.72406,S,05539.84341,E,1,11,1.00,28.5,M,-47.6,M,,*4F
$GNGSA,A,3,25,12,23,15,05,24,29,13,,,,,1.82,1.00,1.52*1B
$GNGSA,A,3,75,71,76,,,,,,,,,,1.82,1.00,1.52*15
$GPGSV,4,1,16,05,23,029,17,10,21,216,06,12,64,136,31,13,11,089,12*74
$GPGSV,4,2,16,15,44,113,21,18,27,311,,23,62,228,29,24,25,162,10*70
$GPGSV,4,3,16,25,77,321,36,28,09,276,,29,21,000,23,36,52,277,*72
$GPGSV,4,4,16,40,86,351,39,41,58,082,,49,32,274,,50,10,089,*73
$GLGSV,3,1,09,65,03,202,,70,11,048,,71,42,086,25,72,42,160,*68
$GLGSV,3,2,09,74,22,165,,75,63,216,13,76,33,312,23,86,08,348,*65
$GLGSV,3,3,09,87,05,307,*52
$GNGLL,0419.72406,S,05539.84341,E,073018.00,A,A*6C
$GNRMC,073019.00,A,0419.72408,S,05539.84345,E,0.140,,220525,,,A*79
$GNVTG,,T,,M,0.140,N,0.259,K,A*36
$GNGGA,073019.00,0419.72408,S,05539.84345,E,1,11,1.00,28.3,M,-47.6,M,,*42
$GNGSA,A,3,25,12,23,15,05,24,29,13,,,,,1.82,1.00,1.52*1B
$GNGSA,A,3,75,71,76,,,,,,,,,,1.82,1.00,1.52*15
$GPGSV,4,1,16,05,23,029,17,10,21,216,06,12,64,136,31,13,11,089,15*73
$GPGSV,4,2,16,15,44,113,21,18,27,311,19,23,62,228,29,24,25,162,10*78
$GPGSV,4,3,16,25,77,321,37,28,09,276,,29,21,000,22,36,52,277,*72
$GPGSV,4,4,16,40,86,351,40,41,58,082,,49,32,274,,50,10,089,*7D
$GLGSV,3,1,09,65,03,202,,70,11,048,,71,42,086,25,72,42,160,*68
$GLGSV,3,2,09,74,22,165,,75,63,216,15,76,33,312,22,86,08,348,*62
$GLGSV,3,3,09,87,05,307,*52
$GNGLL,0419.72408,S,05539.84345,E,073019.00,A,A*67
$GNRMC,073020.00,A,0419.72411,S,05539.84345,E,0.052,,220525,,,A*79
$GNVTG,,T,,M,0.052,N,0.096,K,A*35
$GNGGA,073020.00,0419.72411,S,05539.84345,E,1,11,1.00,28.0,M,-47.6,M,,*43
$GNGSA,A,3,25,12,23,15,05,24,29,13,,,,,1.82,1.00,1.52*1B
$GNGSA,A,3,75,71,76,,,,,,,,,,1.82,1.00,1.52*15
$GPGSV,4,1,16,05,23,029,17,10,21,216,06,12,64,136,32,13,11,089,16*73
$GPGSV,4,2,16,15,44,113,21,18,27,312,18,23,62,228,29,24,25,162,10*7A
$GPGSV,4,3,16,25,77,321,37,28,09,276,,29,21,000,21,36,52,277,*71
$GPGSV,4,4,16,40,86,351,40,41,58,082,,49,32,274,,50,10,089,*7D
$GLGSV,3,1,09,65,03,202,,70,11,048,,71,42,086,25,72,42,160,*68
$GLGSV,3,2,09,74,22,165,,75,63,216,19,76,33,312,21,86,08,348,*6D
$GLGSV,3,3,09,87,05,307,*52
$GNGLL,0419.72411,S,05539.84345,E,073020.00,A,A*65
$GNRMC,073021.00,A,0419.72414,S,05539.84338,E,0.183,,220525,,,A*7A
$GNVTG,,T,,M,0.183,N,0.339,K,A*3E
$GNGGA,073021.00,0419.72414,S,05539.84338,E,1,11,1.00,28.2,M,-47.6,M,,*4F
$GNGSA,A,3,25,12,23,15,05,24,29,13,,,,,1.82,1.00,1.52*1B
$GNGSA,A,3,75,71,76,,,,,,,,,,1.82,1.00,1.52*15
$GPGSV,4,1,16,05,23,029,16,10,21,216,06,12,64,136,31,13,11,089,16*71
$GPGSV,4,2,16,15,44,113,22,18,27,312,17,23,62,228,28,24,25,162,10*77
$GPGSV,4,3,16,25,77,321,36,28,09,276,,29,21,000,21,36,52,277,*70
$GPGSV,4,4,16,40,86,351,40,41,58,082,,49,32,274,,50,10,089,*7D
$GLGSV,3,1,09,65,03,202,,70,11,048,,71,42,086,25,72,42,160,*68
$GLGSV,3,2,09,74,22,165,,75,63,216,21,76,33,312,21,86,08,348,*66
$GLGSV,3,3,09,87,05,307,*52
$GNGLL,0419.72414,S,05539.84338,E,073021.00,A,A*6B
$GNRMC,073022.00,A,0419.72419,S,05539.84327,E,0.286,,220525,,,A*7C
$GNVTG,,T,,M,0.286,N,0.529,K,A*3F
$GNGGA,073022.00,0419.72419,S,05539.84327,E,1,11,1.28,28.2,M,-47.6,M,,*45
$GNGSA,A,3,25,12,23,15,18,05,29,13,,,,,2.37,1.28,1.99*14
$GNGSA,A,3,75,71,76,,,,,,,,,,2.37,1.28,1.99*15
$GPGSV,4,1,16,05,23,029,14,10,21,216,06,12,64,136,32,13,11,089,16*70
$GPGSV,4,2,16,15,44,113,22,18,27,312,17,23,62,228,28,24,25,162,*76
$GPGSV,4,3,16,25,77,321,36,28,09,276,,29,21,000,22,36,52,277,*73
$GPGSV,4,4,16,40,86,351,40,41,58,082,,49,32,274,,50,10,089,*7D
$GLGSV,3,1,09,65,03,202,,70,11,048,,71,42,086,24,72,42,160,*69
$GLGSV,3,2,09,74,22,165,,75,63,216,23,76,33,312,23,86,08,348,*66
$GLGSV,3,3,09,87,05,307,*52
$GNGLL,0419.72419,S,05539.84327,E,073022.00,A,A*6B
$GNRMC,073023.00,A,0419.72420,S,05539.84321,E,0.236,,220525,,,A*7A
$GNVTG,,T,,M,0.236,N,0.438,K,A*35
$GNGGA,073023.00,0419.72420,S,05539.84321,E,1,11,1.28,28.2,M,-47.6,M,,*48
$GNGSA,A,3,25,12,23,15,18,05,29,13,,,,,2.37,1.28,1.99*14
$GNGSA,A,3,75,71,76,,,,,,,,,,2.37,1.28,1.99*15
$GPGSV,4,1,16,05,23,029,13,10,21,216,06,12,64,136,31,13,11,089,17*75
$GPGSV,4,2,16,15,44,113,22,18,27,312,16,23,62,228,28,24,25,162,*77
$GPGSV,4,3,16,25,77,321,35,28,09,276,,29,21,000,22,36,52,277,*70
$GPGSV,4,4,16,40,86,351,39,41,58,082,,49,32,274,,50,10,089,*73
$GLGSV,3,1,09,65,03,202,,70,11,048,,71,42,086,24,72,42,160,*69
$GLGSV,3,2,09,74,22,165,,75,63,216,23,76,33,312,23,86,08,348,*66
$GLGSV,3,3,09,87,05,307,*52
$GNGLL,0419.72420,S,05539.84321,E,073023.00,A,A*66
$GNRMC,073024.00,A,0419.72415,S,05539.84315,E,0.182,,220525,,,A*70
$GNVTG,,T,,M,0.182,N,0.337,K,A*31
$GNGGA,073024.00,0419.72415,S,05539.84315,E,1,11,1.28,28.1,M,-47.6,M,,*4D
$GNGSA,A,3,25,12,23,15,18,05,29,13,,,,,2.37,1.28,1.99*14
$GNGSA,A,3,75,71,76,,,,,,,,,,2.37,1.28,1.99*15
$GPGSV,4,1,16,05,23,029,14,10,21,216,06,12,64,136,31,13,11,089,16*73
$GPGSV,4,2,16,15,44,113,23,18,27,312,16,23,63,229,27,24,25,162,*79
$GPGSV,4,3,16,25,77,321,34,28,09,276,,29,21,000,23,36,52,277,*70
$GPGSV,4,4,16,40,86,351,40,41,58,082,,49,32,274,,50,10,089,*7D
$GLGSV,3,1,09,65,03,202,,70,11,048,,71,42,086,25,72,42,160,*68
$GLGSV,3,2,09,74,22,165,,75,63,216,23,76,33,312,22,86,08,348,*67
$GLGSV,3,3,09,87,05,307,20*50
$GNGLL,0419.72415,S,05539.84315,E,073024.00,A,A*60
$GNRMC,073025.00,A,0419.72418,S,05539.84304,E,0.203,,220525,,,A*76
$GNVTG,,T,,M,0.203,N,0.376,K,A*3E
$GNGGA,073025.00,0419.72418,S,05539.84304,E,1,11,1.28,28.0,M,-47.6,M,,*40
$GNGSA,A,3,25,12,23,15,18,05,29,13,,,,,2.37,1.28,1.99*14
$GNGSA,A,3,75,71,76,,,,,,,,,,2.37,1.28,1.99*15
$GPGSV,4,1,16,05,23,029,13,10,21,216,06,12,64,136,31,13,11,089,14*76
$GPGSV,4,2,16,15,44,113,22,18,27,312,16,23,63,229,27,24,24,162,08*71
$GPGSV,4,3,16,25,77,321,34,28,09,276,,29,21,000,23,36,52,277,*70
$GPGSV,4,4,16,40,86,351,40,41,58,082,,49,32,274,,50,10,089,*7D
$GLGSV,3,1,09,65,03,202,,70,11,048,,71,42,086,23,72,42,160,*6E
$GLGSV,3,2,09,74,22,165,,75,63,216,22,76,33,312,24,86,08,348,*60
$GLGSV,3,3,09,87,05,307,19*5A
$GNGLL,0419.72418,S,05539.84304,E,073025.00,A,A*6C
$GNRMC,073026.00,A,0419.72414,S,05539.84302,E,0.289,,220525,,,A*7D
$GNVTG,,T,,M,0.289,N,0.535,K,A*3D
$GNGGA,073026.00,0419.72414,S,05539.84302,E,1,11,1.28,27.7,M,-47.6,M,,*41
$GNGSA,A,3,25,12,23,15,18,05,29,13,,,,,2.37,1.28,1.99*14
$GNGSA,A,3,75,71,76,,,,,,,,,,2.37,1.28,1.99*15
$GPGSV,4,1,16,05,23,029,11,10,21,216,06,12,64,136,31,13,11,089,13*73
$GPGSV,4,2,16,15,44,113,23,18,27,312,15,23,63,229,26,24,24,162,14*7F
$GPGSV,4,3,16,25,78,319,34,28,09,276,,29,21,000,22,36,52,277,*75
$GPGSV,4,4,16,40,86,351,40,41,58,082,,49,32,274,,50,10,089,*7D
$GLGSV,3,1,09,65,03,202,,70,11,048,,71,42,086,22,72,42,160,*6F
$GLGSV,3,2,09,74,22,165,,75,63,216,23,76,33,312,25,86,08,348,*60
$GLGSV,3,3,09,87,05,307,19*5A
$GNGLL,0419.72414,S,05539.84302,E,073026.00,A,A*65
$GNRMC,073027.00,A,0419.72413,S,05539.84290,E,0.230,,220525,,,A*73
$GNVTG,,T,,M,0.230,N,0.427,K,A*3D
$GNGGA,073027.00,0419.72413,S,05539.84290,E,1,11,1.28,27.3,M,-47.6,M,,*49
$GNGSA,A,3,25,12,23,15,18,05,29,13,,,,,2.37,1.28,1.99*14
$GNGSA,A,3,75,71,76,,,,,,,,,,2.37,1.28,1.99*15
$GPGSV,4,1,16,05,23,029,12,10,21,216,06,12,64,136,31,13,11,089,11*72
$GPGSV,4,2,16,15,44,113,23,18,27,312,13,23,63,229,26,24,24,162,17*7A
$GPGSV,4,3,16,25,78,319,35,28,09,276,,29,21,000,21,36,52,277,*77
$GPGSV,4,4,16,40,86,351,39,41,58,082,,49,32,274,,50,10,089,*73
$GLGSV,3,1,09,65,03,202,,70,11,048,,71,42,086,23,72,42,160,*6E
$GLGSV,3,2,09,74,22,165,,75,63,216,24,76,33,312,25,86,08,348,*67
$GLGSV,3,3,09,87,05,307,20*50
$GNGLL,0419.72413,S,05539.84290,E,073027.00,A,A*69
$GNRMC,073028.00,A,0419.72418,S,05539.84281,E,0.402,,220525,,,A*70
$GNVTG,,T,,M,0.402,N,0.745,K,A*3D
$GNGGA,073028.00,0419.72418,S,05539.84281,E,1,11,1.28,27.3,M,-47.6,M,,*4D
$GNGSA,A,3,25,12,23,15,18,05,29,13,,,,,2.37,1.28,1.99*14
$GNGSA,A,3,75,71,76,,,,,,,,,,2.37,1.28,1.99*15
$GPGSV,4,1,16,05,23,029,13,10,21,216,06,12,64,136,32,13,11,089,12*73
$GPGSV,4,2,16,15,44,113,23,18,27,312,14,23,63,229,26,24,24,162,15*7F
$GPGSV,4,3,16,25,78,319,35,28,09,276,,29,21,000,20,36,52,277,*76
$GPGSV,4,4,16,40,86,351,39,41,58,082,,49,32,274,,50,10,089,*73
$GLGSV,3,1,09,65,03,202,,70,11,048,,71,42,086,24,72,42,160,*69
$GLGSV,3,2,09,74,22,165,,75,63,216,25,76,33,312,23,86,08,348,*60
$GLGSV,3,3,09,87,05,307,21*51
$GNGLL,0419.72418,S,05539.84281,E,073028.00,A,A*6D
$GNRMC,073029.00,A,0419.72412,S,05539.84282,E,0.491,,220525,,,A*72
$GNVTG,,T,,M,0.491,N,0.909,K,A*31
$GNGGA,073029.00,0419.72412,S,05539.84282,E,1,12,0.92,26.9,M,-47.6,M,,*4D
$GNGSA,A,3,25,12,23,15,18,05,24,29,13,,,,1.70,0.92,1.43*15
$GNGSA,A,3,75,71,76,,,,,,,,,,1.70,0.92,1.43*12
$GPGSV,4,1,16,05,23,029,15,10,21,216,06,12,64,136,32,13,11,089,14*73
$GPGSV,4,2,16,15,44,113,23,18,27,312,13,23,63,229,25,24,24,162,15*7B
$GPGSV,4,3,16,25,78,319,36,28,09,275,,29,21,000,19,36,52,277,*7C
$GPGSV,4,4,16,40,86,351,39,41,58,082,,49,32,274,,50,10,089,*73
$GLGSV,3,1,09,65,03,202,,70,11,048,,71,42,086,24,72,42,160,*69
$GLGSV,3,2,09,74,22,165,,75,63,216,26,76,33,312,21,86,08,348,*61
$GLGSV,3,3,09,87,05,307,22*52
$GNGLL,0419.72412,S,05539.84282,E,073029.00,A,A*65
$GNRMC,073030.00,A,0419.72412,S,05539.84273,E,0.211,,220525,,,A*7A
$GNVTG,,T,,M,0.211,N,0.390,K,A*35
$GNGGA,073030.00,0419.72412,S,05539.84273,E,1,12,0.92,26.6,M,-47.6,M,,*44
$GNGSA,A,3,25,12,23,15,18,05,24,29,13,,,,1.70,0.92,1.43*15
$GNGSA,A,3,75,71,76,,,,,,,,,,1.70,0.92,1.43*12
$GPGSV,4,1,16,05,23,029,17,10,21,216,06,12,64,136,32,13,11,089,15*70
$GPGSV,4,2,16,15,44,113,22,18,27,312,13,23,63,229,25,24,24,162,15*7A
$GPGSV,4,3,16,25,78,319,36,28,09,275,,29,21,001,18,36,52,277,*7C
$GPGSV,4,4,16,40,86,351,39,41,58,082,,49,32,274,,50,10,089,*73
$GLGSV,3,1,09,65,03,202,,70,11,048,,71,42,086,23,72,42,160,*6E
$GLGSV,3,2,09,74,22,165,,75,63,216,26,76,33,312,20,86,08,348,*60
$GLGSV,3,3,09,87,05,307,22*52
$GNGLL,0419.72412,S,05539.84273,E,073030.00,A,A*63
$GNRMC,073031.00,A,0419.72412,S,05539.84266,E,0.157,,220525,,,A*7E
$GNVTG,,T,,M,0.157,N,0.291,K,A*34
$GNGGA,073031.00,0419.72412,S,05539.84266,E,1,12,0.92,26.4,M,-47.6,M,,*43
$GNGSA,A,3,25,12,23,15,18,05,24,29,13,,,,1.70,0.92,1.43*15
$GNGSA,A,3,75,71,76,,,,,,,,,,1.70,0.92,1.43*12
$GPGSV,4,1,16,05,23,029,18,10,21,216,,12,64,136,32,13,11,089,16*7A
$GPGSV,4,2,16,15,44,113,22,18,27,312,12,23,63,229,25,24,24,162,16*78
$GPGSV,4,3,16,25,78,319,37,28,09,275,,29,21,001,17,36,52,277,*72
$GPGSV,4,4,16,40,86,351,40,41,58,082,,49,32,274,,50,10,089,*7D
$GLGSV,3,1,09,65,03,202,,70,11,048,,71,42,086,23,72,42,160,*6E
$GLGSV,3,2,09,74,22,165,,75,63,216,25,76,33,312,19,86,08,348,*69
$GLGSV,3,3,09,87,05,307,21*51
$GNGLL,0419.72412,S,05539.84266,E,073031.00,A,A*66
$GNRMC,073032.00,A,0419.72422,S,05539.84251,E,0.374,,220525,,,A*79
$GNVTG,,T,,M,0.374,N,0.693,K,A*31
$GNGGA,073032.00,0419.72422,S,05539.84251,E,1,12,0.92,25.8,M,-47.6,M,,*48
$GNGSA,A,3,25,12,23,15,18,05,24,29,13,,,,1.70,0.92,1.43*15
$GNGSA,A,3,75,71,76,,,,,,,,,,1.70,0.92,1.43*12
$GPGSV,4,1,16,05,23,029,18,10,21,216,,12,64,136,31,13,11,089,15*7A
$GPGSV,4,2,16,15,44,113,21,18,27,312,15,23,63,229,24,24,24,162,15*7E
$GPGSV,4,3,16,25,78,319,37,28,09,275,,29,21,001,18,36,52,277,*7D
$GPGSV,4,4,16,40,86,351,40,41,58,082,,49,32,274,,50,10,089,*7D
$GLGSV,3,1,09,65,03,202,,70,11,048,,71,42,086,20,72,42,160,*6D
$GLGSV,3,2,09,74,22,165,,75,63,216,25,76,33,312,19,86,08,348,*69
$GLGSV,3,3,09,87,05,307,19*5A
$GNGLL,0419.72422,S,05539.84251,E,073032.00,A,A*62
$GNRMC,073033.00,A,0419.72436,S,05539.84250,E,0.564,,220525,,,A*7B
$GNVTG,,T,,M,0.564,N,1.044,K,A*3B
$GNGGA,073033.00,0419.72436,S,05539.84250,E,1,12,0.92,25.9,M,-47.6,M,,*4C
$GNGSA,A,3,25,12,23,15,18,05,24,29,13,,,,1.70,0.92,1.43*15
$GNGSA,A,3,75,71,76,,,,,,,,,,1.70,0.92,1.43*12
$GPGSV,4,1,16,05,23,029,17,10,21,216,,12,64,136,32,13,11,089,14*77
$GPGSV,4,2,16,15,44,113,22,18,27,312,16,23,63,229,24,24,24,162,13*78
$GPGSV,4,3,16,25,78,319,37,28,09,275,,29,21,001,19,36,52,277,*7C
$GPGSV,4,4,16,40,86,351,40,41,58,082,,49,32,274,,50,10,089,*7D
$GLGSV,3,1,09,65,03,202,,70,11,048,,71,42,086,17,72,42,160,*69
$GLGSV,3,2,09,74,22,165,,75,63,216,25,76,33,312,20,86,08,348,*63
$GLGSV,3,3,09,87,05,307,18*5B
$GNGLL,0419.72436,S,05539.84250,E,073033.00,A,A*67
$GNRMC,073034.00,A,0419.72448,S,05539.84241,E,0.595,,220525,,,A*7B
$GNVTG,,T,,M,0.595,N,1.102,K,A*36
$GNGGA,073034.00,0419.72448,S,05539.84241,E,1,11,1.00,25.9,M,-47.6,M,,*4B
$GNGSA,A,3,25,12,23,15,05,24,29,13,,,,,1.82,1.00,1.52*1B
$GNGSA,A,3,75,71,76,,,,,,,,,,1.82,1.00,1.52*15
$GPGSV,4,1,16,05,23,029,15,10,21,216,,12,64,136,32,13,11,089,14*75
$GPGSV,4,2,16,15,44,113,25,18,27,312,22,23,63,229,24,24,24,162,12*79
$GPGSV,4,3,16,25,78,319,35,28,09,275,,29,21,001,20,36,52,277,*74
$GPGSV,4,4,16,40,86,351,39,41,58,082,,49,32,274,,50,10,089,*73
$GLGSV,3,1,09,65,03,202,,70,11,048,,71,42,086,20,72,42,160,*6D
$GLGSV,3,2,09,74,22,165,,75,63,216,25,76,33,312,21,86,08,348,*62
$GLGSV,3,3,09,87,05,307,17*54
$GNGLL,0419.72448,S,05539.84241,E,073034.00,A,A*69
$GNRMC,073035.00,A,0419.72454,S,05539.84243,E,0.260,,220525,,,A*78
$GNVTG,,T,,M,0.260,N,0.482,K,A*37
$GNGGA,073035.00,0419.72454,S,05539.84243,E,1,11,1.00,26.0,M,-47.6,M,,*4F
$GNGSA,A,3,25,12,23,15,05,24,29,13,,,,,1.82,1.00,1.52*1B
$GNGSA,A,3,75,71,76,,,,,,,,,,1.82,1.00,1.52*15
$GPGSV,4,1,16,05,23,029,11,10,21,216,17,12,64,136,32,13,11,089,15*76
$GPGSV,4,2,16,15,44,113,26,18,27,312,22,23,63,229,23,24,24,162,11*7E
$GPGSV,4,3,16,25,78,319,34,28,09,275,,29,21,001,22,36,52,277,*77
$GPGSV,4,4,16,40,86,351,40,41,58,082,,49,32,274,,50,10,089,*7D
$GLGSV,3,1,09,65,03,202,,70,11,048,,71,42,086,23,72,42,160,*6E
$GLGSV,3,2,09,74,22,165,,75,63,216,25,76,33,312,22,86,08,348,*61
$GLGSV,3,3,09,87,05,307,16*55
$GNGLL,0419.72454,S,05539.84243,E,073035.00,A,A*67
$GNRMC,073036.00,A,0419.72470,S,05539.84246,E,0.376,,220525,,,A*7E
$GNVTG,,T,,M,0.376,N,0.696,K,A*36
$GNGGA,073036.00,0419.72470,S,05539.84246,E,1,11,1.00,26.1,M,-47.6,M,,*4E
$GNGSA,A,3,25,12,23,15,05,24,29,13,,,,,1.82,1.00,1.52*1B
$GNGSA,A,3,75,71,76,,,,,,,,,,1.82,1.00,1.52*15
$GPGSV,4,1,16,05,23,029,10,10,21,216,18,12,64,136,33,13,11,089,16*7A
$GPGSV,4,2,16,15,44,113,26,18,27,312,21,23,63,229,23,24,24,162,11*7D
$GPGSV,4,3,16,25,78,319,34,28,09,275,,29,21,001,22,36,52,277,*77
$GPGSV,4,4,16,40,86,351,40,41,58,082,,49,32,274,,50,10,089,*7D
$GLGSV,3,1,09,65,03,202,,70,11,048,,71,42,086,25,72,42,160,*68
$GLGSV,3,2,09,74,22,165,,75,63,216,25,76,33,312,21,86,08,348,*62
$GLGSV,3,3,09,87,05,307,16*55
$GNGLL,0419.72470,S,05539.84246,E,073036.00,A,A*67
$GNRMC,073037.00,A,0419.72471,S,05539.84251,E,0.221,,220525,,,A*7B
$GNVTG,,T,,M,0.221,N,0.409,K,A*31
$GNGGA,073037.00,0419.72471,S,05539.84251,E,1,11,1.00,26.4,M,-47.6,M,,*4D
$GNGSA,A,3,25,12,23,15,05,24,29,13,,,,,1.82,1.00,1.52*1B
$GNGSA,A,3,75,71,76,,,,,,,,,,1.82,1.00,1.52*15
$GPGSV,4,1,16,05,23,029,12,10,21,216,18,12,64,136,33,13,11,089,16*78
$GPGSV,4,2,16,15,44,113,26,18,27,312,,23,63,229,22,24,24,162,11*7F
$GPGSV,4,3,16,25,78,319,34,28,09,275,,29,21,001,22,36,52,277,*77
$GPGSV,4,4,16,40,86,351,40,41,58,082,,49,32,274,,50,10,089,*7D
$GLGSV,3,1,09,65,03,202,,70,11,048,,71,42,086,24,72,42,160,*69
$GLGSV,3,2,09,74,22,165,,75,63,216,24,76,33,312,19,86,08,348,*68
$GLGSV,3,3,09,87,05,307,17*54
$GNGLL,0419.72471,S,05539.84251,E,073037.00,A,A*61
$GNRMC,073038.00,A,0419.72470,S,05539.84251,E,0.024,,220525,,,A*72
$GNVTG,,T,,M,0.024,N,0.044,K,A*3B
$GNGGA,073038.00,0419.72470,S,05539.84251,E,1,12,0.80,25.9,M,-47.6,M,,*47
$GNGSA,A,3,25,12,23,15,05,24,29,10,13,,,,1.45,0.80,1.20*1D
$GNGSA,A,3,75,71,76,,,,,,,,,,1.45,0.80,1.20*12
$GPGSV,4,1,16,05,23,029,15,10,21,216,17,12,64,136,32,13,11,089,16*71
$GPGSV,4,2,16,15,44,113,26,18,27,312,,23,63,229,22,24,24,162,09*76
$GPGSV,4,3,16,25,78,319,34,28,09,275,,29,21,001,23,36,52,277,*76
$GPGSV,4,4,16,40,86,351,40,41,58,082,,49,32,274,,50,10,089,*7D
$GLGSV,3,1,09,65,03,202,,70,11,048,,71,42,086,24,72,42,160,*69
$GLGSV,3,2,09,74,22,165,,75,63,216,24,76,33,312,21,86,08,348,*63
$GLGSV,3,3,09,87,05,307,18*5B
$GNGLL,0419.72470,S,05539.84251,E,073038.00,A,A*6F
$GNRMC,073039.00,A,0419.72483,S,05539.84241,E,0.426,,220525,,,A*78
$GNVTG,,T,,M,0.426,N,0.789,K,A*3B
$GNGGA,073039.00,0419.72483,S,05539.84241,E,1,12,0.80,25.2,M,-47.6,M,,*40
$GNGSA,A,3,25,12,23,15,05,24,29,10,13,,,,1.45,0.80,1.20*1D
$GNGSA,A,3,75,71,76,,,,,,,,,,1.45,0.80,1.20*12
$GPGSV,4,1,16,05,23,029,15,10,21,216,17,12,64,136,32,13,11,089,15*72
$GPGSV,4,2,16,15,44,113,26,18,27,312,,23,63,229,21,24,24,162,09*75
$GPGSV,4,3,16,25,78,319,35,28,09,275,,29,21,001,23,36,52,277,*77
$GPGSV,4,4,16,40,86,351,40,41,58,082,,49,32,274,,50,10,089,*7D
$GLGSV,3,1,09,65,03,202,,70,11,048,,71,42,086,24,72,42,160,*69
$GLGSV,3,2,09,74,22,165,,75,63,216,25,76,33,312,22,86,08,348,*61
$GLGSV,3,3,09,87,05,307,19*5A
$GNGLL,0419.72483,S,05539.84241,E,073039.00,A,A*63
$GNRMC,073040.00,A,0419.72463,S,05539.84248,E,0.666,,220525,,,A*77
$GNVTG,,T,,M,0.666,N,1.234,K,A*3F
$GNGGA,073040.00,0419.72463,S,05539.84248,E,1,12,0.80,25.0,M,-47.6,M,,*4B
$GNGSA,A,3,25,12,23,15,05,24,29,10,13,,,,1.45,0.80,1.20*1D
$GNGSA,A,3,75,71,76,,,,,,,,,,1.45,0.80,1.20*12
$GPGSV,4,1,16,05,23,029,15,10,21,216,17,12,64,136,32,13,11,089,17*70
$GPGSV,4,2,16,15,44,113,26,18,27,312,,23,63,229,19,24,24,162,09*7E
$GPGSV,4,3,16,25,78,319,35,28,09,275,19,29,21,001,23,36,52,277,*7F
$GPGSV,4,4,16,40,86,351,40,41,58,082,,49,32,274,,50,10,089,*7D
$GLGSV,3,1,09,65,03,202,,70,11,048,,71,42,086,25,72,42,160,*68
$GLGSV,3,2,09,74,22,165,,75,63,216,25,76,33,312,22,86,08,348,*61
$GLGSV,3,3,09,87,05,307,19*5A
$GNGLL,0419.72463,S,05539.84248,E,073040.00,A,A*6A
$GNRMC,073041.00,A,0419.72452,S,05539.84250,E,0.223,,220525,,,A*78
$GNVTG,,T,,M,0.223,N,0.414,K,A*3F
$GNGGA,073041.00,0419.72452,S,05539.84250,E,1,12,0.80,24.8,M,-47.6,M,,*48
$GNGSA,A,3,25,12,23,15,05,24,29,10,13,,,,1.45,0.80,1.20*1D
$GNGSA,A,3,75,71,76,,,,,,,,,,1.45,0.80,1.20*12
$GPGSV,4,1,16,05,23,029,15,10,21,216,15,12,64,136,31,13,11,089,18*7E
$GPGSV,4,2,16,15,44,113,26,18,27,312,,23,63,229,18,24,24,162,09*7F
$GPGSV,4,3,16,25,78,319,34,28,09,275,16,29,21,001,22,36,52,277,*70
$GPGSV,4,4,16,40,86,351,40,41,58,082,,49,32,274,,50,10,089,*7D
$GLGSV,3,1,09,65,03,202,,70,11,048,,71,42,086,24,72,42,160,*69
$GLGSV,3,2,09,74,22,165,,75,63,216,25,76,33,312,22,86,08,348,*61
$GLGSV,3,3,09,87,05,307,19*5A
$GNGLL,0419.72452,S,05539.84250,E,073041.00,A,A*60
$GNRMC,073042.00,A,0419.72451,S,05539.84245,E,0.346,,220525,,,A*7E
$GNVTG,,T,,M,0.346,N,0.640,K,A*3E
$GNGGA,073042.00,0419.72451,S,05539.84245,E,1,12,0.80,24.6,M,-47.6,M,,*42
$GNGSA,A,3,25,12,23,15,05,24,29,10,13,,,,1.45,0.80,1.20*1D
$GNGSA,A,3,75,71,76,,,,,,,,,,1.45,0.80,1.20*12
$GPGSV,4,1,16,05,23,029,16,10,21,216,15,12,64,136,30,13,11,089,18*7C
$GPGSV,4,2,16,15,44,113,25,18,27,312,,23,63,229,18,24,24,162,09*7C
$GPGSV,4,3,16,25,78,319,34,28,09,275,15,29,21,001,22,36,52,277,*73
$GPGSV,4,4,16,40,86,351,39,41,58,082,,49,32,274,,50,10,089,*73
$GLGSV,3,1,09,65,03,202,,70,11,048,,71,42,086,23,72,42,160,*6E
$GLGSV,3,2,09,74,22,165,,75,63,216,26,76,33,312,21,86,08,348,*61
$GLGSV,3,3,09,87,05,307,20*50
$GNGLL,0419.72451,S,05539.84245,E,073042.00,A,A*64
$GNRMC,073043.00,A,0419.72438,S,05539.84253,E,0.274,,220525,,,A*77
$GNVTG,,T,,M,0.274,N,0.507,K,A*3E
$GNGGA,073043.00,0419.72438,S,05539.84253,E,1,12,0.80,24.6,M,-47.6,M,,*4B
$GNGSA,A,3,25,12,23,15,05,24,29,10,13,,,,1.45,0.80,1.20*1D
$GNGSA,A,3,75,71,76,,,,,,,,,,1.45,0.80,1.20*12
$GPGSV,4,1,16,05,23,029,16,10,21,216,15,12,64,136,30,13,11,089,19*7D
$GPGSV,4,2,16,15,44,113,26,18,27,312,,23,63,229,18,24,24,162,09*7F
$GPGSV,4,3,16,25,78,319,35,28,09,275,17,29,21,001,22,36,52,277,*70
$GPGSV,4,4,16,40,86,351,40,41,58,082,,49,32,274,,50,10,089,*7D
$GLGSV,3,1,09,65,03,202,,70,11,048,,71,42,086,22,72,42,160,*6F
$GLGSV,3,2,09,74,22,165,,75,63,216,26,76,33,312,22,86,08,348,*62
$GLGSV,3,3,09,87,05,307,20*50
$GNGLL,0419.72438,S,05539.84253,E,073043.00,A,A*6D
$GNRMC,073044.00,A,0419.72428,S,05539.84259,E,0.652,,220525,,,A*7B
$GNVTG,,T,,M,0.652,N,1.207,K,A*38
$GNGGA,073044.00,0419.72428,S,05539.84259,E,1,12,0.80,23.9,M,-47.6,M,,*4F
$GNGSA,A,3,25,12,23,15,05,24,29,10,13,,,,1.45,0.80,1.20*1D
$GNGSA,A,3,75,71,76,,,,,,,,,,1.45,0.80,1.20*12
$GPGSV,4,1,16,05,23,029,13,10,21,216,13,12,64,136,31,13,11,089,19*7F
$GPGSV,4,2,16,15,44,113,27,18,27,312,,23,63,229,16,24,24,162,17*7F
$GPGSV,4,3,16,25,78,319,35,28,09,275,17,29,21,001,23,36,52,277,*71
$GPGSV,4,4,16,40,86,351,40,41,58,082,,49,32,274,,50,10,089,*7D
$GLGSV,3,1,09,65,03,202,,70,11,048,,71,42,086,21,72,42,160,*6C
$GLGSV,3,2,09,74,22,165,,75,63,216,26,76,33,312,23,86,08,348,*63
$GLGSV,3,3,09,87,05,307,18*5B
$GNGLL,0419.72428,S,05539.84259,E,073044.00,A,A*61
$GNRMC,073045.00,A,0419.72442,S,05539.84239,E,0.219,,220525,,,A*7B
$GNVTG,,T,,M,0.219,N,0.406,K,A*35
$GNGGA,073045.00,0419.72442,S,05539.84239,E,1,12,0.80,23.1,M,-47.6,M,,*4C
$GNGSA,A,3,25,12,23,15,05,24,29,10,13,,,,1.45,0.80,1.20*1D
$GNGSA,A,3,75,71,76,,,,,,,,,,1.45,0.80,1.20*12
$GPGSV,4,1,16,05,23,029,13,10,21,216,13,12,64,136,32,13,11,089,18*7D
$GPGSV,4,2,16,15,44,113,27,18,27,312,,23,63,229,15,24,24,162,17*7C
$GPGSV,4,3,16,25,78,319,34,28,09,275,17,29,21,001,23,36,52,277,*70
$GPGSV,4,4,16,40,86,351,39,41,58,082,,49,32,274,,50,10,089,*73
$GLGSV,3,1,09,65,03,202,,70,11,048,,71,42,086,19,72,42,160,*67
$GLGSV,3,2,09,74,22,165,,75,63,216,26,76,33,312,24,86,08,348,*64
$GLGSV,3,3,09,87,05,307,16*55
$GNGLL,0419.72442,S,05539.84239,E,073045.00,A,A*6A
$GNRMC,073046.00,A,0419.72441,S,05539.84230,E,0.123,,220525,,,A*78
$GNVTG,,T,,M,0.123,N,0.228,K,A*35
$GNGGA,073046.00,0419.72441,S,05539.84230,E,1,12,0.80,22.6,M,-47.6,M,,*43
$GNGSA,A,3,25,12,23,15,05,24,29,10,13,,,,1.45,0.80,1.20*1D
$GNGSA,A,3,75,71,76,,,,,,,,,,1.45,0.80,1.20*12
$GPGSV,4,1,16,05,23,029,13,10,21,216,13,12,64,136,31,13,11,089,18*7E
$GPGSV,4,2,16,15,44,113,28,18,27,312,,23,63,229,14,24,24,162,17*72
$GPGSV,4,3,16,25,78,319,34,28,09,275,17,29,21,001,23,36,52,277,*70
$GPGSV,4,4,16,40,86,351,40,41,58,082,,49,32,274,,50,10,089,*7D
$GLGSV,3,1,09,65,03,202,,70,11,048,,71,42,086,20,72,42,160,*6D
$GLGSV,3,2,09,74,22,165,,75,63,216,26,76,33,312,23,86,08,348,*63
$GLGSV,3,3,09,87,05,307,16*55
$GNGLL,0419.72441,S,05539.84230,E,073046.00,A,A*63
$GNRMC,073047.00,A,0419.72435,S,05539.84231,E,0.363,,220525,,,A*7D
$GNVTG,,T,,M,0.363,N,0.673,K,A*39
$GNGGA,073047.00,0419.72435,S,05539.84231,E,1,12,0.80,22.9,M,-47.6,M,,*4F
$GNGSA,A,3,25,12,23,15,05,24,29,10,13,,,,1.45,0.80,1.20*1D
$GNGSA,A,3,75,71,76,,,,,,,,,,1.45,0.80,1.20*12
$GPGSV,4,1,16,05,23,029,13,10,21,216,12,12,64,136,32,13,11,089,17*73
$GPGSV,4,2,16,15,44,113,28,18,27,312,,23,63,229,15,24,24,162,17*73
$GPGSV,4,3,16,25,78,319,34,28,09,275,16,29,21,001,23,36,52,277,*71
$GPGSV,4,4,16,40,86,351,40,41,58,082,,49,32,274,,50,10,089,*7D
$GLGSV,3,1,09,65,03,202,,70,11,048,,71,42,086,22,72,42,160,*6F
$GLGSV,3,2,09,74,22,165,,75,63,216,25,76,33,312,23,86,08,348,*60
$GLGSV,3,3,09,87,05,307,15*56
$GNGLL,0419.72435,S,05539.84231,E,073047.00,A,A*60
$GNRMC,073048.00,A,0419.72426,S,05539.84237,E,0.089,,220525,,,A*71
$GNVTG,,T,,M,0.089,N,0.165,K,A*3E
$GNGGA,073048.00,0419.72426,S,05539.84237,E,1,12,0.80,23.2,M,-47.6,M,,*4E
$GNGSA,A,3,25,12,23,15,05,24,29,10,13,,,,1.45,0.80,1.20*1D
$GNGSA,A,3,75,71,76,,,,,,,,,,1.45,0.80,1.20*12
$GPGSV,4,1,16,05,23,029,13,10,21,216,13,12,64,136,31,13,11,089,17*71
$GPGSV,4,2,16,15,44,113,29,18,27,312,20,23,63,229,15,24,24,162,17*70
$GPGSV,4,3,16,25,78,319,34,28,09,275,16,29,21,001,24,36,52,277,*76
$GPGSV,4,4,16,40,86,351,40,41,58,082,,49,32,274,,50,10,089,*7D
$GLGSV,3,1,09,65,03,202,,70,11,048,,71,42,086,22,72,42,160,*6F
$GLGSV,3,2,09,74,22,165,,75,63,216,26,76,33,312,23,86,08,348,*63
$GLGSV,3,3,09,87,05,307,14*57
$GNGLL,0419.72426,S,05539.84237,E,073048.00,A,A*6B
$GNRMC,073049.00,A,0419.72422,S,05539.84229,E,0.216,,220525,,,A*7F
$GNVTG,,T,,M,0.216,N,0.401,K,A*3D
$GNGGA,073049.00,0419.72422,S,05539.84229,E,1,12,0.80,22.9,M,-47.6,M,,*4E
$GNGSA,A,3,25,12,23,15,05,24,29,10,13,,,,1.45,0.80,1.20*1D
$GNGSA,A,3,75,71,76,,,,,,,,,,1.45,0.80,1.20*12
$GPGSV,4,1,16,05,23,029,13,10,21,216,15,12,64,136,31,13,11,089,18*78
$GPGSV,4,2,16,15,44,113,29,18,27,312,20,23,63,229,14,24,24,162,17*71
$GPGSV,4,3,16,25,78,319,33,28,09,275,16,29,21,001,25,36,52,277,*70
$GPGSV,4,4,16,40,86,351,40,41,58,082,,49,32,274,,50,10,089,*7D
$GLGSV,3,1,09,65,03,202,,70,11,048,,71,42,086,24,72,42,160,*69
$GLGSV,3,2,09,74,22,165,,75,63,216,27,76,33,312,22,86,08,348,*63
$GLGSV,3,3,09,87,05,307,15*56
$GNGLL,0419.72422,S,05539.84229,E,073049.00,A,A*61
$GNRMC,073050.00,A,0419.72410,S,05539.84239,E,0.258,,220525,,,A*7D
$GNVTG,,T,,M,0.258,N,0.477,K,A*36
$GNGGA,073050.00,0419.72410,S,05539.84239,E,1,12,0.80,23.0,M,-47.6,M,,*4E
$GNGSA,A,3,25,12,23,15,05,24,29,10,13,,,,1.45,0.80,1.20*1D
$GNGSA,A,3,75,71,76,,,,,,,,,,1.45,0.80,1.20*12
$GPGSV,4,1,16,05,23,029,16,10,21,216,15,12,64,136,31,13,11,089,18*7D
$GPGSV,4,2,16,15,44,113,29,18,27,312,18,23,63,229,12,24,24,162,15*7E
$GPGSV,4,3,16,25,78,319,33,28,09,275,17,29,21,001,25,36,52,277,*71
$GPGSV,4,4,16,40,86,351,40,41,58,082,,49,32,274,,50,10,089,*7D
$GLGSV,3,1,09,65,03,202,,70,11,048,,71,42,086,25,72,42,160,*68
$GLGSV,3,2,09,74,22,165,,75,63,216,27,76,33,312,23,86,08,348,*62
$GLGSV,3,3,09,87,05,307,16*55
$GNGLL,0419.72410,S,05539.84239,E,073050.00,A,A*69
$GNRMC,073051.00,A,0419.72412,S,05539.84229,E,0.254,,220525,,,A*73
$GNVTG,,T,,M,0.254,N,0.469,K,A*35
$GNGGA,073051.00,0419.72412,S,05539.84229,E,1,11,0.87,22.6,M,-47.6,M,,*4F
$GNGSA,A,3,25,12,23,15,05,29,10,13,,,,,1.55,0.87,1.29*14
$GNGSA,A,3,75,71,76,,,,,,,,,,1.55,0.87,1.29*1D
$GPGSV,4,1,16,05,23,029,16,10,21,216,15,12,64,136,31,13,11,089,18*7D
$GPGSV,4,2,16,15,44,113,29,18,27,312,,23,63,229,09,24,24,162,*79
$GPGSV,4,3,16,25,78,319,34,28,09,275,16,29,21,001,25,36,52,277,*77
$GPGSV,4,4,16,40,86,351,40,41,58,082,,49,32,274,,50,10,089,*7D
$GLGSV,3,1,09,65,03,202,,70,11,048,,71,42,086,24,72,42,160,*69
$GLGSV,3,2,09,74,22,165,,75,63,216,27,76,33,312,24,86,08,348,*65
$GLGSV,3,3,09,87,05,307,14*57
$GNGLL,0419.72412,S,05539.84229,E,073051.00,A,A*6B
$GNRMC,073052.00,A,0419.72405,S,05539.84240,E,0.260,,220525,,,A*7E
$GNVTG,,T,,M,0.260,N,0.482,K,A*37
$GNGGA,073052.00,0419.72405,S,05539.84240,E,1,11,0.87,23.1,M,-47.6,M,,*43
$GNGSA,A,3,25,12,23,15,05,29,10,13,,,,,1.55,0.87,1.29*14
$GNGSA,A,3,75,71,76,,,,,,,,,,1.55,0.87,1.29*1D
$GPGSV,4,1,16,05,23,029,16,10,21,216,16,12,64,136,32,13,11,089,18*7D
$GPGSV,4,2,16,15,44,113,28,18,27,312,22,23,63,229,14,24,24,162,*74
$GPGSV,4,3,16,25,78,319,34,28,09,275,14,29,21,001,24,36,52,277,*74
$GPGSV,4,4,16,40,86,351,39,41,58,082,,49,32,274,,50,10,089,*73
$GLGSV,3,1,09,65,03,202,,70,11,048,,71,42,086,26,72,42,160,*6B
$GLGSV,3,2,09,74,22,165,,75,63,216,28,76,33,312,24,86,08,348,*6A
$GLGSV,3,3,09,87,05,307,13*50
$GNGLL,0419.72405,S,05539.84240,E,073052.00,A,A*61
$GNRMC,073053.00,A,0419.72407,S,05539.84235,E,0.142,,220525,,,A*7C
$GNVTG,,T,,M,0.142,N,0.263,K,A*3D
$GNGGA,073053.00,0419.72407,S,05539.84235,E,1,11,0.87,23.0,M,-47.6,M,,*43
$GNGSA,A,3,25,12,23,15,05,29,10,13,,,,,1.56,0.87,1.29*17
$GNGSA,A,3,75,71,76,,,,,,,,,,1.56,0.87,1.29*1E
$GPGSV,4,1,16,05,23,029,16,10,21,216,16,12,64,136,31,13,11,089,18*7E
$GPGSV,4,2,16,15,44,113,28,18,27,312,22,23,63,229,09,24,24,162,*78
$GPGSV,4,3,16,25,78,319,35,28,09,275,13,29,21,001,24,36,52,277,*72
$GPGSV,4,4,16,40,86,351,40,41,58,082,,49,32,274,,50,10,089,*7D
$GLGSV,3,1,09,65,03,202,,70,11,048,,71,42,086,25,72,42,160,*68
$GLGSV,3,2,09,74,22,165,,75,63,216,28,76,33,312,25,86,08,348,*6B
$GLGSV,3,3,09,87,05,307,11*52
$GNGLL,0419.72407,S,05539.84235,E,073053.00,A,A*60
$GNRMC,073054.00,A,0419.72403,S,05539.84228,E,0.118,,220525,,,A*7C
$GNVTG,,T,,M,0.118,N,0.218,K,A*3E
$GNGGA,073054.00,0419.72403,S,05539.84228,E,1,11,0.88,22.9,M,-47.6,M,,*4B
$GNGSA,A,3,25,12,23,15,18,29,10,13,,,,,1.58,0.88,1.31*13
$GNGSA,A,3,75,71,76,,,,,,,,,,1.58,0.88,1.31*16
$GPGSV,4,1,16,05,23,029,,10,21,216,15,12,64,136,30,13,11,089,17*74
$GPGSV,4,2,16,15,44,113,28,18,27,312,22,23,63,229,10,24,24,162,07*77
$GPGSV,4,3,16,25,78,319,35,28,09,275,13,29,21,001,23,36,52,277,*75
$GPGSV,4,4,16,40,86,351,40,41,58,082,,49,32,274,,50,10,089,*7D
$GLGSV,3,1,09,65,03,202,,70,11,048,,71,42,086,24,72,42,160,*69
$GLGSV,3,2,09,74,22,165,,75,63,216,27,76,33,312,26,86,08,348,*67
$GLGSV,3,3,09,87,05,307,12*51
$GNGLL,0419.72403,S,05539.84228,E,073054.00,A,A*6F
$GNRMC,073055.00,A,0419.72401,S,05539.84225,E,0.120,,220525,,,A*79
$GNVTG,,T,,M,0.120,N,0.222,K,A*3C
$GNGGA,073055.00,0419.72401,S,05539.84225,E,1,11,0.87,22.8,M,-47.6,M,,*4B
$GNGSA,A,3,25,12,23,15,18,29,10,13,,,,,1.54,0.87,1.27*17
$GNGSA,A,3,75,71,76,,,,,,,,,,1.54,0.87,1.27*12
$GPGSV,4,1,16,05,23,029,21,10,21,216,16,12,64,136,29,13,11,089,15*7E
$GPGSV,4,2,16,15,44,113,28,18,27,312,23,23,63,229,08,24,24,162,10*79
$GPGSV,4,3,16,25,78,319,34,28,09,275,14,29,21,001,22,36,52,277,*72
$GPGSV,4,4,16,40,86,351,40,41,58,082,,49,32,274,,50,10,089,*7D
$GLGSV,3,1,09,65,03,202,,70,11,048,,71,42,086,25,72,42,160,*68
$GLGSV,3,2,09,74,22,165,,75,63,216,27,76,33,312,27,86,08,348,*66
$GLGSV,3,3,09,87,05,307,14*57
$GNGLL,0419.72401,S,05539.84225,E,073055.00,A,A*61
$GNRMC,073056.00,A,0419.72398,S,05539.84225,E,0.066,,220525,,,A*7E
$GNVTG,,T,,M,0.066,N,0.123,K,A*3D
$GNGGA,073056.00,0419.72398,S,05539.84225,E,1,11,0.87,22.7,M,-47.6,M,,*40
$GNGSA,A,3,25,12,23,15,18,29,10,13,,,,,1.54,0.87,1.27*17
$GNGSA,A,3,75,71,76,,,,,,,,,,1.54,0.87,1.27*12
$GPGSV,4,1,16,05,23,029,20,10,21,216,17,12,64,136,29,13,11,089,15*7E
$GPGSV,4,2,16,15,44,113,28,18,27,312,22,23,63,229,10,24,24,162,13*72
$GPGSV,4,3,16,25,78,319,34,28,09,275,14,29,21,001,21,36,52,277,*71
$GPGSV,4,4,16,40,86,351,40,41,58,082,,49,32,274,,50,10,089,*7D
$GLGSV,3,1,09,65,03,202,,70,11,048,,71,42,086,24,72,42,160,*69
$GLGSV,3,2,09,74,22,165,,75,63,216,27,76,33,312,27,86,08,348,*66
$GLGSV,3,3,09,87,05,307,13*50
$GNGLL,0419.72398,S,05539.84225,E,073056.00,A,A*65
$GNRMC,073057.00,A,0419.72392,S,05539.84232,E,0.036,,220525,,,A*76
$GNVTG,,T,,M,0.036,N,0.067,K,A*39
$GNGGA,073057.00,0419.72392,S,05539.84232,E,1,11,0.87,22.8,M,-47.6,M,,*42
$GNGSA,A,3,25,12,23,15,18,29,10,13,,,,,1.54,0.87,1.27*17
$GNGSA,A,3,75,71,76,,,,,,,,,,1.54,0.87,1.27*12
$GPGSV,4,1,16,05,23,029,19,10,21,216,18,12,64,136,29,13,11,089,15*7B
$GPGSV,4,2,16,15,44,113,29,18,27,312,21,23,63,229,13,24,24,162,14*74
$GPGSV,4,3,16,25,78,319,34,28,09,275,14,29,21,001,21,36,52,277,*71
$GPGSV,4,4,16,40,86,351,40,41,58,082,,49,32,274,,50,10,089,*7D
$GLGSV,3,1,09,65,03,202,,70,11,048,,71,42,086,25,72,42,160,*68
$GLGSV,3,2,09,74,22,165,,75,63,216,27,76,33,312,26,86,08,348,*67
$GLGSV,3,3,09,87,05,307,13*50
$GNGLL,0419.72392,S,05539.84232,E,073057.00,A,A*68
$GNRMC,073058.00,A,0419.72389,S,05539.84233,E,0.108,,220525,,,A*7E
$GNVTG,,T,,M,0.108,N,0.200,K,A*36
$GNGGA,073058.00,0419.72389,S,05539.84233,E,1,12,0.82,22.4,M,-47.6,M,,*4C
$GNGSA,A,3,25,12,23,15,18,05,24,29,10,13,,,1.51,0.82,1.27*14
$GNGSA,A,3,75,71,76,,,,,,,,,,1.51,0.82,1.27*12
$GPGSV,4,1,16,05,23,029,19,10,21,216,17,12,64,136,29,13,11,089,16*77
$GPGSV,4,2,16,15,44,113,29,18,27,312,21,23,63,229,17,24,24,162,12*76
$GPGSV,4,3,16,25,78,319,34,28,09,275,14,29,21,001,20,36,52,277,*70
$GPGSV,4,4,16,40,86,351,39,41,58,082,,49,32,274,,50,10,089,*73
$GLGSV,3,1,09,65,03,202,,70,11,048,,71,42,086,26,72,42,160,*6B
$GLGSV,3,2,09,74,22,165,,75,63,216,27,76,33,312,26,86,08,348,*67
$GLGSV,3,3,09,87,05,307,11*52
$GNGLL,0419.72389,S,05539.84233,E,073058.00,A,A*6C
$GNRMC,073059.00,A,0419.72376,S,05539.84237,E,0.184,,220525,,,A*7F
$GNVTG,,T,,M,0.184,N,0.341,K,A*36
$GNGGA,073059.00,0419.72376,S,05539.84237,E,1,12,0.82,22.4,M,-47.6,M,,*49
$GNGSA,A,3,25,12,23,15,18,05,24,29,10,13,,,1.51,0.82,1.27*14
$GNGSA,A,3,75,71,76,,,,,,,,,,1.51,0.82,1.27*12
$GPGSV,4,1,16,05,23,029,18,10,21,216,14,12,64,136,29,13,11,089,16*75
$GPGSV,4,2,16,15,44,113,29,18,27,312,22,23,63,229,13,24,24,162,11*72
$GPGSV,4,3,16,25,78,319,34,28,09,275,13,29,21,001,20,36,52,277,*77
$GPGSV,4,4,16,40,86,351,39,41,58,082,,49,32,274,,50,10,089,*73
$GLGSV,3,1,09,65,03,202,,70,10,047,,71,42,086,27,72,42,160,*64
$GLGSV,3,2,09,74,22,165,,75,63,216,27,76,33,312,26,86,08,348,*67
$GLGSV,3,3,09,87,05,307,11*52
$GNGLL,0419.72376,S,05539.84237,E,073059.00,A,A*69
$GNRMC,073100.00,A,0419.72359,S,05539.84241,E,0.069,,220525,,,A*7C
$GNVTG,,T,,M,0.069,N,0.127,K,A*36
$GNGGA,073100.00,0419.72359,S,05539.84241,E,1,12,0.76,22.5,M,-47.6,M,,*42
$GNGSA,A,3,25,12,23,15,18,05,24,29,10,13,,,1.45,0.76,1.23*1E
$GNGSA,A,3,75,71,76,,,,,,,,,,1.45,0.76,1.23*18
$GPGSV,4,1,16,05,23,029,19,10,21,216,15,12,64,136,28,13,11,089,16*74
$GPGSV,4,2,16,15,44,113,29,18,27,312,22,23,63,229,12,24,24,162,11*73
$GPGSV,4,3,16,25,78,319,34,28,09,275,12,29,21,001,20,36,52,277,*76
$GPGSV,4,4,16,40,86,351,39,41,58,082,,49,32,274,,50,10,089,*73
$GLGSV,3,1,09,65,03,202,,70,10,047,,71,42,085,27,72,42,160,*67
$GLGSV,3,2,09,74,22,165,,75,63,216,27,76,33,312,26,86,08,348,*67
$GLGSV,3,3,09,87,05,307,11*52
$GNGLL,0419.72359,S,05539.84241,E,073100.00,A,A*68
$GNRMC,073101.00,A,0419.72337,S,05539.84248,E,0.384,,220525,,,A*7C
$GNVTG,,T,,M,0.384,N,0.712,K,A*36
$GNGGA,073101.00,0419.72337,S,05539.84248,E,1,12,0.75,22.5,M,-47.6,M,,*41
$GNGSA,A,3,25,12,23,15,18,05,24,29,10,13,,,1.40,0.75,1.18*10
$GNGSA,A,3,75,71,76,,,,,,,,,,1.40,0.75,1.18*16
$GPGSV,4,1,16,05,23,029,19,10,21,216,14,12,64,136,29,13,11,089,17*75
$GPGSV,4,2,16,15,44,113,29,18,27,312,21,23,63,229,13,24,24,162,10*70
$GPGSV,4,3,16,25,78,319,35,28,09,275,14,29,21,001,19,36,52,277,*7B
$GPGSV,4,4,16,40,86,351,39,41,58,082,,49,32,274,,50,10,089,*73
$GLGSV,3,1,09,65,03,202,,70,10,047,,71,42,085,26,72,42,160,*66
$GLGSV,3,2,09,74,22,165,,75,63,216,27,76,33,312,26,86,08,348,*67
$GLGSV,3,3,09,87,05,307,12*51
$GNGLL,0419.72337,S,05539.84248,E,073101.00,A,A*68
$GNRMC,073102.00,A,0419.72322,S,05539.84250,E,0.037,,220525,,,A*79
$GNVTG,,T,,M,0.037,N,0.069,K,A*36
$GNGGA,073102.00,0419.72322,S,05539.84250,E,1,12,0.75,22.4,M,-47.6,M,,*4E
$GNGSA,A,3,25,12,23,15,18,05,24,29,10,13,,,1.40,0.75,1.18*10
$GNGSA,A,3,75,71,76,,,,,,,,,,1.40,0.75,1.18*16
$GPGSV,4,1,16,05,23,029,18,10,21,216,13,12,64,136,29,13,11,089,16*72
$GPGSV,4,2,16,15,44,113,29,18,27,312,22,23,63,229,13,24,24,162,11*72
$GPGSV,4,3,16,25,78,319,35,28,09,275,16,29,21,001,20,36,52,277,*73
$GPGSV,4,4,16,40,86,351,39,41,58,082,,49,32,274,,50,10,089,*73
$GLGSV,3,1,09,65,03,202,,70,10,047,,71,42,085,25,72,42,160,*65
$GLGSV,3,2,09,74,22,165,,75,63,216,27,76,33,312,27,86,08,348,*66
$GLGSV,3,3,09,87,05,307,12*51
$GNGLL,0419.72322,S,05539.84250,E,073102.00,A,A*66
$GNRMC,073103.00,A,0419.72311,S,05539.84251,E,0.061,,220525,,,A*7A
$GNVTG,,T,,M,0.061,N,0.112,K,A*38
$GNGGA,073103.00,0419.72311,S,05539.84251,E,1,12,0.75,22.1,M,-47.6,M,,*4B
$GNGSA,A,3,25,12,23,15,18,05,24,29,10,13,,,1.40,0.75,1.18*10
$GNGSA,A,3,75,71,76,,,,,,,,,,1.40,0.75,1.18*16
$GPGSV,4,1,16,05,23,029,16,10,21,216,13,12,64,136,27,13,11,089,15*71
$GPGSV,4,2,16,15,44,113,28,18,27,312,21,23,63,229,13,24,24,162,13*72
$GPGSV,4,3,16,25,78,319,35,28,09,275,16,29,21,001,21,36,52,277,*72
$GPGSV,4,4,16,40,86,351,39,41,58,082,,49,32,274,,50,10,089,*73
$GLGSV,3,1,09,65,03,202,,70,10,047,,71,42,085,24,72,42,160,*64
$GLGSV,3,2,09,74,22,165,,75,63,216,26,76,33,312,26,86,08,348,*66
$GLGSV,3,3,09,87,05,307,13*50
$GNGLL,0419.72311,S,05539.84251,E,073103.00,A,A*66
$GNRMC,073104.00,A,0419.72303,S,05539.84248,E,0.167,,220525,,,A*71
$GNVTG,,T,,M,0.167,N,0.310,K,A*3F
$GNGGA,073104.00,0419.72303,S,05539.84248,E,1,12,0.75,21.8,M,-47.6,M,,*4D
$GNGSA,A,3,25,12,23,15,18,05,24,29,10,13,,,1.40,0.75,1.18*10
$GNGSA,A,3,75,71,76,,,,,,,,,,1.40,0.75,1.18*16
$GPGSV,4,1,16,05,23,029,17,10,21,216,12,12,64,136,26,13,11,089,14*71
$GPGSV,4,2,16,15,44,113,28,18,27,312,22,23,63,229,13,24,24,162,14*76
$GPGSV,4,3,16,25,78,319,35,28,09,275,16,29,21,001,21,36,52,277,*72
$GPGSV,4,4,16,40,86,351,40,41,58,082,,49,32,274,,50,10,089,*7D
$GLGSV,3,1,09,65,03,202,,70,10,047,,71,42,085,25,72,42,160,*65
$GLGSV,3,2,09,74,22,165,,75,63,215,25,76,33,312,26,86,08,348,*66
$GLGSV,3,3,09,87,05,307,13*50
$GNGLL,0419.72303,S,05539.84248,E,073104.00,A,A*6A
$GNRMC,073105.00,A,0419.72294,S,05539.84253,E,0.120,,220525,,,A*76
$GNVTG,,T,,M,0.120,N,0.222,K,A*3C
$GNGGA,073105.00,0419.72294,S,05539.84253,E,1,12,0.75,21.8,M,-47.6,M,,*49
$GNGSA,A,3,25,12,23,15,18,05,24,29,10,13,,,1.40,0.75,1.18*10
$GNGSA,A,3,75,71,76,,,,,,,,,,1.40,0.75,1.18*16
$GPGSV,4,1,16,05,23,029,17,10,21,216,10,12,64,136,27,13,11,089,15*73
$GPGSV,4,2,16,15,44,113,28,18,27,312,22,23,63,229,13,24,24,162,14*76
$GPGSV,4,3,16,25,78,319,35,28,09,275,15,29,21,001,19,36,52,277,*7A
$GPGSV,4,4,16,40,86,351,39,41,58,082,,49,32,274,,50,10,089,*73
$GLGSV,3,1,09,65,03,202,,70,10,047,,71,42,085,25,72,42,160,20*67
$GLGSV,3,2,09,74,22,165,,75,63,215,26,76,34,311,26,86,08,348,*61
$GLGSV,3,3,09,87,05,307,13*50
$GNGLL,0419.72294,S,05539.84253,E,073105.00,A,A*6E
$GNRMC,073106.00,A,0419.72290,S,05539.84248,E,0.156,,220525,,,A*7A
$GNVTG,,T,,M,0.156,N,0.289,K,A*3C
$GNGGA,073106.00,0419.72290,S,05539.84248,E,1,12,0.75,21.3,M,-47.6,M,,*4F
$GNGSA,A,3,25,12,23,15,18,05,24,29,10,13,,,1.40,0.75,1.18*10
$GNGSA,A,3,75,71,76,,,,,,,,,,1.40,0.75,1.18*16
$GPGSV,4,1,16,05,23,029,17,10,21,216,09,12,64,136,28,13,11,089,15*74
$GPGSV,4,2,16,15,44,113,28,18,27,312,22,23,63,229,13,24,24,162,14*76
$GPGSV,4,3,16,25,78,319,36,28,09,275,15,29,21,001,19,36,52,277,*79
$GPGSV,4,4,16,40,86,351,40,41,58,082,,49,32,274,,50,10,089,*7D
$GLGSV,3,1,09,65,03,202,,70,10,047,,71,42,085,31,72,42,160,19*68
$GLGSV,3,2,09,74,22,165,,75,63,215,26,76,34,311,26,86,08,348,*61
$GLGSV,3,3,09,87,05,307,12*51
$GNGLL,0419.72290,S,05539.84248,E,073106.00,A,A*63
$GNRMC,073107.00,A,0419.72282,S,05539.84250,E,0.033,,220525,,,A*73
$GNVTG,,T,,M,0.033,N,0.061,K,A*3A
$GNGGA,073107.00,0419.72282,S,05539.84250,E,1,12,0.92,21.1,M,-47.6,M,,*4F
$GNGSA,A,3,25,12,23,15,18,05,24,29,13,,,,1.70,0.92,1.43*15
$GNGSA,A,3,75,71,76,,,,,,,,,,1.70,0.92,1.43*12
$GPGSV,4,1,16,05,23,029,19,10,21,216,09,12,64,136,29,13,11,089,15*7B
$GPGSV,4,2,16,15,44,113,29,18,27,312,21,23,63,229,16,24,24,162,14*71
$GPGSV,4,3,16,25,78,319,35,28,09,275,14,29,21,001,19,36,52,277,*7B
$GPGSV,4,4,16,40,86,351,40,41,58,082,,49,32,274,,50,10,089,*7D
$GLGSV,3,1,09,65,03,202,,70,10,047,,71,42,085,30,72,42,160,19*69
$GLGSV,3,2,09,74,22,165,,75,63,215,25,76,34,311,26,86,08,348,*62
$GLGSV,3,3,09,87,05,307,13*50
$GNGLL,0419.72282,S,05539.84250,E,073107.00,A,A*68
$GNRMC,073108.00,A,0419.72275,S,05539.84246,E,0.153,,220525,,,A*74
$GNVTG,,T,,M,0.153,N,0.284,K,A*34
$GNGGA,073108.00,0419.72275,S,05539.84246,E,1,12,0.75,20.8,M,-47.6,M,,*4E
$GNGSA,A,3,25,12,23,15,18,05,24,29,10,13,,,1.40,0.75,1.18*10
$GNGSA,A,3,75,71,76,,,,,,,,,,1.40,0.75,1.18*16
$GPGSV,4,1,16,05,23,029,20,10,21,216,14,12,64,136,28,13,11,089,15*7C
$GPGSV,4,2,16,15,44,113,30,18,27,312,21,23,63,229,16,24,24,162,10*7D
$GPGSV,4,3,16,25,78,319,35,28,09,275,15,29,21,001,20,36,52,277,*70
$GPGSV,4,4,16,40,86,351,40,41,58,082,,49,32,274,,50,10,089,*7D
$GLGSV,3,1,09,65,03,202,,70,10,047,,71,42,085,29,72,42,160,17*6F
$GLGSV,3,2,09,74,22,165,,75,63,215,24,76,34,311,27,86,08,348,*62
$GLGSV,3,3,09,87,05,307,14*57
$GNGLL,0419.72275,S,05539.84246,E,073108.00,A,A*68
$GNRMC,073109.00,A,0419.72253,S,05539.84247,E,0.146,,220525,,,A*74
$GNVTG,,T,,M,0.146,N,0.270,K,A*3B
$GNGGA,073109.00,0419.72253,S,05539.84247,E,1,12,0.73,21.0,M,-47.6,M,,*45
$GNGSA,A,3,25,12,23,15,18,05,24,29,10,13,,,1.39,0.73,1.18*18
$GNGSA,A,3,75,71,72,76,,,,,,,,,1.39,0.73,1.18*1B
$GPGSV,4,1,16,05,23,029,21,10,21,216,14,12,64,136,28,13,11,089,16*7E
$GPGSV,4,2,16,15,44,113,30,18,27,312,22,23,63,229,16,24,24,162,10*7E
$GPGSV,4,3,16,25,78,319,36,28,09,275,16,29,21,001,20,36,52,277,*70
$GPGSV,4,4,16,40,86,351,39,41,58,082,,49,32,274,,50,10,089,*73
$GLGSV,3,1,09,65,03,202,,70,10,047,,71,42,085,29,72,42,160,18*60
$GLGSV,3,2,09,74,22,165,,75,63,215,23,76,34,311,26,86,08,348,*64
$GLGSV,3,3,09,87,05,307,15*56
$GNGLL,0419.72253,S,05539.84247,E,073109.00,A,A*6C
$GNRMC,073110.00,A,0419.72225,S,05539.84252,E,0.232,,220525,,,A*79
$GNVTG,,T,,M,0.232,N,0.430,K,A*39
$GNGGA,073110.00,0419.72225,S,05539.84252,E,1,12,0.73,21.1,M,-47.6,M,,*49
$GNGSA,A,3,25,12,23,15,18,05,24,29,10,13,,,1.39,0.73,1.18*18
$GNGSA,A,3,75,71,72,76,,,,,,,,,1.39,0.73,1.18*1B
$GPGSV,4,1,16,05,23,029,21,10,21,216,14,12,64,136,30,13,11,089,17*76
$GPGSV,4,2,16,15,44,113,31,18,27,312,23,23,63,229,16,24,24,162,10*7E
$GPGSV,4,3,16,25,78,319,36,28,09,275,17,29,21,001,21,36,52,277,*70
$GPGSV,4,4,16,40,86,351,40,41,58,082,,49,32,274,,50,10,089,*7D
$GLGSV,3,1,09,65,03,202,,70,10,047,,71,42,085,30,72,42,160,18*68
$GLGSV,3,2,09,74,22,165,,75,63,215,23,76,34,311,26,86,08,348,*64
$GLGSV,3,3,09,87,05,307,15*56
$GNGLL,0419.72225,S,05539.84252,E,073110.00,A,A*61
$GNRMC,073111.00,A,0419.72206,S,05539.84255,E,0.019,,220525,,,A*75
$GNVTG,,T,,M,0.019,N,0.035,K,A*33
$GNGGA,073111.00,0419.72206,S,05539.84255,E,1,12,0.73,21.3,M,-47.6,M,,*4C
$GNGSA,A,3,25,12,23,15,18,05,24,29,10,13,,,1.39,0.73,1.18*18
$GNGSA,A,3,75,71,72,76,,,,,,,,,1.39,0.73,1.18*1B
$GPGSV,4,1,16,05,23,029,19,10,21,216,14,12,64,136,30,13,11,089,16*7C
$GPGSV,4,2,16,15,44,113,29,18,27,312,23,23,63,229,16,24,24,162,10*77
$GPGSV,4,3,16,25,78,319,36,28,09,275,17,29,21,001,21,36,52,277,*70
$GPGSV,4,4,16,40,86,351,40,41,58,082,,49,32,274,,50,10,089,*7D
$GLGSV,3,1,09,65,03,202,,70,10,047,,71,42,085,31,72,42,160,19*68
$GLGSV,3,2,09,74,22,165,,75,63,215,23,76,34,311,24,86,08,348,*66
$GLGSV,3,3,09,87,05,307,15*56
$GNGLL,0419.72206,S,05539.84255,E,073111.00,A,A*66
$GNRMC,073112.00,A,0419.72186,S,05539.84259,E,0.110,,220525,,,A*79
$GNVTG,,T,,M,0.110,N,0.203,K,A*3C
$GNGGA,073112.00,0419.72186,S,05539.84259,E,1,12,0.73,21.4,M,-47.6,M,,*4F
$GNGSA,A,3,25,12,23,15,18,05,24,29,10,13,,,1.39,0.73,1.18*18
$GNGSA,A,3,75,71,72,76,,,,,,,,,1.39,0.73,1.18*1B
$GPGSV,4,1,16,05,23,029,19,10,21,216,14,12,64,136,30,13,11,089,16*7C
$GPGSV,4,2,16,15,44,113,29,18,27,312,22,23,63,229,16,24,24,162,10*76
$GPGSV,4,3,16,25,78,319,36,28,09,275,17,29,21,001,20,36,52,277,*71
$GPGSV,4,4,16,40,86,351,40,41,58,082,,49,32,274,,50,10,089,*7D
$GLGSV,3,1,09,65,03,202,,70,10,047,,71,42,085,33,72,42,160,19*6A
$GLGSV,3,2,09,74,22,165,,75,63,215,23,76,34,311,24,86,08,348,*66
$GLGSV,3,3,09,87,05,307,14*57
$GNGLL,0419.72186,S,05539.84259,E,073112.00,A,A*62
$GNRMC,073113.00,A,0419.72164,S,05539.84264,E,0.325,,220525,,,A*7E
$GNVTG,,T,,M,0.325,N,0.601,K,A*3E
$GNGGA,073113.00,0419.72164,S,05539.84264,E,1,12,0.73,21.9,M,-47.6,M,,*41
$GNGSA,A,3,25,12,23,15,18,05,24,29,10,13,,,1.39,0.73,1.18*18
$GNGSA,A,3,75,71,72,76,,,,,,,,,1.39,0.73,1.18*1B
$GPGSV,4,1,16,05,23,029,19,10,21,216,14,12,64,136,30,13,11,089,16*7C
$GPGSV,4,2,16,15,44,113,29,18,27,312,23,23,63,229,16,24,24,162,10*77
$GPGSV,4,3,16,25,78,319,36,28,09,275,16,29,21,001,21,36,52,277,*71
$GPGSV,4,4,16,40,86,351,40,41,58,082,,49,32,274,,50,10,089,*7D
$GLGSV,3,1,09,65,03,202,,70,10,047,,71,42,085,34,72,42,160,18*6C
$GLGSV,3,2,09,74,22,165,,75,63,215,23,76,34,311,21,86,08,348,*63
$GLGSV,3,3,09,87,05,307,15*56
$GNGLL,0419.72164,S,05539.84264,E,073113.00,A,A*61
$GNRMC,073114.00,A,0419.72143,S,05539.84267,E,0.295,,220525,,,A*75
$GNVTG,,T,,M,0.295,N,0.546,K,A*34
$GNGGA,073114.00,0419.72143,S,05539.84267,E,1,12,0.73,22.0,M,-47.6,M,,*4A
$GNGSA,A,3,25,12,23,15,18,05,24,29,10,13,,,1.39,0.73,1.18*18
$GNGSA,A,3,75,71,72,76,,,,,,,,,1.39,0.73,1.18*1B
$GPGSV,4,1,16,05,23,029,20,10,21,216,18,12,64,136,30,13,11,089,15*79
$GPGSV,4,2,16,15,44,113,29,18,27,312,23,23,63,229,18,24,24,162,09*71
$GPGSV,4,3,16,25,78,319,36,28,09,275,16,29,21,001,20,36,52,277,*70
$GPGSV,4,4,16,40,86,351,40,41,58,082,,49,32,274,,50,10,089,*7D
$GLGSV,3,1,09,65,03,202,,70,10,047,,71,42,085,35,72,42,160,18*6D
$GLGSV,3,2,09,74,22,165,,75,63,215,23,76,34,311,20,86,08,348,*62
$GLGSV,3,3,09,87,05,307,17*54
$GNGLL,0419.72143,S,05539.84267,E,073114.00,A,A*60
$GNRMC,073115.00,A,0419.72117,S,05539.84280,E,0.081,,220525,,,A*7B
$GNVTG,,T,,M,0.081,N,0.149,K,A*38
$GNGGA,073115.00,0419.72117,S,05539.84280,E,1,12,0.78,22.7,M,-47.6,M,,*4F
$GNGSA,A,3,25,12,23,15,18,05,29,10,13,,,,1.49,0.78,1.27*1E
$GNGSA,A,3,75,71,72,76,,,,,,,,,1.49,0.78,1.27*1B
$GPGSV,4,1,16,05,23,029,22,10,21,216,18,12,64,136,30,13,11,089,14*7A
$GPGSV,4,2,16,15,44,113,29,18,27,312,23,23,63,229,14,24,24,162,09*7D
$GPGSV,4,3,16,25,78,319,36,28,09,275,15,29,21,001,21,36,52,277,*72
$GPGSV,4,4,16,40,86,351,40,41,58,082,,49,32,274,,50,10,089,*7D
$GLGSV,3,1,09,65,03,202,,70,10,047,,71,42,085,34,72,42,160,19*6D
$GLGSV,3,2,09,74,22,165,,75,63,215,22,76,34,311,19,86,08,349,*68
$GLGSV,3,3,09,87,05,307,18*5B
$GNGLL,0419.72117,S,05539.84280,E,073115.00,A,A*69
$GNRMC,073116.00,A,0419.72104,S,05539.84286,E,0.276,,220525,,,A*76
$GNVTG,,T,,M,0.276,N,0.511,K,A*3B
$GNGGA,073116.00,0419.72104,S,05539.84286,E,1,12,0.78,22.4,M,-47.6,M,,*4B
$GNGSA,A,3,25,12,23,15,18,05,29,10,13,,,,1.49,0.78,1.27*1E
$GNGSA,A,3,75,71,72,76,,,,,,,,,1.49,0.78,1.27*1B
$GPGSV,4,1,16,05,23,029,22,10,21,216,18,12,64,136,29,13,11,089,13*75
$GPGSV,4,2,16,15,44,113,29,18,27,312,23,23,63,229,18,24,24,162,09*71
$GPGSV,4,3,16,25,78,319,36,28,09,275,16,29,21,001,20,36,52,277,*70
$GPGSV,4,4,16,40,86,351,40,41,58,082,,49,32,274,,50,10,089,*7D
$GLGSV,3,1,09,65,03,202,,70,10,047,,71,42,085,34,72,42,160,19*6D
$GLGSV,3,2,09,74,22,165,,75,63,215,22,76,34,311,19,86,08,349,*68
$GLGSV,3,3,09,87,05,307,18*5B
$GNGLL,0419.72104,S,05539.84286,E,073116.00,A,A*6E
$GNRMC,073117.00,A,0419.72092,S,05539.84289,E,0.213,,220525,,,A*75
$GNVTG,,T,,M,0.213,N,0.394,K,A*33
$GNGGA,073117.00,0419.72092,S,05539.84289,E,1,12,0.78,22.1,M,-47.6,M,,*4E
$GNGSA,A,3,25,12,23,15,18,05,29,10,13,,,,1.49,0.78,1.27*1E
$GNGSA,A,3,75,71,72,76,,,,,,,,,1.49,0.78,1.27*1B
$GPGSV,4,1,16,05,23,029,22,10,21,216,18,12,64,136,29,13,11,089,13*75
$GPGSV,4,2,16,15,44,113,29,18,27,312,22,23,63,229,20,24,24,162,09*7B
$GPGSV,4,3,16,25,78,319,36,28,09,275,16,29,21,001,21,36,52,277,*71
$GPGSV,4,4,16,40,86,351,40,41,58,082,,49,32,274,,50,10,089,*7D
$GLGSV,3,1,09,65,03,202,,70,10,047,,71,42,085,34,72,42,160,19*6D
$GLGSV,3,2,09,74,22,165,,75,63,215,22,76,34,311,19,86,08,349,*68
$GLGSV,3,3,09,87,05,307,17*54
$GNGLL,0419.72092,S,05539.84289,E,073117.00,A,A*6E
$GNRMC,073118.00,A,0419.72075,S,05539.84299,E,0.054,,220525,,,A*73
$GNVTG,,T,,M,0.054,N,0.100,K,A*3D
$GNGGA,073118.00,0419.72075,S,05539.84299,E,1,12,0.73,22.2,M,-47.6,M,,*41
$GNGSA,A,3,25,12,23,15,18,05,24,29,10,13,,,1.39,0.73,1.18*18
$GNGSA,A,3,75,71,72,76,,,,,,,,,1.39,0.73,1.18*1B
$GPGSV,4,1,16,05,23,029,22,10,21,216,18,12,64,136,29,13,11,089,11*77
$GPGSV,4,2,16,15,44,113,29,18,27,312,22,23,63,229,21,24,24,162,09*7A
$GPGSV,4,3,16,25,78,319,35,28,09,275,16,29,21,001,20,36,52,277,*73
$GPGSV,4,4,16,40,86,351,40,41,58,082,,49,32,274,,50,10,089,*7D
$GLGSV,3,1,09,65,03,202,,70,10,047,,71,42,085,34,72,42,160,19*6D
$GLGSV,3,2,09,74,22,165,,75,63,215,21,76,34,311,19,86,08,349,*6B
$GLGSV,3,3,09,87,05,307,17*54
$GNGLL,0419.72075,S,05539.84299,E,073118.00,A,A*69
$GNRMC,073119.00,A,0419.72063,S,05539.84297,E,0.156,,220525,,,A*78
$GNVTG,,T,,M,0.156,N,0.289,K,A*3C
$GNGGA,073119.00,0419.72063,S,05539.84297,E,1,12,0.78,21.8,M,-47.6,M,,*4B
$GNGSA,A,3,25,12,23,15,18,05,24,29,10,,,,1.53,0.78,1.32*15
$GNGSA,A,3,75,71,72,76,,,,,,,,,1.53,0.78,1.32*14
$GPGSV,4,1,16,05,23,029,22,10,21,216,18,12,64,136,29,13,11,089,10*76
$GPGSV,4,2,16,15,44,113,29,18,27,312,22,23,63,229,22,24,24,162,09*79
$GPGSV,4,3,16,25,78,319,35,28,09,275,17,29,21,001,20,36,52,277,*72
$GPGSV,4,4,16,40,86,351,40,41,58,082,,49,32,274,,50,10,089,*7D
$GLGSV,3,1,09,65,03,202,,70,10,047,,71,42,085,34,72,42,160,18*6C
$GLGSV,3,2,09,74,22,165,,75,63,215,20,76,34,311,19,86,08,349,*6A
$GLGSV,3,3,09,87,05,307,18*5B
$GNGLL,0419.72063,S,05539.84297,E,073119.00,A,A*61
$GNRMC,073120.00,A,0419.72063,S,05539.84285,E,0.299,,220525,,,A*71
$GNVTG,,T,,M,0.299,N,0.555,K,A*3A
$GNGGA,073120.00,0419.72063,S,05539.84285,E,1,12,0.73,20.9,M,-47.6,M,,*49
$GNGSA,A,3,25,12,23,15,18,05,24,29,10,13,,,1.39,0.73,1.18*18
$GNGSA,A,3,75,71,72,76,,,,,,,,,1.39,0.73,1.18*1B
$GPGSV,4,1,16,05,23,029,22,10,21,216,16,12,64,136,30,13,11,089,11*71
$GPGSV,4,2,16,15,44,113,29,18,27,312,23,23,63,229,21,24,24,162,09*7B
$GPGSV,4,3,16,25,78,319,35,28,09,275,18,29,21,001,21,36,52,277,*7C
$GPGSV,4,4,16,40,86,351,40,41,58,082,,49,32,274,,50,10,089,*7D
$GLGSV,3,1,09,65,03,202,,70,10,047,,71,42,085,35,72,42,160,18*6D
$GLGSV,3,2,09,74,22,165,,75,63,215,20,76,34,311,20,86,08,349,*60
$GLGSV,3,3,09,87,05,307,18*5B
$GNGLL,0419.72063,S,05539.84285,E,073120.00,A,A*68
$GNRMC,073121.00,A,0419.72055,S,05539.84289,E,0.328,,220525,,,A*72
$GNVTG,,T,,M,0.328,N,0.608,K,A*3A
$GNGGA,073121.00,0419.72055,S,05539.84289,E,1,12,0.85,20.9,M,-47.6,M,,*48
$GNGSA,A,3,25,12,23,15,18,05,29,10,,,,,1.71,0.85,1.49*1D
$GNGSA,A,3,75,71,72,76,,,,,,,,,1.71,0.85,1.49*1A
$GPGSV,4,1,16,05,23,029,22,10,21,216,16,12,64,136,30,13,11,089,11*71
$GPGSV,4,2,16,15,44,113,29,18,27,312,24,23,63,229,20,24,24,162,*74
$GPGSV,4,3,16,25,78,319,35,28,09,275,18,29,21,001,21,36,52,277,*7C
$GPGSV,4,4,16,40,86,351,40,41,58,082,,49,32,274,,50,10,089,*7D
$GLGSV,3,1,09,65,03,202,,70,10,047,,71,42,085,35,72,42,160,18*6D
$GLGSV,3,2,09,74,22,165,,75,63,215,19,76,34,311,22,86,08,349,*68
$GLGSV,3,3,09,87,05,307,17*54
$GNGLL,0419.72055,S,05539.84289,E,073121.00,A,A*60
$GNRMC,073122.00,A,0419.72062,S,05539.84276,E,0.322,,220525,,,A*7F
$GNVTG,,T,,M,0.322,N,0.596,K,A*34
$GNGGA,073122.00,0419.72062,S,05539.84276,E,1,12,0.90,20.2,M,-47.6,M,,*40
$GNGSA,A,3,25,12,23,15,18,05,29,10,,,,,1.77,0.90,1.52*15
$GNGSA,A,3,75,71,72,76,,,,,,,,,1.77,0.90,1.52*12
$GPGSV,4,1,16,05,22,029,23,10,21,216,16,12,64,136,30,13,11,089,12*72
$GPGSV,4,2,16,15,44,113,28,18,27,312,26,23,63,229,20,24,24,162,*77
$GPGSV,4,3,16,25,78,319,35,28,09,275,17,29,21,001,22,36,52,277,*70
$GPGSV,4,4,16,40,86,351,40,41,58,082,,49,32,274,,50,10,089,*7D
$GLGSV,3,1,09,65,03,202,,70,10,047,,71,42,085,36,72,42,160,18*6E
$GLGSV,3,2,09,74,22,165,,75,63,215,20,76,34,311,24,86,08,349,*64
$GLGSV,3,3,09,87,05,307,18*5B
$GNGLL,0419.72062,S,05539.84276,E,073122.00,A,A*67
$GNRMC,073123.00,A,0419.72055,S,05539.84274,E,0.326,,220525,,,A*7C
$GNVTG,,T,,M,0.326,N,0.603,K,A*3F
$GNGGA,073123.00,0419.72055,S,05539.84274,E,1,12,0.85,20.0,M,-47.6,M,,*41
$GNGSA,A,3,25,12,23,15,18,05,29,10,,,,,1.71,0.85,1.49*1D
$GNGSA,A,3,75,71,72,76,,,,,,,,,1.71,0.85,1.49*1A
$GPGSV,4,1,16,05,22,029,23,10,21,216,16,12,64,136,29,13,11,089,12*7A
$GPGSV,4,2,16,15,44,113,28,18,27,312,27,23,63,229,20,24,24,162,*76
$GPGSV,4,3,16,25,78,319,35,28,09,275,17,29,21,001,23,36,52,277,*71
$GPGSV,4,4,16,40,86,351,40,41,58,082,,49,32,274,,50,10,089,*7D
$GLGSV,3,1,09,65,03,202,,70,10,047,,71,42,085,36,72,42,160,18*6E
$GLGSV,3,2,09,74,22,165,,75,63,215,22,76,34,311,25,86,08,349,*67
$GLGSV,3,3,09,87,05,307,18*5B
$GNGLL,0419.72055,S,05539.84274,E,073123.00,A,A*60
$GNRMC,073124.00,A,0419.72056,S,05539.84271,E,0.336,,220525,,,A*7C
$GNVTG,,T,,M,0.336,N,0.623,K,A*3C
$GNGGA,073124.00,0419.72056,S,05539.84271,E,1,11,1.18,19.7,M,-47.6,M,,*4B
$GNGSA,A,3,25,12,23,15,18,05,29,,,,,,2.59,1.18,2.30*1D
$GNGSA,A,3,75,71,72,76,,,,,,,,,2.59,1.18,2.30*1B
$GPGSV,4,1,16,05,22,029,23,10,21,216,,12,64,136,29,13,11,089,12*7D
$GPGSV,4,2,16,15,44,113,28,18,27,312,27,23,63,229,21,24,24,162,*77
$GPGSV,4,3,16,25,78,319,35,28,09,275,17,29,21,001,24,36,52,277,*76
$GPGSV,4,4,16,40,86,351,41,41,58,082,,49,32,274,,50,10,089,*7C
$GLGSV,3,1,09,65,03,202,,70,10,047,,71,42,085,35,72,42,160,17*62
$GLGSV,3,2,09,74,22,165,,75,63,215,22,76,34,311,24,86,08,349,*66
$GLGSV,3,3,09,87,05,307,16*55
$GNGLL,0419.72056,S,05539.84271,E,073124.00,A,A*61
$GNRMC,073125.00,A,0419.72050,S,05539.84272,E,0.062,,220525,,,A*7A
$GNVTG,,T,,M,0.062,N,0.114,K,A*3D
$GNGGA,073125.00,0419.72050,S,05539.84272,E,1,11,1.18,19.7,M,-47.6,M,,*4F
$GNGSA,A,3,25,12,23,15,18,05,29,,,,,,2.59,1.18,2.30*1D
$GNGSA,A,3,75,71,72,76,,,,,,,,,2.59,1.18,2.30*1B
$GPGSV,4,1,16,05,22,029,23,10,21,216,,12,64,136,29,13,11,089,12*7D
$GPGSV,4,2,16,15,44,113,28,18,27,312,28,23,63,229,20,24,24,162,*79
$GPGSV,4,3,16,25,78,319,35,28,09,275,17,29,21,001,24,36,52,277,*76
$GPGSV,4,4,16,40,86,351,40,41,58,082,,49,32,274,,50,10,089,*7D
$GLGSV,3,1,09,65,03,202,,70,10,047,,71,42,085,35,72,42,160,17*62
$GLGSV,3,2,09,74,22,165,,75,63,215,21,76,34,311,24,86,08,349,*65
$GLGSV,3,3,09,87,05,307,15*56
$GNGLL,0419.72050,S,05539.84272,E,073125.00,A,A*65
$GNRMC,073126.00,A,0419.72054,S,05539.84271,E,0.202,,220525,,,A*7A
$GNVTG,,T,,M,0.202,N,0.375,K,A*3C
$GNGGA,073126.00,0419.72054,S,05539.84271,E,1,11,1.18,19.6,M,-47.6,M,,*4A
$GNGSA,A,3,25,12,23,15,18,05,29,,,,,,2.59,1.18,2.30*1D
$GNGSA,A,3,75,71,72,76,,,,,,,,,2.59,1.18,2.30*1B
$GPGSV,4,1,16,05,22,029,23,10,21,216,,12,64,136,29,13,11,089,08*76
$GPGSV,4,2,16,15,44,113,28,18,27,312,28,23,63,229,20,24,24,162,*79
$GPGSV,4,3,16,25,78,319,35,28,09,275,18,29,21,001,25,36,52,277,*78
$GPGSV,4,4,16,40,86,351,41,41,58,082,,49,32,274,,50,10,089,*7C
$GLGSV,3,1,09,65,03,202,,70,10,047,,71,42,085,35,72,42,160,17*62
$GLGSV,3,2,09,74,22,165,,75,63,215,20,76,34,311,25,86,08,349,*65
$GLGSV,3,3,09,87,05,307,13*50
