$GNRMC,072614.00,A,0419.73169,S,05539.83918,E,0.406,,220525,,,A*72
$GNVTG,,T,,M,0.406,N,0.752,K,A*3F
$GNGGA,072614.00,0419.73169,S,05539.83918,E,1,12,0.73,13.8,M,-47.6,M,,*4B
$GNGSA,A,3,25,12,23,15,18,05,24,29,10,13,,,1.37,0.73,1.16*18
$GNGSA,A,3,75,71,72,76,,,,,,,,,1.37,0.73,1.16*1B
$GPGSV,4,1,16,05,25,029,22,10,19,215,18,12,66,132,21,13,12,091,10*7C
$GPGSV,4,2,16,15,43,116,22,18,28,309,20,23,61,225,29,24,25,164,22*7C
$GPGSV,4,3,16,25,76,325,25,28,09,277,,29,20,359,21,36,52,277,*78
$GPGSV,4,4,16,40,86,351,33,41,58,082,,49,32,274,,50,10,089,*79
$GLGSV,3,1,09,65,02,203,,70,12,049,,71,42,089,20,72,40,162,27*65
$GLGSV,3,2,09,74,24,165,,75,65,220,33,76,32,314,20,86,09,346,*69
$GLGSV,3,3,09,87,05,304,*51
$GNGLL,0419.73169,S,05539.83918,E,072614.00,A,A*6B
$GNRMC,072615.00,A,0419.73191,S,05539.83934,E,0.780,,220525,,,A*77
$GNVTG,,T,,M,0.780,N,1.445,K,A*36
$GNGGA,072615.00,0419.73191,S,05539.83934,E,1,12,0.73,14.6,M,-47.6,M,,*4A
$GNGSA,A,3,25,12,23,15,18,05,24,29,10,13,,,1.37,0.73,1.16*18
$GNGSA,A,3,75,71,72,76,,,,,,,,,1.37,0.73,1.16*1B
$GPGSV,4,1,16,05,25,029,20,10,19,215,17,12,66,132,21,13,12,091,10*71
$GPGSV,4,2,16,15,43,116,19,18,28,309,21,23,61,225,26,24,25,164,22*7A
$GPGSV,4,3,16,25,76,325,23,28,09,277,,29,20,359,18,36,52,277,*74
$GPGSV,4,4,16,40,86,351,32,41,58,082,,49,32,274,,50,10,089,*78
$GLGSV,3,1,09,65,02,203,,70,12,049,,71,42,089,17,72,40,162,24*62
$GLGSV,3,2,09,74,24,165,,75,65,220,27,76,32,314,21,86,09,347,*6C
$GLGSV,3,3,09,87,05,304,*51
$GNGLL,0419.73191,S,05539.83934,E,072615.00,A,A*63
$GNRMC,072616.00,A,0419.73195,S,05539.83953,E,0.653,,220525,,,A*7E
$GNVTG,,T,,M,0.653,N,1.208,K,A*36
$GNGGA,072616.00,0419.73195,S,05539.83953,E,1,12,0.73,15.2,M,-47.6,M,,*49
$GNGSA,A,3,25,12,23,15,18,05,24,29,10,13,,,1.37,0.73,1.16*18
$GNGSA,A,3,75,71,72,76,,,,,,,,,1.37,0.73,1.16*1B
$GPGSV,4,1,16,05,25,029,19,10,19,215,18,12,66,132,20,13,12,091,10*75
$GPGSV,4,2,16,15,43,116,20,18,28,309,20,23,61,225,31,24,25,164,21*74
$GPGSV,4,3,16,25,76,325,22,28,09,277,,29,20,359,18,36,52,277,*75
$GPGSV,4,4,16,40,86,351,,41,58,082,,49,32,274,,50,10,089,*79
$GLGSV,3,1,09,65,02,203,,70,12,049,,71,42,089,15,72,40,162,22*66
$GLGSV,3,2,09,74,24,165,,75,65,220,26,76,32,314,18,86,09,347,*67
$GLGSV,3,3,09,87,05,305,*50
$GNGLL,0419.73195,S,05539.83953,E,072616.00,A,A*65
$GNRMC,072617.00,A,0419.73199,S,05539.83944,E,0.293,,220525,,,A*7D
$GNVTG,,T,,M,0.293,N,0.542,K,A*36
$GNGGA,072617.00,0419.73199,S,05539.83944,E,1,12,0.73,15.6,M,-47.6,M,,*46
$GNGSA,A,3,25,12,23,15,18,05,24,29,10,13,,,1.37,0.73,1.16*18
$GNGSA,A,3,75,71,72,76,,,,,,,,,1.37,0.73,1.16*1B
$GPGSV,4,1,16,05,25,029,20,10,19,215,15,12,66,132,29,13,12,091,10*7B
$GPGSV,4,2,16,15,43,116,29,18,28,309,22,23,61,225,24,24,25,164,20*7A
$GPGSV,4,3,16,25,76,325,22,28,09,277,,29,20,359,18,36,52,277,*75
$GPGSV,4,4,16,40,86,351,,41,58,082,,49,32,274,,50,10,089,*79
$GLGSV,3,1,09,65,02,203,,70,12,049,,71,42,089,26,72,40,162,19*6E
$GLGSV,3,2,09,74,24,165,,75,65,220,25,76,32,314,18,86,09,347,*64
$GLGSV,3,3,09,87,05,305,*50
$GNGLL,0419.73199,S,05539.83944,E,072617.00,A,A*6E
$GNRMC,072618.00,A,0419.73187,S,05539.83957,E,0.052,,220525,,,A*70
$GNVTG,,T,,M,0.052,N,0.096,K,A*35
$GNGGA,072618.00,0419.73187,S,05539.83957,E,1,12,0.73,16.3,M,-47.6,M,,*42
$GNGSA,A,3,25,12,23,15,18,05,24,29,10,13,,,1.37,0.73,1.16*18
$GNGSA,A,3,75,71,72,76,,,,,,,,,1.37,0.73,1.16*1B
$GPGSV,4,1,16,05,25,029,22,10,19,215,14,12,66,132,28,13,12,091,11*78
$GPGSV,4,2,16,15,43,116,28,18,28,309,23,23,61,225,22,24,25,164,20*7C
$GPGSV,4,3,16,25,76,325,30,28,09,277,,29,20,359,20,36,52,277,*7D
$GPGSV,4,4,16,40,86,351,,41,58,082,,49,32,274,,50,10,089,*79
$GLGSV,3,1,09,65,02,203,,70,12,049,,71,42,089,27,72,40,162,17*61
$GLGSV,3,2,09,74,24,165,,75,65,220,25,76,32,314,28,86,09,347,*67
$GLGSV,3,3,09,87,05,305,*50
$GNGLL,0419.73187,S,05539.83957,E,072618.00,A,A*6C
$GNRMC,072619.00,A,0419.73133,S,05539.83995,E,1.314,,220525,,,A*70
$GNVTG,,T,,M,1.314,N,2.433,K,A*3C
$GNGGA,072619.00,0419.73133,S,05539.83995,E,1,12,0.73,16.2,M,-47.6,M,,*43
$GNGSA,A,3,25,12,23,15,18,05,24,29,10,13,,,1.37,0.73,1.16*18
$GNGSA,A,3,75,71,72,76,,,,,,,,,1.37,0.73,1.16*1B
$GPGSV,4,1,16,05,25,029,24,10,19,215,16,12,66,132,26,13,12,091,11*72
$GPGSV,4,2,16,15,43,116,17,18,28,309,24,23,61,225,21,24,25,164,18*7F
$GPGSV,4,3,16,25,76,325,23,28,09,277,,29,20,359,19,36,52,277,*75
$GPGSV,4,4,16,40,86,351,,41,58,082,,49,32,274,,50,10,089,*79
$GLGSV,3,1,09,65,02,203,,70,12,049,,71,42,089,25,72,40,162,17*63
$GLGSV,3,2,09,74,24,165,,75,65,220,31,76,32,314,18,86,09,347,*61
$GLGSV,3,3,09,87,05,305,*50
$GNGLL,0419.73133,S,05539.83995,E,072619.00,A,A*6C
$GNRMC,072620.00,A,0419.73140,S,05539.84011,E,0.634,,220525,,,A*7A
$GNVTG,,T,,M,0.634,N,1.175,K,A*3E
$GNGGA,072620.00,0419.73140,S,05539.84011,E,1,12,0.73,16.7,M,-47.6,M,,*4A
$GNGSA,A,3,25,12,23,15,18,05,24,29,10,13,,,1.37,0.73,1.16*18
$GNGSA,A,3,75,71,72,76,,,,,,,,,1.37,0.73,1.16*1B
$GPGSV,4,1,16,05,25,029,22,10,19,215,17,12,66,132,27,13,12,091,11*74
$GPGSV,4,2,16,15,43,116,29,18,28,309,24,23,61,225,19,24,25,164,15*74
$GPGSV,4,3,16,25,76,325,22,28,09,277,,29,20,359,20,36,52,277,*7E
$GPGSV,4,4,16,40,86,351,,41,58,082,,49,32,274,,50,10,089,*79
$GLGSV,3,1,09,65,02,203,,70,12,049,,71,42,089,23,72,40,162,16*64
$GLGSV,3,2,09,74,24,165,,75,65,220,29,76,32,314,18,86,09,347,*68
$GLGSV,3,3,09,87,05,305,*50
$GNGLL,0419.73140,S,05539.84011,E,072620.00,A,A*60
$GNRMC,072621.00,A,0419.73144,S,05539.84015,E,0.203,,220525,,,A*7B
$GNVTG,,T,,M,0.203,N,0.375,K,A*3D
$GNGGA,072621.00,0419.73144,S,05539.84015,E,1,12,0.76,17.1,M,-47.6,M,,*49
$GNGSA,A,3,25,12,23,15,18,05,24,10,13,,,,1.41,0.76,1.19*18
$GNGSA,A,3,75,71,72,76,,,,,,,,,1.41,0.76,1.19*10
$GPGSV,4,1,16,05,25,029,20,10,19,215,17,12,66,132,27,13,12,091,10*77
$GPGSV,4,2,16,15,43,116,28,18,28,309,21,23,61,225,17,24,25,164,14*7F
$GPGSV,4,3,16,25,76,325,22,28,09,277,,29,20,359,23,36,52,277,*7D
$GPGSV,4,4,16,40,86,351,,41,58,082,,49,32,274,,50,10,089,*79
$GLGSV,3,1,09,65,02,203,,70,12,049,,71,42,089,21,72,40,162,14*64
$GLGSV,3,2,09,74,24,165,,75,65,220,28,76,32,314,18,86,09,347,*69
$GLGSV,3,3,09,87,05,305,*50
$GNGLL,0419.73144,S,05539.84015,E,072621.00,A,A*61
$GNRMC,072622.00,A,0419.73131,S,05539.84023,E,0.228,,220525,,,A*76
$GNVTG,,T,,M,0.228,N,0.422,K,A*31
$GNGGA,072622.00,0419.73131,S,05539.84023,E,1,12,0.82,17.6,M,-47.6,M,,*41
$GNGSA,A,3,25,12,23,15,18,05,24,10,,,,,1.59,0.82,1.36*15
$GNGSA,A,3,75,71,72,76,,,,,,,,,1.59,0.82,1.36*1F
$GPGSV,4,1,16,05,25,029,20,10,19,215,15,12,66,132,26,13,12,091,*75
$GPGSV,4,2,16,15,43,116,30,18,28,309,19,23,61,225,17,24,25,164,13*7A
$GPGSV,4,3,16,25,76,325,23,28,09,277,,29,20,359,20,36,52,277,*7F
$GPGSV,4,4,16,40,86,351,,41,58,082,,49,32,274,,50,10,089,*79
$GLGSV,3,1,09,65,02,203,,70,12,049,,71,42,089,21,72,40,162,13*63
$GLGSV,3,2,09,74,24,165,,75,65,220,28,76,32,314,20,86,09,347,*62
$GLGSV,3,3,09,87,05,305,*50
$GNGLL,0419.73131,S,05539.84023,E,072622.00,A,A*65
$GNRMC,072623.00,A,0419.73114,S,05539.84037,E,0.374,,220525,,,A*7D
$GNVTG,,T,,M,0.374,N,0.693,K,A*31
$GNGGA,072623.00,0419.73114,S,05539.84037,E,1,12,0.82,18.1,M,-47.6,M,,*4A
$GNGSA,A,3,25,12,23,15,18,05,24,10,,,,,1.59,0.82,1.36*15
$GNGSA,A,3,75,71,72,76,,,,,,,,,1.59,0.82,1.36*1F
$GPGSV,4,1,16,05,25,029,18,10,19,215,14,12,66,132,26,13,12,091,*7F
$GPGSV,4,2,16,15,43,116,31,18,28,309,19,23,61,225,14,24,25,164,13*78
$GPGSV,4,3,16,25,76,325,24,28,09,277,,29,20,359,18,36,52,277,*73
$GPGSV,4,4,16,40,86,351,,41,58,082,,49,32,274,,50,10,089,*79
$GLGSV,3,1,09,65,02,203,,70,12,049,,71,42,089,20,72,40,162,13*62
$GLGSV,3,2,09,74,24,165,,75,65,220,26,76,32,314,21,86,09,347,*6D
$GLGSV,3,3,09,87,05,305,*50
$GNGLL,0419.73114,S,05539.84037,E,072623.00,A,A*66
$GNRMC,072624.00,A,0419.73132,S,05539.84038,E,0.070,,220525,,,A*76
$GNVTG,,T,,M,0.070,N,0.129,K,A*30
$GNGGA,072624.00,0419.73132,S,05539.84038,E,1,12,0.82,17.9,M,-47.6,M,,*41
$GNGSA,A,3,25,12,23,15,18,05,24,10,,,,,1.59,0.82,1.36*15
$GNGSA,A,3,75,71,72,76,,,,,,,,,1.59,0.82,1.36*1F
$GPGSV,4,1,16,05,25,029,18,10,19,215,11,12,66,132,26,13,12,091,*7A
$GPGSV,4,2,16,15,43,116,30,18,28,309,19,23,61,225,13,24,25,164,12*7F
$GPGSV,4,3,16,25,76,325,24,28,09,277,,29,20,359,16,36,52,277,*7D
$GPGSV,4,4,16,40,86,351,,41,58,082,,49,32,274,,50,10,089,*79
$GLGSV,3,1,09,65,02,203,,70,12,049,,71,42,089,18,72,40,162,11*6B
$GLGSV,3,2,09,74,24,165,,75,65,220,24,76,32,314,18,86,09,347,*65
$GLGSV,3,3,09,87,05,305,*50
$GNGLL,0419.73132,S,05539.84038,E,072624.00,A,A*6A
$GNRMC,072625.00,A,0419.73149,S,05539.84026,E,0.357,,220525,,,A*72
$GNVTG,,T,,M,0.357,N,0.661,K,A*3D
$GNGGA,072625.00,0419.73149,S,05539.84026,E,1,12,0.80,18.0,M,-47.6,M,,*47
$GNGSA,A,3,25,12,23,15,18,05,24,29,10,,,,1.53,0.80,1.30*10
$GNGSA,A,3,75,71,76,,,,,,,,,,1.53,0.80,1.30*14
$GPGSV,4,1,16,05,25,029,18,10,19,215,10,12,66,132,26,13,12,091,*7B
$GPGSV,4,2,16,15,43,116,20,18,28,309,20,23,61,225,14,24,25,164,12*73
$GPGSV,4,3,16,25,76,325,25,28,09,277,,29,20,359,16,36,52,277,*7C
$GPGSV,4,4,16,40,86,351,,41,58,082,,49,32,274,,50,10,089,*79
$GLGSV,3,1,09,65,02,203,,70,12,049,,71,42,089,20,72,40,162,08*68
$GLGSV,3,2,09,74,24,165,,75,65,220,22,76,32,314,18,86,09,347,*63
$GLGSV,3,3,09,87,05,305,*50
$GNGLL,0419.73149,S,05539.84026,E,072625.00,A,A*68
$GNRMC,072626.00,A,0419.73139,S,05539.84013,E,0.648,,220525,,,A*7B
$GNVTG,,T,,M,0.648,N,1.200,K,A*34
$GNGGA,072626.00,0419.73139,S,05539.84013,E,1,11,0.96,17.6,M,-47.6,M,,*48
$GNGSA,A,3,25,12,23,15,18,05,24,29,,,,,1.86,0.96,1.59*11
$GNGSA,A,3,75,71,76,,,,,,,,,,1.86,0.96,1.59*14
$GPGSV,4,1,16,05,25,029,19,10,19,215,08,12,66,132,24,13,12,091,*71
$GPGSV,4,2,16,15,43,116,18,18,28,309,19,23,61,225,17,24,25,164,12*71
$GPGSV,4,3,16,25,76,325,23,28,09,277,,29,20,359,18,36,52,277,*74
$GPGSV,4,4,16,40,86,351,,41,58,082,,49,32,274,,50,10,089,*79
$GLGSV,3,1,09,65,02,203,,70,12,049,,71,42,089,23,72,40,162,08*6B
$GLGSV,3,2,09,74,24,165,,75,65,220,21,76,32,314,19,86,09,347,*61
$GLGSV,3,3,09,87,05,305,*50
$GNGLL,0419.73139,S,05539.84013,E,072626.00,A,A*6A
$GNRMC,072627.00,A,0419.73144,S,05539.83983,E,0.771,,220525,,,A*7C
$GNVTG,,T,,M,0.771,N,1.428,K,A*33
$GNGGA,072627.00,0419.73144,S,05539.83983,E,1,12,0.91,17.6,M,-47.6,M,,*40
$GNGSA,A,3,25,12,23,15,18,05,24,29,,,,,1.80,0.91,1.55*1C
$GNGSA,A,3,75,71,72,76,,,,,,,,,1.80,0.91,1.55*1C
$GPGSV,4,1,16,05,25,029,19,10,19,215,,12,66,132,24,13,12,091,14*7C
$GPGSV,4,2,16,15,43,116,18,18,28,309,17,23,61,225,19,24,25,164,12*71
$GPGSV,4,3,16,25,76,325,22,28,09,277,,29,20,359,19,36,52,277,*74
$GPGSV,4,4,16,40,86,351,,41,58,082,,49,32,274,,50,10,089,*79
$GLGSV,3,1,09,65,02,203,,70,12,049,,71,42,089,24,72,40,162,08*6C
$GLGSV,3,2,09,74,24,165,,75,65,220,23,76,32,314,18,86,09,347,*62
$GLGSV,3,3,09,87,05,305,*50
$GNGLL,0419.73144,S,05539.83983,E,072627.00,A,A*66
$GNRMC,072628.00,A,0419.73113,S,05539.83966,E,1.077,,220525,,,A*7A
$GNVTG,,T,,M,1.077,N,1.994,K,A*39
$GNGGA,072628.00,0419.73113,S,05539.83966,E,1,12,0.91,17.7,M,-47.6,M,,*47
$GNGSA,A,3,25,12,23,15,18,05,24,29,,,,,1.80,0.91,1.55*1C
$GNGSA,A,3,75,71,72,76,,,,,,,,,1.80,0.91,1.55*1C
$GPGSV,4,1,16,05,25,029,19,10,19,215,20,12,66,132,25,13,12,091,13*78
$GPGSV,4,2,16,15,43,116,20,18,28,309,16,23,61,225,24,24,25,164,17*70
$GPGSV,4,3,16,25,76,325,22,28,09,277,,29,20,359,19,36,52,277,*74
$GPGSV,4,4,16,40,86,351,,41,58,082,,49,32,274,,50,10,089,*79
$GLGSV,3,1,09,65,02,203,,70,12,049,,71,42,089,24,72,40,162,08*6C
$GLGSV,3,2,09,74,24,165,,75,65,220,24,76,32,314,17,86,09,347,*6A
$GLGSV,3,3,09,87,05,305,*50
$GNGLL,0419.73113,S,05539.83966,E,072628.00,A,A*60
$GNRMC,072629.00,A,0419.73171,S,05539.83881,E,1.723,,220525,,,A*71
$GNVTG,,T,,M,1.723,N,3.191,K,A*30
$GNGGA,072629.00,0419.73171,S,05539.83881,E,1,11,0.96,17.9,M,-47.6,M,,*40
$GNGSA,A,3,25,12,23,15,18,05,24,29,,,,,1.84,0.96,1.56*1C
$GNGSA,A,3,75,71,72,,,,,,,,,,1.84,0.96,1.56*1D
$GPGSV,4,1,16,05,25,029,19,10,19,215,17,12,65,133,29,13,12,091,11*70
$GPGSV,4,2,16,15,43,116,20,18,28,309,16,23,61,225,22,24,25,164,17*76
$GPGSV,4,3,16,25,76,325,23,28,09,277,,29,20,359,17,36,52,277,*7B
$GPGSV,4,4,16,40,86,351,,41,58,082,,49,32,274,,50,10,089,*79
$GLGSV,3,1,09,65,02,203,,70,12,049,,71,42,089,20,72,40,162,10*61
$GLGSV,3,2,09,74,24,165,,75,65,220,21,76,32,314,,86,09,347,*69
$GLGSV,3,3,09,87,05,305,*50
$GNGLL,0419.73171,S,05539.83881,E,072629.00,A,A*6D
$GNRMC,072630.00,A,0419.73207,S,05539.83856,E,1.446,,220525,,,A*71
$GNVTG,,T,,M,1.446,N,2.679,K,A*30
$GNGGA,072630.00,0419.73207,S,05539.83856,E,1,11,0.96,17.9,M,-47.6,M,,*40
$GNGSA,A,3,25,12,23,15,18,05,24,29,,,,,1.84,0.96,1.56*1C
$GNGSA,A,3,75,71,72,,,,,,,,,,1.84,0.96,1.56*1D
$GPGSV,4,1,16,05,25,029,20,10,19,215,15,12,65,133,27,13,12,091,10*77
$GPGSV,4,2,16,15,43,116,21,18,28,309,16,23,61,225,20,24,25,164,15*77
$GPGSV,4,3,16,25,76,325,24,28,09,277,,29,20,359,17,36,52,277,*7C
$GPGSV,4,4,16,40,86,351,,41,58,082,,49,32,274,,50,10,089,*79
$GLGSV,3,1,09,65,02,203,,70,12,049,,71,42,089,18,72,40,162,10*6A
$GLGSV,3,2,09,74,24,165,,75,65,220,18,76,32,314,,86,09,347,*63
$GLGSV,3,3,09,87,05,305,*50
$GNGLL,0419.73207,S,05539.83856,E,072630.00,A,A*6D
$GNRMC,072631.00,A,0419.73194,S,05539.83856,E,0.782,,220525,,,A*73
$GNVTG,,T,,M,0.782,N,1.449,K,A*38
$GNGGA,072631.00,0419.73194,S,05539.83856,E,1,11,0.96,17.9,M,-47.6,M,,*48
$GNGSA,A,3,25,12,23,15,18,05,24,29,,,,,1.84,0.96,1.56*1C
$GNGSA,A,3,75,71,72,,,,,,,,,,1.84,0.96,1.56*1D
$GPGSV,4,1,16,05,25,029,19,10,19,215,12,12,65,133,28,13,12,091,09*7D
$GPGSV,4,2,16,15,43,116,22,18,28,309,17,23,61,225,18,24,25,164,13*78
$GPGSV,4,3,16,25,76,325,23,28,09,277,,29,20,359,16,36,52,277,*7A
$GPGSV,4,4,16,40,86,351,,41,58,082,,49,32,274,,50,10,089,*79
$GLGSV,3,1,09,65,02,203,,70,12,049,,71,42,089,20,72,40,162,10*61
$GLGSV,3,2,09,74,24,165,,75,65,220,15,76,32,314,,86,09,347,*6E
$GLGSV,3,3,09,87,05,305,*50
$GNGLL,0419.73194,S,05539.83856,E,072631.00,A,A*65
$GNRMC,072632.00,A,0419.73190,S,05539.83875,E,0.331,,220525,,,A*79
$GNVTG,,T,,M,0.331,N,0.612,K,A*39
$GNGGA,072632.00,0419.73190,S,05539.83875,E,1,11,0.96,18.0,M,-47.6,M,,*48
$GNGSA,A,3,25,12,23,15,18,05,24,29,,,,,1.84,0.96,1.56*1C
$GNGSA,A,3,75,71,72,,,,,,,,,,1.84,0.96,1.56*1D
$GPGSV,4,1,16,05,25,029,17,10,19,215,11,12,65,133,28,13,12,091,09*70
$GPGSV,4,2,16,15,43,116,22,18,28,309,19,23,61,225,16,24,25,164,09*73
$GPGSV,4,3,16,25,76,325,22,28,09,277,,29,20,359,16,36,52,277,*7B
$GPGSV,4,4,16,40,86,351,,41,58,082,,49,32,274,,50,10,089,*79
$GLGSV,3,1,09,65,02,203,,70,12,049,,71,42,089,19,72,40,162,10*6B
$GLGSV,3,2,09,74,24,165,,75,65,220,14,76,32,314,,86,09,347,*6F
$GLGSV,3,3,09,87,05,305,*50
$GNGLL,0419.73190,S,05539.83875,E,072632.00,A,A*63
$GNRMC,072633.00,A,0419.73171,S,05539.83901,E,0.296,,220525,,,A*79
$GNVTG,,T,,M,0.296,N,0.547,K,A*36
$GNGGA,072633.00,0419.73171,S,05539.83901,E,1,11,0.96,18.2,M,-47.6,M,,*46
$GNGSA,A,3,25,12,23,15,18,05,24,29,,,,,1.84,0.96,1.56*1C
$GNGSA,A,3,75,71,72,,,,,,,,,,1.84,0.96,1.56*1D
$GPGSV,4,1,16,05,25,029,17,10,19,215,10,12,65,133,30,13,12,091,08*79
$GPGSV,4,2,16,15,43,116,21,18,28,309,19,23,61,225,14,24,25,164,11*7B
$GPGSV,4,3,16,25,76,325,23,28,09,277,,29,20,359,14,36,52,277,*78
$GPGSV,4,4,16,40,86,351,,41,58,082,,49,32,274,,50,10,089,*79
$GLGSV,3,1,09,65,02,203,,70,12,049,,71,42,089,17,72,40,162,15*60
$GLGSV,3,2,09,74,24,165,,75,65,220,13,76,32,314,21,86,09,347,*6B
$GLGSV,3,3,09,87,05,305,*50
$GNGLL,0419.73171,S,05539.83901,E,072633.00,A,A*6F
$GNRMC,072634.00,A,0419.73155,S,05539.83952,E,0.736,,220525,,,A*71
$GNVTG,,T,,M,0.736,N,1.362,K,A*39
$GNGGA,072634.00,0419.73155,S,05539.83952,E,1,10,1.16,18.4,M,-47.6,M,,*4F
$GNGSA,A,3,25,12,23,15,18,05,29,,,,,,2.44,1.16,2.14*19
$GNGSA,A,3,75,71,72,,,,,,,,,,2.44,1.16,2.14*1E
$GPGSV,4,1,16,05,25,029,17,10,19,215,08,12,65,133,24,13,12,091,08*75
$GPGSV,4,2,16,15,43,116,20,18,28,309,16,23,61,225,16,24,25,164,09*7E
$GPGSV,4,3,16,25,76,325,23,28,09,277,,29,20,359,16,36,52,277,*7A
$GPGSV,4,4,16,40,86,351,,41,58,082,,49,32,274,,50,10,089,*79
$GLGSV,3,1,09,65,02,203,,70,12,049,,71,42,089,16,72,40,162,15*61
$GLGSV,3,2,09,74,24,165,,75,65,220,12,76,32,314,19,86,09,347,*61
$GLGSV,3,3,09,87,05,305,*50
$GNGLL,0419.73155,S,05539.83952,E,072634.00,A,A*68
$GNRMC,072635.00,A,0419.73159,S,05539.83966,E,0.582,,220525,,,A*76
$GNVTG,,T,,M,0.582,N,1.078,K,A*3C
$GNGGA,072635.00,0419.73159,S,05539.83966,E,1,10,1.16,18.6,M,-47.6,M,,*47
$GNGSA,A,3,25,12,23,15,18,05,29,,,,,,2.44,1.16,2.14*19
$GNGSA,A,3,75,71,72,,,,,,,,,,2.44,1.16,2.14*1E
$GPGSV,4,1,16,05,25,029,17,10,19,215,08,12,65,133,25,13,12,091,08*74
$GPGSV,4,2,16,15,43,116,24,18,27,310,15,23,61,225,19,24,25,164,08*70
$GPGSV,4,3,16,25,76,325,25,28,09,277,,29,20,359,18,36,52,277,*72
$GPGSV,4,4,16,40,86,351,,41,58,082,,49,32,274,,50,10,089,*79
$GLGSV,3,1,09,65,02,203,,70,12,049,,71,42,089,16,72,40,162,15*61
$GLGSV,3,2,09,74,24,165,,75,65,220,16,76,32,314,17,86,09,347,*6B
$GLGSV,3,3,09,87,05,305,*50
$GNGLL,0419.73159,S,05539.83966,E,072635.00,A,A*62
$GNRMC,072636.00,A,0419.73123,S,05539.83995,E,0.835,,220525,,,A*75
$GNVTG,,T,,M,0.835,N,1.547,K,A*34
$GNGGA,072636.00,0419.73123,S,05539.83995,E,1,10,1.16,18.8,M,-47.6,M,,*4B
$GNGSA,A,3,25,12,23,15,18,05,29,,,,,,2.44,1.16,2.14*19
$GNGSA,A,3,75,71,72,,,,,,,,,,2.44,1.16,2.14*1E
$GPGSV,4,1,16,05,25,029,16,10,19,215,08,12,65,133,26,13,12,091,08*76
$GPGSV,4,2,16,15,43,116,26,18,27,310,15,23,61,225,21,24,25,164,08*79
$GPGSV,4,3,16,25,76,325,26,28,09,277,,29,20,359,19,36,52,277,*70
$GPGSV,4,4,16,40,86,351,,41,58,082,,49,32,274,,50,10,089,*79
$GLGSV,3,1,09,65,02,203,,70,12,049,,71,42,089,15,72,40,162,15*62
$GLGSV,3,2,09,74,24,165,,75,65,220,19,76,32,314,16,86,09,347,*65
$GLGSV,3,3,09,87,05,305,*50
$GNGLL,0419.73123,S,05539.83995,E,072636.00,A,A*60
$GNRMC,072637.00,A,0419.73161,S,05539.83991,E,0.671,,220525,,,A*78
$GNVTG,,T,,M,0.671,N,1.242,K,A*38
$GNGGA,072637.00,0419.73161,S,05539.83991,E,1,11,0.89,17.8,M,-47.6,M,,*41
$GNGSA,A,3,25,12,23,15,18,05,29,10,,,,,1.68,0.89,1.43*13
$GNGSA,A,3,75,71,72,,,,,,,,,,1.68,0.89,1.43*15
$GPGSV,4,1,16,05,25,029,14,10,19,215,10,12,65,133,31,13,12,091,08*7B
$GPGSV,4,2,16,15,43,116,26,18,27,310,19,23,61,225,24,24,25,164,08*70
$GPGSV,4,3,16,25,76,325,25,28,09,277,,29,20,359,19,36,52,277,*73
$GPGSV,4,4,16,40,86,351,,41,58,082,,49,32,274,,50,10,089,*79
$GLGSV,3,1,09,65,02,203,,70,12,049,,71,42,089,13,72,40,162,15*64
$GLGSV,3,2,09,74,24,165,,75,65,220,21,76,32,314,11,86,09,347,*69
$GLGSV,3,3,09,87,05,305,*50
$GNGLL,0419.73161,S,05539.83991,E,072637.00,A,A*63
$GNRMC,072638.00,A,0419.73159,S,05539.84017,E,0.603,,220525,,,A*79
$GNVTG,,T,,M,0.603,N,1.116,K,A*3F
$GNGGA,072638.00,0419.73159,S,05539.84017,E,1,11,0.96,18.0,M,-47.6,M,,*4C
$GNGSA,A,3,25,12,23,15,18,05,24,29,,,,,1.84,0.96,1.56*1C
$GNGSA,A,3,75,71,72,,,,,,,,,,1.84,0.96,1.56*1D
$GPGSV,4,1,16,05,25,029,14,10,19,215,,12,65,133,30,13,12,091,*73
$GPGSV,4,2,16,15,43,116,27,18,27,310,19,23,61,225,23,24,25,164,09*77
$GPGSV,4,3,16,25,76,325,26,28,09,277,,29,20,359,18,36,52,277,*71
$GPGSV,4,4,16,40,86,351,,41,58,082,,49,32,274,,50,10,089,*79
$GLGSV,3,1,09,65,02,203,,70,12,049,,71,42,089,13,72,40,162,15*64
$GLGSV,3,2,09,74,24,165,,75,65,220,23,76,32,314,10,86,09,347,*6A
$GLGSV,3,3,09,87,05,305,*50
$GNGLL,0419.73159,S,05539.84017,E,072638.00,A,A*67
$GNRMC,072639.00,A,0419.73207,S,05539.83986,E,0.259,,220525,,,A*7D
$GNVTG,,T,,M,0.259,N,0.479,K,A*39
$GNGGA,072639.00,0419.73207,S,05539.83986,E,1,12,0.91,17.9,M,-47.6,M,,*41
$GNGSA,A,3,25,12,23,15,18,05,24,29,,,,,1.80,0.91,1.55*1C
$GNGSA,A,3,75,71,72,76,,,,,,,,,1.80,0.91,1.55*1C
$GPGSV,4,1,16,05,25,029,15,10,19,215,,12,65,133,29,13,12,091,*7A
$GPGSV,4,2,16,15,43,116,26,18,27,310,18,23,61,226,23,24,25,164,09*74
$GPGSV,4,3,16,25,76,325,28,28,09,277,,29,20,359,18,36,52,277,*7F
$GPGSV,4,4,16,40,86,351,,41,58,082,,49,32,274,,50,10,089,*79
$GLGSV,3,1,09,65,02,203,,70,12,049,,71,42,089,17,72,40,162,10*65
$GLGSV,3,2,09,74,24,165,,75,65,220,22,76,32,314,15,86,09,347,*6E
$GLGSV,3,3,09,87,05,305,*50
$GNGLL,0419.73207,S,05539.83986,E,072639.00,A,A*68
$GNRMC,072640.00,A,0419.73195,S,05539.84029,E,0.261,,220525,,,A*7B
$GNVTG,,T,,M,0.261,N,0.484,K,A*30
$GNGGA,072640.00,0419.73195,S,05539.84029,E,1,12,0.91,18.5,M,-47.6,M,,*4F
$GNGSA,A,3,25,12,23,15,18,05,24,29,,,,,1.80,0.91,1.55*1C
$GNGSA,A,3,75,71,72,76,,,,,,,,,1.80,0.91,1.55*1C
$GPGSV,4,1,16,05,25,029,15,10,19,215,,12,65,133,29,13,12,091,*7A
$GPGSV,4,2,16,15,43,116,28,18,27,310,16,23,61,226,22,24,25,163,09*72
$GPGSV,4,3,16,25,76,325,28,28,09,277,,29,20,359,18,36,52,277,*7F
$GPGSV,4,4,16,40,86,351,,41,58,082,,49,32,274,,50,10,089,*79
$GLGSV,3,1,09,65,02,203,,70,12,049,,71,42,089,18,72,40,162,10*6A
$GLGSV,3,2,09,74,24,165,,75,65,220,20,76,32,314,17,86,09,347,*6E
$GLGSV,3,3,09,87,05,305,*50
$GNGLL,0419.73195,S,05539.84029,E,072640.00,A,A*65
$GNRMC,072641.00,A,0419.73183,S,05539.84049,E,0.453,,220525,,,A*7C
$GNVTG,,T,,M,0.453,N,0.839,K,A*3D
$GNGGA,072641.00,0419.73183,S,05539.84049,E,1,11,1.00,18.3,M,-47.6,M,,*43
$GNGSA,A,3,25,12,23,15,18,05,24,29,,,,,1.86,1.00,1.56*10
$GNGSA,A,3,75,72,76,,,,,,,,,,1.86,1.00,1.56*16
$GPGSV,4,1,16,05,25,029,16,10,19,215,,12,65,133,28,13,12,091,*78
$GPGSV,4,2,16,15,43,116,28,18,27,310,14,23,61,226,22,24,25,163,09*70
$GPGSV,4,3,16,25,76,324,28,28,09,277,,29,20,359,17,36,52,277,*71
$GPGSV,4,4,16,40,86,351,,41,58,082,,49,32,274,,50,10,089,*79
$GLGSV,3,1,09,65,02,203,,70,12,049,,71,42,089,,72,40,162,12*61
$GLGSV,3,2,09,74,24,165,,75,65,220,19,76,32,314,18,86,09,347,*6B
$GLGSV,3,3,09,87,05,305,*50
$GNGLL,0419.73183,S,05539.84049,E,072641.00,A,A*65
$GNRMC,072642.00,A,0419.73193,S,05539.84044,E,0.337,,220525,,,A*76
$GNVTG,,T,,M,0.337,N,0.624,K,A*3A
$GNGGA,072642.00,0419.73193,S,05539.84044,E,1,10,1.57,18.0,M,-47.6,M,,*4C
$GNGSA,A,3,25,12,23,15,18,05,24,29,,,,,3.27,1.57,2.87*14
$GNGSA,A,3,75,76,,,,,,,,,,,3.27,1.57,2.87*17
$GPGSV,4,1,16,05,25,029,18,10,19,215,,12,65,133,27,13,12,091,*79
$GPGSV,4,2,16,15,43,116,28,18,27,310,12,23,61,226,22,24,25,163,09*76
$GPGSV,4,3,16,25,76,324,28,28,09,277,,29,20,359,16,36,52,277,*70
$GPGSV,4,4,16,40,86,351,,41,58,082,,49,32,274,,50,10,089,*79
$GLGSV,3,1,09,65,02,203,,70,12,049,,71,42,089,19,72,40,162,*6A
$GLGSV,3,2,09,74,24,165,,75,65,220,20,76,32,314,19,86,09,347,*60
$GLGSV,3,3,09,87,05,305,*50
$GNGLL,0419.73193,S,05539.84044,E,072642.00,A,A*6A
$GNRMC,072643.00,A,0419.73193,S,05539.84052,E,0.149,,220525,,,A*7B
$GNVTG,,T,,M,0.149,N,0.277,K,A*33
$GNGGA,072643.00,0419.73193,S,05539.84052,E,1,10,1.04,18.4,M,-47.6,M,,*48
$GNGSA,A,3,25,12,23,15,18,05,24,29,,,,,1.91,1.04,1.60*17
$GNGSA,A,3,75,76,,,,,,,,,,,1.91,1.04,1.60*14
$GPGSV,4,1,16,05,25,029,19,10,19,215,,12,65,133,27,13,12,091,*78
$GPGSV,4,2,16,15,43,116,28,18,27,310,14,23,61,226,20,24,25,163,09*72
$GPGSV,4,3,16,25,76,324,28,28,09,277,,29,20,359,15,36,52,277,*73
$GPGSV,4,4,16,40,86,351,,41,58,082,,49,32,274,,50,10,089,*79
$GLGSV,3,1,09,65,02,203,,70,12,049,,71,42,089,20,72,40,162,*60
$GLGSV,3,2,09,74,24,165,,75,65,220,20,76,32,314,19,86,09,347,*60
$GLGSV,3,3,09,87,05,305,*50
$GNGLL,0419.73193,S,05539.84052,E,072643.00,A,A*6C
$GNRMC,072644.00,A,0419.73194,S,05539.84070,E,0.056,,220525,,,A*74
$GNVTG,,T,,M,0.056,N,0.104,K,A*3B
$GNGGA,072644.00,0419.73194,S,05539.84070,E,1,11,0.96,18.6,M,-47.6,M,,*41
$GNGSA,A,3,25,12,23,15,18,05,24,29,,,,,1.86,0.96,1.59*11
$GNGSA,A,3,75,71,76,,,,,,,,,,1.86,0.96,1.59*14
$GPGSV,4,1,16,05,25,029,18,10,19,215,,12,65,133,27,13,12,091,*79
$GPGSV,4,2,16,15,43,116,28,18,27,310,14,23,61,226,19,24,25,163,09*78
$GPGSV,4,3,16,25,76,324,28,28,09,277,,29,20,359,15,36,52,277,*73
$GPGSV,4,4,16,40,86,351,,41,58,082,,49,32,274,,50,10,089,*79
$GLGSV,3,1,09,65,02,203,,70,12,049,,71,42,089,23,72,40,162,*63
$GLGSV,3,2,09,74,24,165,,75,65,220,19,76,32,314,19,86,09,347,*6A
$GLGSV,3,3,09,87,05,305,*50
$GNGLL,0419.73194,S,05539.84070,E,072644.00,A,A*6C
$GNRMC,072645.00,A,0419.73177,S,05539.84089,E,0.041,,220525,,,A*78
$GNVTG,,T,,M,0.041,N,0.076,K,A*39
$GNGGA,072645.00,0419.73177,S,05539.84089,E,1,11,0.96,18.9,M,-47.6,M,,*44
$GNGSA,A,3,25,12,23,15,18,05,24,29,,,,,1.86,0.96,1.59*11
$GNGSA,A,3,75,71,76,,,,,,,,,,1.86,0.96,1.59*14
$GPGSV,4,1,16,05,25,029,18,10,19,215,,12,65,133,27,13,12,091,*79
$GPGSV,4,2,16,15,43,116,28,18,27,310,14,23,61,226,17,24,25,163,09*76
$GPGSV,4,3,16,25,76,324,28,28,09,277,,29,20,359,17,36,52,277,*71
$GPGSV,4,4,16,40,86,351,,41,58,082,,49,32,274,,50,10,089,*79
$GLGSV,3,1,09,65,02,203,,70,12,049,,71,42,089,24,72,40,162,*64
$GLGSV,3,2,09,74,24,165,,75,65,220,18,76,32,314,20,86,09,347,*61
$GLGSV,3,3,09,87,05,305,*50
$GNGLL,0419.73177,S,05539.84089,E,072645.00,A,A*66
$GNRMC,072646.00,A,0419.73191,S,05539.84087,E,0.309,,220525,,,A*72
$GNVTG,,T,,M,0.309,N,0.573,K,A*36
$GNGGA,072646.00,0419.73191,S,05539.84087,E,1,11,0.96,19.2,M,-47.6,M,,*4B
$GNGSA,A,3,25,12,23,15,18,05,24,29,,,,,1.86,0.96,1.59*11
$GNGSA,A,3,75,71,76,,,,,,,,,,1.86,0.96,1.59*14
$GPGSV,4,1,16,05,25,029,21,10,19,215,,12,65,133,26,13,12,091,*72
$GPGSV,4,2,16,15,43,116,26,18,27,310,16,23,61,226,17,24,25,163,09*7A
$GPGSV,4,3,16,25,76,324,28,28,09,277,,29,20,359,16,36,52,277,*70
$GPGSV,4,4,16,40,86,351,,41,58,082,,49,32,274,,50,10,089,*79
$GLGSV,3,1,09,65,02,203,,70,12,049,,71,42,089,23,72,40,162,*63
$GLGSV,3,2,09,74,24,165,,75,65,220,20,76,32,314,19,86,09,347,*60
$GLGSV,3,3,09,87,05,305,*50
$GNGLL,0419.73191,S,05539.84087,E,072646.00,A,A*63
$GNRMC,072647.00,A,0419.73150,S,05539.84127,E,0.553,,220525,,,A*7C
$GNVTG,,T,,M,0.553,N,1.024,K,A*39
$GNGGA,072647.00,0419.73150,S,05539.84127,E,1,11,0.96,19.9,M,-47.6,M,,*47
$GNGSA,A,3,25,12,23,15,18,05,24,29,,,,,1.86,0.96,1.59*11
$GNGSA,A,3,75,71,76,,,,,,,,,,1.86,0.96,1.59*14
$GPGSV,4,1,16,05,25,029,22,10,19,215,,12,65,133,24,13,12,091,*73
$GPGSV,4,2,16,15,43,116,25,18,27,310,18,23,61,226,14,24,25,163,09*74
$GPGSV,4,3,16,25,76,324,27,28,09,277,,29,20,359,14,36,52,277,*7D
$GPGSV,4,4,16,40,86,351,,41,58,082,,49,32,274,,50,10,089,*79
$GLGSV,3,1,09,65,02,203,,70,12,049,,71,42,089,23,72,40,162,*63
$GLGSV,3,2,09,74,24,165,,75,65,220,19,76,32,314,17,86,09,347,*64
$GLGSV,3,3,09,87,05,305,*50
$GNGLL,0419.73150,S,05539.84127,E,072647.00,A,A*64
$GNRMC,072648.00,A,0419.73122,S,05539.84159,E,0.820,,220525,,,A*76
$GNVTG,,T,,M,0.820,N,1.519,K,A*3B
$GNGGA,072648.00,0419.73122,S,05539.84159,E,1,11,1.52,20.4,M,-47.6,M,,*4A
$GNGSA,A,3,25,12,23,15,18,05,24,29,,,,,3.25,1.52,2.87*13
$GNGSA,A,3,75,71,76,,,,,,,,,,3.25,1.52,2.87*16
$GPGSV,4,1,16,05,25,029,21,10,19,215,,12,65,133,23,13,12,091,*77
$GPGSV,4,2,16,15,43,116,26,18,27,310,18,23,61,226,13,24,25,163,09*70
$GPGSV,4,3,16,25,76,324,27,28,09,277,,29,20,359,16,36,52,277,*7F
$GPGSV,4,4,16,40,86,351,,41,58,082,,49,32,274,,50,10,089,*79
$GLGSV,3,1,09,65,02,203,,70,12,049,,71,42,089,23,72,40,162,*63
$GLGSV,3,2,09,74,24,165,,75,65,220,18,76,32,314,14,86,09,347,*66
$GLGSV,3,3,09,87,05,305,*50
$GNGLL,0419.73122,S,05539.84159,E,072648.00,A,A*67
$GNRMC,072649.00,A,0419.73141,S,05539.84156,E,0.311,,220525,,,A*74
$GNVTG,,T,,M,0.311,N,0.576,K,A*3A
$GNGGA,072649.00,0419.73141,S,05539.84156,E,1,10,1.52,20.9,M,-47.6,M,,*4D
$GNGSA,A,3,25,12,23,15,18,05,29,,,,,,3.25,1.52,2.87*15
$GNGSA,A,3,75,71,76,,,,,,,,,,3.25,1.52,2.87*16
$GPGSV,4,1,16,05,25,029,21,10,19,215,,12,65,133,23,13,12,091,*77
$GPGSV,4,2,16,15,43,116,27,18,27,310,19,23,61,226,10,24,25,163,09*73
$GPGSV,4,3,16,25,76,324,28,28,09,277,,29,20,359,17,36,52,277,*71
$GPGSV,4,4,16,40,86,351,,41,58,082,,49,32,274,,50,10,089,*79
$GLGSV,3,1,09,65,02,203,,70,12,049,,71,42,089,22,72,40,162,20*60
$GLGSV,3,2,09,74,24,165,,75,65,220,19,76,32,314,15,86,09,347,*66
$GLGSV,3,3,09,87,05,305,*50
$GNGLL,0419.73141,S,05539.84156,E,072649.00,A,A*6C
$GNRMC,072650.00,A,0419.73156,S,05539.84147,E,0.061,,220525,,,A*7E
$GNVTG,,T,,M,0.061,N,0.113,K,A*39
$GNGGA,072650.00,0419.73156,S,05539.84147,E,1,10,1.52,20.9,M,-47.6,M,,*43
$GNGSA,A,3,25,12,23,15,18,05,29,,,,,,3.25,1.52,2.87*15
$GNGSA,A,3,75,71,76,,,,,,,,,,3.25,1.52,2.87*16
$GPGSV,4,1,16,05,25,029,22,10,19,215,,12,65,133,31,13,12,091,*77
$GPGSV,4,2,16,15,43,116,27,18,27,310,21,23,61,226,16,24,25,163,17*71
$GPGSV,4,3,16,25,76,324,29,28,09,277,,29,20,359,16,36,52,277,*71
$GPGSV,4,4,16,40,86,351,,41,58,082,,49,32,274,,50,10,089,*79
$GLGSV,3,1,09,65,02,203,,70,12,049,,71,42,089,22,72,40,162,19*6A
$GLGSV,3,2,09,74,24,165,,75,65,220,20,76,32,314,16,86,09,347,*6F
$GLGSV,3,3,09,87,05,305,*50
$GNGLL,0419.73156,S,05539.84147,E,072650.00,A,A*62
$GNRMC,072651.00,A,0419.73149,S,05539.84163,E,0.172,,220525,,,A*74
$GNVTG,,T,,M,0.172,N,0.319,K,A*32
$GNGGA,072651.00,0419.73149,S,05539.84163,E,1,10,1.52,21.4,M,-47.6,M,,*46
$GNGSA,A,3,25,12,23,15,18,05,29,,,,,,3.25,1.52,2.87*15
$GNGSA,A,3,75,71,76,,,,,,,,,,3.25,1.52,2.87*16
$GPGSV,4,1,16,05,25,029,22,10,19,215,,12,65,133,29,13,12,091,*7E
$GPGSV,4,2,16,15,43,116,28,18,27,310,22,23,61,226,16,24,25,163,*7B
$GPGSV,4,3,16,25,76,324,29,28,09,277,,29,20,359,15,36,52,277,*72
$GPGSV,4,4,16,40,86,351,,41,58,082,,49,32,274,,50,10,089,*79
$GLGSV,3,1,09,65,02,203,,70,12,049,,71,42,089,23,72,40,162,19*6B
$GLGSV,3,2,09,74,24,165,,75,65,220,21,76,32,314,17,86,09,347,*6F
$GLGSV,3,3,09,87,05,305,*50
$GNGLL,0419.73149,S,05539.84163,E,072651.00,A,A*6B
$GNRMC,072652.00,A,0419.73151,S,05539.84173,E,0.309,,220525,,,A*71
$GNVTG,,T,,M,0.309,N,0.573,K,A*36
$GNGGA,072652.00,0419.73151,S,05539.84173,E,1,11,1.12,21.2,M,-47.6,M,,*4E
$GNGSA,A,3,25,12,23,15,18,05,29,,,,,,2.41,1.12,2.13*1F
$GNGSA,A,3,75,71,72,76,,,,,,,,,2.41,1.12,2.13*19
$GPGSV,4,1,16,05,25,029,21,10,19,215,,12,65,133,28,13,12,091,*7C
$GPGSV,4,2,16,15,43,116,28,18,27,310,21,23,61,226,16,24,25,163,*78
$GPGSV,4,3,16,25,76,324,28,28,09,277,,29,20,359,16,36,52,277,*70
$GPGSV,4,4,16,40,86,351,,41,58,082,,49,32,274,,50,10,089,*79
$GLGSV,3,1,09,65,02,203,,70,12,049,,71,42,089,23,72,40,162,20*61
$GLGSV,3,2,09,74,24,165,,75,65,220,20,76,32,314,17,86,09,347,*6E
$GLGSV,3,3,09,87,05,305,*50
$GNGLL,0419.73151,S,05539.84173,E,072652.00,A,A*60
$GNRMC,072653.00,A,0419.73135,S,05539.84189,E,0.523,,220525,,,A*79
$GNVTG,,T,,M,0.523,N,0.968,K,A*3E
$GNGGA,072653.00,0419.73135,S,05539.84189,E,1,11,1.12,21.7,M,-47.6,M,,*4D
$GNGSA,A,3,25,12,23,15,18,05,29,,,,,,2.41,1.12,2.13*1F
$GNGSA,A,3,75,71,72,76,,,,,,,,,2.41,1.12,2.13*19
$GPGSV,4,1,16,05,25,029,19,10,19,215,,12,65,133,27,13,12,091,*78
$GPGSV,4,2,16,15,43,116,28,18,27,310,18,23,61,226,16,24,25,163,16*75
$GPGSV,4,3,16,25,76,324,28,28,09,277,,29,20,359,15,36,52,277,*73
$GPGSV,4,4,16,40,86,351,,41,58,082,,49,32,274,,50,10,089,*79
$GLGSV,3,1,09,65,02,203,,70,12,049,,71,42,089,24,72,40,162,20*66
$GLGSV,3,2,09,74,24,165,,75,65,220,21,76,32,314,17,86,09,347,*6F
$GLGSV,3,3,09,87,05,305,*50
$GNGLL,0419.73135,S,05539.84189,E,072653.00,A,A*66
$GNRMC,072654.00,A,0419.73142,S,05539.84187,E,0.176,,220525,,,A*74
$GNVTG,,T,,M,0.176,N,0.325,K,A*39
$GNGGA,072654.00,0419.73142,S,05539.84187,E,1,10,1.16,22.1,M,-47.6,M,,*44
$GNGSA,A,3,25,12,15,18,05,29,,,,,,,2.44,1.16,2.15*19
$GNGSA,A,3,75,71,72,76,,,,,,,,,2.44,1.16,2.15*1E
$GPGSV,4,1,16,05,25,029,19,10,19,215,,12,65,133,27,13,12,091,*78
$GPGSV,4,2,16,15,43,116,28,18,27,310,19,23,61,226,16,24,25,163,14*76
$GPGSV,4,3,16,25,76,324,28,28,09,277,,29,20,359,15,36,52,277,*73
$GPGSV,4,4,16,40,86,351,,41,58,082,,49,32,274,,50,10,089,*79
$GLGSV,3,1,09,65,02,203,,70,12,049,,71,42,089,23,72,40,162,18*6A
$GLGSV,3,2,09,74,24,165,,75,65,220,21,76,32,314,17,86,09,347,*6F
$GLGSV,3,3,09,87,05,305,*50
$GNGLL,0419.73142,S,05539.84187,E,072654.00,A,A*6F
$GNRMC,072655.00,A,0419.73176,S,05539.84164,E,0.560,,220525,,,A*7C
$GNVTG,,T,,M,0.560,N,1.038,K,A*34
$GNGGA,072655.00,0419.73176,S,05539.84164,E,1,10,1.16,22.2,M,-47.6,M,,*4C
$GNGSA,A,3,25,12,15,18,05,29,,,,,,,2.44,1.16,2.15*19
$GNGSA,A,3,75,71,72,76,,,,,,,,,2.44,1.16,2.15*1E
$GPGSV,4,1,16,05,25,029,19,10,19,215,,12,65,133,24,13,12,091,*7B
$GPGSV,4,2,16,15,43,116,29,18,27,310,20,23,61,226,20,24,25,163,14*78
$GPGSV,4,3,16,25,76,324,29,28,09,277,,29,20,359,16,36,52,277,*71
$GPGSV,4,4,16,40,86,351,,41,58,082,,49,32,274,,50,10,089,*79
$GLGSV,3,1,09,65,02,203,,70,12,049,,71,42,089,25,72,40,162,17*63
$GLGSV,3,2,09,74,24,165,,75,65,220,23,76,32,314,15,86,09,347,*6F
$GLGSV,3,3,09,87,05,305,*50
$GNGLL,0419.73176,S,05539.84164,E,072655.00,A,A*64
$GNRMC,072656.00,A,0419.73184,S,05539.84161,E,0.951,,220525,,,A*79
$GNVTG,,T,,M,0.951,N,1.761,K,A*31
$GNGGA,072656.00,0419.73184,S,05539.84161,E,1,12,0.91,23.2,M,-47.6,M,,*4A
$GNGSA,A,3,25,12,23,15,18,05,24,29,,,,,1.80,0.91,1.55*1C
$GNGSA,A,3,75,71,72,76,,,,,,,,,1.80,0.91,1.55*1C
$GPGSV,4,1,16,05,25,029,18,10,19,215,,12,65,133,25,13,12,091,*7B
$GPGSV,4,2,16,15,43,116,28,18,27,310,17,23,61,226,19,24,25,163,17*74
$GPGSV,4,3,16,25,76,324,29,28,09,277,,29,20,359,16,36,52,277,*71
$GPGSV,4,4,16,40,86,351,,41,58,082,,49,32,274,,50,10,089,*79
$GLGSV,3,1,09,65,02,203,,70,12,049,,71,42,089,26,72,40,162,16*61
$GLGSV,3,2,09,74,24,165,,75,65,220,22,76,32,314,14,86,09,347,*6F
$GLGSV,3,3,09,87,05,305,*50
$GNGLL,0419.73184,S,05539.84161,E,072656.00,A,A*6F
$GNRMC,072657.00,A,0419.73177,S,05539.84165,E,0.570,,220525,,,A*7F
$GNVTG,,T,,M,0.570,N,1.056,K,A*3D
$GNGGA,072657.00,0419.73177,S,05539.84165,E,1,12,0.91,23.5,M,-47.6,M,,*44
$GNGSA,A,3,25,12,23,15,18,05,24,29,,,,,1.80,0.91,1.55*1C
$GNGSA,A,3,75,71,72,76,,,,,,,,,1.80,0.91,1.55*1C
$GPGSV,4,1,16,05,25,029,19,10,19,215,,12,65,133,25,13,12,091,*7A
$GPGSV,4,2,16,15,43,116,29,18,27,310,15,23,61,226,21,24,25,163,18*73
$GPGSV,4,3,16,25,76,324,28,28,09,277,,29,20,359,16,36,52,277,*70
$GPGSV,4,4,16,40,86,351,,41,58,082,,49,32,274,,50,10,089,*79
$GLGSV,3,1,09,65,02,203,,70,12,049,,71,42,089,25,72,40,162,15*61
$GLGSV,3,2,09,74,24,165,,75,65,220,21,76,32,314,14,86,09,347,*6C
$GLGSV,3,3,09,87,05,305,*50
$GNGLL,0419.73177,S,05539.84165,E,072657.00,A,A*66
$GNRMC,072658.00,A,0419.73151,S,05539.84171,E,0.251,,220525,,,A*75
$GNVTG,,T,,M,0.251,N,0.466,K,A*3F
$GNGGA,072658.00,0419.73151,S,05539.84171,E,1,12,0.91,23.9,M,-47.6,M,,*46
$GNGSA,A,3,25,12,23,15,18,05,24,29,,,,,1.80,0.91,1.55*1C
$GNGSA,A,3,75,71,72,76,,,,,,,,,1.80,0.91,1.55*1C
$GPGSV,4,1,16,05,25,029,19,10,19,215,05,12,65,133,26,13,12,091,*7C
$GPGSV,4,2,16,15,43,116,28,18,27,310,14,23,61,226,20,24,25,163,18*72
$GPGSV,4,3,16,25,76,324,28,28,09,277,,29,20,359,18,36,52,277,*7E
$GPGSV,4,4,16,40,86,351,,41,58,082,,49,32,274,,50,10,089,*79
$GLGSV,3,1,09,65,02,203,,70,12,049,,71,42,089,25,72,40,162,14*60
$GLGSV,3,2,09,74,24,165,,75,65,220,21,76,32,314,13,86,09,347,*6B
$GLGSV,3,3,09,87,05,305,*50
$GNGLL,0419.73151,S,05539.84171,E,072658.00,A,A*68
$GNRMC,072659.00,A,0419.73124,S,05539.84179,E,0.214,,220525,,,A*7F
$GNVTG,,T,,M,0.214,N,0.397,K,A*37
$GNGGA,072659.00,0419.73124,S,05539.84179,E,1,12,0.91,24.2,M,-47.6,M,,*41
$GNGSA,A,3,25,12,23,15,18,05,24,29,,,,,1.80,0.91,1.55*1C
$GNGSA,A,3,75,71,72,76,,,,,,,,,1.80,0.91,1.55*1C
$GPGSV,4,1,16,05,25,029,20,10,19,215,06,12,65,133,27,13,12,091,*74
$GPGSV,4,2,16,15,43,116,28,18,27,310,16,23,61,226,18,24,25,163,17*74
$GPGSV,4,3,16,25,76,324,27,28,09,277,,29,20,359,18,36,52,277,*71
$GPGSV,4,4,16,40,86,351,,41,58,082,,49,32,274,,50,10,089,*79
$GLGSV,3,1,09,65,02,203,,70,12,049,,71,42,089,23,72,40,162,11*63
$GLGSV,3,2,09,74,24,165,,75,65,220,19,76,32,314,12,86,09,347,*61
$GLGSV,3,3,09,87,05,305,*50
$GNGLL,0419.73124,S,05539.84179,E,072659.00,A,A*63
$GNRMC,072700.00,A,0419.73085,S,05539.84196,E,0.537,,220525,,,A*7F
$GNVTG,,T,,M,0.537,N,0.994,K,A*38
$GNGGA,072700.00,0419.73085,S,05539.84196,E,1,12,0.80,24.3,M,-47.6,M,,*46
$GNGSA,A,3,25,12,23,15,18,05,24,29,10,,,,1.53,0.80,1.30*10
$GNGSA,A,3,75,71,76,,,,,,,,,,1.53,0.80,1.30*14
$GPGSV,4,1,16,05,25,029,20,10,19,215,08,12,65,133,27,13,12,091,*7A
$GPGSV,4,2,16,15,43,116,28,18,27,310,16,23,61,226,16,24,25,163,17*7A
$GPGSV,4,3,16,25,76,324,27,28,09,277,,29,20,359,18,36,52,277,*71
$GPGSV,4,4,16,40,86,351,,41,58,082,,49,32,274,,50,10,089,*79
$GLGSV,3,1,09,65,02,203,,70,12,049,,71,42,089,25,72,40,162,08*6D
$GLGSV,3,2,09,74,24,165,,75,65,220,18,76,32,314,15,86,09,347,*67
$GLGSV,3,3,09,87,05,305,*50
$GNGLL,0419.73085,S,05539.84196,E,072700.00,A,A*65
$GNRMC,072701.00,A,0419.73079,S,05539.84195,E,0.337,,220525,,,A*78
$GNVTG,,T,,M,0.337,N,0.625,K,A*3B
$GNGGA,072701.00,0419.73079,S,05539.84195,E,1,12,0.91,24.5,M,-47.6,M,,*41
$GNGSA,A,3,25,12,23,15,18,05,24,29,,,,,1.80,0.91,1.55*1C
$GNGSA,A,3,75,71,72,76,,,,,,,,,1.80,0.91,1.55*1C
$GPGSV,4,1,16,05,25,029,21,10,19,215,07,12,65,133,27,13,12,091,*74
$GPGSV,4,2,16,15,43,116,28,18,27,310,14,23,61,226,17,24,25,163,16*78
$GPGSV,4,3,16,25,76,324,27,28,09,277,,29,20,359,18,36,52,277,*71
$GPGSV,4,4,16,40,86,351,,41,58,082,,49,32,274,,50,10,089,*79
$GLGSV,3,1,09,65,02,203,,70,12,049,,71,42,089,24,72,40,162,12*67
$GLGSV,3,2,09,74,24,165,,75,65,220,18,76,32,314,18,86,09,347,*6A
$GLGSV,3,3,09,87,05,305,*50
$GNGLL,0419.73079,S,05539.84195,E,072701.00,A,A*64
$GNRMC,072702.00,A,0419.73072,S,05539.84191,E,0.268,,220525,,,A*7F
$GNVTG,,T,,M,0.268,N,0.496,K,A*3A
$GNGGA,072702.00,0419.73072,S,05539.84191,E,1,12,0.91,24.5,M,-47.6,M,,*4D
$GNGSA,A,3,25,12,23,15,18,05,24,29,,,,,1.80,0.91,1.55*1C
$GNGSA,A,3,75,71,72,76,,,,,,,,,1.80,0.91,1.55*1C
$GPGSV,4,1,16,05,25,029,21,10,19,215,07,12,65,133,28,13,12,091,*7B
$GPGSV,4,2,16,15,43,116,27,18,27,310,12,23,61,226,16,24,25,163,14*72
$GPGSV,4,3,16,25,76,324,27,28,09,277,,29,20,359,18,36,52,277,*71
$GPGSV,4,4,16,40,86,351,,41,58,082,,49,32,274,,50,10,089,*79
$GLGSV,3,1,09,65,02,203,,70,12,049,,71,42,089,24,72,40,162,12*67
$GLGSV,3,2,09,74,24,165,,75,65,220,16,76,32,314,17,86,09,347,*6B
$GLGSV,3,3,09,87,05,305,*50
$GNGLL,0419.73072,S,05539.84191,E,072702.00,A,A*68
$GNRMC,072703.00,A,0419.73060,S,05539.84208,E,0.195,,220525,,,A*7F
$GNVTG,,T,,M,0.195,N,0.362,K,A*37
$GNGGA,072703.00,0419.73060,S,05539.84208,E,1,12,0.91,25.1,M,-47.6,M,,*49
$GNGSA,A,3,25,12,23,15,18,05,24,29,,,,,1.80,0.91,1.55*1C
$GNGSA,A,3,75,71,72,76,,,,,,,,,1.80,0.91,1.55*1C
$GPGSV,4,1,16,05,25,029,21,10,19,215,07,12,65,133,27,13,12,091,*74
$GPGSV,4,2,16,15,43,116,27,18,27,310,11,23,61,226,16,24,25,163,13*76
$GPGSV,4,3,16,25,76,324,27,28,09,277,,29,20,359,18,36,52,277,*71
$GPGSV,4,4,16,40,86,351,,41,58,082,,49,32,274,,50,10,089,*79
$GLGSV,3,1,09,65,02,203,,70,12,049,,71,42,089,24,72,40,162,13*66
$GLGSV,3,2,09,74,24,165,,75,65,220,16,76,32,314,16,86,09,347,*6A
$GLGSV,3,3,09,87,05,305,*50
$GNGLL,0419.73060,S,05539.84208,E,072703.00,A,A*69
$GNRMC,072704.00,A,0419.73046,S,05539.84212,E,0.047,,220525,,,A*79
$GNVTG,,T,,M,0.047,N,0.087,K,A*31
$GNGGA,072704.00,0419.73046,S,05539.84212,E,1,12,0.91,25.6,M,-47.6,M,,*46
$GNGSA,A,3,25,12,23,15,18,05,24,29,,,,,1.80,0.91,1.55*1C
$GNGSA,A,3,75,71,72,76,,,,,,,,,1.80,0.91,1.55*1C
$GPGSV,4,1,16,05,25,029,21,10,19,215,07,12,65,133,27,13,12,091,*74
$GPGSV,4,2,16,15,43,116,26,18,27,310,12,23,61,226,17,24,25,163,13*75
$GPGSV,4,3,16,25,76,324,27,28,09,277,,29,20,359,19,36,52,277,*70
$GPGSV,4,4,16,40,86,351,,41,58,082,,49,32,274,,50,10,089,*79
$GLGSV,3,1,09,65,02,203,,70,12,049,,71,42,089,23,72,40,162,13*61
$GLGSV,3,2,09,74,24,165,,75,65,220,15,76,32,314,14,86,09,347,*6B
$GLGSV,3,3,09,87,05,305,*50
$GNGLL,0419.73046,S,05539.84212,E,072704.00,A,A*61
$GNRMC,072705.00,A,0419.73044,S,05539.84218,E,0.200,,220525,,,A*71
$GNVTG,,T,,M,0.200,N,0.370,K,A*3B
$GNGGA,072705.00,0419.73044,S,05539.84218,E,1,12,0.91,25.7,M,-47.6,M,,*4E
$GNGSA,A,3,25,12,23,15,18,05,24,29,,,,,1.80,0.91,1.55*1C
$GNGSA,A,3,75,71,72,76,,,,,,,,,1.80,0.91,1.55*1C
$GPGSV,4,1,16,05,25,029,20,10,19,215,07,12,65,133,29,13,12,091,*7B
$GPGSV,4,2,16,15,43,116,25,18,27,310,12,23,61,226,21,24,25,163,13*73
$GPGSV,4,3,16,25,76,324,28,28,09,277,,29,20,359,18,36,52,277,*7E
$GPGSV,4,4,16,40,86,351,,41,58,082,,49,32,274,,50,10,089,*79
$GLGSV,3,1,09,65,02,203,,70,12,049,,71,42,089,22,72,40,162,13*60
$GLGSV,3,2,09,74,24,165,,75,65,220,13,76,32,314,13,86,09,347,*6A
$GLGSV,3,3,09,87,05,305,*50
$GNGLL,0419.73044,S,05539.84218,E,072705.00,A,A*68
$GNRMC,072706.00,A,0419.73028,S,05539.84250,E,0.559,,220525,,,A*7F
$GNVTG,,T,,M,0.559,N,1.036,K,A*30
$GNGGA,072706.00,0419.73028,S,05539.84250,E,1,12,0.91,26.2,M,-47.6,M,,*4D
$GNGSA,A,3,25,12,23,15,18,05,24,29,,,,,1.80,0.91,1.55*1C
$GNGSA,A,3,75,71,72,76,,,,,,,,,1.80,0.91,1.55*1C
$GPGSV,4,1,16,05,25,029,20,10,19,215,07,12,65,133,28,13,12,091,*7A
$GPGSV,4,2,16,15,43,116,25,18,27,310,14,23,61,226,23,24,25,163,13*77
$GPGSV,4,3,16,25,76,324,28,28,09,277,,29,20,359,17,36,52,277,*71
$GPGSV,4,4,16,40,86,351,,41,58,082,,49,32,274,,50,10,089,*79
$GLGSV,3,1,09,65,02,203,,70,12,049,,71,42,089,22,72,40,162,13*60
$GLGSV,3,2,09,74,24,165,,75,65,220,12,76,32,314,13,86,09,347,*6B
$GLGSV,3,3,09,87,05,305,*50
$GNGLL,0419.73028,S,05539.84250,E,072706.00,A,A*6D
$GNRMC,072707.00,A,0419.73029,S,05539.84257,E,0.378,,220525,,,A*7D
$GNVTG,,T,,M,0.378,N,0.700,K,A*36
$GNGGA,072707.00,0419.73029,S,05539.84257,E,1,11,0.96,26.4,M,-47.6,M,,*48
$GNGSA,A,3,25,12,23,15,18,05,24,29,,,,,1.86,0.96,1.59*11
$GNGSA,A,3,75,71,76,,,,,,,,,,1.86,0.96,1.59*14
$GPGSV,4,1,16,05,25,029,20,10,19,215,07,12,65,133,27,13,12,091,*75
$GPGSV,4,2,16,15,43,116,25,18,27,310,16,23,61,226,24,24,25,163,14*75
$GPGSV,4,3,16,25,76,324,26,28,09,277,,29,20,359,16,36,52,277,*7E
$GPGSV,4,4,16,40,86,351,,41,58,082,,49,32,274,,50,10,089,*79
$GLGSV,3,1,09,65,02,203,,70,12,049,,71,42,089,23,72,40,162,12*60
$GLGSV,3,2,09,74,24,165,,75,65,220,14,76,32,314,13,86,09,347,*6D
$GLGSV,3,3,09,87,05,305,*50
$GNGLL,0419.73029,S,05539.84257,E,072707.00,A,A*6A
$GNRMC,072708.00,A,0419.73037,S,05539.84270,E,0.558,,220525,,,A*7C
$GNVTG,,T,,M,0.558,N,1.034,K,A*33
$GNGGA,072708.00,0419.73037,S,05539.84270,E,1,11,0.96,25.9,M,-47.6,M,,*43
$GNGSA,A,3,25,12,23,15,18,05,24,29,,,,,1.86,0.96,1.59*11
$GNGSA,A,3,75,71,76,,,,,,,,,,1.86,0.96,1.59*14
$GPGSV,4,1,16,05,25,029,21,10,19,215,07,12,65,133,26,13,12,091,*75
$GPGSV,4,2,16,15,43,116,25,18,27,310,18,23,61,226,25,24,25,163,14*7A
$GPGSV,4,3,16,25,76,324,26,28,09,277,,29,20,359,14,36,52,277,*7C
$GPGSV,4,4,16,40,86,351,,41,58,082,,49,32,274,,50,10,089,*79
$GLGSV,3,1,09,65,02,203,,70,12,049,,71,42,089,24,72,40,162,12*67
$GLGSV,3,2,09,74,24,165,,75,65,220,14,76,32,314,13,86,09,347,*6D
$GLGSV,3,3,09,87,05,305,*50
$GNGLL,0419.73037,S,05539.84270,E,072708.00,A,A*6F
$GNRMC,072709.00,A,0419.73090,S,05539.84237,E,0.723,,220525,,,A*7D
$GNVTG,,T,,M,0.723,N,1.339,K,A*33
$GNGGA,072709.00,0419.73090,S,05539.84237,E,1,10,1.01,25.4,M,-47.6,M,,*4F
$GNGSA,A,3,25,12,23,15,18,05,24,29,,,,,1.89,1.01,1.60*1B
$GNGSA,A,3,75,71,,,,,,,,,,,1.89,1.01,1.60*1F
$GPGSV,4,1,16,05,25,029,20,10,19,215,07,12,65,133,26,13,12,091,*74
$GPGSV,4,2,16,15,43,116,24,18,27,310,17,23,61,226,26,24,25,163,13*70
$GPGSV,4,3,16,25,76,324,26,28,09,277,,29,20,359,14,36,52,277,*7C
$GPGSV,4,4,16,40,86,351,,41,58,082,,49,32,274,,50,10,089,*79
$GLGSV,3,1,09,65,02,203,,70,12,049,,71,42,089,24,72,40,162,08*6C
$GLGSV,3,2,09,74,24,165,,75,65,220,17,76,32,314,09,86,09,347,*65
$GLGSV,3,3,09,87,05,305,*50
$GNGLL,0419.73090,S,05539.84237,E,072709.00,A,A*60
$GNRMC,072710.00,A,0419.73105,S,05539.84217,E,0.717,,220525,,,A*7D
$GNVTG,,T,,M,0.717,N,1.328,K,A*34
$GNGGA,072710.00,0419.73105,S,05539.84217,E,1,11,0.97,25.4,M,-47.6,M,,*47
$GNGSA,A,3,25,12,23,15,18,05,24,29,,,,,1.84,0.97,1.57*1C
$GNGSA,A,3,75,71,72,,,,,,,,,,1.84,0.97,1.57*1D
$GPGSV,4,1,16,05,25,029,21,10,19,215,07,12,65,133,27,13,12,091,*74
$GPGSV,4,2,16,15,43,116,24,18,27,310,16,23,61,226,25,24,25,163,12*73
$GPGSV,4,3,16,25,76,324,27,28,09,277,,29,20,359,16,36,52,277,*7F
$GPGSV,4,4,16,40,86,351,,41,58,082,,49,32,274,,50,10,089,*79
$GLGSV,3,1,09,65,02,203,,70,12,049,,71,42,089,24,72,40,162,08*6C
$GLGSV,3,2,09,74,24,165,,75,65,220,21,76,32,314,08,86,09,347,*61
$GLGSV,3,3,09,87,05,305,*50
$GNGLL,0419.73105,S,05539.84217,E,072710.00,A,A*67
$GNRMC,072711.00,A,0419.73114,S,05539.84215,E,0.555,,220525,,,A*7A
$GNVTG,,T,,M,0.555,N,1.028,K,A*33
$GNGGA,072711.00,0419.73114,S,05539.84215,E,1,11,0.97,25.5,M,-47.6,M,,*45
$GNGSA,A,3,25,12,23,15,18,05,24,29,,,,,1.84,0.97,1.57*1C
$GNGSA,A,3,75,71,72,,,,,,,,,,1.84,0.97,1.57*1D
$GPGSV,4,1,16,05,25,029,22,10,19,215,07,12,65,133,28,13,12,091,*78
$GPGSV,4,2,16,15,43,116,25,18,27,310,16,23,61,226,24,24,25,163,13*72
$GPGSV,4,3,16,25,76,324,27,28,09,277,,29,20,359,15,36,52,277,*7C
$GPGSV,4,4,16,40,86,351,,41,58,082,,49,32,274,,50,10,089,*79
$GLGSV,3,1,09,65,02,203,,70,12,049,,71,42,089,23,72,40,162,08*6B
$GLGSV,3,2,09,74,24,165,,75,65,220,23,76,32,314,10,86,09,347,*6A
$GLGSV,3,3,09,87,05,305,*50
$GNGLL,0419.73114,S,05539.84215,E,072711.00,A,A*64
$GNRMC,072712.00,A,0419.73151,S,05539.84194,E,1.077,,220525,,,A*76
$GNVTG,,T,,M,1.077,N,1.995,K,A*38
$GNGGA,072712.00,0419.73151,S,05539.84194,E,1,11,0.97,25.7,M,-47.6,M,,*4F
$GNGSA,A,3,25,12,23,15,18,05,24,29,,,,,1.84,0.97,1.57*1C
$GNGSA,A,3,75,71,72,,,,,,,,,,1.84,0.97,1.57*1D
$GPGSV,4,1,16,05,25,029,22,10,19,215,07,12,65,133,27,13,12,091,*77
$GPGSV,4,2,16,15,43,116,26,18,27,310,18,23,61,226,25,24,25,163,15*78
$GPGSV,4,3,16,25,76,324,26,28,09,277,,29,20,359,15,36,52,277,*7D
$GPGSV,4,4,16,40,86,351,,41,58,082,,49,32,274,,50,10,089,*79
$GLGSV,3,1,09,65,02,203,,70,12,049,,71,42,089,24,72,40,162,08*6C
$GLGSV,3,2,09,74,24,165,,75,65,220,21,76,32,314,09,86,09,347,*60
$GLGSV,3,3,09,87,05,305,*50
$GNGLL,0419.73151,S,05539.84194,E,072712.00,A,A*6C
$GNRMC,072713.00,A,0419.73163,S,05539.84197,E,0.952,,220525,,,A*7A
$GNVTG,,T,,M,0.952,N,1.762,K,A*31
$GNGGA,072713.00,0419.73163,S,05539.84197,E,1,11,0.97,26.3,M,-47.6,M,,*4B
$GNGSA,A,3,25,12,23,15,18,05,24,29,,,,,1.84,0.97,1.57*1C
$GNGSA,A,3,75,71,72,,,,,,,,,,1.84,0.97,1.57*1D
$GPGSV,4,1,16,05,25,029,20,10,19,215,07,12,65,133,27,13,12,091,*75
$GPGSV,4,2,16,15,43,116,26,18,27,310,18,23,61,226,24,24,25,163,19*75
$GPGSV,4,3,16,25,76,324,26,28,09,277,,29,20,359,15,36,52,277,*7D
$GPGSV,4,4,16,40,86,351,,41,58,082,,49,32,274,,50,10,089,*79
$GLGSV,3,1,09,65,02,203,,70,12,049,,71,42,089,24,72,40,162,15*60
$GLGSV,3,2,09,74,24,165,,75,65,220,19,76,32,314,08,86,09,347,*6A
$GLGSV,3,3,09,87,05,305,*50
$GNGLL,0419.73163,S,05539.84197,E,072713.00,A,A*6F
$GNRMC,072714.00,A,0419.73168,S,05539.84212,E,0.604,,220525,,,A*74
$GNVTG,,T,,M,0.604,N,1.118,K,A*36
$GNGGA,072714.00,0419.73168,S,05539.84212,E,1,11,0.97,26.3,M,-47.6,M,,*49
$GNGSA,A,3,25,12,23,15,18,05,24,29,,,,,1.84,0.97,1.57*1C
$GNGSA,A,3,75,71,72,,,,,,,,,,1.84,0.97,1.57*1D
$GPGSV,4,1,16,05,25,029,19,10,19,215,07,12,65,133,27,13,12,091,*7F
$GPGSV,4,2,16,15,43,116,26,18,27,310,18,23,61,226,25,24,25,163,19*74
$GPGSV,4,3,16,25,76,324,27,28,09,277,,29,20,359,15,36,52,277,*7C
$GPGSV,4,4,16,40,86,351,,41,58,082,,49,32,274,,50,10,089,*79
$GLGSV,3,1,09,65,02,203,,70,11,049,,71,42,089,23,72,40,162,15*64
$GLGSV,3,2,09,74,24,165,,75,65,220,18,76,32,314,08,86,09,347,*6B
$GLGSV,3,3,09,87,05,305,*50
$GNGLL,0419.73168,S,05539.84212,E,072714.00,A,A*6D
$GNRMC,072715.00,A,0419.73162,S,05539.84227,E,0.253,,220525,,,A*7F
$GNVTG,,T,,M,0.253,N,0.468,K,A*33
$GNGGA,072715.00,0419.73162,S,05539.84227,E,1,12,0.91,26.4,M,-47.6,M,,*46
$GNGSA,A,3,25,12,23,15,18,05,24,29,,,,,1.80,0.91,1.55*1C
$GNGSA,A,3,75,71,72,76,,,,,,,,,1.80,0.91,1.55*1C
$GPGSV,4,1,16,05,25,029,19,10,19,215,07,12,65,133,27,13,12,091,*7F
$GPGSV,4,2,16,15,43,116,26,18,27,310,18,23,61,226,26,24,25,163,17*79
$GPGSV,4,3,16,25,76,324,27,28,09,277,,29,20,359,15,36,52,277,*7C
$GPGSV,4,4,16,40,86,351,,41,58,082,,49,32,274,,50,10,089,*79
$GLGSV,3,1,09,65,02,203,,70,11,049,,71,42,088,22,72,40,162,17*66
$GLGSV,3,2,09,74,24,165,,75,65,220,19,76,32,314,10,86,09,347,*63
$GLGSV,3,3,09,87,05,305,*50
$GNGLL,0419.73162,S,05539.84227,E,072715.00,A,A*60
$GNRMC,072716.00,A,0419.73166,S,05539.84238,E,0.119,,220525,,,A*7B
$GNVTG,,T,,M,0.119,N,0.221,K,A*35
$GNGGA,072716.00,0419.73166,S,05539.84238,E,1,11,0.96,26.4,M,-47.6,M,,*4B
$GNGSA,A,3,25,12,23,15,18,05,24,29,,,,,1.86,0.96,1.59*11
$GNGSA,A,3,75,71,76,,,,,,,,,,1.86,0.96,1.59*14
$GPGSV,4,1,16,05,25,029,18,10,19,215,07,12,65,133,27,13,12,091,*7E
$GPGSV,4,2,16,15,43,116,26,18,27,310,16,23,61,226,25,24,25,163,16*75
$GPGSV,4,3,16,25,76,324,27,28,09,277,,29,20,359,16,36,52,277,*7F
$GPGSV,4,4,16,40,86,351,,41,58,082,,49,32,274,,50,10,089,*79
$GLGSV,3,1,09,65,02,203,,70,11,049,,71,42,088,23,72,40,161,*62
$GLGSV,3,2,09,74,24,165,,75,65,220,20,76,32,314,10,86,09,347,*69
$GLGSV,3,3,09,87,05,305,*50
$GNGLL,0419.73166,S,05539.84238,E,072716.00,A,A*69
$GNRMC,072717.00,A,0419.73160,S,05539.84242,E,0.082,,220525,,,A*72
$GNVTG,,T,,M,0.082,N,0.152,K,A*31
$GNGGA,072717.00,0419.73160,S,05539.84242,E,1,11,0.96,26.4,M,-47.6,M,,*41
$GNGSA,A,3,25,12,23,15,18,05,24,29,,,,,1.86,0.96,1.59*11
$GNGSA,A,3,75,71,76,,,,,,,,,,1.86,0.96,1.59*14
$GPGSV,4,1,16,05,25,029,16,10,19,215,07,12,65,133,30,13,12,091,*76
$GPGSV,4,2,16,15,43,116,26,18,27,310,17,23,61,226,25,24,25,163,16*74
$GPGSV,4,3,16,25,76,324,28,28,09,277,,29,20,359,17,36,52,277,*71
$GPGSV,4,4,16,40,86,351,,41,58,082,,49,32,274,,50,10,089,*79
$GLGSV,3,1,09,65,02,203,,70,11,049,,71,42,088,23,72,40,161,*62
$GLGSV,3,2,09,74,24,165,,75,65,220,20,76,32,314,10,86,09,347,*69
$GLGSV,3,3,09,87,05,305,*50
$GNGLL,0419.73160,S,05539.84242,E,072717.00,A,A*63
$GNRMC,072718.00,A,0419.73154,S,05539.84235,E,0.246,,220525,,,A*70
$GNVTG,,T,,M,0.246,N,0.456,K,A*3A
$GNGGA,072718.00,0419.73154,S,05539.84235,E,1,11,0.96,26.1,M,-47.6,M,,*4C
$GNGSA,A,3,25,12,23,15,18,05,24,29,,,,,1.86,0.96,1.59*11
$GNGSA,A,3,75,71,76,,,,,,,,,,1.86,0.96,1.59*14
$GPGSV,4,1,16,05,25,029,14,10,19,215,07,12,65,133,30,13,12,091,*74
$GPGSV,4,2,16,15,43,116,24,18,27,310,17,23,61,226,24,24,25,163,15*74
$GPGSV,4,3,16,25,76,324,28,28,09,277,,29,20,359,18,36,52,277,*7E
$GPGSV,4,4,16,40,86,351,,41,58,082,,49,32,274,,50,10,089,*79
$GLGSV,3,1,09,65,02,203,,70,11,049,,71,42,088,24,72,40,161,*65
$GLGSV,3,2,09,74,23,165,,75,65,220,21,76,32,314,10,86,09,347,*6F
$GLGSV,3,3,09,87,05,305,*50
$GNGLL,0419.73154,S,05539.84235,E,072718.00,A,A*6B
$GNRMC,072719.00,A,0419.73151,S,05539.84225,E,0.190,,220525,,,A*7D
$GNVTG,,T,,M,0.190,N,0.351,K,A*32
$GNGGA,072719.00,0419.73151,S,05539.84225,E,1,11,0.96,25.6,M,-47.6,M,,*4D
$GNGSA,A,3,25,12,23,15,18,05,24,29,,,,,1.86,0.96,1.59*11
$GNGSA,A,3,75,71,76,,,,,,,,,,1.86,0.96,1.59*14
$GPGSV,4,1,16,05,25,029,16,10,19,215,,12,65,133,29,13,12,091,*79
$GPGSV,4,2,16,15,43,116,22,18,27,310,16,23,61,226,23,24,25,163,16*77
$GPGSV,4,3,16,25,76,324,28,28,09,277,,29,20,359,18,36,52,277,*7E
$GPGSV,4,4,16,40,86,351,,41,58,082,,49,32,274,,50,10,089,*79
$GLGSV,3,1,09,65,02,203,,70,11,049,,71,42,088,24,72,40,161,*65
$GLGSV,3,2,09,74,23,165,,75,64,219,22,76,32,314,10,86,09,347,*67
$GLGSV,3,3,09,87,05,305,*50
$GNGLL,0419.73151,S,05539.84225,E,072719.00,A,A*6E
$GNRMC,072720.00,A,0419.73133,S,05539.84235,E,0.328,,220525,,,A*73
$GNVTG,,T,,M,0.328,N,0.607,K,A*35
$GNGGA,072720.00,0419.73133,S,05539.84235,E,1,11,0.96,25.0,M,-47.6,M,,*44
$GNGSA,A,3,25,12,23,15,18,05,24,29,,,,,1.86,0.96,1.59*11
$GNGSA,A,3,75,71,76,,,,,,,,,,1.86,0.96,1.59*14
$GPGSV,4,1,16,05,25,029,16,10,19,215,,12,65,133,27,13,12,091,*77
$GPGSV,4,2,16,15,43,116,22,18,27,310,16,23,61,226,23,24,25,163,18*79
$GPGSV,4,3,16,25,76,324,28,28,09,277,,29,20,359,16,36,52,277,*70
$GPGSV,4,4,16,40,86,351,,41,58,082,,49,32,274,,50,10,089,*79
$GLGSV,3,1,09,65,02,203,,70,11,049,,71,42,088,24,72,40,161,*65
$GLGSV,3,2,09,74,23,165,,75,64,219,22,76,32,313,10,86,09,347,*60
$GLGSV,3,3,09,87,05,305,*50
$GNGLL,0419.73133,S,05539.84235,E,072720.00,A,A*61
$GNRMC,072721.00,A,0419.73154,S,05539.84239,E,0.375,,220525,,,A*77
$GNVTG,,T,,M,0.375,N,0.695,K,A*36
$GNGGA,072721.00,0419.73154,S,05539.84239,E,1,11,0.96,24.8,M,-47.6,M,,*41
$GNGSA,A,3,25,12,23,15,18,05,24,29,,,,,1.86,0.96,1.59*11
$GNGSA,A,3,75,71,76,,,,,,,,,,1.86,0.96,1.59*14
$GPGSV,4,1,16,05,25,029,16,10,19,215,,12,65,133,25,13,12,091,*75
$GPGSV,4,2,16,15,43,116,23,18,27,310,18,23,61,226,24,24,25,163,17*7E
$GPGSV,4,3,16,25,76,324,28,28,09,277,,29,20,359,16,36,52,277,*70
$GPGSV,4,4,16,40,86,351,,41,58,082,,49,32,274,,50,10,089,*79
$GLGSV,3,1,09,65,02,203,,70,11,049,,71,42,088,22,72,40,161,*63
$GLGSV,3,2,09,74,23,165,,75,64,219,22,76,32,313,08,86,09,347,*69
$GLGSV,3,3,09,87,05,305,*50
$GNGLL,0419.73154,S,05539.84239,E,072721.00,A,A*6D
$GNRMC,072722.00,A,0419.73163,S,05539.84244,E,0.483,,220525,,,A*74
$GNVTG,,T,,M,0.483,N,0.894,K,A*37
$GNGGA,072722.00,0419.73163,S,05539.84244,E,1,11,0.96,25.0,M,-47.6,M,,*45
$GNGSA,A,3,25,12,23,15,18,05,24,29,,,,,1.86,0.96,1.59*11
$GNGSA,A,3,75,71,76,,,,,,,,,,1.86,0.96,1.59*14
$GPGSV,4,1,16,05,25,029,16,10,19,215,13,12,65,133,26,13,12,091,*74
$GPGSV,4,2,16,15,43,116,26,18,27,310,18,23,61,226,25,24,25,163,17*7A
$GPGSV,4,3,16,25,76,324,27,28,09,277,,29,20,359,17,36,52,277,*7E
$GPGSV,4,4,16,40,86,351,,41,58,082,,49,32,274,,50,10,089,*79
$GLGSV,3,1,09,65,02,203,,70,11,049,,71,42,088,22,72,40,161,20*61
$GLGSV,3,2,09,74,23,165,,75,64,219,22,76,32,313,08,86,09,347,*69
$GLGSV,3,3,09,87,05,305,*50
$GNGLL,0419.73163,S,05539.84244,E,072722.00,A,A*60
$GNRMC,072723.00,A,0419.73162,S,05539.84250,E,0.430,,220525,,,A*79
$GNVTG,,T,,M,0.430,N,0.797,K,A*33
$GNGGA,072723.00,0419.73162,S,05539.84250,E,1,11,0.96,25.0,M,-47.6,M,,*40
$GNGSA,A,3,25,12,23,15,18,05,24,29,,,,,1.86,0.96,1.59*11
$GNGSA,A,3,75,71,76,,,,,,,,,,1.86,0.96,1.59*14
$GPGSV,4,1,16,05,25,029,14,10,19,215,13,12,65,133,27,13,12,091,*77
$GPGSV,4,2,16,15,43,116,27,18,27,310,16,23,61,226,25,24,25,163,19*7B
$GPGSV,4,3,16,25,76,324,27,28,09,277,,29,20,359,16,36,52,277,*7F
$GPGSV,4,4,16,40,86,351,,41,58,082,,49,32,274,,50,10,089,*79
$GLGSV,3,1,09,65,02,203,,70,11,049,,71,42,088,23,72,40,161,*62
$GLGSV,3,2,09,74,23,165,,75,64,219,22,76,32,313,08,86,09,347,*69
$GLGSV,3,3,09,87,05,305,*50
$GNGLL,0419.73162,S,05539.84250,E,072723.00,A,A*65
$GNRMC,072724.00,A,0419.73161,S,05539.84260,E,0.393,,220525,,,A*70
$GNVTG,,T,,M,0.393,N,0.728,K,A*39
$GNGGA,072724.00,0419.73161,S,05539.84260,E,1,11,0.96,24.9,M,-47.6,M,,*4F
$GNGSA,A,3,25,12,23,15,18,05,24,29,,,,,1.86,0.96,1.59*11
$GNGSA,A,3,75,71,76,,,,,,,,,,1.86,0.96,1.59*14
$GPGSV,4,1,16,05,25,029,11,10,19,215,14,12,65,133,26,13,12,091,*74
$GPGSV,4,2,16,15,43,116,27,18,27,310,15,23,61,226,25,24,25,163,20*72
$GPGSV,4,3,16,25,76,324,27,28,09,277,,29,20,359,15,36,52,277,*7C
$GPGSV,4,4,16,40,86,351,,41,58,082,,49,32,274,,50,10,089,*79
$GLGSV,3,1,09,65,02,203,,70,11,049,,71,42,088,25,72,40,161,*64
$GLGSV,3,2,09,74,23,165,,75,64,219,22,76,32,313,08,86,09,347,*69
$GLGSV,3,3,09,87,05,305,*50
$GNGLL,0419.73161,S,05539.84260,E,072724.00,A,A*62
$GNRMC,072725.00,A,0419.73145,S,05539.84284,E,0.105,,220525,,,A*70
$GNVTG,,T,,M,0.105,N,0.195,K,A*34
$GNGGA,072725.00,0419.73145,S,05539.84284,E,1,11,0.96,24.8,M,-47.6,M,,*43
$GNGSA,A,3,25,12,23,15,18,05,24,29,,,,,1.86,0.96,1.59*11
$GNGSA,A,3,75,71,76,,,,,,,,,,1.86,0.96,1.59*14
$GPGSV,4,1,16,05,25,029,11,10,19,215,15,12,65,133,26,13,12,091,*75
$GPGSV,4,2,16,15,43,116,27,18,27,310,16,23,61,226,25,24,25,163,19*7B
$GPGSV,4,3,16,25,76,324,27,28,09,277,,29,20,359,13,36,52,277,*7A
$GPGSV,4,4,16,40,86,351,,41,58,082,,49,32,274,,50,10,089,*79
$GLGSV,3,1,09,65,02,203,,70,11,049,,71,42,088,25,72,40,161,19*6C
$GLGSV,3,2,09,74,23,165,,75,64,219,23,76,32,313,16,86,09,347,*67
$GLGSV,3,3,09,87,05,305,*50
$GNGLL,0419.73145,S,05539.84284,E,072725.00,A,A*6F
$GNRMC,072726.00,A,0419.73095,S,05539.84326,E,0.632,,220525,,,A*75
$GNVTG,,T,,M,0.632,N,1.171,K,A*3C
$GNGGA,072726.00,0419.73095,S,05539.84326,E,1,12,0.80,25.3,M,-47.6,M,,*4B
$GNGSA,A,3,25,12,23,15,18,05,24,29,10,,,,1.53,0.80,1.30*10
$GNGSA,A,3,75,71,76,,,,,,,,,,1.53,0.80,1.30*14
$GPGSV,4,1,16,05,25,029,12,10,19,215,14,12,65,133,26,13,12,091,*77
$GPGSV,4,2,16,15,43,116,27,18,27,310,16,23,61,226,24,24,25,163,17*74
$GPGSV,4,3,16,25,76,324,26,28,09,277,,29,20,359,12,36,52,277,*7A
$GPGSV,4,4,16,40,86,351,,41,58,082,,49,32,274,,50,10,089,*79
$GLGSV,3,1,09,65,02,203,,70,11,049,,71,42,088,25,72,40,161,17*62
$GLGSV,3,2,09,74,23,165,,75,64,219,23,76,32,313,16,86,09,347,*67
$GLGSV,3,3,09,87,05,305,*50
$GNGLL,0419.73095,S,05539.84326,E,072726.00,A,A*69
$GNRMC,072727.00,A,0419.73061,S,05539.84348,E,0.809,,220525,,,A*71
$GNVTG,,T,,M,0.809,N,1.498,K,A*38
$GNGGA,072727.00,0419.73061,S,05539.84348,E,1,12,0.80,25.3,M,-47.6,M,,*49
$GNGSA,A,3,25,12,23,15,18,05,24,29,10,,,,1.53,0.80,1.30*10
$GNGSA,A,3,75,71,76,,,,,,,,,,1.53,0.80,1.30*14
$GPGSV,4,1,16,05,25,029,14,10,19,215,14,12,65,133,27,13,12,091,*70
$GPGSV,4,2,16,15,43,116,26,18,27,310,16,23,61,226,22,24,25,163,17*73
$GPGSV,4,3,16,25,76,324,26,28,09,277,,29,20,359,11,36,52,277,*79
$GPGSV,4,4,16,40,86,351,,41,58,082,,49,32,274,,50,10,089,*79
$GLGSV,3,1,09,65,02,203,,70,11,049,,71,42,088,25,72,40,161,14*61
$GLGSV,3,2,09,74,23,165,,75,64,219,21,76,32,313,11,86,09,347,*62
$GLGSV,3,3,09,87,05,305,*50
$GNGLL,0419.73061,S,05539.84348,E,072727.00,A,A*6B
$GNRMC,072728.00,A,0419.73082,S,05539.84356,E,0.186,,220525,,,A*72
$GNVTG,,T,,M,0.186,N,0.345,K,A*30
$GNGGA,072728.00,0419.73082,S,05539.84356,E,1,11,0.85,25.4,M,-47.6,M,,*45
$GNGSA,A,3,25,12,23,15,18,05,24,10,,,,,1.60,0.85,1.36*18
$GNGSA,A,3,75,71,76,,,,,,,,,,1.60,0.85,1.36*17
$GPGSV,4,1,16,05,25,029,16,10,19,215,14,12,65,133,27,13,12,091,*72
$GPGSV,4,2,16,15,43,116,26,18,27,310,17,23,61,226,21,24,25,163,16*70
$GPGSV,4,3,16,25,76,324,26,28,09,277,,29,20,359,09,36,52,277,*70
$GPGSV,4,4,16,40,86,351,,41,58,082,,49,32,274,,50,10,089,*79
$GLGSV,3,1,09,65,02,203,,70,11,049,,71,42,088,25,72,40,161,14*61
$GLGSV,3,2,09,74,23,165,,75,64,219,21,76,32,313,11,86,09,347,*62
$GLGSV,3,3,09,87,05,305,*50
$GNGLL,0419.73082,S,05539.84356,E,072728.00,A,A*66
$GNRMC,072729.00,A,0419.73073,S,05539.84371,E,0.314,,220525,,,A*71
$GNVTG,,T,,M,0.314,N,0.581,K,A*37
$GNGGA,072729.00,0419.73073,S,05539.84371,E,1,12,0.80,25.4,M,-47.6,M,,*49
$GNGSA,A,3,25,12,23,15,18,05,24,29,10,,,,1.53,0.80,1.30*10
$GNGSA,A,3,75,71,76,,,,,,,,,,1.53,0.80,1.30*14
$GPGSV,4,1,16,05,25,029,17,10,19,215,15,12,65,133,28,13,12,091,*7D
$GPGSV,4,2,16,15,43,116,26,18,27,310,18,23,61,226,20,24,25,163,15*7D
$GPGSV,4,3,16,25,76,324,27,28,09,277,,29,20,359,11,36,52,277,*78
$GPGSV,4,4,16,40,86,351,,41,58,082,,49,32,274,,50,10,089,*79
$GLGSV,3,1,09,65,02,203,,70,11,049,,71,42,088,25,72,40,161,14*61
$GLGSV,3,2,09,74,23,165,,75,64,219,20,76,32,313,11,86,09,347,*63
$GLGSV,3,3,09,87,05,305,*50
$GNGLL,0419.73073,S,05539.84371,E,072729.00,A,A*6C
$GNRMC,072730.00,A,0419.73050,S,05539.84393,E,0.306,,220525,,,A*77
$GNVTG,,T,,M,0.306,N,0.567,K,A*3C
$GNGGA,072730.00,0419.73050,S,05539.84393,E,1,12,0.78,26.2,M,-47.6,M,,*4E
$GNGSA,A,3,25,12,23,15,18,05,24,29,10,,,,1.52,0.78,1.30*16
$GNGSA,A,3,75,71,72,76,,,,,,,,,1.52,0.78,1.30*17
$GPGSV,4,1,16,05,25,029,18,10,19,215,15,12,65,133,26,13,12,091,*7C
$GPGSV,4,2,16,15,43,116,25,18,27,310,17,23,61,226,19,24,25,163,16*78
$GPGSV,4,3,16,25,76,324,27,28,09,277,,29,20,359,13,36,52,277,*7A
$GPGSV,4,4,16,40,86,351,,41,58,082,,49,32,274,,50,10,089,*79
$GLGSV,3,1,09,65,02,203,,70,11,049,,71,42,088,25,72,40,161,14*61
$GLGSV,3,2,09,74,23,165,,75,64,219,21,76,32,313,11,86,09,347,*62
$GLGSV,3,3,09,87,05,305,*50
$GNGLL,0419.73050,S,05539.84393,E,072730.00,A,A*69
$GNRMC,072731.00,A,0419.73021,S,05539.84398,E,0.028,,220525,,,A*74
$GNVTG,,T,,M,0.028,N,0.053,K,A*31
$GNGGA,072731.00,0419.73021,S,05539.84398,E,1,12,0.83,26.5,M,-47.6,M,,*41
$GNGSA,A,3,25,12,23,15,18,05,24,29,10,,,,1.54,0.83,1.30*14
$GNGSA,A,3,75,71,72,,,,,,,,,,1.54,0.83,1.30*14
$GPGSV,4,1,16,05,25,029,18,10,19,215,13,12,65,133,25,13,12,091,*79
$GPGSV,4,2,16,15,43,116,23,18,27,310,16,23,61,226,18,24,25,163,16*7E
$GPGSV,4,3,16,25,76,324,28,28,09,277,,29,20,359,16,36,52,277,*70
$GPGSV,4,4,16,40,86,351,,41,58,082,,49,32,274,,50,10,089,*79
$GLGSV,3,1,09,65,02,203,,70,11,049,,71,42,088,23,72,40,161,17*64
$GLGSV,3,2,09,74,23,165,,75,64,219,21,76,32,313,,86,09,347,*62
$GLGSV,3,3,09,87,05,306,*53
$GNGLL,0419.73021,S,05539.84398,E,072731.00,A,A*65
$GNRMC,072732.00,A,0419.72995,S,05539.84400,E,0.119,,220525,,,A*75
$GNVTG,,T,,M,0.119,N,0.220,K,A*34
$GNGGA,072732.00,0419.72995,S,05539.84400,E,1,12,0.83,27.1,M,-47.6,M,,*46
$GNGSA,A,3,25,12,23,15,18,05,24,29,10,,,,1.54,0.83,1.30*14
$GNGSA,A,3,75,71,72,,,,,,,,,,1.54,0.83,1.30*14
$GPGSV,4,1,16,05,25,029,17,10,19,215,12,12,65,133,26,13,12,091,*74
$GPGSV,4,2,16,15,43,116,20,18,27,310,17,23,61,226,16,24,25,163,15*71
