$GNRMC,055809.00,A,0419.82270,S,05539.75010,E,1.894,176.38,270525,,,A*6E
$GNVTG,176.38,T,,M,1.894,N,3.508,K,A*22
$GNGGA,055809.00,0419.82270,S,05539.75010,E,1,12,0.70,27.1,M,-47.6,M,,*4C
$GNGSA,A,3,12,05,25,18,15,23,20,13,,,,,1.41,0.70,1.22*13
$GNGSA,A,3,79,80,68,83,67,69,,,,,,,1.41,0.70,1.22*13
$GPGSV,4,1,15,05,53,050,19,12,65,037,24,13,14,122,20,15,35,154,29*79
$GPGSV,4,2,15,18,34,272,24,20,20,036,16,23,31,206,14,24,41,190,08*77
$GPGSV,4,3,15,25,43,343,22,29,11,334,20,36,52,277,,40,86,351,29*75
$GPGSV,4,4,15,41,58,082,29,49,32,274,,50,10,089,*4C
$GLGSV,3,1,10,67,17,082,11,68,31,133,20,69,17,185,23,73,02,332,*64
$GLGSV,3,2,10,78,12,155,,79,65,160,34,80,55,330,23,82,05,007,*64
$GLGSV,3,3,10,83,20,319,22,84,12,265,*68
$GNGLL,0419.82270,S,05539.75010,E,055809.00,A,A*61
$GNRMC,055810.00,A,0419.82265,S,05539.74991,E,0.915,,270525,,,A*7F
$GNVTG,,T,,M,0.915,N,1.695,K,A*3B
$GNGGA,055810.00,0419.82265,S,05539.74991,E,1,12,0.70,27.5,M,-47.6,M,,*45
$GNGSA,A,3,12,05,25,18,15,23,20,13,,,,,1.41,0.70,1.22*13
$GNGSA,A,3,79,80,68,83,67,69,,,,,,,1.41,0.70,1.22*13
$GPGSV,4,1,15,05,53,050,18,12,65,037,23,13,14,122,20,15,35,154,28*7E
$GPGSV,4,2,15,18,34,272,23,20,20,036,16,23,31,206,16,24,41,190,08*72
$GPGSV,4,3,15,25,43,343,25,29,11,334,19,36,52,277,,40,86,351,29*78
$GPGSV,4,4,15,41,58,082,34,49,32,274,,50,10,089,*40
$GLGSV,3,1,10,67,17,082,14,68,31,133,20,69,17,185,23,73,02,332,*61
$GLGSV,3,2,10,78,12,155,,79,65,160,33,80,55,330,22,82,05,007,*62
$GLGSV,3,3,10,83,20,319,21,84,12,265,*6B
$GNGLL,0419.82265,S,05539.74991,E,055810.00,A,A*6C
$GNRMC,055811.00,A,0419.82271,S,05539.74991,E,0.443,,270525,,,A*75
$GNVTG,,T,,M,0.443,N,0.821,K,A*35
$GNGGA,055811.00,0419.82271,S,05539.74991,E,1,12,0.70,27.7,M,-47.6,M,,*43
$GNGSA,A,3,12,05,25,18,15,23,20,13,,,,,1.41,0.70,1.22*13
$GNGSA,A,3,79,80,68,83,67,69,,,,,,,1.41,0.70,1.22*13
$GPGSV,4,1,15,05,53,050,17,12,65,037,22,13,14,122,19,15,35,154,26*74
$GPGSV,4,2,15,18,34,272,26,20,20,036,16,23,31,206,16,24,41,190,08*77
$GPGSV,4,3,15,25,43,343,32,29,11,334,19,36,52,277,,40,86,351,31*77
$GPGSV,4,4,15,41,58,082,35,49,32,274,,50,10,089,*41
$GLGSV,3,1,10,67,17,082,16,68,31,133,18,69,17,185,24,73,02,332,*6F
$GLGSV,3,2,10,78,12,155,,79,65,160,36,80,55,330,21,82,05,007,*64
$GLGSV,3,3,10,83,20,319,22,84,12,265,*68
$GNGLL,0419.82271,S,05539.74991,E,055811.00,A,A*68
$GNRMC,055812.00,A,0419.82278,S,05539.74998,E,0.060,,270525,,,A*73
$GNVTG,,T,,M,0.060,N,0.111,K,A*3A
$GNGGA,055812.00,0419.82278,S,05539.74998,E,1,12,0.70,28.5,M,-47.6,M,,*4D
$GNGSA,A,3,12,05,25,18,15,23,20,13,,,,,1.41,0.70,1.22*13
$GNGSA,A,3,79,80,68,83,67,69,,,,,,,1.41,0.70,1.22*13
$GPGSV,4,1,15,05,53,050,21,12,65,037,21,13,14,122,21,15,35,154,27*78
$GPGSV,4,2,15,18,34,272,27,20,20,036,16,23,31,206,16,24,41,190,08*76
$GPGSV,4,3,15,25,43,343,32,29,11,334,20,36,52,277,,40,86,351,31*7D
$GPGSV,4,4,15,41,58,082,36,49,32,274,,50,10,089,*42
$GLGSV,3,1,10,67,17,082,15,68,31,133,19,69,17,185,23,73,02,332,*6A
$GLGSV,3,2,10,78,12,155,,79,65,160,37,80,55,330,19,82,05,007,*6E
$GLGSV,3,3,10,83,20,319,22,84,12,265,*68
$GNGLL,0419.82278,S,05539.74998,E,055812.00,A,A*6B
$GNRMC,055813.00,A,0419.82286,S,05539.75008,E,0.092,,270525,,,A*7F
$GNVTG,,T,,M,0.092,N,0.170,K,A*30
$GNGGA,055813.00,0419.82286,S,05539.75008,E,1,12,0.68,28.6,M,-47.6,M,,*46
$GNGSA,A,3,12,05,24,25,18,15,23,20,13,,,,1.39,0.68,1.21*10
$GNGSA,A,3,79,80,68,83,67,69,,,,,,,1.39,0.68,1.21*16
$GPGSV,4,1,15,05,53,050,20,12,65,037,20,13,14,122,21,15,35,154,28*77
$GPGSV,4,2,15,18,34,272,27,20,20,036,16,23,31,206,14,24,41,190,13*7E
$GPGSV,4,3,15,25,43,343,32,29,11,334,18,36,52,277,,40,86,351,32*75
$GPGSV,4,4,15,41,58,082,35,49,32,274,,50,10,089,*41
$GLGSV,3,1,10,67,17,082,16,68,31,133,21,69,17,185,24,73,02,332,*65
$GLGSV,3,2,10,78,12,155,,79,65,160,37,80,55,330,18,82,05,007,*6F
$GLGSV,3,3,10,83,20,319,21,84,12,265,*6B
$GNGLL,0419.82286,S,05539.75008,E,055813.00,A,A*6A
$GNRMC,055814.00,A,0419.82283,S,05539.75016,E,0.099,,270525,,,A*79
$GNVTG,,T,,M,0.099,N,0.183,K,A*37
$GNGGA,055814.00,0419.82283,S,05539.75016,E,1,12,0.72,28.6,M,-47.6,M,,*40
$GNGSA,A,3,12,05,24,25,18,15,23,20,13,,,,1.41,0.72,1.21*14
$GNGSA,A,3,79,80,68,83,67,69,,,,,,,1.41,0.72,1.21*12
$GPGSV,4,1,15,05,53,050,18,12,65,037,22,13,14,122,22,15,35,154,30*74
$GPGSV,4,2,15,18,34,272,28,20,20,036,14,23,31,206,16,24,41,190,09*7A
$GPGSV,4,3,15,25,43,343,31,29,11,334,17,36,52,277,,40,86,351,33*78
$GPGSV,4,4,15,41,58,082,36,49,32,274,,50,10,089,*42
$GLGSV,3,1,10,67,17,082,18,68,31,133,21,69,17,185,24,73,02,332,*6B
$GLGSV,3,2,10,78,12,155,,79,65,160,37,80,55,330,19,82,05,007,*6E
$GLGSV,3,3,10,83,20,319,20,84,12,265,*6A
$GNGLL,0419.82283,S,05539.75016,E,055814.00,A,A*67
$GNRMC,055815.00,A,0419.82288,S,05539.75022,E,0.074,,270525,,,A*77
$GNVTG,,T,,M,0.074,N,0.137,K,A*3B
$GNGGA,055815.00,0419.82288,S,05539.75022,E,1,12,0.68,28.6,M,-47.6,M,,*46
$GNGSA,A,3,12,05,24,25,18,15,23,20,13,,,,1.39,0.68,1.21*10
$GNGSA,A,3,79,80,68,83,67,69,,,,,,,1.39,0.68,1.21*16
$GPGSV,4,1,15,05,53,050,20,12,65,037,23,13,14,122,22,15,35,154,29*76
$GPGSV,4,2,15,18,34,272,30,20,20,036,19,23,31,206,18,24,41,190,19*71
$GPGSV,4,3,15,25,43,343,32,29,11,334,18,36,52,277,,40,86,351,37*70
$GPGSV,4,4,15,41,58,082,38,49,32,274,,50,10,089,*4C
$GLGSV,3,1,10,67,17,082,17,68,31,133,21,69,17,185,24,73,02,332,*64
$GLGSV,3,2,10,78,12,155,,79,65,160,37,80,55,330,19,82,05,007,*6E
$GLGSV,3,3,10,83,20,319,20,84,12,265,*6A
$GNGLL,0419.82288,S,05539.75022,E,055815.00,A,A*6A
$GNRMC,055816.00,A,0419.82293,S,05539.75021,E,0.168,,270525,,,A*71
$GNVTG,,T,,M,0.168,N,0.310,K,A*30
$GNGGA,055816.00,0419.82293,S,05539.75021,E,1,12,0.72,29.4,M,-47.6,M,,*44
$GNGSA,A,3,12,05,24,25,18,15,23,20,13,,,,1.41,0.72,1.21*14
$GNGSA,A,3,79,80,68,83,67,69,,,,,,,1.41,0.72,1.21*12
$GPGSV,4,1,15,05,53,050,21,12,65,037,32,13,14,122,21,15,35,154,28*75
$GPGSV,4,2,15,18,34,272,31,20,20,036,18,23,31,206,20,24,41,190,17*74
$GPGSV,4,3,15,25,43,343,32,29,11,334,20,36,52,277,,40,86,351,37*7B
$GPGSV,4,4,15,41,58,082,37,49,32,274,,50,10,089,*43
$GLGSV,3,1,10,67,17,082,17,68,31,133,20,69,17,185,24,73,02,332,*65
$GLGSV,3,2,10,78,12,155,,79,65,160,38,80,55,330,18,82,05,007,*60
$GLGSV,3,3,10,83,20,319,21,84,12,265,*6B
$GNGLL,0419.82293,S,05539.75021,E,055816.00,A,A*60
$GNRMC,055817.00,A,0419.82287,S,05539.75036,E,0.213,,270525,,,A*7C
$GNVTG,,T,,M,0.213,N,0.395,K,A*32
$GNGGA,055817.00,0419.82287,S,05539.75036,E,1,12,0.71,29.2,M,-47.6,M,,*43
$GNGSA,A,3,12,05,24,25,18,15,23,20,13,,,,1.35,0.71,1.15*13
$GNGSA,A,3,79,80,68,83,67,69,,,,,,,1.35,0.71,1.15*15
$GPGSV,4,1,15,05,53,050,23,12,65,037,33,13,14,122,20,15,35,154,29*76
$GPGSV,4,2,15,18,34,272,31,20,20,036,17,23,31,206,19,24,41,190,17*71
$GPGSV,4,3,15,25,43,343,30,29,11,334,21,36,52,277,,40,86,351,38*77
$GPGSV,4,4,15,41,58,082,35,49,32,274,,50,10,089,*41
$GLGSV,3,1,10,67,17,082,18,68,31,133,21,69,17,185,25,73,02,332,*6A
$GLGSV,3,2,10,78,12,155,,79,65,160,36,80,55,330,20,82,05,007,*65
$GLGSV,3,3,10,83,20,319,22,84,12,265,*68
$GNGLL,0419.82287,S,05539.75036,E,055817.00,A,A*62
$GNRMC,055818.00,A,0419.82287,S,05539.75037,E,0.113,,270525,,,A*71
$GNVTG,,T,,M,0.113,N,0.209,K,A*35
$GNGGA,055818.00,0419.82287,S,05539.75037,E,1,12,0.71,29.2,M,-47.6,M,,*4D
$GNGSA,A,3,12,05,24,25,18,15,23,20,13,,,,1.35,0.71,1.15*13
$GNGSA,A,3,79,80,68,83,67,69,,,,,,,1.35,0.71,1.15*15
$GPGSV,4,1,15,05,53,050,21,12,65,037,33,13,14,122,20,15,35,154,30*7C
$GPGSV,4,2,15,18,34,272,30,20,20,036,14,23,31,206,18,24,41,190,17*72
$GPGSV,4,3,15,25,43,343,29,29,11,334,22,36,52,277,,40,86,351,37*73
$GPGSV,4,4,15,41,58,082,38,49,32,274,,50,10,089,*4C
$GLGSV,3,1,10,67,17,081,20,68,31,133,22,69,17,185,24,73,02,332,*60
$GLGSV,3,2,10,78,12,155,,79,65,160,36,80,55,330,21,82,05,007,*64
$GLGSV,3,3,10,83,20,319,19,84,12,265,*60
$GNGLL,0419.82287,S,05539.75037,E,055818.00,A,A*6C
$GNRMC,055819.00,A,0419.82281,S,05539.75062,E,0.190,,270525,,,A*7D
$GNVTG,,T,,M,0.190,N,0.352,K,A*31
$GNGGA,055819.00,0419.82281,S,05539.75062,E,1,12,0.65,29.0,M,-47.6,M,,*4D
$GNGSA,A,3,12,05,24,25,18,15,23,20,13,41,,,1.26,0.65,1.08*1D
$GNGSA,A,3,79,80,68,83,67,69,,,,,,,1.26,0.65,1.08*1E
$GPGSV,4,1,15,05,53,050,20,12,65,037,34,13,14,122,20,15,35,154,30*7A
$GPGSV,4,2,15,18,34,272,32,20,20,036,11,23,31,206,17,24,41,190,18*75
$GPGSV,4,3,15,25,43,343,30,29,11,334,22,36,52,277,,40,86,351,34*78
$GPGSV,4,4,15,41,58,082,40,49,32,274,,50,10,089,*43
$GLGSV,3,1,10,67,17,081,17,68,31,133,21,69,17,185,23,73,02,332,*60
$GLGSV,3,2,10,78,12,155,,79,65,160,36,80,55,330,22,82,05,007,*67
$GLGSV,3,3,10,83,20,319,19,84,12,265,*60
$GNGLL,0419.82281,S,05539.75062,E,055819.00,A,A*6B
$GNRMC,055820.00,A,0419.82281,S,05539.75060,E,0.093,,270525,,,A*77
$GNVTG,,T,,M,0.093,N,0.172,K,A*33
$GNGGA,055820.00,0419.82281,S,05539.75060,E,1,12,0.69,28.9,M,-47.6,M,,*41
$GNGSA,A,3,12,05,24,25,18,15,20,13,41,,,,1.28,0.69,1.08*1E
$GNGSA,A,3,79,80,68,83,67,69,,,,,,,1.28,0.69,1.08*1C
$GPGSV,4,1,15,05,53,050,20,12,65,037,33,13,14,122,20,15,35,154,29*75
$GPGSV,4,2,15,18,34,272,32,20,20,036,13,23,31,206,,24,41,190,17*7E
$GPGSV,4,3,15,25,43,343,30,29,11,334,20,36,52,277,,40,86,351,33*7D
$GPGSV,4,4,15,41,58,082,39,49,32,274,,50,10,089,*4D
$GLGSV,3,1,10,67,17,081,10,68,31,133,22,69,17,185,25,73,02,332,*62
$GLGSV,3,2,10,78,12,155,,79,65,160,37,80,55,330,23,82,05,007,*67
$GLGSV,3,3,10,83,20,319,19,84,12,265,*60
$GNGLL,0419.82281,S,05539.75060,E,055820.00,A,A*63
$GNRMC,055821.00,A,0419.82281,S,05539.75065,E,0.115,,270525,,,A*7C
$GNVTG,,T,,M,0.115,N,0.213,K,A*38
$GNGGA,055821.00,0419.82281,S,05539.75065,E,1,12,0.71,28.5,M,-47.6,M,,*40
$GNGSA,A,3,12,05,24,25,18,15,20,13,41,,,,1.32,0.71,1.12*17
$GNGSA,A,3,79,80,68,83,67,69,,,,,,,1.32,0.71,1.12*15
$GPGSV,4,1,15,05,53,050,17,12,65,037,34,13,14,122,23,15,35,154,30*7D
$GPGSV,4,2,15,18,34,272,32,20,20,036,18,23,31,206,19,24,41,190,12*78
$GPGSV,4,3,15,25,43,343,29,29,11,334,18,36,52,277,,40,86,351,32*7F
$GPGSV,4,4,15,41,58,082,38,49,32,274,,50,10,089,*4C
$GLGSV,3,1,10,67,17,081,12,68,31,133,23,69,17,185,26,73,02,332,*62
$GLGSV,3,2,10,78,12,155,,79,65,160,38,80,55,330,25,82,05,007,*6E
$GLGSV,3,3,10,83,20,319,19,84,12,265,*60
$GNGLL,0419.82281,S,05539.75065,E,055821.00,A,A*67
$GNRMC,055822.00,A,0419.82285,S,05539.75062,E,0.033,,270525,,,A*79
$GNVTG,,T,,M,0.033,N,0.061,K,A*3A
$GNGGA,055822.00,0419.82285,S,05539.75062,E,1,12,0.69,28.4,M,-47.6,M,,*48
$GNGSA,A,3,12,05,24,25,18,15,20,13,41,,,,1.28,0.69,1.08*1E
$GNGSA,A,3,79,80,68,83,67,69,,,,,,,1.28,0.69,1.08*1C
$GPGSV,4,1,15,05,53,050,20,12,65,037,33,13,14,122,23,15,35,154,30*7E
$GPGSV,4,2,15,18,34,272,31,20,20,036,20,23,31,206,20,24,41,190,12*7A
$GPGSV,4,3,15,25,43,343,31,29,11,334,19,36,52,277,,40,86,351,32*77
$GPGSV,4,4,15,41,58,082,38,49,32,274,,50,10,089,*4C
$GLGSV,3,1,10,67,17,081,20,68,31,133,24,69,17,185,26,73,02,332,*64
$GLGSV,3,2,10,78,12,155,,79,65,160,37,80,55,330,24,82,05,007,*60
$GLGSV,3,3,10,83,20,319,20,84,12,265,*6A
$GNGLL,0419.82285,S,05539.75062,E,055822.00,A,A*67
$GNRMC,055823.00,A,0419.82289,S,05539.75064,E,0.066,,270525,,,A*72
$GNVTG,,T,,M,0.066,N,0.121,K,A*3F
$GNGGA,055823.00,0419.82289,S,05539.75064,E,1,12,0.69,28.3,M,-47.6,M,,*44
$GNGSA,A,3,12,05,24,25,18,15,20,13,41,,,,1.28,0.69,1.08*1E
$GNGSA,A,3,79,80,68,83,67,69,,,,,,,1.28,0.69,1.08*1C
$GPGSV,4,1,15,05,53,050,21,12,65,037,32,13,14,122,22,15,35,154,29*77
$GPGSV,4,2,15,18,34,272,30,20,20,036,20,23,31,206,17,24,41,190,18*75
$GPGSV,4,3,15,25,43,343,31,29,11,334,20,36,52,277,,40,86,351,36*79
$GPGSV,4,4,15,41,58,082,38,49,32,274,,50,10,089,*4C
$GLGSV,3,1,10,67,17,081,17,68,31,133,23,69,17,185,27,73,02,332,*66
$GLGSV,3,2,10,78,12,155,,79,65,160,38,80,55,330,22,82,05,007,*69
$GLGSV,3,3,10,83,20,319,22,84,12,265,*68
$GNGLL,0419.82289,S,05539.75064,E,055823.00,A,A*6C
$GNRMC,055824.00,A,0419.82295,S,05539.75053,E,0.380,,270525,,,A*77
$GNVTG,,T,,M,0.380,N,0.704,K,A*35
$GNGGA,055824.00,0419.82295,S,05539.75053,E,1,12,0.69,28.4,M,-47.6,M,,*4D
$GNGSA,A,3,12,05,24,25,18,15,20,13,41,,,,1.28,0.69,1.08*1E
$GNGSA,A,3,79,80,68,83,67,69,,,,,,,1.28,0.69,1.08*1C
$GPGSV,4,1,15,05,53,050,21,12,65,037,31,13,14,122,20,15,35,154,30*7E
$GPGSV,4,2,15,18,34,272,30,20,20,036,20,23,31,206,17,24,41,190,18*75
$GPGSV,4,3,15,25,43,343,31,29,11,334,19,36,52,277,,40,86,351,36*73
$GPGSV,4,4,15,41,58,082,38,49,32,274,,50,10,089,*4C
$GLGSV,3,1,10,67,17,081,16,68,31,133,23,69,17,185,28,73,02,332,*68
$GLGSV,3,2,10,78,12,155,,79,65,160,37,80,55,330,22,82,05,007,*66
$GLGSV,3,3,10,83,20,319,22,84,12,265,*68
$GNGLL,0419.82295,S,05539.75053,E,055824.00,A,A*62
$GNRMC,055825.00,A,0419.82298,S,05539.75046,E,0.064,,270525,,,A*76
$GNVTG,,T,,M,0.064,N,0.118,K,A*37
$GNGGA,055825.00,0419.82298,S,05539.75046,E,1,12,0.69,28.3,M,-47.6,M,,*42
$GNGSA,A,3,12,05,24,25,18,15,23,20,13,41,,,1.28,0.69,1.08*1F
$GNGSA,A,3,79,80,68,83,67,69,,,,,,,1.28,0.69,1.08*1C
$GPGSV,4,1,15,05,53,050,21,12,65,037,32,13,14,122,21,15,35,154,30*7C
$GPGSV,4,2,15,18,34,272,29,20,20,036,19,23,31,206,21,24,41,190,21*78
$GPGSV,4,3,15,25,43,343,30,29,11,334,21,36,52,277,,40,86,351,35*7A
$GPGSV,4,4,15,41,58,082,38,49,32,274,,50,10,089,*4C
$GLGSV,3,1,10,67,17,081,18,68,31,133,26,69,17,185,27,73,02,332,*6C
$GLGSV,3,2,10,78,12,155,,79,65,160,37,80,55,330,24,82,05,007,*60
$GLGSV,3,3,10,83,20,319,22,84,12,265,*68
$GNGLL,0419.82298,S,05539.75046,E,055825.00,A,A*6A
$GNRMC,055826.00,A,0419.82294,S,05539.75050,E,0.131,,270525,,,A*7F
$GNVTG,,T,,M,0.131,N,0.242,K,A*3A
$GNGGA,055826.00,0419.82294,S,05539.75050,E,1,12,0.69,27.9,M,-47.6,M,,*4F
$GNGSA,A,3,12,05,24,25,18,15,23,20,13,41,,,1.28,0.69,1.08*1F
$GNGSA,A,3,79,80,68,83,67,69,,,,,,,1.28,0.69,1.08*1C
$GPGSV,4,1,15,05,53,050,20,12,65,037,33,13,14,122,20,15,35,154,30*7D
$GPGSV,4,2,15,18,34,272,29,20,20,036,18,23,31,206,22,24,41,190,23*78
$GPGSV,4,3,15,25,43,343,30,29,11,334,21,36,52,277,,40,86,351,31*7E
$GPGSV,4,4,15,41,58,082,38,49,32,274,,50,10,089,*4C
$GLGSV,3,1,10,67,17,081,20,68,31,133,25,69,17,185,27,73,02,332,*64
$GLGSV,3,2,10,78,12,155,,79,65,160,36,80,55,330,25,82,05,007,*60
$GLGSV,3,3,10,83,20,319,20,84,12,265,*6A
$GNGLL,0419.82294,S,05539.75050,E,055826.00,A,A*62
$GNRMC,055827.00,A,0419.82295,S,05539.75055,E,0.146,,270525,,,A*7A
$GNVTG,,T,,M,0.146,N,0.270,K,A*3B
$GNGGA,055827.00,0419.82295,S,05539.75055,E,1,12,0.69,27.8,M,-47.6,M,,*4B
$GNGSA,A,3,12,05,24,25,18,15,23,20,13,41,,,1.28,0.69,1.08*1F
$GNGSA,A,3,79,80,68,83,67,69,,,,,,,1.28,0.69,1.08*1C
$GPGSV,4,1,15,05,53,050,22,12,65,037,33,13,14,122,20,15,35,154,31*7E
$GPGSV,4,2,15,18,34,272,31,20,20,036,18,23,31,206,20,24,41,190,22*72
$GPGSV,4,3,15,25,43,343,29,29,11,334,21,36,52,277,,40,86,351,30*77
$GPGSV,4,4,15,41,58,082,38,49,32,274,,50,10,089,*4C
$GLGSV,3,1,10,67,17,081,22,68,31,133,25,69,17,185,26,73,02,332,*67
$GLGSV,3,2,10,78,12,155,,79,65,160,36,80,55,330,25,82,05,007,*60
$GLGSV,3,3,10,83,20,319,17,84,12,265,*6E
$GNGLL,0419.82295,S,05539.75055,E,055827.00,A,A*67
$GNRMC,055828.00,A,0419.82290,S,05539.75057,E,0.042,,270525,,,A*77
$GNVTG,,T,,M,0.042,N,0.078,K,A*34
$GNGGA,055828.00,0419.82290,S,05539.75057,E,1,12,0.71,27.7,M,-47.6,M,,*45
$GNGSA,A,3,12,05,24,25,18,15,23,20,13,41,,,1.34,0.71,1.14*16
$GNGSA,A,3,79,80,68,83,67,69,,,,,,,1.34,0.71,1.14*15
$GPGSV,4,1,15,05,53,050,20,12,65,037,34,13,14,122,20,15,35,154,32*78
$GPGSV,4,2,15,18,34,272,30,20,20,036,19,23,31,206,20,24,41,190,21*71
$GPGSV,4,3,15,25,43,343,30,29,11,334,20,36,52,277,,40,86,351,31*7F
$GPGSV,4,4,15,41,58,082,38,49,32,274,,50,10,089,*4C
$GLGSV,3,1,10,67,17,081,21,68,31,133,26,69,17,185,26,73,02,332,*67
$GLGSV,3,2,10,78,12,155,,79,65,160,35,80,55,330,23,82,05,007,*65
$GLGSV,3,3,10,83,20,319,15,84,12,265,*6C
$GNGLL,0419.82290,S,05539.75057,E,055828.00,A,A*6F
$GNRMC,055829.00,A,0419.82283,S,05539.75062,E,0.121,,270525,,,A*76
$GNVTG,,T,,M,0.121,N,0.223,K,A*3C
$GNGGA,055829.00,0419.82283,S,05539.75062,E,1,12,0.71,27.6,M,-47.6,M,,*41
$GNGSA,A,3,12,05,24,25,18,15,23,20,13,41,,,1.34,0.71,1.14*16
$GNGSA,A,3,79,80,68,83,67,69,,,,,,,1.34,0.71,1.14*15
$GPGSV,4,1,15,05,53,050,18,12,65,037,34,13,14,122,20,15,35,154,33*72
$GPGSV,4,2,15,18,34,272,30,20,20,036,22,23,31,206,22,24,41,190,20*7A
$GPGSV,4,3,15,25,43,343,31,29,11,334,20,36,52,277,,40,86,351,35*7A
$GPGSV,4,4,15,41,58,082,36,49,32,274,,50,10,089,*42
$GLGSV,3,1,10,67,17,081,20,68,31,133,27,69,17,185,26,73,02,332,*67
$GLGSV,3,2,10,78,12,155,,79,65,160,34,80,55,330,21,82,05,007,*66
$GLGSV,3,3,10,83,20,319,17,84,12,265,*6E
$GNGLL,0419.82283,S,05539.75062,E,055829.00,A,A*6A
$GNRMC,055830.00,A,0419.82274,S,05539.75066,E,0.291,,270525,,,D*7F
$GNVTG,,T,,M,0.291,N,0.540,K,D*33
$GNGGA,055830.00,0419.82274,S,05539.75066,E,2,12,0.71,27.3,M,-47.6,M,,0000*43
$GNGSA,A,3,12,05,24,25,18,15,23,20,13,41,,,1.34,0.71,1.14*16
$GNGSA,A,3,79,80,68,83,67,69,,,,,,,1.34,0.71,1.14*15
$GPGSV,4,1,15,05,53,050,16,12,65,037,35,13,14,122,19,15,35,154,33*77
$GPGSV,4,2,15,18,34,272,29,20,20,036,22,23,31,206,24,24,41,190,18*7F
$GPGSV,4,3,15,25,43,343,30,29,11,334,19,36,52,277,,40,86,351,34*70
$GPGSV,4,4,15,41,58,082,37,49,32,274,,50,10,089,*43
$GLGSV,3,1,10,67,17,081,18,68,31,133,28,69,17,185,27,73,02,332,*62
$GLGSV,3,2,10,78,12,155,,79,64,161,35,80,55,330,17,82,05,007,*62
$GLGSV,3,3,10,83,20,319,18,84,12,265,*61
$GNGLL,0419.82274,S,05539.75066,E,055830.00,A,D*6B
$GNRMC,055831.00,A,0419.82274,S,05539.75069,E,0.015,,270525,,,D*7F
$GNVTG,,T,,M,0.015,N,0.027,K,D*39
$GNGGA,055831.00,0419.82274,S,05539.75069,E,2,12,0.71,27.2,M,-47.6,M,,0000*4C
$GNGSA,A,3,12,05,24,25,18,15,23,20,13,41,,,1.34,0.71,1.14*16
$GNGSA,A,3,79,80,68,83,67,69,,,,,,,1.34,0.71,1.14*15
$GPGSV,4,1,15,05,53,050,21,12,65,037,37,13,14,122,19,15,35,154,32*70
$GPGSV,4,2,15,18,34,272,29,20,20,036,21,23,31,206,24,24,41,190,15*71
$GPGSV,4,3,15,25,43,343,31,29,11,334,18,36,52,277,,40,86,351,33*77
$GPGSV,4,4,15,41,58,082,38,49,32,274,,50,10,089,*4C
$GLGSV,3,1,10,67,17,081,14,68,31,133,27,69,17,185,26,73,02,332,*60
$GLGSV,3,2,10,78,12,155,,79,64,161,34,80,56,329,15,82,05,007,17*6C
$GLGSV,3,3,10,83,20,319,18,84,12,265,*61
$GNGLL,0419.82274,S,05539.75069,E,055831.00,A,D*65
$GNRMC,055832.00,A,0419.82279,S,05539.75062,E,0.194,,270525,,,D*72
$GNVTG,,T,,M,0.194,N,0.359,K,D*3B
$GNGGA,055832.00,0419.82279,S,05539.75062,E,2,12,0.71,27.5,M,-47.6,M,,0000*4E
$GNGSA,A,3,12,05,24,25,18,15,23,20,13,41,,,1.34,0.71,1.14*16
$GNGSA,A,3,79,80,68,83,67,69,,,,,,,1.34,0.71,1.14*15
$GPGSV,4,1,15,05,53,050,20,12,65,037,37,13,14,122,19,15,35,154,32*71
$GPGSV,4,2,15,18,34,272,30,20,20,036,18,23,31,206,24,24,41,190,14*72
$GPGSV,4,3,15,25,43,343,30,29,11,334,17,36,52,277,,40,86,351,33*79
$GPGSV,4,4,15,41,58,082,38,49,32,274,,50,10,089,*4C
$GLGSV,3,1,10,67,17,081,14,68,31,133,27,69,17,185,25,73,02,332,*63
$GLGSV,3,2,10,78,12,155,,79,64,161,33,80,56,329,17,82,05,007,*6F
$GLGSV,3,3,10,83,20,319,21,84,12,265,*6B
$GNGLL,0419.82279,S,05539.75062,E,055832.00,A,D*60
$GNRMC,055833.00,A,0419.82275,S,05539.75062,E,0.095,,270525,,,D*7F
$GNVTG,,T,,M,0.095,N,0.176,K,D*34
$GNGGA,055833.00,0419.82275,S,05539.75062,E,2,12,0.71,27.5,M,-47.6,M,,0000*43
$GNGSA,A,3,12,05,24,25,18,15,23,20,13,41,,,1.34,0.71,1.14*16
$GNGSA,A,3,79,80,68,83,67,69,,,,,,,1.34,0.71,1.14*15
$GPGSV,4,1,15,05,53,050,22,12,65,037,36,13,14,122,18,15,35,154,32*73
$GPGSV,4,2,15,18,34,272,31,20,20,036,17,23,31,206,25,24,41,190,15*7C
$GPGSV,4,3,15,25,43,343,29,29,11,334,18,36,52,277,,40,86,351,36*7B
$GPGSV,4,4,15,41,58,082,38,49,32,274,,50,10,089,*4C
$GLGSV,3,1,10,67,17,081,14,68,31,133,26,69,17,185,25,73,02,332,*62
$GLGSV,3,2,10,78,12,155,,79,64,161,32,80,56,329,18,82,05,007,*61
$GLGSV,3,3,10,83,20,319,21,84,12,265,*6B
$GNGLL,0419.82275,S,05539.75062,E,055833.00,A,D*6D
$GNRMC,055834.00,A,0419.82276,S,05539.75047,E,0.178,,270525,,,D*7E
$GNVTG,,T,,M,0.178,N,0.329,K,D*3E
$GNGGA,055834.00,0419.82276,S,05539.75047,E,2,12,0.71,27.8,M,-47.6,M,,0000*4D
$GNGSA,A,3,12,05,24,25,18,15,23,20,13,41,,,1.34,0.71,1.14*16
$GNGSA,A,3,79,80,68,83,67,69,,,,,,,1.34,0.71,1.14*15
$GPGSV,4,1,15,05,53,050,26,12,65,037,36,13,14,122,18,15,35,154,32*77
$GPGSV,4,2,15,18,34,272,30,20,20,036,15,23,31,206,24,24,41,190,17*7C
$GPGSV,4,3,15,25,43,343,28,29,11,334,19,36,52,277,,40,86,351,31*7C
$GPGSV,4,4,15,41,58,082,38,49,32,274,,50,10,089,*4C
$GLGSV,3,1,10,67,17,081,19,68,31,133,26,69,17,185,26,73,02,332,*6C
$GLGSV,3,2,10,78,12,155,,79,64,161,33,80,56,329,21,82,05,007,*6A
$GLGSV,3,3,10,83,20,320,21,84,12,265,*61
$GNGLL,0419.82276,S,05539.75047,E,055834.00,A,D*6E
$GNRMC,055835.00,A,0419.82281,S,05539.75033,E,0.142,,270525,,,D*7D
$GNVTG,,T,,M,0.142,N,0.263,K,D*38
$GNGGA,055835.00,0419.82281,S,05539.75033,E,2,12,0.71,28.0,M,-47.6,M,,0000*40
$GNGSA,A,3,12,05,24,25,18,15,23,20,13,41,,,1.34,0.71,1.14*16
$GNGSA,A,3,79,80,68,83,67,69,,,,,,,1.34,0.71,1.14*15
$GPGSV,4,1,15,05,53,050,25,12,65,037,37,13,14,122,19,15,35,154,31*77
$GPGSV,4,2,15,18,34,272,31,20,20,036,14,23,31,206,26,24,41,190,19*70
$GPGSV,4,3,15,25,43,343,28,29,11,334,18,36,52,277,,40,86,351,28*75
$GPGSV,4,4,15,41,58,082,38,49,32,274,,50,10,089,*4C
$GLGSV,3,1,10,67,17,081,18,68,31,133,26,69,17,185,27,73,02,332,*6C
$GLGSV,3,2,10,78,12,155,,79,64,161,33,80,56,329,19,82,05,007,*61
$GLGSV,3,3,10,83,20,320,19,84,12,266,*69
$GNGLL,0419.82281,S,05539.75033,E,055835.00,A,D*64
$GNRMC,055836.00,A,0419.82279,S,05539.75035,E,0.119,,270525,,,D*71
$GNVTG,,T,,M,0.119,N,0.221,K,D*30
$GNGGA,055836.00,0419.82279,S,05539.75035,E,2,12,0.67,27.8,M,-47.6,M,,0000*42
$GNGSA,A,3,12,05,24,25,18,15,23,20,13,41,,,1.32,0.67,1.14*17
$GNGSA,A,3,79,80,68,83,67,69,,,,,,,1.32,0.67,1.14*14
$GPGSV,4,1,15,05,53,050,24,12,65,037,37,13,14,122,18,15,35,154,32*74
$GPGSV,4,2,15,18,34,272,31,20,20,036,13,23,31,206,25,24,41,190,19*74
$GPGSV,4,3,15,25,43,343,26,29,11,334,17,36,52,277,,40,86,351,29*75
$GPGSV,4,4,15,41,58,082,38,49,32,274,,50,10,089,*4C
$GLGSV,3,1,10,67,17,081,18,68,31,133,27,69,17,185,26,73,02,332,*6C
$GLGSV,3,2,10,78,12,155,,79,64,161,32,80,56,329,20,82,05,007,*6A
$GLGSV,3,3,10,83,20,320,17,84,12,266,*67
$GNGLL,0419.82279,S,05539.75035,E,055836.00,A,D*66
$GNRMC,055837.00,A,0419.82286,S,05539.75031,E,0.132,,270525,,,D*7D
$GNVTG,,T,,M,0.132,N,0.245,K,D*3B
$GNGGA,055837.00,0419.82286,S,05539.75031,E,2,12,0.71,27.9,M,-47.6,M,,0000*41
$GNGSA,A,3,12,05,24,25,18,15,23,20,13,41,,,1.34,0.71,1.14*16
$GNGSA,A,3,79,80,68,83,67,69,,,,,,,1.34,0.71,1.14*15
$GPGSV,4,1,15,05,53,050,25,12,65,037,36,13,14,122,16,15,35,154,30*78
$GPGSV,4,2,15,18,34,272,32,20,20,036,12,23,31,206,24,24,41,190,19*77
$GPGSV,4,3,15,25,43,343,27,29,11,334,17,36,52,277,,40,86,351,32*7E
$GPGSV,4,4,15,41,58,082,38,49,32,274,,50,10,089,*4C
$GLGSV,3,1,10,67,17,081,17,68,31,133,25,69,17,185,26,73,02,332,*61
$GLGSV,3,2,10,78,12,155,,79,64,161,32,80,56,329,24,82,05,007,*6E
$GLGSV,3,3,10,83,20,320,15,84,12,266,*65
$GNGLL,0419.82286,S,05539.75031,E,055837.00,A,D*63
$GNRMC,055838.00,A,0419.82298,S,05539.75030,E,0.074,,270525,,,D*7F
$GNVTG,,T,,M,0.074,N,0.138,K,D*31
$GNGGA,055838.00,0419.82298,S,05539.75030,E,2,12,0.71,28.3,M,-47.6,M,,0000*45
$GNGSA,A,3,12,05,24,25,18,15,23,20,13,41,,,1.34,0.71,1.14*16
$GNGSA,A,3,79,80,68,83,67,69,,,,,,,1.34,0.71,1.14*15
$GPGSV,4,1,15,05,53,050,28,12,65,037,36,13,14,122,14,15,35,154,32*75
$GPGSV,4,2,15,18,34,272,34,20,20,036,14,23,31,206,25,24,41,190,19*76
$GPGSV,4,3,15,25,43,343,33,29,11,334,20,36,52,277,,40,86,351,32*7F
$GPGSV,4,4,15,41,58,082,38,49,32,274,,50,10,089,*4C
$GLGSV,3,1,10,67,17,081,16,68,31,133,26,69,17,185,25,73,02,332,*60
$GLGSV,3,2,10,78,12,155,,79,64,161,32,80,56,329,24,82,05,007,*6E
$GLGSV,3,3,10,83,20,320,10,84,12,266,*60
$GNGLL,0419.82298,S,05539.75030,E,055838.00,A,D*62
$GNRMC,055839.00,A,0419.82300,S,05539.75034,E,0.056,,270525,,,D*7A
$GNVTG,,T,,M,0.056,N,0.104,K,D*3E
$GNGGA,055839.00,0419.82300,S,05539.75034,E,2,12,0.78,28.2,M,-47.6,M,,0000*48
$GNGSA,A,3,12,05,24,25,18,15,23,20,13,41,,,1.50,0.78,1.28*12
$GNGSA,A,3,79,80,68,67,69,,,,,,,,1.50,0.78,1.28*1A
$GPGSV,4,1,15,05,53,050,28,12,65,037,35,13,14,122,16,15,35,154,32*74
$GPGSV,4,2,15,18,34,272,34,20,20,036,17,23,31,206,26,24,41,190,29*75
$GPGSV,4,3,15,25,43,343,31,29,11,334,18,36,52,277,,40,86,351,29*7C
$GPGSV,4,4,15,41,58,082,37,49,32,274,,50,10,089,*43
$GLGSV,3,1,10,67,17,081,17,68,31,133,26,69,17,185,26,73,02,332,*62
$GLGSV,3,2,10,78,12,155,,79,64,161,33,80,56,329,22,82,05,007,*69
$GLGSV,3,3,10,83,20,320,09,84,12,266,*68
$GNGLL,0419.82300,S,05539.75034,E,055839.00,A,D*67
$GNRMC,055840.00,A,0419.82305,S,05539.75035,E,0.095,,270525,,,D*7F
$GNVTG,,T,,M,0.095,N,0.176,K,D*34
$GNGGA,055840.00,0419.82305,S,05539.75035,E,2,12,0.74,28.3,M,-47.6,M,,0000*4F
$GNGSA,A,3,12,05,24,25,18,15,23,20,13,41,,,1.41,0.74,1.21*17
$GNGSA,A,3,79,80,68,67,69,,,,,,,,1.41,0.74,1.21*1F
$GPGSV,4,1,15,05,53,050,25,12,65,037,36,13,14,122,17,15,35,154,33*7A
$GPGSV,4,2,15,18,34,272,33,20,20,036,16,23,31,206,25,24,41,190,29*70
$GPGSV,4,3,15,25,43,343,28,29,11,334,,36,52,277,,40,86,351,29*7D
$GPGSV,4,4,15,41,58,082,38,49,32,274,,50,10,089,*4C
$GLGSV,3,1,10,67,17,081,18,68,31,133,25,69,17,185,26,73,02,332,*6E
$GLGSV,3,2,10,78,12,155,,79,64,161,31,80,56,329,22,82,05,007,*6B
$GLGSV,3,3,10,83,20,320,08,84,12,266,*69
$GNGLL,0419.82305,S,05539.75035,E,055840.00,A,D*6D
$GNRMC,055841.00,A,0419.82302,S,05539.75032,E,0.137,,270525,,,D*77
$GNVTG,,T,,M,0.137,N,0.254,K,D*3E
$GNGGA,055841.00,0419.82302,S,05539.75032,E,2,12,0.70,28.3,M,-47.6,M,,0000*4A
$GNGSA,A,3,12,05,24,25,18,15,23,13,41,,,,1.33,0.70,1.13*15
$GNGSA,A,3,79,80,68,83,67,69,,,,,,,1.33,0.70,1.13*14
$GPGSV,4,1,15,05,53,050,26,12,65,037,35,13,14,122,20,15,35,154,34*79
$GPGSV,4,2,15,18,34,272,32,20,20,036,,23,31,206,23,24,41,190,28*71
$GPGSV,4,3,15,25,43,343,26,29,11,334,,36,52,277,,40,86,351,27*7D
$GPGSV,4,4,15,41,58,082,38,49,32,274,,50,10,089,*4C
$GLGSV,3,1,10,67,17,081,20,68,31,133,26,69,17,185,25,73,02,332,*65
$GLGSV,3,2,10,78,12,155,,79,64,161,32,80,56,329,22,82,05,007,*68
$GLGSV,3,3,10,83,20,320,15,84,12,266,*65
$GNGLL,0419.82302,S,05539.75032,E,055841.00,A,D*6C
$GNRMC,055842.00,A,0419.82307,S,05539.75027,E,0.074,,270525,,,D*73
$GNVTG,,T,,M,0.074,N,0.137,K,D*3E
$GNGGA,055842.00,0419.82307,S,05539.75027,E,2,12,0.70,28.6,M,-47.6,M,,0000*4D
$GNGSA,A,3,12,05,24,25,18,15,23,13,41,,,,1.33,0.70,1.13*15
$GNGSA,A,3,79,80,68,83,67,69,,,,,,,1.33,0.70,1.13*14
$GPGSV,4,1,15,05,53,050,28,12,65,037,36,13,14,122,21,15,35,154,33*72
$GPGSV,4,2,15,18,34,272,33,20,20,036,17,23,31,206,21,24,41,190,26*7A
$GPGSV,4,3,15,25,43,343,25,29,11,334,,36,52,277,,40,86,351,28*71
$GPGSV,4,4,15,41,58,082,38,49,32,274,,50,10,089,*4C
$GLGSV,3,1,10,67,17,081,22,68,31,133,27,69,17,185,24,73,02,332,*67
$GLGSV,3,2,10,78,12,155,,79,64,161,33,80,56,329,20,82,05,007,*6B
$GLGSV,3,3,10,83,20,320,10,84,12,266,*60
$GNGLL,0419.82307,S,05539.75027,E,055842.00,A,D*6E
$GNRMC,055843.00,A,0419.82309,S,05539.75024,E,0.048,,270525,,,D*70
$GNVTG,,T,,M,0.048,N,0.089,K,D*35
$GNGGA,055843.00,0419.82309,S,05539.75024,E,2,12,0.72,29.0,M,-47.6,M,,0000*44
$GNGSA,A,3,12,05,24,25,18,15,23,13,41,,,,1.36,0.72,1.16*17
$GNGSA,A,3,79,80,68,83,67,69,,,,,,,1.36,0.72,1.16*16
$GPGSV,4,1,15,05,53,050,26,12,65,037,35,13,14,122,20,15,35,154,32*7F
$GPGSV,4,2,15,18,34,272,33,20,20,036,18,23,31,206,19,24,41,190,26*7E
$GPGSV,4,3,15,25,43,343,25,29,11,334,,36,52,277,,40,86,351,27*7E
$GPGSV,4,4,15,41,58,082,37,49,32,274,,50,10,089,*43
$GLGSV,3,1,10,67,17,081,20,68,31,133,27,69,17,185,25,73,02,332,*64
$GLGSV,3,2,10,78,12,155,,79,64,161,32,80,56,329,18,82,05,007,*61
$GLGSV,3,3,10,83,20,320,09,84,12,266,*68
$GNGLL,0419.82309,S,05539.75024,E,055843.00,A,D*62
$GNRMC,055844.00,A,0419.82304,S,05539.75024,E,0.043,,270525,,,D*71
$GNVTG,,T,,M,0.043,N,0.080,K,D*37
$GNGGA,055844.00,0419.82304,S,05539.75024,E,2,12,0.72,28.8,M,-47.6,M,,0000*47
$GNGSA,A,3,12,05,24,25,18,15,23,13,41,,,,1.36,0.72,1.16*17
$GNGSA,A,3,79,80,68,83,67,69,,,,,,,1.36,0.72,1.16*16
$GPGSV,4,1,15,05,52,049,22,12,65,037,35,13,14,122,20,15,35,154,34*74
$GPGSV,4,2,15,18,34,272,32,20,20,036,19,23,31,206,19,24,41,190,26*7E
$GPGSV,4,3,15,25,43,343,24,29,11,334,,36,52,277,,40,86,351,27*7F
$GPGSV,4,4,15,41,58,082,39,49,32,274,,50,10,089,*4D
$GLGSV,3,1,10,67,17,081,19,68,31,133,26,69,17,185,27,73,02,332,*6D
$GLGSV,3,2,10,78,12,155,,79,64,161,32,80,56,329,16,82,05,007,*6F
$GLGSV,3,3,10,83,20,320,12,84,12,266,*62
$GNGLL,0419.82304,S,05539.75024,E,055844.00,A,D*68
$GNRMC,055845.00,A,0419.82307,S,05539.75023,E,0.077,,270525,,,D*73
$GNVTG,,T,,M,0.077,N,0.143,K,D*3E
$GNGGA,055845.00,0419.82307,S,05539.75023,E,2,12,0.69,29.0,M,-47.6,M,,0000*41
$GNGSA,A,3,12,05,24,25,18,15,23,20,13,41,,,1.32,0.69,1.12*1F
$GNGSA,A,3,79,80,68,83,67,69,,,,,,,1.32,0.69,1.12*1C
$GPGSV,4,1,15,05,52,049,17,12,65,037,35,13,14,122,18,15,35,154,30*7D
$GPGSV,4,2,15,18,34,272,32,20,20,036,19,23,31,206,22,24,41,190,25*75
$GPGSV,4,3,15,25,43,343,24,29,11,334,,36,52,277,,40,86,351,27*7F
$GPGSV,4,4,15,41,58,082,38,49,32,274,,50,10,089,*4C
$GLGSV,3,1,10,67,17,081,15,68,31,133,26,69,17,185,26,73,02,332,*60
$GLGSV,3,2,10,78,12,155,,79,64,161,32,80,56,329,15,82,05,007,*6C
$GLGSV,3,3,10,83,20,320,08,84,12,266,*69
$GNGLL,0419.82307,S,05539.75023,E,055845.00,A,D*6D
$GNRMC,055846.00,A,0419.82313,S,05539.75014,E,0.131,,270525,,,D*72
$GNVTG,,T,,M,0.131,N,0.243,K,D*3E
$GNGGA,055846.00,0419.82313,S,05539.75014,E,2,12,0.67,29.3,M,-47.6,M,,0000*4E
$GNGSA,A,3,12,05,24,25,18,15,23,20,13,41,,,1.30,0.67,1.11*10
$GNGSA,A,3,79,80,68,83,67,69,,,,,,,1.30,0.67,1.11*13
$GPGSV,4,1,15,05,52,049,20,12,65,037,34,13,14,122,17,15,35,154,29*7F
$GPGSV,4,2,15,18,34,272,31,20,20,036,19,23,31,206,22,24,41,190,23*70
$GPGSV,4,3,15,25,43,343,23,29,11,334,,36,52,277,,40,86,351,29*76
$GPGSV,4,4,15,41,58,082,38,49,32,274,,50,10,089,*4C
$GLGSV,3,1,10,67,17,081,15,68,31,133,26,69,17,185,26,73,02,332,*60
$GLGSV,3,2,10,78,12,155,,79,64,161,32,80,56,329,17,82,05,007,*6E
$GLGSV,3,3,10,83,20,320,10,84,12,266,*60
$GNGLL,0419.82313,S,05539.75014,E,055846.00,A,D*6F
$GNRMC,055847.00,A,0419.82317,S,05539.75007,E,0.046,,270525,,,D*74
$GNVTG,,T,,M,0.046,N,0.084,K,D*36
$GNGGA,055847.00,0419.82317,S,05539.75007,E,2,12,0.75,29.4,M,-47.6,M,,0000*4D
$GNGSA,A,3,12,05,24,25,18,15,23,20,13,41,,,1.45,0.75,1.24*17
$GNGSA,A,3,79,80,68,83,67,69,,,,,,,1.45,0.75,1.24*14
$GPGSV,4,1,15,05,52,049,23,12,65,037,33,13,14,122,18,15,35,154,29*74
$GPGSV,4,2,15,18,34,272,31,20,20,036,17,23,31,206,21,24,41,190,22*7C
$GPGSV,4,3,15,25,43,343,25,29,11,334,,36,52,277,,40,86,351,28*71
$GPGSV,4,4,15,41,58,082,38,49,32,274,,50,10,089,*4C
$GLGSV,3,1,10,67,17,081,18,68,31,133,26,69,17,185,26,73,02,332,*6D
$GLGSV,3,2,10,78,12,155,,79,64,161,32,80,56,329,20,82,05,007,*6A
$GLGSV,3,3,10,83,20,320,21,84,12,266,*62
$GNGLL,0419.82317,S,05539.75007,E,055847.00,A,D*68
$GNRMC,055848.00,A,0419.82327,S,05539.74997,E,0.077,,270525,,,D*7B
$GNVTG,,T,,M,0.077,N,0.142,K,D*3F
$GNGGA,055848.00,0419.82327,S,05539.74997,E,2,12,0.65,29.6,M,-47.6,M,,0000*43
$GNGSA,A,3,12,05,24,25,18,15,23,20,13,41,,,1.26,0.65,1.07*12
$GNGSA,A,3,79,80,68,83,67,69,,,,,,,1.26,0.65,1.07*11
$GPGSV,4,1,15,05,52,049,22,12,65,037,31,13,14,122,16,15,35,154,27*77
$GPGSV,4,2,15,18,34,272,30,20,20,036,16,23,31,206,22,24,41,190,20*7D
$GPGSV,4,3,15,25,43,343,23,29,11,334,,36,52,277,,40,86,351,28*77
$GPGSV,4,4,15,41,58,082,37,49,32,274,,50,10,089,*43
$GLGSV,3,1,10,67,17,081,19,68,31,133,24,69,17,185,25,73,02,332,*6D
$GLGSV,3,2,10,78,12,155,,79,64,161,30,80,56,329,22,82,05,007,*6A
$GLGSV,3,3,10,83,20,320,14,84,12,266,*64
$GNGLL,0419.82327,S,05539.74997,E,055848.00,A,D*65
$GNRMC,055849.00,A,0419.82326,S,05539.74994,E,0.050,,270525,,,D*7D
$GNVTG,,T,,M,0.050,N,0.093,K,D*37
$GNGGA,055849.00,0419.82326,S,05539.74994,E,2,12,0.67,29.5,M,-47.6,M,,0000*41
$GNGSA,A,3,12,05,24,25,18,15,23,20,13,41,,,1.30,0.67,1.11*10
$GNGSA,A,3,79,80,68,83,67,69,,,,,,,1.30,0.67,1.11*13
$GPGSV,4,1,15,05,52,049,22,12,65,037,29,13,14,122,13,15,35,154,26*7A
$GPGSV,4,2,15,18,34,272,29,20,20,036,14,23,31,206,22,24,41,190,18*7C
$GPGSV,4,3,15,25,43,343,21,29,11,334,,36,52,277,,40,86,351,29*74
$GPGSV,4,4,15,41,58,082,37,49,32,274,,50,10,089,*43
$GLGSV,3,1,10,67,17,081,19,68,31,133,24,69,17,185,26,73,02,332,*6E
$GLGSV,3,2,10,78,12,155,,79,64,161,28,80,56,329,25,82,05,007,*64
$GLGSV,3,3,10,83,20,320,17,84,12,266,*67
$GNGLL,0419.82326,S,05539.74994,E,055849.00,A,D*66
$GNRMC,055850.00,A,0419.82321,S,05539.74999,E,0.231,,270525,,,D*7A
$GNVTG,,T,,M,0.231,N,0.429,K,D*37
$GNGGA,055850.00,0419.82321,S,05539.74999,E,2,12,0.69,29.4,M,-47.6,M,,0000*4C
$GNGSA,A,3,12,05,24,25,18,15,23,20,13,41,,,1.32,0.69,1.12*1F
$GNGSA,A,3,79,80,68,83,67,69,,,,,,,1.32,0.69,1.12*1C
$GPGSV,4,1,15,05,52,049,19,12,65,037,28,13,14,122,16,15,35,154,26*76
$GPGSV,4,2,15,18,34,272,29,20,20,036,14,23,31,206,21,24,41,190,17*70
$GPGSV,4,3,15,25,43,343,20,29,11,334,,36,52,277,,40,86,351,27*7B
$GPGSV,4,4,15,41,58,082,37,49,32,274,,50,10,089,*43
$GLGSV,3,1,10,67,17,081,20,68,31,133,25,69,17,185,26,73,02,332,*65
$GLGSV,3,2,10,78,12,155,,79,64,161,27,80,56,329,27,82,05,007,*69
$GLGSV,3,3,10,83,20,320,21,84,12,266,*62
$GNGLL,0419.82321,S,05539.74999,E,055850.00,A,D*64
$GNRMC,055851.00,A,0419.82318,S,05539.74997,E,0.089,,270525,,,D*7E
$GNVTG,,T,,M,0.089,N,0.164,K,D*3A
$GNGGA,055851.00,0419.82318,S,05539.74997,E,2,12,0.70,29.4,M,-47.6,M,,0000*41
$GNGSA,A,3,12,05,24,25,18,15,23,20,13,41,,,1.35,0.70,1.15*17
$GNGSA,A,3,79,80,68,83,67,69,,,,,,,1.35,0.70,1.15*14
$GPGSV,4,1,15,05,52,049,20,12,66,038,29,13,14,122,16,15,35,154,27*70
$GPGSV,4,2,15,18,34,272,28,20,20,036,15,23,31,206,21,24,41,190,15*72
$GPGSV,4,3,15,25,43,343,20,29,11,334,,36,52,277,,40,86,351,*7E
$GPGSV,4,4,15,41,58,082,38,49,32,274,,50,10,089,*4C
$GLGSV,3,1,10,67,17,081,21,68,31,133,25,69,17,185,27,73,02,332,*65
$GLGSV,3,2,10,78,12,155,,79,64,161,28,80,56,329,27,82,05,007,*66
$GLGSV,3,3,10,83,20,320,22,84,12,266,*61
$GNGLL,0419.82318,S,05539.74997,E,055851.00,A,D*61
$GNRMC,055852.00,A,0419.82314,S,05539.74993,E,0.127,,270525,,,D*70
$GNVTG,,T,,M,0.127,N,0.236,K,D*3B
$GNGGA,055852.00,0419.82314,S,05539.74993,E,2,12,0.68,29.4,M,-47.6,M,,0000*43
$GNGSA,A,3,12,05,24,25,18,15,23,20,13,41,,,1.33,0.68,1.15*18
$GNGSA,A,3,79,80,68,83,67,69,,,,,,,1.33,0.68,1.15*1B
$GPGSV,4,1,15,05,52,049,22,12,66,038,29,13,14,121,16,15,35,154,28*7E
$GPGSV,4,2,15,18,34,272,27,20,20,036,17,23,31,206,21,24,41,190,13*79
$GPGSV,4,3,15,25,43,343,21,29,11,334,,36,52,277,,40,86,351,*7F
$GPGSV,4,4,15,41,58,082,38,49,32,274,,50,10,089,*4C
$GLGSV,3,1,10,67,17,081,20,68,31,133,23,69,17,185,26,73,02,332,*63
$GLGSV,3,2,10,78,12,155,,79,64,161,29,80,56,329,24,82,05,007,*64
$GLGSV,3,3,10,83,20,320,22,84,12,266,*61
$GNGLL,0419.82314,S,05539.74993,E,055852.00,A,D*6A
$GNRMC,055853.00,A,0419.82324,S,05539.74982,E,0.078,,270525,,,D*79
$GNVTG,,T,,M,0.078,N,0.144,K,D*36
$GNGGA,055853.00,0419.82324,S,05539.74982,E,2,12,0.69,29.7,M,-47.6,M,,0000*43
$GNGSA,A,3,12,05,24,25,18,15,23,20,13,41,,,1.31,0.69,1.12*1C
$GNGSA,A,3,79,80,68,83,67,69,,,,,,,1.31,0.69,1.12*1F
$GPGSV,4,1,15,05,52,049,26,12,66,038,29,13,14,121,16,15,35,154,28*7A
$GPGSV,4,2,15,18,34,272,28,20,20,036,19,23,31,206,22,24,41,190,13*7B
$GPGSV,4,3,15,25,43,343,21,29,11,334,18,36,52,277,,40,86,351,*76
$GPGSV,4,4,15,41,58,082,39,49,32,274,,50,10,089,*4D
$GLGSV,3,1,10,67,17,081,19,68,31,133,23,69,17,185,25,73,02,332,*6A
$GLGSV,3,2,10,78,12,155,,79,64,161,30,80,56,329,25,82,05,007,*6D
$GLGSV,3,3,10,83,20,320,22,84,12,266,*61
$GNGLL,0419.82324,S,05539.74982,E,055853.00,A,D*68
$GNRMC,055854.00,A,0419.82331,S,05539.74974,E,0.180,,270525,,,D*75
$GNVTG,,T,,M,0.180,N,0.333,K,D*32
$GNGGA,055854.00,0419.82331,S,05539.74974,E,2,12,0.69,30.1,M,-47.6,M,,0000*47
$GNGSA,A,3,12,05,24,25,18,15,23,20,13,41,,,1.31,0.69,1.12*1C
$GNGSA,A,3,79,80,68,83,67,69,,,,,,,1.31,0.69,1.12*1F
$GPGSV,4,1,15,05,52,049,27,12,66,038,28,13,14,121,16,15,35,154,28*7A
$GPGSV,4,2,15,18,34,272,28,20,20,036,19,23,31,206,22,24,41,190,17*7F
$GPGSV,4,3,15,25,43,343,21,29,11,334,16,36,52,277,,40,86,351,33*78
$GPGSV,4,4,15,41,58,082,39,49,32,274,,50,10,089,*4D
$GLGSV,3,1,10,67,17,081,21,68,31,133,24,69,17,185,25,73,02,332,*66
$GLGSV,3,2,10,78,12,155,,79,64,161,29,80,56,329,22,82,05,007,*62
$GLGSV,3,3,10,83,20,320,22,84,12,266,*61
$GNGLL,0419.82331,S,05539.74974,E,055854.00,A,D*62
$GNRMC,055855.00,A,0419.82340,S,05539.74960,E,0.237,,270525,,,D*78
$GNVTG,,T,,M,0.237,N,0.438,K,D*31
$GNGGA,055855.00,0419.82340,S,05539.74960,E,2,12,0.69,30.6,M,-47.6,M,,0000*42
$GNGSA,A,3,12,05,24,25,18,15,23,20,13,41,,,1.31,0.69,1.12*1C
$GNGSA,A,3,79,80,68,83,67,69,,,,,,,1.31,0.69,1.12*1F
$GPGSV,4,1,15,05,52,049,27,12,66,038,27,13,14,121,16,15,35,154,27*7A
$GPGSV,4,2,15,18,34,272,28,20,20,036,18,23,31,206,21,24,41,190,21*78
$GPGSV,4,3,15,25,43,343,22,29,11,334,13,36,52,277,,40,86,351,33*7E
$GPGSV,4,4,15,41,58,082,39,49,32,274,,50,10,089,*4D
$GLGSV,3,1,10,67,17,081,22,68,31,133,24,69,17,185,23,73,02,332,*63
$GLGSV,3,2,10,78,12,155,,79,64,161,29,80,56,329,19,82,05,007,*6A
$GLGSV,3,3,10,83,20,320,21,84,12,266,*62
$GNGLL,0419.82340,S,05539.74960,E,055855.00,A,D*60
$GNRMC,055856.00,A,0419.82346,S,05539.74955,E,0.150,,270525,,,D*79
$GNVTG,,T,,M,0.150,N,0.279,K,D*30
$GNGGA,055856.00,0419.82346,S,05539.74955,E,2,12,0.67,31.1,M,-47.6,M,,0000*49
$GNGSA,A,3,12,05,24,25,18,15,23,20,13,41,,,1.29,0.67,1.11*18
$GNGSA,A,3,79,80,68,83,67,69,,,,,,,1.29,0.67,1.11*1B
$GPGSV,4,1,15,05,52,049,27,12,66,038,26,13,14,121,14,15,35,154,26*78
$GPGSV,4,2,15,18,34,272,29,20,20,036,19,23,31,206,20,24,41,190,25*7D
$GPGSV,4,3,15,25,43,343,21,29,11,334,10,36,52,277,,40,86,351,32*7F
$GPGSV,4,4,15,41,58,082,39,49,32,274,,50,10,089,*4D
$GLGSV,3,1,10,67,17,081,23,68,31,133,23,69,17,185,22,73,02,332,*64
$GLGSV,3,2,10,78,12,155,,79,64,161,27,80,56,329,17,82,05,007,*6A
$GLGSV,3,3,10,83,20,320,20,84,12,266,*63
$GNGLL,0419.82346,S,05539.74955,E,055856.00,A,D*63
$GNRMC,055857.00,A,0419.82357,S,05539.74947,E,0.178,,270525,,,D*71
$GNVTG,,T,,M,0.178,N,0.330,K,D*36
$GNGGA,055857.00,0419.82357,S,05539.74947,E,2,12,0.70,31.8,M,-47.6,M,,0000*44
$GNGSA,A,3,12,05,24,25,18,15,20,13,41,,,,1.32,0.70,1.11*15
$GNGSA,A,3,79,80,68,83,67,69,,,,,,,1.32,0.70,1.11*17
$GPGSV,4,1,15,05,52,049,26,12,66,038,32,13,14,121,14,15,35,154,28*72
$GPGSV,4,2,15,18,34,273,29,20,20,036,18,23,31,206,25,24,41,190,25*78
$GPGSV,4,3,15,25,43,343,22,29,11,334,10,36,52,277,,40,86,351,30*7E
$GPGSV,4,4,15,41,58,082,42,49,32,274,,50,10,089,*41
$GLGSV,3,1,10,67,17,081,22,68,31,133,20,69,17,185,23,73,02,332,*67
$GLGSV,3,2,10,78,12,155,,79,64,161,27,80,56,329,20,82,05,007,*6E
$GLGSV,3,3,10,83,20,320,21,84,12,266,*62
$GNGLL,0419.82357,S,05539.74947,E,055857.00,A,D*61
$GNRMC,055858.00,A,0419.82355,S,05539.74953,E,0.173,,270525,,,D*72
$GNVTG,,T,,M,0.173,N,0.320,K,D*3C
$GNGGA,055858.00,0419.82355,S,05539.74953,E,2,12,0.68,32.0,M,-47.6,M,,0000*4E
$GNGSA,A,3,12,05,24,25,18,15,23,20,13,41,,,1.33,0.68,1.15*18
$GNGSA,A,3,79,80,68,83,67,69,,,,,,,1.33,0.68,1.15*1B
$GPGSV,4,1,15,05,52,049,21,12,66,038,31,13,14,121,14,15,35,154,28*76
$GPGSV,4,2,15,18,34,273,30,20,20,036,19,23,31,206,26,24,41,190,25*72
$GPGSV,4,3,15,25,43,343,25,29,11,334,11,36,52,277,,40,86,351,31*79
$GPGSV,4,4,15,41,58,082,42,49,32,274,,50,10,089,*41
$GLGSV,3,1,10,67,17,081,22,68,31,133,21,69,17,185,25,73,02,332,*60
$GLGSV,3,2,10,78,12,155,,79,64,161,28,80,56,329,21,82,05,007,*60
$GLGSV,3,3,10,83,20,320,21,84,12,266,*62
$GNGLL,0419.82355,S,05539.74953,E,055858.00,A,D*69
$GNRMC,055859.00,A,0419.82366,S,05539.74954,E,0.081,,270525,,,D*78
$GNVTG,,T,,M,0.081,N,0.150,K,D*35
$GNGGA,055859.00,0419.82366,S,05539.74954,E,2,12,0.68,32.6,M,-47.6,M,,0000*4E
$GNGSA,A,3,12,05,24,25,18,15,23,20,13,41,,,1.28,0.68,1.08*1E
$GNGSA,A,3,79,80,68,83,67,69,,,,,,,1.28,0.68,1.08*1D
$GPGSV,4,1,15,05,52,049,23,12,66,038,30,13,14,121,14,15,35,154,26*7B
$GPGSV,4,2,15,18,34,273,31,20,19,036,18,23,31,206,27,24,41,190,23*7F
$GPGSV,4,3,15,25,43,343,27,29,11,334,15,36,52,277,,40,86,351,31*7F
$GPGSV,4,4,15,41,58,082,41,49,32,274,,50,10,089,*42
$GLGSV,3,1,10,67,17,081,21,68,31,133,21,69,17,185,25,73,02,332,*63
$GLGSV,3,2,10,78,12,155,,79,64,161,29,80,56,329,20,82,05,007,*60
$GLGSV,3,3,10,83,20,320,21,84,12,266,*62
$GNGLL,0419.82366,S,05539.74954,E,055859.00,A,D*6F
$GNRMC,055900.00,A,0419.82375,S,05539.74953,E,0.346,,270525,,,D*78
$GNVTG,,T,,M,0.346,N,0.640,K,D*3B
$GNGGA,055900.00,0419.82375,S,05539.74953,E,2,12,0.69,33.4,M,-47.6,M,,0000*44
$GNGSA,A,3,12,05,24,25,18,15,23,20,13,41,,,1.31,0.69,1.12*1C
$GNGSA,A,3,79,80,68,83,67,69,,,,,,,1.31,0.69,1.12*1F
$GPGSV,4,1,15,05,52,049,24,12,66,038,30,13,14,121,14,15,35,154,26*7C
$GPGSV,4,2,15,18,34,273,32,20,19,036,15,23,31,206,25,24,41,190,23*73
$GPGSV,4,3,15,25,43,343,26,29,11,334,18,36,52,277,,40,86,351,31*73
$GPGSV,4,4,15,41,58,082,41,49,32,274,,50,10,089,*42
$GLGSV,3,1,10,67,17,081,22,68,31,133,21,69,17,185,26,73,02,332,*63
$GLGSV,3,2,10,78,12,155,,79,64,161,29,80,56,329,19,82,05,007,*6A
$GLGSV,3,3,10,83,20,320,22,84,12,266,*61
$GNGLL,0419.82375,S,05539.74953,E,055900.00,A,D*67
$GNRMC,055901.00,A,0419.82381,S,05539.74955,E,0.155,,270525,,,D*74
$GNVTG,,T,,M,0.155,N,0.287,K,D*34
$GNGGA,055901.00,0419.82381,S,05539.74955,E,2,12,0.76,33.7,M,-47.6,M,,0000*45
$GNGSA,A,3,12,05,24,25,18,15,23,20,13,41,,,1.38,0.76,1.15*1C
$GNGSA,A,3,79,80,68,83,67,69,,,,,,,1.38,0.76,1.15*1F
$GPGSV,4,1,15,05,52,049,22,12,66,038,29,13,14,121,14,15,35,154,27*73
$GPGSV,4,2,15,18,34,273,30,20,19,036,14,23,32,206,25,24,41,190,20*70
$GPGSV,4,3,15,25,43,343,24,29,11,334,18,36,52,277,,40,86,351,27*76
$GPGSV,4,4,15,41,58,082,41,49,32,274,,50,10,089,*42
$GLGSV,3,1,10,67,17,081,23,68,31,133,23,69,17,185,27,73,02,332,*61
$GLGSV,3,2,10,78,12,155,,79,64,161,34,80,56,329,24,82,05,007,*68
$GLGSV,3,3,10,83,20,320,23,84,12,266,*60
$GNGLL,0419.82381,S,05539.74955,E,055901.00,A,D*6B
$GNRMC,055902.00,A,0419.82384,S,05539.74960,E,0.063,,270525,,,D*70
$GNVTG,,T,,M,0.063,N,0.117,K,D*3A
$GNGGA,055902.00,0419.82384,S,05539.74960,E,2,12,0.69,34.1,M,-47.6,M,,0000*4A
$GNGSA,A,3,12,05,24,25,18,15,23,20,13,41,,,1.32,0.69,1.12*1F
$GNGSA,A,3,79,80,68,83,67,69,,,,,,,1.32,0.69,1.12*1C
$GPGSV,4,1,15,05,52,049,19,12,66,038,30,13,14,121,14,15,35,154,27*73
$GPGSV,4,2,15,18,34,273,30,20,19,036,15,23,32,206,24,24,41,189,21*79
$GPGSV,4,3,15,25,43,343,23,29,11,334,18,36,52,277,,40,86,351,27*71
$GPGSV,4,4,15,41,58,082,41,49,32,274,,50,10,089,*42
$GLGSV,3,1,10,67,17,081,24,68,31,133,25,69,17,185,26,73,02,332,*61
$GLGSV,3,2,10,78,12,155,,79,64,161,34,80,56,329,25,82,05,007,*69
$GLGSV,3,3,10,83,20,320,22,84,12,266,*61
$GNGLL,0419.82384,S,05539.74960,E,055902.00,A,D*6B
$GNRMC,055903.00,A,0419.82380,S,05539.74956,E,0.094,,270525,,,D*78
$GNVTG,,T,,M,0.094,N,0.174,K,D*37
$GNGGA,055903.00,0419.82380,S,05539.74956,E,2,12,0.69,34.3,M,-47.6,M,,0000*48
$GNGSA,A,3,12,05,24,25,18,15,23,20,13,41,,,1.32,0.69,1.12*1F
$GNGSA,A,3,79,80,68,83,67,69,,,,,,,1.32,0.69,1.12*1C
$GPGSV,4,1,15,05,52,049,14,12,66,038,29,13,14,121,14,15,35,154,28*79
$GPGSV,4,2,15,18,34,273,29,20,19,036,16,23,32,206,20,24,41,189,20*77
$GPGSV,4,3,15,25,43,343,22,29,11,334,19,36,52,277,,40,86,351,28*7E
$GPGSV,4,4,15,41,58,082,40,49,32,274,,50,10,089,*43
$GLGSV,3,1,10,67,17,081,25,68,31,133,23,69,17,185,25,73,02,332,*65
$GLGSV,3,2,10,78,12,155,,79,64,161,33,80,56,329,26,82,05,007,*6D
$GLGSV,3,3,10,83,20,320,20,84,12,266,*63
$GNGLL,0419.82380,S,05539.74956,E,055903.00,A,D*6B
$GNRMC,055904.00,A,0419.82384,S,05539.74953,E,0.206,,270525,,,D*77
$GNVTG,,T,,M,0.206,N,0.382,K,D*35
$GNGGA,055904.00,0419.82384,S,05539.74953,E,2,12,0.76,34.6,M,-47.6,M,,0000*45
$GNGSA,A,3,12,05,24,25,18,15,20,13,41,,,,1.38,0.76,1.15*1D
$GNGSA,A,3,79,80,68,83,67,69,,,,,,,1.38,0.76,1.15*1F
$GPGSV,4,1,15,05,52,049,15,12,66,038,28,13,14,121,14,15,35,154,28*79
$GPGSV,4,2,15,18,34,273,30,20,19,036,15,23,32,206,21,24,41,189,23*7E
$GPGSV,4,3,15,25,43,343,21,29,11,334,21,36,52,277,,40,86,351,28*76
$GPGSV,4,4,15,41,58,082,41,49,32,274,,50,10,089,*42
$GLGSV,3,1,10,67,17,081,25,68,31,133,19,69,17,185,23,73,02,332,*6A
$GLGSV,3,2,10,78,12,155,17,79,64,161,32,80,56,329,27,82,05,007,*6B
$GLGSV,3,3,10,83,20,320,20,84,12,266,*63
$GNGLL,0419.82384,S,05539.74953,E,055904.00,A,D*6D
$GNRMC,055905.00,A,0419.82381,S,05539.74948,E,0.080,,270525,,,D*75
$GNVTG,,T,,M,0.080,N,0.148,K,D*3D
$GNGGA,055905.00,0419.82381,S,05539.74948,E,2,12,0.70,34.5,M,-47.6,M,,0000*4E
$GNGSA,A,3,12,05,24,25,18,15,20,13,41,,,,1.31,0.70,1.11*16
$GNGSA,A,3,79,80,68,83,67,69,,,,,,,1.31,0.70,1.11*14
$GPGSV,4,1,15,05,52,049,21,12,66,038,28,13,14,121,14,15,35,154,26*70
$GPGSV,4,2,15,18,34,273,30,20,19,036,13,23,32,206,20,24,41,189,22*78
$GPGSV,4,3,15,25,43,343,22,29,11,334,23,36,52,277,,40,86,351,29*76
$GPGSV,4,4,15,41,58,082,40,49,32,274,,50,10,089,*43
$GLGSV,3,1,10,67,17,081,27,68,31,133,19,69,17,185,23,73,02,332,*68
$GLGSV,3,2,10,78,12,155,15,79,64,161,32,80,56,329,29,82,05,007,*67
$GLGSV,3,3,10,83,20,320,20,84,12,266,*63
$GNGLL,0419.82381,S,05539.74948,E,055905.00,A,D*63
$GNRMC,055906.00,A,0419.82384,S,05539.74951,E,0.335,,270525,,,D*76
$GNVTG,,T,,M,0.335,N,0.621,K,D*38
$GNGGA,055906.00,0419.82384,S,05539.74951,E,2,12,0.70,34.4,M,-47.6,M,,0000*41
$GNGSA,A,3,12,05,24,25,18,15,20,41,,,,,1.31,0.70,1.11*14
$GNGSA,A,3,79,80,68,83,67,69,,,,,,,1.31,0.70,1.11*14
$GPGSV,4,1,15,05,52,049,24,12,66,038,27,13,14,121,,15,35,154,25*7C
$GPGSV,4,2,15,18,34,273,31,20,19,036,13,23,32,206,20,24,41,189,21*7A
$GPGSV,4,3,15,25,43,343,23,29,11,334,23,36,52,277,,40,86,351,34*7B
$GPGSV,4,4,15,41,58,082,40,49,32,274,,50,10,089,*43
$GLGSV,3,1,10,67,17,081,27,68,31,133,23,69,17,185,23,73,02,332,*61
$GLGSV,3,2,10,78,12,155,15,79,64,161,32,80,56,329,28,82,05,007,*66
$GLGSV,3,3,10,83,20,320,21,84,12,266,*62
$GNGLL,0419.82384,S,05539.74951,E,055906.00,A,D*6D
$GNRMC,055907.00,A,0419.82389,S,05539.74957,E,0.110,,270525,,,D*79
$GNVTG,,T,,M,0.110,N,0.203,K,D*39
$GNGGA,055907.00,0419.82389,S,05539.74957,E,2,12,0.70,34.7,M,-47.6,M,,0000*48
$GNGSA,A,3,12,05,24,25,18,15,20,41,,,,,1.31,0.70,1.11*14
$GNGSA,A,3,79,80,68,83,67,69,,,,,,,1.31,0.70,1.11*14
$GPGSV,4,1,15,05,52,049,24,12,66,038,28,13,14,121,,15,35,154,25*73
$GPGSV,4,2,15,18,34,273,30,20,19,036,15,23,32,206,,24,41,189,17*7A
$GPGSV,4,3,15,25,43,343,23,29,11,334,22,36,52,277,,40,86,351,34*7A
$GPGSV,4,4,15,41,58,082,41,49,32,274,,50,10,089,*42
$GLGSV,3,1,10,67,17,081,27,68,31,133,24,69,17,185,23,73,02,332,*66
$GLGSV,3,2,10,78,12,155,15,79,64,161,31,80,56,329,30,82,05,007,*6C
$GLGSV,3,3,10,83,20,320,20,84,12,266,*63
$GNGLL,0419.82389,S,05539.74957,E,055907.00,A,D*67
$GNRMC,055908.00,A,0419.82383,S,05539.74957,E,0.092,,270525,,,D*77
$GNVTG,,T,,M,0.092,N,0.170,K,D*35
$GNGGA,055908.00,0419.82383,S,05539.74957,E,2,12,0.72,35.0,M,-47.6,M,,0000*49
$GNGSA,A,3,12,05,24,25,18,15,20,41,,,,,1.33,0.72,1.11*14
$GNGSA,A,3,79,80,68,83,67,69,,,,,,,1.33,0.72,1.11*14
$GPGSV,4,1,15,05,52,049,32,12,66,038,28,13,14,121,05,15,35,154,23*77
$GPGSV,4,2,15,18,34,273,28,20,19,036,15,23,32,206,,24,41,189,14*70
$GPGSV,4,3,15,25,43,343,20,29,11,334,21,36,52,277,,40,86,351,32*7C
$GPGSV,4,4,15,41,58,082,42,49,32,274,,50,10,089,*41
$GLGSV,3,1,10,67,17,081,26,68,31,133,24,69,17,185,23,73,02,332,*67
$GLGSV,3,2,10,78,12,155,15,79,64,161,30,80,56,329,30,82,05,007,*6D
$GLGSV,3,3,10,83,20,320,19,84,12,266,*69
$GNGLL,0419.82383,S,05539.74957,E,055908.00,A,D*62
$GNRMC,055909.00,A,0419.82380,S,05539.74953,E,0.108,,270525,,,D*73
$GNVTG,,T,,M,0.108,N,0.199,K,D*30
$GNGGA,055909.00,0419.82380,S,05539.74953,E,2,12,0.72,35.2,M,-47.6,M,,0000*4D
$GNGSA,A,3,12,05,24,25,18,15,20,41,,,,,1.33,0.72,1.11*14
$GNGSA,A,3,79,80,68,83,67,78,69,,,,,,1.33,0.72,1.11*1B
$GPGSV,4,1,15,05,52,049,31,12,66,038,28,13,14,121,08,15,35,154,22*78
$GPGSV,4,2,15,18,34,273,26,20,19,036,18,23,32,206,,24,41,189,14*73
$GPGSV,4,3,15,25,43,343,18,29,11,334,20,36,52,277,,40,86,351,31*75
$GPGSV,4,4,15,41,58,082,42,49,32,274,,50,10,089,*41
$GLGSV,3,1,10,67,17,081,26,68,31,133,25,69,17,185,23,73,02,332,*66
$GLGSV,3,2,10,78,12,155,15,79,64,161,31,80,56,329,29,82,05,007,*64
$GLGSV,3,3,10,83,20,320,19,84,12,266,*69
$GNGLL,0419.82380,S,05539.74953,E,055909.00,A,D*64
$GNRMC,055910.00,A,0419.82380,S,05539.74949,E,0.121,,270525,,,D*7B
$GNVTG,,T,,M,0.121,N,0.224,K,D*3E
$GNGGA,055910.00,0419.82380,S,05539.74949,E,2,12,0.72,35.6,M,-47.6,M,,0000*4A
$GNGSA,A,3,12,05,24,25,18,15,20,41,,,,,1.33,0.72,1.11*14
$GNGSA,A,3,79,80,68,83,67,78,69,,,,,,1.33,0.72,1.11*1B
$GPGSV,4,1,15,05,52,049,25,12,66,038,30,13,14,121,,15,35,154,24*7A
$GPGSV,4,2,15,18,34,273,25,20,19,036,18,23,32,206,,24,41,189,23*74
$GPGSV,4,3,15,25,43,343,19,29,11,334,18,36,52,277,,40,86,351,30*7E
$GPGSV,4,4,15,41,58,082,42,49,32,274,,50,10,089,*41
$GLGSV,3,1,10,67,17,081,26,68,31,133,25,69,17,185,24,73,02,332,*61
$GLGSV,3,2,10,78,12,155,12,79,64,161,31,80,56,329,29,82,05,007,*63
$GLGSV,3,3,10,83,20,320,19,84,12,266,*69
$GNGLL,0419.82380,S,05539.74949,E,055910.00,A,D*67
$GNRMC,055911.00,A,0419.82377,S,05539.74934,E,0.510,,270525,,,D*7E
$GNVTG,,T,,M,0.510,N,0.944,K,D*35
$GNGGA,055911.00,0419.82377,S,05539.74934,E,2,12,0.72,35.4,M,-47.6,M,,0000*4B
$GNGSA,A,3,12,05,24,25,18,15,20,41,,,,,1.33,0.72,1.11*14
$GNGSA,A,3,79,80,68,83,67,78,69,,,,,,1.33,0.72,1.11*1B
$GPGSV,4,1,15,05,52,049,25,12,66,038,29,13,14,121,23,15,35,154,23*74
$GPGSV,4,2,15,18,34,273,24,20,19,036,17,23,32,206,23,24,41,189,24*7C
$GPGSV,4,3,15,25,43,343,21,29,11,334,16,36,52,277,,40,86,351,28*72
$GPGSV,4,4,15,41,58,082,42,49,32,274,,50,10,089,*41
$GLGSV,3,1,10,67,17,081,25,68,31,133,25,69,17,185,23,73,02,332,*65
$GLGSV,3,2,10,78,12,155,11,79,64,161,31,80,56,329,29,82,05,007,*60
$GLGSV,3,3,10,83,20,320,19,84,12,266,*69
$GNGLL,0419.82377,S,05539.74934,E,055911.00,A,D*64
$GNRMC,055912.00,A,0419.82369,S,05539.74948,E,0.929,,270525,,,D*7F
$GNVTG,,T,,M,0.929,N,1.721,K,D*3F
$GNGGA,055912.00,0419.82369,S,05539.74948,E,2,12,0.70,34.9,M,-47.6,M,,0000*42
$GNGSA,A,3,12,05,24,25,18,15,20,41,,,,,1.31,0.70,1.11*14
$GNGSA,A,3,79,80,68,83,67,69,,,,,,,1.31,0.70,1.11*14
$GPGSV,4,1,15,05,52,049,26,12,66,038,28,13,14,121,22,15,35,154,20*74
$GPGSV,4,2,15,18,34,273,23,20,19,036,17,23,32,206,20,24,41,189,24*78
$GPGSV,4,3,15,25,43,343,24,29,11,334,13,36,52,277,,40,86,351,28*72
$GPGSV,4,4,15,41,58,082,41,49,32,274,,50,10,089,*42
$GLGSV,3,1,10,67,17,081,23,68,31,133,25,69,17,185,23,73,02,332,*63
$GLGSV,3,2,10,78,12,155,10,79,64,161,32,80,56,329,28,82,05,007,*63
$GLGSV,3,3,10,83,20,320,21,84,12,266,*62
$GNGLL,0419.82369,S,05539.74948,E,055912.00,A,D*63
$GNRMC,055913.00,A,0419.82368,S,05539.74943,E,0.149,,270525,,,D*7A
$GNVTG,,T,,M,0.149,N,0.275,K,D*34
$GNGGA,055913.00,0419.82368,S,05539.74943,E,2,12,0.69,35.2,M,-47.6,M,,0000*4B
$GNGSA,A,3,12,05,24,25,18,15,20,13,41,,,,1.28,0.69,1.07*11
$GNGSA,A,3,79,80,68,83,67,69,,,,,,,1.28,0.69,1.07*13
$GPGSV,4,1,15,05,52,049,29,12,66,038,28,13,14,121,23,15,35,154,16*7F
$GPGSV,4,2,15,18,34,273,25,20,19,036,17,23,32,206,19,24,41,189,22*72
$GPGSV,4,3,15,25,43,343,25,29,11,334,11,36,52,277,,40,86,351,28*71
$GPGSV,4,4,15,41,58,082,40,49,32,274,,50,10,089,*43
$GLGSV,3,1,10,67,17,081,21,68,31,133,26,69,17,185,24,73,02,332,*65
$GLGSV,3,2,10,78,12,155,09,79,64,161,32,80,56,329,28,82,05,007,*6B
$GLGSV,3,3,10,83,20,320,22,84,12,266,*61
$GNGLL,0419.82368,S,05539.74943,E,055913.00,A,D*68
$GNRMC,055914.00,A,0419.82366,S,05539.74940,E,0.119,,270525,,,D*75
$GNVTG,,T,,M,0.119,N,0.221,K,D*30
$GNGGA,055914.00,0419.82366,S,05539.74940,E,2,12,0.69,35.4,M,-47.6,M,,0000*47
$GNGSA,A,3,12,05,24,25,18,15,20,13,41,,,,1.28,0.69,1.07*11
$GNGSA,A,3,79,80,68,83,67,69,,,,,,,1.28,0.69,1.07*13
$GPGSV,4,1,15,05,52,049,28,12,66,038,30,13,14,121,23,15,35,154,20*72
$GPGSV,4,2,15,18,34,273,26,20,19,036,17,23,32,206,,24,41,189,21*7A
$GPGSV,4,3,15,25,43,343,26,29,11,334,11,36,52,277,,40,86,351,27*7D
$GPGSV,4,4,15,41,58,082,41,49,32,274,,50,10,089,*42
$GLGSV,3,1,10,67,17,081,18,68,31,133,27,69,17,185,23,73,02,332,*69
$GLGSV,3,2,10,78,12,155,08,79,64,161,31,80,56,329,25,82,05,007,*64
$GLGSV,3,3,10,83,20,320,23,84,12,266,*60
$GNGLL,0419.82366,S,05539.74940,E,055914.00,A,D*62
$GNRMC,055915.00,A,0419.82367,S,05539.74934,E,0.101,,270525,,,D*7F
$GNVTG,,T,,M,0.101,N,0.188,K,D*39
$GNGGA,055915.00,0419.82367,S,05539.74934,E,2,12,0.69,35.6,M,-47.6,M,,0000*46
$GNGSA,A,3,12,05,24,25,18,15,20,13,41,,,,1.28,0.69,1.07*11
$GNGSA,A,3,79,80,68,83,67,69,,,,,,,1.28,0.69,1.07*13
$GPGSV,4,1,15,05,52,049,28,12,66,038,31,13,14,121,21,15,35,154,22*73
$GPGSV,4,2,15,18,34,273,24,20,19,036,17,23,32,206,,24,41,189,22*7B
$GPGSV,4,3,15,25,43,343,26,29,11,334,15,36,52,277,,40,86,351,27*79
$GPGSV,4,4,15,41,58,082,41,49,32,274,,50,10,089,*42
$GLGSV,3,1,10,67,17,081,19,68,31,133,27,69,17,185,25,73,02,332,*6E
$GLGSV,3,2,10,78,12,155,09,79,64,161,32,80,56,329,23,82,05,007,*60
$GLGSV,3,3,10,83,20,320,23,84,12,266,*60
$GNGLL,0419.82367,S,05539.74934,E,055915.00,A,D*61
$GNRMC,055916.00,A,0419.82374,S,05539.74931,E,0.254,,270525,,,D*78
$GNVTG,,T,,M,0.254,N,0.470,K,D*38
$GNGGA,055916.00,0419.82374,S,05539.74931,E,2,12,0.69,35.6,M,-47.6,M,,0000*42
$GNGSA,A,3,12,05,24,25,18,15,20,13,41,,,,1.28,0.69,1.07*11
$GNGSA,A,3,79,80,68,83,67,69,,,,,,,1.28,0.69,1.07*13
$GPGSV,4,1,15,05,52,049,30,12,66,038,31,13,14,121,21,15,35,154,26*7E
$GPGSV,4,2,15,18,34,273,23,20,19,036,17,23,32,206,,24,41,189,23*7D
$GPGSV,4,3,15,25,43,343,27,29,11,334,16,36,52,277,,40,86,351,30*7D
$GPGSV,4,4,15,41,58,082,42,49,32,274,,50,10,089,*41
$GLGSV,3,1,10,67,17,081,20,68,31,133,26,69,17,185,23,73,02,332,*63
$GLGSV,3,2,10,78,12,155,09,79,64,161,30,80,56,329,23,82,05,007,*62
$GLGSV,3,3,10,83,20,320,24,84,12,266,*67
$GNGLL,0419.82374,S,05539.74931,E,055916.00,A,D*65
$GNRMC,055917.00,A,0419.82376,S,05539.74922,E,0.070,,270525,,,D*7D
$GNVTG,,T,,M,0.070,N,0.130,K,D*3D
$GNGGA,055917.00,0419.82376,S,05539.74922,E,2,12,0.69,34.9,M,-47.6,M,,0000*4D
$GNGSA,A,3,12,05,24,25,18,15,20,13,41,,,,1.28,0.69,1.07*11
$GNGSA,A,3,79,80,68,83,67,69,,,,,,,1.28,0.69,1.07*13
$GPGSV,4,1,15,05,52,049,29,12,66,038,25,13,14,121,19,15,35,154,25*7B
$GPGSV,4,2,15,18,34,273,24,20,19,036,17,23,32,206,,24,41,189,21*78
$GPGSV,4,3,15,25,43,343,28,29,11,334,14,36,52,277,,40,86,351,35*75
$GPGSV,4,4,15,41,58,082,41,49,32,274,,50,10,089,*42
$GLGSV,3,1,10,67,17,081,20,68,31,133,26,69,17,185,22,73,02,332,*62
$GLGSV,3,2,10,78,12,155,,79,64,161,30,80,56,329,25,82,05,007,*6D
$GLGSV,3,3,10,83,20,320,21,84,12,266,*62
$GNGLL,0419.82376,S,05539.74922,E,055917.00,A,D*64
$GNRMC,055918.00,A,0419.82378,S,05539.74910,E,0.523,,270525,,,D*7E
$GNVTG,,T,,M,0.523,N,0.969,K,D*3A
$GNGGA,055918.00,0419.82378,S,05539.74910,E,2,12,0.69,34.8,M,-47.6,M,,0000*4C
$GNGSA,A,3,12,05,24,25,18,15,20,13,41,,,,1.28,0.69,1.07*11
$GNGSA,A,3,79,80,68,83,67,69,,,,,,,1.28,0.69,1.07*13
$GPGSV,4,1,15,05,52,049,29,12,66,038,25,13,14,121,19,15,35,154,26*78
$GPGSV,4,2,15,18,34,273,24,20,19,036,16,23,32,206,,24,41,189,24*7C
$GPGSV,4,3,15,25,43,343,28,29,11,334,13,36,52,277,,40,86,351,38*7F
$GPGSV,4,4,15,41,58,082,40,49,32,274,,50,10,089,*43
$GLGSV,3,1,10,67,17,081,19,68,31,133,26,69,17,185,21,73,02,332,*6B
$GLGSV,3,2,10,78,12,155,,79,64,161,32,80,56,329,23,82,05,007,*69
$GLGSV,3,3,10,83,20,320,20,84,12,266,*63
$GNGLL,0419.82378,S,05539.74910,E,055918.00,A,D*64
$GNRMC,055919.00,A,0419.82380,S,05539.74911,E,0.223,,270525,,,D*7E
$GNVTG,,T,,M,0.223,N,0.413,K,D*3D
$GNGGA,055919.00,0419.82380,S,05539.74911,E,2,12,0.69,34.3,M,-47.6,M,,0000*40
$GNGSA,A,3,12,05,24,25,18,15,20,13,41,,,,1.28,0.69,1.07*11
$GNGSA,A,3,79,80,68,83,67,69,,,,,,,1.28,0.69,1.07*13
$GPGSV,4,1,15,05,52,049,28,12,66,038,32,13,14,121,20,15,35,154,24*77
$GPGSV,4,2,15,18,34,273,22,20,19,036,13,23,32,206,,24,41,189,22*79
$GPGSV,4,3,15,25,43,343,28,29,11,334,13,36,52,277,,40,86,351,36*71
$GPGSV,4,4,15,41,58,082,40,49,32,274,,50,10,089,*43
$GLGSV,3,1,10,67,17,081,18,68,31,133,25,69,17,185,17,73,02,332,*6C
$GLGSV,3,2,10,78,12,155,,79,64,161,30,80,56,329,22,82,05,007,*6A
$GLGSV,3,3,10,83,20,320,21,84,12,266,*62
$GNGLL,0419.82380,S,05539.74911,E,055919.00,A,D*63
$GNRMC,055920.00,A,0419.82378,S,05539.74922,E,0.431,,270525,,,D*76
$GNVTG,,T,,M,0.431,N,0.798,K,D*38
$GNGGA,055920.00,0419.82378,S,05539.74922,E,2,12,0.69,33.9,M,-47.6,M,,0000*40
$GNGSA,A,3,12,05,24,25,18,15,20,13,41,,,,1.28,0.69,1.07*11
$GNGSA,A,3,79,80,68,83,67,69,,,,,,,1.28,0.69,1.07*13
$GPGSV,4,1,15,05,52,049,33,12,66,038,33,13,14,121,20,15,35,154,26*7E
$GPGSV,4,2,15,18,34,273,22,20,19,036,17,23,32,206,,24,41,189,22*7D
$GPGSV,4,3,15,25,43,343,28,29,11,334,17,36,52,277,,40,86,351,35*76
$GPGSV,4,4,15,41,58,082,41,49,32,274,,50,10,089,*42
$GLGSV,3,1,10,67,17,081,16,68,31,133,25,69,17,185,16,73,02,332,*63
$GLGSV,3,2,10,78,12,155,,79,64,161,29,80,56,329,26,82,05,007,*66
$GLGSV,3,3,10,83,20,320,20,84,12,266,*63
$GNGLL,0419.82378,S,05539.74922,E,055920.00,A,D*6E
$GNRMC,055921.00,A,0419.82390,S,05539.74926,E,0.276,,270525,,,D*70
$GNVTG,,T,,M,0.276,N,0.511,K,D*3E
$GNGGA,055921.00,0419.82390,S,05539.74926,E,2,12,0.69,33.9,M,-47.6,M,,0000*43
$GNGSA,A,3,12,05,24,25,18,15,20,13,41,,,,1.28,0.69,1.07*11
$GNGSA,A,3,79,80,68,83,67,69,,,,,,,1.28,0.69,1.07*13
$GPGSV,4,1,15,05,52,049,31,12,66,038,34,13,14,121,19,15,35,154,24*73
$GPGSV,4,2,15,18,34,273,24,20,19,036,18,23,32,206,,24,41,189,22*74
$GPGSV,4,3,15,25,43,343,33,29,11,334,20,36,52,277,,40,86,351,34*79
$GPGSV,4,4,15,41,58,082,41,49,32,274,,50,10,089,*42
$GLGSV,3,1,10,67,17,081,16,68,31,133,25,69,17,185,16,73,02,332,*63
$GLGSV,3,2,10,78,12,155,,79,64,161,31,80,56,329,26,82,05,007,*6F
$GLGSV,3,3,10,83,20,320,21,84,12,266,*62
$GNGLL,0419.82390,S,05539.74926,E,055921.00,A,D*6D
$GNRMC,055922.00,A,0419.82398,S,05539.74913,E,0.234,,270525,,,D*7B
$GNVTG,,T,,M,0.234,N,0.434,K,D*3E
$GNGGA,055922.00,0419.82398,S,05539.74913,E,2,12,0.69,34.2,M,-47.6,M,,0000*42
$GNGSA,A,3,12,05,24,25,18,15,20,13,41,,,,1.28,0.69,1.07*11
$GNGSA,A,3,79,80,68,83,67,69,,,,,,,1.28,0.69,1.07*13
$GPGSV,4,1,15,05,52,049,24,12,66,038,30,13,14,121,19,15,35,154,22*75
$GPGSV,4,2,15,18,34,273,25,20,19,036,19,23,32,206,,24,41,189,23*75
$GPGSV,4,3,15,25,43,343,31,29,11,334,19,36,52,277,,40,86,351,34*71
$GPGSV,4,4,15,41,58,082,42,49,32,274,,50,10,089,*41
$GLGSV,3,1,10,67,17,081,15,68,31,133,25,69,17,185,17,73,02,332,*61
$GLGSV,3,2,10,78,12,155,,79,64,161,30,80,56,329,21,82,05,007,*69
$GLGSV,3,3,10,83,20,320,19,84,12,266,*69
$GNGLL,0419.82398,S,05539.74913,E,055922.00,A,D*60
$GNRMC,055923.00,A,0419.82413,S,05539.74908,E,0.416,,270525,,,D*72
$GNVTG,,T,,M,0.416,N,0.770,K,D*3B
$GNGGA,055923.00,0419.82413,S,05539.74908,E,2,12,0.69,33.4,M,-47.6,M,,0000*4C
$GNGSA,A,3,12,05,24,25,18,15,20,13,41,,,,1.28,0.69,1.07*11
$GNGSA,A,3,79,80,68,83,67,69,,,,,,,1.28,0.69,1.07*13
$GPGSV,4,1,15,05,52,049,23,12,66,038,28,13,14,121,17,15,35,154,21*76
$GPGSV,4,2,15,18,34,273,25,20,19,036,19,23,32,206,,24,41,189,22*74
$GPGSV,4,3,15,25,43,343,30,29,11,334,19,36,52,277,,40,86,351,35*71
$GPGSV,4,4,15,41,58,082,37,49,32,274,,50,10,089,*43
$GLGSV,3,1,10,67,17,081,17,68,31,133,23,69,17,185,17,73,02,332,*65
$GLGSV,3,2,10,78,12,155,,79,64,161,30,80,56,329,21,82,05,007,*69
$GLGSV,3,3,10,83,20,320,17,84,12,266,*67
$GNGLL,0419.82413,S,05539.74908,E,055923.00,A,D*6F
$GNRMC,055924.00,A,0419.82427,S,05539.74916,E,0.761,,270525,,,D*7E
$GNVTG,,T,,M,0.761,N,1.409,K,D*34
$GNGGA,055924.00,0419.82427,S,05539.74916,E,2,12,0.69,33.0,M,-47.6,M,,0000*47
$GNGSA,A,3,12,05,24,25,18,15,20,13,41,,,,1.28,0.69,1.07*11
$GNGSA,A,3,79,80,68,83,67,69,,,,,,,1.28,0.69,1.07*13
$GPGSV,4,1,15,05,52,049,22,12,66,038,25,13,14,121,14,15,35,154,30*79
$GPGSV,4,2,15,18,34,273,24,20,19,036,22,23,32,206,,24,41,189,25*7A
$GPGSV,4,3,15,25,43,343,21,29,11,334,18,36,52,277,,40,86,351,33*76
$GPGSV,4,4,15,41,58,082,33,49,32,274,,50,10,089,*47
$GLGSV,3,1,10,67,17,081,18,68,31,133,23,69,17,185,16,73,02,332,*6B
$GLGSV,3,2,10,78,12,155,,79,64,161,34,80,56,329,22,82,05,007,*6E
$GLGSV,3,3,10,83,20,320,14,84,12,266,*64
$GNGLL,0419.82427,S,05539.74916,E,055924.00,A,D*60
$GNRMC,055925.00,A,0419.82423,S,05539.74919,E,0.460,,270525,,,D*76
$GNVTG,,T,,M,0.460,N,0.852,K,D*35
$GNGGA,055925.00,0419.82423,S,05539.74919,E,2,12,0.69,33.2,M,-47.6,M,,0000*4F
$GNGSA,A,3,12,05,24,25,18,15,20,13,41,,,,1.28,0.69,1.07*11
$GNGSA,A,3,79,80,68,83,67,69,,,,,,,1.28,0.69,1.07*13
$GPGSV,4,1,15,05,52,049,20,12,66,038,27,13,14,121,19,15,35,154,29*7C
