$GNRMC,055323.00,A,0419.82537,S,05539.74750,E,0.215,,270525,,,A*7C
$GNVTG,,T,,M,0.215,N,0.398,K,A*39
$GNGGA,055323.00,0419.82537,S,05539.74750,E,1,12,0.66,18.8,M,-47.6,M,,*4B
$GNGSA,A,3,12,05,24,25,18,15,23,20,13,,,,1.31,0.66,1.14*10
$GNGSA,A,3,79,80,68,83,67,78,69,,,,,,1.31,0.66,1.14*19
$GPGSV,4,1,15,05,55,053,30,12,63,033,21,13,14,124,19,15,35,157,21*77
$GPGSV,4,2,15,18,34,269,17,20,22,037,15,23,29,206,26,24,42,192,17*7A
$GPGSV,4,3,15,25,41,343,19,29,10,332,,36,52,277,,40,86,351,*71
$GPGSV,4,4,15,41,58,082,,49,32,274,,50,10,089,*47
$GLGSV,3,1,10,67,17,084,09,68,30,136,26,69,15,187,25,73,00,333,*6C
$GLGSV,3,2,10,78,15,155,16,79,68,157,20,80,53,332,19,82,06,005,*64
$GLGSV,3,3,10,83,22,317,18,84,13,263,*6A
$GNGLL,0419.82537,S,05539.74750,E,055323.00,A,A*64
$GNRMC,055324.00,A,0419.82537,S,05539.74762,E,0.041,,270525,,,A*79
$GNVTG,,T,,M,0.041,N,0.076,K,A*39
$GNGGA,055324.00,0419.82537,S,05539.74762,E,1,12,0.66,18.0,M,-47.6,M,,*45
$GNGSA,A,3,12,05,24,25,18,15,23,20,13,,,,1.31,0.66,1.14*10
$GNGSA,A,3,79,80,68,83,67,78,69,,,,,,1.31,0.66,1.14*19
$GPGSV,4,1,15,05,55,053,24,12,63,033,19,13,14,124,17,15,35,157,17*72
$GPGSV,4,2,15,18,34,269,15,20,22,037,13,23,29,206,25,24,42,192,15*7F
$GPGSV,4,3,15,25,41,343,15,29,10,332,,36,52,277,,40,86,351,*7D
$GPGSV,4,4,15,41,58,082,,49,32,274,,50,10,089,*47
$GLGSV,3,1,10,67,17,084,09,68,30,136,25,69,15,187,26,73,00,333,*6C
$GLGSV,3,2,10,78,15,155,14,79,68,157,18,80,53,332,17,82,06,005,*63
$GLGSV,3,3,10,83,22,317,16,84,13,263,*64
$GNGLL,0419.82537,S,05539.74762,E,055324.00,A,A*62
$GNRMC,055325.00,A,0419.82524,S,05539.74767,E,0.255,,270525,,,A*78
$GNVTG,,T,,M,0.255,N,0.472,K,A*3E
$GNGGA,055325.00,0419.82524,S,05539.74767,E,1,12,0.69,16.7,M,-47.6,M,,*45
$GNGSA,A,3,12,05,24,25,18,15,23,20,13,,,,1.35,0.69,1.16*19
$GNGSA,A,3,79,80,68,83,78,69,,,,,,,1.35,0.69,1.16*11
$GPGSV,4,1,15,05,55,053,26,12,63,033,29,13,14,124,19,15,35,157,19*73
$GPGSV,4,2,15,18,34,269,14,20,22,037,14,23,29,206,27,24,42,192,21*7C
$GPGSV,4,3,15,25,41,343,15,29,10,332,,36,52,277,,40,86,351,*7D
$GPGSV,4,4,15,41,58,082,,49,32,274,,50,10,089,*47
$GLGSV,3,1,10,67,17,084,07,68,30,136,25,69,15,187,32,73,00,333,*67
$GLGSV,3,2,10,78,15,155,15,79,68,157,18,80,53,332,18,82,06,005,*6D
$GLGSV,3,3,10,83,22,317,15,84,13,263,*67
$GNGLL,0419.82524,S,05539.74767,E,055325.00,A,A*64
$GNRMC,055326.00,A,0419.82511,S,05539.74765,E,0.348,,270525,,,A*72
$GNVTG,,T,,M,0.348,N,0.645,K,A*35
$GNGGA,055326.00,0419.82511,S,05539.74765,E,1,12,0.73,15.9,M,-47.6,M,,*44
$GNGSA,A,3,12,05,24,25,18,15,23,20,13,,,,1.45,0.73,1.25*15
$GNGSA,A,3,79,80,68,83,78,69,,,,,,,1.45,0.73,1.25*1D
$GPGSV,4,1,15,05,55,053,27,12,63,033,20,13,14,124,20,15,35,157,23*78
$GPGSV,4,2,15,18,34,269,16,20,22,037,17,23,29,206,29,24,42,192,23*71
$GPGSV,4,3,15,25,41,343,17,29,10,332,,36,52,277,,40,86,351,*7F
$GPGSV,4,4,15,41,58,082,,49,32,274,,50,10,089,*47
$GLGSV,3,1,10,67,17,084,07,68,30,136,26,69,15,187,32,73,00,333,*64
$GLGSV,3,2,10,78,15,155,17,79,68,157,16,80,53,332,16,82,06,005,*6F
$GLGSV,3,3,10,83,22,317,15,84,13,263,*67
$GNGLL,0419.82511,S,05539.74765,E,055326.00,A,A*63
$GNRMC,055327.00,A,0419.82511,S,05539.74770,E,0.238,,270525,,,A*71
$GNVTG,,T,,M,0.238,N,0.441,K,A*35
$GNGGA,055327.00,0419.82511,S,05539.74770,E,1,12,0.73,15.8,M,-47.6,M,,*40
$GNGSA,A,3,12,05,24,25,18,15,23,20,13,,,,1.45,0.73,1.25*15
$GNGSA,A,3,79,80,68,83,78,69,,,,,,,1.45,0.73,1.25*1D
$GPGSV,4,1,15,05,55,053,25,12,63,033,30,13,14,124,21,15,35,157,24*7D
$GPGSV,4,2,15,18,34,269,16,20,22,037,17,23,29,206,30,24,42,192,23*79
$GPGSV,4,3,15,25,41,343,22,29,10,332,,36,52,277,,40,86,351,*79
$GPGSV,4,4,15,41,58,082,,49,32,274,,50,10,089,*47
$GLGSV,3,1,10,67,17,084,07,68,30,136,27,69,15,187,32,73,00,333,*65
$GLGSV,3,2,10,78,15,155,19,79,68,157,17,80,53,332,16,82,06,005,*60
$GLGSV,3,3,10,83,22,317,17,84,13,263,*65
$GNGLL,0419.82511,S,05539.74770,E,055327.00,A,A*66
$GNRMC,055328.00,A,0419.82524,S,05539.74799,E,0.346,,270525,,,A*77
$GNVTG,,T,,M,0.346,N,0.641,K,A*3F
$GNGGA,055328.00,0419.82524,S,05539.74799,E,1,12,0.73,16.1,M,-47.6,M,,*44
$GNGSA,A,3,12,05,24,25,18,15,23,20,13,,,,1.45,0.73,1.25*15
$GNGSA,A,3,79,80,68,83,78,69,,,,,,,1.45,0.73,1.25*1D
$GPGSV,4,1,15,05,55,053,25,12,63,033,28,13,14,124,20,15,35,157,23*72
$GPGSV,4,2,15,18,34,269,18,20,22,037,16,23,29,206,29,24,42,192,23*7E
$GPGSV,4,3,15,25,41,343,23,29,10,332,,36,52,277,,40,86,351,*78
$GPGSV,4,4,15,41,58,082,,49,32,274,,50,10,089,*47
$GLGSV,3,1,10,67,17,084,07,68,30,136,26,69,15,187,31,73,00,333,*67
$GLGSV,3,2,10,78,15,155,19,79,68,157,18,80,53,332,15,82,06,005,*6C
$GLGSV,3,3,10,83,22,317,15,84,13,263,*67
$GNGLL,0419.82524,S,05539.74799,E,055328.00,A,A*68
$GNRMC,055329.00,A,0419.82525,S,05539.74803,E,0.150,,270525,,,A*7E
$GNVTG,,T,,M,0.150,N,0.278,K,A*34
$GNGGA,055329.00,0419.82525,S,05539.74803,E,1,12,0.73,16.0,M,-47.6,M,,*49
$GNGSA,A,3,12,05,24,25,18,15,23,20,13,,,,1.45,0.73,1.25*15
$GNGSA,A,3,79,80,68,83,78,69,,,,,,,1.45,0.73,1.25*1D
$GPGSV,4,1,15,05,55,053,26,12,63,033,26,13,14,124,21,15,35,157,24*79
$GPGSV,4,2,15,18,34,269,16,20,22,037,15,23,29,206,28,24,42,192,24*75
$GPGSV,4,3,15,25,41,343,25,29,10,332,,36,52,277,,40,86,351,*7E
$GPGSV,4,4,15,41,58,082,,49,32,274,,50,10,089,*47
$GLGSV,3,1,10,67,17,084,,68,30,136,26,69,15,187,31,73,00,333,*60
$GLGSV,3,2,10,78,14,155,18,79,68,157,22,80,53,332,17,82,06,005,*67
$GLGSV,3,3,10,83,22,317,14,84,13,263,*66
$GNGLL,0419.82525,S,05539.74803,E,055329.00,A,A*64
$GNRMC,055330.00,A,0419.82537,S,05539.74814,E,0.115,,270525,,,A*72
$GNVTG,,T,,M,0.115,N,0.213,K,A*38
$GNGGA,055330.00,0419.82537,S,05539.74814,E,1,12,0.72,16.2,M,-47.6,M,,*47
$GNGSA,A,3,12,05,24,25,18,15,23,20,13,,,,1.42,0.72,1.23*15
$GNGSA,A,3,79,80,68,83,78,69,,,,,,,1.42,0.72,1.23*1D
$GPGSV,4,1,15,05,55,053,26,12,63,033,25,13,14,124,20,15,35,157,24*7B
$GPGSV,4,2,15,18,34,269,15,20,22,037,15,23,29,206,29,24,42,192,26*75
$GPGSV,4,3,15,25,41,343,26,29,10,332,,36,52,277,,40,86,351,*7D
$GPGSV,4,4,15,41,58,082,,49,32,274,,50,10,089,*47
$GLGSV,3,1,10,67,17,084,,68,30,136,26,69,15,187,30,73,00,333,*61
$GLGSV,3,2,10,78,14,155,19,79,67,158,23,80,53,332,16,82,06,005,*66
$GLGSV,3,3,10,83,22,317,17,84,13,263,*65
$GNGLL,0419.82537,S,05539.74814,E,055330.00,A,A*69
$GNRMC,055331.00,A,0419.82549,S,05539.74826,E,0.331,,270525,,,A*7F
$GNVTG,,T,,M,0.331,N,0.612,K,A*39
$GNGGA,055331.00,0419.82549,S,05539.74826,E,1,12,0.76,16.1,M,-47.6,M,,*49
$GNGSA,A,3,12,05,24,25,18,15,23,20,13,,,,1.39,0.76,1.16*1B
$GNGSA,A,3,79,80,68,83,78,69,,,,,,,1.39,0.76,1.16*13
$GPGSV,4,1,15,05,55,053,27,12,63,033,26,13,14,124,20,15,35,157,22*7F
$GPGSV,4,2,15,18,34,269,16,20,22,037,16,23,29,206,30,24,42,192,28*73
$GPGSV,4,3,15,25,41,343,26,29,10,332,,36,52,277,,40,86,351,*7D
$GPGSV,4,4,15,41,58,082,,49,32,274,,50,10,089,*47
$GLGSV,3,1,10,67,17,084,,68,30,136,24,69,15,187,32,73,00,333,*61
$GLGSV,3,2,10,78,14,155,18,79,67,158,23,80,53,332,18,82,06,005,*69
$GLGSV,3,3,10,83,22,317,16,84,13,263,*64
$GNGLL,0419.82549,S,05539.74826,E,055331.00,A,A*60
$GNRMC,055332.00,A,0419.82564,S,05539.74846,E,0.332,,270525,,,A*76
$GNVTG,,T,,M,0.332,N,0.615,K,A*3D
$GNGGA,055332.00,0419.82564,S,05539.74846,E,1,12,0.69,16.3,M,-47.6,M,,*4F
$GNGSA,A,3,12,05,24,25,18,15,23,20,13,,,,1.34,0.69,1.16*18
$GNGSA,A,3,79,80,68,83,78,69,,,,,,,1.34,0.69,1.16*10
$GPGSV,4,1,15,05,55,053,27,12,63,033,27,13,14,124,20,15,35,157,20*7C
$GPGSV,4,2,15,18,34,269,17,20,22,037,17,23,29,206,31,24,42,192,26*7C
$GPGSV,4,3,15,25,41,343,23,29,10,332,,36,52,277,,40,86,351,*78
$GPGSV,4,4,15,41,58,082,,49,32,274,,50,10,089,*47
$GLGSV,3,1,10,67,17,084,21,68,30,136,21,69,15,187,29,73,00,333,*6D
$GLGSV,3,2,10,78,14,155,17,79,67,158,23,80,53,332,17,82,06,005,*69
$GLGSV,3,3,10,83,22,317,15,84,13,263,*67
$GNGLL,0419.82564,S,05539.74846,E,055332.00,A,A*6A
$GNRMC,055333.00,A,0419.82575,S,05539.74857,E,0.165,,270525,,,A*77
$GNVTG,,T,,M,0.165,N,0.305,K,A*39
$GNGGA,055333.00,0419.82575,S,05539.74857,E,1,12,0.69,16.5,M,-47.6,M,,*48
$GNGSA,A,3,12,05,24,25,18,15,23,20,13,,,,1.34,0.69,1.16*18
$GNGSA,A,3,79,80,68,83,78,69,,,,,,,1.34,0.69,1.16*10
$GPGSV,4,1,15,05,55,053,33,12,63,033,27,13,14,124,20,15,35,157,19*73
$GPGSV,4,2,15,18,34,269,17,20,22,037,16,23,29,206,31,24,42,192,26*7D
$GPGSV,4,3,15,25,41,343,20,29,10,332,,36,52,277,,40,86,351,*7B
$GPGSV,4,4,15,41,58,082,,49,32,274,,50,10,089,*47
$GLGSV,3,1,10,67,17,084,17,68,30,136,21,69,15,187,26,73,00,333,*67
$GLGSV,3,2,10,78,14,155,17,79,67,158,22,80,53,332,14,82,06,005,*6B
$GLGSV,3,3,10,83,22,317,15,84,13,263,*67
$GNGLL,0419.82575,S,05539.74857,E,055333.00,A,A*6B
$GNRMC,055334.00,A,0419.82587,S,05539.74866,E,0.171,,270525,,,A*7A
$GNVTG,,T,,M,0.171,N,0.317,K,A*3F
$GNGGA,055334.00,0419.82587,S,05539.74866,E,1,12,0.69,16.9,M,-47.6,M,,*4C
$GNGSA,A,3,12,05,24,25,18,15,23,20,13,,,,1.34,0.69,1.15*1B
$GNGSA,A,3,79,80,68,83,78,69,,,,,,,1.34,0.69,1.15*13
$GPGSV,4,1,15,05,55,053,28,12,63,033,27,13,14,124,21,15,35,157,21*73
$GPGSV,4,2,15,18,34,269,16,20,22,037,16,23,29,206,32,24,42,192,25*7C
$GPGSV,4,3,15,25,41,343,19,29,10,332,,36,52,277,,40,86,351,*71
$GPGSV,4,4,15,41,58,082,,49,32,274,,50,10,089,*47
$GLGSV,3,1,10,67,17,084,16,68,30,136,21,69,15,187,23,73,00,333,*63
$GLGSV,3,2,10,78,14,155,16,79,67,158,21,80,53,332,11,82,06,005,*6C
$GLGSV,3,3,10,83,21,317,15,84,13,263,*64
$GNGLL,0419.82587,S,05539.74866,E,055334.00,A,A*63
$GNRMC,055335.00,A,0419.82603,S,05539.74874,E,0.311,,270525,,,A*73
$GNVTG,,T,,M,0.311,N,0.576,K,A*3A
$GNGGA,055335.00,0419.82603,S,05539.74874,E,1,12,0.69,17.2,M,-47.6,M,,*4B
$GNGSA,A,3,12,05,24,25,18,15,23,20,13,,,,1.34,0.69,1.15*1B
$GNGSA,A,3,79,80,68,83,78,69,,,,,,,1.34,0.69,1.15*13
$GPGSV,4,1,15,05,55,053,32,12,63,033,25,13,14,124,19,15,35,157,23*73
$GPGSV,4,2,15,18,34,269,12,20,22,037,15,23,29,206,29,24,42,192,22*76
$GPGSV,4,3,15,25,41,343,18,29,10,332,,36,52,277,,40,86,351,*70
$GPGSV,4,4,15,41,58,082,,49,32,274,,50,10,089,*47
$GLGSV,3,1,10,67,17,084,15,68,30,136,20,69,15,187,20,73,00,333,*62
$GLGSV,3,2,10,78,14,155,15,79,67,158,22,80,53,332,11,82,06,005,*6C
$GLGSV,3,3,10,83,21,317,15,84,12,263,*65
$GNGLL,0419.82603,S,05539.74874,E,055335.00,A,A*6E
$GNRMC,055336.00,A,0419.82588,S,05539.74884,E,0.234,,270525,,,A*79
$GNVTG,,T,,M,0.234,N,0.433,K,A*3C
$GNGGA,055336.00,0419.82588,S,05539.74884,E,1,12,0.79,16.5,M,-47.6,M,,*40
$GNGSA,A,3,12,05,25,18,15,23,20,13,,,,,1.55,0.79,1.33*1F
$GNGSA,A,3,79,80,68,78,69,,,,,,,,1.55,0.79,1.33*1A
$GPGSV,4,1,15,05,55,053,32,12,63,033,22,13,14,124,17,15,35,157,24*7D
$GPGSV,4,2,15,18,34,269,11,20,22,037,12,23,29,206,29,24,42,192,*72
$GPGSV,4,3,15,25,41,343,16,29,10,332,,36,52,277,,40,86,351,*7E
$GPGSV,4,4,15,41,58,082,,49,32,274,,50,10,089,*47
$GLGSV,3,1,10,67,17,084,12,68,30,136,19,69,15,187,16,73,00,333,*6A
$GLGSV,3,2,10,78,14,155,12,79,67,158,21,80,53,332,13,82,06,005,*6A
$GLGSV,3,3,10,83,21,317,13,84,12,263,*63
$GNGLL,0419.82588,S,05539.74884,E,055336.00,A,A*62
$GNRMC,055337.00,A,0419.82591,S,05539.74884,E,0.139,,270525,,,A*7E
$GNVTG,,T,,M,0.139,N,0.258,K,A*39
$GNGGA,055337.00,0419.82591,S,05539.74884,E,1,11,0.93,17.0,M,-47.6,M,,*4A
$GNGSA,A,3,12,05,25,18,15,23,13,,,,,,1.78,0.93,1.52*11
$GNGSA,A,3,79,68,78,69,,,,,,,,,1.78,0.93,1.52*1E
$GPGSV,4,1,15,05,55,053,26,12,63,033,20,13,14,124,18,15,35,157,28*79
$GPGSV,4,2,15,18,34,269,13,20,22,037,18,23,29,206,30,24,42,192,23*73
$GPGSV,4,3,15,25,41,343,18,29,10,332,,36,52,277,,40,86,351,*70
$GPGSV,4,4,15,41,58,082,,49,32,274,,50,10,089,*47
$GLGSV,3,1,10,67,17,084,09,68,30,136,19,69,15,187,14,73,00,333,*62
$GLGSV,3,2,10,78,14,155,13,79,67,158,20,80,53,332,09,82,06,005,*61
$GLGSV,3,3,10,83,21,317,09,84,12,263,*68
$GNGLL,0419.82591,S,05539.74884,E,055337.00,A,A*6B
$GNRMC,055338.00,A,0419.82561,S,05539.74847,E,0.992,,270525,,,A*78
$GNVTG,,T,,M,0.992,N,1.837,K,A*32
$GNGGA,055338.00,0419.82561,S,05539.74847,E,1,10,1.09,17.2,M,-47.6,M,,*44
$GNGSA,A,3,12,05,25,15,23,13,,,,,,,1.93,1.09,1.59*14
$GNGSA,A,3,79,68,78,69,,,,,,,,,1.93,1.09,1.59*12
$GPGSV,4,1,15,05,55,053,26,12,63,033,17,13,14,124,16,15,35,157,25*7E
$GPGSV,4,2,15,18,34,269,10,20,22,037,15,23,29,206,28,24,42,192,20*77
$GPGSV,4,3,15,25,41,343,16,29,10,332,,36,52,277,,40,86,351,*7E
$GPGSV,4,4,15,41,58,082,,49,32,274,,50,10,089,*47
$GLGSV,3,1,10,67,17,084,08,68,30,136,20,69,15,187,15,73,00,333,*68
$GLGSV,3,2,10,78,14,155,11,79,67,158,19,80,53,332,08,82,06,005,*68
$GLGSV,3,3,10,83,21,317,08,84,12,263,*69
$GNGLL,0419.82561,S,05539.74847,E,055338.00,A,A*64
$GNRMC,055339.00,A,0419.82556,S,05539.74862,E,0.492,,270525,,,A*77
$GNVTG,,T,,M,0.492,N,0.911,K,A*3B
$GNGGA,055339.00,0419.82556,S,05539.74862,E,1,12,0.73,17.2,M,-47.6,M,,*48
$GNGSA,A,3,12,05,25,18,15,23,13,,,,,,1.41,0.73,1.21*11
$GNGSA,A,3,79,80,68,83,67,78,69,,,,,,1.41,0.73,1.21*1C
$GPGSV,4,1,15,05,55,053,32,12,63,033,19,13,14,124,16,15,35,157,25*75
$GPGSV,4,2,15,18,34,269,11,20,22,037,13,23,29,206,28,24,42,192,18*7B
$GPGSV,4,3,15,25,41,343,17,29,10,332,,36,52,277,,40,86,351,*7F
$GPGSV,4,4,15,41,58,082,,49,32,274,,50,10,089,*47
$GLGSV,3,1,10,67,17,084,11,68,30,136,22,69,15,187,15,73,00,333,*62
$GLGSV,3,2,10,78,14,155,14,79,67,158,22,80,53,332,10,82,06,005,*6C
$GLGSV,3,3,10,83,21,317,11,84,12,263,*61
$GNGLL,0419.82556,S,05539.74862,E,055339.00,A,A*66
$GNRMC,055340.00,A,0419.82544,S,05539.74860,E,0.490,,270525,,,A*7A
$GNVTG,,T,,M,0.490,N,0.907,K,A*3E
$GNGGA,055340.00,0419.82544,S,05539.74860,E,1,12,0.73,17.2,M,-47.6,M,,*47
$GNGSA,A,3,12,05,25,18,15,23,13,,,,,,1.41,0.73,1.21*11
$GNGSA,A,3,79,80,68,83,67,78,69,,,,,,1.41,0.73,1.21*1C
$GPGSV,4,1,15,05,55,053,30,12,63,033,25,13,14,124,14,15,35,157,22*7D
$GPGSV,4,2,15,18,34,269,14,20,22,037,11,23,29,206,27,24,42,192,16*7D
$GPGSV,4,3,15,25,41,343,18,29,10,332,,36,52,277,,40,86,351,*70
$GPGSV,4,4,15,41,58,082,,49,32,274,,50,10,089,*47
$GLGSV,3,1,10,67,17,084,12,68,30,136,22,69,15,187,12,73,00,333,*66
$GLGSV,3,2,10,78,14,155,13,79,67,158,23,80,53,332,10,82,06,005,*6A
$GLGSV,3,3,10,83,21,317,11,84,12,263,*61
$GNGLL,0419.82544,S,05539.74860,E,055340.00,A,A*69
$GNRMC,055341.00,A,0419.82527,S,05539.74849,E,0.572,,270525,,,A*78
$GNVTG,,T,,M,0.572,N,1.059,K,A*30
$GNGGA,055341.00,0419.82527,S,05539.74849,E,1,12,0.85,17.1,M,-47.6,M,,*42
$GNGSA,A,3,12,05,24,25,18,15,23,13,,,,,1.63,0.85,1.39*17
$GNGSA,A,3,79,80,68,83,78,,,,,,,,1.63,0.85,1.39*12
$GPGSV,4,1,15,05,55,053,29,12,63,033,25,13,14,124,12,15,35,157,22*73
$GPGSV,4,2,15,18,34,269,14,20,22,037,09,23,29,206,26,24,42,192,16*75
$GPGSV,4,3,15,25,41,343,18,29,10,332,,36,52,277,,40,86,351,*70
$GPGSV,4,4,15,41,58,082,,49,32,274,,50,10,089,*47
$GLGSV,3,1,10,67,17,084,08,68,30,136,20,69,15,187,09,73,00,333,*65
$GLGSV,3,2,10,78,14,155,13,79,67,158,22,80,53,332,09,82,06,005,*63
$GLGSV,3,3,10,83,21,317,14,84,12,263,*64
$GNGLL,0419.82527,S,05539.74849,E,055341.00,A,A*66
$GNRMC,055342.00,A,0419.82522,S,05539.74860,E,0.592,,270525,,,A*7B
$GNVTG,,T,,M,0.592,N,1.097,K,A*3C
$GNGGA,055342.00,0419.82522,S,05539.74860,E,1,12,0.80,17.5,M,-47.6,M,,*4E
$GNGSA,A,3,12,05,24,25,18,15,23,13,,,,,1.50,0.80,1.27*1D
$GNGSA,A,3,79,68,83,78,,,,,,,,,1.50,0.80,1.27*10
$GPGSV,4,1,15,05,55,053,30,12,63,033,25,13,14,124,08,15,35,157,22*70
$GPGSV,4,2,15,18,34,269,15,20,22,037,08,23,29,206,28,24,42,192,16*7B
$GPGSV,4,3,15,25,41,343,19,29,10,332,,36,52,277,,40,86,351,*71
$GPGSV,4,4,15,41,58,082,,49,32,274,,50,10,089,*47
$GLGSV,3,1,10,67,17,084,07,68,30,136,19,69,15,187,09,73,00,333,*60
$GLGSV,3,2,10,78,14,155,13,79,67,158,19,80,53,332,09,82,06,005,*6B
$GLGSV,3,3,10,83,21,317,14,84,12,263,*64
$GNGLL,0419.82522,S,05539.74860,E,055342.00,A,A*6B
$GNRMC,055343.00,A,0419.82497,S,05539.74844,E,0.797,,270525,,,A*74
$GNVTG,,T,,M,0.797,N,1.476,K,A*30
$GNGGA,055343.00,0419.82497,S,05539.74844,E,1,11,0.95,17.4,M,-47.6,M,,*40
$GNGSA,A,3,12,05,24,25,18,15,23,,,,,,1.91,0.95,1.66*13
$GNGSA,A,3,79,68,83,78,,,,,,,,,1.91,0.95,1.66*1C
$GPGSV,4,1,15,05,55,053,28,12,63,033,24,13,14,124,07,15,35,157,22*77
$GPGSV,4,2,15,18,34,269,15,20,22,037,09,23,29,206,28,24,42,192,14*78
$GPGSV,4,3,15,25,41,343,19,29,10,332,,36,52,277,,40,86,351,*71
$GPGSV,4,4,15,41,58,082,,49,32,274,,50,10,089,*47
$GLGSV,3,1,10,67,17,084,07,68,30,136,16,69,15,187,08,73,00,333,*6E
$GLGSV,3,2,10,78,14,155,14,79,67,158,18,80,53,332,09,82,06,005,*6D
$GLGSV,3,3,10,83,21,317,14,84,12,263,*64
$GNGLL,0419.82497,S,05539.74844,E,055343.00,A,A*63
$GNRMC,055344.00,A,0419.82531,S,05539.74862,E,0.125,,270525,,,A*75
$GNVTG,,T,,M,0.125,N,0.232,K,A*38
$GNGGA,055344.00,0419.82531,S,05539.74862,E,1,12,0.75,18.6,M,-47.6,M,,*4E
$GNGSA,A,3,12,05,24,25,18,15,23,20,13,,,,1.51,0.75,1.31*13
$GNGSA,A,3,79,68,83,78,,,,,,,,,1.51,0.75,1.31*1C
$GPGSV,4,1,15,05,54,052,29,12,63,033,24,13,14,124,09,15,35,157,23*79
$GPGSV,4,2,15,18,34,269,11,20,22,037,11,23,29,206,30,24,42,192,13*7B
$GPGSV,4,3,15,25,41,343,20,29,10,332,,36,52,277,,40,86,351,*7B
$GPGSV,4,4,15,41,58,082,,49,32,274,,50,10,089,*47
$GLGSV,3,1,10,67,17,084,,68,30,136,18,69,15,187,08,73,00,333,*67
$GLGSV,3,2,10,78,14,155,16,79,67,158,19,80,53,332,09,82,06,005,*6E
$GLGSV,3,3,10,83,21,317,14,84,12,263,*64
$GNGLL,0419.82531,S,05539.74862,E,055344.00,A,A*6D
$GNRMC,055345.00,A,0419.82544,S,05539.74885,E,0.025,,270525,,,A*7E
$GNVTG,,T,,M,0.025,N,0.045,K,A*3B
$GNGGA,055345.00,0419.82544,S,05539.74885,E,1,12,0.93,19.1,M,-47.6,M,,*4A
$GNGSA,A,3,12,05,24,25,18,15,23,,,,,,1.81,0.93,1.55*14
$GNGSA,A,3,79,80,68,83,78,69,,,,,,,1.81,0.93,1.55*1C
$GPGSV,4,1,15,05,54,052,30,12,63,033,24,13,14,124,09,15,35,157,25*77
$GPGSV,4,2,15,18,34,269,11,20,22,037,09,23,29,206,31,24,42,192,14*74
$GPGSV,4,3,15,25,41,343,19,29,10,332,,36,52,277,,40,86,351,*71
$GPGSV,4,4,15,41,58,082,,49,32,274,,50,10,089,*47
$GLGSV,3,1,10,67,17,084,,68,30,136,18,69,15,187,14,73,00,333,*6A
$GLGSV,3,2,10,78,14,155,15,79,67,158,20,80,53,332,14,82,06,005,*6B
$GLGSV,3,3,10,83,21,317,15,84,12,263,*65
$GNGLL,0419.82544,S,05539.74885,E,055345.00,A,A*67
$GNRMC,055346.00,A,0419.82559,S,05539.74908,E,0.312,,270525,,,A*72
$GNVTG,,T,,M,0.312,N,0.578,K,A*37
$GNGGA,055346.00,0419.82559,S,05539.74908,E,1,12,0.93,19.4,M,-47.6,M,,*44
$GNGSA,A,3,12,05,24,25,18,15,23,,,,,,1.81,0.93,1.55*14
$GNGSA,A,3,79,80,68,83,78,69,,,,,,,1.81,0.93,1.55*1C
$GPGSV,4,1,15,05,54,052,26,12,63,033,22,13,14,124,10,15,35,157,24*7F
$GPGSV,4,2,15,18,34,269,11,20,22,037,08,23,29,206,26,24,42,192,13*74
$GPGSV,4,3,15,25,41,343,19,29,10,332,,36,52,277,,40,86,351,*71
$GPGSV,4,4,15,41,58,082,,49,32,274,,50,10,089,*47
$GLGSV,3,1,10,67,17,084,,68,30,136,16,69,15,187,14,73,00,333,*64
$GLGSV,3,2,10,78,14,155,14,79,67,158,20,80,53,332,14,82,06,005,*6A
$GLGSV,3,3,10,83,21,317,15,84,12,263,*65
$GNGLL,0419.82559,S,05539.74908,E,055346.00,A,A*6C
$GNRMC,055347.00,A,0419.82574,S,05539.74912,E,0.434,,270525,,,A*74
$GNVTG,,T,,M,0.434,N,0.803,K,A*35
$GNGGA,055347.00,0419.82574,S,05539.74912,E,1,12,0.78,20.6,M,-47.6,M,,*4C
$GNGSA,A,3,12,05,24,25,18,15,23,20,,,,,1.52,0.78,1.30*1E
$GNGSA,A,3,79,80,68,83,78,69,,,,,,,1.52,0.78,1.30*14
$GPGSV,4,1,15,05,54,052,35,12,63,033,21,13,14,124,10,15,35,157,25*7F
$GPGSV,4,2,15,18,34,269,11,20,22,037,10,23,29,206,28,24,42,192,19*79
$GPGSV,4,3,15,25,41,343,21,29,10,332,,36,52,277,,40,86,351,*7A
$GPGSV,4,4,15,41,58,082,,49,32,274,,50,10,089,*47
$GLGSV,3,1,10,67,17,084,,68,30,136,14,69,15,187,10,73,00,333,*62
$GLGSV,3,2,10,78,14,155,14,79,67,158,20,80,53,332,10,82,06,005,*6E
$GLGSV,3,3,10,83,21,317,15,84,12,263,*65
$GNGLL,0419.82574,S,05539.74912,E,055347.00,A,A*69
$GNRMC,055348.00,A,0419.82578,S,05539.74953,E,0.412,,270525,,,A*76
$GNVTG,,T,,M,0.412,N,0.763,K,A*38
$GNGGA,055348.00,0419.82578,S,05539.74953,E,1,12,0.83,20.2,M,-47.6,M,,*4A
$GNGSA,A,3,12,05,24,25,18,15,23,13,,,,,1.61,0.83,1.37*1D
$GNGSA,A,3,79,68,83,78,69,,,,,,,,1.61,0.83,1.37*1F
$GPGSV,4,1,15,05,54,052,34,12,63,033,23,13,14,124,10,15,35,157,25*7C
$GPGSV,4,2,15,18,34,269,11,20,22,037,,23,29,206,28,24,42,192,21*73
$GPGSV,4,3,15,25,41,343,23,29,10,332,,36,52,277,,40,86,351,*78
$GPGSV,4,4,15,41,58,082,,49,32,274,,50,10,089,*47
$GLGSV,3,1,10,67,17,084,,68,30,136,16,69,15,187,10,73,00,333,*60
$GLGSV,3,2,10,78,14,155,13,79,67,158,20,80,53,332,10,82,06,005,*69
$GLGSV,3,3,10,83,21,317,15,84,12,263,*65
$GNGLL,0419.82578,S,05539.74953,E,055348.00,A,A*6F
$GNRMC,055349.00,A,0419.82592,S,05539.74976,E,0.661,,270525,,,A*72
$GNVTG,,T,,M,0.661,N,1.224,K,A*39
$GNGGA,055349.00,0419.82592,S,05539.74976,E,1,12,0.83,20.5,M,-47.6,M,,*4F
$GNGSA,A,3,12,05,24,25,18,15,23,13,,,,,1.61,0.83,1.37*1D
$GNGSA,A,3,79,68,83,78,69,,,,,,,,1.61,0.83,1.37*1F
$GPGSV,4,1,15,05,54,052,30,12,63,033,25,13,14,124,10,15,35,157,25*7E
$GPGSV,4,2,15,18,34,269,11,20,22,037,,23,29,206,26,24,42,192,21*7D
$GPGSV,4,3,15,25,41,343,21,29,10,332,,36,52,277,,40,86,351,*7A
$GPGSV,4,4,15,41,58,082,,49,32,274,,50,10,089,*47
$GLGSV,3,1,10,67,17,084,,68,30,136,18,69,15,187,10,73,00,333,*6E
$GLGSV,3,2,10,78,14,155,14,79,67,158,20,80,53,332,10,82,06,005,*6E
$GLGSV,3,3,10,83,21,317,15,84,12,263,*65
$GNGLL,0419.82592,S,05539.74976,E,055349.00,A,A*6D
$GNRMC,055350.00,A,0419.82580,S,05539.74983,E,0.335,,270525,,,A*77
$GNVTG,,T,,M,0.335,N,0.621,K,A*3D
$GNGGA,055350.00,0419.82580,S,05539.74983,E,1,12,0.83,21.1,M,-47.6,M,,*4B
$GNGSA,A,3,12,05,24,25,18,15,23,13,,,,,1.61,0.83,1.37*1D
$GNGSA,A,3,79,68,83,78,69,,,,,,,,1.61,0.83,1.37*1F
$GPGSV,4,1,15,05,54,052,36,12,63,033,26,13,14,124,11,15,35,157,24*7B
$GPGSV,4,2,15,18,34,269,08,20,22,037,14,23,29,206,32,24,42,192,24*70
$GPGSV,4,3,15,25,41,343,21,29,10,332,,36,52,277,,40,86,351,*7A
$GPGSV,4,4,15,41,58,082,,49,32,274,,50,10,089,*47
$GLGSV,3,1,10,67,17,084,,68,30,136,18,69,15,187,10,73,00,333,*6E
$GLGSV,3,2,10,78,14,155,14,79,67,158,21,80,53,332,10,82,06,005,*6F
$GLGSV,3,3,10,83,21,317,15,84,12,263,*65
$GNGLL,0419.82580,S,05539.74983,E,055350.00,A,A*6C
$GNRMC,055351.00,A,0419.82590,S,05539.75010,E,0.486,,270525,,,A*7A
$GNVTG,,T,,M,0.486,N,0.900,K,A*3E
$GNGGA,055351.00,0419.82590,S,05539.75010,E,1,12,0.76,20.8,M,-47.6,M,,*4B
$GNGSA,A,3,12,05,24,25,18,15,23,13,,,,,1.44,0.76,1.22*14
$GNGSA,A,3,79,80,68,83,78,69,,,,,,,1.44,0.76,1.22*1E
$GPGSV,4,1,15,05,54,052,19,12,64,034,24,13,14,124,11,15,35,157,25*75
$GPGSV,4,2,15,18,34,269,08,20,22,037,13,23,29,206,31,24,42,192,31*70
$GPGSV,4,3,15,25,41,343,20,29,10,332,,36,52,277,,40,86,351,*7B
$GPGSV,4,4,15,41,58,082,,49,32,274,,50,10,089,*47
$GLGSV,3,1,10,67,17,084,,68,30,136,19,69,15,187,08,73,00,333,*66
$GLGSV,3,2,10,78,14,155,16,79,67,158,24,80,53,332,15,82,06,005,*6D
$GLGSV,3,3,10,83,21,317,18,84,12,263,*68
$GNGLL,0419.82590,S,05539.75010,E,055351.00,A,A*6E
$GNRMC,055352.00,A,0419.82600,S,05539.75053,E,0.634,,270525,,,A*7F
$GNVTG,,T,,M,0.634,N,1.174,K,A*3F
$GNGGA,055352.00,0419.82600,S,05539.75053,E,1,12,0.76,19.9,M,-47.6,M,,*4E
$GNGSA,A,3,12,05,24,25,18,15,23,13,,,,,1.44,0.76,1.22*14
$GNGSA,A,3,79,80,68,83,78,69,,,,,,,1.44,0.76,1.22*1E
$GPGSV,4,1,15,05,54,052,28,12,64,034,22,13,14,124,10,15,35,157,21*74
$GPGSV,4,2,15,18,34,269,08,20,22,037,15,23,29,206,30,24,42,192,30*76
$GPGSV,4,3,15,25,41,343,19,29,10,332,,36,52,277,,40,86,351,*71
$GPGSV,4,4,15,41,58,082,,49,32,274,,50,10,089,*47
$GLGSV,3,1,10,67,17,084,,68,30,136,22,69,15,187,08,73,00,333,*6E
$GLGSV,3,2,10,78,14,155,17,79,67,158,30,80,53,332,15,82,06,005,*69
$GLGSV,3,3,10,83,21,317,18,84,12,263,*68
$GNGLL,0419.82600,S,05539.75053,E,055352.00,A,A*60
$GNRMC,055353.00,A,0419.82592,S,05539.75046,E,0.084,,270525,,,A*7F
$GNVTG,,T,,M,0.084,N,0.156,K,A*33
$GNGGA,055353.00,0419.82592,S,05539.75046,E,1,12,0.76,19.6,M,-47.6,M,,*4C
$GNGSA,A,3,12,05,24,25,18,15,23,13,,,,,1.44,0.76,1.22*14
$GNGSA,A,3,79,80,68,83,78,69,,,,,,,1.44,0.76,1.22*1E
$GPGSV,4,1,15,05,54,052,26,12,64,034,22,13,14,124,10,15,35,157,19*71
$GPGSV,4,2,15,18,34,269,08,20,22,037,15,23,29,206,30,24,42,192,29*7E
$GPGSV,4,3,15,25,41,343,18,29,10,332,,36,52,277,,40,86,351,*70
$GPGSV,4,4,15,41,58,082,,49,32,274,,50,10,089,*47
$GLGSV,3,1,10,67,17,084,19,68,30,136,20,69,15,187,14,73,00,333,*69
$GLGSV,3,2,10,78,14,155,16,79,67,158,23,80,53,332,19,82,06,005,*66
$GLGSV,3,3,10,83,21,317,18,84,12,263,*68
$GNGLL,0419.82592,S,05539.75046,E,055353.00,A,A*6D
$GNRMC,055354.00,A,0419.82556,S,05539.75070,E,0.172,,270525,,,A*7D
$GNVTG,,T,,M,0.172,N,0.318,K,A*33
$GNGGA,055354.00,0419.82556,S,05539.75070,E,1,12,0.82,18.1,M,-47.6,M,,*4B
$GNGSA,A,3,12,05,24,25,18,15,23,20,13,,,,1.56,0.82,1.32*1F
$GNGSA,A,3,79,80,68,78,69,,,,,,,,1.56,0.82,1.32*1C
$GPGSV,4,1,15,05,54,052,35,12,64,034,29,13,14,124,10,15,35,156,22*71
$GPGSV,4,2,15,18,34,269,08,20,22,037,14,23,29,206,33,24,42,192,29*7C
$GPGSV,4,3,15,25,41,343,16,29,10,332,,36,52,277,,40,86,351,*7E
$GPGSV,4,4,15,41,58,082,,49,32,274,,50,10,089,*47
$GLGSV,3,1,10,67,17,084,,68,30,136,20,69,15,187,18,73,00,333,*6D
$GLGSV,3,2,10,78,14,155,19,79,67,158,23,80,53,332,20,82,06,005,*63
$GLGSV,3,3,10,83,21,317,,84,12,263,*61
$GNGLL,0419.82556,S,05539.75070,E,055354.00,A,A*67
$GNRMC,055355.00,A,0419.82512,S,05539.75055,E,0.262,,270525,,,A*79
$GNVTG,,T,,M,0.262,N,0.485,K,A*32
$GNGGA,055355.00,0419.82512,S,05539.75055,E,1,12,0.82,17.2,M,-47.6,M,,*41
$GNGSA,A,3,12,05,24,18,15,23,20,13,,,,,1.56,0.82,1.32*18
$GNGSA,A,3,79,80,68,78,69,,,,,,,,1.56,0.82,1.32*1C
$GPGSV,4,1,15,05,54,052,32,12,64,034,29,13,14,124,10,15,35,156,22*76
$GPGSV,4,2,15,18,34,269,08,20,22,037,13,23,29,206,28,24,42,192,27*7F
$GPGSV,4,3,15,25,41,343,,29,10,332,,36,52,277,,40,86,351,*79
$GPGSV,4,4,15,41,58,082,,49,32,274,,50,10,089,*47
$GLGSV,3,1,10,67,17,084,,68,30,136,20,69,15,187,20,73,00,333,*66
$GLGSV,3,2,10,78,14,155,19,79,67,158,23,80,53,332,19,82,06,005,*69
$GLGSV,3,3,10,83,21,317,,84,12,263,*61
$GNGLL,0419.82512,S,05539.75055,E,055355.00,A,A*61
$GNRMC,055356.00,A,0419.82493,S,05539.75055,E,0.292,,270525,,,A*7D
$GNVTG,,T,,M,0.292,N,0.542,K,A*37
$GNGGA,055356.00,0419.82493,S,05539.75055,E,1,12,0.97,16.5,M,-47.6,M,,*48
$GNGSA,A,3,12,05,24,18,15,23,13,,,,,,1.82,0.97,1.54*17
$GNGSA,A,3,79,80,68,78,69,,,,,,,,1.82,0.97,1.54*11
$GPGSV,4,1,15,05,54,052,27,12,64,034,26,13,14,124,15,15,35,156,20*7A
$GPGSV,4,2,15,18,34,269,11,20,22,037,09,23,29,206,27,24,42,192,23*77
$GPGSV,4,3,15,25,41,343,15,29,10,332,,36,52,277,,40,86,351,*7D
$GPGSV,4,4,15,41,58,082,,49,32,274,,50,10,089,*47
$GLGSV,3,1,10,67,17,084,,68,30,136,17,69,15,187,18,73,00,333,*69
$GLGSV,3,2,10,78,14,155,18,79,67,158,21,80,53,332,16,82,06,005,*65
$GLGSV,3,3,10,83,21,317,,84,12,263,*61
$GNGLL,0419.82493,S,05539.75055,E,055356.00,A,A*6A
$GNRMC,055357.00,A,0419.82467,S,05539.75053,E,0.510,,270525,,,A*7C
$GNVTG,,T,,M,0.510,N,0.945,K,A*31
$GNGGA,055357.00,0419.82467,S,05539.75053,E,1,11,1.19,15.5,M,-47.6,M,,*43
$GNGSA,A,3,12,05,24,15,23,13,,,,,,,2.12,1.19,1.75*10
$GNGSA,A,3,79,80,68,78,69,,,,,,,,2.12,1.19,1.75*1F
$GPGSV,4,1,15,05,54,052,32,12,64,034,25,13,14,124,15,15,35,156,19*77
$GPGSV,4,2,15,18,34,270,,20,22,037,08,23,29,206,27,24,42,192,22*7F
$GPGSV,4,3,15,25,41,343,13,29,10,332,,36,52,277,,40,86,351,*7B
$GPGSV,4,4,15,41,58,082,,49,32,274,,50,10,089,*47
$GLGSV,3,1,10,67,17,084,,68,30,136,15,69,15,187,14,73,00,333,*67
$GLGSV,3,2,10,78,14,155,16,79,67,158,21,80,53,332,12,82,06,005,*6F
$GLGSV,3,3,10,83,21,317,,84,12,263,*61
$GNGLL,0419.82467,S,05539.75053,E,055357.00,A,A*66
$GNRMC,055358.00,A,0419.82450,S,05539.75048,E,0.396,,270525,,,A*75
$GNVTG,,T,,M,0.396,N,0.733,K,A*36
$GNGGA,055358.00,0419.82450,S,05539.75048,E,1,10,1.69,15.2,M,-47.6,M,,*43
$GNGSA,A,3,12,05,24,15,23,13,,,,,,,2.80,1.69,2.24*1B
$GNGSA,A,3,79,68,78,69,,,,,,,,,2.80,1.69,2.24*1C
$GPGSV,4,1,15,05,54,052,29,12,64,034,22,13,14,124,15,15,35,156,18*7B
$GPGSV,4,2,15,18,34,270,,20,22,037,08,23,29,206,25,24,42,192,18*74
$GPGSV,4,3,15,25,41,343,12,29,10,332,,36,52,277,,40,86,351,*7A
$GPGSV,4,4,15,41,58,082,,49,32,274,,50,10,089,*47
$GLGSV,3,1,10,67,17,084,,68,30,136,13,69,15,187,13,73,00,333,*66
$GLGSV,3,2,10,78,14,155,14,79,67,158,21,80,53,332,08,82,06,005,*66
$GLGSV,3,3,10,83,21,317,,84,12,263,*61
$GNGLL,0419.82450,S,05539.75048,E,055358.00,A,A*67
$GNRMC,055359.00,A,0419.82437,S,05539.75042,E,0.201,,270525,,,A*70
$GNVTG,,T,,M,0.201,N,0.372,K,A*38
$GNGGA,055359.00,0419.82437,S,05539.75042,E,1,11,1.25,15.0,M,-47.6,M,,*42
$GNGSA,A,3,12,05,24,15,23,13,,,,,,,2.31,1.25,1.95*10
$GNGSA,A,3,79,80,68,78,69,,,,,,,,2.31,1.25,1.95*1F
$GPGSV,4,1,15,05,54,052,28,12,64,034,25,13,14,124,16,15,35,156,19*7F
$GPGSV,4,2,15,18,34,270,,20,21,037,07,23,29,206,25,24,42,192,18*78
$GPGSV,4,3,15,25,41,343,09,29,10,332,,36,52,277,,40,86,351,*70
$GPGSV,4,4,15,41,58,082,,49,32,274,,50,10,089,*47
$GLGSV,3,1,10,67,17,084,,68,30,136,15,69,15,187,16,73,00,333,*65
$GLGSV,3,2,10,78,14,155,15,79,67,158,20,80,53,332,14,82,06,005,*6B
$GLGSV,3,3,10,83,21,317,,84,12,263,*61
$GNGLL,0419.82437,S,05539.75042,E,055359.00,A,A*6D
$GNRMC,055400.00,A,0419.82438,S,05539.75037,E,0.256,,270525,,,A*74
$GNVTG,,T,,M,0.256,N,0.473,K,A*3C
$GNGGA,055400.00,0419.82438,S,05539.75037,E,1,11,1.17,15.3,M,-47.6,M,,*46
$GNGSA,A,3,12,05,24,25,15,23,,,,,,,2.23,1.17,1.90*12
$GNGSA,A,3,79,80,68,78,69,,,,,,,,2.23,1.17,1.90*18
$GPGSV,4,1,15,05,54,052,30,12,64,034,31,13,14,124,,15,35,156,20*7E
$GPGSV,4,2,15,18,34,270,06,20,21,037,08,23,29,206,27,24,42,192,22*7A
$GPGSV,4,3,15,25,41,343,15,29,10,332,,36,52,277,,40,86,351,*7D
$GPGSV,4,4,15,41,58,082,,49,32,274,,50,10,089,*47
$GLGSV,3,1,10,67,17,084,,68,30,136,15,69,15,187,17,73,00,333,*64
$GLGSV,3,2,10,78,14,155,17,79,67,158,22,80,53,332,14,82,06,005,*6B
$GLGSV,3,3,10,83,21,317,,84,12,263,*61
$GNGLL,0419.82438,S,05539.75037,E,055400.00,A,A*6B
$GNRMC,055401.00,A,0419.82433,S,05539.75039,E,0.242,,270525,,,A*75
$GNVTG,,T,,M,0.242,N,0.449,K,A*30
$GNGGA,055401.00,0419.82433,S,05539.75039,E,1,11,1.17,15.4,M,-47.6,M,,*45
$GNGSA,A,3,12,05,24,25,15,23,,,,,,,2.23,1.17,1.90*12
$GNGSA,A,3,79,80,68,78,69,,,,,,,,2.23,1.17,1.90*18
$GPGSV,4,1,15,05,54,052,30,12,64,034,32,13,14,124,17,15,35,156,22*79
$GPGSV,4,2,15,18,34,270,14,20,21,037,09,23,30,206,28,24,42,192,24*79
$GPGSV,4,3,15,25,41,343,22,29,10,332,,36,52,277,,40,86,351,*79
$GPGSV,4,4,15,41,58,082,,49,32,274,,50,10,089,*47
$GLGSV,3,1,10,67,17,084,,68,30,136,17,69,15,187,17,73,00,333,*66
$GLGSV,3,2,10,78,14,155,17,79,67,158,23,80,53,332,14,82,06,005,*6A
$GLGSV,3,3,10,83,21,317,,84,12,263,*61
$GNGLL,0419.82433,S,05539.75039,E,055401.00,A,A*6F
$GNRMC,055402.00,A,0419.82366,S,05539.74991,E,0.884,,270525,,,A*7B
$GNVTG,,T,,M,0.884,N,1.637,K,A*3A
$GNGGA,055402.00,0419.82366,S,05539.74991,E,1,12,1.06,14.2,M,-47.6,M,,*4F
$GNGSA,A,3,12,05,24,25,15,23,20,,,,,,1.93,1.06,1.61*16
$GNGSA,A,3,79,80,68,78,69,,,,,,,,1.93,1.06,1.61*1E
$GPGSV,4,1,15,05,54,052,30,12,64,034,27,13,14,124,16,15,35,156,22*7C
$GPGSV,4,2,15,18,34,270,,20,21,037,12,23,30,206,28,24,42,191,23*72
$GPGSV,4,3,15,25,41,343,22,29,10,332,,36,52,277,,40,86,351,*79
$GPGSV,4,4,15,41,58,082,,49,32,274,,50,10,089,*47
$GLGSV,3,1,10,67,17,084,,68,30,136,17,69,15,187,15,73,00,333,*64
$GLGSV,3,2,10,78,14,155,17,79,67,158,21,80,53,332,14,82,06,005,*68
$GLGSV,3,3,10,83,21,317,,84,12,263,*61
$GNGLL,0419.82366,S,05539.74991,E,055402.00,A,A*61
$GNRMC,055403.00,A,0419.82320,S,05539.74982,E,0.896,,270525,,,A*79
$GNVTG,,T,,M,0.896,N,1.659,K,A*31
$GNGGA,055403.00,0419.82320,S,05539.74982,E,1,11,1.06,12.7,M,-47.6,M,,*4E
$GNGSA,A,3,12,05,24,25,15,23,20,,,,,,1.93,1.06,1.61*16
$GNGSA,A,3,79,80,68,78,,,,,,,,,1.93,1.06,1.61*11
$GPGSV,4,1,15,05,54,052,30,12,64,034,27,13,14,124,15,15,35,156,22*7F
$GPGSV,4,2,15,18,34,270,20,20,21,037,13,23,30,206,28,24,42,191,22*70
$GPGSV,4,3,15,25,41,343,23,29,10,332,,36,52,277,,40,86,351,*78
$GPGSV,4,4,15,41,58,082,,49,32,274,,50,10,089,*47
$GLGSV,3,1,10,67,17,084,,68,30,136,17,69,15,187,,73,00,333,*60
$GLGSV,3,2,10,78,14,155,16,79,67,158,19,80,53,332,09,82,06,005,*6E
$GLGSV,3,3,10,83,21,317,,84,12,263,*61
$GNGLL,0419.82320,S,05539.74982,E,055403.00,A,A*60
$GNRMC,055404.00,A,0419.82296,S,05539.74963,E,0.901,,270525,,,A*72
$GNVTG,,T,,M,0.901,N,1.669,K,A*3D
$GNGGA,055404.00,0419.82296,S,05539.74963,E,1,10,1.20,12.6,M,-47.6,M,,*4E
$GNGSA,A,3,12,05,24,25,15,23,,,,,,,2.38,1.20,2.05*13
$GNGSA,A,3,79,80,68,78,,,,,,,,,2.38,1.20,2.05*16
$GPGSV,4,1,15,05,54,052,30,12,64,034,28,13,14,124,14,15,35,156,21*72
$GPGSV,4,2,15,18,34,270,19,20,21,037,20,23,30,206,28,24,42,191,21*79
$GPGSV,4,3,15,25,41,343,23,29,10,332,,36,52,277,,40,86,351,*78
$GPGSV,4,4,15,41,58,082,,49,32,274,,50,10,089,*47
$GLGSV,3,1,10,67,17,084,,68,30,136,17,69,15,187,,73,00,333,*60
$GLGSV,3,2,10,78,14,155,16,79,67,158,19,80,53,332,09,82,06,005,*6E
$GLGSV,3,3,10,83,21,317,17,84,12,263,*67
$GNGLL,0419.82296,S,05539.74963,E,055404.00,A,A*64
$GNRMC,055405.00,A,0419.82259,S,05539.74916,E,1.192,,270525,,,A*71
$GNVTG,,T,,M,1.192,N,2.207,K,A*31
$GNGGA,055405.00,0419.82259,S,05539.74916,E,1,10,1.20,12.4,M,-47.6,M,,*4C
$GNGSA,A,3,12,05,24,25,15,23,,,,,,,2.38,1.20,2.05*13
$GNGSA,A,3,79,80,68,78,,,,,,,,,2.38,1.20,2.05*16
$GPGSV,4,1,15,05,54,052,30,12,64,034,27,13,14,124,14,15,35,156,19*76
$GPGSV,4,2,15,18,34,270,19,20,21,037,18,23,30,206,27,24,42,191,21*7D
$GPGSV,4,3,15,25,41,343,21,29,10,332,,36,52,277,,40,86,351,*7A
$GPGSV,4,4,15,41,58,082,,49,32,274,,50,10,089,*47
$GLGSV,3,1,10,67,17,084,,68,30,136,15,69,15,187,,73,00,333,*62
$GLGSV,3,2,10,78,14,155,16,79,67,158,18,80,53,332,11,82,06,005,*66
$GLGSV,3,3,10,83,21,317,,84,12,263,*61
$GNGLL,0419.82259,S,05539.74916,E,055405.00,A,A*64
$GNRMC,055406.00,A,0419.82236,S,05539.74901,E,0.941,,270525,,,A*7A
$GNVTG,,T,,M,0.941,N,1.742,K,A*31
$GNGGA,055406.00,0419.82236,S,05539.74901,E,1,12,0.94,12.1,M,-47.6,M,,*49
$GNGSA,A,3,12,05,24,25,18,15,23,13,,,,,1.93,0.94,1.69*1D
$GNGSA,A,3,79,80,68,78,,,,,,,,,1.93,0.94,1.69*13
$GPGSV,4,1,15,05,54,052,30,12,64,034,27,13,14,124,14,15,35,156,17*78
$GPGSV,4,2,15,18,34,270,19,20,21,037,14,23,30,206,27,24,42,191,23*73
$GPGSV,4,3,15,25,41,343,18,29,10,332,,36,52,277,,40,86,351,*70
$GPGSV,4,4,15,41,58,082,,49,32,274,,50,10,089,*47
$GLGSV,3,1,10,67,17,084,,68,30,136,17,69,15,187,,73,00,333,*60
$GLGSV,3,2,10,78,14,155,15,79,67,158,17,80,53,332,11,82,06,005,*6A
$GLGSV,3,3,10,83,21,317,,84,12,263,*61
$GNGLL,0419.82236,S,05539.74901,E,055406.00,A,A*68
$GNRMC,055407.00,A,0419.82237,S,05539.74899,E,0.505,,270525,,,A*76
$GNVTG,,T,,M,0.505,N,0.936,K,A*31
$GNGGA,055407.00,0419.82237,S,05539.74899,E,1,12,0.94,12.6,M,-47.6,M,,*4E
$GNGSA,A,3,12,05,24,25,18,15,23,13,,,,,1.93,0.94,1.69*1D
$GNGSA,A,3,79,80,68,78,,,,,,,,,1.93,0.94,1.69*13
$GPGSV,4,1,15,05,54,052,28,12,64,034,27,13,14,124,15,15,35,156,18*7F
$GPGSV,4,2,15,18,34,270,18,20,21,037,12,23,30,206,26,24,42,191,22*74
$GPGSV,4,3,15,25,41,343,16,29,10,332,,36,52,277,,40,86,351,*7E
$GPGSV,4,4,15,41,58,082,,49,32,274,,50,10,089,*47
$GLGSV,3,1,10,67,17,084,,68,30,136,18,69,15,187,,73,00,333,*6F
$GLGSV,3,2,10,78,14,155,14,79,67,158,16,80,53,332,11,82,06,005,*6A
$GLGSV,3,3,10,83,21,317,,84,12,263,*61
$GNGLL,0419.82237,S,05539.74899,E,055407.00,A,A*68
$GNRMC,055408.00,A,0419.82243,S,05539.74907,E,0.070,,270525,,,A*7B
$GNVTG,,T,,M,0.070,N,0.129,K,A*30
$GNGGA,055408.00,0419.82243,S,05539.74907,E,1,12,0.94,12.8,M,-47.6,M,,*4A
$GNGSA,A,3,12,05,24,25,18,15,23,13,,,,,1.93,0.94,1.69*1D
$GNGSA,A,3,79,80,68,78,,,,,,,,,1.93,0.94,1.69*13
$GPGSV,4,1,15,05,54,052,33,12,64,034,27,13,14,124,17,15,35,156,18*77
$GPGSV,4,2,15,18,34,270,18,20,21,037,13,23,30,206,26,24,42,191,21*76
$GPGSV,4,3,15,25,41,343,17,29,10,332,,36,52,277,,40,86,351,*7F
$GPGSV,4,4,15,41,58,082,,49,32,274,,50,10,089,*47
$GLGSV,3,1,10,67,17,084,,68,30,136,16,69,15,187,,73,00,333,*61
$GLGSV,3,2,10,78,14,155,12,79,67,158,14,80,53,332,11,82,06,005,*6E
$GLGSV,3,3,10,83,21,317,,84,12,263,*61
$GNGLL,0419.82243,S,05539.74907,E,055408.00,A,A*62
$GNRMC,055409.00,A,0419.82294,S,05539.74852,E,0.967,,270525,,,A*7E
$GNVTG,,T,,M,0.967,N,1.791,K,A*3B
$GNGGA,055409.00,0419.82294,S,05539.74852,E,1,12,0.82,14.0,M,-47.6,M,,*49
$GNGSA,A,3,12,05,24,25,18,15,23,20,13,,,,1.66,0.82,1.44*1D
$GNGSA,A,3,79,80,68,78,,,,,,,,,1.66,0.82,1.44*11
$GPGSV,4,1,15,05,54,052,31,12,64,034,27,13,14,124,18,15,35,156,20*71
$GPGSV,4,2,15,18,34,270,19,20,21,037,17,23,30,206,24,24,42,191,18*7B
$GPGSV,4,3,15,25,41,343,18,29,10,332,,36,52,277,,40,86,351,*70
$GPGSV,4,4,15,41,58,082,,49,32,274,,50,10,089,*47
$GLGSV,3,1,10,67,17,084,,68,30,136,13,69,15,187,,73,00,333,*64
$GLGSV,3,2,10,78,14,155,11,79,67,158,13,80,53,332,15,82,06,005,*6E
$GLGSV,3,3,10,83,21,317,,84,12,263,*61
$GNGLL,0419.82294,S,05539.74852,E,055409.00,A,A*68
$GNRMC,055410.00,A,0419.82318,S,05539.74838,E,0.446,,270525,,,A*71
$GNVTG,,T,,M,0.446,N,0.826,K,A*37
$GNGGA,055410.00,0419.82318,S,05539.74838,E,1,11,0.88,15.3,M,-47.6,M,,*43
$GNGSA,A,3,12,05,24,25,18,15,23,20,13,,,,1.94,0.88,1.72*1F
$GNGSA,A,3,80,78,,,,,,,,,,,1.94,0.88,1.72*13
$GPGSV,4,1,15,05,54,052,25,12,64,034,26,13,14,124,17,15,35,156,19*70
$GPGSV,4,2,15,18,34,270,19,20,21,037,16,23,30,206,25,24,42,191,16*75
$GPGSV,4,3,15,25,41,343,17,29,10,332,,36,52,277,,40,86,351,*7F
$GPGSV,4,4,15,41,58,082,,49,32,274,,50,10,089,*47
$GLGSV,3,1,10,67,17,084,,68,30,136,08,69,15,187,19,73,00,333,*66
$GLGSV,3,2,10,78,14,155,10,79,67,158,11,80,53,332,15,82,06,005,*6D
$GLGSV,3,3,10,83,21,317,,84,12,263,*61
$GNGLL,0419.82318,S,05539.74838,E,055410.00,A,A*69
$GNRMC,055411.00,A,0419.82343,S,05539.74834,E,0.376,,270525,,,A*76
$GNVTG,,T,,M,0.376,N,0.696,K,A*36
$GNGGA,055411.00,0419.82343,S,05539.74834,E,1,12,0.82,16.6,M,-47.6,M,,*4F
$GNGSA,A,3,12,05,24,25,18,15,23,20,13,,,,1.66,0.82,1.44*1D
$GNGSA,A,3,79,80,68,78,,,,,,,,,1.66,0.82,1.44*11
$GPGSV,4,1,15,05,54,052,24,12,64,034,25,13,14,124,17,15,35,156,19*72
$GPGSV,4,2,15,18,34,270,19,20,21,037,17,23,30,206,25,24,42,191,16*74
$GPGSV,4,3,15,25,41,343,18,29,10,332,,36,52,277,,40,86,351,*70
$GPGSV,4,4,15,41,58,082,,49,32,274,,50,10,089,*47
$GLGSV,3,1,10,67,17,084,,68,30,136,17,69,15,187,21,73,00,333,*63
$GLGSV,3,2,10,78,14,155,12,79,67,158,16,80,53,332,16,82,06,005,*6B
$GLGSV,3,3,10,83,21,317,,84,12,263,*61
$GNGLL,0419.82343,S,05539.74834,E,055411.00,A,A*6A
$GNRMC,055412.00,A,0419.82382,S,05539.74795,E,0.449,,270525,,,A*77
$GNVTG,,T,,M,0.449,N,0.832,K,A*3D
$GNGGA,055412.00,0419.82382,S,05539.74795,E,1,12,0.77,19.0,M,-47.6,M,,*46
$GNGSA,A,3,12,05,24,25,18,15,23,20,13,,,,1.51,0.77,1.30*10
$GNGSA,A,3,79,80,68,78,69,,,,,,,,1.51,0.77,1.30*13
$GPGSV,4,1,15,05,54,052,29,12,64,034,25,13,14,124,18,15,35,156,29*73
$GPGSV,4,2,15,18,34,270,18,20,21,037,18,23,30,206,25,24,42,191,20*7F
$GPGSV,4,3,15,25,41,343,21,29,10,332,,36,52,277,,40,86,351,*7A
$GPGSV,4,4,15,41,58,082,,49,32,274,,50,10,089,*47
$GLGSV,3,1,10,67,17,084,,68,30,136,13,69,15,187,22,73,00,333,*64
$GLGSV,3,2,10,78,14,155,12,79,67,158,28,80,53,332,16,82,06,005,*66
$GLGSV,3,3,10,83,21,317,,84,12,263,*61
$GNGLL,0419.82382,S,05539.74795,E,055412.00,A,A*60
$GNRMC,055413.00,A,0419.82404,S,05539.74744,E,0.212,,270525,,,A*7B
$GNVTG,,T,,M,0.212,N,0.392,K,A*34
$GNGGA,055413.00,0419.82404,S,05539.74744,E,1,12,0.77,22.1,M,-47.6,M,,*4B
$GNGSA,A,3,12,05,24,25,18,15,23,20,13,,,,1.51,0.77,1.30*10
$GNGSA,A,3,79,80,68,78,69,,,,,,,,1.51,0.77,1.30*13
$GPGSV,4,1,15,05,54,052,28,12,64,034,25,13,14,124,19,15,35,156,28*72
$GPGSV,4,2,15,18,34,270,19,20,21,037,18,23,30,206,26,24,42,191,31*7D
$GPGSV,4,3,15,25,41,343,20,29,10,332,,36,52,277,,40,86,351,*7B
$GPGSV,4,4,15,41,58,082,,49,32,274,,50,10,089,*47
$GLGSV,3,1,10,67,17,084,,68,30,136,28,69,15,187,22,73,00,333,*6C
$GLGSV,3,2,10,78,14,155,12,79,67,158,14,80,53,332,16,82,06,005,*69
$GLGSV,3,3,10,83,21,317,,84,12,263,*61
$GNGLL,0419.82404,S,05539.74744,E,055413.00,A,A*64
$GNRMC,055414.00,A,0419.82429,S,05539.74700,E,0.225,,270525,,,A*77
$GNVTG,,T,,M,0.225,N,0.417,K,A*3A
$GNGGA,055414.00,0419.82429,S,05539.74700,E,1,12,0.77,24.8,M,-47.6,M,,*4C
$GNGSA,A,3,12,05,24,25,18,15,23,20,13,,,,1.51,0.77,1.30*10
$GNGSA,A,3,79,80,68,78,69,,,,,,,,1.51,0.77,1.30*13
$GPGSV,4,1,15,05,54,052,26,12,64,034,25,13,14,124,19,15,35,156,27*73
$GPGSV,4,2,15,18,34,270,20,20,21,037,17,23,30,206,23,24,42,191,29*74
$GPGSV,4,3,15,25,41,343,21,29,10,332,,36,52,277,,40,86,351,*7A
$GPGSV,4,4,15,41,58,082,,49,32,274,,50,10,089,*47
$GLGSV,3,1,10,67,17,084,,68,30,136,28,69,15,187,29,73,00,333,*67
$GLGSV,3,2,10,78,14,155,12,79,67,158,19,80,53,332,16,82,06,005,*64
$GLGSV,3,3,10,83,21,317,,84,12,263,*61
$GNGLL,0419.82429,S,05539.74700,E,055414.00,A,A*6C
$GNRMC,055415.00,A,0419.82458,S,05539.74661,E,0.342,,270525,,,A*76
$GNVTG,,T,,M,0.342,N,0.633,K,A*3E
$GNGGA,055415.00,0419.82458,S,05539.74661,E,1,12,0.77,27.7,M,-47.6,M,,*41
$GNGSA,A,3,12,05,24,25,18,15,23,20,13,,,,1.51,0.77,1.30*10
$GNGSA,A,3,79,80,68,78,69,,,,,,,,1.51,0.77,1.30*13
$GPGSV,4,1,15,05,54,052,26,12,64,034,26,13,14,124,20,15,35,156,27*7A
$GPGSV,4,2,15,18,34,270,20,20,21,037,14,23,30,206,24,24,42,191,29*70
$GPGSV,4,3,15,25,41,343,20,29,10,332,,36,52,277,,40,86,351,*7B
$GPGSV,4,4,15,41,58,082,,49,32,274,,50,10,089,*47
$GLGSV,3,1,10,67,17,084,,68,30,136,28,69,15,187,30,73,00,333,*6F
$GLGSV,3,2,10,78,14,155,18,79,67,158,20,80,53,332,23,82,06,005,*62
$GLGSV,3,3,10,83,21,317,19,84,12,263,*69
$GNGLL,0419.82458,S,05539.74661,E,055415.00,A,A*6D
$GNRMC,055416.00,A,0419.82464,S,05539.74622,E,0.266,,270525,,,A*7A
$GNVTG,,T,,M,0.266,N,0.492,K,A*30
$GNGGA,055416.00,0419.82464,S,05539.74622,E,1,12,0.77,29.7,M,-47.6,M,,*44
$GNGSA,A,3,12,05,24,25,18,15,23,20,13,,,,1.51,0.77,1.30*10
$GNGSA,A,3,79,80,68,78,69,,,,,,,,1.51,0.77,1.30*13
$GPGSV,4,1,15,05,54,052,25,12,64,034,26,13,14,124,20,15,35,156,27*79
$GPGSV,4,2,15,18,34,270,21,20,21,037,13,23,30,206,24,24,42,191,28*77
$GPGSV,4,3,15,25,41,343,19,29,10,332,,36,52,277,,40,86,351,*71
$GPGSV,4,4,15,41,58,082,,49,32,274,,50,10,089,*47
$GLGSV,3,1,10,67,17,084,22,68,30,136,28,69,15,187,29,73,00,333,*67
$GLGSV,3,2,10,78,14,155,18,79,67,158,24,80,53,332,23,82,06,005,*66
$GLGSV,3,3,10,83,21,317,17,84,12,263,*67
$GNGLL,0419.82464,S,05539.74622,E,055416.00,A,A*66
$GNRMC,055417.00,A,0419.82475,S,05539.74597,E,0.112,,270525,,,A*76
$GNVTG,,T,,M,0.112,N,0.208,K,A*35
$GNGGA,055417.00,0419.82475,S,05539.74597,E,1,12,0.82,31.4,M,-47.6,M,,*48
$GNGSA,A,3,12,05,24,18,15,23,20,13,,,,,1.55,0.82,1.32*1B
$GNGSA,A,3,79,80,68,78,69,,,,,,,,1.55,0.82,1.32*1F
$GPGSV,4,1,15,05,54,052,22,12,64,034,25,13,14,124,19,15,35,156,27*77
$GPGSV,4,2,15,18,34,270,19,20,21,037,12,23,30,206,25,24,42,191,26*72
$GPGSV,4,3,15,25,41,343,15,29,10,332,,36,52,277,,40,86,351,*7D
$GPGSV,4,4,15,41,58,082,,49,32,274,,50,10,089,*47
$GLGSV,3,1,10,67,17,084,19,68,30,136,30,69,15,187,29,73,00,333,*66
$GLGSV,3,2,10,78,14,155,17,79,67,158,23,80,53,332,22,82,06,005,*6F
$GLGSV,3,3,10,83,21,317,18,84,12,263,*68
$GNGLL,0419.82475,S,05539.74597,E,055417.00,A,A*6A
$GNRMC,055418.00,A,0419.82496,S,05539.74581,E,0.227,,270525,,,A*76
$GNVTG,,T,,M,0.227,N,0.420,K,A*3C
$GNGGA,055418.00,0419.82496,S,05539.74581,E,1,12,0.83,33.4,M,-47.6,M,,*4E
$GNGSA,A,3,12,05,24,18,15,23,20,13,,,,,1.58,0.83,1.35*10
$GNGSA,A,3,79,80,68,78,69,,,,,,,,1.58,0.83,1.35*14
$GPGSV,4,1,15,05,54,052,24,12,64,034,27,13,14,124,17,15,35,156,26*7C
$GPGSV,4,2,15,18,34,270,19,20,21,037,11,23,30,206,24,24,42,191,28*7E
$GPGSV,4,3,15,25,41,343,09,29,10,332,,36,52,277,,40,86,351,*70
$GPGSV,4,4,15,41,58,082,,49,32,274,,50,10,089,*47
$GLGSV,3,1,10,67,17,084,18,68,30,136,29,69,15,187,29,73,00,333,*6F
$GLGSV,3,2,10,78,14,155,17,79,67,158,23,80,53,332,22,82,06,005,*6F
$GLGSV,3,3,10,83,21,317,18,84,12,263,*68
$GNGLL,0419.82496,S,05539.74581,E,055418.00,A,A*6F
$GNRMC,055419.00,A,0419.82496,S,05539.74553,E,0.246,,270525,,,A*7F
$GNVTG,,T,,M,0.246,N,0.456,K,A*3A
$GNGGA,055419.00,0419.82496,S,05539.74553,E,1,12,0.76,34.7,M,-47.6,M,,*4E
$GNGSA,A,3,12,05,24,25,18,15,23,20,13,,,,1.44,0.76,1.22*16
$GNGSA,A,3,79,80,68,83,67,78,69,,,,,,1.44,0.76,1.22*1F
$GPGSV,4,1,15,05,54,052,26,12,64,034,26,13,14,124,13,15,35,156,25*78
$GPGSV,4,2,15,18,34,270,18,20,21,037,13,23,30,206,25,24,42,191,30*75
$GPGSV,4,3,15,25,41,343,22,29,10,332,,36,52,277,,40,86,351,*79
$GPGSV,4,4,15,41,58,082,,49,32,274,,50,10,089,*47
$GLGSV,3,1,10,67,17,084,17,68,30,136,27,69,15,187,29,73,00,333,*6E
$GLGSV,3,2,10,78,14,155,17,79,67,158,22,80,53,332,21,82,06,005,*6D
$GLGSV,3,3,10,83,21,317,17,84,12,263,*67
$GNGLL,0419.82496,S,05539.74553,E,055419.00,A,A*61
$GNRMC,055420.00,A,0419.82492,S,05539.74542,E,0.161,,270525,,,A*77
$GNVTG,,T,,M,0.161,N,0.298,K,A*38
$GNGGA,055420.00,0419.82492,S,05539.74542,E,1,12,0.70,35.4,M,-47.6,M,,*44
$GNGSA,A,3,12,05,24,25,18,15,23,20,13,,,,1.37,0.70,1.17*12
$GNGSA,A,3,79,80,68,83,67,78,69,,,,,,1.37,0.70,1.17*1B
$GPGSV,4,1,15,05,54,052,25,12,64,034,27,13,14,124,12,15,35,156,22*7C
$GPGSV,4,2,15,18,34,270,19,20,21,037,14,23,30,206,26,24,42,191,29*78
$GPGSV,4,3,15,25,41,343,23,29,10,332,,36,52,277,,40,86,351,*78
$GPGSV,4,4,15,41,58,082,,49,32,274,,50,10,089,*47
$GLGSV,3,1,10,67,17,084,15,68,30,136,26,69,15,187,30,73,00,333,*65
$GLGSV,3,2,10,78,14,155,17,79,67,158,23,80,53,332,19,82,06,005,*67
$GLGSV,3,3,10,83,21,317,15,84,12,263,*65
$GNGLL,0419.82492,S,05539.74542,E,055420.00,A,A*6F
$GNRMC,055421.00,A,0419.82506,S,05539.74532,E,0.171,,270525,,,A*7C
$GNVTG,,T,,M,0.171,N,0.317,K,A*3F
$GNGGA,055421.00,0419.82506,S,05539.74532,E,1,12,0.76,36.7,M,-47.6,M,,*48
$GNGSA,A,3,12,05,24,25,18,15,23,13,,,,,1.44,0.76,1.22*14
$GNGSA,A,3,79,80,68,83,67,78,69,,,,,,1.44,0.76,1.22*1F
$GPGSV,4,1,15,05,54,052,24,12,64,034,27,13,14,124,12,15,35,156,21*7E
$GPGSV,4,2,15,18,34,270,19,20,21,037,,23,30,206,28,24,42,191,28*72
$GPGSV,4,3,15,25,41,343,22,29,10,332,,36,52,277,,40,86,351,*79
$GPGSV,4,4,15,41,58,082,,49,32,274,,50,10,089,*47
$GLGSV,3,1,10,67,17,084,15,68,30,136,25,69,15,187,32,73,00,333,*64
$GLGSV,3,2,10,78,14,155,16,79,67,158,22,80,53,332,19,82,06,005,*67
$GLGSV,3,3,10,83,21,317,14,84,12,263,*64
$GNGLL,0419.82506,S,05539.74532,E,055421.00,A,A*65
$GNRMC,055422.00,A,0419.82512,S,05539.74526,E,0.160,,270525,,,A*7F
$GNVTG,,T,,M,0.160,N,0.296,K,A*37
$GNGGA,055422.00,0419.82512,S,05539.74526,E,1,12,0.76,37.2,M,-47.6,M,,*4F
$GNGSA,A,3,12,05,24,25,18,15,23,13,,,,,1.44,0.76,1.22*14
$GNGSA,A,3,79,80,68,83,67,78,69,,,,,,1.44,0.76,1.22*1F
$GPGSV,4,1,15,05,54,052,23,12,64,034,30,13,14,124,15,15,35,156,23*7A
$GPGSV,4,2,15,18,34,270,22,20,21,037,18,23,30,206,28,24,42,191,28*73
$GPGSV,4,3,15,25,41,343,25,29,10,332,,36,52,277,,40,86,351,*7E
$GPGSV,4,4,15,41,58,082,,49,32,274,,50,10,089,*47
$GLGSV,3,1,10,67,17,084,11,68,30,136,24,69,15,187,29,73,00,333,*6B
$GLGSV,3,2,10,78,14,155,16,79,67,158,19,80,53,332,19,82,06,005,*6F
$GLGSV,3,3,10,83,21,317,17,84,12,263,*67
$GNGLL,0419.82512,S,05539.74526,E,055422.00,A,A*66
$GNRMC,055423.00,A,0419.82524,S,05539.74522,E,0.100,,270525,,,A*79
$GNVTG,,T,,M,0.100,N,0.186,K,A*33
$GNGGA,055423.00,0419.82524,S,05539.74522,E,1,12,0.76,38.0,M,-47.6,M,,*42
$GNGSA,A,3,12,05,24,25,18,15,23,13,,,,,1.44,0.76,1.22*14
$GNGSA,A,3,79,80,68,83,78,69,,,,,,,1.44,0.76,1.22*1E
$GPGSV,4,1,15,05,54,052,22,12,64,034,26,13,14,124,18,15,35,156,25*77
$GPGSV,4,2,15,18,34,270,23,20,21,037,17,23,30,206,30,24,42,191,28*74
$GPGSV,4,3,15,25,41,343,24,29,10,332,,36,52,277,,40,86,351,*7F
$GPGSV,4,4,15,41,58,082,,49,32,274,,50,10,089,*47
$GLGSV,3,1,10,67,17,084,09,68,30,136,24,69,15,187,28,73,00,333,*63
$GLGSV,3,2,10,78,14,155,13,79,67,158,17,80,53,332,16,82,06,005,*6B
$GLGSV,3,3,10,83,21,317,15,84,12,263,*65
$GNGLL,0419.82524,S,05539.74522,E,055423.00,A,A*66
$GNRMC,055424.00,A,0419.82535,S,05539.74525,E,0.149,,270525,,,A*74
$GNVTG,,T,,M,0.149,N,0.275,K,A*31
$GNGGA,055424.00,0419.82535,S,05539.74525,E,1,12,0.76,38.4,M,-47.6,M,,*46
$GNGSA,A,3,12,05,24,25,18,15,23,13,,,,,1.44,0.76,1.22*14
$GNGSA,A,3,79,80,68,83,78,69,,,,,,,1.44,0.76,1.22*1E
$GPGSV,4,1,15,05,54,052,20,12,64,034,25,13,14,124,18,15,35,156,25*76
$GPGSV,4,2,15,18,34,270,22,20,21,037,16,23,30,206,28,24,42,191,28*7D
$GPGSV,4,3,15,25,41,343,24,29,10,332,,36,52,277,,40,86,351,*7F
$GPGSV,4,4,15,41,58,082,,49,32,274,,50,10,089,*47
$GLGSV,3,1,10,67,17,084,09,68,30,136,24,69,15,187,26,73,00,333,*6D
$GLGSV,3,2,10,78,14,155,15,79,67,158,19,80,53,332,16,82,06,005,*63
$GLGSV,3,3,10,83,21,317,14,84,12,263,*64
$GNGLL,0419.82535,S,05539.74525,E,055424.00,A,A*66
$GNRMC,055425.00,A,0419.82534,S,05539.74538,E,0.143,,270525,,,A*72
$GNVTG,,T,,M,0.143,N,0.264,K,A*3B
$GNGGA,055425.00,0419.82534,S,05539.74538,E,1,12,0.70,38.2,M,-47.6,M,,*4A
$GNGSA,A,3,12,05,24,25,18,15,23,13,,,,,1.37,0.70,1.17*10
$GNGSA,A,3,79,80,68,83,67,78,69,,,,,,1.37,0.70,1.17*1B
$GPGSV,4,1,15,05,54,052,22,12,64,034,25,13,14,124,20,15,35,156,26*7C
$GPGSV,4,2,15,18,34,270,22,20,21,037,16,23,30,206,28,24,42,191,27*72
$GPGSV,4,3,15,25,41,343,22,29,10,332,,36,52,277,,40,86,351,*79
$GPGSV,4,4,15,41,58,082,,49,32,274,,50,10,089,*47
$GLGSV,3,1,10,67,17,084,12,68,30,136,24,69,15,187,31,73,00,333,*61
$GLGSV,3,2,10,78,14,155,14,79,67,158,19,80,53,332,21,82,06,005,*66
$GLGSV,3,3,10,83,21,317,15,84,12,263,*65
$GNGLL,0419.82534,S,05539.74538,E,055425.00,A,A*6A
$GNRMC,055426.00,A,0419.82534,S,05539.74572,E,0.119,,270525,,,A*70
$GNVTG,,T,,M,0.119,N,0.220,K,A*34
$GNGGA,055426.00,0419.82534,S,05539.74572,E,1,12,0.67,37.8,M,-47.6,M,,*44
$GNGSA,A,3,12,05,24,25,18,15,23,20,13,,,,1.36,0.67,1.18*1A
$GNGSA,A,3,79,80,68,83,67,78,69,,,,,,1.36,0.67,1.18*13
$GPGSV,4,1,15,05,54,052,24,12,64,034,26,13,14,124,19,15,35,156,28*7D
$GPGSV,4,2,15,18,34,270,22,20,21,037,14,23,30,206,27,24,42,191,27*7F
$GPGSV,4,3,15,25,41,343,21,29,10,332,,36,52,277,,40,86,351,*7A
$GPGSV,4,4,15,41,58,082,,49,32,274,,50,10,089,*47
$GLGSV,3,1,10,67,17,084,12,68,30,136,24,69,15,187,29,73,00,333,*68
$GLGSV,3,2,10,78,14,155,11,79,67,158,16,80,53,332,23,82,06,005,*6E
$GLGSV,3,3,10,83,21,317,19,84,12,263,*69
$GNGLL,0419.82534,S,05539.74572,E,055426.00,A,A*67
$GNRMC,055427.00,A,0419.82530,S,05539.74612,E,0.456,,270525,,,A*7E
$GNVTG,,T,,M,0.456,N,0.844,K,A*32
$GNGGA,055427.00,0419.82530,S,05539.74612,E,1,12,0.72,37.5,M,-47.6,M,,*4D
$GNGSA,A,3,12,05,24,25,18,15,23,20,13,,,,1.42,0.72,1.22*14
$GNGSA,A,3,79,80,68,83,67,78,69,,,,,,1.42,0.72,1.22*1D
$GPGSV,4,1,15,05,54,052,25,12,64,034,27,13,14,124,19,15,35,156,29*7C
$GPGSV,4,2,15,18,34,270,22,20,21,037,10,23,30,206,27,24,42,191,27*7B
$GPGSV,4,3,15,25,41,343,25,29,10,332,,36,52,277,,40,86,351,*7E
$GPGSV,4,4,15,41,58,082,,49,32,274,,50,10,089,*47
$GLGSV,3,1,10,67,17,084,11,68,30,136,23,69,15,187,29,73,00,333,*6C
$GLGSV,3,2,10,78,14,155,12,79,67,158,13,80,53,332,20,82,06,005,*6B
$GLGSV,3,3,10,83,21,317,19,84,12,263,*69
$GNGLL,0419.82530,S,05539.74612,E,055427.00,A,A*67
$GNRMC,055428.00,A,0419.82545,S,05539.74634,E,0.185,,270525,,,A*7C
$GNVTG,,T,,M,0.185,N,0.343,K,A*35
$GNGGA,055428.00,0419.82545,S,05539.74634,E,1,12,0.76,37.3,M,-47.6,M,,*46
$GNGSA,A,3,12,05,24,25,18,15,23,20,13,,,,1.53,0.76,1.33*10
$GNGSA,A,3,79,80,68,83,67,69,,,,,,,1.53,0.76,1.33*16
$GPGSV,4,1,15,05,54,052,24,12,64,034,28,13,14,124,21,15,35,156,28*78
$GPGSV,4,2,15,18,34,270,21,20,21,037,12,23,30,206,27,24,42,191,27*7A
$GPGSV,4,3,15,25,41,343,26,29,10,332,,36,52,277,,40,86,351,*7D
$GPGSV,4,4,15,41,58,082,,49,32,274,,50,10,089,*47
$GLGSV,3,1,10,67,17,084,12,68,30,136,22,69,15,187,30,73,00,333,*66
$GLGSV,3,2,10,78,14,155,12,79,67,158,13,80,53,332,16,82,06,005,*6E
$GLGSV,3,3,10,83,21,317,20,84,12,263,*63
$GNGLL,0419.82545,S,05539.74634,E,055428.00,A,A*6E
$GNRMC,055429.00,A,0419.82563,S,05539.74656,E,0.054,,270525,,,A*70
$GNVTG,,T,,M,0.054,N,0.100,K,A*3D
$GNGGA,055429.00,0419.82563,S,05539.74656,E,1,12,0.73,37.6,M,-47.6,M,,*47
$GNGSA,A,3,12,05,24,25,18,15,23,20,13,,,,1.47,0.73,1.28*1A
$GNGSA,A,3,79,80,68,83,67,69,,,,,,,1.47,0.73,1.28*1C
$GPGSV,4,1,15,05,54,052,25,12,64,034,30,13,14,124,22,15,35,156,28*73
$GPGSV,4,2,15,18,34,270,20,20,21,037,17,23,30,206,26,24,42,191,29*71
$GPGSV,4,3,15,25,41,343,26,29,10,332,,36,52,277,,40,86,351,*7D
$GPGSV,4,4,15,41,58,082,,49,32,274,,50,10,089,*47
$GLGSV,3,1,10,67,17,084,11,68,30,136,20,69,15,187,30,73,00,333,*67
$GLGSV,3,2,10,78,14,155,12,79,67,158,11,80,53,332,21,82,06,005,*68
$GLGSV,3,3,10,83,21,317,19,84,12,263,*69
$GNGLL,0419.82563,S,05539.74656,E,055429.00,A,A*6F
$GNRMC,055430.00,A,0419.82571,S,05539.74676,E,0.231,,270525,,,A*78
$GNVTG,,T,,M,0.231,N,0.428,K,A*33
$GNGGA,055430.00,0419.82571,S,05539.74676,E,1,12,0.76,37.6,M,-47.6,M,,*4B
$GNGSA,A,3,12,05,24,25,18,15,23,20,13,,,,1.65,0.76,1.46*17
$GNGSA,A,3,80,68,83,67,69,,,,,,,,1.65,0.76,1.46*1F
$GPGSV,4,1,15,05,54,052,28,12,64,034,30,13,14,124,21,15,35,156,28*7D
$GPGSV,4,2,15,18,34,270,22,20,21,037,18,23,30,206,27,24,42,191,29*7D
$GPGSV,4,3,15,25,41,343,23,29,10,332,,36,52,277,,40,86,351,*78
$GPGSV,4,4,15,41,58,082,,49,32,274,,50,10,089,*47
$GLGSV,3,1,10,67,17,084,11,68,30,136,20,69,15,187,29,73,00,333,*6F
$GLGSV,3,2,10,78,14,155,12,79,67,158,10,80,53,332,23,82,06,005,*6B
$GLGSV,3,3,10,83,21,317,17,84,12,263,*67
$GNGLL,0419.82571,S,05539.74676,E,055430.00,A,A*66
$GNRMC,055431.00,A,0419.82597,S,05539.74702,E,0.243,,270525,,,A*76
$GNVTG,,T,,M,0.243,N,0.450,K,A*39
$GNGGA,055431.00,0419.82597,S,05539.74702,E,1,12,0.74,37.9,M,-47.6,M,,*4D
$GNGSA,A,3,12,05,24,25,18,15,23,20,13,,,,1.64,0.74,1.46*14
$GNGSA,A,3,79,80,68,83,67,78,69,,,,,,1.64,0.74,1.46*1D
$GPGSV,4,1,15,05,54,052,28,12,64,034,31,13,14,124,22,15,35,156,28*7F
$GPGSV,4,2,15,18,34,270,20,20,21,037,18,23,30,206,27,24,42,191,28*7E
$GPGSV,4,3,15,25,41,343,22,29,10,332,,36,52,277,,40,86,351,*79
$GPGSV,4,4,15,41,58,082,,49,32,274,,50,10,089,*47
$GLGSV,3,1,10,67,17,084,14,68,30,136,18,69,15,187,29,73,00,333,*61
$GLGSV,3,2,10,78,14,155,10,79,67,158,12,80,53,332,21,82,06,005,*69
$GLGSV,3,3,10,83,21,317,19,84,12,263,*69
$GNGLL,0419.82597,S,05539.74702,E,055431.00,A,A*6D
$GNRMC,055432.00,A,0419.82616,S,05539.74724,E,0.238,,270525,,,A*77
$GNVTG,,T,,M,0.238,N,0.441,K,A*35
$GNGGA,055432.00,0419.82616,S,05539.74724,E,1,12,0.72,38.2,M,-47.6,M,,*42
$GNGSA,A,3,12,05,24,25,18,15,23,20,13,,,,1.42,0.72,1.22*14
$GNGSA,A,3,79,80,68,83,67,78,69,,,,,,1.42,0.72,1.22*1D
$GPGSV,4,1,15,05,54,052,27,12,64,034,31,13,14,124,22,15,35,156,28*70
$GPGSV,4,2,15,18,34,270,18,20,21,037,20,23,30,206,26,24,42,191,29*7E
$GPGSV,4,3,15,25,41,343,19,29,10,332,,36,52,277,,40,86,351,*71
$GPGSV,4,4,15,41,58,082,,49,32,274,,50,10,089,*47
$GLGSV,3,1,10,67,17,084,16,68,30,136,19,69,15,187,28,73,00,333,*63
$GLGSV,3,2,10,78,14,155,10,79,67,158,12,80,53,332,20,82,06,005,*68
$GLGSV,3,3,10,83,21,317,19,84,12,263,*69
$GNGLL,0419.82616,S,05539.74724,E,055432.00,A,A*60
$GNRMC,055433.00,A,0419.82643,S,05539.74760,E,0.535,,270525,,,A*7C
$GNVTG,,T,,M,0.535,N,0.991,K,A*3F
$GNGGA,055433.00,0419.82643,S,05539.74760,E,1,12,0.67,38.4,M,-47.6,M,,*41
$GNGSA,A,3,12,05,24,25,18,15,23,20,13,,,,1.35,0.67,1.18*19
$GNGSA,A,3,79,80,68,83,67,78,69,,,,,,1.35,0.67,1.18*10
$GPGSV,4,1,15,05,54,052,27,12,64,034,32,13,14,124,22,15,35,156,28*73
$GPGSV,4,2,15,18,34,270,18,20,21,037,21,23,30,206,25,24,42,191,29*7C
$GPGSV,4,3,15,25,41,343,19,29,10,332,,36,52,277,,40,86,351,*71
$GPGSV,4,4,15,41,58,082,,49,32,274,,50,10,089,*47
$GLGSV,3,1,10,67,17,083,17,68,30,136,18,69,15,187,27,73,00,333,*6B
$GLGSV,3,2,10,78,14,155,09,79,67,158,14,80,53,332,20,82,06,005,*66
$GLGSV,3,3,10,83,21,317,18,84,12,263,*68
$GNGLL,0419.82643,S,05539.74760,E,055433.00,A,A*61
$GNRMC,055434.00,A,0419.82668,S,05539.74805,E,0.848,,270525,,,A*79
$GNVTG,,T,,M,0.848,N,1.570,K,A*3A
$GNGGA,055434.00,0419.82668,S,05539.74805,E,1,12,0.67,38.3,M,-47.6,M,,*44
$GNGSA,A,3,12,05,24,25,18,15,23,20,13,,,,1.35,0.67,1.18*19
$GNGSA,A,3,79,80,68,83,67,78,69,,,,,,1.35,0.67,1.18*10
$GPGSV,4,1,15,05,54,052,27,12,64,034,31,13,14,124,22,15,35,156,28*70
$GPGSV,4,2,15,18,34,270,20,20,21,037,21,23,30,206,25,24,42,191,28*76
$GPGSV,4,3,15,25,41,343,18,29,10,332,,36,52,277,,40,86,351,*70
$GPGSV,4,4,15,41,58,082,,49,32,274,,50,10,089,*47
$GLGSV,3,1,10,67,17,083,17,68,31,135,17,69,15,187,28,73,00,333,*69
$GLGSV,3,2,10,78,14,155,09,79,67,158,17,80,53,332,20,82,06,005,*65
$GLGSV,3,3,10,83,21,317,16,84,12,263,*66
$GNGLL,0419.82668,S,05539.74805,E,055434.00,A,A*63
$GNRMC,055435.00,A,0419.82692,S,05539.74832,E,0.856,,270525,,,A*76
$GNVTG,,T,,M,0.856,N,1.586,K,A*3C
$GNGGA,055435.00,0419.82692,S,05539.74832,E,1,12,0.66,38.4,M,-47.6,M,,*42
$GNGSA,A,3,12,05,24,25,18,15,23,20,13,,,,1.31,0.66,1.13*17
$GNGSA,A,3,79,80,68,83,67,78,69,,,,,,1.31,0.66,1.13*1E
$GPGSV,4,1,15,05,54,052,28,12,64,034,32,13,14,124,21,15,35,156,27*70
$GPGSV,4,2,15,18,34,270,20,20,21,037,21,23,30,206,25,24,42,191,29*77
$GPGSV,4,3,15,25,41,343,21,29,10,332,,36,52,277,,40,86,351,*7A
$GPGSV,4,4,15,41,58,082,,49,32,274,,50,10,089,*47
$GLGSV,3,1,10,67,17,083,16,68,31,135,18,69,16,186,25,73,00,333,*68
$GLGSV,3,2,10,78,14,155,09,79,67,158,17,80,53,332,21,82,06,005,*64
$GLGSV,3,3,10,83,21,317,16,84,12,263,*66
$GNGLL,0419.82692,S,05539.74832,E,055435.00,A,A*63
$GNRMC,055436.00,A,0419.82706,S,05539.74834,E,0.238,,270525,,,A*7D
$GNVTG,,T,,M,0.238,N,0.440,K,A*34
$GNGGA,055436.00,0419.82706,S,05539.74834,E,1,12,0.67,38.1,M,-47.6,M,,*4F
$GNGSA,A,3,12,05,24,25,18,15,23,20,13,,,,1.35,0.67,1.18*19
$GNGSA,A,3,79,80,68,83,67,78,69,,,,,,1.35,0.67,1.18*10
$GPGSV,4,1,15,05,54,052,33,12,64,034,31,13,14,124,20,15,35,156,27*78
$GPGSV,4,2,15,18,34,270,22,20,21,037,20,23,30,206,26,24,42,191,28*76
$GPGSV,4,3,15,25,41,343,21,29,10,332,,36,52,277,,40,86,351,*7A
$GPGSV,4,4,15,41,58,082,,49,32,274,,50,10,089,*47
$GLGSV,3,1,10,67,17,083,15,68,31,135,21,69,16,186,27,73,00,333,*63
$GLGSV,3,2,10,78,14,155,09,79,67,158,19,80,53,332,24,82,06,005,*6F
$GLGSV,3,3,10,83,21,317,15,84,12,263,*65
$GNGLL,0419.82706,S,05539.74834,E,055436.00,A,A*6A
$GNRMC,055437.00,A,0419.82725,S,05539.74854,E,0.427,,270525,,,A*73
$GNVTG,,T,,M,0.427,N,0.790,K,A*32
$GNGGA,055437.00,0419.82725,S,05539.74854,E,1,12,0.66,38.0,M,-47.6,M,,*49
$GNGSA,A,3,12,05,24,25,18,15,23,20,13,,,,1.33,0.66,1.16*10
$GNGSA,A,3,79,80,68,83,67,69,,,,,,,1.33,0.66,1.16*16
$GPGSV,4,1,15,05,54,052,30,12,64,034,31,13,14,124,19,15,35,156,27*71
$GPGSV,4,2,15,18,34,270,23,20,21,037,20,23,30,206,26,24,42,191,32*7C
$GPGSV,4,3,15,25,41,343,22,29,10,332,,36,52,277,,40,86,351,*79
$GPGSV,4,4,15,41,58,082,,49,32,274,,50,10,089,*47
$GLGSV,3,1,10,67,17,083,14,68,31,135,22,69,16,186,28,73,00,333,*6E
$GLGSV,3,2,10,78,14,155,12,79,67,158,18,80,53,332,25,82,06,005,*65
$GLGSV,3,3,10,83,21,317,14,84,12,263,*64
$GNGLL,0419.82725,S,05539.74854,E,055437.00,A,A*6C
$GNRMC,055438.00,A,0419.82740,S,05539.74862,E,0.237,,270525,,,A*7D
$GNVTG,,T,,M,0.237,N,0.439,K,A*35
$GNGGA,055438.00,0419.82740,S,05539.74862,E,1,12,0.66,38.0,M,-47.6,M,,*40
$GNGSA,A,3,12,05,24,25,18,15,23,20,13,,,,1.33,0.66,1.16*10
$GNGSA,A,3,79,80,68,83,67,69,,,,,,,1.33,0.66,1.16*16
$GPGSV,4,1,15,05,54,052,30,12,64,034,31,13,14,124,17,15,35,156,27*7F
$GPGSV,4,2,15,18,34,270,21,20,21,037,19,23,30,206,26,24,42,191,31*77
$GPGSV,4,3,15,25,41,343,22,29,10,332,,36,52,277,,40,86,351,*79
$GPGSV,4,4,15,41,58,082,,49,32,274,,50,10,089,*47
$GLGSV,3,1,10,67,17,083,13,68,31,135,22,69,16,186,28,73,00,333,*69
$GLGSV,3,2,10,78,14,155,12,79,67,158,17,80,53,332,23,82,06,005,*6C
$GLGSV,3,3,10,83,21,317,15,84,12,263,*65
$GNGLL,0419.82740,S,05539.74862,E,055438.00,A,A*65
$GNRMC,055439.00,A,0419.82757,S,05539.74867,E,0.208,,270525,,,A*73
$GNVTG,,T,,M,0.208,N,0.385,K,A*39
$GNGGA,055439.00,0419.82757,S,05539.74867,E,1,12,0.66,38.1,M,-47.6,M,,*43
$GNGSA,A,3,12,05,24,25,18,15,23,20,13,,,,1.33,0.66,1.16*10
$GNGSA,A,3,79,80,68,83,67,69,,,,,,,1.33,0.66,1.16*16
$GPGSV,4,1,15,05,54,052,27,12,64,034,33,13,14,124,17,15,35,156,28*74
$GPGSV,4,2,15,18,34,270,20,20,21,037,19,23,30,206,25,24,42,191,29*7C
$GPGSV,4,3,15,25,41,343,25,29,10,332,,36,52,277,,40,86,351,*7E
$GPGSV,4,4,15,41,58,082,,49,32,274,,50,10,089,*47
$GLGSV,3,1,10,67,17,083,12,68,31,135,21,69,16,186,28,73,01,332,*6B
$GLGSV,3,2,10,78,14,155,11,79,67,158,15,80,53,332,19,82,06,005,*64
$GLGSV,3,3,10,83,21,317,14,84,12,263,*64
$GNGLL,0419.82757,S,05539.74867,E,055439.00,A,A*67
$GNRMC,055440.00,A,0419.82769,S,05539.74854,E,0.153,,270525,,,A*7D
$GNVTG,,T,,M,0.153,N,0.283,K,A*33
$GNGGA,055440.00,0419.82769,S,05539.74854,E,1,12,0.69,38.3,M,-47.6,M,,*4D
$GNGSA,A,3,12,05,24,25,18,15,23,20,13,,,,1.34,0.69,1.15*1B
$GNGSA,A,3,79,80,68,83,78,69,,,,,,,1.34,0.69,1.15*13
$GPGSV,4,1,15,05,54,052,25,12,64,034,32,13,14,124,15,15,35,156,28*75
$GPGSV,4,2,15,18,34,270,18,20,21,037,18,23,30,206,23,24,42,191,28*71
$GPGSV,4,3,15,25,41,343,24,29,10,332,,36,52,277,,40,86,351,*7F
