b0X`

'u*uC)ON#D(dH<H" 
{4 U`:R D1E>sNFI)?J
9@OFP*SDTG~b`xX
H*$GNRMC,083314.00,A,0419.71861,S,05539.90678,E,0.370,,190525,,,A*7F
$GNVTG,,T,,M,0.370,N,0.684,K,A*33
$GNGNS,083314.00,0419.71861,S,05539.90678,E,AA,15,0.71,16.6,-47.6,,*6C
$GNGGA,083314.00,0419.71861,S,05539.90678,E,1,12,0.71,16.6,M,-47.6,M,,*41
$GNGSA,A,3,25,23,12,15,29,10,13,18,24,,,,1.31,0.71,1.10*1F
$GNGSA,A,3,69,80,73,68,74,83,,,,,,,1.31,0.71,1.10*1C
$GPGSV,5,1,18,05,03,029,,10,39,232,25,12,42,153,25,13,06,067,22*76
$GPGSV,5,2,18,15,41,079,30,18,20,334,26,23,68,296,23,24,18,142,24*7D
$GPGSV,5,3,18,25,72,195,25,26,03,316,15,28,12,253,08,29,34,020,14*77
$GPGSV,5,4,18,31,00,274,,32,10,210,,36,52,277,,40,85,352,32*7D
$GPGSV,5,5,18,41,58,082,30,49,32,274,*7C
$GLGSV,3,1,09,68,30,049,24,69,62,115,22,70,20,195,,73,41,278,23*63
$GLGSV,3,2,09,74,09,313,10,79,04,158,19,80,42,196,25,83,07,016,11*65
$GLGSV,3,3,09,84,01,327,*57
$GNGLL,0419.71861,S,05539.90678,E,083314.00,A,A*68
$GNGRS,083314.00,1,-3.8,3.6,3.7,4.1,10.5,1.2,0.2,5.5,0.1,,,*65
$GNGRS,083314.00,1,5.9,9.7,-1.9,-7.8,18.6,31.4,,,,,,*51
$GNGST,083314.00,4343719,,,,2.4,2.4,4.5*7A
$GNZDA,083314.00,19,05,2025,00,00*7D
$GNGBS,083314.00,2.4,2.4,4.5,,,,*53
b0XH

'"*A"C*)OVN%D("(%Hz<" 
{4)U`$:R !D"1E'>s4FI)
J9.OP"*DSTGdbHx@
 $GNRMC,083315.00,A,0419.71864,S,05539.90688,E,0.191,,190525,,,A*79
$GNVTG,,T,,M,0.191,N,0.353,K,A*31
$GNGNS,083315.00,0419.71864,S,05539.90688,E,AA,15,0.77,16.9,-47.6,,*6E
$GNGGA,083315.00,0419.71864,S,05539.90688,E,1,12,0.77,16.9,M,-47.6,M,,*43
$GNGSA,A,3,25,23,12,15,29,10,13,18,24,,,,1.44,0.77,1.21*19
$GNGSA,A,3,69,80,73,68,74,83,,,,,,,1.44,0.77,1.21*1A
$GPGSV,5,1,18,05,03,029,,10,39,232,31,12,42,153,34,13,06,067,34*74
$GPGSV,5,2,18,15,41,079,42,18,20,334,26,23,68,296,37,24,18,142,34*7C
$GPGSV,5,3,18,25,72,195,37,26,03,316,16,28,12,253,07,29,34,020,31*7F
$GPGSV,5,4,18,31,00,274,,32,10,210,,36,52,277,,40,85,352,41*79
$GPGSV,5,5,18,41,58,082,36,49,32,274,*7A
$GLGSV,3,1,09,68,30,049,34,69,62,115,39,70,20,195,,73,41,278,22*69
$GLGSV,3,2,09,74,09,313,13,79,04,158,29,80,42,196,34,83,07,016,09*6C
$GLGSV,3,3,09,84,01,327,*57
$GNGLL,0419.71864,S,05539.90688,E,083315.00,A,A*63
$GNGRS,083315.00,1,-1.3,1.3,-1.9,3.4,4.3,-1.2,0.2,3.9,0.4,,,*58
$GNGRS,083315.00,1,5.6,8.4,-2.5,-10.6,120,19.8,,,,,,*4E
$GNGST,083315.00,42,,,,2.5,2.4,4.5*43
$GNZDA,083315.00,19,05,2025,00,00*7C
$GNGBS,083315.00,2.5,2.4,4.5,,,,*53
b0X0

 'L"*4"CK))ON#D("%H<" 
{4(U`$:R  D"1E'>sFI)J9.O P#*S[TGlb0x(
$GNRMC,083316.00,A,0419.71867,S,05539.90690,E,0.036,,190525,,,A*7C
$GNVTG,,T,,M,0.036,N,0.068,K,A*36
$GNGNS,083316.00,0419.71867,S,05539.90690,E,AA,15,0.73,16.9,-47.6,,*63
$GNGGA,083316.00,0419.71867,S,05539.90690,E,1,12,0.73,16.9,M,-47.6,M,,*4E
$GNGSA,A,3,25,23,12,15,29,10,13,18,24,,,,1.36,0.73,1.14*1E
$GNGSA,A,3,69,80,73,68,74,83,,,,,,,1.36,0.73,1.14*1D
$GPGSV,5,1,18,05,03,029,,10,39,232,32,12,42,153,34,13,06,067,34*77
$GPGSV,5,2,18,15,41,079,41,18,20,334,27,23,68,296,35,24,18,142,34*7C
$GPGSV,5,3,18,25,72,195,37,26,03,316,20,28,12,253,06,29,34,020,31*7B
$GPGSV,5,4,18,31,00,274,,32,10,210,,36,52,277,,40,85,352,40*78
$GPGSV,5,5,18,41,58,082,36,49,32,274,*7A
$GLGSV,3,1,09,68,30,049,34,69,62,115,39,70,20,195,,73,41,278,25*6E
$GLGSV,3,2,09,74,09,313,18,79,04,158,32,80,42,196,35,83,07,016,13*67
$GLGSV,3,3,09,84,01,327,*57
$GNGLL,0419.71867,S,05539.90690,E,083316.00,A,A*6A
$GNGRS,083316.00,1,-2.7,2.0,0.5,2.3,4.7,-1.8,-4.4,-2.7,-0.1,,,*51
$GNGRS,083316.00,1,1.4,1.3,-2.3,-12.9,18.4,31.6,,,,,,*6A
$GNGST,083316.00,3179277,,,,2.4,2.4,4.5*79
$GNZDA,083316.00,19,05,2025,00,00*7F
$GNGBS,083316.00,2.4,2.4,4.5,,,,*51
b0X

"'"*a#C*)ONH%D(0$'Hx<[" 
{4)U`&:R  D!1;E&>sFI)J9O P!*SGTGbx
b$GNRMC,083317.00,A,0419.71867,S,05539.90693,E,0.024,,190525,,,A*7D
$GNVTG,,T,,M,0.024,N,0.044,K,A*3B
$GNGNS,083317.00,0419.71867,S,05539.90693,E,AA,15,0.73,17.0,-47.6,,*69
$GNGGA,083317.00,0419.71867,S,05539.90693,E,1,12,0.73,17.0,M,-47.6,M,,*44
$GNGSA,A,3,25,23,12,15,29,10,13,18,24,,,,1.36,0.73,1.14*1E
$GNGSA,A,3,69,80,73,68,74,83,,,,,,,1.36,0.73,1.14*1D
$GPGSV,5,1,18,05,03,029,18,10,39,232,34,12,42,153,34,13,06,067,35*79
$GPGSV,5,2,18,15,41,079,42,18,20,334,29,23,68,296,37,24,18,142,36*71
$GPGSV,5,3,18,25,72,195,39,26,03,316,20,28,12,253,,29,34,020,31*73
$GPGSV,5,4,18,31,00,274,,32,10,210,,36,52,277,,40,85,352,41*79
$GPGSV,5,5,18,41,58,082,38,49,32,274,*74
$GLGSV,3,1,09,68,30,049,33,69,62,115,38,70,20,195,,73,41,278,26*6B
$GLGSV,3,2,09,74,09,313,14,79,04,158,32,80,42,196,33,83,07,016,09*66
$GLGSV,3,3,09,84,01,327,*57
$GNGLL,0419.71867,S,05539.90693,E,083317.00,A,A*68
$GNGRS,083317.00,1,-1.4,0.5,-1.6,1.4,4.4,-0.2,0.1,-1.8,-0.4,,,*51
$GNGRS,083317.00,1,2.0,-0.2,-3.2,-12.2,18.1,31.4,,,,,,*4D
$GNGST,083317.00,3179277,,,,2.4,2.3,4.4*7E
$GNZDA,083317.00,19,05,2025,00,00*7E
$GNGBS,083317.00,2.4,2.3,4.4,,,,*56
b0X

'#*"C*)O;N'$D(!&H< " 
{4)U`&:R "D#1E'>sFI)J9O!BP#*STGbx
$GNRMC,083318.00,A,0419.71870,S,05539.90697,E,0.063,,190525,,,A*73
$GNVTG,,T,,M,0.063,N,0.116,K,A*3E
$GNGNS,083318.00,0419.71870,S,05539.90697,E,AA,15,0.73,17.1,-47.6,,*65
$GNGGA,083318.00,0419.71870,S,05539.90697,E,1,12,0.73,17.1,M,-47.6,M,,*48
$GNGSA,A,3,25,23,12,15,29,10,13,18,24,,,,1.36,0.73,1.14*1E
$GNGSA,A,3,69,80,73,68,74,83,,,,,,,1.36,0.73,1.14*1D
$GPGSV,5,1,18,05,03,029,18,10,39,232,31,12,42,153,35,13,06,067,34*7C
$GPGSV,5,2,18,15,41,079,42,18,20,334,29,23,68,296,36,24,18,142,33*75
$GPGSV,5,3,18,25,72,195,38,26,03,316,21,28,12,253,,29,34,020,32*70
$GPGSV,5,4,18,31,00,274,,32,10,210,,36,52,277,,40,85,352,41*79
$GPGSV,5,5,18,41,58,082,38,49,32,274,*74
$GLGSV,3,1,09,68,30,049,35,69,62,115,39,70,20,195,,73,41,278,27*6D
$GLGSV,3,2,09,74,09,313,17,79,04,158,33,80,42,196,35,83,07,016,13*69
$GLGSV,3,3,09,84,01,327,*57
$GNGLL,0419.71870,S,05539.90697,E,083318.00,A,A*65
$GNGRS,083318.00,1,-1.1,-3.1,-2.8,0.6,3.9,-0.3,-3.4,0.4,2.5,,,*51
$GNGRS,083318.00,1,-0.6,-3.3,-3.7,-11.4,15.0,23.1,,,,,,*63
$GNGST,083318.00,32,,,,2.4,2.3,4.3*49
$GNZDA,083318.00,19,05,2025,00,00*71
$GNGBS,083318.00,2.4,2.3,4.3,,,,*5E
b0X&


#'"*#C*)ONu$D(":%H#<" 
{4(U`':R !rD 11E%>s1FI)J9SOP!*SjTG_ bx
~ $GNRMC,083319.00,A,0419.71868,S,05539.90703,E,0.023,,190525,,,A*73
$GNVTG,,T,,M,0.023,N,0.042,K,A*3A
$GNGNS,083319.00,0419.71868,S,05539.90703,E,AA,15,0.73,17.2,-47.6,,*62
$GNGGA,083319.00,0419.71868,S,05539.90703,E,1,12,0.73,17.2,M,-47.6,M,,*4F
$GNGSA,A,3,25,23,12,15,29,10,13,18,24,,,,1.36,0.73,1.14*1E
$GNGSA,A,3,69,80,73,68,74,83,,,,,,,1.36,0.73,1.14*1D
$GPGSV,5,1,18,05,03,029,18,10,39,232,35,12,42,153,34,13,06,067,35*78
$GPGSV,5,2,18,15,41,079,42,18,20,334,29,23,68,296,36,24,18,142,34*72
$GPGSV,5,3,18,25,72,195,37,26,03,316,23,28,12,253,,29,34,020,31*7E
$GPGSV,5,4,18,31,00,274,,32,10,210,,36,52,277,,40,85,352,40*78
$GPGSV,5,5,18,41,58,082,39,49,32,274,*75
$GLGSV,3,1,09,68,30,049,32,69,62,115,37,70,20,195,,73,41,278,27*64
$GLGSV,3,2,09,74,09,313,16,79,04,158,28,80,42,196,33,83,07,016,16*61
$GLGSV,3,3,09,84,01,327,*57
$GNGLL,0419.71868,S,05539.90703,E,083319.00,A,A*61
$GNGRS,083319.00,1,-2.2,-1.2,-0.5,1.9,4.7,-3.2,-3.0,1.2,-2.0,,,*70
$GNGRS,083319.00,1,0.5,-1.0,-3.7,-12.3,18.8,31.8,,,,,,*46
$GNGST,083319.00,28844,,,,2.3,2.2,4.3*7D
$GNZDA,083319.00,19,05,2025,00,00*70
$GNGBS,083319.00,2.3,2.2,4.3,,,,*59
b0X

!'x*&C+)ON'D(O"&HU<c" 
{4*U`(:R "!D#1=E'>sFI)jJ9kO!8P$*SgTGbx
V$GNRMC,083320.00,A,0419.71875,S,05539.90712,E,0.031,,190525,,,A*76
$GNVTG,,T,,M,0.031,N,0.057,K,A*3D
$GNGNS,083320.00,0419.71875,S,05539.90712,E,AA,15,0.73,17.1,-47.6,,*67
$GNGGA,083320.00,0419.71875,S,05539.90712,E,1,12,0.73,17.1,M,-47.6,M,,*4A
$GNGSA,A,3,25,23,12,15,29,10,13,18,24,,,,1.36,0.73,1.14*1E
$GNGSA,A,3,69,80,73,68,74,83,,,,,,,1.36,0.73,1.14*1D
$GPGSV,5,1,18,05,03,029,19,10,39,232,33,12,42,153,31,13,06,067,38*77
$GPGSV,5,2,18,15,41,079,43,18,20,334,28,23,68,296,39,24,18,142,34*7D
$GPGSV,5,3,18,25,72,195,38,26,03,316,22,28,12,253,,29,34,020,31*70
$GPGSV,5,4,18,31,00,274,,32,10,210,,36,52,277,,40,85,352,42*7A
$GPGSV,5,5,18,41,58,082,40,49,32,274,*7B
$GLGSV,3,1,09,68,30,049,35,69,62,115,39,70,20,195,,73,41,278,25*6F
$GLGSV,3,2,09,74,09,313,14,79,04,158,33,80,42,196,36,83,07,016,13*69
$GLGSV,3,3,09,84,01,327,*57
$GNGLL,0419.71875,S,05539.90712,E,083320.00,A,A*67
$GNGRS,083320.00,1,-4.3,-1.8,-3.7,1.4,-0.7,-1.4,-0.8,2.7,1.5,,,*70
$GNGRS,083320.00,1,1.8,1.7,-4.1,-9.6,19.0,31.7,,,,,,*52
$GNGST,083320.00,43266,,,,2.3,2.2,4.3*70
$GNZDA,083320.00,19,05,2025,00,00*7A
$GNGBS,083320.00,2.3,2.2,4.3,,,,*53
b0d

#'"*%CY+)ON'D(#n'Hk<""g 
{4+U`):R #D 1E%>sFI)J9XOP!*pS:TG%bx
.$GNRMC,083321.00,A,0419.71874,S,05539.90719,E,0.037,,190525,,,A*7B
$GNVTG,,T,,M,0.037,N,0.068,K,A*37
$GNGNS,083321.00,0419.71874,S,05539.90719,E,AA,15,0.73,17.2,-47.6,,*6F
$GNGGA,083321.00,0419.71874,S,05539.90719,E,1,12,0.73,17.2,M,-47.6,M,,*42
$GNGSA,A,3,25,23,12,15,29,10,13,18,24,,,,1.36,0.73,1.14*1E
$GNGSA,A,3,69,80,73,68,74,83,,,,,,,1.36,0.73,1.14*1D
$GPGSV,5,1,18,05,03,029,20,10,39,232,35,12,42,153,34,13,06,067,37*71
$GPGSV,5,2,18,15,41,079,43,18,20,334,29,23,68,296,39,24,18,142,35*7D
$GPGSV,5,3,18,25,72,195,39,26,03,316,23,28,12,253,,29,34,020,34*75
$GPGSV,5,4,18,31,00,274,,32,10,210,,36,52,277,,40,85,352,43*7B
$GPGSV,5,5,18,41,58,082,41,49,32,274,*7A
$GLGSV,3,1,10,68,30,049,32,69,62,115,37,70,20,195,,73,41,278,23*68
$GLGSV,3,2,10,74,09,313,15,79,04,158,28,80,42,196,33,83,07,016,12*6E
$GLGSV,3,3,10,84,01,327,,,,,37*5B
$GNGLL,0419.71874,S,05539.90719,E,083321.00,A,A*6C
$GNGRS,083321.00,1,-1.5,-0.7,0.3,2.7,1.0,-3.0,-1.7,5.0,-1.5,,,*58
$GNGRS,083321.00,1,2.2,-1.4,-3.1,-10.2,18.8,31.3,,,,,,*42
$GNGST,083321.00,34,,,,2.2,2.2,4.2*43
$GNZDA,083321.00,19,05,2025,00,00*7B
$GNGBS,083321.00,2.2,2.2,4.2,,,,*52
b0dN

!'"*r#C))ON+&D(a%He<" 
{4*U`(:R D#1E$>suFI)J9O!P!*STG(bx
X$GNRMC,083322.00,A,0419.71871,S,05539.90718,E,0.090,,190525,,,A*71
$GNVTG,,T,,M,0.090,N,0.167,K,A*34
$GNGNS,083322.00,0419.71871,S,05539.90718,E,AA,15,0.73,17.3,-47.6,,*69
$GNGGA,083322.00,0419.71871,S,05539.90718,E,1,12,0.73,17.3,M,-47.6,M,,*44
$GNGSA,A,3,25,23,12,15,29,10,13,18,24,,,,1.36,0.73,1.14*1E
$GNGSA,A,3,69,80,73,68,74,83,,,,,,,1.36,0.73,1.14*1D
$GPGSV,5,1,18,05,03,029,21,10,39,232,33,12,42,153,34,13,06,067,35*74
$GPGSV,5,2,18,15,41,079,41,18,20,334,29,23,68,296,38,24,18,142,31*7A
$GPGSV,5,3,18,25,72,195,37,26,03,316,22,28,12,253,,29,34,020,31*7F
$GPGSV,5,4,18,31,00,274,,32,10,210,,36,52,277,,40,85,352,42*7A
$GPGSV,5,5,18,41,58,082,40,49,32,274,*7B
$GLGSV,3,1,10,68,30,049,35,69,62,115,36,70,20,195,,73,41,278,22*6F
$GLGSV,3,2,10,74,09,313,18,79,04,158,33,80,42,196,33,83,07,016,14*6F
$GLGSV,3,3,10,84,01,327,,,,,40*5B
$GNGLL,0419.71871,S,05539.90718,E,083322.00,A,A*6B
$GNGRS,083322.00,1,-1.5,2.7,-1.4,2.0,5.1,-0.1,-0.3,3.0,-1.6,,,*5F
$GNGRS,083322.00,1,6.3,-0.6,-2.8,-8.9,18.1,28.3,,,,,,*7C
$GNGST,083322.00,31,,,,2.2,2.1,4.2*46
$GNZDA,083322.00,19,05,2025,00,00*78
$GNGBS,083322.00,2.2,2.1,4.2,,,,*52
b0d

'x$*$C))OlN>&D(:^&H<"""[ 
{4)U`&:R %D!1E%>sFI)QJ9O P"*STG$bx
$GNRMC,083323.00,A,0419.71874,S,05539.90723,E,0.127,,190525,,,A*70
$GNVTG,,T,,M,0.127,N,0.235,K,A*3D
$GNGNS,083323.00,0419.71874,S,05539.90723,E,AA,15,0.73,17.4,-47.6,,*62
$GNGGA,083323.00,0419.71874,S,05539.90723,E,1,12,0.73,17.4,M,-47.6,M,,*4F
$GNGSA,A,3,25,23,12,15,29,10,13,18,24,,,,1.36,0.73,1.14*1E
$GNGSA,A,3,69,80,73,68,74,83,,,,,,,1.36,0.73,1.14*1D
$GPGSV,5,1,18,05,03,029,23,10,39,232,28,12,42,153,36,13,06,067,36*7D
$GPGSV,5,2,18,15,41,079,41,18,20,334,30,23,68,296,38,24,18,142,31*72
$GPGSV,5,3,18,25,72,195,38,26,03,316,26,28,12,253,,29,34,020,34*71
$GPGSV,5,4,18,31,00,274,,32,10,210,,36,52,277,,40,85,352,41*79
$GPGSV,5,5,18,41,58,082,38,49,32,274,*74
$GLGSV,3,1,10,68,30,049,33,69,62,115,37,70,20,195,,73,41,278,23*69
$GLGSV,3,2,10,74,09,313,18,79,04,158,32,80,42,196,34,83,07,016,22*6C
$GLGSV,3,3,10,84,01,327,,,,,36*5A
$GNGLL,0419.71874,S,05539.90723,E,083323.00,A,A*67
$GNGRS,083323.00,1,-2.9,0.6,-0.2,1.1,-1.6,-1.4,-0.8,0.6,0.9,,,*50
$GNGRS,083323.00,1,2.8,-0.2,-1.8,-7.8,18.0,25.0,,,,,,*74
$GNGST,083323.00,30,,,,2.2,2.1,4.2*46
$GNZDA,083323.00,19,05,2025,00,00*79
$GNGBS,083323.00,2.2,2.1,4.2,,,,*53
b0dp

'6$*X$CW))ON&D(*%HF<""( 
{4)U`$:R &D"1E&>sFI)J9O P%*1STG%Ubpxh
($GNRMC,083324.00,A,0419.71873,S,05539.90726,E,0.020,,190525,,,A*73
$GNVTG,,T,,M,0.020,N,0.038,K,A*34
$GNGNS,083324.00,0419.71873,S,05539.90726,E,AA,15,0.73,17.5,-47.6,,*66
$GNGGA,083324.00,0419.71873,S,05539.90726,E,1,12,0.73,17.5,M,-47.6,M,,*4B
$GNGSA,A,3,25,23,12,15,29,10,13,18,24,,,,1.36,0.73,1.14*1E
$GNGSA,A,3,69,80,73,68,74,83,,,,,,,1.36,0.73,1.14*1D
$GPGSV,5,1,18,05,03,029,23,10,39,232,30,12,42,153,36,13,06,067,36*74
$GPGSV,5,2,18,15,41,079,41,18,20,334,31,23,68,296,38,24,18,142,30*72
$GPGSV,5,3,18,25,72,195,37,26,03,316,26,28,12,253,,29,34,020,34*7E
$GPGSV,5,4,18,31,00,274,,32,10,210,,36,52,277,,40,85,352,41*79
$GPGSV,5,5,18,41,58,082,36,49,32,274,*7A
$GLGSV,3,1,10,68,30,049,34,69,62,115,38,70,20,195,,73,41,278,24*66
$GLGSV,3,2,10,74,09,313,19,79,04,158,32,80,42,196,37,83,07,016,24*68
$GLGSV,3,3,10,84,01,327,,,,,37*5B
$GNGLL,0419.71873,S,05539.90726,E,083324.00,A,A*62
$GNGRS,083324.00,1,-1.9,0.2,-1.7,2.8,0.4,-2.0,0.9,1.5,0.4,,,*54
$GNGRS,083324.00,1,4.8,0.5,-1.2,-6.2,17.0,23.1,,,,,,*56
$GNGST,083324.00,25,,,,2.2,2.1,4.1*46
$GNZDA,083324.00,19,05,2025,00,00*7E
$GNGBS,083324.00,2.2,2.1,4.1,,,,*57
b0dX#

'R"*f"C')ON<$D($#H<O!" 
{4(U`":R D#1E'>s3FI) J9fO <P%*STG&eVbXxP
$GNRMC,083325.00,A,0419.71872,S,05539.90729,E,0.056,,190525,,,A*7D
$GNVTG,,T,,M,0.056,N,0.103,K,A*3C
$GNGNS,083325.00,0419.71872,S,05539.90729,E,AA,15,0.73,17.5,-47.6,,*69
$GNGGA,083325.00,0419.71872,S,05539.90729,E,1,12,0.73,17.5,M,-47.6,M,,*44
$GNGSA,A,3,25,23,12,15,29,10,13,18,24,,,,1.36,0.73,1.14*1E
$GNGSA,A,3,69,80,73,68,74,83,,,,,,,1.36,0.73,1.14*1D
$GPGSV,5,1,18,05,03,029,23,10,39,232,30,12,42,153,34,13,06,067,34*74
$GPGSV,5,2,18,15,41,079,39,18,20,334,30,23,68,296,36,24,18,142,29*7A
$GPGSV,5,3,18,25,72,195,35,26,03,316,26,28,12,253,,29,34,020,33*7B
$GPGSV,5,4,18,31,00,274,,32,10,210,,36,52,277,,40,85,352,40*78
$GPGSV,5,5,18,41,58,082,34,49,32,274,*78
$GLGSV,3,1,10,68,30,049,35,69,62,115,39,70,20,195,,73,41,278,24*66
$GLGSV,3,2,10,74,09,313,19,79,04,158,32,80,42,196,37,83,07,016,25*69
$GLGSV,3,3,10,84,01,327,,,,,38*54
$GNGLL,0419.71872,S,05539.90729,E,083325.00,A,A*6D
$GNGRS,083325.00,1,-3.0,0.4,-4.1,2.5,0.3,-1.7,-0.7,5.7,4.2,,,*72
$GNGRS,083325.00,1,3.1,0.2,0.3,-6.2,16.4,22.4,,,,,,*72
$GNGST,083325.00,25,,,,2.1,2.1,4.1*44
$GNZDA,083325.00,19,05,2025,00,00*7F
$GNGBS,083325.00,2.1,2.1,4.1,,,,*55
b0d@j

'&*&C@*)ON?(D(c'H<E$" 
{4+U`&:R !0D#1E$>sFI)J9O P"*qS,TG$b@x8
f$GNRMC,083326.00,A,0419.71865,S,05539.90728,E,0.041,,190525,,,A*7F
$GNVTG,,T,,M,0.041,N,0.077,K,A*38
$GNGNS,083326.00,0419.71865,S,05539.90728,E,AA,15,0.73,17.6,-47.6,,*6E
$GNGGA,083326.00,0419.71865,S,05539.90728,E,1,12,0.73,17.6,M,-47.6,M,,*43
$GNGSA,A,3,25,23,12,15,29,10,13,18,24,,,,1.36,0.73,1.14*1E
$GNGSA,A,3,69,80,73,68,74,83,,,,,,,1.36,0.73,1.14*1D
$GPGSV,5,1,18,05,03,029,26,10,39,232,29,12,42,153,38,13,06,067,38*79
$GPGSV,5,2,18,15,41,079,42,18,20,334,30,23,68,296,40,24,18,142,31*7E
$GPGSV,5,3,18,25,72,195,39,26,03,316,28,28,12,253,,29,34,020,36*7C
$GPGSV,5,4,18,31,00,274,,32,10,210,,36,52,277,,40,85,352,43*7B
$GPGSV,5,5,18,41,58,082,38,49,32,274,*74
$GLGSV,3,1,10,68,30,049,35,69,62,115,36,70,20,195,,73,41,278,24*69
$GLGSV,3,2,10,74,09,313,19,79,04,158,32,80,42,196,34,83,07,016,25*6A
$GLGSV,3,3,10,84,01,327,,,,,36*5A
$GNGLL,0419.71865,S,05539.90728,E,083326.00,A,A*69
$GNGRS,083326.00,1,-2.5,1.0,-3.7,1.4,2.3,1.3,-1.9,0.6,2.4,,,*53
$GNGRS,083326.00,1,2.4,1.1,-0.5,-6.2,15.6,20.9,,,,,,*52
$GNGST,083326.00,28,,,,2.1,2.1,4.1*4A
$GNZDA,083326.00,19,05,2025,00,00*7C
$GNGBS,083326.00,2.1,2.1,4.1,,,,*56
b0d(

'%*$C))O N!&D(&H5<""k 
{4*U`$:R D#1E%>sFI)J9O*P#*SXTG$b(x 
>`$GNRMC,083327.00,A,0419.71862,S,05539.90729,E,0.041,,190525,,,A*78
$GNVTG,,T,,M,0.041,N,0.076,K,A*39
$GNGNS,083327.00,0419.71862,S,05539.90729,E,AA,15,0.71,17.5,-47.6,,*68
$GNGGA,083327.00,0419.71862,S,05539.90729,E,1,12,0.71,17.5,M,-47.6,M,,*45
$GNGSA,A,3,25,23,12,15,29,10,13,18,24,,,,1.31,0.71,1.10*1F
$GNGSA,A,3,69,80,73,68,74,83,,,,,,,1.31,0.71,1.10*1C
$GPGSV,5,1,18,05,03,029,27,10,39,232,28,12,42,153,37,13,06,067,36*78
$GPGSV,5,2,18,15,41,079,41,18,20,334,30,23,68,296,38,24,18,142,31*72
$GPGSV,5,3,18,25,72,195,38,26,03,316,28,28,12,253,,29,34,020,34*7F
$GPGSV,5,4,18,31,00,274,,32,10,210,,36,52,277,,40,85,352,42*7A
$GPGSV,5,5,18,41,58,082,36,49,32,274,*7A
$GLGSV,3,1,10,68,30,049,35,69,62,115,37,70,20,195,,73,41,278,24*68
$GLGSV,3,2,10,74,09,313,20,79,04,158,31,80,42,196,35,83,07,016,26*61
$GLGSV,3,3,10,84,01,327,,,,,36*5A
$GNGLL,0419.71862,S,05539.90729,E,083327.00,A,A*6E
$GNGRS,083327.00,1,-2.0,-0.5,-2.6,2.9,1.1,0.1,-2.8,5.5,2.4,,,*76
$GNGRS,083327.00,1,2.2,1.4,-0.5,-5.7,15.2,18.8,,,,,,*58
$GNGST,083327.00,26,,,,2.1,2.1,4.0*44
$GNZDA,083327.00,19,05,2025,00,00*7D
$GNGBS,083327.00,2.1,2.1,4.0,,,,*56
b0d

'$*$C\))ONY'D(&H<#"* 
{4*U`%:R (D$1DE'>sFI)J9iO "P$*STG%bx
$GNRMC,083328.00,A,0419.71860,S,05539.90727,E,0.026,,190525,,,A*7A
$GNVTG,,T,,M,0.026,N,0.048,K,A*35
$GNGNS,083328.00,0419.71860,S,05539.90727,E,AA,15,0.71,17.4,-47.6,,*6A
$GNGGA,083328.00,0419.71860,S,05539.90727,E,1,12,0.71,17.4,M,-47.6,M,,*47
$GNGSA,A,3,25,23,12,15,29,10,13,18,24,,,,1.31,0.71,1.10*1F
$GNGSA,A,3,69,80,73,68,74,83,,,,,,,1.31,0.71,1.10*1C
$GPGSV,5,1,18,05,03,029,27,10,39,232,29,12,42,153,36,13,06,067,36*78
$GPGSV,5,2,18,15,41,079,41,18,20,334,30,23,68,296,39,24,18,142,30*72
$GPGSV,5,3,18,25,72,195,38,26,03,316,27,28,12,253,,29,34,020,35*71
$GPGSV,5,4,18,31,00,274,,32,10,210,,36,52,277,,40,85,352,42*7A
$GPGSV,5,5,18,41,58,082,37,49,32,274,*7B
$GLGSV,3,1,10,68,30,049,36,69,62,115,39,70,20,195,,73,41,278,25*64
$GLGSV,3,2,10,74,09,313,21,79,04,158,32,80,42,196,36,83,07,016,26*60
$GLGSV,3,3,10,84,01,327,,,,,37*5B
$GNGLL,0419.71860,S,05539.90727,E,083328.00,A,A*6D
$GNGRS,083328.00,1,-2.7,0.0,-3.4,2.2,0.4,-1.3,-1.6,6.0,-0.8,,,*5C
$GNGRS,083328.00,1,1.5,2.6,-0.8,-7.0,13.8,15.6,,,,,,*55
$GNGST,083328.00,27,,,,2.0,2.0,4.0*4A
$GNZDA,083328.00,19,05,2025,00,00*72
$GNGBS,083328.00,2.0,2.0,4.0,,,,*59
b0d

'#*#CW')ON%D(Q$H<i"" 
{4(U`#:R #D!1&E%>sFI)J90OP$*STG%ubx
$GNRMC,083329.00,A,0419.71859,S,05539.90725,E,0.019,,190525,,,A*7F
$GNVTG,,T,,M,0.019,N,0.036,K,A*30
$GNGNS,083329.00,0419.71859,S,05539.90725,E,AA,15,0.71,17.3,-47.6,,*64
$GNGGA,083329.00,0419.71859,S,05539.90725,E,1,12,0.71,17.3,M,-47.6,M,,*49
$GNGSA,A,3,25,23,12,15,29,10,13,18,24,,,,1.31,0.71,1.10*1F
$GNGSA,A,3,69,80,73,68,74,83,,,,,,,1.31,0.71,1.10*1C
$GPGSV,5,1,18,05,03,029,27,10,39,232,30,12,42,153,35,13,06,067,35*70
$GPGSV,5,2,18,15,41,079,39,18,20,334,30,23,68,296,37,24,18,142,30*73
$GPGSV,5,3,18,25,72,195,36,26,03,316,27,28,12,253,,29,34,020,34*7E
$GPGSV,5,4,18,31,00,274,,32,10,210,,36,52,277,,40,85,352,40*78
$GPGSV,5,5,18,41,58,082,35,49,32,274,*79
$GLGSV,3,1,10,68,30,049,33,69,62,115,37,70,20,195,,73,41,278,25*6F
$GLGSV,3,2,10,74,09,313,20,79,04,158,28,80,42,196,36,83,07,016,26*6A
$GLGSV,3,3,10,84,01,327,,,,,37*5B
$GNGLL,0419.71859,S,05539.90725,E,083329.00,A,A*64
$GNGRS,083329.00,1,-2.6,-0.3,-2.8,2.0,1.9,2.1,-1.7,2.2,-1.7,,,*54
$GNGRS,083329.00,1,1.4,2.4,1.6,-7.3,13.3,15.6,,,,,,*7D
$GNGST,083329.00,27,,,,2.0,2.0,4.0*4B
$GNZDA,083329.00,19,05,2025,00,00*73
$GNGBS,083329.00,2.0,2.0,4.0,,,,*58
b0d

"''#*#C%*)ON%D(%c$H<$!"- 
{4*U`':R D 1E$>sqFI)J9)OKP!*STG%bx
$GNRMC,083330.00,A,0419.71859,S,05539.90726,E,0.049,,190525,,,A*71
$GNVTG,,T,,M,0.049,N,0.090,K,A*39
$GNGNS,083330.00,0419.71859,S,05539.90726,E,AA,15,0.71,17.2,-47.6,,*6E
$GNGGA,083330.00,0419.71859,S,05539.90726,E,1,12,0.71,17.2,M,-47.6,M,,*43
$GNGSA,A,3,25,23,12,15,29,10,13,18,24,,,,1.31,0.71,1.10*1F
$GNGSA,A,3,69,80,73,68,74,83,,,,,,,1.31,0.71,1.10*1C
$GPGSV,5,1,18,05,03,029,24,10,39,232,34,12,42,153,35,13,06,067,35*77
$GPGSV,5,2,18,15,41,079,42,18,20,334,29,23,68,296,37,24,18,142,37*70
$GPGSV,5,3,18,25,72,195,36,26,03,316,24,28,12,253,,29,34,020,33*7A
$GPGSV,5,4,18,31,00,274,,32,10,210,,36,52,277,,40,85,352,42*7A
$GPGSV,5,5,18,41,58,082,39,49,32,274,*75
$GLGSV,3,1,10,68,30,049,32,69,62,115,36,70,20,195,,73,41,278,28*62
$GLGSV,3,2,10,74,09,313,19,79,04,158,30,80,42,196,33,83,07,016,23*69
$GLGSV,3,3,10,84,01,327,,,,,37*5B
$GNGLL,0419.71859,S,05539.90726,E,083330.00,A,A*6F
$GNGRS,083330.00,1,-2.7,-0.4,-0.3,1.6,3.0,0.4,0.4,0.0,1.0,,,*5F
$GNGRS,083330.00,1,1.1,2.1,3.8,-7.6,13.2,14.4,,,,,,*7E
$GNGST,083330.00,30,,,,2.0,2.0,4.0*45
$GNZDA,083330.00,19,05,2025,00,00*7B
$GNGBS,083330.00,2.0,2.0,4.0,,,,*50
b0d

"'"*a"CJ*)ON%D(%$H<!"> 
{4*U`':R D 1E$>snFI)J9O&P#*STG%iobx$GNRMC,083331.00,A,0419.71857,S,05539.90726,E,0.024,,190525,,,A*75
$GNVTG,,T,,M,0.024,N,0.045,K,A*3A
$GNGNS,083331.00,0419.71857,S,05539.90726,E,AA,15,0.71,17.2,-47.6,,*61
$GNGGA,083331.00,0419.71857,S,05539.90726,E,1,12,0.71,17.2,M,-47.6,M,,*4C
$GNGSA,A,3,25,23,12,15,29,10,13,18,24,,,,1.31,0.71,1.10*1F
$GNGSA,A,3,69,80,73,68,74,83,,,,,,,1.31,0.71,1.10*1C
$GPGSV,5,1,18,05,03,029,21,10,39,232,34,12,42,153,34,13,06,067,34*72
$GPGSV,5,2,18,15,41,079,42,18,20,334,29,23,68,296,37,24,18,142,37*70
$GPGSV,5,3,18,25,72,195,36,26,03,316,22,28,12,253,,29,34,020,33*7C
$GPGSV,5,4,18,31,00,274,,32,10,210,,36,52,277,,40,85,352,42*7A
$GPGSV,5,5,18,41,58,082,39,49,32,274,*75
$GLGSV,3,1,10,68,30,049,32,69,62,115,36,70,20,195,,73,41,278,28*62
$GLGSV,3,2,10,74,09,313,18,79,04,158,30,80,42,196,35,83,07,016,19*67
$GLGSV,3,3,10,84,01,327,,,,,37*5B
$GNGLL,0419.71857,S,05539.90726,E,083331.00,A,A*60
$GNGRS,083331.00,1,-2.6,-0.3,-4.2,1.5,3.2,1.7,0.7,1.4,-1.0,,,*75
$GNGRS,083331.00,1,1.1,1.9,-0.2,-8.0,12.7,15.1,,,,,,*59
$GNGST,083331.00,77406,,,,2.0,2.0,3.9*7B
$GNZDA,083331.00,19,05,2025,00,00*7A
$GNGBS,083331.00,2.0,2.0,3.9,,,,*5F
b0d

"' *-"C.))ON$D(#X#H< "O 
{4)U`%:R D"10E'>s`FI )wJ9O P%*S
TG'
bxuX$GNRMC,083332.00,A,0419.71859,S,05539.90729,E,0.009,,190525,,,A*78
$GNVTG,,T,,M,0.009,N,0.017,K,A*32
$GNGNS,083332.00,0419.71859,S,05539.90729,E,AA,15,0.71,17.3,-47.6,,*62
$GNGGA,083332.00,0419.71859,S,05539.90729,E,1,12,0.71,17.3,M,-47.6,M,,*4F
$GNGSA,A,3,25,23,12,15,29,10,13,18,24,,,,1.31,0.71,1.10*1F
$GNGSA,A,3,69,80,73,68,74,83,,,,,,,1.31,0.71,1.10*1C
$GPGSV,5,1,18,05,03,029,17,10,39,232,34,12,42,153,32,13,06,067,34*71
$GPGSV,5,2,18,15,41,079,41,18,20,334,29,23,68,296,36,24,18,142,35*70
$GPGSV,5,3,18,25,72,195,35,26,03,316,20,28,12,253,,29,34,020,32*7C
$GPGSV,5,4,18,31,00,274,,32,10,210,,36,52,277,,40,85,352,41*79
$GPGSV,5,5,18,41,58,082,37,49,32,274,*7B
$GLGSV,3,1,10,68,30,049,34,69,62,115,39,70,20,195,19,73,41,278,32*68
$GLGSV,3,2,10,74,09,313,18,79,04,158,32,80,42,196,37,83,07,016,10*6E
$GLGSV,3,3,10,84,01,327,,,,,39*55
$GNGLL,0419.71859,S,05539.90729,E,083332.00,A,A*62
$GNGRS,083332.00,1,-2.5,-0.5,-2.1,1.4,5.9,0.0,-2.1,-0.1,0.9,,,*59
$GNGRS,083332.00,1,1.0,1.8,-6.5,-9.8,11.8,15.2,,,,,,*5D
$GNGST,083332.00,77406,,,,1.9,2.0,3.9*72
$GNZDA,083332.00,19,05,2025,00,00*79
$GNGBS,083332.00,1.9,2.0,3.9,,,,*56
b0d

"'!*"C*)ON%D($$H!<k "m 
{4)U`':R bD"1kE'>sDFI)J9FO P%*S
TG'bx
M$GNRMC,083333.00,A,0419.71859,S,05539.90729,E,0.008,,190525,,,A*78
$GNVTG,,T,,M,0.008,N,0.014,K,A*30
$GNGNS,083333.00,0419.71859,S,05539.90729,E,AA,15,0.73,17.3,-47.6,,*61
$GNGGA,083333.00,0419.71859,S,05539.90729,E,1,12,0.73,17.3,M,-47.6,M,,*4C
$GNGSA,A,3,25,23,12,15,29,10,13,18,24,,,,1.35,0.73,1.14*1D
$GNGSA,A,3,69,80,73,68,74,83,,,,,,,1.35,0.73,1.14*1E
$GPGSV,5,1,18,05,03,029,18,10,39,232,34,12,42,153,33,13,06,067,34*7F
$GPGSV,5,2,18,15,41,079,42,18,20,334,29,23,68,296,37,24,18,142,36*71
$GPGSV,5,3,18,25,72,195,36,26,03,316,20,28,12,253,,29,34,020,32*7F
$GPGSV,5,4,18,31,00,274,,32,10,210,,36,52,277,,40,85,352,41*79
$GPGSV,5,5,18,41,58,082,39,49,32,274,*75
$GLGSV,3,1,10,68,30,049,34,69,62,115,39,70,20,195,19,73,41,278,31*6B
$GLGSV,3,2,10,74,09,313,18,79,04,158,32,80,42,196,37,83,07,016,10*6E
$GLGSV,3,3,10,84,01,327,,,,,39*55
$GNGLL,0419.71859,S,05539.90729,E,083333.00,A,A*63
$GNGRS,083333.00,1,-2.2,-0.9,-2.4,1.3,8.8,-0.1,-0.1,5.1,-0.8,,,*77
$GNGRS,083333.00,1,0.7,1.6,-7.4,-11.7,10.9,-61.6,,,,,,*48
$GNGST,083333.00,27,,,,1.9,1.9,3.9*4E
$GNZDA,083333.00,19,05,2025,00,00*78
$GNGBS,083333.00,1.9,1.9,3.9,,,,*5D
b0d

"'!*I#C*)ON%D(%*$H<!" 
{4*U`':R D"1CE&>s5FI)yJ9MOYP%*S]TG%<^bxx%($GNRMC,083334.00,A,0419.71861,S,05539.90728,E,0.008,,190525,,,A*75
$GNVTG,,T,,M,0.008,N,0.015,K,A*31
$GNGNS,083334.00,0419.71861,S,05539.90728,E,AA,15,0.73,17.4,-47.6,,*6B
$GNGGA,083334.00,0419.71861,S,05539.90728,E,1,12,0.73,17.4,M,-47.6,M,,*46
$GNGSA,A,3,25,23,12,15,29,10,13,18,24,,,,1.35,0.73,1.14*1D
$GNGSA,A,3,69,80,73,68,74,83,,,,,,,1.35,0.73,1.14*1E
$GPGSV,5,1,18,05,03,029,20,10,39,232,34,12,42,153,33,13,06,067,35*75
$GPGSV,5,2,18,15,41,079,42,18,20,334,30,23,68,296,37,24,18,142,37*78
$GPGSV,5,3,18,25,72,195,36,26,03,316,19,28,12,253,,29,34,020,33*74
$GPGSV,5,4,18,31,00,274,,32,10,210,,36,52,277,,40,85,352,42*7A
$GPGSV,5,5,18,41,58,082,39,49,32,274,*75
$GLGSV,3,1,10,68,30,049,34,69,62,115,38,70,20,195,19,73,41,278,31*6A
$GLGSV,3,2,10,74,09,313,17,79,04,158,31,80,42,196,37,83,07,016,11*63
$GLGSV,3,3,10,84,01,327,,,,,37*5B
$GNGLL,0419.71861,S,05539.90728,E,083334.00,A,A*6E
$GNGRS,083334.00,1,-2.3,-0.9,-1.8,1.4,4.8,-0.3,-2.6,5.4,-2.1,,,*7C
$GNGRS,083334.00,1,0.5,1.4,-3.9,-19.8,11.0,31.7,,,,,,*60
$GNGST,083334.00,27,,,,1.9,1.9,3.9*49
$GNZDA,083334.00,19,05,2025,00,00*7F
$GNGBS,083334.00,1.9,1.9,3.9,,,,*5A
b0dh

#'!*^#C+)ON;$D(%$H< "} 
{4*U`':R }D1hE$>s4FI)|J9JOP!*S?TG#;bhx`$GNRMC,083335.00,A,0419.71859,S,05539.90730,E,0.036,,190525,,,A*7B
$GNVTG,,T,,M,0.036,N,0.067,K,A*39
$GNGNS,083335.00,0419.71859,S,05539.90730,E,AA,15,0.73,17.5,-47.6,,*69
$GNGGA,083335.00,0419.71859,S,05539.90730,E,1,12,0.73,17.5,M,-47.6,M,,*44
$GNGSA,A,3,25,23,12,15,29,10,13,18,24,,,,1.35,0.73,1.14*1D
$GNGSA,A,3,69,80,73,68,74,83,,,,,,,1.35,0.73,1.14*1E
$GPGSV,5,1,18,05,03,029,20,10,39,232,35,12,42,153,33,13,06,067,35*74
$GPGSV,5,2,18,15,41,079,43,18,20,334,30,23,68,296,36,24,18,142,37*78
$GPGSV,5,3,18,25,72,195,36,26,03,316,20,28,12,253,,29,34,020,32*7F
$GPGSV,5,4,18,31,00,274,,32,10,210,,36,52,277,,40,85,352,42*7A
$GPGSV,5,5,18,41,58,082,39,49,32,274,*75
$GLGSV,3,1,10,68,30,049,30,69,62,115,36,70,20,195,18,73,41,278,27*66
$GLGSV,3,2,10,74,09,313,15,79,04,158,27,80,42,196,33,83,07,016,07*65
$GLGSV,3,3,10,84,01,327,,,,,35*59
$GNGLL,0419.71859,S,05539.90730,E,083335.00,A,A*6D
$GNGRS,083335.00,1,-2.3,-0.9,-4.2,1.6,3.8,-1.1,-2.4,3.1,-0.5,,,*73
$GNGRS,083335.00,1,0.5,1.3,-3.9,-19.4,11.0,31.3,,,,,,*6E
$GNGST,083335.00,30,,,,1.9,1.9,3.8*4F
$GNZDA,083335.00,19,05,2025,00,00*7E
$GNGBS,083335.00,1.9,1.9,3.8,,,,*5A
b0dP

'x!*)C')ON!D(!"H <I"F 
{4&U`$:R XD1>E#>sMFI)J9OP#*STG#bPxH$GNRMC,083336.00,A,0419.71860,S,05539.90730,E,0.025,,190525,,,A*70
$GNVTG,,T,,M,0.025,N,0.047,K,A*39
$GNGNS,083336.00,0419.71860,S,05539.90730,E,AA,15,0.71,17.5,-47.6,,*62
$GNGGA,083336.00,0419.71860,S,05539.90730,E,1,12,0.71,17.5,M,-47.6,M,,*4F
$GNGSA,A,3,25,23,12,15,29,10,13,18,24,,,,1.31,0.71,1.10*1F
$GNGSA,A,3,69,80,73,68,74,83,,,,,,,1.31,0.71,1.10*1C
$GPGSV,5,1,18,05,03,029,19,10,39,232,31,12,42,153,33,13,06,067,31*7E
$GPGSV,5,2,18,15,41,079,39,18,20,334,29,23,68,296,33,24,18,142,33*7C
$GPGSV,5,3,18,25,72,195,34,26,03,316,19,28,12,253,,29,34,020,25*71
$GPGSV,5,4,18,31,00,274,,32,10,210,,36,52,277,,40,85,352,38*77
$GPGSV,5,5,18,41,58,082,36,49,32,274,*7A
$GLGSV,3,1,10,68,30,049,30,69,62,115,35,70,20,195,17,73,41,278,28*65
$GLGSV,3,2,10,74,09,313,15,79,04,158,28,80,42,196,35,83,07,016,13*69
$GLGSV,3,3,10,84,01,327,,,,,35*59
$GNGLL,0419.71860,S,05539.90730,E,083336.00,A,A*64
$GNGRS,083336.00,1,-2.2,-0.9,0.4,1.6,5.8,-1.4,1.7,4.3,0.1,,,*5C
$GNGRS,083336.00,1,0.8,1.3,-2.3,-17.3,10.1,1.6,,,,,,*54
$GNGST,083336.00,39,,,,1.9,1.9,3.8*45
$GNZDA,083336.00,19,05,2025,00,00*7D
$GNGBS,083336.00,1.9,1.9,3.8,,,,*59
b0d8

 '"* C*)ON$D(!%H<~" 
{4)U`%:R D1E$>sKFI)6J9OP#*zSfTG$7Tb8x0`$GNRMC,083337.00,A,0419.71861,S,05539.90732,E,0.030,,190525,,,A*76
$GNVTG,,T,,M,0.030,N,0.055,K,A*3E
$GNGNS,083337.00,0419.71861,S,05539.90732,E,AA,15,0.73,17.5,-47.6,,*62
$GNGGA,083337.00,0419.71861,S,05539.90732,E,1,12,0.73,17.5,M,-47.6,M,,*4F
$GNGSA,A,3,25,23,12,15,29,10,13,18,24,,,,1.35,0.73,1.14*1D
$GNGSA,A,3,69,80,73,68,74,83,,,,,,,1.35,0.73,1.14*1E
$GPGSV,5,1,18,05,03,029,18,10,39,232,32,12,42,153,34,13,06,067,32*78
$GPGSV,5,2,18,15,41,079,42,18,20,334,29,23,68,296,36,24,18,142,33*75
$GPGSV,5,3,18,25,72,195,37,26,03,316,20,28,12,253,,29,34,020,27*7A
$GPGSV,5,4,18,31,00,274,,32,10,210,,36,52,277,,40,85,352,41*79
$GPGSV,5,5,18,41,58,082,37,49,32,274,*7B
$GLGSV,3,1,10,68,29,049,31,69,62,115,36,70,20,195,16,73,41,278,28*6E
$GLGSV,3,2,10,74,09,313,17,79,04,158,28,80,42,196,35,83,07,016,15*6D
$GLGSV,3,3,10,84,01,327,,,,,36*5A
$GNGLL,0419.71861,S,05539.90732,E,083337.00,A,A*66
$GNGRS,083337.00,1,-0.9,-1.0,-3.6,1.5,2.7,-1.0,-0.4,0.1,-0.2,,,*78
$GNGRS,083337.00,1,0.7,1.2,-2.0,-16.5,9.1,31.7,,,,,,*55
$GNGST,083337.00,29,,,,1.9,1.9,3.8*45
$GNZDA,083337.00,19,05,2025,00,00*7C
$GNGBS,083337.00,1.9,1.9,3.8,,,,*58
b0d 

#'%*$C+)O!N&D(#'HW<#"% 
{4*U`':R "D 1E%>rOFI)J9|OP"*SNTG%RMb x$GNRMC,083338.00,A,0419.71857,S,05539.90732,E,0.030,,190525,,,A*7C
$GNVTG,,T,,M,0.030,N,0.055,K,A*3E
$GNGNS,083338.00,0419.71857,S,05539.90732,E,AA,15,0.73,17.3,-47.6,,*6E
$GNGGA,083338.00,0419.71857,S,05539.90732,E,1,12,0.73,17.3,M,-47.6,M,,*43
$GNGSA,A,3,25,23,12,15,29,10,13,18,24,,,,1.35,0.73,1.14*1D
$GNGSA,A,3,69,80,73,68,74,83,,,,,,,1.35,0.73,1.14*1E
$GPGSV,5,1,18,05,03,029,21,10,39,232,35,12,42,153,37,13,06,067,36*72
$GPGSV,5,2,18,15,41,079,43,18,20,334,33,23,68,296,38,24,18,142,35*77
$GPGSV,5,3,18,25,72,195,39,26,03,316,21,28,12,253,,29,34,020,35*76
$GPGSV,5,4,18,31,00,274,,32,10,210,,36,52,277,,40,85,352,42*7A
$GPGSV,5,5,18,41,58,082,39,49,32,274,*75
$GLGSV,3,1,10,68,29,049,32,69,62,114,37,70,20,195,16,73,41,278,28*6D
$GLGSV,3,2,10,74,09,313,19,79,04,158,31,80,42,196,34,83,07,016,13*6C
$GLGSV,3,3,10,84,01,327,,,,,37*5B
$GNGLL,0419.71857,S,05539.90732,E,083338.00,A,A*6C
$GNGRS,083338.00,1,-4.3,-0.9,-3.3,1.5,5.5,-0.9,-1.3,1.7,0.1,,,*56
$GNGRS,083338.00,1,0.8,1.3,2.8,-16.3,8.9,31.5,,,,,,*7C
$GNGST,083338.00,26,,,,1.9,1.9,3.8*45
$GNZDA,083338.00,19,05,2025,00,00*73
$GNGBS,083338.00,1.9,1.9,3.8,,,,*57
b0d

'#*'!C))ON3$D(!%H<;!" 
{4)U`%:R DD!1E%>rGFI)J9OP!*GSnTG%*bx"]0$GNRMC,083339.00,A,0419.71857,S,05539.90733,E,0.067,,190525,,,A*7E
$GNVTG,,T,,M,0.067,N,0.124,K,A*3B
$GNGNS,083339.00,0419.71857,S,05539.90733,E,AA,15,0.71,17.3,-47.6,,*6C
$GNGGA,083339.00,0419.71857,S,05539.90733,E,1,12,0.71,17.3,M,-47.6,M,,*41
$GNGSA,A,3,25,23,12,15,29,10,13,18,24,,,,1.31,0.71,1.10*1F
$GNGSA,A,3,69,80,73,68,74,83,,,,,,,1.31,0.71,1.10*1C
$GPGSV,5,1,18,05,03,029,22,10,39,232,31,12,42,153,35,13,06,067,33*72
$GPGSV,5,2,18,15,41,079,41,18,20,334,28,23,68,296,36,24,18,142,33*77
$GPGSV,5,3,18,25,72,195,37,26,03,316,22,28,12,253,,29,34,020,33*7D
$GPGSV,5,4,18,31,00,274,,32,10,210,,36,52,277,,40,85,352,41*79
$GPGSV,5,5,18,41,58,082,37,49,32,274,*7B
$GLGSV,3,1,10,68,29,049,33,69,62,114,37,70,21,195,16,73,41,278,27*62
$GLGSV,3,2,10,74,09,313,19,79,04,158,31,80,42,196,33,83,07,016,15*6D
$GLGSV,3,3,10,84,01,327,,,,,37*5B
$GNGLL,0419.71857,S,05539.90733,E,083339.00,A,A*6C
$GNGRS,083339.00,1,-2.7,-0.9,-2.2,1.5,3.9,-0.8,-2.9,3.1,-0.5,,,*7A
$GNGRS,083339.00,1,0.7,0.7,2.4,-13.5,9.0,6.2,,,,,,*43
$GNGST,083339.00,35,,,,1.9,1.9,3.8*46
$GNZDA,083339.00,19,05,2025,00,00*72
$GNGBS,083339.00,1.9,1.9,3.8,,,,*56
b0d

'F*C)OND(H<" 
{4"U`:R D1E>rFI)J9OP*SITG+bx%3$GNRMC,083340.00,A,0419.71849,S,05539.90736,E,0.433,,190525,,,A*7F
$GNVTG,,T,,M,0.433,N,0.802,K,A*33
$GNGNS,083340.00,0419.71849,S,05539.90736,E,AA,15,0.73,17.4,-47.6,,*6D
$GNGGA,083340.00,0419.71849,S,05539.90736,E,1,12,0.73,17.4,M,-47.6,M,,*40
$GNGSA,A,3,25,23,12,15,29,10,13,18,24,,,,1.35,0.73,1.14*1D
$GNGSA,A,3,69,80,73,68,74,83,,,,,,,1.35,0.73,1.14*1E
$GPGSV,5,1,18,05,03,029,22,10,39,232,23,12,42,153,26,13,06,067,22*73
$GPGSV,5,2,18,15,41,079,31,18,20,334,26,23,68,296,28,24,18,142,23*70
$GPGSV,5,3,18,25,72,195,28,26,03,316,21,28,12,253,,29,34,020,22*70
$GPGSV,5,4,18,31,00,274,,32,10,210,,36,52,277,,40,85,352,34*7B
$GPGSV,5,5,18,41,58,082,30,49,32,274,*7C
$GLGSV,3,1,10,68,29,049,26,69,62,114,29,70,21,195,18,73,41,278,14*67
$GLGSV,3,2,10,74,09,313,18,79,04,158,21,80,42,196,28,83,07,016,12*60
$GLGSV,3,3,10,84,01,327,,,,,26*5B
$GNGLL,0419.71849,S,05539.90736,E,083340.00,A,A*68
$GNGRS,083340.00,1,-0.5,-0.7,-3.6,2.0,1.6,-1.9,-2.7,-3.6,4.3,,,*7F
$GNGRS,083340.00,1,1.3,-0.5,2.1,-16.0,7.6,31.5,,,,,,*59
$GNGST,083340.00,44,,,,2.0,1.9,3.9*45
$GNZDA,083340.00,19,05,2025,00,00*7C
$GNGBS,083340.00,2.0,1.9,3.9,,,,*53
b0d

' *RC&)OND(?. H<)" 
{4%U`":R 6D1VE>rFI)J9[OP*rSTGgbx)$GNRMC,083341.00,A,0419.71842,S,05539.90733,E,0.341,,190525,,,A*72
$GNVTG,,T,,M,0.341,N,0.631,K,A*3F
$GNGNS,083341.00,0419.71842,S,05539.90733,E,AA,15,0.73,17.3,-47.6,,*65
$GNGGA,083341.00,0419.71842,S,05539.90733,E,1,12,0.73,17.3,M,-47.6,M,,*48
$GNGSA,A,3,25,23,12,15,29,10,13,18,24,,,,1.35,0.73,1.14*1D
$GNGSA,A,3,69,80,73,68,74,83,,,,,,,1.35,0.73,1.14*1E
$GPGSV,5,1,18,05,03,029,21,10,39,232,26,12,42,153,32,13,06,067,29*7B
$GPGSV,5,2,18,15,41,079,38,18,20,334,25,23,68,296,29,24,18,142,30*79
$GPGSV,5,3,18,25,72,195,32,26,03,316,20,28,12,253,,29,34,020,25*7D
$GPGSV,5,4,18,31,00,274,,32,10,210,,36,52,277,,40,85,352,37*78
$GPGSV,5,5,18,41,58,082,34,49,32,274,*78
$GLGSV,3,1,10,68,29,049,27,69,62,114,29,70,21,195,17,73,41,278,17*6A
$GLGSV,3,2,10,74,09,313,17,79,04,158,24,80,42,196,28,83,07,016,14*6C
$GLGSV,3,3,10,84,01,327,,,,,31*5D
$GNGLL,0419.71842,S,05539.90733,E,083341.00,A,A*67
$GNGRS,083341.00,1,-2.5,-1.9,-1.7,4.8,4.0,-0.3,-0.6,0.1,3.0,,,*58
$GNGRS,083341.00,1,5.0,-4.0,1.5,-9.4,6.0,30.8,,,,,,*68
$GNGST,083341.00,36,,,,2.1,2.0,4.0*44
$GNZDA,083341.00,19,05,2025,00,00*7D
$GNGBS,083341.00,2.1,2.0,4.0,,,,*57
b0d

#''*
"C*)ON$D((#%Hi< " 
{4)U`(:R D1`E#>r>FI)J9fOP!*S#TG"IEbx-V$GNRMC,083342.00,A,0419.71839,S,05539.90734,E,0.022,,190525,,,A*7C
$GNVTG,,T,,M,0.022,N,0.040,K,A*39
$GNGNS,083342.00,0419.71839,S,05539.90734,E,AA,15,0.71,17.2,-47.6,,*6E
$GNGGA,083342.00,0419.71839,S,05539.90734,E,1,12,0.71,17.2,M,-47.6,M,,*43
$GNGSA,A,3,25,23,12,15,29,10,13,18,24,,,,1.31,0.71,1.10*1F
$GNGSA,A,3,69,80,73,68,74,83,,,,,,,1.31,0.71,1.10*1C
$GPGSV,5,1,18,05,03,029,18,10,39,232,35,12,42,153,39,13,06,067,34*74
$GPGSV,5,2,18,15,41,079,42,18,20,334,26,23,68,296,36,24,18,142,35*7C
$GPGSV,5,3,18,25,72,195,37,26,03,316,17,28,12,253,,29,34,020,32*7A
$GPGSV,5,4,18,31,00,274,,32,10,210,,36,52,277,,40,85,352,41*79
$GPGSV,5,5,18,41,58,082,40,49,32,274,*7B
$GLGSV,3,1,10,68,29,049,31,69,62,114,35,70,21,195,17,73,41,277,23*68
$GLGSV,3,2,10,74,09,313,15,79,04,158,30,80,42,196,33,83,07,016,13*66
$GLGSV,3,3,10,84,01,327,,,,,34*58
$GNGLL,0419.71839,S,05539.90734,E,083342.00,A,A*6F
$GNGRS,083342.00,1,-4.1,0.4,0.1,1.5,6.8,-0.2,-0.5,2.5,1.7,,,*51
$GNGRS,083342.00,1,0.6,1.7,2.3,-14.4,6.1,0.4,,,,,,*40
$GNGST,083342.00,42,,,,2.1,2.0,4.0*44
$GNZDA,083342.00,19,05,2025,00,00*7E
$GNGBS,083342.00,2.1,2.0,4.0,,,,*54
b0d

'*C )OND(hH<W"! 
{4 U`:R D1E>r,FI)J
8O|P*SeTGbx1$GNRMC,083343.00,A,0419.71842,S,05539.90736,E,0.232,,190525,,,A*70
$GNVTG,,T,,M,0.232,N,0.429,K,A*31
$GNGNS,083343.00,0419.71842,S,05539.90736,E,AA,15,0.73,17.3,-47.6,,*62
$GNGGA,083343.00,0419.71842,S,05539.90736,E,1,12,0.73,17.3,M,-47.6,M,,*4F
$GNGSA,A,3,25,23,12,15,29,10,13,18,24,,,,1.35,0.73,1.14*1D
$GNGSA,A,3,69,80,73,68,74,83,,,,,,,1.35,0.73,1.14*1E
$GPGSV,5,1,18,05,03,029,19,10,39,232,26,12,42,153,30,13,06,067,30*7A
$GPGSV,5,2,18,15,41,079,32,18,20,334,16,23,68,296,27,24,18,142,29*75
$GPGSV,5,3,18,25,72,195,30,26,03,316,20,28,12,253,,29,34,020,27*7D
$GPGSV,5,4,18,31,00,274,,32,10,210,,36,52,277,,40,85,352,32*7D
$GPGSV,5,5,18,41,58,082,29,49,32,274,*74
$GLGSV,3,1,10,68,29,049,26,69,62,114,28,70,21,195,16,73,41,277,23*63
$GLGSV,3,2,10,74,10,312,14,79,04,158,19,80,42,196,29,83,07,016,16*6B
$GLGSV,3,3,10,84,01,327,,,,,24*59
$GNGLL,0419.71842,S,05539.90736,E,083343.00,A,A*60
$GNGRS,083343.00,1,-5.0,1.3,2.3,1.9,2.9,-1.2,1.6,10.0,-1.5,,,*68
$GNGRS,083343.00,1,-2.1,2.1,2.8,-11.3,6.9,31.7,,,,,,*5C
$GNGST,083343.00,37,,,,2.1,2.1,4.0*46
$GNZDA,083343.00,19,05,2025,00,00*7F
$GNGBS,083343.00,2.1,2.1,4.0,,,,*54
b0d5

'"*C$)OwNeD(H<
" 
{4%U`":R JD1&E!>rFI)J
8O`P *ShTG9Qbx5&$GNRMC,083344.00,A,0419.71851,S,05539.90739,E,0.332,,190525,,,A*7B
$GNVTG,,T,,M,0.332,N,0.615,K,A*3D
$GNGNS,083344.00,0419.71851,S,05539.90739,E,AA,15,0.73,17.2,-47.6,,*69
$GNGGA,083344.00,0419.71851,S,05539.90739,E,1,12,0.73,17.2,M,-47.6,M,,*44
$GNGSA,A,3,25,23,12,15,29,10,13,18,24,,,,1.35,0.73,1.14*1D
$GNGSA,A,3,69,80,73,68,74,83,,,,,,,1.35,0.73,1.14*1E
$GPGSV,5,1,18,05,03,029,17,10,39,232,31,12,42,153,34,13,06,067,26*71
$GPGSV,5,2,18,15,41,079,36,18,20,334,16,23,68,296,31,24,18,142,30*7E
$GPGSV,5,3,18,25,72,195,31,26,03,316,19,28,12,253,,29,34,020,21*70
$GPGSV,5,4,18,31,00,274,,32,10,210,06,36,52,277,,40,85,352,37*7E
$GPGSV,5,5,18,41,58,082,34,49,32,274,*78
$GLGSV,3,1,10,68,29,049,27,69,62,114,33,70,21,195,14,73,41,277,21*68
$GLGSV,3,2,10,74,10,312,12,79,04,158,19,80,42,196,32,83,07,016,11*60
$GLGSV,3,3,10,84,01,327,,,,,31*5D
$GNGLL,0419.71851,S,05539.90739,E,083344.00,A,A*6A
$GNGRS,083344.00,1,-5.3,-2.4,-0.9,1.2,6.4,-0.6,-1.2,8.7,-0.1,,,*75
$GNGRS,083344.00,1,-3.7,7.2,3.9,-15.0,6.6,31.8,,,,,,*5D
$GNGST,083344.00,41,,,,2.1,2.1,4.2*42
$GNZDA,083344.00,19,05,2025,00,00*78
$GNGBS,083344.00,2.1,2.1,4.2,,,,*51
b0dx

#'&*%$C
,)O!NT'D(T"(H<3"" 
{4*U`':R "YD#1E&>r/FI)J
8eO!{P$*STG&rbxxp9k$GNRMC,083345.00,A,0419.71852,S,05539.90738,E,0.153,,190525,,,A*7D
$GNVTG,,T,,M,0.153,N,0.284,K,A*34
$GNGNS,083345.00,0419.71852,S,05539.90738,E,AA,15,0.73,17.2,-47.6,,*6A
$GNGGA,083345.00,0419.71852,S,05539.90738,E,1,12,0.73,17.2,M,-47.6,M,,*47
$GNGSA,A,3,25,23,12,15,29,10,13,18,24,,,,1.35,0.73,1.14*1D
$GNGSA,A,3,69,80,73,68,74,83,,,,,,,1.35,0.73,1.14*1E
$GPGSV,5,1,18,05,03,029,18,10,39,232,35,12,42,153,38,13,06,067,36*77
$GPGSV,5,2,18,15,41,079,44,18,20,334,33,23,68,296,39,24,18,142,34*70
$GPGSV,5,3,18,25,72,195,40,26,03,316,21,28,12,253,,29,34,020,34*79
$GPGSV,5,4,18,31,00,274,,32,10,210,,36,52,277,,40,85,352,42*7A
$GPGSV,5,5,18,41,58,082,39,49,32,274,*75
$GLGSV,3,1,10,68,29,049,35,69,62,114,38,70,21,195,15,73,41,277,29*69
$GLGSV,3,2,10,74,10,312,13,79,04,158,33,80,42,196,36,83,07,016,15*69
$GLGSV,3,3,10,84,01,327,,,,,38*54
$GNGLL,0419.71852,S,05539.90738,E,083345.00,A,A*69
$GNGRS,083345.00,1,-2.6,0.8,-2.2,1.8,2.8,-3.6,-2.5,8.5,1.3,,,*75
$GNGRS,083345.00,1,-2.1,6.5,1.7,-14.0,6.1,35.1,,,,,,*5A
$GNGST,083345.00,30,,,,2.1,2.1,4.1*46
$GNZDA,083345.00,19,05,2025,00,00*79
$GNGBS,083345.00,2.1,2.1,4.1,,,,*53
b0d`(

 '&*C()ONZ!D(l""H<7"! 
{4'U`%:R D"1*E'>rpFI)J
8"OP&*SZTG&Yb`xX=D$GNRMC,083346.00,A,0419.71858,S,05539.90737,E,0.074,,190525,,,A*7F
$GNVTG,,T,,M,0.074,N,0.136,K,A*3A
$GNGNS,083346.00,0419.71858,S,05539.90737,E,AA,15,0.73,17.2,-47.6,,*6C
$GNGGA,083346.00,0419.71858,S,05539.90737,E,1,12,0.73,17.2,M,-47.6,M,,*41
$GNGSA,A,3,25,23,12,15,29,10,13,18,24,,,,1.35,0.73,1.14*1D
$GNGSA,A,3,69,80,73,68,74,83,,,,,,,1.35,0.73,1.14*1E
$GPGSV,5,1,18,05,03,029,18,10,39,232,32,12,42,153,38,13,06,067,31*77
$GPGSV,5,2,18,15,41,079,40,18,20,334,28,23,68,296,33,24,18,142,34*74
$GPGSV,5,3,18,25,72,195,34,26,03,316,21,28,12,253,,29,34,020,30*7E
$GPGSV,5,4,18,31,00,274,,32,10,210,,36,52,277,,40,85,352,39*76
$GPGSV,5,5,18,41,58,082,37,49,32,274,*7B
$GLGSV,3,1,10,68,29,049,34,69,62,114,39,70,21,195,17,73,41,277,28*6A
$GLGSV,3,2,10,74,10,312,11,79,04,158,29,80,42,196,38,83,07,016,16*6D
$GLGSV,3,3,10,84,01,327,,,,,38*54
$GNGLL,0419.71858,S,05539.90737,E,083346.00,A,A*6F
$GNGRS,083346.00,1,-1.2,-1.5,-2.4,2.3,2.9,0.2,-3.6,0.9,-0.6,,,*5A
$GNGRS,083346.00,1,3.7,4.6,1.3,-14.9,5.5,31.6,,,,,,*7B
$GNGST,083346.00,32,,,,2.1,2.1,4.1*47
$GNZDA,083346.00,19,05,2025,00,00*7A
$GNGBS,083346.00,2.1,2.1,4.1,,,,*50
b0dH9

'#*#C$)ON D(H<"j 
{4$U`!:R D1E>r#FI)J
8OP*S
0TG[sbHx@Al$GNRMC,083347.00,A,0419.71852,S,05539.90748,E,0.611,,190525,,,A*79
$GNVTG,,T,,M,0.611,N,1.132,K,A*3A
$GNGNS,083347.00,0419.71852,S,05539.90748,E,AA,14,0.77,17.3,-47.6,,*6B
$GNGGA,083347.00,0419.71852,S,05539.90748,E,1,12,0.77,17.3,M,-47.6,M,,*47
$GNGSA,A,3,25,23,12,15,29,10,13,18,24,,,,1.44,0.77,1.21*19
$GNGSA,A,3,69,80,73,68,83,,,,,,,,1.44,0.77,1.21*19
$GPGSV,5,1,18,05,03,029,16,10,39,232,26,12,42,153,35,13,06,067,24*75
$GPGSV,5,2,18,15,41,079,36,18,20,334,19,23,68,296,32,24,18,142,31*73
$GPGSV,5,3,18,25,72,195,30,26,03,316,19,28,12,253,,29,34,020,23*73
$GPGSV,5,4,18,31,00,274,,32,10,210,,36,52,277,,40,85,352,36*79
$GPGSV,5,5,18,41,58,082,33,49,32,274,*7F
$GLGSV,3,1,10,68,29,049,25,69,62,114,27,70,21,195,16,73,41,277,15*6A
$GLGSV,3,2,10,74,10,312,08,79,04,158,19,80,42,196,26,83,07,016,10*6F
$GLGSV,3,3,10,84,01,327,,,,,27*5A
$GNGLL,0419.71852,S,05539.90748,E,083347.00,A,A*6C
$GNGRS,083347.00,1,-2.7,1.8,0.4,-0.9,-1.5,-3.7,-1.0,-3.0,2.4,,,*70
$GNGRS,083347.00,1,5.5,-3.8,2.8,-10.8,31.2,,,,,,,*7D
$GNGST,083347.00,51279,,,,2.2,2.2,4.2*7C
$GNZDA,083347.00,19,05,2025,00,00*7B
$GNGBS,083347.00,2.2,2.2,4.2,,,,*52
b0d0,

'*C! )OOND(jH,<" 
{4 U`:R D1E>rFI)IJ
8OP*STG0>b0x(E$GNRMC,083348.00,A,0419.71853,S,05539.90755,E,0.271,,190525,,,A*79
$GNVTG,,T,,M,0.271,N,0.503,K,A*3F
$GNGNS,083348.00,0419.71853,S,05539.90755,E,AA,14,0.79,17.2,-47.6,,*66
$GNGGA,083348.00,0419.71853,S,05539.90755,E,1,12,0.79,17.2,M,-47.6,M,,*4A
$GNGSA,A,3,25,23,12,15,29,10,13,18,24,,,,1.52,0.79,1.31*11
$GNGSA,A,3,69,80,73,68,83,,,,,,,,1.52,0.79,1.31*11
$GPGSV,5,1,18,05,03,029,15,10,39,232,27,12,42,153,31,13,06,067,23*74
$GPGSV,5,2,18,15,41,079,32,18,20,334,27,23,68,296,26,24,18,142,30*7E
$GPGSV,5,3,18,25,72,195,29,26,03,316,17,28,12,253,,29,34,020,22*74
$GPGSV,5,4,18,31,00,274,,32,10,210,,36,52,277,,40,85,352,32*7D
$GPGSV,5,5,18,41,58,082,29,49,32,274,*74
$GLGSV,3,1,10,68,29,049,26,69,62,114,27,70,21,195,12,73,41,277,19*61
$GLGSV,3,2,10,74,10,312,07,79,03,158,21,80,42,196,27,83,07,016,08*64
$GLGSV,3,3,10,84,01,327,,,,,27*5A
$GNGLL,0419.71853,S,05539.90755,E,083348.00,A,A*6E
$GNGRS,083348.00,1,-2.1,1.1,-0.3,0.8,-0.8,1.5,-2.2,1.7,4.2,,,*7E
$GNGRS,083348.00,1,2.9,7.8,3.3,-8.0,-42.0,,,,,,,*40
$GNGST,083348.00,35,,,,2.2,2.3,4.4*4A
$GNZDA,083348.00,19,05,2025,00,00*74
$GNGBS,083348.00,2.2,2.3,4.4,,,,*5A
b0dg

!''*C&)O]N7$D(":$H<" 
{4&U`&:R D#1E&>rFI)rJ
8qO{P$*bSbTG#bxI<$GNRMC,083349.00,A,0419.71854,S,05539.90746,E,0.034,,190525,,,A*7E
$GNVTG,,T,,M,0.034,N,0.063,K,A*3F
$GNGNS,083349.00,0419.71854,S,05539.90746,E,AA,14,0.79,17.1,-47.6,,*61
$GNGGA,083349.00,0419.71854,S,05539.90746,E,1,12,0.79,17.1,M,-47.6,M,,*4D
$GNGSA,A,3,25,23,12,15,29,10,13,18,24,,,,1.52,0.79,1.31*11
$GNGSA,A,3,69,80,73,68,83,,,,,,,,1.52,0.79,1.31*11
$GPGSV,5,1,18,05,03,029,14,10,39,232,33,12,42,153,39,13,06,067,31*7B
$GPGSV,5,2,18,15,41,079,38,18,20,334,31,23,68,296,36,24,18,142,34*76
$GPGSV,5,3,18,25,72,195,36,26,03,316,17,28,12,253,,29,34,020,31*78
$GPGSV,5,4,18,31,00,274,,32,10,210,,36,52,277,,40,85,352,38*77
$GPGSV,5,5,18,41,58,082,38,49,32,274,*74
$GLGSV,3,1,10,68,29,049,35,69,62,114,38,70,21,195,,73,41,277,28*6C
$GLGSV,3,2,10,74,10,312,07,79,03,158,30,80,42,195,36,83,07,016,14*6A
$GLGSV,3,3,10,84,01,327,,,,,35*59
$GNGLL,0419.71854,S,05539.90746,E,083349.00,A,A*6A
$GNGRS,083349.00,1,-3.4,2.0,-2.9,-1.6,2.7,-0.7,-0.1,3.1,0.6,,,*58
$GNGRS,083349.00,1,-0.5,8.7,3.7,-7.9,31.7,,,,,,,*4E
$GNGST,083349.00,18,,,,2.2,2.3,4.3*43
$GNZDA,083349.00,19,05,2025,00,00*75
$GNGBS,083349.00,2.2,2.3,4.3,,,,*5C
b0dK

 '~!*C1')ON!D("Hi<"$ 
{4%U`#:R D#1IE$>rFI!)~J
8LOP!*dS\TG#7bxL$GNRMC,083350.00,A,0419.71857,S,05539.90742,E,0.057,,190525,,,A*74
$GNVTG,,T,,M,0.057,N,0.105,K,A*3B
$GNGNS,083350.00,0419.71857,S,05539.90742,E,AA,15,0.73,17.1,-47.6,,*65
$GNGGA,083350.00,0419.71857,S,05539.90742,E,1,12,0.73,17.1,M,-47.6,M,,*48
$GNGSA,A,3,25,23,12,15,29,10,13,18,24,,,,1.35,0.73,1.14*1D
$GNGSA,A,3,69,80,73,68,74,83,,,,,,,1.35,0.73,1.14*1E
$GPGSV,5,1,18,05,03,029,14,10,39,232,32,12,42,153,33,13,06,067,31*70
$GPGSV,5,2,18,15,41,079,39,18,20,334,25,23,68,296,33,24,18,142,31*72
$GPGSV,5,3,18,25,72,195,34,26,03,316,17,28,12,253,,29,34,020,30*7B
$GPGSV,5,4,18,31,00,274,,32,10,210,,36,52,277,,40,85,352,37*78
$GPGSV,5,5,18,41,58,082,35,49,32,274,*79
$GLGSV,3,1,10,68,29,049,35,69,62,114,36,70,21,195,,73,41,277,33*68
$GLGSV,3,2,10,74,10,312,20,79,03,158,31,80,42,195,33,83,07,016,12*6D
$GLGSV,3,3,10,84,01,327,,,,,35*59
$GNGLL,0419.71857,S,05539.90742,E,083350.00,A,A*65
$GNGRS,083350.00,1,-4.1,0.0,-0.9,-0.1,2.9,-1.3,-2.1,5.4,-1.0,,,*74
$GNGRS,083350.00,1,-0.1,6.1,1.3,-6.9,16.1,31.6,,,,,,*54
$GNGST,083350.00,3179277,,,,2.2,2.3,4.4*7B
$GNZDA,083350.00,19,05,2025,00,00*7D
$GNGBS,083350.00,2.2,2.3,4.4,,,,*53
b0d

 '"* C()ON!D(q"H<" 
{4&U`#:R D1E">rLFI)J
8OxP*SRTG"0bxPz$GNRMC,083351.00,A,0419.71856,S,05539.90743,E,0.166,,190525,,,A*76
$GNVTG,,T,,M,0.166,N,0.307,K,A*38
$GNGNS,083351.00,0419.71856,S,05539.90743,E,AA,15,0.77,17.0,-47.6,,*61
$GNGGA,083351.00,0419.71856,S,05539.90743,E,1,12,0.77,17.0,M,-47.6,M,,*4C
$GNGSA,A,3,25,23,12,15,29,10,13,18,24,,,,1.44,0.77,1.21*19
$GNGSA,A,3,69,80,73,68,74,83,,,,,,,1.44,0.77,1.21*1A
$GPGSV,5,1,18,05,03,029,16,10,39,232,32,12,42,153,34,13,06,067,32*76
$GPGSV,5,2,18,15,41,079,40,18,20,334,27,23,68,296,33,24,18,142,31*7E
$GPGSV,5,3,18,25,72,195,34,26,03,316,20,28,12,253,,29,34,020,31*7E
$GPGSV,5,4,18,31,00,274,,32,10,210,,36,52,277,,40,85,352,38*77
$GPGSV,5,5,18,41,58,082,35,49,32,274,*79
$GLGSV,3,1,10,68,29,049,26,69,62,114,34,70,21,195,,73,41,277,27*6D
$GLGSV,3,2,10,74,10,312,14,79,03,158,26,80,42,195,29,83,07,016,18*6D
$GLGSV,3,3,10,84,01,327,,,,,34*58
$GNGLL,0419.71856,S,05539.90743,E,083351.00,A,A*64
$GNGRS,083351.00,1,-3.1,-1.4,-0.5,-0.7,2.8,-2.8,0.2,2.5,0.0,,,*5F
$GNGRS,083351.00,1,3.3,9.3,-0.7,-10.7,20.0,16.2,,,,,,*60
$GNGST,083351.00,37,,,,2.2,2.3,4.4*40
$GNZDA,083351.00,19,05,2025,00,00*7C
$GNGBS,083351.00,2.2,2.3,4.4,,,,*52
b0d6

#'&*$Cg,)O!N(D(#(Hx<#"X 
{4*U`(:R  D!1E'>rPFI!)0J
8^OP$*STG%bxTRb$GNRMC,083352.00,A,0419.71853,S,05539.90747,E,0.010,,190525,,,A*74
$GNVTG,,T,,M,0.010,N,0.019,K,A*34
$GNGNS,083352.00,0419.71853,S,05539.90747,E,AA,15,0.73,16.8,-47.6,,*6E
$GNGGA,083352.00,0419.71853,S,05539.90747,E,1,12,0.73,16.8,M,-47.6,M,,*43
$GNGSA,A,3,25,23,12,15,29,10,13,18,24,,,,1.35,0.73,1.14*1D
$GNGSA,A,3,69,80,73,68,74,83,,,,,,,1.35,0.73,1.14*1E
$GPGSV,5,1,18,05,03,029,20,10,39,232,35,12,42,153,38,13,06,067,36*7C
$GPGSV,5,2,18,15,41,079,44,18,20,334,33,23,68,296,40,24,18,142,35*7F
$GPGSV,5,3,18,25,72,195,40,26,03,316,24,28,12,253,,29,34,020,35*7D
$GPGSV,5,4,18,31,00,274,,32,10,210,,36,52,277,,40,85,352,42*7A
$GPGSV,5,5,18,41,58,082,40,49,32,274,*7B
$GLGSV,3,1,10,68,29,049,33,69,62,114,39,70,21,195,,73,41,277,33*61
$GLGSV,3,2,10,74,10,312,12,79,03,158,29,80,42,195,36,83,07,016,18*6A
$GLGSV,3,3,10,84,01,327,,,,,37*5B
$GNGLL,0419.71853,S,05539.90747,E,083352.00,A,A*66
$GNGRS,083352.00,1,-3.9,0.2,-1.2,0.1,0.9,-3.8,1.0,2.7,-0.4,,,*79
$GNGRS,083352.00,1,0.8,4.8,-2.1,-7.9,18.9,31.0,,,,,,*54
$GNGST,083352.00,31,,,,2.2,2.2,4.3*43
$GNZDA,083352.00,19,05,2025,00,00*7F
$GNGBS,083352.00,2.2,2.2,4.3,,,,*57
b0d

 '$*_"CL*)O!N_%D(x!)&H<!" 
{4)U`&:R D!1E&>rFFI )J
8O!P"*6S
TG$rbxX*$GNRMC,083353.00,A,0419.71855,S,05539.90748,E,0.022,,190525,,,A*7D
$GNVTG,,T,,M,0.022,N,0.041,K,A*38
$GNGNS,083353.00,0419.71855,S,05539.90748,E,AA,15,0.73,16.6,-47.6,,*68
$GNGGA,083353.00,0419.71855,S,05539.90748,E,1,12,0.73,16.6,M,-47.6,M,,*45
$GNGSA,A,3,25,23,12,15,29,10,13,18,24,,,,1.35,0.73,1.14*1D
$GNGSA,A,3,69,80,73,68,74,83,,,,,,,1.35,0.73,1.14*1E
$GPGSV,5,1,18,05,03,029,21,10,39,232,32,12,42,153,36,13,06,067,34*76
$GPGSV,5,2,18,15,41,079,42,18,20,334,33,23,68,296,37,24,18,142,33*7F
$GPGSV,5,3,18,25,72,195,38,26,03,316,25,28,12,253,,29,34,020,33*75
$GPGSV,5,4,18,31,00,274,,32,10,210,,36,52,277,,40,85,352,41*79
$GPGSV,5,5,18,41,58,082,38,49,32,274,*74
$GLGSV,3,1,10,68,29,049,33,69,62,114,38,70,21,195,22,73,41,277,32*61
$GLGSV,3,2,10,74,10,312,18,79,03,158,29,80,42,195,34,83,07,016,21*68
$GLGSV,3,3,10,84,01,327,,,,,36*5A
$GNGLL,0419.71855,S,05539.90748,E,083353.00,A,A*6E
$GNGRS,083353.00,1,-3.5,-1.4,-1.6,-0.5,0.3,-2.6,0.8,0.9,0.4,,,*5E
$GNGRS,083353.00,1,0.7,3.1,-0.2,-10.2,17.5,27.6,,,,,,*6A
$GNGST,083353.00,27,,,,2.1,2.2,4.3*46
$GNZDA,083353.00,19,05,2025,00,00*7E
$GNGBS,083353.00,2.1,2.2,4.3,,,,*55
b0d

#'&*%C+)O!NW(D($(H<$" 
{4+U`':R MD!1E(>rFI )eJ
8O!&P%*S
TG'obx\2$GNRMC,083354.00,A,0419.71853,S,05539.90750,E,0.066,,190525,,,A*75
$GNVTG,,T,,M,0.066,N,0.122,K,A*3C
$GNGNS,083354.00,0419.71853,S,05539.90750,E,AA,15,0.73,16.6,-47.6,,*60
$GNGGA,083354.00,0419.71853,S,05539.90750,E,1,12,0.73,16.6,M,-47.6,M,,*4D
$GNGSA,A,3,25,23,12,15,29,10,13,18,24,,,,1.35,0.73,1.14*1D
$GNGSA,A,3,69,80,73,68,74,83,,,,,,,1.35,0.73,1.14*1E
$GPGSV,5,1,18,05,03,029,23,10,39,232,35,12,42,153,38,13,06,067,37*7E
$GPGSV,5,2,18,15,41,079,43,18,20,334,33,23,68,296,40,24,18,142,36*7B
$GPGSV,5,3,18,25,72,195,40,26,03,316,26,28,12,253,,29,34,020,36*7C
$GPGSV,5,4,18,31,00,274,,32,10,210,,36,52,277,,40,85,352,43*7B
$GPGSV,5,5,18,41,58,082,39,49,32,274,*75
$GLGSV,3,1,10,68,29,049,33,69,62,114,40,70,21,195,22,73,41,277,32*6E
$GLGSV,3,2,10,74,10,312,20,79,03,158,33,80,42,195,37,83,07,016,23*69
$GLGSV,3,3,10,84,01,327,,,,,39*55
$GNGLL,0419.71853,S,05539.90750,E,083354.00,A,A*66
$GNGRS,083354.00,1,-0.8,-0.7,-2.4,-0.3,4.1,-0.9,-0.8,3.4,2.3,,,*7F
$GNGRS,083354.00,1,2.0,0.3,-4.1,-10.7,17.8,27.1,,,,,,*61
$GNGST,083354.00,25,,,,2.1,2.1,4.2*41
$GNZDA,083354.00,19,05,2025,00,00*79
$GNGBS,083354.00,2.1,2.1,4.2,,,,*50
b0d#

!'$*"C+)O!N%D(%&H<""c 
{4)U`':R >D!1E&>rFI )BJ
8CO!P"*)STG%ovb#x`$GNRMC,083355.00,A,0419.71852,S,05539.90752,E,0.020,,190525,,,A*75
$GNVTG,,T,,M,0.020,N,0.038,K,A*34
$GNGNS,083355.00,0419.71852,S,05539.90752,E,AA,15,0.73,16.6,-47.6,,*62
$GNGGA,083355.00,0419.71852,S,05539.90752,E,1,12,0.73,16.6,M,-47.6,M,,*4F
$GNGSA,A,3,25,23,12,15,29,10,13,18,24,,,,1.35,0.73,1.14*1D
$GNGSA,A,3,69,80,73,68,74,83,,,,,,,1.35,0.73,1.14*1E
$GPGSV,5,1,18,05,03,029,23,10,39,232,33,12,42,153,36,13,06,067,34*75
$GPGSV,5,2,18,15,41,079,43,18,20,334,33,23,68,296,37,24,18,142,37*7A
$GPGSV,5,3,18,25,72,195,38,26,03,316,26,28,12,253,,29,34,020,34*71
$GPGSV,5,4,18,31,00,274,,32,10,210,,36,52,277,,40,85,352,41*79
$GPGSV,5,5,18,41,58,082,39,49,32,274,*75
$GLGSV,3,1,10,68,29,049,33,69,62,114,38,70,21,195,22,73,41,277,32*61
$GLGSV,3,2,10,74,10,312,20,79,03,158,33,80,42,195,34,83,07,016,23*6A
$GLGSV,3,3,10,84,01,327,,,,,37*5B
$GNGLL,0419.71852,S,05539.90752,E,083355.00,A,A*64
$GNGRS,083355.00,1,-2.3,0.3,-3.0,-0.6,1.0,-2.6,-1.2,1.5,0.0,,,*5E
$GNGRS,083355.00,1,2.3,-2.1,-4.5,-10.7,18.6,24.4,,,,,,*4D
$GNGST,083355.00,25,,,,2.0,2.1,4.1*42
$GNZDA,083355.00,19,05,2025,00,00*78
$GNGBS,083355.00,2.0,2.1,4.1,,,,*53
b0dp'i

&'&*2%C$,)O!N&D(N%&H<%" 
{4*U`':R ^D!1E&>r]FI )J
8O mP"*STG%dbp'xhd$GNRMC,083356.00,A,0419.71844,S,05539.90749,E,0.020,,190525,,,A*7B
$GNVTG,,T,,M,0.020,N,0.036,K,A*3A
$GNGNS,083356.00,0419.71844,S,05539.90749,E,AA,15,0.73,16.6,-47.6,,*6C
$GNGGA,083356.00,0419.71844,S,05539.90749,E,1,12,0.73,16.6,M,-47.6,M,,*41
$GNGSA,A,3,25,23,12,15,29,10,13,18,24,,,,1.35,0.73,1.14*1D
$GNGSA,A,3,69,80,73,68,74,83,,,,,,,1.35,0.73,1.14*1E
$GPGSV,5,1,18,05,03,029,24,10,39,232,38,12,42,153,38,13,06,067,37*74
$GPGSV,5,2,18,15,41,079,44,18,20,334,33,23,68,296,38,24,18,142,37*72
$GPGSV,5,3,18,25,72,195,38,26,03,316,26,28,12,253,,29,34,020,37*72
$GPGSV,5,4,18,31,00,274,,32,10,210,,36,52,277,,40,85,352,42*7A
$GPGSV,5,5,18,41,58,082,39,49,32,274,*75
$GLGSV,3,1,10,68,29,049,33,69,62,114,38,70,21,195,20,73,41,277,32*63
$GLGSV,3,2,10,74,10,312,20,79,03,158,32,80,42,195,34,83,07,016,24*6C
$GLGSV,3,3,10,84,01,327,,,,,37*5B
$GNGLL,0419.71844,S,05539.90749,E,083356.00,A,A*6A
$GNGRS,083356.00,1,-0.9,0.8,-4.6,-0.3,1.5,-0.3,0.4,1.3,-0.4,,,*5D
$GNGRS,083356.00,1,0.9,-2.6,0.1,-11.0,18.2,25.0,,,,,,*6B
$GNGST,083356.00,24,,,,2.0,2.0,4.0*40
$GNZDA,083356.00,19,05,2025,00,00*7B
$GNGBS,083356.00,2.0,2.0,4.0,,,,*50
b0dX+

&'%*$C+)O N>'D(&'H<$" 
{4*U`%:R WD!1E'>rMFI)J
8OP *8STG#bX+xPhj$GNRMC,083357.00,A,0419.71843,S,05539.90752,E,0.018,,190525,,,A*7C
$GNVTG,,T,,M,0.018,N,0.032,K,A*35
$GNGNS,083357.00,0419.71843,S,05539.90752,E,AA,15,0.71,16.6,-47.6,,*62
$GNGGA,083357.00,0419.71843,S,05539.90752,E,1,12,0.71,16.6,M,-47.6,M,,*4F
$GNGSA,A,3,25,23,12,15,29,10,13,18,24,,,,1.31,0.71,1.10*1F
$GNGSA,A,3,69,80,73,68,74,83,,,,,,,1.31,0.71,1.10*1C
$GPGSV,5,1,18,05,03,029,25,10,39,232,38,12,42,153,37,13,06,067,36*7B
$GPGSV,5,2,18,15,41,079,43,18,20,334,32,23,68,296,39,24,18,142,38*7A
$GPGSV,5,3,18,25,72,195,39,26,03,316,26,28,12,253,,29,34,020,36*72
$GPGSV,5,4,18,31,00,274,,32,10,210,,36,52,277,,40,85,352,42*7A
$GPGSV,5,5,18,41,58,082,37,49,32,274,*7B
$GLGSV,3,1,10,68,29,049,33,69,62,114,39,70,21,195,19,73,41,277,27*6C
$GLGSV,3,2,10,74,10,312,19,79,03,158,31,80,42,195,32,83,07,016,26*61
$GLGSV,3,3,10,84,01,327,,,,,35*59
$GNGLL,0419.71843,S,05539.90752,E,083357.00,A,A*66
$GNGRS,083357.00,1,-0.5,-1.2,-0.5,-0.1,2.6,-2.4,-0.8,0.6,0.3,,,*79
$GNGRS,083357.00,1,0.8,0.6,1.8,-10.9,18.1,24.8,,,,,,*4E
$GNGST,083357.00,28,,,,1.9,2.0,4.0*47
$GNZDA,083357.00,19,05,2025,00,00*7A
$GNGBS,083357.00,1.9,2.0,4.0,,,,*5B
b0d@/h

%'&*%C?+)O Nm&D(%&H<\$" 
{4*U`&:R D!1E&>rFI)J
8|O=P *?SeTG$b@/x8lb$GNRMC,083358.00,A,0419.71843,S,05539.90752,E,0.031,,190525,,,A*78
$GNVTG,,T,,M,0.031,N,0.058,K,A*32
$GNGNS,083358.00,0419.71843,S,05539.90752,E,AA,15,0.71,16.6,-47.6,,*6D
$GNGGA,083358.00,0419.71843,S,05539.90752,E,1,12,0.71,16.6,M,-47.6,M,,*40
$GNGSA,A,3,25,23,12,15,29,10,13,18,24,,,,1.31,0.71,1.10*1F
$GNGSA,A,3,69,80,73,68,74,83,,,,,,,1.31,0.71,1.10*1C
$GPGSV,5,1,18,05,03,029,24,10,39,232,37,12,42,153,38,13,06,067,37*7B
$GPGSV,5,2,18,15,41,079,43,18,20,334,32,23,68,296,38,24,18,142,37*74
$GPGSV,5,3,18,25,72,195,38,26,03,316,26,28,12,253,,29,34,020,36*73
$GPGSV,5,4,18,31,00,274,,32,10,210,,36,52,277,,40,85,352,42*7A
$GPGSV,5,5,18,41,58,082,38,49,32,274,*74
$GLGSV,3,1,10,68,29,049,33,69,62,114,38,70,21,195,20,73,41,277,31*60
$GLGSV,3,2,10,74,10,312,19,79,03,158,31,80,42,195,32,83,07,016,26*61
$GLGSV,3,3,10,84,01,327,,,,,36*5A
$GNGLL,0419.71843,S,05539.90752,E,083358.00,A,A*69
$GNGRS,083358.00,1,-1.0,-0.4,-0.8,0.0,0.1,-0.9,-1.9,1.1,1.4,,,*5E
$GNGRS,083358.00,1,2.7,0.6,2.3,-9.9,16.6,21.5,,,,,,*7D
$GNGST,083358.00,27,,,,1.9,1.9,3.9*43
$GNZDA,083358.00,19,05,2025,00,00*75
$GNGBS,083358.00,1.9,1.9,3.9,,,,*50
b0d(3

$'$*N$C}*)ON&D($&H<$" 
{4*U`&:R D!1E&>rFI)J
8OP *STG$.b(3x p::$GNRMC,083359.00,A,0419.71841,S,05539.90751,E,0.032,,190525,,,A*7B
$GNVTG,,T,,M,0.032,N,0.058,K,A*31
$GNGNS,083359.00,0419.71841,S,05539.90751,E,AA,15,0.71,16.6,-47.6,,*6D
$GNGGA,083359.00,0419.71841,S,05539.90751,E,1,12,0.71,16.6,M,-47.6,M,,*40
$GNGSA,A,3,25,23,12,15,29,10,13,18,24,,,,1.31,0.71,1.10*1F
$GNGSA,A,3,69,80,73,68,74,83,,,,,,,1.31,0.71,1.10*1C
$GPGSV,5,1,18,05,03,029,23,10,39,232,36,12,42,153,36,13,06,067,36*72
$GPGSV,5,2,18,15,41,079,42,18,20,334,31,23,68,296,38,24,18,142,36*77
$GPGSV,5,3,18,25,72,195,38,26,03,316,25,28,12,253,,29,34,020,36*70
$GPGSV,5,4,18,31,00,274,,32,10,210,,36,52,277,,40,85,352,42*7A
$GPGSV,5,5,18,41,58,082,38,49,32,274,*74
$GLGSV,3,1,10,68,29,049,33,69,62,114,38,70,21,195,21,73,41,277,30*60
$GLGSV,3,2,10,74,10,312,19,79,03,158,31,80,42,195,32,83,07,016,25*62
$GLGSV,3,3,10,84,01,327,,,,,36*5A
$GNGLL,0419.71841,S,05539.90751,E,083359.00,A,A*69
$GNGRS,083359.00,1,-1.1,-0.1,-1.8,0.1,1.3,-0.4,-1.3,-1.1,-0.4,,,*5E
$GNGRS,083359.00,1,1.9,0.1,-0.4,-10.2,16.8,20.4,,,,,,*63
$GNGST,083359.00,27,,,,1.9,1.9,3.8*43
$GNZDA,083359.00,19,05,2025,00,00*74
$GNGBS,083359.00,1.9,1.9,3.8,,,,*50
b0d7u

"'$$*"CJ))ON$D("$H<#" 
{4)U`$:R D 1E(>rpFI)J
8O"P"*S/TG&b7xt$GNRMC,083400.00,A,0419.71840,S,05539.90750,E,0.023,,190525,,,A*70
$GNVTG,,T,,M,0.023,N,0.043,K,A*3B
$GNGNS,083400.00,0419.71840,S,05539.90750,E,AA,15,0.71,16.6,-47.6,,*66
$GNGGA,083400.00,0419.71840,S,05539.90750,E,1,12,0.71,16.6,M,-47.6,M,,*4B
$GNGSA,A,3,25,23,12,15,29,10,13,18,24,,,,1.31,0.71,1.10*1F
$GNGSA,A,3,69,80,73,68,74,83,,,,,,,1.31,0.71,1.10*1C
$GPGSV,5,1,18,05,03,029,23,10,39,232,34,12,42,153,36,13,06,067,34*72
$GPGSV,5,2,18,15,41,079,41,18,20,334,31,23,68,296,36,24,18,142,34*78
$GPGSV,5,3,18,25,72,195,36,26,03,316,25,28,12,253,,29,34,020,35*7D
$GPGSV,5,4,18,31,00,274,,32,10,210,,36,52,277,,40,85,352,41*79
$GPGSV,5,5,18,41,58,082,36,49,32,274,*7A
$GLGSV,3,1,10,68,29,049,32,69,62,114,40,70,21,195,20,73,41,277,30*6F
$GLGSV,3,2,10,74,10,312,19,79,03,158,34,80,42,195,34,83,07,016,25*61
$GLGSV,3,3,10,84,01,327,,,,,38*54
$GNGLL,0419.71840,S,05539.90750,E,083400.00,A,A*62
$GNGRS,083400.00,1,-1.2,-0.6,-1.1,0.1,2.3,-2.2,-1.8,-1.0,0.0,,,*7C
$GNGRS,083400.00,1,1.1,1.4,2.1,-13.4,16.7,18.4,,,,,,*4F
$GNGST,083400.00,25,,,,1.9,1.9,3.8*4A
$GNZDA,083400.00,19,05,2025,00,00*7F
$GNGBS,083400.00,1.9,1.9,3.8,,,,*5B
b0d:#

"'%*$C+)O"N,&D(z%B%Ho<z$" 
{4*U`':R D#1E'>rAFI)J
8FO$P$*STG'7b:xw$GNRMC,083401.00,A,0419.71845,S,05539.90749,E,0.021,,190525,,,A*7E
$GNVTG,,T,,M,0.021,N,0.039,K,A*34
$GNGNS,083401.00,0419.71845,S,05539.90749,E,AA,15,0.71,16.5,-47.6,,*69
$GNGGA,083401.00,0419.71845,S,05539.90749,E,1,12,0.71,16.5,M,-47.6,M,,*44
$GNGSA,A,3,25,23,12,15,29,10,13,18,24,,,,1.31,0.71,1.10*1F
$GNGSA,A,3,69,80,73,68,74,83,,,,,,,1.31,0.71,1.10*1C
$GPGSV,5,1,18,05,03,029,24,10,39,232,34,12,42,153,37,13,06,067,36*76
$GPGSV,5,2,18,15,41,079,43,18,20,334,34,23,68,296,38,24,18,142,37*72
$GPGSV,5,3,18,25,72,195,37,26,03,316,26,28,12,253,,29,34,020,36*7C
$GPGSV,5,4,18,31,00,274,,32,10,210,,36,52,277,,40,85,352,42*7A
$GPGSV,5,5,18,41,58,082,39,49,32,274,*75
$GLGSV,3,1,10,68,29,049,35,69,62,114,39,70,21,195,21,73,41,277,29*6F
$GLGSV,3,2,10,74,10,312,19,79,03,158,36,80,42,195,36,83,07,016,25*61
$GLGSV,3,3,10,84,01,327,,,,,39*55
$GNGLL,0419.71845,S,05539.90749,E,083401.00,A,A*6E
$GNGRS,083401.00,1,-1.5,-1.3,-0.6,0.2,-0.5,-3.5,-2.7,0.4,0.7,,,*77
$GNGRS,083401.00,1,0.7,2.5,4.4,-11.2,16.1,17.0,,,,,,*41
$GNGST,083401.00,27,,,,1.8,1.9,3.8*48
$GNZDA,083401.00,19,05,2025,00,00*7E
$GNGBS,083401.00,1.8,1.9,3.8,,,,*5B
b0d>

'&*!C()O*!N$D(!$H< " 
{4)U`%:R @D#1E)>r:FI)J
8O 3P!*STG&b>x{`$GNRMC,083402.00,A,0419.71847,S,05539.90746,E,0.086,,190525,,,A*7D
$GNVTG,,T,,M,0.086,N,0.159,K,A*3E
$GNGNS,083402.00,0419.71847,S,05539.90746,E,AA,15,0.71,16.6,-47.6,,*64
$GNGGA,083402.00,0419.71847,S,05539.90746,E,1,12,0.71,16.6,M,-47.6,M,,*49
$GNGSA,A,3,25,23,12,15,29,10,13,18,24,,,,1.31,0.71,1.10*1F
$GNGSA,A,3,69,80,73,68,74,83,,,,,,,1.31,0.71,1.10*1C
$GPGSV,5,1,18,05,03,029,24,10,39,232,31,12,42,153,38,13,06,067,33*79
$GPGSV,5,2,18,15,41,079,40,18,20,334,33,23,68,296,36,24,18,142,33*7C
$GPGSV,5,3,18,25,72,195,36,26,03,316,25,28,12,253,,29,34,020,32*7A
$GPGSV,5,4,18,31,00,274,,32,10,210,,36,52,277,,40,85,352,41*79
$GPGSV,5,5,18,41,58,082,37,49,32,274,*7B
$GLGSV,3,1,10,68,29,049,35,69,62,114,41,70,21,195,20,73,41,277,22*6A
$GLGSV,3,2,10,74,10,312,19,79,03,158,32,80,42,195,33,83,07,016,22*67
$GLGSV,3,3,10,84,01,327,,,,,38*54
$GNGLL,0419.71847,S,05539.90746,E,083402.00,A,A*60
$GNGRS,083402.00,1,-1.3,2.9,-0.5,0.4,-2.2,-2.9,-1.0,3.9,1.5,,,*52
$GNGRS,083402.00,1,0.6,2.6,4.8,-10.6,15.2,12.1,,,,,,*4D
$GNGST,083402.00,29,,,,1.8,1.9,3.8*45
$GNZDA,083402.00,19,05,2025,00,00*7D
