b0X
%',|E#*R%M'E!$J'=n$b"!m {(4$U`:R D#3SE=w 
FI!)J:~OP,S#TEVbx$GNRMC,082914.00,A,0419.71209,S,05539.91344,E,0.030,,190525,,,A*7C
$GNVTG,,T,,M,0.030,N,0.056,K,A*3D
$GNGNS,082914.00,0419.71209,S,05539.91344,E,AA,16,0.66,14.8,-47.6,,*61
$GNGGA,082914.00,0419.71209,S,05539.91344,E,1,12,0.66,14.8,M,-47.6,M,,*4F
$GNGSA,A,3,25,23,12,15,29,10,13,18,24,28,,,1.19,0.66,0.99*19
$GNGSA,A,3,69,80,73,68,74,83,,,,,,,1.19,0.66,0.99*10
$GPGSV,5,1,18,05,04,029,30,10,37,229,29,12,44,152,39,13,06,069,26*7A
$GPGSV,5,2,18,15,42,082,35,18,21,333,37,23,69,289,39,24,18,144,31*7F
$GPGSV,5,3,18,25,74,199,36,26,02,317,39,28,12,255,36,29,33,018,34*74
$GPGSV,5,4,18,31,00,276,23,32,09,211,21,36,52,277,40,40,85,352,36*74
$GPGSV,5,5,18,41,58,082,,49,32,274,*7F
$GLGSV,3,1,09,68,31,051,35,69,61,119,23,70,19,196,11,73,41,280,33*6A
$GLGSV,3,2,09,74,08,314,29,79,05,159,28,80,44,197,18,83,07,014,35*66
$GLGSV,3,3,09,84,02,325,28*5C
$GNGLL,0419.71209,S,05539.91344,E,082914.00,A,A*6C
$GNGRS,082914.00,1,1.7,-0.2,-1.3,2.2,3.6,0.0,-8.5,-0.6,0.1,1.0,,*5E
$GNGRS,082914.00,1,-4.8,7.6,-3.2,-12.0,3.8,7.1,,,,,,*49
$GNGST,082914.00,26,,,,1.7,1.6,3.4*4D
$GNZDA,082914.00,19,05,2025,00,00*76
$GNGBS,082914.00,1.7,1.6,3.4,,,,*5F
b0X}
&6,EL*R`MAE!J =(! {4U`:R D3*E=w
FI)J:OP,S -TETybx`$GNRMC,082915.00,A,0419.71205,S,05539.91345,E,0.243,,190525,,,A*76
$GNVTG,,T,,M,0.243,N,0.449,K,A*31
$GNGNS,082915.00,0419.71205,S,05539.91345,E,AA,16,0.66,14.8,-47.6,,*6D
$GNGGA,082915.00,0419.71205,S,05539.91345,E,1,12,0.66,14.8,M,-47.6,M,,*43
$GNGSA,A,3,25,23,12,15,29,10,13,18,24,28,,,1.19,0.66,0.99*19
$GNGSA,A,3,69,80,73,68,74,83,,,,,,,1.19,0.66,0.99*10
$GPGSV,5,1,18,05,04,029,22,10,38,230,19,12,44,152,27,13,06,069,23*77
$GPGSV,5,2,18,15,42,082,25,18,21,333,26,23,69,289,23,24,18,144,25*70
$GPGSV,5,3,18,25,74,199,26,26,02,317,32,28,12,255,21,29,33,018,25*78
$GPGSV,5,4,18,31,00,276,21,32,09,211,19,36,52,277,29,40,85,352,28*7D
$GPGSV,5,5,18,41,58,082,,49,32,274,*7F
$GLGSV,3,1,09,68,31,051,31,69,61,119,20,70,19,196,12,73,41,280,27*6B
$GLGSV,3,2,09,74,08,314,19,79,05,159,16,80,44,197,17,83,07,014,32*60
$GLGSV,3,3,09,84,02,325,25*51
$GNGLL,0419.71205,S,05539.91345,E,082915.00,A,A*60
$GNGRS,082915.00,1,2.8,2.1,-0.9,3.5,4.0,-4.6,-6.9,3.2,-0.5,2.9,,*57
$GNGRS,082915.00,1,-2.9,6.8,-1.1,-9.8,4.7,8.1,,,,,,*74
$GNGST,082915.00,44,,,,1.7,1.7,3.4*49
$GNZDA,082915.00,19,05,2025,00,00*77
$GNGBS,082915.00,1.7,1.7,3.4,,,,*5F
b0X
&$,E6*RT#M%'E!G"J (=V$B!% {(4&U`%:R D$38E!=w
FI%)J!:OP,S(TEbx$GNRMC,082916.00,A,0419.71206,S,05539.91339,E,0.161,,190525,,,A*7E
$GNVTG,,T,,M,0.161,N,0.298,K,A*38
$GNGNS,082916.00,0419.71206,S,05539.91339,E,AA,15,0.68,14.6,-47.6,,*65
$GNGGA,082916.00,0419.71206,S,05539.91339,E,1,12,0.68,14.6,M,-47.6,M,,*48
$GNGSA,A,3,25,23,12,15,29,13,18,24,28,,,,1.20,0.68,0.99*1C
$GNGSA,A,3,69,80,73,68,74,83,,,,,,,1.20,0.68,0.99*14
$GPGSV,5,1,18,05,04,029,20,10,38,230,,12,44,152,36,13,06,069,22*7C
$GPGSV,5,2,18,15,42,082,26,18,21,333,35,23,69,289,39,24,18,144,25*7A
$GPGSV,5,3,18,25,74,199,34,26,02,317,40,28,12,255,36,29,33,018,31*7D
$GPGSV,5,4,18,31,00,276,20,32,09,211,18,36,52,277,40,40,85,352,38*73
$GPGSV,5,5,18,41,58,082,37,49,32,274,*7B
$GLGSV,3,1,09,68,31,051,36,69,61,119,33,70,19,196,12,73,41,280,37*6F
$GLGSV,3,2,09,74,08,314,33,79,05,159,29,80,44,197,28,83,07,014,40*6D
$GLGSV,3,3,09,84,02,325,31*54
$GNGLL,0419.71206,S,05539.91339,E,082916.00,A,A*6B
$GNGRS,082916.00,1,5.4,-1.9,1.9,3.4,5.5,-7.1,0.4,2.3,3.2,,,*7E
$GNGRS,082916.00,1,-2.7,7.0,1.9,-9.7,5.4,7.4,,,,,,*52
$GNGST,082916.00,26,,,,1.7,1.8,3.4*41
$GNZDA,082916.00,19,05,2025,00,00*74
$GNGBS,082916.00,1.7,1.8,3.4,,,,*53
b0X!
&*+uE#*RH$M'E! %JZ)=$#! {*4&U` :R "D&3fE =w
FI$)oJ!:OP,S*TEbx"u0$GNRMC,082917.00,A,0419.71212,S,05539.91335,E,0.028,,190525,,,A*7A
$GNVTG,,T,,M,0.028,N,0.052,K,A*30
$GNGNS,082917.00,0419.71212,S,05539.91335,E,AA,15,0.71,14.6,-47.6,,*65
$GNGGA,082917.00,0419.71212,S,05539.91335,E,1,12,0.71,14.6,M,-47.6,M,,*48
$GNGSA,A,3,25,23,12,15,29,13,18,24,28,,,,1.26,0.71,1.03*10
$GNGSA,A,3,69,80,73,68,74,83,,,,,,,1.26,0.71,1.03*18
$GPGSV,5,1,18,05,04,029,33,10,38,230,,12,43,152,42,13,06,069,30*79
$GPGSV,5,2,18,15,42,082,35,18,21,333,36,23,69,289,39,24,18,144,32*7D
$GPGSV,5,3,18,25,74,199,37,26,02,317,41,28,12,255,36,29,33,018,35*7B
$GPGSV,5,4,18,31,00,276,19,32,09,211,18,36,52,277,42,40,85,352,38*7B
$GPGSV,5,5,18,41,58,082,32,49,32,274,*7E
$GLGSV,3,1,09,68,31,051,38,69,61,119,32,70,19,196,,73,41,280,36*62
$GLGSV,3,2,09,74,08,314,33,79,05,159,31,80,44,197,27,83,07,014,42*69
$GLGSV,3,3,09,84,02,325,31*54
$GNGLL,0419.71212,S,05539.91335,E,082917.00,A,A*63
$GNGRS,082917.00,1,-1.7,0.0,1.2,0.7,1.9,-6.2,-2.5,1.9,-2.6,,,*7E
$GNGRS,082917.00,1,5.0,6.8,1.1,-11.8,12.0,4.9,,,,,,*75
$GNGST,082917.00,18,,,,1.7,1.8,3.4*4D
$GNZDA,082917.00,19,05,2025,00,00*75
$GNGBS,082917.00,1.7,1.8,3.4,,,,*52
b0Xi
&)+"D[ *R'M%E! %J(=#K#! {(4$U`:R ""D$3@E=w
FI#)J :OP,S(TEqbxx&M$GNRMC,082918.00,A,0419.71212,S,05539.91336,E,0.144,,190525,,,A*7D
$GNVTG,,T,,M,0.144,N,0.267,K,A*3F
$GNGNS,082918.00,0419.71212,S,05539.91336,E,AA,15,0.68,14.6,-47.6,,*61
$GNGGA,082918.00,0419.71212,S,05539.91336,E,1,12,0.68,14.6,M,-47.6,M,,*4C
$GNGSA,A,3,25,23,12,15,29,13,18,24,28,,,,1.20,0.68,0.99*1C
$GNGSA,A,3,69,80,73,68,74,83,,,,,,,1.20,0.68,0.99*14
$GPGSV,5,1,18,05,04,029,29,10,38,230,,12,43,152,41,13,06,068,34*74
$GPGSV,5,2,18,15,42,082,32,18,21,333,39,23,69,289,37,24,18,144,32*7B
$GPGSV,5,3,18,25,74,199,37,26,02,317,40,28,12,255,35,29,33,018,35*79
$GPGSV,5,4,18,31,00,276,17,32,09,211,17,36,52,277,40,40,85,352,36*76
$GPGSV,5,5,18,41,58,082,29,49,32,274,*74
$GLGSV,3,1,09,68,31,051,36,69,61,119,26,70,19,196,,73,41,280,35*6A
$GLGSV,3,2,09,74,08,314,32,79,05,159,31,80,44,197,24,83,07,014,40*69
$GLGSV,3,3,09,84,02,325,30*55
$GNGLL,0419.71212,S,05539.91336,E,082918.00,A,A*6F
$GNGRS,082918.00,1,1.6,-0.6,0.0,2.1,5.0,0.9,-0.2,2.4,-4.4,,,*53
$GNGRS,082918.00,1,-3.0,4.9,0.0,-9.6,9.6,4.1,,,,,,*51
$GNGST,082918.00,21,,,,1.7,1.7,3.4*47
$GNZDA,082918.00,19,05,2025,00,00*7A
$GNGBS,082918.00,1.7,1.7,3.4,,,,*52
b0Xh(|

&!++D^ *R%M%E!] V%J(=%'! {'4&U`:R #D$3=E=wFI')J:OP,S,lTEbhx`*%$GNRMC,082919.00,A,0419.71211,S,05539.91339,E,0.037,,190525,,,A*75
$GNVTG,,T,,M,0.037,N,0.069,K,A*36
$GNGNS,082919.00,0419.71211,S,05539.91339,E,AA,16,0.66,14.5,-47.6,,*62
$GNGGA,082919.00,0419.71211,S,05539.91339,E,1,12,0.66,14.5,M,-47.6,M,,*4C
$GNGSA,A,3,25,23,12,15,29,10,13,18,24,28,,,1.19,0.66,0.99*19
$GNGSA,A,3,69,80,73,68,74,83,,,,,,,1.19,0.66,0.99*10
$GPGSV,5,1,18,05,04,029,40,10,38,230,30,12,43,152,43,13,06,068,30*7E
$GPGSV,5,2,18,15,42,082,32,18,21,333,37,23,69,289,37,24,18,144,32*75
$GPGSV,5,3,18,25,74,199,37,26,02,317,40,28,12,255,37,29,33,018,39*77
$GPGSV,5,4,18,31,00,276,15,32,09,211,17,36,52,277,39,40,85,352,38*74
$GPGSV,5,5,18,41,58,082,27,49,32,274,*7A
$GLGSV,3,1,09,68,31,051,36,69,61,119,27,70,19,196,,73,41,280,39*67
$GLGSV,3,2,09,74,08,314,27,79,05,159,26,80,44,197,24,83,07,014,44*6F
$GLGSV,3,3,09,84,02,325,23*57
$GNGLL,0419.71211,S,05539.91339,E,082919.00,A,A*62
$GNGRS,082919.00,1,-0.3,-1.6,0.2,-0.5,4.7,0.3,-1.6,-0.3,0.9,-0.3,,*56
$GNGRS,082919.00,1,1.5,5.0,-1.0,-7.1,9.7,6.2,,,,,,*57
$GNGST,082919.00,26,,,,1.7,1.7,3.3*46
$GNZDA,082919.00,19,05,2025,00,00*7B
$GNGBS,082919.00,1.7,1.7,3.3,,,,*54
b0XP(]

 &++DU!*R@'M%E!o!(&J(=1&9'! {(4&U`:R #D&37E=wFI')J:OP,mS+TEbPxH.h$GNRMC,082920.00,A,0419.71212,S,05539.91340,E,0.017,,190525,,,A*70
$GNVTG,,T,,M,0.017,N,0.032,K,A*3A
$GNGNS,082920.00,0419.71212,S,05539.91340,E,AA,16,0.66,14.6,-47.6,,*66
$GNGGA,082920.00,0419.71212,S,05539.91340,E,1,12,0.66,14.6,M,-47.6,M,,*48
$GNGSA,A,3,25,23,12,15,29,10,13,18,24,28,,,1.19,0.66,0.99*19
$GNGSA,A,3,69,80,73,68,74,83,,,,,,,1.19,0.66,0.99*10
$GPGSV,5,1,18,05,04,029,40,10,38,230,32,12,43,152,43,13,06,068,29*74
$GPGSV,5,2,18,15,42,082,33,18,21,333,39,23,69,289,37,24,18,144,33*7B
$GPGSV,5,3,18,25,74,199,38,26,02,317,40,28,12,255,38,29,33,018,39*77
$GPGSV,5,4,18,31,00,276,15,32,09,211,18,36,52,277,40,40,85,352,38*75
$GPGSV,5,5,18,41,58,082,27,49,32,274,*7A
$GLGSV,3,1,09,68,31,051,38,69,61,119,31,70,19,196,,73,41,280,39*6E
$GLGSV,3,2,09,74,08,314,30,79,05,159,28,80,44,197,24,83,07,014,43*60
$GLGSV,3,3,09,84,02,325,25*51
$GNGLL,0419.71212,S,05539.91340,E,082920.00,A,A*65
$GNGRS,082920.00,1,0.2,1.1,1.7,0.6,5.2,1.4,-1.7,-1.0,0.4,-2.0,,*7D
$GNGRS,082920.00,1,4.0,6.2,-3.7,-12.3,8.0,6.8,,,,,,*63
$GNGST,082920.00,20,,,,1.7,1.7,3.3*4A
$GNZDA,082920.00,19,05,2025,00,00*71
$GNGBS,082920.00,1.7,1.7,3.3,,,,*5E
b0X8"Z

&)+I%D!*R'M%E!!+%J)=+%%! {'4&U`:R #D%3mE=wRFI&)J:nOP,LS)]TEb8x02$GNRMC,082921.00,A,0419.71211,S,05539.91342,E,0.100,,190525,,,A*77
$GNVTG,,T,,M,0.100,N,0.185,K,A*30
$GNGNS,082921.00,0419.71211,S,05539.91342,E,AA,16,0.66,14.6,-47.6,,*66
$GNGGA,082921.00,0419.71211,S,05539.91342,E,1,12,0.66,14.6,M,-47.6,M,,*48
$GNGSA,A,3,25,23,12,15,29,10,13,18,24,28,,,1.19,0.66,0.99*19
$GNGSA,A,3,69,80,73,68,74,83,,,,,,,1.19,0.66,0.99*10
$GPGSV,5,1,18,05,04,029,34,10,38,230,31,12,43,152,41,13,06,068,37*79
$GPGSV,5,2,18,15,42,082,33,18,21,333,39,23,69,289,37,24,18,144,33*7B
$GPGSV,5,3,18,25,74,199,37,26,02,317,41,28,12,255,37,29,33,018,37*78
$GPGSV,5,4,18,31,00,276,17,32,09,211,17,36,52,277,39,40,85,352,38*76
$GPGSV,5,5,18,41,58,082,,49,32,274,*7F
$GLGSV,3,1,09,68,31,051,37,69,61,119,30,70,19,196,18,73,41,280,38*68
$GLGSV,3,2,09,74,08,314,31,79,05,159,29,80,44,197,26,83,07,014,41*60
$GLGSV,3,3,09,84,02,325,26*52
$GNGLL,0419.71211,S,05539.91342,E,082921.00,A,A*65
$GNGRS,082921.00,1,-0.9,2.2,0.7,1.5,6.8,-0.1,2.2,0.1,3.0,-0.8,,*72
$GNGRS,082921.00,1,-4.3,5.9,-3.2,-11.7,6.2,6.0,,,,,,*42
$GNGST,082921.00,19,,,,1.6,1.7,3.2*41
$GNZDA,082921.00,19,05,2025,00,00*70
$GNGBS,082921.00,1.6,1.7,3.2,,,,*5F
b0X ^

&|(+0$Dn *R'M=%E!#J&=##!@ {%4$U`:R #D%3E=wFI()J:.OP,S(TE%b x68$GNRMC,082922.00,A,0419.71210,S,05539.91341,E,0.028,,190525,,,A*7D
$GNVTG,,T,,M,0.028,N,0.052,K,A*30
$GNGNS,082922.00,0419.71210,S,05539.91341,E,AA,16,0.66,14.6,-47.6,,*67
$GNGGA,082922.00,0419.71210,S,05539.91341,E,1,12,0.66,14.6,M,-47.6,M,,*49
$GNGSA,A,3,25,23,12,15,29,10,13,18,24,28,,,1.19,0.66,0.99*19
$GNGSA,A,3,69,80,73,68,74,83,,,,,,,1.19,0.66,0.99*10
$GPGSV,5,1,18,05,04,029,28,10,38,230,30,12,43,152,40,13,06,068,36*75
$GPGSV,5,2,18,15,42,082,32,18,21,333,39,23,69,289,37,24,18,144,29*71
$GPGSV,5,3,18,25,74,199,35,26,02,317,38,28,12,255,35,29,33,018,35*74
$GPGSV,5,4,18,31,00,276,17,32,09,211,16,36,52,277,37,40,85,352,36*77
$GPGSV,5,5,18,41,58,082,,49,32,274,*7F
$GLGSV,3,1,09,68,31,051,37,69,61,119,23,70,19,196,,73,41,280,40*6C
$GLGSV,3,2,09,74,08,314,31,79,05,159,30,80,44,197,26,83,07,014,40*69
$GLGSV,3,3,09,84,02,325,26*52
$GNGLL,0419.71210,S,05539.91341,E,082922.00,A,A*64
$GNGRS,082922.00,1,0.0,2.2,0.5,6.6,3.2,-1.3,-1.5,0.6,-2.3,-2.5,,*51
$GNGRS,082922.00,1,-3.1,4.3,-0.6,-7.4,5.6,4.6,,,,,,*7F
$GNGST,082922.00,28,,,,1.6,1.6,3.2*41
$GNZDA,082922.00,19,05,2025,00,00*73
$GNGBS,082922.00,1.6,1.6,3.2,,,,*5D
b0XC

&(+@$D4 *R&M\%E!,#JN'=#"!s {%4$U`:R #jD#3E=w2FI&)2J:6OP,S(TEbbx:$GNRMC,082923.00,A,0419.71208,S,05539.91341,E,0.057,,190525,,,A*7D
$GNVTG,,T,,M,0.057,N,0.106,K,A*38
$GNGNS,082923.00,0419.71208,S,05539.91341,E,AA,16,0.66,14.6,-47.6,,*6F
$GNGGA,082923.00,0419.71208,S,05539.91341,E,1,12,0.66,14.6,M,-47.6,M,,*41
$GNGSA,A,3,25,23,12,15,29,10,13,18,24,28,,,1.19,0.66,0.99*19
$GNGSA,A,3,69,80,73,68,74,83,,,,,,,1.19,0.66,0.99*10
$GPGSV,5,1,18,05,04,029,26,10,38,230,29,12,43,152,40,13,06,068,36*73
$GPGSV,5,2,18,15,42,082,32,18,21,333,38,23,69,289,37,24,18,144,29*70
$GPGSV,5,3,18,25,74,199,35,26,02,317,39,28,12,255,35,29,33,018,34*74
$GPGSV,5,4,18,31,00,276,19,32,09,211,17,36,52,277,37,40,85,352,36*78
$GPGSV,5,5,18,41,58,082,27,49,32,274,*7A
$GLGSV,3,1,09,68,31,051,35,69,61,119,22,70,19,196,,73,41,280,38*60
$GLGSV,3,2,09,74,08,314,31,79,05,159,30,80,44,197,26,83,07,014,40*69
$GLGSV,3,3,09,84,02,325,27*53
$GNGLL,0419.71208,S,05539.91341,E,082923.00,A,A*6C
$GNGRS,082923.00,1,0.8,3.0,0.6,4.3,3.7,4.4,0.5,0.9,0.1,-0.7,,*7B
$GNGRS,082923.00,1,0.5,5.3,-4.6,-7.4,10.8,5.1,,,,,,*6D
$GNGST,082923.00,26,,,,1.6,1.6,3.2*4E
$GNZDA,082923.00,19,05,2025,00,00*72
$GNGBS,082923.00,1.6,1.6,3.2,,,,*5C
b0X 

&)+%"D *R&M&E!7&J+=$"! {(4(U`:R &D"3>E=wFI')J:OP,S%TE)Ubx=\$GNRMC,082924.00,A,0419.71207,S,05539.91342,E,0.022,,190525,,,A*74
$GNVTG,,T,,M,0.022,N,0.040,K,A*39
$GNGNS,082924.00,0419.71207,S,05539.91342,E,AA,16,0.66,14.7,-47.6,,*65
$GNGGA,082924.00,0419.71207,S,05539.91342,E,1,12,0.66,14.7,M,-47.6,M,,*4B
$GNGSA,A,3,25,23,12,15,29,10,13,18,24,28,,,1.19,0.66,0.99*19
$GNGSA,A,3,69,80,73,68,74,83,,,,,,,1.19,0.66,0.99*10
$GPGSV,5,1,18,05,04,029,32,10,38,230,29,12,43,152,41,13,06,068,34*75
$GPGSV,5,2,18,15,42,082,32,18,21,333,38,23,69,289,38,24,18,144,30*77
$GPGSV,5,3,18,25,74,199,38,26,02,317,43,28,12,255,36,29,33,018,34*77
$GPGSV,5,4,18,31,00,276,21,32,09,211,16,36,52,277,40,40,85,352,40*73
$GPGSV,5,5,18,41,58,082,28,49,32,274,*75
$GLGSV,3,1,09,68,31,051,34,69,61,119,24,70,19,196,,73,41,280,39*66
$GLGSV,3,2,09,74,08,314,29,79,05,159,30,80,44,197,26,83,07,014,37*60
$GLGSV,3,3,09,84,02,325,26*52
$GNGLL,0419.71207,S,05539.91342,E,082924.00,A,A*67
$GNGRS,082924.00,1,0.3,3.1,0.4,4.4,2.0,0.3,-1.0,-0.3,-0.9,-0.7,,*5D
$GNGRS,082924.00,1,5.0,5.0,-3.9,-7.1,9.7,5.4,,,,,,*56
$GNGST,082924.00,24,,,,1.6,1.6,3.2*4B
$GNZDA,082924.00,19,05,2025,00,00*75
$GNGBS,082924.00,1.6,1.6,3.2,,,,*5B
b0X

&(#+D*R M!E!+J)=!Q!!. {"4$U`!:R $?D 3E#=wFI')>J:OP,S .TE7bxA4l$GNRMC,082925.00,A,0419.71205,S,05539.91341,E,0.128,,190525,,,A*7F
$GNVTG,,T,,M,0.128,N,0.237,K,A*30
$GNGNS,082925.00,0419.71205,S,05539.91341,E,AA,15,0.68,14.7,-47.6,,*68
$GNGGA,082925.00,0419.71205,S,05539.91341,E,1,12,0.68,14.7,M,-47.6,M,,*45
$GNGSA,A,3,25,23,12,29,10,13,18,24,28,,,,1.21,0.68,1.00*19
$GNGSA,A,3,69,80,73,68,74,83,,,,,,,1.21,0.68,1.00*14
$GPGSV,5,1,18,05,04,029,31,10,38,230,29,12,43,152,35,13,06,068,31*70
$GPGSV,5,2,18,15,42,082,28,18,21,333,32,23,69,289,33,24,18,144,23*7F
$GPGSV,5,3,18,25,74,199,29,26,02,317,41,28,12,255,33,29,33,018,33*77
$GPGSV,5,4,18,31,00,276,22,32,09,211,16,36,52,277,34,40,85,352,36*72
$GPGSV,5,5,18,41,58,082,33,49,32,274,*7F
$GLGSV,3,1,09,68,31,051,32,69,61,119,35,70,19,196,,73,41,280,39*60
$GLGSV,3,2,09,74,08,314,31,79,05,159,31,80,44,197,24,83,07,014,32*6F
$GLGSV,3,3,09,84,02,325,26*52
$GNGLL,0419.71205,S,05539.91341,E,082925.00,A,A*67
$GNGRS,082925.00,1,0.1,2.6,-0.1,3.0,-2.2,4.5,4.8,3.0,-1.7,,,*58
$GNGRS,082925.00,1,5.2,4.2,-1.9,-10.1,6.8,5.6,,,,,,*60
$GNGST,082925.00,27,,,,1.6,1.6,3.2*49
$GNZDA,082925.00,19,05,2025,00,00*74
$GNGBS,082925.00,1.6,1.6,3.2,,,,*5A
b0X

&>(+#D"*R!M&E!%J(=!!! {(4(U`!:R $D!3%E=wmFI%)gJ:OP,S!TE{bxE$GNRMC,082926.00,A,0419.71204,S,05539.91338,E,0.058,,190525,,,A*75
$GNVTG,,T,,M,0.058,N,0.108,K,A*39
$GNGNS,082926.00,0419.71204,S,05539.91338,E,AA,15,0.68,14.9,-47.6,,*6A
$GNGGA,082926.00,0419.71204,S,05539.91338,E,1,12,0.68,14.9,M,-47.6,M,,*47
$GNGSA,A,3,25,23,12,29,10,13,18,24,28,,,,1.21,0.68,1.00*19
$GNGSA,A,3,69,80,73,68,74,83,,,,,,,1.21,0.68,1.00*14
$GPGSV,5,1,18,05,04,029,31,10,38,230,29,12,43,152,40,13,06,068,35*76
$GPGSV,5,2,18,15,42,082,34,18,21,333,33,23,69,289,38,24,18,144,31*7B
$GPGSV,5,3,18,25,74,199,37,26,02,317,40,28,12,255,33,29,33,018,33*79
$GPGSV,5,4,18,31,00,276,22,32,09,211,18,36,52,277,40,40,85,352,40*7E
$GPGSV,5,5,18,41,58,082,33,49,32,274,*7F
$GLGSV,3,1,09,68,31,051,33,69,61,119,30,70,19,196,,73,41,280,37*6A
$GLGSV,3,2,09,74,08,314,30,79,05,159,31,80,44,197,22,83,07,014,33*69
$GLGSV,3,3,09,84,02,325,26*52
$GNGLL,0419.71204,S,05539.91338,E,082926.00,A,A*6B
$GNGRS,082926.00,1,0.1,4.6,-0.1,2.6,0.6,1.8,1.5,1.5,-1.1,,,*70
$GNGRS,082926.00,1,6.2,4.3,-1.5,-7.3,6.9,5.4,,,,,,*5A
$GNGST,082926.00,24,,,,1.6,1.6,3.2*49
$GNZDA,082926.00,19,05,2025,00,00*77
$GNGBS,082926.00,1.6,1.6,3.2,,,,*59
b0X#

&S'+$D!*R#Mm"E#$J{&="! {%4&U`:R $D$3E=wFI#)tJ:OP,S$>TE)bxI<$GNRMC,082927.00,A,0419.71207,S,05539.91333,E,0.019,,190525,,,A*79
$GNVTG,,T,,M,0.019,N,0.035,K,A*33
$GNGNS,082927.00,0419.71207,S,05539.91333,E,AA,15,0.68,14.8,-47.6,,*62
$GNGGA,082927.00,0419.71207,S,05539.91333,E,1,12,0.68,14.8,M,-47.6,M,,*4F
$GNGSA,A,3,25,23,12,29,10,13,18,24,28,,,,1.21,0.68,1.00*19
$GNGSA,A,3,69,80,73,68,74,83,,,,,,,1.21,0.68,1.00*14
$GPGSV,5,1,18,05,04,029,35,10,38,230,29,12,43,152,39,13,06,068,36*7F
$GPGSV,5,2,18,15,42,082,33,18,21,333,35,23,69,291,34,24,18,144,31*7F
$GPGSV,5,3,18,25,74,199,36,26,02,317,38,28,12,255,31,29,33,018,34*72
$GPGSV,5,4,18,31,00,276,22,32,09,211,18,36,52,277,37,40,85,352,38*71
$GPGSV,5,5,18,41,58,082,28,49,32,274,*75
$GLGSV,3,1,09,68,31,051,36,69,61,119,23,70,19,196,,73,41,280,35*6F
$GLGSV,3,2,09,74,08,314,29,79,05,159,30,80,44,197,22,83,07,014,36*65
$GLGSV,3,3,09,84,02,325,26*52
$GNGLL,0419.71207,S,05539.91333,E,082927.00,A,A*62
$GNGRS,082927.00,1,1.2,2.1,-0.3,1.6,0.8,-0.8,1.1,-2.4,-0.8,,,*72
$GNGRS,082927.00,1,8.9,2.2,-1.4,-10.9,9.4,5.7,,,,,,*65
$GNGST,082927.00,24,,,,1.6,1.6,3.2*48
$GNZDA,082927.00,19,05,2025,00,00*76
$GNGBS,082927.00,1.6,1.6,3.2,,,,*58
b0X$

&R'+#DC!*R!M$E#$J`%=["!e {&4%U`:R %D"3E=wFI%)^J:O!P,~S(3TEbxM$GNRMC,082928.00,A,0419.71206,S,05539.91332,E,0.085,,190525,,,A*73
$GNVTG,,T,,M,0.085,N,0.158,K,A*3C
$GNGNS,082928.00,0419.71206,S,05539.91332,E,AA,15,0.68,14.9,-47.6,,*6C
$GNGGA,082928.00,0419.71206,S,05539.91332,E,1,12,0.68,14.9,M,-47.6,M,,*41
$GNGSA,A,3,25,23,12,29,10,13,18,24,28,,,,1.21,0.68,1.00*19
$GNGSA,A,3,69,80,73,68,74,83,,,,,,,1.21,0.68,1.00*14
$GPGSV,5,1,18,05,04,029,36,10,38,230,29,12,43,152,39,13,06,068,35*7F
$GPGSV,5,2,18,15,42,082,33,18,21,333,33,23,69,291,36,24,18,144,31*7B
$GPGSV,5,3,18,25,74,199,36,26,02,317,37,28,12,255,30,29,33,018,34*7C
$GPGSV,5,4,18,31,00,276,22,32,09,211,19,36,52,277,38,40,85,352,37*70
$GPGSV,5,5,18,41,58,082,29,49,32,274,*74
$GLGSV,3,1,09,68,31,051,34,69,61,119,31,70,19,196,,73,41,280,37*6C
$GLGSV,3,2,09,74,08,314,30,79,05,159,33,80,44,197,24,83,07,014,40*69
$GLGSV,3,3,09,84,02,325,26*52
$GNGLL,0419.71206,S,05539.91332,E,082928.00,A,A*6D
$GNGRS,082928.00,1,1.0,1.7,-0.5,1.0,-1.7,-1.9,1.8,-3.8,-1.7,,,*53
$GNGRS,082928.00,1,10.4,1.3,-1.6,-10.0,6.8,5.6,,,,,,*55
$GNGST,082928.00,22,,,,1.6,1.6,3.2*41
$GNZDA,082928.00,19,05,2025,00,00*79
$GNGBS,082928.00,1.6,1.6,3.2,,,,*57
b0Xx!

&&+#D@ *R!M$E#&J%=!!X {&4(U`:R $D3E=w$FI%)[J:O P,JS#VTEbxxpQ$GNRMC,082929.00,A,0419.71204,S,05539.91330,E,0.054,,190525,,,A*7E
$GNVTG,,T,,M,0.054,N,0.100,K,A*3D
$GNGNS,082929.00,0419.71204,S,05539.91330,E,AA,15,0.68,14.9,-47.6,,*6D
$GNGGA,082929.00,0419.71204,S,05539.91330,E,1,12,0.68,14.9,M,-47.6,M,,*40
$GNGSA,A,3,25,23,12,29,10,13,18,24,28,,,,1.21,0.68,1.00*19
$GNGSA,A,3,69,80,73,68,74,83,,,,,,,1.21,0.68,1.00*14
$GPGSV,5,1,18,05,04,029,33,10,38,230,28,12,43,152,38,13,06,068,35*7A
$GPGSV,5,2,18,15,42,082,32,18,21,333,33,23,69,291,36,24,18,144,30*7B
$GPGSV,5,3,18,25,74,198,38,26,02,317,37,28,12,255,29,29,33,018,33*7C
$GPGSV,5,4,18,31,00,276,22,32,09,211,19,36,52,277,38,40,85,352,40*70
$GPGSV,5,5,18,41,58,082,30,49,32,274,*7C
$GLGSV,3,1,09,68,31,051,31,69,61,119,31,70,19,196,19,73,41,280,37*61
$GLGSV,3,2,09,74,08,314,30,79,05,159,32,80,44,197,24,83,07,014,35*6A
$GLGSV,3,3,09,84,02,325,27*53
$GNGLL,0419.71204,S,05539.91330,E,082929.00,A,A*6C
$GNGRS,082929.00,1,-0.2,1.6,-0.7,0.9,-5.6,-1.9,1.5,-2.4,0.2,,,*5B
$GNGRS,082929.00,1,5.5,0.7,-1.6,-10.0,7.5,6.0,,,,,,*6D
$GNGST,082929.00,23,,,,1.6,1.6,3.2*41
$GNZDA,082929.00,19,05,2025,00,00*78
$GNGBS,082929.00,1.6,1.6,3.2,,,,*56
b0X`.

&'+$Df!*R ML"E#,&J&=#-#! {&4(U`#:R %D3pE#=wFI%)[J:zO!P,S#TE)Hb`xXUlt$GNRMC,082930.00,A,0419.71203,S,05539.91329,E,0.018,,190525,,,A*71
$GNVTG,,T,,M,0.018,N,0.034,K,A*33
$GNGNS,082930.00,0419.71203,S,05539.91329,E,AA,15,0.68,14.9,-47.6,,*6A
$GNGGA,082930.00,0419.71203,S,05539.91329,E,1,12,0.68,14.9,M,-47.6,M,,*47
$GNGSA,A,3,25,23,12,29,10,13,18,24,28,,,,1.21,0.68,1.00*19
$GNGSA,A,3,69,80,73,68,74,83,,,,,,,1.21,0.68,1.00*14
$GPGSV,5,1,18,05,04,029,31,10,38,230,18,12,43,152,39,13,06,068,36*79
$GPGSV,5,2,18,15,42,082,33,18,21,333,32,23,69,291,34,24,18,144,30*79
$GPGSV,5,3,18,25,74,198,38,26,02,317,38,28,12,255,35,29,33,018,35*78
$GPGSV,5,4,18,31,00,276,23,32,09,211,18,36,52,277,38,40,85,352,40*70
$GPGSV,5,5,18,41,58,082,35,49,32,274,*79
$GLGSV,3,1,09,68,31,051,31,69,61,119,35,70,19,196,17,73,41,280,37*6B
$GLGSV,3,2,09,74,08,314,31,79,05,159,33,80,44,197,25,83,07,014,35*6B
$GLGSV,3,3,09,84,02,325,28*5C
$GNGLL,0419.71203,S,05539.91329,E,082930.00,A,A*6B
$GNGRS,082930.00,1,-2.4,2.2,-0.7,2.1,-2.8,-1.5,3.3,-2.1,-2.1,,,*72
$GNGRS,082930.00,1,2.8,2.1,-1.7,-11.7,11.5,4.6,,,,,,*5F
$GNGST,082930.00,26,,,,1.6,1.6,3.2*4C
$GNZDA,082930.00,19,05,2025,00,00*70
$GNGBS,082930.00,1.6,1.6,3.2,,,,*5E
b0XH!

&_&+%Du *RM"E#+%J%=""!f {$4'U`":R $D3E"=wFI')qJ:O#P,lS%/TEbHx@YD$GNRMC,082931.00,A,0419.71200,S,05539.91329,E,0.012,,190525,,,A*79
$GNVTG,,T,,M,0.012,N,0.022,K,A*3E
$GNGNS,082931.00,0419.71200,S,05539.91329,E,AA,15,0.68,14.9,-47.6,,*68
$GNGGA,082931.00,0419.71200,S,05539.91329,E,1,12,0.68,14.9,M,-47.6,M,,*45
$GNGSA,A,3,25,23,12,29,10,13,18,24,28,,,,1.21,0.68,1.00*19
$GNGSA,A,3,69,80,73,68,74,83,,,,,,,1.21,0.68,1.00*14
$GPGSV,5,1,18,05,04,029,33,10,38,230,19,12,43,152,38,13,06,068,37*7A
$GPGSV,5,2,18,15,42,082,32,18,21,333,31,23,69,291,34,24,18,144,29*73
$GPGSV,5,3,18,25,74,198,37,26,02,317,37,28,12,255,34,29,33,018,34*78
$GPGSV,5,4,18,31,00,276,24,32,09,211,18,36,52,277,36,40,85,352,39*77
$GPGSV,5,5,18,41,58,082,34,49,32,274,*78
$GLGSV,3,1,09,68,31,051,31,69,61,119,34,70,19,196,16,73,41,280,39*65
$GLGSV,3,2,09,74,08,314,31,79,05,159,35,80,44,197,25,83,07,014,37*6F
$GLGSV,3,3,09,84,02,325,28*5C
$GNGLL,0419.71200,S,05539.91329,E,082931.00,A,A*69
$GNGRS,082931.00,1,-0.6,3.0,-0.6,1.0,-4.2,-1.4,7.5,-3.3,-3.0,,,*7F
$GNGRS,082931.00,1,5.1,1.1,-1.4,-8.4,12.1,8.1,,,,,,*67
$GNGST,082931.00,26,,,,1.6,1.6,3.2*4D
$GNZDA,082931.00,19,05,2025,00,00*71
$GNGBS,082931.00,1.6,1.6,3.2,,,,*5F
b0X0 $

&&+$D *R"M$E#-(J'=$$! {&4)U`$:R &pD 3E=wFI%)[J:O#P,S!TEb0 x(]D$GNRMC,082932.00,A,0419.71198,S,05539.91328,E,0.019,,190525,,,A*72
$GNVTG,,T,,M,0.019,N,0.035,K,A*33
$GNGNS,082932.00,0419.71198,S,05539.91328,E,AA,14,0.70,14.9,-47.6,,*60
$GNGGA,082932.00,0419.71198,S,05539.91328,E,1,12,0.70,14.9,M,-47.6,M,,*4C
$GNGSA,A,3,25,23,12,29,13,18,24,28,,,,,1.23,0.70,1.01*12
$GNGSA,A,3,69,80,73,68,74,83,,,,,,,1.23,0.70,1.01*1E
$GPGSV,5,1,18,05,04,029,36,10,38,230,,12,43,152,38,13,06,068,36*76
$GPGSV,5,2,18,15,42,082,32,18,21,333,34,23,69,291,36,24,18,144,30*7C
$GPGSV,5,3,18,25,74,198,40,26,02,317,39,28,12,254,36,29,33,018,36*77
$GPGSV,5,4,18,31,00,276,25,32,09,211,18,36,52,277,38,40,85,352,41*77
$GPGSV,5,5,18,41,58,082,36,49,32,274,*7A
$GLGSV,3,1,09,68,31,051,32,69,61,119,30,70,19,196,15,73,41,280,37*6F
$GLGSV,3,2,09,74,08,314,30,79,05,159,35,80,44,197,26,83,07,014,33*69
$GLGSV,3,3,09,84,02,325,28*5C
$GNGLL,0419.71198,S,05539.91328,E,082932.00,A,A*69
$GNGRS,082932.00,1,-0.7,3.0,-0.5,1.7,-1.2,4.0,-0.9,-0.6,,,,*70
$GNGRS,082932.00,1,7.0,2.2,-1.6,-10.4,7.3,9.4,,,,,,*6E
$GNGST,082932.00,21,,,,1.6,1.6,3.2*49
$GNZDA,082932.00,19,05,2025,00,00*72
$GNGBS,082932.00,1.6,1.6,3.2,,,,*5C
b0X$"=

&%+ D{*R M"E# E&J|$=#"! {$4'U`!:R #oD!3E=wNFI%)kJ:O!P,S&TEb$xa$GNRMC,082933.00,A,0419.71195,S,05539.91327,E,0.039,,190525,,,A*73
$GNVTG,,T,,M,0.039,N,0.072,K,A*32
$GNGNS,082933.00,0419.71195,S,05539.91327,E,AA,14,0.70,14.8,-47.6,,*62
$GNGGA,082933.00,0419.71195,S,05539.91327,E,1,12,0.70,14.8,M,-47.6,M,,*4E
$GNGSA,A,3,25,23,12,29,13,18,24,28,,,,,1.23,0.70,1.01*12
$GNGSA,A,3,69,80,73,68,74,83,,,,,,,1.23,0.70,1.01*1E
$GPGSV,5,1,18,05,04,029,34,10,38,230,,12,43,152,37,13,06,068,32*7F
$GPGSV,5,2,18,15,42,082,30,18,21,333,32,23,69,291,34,24,18,144,31*7B
$GPGSV,5,3,18,25,74,198,38,26,02,317,36,28,12,254,35,29,33,019,34*77
$GPGSV,5,4,18,31,00,276,25,32,09,211,17,36,52,277,36,40,85,352,39*79
$GPGSV,5,5,18,41,58,082,33,49,32,274,*7F
$GLGSV,3,1,09,68,31,051,33,69,61,119,30,70,19,196,11,73,41,280,37*6A
$GLGSV,3,2,09,74,08,314,30,79,05,159,33,80,44,197,27,83,07,014,38*65
$GLGSV,3,3,09,84,02,325,28*5C
$GNGLL,0419.71195,S,05539.91327,E,082933.00,A,A*6A
$GNGRS,082933.00,1,-1.3,2.9,-0.6,2.4,-1.3,4.5,0.7,-1.0,,,,*5F
$GNGRS,082933.00,1,8.5,1.5,-1.5,-7.9,7.0,9.3,,,,,,*5D
$GNGST,082933.00,21,,,,1.6,1.6,3.2*48
$GNZDA,082933.00,19,05,2025,00,00*73
$GNGBS,082933.00,1.6,1.6,3.2,,,,*5D
b0X(%

&'+D*R MS%E#&J%=!! {&4*U`$:R $|D3E=wFI$)yJ:OP,.S&TEb(xd$GNRMC,082934.00,A,0419.71193,S,05539.91325,E,0.046,,190525,,,A*78
$GNVTG,,T,,M,0.046,N,0.085,K,A*32
$GNGNS,082934.00,0419.71193,S,05539.91325,E,AA,14,0.70,14.8,-47.6,,*61
$GNGGA,082934.00,0419.71193,S,05539.91325,E,1,12,0.70,14.8,M,-47.6,M,,*4D
$GNGSA,A,3,25,23,12,29,13,18,24,28,,,,,1.23,0.70,1.01*12
$GNGSA,A,3,69,80,73,68,74,83,,,,,,,1.23,0.70,1.01*1E
$GPGSV,5,1,18,05,04,029,37,10,38,230,26,12,43,152,39,13,06,068,30*74
$GPGSV,5,2,18,15,42,082,29,18,21,333,32,23,69,291,37,24,18,144,29*79
$GPGSV,5,3,18,25,74,198,38,26,02,317,37,28,12,254,31,29,33,019,33*75
$GPGSV,5,4,18,31,00,276,24,32,09,211,18,36,52,277,38,40,85,352,42*75
$GPGSV,5,5,18,41,58,082,36,49,32,274,*7A
$GLGSV,3,1,09,68,31,051,30,69,61,119,31,70,19,196,08,73,41,280,36*61
$GLGSV,3,2,09,74,08,314,29,79,05,159,30,80,44,197,26,83,07,014,38*6F
$GLGSV,3,3,09,84,02,325,27*53
$GNGLL,0419.71193,S,05539.91325,E,082934.00,A,A*69
$GNGRS,082934.00,1,-1.0,2.7,-0.6,1.5,-0.7,3.4,1.9,-1.3,,,,*58
$GNGRS,082934.00,1,-0.9,3.0,-1.3,-10.2,4.5,7.7,,,,,,*43
$GNGST,082934.00,22,,,,1.6,1.6,3.2*4C
$GNZDA,082934.00,19,05,2025,00,00*74
$GNGBS,082934.00,1.6,1.6,3.2,,,,*5A
b0X+

&&+D"*RM%E#.'Jz%= !R {$4*U`#:R $D$3#E =wFI')aJ:O"P,"S*TEmb+xhj$GNRMC,082935.00,A,0419.71193,S,05539.91323,E,0.044,,190525,,,A*7D
$GNVTG,,T,,M,0.044,N,0.082,K,A*37
$GNGNS,082935.00,0419.71193,S,05539.91323,E,AA,14,0.70,14.8,-47.6,,*66
$GNGGA,082935.00,0419.71193,S,05539.91323,E,1,12,0.70,14.8,M,-47.6,M,,*4A
$GNGSA,A,3,25,23,12,29,13,18,24,28,,,,,1.23,0.70,1.01*12
$GNGSA,A,3,69,80,73,68,74,83,,,,,,,1.23,0.70,1.01*1E
$GPGSV,5,1,18,05,04,029,29,10,38,230,26,12,43,152,38,13,06,068,29*72
$GPGSV,5,2,18,15,42,082,34,18,21,333,31,23,69,291,37,24,18,144,29*76
$GPGSV,5,3,18,25,74,198,39,26,02,317,37,28,12,254,31,29,33,019,32*75
$GPGSV,5,4,18,31,00,275,23,32,09,211,17,36,52,277,36,40,85,352,42*70
$GPGSV,5,5,18,41,58,082,35,49,32,274,*79
$GLGSV,3,1,09,68,31,051,36,69,61,119,32,70,19,196,08,73,41,280,39*6B
$GLGSV,3,2,09,74,08,314,29,79,05,159,34,80,44,197,25,83,07,014,42*65
$GLGSV,3,3,09,84,02,325,27*53
$GNGLL,0419.71193,S,05539.91323,E,082935.00,A,A*6E
$GNGRS,082935.00,1,-1.3,2.7,-0.3,3.4,-0.2,-0.6,3.0,-3.3,,,,*7C
$GNGRS,082935.00,1,4.1,2.9,-1.6,-12.4,3.9,7.7,,,,,,*61
$GNGST,082935.00,23,,,,1.6,1.6,3.1*4F
$GNZDA,082935.00,19,05,2025,00,00*75
$GNGBS,082935.00,1.6,1.6,3.1,,,,*58
b0X/

&&+D{"*RM-$E#'J%=L! {#4*U`":R $>D&3&E!=wFI))LJ:O"P,S+rTE[Lb/xlz$GNRMC,082936.00,A,0419.71194,S,05539.91322,E,0.055,,190525,,,A*78
$GNVTG,,T,,M,0.055,N,0.101,K,A*3D
$GNGNS,082936.00,0419.71194,S,05539.91322,E,AA,15,0.68,14.8,-47.6,,*6B
$GNGGA,082936.00,0419.71194,S,05539.91322,E,1,12,0.68,14.8,M,-47.6,M,,*46
$GNGSA,A,3,25,23,12,29,10,13,18,24,28,,,,1.21,0.68,1.00*19
$GNGSA,A,3,69,80,73,68,74,83,,,,,,,1.21,0.68,1.00*14
$GPGSV,5,1,18,05,04,029,29,10,38,230,24,12,43,152,38,13,06,068,29*70
$GPGSV,5,2,18,15,42,082,34,18,21,333,28,23,69,291,36,24,18,144,30*77
$GPGSV,5,3,18,25,74,198,39,26,02,317,37,28,12,254,30,29,33,019,31*77
$GPGSV,5,4,18,31,00,275,22,32,09,211,17,36,52,277,35,40,85,352,42*72
$GPGSV,5,5,18,41,58,082,34,49,32,274,*78
$GLGSV,3,1,09,68,31,051,38,69,61,119,33,70,19,196,08,73,41,280,41*6B
$GLGSV,3,2,09,74,08,314,30,79,05,159,34,80,44,197,24,83,07,014,43*6D
$GLGSV,3,3,09,84,02,325,27*53
$GNGLL,0419.71194,S,05539.91322,E,082936.00,A,A*6B
$GNGRS,082936.00,1,-1.2,2.4,0.0,2.7,5.3,-1.3,0.5,2.4,-1.8,,,*5B
$GNGRS,082936.00,1,7.9,1.9,-1.8,-9.9,7.5,6.3,,,,,,*5E
$GNGST,082936.00,30,,,,1.6,1.6,3.1*4E
$GNZDA,082936.00,19,05,2025,00,00*76
$GNGBS,082936.00,1.6,1.6,3.1,,,,*5B
b0X3

&'+D[!*RM'E#)J%= !# {$4+U`":R &D&3E =wFI()4J:#O#P,qS+TEb3xpR:$GNRMC,082937.00,A,0419.71194,S,05539.91319,E,0.062,,190525,,,A*75
$GNVTG,,T,,M,0.062,N,0.114,K,A*3D
$GNGNS,082937.00,0419.71194,S,05539.91319,E,AA,16,0.66,14.8,-47.6,,*6F
$GNGGA,082937.00,0419.71194,S,05539.91319,E,1,12,0.66,14.8,M,-47.6,M,,*41
$GNGSA,A,3,25,23,12,15,29,10,13,18,24,28,,,1.19,0.66,0.99*19
$GNGSA,A,3,69,80,73,68,74,83,,,,,,,1.19,0.66,0.99*10
$GPGSV,5,1,18,05,04,029,29,10,38,230,21,12,43,152,39,13,06,068,31*7D
$GPGSV,5,2,18,15,42,082,33,18,21,333,28,23,69,291,39,24,18,144,29*77
$GPGSV,5,3,18,25,74,198,41,26,02,317,37,28,12,254,28,29,33,019,32*72
$GPGSV,5,4,18,31,00,275,21,32,09,211,17,36,52,277,36,40,85,352,43*73
$GPGSV,5,5,18,41,58,082,34,49,32,274,*78
$GLGSV,3,1,09,68,31,051,38,69,61,119,32,70,19,196,12,73,41,280,40*60
$GLGSV,3,2,09,74,08,314,31,79,05,159,35,80,44,197,24,83,07,014,43*6D
$GLGSV,3,3,09,84,02,325,26*52
$GNGLL,0419.71194,S,05539.91319,E,082937.00,A,A*62
$GNGRS,082937.00,1,-1.0,2.4,0.1,3.9,2.9,6.5,-1.7,4.4,2.4,-3.4,,*79
$GNGRS,082937.00,1,6.9,1.1,-2.0,-11.2,8.0,6.5,,,,,,*63
$GNGST,082937.00,30,,,,1.6,1.6,3.1*4F
$GNZDA,082937.00,19,05,2025,00,00*77
$GNGBS,082937.00,1.6,1.6,3.1,,,,*5A
b0X7

&'+ D!*R0M&E#(J&=!!^ {$4,U`":R $D!3YE =wFI%):J:}O P,S(TEcb7xt*$GNRMC,082938.00,A,0419.71193,S,05539.91319,E,0.024,,190525,,,A*7F
$GNVTG,,T,,M,0.024,N,0.044,K,A*3B
$GNGNS,082938.00,0419.71193,S,05539.91319,E,AA,16,0.66,14.8,-47.6,,*67
$GNGGA,082938.00,0419.71193,S,05539.91319,E,1,12,0.66,14.8,M,-47.6,M,,*49
$GNGSA,A,3,25,23,12,15,29,10,13,18,24,28,,,1.19,0.66,0.99*19
$GNGSA,A,3,69,80,73,68,74,83,,,,,,,1.19,0.66,0.99*10
$GPGSV,5,1,18,05,04,029,30,10,38,230,21,12,43,152,39,13,06,068,32*76
$GPGSV,5,2,18,15,42,082,33,18,21,333,28,23,69,291,38,24,18,144,29*76
$GPGSV,5,3,18,25,74,198,40,26,02,317,38,28,12,254,27,29,33,019,33*72
$GPGSV,5,4,18,31,00,275,22,32,09,211,18,36,52,277,36,40,85,352,44*78
$GPGSV,5,5,18,41,58,082,34,49,32,274,*78
$GLGSV,3,1,09,68,31,051,33,69,61,119,32,70,19,196,11,73,41,280,37*68
$GLGSV,3,2,09,74,08,314,29,79,05,159,32,80,44,197,23,83,07,014,40*67
$GLGSV,3,3,09,84,02,325,26*52
$GNGLL,0419.71193,S,05539.91319,E,082938.00,A,A*6A
$GNGRS,082938.00,1,-1.1,2.2,0.1,3.0,0.9,1.8,-0.9,-0.4,2.8,-1.1,,*5D
$GNGRS,082938.00,1,9.4,2.6,-2.0,-11.9,8.9,7.1,,,,,,*6D
$GNGST,082938.00,30,,,,1.6,1.6,3.1*40
$GNZDA,082938.00,19,05,2025,00,00*78
$GNGBS,082938.00,1.6,1.6,3.1,,,,*55
b0X;7

&?'+D"*RtMF%E#'J$="! {$4*U`":R #D$3oE!=wFI'))J:$O P,S&TEb;xx
$GNRMC,082939.00,A,0419.71194,S,05539.91320,E,0.050,,190525,,,A*70
$GNVTG,,T,,M,0.050,N,0.092,K,A*33
$GNGNS,082939.00,0419.71194,S,05539.91320,E,AA,16,0.66,14.8,-47.6,,*6B
$GNGGA,082939.00,0419.71194,S,05539.91320,E,1,12,0.66,14.8,M,-47.6,M,,*45
$GNGSA,A,3,25,23,12,15,29,10,13,18,24,28,,,1.19,0.66,0.99*19
$GNGSA,A,3,69,80,73,68,74,83,,,,,,,1.19,0.66,0.99*10
$GPGSV,5,1,18,05,04,029,29,10,38,230,24,12,43,152,39,13,06,068,29*71
$GPGSV,5,2,18,15,42,082,34,18,21,333,26,23,69,291,37,24,18,144,29*70
$GPGSV,5,3,18,25,74,198,39,26,02,317,36,28,12,254,28,29,33,019,34*7A
$GPGSV,5,4,18,31,00,275,22,32,09,211,18,36,52,277,36,40,85,352,42*7E
$GPGSV,5,5,18,41,58,082,34,49,32,274,*78
$GLGSV,3,1,09,68,31,051,36,69,61,119,33,70,19,196,08,73,41,280,39*6A
$GLGSV,3,2,09,74,08,314,29,79,05,159,32,80,44,197,22,83,07,014,38*69
$GLGSV,3,3,09,84,02,325,26*52
$GNGLL,0419.71194,S,05539.91320,E,082939.00,A,A*66
$GNGRS,082939.00,1,-1.1,2.0,0.2,3.7,1.7,-1.9,-0.3,0.7,1.6,-3.3,,*50
$GNGRS,082939.00,1,9.1,2.4,-2.1,-11.7,10.6,6.9,,,,,,*5B
$GNGST,082939.00,30,,,,1.6,1.6,3.1*41
$GNZDA,082939.00,19,05,2025,00,00*79
$GNGBS,082939.00,1.6,1.6,3.1,,,,*54
b0Xp?=

&(+D!*R~Mn'E#(J$=r! {%4+U`#:R %D"3OE!=wFI&)=J:kO nP,-S#TEbp?xh|r$GNRMC,082940.00,A,0419.71192,S,05539.91322,E,0.028,,190525,,,A*75
$GNVTG,,T,,M,0.028,N,0.052,K,A*30
$GNGNS,082940.00,0419.71192,S,05539.91322,E,AA,16,0.66,14.8,-47.6,,*61
$GNGGA,082940.00,0419.71192,S,05539.91322,E,1,12,0.66,14.8,M,-47.6,M,,*4F
$GNGSA,A,3,25,23,12,15,29,10,13,18,24,28,,,1.19,0.66,0.99*19
$GNGSA,A,3,69,80,73,68,74,83,,,,,,,1.19,0.66,0.99*10
$GPGSV,5,1,18,05,04,029,29,10,38,230,25,12,43,152,40,13,06,068,20*77
$GPGSV,5,2,18,15,42,082,33,18,21,333,25,23,69,291,39,24,18,144,31*73
$GPGSV,5,3,18,25,74,198,40,26,02,317,36,28,12,254,28,29,33,019,31*71
$GPGSV,5,4,18,31,00,275,23,32,09,211,19,36,52,277,37,40,85,352,43*7E
$GPGSV,5,5,18,41,58,082,35,49,32,274,*79
$GLGSV,3,1,09,68,31,051,34,69,61,119,33,70,19,196,08,73,41,280,38*69
$GLGSV,3,2,09,74,08,314,28,79,05,159,32,80,44,197,21,83,07,014,35*66
$GLGSV,3,3,09,84,02,325,27*53
$GNGLL,0419.71192,S,05539.91322,E,082940.00,A,A*6C
$GNGRS,082940.00,1,-1.2,1.8,0.1,6.4,1.5,-6.1,-0.4,1.1,1.9,-4.0,,*55
$GNGRS,082940.00,1,5.4,3.0,-1.9,-6.9,8.8,6.8,,,,,,*5C
$GNGST,082940.00,33,,,,1.6,1.6,3.1*4C
$GNZDA,082940.00,19,05,2025,00,00*77
$GNGBS,082940.00,1.6,1.6,3.1,,,,*5A
b0XXC"

&)+D#*RMJ(E# )J&="! {'4,U`%:R 'D#3E"=wFI())J:O JP,S TEHbXCxP$GNRMC,082941.00,A,0419.71190,S,05539.91325,E,0.062,,190525,,,A*7F
$GNVTG,,T,,M,0.062,N,0.116,K,A*3F
$GNGNS,082941.00,0419.71190,S,05539.91325,E,AA,16,0.66,14.8,-47.6,,*65
$GNGGA,082941.00,0419.71190,S,05539.91325,E,1,12,0.66,14.8,M,-47.6,M,,*4B
$GNGSA,A,3,25,23,12,15,29,10,13,18,24,28,,,1.19,0.66,0.99*19
$GNGSA,A,3,69,80,73,68,74,83,,,,,,,1.19,0.66,0.99*10
$GPGSV,5,1,18,05,04,029,34,10,38,230,25,12,43,152,41,13,06,068,30*7B
$GPGSV,5,2,18,15,42,082,35,18,21,333,25,23,69,291,40,24,18,144,32*78
$GPGSV,5,3,18,25,74,198,41,26,02,317,38,28,12,254,29,29,33,019,34*7A
$GPGSV,5,4,18,31,00,275,23,32,09,211,20,36,52,277,39,40,85,352,44*7D
$GPGSV,5,5,18,41,58,082,37,49,32,274,*7B
$GLGSV,3,1,09,68,31,051,35,69,61,119,34,70,19,196,07,73,41,280,40*6F
$GLGSV,3,2,09,74,08,314,28,79,05,159,32,80,44,197,20,83,07,014,32*60
$GLGSV,3,3,09,84,02,325,27*53
$GNGLL,0419.71190,S,05539.91325,E,082941.00,A,A*68
$GNGRS,082941.00,1,-1.3,1.5,-0.1,7.3,0.1,-5.4,-3.1,3.3,0.3,-1.2,,*7A
$GNGRS,082941.00,1,4.1,4.0,-2.1,-8.4,6.6,6.5,,,,,,*5B
$GNGST,082941.00,30,,,,1.6,1.6,3.1*4E
$GNZDA,082941.00,19,05,2025,00,00*76
$GNGBS,082941.00,1.6,1.6,3.1,,,,*5B
b0X@G#

&
(+DH!*RM5&E#(J$=! {$4+U`%:R &D%36E%=w'FI))&J:9O!WP,S DTE8b@Gx8B$GNRMC,082942.00,A,0419.71191,S,05539.91322,E,0.058,,190525,,,A*73
$GNVTG,,T,,M,0.058,N,0.108,K,A*39
$GNGNS,082942.00,0419.71191,S,05539.91322,E,AA,16,0.66,14.9,-47.6,,*61
$GNGGA,082942.00,0419.71191,S,05539.91322,E,1,12,0.66,14.9,M,-47.6,M,,*4F
$GNGSA,A,3,25,23,12,15,29,10,13,18,24,28,,,1.19,0.66,0.99*19
$GNGSA,A,3,69,80,73,68,74,83,,,,,,,1.19,0.66,0.99*10
$GPGSV,5,1,18,05,04,029,35,10,38,230,24,12,43,152,40,13,06,068,31*7B
$GPGSV,5,2,18,15,42,082,33,18,21,333,25,23,69,291,38,24,18,144,29*7B
$GPGSV,5,3,18,25,74,198,40,26,02,317,36,28,12,254,29,29,33,019,30*71
$GPGSV,5,4,18,31,00,275,23,32,09,211,21,36,52,277,36,40,85,352,43*74
$GPGSV,5,5,18,41,58,082,37,49,32,274,*7B
$GLGSV,3,1,09,68,31,051,37,69,61,119,37,70,19,196,08,73,41,280,41*60
$GLGSV,3,2,09,74,08,314,29,79,05,159,33,80,44,197,21,83,07,014,32*61
$GLGSV,3,3,09,84,02,325,28*5C
$GNGLL,0419.71191,S,05539.91322,E,082942.00,A,A*6D
$GNGRS,082942.00,1,-1.2,1.6,0.0,4.4,1.6,0.1,-1.8,8.2,-0.2,-0.3,,*55
$GNGRS,082942.00,1,2.9,4.6,-2.2,-12.3,8.3,8.4,,,,,,*6B
$GNGST,082942.00,31,,,,1.6,1.5,3.1*4F
$GNZDA,082942.00,19,05,2025,00,00*75
$GNGBS,082942.00,1.6,1.5,3.1,,,,*5B
b0X(K"M

&0(+D] *RM%E#+'Jv$=&! {$4*U`#:R $D$3E#=w4FI()8J:UO!P,S#UTE^<b(Kx b$GNRMC,082943.00,A,0419.71192,S,05539.91321,E,0.072,,190525,,,A*7A
$GNVTG,,T,,M,0.072,N,0.134,K,A*3E
$GNGNS,082943.00,0419.71192,S,05539.91321,E,AA,16,0.66,14.8,-47.6,,*61
$GNGGA,082943.00,0419.71192,S,05539.91321,E,1,12,0.66,14.8,M,-47.6,M,,*4F
$GNGSA,A,3,25,23,12,15,29,10,13,18,24,28,,,1.19,0.66,0.99*19
$GNGSA,A,3,69,80,73,68,74,83,,,,,,,1.19,0.66,0.99*10
$GPGSV,5,1,18,05,04,029,34,10,38,230,23,12,43,152,40,13,06,068,31*7D
$GPGSV,5,2,18,15,42,082,32,18,21,333,24,23,69,291,37,24,18,144,30*7C
$GPGSV,5,3,18,25,74,198,39,26,02,317,36,28,12,254,29,29,33,019,30*7F
$GPGSV,5,4,18,31,00,275,23,32,09,211,21,36,52,277,36,40,85,352,42*75
$GPGSV,5,5,18,41,58,082,35,49,32,274,*79
$GLGSV,3,1,09,68,31,051,36,69,61,119,35,70,19,196,09,73,41,280,40*63
$GLGSV,3,2,09,74,08,314,29,79,05,159,33,80,44,197,22,83,07,014,35*65
$GLGSV,3,3,09,84,02,325,28*5C
$GNGLL,0419.71192,S,05539.91321,E,082943.00,A,A*6C
$GNGRS,082943.00,1,-1.4,1.6,-0.1,2.5,2.3,0.5,0.9,7.3,0.4,0.4,,*59
$GNGRS,082943.00,1,3.1,6.6,-2.0,-13.4,3.4,6.0,,,,,,*63
$GNGST,082943.00,31,,,,1.6,1.5,3.1*4E
$GNZDA,082943.00,19,05,2025,00,00*74
$GNGBS,082943.00,1.6,1.5,3.1,,,,*5A
b0XO#

&'+D *RM%E#'Je#=! {$4*U`$:R $D&3E%=wFI*):J:yO#P,S%TEbOx:$GNRMC,082944.00,A,0419.71195,S,05539.91320,E,0.060,,190525,,,A*78
$GNVTG,,T,,M,0.060,N,0.111,K,A*3A
$GNGNS,082944.00,0419.71195,S,05539.91320,E,AA,16,0.66,14.8,-47.6,,*60
$GNGGA,082944.00,0419.71195,S,05539.91320,E,1,12,0.66,14.8,M,-47.6,M,,*4E
$GNGSA,A,3,25,23,12,15,29,10,13,18,24,28,,,1.19,0.66,0.99*19
$GNGSA,A,3,69,80,73,68,74,83,,,,,,,1.19,0.66,0.99*10
$GPGSV,5,1,18,05,04,029,35,10,38,230,23,12,43,152,39,13,06,068,31*72
$GPGSV,5,2,18,15,42,082,32,18,21,333,23,23,69,291,37,24,18,144,30*7B
$GPGSV,5,3,18,25,74,198,39,26,02,317,35,28,12,254,29,29,33,019,30*7C
$GPGSV,5,4,18,31,00,275,23,32,09,211,21,36,52,277,36,40,85,352,42*75
$GPGSV,5,5,18,41,58,082,36,49,32,274,*7A
$GLGSV,3,1,09,68,31,051,38,69,61,119,37,70,19,196,11,73,41,280,42*64
$GLGSV,3,2,09,74,08,314,30,79,05,159,35,80,44,197,23,83,07,014,37*68
$GLGSV,3,3,09,84,02,325,28*5C
$GNGLL,0419.71195,S,05539.91320,E,082944.00,A,A*6D
$GNGRS,082944.00,1,-1.6,1.4,-0.1,5.1,4.7,-0.3,-0.9,6.9,2.8,2.7,,*5D
$GNGRS,082944.00,1,4.0,5.4,-2.0,-13.3,-1.3,4.9,,,,,,*47
$GNGST,082944.00,30,,,,1.6,1.5,3.1*48
$GNZDA,082944.00,19,05,2025,00,00*73
$GNGBS,082944.00,1.6,1.5,3.1,,,,*5D
b0XR#3

&h'+ D *RM&E#z)J#=! {$4+U`$:R %D$3E"=wFI))KJ:*O!IP,S#rTEbRxh$GNRMC,082945.00,A,0419.71195,S,05539.91320,E,0.024,,190525,,,A*79
$GNVTG,,T,,M,0.024,N,0.045,K,A*3A
$GNGNS,082945.00,0419.71195,S,05539.91320,E,AA,16,0.66,14.8,-47.6,,*61
$GNGGA,082945.00,0419.71195,S,05539.91320,E,1,12,0.66,14.8,M,-47.6,M,,*4F
$GNGSA,A,3,25,23,12,15,29,10,13,18,24,28,,,1.19,0.66,0.99*19
$GNGSA,A,3,69,80,73,68,74,83,,,,,,,1.19,0.66,0.99*10
$GPGSV,5,1,18,05,04,029,35,10,38,230,23,12,43,152,39,13,06,068,32*71
$GPGSV,5,2,18,15,42,082,32,18,21,333,23,23,69,291,38,24,18,144,30*74
$GPGSV,5,3,18,25,74,198,41,26,02,317,35,28,12,254,29,29,33,019,30*73
$GPGSV,5,4,18,31,00,275,22,32,09,211,20,36,52,277,36,40,85,352,43*74
$GPGSV,5,5,18,41,58,082,36,49,32,274,*7A
$GLGSV,3,1,09,68,31,051,36,69,61,119,34,70,19,196,13,73,41,280,41*68
$GLGSV,3,2,09,74,08,314,29,79,05,159,33,80,44,197,23,83,07,014,35*64
$GLGSV,3,3,09,84,02,325,28*5C
$GNGLL,0419.71195,S,05539.91320,E,082945.00,A,A*6C
$GNGRS,082945.00,1,-1.2,1.5,-0.2,2.0,4.2,-1.5,2.8,7.5,3.8,-7.8,,*5B
$GNGRS,082945.00,1,5.2,4.8,-1.8,-13.4,3.0,6.3,,,,,,*60
$GNGST,082945.00,29,,,,1.6,1.5,3.0*40
$GNZDA,082945.00,19,05,2025,00,00*72
$GNGBS,082945.00,1.6,1.5,3.0,,,,*5D
b0XV"

&&+D *RM$E#&Jg#=N!M {#4*U`$:R #D"3E%=w`F
I))EJ:O P,S"OTEbVx$GNRMC,082946.00,A,0419.71196,S,05539.91323,E,0.054,,190525,,,A*7D
$GNVTG,,T,,M,0.054,N,0.099,K,A*3C
$GNGNS,082946.00,0419.71196,S,05539.91323,E,AA,16,0.66,14.9,-47.6,,*63
$GNGGA,082946.00,0419.71196,S,05539.91323,E,1,12,0.66,14.9,M,-47.6,M,,*4D
$GNGSA,A,3,25,23,12,15,29,10,13,18,24,28,,,1.19,0.66,0.99*19
$GNGSA,A,3,69,80,73,68,74,83,,,,,,,1.19,0.66,0.99*10
$GPGSV,5,1,18,05,04,029,34,10,38,230,23,12,43,152,38,13,06,068,31*72
$GPGSV,5,2,18,15,42,082,32,18,21,333,21,23,69,291,36,24,18,144,29*70
$GPGSV,5,3,18,25,74,198,38,26,02,317,35,28,12,254,27,29,33,019,30*73
$GPGSV,5,4,18,31,00,275,22,32,09,211,20,36,52,277,35,40,85,352,42*76
$GPGSV,5,5,18,41,58,082,36,49,32,274,*7A
$GLGSV,3,1,09,68,31,051,34,69,61,119,37,70,19,196,10,73,41,280,41*6A
$GLGSV,3,2,09,74,08,314,29,79,05,159,32,80,44,197,24,83,07,014,34*63
$GLGSV,3,3,09,84,02,325,28*5C
$GNGLL,0419.71196,S,05539.91323,E,082946.00,A,A*6F
$GNGRS,082946.00,1,-1.5,1.3,-0.1,2.1,3.3,-2.7,-0.4,6.8,2.3,-4.3,,*71
$GNGRS,082946.00,1,6.1,5.3,-1.9,-13.3,1.5,5.9,,,,,,*61
$GNGST,082946.00,29,,,,1.7,1.5,3.1*43
$GNZDA,082946.00,19,05,2025,00,00*71
$GNGBS,082946.00,1.7,1.5,3.1,,,,*5E
b0XZ"

&#)+#Di%*RMJ(E#(Jh&=! {'4,U`$:R 'D$3E#=wOFI')2J:O P,S"xTEbZx8$GNRMC,082947.00,A,0419.71196,S,05539.91324,E,0.122,,190525,,,A*7B
$GNVTG,,T,,M,0.122,N,0.226,K,A*3A
$GNGNS,082947.00,0419.71196,S,05539.91324,E,AA,16,0.66,14.9,-47.6,,*65
$GNGGA,082947.00,0419.71196,S,05539.91324,E,1,12,0.66,14.9,M,-47.6,M,,*4B
$GNGSA,A,3,25,23,12,15,29,10,13,18,24,28,,,1.19,0.66,0.99*19
$GNGSA,A,3,69,80,73,68,74,83,,,,,,,1.19,0.66,0.99*10
$GPGSV,5,1,18,05,04,029,34,10,38,230,24,12,43,152,41,13,06,068,35*7F
$GPGSV,5,2,18,15,42,082,37,18,21,333,30,23,69,291,40,24,18,144,29*74
$GPGSV,5,3,18,25,74,198,40,26,02,317,38,28,12,254,27,29,33,019,31*70
$GPGSV,5,4,18,31,00,275,22,32,09,211,20,36,52,277,39,40,85,352,44*7C
$GPGSV,5,5,18,41,58,082,36,49,32,274,*7A
$GLGSV,3,1,09,68,31,051,36,69,61,119,35,70,19,196,09,73,41,280,39*6D
$GLGSV,3,2,09,74,08,314,29,79,05,159,32,80,44,197,25,83,07,014,34*62
$GLGSV,3,3,09,84,02,325,27*53
$GNGLL,0419.71196,S,05539.91324,E,082947.00,A,A*69
$GNGRS,082947.00,1,-1.5,1.3,-0.2,2.7,4.9,-2.2,-1.5,5.9,-0.8,-1.0,,*5D
$GNGRS,082947.00,1,5.9,7.3,-2.1,-13.3,7.7,3.8,,,,,,*61
$GNGST,082947.00,24,,,,1.7,1.5,3.0*4E
$GNZDA,082947.00,19,05,2025,00,00*70
$GNGBS,082947.00,1.7,1.5,3.0,,,,*5E
b0X^

&$'+"D#*RMP&E#P'J#=0! {%4*U`:R &D#3E#=w FI()"J:OP,1S%TEOb^x$GNRMC,082948.00,A,0419.71197,S,05539.91324,E,0.035,,190525,,,A*72
$GNVTG,,T,,M,0.035,N,0.065,K,A*38
$GNGNS,082948.00,0419.71197,S,05539.91324,E,AA,16,0.66,14.9,-47.6,,*6B
$GNGGA,082948.00,0419.71197,S,05539.91324,E,1,12,0.66,14.9,M,-47.6,M,,*45
$GNGSA,A,3,25,23,12,15,29,10,13,18,24,28,,,1.19,0.66,0.99*19
$GNGSA,A,3,69,80,73,68,74,83,,,,,,,1.19,0.66,0.99*10
$GPGSV,5,1,18,05,04,029,28,10,38,230,23,12,43,152,39,13,06,068,34*7B
$GPGSV,5,2,18,15,42,082,35,18,21,333,28,23,69,291,38,24,18,144,28*71
$GPGSV,5,3,18,25,74,198,39,26,02,317,35,28,12,254,26,29,33,019,30*73
$GPGSV,5,4,18,31,00,275,21,32,09,211,19,36,52,277,37,40,85,352,42*7D
$GPGSV,5,5,18,41,58,082,30,49,32,274,*7C
$GLGSV,3,1,09,68,31,051,35,69,61,119,35,70,19,196,11,73,41,280,40*69
$GLGSV,3,2,09,74,08,314,28,79,05,159,31,80,44,197,24,83,07,014,37*62
$GLGSV,3,3,09,84,02,325,27*53
$GNGLL,0419.71197,S,05539.91324,E,082948.00,A,A*67
$GNGRS,082948.00,1,-1.2,0.8,-0.1,0.2,2.5,-2.2,-0.8,3.4,1.4,0.5,,*5F
$GNGRS,082948.00,1,5.4,8.2,-2.2,-13.3,3.9,4.9,,,,,,*62
$GNGST,082948.00,25,,,,1.7,1.5,3.0*40
$GNZDA,082948.00,19,05,2025,00,00*7F
$GNGBS,082948.00,1.7,1.5,3.0,,,,*51
b0Xb

&)+%D&*R%Mt(E#I(Jv%="!4 {&4+U`":R '#D!3E!=wFI&)J:cOP,=S&TEobbxp$GNRMC,082949.00,A,0419.71196,S,05539.91324,E,0.063,,190525,,,A*71
$GNVTG,,T,,M,0.063,N,0.116,K,A*3E
$GNGNS,082949.00,0419.71196,S,05539.91324,E,AA,16,0.66,14.9,-47.6,,*6B
$GNGGA,082949.00,0419.71196,S,05539.91324,E,1,12,0.66,14.9,M,-47.6,M,,*45
$GNGSA,A,3,25,23,12,15,29,10,13,18,24,28,,,1.19,0.66,0.99*19
$GNGSA,A,3,69,80,73,68,74,83,,,,,,,1.19,0.66,0.99*10
$GPGSV,5,1,18,05,04,029,26,10,38,230,23,12,43,152,41,13,06,068,37*79
$GPGSV,5,2,18,15,42,082,38,18,21,333,27,23,69,291,40,24,18,144,28*7C
$GPGSV,5,3,18,25,74,198,40,26,02,317,37,28,12,254,25,29,33,019,34*78
$GPGSV,5,4,18,31,00,275,20,32,09,211,19,36,52,277,38,40,85,352,43*72
$GPGSV,5,5,18,41,58,082,34,49,32,274,*78
$GLGSV,3,1,09,68,31,051,33,69,61,119,33,70,19,196,13,73,41,280,38*64
$GLGSV,3,2,09,74,08,314,28,79,05,159,31,80,44,197,23,83,07,014,38*6A
$GLGSV,3,3,09,84,02,325,27*53
$GNGLL,0419.71196,S,05539.91324,E,082949.00,A,A*67
$GNGRS,082949.00,1,-1.4,0.7,-0.1,0.4,3.1,-3.8,-0.7,3.7,0.2,1.6,,*56
$GNGRS,082949.00,1,2.5,8.3,-2.3,-13.0,-4.1,5.0,,,,,,*4C
$GNGST,082949.00,26,,,,1.7,1.5,3.0*42
$GNZDA,082949.00,19,05,2025,00,00*7E
$GNGBS,082949.00,1.7,1.5,3.0,,,,*50
b0Xf

&'+$D%*R|M(E#5'Jw%=!! {'4*U`":R '$D$3E!=wFI&)6J:cO`P,S&TENbfxxHp$GNRMC,082950.00,A,0419.71197,S,05539.91325,E,0.013,,190525,,,A*7E
$GNVTG,,T,,M,0.013,N,0.024,K,A*39
$GNGNS,082950.00,0419.71197,S,05539.91325,E,AA,16,0.66,14.9,-47.6,,*63
$GNGGA,082950.00,0419.71197,S,05539.91325,E,1,12,0.66,14.9,M,-47.6,M,,*4D
$GNGSA,A,3,25,23,12,15,29,10,13,18,24,28,,,1.19,0.66,0.99*19
$GNGSA,A,3,69,80,73,68,74,83,,,,,,,1.19,0.66,0.99*10
$GPGSV,5,1,18,05,04,029,24,10,38,230,25,12,43,152,39,13,06,068,36*73
$GPGSV,5,2,18,15,42,082,37,18,21,333,27,23,69,291,40,24,18,144,28*73
$GPGSV,5,3,18,25,74,198,39,26,02,317,37,28,12,254,25,29,33,019,33*71
$GPGSV,5,4,18,31,00,275,19,32,09,211,19,36,52,277,39,40,85,352,42*78
$GPGSV,5,5,18,41,58,082,34,49,32,274,*78
$GLGSV,3,1,09,68,31,051,36,69,61,119,33,70,19,196,14,73,41,280,38*66
$GLGSV,3,2,09,74,08,314,28,79,05,159,31,80,44,197,22,83,07,014,38*6B
$GLGSV,3,3,09,84,02,325,27*53
$GNGLL,0419.71197,S,05539.91325,E,082950.00,A,A*6F
$GNGRS,082950.00,1,-1.4,0.5,0.1,3.8,1.6,-3.5,-0.6,2.1,2.3,-0.2,,*5B
$GNGRS,082950.00,1,5.4,7.2,-2.0,-10.7,-1.6,5.1,,,,,,*48
$GNGST,082950.00,25,,,,1.7,1.5,3.0*49
$GNZDA,082950.00,19,05,2025,00,00*76
$GNGBS,082950.00,1.7,1.5,3.0,,,,*58
b0XhjN

&T&+D"*RMC&E#"&J"=:4 ! {$4(U`:R $ D3E=wFI!)1J:kOP,S TEpbhjx` $GNRMC,082951.00,A,0419.71197,S,05539.91325,E,0.039,,190525,,,A*77
$GNVTG,,T,,M,0.039,N,0.073,K,A*33
$GNGNS,082951.00,0419.71197,S,05539.91325,E,AA,16,0.66,14.9,-47.6,,*62
$GNGGA,082951.00,0419.71197,S,05539.91325,E,1,12,0.66,14.9,M,-47.6,M,,*4C
$GNGSA,A,3,25,23,12,15,29,10,13,18,24,28,,,1.19,0.66,0.99*19
$GNGSA,A,3,69,80,73,68,74,83,,,,,,,1.19,0.66,0.99*10
$GPGSV,5,1,18,05,04,029,21,10,38,230,25,12,43,152,38,13,06,068,29*79
$GPGSV,5,2,18,15,42,082,34,18,21,333,26,23,69,291,38,24,18,144,28*7E
$GPGSV,5,3,18,25,74,198,38,26,02,317,34,28,12,254,24,29,33,019,32*73
$GPGSV,5,4,18,31,00,275,18,32,09,211,18,36,52,277,36,40,85,352,40*75
$GPGSV,5,5,18,41,58,082,29,49,32,274,*74
$GLGSV,3,1,09,68,31,051,30,69,61,119,28,70,19,196,13,73,41,280,33*66
$GLGSV,3,2,09,74,08,314,26,79,05,159,29,80,44,197,20,83,07,014,32*64
$GLGSV,3,3,09,84,02,325,26*52
$GNGLL,0419.71197,S,05539.91325,E,082951.00,A,A*6E
$GNGRS,082951.00,1,-1.2,0.3,0.0,-0.3,4.6,-1.7,-0.3,0.7,5.2,0.5,,*56
$GNGRS,082951.00,1,7.6,7.8,-2.1,-12.8,-1.5,7.7,,,,,,*48
$GNGST,082951.00,30,,,,1.7,1.5,3.1*4D
$GNZDA,082951.00,19,05,2025,00,00*77
$GNGBS,082951.00,1.7,1.5,3.1,,,,*58
b0XPnf

&-(+"D#*R$M'E#'J%=!! {&4+U`!:R &/D"3qE!=wF
I().J:OaP,S(tTEbPnxH@$GNRMC,082952.00,A,0419.71197,S,05539.91326,E,0.084,,190525,,,A*71
$GNVTG,,T,,M,0.084,N,0.156,K,A*33
$GNGNS,082952.00,0419.71197,S,05539.91326,E,AA,16,0.66,14.9,-47.6,,*62
$GNGGA,082952.00,0419.71197,S,05539.91326,E,1,12,0.66,14.9,M,-47.6,M,,*4C
$GNGSA,A,3,25,23,12,15,29,10,13,18,24,28,,,1.19,0.66,0.99*19
$GNGSA,A,3,69,80,73,68,74,83,,,,,,,1.19,0.66,0.99*10
$GPGSV,5,1,18,05,04,029,23,10,38,230,25,12,43,152,40,13,06,068,34*78
$GPGSV,5,2,18,15,42,082,35,18,21,333,26,23,69,291,39,24,18,144,28*7E
$GPGSV,5,3,18,25,74,198,39,26,02,317,37,28,12,254,25,29,33,019,33*71
$GPGSV,5,4,18,31,00,275,18,32,09,211,18,36,52,277,38,40,85,352,43*78
$GPGSV,5,5,18,41,58,082,33,49,32,274,*7F
$GLGSV,3,1,09,68,31,051,34,69,61,119,33,70,19,196,10,73,41,280,40*6F
$GLGSV,3,2,09,74,08,314,27,79,05,159,30,80,44,197,20,83,07,014,40*68
$GLGSV,3,3,09,84,02,325,26*52
$GNGLL,0419.71197,S,05539.91326,E,082952.00,A,A*6E
$GNGRS,082952.00,1,-1.0,0.2,0.3,0.4,4.5,-2.1,-3.4,7.0,1.3,-0.8,,*58
$GNGRS,082952.00,1,4.2,9.1,-2.1,-14.2,1.4,8.8,,,,,,*6B
$GNGST,082952.00,27,,,,1.7,1.5,3.1*48
$GNZDA,082952.00,19,05,2025,00,00*74
$GNGBS,082952.00,1.7,1.5,3.1,,,,*5B
b0X8r#

&(+!D*!*RM&E#&J'= "! {$4'U` :R %#D"3E"=wXFI))*J!:+O"P,S,TEb8rx0$GNRMC,082953.00,A,0419.71196,S,05539.91326,E,0.160,,190525,,,A*7A
$GNVTG,,T,,M,0.160,N,0.296,K,A*37
$GNGNS,082953.00,0419.71196,S,05539.91326,E,AA,16,0.66,14.8,-47.6,,*63
$GNGGA,082953.00,0419.71196,S,05539.91326,E,1,12,0.66,14.8,M,-47.6,M,,*4D
$GNGSA,A,3,25,23,12,15,29,10,13,18,24,28,,,1.19,0.66,0.99*19
$GNGSA,A,3,69,80,73,68,74,83,,,,,,,1.19,0.66,0.99*10
$GPGSV,5,1,18,05,04,029,35,10,38,230,24,12,43,152,40,13,06,068,31*7B
$GPGSV,5,2,18,15,42,082,33,18,21,333,26,23,69,291,38,24,18,144,28*79
$GPGSV,5,3,18,25,74,198,38,26,02,317,39,28,12,254,32,29,33,019,34*7F
$GPGSV,5,4,18,31,00,275,18,32,09,211,20,36,52,277,36,40,85,352,39*70
$GPGSV,5,5,18,41,58,082,32,49,32,274,*7E
$GLGSV,3,1,09,68,31,051,34,69,61,119,34,70,19,196,12,73,41,280,41*6B
$GLGSV,3,2,09,74,08,314,33,79,05,159,34,80,44,197,23,83,07,014,44*6E
$GLGSV,3,3,09,84,02,325,28*5C
$GNGLL,0419.71196,S,05539.91326,E,082953.00,A,A*6E
$GNGRS,082953.00,1,-0.9,0.2,0.3,2.4,2.8,0.2,0.4,2.9,1.3,-2.5,,*59
$GNGRS,082953.00,1,3.4,7.2,-2.1,-16.0,5.6,5.4,,,,,,*61
$GNGST,082953.00,25,,,,1.7,1.5,3.1*4B
$GNZDA,082953.00,19,05,2025,00,00*75
$GNGBS,082953.00,1.7,1.5,3.1,,,,*5A
b0X v$M

&)+"D(*R)M'E#$)J'=#%! {%4'U`%:R 'D&3LE"=wFI))(J!:O P,\S(TEF-b vx$GNRMC,082954.00,A,0419.71197,S,05539.91323,E,0.095,,190525,,,A*72
$GNVTG,,T,,M,0.095,N,0.176,K,A*31
$GNGNS,082954.00,0419.71197,S,05539.91323,E,AA,16,0.66,14.7,-47.6,,*6F
$GNGGA,082954.00,0419.71197,S,05539.91323,E,1,12,0.66,14.7,M,-47.6,M,,*41
$GNGSA,A,3,25,23,12,15,29,10,13,18,24,28,,,1.19,0.66,0.99*19
$GNGSA,A,3,69,80,73,68,74,83,,,,,,,1.19,0.66,0.99*10
$GPGSV,5,1,18,05,04,029,36,10,38,230,31,12,43,152,41,13,06,068,34*78
$GPGSV,5,2,18,15,42,082,40,18,21,333,41,23,69,291,39,24,18,144,36*72
$GPGSV,5,3,18,25,74,198,41,26,02,317,39,28,12,254,35,29,33,019,37*75
$GPGSV,5,4,18,31,00,275,17,32,09,211,22,36,52,277,37,40,85,352,39*7C
$GPGSV,5,5,18,41,58,082,37,49,32,274,*7B
$GLGSV,3,1,09,68,31,051,38,69,61,119,34,70,19,196,13,73,41,280,41*66
$GLGSV,3,2,09,74,08,314,33,79,05,159,32,80,44,197,26,83,07,014,40*69
$GLGSV,3,3,09,84,02,325,29*5D
$GNGLL,0419.71197,S,05539.91323,E,082954.00,A,A*6D
$GNGRS,082954.00,1,-0.6,-0.1,0.1,1.5,2.0,-2.3,-3.1,1.7,2.4,-0.7,,*7B
$GNGRS,082954.00,1,2.2,6.0,-2.2,-14.6,5.2,9.5,,,,,,*6C
$GNGST,082954.00,20,,,,1.7,1.5,3.0*48
$GNZDA,082954.00,19,05,2025,00,00*72
$GNGBS,082954.00,1.7,1.5,3.0,,,,*5C
b0Xz

&C(+D!*R&M#E#2"$J$=v #! {#4&U`":R $D 3QE!=wFI%)2J:OP,S$TE|bzxx$GNRMC,082955.00,A,0419.71197,S,05539.91325,E,0.147,,190525,,,A*7B
$GNVTG,,T,,M,0.147,N,0.272,K,A*38
$GNGNS,082955.00,0419.71197,S,05539.91325,E,AA,16,0.66,14.7,-47.6,,*68
$GNGGA,082955.00,0419.71197,S,05539.91325,E,1,12,0.66,14.7,M,-47.6,M,,*46
$GNGSA,A,3,25,23,12,15,29,10,13,18,24,28,,,1.19,0.66,0.99*19
$GNGSA,A,3,69,80,73,68,74,83,,,,,,,1.19,0.66,0.99*10
$GPGSV,5,1,18,05,04,029,31,10,38,230,31,12,43,152,40,13,06,068,29*72
$GPGSV,5,2,18,15,42,082,33,18,21,333,38,23,69,291,35,24,18,144,34*76
$GPGSV,5,3,18,25,74,198,36,26,02,317,36,28,12,254,32,29,33,019,35*7F
$GPGSV,5,4,18,31,00,275,18,32,09,211,22,36,52,277,35,40,85,352,38*70
$GPGSV,5,5,18,41,58,082,34,49,32,274,*78
$GLGSV,3,1,09,68,31,051,32,69,61,119,33,70,19,196,15,73,41,280,37*6C
$GLGSV,3,2,09,74,08,314,29,79,05,159,31,80,44,197,24,83,07,014,36*62
$GLGSV,3,3,09,84,02,325,29*5D
$GNGLL,0419.71197,S,05539.91325,E,082955.00,A,A*6A
$GNGRS,082955.00,1,-0.8,0.5,-0.1,2.0,2.0,-4.5,2.0,2.3,-0.4,-0.1,,*75
$GNGRS,082955.00,1,4.5,6.5,-2.1,-12.0,6.9,6.5,,,,,,*6D
$GNGST,082955.00,23,,,,1.6,1.5,3.0*4B
$GNZDA,082955.00,19,05,2025,00,00*73
$GNGBS,082955.00,1.6,1.5,3.0,,,,*5C
b0X}& 

'&*+Dd"*R3(M E#N%(J&=r#"&!> {'4*U`":R  D3E#=wFI))HJ:OIP,S$TEgPb}xV$GNRMC,082956.00,A,0419.71191,S,05539.91330,E,0.205,,190525,,,A*7F
$GNVTG,,T,,M,0.205,N,0.380,K,A*31
$GNGNS,082956.00,0419.71191,S,05539.91330,E,AA,16,0.66,14.7,-47.6,,*69
$GNGGA,082956.00,0419.71191,S,05539.91330,E,1,12,0.66,14.7,M,-47.6,M,,*47
$GNGSA,A,3,25,23,12,15,29,10,13,18,24,28,,,1.19,0.66,0.99*19
$GNGSA,A,3,69,80,73,68,74,83,,,,,,,1.19,0.66,0.99*10
$GPGSV,5,1,18,05,04,029,38,10,38,230,39,12,43,152,42,13,06,068,28*70
$GPGSV,5,2,18,15,42,082,34,18,21,333,40,23,69,291,32,24,18,144,37*7A
$GPGSV,5,3,18,25,74,198,40,26,02,317,38,28,12,254,35,29,33,019,38*7A
$GPGSV,5,4,18,31,00,275,19,32,09,211,23,36,52,277,39,40,85,352,42*71
$GPGSV,5,5,18,41,58,082,34,49,32,274,*78
$GLGSV,3,1,09,68,31,051,28,69,61,119,35,70,19,196,15,73,41,280,41*60
$GLGSV,3,2,09,74,08,314,29,79,05,159,30,80,44,197,24,83,07,014,36*63
$GLGSV,3,3,09,84,02,325,28*5C
$GNGLL,0419.71191,S,05539.91330,E,082956.00,A,A*6B
$GNGRS,082956.00,1,-0.9,0.8,-0.1,3.1,0.6,-3.7,-1.6,2.0,-2.5,-2.2,,*52
$GNGRS,082956.00,1,4.7,6.7,-1.8,-16.0,6.6,6.5,,,,,,*6F
$GNGST,082956.00,22,,,,1.6,1.5,3.0*49
$GNZDA,082956.00,19,05,2025,00,00*70
$GNGBS,082956.00,1.6,1.5,3.0,,,,*5F
b0X!D

(&(+$D"*R*M=#E##U(J$="(z$!y {%4)U`$:R D!3&E#=wFI!)$J:,OP#,S$XTEbx.6$GNRMC,082957.00,A,0419.71186,S,05539.91332,E,0.215,,190525,,,A*7B
$GNVTG,,T,,M,0.215,N,0.398,K,A*39
$GNGNS,082957.00,0419.71186,S,05539.91332,E,AA,16,0.66,14.9,-47.6,,*62
$GNGGA,082957.00,0419.71186,S,05539.91332,E,1,12,0.66,14.9,M,-47.6,M,,*4C
$GNGSA,A,3,25,23,12,15,29,10,13,18,24,28,,,1.19,0.66,0.99*19
$GNGSA,A,3,69,80,73,68,74,83,,,,,,,1.19,0.66,0.99*10
$GPGSV,5,1,18,05,04,029,33,10,38,230,40,12,43,152,40,13,06,068,36*78
$GPGSV,5,2,18,15,42,082,34,18,21,333,42,23,69,291,35,24,18,144,35*7D
$GPGSV,5,3,18,25,74,198,40,26,02,317,36,28,12,254,40,29,33,019,36*78
$GPGSV,5,4,18,31,00,275,20,32,09,211,26,36,52,277,37,40,85,352,41*73
$GPGSV,5,5,18,41,58,082,36,49,32,274,*7A
$GLGSV,3,1,09,68,31,051,33,69,61,119,35,70,19,196,17,73,41,280,33*6D
$GLGSV,3,2,09,74,08,314,30,79,05,159,28,80,44,197,35,83,07,014,36*62
$GLGSV,3,3,09,84,02,325,28*5C
$GNGLL,0419.71186,S,05539.91332,E,082957.00,A,A*6E
$GNGRS,082957.00,1,-0.9,0.3,-0.2,2.0,1.2,-0.3,0.2,0.6,-1.7,-1.3,,*76
$GNGRS,082957.00,1,4.5,7.3,-2.2,-12.4,5.6,6.0,,,,,,*66
$GNGST,082957.00,16,,,,1.6,1.5,3.0*4F
$GNZDA,082957.00,19,05,2025,00,00*71
$GNGBS,082957.00,1.6,1.5,3.0,,,,*5E
b0X"

&&$+D%*R+M#E#&*J#=*G&!d {'4&U`:R .D#3)E"=w>FI%)~J:hOP ,S%^TEf1bx$GNRMC,082958.00,A,0419.71184,S,05539.91333,E,0.154,,190525,,,A*71
$GNVTG,,T,,M,0.154,N,0.285,K,A*32
$GNGNS,082958.00,0419.71184,S,05539.91333,E,AA,16,0.66,14.8,-47.6,,*6F
$GNGGA,082958.00,0419.71184,S,05539.91333,E,1,12,0.66,14.8,M,-47.6,M,,*41
$GNGSA,A,3,25,23,12,15,29,10,13,18,24,28,,,1.19,0.66,0.99*19
$GNGSA,A,3,69,80,73,68,74,83,,,,,,,1.19,0.66,0.99*10
$GPGSV,5,1,18,05,04,029,34,10,38,230,38,12,43,152,36,13,06,068,31*76
$GPGSV,5,2,18,15,42,082,37,18,21,333,43,23,69,291,35,24,18,144,38*72
$GPGSV,5,3,18,25,74,198,42,26,02,317,35,28,12,254,42,29,33,019,38*75
$GPGSV,5,4,18,31,00,275,22,32,09,211,29,36,52,277,39,40,85,352,38*7E
$GPGSV,5,5,18,41,58,082,30,49,32,274,*7C
$GLGSV,3,1,09,68,30,051,35,69,61,119,34,70,19,196,18,73,41,280,37*60
$GLGSV,3,2,09,74,08,314,30,79,05,159,27,80,44,197,32,83,07,014,37*6B
$GLGSV,3,3,09,84,02,325,28*5C
$GNGLL,0419.71184,S,05539.91333,E,082958.00,A,A*62
$GNGRS,082958.00,1,-1.2,0.2,-0.1,2.8,3.6,-1.1,3.8,2.4,-0.7,-1.9,,*7E
$GNGRS,082958.00,1,3.2,7.0,1.3,-9.8,3.6,6.1,,,,,,*74
$GNGST,082958.00,16,,,,1.6,1.4,2.9*49
$GNZDA,082958.00,19,05,2025,00,00*7E
$GNGBS,082958.00,1.6,1.4,2.9,,,,*58
b0X

%&N#+%DA"*R*M$E#&v)J"=*J"!t {(4&U`":R MD#3mE"=vFI%)J:)OP!,S"JTE>bx$GNRMC,082959.00,A,0419.71185,S,05539.91330,E,0.067,,190525,,,A*73
$GNVTG,,T,,M,0.067,N,0.124,K,A*3B
$GNGNS,082959.00,0419.71185,S,05539.91330,E,AA,16,0.66,14.9,-47.6,,*6D
$GNGGA,082959.00,0419.71185,S,05539.91330,E,1,12,0.66,14.9,M,-47.6,M,,*43
$GNGSA,A,3,25,23,12,15,29,10,13,18,24,28,,,1.19,0.66,0.99*19
$GNGSA,A,3,69,80,73,68,74,83,,,,,,,1.19,0.66,0.99*10
$GPGSV,5,1,18,05,04,029,30,10,38,230,37,12,43,152,35,13,06,068,37*78
$GPGSV,5,2,18,15,42,082,34,18,21,333,42,23,69,291,36,24,18,144,38*73
$GPGSV,5,3,18,25,74,198,41,26,02,317,34,28,12,254,42,29,33,019,34*7B
$GPGSV,5,4,18,31,00,275,24,32,09,211,29,36,52,277,40,40,85,352,38*76
$GPGSV,5,5,18,41,58,082,34,49,32,274,*78
$GLGSV,3,1,09,68,30,051,35,69,61,118,34,70,19,196,17,73,41,280,37*6E
$GLGSV,3,2,09,74,08,314,31,79,05,159,27,80,44,197,33,83,07,014,34*68
$GLGSV,3,3,09,84,02,325,28*5C
$GNGLL,0419.71185,S,05539.91330,E,082959.00,A,A*61
$GNGRS,082959.00,1,-1.1,0.1,0.0,2.1,1.2,-1.8,-1.9,0.0,-1.4,-1.8,,*7E
$GNGRS,082959.00,1,4.8,6.9,-0.3,-14.3,5.5,5.9,,,,,,*65
$GNGST,082959.00,16,,,,1.6,1.4,2.9*48
$GNZDA,082959.00,19,05,2025,00,00*7F
$GNGBS,082959.00,1.6,1.4,2.9,,,,*59
b0X

$&o%+%D$*Rm+M7&E#()J$=+F!! {)4'U`%:R D#3rE#=vFI")J:qO~P ,FS MTE:bxn$GNRMC,083000.00,A,0419.71185,S,05539.91329,E,0.037,,190525,,,A*7A
$GNVTG,,T,,M,0.037,N,0.068,K,A*37
$GNGNS,083000.00,0419.71185,S,05539.91329,E,AA,16,0.66,14.9,-47.6,,*61
$GNGGA,083000.00,0419.71185,S,05539.91329,E,1,12,0.66,14.9,M,-47.6,M,,*4F
$GNGSA,A,3,25,23,12,15,29,10,13,18,24,28,,,1.19,0.66,0.99*19
$GNGSA,A,3,69,80,73,68,74,83,,,,,,,1.19,0.66,0.99*10
$GPGSV,5,1,18,05,04,029,29,10,38,230,36,12,43,152,37,13,06,068,37*73
$GPGSV,5,2,18,15,42,082,36,18,21,333,43,23,69,291,38,24,18,144,40*71
$GPGSV,5,3,18,25,74,198,41,26,02,317,36,28,12,254,43,29,33,019,33*7F
$GPGSV,5,4,18,31,00,275,25,32,09,211,30,36,52,277,41,40,85,352,39*7F
$GPGSV,5,5,18,41,58,082,37,49,32,274,*7B
$GLGSV,3,1,09,68,30,051,35,69,61,118,35,70,19,196,17,73,41,280,34*6C
$GLGSV,3,2,09,74,08,314,31,79,05,159,28,80,44,197,32,83,07,014,32*60
$GLGSV,3,3,09,84,02,325,29*5D
$GNGLL,0419.71185,S,05539.91329,E,083000.00,A,A*6D
$GNGRS,083000.00,1,-1.3,-0.1,0.1,1.1,9.1,1.1,-1.3,0.5,-1.0,-1.9,,*72
$GNGRS,083000.00,1,6.8,3.3,2.2,-16.8,1.1,5.9,,,,,,*4B
$GNGST,083000.00,16,,,,1.5,1.4,2.8*4E
$GNZDA,083000.00,19,05,2025,00,00*7B
$GNGBS,083000.00,1.5,1.4,2.8,,,,*5F
b0Xx

%&l"+#D!*R+M*#E#&)J%=)"!S {(4(U`$:R D#3E$=vFI$)J:$OQP,HSWTEhbxxp$GNRMC,083001.00,A,0419.71185,S,05539.91329,E,0.025,,190525,,,A*78
$GNVTG,,T,,M,0.025,N,0.046,K,A*38
$GNGNS,083001.00,0419.71185,S,05539.91329,E,AA,16,0.66,14.9,-47.6,,*60
$GNGGA,083001.00,0419.71185,S,05539.91329,E,1,12,0.66,14.9,M,-47.6,M,,*4E
$GNGSA,A,3,25,23,12,15,29,10,13,18,24,28,,,1.19,0.66,0.99*19
$GNGSA,A,3,69,80,73,68,74,83,,,,,,,1.19,0.66,0.99*10
$GPGSV,5,1,18,05,04,029,28,10,38,230,37,12,43,152,34,13,06,068,35*72
$GPGSV,5,2,18,15,42,082,33,18,21,333,43,23,69,291,35,24,18,144,38*76
$GPGSV,5,3,18,25,74,198,41,26,02,317,37,28,12,254,41,29,33,019,29*77
$GPGSV,5,4,18,31,00,275,26,32,09,211,29,36,52,277,40,40,85,352,40*7B
$GPGSV,5,5,18,41,58,082,36,49,32,274,*7A
$GLGSV,3,1,09,68,30,051,35,69,61,118,36,70,19,196,16,73,41,280,36*6C
$GLGSV,3,2,09,74,08,314,30,79,05,159,27,80,44,197,31,83,07,014,30*6F
$GLGSV,3,3,09,84,02,325,28*5C
$GNGLL,0419.71185,S,05539.91329,E,083001.00,A,A*6C
$GNGRS,083001.00,1,-1.3,-0.3,0.3,0.0,5.9,1.1,-1.0,0.4,-0.4,-2.2,,*78
$GNGRS,083001.00,1,7.6,0.7,1.6,-11.2,5.5,6.0,,,,,,*42
$GNGST,083001.00,18,,,,1.5,1.4,2.8*41
$GNZDA,083001.00,19,05,2025,00,00*7A
$GNGBS,083001.00,1.5,1.4,2.8,,,,*5E
b0X`.

%&##+0#D"*R&+M$E#&)J}%=*$!M {(4'U`#:R gD#3E$=vKFI$)J:0OsP,STEeb`xXf>$GNRMC,083002.00,A,0419.71186,S,05539.91328,E,0.013,,190525,,,A*7C
$GNVTG,,T,,M,0.013,N,0.024,K,A*39
$GNGNS,083002.00,0419.71186,S,05539.91328,E,AA,16,0.66,14.9,-47.6,,*61
$GNGGA,083002.00,0419.71186,S,05539.91328,E,1,12,0.66,14.9,M,-47.6,M,,*4F
$GNGSA,A,3,25,23,12,15,29,10,13,18,24,28,,,1.19,0.66,0.99*19
$GNGSA,A,3,69,80,73,68,74,83,,,,,,,1.19,0.66,0.99*10
$GPGSV,5,1,18,05,04,029,26,10,38,230,37,12,43,152,35,13,06,068,35*7D
$GPGSV,5,2,18,15,42,082,34,18,21,333,43,23,69,291,36,24,18,144,38*72
$GPGSV,5,3,18,25,74,198,41,26,02,317,37,28,12,254,42,29,33,019,31*7D
$GPGSV,5,4,18,31,00,275,27,32,09,211,30,36,52,277,40,40,85,352,39*7C
