b0X0d

(k(%A)M%PC-+F;$# {4U`:R D09E?o_FI
).J
7OP)SgTHb0xm}$GNRMC,083715.00,A,0419.72426,S,05539.89966,E,0.489,,190525,,,D*7A
$GNVTG,,T,,M,0.489,N,0.906,K,D*32
$GNGNS,083715.00,0419.72426,S,05539.89966,E,DA,12,0.85,16.1,-47.6,,0000*63
$GNGGA,083715.00,0419.72426,S,05539.89966,E,2,12,0.85,16.1,M,-47.6,M,,0000*4F
$GNGSA,A,3,25,23,12,15,29,18,24,,,,,,1.58,0.85,1.33*19
$GNGSA,A,3,69,80,73,68,83,,,,,,,,1.58,0.85,1.33*1A
$GPGSV,5,1,18,05,02,029,23,10,40,233,12,12,40,153,24,13,05,065,24*79
$GPGSV,5,2,18,15,41,077,26,18,20,336,27,23,67,301,22,24,17,141,26*78
$GPGSV,5,3,18,25,70,193,22,26,04,315,12,28,12,251,,29,35,022,36*7E
$GPGSV,5,4,18,31,00,272,,32,11,209,,36,52,277,,40,85,352,*73
$GPGSV,5,5,18,41,58,082,28,49,32,274,*75
$GLGSV,3,1,09,68,29,048,19,69,63,111,24,70,22,195,,73,41,275,10*68
$GLGSV,3,2,09,74,10,311,08,79,02,157,11,80,41,194,08,83,07,018,27*62
$GLGSV,3,3,09,84,01,328,*58
$GNGLL,0419.72426,S,05539.89966,E,083715.00,A,D*6C
$GNGRS,083715.00,1,1.5,2.6,-2.2,0.4,-0.8,2.8,-2.1,,,,,*5E
$GNGRS,083715.00,1,3.5,-1.0,-2.1,-4.5,8.7,,,,,,,*51
$GNGST,083715.00,3435379,,,,2.4,3.8,5.4*71
$GNZDA,083715.00,19,05,2025,00,00*78
$GNGBS,083715.00,2.4,3.8,5.4,,,,*5B
b0X4

(*(A )M!PC-E"FX;'# {4U` :R %D0.E?oFI)J
7OqP)-STHb4xqU?$GNRMC,083716.00,A,0419.72418,S,05539.89971,E,0.318,,190525,,,D*7D
$GNVTG,,T,,M,0.318,N,0.588,K,D*37
$GNGNS,083716.00,0419.72418,S,05539.89971,E,DA,13,1.12,16.1,-47.6,,0000*65
$GNGGA,083716.00,0419.72418,S,05539.89971,E,2,12,1.12,16.1,M,-47.6,M,,0000*48
$GNGSA,A,3,25,23,12,15,29,10,18,24,,,,,1.78,1.12,1.38*1E
$GNGSA,A,3,69,80,73,68,83,,,,,,,,1.78,1.12,1.38*1C
$GPGSV,5,1,18,05,02,029,30,10,40,233,09,12,40,153,31,13,05,065,24*75
$GPGSV,5,2,18,15,41,077,32,18,20,336,33,23,67,301,22,24,17,141,34*7B
$GPGSV,5,3,18,25,70,193,23,26,04,315,12,28,12,251,,29,35,022,39*70
$GPGSV,5,4,18,31,00,272,,32,11,209,,36,52,277,,40,85,352,*73
$GPGSV,5,5,18,41,58,082,32,49,32,274,*7E
$GLGSV,3,1,09,68,29,048,28,69,63,111,25,70,22,195,,73,41,275,08*62
$GLGSV,3,2,09,74,10,311,08,79,02,157,09,80,41,194,08,83,07,018,28*64
$GLGSV,3,3,09,84,01,328,*58
$GNGLL,0419.72418,S,05539.89971,E,083716.00,A,D*64
$GNGRS,083716.00,1,0.9,0.7,-3.1,-1.0,2.1,109,-0.2,0.3,,,,*6F
$GNGRS,083716.00,1,1.7,-122,-149,-9.8,7.8,,,,,,,*5D
$GNGST,083716.00,31,,,,2.4,3.9,5.5*4C
$GNZDA,083716.00,19,05,2025,00,00*7B
$GNGBS,083716.00,2.4,3.9,5.5,,,,*58
b0X8!o

(V"(A$)M"P C-"F_;f+#+ {4U`:R %D0<E?oFI)!J
7OP)SUTH!b8xu-$GNRMC,083717.00,A,0419.72417,S,05539.89968,E,0.153,,190525,,,D*76
$GNVTG,,T,,M,0.153,N,0.283,K,D*36
$GNGNS,083717.00,0419.72417,S,05539.89968,E,DA,12,0.86,15.9,-47.6,,0000*65
$GNGGA,083717.00,0419.72417,S,05539.89968,E,2,12,0.86,15.9,M,-47.6,M,,0000*49
$GNGSA,A,3,25,23,12,15,29,10,18,24,,,,,1.57,0.86,1.31*16
$GNGSA,A,3,69,80,68,83,,,,,,,,,1.57,0.86,1.31*10
$GPGSV,5,1,18,05,02,029,33,10,40,233,08,12,40,153,34,13,05,065,31*76
$GPGSV,5,2,18,15,41,077,36,18,20,336,34,23,67,301,25,24,17,141,34*7F
$GPGSV,5,3,18,25,70,193,31,26,04,315,12,28,12,251,,29,35,022,43*7E
$GPGSV,5,4,18,31,00,272,,32,11,209,,36,52,277,,40,85,352,*73
$GPGSV,5,5,18,41,58,082,31,49,32,274,*7D
$GLGSV,3,1,09,68,29,048,27,69,63,111,27,70,22,195,,73,41,275,07*60
$GLGSV,3,2,09,74,10,311,05,79,02,157,09,80,41,194,09,83,07,018,29*69
$GLGSV,3,3,09,84,01,328,*58
$GNGLL,0419.72417,S,05539.89968,E,083717.00,A,D*62
$GNGRS,083717.00,1,-1.6,-0.5,-2.7,-0.9,0.4,11.1,0.3,-0.5,,,,*4A
$GNGRS,083717.00,1,2.3,-1.2,-7.1,8.5,,,,,,,,*53
$GNGST,083717.00,4856426,,,,2.4,3.9,5.5*70
$GNZDA,083717.00,19,05,2025,00,00*7A
$GNGBS,083717.00,2.4,3.9,5.5,,,,*59
b0X<!+

("(A#)Mi$PXC-5$F;V+#o {4U`#:R '"D 0>E ?oxFI)J
7cOP)sS"1THJb<xxy$GNRMC,083718.00,A,0419.72414,S,05539.89972,E,0.079,,190525,,,D*78
$GNVTG,,T,,M,0.079,N,0.146,K,D*35
$GNGNS,083718.00,0419.72414,S,05539.89972,E,DA,12,0.85,16.0,-47.6,,0000*6B
$GNGGA,083718.00,0419.72414,S,05539.89972,E,2,12,0.85,16.0,M,-47.6,M,,0000*47
$GNGSA,A,3,25,23,12,15,29,18,24,,,,,,1.58,0.85,1.33*19
$GNGSA,A,3,69,80,73,68,83,,,,,,,,1.58,0.85,1.33*1A
$GPGSV,5,1,18,05,02,029,33,10,40,233,,12,40,153,34,13,05,065,31*7E
$GPGSV,5,2,18,15,41,077,35,18,20,336,36,23,67,301,30,24,17,141,36*78
$GPGSV,5,3,18,25,70,193,30,26,04,315,12,28,12,251,,29,35,022,43*7F
$GPGSV,5,4,18,31,00,272,,32,11,209,,36,52,277,,40,85,352,*73
$GPGSV,5,5,18,41,58,082,35,49,32,274,*79
$GLGSV,3,1,09,68,29,048,32,69,63,111,32,70,22,195,,73,41,275,14*62
$GLGSV,3,2,09,74,10,311,09,79,02,157,14,80,41,194,12,83,07,018,34*6F
$GLGSV,3,3,09,84,01,328,*58
$GNGLL,0419.72414,S,05539.89972,E,083718.00,A,D*65
$GNGRS,083718.00,1,0.1,-2.0,-2.7,1.1,1.1,-1.7,0.1,,,,,*57
$GNGRS,083718.00,1,3.8,-1.4,-2.5,-7.1,10.7,,,,,,,*6F
$GNGST,083718.00,3434015,,,,2.3,3.8,5.5*72
$GNZDA,083718.00,19,05,2025,00,00*75
$GNGBS,083718.00,2.3,3.8,5.5,,,,*50
b0Xh@ 

( (AC!)M/!PFC-k"tF ;*# {4U`:R %D /E?oFI
)J
7!OP)S!TH#bh@x`}w$GNRMC,083719.00,A,0419.72416,S,05539.89968,E,0.035,,190525,,,D*78
$GNVTG,,T,,M,0.035,N,0.065,K,D*3D
$GNGNS,083719.00,0419.72416,S,05539.89968,E,DA,13,0.85,15.9,-47.6,,0000*68
$GNGGA,083719.00,0419.72416,S,05539.89968,E,2,12,0.85,15.9,M,-47.6,M,,0000*45
$GNGSA,A,3,25,23,12,15,29,18,24,,,,,,1.58,0.85,1.33*19
$GNGSA,A,3,69,80,73,68,74,83,,,,,,,1.58,0.85,1.33*19
$GPGSV,5,1,18,05,02,029,32,10,40,233,,12,40,153,32,13,05,065,31*79
$GPGSV,5,2,18,15,41,077,33,18,20,336,33,23,67,301,29,24,17,141,34*71
$GPGSV,5,3,18,25,70,193,29,26,04,315,,28,12,251,,29,35,022,42*75
$GPGSV,5,4,18,31,00,272,,32,11,209,,36,52,277,,40,85,352,*73
$GPGSV,5,5,18,41,58,082,31,49,32,274,*7D
$GLGSV,3,1,09,68,28,047,32,69,63,111,30,70,22,195,,73,41,275,10*6A
$GLGSV,3,2,09,74,10,311,08,79,02,157,15,80,41,194,12,83,07,018,33*68
$GLGSV,3,3,09,84,01,328,*58
$GNGLL,0419.72416,S,05539.89968,E,083719.00,A,D*6D
$GNGRS,083719.00,1,0.3,1.1,-0.7,-2.1,0.0,-1.9,1.2,,,,,*5B
$GNGRS,083719.00,1,4.1,7.6,-16.4,-11.4,86.1,9.0,,,,,,*61
$GNGST,083719.00,54,,,,2.3,3.8,5.4*47
$GNZDA,083719.00,19,05,2025,00,00*74
$GNGBS,083719.00,2.3,3.8,5.4,,,,*50
b0XPD

((rAe)MPC-oF;# {4U`:R D/!E?mFI
)+J

7OP)STH!bPDxH$GNRMC,083720.00,A,0419.72423,S,05539.89965,E,0.309,,190525,,,D*75
$GNVTG,,T,,M,0.309,N,0.572,K,D*32
$GNGNS,083720.00,0419.72423,S,05539.89965,E,DA,13,0.78,15.9,-47.6,,0000*6B
$GNGGA,083720.00,0419.72423,S,05539.89965,E,2,12,0.78,15.9,M,-47.6,M,,0000*46
$GNGSA,A,3,25,23,12,15,29,18,24,,,,,,1.43,0.78,1.20*13
$GNGSA,A,3,69,80,73,68,74,83,,,,,,,1.43,0.78,1.20*13
$GPGSV,5,1,18,05,02,029,27,10,40,233,,12,40,153,26,13,05,065,23*7B
$GPGSV,5,2,18,15,41,077,20,18,20,336,19,23,67,301,18,24,17,141,19*76
$GPGSV,5,3,18,25,70,193,19,26,04,315,,28,12,251,,29,35,022,28*7A
$GPGSV,5,4,18,31,00,272,,32,11,209,,36,52,277,,40,85,352,*73
$GPGSV,5,5,18,41,58,082,30,49,32,274,*7C
$GLGSV,3,1,09,68,28,047,27,69,63,109,20,70,22,195,,73,41,275,10*66
$GLGSV,3,2,09,74,10,311,10,79,02,157,17,80,41,194,14,83,07,018,25*62
$GLGSV,3,3,09,84,01,328,*58
$GNGLL,0419.72423,S,05539.89965,E,083720.00,A,D*6C
$GNGRS,083720.00,1,1.5,2.5,1.1,-1.0,0.3,-4.9,3.7,,,,,*78
$GNGRS,083720.00,1,11.7,-1.2,-2.1,-15.0,16.7,7.6,,,,,,*41
$GNGST,083720.00,3304551,,,,2.5,4.0,5.6*72
$GNZDA,083720.00,19,05,2025,00,00*7E
$GNGBS,083720.00,2.5,4.0,5.6,,,,*51
b0X8H+

((>Ax)M'PC-pFK;&# {4U`:R !4D/E?mFI
)J
7O
BP)S"THlb8Hx0G$GNRMC,083721.00,A,0419.72424,S,05539.89959,E,0.050,,190525,,,D*73
$GNVTG,,T,,M,0.050,N,0.093,K,D*37
$GNGNS,083721.00,0419.72424,S,05539.89959,E,DA,13,0.78,16.1,-47.6,,0000*69
$GNGGA,083721.00,0419.72424,S,05539.89959,E,2,12,0.78,16.1,M,-47.6,M,,0000*44
$GNGSA,A,3,25,23,12,15,29,18,24,,,,,,1.43,0.78,1.20*13
$GNGSA,A,3,69,80,73,68,74,83,,,,,,,1.43,0.78,1.20*13
$GPGSV,5,1,18,05,02,029,27,10,40,233,,12,40,153,28,13,05,065,25*73
$GPGSV,5,2,18,15,41,077,29,18,20,336,29,23,67,301,21,24,17,141,30*7D
$GPGSV,5,3,18,25,70,193,22,26,04,315,,28,12,251,,29,35,022,38*73
$GPGSV,5,4,18,31,00,272,,32,11,209,,36,52,277,,40,85,352,*73
$GPGSV,5,5,18,41,58,082,29,49,32,274,*74
$GLGSV,3,1,09,68,28,047,27,69,63,109,24,70,23,195,,73,41,275,10*63
$GLGSV,3,2,09,74,10,311,09,79,02,157,10,80,41,194,12,83,07,018,34*6B
$GLGSV,3,3,09,84,01,328,*58
$GNGLL,0419.72424,S,05539.89959,E,083721.00,A,D*65
$GNGRS,083721.00,1,0.8,1.1,-1.9,-2.2,-0.9,-2.9,0.3,,,,,*70
$GNGRS,083721.00,1,1.9,-5.2,-6.2,-18.0,12.7,2.7,,,,,,*71
$GNGST,083721.00,4668633,,,,3.4,5.1,5.9*73
$GNZDA,083721.00,19,05,2025,00,00*7F
$GNGBS,083721.00,3.4,5.1,5.9,,,,*5F
b0X L

(!(A%)Ms"PC-$Ft;+#m {4U` :R 'D/fE?mFI)J
7O
P)&STHvb Lxc$GNRMC,083722.00,A,0419.72425,S,05539.89950,E,0.056,,190525,,,A*7B
$GNVTG,,T,,M,0.056,N,0.103,K,A*3C
$GNGNS,083722.00,0419.72425,S,05539.89950,E,AA,12,1.12,16.0,-47.6,,*6A
$GNGGA,083722.00,0419.72425,S,05539.89950,E,1,12,1.12,16.0,M,-47.6,M,,*40
$GNGSA,A,3,25,23,12,15,29,18,24,,,,,,1.78,1.12,1.38*1F
$GNGSA,A,3,69,80,73,68,83,,,,,,,,1.78,1.12,1.38*1C
$GPGSV,5,1,18,05,02,029,27,10,40,233,,12,40,153,33,13,05,065,31*7C
$GPGSV,5,2,18,15,41,077,37,18,20,336,34,23,67,301,23,24,17,141,36*7A
$GPGSV,5,3,18,25,70,193,30,26,04,315,,28,12,251,,29,35,022,43*7C
$GPGSV,5,4,18,31,00,272,,32,11,209,,36,52,277,,40,85,352,*73
$GPGSV,5,5,18,41,58,082,32,49,32,274,*7E
$GLGSV,3,1,09,68,28,047,27,69,63,109,23,70,23,195,,73,41,275,09*6C
$GLGSV,3,2,09,74,10,311,05,79,02,157,10,80,41,194,11,83,07,018,31*61
$GLGSV,3,3,09,84,01,328,*58
$GNGLL,0419.72425,S,05539.89950,E,083722.00,A,A*6B
$GNGRS,083722.00,1,-1.4,-0.9,-0.4,-4.0,1.1,-3.4,1.8,,,,,*5D
$GNGRS,083722.00,1,0.2,99.2,-21.7,-14.3,2.7,,,,,,,*45
$GNGST,083722.00,29,,,,3.3,5.1,5.9*46
$GNZDA,083722.00,19,05,2025,00,00*7C
$GNGBS,083722.00,3.3,5.1,5.9,,,,*5B
b0XP

(!(+A$)M!P^C-"F;,#' {4U`:R &D/ZE?m>FI),J
7OP)S&,TH}bPx;$GNRMC,083723.00,A,0419.72417,S,05539.89944,E,0.044,,190525,,,A*7D
$GNVTG,,T,,M,0.044,N,0.081,K,A*34
$GNGNS,083723.00,0419.72417,S,05539.89944,E,AA,12,0.85,15.9,-47.6,,*6A
$GNGGA,083723.00,0419.72417,S,05539.89944,E,1,12,0.85,15.9,M,-47.6,M,,*40
$GNGSA,A,3,25,23,12,15,29,18,24,,,,,,1.58,0.85,1.33*19
$GNGSA,A,3,69,80,73,68,83,,,,,,,,1.58,0.85,1.33*1A
$GPGSV,5,1,18,05,02,029,30,10,40,233,,12,40,153,33,13,05,065,30*7B
$GPGSV,5,2,18,15,41,077,36,18,20,336,33,23,67,301,26,24,17,141,34*7B
$GPGSV,5,3,18,25,70,193,30,26,04,315,17,28,12,251,,29,35,022,44*7D
$GPGSV,5,4,18,31,00,272,,32,11,209,,36,52,277,,40,85,352,*73
$GPGSV,5,5,18,41,58,082,31,49,32,274,*7D
$GLGSV,3,1,09,68,28,047,28,69,63,109,31,70,23,195,,73,41,275,12*6A
$GLGSV,3,2,09,74,10,311,11,79,02,157,18,80,41,194,14,83,07,018,38*60
$GLGSV,3,3,09,84,01,328,*58
$GNGLL,0419.72417,S,05539.89944,E,083723.00,A,A*6E
$GNGRS,083723.00,1,-2.8,-0.1,-2.1,-1.0,0.4,0.9,-2.8,,,,,*50
$GNGRS,083723.00,1,-1.9,-0.8,-2.1,-11.9,3.0,,,,,,,*4A
$GNGST,083723.00,3438726,,,,3.2,4.9,5.8*7A
$GNZDA,083723.00,19,05,2025,00,00*7D
$GNGBS,083723.00,3.2,4.9,5.8,,,,*53
b0XS

((QA)MPC-F;# {4U`:R 9D/BE?mFI)&J
7OP)STH#bSxW$GNRMC,083724.00,A,0419.72418,S,05539.89947,E,0.103,,190525,,,A*74
$GNVTG,,T,,M,0.103,N,0.190,K,A*37
$GNGNS,083724.00,0419.72418,S,05539.89947,E,AA,12,0.85,16.0,-47.6,,*6B
$GNGGA,083724.00,0419.72418,S,05539.89947,E,1,12,0.85,16.0,M,-47.6,M,,*41
$GNGSA,A,3,25,23,12,15,29,18,24,,,,,,1.58,0.85,1.33*19
$GNGSA,A,3,69,80,73,68,83,,,,,,,,1.58,0.85,1.33*1A
$GPGSV,5,1,18,05,02,029,29,10,40,233,,12,40,153,28,13,05,065,29*71
$GPGSV,5,2,18,15,41,077,29,18,20,336,28,23,67,301,26,24,17,141,25*7F
$GPGSV,5,3,18,25,70,193,24,26,04,315,17,28,12,251,,29,35,022,31*7A
$GPGSV,5,4,18,31,00,272,,32,11,209,,36,52,277,,40,85,352,*73
$GPGSV,5,5,18,41,58,082,31,49,32,274,*7D
$GLGSV,3,1,09,68,28,047,26,69,63,109,25,70,23,195,,73,41,274,13*61
$GLGSV,3,2,09,74,10,311,11,79,02,157,19,80,41,194,11,83,07,018,25*68
$GLGSV,3,3,09,84,01,328,*58
$GNGLL,0419.72418,S,05539.89947,E,083724.00,A,A*65
$GNGRS,083724.00,1,-3.8,-2.7,-1.7,2.7,1.7,-1.0,1.5,,,,,*7A
$GNGRS,083724.00,1,0.3,-0.7,-2.2,-9.6,2.1,,,,,,,*51
$GNGST,083724.00,4856426,,,,3.2,4.9,5.9*7C
$GNZDA,083724.00,19,05,2025,00,00*7A
$GNGBS,083724.00,3.2,4.9,5.9,,,,*55
b0XW
(#(A%)M#P>C-$F;+# {4U`!:R (aD/VE?mFI)J7O
RP
)LS THubWx$GNRMC,083725.00,A,0419.72427,S,05539.89912,E,1.176,243.24,190525,,,A*67
$GNVTG,243.24,T,,M,1.176,N,2.178,K,A*2D
$GNGNS,083725.00,0419.72427,S,05539.89912,E,AA,11,1.12,16.5,-47.6,,*6F
$GNGGA,083725.00,0419.72427,S,05539.89912,E,1,11,1.12,16.5,M,-47.6,M,,*45
$GNGSA,A,3,25,23,12,15,29,18,24,,,,,,1.78,1.12,1.38*1F
$GNGSA,A,3,69,80,68,83,,,,,,,,,1.78,1.12,1.38*18
$GPGSV,5,1,18,05,02,029,29,10,40,233,,12,40,153,35,13,05,065,29*7D
$GPGSV,5,2,18,15,41,077,37,18,20,336,35,23,67,301,25,24,17,141,36*7D
$GPGSV,5,3,18,25,70,193,29,26,04,315,13,28,12,251,,29,35,022,43*76
$GPGSV,5,4,18,31,00,272,,32,11,209,,36,52,277,,40,85,352,*73
$GPGSV,5,5,18,41,58,082,33,49,32,274,*7F
$GLGSV,3,1,09,68,28,047,25,69,63,109,25,70,23,195,,73,41,274,07*67
$GLGSV,3,2,09,74,11,311,04,79,02,157,10,80,41,194,10,83,07,018,32*63
$GLGSV,3,3,09,84,01,328,*58
$GNGLL,0419.72427,S,05539.89912,E,083725.00,A,A*68
$GNGRS,083725.00,1,2.5,-5.1,-3.6,-0.8,1.4,-1.9,-0.8,,,,,*53
$GNGRS,083725.00,1,-0.1,-35.1,-9.4,3.9,,,,,,,,*47
$GNGST,083725.00,28,,,,3.1,4.8,5.9*4A
$GNZDA,083725.00,19,05,2025,00,00*7B
$GNGBS,083725.00,3.1,4.8,5.9,,,,*56
b0X[t

((A$)MPC-F;E(# {4U`:R 'D/cE?msFI)gJ7OP)STHJb[x'$GNRMC,083726.00,A,0419.72439,S,05539.89898,E,0.519,,190525,,,A*79
$GNVTG,,T,,M,0.519,N,0.962,K,A*3D
$GNGNS,083726.00,0419.72439,S,05539.89898,E,AA,12,0.85,16.5,-47.6,,*6C
$GNGGA,083726.00,0419.72439,S,05539.89898,E,1,12,0.85,16.5,M,-47.6,M,,*46
$GNGSA,A,3,25,23,12,15,29,18,24,,,,,,1.58,0.85,1.33*19
$GNGSA,A,3,69,80,73,68,83,,,,,,,,1.58,0.85,1.33*1A
$GPGSV,5,1,18,05,02,029,28,10,40,233,,12,40,153,26,13,05,065,22*75
$GPGSV,5,2,18,15,41,077,36,18,20,336,25,23,67,301,24,24,17,141,30*7A
$GPGSV,5,3,18,25,70,193,20,26,04,315,11,28,12,251,,29,35,022,40*7E
$GPGSV,5,4,18,31,00,272,,32,11,209,,36,52,277,,40,85,352,*73
$GPGSV,5,5,18,41,58,082,28,49,32,274,*75
$GLGSV,3,1,09,68,28,047,25,69,63,109,25,70,23,195,,73,41,274,12*63
$GLGSV,3,2,09,74,11,311,09,79,02,157,12,80,41,194,08,83,07,018,31*66
$GLGSV,3,3,09,84,01,328,*58
$GNGLL,0419.72439,S,05539.89898,E,083726.00,A,A*67
$GNGRS,083726.00,1,-6.0,-5.6,-3.3,-0.3,0.2,-2.7,0.1,,,,,*5B
$GNGRS,083726.00,1,1.1,-0.7,-1.5,-11.8,2.5,,,,,,,*67
$GNGST,083726.00,4856426,,,,3.1,4.9,6.0*77
$GNZDA,083726.00,19,05,2025,00,00*78
$GNGBS,083726.00,3.1,4.9,6.0,,,,*5E
b0X_

((AO)MUPPC-7rFK;&#I {4U`:R #8D/E?m$FI)J7OP)S&ATH5b_x$GNRMC,083727.00,A,0419.72444,S,05539.89925,E,1.209,197.02,190525,,,A*61
$GNVTG,197.02,T,,M,1.209,N,2.238,K,A*2F
$GNGNS,083727.00,0419.72444,S,05539.89925,E,AA,11,0.87,16.3,-47.6,,*67
$GNGGA,083727.00,0419.72444,S,05539.89925,E,1,11,0.87,16.3,M,-47.6,M,,*4D
$GNGSA,A,3,25,12,15,29,18,24,,,,,,,1.70,0.87,1.46*12
$GNGSA,A,3,69,80,73,68,83,,,,,,,,1.70,0.87,1.46*10
$GPGSV,5,1,18,05,02,029,27,10,40,233,,12,40,153,26,13,05,065,23*7B
$GPGSV,5,2,18,15,41,077,29,18,20,336,25,23,67,301,19,24,17,141,24*7F
$GPGSV,5,3,18,25,70,193,20,26,04,315,11,28,12,251,,29,35,022,38*71
$GPGSV,5,4,18,31,00,272,,32,11,209,,36,52,277,,40,85,352,*73
$GPGSV,5,5,18,41,58,082,29,49,32,274,*74
$GLGSV,3,1,09,68,28,047,30,69,63,109,30,70,23,195,,73,41,274,11*60
$GLGSV,3,2,09,74,11,311,08,79,02,157,11,80,41,194,12,83,07,018,38*66
$GLGSV,3,3,09,84,01,328,*58
$GNGLL,0419.72444,S,05539.89925,E,083727.00,A,A*6B
$GNGRS,083727.00,1,-1.8,-6.0,0.9,0.7,-1.8,-1.4,,,,,,*54
$GNGRS,083727.00,1,2.9,0.3,-0.1,-15.9,5.8,,,,,,,*4E
$GNGST,083727.00,5072371,,,,3.1,5.0,6.0*74
$GNZDA,083727.00,19,05,2025,00,00*79
$GNGBS,083727.00,3.1,5.0,6.0,,,,*57
b0Xc
((A)MPC-{F
;p"#O {4U`:R  ?D/0E?mtFI)J
7ZOP)XSTH'bcxq$GNRMC,083728.00,A,0419.72441,S,05539.89942,E,0.242,,190525,,,A*77
$GNVTG,,T,,M,0.242,N,0.448,K,A*31
$GNGNS,083728.00,0419.72441,S,05539.89942,E,AA,11,1.21,16.3,-47.6,,*61
$GNGGA,083728.00,0419.72441,S,05539.89942,E,1,11,1.21,16.3,M,-47.6,M,,*4B
$GNGSA,A,3,25,12,15,29,18,24,,,,,,,1.91,1.21,1.48*1E
$GNGSA,A,3,69,80,73,68,83,,,,,,,,1.91,1.21,1.48*1C
$GPGSV,5,1,18,05,02,029,26,10,40,233,,12,40,153,26,13,05,065,25*7C
$GPGSV,5,2,18,15,41,077,28,18,20,336,26,23,67,301,21,24,17,141,25*77
$GPGSV,5,3,18,25,70,193,21,26,04,315,10,28,12,251,,29,35,022,34*7D
$GPGSV,5,4,18,31,00,272,,32,11,209,,36,52,277,,40,85,352,*73
$GPGSV,5,5,18,41,58,082,28,49,32,274,*75
$GLGSV,3,1,09,68,28,047,23,69,63,109,24,70,23,195,,73,41,274,08*6F
$GLGSV,3,2,09,74,11,311,10,79,02,157,09,80,41,194,11,83,07,018,31*6C
$GLGSV,3,3,09,84,01,328,*58
$GNGLL,0419.72441,S,05539.89942,E,083728.00,A,A*60
$GNGRS,083728.00,1,-10.7,-3.8,-0.8,0.8,-3.7,-0.7,,,,,,*45
$GNGRS,083728.00,1,-1.4,-145,-96.0,-17.4,7.3,,,,,,,*6A
$GNGST,083728.00,35,,,,3.1,5.2,6.1*4B
$GNZDA,083728.00,19,05,2025,00,00*76
$GNGBS,083728.00,3.1,5.2,6.1,,,,*5B
b0Xxg

((qA)MPC-fFF;$# {4U`:R D/YE?mFI
)J7yOP)STHbxgxpI_$GNRMC,083729.00,A,0419.72440,S,05539.89942,E,0.133,,190525,,,A*72
$GNVTG,,T,,M,0.133,N,0.245,K,A*3F
$GNGNS,083729.00,0419.72440,S,05539.89942,E,AA,11,0.87,16.2,-47.6,,*6D
$GNGGA,083729.00,0419.72440,S,05539.89942,E,1,11,0.87,16.2,M,-47.6,M,,*47
$GNGSA,A,3,25,12,15,29,18,24,,,,,,,1.70,0.87,1.46*12
$GNGSA,A,3,69,80,73,68,83,,,,,,,,1.70,0.87,1.46*10
$GPGSV,5,1,18,05,02,029,27,10,40,233,,12,40,153,26,13,05,065,25*7D
$GPGSV,5,2,18,15,41,077,28,18,20,336,26,23,67,301,20,24,17,141,24*77
$GPGSV,5,3,18,25,70,193,22,26,04,315,08,28,12,251,,29,35,022,36*75
$GPGSV,5,4,18,31,00,272,,32,11,209,,36,52,277,,40,85,352,*73
$GPGSV,5,5,18,41,58,082,28,49,32,274,*75
$GLGSV,3,1,09,68,28,047,24,69,63,109,23,70,23,195,,73,41,274,10*66
$GLGSV,3,2,09,74,11,311,06,79,02,157,11,80,41,194,08,83,07,018,30*6B
$GLGSV,3,3,09,84,01,328,*58
$GNGLL,0419.72440,S,05539.89942,E,083729.00,A,A*60
$GNGRS,083729.00,1,-7.0,-4.0,-2.3,-0.1,2.3,1.0,,,,,,*54
$GNGRS,083729.00,1,-0.5,-1.2,-2.3,-14.5,4.6,,,,,,,*4C
$GNGST,083729.00,3586710,,,,3.2,5.4,6.2*74
$GNZDA,083729.00,19,05,2025,00,00*77
$GNGBS,083729.00,3.2,5.4,6.2,,,,*5C
b0X`k

((A)MP@C-gsF;"##` {4U`:R ".D/GE?mFI)J7OP)eS 'THIb`kxX!$GNRMC,083730.00,A,0419.72436,S,05539.89949,E,0.203,,190525,,,A*70
$GNVTG,,T,,M,0.203,N,0.375,K,A*3D
$GNGNS,083730.00,0419.72436,S,05539.89949,E,AA,12,0.85,16.1,-47.6,,*6D
$GNGGA,083730.00,0419.72436,S,05539.89949,E,1,12,0.85,16.1,M,-47.6,M,,*47
$GNGSA,A,3,25,23,12,15,29,18,24,,,,,,1.58,0.85,1.33*19
$GNGSA,A,3,69,80,73,68,83,,,,,,,,1.58,0.85,1.33*1A
$GPGSV,5,1,18,05,02,029,29,10,40,233,,12,40,153,26,13,05,065,30*77
$GPGSV,5,2,18,15,41,077,29,18,20,336,27,23,67,301,22,24,17,141,30*70
$GPGSV,5,3,18,25,70,193,25,26,04,315,11,28,12,251,,29,35,022,35*79
$GPGSV,5,4,18,31,00,272,,32,11,209,,36,52,277,,40,85,352,*73
$GPGSV,5,5,18,41,58,082,31,49,32,274,*7D
$GLGSV,3,1,09,68,28,047,26,69,63,109,25,70,23,195,,73,41,274,09*6A
$GLGSV,3,2,09,74,11,311,03,79,02,157,12,80,41,194,09,83,07,018,32*6E
$GLGSV,3,3,09,84,01,328,*58
$GNGLL,0419.72436,S,05539.89949,E,083730.00,A,A*62
$GNGRS,083730.00,1,-2.6,1.0,-4.9,-1.1,1.0,0.6,1.1,,,,,*53
$GNGRS,083730.00,1,-1.0,-1.5,-2.9,-14.7,2.9,,,,,,,*46
$GNGST,083730.00,3434015,,,,3.2,5.5,6.3*76
$GNZDA,083730.00,19,05,2025,00,00*7F
$GNGBS,083730.00,3.2,5.5,6.3,,,,*54
b0XHo!

((lA#$)M PC-J"F
;*# {4U` :R 'D/E ?mFI)qJ7$OP(S%THbHox@/$GNRMC,083731.00,A,0419.72439,S,05539.89940,E,0.068,,190525,,,A*78
$GNVTG,,T,,M,0.068,N,0.125,K,A*35
$GNGNS,083731.00,0419.72439,S,05539.89940,E,AA,12,1.12,15.9,-47.6,,*6E
$GNGGA,083731.00,0419.72439,S,05539.89940,E,1,12,1.12,15.9,M,-47.6,M,,*44
$GNGSA,A,3,25,23,12,15,29,18,24,,,,,,1.78,1.12,1.38*1F
$GNGSA,A,3,69,80,73,68,83,,,,,,,,1.78,1.12,1.38*1C
$GPGSV,5,1,18,05,02,029,33,10,40,233,,12,40,153,31,13,05,065,30*7A
$GPGSV,5,2,18,15,41,077,36,18,20,336,32,23,67,301,23,24,17,141,34*7F
$GPGSV,5,3,18,25,70,193,26,26,04,315,10,28,12,251,,29,35,022,42*7B
$GPGSV,5,4,18,31,00,272,,32,11,209,,36,52,277,,40,85,352,*73
$GPGSV,5,5,18,41,58,082,32,49,32,274,*7E
$GLGSV,3,1,09,68,28,047,31,69,63,109,32,70,23,195,,73,41,274,09*6A
$GLGSV,3,2,09,74,11,311,09,79,02,157,13,80,40,194,07,83,07,018,37*6F
$GLGSV,3,3,09,84,01,328,*58
$GNGLL,0419.72439,S,05539.89940,E,083731.00,A,A*65
$GNGRS,083731.00,1,-3.0,-1.8,1.1,-3.0,0.2,-0.5,1.8,,,,,*77
$GNGRS,083731.00,1,0.2,-34.2,-112,-5.8,4.8,,,,,,,*77
$GNGST,083731.00,31,,,,3.1,5.4,6.2*42
$GNZDA,083731.00,19,05,2025,00,00*7E
$GNGBS,083731.00,3.1,5.4,6.2,,,,*56
b0X0s

((tA)MPC-F&;
"# {4U`:R D/E?mFI
)5J
7wO"P(STHb0sx($GNRMC,083732.00,A,0419.72437,S,05539.89940,E,0.158,,190525,,,A*77
$GNVTG,,T,,M,0.158,N,0.292,K,A*38
$GNGNS,083732.00,0419.72437,S,05539.89940,E,AA,12,0.85,16.0,-47.6,,*66
$GNGGA,083732.00,0419.72437,S,05539.89940,E,1,12,0.85,16.0,M,-47.6,M,,*4C
$GNGSA,A,3,25,23,12,15,29,18,24,,,,,,1.58,0.85,1.33*19
$GNGSA,A,3,69,80,73,68,83,,,,,,,,1.58,0.85,1.33*1A
$GPGSV,5,1,18,05,02,029,29,10,40,233,,12,40,153,31,13,05,065,29*79
$GPGSV,5,2,18,15,41,077,27,18,20,336,26,23,67,301,24,24,17,141,30*79
$GPGSV,5,3,18,25,70,193,27,26,04,315,13,28,12,251,,29,35,022,34*78
$GPGSV,5,4,18,31,00,272,,32,11,209,,36,52,277,,40,85,352,*73
$GPGSV,5,5,18,41,58,082,31,49,32,274,*7D
$GLGSV,3,1,09,68,28,047,31,69,63,109,26,70,23,195,,73,41,274,10*67
$GLGSV,3,2,09,74,11,311,10,79,02,157,15,80,40,194,08,83,07,018,31*68
$GLGSV,3,3,09,84,01,328,*58
$GNGLL,0419.72437,S,05539.89940,E,083732.00,A,A*68
$GNGRS,083732.00,1,-2.2,-3.1,-4.0,4.4,-0.6,-0.2,1.5,,,,,*58
$GNGRS,083732.00,1,-3.0,-0.9,-2.0,-5.3,-0.4,,,,,,,*54
$GNGST,083732.00,4856426,,,,3.0,5.4,6.3*7C
$GNZDA,083732.00,19,05,2025,00,00*7D
$GNGBS,083732.00,3.0,5.4,6.3,,,,*55
b0Xwo

((WA)MyPC-<F;$# {4U`:R D/E?mFI)(J7POP(S TH8bwx$GNRMC,083733.00,A,0419.72439,S,05539.89938,E,0.053,,190525,,,A*7D
$GNVTG,,T,,M,0.053,N,0.099,K,A*3B
$GNGNS,083733.00,0419.72439,S,05539.89938,E,AA,12,0.85,16.0,-47.6,,*66
$GNGGA,083733.00,0419.72439,S,05539.89938,E,1,12,0.85,16.0,M,-47.6,M,,*4C
$GNGSA,A,3,25,23,12,15,29,18,24,,,,,,1.58,0.85,1.33*19
$GNGSA,A,3,69,80,73,68,83,,,,,,,,1.58,0.85,1.33*1A
$GPGSV,5,1,18,05,02,029,27,10,40,233,,12,40,153,26,13,05,065,23*7B
$GPGSV,5,2,18,15,41,077,28,18,20,336,26,23,67,301,22,24,17,141,30*70
$GPGSV,5,3,18,25,70,193,26,26,04,315,13,28,12,251,,29,35,022,36*7B
$GPGSV,5,4,18,31,00,272,,32,11,209,,36,52,277,,40,85,352,*73
$GPGSV,5,5,18,41,58,082,,49,32,274,*7F
$GLGSV,3,1,09,68,28,047,25,69,63,109,25,70,23,195,,73,41,274,08*68
$GLGSV,3,2,09,74,11,311,07,79,02,157,08,80,40,194,07,83,07,018,27*6A
$GLGSV,3,3,09,84,01,328,*58
$GNGLL,0419.72439,S,05539.89938,E,083733.00,A,A*68
$GNGRS,083733.00,1,-2.8,1.7,-1.7,1.2,-1.0,-0.5,0.6,,,,,*79
$GNGRS,083733.00,1,-6.4,-1.0,-2.2,-3.7,5.4,,,,,,,*74
$GNGST,083733.00,4856426,,,,3.0,5.4,6.3*7D
$GNZDA,083733.00,19,05,2025,00,00*7C
$GNGBS,083733.00,3.0,5.4,6.3,,,,*54
b0X{!c

("(FA%)M#PC-p$FK;\+# {4U`:R 'VD#/E?mFI)Z8J
7O
P(8S&THkb{xd$GNRMC,083734.00,A,0419.72441,S,05539.89922,E,0.018,,190525,,,A*71
$GNVTG,,T,,M,0.018,N,0.033,K,A*34
$GNGNS,083734.00,0419.72441,S,05539.89922,E,AA,13,0.92,15.7,-47.6,,*66
$GNGGA,083734.00,0419.72441,S,05539.89922,E,1,12,0.92,15.7,M,-47.6,M,,*4D
$GNGSA,A,3,25,23,12,15,29,18,24,,,,,,1.52,0.92,1.21*16
$GNGSA,A,3,69,80,73,68,74,83,,,,,,,1.52,0.92,1.21*16
$GPGSV,5,1,18,05,02,029,33,10,40,233,,12,40,153,34,13,05,065,30*7F
$GPGSV,5,2,18,15,41,077,37,18,20,336,35,23,67,301,25,24,17,141,36*7D
$GPGSV,5,3,18,25,70,193,31,26,04,315,13,28,12,251,,29,35,022,43*7F
$GPGSV,5,4,18,31,00,272,,32,11,209,,36,52,277,,40,85,352,*73
$GPGSV,5,5,18,41,58,082,,49,32,274,*7F
$GLGSV,3,1,09,68,28,047,35,69,63,109,25,70,23,195,,73,41,274,13*63
$GLGSV,3,2,09,74,11,311,10,79,02,157,10,80,40,194,08,83,07,018,38*64
$GLGSV,3,3,09,84,01,328,*58
$GNGLL,0419.72441,S,05539.89922,E,083734.00,A,A*6B
$GNGRS,083734.00,1,-1.8,-1.4,0.7,-2.7,-0.3,-0.3,-0.3,,,,,*78
$GNGRS,083734.00,1,-5.3,146,144,-5.0,11.6,6.6,,,,,,*6C
$GNGST,083734.00,45,,,,2.9,5.2,6.2*4B
$GNZDA,083734.00,19,05,2025,00,00*7B
$GNGBS,083734.00,2.9,5.2,6.2,,,,*5C
b0X~ y

( (A#)MJ P[C-#F;++# {4U`:R 'D/qE?mqFI)LJ7~O(P(S&=TIb~xW$GNRMC,083735.00,A,0419.72441,S,05539.89926,E,0.032,,190525,,,A*7C
$GNVTG,,T,,M,0.032,N,0.060,K,A*3A
$GNGNS,083735.00,0419.72441,S,05539.89926,E,AA,13,0.78,15.5,-47.6,,*65
$GNGGA,083735.00,0419.72441,S,05539.89926,E,1,12,0.78,15.5,M,-47.6,M,,*4E
$GNGSA,A,3,25,23,12,15,29,18,24,,,,,,1.43,0.78,1.19*19
$GNGSA,A,3,69,80,73,68,74,83,,,,,,,1.43,0.78,1.19*19
$GPGSV,5,1,18,05,02,029,32,10,40,233,,12,40,153,32,13,05,065,30*78
$GPGSV,5,2,18,15,41,077,35,18,20,336,32,23,67,301,26,24,17,141,35*78
$GPGSV,5,3,18,25,70,193,30,26,04,315,12,28,12,251,,29,35,022,43*7F
$GPGSV,5,4,18,31,00,272,,32,11,209,,36,52,277,,40,85,352,*73
$GPGSV,5,5,18,41,58,082,,49,32,274,*7F
$GLGSV,3,1,09,68,28,047,31,69,63,109,30,70,23,195,,73,41,274,08*69
$GLGSV,3,2,09,74,11,311,09,79,02,157,13,80,40,194,09,83,07,018,38*6E
$GLGSV,3,3,09,84,01,329,*59
$GNGLL,0419.72441,S,05539.89926,E,083735.00,A,A*6E
$GNGRS,083735.00,1,-2.9,-3.2,-1.2,0.7,-0.1,-1.6,1.3,,,,,*53
$GNGRS,083735.00,1,-6.6,-0.8,-1.8,-6.6,16.6,3.2,,,,,,*6B
$GNGST,083735.00,43492,,,,2.9,5.1,6.1*73
$GNZDA,083735.00,19,05,2025,00,00*7A
$GNGBS,083735.00,2.9,5.1,6.1,,,,*5D
b0XK

((A)M(POC-RF>
;u# {4U`:R jD/E?mFI)J
7O>P(SgTIwbx/%$GNRMC,083736.00,A,0419.72427,S,05539.89880,E,2.121,264.18,190525,,,A*64
$GNVTG,264.18,T,,M,2.121,N,3.928,K,A*2A
$GNGNS,083736.00,0419.72427,S,05539.89880,E,AA,13,0.78,15.3,-47.6,,*6D
$GNGGA,083736.00,0419.72427,S,05539.89880,E,1,12,0.78,15.3,M,-47.6,M,,*46
$GNGSA,A,3,25,23,12,15,29,18,24,,,,,,1.43,0.78,1.19*19
$GNGSA,A,3,69,80,73,68,74,83,,,,,,,1.43,0.78,1.19*19
$GPGSV,5,1,18,05,02,029,25,10,40,233,,12,40,153,25,13,05,065,20*79
$GPGSV,5,2,18,15,41,077,26,18,20,336,25,23,67,301,25,24,17,141,25*7E
$GPGSV,5,3,18,25,70,193,20,26,04,315,10,28,12,251,,29,35,022,30*78
$GPGSV,5,4,18,31,00,272,,32,11,209,,36,52,277,,40,85,352,*73
$GPGSV,5,5,18,41,58,082,,49,32,274,*7F
$GLGSV,3,1,09,68,28,047,25,69,63,109,22,70,23,195,,73,41,274,12*64
$GLGSV,3,2,09,74,11,311,10,79,02,157,14,80,40,194,12,83,07,018,28*6A
$GLGSV,3,3,09,84,01,329,*59
$GNGLL,0419.72427,S,05539.89880,E,083736.00,A,A*60
$GNGRS,083736.00,1,0.6,-1.2,0.3,0.4,-0.2,0.8,3.4,,,,,*78
$GNGRS,083736.00,1,-3.7,-0.9,-2.6,-6.0,15.3,6.2,,,,,,*65
$GNGST,083736.00,63585,,,,2.9,5.1,6.2*76
$GNZDA,083736.00,19,05,2025,00,00*79
$GNGBS,083736.00,2.9,5.1,6.2,,,,*5D
b0X

((A)MnPC-6Fb;
# {4U`:R D/TE?m
FI)(J7>O
Q
P
(STIcbx$GNRMC,083737.00,A,0419.72433,S,05539.89859,E,0.420,,190525,,,A*75
$GNVTG,,T,,M,0.420,N,0.777,K,A*3C
$GNGNS,083737.00,0419.72433,S,05539.89859,E,AA,12,0.85,15.3,-47.6,,*6E
$GNGGA,083737.00,0419.72433,S,05539.89859,E,1,12,0.85,15.3,M,-47.6,M,,*44
$GNGSA,A,3,25,23,12,15,29,18,24,,,,,,1.58,0.85,1.33*19
$GNGSA,A,3,69,80,73,68,83,,,,,,,,1.58,0.85,1.33*1A
$GPGSV,5,1,18,05,02,029,26,10,40,233,,12,40,153,25,13,05,065,21*7B
$GPGSV,5,2,18,15,41,077,25,18,20,336,25,23,67,301,23,24,17,141,27*79
$GPGSV,5,3,18,25,70,193,21,26,04,315,09,28,12,251,,29,35,022,29*79
$GPGSV,5,4,18,31,00,272,,32,11,209,,36,52,277,,40,85,352,*73
$GPGSV,5,5,18,41,58,082,,49,32,274,*7F
$GLGSV,3,1,09,68,28,047,25,69,63,109,21,70,23,195,,73,41,274,08*6C
$GLGSV,3,2,09,74,11,311,07,79,02,157,10,80,40,194,10,83,07,018,29*6B
$GLGSV,3,3,09,84,01,329,*59
$GNGLL,0419.72433,S,05539.89859,E,083737.00,A,A*60
$GNGRS,083737.00,1,-6.7,0.5,0.0,1.1,5.1,-0.4,-0.2,,,,,*5D
$GNGRS,083737.00,1,0.1,38.7,104,-6.8,3.9,,,,,,,*79
$GNGST,083737.00,66,,,,3.0,5.2,6.3*40
$GNZDA,083737.00,19,05,2025,00,00*78
$GNGBS,083737.00,3.0,5.2,6.3,,,,*56
b0Xj

((AT )MPC- F;(#T {4U`:R #D /E?mFI
)6J7kOvP(S'TIbx$GNRMC,083738.00,A,0419.72431,S,05539.89855,E,0.350,,190525,,,A*74
$GNVTG,,T,,M,0.350,N,0.648,K,A*31
$GNGNS,083738.00,0419.72431,S,05539.89855,E,AA,12,0.85,15.4,-47.6,,*68
$GNGGA,083738.00,0419.72431,S,05539.89855,E,1,12,0.85,15.4,M,-47.6,M,,*42
$GNGSA,A,3,25,23,12,15,29,18,24,,,,,,1.58,0.85,1.33*19
$GNGSA,A,3,69,80,73,68,83,,,,,,,,1.58,0.85,1.33*1A
$GPGSV,5,1,18,05,02,029,26,10,40,233,,12,40,153,27,13,05,065,23*7B
$GPGSV,5,2,18,15,41,077,32,18,20,336,27,23,67,301,22,24,17,141,32*78
$GPGSV,5,3,18,25,70,193,23,26,04,315,07,28,12,251,,29,35,022,40*7A
$GPGSV,5,4,18,31,00,272,,32,11,209,,36,52,277,,40,85,352,*73
$GPGSV,5,5,18,41,58,082,,49,32,274,*7F
$GLGSV,3,1,09,68,28,047,32,69,63,109,31,70,23,195,,73,41,274,10*62
$GLGSV,3,2,09,74,11,311,08,79,02,157,17,80,40,194,11,83,07,018,39*63
$GLGSV,3,3,09,84,01,329,*59
$GNGLL,0419.72431,S,05539.89855,E,083738.00,A,A*61
$GNGRS,083738.00,1,-10.3,-0.3,-1.1,1.4,0.8,-0.7,-3.5,,,,,*69
$GNGRS,083738.00,1,4.0,-0.7,-2.0,-8.6,4.5,,,,,,,*5A
$GNGST,083738.00,4856426,,,,3.0,5.3,6.3*71
$GNZDA,083738.00,19,05,2025,00,00*77
$GNGBS,083738.00,3.0,5.3,6.3,,,,*58
b0X

((IA#)M2 P{C-#F;*# {4U`:R &D/lE?mhFI)oJ7OP(STI9bxY$GNRMC,083739.00,A,0419.72427,S,05539.89873,E,0.025,,190525,,,A*77
$GNVTG,,T,,M,0.025,N,0.045,K,A*3B
$GNGNS,083739.00,0419.72427,S,05539.89873,E,AA,12,0.85,15.5,-47.6,,*6B
$GNGGA,083739.00,0419.72427,S,05539.89873,E,1,12,0.85,15.5,M,-47.6,M,,*41
$GNGSA,A,3,25,23,12,15,29,18,24,,,,,,1.58,0.85,1.33*19
$GNGSA,A,3,69,80,73,68,83,,,,,,,,1.58,0.85,1.33*1A
$GPGSV,5,1,18,05,02,029,26,10,40,233,,12,40,153,31,13,05,065,24*7B
$GPGSV,5,2,18,15,41,077,35,18,20,336,32,23,67,301,22,24,17,141,35*7C
$GPGSV,5,3,18,25,70,193,23,26,04,315,08,28,12,251,,29,35,022,42*77
$GPGSV,5,4,18,31,00,272,,32,11,209,,36,52,277,,40,85,352,*73
$GPGSV,5,5,18,41,58,082,,49,32,274,*7F
$GLGSV,3,1,09,68,28,047,24,69,63,109,24,70,23,195,,73,41,274,11*60
$GLGSV,3,2,09,74,11,311,08,79,02,157,11,80,40,194,14,83,07,018,30*69
$GLGSV,3,3,09,84,01,329,*59
$GNGLL,0419.72427,S,05539.89873,E,083739.00,A,A*63
$GNGRS,083739.00,1,-8.3,1.7,-1.8,0.5,-0.5,-3.9,0.0,,,,,*76
$GNGRS,083739.00,1,6.2,0.0,-1.4,-9.2,2.1,,,,,,,*71
$GNGST,083739.00,4856426,,,,2.9,5.3,6.3*78
$GNZDA,083739.00,19,05,2025,00,00*76
$GNGBS,083739.00,2.9,5.3,6.3,,,,*51
b0Xp

((A )MP(C-<F;'#V {4U`:R  D/E?mtFI)SJ7?O
P(STI7bpxg$GNRMC,083740.00,A,0419.72422,S,05539.89879,E,0.103,,190525,,,A*73
$GNVTG,,T,,M,0.103,N,0.191,K,A*36
$GNGNS,083740.00,0419.72422,S,05539.89879,E,AA,12,0.85,15.5,-47.6,,*6A
$GNGGA,083740.00,0419.72422,S,05539.89879,E,1,12,0.85,15.5,M,-47.6,M,,*40
$GNGSA,A,3,25,23,12,15,29,18,24,,,,,,1.58,0.85,1.33*19
$GNGSA,A,3,69,80,73,68,83,,,,,,,,1.58,0.85,1.33*1A
$GPGSV,5,1,18,05,02,029,25,10,40,233,,12,40,153,25,13,05,065,23*7A
$GPGSV,5,2,18,15,41,077,32,18,20,336,28,23,67,301,22,24,17,141,27*73
$GPGSV,5,3,18,25,70,193,23,26,04,315,09,28,12,251,,29,35,022,39*7A
$GPGSV,5,4,18,31,00,272,,32,11,209,,36,52,277,,40,85,352,*73
$GPGSV,5,5,18,41,58,082,,49,32,274,*7F
$GLGSV,3,1,09,68,28,047,25,69,63,109,24,70,23,195,,73,41,274,08*69
$GLGSV,3,2,09,74,11,311,08,79,02,157,10,80,40,194,11,83,07,018,31*6C
$GLGSV,3,3,09,84,01,329,*59
$GNGLL,0419.72422,S,05539.89879,E,083740.00,A,A*62
$GNGRS,083740.00,1,-6.1,1.4,-2.5,-2.3,0.9,-2.2,0.6,,,,,*7D
$GNGRS,083740.00,1,3.7,-41.1,-148,-6.1,4.0,,,,,,,*7B
$GNGST,083740.00,75,,,,2.9,5.4,6.3*4C
$GNZDA,083740.00,19,05,2025,00,00*78
$GNGBS,083740.00,2.9,5.4,6.3,,,,*58
b0XX

((A&)M"PC-$8F5;,# {4U`:R &D/E?mFI)(J7}O?P(S%TIbXxOf)$GNRMC,083741.00,A,0419.72425,S,05539.89874,E,0.050,,190525,,,A*7F
$GNVTG,,T,,M,0.050,N,0.092,K,A*33
$GNGNS,083741.00,0419.72425,S,05539.89874,E,AA,12,0.85,15.4,-47.6,,*60
$GNGGA,083741.00,0419.72425,S,05539.89874,E,1,12,0.85,15.4,M,-47.6,M,,*4A
$GNGSA,A,3,25,23,12,15,29,18,24,,,,,,1.58,0.85,1.33*19
$GNGSA,A,3,69,80,73,68,83,,,,,,,,1.58,0.85,1.33*1A
$GPGSV,5,1,18,05,02,029,31,10,40,233,,12,40,153,31,13,05,065,31*79
$GPGSV,5,2,18,15,41,077,38,18,20,336,34,23,67,301,24,24,17,141,36*72
$GPGSV,5,3,18,25,70,193,26,26,04,315,08,28,12,251,,29,35,022,44*74
$GPGSV,5,4,18,31,00,272,,32,11,209,,36,52,277,,40,85,352,*73
$GPGSV,5,5,18,41,58,082,,49,32,274,*7F
$GLGSV,3,1,09,68,28,047,31,69,63,109,31,70,23,195,,73,41,274,14*65
$GLGSV,3,2,09,74,11,311,09,79,02,157,16,80,40,194,12,83,07,018,37*6E
$GLGSV,3,3,09,84,01,329,*59
$GNGLL,0419.72425,S,05539.89874,E,083741.00,A,A*69
$GNGRS,083741.00,1,-4.6,2.0,-3.5,-0.4,-0.6,-2.4,0.6,,,,,*5E
$GNGRS,083741.00,1,2.6,-1.2,-2.2,-10.5,4.8,,,,,,,*65
$GNGST,083741.00,3434013,,,,2.9,5.3,6.3*7A
$GNZDA,083741.00,19,05,2025,00,00*79
$GNGBS,083741.00,2.9,5.3,6.3,,,,*5E
b0X@
((7A )M,PC-3 FF;"&# {4U`:R !D/E?m4FI)J
7wOP(lS TI%b@x7>$GNRMC,083742.00,A,0419.72423,S,05539.89878,E,0.124,,190525,,,A*74
$GNVTG,,T,,M,0.124,N,0.230,K,A*3B
$GNGNS,083742.00,0419.72423,S,05539.89878,E,AA,12,0.85,15.3,-47.6,,*6E
$GNGGA,083742.00,0419.72423,S,05539.89878,E,1,12,0.85,15.3,M,-47.6,M,,*44
$GNGSA,A,3,25,23,12,15,29,18,24,,,,,,1.58,0.85,1.33*19
$GNGSA,A,3,69,80,73,68,83,,,,,,,,1.58,0.85,1.33*1A
$GPGSV,5,1,18,05,02,029,27,10,40,233,,12,40,153,27,13,05,065,29*70
$GPGSV,5,2,18,15,41,077,32,18,20,336,30,23,67,301,25,24,17,141,32*79
$GPGSV,5,3,18,25,70,193,26,26,04,315,08,28,12,251,,29,35,022,38*7F
$GPGSV,5,4,18,31,00,272,,32,11,209,,36,52,277,,40,85,352,*73
$GPGSV,5,5,18,41,58,082,,49,32,274,*7F
$GLGSV,3,1,09,68,28,047,26,69,63,109,25,70,23,195,,73,41,274,08*6B
$GLGSV,3,2,09,74,11,311,10,79,02,157,16,80,40,194,08,83,07,018,32*68
$GLGSV,3,3,09,84,01,329,*59
$GNGLL,0419.72423,S,05539.89878,E,083742.00,A,A*60
$GNGRS,083742.00,1,-7.0,0.5,-4.6,0.4,0.0,0.2,1.8,,,,,*7B
$GNGRS,083742.00,1,5.6,-1.5,-2.3,-13.3,2.6,,,,,,,*6A
$GNGST,083742.00,3434015,,,,2.8,5.2,6.2*7E
$GNZDA,083742.00,19,05,2025,00,00*7A
$GNGBS,083742.00,2.8,5.2,6.2,,,,*5C
b0X(
((A )M)P=C-^Fh;'&#/ {4
U`:R !aD/E?mtFI)FJ
7cOP
(S!}TIb(x$GNRMC,083743.00,A,0419.72422,S,05539.89877,E,0.179,,190525,,,A*73
$GNVTG,,T,,M,0.179,N,0.331,K,A*33
$GNGNS,083743.00,0419.72422,S,05539.89877,E,AA,13,0.78,15.3,-47.6,,*62
$GNGGA,083743.00,0419.72422,S,05539.89877,E,1,12,0.78,15.3,M,-47.6,M,,*49
$GNGSA,A,3,25,23,12,15,29,18,24,,,,,,1.43,0.78,1.19*19
$GNGSA,A,3,69,80,73,68,74,83,,,,,,,1.43,0.78,1.19*19
$GPGSV,5,1,18,05,02,029,23,10,40,233,,12,40,153,25,13,05,065,21*7E
$GPGSV,5,2,18,15,41,077,32,18,20,336,22,23,67,301,21,24,17,141,26*7B
$GPGSV,5,3,18,25,70,193,23,26,04,315,08,28,12,251,04,29,35,022,38*7E
$GPGSV,5,4,18,31,00,272,,32,11,209,,36,52,277,,40,85,352,*73
$GPGSV,5,5,18,41,58,082,,49,32,274,*7F
$GLGSV,3,1,09,68,28,047,25,69,63,109,23,70,23,195,,73,41,274,11*66
$GLGSV,3,2,09,74,11,311,10,79,02,157,15,80,40,194,10,83,07,018,33*63
$GLGSV,3,3,09,84,01,329,*59
$GNGLL,0419.72422,S,05539.89877,E,083743.00,A,A*6F
$GNGRS,083743.00,1,-6.6,0.9,-3.0,3.0,0.5,-4.5,1.5,,,,,*51
$GNGRS,083743.00,1,3.7,68.1,-40.3,-12.7,18.9,6.4,,,,,,*51
$GNGST,083743.00,71,,,,2.8,5.2,6.3*4C
$GNZDA,083743.00,19,05,2025,00,00*7B
$GNGBS,083743.00,2.8,5.2,6.3,,,,*5C
b0X
((gA
$)M!PC- 
Fd;{,*# {4
U`:R &D/E?mCFI)$J7OVP(STIbxa$GNRMC,083744.00,A,0419.72422,S,05539.89876,E,0.175,,190525,,,A*79
$GNVTG,,T,,M,0.175,N,0.324,K,A*3B
$GNGNS,083744.00,0419.72422,S,05539.89876,E,AA,12,0.85,15.5,-47.6,,*61
$GNGGA,083744.00,0419.72422,S,05539.89876,E,1,12,0.85,15.5,M,-47.6,M,,*4B
$GNGSA,A,3,25,23,12,15,29,18,24,,,,,,1.58,0.85,1.33*19
$GNGSA,A,3,69,80,73,68,83,,,,,,,,1.58,0.85,1.33*1A
$GPGSV,5,1,18,05,01,029,23,10,40,233,,12,40,153,31,13,05,065,21*78
$GPGSV,5,2,18,15,41,077,36,18,20,336,30,23,67,301,20,24,17,141,32*78
$GPGSV,5,3,18,25,70,193,22,26,04,315,08,28,12,251,,29,35,022,42*76
$GPGSV,5,4,18,31,00,272,,32,11,209,11,36,52,277,,40,85,352,*73
$GPGSV,5,5,18,41,58,082,,49,32,274,*7F
$GLGSV,3,1,09,68,28,047,24,69,63,109,22,70,23,195,,73,41,274,09*6F
$GLGSV,3,2,09,74,11,311,06,79,02,157,14,80,40,194,09,83,07,018,28*67
$GLGSV,3,3,09,84,01,329,*59
$GNGLL,0419.72422,S,05539.89876,E,083744.00,A,A*69
$GNGRS,083744.00,1,-4.1,1.6,-1.5,0.3,1.9,-3.2,-2.5,,,,,*79
$GNGRS,083744.00,1,8.3,-1.1,-2.2,-11.3,4.3,,,,,,,*60
$GNGST,083744.00,4856426,,,,2.9,5.3,6.3*72
$GNZDA,083744.00,19,05,2025,00,00*7C
$GNGBS,083744.00,2.9,5.3,6.3,,,,*5B
b0X
((AX)MbPC-F;1#: {4
U`:R D/!E?mFI)J7pOP(sS*TIebx$GNRMC,083745.00,A,0419.72430,S,05539.89867,E,0.248,,190525,,,A*76
$GNVTG,,T,,M,0.248,N,0.459,K,A*3B
$GNGNS,083745.00,0419.72430,S,05539.89867,E,AA,13,0.78,15.5,-47.6,,*60
$GNGGA,083745.00,0419.72430,S,05539.89867,E,1,12,0.78,15.5,M,-47.6,M,,*4B
$GNGSA,A,3,25,23,12,15,29,18,24,,,,,,1.43,0.78,1.19*19
$GNGSA,A,3,69,80,73,68,74,83,,,,,,,1.43,0.78,1.19*19
$GPGSV,5,1,18,05,01,029,21,10,40,233,,12,40,153,27,13,05,065,18*77
$GPGSV,5,2,18,15,41,077,27,18,20,336,25,23,67,301,21,24,17,141,27*79
$GPGSV,5,3,18,25,70,193,19,26,04,315,08,28,12,251,,29,35,022,29*73
$GPGSV,5,4,18,31,00,272,,32,11,209,08,36,52,277,,40,85,352,*7B
$GPGSV,5,5,18,41,58,082,,49,32,274,*7F
$GLGSV,3,1,09,68,28,047,25,69,63,109,23,70,23,195,,73,41,274,09*6F
$GLGSV,3,2,09,74,11,311,08,79,02,157,14,80,40,194,08,83,07,018,28*68
$GLGSV,3,3,09,84,01,329,*59
$GNGLL,0419.72430,S,05539.89867,E,083745.00,A,A*6B
$GNGRS,083745.00,1,-0.6,-0.9,-2.5,3.5,-2.0,1.3,-1.1,,,,,*50
$GNGRS,083745.00,1,4.3,-1.4,-2.7,-12.5,16.5,3.0,,,,,,*70
$GNGST,083745.00,4666074,,,,2.9,5.4,6.4*7D
$GNZDA,083745.00,19,05,2025,00,00*7D
$GNGBS,083745.00,2.9,5.4,6.4,,,,*5A
b0X
( (nAY$)MPSC-#SF@;7*# {4
U`:R %5D/E?mPFI)0J
7)OAP(S&TIabx$GNRMC,083746.00,A,0419.72431,S,05539.89870,E,0.106,,190525,,,A*7B
$GNVTG,,T,,M,0.106,N,0.197,K,A*35
$GNGNS,083746.00,0419.72431,S,05539.89870,E,AA,13,0.92,15.3,-47.6,,*66
$GNGGA,083746.00,0419.72431,S,05539.89870,E,1,12,0.92,15.3,M,-47.6,M,,*4D
$GNGSA,A,3,25,23,12,15,29,18,24,,,,,,1.64,0.92,1.36*15
$GNGSA,A,3,69,80,73,68,74,83,,,,,,,1.64,0.92,1.36*15
$GPGSV,5,1,18,05,01,029,30,10,40,233,,12,40,153,32,13,05,065,29*71
$GPGSV,5,2,18,15,41,077,36,18,20,336,31,23,67,301,23,24,17,141,35*7D
$GPGSV,5,3,18,25,70,193,29,26,04,315,08,28,12,251,,29,35,022,42*7D
$GPGSV,5,4,18,31,00,272,,32,11,209,08,36,52,277,,40,85,352,*7B
$GPGSV,5,5,18,41,58,082,,49,32,274,*7F
$GLGSV,3,1,09,68,28,047,31,69,63,109,31,70,23,195,,73,41,274,11*60
$GLGSV,3,2,09,74,11,311,10,79,02,157,14,80,40,194,08,83,07,018,38*60
$GLGSV,3,3,09,84,01,329,*59
$GNGLL,0419.72431,S,05539.89870,E,083746.00,A,A*6F
$GNGRS,083746.00,1,0.6,-3.1,-1.5,-0.6,0.3,-1.7,0.8,,,,,*7B
$GNGRS,083746.00,1,0.8,28.3,0.5,-8.7,-130,4.7,,,,,,*7A
$GNGST,083746.00,44,,,,2.8,5.4,6.4*4E
$GNZDA,083746.00,19,05,2025,00,00*7E
$GNGBS,083746.00,2.8,5.4,6.4,,,,*58
b0XY
((A)MPC-4yF"; #N {4
U`:R D/hE?mFI)'J7}OP(SaTIYbxt$GNRMC,083747.00,A,0419.72433,S,05539.89881,E,0.558,,190525,,,A*79
$GNVTG,,T,,M,0.558,N,1.034,K,A*33
$GNGNS,083747.00,0419.72433,S,05539.89881,E,AA,13,0.78,15.5,-47.6,,*69
$GNGGA,083747.00,0419.72433,S,05539.89881,E,1,12,0.78,15.5,M,-47.6,M,,*42
$GNGSA,A,3,25,23,12,15,29,18,24,,,,,,1.43,0.78,1.19*19
$GNGSA,A,3,69,80,73,68,74,83,,,,,,,1.43,0.78,1.19*19
$GPGSV,5,1,18,05,01,029,20,10,40,233,,12,40,153,27,13,05,065,18*76
$GPGSV,5,2,18,15,41,077,28,18,20,336,24,23,67,301,22,24,17,141,27*74
$GPGSV,5,3,18,25,70,193,20,26,04,315,,28,12,251,,29,35,022,32*7B
$GPGSV,5,4,18,31,00,272,,32,11,209,08,36,52,277,,40,85,352,*7B
$GPGSV,5,5,18,41,58,082,,49,32,274,*7F
$GLGSV,3,1,09,68,28,047,24,69,63,109,23,70,23,195,,73,41,274,11*67
$GLGSV,3,2,09,74,11,311,09,79,02,157,15,80,40,194,13,83,07,018,27*6D
$GLGSV,3,3,09,84,01,329,*59
$GNGLL,0419.72433,S,05539.89881,E,083747.00,A,A*62
$GNGRS,083747.00,1,0.3,-2.0,0.3,2.1,-1.8,-3.4,3.8,,,,,*58
$GNGRS,083747.00,1,2.2,-1.2,-2.2,-6.6,16.6,8.7,,,,,,*4F
$GNGST,083747.00,3299496,,,,2.9,5.5,6.5*74
$GNZDA,083747.00,19,05,2025,00,00*7F
$GNGBS,083747.00,2.9,5.5,6.5,,,,*58
b0X
( (AK#)M/PC-f!Fn;*#" {4
U`:R %pD/0E?mFI)J7VOXP(pS$TIXbxL$GNRMC,083748.00,A,0419.72433,S,05539.89882,E,0.018,,190525,,,A*74
$GNVTG,,T,,M,0.018,N,0.034,K,A*33
$GNGNS,083748.00,0419.72433,S,05539.89882,E,AA,12,0.84,15.4,-47.6,,*66
$GNGGA,083748.00,0419.72433,S,05539.89882,E,1,12,0.84,15.4,M,-47.6,M,,*4C
$GNGSA,A,3,25,23,12,15,29,18,24,,,,,,1.47,0.84,1.21*15
$GNGSA,A,3,69,73,68,74,83,,,,,,,,1.47,0.84,1.21*1D
$GPGSV,5,1,18,05,01,029,25,10,40,233,,12,40,153,32,13,05,065,29*75
$GPGSV,5,2,18,15,41,077,35,18,20,336,31,23,67,301,24,24,17,141,33*7F
$GPGSV,5,3,18,25,70,193,25,26,04,315,,28,12,251,,29,35,022,42*79
$GPGSV,5,4,18,31,00,272,,32,11,209,08,36,52,277,,40,85,352,*7B
$GPGSV,5,5,18,41,58,082,,49,32,274,*7F
$GLGSV,3,1,09,68,28,047,31,69,63,109,27,70,23,195,,73,41,274,12*64
$GLGSV,3,2,09,74,11,311,08,79,02,157,15,80,40,194,07,83,07,018,36*69
$GLGSV,3,3,09,84,01,329,*59
$GNGLL,0419.72433,S,05539.89882,E,083748.00,A,A*6E
$GNGRS,083748.00,1,-4.0,-1.5,0.1,0.5,0.3,-1.2,-0.1,,,,,*7B
$GNGRS,083748.00,1,-1.2,-2.5,-2.1,16.2,4.1,,,,,,,*64
$GNGST,083748.00,55630,,,,2.8,5.5,6.4*74
$GNZDA,083748.00,19,05,2025,00,00*70
$GNGBS,083748.00,2.8,5.5,6.4,,,,*57
b0X
((A")MZ P~C-"F;*# {4
U`:R %JD/E?mFI)J7OeP
(S%KTIfbx$W$GNRMC,083749.00,A,0419.72429,S,05539.89879,E,0.072,,190525,,,A*76
$GNVTG,,T,,M,0.072,N,0.133,K,A*39
$GNGNS,083749.00,0419.72429,S,05539.89879,E,AA,12,1.12,15.3,-47.6,,*61
$GNGGA,083749.00,0419.72429,S,05539.89879,E,1,12,1.12,15.3,M,-47.6,M,,*4B
$GNGSA,A,3,25,23,12,15,29,18,24,,,,,,1.78,1.12,1.38*1F
$GNGSA,A,3,69,80,73,68,83,,,,,,,,1.78,1.12,1.38*1C
$GPGSV,5,1,18,05,01,029,27,10,40,234,,12,40,153,31,13,05,065,29*73
$GPGSV,5,2,18,15,41,077,34,18,20,336,32,23,67,301,25,24,17,141,34*7B
$GPGSV,5,3,18,25,70,193,27,26,04,315,,28,12,251,,29,35,022,42*7B
$GPGSV,5,4,18,31,00,272,,32,11,209,09,36,52,277,,40,85,352,*7A
$GPGSV,5,5,18,41,58,082,,49,32,274,*7F
$GLGSV,3,1,09,68,28,047,31,69,63,109,29,70,23,195,,73,41,274,12*6A
$GLGSV,3,2,09,74,11,311,07,79,02,157,16,80,40,194,10,83,07,018,37*62
$GLGSV,3,3,09,84,01,329,*59
$GNGLL,0419.72429,S,05539.89879,E,083749.00,A,A*60
$GNGRS,083749.00,1,-5.0,-0.9,-2.8,0.9,-0.2,1.3,-2.9,,,,,*56
$GNGRS,083749.00,1,1.5,-36.1,-59.2,-10.0,3.3,,,,,,,*6D
$GNGST,083749.00,24,,,,2.8,5.4,6.4*47
$GNZDA,083749.00,19,05,2025,00,00*71
$GNGBS,083749.00,2.8,5.4,6.4,,,,*57
b0X|
((A )M!PC-#F;)# 
{4
U`:R &D /E?mFI)@J7yO/P(S$TI2bxw$GNRMC,083750.00,A,0419.72428,S,05539.89882,E,0.041,,190525,,,A*7B
$GNVTG,,T,,M,0.041,N,0.076,K,A*39
$GNGNS,083750.00,0419.72428,S,05539.89882,E,AA,12,0.85,15.3,-47.6,,*63
$GNGGA,083750.00,0419.72428,S,05539.89882,E,1,12,0.85,15.3,M,-47.6,M,,*49
$GNGSA,A,3,25,23,12,15,29,18,24,,,,,,1.58,0.85,1.33*19
$GNGSA,A,3,69,80,73,68,83,,,,,,,,1.58,0.85,1.33*1A
$GPGSV,5,1,18,05,01,029,27,10,40,234,,12,40,153,31,13,05,065,28*72
$GPGSV,5,2,18,15,41,077,32,18,20,336,33,23,67,301,26,24,17,141,35*7E
$GPGSV,5,3,18,25,70,193,28,26,04,315,,28,12,251,,29,35,022,41*77
$GPGSV,5,4,18,31,00,272,,32,11,209,10,36,52,277,,40,85,352,*72
$GPGSV,5,5,18,41,58,082,,49,32,274,*7F
$GLGSV,3,1,09,68,28,047,32,69,63,109,29,70,23,195,,73,41,274,12*69
$GLGSV,3,2,09,74,11,311,07,79,02,157,17,80,40,194,13,83,07,018,36*61
$GLGSV,3,3,09,84,01,329,*59
$GNGLL,0419.72428,S,05539.89882,E,083750.00,A,A*6D
$GNGRS,083750.00,1,-5.4,-0.1,1.8,2.2,-0.5,-1.1,-1.1,,,,,*56
$GNGRS,083750.00,1,2.3,-0.8,-1.9,-7.4,5.1,,,,,,,*5C
$GNGST,083750.00,4856426,,,,2.7,5.3,6.3*79
$GNZDA,083750.00,19,05,2025,00,00*79
$GNGBS,083750.00,2.7,5.3,6.3,,,,*50
b0XhM
('A)MPC-tF;1'#5 {4
U`:R !ED/xE?mBFI
)PJ
7~OP(STIbhx_'$GNRMC,083751.00,A,0419.72425,S,05539.89889,E,0.114,,190525,,,A*7D
$GNVTG,,T,,M,0.114,N,0.211,K,A*3B
$GNGNS,083751.00,0419.72425,S,05539.89889,E,AA,12,0.85,15.4,-47.6,,*63
$GNGGA,083751.00,0419.72425,S,05539.89889,E,1,12,0.85,15.4,M,-47.6,M,,*49
$GNGSA,A,3,25,23,12,15,29,18,24,,,,,,1.58,0.85,1.33*19
$GNGSA,A,3,69,80,73,68,83,,,,,,,,1.58,0.85,1.33*1A
$GPGSV,5,1,18,05,01,029,26,10,40,234,,12,39,153,27,13,05,065,26*74
$GPGSV,5,2,18,15,41,077,28,18,20,336,30,23,67,301,25,24,17,141,31*71
$GPGSV,5,3,18,25,70,193,28,26,04,315,16,28,12,251,,29,35,022,39*7F
$GPGSV,5,4,18,31,00,272,,32,11,209,11,36,52,277,,40,85,352,*73
$GPGSV,5,5,18,41,58,082,,49,32,274,*7F
$GLGSV,3,1,09,68,28,047,27,69,63,109,27,70,23,195,,73,41,274,10*61
$GLGSV,3,2,09,74,11,311,10,79,02,157,17,80,40,194,13,83,07,018,29*69
$GLGSV,3,3,09,84,01,329,*59
$GNGLL,0419.72425,S,05539.89889,E,083751.00,A,A*6A
$GNGRS,083751.00,1,-3.5,-1.4,-3.0,2.3,0.5,-3.1,1.3,,,,,*72
$GNGRS,083751.00,1,3.2,-0.7,-1.8,-9.0,-0.7,,,,,,,*77
$GNGST,083751.00,4856426,,,,2.7,5.2,6.3*79
$GNZDA,083751.00,19,05,2025,00,00*78
$GNGBS,083751.00,2.7,5.2,6.3,,,,*50
b0XP 
(!'A")M"P!C-$9 F;*# {4
U`:R 'D/VE?mFI
)J7OqP(SGTIbPxG$GNRMC,083752.00,A,0419.72425,S,05539.89897,E,0.037,,190525,,,A*71
$GNVTG,,T,,M,0.037,N,0.069,K,A*36
$GNGNS,083752.00,0419.72425,S,05539.89897,E,AA,12,0.85,15.4,-47.6,,*6F
$GNGGA,083752.00,0419.72425,S,05539.89897,E,1,12,0.85,15.4,M,-47.6,M,,*45
$GNGSA,A,3,25,23,12,15,29,18,24,,,,,,1.58,0.85,1.33*19
$GNGSA,A,3,69,80,73,68,83,,,,,,,,1.58,0.85,1.33*1A
$GPGSV,5,1,18,05,01,029,32,10,40,234,,12,39,153,33,13,05,065,26*74
$GPGSV,5,2,18,15,41,077,34,18,20,336,34,23,67,301,26,24,17,141,36*7C
$GPGSV,5,3,18,25,70,193,32,26,04,315,16,28,12,251,,29,35,022,42*78
$GPGSV,5,4,18,31,00,272,,32,11,209,12,36,52,277,,40,85,352,*70
$GPGSV,5,5,18,41,58,082,,49,32,274,*7F
$GLGSV,3,1,09,68,28,047,29,69,63,109,26,70,23,195,,73,41,274,10*6E
$GLGSV,3,2,09,74,11,311,09,79,02,157,16,80,40,194,11,83,07,018,31*6B
$GLGSV,3,3,09,84,01,329,*59
$GNGLL,0419.72425,S,05539.89897,E,083752.00,A,A*66
$GNGRS,083752.00,1,-1.1,-1.1,-1.3,2.7,-0.7,-2.2,0.6,,,,,*5E
$GNGRS,083752.00,1,2.6,-6.1,-14.0,-9.4,3.3,,,,,,,*63
$GNGST,083752.00,55,,,,2.6,5.1,6.2*46
$GNZDA,083752.00,19,05,2025,00,00*7B
$GNGBS,083752.00,2.6,5.1,6.2,,,,*50
b0X8"]
(#'Ay#)M#PC-{$ Fs;,# {4
U`:R ((D/9E?mzFI)UJ7OP(STIb8x/$GNRMC,083753.00,A,0419.72421,S,05539.89913,E,0.106,,190525,,,A*7A
$GNVTG,,T,,M,0.106,N,0.197,K,A*35
$GNGNS,083753.00,0419.72421,S,05539.89913,E,AA,12,0.85,15.3,-47.6,,*60
$GNGGA,083753.00,0419.72421,S,05539.89913,E,1,12,0.85,15.3,M,-47.6,M,,*4A
$GNGSA,A,3,25,23,12,15,29,18,24,,,,,,1.58,0.85,1.33*19
$GNGSA,A,3,69,80,73,68,83,,,,,,,,1.58,0.85,1.33*1A
$GPGSV,5,1,18,05,01,029,34,10,40,234,,12,39,153,35,13,05,065,27*75
$GPGSV,5,2,18,15,41,077,35,18,20,336,35,23,67,301,28,24,17,141,36*72
$GPGSV,5,3,18,25,70,193,32,26,04,315,17,28,12,251,,29,35,022,44*7F
$GPGSV,5,4,18,31,00,272,,32,11,209,12,36,52,277,,40,85,352,*70
$GPGSV,5,5,18,41,58,082,,49,32,274,*7F
$GLGSV,3,1,09,68,28,047,30,69,63,109,27,70,23,195,,73,41,274,12*65
$GLGSV,3,2,09,74,11,311,05,79,02,157,15,80,40,194,08,83,07,018,31*6C
$GLGSV,3,3,09,84,01,329,*59
$GNGLL,0419.72421,S,05539.89913,E,083753.00,A,A*6E
$GNGRS,083753.00,1,-6.5,-1.3,-0.4,0.2,-0.5,-3.5,-1.2,,,,,*73
$GNGRS,083753.00,1,6.3,-0.8,-1.7,-7.1,7.1,,,,,,,*52
$GNGST,083753.00,159577,,,,2.6,5.0,6.2*4E
$GNZDA,083753.00,19,05,2025,00,00*7A
$GNGBS,083753.00,2.6,5.0,6.2,,,,*50
b0X "
("'Ap")L#PMC-&? F;6+# {4
U`:R (D#/NE?mFI)MJ7oOpP(S"TIV b x]a$GNRMC,083754.00,A,0419.72422,S,05539.89914,E,0.053,,190525,,,A*78
$GNVTG,,T,,M,0.053,N,0.099,K,A*3B
$GNGNS,083754.00,0419.72422,S,05539.89914,E,AA,12,0.85,15.3,-47.6,,*63
$GNGGA,083754.00,0419.72422,S,05539.89914,E,1,12,0.85,15.3,M,-47.6,M,,*49
$GNGSA,A,3,25,23,12,15,29,18,24,,,,,,1.58,0.85,1.33*19
$GNGSA,A,3,69,80,73,68,83,,,,,,,,1.58,0.85,1.33*1A
$GPGSV,5,1,18,05,01,029,34,10,40,234,13,12,39,153,34,13,05,065,27*76
$GPGSV,5,2,18,15,41,076,34,18,20,336,35,23,67,301,29,24,17,141,38*7D
$GPGSV,5,3,18,25,70,193,32,26,04,315,18,28,12,251,,29,35,022,43*77
$GPGSV,5,4,18,31,00,272,,32,11,209,12,36,52,277,,40,85,352,*70
$GPGSV,5,5,18,41,58,082,,49,32,274,*7F
$GLGSV,3,1,09,68,28,047,35,69,63,109,28,70,23,195,,73,41,274,11*6C
$GLGSV,3,2,09,74,11,311,07,79,02,157,16,80,40,194,12,83,07,018,34*63
$GLGSV,3,3,09,84,01,329,*59
$GNGLL,0419.72422,S,05539.89914,E,083754.00,A,A*6D
$GNGRS,083754.00,1,-6.1,-2.3,-0.6,1.9,1.7,-1.8,0.6,,,,,*72
$GNGRS,083754.00,1,6.7,-0.9,-1.8,-14.6,2.7,,,,,,,*69
$GNGST,083754.00,3435379,,,,2.5,4.9,6.1*75
$GNZDA,083754.00,19,05,2025,00,00*7D
$GNGBS,083754.00,2.5,4.9,6.1,,,,*5F
b0X!6
( 'AB!)L|"PwC-L$*F;B'%*#f 
{4
U`:R &D#/xE?mFI)J
7.OXP(ES"TI%Pbx4$GNRMC,083755.00,A,0419.72426,S,05539.89908,E,0.039,,190525,,,A*7C
$GNVTG,,T,,M,0.039,N,0.072,K,A*32
$GNGNS,083755.00,0419.72426,S,05539.89908,E,AA,12,0.92,15.3,-47.6,,*6D
$GNGGA,083755.00,0419.72426,S,05539.89908,E,1,12,0.92,15.3,M,-47.6,M,,*47
$GNGSA,A,3,25,23,12,15,29,18,24,,,,,,1.64,0.92,1.36*15
$GNGSA,A,3,69,80,73,68,83,,,,,,,,1.64,0.92,1.36*16
$GPGSV,5,1,18,05,01,029,33,10,40,234,11,12,39,153,32,13,05,065,26*74
$GPGSV,5,2,18,15,41,076,33,18,20,336,34,23,67,301,28,24,17,141,36*74
$GPGSV,5,3,18,25,70,193,31,26,04,315,17,28,12,251,15,29,35,022,42*7E
$GPGSV,5,4,18,31,00,272,,32,11,209,10,36,52,277,,40,85,352,*72
$GPGSV,5,5,18,41,58,082,,49,32,274,*7F
$GLGSV,3,1,09,68,28,047,35,69,63,109,28,70,23,195,,73,41,274,14*69
$GLGSV,3,2,09,74,11,311,10,79,02,157,17,80,40,194,11,83,07,018,34*67
$GLGSV,3,3,09,84,01,329,*59
$GNGLL,0419.72426,S,05539.89908,E,083755.00,A,A*65
$GNGRS,083755.00,1,-3.0,-1.8,-2.5,-1.3,-1.5,-1.4,0.4,,,,,*78
$GNGRS,083755.00,1,4.0,-148,9.9,-9.0,-1.2,,,,,,,*42
$GNGST,083755.00,40,,,,2.4,4.8,6.0*4D
$GNZDA,083755.00,19,05,2025,00,00*7C
$GNGBS,083755.00,2.4,4.8,6.0,,,,*5F
b0X"V
(: 'A")L#PC-$7F4;)Q*#O {4
U`:R &D"/E?mFI
)J
7bOVP(S"1TI(bx$GNRMC,083756.00,A,0419.72425,S,05539.89908,E,0.032,,190525,,,A*77
$GNVTG,,T,,M,0.032,N,0.060,K,A*3A
$GNGNS,083756.00,0419.72425,S,05539.89908,E,AA,12,0.85,15.3,-47.6,,*6B
$GNGGA,083756.00,0419.72425,S,05539.89908,E,1,12,0.85,15.3,M,-47.6,M,,*41
$GNGSA,A,3,25,23,12,15,29,18,24,,,,,,1.58,0.85,1.33*19
$GNGSA,A,3,69,80,73,68,83,,,,,,,,1.58,0.85,1.33*1A
$GPGSV,5,1,18,05,01,029,34,10,40,234,09,12,39,153,32,13,05,065,25*79
$GPGSV,5,2,18,15,41,076,34,18,20,336,35,23,67,301,28,24,17,141,36*72
$GPGSV,5,3,18,25,70,193,31,26,04,315,17,28,12,251,17,29,35,022,42*7C
$GPGSV,5,4,18,31,00,272,,32,11,209,09,36,52,277,,40,85,352,*7A
$GPGSV,5,5,18,41,58,082,,49,32,274,*7F
$GLGSV,3,1,09,68,28,047,34,69,63,109,28,70,23,195,,73,41,274,10*6C
$GLGSV,3,2,09,74,11,311,10,79,02,157,17,80,40,194,13,83,07,018,34*65
$GLGSV,3,3,09,84,01,329,*59
$GNGLL,0419.72425,S,05539.89908,E,083756.00,A,A*65
$GNGRS,083756.00,1,-2.0,1.4,-3.8,4.0,0.8,0.3,0.5,,,,,*77
$GNGRS,083756.00,1,6.7,-1.0,-2.3,-6.3,0.5,,,,,,,*5D
$GNGST,083756.00,138511,,,,2.4,4.7,6.0*4A
$GNZDA,083756.00,19,05,2025,00,00*7F
$GNGBS,083756.00,2.4,4.7,6.0,,,,*53
b0X#y
(!'A!)L#PXC-$F;ui)# }{4
U`:R &D/E?mPFI
)J7QOhP(S!TIbx$GNRMC,083757.00,A,0419.72428,S,05539.89913,E,0.149,,190525,,,A*7C
$GNVTG,,T,,M,0.149,N,0.275,K,A*31
$GNGNS,083757.00,0419.72428,S,05539.89913,E,AA,13,0.85,15.4,-47.6,,*6B
$GNGGA,083757.00,0419.72428,S,05539.89913,E,1,12,0.85,15.4,M,-47.6,M,,*40
$GNGSA,A,3,25,23,12,15,29,10,18,24,,,,,1.58,0.85,1.33*18
$GNGSA,A,3,69,80,73,68,83,,,,,,,,1.58,0.85,1.33*1A
$GPGSV,5,1,18,05,01,029,35,10,40,234,08,12,39,153,33,13,05,065,24*79
$GPGSV,5,2,18,15,41,076,33,18,20,336,35,23,67,301,28,24,17,141,36*75
$GPGSV,5,3,18,25,70,193,31,26,04,315,15,28,12,251,16,29,35,022,41*7C
$GPGSV,5,4,18,31,00,272,,32,11,209,09,36,52,277,,40,85,352,*7A
$GPGSV,5,5,18,41,58,082,,49,32,274,*7F
$GLGSV,3,1,09,68,28,047,31,69,63,109,27,70,23,195,,73,41,274,10*66
$GLGSV,3,2,09,74,11,311,08,79,02,157,17,80,40,194,12,83,07,018,33*6A
$GLGSV,3,3,09,84,01,329,*59
$GNGLL,0419.72428,S,05539.89913,E,083757.00,A,A*63
$GNGRS,083757.00,1,-3.8,-3.5,-0.4,-0.8,-0.1,-24.1,-1.7,2.5,,,,*45
$GNGRS,083757.00,1,3.4,-1.1,-2.5,-11.0,-5.6,,,,,,,*43
$GNGST,083757.00,207767,,,,2.4,4.6,5.9*4C
$GNZDA,083757.00,19,05,2025,00,00*7E
$GNGBS,083757.00,2.4,4.6,5.9,,,,*59
b0X%d
(S#'Ao")L&%PrC-&!FG;+#M ,{4
U`:R (D /YE?mFI
)J7?OP(>S4TIbx$GNRMC,083758.00,A,0419.72428,S,05539.89921,E,0.022,,190525,,,A*7E
$GNVTG,,T,,M,0.022,N,0.041,K,A*38
$GNGNS,083758.00,0419.72428,S,05539.89921,E,AA,13,0.86,15.4,-47.6,,*66
$GNGGA,083758.00,0419.72428,S,05539.89921,E,1,12,0.86,15.4,M,-47.6,M,,*4D
$GNGSA,A,3,25,23,12,15,29,10,18,24,,,,,1.57,0.86,1.31*16
$GNGSA,A,3,69,80,73,68,83,,,,,,,,1.57,0.86,1.31*14
$GPGSV,5,1,18,05,01,029,37,10,40,234,08,12,39,153,35,13,05,065,26*7F
$GPGSV,5,2,18,15,41,076,34,18,20,336,37,23,67,301,28,24,17,141,38*7E
$GPGSV,5,3,18,25,70,193,33,26,04,315,16,28,12,251,,29,35,022,43*78
$GPGSV,5,4,18,31,00,272,,32,11,209,09,36,52,277,,40,85,352,*7A
$GPGSV,5,5,18,41,58,082,,49,32,274,*7F
$GLGSV,3,1,09,68,28,047,32,69,63,109,27,70,23,195,,73,41,274,10*65
$GLGSV,3,2,09,74,11,311,09,79,02,157,17,80,40,194,09,83,07,018,31*63
$GLGSV,3,3,09,84,01,329,*59
$GNGLL,0419.72428,S,05539.89921,E,083758.00,A,A*6D
$GNGRS,083758.00,1,-1.8,1.6,-2.4,2.9,0.8,-19.6,-1.4,2.1,,,,*62
$GNGRS,083758.00,1,2.4,-19.9,29.7,-11.9,0.5,,,,,,,*48
$GNGST,083758.00,54,,,,2.3,4.5,5.8*44
$GNZDA,083758.00,19,05,2025,00,00*71
$GNGBS,083758.00,2.3,4.5,5.8,,,,*53
b0X"P
( 'YA1 )L"PZC-
"#F^;|)# {4
U`:R $wD /E?mrFI
)0J7eOP
(S KTIuAbxW$GNRMC,083759.00,A,0419.72428,S,05539.89920,E,0.036,,190525,,,A*7B
$GNVTG,,T,,M,0.036,N,0.067,K,A*39
$GNGNS,083759.00,0419.72428,S,05539.89920,E,AA,12,0.85,15.3,-47.6,,*63
$GNGGA,083759.00,0419.72428,S,05539.89920,E,1,12,0.85,15.3,M,-47.6,M,,*49
$GNGSA,A,3,25,23,12,15,29,18,24,,,,,,1.58,0.85,1.33*19
$GNGSA,A,3,69,80,73,68,83,,,,,,,,1.58,0.85,1.33*1A
$GPGSV,5,1,18,05,01,029,34,10,40,234,,12,39,153,32,13,05,065,26*73
$GPGSV,5,2,18,15,41,076,32,18,20,336,34,23,67,301,28,24,17,141,34*77
$GPGSV,5,3,18,25,70,193,30,26,04,315,16,28,12,251,,29,35,022,41*79
$GPGSV,5,4,18,31,00,272,,32,11,209,09,36,52,277,,40,85,352,*7A
$GPGSV,5,5,18,41,58,082,,49,32,274,*7F
$GLGSV,3,1,09,68,28,047,32,69,63,109,27,70,23,195,,73,41,274,10*65
$GLGSV,3,2,09,74,11,311,07,79,02,157,18,80,40,194,10,83,07,018,32*69
$GLGSV,3,3,09,84,01,329,*59
$GNGLL,0419.72428,S,05539.89920,E,083759.00,A,A*6D
$GNGRS,083759.00,1,-4.2,0.1,-1.7,2.3,0.0,0.9,0.3,,,,,*74
$GNGRS,083759.00,1,3.7,-1.1,-2.1,-10.0,0.7,,,,,,,*62
$GNGST,083759.00,4856426,,,,2.3,4.4,5.8*7A
$GNZDA,083759.00,19,05,2025,00,00*70
$GNGBS,083759.00,2.3,4.4,5.8,,,,*53
b0X"
( 'A%")L"PC-}#F;*# {4
U`:R %D$/E?mKFI)$J7QOP(zS!&TIbxk$GNRMC,083800.00,A,0419.72430,S,05539.89913,E,0.023,,190525,,,A*75
$GNVTG,,T,,M,0.023,N,0.043,K,A*3B
$GNGNS,083800.00,0419.72430,S,05539.89913,E,AA,12,0.85,15.4,-47.6,,*6E
$GNGGA,083800.00,0419.72430,S,05539.89913,E,1,12,0.85,15.4,M,-47.6,M,,*44
$GNGSA,A,3,25,23,12,15,29,18,24,,,,,,1.58,0.85,1.33*19
$GNGSA,A,3,69,80,73,68,83,,,,,,,,1.58,0.85,1.33*1A
$GPGSV,5,1,18,05,01,029,34,10,40,234,,12,39,153,32,13,05,065,27*72
$GPGSV,5,2,18,15,41,076,34,18,20,336,34,23,67,301,28,24,17,141,35*70
$GPGSV,5,3,18,25,70,193,31,26,04,315,16,28,12,251,,29,35,022,42*7B
$GPGSV,5,4,18,31,00,272,,32,11,209,09,36,52,277,,40,85,352,*7A
$GPGSV,5,5,18,41,58,082,,49,32,274,*7F
$GLGSV,3,1,09,68,28,047,36,69,63,109,27,70,23,195,,73,41,274,09*69
$GLGSV,3,2,09,74,11,311,07,79,02,157,18,80,40,194,12,83,07,018,33*6A
$GLGSV,3,3,09,84,01,329,*59
$GNGLL,0419.72430,S,05539.89913,E,083800.00,A,A*67
$GNGRS,083800.00,1,-1.0,-1.3,-1.1,2.9,-0.3,-0.4,-0.6,,,,,*74
$GNGRS,083800.00,1,3.3,-1.3,-2.2,-11.4,2.9,,,,,,,*6D
$GNGST,083800.00,4856426,,,,2.2,4.3,5.8*7F
$GNZDA,083800.00,19,05,2025,00,00*73
$GNGBS,083800.00,2.2,4.3,5.8,,,,*56
b0Xx"
( 'gA )L "P'C.9#F;*# 7{4
U`:R %D#/E?mFI
)9J7CO'P(3S TIbxxo!C'$GNRMC,083801.00,A,0419.72431,S,05539.89907,E,0.027,,190525,,,A*74
$GNVTG,,T,,M,0.027,N,0.050,K,A*3D
$GNGNS,083801.00,0419.72431,S,05539.89907,E,AA,12,0.99,15.4,-47.6,,*66
$GNGGA,083801.00,0419.72431,S,05539.89907,E,1,12,0.99,15.4,M,-47.6,M,,*4C
$GNGSA,A,3,25,23,12,15,29,18,24,,,,,,1.66,0.99,1.34*1E
$GNGSA,A,3,69,80,73,68,83,,,,,,,,1.66,0.99,1.34*1D
$GPGSV,5,1,18,05,01,029,34,10,40,234,,12,39,153,32,13,05,065,27*72
$GPGSV,5,2,18,15,41,076,32,18,20,336,34,23,67,302,28,24,17,141,35*75
$GPGSV,5,3,18,25,70,193,30,26,04,315,15,28,12,251,,29,35,022,42*79
$GPGSV,5,4,18,31,00,272,,32,11,209,09,36,52,277,,40,85,352,*7A
$GPGSV,5,5,18,41,58,082,,49,32,274,*7F
$GLGSV,3,1,09,68,28,047,35,69,63,109,27,70,23,195,,73,41,274,10*62
$GLGSV,3,2,09,74,11,311,09,79,02,157,18,80,40,194,14,83,07,018,32*63
$GLGSV,3,3,09,84,01,329,*59
$GNGLL,0419.72431,S,05539.89907,E,083801.00,A,A*62
$GNGRS,083801.00,1,-1.3,0.6,-1.5,2.9,1.3,0.4,-0.2,,,,,*5E
$GNGRS,083801.00,1,4.9,8.2,-35.3,-10.7,5.3,,,,,,,*7E
$GNGST,083801.00,41,,,,2.2,4.3,5.7*4B
$GNZDA,083801.00,19,05,2025,00,00*72
$GNGBS,083801.00,2.2,4.3,5.7,,,,*58
b0X`"~
(#'Ax!)L$PC.%'F;,# {4
U`:R 'HD /E?mFI)4J7rOP(S TI\b`xW%$GNRMC,083802.00,A,0419.72432,S,05539.89905,E,0.025,,190525,,,A*74
$GNVTG,,T,,M,0.025,N,0.046,K,A*38
$GNGNS,083802.00,0419.72432,S,05539.89905,E,AA,12,0.85,15.3,-47.6,,*6E
$GNGGA,083802.00,0419.72432,S,05539.89905,E,1,12,0.85,15.3,M,-47.6,M,,*44
$GNGSA,A,3,25,23,12,15,29,18,24,,,,,,1.58,0.85,1.33*19
$GNGSA,A,3,69,80,73,68,83,,,,,,,,1.58,0.85,1.33*1A
$GPGSV,5,1,18,05,01,029,34,10,40,234,,12,39,153,35,13,05,065,27*75
$GPGSV,5,2,18,15,41,076,33,18,20,336,36,23,67,302,28,24,17,140,37*75
$GPGSV,5,3,18,25,70,193,31,26,04,315,15,28,12,251,,29,35,022,44*7E
$GPGSV,5,4,18,31,00,272,,32,11,209,09,36,52,277,,40,85,352,*7A
$GPGSV,5,5,18,41,58,082,,49,32,274,*7F
$GLGSV,3,1,09,68,28,047,32,69,63,109,26,70,23,195,,73,41,274,12*66
$GLGSV,3,2,09,74,11,311,07,79,02,157,16,80,40,194,12,83,07,018,32*65
$GLGSV,3,3,09,84,01,329,*59
$GNGLL,0419.72432,S,05539.89905,E,083802.00,A,A*60
$GNGRS,083802.00,1,-0.8,-5.1,-2.6,-0.6,-0.4,-0.8,0.4,,,,,*79
$GNGRS,083802.00,1,4.3,-0.9,-2.0,-12.6,6.9,,,,,,,*64
$GNGST,083802.00,3436028,,,,2.2,4.2,5.7*74
$GNZDA,083802.00,19,05,2025,00,00*71
$GNGBS,083802.00,2.2,4.2,5.7,,,,*5A
b0XH"
("'A4")L$PC.%F;.+#' {4
U`:R 'D!/E?mFI)!J7aOP(S TI0bHx?)$GNRMC,083803.00,A,0419.72436,S,05539.89901,E,0.028,,190525,,,A*78
$GNVTG,,T,,M,0.028,N,0.052,K,A*30
$GNGNS,083803.00,0419.72436,S,05539.89901,E,AA,12,0.85,15.2,-47.6,,*6E
$GNGGA,083803.00,0419.72436,S,05539.89901,E,1,12,0.85,15.2,M,-47.6,M,,*44
$GNGSA,A,3,25,23,12,15,29,18,24,,,,,,1.58,0.85,1.33*19
$GNGSA,A,3,69,80,73,68,83,,,,,,,,1.58,0.85,1.33*1A
$GPGSV,5,1,18,05,01,029,34,10,40,234,,12,39,153,34,13,05,065,27*74
$GPGSV,5,2,18,15,41,076,34,18,20,336,36,23,67,302,28,24,17,140,37*72
$GPGSV,5,3,18,25,70,192,31,26,04,315,16,28,12,251,,29,35,022,43*7B
$GPGSV,5,4,18,31,00,272,,32,11,209,09,36,52,277,,40,85,352,*7A
$GPGSV,5,5,18,41,58,082,,49,32,274,*7F
$GLGSV,3,1,09,68,28,047,33,69,63,109,27,70,23,195,,73,41,274,13*67
$GLGSV,3,2,09,74,11,311,08,79,02,157,17,80,40,194,13,83,07,018,32*6A
$GLGSV,3,3,09,84,01,329,*59
$GNGLL,0419.72436,S,05539.89901,E,083803.00,A,A*61
$GNGRS,083803.00,1,-3.5,-2.6,1.4,0.1,0.4,0.2,1.8,,,,,*77
$GNGRS,083803.00,1,4.8,-1.0,-2.2,-13.6,5.1,,,,,,,*6E
$GNGST,083803.00,3438371,,,,2.1,4.1,5.7*74
$GNZDA,083803.00,19,05,2025,00,00*70
$GNGBS,083803.00,2.1,4.1,5.7,,,,*5B
b0X06
('A~)L!PC."Fq;(#! {4
U`:R #.D!/nE?mFI)J7?O\P(tS TI.]b0x'-_$GNRMC,083804.00,A,0419.72437,S,05539.89900,E,0.053,,190525,,,A*73
$GNVTG,,T,,M,0.053,N,0.098,K,A*3A
$GNGNS,083804.00,0419.72437,S,05539.89900,E,AA,12,1.12,15.2,-47.6,,*66
$GNGGA,083804.00,0419.72437,S,05539.89900,E,1,12,1.12,15.2,M,-47.6,M,,*4C
$GNGSA,A,3,25,23,12,15,29,18,24,,,,,,1.78,1.12,1.38*1F
$GNGSA,A,3,69,80,73,68,83,,,,,,,,1.78,1.12,1.38*1C
$GPGSV,5,1,18,05,01,029,31,10,40,234,,12,39,153,31,13,05,065,26*75
$GPGSV,5,2,18,15,41,076,31,18,20,336,33,23,67,302,27,24,17,140,34*7E
$GPGSV,5,3,18,25,70,192,30,26,05,315,14,28,12,251,,29,35,022,40*7A
$GPGSV,5,4,18,31,00,272,,32,11,209,,36,52,277,,40,85,352,*73
$GPGSV,5,5,18,41,58,082,,49,32,274,*7F
$GLGSV,3,1,09,68,28,047,33,69,63,109,27,70,23,195,,73,41,274,15*61
$GLGSV,3,2,09,74,11,311,06,79,02,157,17,80,40,194,11,83,07,018,32*66
$GLGSV,3,3,09,84,01,329,*59
$GNGLL,0419.72437,S,05539.89900,E,083804.00,A,A*66
$GNGRS,083804.00,1,-1.4,-2.4,-0.5,2.7,0.3,-2.3,0.3,,,,,*7B
$GNGRS,083804.00,1,2.7,-37.2,41.0,-14.3,3.9,,,,,,,*43
$GNGST,083804.00,23,,,,2.1,4.1,5.6*4A
$GNZDA,083804.00,19,05,2025,00,00*77
$GNGBS,083804.00,2.1,4.1,5.6,,,,*5D
b0X 
('A )L%!PC.]"F;)# {4
U`:R $D#/UE?mkFI)J7UOP(S"TI]bx1$GNRMC,083805.00,A,0419.72439,S,05539.89891,E,0.029,,190525,,,A*78
$GNVTG,,T,,M,0.029,N,0.054,K,A*37
$GNGNS,083805.00,0419.72439,S,05539.89891,E,AA,12,0.85,15.2,-47.6,,*6F
