$GNTXT,01,01,01,More than 100 frame errors, UART RX was disabled*70
b0p9fB
~B0Io?N
({4V^:R 
YcJFZGCHI J.~zK<L
WUV&HW$X#]br4/$GNRMC,044434.00,A,0419.97474,S,05539.85204,E,0.075,,230525,,,D*70
$GNVTG,,T,,M,0.075,N,0.139,K,D*31
$GNGNS,044434.00,0419.97474,S,05539.85204,E,DA,15,0.71,16.2,-47.6,,0000*68
$GNGGA,044434.00,0419.97474,S,05539.85204,E,2,12,0.71,16.2,M,-47.6,M,,0000*43
$GNGSA,A,3,24,20,05,13,15,22,12,18,,,,,1.37,0.71,1.18*1A
$GNGSA,A,3,86,74,75,87,73,71,72,,,,,,1.37,0.71,1.18*10
$GPGSV,5,1,17,05,57,138,29,11,26,020,27,12,29,358,30,13,21,160,30*7E
$GPGSV,5,2,17,14,04,126,30,15,27,195,27,18,20,228,18,20,48,073,24*70
$GPGSV,5,3,17,22,18,111,30,24,63,251,29,25,07,334,,29,10,296,*7F
$GPGSV,5,4,17,36,52,277,,40,86,350,31,41,58,082,28,49,32,274,*75
$GPGSV,5,5,17,50,10,089,*4A
$GLGSV,3,1,12,70,00,090,,71,14,131,31,72,16,181,29,73,06,148,32*67
$GLGSV,3,2,12,74,46,126,27,75,60,024,30,76,10,343,,85,03,014,*68
$GLGSV,3,3,12,86,38,328,30,87,36,268,29,88,00,221,,,,,35*53
$GNGLL,0419.97474,S,05539.85204,E,044434.00,A,D*68
$GNGRS,044434.00,1,4.5,-0.1,-3.8,4.7,-0.6,-1.0,-9.6,8.3,,,,*75
$GNGRS,044434.00,1,-3.8,8.9,-2.7,9.2,-0.3,5.8,-12.9,,,,,*4D
$GNGST,044434.00,33,,,,1.6,1.7,3.3*4B
$GNZDA,044434.00,23,05,2025,00,00*7A
$GNGBS,044434.00,1.6,1.7,3.3,,,,*5D
$GNTXT,01,01,01,More than 100 frame errors, UART RX was disabled*70
b0p$9bf&
(~A"@0IE%o?N
({4'V^:R 
YciFZG&HI J.~K<L
WUV&HW$X&Pbr/$GNRMC,044435.00,A,0419.97479,S,05539.85202,E,0.054,,230525,,,D*79
$GNVTG,,T,,M,0.054,N,0.100,K,D*38
$GNGNS,044435.00,0419.97479,S,05539.85202,E,DA,15,0.71,16.2,-47.6,,0000*62
$GNGGA,044435.00,0419.97479,S,05539.85202,E,2,12,0.71,16.2,M,-47.6,M,,0000*49
$GNGSA,A,3,24,20,05,13,15,22,12,18,,,,,1.37,0.71,1.18*1A
$GNGSA,A,3,86,74,75,87,73,71,72,,,,,,1.37,0.71,1.18*10
$GPGSV,5,1,17,05,57,138,36,11,26,020,26,12,29,358,31,13,21,160,38*78
$GPGSV,5,2,17,14,04,126,40,15,27,195,34,18,20,228,17,20,48,073,21*7F
$GPGSV,5,3,17,22,18,111,37,24,63,251,29,25,07,334,,29,10,296,*78
$GPGSV,5,4,17,36,52,277,,40,86,350,39,41,58,082,28,49,32,274,*7D
$GPGSV,5,5,17,50,10,089,*4A
$GLGSV,3,1,12,70,00,090,,71,14,131,38,72,16,181,30,73,06,148,32*66
$GLGSV,3,2,12,74,46,126,27,75,60,024,30,76,10,343,,85,03,014,*68
$GLGSV,3,3,12,86,38,328,23,87,36,268,29,88,00,221,,,,,38*5C
$GNGLL,0419.97479,S,05539.85202,E,044435.00,A,D*62
$GNGRS,044435.00,1,-2.9,3.3,-1.6,4.7,-1.9,-2.7,-5.0,10.0,,,,*49
$GNGRS,044435.00,1,-0.5,7.5,-4.9,12.3,-0.2,0.2,-10.3,,,,,*74
$GNGST,044435.00,34,,,,1.6,1.7,3.3*4D
$GNZDA,044435.00,23,05,2025,00,00*7B
$GNGBS,044435.00,1.6,1.7,3.3,,,,*5C
$GNTXT,01,01,01,More than 100 frame errors, UART RX was disabled*70
b0pp(9#f!'
&~$!0I%oQ"?N
({4*V^&:R 
Yc3FZG")H#I$J.~K$<\L
WUV!&HNW!$X)bpr/dw$GNRMC,044436.00,A,0419.97484,S,05539.85199,E,0.062,,230525,,,D*7C
$GNVTG,,T,,M,0.062,N,0.114,K,D*38
$GNGNS,044436.00,0419.97484,S,05539.85199,E,DA,15,0.71,16.0,-47.6,,0000*60
$GNGGA,044436.00,0419.97484,S,05539.85199,E,2,12,0.71,16.0,M,-47.6,M,,0000*4B
$GNGSA,A,3,24,20,05,13,15,22,12,18,,,,,1.37,0.71,1.18*1A
$GNGSA,A,3,86,74,75,87,73,71,72,,,,,,1.37,0.71,1.18*10
$GPGSV,5,1,17,05,57,138,40,11,26,020,28,12,29,358,35,13,21,160,39*72
$GPGSV,5,2,17,14,04,126,38,15,27,195,36,18,20,228,20,20,48,073,33*75
$GPGSV,5,3,17,22,18,111,37,24,63,251,34,25,07,334,,29,10,296,*74
$GPGSV,5,4,17,36,52,277,,40,86,350,42,41,58,082,38,49,32,274,*70
$GPGSV,5,5,17,50,10,089,*4A
$GLGSV,3,1,12,70,00,090,,71,14,131,34,72,16,181,35,73,06,148,36*6B
$GLGSV,3,2,12,74,46,126,31,75,60,024,36,76,10,343,,85,03,014,*69
$GLGSV,3,3,12,86,38,328,33,87,36,268,33,88,00,221,,,,,41*58
$GNGLL,0419.97484,S,05539.85199,E,044436.00,A,D*62
$GNGRS,044436.00,1,-0.5,-1.2,-1.1,4.6,2.2,0.8,-4.8,9.9,,,,*51
$GNGRS,044436.00,1,-1.8,7.2,0.9,9.0,-0.2,-2.1,-8.9,,,,,*73
$GNGST,044436.00,21,,,,1.6,1.7,3.2*4B
$GNZDA,044436.00,23,05,2025,00,00*78
$GNGBS,044436.00,1.6,1.7,3.2,,,,*5E
$GNTXT,01,01,01,More than 100 frame errors, UART RX was disabled*70
b0pX)9.!f(
#~O$6!0I$o"?+N
({4(V^&:R 
Yc-FZG$+H#OI$J!.~K"<L
WUV&HaW $X)bXr/;$GNRMC,044437.00,A,0419.97477,S,05539.85193,E,0.017,,230525,,,D*79
$GNVTG,,T,,M,0.017,N,0.031,K,D*3C
$GNGNS,044437.00,0419.97477,S,05539.85193,E,DA,15,0.71,15.2,-47.6,,0000*66
$GNGGA,044437.00,0419.97477,S,05539.85193,E,2,12,0.71,15.2,M,-47.6,M,,0000*4D
$GNGSA,A,3,24,20,05,13,15,22,12,18,,,,,1.37,0.71,1.18*1A
$GNGSA,A,3,86,74,75,87,73,71,72,,,,,,1.37,0.71,1.18*10
$GPGSV,5,1,17,05,57,138,41,11,26,020,30,12,29,358,33,13,21,160,40*72
$GPGSV,5,2,17,14,04,126,35,15,27,195,36,18,20,228,22,20,48,073,33*7A
$GPGSV,5,3,17,22,18,111,36,24,63,251,34,25,07,334,,29,10,296,*75
$GPGSV,5,4,17,36,52,277,,40,86,350,40,41,58,082,38,49,32,274,*72
$GPGSV,5,5,17,50,10,089,*4A
$GLGSV,3,1,12,70,00,090,,71,14,131,36,72,16,181,35,73,06,148,36*69
$GLGSV,3,2,12,74,46,126,33,75,60,024,34,76,10,343,,85,03,014,*69
$GLGSV,3,3,12,86,38,328,28,87,36,268,32,88,00,221,,,,,41*53
$GNGLL,0419.97477,S,05539.85193,E,044437.00,A,D*65
$GNGRS,044437.00,1,-2.1,-1.1,-4.7,4.6,-2.0,1.7,-7.4,4.9,,,,*75
$GNGRS,044437.00,1,3.5,9.3,-3.5,4.7,-0.3,-2.1,-14.6,,,,,*44
$GNGST,044437.00,21,,,,1.6,1.7,3.1*49
$GNZDA,044437.00,23,05,2025,00,00*79
$GNGBS,044437.00,1.6,1.7,3.1,,,,*5C
$GNTXT,01,01,01,More than 100 frame errors, UART RX was disabled*70
b0p@%9f&
!~#0I*"o?N
({4&V^!:R 
YcFZG"qH!I&J .~ZK#<L
WUV&H:W $X&xb@r#/D$GNRMC,044438.00,A,0419.97479,S,05539.85191,E,0.036,,230525,,,D*79
$GNVTG,,T,,M,0.036,N,0.067,K,D*3C
$GNGNS,044438.00,0419.97479,S,05539.85191,E,DA,15,0.71,15.2,-47.6,,0000*65
$GNGGA,044438.00,0419.97479,S,05539.85191,E,2,12,0.71,15.2,M,-47.6,M,,0000*4E
$GNGSA,A,3,24,20,05,13,15,22,12,18,,,,,1.37,0.71,1.18*1A
$GNGSA,A,3,86,74,75,87,73,71,72,,,,,,1.37,0.71,1.18*10
$GPGSV,5,1,17,05,57,138,37,11,26,020,25,12,29,358,29,13,21,160,38*73
$GPGSV,5,2,17,14,04,126,33,15,27,195,35,18,20,228,21,20,48,073,28*76
$GPGSV,5,3,17,22,18,111,34,24,63,251,29,25,07,334,,29,10,296,*7B
$GPGSV,5,4,17,36,52,277,,40,86,350,38,41,58,082,33,49,32,274,*76
$GPGSV,5,5,17,50,10,089,*4A
$GLGSV,3,1,12,70,00,090,,71,14,131,34,72,16,181,33,73,06,148,38*63
$GLGSV,3,2,12,74,46,126,32,75,60,024,35,76,10,343,,85,03,014,*69
$GLGSV,3,3,12,86,38,328,28,87,36,268,32,88,00,221,,,,,38*5D
$GNGLL,0419.97479,S,05539.85191,E,044438.00,A,D*66
$GNGRS,044438.00,1,-2.4,-4.7,-2.3,4.6,-0.1,1.4,-5.2,4.2,,,,*71
$GNGRS,044438.00,1,5.7,11.1,-0.7,8.0,-0.1,-6.5,-12.8,,,,,*74
$GNGST,044438.00,24,,,,1.6,1.7,3.1*43
$GNZDA,044438.00,23,05,2025,00,00*76
$GNGBS,044438.00,1.6,1.7,3.1,,,,*53
$GNTXT,01,01,01,More than 100 frame errors, UART RX was disabled*70
b0p(#9fW%
!~"#0I!o?N
({4$V^!:R 
YcFZG$GH!I(J .~K$<gL
WUV&HW#$yX&b(r'/$GNRMC,044439.00,A,0419.97482,S,05539.85190,E,0.041,,230525,,,D*7D
$GNVTG,,T,,M,0.041,N,0.076,K,D*3C
$GNGNS,044439.00,0419.97482,S,05539.85190,E,DA,15,0.71,15.3,-47.6,,0000*60
$GNGGA,044439.00,0419.97482,S,05539.85190,E,2,12,0.71,15.3,M,-47.6,M,,0000*4B
$GNGSA,A,3,24,20,05,13,15,22,12,18,,,,,1.37,0.71,1.18*1A
$GNGSA,A,3,86,74,75,87,73,71,72,,,,,,1.37,0.71,1.18*10
$GPGSV,5,1,17,05,57,138,35,11,26,020,26,12,29,358,30,13,21,160,37*75
$GPGSV,5,2,17,14,04,126,33,15,27,195,34,18,20,228,21,20,48,073,28*77
$GPGSV,5,3,17,22,18,111,33,24,63,251,28,25,07,334,,29,10,296,*7D
$GPGSV,5,4,17,36,52,277,,40,86,350,36,41,58,082,33,49,32,274,*78
$GPGSV,5,5,17,50,10,089,*4A
$GLGSV,3,1,12,70,00,090,,71,14,131,36,72,16,181,33,73,06,148,40*6E
$GLGSV,3,2,12,74,46,126,32,75,60,024,36,76,10,343,,85,03,014,*6A
$GLGSV,3,3,12,86,38,328,28,87,36,268,35,88,00,221,,,,,38*5A
$GNGLL,0419.97482,S,05539.85190,E,044439.00,A,D*62
$GNGRS,044439.00,1,-3.4,-0.9,-1.0,4.0,0.4,2.4,-9.4,5.0,,,,*5F
$GNGRS,044439.00,1,0.0,14.7,1.0,3.8,0.0,-4.4,-13.6,,,,,*7C
$GNGST,044439.00,23,,,,1.6,1.7,3.2*46
$GNZDA,044439.00,23,05,2025,00,00*77
$GNGBS,044439.00,1.6,1.7,3.2,,,,*51
$GNTXT,01,01,01,More than 100 frame errors, UART RX was disabled*70
b0p'9!f'
"~"0ID!o?rN
({4%V^":R 
Yc@FZG"pH \I%
J.~|K"<L
WUV&H?W$X*br+/$GNRMC,044440.00,A,0419.97484,S,05539.85189,E,0.053,,230525,,,D*7E
$GNVTG,,T,,M,0.053,N,0.097,K,D*30
$GNGNS,044440.00,0419.97484,S,05539.85189,E,DA,15,0.71,15.2,-47.6,,0000*61
$GNGGA,044440.00,0419.97484,S,05539.85189,E,2,12,0.71,15.2,M,-47.6,M,,0000*4A
$GNGSA,A,3,24,20,05,13,15,22,12,18,,,,,1.37,0.71,1.18*1A
$GNGSA,A,3,86,74,75,87,73,71,72,,,,,,1.37,0.71,1.18*10
$GPGSV,5,1,17,05,57,138,39,11,26,020,26,12,29,358,33,13,21,160,39*74
$GPGSV,5,2,17,14,04,126,34,15,27,195,34,18,20,228,20,20,48,073,28*71
$GPGSV,5,3,17,22,18,111,33,24,63,251,30,25,07,334,,29,10,296,*74
$GPGSV,5,4,17,36,52,277,,40,86,350,37,41,58,082,34,49,32,274,*7E
$GPGSV,5,5,17,50,10,089,*4A
$GLGSV,3,1,12,70,00,090,,71,14,131,34,72,16,181,32,73,06,148,37*6D
$GLGSV,3,2,12,74,46,126,30,75,60,024,34,76,10,343,,85,03,014,*6A
$GLGSV,3,3,12,86,38,328,27,87,36,268,31,88,00,221,,,,,42*5C
$GNGLL,0419.97484,S,05539.85189,E,044440.00,A,D*62
$GNGRS,044440.00,1,1.1,0.7,-1.3,4.1,-0.3,4.2,-3.8,4.2,,,,*75
$GNGRS,044440.00,1,3.2,14.0,-4.9,6.4,0.1,-4.0,-17.0,,,,,*5B
$GNGST,044440.00,24,,,,1.6,1.7,3.1*4C
$GNZDA,044440.00,23,05,2025,00,00*79
$GNGBS,044440.00,1.6,1.7,3.1,,,,*5C
$GNTXT,01,01,01,More than 100 frame errors, UART RX was disabled*70
b0p(9f&
$~,!#H0I!oc?qN
({4&V^":R 
YcFZG"HI#J.~K<L
WUV&H"W $UX'br//m$GNRMC,044441.00,A,0419.97484,S,05539.85186,E,0.019,,230525,,,D*7E
$GNVTG,,T,,M,0.019,N,0.035,K,D*36
$GNGNS,044441.00,0419.97484,S,05539.85186,E,DA,15,0.71,15.0,-47.6,,0000*6D
$GNGGA,044441.00,0419.97484,S,05539.85186,E,2,12,0.71,15.0,M,-47.6,M,,0000*46
$GNGSA,A,3,24,20,05,13,15,22,12,18,,,,,1.37,0.71,1.18*1A
$GNGSA,A,3,86,74,75,87,73,71,72,,,,,,1.37,0.71,1.18*10
$GPGSV,5,1,17,05,57,138,40,11,26,020,27,12,29,358,30,13,21,160,38*79
$GPGSV,5,2,17,14,04,126,36,15,27,195,33,18,20,228,19,20,48,073,29*7F
$GPGSV,5,3,17,22,18,111,33,24,63,251,31,25,07,334,,29,10,296,*75
$GPGSV,5,4,17,36,52,277,,40,86,350,38,41,58,082,34,49,32,274,*71
$GPGSV,5,5,17,50,10,089,*4A
$GLGSV,3,1,12,70,00,090,,71,14,131,34,72,16,181,31,73,06,148,35*6C
$GLGSV,3,2,12,74,46,126,30,75,60,024,30,76,10,343,,85,03,014,*6E
$GLGSV,3,3,12,86,38,328,26,87,36,268,32,88,00,221,,,,,39*52
$GNGLL,0419.97484,S,05539.85186,E,044441.00,A,D*6C
$GNGRS,044441.00,1,-1.4,-3.2,-0.9,4.0,0.3,3.6,-6.3,3.3,,,,*5B
$GNGRS,044441.00,1,5.5,11.9,-5.9,8.5,0.0,-3.5,-15.3,,,,,*5B
$GNGST,044441.00,28,,,,1.6,1.7,3.1*41
$GNZDA,044441.00,23,05,2025,00,00*78
$GNGBS,044441.00,1.6,1.7,3.1,,,,*5D
$GNTXT,01,01,01,More than 100 frame errors, UART RX was disabled*70
b0p&9f%
$~!)G0I; o?~N
({4&V^!:R 
YcFZG#HI$J.~K <
L
WUV&HGW!$X(Zbrt3/r$GNRMC,044442.00,A,0419.97486,S,05539.85185,E,0.011,,230525,,,D*74
$GNVTG,,T,,M,0.011,N,0.020,K,D*3A
$GNGNS,044442.00,0419.97486,S,05539.85185,E,DA,15,0.71,15.0,-47.6,,0000*6F
$GNGGA,044442.00,0419.97486,S,05539.85185,E,2,12,0.71,15.0,M,-47.6,M,,0000*44
$GNGSA,A,3,24,20,05,13,15,22,12,18,,,,,1.37,0.71,1.18*1A
$GNGSA,A,3,86,74,75,87,73,71,72,,,,,,1.37,0.71,1.18*10
$GPGSV,5,1,17,05,57,138,38,11,26,020,27,12,29,358,31,13,21,160,37*78
$GPGSV,5,2,17,14,04,126,36,15,27,195,33,18,20,228,19,20,48,073,30*77
$GPGSV,5,3,17,22,18,111,32,24,63,251,25,25,07,334,,29,10,296,*71
$GPGSV,5,4,17,36,52,277,,40,86,350,38,41,58,082,33,49,32,274,*76
$GPGSV,5,5,17,50,10,089,*4A
$GLGSV,3,1,12,70,00,090,,71,14,131,35,72,16,181,31,73,06,148,36*6E
$GLGSV,3,2,12,74,46,126,31,75,60,024,32,76,10,343,,85,03,014,*6D
$GLGSV,3,3,12,86,38,328,25,87,36,268,33,88,00,221,,,,,40*5E
$GNGLL,0419.97486,S,05539.85185,E,044442.00,A,D*6E
$GNGRS,044442.00,1,-1.3,-2.0,-0.4,3.9,0.4,1.4,-3.2,3.3,,,,*5C
$GNGRS,044442.00,1,3.3,10.3,-5.0,5.3,0.1,-3.7,-17.8,,,,,*5B
$GNGST,044442.00,29,,,,1.6,1.7,3.1*43
$GNZDA,044442.00,23,05,2025,00,00*7B
$GNGBS,044442.00,1.6,1.7,3.1,,,,*5E
$GNTXT,01,01,01,More than 100 frame errors, UART RX was disabled*70
b0p&9f%
!~:!0I! oh?sN
({4$V^:R 
YcFZG#H0I$"J.~K <L
WUV&HW $X'ubr\7/J=$GNRMC,044443.00,A,0419.97487,S,05539.85183,E,0.026,,230525,,,D*76
$GNVTG,,T,,M,0.026,N,0.048,K,D*30
$GNGNS,044443.00,0419.97487,S,05539.85183,E,DA,15,0.71,15.1,-47.6,,0000*68
$GNGGA,044443.00,0419.97487,S,05539.85183,E,2,12,0.71,15.1,M,-47.6,M,,0000*43
$GNGSA,A,3,24,20,05,13,15,22,12,18,,,,,1.37,0.71,1.18*1A
$GNGSA,A,3,86,74,75,87,73,71,72,,,,,,1.37,0.71,1.18*10
$GPGSV,5,1,17,05,57,138,38,11,26,020,27,12,29,358,31,13,21,160,37*78
$GPGSV,5,2,17,14,04,126,33,15,27,195,33,18,20,228,18,20,48,073,29*7B
$GPGSV,5,3,17,22,18,111,32,24,63,251,25,25,07,334,,29,10,296,*71
$GPGSV,5,4,17,36,52,277,,40,86,350,36,41,58,082,31,49,32,274,*7A
$GPGSV,5,5,17,50,10,089,*4A
$GLGSV,3,1,12,70,00,090,,71,14,131,35,72,16,181,31,73,06,148,36*6E
$GLGSV,3,2,12,74,46,126,31,75,60,024,32,76,10,343,,85,03,014,*6D
$GLGSV,3,3,12,86,38,328,25,87,36,268,32,88,00,221,,,,,39*51
$GNGLL,0419.97487,S,05539.85183,E,044443.00,A,D*68
$GNGRS,044443.00,1,6.3,0.3,-0.3,4.0,-1.1,-1.5,-3.8,1.3,,,,*5F
$GNGRS,044443.00,1,2.3,12.3,-0.5,6.8,0.3,-3.6,-12.3,,,,,*5C
$GNGST,044443.00,28,,,,1.6,1.7,3.1*43
$GNZDA,044443.00,23,05,2025,00,00*7A
$GNGBS,044443.00,1.6,1.7,3.1,,,,*5F
$GNTXT,01,01,01,More than 100 frame errors, UART RX was disabled*70
b0p(9 f'
%~P!0IK!oU?N
({4'V^#:R 
YcFZG$H I&J .~K!<L
WUV&H\W!$X)WbrD;/"$GNRMC,044444.00,A,0419.97492,S,05539.85182,E,0.056,,230525,,,D*73
$GNVTG,,T,,M,0.056,N,0.103,K,D*39
$GNGNS,044444.00,0419.97492,S,05539.85182,E,DA,15,0.71,15.2,-47.6,,0000*69
$GNGGA,044444.00,0419.97492,S,05539.85182,E,2,12,0.71,15.2,M,-47.6,M,,0000*42
$GNGSA,A,3,24,20,05,13,15,22,12,18,,,,,1.37,0.71,1.17*15
$GNGSA,A,3,86,74,75,87,73,71,72,,,,,,1.37,0.71,1.17*1F
$GPGSV,5,1,17,05,57,138,40,11,26,020,27,12,29,358,32,13,21,160,39*7A
$GPGSV,5,2,17,14,04,126,37,15,27,195,33,18,20,228,17,20,48,073,30*78
$GPGSV,5,3,17,22,18,111,33,24,63,251,31,25,07,334,,29,10,296,*75
$GPGSV,5,4,17,36,52,277,,40,86,350,39,41,58,082,35,49,32,274,*71
$GPGSV,5,5,17,50,10,089,*4A
$GLGSV,3,1,12,70,00,090,,71,14,131,36,72,16,181,32,73,06,148,38*60
$GLGSV,3,2,12,74,46,126,32,75,60,024,33,76,10,343,,85,03,014,*6F
$GLGSV,3,3,12,86,38,328,24,87,36,268,33,88,00,221,,,,,41*5E
$GNGLL,0419.97492,S,05539.85182,E,044444.00,A,D*6A
$GNGRS,044444.00,1,-1.2,0.8,-0.4,3.8,2.6,0.8,-10.4,0.1,,,,*45
$GNGRS,044444.00,1,0.9,11.6,1.9,6.9,0.0,-3.5,-13.3,,,,,*75
$GNGST,044444.00,29,,,,1.6,1.7,3.0*44
$GNZDA,044444.00,23,05,2025,00,00*7D
$GNGBS,044444.00,1.6,1.7,3.0,,,,*59
$GNTXT,01,01,01,More than 100 frame errors, UART RX was disabled*70
b0p#9fI"
!~(G@0Io?N
({4"V^:R 
YcFZG"HI#J.~K<aL
WUV&HW$X&br,?/$GNRMC,044445.00,A,0419.97493,S,05539.85183,E,0.055,,230525,,,D*71
$GNVTG,,T,,M,0.055,N,0.102,K,D*3B
$GNGNS,044445.00,0419.97493,S,05539.85183,E,DA,15,0.71,15.2,-47.6,,0000*68
$GNGGA,044445.00,0419.97493,S,05539.85183,E,2,12,0.71,15.2,M,-47.6,M,,0000*43
$GNGSA,A,3,24,20,05,13,15,22,12,18,,,,,1.37,0.71,1.17*15
$GNGSA,A,3,86,74,75,87,73,71,72,,,,,,1.37,0.71,1.17*1F
$GPGSV,5,1,17,05,57,138,35,11,26,020,26,12,29,358,27,13,21,160,34*70
$GPGSV,5,2,17,14,04,126,33,15,27,195,29,18,20,228,16,20,48,073,28*7F
$GPGSV,5,3,17,22,18,111,28,24,63,251,29,25,07,334,,29,10,296,*76
$GPGSV,5,4,17,36,52,277,,40,86,350,34,41,58,082,31,49,32,274,*78
$GPGSV,5,5,17,50,10,089,*4A
$GLGSV,3,1,12,70,00,090,,71,14,131,34,72,16,181,31,73,06,148,35*6C
$GLGSV,3,2,12,74,46,126,31,75,60,024,31,76,10,343,,85,03,014,*6E
$GLGSV,3,3,12,86,38,328,23,87,36,268,31,88,00,221,,,,,38*55
$GNGLL,0419.97493,S,05539.85183,E,044445.00,A,D*6B
$GNGRS,044445.00,1,-3.6,1.3,-0.9,4.2,-1.9,2.4,-9.5,-1.9,,,,*7A
$GNGRS,044445.00,1,1.4,7.9,1.0,1.7,-0.3,-3.4,-13.8,,,,,*64
$GNGST,044445.00,30,,,,1.7,1.8,3.1*42
$GNZDA,044445.00,23,05,2025,00,00*7C
$GNGBS,044445.00,1.7,1.8,3.1,,,,*57
$GNTXT,01,01,01,More than 100 frame errors, UART RX was disabled*70
b0p'9 fJ'
%~d"0I!o?nN
({4%V^":R 
YcFZG#HI#J.~nK<~L
WUV&HOW $fX)brC/u$GNRMC,044446.00,A,0419.97496,S,05539.85179,E,0.036,,230525,,,D*77
$GNVTG,,T,,M,0.036,N,0.066,K,D*3D
$GNGNS,044446.00,0419.97496,S,05539.85179,E,DA,15,0.71,15.2,-47.6,,0000*6B
$GNGGA,044446.00,0419.97496,S,05539.85179,E,2,12,0.71,15.2,M,-47.6,M,,0000*40
$GNGSA,A,3,24,20,05,13,15,22,12,18,,,,,1.37,0.71,1.17*15
$GNGSA,A,3,86,74,75,87,73,71,72,,,,,,1.37,0.71,1.17*1F
$GPGSV,5,1,17,05,57,138,39,11,26,020,25,12,29,358,32,13,21,160,39*76
$GPGSV,5,2,17,14,04,126,37,15,27,195,34,18,20,228,13,20,48,073,28*72
$GPGSV,5,3,17,22,18,111,33,24,63,251,29,25,07,334,,29,10,296,*7C
$GPGSV,5,4,17,36,52,277,,40,86,350,37,41,58,082,34,49,32,274,*7E
$GPGSV,5,5,17,50,10,089,*4A
$GLGSV,3,1,12,70,00,090,,71,14,131,35,72,16,181,31,73,06,148,35*6D
$GLGSV,3,2,12,74,46,126,31,75,60,024,31,76,10,343,,85,03,014,*6E
$GLGSV,3,3,12,86,38,328,25,87,36,268,32,88,00,221,,,,,41*5E
$GNGLL,0419.97496,S,05539.85179,E,044446.00,A,D*68
$GNGRS,044446.00,1,1.1,0.1,-0.7,4.2,0.2,4.2,-6.9,-0.8,,,,*78
$GNGRS,044446.00,1,0.8,8.8,1.3,8.7,-0.4,-3.4,-15.4,,,,,*63
$GNGST,044446.00,31,,,,1.7,1.8,3.1*40
$GNZDA,044446.00,23,05,2025,00,00*7F
$GNGBS,044446.00,1.7,1.8,3.1,,,,*54
$GNTXT,01,01,01,More than 100 frame errors, UART RX was disabled*70
b0ph&9f'
#~%eY0Is!o ?N
({4&V^":R 
Yc[FZG#H!I#J .~K!<cL
WUV&HW!$|X'bhrF/$GNRMC,044447.00,A,0419.97500,S,05539.85181,E,0.018,,230525,,,D*73
$GNVTG,,T,,M,0.018,N,0.034,K,D*36
$GNGNS,044447.00,0419.97500,S,05539.85181,E,DA,15,0.71,15.3,-47.6,,0000*62
$GNGGA,044447.00,0419.97500,S,05539.85181,E,2,12,0.71,15.3,M,-47.6,M,,0000*49
$GNGSA,A,3,24,20,05,13,15,22,12,18,,,,,1.37,0.71,1.17*15
$GNGSA,A,3,86,74,75,87,73,71,72,,,,,,1.37,0.71,1.17*1F
$GPGSV,5,1,17,05,57,138,38,11,26,020,26,12,29,358,31,13,21,160,39*77
$GPGSV,5,2,17,14,04,126,35,15,27,195,37,18,20,228,21,20,48,073,28*72
$GPGSV,5,3,17,22,18,111,33,24,63,251,32,25,07,334,,29,10,296,*76
$GPGSV,5,4,17,36,52,277,,40,86,350,38,41,58,082,34,49,32,274,*71
$GPGSV,5,5,17,50,10,089,*4A
$GLGSV,3,1,12,70,00,090,,71,14,131,35,72,16,181,33,73,06,148,35*6F
$GLGSV,3,2,12,74,46,126,32,75,60,024,33,76,10,343,,85,03,014,*6F
$GLGSV,3,3,12,86,38,328,27,87,36,268,33,88,00,221,,,,,39*52
$GNGLL,0419.97500,S,05539.85181,E,044447.00,A,D*60
$GNGRS,044447.00,1,-1.0,1.1,-0.8,4.1,-1.5,1.9,-8.9,-1.7,,,,*7D
$GNGRS,044447.00,1,-0.5,9.0,-1.6,3.8,-0.5,-3.3,-13.4,,,,,*67
$GNGST,044447.00,24,,,,1.7,1.8,3.1*45
$GNZDA,044447.00,23,05,2025,00,00*7E
$GNGBS,044447.00,1.7,1.8,3.1,,,,*55
$GNTXT,01,01,01,More than 100 frame errors, UART RX was disabled*70
b0pP&9#f$
"~$]0I"o ?oN
({4(V^#:R 
YcmFZG#H!I!J.~K!<L
WUV&HW $X(bbPrJ/B$GNRMC,044448.00,A,0419.97504,S,05539.85185,E,0.018,,230525,,,D*7C
$GNVTG,,T,,M,0.018,N,0.033,K,D*31
$GNGNS,044448.00,0419.97504,S,05539.85185,E,DA,15,0.71,15.5,-47.6,,0000*6B
$GNGGA,044448.00,0419.97504,S,05539.85185,E,2,12,0.71,15.5,M,-47.6,M,,0000*40
$GNGSA,A,3,24,20,05,13,15,22,12,18,,,,,1.37,0.71,1.17*15
$GNGSA,A,3,86,74,75,87,73,71,72,,,,,,1.37,0.71,1.17*1F
$GPGSV,5,1,17,05,57,138,38,11,26,020,27,12,29,358,35,13,21,160,36*7D
$GPGSV,5,2,17,14,04,126,34,15,27,195,36,18,20,228,27,20,48,073,29*75
$GPGSV,5,3,17,22,18,111,34,24,63,251,32,25,07,334,,29,10,296,*71
$GPGSV,5,4,17,36,52,277,,40,86,350,40,41,58,082,35,49,32,274,*7F
$GPGSV,5,5,17,50,10,089,*4A
$GLGSV,3,1,12,70,00,090,,71,14,131,35,72,16,181,33,73,06,148,33*69
$GLGSV,3,2,12,74,46,126,31,75,60,024,33,76,10,343,,85,03,014,*6C
$GLGSV,3,3,12,86,38,328,27,87,36,268,32,88,00,221,,,,,40*5D
$GNGLL,0419.97504,S,05539.85185,E,044448.00,A,D*6F
$GNGRS,044448.00,1,-4.0,-1.0,-0.7,4.3,-1.3,5.2,-7.5,-1.6,,,,*5D
$GNGRS,044448.00,1,-3.1,9.8,1.3,4.9,-0.3,-3.2,-16.0,,,,,*4F
$GNGST,044448.00,21,,,,1.7,1.8,3.1*4F
$GNZDA,044448.00,23,05,2025,00,00*71
$GNGBS,044448.00,1.7,1.8,3.1,,,,*5A
$GNTXT,01,01,01,More than 100 frame errors, UART RX was disabled*70
b0p8&9!fb%
#~G L0Is!oK ?aN
({4&V^":R 
YcFZG"H,I!J.~K!<HL
WUV&HW $/X&Ab8rN/Y$GNRMC,044449.00,A,0419.97505,S,05539.85184,E,0.048,,230525,,,D*78
$GNVTG,,T,,M,0.048,N,0.089,K,D*35
$GNGNS,044449.00,0419.97505,S,05539.85184,E,DA,15,0.71,15.5,-47.6,,0000*6A
$GNGGA,044449.00,0419.97505,S,05539.85184,E,2,12,0.71,15.5,M,-47.6,M,,0000*41
$GNGSA,A,3,24,20,05,13,15,22,12,18,,,,,1.37,0.71,1.17*15
$GNGSA,A,3,86,74,75,87,73,71,72,,,,,,1.37,0.71,1.17*1F
$GPGSV,5,1,17,05,57,138,38,11,26,020,29,12,29,358,33,13,21,160,37*74
$GPGSV,5,2,17,14,04,126,35,15,27,195,32,18,20,228,24,20,48,073,31*7A
$GPGSV,5,3,17,22,18,111,33,24,63,251,32,25,07,334,,29,10,296,*76
$GPGSV,5,4,17,36,52,277,,40,86,350,38,41,58,082,34,49,32,274,*71
$GPGSV,5,5,17,50,10,089,*4A
$GLGSV,3,1,12,70,00,090,,71,14,131,34,72,16,181,31,73,06,148,33*6A
$GLGSV,3,2,12,74,46,126,30,75,60,024,33,76,10,343,,85,03,014,*6D
$GLGSV,3,3,12,86,38,328,26,87,36,268,32,88,00,221,,,,,38*53
$GNGLL,0419.97505,S,05539.85184,E,044449.00,A,D*6E
$GNGRS,044449.00,1,-1.6,-1.4,-0.8,4.1,-3.1,0.7,-4.1,0.8,,,,*73
$GNGRS,044449.00,1,-1.1,12.1,3.3,5.6,-0.1,-3.3,-14.9,,,,,*7B
$GNGST,044449.00,23,,,,1.7,1.8,3.1*4C
$GNZDA,044449.00,23,05,2025,00,00*70
$GNGBS,044449.00,1.7,1.8,3.1,,,,*5B
$GNTXT,01,01,01,More than 100 frame errors, UART RX was disabled*70
b0p '9 f%
#~##~ 0I o?N
({4(V^#:R 
YcFZG"HfI"J.~K<L
WUV&HW $X%@b rR/1$GNRMC,044450.00,A,0419.97506,S,05539.85183,E,0.015,,230525,,,D*7C
$GNVTG,,T,,M,0.015,N,0.027,K,D*39
$GNGNS,044450.00,0419.97506,S,05539.85183,E,DA,15,0.71,15.5,-47.6,,0000*66
$GNGGA,044450.00,0419.97506,S,05539.85183,E,2,12,0.71,15.5,M,-47.6,M,,0000*4D
$GNGSA,A,3,24,20,05,13,15,22,12,18,,,,,1.37,0.71,1.17*15
$GNGSA,A,3,86,74,75,87,73,71,72,,,,,,1.37,0.71,1.17*1F
$GPGSV,5,1,17,05,57,138,39,11,26,020,29,12,29,358,32,13,21,160,37*74
$GPGSV,5,2,17,14,04,126,35,15,27,195,35,18,20,228,25,20,48,073,32*7F
$GPGSV,5,3,17,22,18,111,32,24,63,251,27,25,07,334,,29,10,296,*73
$GPGSV,5,4,17,36,52,277,,40,86,350,40,41,58,082,35,49,32,274,*7F
$GPGSV,5,5,17,50,10,089,*4A
$GLGSV,3,1,12,70,00,090,,71,14,131,34,72,16,181,31,73,06,148,34*6D
$GLGSV,3,2,12,74,46,126,31,75,60,024,31,76,10,343,,85,03,014,*6E
$GLGSV,3,3,12,86,38,328,27,87,36,268,32,88,00,221,,,,,37*5D
$GNGLL,0419.97506,S,05539.85183,E,044450.00,A,D*62
$GNGRS,044450.00,1,1.4,-1.2,-0.9,4.1,-2.9,0.0,-6.4,-1.3,,,,*7D
$GNGRS,044450.00,1,-0.3,10.1,7.6,4.5,-0.2,-3.3,-11.8,,,,,*76
$GNGST,044450.00,23,,,,1.7,1.8,3.1*44
$GNZDA,044450.00,23,05,2025,00,00*78
$GNGBS,044450.00,1.7,1.8,3.1,,,,*53
$GNTXT,01,01,01,More than 100 frame errors, UART RX was disabled*70
b0p(9#f'w
~#"`0I4!oT?N
({4)V^#:R 
YcFZG!HIJ.~%K <L
WUV&H8W $X%(1brV/z$GNRMC,044451.00,A,0419.97511,S,05539.85183,E,0.042,,230525,,,D*79
$GNVTG,,T,,M,0.042,N,0.078,K,D*31
$GNGNS,044451.00,0419.97511,S,05539.85183,E,DA,15,0.71,15.5,-47.6,,0000*61
$GNGGA,044451.00,0419.97511,S,05539.85183,E,2,12,0.71,15.5,M,-47.6,M,,0000*4A
$GNGSA,A,3,24,20,05,13,15,22,12,18,,,,,1.37,0.71,1.17*15
$GNGSA,A,3,86,74,75,87,73,71,72,,,,,,1.37,0.71,1.17*1F
$GPGSV,5,1,17,05,57,138,40,11,26,020,28,12,29,358,35,13,21,160,39*72
$GPGSV,5,2,17,14,04,126,31,15,27,195,35,18,20,228,25,20,48,073,30*79
$GPGSV,5,3,17,22,18,111,33,24,63,251,30,25,07,334,,29,10,296,*74
$GPGSV,5,4,17,36,52,277,,40,86,350,41,41,58,082,35,49,32,274,*7E
$GPGSV,5,5,17,50,10,089,*4A
$GLGSV,3,1,12,70,00,090,,71,14,131,33,72,16,181,31,73,06,148,29*66
$GLGSV,3,2,12,74,46,126,31,75,60,024,32,76,10,343,,85,03,014,*6D
$GLGSV,3,3,12,86,38,328,28,87,36,268,32,88,00,221,,,,,37*52
$GNGLL,0419.97511,S,05539.85183,E,044451.00,A,D*65
$GNGRS,044451.00,1,-1.1,3.1,-0.6,3.8,-2.2,0.8,-5.0,-1.6,,,,*78
$GNGRS,044451.00,1,3.1,10.6,5.2,2.8,-0.3,-3.3,-12.9,,,,,*52
$GNGST,044451.00,22,,,,1.6,1.8,3.0*44
$GNZDA,044451.00,23,05,2025,00,00*79
$GNGBS,044451.00,1.6,1.8,3.0,,,,*52
$GNTXT,01,01,01,More than 100 frame errors, UART RX was disabled*70
b0p(9"fq'
"~$W 0I#o?N
({4*V^#:R 
YcFZG"H IJ .~@K!</L
WUV&HW!$5X%brZ/$GNRMC,044452.00,A,0419.97513,S,05539.85185,E,0.061,,230525,,,D*7F
$GNVTG,,T,,M,0.061,N,0.113,K,D*3C
$GNGNS,044452.00,0419.97513,S,05539.85185,E,DA,15,0.71,15.6,-47.6,,0000*65
$GNGGA,044452.00,0419.97513,S,05539.85185,E,2,12,0.71,15.6,M,-47.6,M,,0000*4E
$GNGSA,A,3,24,20,05,13,15,22,12,18,,,,,1.37,0.71,1.17*15
$GNGSA,A,3,86,74,75,87,73,71,72,,,,,,1.37,0.71,1.17*1F
$GPGSV,5,1,17,05,57,138,40,11,26,020,26,12,29,358,34,13,21,160,39*7D
$GPGSV,5,2,17,14,04,126,34,15,27,195,36,18,20,228,23,20,48,073,29*71
$GPGSV,5,3,17,22,18,111,35,24,63,251,31,25,07,334,,29,10,296,*73
$GPGSV,5,4,17,36,52,277,,40,86,350,42,41,58,082,35,49,32,274,*7D
$GPGSV,5,5,17,50,10,089,*4A
$GLGSV,3,1,12,70,00,090,,71,14,131,34,72,16,181,32,73,06,148,31*6B
$GLGSV,3,2,12,74,46,126,32,75,60,024,33,76,10,343,,85,03,014,*6F
$GLGSV,3,3,12,86,38,328,30,87,36,268,33,88,00,221,,,,,37*5A
$GNGLL,0419.97513,S,05539.85185,E,044452.00,A,D*62
$GNGRS,044452.00,1,-7.5,4.8,-0.2,3.9,-1.7,-1.0,-6.6,-2.2,,,,*52
$GNGRS,044452.00,1,5.2,10.9,5.6,3.1,2.4,-3.3,-13.1,,,,,*76
$GNGST,044452.00,22,,,,1.6,1.8,3.0*47
$GNZDA,044452.00,23,05,2025,00,00*7A
$GNGBS,044452.00,1.6,1.8,3.0,,,,*51
$GNTXT,01,01,01,More than 100 frame errors, UART RX was disabled*70
b0p(9"f'
#~#>0IR#o ?FN
({4*V^#:R 
YcFZG!H!I J!.~K#<L
WUV&HW"$6X&rbrl^/;$GNRMC,044453.00,A,0419.97518,S,05539.85189,E,0.029,,230525,,,D*75
$GNVTG,,T,,M,0.029,N,0.054,K,D*32
$GNGNS,044453.00,0419.97518,S,05539.85189,E,DA,15,0.71,15.7,-47.6,,0000*62
$GNGGA,044453.00,0419.97518,S,05539.85189,E,2,12,0.71,15.7,M,-47.6,M,,0000*49
$GNGSA,A,3,24,20,05,13,15,22,12,18,,,,,1.37,0.71,1.17*15
$GNGSA,A,3,86,74,75,87,73,71,72,,,,,,1.37,0.71,1.17*1F
$GPGSV,5,1,17,05,57,138,40,11,26,020,26,12,29,358,34,13,21,160,39*7D
$GPGSV,5,2,17,14,04,126,35,15,27,195,35,18,20,228,22,20,48,073,30*7A
$GPGSV,5,3,17,22,18,111,35,24,63,251,32,25,07,334,,29,10,296,*70
$GPGSV,5,4,17,36,52,277,,40,86,350,42,41,58,082,35,49,32,274,*7D
$GPGSV,5,5,17,50,10,089,*4A
$GLGSV,3,1,12,70,00,090,,71,14,131,33,72,16,181,33,73,06,148,32*6E
$GLGSV,3,2,12,74,46,126,33,75,60,024,35,76,10,343,,85,03,014,*68
$GLGSV,3,3,12,86,38,328,31,87,36,268,34,88,00,221,,,,,38*53
$GNGLL,0419.97518,S,05539.85189,E,044453.00,A,D*64
$GNGRS,044453.00,1,-7.0,3.4,-0.1,3.9,-1.9,-0.2,-8.3,-2.8,,,,*52
$GNGRS,044453.00,1,2.0,9.8,1.4,3.1,-0.2,-3.2,-15.5,,,,,*67
$GNGST,044453.00,21,,,,1.6,1.8,2.9*4D
$GNZDA,044453.00,23,05,2025,00,00*7B
$GNGBS,044453.00,1.6,1.8,2.9,,,,*58
$GNTXT,01,01,01,More than 100 frame errors, UART RX was disabled*70
b0p'9"f'_
#~#O0I#o ?QN
({4*V^#:R 
YcFZG#H!I"[J".~K$<FL
WUV&H8W"$2X&\lbrTb/$GNRMC,044454.00,A,0419.97523,S,05539.85191,E,0.081,,230525,,,D*71
$GNVTG,,T,,M,0.081,N,0.151,K,D*34
$GNGNS,044454.00,0419.97523,S,05539.85191,E,DA,15,0.71,15.8,-47.6,,0000*6B
$GNGGA,044454.00,0419.97523,S,05539.85191,E,2,12,0.71,15.8,M,-47.6,M,,0000*40
$GNGSA,A,3,24,20,05,13,15,22,12,18,,,,,1.37,0.71,1.17*15
$GNGSA,A,3,86,74,75,87,73,71,72,,,,,,1.37,0.71,1.17*1F
$GPGSV,5,1,17,05,57,138,39,11,26,020,25,12,29,358,34,13,21,160,39*70
$GPGSV,5,2,17,14,04,126,35,15,27,195,35,18,20,228,20,20,48,073,29*70
$GPGSV,5,3,17,22,18,111,35,24,63,251,32,25,07,334,,29,10,296,*70
$GPGSV,5,4,17,36,52,277,,40,86,350,42,41,58,082,35,49,32,274,*7D
$GPGSV,5,5,17,50,10,089,*4A
$GLGSV,3,1,12,70,00,090,,71,14,131,35,72,16,181,33,73,06,148,34*6E
$GLGSV,3,2,12,74,46,126,34,75,60,024,36,76,10,343,,85,03,014,*6C
$GLGSV,3,3,12,86,38,328,31,87,36,268,34,88,00,221,,,,,38*53
$GNGLL,0419.97523,S,05539.85191,E,044454.00,A,D*62
$GNGRS,044454.00,1,-4.3,5.1,0.0,3.5,-1.8,-0.1,-8.2,-2.5,,,,*78
$GNGRS,044454.00,1,8.2,4.9,-1.9,3.1,-1.7,-3.4,-14.0,,,,,*42
$GNGST,044454.00,21,,,,1.6,1.7,2.9*45
$GNZDA,044454.00,23,05,2025,00,00*7C
$GNGBS,044454.00,1.6,1.7,2.9,,,,*50
$GNTXT,01,01,01,More than 100 frame errors, UART RX was disabled*70
b0p'9"f'F
#~#^0I#o?ON
({4*V^":R 
YcFZG#H!I"J".~DK$<L
WUV&HW#$:X&br<f/h$GNRMC,044455.00,A,0419.97528,S,05539.85193,E,0.015,,230525,,,D*74
$GNVTG,,T,,M,0.015,N,0.028,K,D*36
$GNGNS,044455.00,0419.97528,S,05539.85193,E,DA,15,0.71,15.9,-47.6,,0000*62
$GNGGA,044455.00,0419.97528,S,05539.85193,E,2,12,0.71,15.9,M,-47.6,M,,0000*49
$GNGSA,A,3,24,20,05,13,15,22,12,18,,,,,1.37,0.71,1.17*15
$GNGSA,A,3,86,74,75,87,73,71,72,,,,,,1.37,0.71,1.17*1F
$GPGSV,5,1,17,05,57,138,39,11,26,020,25,12,29,358,34,13,21,160,39*70
$GPGSV,5,2,17,14,04,126,35,15,27,195,35,18,20,228,20,20,48,073,28*71
$GPGSV,5,3,17,22,18,111,35,24,63,251,31,25,07,334,,29,10,296,*73
$GPGSV,5,4,17,36,52,277,,40,86,350,42,41,58,082,34,49,32,274,*7C
$GPGSV,5,5,17,50,10,089,*4A
$GLGSV,3,1,12,70,00,090,,71,14,131,35,72,16,181,33,73,06,148,34*6E
$GLGSV,3,2,12,74,46,126,34,75,60,024,36,76,10,343,,85,03,014,*6C
$GLGSV,3,3,12,86,38,328,31,87,36,268,35,88,00,221,,,,,38*52
$GNGLL,0419.97528,S,05539.85193,E,044455.00,A,D*6A
$GNGRS,044455.00,1,-4.3,7.7,-0.2,3.3,-1.6,-0.1,-7.8,-2.4,,,,*5E
$GNGRS,044455.00,1,1.7,5.8,0.0,3.1,-0.9,-3.7,-13.8,,,,,*69
$GNGST,044455.00,22,,,,1.6,1.7,2.9*47
$GNZDA,044455.00,23,05,2025,00,00*7D
$GNGBS,044455.00,1.6,1.7,2.9,,,,*51
$GNTXT,01,01,01,More than 100 frame errors, UART RX was disabled*70
b0p(9
#f'@
#~#L0I #o#?N
({4+V^":R 
Yc5FZG"fH!cI#J!.~)K$<L
WUV&HW"$@X&br$j/@s$GNRMC,044456.00,A,0419.97533,S,05539.85194,E,0.033,,230525,,,D*7E
$GNVTG,,T,,M,0.033,N,0.062,K,D*3C
$GNGNS,044456.00,0419.97533,S,05539.85194,E,DA,15,0.71,16.1,-47.6,,0000*67
$GNGGA,044456.00,0419.97533,S,05539.85194,E,2,12,0.71,16.1,M,-47.6,M,,0000*4C
$GNGSA,A,3,24,20,05,13,15,22,12,18,,,,,1.37,0.71,1.17*15
$GNGSA,A,3,86,74,75,87,73,71,72,,,,,,1.37,0.71,1.17*1F
$GPGSV,5,1,17,05,57,138,40,11,26,020,24,12,29,358,35,13,21,160,39*7E
$GPGSV,5,2,17,14,04,126,35,15,27,195,35,18,20,228,19,20,48,073,28*7B
$GPGSV,5,3,17,22,18,111,35,24,63,251,31,25,07,334,,29,10,296,*73
$GPGSV,5,4,17,36,52,277,,40,86,350,43,41,58,082,34,49,32,274,*7D
$GPGSV,5,5,17,50,10,089,*4A
$GLGSV,3,1,12,70,00,090,,71,14,130,34,72,16,181,33,73,06,148,35*6F
$GLGSV,3,2,12,74,46,126,33,75,60,024,36,76,10,343,,85,03,014,*6B
$GLGSV,3,3,12,86,38,328,31,87,36,268,34,88,00,221,,,,,38*53
$GNGLL,0419.97533,S,05539.85194,E,044456.00,A,D*64
$GNGRS,044456.00,1,-5.8,2.9,0.1,3.2,-1.8,0.3,-7.6,-0.4,,,,*5E
$GNGRS,044456.00,1,4.4,5.5,1.7,3.2,-0.9,-4.1,-11.8,,,,,*67
$GNGST,044456.00,22,,,,1.6,1.7,2.9*44
$GNZDA,044456.00,23,05,2025,00,00*7E
$GNGBS,044456.00,1.6,1.7,2.9,,,,*52
$GNTXT,01,01,01,More than 100 frame errors, UART RX was disabled*70
b0px(9"f*'P
#~#Z0I#o)?N
({4)V^":R 
YcRFZG"PH!I$J".~xK#<XL
WUV&H}W"$@X&0bxrn/$GNRMC,044457.00,A,0419.97536,S,05539.85194,E,0.017,,230525,,,D*7C
$GNVTG,,T,,M,0.017,N,0.032,K,D*3F
$GNGNS,044457.00,0419.97536,S,05539.85194,E,DA,15,0.71,16.2,-47.6,,0000*60
$GNGGA,044457.00,0419.97536,S,05539.85194,E,2,12,0.71,16.2,M,-47.6,M,,0000*4B
$GNGSA,A,3,24,20,05,13,15,22,12,18,,,,,1.37,0.71,1.17*15
$GNGSA,A,3,86,74,75,87,73,71,72,,,,,,1.37,0.71,1.17*1F
$GPGSV,5,1,17,05,57,138,40,11,26,020,24,12,29,358,34,13,21,160,39*7F
$GPGSV,5,2,17,14,04,126,35,15,27,195,35,18,20,228,18,20,48,073,28*7A
$GPGSV,5,3,17,22,18,111,35,24,63,251,31,25,07,334,,29,10,296,*73
$GPGSV,5,4,17,36,52,277,,40,86,350,41,41,58,082,34,49,32,274,*7F
$GPGSV,5,5,17,50,10,089,*4A
$GLGSV,3,1,12,70,00,090,,71,14,130,34,72,16,180,33,73,06,148,36*6D
$GLGSV,3,2,12,74,46,126,34,75,60,024,35,76,10,343,,85,03,014,*6F
$GLGSV,3,3,12,86,38,328,30,87,36,268,34,88,00,221,,,,,38*52
$GNGLL,0419.97536,S,05539.85194,E,044457.00,A,D*60
$GNGRS,044457.00,1,-3.8,4.8,-0.2,3.4,-1.7,0.4,-7.3,-0.9,,,,*76
$GNGRS,044457.00,1,6.4,6.3,0.9,3.2,-2.4,-4.3,-13.0,,,,,*69
$GNGST,044457.00,22,,,,1.6,1.7,2.8*44
$GNZDA,044457.00,23,05,2025,00,00*7F
$GNGBS,044457.00,1.6,1.7,2.8,,,,*52
$GNTXT,01,01,01,More than 100 frame errors, UART RX was disabled*70
b0p`%9!f6 x
~!o$0IoO?N
({4)V^(:R 
YcFZG"^H!I J!.~LK&<bL
WUV&HW#$#X%#b`rq/@$GNRMC,044458.00,A,0419.97535,S,05539.85195,E,0.034,,230525,,,D*70
$GNVTG,,T,,M,0.034,N,0.062,K,D*3B
$GNGNS,044458.00,0419.97535,S,05539.85195,E,DA,15,0.71,16.3,-47.6,,0000*6C
$GNGGA,044458.00,0419.97535,S,05539.85195,E,2,12,0.71,16.3,M,-47.6,M,,0000*47
$GNGSA,A,3,24,20,05,13,15,22,12,18,,,,,1.37,0.71,1.17*15
$GNGSA,A,3,86,74,75,87,73,71,72,,,,,,1.37,0.71,1.17*1F
$GPGSV,5,1,17,05,57,138,37,11,26,020,23,12,29,358,33,13,21,160,32*74
$GPGSV,5,2,17,14,04,126,25,15,27,195,33,18,20,228,19,20,48,073,36*73
$GPGSV,5,3,17,22,18,111,31,24,63,251,30,25,07,334,,29,10,296,*76
$GPGSV,5,4,17,36,52,277,,40,86,350,41,41,58,082,40,49,32,274,*7C
$GPGSV,5,5,17,50,10,089,*4A
$GLGSV,3,1,12,70,00,090,,71,14,130,34,72,16,180,33,73,05,148,32*6A
$GLGSV,3,2,12,74,46,126,33,75,60,024,38,76,10,343,,85,03,014,*65
$GLGSV,3,3,12,86,38,328,30,87,36,268,35,88,00,221,,,,,37*5C
$GNGLL,0419.97535,S,05539.85195,E,044458.00,A,D*6D
$GNGRS,044458.00,1,-2.7,1.4,-0.3,3.8,-1.5,0.8,-7.1,-0.3,,,,*75
$GNGRS,044458.00,1,7.7,5.9,1.0,2.9,-0.6,-4.2,-12.5,,,,,*6A
$GNGST,044458.00,23,,,,1.6,1.7,2.9*4B
$GNZDA,044458.00,23,05,2025,00,00*70
$GNGBS,044458.00,1.6,1.7,2.9,,,,*5C
$GNTXT,01,01,01,More than 100 frame errors, UART RX was disabled*70
b0pH'9#f,!
~U0Is!o?\N
({4)V^#:R 
YcFZG%xH"I'J!.`K#<mL
WUV&HW$$X&cbHru/$GNRMC,044459.00,A,0419.97537,S,05539.85195,E,0.071,,230525,,,D*72
$GNVTG,,T,,M,0.071,N,0.132,K,D*3E
$GNGNS,044459.00,0419.97537,S,05539.85195,E,DA,15,0.71,16.5,-47.6,,0000*69
$GNGGA,044459.00,0419.97537,S,05539.85195,E,2,12,0.71,16.5,M,-47.6,M,,0000*42
$GNGSA,A,3,24,20,05,13,15,22,12,18,,,,,1.37,0.71,1.17*15
$GNGSA,A,3,86,74,75,87,73,71,72,,,,,,1.37,0.71,1.17*1F
$GPGSV,5,1,17,05,57,138,39,11,26,020,24,12,29,358,35,13,21,160,33*7A
$GPGSV,5,2,17,14,04,126,26,15,27,195,30,18,20,228,22,20,48,073,31*7C
$GPGSV,5,3,17,22,18,111,33,24,63,251,30,25,07,334,,29,10,296,*74
$GPGSV,5,4,17,36,52,277,,40,86,350,41,41,58,082,35,49,32,274,*7E
$GPGSV,5,5,17,50,10,089,*4A
$GLGSV,3,1,12,70,00,090,,71,14,130,37,72,16,180,34,73,05,148,39*65
$GLGSV,3,2,12,74,46,127,33,75,60,024,35,76,10,343,,85,03,014,*69
$GLGSV,3,3,12,86,38,328,29,87,36,268,36,88,00,221,,,,,38*58
$GNGLL,0419.97537,S,05539.85195,E,044459.00,A,D*6E
$GNGRS,044459.00,1,0.9,-1.4,-0.1,4.7,-1.1,1.7,-7.2,0.1,,,,*54
$GNGRS,044459.00,1,6.7,6.1,1.1,2.9,-0.5,-3.9,-12.5,,,,,*6F
$GNGST,044459.00,21,,,,1.6,1.7,2.8*49
$GNZDA,044459.00,23,05,2025,00,00*71
$GNGBS,044459.00,1.6,1.7,2.8,,,,*5C
$GNTXT,01,01,01,More than 100 frame errors, UART RX was disabled*70
b0p0'9"f1!W
~m0IW"o?N
({4)V^#:R 
YcFZG&H"&I'J .hK$<L
WUV&H:W$$*X&&b0ry/$GNRMC,044500.00,A,0419.97537,S,05539.85193,E,0.047,,230525,,,D*7C
$GNVTG,,T,,M,0.047,N,0.087,K,D*34
$GNGNS,044500.00,0419.97537,S,05539.85193,E,DA,15,0.71,16.7,-47.6,,0000*60
$GNGGA,044500.00,0419.97537,S,05539.85193,E,2,12,0.71,16.7,M,-47.6,M,,0000*4B
$GNGSA,A,3,24,20,05,13,15,22,12,18,,,,,1.37,0.71,1.17*15
$GNGSA,A,3,86,74,75,87,73,71,72,,,,,,1.37,0.71,1.17*1F
$GPGSV,5,1,17,05,57,138,39,11,26,020,25,12,29,358,34,13,21,160,33*7A
$GPGSV,5,2,17,14,04,126,30,15,27,195,30,18,20,228,25,20,48,073,31*7C
$GPGSV,5,3,17,22,18,111,34,24,63,251,28,25,07,334,,29,10,296,*7A
$GPGSV,5,4,17,36,52,277,,40,86,350,41,41,58,082,35,49,32,274,*7E
$GPGSV,5,5,17,50,10,089,*4A
$GLGSV,3,1,12,70,00,090,,71,14,130,38,72,16,180,34,73,05,148,39*6A
$GLGSV,3,2,12,74,46,127,32,75,60,025,36,76,10,343,,85,03,014,*6A
$GLGSV,3,3,12,86,38,328,29,87,36,268,36,88,00,221,,,,,38*58
$GNGLL,0419.97537,S,05539.85193,E,044500.00,A,D*65
$GNGRS,044500.00,1,3.9,0.9,-0.4,8.5,-0.8,1.9,-7.2,-1.5,,,,*5E
$GNGRS,044500.00,1,5.7,6.2,1.6,3.0,-0.6,-3.5,-12.4,,,,,*63
$GNGST,044500.00,20,,,,1.6,1.7,2.8*45
$GNZDA,044500.00,23,05,2025,00,00*7C
$GNGBS,044500.00,1.6,1.7,2.8,,,,*51
$GNTXT,01,01,01,More than 100 frame errors, UART RX was disabled*70
b0p'9"f/!^
~  0Io!o?QN
({4*V^#:R 
YcvFZG&H!%I'J .~K$<L
WUV&HW$$%X&%br}/x$GNRMC,044501.00,A,0419.97539,S,05539.85191,E,0.022,,230525,,,D*72
$GNVTG,,T,,M,0.022,N,0.041,K,D*3D
$GNGNS,044501.00,0419.97539,S,05539.85191,E,DA,15,0.71,16.8,-47.6,,0000*62
$GNGGA,044501.00,0419.97539,S,05539.85191,E,2,12,0.71,16.8,M,-47.6,M,,0000*49
$GNGSA,A,3,24,20,05,13,15,22,12,18,,,,,1.37,0.71,1.17*15
$GNGSA,A,3,86,74,75,87,73,71,72,,,,,,1.37,0.71,1.17*1F
$GPGSV,5,1,17,05,57,138,39,11,26,020,26,12,29,358,34,13,21,160,33*79
$GPGSV,5,2,17,14,04,126,30,15,27,195,32,18,20,228,26,20,48,073,32*7E
$GPGSV,5,3,17,22,18,111,33,24,63,251,26,25,07,334,,29,10,296,*73
$GPGSV,5,4,17,36,52,277,,40,86,350,42,41,58,082,35,49,32,274,*7D
$GPGSV,5,5,17,50,10,089,*4A
$GLGSV,3,1,12,70,00,090,,71,14,130,38,72,16,180,33,73,05,148,39*6D
$GLGSV,3,2,12,74,46,127,32,75,60,025,36,76,10,343,,85,03,014,*6A
$GLGSV,3,3,12,86,38,328,29,87,36,268,36,88,00,221,,,,,38*58
$GNGLL,0419.97539,S,05539.85191,E,044501.00,A,D*68
$GNGRS,044501.00,1,8.5,-1.5,-0.3,3.5,-0.4,2.1,-7.2,-2.4,,,,*71
$GNGRS,044501.00,1,-0.7,6.4,2.0,2.9,-0.4,-3.5,-12.4,,,,,*43
$GNGST,044501.00,20,,,,1.6,1.7,2.8*44
$GNZDA,044501.00,23,05,2025,00,00*7D
$GNGBS,044501.00,1.6,1.7,2.8,,,,*50
$GNTXT,01,01,01,More than 100 frame errors, UART RX was disabled*70
b0p'9"f1"
~, 5 0I"o?-N
({4)V^#:R 
YcFZG&H"I&J.}K$<L
WUV&HW$$+X&br/P$GNRMC,044502.00,A,0419.97540,S,05539.85190,E,0.017,,230525,,,D*78
$GNVTG,,T,,M,0.017,N,0.032,K,D*3F
$GNGNS,044502.00,0419.97540,S,05539.85190,E,DA,15,0.71,16.9,-47.6,,0000*6F
$GNGGA,044502.00,0419.97540,S,05539.85190,E,2,12,0.71,16.9,M,-47.6,M,,0000*44
$GNGSA,A,3,24,20,05,13,15,22,12,18,,,,,1.37,0.71,1.17*15
$GNGSA,A,3,86,74,75,87,73,71,72,,,,,,1.37,0.71,1.17*1F
$GPGSV,5,1,17,05,57,138,39,11,26,020,25,12,29,358,34,13,21,160,34*7D
$GPGSV,5,2,17,14,04,126,29,15,27,195,32,18,20,228,26,20,48,073,32*76
$GPGSV,5,3,17,22,18,111,34,24,63,251,26,25,07,334,,29,10,296,*74
$GPGSV,5,4,17,36,52,277,,40,86,350,41,41,58,082,35,49,32,274,*7E
$GPGSV,5,5,17,50,10,089,*4A
$GLGSV,3,1,12,70,00,090,,71,14,130,38,72,16,180,34,73,05,148,38*6B
$GLGSV,3,2,12,74,46,127,31,75,60,025,36,76,10,343,,85,03,014,*69
$GLGSV,3,3,12,86,38,328,30,87,36,268,36,88,00,221,,,,,38*50
$GNGLL,0419.97540,S,05539.85190,E,044502.00,A,D*64
$GNGRS,044502.00,1,3.0,1.9,-0.4,7.1,0.5,2.3,-7.2,-3.1,,,,*70
$GNGRS,044502.00,1,-0.5,6.4,2.2,3.0,-0.2,-3.3,-12.5,,,,,*49
$GNGST,044502.00,20,,,,1.6,1.7,2.8*47
$GNZDA,044502.00,23,05,2025,00,00*7E
$GNGBS,044502.00,1.6,1.7,2.8,,,,*53
$GNTXT,01,01,01,More than 100 frame errors, UART RX was disabled*70
b0p
'9!f!
~l!0I"o?)N
({4*V^$:R 
YceFZG&H"*I&J .K$<L
WUV&HdW$$X%[b
r|/'G$GNRMC,044503.00,A,0419.97541,S,05539.85190,E,0.005,,230525,,,D*7B
$GNVTG,,T,,M,0.005,N,0.009,K,D*34
$GNGNS,044503.00,0419.97541,S,05539.85190,E,DA,15,0.71,17.1,-47.6,,0000*66
$GNGGA,044503.00,0419.97541,S,05539.85190,E,2,12,0.71,17.1,M,-47.6,M,,0000*4D
$GNGSA,A,3,24,20,05,13,15,22,12,18,,,,,1.37,0.71,1.17*15
$GNGSA,A,3,86,74,75,87,73,71,72,,,,,,1.37,0.71,1.17*1F
$GPGSV,5,1,17,05,57,138,39,11,26,020,26,12,29,358,33,13,21,160,33*7E
$GPGSV,5,2,17,14,04,126,28,15,27,195,31,18,20,228,26,20,48,073,33*75
$GPGSV,5,3,17,22,18,111,34,24,63,251,27,25,07,334,,29,10,296,*75
$GPGSV,5,4,17,36,52,277,,40,86,350,42,41,58,082,36,49,32,274,*7E
$GPGSV,5,5,17,50,10,089,*4A
$GLGSV,3,1,12,70,00,090,,71,14,130,38,72,16,180,34,73,05,148,38*6B
$GLGSV,3,2,12,74,46,127,32,75,60,025,36,76,10,343,,85,03,014,*6A
$GLGSV,3,3,12,86,38,328,31,87,36,268,36,88,00,221,,,,,37*5E
$GNGLL,0419.97541,S,05539.85190,E,044503.00,A,D*64
$GNGRS,044503.00,1,5.5,-0.7,-0.5,6.4,-1.1,2.5,-7.4,-5.2,,,,*78
$GNGRS,044503.00,1,-6.7,6.5,2.5,2.8,-0.1,-2.9,-12.4,,,,,*4A
$GNGST,044503.00,20,,,,1.6,1.7,2.8*46
$GNZDA,044503.00,23,05,2025,00,00*7F
$GNGBS,044503.00,1.6,1.7,2.8,,,,*52
$GNTXT,01,01,01,More than 100 frame errors, UART RX was disabled*70
b0p'9!f"
~ @M"0I#o?N
({4*V^#:R 
Yc2FZG&H#&I&J!.K$<L
WUV &HW$$=X%brd/$GNRMC,044504.00,A,0419.97541,S,05539.85190,E,0.020,,230525,,,D*7B
$GNVTG,,T,,M,0.020,N,0.038,K,D*31
$GNGNS,044504.00,0419.97541,S,05539.85190,E,DA,15,0.71,17.2,-47.6,,0000*62
$GNGGA,044504.00,0419.97541,S,05539.85190,E,2,12,0.71,17.2,M,-47.6,M,,0000*49
$GNGSA,A,3,24,20,05,13,15,22,12,18,,,,,1.37,0.71,1.17*15
$GNGSA,A,3,86,74,75,87,73,71,72,,,,,,1.37,0.71,1.17*1F
$GPGSV,5,1,17,05,57,138,39,11,26,020,26,12,29,358,33,13,21,160,34*79
$GPGSV,5,2,17,14,04,126,26,15,27,195,32,18,20,228,27,20,48,073,34*7E
$GPGSV,5,3,17,22,18,111,35,24,63,251,28,25,07,334,,29,10,296,*7B
$GPGSV,5,4,17,36,52,277,,40,86,350,42,41,58,082,35,49,32,274,*7D
$GPGSV,5,5,17,50,10,089,*4A
$GLGSV,3,1,12,70,00,090,,71,14,130,38,72,16,180,35,73,05,148,38*6A
$GLGSV,3,2,12,74,46,127,33,75,60,025,36,76,10,343,,85,03,014,*6B
$GLGSV,3,3,12,86,38,328,32,87,36,268,36,88,00,221,,,,,37*5D
$GNGLL,0419.97541,S,05539.85190,E,044504.00,A,D*63
$GNGRS,044504.00,1,4.1,-1.3,-0.6,6.7,-1.9,2.4,-7.5,-4.4,,,,*70
$GNGRS,044504.00,1,-6.0,6.6,2.6,3.2,-0.1,-2.9,-12.4,,,,,*41
$GNGST,044504.00,18,,,,1.6,1.7,2.8*4A
$GNZDA,044504.00,23,05,2025,00,00*78
$GNGBS,044504.00,1.6,1.7,2.8,,,,*55
$GNTXT,01,01,01,More than 100 frame errors, UART RX was disabled*70
b0p'9!f#|
~/!#0IV$o?nN
({4*V^$:R 
YcAFZG'H#4I&J!.K$<L
WUV &HW$$DX%dbrL/$GNRMC,044505.00,A,0419.97541,S,05539.85190,E,0.025,,230525,,,D*7F
$GNVTG,,T,,M,0.025,N,0.046,K,D*3D
$GNGNS,044505.00,0419.97541,S,05539.85190,E,DA,15,0.71,17.3,-47.6,,0000*62
$GNGGA,044505.00,0419.97541,S,05539.85190,E,2,12,0.71,17.3,M,-47.6,M,,0000*49
$GNGSA,A,3,24,20,05,13,15,22,12,18,,,,,1.37,0.71,1.17*15
$GNGSA,A,3,86,74,75,87,73,71,72,,,,,,1.37,0.71,1.17*1F
$GPGSV,5,1,17,05,57,138,39,11,26,020,25,12,29,358,33,13,21,160,35*7B
$GPGSV,5,2,17,14,04,126,25,15,27,195,33,18,20,228,26,20,48,073,35*7C
$GPGSV,5,3,17,22,18,111,36,24,63,251,28,25,07,334,,29,10,296,*78
$GPGSV,5,4,17,36,52,277,,40,86,350,42,41,58,082,36,49,32,274,*7E
$GPGSV,5,5,17,50,10,089,*4A
$GLGSV,3,1,12,70,00,090,,71,14,130,39,72,16,180,35,73,05,148,38*6B
$GLGSV,3,2,12,74,46,127,33,75,60,025,36,76,10,343,,85,03,014,*6B
$GLGSV,3,3,12,86,38,328,32,87,36,268,36,88,00,221,,,,,37*5D
$GNGLL,0419.97541,S,05539.85190,E,044505.00,A,D*62
$GNGRS,044505.00,1,3.7,-1.7,-0.3,6.4,-0.6,2.2,-7.5,-5.6,,,,*79
$GNGRS,044505.00,1,-3.5,6.8,2.6,3.2,0.3,-3.4,-12.3,,,,,*6A
$GNGST,044505.00,18,,,,1.6,1.6,2.7*45
$GNZDA,044505.00,23,05,2025,00,00*79
$GNGBS,044505.00,1.6,1.6,2.7,,,,*5A
$GNTXT,01,01,01,More than 100 frame errors, UART RX was disabled*70
b0p$9$f"N
~~!E#0I/#o?fN
({4*V^&:R 
YcFZG$H 5I%J .K$<"L
WUV &HW$$NX%/+br4/$GNRMC,044506.00,A,0419.97547,S,05539.85190,E,0.046,,230525,,,D*7F
$GNVTG,,T,,M,0.046,N,0.085,K,D*37
$GNGNS,044506.00,0419.97547,S,05539.85190,E,DA,15,0.71,17.6,-47.6,,0000*62
$GNGGA,044506.00,0419.97547,S,05539.85190,E,2,12,0.71,17.6,M,-47.6,M,,0000*49
$GNGSA,A,3,24,20,05,13,15,22,12,18,,,,,1.37,0.71,1.17*15
$GNGSA,A,3,86,74,75,87,73,71,72,,,,,,1.37,0.71,1.17*1F
$GPGSV,5,1,17,05,57,138,36,11,26,020,25,12,29,358,36,13,21,160,34*70
$GPGSV,5,2,17,14,04,126,27,15,27,195,33,18,20,228,27,20,48,073,35*7F
$GPGSV,5,3,17,22,18,111,35,24,63,251,28,25,07,334,,29,10,296,*7B
$GPGSV,5,4,17,36,52,277,,40,86,350,42,41,58,082,38,49,32,274,*70
$GPGSV,5,5,17,50,10,089,*4A
$GLGSV,3,1,12,70,00,090,,71,14,130,36,72,16,180,32,73,05,148,37*6C
$GLGSV,3,2,12,74,46,127,32,75,60,025,36,76,10,343,,85,03,014,*6A
$GLGSV,3,3,12,86,38,328,32,87,36,268,36,88,00,221,,,,,37*5D
$GNGLL,0419.97547,S,05539.85190,E,044506.00,A,D*67
$GNGRS,044506.00,1,3.6,-2.1,0.2,5.9,-1.9,2.1,-5.4,-6.1,,,,*56
$GNGRS,044506.00,1,-0.9,6.6,2.9,3.3,0.1,-3.3,-12.3,,,,,*63
$GNGST,044506.00,19,,,,1.5,1.6,2.8*4B
$GNZDA,044506.00,23,05,2025,00,00*7A
$GNGBS,044506.00,1.5,1.6,2.8,,,,*55
$GNTXT,01,01,01,More than 100 frame errors, UART RX was disabled*70
b0p'9#fH
~ T"0I=!o?5N
({4*V^$:R 
YcFZG%H!=I%'J.dK&<6L
WUV$&HW&$;X&br/$GNRMC,044507.00,A,0419.97548,S,05539.85186,E,0.031,,230525,,,D*76
$GNVTG,,T,,M,0.031,N,0.058,K,D*37
$GNGNS,044507.00,0419.97548,S,05539.85186,E,DA,15,0.71,17.8,-47.6,,0000*65
$GNGGA,044507.00,0419.97548,S,05539.85186,E,2,12,0.71,17.8,M,-47.6,M,,0000*4E
$GNGSA,A,3,24,20,05,13,15,22,12,18,,,,,1.37,0.71,1.17*15
$GNGSA,A,3,86,74,75,87,73,71,72,,,,,,1.37,0.71,1.17*1F
$GPGSV,5,1,17,05,57,138,39,11,26,020,25,12,29,358,35,13,21,160,31*79
$GPGSV,5,2,17,14,04,126,26,15,27,195,32,18,20,228,26,20,48,073,34*7F
$GPGSV,5,3,17,22,18,111,33,24,63,251,29,25,07,334,,29,10,296,*7C
$GPGSV,5,4,17,36,52,277,,40,86,350,42,41,58,082,36,49,32,274,*7E
$GPGSV,5,5,17,50,10,089,*4A
$GLGSV,3,1,12,70,00,090,,71,14,130,37,72,16,180,33,73,05,148,37*6C
$GLGSV,3,2,12,74,46,127,30,75,60,025,38,76,10,343,,85,03,014,*66
$GLGSV,3,3,12,86,38,328,36,87,36,268,38,88,00,221,19,,,,38*50
$GNGLL,0419.97548,S,05539.85186,E,044507.00,A,D*6E
$GNGRS,044507.00,1,3.1,-2.0,0.2,5.8,-1.7,2.0,-5.1,-7.6,,,,*5C
$GNGRS,044507.00,1,-1.0,6.1,3.1,3.2,0.4,-3.4,-12.2,,,,,*66
$GNGST,044507.00,20,,,,1.5,1.6,2.7*4F
$GNZDA,044507.00,23,05,2025,00,00*7B
$GNGBS,044507.00,1.5,1.6,2.7,,,,*5B
$GNTXT,01,01,01,More than 100 frame errors, UART RX was disabled*70
b0pp'9"f T
~, ]!0IM"o?
N
({4*V^$:R 
YcsFZG%H"2I$$J.K&<>L
WUV#&HW%$HX%bpr/_O$GNRMC,044508.00,A,0419.97548,S,05539.85185,E,0.024,,230525,,,D*7E
$GNVTG,,T,,M,0.024,N,0.044,K,D*3E
$GNGNS,044508.00,0419.97548,S,05539.85185,E,DA,15,0.71,18.0,-47.6,,0000*6E
$GNGGA,044508.00,0419.97548,S,05539.85185,E,2,12,0.71,18.0,M,-47.6,M,,0000*45
$GNGSA,A,3,24,20,05,13,15,22,12,18,,,,,1.37,0.71,1.17*15
$GNGSA,A,3,86,74,75,87,73,71,72,,,,,,1.37,0.71,1.17*1F
$GPGSV,5,1,17,05,57,138,39,11,26,020,24,12,29,358,34,13,21,160,32*7A
$GPGSV,5,2,17,14,04,126,27,15,27,195,32,18,20,228,25,20,48,073,33*7A
$GPGSV,5,3,17,22,18,111,34,24,63,251,28,25,07,334,,29,10,296,*7A
$GPGSV,5,4,17,36,52,277,,40,86,350,42,41,58,082,36,49,32,274,*7E
$GPGSV,5,5,17,50,10,089,*4A
$GLGSV,3,1,12,70,00,090,,71,14,130,37,72,16,180,34,73,05,148,36*6A
$GLGSV,3,2,12,74,46,127,31,75,60,025,38,76,10,343,,85,03,014,*67
$GLGSV,3,3,12,86,38,328,35,87,36,268,37,88,00,221,18,,,,37*52
$GNGLL,0419.97548,S,05539.85185,E,044508.00,A,D*62
$GNGRS,044508.00,1,5.2,-1.8,0.1,6.0,-4.2,1.9,-6.0,-8.4,,,,*50
$GNGRS,044508.00,1,-0.1,9.7,3.2,3.3,0.4,-3.3,-12.3,,,,,*64
$GNGST,044508.00,21,,,,1.5,1.6,2.7*41
$GNZDA,044508.00,23,05,2025,00,00*74
$GNGBS,044508.00,1.5,1.6,2.7,,,,*54
$GNTXT,01,01,01,More than 100 frame errors, UART RX was disabled*70
b0pX"(9#"fP[
~PY!0I7!o?N
({4*V^$:R 
YcCFZG$H!?I#BJ.K&<)L
WUV#&HW%$?X%bX"r/6$GNRMC,044509.00,A,0419.97548,S,05539.85185,E,0.035,,230525,,,D*7F
$GNVTG,,T,,M,0.035,N,0.064,K,D*3C
$GNGNS,044509.00,0419.97548,S,05539.85185,E,DA,15,0.71,18.2,-47.6,,0000*6D
$GNGGA,044509.00,0419.97548,S,05539.85185,E,2,12,0.71,18.2,M,-47.6,M,,0000*46
$GNGSA,A,3,24,20,05,13,15,22,12,18,,,,,1.37,0.71,1.17*15
$GNGSA,A,3,86,74,75,87,73,71,72,,,,,,1.37,0.71,1.17*1F
$GPGSV,5,1,17,05,57,138,40,11,26,020,23,12,29,358,34,13,21,160,31*70
$GPGSV,5,2,17,14,04,126,27,15,27,195,31,18,20,228,25,20,48,073,33*79
$GPGSV,5,3,17,22,18,111,33,24,63,251,28,25,07,334,,29,10,296,*7D
$GPGSV,5,4,17,36,52,277,,40,86,350,42,41,58,082,36,49,32,274,*7E
$GPGSV,5,5,17,50,10,089,*4A
$GLGSV,3,1,12,70,00,090,,71,14,130,36,72,16,180,33,73,05,148,35*6F
$GLGSV,3,2,12,74,46,127,31,75,60,025,38,76,10,343,,85,03,014,*67
$GLGSV,3,3,12,86,38,328,35,87,36,268,37,88,00,221,17,,,,37*5D
$GNGLL,0419.97548,S,05539.85185,E,044509.00,A,D*63
$GNGRS,044509.00,1,2.1,-2.0,0.4,6.0,-4.2,1.8,-4.3,-8.3,,,,*5C
$GNGRS,044509.00,1,-0.4,11.9,3.0,3.2,0.7,-3.3,-12.2,,,,,*56
$GNGST,044509.00,23,,,,1.5,1.6,2.7*42
$GNZDA,044509.00,23,05,2025,00,00*75
$GNGBS,044509.00,1.5,1.6,2.7,,,,*55
$GNTXT,01,01,01,More than 100 frame errors, UART RX was disabled*70
b0p@&(9"fQ
~f "0I&!o?[N
({4*V^$:R 
YcrFZG%H"]I#WJ.K&<L
WUV"&HW$$:X$b@&r/$GNRMC,044510.00,A,0419.97548,S,05539.85186,E,0.032,,230525,,,D*73
$GNVTG,,T,,M,0.032,N,0.060,K,D*3F
$GNGNS,044510.00,0419.97548,S,05539.85186,E,DA,15,0.71,18.4,-47.6,,0000*60
$GNGGA,044510.00,0419.97548,S,05539.85186,E,2,12,0.71,18.4,M,-47.6,M,,0000*4B
$GNGSA,A,3,24,20,05,13,15,22,12,18,,,,,1.37,0.71,1.17*15
$GNGSA,A,3,86,74,75,87,73,71,72,,,,,,1.37,0.71,1.17*1F
$GPGSV,5,1,17,05,57,138,40,11,26,020,24,12,29,358,34,13,21,160,31*77
$GPGSV,5,2,17,14,04,126,27,15,27,195,32,18,20,228,24,20,48,073,34*7C
$GPGSV,5,3,17,22,18,111,33,24,63,251,27,25,07,334,,29,10,296,*72
$GPGSV,5,4,17,36,52,277,,40,86,350,42,41,58,082,36,49,32,274,*7E
$GPGSV,5,5,17,50,10,089,*4A
$GLGSV,3,1,12,70,00,090,,71,14,130,37,72,16,180,34,73,05,148,35*69
$GLGSV,3,2,12,74,46,127,30,75,60,025,38,76,10,343,,85,02,014,*67
$GLGSV,3,3,12,86,38,328,34,87,36,268,36,88,00,221,13,,,,36*58
$GNGLL,0419.97548,S,05539.85186,E,044510.00,A,D*68
$GNGRS,044510.00,1,0.9,-2.2,0.3,5.9,-5.3,1.9,-2.8,-5.5,,,,*56
$GNGRS,044510.00,1,-0.3,11.6,2.9,3.1,0.9,-3.3,-11.9,,,,,*5B
$GNGST,044510.00,28,,,,1.5,1.6,2.7*41
$GNZDA,044510.00,23,05,2025,00,00*7D
$GNGBS,044510.00,1.5,1.6,2.7,,,,*5D
$GNTXT,01,01,01,More than 100 frame errors, UART RX was disabled*70
b0p(*'9"fe-
~h"0IE"o?CN
({4*V^$:R 
Yc0FZG%H"hI#J.K&<AL
WUV"%IW$$JX%Mb(*r/$GNRMC,044511.00,A,0419.97547,S,05539.85186,E,0.024,,230525,,,D*7A
$GNVTG,,T,,M,0.024,N,0.045,K,D*3F
$GNGNS,044511.00,0419.97547,S,05539.85186,E,DA,15,0.71,18.5,-47.6,,0000*6F
$GNGGA,044511.00,0419.97547,S,05539.85186,E,2,12,0.71,18.5,M,-47.6,M,,0000*44
$GNGSA,A,3,24,20,05,13,15,22,12,18,,,,,1.37,0.71,1.17*15
$GNGSA,A,3,86,74,75,87,73,71,72,,,,,,1.37,0.71,1.17*1F
$GPGSV,5,1,17,05,57,138,39,11,26,020,25,12,29,358,34,13,21,160,31*78
$GPGSV,5,2,17,14,04,126,26,15,27,195,31,18,20,228,21,20,48,073,34*7B
$GPGSV,5,3,17,22,18,111,34,24,63,251,28,25,07,334,,29,10,296,*7A
$GPGSV,5,4,17,36,52,277,,40,86,350,42,41,58,082,36,49,32,274,*7E
$GPGSV,5,5,17,50,10,089,*4A
$GLGSV,3,1,12,70,00,090,,71,14,130,37,72,16,180,34,73,05,148,35*69
$GLGSV,3,2,12,74,46,127,30,75,60,025,38,76,10,343,,85,02,014,*67
$GLGSV,3,3,12,86,37,329,34,87,36,268,36,88,00,221,09,,,,37*5C
$GNGLL,0419.97547,S,05539.85186,E,044511.00,A,D*66
$GNGRS,044511.00,1,3.2,-1.9,0.3,5.6,-1.0,2.3,-4.1,-6.6,,,,*59
$GNGRS,044511.00,1,-0.4,9.8,3.2,3.3,1.6,-3.4,-11.8,,,,,*6A
$GNGST,044511.00,25,,,,1.5,1.6,2.7*4D
$GNZDA,044511.00,23,05,2025,00,00*7C
$GNGBS,044511.00,1.5,1.6,2.7,,,,*5C
$GNTXT,01,01,01,More than 100 frame errors, UART RX was disabled*70
b0p.(9"fG
~#0I"o?N
({4*V^$:R 
YcFZG%H"xI"J.YK&<<L
WUV%IW#$EX%/b.r/$GNRMC,044512.00,A,0419.97547,S,05539.85186,E,0.030,,230525,,,D*7C
$GNVTG,,T,,M,0.030,N,0.056,K,D*38
$GNGNS,044512.00,0419.97547,S,05539.85186,E,DA,15,0.71,18.7,-47.6,,0000*6E
$GNGGA,044512.00,0419.97547,S,05539.85186,E,2,12,0.71,18.7,M,-47.6,M,,0000*45
$GNGSA,A,3,24,20,05,13,15,22,12,18,,,,,1.37,0.71,1.17*15
$GNGSA,A,3,86,74,75,87,73,71,72,,,,,,1.37,0.71,1.17*1F
$GPGSV,5,1,17,05,57,138,40,11,26,020,25,12,29,358,34,13,21,160,31*76
$GPGSV,5,2,17,14,04,126,26,15,27,195,31,18,20,228,23,20,48,073,35*78
$GPGSV,5,3,17,22,18,111,34,24,63,251,30,25,07,334,,29,10,296,*73
$GPGSV,5,4,17,36,52,277,,40,86,350,42,41,58,082,36,49,32,274,*7E
$GPGSV,5,5,17,50,10,089,*4A
$GLGSV,3,1,12,70,00,090,,71,14,130,37,72,16,180,34,73,05,148,34*68
$GLGSV,3,2,12,74,46,127,31,75,60,025,38,76,10,343,,85,02,014,*66
$GLGSV,3,3,12,86,37,329,31,87,36,269,35,88,00,221,08,,,,37*5A
$GNGLL,0419.97547,S,05539.85186,E,044512.00,A,D*65
$GNGRS,044512.00,1,2.4,-2.5,0.2,4.3,-0.2,2.4,-4.4,-8.0,,,,*5E
$GNGRS,044512.00,1,1.3,13.7,3.2,3.3,1.5,-3.1,-11.6,,,,,*7E
$GNGST,044512.00,23,,,,1.5,1.6,2.7*48
$GNZDA,044512.00,23,05,2025,00,00*7F
$GNGBS,044512.00,1.5,1.6,2.7,,,,*5F
$GNTXT,01,01,01,More than 100 frame errors, UART RX was disabled*70
b0p1(9"f
~r'I"0I"o?^N
({4,V^%:R 
YcFZG%H!qI"J.?K&<-L
WUV%IFW#$IX&?b1r/E$GNRMC,044513.00,A,0419.97545,S,05539.85187,E,0.046,,230525,,,D*7F
$GNVTG,,T,,M,0.046,N,0.086,K,D*34
$GNGNS,044513.00,0419.97545,S,05539.85187,E,DA,15,0.71,18.8,-47.6,,0000*63
$GNGGA,044513.00,0419.97545,S,05539.85187,E,2,12,0.71,18.8,M,-47.6,M,,0000*48
$GNGSA,A,3,24,20,05,13,15,22,12,18,,,,,1.37,0.71,1.17*15
$GNGSA,A,3,86,74,75,87,73,71,72,,,,,,1.37,0.71,1.17*1F
$GPGSV,5,1,17,05,57,138,40,11,26,020,27,12,29,358,34,13,21,160,31*74
$GPGSV,5,2,17,14,04,126,27,15,27,195,30,18,20,228,24,20,48,073,34*7E
$GPGSV,5,3,17,22,18,111,34,24,63,251,29,25,07,334,,29,10,296,*7B
$GPGSV,5,4,17,36,52,277,,40,86,350,44,41,58,082,37,49,32,274,*79
$GPGSV,5,5,17,50,10,089,*4A
$GLGSV,3,1,12,70,00,090,,71,14,130,37,72,16,180,33,73,05,148,34*6F
$GLGSV,3,2,12,74,46,127,30,75,60,025,38,76,10,343,,85,02,014,*67
$GLGSV,3,3,12,86,37,329,31,87,36,269,35,88,00,222,08,,,,38*56
$GNGLL,0419.97545,S,05539.85187,E,044513.00,A,D*67
$GNGRS,044513.00,1,0.9,-2.5,0.2,7.1,0.4,2.8,-3.8,-9.5,,,,*79
$GNGRS,044513.00,1,3.3,13.4,3.0,3.3,1.6,-3.4,-11.7,,,,,*7B
$GNGST,044513.00,22,,,,1.5,1.6,2.7*48
$GNZDA,044513.00,23,05,2025,00,00*7E
$GNGBS,044513.00,1.5,1.6,2.7,,,,*5E
$GNTXT,01,01,01,More than 100 frame errors, UART RX was disabled*70
b0p5'9"fA
~w!0I"o'?8N
({4+V^$:R 
YcJFZG%H![I#J.K&<6L
WUV%I'W#$[X&}b5rt/m$GNRMC,044514.00,A,0419.97545,S,05539.85189,E,0.013,,230525,,,D*76
$GNVTG,,T,,M,0.013,N,0.024,K,D*3C
$GNGNS,044514.00,0419.97545,S,05539.85189,E,DA,15,0.71,18.9,-47.6,,0000*6B
$GNGGA,044514.00,0419.97545,S,05539.85189,E,2,12,0.71,18.9,M,-47.6,M,,0000*40
$GNGSA,A,3,24,20,05,13,15,22,12,18,,,,,1.37,0.71,1.17*15
$GNGSA,A,3,86,74,75,87,73,71,72,,,,,,1.37,0.71,1.17*1F
$GPGSV,5,1,17,05,57,138,39,11,26,020,28,12,29,358,34,13,21,160,29*7C
$GPGSV,5,2,17,14,04,126,25,15,27,195,29,18,20,228,25,20,48,073,33*72
$GPGSV,5,3,17,22,18,111,34,24,63,251,30,25,07,334,,29,10,296,*73
$GPGSV,5,4,17,36,52,277,,40,86,350,43,41,58,082,36,49,32,274,*7F
$GPGSV,5,5,17,50,10,089,*4A
$GLGSV,3,1,12,70,00,090,,71,14,130,37,72,16,180,33,73,05,148,35*6E
$GLGSV,3,2,12,74,46,127,30,75,60,025,38,76,10,343,,85,02,014,*67
$GLGSV,3,3,12,86,37,329,31,87,36,269,35,88,00,222,08,,,,38*56
$GNGLL,0419.97545,S,05539.85189,E,044514.00,A,D*6E
$GNGRS,044514.00,1,-2.0,-2.6,0.1,10.9,-3.9,2.9,-3.7,-8.9,,,,*46
$GNGRS,044514.00,1,-2.2,14.7,3.1,3.5,1.7,-3.3,-11.9,,,,,*5A
$GNGST,044514.00,22,,,,1.5,1.6,2.7*4F
$GNZDA,044514.00,23,05,2025,00,00*79
$GNGBS,044514.00,1.5,1.6,2.7,,,,*59
$GNTXT,01,01,01,More than 100 frame errors, UART RX was disabled*70
b0p9'9#fZ7
~! 0I!o?N
({4+V^#:R 
YcFZG%H"mI#J.IK'<1L
WUV %IW#$nX'Gb9r\/E$GNRMC,044515.00,A,0419.97543,S,05539.85190,E,0.004,,230525,,,D*7F
$GNVTG,,T,,M,0.004,N,0.007,K,D*3B
$GNGNS,044515.00,0419.97543,S,05539.85190,E,DA,15,0.71,19.1,-47.6,,0000*6D
$GNGGA,044515.00,0419.97543,S,05539.85190,E,2,12,0.71,19.1,M,-47.6,M,,0000*46
$GNGSA,A,3,24,20,05,13,15,22,12,18,,,,,1.37,0.71,1.17*15
$GNGSA,A,3,86,74,75,87,73,71,72,,,,,,1.37,0.71,1.17*1F
$GPGSV,5,1,17,05,57,138,39,11,26,020,26,12,29,358,35,13,21,160,28*72
$GPGSV,5,2,17,14,04,126,21,15,27,195,28,18,20,228,25,20,48,073,32*76
$GPGSV,5,3,17,22,18,111,33,24,63,251,29,25,07,334,,29,10,296,*7C
$GPGSV,5,4,17,36,52,277,,40,86,350,43,41,58,082,35,49,32,274,*7C
$GPGSV,5,5,17,50,10,089,*4A
$GLGSV,3,1,12,70,00,090,,71,14,130,37,72,16,180,34,73,05,148,35*69
$GLGSV,3,2,12,74,46,127,30,75,60,025,39,76,10,343,,85,02,014,*66
$GLGSV,3,3,12,86,37,329,32,87,36,269,35,88,00,222,09,,,,39*55
$GNGLL,0419.97543,S,05539.85190,E,044515.00,A,D*61
$GNGRS,044515.00,1,-0.7,-2.5,0.0,15.9,-3.8,2.8,-4.2,-7.3,,,,*42
$GNGRS,044515.00,1,-3.4,18.6,3.1,3.7,1.6,-3.3,-11.7,,,,,*5C
$GNGST,044515.00,23,,,,1.5,1.6,2.7*4F
$GNZDA,044515.00,23,05,2025,00,00*78
$GNGBS,044515.00,1.5,1.6,2.7,,,,*58
$GNTXT,01,01,01,More than 100 frame errors, UART RX was disabled*70
b0p=(9#fA
~S!0I!o$?N
({4(V^$:R 
YcFZG%H"pI$J.K%<<L
WUV!%IuW#$X
%HIb=rD/}$GNRMC,044516.00,A,0419.97543,S,05539.85194,E,0.049,,230525,,,D*71
$GNVTG,,T,,M,0.049,N,0.090,K,D*3C
$GNGNS,044516.00,0419.97543,S,05539.85194,E,DA,15,0.71,19.1,-47.6,,0000*6A
$GNGGA,044516.00,0419.97543,S,05539.85194,E,2,12,0.71,19.1,M,-47.6,M,,0000*41
$GNGSA,A,3,24,20,05,13,15,22,12,18,,,,,1.37,0.71,1.17*15
$GNGSA,A,3,86,74,75,87,73,71,72,,,,,,1.37,0.71,1.17*1F
$GPGSV,5,1,17,05,57,138,40,11,26,020,26,12,29,358,35,13,21,160,28*7C
$GPGSV,5,2,17,14,04,126,18,15,27,195,27,18,20,228,24,20,48,073,33*73
$GPGSV,5,3,17,22,18,111,33,24,63,251,36,25,07,334,,29,10,296,*72
$GPGSV,5,4,17,36,52,277,,40,86,350,40,41,58,082,36,49,32,274,*7C
$GPGSV,5,5,17,50,10,089,*4A
$GLGSV,3,1,12,70,00,090,,71,14,130,37,72,16,180,34,73,05,148,36*6A
$GLGSV,3,2,12,74,46,127,30,75,60,025,37,76,10,343,,85,02,014,*68
$GLGSV,3,3,12,86,37,329,33,87,36,269,35,88,00,222,10,,,,37*52
$GNGLL,0419.97543,S,05539.85194,E,044516.00,A,D*66
$GNGRS,044516.00,1,-2.7,-2.4,-0.1,6.9,-1.7,2.7,-4.5,-6.2,,,,*59
$GNGRS,044516.00,1,1.2,20.5,3.2,3.9,1.7,-3.3,-11.7,,,,,*72
$GNGST,044516.00,23,,,,1.5,1.6,2.7*4C
$GNZDA,044516.00,23,05,2025,00,00*7B
$GNGBS,044516.00,1.5,1.6,2.7,,,,*5B
$GNTXT,01,01,01,More than 100 frame errors, UART RX was disabled*70
b0pA'9"fC
~D!0I!o?N
({4*V^$:R 
YcFZG&H"}I$J.K&<9L
WUV!%IW$$X%bAr,/$GNRMC,044517.00,A,0419.97541,S,05539.85193,E,0.031,,230525,,,D*7A
$GNVTG,,T,,M,0.031,N,0.058,K,D*37
$GNGNS,044517.00,0419.97541,S,05539.85193,E,DA,15,0.71,19.2,-47.6,,0000*6D
$GNGGA,044517.00,0419.97541,S,05539.85193,E,2,12,0.71,19.2,M,-47.6,M,,0000*46
$GNGSA,A,3,24,20,05,13,15,22,12,18,,,,,1.37,0.71,1.17*15
$GNGSA,A,3,86,74,75,87,73,71,72,,,,,,1.37,0.71,1.17*1F
$GPGSV,5,1,17,05,57,138,39,11,26,020,25,12,29,358,34,13,21,160,28*70
$GPGSV,5,2,17,14,04,126,18,15,27,195,30,18,20,228,22,20,48,073,33*73
$GPGSV,5,3,17,22,18,111,33,24,63,251,30,25,07,334,,29,10,296,*74
$GPGSV,5,4,17,36,52,277,,40,86,350,42,41,58,082,36,49,32,274,*7E
$GPGSV,5,5,17,50,10,089,*4A
$GLGSV,3,1,12,70,00,090,,71,14,130,38,72,16,180,34,73,05,148,36*65
$GLGSV,3,2,12,74,46,127,30,75,60,025,38,76,10,343,,85,02,014,*67
$GLGSV,3,3,12,86,37,329,33,87,36,269,36,88,00,222,11,,,,37*50
$GNGLL,0419.97541,S,05539.85193,E,044517.00,A,D*62
$GNGRS,044517.00,1,-3.2,-2.5,0.1,17.3,-0.1,2.5,-4.5,-8.5,,,,*46
$GNGRS,044517.00,1,1.8,15.2,3.1,4.1,1.7,-3.3,-11.6,,,,,*75
$GNGST,044517.00,24,,,,1.5,1.6,2.7*4A
$GNZDA,044517.00,23,05,2025,00,00*7A
$GNGBS,044517.00,1.5,1.6,2.7,,,,*5A
$GNTXT,01,01,01,More than 100 frame errors, UART RX was disabled*70
b0pE'9"fA
~QE 0I
 o?xN
({4*V^$:R 
YcFZG$H"oI$J.=K&<DL
WUV"%IW"$X
&abEr/M$GNRMC,044518.00,A,0419.97540,S,05539.85195,E,0.023,,230525,,,D*71
$GNVTG,,T,,M,0.023,N,0.042,K,D*3F
$GNGNS,044518.00,0419.97540,S,05539.85195,E,DA,15,0.71,19.4,-47.6,,0000*63
$GNGGA,044518.00,0419.97540,S,05539.85195,E,2,12,0.71,19.4,M,-47.6,M,,0000*48
$GNGSA,A,3,24,20,05,13,15,22,12,18,,,,,1.37,0.71,1.17*15
$GNGSA,A,3,86,74,75,87,73,71,72,,,,,,1.37,0.71,1.17*1F
$GPGSV,5,1,17,05,57,137,39,11,26,020,25,12,29,358,34,13,21,160,29*7E
$GPGSV,5,2,17,14,04,126,20,15,27,195,30,18,20,228,22,20,48,073,32*79
$GPGSV,5,3,17,22,18,111,32,24,63,251,30,25,07,334,,29,10,296,*75
$GPGSV,5,4,17,36,52,277,,40,86,350,42,41,58,082,36,49,32,274,*7E
$GPGSV,5,5,17,50,10,089,*4A
$GLGSV,3,1,12,70,00,090,,71,14,130,36,72,16,180,34,73,05,148,36*6B
$GLGSV,3,2,12,74,46,127,30,75,60,025,38,76,10,343,,85,02,014,*67
$GLGSV,3,3,12,86,37,329,34,87,36,269,34,88,00,222,10,,,,38*5B
$GNGLL,0419.97540,S,05539.85195,E,044518.00,A,D*6A
$GNGRS,044518.00,1,-1.4,-2.5,0.2,12.3,0.8,2.8,-4.5,-9.6,,,,*60
$GNGRS,044518.00,1,0.1,13.4,3.2,3.9,1.9,-3.3,-11.7,,,,,*71
$GNGST,044518.00,23,,,,1.5,1.6,2.7*42
$GNZDA,044518.00,23,05,2025,00,00*75
$GNGBS,044518.00,1.5,1.6,2.7,,,,*55
$GNTXT,01,01,01,More than 100 frame errors, UART RX was disabled*70
b0phI&9.!f;J
~r 0I o?N
({4'V^#:R 
YcFZG$H"sI!J.K&<JL
WUV%IqW#$X
&6bhIr/$GNRMC,044519.00,A,0419.97538,S,05539.85197,E,0.017,,230525,,,D*7A
$GNVTG,,T,,M,0.017,N,0.031,K,D*3C
$GNGNS,044519.00,0419.97538,S,05539.85197,E,DA,15,0.71,19.5,-47.6,,0000*6E
$GNGGA,044519.00,0419.97538,S,05539.85197,E,2,12,0.71,19.5,M,-47.6,M,,0000*45
$GNGSA,A,3,24,20,05,13,15,22,12,18,,,,,1.37,0.71,1.17*15
$GNGSA,A,3,86,74,75,87,73,71,72,,,,,,1.37,0.71,1.17*1F
$GPGSV,5,1,17,05,57,137,38,11,26,020,26,12,29,358,33,13,21,160,29*7B
$GPGSV,5,2,17,14,04,126,21,15,27,195,29,18,20,228,22,20,48,073,32*70
$GPGSV,5,3,17,22,18,111,32,24,63,251,30,25,07,334,,29,10,296,*75
$GPGSV,5,4,17,36,52,277,,40,86,350,39,41,58,082,35,49,32,274,*71
$GPGSV,5,5,17,50,10,089,*4A
$GLGSV,3,1,12,70,00,090,,71,14,130,36,72,16,180,34,73,05,148,33*6E
$GLGSV,3,2,12,74,46,127,29,75,60,025,38,76,10,343,,85,02,014,*6F
