b0dz!7B(&eb
}'#"Q#1M m
!?RM&{4!V^:R 
YbF\G#HIsJ/{)K :LWUV(FW%0bzr*w$GNRMC,044004.00,A,0419.96706,S,05539.86438,E,0.039,,230525,,,D*72
$GNVTG,,T,,M,0.039,N,0.072,K,D*37
$GNGNS,044004.00,0419.96706,S,05539.86438,E,DA,16,0.70,15.3,-47.6,,0000*62
$GNGGA,044004.00,0419.96706,S,05539.86438,E,2,12,0.70,15.3,M,-47.6,M,,0000*4A
$GNGSA,A,3,24,20,05,13,15,22,12,14,18,,,,1.33,0.70,1.13*11
$GNGSA,A,3,86,74,75,87,73,71,72,,,,,,1.33,0.70,1.13*1E
$GPGSV,5,1,17,05,55,142,33,11,28,019,40,12,27,357,38,13,22,162,23*75
$GPGSV,5,2,17,14,05,125,27,15,27,197,35,18,18,227,34,20,49,077,35*7A
$GPGSV,5,3,17,22,19,109,30,24,63,257,33,25,05,333,,29,11,294,*7C
$GPGSV,5,4,17,36,52,277,31,40,86,350,33,41,58,082,,49,32,274,*7F
$GPGSV,5,5,17,50,10,089,*4A
$GLGSV,3,1,11,70,00,092,,71,14,133,35,72,15,182,29,73,07,147,28*65
$GLGSV,3,2,11,74,47,123,27,75,58,022,32,76,08,343,,85,04,013,*69
$GLGSV,3,3,11,86,40,326,29,87,37,264,23,,,,30*6A
$GNGLL,0419.96706,S,05539.86438,E,044004.00,A,D*62
$GNGRS,044004.00,1,-4.3,0.3,0.7,1.0,0.1,0.1,-0.2,5.5,0.8,,,*72
$GNGRS,044004.00,1,-0.6,10.6,-0.4,5.6,-1.4,-0.7,-8.7,,,,,*6C
$GNGST,044004.00,26,,,,1.1,1.2,2.9*41
$GNZDA,044004.00,23,05,2025,00,00*7D
$GNGBS,044004.00,1.1,1.2,2.9,,,,*53
$GNTXT,01,01,01,More than 100 frame errors, UART RX was disabled*70
b0d~ 7;)&e
 }%%]%1M' m.$?M&{!4$V^:R 
YbZF\G#HEIJ/{K:LWUV(FW%b~rl*$GNRMC,044005.00,A,0419.96705,S,05539.86439,E,0.007,,230525,,,D*7C
$GNVTG,,T,,M,0.007,N,0.013,K,D*3D
$GNGNS,044005.00,0419.96705,S,05539.86439,E,DA,16,0.70,15.2,-47.6,,0000*60
$GNGGA,044005.00,0419.96705,S,05539.86439,E,2,12,0.70,15.2,M,-47.6,M,,0000*48
$GNGSA,A,3,24,20,05,13,15,22,12,14,18,,,,1.33,0.70,1.13*11
$GNGSA,A,3,86,74,75,87,73,71,72,,,,,,1.33,0.70,1.13*1E
$GPGSV,5,1,17,05,55,142,32,11,28,019,41,12,27,357,38,13,22,162,20*76
$GPGSV,5,2,17,14,05,125,32,15,27,197,37,18,18,227,37,20,49,077,37*7D
$GPGSV,5,3,17,22,19,109,32,24,63,257,36,25,05,333,,29,11,294,*7B
$GPGSV,5,4,17,36,52,277,33,40,86,350,36,41,58,082,,49,32,274,*78
$GPGSV,5,5,17,50,10,089,*4A
$GLGSV,3,1,11,70,00,092,,71,14,133,35,72,15,182,28,73,07,147,26*6A
$GLGSV,3,2,11,74,47,123,26,75,58,022,29,76,08,343,,85,04,013,*62
$GLGSV,3,3,11,86,40,326,24,87,37,264,23,,,,30*67
$GNGLL,0419.96705,S,05539.86439,E,044005.00,A,D*61
$GNGRS,044005.00,1,-3.7,0.4,0.6,1.9,0.1,-2.1,0.1,3.8,0.9,,,*74
$GNGRS,044005.00,1,5.3,10.1,-0.5,4.7,-5.8,-0.8,-9.6,,,,,*41
$GNGST,044005.00,28,,,,1.1,1.2,2.9*4E
$GNZDA,044005.00,23,05,2025,00,00*7C
$GNGBS,044005.00,1.1,1.2,2.9,,,,*52
$GNTXT,01,01,01,More than 100 frame errors, UART RX was disabled*70
b0d 7+*(e
 }M'&\)1M#mt$?M&{!4$V^:R 
Y"bF\G'H IJ/{K$:=LWUV(FW%5$brT*G$GNRMC,044006.00,A,0419.96703,S,05539.86439,E,0.006,,230525,,,D*78
$GNVTG,,T,,M,0.006,N,0.010,K,D*3F
$GNGNS,044006.00,0419.96703,S,05539.86439,E,DA,16,0.70,15.2,-47.6,,0000*65
$GNGGA,044006.00,0419.96703,S,05539.86439,E,2,12,0.70,15.2,M,-47.6,M,,0000*4D
$GNGSA,A,3,24,20,05,13,15,22,12,14,18,,,,1.33,0.70,1.13*11
$GNGSA,A,3,86,74,75,87,73,71,72,,,,,,1.33,0.70,1.13*1E
$GPGSV,5,1,17,05,55,142,32,11,28,019,42,12,27,357,40,13,22,162,19*70
$GPGSV,5,2,17,14,05,125,32,15,27,197,39,18,18,227,38,20,49,077,41*7D
$GPGSV,5,3,17,22,19,109,35,24,63,257,36,25,05,333,,29,11,294,*7C
$GPGSV,5,4,17,36,52,277,33,40,86,350,36,41,58,082,,49,32,274,*78
$GPGSV,5,5,17,50,10,089,*4A
$GLGSV,3,1,11,70,00,092,,71,14,133,39,72,15,182,32,73,07,147,31*6B
$GLGSV,3,2,11,74,47,123,26,75,58,022,36,76,08,343,,85,04,013,*6C
$GLGSV,3,3,11,86,40,326,31,87,37,264,25,,,,36*63
$GNGLL,0419.96703,S,05539.86439,E,044006.00,A,D*64
$GNGRS,044006.00,1,-3.5,0.3,0.4,2.0,0.1,-1.4,0.0,0.8,0.9,,,*7E
$GNGRS,044006.00,1,7.3,9.5,0.6,5.7,-2.8,-1.0,-16.3,,,,,*66
$GNGST,044006.00,26,,,,1.1,1.2,2.9*43
$GNZDA,044006.00,23,05,2025,00,00*7F
$GNGBS,044006.00,1.1,1.2,2.9,,,,*51
$GNTXT,01,01,01,More than 100 frame errors, UART RX was disabled*70
b0d$7*(e+
!}1'&g(1M$m$?|M&{!4%V^:R 
Y#bF\G(|H!IJ/{K#:LWUV(FEW%$br<+$GNRMC,044007.00,A,0419.96701,S,05539.86440,E,0.023,,230525,,,D*72
$GNVTG,,T,,M,0.023,N,0.042,K,D*3F
$GNGNS,044007.00,0419.96701,S,05539.86440,E,DA,16,0.70,15.2,-47.6,,0000*68
$GNGGA,044007.00,0419.96701,S,05539.86440,E,2,12,0.70,15.2,M,-47.6,M,,0000*40
$GNGSA,A,3,24,20,05,13,15,22,12,14,18,,,,1.33,0.70,1.13*11
$GNGSA,A,3,86,74,75,87,73,71,72,,,,,,1.33,0.70,1.13*1E
$GPGSV,5,1,17,05,55,142,36,11,28,019,42,12,27,357,40,13,22,162,20*7E
$GPGSV,5,2,17,14,05,125,33,15,27,197,39,18,18,227,38,20,49,077,40*7D
$GPGSV,5,3,17,22,19,109,36,24,63,257,36,25,05,333,,29,11,294,*7F
$GPGSV,5,4,17,36,52,277,33,40,86,350,37,41,58,082,,49,32,274,*79
$GPGSV,5,5,17,50,10,089,*4A
$GLGSV,3,1,11,70,00,092,,71,14,133,40,72,15,182,33,73,07,147,30*65
$GLGSV,3,2,11,74,47,123,27,75,58,022,35,76,08,343,,85,04,013,*6E
$GLGSV,3,3,11,86,40,326,26,87,37,264,24,,,,36*64
$GNGLL,0419.96701,S,05539.86440,E,044007.00,A,D*69
$GNGRS,044007.00,1,-3.9,0.2,0.0,0.4,0.3,-0.3,0.0,0.5,1.0,,,*71
$GNGRS,044007.00,1,5.8,9.7,2.6,4.4,-6.2,-1.3,-10.9,,,,,*6D
$GNGST,044007.00,23,,,,1.1,1.2,2.8*46
$GNZDA,044007.00,23,05,2025,00,00*7E
$GNGBS,044007.00,1.1,1.2,2.8,,,,*51
$GNTXT,01,01,01,More than 100 frame errors, UART RX was disabled*70
b0d&7+(eB
!})1'})1M%m'?M&{$4)V^:R 
Y#bF\G%oH!I"xJ/{K : LWUV(FW%U&br$+n$GNRMC,044008.00,A,0419.96699,S,05539.86444,E,0.029,,230525,,,D*73
$GNVTG,,T,,M,0.029,N,0.054,K,D*32
$GNGNS,044008.00,0419.96699,S,05539.86444,E,DA,16,0.70,14.8,-47.6,,0000*68
$GNGGA,044008.00,0419.96699,S,05539.86444,E,2,12,0.70,14.8,M,-47.6,M,,0000*40
$GNGSA,A,3,24,20,05,13,15,22,12,14,18,,,,1.33,0.70,1.13*11
$GNGSA,A,3,86,74,75,87,73,71,72,,,,,,1.33,0.70,1.13*1E
$GPGSV,5,1,17,05,55,142,38,11,28,019,43,12,27,357,40,13,22,162,29*78
$GPGSV,5,2,17,14,05,125,33,15,27,197,41,18,18,227,39,20,49,077,41*72
$GPGSV,5,3,17,22,19,109,37,24,63,257,39,25,05,333,,29,11,294,*71
$GPGSV,5,4,17,36,52,277,36,40,86,350,41,41,58,082,,49,32,274,*7D
$GPGSV,5,5,17,50,10,089,*4A
$GLGSV,3,1,11,70,00,092,,71,14,133,37,72,15,182,33,73,07,147,34*61
$GLGSV,3,2,11,74,47,123,25,75,58,022,32,76,08,343,,85,04,013,*6B
$GLGSV,3,3,11,86,40,326,27,87,37,264,23,,,,38*6C
$GNGLL,0419.96699,S,05539.86444,E,044008.00,A,D*62
$GNGRS,044008.00,1,-2.8,0.3,0.1,5.8,0.5,1.3,0.2,-1.3,1.3,,,*76
$GNGRS,044008.00,1,-0.5,10.4,2.9,6.0,-1.4,-1.4,-5.5,,,,,*4B
$GNGST,044008.00,21,,,,1.1,1.2,2.7*44
$GNZDA,044008.00,23,05,2025,00,00*71
$GNGBS,044008.00,1.1,1.2,2.7,,,,*51
$GNTXT,01,01,01,More than 100 frame errors, UART RX was disabled*70
b0dx&7+(e
#}(*([)1MG&mA'?M&{#4(V^:R 
Y#bF\G'H!PI"J/{K :LWUV(FNW%%cbxr+F$GNRMC,044009.00,A,0419.96697,S,05539.86448,E,0.007,,230525,,,D*7C
$GNVTG,,T,,M,0.007,N,0.012,K,D*3C
$GNGNS,044009.00,0419.96697,S,05539.86448,E,DA,16,0.70,14.6,-47.6,,0000*65
$GNGGA,044009.00,0419.96697,S,05539.86448,E,2,12,0.70,14.6,M,-47.6,M,,0000*4D
$GNGSA,A,3,24,20,05,13,15,22,12,14,18,,,,1.33,0.70,1.13*11
$GNGSA,A,3,86,74,75,87,73,71,72,,,,,,1.33,0.70,1.13*1E
$GPGSV,5,1,17,05,55,142,38,11,28,019,43,12,27,357,40,13,22,162,28*79
$GPGSV,5,2,17,14,05,125,35,15,27,197,40,18,18,227,40,20,49,077,41*7B
$GPGSV,5,3,17,22,19,109,38,24,63,257,39,25,05,333,,29,11,294,*7E
$GPGSV,5,4,17,36,52,277,35,40,86,350,40,41,58,082,,49,32,274,*7F
$GPGSV,5,5,17,50,10,089,*4A
$GLGSV,3,1,11,70,00,092,,71,14,133,39,72,15,182,33,73,07,147,34*6F
$GLGSV,3,2,11,74,47,123,24,75,58,022,32,76,08,343,,85,04,013,*6A
$GLGSV,3,3,11,86,40,326,28,87,37,264,23,,,,37*6C
$GNGLL,0419.96697,S,05539.86448,E,044009.00,A,D*61
$GNGRS,044009.00,1,-2.3,0.7,-0.1,9.2,0.4,0.7,-0.1,-1.3,0.9,,,*72
$GNGRS,044009.00,1,-1.8,10.2,5.3,5.2,1.4,-1.3,-6.9,,,,,*69
$GNGST,044009.00,21,,,,1.0,1.1,2.6*46
$GNZDA,044009.00,23,05,2025,00,00*70
$GNGBS,044009.00,1.0,1.1,2.6,,,,*53
$GNTXT,01,01,01,More than 100 frame errors, UART RX was disabled*70
b0d`&7+'e
}((K)1M%m&?M&{"4(V^:R 
Y$bF\G'H I#J/{K :SLWUV(FW%%+b`r+$GNRMC,044010.00,A,0419.96696,S,05539.86450,E,0.015,,230525,,,D*7F
$GNVTG,,T,,M,0.015,N,0.027,K,D*39
$GNGNS,044010.00,0419.96696,S,05539.86450,E,DA,16,0.70,14.4,-47.6,,0000*67
$GNGGA,044010.00,0419.96696,S,05539.86450,E,2,12,0.70,14.4,M,-47.6,M,,0000*4F
$GNGSA,A,3,24,20,05,13,15,22,12,14,18,,,,1.33,0.70,1.13*11
$GNGSA,A,3,86,74,75,87,73,71,72,,,,,,1.33,0.70,1.13*1E
$GPGSV,5,1,17,05,55,142,38,11,28,019,43,12,27,357,39,13,22,162,26*79
$GPGSV,5,2,17,14,05,125,31,15,27,197,40,18,18,227,40,20,49,077,41*7F
$GPGSV,5,3,17,22,19,109,37,24,63,257,38,25,05,333,,29,11,294,*70
$GPGSV,5,4,17,36,52,277,34,40,86,350,40,41,58,082,,49,32,274,*7E
$GPGSV,5,5,17,50,10,089,*4A
$GLGSV,3,1,11,70,00,092,,71,14,133,39,72,15,182,32,73,07,147,35*6F
$GLGSV,3,2,11,74,47,123,24,75,58,022,32,76,08,343,,85,04,013,*6A
$GLGSV,3,3,11,86,40,326,28,87,37,264,23,,,,37*6C
$GNGLL,0419.96696,S,05539.86450,E,044010.00,A,D*61
$GNGRS,044010.00,1,-2.3,0.2,-0.2,12.1,0.3,2.2,0.1,2.0,0.7,,,*4B
$GNGRS,044010.00,1,-0.5,9.6,3.4,4.1,4.1,-1.3,-11.1,,,,,*6C
$GNGST,044010.00,22,,,,1.0,1.1,2.5*4E
$GNZDA,044010.00,23,05,2025,00,00*78
$GNGBS,044010.00,1.0,1.1,2.5,,,,*58
$GNTXT,01,01,01,More than 100 frame errors, UART RX was disabled*70
b0dH&7*'e
}\('(^*1M%m6&?M&{"4)V^:R 
Y$bF\G'WH ,I$NJ/{xK!:LWUV'F#W%%bHr+N$GNRMC,044011.00,A,0419.96695,S,05539.86451,E,0.016,,230525,,,D*7F
$GNVTG,,T,,M,0.016,N,0.030,K,D*3C
$GNGNS,044011.00,0419.96695,S,05539.86451,E,DA,16,0.70,14.2,-47.6,,0000*62
$GNGGA,044011.00,0419.96695,S,05539.86451,E,2,12,0.70,14.2,M,-47.6,M,,0000*4A
$GNGSA,A,3,24,20,05,13,15,22,12,14,18,,,,1.33,0.70,1.13*11
$GNGSA,A,3,86,74,75,87,73,71,72,,,,,,1.33,0.70,1.13*1E
$GPGSV,5,1,17,05,55,142,38,11,28,019,42,12,27,357,39,13,22,162,27*79
$GPGSV,5,2,17,14,05,125,30,15,27,197,40,18,18,227,40,20,49,077,42*7D
$GPGSV,5,3,17,22,19,109,37,24,63,257,38,25,05,333,,29,11,294,*70
$GPGSV,5,4,17,36,52,277,34,40,86,350,41,41,58,082,,49,32,274,*7F
$GPGSV,5,5,17,50,10,089,*4A
$GLGSV,3,1,11,70,00,092,,71,14,133,39,72,15,182,32,73,07,147,36*6C
$GLGSV,3,2,11,74,47,123,24,75,58,022,33,76,08,343,,85,04,013,*6B
$GLGSV,3,3,11,86,39,326,27,87,37,264,22,,,,37*6C
$GNGLL,0419.96695,S,05539.86451,E,044011.00,A,D*62
$GNGRS,044011.00,1,-2.5,-0.4,-0.4,9.5,0.4,0.5,-0.2,3.5,0.9,,,*79
$GNGRS,044011.00,1,5.5,8.9,4.5,2.5,-1.8,-1.7,-9.8,,,,,*5A
$GNGST,044011.00,22,,,,1.0,1.1,2.5*4F
$GNZDA,044011.00,23,05,2025,00,00*79
$GNGBS,044011.00,1.0,1.1,2.5,,,,*59
$GNTXT,01,01,01,More than 100 frame errors, UART RX was disabled*70
b0d0&7*'e2
}*(1(P*1M$m&?M&{"4'V^):R 
Y$bF\G%sH I$J/{K!:BLWUV'FEW%S%b0r+$GNRMC,044012.00,A,0419.96695,S,05539.86450,E,0.028,,230525,,,D*70
$GNVTG,,T,,M,0.028,N,0.051,K,D*36
$GNGNS,044012.00,0419.96695,S,05539.86450,E,DA,16,0.70,14.1,-47.6,,0000*63
$GNGGA,044012.00,0419.96695,S,05539.86450,E,2,12,0.70,14.1,M,-47.6,M,,0000*4B
$GNGSA,A,3,24,20,05,13,15,22,12,14,18,,,,1.33,0.70,1.13*11
$GNGSA,A,3,86,74,75,87,73,71,72,,,,,,1.33,0.70,1.13*1E
$GPGSV,5,1,17,05,55,142,38,11,28,019,42,12,27,357,39,13,22,162,27*79
$GPGSV,5,2,17,14,05,125,31,15,27,197,40,18,18,227,40,20,49,077,42*7C
$GPGSV,5,3,17,22,19,109,36,24,63,257,38,25,05,333,,29,11,294,*71
$GPGSV,5,4,17,36,52,277,34,40,86,350,39,41,58,082,41,49,32,274,*75
$GPGSV,5,5,17,50,10,089,*4A
$GLGSV,3,1,11,70,00,092,,71,14,133,37,72,15,182,32,73,07,147,36*62
$GLGSV,3,2,11,74,47,123,24,75,58,022,33,76,08,343,,85,04,013,*6B
$GLGSV,3,3,11,86,39,326,27,87,37,265,22,,,,37*6D
$GNGLL,0419.96695,S,05539.86450,E,044012.00,A,D*60
$GNGRS,044012.00,1,-2.6,-0.5,-0.4,10.7,0.5,-0.2,-0.4,-2.1,0.8,,,*46
$GNGRS,044012.00,1,5.8,9.4,3.2,3.4,-2.3,-1.4,-7.8,,,,,*5D
$GNGST,044012.00,22,,,,1.0,1.1,2.4*4D
$GNZDA,044012.00,23,05,2025,00,00*7A
$GNGBS,044012.00,1.0,1.1,2.4,,,,*5B
$GNTXT,01,01,01,More than 100 frame errors, UART RX was disabled*70
b0d%7+'e
}(A(S*1M%m&?M&{"4)V^):R 
Y%bF\G&H I#J/{2K!:LWUV'FaW%o%br+$GNRMC,044013.00,A,0419.96694,S,05539.86449,E,0.015,,230525,,,D*76
$GNVTG,,T,,M,0.015,N,0.029,K,D*37
$GNGNS,044013.00,0419.96694,S,05539.86449,E,DA,16,0.70,13.9,-47.6,,0000*64
$GNGGA,044013.00,0419.96694,S,05539.86449,E,2,12,0.70,13.9,M,-47.6,M,,0000*4C
$GNGSA,A,3,24,20,05,13,15,22,12,14,18,,,,1.33,0.70,1.13*11
$GNGSA,A,3,86,74,75,87,73,71,72,,,,,,1.33,0.70,1.13*1E
$GPGSV,5,1,17,05,55,142,37,11,28,019,43,12,27,357,39,13,22,162,27*77
$GPGSV,5,2,17,14,05,125,31,15,27,197,40,18,18,227,40,20,49,077,42*7C
$GPGSV,5,3,17,22,19,109,37,24,63,257,38,25,05,333,,29,11,294,*70
$GPGSV,5,4,17,36,52,277,34,40,86,350,41,41,58,082,41,49,32,274,*7A
$GPGSV,5,5,17,50,10,089,*4A
$GLGSV,3,1,11,70,00,092,,71,14,133,38,72,15,182,32,73,07,147,35*6E
$GLGSV,3,2,11,74,47,123,24,75,58,022,33,76,08,343,,85,04,013,*6B
$GLGSV,3,3,11,86,39,326,27,87,37,265,21,,,,37*6E
$GNGLL,0419.96694,S,05539.86449,E,044013.00,A,D*68
$GNGRS,044013.00,1,-2.7,-0.9,-0.5,9.2,0.7,0.2,-0.1,-8.1,0.8,,,*56
$GNGRS,044013.00,1,6.1,10.7,3.9,3.7,-1.0,-1.1,-7.5,,,,,*6D
$GNGST,044013.00,22,,,,1.0,1.0,2.4*4D
$GNZDA,044013.00,23,05,2025,00,00*7B
$GNGBS,044013.00,1.0,1.0,2.4,,,,*5B
$GNTXT,01,01,01,More than 100 frame errors, UART RX was disabled*70
b0d%7+'e
#}(A(V*1M%m&?M&{"4(V^):R 
Y$bF\G(H!I"kJ/{UK :uLWUV'F<W%f%zmbr+}$GNRMC,044014.00,A,0419.96693,S,05539.86448,E,0.052,,230525,,,D*74
$GNVTG,,T,,M,0.052,N,0.096,K,D*30
$GNGNS,044014.00,0419.96693,S,05539.86448,E,DA,16,0.70,13.7,-47.6,,0000*6B
$GNGGA,044014.00,0419.96693,S,05539.86448,E,2,12,0.70,13.7,M,-47.6,M,,0000*43
$GNGSA,A,3,24,20,05,13,15,22,12,14,18,,,,1.33,0.70,1.13*11
$GNGSA,A,3,86,74,75,87,73,71,72,,,,,,1.33,0.70,1.13*1E
$GPGSV,5,1,17,05,55,142,37,11,28,019,43,12,27,357,39,13,22,162,27*77
$GPGSV,5,2,17,14,05,125,35,15,27,197,40,18,18,227,40,20,49,077,42*78
$GPGSV,5,3,17,22,19,109,37,24,63,257,38,25,05,333,,29,11,294,*70
$GPGSV,5,4,17,36,52,277,34,40,86,350,40,41,58,082,41,49,32,274,*7B
$GPGSV,5,5,17,50,10,089,*4A
$GLGSV,3,1,11,70,00,092,,71,14,133,40,72,15,182,33,73,07,147,34*61
$GLGSV,3,2,11,74,47,123,22,75,58,022,32,76,08,343,,85,04,013,*6C
$GLGSV,3,3,11,86,39,326,27,87,37,265,22,,,,37*6D
$GNGLL,0419.96693,S,05539.86448,E,044014.00,A,D*69
$GNGRS,044014.00,1,-2.5,-0.9,-0.1,7.8,0.6,0.3,-0.2,-1.0,0.9,,,*59
$GNGRS,044014.00,1,5.7,11.1,3.7,3.6,-1.5,-1.0,-7.5,,,,,*63
$GNGST,044014.00,23,,,,1.0,1.0,2.4*4B
$GNZDA,044014.00,23,05,2025,00,00*7C
$GNGBS,044014.00,1.0,1.0,2.4,,,,*5C
$GNTXT,01,01,01,More than 100 frame errors, UART RX was disabled*70
b0d%7+'e
#}+(I(e*1M&m>%?$M&{!4(V^(:R 
Y$bPF\G&H!
I%fJ/{cK!:LWUV'FLW%q%-br| +T$GNRMC,044015.00,A,0419.96692,S,05539.86445,E,0.014,,230525,,,D*7B
$GNVTG,,T,,M,0.014,N,0.026,K,D*39
$GNGNS,044015.00,0419.96692,S,05539.86445,E,DA,16,0.70,13.6,-47.6,,0000*67
$GNGGA,044015.00,0419.96692,S,05539.86445,E,2,12,0.70,13.6,M,-47.6,M,,0000*4F
$GNGSA,A,3,24,20,05,13,15,22,12,14,18,,,,1.33,0.70,1.13*11
$GNGSA,A,3,86,74,75,87,73,71,72,,,,,,1.33,0.70,1.13*1E
$GPGSV,5,1,17,05,55,142,37,11,28,019,43,12,27,357,39,13,22,162,27*77
$GPGSV,5,2,17,14,05,125,35,15,27,197,40,18,18,227,40,20,49,077,42*78
$GPGSV,5,3,17,22,19,109,38,24,63,257,37,25,05,333,,29,11,294,*70
$GPGSV,5,4,17,36,52,277,33,40,86,350,40,41,58,082,40,49,32,274,*7D
$GPGSV,5,5,17,50,10,089,*4A
$GLGSV,3,1,11,70,00,092,,71,14,133,38,72,15,182,33,73,07,147,37*6D
$GLGSV,3,2,11,74,47,123,22,75,58,022,33,76,08,343,,85,04,013,*6D
$GLGSV,3,3,11,86,39,326,28,87,37,265,21,,,,37*61
$GNGLL,0419.96692,S,05539.86445,E,044015.00,A,D*64
$GNGRS,044015.00,1,-2.2,-0.9,-0.5,5.2,0.7,0.6,0.0,-2.1,1.0,,,*72
$GNGRS,044015.00,1,5.9,11.2,3.9,3.7,-1.5,-1.0,-7.6,,,,,*63
$GNGST,044015.00,22,,,,1.0,1.0,2.4*4B
$GNZDA,044015.00,23,05,2025,00,00*7D
$GNGBS,044015.00,1.0,1.0,2.4,,,,*5D
$GNTXT,01,01,01,More than 100 frame errors, UART RX was disabled*70
b0d%7+(es
"}(S(^*1M%mc%?IM&{!4(V^(:R 
Y$b4F\G&H!I#_J/{RK!:LWUV'FW%\%bbrd$+,G$GNRMC,044016.00,A,0419.96692,S,05539.86442,E,0.015,,230525,,,D*7E
$GNVTG,,T,,M,0.015,N,0.028,K,D*36
$GNGNS,044016.00,0419.96692,S,05539.86442,E,DA,16,0.70,13.6,-47.6,,0000*63
$GNGGA,044016.00,0419.96692,S,05539.86442,E,2,12,0.70,13.6,M,-47.6,M,,0000*4B
$GNGSA,A,3,24,20,05,13,15,22,12,14,18,,,,1.33,0.70,1.13*11
$GNGSA,A,3,86,74,75,87,73,71,72,,,,,,1.33,0.70,1.13*1E
$GPGSV,5,1,17,05,55,142,37,11,28,019,43,12,27,357,40,13,22,162,26*78
$GPGSV,5,2,17,14,05,125,34,15,27,197,40,18,18,227,40,20,49,077,42*79
$GPGSV,5,3,17,22,19,109,37,24,63,257,37,25,05,333,,29,11,294,*7F
$GPGSV,5,4,17,36,52,277,33,40,86,350,40,41,58,082,40,49,32,274,*7D
$GPGSV,5,5,17,50,10,089,*4A
$GLGSV,3,1,11,70,00,092,,71,14,133,38,72,15,182,33,73,07,147,35*6F
$GLGSV,3,2,11,74,47,123,21,75,58,022,33,76,08,343,,85,04,013,*6E
$GLGSV,3,3,11,86,39,326,27,87,37,265,21,,,,37*6E
$GNGLL,0419.96692,S,05539.86442,E,044016.00,A,D*60
$GNGRS,044016.00,1,-1.8,-0.9,-0.6,8.8,0.8,1.0,-0.1,-2.6,0.9,,,*57
$GNGRS,044016.00,1,5.0,13.6,4.1,3.5,-1.6,-1.1,-7.8,,,,,*6E
$GNGST,044016.00,24,,,,1.0,1.0,2.3*49
$GNZDA,044016.00,23,05,2025,00,00*7E
$GNGBS,044016.00,1.0,1.0,2.3,,,,*59
$GNTXT,01,01,01,More than 100 frame errors, UART RX was disabled*70
b0d%7+'e5
})1(e*1M%mf%?sM&{!4(V^(:R 
Y$b?F\G'H!I!NJ/{K!:LWUV'FW%%f*brL(+$GNRMC,044017.00,A,0419.96691,S,05539.86440,E,0.033,,230525,,,D*7A
$GNVTG,,T,,M,0.033,N,0.061,K,D*3F
$GNGNS,044017.00,0419.96691,S,05539.86440,E,DA,16,0.70,13.5,-47.6,,0000*60
$GNGGA,044017.00,0419.96691,S,05539.86440,E,2,12,0.70,13.5,M,-47.6,M,,0000*48
$GNGSA,A,3,24,20,05,13,15,22,12,14,18,,,,1.33,0.70,1.13*11
$GNGSA,A,3,86,74,75,87,73,71,72,,,,,,1.33,0.70,1.13*1E
$GPGSV,5,1,17,05,55,142,37,11,28,019,43,12,27,357,39,13,22,162,27*77
$GPGSV,5,2,17,14,05,125,30,15,27,197,41,18,18,227,40,20,49,077,42*7C
$GPGSV,5,3,17,22,19,109,37,24,63,257,37,25,05,333,,29,11,294,*7F
$GPGSV,5,4,17,36,52,277,33,40,86,350,40,41,58,082,40,49,32,274,*7D
$GPGSV,5,5,17,50,10,089,*4A
$GLGSV,3,1,11,70,00,092,,71,14,133,39,72,15,182,33,73,07,147,33*68
$GLGSV,3,2,11,74,47,123,20,75,58,022,33,76,08,343,,85,04,013,*6F
$GLGSV,3,3,11,86,39,326,27,87,37,265,21,,,,37*6E
$GNGLL,0419.96691,S,05539.86440,E,044017.00,A,D*60
$GNGRS,044017.00,1,-1.4,-0.4,-0.7,8.2,0.5,1.0,-0.3,-0.9,1.0,,,*56
$GNGRS,044017.00,1,7.8,12.9,3.9,4.6,-1.8,-1.0,-7.9,,,,,*6E
$GNGST,044017.00,27,,,,1.0,1.0,2.3*4B
$GNZDA,044017.00,23,05,2025,00,00*7F
$GNGBS,044017.00,1.0,1.0,2.3,,,,*58
$GNTXT,01,01,01,More than 100 frame errors, UART RX was disabled*70
b0d%8+(e
!}Y)(l*1M%m]%?M&{!4(V^(:R 
Y$bMF\G&H"I!UJ/{K!:~LWUV'FW%%br4,+$GNRMC,044018.00,A,0419.96690,S,05539.86439,E,0.029,,230525,,,D*71
$GNVTG,,T,,M,0.029,N,0.054,K,D*32
$GNGNS,044018.00,0419.96690,S,05539.86439,E,DA,16,0.70,13.4,-47.6,,0000*61
$GNGGA,044018.00,0419.96690,S,05539.86439,E,2,12,0.70,13.4,M,-47.6,M,,0000*49
$GNGSA,A,3,24,20,05,13,15,22,12,14,18,,,,1.33,0.70,1.13*11
$GNGSA,A,3,86,74,75,87,73,71,72,,,,,,1.33,0.70,1.13*1E
$GPGSV,5,1,17,05,56,141,37,11,28,019,43,12,27,357,40,13,22,162,28*76
$GPGSV,5,2,17,14,05,125,33,15,27,197,41,18,18,227,40,20,49,077,42*7F
$GPGSV,5,3,17,22,19,109,37,24,63,257,37,25,05,333,,29,11,294,*7F
$GPGSV,5,4,17,36,52,277,33,40,86,350,40,41,58,082,40,49,32,274,*7D
$GPGSV,5,5,17,50,10,089,*4A
$GLGSV,3,1,11,70,00,092,,71,14,133,38,72,15,182,34,73,07,147,33*6E
$GLGSV,3,2,11,74,47,123,18,75,58,022,33,76,08,343,,85,04,013,*64
$GLGSV,3,3,11,86,39,326,28,87,37,265,22,,,,37*62
$GNGLL,0419.96690,S,05539.86439,E,044018.00,A,D*60
$GNGRS,044018.00,1,-1.1,-0.4,-0.7,9.3,0.2,0.9,-0.4,0.9,1.1,,,*78
$GNGRS,044018.00,1,7.2,12.3,3.8,4.1,3.4,-1.2,-7.9,,,,,*46
$GNGST,044018.00,27,,,,1.0,0.99,2.3*75
$GNZDA,044018.00,23,05,2025,00,00*70
$GNGBS,044018.00,1.0,1.0,2.3,,,,*57
$GNTXT,01,01,01,More than 100 frame errors, UART RX was disabled*70
b0d'8,)e8
"})$)d,1M$mu&?M&{!4*V^):R 
Y%b6F\G$H 2IuJ/{K :LWUV'FW%$br0+$GNRMC,044019.00,A,0419.96690,S,05539.86438,E,0.025,,230525,,,D*7D
$GNVTG,,T,,M,0.025,N,0.046,K,D*3D
$GNGNS,044019.00,0419.96690,S,05539.86438,E,DA,16,0.70,13.4,-47.6,,0000*61
$GNGGA,044019.00,0419.96690,S,05539.86438,E,2,12,0.70,13.4,M,-47.6,M,,0000*49
$GNGSA,A,3,24,20,05,13,15,22,12,14,18,,,,1.33,0.70,1.13*11
$GNGSA,A,3,86,74,75,87,73,71,72,,,,,,1.33,0.70,1.13*1E
$GPGSV,5,1,17,05,56,141,39,11,28,019,44,12,27,357,41,13,22,162,24*72
$GPGSV,5,2,17,14,05,125,34,15,27,197,41,18,18,227,41,20,49,077,44*7F
$GPGSV,5,3,17,22,19,109,36,24,63,257,38,25,05,333,,29,11,294,*71
$GPGSV,5,4,17,36,52,277,33,40,86,350,42,41,58,082,41,49,32,274,*7E
$GPGSV,5,5,17,50,10,089,*4A
$GLGSV,3,1,11,70,00,092,,71,14,133,36,72,15,182,32,73,07,147,31*64
$GLGSV,3,2,11,74,47,123,18,75,58,022,32,76,08,343,,85,04,013,*65
$GLGSV,3,3,11,86,39,326,28,87,37,265,23,,,,36*62
$GNGLL,0419.96690,S,05539.86438,E,044019.00,A,D*60
$GNGRS,044019.00,1,-0.9,-0.6,-0.6,8.2,0.4,1.2,-0.4,-0.9,1.0,,,*53
$GNGRS,044019.00,1,9.0,12.3,4.2,6.6,1.2,-1.2,-7.2,,,,,*4C
$GNGST,044019.00,32,,,,1.0,1.0,2.4*46
$GNZDA,044019.00,23,05,2025,00,00*71
$GNGBS,044019.00,1.0,1.0,2.4,,,,*51
$GNTXT,01,01,01,More than 100 frame errors, UART RX was disabled*70
b0dp&8,)e^
$}*)*K,1M%mh&?M&{"4)V^):R 
Y%b-F\G#HTIbJ/{K:LWUV'FW%$bpr4+$GNRMC,044020.00,A,0419.96690,S,05539.86436,E,0.096,,230525,,,D*71
$GNVTG,,T,,M,0.096,N,0.178,K,D*39
$GNGNS,044020.00,0419.96690,S,05539.86436,E,DA,16,0.70,13.4,-47.6,,0000*65
$GNGGA,044020.00,0419.96690,S,05539.86436,E,2,12,0.70,13.4,M,-47.6,M,,0000*4D
$GNGSA,A,3,24,20,05,13,15,22,12,14,18,,,,1.33,0.70,1.13*11
$GNGSA,A,3,86,74,75,87,73,71,72,,,,,,1.33,0.70,1.13*1E
$GPGSV,5,1,17,05,56,141,38,11,28,019,44,12,27,357,41,13,22,162,28*7F
$GPGSV,5,2,17,14,05,125,36,15,27,197,42,18,18,227,42,20,49,077,44*7D
$GPGSV,5,3,17,22,19,109,37,24,63,257,38,25,05,333,,29,11,294,*70
$GPGSV,5,4,17,36,52,277,34,40,86,350,41,41,58,082,41,49,32,274,*7A
$GPGSV,5,5,17,50,10,089,*4A
$GLGSV,3,1,11,70,00,092,,71,14,133,35,72,15,182,31,73,07,147,31*64
$GLGSV,3,2,11,74,47,123,19,75,58,022,31,76,08,343,,85,04,013,*67
$GLGSV,3,3,11,86,39,326,28,87,37,265,22,,,,36*63
$GNGLL,0419.96690,S,05539.86436,E,044020.00,A,D*64
$GNGRS,044020.00,1,-0.8,-0.6,-0.4,6.1,0.4,1.0,-0.4,-5.9,0.8,,,*59
$GNGRS,044020.00,1,7.2,12.6,4.1,6.8,-1.6,-1.0,-6.8,,,,,*62
$GNGST,044020.00,72710,,,,1.0,1.0,2.4*7E
$GNZDA,044020.00,23,05,2025,00,00*7B
$GNGBS,044020.00,1.0,1.0,2.4,,,,*5B
$GNTXT,01,01,01,More than 100 frame errors, UART RX was disabled*70
b0dX&8,)e2
#}%*"*O,1M&mx&?M&{"4)V^):R 
Y&b(F\G#H I%J/{K:(LWUV'FW%(%YbXr7+gp$GNRMC,044021.00,A,0419.96690,S,05539.86434,E,0.067,,230525,,,D*7C
$GNVTG,,T,,M,0.067,N,0.124,K,D*3E
$GNGNS,044021.00,0419.96690,S,05539.86434,E,DA,16,0.70,13.4,-47.6,,0000*66
$GNGGA,044021.00,0419.96690,S,05539.86434,E,2,12,0.70,13.4,M,-47.6,M,,0000*4E
$GNGSA,A,3,24,20,05,13,15,22,12,14,18,,,,1.33,0.70,1.13*11
$GNGSA,A,3,86,74,75,87,73,71,72,,,,,,1.33,0.70,1.13*1E
$GPGSV,5,1,17,05,56,141,38,11,28,019,44,12,27,357,41,13,22,162,30*76
$GPGSV,5,2,17,14,05,125,35,15,27,197,42,18,18,227,42,20,49,077,44*7E
$GPGSV,5,3,17,22,19,109,38,24,63,257,38,25,05,333,,29,11,294,*7F
$GPGSV,5,4,17,36,52,277,34,40,86,350,41,41,58,082,41,49,32,274,*7A
$GPGSV,5,5,17,50,10,089,*4A
$GLGSV,3,1,11,70,00,092,,71,14,133,35,72,15,182,32,73,07,147,31*67
$GLGSV,3,2,11,74,47,123,19,75,58,022,31,76,08,343,,85,04,013,*67
$GLGSV,3,3,11,86,39,326,28,87,37,265,21,,,,37*61
$GNGLL,0419.96690,S,05539.86434,E,044021.00,A,D*67
$GNGRS,044021.00,1,-0.8,-0.4,-0.5,5.6,0.3,1.2,-0.4,-2.2,0.8,,,*56
$GNGRS,044021.00,1,7.3,12.7,3.0,5.5,-7.3,-0.9,-5.4,,,,,*6F
$GNGST,044021.00,72710,,,,1.0,1.0,2.4*7F
$GNZDA,044021.00,23,05,2025,00,00*7A
$GNGBS,044021.00,1.0,1.0,2.4,,,,*5A
$GNTXT,01,01,01,More than 100 frame errors, UART RX was disabled*70
b0d@&8-+e
$},2+A-1M&m&?M&{"4)V^):R 
Y&b4F\G$H dI J/{K:{LWUV'FPW%%b@r;+?$GNRMC,044022.00,A,0419.96690,S,05539.86432,E,0.024,,230525,,,D*7E
$GNVTG,,T,,M,0.024,N,0.044,K,D*3E
$GNGNS,044022.00,0419.96690,S,05539.86432,E,DA,16,0.70,13.4,-47.6,,0000*63
$GNGGA,044022.00,0419.96690,S,05539.86432,E,2,12,0.70,13.4,M,-47.6,M,,0000*4B
$GNGSA,A,3,24,20,05,13,15,22,12,14,18,,,,1.33,0.70,1.13*11
$GNGSA,A,3,86,74,75,87,73,71,72,,,,,,1.33,0.70,1.13*1E
$GPGSV,5,1,17,05,56,141,38,11,28,019,45,12,27,357,43,13,22,162,30*75
$GPGSV,5,2,17,14,05,125,36,15,27,197,44,18,18,227,43,20,49,077,45*7B
$GPGSV,5,3,17,22,19,109,38,24,63,257,38,25,05,333,,29,11,294,*7F
$GPGSV,5,4,17,36,52,277,34,40,86,350,41,41,58,082,41,49,32,274,*7A
$GPGSV,5,5,17,50,10,089,*4A
$GLGSV,3,1,11,70,00,092,,71,14,133,36,72,15,182,32,73,07,147,32*67
$GLGSV,3,2,11,74,47,123,20,75,58,022,31,76,08,343,,85,04,013,*6D
$GLGSV,3,3,11,86,39,326,27,87,37,265,20,,,,37*6F
$GNGLL,0419.96690,S,05539.86432,E,044022.00,A,D*62
$GNGRS,044022.00,1,-0.7,-0.3,-0.4,4.1,0.5,1.4,-0.2,-5.0,0.6,,,*57
$GNGRS,044022.00,1,5.9,11.6,3.8,6.6,-6.2,-0.5,-6.7,,,,,*62
$GNGST,044022.00,33,,,,1.0,1.0,2.4*4F
$GNZDA,044022.00,23,05,2025,00,00*79
$GNGBS,044022.00,1.0,1.0,2.4,,,,*59
$GNTXT,01,01,01,More than 100 frame errors, UART RX was disabled*70
b0d($8-+e"
%}b+I+F-1M&m'?M&{"4)V^*:R 
Y'bF\G$H!I J/{6K :LWUV'FBW%$lqb(r?+@$GNRMC,044023.00,A,0419.96691,S,05539.86430,E,0.017,,230525,,,D*7C
$GNVTG,,T,,M,0.017,N,0.032,K,D*3F
$GNGNS,044023.00,0419.96691,S,05539.86430,E,DA,16,0.70,13.4,-47.6,,0000*61
$GNGGA,044023.00,0419.96691,S,05539.86430,E,2,12,0.70,13.4,M,-47.6,M,,0000*49
$GNGSA,A,3,24,20,05,13,15,22,12,14,18,,,,1.33,0.70,1.13*11
$GNGSA,A,3,86,74,75,87,73,71,72,,,,,,1.33,0.70,1.13*1E
$GPGSV,5,1,17,05,56,141,36,11,28,019,45,12,27,357,43,13,22,162,34*7F
$GPGSV,5,2,17,14,05,125,37,15,27,197,43,18,18,227,43,20,49,077,45*7D
$GPGSV,5,3,17,22,19,109,38,24,63,257,39,25,05,333,,29,11,294,*7E
$GPGSV,5,4,17,36,52,277,34,40,86,350,41,41,58,082,42,49,32,274,*79
$GPGSV,5,5,17,50,10,089,*4A
$GLGSV,3,1,11,70,00,092,,71,14,133,36,72,15,182,33,73,07,147,32*66
$GLGSV,3,2,11,74,47,123,18,75,58,022,32,76,08,343,,85,04,013,*65
$GLGSV,3,3,11,86,39,326,27,87,37,265,21,,,,36*6F
$GNGLL,0419.96691,S,05539.86430,E,044023.00,A,D*60
$GNGRS,044023.00,1,-1.1,-0.8,-0.5,4.0,0.7,1.9,-0.4,-4.1,0.7,,,*52
$GNGRS,044023.00,1,5.8,-4.6,4.2,7.2,-3.1,-0.3,-10.8,,,,,*4B
$GNGST,044023.00,8725,,,,1.0,1.0,2.4*46
$GNZDA,044023.00,23,05,2025,00,00*78
$GNGBS,044023.00,1.0,1.0,2.4,,,,*58
$GNTXT,01,01,01,More than 100 frame errors, UART RX was disabled*70
b0d$8+*e!J
$}N+S+e,1M(m%?M&{!4(V^(:R 
Y&bF\G$HIJ/{K!:LWUV'FW%1#7brC+$GNRMC,044024.00,A,0419.96693,S,05539.86428,E,0.036,,230525,,,D*73
$GNVTG,,T,,M,0.036,N,0.068,K,D*33
$GNGNS,044024.00,0419.96693,S,05539.86428,E,DA,16,0.70,13.3,-47.6,,0000*6A
$GNGGA,044024.00,0419.96693,S,05539.86428,E,2,12,0.70,13.3,M,-47.6,M,,0000*42
$GNGSA,A,3,24,20,05,13,15,22,12,14,18,,,,1.33,0.70,1.13*11
$GNGSA,A,3,86,74,75,87,73,71,72,,,,,,1.33,0.70,1.13*1E
$GPGSV,5,1,17,05,56,141,36,11,28,019,43,12,27,357,42,13,22,162,33*7F
$GPGSV,5,2,17,14,05,125,36,15,27,197,43,18,18,227,43,20,49,077,44*7D
$GPGSV,5,3,17,22,19,109,40,24,63,257,37,25,05,333,,29,11,294,*7F
$GPGSV,5,4,17,36,52,277,33,40,86,350,40,41,58,082,40,49,32,274,*7D
$GPGSV,5,5,17,50,10,089,*4A
$GLGSV,3,1,11,70,00,092,,71,14,133,36,72,15,182,31,73,07,147,30*66
$GLGSV,3,2,11,74,47,123,20,75,58,022,33,76,08,343,,85,04,013,*6F
$GLGSV,3,3,11,86,39,326,25,87,37,265,21,,,,35*6E
$GNGLL,0419.96693,S,05539.86428,E,044024.00,A,D*6C
$GNGRS,044024.00,1,-1.0,-0.9,-0.7,3.3,0.8,1.8,-0.5,-1.8,1.0,,,*56
$GNGRS,044024.00,1,6.8,-4.8,1.5,5.6,-3.5,-0.5,-13.5,,,,,*49
$GNGST,044024.00,13088,,,,1.0,1.0,2.4*7B
$GNZDA,044024.00,23,05,2025,00,00*7F
$GNGBS,044024.00,1.0,1.0,2.4,,,,*5F
$GNTXT,01,01,01,More than 100 frame errors, UART RX was disabled*70
b0d 8*)e
#}'^)](1M%m"?M&{!4'V^$:R 
Y!bF\G#HInJ/{K:/LWUV'FW%#_brG+$GNRMC,044025.00,A,0419.96694,S,05539.86427,E,0.029,,230525,,,D*74
$GNVTG,,T,,M,0.029,N,0.053,K,D*35
$GNGNS,044025.00,0419.96694,S,05539.86427,E,DA,16,0.70,13.4,-47.6,,0000*64
$GNGGA,044025.00,0419.96694,S,05539.86427,E,2,12,0.70,13.4,M,-47.6,M,,0000*4C
$GNGSA,A,3,24,20,05,13,15,22,12,14,18,,,,1.33,0.70,1.13*11
$GNGSA,A,3,86,74,75,87,73,71,72,,,,,,1.33,0.70,1.13*1E
$GPGSV,5,1,17,05,56,141,32,11,28,019,42,12,28,357,41,13,22,162,30*75
$GPGSV,5,2,17,14,05,125,35,15,27,197,39,18,18,227,41,20,49,077,40*75
$GPGSV,5,3,17,22,19,109,37,24,63,257,34,25,05,333,,29,11,294,*7C
$GPGSV,5,4,17,36,52,277,33,40,86,350,39,41,58,082,36,49,32,274,*72
$GPGSV,5,5,17,50,10,089,*4A
$GLGSV,3,1,11,70,00,092,,71,14,133,35,72,15,182,31,73,07,147,29*6D
$GLGSV,3,2,11,74,47,123,23,75,58,022,31,76,08,343,,85,04,013,*6E
$GLGSV,3,3,11,86,39,326,27,87,37,265,20,,,,35*6D
$GNGLL,0419.96694,S,05539.86427,E,044025.00,A,D*65
$GNGRS,044025.00,1,-1.2,-1.0,-0.3,12.6,0.9,1.6,-0.4,-3.1,0.9,,,*61
$GNGRS,044025.00,1,6.8,10.0,3.0,4.0,-1.5,-0.6,-13.1,,,,,*5D
$GNGST,044025.00,31,,,,1.0,1.0,2.5*4B
$GNZDA,044025.00,23,05,2025,00,00*7E
$GNGBS,044025.00,1.0,1.0,2.5,,,,*5F
$GNTXT,01,01,01,More than 100 frame errors, UART RX was disabled*70
b0d"8*+e
#}(x)g(1M&m#?tM&{ 4$V^$:R 
Y!bF\G%H3IkJ/{K :LWUV'FW%
#brtK+i$GNRMC,044026.00,A,0419.96695,S,05539.86427,E,0.079,,230525,,,D*73
$GNVTG,,T,,M,0.079,N,0.147,K,D*34
$GNGNS,044026.00,0419.96695,S,05539.86427,E,DA,16,0.70,13.4,-47.6,,0000*66
$GNGGA,044026.00,0419.96695,S,05539.86427,E,2,12,0.70,13.4,M,-47.6,M,,0000*4E
$GNGSA,A,3,24,20,05,13,15,22,12,14,18,,,,1.33,0.70,1.13*11
$GNGSA,A,3,86,74,75,87,73,71,72,,,,,,1.33,0.70,1.13*1E
$GPGSV,5,1,17,05,56,141,34,11,28,019,42,12,28,357,43,13,22,161,29*7A
$GPGSV,5,2,17,14,05,125,35,15,27,197,40,18,18,227,41,20,49,077,40*7B
$GPGSV,5,3,17,22,19,109,38,24,63,257,35,25,05,333,,29,11,294,*72
$GPGSV,5,4,17,36,52,277,32,40,86,350,36,41,58,082,36,49,32,274,*7C
$GPGSV,5,5,17,50,10,089,*4A
$GLGSV,3,1,11,70,00,092,,71,14,133,37,72,15,182,31,73,07,147,28*6E
$GLGSV,3,2,11,74,47,123,21,75,58,022,32,76,08,343,,85,04,013,*6F
$GLGSV,3,3,11,86,39,326,28,87,37,265,21,,,,35*63
$GNGLL,0419.96695,S,05539.86427,E,044026.00,A,D*67
$GNGRS,044026.00,1,-1.4,-1.1,0.0,4.8,1.2,1.6,-0.5,-2.3,1.0,,,*72
$GNGRS,044026.00,1,6.4,-3.6,-3.7,2.7,-1.5,-0.5,-12.3,,,,,*60
$GNGST,044026.00,30,,,,1.0,1.0,2.5*49
$GNZDA,044026.00,23,05,2025,00,00*7D
$GNGBS,044026.00,1.0,1.0,2.5,,,,*5C
$GNTXT,01,01,01,More than 100 frame errors, UART RX was disabled*70
b0d8
((eU
#}'}'c&1M'm?>M&{4#V^$:R 
YbaF\G!HhIJ/{7K :~LWUV'FW%"br\O+v$GNRMC,044027.00,A,0419.96695,S,05539.86426,E,0.056,,230525,,,D*7E
$GNVTG,,T,,M,0.056,N,0.104,K,D*3E
$GNGNS,044027.00,0419.96695,S,05539.86426,E,DA,16,0.70,13.4,-47.6,,0000*66
$GNGGA,044027.00,0419.96695,S,05539.86426,E,2,12,0.70,13.4,M,-47.6,M,,0000*4E
$GNGSA,A,3,24,20,05,13,15,22,12,14,18,,,,1.33,0.70,1.13*11
$GNGSA,A,3,86,74,75,87,73,71,72,,,,,,1.33,0.70,1.13*1E
$GPGSV,5,1,17,05,56,141,25,11,28,019,40,12,28,357,40,13,22,161,29*7B
$GPGSV,5,2,17,14,05,125,35,15,27,197,39,18,18,227,39,20,49,077,38*75
$GPGSV,5,3,17,22,19,109,39,24,63,257,30,25,05,333,,29,11,294,*76
$GPGSV,5,4,17,36,52,277,31,40,86,350,35,41,58,082,36,49,32,274,*7C
$GPGSV,5,5,17,50,10,089,*4A
$GLGSV,3,1,11,70,00,092,,71,14,133,33,72,15,182,30,73,07,147,28*6B
$GLGSV,3,2,11,74,47,123,21,75,58,022,32,76,08,343,,85,04,013,*6F
$GLGSV,3,3,11,86,39,326,28,87,37,265,22,,,,34*61
$GNGLL,0419.96695,S,05539.86426,E,044027.00,A,D*67
$GNGRS,044027.00,1,-1.9,-1.1,0.1,3.4,1.2,1.6,-0.6,0.3,1.0,,,*58
$GNGRS,044027.00,1,6.9,-2.0,-3.9,2.7,-0.6,-0.3,-11.8,,,,,*69
$GNGST,044027.00,34,,,,1.1,1.1,2.6*4F
$GNZDA,044027.00,23,05,2025,00,00*7C
$GNGBS,044027.00,1.1,1.1,2.6,,,,*5E
$GNTXT,01,01,01,More than 100 frame errors, UART RX was disabled*70
b0d!8()ed
#}(f(W&1M&m!?MM&{4%V^$:R 
YbF\G!HIOJ/{K :LWUV'FW%!"brDS+N9$GNRMC,044028.00,A,0419.96697,S,05539.86426,E,0.027,,230525,,,D*75
$GNVTG,,T,,M,0.027,N,0.050,K,D*38
$GNGNS,044028.00,0419.96697,S,05539.86426,E,DA,16,0.70,13.4,-47.6,,0000*6B
$GNGGA,044028.00,0419.96697,S,05539.86426,E,2,12,0.70,13.4,M,-47.6,M,,0000*43
$GNGSA,A,3,24,20,05,13,15,22,12,14,18,,,,1.33,0.70,1.13*11
$GNGSA,A,3,86,74,75,87,73,71,72,,,,,,1.33,0.70,1.13*1E
$GPGSV,5,1,17,05,56,141,33,11,28,019,40,12,28,357,41,13,22,161,29*7D
$GPGSV,5,2,17,14,05,125,35,15,27,197,40,18,18,227,40,20,49,077,38*75
$GPGSV,5,3,17,22,19,109,38,24,63,257,33,25,05,333,,29,11,294,*74
$GPGSV,5,4,17,36,52,277,30,40,86,350,37,41,58,082,36,49,32,274,*7F
$GPGSV,5,5,17,50,10,089,*4A
$GLGSV,3,1,11,70,00,092,,71,14,133,33,72,15,182,29,73,07,147,25*6E
$GLGSV,3,2,11,74,47,123,21,75,58,022,32,76,08,343,,85,04,013,*6F
$GLGSV,3,3,11,86,39,326,28,87,37,265,21,,,,33*65
$GNGLL,0419.96697,S,05539.86426,E,044028.00,A,D*6A
$GNGRS,044028.00,1,-1.8,-0.9,1.9,3.6,1.0,1.7,-0.6,-1.3,0.9,,,*73
$GNGRS,044028.00,1,7.2,-1.1,-2.4,2.4,-1.8,0.0,-10.5,,,,,*4C
$GNGST,044028.00,31,,,,1.1,1.1,2.7*44
$GNZDA,044028.00,23,05,2025,00,00*73
$GNGBS,044028.00,1.1,1.1,2.7,,,,*50
$GNTXT,01,01,01,More than 100 frame errors, UART RX was disabled*70
b0d"8*(e
#}'(h)1M&m!?M&{4$V^&:R 
Y#bRF\G$HIJ/{K :LWUV'F_W%"bbr,W+&$GNRMC,044029.00,A,0419.96698,S,05539.86424,E,0.034,,230525,,,D*7B
$GNVTG,,T,,M,0.034,N,0.062,K,D*3B
$GNGNS,044029.00,0419.96698,S,05539.86424,E,DA,16,0.70,13.5,-47.6,,0000*66
$GNGGA,044029.00,0419.96698,S,05539.86424,E,2,12,0.70,13.5,M,-47.6,M,,0000*4E
$GNGSA,A,3,24,20,05,13,15,22,12,14,18,,,,1.33,0.70,1.13*11
$GNGSA,A,3,86,74,75,87,73,71,72,,,,,,1.33,0.70,1.13*1E
$GPGSV,5,1,17,05,56,141,34,11,28,019,42,12,28,357,40,13,22,161,30*71
$GPGSV,5,2,17,14,05,125,35,15,27,197,39,18,18,227,40,20,49,077,41*75
$GPGSV,5,3,17,22,19,109,38,24,63,257,33,25,05,333,,29,11,294,*74
$GPGSV,5,4,17,36,52,277,30,40,86,350,36,41,58,082,38,49,32,274,*70
$GPGSV,5,5,17,50,10,089,*4A
$GLGSV,3,1,11,70,00,092,,71,14,133,36,72,15,182,30,73,07,147,26*60
$GLGSV,3,2,11,74,47,123,20,75,58,022,32,76,08,343,,85,04,013,*6E
$GLGSV,3,3,11,86,39,326,27,87,37,265,19,,,,34*66
$GNGLL,0419.96698,S,05539.86424,E,044029.00,A,D*66
$GNGRS,044029.00,1,-8.3,-1.1,1.4,10.1,1.3,1.4,-0.7,-5.1,1.0,,,*4E
$GNGRS,044029.00,1,6.1,-0.4,-0.1,2.0,-0.7,0.1,-11.0,,,,,*43
$GNGST,044029.00,33,,,,1.1,1.1,2.7*47
$GNZDA,044029.00,23,05,2025,00,00*72
$GNGBS,044029.00,1.1,1.1,2.7,,,,*51
$GNTXT,01,01,01,More than 100 frame errors, UART RX was disabled*70
b0d!8*&ek
"}&z(^)1Mu&m ?bM&{4#V^$:R 
Y"bF\G#HEI9J/{K :LWUV'FW%"br[+$GNRMC,044030.00,A,0419.96698,S,05539.86422,E,0.015,,230525,,,D*76
$GNVTG,,T,,M,0.015,N,0.028,K,D*36
$GNGNS,044030.00,0419.96698,S,05539.86422,E,DA,16,0.70,13.4,-47.6,,0000*69
$GNGGA,044030.00,0419.96698,S,05539.86422,E,2,12,0.70,13.4,M,-47.6,M,,0000*41
$GNGSA,A,3,24,20,05,13,15,22,12,14,18,,,,1.33,0.70,1.13*11
$GNGSA,A,3,86,74,75,87,73,71,72,,,,,,1.33,0.70,1.13*1E
$GPGSV,5,1,17,05,56,141,33,11,28,019,42,12,28,357,38,13,22,161,29*71
$GPGSV,5,2,17,14,05,125,34,15,27,197,38,18,18,227,40,20,49,077,41*75
$GPGSV,5,3,17,22,19,109,38,24,63,257,32,25,05,333,,29,11,294,*75
$GPGSV,5,4,17,36,52,277,,40,86,350,35,41,58,082,36,49,32,274,*7E
$GPGSV,5,5,17,50,10,089,*4A
$GLGSV,3,1,11,70,00,092,,71,14,133,35,72,15,182,30,73,07,147,27*62
$GLGSV,3,2,11,74,47,123,19,75,58,022,32,76,08,343,,85,04,013,*64
$GLGSV,3,3,11,86,39,326,25,87,37,265,13,,,,34*6E
$GNGLL,0419.96698,S,05539.86422,E,044030.00,A,D*68
$GNGRS,044030.00,1,-4.1,-1.4,4.1,6.2,1.2,1.3,-0.8,-7.6,0.9,,,*7D
$GNGRS,044030.00,1,5.3,-0.8,5.4,2.1,-2.0,0.3,-12.1,,,,,*6F
$GNGST,044030.00,72710,,,,1.1,1.1,2.8*73
$GNZDA,044030.00,23,05,2025,00,00*7A
$GNGBS,044030.00,1.1,1.1,2.8,,,,*56
$GNTXT,01,01,01,More than 100 frame errors, UART RX was disabled*70
b0dh!8A('e
!}T&c'y(1M]'mr?>M&{4"V^$:R 
Y!bYF\G"HuIJ/{K :BLWUV'F:W%![bhr^+n$GNRMC,044031.00,A,0419.96700,S,05539.86422,E,0.052,,230525,,,D*74
$GNVTG,,T,,M,0.052,N,0.095,K,D*33
$GNGNS,044031.00,0419.96700,S,05539.86422,E,DA,16,0.70,13.4,-47.6,,0000*68
$GNGGA,044031.00,0419.96700,S,05539.86422,E,2,12,0.70,13.4,M,-47.6,M,,0000*40
$GNGSA,A,3,24,20,05,13,15,22,12,14,18,,,,1.33,0.70,1.13*11
$GNGSA,A,3,86,74,75,87,73,71,72,,,,,,1.33,0.70,1.13*1E
$GPGSV,5,1,17,05,56,141,33,11,28,019,40,12,28,357,39,13,22,161,29*72
$GPGSV,5,2,17,14,05,125,33,15,27,197,38,18,19,227,39,20,49,077,40*7C
$GPGSV,5,3,17,22,19,109,39,24,63,257,31,25,05,333,,29,11,294,*77
$GPGSV,5,4,17,36,52,277,,40,86,350,34,41,58,082,36,49,32,274,*7F
$GPGSV,5,5,17,50,10,089,*4A
$GLGSV,3,1,11,70,00,092,,71,14,133,34,72,15,182,29,73,07,147,27*6B
$GLGSV,3,2,11,74,47,123,19,75,58,022,32,76,08,343,,85,04,013,*64
$GLGSV,3,3,11,86,39,326,24,87,37,265,15,,,,33*6E
$GNGLL,0419.96700,S,05539.86422,E,044031.00,A,D*69
$GNGRS,044031.00,1,-7.1,-1.6,3.2,9.6,1.0,1.1,-1.0,-4.3,1.2,,,*77
$GNGRS,044031.00,1,5.7,-0.5,5.8,1.8,-2.4,2.3,-11.6,,,,,*63
$GNGST,044031.00,72710,,,,1.2,1.1,2.8*71
$GNZDA,044031.00,23,05,2025,00,00*7B
$GNGBS,044031.00,1.2,1.1,2.8,,,,*54
$GNTXT,01,01,01,More than 100 frame errors, UART RX was disabled*70
b0dP!8*'e\
"}&N(|)1MT%m?M&{4#V^%:R 
Y!bF\G"HI{J/{EK :LWUV'FwW%"bPrb+$GNRMC,044032.00,A,0419.96701,S,05539.86421,E,0.031,,230525,,,D*70
$GNVTG,,T,,M,0.031,N,0.058,K,D*37
$GNGNS,044032.00,0419.96701,S,05539.86421,E,DA,16,0.70,13.3,-47.6,,0000*6E
$GNGGA,044032.00,0419.96701,S,05539.86421,E,2,12,0.70,13.3,M,-47.6,M,,0000*46
$GNGSA,A,3,24,20,05,13,15,22,12,14,18,,,,1.33,0.70,1.13*11
$GNGSA,A,3,86,74,75,87,73,71,72,,,,,,1.33,0.70,1.13*1E
$GPGSV,5,1,17,05,56,141,33,11,28,019,42,12,28,357,39,13,22,161,30*78
$GPGSV,5,2,17,14,05,125,34,15,27,197,38,18,19,227,40,20,49,077,41*74
$GPGSV,5,3,17,22,19,109,37,24,63,257,31,25,05,333,,29,11,294,*79
$GPGSV,5,4,17,36,52,277,,40,86,350,35,41,58,082,37,49,32,274,*7F
$GPGSV,5,5,17,50,10,089,*4A
$GLGSV,3,1,11,70,00,092,,71,14,133,34,72,15,182,30,73,07,147,26*62
$GLGSV,3,2,11,74,47,123,17,75,58,022,32,76,08,343,,85,04,013,*6A
$GLGSV,3,3,11,86,39,326,23,87,37,265,17,,,,34*6C
$GNGLL,0419.96701,S,05539.86421,E,044032.00,A,D*68
$GNGRS,044032.00,1,-6.3,-1.7,1.6,11.2,0.8,1.5,-0.8,-3.1,1.2,,,*4C
$GNGRS,044032.00,1,6.3,0.7,-0.4,-1.1,-6.4,1.3,-11.5,,,,,*4C
$GNGST,044032.00,38,,,,1.2,1.2,2.9*48
$GNZDA,044032.00,23,05,2025,00,00*78
$GNGBS,044032.00,1.2,1.2,2.9,,,,*55
$GNTXT,01,01,01,More than 100 frame errors, UART RX was disabled*70
b0d8%8)(e=
"}'U)})1L_&m ?sM&{4#V^%:R 
Y"bF\G&H
IJ/{K!:yLWUV'FW%&b8rf+>$GNRMC,044033.00,A,0419.96703,S,05539.86420,E,0.027,,230525,,,D*75
$GNVTG,,T,,M,0.027,N,0.050,K,D*38
$GNGNS,044033.00,0419.96703,S,05539.86420,E,DA,16,0.70,13.2,-47.6,,0000*6D
$GNGGA,044033.00,0419.96703,S,05539.86420,E,2,12,0.70,13.2,M,-47.6,M,,0000*45
$GNGSA,A,3,24,20,05,13,15,22,12,14,18,,,,1.33,0.70,1.13*11
$GNGSA,A,3,86,74,75,87,73,71,72,,,,,,1.33,0.70,1.13*1E
$GPGSV,5,1,17,05,56,141,37,11,28,019,41,12,28,357,40,13,22,161,31*70
$GPGSV,5,2,17,14,05,125,34,15,27,197,39,18,19,227,41,20,49,076,41*75
$GPGSV,5,3,17,22,19,109,38,24,63,257,32,25,05,333,,29,11,294,*75
$GPGSV,5,4,17,36,52,277,,40,86,350,35,41,58,082,37,49,32,274,*7F
$GPGSV,5,5,17,50,10,089,*4A
$GLGSV,3,1,11,70,00,092,,71,14,133,38,72,15,182,30,73,07,147,26*6E
$GLGSV,3,2,11,74,47,123,18,75,58,022,33,76,08,343,,85,04,013,*64
$GLGSV,3,3,11,86,39,326,25,87,37,265,15,,,,38*64
$GNGLL,0419.96703,S,05539.86420,E,044033.00,A,D*6A
$GNGRS,044033.00,1,-9.1,-1.6,-0.9,8.3,0.9,1.7,-0.7,-0.3,1.3,,,*57
$GNGRS,044033.00,1,7.4,2.5,1.2,2.5,-5.3,2.0,-10.1,,,,,*4A
$GNGST,044033.00,26176,,,,1.2,1.2,2.9*76
$GNZDA,044033.00,23,05,2025,00,00*79
$GNGBS,044033.00,1.2,1.2,2.9,,,,*54
$GNTXT,01,01,01,More than 100 frame errors, UART RX was disabled*70
b0d #8('ei
 }M'L)m(1Ll&n ?M&{4#V^$:R 
Y$bF\G%HH I J/{eK#:\LWUV'FW%$b rj+]$GNRMC,044034.00,A,0419.96702,S,05539.86418,E,0.015,,230525,,,D*79
$GNVTG,,T,,M,0.015,N,0.029,K,D*37
$GNGNS,044034.00,0419.96702,S,05539.86418,E,DA,16,0.70,13.1,-47.6,,0000*63
$GNGGA,044034.00,0419.96702,S,05539.86418,E,2,12,0.70,13.1,M,-47.6,M,,0000*4B
$GNGSA,A,3,24,20,05,13,15,22,12,14,18,,,,1.33,0.70,1.13*11
$GNGSA,A,3,86,74,75,87,73,71,72,,,,,,1.33,0.70,1.13*1E
$GPGSV,5,1,17,05,56,141,35,11,28,019,40,12,28,357,39,13,22,161,28*75
$GPGSV,5,2,17,14,05,125,32,15,27,197,39,18,19,227,41,20,49,076,40*72
$GPGSV,5,3,17,22,19,110,38,24,63,257,32,25,05,333,,29,11,294,*7D
$GPGSV,5,4,17,36,52,277,,40,86,350,35,41,58,082,36,49,32,274,*7E
$GPGSV,5,5,17,50,10,089,*4A
$GLGSV,3,1,11,70,00,092,,71,14,133,37,72,15,182,32,73,07,147,32*66
$GLGSV,3,2,11,74,47,123,19,75,58,022,35,76,08,343,,85,04,013,*63
$GLGSV,3,3,11,86,39,326,27,87,37,265,15,,,,36*68
$GNGLL,0419.96702,S,05539.86418,E,044034.00,A,D*67
$GNGRS,044034.00,1,-10.8,-1.5,-3.0,8.7,0.8,1.9,-0.5,-1.8,1.1,,,*69
$GNGRS,044034.00,1,7.0,3.6,3.5,2.4,-2.5,0.7,-11.0,,,,,*4B
$GNGST,044034.00,39264,,,,1.2,1.2,2.9*7F
$GNZDA,044034.00,23,05,2025,00,00*7E
$GNGBS,044034.00,1.2,1.2,2.9,,,,*53
$GNTXT,01,01,01,More than 100 frame errors, UART RX was disabled*70
b0d#8)(e
!}(R*`*1L(n!?M&{4$V^&:R 
Y$biF\G$H .I^J/{]K#:LWUV'FW%}#brn+5$GNRMC,044035.00,A,0419.96703,S,05539.86416,E,0.031,,230525,,,D*71
$GNVTG,,T,,M,0.031,N,0.058,K,D*37
$GNGNS,044035.00,0419.96703,S,05539.86416,E,DA,16,0.70,13.0,-47.6,,0000*6C
$GNGGA,044035.00,0419.96703,S,05539.86416,E,2,12,0.70,13.0,M,-47.6,M,,0000*44
$GNGSA,A,3,24,20,05,13,15,22,12,14,18,,,,1.33,0.70,1.13*11
$GNGSA,A,3,86,74,75,87,73,71,72,,,,,,1.33,0.70,1.13*1E
$GPGSV,5,1,17,05,56,141,35,11,28,019,41,12,28,357,40,13,22,161,28*7A
$GPGSV,5,2,17,14,05,125,33,15,27,197,40,18,19,227,42,20,49,076,42*7C
$GPGSV,5,3,17,22,19,110,40,24,63,257,33,25,05,333,,29,11,294,*73
$GPGSV,5,4,17,36,52,277,,40,86,350,36,41,58,082,38,49,32,274,*73
$GPGSV,5,5,17,50,10,089,*4A
$GLGSV,3,1,11,70,00,092,,71,14,133,36,72,15,182,32,73,07,147,29*6D
$GLGSV,3,2,11,74,47,123,19,75,58,022,35,76,08,343,,85,04,013,*63
$GLGSV,3,3,11,86,39,326,28,87,37,265,15,,,,35*64
$GNGLL,0419.96703,S,05539.86416,E,044035.00,A,D*69
$GNGRS,044035.00,1,-8.8,-1.0,-2.4,7.3,0.8,1.9,-0.5,-3.5,1.0,,,*54
$GNGRS,044035.00,1,7.3,3.5,-0.5,8.9,-1.6,-0.7,-9.8,,,,,*7F
$GNGST,044035.00,36,,,,1.2,1.2,2.9*41
$GNZDA,044035.00,23,05,2025,00,00*7F
$GNGBS,044035.00,1.2,1.2,2.9,,,,*52
$GNTXT,01,01,01,More than 100 frame errors, UART RX was disabled*70
b0d#8[')e
#}&k)N'1Ls&n!?M&{4#V^!:R 
Y#bF\G'HIJ/{7K#:LWUV'FW%#ebrr+g$GNRMC,044036.00,A,0419.96703,S,05539.86416,E,0.045,,230525,,,D*71
$GNVTG,,T,,M,0.045,N,0.083,K,D*32
$GNGNS,044036.00,0419.96703,S,05539.86416,E,DA,16,0.70,12.9,-47.6,,0000*67
$GNGGA,044036.00,0419.96703,S,05539.86416,E,2,12,0.70,12.9,M,-47.6,M,,0000*4F
$GNGSA,A,3,24,20,05,13,15,22,12,14,18,,,,1.33,0.70,1.13*11
$GNGSA,A,3,86,74,75,87,73,71,72,,,,,,1.33,0.70,1.13*1E
$GPGSV,5,1,17,05,56,141,35,11,28,019,39,12,28,357,41,13,22,161,29*75
$GPGSV,5,2,17,14,05,125,35,15,27,197,38,18,19,227,41,20,49,076,39*7A
$GPGSV,5,3,17,22,19,110,38,24,63,255,33,25,05,333,,29,11,294,*7E
$GPGSV,5,4,17,36,52,277,,40,86,350,35,41,58,082,33,49,32,274,*7B
$GPGSV,5,5,17,50,10,089,*4A
$GLGSV,3,1,11,70,00,092,,71,14,133,39,72,15,182,31,73,07,147,27*6F
$GLGSV,3,2,11,74,47,123,21,75,58,022,35,76,08,343,,85,04,013,*68
$GLGSV,3,3,11,86,39,326,29,87,37,265,16,,,,35*66
$GNGLL,0419.96703,S,05539.86416,E,044036.00,A,D*6A
$GNGRS,044036.00,1,-12.7,-1.4,0.9,6.7,1.1,2.0,-0.4,-1.2,0.8,,,*4F
$GNGRS,044036.00,1,5.2,3.1,0.3,2.7,-0.7,-0.3,-11.1,,,,,*60
$GNGST,044036.00,66894,,,,1.2,1.2,2.9*72
$GNZDA,044036.00,23,05,2025,00,00*7C
$GNGBS,044036.00,1.2,1.2,2.9,,,,*51
$GNTXT,01,01,01,More than 100 frame errors, UART RX was disabled*70
b0d$8+(e:
$})t+F,1L%n(?M&{4#V^':R 
Y$b]F\G%H IJ/{K!:/LWUV'FWW%$hbrlv+$GNRMC,044037.00,A,0419.96703,S,05539.86415,E,0.003,,230525,,,D*71
$GNVTG,,T,,M,0.003,N,0.006,K,D*3D
$GNGNS,044037.00,0419.96703,S,05539.86415,E,DA,16,0.70,12.6,-47.6,,0000*6A
$GNGGA,044037.00,0419.96703,S,05539.86415,E,2,12,0.70,12.6,M,-47.6,M,,0000*42
$GNGSA,A,3,24,20,05,13,15,22,12,14,18,,,,1.33,0.70,1.13*11
$GNGSA,A,3,86,74,75,87,73,71,72,,,,,,1.33,0.70,1.13*1E
$GPGSV,5,1,17,05,56,141,36,11,28,019,43,12,28,357,40,13,22,161,29*7A
$GPGSV,5,2,17,14,05,125,36,15,27,197,41,18,19,227,43,20,49,076,44*7F
$GPGSV,5,3,17,22,19,110,37,24,63,255,40,25,05,333,,29,11,294,*75
$GPGSV,5,4,17,36,52,277,,40,86,350,35,41,58,082,39,49,32,274,*71
$GPGSV,5,5,17,50,10,089,*4A
$GLGSV,3,1,11,70,00,092,,71,14,133,37,72,15,182,32,73,07,147,25*60
$GLGSV,3,2,11,74,47,123,21,75,58,022,33,76,08,343,,85,04,013,*6E
$GLGSV,3,3,11,86,39,326,30,87,37,265,20,,,,36*68
$GNGLL,0419.96703,S,05539.86415,E,044037.00,A,D*68
$GNGRS,044037.00,1,-5.4,-0.9,-0.4,8.3,1.2,2.1,-0.7,-0.3,0.7,,,*53
$GNGRS,044037.00,1,0.9,3.8,0.5,2.9,-1.2,-1.1,-11.3,,,,,*6B
$GNGST,044037.00,98886,,,,1.2,1.2,2.9*71
$GNZDA,044037.00,23,05,2025,00,00*7D
$GNGBS,044037.00,1.2,1.2,2.9,,,,*50
$GNTXT,01,01,01,More than 100 frame errors, UART RX was disabled*70
b0d"8d*&e
&}(z*F)1L$n&?+M&{4"V^&:R 
Y#bF\G&hH IJ/{K:LWUV'FW%#brTz+7$GNRMC,044038.00,A,0419.96704,S,05539.86415,E,0.021,,230525,,,D*79
$GNVTG,,T,,M,0.021,N,0.039,K,D*31
$GNGNS,044038.00,0419.96704,S,05539.86415,E,DA,16,0.70,12.5,-47.6,,0000*61
$GNGGA,044038.00,0419.96704,S,05539.86415,E,2,12,0.70,12.5,M,-47.6,M,,0000*49
$GNGSA,A,3,24,20,05,13,15,22,12,14,18,,,,1.33,0.70,1.13*11
$GNGSA,A,3,86,74,75,87,73,71,72,,,,,,1.33,0.70,1.13*1E
$GPGSV,5,1,17,05,56,141,34,11,28,019,42,12,28,357,38,13,22,161,28*77
$GPGSV,5,2,17,14,05,125,38,15,27,197,40,18,19,227,42,20,49,076,41*74
$GPGSV,5,3,17,22,19,110,36,24,63,255,38,25,05,333,,29,11,294,*7B
$GPGSV,5,4,17,36,52,277,,40,86,350,34,41,58,082,38,49,32,274,*71
$GPGSV,5,5,17,50,10,089,*4A
$GLGSV,3,1,11,70,00,092,,71,14,133,38,72,15,182,32,73,07,147,24*6E
$GLGSV,3,2,11,74,47,123,22,75,58,022,26,76,08,343,,85,04,013,*69
$GLGSV,3,3,11,86,39,326,31,87,37,265,11,,,,35*68
$GNGLL,0419.96704,S,05539.86415,E,044038.00,A,D*60
$GNGRS,044038.00,1,-7.3,-0.7,-1.6,17.5,1.2,2.2,-0.8,-0.2,0.7,,,*61
$GNGRS,044038.00,1,1.5,3.9,2.6,6.9,-0.3,-1.5,-10.8,,,,,*63
$GNGST,044038.00,38,,,,1.3,1.2,2.9*43
$GNZDA,044038.00,23,05,2025,00,00*72
$GNGBS,044038.00,1.3,1.2,2.9,,,,*5E
$GNTXT,01,01,01,More than 100 frame errors, UART RX was disabled*70
b0d"8+)e
$}8)*W*1L%n&?;M&{4"V^&:R 
Y!brF\G&kH IJ/{K:LWUV'FW%$9br<~+$GNRMC,044039.00,A,0419.96704,S,05539.86415,E,0.032,,230525,,,D*7A
$GNVTG,,T,,M,0.032,N,0.060,K,D*3F
$GNGNS,044039.00,0419.96704,S,05539.86415,E,DA,16,0.70,12.4,-47.6,,0000*61
$GNGGA,044039.00,0419.96704,S,05539.86415,E,2,12,0.70,12.4,M,-47.6,M,,0000*49
$GNGSA,A,3,24,20,05,13,15,22,12,14,18,,,,1.33,0.70,1.13*11
$GNGSA,A,3,86,74,75,87,73,71,72,,,,,,1.33,0.70,1.13*1E
$GPGSV,5,1,17,05,56,141,34,11,28,019,43,12,28,357,41,13,22,161,28*78
$GPGSV,5,2,17,14,05,125,36,15,27,197,41,18,19,227,42,20,49,076,42*78
$GPGSV,5,3,17,22,19,110,37,24,63,255,38,25,05,333,,29,11,294,*7A
$GPGSV,5,4,17,36,52,277,,40,86,350,34,41,58,082,38,49,32,274,*71
$GPGSV,5,5,17,50,10,089,*4A
$GLGSV,3,1,11,70,00,092,,71,14,133,38,72,15,182,32,73,07,147,25*6F
$GLGSV,3,2,11,74,47,123,22,75,58,022,29,76,08,343,,85,04,013,*66
$GLGSV,3,3,11,86,39,326,31,87,37,265,14,,,,36*6E
$GNGLL,0419.96704,S,05539.86415,E,044039.00,A,D*61
$GNGRS,044039.00,1,-7.1,0.1,-1.0,18.0,1.3,1.8,-0.7,0.6,0.9,,,*65
$GNGRS,044039.00,1,-2.5,3.9,3.9,2.6,-2.5,-1.5,-13.8,,,,,*4E
$GNGST,044039.00,37809,,,,1.3,1.2,2.9*7C
$GNZDA,044039.00,23,05,2025,00,00*73
$GNGBS,044039.00,1.3,1.2,2.9,,,,*5F
$GNTXT,01,01,01,More than 100 frame errors, UART RX was disabled*70
b0d"8+)eC
%})(t*L*1L8%n$?M&{4&V^&:R 
Y!bF\G&nH *IJ/{K$:LWUV'F#W%$br$+m$GNRMC,044040.00,A,0419.96705,S,05539.86416,E,0.020,,230525,,,D*75
$GNVTG,,T,,M,0.020,N,0.037,K,D*3E
$GNGNS,044040.00,0419.96705,S,05539.86416,E,DA,16,0.70,12.4,-47.6,,0000*6D
$GNGGA,044040.00,0419.96705,S,05539.86416,E,2,12,0.70,12.4,M,-47.6,M,,0000*45
$GNGSA,A,3,24,20,05,13,15,22,12,14,18,,,,1.33,0.70,1.13*11
$GNGSA,A,3,86,74,75,87,73,71,72,,,,,,1.33,0.70,1.13*1E
$GPGSV,5,1,17,05,56,141,34,11,28,019,43,12,28,357,41,13,22,161,28*78
$GPGSV,5,2,17,14,05,125,37,15,27,197,40,18,19,227,42,20,49,076,42*78
$GPGSV,5,3,17,22,19,110,37,24,63,255,36,25,05,333,,29,11,294,*74
$GPGSV,5,4,17,36,52,277,,40,86,350,38,41,58,082,38,49,32,274,*7D
$GPGSV,5,5,17,50,10,089,*4A
$GLGSV,3,1,11,70,00,092,,71,14,133,38,72,15,182,32,73,07,147,26*6C
$GLGSV,3,2,11,74,47,123,21,75,58,022,36,76,08,343,,85,04,013,*6B
$GLGSV,3,3,11,86,39,326,31,87,37,265,12,,,,36*68
$GNGLL,0419.96705,S,05539.86416,E,044040.00,A,D*6D
$GNGRS,044040.00,1,-8.0,0.6,-0.2,18.6,1.2,1.4,-0.4,0.4,0.8,,,*6A
$GNGRS,044040.00,1,-2.2,5.2,4.0,2.6,-3.0,-1.5,-12.4,,,,,*4D
$GNGST,044040.00,55260,,,,1.3,1.2,2.9*73
$GNZDA,044040.00,23,05,2025,00,00*7D
$GNGBS,044040.00,1.3,1.2,2.9,,,,*51
$GNTXT,01,01,01,More than 100 frame errors, UART RX was disabled*70
b0dx#8))e!4
$}e(c)j'1Lc&nm?M
&{4"V^#:R 
Y!bF\G'cH IJ/{K$:LWUV'FW%;%ibxr+E}$GNRMC,044041.00,A,0419.96706,S,05539.86415,E,0.034,,230525,,,D*71
$GNVTG,,T,,M,0.034,N,0.063,K,D*3A
$GNGNS,044041.00,0419.96706,S,05539.86415,E,DA,16,0.70,12.4,-47.6,,0000*6C
$GNGGA,044041.00,0419.96706,S,05539.86415,E,2,12,0.70,12.4,M,-47.6,M,,0000*44
$GNGSA,A,3,24,20,05,13,15,22,12,14,18,,,,1.33,0.70,1.13*11
$GNGSA,A,3,86,74,75,87,73,71,72,,,,,,1.33,0.70,1.13*1E
$GPGSV,5,1,17,05,56,141,35,11,28,019,41,12,28,357,41,13,22,161,33*71
$GPGSV,5,2,17,14,05,125,36,15,27,197,40,18,19,227,41,20,49,076,39*76
$GPGSV,5,3,17,22,19,110,38,24,63,255,30,25,05,333,,29,10,294,*7C
$GPGSV,5,4,17,36,52,277,,40,86,350,34,41,58,082,35,49,32,274,*7C
$GPGSV,5,5,17,50,10,089,*4A
$GLGSV,3,1,11,70,00,092,,71,14,133,39,72,15,182,32,73,07,147,24*6F
$GLGSV,3,2,11,74,47,123,21,75,58,022,36,76,08,343,,85,04,013,*6B
$GLGSV,3,3,11,86,39,326,31,87,37,265,16,,,,37*6D
$GNGLL,0419.96706,S,05539.86415,E,044041.00,A,D*6C
$GNGRS,044041.00,1,-5.7,1.0,-1.0,10.8,1.0,1.1,-0.7,1.0,1.1,,,*6A
$GNGRS,044041.00,1,4.3,6.6,2.5,5.7,-2.4,-1.6,-13.5,,,,,*62
$GNGST,044041.00,35,,,,1.2,1.2,3.0*49
$GNZDA,044041.00,23,05,2025,00,00*7C
$GNGBS,044041.00,1.2,1.2,3.0,,,,*59
$GNTXT,01,01,01,More than 100 frame errors, UART RX was disabled*70
b0d`$8*)e 
#}(h)G'1L]'nV?M
&{4"V^#:R 
Y"b)F\G&`H I=J/{SK$:LWUV'F,W%%b`r+$GNRMC,044042.00,A,0419.96707,S,05539.86415,E,0.041,,230525,,,D*71
$GNVTG,,T,,M,0.041,N,0.077,K,D*3D
$GNGNS,044042.00,0419.96707,S,05539.86415,E,DA,16,0.70,12.4,-47.6,,0000*6E
$GNGGA,044042.00,0419.96707,S,05539.86415,E,2,12,0.70,12.4,M,-47.6,M,,0000*46
$GNGSA,A,3,24,20,05,13,15,22,12,14,18,,,,1.33,0.70,1.13*11
$GNGSA,A,3,86,74,75,87,73,71,72,,,,,,1.33,0.70,1.13*1E
$GPGSV,5,1,17,05,56,141,36,11,28,019,42,12,28,357,41,13,22,161,32*70
$GPGSV,5,2,17,14,05,125,35,15,27,197,40,18,19,227,41,20,49,076,39*75
$GPGSV,5,3,17,22,19,110,39,24,63,255,30,25,05,333,,29,10,294,*7D
$GPGSV,5,4,17,36,52,277,,40,86,350,34,41,58,082,35,49,32,274,*7C
$GPGSV,5,5,17,50,10,089,*4A
$GLGSV,3,1,11,70,00,092,,71,14,133,38,72,15,182,32,73,07,147,22*68
$GLGSV,3,2,11,74,47,123,21,75,58,022,36,76,08,343,,85,04,013,*6B
$GLGSV,3,3,11,86,39,326,30,87,37,265,18,,,,37*62
$GNGLL,0419.96707,S,05539.86415,E,044042.00,A,D*6E
$GNGRS,044042.00,1,-8.1,0.9,-0.6,9.9,1.0,0.9,-0.5,1.3,0.7,,,*5B
$GNGRS,044042.00,1,0.4,6.0,-0.1,2.7,-1.9,-1.6,-10.0,,,,,*40
$GNGST,044042.00,29084,,,,1.2,1.2,3.0*7B
$GNZDA,044042.00,23,05,2025,00,00*7F
$GNGBS,044042.00,1.2,1.2,3.0,,,,*5A
$GNTXT,01,01,01,More than 100 frame errors, UART RX was disabled*70
b0dH$8)(e D
"}t'^(H#1Lr'n+?M
&{4"V^#:R 
Y"bF\G&pH fI}J/{uK$:LWUV'F/W%%bHr+J$GNRMC,044043.00,A,0419.96707,S,05539.86415,E,0.022,,230525,,,D*75
$GNVTG,,T,,M,0.022,N,0.041,K,D*3D
$GNGNS,044043.00,0419.96707,S,05539.86415,E,DA,16,0.70,12.4,-47.6,,0000*6F
$GNGGA,044043.00,0419.96707,S,05539.86415,E,2,12,0.70,12.4,M,-47.6,M,,0000*47
$GNGSA,A,3,24,20,05,13,15,22,12,14,18,,,,1.33,0.70,1.13*11
$GNGSA,A,3,86,74,75,87,73,71,72,,,,,,1.33,0.70,1.13*1E
$GPGSV,5,1,17,05,56,141,36,11,28,019,41,12,28,357,40,13,22,161,32*72
$GPGSV,5,2,17,14,05,125,34,15,27,197,39,18,19,227,40,20,49,076,35*77
$GPGSV,5,3,17,22,19,110,39,24,63,255,29,25,05,333,,29,10,294,*75
$GPGSV,5,4,17,36,52,277,,40,86,350,34,41,58,082,35,49,32,274,*7C
$GPGSV,5,5,17,50,10,089,*4A
$GLGSV,3,1,11,70,00,092,,71,14,133,38,72,15,182,32,73,07,147,22*68
$GLGSV,3,2,11,74,47,123,21,75,58,022,36,76,08,343,,85,04,013,*6B
$GLGSV,3,3,11,86,39,326,29,87,37,265,14,,,,37*66
$GNGLL,0419.96707,S,05539.86415,E,044043.00,A,D*6F
$GNGRS,044043.00,1,-4.8,1.1,0.2,8.4,0.9,0.4,-0.6,1.2,0.7,,,*74
$GNGRS,044043.00,1,0.5,6.3,5.4,2.7,-1.3,-1.4,-11.8,,,,,*6F
$GNGST,044043.00,43626,,,,1.3,1.2,3.0*79
$GNZDA,044043.00,23,05,2025,00,00*7E
$GNGBS,044043.00,1.3,1.2,3.0,,,,*5A
$GNTXT,01,01,01,More than 100 frame errors, UART RX was disabled*70
b0d0#8)(e {
#}'](\&1Lt'n+?KM
&{4!V^#:R 
Y"b&F\G&aH IJ/{{K$:LWUV'FW%%(b0r+$GNRMC,044044.00,A,0419.96708,S,05539.86416,E,0.019,,230525,,,D*76
$GNVTG,,T,,M,0.019,N,0.035,K,D*36
$GNGNS,044044.00,0419.96708,S,05539.86416,E,DA,16,0.70,12.4,-47.6,,0000*64
$GNGGA,044044.00,0419.96708,S,05539.86416,E,2,12,0.70,12.4,M,-47.6,M,,0000*4C
$GNGSA,A,3,24,20,05,13,15,22,12,14,18,,,,1.33,0.70,1.13*11
$GNGSA,A,3,86,74,75,87,73,71,72,,,,,,1.33,0.70,1.13*1E
$GPGSV,5,1,17,05,56,141,35,11,28,019,41,12,28,357,40,13,22,161,32*71
$GPGSV,5,2,17,14,05,125,35,15,27,197,39,18,19,227,40,20,49,076,38*7B
$GPGSV,5,3,17,22,19,110,39,24,63,255,27,25,05,333,,29,10,294,*7B
$GPGSV,5,4,17,36,52,277,,40,86,350,33,41,58,082,35,49,32,274,*7B
$GPGSV,5,5,17,50,10,089,*4A
$GLGSV,3,1,11,70,00,092,,71,14,133,38,72,15,182,32,73,07,147,19*60
$GLGSV,3,2,11,74,47,123,21,75,58,022,36,76,08,343,,85,04,013,*6B
$GLGSV,3,3,11,86,39,326,29,87,37,265,16,,,,37*64
$GNGLL,0419.96708,S,05539.86416,E,044044.00,A,D*64
$GNGRS,044044.00,1,-4.4,1.2,-1.2,14.0,0.9,0.4,-0.6,5.0,0.9,,,*61
$GNGRS,044044.00,1,-0.5,6.3,5.0,-0.8,0.0,-1.6,-11.5,,,,,*41
$GNGST,044044.00,38,,,,1.3,1.2,3.1*41
$GNZDA,044044.00,23,05,2025,00,00*79
$GNGBS,044044.00,1.3,1.2,3.1,,,,*5C
$GNTXT,01,01,01,More than 100 frame errors, UART RX was disabled*70
b0d#8Q(&ej
"}%l'S&1Ll&n?sM
&{4!V^#:R 
Y!bF\G)mH IJ/{K&:LWUV'FW%'br+$GNRMC,044045.00,A,0419.96708,S,05539.86416,E,0.048,,230525,,,D*73
$GNVTG,,T,,M,0.048,N,0.088,K,D*34
$GNGNS,044045.00,0419.96708,S,05539.86416,E,DA,16,0.70,12.5,-47.6,,0000*64
$GNGGA,044045.00,0419.96708,S,05539.86416,E,2,12,0.70,12.5,M,-47.6,M,,0000*4C
$GNGSA,A,3,24,20,05,13,15,22,12,14,18,,,,1.33,0.70,1.13*11
$GNGSA,A,3,86,74,75,87,73,71,72,,,,,,1.33,0.70,1.13*1E
$GPGSV,5,1,17,05,56,141,35,11,28,019,40,12,28,357,38,13,22,161,30*7D
$GPGSV,5,2,17,14,05,125,34,15,27,197,37,18,19,227,39,20,49,076,38*7A
$GPGSV,5,3,17,22,19,110,38,24,63,255,26,25,05,333,,29,10,294,*7B
$GPGSV,5,4,17,36,52,277,,40,86,350,33,41,58,082,35,49,32,274,*7B
$GPGSV,5,5,17,50,10,089,*4A
$GLGSV,3,1,11,70,00,092,,71,14,133,41,72,15,182,32,73,07,147,23*67
$GLGSV,3,2,11,74,47,123,21,75,58,022,38,76,08,343,,85,04,013,*65
$GLGSV,3,3,11,86,39,326,28,87,37,265,21,,,,39*6F
$GNGLL,0419.96708,S,05539.86416,E,044045.00,A,D*65
$GNGRS,044045.00,1,-4.0,1.1,0.8,11.3,1.1,0.3,-0.4,-1.3,0.8,,,*60
$GNGRS,044045.00,1,-1.1,6.5,2.3,2.5,0.1,-1.5,-10.5,,,,,*66
$GNGST,044045.00,34901,,,,1.3,1.2,3.1*74
$GNZDA,044045.00,23,05,2025,00,00*78
$GNGBS,044045.00,1.3,1.2,3.1,,,,*5D
$GNTXT,01,01,01,More than 100 frame errors, UART RX was disabled*70
b0d$8((e
#}6'j(S&1Lh'n?XM
&{4!V^#:R 
Y"bF\G(qH!IJ/{K&:LWUV'FzW%&br+|$GNRMC,044046.00,A,0419.96708,S,05539.86416,E,0.012,,230525,,,D*7F
$GNVTG,,T,,M,0.012,N,0.021,K,D*38
$GNGNS,044046.00,0419.96708,S,05539.86416,E,DA,16,0.70,12.5,-47.6,,0000*67
$GNGGA,044046.00,0419.96708,S,05539.86416,E,2,12,0.70,12.5,M,-47.6,M,,0000*4F
$GNGSA,A,3,24,20,05,13,15,22,12,14,18,,,,1.33,0.70,1.13*11
$GNGSA,A,3,86,74,75,87,73,71,72,,,,,,1.33,0.70,1.13*1E
$GPGSV,5,1,17,05,56,141,36,11,28,019,40,12,28,357,40,13,22,161,31*70
$GPGSV,5,2,17,14,05,125,35,15,27,197,39,18,19,227,40,20,49,076,38*7B
$GPGSV,5,3,17,22,19,110,39,24,63,255,26,25,05,333,,29,10,294,*7A
$GPGSV,5,4,17,36,52,277,,40,86,350,33,41,58,082,35,49,32,274,*7B
$GPGSV,5,5,17,50,10,089,*4A
$GLGSV,3,1,11,70,00,092,,71,14,133,40,72,15,182,33,73,07,147,27*63
$GLGSV,3,2,11,74,47,123,20,75,58,022,38,76,08,343,,85,04,013,*64
$GLGSV,3,3,11,86,39,326,30,87,37,265,20,,,,38*66
$GNGLL,0419.96708,S,05539.86416,E,044046.00,A,D*66
$GNGRS,044046.00,1,-4.2,1.0,2.4,4.8,1.1,0.3,-0.7,3.1,0.8,,,*7F
$GNGRS,044046.00,1,-1.3,7.5,4.2,2.2,-0.8,-1.4,-7.6,,,,,*76
$GNGST,044046.00,52351,,,,1.3,1.2,3.1*78
$GNZDA,044046.00,23,05,2025,00,00*7B
$GNGBS,044046.00,1.3,1.2,3.1,,,,*5E
$GNTXT,01,01,01,More than 100 frame errors, UART RX was disabled*70
b0d"$8>)(e 
#}9'}(A'1L`'n?M
&{4"V^#:R 
Y!bTF\G'lH!ISJ/{K%:WLWUV'FW%&b"r|+S$GNRMC,044047.00,A,0419.96709,S,05539.86416,E,0.017,,230525,,,D*7A
$GNVTG,,T,,M,0.017,N,0.031,K,D*3C
$GNGNS,044047.00,0419.96709,S,05539.86416,E,DA,16,0.70,12.6,-47.6,,0000*64
$GNGGA,044047.00,0419.96709,S,05539.86416,E,2,12,0.70,12.6,M,-47.6,M,,0000*4C
$GNGSA,A,3,24,20,05,13,15,22,12,14,18,,,,1.33,0.70,1.13*11
$GNGSA,A,3,86,74,75,87,73,71,72,,,,,,1.33,0.70,1.13*1E
$GPGSV,5,1,17,05,56,141,36,11,28,019,41,12,28,357,40,13,22,161,32*72
$GPGSV,5,2,17,14,05,125,35,15,27,197,39,18,19,227,40,20,49,076,39*7A
$GPGSV,5,3,17,22,19,110,39,24,63,255,27,25,05,333,,29,10,294,*7B
$GPGSV,5,4,17,36,52,277,,40,86,350,34,41,58,082,35,49,32,274,*7C
$GPGSV,5,5,17,50,10,089,*4A
$GLGSV,3,1,11,70,00,092,,71,14,133,39,72,15,182,33,73,07,147,24*6E
$GLGSV,3,2,11,74,47,123,22,75,58,022,37,76,08,343,,85,04,013,*69
$GLGSV,3,3,11,86,39,326,30,87,37,265,18,,,,38*6D
$GNGLL,0419.96709,S,05539.86416,E,044047.00,A,D*66
$GNGRS,044047.00,1,-3.5,1.0,0.6,4.4,1.2,0.0,-0.6,0.6,0.6,,,*79
$GNGRS,044047.00,1,-0.9,6.8,3.4,7.4,0.8,-1.5,-10.7,,,,,*69
$GNGST,044047.00,38,,,,1.3,1.2,3.2*41
$GNZDA,044047.00,23,05,2025,00,00*7A
$GNGBS,044047.00,1.3,1.2,3.2,,,,*5C
$GNTXT,01,01,01,More than 100 frame errors, UART RX was disabled*70
b0d&"81)'e 
#}')9'1Lp'n?M
&{4"V^#:R 
Y!bF\G'hH"DIJ/{K%:<LWUV'FDW%&r?b&rd++C$GNRMC,044048.00,A,0419.96709,S,05539.86416,E,0.020,,230525,,,D*71
$GNVTG,,T,,M,0.020,N,0.037,K,D*3E
$GNGNS,044048.00,0419.96709,S,05539.86416,E,DA,16,0.70,12.6,-47.6,,0000*6B
$GNGGA,044048.00,0419.96709,S,05539.86416,E,2,12,0.70,12.6,M,-47.6,M,,0000*43
$GNGSA,A,3,24,20,05,13,15,22,12,14,18,,,,1.33,0.70,1.13*11
$GNGSA,A,3,86,74,75,87,73,71,72,,,,,,1.33,0.70,1.13*1E
$GPGSV,5,1,17,05,56,141,34,11,28,019,41,12,28,357,39,13,22,161,32*7E
$GPGSV,5,2,17,14,05,125,35,15,27,197,39,18,19,227,41,20,49,076,39*7B
$GPGSV,5,3,17,22,19,110,39,24,63,255,24,25,05,333,,29,10,294,*78
$GPGSV,5,4,17,36,52,277,,40,86,350,34,41,58,082,35,49,32,274,*7C
$GPGSV,5,5,17,50,10,089,*4A
$GLGSV,3,1,11,70,00,092,,71,14,133,39,72,15,182,34,73,07,147,26*6B
$GLGSV,3,2,11,74,47,123,22,75,58,022,37,76,08,343,,85,04,013,*69
$GLGSV,3,3,11,86,39,326,29,87,37,265,17,,,,38*6A
$GNGLL,0419.96709,S,05539.86416,E,044048.00,A,D*69
$GNGRS,044048.00,1,-2.8,1.1,0.5,4.7,1.4,-0.1,-0.6,1.5,0.6,,,*53
$GNGRS,044048.00,1,-1.9,7.6,3.2,2.6,1.7,-1.5,-14.7,,,,,*63
$GNGST,044048.00,55260,,,,1.3,1.2,3.2*71
$GNZDA,044048.00,23,05,2025,00,00*75
$GNGBS,044048.00,1.3,1.2,3.2,,,,*53
$GNTXT,01,01,01,More than 100 frame errors, UART RX was disabled*70
b0d*!8&$e
"}%'7&1Li&n?M
&{4!V^":R 
Y!bF\G#]HbIJ/{K!:.LWUV'FiW%"Nqb*rL+$GNRMC,044049.00,A,0419.96709,S,05539.86416,E,0.047,,230525,,,D*71
$GNVTG,,T,,M,0.047,N,0.087,K,D*34
$GNGNS,044049.00,0419.96709,S,05539.86416,E,DA,16,0.70,12.6,-47.6,,0000*6A
$GNGGA,044049.00,0419.96709,S,05539.86416,E,2,12,0.70,12.6,M,-47.6,M,,0000*42
$GNGSA,A,3,24,20,05,13,15,22,12,14,18,,,,1.33,0.70,1.13*11
$GNGSA,A,3,86,74,75,87,73,71,72,,,,,,1.33,0.70,1.13*1E
$GPGSV,5,1,17,05,56,141,33,11,28,019,38,12,28,357,36,13,22,161,31*7B
$GPGSV,5,2,17,14,05,125,34,15,27,197,37,18,19,227,39,20,49,076,38*7A
$GPGSV,5,3,17,22,19,110,38,24,63,255,21,25,05,333,,29,10,294,*7C
$GPGSV,5,4,17,36,52,277,,40,86,350,33,41,58,082,34,49,32,274,*7A
$GPGSV,5,5,17,50,10,089,*4A
$GLGSV,3,1,11,70,00,092,,71,14,133,35,72,15,182,28,73,07,147,27*6B
$GLGSV,3,2,11,74,47,123,21,75,58,022,33,76,08,343,,85,04,013,*6E
$GLGSV,3,3,11,86,39,326,27,87,37,265,18,,,,34*67
$GNGLL,0419.96709,S,05539.86416,E,044049.00,A,D*68
$GNGRS,044049.00,1,-3.0,1.1,1.4,7.8,1.4,-0.2,-0.6,-4.8,0.5,,,*72
$GNGRS,044049.00,1,-1.5,9.5,3.0,2.5,1.7,-1.6,-11.8,,,,,*6B
$GNGST,044049.00,81436,,,,1.3,1.3,3.3*7C
$GNZDA,044049.00,23,05,2025,00,00*74
$GNGBS,044049.00,1.3,1.3,3.3,,,,*52
