b0LpA
D}J_+y1:dHK]
d{4V_:R 
Y{A
3B(^C#DMNEO>SQUR*Xbp6v$GNRMC,063324.00,A,0419.82860,S,05539.88946,E,0.073,,020625,,,A*7D
$GNVTG,,T,,M,0.073,N,0.135,K,A*3E
$GNGNS,063324.00,0419.82860,S,05539.88946,E,AA,09,1.11,8.9,-47.6,,*5D
$GNGGA,063324.00,0419.82860,S,05539.88946,E,1,09,1.11,8.9,M,-47.6,M,,*77
$GNGSA,A,3,05,12,15,23,25,,,,,,,,2.33,1.11,2.05*1C
$GNGSA,A,3,78,66,67,79,,,,,,,,,2.33,1.11,2.05*18
$GPGSV,4,1,16,05,28,030,24,10,16,214,14,12,68,125,14,13,12,095,*76
$GPGSV,4,2,16,15,43,121,18,18,29,305,15,23,58,221,29,24,27,166,21*77
$GPGSV,4,3,16,25,72,331,23,28,08,280,,29,19,356,,36,52,277,*70
$GPGSV,4,4,16,40,86,351,,41,58,082,,49,32,274,,50,10,089,*79
$GLGSV,3,1,10,65,10,051,,66,40,094,25,67,35,168,28,68,01,203,*62
$GLGSV,3,2,10,77,27,166,16,78,69,248,13,79,29,318,16,81,09,341,*64
$GLGSV,3,3,10,82,05,298,,88,00,029,*63
$GNGLL,0419.82860,S,05539.88946,E,063324.00,A,A*63
$GNGRS,063324.00,1,-4.5,0.7,-5.9,6.1,-9.3,,,,,,,*54
$GNGRS,063324.00,1,3.8,4.1,-4.9,0.8,,,,,,,,*76
$GNGST,063324.00,54,,,,6.1,7.8,16*69
$GNZDA,063324.00,02,06,2025,00,00*79
$GNGBS,063324.00,6.1,7.8,16.4,,,,*64
$GNTXT,01,01,01,More than 100 frame errors, UART RX was disabled*70
b0LXL

D}_+y1!:tHKx
d{4V_:R 
Y{A
3B(^C#DMNEYO>*QUR*XybX6Ny$GNRMC,063325.00,A,0419.82871,S,05539.88939,E,0.175,,020625,,,A*73
$GNVTG,,T,,M,0.175,N,0.324,K,A*3B
$GNGNS,063325.00,0419.82871,S,05539.88939,E,AA,09,1.11,8.9,-47.6,,*54
$GNGGA,063325.00,0419.82871,S,05539.88939,E,1,09,1.11,8.9,M,-47.6,M,,*7E
$GNGSA,A,3,05,12,15,23,25,,,,,,,,2.33,1.11,2.05*1C
$GNGSA,A,3,78,66,67,79,,,,,,,,,2.33,1.11,2.05*18
$GPGSV,4,1,16,05,28,030,23,10,16,214,10,12,68,125,14,13,12,095,*75
$GPGSV,4,2,16,15,43,121,16,18,29,305,13,23,58,221,33,24,27,166,22*77
$GPGSV,4,3,16,25,72,331,31,28,08,280,,29,19,356,,36,52,277,*73
$GPGSV,4,4,16,40,86,351,,41,58,082,,49,32,274,,50,10,089,*79
$GLGSV,3,1,10,65,10,051,,66,40,094,22,67,35,168,28,68,01,203,*65
$GLGSV,3,2,10,77,27,166,12,78,69,248,29,79,29,318,11,81,09,341,*6E
$GLGSV,3,3,10,82,05,298,,88,00,029,*63
$GNGLL,0419.82871,S,05539.88939,E,063325.00,A,A*6A
$GNGRS,063325.00,1,-4.4,-0.7,-4.9,3.7,-9.0,,,,,,,*78
$GNGRS,063325.00,1,0.9,5.1,-7.4,3.0,,,,,,,,*71
$GNGST,063325.00,99931,,,,6.1,7.8,16*52
$GNZDA,063325.00,02,06,2025,00,00*78
$GNGBS,063325.00,6.1,7.8,16.5,,,,*64
$GNTXT,01,01,01,More than 100 frame errors, UART RX was disabled*70
b0L@
D}_+yN1#:|!HK
d{4V_:R 
Y{A
3B(^C!#fDMNEO>IQUR*XYb@6&$GNRMC,063326.00,A,0419.82874,S,05539.88928,E,0.196,,020625,,,A*78
$GNVTG,,T,,M,0.196,N,0.363,K,A*35
$GNGNS,063326.00,0419.82874,S,05539.88928,E,AA,09,1.11,9.0,-47.6,,*5A
$GNGGA,063326.00,0419.82874,S,05539.88928,E,1,09,1.11,9.0,M,-47.6,M,,*70
$GNGSA,A,3,05,12,15,23,25,,,,,,,,2.33,1.11,2.05*1C
$GNGSA,A,3,78,66,67,79,,,,,,,,,2.33,1.11,2.05*18
$GPGSV,4,1,16,05,28,030,26,10,16,214,17,12,68,125,12,13,12,095,*71
$GPGSV,4,2,16,15,43,121,15,18,29,305,18,23,58,221,35,24,27,166,23*78
$GPGSV,4,3,16,25,72,331,33,28,08,280,,29,19,356,20,36,52,277,*73
$GPGSV,4,4,16,40,86,351,,41,58,082,,49,32,274,,50,10,089,*79
$GLGSV,3,1,10,65,10,051,,66,40,094,29,67,35,168,33,68,01,203,*64
$GLGSV,3,2,10,77,27,166,13,78,69,248,30,79,29,318,13,81,09,341,*65
$GLGSV,3,3,10,82,05,298,,88,00,029,*63
$GNGLL,0419.82874,S,05539.88928,E,063326.00,A,A*6C
$GNGRS,063326.00,1,-3.2,-0.4,-4.3,3.8,-6.2,,,,,,,*71
$GNGRS,063326.00,1,2.8,6.9,-6.7,3.3,,,,,,,,*7B
$GNGST,063326.00,99931,,,,6.0,7.8,17*51
$GNZDA,063326.00,02,06,2025,00,00*7B
$GNGBS,063326.00,6.0,7.8,16.5,,,,*66
$GNTXT,01,01,01,More than 100 frame errors, UART RX was disabled*70
b0L(t
D}_+y1&:!HK
d{4V_:R 
Y{A
3B(^C #*DMN$EO>
QUR*Xb(6~I$GNRMC,063327.00,A,0419.82867,S,05539.88934,E,0.081,,020625,,,A*71
$GNVTG,,T,,M,0.081,N,0.149,K,A*38
$GNGNS,063327.00,0419.82867,S,05539.88934,E,AA,09,1.41,9.4,-47.6,,*55
$GNGGA,063327.00,0419.82867,S,05539.88934,E,1,09,1.41,9.4,M,-47.6,M,,*7F
$GNGSA,A,3,05,12,15,23,25,,,,,,,,3.00,1.41,2.65*1E
$GNGSA,A,3,78,66,67,79,,,,,,,,,3.00,1.41,2.65*1A
$GPGSV,4,1,16,05,28,030,26,10,16,214,20,12,68,125,17,13,12,095,*70
$GPGSV,4,2,16,15,43,121,18,18,29,305,21,23,58,221,38,24,27,166,23*72
$GPGSV,4,3,16,25,72,331,33,28,08,280,,29,19,356,18,36,52,277,*78
$GPGSV,4,4,16,40,86,351,,41,58,082,,49,32,274,,50,10,089,*79
$GLGSV,3,1,10,65,10,051,,66,40,094,29,67,35,168,32,68,01,203,*65
$GLGSV,3,2,10,77,27,166,15,78,69,248,36,79,29,318,12,81,09,341,*64
$GLGSV,3,3,10,82,05,298,,88,00,029,*63
$GNGLL,0419.82867,S,05539.88934,E,063327.00,A,A*62
$GNGRS,063327.00,1,-1.4,-0.4,-3.1,1.7,-2.5,,,,,,,*7F
$GNGRS,063327.00,1,2.7,7.8,-9.8,26.9,,,,,,,,*48
$GNGST,063327.00,39,,,,5.9,7.7,16*65
$GNZDA,063327.00,02,06,2025,00,00*7A
$GNGBS,063327.00,5.9,7.7,16.5,,,,*62
$GNTXT,01,01,01,More than 100 frame errors, UART RX was disabled*70
b0L
D}_+y1&: HK
d{4V_:R 
Y{A
3B(^SC#@DMN%EO>(QUR*Xk+b6f$GNRMC,063328.00,A,0419.82868,S,05539.88942,E,0.131,,020625,,,A*7A
$GNVTG,,T,,M,0.131,N,0.243,K,A*3B
$GNGNS,063328.00,0419.82868,S,05539.88942,E,AA,09,1.11,9.9,-47.6,,*5C
$GNGGA,063328.00,0419.82868,S,05539.88942,E,1,09,1.11,9.9,M,-47.6,M,,*76
$GNGSA,A,3,05,12,15,23,25,,,,,,,,2.33,1.11,2.05*1C
$GNGSA,A,3,78,66,67,79,,,,,,,,,2.33,1.11,2.05*18
$GPGSV,4,1,16,05,28,030,27,10,16,214,20,12,68,125,22,13,12,095,20*75
$GPGSV,4,2,16,15,43,121,19,18,29,305,23,23,58,221,38,24,27,166,23*71
$GPGSV,4,3,16,25,72,331,32,28,08,280,,29,19,356,17,36,52,277,*76
$GPGSV,4,4,16,40,86,351,,41,58,082,,49,32,274,,50,10,089,*79
$GLGSV,3,1,10,65,10,051,,66,40,094,29,67,35,168,31,68,01,203,*66
$GLGSV,3,2,10,77,27,166,17,78,69,248,37,79,29,318,12,81,09,341,*67
$GLGSV,3,3,10,82,05,298,,88,00,029,*63
$GNGLL,0419.82868,S,05539.88942,E,063328.00,A,A*63
$GNGRS,063328.00,1,-2.4,1.9,-0.3,-0.1,-5.7,,,,,,,*7C
$GNGRS,063328.00,1,4.9,8.5,-4.5,3.0,,,,,,,,*73
$GNGST,063328.00,3965255,,,,5.9,7.7,16*5B
$GNZDA,063328.00,02,06,2025,00,00*75
$GNGBS,063328.00,5.9,7.7,16.4,,,,*6C
$GNTXT,01,01,01,More than 100 frame errors, UART RX was disabled*70
b0L
D}#_+y1$:#HK
d{4V_:R 
Y{A
3B(^C#DMN#EO>$QUR*XFb6N
$GNRMC,063329.00,A,0419.82876,S,05539.88950,E,0.164,,020625,,,A*77
$GNVTG,,T,,M,0.164,N,0.304,K,A*39
$GNGNS,063329.00,0419.82876,S,05539.88950,E,AA,09,1.11,10.2,-47.6,,*62
$GNGGA,063329.00,0419.82876,S,05539.88950,E,1,09,1.11,10.2,M,-47.6,M,,*48
$GNGSA,A,3,05,12,15,23,25,,,,,,,,2.33,1.11,2.05*1C
$GNGSA,A,3,78,66,67,79,,,,,,,,,2.33,1.11,2.05*18
$GPGSV,4,1,16,05,28,030,28,10,16,214,20,12,68,125,22,13,12,095,19*70
$GPGSV,4,2,16,15,43,121,22,18,29,305,23,23,58,221,36,24,27,166,23*77
$GPGSV,4,3,16,25,72,331,35,28,08,280,,29,19,356,16,36,52,277,*70
$GPGSV,4,4,16,40,86,351,,41,58,082,,49,32,274,,50,10,089,*79
$GLGSV,3,1,10,65,10,051,,66,40,094,28,67,35,168,30,68,01,203,*66
$GLGSV,3,2,10,77,27,166,18,78,69,248,35,79,29,318,12,81,09,341,*6A
$GLGSV,3,3,10,82,05,298,,88,00,029,*63
$GNGLL,0419.82876,S,05539.88950,E,063329.00,A,A*6E
$GNGRS,063329.00,1,-5.1,2.9,0.0,2.6,-3.2,,,,,,,*79
$GNGRS,063329.00,1,2.5,12.8,-6.4,2.9,,,,,,,,*45
$GNGST,063329.00,3965255,,,,5.8,7.6,16*5A
$GNZDA,063329.00,02,06,2025,00,00*74
$GNGBS,063329.00,5.8,7.6,16.3,,,,*6A
$GNTXT,01,01,01,More than 100 frame errors, UART RX was disabled*70
b0LK
D}_+y1%:/#HK
d{4V_:R 
Y{A
3B(^\C#NDMN#EuO>(QUR*XnUb66r$GNRMC,063330.00,A,0419.82881,S,05539.88956,E,0.083,,020625,,,A*79
$GNVTG,,T,,M,0.083,N,0.154,K,A*36
$GNGNS,063330.00,0419.82881,S,05539.88956,E,AA,08,1.42,10.7,-47.6,,*66
$GNGGA,063330.00,0419.82881,S,05539.88956,E,1,08,1.42,10.7,M,-47.6,M,,*4C
$GNGSA,A,3,05,12,15,23,25,,,,,,,,3.00,1.42,2.65*1D
$GNGSA,A,3,78,66,67,,,,,,,,,,3.00,1.42,2.65*17
$GPGSV,4,1,16,05,28,030,28,10,16,214,19,12,68,125,20,13,12,095,17*76
$GPGSV,4,2,16,15,43,121,24,18,29,305,20,23,58,221,37,24,27,166,22*72
$GPGSV,4,3,16,25,72,331,35,28,08,280,,29,19,356,15,36,52,277,*73
$GPGSV,4,4,16,40,86,351,,41,58,082,,49,32,274,,50,10,089,*79
$GLGSV,3,1,10,65,10,051,,66,40,094,27,67,35,168,31,68,01,203,*68
$GLGSV,3,2,10,77,27,166,17,78,69,248,35,79,29,318,12,81,09,341,*65
$GLGSV,3,3,10,82,05,298,,88,00,029,*63
$GNGLL,0419.82881,S,05539.88956,E,063330.00,A,A*68
$GNGRS,063330.00,1,-4.4,5.3,-1.0,3.0,-2.6,,,,,,,*56
$GNGRS,063330.00,1,3.7,13.7,-6.9,,,,,,,,,*68
$GNGST,063330.00,36,,,,5.7,7.6,16*63
$GNZDA,063330.00,02,06,2025,00,00*7C
$GNGBS,063330.00,5.7,7.6,16.3,,,,*6D
$GNTXT,01,01,01,More than 100 frame errors, UART RX was disabled*70
b0L!
D}_+y-1%: #HK
d{4V_:R 
Y{A
3B(^bC#RDMN#ErO>0QUR*X!b6]$GNRMC,063331.00,A,0419.82889,S,05539.88956,E,0.016,,020625,,,A*7C
$GNVTG,,T,,M,0.016,N,0.029,K,A*31
$GNGNS,063331.00,0419.82889,S,05539.88956,E,AA,08,1.42,10.8,-47.6,,*60
$GNGGA,063331.00,0419.82889,S,05539.88956,E,1,08,1.42,10.8,M,-47.6,M,,*4A
$GNGSA,A,3,05,12,15,23,25,,,,,,,,3.00,1.42,2.65*1D
$GNGSA,A,3,78,66,67,,,,,,,,,,3.00,1.42,2.65*17
$GPGSV,4,1,16,05,28,030,28,10,16,214,20,12,68,125,17,13,12,095,14*7B
$GPGSV,4,2,16,15,43,121,22,18,29,305,19,23,58,221,37,24,27,166,23*7F
$GPGSV,4,3,16,25,72,331,35,28,08,280,,29,19,356,13,36,52,277,*75
$GPGSV,4,4,16,40,86,351,,41,58,082,,49,32,274,,50,10,089,*79
$GLGSV,3,1,10,65,10,051,,66,40,094,25,67,35,168,31,68,01,203,*6A
$GLGSV,3,2,10,77,27,166,17,78,69,248,35,79,29,318,12,81,09,341,*65
$GLGSV,3,3,10,82,05,298,,88,00,029,*63
$GNGLL,0419.82889,S,05539.88956,E,063331.00,A,A*61
$GNGRS,063331.00,1,-7.4,1.8,-2.1,2.9,-6.1,,,,,,,*52
$GNGRS,063331.00,1,1.1,21.5,-9.4,,,,,,,,,*6C
$GNGST,063331.00,41,,,,5.6,7.5,16*60
$GNZDA,063331.00,02,06,2025,00,00*7D
$GNGBS,063331.00,5.6,7.5,16.2,,,,*6F
$GNTXT,01,01,01,More than 100 frame errors, UART RX was disabled*70
b0L
D}6_+y1$:AHK
d{4V_:R 
Y{A
3B(^C#DMN$EBO>CQUR*Xb65B$GNRMC,063332.00,A,0419.82891,S,05539.88963,E,0.129,,020625,,,A*7D
$GNVTG,,T,,M,0.129,N,0.240,K,A*31
$GNGNS,063332.00,0419.82891,S,05539.88963,E,AA,08,1.42,11.4,-47.6,,*61
$GNGGA,063332.00,0419.82891,S,05539.88963,E,1,08,1.42,11.4,M,-47.6,M,,*4B
$GNGSA,A,3,05,12,15,23,25,,,,,,,,3.00,1.42,2.65*1D
$GNGSA,A,3,78,66,67,,,,,,,,,,3.00,1.42,2.65*17
$GPGSV,4,1,16,05,28,030,28,10,16,214,20,12,68,125,18,13,12,095,14*74
$GPGSV,4,2,16,15,43,121,21,18,29,305,21,23,58,221,36,24,27,166,26*73
$GPGSV,4,3,16,25,72,331,31,28,08,280,,29,19,356,14,36,52,277,*76
$GPGSV,4,4,16,40,86,351,,41,58,082,,49,32,274,,50,10,089,*79
$GLGSV,3,1,10,65,10,051,,66,40,094,26,67,35,168,31,68,01,203,*69
$GLGSV,3,2,10,77,27,166,16,78,69,248,36,79,29,318,12,81,09,341,*67
$GLGSV,3,3,10,82,05,298,,88,00,029,*63
$GNGLL,0419.82891,S,05539.88963,E,063332.00,A,A*6D
$GNGRS,063332.00,1,-7.4,0.5,-3.4,3.2,-3.4,,,,,,,*53
$GNGRS,063332.00,1,0.7,15.2,-11.5,,,,,,,,,*50
$GNGST,063332.00,40,,,,5.6,7.5,16*62
$GNZDA,063332.00,02,06,2025,00,00*7E
$GNGBS,063332.00,5.6,7.5,16.2,,,,*6C
$GNTXT,01,01,01,More than 100 frame errors, UART RX was disabled*70
b0L^
D}_+y1$:SHK
d{4V_:R 
Y{A
3B(^C#DMN%EO>QUR*Xb6$GNRMC,063333.00,A,0419.82901,S,05539.88971,E,0.086,,020625,,,A*73
$GNVTG,,T,,M,0.086,N,0.159,K,A*3E
$GNGNS,063333.00,0419.82901,S,05539.88971,E,AA,09,1.11,12.2,-47.6,,*69
$GNGGA,063333.00,0419.82901,S,05539.88971,E,1,09,1.11,12.2,M,-47.6,M,,*43
$GNGSA,A,3,05,12,15,23,25,,,,,,,,2.33,1.11,2.05*1C
$GNGSA,A,3,78,66,67,79,,,,,,,,,2.33,1.11,2.05*18
$GPGSV,4,1,16,05,28,030,31,10,16,214,20,12,68,125,21,13,12,095,14*76
$GPGSV,4,2,16,15,43,121,20,18,29,305,24,23,58,221,36,24,27,166,27*76
$GPGSV,4,3,16,25,72,331,31,28,08,280,,29,19,356,14,36,52,277,*76
$GPGSV,4,4,16,40,86,351,,41,58,082,,49,32,274,,50,10,089,*79
$GLGSV,3,1,10,65,10,051,,66,40,094,27,67,35,168,31,68,01,203,*68
$GLGSV,3,2,10,77,27,166,16,78,69,248,37,79,29,318,14,81,09,341,*60
$GLGSV,3,3,10,82,05,298,,88,00,029,*63
$GNGLL,0419.82901,S,05539.88971,E,063333.00,A,A*67
$GNGRS,063333.00,1,-11.9,0.3,-5.1,3.4,-2.7,,,,,,,*69
$GNGRS,063333.00,1,-0.1,16.7,-10.9,0.2,,,,,,,,*5D
$GNGST,063333.00,48,,,,5.5,7.4,16*69
$GNZDA,063333.00,02,06,2025,00,00*7F
$GNGBS,063333.00,5.5,7.4,16.1,,,,*6C
$GNTXT,01,01,01,More than 100 frame errors, UART RX was disabled*70
b0LY
D}i_+yS1%:=#HK
d{4V_:R 
Y{A
3B(^C#gDMN%EO>7QUR*XGb6$GNRMC,063334.00,A,0419.82914,S,05539.88967,E,0.022,,020625,,,A*79
$GNVTG,,T,,M,0.022,N,0.041,K,A*38
$GNGNS,063334.00,0419.82914,S,05539.88967,E,AA,09,1.11,12.2,-47.6,,*6D
$GNGGA,063334.00,0419.82914,S,05539.88967,E,1,09,1.11,12.2,M,-47.6,M,,*47
$GNGSA,A,3,05,12,15,23,25,,,,,,,,2.33,1.11,2.05*1C
$GNGSA,A,3,78,66,67,79,,,,,,,,,2.33,1.11,2.05*18
$GPGSV,4,1,16,05,28,030,30,10,16,214,20,12,68,125,19,13,12,095,15*7D
$GPGSV,4,2,16,15,43,121,21,18,29,305,25,23,58,221,37,24,27,166,27*77
$GPGSV,4,3,16,25,72,331,35,28,08,280,,29,19,356,16,36,52,277,*70
$GPGSV,4,4,16,40,86,351,,41,58,082,,49,32,274,,50,10,089,*79
$GLGSV,3,1,10,65,10,051,,66,40,094,27,67,35,168,30,68,01,203,*69
$GLGSV,3,2,10,77,27,166,18,78,69,248,37,79,29,318,14,81,09,341,*6E
$GLGSV,3,3,10,82,05,298,,88,00,029,*63
$GNGLL,0419.82914,S,05539.88967,E,063334.00,A,A*63
$GNGRS,063334.00,1,-11.9,-1.5,-4.3,3.2,-3.8,,,,,,,*4F
$GNGRS,063334.00,1,0.0,14.7,-4.1,3.1,,,,,,,,*49
$GNGST,063334.00,47967,,,,5.4,7.4,16*58
$GNZDA,063334.00,02,06,2025,00,00*78
$GNGBS,063334.00,5.4,7.4,16.0,,,,*6B
$GNTXT,01,01,01,More than 100 frame errors, UART RX was disabled*70
b0LhM
D}_+yG1':HKG
d{4V_:R 
Y{A
2B(^%C#WDMN$EO>@QUR*X8bh6w$GNRMC,063335.00,A,0419.82923,S,05539.88971,E,0.045,,020625,,,A*7A
$GNVTG,,T,,M,0.045,N,0.084,K,A*30
$GNGNS,063335.00,0419.82923,S,05539.88971,E,AA,09,1.11,12.6,-47.6,,*6B
$GNGGA,063335.00,0419.82923,S,05539.88971,E,1,09,1.11,12.6,M,-47.6,M,,*41
$GNGSA,A,3,05,12,15,23,25,,,,,,,,2.33,1.11,2.05*1C
$GNGSA,A,3,78,66,67,79,,,,,,,,,2.33,1.11,2.05*18
$GPGSV,4,1,16,05,28,030,30,10,16,214,20,12,68,125,20,13,12,095,16*74
$GPGSV,4,2,16,15,43,121,21,18,29,305,24,23,58,221,39,24,27,166,27*78
$GPGSV,4,3,16,25,72,331,31,28,08,280,,29,19,356,19,36,52,277,*7B
$GPGSV,4,4,16,40,86,351,,41,58,082,,49,32,274,,50,10,089,*79
$GLGSV,3,1,10,65,10,050,,66,40,094,28,67,35,168,30,68,01,203,*67
$GLGSV,3,2,10,77,27,166,18,78,69,246,36,79,29,318,18,81,09,341,*6D
$GLGSV,3,3,10,82,05,298,,88,00,029,*63
$GNGLL,0419.82923,S,05539.88971,E,063335.00,A,A*61
$GNGRS,063335.00,1,-9.5,-3.2,-4.4,2.5,0.7,,,,,,,*5E
$GNGRS,063335.00,1,0.1,13.2,0.9,3.2,,,,,,,,*69
$GNGST,063335.00,71950,,,,5.4,7.4,16*58
$GNZDA,063335.00,02,06,2025,00,00*79
$GNGBS,063335.00,5.4,7.4,16.0,,,,*6A
$GNTXT,01,01,01,More than 100 frame errors, UART RX was disabled*70
b0LP
D}>_+y1%:HK
d{4V_!:R 
Y{A
2B(]JC#DMN!EO>wQUR*XdybP6$GNRMC,063336.00,A,0419.82928,S,05539.88975,E,0.161,,020625,,,A*71
$GNVTG,,T,,M,0.161,N,0.299,K,A*39
$GNGNS,063336.00,0419.82928,S,05539.88975,E,AA,09,1.11,12.8,-47.6,,*69
$GNGGA,063336.00,0419.82928,S,05539.88975,E,1,09,1.11,12.8,M,-47.6,M,,*43
$GNGSA,A,3,05,12,15,23,25,,,,,,,,2.34,1.11,2.05*1B
$GNGSA,A,3,78,66,67,79,,,,,,,,,2.34,1.11,2.05*1F
$GPGSV,4,1,16,05,28,030,30,10,16,214,21,12,68,125,21,13,12,095,17*75
$GPGSV,4,2,16,15,43,121,22,18,29,305,22,23,58,221,37,24,27,166,27*73
$GPGSV,4,3,16,25,72,331,31,28,08,280,,29,19,356,19,36,52,277,*7B
$GPGSV,4,4,16,40,86,351,,41,58,082,33,49,32,274,,50,10,089,*79
$GLGSV,3,1,10,65,10,050,,66,40,093,27,67,35,168,30,68,01,203,*6F
$GLGSV,3,2,10,77,27,166,17,78,69,246,33,79,29,318,18,81,09,341,*67
$GLGSV,3,3,10,82,05,298,,88,00,029,*63
$GNGLL,0419.82928,S,05539.88975,E,063336.00,A,A*6D
$GNGRS,063336.00,1,-7.9,-1.9,-5.1,2.1,-2.5,,,,,,,*7B
$GNGRS,063336.00,1,0.0,13.5,-3.2,3.7,,,,,,,,*4C
$GNGST,063336.00,44,,,,5.3,7.3,16*61
$GNZDA,063336.00,02,06,2025,00,00*7A
$GNGBS,063336.00,5.3,7.3,15.9,,,,*63
$GNTXT,01,01,01,More than 100 frame errors, UART RX was disabled*70
b0L8X
D}_+y-1!: HK
d{4V_:R 
Y{A
2B(]C$DMN E
O>QUR*Xb86mU$GNRMC,063337.00,A,0419.82923,S,05539.88977,E,0.075,,020625,,,A*7D
$GNVTG,,T,,M,0.075,N,0.139,K,A*34
$GNGNS,063337.00,0419.82923,S,05539.88977,E,AA,09,1.11,12.9,-47.6,,*60
$GNGGA,063337.00,0419.82923,S,05539.88977,E,1,09,1.11,12.9,M,-47.6,M,,*4A
$GNGSA,A,3,05,12,15,23,25,,,,,,,,2.34,1.11,2.05*1B
$GNGSA,A,3,78,66,67,79,,,,,,,,,2.34,1.11,2.05*1F
$GPGSV,4,1,16,05,28,030,28,10,16,214,21,12,68,125,20,13,12,095,16*7C
$GPGSV,4,2,16,15,43,121,23,18,29,305,23,23,58,221,33,24,27,166,28*78
$GPGSV,4,3,16,25,72,331,32,28,08,280,,29,19,356,16,36,52,277,*77
$GPGSV,4,4,16,40,86,351,,41,58,082,31,49,32,274,,50,10,089,*7B
$GLGSV,3,1,10,65,10,050,,66,40,093,28,67,36,167,31,68,01,203,*6D
$GLGSV,3,2,10,77,27,166,15,78,69,246,32,79,29,318,14,81,09,341,*68
$GLGSV,3,3,10,82,05,298,,88,00,029,*63
$GNGLL,0419.82923,S,05539.88977,E,063337.00,A,A*65
$GNGRS,063337.00,1,-4.2,-2.6,-7.2,2.3,-1.0,,,,,,,*7B
$GNGRS,063337.00,1,0.1,13.0,-10.6,2.0,,,,,,,,*79
$GNGST,063337.00,45,,,,5.3,7.3,16*61
$GNZDA,063337.00,02,06,2025,00,00*7B
$GNGBS,063337.00,5.3,7.3,15.8,,,,*63
$GNTXT,01,01,01,More than 100 frame errors, UART RX was disabled*70
b0L 
D}_+y1:HK
d{4V_ :R 
Y{A
2B(]{C$DMNEO>QUR*Xmb 6vE$GNRMC,063338.00,A,0419.82923,S,05539.88981,E,0.106,,020625,,,A*7E
$GNVTG,,T,,M,0.106,N,0.196,K,A*34
$GNGNS,063338.00,0419.82923,S,05539.88981,E,AA,09,1.11,13.2,-47.6,,*6C
$GNGGA,063338.00,0419.82923,S,05539.88981,E,1,09,1.11,13.2,M,-47.6,M,,*46
$GNGSA,A,3,05,12,15,23,25,,,,,,,,2.34,1.11,2.05*1B
$GNGSA,A,3,78,66,67,79,,,,,,,,,2.34,1.11,2.05*1F
$GPGSV,4,1,16,05,28,030,29,10,16,214,21,12,68,125,21,13,12,095,14*7E
$GPGSV,4,2,16,15,43,121,24,18,29,305,23,23,58,221,31,24,27,166,28*7D
$GPGSV,4,3,16,25,72,331,30,28,08,280,,29,19,356,12,36,52,277,*71
$GPGSV,4,4,16,40,86,351,,41,58,082,32,49,32,274,,50,10,089,*78
$GLGSV,3,1,10,65,10,050,,66,40,093,28,67,36,167,31,68,02,203,*6E
$GLGSV,3,2,10,77,27,166,12,78,69,246,31,79,29,318,15,81,09,341,*6D
$GLGSV,3,3,10,82,05,298,,88,00,029,*63
$GNGLL,0419.82923,S,05539.88981,E,063338.00,A,A*63
$GNGRS,063338.00,1,-5.1,-2.4,-8.8,2.5,0.2,,,,,,,*59
$GNGRS,063338.00,1,0.0,11.5,-8.1,2.1,,,,,,,,*4F
$GNGST,063338.00,43,,,,5.2,7.2,16*68
$GNZDA,063338.00,02,06,2025,00,00*74
$GNGBS,063338.00,5.2,7.2,15.7,,,,*63
$GNTXT,01,01,01,More than 100 frame errors, UART RX was disabled*70
b0L
D}_+y1!:HK

d{4V_ :R 
Y{A
2B(]sC$tDMNEO>QUR*Xl3b6^%$GNRMC,063339.00,A,0419.82924,S,05539.88986,E,0.077,,020625,,,A*78
$GNVTG,,T,,M,0.077,N,0.143,K,A*3B
$GNGNS,063339.00,0419.82924,S,05539.88986,E,AA,09,1.11,13.7,-47.6,,*68
$GNGGA,063339.00,0419.82924,S,05539.88986,E,1,09,1.11,13.7,M,-47.6,M,,*42
$GNGSA,A,3,05,12,15,23,25,,,,,,,,2.34,1.11,2.05*1B
$GNGSA,A,3,78,66,67,79,,,,,,,,,2.34,1.11,2.05*1F
$GPGSV,4,1,16,05,28,030,30,10,16,214,20,12,68,125,21,13,12,095,12*71
$GPGSV,4,2,16,15,43,121,24,18,29,305,23,23,58,221,33,24,27,166,29*7E
$GPGSV,4,3,16,25,72,331,30,28,08,280,,29,19,356,09,36,52,277,*7B
$GPGSV,4,4,16,40,86,351,,41,58,082,32,49,32,274,,50,10,089,*78
$GLGSV,3,1,10,65,10,050,,66,40,093,29,67,36,167,31,68,02,203,*6F
$GLGSV,3,2,10,77,27,166,11,78,69,246,31,79,29,318,17,81,09,341,*6C
$GLGSV,3,3,10,82,05,298,,88,00,029,*63
$GNGLL,0419.82924,S,05539.88986,E,063339.00,A,A*62
$GNGRS,063339.00,1,-8.4,-0.6,-8.3,2.5,-2.5,,,,,,,*73
$GNGRS,063339.00,1,-0.2,11.4,-6.5,4.6,,,,,,,,*6B
$GNGST,063339.00,40,,,,5.2,7.2,16*6A
$GNZDA,063339.00,02,06,2025,00,00*75
$GNGBS,063339.00,5.2,7.2,15.6,,,,*63
$GNTXT,01,01,01,More than 100 frame errors, UART RX was disabled*70
b0Ls
D}A_+y31&:!"HK
d{4V_ :R 
Y{A
2B(]pC$DMNEO>QUR*X!b6F~$GNRMC,063340.00,A,0419.82930,S,05539.88985,E,0.144,,020625,,,A*71
$GNVTG,,T,,M,0.144,N,0.266,K,A*3E
$GNGNS,063340.00,0419.82930,S,05539.88985,E,AA,09,1.11,13.9,-47.6,,*6E
$GNGGA,063340.00,0419.82930,S,05539.88985,E,1,09,1.11,13.9,M,-47.6,M,,*44
$GNGSA,A,3,05,12,15,23,25,,,,,,,,2.34,1.11,2.05*1B
$GNGSA,A,3,78,66,67,79,,,,,,,,,2.34,1.11,2.05*1F
$GPGSV,4,1,16,05,28,030,29,10,16,214,20,12,68,125,23,13,12,095,09*71
$GPGSV,4,2,16,15,43,121,25,18,29,305,24,23,58,221,38,24,27,166,27*7D
$GPGSV,4,3,16,25,72,331,34,28,08,280,,29,19,356,11,36,52,277,*76
$GPGSV,4,4,16,40,86,351,,41,58,082,32,49,32,274,,50,10,089,*78
$GLGSV,3,1,10,65,10,050,,66,40,093,29,67,36,167,31,68,02,203,*6F
$GLGSV,3,2,10,77,27,166,13,78,69,246,31,79,29,318,17,81,09,341,*6E
$GLGSV,3,3,10,82,05,298,,88,00,029,*63
$GNGLL,0419.82930,S,05539.88985,E,063340.00,A,A*6A
$GNGRS,063340.00,1,-9.1,-1.9,-4.6,2.9,-3.6,,,,,,,*70
$GNGRS,063340.00,1,1.7,8.8,-5.7,4.3,,,,,,,,*7C
$GNGST,063340.00,40,,,,5.1,7.1,15*67
$GNZDA,063340.00,02,06,2025,00,00*7B
$GNGBS,063340.00,5.1,7.1,15.5,,,,*6E
$GNTXT,01,01,01,More than 100 frame errors, UART RX was disabled*70
b0LZ
D}_+y1&:!HK
d{4V_ :R 
Y{A
2B(]C$DMN#EO>QUR*X#b6.$GNRMC,063341.00,A,0419.82931,S,05539.88978,E,0.120,,020625,,,A*71
$GNVTG,,T,,M,0.120,N,0.221,K,A*3F
$GNGNS,063341.00,0419.82931,S,05539.88978,E,AA,09,1.11,14.0,-47.6,,*62
$GNGGA,063341.00,0419.82931,S,05539.88978,E,1,09,1.11,14.0,M,-47.6,M,,*48
$GNGSA,A,3,05,12,15,23,25,,,,,,,,2.34,1.11,2.05*1B
$GNGSA,A,3,78,66,67,79,,,,,,,,,2.34,1.11,2.05*1F
$GPGSV,4,1,16,05,28,030,27,10,16,214,21,12,68,125,25,13,12,095,12*72
$GPGSV,4,2,16,15,43,121,27,18,29,305,24,23,58,221,38,24,27,166,25*7D
$GPGSV,4,3,16,25,72,331,33,28,08,280,,29,19,356,12,36,52,277,*72
$GPGSV,4,4,16,40,86,351,,41,58,082,32,49,32,274,,50,10,089,*78
$GLGSV,3,1,10,65,10,050,,66,40,093,30,67,36,167,30,68,02,203,*66
$GLGSV,3,2,10,77,27,166,16,78,69,246,35,79,29,318,18,81,09,341,*60
$GLGSV,3,3,10,82,05,298,,88,00,029,*63
$GNGLL,0419.82931,S,05539.88978,E,063341.00,A,A*68
$GNGRS,063341.00,1,-11.9,-3.4,-3.4,2.9,-1.1,,,,,,,*4F
$GNGRS,063341.00,1,-0.5,2.0,-11.2,4.9,,,,,,,,*6B
$GNGST,063341.00,37,,,,5.1,7.0,15*67
$GNZDA,063341.00,02,06,2025,00,00*7A
$GNGBS,063341.00,5.1,7.0,15.4,,,,*6F
$GNTXT,01,01,01,More than 100 frame errors, UART RX was disabled*70
b0L
D}_+y}1&:!HKH
d{4V_ :R 
Y{A
2B(]C$DMN#EO>QUR*Xb6N$GNRMC,063342.00,A,0419.82930,S,05539.88971,E,0.073,,020625,,,A*7D
$GNVTG,,T,,M,0.073,N,0.136,K,A*3D
$GNGNS,063342.00,0419.82930,S,05539.88971,E,AA,09,1.11,14.2,-47.6,,*6B
$GNGGA,063342.00,0419.82930,S,05539.88971,E,1,09,1.11,14.2,M,-47.6,M,,*41
$GNGSA,A,3,05,12,15,23,25,,,,,,,,2.34,1.11,2.06*18
$GNGSA,A,3,78,66,67,79,,,,,,,,,2.34,1.11,2.06*1C
$GPGSV,4,1,16,05,28,030,25,10,16,214,19,12,68,125,25,13,12,095,13*7A
$GPGSV,4,2,16,15,43,121,27,18,29,305,22,23,58,221,38,24,27,166,24*7A
$GPGSV,4,3,16,25,72,331,33,28,08,280,,29,19,356,15,36,52,277,*75
$GPGSV,4,4,16,40,86,351,,41,58,082,32,49,32,274,,50,10,089,*78
$GLGSV,3,1,10,65,10,050,,66,40,093,30,67,36,167,31,68,02,203,*67
$GLGSV,3,2,10,77,27,166,18,78,69,246,35,79,29,318,19,81,09,341,*6F
$GLGSV,3,3,10,82,05,298,,88,00,029,*63
$GNGLL,0419.82930,S,05539.88971,E,063342.00,A,A*63
$GNGRS,063342.00,1,-6.3,-2.7,-1.3,2.8,-1.8,,,,,,,*7F
$GNGRS,063342.00,1,4.4,2.4,-10.4,4.3,,,,,,,,*49
$GNGST,063342.00,37,,,,5.0,6.9,15*6D
$GNZDA,063342.00,02,06,2025,00,00*79
$GNGBS,063342.00,5.0,6.9,15.3,,,,*62
$GNTXT,01,01,01,More than 100 frame errors, UART RX was disabled*70
b0L
D}P_+y1&:"HK?
d{4V_:R 
Y{A
2B(]C$%DMN#EO>QUR*Xb6{$GNRMC,063343.00,A,0419.82932,S,05539.88966,E,0.099,,020625,,,A*7C
$GNVTG,,T,,M,0.099,N,0.183,K,A*37
$GNGNS,063343.00,0419.82932,S,05539.88966,E,AA,09,1.12,14.4,-47.6,,*6B
$GNGGA,063343.00,0419.82932,S,05539.88966,E,1,09,1.12,14.4,M,-47.6,M,,*41
$GNGSA,A,3,05,12,15,23,25,,,,,,,,2.34,1.12,2.06*1B
$GNGSA,A,3,78,66,67,79,,,,,,,,,2.34,1.12,2.06*1F
$GPGSV,4,1,16,05,28,030,25,10,16,214,19,12,68,125,25,13,12,095,16*7F
$GPGSV,4,2,16,15,43,121,27,18,29,305,20,23,58,221,38,24,27,166,23*7F
$GPGSV,4,3,16,25,72,331,34,28,08,280,,29,19,356,17,36,52,277,*70
$GPGSV,4,4,16,40,86,351,,41,58,082,31,49,32,274,,50,10,089,*7B
$GLGSV,3,1,10,65,10,050,,66,40,093,29,67,36,167,30,68,02,203,*6E
$GLGSV,3,2,10,77,27,166,19,78,69,246,35,79,29,318,20,81,09,341,*64
$GLGSV,3,3,10,82,05,298,,88,00,029,*63
$GNGLL,0419.82932,S,05539.88966,E,063343.00,A,A*66
$GNGRS,063343.00,1,-5.9,-1.8,-1.3,2.0,-1.9,,,,,,,*72
$GNGRS,063343.00,1,5.4,2.7,-4.7,4.2,,,,,,,,*7D
$GNGST,063343.00,37,,,,5.0,6.8,15*6D
$GNZDA,063343.00,02,06,2025,00,00*78
$GNGBS,063343.00,5.0,6.8,15.2,,,,*63
$GNTXT,01,01,01,More than 100 frame errors, UART RX was disabled*70
b0L
D}v_+y%1 :HKk
d{4V_ :R 
Y{A
2B(]C$DMNEeO>QUR*Xb6S$GNRMC,063344.00,A,0419.82934,S,05539.88968,E,0.146,,020625,,,A*70
$GNVTG,,T,,M,0.146,N,0.270,K,A*3B
$GNGNS,063344.00,0419.82934,S,05539.88968,E,AA,09,1.12,14.6,-47.6,,*66
$GNGGA,063344.00,0419.82934,S,05539.88968,E,1,09,1.12,14.6,M,-47.6,M,,*4C
$GNGSA,A,3,05,12,15,23,25,,,,,,,,2.34,1.12,2.06*1B
$GNGSA,A,3,78,66,67,79,,,,,,,,,2.34,1.12,2.06*1F
$GPGSV,4,1,16,05,28,030,26,10,16,214,18,12,68,125,24,13,12,095,19*73
$GPGSV,4,2,16,15,43,121,27,18,29,305,17,23,58,221,32,24,27,166,24*76
$GPGSV,4,3,16,25,72,331,31,28,08,280,,29,19,356,18,36,52,277,*7A
$GPGSV,4,4,16,40,86,351,,41,58,082,32,49,32,274,,50,10,089,*78
$GLGSV,3,1,10,65,10,050,,66,40,093,29,67,36,167,31,68,02,203,*6F
$GLGSV,3,2,10,77,27,166,18,78,69,246,31,79,29,318,19,81,09,341,*6B
$GLGSV,3,3,10,82,05,298,,88,00,029,*63
$GNGLL,0419.82934,S,05539.88968,E,063344.00,A,A*69
$GNGRS,063344.00,1,-5.3,-1.4,-2.2,2.2,-1.5,,,,,,,*7F
$GNGRS,063344.00,1,6.1,4.3,-3.7,2.3,,,,,,,,*7E
$GNGST,063344.00,39,,,,5.0,6.8,15*64
$GNZDA,063344.00,02,06,2025,00,00*7F
$GNGBS,063344.00,5.0,6.8,15.1,,,,*67
$GNTXT,01,01,01,More than 100 frame errors, UART RX was disabled*70
b0Lx
D}_+yh1:HK
d{4V_!:R 
Y{A
2B(]C $DMNE]O>iQUR*Xbx6+$GNRMC,063345.00,A,0419.82934,S,05539.88966,E,0.067,,020625,,,A*7D
$GNVTG,,T,,M,0.067,N,0.125,K,A*3A
$GNGNS,063345.00,0419.82934,S,05539.88966,E,AA,09,1.12,14.6,-47.6,,*69
$GNGGA,063345.00,0419.82934,S,05539.88966,E,1,09,1.12,14.6,M,-47.6,M,,*43
$GNGSA,A,3,05,12,15,23,25,,,,,,,,2.34,1.12,2.06*1B
$GNGSA,A,3,78,66,67,79,,,,,,,,,2.34,1.12,2.06*1F
$GPGSV,4,1,16,05,28,030,28,10,16,214,15,12,68,125,23,13,12,095,18*76
$GPGSV,4,2,16,15,43,121,27,18,29,305,19,23,58,221,30,24,27,166,25*7B
$GPGSV,4,3,16,25,72,331,31,28,08,280,,29,19,356,17,36,52,277,*75
$GPGSV,4,4,16,40,86,351,,41,58,082,33,49,32,274,,50,10,089,*79
$GLGSV,3,1,10,65,10,050,,66,40,093,29,67,36,167,32,68,02,203,*6C
$GLGSV,3,2,10,77,27,166,16,78,69,246,30,79,29,318,19,81,09,341,*64
$GLGSV,3,3,10,82,05,298,,88,00,029,*63
$GNGLL,0419.82934,S,05539.88966,E,063345.00,A,A*66
$GNGRS,063345.00,1,-2.8,-1.2,-1.5,2.4,-3.0,,,,,,,*71
$GNGRS,063345.00,1,6.0,4.6,-3.5,3.6,,,,,,,,*7D
$GNGST,063345.00,40,,,,4.9,6.7,15*6C
$GNZDA,063345.00,02,06,2025,00,00*7E
$GNGBS,063345.00,4.9,6.7,15.0,,,,*60
$GNTXT,01,01,01,More than 100 frame errors, UART RX was disabled*70
b0L`#/
D}M_+y1:HK
d{4V_ :R 
Y{A
2B(]C $sDMNEO>'QUR*Xb`#6$GNRMC,063346.00,A,0419.82938,S,05539.88967,E,0.082,,020625,,,A*78
$GNVTG,,T,,M,0.082,N,0.152,K,A*31
$GNGNS,063346.00,0419.82938,S,05539.88967,E,AA,09,1.12,14.8,-47.6,,*69
$GNGGA,063346.00,0419.82938,S,05539.88967,E,1,09,1.12,14.8,M,-47.6,M,,*43
$GNGSA,A,3,05,12,15,23,25,,,,,,,,2.34,1.12,2.06*1B
$GNGSA,A,3,78,66,67,79,,,,,,,,,2.34,1.12,2.06*1F
$GPGSV,4,1,16,05,28,030,28,10,16,214,12,12,68,125,21,13,12,095,16*7D
$GPGSV,4,2,16,15,43,121,27,18,29,305,22,23,58,221,29,24,27,166,26*78
$GPGSV,4,3,16,25,72,331,31,28,08,280,,29,19,356,18,36,52,277,*7A
$GPGSV,4,4,16,40,86,351,,41,58,082,32,49,32,274,,50,10,089,*78
$GLGSV,3,1,10,65,10,050,,66,40,093,28,67,36,167,32,68,02,203,*6D
$GLGSV,3,2,10,77,27,166,15,78,69,246,30,79,29,318,16,81,09,341,*68
$GLGSV,3,3,10,82,05,298,,88,00,029,*63
$GNGLL,0419.82938,S,05539.88967,E,063346.00,A,A*68
$GNGRS,063346.00,1,-4.6,0.8,-3.0,2.9,1.5,,,,,,,*7C
$GNGRS,063346.00,1,6.5,4.0,3.7,2.9,,,,,,,,*5C
$GNGST,063346.00,41,,,,4.9,6.6,15*6F
$GNZDA,063346.00,02,06,2025,00,00*7D
$GNGBS,063346.00,4.9,6.6,14.9,,,,*6A
$GNTXT,01,01,01,More than 100 frame errors, UART RX was disabled*70
b0LH',

D}_+y_1:HK
d{4V_ :R 
Y{A
2B(]C $yDMNEO>QUR*XbH'6U$GNRMC,063347.00,A,0419.82944,S,05539.88974,E,0.155,,020625,,,A*7B
$GNVTG,,T,,M,0.155,N,0.286,K,A*30
$GNGNS,063347.00,0419.82944,S,05539.88974,E,AA,09,1.12,15.1,-47.6,,*69
$GNGGA,063347.00,0419.82944,S,05539.88974,E,1,09,1.12,15.1,M,-47.6,M,,*43
$GNGSA,A,3,05,12,15,23,25,,,,,,,,2.34,1.12,2.06*1B
$GNGSA,A,3,78,66,67,79,,,,,,,,,2.34,1.12,2.06*1F
$GPGSV,4,1,16,05,28,030,28,10,16,214,10,12,68,125,19,13,12,095,13*71
$GPGSV,4,2,16,15,43,121,26,18,29,305,23,23,58,221,29,24,27,166,25*7B
$GPGSV,4,3,16,25,72,331,31,28,08,280,,29,19,356,20,36,52,277,*71
$GPGSV,4,4,16,40,86,351,,41,58,082,32,49,32,274,,50,10,089,*78
$GLGSV,3,1,10,65,10,050,,66,40,093,29,67,36,167,32,68,02,203,*6C
$GLGSV,3,2,10,77,26,165,14,78,69,246,31,79,29,318,12,81,09,341,*6E
$GLGSV,3,3,10,82,05,298,,88,00,029,*63
$GNGLL,0419.82944,S,05539.88974,E,063347.00,A,A*60
$GNGRS,063347.00,1,-4.7,1.3,-4.2,4.5,-0.3,,,,,,,*53
$GNGRS,063347.00,1,1.8,4.9,1.2,-0.3,,,,,,,,*7C
$GNGST,063347.00,44,,,,4.9,6.6,15*6B
$GNZDA,063347.00,02,06,2025,00,00*7C
$GNGBS,063347.00,4.9,6.6,14.8,,,,*6A
$GNTXT,01,01,01,More than 100 frame errors, UART RX was disabled*70
b0L0+@

D}_+y[1:!HKd{4V_ :R 
Y{A
2B(]C!$DMNErO>7QUR*X>b0+6$GNRMC,063348.00,A,0419.82945,S,05539.88976,E,0.089,,020625,,,A*77
$GNVTG,,T,,M,0.089,N,0.165,K,A*3E
$GNGNS,063348.00,0419.82945,S,05539.88976,E,AA,09,1.12,15.4,-47.6,,*60
$GNGGA,063348.00,0419.82945,S,05539.88976,E,1,09,1.12,15.4,M,-47.6,M,,*4A
$GNGSA,A,3,05,12,15,23,25,,,,,,,,2.34,1.12,2.06*1B
$GNGSA,A,3,78,66,67,79,,,,,,,,,2.34,1.12,2.06*1F
$GPGSV,4,1,16,05,28,030,28,10,16,214,10,12,68,125,20,13,12,095,14*7C
$GPGSV,4,2,16,15,43,121,27,18,29,305,24,23,58,221,28,24,27,166,25*7C
$GPGSV,4,3,16,25,72,331,31,28,08,280,,29,19,356,20,36,52,277,*71
$GPGSV,4,4,16,40,86,351,,41,58,082,32,49,32,274,,50,10,089,*78
$GLGSV,3,1,10,65,10,050,,66,40,093,29,67,36,167,33,68,02,203,*6D
$GLGSV,3,2,10,77,26,165,13,78,69,246,31,79,29,318,13,81,09,341,*68
$GLGSV,3,3,10,82,05,298,,88,00,029,*63
$GNGLL,0419.82945,S,05539.88976,E,063348.00,A,A*6C
$GNGRS,063348.00,1,-4.5,2.7,-1.6,5.5,-0.6,,,,,,,*5C
$GNGRS,063348.00,1,3.7,2.4,-3.8,-2.0,,,,,,,,*51
$GNGST,063348.00,42,,,,4.8,6.6,15*63
$GNZDA,063348.00,02,06,2025,00,00*73
$GNGBS,063348.00,4.8,6.6,14.8,,,,*64
$GNTXT,01,01,01,More than 100 frame errors, UART RX was disabled*70
b0L/5
D}_+yO1:HKX
d{4V_:R 
Y{A
2B(]C $DMN EnO=AQUR*Xb/6n
%$GNRMC,063349.00,A,0419.82946,S,05539.88977,E,0.026,,020625,,,A*71
$GNVTG,,T,,M,0.026,N,0.049,K,A*34
$GNGNS,063349.00,0419.82946,S,05539.88977,E,AA,09,1.12,15.7,-47.6,,*60
$GNGGA,063349.00,0419.82946,S,05539.88977,E,1,09,1.12,15.7,M,-47.6,M,,*4A
$GNGSA,A,3,05,12,15,23,25,,,,,,,,2.34,1.12,2.06*1B
$GNGSA,A,3,78,66,67,79,,,,,,,,,2.34,1.12,2.06*1F
$GPGSV,4,1,16,05,28,030,28,10,16,214,15,12,68,125,22,13,12,095,16*79
$GPGSV,4,2,16,15,43,121,27,18,29,305,24,23,58,221,29,24,27,166,24*7C
$GPGSV,4,3,16,25,72,331,31,28,08,280,,29,19,356,22,36,52,277,*73
$GPGSV,4,4,16,40,86,351,,41,58,082,31,49,32,274,,50,10,089,*7B
$GLGSV,3,1,10,65,10,050,,66,40,093,30,67,36,167,32,68,02,203,*64
$GLGSV,3,2,10,77,26,165,16,78,69,246,32,79,30,317,13,81,09,341,*69
$GLGSV,3,3,10,82,05,298,,88,00,029,*63
$GNGLL,0419.82946,S,05539.88977,E,063349.00,A,A*6F
$GNGRS,063349.00,1,-4.6,1.3,-1.8,4.1,0.9,,,,,,,*70
$GNGRS,063349.00,1,1.1,5.1,-3.8,-1.9,,,,,,,,*5C
$GNGST,063349.00,42,,,,4.8,6.5,15*61
$GNZDA,063349.00,02,06,2025,00,00*72
$GNGBS,063349.00,4.8,6.5,14.7,,,,*69
$GNTXT,01,01,01,More than 100 frame errors, UART RX was disabled*70
b0L3
D}_+y1%:HK
d{4V_:R 
Y{A
2B(]C $DMN EO=QUR*X6b36Vd$GNRMC,063350.00,A,0419.82946,S,05539.88976,E,0.021,,020625,,,A*7F
$GNVTG,,T,,M,0.021,N,0.039,K,A*34
$GNGNS,063350.00,0419.82946,S,05539.88976,E,AA,09,1.12,16.0,-47.6,,*6D
$GNGGA,063350.00,0419.82946,S,05539.88976,E,1,09,1.12,16.0,M,-47.6,M,,*47
$GNGSA,A,3,05,12,15,23,25,,,,,,,,2.34,1.12,2.06*1B
$GNGSA,A,3,78,66,67,79,,,,,,,,,2.34,1.12,2.06*1F
$GPGSV,4,1,16,05,28,030,28,10,16,214,16,12,68,125,23,13,12,095,18*75
$GPGSV,4,2,16,15,43,121,25,18,29,305,21,23,58,221,37,24,27,166,24*74
$GPGSV,4,3,16,25,72,331,31,28,08,280,,29,19,356,22,36,52,277,*73
$GPGSV,4,4,16,40,86,351,,41,58,082,31,49,32,274,,50,10,089,*7B
$GLGSV,3,1,10,65,10,050,,66,40,093,30,67,36,167,32,68,02,203,*64
$GLGSV,3,2,10,77,26,165,16,78,69,246,32,79,30,317,12,81,09,341,*68
$GLGSV,3,3,10,82,05,298,,88,00,029,*63
$GNGLL,0419.82946,S,05539.88976,E,063350.00,A,A*66
$GNGRS,063350.00,1,-5.6,0.1,-2.4,2.3,2.7,,,,,,,*7D
$GNGRS,063350.00,1,-0.8,3.9,-3.3,-0.6,,,,,,,,*7A
$GNGST,063350.00,46,,,,4.8,6.5,15*6D
$GNZDA,063350.00,02,06,2025,00,00*7A
$GNGBS,063350.00,4.8,6.5,14.7,,,,*61
$GNTXT,01,01,01,More than 100 frame errors, UART RX was disabled*70
b0L6
D}@_+y1&:#HK
d{4V_:R 
Y{A
2B(]C$UDMN$EO=*QVR*X(b66>;$GNRMC,063351.00,A,0419.82953,S,05539.88981,E,0.025,,020625,,,A*76
$GNVTG,,T,,M,0.025,N,0.047,K,A*39
$GNGNS,063351.00,0419.82953,S,05539.88981,E,AA,09,1.12,16.0,-47.6,,*60
$GNGGA,063351.00,0419.82953,S,05539.88981,E,1,09,1.12,16.0,M,-47.6,M,,*4A
$GNGSA,A,3,05,12,15,23,25,,,,,,,,2.34,1.12,2.06*1B
$GNGSA,A,3,78,66,67,79,,,,,,,,,2.34,1.12,2.06*1F
$GPGSV,4,1,16,05,28,030,29,10,16,214,19,12,68,125,26,13,12,095,17*71
$GPGSV,4,2,16,15,43,121,22,18,29,305,,23,58,221,38,24,27,166,23*78
$GPGSV,4,3,16,25,72,331,35,28,08,280,,29,19,356,23,36,52,277,*76
$GPGSV,4,4,16,40,86,351,,41,58,082,30,49,32,274,,50,10,089,*7A
$GLGSV,3,1,10,65,10,050,,66,40,093,31,67,36,167,30,68,02,203,*67
$GLGSV,3,2,10,77,26,165,18,78,69,246,36,79,30,317,11,81,08,342,*63
$GLGSV,3,3,10,82,05,298,,88,00,029,*63
$GNGLL,0419.82953,S,05539.88981,E,063351.00,A,A*6B
$GNGRS,063351.00,1,-5.3,0.6,-1.3,2.8,-2.7,,,,,,,*5C
$GNGRS,063351.00,1,-3.8,7.4,-1.7,-4.7,,,,,,,,*72
$GNGST,063351.00,45,,,,4.7,6.5,15*60
$GNZDA,063351.00,02,06,2025,00,00*7B
$GNGBS,063351.00,4.7,6.5,14.6,,,,*6E
$GNTXT,01,01,01,More than 100 frame errors, UART RX was disabled*70
b0L:]
D}_+yo1%:e#HK
d{4V_:R 
Y{A
2B (]HC$RDMN$E>O=QVR*X"ab:6&N$GNRMC,063352.00,A,0419.82958,S,05539.88990,E,0.067,,020625,,,A*78
$GNVTG,,T,,M,0.067,N,0.125,K,A*3A
$GNGNS,063352.00,0419.82958,S,05539.88990,E,AA,09,1.12,16.0,-47.6,,*68
$GNGGA,063352.00,0419.82958,S,05539.88990,E,1,09,1.12,16.0,M,-47.6,M,,*42
$GNGSA,A,3,05,12,15,23,25,,,,,,,,2.34,1.12,2.06*1B
$GNGSA,A,3,78,66,67,79,,,,,,,,,2.34,1.12,2.06*1F
$GPGSV,4,1,16,05,28,030,28,10,16,214,20,12,68,125,26,13,12,095,17*7A
$GPGSV,4,2,16,15,43,121,22,18,29,305,,23,58,221,37,24,27,166,23*77
$GPGSV,4,3,16,25,72,331,35,28,08,280,,29,19,356,23,36,52,277,*76
$GPGSV,4,4,16,40,86,351,,41,58,082,31,49,32,274,,50,10,089,*7B
$GLGSV,3,1,10,65,10,050,,66,40,093,32,67,36,167,31,68,02,203,*65
$GLGSV,3,2,10,77,26,165,18,78,69,246,36,79,30,317,12,81,08,342,*60
$GLGSV,3,3,10,82,05,298,,88,00,029,*63
$GNGLL,0419.82958,S,05539.88990,E,063352.00,A,A*63
$GNGRS,063352.00,1,-4.2,1.6,1.1,1.0,-2.4,,,,,,,*79
$GNGRS,063352.00,1,-4.5,5.8,-1.7,-5.5,,,,,,,,*76
$GNGST,063352.00,43,,,,4.7,6.4,15*64
$GNZDA,063352.00,02,06,2025,00,00*78
$GNGBS,063352.00,4.7,6.4,14.5,,,,*6F
$GNTXT,01,01,01,More than 100 frame errors, UART RX was disabled*70
b0L>
D}_+y1%:"HK
d{4V_ :R 
Y{A
2B(]C$DMN$EO=OQVR*Xb>6$GNRMC,063353.00,A,0419.82960,S,05539.88994,E,0.063,,020625,,,A*72
$GNVTG,,T,,M,0.063,N,0.117,K,A*3F
$GNGNS,063353.00,0419.82960,S,05539.88994,E,AA,09,1.12,16.2,-47.6,,*64
$GNGGA,063353.00,0419.82960,S,05539.88994,E,1,09,1.12,16.2,M,-47.6,M,,*4E
$GNGSA,A,3,05,12,15,23,25,,,,,,,,2.34,1.12,2.06*1B
$GNGSA,A,3,78,66,67,79,,,,,,,,,2.34,1.12,2.06*1F
$GPGSV,4,1,16,05,28,030,28,10,16,214,19,12,68,125,26,13,12,095,16*71
$GPGSV,4,2,16,15,43,121,21,18,29,305,,23,58,221,37,24,27,166,22*75
$GPGSV,4,3,16,25,72,331,34,28,08,280,,29,19,356,22,36,52,277,*76
$GPGSV,4,4,16,40,86,351,,41,58,082,32,49,32,274,,50,10,089,*78
$GLGSV,3,1,10,65,10,050,,66,40,093,31,67,36,167,31,68,02,203,*66
$GLGSV,3,2,10,77,26,165,19,78,69,246,36,79,30,317,13,81,08,342,*60
$GLGSV,3,3,10,82,05,298,,88,00,029,*63
$GNGLL,0419.82960,S,05539.88994,E,063353.00,A,A*6D
$GNGRS,063353.00,1,-5.5,-0.1,4.6,2.6,0.0,,,,,,,*79
$GNGRS,063353.00,1,-3.3,4.8,-3.3,-4.3,,,,,,,,*76
$GNGST,063353.00,43,,,,4.7,6.4,14*64
$GNZDA,063353.00,02,06,2025,00,00*79
$GNGBS,063353.00,4.7,6.4,14.4,,,,*6F
$GNTXT,01,01,01,More than 100 frame errors, UART RX was disabled*70
b0LB
D}@_+y1%:WHK
d{4V_ :R 
Y{A
2B (]C$DMN%EO=yQVR*XbB6$GNRMC,063354.00,A,0419.82966,S,05539.89001,E,0.131,,020625,,,A*71
$GNVTG,,T,,M,0.131,N,0.242,K,A*3A
$GNGNS,063354.00,0419.82966,S,05539.89001,E,AA,09,1.12,16.3,-47.6,,*60
$GNGGA,063354.00,0419.82966,S,05539.89001,E,1,09,1.12,16.3,M,-47.6,M,,*4A
$GNGSA,A,3,05,12,15,23,25,,,,,,,,2.34,1.12,2.06*1B
$GNGSA,A,3,78,66,67,79,,,,,,,,,2.34,1.12,2.06*1F
$GPGSV,4,1,16,05,28,030,27,10,16,214,17,12,68,125,27,13,12,095,16*71
$GPGSV,4,2,16,15,43,121,22,18,29,305,,23,58,221,37,24,27,166,22*76
$GPGSV,4,3,16,25,72,331,31,28,08,280,,29,19,356,22,36,52,277,*73
$GPGSV,4,4,16,40,86,351,,41,58,082,32,49,32,274,,50,10,089,*78
$GLGSV,3,1,10,65,10,050,,66,40,093,32,67,36,167,31,68,02,203,*65
$GLGSV,3,2,10,77,26,165,20,78,69,246,37,79,30,317,17,81,08,342,*6F
$GLGSV,3,3,10,82,05,298,,88,00,029,*63
$GNGLL,0419.82966,S,05539.89001,E,063354.00,A,A*68
$GNGRS,063354.00,1,-5.1,-1.9,6.8,3.4,4.1,,,,,,,*79
$GNGRS,063354.00,1,-2.8,4.1,1.5,-3.9,,,,,,,,*56
$GNGST,063354.00,38,,,,4.6,6.3,14*69
$GNZDA,063354.00,02,06,2025,00,00*7E
$GNGBS,063354.00,4.6,6.3,14.3,,,,*69
$GNTXT,01,01,01,More than 100 frame errors, UART RX was disabled*70
b0LF
D}_+y1&:HKe
d{4V_ :R 
Y{A
2B(]C$DMN$EO=QVR*XgbF6!$GNRMC,063355.00,A,0419.82974,S,05539.89005,E,0.100,,020625,,,A*75
$GNVTG,,T,,M,0.100,N,0.185,K,A*30
$GNGNS,063355.00,0419.82974,S,05539.89005,E,AA,09,1.12,16.2,-47.6,,*67
$GNGGA,063355.00,0419.82974,S,05539.89005,E,1,09,1.12,16.2,M,-47.6,M,,*4D
$GNGSA,A,3,05,12,15,23,25,,,,,,,,2.34,1.12,2.06*1B
$GNGSA,A,3,78,66,67,79,,,,,,,,,2.34,1.12,2.06*1F
$GPGSV,4,1,16,05,28,030,28,10,16,214,18,12,68,125,28,13,12,095,16*7E
$GPGSV,4,2,16,15,43,121,22,18,29,305,,23,58,221,38,24,27,166,23*78
$GPGSV,4,3,16,25,72,331,31,28,08,280,,29,19,356,22,36,52,277,*73
$GPGSV,4,4,16,40,86,351,,41,58,082,32,49,32,274,,50,10,089,*78
$GLGSV,3,1,10,65,10,050,,66,40,093,31,67,36,167,31,68,02,203,*66
$GLGSV,3,2,10,77,26,165,20,78,69,246,36,79,30,317,20,81,08,342,*6A
$GLGSV,3,3,10,82,05,298,,88,00,029,*63
$GNGLL,0419.82974,S,05539.89005,E,063355.00,A,A*6E
$GNGRS,063355.00,1,-5.2,-2.4,9.6,2.7,1.0,,,,,,,*72
$GNGRS,063355.00,1,-2.5,2.2,4.8,-2.2,,,,,,,,*5D
$GNGST,063355.00,37,,,,4.6,6.2,14*66
$GNZDA,063355.00,02,06,2025,00,00*7F
$GNGBS,063355.00,4.6,6.2,14.2,,,,*68
$GNTXT,01,01,01,More than 100 frame errors, UART RX was disabled*70
b0LpJ
D}F_+y1':EHKQ
d{4V_ :R 
Y{A
2B(]+C#$DMN%EO=QVR*XbpJ6%r$GNRMC,063356.00,A,0419.82980,S,05539.89009,E,0.097,,020625,,,A*7E
$GNVTG,,T,,M,0.097,N,0.180,K,A*3A
$GNGNS,063356.00,0419.82980,S,05539.89009,E,AA,09,1.12,16.4,-47.6,,*65
$GNGGA,063356.00,0419.82980,S,05539.89009,E,1,09,1.12,16.4,M,-47.6,M,,*4F
$GNGSA,A,3,05,12,15,23,25,,,,,,,,2.34,1.12,2.06*1B
$GNGSA,A,3,78,66,67,79,,,,,,,,,2.34,1.12,2.06*1F
$GPGSV,4,1,16,05,28,030,30,10,16,214,19,12,68,125,27,13,12,095,15*7A
$GPGSV,4,2,16,15,43,121,21,18,29,305,,23,58,221,39,24,27,166,24*7D
$GPGSV,4,3,16,25,72,331,31,28,08,280,,29,19,356,22,36,52,277,*73
$GPGSV,4,4,16,40,86,351,,41,58,082,32,49,32,274,,50,10,089,*78
$GLGSV,3,1,10,65,10,050,,66,40,093,30,67,36,167,35,68,02,203,*63
$GLGSV,3,2,10,77,26,165,20,78,69,246,37,79,30,317,23,81,08,342,*68
$GLGSV,3,3,10,82,05,298,,88,00,029,*63
$GNGLL,0419.82980,S,05539.89009,E,063356.00,A,A*6A
$GNGRS,063356.00,1,-6.1,-1.9,11.9,3.3,0.8,,,,,,,*45
$GNGRS,063356.00,1,-2.3,3.0,-0.5,-1.3,,,,,,,,*7D
$GNGST,063356.00,36,,,,4.6,6.2,14*64
$GNZDA,063356.00,02,06,2025,00,00*7C
$GNGBS,063356.00,4.6,6.2,14.1,,,,*68
$GNTXT,01,01,01,More than 100 frame errors, UART RX was disabled*70
b0LXN
D}U_+y1': HK[
d{4V_ :R 
Y{A
2B(]5C"$DMN$E!O=3QVR*X=\bXN6)JS$GNRMC,063357.00,A,0419.82983,S,05539.89012,E,0.070,,020625,,,A*7F
$GNVTG,,T,,M,0.070,N,0.130,K,A*38
$GNGNS,063357.00,0419.82983,S,05539.89012,E,AA,09,1.12,16.5,-47.6,,*6C
$GNGGA,063357.00,0419.82983,S,05539.89012,E,1,09,1.12,16.5,M,-47.6,M,,*46
$GNGSA,A,3,05,12,15,23,25,,,,,,,,2.34,1.12,2.06*1B
$GNGSA,A,3,78,66,67,79,,,,,,,,,2.34,1.12,2.06*1F
$GPGSV,4,1,16,05,28,030,30,10,16,214,19,12,68,125,27,13,12,095,12*7D
$GPGSV,4,2,16,15,43,121,21,18,29,305,,23,58,221,39,24,27,166,25*7C
$GPGSV,4,3,16,25,72,331,32,28,08,280,,29,19,356,21,36,52,277,*73
$GPGSV,4,4,16,40,86,351,,41,58,082,32,49,32,274,,50,10,089,*78
$GLGSV,3,1,10,65,10,050,,66,40,093,30,67,36,167,34,68,02,203,*62
$GLGSV,3,2,10,77,26,165,18,78,69,246,36,79,30,317,25,81,08,342,*64
$GLGSV,3,3,10,82,05,298,,88,00,029,*63
$GNGLL,0419.82983,S,05539.89012,E,063357.00,A,A*62
$GNGRS,063357.00,1,-6.4,-6.8,9.1,2.5,0.9,,,,,,,*70
$GNGRS,063357.00,1,-2.2,3.1,-3.1,-2.1,,,,,,,,*7A
$GNGST,063357.00,35,,,,4.5,6.1,14*66
$GNZDA,063357.00,02,06,2025,00,00*7D
$GNGBS,063357.00,4.5,6.1,13.9,,,,*66
$GNTXT,01,01,01,More than 100 frame errors, UART RX was disabled*70
b0L@R
D}_+y@1&: HK]
d{4V_ :R 
Y{A
2B(]-C!$DMN#E5O=}QVR*Xfb@R6-"$GNRMC,063358.00,A,0419.82982,S,05539.89012,E,0.055,,020625,,,A*76
$GNVTG,,T,,M,0.055,N,0.102,K,A*3E
$GNGNS,063358.00,0419.82982,S,05539.89012,E,AA,09,1.12,16.6,-47.6,,*61
$GNGGA,063358.00,0419.82982,S,05539.89012,E,1,09,1.12,16.6,M,-47.6,M,,*4B
$GNGSA,A,3,05,12,15,23,25,,,,,,,,2.35,1.12,2.06*1A
$GNGSA,A,3,78,66,67,79,,,,,,,,,2.35,1.12,2.06*1E
$GPGSV,4,1,16,05,28,030,30,10,16,214,18,12,68,125,28,13,12,095,11*70
$GPGSV,4,2,16,15,43,121,21,18,29,305,,23,58,221,38,24,27,166,25*7D
$GPGSV,4,3,16,25,72,331,32,28,08,280,,29,19,356,22,36,52,277,*70
$GPGSV,4,4,16,40,86,351,,41,58,082,32,49,32,274,,50,10,089,*78
$GLGSV,3,1,10,65,10,050,,66,40,093,29,67,36,167,33,68,02,203,*6D
$GLGSV,3,2,10,77,26,165,16,78,69,246,35,79,30,317,25,81,08,342,*69
$GLGSV,3,3,10,82,05,298,,88,00,030,*6B
$GNGLL,0419.82982,S,05539.89012,E,063358.00,A,A*6C
$GNGRS,063358.00,1,-3.0,-6.3,10.9,2.4,3.5,,,,,,,*4B
$GNGRS,063358.00,1,-2.0,3.0,-3.4,-1.3,,,,,,,,*72
$GNGST,063358.00,39,,,,4.5,6.1,14*65
$GNZDA,063358.00,02,06,2025,00,00*72
$GNGBS,063358.00,4.5,6.1,13.9,,,,*69
$GNTXT,01,01,01,More than 100 frame errors, UART RX was disabled*70
b0L(Vc
D}_+y1&: HK
d{4V_:R 
Y{A
2B(]C!$dDMN#ENO=QVR*Xb(V6~1#$GNRMC,063359.00,A,0419.82985,S,05539.89017,E,0.057,,020625,,,A*77
$GNVTG,,T,,M,0.057,N,0.105,K,A*3B
$GNGNS,063359.00,0419.82985,S,05539.89017,E,AA,09,1.12,16.9,-47.6,,*6D
$GNGGA,063359.00,0419.82985,S,05539.89017,E,1,09,1.12,16.9,M,-47.6,M,,*47
$GNGSA,A,3,05,12,15,23,25,,,,,,,,2.35,1.12,2.06*1A
$GNGSA,A,3,78,66,67,79,,,,,,,,,2.35,1.12,2.06*1E
$GPGSV,4,1,16,05,28,030,30,10,16,214,18,12,68,125,27,13,12,095,*7F
$GPGSV,4,2,16,15,43,121,22,18,29,305,,23,58,221,38,24,27,166,26*7D
$GPGSV,4,3,16,25,72,331,32,28,08,280,,29,19,356,22,36,52,277,*70
$GPGSV,4,4,16,40,86,351,,41,58,082,31,49,32,274,,50,10,089,*7B
$GLGSV,3,1,10,65,10,050,,66,40,093,28,67,36,167,33,68,02,203,*6C
$GLGSV,3,2,10,77,26,165,16,78,69,246,35,79,30,317,25,81,08,342,*69
$GLGSV,3,3,10,82,05,298,,88,00,030,*6B
$GNGLL,0419.82985,S,05539.89017,E,063359.00,A,A*6F
$GNGRS,063359.00,1,-6.7,-1.3,11.9,2.6,-0.3,,,,,,,*64
$GNGRS,063359.00,1,-1.8,6.7,-4.1,-2.4,,,,,,,,*7C
$GNGST,063359.00,38,,,,4.5,6.0,14*64
$GNZDA,063359.00,02,06,2025,00,00*73
$GNGBS,063359.00,4.5,6.0,13.8,,,,*68
$GNTXT,01,01,01,More than 100 frame errors, UART RX was disabled*70
b0LZ
D}_+yx1&: HKP
d{4V_:R 
Y{A
2B(]C!$`DMN#ETO=IQVR*XbZ6f5$GNRMC,063400.00,A,0419.82989,S,05539.89024,E,0.088,,020625,,,A*72
$GNVTG,,T,,M,0.088,N,0.163,K,A*39
$GNGNS,063400.00,0419.82989,S,05539.89024,E,AA,09,1.12,17.1,-47.6,,*63
$GNGGA,063400.00,0419.82989,S,05539.89024,E,1,09,1.12,17.1,M,-47.6,M,,*49
$GNGSA,A,3,05,12,15,23,25,,,,,,,,2.35,1.12,2.06*1A
$GNGSA,A,3,78,66,67,79,,,,,,,,,2.35,1.12,2.06*1E
$GPGSV,4,1,16,05,28,030,30,10,16,214,18,12,68,125,28,13,12,095,*70
$GPGSV,4,2,16,15,43,121,25,18,29,305,,23,58,221,38,24,27,166,26*7A
$GPGSV,4,3,16,25,72,331,32,28,08,280,,29,19,356,22,36,52,277,*70
$GPGSV,4,4,16,40,86,351,,41,58,082,31,49,32,274,,50,10,089,*7B
$GLGSV,3,1,10,65,10,050,,66,40,093,28,67,36,167,33,68,02,203,*6C
$GLGSV,3,2,10,77,26,165,15,78,69,246,35,79,30,317,26,81,08,342,*69
$GLGSV,3,3,10,82,05,298,,88,00,030,*6B
$GNGLL,0419.82989,S,05539.89024,E,063400.00,A,A*68
$GNGRS,063400.00,1,-5.1,-5.7,8.9,2.4,0.8,,,,,,,*76
$GNGRS,063400.00,1,-1.7,11.6,-4.2,-1.8,,,,,,,,*43
$GNGST,063400.00,35,,,,4.4,6.0,14*63
$GNZDA,063400.00,02,06,2025,00,00*78
$GNGBS,063400.00,4.4,6.0,13.6,,,,*6C
$GNTXT,01,01,01,More than 100 frame errors, UART RX was disabled*70
b0L]
D}~_+y1&:HK
d{4V_:R 
Y{A
2B(]C $DMN$EVO=%QVR*X`Bb]6N9$GNRMC,063401.00,A,0419.82992,S,05539.89034,E,0.080,,020625,,,A*70
$GNVTG,,T,,M,0.080,N,0.147,K,A*37
$GNGNS,063401.00,0419.82992,S,05539.89034,E,AA,09,1.12,17.4,-47.6,,*6C
$GNGGA,063401.00,0419.82992,S,05539.89034,E,1,09,1.12,17.4,M,-47.6,M,,*46
$GNGSA,A,3,05,12,15,23,25,,,,,,,,2.35,1.12,2.06*1A
$GNGSA,A,3,78,66,67,79,,,,,,,,,2.35,1.12,2.06*1E
$GPGSV,4,1,16,05,28,030,28,10,16,214,18,12,68,125,28,13,12,095,*79
$GPGSV,4,2,16,15,43,121,26,18,29,305,20,23,58,221,38,24,27,166,25*78
$GPGSV,4,3,16,25,72,331,30,28,08,280,,29,19,356,23,36,52,277,*73
$GPGSV,4,4,16,40,86,351,,41,58,082,30,49,32,274,,50,10,089,*7A
$GLGSV,3,1,10,65,10,050,,66,40,093,29,67,36,167,32,68,02,203,*6C
$GLGSV,3,2,10,77,26,165,16,78,69,246,36,79,30,317,26,81,08,342,*69
$GLGSV,3,3,10,82,05,298,,88,00,030,*6B
$GNGLL,0419.82992,S,05539.89034,E,063401.00,A,A*62
$GNGRS,063401.00,1,-8.5,-3.9,7.5,1.9,-1.2,,,,,,,*5D
$GNGRS,063401.00,1,-1.7,11.9,-2.7,-2.2,,,,,,,,*47
$GNGST,063401.00,35,,,,4.4,5.9,14*68
$GNZDA,063401.00,02,06,2025,00,00*79
$GNGBS,063401.00,4.4,5.9,13.5,,,,*64
$GNTXT,01,01,01,More than 100 frame errors, UART RX was disabled*70
b0La
D}_+yN1':HKr
d{4V_:R 
Y{A
2B(]C $DMN#ElO=QVR*Xxba66=L$GNRMC,063402.00,A,0419.82994,S,05539.89041,E,0.088,,020625,,,A*7F
$GNVTG,,T,,M,0.088,N,0.164,K,A*3E
$GNGNS,063402.00,0419.82994,S,05539.89041,E,AA,09,1.12,17.5,-47.6,,*6A
$GNGGA,063402.00,0419.82994,S,05539.89041,E,1,09,1.12,17.5,M,-47.6,M,,*40
$GNGSA,A,3,05,12,15,23,25,,,,,,,,2.35,1.12,2.06*1A
$GNGSA,A,3,78,66,67,79,,,,,,,,,2.35,1.12,2.06*1E
$GPGSV,4,1,16,05,28,030,26,10,16,214,19,12,68,125,29,13,12,095,18*7E
$GPGSV,4,2,16,15,43,121,27,18,29,305,20,23,58,221,39,24,27,166,24*79
$GPGSV,4,3,16,25,72,331,30,28,08,280,,29,19,356,23,36,52,277,*73
$GPGSV,4,4,16,40,86,351,,41,58,082,30,49,32,274,,50,10,089,*7A
$GLGSV,3,1,10,65,10,050,,66,40,093,28,67,36,167,32,68,02,203,*6D
$GLGSV,3,2,10,77,26,165,17,78,69,246,35,79,30,317,25,81,08,342,*68
$GLGSV,3,3,10,82,05,298,,88,00,030,*6B
$GNGLL,0419.82994,S,05539.89041,E,063402.00,A,A*65
$GNGRS,063402.00,1,-5.8,-5.6,8.5,1.6,-1.4,,,,,,,*51
$GNGRS,063402.00,1,-1.5,12.9,-2.9,-1.0,,,,,,,,*4A
$GNGST,063402.00,36,,,,4.4,5.8,13*6E
$GNZDA,063402.00,02,06,2025,00,00*7A
$GNGBS,063402.00,4.4,5.8,13.4,,,,*67
$GNTXT,01,01,01,More than 100 frame errors, UART RX was disabled*70
b0LeC
D}_+y1':HK,
d{4V_:R 
Y{A
2B(]C $DMN$EMO=vQVR*XPbe6AY$GNRMC,063403.00,A,0419.82993,S,05539.89047,E,0.111,,020625,,,A*7E
$GNVTG,,T,,M,0.111,N,0.205,K,A*3B
$GNGNS,063403.00,0419.82993,S,05539.89047,E,AA,09,1.12,17.5,-47.6,,*6A
$GNGGA,063403.00,0419.82993,S,05539.89047,E,1,09,1.12,17.5,M,-47.6,M,,*40
$GNGSA,A,3,05,12,15,23,25,,,,,,,,2.35,1.12,2.06*1A
$GNGSA,A,3,78,66,67,79,,,,,,,,,2.35,1.12,2.06*1E
$GPGSV,4,1,16,05,27,030,26,10,16,214,18,12,68,125,29,13,12,095,17*7F
$GPGSV,4,2,16,15,43,121,26,18,29,305,21,23,58,221,39,24,27,166,24*79
$GPGSV,4,3,16,25,72,331,31,28,08,280,,29,19,356,22,36,52,277,*73
$GPGSV,4,4,16,40,86,351,,41,58,082,31,49,32,274,,50,10,089,*7B
$GLGSV,3,1,10,65,10,050,,66,40,093,28,67,36,167,32,68,02,203,*6D
$GLGSV,3,2,10,77,26,165,17,78,69,246,36,79,30,317,23,81,08,342,*6D
$GLGSV,3,3,10,82,05,298,,88,00,030,*6B
$GNGLL,0419.82993,S,05539.89047,E,063403.00,A,A*65
$GNGRS,063403.00,1,-1.9,-6.0,7.0,1.5,0.4,,,,,,,*75
$GNGRS,063403.00,1,-1.8,11.7,-3.0,-1.4,,,,,,,,*47
$GNGST,063403.00,36,,,,4.3,5.8,13*68
$GNZDA,063403.00,02,06,2025,00,00*7B
$GNGBS,063403.00,4.3,5.8,13.3,,,,*66
$GNTXT,01,01,01,More than 100 frame errors, UART RX was disabled*70
b0Li
D}_+y$1':HK
d{4V_:R 
Y{A
2B(]C!$DMN$EWO=QVR*Xbi6E1$GNRMC,063404.00,A,0419.82996,S,05539.89048,E,0.068,,020625,,,A*7C
$GNVTG,,T,,M,0.068,N,0.125,K,A*35
$GNGNS,063404.00,0419.82996,S,05539.89048,E,AA,09,1.12,17.6,-47.6,,*64
$GNGGA,063404.00,0419.82996,S,05539.89048,E,1,09,1.12,17.6,M,-47.6,M,,*4E
$GNGSA,A,3,05,12,15,23,25,,,,,,,,2.35,1.12,2.06*1A
$GNGSA,A,3,78,66,67,79,,,,,,,,,2.35,1.12,2.06*1E
$GPGSV,4,1,16,05,27,030,26,10,16,214,16,12,68,125,29,13,12,095,16*70
$GPGSV,4,2,16,15,43,121,26,18,29,305,20,23,58,221,39,24,27,166,23*7F
$GPGSV,4,3,16,25,72,331,30,28,08,280,,29,19,356,22,36,52,277,*72
$GPGSV,4,4,16,40,86,351,,41,58,082,30,49,32,274,,50,10,089,*7A
$GLGSV,3,1,10,65,10,050,,66,40,093,28,67,36,167,33,68,02,203,*6C
$GLGSV,3,2,10,77,26,165,17,78,69,246,36,79,30,317,23,81,08,342,*6D
$GLGSV,3,3,10,82,05,298,,88,00,030,*6B
$GNGLL,0419.82996,S,05539.89048,E,063404.00,A,A*68
$GNGRS,063404.00,1,-1.3,-5.6,5.5,1.3,-0.4,,,,,,,*51
$GNGRS,063404.00,1,-1.7,-0.4,-3.2,-1.2,,,,,,,,*55
$GNGST,063404.00,36,,,,4.3,5.7,13*60
$GNZDA,063404.00,02,06,2025,00,00*7C
$GNGBS,063404.00,4.3,5.7,13.2,,,,*6F
$GNTXT,01,01,01,More than 100 frame errors, UART RX was disabled*70
b0Lm
D}9_+yY1':HK
d{4V_:R 
Y{A
2B(]C"$DMN#EuO=3QVR*Xbm6H$GNRMC,063405.00,A,0419.82996,S,05539.89044,E,0.073,,020625,,,A*7B
$GNVTG,,T,,M,0.073,N,0.135,K,A*3E
$GNGNS,063405.00,0419.82996,S,05539.89044,E,AA,09,1.12,17.4,-47.6,,*6B
$GNGGA,063405.00,0419.82996,S,05539.89044,E,1,09,1.12,17.4,M,-47.6,M,,*41
$GNGSA,A,3,05,12,15,23,25,,,,,,,,2.35,1.12,2.07*1B
$GNGSA,A,3,78,66,67,79,,,,,,,,,2.35,1.12,2.07*1F
$GPGSV,4,1,16,05,27,030,27,10,16,214,16,12,68,125,30,13,12,095,17*78
$GPGSV,4,2,16,15,43,121,26,18,29,305,21,23,58,221,39,24,27,166,23*7E
$GPGSV,4,3,16,25,72,331,30,28,08,280,,29,19,356,22,36,52,277,*72
$GPGSV,4,4,16,40,86,351,,41,58,082,30,49,32,274,,50,10,089,*7A
$GLGSV,3,1,10,65,10,050,,66,40,093,28,67,36,167,34,68,02,203,*6B
$GLGSV,3,2,10,77,26,165,16,78,69,246,35,79,30,317,24,81,08,342,*68
$GLGSV,3,3,10,82,05,298,,88,00,030,*6B
$GNGLL,0419.82996,S,05539.89044,E,063405.00,A,A*65
$GNGRS,063405.00,1,0.2,-9.7,6.0,1.3,-2.3,,,,,,,*73
$GNGRS,063405.00,1,-1.4,-2.9,-3.4,-2.1,,,,,,,,*5E
$GNGST,063405.00,35,,,,4.3,5.7,13*62
$GNZDA,063405.00,02,06,2025,00,00*7D
$GNGBS,063405.00,4.3,5.7,13.1,,,,*6D
$GNTXT,01,01,01,More than 100 frame errors, UART RX was disabled*70
b0Lq
D}_+y1':nHK
d{4V_:R 
Y{A
2B(]`C"$DMN$EzO=~QVR*X}bq6L$GNRMC,063406.00,A,0419.82998,S,05539.89039,E,0.016,,020625,,,A*7F
$GNVTG,,T,,M,0.016,N,0.030,K,A*39
$GNGNS,063406.00,0419.82998,S,05539.89039,E,AA,09,1.12,17.3,-47.6,,*6B
$GNGGA,063406.00,0419.82998,S,05539.89039,E,1,09,1.12,17.3,M,-47.6,M,,*41
$GNGSA,A,3,05,12,15,23,25,,,,,,,,2.35,1.12,2.07*1B
$GNGSA,A,3,78,66,67,79,,,,,,,,,2.35,1.12,2.07*1F
$GPGSV,4,1,16,05,27,030,28,10,16,214,18,12,68,125,30,13,12,095,17*79
$GPGSV,4,2,16,15,43,121,26,18,29,305,19,23,58,221,39,24,27,166,25*73
$GPGSV,4,3,16,25,72,331,30,28,08,280,,29,19,356,21,36,52,277,*71
$GPGSV,4,4,16,40,86,351,,41,58,082,31,49,32,274,,50,10,089,*7B
$GLGSV,3,1,10,65,10,050,,66,40,093,29,67,36,167,34,68,02,203,*6A
$GLGSV,3,2,10,77,26,165,17,78,69,246,36,79,30,317,25,81,08,342,*6B
$GLGSV,3,3,10,82,05,298,,88,00,030,*6B
$GNGLL,0419.82998,S,05539.89039,E,063406.00,A,A*62
$GNGRS,063406.00,1,-2.6,-6.1,2.8,1.1,-5.4,,,,,,,*5C
$GNGRS,063406.00,1,-1.3,-1.6,-3.5,-1.3,,,,,,,,*56
$GNGST,063406.00,34,,,,4.3,5.6,13*61
$GNZDA,063406.00,02,06,2025,00,00*7E
$GNGBS,063406.00,4.3,5.6,13.0,,,,*6E
$GNTXT,01,01,01,More than 100 frame errors, UART RX was disabled*70
b0Lhu
D}_+y:1':jHK
d{4V_:R 
Y{A
2B(]9C"$DMN$E~O=QVR*Xbhu6PQ$GNRMC,063407.00,A,0419.82999,S,05539.89044,E,0.087,,020625,,,A*7D
$GNVTG,,T,,M,0.087,N,0.160,K,A*35
$GNGNS,063407.00,0419.82999,S,05539.89044,E,AA,09,1.12,17.5,-47.6,,*67
$GNGGA,063407.00,0419.82999,S,05539.89044,E,1,09,1.12,17.5,M,-47.6,M,,*4D
$GNGSA,A,3,05,12,15,23,25,,,,,,,,2.35,1.12,2.07*1B
$GNGSA,A,3,78,66,67,79,,,,,,,,,2.35,1.12,2.07*1F
$GPGSV,4,1,16,05,27,030,28,10,16,214,19,12,68,125,30,13,12,095,16*79
$GPGSV,4,2,16,15,43,121,26,18,29,305,18,23,58,221,39,24,27,166,25*72
$GPGSV,4,3,16,25,72,331,30,28,08,280,,29,19,356,22,36,52,277,*72
$GPGSV,4,4,16,40,86,351,,41,58,082,31,49,32,274,,50,10,089,*7B
$GLGSV,3,1,10,65,10,050,,66,40,093,30,67,36,167,34,68,02,203,*62
$GLGSV,3,2,10,77,26,165,16,78,69,246,36,79,30,317,26,81,08,342,*69
$GLGSV,3,3,10,82,05,298,,88,00,030,*6B
$GNGLL,0419.82999,S,05539.89044,E,063407.00,A,A*68
$GNGRS,063407.00,1,-3.3,-6.4,3.1,1.1,-1.0,,,,,,,*54
$GNGRS,063407.00,1,-1.3,5.7,-3.5,-3.8,,,,,,,,*76
$GNGST,063407.00,34,,,,4.2,5.6,13*61
$GNZDA,063407.00,02,06,2025,00,00*7F
$GNGBS,063407.00,4.2,5.6,12.9,,,,*66
$GNTXT,01,01,01,More than 100 frame errors, UART RX was disabled*70
b0LPy
D}w_+yH1':HK
d{4V_:R 
Y{A
2B(]yC"$DMN#EkO=QVR*XrbPy6T$GNRMC,063408.00,A,0419.82999,S,05539.89043,E,0.020,,020625,,,A*78
$GNVTG,,T,,M,0.020,N,0.038,K,A*34
$GNGNS,063408.00,0419.82999,S,05539.89043,E,AA,09,1.12,17.5,-47.6,,*6F
$GNGGA,063408.00,0419.82999,S,05539.89043,E,1,09,1.12,17.5,M,-47.6,M,,*45
$GNGSA,A,3,05,12,15,23,25,,,,,,,,2.35,1.12,2.07*1B
$GNGSA,A,3,78,66,67,79,,,,,,,,,2.35,1.12,2.07*1F
$GPGSV,4,1,16,05,27,030,28,10,16,214,19,12,68,125,30,13,12,095,15*7A
$GPGSV,4,2,16,15,43,121,25,18,29,305,17,23,58,221,39,24,27,166,25*7E
$GPGSV,4,3,16,25,72,331,29,28,08,280,,29,19,356,21,36,52,277,*79
$GPGSV,4,4,16,40,86,351,,41,58,082,30,49,32,274,,50,10,089,*7A
$GLGSV,3,1,10,65,10,050,,66,40,093,30,67,36,167,34,68,02,203,*62
$GLGSV,3,2,10,77,26,165,16,78,69,246,35,79,30,317,25,81,08,342,*69
$GLGSV,3,3,10,82,05,298,,88,00,030,*6B
$GNGLL,0419.82999,S,05539.89043,E,063408.00,A,A*60
$GNGRS,063408.00,1,-5.1,-9.1,3.3,1.4,-0.2,,,,,,,*51
$GNGRS,063408.00,1,-1.5,6.3,-3.5,-3.3,,,,,,,,*73
$GNGST,063408.00,35,,,,4.2,5.5,13*6C
$GNZDA,063408.00,02,06,2025,00,00*70
$GNGBS,063408.00,4.2,5.5,12.8,,,,*6B
$GNTXT,01,01,01,More than 100 frame errors, UART RX was disabled*70
b0L8}h
D}_+y41':HK
d{4V_:R 
Y{A
2B(]C"$DMN#EnO=QVR*X:b8}6Xh!$GNRMC,063409.00,A,0419.83000,S,05539.89041,E,0.007,,020625,,,A*76
$GNVTG,,T,,M,0.007,N,0.014,K,A*3F
$GNGNS,063409.00,0419.83000,S,05539.89041,E,AA,09,1.12,17.4,-47.6,,*65
$GNGGA,063409.00,0419.83000,S,05539.89041,E,1,09,1.12,17.4,M,-47.6,M,,*4F
$GNGSA,A,3,05,12,15,23,25,,,,,,,,2.35,1.12,2.07*1B
$GNGSA,A,3,78,66,67,79,,,,,,,,,2.35,1.12,2.07*1F
$GPGSV,4,1,16,05,27,030,29,10,16,214,19,12,68,125,31,13,12,095,16*79
$GPGSV,4,2,16,15,43,121,26,18,29,305,18,23,58,221,39,24,27,166,24*73
$GPGSV,4,3,16,25,72,331,29,28,08,280,,29,19,356,21,36,52,277,*79
$GPGSV,4,4,16,40,86,351,,41,58,082,31,49,32,274,,50,10,089,*7B
$GLGSV,3,1,10,65,10,050,,66,40,093,30,67,36,167,34,68,02,203,*62
$GLGSV,3,2,10,77,26,165,17,78,69,246,35,79,30,317,25,81,08,342,*68
$GLGSV,3,3,10,82,05,298,,88,00,030,*6B
$GNGLL,0419.83000,S,05539.89041,E,063409.00,A,A*6B
$GNGRS,063409.00,1,-4.1,-10.1,3.1,1.6,0.3,,,,,,,*45
$GNGRS,063409.00,1,-1.5,7.1,-3.5,-3.5,,,,,,,,*77
$GNGST,063409.00,34,,,,4.2,5.4,13*6D
$GNZDA,063409.00,02,06,2025,00,00*71
$GNGBS,063409.00,4.2,5.4,12.7,,,,*64
$GNTXT,01,01,01,More than 100 frame errors, UART RX was disabled*70
b0L 
D~^_+y1&:~"HK
d{4V_:R 
Y{A
2B(]C"$DMN$EO=/QVR*XZ/b 6v\@$GNRMC,063410.00,A,0419.83001,S,05539.89041,E,0.021,,020625,,,A*7B
$GNVTG,,T,,M,0.021,N,0.039,K,A*34
$GNGNS,063410.00,0419.83001,S,05539.89041,E,AA,09,1.12,17.4,-47.6,,*6C
$GNGGA,063410.00,0419.83001,S,05539.89041,E,1,09,1.12,17.4,M,-47.6,M,,*46
$GNGSA,A,3,05,12,15,23,25,,,,,,,,2.35,1.12,2.07*1B
$GNGSA,A,3,78,66,67,79,,,,,,,,,2.35,1.12,2.07*1F
$GPGSV,4,1,16,05,27,030,28,10,16,214,18,12,68,126,30,13,12,095,16*7B
$GPGSV,4,2,16,15,43,121,24,18,29,305,18,23,58,221,38,24,27,166,23*77
$GPGSV,4,3,16,25,72,331,34,28,08,280,,29,19,356,23,36,52,277,*77
$GPGSV,4,4,16,40,86,351,,41,58,082,31,49,32,274,,50,10,089,*7B
$GLGSV,3,1,10,65,10,050,,66,40,093,29,67,36,167,34,68,02,203,*6A
$GLGSV,3,2,10,77,26,165,17,78,69,246,36,79,30,317,24,81,08,342,*6A
$GLGSV,3,3,10,82,05,298,,88,00,030,*6B
$GNGLL,0419.83001,S,05539.89041,E,063410.00,A,A*62
$GNGRS,063410.00,1,-3.4,-9.3,2.6,1.3,-1.0,,,,,,,*59
$GNGRS,063410.00,1,-1.1,6.4,-3.5,-4.6,,,,,,,,*7B
$GNGST,063410.00,34,,,,4.2,5.4,13*65
$GNZDA,063410.00,02,06,2025,00,00*79
$GNGBS,063410.00,4.2,5.4,12.6,,,,*6D
$GNTXT,01,01,01,More than 100 frame errors, UART RX was disabled*70
b0L)
D~^+y#1&:uHK
d{4V_:R 
Y{A
2B(]C"$DMN$EO=rQVR*X]b6^`$GNRMC,063411.00,A,0419.83003,S,05539.89043,E,0.064,,020625,,,A*7B
$GNVTG,,T,,M,0.064,N,0.118,K,A*37
$GNGNS,063411.00,0419.83003,S,05539.89043,E,AA,09,1.12,17.5,-47.6,,*6C
$GNGGA,063411.00,0419.83003,S,05539.89043,E,1,09,1.12,17.5,M,-47.6,M,,*46
$GNGSA,A,3,05,12,15,23,25,,,,,,,,2.35,1.12,2.07*1B
$GNGSA,A,3,78,66,67,79,,,,,,,,,2.35,1.12,2.07*1F
$GPGSV,4,1,16,05,27,030,28,10,16,214,17,12,68,126,30,13,12,094,16*75
$GPGSV,4,2,16,15,43,121,23,18,29,305,18,23,58,221,38,24,27,166,24*77
$GPGSV,4,3,16,25,72,331,29,28,08,280,,29,19,356,24,36,52,277,*7C
$GPGSV,4,4,16,40,86,351,,41,58,082,31,49,32,274,,50,10,089,*7B
$GLGSV,3,1,10,65,10,050,,66,40,093,27,67,36,167,34,68,02,203,*64
$GLGSV,3,2,10,77,26,165,17,78,69,246,36,79,30,317,25,81,08,342,*6B
$GLGSV,3,3,10,82,05,298,,88,00,030,*6B
$GNGLL,0419.83003,S,05539.89043,E,063411.00,A,A*63
$GNGRS,063411.00,1,-4.7,-7.8,2.9,1.2,-3.6,,,,,,,*53
$GNGRS,063411.00,1,-0.9,9.4,-3.7,-4.0,,,,,,,,*78
$GNGST,063411.00,36,,,,4.1,5.4,12*64
$GNZDA,063411.00,02,06,2025,00,00*78
$GNGBS,063411.00,4.1,5.4,12.5,,,,*6C
$GNTXT,01,01,01,More than 100 frame errors, UART RX was disabled*70
b0LQ
D~^+y)1&: HK)
d{4V_ :R 
Y{A
2B(]C#$DMN%EO=tQVR*X b6FdJ$GNRMC,063412.00,A,0419.83007,S,05539.89037,E,0.068,,020625,,,A*73
$GNVTG,,T,,M,0.068,N,0.125,K,A*35
$GNGNS,063412.00,0419.83007,S,05539.89037,E,AA,09,1.12,17.3,-47.6,,*6E
$GNGGA,063412.00,0419.83007,S,05539.89037,E,1,09,1.12,17.3,M,-47.6,M,,*44
$GNGSA,A,3,05,12,15,23,25,,,,,,,,2.35,1.12,2.07*1B
$GNGSA,A,3,78,66,67,79,,,,,,,,,2.35,1.12,2.07*1F
$GPGSV,4,1,16,05,27,030,28,10,16,214,17,12,68,126,30,13,12,094,17*74
$GPGSV,4,2,16,15,43,121,24,18,29,305,18,23,58,221,38,24,27,166,24*70
$GPGSV,4,3,16,25,72,331,32,28,08,280,,29,19,356,25,36,52,277,*77
$GPGSV,4,4,16,40,86,351,,41,58,082,32,49,32,274,,50,10,089,*78
$GLGSV,3,1,10,65,10,050,,66,40,093,27,67,36,167,35,68,02,203,*65
$GLGSV,3,2,10,77,26,165,16,78,69,246,37,79,30,317,24,81,08,342,*6A
$GLGSV,3,3,10,82,05,298,,88,00,030,*6B
$GNGLL,0419.83007,S,05539.89037,E,063412.00,A,A*67
$GNGRS,063412.00,1,-4.3,-8.5,3.0,1.4,-4.7,,,,,,,*5E
$GNGRS,063412.00,1,-1.0,4.3,-3.5,-4.0,,,,,,,,*7B
$GNGST,063412.00,27,,,,4.1,5.3,12*60
$GNZDA,063412.00,02,06,2025,00,00*7B
$GNGBS,063412.00,4.1,5.3,12.3,,,,*6E
$GNTXT,01,01,01,More than 100 frame errors, UART RX was disabled*70
b0L
D~^+x1(:!HK6
d{4V_ :R 
Y{A
2B(]IC$$DMN$EO=eQVR*XKb6.h$GNRMC,063413.00,A,0419.83010,S,05539.89027,E,0.016,,020625,,,A*7C
$GNVTG,,T,,M,0.016,N,0.030,K,A*39
$GNGNS,063413.00,0419.83010,S,05539.89027,E,AA,09,1.12,17.2,-47.6,,*69
$GNGGA,063413.00,0419.83010,S,05539.89027,E,1,09,1.12,17.2,M,-47.6,M,,*43
$GNGSA,A,3,05,12,15,23,25,,,,,,,,2.35,1.12,2.07*1B
$GNGSA,A,3,78,66,67,79,,,,,,,,,2.35,1.12,2.07*1F
$GPGSV,4,1,16,05,27,030,28,10,16,214,15,12,68,126,30,13,12,094,16*77
$GPGSV,4,2,16,15,43,120,22,18,29,305,18,23,58,221,40,24,27,166,25*79
$GPGSV,4,3,16,25,72,331,33,28,08,280,,29,19,356,25,36,52,277,*76
$GPGSV,4,4,16,40,86,351,,41,58,082,32,49,32,274,,50,10,089,*78
$GLGSV,3,1,10,65,10,050,,66,40,093,27,67,36,167,36,68,02,203,*66
$GLGSV,3,2,10,77,26,165,15,78,69,246,36,79,30,317,24,81,08,342,*68
$GLGSV,3,3,10,82,05,298,,88,00,030,*6B
$GNGLL,0419.83010,S,05539.89027,E,063413.00,A,A*61
$GNGRS,063413.00,1,-3.1,-10.1,4.1,1.4,-4.6,,,,,,,*60
$GNGRS,063413.00,1,-1.0,5.8,-3.7,-4.1,,,,,,,,*73
$GNGST,063413.00,28,,,,4.0,5.2,12*6E
$GNZDA,063413.00,02,06,2025,00,00*7A
$GNGBS,063413.00,4.0,5.2,12.0,,,,*6C
