$GNRMC,140536.00,A,0419.72597,S,05539.92706,E,0.003,,030625,,,D*70
$GNVTG,,T,,M,0.003,N,0.005,K,D*3E
$GNGGA,140536.00,0419.72597,S,05539.92706,E,2,12,0.57,7.3,M,-47.6,M,,0000*76
$GNGSA,A,3,31,27,28,08,26,16,10,02,04,01,41,,1.09,0.57,0.93*19
$GNGSA,A,3,85,73,71,80,74,72,86,,,,,,1.09,0.57,0.93*13
$GPGSV,5,1,18,01,16,331,31,02,44,330,36,04,24,270,28,08,35,247,29*7F
$GPGSV,5,2,18,09,01,245,,10,18,070,32,16,30,172,32,23,00,106,*75
$GPGSV,5,3,18,26,37,135,36,27,40,200,30,28,34,036,30,31,63,045,33*79
$GPGSV,5,4,18,32,02,031,,36,52,277,35,40,84,354,38,41,58,082,36*70
$GPGSV,5,5,18,49,32,274,,50,10,089,*78
$GLGSV,3,1,10,70,04,013,,71,12,330,32,72,06,284,18,73,42,109,27*68
$GLGSV,3,2,10,74,32,169,24,80,11,058,26,84,44,166,19,85,73,285,34*6A
$GLGSV,3,3,10,86,18,328,32,,,,23*5A
$GNGLL,0419.72597,S,05539.92706,E,140536.00,A,D*68
$GNRMC,140537.00,A,0419.72596,S,05539.92704,E,0.034,,030625,,,D*76
$GNVTG,,T,,M,0.034,N,0.063,K,D*3A
$GNGGA,140537.00,0419.72596,S,05539.92704,E,2,12,0.57,7.3,M,-47.6,M,,0000*74
$GNGSA,A,3,31,27,28,08,26,16,10,02,04,01,41,,1.09,0.57,0.93*19
$GNGSA,A,3,85,73,71,80,74,72,86,,,,,,1.09,0.57,0.93*13
$GPGSV,5,1,18,01,16,331,31,02,44,330,38,04,24,270,33,08,35,247,30*73
$GPGSV,5,2,18,09,01,245,,10,18,070,33,16,30,172,35,23,00,106,*73
$GPGSV,5,3,18,26,37,135,37,27,40,200,29,28,34,036,31,31,63,045,38*7A
$GPGSV,5,4,18,32,02,031,,36,52,277,38,40,84,354,39,41,58,082,36*7C
$GPGSV,5,5,18,49,32,274,,50,10,089,*78
$GLGSV,3,1,10,70,04,013,,71,12,330,30,72,06,284,18,73,42,109,26*6B
$GLGSV,3,2,10,74,32,169,23,80,11,058,22,84,44,166,17,85,73,285,36*65
$GLGSV,3,3,10,86,18,328,31,,,,20*5A
$GNGLL,0419.72596,S,05539.92704,E,140537.00,A,D*6A
$GNRMC,140538.00,A,0419.72596,S,05539.92702,E,0.043,,030625,,,D*7F
$GNVTG,,T,,M,0.043,N,0.079,K,D*31
$GNGGA,140538.00,0419.72596,S,05539.92702,E,2,12,0.57,7.4,M,-47.6,M,,0000*7A
$GNGSA,A,3,31,27,28,08,26,16,10,02,04,01,41,,1.09,0.57,0.93*19
$GNGSA,A,3,85,73,71,80,74,72,86,,,,,,1.09,0.57,0.93*13
$GPGSV,5,1,18,01,16,331,33,02,44,330,40,04,24,270,34,08,35,247,34*7D
$GPGSV,5,2,18,09,01,245,,10,18,070,34,16,30,172,35,23,00,106,*74
$GPGSV,5,3,18,26,37,135,39,27,40,200,30,28,34,036,33,31,63,045,38*7E
$GPGSV,5,4,18,32,02,031,,36,52,277,38,40,84,354,41,41,58,082,38*7D
$GPGSV,5,5,18,49,32,274,,50,10,089,*78
$GLGSV,3,1,10,70,04,013,,71,12,330,30,72,06,284,18,73,42,109,28*65
$GLGSV,3,2,10,74,32,169,23,80,11,058,20,84,44,166,17,85,73,285,36*67
$GLGSV,3,3,10,86,18,328,33,,,,22*5A
$GNGLL,0419.72596,S,05539.92702,E,140538.00,A,D*63
$GNRMC,140539.00,A,0419.72597,S,05539.92701,E,0.038,,030625,,,D*70
$GNVTG,,T,,M,0.038,N,0.071,K,D*35
$GNGGA,140539.00,0419.72597,S,05539.92701,E,2,12,0.57,7.4,M,-47.6,M,,0000*79
$GNGSA,A,3,31,27,28,08,26,16,10,02,04,01,41,,1.09,0.57,0.93*19
$GNGSA,A,3,85,73,71,80,74,72,86,,,,,,1.09,0.57,0.93*13
$GPGSV,5,1,18,01,16,331,33,02,44,330,42,04,24,270,34,08,35,247,31*7A
$GPGSV,5,2,18,09,01,245,,10,18,070,37,16,30,172,38,23,00,106,*7A
$GPGSV,5,3,18,26,37,135,39,27,40,200,33,28,34,036,36,31,63,045,39*79
$GPGSV,5,4,18,32,02,031,,36,52,277,38,40,84,354,42,41,58,082,39*7F
$GPGSV,5,5,18,49,32,274,,50,10,089,*78
$GLGSV,3,1,10,70,04,013,,71,12,330,30,72,06,284,24,73,42,109,32*61
$GLGSV,3,2,10,74,32,169,26,80,11,058,28,84,44,166,20,85,73,285,38*60
$GLGSV,3,3,10,86,18,328,33,,,,29*51
$GNGLL,0419.72597,S,05539.92701,E,140539.00,A,D*60
$GNRMC,140540.00,A,0419.72595,S,05539.92702,E,0.045,,030625,,,D*75
$GNVTG,,T,,M,0.045,N,0.084,K,D*35
$GNGGA,140540.00,0419.72595,S,05539.92702,E,2,12,0.57,7.4,M,-47.6,M,,0000*76
$GNGSA,A,3,31,27,28,08,26,16,10,02,04,01,41,,1.09,0.57,0.93*19
$GNGSA,A,3,85,73,71,80,74,72,86,,,,,,1.09,0.57,0.93*13
$GPGSV,5,1,18,01,16,331,32,02,44,330,42,04,24,270,38,08,35,247,31*77
$GPGSV,5,2,18,09,01,245,,10,18,070,28,16,31,171,39,23,00,106,*77
$GPGSV,5,3,18,26,37,135,35,27,40,200,32,28,34,036,37,31,63,045,39*75
$GPGSV,5,4,18,32,02,031,,36,52,277,39,40,84,354,42,41,58,082,40*70
$GPGSV,5,5,18,49,32,274,,50,10,089,*78
$GLGSV,3,1,10,70,04,013,,71,12,330,31,72,06,284,29,73,42,109,38*67
$GLGSV,3,2,10,74,32,169,28,80,11,058,29,84,44,166,23,85,73,285,39*6D
$GLGSV,3,3,10,86,18,328,36,,,,32*5E
$GNGLL,0419.72595,S,05539.92702,E,140540.00,A,D*6F
$GNRMC,140541.00,A,0419.72595,S,05539.92702,E,0.029,,030625,,,D*7E
$GNVTG,,T,,M,0.029,N,0.054,K,D*32
$GNGGA,140541.00,0419.72595,S,05539.92702,E,2,12,0.57,7.4,M,-47.6,M,,0000*77
$GNGSA,A,3,31,27,28,08,26,16,10,02,04,01,41,,1.09,0.57,0.93*19
$GNGSA,A,3,85,73,71,80,74,72,86,,,,,,1.09,0.57,0.93*13
$GPGSV,5,1,18,01,16,331,32,02,44,330,42,04,24,270,37,08,35,247,32*7B
$GPGSV,5,2,18,09,01,245,,10,18,070,35,16,31,171,39,23,00,106,19*73
$GPGSV,5,3,18,26,37,135,38,27,40,200,31,28,34,036,36,31,63,045,39*7A
$GPGSV,5,4,18,32,02,031,19,36,52,277,39,40,84,354,42,41,58,082,40*78
$GPGSV,5,5,18,49,32,274,,50,10,089,*78
$GLGSV,3,1,10,70,04,013,,71,12,330,30,72,06,284,29,73,42,109,34*6A
$GLGSV,3,2,10,74,32,169,30,80,11,058,29,84,44,166,24,85,73,285,38*62
$GLGSV,3,3,10,86,18,328,36,,,,32*5E
$GNGLL,0419.72595,S,05539.92702,E,140541.00,A,D*6E
$GNRMC,140542.00,A,0419.72594,S,05539.92703,E,0.005,,030625,,,D*73
$GNVTG,,T,,M,0.005,N,0.009,K,D*34
$GNGGA,140542.00,0419.72594,S,05539.92703,E,2,12,0.57,7.4,M,-47.6,M,,0000*74
$GNGSA,A,3,31,27,28,08,26,16,10,02,04,01,41,,1.09,0.57,0.93*19
$GNGSA,A,3,85,73,71,80,74,72,86,,,,,,1.09,0.57,0.93*13
$GPGSV,5,1,18,01,16,331,32,02,44,330,42,04,24,270,37,08,35,247,32*7B
$GPGSV,5,2,18,09,01,245,,10,18,070,28,16,31,171,38,23,00,106,18*7F
$GPGSV,5,3,18,26,37,135,36,27,40,200,31,28,34,036,36,31,63,045,38*75
$GPGSV,5,4,18,32,02,031,16,36,52,277,38,40,84,354,41,41,58,082,38*7A
$GPGSV,5,5,18,49,32,274,,50,10,089,*78
$GLGSV,3,1,10,70,04,013,,71,12,330,30,72,06,284,29,73,42,109,36*68
$GLGSV,3,2,10,74,32,169,29,80,11,058,28,84,44,166,24,85,73,285,36*65
$GLGSV,3,3,10,86,18,328,35,,,,31*5E
$GNGLL,0419.72594,S,05539.92703,E,140542.00,A,D*6D
$GNRMC,140543.00,A,0419.72595,S,05539.92703,E,0.032,,030625,,,D*77
$GNVTG,,T,,M,0.032,N,0.060,K,D*3F
$GNGGA,140543.00,0419.72595,S,05539.92703,E,2,12,0.57,7.5,M,-47.6,M,,0000*75
$GNGSA,A,3,31,27,28,08,26,16,10,02,04,01,41,,1.09,0.57,0.93*19
$GNGSA,A,3,85,73,71,80,74,72,86,,,,,,1.09,0.57,0.93*13
$GPGSV,5,1,18,01,16,331,31,02,44,330,40,04,24,270,35,08,35,247,31*7B
$GPGSV,5,2,18,09,01,245,,10,18,070,31,16,31,171,38,23,00,106,18*77
$GPGSV,5,3,18,26,37,135,35,27,40,200,30,28,34,036,35,31,63,045,37*7B
$GPGSV,5,4,18,32,02,031,14,36,52,277,37,40,84,354,40,41,58,082,37*79
$GPGSV,5,5,18,49,32,274,,50,10,089,*78
$GLGSV,3,1,10,70,04,013,,71,12,330,29,72,06,284,28,73,42,109,35*62
$GLGSV,3,2,10,74,32,169,29,80,11,058,28,84,44,166,23,85,73,285,36*62
$GLGSV,3,3,10,86,18,328,34,,,,31*5F
$GNGLL,0419.72595,S,05539.92703,E,140543.00,A,D*6D
$GNRMC,140544.00,A,0419.72594,S,05539.92704,E,0.031,,030625,,,D*75
$GNVTG,,T,,M,0.031,N,0.057,K,D*38
$GNGGA,140544.00,0419.72594,S,05539.92704,E,2,12,0.57,7.5,M,-47.6,M,,0000*74
$GNGSA,A,3,31,27,28,08,26,16,10,02,04,01,41,,1.09,0.57,0.93*19
$GNGSA,A,3,85,73,71,80,74,72,86,,,,,,1.09,0.57,0.93*13
$GPGSV,5,1,18,01,16,331,32,02,44,330,41,04,24,270,36,08,35,247,31*7A
$GPGSV,5,2,18,09,01,245,,10,18,070,27,16,31,171,37,23,00,106,18*7F
$GPGSV,5,3,18,26,37,135,36,27,40,200,31,28,34,036,36,31,63,045,39*74
$GPGSV,5,4,18,32,02,031,13,36,52,277,39,40,84,354,41,41,58,082,39*7F
$GPGSV,5,5,18,49,32,274,,50,10,089,*78
$GLGSV,3,1,10,70,04,013,,71,12,330,33,72,06,284,29,73,42,109,37*6A
$GLGSV,3,2,10,74,32,169,28,80,11,058,29,84,44,166,23,85,73,285,37*63
$GLGSV,3,3,10,86,18,328,34,,,,32*5C
$GNGLL,0419.72594,S,05539.92704,E,140544.00,A,D*6C
$GNRMC,140545.00,A,0419.72594,S,05539.92709,E,0.028,,030625,,,D*71
$GNVTG,,T,,M,0.028,N,0.051,K,D*36
$GNGGA,140545.00,0419.72594,S,05539.92709,E,2,12,0.57,7.6,M,-47.6,M,,0000*7B
$GNGSA,A,3,31,27,28,08,26,16,10,02,04,01,41,,1.09,0.57,0.93*19
$GNGSA,A,3,85,73,71,80,74,72,86,,,,,,1.09,0.57,0.93*13
$GPGSV,5,1,18,01,16,331,33,02,44,330,41,04,24,270,36,08,35,247,34*7E
$GPGSV,5,2,18,09,01,245,,10,18,070,26,16,31,171,37,23,00,106,20*75
$GPGSV,5,3,18,26,37,135,36,27,40,200,30,28,34,036,36,31,63,045,38*74
$GPGSV,5,4,18,32,02,031,15,36,52,277,39,40,84,354,41,41,58,082,39*79
$GPGSV,5,5,18,49,32,274,,50,10,089,*78
$GLGSV,3,1,10,70,04,013,,71,12,330,32,72,06,284,29,73,42,109,38*64
$GLGSV,3,2,10,74,32,169,28,80,11,058,29,84,44,166,25,85,73,285,37*65
$GLGSV,3,3,10,86,18,328,35,,,,32*5D
$GNGLL,0419.72594,S,05539.92709,E,140545.00,A,D*60
$GNRMC,140546.00,A,0419.72594,S,05539.92709,E,0.009,,030625,,,D*71
$GNVTG,,T,,M,0.009,N,0.016,K,D*36
$GNGGA,140546.00,0419.72594,S,05539.92709,E,2,12,0.57,7.7,M,-47.6,M,,0000*79
$GNGSA,A,3,31,27,28,08,26,16,10,02,04,01,41,,1.09,0.57,0.93*19
$GNGSA,A,3,85,73,71,80,74,72,86,,,,,,1.09,0.57,0.93*13
$GPGSV,5,1,18,01,16,331,33,02,44,330,42,04,24,270,36,08,35,247,34*7D
$GPGSV,5,2,18,09,01,245,,10,18,070,26,16,31,171,37,23,00,107,21*75
$GPGSV,5,3,18,26,37,135,36,27,40,200,29,28,34,036,36,31,63,045,38*7C
$GPGSV,5,4,18,32,02,031,16,36,52,277,40,40,84,354,41,41,58,082,38*75
$GPGSV,5,5,18,49,32,274,,50,10,089,*78
$GLGSV,3,1,10,70,04,013,,71,12,330,31,72,06,284,29,73,42,109,37*68
$GLGSV,3,2,10,74,32,169,28,80,11,058,28,84,44,166,25,85,73,285,38*6B
$GLGSV,3,3,10,86,18,328,35,,,,31*5E
$GNGLL,0419.72594,S,05539.92709,E,140546.00,A,D*63
$GNRMC,140547.00,A,0419.72593,S,05539.92712,E,0.005,,030625,,,D*71
$GNVTG,,T,,M,0.005,N,0.009,K,D*34
$GNGGA,140547.00,0419.72593,S,05539.92712,E,2,12,0.57,7.7,M,-47.6,M,,0000*75
$GNGSA,A,3,31,27,28,08,26,16,10,02,04,01,41,,1.09,0.57,0.93*19
$GNGSA,A,3,85,73,71,80,74,72,86,,,,,,1.09,0.57,0.93*13
$GPGSV,5,1,18,01,16,331,32,02,44,330,42,04,24,270,37,08,35,247,34*7D
$GPGSV,5,2,18,09,01,245,,10,18,070,26,16,31,171,39,23,00,107,20*7A
$GPGSV,5,3,18,26,37,135,36,27,40,200,29,28,34,036,37,31,63,045,40*72
$GPGSV,5,4,18,32,02,031,15,36,52,277,40,40,84,354,42,41,58,082,39*74
$GPGSV,5,5,18,49,32,274,,50,10,089,*78
$GLGSV,3,1,10,70,04,013,,71,12,330,31,72,06,284,29,73,42,109,36*69
$GLGSV,3,2,10,74,32,169,28,80,11,058,28,84,44,166,23,85,73,285,37*62
$GLGSV,3,3,10,86,18,328,34,,,,30*5E
$GNGLL,0419.72593,S,05539.92712,E,140547.00,A,D*6F
$GNRMC,140548.00,A,0419.72592,S,05539.92714,E,0.018,,030625,,,D*75
$GNVTG,,T,,M,0.018,N,0.034,K,D*36
$GNGGA,140548.00,0419.72592,S,05539.92714,E,2,12,0.57,7.7,M,-47.6,M,,0000*7D
$GNGSA,A,3,31,27,28,08,26,16,10,02,04,01,41,,1.09,0.57,0.93*19
$GNGSA,A,3,85,73,71,80,74,72,86,,,,,,1.09,0.57,0.93*13
$GPGSV,5,1,18,01,16,331,32,02,44,330,41,04,24,270,37,08,35,247,34*7E
$GPGSV,5,2,18,09,01,245,,10,18,070,27,16,31,171,37,23,00,107,21*74
$GPGSV,5,3,18,26,37,135,36,27,40,200,29,28,34,036,36,31,63,045,38*7C
$GPGSV,5,4,18,32,02,031,16,36,52,277,40,40,84,354,41,41,58,082,39*74
$GPGSV,5,5,18,49,32,274,,50,10,089,*78
$GLGSV,3,1,10,70,04,013,,71,12,330,31,72,06,284,29,73,42,109,36*69
$GLGSV,3,2,10,74,32,169,28,80,11,058,28,84,44,166,24,85,73,285,38*6A
$GLGSV,3,3,10,86,18,328,35,,,,31*5E
$GNGLL,0419.72592,S,05539.92714,E,140548.00,A,D*67
$GNRMC,140549.00,A,0419.72590,S,05539.92716,E,0.019,,030625,,,D*75
$GNVTG,,T,,M,0.019,N,0.036,K,D*35
$GNGGA,140549.00,0419.72590,S,05539.92716,E,2,12,0.57,7.6,M,-47.6,M,,0000*7D
$GNGSA,A,3,31,27,28,08,26,16,10,02,04,01,41,,1.09,0.57,0.93*19
$GNGSA,A,3,85,73,71,80,74,72,86,,,,,,1.09,0.57,0.93*13
$GPGSV,5,1,18,01,16,331,32,02,44,330,42,04,24,270,37,08,35,247,34*7D
$GPGSV,5,2,18,09,01,245,,10,18,070,27,16,31,171,38,23,00,107,21*7B
$GPGSV,5,3,18,26,38,134,36,27,40,200,29,28,34,036,36,31,63,045,38*72
$GPGSV,5,4,18,32,02,031,16,36,52,277,41,40,84,354,42,41,58,082,39*76
$GPGSV,5,5,18,49,32,274,,50,10,089,*78
$GLGSV,3,1,10,70,04,013,,71,12,330,31,72,06,284,29,73,42,109,37*68
$GLGSV,3,2,10,74,32,169,28,80,11,058,27,84,44,166,24,85,73,285,38*65
$GLGSV,3,3,10,86,18,328,35,,,,30*5F
$GNGLL,0419.72590,S,05539.92716,E,140549.00,A,D*66
$GNRMC,140550.00,A,0419.72589,S,05539.92717,E,0.026,,030625,,,D*78
$GNVTG,,T,,M,0.026,N,0.049,K,D*31
$GNGGA,140550.00,0419.72589,S,05539.92717,E,2,12,0.57,7.6,M,-47.6,M,,0000*7C
$GNGSA,A,3,31,27,28,08,26,16,10,02,04,01,41,,1.09,0.57,0.93*19
$GNGSA,A,3,85,73,71,80,74,72,86,,,,,,1.09,0.57,0.93*13
$GPGSV,5,1,18,01,16,331,31,02,44,330,40,04,24,270,34,08,35,247,33*78
$GPGSV,5,2,18,09,01,245,,10,18,070,26,16,31,171,36,23,00,107,20*75
$GPGSV,5,3,18,26,38,134,34,27,39,199,28,28,34,036,34,31,63,045,36*70
$GPGSV,5,4,18,32,02,031,17,36,52,277,38,40,84,354,39,41,58,082,37*7B
$GPGSV,5,5,18,49,32,274,,50,10,089,*78
$GLGSV,3,1,10,70,04,013,,71,12,330,30,72,06,284,28,73,42,109,36*69
$GLGSV,3,2,10,74,32,169,28,80,11,058,27,84,44,166,23,85,73,285,37*6D
$GLGSV,3,3,10,86,18,328,34,,,,29*56
$GNGLL,0419.72589,S,05539.92717,E,140550.00,A,D*67
$GNRMC,140551.00,A,0419.72589,S,05539.92717,E,0.018,,030625,,,D*74
$GNVTG,,T,,M,0.018,N,0.033,K,D*31
$GNGGA,140551.00,0419.72589,S,05539.92717,E,2,12,0.57,7.7,M,-47.6,M,,0000*7C
$GNGSA,A,3,31,27,28,08,26,16,10,02,04,01,41,,1.09,0.57,0.93*19
$GNGSA,A,3,85,73,71,80,74,72,86,,,,,,1.09,0.57,0.93*13
$GPGSV,5,1,18,01,16,331,33,02,44,330,42,04,24,270,37,08,35,247,35*7D
$GPGSV,5,2,18,09,01,245,,10,18,070,27,16,31,171,38,23,00,107,22*78
$GPGSV,5,3,18,26,38,134,36,27,39,199,30,28,33,036,37,31,63,045,38*71
$GPGSV,5,4,18,32,02,031,19,36,52,277,40,40,84,354,42,41,58,082,40*76
$GPGSV,5,5,18,49,32,274,,50,10,089,*78
$GLGSV,3,1,10,70,04,013,,71,12,330,29,72,06,284,28,73,42,109,36*61
$GLGSV,3,2,10,74,32,169,28,80,11,058,27,84,44,166,22,85,73,285,36*6D
$GLGSV,3,3,10,86,18,328,33,,,,29*51
$GNGLL,0419.72589,S,05539.92717,E,140551.00,A,D*66
$GNRMC,140552.00,A,0419.72588,S,05539.92718,E,0.005,,030625,,,D*75
$GNVTG,,T,,M,0.005,N,0.009,K,D*34
$GNGGA,140552.00,0419.72588,S,05539.92718,E,2,12,0.57,7.6,M,-47.6,M,,0000*70
$GNGSA,A,3,31,27,28,08,26,16,10,02,04,01,41,,1.09,0.57,0.93*19
$GNGSA,A,3,85,73,71,80,74,72,86,,,,,,1.09,0.57,0.93*13
$GPGSV,5,1,18,01,16,331,33,02,44,330,41,04,24,270,36,08,35,247,34*7E
$GPGSV,5,2,18,09,01,245,,10,18,070,26,16,31,171,37,23,00,107,23*77
$GPGSV,5,3,18,26,38,134,36,27,39,199,31,28,33,036,36,31,63,045,38*71
$GPGSV,5,4,18,32,02,031,20,36,52,277,39,40,84,354,42,41,58,082,39*7C
$GPGSV,5,5,18,49,32,274,,50,10,089,*78
$GLGSV,3,1,10,70,04,013,,71,12,330,29,72,06,284,28,73,42,109,36*61
$GLGSV,3,2,10,74,32,169,28,80,11,058,27,84,44,166,23,85,73,285,38*62
$GLGSV,3,3,10,86,18,328,34,,,,30*5E
$GNGLL,0419.72588,S,05539.92718,E,140552.00,A,D*6B
$GNRMC,140553.00,A,0419.72587,S,05539.92719,E,0.018,,030625,,,D*76
$GNVTG,,T,,M,0.018,N,0.033,K,D*31
$GNGGA,140553.00,0419.72587,S,05539.92719,E,2,12,0.57,7.6,M,-47.6,M,,0000*7F
$GNGSA,A,3,31,27,28,08,26,16,10,02,04,01,41,,1.09,0.57,0.93*19
$GNGSA,A,3,85,73,71,80,74,72,86,,,,,,1.09,0.57,0.93*13
$GPGSV,5,1,18,01,16,331,32,02,44,330,41,04,24,270,36,08,35,247,34*7F
$GPGSV,5,2,18,09,01,245,,10,18,070,25,16,31,171,37,23,00,107,24*73
$GPGSV,5,3,18,26,38,134,36,27,39,199,30,28,33,036,36,31,63,045,38*70
$GPGSV,5,4,18,32,02,031,20,36,52,277,39,40,84,354,42,41,58,082,39*7C
$GPGSV,5,5,18,49,32,274,,50,10,089,*78
$GLGSV,3,1,10,70,04,013,,71,12,330,29,72,06,284,28,73,42,109,34*63
$GLGSV,3,2,10,74,32,169,28,80,11,058,28,84,44,166,23,85,73,285,36*63
$GLGSV,3,3,10,86,18,328,34,,,,29*56
$GNGLL,0419.72587,S,05539.92719,E,140553.00,A,D*64
$GNRMC,140554.00,A,0419.72587,S,05539.92720,E,0.032,,030625,,,D*73
$GNVTG,,T,,M,0.032,N,0.060,K,D*3F
$GNGGA,140554.00,0419.72587,S,05539.92720,E,2,12,0.57,7.6,M,-47.6,M,,0000*72
$GNGSA,A,3,31,27,28,08,26,16,10,02,04,01,41,,1.09,0.57,0.93*19
$GNGSA,A,3,85,73,71,80,74,72,86,,,,,,1.09,0.57,0.93*13
$GPGSV,5,1,18,01,16,331,33,02,44,330,42,04,24,270,36,08,35,247,35*7C
$GPGSV,5,2,18,09,01,245,,10,18,070,24,16,31,171,38,23,00,107,25*7C
$GPGSV,5,3,18,26,38,134,36,27,39,199,31,28,33,036,37,31,63,044,38*71
$GPGSV,5,4,18,32,02,031,21,36,52,277,40,40,84,354,42,41,58,082,40*7D
$GPGSV,5,5,18,49,32,274,,50,10,089,*78
$GLGSV,3,1,10,70,04,013,,71,12,330,29,72,06,284,27,73,42,109,34*6C
$GLGSV,3,2,10,74,32,169,27,80,11,058,27,84,44,166,23,85,73,285,36*63
$GLGSV,3,3,10,86,18,328,34,,,,29*56
$GNGLL,0419.72587,S,05539.92720,E,140554.00,A,D*69
$GNRMC,140555.00,A,0419.72587,S,05539.92721,E,0.015,,030625,,,D*76
$GNVTG,,T,,M,0.015,N,0.027,K,D*39
$GNGGA,140555.00,0419.72587,S,05539.92721,E,2,12,0.57,7.7,M,-47.6,M,,0000*73
$GNGSA,A,3,31,27,28,08,26,16,10,02,04,01,41,,1.09,0.57,0.93*19
$GNGSA,A,3,85,73,71,80,74,72,86,,,,,,1.09,0.57,0.93*13
$GPGSV,5,1,18,01,16,331,33,02,44,330,42,04,24,270,36,08,35,247,35*7C
$GPGSV,5,2,18,09,01,245,,10,18,070,25,16,31,171,38,23,00,107,26*7E
$GPGSV,5,3,18,26,38,134,36,27,39,199,31,28,33,036,37,31,63,044,39*70
$GPGSV,5,4,18,32,02,031,22,36,52,277,40,40,84,354,42,41,58,082,39*70
$GPGSV,5,5,18,49,32,274,,50,10,089,*78
$GLGSV,3,1,10,70,04,013,,71,12,330,28,72,06,284,27,73,42,109,35*6C
$GLGSV,3,2,10,74,32,169,27,80,11,058,27,84,44,166,23,85,73,285,36*63
$GLGSV,3,3,10,86,18,328,34,,,,29*56
$GNGLL,0419.72587,S,05539.92721,E,140555.00,A,D*69
$GNRMC,140556.00,A,0419.72586,S,05539.92722,E,0.019,,030625,,,D*7B
$GNVTG,,T,,M,0.019,N,0.036,K,D*35
$GNGGA,140556.00,0419.72586,S,05539.92722,E,2,12,0.57,7.7,M,-47.6,M,,0000*72
$GNGSA,A,3,31,27,28,08,26,16,10,02,04,01,41,,1.09,0.57,0.93*19
$GNGSA,A,3,85,73,71,80,74,72,86,,,,,,1.09,0.57,0.93*13
$GPGSV,5,1,18,01,16,331,33,02,44,330,43,04,24,270,37,08,35,247,35*7C
$GPGSV,5,2,18,09,01,245,,10,18,070,27,16,31,171,38,23,00,107,27*7D
$GPGSV,5,3,18,26,38,134,36,27,39,199,31,28,33,036,37,31,63,044,37*7E
$GPGSV,5,4,18,32,02,031,24,36,52,277,40,40,84,354,42,41,58,082,39*76
$GPGSV,5,5,18,49,32,274,,50,10,089,*78
$GLGSV,3,1,10,70,04,013,,71,12,330,29,72,06,284,27,73,42,109,36*6E
$GLGSV,3,2,10,74,32,169,27,80,11,058,27,84,44,166,23,85,73,285,38*6D
$GLGSV,3,3,10,86,18,328,35,,,,29*57
$GNGLL,0419.72586,S,05539.92722,E,140556.00,A,D*68
$GNRMC,140557.00,A,0419.72585,S,05539.92723,E,0.018,,030625,,,D*79
$GNVTG,,T,,M,0.018,N,0.034,K,D*36
$GNGGA,140557.00,0419.72585,S,05539.92723,E,2,12,0.57,7.6,M,-47.6,M,,0000*70
$GNGSA,A,3,31,27,28,08,26,16,10,02,04,01,41,,1.09,0.57,0.93*19
$GNGSA,A,3,85,73,71,80,74,72,86,,,,,,1.09,0.57,0.93*13
$GPGSV,5,1,18,01,16,331,33,02,44,330,42,04,24,270,37,08,35,247,35*7D
$GPGSV,5,2,18,09,01,245,,10,18,070,27,16,31,171,38,23,00,107,27*7D
$GPGSV,5,3,18,26,38,134,36,27,39,199,31,28,33,036,37,31,63,044,38*71
$GPGSV,5,4,18,32,02,031,26,36,52,277,40,40,84,354,42,41,58,082,39*74
$GPGSV,5,5,18,49,32,274,,50,10,089,*78
$GLGSV,3,1,10,70,04,013,,71,12,330,30,72,06,284,28,73,42,109,36*69
$GLGSV,3,2,10,74,32,169,28,80,11,058,27,84,44,166,24,85,73,285,38*65
$GLGSV,3,3,10,86,18,328,36,,,,30*5C
$GNGLL,0419.72585,S,05539.92723,E,140557.00,A,D*6B
$GNRMC,140558.00,A,0419.72584,S,05539.92724,E,0.019,,030625,,,D*71
$GNVTG,,T,,M,0.019,N,0.034,K,D*37
$GNGGA,140558.00,0419.72584,S,05539.92724,E,2,12,0.57,7.6,M,-47.6,M,,0000*79
$GNGSA,A,3,31,27,28,08,26,16,10,02,04,01,41,,1.09,0.57,0.93*19
$GNGSA,A,3,85,73,71,80,74,72,86,,,,,,1.09,0.57,0.93*13
$GPGSV,5,1,18,01,16,331,33,02,44,330,41,04,24,270,36,08,35,247,34*7E
$GPGSV,5,2,18,09,01,245,,10,18,070,28,16,31,171,37,23,00,107,26*7C
$GPGSV,5,3,18,26,38,134,36,27,39,199,31,28,33,036,37,31,63,044,37*7E
$GPGSV,5,4,18,32,02,031,25,36,52,277,39,40,84,354,41,41,58,082,39*7A
$GPGSV,5,5,18,49,32,274,,50,10,089,*78
$GLGSV,3,1,10,70,04,013,,71,12,330,30,72,06,284,29,73,42,109,36*68
$GLGSV,3,2,10,74,32,169,28,80,11,058,27,84,44,166,25,85,73,285,37*6B
$GLGSV,3,3,10,86,18,328,36,,,,30*5C
$GNGLL,0419.72584,S,05539.92724,E,140558.00,A,D*62
$GNRMC,140559.00,A,0419.72585,S,05539.92725,E,0.023,,030625,,,D*79
$GNVTG,,T,,M,0.023,N,0.042,K,D*3F
$GNGGA,140559.00,0419.72585,S,05539.92725,E,2,12,0.57,7.6,M,-47.6,M,,0000*78
$GNGSA,A,3,31,27,28,08,26,16,10,02,04,01,41,,1.09,0.57,0.93*19
$GNGSA,A,3,85,73,71,80,74,72,86,,,,,,1.09,0.57,0.93*13
$GPGSV,5,1,18,01,16,331,32,02,44,330,40,04,24,270,35,08,35,247,34*7D
$GPGSV,5,2,18,09,01,245,,10,18,070,28,16,31,171,37,23,00,107,26*7C
$GPGSV,5,3,18,26,38,134,35,27,39,199,30,28,33,036,36,31,63,044,37*7D
$GPGSV,5,4,18,32,02,031,25,36,52,277,38,40,84,354,40,41,58,082,38*7B
$GPGSV,5,5,18,49,32,274,,50,10,089,*78
$GLGSV,3,1,10,70,04,013,,71,12,330,30,72,06,284,28,73,42,109,36*69
$GLGSV,3,2,10,74,32,169,28,80,11,058,28,84,44,166,25,85,73,285,37*64
$GLGSV,3,3,10,86,18,328,36,,,,30*5C
$GNGLL,0419.72585,S,05539.92725,E,140559.00,A,D*63
$GNRMC,140600.00,A,0419.72585,S,05539.92726,E,0.016,,030625,,,D*73
$GNVTG,,T,,M,0.016,N,0.030,K,D*3C
$GNGGA,140600.00,0419.72585,S,05539.92726,E,2,12,0.57,7.5,M,-47.6,M,,0000*77
$GNGSA,A,3,31,27,28,08,26,16,10,02,04,01,41,,1.09,0.57,0.93*19
$GNGSA,A,3,85,73,71,80,74,72,86,,,,,,1.09,0.57,0.93*13
$GPGSV,5,1,18,01,16,331,32,02,44,330,40,04,24,270,35,08,35,247,34*7D
$GPGSV,5,2,18,09,01,245,,10,18,070,28,16,31,171,36,23,00,107,26*7D
$GPGSV,5,3,18,26,38,134,35,27,39,199,30,28,33,036,36,31,63,044,37*7D
$GPGSV,5,4,18,32,02,031,24,36,52,277,38,40,84,354,41,41,58,082,38*7B
$GPGSV,5,5,18,49,32,274,,50,10,089,*78
$GLGSV,3,1,10,70,04,013,,71,12,330,31,72,06,284,28,73,42,109,36*68
$GLGSV,3,2,10,74,32,169,28,80,11,058,27,84,44,166,25,85,73,285,37*6B
$GLGSV,3,3,10,86,18,328,36,,,,31*5D
$GNGLL,0419.72585,S,05539.92726,E,140600.00,A,D*6F
$GNRMC,140601.00,A,0419.72584,S,05539.92727,E,0.014,,030625,,,D*70
$GNVTG,,T,,M,0.014,N,0.026,K,D*39
$GNGGA,140601.00,0419.72584,S,05539.92727,E,2,12,0.57,7.5,M,-47.6,M,,0000*76
$GNGSA,A,3,31,27,28,08,26,16,10,02,04,01,41,,1.09,0.57,0.93*19
$GNGSA,A,3,85,73,71,80,74,72,86,,,,,,1.09,0.57,0.93*13
$GPGSV,5,1,18,01,16,331,33,02,44,330,41,04,24,270,36,08,35,247,34*7E
$GPGSV,5,2,18,09,01,245,,10,18,070,27,16,31,171,37,23,00,107,26*73
$GPGSV,5,3,18,26,38,134,35,27,39,199,30,28,33,036,36,31,63,044,38*72
$GPGSV,5,4,18,32,02,031,24,36,52,277,39,40,84,354,41,41,58,082,39*7B
$GPGSV,5,5,18,49,32,274,,50,10,089,*78
$GLGSV,3,1,10,70,04,013,,71,12,330,30,72,06,284,28,73,42,109,36*69
$GLGSV,3,2,10,74,32,169,28,80,11,058,27,84,44,166,25,85,73,285,37*6B
$GLGSV,3,3,10,86,18,328,36,,,,31*5D
$GNGLL,0419.72584,S,05539.92727,E,140601.00,A,D*6E
$GNRMC,140602.00,A,0419.72583,S,05539.92728,E,0.017,,030625,,,D*78
$GNVTG,,T,,M,0.017,N,0.032,K,D*3F
$GNGGA,140602.00,0419.72583,S,05539.92728,E,2,12,0.57,7.5,M,-47.6,M,,0000*7D
$GNGSA,A,3,31,27,28,08,26,16,10,02,04,01,41,,1.09,0.57,0.93*19
$GNGSA,A,3,85,73,71,80,74,72,86,,,,,,1.09,0.57,0.93*13
$GPGSV,5,1,18,01,16,331,32,02,44,330,40,04,24,270,35,08,35,247,34*7D
$GPGSV,5,2,18,09,01,245,,10,18,070,25,16,31,171,37,23,00,107,25*72
$GPGSV,5,3,18,26,38,134,35,27,39,199,30,28,33,036,36,31,63,044,37*7D
$GPGSV,5,4,18,32,02,031,24,36,52,277,39,40,84,354,41,41,58,082,38*7A
$GPGSV,5,5,18,49,32,274,,50,10,089,*78
$GLGSV,3,1,10,70,04,013,,71,12,330,29,72,06,284,28,73,42,109,36*61
$GLGSV,3,2,10,74,32,169,28,80,11,058,27,84,44,166,25,85,73,285,37*6B
$GLGSV,3,3,10,86,18,328,35,,,,30*5F
$GNGLL,0419.72583,S,05539.92728,E,140602.00,A,D*65
$GNRMC,140603.00,A,0419.72583,S,05539.92729,E,0.007,,030625,,,D*79
$GNVTG,,T,,M,0.007,N,0.012,K,D*3C
$GNGGA,140603.00,0419.72583,S,05539.92729,E,2,12,0.57,7.5,M,-47.6,M,,0000*7D
$GNGSA,A,3,31,27,28,08,26,16,10,02,04,01,41,,1.09,0.57,0.93*19
$GNGSA,A,3,85,73,71,80,74,72,86,,,,,,1.09,0.57,0.93*13
$GPGSV,5,1,18,01,16,331,32,02,44,330,42,04,24,270,35,08,35,247,34*7F
$GPGSV,5,2,18,09,01,245,,10,18,070,25,16,31,171,37,23,00,107,26*71
$GPGSV,5,3,18,26,38,134,35,27,39,199,31,28,33,036,37,31,63,044,38*72
$GPGSV,5,4,18,32,02,031,25,36,52,277,39,40,84,354,41,41,58,082,39*7A
$GPGSV,5,5,18,49,32,274,,50,10,089,*78
$GLGSV,3,1,10,70,04,013,,71,12,330,29,72,06,284,27,73,42,109,36*6E
$GLGSV,3,2,10,74,32,169,27,80,11,058,27,84,44,166,24,85,73,285,37*65
$GLGSV,3,3,10,86,18,328,35,,,,30*5F
$GNGLL,0419.72583,S,05539.92729,E,140603.00,A,D*65
$GNRMC,140604.00,A,0419.72582,S,05539.92730,E,0.021,,030625,,,D*73
$GNVTG,,T,,M,0.021,N,0.039,K,D*31
$GNGGA,140604.00,0419.72582,S,05539.92730,E,2,12,0.57,7.5,M,-47.6,M,,0000*73
$GNGSA,A,3,31,27,28,08,26,16,10,02,04,01,41,,1.09,0.57,0.93*19
$GNGSA,A,3,85,73,71,80,74,72,86,,,,,,1.09,0.57,0.93*13
$GPGSV,5,1,18,01,16,331,32,02,44,330,40,04,24,270,35,08,35,247,34*7D
$GPGSV,5,2,18,09,01,245,,10,18,070,26,16,31,171,36,23,00,107,25*70
$GPGSV,5,3,18,26,38,134,35,27,39,199,30,28,33,036,36,31,63,044,37*7D
$GPGSV,5,4,18,32,02,031,25,36,52,277,38,40,84,354,40,41,58,082,38*7B
$GPGSV,5,5,18,49,32,274,,50,10,089,*78
$GLGSV,3,1,10,70,04,013,,71,12,330,29,72,06,284,28,73,42,109,36*61
$GLGSV,3,2,10,74,32,169,27,80,11,058,26,84,44,166,24,85,73,285,37*64
$GLGSV,3,3,10,86,18,328,35,,,,30*5F
$GNGLL,0419.72582,S,05539.92730,E,140604.00,A,D*6B
$GNRMC,140605.00,A,0419.72581,S,05539.92731,E,0.024,,030625,,,D*75
$GNVTG,,T,,M,0.024,N,0.044,K,D*3E
$GNGGA,140605.00,0419.72581,S,05539.92731,E,2,12,0.57,7.5,M,-47.6,M,,0000*70
$GNGSA,A,3,31,27,28,08,26,16,10,02,04,01,41,,1.09,0.57,0.93*19
$GNGSA,A,3,85,73,71,80,74,72,86,,,,,,1.09,0.57,0.93*13
$GPGSV,5,1,18,01,16,331,32,02,44,330,42,04,24,270,35,08,35,247,34*7F
$GPGSV,5,2,18,09,01,245,,10,18,070,26,16,31,171,38,23,00,107,25*7E
$GPGSV,5,3,18,26,38,134,35,27,39,199,30,28,33,036,37,31,63,044,37*7C
$GPGSV,5,4,18,32,02,031,25,36,52,277,39,40,84,354,41,41,58,082,38*7B
$GPGSV,5,5,18,49,32,274,,50,10,089,*78
$GLGSV,3,1,10,70,04,013,,71,12,330,29,72,06,284,28,73,42,109,36*61
$GLGSV,3,2,10,74,32,169,27,80,11,058,26,84,44,166,24,85,73,285,37*64
$GLGSV,3,3,10,86,18,328,34,,,,30*5E
$GNGLL,0419.72581,S,05539.92731,E,140605.00,A,D*68
$GNRMC,140606.00,A,0419.72580,S,05539.92732,E,0.010,,030625,,,D*73
$GNVTG,,T,,M,0.010,N,0.018,K,D*30
$GNGGA,140606.00,0419.72580,S,05539.92732,E,2,12,0.57,7.5,M,-47.6,M,,0000*71
$GNGSA,A,3,31,27,28,08,26,16,10,02,04,01,41,,1.09,0.57,0.93*19
$GNGSA,A,3,85,73,71,80,74,72,86,,,,,,1.09,0.57,0.93*13
$GPGSV,5,1,18,01,16,331,33,02,44,330,42,04,24,270,36,08,35,247,35*7C
$GPGSV,5,2,18,09,01,245,,10,18,070,26,16,31,171,37,23,00,107,25*71
$GPGSV,5,3,18,26,38,134,36,27,39,199,31,28,33,036,37,31,63,044,38*71
$GPGSV,5,4,18,32,02,031,25,36,52,277,39,40,84,354,42,41,58,082,39*79
$GPGSV,5,5,18,49,32,274,,50,10,089,*78
$GLGSV,3,1,10,70,04,013,,71,12,330,30,72,06,284,27,73,42,109,36*66
$GLGSV,3,2,10,74,32,169,27,80,11,058,26,84,44,166,23,85,73,285,36*62
$GLGSV,3,3,10,86,18,328,35,,,,30*5F
$GNGLL,0419.72580,S,05539.92732,E,140606.00,A,D*69
$GNRMC,140607.00,A,0419.72580,S,05539.92733,E,0.004,,030625,,,D*76
$GNVTG,,T,,M,0.004,N,0.008,K,D*34
$GNGGA,140607.00,0419.72580,S,05539.92733,E,2,12,0.57,7.5,M,-47.6,M,,0000*71
$GNGSA,A,3,31,27,28,08,26,16,10,02,04,01,41,,1.09,0.57,0.93*19
$GNGSA,A,3,85,73,71,80,74,72,86,,,,,,1.09,0.57,0.93*13
$GPGSV,5,1,18,01,16,331,32,02,44,330,41,04,24,270,37,08,35,247,30*7A
$GPGSV,5,2,18,09,01,245,,10,18,070,26,16,31,171,38,23,00,107,23*78
$GPGSV,5,3,18,26,38,134,35,27,39,199,30,28,33,036,35,31,63,044,38*71
$GPGSV,5,4,18,32,02,031,25,36,52,277,37,40,84,354,41,41,58,082,38*75
$GPGSV,5,5,18,49,32,274,,50,10,089,*78
$GLGSV,3,1,10,70,04,013,,71,12,330,29,72,06,284,27,73,42,109,35*6D
$GLGSV,3,2,10,74,32,169,27,80,11,058,26,84,44,166,22,85,73,285,35*60
$GLGSV,3,3,10,86,18,328,33,,,,29*51
$GNGLL,0419.72580,S,05539.92733,E,140607.00,A,D*69
$GNRMC,140608.00,A,0419.72580,S,05539.92734,E,0.010,,030625,,,D*7B
$GNVTG,,T,,M,0.010,N,0.019,K,D*31
$GNGGA,140608.00,0419.72580,S,05539.92734,E,2,12,0.57,7.5,M,-47.6,M,,0000*79
$GNGSA,A,3,31,27,28,08,26,16,10,02,04,01,41,,1.09,0.57,0.93*19
$GNGSA,A,3,85,73,71,80,74,72,86,,,,,,1.09,0.57,0.93*13
$GPGSV,5,1,18,01,16,331,32,02,44,330,41,04,24,270,35,08,35,247,30*78
$GPGSV,5,2,18,09,01,245,,10,18,070,26,16,31,171,36,23,00,107,22*77
$GPGSV,5,3,18,26,38,134,34,27,39,199,30,28,33,036,35,31,63,044,38*70
$GPGSV,5,4,18,32,02,031,24,36,52,277,38,40,84,354,41,41,58,082,38*7B
$GPGSV,5,5,18,49,32,274,,50,10,089,*78
$GLGSV,3,1,10,70,04,013,,71,12,330,28,72,06,284,27,73,42,109,36*6F
$GLGSV,3,2,10,74,32,169,27,80,11,058,26,84,44,166,21,85,73,285,36*60
$GLGSV,3,3,10,86,18,328,33,,,,29*51
$GNGLL,0419.72580,S,05539.92734,E,140608.00,A,D*61
$GNRMC,140609.00,A,0419.72580,S,05539.92735,E,0.015,,030625,,,D*7E
$GNVTG,,T,,M,0.015,N,0.027,K,D*39
$GNGGA,140609.00,0419.72580,S,05539.92735,E,2,12,0.57,7.5,M,-47.6,M,,0000*79
$GNGSA,A,3,31,27,28,08,26,16,10,02,04,01,41,,1.09,0.57,0.93*19
$GNGSA,A,3,85,73,71,80,74,72,86,,,,,,1.09,0.57,0.93*13
$GPGSV,5,1,18,01,16,331,32,02,44,330,41,04,24,270,36,08,35,247,31*7A
$GPGSV,5,2,18,09,01,245,,10,18,070,24,16,31,171,37,23,00,107,23*75
$GPGSV,5,3,18,26,38,134,35,27,39,199,31,28,33,036,35,31,63,044,38*70
$GPGSV,5,4,18,32,02,031,23,36,52,277,38,40,84,354,41,41,58,082,38*7C
$GPGSV,5,5,18,49,32,274,,50,10,089,*78
$GLGSV,3,1,10,70,04,013,,71,12,330,29,72,06,284,27,73,42,109,37*6F
$GLGSV,3,2,10,74,32,169,27,80,11,058,26,84,44,166,22,85,73,285,37*62
$GLGSV,3,3,10,86,18,328,34,,,,30*5E
$GNGLL,0419.72580,S,05539.92735,E,140609.00,A,D*61
$GNRMC,140610.00,A,0419.72580,S,05539.92736,E,0.032,,030625,,,D*70
$GNVTG,,T,,M,0.032,N,0.060,K,D*3F
$GNGGA,140610.00,0419.72580,S,05539.92736,E,2,12,0.57,7.4,M,-47.6,M,,0000*73
$GNGSA,A,3,31,27,28,08,26,16,10,02,04,01,41,,1.09,0.57,0.93*19
$GNGSA,A,3,85,73,71,80,74,72,86,,,,,,1.09,0.57,0.93*13
$GPGSV,5,1,18,01,16,331,32,02,44,330,42,04,24,270,36,08,35,247,31*79
$GPGSV,5,2,18,09,01,245,,10,18,070,25,16,31,171,39,23,00,107,23*7A
$GPGSV,5,3,18,26,38,134,36,27,39,199,31,28,33,036,36,31,63,044,38*70
$GPGSV,5,4,18,32,02,031,22,36,52,277,39,40,84,354,42,41,58,082,40*70
$GPGSV,5,5,18,49,32,274,,50,10,089,*78
$GLGSV,3,1,10,70,04,013,,71,12,330,29,72,06,284,28,73,42,109,38*6F
$GLGSV,3,2,10,74,32,169,28,80,11,058,28,84,44,166,23,85,73,285,39*6C
$GLGSV,3,3,10,86,18,328,36,,,,30*5C
$GNGLL,0419.72580,S,05539.92736,E,140610.00,A,D*6A
$GNRMC,140611.00,A,0419.72579,S,05539.92738,E,0.010,,030625,,,D*79
$GNVTG,,T,,M,0.010,N,0.019,K,D*31
$GNGGA,140611.00,0419.72579,S,05539.92738,E,2,12,0.57,7.4,M,-47.6,M,,0000*7A
$GNGSA,A,3,31,27,28,08,26,16,10,02,04,01,41,,1.09,0.57,0.93*19
$GNGSA,A,3,85,73,71,80,74,72,86,,,,,,1.09,0.57,0.93*13
$GPGSV,5,1,18,01,16,331,32,02,44,330,41,04,24,270,36,08,35,247,31*7A
$GPGSV,5,2,18,09,01,245,,10,18,070,23,16,31,171,37,23,00,107,23*72
$GPGSV,5,3,18,26,38,134,35,27,39,199,30,28,33,036,35,31,63,044,38*71
$GPGSV,5,4,18,32,02,031,21,36,52,277,37,40,84,354,41,41,58,082,38*71
$GPGSV,5,5,18,49,32,274,,50,10,089,*78
$GLGSV,3,1,10,70,04,013,,71,12,330,29,72,06,284,28,73,42,109,35*62
$GLGSV,3,2,10,74,32,169,28,80,11,058,29,84,44,166,23,85,73,285,37*63
$GLGSV,3,3,10,86,18,328,33,,,,30*59
$GNGLL,0419.72579,S,05539.92738,E,140611.00,A,D*63
$GNRMC,140612.00,A,0419.72579,S,05539.92739,E,0.017,,030625,,,D*7C
$GNVTG,,T,,M,0.017,N,0.032,K,D*3F
$GNGGA,140612.00,0419.72579,S,05539.92739,E,2,12,0.57,7.4,M,-47.6,M,,0000*78
$GNGSA,A,3,31,27,28,08,26,16,10,02,04,01,41,,1.09,0.57,0.93*19
$GNGSA,A,3,85,73,71,80,74,72,86,,,,,,1.09,0.57,0.93*13
$GPGSV,5,1,18,01,16,331,32,02,44,330,42,04,24,270,36,08,35,247,30*78
$GPGSV,5,2,18,09,01,245,,10,18,070,22,16,31,171,38,23,00,107,24*7B
$GPGSV,5,3,18,26,38,134,35,27,39,199,31,28,33,036,36,31,63,044,38*73
$GPGSV,5,4,18,32,02,031,20,36,52,277,39,40,84,354,42,41,58,082,40*72
$GPGSV,5,5,18,49,32,274,,50,10,089,*78
$GLGSV,3,1,10,70,04,013,,71,12,330,28,72,06,284,27,73,42,109,35*6C
$GLGSV,3,2,10,74,32,169,28,80,11,058,28,84,44,166,22,85,73,285,35*61
$GLGSV,3,3,10,86,18,328,34,,,,30*5E
$GNGLL,0419.72579,S,05539.92739,E,140612.00,A,D*61
$GNRMC,140613.00,A,0419.72579,S,05539.92740,E,0.007,,030625,,,D*72
$GNVTG,,T,,M,0.007,N,0.014,K,D*3A
$GNGGA,140613.00,0419.72579,S,05539.92740,E,2,12,0.57,7.5,M,-47.6,M,,0000*76
$GNGSA,A,3,31,27,28,08,26,16,10,02,04,01,41,,1.09,0.57,0.93*19
$GNGSA,A,3,85,73,71,80,74,72,86,,,,,,1.09,0.57,0.93*13
$GPGSV,5,1,18,01,16,331,33,02,44,330,42,04,24,270,38,08,35,247,31*76
$GPGSV,5,2,18,09,01,245,,10,18,070,21,16,31,171,38,23,00,107,24*78
$GPGSV,5,3,18,26,38,134,36,27,39,199,31,28,33,036,36,31,63,044,38*70
$GPGSV,5,4,18,32,02,031,19,36,52,277,39,40,84,354,42,41,58,082,38*77
$GPGSV,5,5,18,49,32,274,,50,10,089,*78
$GLGSV,3,1,10,70,04,013,,71,12,330,28,72,06,284,28,73,42,109,36*60
$GLGSV,3,2,10,74,32,169,28,80,11,058,28,84,44,166,22,85,73,285,36*62
$GLGSV,3,3,10,86,18,328,34,,,,30*5E
$GNGLL,0419.72579,S,05539.92740,E,140613.00,A,D*6E
$GNRMC,140614.00,A,0419.72578,S,05539.92741,E,0.034,,030625,,,D*75
$GNVTG,,T,,M,0.034,N,0.064,K,D*3D
$GNGGA,140614.00,0419.72578,S,05539.92741,E,2,12,0.57,7.5,M,-47.6,M,,0000*71
$GNGSA,A,3,31,27,28,08,26,16,10,02,04,01,41,,1.09,0.57,0.93*19
$GNGSA,A,3,85,73,71,80,74,72,86,,,,,,1.09,0.57,0.93*13
$GPGSV,5,1,18,01,16,331,32,02,44,330,41,04,24,270,36,08,35,247,31*7A
$GPGSV,5,2,18,09,01,245,,10,18,070,22,16,31,171,37,23,00,107,24*74
$GPGSV,5,3,18,26,38,134,35,27,39,199,31,28,33,036,36,31,63,044,38*73
$GPGSV,5,4,18,32,02,031,19,36,52,277,37,40,84,354,41,41,58,082,38*7A
$GPGSV,5,5,18,49,32,274,,50,10,089,*78
$GLGSV,3,1,10,70,04,013,,71,12,330,28,72,06,284,28,73,42,109,36*60
$GLGSV,3,2,10,74,32,169,28,80,11,058,28,84,44,166,21,85,73,285,36*61
$GLGSV,3,3,10,86,18,328,35,,,,30*5F
$GNGLL,0419.72578,S,05539.92741,E,140614.00,A,D*69
$GNRMC,140615.00,A,0419.72577,S,05539.92742,E,0.028,,030625,,,D*75
$GNVTG,,T,,M,0.028,N,0.053,K,D*34
$GNGGA,140615.00,0419.72577,S,05539.92742,E,2,12,0.57,7.5,M,-47.6,M,,0000*7C
$GNGSA,A,3,31,27,28,08,26,16,10,02,04,01,41,,1.09,0.57,0.93*19
$GNGSA,A,3,85,73,71,80,74,72,86,,,,,,1.09,0.57,0.93*13
$GPGSV,5,1,18,01,16,331,32,02,44,330,41,04,24,270,36,08,35,247,31*7A
$GPGSV,5,2,18,09,01,245,,10,18,070,25,16,31,171,37,23,00,107,23*74
$GPGSV,5,3,18,26,38,134,35,27,39,199,30,28,33,036,36,31,63,044,38*72
$GPGSV,5,4,18,32,02,031,20,36,52,277,37,40,84,354,41,41,58,082,38*70
$GPGSV,5,5,18,49,32,274,,50,10,089,*78
$GLGSV,3,1,10,70,04,013,,71,12,330,28,72,06,284,28,73,42,109,36*60
$GLGSV,3,2,10,74,32,169,28,80,11,058,28,84,44,166,22,85,73,285,36*62
$GLGSV,3,3,10,86,18,328,34,,,,30*5E
$GNGLL,0419.72577,S,05539.92742,E,140615.00,A,D*64
$GNRMC,140616.00,A,0419.72572,S,05539.92744,E,0.033,,030625,,,D*7F
$GNVTG,,T,,M,0.033,N,0.060,K,D*3E
$GNGGA,140616.00,0419.72572,S,05539.92744,E,2,12,0.61,7.7,M,-47.6,M,,0000*7B
$GNGSA,A,3,31,27,28,08,26,16,10,02,04,01,41,,1.22,0.61,1.06*18
$GNGSA,A,3,85,73,71,80,74,72,86,,,,,,1.22,0.61,1.06*12
$GPGSV,5,1,18,01,16,331,32,02,44,330,42,04,24,270,36,08,35,247,31*79
$GPGSV,5,2,18,09,01,245,,10,18,070,26,16,31,171,37,23,00,107,23*77
$GPGSV,5,3,18,26,38,134,36,27,39,199,31,28,33,036,36,31,63,044,38*70
$GPGSV,5,4,18,32,02,031,20,36,52,277,38,40,84,354,41,41,58,082,38*7F
$GPGSV,5,5,18,49,32,274,,50,10,089,*78
$GLGSV,3,1,10,70,04,013,,71,12,330,29,72,06,284,28,73,42,109,36*61
$GLGSV,3,2,10,74,32,169,28,80,11,058,28,84,44,166,22,85,73,285,36*62
$GLGSV,3,3,10,86,18,328,35,,,,30*5F
$GNGLL,0419.72572,S,05539.92744,E,140616.00,A,D*64
$GNRMC,140617.00,A,0419.72570,S,05539.92743,E,0.023,,030625,,,D*7A
$GNVTG,,T,,M,0.023,N,0.042,K,D*3F
$GNGGA,140617.00,0419.72570,S,05539.92743,E,2,12,0.61,7.8,M,-47.6,M,,0000*70
$GNGSA,A,3,31,27,28,08,26,16,10,02,04,01,41,,1.22,0.61,1.06*18
$GNGSA,A,3,85,73,71,80,74,72,86,,,,,,1.22,0.61,1.06*12
$GPGSV,5,1,18,01,16,331,32,02,44,330,41,04,24,270,35,08,35,247,31*79
$GPGSV,5,2,18,09,01,245,,10,18,070,28,16,31,171,37,23,00,107,23*79
$GPGSV,5,3,18,26,38,134,34,27,39,199,30,28,33,036,36,31,63,044,37*7C
$GPGSV,5,4,18,32,02,031,19,36,52,277,37,40,84,354,41,41,58,082,38*7A
$GPGSV,5,5,18,49,32,274,,50,10,089,*78
$GLGSV,3,1,10,70,04,013,,71,12,330,29,72,06,284,28,73,42,109,36*61
$GLGSV,3,2,10,74,32,169,28,80,11,058,28,84,44,166,22,85,73,285,36*62
$GLGSV,3,3,10,86,18,328,35,,,,30*5F
$GNGLL,0419.72570,S,05539.92743,E,140617.00,A,D*60
$GNRMC,140618.00,A,0419.72567,S,05539.92743,E,0.017,,030625,,,D*74
$GNVTG,,T,,M,0.017,N,0.032,K,D*3F
$GNGGA,140618.00,0419.72567,S,05539.92743,E,2,12,0.61,7.9,M,-47.6,M,,0000*78
$GNGSA,A,3,31,27,28,08,26,16,10,02,04,01,41,,1.22,0.61,1.06*18
$GNGSA,A,3,85,73,71,80,74,72,86,,,,,,1.22,0.61,1.06*12
$GPGSV,5,1,18,01,16,331,31,02,44,330,40,04,24,270,35,08,35,247,30*7A
$GPGSV,5,2,18,09,01,245,,10,18,070,36,16,31,171,37,23,00,107,21*74
$GPGSV,5,3,18,26,38,134,37,27,39,199,30,28,33,036,33,31,63,044,38*75
$GPGSV,5,4,18,32,02,031,17,36,52,277,37,40,84,354,41,41,58,082,38*74
$GPGSV,5,5,18,49,32,274,,50,10,089,*78
$GLGSV,3,1,10,70,04,013,,71,12,330,28,72,06,284,28,73,42,109,29*6E
$GLGSV,3,2,10,74,32,169,28,80,11,058,27,84,44,166,22,85,73,285,37*6C
$GLGSV,3,3,10,86,18,328,34,,,,30*5E
$GNGLL,0419.72567,S,05539.92743,E,140618.00,A,D*69
$GNRMC,140619.00,A,0419.72567,S,05539.92744,E,0.022,,030625,,,D*74
$GNVTG,,T,,M,0.022,N,0.041,K,D*3D
$GNGGA,140619.00,0419.72567,S,05539.92744,E,2,12,0.57,8.0,M,-47.6,M,,0000*7D
$GNGSA,A,3,31,27,28,08,26,16,10,02,04,01,41,,1.09,0.57,0.93*19
$GNGSA,A,3,85,73,71,80,74,72,86,,,,,,1.09,0.57,0.93*13
$GPGSV,5,1,18,01,16,331,34,02,44,330,39,04,24,270,37,08,35,247,32*71
$GPGSV,5,2,18,09,01,245,,10,18,070,34,16,31,171,38,23,00,107,19*72
$GPGSV,5,3,18,26,38,134,39,27,39,199,33,28,33,036,33,31,63,044,38*78
$GPGSV,5,4,18,32,02,031,16,36,52,277,38,40,84,354,41,41,58,082,39*7B
$GPGSV,5,5,18,49,32,274,,50,10,089,*78
$GLGSV,3,1,10,70,04,013,,71,12,330,29,72,06,284,26,73,42,109,34*6D
$GLGSV,3,2,10,74,32,169,28,80,11,058,27,84,44,166,23,85,73,285,38*62
$GLGSV,3,3,10,86,18,328,33,,,,29*51
$GNGLL,0419.72567,S,05539.92744,E,140619.00,A,D*6F
$GNRMC,140620.00,A,0419.72568,S,05539.92742,E,0.020,,030625,,,D*75
$GNVTG,,T,,M,0.020,N,0.037,K,D*3E
$GNGGA,140620.00,0419.72568,S,05539.92742,E,2,12,0.57,8.0,M,-47.6,M,,0000*7E
$GNGSA,A,3,31,27,28,08,26,16,10,02,04,01,41,,1.09,0.57,0.93*19
$GNGSA,A,3,85,73,71,80,74,72,86,,,,,,1.09,0.57,0.93*13
$GPGSV,5,1,18,01,16,331,32,02,44,330,40,04,24,270,36,08,35,247,34*7E
$GPGSV,5,2,18,09,01,245,,10,18,070,32,16,31,171,37,23,00,107,17*75
$GPGSV,5,3,18,26,38,134,38,27,39,199,32,28,33,036,33,31,63,044,37*77
$GPGSV,5,4,18,32,02,031,11,36,52,277,39,40,84,354,40,41,58,082,38*7D
$GPGSV,5,5,18,49,32,274,,50,10,089,*78
$GLGSV,3,1,10,70,04,013,,71,12,330,29,72,06,284,26,73,42,109,34*6D
$GLGSV,3,2,10,74,32,169,27,80,11,058,26,84,44,166,24,85,73,285,38*6B
$GLGSV,3,3,10,86,18,328,33,,,,28*50
$GNGLL,0419.72568,S,05539.92742,E,140620.00,A,D*6C
$GNRMC,140621.00,A,0419.72565,S,05539.92745,E,0.019,,030625,,,D*74
$GNVTG,,T,,M,0.019,N,0.036,K,D*35
$GNGGA,140621.00,0419.72565,S,05539.92745,E,2,12,0.57,8.1,M,-47.6,M,,0000*74
$GNGSA,A,3,31,27,28,08,26,16,10,02,04,01,41,,1.09,0.57,0.93*19
$GNGSA,A,3,85,73,71,80,74,72,86,,,,,,1.09,0.57,0.93*13
$GPGSV,5,1,18,01,16,331,33,02,44,330,40,04,24,270,36,08,35,247,33*78
$GPGSV,5,2,18,09,01,245,,10,18,070,33,16,31,171,36,23,00,107,16*74
$GPGSV,5,3,18,26,38,134,38,27,39,199,31,28,33,036,34,31,63,044,41*72
$GPGSV,5,4,18,32,02,031,09,36,52,277,36,40,84,354,41,41,58,082,40*75
$GPGSV,5,5,18,49,32,274,,50,10,089,*78
$GLGSV,3,1,10,70,04,013,,71,12,330,29,72,06,284,26,73,42,109,33*6A
$GLGSV,3,2,10,74,32,169,27,80,11,058,27,84,44,166,23,85,73,285,35*60
$GLGSV,3,3,10,86,18,328,34,,,,28*57
$GNGLL,0419.72565,S,05539.92745,E,140621.00,A,D*67
$GNRMC,140622.00,A,0419.72563,S,05539.92746,E,0.042,,030625,,,D*7C
$GNVTG,,T,,M,0.042,N,0.078,K,D*31
$GNGGA,140622.00,0419.72563,S,05539.92746,E,2,12,0.57,8.1,M,-47.6,M,,0000*72
$GNGSA,A,3,31,27,28,08,26,16,10,02,04,01,41,,1.09,0.57,0.93*19
$GNGSA,A,3,85,73,71,80,74,72,86,,,,,,1.09,0.57,0.93*13
$GPGSV,5,1,18,01,16,331,32,02,44,330,40,04,24,270,36,08,35,247,31*7B
$GPGSV,5,2,18,09,01,245,,10,18,070,33,16,31,171,37,23,00,107,16*75
$GPGSV,5,3,18,26,38,134,38,27,39,199,31,28,33,036,34,31,63,044,38*7C
$GPGSV,5,4,18,32,02,031,11,36,52,277,38,40,84,354,41,41,58,082,40*72
$GPGSV,5,5,18,49,32,274,,50,10,089,*78
$GLGSV,3,1,10,70,04,013,,71,12,331,29,72,06,284,26,73,42,109,35*6D
$GLGSV,3,2,10,74,32,169,27,80,11,058,27,84,44,166,24,85,73,285,36*64
$GLGSV,3,3,10,86,18,328,34,,,,27*58
$GNGLL,0419.72563,S,05539.92746,E,140622.00,A,D*61
$GNRMC,140623.00,A,0419.72565,S,05539.92742,E,0.026,,030625,,,D*7D
$GNVTG,,T,,M,0.026,N,0.048,K,D*30
$GNGGA,140623.00,0419.72565,S,05539.92742,E,2,12,0.57,8.2,M,-47.6,M,,0000*72
$GNGSA,A,3,31,27,28,08,26,16,10,02,04,01,41,,1.09,0.57,0.93*19
$GNGSA,A,3,85,73,71,80,74,72,86,,,,,,1.09,0.57,0.93*13
$GPGSV,5,1,18,01,16,331,32,02,44,330,41,04,24,270,36,08,35,247,34*7F
$GPGSV,5,2,18,09,01,245,,10,18,070,34,16,31,171,38,23,00,107,16*7D
$GPGSV,5,3,18,26,38,134,38,27,39,199,33,28,33,036,34,31,63,044,38*7E
$GPGSV,5,4,18,32,02,031,10,36,52,277,37,40,84,354,41,41,58,082,37*7C
$GPGSV,5,5,18,49,32,274,,50,10,089,*78
$GLGSV,3,1,10,70,04,013,,71,12,331,30,72,06,284,25,73,42,109,35*66
$GLGSV,3,2,10,74,32,169,28,80,11,058,28,84,44,166,23,85,73,285,37*62
$GLGSV,3,3,10,86,18,328,34,,,,27*58
$GNGLL,0419.72565,S,05539.92742,E,140623.00,A,D*62
$GNRMC,140624.00,A,0419.72566,S,05539.92743,E,0.007,,030625,,,D*7B
$GNVTG,,T,,M,0.007,N,0.013,K,D*3D
$GNGGA,140624.00,0419.72566,S,05539.92743,E,2,12,0.57,8.3,M,-47.6,M,,0000*76
$GNGSA,A,3,31,27,28,08,26,16,10,02,04,01,41,,1.09,0.57,0.93*19
$GNGSA,A,3,85,73,71,80,74,72,86,,,,,,1.09,0.57,0.93*13
$GPGSV,5,1,18,01,16,331,32,02,44,330,41,04,24,270,36,08,35,247,34*7F
$GPGSV,5,2,18,09,01,245,,10,18,070,32,16,31,171,38,23,00,107,18*75
$GPGSV,5,3,18,26,38,134,39,27,39,199,33,28,33,036,34,31,63,044,39*7E
$GPGSV,5,4,18,32,02,031,13,36,52,277,39,40,84,354,41,41,58,082,39*7F
$GPGSV,5,5,18,49,32,274,,50,10,089,*78
$GLGSV,3,1,10,70,04,013,,71,12,331,30,72,06,284,25,73,42,108,31*63
$GLGSV,3,2,10,74,32,169,28,80,11,058,28,84,44,166,22,85,73,285,38*6C
$GLGSV,3,3,10,86,18,328,33,,,,27*5F
$GNGLL,0419.72566,S,05539.92743,E,140624.00,A,D*67
$GNRMC,140625.00,A,0419.72567,S,05539.92745,E,0.009,,030625,,,D*73
$GNVTG,,T,,M,0.009,N,0.016,K,D*36
$GNGGA,140625.00,0419.72567,S,05539.92745,E,2,12,0.57,8.3,M,-47.6,M,,0000*70
$GNGSA,A,3,31,27,28,08,26,16,10,02,04,01,41,,1.09,0.57,0.93*19
$GNGSA,A,3,85,73,71,80,74,72,86,,,,,,1.09,0.57,0.93*13
$GPGSV,5,1,18,01,16,331,32,02,44,330,41,04,24,270,36,08,35,247,34*7F
$GPGSV,5,2,18,09,01,245,,10,18,070,32,16,31,171,39,23,00,107,19*75
$GPGSV,5,3,18,26,38,134,39,27,39,199,34,28,33,036,34,31,63,044,39*79
$GPGSV,5,4,18,32,02,031,15,36,52,277,39,40,84,354,41,41,58,082,39*79
$GPGSV,5,5,18,49,32,274,,50,10,089,*78
$GLGSV,3,1,10,70,04,013,,71,12,331,29,72,06,284,26,73,42,108,32*6B
$GLGSV,3,2,10,74,32,168,29,80,11,058,29,84,44,166,21,85,73,285,38*6E
$GLGSV,3,3,10,86,18,328,33,,,,27*5F
$GNGLL,0419.72567,S,05539.92745,E,140625.00,A,D*61
$GNRMC,140626.00,A,0419.72568,S,05539.92745,E,0.031,,030625,,,D*74
$GNVTG,,T,,M,0.031,N,0.057,K,D*38
$GNGGA,140626.00,0419.72568,S,05539.92745,E,2,12,0.57,8.4,M,-47.6,M,,0000*7B
$GNGSA,A,3,31,27,28,08,26,16,10,02,04,01,41,,1.09,0.57,0.93*19
$GNGSA,A,3,85,73,71,80,74,72,86,,,,,,1.09,0.57,0.93*13
$GPGSV,5,1,18,01,16,331,32,02,44,330,41,04,24,270,36,08,35,247,34*7F
$GPGSV,5,2,18,09,01,245,,10,18,070,32,16,31,171,39,23,00,107,19*75
$GPGSV,5,3,18,26,38,134,39,27,39,199,34,28,33,036,34,31,63,044,39*79
$GPGSV,5,4,18,32,02,031,15,36,52,277,38,40,84,354,41,41,58,082,39*78
$GPGSV,5,5,18,49,32,274,,50,10,089,*78
$GLGSV,3,1,11,70,04,013,,71,12,331,29,72,06,284,26,73,42,108,33*6B
$GLGSV,3,2,11,74,32,168,29,75,00,206,,80,11,058,29,84,44,166,22*67
$GLGSV,3,3,11,85,73,285,38,86,18,328,34,,,,27*64
$GNGLL,0419.72568,S,05539.92745,E,140626.00,A,D*6D
$GNRMC,140627.00,A,0419.72569,S,05539.92746,E,0.006,,030625,,,D*73
$GNVTG,,T,,M,0.006,N,0.011,K,D*3E
$GNGGA,140627.00,0419.72569,S,05539.92746,E,2,12,0.57,8.4,M,-47.6,M,,0000*78
$GNGSA,A,3,31,27,28,08,26,16,10,02,04,01,41,,1.09,0.57,0.93*19
$GNGSA,A,3,85,73,71,80,74,72,86,,,,,,1.09,0.57,0.93*13
$GPGSV,5,1,18,01,16,331,32,02,44,330,41,04,24,270,36,08,35,247,33*78
$GPGSV,5,2,18,09,01,245,,10,18,070,32,16,31,171,39,23,00,107,18*74
$GPGSV,5,3,18,26,38,134,39,27,39,199,34,28,33,036,34,31,63,044,39*79
$GPGSV,5,4,18,32,02,031,13,36,52,277,38,40,84,354,41,41,58,082,39*7E
$GPGSV,5,5,18,49,32,274,,50,10,089,*78
$GLGSV,3,1,11,70,04,013,,71,12,331,29,72,06,284,26,73,42,108,33*6B
$GLGSV,3,2,11,74,32,168,29,75,00,206,,80,11,058,28,84,44,166,22*66
$GLGSV,3,3,11,85,73,285,38,86,18,328,33,,,,27*63
$GNGLL,0419.72569,S,05539.92746,E,140627.00,A,D*6E
$GNRMC,140628.00,A,0419.72570,S,05539.92747,E,0.005,,030625,,,D*76
$GNVTG,,T,,M,0.005,N,0.010,K,D*3C
$GNGGA,140628.00,0419.72570,S,05539.92747,E,2,12,0.57,8.5,M,-47.6,M,,0000*7F
$GNGSA,A,3,31,27,28,08,26,16,10,02,04,01,41,,1.09,0.57,0.93*19
$GNGSA,A,3,85,73,71,80,74,72,86,,,,,,1.09,0.57,0.93*13
$GPGSV,5,1,18,01,16,331,32,02,44,330,41,04,24,270,37,08,35,247,34*7E
$GPGSV,5,2,18,09,01,245,,10,18,070,33,16,31,171,39,23,00,107,20*7E
$GPGSV,5,3,18,26,38,134,39,27,39,199,33,28,33,036,33,31,63,044,39*79
$GPGSV,5,4,18,32,02,031,11,36,52,277,38,40,84,354,41,41,58,082,39*7C
$GPGSV,5,5,18,49,32,274,,50,10,089,*78
$GLGSV,3,1,11,70,04,013,,71,12,331,29,72,06,284,26,73,42,108,33*6B
$GLGSV,3,2,11,74,32,168,28,75,00,206,,80,11,058,28,84,44,166,21*64
$GLGSV,3,3,11,85,73,285,38,86,18,328,34,,,,27*64
$GNGLL,0419.72570,S,05539.92747,E,140628.00,A,D*68
$GNRMC,140629.00,A,0419.72569,S,05539.92748,E,0.006,,030625,,,D*73
$GNVTG,,T,,M,0.006,N,0.010,K,D*3F
$GNGGA,140629.00,0419.72569,S,05539.92748,E,2,12,0.57,8.5,M,-47.6,M,,0000*79
$GNGSA,A,3,31,27,28,08,26,16,10,02,04,01,41,,1.09,0.57,0.93*19
$GNGSA,A,3,85,73,71,80,74,72,86,,,,,,1.09,0.57,0.93*13
$GPGSV,5,1,18,01,16,331,32,02,44,330,41,04,24,270,37,08,35,247,34*7E
$GPGSV,5,2,18,09,01,245,,10,18,070,33,16,31,171,37,23,00,107,22*72
$GPGSV,5,3,18,26,38,134,37,27,39,199,32,28,33,036,33,31,63,044,39*76
$GPGSV,5,4,18,32,02,031,10,36,52,277,37,40,84,354,41,41,58,082,39*72
$GPGSV,5,5,18,49,32,274,,50,10,089,*78
$GLGSV,3,1,11,70,04,013,,71,12,331,28,72,06,284,25,73,42,108,32*68
$GLGSV,3,2,11,74,32,168,28,75,00,206,,80,11,058,27,84,44,166,22*68
$GLGSV,3,3,11,85,73,285,38,86,18,328,34,,,,27*64
$GNGLL,0419.72569,S,05539.92748,E,140629.00,A,D*6E
$GNRMC,140630.00,A,0419.72569,S,05539.92749,E,0.011,,030625,,,D*7C
$GNVTG,,T,,M,0.011,N,0.020,K,D*3A
$GNGGA,140630.00,0419.72569,S,05539.92749,E,2,12,0.57,8.6,M,-47.6,M,,0000*73
$GNGSA,A,3,31,27,28,08,26,16,10,02,04,01,41,,1.09,0.57,0.93*19
$GNGSA,A,3,85,73,71,80,74,72,86,,,,,,1.09,0.57,0.93*13
$GPGSV,5,1,18,01,16,331,32,02,44,330,42,04,24,270,37,08,35,247,34*7D
$GPGSV,5,2,18,09,01,245,,10,18,070,34,16,31,171,38,23,00,107,24*7C
$GPGSV,5,3,18,26,38,134,38,27,39,199,33,28,33,036,33,31,63,044,39*78
$GPGSV,5,4,18,32,02,031,08,36,52,277,38,40,84,354,41,41,58,082,39*74
$GPGSV,5,5,18,49,32,274,,50,10,089,*78
$GLGSV,3,1,11,70,04,013,,71,12,331,28,72,06,284,25,73,42,108,32*68
$GLGSV,3,2,11,74,32,168,28,75,00,206,,80,11,058,28,84,44,166,23*66
$GLGSV,3,3,11,85,73,285,38,86,18,328,34,,,,27*64
$GNGLL,0419.72569,S,05539.92749,E,140630.00,A,D*67
$GNRMC,140631.00,A,0419.72570,S,05539.92749,E,0.025,,030625,,,D*72
$GNVTG,,T,,M,0.025,N,0.046,K,D*3D
$GNGGA,140631.00,0419.72570,S,05539.92749,E,2,12,0.57,8.6,M,-47.6,M,,0000*7A
$GNGSA,A,3,31,27,28,08,26,16,10,02,04,01,41,,1.09,0.57,0.93*19
$GNGSA,A,3,85,73,71,80,74,72,86,,,,,,1.09,0.57,0.93*13
$GPGSV,5,1,18,01,16,331,33,02,44,330,42,04,24,270,37,08,35,247,34*7C
$GPGSV,5,2,18,09,01,245,,10,18,070,34,16,31,171,39,23,00,107,24*7D
$GPGSV,5,3,18,26,38,134,40,27,39,199,36,28,33,036,34,31,63,044,39*75
$GPGSV,5,4,18,32,02,031,07,36,52,277,39,40,84,354,42,41,58,082,38*78
$GPGSV,5,5,18,49,32,274,,50,10,089,*78
$GLGSV,3,1,11,70,04,013,,71,12,331,28,72,06,284,25,73,42,108,33*69
$GLGSV,3,2,11,74,32,168,28,75,00,206,,80,10,058,27,84,44,166,23*68
$GLGSV,3,3,11,85,73,285,38,86,18,328,34,,,,27*64
$GNGLL,0419.72570,S,05539.92749,E,140631.00,A,D*6E
$GNRMC,140632.00,A,0419.72571,S,05539.92749,E,0.013,,030625,,,D*75
$GNVTG,,T,,M,0.013,N,0.025,K,D*3D
$GNGGA,140632.00,0419.72571,S,05539.92749,E,2,12,0.57,8.7,M,-47.6,M,,0000*79
$GNGSA,A,3,31,27,28,08,26,16,10,02,04,01,41,,1.09,0.57,0.93*19
$GNGSA,A,3,85,73,71,80,74,72,86,,,,,,1.09,0.57,0.93*13
$GPGSV,5,1,18,01,16,331,32,02,44,330,40,04,24,270,37,08,35,247,33*78
$GPGSV,5,2,18,09,01,245,,10,18,070,33,16,31,171,38,23,00,107,23*7C
$GPGSV,5,3,18,26,38,134,38,27,39,199,34,28,33,036,33,31,63,044,37*71
$GPGSV,5,4,18,32,02,031,11,36,52,277,38,40,84,354,41,41,58,082,38*7D
$GPGSV,5,5,18,49,32,274,,50,10,089,*78
$GLGSV,3,1,11,70,04,013,,71,12,331,28,72,06,284,25,73,42,108,33*69
$GLGSV,3,2,11,74,32,168,28,75,00,206,,80,10,058,27,84,44,166,22*69
$GLGSV,3,3,11,85,73,285,38,86,18,328,34,,,,27*64
$GNGLL,0419.72571,S,05539.92749,E,140632.00,A,D*6C
$GNRMC,140633.00,A,0419.72573,S,05539.92749,E,0.028,,030625,,,D*7E
$GNVTG,,T,,M,0.028,N,0.052,K,D*35
$GNGGA,140633.00,0419.72573,S,05539.92749,E,2,12,0.57,8.7,M,-47.6,M,,0000*7A
$GNGSA,A,3,31,27,28,08,26,16,10,02,04,01,41,,1.09,0.57,0.93*19
$GNGSA,A,3,85,73,71,80,74,72,86,,,,,,1.09,0.57,0.93*13
$GPGSV,5,1,18,01,16,331,32,02,44,330,41,04,24,270,37,08,35,247,33*79
$GPGSV,5,2,18,09,01,245,,10,18,070,33,16,31,171,38,23,00,107,24*7B
$GPGSV,5,3,18,26,38,134,38,27,39,199,35,28,33,036,34,31,63,044,38*78
$GPGSV,5,4,18,32,02,031,14,36,52,277,39,40,84,354,41,41,58,082,38*79
$GPGSV,5,5,18,49,32,274,,50,10,089,*78
$GLGSV,3,1,11,70,04,013,,71,12,331,29,72,06,284,25,73,42,108,33*68
$GLGSV,3,2,11,74,32,168,28,75,00,206,,80,10,058,26,84,44,166,22*68
$GLGSV,3,3,11,85,73,285,38,86,18,328,34,,,,28*6B
$GNGLL,0419.72573,S,05539.92749,E,140633.00,A,D*6F
$GNRMC,140634.00,A,0419.72574,S,05539.92750,E,0.022,,030625,,,D*7C
$GNVTG,,T,,M,0.022,N,0.041,K,D*3D
$GNGGA,140634.00,0419.72574,S,05539.92750,E,2,12,0.57,8.6,M,-47.6,M,,0000*73
$GNGSA,A,3,31,27,28,08,26,16,10,02,04,01,41,,1.09,0.57,0.93*19
$GNGSA,A,3,85,73,71,80,74,72,86,,,,,,1.09,0.57,0.93*13
$GPGSV,5,1,18,01,16,331,32,02,44,330,41,04,24,270,35,08,35,247,33*7B
$GPGSV,5,2,18,09,01,245,,10,18,070,34,16,31,171,38,23,00,107,23*7B
$GPGSV,5,3,18,26,38,134,39,27,39,199,33,28,33,036,33,31,63,044,38*78
$GPGSV,5,4,18,32,02,031,12,36,52,277,38,40,84,354,40,41,58,082,36*71
$GPGSV,5,5,18,49,32,274,,50,10,089,*78
$GLGSV,3,1,11,70,04,013,,71,12,331,30,72,06,284,25,73,42,108,33*60
$GLGSV,3,2,11,74,32,168,29,75,00,206,,80,10,058,25,84,44,166,22*6A
$GLGSV,3,3,11,85,73,285,38,86,18,328,34,,,,29*6A
$GNGLL,0419.72574,S,05539.92750,E,140634.00,A,D*67
$GNRMC,140635.00,A,0419.72575,S,05539.92750,E,0.007,,030625,,,D*7B
$GNVTG,,T,,M,0.007,N,0.013,K,D*3D
$GNGGA,140635.00,0419.72575,S,05539.92750,E,2,12,0.57,8.7,M,-47.6,M,,0000*72
$GNGSA,A,3,31,27,28,08,26,16,10,02,04,01,41,,1.09,0.57,0.93*19
$GNGSA,A,3,85,73,71,80,74,72,86,,,,,,1.09,0.57,0.93*13
$GPGSV,5,1,18,01,16,331,32,02,44,330,41,04,24,270,37,08,35,247,34*7E
$GPGSV,5,2,18,09,01,245,,10,18,070,33,16,31,171,39,23,00,107,21*7F
$GPGSV,5,3,18,26,38,134,39,27,39,199,34,28,33,036,35,31,63,044,38*79
$GPGSV,5,4,18,32,02,031,12,36,52,277,39,40,84,354,41,41,58,082,39*7E
$GPGSV,5,5,18,49,32,274,,50,10,089,*78
$GLGSV,3,1,11,70,04,013,,71,12,331,29,72,06,284,25,73,42,108,34*6F
$GLGSV,3,2,11,74,32,168,28,75,00,206,,80,10,058,23,84,43,166,21*69
$GLGSV,3,3,11,85,73,285,38,86,18,328,34,,,,28*6B
$GNGLL,0419.72575,S,05539.92750,E,140635.00,A,D*67
$GNRMC,140636.00,A,0419.72577,S,05539.92750,E,0.029,,030625,,,D*76
$GNVTG,,T,,M,0.029,N,0.053,K,D*35
$GNGGA,140636.00,0419.72577,S,05539.92750,E,2,12,0.57,8.7,M,-47.6,M,,0000*73
$GNGSA,A,3,31,27,28,08,26,16,10,02,04,01,41,,1.09,0.57,0.93*19
$GNGSA,A,3,85,73,71,80,74,72,86,,,,,,1.09,0.57,0.93*13
$GPGSV,5,1,18,01,16,331,32,02,44,330,41,04,24,270,38,08,35,247,34*71
$GPGSV,5,2,18,09,01,245,,10,18,070,34,16,31,171,39,23,00,107,18*72
$GPGSV,5,3,18,26,38,134,40,27,39,199,35,28,33,036,35,31,63,044,37*79
$GPGSV,5,4,18,32,02,031,09,36,52,277,40,40,84,354,42,41,58,082,39*79
$GPGSV,5,5,18,49,32,274,,50,10,089,*78
$GLGSV,3,1,11,70,04,013,,71,12,331,29,72,06,284,26,73,42,108,35*6D
$GLGSV,3,2,11,74,32,168,28,75,00,206,,80,10,058,22,84,43,166,21*68
$GLGSV,3,3,11,85,73,282,37,86,18,328,34,,,,28*63
$GNGLL,0419.72577,S,05539.92750,E,140636.00,A,D*66
$GNRMC,140637.00,A,0419.72579,S,05539.92748,E,0.019,,030625,,,D*73
$GNVTG,,T,,M,0.019,N,0.036,K,D*35
$GNGGA,140637.00,0419.72579,S,05539.92748,E,2,12,0.57,8.7,M,-47.6,M,,0000*75
$GNGSA,A,3,31,27,28,08,26,16,10,02,04,01,41,,1.09,0.57,0.93*19
$GNGSA,A,3,85,73,71,80,74,72,86,,,,,,1.09,0.57,0.93*13
$GPGSV,5,1,18,01,16,331,31,02,44,330,39,04,24,270,35,08,35,247,33*77
$GPGSV,5,2,18,09,01,245,,10,18,070,34,16,31,171,37,23,00,107,17*73
$GPGSV,5,3,18,26,38,134,37,27,39,199,34,28,33,036,33,31,63,044,35*7C
$GPGSV,5,4,18,32,02,031,09,36,52,277,37,40,84,354,39,41,58,082,35*79
$GPGSV,5,5,18,49,32,274,,50,10,089,*78
$GLGSV,3,1,11,70,04,013,,71,12,331,29,72,06,284,26,73,42,108,35*6D
$GLGSV,3,2,11,74,32,168,28,75,00,206,,80,10,058,23,84,43,166,21*69
$GLGSV,3,3,11,85,73,282,37,86,19,328,33,,,,28*65
$GNGLL,0419.72579,S,05539.92748,E,140637.00,A,D*60
$GNRMC,140638.00,A,0419.72581,S,05539.92747,E,0.012,,030625,,,D*7F
$GNVTG,,T,,M,0.012,N,0.022,K,D*3B
$GNGGA,140638.00,0419.72581,S,05539.92747,E,2,12,0.57,8.7,M,-47.6,M,,0000*72
$GNGSA,A,3,31,27,28,08,26,16,10,02,04,01,41,,1.09,0.57,0.93*19
$GNGSA,A,3,85,73,71,80,74,72,86,,,,,,1.09,0.57,0.93*13
$GPGSV,5,1,18,01,16,331,32,02,44,330,41,04,24,270,37,08,35,247,34*7E
$GPGSV,5,2,18,09,01,245,,10,18,070,35,16,31,171,39,23,00,107,18*73
$GPGSV,5,3,18,26,38,134,40,27,39,199,34,28,33,036,34,31,63,044,38*76
$GPGSV,5,4,18,32,02,031,08,36,52,277,39,40,84,354,41,41,58,082,37*7B
$GPGSV,5,5,18,49,32,274,,50,10,089,*78
$GLGSV,3,1,11,70,04,013,,71,12,331,29,72,06,284,26,73,42,108,35*6D
$GLGSV,3,2,11,74,32,168,28,75,00,206,,80,10,058,24,84,43,166,21*6E
$GLGSV,3,3,11,85,73,282,37,86,19,328,34,,,,28*62
$GNGLL,0419.72581,S,05539.92747,E,140638.00,A,D*67
$GNRMC,140639.00,A,0419.72581,S,05539.92747,E,0.046,,030625,,,D*7F
$GNVTG,,T,,M,0.046,N,0.086,K,D*34
$GNGGA,140639.00,0419.72581,S,05539.92747,E,2,12,0.57,8.8,M,-47.6,M,,0000*7C
$GNGSA,A,3,31,27,28,08,26,16,10,02,04,01,41,,1.09,0.57,0.93*19
$GNGSA,A,3,85,73,71,80,74,72,86,,,,,,1.09,0.57,0.93*13
$GPGSV,5,1,18,01,16,331,33,02,44,330,42,04,24,270,37,08,35,247,35*7D
$GPGSV,5,2,18,09,01,245,,10,18,070,34,16,31,171,39,23,00,107,22*7B
$GPGSV,5,3,18,26,38,134,40,27,39,199,34,28,33,036,35,31,63,044,40*78
$GPGSV,5,4,18,32,02,031,11,36,52,277,41,40,84,354,41,41,58,082,40*7C
$GPGSV,5,5,18,49,32,274,,50,10,089,*78
$GLGSV,3,1,11,70,04,013,,71,12,331,30,72,06,284,26,73,42,108,34*64
$GLGSV,3,2,11,74,32,168,28,75,00,206,,80,10,058,26,84,43,166,22*6F
$GLGSV,3,3,11,85,73,282,38,86,19,328,33,,,,29*6B
$GNGLL,0419.72581,S,05539.92747,E,140639.00,A,D*66
