b0X LH /!
%!"q)=&$
!79!<n|5 (#K{4!Ta:R t%AFiG(OHItJKT)U!D#mV Xob&$GNRMC,132202.00,A,0419.76282,S,05539.94746,E,0.029,,190525,,,A*75
$GNVTG,,T,,M,0.029,N,0.053,K,A*30
$GNGNS,132202.00,0419.76282,S,05539.94746,E,AA,15,0.63,10.4,-47.6,,*6E
$GNGGA,132202.00,0419.76282,S,05539.94746,E,1,12,0.63,10.4,M,-47.6,M,,*43
$GNGSA,A,3,10,32,26,08,18,28,16,27,,,,,1.33,0.63,1.18*1D
$GNGSA,A,3,86,73,74,84,71,85,72,,,,,,1.33,0.63,1.18*1B
$GPGSV,4,1,16,02,03,332,32,04,07,226,26,08,23,303,32,10,13,023,37*76
$GPGSV,4,2,16,16,24,217,33,18,29,113,34,23,01,061,,26,29,187,38*76
$GPGSV,4,3,16,27,55,274,33,28,60,110,33,31,53,168,22,32,35,007,40*7E
$GPGSV,4,4,16,36,52,277,31,40,84,353,33,41,58,082,,49,32,274,*7E
$GLGSV,3,1,11,65,02,229,,70,03,013,31,71,28,335,40,72,31,276,19*6A
$GLGSV,3,2,11,73,17,116,27,74,21,163,26,75,05,210,,84,41,135,22*6F
$GLGSV,3,3,11,85,68,035,33,86,18,344,32,,,,26*61
$GNGLL,0419.76282,S,05539.94746,E,132202.00,A,A*6D
$GNGRS,132202.00,1,-5.5,0.7,-2.2,-2.2,-2.1,1.2,-3.0,0.6,,,,*7F
$GNGRS,132202.00,1,1.1,-0.6,14.7,7.0,-0.1,1.1,-5.3,,,,,*67
$GNGST,132202.00,26,,,,1.6,2.2,3.8*41
$GNZDA,132202.00,19,05,2025,00,00*70
$GNGBS,132202.00,1.6,2.2,3.8,,,,*53
b0XL/C
$"q=%
!7!<nT5 (#F{4Ta:R tAFG&OH ItJKT)UD#VXbk$GNRMC,132203.00,A,0419.76281,S,05539.94744,E,0.020,,190525,,,A*7C
$GNVTG,,T,,M,0.020,N,0.037,K,A*3B
$GNGNS,132203.00,0419.76281,S,05539.94744,E,AA,15,0.63,10.4,-47.6,,*6E
$GNGGA,132203.00,0419.76281,S,05539.94744,E,1,12,0.63,10.4,M,-47.6,M,,*43
$GNGSA,A,3,10,32,26,08,18,28,16,27,,,,,1.33,0.63,1.18*1D
$GNGSA,A,3,86,73,74,84,71,85,72,,,,,,1.33,0.63,1.18*1B
$GPGSV,4,1,16,02,03,332,31,04,07,226,24,08,23,303,27,10,13,023,36*72
$GPGSV,4,2,16,16,24,217,30,18,29,113,34,23,01,061,,26,29,187,37*7A
$GPGSV,4,3,16,27,55,274,33,28,60,110,33,31,53,168,,32,35,007,40*7E
$GPGSV,4,4,16,36,52,277,30,40,84,353,28,41,58,082,,49,32,274,*75
$GLGSV,3,1,11,65,02,229,,70,03,013,25,71,28,335,38,72,31,276,17*6E
$GLGSV,3,2,11,73,17,116,26,74,21,163,24,75,05,210,,84,41,135,20*6E
$GLGSV,3,3,11,85,68,035,28,86,18,344,30,,,,25*6A
$GNGLL,0419.76281,S,05539.94744,E,132203.00,A,A*6D
$GNGRS,132203.00,1,-6.0,0.7,-2.3,3.2,-2.5,-1.7,-3.2,2.9,,,,*76
$GNGRS,132203.00,1,0.0,-0.5,14.4,7.9,-0.1,1.5,-7.4,,,,,*6E
$GNGST,132203.00,33,,,,1.5,2.2,3.8*47
$GNZDA,132203.00,19,05,2025,00,00*71
$GNGBS,132203.00,1.5,2.2,3.8,,,,*51
b0X!L/+
' $q='
#7t#<n5 *#E{4"Ta:R !tAFG*OHvI!tJUKT)+U"D#]V#X by$GNRMC,132204.00,A,0419.76280,S,05539.94742,E,0.056,,190525,,,A*7D
$GNVTG,,T,,M,0.056,N,0.103,K,A*3C
$GNGNS,132204.00,0419.76280,S,05539.94742,E,AA,15,0.63,10.6,-47.6,,*6C
$GNGGA,132204.00,0419.76280,S,05539.94742,E,1,12,0.63,10.6,M,-47.6,M,,*41
$GNGSA,A,3,10,32,26,08,18,28,16,27,,,,,1.33,0.63,1.18*1D
$GNGSA,A,3,86,73,74,84,71,85,72,,,,,,1.33,0.63,1.18*1B
$GPGSV,4,1,16,02,03,332,33,04,07,226,23,08,23,303,28,10,13,023,39*77
$GPGSV,4,2,16,16,24,217,32,18,29,113,36,23,01,061,,26,29,187,39*74
$GPGSV,4,3,16,27,55,274,35,28,60,110,35,31,53,168,,32,35,007,42*7C
$GPGSV,4,4,16,36,52,277,31,40,84,353,34,41,58,082,,49,32,274,*79
$GLGSV,3,1,11,65,02,229,,70,03,013,28,71,28,335,42,72,31,276,19*60
$GLGSV,3,2,11,73,17,116,33,74,21,163,25,75,05,210,,84,41,135,20*6B
$GLGSV,3,3,11,85,68,035,34,86,18,344,35,,,,32*64
$GNGLL,0419.76280,S,05539.94742,E,132204.00,A,A*6D
$GNGRS,132204.00,1,-5.6,0.7,-2.3,-2.1,-2.5,-2.8,-2.9,1.2,,,,*55
$GNGRS,132204.00,1,1.4,-0.9,13.7,8.1,0.0,3.5,-6.5,,,,,*4D
$GNGST,132204.00,29,,,,1.5,2.1,3.8*48
$GNZDA,132204.00,19,05,2025,00,00*76
$GNGBS,132204.00,1.5,2.1,3.8,,,,*55
b0X!L
"/
%$$q=$*
#7<n5 )#c{ 4%Ta:R !tAFG,OHItCJ{KT)yU&D#V%Xpba;$GNRMC,132205.00,A,0419.76276,S,05539.94741,E,0.054,,190525,,,A*74
$GNVTG,,T,,M,0.054,N,0.100,K,A*3D
$GNGNS,132205.00,0419.76276,S,05539.94741,E,AA,15,0.63,10.5,-47.6,,*64
$GNGGA,132205.00,0419.76276,S,05539.94741,E,1,12,0.63,10.5,M,-47.6,M,,*49
$GNGSA,A,3,10,32,26,08,18,28,16,27,,,,,1.33,0.63,1.18*1D
$GNGSA,A,3,86,73,74,84,71,85,72,,,,,,1.33,0.63,1.18*1B
$GPGSV,4,1,16,02,03,332,33,04,07,226,20,08,23,303,34,10,13,023,37*77
$GPGSV,4,2,16,16,24,217,36,18,29,113,36,23,01,061,,26,29,187,36*7F
$GPGSV,4,3,16,27,55,274,35,28,60,110,30,31,53,168,,32,35,007,41*7A
$GPGSV,4,4,16,36,52,277,32,40,84,353,37,41,58,082,,49,32,274,*79
$GLGSV,3,1,11,65,02,229,,70,03,013,31,71,28,335,44,72,31,276,28*6C
$GLGSV,3,2,11,73,17,116,28,74,21,163,24,75,05,210,,84,41,135,19*6A
$GLGSV,3,3,11,85,68,035,38,86,18,344,37,,,,30*68
$GNGLL,0419.76276,S,05539.94741,E,132205.00,A,A*66
$GNGRS,132205.00,1,-5.4,1.0,-2.1,-0.4,-2.5,-0.2,-3.3,1.4,,,,*50
$GNGRS,132205.00,1,5.0,0.7,14.0,6.3,0.0,-0.5,-5.8,,,,,*43
$GNGST,132205.00,28,,,,1.5,2.1,3.8*48
$GNZDA,132205.00,19,05,2025,00,00*77
$GNGBS,132205.00,1.5,2.1,3.8,,,,*54
b0XL /f
)$(qL=((
"7#<nF&5 +#O{4#Ta:R (tAFG)OHI!t"JKT)U&D#`V%X;bI$GNRMC,132206.00,A,0419.76272,S,05539.94742,E,0.107,,190525,,,A*77
$GNVTG,,T,,M,0.107,N,0.197,K,A*34
$GNGNS,132206.00,0419.76272,S,05539.94742,E,AA,16,0.63,10.5,-47.6,,*63
$GNGGA,132206.00,0419.76272,S,05539.94742,E,1,12,0.63,10.5,M,-47.6,M,,*4D
$GNGSA,A,3,10,32,26,08,18,28,31,16,27,,,,1.28,0.63,1.12*1F
$GNGSA,A,3,86,73,74,84,71,85,72,,,,,,1.28,0.63,1.12*1B
$GPGSV,4,1,16,02,03,332,31,04,07,226,20,08,23,303,32,10,13,023,41*72
$GPGSV,4,2,16,16,24,217,36,18,29,113,40,23,01,061,,26,29,187,40*7F
$GPGSV,4,3,16,27,55,274,34,28,60,110,35,31,53,168,38,32,35,007,43*77
$GPGSV,4,4,16,36,52,277,30,40,84,353,35,41,58,082,,49,32,274,*79
$GLGSV,3,1,11,65,02,229,,70,03,013,30,71,28,335,41,72,31,276,26*66
$GLGSV,3,2,11,73,17,116,33,74,21,163,24,75,05,210,,84,41,135,18*61
$GLGSV,3,3,11,85,68,035,38,86,18,344,37,,,,29*60
$GNGLL,0419.76272,S,05539.94742,E,132206.00,A,A*62
$GNGRS,132206.00,1,-5.4,0.8,-2.2,-1.5,-1.8,-1.9,-3.5,-2.9,-2.3,,,*7A
$GNGRS,132206.00,1,2.7,2.9,14.1,4.0,-0.2,1.0,-3.5,,,,,*41
$GNGST,132206.00,30,,,,1.4,2.0,3.7*4D
$GNZDA,132206.00,19,05,2025,00,00*74
$GNGBS,132206.00,1.4,2.0,3.7,,,,*58
b0XhL#/
('%qE=$
&7&<n&5 -#X{#4*Ta:R  tVAFG*OH^ItJKT)U'D#V%X!bh1^$GNRMC,132207.00,A,0419.76267,S,05539.94743,E,0.024,,190525,,,A*73
$GNVTG,,T,,M,0.024,N,0.045,K,A*3A
$GNGNS,132207.00,0419.76267,S,05539.94743,E,AA,16,0.63,10.4,-47.6,,*66
$GNGGA,132207.00,0419.76267,S,05539.94743,E,1,12,0.63,10.4,M,-47.6,M,,*48
$GNGSA,A,3,10,32,26,08,18,28,31,16,27,,,,1.28,0.63,1.12*1F
$GNGSA,A,3,86,73,74,84,71,85,72,,,,,,1.28,0.63,1.12*1B
$GPGSV,4,1,16,02,03,332,31,04,07,226,23,08,23,303,35,10,13,023,40*77
$GPGSV,4,2,16,16,24,217,39,18,29,113,37,23,01,061,,26,29,187,36*71
$GPGSV,4,3,16,27,55,274,38,28,60,110,38,31,53,168,38,32,35,007,45*70
$GPGSV,4,4,16,36,52,277,35,40,84,353,42,41,58,082,,49,32,274,*7C
$GLGSV,3,1,11,65,02,229,,70,03,013,30,71,28,335,42,72,31,276,26*65
$GLGSV,3,2,11,73,17,116,30,74,21,163,22,75,05,210,,84,41,135,18*64
$GLGSV,3,3,11,85,68,035,39,86,18,344,37,,,,33*6A
$GNGLL,0419.76267,S,05539.94743,E,132207.00,A,A*66
$GNGRS,132207.00,1,-5.6,0.9,-2.4,2.8,-1.9,-0.2,-3.2,-2.7,-0.7,,,*59
$GNGRS,132207.00,1,4.0,0.0,14.3,4.4,-0.2,-0.1,-4.2,,,,,*61
$GNGST,132207.00,30,,,,1.4,2.0,3.6*4D
$GNZDA,132207.00,19,05,2025,00,00*75
$GNGBS,132207.00,1.4,2.0,3.6,,,,*58
b0XPL!/
&$$q8="
$7($<n#5 +#j{!4(Ta:R tAFG(OHItXJKT)U&D#V$X!bP7$GNRMC,132208.00,A,0419.76266,S,05539.94742,E,0.002,,190525,,,A*78
$GNVTG,,T,,M,0.002,N,0.003,K,A*3C
$GNGNS,132208.00,0419.76266,S,05539.94742,E,AA,16,0.63,10.5,-47.6,,*68
$GNGGA,132208.00,0419.76266,S,05539.94742,E,1,12,0.63,10.5,M,-47.6,M,,*46
$GNGSA,A,3,10,32,26,08,18,28,31,16,27,,,,1.28,0.63,1.12*1F
$GNGSA,A,3,86,73,74,84,71,85,72,,,,,,1.28,0.63,1.12*1B
$GPGSV,4,1,16,02,03,332,30,04,07,226,25,08,23,303,33,10,13,023,38*79
$GPGSV,4,2,16,16,24,217,36,18,29,113,36,23,01,061,,26,29,187,34*7D
$GPGSV,4,3,16,27,55,274,36,28,60,110,36,31,53,168,35,32,35,007,43*7B
$GPGSV,4,4,16,36,52,277,33,40,84,353,40,41,58,082,,49,32,274,*78
$GLGSV,3,1,11,65,02,229,,70,03,013,30,71,28,335,40,72,31,276,26*67
$GLGSV,3,2,11,73,17,116,29,74,21,163,20,75,05,210,,84,41,135,16*60
$GLGSV,3,3,11,85,68,035,38,86,18,344,36,,,,33*6A
$GNGLL,0419.76266,S,05539.94742,E,132208.00,A,A*69
$GNGRS,132208.00,1,-5.5,1.1,-2.4,1.3,-2.0,0.2,-0.7,-2.4,0.4,,,*58
$GNGRS,132208.00,1,1.5,6.0,14.5,5.2,-0.3,-0.1,-5.5,,,,,*6E
$GNGST,132208.00,32,,,,1.4,1.9,3.5*49
$GNZDA,132208.00,19,05,2025,00,00*7A
$GNGBS,132208.00,1.4,1.9,3.5,,,,*5E
b0X8L!/G
(%E&qW=!
&7 &<n1%5c ,#\{"4(Ta:R tAFHG)OHUItJLKT)>U'D#;V%X!]b8$GNRMC,132209.00,A,0419.76264,S,05539.94739,E,0.021,,190525,,,A*76
$GNVTG,,T,,M,0.021,N,0.039,K,A*34
$GNGNS,132209.00,0419.76264,S,05539.94739,E,AA,16,0.63,10.5,-47.6,,*67
$GNGGA,132209.00,0419.76264,S,05539.94739,E,1,12,0.63,10.5,M,-47.6,M,,*49
$GNGSA,A,3,10,32,26,08,18,28,31,16,27,,,,1.28,0.63,1.12*1F
$GNGSA,A,3,86,73,74,84,71,85,72,,,,,,1.28,0.63,1.12*1B
$GPGSV,4,1,16,02,03,332,30,04,07,226,25,08,23,303,33,10,13,023,40*76
$GPGSV,4,2,16,16,24,217,37,18,29,113,38,23,01,061,,26,29,187,33*75
$GPGSV,4,3,16,27,55,274,38,28,60,110,38,31,53,168,37,32,35,007,44*7E
$GPGSV,4,4,16,36,52,277,34,40,84,353,40,41,58,082,,49,32,274,*7F
$GLGSV,3,1,11,65,02,229,,70,03,013,29,71,28,335,41,72,31,276,26*6E
$GLGSV,3,2,11,73,17,116,29,74,21,163,18,75,05,210,,84,41,135,15*68
$GLGSV,3,3,11,85,68,035,39,86,18,344,37,,,,33*6A
$GNGLL,0419.76264,S,05539.94739,E,132209.00,A,A*66
$GNGRS,132209.00,1,-5.5,0.9,-2.5,0.7,-1.7,-2.1,-1.6,-1.9,0.3,,,*75
$GNGRS,132209.00,1,2.2,2.2,13.6,8.3,-0.4,0.6,-4.3,,,,,*4F
$GNGST,132209.00,34,,,,1.4,1.9,3.4*4F
$GNZDA,132209.00,19,05,2025,00,00*7B
$GNGBS,132209.00,1.4,1.9,3.4,,,,*5E
b0X 
L!/ 
(%Y'qx=!
%7'<n%5z ,#K{%4*Ta:R t=AFG)OH:It*JNKT)U'D#@V%X!!7b 
N$GNRMC,132210.00,A,0419.76262,S,05539.94736,E,0.009,,190525,,,A*7D
$GNVTG,,T,,M,0.009,N,0.016,K,A*33
$GNGNS,132210.00,0419.76262,S,05539.94736,E,AA,15,0.63,10.5,-47.6,,*65
$GNGGA,132210.00,0419.76262,S,05539.94736,E,1,12,0.63,10.5,M,-47.6,M,,*48
$GNGSA,A,3,10,32,26,08,18,28,31,16,27,,,,1.30,0.63,1.13*17
$GNGSA,A,3,86,73,74,71,85,72,,,,,,,1.30,0.63,1.13*1F
$GPGSV,4,1,16,02,03,332,30,04,07,226,26,08,23,303,33,10,13,023,40*75
$GPGSV,4,2,16,16,24,217,37,18,29,113,39,23,01,061,,26,29,187,33*74
$GPGSV,4,3,16,27,55,274,37,28,60,110,39,31,53,168,37,32,35,007,44*70
$GPGSV,4,4,16,36,52,277,37,40,84,353,42,41,58,082,,49,32,274,*7E
$GLGSV,3,1,11,65,02,229,,70,03,013,30,71,28,335,41,72,31,276,27*67
$GLGSV,3,2,11,73,17,116,29,74,21,163,18,75,05,210,,84,41,135,*6C
$GLGSV,3,3,11,85,68,035,39,86,18,344,37,,,,33*6A
$GNGLL,0419.76262,S,05539.94736,E,132210.00,A,A*67
$GNGRS,132210.00,1,-5.8,0.7,-2.3,0.3,-1.4,-0.6,-1.3,-1.7,1.3,,,*70
$GNGRS,132210.00,1,2.9,5.5,13.6,0.0,0.6,-4.5,,,,,,*46
$GNGST,132210.00,26,,,,1.3,1.8,3.3*45
$GNZDA,132210.00,19,05,2025,00,00*73
$GNGBS,132210.00,1.3,1.8,3.3,,,,*57
b0XL!/!
(%n'qq=!
%7'<n&5] +#Q{#4)Ta:R tAFiG)OHItJKT)U'D#V&X4 Sb$GNRMC,132211.00,A,0419.76261,S,05539.94735,E,0.110,,190525,,,A*75
$GNVTG,,T,,M,0.110,N,0.204,K,A*3B
$GNGNS,132211.00,0419.76261,S,05539.94735,E,AA,15,0.63,10.4,-47.6,,*65
$GNGGA,132211.00,0419.76261,S,05539.94735,E,1,12,0.63,10.4,M,-47.6,M,,*48
$GNGSA,A,3,10,32,26,08,18,28,31,16,27,,,,1.30,0.63,1.13*17
$GNGSA,A,3,86,73,74,71,85,72,,,,,,,1.30,0.63,1.13*1F
$GPGSV,4,1,16,02,03,332,30,04,07,226,25,08,23,303,33,10,13,023,40*76
$GPGSV,4,2,16,16,24,217,37,18,29,113,39,23,01,061,,26,29,187,33*74
$GPGSV,4,3,16,27,55,274,37,28,60,110,39,31,53,168,38,32,35,007,43*78
$GPGSV,4,4,16,36,52,277,35,40,84,353,41,41,58,082,,49,32,274,*7F
$GLGSV,3,1,11,65,02,229,,70,03,013,30,71,28,335,41,72,31,276,27*67
$GLGSV,3,2,11,73,17,116,29,74,21,163,18,75,05,210,,84,41,135,*6C
$GLGSV,3,3,11,85,68,035,39,86,18,344,38,,,,32*64
$GNGLL,0419.76261,S,05539.94735,E,132211.00,A,A*66
$GNGRS,132211.00,1,-5.7,0.8,-2.5,0.3,-1.4,-0.6,-1.6,-1.5,-0.2,,,*5D
$GNGRS,132211.00,1,3.1,2.6,12.3,0.0,-0.4,-5.1,,,,,,*64
$GNGST,132211.00,25,,,,1.3,1.8,3.2*46
$GNZDA,132211.00,19,05,2025,00,00*72
$GNGBS,132211.00,1.3,1.8,3.2,,,,*57
b0XL/8
$!x%qd=
"7%<n#5 )#K{4%Ta:R t-AFG&OH ItgJKT)U%D#V#Xb$GNRMC,132212.00,A,0419.76261,S,05539.94734,E,0.009,,190525,,,A*7E
$GNVTG,,T,,M,0.009,N,0.016,K,A*33
$GNGNS,132212.00,0419.76261,S,05539.94734,E,AA,15,0.63,10.4,-47.6,,*67
$GNGGA,132212.00,0419.76261,S,05539.94734,E,1,12,0.63,10.4,M,-47.6,M,,*4A
$GNGSA,A,3,10,32,26,08,18,28,31,16,27,,,,1.30,0.63,1.13*17
$GNGSA,A,3,86,73,74,71,85,72,,,,,,,1.30,0.63,1.13*1F
$GPGSV,4,1,16,02,03,332,29,04,07,226,25,08,23,303,28,10,13,023,36*75
$GPGSV,4,2,16,16,24,217,33,18,29,113,37,23,01,061,,26,29,187,29*75
$GPGSV,4,3,16,27,55,274,34,28,60,110,37,31,53,168,35,32,35,007,41*7A
$GPGSV,4,4,16,36,52,277,31,40,84,353,37,41,58,082,,49,32,274,*7A
$GLGSV,3,1,11,65,02,229,,70,03,013,29,71,28,335,38,72,31,276,26*60
$GLGSV,3,2,11,73,17,116,30,74,21,163,17,75,05,210,,84,41,135,*6B
$GLGSV,3,3,11,85,68,035,37,86,18,344,35,,,,31*64
$GNGLL,0419.76261,S,05539.94734,E,132212.00,A,A*64
$GNGRS,132212.00,1,-5.4,0.7,-2.4,0.6,-1.6,-0.2,-0.9,-1.4,1.4,,,*75
$GNGRS,132212.00,1,2.8,3.6,12.2,-0.1,-0.5,-4.8,,,,,,*4A
$GNGST,132212.00,28,,,,1.3,1.8,3.2*48
$GNZDA,132212.00,19,05,2025,00,00*71
$GNGBS,132212.00,1.3,1.8,3.2,,,,*54
b0XL /D
& &qz=
#7&<n"5 )#Y{ 4%Ta:R tAF:G&OHItJKT)U%D#V#Xbmw$GNRMC,132213.00,A,0419.76261,S,05539.94732,E,0.021,,190525,,,A*73
$GNVTG,,T,,M,0.021,N,0.039,K,A*34
$GNGNS,132213.00,0419.76261,S,05539.94732,E,AA,15,0.63,10.4,-47.6,,*60
$GNGGA,132213.00,0419.76261,S,05539.94732,E,1,12,0.63,10.4,M,-47.6,M,,*4D
$GNGSA,A,3,10,32,26,08,18,28,31,16,27,,,,1.30,0.63,1.13*17
$GNGSA,A,3,86,73,74,71,85,72,,,,,,,1.30,0.63,1.13*1F
$GPGSV,4,1,16,02,03,332,28,04,07,226,25,08,23,303,32,10,13,023,38*71
$GPGSV,4,2,16,16,24,217,32,18,29,113,38,23,01,061,,26,29,187,30*73
$GPGSV,4,3,16,27,55,273,35,28,60,110,38,31,53,168,34,32,35,007,41*72
$GPGSV,4,4,16,36,52,277,32,40,84,353,37,41,58,082,,49,32,274,*79
$GLGSV,3,1,11,65,02,229,,70,03,013,29,71,28,335,38,72,31,276,25*63
$GLGSV,3,2,11,73,17,116,30,74,21,163,14,75,05,210,,84,41,135,*68
$GLGSV,3,3,11,85,68,035,37,86,18,344,35,,,,31*64
$GNGLL,0419.76261,S,05539.94732,E,132213.00,A,A*63
$GNGRS,132213.00,1,-5.3,0.9,-1.1,0.7,-1.3,-0.2,-0.4,-1.3,-0.5,,,*58
$GNGRS,132213.00,1,2.7,3.9,12.4,-0.1,-0.4,-5.2,,,,,,*47
$GNGST,132213.00,28,,,,1.3,1.7,3.2*46
$GNZDA,132213.00,19,05,2025,00,00*70
$GNGBS,132213.00,1.3,1.7,3.2,,,,*5A
b0XL/)
#!}#q=
7%<l!5 (#\{ 4#Ta:R tAFG&OHItJKT)U&D#V#XbE$GNRMC,132214.00,A,0419.76260,S,05539.94733,E,0.025,,190525,,,A*70
$GNVTG,,T,,M,0.025,N,0.047,K,A*39
$GNGNS,132214.00,0419.76260,S,05539.94733,E,AA,15,0.63,10.5,-47.6,,*66
$GNGGA,132214.00,0419.76260,S,05539.94733,E,1,12,0.63,10.5,M,-47.6,M,,*4B
$GNGSA,A,3,10,32,26,08,18,28,31,16,27,,,,1.30,0.63,1.13*17
$GNGSA,A,3,86,73,74,71,85,72,,,,,,,1.30,0.63,1.13*1F
$GPGSV,4,1,16,02,03,332,27,04,07,226,24,08,23,303,30,10,13,023,35*70
$GPGSV,4,2,16,16,24,217,33,18,29,113,35,23,01,061,,26,29,187,30*7F
$GPGSV,4,3,16,27,55,273,31,28,60,108,37,31,53,168,33,32,35,007,40*76
$GPGSV,4,4,16,36,52,277,32,40,84,353,35,41,58,082,,49,32,274,*7B
$GLGSV,3,1,11,65,02,229,,70,03,013,28,71,28,335,38,72,31,276,24*63
$GLGSV,3,2,11,73,17,116,29,74,21,163,13,75,05,210,,84,41,135,*67
$GLGSV,3,3,11,85,68,035,38,86,18,344,35,,,,29*62
$GNGLL,0419.76260,S,05539.94733,E,132214.00,A,A*64
$GNGRS,132214.00,1,-5.3,0.9,-2.7,0.4,-1.2,-0.5,-0.8,-1.3,-0.3,,,*55
$GNGRS,132214.00,1,2.7,4.3,12.2,-0.2,-0.3,-4.9,,,,,,*45
$GNGST,132214.00,74948,,,,1.3,1.7,3.2*7D
$GNZDA,132214.00,19,05,2025,00,00*77
$GNGBS,132214.00,1.3,1.7,3.2,,,,*5D
b0XL/
)$(q="
#7(<l&5 ,#U{"4(Ta:R "tAF bG*OHI!tJKT)U)D#V'X!MbqG$GNRMC,132215.00,A,0419.76259,S,05539.94733,E,0.006,,190525,,,A*7A
$GNVTG,,T,,M,0.006,N,0.010,K,A*3A
$GNGNS,132215.00,0419.76259,S,05539.94733,E,AA,15,0.63,10.5,-47.6,,*6D
$GNGGA,132215.00,0419.76259,S,05539.94733,E,1,12,0.63,10.5,M,-47.6,M,,*40
$GNGSA,A,3,10,32,26,08,18,28,31,16,27,,,,1.30,0.63,1.13*17
$GNGSA,A,3,86,73,74,71,85,72,,,,,,,1.30,0.63,1.13*1F
$GPGSV,4,1,16,02,03,332,27,04,07,226,24,08,23,303,31,10,13,023,41*72
$GPGSV,4,2,16,16,24,217,36,18,29,113,40,23,01,061,,26,29,187,34*7C
$GPGSV,4,3,16,27,55,273,35,28,60,108,40,31,53,168,38,32,35,007,44*7D
$GPGSV,4,4,16,36,52,277,34,40,84,353,40,41,58,082,,49,32,274,*7F
$GLGSV,3,1,11,65,02,229,,70,03,013,32,71,28,335,42,72,31,276,25*64
$GLGSV,3,2,11,73,17,116,33,74,21,163,13,75,05,210,,84,41,135,*6C
$GLGSV,3,3,11,85,68,035,41,86,18,344,39,,,,31*69
$GNGLL,0419.76259,S,05539.94733,E,132215.00,A,A*6F
$GNGRS,132215.00,1,-5.1,0.9,-3.8,-1.2,-1.1,0.0,-0.5,-1.0,-0.4,,,*50
$GNGRS,132215.00,1,2.9,-1.0,12.3,-0.6,-0.2,-5.4,,,,,,*69
$GNGST,132215.00,74948,,,,1.3,1.7,3.1*7F
$GNZDA,132215.00,19,05,2025,00,00*76
$GNGBS,132215.00,1.3,1.7,3.1,,,,*5F
b0X!L /
($(q=
$7(<l'5 ,#m{"4(Ta:R "tkAF\G(OHItJKT)U'D#V%Xpb!Y$GNRMC,132216.00,A,0419.76258,S,05539.94732,E,0.010,,190525,,,A*7E
$GNVTG,,T,,M,0.010,N,0.019,K,A*34
$GNGNS,132216.00,0419.76258,S,05539.94732,E,AA,15,0.66,10.5,-47.6,,*6B
$GNGGA,132216.00,0419.76258,S,05539.94732,E,1,12,0.66,10.5,M,-47.6,M,,*46
$GNGSA,A,3,10,32,26,08,18,28,31,16,27,,,,1.33,0.66,1.16*14
$GNGSA,A,3,86,73,74,71,85,72,,,,,,,1.33,0.66,1.16*1C
$GPGSV,4,1,16,02,03,332,27,04,07,226,25,08,23,303,32,10,13,023,40*71
$GPGSV,4,2,16,16,24,217,36,18,29,113,40,23,01,061,,26,29,187,31*79
$GPGSV,4,3,16,27,55,273,36,28,60,108,40,31,53,168,39,32,35,007,44*7F
$GPGSV,4,4,16,36,52,277,34,40,84,353,40,41,58,082,,49,32,274,*7F
$GLGSV,3,1,11,65,02,229,,70,03,013,31,71,28,335,40,72,31,276,25*65
$GLGSV,3,2,11,73,17,116,31,74,21,163,07,75,05,210,,84,41,135,*6B
$GLGSV,3,3,11,85,68,035,39,86,18,344,37,,,,31*68
$GNGLL,0419.76258,S,05539.94732,E,132216.00,A,A*6C
$GNGRS,132216.00,1,-5.2,1.1,-3.1,-0.3,-0.7,0.1,-0.7,-0.9,-0.2,,,*5A
$GNGRS,132216.00,1,2.7,-0.3,41.0,-0.4,0.0,-6.2,,,,,,*4B
$GNGST,132216.00,17,,,,1.3,1.7,3.1*4C
$GNZDA,132216.00,19,05,2025,00,00*75
$GNGBS,132216.00,1.3,1.7,3.1,,,,*5C
b0Xx%L /
($)q=
$7(<l&5 -#]{"4(Ta:R !tAFfG(OH"ItJKT)U(D#V%X bx%A$GNRMC,132217.00,A,0419.76258,S,05539.94730,E,0.028,,190525,,,A*76
$GNVTG,,T,,M,0.028,N,0.051,K,A*33
$GNGNS,132217.00,0419.76258,S,05539.94730,E,AA,15,0.63,10.5,-47.6,,*6D
$GNGGA,132217.00,0419.76258,S,05539.94730,E,1,12,0.63,10.5,M,-47.6,M,,*40
$GNGSA,A,3,10,32,26,08,18,28,31,16,27,,,,1.30,0.63,1.13*17
$GNGSA,A,3,86,73,74,71,85,72,,,,,,,1.30,0.63,1.13*1F
$GPGSV,4,1,16,02,03,332,28,04,07,226,26,08,23,303,32,10,13,023,40*7D
$GPGSV,4,2,16,16,24,217,36,18,29,113,41,23,01,061,,26,29,187,31*78
$GPGSV,4,3,16,27,55,273,36,28,60,108,40,31,53,167,38,32,35,007,45*70
$GPGSV,4,4,16,36,52,277,34,40,84,353,40,41,58,082,,49,32,274,*7F
$GLGSV,3,1,11,65,02,229,,70,03,013,31,71,28,335,40,72,31,276,25*65
$GLGSV,3,2,11,73,17,116,30,74,21,163,15,75,05,210,,84,41,135,*69
$GLGSV,3,3,11,85,68,035,40,86,18,344,37,,,,32*65
$GNGLL,0419.76258,S,05539.94730,E,132217.00,A,A*6F
$GNGRS,132217.00,1,-5.2,0.9,-0.7,4.4,-0.8,-0.1,-0.5,-0.6,-0.1,,,*55
$GNGRS,132217.00,1,2.5,1.9,4.6,-0.5,-0.1,-7.3,,,,,,*74
$GNGST,132217.00,2973941,,,,1.3,1.7,3.0*79
$GNZDA,132217.00,19,05,2025,00,00*74
$GNGBS,132217.00,1.3,1.7,3.0,,,,*5C
b0X`)L/
)$(q=!"
#7(<l&5 ,"l{"4(Ta:R "t+AFG(OHItJKT)U(D#V%X
 b`))$GNRMC,132218.00,A,0419.76257,S,05539.94730,E,0.019,,190525,,,A*74
$GNVTG,,T,,M,0.019,N,0.036,K,A*30
$GNGNS,132218.00,0419.76257,S,05539.94730,E,AA,15,0.63,10.6,-47.6,,*6E
$GNGGA,132218.00,0419.76257,S,05539.94730,E,1,12,0.63,10.6,M,-47.6,M,,*43
$GNGSA,A,3,10,32,26,08,18,28,31,16,27,,,,1.30,0.63,1.13*17
$GNGSA,A,3,86,73,74,71,85,72,,,,,,,1.30,0.63,1.13*1F
$GPGSV,4,1,16,02,03,332,27,04,07,226,26,08,23,303,31,10,13,023,41*70
$GPGSV,4,2,16,16,24,217,36,18,29,113,40,23,01,061,,26,29,187,33*7B
$GPGSV,4,3,16,27,55,273,35,28,60,108,40,31,53,167,38,32,34,007,44*73
$GPGSV,4,4,16,36,52,277,34,40,84,353,40,41,58,082,,49,32,274,*7F
$GLGSV,3,1,11,65,02,229,,70,03,013,31,71,28,335,40,72,31,276,25*65
$GLGSV,3,2,11,73,17,116,31,74,21,163,11,75,05,210,,84,41,135,*6C
$GLGSV,3,3,11,85,68,035,40,86,18,344,37,,,,32*65
$GNGLL,0419.76257,S,05539.94730,E,132218.00,A,A*6F
$GNGRS,132218.00,1,-5.3,1.1,-2.2,2.0,-0.8,0.2,-0.9,-0.6,-0.3,,,*77
$GNGRS,132218.00,1,2.7,2.0,4.5,-0.6,0.1,-8.2,,,,,,*50
$GNGST,132218.00,2973941,,,,1.2,1.6,3.0*76
$GNZDA,132218.00,19,05,2025,00,00*7B
$GNGBS,132218.00,1.2,1.6,3.0,,,,*53
b0XH-L= /
($)q= t
$7(<l'5 ,"{"4(Ta:R !tAFIG(OHItJ
KT)U(D#+V%XbH-~$GNRMC,132219.00,A,0419.76255,S,05539.94730,E,0.022,,190525,,,A*7F
$GNVTG,,T,,M,0.022,N,0.041,K,A*38
$GNGNS,132219.00,0419.76255,S,05539.94730,E,AA,15,0.66,10.6,-47.6,,*68
$GNGGA,132219.00,0419.76255,S,05539.94730,E,1,12,0.66,10.6,M,-47.6,M,,*45
$GNGSA,A,3,10,32,26,08,18,28,31,16,27,,,,1.33,0.66,1.16*14
$GNGSA,A,3,86,73,74,71,85,72,,,,,,,1.33,0.66,1.16*1C
$GPGSV,4,1,16,02,03,332,27,04,07,226,26,08,23,303,32,10,13,023,40*72
$GPGSV,4,2,16,16,24,217,36,18,29,113,41,23,01,061,,26,29,187,32*7B
$GPGSV,4,3,16,27,55,273,36,28,60,108,40,31,53,167,39,32,34,007,44*71
$GPGSV,4,4,16,36,52,277,34,40,84,353,40,41,58,082,,49,32,274,*7F
$GLGSV,3,1,11,65,02,229,,70,03,013,30,71,28,335,40,72,31,276,25*64
$GLGSV,3,2,11,73,17,116,30,74,21,163,10,75,05,210,,84,41,135,*6C
$GLGSV,3,3,11,85,68,035,40,86,18,344,37,,,,31*66
$GNGLL,0419.76255,S,05539.94730,E,132219.00,A,A*6C
$GNGRS,132219.00,1,-5.5,1.3,-1.4,0.2,-0.4,0.0,-1.1,-0.8,-0.1,,,*7C
$GNGRS,132219.00,1,2.5,6.5,-29.0,-0.4,0.4,-10.0,,,,,,*79
$GNGST,132219.00,17,,,,1.2,1.6,2.9*4A
$GNZDA,132219.00,19,05,2025,00,00*7A
$GNGBS,132219.00,1.2,1.6,2.9,,,,*5A
b0X01Ln /
)#(q=
$7(<l(5 ,"y{"4(Ta:R  tAFG)OHItJ
KT)U(D#)V%X0b01UN$GNRMC,132220.00,A,0419.76254,S,05539.94731,E,0.030,,190525,,,A*76
$GNVTG,,T,,M,0.030,N,0.055,K,A*3E
$GNGNS,132220.00,0419.76254,S,05539.94731,E,AA,15,0.63,10.6,-47.6,,*67
$GNGGA,132220.00,0419.76254,S,05539.94731,E,1,12,0.63,10.6,M,-47.6,M,,*4A
$GNGSA,A,3,10,32,26,08,18,28,31,16,27,,,,1.30,0.63,1.13*17
$GNGSA,A,3,86,73,74,71,85,72,,,,,,,1.30,0.63,1.13*1F
$GPGSV,4,1,16,02,03,332,27,04,07,226,26,08,23,303,32,10,13,023,41*73
$GPGSV,4,2,16,16,24,217,35,18,29,113,40,23,01,061,,26,29,187,31*7A
$GPGSV,4,3,16,27,55,273,36,28,60,108,40,31,53,167,40,32,34,007,44*7F
$GPGSV,4,4,16,36,52,277,34,40,84,353,40,41,58,082,,49,32,274,*7F
$GLGSV,3,1,11,65,02,229,,70,03,013,30,71,28,335,41,72,31,276,25*65
$GLGSV,3,2,11,73,17,116,30,74,21,163,10,75,05,210,,84,41,135,*6C
$GLGSV,3,3,11,85,68,035,40,86,18,344,37,,,,31*66
$GNGLL,0419.76254,S,05539.94731,E,132220.00,A,A*66
$GNGRS,132220.00,1,-5.5,1.2,-0.1,1.8,-0.2,0.0,-1.1,-0.8,0.2,,,*50
$GNGRS,132220.00,1,2.3,4.2,4.6,-0.5,0.4,-10.1,,,,,,*64
$GNGST,132220.00,2973941,,,,1.2,1.6,2.9*75
$GNZDA,132220.00,19,05,2025,00,00*70
$GNGBS,132220.00,1.2,1.6,2.9,,,,*50
b0X5L/i
% &q=$
 7#<l#5 +"z{!4&Ta:R  tAFG%OHIteJKT)U$D#V"X.b5-$GNRMC,132221.00,A,0419.76254,S,05539.94729,E,0.079,,190525,,,A*73
$GNVTG,,T,,M,0.079,N,0.146,K,A*30
$GNGNS,132221.00,0419.76254,S,05539.94729,E,AA,15,0.63,10.6,-47.6,,*6F
$GNGGA,132221.00,0419.76254,S,05539.94729,E,1,12,0.63,10.6,M,-47.6,M,,*42
$GNGSA,A,3,10,32,26,08,18,28,31,16,27,,,,1.30,0.63,1.13*17
$GNGSA,A,3,86,73,74,71,85,72,,,,,,,1.30,0.63,1.13*1F
$GPGSV,4,1,16,02,03,332,26,04,07,226,24,08,23,303,30,10,13,023,37*73
$GPGSV,4,2,16,16,24,217,32,18,29,113,38,23,01,061,,26,29,187,29*7B
$GPGSV,4,3,16,27,55,273,32,28,60,108,35,31,53,167,35,32,34,007,43*7C
$GPGSV,4,4,16,36,52,277,33,40,84,353,38,41,58,082,,49,32,274,*77
$GLGSV,3,1,11,65,02,229,,70,03,013,29,71,28,335,37,72,31,276,24*6D
$GLGSV,3,2,11,73,17,116,29,74,21,163,12,75,05,210,,84,41,135,*66
$GLGSV,3,3,11,85,68,035,36,86,18,344,34,,,,30*65
$GNGLL,0419.76254,S,05539.94729,E,132221.00,A,A*6E
$GNGRS,132221.00,1,-5.2,1.2,-4.8,3.6,-0.2,0.0,-0.9,-0.8,4.0,,,*58
$GNGRS,132221.00,1,2.0,8.7,4.4,-1.0,0.2,-7.4,,,,,,*5C
$GNGST,132221.00,2973941,,,,1.2,1.6,2.9*74
$GNZDA,132221.00,19,05,2025,00,00*71
$GNGBS,132221.00,1.2,1.6,2.9,,,,*51
b0X9LY/
)#)q=!Q
#7!<l'5 +"k{ 4*Ta:R $tAFG'OHI!tJoKT)U(D#V%Xb9$GNRMC,132222.00,A,0419.76255,S,05539.94728,E,0.042,,190525,,,A*78
$GNVTG,,T,,M,0.042,N,0.078,K,A*34
$GNGNS,132222.00,0419.76255,S,05539.94728,E,AA,15,0.63,10.6,-47.6,,*6C
$GNGGA,132222.00,0419.76255,S,05539.94728,E,1,12,0.63,10.6,M,-47.6,M,,*41
$GNGSA,A,3,10,32,26,08,18,28,31,16,27,,,,1.30,0.63,1.13*17
$GNGSA,A,3,86,73,74,71,85,72,,,,,,,1.30,0.63,1.13*1F
$GPGSV,4,1,16,02,03,332,27,04,07,226,25,08,23,303,31,10,13,023,41*73
$GPGSV,4,2,16,16,24,217,35,18,29,113,41,23,01,061,,26,29,187,33*79
$GPGSV,4,3,16,27,55,273,35,28,60,108,33,31,53,167,39,32,34,007,43*71
$GPGSV,4,4,16,36,52,277,32,40,84,353,42,41,58,082,,49,32,274,*7B
$GLGSV,3,1,11,65,02,229,,70,03,013,29,71,28,335,39,72,31,276,24*63
$GLGSV,3,2,11,73,17,116,33,74,21,163,08,75,05,210,,84,41,135,*66
$GLGSV,3,3,11,85,68,035,40,86,18,344,37,,,,31*66
$GNGLL,0419.76255,S,05539.94728,E,132222.00,A,A*6D
$GNGRS,132222.00,1,-5.3,1.1,0.8,0.2,-0.4,-0.1,-0.8,-1.0,1.8,,,*58
$GNGRS,132222.00,1,2.1,7.5,-1.5,-0.8,0.2,-7.6,,,,,,*71
$GNGST,132222.00,34,,,,1.2,1.6,2.9*43
$GNZDA,132222.00,19,05,2025,00,00*72
$GNGBS,132222.00,1.2,1.6,2.9,,,,*52
b0X<L/
$!&q=(
7!<l$5 ("N{4'Ta:R $tAFG%OHAI"tJKT)U&D#V Xob<w$GNRMC,132223.00,A,0419.76255,S,05539.94730,E,0.031,,190525,,,A*74
$GNVTG,,T,,M,0.031,N,0.057,K,A*3D
$GNGNS,132223.00,0419.76255,S,05539.94730,E,AA,15,0.63,10.6,-47.6,,*64
$GNGGA,132223.00,0419.76255,S,05539.94730,E,1,12,0.63,10.6,M,-47.6,M,,*49
$GNGSA,A,3,10,32,26,08,18,28,31,16,27,,,,1.30,0.63,1.13*17
$GNGSA,A,3,86,73,74,71,85,72,,,,,,,1.30,0.63,1.13*1F
$GPGSV,4,1,16,02,03,332,27,04,07,226,23,08,23,303,30,10,13,023,36*74
$GPGSV,4,2,16,16,24,217,33,18,29,113,38,23,01,061,,26,29,187,31*73
$GPGSV,4,3,16,27,55,273,30,28,60,108,33,31,53,167,36,32,34,007,40*78
$GPGSV,4,4,16,36,52,277,31,40,84,353,39,41,58,082,,49,32,274,*74
$GLGSV,3,1,11,65,02,229,,70,03,013,28,71,28,335,37,72,31,276,25*6D
$GLGSV,3,2,11,73,17,116,34,74,21,163,14,75,05,210,,84,41,135,*6C
$GLGSV,3,3,11,85,68,035,38,86,18,344,32,,,,30*6D
$GNGLL,0419.76255,S,05539.94730,E,132223.00,A,A*65
$GNGRS,132223.00,1,-5.2,0.8,-2.2,2.5,-0.4,2.1,-1.0,-1.0,1.4,,,*5A
$GNGRS,132223.00,1,2.1,1.9,4.6,-0.7,-0.1,-7.0,,,,,,*76
$GNGST,132223.00,56961,,,,1.2,1.6,2.9*78
$GNZDA,132223.00,19,05,2025,00,00*73
$GNGBS,132223.00,1.2,1.6,2.9,,,,*53
b0X@L/
#$q=
7!#<l 5 &"X{4"Ta:R !tAFG$OHmItJKT)U"D#V!Xb@"$GNRMC,132224.00,A,0419.76255,S,05539.94730,E,0.015,,190525,,,A*75
$GNVTG,,T,,M,0.015,N,0.028,K,A*33
$GNGNS,132224.00,0419.76255,S,05539.94730,E,AA,15,0.63,10.6,-47.6,,*63
$GNGGA,132224.00,0419.76255,S,05539.94730,E,1,12,0.63,10.6,M,-47.6,M,,*4E
$GNGSA,A,3,10,32,26,08,18,28,31,16,27,,,,1.30,0.63,1.13*17
$GNGSA,A,3,86,73,74,71,85,72,,,,,,,1.30,0.63,1.13*1F
$GPGSV,4,1,16,02,03,332,26,04,07,226,22,08,23,303,29,10,13,023,35*7F
$GPGSV,4,2,16,16,24,217,29,18,29,113,36,23,01,061,,26,29,187,31*76
$GPGSV,4,3,16,27,55,273,30,28,60,108,35,31,53,167,32,32,34,007,38*75
$GPGSV,4,4,16,36,52,277,30,40,84,353,34,41,58,082,,49,32,274,*78
$GLGSV,3,1,11,65,02,229,,70,03,013,27,71,28,335,36,72,31,276,24*62
$GLGSV,3,2,11,73,17,116,29,74,21,163,08,75,05,210,,84,41,135,*6D
$GLGSV,3,3,11,85,68,035,34,86,18,344,33,,,,29*68
$GNGLL,0419.76255,S,05539.94730,E,132224.00,A,A*62
$GNGRS,132224.00,1,-5.2,0.9,2.0,1.3,-0.5,-0.6,-1.3,-0.6,0.3,,,*5D
$GNGRS,132224.00,1,2.0,4.5,4.5,-0.9,-0.2,-6.6,,,,,,*70
$GNGST,132224.00,83942,,,,1.2,1.6,2.9*76
$GNZDA,132224.00,19,05,2025,00,00*74
$GNGBS,132224.00,1.2,1.6,2.9,,,,*54
b0XDLg/
$&q=
7#<l 5g )"C{4#Ta:R  tAFG#OHItJ|KT)U"D#V!XbD&G$GNRMC,132225.00,A,0419.76255,S,05539.94730,E,0.016,,190525,,,A*77
$GNVTG,,T,,M,0.016,N,0.030,K,A*39
$GNGNS,132225.00,0419.76255,S,05539.94730,E,AA,15,0.66,10.6,-47.6,,*67
$GNGGA,132225.00,0419.76255,S,05539.94730,E,1,12,0.66,10.6,M,-47.6,M,,*4A
$GNGSA,A,3,10,32,26,08,18,28,31,16,27,,,,1.33,0.66,1.16*14
$GNGSA,A,3,86,73,74,71,85,72,,,,,,,1.33,0.66,1.16*1C
$GPGSV,4,1,16,02,03,332,24,04,07,226,21,08,23,303,28,10,13,023,36*7C
$GPGSV,4,2,16,16,24,217,29,18,29,113,38,23,01,061,,26,29,187,27*7F
$GPGSV,4,3,16,27,55,273,30,28,60,108,35,31,53,167,32,32,34,007,41*7B
$GPGSV,4,4,16,36,52,277,29,40,84,353,35,41,58,082,,49,32,274,*71
$GLGSV,3,1,11,65,02,229,,70,03,013,26,71,28,335,35,72,31,276,22*66
$GLGSV,3,2,11,73,17,116,28,74,21,163,08,75,05,210,,84,41,135,*6C
$GLGSV,3,3,11,85,68,035,34,86,18,344,33,,,,28*69
$GNGLL,0419.76255,S,05539.94730,E,132225.00,A,A*63
$GNGRS,132225.00,1,-5.4,0.7,-8.4,2.5,-0.3,-0.2,-1.5,-1.2,-1.2,,,*5E
$GNGRS,132225.00,1,2.0,2.7,-106,-1.1,-0.1,-6.2,,,,,,*4E
$GNGST,132225.00,24,,,,1.2,1.6,2.9*45
$GNZDA,132225.00,19,05,2025,00,00*75
$GNGBS,132225.00,1.2,1.6,2.9,,,,*55
b0XHLr/(
'"*q= 
$7v'<l$5V -"e{"4(Ta:R $tAFG&O~HItJKT)U%D#V#XVbbHi*d$GNRMC,132226.00,A,0419.76255,S,05539.94729,E,0.018,,190525,,,A*72
$GNVTG,,T,,M,0.018,N,0.033,K,A*34
$GNGNS,132226.00,0419.76255,S,05539.94729,E,AA,15,0.63,10.7,-47.6,,*68
$GNGGA,132226.00,0419.76255,S,05539.94729,E,1,12,0.63,10.7,M,-47.6,M,,*45
$GNGSA,A,3,10,32,26,08,18,28,31,16,27,,,,1.30,0.63,1.13*17
$GNGSA,A,3,86,73,74,71,85,72,,,,,,,1.30,0.63,1.13*1F
$GPGSV,4,1,16,02,03,332,25,04,07,226,21,08,23,303,28,10,13,023,39*72
$GPGSV,4,2,16,16,24,217,34,18,29,113,42,23,01,061,,26,29,187,32*7A
$GPGSV,4,3,16,27,55,273,36,28,60,108,39,31,53,167,36,32,34,007,45*71
$GPGSV,4,4,16,36,52,277,34,40,84,353,40,41,58,082,,49,32,274,*7F
$GLGSV,3,1,11,65,02,229,,70,03,013,25,71,28,335,38,72,31,276,21*6B
$GLGSV,3,2,11,73,17,116,28,74,21,163,08,75,05,210,,84,41,135,*6C
$GLGSV,3,3,11,85,68,035,37,86,18,344,35,,,,28*6C
$GNGLL,0419.76255,S,05539.94729,E,132226.00,A,A*68
$GNGRS,132226.00,1,-5.4,1.0,-2.7,-2.2,-0.4,0.1,-1.7,-1.1,1.2,,,*7D
$GNGRS,132226.00,1,1.9,-0.2,4.4,-1.3,0.2,-6.2,,,,,,*75
$GNGST,132226.00,2973941,,,,1.2,1.6,2.9*73
$GNZDA,132226.00,19,05,2025,00,00*76
$GNGBS,132226.00,1.2,1.6,2.9,,,,*56
b0XLL\ /
(# )q= 
%7l(<l/%5Q -"_{"4(Ta:R $tAFhG'OHAIt)J
KT)U(D#V%X dbLQ.<$GNRMC,132227.00,A,0419.76256,S,05539.94725,E,0.012,,190525,,,A*76
$GNVTG,,T,,M,0.012,N,0.022,K,A*3E
$GNGNS,132227.00,0419.76256,S,05539.94725,E,AA,15,0.63,10.8,-47.6,,*69
$GNGGA,132227.00,0419.76256,S,05539.94725,E,1,12,0.63,10.8,M,-47.6,M,,*44
$GNGSA,A,3,10,32,26,08,18,28,31,16,27,,,,1.30,0.63,1.13*17
$GNGSA,A,3,86,73,74,71,85,72,,,,,,,1.30,0.63,1.13*1F
$GPGSV,4,1,16,02,03,332,27,04,07,226,23,08,23,303,32,10,13,023,40*77
$GPGSV,4,2,16,16,24,217,35,18,29,113,41,23,01,061,,26,29,187,32*78
$GPGSV,4,3,16,27,55,273,37,28,60,108,40,31,53,167,37,32,34,007,45*7F
$GPGSV,4,4,16,36,52,277,34,40,84,353,40,41,58,082,,49,32,274,*7F
$GLGSV,3,1,11,65,02,229,,70,03,013,27,71,28,335,39,72,31,276,23*6A
$GLGSV,3,2,11,73,17,116,31,74,21,163,10,75,05,210,,84,41,135,*6D
$GLGSV,3,3,11,85,68,035,40,86,18,344,37,,,,32*65
$GNGLL,0419.76256,S,05539.94725,E,132227.00,A,A*66
$GNGRS,132227.00,1,-5.5,1.0,2.3,2.0,-0.4,0.5,-1.7,0.3,3.6,,,*57
$GNGRS,132227.00,1,1.9,0.4,4.1,-1.1,0.2,-4.5,,,,,,*5D
$GNGST,132227.00,2973941,,,,1.2,1.6,2.9*72
$GNZDA,132227.00,19,05,2025,00,00*77
$GNGBS,132227.00,1.2,1.6,2.9,,,,*57
b0XpPL /^
(#)q=+
%7(<l!%5V -"f{#4(Ta:R $tAF]G(OvH\ItyJKT)U'D# V%XcbpP92$GNRMC,132228.00,A,0419.76257,S,05539.94724,E,0.006,,190525,,,A*7C
$GNVTG,,T,,M,0.006,N,0.011,K,A*3B
$GNGNS,132228.00,0419.76257,S,05539.94724,E,AA,15,0.66,10.8,-47.6,,*63
$GNGGA,132228.00,0419.76257,S,05539.94724,E,1,12,0.66,10.8,M,-47.6,M,,*4E
$GNGSA,A,3,10,32,26,08,18,28,31,16,27,,,,1.33,0.66,1.16*14
$GNGSA,A,3,86,73,74,71,85,72,,,,,,,1.33,0.66,1.16*1C
$GPGSV,4,1,16,02,03,332,28,04,07,226,25,08,23,303,32,10,13,023,40*7E
$GPGSV,4,2,16,16,24,217,35,18,29,113,41,23,01,061,,26,29,187,31*7B
$GPGSV,4,3,16,27,55,273,37,28,60,108,40,31,53,167,37,32,34,007,45*7F
$GPGSV,4,4,16,36,52,277,35,40,84,353,40,41,58,082,,49,32,274,*7E
$GLGSV,3,1,11,65,02,229,,70,03,013,27,71,28,335,40,72,31,276,25*62
$GLGSV,3,2,11,73,17,116,30,74,21,163,08,75,05,210,,84,41,135,*65
$GLGSV,3,3,11,85,68,035,39,86,18,344,37,,,,31*68
$GNGLL,0419.76257,S,05539.94724,E,132228.00,A,A*69
$GNGRS,132228.00,1,-5.6,1.0,-2.1,0.9,-0.2,0.3,-1.7,1.7,2.0,,,*7D
$GNGRS,132228.00,1,1.8,3.8,77.1,-1.4,0.3,-6.8,,,,,,*63
$GNGST,132228.00,18,,,,1.2,1.5,2.9*44
$GNZDA,132228.00,19,05,2025,00,00*78
$GNGBS,132228.00,1.2,1.5,2.9,,,,*5B
b0XXTL/e
$v&q=
7}$<l"5_ )"_{4$Ta:R  tAF"G$OHItJKT)U#D#"V"XIGbXT!6$GNRMC,132229.00,A,0419.76256,S,05539.94725,E,0.041,,190525,,,A*7E
$GNVTG,,T,,M,0.041,N,0.075,K,A*3A
$GNGNS,132229.00,0419.76256,S,05539.94725,E,AA,15,0.63,10.9,-47.6,,*66
$GNGGA,132229.00,0419.76256,S,05539.94725,E,1,12,0.63,10.9,M,-47.6,M,,*4B
$GNGSA,A,3,10,32,26,08,18,28,31,16,27,,,,1.30,0.63,1.13*17
$GNGSA,A,3,86,73,74,71,85,72,,,,,,,1.30,0.63,1.13*1F
$GPGSV,4,1,16,02,03,332,26,04,07,226,23,08,23,303,25,10,13,023,36*71
$GPGSV,4,2,16,16,24,217,31,18,29,113,38,23,01,061,,26,29,187,26*77
$GPGSV,4,3,16,27,55,273,31,28,60,108,36,31,53,167,34,32,34,007,41*7F
$GPGSV,4,4,16,36,52,277,30,40,84,353,36,41,58,082,,49,32,274,*7A
$GLGSV,3,1,11,65,02,229,,70,03,013,26,71,28,335,36,72,31,276,23*64
$GLGSV,3,2,11,73,17,116,28,74,21,163,08,75,05,210,,84,41,135,*6C
$GLGSV,3,3,11,85,68,035,35,86,18,344,34,,,,29*6E
$GNGLL,0419.76256,S,05539.94725,E,132229.00,A,A*68
$GNGRS,132229.00,1,-5.2,0.9,2.8,-1.6,0.0,1.7,-1.6,-1.4,3.8,,,*7B
$GNGRS,132229.00,1,2.2,2.8,4.6,-1.2,0.3,-6.1,,,,,,*56
$GNGST,132229.00,191867,,,,1.2,1.5,2.9*4C
$GNZDA,132229.00,19,05,2025,00,00*79
$GNGBS,132229.00,1.2,1.5,2.9,,,,*5A
b0X@XL3/
($?)q=!:
"7)<le%5i ,"v{"4)Ta:R $tAFG&OHIt0JKT)U'D#V#XCb@X:O$GNRMC,132230.00,A,0419.76257,S,05539.94727,E,0.023,,190525,,,A*71
$GNVTG,,T,,M,0.023,N,0.043,K,A*3B
$GNGNS,132230.00,0419.76257,S,05539.94727,E,AA,15,0.63,10.9,-47.6,,*6D
$GNGGA,132230.00,0419.76257,S,05539.94727,E,1,12,0.63,10.9,M,-47.6,M,,*40
$GNGSA,A,3,10,32,26,08,18,28,31,16,27,,,,1.30,0.63,1.13*17
$GNGSA,A,3,86,73,74,71,85,72,,,,,,,1.30,0.63,1.13*1F
$GPGSV,4,1,16,02,03,332,26,04,07,226,22,08,23,303,28,10,13,023,40*7C
$GPGSV,4,2,16,16,24,217,36,18,29,113,41,23,01,061,,26,29,187,33*7A
$GPGSV,4,3,16,27,55,273,34,28,60,108,41,31,53,167,37,32,34,007,44*7C
$GPGSV,4,4,16,36,52,277,34,40,84,353,41,41,58,082,,49,32,274,*7E
$GLGSV,3,1,11,65,02,229,,70,03,013,26,71,28,335,38,72,31,276,22*6B
$GLGSV,3,2,11,73,17,116,28,74,21,163,08,75,05,210,,84,41,135,*6C
$GLGSV,3,3,11,85,68,035,39,86,18,344,35,,,,29*63
$GNGLL,0419.76257,S,05539.94727,E,132230.00,A,A*63
$GNGRS,132230.00,1,-5.5,1.2,-2.0,-1.1,0.0,1.0,-1.5,0.6,1.8,,,*74
$GNGRS,132230.00,1,2.1,3.0,4.4,-1.2,0.2,-5.2,,,,,,*57
$GNGST,132230.00,191867,,,,1.2,1.5,2.9*44
$GNZDA,132230.00,19,05,2025,00,00*71
$GNGBS,132230.00,1.2,1.5,2.9,,,,*52
b0X(\L/
)#)q="
"7'<l;"5f ,"t{"4)Ta:R "tuAFQG&OHHItJ/,KT)U'D#V#XMb(\=$GNRMC,132231.00,A,0419.76257,S,05539.94727,E,0.025,,190525,,,A*76
$GNVTG,,T,,M,0.025,N,0.046,K,A*38
$GNGNS,132231.00,0419.76257,S,05539.94727,E,AA,15,0.66,10.9,-47.6,,*69
$GNGGA,132231.00,0419.76257,S,05539.94727,E,1,12,0.66,10.9,M,-47.6,M,,*44
$GNGSA,A,3,10,32,26,08,18,28,31,16,27,,,,1.33,0.66,1.16*14
$GNGSA,A,3,86,73,74,71,85,72,,,,,,,1.33,0.66,1.16*1C
$GPGSV,4,1,16,02,03,332,25,04,07,226,23,08,23,303,29,10,13,023,41*7E
$GPGSV,4,2,16,16,24,217,35,18,29,113,41,23,01,061,,26,29,187,34*7E
$GPGSV,4,3,16,27,55,273,34,28,60,108,39,31,53,167,34,32,34,007,44*70
$GPGSV,4,4,16,36,52,277,34,40,84,353,41,41,58,082,,49,32,274,*7E
$GLGSV,3,1,11,65,02,229,,70,03,013,26,71,28,335,38,72,31,276,23*6A
$GLGSV,3,2,11,73,17,116,29,74,21,163,08,75,05,210,,84,41,135,*6D
$GLGSV,3,3,11,85,68,035,39,86,18,344,35,,,,30*6B
$GNGLL,0419.76257,S,05539.94727,E,132231.00,A,A*62
$GNGRS,132231.00,1,-5.5,1.2,1.5,-0.6,-0.1,0.6,-1.5,-0.1,1.7,,,*56
$GNGRS,132231.00,1,2.0,4.0,113,-1.1,0.2,-4.4,,,,,,*49
$GNGST,132231.00,20,,,,1.2,1.5,2.8*46
$GNZDA,132231.00,19,05,2025,00,00*70
$GNGBS,132231.00,1.2,1.5,2.8,,,,*52
b0X`L/{
(#)q="
"7(<lD%5H ,"y{ 4)Ta:R #t$AFG'OHItJ
KT)U&D#"V$X1&b`As$GNRMC,132232.00,A,0419.76256,S,05539.94729,E,0.006,,190525,,,A*7B
$GNVTG,,T,,M,0.006,N,0.011,K,A*3B
$GNGNS,132232.00,0419.76256,S,05539.94729,E,AA,15,0.63,11.0,-47.6,,*68
$GNGGA,132232.00,0419.76256,S,05539.94729,E,1,12,0.63,11.0,M,-47.6,M,,*45
$GNGSA,A,3,10,32,26,08,18,28,31,16,27,,,,1.30,0.63,1.13*17
$GNGSA,A,3,86,73,74,71,85,72,,,,,,,1.30,0.63,1.13*1F
$GPGSV,4,1,16,02,03,332,26,04,07,226,25,08,23,303,30,10,13,023,40*72
$GPGSV,4,2,16,16,24,217,35,18,29,113,41,23,01,061,,26,29,187,34*7E
$GPGSV,4,3,16,27,55,273,34,28,60,108,40,31,53,167,37,32,34,007,44*7D
$GPGSV,4,4,16,36,52,277,32,40,84,353,41,41,58,082,,49,32,274,*78
$GLGSV,3,1,11,65,02,229,,70,03,013,27,71,28,335,39,72,31,276,25*6C
$GLGSV,3,2,11,73,17,116,31,74,21,163,10,75,05,210,,84,41,135,*6D
$GLGSV,3,3,11,85,68,035,38,86,18,344,36,,,,31*68
$GNGLL,0419.76256,S,05539.94729,E,132232.00,A,A*6E
$GNGRS,132232.00,1,-5.4,1.2,-1.3,1.2,-0.2,0.7,-1.8,-3.1,1.7,,,*5B
$GNGRS,132232.00,1,2.0,-0.2,4.4,-1.1,0.3,-5.4,,,,,,*7C
$GNGST,132232.00,2973941,,,,1.2,1.5,2.8*74
$GNZDA,132232.00,19,05,2025,00,00*73
$GNGBS,132232.00,1.2,1.5,2.8,,,,*51
b0XcL/
'"(q=#4
"7$<lJ"5O +"n{ 4'Ta:R $tSAFkG'OHI$tJKT)U&D#V$XhbcEJu$GNRMC,132233.00,A,0419.76257,S,05539.94729,E,0.046,,190525,,,A*7F
$GNVTG,,T,,M,0.046,N,0.085,K,A*32
$GNGNS,132233.00,0419.76257,S,05539.94729,E,AA,15,0.63,11.1,-47.6,,*69
$GNGGA,132233.00,0419.76257,S,05539.94729,E,1,12,0.63,11.1,M,-47.6,M,,*44
$GNGSA,A,3,10,32,26,08,18,28,31,16,27,,,,1.30,0.63,1.13*17
$GNGSA,A,3,86,73,74,71,85,72,,,,,,,1.30,0.63,1.13*1F
$GPGSV,4,1,16,02,03,332,26,04,07,226,25,08,23,303,31,10,13,023,39*7D
$GPGSV,4,2,16,16,24,217,34,18,29,113,40,23,01,061,,26,29,187,35*7F
$GPGSV,4,3,16,27,55,273,34,28,60,108,36,31,53,167,34,32,34,007,43*78
$GPGSV,4,4,16,36,52,277,32,40,84,353,39,41,58,082,,49,32,274,*77
$GLGSV,3,1,11,65,02,229,,70,03,013,27,71,28,335,39,72,31,276,24*6D
$GLGSV,3,2,11,73,17,116,36,74,21,163,07,75,05,210,,84,41,135,*6C
$GLGSV,3,3,11,85,68,035,38,86,18,344,36,,,,30*69
$GNGLL,0419.76257,S,05539.94729,E,132233.00,A,A*6E
$GNGRS,132233.00,1,-5.4,1.1,-2.0,3.9,-0.1,0.7,-1.8,0.0,1.7,,,*7C
$GNGRS,132233.00,1,1.9,0.2,4.2,-0.8,0.2,-5.8,,,,,,*59
$GNGST,132233.00,2973941,,,,1.2,1.5,2.8*75
$GNZDA,132233.00,19,05,2025,00,00*72
$GNGBS,132233.00,1.2,1.5,2.8,,,,*50
b0XgLE/r
"w$q=u
7 <lc5G &"s{4"Ta:R tQAFG"OH/ItJjKT)U"D#VXubgI"$GNRMC,132234.00,A,0419.76258,S,05539.94729,E,0.038,,190525,,,A*7E
$GNVTG,,T,,M,0.038,N,0.071,K,A*30
$GNGNS,132234.00,0419.76258,S,05539.94729,E,AA,14,0.66,11.0,-47.6,,*64
$GNGGA,132234.00,0419.76258,S,05539.94729,E,1,12,0.66,11.0,M,-47.6,M,,*48
$GNGSA,A,3,10,32,26,08,18,28,31,16,27,,,,1.33,0.66,1.16*14
$GNGSA,A,3,86,73,71,85,72,,,,,,,,1.33,0.66,1.16*1F
$GPGSV,4,1,16,02,03,332,24,04,07,226,23,08,23,303,25,10,13,023,34*71
$GPGSV,4,2,16,16,24,217,29,18,29,113,36,23,01,061,,26,29,187,31*76
$GPGSV,4,3,16,27,55,273,30,28,60,108,32,31,53,167,30,32,34,007,38*70
$GPGSV,4,4,16,36,52,277,29,40,84,353,34,41,58,082,,49,32,274,*70
$GLGSV,3,1,11,65,02,229,,70,03,013,24,71,28,335,34,72,31,276,22*65
$GLGSV,3,2,11,73,17,116,30,74,21,163,06,75,05,210,,84,41,135,*6B
$GLGSV,3,3,11,85,68,035,34,86,18,344,30,,,,24*66
$GNGLL,0419.76258,S,05539.94729,E,132234.00,A,A*66
$GNGRS,132234.00,1,-5.2,1.1,-1.4,3.7,0.0,1.0,-1.8,3.7,1.8,,,*55
$GNGRS,132234.00,1,3.9,2.4,-1.0,0.1,-4.7,,,,,,,*74
$GNGST,132234.00,25,,,,1.2,1.5,2.8*46
$GNZDA,132234.00,19,05,2025,00,00*75
$GNGBS,132234.00,1.2,1.5,2.8,,,,*57
b0XkL3/
%&q=0
7!<lb"5Q ("{4$Ta:R !t;AFiG#OHItJKT)U"D#VXbbkME$GNRMC,132235.00,A,0419.76259,S,05539.94727,E,0.047,,190525,,,A*78
$GNVTG,,T,,M,0.047,N,0.086,K,A*30
$GNGNS,132235.00,0419.76259,S,05539.94727,E,AA,15,0.63,11.0,-47.6,,*6E
$GNGGA,132235.00,0419.76259,S,05539.94727,E,1,12,0.63,11.0,M,-47.6,M,,*43
$GNGSA,A,3,10,32,26,08,18,28,31,16,27,,,,1.30,0.63,1.13*17
$GNGSA,A,3,86,73,74,71,85,72,,,,,,,1.30,0.63,1.13*1F
$GPGSV,4,1,16,02,03,332,23,04,07,226,21,08,23,303,27,10,13,023,37*75
$GPGSV,4,2,16,16,24,217,29,18,29,113,38,23,01,061,,26,29,187,31*78
$GPGSV,4,3,16,27,55,273,30,28,60,108,33,31,53,167,34,32,34,007,40*7A
$GPGSV,4,4,16,36,52,277,29,40,84,353,36,41,58,082,,49,32,274,*72
$GLGSV,3,1,11,65,02,229,,70,03,013,22,71,28,335,35,72,31,276,20*60
$GLGSV,3,2,11,73,17,116,31,74,21,163,11,75,05,210,,84,41,135,*6C
$GLGSV,3,3,11,85,68,035,34,86,18,344,31,,,,25*66
$GNGLL,0419.76259,S,05539.94727,E,132235.00,A,A*68
$GNGRS,132235.00,1,-5.3,1.3,-2.1,2.5,-0.1,1.0,-1.8,10.5,1.6,,,*40
$GNGRS,132235.00,1,-5.6,3.8,4.6,-1.3,0.2,-3.2,,,,,,*72
$GNGST,132235.00,74948,,,,1.2,1.5,2.9*77
$GNZDA,132235.00,19,05,2025,00,00*74
$GNGBS,132235.00,1.2,1.5,2.9,,,,*57
b0XoL,/r
%Y&q=\
7"<lK"5F )"t{4"Ta:R "t3AF8G&OHvI tJKT)U$D#V#X~boyQ$GNRMC,132236.00,A,0419.76261,S,05539.94726,E,0.001,,190525,,,A*73
$GNVTG,,T,,M,0.001,N,0.002,K,A*3E
$GNGNS,132236.00,0419.76261,S,05539.94726,E,AA,15,0.63,11.0,-47.6,,*67
$GNGGA,132236.00,0419.76261,S,05539.94726,E,1,12,0.63,11.0,M,-47.6,M,,*4A
$GNGSA,A,3,10,32,26,08,18,28,31,16,27,,,,1.30,0.63,1.13*17
$GNGSA,A,3,86,73,74,71,85,72,,,,,,,1.30,0.63,1.13*1F
$GPGSV,4,1,16,02,03,332,22,04,07,226,20,08,23,303,28,10,13,023,37*7A
$GPGSV,4,2,16,16,24,217,30,18,29,113,38,23,01,061,,26,29,187,31*70
$GPGSV,4,3,16,27,55,273,30,28,60,108,34,31,53,167,34,32,34,007,41*7C
$GPGSV,4,4,16,36,52,277,29,40,84,353,34,41,58,082,,49,32,274,*70
$GLGSV,3,1,11,65,02,229,,70,03,013,22,71,28,335,38,72,31,276,19*67
$GLGSV,3,2,11,73,17,116,32,74,21,163,09,75,05,210,,84,41,135,*66
$GLGSV,3,3,11,85,68,035,36,86,18,344,35,,,,27*62
$GNGLL,0419.76261,S,05539.94726,E,132236.00,A,A*61
$GNGRS,132236.00,1,-5.3,1.2,-1.6,3.7,0.0,0.7,-1.9,3.5,2.6,,,*5F
$GNGRS,132236.00,1,-1.1,5.0,4.4,-1.0,0.1,-3.9,,,,,,*75
$GNGST,132236.00,107925,,,,1.2,1.6,2.9*49
$GNZDA,132236.00,19,05,2025,00,00*77
$GNGBS,132236.00,1.2,1.6,2.9,,,,*57
b0XsL/
#&q=
7"<l& 59 )"{4"Ta:R !t0AF.G#OH*ItJ
EKT)U!D#VXz0bsaU$GNRMC,132237.00,A,0419.76261,S,05539.94726,E,0.021,,190525,,,A*70
$GNVTG,,T,,M,0.021,N,0.039,K,A*34
$GNGNS,132237.00,0419.76261,S,05539.94726,E,AA,15,0.63,11.1,-47.6,,*67
$GNGGA,132237.00,0419.76261,S,05539.94726,E,1,12,0.63,11.1,M,-47.6,M,,*4A
$GNGSA,A,3,10,32,26,08,18,28,31,16,27,,,,1.30,0.63,1.13*17
$GNGSA,A,3,86,73,74,71,85,72,,,,,,,1.30,0.63,1.13*1F
$GPGSV,4,1,16,02,03,332,22,04,07,226,19,08,23,303,27,10,13,023,35*7D
$GPGSV,4,2,16,16,24,217,29,18,29,113,38,23,01,061,,26,29,187,30*79
$GPGSV,4,3,16,27,55,273,30,28,60,108,34,31,53,167,32,32,34,007,41*7A
$GPGSV,4,4,16,36,52,277,28,40,84,353,34,41,58,082,,49,32,274,*71
$GLGSV,3,1,11,65,02,229,,70,03,013,21,71,28,335,35,72,31,276,20*63
$GLGSV,3,2,11,73,17,116,31,74,21,163,10,75,05,210,,84,41,135,*6D
$GLGSV,3,3,11,85,68,035,33,86,18,344,31,,,,27*63
$GNGLL,0419.76261,S,05539.94726,E,132237.00,A,A*60
$GNGRS,132237.00,1,-5.3,1.3,-0.5,2.1,0.0,-2.2,-2.0,-2.4,5.0,,,*56
$GNGRS,132237.00,1,4.0,0.0,3.3,-0.9,-0.1,-4.7,,,,,,*74
$GNGST,132237.00,39,,,,1.2,1.6,2.9*4A
$GNZDA,132237.00,19,05,2025,00,00*76
$GNGBS,132237.00,1.2,1.6,2.9,,,,*56
b0XwL/
%'q=
 7$<l|#5+ *"p{4$Ta:R $t2AFG%OHI tVJKT)U$D#V"XbwIY}$GNRMC,132238.00,A,0419.76261,S,05539.94725,E,0.018,,190525,,,A*76
$GNVTG,,T,,M,0.018,N,0.033,K,A*34
$GNGNS,132238.00,0419.76261,S,05539.94725,E,AA,15,0.63,11.1,-47.6,,*6B
$GNGGA,132238.00,0419.76261,S,05539.94725,E,1,12,0.63,11.1,M,-47.6,M,,*46
$GNGSA,A,3,10,32,26,08,18,28,31,16,27,,,,1.30,0.63,1.13*17
$GNGSA,A,3,86,73,74,71,85,72,,,,,,,1.30,0.63,1.13*1F
$GPGSV,4,1,16,02,03,332,24,04,07,226,20,08,23,303,28,10,13,023,37*7C
$GPGSV,4,2,16,16,24,217,31,18,29,113,39,23,01,061,,26,29,187,31*70
$GPGSV,4,3,16,27,55,273,32,28,60,108,36,31,53,167,35,32,34,007,42*7E
$GPGSV,4,4,16,36,52,277,30,40,84,353,36,41,58,082,,49,32,274,*7A
$GLGSV,3,1,11,65,02,229,,70,03,013,23,71,28,335,37,72,31,276,21*62
$GLGSV,3,2,11,73,17,116,32,74,21,163,09,75,05,210,,84,41,135,*66
$GLGSV,3,3,11,85,68,035,36,86,18,344,34,,,,31*64
$GNGLL,0419.76261,S,05539.94725,E,132238.00,A,A*6C
$GNGRS,132238.00,1,-5.1,1.1,-0.6,2.1,-0.3,1.2,-2.1,-1.0,0.2,,,*5B
$GNGRS,132238.00,1,4.6,0.9,4.4,-0.9,-0.3,-5.2,,,,,,*72
$GNGST,132238.00,8994,,,,1.2,1.6,2.9*43
$GNZDA,132238.00,19,05,2025,00,00*79
$GNGBS,132238.00,1.2,1.6,2.9,,,,*59
b0Xh{L/`
%_'q= 
 7G&<l#5 *"t{4$Ta:R $tGAFG%OHI t}JKT)U$D#V"X.dbh{1]Z$GNRMC,132239.00,A,0419.76262,S,05539.94725,E,0.007,,190525,,,A*7A
$GNVTG,,T,,M,0.007,N,0.013,K,A*38
$GNGNS,132239.00,0419.76262,S,05539.94725,E,AA,15,0.63,11.0,-47.6,,*68
$GNGGA,132239.00,0419.76262,S,05539.94725,E,1,12,0.63,11.0,M,-47.6,M,,*45
$GNGSA,A,3,10,32,26,08,18,28,31,16,27,,,,1.30,0.63,1.13*17
$GNGSA,A,3,86,73,74,71,85,72,,,,,,,1.30,0.63,1.13*1F
$GPGSV,4,1,16,02,03,332,25,04,07,226,21,08,23,303,29,10,13,023,37*7D
$GPGSV,4,2,16,16,24,217,31,18,29,113,39,23,01,061,,26,29,187,32*73
$GPGSV,4,3,16,27,55,273,32,28,60,108,38,31,53,167,35,32,34,007,42*70
$GPGSV,4,4,16,36,52,277,30,40,84,353,36,41,58,082,,49,32,274,*7A
$GLGSV,3,1,11,65,02,230,,70,03,013,22,71,28,335,37,72,31,276,21*6B
$GLGSV,3,2,11,73,17,116,32,74,21,163,09,75,05,210,,84,41,135,*66
$GLGSV,3,3,11,85,68,035,36,86,18,344,34,,,,30*65
$GNGLL,0419.76262,S,05539.94725,E,132239.00,A,A*6E
$GNGRS,132239.00,1,-5.0,1.2,-0.4,1.0,-0.3,0.2,-2.3,0.9,3.3,,,*7C
$GNGRS,132239.00,1,2.1,3.8,4.0,-1.1,-0.4,-6.3,,,,,,*78
$GNGST,132239.00,13491,,,,1.2,1.6,2.9*70
$GNZDA,132239.00,19,05,2025,00,00*78
$GNGBS,132239.00,1.2,1.6,2.9,,,,*58
b0XPL/e
( (q=#
#7$<l#5 +"{ 4'Ta:R $t:AFjG$OHI tJ
KT)U$D#V"XbPa2M$GNRMC,132240.00,A,0419.76261,S,05539.94726,E,0.032,,190525,,,A*72
$GNVTG,,T,,M,0.032,N,0.060,K,A*3A
$GNGNS,132240.00,0419.76261,S,05539.94726,E,AA,15,0.66,11.1,-47.6,,*62
$GNGGA,132240.00,0419.76261,S,05539.94726,E,1,12,0.66,11.1,M,-47.6,M,,*4F
$GNGSA,A,3,10,32,26,08,18,28,31,16,27,,,,1.33,0.66,1.16*14
$GNGSA,A,3,86,73,74,71,85,72,,,,,,,1.33,0.66,1.16*1C
$GPGSV,4,1,16,02,03,332,25,04,07,226,22,08,23,303,30,10,13,023,40*76
$GPGSV,4,2,16,16,24,217,32,18,29,113,40,23,01,061,,26,29,187,35*79
$GPGSV,4,3,16,27,55,273,35,28,60,108,36,31,53,167,35,32,34,007,43*78
$GPGSV,4,4,16,36,52,277,32,40,84,353,39,41,58,082,,49,32,274,*77
$GLGSV,3,1,11,65,02,230,,70,03,013,22,71,28,335,36,72,31,276,21*6A
$GLGSV,3,2,11,73,17,116,32,74,21,163,10,75,05,210,,84,41,135,*6E
$GLGSV,3,3,11,85,68,035,36,86,18,344,34,,,,29*6D
$GNGLL,0419.76261,S,05539.94726,E,132240.00,A,A*60
$GNGRS,132240.00,1,-5.2,1.4,-2.4,1.0,-0.2,-0.5,-2.3,0.1,0.1,,,*56
$GNGRS,132240.00,1,1.8,2.3,32.0,-1.0,-0.2,-7.6,,,,,,*40
$GNGST,132240.00,20,,,,1.2,1.6,2.9*42
$GNZDA,132240.00,19,05,2025,00,00*76
$GNGBS,132240.00,1.2,1.6,2.9,,,,*56
b0X8L/`
'"*q=$
"7&<l,&5 ,"{4)Ta:R $tAF'G$OHI$ttJKT)U&D#V"X!^b8e
$GNRMC,132241.00,A,0419.76261,S,05539.94728,E,0.037,,190525,,,A*78
$GNVTG,,T,,M,0.037,N,0.069,K,A*36
$GNGNS,132241.00,0419.76261,S,05539.94728,E,AA,15,0.63,11.0,-47.6,,*69
$GNGGA,132241.00,0419.76261,S,05539.94728,E,1,12,0.63,11.0,M,-47.6,M,,*44
$GNGSA,A,3,10,32,26,08,18,28,31,16,27,,,,1.30,0.63,1.13*17
$GNGSA,A,3,86,73,74,71,85,72,,,,,,,1.30,0.63,1.13*1F
$GPGSV,4,1,16,02,03,332,25,04,07,226,21,08,23,303,30,10,13,023,39*7B
$GPGSV,4,2,16,16,24,217,34,18,29,113,42,23,01,061,,26,29,187,36*7E
$GPGSV,4,3,16,27,55,273,34,28,60,108,38,31,53,167,38,32,34,007,44*7D
$GPGSV,4,4,16,36,52,277,31,40,84,353,41,41,58,082,,49,32,274,*7B
$GLGSV,3,1,11,65,02,230,,70,03,013,22,71,28,335,36,72,31,276,21*6A
$GLGSV,3,2,11,73,17,116,36,74,21,163,08,75,05,210,,84,41,135,*63
$GLGSV,3,3,11,85,68,035,38,86,18,344,34,,,,28*62
$GNGLL,0419.76261,S,05539.94728,E,132241.00,A,A*6F
$GNGRS,132241.00,1,-5.3,1.3,-1.2,3.5,0.0,0.4,-2.6,-0.5,2.6,,,*79
$GNGRS,132241.00,1,0.3,3.7,4.5,-1.0,-0.3,-7.7,,,,,,*7E
$GNGST,132241.00,2973941,,,,1.2,1.6,2.9*72
$GNZDA,132241.00,19,05,2025,00,00*77
$GNGBS,132241.00,1.2,1.6,2.9,,,,*57
b0X L/
' p&q=!
"7$<l!5x *"{4(Ta:R $tAFG)OHI tJKT)U*D#V&X$b h$GNRMC,132242.00,A,0419.76262,S,05539.94728,E,0.042,,190525,,,A*7A
$GNVTG,,T,,M,0.042,N,0.077,K,A*3B
$GNGNS,132242.00,0419.76262,S,05539.94728,E,AA,15,0.63,11.0,-47.6,,*69
$GNGGA,132242.00,0419.76262,S,05539.94728,E,1,12,0.63,11.0,M,-47.6,M,,*44
$GNGSA,A,3,10,32,26,08,18,28,31,16,27,,,,1.30,0.63,1.13*17
$GNGSA,A,3,86,73,74,71,85,72,,,,,,,1.30,0.63,1.13*1F
$GPGSV,4,1,16,02,03,332,25,04,07,226,22,08,23,303,29,10,13,023,39*70
$GPGSV,4,2,16,16,24,217,32,18,29,113,38,23,01,061,,26,29,187,33*70
$GPGSV,4,3,16,27,55,273,34,28,60,108,36,31,53,167,33,32,34,007,42*7E
$GPGSV,4,4,16,36,52,277,31,40,84,353,40,41,58,082,,49,32,274,*7A
$GLGSV,3,1,11,65,02,230,,70,03,013,23,71,28,335,41,72,31,276,21*6B
$GLGSV,3,2,11,73,17,116,32,74,21,163,07,75,05,210,,84,41,135,*68
$GLGSV,3,3,11,85,68,035,42,86,18,344,38,,,,29*62
$GNGLL,0419.76262,S,05539.94728,E,132242.00,A,A*6F
$GNGRS,132242.00,1,-5.1,1.3,-0.5,2.1,-0.4,-0.3,-3.9,-1.4,-0.3,,,*5C
$GNGRS,132242.00,1,0.4,6.4,4.3,-1.1,-0.2,-7.8,,,,,,*75
$GNGST,132242.00,2973941,,,,1.2,1.6,2.9*71
$GNZDA,132242.00,19,05,2025,00,00*74
$GNGBS,132242.00,1.2,1.6,2.9,,,,*54
b0XL/v
'#&q=!
#7'<l"51 +"f{ 4)Ta:R $tAFG)OHI tJ.&KT)U*D#V%XC`bl$GNRMC,132243.00,A,0419.76262,S,05539.94730,E,0.038,,190525,,,A*7F
$GNVTG,,T,,M,0.038,N,0.070,K,A*31
$GNGNS,132243.00,0419.76262,S,05539.94730,E,AA,15,0.66,11.0,-47.6,,*64
$GNGGA,132243.00,0419.76262,S,05539.94730,E,1,12,0.66,11.0,M,-47.6,M,,*49
$GNGSA,A,3,10,32,26,08,18,28,31,16,27,,,,1.33,0.66,1.16*14
$GNGSA,A,3,86,73,74,71,85,72,,,,,,,1.33,0.66,1.16*1C
$GPGSV,4,1,16,02,03,332,26,04,07,226,23,08,23,303,30,10,13,023,39*7A
$GPGSV,4,2,16,16,24,217,35,18,29,113,38,23,01,061,,26,29,187,33*77
$GPGSV,4,3,16,27,55,273,35,28,60,108,39,31,53,167,34,32,34,007,43*76
$GPGSV,4,4,16,36,52,277,32,40,84,353,41,41,58,082,,49,32,274,*78
$GLGSV,3,1,11,65,02,230,,70,03,013,25,71,28,335,41,72,31,276,23*6F
$GLGSV,3,2,11,73,17,116,32,74,21,163,11,75,05,210,,84,41,135,*6F
$GLGSV,3,3,11,85,68,035,42,86,18,344,37,,,,31*64
$GNGLL,0419.76262,S,05539.94730,E,132243.00,A,A*67
$GNGRS,132243.00,1,-4.9,1.0,-3.1,-1.4,-0.2,-0.4,-2.1,-0.7,-0.5,,,*77
$GNGRS,132243.00,1,0.7,5.4,97.7,-1.1,-0.6,-8.5,,,,,,*4C
$GNGST,132243.00,18,,,,1.2,1.5,2.9*49
$GNZDA,132243.00,19,05,2025,00,00*75
$GNGBS,132243.00,1.2,1.5,2.9,,,,*56
b0XL1/Y
'#'q=C
#7$<l#5 +"b{!4(Ta:R %tAFG&OHItbJKT)U'D#V$XX,bp$GNRMC,132244.00,A,0419.76264,S,05539.94730,E,0.031,,190525,,,A*77
$GNVTG,,T,,M,0.031,N,0.057,K,A*3D
$GNGNS,132244.00,0419.76264,S,05539.94730,E,AA,15,0.63,11.0,-47.6,,*60
$GNGGA,132244.00,0419.76264,S,05539.94730,E,1,12,0.63,11.0,M,-47.6,M,,*4D
$GNGSA,A,3,10,32,26,08,18,28,31,16,27,,,,1.30,0.63,1.13*17
$GNGSA,A,3,86,73,74,71,85,72,,,,,,,1.30,0.63,1.13*1F
$GPGSV,4,1,16,02,03,332,27,04,07,226,23,08,23,303,30,10,13,023,39*7B
$GPGSV,4,2,16,16,24,217,35,18,29,113,39,23,01,061,,26,29,187,27*73
$GPGSV,4,3,16,27,55,273,35,28,60,108,36,31,53,167,35,32,34,007,43*78
$GPGSV,4,4,16,36,52,277,33,40,84,353,40,41,58,082,,49,32,274,*78
$GLGSV,3,1,11,65,02,230,,70,03,014,25,71,28,335,38,72,31,276,23*66
$GLGSV,3,2,11,73,17,116,31,74,21,163,07,75,05,210,,84,41,135,*6B
$GLGSV,3,3,11,85,68,035,39,86,18,344,36,,,,27*6E
$GNGLL,0419.76264,S,05539.94730,E,132244.00,A,A*66
$GNGRS,132244.00,1,-4.9,1.0,-1.9,6.0,-0.4,-0.2,-2.5,-0.4,-0.5,,,*53
$GNGRS,132244.00,1,0.9,6.1,4.4,-1.2,-0.3,-7.8,,,,,,*7E
$GNGST,132244.00,2973941,,,,1.2,1.5,2.8*75
$GNZDA,132244.00,19,05,2025,00,00*72
$GNGBS,132244.00,1.2,1.5,2.8,,,,*50
b0XLV/
(-"('q=
#7#<l#5 *"[{ 4)Ta:R %tAFBG'OHI!t[JKT)U(D#V$XNbthC$GNRMC,132245.00,A,0419.76264,S,05539.94731,E,0.013,,190525,,,A*77
$GNVTG,,T,,M,0.013,N,0.024,K,A*39
$GNGNS,132245.00,0419.76264,S,05539.94731,E,AA,15,0.63,11.0,-47.6,,*60
$GNGGA,132245.00,0419.76264,S,05539.94731,E,1,12,0.63,11.0,M,-47.6,M,,*4D
$GNGSA,A,3,10,32,26,08,18,28,31,16,27,,,,1.30,0.63,1.13*17
$GNGSA,A,3,86,73,74,71,85,72,,,,,,,1.30,0.63,1.13*1F
$GPGSV,4,1,16,02,03,332,27,04,07,226,22,08,23,303,30,10,13,023,40*74
$GPGSV,4,2,16,16,24,217,34,18,29,113,39,23,01,061,,26,29,187,29*7C
$GPGSV,4,3,16,27,55,273,35,28,60,108,35,31,53,167,35,32,34,007,42*7A
$GPGSV,4,4,16,36,52,277,32,40,84,353,41,41,58,082,,49,32,274,*78
$GLGSV,3,1,11,65,02,230,,70,03,014,25,71,27,335,39,72,31,276,23*68
$GLGSV,3,2,11,73,17,116,33,74,21,163,12,75,05,210,,84,41,135,*6D
$GLGSV,3,3,11,85,68,035,40,86,18,344,36,,,,30*66
$GNGLL,0419.76264,S,05539.94731,E,132245.00,A,A*66
$GNGRS,132245.00,1,-4.7,0.9,-3.4,1.5,-0.4,-0.4,-1.0,-2.2,-1.0,,,*59
$GNGRS,132245.00,1,0.8,3.5,4.2,-1.2,-0.1,-7.8,,,,,,*7B
$GNGST,132245.00,2973941,,,,1.2,1.5,2.8*74
$GNZDA,132245.00,19,05,2025,00,00*73
$GNGBS,132245.00,1.2,1.5,2.8,,,,*51
b0XLG"/
( $e(q="X
!7#<l#5Q *"k{ 4+Ta:R $tAFG*OHI&t9JKT)U)D#V'XS6bx@$GNRMC,132246.00,A,0419.76264,S,05539.94733,E,0.035,,190525,,,A*72
$GNVTG,,T,,M,0.035,N,0.066,K,A*3B
$GNGNS,132246.00,0419.76264,S,05539.94733,E,AA,15,0.63,11.0,-47.6,,*61
$GNGGA,132246.00,0419.76264,S,05539.94733,E,1,12,0.63,11.0,M,-47.6,M,,*4C
$GNGSA,A,3,10,32,26,08,18,28,31,16,27,,,,1.30,0.63,1.13*17
$GNGSA,A,3,86,73,74,71,85,72,,,,,,,1.30,0.63,1.13*1F
$GPGSV,4,1,16,02,03,332,27,04,07,226,21,08,23,303,34,10,13,023,40*73
$GPGSV,4,2,16,16,24,217,36,18,29,113,40,23,01,061,,26,29,187,34*7C
$GPGSV,4,3,16,27,55,273,33,28,60,108,35,31,53,167,35,32,34,007,42*7C
$GPGSV,4,4,16,36,52,277,32,40,84,353,43,41,58,082,,49,32,274,*7A
$GLGSV,3,1,11,65,02,230,,70,03,014,25,71,27,335,42,72,31,277,23*65
$GLGSV,3,2,11,73,17,116,38,74,21,163,09,75,05,210,,84,41,135,21*6F
$GLGSV,3,3,11,85,68,035,41,86,18,344,39,,,,31*69
$GNGLL,0419.76264,S,05539.94733,E,132246.00,A,A*67
$GNGRS,132246.00,1,-4.8,1.1,-1.7,1.9,-0.5,-0.7,-1.8,-1.5,-0.2,,,*5C
$GNGRS,132246.00,1,0.8,3.1,0.1,-1.0,-0.2,-5.8,,,,,,*78
$GNGST,132246.00,37,,,,1.2,1.5,2.8*40
$GNZDA,132246.00,19,05,2025,00,00*70
$GNGBS,132246.00,1.2,1.5,2.8,,,,*52
b0XLS /*
("_)q='
 7#<l5P ,"h{4,Ta:R #tAFG)OHI$sJKT)U+D#V%X_Hbq|$GNRMC,132247.00,A,0419.76267,S,05539.94731,E,0.059,,190525,,,A*78
$GNVTG,,T,,M,0.059,N,0.109,K,A*39
$GNGNS,132247.00,0419.76267,S,05539.94731,E,AA,15,0.63,11.0,-47.6,,*61
$GNGGA,132247.00,0419.76267,S,05539.94731,E,1,12,0.63,11.0,M,-47.6,M,,*4C
$GNGSA,A,3,10,32,26,08,18,28,31,16,27,,,,1.30,0.63,1.13*17
$GNGSA,A,3,86,73,74,71,85,72,,,,,,,1.30,0.63,1.13*1F
$GPGSV,4,1,16,02,03,332,27,04,07,226,22,08,23,303,32,10,13,023,40*76
$GPGSV,4,2,16,16,24,217,34,18,29,113,41,23,01,061,,26,29,187,39*72
$GPGSV,4,3,16,27,55,273,32,28,60,108,35,31,53,167,31,32,34,007,44*7F
$GPGSV,4,4,16,36,52,277,30,40,84,353,44,41,58,082,,49,32,274,*7F
$GLGSV,3,1,11,65,02,230,,70,03,014,25,71,27,335,41,72,31,277,23*66
$GLGSV,3,2,11,73,17,115,36,74,21,163,24,75,05,210,,84,41,135,20*6C
$GLGSV,3,3,11,85,68,035,43,86,18,344,37,,,,30*64
$GNGLL,0419.76267,S,05539.94731,E,132247.00,A,A*67
$GNGRS,132247.00,1,-5.0,1.0,1.8,3.0,-0.6,-0.8,-1.8,-1.6,0.2,,,*5E
$GNGRS,132247.00,1,0.9,2.0,4.5,-1.1,-0.4,-5.2,,,,,,*75
$GNGST,132247.00,38973,,,,1.2,1.5,2.8*73
$GNZDA,132247.00,19,05,2025,00,00*71
$GNGBS,132247.00,1.2,1.5,2.8,,,,*53
b0XL/
("U(q=&
7*&<l5 +"v{4,Ta:R %tAF"G)OnHI"s<JKT)U*D#V%Xf\$bY{$GNRMC,132248.00,A,0419.76267,S,05539.94731,E,0.018,,190525,,,A*72
$GNVTG,,T,,M,0.018,N,0.033,K,A*34
$GNGNS,132248.00,0419.76267,S,05539.94731,E,AA,15,0.63,11.0,-47.6,,*6E
$GNGGA,132248.00,0419.76267,S,05539.94731,E,1,12,0.63,11.0,M,-47.6,M,,*43
$GNGSA,A,3,10,32,26,08,18,28,31,16,27,,,,1.30,0.63,1.13*17
$GNGSA,A,3,86,73,74,71,85,72,,,,,,,1.30,0.63,1.13*1F
$GPGSV,4,1,16,02,03,332,27,04,07,226,23,08,23,303,30,10,13,023,40*75
$GPGSV,4,2,16,16,24,217,34,18,29,113,40,23,01,061,,26,29,187,38*72
$GPGSV,4,3,16,27,55,273,31,28,60,108,38,31,53,167,30,32,34,007,43*77
$GPGSV,4,4,16,36,52,277,29,40,84,353,44,41,58,082,,49,32,274,*77
$GLGSV,3,1,11,65,02,230,,70,03,014,24,71,27,335,41,72,31,277,22*66
$GLGSV,3,2,11,73,17,115,34,74,21,163,22,75,05,210,,84,41,135,19*62
$GLGSV,3,3,11,85,68,035,42,86,18,344,37,,,,29*6D
$GNGLL,0419.76267,S,05539.94731,E,132248.00,A,A*68
$GNGRS,132248.00,1,-4.9,1.2,-1.3,4.9,-0.2,-0.4,-2.6,-1.7,0.4,,,*71
$GNGRS,132248.00,1,1.0,3.2,4.9,-1.5,-0.3,-5.8,,,,,,*74
$GNGST,132248.00,27,,,,1.2,1.5,2.8*4F
$GNZDA,132248.00,19,05,2025,00,00*7E
$GNGBS,132248.00,1.2,1.5,2.8,,,,*5C
b0XxL/
("Y(q=&
7J%<l5G +"{4,Ta:R $tAFG)OgHI"sJMKT)NU)D#V%X^bxA$GNRMC,132249.00,A,0419.76266,S,05539.94732,E,0.019,,190525,,,A*70
$GNVTG,,T,,M,0.019,N,0.035,K,A*33
$GNGNS,132249.00,0419.76266,S,05539.94732,E,AA,16,0.63,11.0,-47.6,,*6E
$GNGGA,132249.00,0419.76266,S,05539.94732,E,1,12,0.63,11.0,M,-47.6,M,,*40
$GNGSA,A,3,10,32,26,08,18,28,31,16,27,,,,1.28,0.63,1.12*1F
$GNGSA,A,3,86,73,74,84,71,85,72,,,,,,1.28,0.63,1.12*1B
$GPGSV,4,1,16,02,03,332,28,04,07,226,22,08,23,303,30,10,13,023,40*7B
$GPGSV,4,2,16,16,24,217,34,18,29,113,40,23,01,061,,26,29,187,38*72
$GPGSV,4,3,16,27,55,273,30,28,60,108,37,31,53,167,30,32,34,007,43*79
$GPGSV,4,4,16,36,52,277,29,40,84,353,44,41,58,082,,49,32,274,*77
$GLGSV,3,1,11,65,02,230,,70,03,014,23,71,27,335,41,72,31,277,21*62
$GLGSV,3,2,11,73,17,115,34,74,21,163,23,75,05,209,,84,41,135,18*6A
$GLGSV,3,3,11,85,68,035,41,86,18,344,37,,,,29*6E
$GNGLL,0419.76266,S,05539.94732,E,132249.00,A,A*6B
$GNGRS,132249.00,1,-5.0,1.3,-2.7,4.2,-0.2,-0.5,-1.9,-1.7,0.7,,,*7B
$GNGRS,132249.00,1,1.3,1.4,5.9,5.9,-1.5,-0.2,-5.4,,,,,*5C
$GNGST,132249.00,31,,,,1.1,1.5,2.8*4A
$GNZDA,132249.00,19,05,2025,00,00*7F
$GNGBS,132249.00,1.1,1.5,2.8,,,,*5E
b0X`L@ /
)"`(q=#
7%<l#5 +"r{4*Ta:R $tAFqG)OHI"sBJKT)jU)D#V%Xb`)K$GNRMC,132250.00,A,0419.76266,S,05539.94732,E,0.029,,190525,,,A*7B
$GNVTG,,T,,M,0.029,N,0.053,K,A*30
$GNGNS,132250.00,0419.76266,S,05539.94732,E,AA,16,0.63,11.0,-47.6,,*66
$GNGGA,132250.00,0419.76266,S,05539.94732,E,1,12,0.63,11.0,M,-47.6,M,,*48
$GNGSA,A,3,10,32,26,08,18,28,31,16,27,,,,1.28,0.63,1.12*1F
$GNGSA,A,3,86,73,74,84,71,85,72,,,,,,1.28,0.63,1.12*1B
$GPGSV,4,1,16,02,03,332,28,04,07,226,21,08,23,303,32,10,13,023,41*7B
$GPGSV,4,2,16,16,24,217,34,18,29,113,40,23,01,061,,26,29,187,35*7F
$GPGSV,4,3,16,27,55,273,30,28,60,108,37,31,53,167,35,32,34,007,43*7C
$GPGSV,4,4,16,36,52,277,30,40,84,353,42,41,58,082,,49,32,274,*79
$GLGSV,3,1,11,65,02,230,,70,03,014,22,71,27,335,41,72,31,277,21*63
$GLGSV,3,2,11,73,17,115,34,74,21,163,22,75,05,209,,84,41,135,19*6A
$GLGSV,3,3,11,85,68,035,41,86,18,344,37,,,,28*6F
$GNGLL,0419.76266,S,05539.94732,E,132250.00,A,A*63
$GNGRS,132250.00,1,-5.0,1.1,-3.1,2.0,-0.4,-0.6,-1.2,-1.6,2.5,,,*7D
$GNGRS,132250.00,1,1.4,0.7,6.5,16.4,-1.2,0.3,-6.2,,,,,*4F
$GNGST,132250.00,29,,,,1.1,1.5,2.8*4B
$GNZDA,132250.00,19,05,2025,00,00*77
$GNGBS,132250.00,1.1,1.5,2.8,,,,*56
b0XHL /
)!_(q=#
7%<l&5- +"}{4*Ta:R $tAFKG)OHI"sJKT)U(D#V%XbHx$GNRMC,132251.00,A,0419.76265,S,05539.94733,E,0.007,,190525,,,A*74
$GNVTG,,T,,M,0.007,N,0.014,K,A*3F
$GNGNS,132251.00,0419.76265,S,05539.94733,E,AA,16,0.63,11.1,-47.6,,*64
$GNGGA,132251.00,0419.76265,S,05539.94733,E,1,12,0.63,11.1,M,-47.6,M,,*4A
$GNGSA,A,3,10,32,26,08,18,28,31,16,27,,,,1.28,0.63,1.12*1F
$GNGSA,A,3,86,73,74,84,71,85,72,,,,,,1.28,0.63,1.12*1B
$GPGSV,4,1,16,02,03,332,27,04,07,226,21,08,23,303,32,10,13,023,41*74
$GPGSV,4,2,16,16,24,217,33,18,29,113,40,23,01,061,,26,29,187,35*78
$GPGSV,4,3,16,27,55,273,30,28,60,108,37,31,53,167,38,32,34,007,43*71
$GPGSV,4,4,16,36,52,277,30,40,84,353,42,41,58,082,,49,32,274,*79
$GLGSV,3,1,11,65,02,230,,70,03,014,23,71,27,335,41,72,31,277,22*61
$GLGSV,3,2,11,73,17,115,34,74,21,163,22,75,05,209,,84,41,135,19*6A
$GLGSV,3,3,11,85,68,035,40,86,18,344,37,,,,27*61
$GNGLL,0419.76265,S,05539.94733,E,132251.00,A,A*60
$GNGRS,132251.00,1,-5.1,1.2,-2.3,1.9,-0.4,0.0,-2.1,-1.6,4.3,,,*5C
$GNGRS,132251.00,1,1.4,0.1,6.9,16.9,-1.2,-0.1,-6.3,,,,,*67
$GNGST,132251.00,29,,,,1.1,1.5,2.7*45
$GNZDA,132251.00,19,05,2025,00,00*76
$GNGBS,132251.00,1.1,1.5,2.7,,,,*58
b0X0Lj /n
)!w(q=#H
7%<l%5 +"{4*Ta:R $tAFG)OHI"sJsKT)'U(D#V%Xub0O$GNRMC,132252.00,A,0419.76263,S,05539.94734,E,0.011,,190525,,,A*71
