b0LM

*V
*3#vB
8"!<b)9} +T{4(Ta:R uWAF.GTHkInAJ{:KT
%U&J1yVXeb$GNRMC,133302.00,A,0419.77141,S,05539.89752,E,0.071,,190525,,,D*79
$GNVTG,,T,,M,0.071,N,0.131,K,D*3D
$GNGNS,133302.00,0419.77141,S,05539.89752,E,DA,16,0.65,11.0,-47.6,,0000*6F
$GNGGA,133302.00,0419.77141,S,05539.89752,E,2,12,0.65,11.0,M,-47.6,M,,0000*47
$GNGSA,A,3,10,32,26,08,18,28,31,27,,,,,1.21,0.65,1.03*17
$GNGSA,A,3,86,73,74,84,71,85,72,75,,,,,1.21,0.65,1.03*16
$GPGSV,4,1,16,02,07,333,,04,10,229,,08,25,298,10,10,13,027,42*7C
$GPGSV,4,2,16,16,24,212,,18,27,118,35,23,01,066,,26,29,182,31*7C
$GPGSV,4,3,16,27,56,265,31,28,60,098,33,31,57,162,41,32,30,009,43*7D
$GPGSV,4,4,16,36,52,277,,40,84,353,40,41,58,082,,49,32,274,*78
$GLGSV,3,1,10,65,03,234,,70,00,017,09,71,24,340,18,72,29,283,11*62
$GLGSV,3,2,10,73,18,110,31,74,22,158,11,75,07,205,13,84,37,141,10*68
$GLGSV,3,3,10,85,74,049,38,86,24,344,25*60
$GNGLL,0419.77141,S,05539.89752,E,133302.00,A,D*6C
$GNGRS,133302.00,1,-4.6,0.8,2.7,18.8,-0.6,-0.7,-1.3,2.9,,,,*66
$GNGRS,133302.00,1,11.9,3.2,150,35.6,4.1,1.2,-1.5,-15.1,,,,*75
$GNGST,133302.00,62,,,,1.6,2.9,3.9*4B
$GNZDA,133302.00,19,05,2025,00,00*70
$GNGBS,133302.00,1.6,2.9,3.9,,,,*59
b0LM
*&
)\"vB
 8|!<b(9{ )/{4)Ta:R uhAFGTsH
InJWKT%U$J1VX&bx$GNRMC,133303.00,A,0419.77140,S,05539.89752,E,0.023,,190525,,,D*7E
$GNVTG,,T,,M,0.023,N,0.042,K,D*3F
$GNGNS,133303.00,0419.77140,S,05539.89752,E,DA,16,0.71,11.0,-47.6,,0000*6A
$GNGGA,133303.00,0419.77140,S,05539.89752,E,2,12,0.71,11.0,M,-47.6,M,,0000*42
$GNGSA,A,3,10,32,26,08,18,28,31,27,,,,,1.36,0.71,1.16*10
$GNGSA,A,3,86,73,74,84,71,85,72,75,,,,,1.36,0.71,1.16*11
$GPGSV,4,1,16,02,07,333,,04,10,229,,08,25,298,12,10,13,027,41*7D
$GPGSV,4,2,16,16,24,212,,18,27,118,34,23,01,066,,26,29,182,25*78
$GPGSV,4,3,16,27,56,265,32,28,60,098,33,31,57,162,40,32,30,009,41*7D
$GPGSV,4,4,16,36,52,277,,40,84,353,41,41,58,082,,49,32,274,*79
$GLGSV,3,1,10,65,03,234,,70,00,017,11,71,24,340,18,72,29,283,10*6A
$GLGSV,3,2,10,73,18,110,29,74,22,158,13,75,07,205,09,84,37,141,11*69
$GLGSV,3,3,10,85,74,049,36,86,24,344,23*68
$GNGLL,0419.77140,S,05539.89752,E,133303.00,A,D*6C
$GNGRS,133303.00,1,-4.2,0.5,1.9,15.7,-0.5,-0.8,-1.3,-1.3,,,,*49
$GNGRS,133303.00,1,12.4,5.0,3.4,4.2,6.3,1.5,6.4,21.8,,,,*5A
$GNGST,133303.00,2975182,,,,1.6,2.9,3.9*7C
$GNZDA,133303.00,19,05,2025,00,00*71
$GNGBS,133303.00,1.6,2.9,3.9,,,,*58
b0LM
*
(W#vB
8<b'9 ,G{4&Ta:R  uAFGTHmInJ3KhT%UJ1qVXbPW$GNRMC,133304.00,A,0419.77140,S,05539.89747,E,0.053,,190525,,,D*7A
$GNVTG,,T,,M,0.053,N,0.098,K,D*3F
$GNGNS,133304.00,0419.77140,S,05539.89747,E,DA,16,0.71,10.9,-47.6,,0000*61
$GNGGA,133304.00,0419.77140,S,05539.89747,E,2,12,0.71,10.9,M,-47.6,M,,0000*49
$GNGSA,A,3,10,32,26,08,18,28,31,27,,,,,1.36,0.71,1.16*10
$GNGSA,A,3,86,73,74,84,71,85,72,75,,,,,1.36,0.71,1.16*11
$GPGSV,4,1,16,02,07,333,,04,10,229,,08,25,298,12,10,13,027,40*7C
$GPGSV,4,2,16,16,24,212,,18,27,118,35,23,01,066,,26,29,182,31*7C
$GPGSV,4,3,16,27,56,265,31,28,60,098,23,31,57,162,39,32,30,009,44*74
$GPGSV,4,4,16,36,52,277,,40,84,353,38,41,58,082,,49,32,274,*77
$GLGSV,3,1,10,65,03,234,,70,00,017,09,71,24,340,17,72,29,283,12*6E
$GLGSV,3,2,10,73,18,110,30,74,22,158,13,75,07,205,09,84,37,141,16*66
$GLGSV,3,3,10,85,74,049,30,86,24,344,21*6C
$GNGLL,0419.77140,S,05539.89747,E,133304.00,A,D*6F
$GNGRS,133304.00,1,-4.3,0.7,5.3,15.6,-0.6,0.3,-1.1,1.7,,,,*4C
$GNGRS,133304.00,1,12.8,-0.8,3.1,3.9,6.5,1.1,6.2,21.5,,,,*71
$GNGST,133304.00,2976615,,,,1.6,2.9,3.9*71
$GNZDA,133304.00,19,05,2025,00,00*76
$GNGBS,133304.00,1.6,2.9,3.9,,,,*5F
b0LM

*
(U%vB '
8 <b7)9 .N{4%Ta:R  uNAFGTHI#naJKT%%UJ1PVXcb($GNRMC,133305.00,A,0419.77140,S,05539.89745,E,0.082,,190525,,,D*75
$GNVTG,,T,,M,0.082,N,0.152,K,D*34
$GNGNS,133305.00,0419.77140,S,05539.89745,E,DA,16,0.89,10.9,-47.6,,0000*65
$GNGGA,133305.00,0419.77140,S,05539.89745,E,2,12,0.89,10.9,M,-47.6,M,,0000*4D
$GNGSA,A,3,10,32,26,08,18,28,31,27,,,,,1.53,0.89,1.24*15
$GNGSA,A,3,86,73,74,84,71,85,72,75,,,,,1.53,0.89,1.24*14
$GPGSV,4,1,16,02,07,333,,04,10,229,,08,25,298,10,10,13,027,40*7E
$GPGSV,4,2,16,16,24,212,,18,27,118,37,23,01,066,,26,29,182,32*7D
$GPGSV,4,3,16,27,56,265,31,28,60,098,29,31,57,162,41,32,30,009,46*73
$GPGSV,4,4,16,36,52,277,,40,84,353,37,41,58,082,,49,32,274,*78
$GLGSV,3,1,10,65,03,234,,70,00,017,08,71,24,340,16,72,29,283,15*69
$GLGSV,3,2,10,73,18,110,35,74,22,158,16,75,07,205,12,84,37,141,17*6D
$GLGSV,3,3,10,85,74,049,31,86,24,344,20*6C
$GNGLL,0419.77140,S,05539.89745,E,133305.00,A,D*6C
$GNGRS,133305.00,1,-4.3,0.8,2.9,-29.3,-0.2,3.1,-0.9,-2.2,,,,*4F
$GNGRS,133305.00,1,12.4,-1.6,4.6,5.5,7.9,0.8,37.8,66.0,,,,*42
$GNGST,133305.00,53,,,,1.6,2.9,4.0*40
$GNZDA,133305.00,19,05,2025,00,00*77
$GNGBS,133305.00,1.6,2.9,4.0,,,,*50
b0LM
**
*v&vB!I
8<bO)9 .K{4&Ta:R  uAFGTH~I#nJ[K
wT%U J1VXbh'$GNRMC,133306.00,A,0419.77142,S,05539.89742,E,0.063,,190525,,,D*7C
$GNVTG,,T,,M,0.063,N,0.117,K,D*3A
$GNGNS,133306.00,0419.77142,S,05539.89742,E,DA,16,0.71,10.8,-47.6,,0000*65
$GNGGA,133306.00,0419.77142,S,05539.89742,E,2,12,0.71,10.8,M,-47.6,M,,0000*4D
$GNGSA,A,3,10,32,26,08,18,28,31,27,,,,,1.36,0.71,1.16*10
$GNGSA,A,3,86,73,74,84,71,85,72,75,,,,,1.36,0.71,1.16*11
$GPGSV,4,1,16,02,07,333,,04,10,229,,08,25,298,15,10,13,027,42*79
$GPGSV,4,2,16,16,24,212,,18,27,118,38,23,01,066,,26,29,182,33*73
$GPGSV,4,3,16,27,56,265,31,28,60,098,30,31,57,162,41,32,30,009,46*7B
$GPGSV,4,4,16,36,52,277,,40,84,353,38,41,58,082,,49,32,274,*77
$GLGSV,3,1,10,65,03,234,,70,00,017,12,71,24,340,17,72,29,283,16*60
$GLGSV,3,2,10,73,18,110,35,74,22,158,24,75,07,205,10,84,37,141,18*61
$GLGSV,3,3,10,85,74,049,32,86,24,344,21*6E
$GNGLL,0419.77142,S,05539.89742,E,133306.00,A,D*6A
$GNGRS,133306.00,1,-3.9,0.8,3.3,15.8,0.3,-1.8,-1.0,-2.4,,,,*67
$GNGRS,133306.00,1,13.0,1.6,3.5,4.5,9.7,-0.2,6.4,21.7,,,,*71
$GNGST,133306.00,4205865,,,,1.6,2.9,4.0*7D
$GNZDA,133306.00,19,05,2025,00,00*74
$GNGBS,133306.00,1.6,2.9,4.0,,,,*53
b0LM
*+
*&vOB!W
8t<bU)9 .D{4&Ta:R !u|AFGTHI#nJKeT%U J1VXu>bP$GNRMC,133307.00,A,0419.77143,S,05539.89744,E,0.023,,190525,,,D*7E
$GNVTG,,T,,M,0.023,N,0.043,K,D*3E
$GNGNS,133307.00,0419.77143,S,05539.89744,E,DA,16,0.71,10.7,-47.6,,0000*6C
$GNGGA,133307.00,0419.77143,S,05539.89744,E,2,12,0.71,10.7,M,-47.6,M,,0000*44
$GNGSA,A,3,10,32,26,08,18,28,31,27,,,,,1.36,0.71,1.16*10
$GNGSA,A,3,86,73,74,84,71,85,72,75,,,,,1.36,0.71,1.16*11
$GPGSV,4,1,16,02,07,333,,04,10,229,,08,25,298,14,10,13,027,42*78
$GPGSV,4,2,16,16,24,212,,18,27,118,38,23,01,066,,26,29,182,33*73
$GPGSV,4,3,16,27,56,265,30,28,60,098,31,31,57,162,41,32,30,009,46*7B
$GPGSV,4,4,16,36,52,277,,40,84,353,38,41,58,082,,49,32,274,*77
$GLGSV,3,1,10,65,03,234,,70,00,017,09,71,24,340,19,72,29,283,13*61
$GLGSV,3,2,10,73,18,110,35,74,22,158,22,75,07,205,12,84,37,141,16*6B
$GLGSV,3,3,10,85,74,049,32,86,24,344,22*6D
$GNGLL,0419.77143,S,05539.89744,E,133307.00,A,D*6C
$GNGRS,133307.00,1,-3.8,0.7,3.4,15.8,0.8,3.4,-0.7,-1.4,,,,*42
$GNGRS,133307.00,1,12.3,5.2,4.7,4.5,12.6,2.3,6.4,21.5,,,,*60
$GNGST,133307.00,4205875,,,,1.5,2.9,4.0*7E
$GNZDA,133307.00,19,05,2025,00,00*75
$GNGBS,133307.00,1.5,2.9,4.0,,,,*51
b0LpM

*
*o'v1B"
8d <bL(9 -U{4%Ta:R "uHAF-GTHI#n7JKT%U J1VXzubp8$GNRMC,133308.00,A,0419.77146,S,05539.89744,E,0.025,,190525,,,D*72
$GNVTG,,T,,M,0.025,N,0.046,K,D*3D
$GNGNS,133308.00,0419.77146,S,05539.89744,E,DA,15,0.78,10.6,-47.6,,0000*6D
$GNGGA,133308.00,0419.77146,S,05539.89744,E,2,12,0.78,10.6,M,-47.6,M,,0000*46
$GNGSA,A,3,10,32,26,08,18,28,31,27,,,,,1.42,0.78,1.18*14
$GNGSA,A,3,86,73,74,71,85,72,75,,,,,,1.42,0.78,1.18*19
$GPGSV,4,1,16,02,07,333,,04,10,229,,08,25,298,10,10,13,027,42*7C
$GPGSV,4,2,16,16,24,212,,18,27,118,39,23,01,066,,26,29,182,34*75
$GPGSV,4,3,16,27,56,265,30,28,60,098,32,31,57,162,40,32,30,009,45*7A
$GPGSV,4,4,16,36,52,277,,40,84,353,37,41,58,082,,49,32,274,*78
$GLGSV,3,1,10,65,03,234,,70,00,017,12,71,24,340,19,72,29,283,13*6B
$GLGSV,3,2,10,73,18,110,35,74,22,158,22,75,07,205,12,84,37,141,08*64
$GLGSV,3,3,10,85,74,049,32,86,24,344,21*6E
$GNGLL,0419.77146,S,05539.89744,E,133308.00,A,D*66
$GNGRS,133308.00,1,-4.0,0.8,4.4,-15.3,0.5,0.8,-1.0,1.0,,,,*41
$GNGRS,133308.00,1,11.5,5.7,4.8,12.1,-1.3,24.3,37.3,,,,,*50
$GNGST,133308.00,52,,,,1.5,2.9,4.0*4F
$GNZDA,133308.00,19,05,2025,00,00*7A
$GNGBS,133308.00,1.5,2.9,4.0,,,,*5E
b0LXM
*
*U'v(B"6
8W"<br(9 -R{4%Ta:R #uAFGTHI#nJKjT%UJ10VX%bX _$GNRMC,133309.00,A,0419.77149,S,05539.89738,E,0.072,,190525,,,D*75
$GNVTG,,T,,M,0.072,N,0.133,K,D*3C
$GNGNS,133309.00,0419.77149,S,05539.89738,E,DA,16,0.71,10.4,-47.6,,0000*60
$GNGGA,133309.00,0419.77149,S,05539.89738,E,2,12,0.71,10.4,M,-47.6,M,,0000*48
$GNGSA,A,3,10,32,26,08,18,28,31,27,,,,,1.36,0.71,1.16*10
$GNGSA,A,3,86,73,74,84,71,85,72,75,,,,,1.36,0.71,1.16*11
$GPGSV,4,1,16,02,07,333,,04,10,229,,08,25,298,13,10,13,027,42*7F
$GPGSV,4,2,16,16,24,212,,18,27,118,39,23,01,066,,26,29,182,34*75
$GPGSV,4,3,16,27,56,265,30,28,60,098,34,31,57,162,40,32,30,009,45*7C
$GPGSV,4,4,16,36,52,277,,40,84,353,37,41,58,082,,49,32,274,*78
$GLGSV,3,1,10,65,03,234,,70,00,017,13,71,24,340,19,72,29,283,12*6B
$GLGSV,3,2,10,73,18,110,35,74,22,158,22,75,07,205,12,84,37,141,14*69
$GLGSV,3,3,10,85,74,049,31,86,24,344,21*6D
$GNGLL,0419.77149,S,05539.89738,E,133309.00,A,D*63
$GNGRS,133309.00,1,-4.3,0.8,3.1,15.3,0.4,-4.0,-1.1,3.4,,,,*4B
$GNGRS,133309.00,1,10.6,4.0,4.5,4.1,12.3,0.5,6.4,21.5,,,,*6D
$GNGST,133309.00,2979744,,,,1.5,2.9,4.0*7B
$GNZDA,133309.00,19,05,2025,00,00*7B
$GNGBS,133309.00,1.5,2.9,4.0,,,,*5F
b0L@M
*
*@%vkB!
8"<b_&9 -F{4$Ta:R "uAFGTHI nJ}KJT%UJ1VXab@`$GNRMC,133310.00,A,0419.77151,S,05539.89734,E,0.050,,190525,,,D*78
$GNVTG,,T,,M,0.050,N,0.093,K,D*37
$GNGNS,133310.00,0419.77151,S,05539.89734,E,DA,16,0.71,10.3,-47.6,,0000*6A
$GNGGA,133310.00,0419.77151,S,05539.89734,E,2,12,0.71,10.3,M,-47.6,M,,0000*42
$GNGSA,A,3,10,32,26,08,18,28,31,27,,,,,1.36,0.71,1.16*10
$GNGSA,A,3,86,73,74,84,71,85,72,75,,,,,1.36,0.71,1.16*11
$GPGSV,4,1,16,02,07,333,,04,10,229,,08,26,298,13,10,13,027,42*7C
$GPGSV,4,2,16,16,24,212,,18,27,118,37,23,01,066,,26,29,182,33*7C
$GPGSV,4,3,16,27,56,265,30,28,60,098,34,31,57,162,38,32,30,009,45*73
$GPGSV,4,4,16,36,52,277,,40,84,353,36,41,58,082,,49,32,274,*79
$GLGSV,3,1,10,65,03,234,,70,00,017,12,71,24,340,20,72,29,283,15*67
$GLGSV,3,2,10,73,18,110,32,74,22,158,19,75,07,205,11,84,37,141,19*68
$GLGSV,3,3,10,85,74,049,30,86,24,344,21*6C
$GNGLL,0419.77151,S,05539.89734,E,133310.00,A,D*6E
$GNGRS,133310.00,1,-4.5,0.7,1.4,15.0,1.1,-1.6,-0.8,1.8,,,,*4F
$GNGRS,133310.00,1,10.0,4.3,3.8,4.0,15.3,-1.0,6.4,21.2,,,,*42
$GNGST,133310.00,4205788,,,,1.5,2.9,4.0*75
$GNZDA,133310.00,19,05,2025,00,00*73
$GNGBS,133310.00,1.5,2.9,4.0,,,,*57
b0L( M
*
*D'vB!
8a#<b'9 .I{4%Ta:R "uAF"GTH"I!nPJyKAT%)UJ1VXb( 8.$GNRMC,133311.00,A,0419.77153,S,05539.89732,E,0.052,,190525,,,D*7F
$GNVTG,,T,,M,0.052,N,0.097,K,D*31
$GNGNS,133311.00,0419.77153,S,05539.89732,E,DA,16,0.71,10.2,-47.6,,0000*6E
$GNGGA,133311.00,0419.77153,S,05539.89732,E,2,12,0.71,10.2,M,-47.6,M,,0000*46
$GNGSA,A,3,10,32,26,08,18,28,31,27,,,,,1.36,0.71,1.16*10
$GNGSA,A,3,86,73,74,84,71,85,72,75,,,,,1.36,0.71,1.16*11
$GPGSV,4,1,16,02,07,333,,04,10,229,,08,26,298,11,10,13,027,42*7E
$GPGSV,4,2,16,16,24,212,,18,27,118,39,23,01,066,,26,29,182,33*72
$GPGSV,4,3,16,27,56,265,30,28,60,098,35,31,57,162,39,32,30,009,46*70
$GPGSV,4,4,16,36,52,277,,40,84,353,37,41,58,082,,49,32,274,*78
$GLGSV,3,1,10,65,03,234,,70,00,017,09,71,24,340,19,72,29,283,14*66
$GLGSV,3,2,10,73,18,110,33,74,22,158,17,75,07,205,08,84,37,141,19*6F
$GLGSV,3,3,10,85,74,049,30,86,24,344,20*6D
$GNGLL,0419.77153,S,05539.89732,E,133311.00,A,D*6B
$GNGRS,133311.00,1,-4.4,0.7,1.3,1.4,1.3,-1.1,-0.5,3.5,,,,*7E
$GNGRS,133311.00,1,10.5,0.8,3.8,3.0,14.5,-0.7,10.6,168,,,,*5A
$GNGST,133311.00,61,,,,1.5,2.9,4.0*47
$GNZDA,133311.00,19,05,2025,00,00*72
$GNGBS,133311.00,1.5,2.9,4.0,,,,*56
b0L$M
*
*?&vB s
8#<bD'9 -8{4#Ta:R "uAF
GTH{I"nJKrT%UJ1sVXb$$GNRMC,133312.00,A,0419.77155,S,05539.89729,E,0.064,,190525,,,D*75
$GNVTG,,T,,M,0.064,N,0.118,K,D*32
$GNGNS,133312.00,0419.77155,S,05539.89729,E,DA,16,0.71,10.2,-47.6,,0000*61
$GNGGA,133312.00,0419.77155,S,05539.89729,E,2,12,0.71,10.2,M,-47.6,M,,0000*49
$GNGSA,A,3,10,32,26,08,18,28,31,27,,,,,1.36,0.71,1.16*10
$GNGSA,A,3,86,73,74,84,71,85,72,75,,,,,1.36,0.71,1.16*11
$GPGSV,4,1,16,02,07,333,,04,10,229,,08,26,298,11,10,13,028,42*71
$GPGSV,4,2,16,16,24,212,,18,27,118,38,23,01,066,,26,29,182,32*72
$GPGSV,4,3,16,27,56,265,30,28,60,098,35,31,57,162,39,32,30,009,45*73
$GPGSV,4,4,16,36,52,277,,40,84,353,35,41,58,082,,49,32,274,*7A
$GLGSV,3,1,10,65,03,234,,70,00,017,10,71,24,340,18,72,29,283,11*6A
$GLGSV,3,2,10,73,18,110,34,74,22,158,17,75,07,205,09,84,37,141,18*68
$GLGSV,3,3,10,85,74,049,30,86,24,344,20*6D
$GNGLL,0419.77155,S,05539.89729,E,133312.00,A,D*64
$GNGRS,133312.00,1,-4.5,0.6,1.2,15.4,1.7,-1.9,-0.1,2.8,,,,*4D
$GNGRS,133312.00,1,9.1,-3.8,4.9,4.9,14.5,-1.4,6.4,21.6,,,,*50
$GNGST,133312.00,144150,,,,1.5,2.9,4.0*46
$GNZDA,133312.00,19,05,2025,00,00*71
$GNGBS,133312.00,1.5,2.9,4.0,,,,*55
b0L'M
*
*$vB j
89 <b'9 ,I{4%Ta:R "uAFGTHeI!n,JKRT%*UJ1gVX^b'$GNRMC,133313.00,A,0419.77158,S,05539.89724,E,0.017,,190525,,,D*70
$GNVTG,,T,,M,0.017,N,0.031,K,D*3C
$GNGNS,133313.00,0419.77158,S,05539.89724,E,DA,16,0.71,10.1,-47.6,,0000*63
$GNGGA,133313.00,0419.77158,S,05539.89724,E,2,12,0.71,10.1,M,-47.6,M,,0000*4B
$GNGSA,A,3,10,32,26,08,18,28,31,27,,,,,1.36,0.71,1.16*10
$GNGSA,A,3,86,73,74,84,71,85,72,75,,,,,1.36,0.71,1.16*11
$GPGSV,4,1,16,02,07,333,,04,10,229,,08,26,298,09,10,13,028,42*78
$GPGSV,4,2,16,16,24,212,,18,27,118,36,23,01,066,,26,29,182,32*7C
$GPGSV,4,3,16,27,56,265,30,28,60,098,32,31,57,162,39,32,30,009,44*75
$GPGSV,4,4,16,36,52,277,,40,84,353,37,41,58,082,,49,32,274,*78
$GLGSV,3,1,10,65,03,234,,70,00,017,11,71,24,340,17,72,29,283,08*6C
$GLGSV,3,2,10,73,18,110,33,74,22,158,15,75,07,205,11,84,37,141,16*6A
$GLGSV,3,3,10,85,74,049,30,86,24,344,20*6D
$GNGLL,0419.77158,S,05539.89724,E,133313.00,A,D*65
$GNGRS,133313.00,1,-4.9,0.7,1.1,15.1,1.7,-2.4,0.1,3.1,,,,*6C
$GNGRS,133313.00,1,10.0,0.4,7.7,5.5,14.2,-1.5,6.1,21.3,,,,*4C
$GNGST,133313.00,2974608,,,,1.5,2.9,4.0*74
$GNZDA,133313.00,19,05,2025,00,00*70
$GNGBS,133313.00,1.5,2.9,4.0,,,,*54
b0L+M
*
*
%vB!S
8!<b)9: -C{4&Ta:R #uAFcGTHI#nJK
T%UJ1VXb+W$GNRMC,133314.00,A,0419.77160,S,05539.89722,E,0.024,,190525,,,D*7A
$GNVTG,,T,,M,0.024,N,0.045,K,D*3F
$GNGNS,133314.00,0419.77160,S,05539.89722,E,DA,16,0.71,10.1,-47.6,,0000*69
$GNGGA,133314.00,0419.77160,S,05539.89722,E,2,12,0.71,10.1,M,-47.6,M,,0000*41
$GNGSA,A,3,10,32,26,08,18,28,31,27,,,,,1.36,0.71,1.16*10
$GNGSA,A,3,86,73,74,84,71,85,72,75,,,,,1.36,0.71,1.16*11
$GPGSV,4,1,16,02,07,333,,04,10,229,,08,26,298,09,10,13,028,42*78
$GPGSV,4,2,16,16,24,212,,18,27,118,37,23,01,066,,26,29,182,33*7C
$GPGSV,4,3,16,27,56,265,30,28,60,098,33,31,57,162,41,32,30,009,45*7A
$GPGSV,4,4,16,36,52,277,,40,84,353,38,41,58,082,,49,32,274,*77
$GLGSV,3,1,10,65,03,234,,70,00,017,14,71,24,340,17,72,29,283,12*62
$GLGSV,3,2,10,73,18,110,35,74,22,158,17,75,07,205,10,84,37,141,16*6F
$GLGSV,3,3,10,85,74,049,31,86,24,344,22*6E
$GNGLL,0419.77160,S,05539.89722,E,133314.00,A,D*6F
$GNGRS,133314.00,1,-5.0,0.7,0.8,-16.2,2.2,-3.8,0.6,1.6,,,,*4F
$GNGRS,133314.00,1,9.4,2.2,8.0,2.3,14.3,-3.5,12.8,55.8,,,,*4D
$GNGST,133314.00,63,,,,1.5,2.9,4.0*40
$GNZDA,133314.00,19,05,2025,00,00*77
$GNGBS,133314.00,1.5,2.9,4.0,,,,*53
b0L/M
*
*%%vB!a
8<b)9< -;{4%Ta:R $uAFGTpHuI#nJKfT%U J1\VX40b/$GNRMC,133315.00,A,0419.77164,S,05539.89717,E,0.128,,190525,,,D*74
$GNVTG,,T,,M,0.128,N,0.236,K,D*34
$GNGNS,133315.00,0419.77164,S,05539.89717,E,DA,16,0.71,10.0,-47.6,,0000*6B
$GNGGA,133315.00,0419.77164,S,05539.89717,E,2,12,0.71,10.0,M,-47.6,M,,0000*43
$GNGSA,A,3,10,32,26,08,18,28,31,27,,,,,1.36,0.71,1.16*10
$GNGSA,A,3,86,73,74,84,71,85,72,75,,,,,1.36,0.71,1.16*11
$GPGSV,4,1,16,02,07,333,,04,10,229,,08,26,298,08,10,13,028,42*79
$GPGSV,4,2,16,16,24,212,,18,27,118,37,23,01,066,,26,29,182,33*7C
$GPGSV,4,3,16,27,56,265,30,28,60,098,31,31,57,162,41,32,30,009,45*78
$GPGSV,4,4,16,36,52,277,,40,84,353,37,41,58,082,,49,32,274,*78
$GLGSV,3,1,10,65,03,234,,70,00,017,18,71,24,340,18,72,29,283,13*60
$GLGSV,3,2,10,73,18,110,35,74,22,158,18,75,07,205,11,84,37,141,17*60
$GLGSV,3,3,10,85,74,049,32,86,24,344,22*6D
$GNGLL,0419.77164,S,05539.89717,E,133315.00,A,D*6C
$GNGRS,133315.00,1,-4.8,0.6,1.0,15.6,2.5,-3.9,0.6,2.3,,,,*65
$GNGRS,133315.00,1,10.8,1.9,9.3,2.0,13.9,-4.2,6.3,21.5,,,,*4C
$GNGST,133315.00,2974811,,,,1.5,2.9,4.0*74
$GNZDA,133315.00,19,05,2025,00,00*76
$GNGBS,133315.00,1.5,2.9,4.0,,,,*52
b0L3M
*
*'&vB )
8<bY)9E -B{4%Ta:R "uAF
GTH{I njJKUT%UJ1VXb3xo'$GNRMC,133316.00,A,0419.77166,S,05539.89719,E,0.028,,190525,,,D*7A
$GNVTG,,T,,M,0.028,N,0.052,K,D*35
$GNGNS,133316.00,0419.77166,S,05539.89719,E,DA,15,0.71,10.1,-47.6,,0000*66
$GNGGA,133316.00,0419.77166,S,05539.89719,E,2,12,0.71,10.1,M,-47.6,M,,0000*4D
$GNGSA,A,3,10,32,26,08,18,28,31,27,,,,,1.36,0.71,1.16*10
$GNGSA,A,3,86,73,74,84,71,85,72,,,,,,1.36,0.71,1.16*13
$GPGSV,4,1,16,02,07,333,,04,10,229,,08,26,298,08,10,13,028,42*79
$GPGSV,4,2,16,16,24,212,,18,27,118,38,23,01,066,,26,29,182,32*72
$GPGSV,4,3,16,27,56,265,30,28,60,098,31,31,57,162,41,32,30,009,45*78
$GPGSV,4,4,16,36,52,277,,40,84,353,37,41,58,082,,49,32,274,*78
$GLGSV,3,1,10,65,03,234,,70,00,017,10,71,24,340,17,72,29,283,08*6D
$GLGSV,3,2,10,73,18,110,32,74,22,158,17,75,07,205,07,84,37,141,15*6D
$GLGSV,3,3,10,85,74,049,31,86,24,344,20*6C
$GNGLL,0419.77166,S,05539.89719,E,133316.00,A,D*63
$GNGRS,133316.00,1,-4.7,0.7,0.4,15.6,2.2,-1.7,0.7,2.0,,,,*64
$GNGRS,133316.00,1,9.6,1.1,9.9,5.3,12.5,2.3,6.3,,,,,*40
$GNGST,133316.00,2975899,,,,1.5,2.9,4.1*77
$GNZDA,133316.00,19,05,2025,00,00*75
$GNGBS,133316.00,1.5,2.9,4.1,,,,*50
b0L7M
*
*D%vB >
8#<b(9M -T{4%Ta:R "uAFiGTfH
;I n;JK
T%NUJ1nVX^.b7`G$GNRMC,133317.00,A,0419.77168,S,05539.89718,E,0.019,,190525,,,D*76
$GNVTG,,T,,M,0.019,N,0.034,K,D*37
$GNGNS,133317.00,0419.77168,S,05539.89718,E,DA,16,0.89,10.1,-47.6,,0000*6C
$GNGGA,133317.00,0419.77168,S,05539.89718,E,2,12,0.89,10.1,M,-47.6,M,,0000*44
$GNGSA,A,3,10,32,26,08,18,28,31,27,,,,,1.53,0.89,1.24*15
$GNGSA,A,3,86,73,74,84,71,85,72,75,,,,,1.53,0.89,1.24*14
$GPGSV,4,1,16,02,07,333,,04,10,229,,08,26,298,14,10,13,028,42*74
$GPGSV,4,2,16,16,24,212,,18,27,118,37,23,01,066,,26,29,182,32*7D
$GPGSV,4,3,16,27,56,265,30,28,60,098,35,31,57,162,40,32,30,009,45*7D
$GPGSV,4,4,16,36,52,277,,40,84,353,37,41,58,082,,49,32,274,*78
$GLGSV,3,1,10,65,03,234,,70,00,017,12,71,24,340,18,72,29,283,10*69
$GLGSV,3,2,10,73,18,110,32,74,22,158,17,75,07,205,09,84,37,141,16*60
$GLGSV,3,3,10,85,74,049,30,86,24,344,19*67
$GNGLL,0419.77168,S,05539.89718,E,133317.00,A,D*6D
$GNGRS,133317.00,1,-4.4,0.8,0.6,31.0,2.3,-0.6,0.8,4.3,,,,*60
$GNGRS,133317.00,1,9.2,0.6,10.2,5.9,11.3,-1.5,153,27.3,,,,*53
$GNGST,133317.00,46,,,,1.5,2.9,4.1*45
$GNZDA,133317.00,19,05,2025,00,00*74
$GNGBS,133317.00,1.5,2.9,4.1,,,,*51
b0L;M
*
':"vB
89<b&9F ),{4"Ta:R uAFGTHzI#n7JK|T%UJ1VX3Mb;H$GNRMC,133318.00,A,0419.77169,S,05539.89719,E,0.044,,190525,,,D*71
$GNVTG,,T,,M,0.044,N,0.081,K,D*31
$GNGNS,133318.00,0419.77169,S,05539.89719,E,DA,16,0.71,10.2,-47.6,,0000*67
$GNGGA,133318.00,0419.77169,S,05539.89719,E,2,12,0.71,10.2,M,-47.6,M,,0000*4F
$GNGSA,A,3,10,32,26,08,18,28,31,27,,,,,1.36,0.71,1.16*10
$GNGSA,A,3,86,73,74,84,71,85,72,75,,,,,1.36,0.71,1.16*11
$GPGSV,4,1,16,02,07,333,,04,10,229,,08,26,298,08,10,13,028,39*75
$GPGSV,4,2,16,16,24,212,,18,27,118,34,23,01,066,,26,29,182,28*75
$GPGSV,4,3,16,27,56,265,30,28,60,098,31,31,57,162,38,32,30,009,41*72
$GPGSV,4,4,16,36,52,277,,40,84,353,34,41,58,082,,49,32,274,*7B
$GLGSV,3,1,10,65,03,234,,70,00,017,13,71,24,340,18,72,29,283,08*61
$GLGSV,3,2,10,73,18,110,35,74,22,158,17,75,07,205,09,84,37,141,15*64
$GLGSV,3,3,10,85,74,049,30,86,24,344,19*67
$GNGLL,0419.77169,S,05539.89719,E,133318.00,A,D*62
$GNGRS,133318.00,1,-4.5,0.4,-0.3,15.6,2.2,-3.0,0.7,0.6,,,,*40
$GNGRS,133318.00,1,9.4,0.6,9.4,9.1,9.5,4.1,6.3,21.7,,,,*6D
$GNGST,133318.00,155921,,,,1.5,3.0,4.1*4B
$GNZDA,133318.00,19,05,2025,00,00*7B
$GNGBS,133318.00,1.5,3.0,4.1,,,,*56
b0Lh?M
*
'>"vBi
8 <b&9& +{4"Ta:R  uAFGT+H
lI nJZKjT%UJ1VXK_bh?0!_$GNRMC,133319.00,A,0419.77171,S,05539.89717,E,0.012,,190525,,,D*74
$GNVTG,,T,,M,0.012,N,0.022,K,D*3B
$GNGNS,133319.00,0419.77171,S,05539.89717,E,DA,16,0.71,10.3,-47.6,,0000*60
$GNGGA,133319.00,0419.77171,S,05539.89717,E,2,12,0.71,10.3,M,-47.6,M,,0000*48
$GNGSA,A,3,10,32,26,08,18,28,31,27,,,,,1.36,0.71,1.16*10
$GNGSA,A,3,86,73,74,84,71,85,72,75,,,,,1.36,0.71,1.16*11
$GPGSV,4,1,16,02,07,333,,04,10,229,,08,26,298,13,10,13,028,39*7F
$GPGSV,4,2,16,16,24,212,,18,27,118,34,23,01,066,,26,29,182,29*74
$GPGSV,4,3,16,27,56,265,29,28,60,098,32,31,57,162,38,32,30,009,43*7B
$GPGSV,4,4,16,36,52,277,,40,84,353,34,41,58,082,,49,32,274,*7B
$GLGSV,3,1,10,65,03,234,,70,00,017,13,71,24,340,17,72,29,283,10*67
$GLGSV,3,2,10,73,18,110,32,74,22,158,16,75,07,205,09,84,37,141,15*62
$GLGSV,3,3,10,85,74,049,29,86,24,344,19*6F
$GNGLL,0419.77171,S,05539.89717,E,133319.00,A,D*64
$GNGRS,133319.00,1,-4.5,0.3,3.6,15.4,2.5,-2.9,0.4,7.3,,,,*61
$GNGRS,133319.00,1,8.4,0.3,8.6,7.4,8.1,4.0,6.2,21.5,,,,*67
$GNGST,133319.00,2973945,,,,1.5,3.0,4.1*76
$GNZDA,133319.00,19,05,2025,00,00*7A
$GNGBS,133319.00,1.5,3.0,4.1,,,,*57
b0LPCM
*
(B%wB
8v"<b'95 +{4#Ta:R #uAFhGTH
I n$JK
qT%pUJ1VX:jbPC%$GNRMC,133320.00,A,0419.77172,S,05539.89718,E,0.057,,190525,,,D*73
$GNVTG,,T,,M,0.057,N,0.106,K,D*3D
$GNGNS,133320.00,0419.77172,S,05539.89718,E,DA,16,0.77,10.3,-47.6,,0000*60
$GNGGA,133320.00,0419.77172,S,05539.89718,E,2,12,0.77,10.3,M,-47.6,M,,0000*48
$GNGSA,A,3,10,32,26,08,18,28,31,27,,,,,1.41,0.77,1.18*18
$GNGSA,A,3,86,73,74,84,71,85,72,75,,,,,1.41,0.77,1.18*19
$GPGSV,4,1,16,02,07,333,,04,10,229,,08,26,298,15,10,13,028,40*77
$GPGSV,4,2,16,16,24,212,,18,27,119,37,23,01,066,,26,29,182,29*76
$GPGSV,4,3,16,27,56,265,29,28,60,098,34,31,57,162,39,32,30,009,43*7C
$GPGSV,4,4,16,36,52,277,,40,84,353,35,41,58,082,,49,32,274,*7A
$GLGSV,3,1,10,65,03,234,,70,00,017,11,71,24,340,16,72,29,283,10*64
$GLGSV,3,2,10,73,18,110,32,74,22,158,16,75,07,205,10,84,37,141,15*6A
$GLGSV,3,3,10,85,74,049,28,86,24,344,18*6F
$GNGLL,0419.77172,S,05539.89718,E,133320.00,A,D*62
$GNGRS,133320.00,1,-4.5,0.2,2.3,-5.8,2.8,-3.1,0.5,1.2,,,,*7C
$GNGRS,133320.00,1,8.3,0.4,6.6,6.2,6.8,9.5,53.6,-85.9,,,,*70
$GNGST,133320.00,55,,,,1.5,3.0,4.2*48
$GNZDA,133320.00,19,05,2025,00,00*70
$GNGBS,133320.00,1.5,3.0,4.2,,,,*5E
b0L8GM
*
'="w"B
8<b8&9* *{4"Ta:R !uAF
GTHlI n#JK_T%uUJ1#VX%b8G)/$GNRMC,133321.00,A,0419.77174,S,05539.89717,E,0.029,,190525,,,D*72
$GNVTG,,T,,M,0.029,N,0.054,K,D*32
$GNGNS,133321.00,0419.77174,S,05539.89717,E,DA,16,0.71,10.3,-47.6,,0000*6E
$GNGGA,133321.00,0419.77174,S,05539.89717,E,2,12,0.71,10.3,M,-47.6,M,,0000*46
$GNGSA,A,3,10,32,26,08,18,28,31,27,,,,,1.36,0.71,1.16*10
$GNGSA,A,3,86,73,74,84,71,85,72,75,,,,,1.36,0.71,1.16*11
$GPGSV,4,1,16,02,07,333,,04,10,229,,08,26,298,12,10,13,028,39*7E
$GPGSV,4,2,16,16,24,212,,18,27,119,34,23,01,066,,26,29,182,29*75
$GPGSV,4,3,16,27,56,265,29,28,60,098,31,31,57,162,38,32,30,009,42*79
$GPGSV,4,4,16,36,52,277,,40,84,353,34,41,58,082,,49,32,274,*7B
$GLGSV,3,1,10,65,03,234,,70,00,017,10,71,24,340,13,72,29,283,08*69
$GLGSV,3,2,10,73,18,110,32,74,22,158,15,75,07,205,12,84,37,141,16*68
$GLGSV,3,3,10,85,74,049,27,86,24,344,18*60
$GNGLL,0419.77174,S,05539.89717,E,133321.00,A,D*6A
$GNGRS,133321.00,1,-4.5,0.2,3.9,15.5,2.9,0.6,0.4,-0.1,,,,*61
$GNGRS,133321.00,1,7.2,0.4,6.7,6.3,12.5,5.5,6.2,21.4,,,,*51
$GNGST,133321.00,4205788,,,,1.5,3.0,4.2*7D
$GNZDA,133321.00,19,05,2025,00,00*71
$GNGBS,133321.00,1.5,3.0,4.2,,,,*5F
b0L KM
*
'J#w/B
8$ <b&9 +{4"Ta:R !uAFGTHSI!n7JK0T%UJ1VXb K,~$GNRMC,133322.00,A,0419.77176,S,05539.89717,E,0.011,,190525,,,D*78
$GNVTG,,T,,M,0.011,N,0.021,K,D*3B
$GNGNS,133322.00,0419.77176,S,05539.89717,E,DA,15,0.71,10.3,-47.6,,0000*6C
$GNGGA,133322.00,0419.77176,S,05539.89717,E,2,12,0.71,10.3,M,-47.6,M,,0000*47
$GNGSA,A,3,10,32,26,08,18,28,31,27,,,,,1.36,0.71,1.16*10
$GNGSA,A,3,86,73,74,84,71,85,72,,,,,,1.36,0.71,1.16*13
$GPGSV,4,1,16,02,07,333,,04,10,229,,08,26,298,13,10,13,028,39*7F
$GPGSV,4,2,16,16,24,212,,18,27,119,35,23,01,066,,26,29,182,30*7C
$GPGSV,4,3,16,27,56,265,30,28,60,098,32,31,57,162,38,32,30,009,43*73
$GPGSV,4,4,16,36,52,277,,40,84,353,34,41,58,082,,49,32,274,*7B
$GLGSV,3,1,10,65,03,234,,70,00,017,09,71,24,340,14,72,29,283,09*67
$GLGSV,3,2,10,73,18,110,33,74,22,158,13,75,07,205,06,84,37,141,17*6B
$GLGSV,3,3,10,85,74,049,28,86,24,344,18*6F
$GNGLL,0419.77176,S,05539.89717,E,133322.00,A,D*6B
$GNGRS,133322.00,1,-4.4,0.2,6.7,15.3,3.0,-0.3,0.2,-2.2,,,,*49
$GNGRS,133322.00,1,7.4,0.5,6.9,4.0,12.3,-0.1,6.0,,,,,*6B
$GNGST,133322.00,4205788,,,,1.5,3.0,4.2*7E
$GNZDA,133322.00,19,05,2025,00,00*72
$GNGBS,133322.00,1.5,3.0,4.2,,,,*5C
b0LOM

*u
(R#wGBU
8F<b'9 -"{4&Ta:R $uAF
EGT,HEI!n<JKT%UJ1yVXpbO0V$GNRMC,133323.00,A,0419.77177,S,05539.89718,E,0.078,,190525,,,D*78
$GNVTG,,T,,M,0.078,N,0.144,K,D*36
$GNGNS,133323.00,0419.77177,S,05539.89718,E,DA,16,0.89,10.4,-47.6,,0000*60
$GNGGA,133323.00,0419.77177,S,05539.89718,E,2,12,0.89,10.4,M,-47.6,M,,0000*48
$GNGSA,A,3,10,32,26,08,18,28,31,27,,,,,1.53,0.89,1.24*15
$GNGSA,A,3,86,73,74,84,71,85,72,75,,,,,1.53,0.89,1.24*14
$GPGSV,4,1,16,02,07,333,,04,10,229,,08,26,298,10,10,13,028,40*72
$GPGSV,4,2,16,16,24,212,,18,27,119,35,23,01,066,,26,29,182,31*7D
$GPGSV,4,3,16,27,56,265,31,28,60,098,31,31,57,162,39,32,30,009,45*76
$GPGSV,4,4,16,36,52,277,,40,84,353,38,41,58,082,,49,32,274,*77
$GLGSV,3,1,10,65,03,234,,70,00,017,10,71,24,340,16,72,29,283,11*64
$GLGSV,3,2,10,73,18,110,33,74,22,158,13,75,07,205,11,84,37,141,18*62
$GLGSV,3,3,10,85,74,049,29,86,24,344,19*6F
$GNGLL,0419.77177,S,05539.89718,E,133323.00,A,D*64
$GNGRS,133323.00,1,-4.3,0.3,3.4,24.2,3.3,-0.2,-0.1,-1.9,,,,*6F
$GNGRS,133323.00,1,7.8,0.6,6.5,5.2,10.7,3.8,31.4,-126,,,,*63
$GNGST,133323.00,48,,,,1.5,3.0,4.2*47
$GNZDA,133323.00,19,05,2025,00,00*73
$GNGBS,133323.00,1.5,3.0,4.2,,,,*5D
b0LRM
*
&J!wKB"
 8<b#'9 -{4)Ta:R #unAFGTHtInFJ7K
^T%U"J1;VX<bR4-U$GNRMC,133324.00,A,0419.77176,S,05539.89716,E,0.108,,190525,,,D*76
$GNVTG,,T,,M,0.108,N,0.201,K,D*32
$GNGNS,133324.00,0419.77176,S,05539.89716,E,DA,16,0.71,10.4,-47.6,,0000*6F
$GNGGA,133324.00,0419.77176,S,05539.89716,E,2,12,0.71,10.4,M,-47.6,M,,0000*47
$GNGSA,A,3,10,32,26,08,18,28,31,27,,,,,1.36,0.71,1.16*10
$GNGSA,A,3,86,73,74,84,71,85,72,75,,,,,1.36,0.71,1.16*11
$GPGSV,4,1,16,02,07,333,,04,10,229,,08,26,298,08,10,13,028,38*74
$GPGSV,4,2,16,16,24,212,,18,27,119,33,23,01,066,,26,29,182,34*7E
$GPGSV,4,3,16,27,56,265,32,28,60,098,24,31,57,162,39,32,30,009,45*71
$GPGSV,4,4,16,36,52,277,,40,84,353,41,41,58,082,,49,32,274,*79
$GLGSV,3,1,10,65,03,234,,70,00,017,07,71,24,340,18,72,29,283,09*65
$GLGSV,3,2,10,73,18,110,29,74,22,158,14,75,07,205,10,84,37,141,18*6F
$GLGSV,3,3,10,85,74,049,34,86,24,344,21*68
$GNGLL,0419.77176,S,05539.89716,E,133324.00,A,D*6C
$GNGRS,133324.00,1,-4.4,0.3,2.7,15.3,3.3,5.5,-0.1,-1.0,,,,*48
$GNGRS,133324.00,1,6.8,0.7,5.7,4.9,10.5,3.2,6.3,21.4,,,,*55
$GNGST,133324.00,2975393,,,,1.5,3.0,4.3*7D
$GNZDA,133324.00,19,05,2025,00,00*74
$GNGBS,133324.00,1.5,3.0,4.3,,,,*5B
b0LVM
*
(e wRB"
!8&<b4(9 -,{4*Ta:R #uQAFGT
HfInJK@T%^U!J1VXbV8$GNRMC,133325.00,A,0419.77174,S,05539.89716,E,0.035,,190525,,,D*7A
$GNVTG,,T,,M,0.035,N,0.066,K,D*3E
$GNGNS,133325.00,0419.77174,S,05539.89716,E,DA,16,0.71,10.4,-47.6,,0000*6C
$GNGGA,133325.00,0419.77174,S,05539.89716,E,2,12,0.71,10.4,M,-47.6,M,,0000*44
$GNGSA,A,3,10,32,26,08,18,28,31,27,,,,,1.36,0.71,1.16*10
$GNGSA,A,3,86,73,74,84,71,85,72,75,,,,,1.36,0.71,1.16*11
$GPGSV,4,1,16,02,07,333,,04,10,229,,08,26,298,09,10,13,028,40*7A
$GPGSV,4,2,16,16,24,212,,18,27,119,32,23,01,066,,26,29,182,34*7F
$GPGSV,4,3,16,27,56,265,33,28,60,098,31,31,57,162,40,32,30,009,45*7A
$GPGSV,4,4,16,36,52,277,,40,84,353,42,41,58,082,,49,32,274,*7A
$GLGSV,3,1,10,65,03,234,,70,00,017,11,71,24,340,20,72,29,283,15*64
$GLGSV,3,2,10,73,18,110,28,74,22,158,16,75,07,205,09,84,37,141,19*65
$GLGSV,3,3,10,85,74,049,33,86,24,344,24*6A
$GNGLL,0419.77174,S,05539.89716,E,133325.00,A,D*6F
$GNGRS,133325.00,1,-4.1,0.4,-0.3,15.2,3.4,3.1,-0.7,0.4,,,,*4A
$GNGRS,133325.00,1,9.5,2.4,5.2,6.1,10.3,1.9,6.1,21.1,,,,*50
$GNGST,133325.00,2977137,,,,1.5,3.0,4.2*73
$GNZDA,133325.00,19,05,2025,00,00*75
$GNGBS,133325.00,1.5,3.0,4.2,,,,*5B
b0LZM
*$
'o#w]B#
!8!<b(9 -{4*Ta:R #u%AFGThHInsJK|AT%U"J1VXUbZ<%$GNRMC,133326.00,A,0419.77173,S,05539.89720,E,0.013,,190525,,,D*7F
$GNVTG,,T,,M,0.013,N,0.024,K,D*3C
$GNGNS,133326.00,0419.77173,S,05539.89720,E,DA,16,0.76,10.5,-47.6,,0000*6B
$GNGGA,133326.00,0419.77173,S,05539.89720,E,2,12,0.76,10.5,M,-47.6,M,,0000*43
$GNGSA,A,3,10,32,26,08,18,28,31,27,,,,,1.41,0.76,1.19*18
$GNGSA,A,3,86,73,74,84,71,85,72,75,,,,,1.41,0.76,1.19*19
$GPGSV,4,1,16,02,07,333,,04,10,229,,08,26,298,11,10,13,028,39*7D
$GPGSV,4,2,16,16,24,212,,18,27,119,35,23,01,066,,26,29,182,35*79
$GPGSV,4,3,16,27,56,265,33,28,60,098,33,31,57,162,40,32,30,009,45*78
$GPGSV,4,4,16,36,52,277,,40,84,353,42,41,58,082,,49,32,274,*7A
$GLGSV,3,1,10,65,03,234,,70,00,017,15,71,24,340,20,72,29,283,11*64
$GLGSV,3,2,10,73,18,110,28,74,22,158,17,75,07,205,11,84,37,141,19*6D
$GLGSV,3,3,10,85,74,049,34,86,24,344,24*6D
$GNGLL,0419.77173,S,05539.89720,E,133326.00,A,D*6E
$GNGRS,133326.00,1,-4.0,0.3,0.1,64.4,3.5,1.8,-1.1,-2.4,,,,*42
$GNGRS,133326.00,1,9.9,1.1,4.6,5.3,8.7,2.7,9.5,168,,,,*45
$GNGST,133326.00,52,,,,1.5,3.0,4.2*49
$GNZDA,133326.00,19,05,2025,00,00*76
$GNGBS,133326.00,1.5,3.0,4.2,,,,*58
b0L^M
*0
(#wnB#
 8 <b(9[ -{4*Ta:R #uAFGTiHInJ?K
|T%U!J1VXeb^p@$GNRMC,133327.00,A,0419.77172,S,05539.89722,E,0.063,,190525,,,D*7A
$GNVTG,,T,,M,0.063,N,0.116,K,D*3B
$GNGNS,133327.00,0419.77172,S,05539.89722,E,DA,16,0.71,10.6,-47.6,,0000*6D
$GNGGA,133327.00,0419.77172,S,05539.89722,E,2,12,0.71,10.6,M,-47.6,M,,0000*45
$GNGSA,A,3,10,32,26,08,18,28,31,27,,,,,1.36,0.71,1.16*10
$GNGSA,A,3,86,73,74,84,71,85,72,75,,,,,1.36,0.71,1.16*11
$GPGSV,4,1,16,02,07,333,,04,10,229,,08,26,298,11,10,13,028,40*73
$GPGSV,4,2,16,16,24,212,,18,27,119,35,23,01,066,,26,29,182,35*79
$GPGSV,4,3,16,27,56,265,32,28,60,098,32,31,57,162,40,32,30,009,45*78
$GPGSV,4,4,16,36,52,277,,40,84,353,42,41,58,082,,49,32,274,*7A
$GLGSV,3,1,10,65,03,234,,70,00,017,11,71,24,340,21,72,29,283,15*65
$GLGSV,3,2,10,73,18,110,27,74,22,158,18,75,07,205,10,84,37,141,19*6C
$GLGSV,3,3,10,85,74,049,33,86,24,344,25*6B
$GNGLL,0419.77172,S,05539.89722,E,133327.00,A,D*6C
$GNGRS,133327.00,1,-3.7,0.3,1.3,15.8,3.7,3.9,-1.6,-0.3,,,,*49
$GNGRS,133327.00,1,8.7,1.4,3.2,2.2,8.7,4.8,6.5,21.7,,,,*68
$GNGST,133327.00,2974124,,,,1.5,3.0,4.2*70
$GNZDA,133327.00,19,05,2025,00,00*77
$GNGBS,133327.00,1.5,3.0,4.2,,,,*59
b0LbM

*=
(p#wB$
 8 <b(9- .+{4*Ta:R #uAFGTHInJRK
T%^U"J1VX/[bbXD$GNRMC,133328.00,A,0419.77167,S,05539.89728,E,0.042,,190525,,,D*78
$GNVTG,,T,,M,0.042,N,0.078,K,D*31
$GNGNS,133328.00,0419.77167,S,05539.89728,E,DA,16,0.71,10.8,-47.6,,0000*62
$GNGGA,133328.00,0419.77167,S,05539.89728,E,2,12,0.71,10.8,M,-47.6,M,,0000*4A
$GNGSA,A,3,10,32,26,08,18,28,31,27,,,,,1.36,0.71,1.16*10
$GNGSA,A,3,86,73,74,84,71,85,72,75,,,,,1.36,0.71,1.16*11
$GPGSV,4,1,16,02,07,333,,04,10,229,,08,26,298,10,10,13,028,40*72
$GPGSV,4,2,16,16,24,212,,18,27,119,35,23,01,066,,26,29,182,36*7A
$GPGSV,4,3,16,27,56,263,32,28,60,098,32,31,57,162,40,32,30,009,46*7D
$GPGSV,4,4,16,36,52,277,,40,84,353,42,41,58,082,,49,32,274,*7A
$GLGSV,3,1,10,65,03,234,,70,00,017,11,71,24,340,20,72,29,283,11*60
$GLGSV,3,2,10,73,18,110,27,74,22,158,16,75,07,205,10,84,37,141,19*62
$GLGSV,3,3,10,85,74,049,34,86,24,344,25*6C
$GNGLL,0419.77167,S,05539.89728,E,133328.00,A,D*6D
$GNGRS,133328.00,1,-4.0,0.4,-0.3,16.0,4.1,5.2,-2.1,-3.2,,,,*6C
$GNGRS,133328.00,1,9.8,1.7,3.4,0.9,7.6,7.5,6.6,21.9,,,,*68
$GNGST,133328.00,2974328,,,,1.5,3.0,4.2*71
$GNZDA,133328.00,19,05,2025,00,00*78
$GNGBS,133328.00,1.5,3.0,4.2,,,,*56
b0LxfM
*:
(#wB$
 8!<a'9 .${4*Ta:R #uAFGT?HInJKAT%nU"J14VX(fbxf@He]$GNRMC,133329.00,A,0419.77164,S,05539.89731,E,0.060,,190525,,,D*72
$GNVTG,,T,,M,0.060,N,0.111,K,D*3F
$GNGNS,133329.00,0419.77164,S,05539.89731,E,DA,16,0.89,10.9,-47.6,,0000*6E
$GNGGA,133329.00,0419.77164,S,05539.89731,E,2,12,0.89,10.9,M,-47.6,M,,0000*46
$GNGSA,A,3,10,32,26,08,18,28,31,27,,,,,1.53,0.89,1.24*15
$GNGSA,A,3,86,73,74,84,71,85,72,75,,,,,1.53,0.89,1.24*14
$GPGSV,4,1,16,02,07,333,,04,10,229,,08,26,298,07,10,13,028,40*74
$GPGSV,4,2,16,16,24,212,,18,27,119,35,23,01,066,,26,29,182,36*7A
$GPGSV,4,3,16,27,56,263,32,28,60,097,33,31,57,162,39,32,30,009,46*7D
$GPGSV,4,4,16,36,52,277,,40,84,353,42,41,58,082,,49,32,274,*7A
$GLGSV,3,1,10,65,03,234,,70,00,017,13,71,24,340,20,72,29,283,17*64
$GLGSV,3,2,10,73,18,110,28,74,22,158,16,75,07,205,09,84,37,141,19*65
$GLGSV,3,3,10,85,74,049,34,86,24,344,25*6C
$GNGLL,0419.77164,S,05539.89731,E,133329.00,A,D*67
$GNGRS,133329.00,1,-3.7,0.4,-0.1,-27.6,4.1,2.8,-2.5,-1.1,,,,*4E
$GNGRS,133329.00,1,10.4,1.7,4.4,1.1,8.3,5.6,-56.9,169,,,,*65
$GNGST,133329.00,42,,,,1.5,3.0,4.1*44
$GNZDA,133329.00,19,05,2025,00,00*79
$GNGBS,133329.00,1.5,3.0,4.1,,,,*54
b0L`jM

*G
(#wB#
 8!<a'9 -:{4*Ta:R #uAFGT_HInJKT%U"J1VXwb`j(L=$GNRMC,133330.00,A,0419.77162,S,05539.89737,E,0.045,,190525,,,D*7D
$GNVTG,,T,,M,0.045,N,0.083,K,D*32
$GNGNS,133330.00,0419.77162,S,05539.89737,E,DA,16,0.71,11.0,-47.6,,0000*69
$GNGGA,133330.00,0419.77162,S,05539.89737,E,2,12,0.71,11.0,M,-47.6,M,,0000*41
$GNGSA,A,3,10,32,26,08,18,28,31,27,,,,,1.36,0.71,1.16*10
$GNGSA,A,3,86,73,74,84,71,85,72,75,,,,,1.36,0.71,1.16*11
$GPGSV,4,1,16,02,07,333,,04,10,229,,08,26,298,10,10,13,028,40*72
$GPGSV,4,2,16,16,24,212,,18,27,119,35,23,01,066,,26,29,182,35*79
$GPGSV,4,3,16,27,56,263,32,28,60,097,33,31,57,162,39,32,30,009,45*7E
$GPGSV,4,4,16,36,52,277,,40,84,353,42,41,58,082,,49,32,274,*7A
$GLGSV,3,1,10,65,03,234,,70,00,017,09,71,24,340,21,72,29,283,11*68
$GLGSV,3,2,10,73,18,110,29,74,22,158,15,75,07,205,08,84,37,141,20*6C
$GLGSV,3,3,10,85,74,049,34,86,24,344,24*6D
$GNGLL,0419.77162,S,05539.89737,E,133330.00,A,D*6F
$GNGRS,133330.00,1,-3.5,0.6,0.3,16.1,4.2,1.5,-2.4,-6.1,,,,*4A
$GNGRS,133330.00,1,11.4,4.5,4.9,0.3,6.1,6.9,6.6,21.8,,,,*59
$GNGST,133330.00,4205788,,,,1.4,3.0,4.1*7F
$GNZDA,133330.00,19,05,2025,00,00*71
$GNGBS,133330.00,1.4,3.0,4.1,,,,*5D
b0LHnM
*T
($wB$X
 8L!<a'9 .2{4+Ta:R "uAFGTHInrJK}T%U"J1VXRbHnP-$GNRMC,133331.00,A,0419.77160,S,05539.89741,E,0.039,,190525,,,D*74
$GNVTG,,T,,M,0.039,N,0.072,K,D*37
$GNGNS,133331.00,0419.77160,S,05539.89741,E,DA,16,0.71,11.0,-47.6,,0000*6B
$GNGGA,133331.00,0419.77160,S,05539.89741,E,2,12,0.71,11.0,M,-47.6,M,,0000*43
$GNGSA,A,3,10,32,26,08,18,28,31,27,,,,,1.36,0.71,1.16*10
$GNGSA,A,3,86,73,74,84,71,85,72,75,,,,,1.36,0.71,1.16*11
$GPGSV,4,1,16,02,07,333,,04,10,229,,08,26,298,09,10,13,028,40*7A
$GPGSV,4,2,16,16,24,212,,18,27,119,36,23,01,066,,26,29,182,36*79
$GPGSV,4,3,16,27,56,263,32,28,60,097,33,31,57,162,39,32,30,009,46*7D
$GPGSV,4,4,16,36,52,277,,40,84,353,43,41,58,082,,49,32,274,*7B
$GLGSV,3,1,10,65,03,234,,70,00,017,12,71,24,340,22,72,29,283,11*61
$GLGSV,3,2,10,73,18,110,29,74,22,158,14,75,07,205,13,84,37,141,20*67
$GLGSV,3,3,10,85,74,049,34,86,24,344,22*6B
$GNGLL,0419.77160,S,05539.89741,E,133331.00,A,D*6D
$GNGRS,133331.00,1,-3.6,0.5,0.9,16.2,4.1,4.2,-2.4,-4.4,,,,*44
$GNGRS,133331.00,1,12.4,3.7,6.7,1.7,6.7,6.6,6.8,21.7,,,,*5F
$GNGST,133331.00,4205788,,,,1.4,2.9,4.1*76
$GNZDA,133331.00,19,05,2025,00,00*70
$GNGBS,133331.00,1.4,2.9,4.1,,,,*54
b0L0rM
*
'%wmB!h
 83<a%: +&{4-Ta:R "uAF
GTH
InJKs5T%@U(J1@VX_nb0rS$GNRMC,133332.00,A,0419.77153,S,05539.89755,E,0.038,,190525,,,D*73
$GNVTG,,T,,M,0.038,N,0.070,K,D*34
$GNGNS,133332.00,0419.77153,S,05539.89755,E,DA,16,0.89,11.5,-47.6,,0000*6F
$GNGGA,133332.00,0419.77153,S,05539.89755,E,2,12,0.89,11.5,M,-47.6,M,,0000*47
$GNGSA,A,3,10,32,26,08,18,28,31,27,,,,,1.53,0.89,1.24*15
$GNGSA,A,3,86,73,74,84,71,85,72,75,,,,,1.53,0.89,1.24*14
$GPGSV,4,1,16,02,07,333,,04,10,229,,08,26,298,11,10,13,028,39*7D
$GPGSV,4,2,16,16,24,212,,18,27,119,37,23,01,066,,26,29,182,33*7D
$GPGSV,4,3,16,27,56,263,32,28,60,097,30,31,58,161,37,32,30,009,43*79
$GPGSV,4,4,16,36,52,277,,40,84,353,45,41,58,082,,49,32,274,*7D
$GLGSV,3,1,10,65,03,234,,70,00,017,11,71,24,340,22,72,29,283,11*62
$GLGSV,3,2,10,73,18,110,29,74,22,158,13,75,07,205,09,84,37,141,20*6B
$GLGSV,3,3,10,85,74,049,40,86,24,344,23*69
$GNGLL,0419.77153,S,05539.89755,E,133332.00,A,D*6B
$GNGRS,133332.00,1,-3.7,0.4,1.0,-25.9,3.6,1.6,-2.9,-2.1,,,,*66
$GNGRS,133332.00,1,10.5,4.0,7.2,3.2,6.5,5.8,27.8,137,,,,*4F
$GNGST,133332.00,40,,,,1.4,2.9,4.1*45
$GNZDA,133332.00,19,05,2025,00,00*73
$GNGBS,133332.00,1.4,2.9,4.1,,,,*57
b0LvM
*
(^#wEB&S
8A$<a#: *F{4(Ta:R #uAF
GTHzInJK
pT%VU$J1VX)bvW$GNRMC,133333.00,A,0419.77153,S,05539.89759,E,0.091,,190525,,,D*7D
$GNVTG,,T,,M,0.091,N,0.169,K,D*3E
$GNGNS,133333.00,0419.77153,S,05539.89759,E,DA,16,0.71,11.7,-47.6,,0000*67
$GNGGA,133333.00,0419.77153,S,05539.89759,E,2,12,0.71,11.7,M,-47.6,M,,0000*4F
$GNGSA,A,3,10,32,26,08,18,28,31,27,,,,,1.36,0.71,1.16*10
$GNGSA,A,3,86,73,74,84,71,85,72,75,,,,,1.36,0.71,1.16*11
$GPGSV,4,1,16,02,07,333,,04,10,229,,08,26,298,09,10,13,028,40*7A
$GPGSV,4,2,16,16,24,212,,18,27,119,35,23,01,066,,26,29,182,38*74
$GPGSV,4,3,16,27,56,263,31,28,60,097,36,31,58,161,35,32,30,009,42*7F
$GPGSV,4,4,16,36,52,277,,40,84,353,40,41,58,082,,49,32,274,*78
$GLGSV,3,1,10,65,03,234,,70,00,017,10,71,24,340,22,72,29,283,13*61
$GLGSV,3,2,10,73,18,110,30,74,22,158,13,75,07,205,10,84,37,141,18*60
$GLGSV,3,3,10,85,74,049,36,86,24,344,23*68
$GNGLL,0419.77153,S,05539.89759,E,133333.00,A,D*66
$GNGRS,133333.00,1,-4.2,0.7,0.8,15.4,3.2,-0.2,-3.1,-4.5,,,,*6B
$GNGRS,133333.00,1,9.6,0.3,7.8,3.4,6.4,5.2,6.3,21.6,,,,*63
$GNGST,133333.00,4205788,,,,1.4,2.9,4.0*75
$GNZDA,133333.00,19,05,2025,00,00*72
$GNGBS,133333.00,1.4,2.9,4.0,,,,*57
b0LzM
*
'U'w3B"y
 8!<a%: *`{4(Ta:R !uAFGTH
sInJKfT%:U"J1VXVbz[b$GNRMC,133334.00,A,0419.77153,S,05539.89764,E,0.031,,190525,,,D*7E
$GNVTG,,T,,M,0.031,N,0.058,K,D*37
$GNGNS,133334.00,0419.77153,S,05539.89764,E,DA,16,0.71,11.7,-47.6,,0000*6E
$GNGGA,133334.00,0419.77153,S,05539.89764,E,2,12,0.71,11.7,M,-47.6,M,,0000*46
$GNGSA,A,3,10,32,26,08,18,28,31,27,,,,,1.36,0.71,1.16*10
$GNGSA,A,3,86,73,74,84,71,85,72,75,,,,,1.36,0.71,1.16*11
$GPGSV,4,1,16,02,07,333,,04,10,229,,08,26,298,13,10,13,028,39*7F
$GPGSV,4,2,16,16,24,212,,18,27,119,39,23,01,066,,26,29,182,34*74
$GPGSV,4,3,16,27,56,263,32,28,60,097,33,31,58,161,37,32,30,009,42*7B
$GPGSV,4,4,16,36,52,277,,40,84,353,40,41,58,082,,49,32,274,*78
$GLGSV,3,1,10,65,03,234,,70,00,017,11,71,24,340,23,72,29,283,10*62
$GLGSV,3,2,10,73,18,110,30,74,22,158,18,75,07,205,09,84,37,141,18*63
$GLGSV,3,3,10,85,74,049,34,86,24,344,23*6A
$GNGLL,0419.77153,S,05539.89764,E,133334.00,A,D*6F
$GNGRS,133334.00,1,-4.3,1.0,1.2,15.3,3.1,-1.0,-2.8,-2.4,,,,*68
$GNGRS,133334.00,1,11.1,9.1,7.9,3.1,4.3,5.0,6.3,21.5,,,,*51
$GNGST,133334.00,4205788,,,,1.4,2.9,4.0*72
$GNZDA,133334.00,19,05,2025,00,00*75
$GNGBS,133334.00,1.4,2.9,4.0,,,,*50
b0L}M
*4
'j%w&B"i
 8!<a$: *`{4(Ta:R "uAF?GTMH
I"nkJK9T%U#J1VXc$~b}_s$GNRMC,133335.00,A,0419.77154,S,05539.89770,E,0.013,,190525,,,D*7D
$GNVTG,,T,,M,0.013,N,0.024,K,D*3C
$GNGNS,133335.00,0419.77154,S,05539.89770,E,DA,15,0.89,11.6,-47.6,,0000*68
$GNGGA,133335.00,0419.77154,S,05539.89770,E,2,12,0.89,11.6,M,-47.6,M,,0000*43
$GNGSA,A,3,10,32,26,18,28,31,27,,,,,,1.53,0.89,1.24*1D
$GNGSA,A,3,86,73,74,84,71,85,72,75,,,,,1.53,0.89,1.24*14
$GPGSV,4,1,16,02,07,333,,04,10,229,,08,26,298,06,10,13,028,39*7B
$GPGSV,4,2,16,16,24,212,,18,27,119,37,23,01,066,,26,29,182,34*7A
$GPGSV,4,3,16,27,56,263,32,28,60,097,33,31,58,161,36,32,30,009,42*7A
$GPGSV,4,4,16,36,52,277,,40,84,353,40,41,58,082,,49,32,274,*78
$GLGSV,3,1,10,65,03,234,,70,00,017,11,71,24,340,24,72,29,283,10*65
$GLGSV,3,2,10,73,18,110,34,74,22,158,20,75,07,205,08,84,37,141,17*62
$GLGSV,3,3,10,85,74,049,35,86,24,344,22*6A
$GNGLL,0419.77154,S,05539.89770,E,133335.00,A,D*6C
$GNGRS,133335.00,1,-4.1,1.0,1.0,2.9,-1.1,-2.8,-1.0,,,,,*7F
$GNGRS,133335.00,1,11.2,8.7,7.3,0.2,3.3,4.4,-102,148,,,,*4C
$GNGST,133335.00,34,,,,1.4,2.9,4.0*40
$GNZDA,133335.00,19,05,2025,00,00*74
$GNGBS,133335.00,1.4,2.9,4.0,,,,*51
b0LM

*
(d$wB%\
 8"<a%:
 )O{4(Ta:R "uAF
GTDHI!nJKfT%U"J1VX1ibcK#$GNRMC,133336.00,A,0419.77155,S,05539.89772,E,0.025,,190525,,,D*78
$GNVTG,,T,,M,0.025,N,0.046,K,D*3D
$GNGNS,133336.00,0419.77155,S,05539.89772,E,DA,16,0.71,11.5,-47.6,,0000*6F
$GNGGA,133336.00,0419.77155,S,05539.89772,E,2,12,0.71,11.5,M,-47.6,M,,0000*47
$GNGSA,A,3,10,32,26,08,18,28,31,27,,,,,1.36,0.71,1.16*10
$GNGSA,A,3,86,73,74,84,71,85,72,75,,,,,1.36,0.71,1.16*11
$GPGSV,4,1,16,02,07,333,,04,10,229,,08,26,298,10,10,13,028,40*72
$GPGSV,4,2,16,16,24,212,21,18,27,119,36,23,01,066,,26,29,182,37*7B
$GPGSV,4,3,16,27,56,263,32,28,60,097,34,31,58,161,37,32,30,009,41*7F
$GPGSV,4,4,16,36,52,277,,40,84,353,40,41,58,082,,49,32,274,*78
$GLGSV,3,1,10,65,03,234,,70,00,017,10,71,24,340,22,72,29,283,13*61
$GLGSV,3,2,10,73,18,110,33,74,22,158,23,75,07,205,08,84,37,141,19*68
$GLGSV,3,3,10,85,74,049,34,86,24,344,21*68
$GNGLL,0419.77155,S,05539.89772,E,133336.00,A,D*6C
$GNGRS,133336.00,1,-4.1,0.8,0.9,15.4,2.8,-0.7,-2.5,-0.8,,,,*61
$GNGRS,133336.00,1,10.7,9.5,7.8,1.7,3.2,4.0,6.4,21.5,,,,*55
$GNGST,133336.00,4205788,,,,1.4,2.9,4.0*70
$GNZDA,133336.00,19,05,2025,00,00*77
$GNGBS,133336.00,1.4,2.9,4.0,,,,*52
b0LM
*
(f$wB%=
 8#<a%&:) +C{4(Ta:R "uAFwGTHI nJ1KTT%@U!J1VX&-zbg#$GNRMC,133337.00,A,0419.77156,S,05539.89773,E,0.034,,190525,,,D*7B
$GNVTG,,T,,M,0.034,N,0.063,K,D*3A
$GNGNS,133337.00,0419.77156,S,05539.89773,E,DA,16,0.71,11.4,-47.6,,0000*6D
$GNGGA,133337.00,0419.77156,S,05539.89773,E,2,12,0.71,11.4,M,-47.6,M,,0000*45
$GNGSA,A,3,10,32,26,08,18,28,31,27,,,,,1.36,0.71,1.16*10
$GNGSA,A,3,86,73,74,84,71,85,72,75,,,,,1.36,0.71,1.16*11
$GPGSV,4,1,16,02,07,333,,04,10,229,,08,26,298,14,10,13,028,40*76
$GPGSV,4,2,16,16,24,212,,18,27,119,36,23,01,066,,26,29,182,37*78
$GPGSV,4,3,16,27,56,263,32,28,60,097,35,31,58,161,38,32,30,009,43*73
$GPGSV,4,4,16,36,52,277,,40,84,353,40,41,58,082,,49,32,274,*78
$GLGSV,3,1,10,65,03,234,,70,00,017,13,71,24,340,21,72,29,283,08*6B
$GLGSV,3,2,10,73,18,110,32,74,22,158,24,75,07,205,09,84,37,141,21*64
$GLGSV,3,3,10,85,74,049,33,86,24,344,21*6F
$GNGLL,0419.77156,S,05539.89773,E,133337.00,A,D*6F
$GNGRS,133337.00,1,-4.1,0.7,0.6,15.3,2.6,-2.2,-2.1,-0.8,,,,*6A
$GNGRS,133337.00,1,13.2,6.9,8.2,0.6,1.8,3.9,6.4,21.3,,,,*54
$GNGST,133337.00,4205788,,,,1.4,2.8,4.0*70
$GNZDA,133337.00,19,05,2025,00,00*76
$GNGBS,133337.00,1.4,2.8,4.0,,,,*52
b0LM
*E
(T%wB"8
 8#<a&:G *
{4)Ta:R !uAFGTHIn
JK0T%U J1|VXp-bhk$GNRMC,133338.00,A,0419.77156,S,05539.89773,E,0.086,,190525,,,D*7D
$GNVTG,,T,,M,0.086,N,0.159,K,D*3B
$GNGNS,133338.00,0419.77156,S,05539.89773,E,DA,16,0.66,11.4,-47.6,,0000*64
$GNGGA,133338.00,0419.77156,S,05539.89773,E,2,12,0.66,11.4,M,-47.6,M,,0000*4C
$GNGSA,A,3,10,32,26,08,18,28,31,27,,,,,1.21,0.66,1.02*15
$GNGSA,A,3,86,73,74,84,71,85,72,75,,,,,1.21,0.66,1.02*14
$GPGSV,4,1,16,02,07,333,,04,10,229,,08,26,298,12,10,13,028,40*70
$GPGSV,4,2,16,16,24,212,,18,27,119,37,23,01,066,,26,29,182,34*7A
$GPGSV,4,3,16,27,56,263,32,28,60,097,35,31,58,161,38,32,30,009,42*72
$GPGSV,4,4,16,36,52,277,,40,84,353,41,41,58,082,,49,32,274,*79
$GLGSV,3,1,10,65,03,234,,70,00,017,14,71,24,340,22,72,29,283,12*64
$GLGSV,3,2,10,73,18,110,31,74,22,158,24,75,07,205,13,84,37,141,21*6C
$GLGSV,3,3,10,85,74,049,32,86,24,344,22*6D
$GNGLL,0419.77156,S,05539.89773,E,133338.00,A,D*60
$GNGRS,133338.00,1,-4.3,0.1,0.6,-4.4,2.5,-0.1,-1.8,-1.1,,,,*7B
$GNGRS,133338.00,1,13.9,0.1,9.5,-3.2,2.5,3.8,22.8,13.3,,,,*46
$GNGST,133338.00,51,,,,1.4,2.8,4.0*4F
$GNZDA,133338.00,19,05,2025,00,00*79
$GNGBS,133338.00,1.4,2.8,4.0,,,,*5D
b0LM
*,
)u%wB0
 8#<a&:A ){4)Ta:R !uRAFGTHI"nJK
fT%U J1VXbPo[$GNRMC,133339.00,A,0419.77157,S,05539.89774,E,0.049,,190525,,,D*79
$GNVTG,,T,,M,0.049,N,0.090,K,D*3C
$GNGNS,133339.00,0419.77157,S,05539.89774,E,DA,16,0.71,11.3,-47.6,,0000*62
$GNGGA,133339.00,0419.77157,S,05539.89774,E,2,12,0.71,11.3,M,-47.6,M,,0000*4A
$GNGSA,A,3,10,32,26,08,18,28,31,27,,,,,1.36,0.71,1.16*10
$GNGSA,A,3,86,73,74,84,71,85,72,75,,,,,1.36,0.71,1.16*11
$GPGSV,4,1,16,02,07,333,,04,10,229,,08,26,298,11,10,13,028,41*72
$GPGSV,4,2,16,16,24,212,,18,27,119,37,23,01,066,,26,29,182,31*7F
$GPGSV,4,3,16,27,56,263,32,28,60,097,35,31,58,161,38,32,30,009,41*71
$GPGSV,4,4,16,36,52,277,,40,84,353,41,41,58,082,,49,32,274,*79
$GLGSV,3,1,10,65,03,234,,70,00,017,17,71,24,340,22,72,29,283,09*6D
$GLGSV,3,2,10,73,18,110,34,74,22,158,23,75,07,205,10,84,37,141,22*6E
$GLGSV,3,3,10,85,74,049,32,86,24,344,22*6D
$GNGLL,0419.77157,S,05539.89774,E,133339.00,A,D*67
$GNGRS,133339.00,1,-4.0,0.2,0.5,15.8,2.1,-1.2,-1.9,-0.6,,,,*69
$GNGRS,133339.00,1,12.3,3.9,10.4,-2.7,-0.9,1.5,6.5,21.5,,,,*6A
$GNGST,133339.00,2978676,,,,1.4,2.8,4.0*79
$GNZDA,133339.00,19,05,2025,00,00*78
$GNGBS,133339.00,1.4,2.8,4.0,,,,*5C
b0LpM
*.
*\%wBL
 8"<aO&:5 ){4)Ta:R #uAFvGToHI!nJqKTT%"U J1:VXpbp8s$GNRMC,133340.00,A,0419.77158,S,05539.89774,E,0.011,,190525,,,D*75
$GNVTG,,T,,M,0.011,N,0.021,K,D*3B
$GNGNS,133340.00,0419.77158,S,05539.89774,E,DA,15,0.78,11.2,-47.6,,0000*68
$GNGGA,133340.00,0419.77158,S,05539.89774,E,2,12,0.78,11.2,M,-47.6,M,,0000*43
$GNGSA,A,3,10,32,26,08,18,28,31,27,,,,,1.41,0.78,1.18*17
$GNGSA,A,3,86,73,74,84,71,85,75,,,,,,1.41,0.78,1.18*13
$GPGSV,4,1,16,02,07,333,,04,10,229,,08,26,298,08,10,13,028,42*79
$GPGSV,4,2,16,16,24,212,,18,27,119,37,23,01,066,,26,29,182,31*7F
$GPGSV,4,3,16,27,56,263,32,28,60,097,34,31,58,161,38,32,30,009,41*70
$GPGSV,4,4,16,36,52,277,,40,84,353,41,41,58,082,,49,32,274,*79
$GLGSV,3,1,10,65,03,234,,70,00,017,16,71,24,340,22,72,29,283,06*63
$GLGSV,3,2,10,73,18,110,33,74,22,158,23,75,07,205,11,84,37,141,22*68
$GLGSV,3,3,10,85,74,049,32,86,24,344,22*6D
$GNGLL,0419.77158,S,05539.89774,E,133340.00,A,D*66
$GNGRS,133340.00,1,-4.2,0.1,0.8,15.8,1.3,-1.8,-2.0,-0.4,,,,*68
$GNGRS,133340.00,1,12.7,6.6,11.4,-2.2,-1.4,-2.0,21.3,,,,,*62
$GNGST,133340.00,3071473,,,,1.4,2.8,4.0*71
$GNZDA,133340.00,19,05,2025,00,00*76
$GNGBS,133340.00,1.4,2.8,4.0,,,,*52
b0LXM
*
*3%wuB~
!8"<aU&:@ ){4)Ta:R #uAF"GTH=I!nrJKAT%>U J1rVX<bX w+$GNRMC,133341.00,A,0419.77159,S,05539.89775,E,0.017,,190525,,,D*72
$GNVTG,,T,,M,0.017,N,0.032,K,D*3F
$GNGNS,133341.00,0419.77159,S,05539.89775,E,DA,15,0.78,11.1,-47.6,,0000*6A
$GNGGA,133341.00,0419.77159,S,05539.89775,E,2,12,0.78,11.1,M,-47.6,M,,0000*41
$GNGSA,A,3,10,32,26,08,18,28,31,27,,,,,1.41,0.78,1.18*17
$GNGSA,A,3,86,73,74,84,71,85,75,,,,,,1.41,0.78,1.18*13
$GPGSV,4,1,16,02,07,333,,04,10,229,,08,26,298,11,10,13,028,42*71
$GPGSV,4,2,16,16,24,212,,18,27,119,37,23,01,066,,26,29,182,31*7F
$GPGSV,4,3,16,27,56,263,33,28,60,097,34,31,58,161,38,32,30,009,41*71
$GPGSV,4,4,16,36,52,277,,40,84,353,41,41,58,082,,49,32,274,*79
$GLGSV,3,1,10,65,03,234,,70,00,017,12,71,24,340,22,72,29,283,07*66
$GLGSV,3,2,10,73,18,110,33,74,22,158,22,75,07,205,11,84,37,141,22*69
$GLGSV,3,3,10,85,74,049,32,86,24,344,23*6C
$GNGLL,0419.77159,S,05539.89775,E,133341.00,A,D*67
$GNGRS,133341.00,1,-4.6,0.1,1.3,5.3,1.2,-1.7,-1.9,-0.2,,,,*5F
$GNGRS,133341.00,1,12.6,6.3,11.9,-1.9,-0.4,3.7,168,,,,,*69
$GNGST,133341.00,42,,,,1.4,2.8,4.0*43
$GNZDA,133341.00,19,05,2025,00,00*77
$GNGBS,133341.00,1.4,2.8,4.0,,,,*53
b0L@M
*
)<&w>B{
 8"<aY&:: *
{4)Ta:R #u+AFPGTHI nJKkT%U!J1VX
b@{[$GNRMC,133342.00,A,0419.77159,S,05539.89777,E,0.030,,190525,,,D*76
$GNVTG,,T,,M,0.030,N,0.055,K,D*3B
$GNGNS,133342.00,0419.77159,S,05539.89777,E,DA,15,0.76,11.1,-47.6,,0000*65
$GNGGA,133342.00,0419.77159,S,05539.89777,E,2,12,0.76,11.1,M,-47.6,M,,0000*4E
$GNGSA,A,3,10,32,26,18,28,31,27,,,,,,1.41,0.76,1.19*10
$GNGSA,A,3,86,73,74,84,71,85,72,75,,,,,1.41,0.76,1.19*19
$GPGSV,4,1,16,02,07,333,,04,10,229,,08,26,298,07,10,13,028,41*75
$GPGSV,4,2,16,16,24,212,,18,27,119,38,23,01,066,,26,29,182,30*71
$GPGSV,4,3,16,27,56,263,32,28,60,097,34,31,58,161,38,32,30,009,42*73
$GPGSV,4,4,16,36,52,277,,40,84,353,41,41,58,082,,49,32,274,*79
$GLGSV,3,1,10,65,03,234,,70,00,017,17,71,24,340,21,72,29,283,11*67
$GLGSV,3,2,10,73,18,110,32,74,22,158,22,75,07,205,07,84,37,141,22*6F
$GLGSV,3,3,10,85,74,049,33,86,24,344,23*6D
$GNGLL,0419.77159,S,05539.89777,E,133342.00,A,D*66
$GNGRS,133342.00,1,-4.5,0.1,1.2,0.6,-1.7,-2.0,-0.1,,,,,*7A
$GNGRS,133342.00,1,12.9,6.8,12.2,-3.8,-2.8,6.5,6.4,21.5,,,,*67
$GNGST,133342.00,3071473,,,,1.4,2.8,4.0*73
$GNZDA,133342.00,19,05,2025,00,00*74
$GNGBS,133342.00,1.4,2.8,4.0,,,,*50
b0L(M
*
'S%wB$
8`#<ap*:8 ){4(Ta:R !uAF#GTH~I"n
J[KaT%U!J1PVXb(~2$GNRMC,133343.00,A,0419.77159,S,05539.89779,E,0.082,,190525,,,D*70
$GNVTG,,T,,M,0.082,N,0.152,K,D*34
$GNGNS,133343.00,0419.77159,S,05539.89779,E,DA,16,0.71,11.0,-47.6,,0000*6F
$GNGGA,133343.00,0419.77159,S,05539.89779,E,2,12,0.71,11.0,M,-47.6,M,,0000*47
$GNGSA,A,3,10,32,26,08,18,28,31,27,,,,,1.36,0.71,1.16*10
$GNGSA,A,3,86,73,74,84,71,85,72,75,,,,,1.36,0.71,1.16*11
$GPGSV,4,1,16,02,07,333,,04,10,229,,08,26,298,09,10,13,028,39*74
$GPGSV,4,2,16,16,24,212,,18,27,119,37,23,01,066,,26,29,182,36*78
$GPGSV,4,3,16,27,56,263,31,28,60,097,35,31,58,161,42,32,30,009,41*7F
$GPGSV,4,4,16,36,52,277,,40,84,353,40,41,58,082,,49,32,274,*78
$GLGSV,3,1,10,65,03,234,,70,00,017,17,71,24,340,21,72,29,283,08*6F
$GLGSV,3,2,10,73,18,110,34,74,22,158,21,75,07,205,09,84,37,141,21*67
$GLGSV,3,3,10,85,74,049,33,86,24,344,23*6D
$GNGLL,0419.77159,S,05539.89779,E,133343.00,A,D*69
$GNGRS,133343.00,1,-4.3,0.2,1.4,15.5,0.0,-1.4,-2.0,-1.6,,,,*64
$GNGRS,133343.00,1,11.9,7.8,13.7,-3.1,-3.8,5.9,6.4,21.5,,,,*67
$GNGST,133343.00,2978344,,,,1.4,2.8,4.0*70
$GNZDA,133343.00,19,05,2025,00,00*75
$GNGBS,133343.00,1.4,2.8,4.0,,,,*51
b0LM
*B1
)h'wB"
!8"<a%: *C{4)Ta:R #uAF`GTHI%nEJKT%cU"J1VX.b
`$GNRMC,133344.00,A,0419.77162,S,05539.89776,E,0.024,,190525,,,D*7C
$GNVTG,,T,,M,0.024,N,0.045,K,D*3F
$GNGNS,133344.00,0419.77162,S,05539.89776,E,DA,15,0.89,10.9,-47.6,,0000*63
$GNGGA,133344.00,0419.77162,S,05539.89776,E,2,12,0.89,10.9,M,-47.6,M,,0000*48
$GNGSA,A,3,10,32,26,08,18,28,31,27,,,,,1.53,0.89,1.24*15
$GNGSA,A,3,86,73,74,84,71,85,75,,,,,,1.53,0.89,1.24*11
$GPGSV,4,1,16,02,07,333,,04,10,229,,08,26,298,09,10,13,028,41*7B
$GPGSV,4,2,16,16,24,212,21,18,27,119,39,23,01,066,,26,29,182,34*77
$GPGSV,4,3,16,27,56,263,33,28,60,097,34,31,58,161,37,32,30,009,42*7D
$GPGSV,4,4,16,36,52,277,,40,84,353,41,41,58,082,,49,32,274,*79
$GLGSV,3,1,10,65,03,234,,70,00,017,17,71,24,340,22,72,29,283,07*63
$GLGSV,3,2,10,73,18,110,37,74,22,158,20,75,07,205,11,84,37,141,20*6D
$GLGSV,3,3,10,85,74,049,34,86,24,344,23*6A
$GNGLL,0419.77162,S,05539.89776,E,133344.00,A,D*69
$GNGRS,133344.00,1,-4.1,0.7,4.8,126,0.2,-0.9,-3.0,3.9,,,,*68
$GNGRS,133344.00,1,12.4,5.8,12.2,-4.1,-3.7,2.4,-95.7,,,,,*66
$GNGST,133344.00,30,,,,1.4,2.8,4.0*43
$GNZDA,133344.00,19,05,2025,00,00*72
$GNGBS,133344.00,1.4,2.8,4.0,,,,*56
b0LM
*
(Hn&w/B#G
!8 <a&: +({4*Ta:R #uAFGT`HI$nsJKVT%U#J1VX&4
b$GNRMC,133345.00,A,0419.77163,S,05539.89775,E,0.015,,190525,,,D*7D
$GNVTG,,T,,M,0.015,N,0.027,K,D*39
$GNGNS,133345.00,0419.77163,S,05539.89775,E,DA,16,0.71,10.7,-47.6,,0000*6A
$GNGGA,133345.00,0419.77163,S,05539.89775,E,2,12,0.71,10.7,M,-47.6,M,,0000*42
$GNGSA,A,3,10,32,26,08,18,28,31,27,,,,,1.36,0.71,1.16*10
$GNGSA,A,3,86,73,74,84,71,85,72,75,,,,,1.36,0.71,1.16*11
$GPGSV,4,1,16,02,07,333,,04,10,229,,08,26,298,14,10,13,028,40*76
$GPGSV,4,2,16,16,24,212,23,18,27,119,38,23,01,066,,26,29,182,35*75
$GPGSV,4,3,16,27,56,263,33,28,60,097,32,31,58,161,38,32,30,009,43*75
$GPGSV,4,4,16,36,52,277,,40,84,353,42,41,58,082,,49,32,274,*7A
$GLGSV,3,1,10,65,03,234,,70,00,017,17,71,24,340,23,72,29,283,07*62
$GLGSV,3,2,10,73,18,110,36,74,22,158,19,75,07,205,08,84,37,141,19*64
$GLGSV,3,3,10,85,74,049,35,86,24,344,25*6D
$GNGLL,0419.77163,S,05539.89775,E,133345.00,A,D*6A
$GNGRS,133345.00,1,-4.4,0.4,3.3,15.4,0.5,-1.0,-2.9,2.8,,,,*4F
$GNGRS,133345.00,1,13.2,3.7,12.9,-2.9,-6.7,2.6,6.4,21.3,,,,*61
$GNGST,133345.00,2974159,,,,1.4,2.8,4.0*74
$GNZDA,133345.00,19,05,2025,00,00*73
$GNGBS,133345.00,1.4,2.8,4.0,,,,*57
b0LM
*
'Bl(wYB#
"8 <a%: *1{4+Ta:R #uAFGTHI$nJK
DT%U$J1?VXb!$GNRMC,133346.00,A,0419.77165,S,05539.89777,E,0.035,,190525,,,D*78
$GNVTG,,T,,M,0.035,N,0.065,K,D*3D
$GNGNS,133346.00,0419.77165,S,05539.89777,E,DA,15,0.78,10.7,-47.6,,0000*67
$GNGGA,133346.00,0419.77165,S,05539.89777,E,2,12,0.78,10.7,M,-47.6,M,,0000*4C
$GNGSA,A,3,10,32,26,08,18,28,31,27,,,,,1.41,0.78,1.18*17
$GNGSA,A,3,86,73,74,84,71,85,75,,,,,,1.41,0.78,1.18*13
$GPGSV,4,1,16,02,07,333,,04,10,229,,08,26,298,14,10,13,028,39*78
$GPGSV,4,2,16,16,24,212,23,18,27,119,40,23,01,066,,26,29,182,35*7A
$GPGSV,4,3,16,27,56,263,34,28,60,097,32,31,58,161,37,32,30,009,42*7C
$GPGSV,4,4,16,36,52,277,,40,84,353,43,41,58,082,,49,32,274,*7B
$GLGSV,3,1,10,65,03,234,,70,00,017,16,71,24,340,23,72,29,283,06*62
$GLGSV,3,2,10,73,18,110,36,74,22,158,20,75,07,205,10,84,37,141,19*67
$GLGSV,3,3,10,85,74,049,36,86,24,344,25*6E
$GNGLL,0419.77165,S,05539.89777,E,133346.00,A,D*6D
$GNGRS,133346.00,1,-4.5,0.5,2.7,15.2,0.9,-1.1,-2.9,2.4,,,,*4E
$GNGRS,133346.00,1,14.5,6.4,12.3,-0.8,-8.2,3.2,21.2,,,,,*4E
$GNGST,133346.00,3071473,,,,1.4,2.8,3.9*79
$GNZDA,133346.00,19,05,2025,00,00*70
$GNGBS,133346.00,1.4,2.8,3.9,,,,*5A
b0LM
*"
'G'wrB$
"8!<a%: *#{4*Ta:R #uMAFGTYHh
I$nJK+T%^U$J1?VXub$GNRMC,133347.00,A,0419.77168,S,05539.89778,E,0.003,,190525,,,D*7E
$GNVTG,,T,,M,0.003,N,0.006,K,D*3D
$GNGNS,133347.00,0419.77168,S,05539.89778,E,DA,16,0.89,10.6,-47.6,,0000*68
$GNGGA,133347.00,0419.77168,S,05539.89778,E,2,12,0.89,10.6,M,-47.6,M,,0000*40
$GNGSA,A,3,10,32,26,08,18,28,31,27,,,,,1.53,0.89,1.24*15
$GNGSA,A,3,86,73,74,84,71,85,72,75,,,,,1.53,0.89,1.24*14
$GPGSV,4,1,16,02,07,333,,04,10,229,,08,26,298,09,10,13,028,39*74
$GPGSV,4,2,16,16,24,212,23,18,27,119,39,23,01,066,,26,29,182,36*77
$GPGSV,4,3,16,27,56,263,34,28,60,097,33,31,58,161,37,32,30,009,42*7D
$GPGSV,4,4,16,36,52,277,,40,84,353,42,41,58,082,,49,32,274,*7A
$GLGSV,3,1,10,65,03,234,,70,00,017,16,71,24,340,23,72,29,283,08*6C
$GLGSV,3,2,10,73,18,110,36,74,22,158,20,75,07,205,09,84,37,141,19*6F
$GLGSV,3,3,10,85,74,049,36,86,24,344,25*6E
$GNGLL,0419.77168,S,05539.89778,E,133347.00,A,D*6E
$GNGRS,133347.00,1,-4.4,0.3,2.4,-45.7,1.1,-0.9,-3.0,2.5,,,,*6F
$GNGRS,133347.00,1,14.3,10.3,12.2,0.9,-6.8,3.2,26.6,112,,,,*61
$GNGST,133347.00,32,,,,1.4,2.7,3.9*43
$GNZDA,133347.00,19,05,2025,00,00*71
$GNGBS,133347.00,1.4,2.7,3.9,,,,*54
b0LM
*
(5S%wB$
!8 <a%: +#{4*Ta:R #uAF(GTHsI#nJXKFT%U#J1VXmJbxi$GNRMC,133348.00,A,0419.77171,S,05539.89777,E,0.025,,190525,,,D*72
$GNVTG,,T,,M,0.025,N,0.047,K,D*3C
$GNGNS,133348.00,0419.77171,S,05539.89777,E,DA,17,0.63,10.5,-47.6,,0000*66
$GNGGA,133348.00,0419.77171,S,05539.89777,E,2,12,0.63,10.5,M,-47.6,M,,0000*4F
$GNGSA,A,3,10,32,26,08,18,28,31,16,27,,,,1.29,0.63,1.12*1E
$GNGSA,A,3,86,73,74,84,71,85,72,75,,,,,1.29,0.63,1.12*18
$GPGSV,4,1,16,02,07,333,,04,10,229,,08,26,298,08,10,13,028,40*7B
$GPGSV,4,2,16,16,24,212,22,18,27,119,37,23,01,066,,26,29,182,36*78
$GPGSV,4,3,16,27,56,263,33,28,60,097,32,31,58,161,37,32,30,009,43*7A
$GPGSV,4,4,16,36,52,277,,40,84,353,42,41,58,082,,49,32,274,*7A
$GLGSV,3,1,10,65,03,234,,70,00,017,15,71,24,340,22,72,29,283,07*61
$GLGSV,3,2,10,73,18,110,35,74,22,158,20,75,07,205,11,84,37,141,18*64
$GLGSV,3,3,10,85,74,049,35,86,24,344,25*6D
$GNGLL,0419.77171,S,05539.89777,E,133348.00,A,D*66
$GNGRS,133348.00,1,-4.6,0.4,1.8,15.4,1.3,-0.8,-3.1,-1.7,4.3,,,*46
$GNGRS,133348.00,1,13.9,7.1,13.7,2.5,-7.5,2.9,6.3,21.2,,,,*41
$GNGST,133348.00,4080214,,,,1.4,2.7,3.9*76
$GNZDA,133348.00,19,05,2025,00,00*7E
$GNGBS,133348.00,1.4,2.7,3.9,,,,*5B
b0LM
*
(2&w|B$
"8 <a%: +/{4*Ta:R "uAF?GTH`I#nNJ/KT%U$J1VXb`AY$GNRMC,133349.00,A,0419.77173,S,05539.89775,E,0.093,,190525,,,D*7E
$GNVTG,,T,,M,0.093,N,0.172,K,D*36
$GNGNS,133349.00,0419.77173,S,05539.89775,E,DA,16,0.67,10.4,-47.6,,0000*63
$GNGGA,133349.00,0419.77173,S,05539.89775,E,2,12,0.67,10.4,M,-47.6,M,,0000*4B
$GNGSA,A,3,10,32,26,18,28,31,16,27,,,,,1.32,0.67,1.13*19
$GNGSA,A,3,86,73,74,84,71,85,72,75,,,,,1.32,0.67,1.13*17
$GPGSV,4,1,16,02,07,333,,04,10,229,,08,26,298,07,10,13,028,40*74
$GPGSV,4,2,16,16,24,212,22,18,27,119,38,23,01,066,,26,29,182,36*77
$GPGSV,4,3,16,27,56,263,34,28,60,097,32,31,58,161,37,32,30,009,43*7D
$GPGSV,4,4,16,36,52,277,,40,84,353,42,41,58,082,,49,32,274,*7A
$GLGSV,3,1,10,65,03,234,,70,00,017,14,71,24,340,21,72,29,283,11*64
$GLGSV,3,2,10,73,18,110,35,74,22,158,20,75,07,205,11,84,37,141,18*64
$GLGSV,3,3,10,85,74,049,36,86,24,344,25*6E
$GNGLL,0419.77173,S,05539.89775,E,133349.00,A,D*67
$GNGRS,133349.00,1,-4.6,0.5,1.6,1.2,-3.2,-3.1,-6.0,2.6,,,,*5D
$GNGRS,133349.00,1,14.5,8.5,13.3,0.3,-5.4,2.6,6.1,20.8,,,,*45
$GNGST,133349.00,2973941,,,,1.4,2.7,3.9*7F
$GNZDA,133349.00,19,05,2025,00,00*7F
$GNGBS,133349.00,1.4,2.7,3.9,,,,*5A
b0LM
*
')%wUB#
 8`#<a{': *({4(Ta:R !uAFGT`H:I n<JKT%U#J1VXsbH$GNRMC,133350.00,A,0419.77174,S,05539.89773,E,0.030,,190525,,,D*7E
$GNVTG,,T,,M,0.030,N,0.055,K,D*3B
$GNGNS,133350.00,0419.77174,S,05539.89773,E,DA,17,0.68,10.2,-47.6,,0000*62
$GNGGA,133350.00,0419.77174,S,05539.89773,E,2,12,0.68,10.2,M,-47.6,M,,0000*4B
$GNGSA,A,3,10,32,26,08,18,28,31,16,27,,,,1.31,0.68,1.13*1D
$GNGSA,A,3,86,73,74,84,71,85,72,75,,,,,1.31,0.68,1.13*1B
$GPGSV,4,1,16,02,07,333,,04,10,229,,08,26,298,13,10,13,028,39*7F
$GPGSV,4,2,16,16,24,212,22,18,27,119,37,23,01,066,,26,29,182,35*7B
$GPGSV,4,3,16,27,56,263,32,28,60,097,35,31,58,161,39,32,30,009,42*73
$GPGSV,4,4,16,36,52,277,,40,84,353,40,41,58,082,,49,32,274,*78
$GLGSV,3,1,10,65,03,234,,70,00,017,15,71,24,340,21,72,29,283,08*6D
$GLGSV,3,2,10,73,18,110,32,74,22,158,21,75,07,205,12,84,37,141,16*6F
$GLGSV,3,3,10,85,74,049,35,86,24,344,26*6E
$GNGLL,0419.77174,S,05539.89773,E,133350.00,A,D*6E
$GNGRS,133350.00,1,-4.7,0.4,2.7,-15.6,0.9,-1.3,-2.8,-6.0,3.5,,,*65
$GNGRS,133350.00,1,12.1,8.3,12.5,1.9,-4.2,2.6,77.4,50.3,,,,*7D
$GNGST,133350.00,46,,,,1.4,2.7,3.9*46
$GNZDA,133350.00,19,05,2025,00,00*77
$GNGBS,133350.00,1.4,2.7,3.9,,,,*52
b0LhM
*
)S$wSB#
 8K <al%: *{4*Ta:R "uKAFGTLHI#nIJKHT%,U"J1VXbh0)$GNRMC,133351.00,A,0419.77176,S,05539.89775,E,0.098,,190525,,,D*79
$GNVTG,,T,,M,0.098,N,0.181,K,D*31
$GNGNS,133351.00,0419.77176,S,05539.89775,E,DA,16,0.67,10.2,-47.6,,0000*69
$GNGGA,133351.00,0419.77176,S,05539.89775,E,2,12,0.67,10.2,M,-47.6,M,,0000*41
$GNGSA,A,3,10,32,26,18,28,31,16,27,,,,,1.32,0.67,1.13*19
$GNGSA,A,3,86,73,74,84,71,85,72,75,,,,,1.32,0.67,1.13*17
$GPGSV,4,1,16,02,07,333,,04,10,229,,08,26,298,07,10,13,028,41*75
$GPGSV,4,2,16,16,24,212,21,18,27,119,36,23,01,066,,26,29,182,35*79
$GPGSV,4,3,16,27,56,263,32,28,60,097,32,31,58,161,37,32,30,009,42*7A
$GPGSV,4,4,16,36,52,277,,40,84,353,42,41,58,082,,49,32,274,*7A
$GLGSV,3,1,10,65,03,234,,70,00,017,15,71,24,340,20,72,29,283,13*66
$GLGSV,3,2,10,73,18,110,35,74,22,158,22,75,07,205,09,84,37,141,20*64
$GLGSV,3,3,10,85,74,049,34,86,24,344,24*6D
$GNGLL,0419.77176,S,05539.89775,E,133351.00,A,D*6B
$GNGRS,133351.00,1,-4.3,0.2,2.5,0.8,1.1,-2.5,-0.9,3.3,,,,*7F
$GNGRS,133351.00,1,12.2,8.4,12.3,3.0,-4.4,2.4,6.4,21.2,,,,*40
$GNGST,133351.00,2973941,,,,1.4,2.7,3.9*76
$GNZDA,133351.00,19,05,2025,00,00*76
$GNGBS,133351.00,1.4,2.7,3.9,,,,*53
b0LPM

*
&]'w(B#
!8;!<a^):* ){4)Ta:R "v9AF)GT=HI#nUJK*T%U#J1VX0ebP$GNRMC,133352.00,A,0419.77177,S,05539.89777,E,0.043,,190525,,,D*7F
$GNVTG,,T,,M,0.043,N,0.079,K,D*31
$GNGNS,133352.00,0419.77177,S,05539.89777,E,DA,16,0.68,10.0,-47.6,,0000*64
$GNGGA,133352.00,0419.77177,S,05539.89777,E,2,12,0.68,10.0,M,-47.6,M,,0000*4C
$GNGSA,A,3,10,32,26,08,18,28,31,16,27,,,,1.31,0.68,1.13*1D
$GNGSA,A,3,86,73,74,84,71,85,75,,,,,,1.31,0.68,1.13*1E
