b0XX6
!LAV!-
!)tn@"
7%(<g<*7 % '{4+Ta':R "uAFjGR'H"IpJKT'OU!G(VY#bX6
!1$GNRMC,132749.00,A,0419.76697,S,05539.92649,E,0.062,,190525,,,D*7D
$GNVTG,,T,,M,0.062,N,0.114,K,D*38
$GNGNS,132749.00,0419.76697,S,05539.92649,E,DA,18,0.57,8.1,-47.6,,0000*5F
$GNGGA,132749.00,0419.76697,S,05539.92649,E,2,12,0.57,8.1,M,-47.6,M,,0000*79
$GNGSA,A,3,10,32,26,08,18,02,28,31,16,27,,,1.10,0.57,0.94*1E
$GNGSA,A,3,86,73,74,84,71,85,72,75,,,,,1.10,0.57,0.94*1A
$GPGSV,4,1,16,02,05,332,33,04,09,227,18,08,24,301,33,10,13,025,33*75
$GPGSV,4,2,16,16,24,215,18,18,28,116,41,23,01,064,,26,29,184,34*71
$GPGSV,4,3,16,27,55,269,31,28,60,103,40,31,55,165,42,32,32,008,37*73
$GPGSV,4,4,16,36,52,277,,40,84,353,43,41,58,082,39,49,32,274,*71
$GLGSV,3,1,11,65,03,232,,70,01,015,12,71,26,338,29,72,30,280,34*6F
$GLGSV,3,2,11,73,18,112,28,74,22,160,28,75,06,207,27,84,39,137,30*6B
$GLGSV,3,3,11,85,71,040,33,86,21,345,28,,,,35*69
$GNGLL,0419.76697,S,05539.92649,E,132749.00,A,D*6A
$GNGRS,132749.00,1,-12.7,2.9,-1.1,5.1,-1.5,0.6,0.6,-1.2,-2.8,2.9,,*4A
$GNGRS,132749.00,1,1.8,0.3,14.6,5.9,3.0,-0.8,-7.8,4.1,,,,*6E
$GNGST,132749.00,28,,,,1.4,1.5,2.8*42
$GNZDA,132749.00,19,05,2025,00,00*7A
$GNGBS,132749.00,1.4,1.5,2.8,,,,*5E
b0X@:
 L:-
-t@":
"7&<g0*7u $ S{4,Ta':R &uAF
$GRH!I%pJK_T'U"G(VYT")b@:
$GNRMC,132750.00,A,0419.76697,S,05539.92650,E,0.029,,190525,,,D*72
$GNVTG,,T,,M,0.029,N,0.054,K,D*32
$GNGNS,132750.00,0419.76697,S,05539.92650,E,DA,18,0.57,8.1,-47.6,,0000*5F
$GNGGA,132750.00,0419.76697,S,05539.92650,E,2,12,0.57,8.1,M,-47.6,M,,0000*79
$GNGSA,A,3,10,32,26,08,18,02,28,31,16,27,,,1.10,0.57,0.94*1E
$GNGSA,A,3,86,73,74,84,71,85,72,75,,,,,1.10,0.57,0.94*1A
$GPGSV,4,1,16,02,05,332,32,04,09,227,,08,24,301,30,10,13,025,28*74
$GPGSV,4,2,16,16,24,215,19,18,28,116,45,23,01,064,,26,29,184,34*74
$GPGSV,4,3,16,27,55,269,34,28,60,103,38,31,55,165,42,32,32,008,36*78
$GPGSV,4,4,16,36,52,277,,40,84,353,44,41,58,082,39,49,32,274,*76
$GLGSV,3,1,11,65,03,232,,70,01,015,10,71,26,338,30,72,30,280,33*62
$GLGSV,3,2,11,73,18,112,37,74,22,160,28,75,06,207,26,84,39,137,31*65
$GLGSV,3,3,11,85,71,040,34,86,21,345,29,,,,34*6E
$GNGLL,0419.76697,S,05539.92650,E,132750.00,A,D*6A
$GNGRS,132750.00,1,-13.5,0.8,-2.0,2.8,-1.1,-4.5,0.5,-1.4,-3.2,2.5,,*62
$GNGRS,132750.00,1,-1.7,1.8,14.7,2.7,2.8,-0.6,-6.3,3.5,,,,*48
$GNGST,132750.00,28,,,,1.4,1.5,2.8*4A
$GNZDA,132750.00,19,05,2025,00,00*72
$GNGBS,132750.00,1.4,1.5,2.8,,,,*56
b0X(>
 L;-
s
*t@"
!7(<g<)7 # }{4)Ta(:R  uHAFTGRbH I"pJ{KiT')U$G(VY!b(>
k$GNRMC,132751.00,A,0419.76697,S,05539.92651,E,0.009,,190525,,,D*70
$GNVTG,,T,,M,0.009,N,0.017,K,D*37
$GNGNS,132751.00,0419.76697,S,05539.92651,E,DA,18,0.57,8.0,-47.6,,0000*5E
$GNGGA,132751.00,0419.76697,S,05539.92651,E,2,12,0.57,8.0,M,-47.6,M,,0000*78
$GNGSA,A,3,10,32,26,08,18,02,28,31,16,27,,,1.10,0.57,0.94*1E
$GNGSA,A,3,86,73,74,84,71,85,72,75,,,,,1.10,0.57,0.94*1A
$GPGSV,4,1,16,02,05,332,32,04,09,227,,08,24,301,29,10,13,025,29*7D
$GPGSV,4,2,16,16,24,215,19,18,28,116,42,23,01,064,,26,29,184,34*73
$GPGSV,4,3,16,27,55,269,33,28,60,103,40,31,55,165,41,32,32,008,35*70
$GPGSV,4,4,16,36,52,277,,40,84,353,41,41,58,082,40,49,32,274,*7D
$GLGSV,3,1,11,65,03,232,,70,01,015,09,71,26,338,30,72,30,280,32*6B
$GLGSV,3,2,11,73,18,112,34,74,22,160,28,75,06,207,25,84,39,137,31*65
$GLGSV,3,3,11,85,71,040,36,86,21,345,29,,,,33*6B
$GNGLL,0419.76697,S,05539.92651,E,132751.00,A,D*6A
$GNGRS,132751.00,1,-9.1,1.3,0.2,2.6,-1.0,-2.0,0.6,-1.2,-2.5,1.4,,*76
$GNGRS,132751.00,1,-0.1,-1.3,16.6,8.1,3.5,-0.6,-5.4,3.6,,,,*6C
$GNGST,132751.00,28,,,,1.4,1.5,2.8*4B
$GNZDA,132751.00,19,05,2025,00,00*73
$GNGBS,132751.00,1.4,1.5,2.8,,,,*57
b0XB
$L-
Y.-tt@!5
$7&<g?*7 ! {4,Ta&:R &uAFAGR@H I%pJaKT'U$G(VYY!bB
#Cf$GNRMC,132752.00,A,0419.76697,S,05539.92651,E,0.022,,190525,,,D*7A
$GNVTG,,T,,M,0.022,N,0.041,K,D*3D
$GNGNS,132752.00,0419.76697,S,05539.92651,E,DA,18,0.57,8.0,-47.6,,0000*5D
$GNGGA,132752.00,0419.76697,S,05539.92651,E,2,12,0.57,8.0,M,-47.6,M,,0000*7B
$GNGSA,A,3,10,32,26,08,18,02,28,31,16,27,,,1.10,0.57,0.94*1E
$GNGSA,A,3,86,73,74,84,71,85,72,75,,,,,1.10,0.57,0.94*1A
$GPGSV,4,1,16,02,05,332,36,04,09,227,,08,24,301,30,10,13,025,29*71
$GPGSV,4,2,16,16,24,215,18,18,28,116,45,23,01,064,,26,29,184,33*72
$GPGSV,4,3,16,27,55,269,36,28,60,103,38,31,55,165,42,32,32,008,33*7F
$GPGSV,4,4,16,36,52,277,,40,84,353,44,41,58,082,38,49,32,274,*77
$GLGSV,3,1,11,65,03,232,,70,01,015,08,71,26,338,31,72,30,280,31*68
$GLGSV,3,2,11,73,18,112,37,74,22,160,29,75,06,207,25,84,39,137,31*67
$GLGSV,3,3,11,85,71,040,36,86,21,345,30,,,,33*63
$GNGLL,0419.76697,S,05539.92651,E,132752.00,A,D*69
$GNGRS,132752.00,1,-9.4,1.7,-2.0,1.5,-1.4,-2.3,0.6,-1.3,-2.1,1.4,,*5B
$GNGRS,132752.00,1,0.9,-3.3,16.3,7.0,0.6,-0.8,-7.4,5.1,,,,*4E
$GNGST,132752.00,28,,,,1.4,1.5,2.8*48
$GNZDA,132752.00,19,05,2025,00,00*70
$GNGBS,132752.00,1.4,1.5,2.8,,,,*54
b0XE
#LO-
-tr@!
$7%<g6*7v   {4+Ta&:R &uAFKGRFH3I&p8JKKT'U$G(VY bE
'$GNRMC,132753.00,A,0419.76698,S,05539.92649,E,0.010,,190525,,,D*7C
$GNVTG,,T,,M,0.010,N,0.018,K,D*30
$GNGNS,132753.00,0419.76698,S,05539.92649,E,DA,17,0.61,8.0,-47.6,,0000*50
$GNGGA,132753.00,0419.76698,S,05539.92649,E,2,12,0.61,8.0,M,-47.6,M,,0000*79
$GNGSA,A,3,10,32,26,08,18,02,28,31,27,,,,1.12,0.61,0.94*1E
$GNGSA,A,3,86,73,74,84,71,85,72,75,,,,,1.12,0.61,0.94*1D
$GPGSV,4,1,16,02,05,332,35,04,09,227,26,08,24,301,29,10,13,025,30*76
$GPGSV,4,2,16,16,24,215,17,18,28,116,45,23,01,064,,26,29,184,33*7D
$GPGSV,4,3,16,27,55,269,36,28,60,103,37,31,55,165,42,32,32,008,32*71
$GPGSV,4,4,16,36,52,277,,40,84,353,43,41,58,082,38,49,32,274,*70
$GLGSV,3,1,11,65,03,232,,70,01,015,06,71,26,338,31,72,30,280,31*66
$GLGSV,3,2,11,73,18,112,38,74,22,160,29,75,06,207,25,84,39,137,31*68
$GLGSV,3,3,11,85,71,040,36,86,21,345,30,,,,32*62
$GNGLL,0419.76698,S,05539.92649,E,132753.00,A,D*6E
$GNGRS,132753.00,1,-8.0,1.5,-0.9,1.6,-1.4,-3.5,0.5,-1.4,4.3,,,*54
$GNGRS,132753.00,1,4.7,-2.0,15.2,7.0,0.7,-0.8,-7.2,5.9,,,,*4A
$GNGST,132753.00,22,,,,1.4,1.5,2.7*4C
$GNZDA,132753.00,19,05,2025,00,00*71
$GNGBS,132753.00,1.4,1.5,2.7,,,,*5A
b0XI
$L`-
^-t@!
$7h%<g7*7U  {4+Ta&:R &uAF{GR2HCI&pJKUT 'U$G(VY
 8bI
+'$GNRMC,132754.00,A,0419.76697,S,05539.92648,E,0.026,,190525,,,D*70
$GNVTG,,T,,M,0.026,N,0.048,K,D*30
$GNGNS,132754.00,0419.76697,S,05539.92648,E,DA,18,0.57,8.0,-47.6,,0000*53
$GNGGA,132754.00,0419.76697,S,05539.92648,E,2,12,0.57,8.0,M,-47.6,M,,0000*75
$GNGSA,A,3,10,32,26,08,18,02,28,31,16,27,,,1.10,0.57,0.94*1E
$GNGSA,A,3,86,73,74,84,71,85,72,75,,,,,1.10,0.57,0.94*1A
$GPGSV,4,1,16,02,05,332,36,04,09,227,,08,24,301,29,10,13,025,30*71
$GPGSV,4,2,16,16,24,215,16,18,28,116,45,23,01,064,,26,29,184,33*7C
$GPGSV,4,3,16,27,55,269,36,28,60,103,37,31,55,165,42,32,32,008,31*72
$GPGSV,4,4,16,36,52,277,,40,84,353,43,41,58,082,38,49,32,274,*70
$GLGSV,3,1,11,65,03,232,,70,01,015,07,71,26,338,31,72,30,280,31*67
$GLGSV,3,2,11,73,18,112,38,74,22,160,29,75,06,207,26,84,39,137,32*68
$GLGSV,3,3,11,85,71,040,36,86,21,345,31,,,,32*63
$GNGLL,0419.76697,S,05539.92648,E,132754.00,A,D*67
$GNGRS,132754.00,1,-4.2,1.3,-1.3,-0.5,-1.2,-4.2,0.6,-1.7,-5.0,3.6,,*7D
$GNGRS,132754.00,1,5.2,-3.6,14.3,0.1,-2.1,-0.7,-7.0,8.5,,,,*6D
$GNGST,132754.00,29,,,,1.4,1.5,2.7*40
$GNZDA,132754.00,19,05,2025,00,00*76
$GNGBS,132754.00,1.4,1.5,2.7,,,,*5D
b0XM
#L-
-t@!/
$7%<g9*7?  {%4+Ta&:R &uAFGRHI&pJKT 'MU$G(VYv 5|bM
/$GNRMC,132755.00,A,0419.76697,S,05539.92646,E,0.030,,190525,,,D*78
$GNVTG,,T,,M,0.030,N,0.055,K,D*3B
$GNGNS,132755.00,0419.76697,S,05539.92646,E,DA,18,0.57,8.0,-47.6,,0000*5C
$GNGGA,132755.00,0419.76697,S,05539.92646,E,2,12,0.57,8.0,M,-47.6,M,,0000*7A
$GNGSA,A,3,10,32,26,08,18,02,28,31,16,27,,,1.10,0.57,0.94*1E
$GNGSA,A,3,86,73,74,84,71,85,72,75,,,,,1.10,0.57,0.94*1A
$GPGSV,4,1,16,02,05,332,35,04,09,227,,08,24,301,29,10,13,025,30*72
$GPGSV,4,2,16,16,24,215,16,18,28,116,45,23,01,064,,26,29,184,33*7C
$GPGSV,4,3,16,27,55,269,36,28,60,103,37,31,55,165,42,32,32,008,31*72
$GPGSV,4,4,16,36,52,277,37,40,84,353,43,41,58,082,38,49,32,274,*74
$GLGSV,3,1,11,65,03,232,,70,01,015,13,71,26,338,31,72,30,280,31*62
$GLGSV,3,2,11,73,18,112,38,74,22,160,29,75,06,207,26,84,39,137,32*68
$GLGSV,3,3,11,85,71,040,36,86,21,345,30,,,,32*62
$GNGLL,0419.76697,S,05539.92646,E,132755.00,A,D*68
$GNGRS,132755.00,1,-4.8,1.3,0.5,-0.5,-1.1,-2.4,0.6,-1.9,-5.5,2.2,,*51
$GNGRS,132755.00,1,1.2,-1.3,11.9,3.3,-1.1,-0.5,-2.7,7.7,,,,*6F
$GNGST,132755.00,29,,,,1.4,1.5,2.7*41
$GNZDA,132755.00,19,05,2025,00,00*77
$GNGBS,132755.00,1.4,1.5,2.7,,,,*5C
b0XQ
#L-
F-t@!
$7R%<g*76   z{$4+Ta&:R &uAFbGRSHI&pJKT 'U$G(VY z?bQ
y3$GNRMC,132756.00,A,0419.76698,S,05539.92644,E,0.019,,190525,,,D*7D
$GNVTG,,T,,M,0.019,N,0.035,K,D*36
$GNGNS,132756.00,0419.76698,S,05539.92644,E,DA,17,0.61,8.0,-47.6,,0000*58
$GNGGA,132756.00,0419.76698,S,05539.92644,E,2,12,0.61,8.0,M,-47.6,M,,0000*71
$GNGSA,A,3,10,32,26,08,18,02,28,31,27,,,,1.12,0.61,0.94*1E
$GNGSA,A,3,86,73,74,84,71,85,72,75,,,,,1.12,0.61,0.94*1D
$GPGSV,4,1,16,02,05,332,35,04,09,227,,08,24,301,29,10,13,025,30*72
$GPGSV,4,2,16,16,24,215,,18,28,116,45,23,01,064,,26,29,184,33*7B
$GPGSV,4,3,16,27,55,269,36,28,60,103,37,31,55,165,42,32,32,008,32*71
$GPGSV,4,4,16,36,52,277,36,40,84,353,43,41,58,082,38,49,32,274,*75
$GLGSV,3,1,11,65,03,232,,70,01,015,07,71,26,338,31,72,30,280,31*67
$GLGSV,3,2,11,73,18,112,38,74,22,160,29,75,06,207,26,84,39,137,32*68
$GLGSV,3,3,11,85,71,040,36,86,21,345,30,,,,32*62
$GNGLL,0419.76698,S,05539.92644,E,132756.00,A,D*66
$GNGRS,132756.00,1,-9.5,1.2,1.4,-0.3,-1.1,-2.3,0.3,-2.0,3.4,,,*59
$GNGRS,132756.00,1,-0.3,-0.8,9.4,2.1,0.8,-0.4,-3.3,6.8,,,,*53
$GNGST,132756.00,21,,,,1.4,1.5,2.7*4A
$GNZDA,132756.00,19,05,2025,00,00*74
$GNGBS,132756.00,1.4,1.5,2.7,,,,*5F
b0XU
#L-
+t@$=
$7&'<g6)75 # d{$4+Ta':R #uBAF
GR
HI#p5JgKT'#U#G(VY!bU
a7z_$GNRMC,132757.00,A,0419.76698,S,05539.92642,E,0.032,,190525,,,D*73
$GNVTG,,T,,M,0.032,N,0.059,K,D*35
$GNGNS,132757.00,0419.76698,S,05539.92642,E,DA,17,0.61,7.9,-47.6,,0000*59
$GNGGA,132757.00,0419.76698,S,05539.92642,E,2,12,0.61,7.9,M,-47.6,M,,0000*70
$GNGSA,A,3,10,32,26,08,18,02,28,31,27,,,,1.12,0.61,0.94*1E
$GNGSA,A,3,86,73,74,84,71,85,72,75,,,,,1.12,0.61,0.94*1D
$GPGSV,4,1,16,02,05,332,35,04,09,227,,08,24,301,29,10,13,025,30*72
$GPGSV,4,2,16,16,24,215,20,18,28,116,43,23,01,064,,26,29,184,36*7A
$GPGSV,4,3,16,27,55,269,36,28,60,103,39,31,55,165,41,32,32,008,35*7B
$GPGSV,4,4,16,36,52,277,36,40,84,353,43,41,58,082,39,49,32,274,*74
$GLGSV,3,1,11,65,03,232,,70,01,015,10,71,26,338,31,72,30,280,31*61
$GLGSV,3,2,11,73,18,112,35,74,22,160,30,75,06,207,27,84,39,137,31*6F
$GLGSV,3,3,11,85,71,040,35,86,21,345,30,,,,33*60
$GNGLL,0419.76698,S,05539.92642,E,132757.00,A,D*61
$GNGRS,132757.00,1,-4.9,-1.6,0.6,-0.3,-1.0,-2.8,0.5,-2.0,2.9,,,*73
$GNGRS,132757.00,1,5.4,-2.0,8.7,2.9,2.7,-0.3,-5.3,9.0,,,,*76
$GNGST,132757.00,20,,,,1.4,1.5,2.7*4A
$GNZDA,132757.00,19,05,2025,00,00*75
$GNGBS,132757.00,1.4,1.5,2.7,,,,*5E
b0XY
$Lc-
M+t@$+
$7&<gK*7: " {$4+Ta&:R $uhAFG R,H!I#p@JIKT'U$G(VY#dbY
I;R$GNRMC,132758.00,A,0419.76698,S,05539.92642,E,0.016,,190525,,,D*7A
$GNVTG,,T,,M,0.016,N,0.030,K,D*3C
$GNGNS,132758.00,0419.76698,S,05539.92642,E,DA,17,0.61,7.9,-47.6,,0000*56
$GNGGA,132758.00,0419.76698,S,05539.92642,E,2,12,0.61,7.9,M,-47.6,M,,0000*7F
$GNGSA,A,3,10,32,26,08,18,02,28,31,27,,,,1.12,0.61,0.94*1E
$GNGSA,A,3,86,73,74,84,71,85,72,75,,,,,1.12,0.61,0.94*1D
$GPGSV,4,1,16,02,05,332,36,04,09,227,24,08,24,301,31,10,13,025,30*7E
$GPGSV,4,2,16,16,24,215,22,18,28,116,43,23,01,064,,26,29,184,36*78
$GPGSV,4,3,16,27,55,269,36,28,60,103,38,31,55,165,42,32,32,008,34*78
$GPGSV,4,4,16,36,52,277,36,40,84,353,43,41,58,082,38,49,32,274,*75
$GLGSV,3,1,11,65,03,232,,70,01,015,09,71,26,338,32,72,30,280,33*68
$GLGSV,3,2,11,73,18,112,35,74,22,160,29,75,06,207,28,84,39,138,31*67
$GLGSV,3,3,11,85,71,040,36,86,21,345,31,,,,35*64
$GNGLL,0419.76698,S,05539.92642,E,132758.00,A,D*6E
$GNGRS,132758.00,1,-5.4,-0.9,0.4,-0.9,-0.4,-2.7,0.8,-2.0,2.7,,,*7F
$GNGRS,132758.00,1,5.1,-1.9,11.0,-0.3,0.4,-0.2,-5.3,7.0,,,,*62
$GNGST,132758.00,19,,,,1.4,1.5,2.7*4F
$GNZDA,132758.00,19,05,2025,00,00*7A
$GNGBS,132758.00,1.4,1.5,2.7,,,,*51
b0Xh]
"L-H
-t@!3
7&<gO)7P # {4,Ta&:R %u{AF
SG RHI#pLJiKT'U%H*V Y bh]
1?*/$GNRMC,132759.00,A,0419.76699,S,05539.92642,E,0.036,,190525,,,D*78
$GNVTG,,T,,M,0.036,N,0.067,K,D*3C
$GNGNS,132759.00,0419.76699,S,05539.92642,E,DA,18,0.57,7.9,-47.6,,0000*5C
$GNGGA,132759.00,0419.76699,S,05539.92642,E,2,12,0.57,7.9,M,-47.6,M,,0000*7A
$GNGSA,A,3,10,32,26,08,18,02,28,31,16,27,,,1.10,0.57,0.94*1E
$GNGSA,A,3,86,73,74,84,71,85,72,75,,,,,1.10,0.57,0.94*1A
$GPGSV,4,1,16,02,05,332,34,04,09,227,25,08,24,301,26,10,13,025,31*7A
$GPGSV,4,2,16,16,24,215,21,18,28,116,45,23,01,064,,26,29,184,33*78
$GPGSV,4,3,16,27,55,269,28,28,60,103,38,31,55,165,41,32,32,008,35*75
$GPGSV,4,4,16,36,52,277,29,40,84,353,44,41,58,082,38,49,32,274,*7C
$GLGSV,3,1,11,65,03,232,,70,01,015,10,71,26,338,32,72,30,280,29*6B
$GLGSV,3,2,11,73,18,112,35,74,22,160,29,75,06,207,28,84,39,138,31*67
$GLGSV,3,3,11,85,72,042,37,86,21,345,32,,,,32*60
$GNGLL,0419.76699,S,05539.92642,E,132759.00,A,D*6E
$GNGRS,132759.00,1,-10.2,0.2,0.5,0.7,-0.3,-3.2,0.8,-1.8,12.6,1.9,,*56
$GNGRS,132759.00,1,7.1,-1.8,13.8,-1.1,2.2,0.1,-8.7,7.0,,,,*4A
$GNGST,132759.00,28,,,,1.4,1.5,2.6*4D
$GNZDA,132759.00,19,05,2025,00,00*7B
$GNGBS,132759.00,1.4,1.5,2.6,,,,*51
b0XPa
#L-
q-t@ !
7%<g,)7p $ {4,Ta%:R %uqAFG RHI$pNJAKT 'U%H*!V Y!^bPa
C$GNRMC,132800.00,A,0419.76697,S,05539.92641,E,0.026,,190525,,,D*77
$GNVTG,,T,,M,0.026,N,0.048,K,D*30
$GNGNS,132800.00,0419.76697,S,05539.92641,E,DA,18,0.57,7.8,-47.6,,0000*53
$GNGGA,132800.00,0419.76697,S,05539.92641,E,2,12,0.57,7.8,M,-47.6,M,,0000*75
$GNGSA,A,3,10,32,26,08,18,02,28,31,16,27,,,1.10,0.57,0.94*1E
$GNGSA,A,3,86,73,74,84,71,85,72,75,,,,,1.10,0.57,0.94*1A
$GPGSV,4,1,16,02,05,332,35,04,09,227,,08,24,301,28,10,13,025,31*72
$GPGSV,4,2,16,16,24,215,18,18,28,116,45,23,01,064,,26,29,184,32*73
$GPGSV,4,3,16,27,55,269,28,28,60,103,37,31,55,165,41,32,32,008,36*79
$GPGSV,4,4,16,36,52,277,31,40,84,353,44,41,58,082,37,49,32,274,*7A
$GLGSV,3,1,11,65,03,232,,70,01,015,09,71,26,338,32,72,30,280,30*6B
$GLGSV,3,2,11,73,18,112,36,74,22,160,29,75,06,207,29,84,39,138,32*66
$GLGSV,3,3,11,85,72,042,37,86,21,345,32,,,,33*61
$GNGLL,0419.76697,S,05539.92641,E,132800.00,A,D*60
$GNGRS,132800.00,1,-6.5,1.9,-2.2,0.2,-0.3,-3.3,0.4,-1.4,7.5,1.4,,*79
$GNGRS,132800.00,1,7.5,-1.8,10.9,-1.3,1.9,0.3,-8.4,7.5,,,,*41
$GNGST,132800.00,28,,,,1.4,1.5,2.6*4E
$GNZDA,132800.00,19,05,2025,00,00*78
$GNGBS,132800.00,1.4,1.5,2.6,,,,*52
b0X8e
#L-*
,t@ A
7$<g9)7 # { 4+Ta%:R %ugAFGRvH-I%pXJ3KT 'U%H*VY!b8e
G$GNRMC,132801.00,A,0419.76697,S,05539.92641,E,0.040,,190525,,,D*76
$GNVTG,,T,,M,0.040,N,0.073,K,D*38
$GNGNS,132801.00,0419.76697,S,05539.92641,E,DA,19,0.54,7.8,-47.6,,0000*50
$GNGGA,132801.00,0419.76697,S,05539.92641,E,2,12,0.54,7.8,M,-47.6,M,,0000*77
$GNGSA,A,3,10,32,26,08,18,02,28,31,16,04,27,,1.06,0.54,0.91*1B
$GNGSA,A,3,86,73,74,84,71,85,72,75,,,,,1.06,0.54,0.91*1B
$GPGSV,4,1,16,02,05,332,35,04,09,227,29,08,24,301,28,10,13,025,31*79
$GPGSV,4,2,16,16,24,215,16,18,28,116,44,23,01,064,,26,29,184,32*7C
$GPGSV,4,3,16,27,55,269,30,28,60,103,36,31,55,165,41,32,32,008,35*72
$GPGSV,4,4,16,36,52,277,32,40,84,353,43,41,58,082,37,49,32,274,*7E
$GLGSV,3,1,11,65,03,232,,70,01,015,11,71,26,338,31,72,30,280,30*61
$GLGSV,3,2,11,73,18,112,37,74,22,160,29,75,06,207,29,84,39,138,32*67
$GLGSV,3,3,11,85,72,042,37,86,21,345,31,,,,33*62
$GNGLL,0419.76697,S,05539.92641,E,132801.00,A,D*61
$GNGRS,132801.00,1,-8.0,0.0,0.6,-2.1,-0.5,-3.2,0.6,-1.1,0.0,14.6,1.7,*60
$GNGRS,132801.00,1,7.8,-1.7,8.2,-0.8,1.2,0.2,-7.2,7.3,,,,*7F
$GNGST,132801.00,34,,,,1.4,1.5,2.6*42
$GNZDA,132801.00,19,05,2025,00,00*79
$GNGBS,132801.00,1.4,1.5,2.6,,,,*53
b0X i
"L-
,t@
7$<gq)7 # { 4+Ta$:R $uoAF>GRHqI%pnJK}T 'U%H*VYd!b i
Jd$GNRMC,132802.00,A,0419.76698,S,05539.92640,E,0.053,,190525,,,D*79
$GNVTG,,T,,M,0.053,N,0.098,K,D*3F
$GNGNS,132802.00,0419.76698,S,05539.92640,E,DA,19,0.54,7.8,-47.6,,0000*5D
$GNGGA,132802.00,0419.76698,S,05539.92640,E,2,12,0.54,7.8,M,-47.6,M,,0000*7A
$GNGSA,A,3,10,32,26,08,18,02,28,31,16,04,27,,1.06,0.54,0.91*1B
$GNGSA,A,3,86,73,74,84,71,85,72,75,,,,,1.06,0.54,0.91*1B
$GPGSV,4,1,16,02,05,332,34,04,09,227,27,08,24,301,26,10,13,025,31*78
$GPGSV,4,2,16,16,24,215,14,18,28,116,44,23,01,064,,26,29,184,31*7D
$GPGSV,4,3,16,27,55,269,30,28,60,103,36,31,55,165,41,32,32,008,35*72
$GPGSV,4,4,16,36,52,277,32,40,84,353,43,41,58,082,36,49,32,274,*7F
$GLGSV,3,1,11,65,03,232,,70,01,015,09,71,26,338,31,72,30,280,30*68
$GLGSV,3,2,11,73,18,112,37,74,22,160,29,75,06,207,29,84,39,138,32*67
$GLGSV,3,3,11,85,72,042,37,86,21,345,30,,,,33*63
$GNGLL,0419.76698,S,05539.92640,E,132802.00,A,D*6C
$GNGRS,132802.00,1,-11.0,0.2,-0.4,2.2,-0.7,-3.1,1.1,-0.6,2.8,12.1,2.0,*56
$GNGRS,132802.00,1,8.7,-1.5,9.6,-0.6,1.3,0.0,-6.5,11.5,,,,*41
$GNGST,132802.00,34,,,,1.4,1.5,2.6*41
$GNZDA,132802.00,19,05,2025,00,00*7A
$GNGBS,132802.00,1.4,1.5,2.6,,,,*50
b0Xm
"L-C
j
C,t@ 
7$<gg)7 # { 4+Ta$:R %utAFGRHI%pjJ6KT 'U%H*VY sbm
N$GNRMC,132803.00,A,0419.76698,S,05539.92638,E,0.011,,190525,,,D*71
$GNVTG,,T,,M,0.011,N,0.020,K,D*3A
$GNGNS,132803.00,0419.76698,S,05539.92638,E,DA,19,0.54,7.7,-47.6,,0000*5C
$GNGGA,132803.00,0419.76698,S,05539.92638,E,2,12,0.54,7.7,M,-47.6,M,,0000*7B
$GNGSA,A,3,10,32,26,08,18,02,28,31,16,04,27,,1.06,0.54,0.91*1B
$GNGSA,A,3,86,73,74,84,71,85,72,75,,,,,1.06,0.54,0.91*1B
$GPGSV,4,1,16,02,05,332,34,04,09,227,26,08,24,301,26,10,13,025,31*79
$GPGSV,4,2,16,16,24,215,10,18,28,116,44,23,01,064,,26,29,184,32*7A
$GPGSV,4,3,16,27,55,269,29,28,60,103,36,31,55,165,41,32,32,008,35*7A
$GPGSV,4,4,16,36,52,277,32,40,84,353,43,41,58,082,36,49,32,274,*7F
$GLGSV,3,1,11,65,03,232,,70,01,015,09,71,26,338,31,72,30,280,30*68
$GLGSV,3,2,11,73,18,112,37,74,22,160,29,75,06,207,29,84,39,138,32*67
$GLGSV,3,3,11,85,72,042,37,86,21,345,31,,,,32*63
$GNGLL,0419.76698,S,05539.92638,E,132803.00,A,D*62
$GNGRS,132803.00,1,-6.6,-1.1,-2.7,-1.9,-0.8,-3.1,1.0,-0.4,8.3,9.7,4.1,*5A
$GNGRS,132803.00,1,10.0,-1.5,10.8,-0.5,1.5,0.0,-2.8,7.5,,,,*73
$GNGST,132803.00,36,,,,1.4,1.5,2.6*42
$GNZDA,132803.00,19,05,2025,00,00*7B
$GNGBS,132803.00,1.4,1.5,2.6,,,,*51
b0Xp
#L9-
,t@ 
7`$<g])7 " { 4+Ta$:R $uAFGRHsI$pPJK-T 'U%H*VY Nbp
R`%$GNRMC,132804.00,A,0419.76700,S,05539.92636,E,0.019,,190525,,,D*70
$GNVTG,,T,,M,0.019,N,0.036,K,D*35
$GNGNS,132804.00,0419.76700,S,05539.92636,E,DA,18,0.57,7.7,-47.6,,0000*57
$GNGGA,132804.00,0419.76700,S,05539.92636,E,2,12,0.57,7.7,M,-47.6,M,,0000*71
$GNGSA,A,3,10,32,26,08,18,02,28,31,04,27,,,1.07,0.57,0.91*1E
$GNGSA,A,3,86,73,74,84,71,85,72,75,,,,,1.07,0.57,0.91*19
$GPGSV,4,1,16,02,05,332,35,04,09,227,25,08,24,301,25,10,13,025,31*78
$GPGSV,4,2,16,16,24,215,08,18,28,116,44,23,01,064,,26,29,184,32*73
$GPGSV,4,3,16,27,55,269,29,28,60,103,36,31,55,165,41,32,32,008,34*7B
$GPGSV,4,4,16,36,52,277,32,40,84,353,43,41,58,082,36,49,32,274,*7F
$GLGSV,3,1,11,65,03,232,,70,01,015,09,71,26,338,30,72,30,280,29*61
$GLGSV,3,2,11,73,18,112,36,74,22,160,29,75,06,207,29,84,39,138,32*66
$GLGSV,3,3,11,85,72,042,37,86,21,345,30,,,,32*62
$GNGLL,0419.76700,S,05539.92636,E,132804.00,A,D*6B
$GNGRS,132804.00,1,-6.3,-0.9,-1.1,4.5,-1.0,-3.2,0.9,-0.1,10.8,3.5,,*66
$GNGRS,132804.00,1,9.3,-1.8,14.9,-0.3,1.3,0.0,-4.0,5.6,,,,*48
$GNGST,132804.00,24,,,,1.4,1.5,2.6*46
$GNZDA,132804.00,19,05,2025,00,00*7C
$GNGBS,132804.00,1.4,1.5,2.6,,,,*56
b0Xt
#Lz-/
v",t@ /
7,$<gc)7 " { 4,Ta$:R $uyAF9GRHI$pKJOKT 'U%H*VY 8Cbt
V8$GNRMC,132805.00,A,0419.76701,S,05539.92635,E,0.031,,190525,,,D*79
$GNVTG,,T,,M,0.031,N,0.058,K,D*37
$GNGNS,132805.00,0419.76701,S,05539.92635,E,DA,18,0.57,7.7,-47.6,,0000*54
$GNGGA,132805.00,0419.76701,S,05539.92635,E,2,12,0.57,7.7,M,-47.6,M,,0000*72
$GNGSA,A,3,10,32,26,08,18,02,28,31,04,27,,,1.07,0.57,0.91*1E
$GNGSA,A,3,86,73,74,84,71,85,72,75,,,,,1.07,0.57,0.91*19
$GPGSV,4,1,16,02,05,332,35,04,09,227,25,08,24,301,24,10,13,025,31*79
$GPGSV,4,2,16,16,24,215,08,18,28,116,44,23,01,064,,26,29,184,32*73
$GPGSV,4,3,16,27,55,269,29,28,60,103,36,31,55,165,41,32,32,008,34*7B
$GPGSV,4,4,16,36,52,277,32,40,84,353,44,41,58,082,36,49,32,274,*78
$GLGSV,3,1,11,65,03,232,,70,01,015,07,71,26,338,30,72,30,280,30*67
$GLGSV,3,2,11,73,18,112,36,74,22,160,30,75,06,207,29,84,39,138,32*6E
$GLGSV,3,3,11,85,72,042,37,86,21,345,30,,,,32*62
$GNGLL,0419.76701,S,05539.92635,E,132805.00,A,D*68
$GNGRS,132805.00,1,-9.1,-0.2,-2.1,5.6,-1.0,-3.4,1.0,-0.1,3.8,5.6,,*59
$GNGRS,132805.00,1,9.3,-1.8,13.6,-0.1,2.2,-0.3,-8.7,7.4,,,,*64
$GNGST,132805.00,24,,,,1.4,1.5,2.6*47
$GNZDA,132805.00,19,05,2025,00,00*7D
$GNGBS,132805.00,1.4,1.5,2.6,,,,*57
b0Xx
#L-
%",t@ 
7$<gs)7 " { 4+Ta$:R %uvAFGRHI$pKJPKT 'U%H*VY 6bx
Z$GNRMC,132806.00,A,0419.76703,S,05539.92634,E,0.043,,190525,,,D*7C
$GNVTG,,T,,M,0.043,N,0.079,K,D*31
$GNGNS,132806.00,0419.76703,S,05539.92634,E,DA,18,0.57,7.7,-47.6,,0000*54
$GNGGA,132806.00,0419.76703,S,05539.92634,E,2,12,0.57,7.7,M,-47.6,M,,0000*72
$GNGSA,A,3,10,32,26,08,18,02,28,31,04,27,,,1.07,0.57,0.91*1E
$GNGSA,A,3,86,73,74,84,71,85,72,75,,,,,1.07,0.57,0.91*19
$GPGSV,4,1,16,02,05,332,35,04,09,227,25,08,24,301,24,10,13,025,31*79
$GPGSV,4,2,16,16,24,215,07,18,28,116,44,23,01,064,,26,29,184,32*7C
$GPGSV,4,3,16,27,55,269,29,28,60,103,36,31,55,165,41,32,32,008,34*7B
$GPGSV,4,4,16,36,52,277,32,40,84,353,43,41,58,082,36,49,32,274,*7F
$GLGSV,3,1,11,65,03,232,,70,01,015,11,71,26,338,30,72,30,280,30*60
$GLGSV,3,2,11,73,18,112,36,74,22,160,30,75,06,207,29,84,39,138,32*6E
$GLGSV,3,3,11,85,72,042,37,86,21,345,31,,,,32*63
$GNGLL,0419.76703,S,05539.92634,E,132806.00,A,D*68
$GNGRS,132806.00,1,-9.9,-0.1,-1.0,7.1,-0.9,-3.5,1.2,-0.4,-0.8,4.3,,*72
$GNGRS,132806.00,1,4.1,-1.8,13.6,0.0,4.7,-0.5,-10.7,5.0,,,,*7E
$GNGST,132806.00,24,,,,1.4,1.5,2.6*44
$GNZDA,132806.00,19,05,2025,00,00*7E
$GNGBS,132806.00,1.4,1.5,2.6,,,,*54
b0X|
#L#-
J
,t@ D
7%<gt)7 " { 4,Ta%:R $u~AF
GR}H(I$p]JKT '!U%H*VY wb|
q^]$GNRMC,132807.00,A,0419.76704,S,05539.92632,E,0.012,,190525,,,D*78
$GNVTG,,T,,M,0.012,N,0.021,K,D*38
$GNGNS,132807.00,0419.76704,S,05539.92632,E,DA,19,0.54,7.6,-47.6,,0000*57
$GNGGA,132807.00,0419.76704,S,05539.92632,E,2,12,0.54,7.6,M,-47.6,M,,0000*70
$GNGSA,A,3,10,32,26,08,18,02,28,31,16,04,27,,1.06,0.54,0.91*1B
$GNGSA,A,3,86,73,74,84,71,85,72,75,,,,,1.06,0.54,0.91*1B
$GPGSV,4,1,16,02,05,332,35,04,09,227,25,08,24,301,24,10,13,025,31*79
$GPGSV,4,2,16,16,24,215,10,18,28,116,44,23,01,064,,26,29,184,32*7A
$GPGSV,4,3,16,27,55,269,29,28,60,103,37,31,55,165,41,32,32,008,34*7A
$GPGSV,4,4,16,36,52,277,32,40,84,353,44,41,58,082,37,49,32,274,*79
$GLGSV,3,1,11,65,03,232,,70,01,015,10,71,26,338,30,72,30,280,29*69
$GLGSV,3,2,11,73,18,112,36,74,22,160,29,75,06,207,30,84,39,138,32*6E
$GLGSV,3,3,11,85,72,042,37,86,21,345,31,,,,32*63
$GNGLL,0419.76704,S,05539.92632,E,132807.00,A,D*68
$GNGRS,132807.00,1,-9.5,-0.2,0.7,9.5,-1.0,-3.6,1.2,-0.5,4.3,-2.2,1.6,*76
$GNGRS,132807.00,1,5.0,-1.6,11.8,0.3,6.4,-0.4,-9.8,4.2,,,,*4A
$GNGST,132807.00,33,,,,1.4,1.5,2.6*43
$GNZDA,132807.00,19,05,2025,00,00*7F
$GNGBS,132807.00,1.4,1.5,2.6,,,,*55
b0X
#L-
F),t@
7$<gX)7 " { 4,Ta%:R $ugAFGRHsI$pcJ#KT '(U%H*VY
 .b
Yb$GNRMC,132808.00,A,0419.76705,S,05539.92631,E,0.014,,190525,,,D*73
$GNVTG,,T,,M,0.014,N,0.026,K,D*39
$GNGNS,132808.00,0419.76705,S,05539.92631,E,DA,18,0.57,7.6,-47.6,,0000*58
$GNGGA,132808.00,0419.76705,S,05539.92631,E,2,12,0.57,7.6,M,-47.6,M,,0000*7E
$GNGSA,A,3,10,32,26,08,18,02,28,31,04,27,,,1.07,0.57,0.91*1E
$GNGSA,A,3,86,73,74,84,71,85,72,75,,,,,1.07,0.57,0.91*19
$GPGSV,4,1,16,02,05,332,35,04,09,227,25,08,24,301,24,10,13,025,31*79
$GPGSV,4,2,16,16,24,215,09,18,28,116,44,23,01,064,,26,29,184,31*71
$GPGSV,4,3,16,27,55,269,29,28,60,103,36,31,55,165,41,32,32,008,34*7B
$GPGSV,4,4,16,36,52,277,32,40,84,353,44,41,58,082,37,49,32,274,*79
$GLGSV,3,1,11,65,03,232,,70,01,015,09,71,26,338,30,72,30,280,29*61
$GLGSV,3,2,11,73,18,112,36,74,22,160,29,75,06,207,30,84,39,138,32*6E
$GLGSV,3,3,11,85,72,042,37,86,21,345,31,,,,32*63
$GNGLL,0419.76705,S,05539.92631,E,132808.00,A,D*65
$GNGRS,132808.00,1,-9.5,-0.4,2.1,9.0,-0.8,-3.6,0.9,-1.1,-5.7,7.6,,*55
$GNGRS,132808.00,1,7.8,-1.6,10.6,0.4,2.1,-0.4,-6.5,4.1,,,,*47
$GNGST,132808.00,24,,,,1.4,1.5,2.6*4A
$GNZDA,132808.00,19,05,2025,00,00*70
$GNGBS,132808.00,1.4,1.5,2.6,,,,*5A
b0Xx
#L-x
\
,t@x
7$<gQ)7 " { 4,Ta%:R $uZAF
GRH)I$puJKT '2U%H*VY[ bx
Af-$GNRMC,132809.00,A,0419.76705,S,05539.92630,E,0.019,,190525,,,D*7E
$GNVTG,,T,,M,0.019,N,0.036,K,D*35
$GNGNS,132809.00,0419.76705,S,05539.92630,E,DA,18,0.57,7.5,-47.6,,0000*5B
$GNGGA,132809.00,0419.76705,S,05539.92630,E,2,12,0.57,7.5,M,-47.6,M,,0000*7D
$GNGSA,A,3,10,32,26,08,18,02,28,31,04,27,,,1.07,0.57,0.91*1E
$GNGSA,A,3,86,73,74,84,71,85,72,75,,,,,1.07,0.57,0.91*19
$GPGSV,4,1,16,02,05,332,35,04,09,227,25,08,24,301,24,10,13,025,31*79
$GPGSV,4,2,16,16,24,215,10,18,28,116,44,23,01,064,,26,29,184,31*79
$GPGSV,4,3,16,27,55,269,29,28,60,103,36,31,55,165,41,32,32,008,34*7B
$GPGSV,4,4,16,36,52,277,32,40,84,353,44,41,58,082,37,49,32,274,*79
$GLGSV,3,1,11,65,03,232,,70,01,015,10,71,26,338,31,72,30,280,29*68
$GLGSV,3,2,11,73,18,112,36,74,22,160,29,75,06,207,30,84,39,138,32*6E
$GLGSV,3,3,11,85,72,042,37,86,21,345,30,,,,32*62
$GNGLL,0419.76705,S,05539.92630,E,132809.00,A,D*65
$GNGRS,132809.00,1,-9.3,0.0,1.2,6.3,-0.8,-3.4,0.8,-1.3,-1.3,2.8,,*7D
$GNGRS,132809.00,1,11.1,-1.4,11.5,0.5,-0.1,0.0,-7.3,5.0,,,,*78
$GNGST,132809.00,24,,,,1.4,1.5,2.6*4B
$GNZDA,132809.00,19,05,2025,00,00*71
$GNGBS,132809.00,1.4,1.5,2.6,,,,*5B
b0X`
"L,
g,t@ 
7/$<g^)7q # { 4,Ta%:R $u`AF
GRHI$pJQK[T '9U%H*VYb`
)jp$GNRMC,132810.00,A,0419.76705,S,05539.92628,E,0.034,,190525,,,D*70
$GNVTG,,T,,M,0.034,N,0.063,K,D*3A
$GNGNS,132810.00,0419.76705,S,05539.92628,E,DA,18,0.57,7.5,-47.6,,0000*5A
$GNGGA,132810.00,0419.76705,S,05539.92628,E,2,12,0.57,7.5,M,-47.6,M,,0000*7C
$GNGSA,A,3,10,32,26,08,18,02,28,31,04,27,,,1.07,0.57,0.91*1E
$GNGSA,A,3,86,73,74,84,71,85,72,75,,,,,1.07,0.57,0.91*19
$GPGSV,4,1,16,02,05,332,34,04,09,227,25,08,24,300,23,10,13,025,31*7E
$GPGSV,4,2,16,16,24,215,12,18,28,116,44,23,01,064,,26,29,184,32*78
$GPGSV,4,3,16,27,55,269,29,28,60,103,36,31,55,165,41,32,32,008,35*7A
$GPGSV,4,4,16,36,52,277,32,40,84,353,44,41,58,082,37,49,32,274,*79
$GLGSV,3,1,11,65,03,232,,70,01,015,10,71,26,338,31,72,30,280,29*68
$GLGSV,3,2,11,73,18,112,36,74,22,160,29,75,06,207,30,84,39,138,32*6E
$GLGSV,3,3,11,85,72,042,37,86,21,345,31,,,,31*60
$GNGLL,0419.76705,S,05539.92628,E,132810.00,A,D*64
$GNGRS,132810.00,1,-9.2,0.1,-2.4,5.4,-0.5,-3.3,0.9,-1.4,1.3,5.6,,*71
$GNGRS,132810.00,1,7.5,-1.2,11.0,0.6,-0.4,-0.2,-3.4,6.0,,,,*69
$GNGST,132810.00,24,,,,1.4,1.5,2.6*43
$GNZDA,132810.00,19,05,2025,00,00*79
$GNGBS,132810.00,1.4,1.5,2.6,,,,*53
b0XH
LE,
]*t@ ,
7#!<g&7L " {4)Ta":R "ucAF:EGR\HI#pJOK^T'KU$H*VYN9bH
nH$GNRMC,132811.00,A,0419.76706,S,05539.92628,E,0.009,,190525,,,D*7C
$GNVTG,,T,,M,0.009,N,0.016,K,D*36
$GNGNS,132811.00,0419.76706,S,05539.92628,E,DA,18,0.57,7.5,-47.6,,0000*58
$GNGGA,132811.00,0419.76706,S,05539.92628,E,2,12,0.57,7.5,M,-47.6,M,,0000*7E
$GNGSA,A,3,10,32,26,08,18,02,28,31,04,27,,,1.07,0.57,0.91*1E
$GNGSA,A,3,86,73,74,84,71,85,72,75,,,,,1.07,0.57,0.91*19
$GPGSV,4,1,16,02,05,332,30,04,09,227,24,08,24,300,21,10,13,025,31*79
$GPGSV,4,2,16,16,24,215,13,18,28,116,42,23,01,064,,26,29,184,32*7F
$GPGSV,4,3,16,27,55,269,29,28,60,103,33,31,55,165,38,32,32,008,34*70
$GPGSV,4,4,16,36,52,277,31,40,84,353,41,41,58,082,34,49,32,274,*7C
$GLGSV,3,1,11,65,03,232,,70,01,015,11,71,26,338,30,72,30,280,28*69
$GLGSV,3,2,11,73,18,112,35,74,22,160,29,75,06,207,29,84,39,138,31*66
$GLGSV,3,3,11,85,72,042,36,86,21,345,30,,,,30*61
$GNGLL,0419.76706,S,05539.92628,E,132811.00,A,D*66
$GNGRS,132811.00,1,-9.3,0.3,0.4,2.6,-0.5,-2.7,1.4,-1.8,0.7,0.3,,*59
$GNGRS,132811.00,1,5.9,-0.8,11.0,0.7,-4.2,0.0,-0.9,3.5,,,,*4F
$GNGST,132811.00,26,,,,1.4,1.5,2.6*40
$GNZDA,132811.00,19,05,2025,00,00*78
$GNGBS,132811.00,1.4,1.5,2.6,,,,*52
b0X0
"L,
 z,t@!
7J$<g)7Y # #{ 4,Ta%:R %uqAFGRHI#pJ&KT 'cU%H*'VY*&b0
qb$GNRMC,132812.00,A,0419.76706,S,05539.92628,E,0.031,,190525,,,D*74
$GNVTG,,T,,M,0.031,N,0.057,K,D*38
$GNGNS,132812.00,0419.76706,S,05539.92628,E,DA,19,0.54,7.4,-47.6,,0000*58
$GNGGA,132812.00,0419.76706,S,05539.92628,E,2,12,0.54,7.4,M,-47.6,M,,0000*7F
$GNGSA,A,3,10,32,26,08,18,02,28,31,16,04,27,,1.06,0.54,0.91*1B
$GNGSA,A,3,86,73,74,84,71,85,72,75,,,,,1.06,0.54,0.91*1B
$GPGSV,4,1,16,02,05,332,34,04,09,227,24,08,24,300,18,10,13,026,32*77
$GPGSV,4,2,16,16,24,215,15,18,28,116,44,23,01,064,,26,29,184,33*7E
$GPGSV,4,3,16,27,55,269,29,28,60,103,36,31,55,165,41,32,32,008,35*7A
$GPGSV,4,4,16,36,52,277,32,40,84,353,44,41,58,082,37,49,32,274,*79
$GLGSV,3,1,11,65,03,232,,70,01,015,09,71,26,338,30,72,30,280,28*60
$GLGSV,3,2,11,73,18,112,35,74,22,160,29,75,06,207,29,84,39,138,32*65
$GLGSV,3,3,11,85,72,042,37,86,21,345,30,,,,29*68
$GNGLL,0419.76706,S,05539.92628,E,132812.00,A,D*65
$GNGRS,132812.00,1,-9.0,0.3,-0.1,2.6,-0.5,-0.4,1.5,-1.7,1.8,2.0,0.7,*58
$GNGRS,132812.00,1,7.0,-0.4,10.6,3.6,-5.3,0.4,-2.4,1.9,,,,*4B
$GNGST,132812.00,34,,,,1.3,1.5,2.6*47
$GNZDA,132812.00,19,05,2025,00,00*7B
$GNGBS,132812.00,1.3,1.5,2.6,,,,*56
b0X
"L,R
 -t@!
7%<g)7C # ${ 4,Ta%:R %uAFGRHI$pJCKT 'U%H*PVYb
u$GNRMC,132813.00,A,0419.76706,S,05539.92628,E,0.014,,190525,,,D*72
$GNVTG,,T,,M,0.014,N,0.026,K,D*39
$GNGNS,132813.00,0419.76706,S,05539.92628,E,DA,19,0.54,7.4,-47.6,,0000*59
$GNGGA,132813.00,0419.76706,S,05539.92628,E,2,12,0.54,7.4,M,-47.6,M,,0000*7E
$GNGSA,A,3,10,32,26,08,18,02,28,31,16,04,27,,1.06,0.54,0.91*1B
$GNGSA,A,3,86,73,74,84,71,85,72,75,,,,,1.06,0.54,0.91*1B
$GPGSV,4,1,16,02,05,332,34,04,09,227,25,08,24,300,17,10,13,026,32*79
$GPGSV,4,2,16,16,24,215,17,18,28,116,45,23,01,064,,26,29,184,33*7D
$GPGSV,4,3,16,27,55,269,30,28,60,103,37,31,55,165,41,32,32,008,35*73
$GPGSV,4,4,16,36,52,277,32,40,84,353,44,41,58,082,37,49,32,274,*79
$GLGSV,3,1,11,65,03,232,,70,01,015,12,71,26,338,29,72,30,280,28*62
$GLGSV,3,2,11,73,18,112,36,74,22,160,29,75,06,207,29,84,39,138,32*66
$GLGSV,3,3,11,85,72,042,37,86,21,345,30,,,,29*68
$GNGLL,0419.76706,S,05539.92628,E,132813.00,A,D*64
$GNGRS,132813.00,1,-8.9,0.4,0.1,-1.7,-0.3,-2.8,1.5,-1.9,0.3,2.3,2.7,*59
$GNGRS,132813.00,1,7.8,-0.3,10.9,7.0,-3.5,0.8,-2.6,4.7,,,,*4D
$GNGST,132813.00,35,,,,1.3,1.5,2.6*47
$GNZDA,132813.00,19,05,2025,00,00*7A
$GNGBS,132813.00,1.3,1.5,2.6,,,,*57
b0X
"L]H,
 W,t@!
7D$<g)7d # O{ 4,Ta%:R %uAFTGRHI$pJcKT 'U%H*eVYb
y2$GNRMC,132814.00,A,0419.76708,S,05539.92627,E,0.085,,190525,,,D*7C
$GNVTG,,T,,M,0.085,N,0.157,K,D*36
$GNGNS,132814.00,0419.76708,S,05539.92627,E,DA,18,0.57,7.4,-47.6,,0000*5D
$GNGGA,132814.00,0419.76708,S,05539.92627,E,2,12,0.57,7.4,M,-47.6,M,,0000*7B
$GNGSA,A,3,10,32,26,08,18,02,28,31,04,27,,,1.07,0.57,0.91*1E
$GNGSA,A,3,86,73,74,84,71,85,72,75,,,,,1.07,0.57,0.91*19
$GPGSV,4,1,16,02,05,332,34,04,09,227,25,08,24,300,19,10,13,026,32*77
$GPGSV,4,2,16,16,24,215,,18,28,116,44,23,01,064,,26,29,184,33*7A
$GPGSV,4,3,16,27,55,269,30,28,60,103,36,31,55,165,41,32,32,008,35*72
$GPGSV,4,4,16,36,52,277,32,40,84,353,44,41,58,082,37,49,32,274,*79
$GLGSV,3,1,11,65,03,232,,70,01,015,09,71,26,338,30,72,30,280,28*60
$GLGSV,3,2,11,73,18,112,36,74,22,160,29,75,06,207,30,84,39,138,32*6E
$GLGSV,3,3,11,85,72,042,37,86,21,345,30,,,,30*60
$GNGLL,0419.76708,S,05539.92627,E,132814.00,A,D*62
$GNGRS,132814.00,1,-9.4,0.8,-0.7,-2.3,-0.1,-6.7,1.9,-1.6,3.3,0.7,,*56
$GNGRS,132814.00,1,5.1,-0.1,11.2,4.9,-0.4,1.0,-2.5,4.2,,,,*4E
$GNGST,132814.00,28,,,,1.3,1.5,2.6*4C
$GNZDA,132814.00,19,05,2025,00,00*7D
$GNGBS,132814.00,1.3,1.5,2.6,,,,*50
b0X
"Ln,

 
-t@!
7f%<g)7{ # e{ 4,Ta%:R %uAF
GRcH#I$pJlK}T 'U%H*qVYVb
}$GNRMC,132815.00,A,0419.76709,S,05539.92626,E,0.059,,190525,,,D*7C
$GNVTG,,T,,M,0.059,N,0.110,K,D*34
$GNGNS,132815.00,0419.76709,S,05539.92626,E,DA,18,0.57,7.3,-47.6,,0000*5B
$GNGGA,132815.00,0419.76709,S,05539.92626,E,2,12,0.57,7.3,M,-47.6,M,,0000*7D
$GNGSA,A,3,10,32,26,08,18,02,28,31,04,27,,,1.07,0.57,0.91*1E
$GNGSA,A,3,86,73,74,84,71,85,72,75,,,,,1.07,0.57,0.91*19
$GPGSV,4,1,16,02,05,332,34,04,09,227,25,08,24,300,18,10,13,026,32*76
$GPGSV,4,2,16,16,24,215,17,18,28,116,45,23,01,064,,26,29,184,33*7D
$GPGSV,4,3,16,27,55,269,30,28,60,103,37,31,55,165,41,32,32,008,35*73
$GPGSV,4,4,16,36,52,277,32,40,84,353,44,41,58,082,37,49,32,274,*79
$GLGSV,3,1,11,65,03,232,,70,01,015,09,71,26,338,30,72,30,280,28*60
$GLGSV,3,2,11,73,18,112,36,74,22,160,29,75,06,207,29,84,39,138,32*66
$GLGSV,3,3,11,85,72,042,37,86,21,345,31,,,,30*61
$GNGLL,0419.76709,S,05539.92626,E,132815.00,A,D*63
$GNGRS,132815.00,1,-7.6,1.0,2.3,-2.5,-0.3,-3.7,1.8,-1.3,3.7,3.6,,*7A
$GNGRS,132815.00,1,3.4,-0.1,11.3,6.6,3.6,1.1,-2.2,6.4,,,,*6E
$GNGST,132815.00,29,,,,1.3,1.5,2.5*4F
$GNZDA,132815.00,19,05,2025,00,00*7C
$GNGBS,132815.00,1.3,1.5,2.5,,,,*52
b0X
"Lg,v
 >-t@!
7$<g)7 # g{!4,Ta%:R %uAFGRHI$p"JkKdT 'YU%H*VYBkb
~$GNRMC,132816.00,A,0419.76710,S,05539.92625,E,0.014,,190525,,,D*7D
$GNVTG,,T,,M,0.014,N,0.026,K,D*39
$GNGNS,132816.00,0419.76710,S,05539.92625,E,DA,17,0.61,7.3,-47.6,,0000*59
$GNGGA,132816.00,0419.76710,S,05539.92625,E,2,12,0.61,7.3,M,-47.6,M,,0000*70
$GNGSA,A,3,10,32,26,08,18,02,28,31,27,,,,1.12,0.61,0.94*1E
$GNGSA,A,3,86,73,74,84,71,85,72,75,,,,,1.12,0.61,0.94*1D
$GPGSV,4,1,16,02,05,332,34,04,09,227,24,08,24,300,18,10,13,026,32*77
$GPGSV,4,2,16,16,24,215,19,18,28,116,45,23,01,064,,26,29,184,33*73
$GPGSV,4,3,16,27,55,269,31,28,60,103,36,31,55,165,41,32,32,008,35*73
$GPGSV,4,4,16,36,52,277,33,40,84,353,44,41,58,082,37,49,32,274,*78
$GLGSV,3,1,11,65,03,232,,70,01,015,07,71,26,338,30,72,30,280,28*6E
$GLGSV,3,2,11,73,18,112,36,74,22,160,29,75,06,207,29,84,39,138,32*66
$GLGSV,3,3,11,85,72,042,37,86,21,345,31,,,,29*69
$GNGLL,0419.76710,S,05539.92625,E,132816.00,A,D*6B
$GNGRS,132816.00,1,-5.9,1.0,2.0,-3.9,-0.6,-3.2,1.5,-1.2,2.0,,,*5B
$GNGRS,132816.00,1,0.7,0.3,11.3,6.0,2.5,1.5,-3.4,6.1,,,,*40
$GNGST,132816.00,27,,,,1.3,1.5,2.5*42
$GNZDA,132816.00,19,05,2025,00,00*7F
$GNGBS,132816.00,1.3,1.5,2.5,,,,*51
b0X
#Lo,
 b-t@ 
7%<g)7 # i{!4,Ta%:R %uAF
oGRHI#pFJKT 'U%H*VYb
V[$GNRMC,132817.00,A,0419.76710,S,05539.92625,E,0.014,,190525,,,D*7C
$GNVTG,,T,,M,0.014,N,0.025,K,D*3A
$GNGNS,132817.00,0419.76710,S,05539.92625,E,DA,17,0.61,7.3,-47.6,,0000*58
$GNGGA,132817.00,0419.76710,S,05539.92625,E,2,12,0.61,7.3,M,-47.6,M,,0000*71
$GNGSA,A,3,10,32,26,08,18,02,28,31,27,,,,1.12,0.61,0.94*1E
$GNGSA,A,3,86,73,74,84,71,85,72,75,,,,,1.12,0.61,0.94*1D
$GPGSV,4,1,16,02,05,332,35,04,09,227,24,08,24,300,18,10,13,026,32*76
$GPGSV,4,2,16,16,24,215,19,18,28,116,45,23,01,064,,26,29,184,32*72
$GPGSV,4,3,16,27,55,269,31,28,60,103,37,31,55,165,41,32,32,008,35*72
$GPGSV,4,4,16,36,52,277,33,40,84,353,44,41,58,082,37,49,32,274,*78
$GLGSV,3,1,11,65,03,232,,70,01,015,10,71,26,338,30,72,30,280,28*68
$GLGSV,3,2,11,73,18,112,35,74,22,160,29,75,06,207,29,84,39,138,32*65
$GLGSV,3,3,11,85,72,042,37,86,21,345,31,,,,30*61
$GNGLL,0419.76710,S,05539.92625,E,132817.00,A,D*6A
$GNGRS,132817.00,1,-4.1,1.0,1.4,-2.8,-0.7,-3.1,1.4,-1.1,1.5,,,*52
$GNGRS,132817.00,1,-3.2,0.7,11.7,7.0,4.6,1.7,-3.7,7.5,,,,*6A
$GNGST,132817.00,27,,,,1.3,1.5,2.5*43
$GNZDA,132817.00,19,05,2025,00,00*7E
$GNGBS,132817.00,1.3,1.5,2.5,,,,*50
b0X
"L,$
 -t@ h
7%<g)7 # f{ 4,Ta%:R %umAFGRVHI$p6JKT 'gU%H*VY@b
i.$GNRMC,132818.00,A,0419.76712,S,05539.92625,E,0.034,,190525,,,D*73
$GNVTG,,T,,M,0.034,N,0.064,K,D*3D
$GNGNS,132818.00,0419.76712,S,05539.92625,E,DA,19,0.57,7.3,-47.6,,0000*5E
$GNGGA,132818.00,0419.76712,S,05539.92625,E,2,12,0.57,7.3,M,-47.6,M,,0000*79
$GNGSA,A,3,10,32,26,08,18,02,28,31,16,04,27,,1.07,0.57,0.91*19
$GNGSA,A,3,86,73,74,84,71,85,72,75,,,,,1.07,0.57,0.91*19
$GPGSV,4,1,16,02,05,332,34,04,09,227,23,08,24,300,17,10,13,026,32*7F
$GPGSV,4,2,16,16,24,214,19,18,28,116,45,23,01,064,,26,29,184,32*73
$GPGSV,4,3,16,27,55,269,31,28,60,103,37,31,55,165,41,32,32,008,35*72
$GPGSV,4,4,16,36,52,277,32,40,84,353,44,41,58,082,37,49,32,274,*79
$GLGSV,3,1,11,65,03,232,,70,01,015,09,71,26,338,30,72,30,280,28*60
$GLGSV,3,2,11,73,18,112,36,74,22,160,29,75,06,207,29,84,39,138,32*66
$GLGSV,3,3,11,85,72,042,37,86,21,345,31,,,,30*61
$GNGLL,0419.76712,S,05539.92625,E,132818.00,A,D*67
$GNGRS,132818.00,1,-10.5,1.0,1.0,-2.2,-0.7,-2.6,1.6,-0.9,-26.6,2.2,-3.7,*5D
$GNGRS,132818.00,1,1.6,0.5,12.0,6.1,-1.7,1.5,-3.1,12.3,,,,*57
$GNGST,132818.00,30,,,,1.3,1.5,2.5*4A
$GNZDA,132818.00,19,05,2025,00,00*71
$GNGBS,132818.00,1.3,1.5,2.5,,,,*5F
b0X
"L
,n
 -t@ 
7%<g)7 # p{ 4,Ta%:R %uqAFGRHI$p4JKKT 'U%H*zVYT<b
Q+$GNRMC,132819.00,A,0419.76714,S,05539.92624,E,0.030,,190525,,,D*71
$GNVTG,,T,,M,0.030,N,0.055,K,D*3B
$GNGNS,132819.00,0419.76714,S,05539.92624,E,DA,19,0.54,7.3,-47.6,,0000*5B
$GNGGA,132819.00,0419.76714,S,05539.92624,E,2,12,0.54,7.3,M,-47.6,M,,0000*7C
$GNGSA,A,3,10,32,26,08,18,02,28,31,16,04,27,,1.06,0.54,0.91*1B
$GNGSA,A,3,86,73,74,84,71,85,72,75,,,,,1.06,0.54,0.91*1B
$GPGSV,4,1,16,02,05,332,34,04,09,227,23,08,24,300,16,10,13,026,32*7E
$GPGSV,4,2,16,16,24,214,19,18,28,116,45,23,01,064,,26,29,184,32*73
$GPGSV,4,3,16,27,55,269,30,28,60,103,37,31,55,165,41,32,32,008,35*73
$GPGSV,4,4,16,36,52,277,32,40,84,353,44,41,58,082,37,49,32,274,*79
$GLGSV,3,1,11,65,03,232,,70,01,015,09,71,26,338,30,72,30,280,28*60
$GLGSV,3,2,11,73,18,112,36,74,22,160,29,75,06,207,29,84,39,138,32*66
$GLGSV,3,3,11,85,72,042,37,86,21,345,31,,,,29*69
$GNGLL,0419.76714,S,05539.92624,E,132819.00,A,D*61
$GNGRS,132819.00,1,-11.1,1.1,1.6,-1.5,-1.1,-2.5,1.7,-0.8,-18.2,-0.7,1.8,*5D
$GNGRS,132819.00,1,-1.7,0.5,13.0,6.9,-3.5,1.2,-2.9,8.4,,,,*41
$GNGST,132819.00,37,,,,1.3,1.5,2.5*4C
$GNZDA,132819.00,19,05,2025,00,00*70
$GNGBS,132819.00,1.3,1.5,2.5,,,,*5E
b0Xp
"LH,
 Ug-t@ 
7%<g)7 # [{ 4,Ta%:R %ubAFGRH1I$p%J'KT 'U%H*~VYLbp
9$GNRMC,132820.00,A,0419.76716,S,05539.92623,E,0.032,,190525,,,D*7C
$GNVTG,,T,,M,0.032,N,0.060,K,D*3F
$GNGNS,132820.00,0419.76716,S,05539.92623,E,DA,19,0.54,7.3,-47.6,,0000*54
$GNGGA,132820.00,0419.76716,S,05539.92623,E,2,12,0.54,7.3,M,-47.6,M,,0000*73
$GNGSA,A,3,10,32,26,08,18,02,28,31,16,04,27,,1.06,0.54,0.91*1B
$GNGSA,A,3,86,73,74,84,71,85,72,75,,,,,1.06,0.54,0.91*1B
$GPGSV,4,1,16,02,05,332,34,04,09,227,24,08,24,300,14,10,13,026,32*7B
$GPGSV,4,2,16,16,24,214,17,18,28,116,45,23,01,064,,26,29,184,32*7D
$GPGSV,4,3,16,27,55,269,30,28,60,103,37,31,55,165,41,32,32,008,35*73
$GPGSV,4,4,16,36,52,277,32,40,84,353,44,41,58,082,37,49,32,274,*79
$GLGSV,3,1,11,65,03,232,,70,01,015,07,71,26,338,31,72,30,280,27*60
$GLGSV,3,2,11,73,18,112,36,74,22,160,29,75,06,207,29,84,39,138,32*66
$GLGSV,3,3,11,85,72,042,37,86,21,345,31,,,,30*61
$GNGLL,0419.76716,S,05539.92623,E,132820.00,A,D*6E
$GNGRS,132820.00,1,-11.9,0.9,1.4,-2.8,-1.0,-2.6,1.6,-1.2,-19.4,5.8,-0.8,*5E
$GNGRS,132820.00,1,4.1,0.4,13.2,6.4,-0.8,1.3,-2.1,7.3,,,,*64
$GNGST,132820.00,38,,,,1.3,1.5,2.5*49
$GNZDA,132820.00,19,05,2025,00,00*7A
$GNGBS,132820.00,1.3,1.5,2.5,,,,*54
b0XX
#L,V
 -t@ p
7%<g)7 # s{ 4,Ta%:R %u\AF
GRVH"I$p0J(K>T 'U%H*VY]bX
!$GNRMC,132821.00,A,0419.76717,S,05539.92622,E,0.025,,190525,,,D*7B
$GNVTG,,T,,M,0.025,N,0.047,K,D*3C
$GNGNS,132821.00,0419.76717,S,05539.92622,E,DA,19,0.57,7.3,-47.6,,0000*56
$GNGGA,132821.00,0419.76717,S,05539.92622,E,2,12,0.57,7.3,M,-47.6,M,,0000*71
$GNGSA,A,3,10,32,26,08,18,02,28,31,16,04,27,,1.07,0.57,0.91*19
$GNGSA,A,3,86,73,74,84,71,85,72,75,,,,,1.07,0.57,0.91*19
$GPGSV,4,1,16,02,05,332,35,04,09,227,24,08,24,300,13,10,13,026,32*7D
$GPGSV,4,2,16,16,24,214,16,18,28,116,45,23,01,064,,26,29,184,32*7C
$GPGSV,4,3,16,27,55,269,31,28,60,103,37,31,55,165,41,32,32,008,35*72
$GPGSV,4,4,16,36,52,277,32,40,84,353,44,41,58,082,37,49,32,274,*79
$GLGSV,3,1,11,65,03,232,,70,01,015,10,71,26,338,30,72,30,280,27*67
$GLGSV,3,2,11,73,18,112,36,74,22,160,29,75,06,207,29,84,39,138,32*66
$GLGSV,3,3,11,85,72,042,37,86,21,345,31,,,,29*69
$GNGLL,0419.76717,S,05539.92622,E,132821.00,A,D*6F
$GNGRS,132821.00,1,-8.0,1.2,1.1,-4.3,-0.9,-3.1,1.7,-1.3,-21.2,7.9,-2.7,*61
$GNGRS,132821.00,1,6.6,0.5,13.2,6.6,-1.7,1.4,-2.2,8.3,,,,*66
$GNGST,132821.00,32,,,,1.3,1.5,2.5*42
$GNZDA,132821.00,19,05,2025,00,00*7B
$GNGBS,132821.00,1.3,1.5,2.5,,,,*55
b0X@
#Lz,
 H,t@ e
7%<g)7 # e{ 4,Ta%:R %ueAFGR*HI$p#JKT 'zU%H*VY$Xb@
c$GNRMC,132822.00,A,0419.76718,S,05539.92623,E,0.025,,190525,,,D*76
$GNVTG,,T,,M,0.025,N,0.046,K,D*3D
$GNGNS,132822.00,0419.76718,S,05539.92623,E,DA,19,0.54,7.3,-47.6,,0000*58
$GNGGA,132822.00,0419.76718,S,05539.92623,E,2,12,0.54,7.3,M,-47.6,M,,0000*7F
$GNGSA,A,3,10,32,26,08,18,02,28,31,16,04,27,,1.06,0.54,0.91*1B
$GNGSA,A,3,86,73,74,84,71,85,72,75,,,,,1.06,0.54,0.91*1B
$GPGSV,4,1,16,02,05,332,35,04,09,227,24,08,24,300,09,10,13,026,32*76
$GPGSV,4,2,16,16,24,214,15,18,28,116,44,23,01,064,,26,29,184,32*7E
$GPGSV,4,3,16,27,55,269,30,28,60,103,37,31,55,165,41,32,32,008,35*73
$GPGSV,4,4,16,36,52,277,32,40,84,353,44,41,58,082,37,49,32,274,*79
$GLGSV,3,1,11,65,03,232,,70,01,015,11,71,26,338,31,72,30,280,27*67
$GLGSV,3,2,11,73,18,112,36,74,22,160,29,75,06,207,28,84,39,138,32*67
$GLGSV,3,3,11,85,72,042,37,86,21,345,31,,,,29*69
$GNGLL,0419.76718,S,05539.92623,E,132822.00,A,D*62
$GNGRS,132822.00,1,-10.9,1.0,1.0,-3.7,-0.9,-3.3,1.7,-1.2,-19.8,1.2,-6.2,*5C
$GNGRS,132822.00,1,5.5,0.3,12.6,6.3,-2.1,1.5,-3.3,7.1,,,,*6A
$GNGST,132822.00,41,,,,1.3,1.5,2.5*45
$GNZDA,132822.00,19,05,2025,00,00*78
$GNGBS,132822.00,1.3,1.5,2.5,,,,*56
b0X(
"L
,
 [,t@ |
7C%<g)7y # H{ 4,Ta%:R %ucAFGRHcI$pJK<T 'ZU%H*VY.b(
e$GNRMC,132823.00,A,0419.76718,S,05539.92623,E,0.023,,190525,,,D*71
$GNVTG,,T,,M,0.023,N,0.043,K,D*3E
$GNGNS,132823.00,0419.76718,S,05539.92623,E,DA,18,0.56,7.2,-47.6,,0000*5B
$GNGGA,132823.00,0419.76718,S,05539.92623,E,2,12,0.56,7.2,M,-47.6,M,,0000*7D
$GNGSA,A,3,10,32,26,18,02,28,31,16,04,27,,,1.07,0.56,0.91*10
$GNGSA,A,3,86,73,74,84,71,85,72,75,,,,,1.07,0.56,0.91*18
$GPGSV,4,1,16,02,05,332,34,04,09,227,24,08,24,300,10,10,13,026,32*7F
$GPGSV,4,2,16,16,24,214,16,18,28,116,44,23,01,064,,26,29,184,32*7D
$GPGSV,4,3,16,27,55,269,30,28,60,103,37,31,55,165,41,32,32,008,35*73
$GPGSV,4,4,16,36,52,277,32,40,84,353,44,41,58,082,37,49,32,274,*79
$GLGSV,3,1,11,65,03,232,,70,01,015,08,71,26,338,31,72,30,280,27*6F
$GLGSV,3,2,11,73,18,112,36,74,22,160,29,75,06,207,28,84,39,138,32*67
$GLGSV,3,3,11,85,72,042,37,86,21,345,31,,,,29*69
$GNGLL,0419.76718,S,05539.92623,E,132823.00,A,D*63
$GNGRS,132823.00,1,-9.3,0.7,1.2,-0.7,-3.4,1.5,-1.3,-18.3,4.7,-4.4,,*68
$GNGRS,132823.00,1,7.6,0.2,11.9,6.0,-3.4,1.6,-4.1,8.3,,,,*6B
$GNGST,132823.00,32,,,,1.3,1.5,2.5*40
$GNZDA,132823.00,19,05,2025,00,00*79
$GNGBS,132823.00,1.3,1.5,2.5,,,,*57
b0X
"L,c
 _+t@!
7%<g)7q # E{4,Ta%:R %uvAF8GRHhI$pJKT'PU$H*VYBb
=0$GNRMC,132824.00,A,0419.76720,S,05539.92621,E,0.061,,190525,,,D*79
$GNVTG,,T,,M,0.061,N,0.113,K,D*3C
$GNGNS,132824.00,0419.76720,S,05539.92621,E,DA,19,0.54,7.2,-47.6,,0000*56
$GNGGA,132824.00,0419.76720,S,05539.92621,E,2,12,0.54,7.2,M,-47.6,M,,0000*71
$GNGSA,A,3,10,32,26,08,18,02,28,31,16,04,27,,1.06,0.54,0.91*1B
$GNGSA,A,3,86,73,74,84,71,85,72,75,,,,,1.06,0.54,0.91*1B
$GPGSV,4,1,16,02,05,332,34,04,09,227,25,08,24,300,17,10,13,026,32*79
$GPGSV,4,2,16,16,24,214,18,18,28,116,43,23,01,064,,26,29,184,33*75
$GPGSV,4,3,16,27,55,269,29,28,60,103,37,31,55,165,41,32,32,008,35*7B
$GPGSV,4,4,16,36,52,277,31,40,84,353,44,41,58,082,37,49,32,274,*7A
$GLGSV,3,1,11,65,03,232,,70,01,015,08,71,26,338,31,72,30,280,29*61
$GLGSV,3,2,11,73,18,112,36,74,22,160,29,75,06,207,28,84,39,138,31*64
$GLGSV,3,3,11,85,72,042,36,86,21,345,31,,,,29*68
$GNGLL,0419.76720,S,05539.92621,E,132824.00,A,D*6D
$GNGRS,132824.00,1,-11.9,0.7,4.4,-4.1,-0.9,-3.4,1.5,-1.4,-15.4,3.9,-5.2,*54
$GNGRS,132824.00,1,11.8,-0.1,12.0,5.9,-0.7,1.9,-4.1,9.2,,,,*74
$GNGST,132824.00,67036,,,,1.3,1.5,2.5*72
$GNZDA,132824.00,19,05,2025,00,00*7E
$GNGBS,132824.00,1.3,1.5,2.5,,,,*50
b0X
!L,I
 i.+t@!A
7r%<g)7 # d{4,Ta%:R $u\AFAGRH)I#pJKT 'U$H*VYZOb
$GNRMC,132825.00,A,0419.76721,S,05539.92620,E,0.043,,190525,,,D*78
$GNVTG,,T,,M,0.043,N,0.080,K,D*37
$GNGNS,132825.00,0419.76721,S,05539.92620,E,DA,19,0.54,7.2,-47.6,,0000*57
$GNGGA,132825.00,0419.76721,S,05539.92620,E,2,12,0.54,7.2,M,-47.6,M,,0000*70
$GNGSA,A,3,10,32,26,08,18,02,28,31,16,04,27,,1.06,0.54,0.91*1B
$GNGSA,A,3,86,73,74,84,71,85,72,75,,,,,1.06,0.54,0.91*1B
$GPGSV,4,1,16,02,05,332,33,04,09,227,24,08,24,300,17,10,13,026,32*7F
$GPGSV,4,2,16,16,24,214,18,18,28,116,43,23,01,064,,26,29,184,33*75
$GPGSV,4,3,16,27,55,269,28,28,60,103,37,31,55,165,41,32,32,008,35*7A
$GPGSV,4,4,16,36,52,277,31,40,84,353,44,41,58,082,37,49,32,274,*7A
$GLGSV,3,1,11,65,03,232,,70,01,015,11,71,26,338,31,72,30,280,30*61
$GLGSV,3,2,11,73,18,112,35,74,22,160,28,75,06,207,28,84,39,138,32*65
$GLGSV,3,3,11,85,72,042,36,86,21,345,30,,,,30*61
$GNGLL,0419.76721,S,05539.92620,E,132825.00,A,D*6C
$GNGRS,132825.00,1,-11.8,1.0,0.6,-4.4,-1.1,-3.4,1.5,-1.2,-14.9,4.4,-4.0,*5B
$GNGRS,132825.00,1,9.5,-0.1,12.0,5.4,-0.3,1.9,-4.7,9.0,,,,*4C
$GNGST,132825.00,67036,,,,1.3,1.5,2.5*73
$GNZDA,132825.00,19,05,2025,00,00*7F
$GNGBS,132825.00,1.3,1.5,2.5,,,,*51
b0X
!L,
 ++t@!t
7%<g(7 # {4,Ta%:R $uXAFGRH/I#pJK^T 'U$H*VY/ b
$GNRMC,132826.00,A,0419.76721,S,05539.92618,E,0.094,,190525,,,D*7A
$GNVTG,,T,,M,0.094,N,0.173,K,D*30
$GNGNS,132826.00,0419.76721,S,05539.92618,E,DA,19,0.54,7.2,-47.6,,0000*5F
$GNGGA,132826.00,0419.76721,S,05539.92618,E,2,12,0.54,7.2,M,-47.6,M,,0000*78
$GNGSA,A,3,10,32,26,08,18,02,28,31,16,04,27,,1.06,0.54,0.91*1B
$GNGSA,A,3,86,73,74,84,71,85,72,75,,,,,1.06,0.54,0.91*1B
$GPGSV,4,1,16,02,05,332,33,04,09,227,23,08,24,300,26,10,13,026,32*7A
$GPGSV,4,2,16,16,24,214,18,18,28,116,43,23,01,064,,26,29,184,33*75
$GPGSV,4,3,16,27,55,269,26,28,60,103,37,31,55,165,40,32,32,008,35*75
$GPGSV,4,4,16,36,52,277,30,40,84,353,44,41,58,082,37,49,32,274,*7B
$GLGSV,3,1,11,65,03,232,,70,01,015,09,71,26,338,31,72,30,280,30*68
$GLGSV,3,2,11,73,18,112,35,74,22,160,28,75,06,207,28,84,39,138,32*65
$GLGSV,3,3,11,85,72,042,36,86,21,345,30,,,,32*63
$GNGLL,0419.76721,S,05539.92618,E,132826.00,A,D*64
$GNGRS,132826.00,1,-11.3,1.3,1.2,-2.4,-1.2,-3.6,1.8,-1.1,-12.4,2.7,-2.9,*5D
$GNGRS,132826.00,1,8.2,-0.1,11.8,5.0,-0.1,2.2,-4.7,8.6,,,,*4B
$GNGST,132826.00,30,,,,1.3,1.5,2.5*47
$GNZDA,132826.00,19,05,2025,00,00*7C
$GNGBS,132826.00,1.3,1.5,2.5,,,,*52
b0X
"L,
 +t@!
7a%<g(7 # l{4,Ta%:R $uPAFIGRsHI"pJLKT 'U$H*VY!b
Y$GNRMC,132827.00,A,0419.76721,S,05539.92618,E,0.023,,190525,,,D*77
$GNVTG,,T,,M,0.023,N,0.043,K,D*3E
$GNGNS,132827.00,0419.76721,S,05539.92618,E,DA,18,0.57,7.3,-47.6,,0000*5D
$GNGGA,132827.00,0419.76721,S,05539.92618,E,2,12,0.57,7.3,M,-47.6,M,,0000*7B
$GNGSA,A,3,10,32,26,08,18,02,28,31,16,27,,,1.10,0.57,0.94*1E
$GNGSA,A,3,86,73,74,84,71,85,72,75,,,,,1.10,0.57,0.94*1A
$GPGSV,4,1,16,02,05,332,34,04,09,227,,08,24,300,27,10,13,026,32*7D
$GPGSV,4,2,16,16,24,214,19,18,28,116,43,23,01,064,,26,29,184,33*74
$GPGSV,4,3,16,27,55,269,26,28,60,103,37,31,55,165,40,32,32,008,35*75
$GPGSV,4,4,16,36,52,277,30,40,84,353,44,41,58,082,37,49,32,274,*7B
$GLGSV,3,1,11,65,03,232,,70,01,015,12,71,26,338,31,72,30,280,30*62
$GLGSV,3,2,11,73,18,112,34,74,22,160,29,75,06,207,28,84,39,138,32*65
$GLGSV,3,3,11,85,72,042,36,86,21,345,30,,,,33*62
$GNGLL,0419.76721,S,05539.92618,E,132827.00,A,D*65
$GNGRS,132827.00,1,-7.8,1.1,-0.3,-1.0,-1.0,-3.6,1.9,-0.9,-10.1,-6.7,,*64
$GNGRS,132827.00,1,9.3,0.1,11.0,4.7,-1.4,2.0,-10.8,7.9,,,,*55
$GNGST,132827.00,28,,,,1.3,1.5,2.5*4F
$GNZDA,132827.00,19,05,2025,00,00*7D
$GNGBS,132827.00,1.3,1.5,2.5,,,,*53
b0X
"L,
 +t@!
7w$<g(7 # {4,Ta%:R $uJAFDGR2HI#pJ*KLT 'U%H*VY~!b
y$GNRMC,132828.00,A,0419.76720,S,05539.92619,E,0.033,,190525,,,D*79
$GNVTG,,T,,M,0.033,N,0.060,K,D*3E
$GNGNS,132828.00,0419.76720,S,05539.92619,E,DA,18,0.57,7.3,-47.6,,0000*52
$GNGGA,132828.00,0419.76720,S,05539.92619,E,2,12,0.57,7.3,M,-47.6,M,,0000*74
$GNGSA,A,3,10,32,26,08,18,02,28,31,16,27,,,1.10,0.57,0.94*1E
$GNGSA,A,3,86,73,74,84,71,85,72,75,,,,,1.10,0.57,0.94*1A
$GPGSV,4,1,16,02,05,332,34,04,09,227,,08,24,300,27,10,13,026,32*7D
$GPGSV,4,2,16,16,24,214,19,18,28,116,43,23,01,064,,26,29,184,33*74
$GPGSV,4,3,16,27,55,268,25,28,60,103,36,31,55,165,40,32,32,008,35*76
$GPGSV,4,4,16,36,52,277,30,40,84,353,44,41,58,082,37,49,32,274,*7B
$GLGSV,3,1,11,65,03,232,,70,01,015,09,71,26,338,30,72,30,280,30*69
$GLGSV,3,2,11,73,18,112,35,74,22,160,28,75,06,207,29,84,39,138,32*64
$GLGSV,3,3,11,85,72,042,37,86,21,345,30,,,,33*63
$GNGLL,0419.76720,S,05539.92619,E,132828.00,A,D*6A
$GNGRS,132828.00,1,-7.4,1.3,-0.4,-0.3,-0.8,-3.3,2.0,-0.9,-10.6,-6.5,,*63
$GNGRS,132828.00,1,8.9,0.2,10.7,4.6,3.1,1.9,-8.8,5.9,,,,*4E
$GNGST,132828.00,28,,,,1.3,1.5,2.5*40
$GNZDA,132828.00,19,05,2025,00,00*72
$GNGBS,132828.00,1.3,1.5,2.5,,,,*5C
b0X
"L,
 3Q+t@!
7$<f(7 # {4,Ta$:R $u9AF
TGRHI"pJKT 'U%H*VY!8pb
at)$GNRMC,132829.00,A,0419.76719,S,05539.92620,E,0.008,,190525,,,D*70
$GNVTG,,T,,M,0.008,N,0.015,K,D*34
$GNGNS,132829.00,0419.76719,S,05539.92620,E,DA,18,0.57,7.3,-47.6,,0000*53
$GNGGA,132829.00,0419.76719,S,05539.92620,E,2,12,0.57,7.3,M,-47.6,M,,0000*75
$GNGSA,A,3,10,32,26,08,18,02,28,31,16,27,,,1.10,0.57,0.94*1E
$GNGSA,A,3,86,73,74,84,71,85,72,75,,,,,1.10,0.57,0.94*1A
$GPGSV,4,1,16,02,05,332,34,04,09,227,,08,24,300,27,10,13,026,32*7D
$GPGSV,4,2,16,16,24,214,19,18,28,116,43,23,01,064,,26,29,184,33*74
$GPGSV,4,3,16,27,55,268,25,28,60,102,36,31,55,165,40,32,32,008,35*77
$GPGSV,4,4,16,36,52,277,30,40,84,353,44,41,58,082,36,49,32,274,*7A
$GLGSV,3,1,11,65,03,232,,70,01,015,10,71,26,338,30,72,30,280,30*61
$GLGSV,3,2,11,73,18,112,34,74,22,160,28,75,06,207,29,84,39,138,32*65
$GLGSV,3,3,11,85,72,042,37,86,21,345,30,,,,33*63
$GNGLL,0419.76719,S,05539.92620,E,132829.00,A,D*6B
$GNGRS,132829.00,1,-7.2,1.4,0.2,2.8,-0.6,-3.5,1.8,-0.9,-6.9,-5.5,,*54
$GNGRS,132829.00,1,9.1,0.2,10.5,4.4,-0.3,1.8,-10.4,4.8,,,,*5E
$GNGST,132829.00,28,,,,1.3,1.5,2.5*41
$GNZDA,132829.00,19,05,2025,00,00*73
$GNGBS,132829.00,1.3,1.5,2.5,,,,*5D
b0X
!L,1
 +t@!
7$<f(7 # {4,Ta$:R $u*AFZGRHI#p,J2KT 'U%H*VY!b
IL$GNRMC,132830.00,A,0419.76718,S,05539.92622,E,0.006,,190525,,,D*75
$GNVTG,,T,,M,0.006,N,0.012,K,D*3D
$GNGNS,132830.00,0419.76718,S,05539.92622,E,DA,18,0.57,7.3,-47.6,,0000*58
$GNGGA,132830.00,0419.76718,S,05539.92622,E,2,12,0.57,7.3,M,-47.6,M,,0000*7E
$GNGSA,A,3,10,32,26,08,18,02,28,31,16,27,,,1.10,0.57,0.94*1E
$GNGSA,A,3,86,73,74,84,71,85,72,75,,,,,1.10,0.57,0.94*1A
$GPGSV,4,1,16,02,05,332,33,04,09,227,,08,24,300,27,10,13,026,32*7A
$GPGSV,4,2,16,16,24,214,19,18,28,116,43,23,01,064,,26,29,184,33*74
$GPGSV,4,3,16,27,55,268,25,28,60,102,36,31,55,165,40,32,32,008,35*77
$GPGSV,4,4,16,36,52,277,30,40,84,353,44,41,58,082,36,49,32,274,*7A
$GLGSV,3,1,11,65,03,232,,70,01,015,09,71,26,338,31,72,30,280,30*68
$GLGSV,3,2,11,73,18,112,35,74,22,160,28,75,06,207,29,84,39,138,32*64
$GLGSV,3,3,11,85,72,042,37,86,21,345,30,,,,33*63
$GNGLL,0419.76718,S,05539.92622,E,132830.00,A,D*60
$GNGRS,132830.00,1,-4.9,1.7,-0.4,3.0,-0.7,-3.7,2.2,-0.8,-5.8,-6.0,,*7A
$GNGRS,132830.00,1,10.3,0.4,10.7,4.4,-2.4,1.7,-6.2,4.5,,,,*5E
$GNGST,132830.00,28,,,,1.3,1.5,2.5*49
$GNZDA,132830.00,19,05,2025,00,00*7B
$GNGBS,132830.00,1.3,1.5,2.5,,,,*55
b0Xh
"L,B
 -+t@"
7*$<f(7 # {4,Ta$:R $u(AF
\GR3HI"p>J'KyT 'U%H*VY!qbh
1$$GNRMC,132831.00,A,0419.76717,S,05539.92622,E,0.032,,190525,,,D*7C
$GNVTG,,T,,M,0.032,N,0.059,K,D*35
$GNGNS,132831.00,0419.76717,S,05539.92622,E,DA,18,0.57,7.3,-47.6,,0000*56
$GNGGA,132831.00,0419.76717,S,05539.92622,E,2,12,0.57,7.3,M,-47.6,M,,0000*70
$GNGSA,A,3,10,32,26,08,18,02,28,31,16,27,,,1.10,0.57,0.94*1E
$GNGSA,A,3,86,73,74,84,71,85,72,75,,,,,1.10,0.57,0.94*1A
$GPGSV,4,1,16,02,05,332,34,04,09,227,,08,24,300,27,10,13,026,32*7D
$GPGSV,4,2,16,16,24,214,20,18,28,116,43,23,01,064,,26,29,184,34*79
$GPGSV,4,3,16,27,55,268,25,28,60,102,36,31,55,165,40,32,32,008,35*77
$GPGSV,4,4,16,36,52,277,30,40,84,353,44,41,58,082,36,49,32,274,*7A
$GLGSV,3,1,11,65,03,232,,70,01,015,10,71,26,338,30,72,30,280,30*61
$GLGSV,3,2,11,73,18,112,34,74,22,160,28,75,06,207,29,84,39,138,32*65
$GLGSV,3,3,11,85,72,042,37,86,21,345,30,,,,33*63
$GNGLL,0419.76717,S,05539.92622,E,132831.00,A,D*6E
$GNGRS,132831.00,1,-5.4,1.4,-0.6,3.2,-0.8,-3.7,2.3,-1.0,-4.7,-4.7,,*78
$GNGRS,132831.00,1,9.9,0.6,10.6,4.2,-2.1,1.6,-2.7,3.8,,,,*67
$GNGST,132831.00,28,,,,1.3,1.5,2.5*48
$GNZDA,132831.00,19,05,2025,00,00*7A
$GNGBS,132831.00,1.3,1.5,2.5,,,,*54
b0XP
"L,
 +t@"
7$<f(8 # p{4,Ta$:R $uAFGR2HI"pNJCKT 'U%H*VY"bP
a$GNRMC,132832.00,A,0419.76716,S,05539.92622,E,0.017,,190525,,,D*79
$GNVTG,,T,,M,0.017,N,0.031,K,D*3C
$GNGNS,132832.00,0419.76716,S,05539.92622,E,DA,18,0.57,7.3,-47.6,,0000*54
$GNGGA,132832.00,0419.76716,S,05539.92622,E,2,12,0.57,7.3,M,-47.6,M,,0000*72
$GNGSA,A,3,10,32,26,08,18,02,28,31,16,27,,,1.10,0.57,0.94*1E
$GNGSA,A,3,86,73,74,84,71,85,72,75,,,,,1.10,0.57,0.94*1A
$GPGSV,4,1,16,02,05,332,34,04,09,227,,08,24,300,28,10,13,026,32*72
$GPGSV,4,2,16,16,24,214,20,18,28,116,43,23,01,064,,26,29,184,34*79
$GPGSV,4,3,16,27,55,268,25,28,60,102,36,31,56,164,40,32,32,008,35*75
$GPGSV,4,4,16,36,52,277,30,40,84,353,44,41,58,082,36,49,32,274,*7A
$GLGSV,3,1,11,65,03,232,,70,01,015,11,71,26,338,30,72,30,280,30*60
$GLGSV,3,2,11,73,18,112,34,74,22,160,29,75,06,207,29,84,39,138,32*64
$GLGSV,3,3,11,85,72,042,37,86,21,345,30,,,,34*64
$GNGLL,0419.76716,S,05539.92622,E,132832.00,A,D*6C
$GNGRS,132832.00,1,-5.6,1.1,-0.6,2.5,-1.0,-3.5,2.2,-1.2,-2.8,-5.5,,*78
$GNGRS,132832.00,1,9.4,0.8,10.9,2.2,-2.1,1.5,-0.6,4.5,,,,*64
$GNGST,132832.00,27,,,,1.3,1.5,2.5*44
$GNZDA,132832.00,19,05,2025,00,00*79
$GNGBS,132832.00,1.3,1.5,2.5,,,,*57
b0X8
!L,
 +t@!
7$<f(8 # V{4,Ta$:R $uAFhGRiHI#pAJKT 'U%H*VY!7b8
$GNRMC,132833.00,A,0419.76716,S,05539.92623,E,0.019,,190525,,,D*77
$GNVTG,,T,,M,0.019,N,0.035,K,D*36
$GNGNS,132833.00,0419.76716,S,05539.92623,E,DA,18,0.57,7.3,-47.6,,0000*54
$GNGGA,132833.00,0419.76716,S,05539.92623,E,2,12,0.57,7.3,M,-47.6,M,,0000*72
$GNGSA,A,3,10,32,26,08,18,02,28,31,16,27,,,1.10,0.57,0.94*1E
$GNGSA,A,3,86,73,74,84,71,85,72,75,,,,,1.10,0.57,0.94*1A
$GPGSV,4,1,16,02,05,332,33,04,09,227,,08,24,300,28,10,13,026,32*75
$GPGSV,4,2,16,16,24,214,21,18,28,116,43,23,01,064,,26,29,184,33*7F
$GPGSV,4,3,16,27,55,268,25,28,60,102,36,31,56,164,40,32,32,008,35*75
$GPGSV,4,4,16,36,52,277,30,40,84,353,44,41,58,082,36,49,32,274,*7A
$GLGSV,3,1,11,65,03,232,,70,01,015,09,71,26,338,30,72,30,280,30*69
$GLGSV,3,2,11,73,18,112,35,74,22,160,28,75,06,207,29,84,39,138,32*64
$GLGSV,3,3,11,85,72,042,37,86,21,345,30,,,,33*63
$GNGLL,0419.76716,S,05539.92623,E,132833.00,A,D*6C
$GNGRS,132833.00,1,-6.2,0.9,-0.5,-0.8,-0.5,-3.4,2.0,-1.1,-0.7,-4.8,,*53
$GNGRS,132833.00,1,9.1,0.7,11.9,7.9,-1.5,1.4,-3.2,2.2,,,,*60
$GNGST,132833.00,25,,,,1.3,1.5,2.5*47
$GNZDA,132833.00,19,05,2025,00,00*78
$GNGBS,132833.00,1.3,1.5,2.5,,,,*56
b0X 
"L,
 `,t@!
7D$<f(8 # n{4,Ta$:R $uAF
bGRXHI#p4JxKT 'U%H*VY2!b 
.$GNRMC,132834.00,A,0419.76716,S,05539.92625,E,0.016,,190525,,,D*79
$GNVTG,,T,,M,0.016,N,0.029,K,D*34
$GNGNS,132834.00,0419.76716,S,05539.92625,E,DA,18,0.57,7.3,-47.6,,0000*55
$GNGGA,132834.00,0419.76716,S,05539.92625,E,2,12,0.57,7.3,M,-47.6,M,,0000*73
$GNGSA,A,3,10,32,26,08,18,02,28,31,16,27,,,1.10,0.57,0.94*1E
$GNGSA,A,3,86,73,74,84,71,85,72,75,,,,,1.10,0.57,0.94*1A
$GPGSV,4,1,16,02,05,332,34,04,09,227,,08,24,300,27,10,13,026,32*7D
$GPGSV,4,2,16,16,24,214,21,18,28,116,44,23,01,064,,26,29,184,33*78
$GPGSV,4,3,16,27,55,268,25,28,60,102,36,31,56,164,40,32,32,008,35*75
$GPGSV,4,4,16,36,52,277,31,40,84,353,44,41,58,082,36,49,32,274,*7B
$GLGSV,3,1,11,65,03,232,,70,01,015,10,71,26,338,30,72,30,280,30*61
$GLGSV,3,2,11,73,18,112,35,74,22,160,29,75,06,207,29,84,39,138,32*65
$GLGSV,3,3,11,85,72,042,37,86,21,345,30,,,,33*63
$GNGLL,0419.76716,S,05539.92625,E,132834.00,A,D*6D
$GNGRS,132834.00,1,-6.2,1.1,-0.6,-2.3,-1.0,-3.4,2.1,-1.2,-1.6,-4.4,,*5D
$GNGRS,132834.00,1,5.6,0.5,11.4,4.5,-1.7,1.4,-8.1,1.8,,,,*6F
$GNGST,132834.00,28,,,,1.3,1.5,2.5*4D
$GNZDA,132834.00,19,05,2025,00,00*7F
$GNGBS,132834.00,1.3,1.5,2.5,,,,*51
b0X
!L,
 +t@!
7+$<f(8 # c{4,Ta$:R $uAF1+GRH\I#p-JKT 'U%H*xVY@"3b
$GNRMC,132835.00,A,0419.76715,S,05539.92626,E,0.013,,190525,,,D*7D
$GNVTG,,T,,M,0.013,N,0.024,K,D*3C
$GNGNS,132835.00,0419.76715,S,05539.92626,E,DA,18,0.57,7.3,-47.6,,0000*54
$GNGGA,132835.00,0419.76715,S,05539.92626,E,2,12,0.57,7.3,M,-47.6,M,,0000*72
$GNGSA,A,3,10,32,26,08,18,02,28,31,16,27,,,1.10,0.57,0.94*1E
$GNGSA,A,3,86,73,74,84,71,85,72,75,,,,,1.10,0.57,0.94*1A
$GPGSV,4,1,16,02,05,332,33,04,09,227,,08,24,300,28,10,13,026,32*75
$GPGSV,4,2,16,16,24,214,21,18,28,116,43,23,01,064,,26,29,184,33*7F
$GPGSV,4,3,16,27,55,268,25,28,60,102,36,31,56,164,40,32,32,008,35*75
$GPGSV,4,4,16,36,52,277,30,40,84,353,44,41,58,082,36,49,32,274,*7A
$GLGSV,3,1,11,65,03,232,,70,01,015,09,71,26,338,30,72,30,280,31*68
$GLGSV,3,2,11,73,18,112,35,74,22,160,28,75,06,207,28,84,39,138,32*65
$GLGSV,3,3,11,85,72,042,37,86,21,345,30,,,,34*64
$GNGLL,0419.76715,S,05539.92626,E,132835.00,A,D*6C
$GNGRS,132835.00,1,-6.3,1.0,-0.6,-0.1,-1.0,-3.3,1.8,-1.1,-0.6,-4.7,,*50
$GNGRS,132835.00,1,5.8,0.4,12.8,1.3,-5.1,1.2,-4.2,2.2,,,,*6F
$GNGST,132835.00,25,,,,1.3,1.5,2.5*41
$GNZDA,132835.00,19,05,2025,00,00*7E
$GNGBS,132835.00,1.3,1.5,2.5,,,,*50
b0X
"L,
 +t@!
7$<f(8 # Q{4,Ta$:R $uAFGRHOI#p0JKT 'fU%H*lVY"b
Z$GNRMC,132836.00,A,0419.76716,S,05539.92626,E,0.055,,190525,,,D*7F
$GNVTG,,T,,M,0.055,N,0.101,K,D*38
$GNGNS,132836.00,0419.76716,S,05539.92626,E,DA,18,0.57,7.3,-47.6,,0000*54
$GNGGA,132836.00,0419.76716,S,05539.92626,E,2,12,0.57,7.3,M,-47.6,M,,0000*72
$GNGSA,A,3,10,32,26,08,18,02,28,31,16,27,,,1.10,0.57,0.94*1E
$GNGSA,A,3,86,73,74,84,71,85,72,75,,,,,1.10,0.57,0.94*1A
$GPGSV,4,1,16,02,05,332,34,04,09,227,,08,24,300,28,10,13,026,32*72
$GPGSV,4,2,16,16,24,214,21,18,28,116,43,23,01,064,,26,29,184,33*7F
$GPGSV,4,3,16,27,55,268,25,28,60,102,36,31,56,164,40,32,32,008,35*75
$GPGSV,4,4,16,36,52,277,30,40,84,353,44,41,58,082,36,49,32,274,*7A
$GLGSV,3,1,11,65,03,232,,70,01,015,09,71,26,338,30,72,30,280,31*68
$GLGSV,3,2,11,73,18,112,35,74,22,160,28,75,06,207,28,84,39,138,32*65
$GLGSV,3,3,11,85,72,042,37,86,21,345,30,,,,34*64
$GNGLL,0419.76716,S,05539.92626,E,132836.00,A,D*6C
$GNGRS,132836.00,1,-7.4,0.8,-0.5,0.2,-1.1,-3.3,1.7,-1.0,1.4,-2.9,,*58
$GNGRS,132836.00,1,2.6,0.5,12.6,-1.5,-5.7,1.1,-4.3,4.8,,,,*49
$GNGST,132836.00,25,,,,1.3,1.5,2.5*42
$GNZDA,132836.00,19,05,2025,00,00*7D
$GNGBS,132836.00,1.3,1.5,2.5,,,,*53
b0X
"L,
 S+t@!
7?$<f(8 # [{4,Ta$:R $u&AF~GR7HUI#pJ8KT 'U%H*bVY0"Ob
2W$GNRMC,132837.00,A,0419.76716,S,05539.92626,E,0.021,,190525,,,D*7D
$GNVTG,,T,,M,0.021,N,0.038,K,D*30
$GNGNS,132837.00,0419.76716,S,05539.92626,E,DA,18,0.57,7.4,-47.6,,0000*52
$GNGGA,132837.00,0419.76716,S,05539.92626,E,2,12,0.57,7.4,M,-47.6,M,,0000*74
$GNGSA,A,3,10,32,26,08,18,02,28,31,16,27,,,1.10,0.57,0.94*1E
$GNGSA,A,3,86,73,74,84,71,85,72,75,,,,,1.10,0.57,0.94*1A
$GPGSV,4,1,16,02,05,332,34,04,09,227,,08,24,300,28,10,13,026,32*72
$GPGSV,4,2,16,16,24,214,21,18,28,116,43,23,01,064,,26,29,184,33*7F
$GPGSV,4,3,16,27,55,268,25,28,60,102,36,31,56,164,40,32,32,008,35*75
$GPGSV,4,4,16,36,52,277,30,40,84,353,44,41,58,082,36,49,32,274,*7A
$GLGSV,3,1,11,65,03,232,,70,01,015,08,71,26,338,30,72,30,280,31*69
$GLGSV,3,2,11,73,18,112,35,74,22,160,28,75,06,207,28,84,39,138,32*65
$GLGSV,3,3,11,85,72,042,37,86,21,345,30,,,,34*64
$GNGLL,0419.76716,S,05539.92626,E,132837.00,A,D*6D
$GNGRS,132837.00,1,-6.3,0.9,-0.4,1.4,-0.9,-3.5,1.5,-1.0,0.8,-1.9,,*5B
$GNGRS,132837.00,1,3.0,0.3,13.4,-1.1,-4.6,1.0,-4.3,4.0,,,,*47
$GNGST,132837.00,25,,,,1.3,1.5,2.5*43
$GNZDA,132837.00,19,05,2025,00,00*7C
$GNGBS,132837.00,1.3,1.5,2.5,,,,*52
b0X
"L ,g
 wm+t@!
7$<f(8 # }{4,Ta$:R $uAFGRHyI#pJK#T 'U%H*uVY".4b

