$GNRMC,110837.00,A,0419.72780,S,05539.92534,E,0.004,,030625,,,A*7C
$GNVTG,,T,,M,0.004,N,0.008,K,A*31
$GNGGA,110837.00,0419.72780,S,05539.92534,E,1,12,0.68,11.6,M,-47.6,M,,*45
$GNGSA,A,3,32,28,27,18,26,16,29,10,,,,,1.53,0.68,1.37*1E
$GNGSA,A,3,70,69,80,82,83,,,,,,,,1.53,0.68,1.37*11
$GPGSV,5,1,17,08,01,321,,10,19,355,34,16,25,252,34,18,32,072,36*75
$GPGSV,5,2,17,23,04,033,,25,02,130,17,26,29,219,26,27,35,318,40*70
$GPGSV,5,3,17,28,43,161,31,29,21,146,39,31,28,193,,32,68,354,42*79
$GPGSV,5,4,17,36,52,277,41,40,84,353,42,41,58,082,38,49,32,274,*74
$GPGSV,5,5,17,50,10,089,*4A
$GLGSV,3,1,10,69,23,003,33,70,50,281,32,71,23,229,22,73,14,204,*6A
$GLGSV,3,2,10,74,00,244,,80,12,152,31,82,19,131,32,83,48,077,32*6D
$GLGSV,3,3,10,84,27,006,23,,,,42*5C
$GNGLL,0419.72780,S,05539.92534,E,110837.00,A,A*63
$GNRMC,110838.00,A,0419.72780,S,05539.92533,E,0.045,,030625,,,A*71
$GNVTG,,T,,M,0.045,N,0.083,K,A*37
$GNGGA,110838.00,0419.72780,S,05539.92533,E,1,12,0.68,11.5,M,-47.6,M,,*4E
$GNGSA,A,3,32,28,27,18,26,16,29,10,,,,,1.53,0.68,1.37*1E
$GNGSA,A,3,70,69,80,82,83,,,,,,,,1.53,0.68,1.37*11
$GPGSV,5,1,17,08,01,321,,10,19,355,32,16,25,252,31,18,32,072,32*72
$GPGSV,5,2,17,23,04,033,,25,02,130,16,26,29,219,24,27,35,318,36*72
$GPGSV,5,3,17,28,43,161,29,29,21,146,35,31,28,193,,32,68,354,38*71
$GPGSV,5,4,17,36,52,277,37,40,84,353,38,41,58,082,35,49,32,274,*75
$GPGSV,5,5,17,50,10,089,*4A
$GLGSV,3,1,10,69,23,003,34,70,50,281,33,71,23,229,20,73,14,204,*6E
$GLGSV,3,2,10,74,00,244,,80,12,152,26,82,19,131,34,83,48,077,33*6C
$GLGSV,3,3,10,84,27,006,22,,,,40*5F
$GNGLL,0419.72780,S,05539.92533,E,110838.00,A,A*6B
$GNRMC,110839.00,A,0419.72781,S,05539.92534,E,0.014,,030625,,,A*72
$GNVTG,,T,,M,0.014,N,0.025,K,A*3F
$GNGGA,110839.00,0419.72781,S,05539.92534,E,1,12,0.68,11.5,M,-47.6,M,,*49
$GNGSA,A,3,32,28,27,18,26,16,29,10,,,,,1.53,0.68,1.37*1E
$GNGSA,A,3,70,69,80,82,83,,,,,,,,1.53,0.68,1.37*11
$GPGSV,5,1,17,08,01,321,,10,19,355,31,16,25,252,32,18,32,072,33*73
$GPGSV,5,2,17,23,04,033,,25,02,130,14,26,29,219,24,27,35,318,36*70
$GPGSV,5,3,17,28,43,161,29,29,21,146,36,31,28,193,,32,68,354,39*73
$GPGSV,5,4,17,36,52,277,37,40,84,353,39,41,58,082,35,49,32,274,*74
$GPGSV,5,5,17,50,10,089,*4A
$GLGSV,3,1,10,69,23,003,32,70,50,281,30,71,23,229,19,73,14,204,*61
$GLGSV,3,2,10,74,00,244,,80,12,152,27,82,19,131,31,83,48,077,32*69
$GLGSV,3,3,10,84,27,006,21,,,,39*52
$GNGLL,0419.72781,S,05539.92534,E,110839.00,A,A*6C
$GNRMC,110840.00,A,0419.72783,S,05539.92534,E,0.031,,030625,,,A*79
$GNVTG,,T,,M,0.031,N,0.057,K,A*3D
$GNGGA,110840.00,0419.72783,S,05539.92534,E,1,12,0.68,11.5,M,-47.6,M,,*45
$GNGSA,A,3,32,28,27,18,26,16,29,10,,,,,1.53,0.68,1.37*1E
$GNGSA,A,3,70,69,80,82,83,,,,,,,,1.53,0.68,1.37*11
$GPGSV,5,1,17,08,01,321,,10,19,355,35,16,25,252,35,18,32,072,36*75
$GPGSV,5,2,17,23,04,033,,25,02,130,14,26,29,219,23,27,35,318,40*76
$GPGSV,5,3,17,28,43,161,31,29,21,146,38,31,28,193,24,32,68,354,42*7E
$GPGSV,5,4,17,36,52,277,40,40,84,353,41,41,58,082,38,49,32,274,*76
$GPGSV,5,5,17,50,10,089,*4A
$GLGSV,3,1,10,69,23,003,36,70,50,281,33,71,23,229,20,73,14,204,*6C
$GLGSV,3,2,10,74,00,244,,80,12,152,29,82,19,131,32,83,48,077,37*61
$GLGSV,3,3,10,84,27,006,22,,,,42*5D
$GNGLL,0419.72783,S,05539.92534,E,110840.00,A,A*60
$GNRMC,110841.00,A,0419.72786,S,05539.92534,E,0.009,,030625,,,A*76
$GNVTG,,T,,M,0.009,N,0.016,K,A*33
$GNGGA,110841.00,0419.72786,S,05539.92534,E,1,12,0.68,11.6,M,-47.6,M,,*42
$GNGSA,A,3,32,28,27,18,26,16,29,10,,,,,1.53,0.68,1.37*1E
$GNGSA,A,3,70,69,80,82,83,,,,,,,,1.53,0.68,1.37*11
$GPGSV,5,1,17,08,01,321,,10,19,355,36,16,25,252,35,18,32,072,33*73
$GPGSV,5,2,17,23,04,033,,25,02,130,17,26,29,219,24,27,35,318,40*72
$GPGSV,5,3,17,28,43,161,35,29,21,146,39,31,28,193,30,32,68,354,42*7E
$GPGSV,5,4,17,36,52,277,41,40,84,353,42,41,58,082,40,49,32,274,*7B
$GPGSV,5,5,17,50,10,089,*4A
$GLGSV,3,1,10,69,23,003,35,70,50,281,33,71,23,229,22,73,14,204,*6D
$GLGSV,3,2,10,74,00,244,,80,12,151,30,82,19,131,34,83,48,077,34*6F
$GLGSV,3,3,10,84,27,006,24,,,,42*5B
$GNGLL,0419.72786,S,05539.92534,E,110841.00,A,A*64
$GNRMC,110842.00,A,0419.72786,S,05539.92535,E,0.020,,030625,,,A*7F
$GNVTG,,T,,M,0.020,N,0.037,K,A*3B
$GNGGA,110842.00,0419.72786,S,05539.92535,E,1,12,0.68,11.5,M,-47.6,M,,*43
$GNGSA,A,3,32,28,27,18,26,16,29,10,,,,,1.53,0.68,1.37*1E
$GNGSA,A,3,70,69,80,82,83,,,,,,,,1.53,0.68,1.37*11
$GPGSV,5,1,17,08,01,321,,10,19,355,35,16,25,252,35,18,32,072,36*75
$GPGSV,5,2,17,23,04,033,22,25,02,130,18,26,29,219,31,27,35,318,39*77
$GPGSV,5,3,17,28,43,161,40,29,21,146,38,31,28,193,37,32,68,354,42*7A
$GPGSV,5,4,17,36,52,277,39,40,84,353,42,41,58,082,37,49,32,274,*74
$GPGSV,5,5,17,50,10,089,*4A
$GLGSV,3,1,10,69,23,003,34,70,50,281,32,71,23,229,22,73,14,204,*6D
$GLGSV,3,2,10,74,00,244,,80,12,151,31,82,19,131,33,83,48,077,35*68
$GLGSV,3,3,10,84,27,006,24,,,,42*5B
$GNGLL,0419.72786,S,05539.92535,E,110842.00,A,A*66
$GNRMC,110843.00,A,0419.72783,S,05539.92537,E,0.045,,030625,,,A*7A
$GNVTG,,T,,M,0.045,N,0.083,K,A*37
$GNGGA,110843.00,0419.72783,S,05539.92537,E,1,12,0.68,11.5,M,-47.6,M,,*45
$GNGSA,A,3,32,28,27,18,26,16,29,10,,,,,1.53,0.68,1.37*1E
$GNGSA,A,3,70,69,80,82,83,,,,,,,,1.53,0.68,1.37*11
$GPGSV,5,1,17,08,01,321,,10,19,355,35,16,25,252,35,18,32,072,36*75
$GPGSV,5,2,17,23,04,033,,25,02,130,19,26,29,219,33,27,35,318,40*7A
$GPGSV,5,3,17,28,43,161,39,29,21,146,38,31,28,193,38,32,68,354,42*7B
$GPGSV,5,4,17,36,52,277,38,40,84,353,43,41,58,082,40,49,32,274,*74
$GPGSV,5,5,17,50,10,089,*4A
$GLGSV,3,1,10,69,23,003,34,70,50,281,31,71,23,229,24,73,14,204,*68
$GLGSV,3,2,10,74,00,244,,80,12,151,30,82,19,131,32,83,48,077,33*6E
$GLGSV,3,3,10,84,27,006,25,,,,42*5A
$GNGLL,0419.72783,S,05539.92537,E,110843.00,A,A*60
$GNRMC,110844.00,A,0419.72783,S,05539.92536,E,0.038,,030625,,,A*76
$GNVTG,,T,,M,0.038,N,0.071,K,A*30
$GNGGA,110844.00,0419.72783,S,05539.92536,E,1,12,0.68,11.5,M,-47.6,M,,*43
$GNGSA,A,3,32,28,27,18,26,16,29,10,,,,,1.53,0.68,1.37*1E
$GNGSA,A,3,70,69,80,82,83,,,,,,,,1.53,0.68,1.37*11
$GPGSV,5,1,17,08,01,321,,10,19,355,36,16,25,252,34,18,32,072,36*77
$GPGSV,5,2,17,23,04,033,,25,02,130,19,26,29,219,30,27,35,318,40*79
$GPGSV,5,3,17,28,43,161,38,29,21,146,38,31,28,193,35,32,68,354,42*77
$GPGSV,5,4,17,36,52,277,40,40,84,353,43,41,58,082,40,49,32,274,*7B
$GPGSV,5,5,17,50,10,089,*4A
$GLGSV,3,1,10,69,23,003,34,70,50,281,31,71,23,229,24,73,14,204,20*6A
$GLGSV,3,2,10,74,00,244,,80,12,151,29,82,19,131,33,83,48,077,34*60
$GLGSV,3,3,10,84,27,006,24,,,,42*5B
$GNGLL,0419.72783,S,05539.92536,E,110844.00,A,A*66
$GNRMC,110845.00,A,0419.72784,S,05539.92537,E,0.037,,030625,,,A*7E
$GNVTG,,T,,M,0.037,N,0.068,K,A*37
$GNGGA,110845.00,0419.72784,S,05539.92537,E,1,12,0.68,11.5,M,-47.6,M,,*44
$GNGSA,A,3,32,28,27,18,26,16,29,10,,,,,1.53,0.68,1.37*1E
$GNGSA,A,3,70,69,80,82,83,,,,,,,,1.53,0.68,1.37*11
$GPGSV,5,1,17,08,01,321,,10,19,355,34,16,25,252,35,18,32,072,33*71
$GPGSV,5,2,17,23,04,033,,25,02,130,19,26,29,219,31,27,35,318,41*79
$GPGSV,5,3,17,28,43,161,40,29,21,146,38,31,28,193,37,32,68,354,42*7A
$GPGSV,5,4,17,36,52,277,41,40,84,353,42,41,58,082,39,49,32,274,*75
$GPGSV,5,5,17,50,10,089,*4A
$GLGSV,3,1,10,69,23,003,34,70,50,281,32,71,23,229,24,73,14,204,*6B
$GLGSV,3,2,10,74,00,244,,80,12,151,30,82,19,131,32,83,48,077,34*69
$GLGSV,3,3,10,84,28,007,25,,,,42*54
$GNGLL,0419.72784,S,05539.92537,E,110845.00,A,A*61
$GNRMC,110846.00,A,0419.72784,S,05539.92537,E,0.011,,030625,,,A*79
$GNVTG,,T,,M,0.011,N,0.021,K,A*3E
$GNGGA,110846.00,0419.72784,S,05539.92537,E,1,12,0.68,11.5,M,-47.6,M,,*47
$GNGSA,A,3,32,28,27,18,26,16,29,10,,,,,1.53,0.68,1.37*1E
$GNGSA,A,3,70,69,80,82,83,,,,,,,,1.53,0.68,1.37*11
$GPGSV,5,1,17,08,01,321,,10,19,355,35,16,25,252,37,18,32,072,36*77
$GPGSV,5,2,17,23,04,033,,25,02,130,18,26,29,219,32,27,35,318,40*7A
$GPGSV,5,3,17,28,43,161,38,29,21,146,38,31,28,193,37,32,68,354,42*75
$GPGSV,5,4,17,36,52,277,40,40,84,353,42,41,58,082,39,49,32,274,*74
$GPGSV,5,5,17,50,10,089,*4A
$GLGSV,3,1,10,69,23,003,33,70,50,281,31,71,23,229,24,73,14,204,26*6B
$GLGSV,3,2,10,74,00,244,,80,12,151,30,82,19,131,32,83,48,077,34*69
$GLGSV,3,3,10,84,28,007,24,,,,42*55
$GNGLL,0419.72784,S,05539.92537,E,110846.00,A,A*62
$GNRMC,110847.00,A,0419.72783,S,05539.92537,E,0.032,,030625,,,A*7E
$GNVTG,,T,,M,0.032,N,0.060,K,A*3A
$GNGGA,110847.00,0419.72783,S,05539.92537,E,1,12,0.68,11.5,M,-47.6,M,,*41
$GNGSA,A,3,32,28,27,18,26,16,29,10,,,,,1.53,0.68,1.37*1E
$GNGSA,A,3,70,69,80,82,83,,,,,,,,1.53,0.68,1.37*11
$GPGSV,5,1,17,08,01,321,,10,19,355,35,16,25,252,36,18,32,072,36*76
$GPGSV,5,2,17,23,04,033,,25,02,130,15,26,29,219,32,27,35,318,40*77
$GPGSV,5,3,17,28,43,161,39,29,21,146,38,31,28,193,38,32,68,354,43*7A
$GPGSV,5,4,17,36,52,277,40,40,84,353,42,41,58,082,38,49,32,274,*75
$GPGSV,5,5,17,50,10,089,*4A
$GLGSV,3,1,10,69,23,003,34,70,50,281,32,71,23,229,24,73,14,204,27*6E
$GLGSV,3,2,10,74,00,244,,80,12,151,31,82,19,131,31,83,48,077,35*6A
$GLGSV,3,3,10,84,28,007,24,,,,42*55
$GNGLL,0419.72783,S,05539.92537,E,110847.00,A,A*64
$GNRMC,110848.00,A,0419.72784,S,05539.92537,E,0.070,,030625,,,A*70
$GNVTG,,T,,M,0.070,N,0.130,K,A*38
$GNGGA,110848.00,0419.72784,S,05539.92537,E,1,12,0.68,11.4,M,-47.6,M,,*48
$GNGSA,A,3,32,28,27,18,26,16,29,10,,,,,1.53,0.68,1.37*1E
$GNGSA,A,3,70,69,80,82,83,,,,,,,,1.53,0.68,1.37*11
$GPGSV,5,1,17,08,01,321,,10,19,355,35,16,25,252,36,18,32,072,36*76
$GPGSV,5,2,17,23,04,033,,25,02,130,18,26,29,219,30,27,35,318,38*77
$GPGSV,5,3,17,28,43,161,38,29,21,146,38,31,28,193,32,32,68,354,40*72
$GPGSV,5,4,17,36,52,277,39,40,84,353,42,41,58,082,39,49,32,274,*7A
$GPGSV,5,5,17,50,10,089,*4A
$GLGSV,3,1,10,69,23,003,36,70,50,281,31,71,23,229,23,73,14,204,26*69
$GLGSV,3,2,10,74,00,244,,80,12,151,30,82,19,131,34,83,48,077,36*6D
$GLGSV,3,3,10,84,28,007,24,,,,41*56
$GNGLL,0419.72784,S,05539.92537,E,110848.00,A,A*6C
$GNRMC,110849.00,A,0419.72784,S,05539.92537,E,0.028,,030625,,,A*7C
$GNVTG,,T,,M,0.028,N,0.052,K,A*30
$GNGGA,110849.00,0419.72784,S,05539.92537,E,1,12,0.68,11.4,M,-47.6,M,,*49
$GNGSA,A,3,32,28,27,18,26,16,29,10,,,,,1.53,0.68,1.37*1E
$GNGSA,A,3,70,69,80,82,83,,,,,,,,1.53,0.68,1.37*11
$GPGSV,5,1,17,08,01,321,,10,19,355,37,16,25,252,36,18,32,072,38*7A
$GPGSV,5,2,17,23,04,033,,25,02,130,20,26,29,219,29,27,35,318,37*7B
$GPGSV,5,3,17,28,43,161,37,29,21,146,38,31,28,193,29,32,68,354,38*78
$GPGSV,5,4,17,36,52,277,39,40,84,353,40,41,58,082,38,49,32,274,*79
$GPGSV,5,5,17,50,10,089,*4A
$GLGSV,3,1,10,69,23,003,37,70,50,281,32,71,23,229,25,73,14,204,23*68
$GLGSV,3,2,10,74,00,244,,80,12,151,29,82,19,131,34,83,48,077,39*6A
$GLGSV,3,3,10,84,28,007,26,,,,40*55
$GNGLL,0419.72784,S,05539.92537,E,110849.00,A,A*6D
$GNRMC,110850.00,A,0419.72785,S,05539.92536,E,0.009,,030625,,,A*77
$GNVTG,,T,,M,0.009,N,0.016,K,A*33
$GNGGA,110850.00,0419.72785,S,05539.92536,E,1,12,0.65,11.3,M,-47.6,M,,*4B
$GNGSA,A,3,32,28,27,18,26,16,29,10,31,,,,1.51,0.65,1.37*13
$GNGSA,A,3,70,69,80,82,83,,,,,,,,1.51,0.65,1.37*1E
$GPGSV,5,1,17,08,01,321,,10,19,355,35,16,25,252,35,18,32,072,38*7B
$GPGSV,5,2,17,23,04,033,24,25,02,130,22,26,29,219,28,27,35,318,38*71
$GPGSV,5,3,17,28,43,161,37,29,21,146,38,31,28,192,31,32,68,354,38*70
$GPGSV,5,4,17,36,52,277,40,40,84,353,40,41,58,082,39,49,32,274,*76
$GPGSV,5,5,17,50,10,089,*4A
$GLGSV,3,1,10,69,23,003,37,70,50,281,32,71,23,229,25,73,14,204,20*6B
$GLGSV,3,2,10,74,00,244,,80,12,151,30,82,19,131,34,83,48,077,38*63
$GLGSV,3,3,10,84,28,007,26,,,,40*55
$GNGLL,0419.72785,S,05539.92536,E,110850.00,A,A*65
$GNRMC,110851.00,A,0419.72785,S,05539.92536,E,0.011,,030625,,,A*7F
$GNVTG,,T,,M,0.011,N,0.020,K,A*3F
$GNGGA,110851.00,0419.72785,S,05539.92536,E,1,12,0.65,11.2,M,-47.6,M,,*4B
$GNGSA,A,3,32,28,27,18,26,16,29,10,31,,,,1.51,0.65,1.37*13
$GNGSA,A,3,70,69,80,82,83,,,,,,,,1.51,0.65,1.37*1E
$GPGSV,5,1,17,08,01,321,,10,19,355,36,16,25,252,35,18,32,072,38*78
$GPGSV,5,2,17,23,04,033,22,25,02,130,23,26,29,219,28,27,35,318,38*76
$GPGSV,5,3,17,28,43,161,38,29,21,146,38,31,28,192,32,32,68,354,38*7C
$GPGSV,5,4,17,36,52,277,40,40,84,353,40,41,58,082,39,49,32,274,*76
$GPGSV,5,5,17,50,10,089,*4A
$GLGSV,3,1,10,69,23,003,37,70,50,281,32,71,23,229,25,73,14,204,18*60
$GLGSV,3,2,10,74,00,244,,80,12,151,30,82,19,131,34,83,48,077,38*63
$GLGSV,3,3,10,84,28,007,27,,,,41*55
$GNGLL,0419.72785,S,05539.92536,E,110851.00,A,A*64
$GNRMC,110852.00,A,0419.72786,S,05539.92535,E,0.003,,030625,,,A*7F
$GNVTG,,T,,M,0.003,N,0.006,K,A*38
$GNGGA,110852.00,0419.72786,S,05539.92535,E,1,12,0.65,11.2,M,-47.6,M,,*48
$GNGSA,A,3,32,28,27,18,26,16,29,10,31,,,,1.51,0.65,1.37*13
$GNGSA,A,3,70,69,80,82,83,,,,,,,,1.51,0.65,1.37*1E
$GPGSV,5,1,17,08,01,321,,10,19,355,36,16,25,252,35,18,32,072,38*78
$GPGSV,5,2,17,23,04,033,22,25,02,130,23,26,29,219,27,27,35,318,38*79
$GPGSV,5,3,17,28,43,161,38,29,21,146,38,31,28,192,32,32,68,354,38*7C
$GPGSV,5,4,17,36,52,277,40,40,84,353,38,41,58,082,39,49,32,274,*79
$GPGSV,5,5,17,50,10,089,*4A
$GLGSV,3,1,10,69,23,003,37,70,50,281,33,71,23,229,24,73,14,204,17*6F
$GLGSV,3,2,10,74,00,244,,80,12,151,30,82,19,131,33,83,48,077,38*64
$GLGSV,3,3,10,84,28,007,27,,,,40*54
$GNGLL,0419.72786,S,05539.92535,E,110852.00,A,A*67
$GNRMC,110853.00,A,0419.72786,S,05539.92535,E,0.013,,030625,,,A*7F
$GNVTG,,T,,M,0.013,N,0.024,K,A*39
$GNGGA,110853.00,0419.72786,S,05539.92535,E,1,12,0.65,11.1,M,-47.6,M,,*4A
$GNGSA,A,3,32,28,27,18,26,16,29,10,31,,,,1.51,0.65,1.37*13
$GNGSA,A,3,70,69,80,82,83,,,,,,,,1.51,0.65,1.37*1E
$GPGSV,5,1,17,08,01,321,,10,19,355,36,16,25,252,35,18,32,072,39*79
$GPGSV,5,2,17,23,04,033,22,25,02,130,23,26,29,219,27,27,35,318,38*79
$GPGSV,5,3,17,28,43,161,37,29,21,146,39,31,28,192,32,32,68,354,38*72
$GPGSV,5,4,17,36,52,277,40,40,84,353,39,41,58,082,39,49,32,274,*78
$GPGSV,5,5,17,50,10,089,*4A
$GLGSV,3,1,10,69,23,003,37,70,50,281,33,71,23,229,25,73,14,204,18*61
$GLGSV,3,2,10,74,00,244,,80,12,151,30,82,19,131,33,83,48,077,38*64
$GLGSV,3,3,10,84,28,007,26,,,,40*55
$GNGLL,0419.72786,S,05539.92535,E,110853.00,A,A*66
$GNRMC,110854.00,A,0419.72786,S,05539.92534,E,0.022,,030625,,,A*7B
$GNVTG,,T,,M,0.022,N,0.040,K,A*39
$GNGGA,110854.00,0419.72786,S,05539.92534,E,1,12,0.65,11.1,M,-47.6,M,,*4C
$GNGSA,A,3,32,28,27,18,26,16,29,10,31,,,,1.51,0.65,1.37*13
$GNGSA,A,3,70,69,80,82,83,,,,,,,,1.51,0.65,1.37*1E
$GPGSV,5,1,17,08,01,321,,10,19,355,36,16,25,252,35,18,32,072,39*79
$GPGSV,5,2,17,23,04,033,23,25,02,130,23,26,29,219,27,27,35,318,38*78
$GPGSV,5,3,17,28,43,161,37,29,21,146,39,31,28,192,32,32,68,354,38*72
$GPGSV,5,4,17,36,52,277,40,40,84,353,40,41,58,082,39,49,32,274,*76
$GPGSV,5,5,17,50,10,089,*4A
$GLGSV,3,1,10,69,23,003,37,70,50,281,33,71,23,229,24,73,14,204,18*60
$GLGSV,3,2,10,74,00,244,,80,12,151,31,82,19,131,34,83,48,077,38*62
$GLGSV,3,3,10,84,28,007,26,,,,40*55
$GNGLL,0419.72786,S,05539.92534,E,110854.00,A,A*60
$GNRMC,110855.00,A,0419.72786,S,05539.92534,E,0.011,,030625,,,A*7A
$GNVTG,,T,,M,0.011,N,0.020,K,A*3F
$GNGGA,110855.00,0419.72786,S,05539.92534,E,1,12,0.65,11.0,M,-47.6,M,,*4C
$GNGSA,A,3,32,28,27,18,26,16,29,10,31,,,,1.51,0.65,1.37*13
$GNGSA,A,3,70,69,80,82,83,,,,,,,,1.51,0.65,1.37*1E
$GPGSV,5,1,17,08,01,321,,10,19,355,36,16,25,252,35,18,32,072,38*78
$GPGSV,5,2,17,23,04,033,25,25,02,130,23,26,29,219,27,27,35,318,38*7E
$GPGSV,5,3,17,28,43,161,37,29,21,146,39,31,28,192,31,32,68,354,38*71
$GPGSV,5,4,17,36,52,277,40,40,84,353,40,41,58,082,38,49,32,274,*77
$GPGSV,5,5,17,50,10,089,*4A
$GLGSV,3,1,10,69,23,003,37,70,50,281,32,71,23,229,25,73,14,204,18*60
$GLGSV,3,2,10,74,00,244,,80,12,151,30,82,19,131,33,83,48,077,38*64
$GLGSV,3,3,10,84,28,007,27,,,,40*54
$GNGLL,0419.72786,S,05539.92534,E,110855.00,A,A*61
$GNRMC,110856.00,A,0419.72785,S,05539.92534,E,0.006,,030625,,,A*7C
$GNVTG,,T,,M,0.006,N,0.011,K,A*3B
$GNGGA,110856.00,0419.72785,S,05539.92534,E,1,12,0.65,11.0,M,-47.6,M,,*4C
$GNGSA,A,3,32,28,27,18,26,16,29,10,31,,,,1.51,0.65,1.37*13
$GNGSA,A,3,70,69,80,82,83,,,,,,,,1.51,0.65,1.37*1E
$GPGSV,5,1,17,08,01,321,,10,19,355,36,16,25,252,34,18,32,072,38*79
$GPGSV,5,2,17,23,04,033,26,25,02,130,23,26,29,219,27,27,35,318,38*7D
$GPGSV,5,3,17,28,43,161,37,29,21,146,39,31,28,192,31,32,68,354,38*71
$GPGSV,5,4,17,36,52,277,40,40,84,353,40,41,58,082,39,49,32,274,*76
$GPGSV,5,5,17,50,10,089,*4A
$GLGSV,3,1,10,69,23,003,37,70,50,281,33,71,23,229,26,73,14,204,18*62
$GLGSV,3,2,10,74,00,244,,80,12,151,30,82,19,131,33,83,48,077,38*64
$GLGSV,3,3,10,84,28,007,27,,,,40*54
$GNGLL,0419.72785,S,05539.92534,E,110856.00,A,A*61
$GNRMC,110857.00,A,0419.72785,S,05539.92534,E,0.013,,030625,,,A*79
$GNVTG,,T,,M,0.013,N,0.024,K,A*39
$GNGGA,110857.00,0419.72785,S,05539.92534,E,1,12,0.65,11.0,M,-47.6,M,,*4D
$GNGSA,A,3,32,28,27,18,26,16,29,10,31,,,,1.51,0.65,1.37*13
$GNGSA,A,3,70,69,80,82,83,,,,,,,,1.51,0.65,1.37*1E
$GPGSV,5,1,17,08,01,321,,10,19,355,36,16,25,252,34,18,32,072,38*79
$GPGSV,5,2,17,23,04,033,26,25,02,130,23,26,29,219,27,27,35,318,38*7D
$GPGSV,5,3,17,28,43,161,36,29,21,146,39,31,28,192,29,32,68,354,38*79
$GPGSV,5,4,17,36,52,277,40,40,84,353,40,41,58,082,39,49,32,274,*76
$GPGSV,5,5,17,50,10,089,*4A
$GLGSV,3,1,10,69,23,003,37,70,50,281,32,71,23,229,26,73,14,204,19*62
$GLGSV,3,2,10,74,00,244,,80,12,151,30,82,19,131,34,83,48,077,38*63
$GLGSV,3,3,10,84,28,007,27,,,,40*54
$GNGLL,0419.72785,S,05539.92534,E,110857.00,A,A*60
$GNRMC,110858.00,A,0419.72786,S,05539.92534,E,0.016,,030625,,,A*70
$GNVTG,,T,,M,0.016,N,0.029,K,A*31
$GNGGA,110858.00,0419.72786,S,05539.92534,E,1,12,0.65,11.0,M,-47.6,M,,*41
$GNGSA,A,3,32,28,27,18,26,16,29,10,31,,,,1.51,0.65,1.37*13
$GNGSA,A,3,70,69,80,82,83,,,,,,,,1.51,0.65,1.37*1E
$GPGSV,5,1,17,08,01,321,,10,19,355,36,16,25,252,35,18,32,072,38*78
$GPGSV,5,2,17,23,04,033,24,25,02,130,22,26,29,219,26,27,35,318,38*7F
$GPGSV,5,3,17,28,43,161,37,29,21,146,39,31,28,192,30,32,68,354,38*70
$GPGSV,5,4,17,36,52,277,40,40,84,353,40,41,58,082,39,49,32,274,*76
$GPGSV,5,5,17,50,10,089,*4A
$GLGSV,3,1,10,69,23,003,36,70,50,281,32,71,23,229,25,73,14,204,19*60
$GLGSV,3,2,10,74,00,244,,80,12,151,31,82,19,131,34,83,48,077,38*62
$GLGSV,3,3,10,84,28,007,26,,,,40*55
$GNGLL,0419.72786,S,05539.92534,E,110858.00,A,A*6C
$GNRMC,110859.00,A,0419.72786,S,05539.92534,E,0.017,,030625,,,A*70
$GNVTG,,T,,M,0.017,N,0.032,K,A*3A
$GNGGA,110859.00,0419.72786,S,05539.92534,E,1,12,0.65,10.9,M,-47.6,M,,*48
$GNGSA,A,3,32,28,27,18,26,16,29,10,31,,,,1.51,0.65,1.37*13
$GNGSA,A,3,70,69,80,82,83,,,,,,,,1.51,0.65,1.37*1E
$GPGSV,5,1,17,08,01,321,,10,19,355,36,16,25,252,35,18,32,072,38*78
$GPGSV,5,2,17,23,04,033,22,25,02,130,22,26,29,219,26,27,35,318,38*79
$GPGSV,5,3,17,28,43,161,38,29,21,146,39,31,28,192,32,32,68,354,38*7D
$GPGSV,5,4,17,36,52,277,40,40,84,353,40,41,58,082,39,49,32,274,*76
$GPGSV,5,5,17,50,10,089,*4A
$GLGSV,3,1,10,69,23,003,36,70,50,281,32,71,23,229,26,73,14,204,18*62
$GLGSV,3,2,10,74,00,244,,80,12,151,31,82,19,131,34,83,48,077,39*63
$GLGSV,3,3,10,84,28,007,27,,,,40*54
$GNGLL,0419.72786,S,05539.92534,E,110859.00,A,A*6D
$GNRMC,110900.00,A,0419.72784,S,05539.92533,E,0.031,,030625,,,A*7C
$GNVTG,,T,,M,0.031,N,0.057,K,A*3D
$GNGGA,110900.00,0419.72784,S,05539.92533,E,1,12,0.65,10.8,M,-47.6,M,,*41
$GNGSA,A,3,32,28,27,18,26,16,29,10,31,,,,1.51,0.65,1.36*12
$GNGSA,A,3,70,69,80,82,83,,,,,,,,1.51,0.65,1.36*1F
$GPGSV,5,1,17,08,01,321,,10,19,355,37,16,25,252,36,18,32,072,38*7A
$GPGSV,5,2,17,23,04,033,19,25,02,130,21,26,29,219,26,27,35,318,37*7D
$GPGSV,5,3,17,28,43,161,39,29,21,146,39,31,28,192,33,32,68,354,39*7C
$GPGSV,5,4,17,36,52,277,38,40,84,353,40,41,58,082,37,49,32,274,*77
$GPGSV,5,5,17,50,10,089,*4A
$GLGSV,3,1,10,69,23,003,37,70,50,281,32,71,23,229,25,73,14,204,16*6E
$GLGSV,3,2,10,74,00,244,,80,12,151,30,82,19,131,34,83,48,077,39*62
$GLGSV,3,3,10,84,28,007,26,,,,41*54
$GNGLL,0419.72784,S,05539.92533,E,110900.00,A,A*65
$GNRMC,110901.00,A,0419.72783,S,05539.92534,E,0.007,,030625,,,A*78
$GNVTG,,T,,M,0.007,N,0.012,K,A*39
$GNGGA,110901.00,0419.72783,S,05539.92534,E,1,12,0.65,10.7,M,-47.6,M,,*4F
$GNGSA,A,3,32,28,27,18,26,16,29,10,31,,,,1.51,0.65,1.36*12
$GNGSA,A,3,70,69,80,82,83,,,,,,,,1.51,0.65,1.36*1F
$GPGSV,5,1,17,08,01,321,,10,19,355,36,16,25,252,36,18,32,072,37*74
$GPGSV,5,2,17,23,04,033,19,25,02,130,21,26,29,219,26,27,35,318,38*72
$GPGSV,5,3,17,28,43,161,38,29,21,146,39,31,28,192,32,32,68,354,39*7C
$GPGSV,5,4,17,36,52,277,39,40,84,353,39,41,58,082,38,49,32,274,*77
$GPGSV,5,5,17,50,10,089,*4A
$GLGSV,3,1,10,69,23,003,36,70,50,281,32,71,23,229,25,73,14,204,15*6C
$GLGSV,3,2,10,74,00,244,,80,12,151,31,82,19,131,34,83,48,077,38*62
$GLGSV,3,3,10,84,28,007,27,,,,41*55
$GNGLL,0419.72783,S,05539.92534,E,110901.00,A,A*64
$GNRMC,110902.00,A,0419.72782,S,05539.92535,E,0.027,,030625,,,A*79
$GNVTG,,T,,M,0.027,N,0.051,K,A*3C
$GNGGA,110902.00,0419.72782,S,05539.92535,E,1,12,0.65,10.7,M,-47.6,M,,*4C
$GNGSA,A,3,32,28,27,18,26,16,29,10,31,,,,1.51,0.65,1.36*12
$GNGSA,A,3,70,69,80,82,83,,,,,,,,1.51,0.65,1.36*1F
$GPGSV,5,1,17,08,01,321,,10,19,355,36,16,25,252,34,18,32,072,38*79
$GPGSV,5,2,17,23,04,033,22,25,02,130,21,26,29,219,26,27,35,318,38*7A
$GPGSV,5,3,17,28,43,161,36,29,21,146,39,31,28,192,30,32,68,354,39*70
$GPGSV,5,4,17,36,52,277,39,40,84,353,40,41,58,082,38,49,32,274,*79
$GPGSV,5,5,17,50,10,089,*4A
$GLGSV,3,1,10,69,23,003,37,70,50,281,32,71,23,229,25,73,14,204,17*6F
$GLGSV,3,2,10,74,00,244,,80,12,151,31,82,19,131,33,83,48,077,39*64
$GLGSV,3,3,10,84,28,007,27,,,,40*54
$GNGLL,0419.72782,S,05539.92535,E,110902.00,A,A*67
$GNRMC,110903.00,A,0419.72780,S,05539.92534,E,0.032,,030625,,,A*7F
$GNVTG,,T,,M,0.032,N,0.059,K,A*30
$GNGGA,110903.00,0419.72780,S,05539.92534,E,1,12,0.65,10.6,M,-47.6,M,,*4F
$GNGSA,A,3,32,28,27,18,26,16,29,10,31,,,,1.51,0.65,1.36*12
$GNGSA,A,3,70,69,80,82,83,,,,,,,,1.51,0.65,1.36*1F
$GPGSV,5,1,17,08,01,321,,10,19,355,36,16,25,252,34,18,32,072,38*79
$GPGSV,5,2,17,23,04,033,24,25,02,130,22,26,29,219,26,27,35,318,37*70
$GPGSV,5,3,17,28,43,161,36,29,21,146,39,31,28,192,29,32,68,354,38*79
$GPGSV,5,4,17,36,52,277,39,40,84,353,40,41,58,082,38,49,32,274,*79
$GPGSV,5,5,17,50,10,089,*4A
$GLGSV,3,1,10,69,23,003,37,70,50,281,32,71,23,229,25,73,14,204,19*61
$GLGSV,3,2,10,74,00,244,,80,12,151,31,82,19,131,33,83,48,077,38*65
$GLGSV,3,3,10,84,28,007,27,,,,40*54
$GNGLL,0419.72780,S,05539.92534,E,110903.00,A,A*65
$GNRMC,110904.00,A,0419.72779,S,05539.92535,E,0.013,,030625,,,A*7C
$GNVTG,,T,,M,0.013,N,0.024,K,A*39
$GNGGA,110904.00,0419.72779,S,05539.92535,E,1,12,0.65,10.5,M,-47.6,M,,*4C
$GNGSA,A,3,32,28,27,18,26,16,29,10,31,,,,1.51,0.65,1.36*12
$GNGSA,A,3,70,69,80,82,83,,,,,,,,1.51,0.65,1.36*1F
$GPGSV,5,1,17,08,01,321,,10,19,355,36,16,25,252,34,18,32,072,39*78
$GPGSV,5,2,17,23,04,033,23,25,02,130,22,26,29,219,26,27,35,318,38*78
$GPGSV,5,3,17,28,43,161,36,29,21,146,39,31,28,192,29,32,68,354,38*79
$GPGSV,5,4,17,36,52,277,40,40,84,353,40,41,58,082,39,49,32,274,*76
$GPGSV,5,5,17,50,10,089,*4A
$GLGSV,3,1,10,69,23,003,37,70,50,281,32,71,23,229,25,73,14,204,20*6B
$GLGSV,3,2,10,74,00,244,,80,12,151,30,82,19,131,33,83,48,077,38*64
$GLGSV,3,3,10,84,28,007,28,,,,40*5B
$GNGLL,0419.72779,S,05539.92535,E,110904.00,A,A*65
$GNRMC,110905.00,A,0419.72778,S,05539.92534,E,0.016,,030625,,,A*78
$GNVTG,,T,,M,0.016,N,0.029,K,A*31
$GNGGA,110905.00,0419.72778,S,05539.92534,E,1,12,0.65,10.4,M,-47.6,M,,*4C
$GNGSA,A,3,32,28,27,18,26,16,29,10,31,,,,1.51,0.65,1.36*12
$GNGSA,A,3,70,69,80,82,83,,,,,,,,1.51,0.65,1.36*1F
$GPGSV,5,1,17,08,01,321,,10,19,355,36,16,25,251,34,18,32,072,39*7B
$GPGSV,5,2,17,23,04,033,22,25,02,130,23,26,29,219,26,27,35,318,38*78
$GPGSV,5,3,17,28,43,161,36,29,21,146,39,31,28,192,29,32,68,354,38*79
$GPGSV,5,4,17,36,52,277,40,40,84,353,40,41,58,082,39,49,32,274,*76
$GPGSV,5,5,17,50,10,089,*4A
$GLGSV,3,1,10,69,23,003,37,70,50,281,33,71,23,229,25,73,14,204,20*6A
$GLGSV,3,2,10,74,00,244,,80,12,151,31,82,19,131,33,83,48,077,38*65
$GLGSV,3,3,10,84,28,007,27,,,,40*54
$GNGLL,0419.72778,S,05539.92534,E,110905.00,A,A*64
$GNRMC,110906.00,A,0419.72778,S,05539.92534,E,0.004,,030625,,,A*78
$GNVTG,,T,,M,0.004,N,0.007,K,A*3E
$GNGGA,110906.00,0419.72778,S,05539.92534,E,1,12,0.65,10.3,M,-47.6,M,,*48
$GNGSA,A,3,32,28,27,18,26,16,29,10,31,,,,1.51,0.65,1.36*12
$GNGSA,A,3,70,69,80,82,83,,,,,,,,1.51,0.65,1.36*1F
$GPGSV,5,1,17,08,01,321,,10,19,355,37,16,25,251,34,18,32,072,38*7B
$GPGSV,5,2,17,23,04,033,23,25,02,130,23,26,29,219,26,27,35,318,38*79
$GPGSV,5,3,17,28,43,161,36,29,21,146,39,31,28,192,30,32,68,354,38*71
$GPGSV,5,4,17,36,52,277,40,40,84,353,40,41,58,082,39,49,32,274,*76
$GPGSV,5,5,17,50,10,089,*4A
$GLGSV,3,1,10,69,23,003,37,70,50,281,32,71,23,229,24,73,14,204,20*6A
$GLGSV,3,2,10,74,00,244,,80,12,151,31,82,19,131,33,83,48,077,38*65
$GLGSV,3,3,10,84,28,007,28,,,,40*5B
$GNGLL,0419.72778,S,05539.92534,E,110906.00,A,A*67
$GNRMC,110907.00,A,0419.72776,S,05539.92534,E,0.021,,030625,,,A*70
$GNVTG,,T,,M,0.021,N,0.038,K,A*35
$GNGGA,110907.00,0419.72776,S,05539.92534,E,1,12,0.65,10.2,M,-47.6,M,,*46
$GNGSA,A,3,32,28,27,18,26,16,29,10,31,,,,1.51,0.65,1.36*12
$GNGSA,A,3,70,69,80,82,83,,,,,,,,1.51,0.65,1.36*1F
$GPGSV,5,1,17,08,01,321,,10,19,355,37,16,25,251,34,18,32,072,38*7B
$GPGSV,5,2,17,23,04,033,25,25,02,130,23,26,29,219,27,27,35,318,37*71
$GPGSV,5,3,17,28,43,161,36,29,21,146,39,31,28,192,29,32,68,354,38*79
$GPGSV,5,4,17,36,52,277,39,40,84,353,41,41,58,082,39,49,32,274,*79
$GPGSV,5,5,17,50,10,089,*4A
$GLGSV,3,1,10,69,23,003,37,70,50,281,32,71,23,229,25,73,14,204,20*6B
$GLGSV,3,2,10,74,00,244,,80,12,151,31,82,19,131,34,83,48,077,38*62
$GLGSV,3,3,10,84,28,007,28,,,,40*5B
$GNGLL,0419.72776,S,05539.92534,E,110907.00,A,A*68
$GNRMC,110908.00,A,0419.72775,S,05539.92535,E,0.006,,030625,,,A*78
$GNVTG,,T,,M,0.006,N,0.012,K,A*38
$GNGGA,110908.00,0419.72775,S,05539.92535,E,1,12,0.65,10.1,M,-47.6,M,,*48
$GNGSA,A,3,32,28,27,18,26,16,29,10,31,,,,1.51,0.65,1.36*12
$GNGSA,A,3,70,69,80,82,83,,,,,,,,1.51,0.65,1.36*1F
$GPGSV,5,1,17,08,01,321,,10,19,355,37,16,25,251,34,18,32,072,38*7B
$GPGSV,5,2,17,23,04,033,26,25,02,130,23,26,29,219,27,27,35,318,37*72
$GPGSV,5,3,17,28,43,161,35,29,21,146,39,31,28,192,29,32,68,354,38*7A
$GPGSV,5,4,17,36,52,277,39,40,84,353,41,41,58,082,38,49,32,274,*78
$GPGSV,5,5,17,50,10,089,*4A
$GLGSV,3,1,10,69,23,003,37,70,50,281,32,71,23,229,24,73,14,204,20*6A
$GLGSV,3,2,10,74,00,244,,80,12,151,32,82,19,131,33,83,48,077,37*69
$GLGSV,3,3,10,84,28,007,28,,,,40*5B
$GNGLL,0419.72775,S,05539.92535,E,110908.00,A,A*65
$GNRMC,110909.00,A,0419.72773,S,05539.92535,E,0.018,,030625,,,A*70
$GNVTG,,T,,M,0.018,N,0.033,K,A*34
$GNGGA,110909.00,0419.72773,S,05539.92535,E,1,12,0.65,10.0,M,-47.6,M,,*4E
$GNGSA,A,3,32,28,27,18,26,16,29,10,31,,,,1.51,0.65,1.36*12
$GNGSA,A,3,70,69,80,82,83,,,,,,,,1.51,0.65,1.36*1F
$GPGSV,5,1,17,08,01,321,,10,19,355,37,16,25,251,34,18,32,072,38*7B
$GPGSV,5,2,17,23,04,033,26,25,02,130,23,26,29,219,27,27,35,318,37*72
$GPGSV,5,3,17,28,43,161,35,29,21,146,39,31,28,192,29,32,68,354,38*7A
$GPGSV,5,4,17,36,52,277,39,40,84,353,40,41,58,082,39,49,32,274,*78
$GPGSV,5,5,17,50,10,089,*4A
$GLGSV,3,1,10,69,23,003,37,70,50,281,32,71,23,229,25,73,14,204,20*6B
$GLGSV,3,2,10,74,00,244,,80,12,151,31,82,19,131,34,83,48,077,38*62
$GLGSV,3,3,10,84,28,007,28,,,,40*5B
$GNGLL,0419.72773,S,05539.92535,E,110909.00,A,A*62
$GNRMC,110910.00,A,0419.72772,S,05539.92535,E,0.033,,030625,,,A*70
$GNVTG,,T,,M,0.033,N,0.060,K,A*3B
$GNGGA,110910.00,0419.72772,S,05539.92535,E,1,12,0.65,9.9,M,-47.6,M,,*76
$GNGSA,A,3,32,28,27,18,26,16,29,10,31,,,,1.51,0.65,1.36*12
$GNGSA,A,3,70,69,80,82,83,,,,,,,,1.51,0.65,1.36*1F
$GPGSV,5,1,17,08,01,321,,10,19,355,37,16,25,251,34,18,32,072,38*7B
$GPGSV,5,2,17,23,04,033,26,25,02,130,22,26,29,219,26,27,35,318,38*7D
$GPGSV,5,3,17,28,43,161,35,29,21,146,39,31,28,192,29,32,68,354,38*7A
$GPGSV,5,4,17,36,52,277,39,40,84,353,41,41,58,082,39,49,32,274,*79
$GPGSV,5,5,17,50,10,089,*4A
$GLGSV,3,1,10,69,23,003,37,70,50,281,32,71,23,229,25,73,14,204,20*6B
$GLGSV,3,2,10,74,00,244,,80,12,151,31,82,19,131,34,83,48,077,38*62
$GLGSV,3,3,10,84,28,007,28,,,,40*5B
$GNGLL,0419.72772,S,05539.92535,E,110910.00,A,A*6B
$GNRMC,110911.00,A,0419.72770,S,05539.92535,E,0.023,,030625,,,A*72
$GNVTG,,T,,M,0.023,N,0.043,K,A*3B
$GNGGA,110911.00,0419.72770,S,05539.92535,E,1,12,0.65,9.8,M,-47.6,M,,*74
$GNGSA,A,3,32,28,27,18,26,16,29,10,31,,,,1.51,0.65,1.36*12
$GNGSA,A,3,70,69,80,82,83,,,,,,,,1.51,0.65,1.36*1F
$GPGSV,5,1,17,08,01,321,,10,19,355,37,16,25,251,34,18,32,072,38*7B
$GPGSV,5,2,17,23,04,033,25,25,02,130,22,26,29,219,27,27,35,318,38*7F
$GPGSV,5,3,17,28,43,161,35,29,21,146,39,31,28,192,28,32,68,354,38*7B
$GPGSV,5,4,17,36,52,277,39,40,84,353,40,41,58,082,38,49,32,274,*79
$GPGSV,5,5,17,50,10,089,*4A
$GLGSV,3,1,10,69,23,003,37,70,50,281,32,71,23,229,25,73,14,204,21*6A
$GLGSV,3,2,10,74,00,244,,80,12,151,31,82,19,131,34,83,48,077,37*6D
$GLGSV,3,3,10,84,28,007,28,,,,40*5B
$GNGLL,0419.72770,S,05539.92535,E,110911.00,A,A*68
$GNRMC,110912.00,A,0419.72769,S,05539.92535,E,0.013,,030625,,,A*7A
$GNVTG,,T,,M,0.013,N,0.024,K,A*39
$GNGGA,110912.00,0419.72769,S,05539.92535,E,1,12,0.65,9.8,M,-47.6,M,,*7F
$GNGSA,A,3,32,28,27,18,26,16,29,10,31,,,,1.51,0.65,1.36*12
$GNGSA,A,3,70,69,80,82,83,,,,,,,,1.51,0.65,1.36*1F
$GPGSV,5,1,17,08,01,321,,10,19,355,37,16,25,251,34,18,32,072,38*7B
$GPGSV,5,2,17,23,04,033,25,25,02,130,21,26,29,219,27,27,35,318,37*73
$GPGSV,5,3,17,28,43,161,35,29,21,146,39,31,28,192,29,32,68,354,38*7A
$GPGSV,5,4,17,36,52,277,39,40,84,353,41,41,58,082,38,49,32,274,*78
$GPGSV,5,5,17,50,10,089,*4A
$GLGSV,3,1,10,69,23,003,37,70,50,281,31,71,23,229,25,73,14,204,20*68
$GLGSV,3,2,10,74,00,244,,80,12,151,31,82,19,131,34,83,48,077,37*6D
$GLGSV,3,3,10,84,28,007,28,,,,40*5B
$GNGLL,0419.72769,S,05539.92535,E,110912.00,A,A*63
$GNRMC,110913.00,A,0419.72767,S,05539.92535,E,0.026,,030625,,,A*73
$GNVTG,,T,,M,0.026,N,0.048,K,A*35
$GNGGA,110913.00,0419.72767,S,05539.92535,E,1,12,0.65,9.7,M,-47.6,M,,*7F
$GNGSA,A,3,32,28,27,18,26,16,29,10,31,,,,1.51,0.65,1.36*12
$GNGSA,A,3,70,69,80,82,83,,,,,,,,1.51,0.65,1.36*1F
$GPGSV,5,1,17,08,01,321,,10,19,355,37,16,25,251,36,18,32,072,38*79
$GPGSV,5,2,17,23,04,033,25,25,02,130,22,26,29,219,27,27,35,318,37*70
$GPGSV,5,3,17,28,43,161,36,29,21,146,39,31,28,192,33,32,68,354,39*73
$GPGSV,5,4,17,36,52,277,38,40,84,353,40,41,58,082,39,49,32,274,*79
$GPGSV,5,5,17,50,10,089,*4A
$GLGSV,3,1,10,69,23,003,37,70,50,281,31,71,23,229,26,73,14,204,20*6B
$GLGSV,3,2,10,74,00,244,,80,12,151,31,82,19,131,34,83,48,077,38*62
$GLGSV,3,3,10,84,28,007,28,,,,41*5A
$GNGLL,0419.72767,S,05539.92535,E,110913.00,A,A*6C
$GNRMC,110914.00,A,0419.72766,S,05539.92535,E,0.011,,030625,,,A*71
$GNVTG,,T,,M,0.011,N,0.020,K,A*3F
$GNGGA,110914.00,0419.72766,S,05539.92535,E,1,12,0.65,9.7,M,-47.6,M,,*79
$GNGSA,A,3,32,28,27,18,26,16,29,10,31,,,,1.51,0.65,1.36*12
$GNGSA,A,3,70,69,80,82,83,,,,,,,,1.51,0.65,1.36*1F
$GPGSV,5,1,17,08,01,321,,10,19,355,36,16,25,251,34,18,32,072,39*7B
$GPGSV,5,2,17,23,04,033,23,25,02,130,21,26,29,219,24,27,35,318,37*76
$GPGSV,5,3,17,28,43,161,38,29,21,146,39,31,28,192,29,32,68,354,38*77
$GPGSV,5,4,17,36,52,277,38,40,84,353,40,41,58,082,39,49,32,274,*79
$GPGSV,5,5,17,50,10,089,*4A
$GLGSV,3,1,10,69,23,003,37,70,50,281,32,71,23,229,26,73,14,204,19*62
$GLGSV,3,2,10,74,00,244,,80,12,151,31,82,19,131,34,83,48,077,37*6D
$GLGSV,3,3,10,84,28,007,28,,,,40*5B
$GNGLL,0419.72766,S,05539.92535,E,110914.00,A,A*6A
$GNRMC,110915.00,A,0419.72765,S,05539.92535,E,0.013,,030625,,,A*71
$GNVTG,,T,,M,0.013,N,0.025,K,A*38
$GNGGA,110915.00,0419.72765,S,05539.92535,E,1,12,0.65,9.6,M,-47.6,M,,*7A
$GNGSA,A,3,32,28,27,18,26,16,29,10,31,,,,1.51,0.65,1.36*12
$GNGSA,A,3,70,69,80,82,83,,,,,,,,1.51,0.65,1.36*1F
$GPGSV,5,1,17,08,01,321,,10,19,355,36,16,25,251,34,18,32,072,39*7B
$GPGSV,5,2,17,23,04,033,22,25,02,130,21,26,29,219,23,27,36,317,37*7C
$GPGSV,5,3,17,28,43,161,38,29,21,146,39,31,28,192,31,32,68,354,38*7E
$GPGSV,5,4,17,36,52,277,38,40,84,353,40,41,58,082,39,49,32,274,*79
$GPGSV,5,5,17,50,10,089,*4A
$GLGSV,3,1,10,69,23,003,37,70,50,281,32,71,23,229,27,73,14,204,*6B
$GLGSV,3,2,10,74,00,244,,80,12,151,32,82,19,131,35,83,48,077,37*6F
$GLGSV,3,3,10,84,28,007,28,,,,40*5B
$GNGLL,0419.72765,S,05539.92535,E,110915.00,A,A*68
$GNRMC,110916.00,A,0419.72763,S,05539.92535,E,0.016,,030625,,,A*71
$GNVTG,,T,,M,0.016,N,0.029,K,A*31
$GNGGA,110916.00,0419.72763,S,05539.92535,E,1,12,0.65,9.6,M,-47.6,M,,*7F
$GNGSA,A,3,32,28,27,18,26,16,29,10,31,,,,1.51,0.65,1.36*12
$GNGSA,A,3,70,69,80,82,83,,,,,,,,1.51,0.65,1.36*1F
$GPGSV,5,1,17,08,01,321,,10,19,355,35,16,25,251,35,18,32,072,39*79
$GPGSV,5,2,17,23,04,033,21,25,02,130,21,26,29,219,22,27,36,317,38*71
$GPGSV,5,3,17,28,43,160,38,29,21,146,39,31,28,192,31,32,68,354,38*7F
$GPGSV,5,4,17,36,52,277,38,40,84,353,40,41,58,082,39,49,32,274,*79
$GPGSV,5,5,17,50,10,089,*4A
$GLGSV,3,1,10,69,23,003,37,70,50,281,31,71,23,229,28,73,14,204,*67
$GLGSV,3,2,10,74,00,244,,80,12,151,32,82,19,131,34,83,48,077,38*61
$GLGSV,3,3,10,84,28,007,28,,,,40*5B
$GNGLL,0419.72763,S,05539.92535,E,110916.00,A,A*6D
$GNRMC,110917.00,A,0419.72763,S,05539.92534,E,0.023,,030625,,,A*77
$GNVTG,,T,,M,0.023,N,0.043,K,A*3B
$GNGGA,110917.00,0419.72763,S,05539.92534,E,1,12,0.65,9.5,M,-47.6,M,,*7C
$GNGSA,A,3,32,28,27,18,26,16,29,10,31,,,,1.51,0.65,1.36*12
$GNGSA,A,3,70,69,80,82,83,,,,,,,,1.51,0.65,1.36*1F
$GPGSV,5,1,17,08,01,321,,10,19,355,36,16,25,251,34,18,32,072,38*7A
$GPGSV,5,2,17,23,04,033,22,25,02,130,21,26,29,219,23,27,36,317,38*73
$GPGSV,5,3,17,28,43,160,38,29,21,147,39,31,28,192,31,32,68,354,38*7E
$GPGSV,5,4,17,36,52,277,38,40,84,353,40,41,58,082,39,49,32,274,*79
$GPGSV,5,5,17,50,10,089,*4A
$GLGSV,3,1,10,69,23,003,37,70,50,281,32,71,23,229,29,73,14,204,*65
$GLGSV,3,2,10,74,00,244,,80,12,151,32,82,19,131,34,83,48,077,38*61
$GLGSV,3,3,10,84,28,007,28,,,,41*5A
$GNGLL,0419.72763,S,05539.92534,E,110917.00,A,A*6D
$GNRMC,110918.00,A,0419.72761,S,05539.92533,E,0.023,,030625,,,A*7D
$GNVTG,,T,,M,0.023,N,0.043,K,A*3B
$GNGGA,110918.00,0419.72761,S,05539.92533,E,1,12,0.65,9.5,M,-47.6,M,,*76
$GNGSA,A,3,32,28,27,18,26,16,29,10,31,,,,1.51,0.65,1.36*12
$GNGSA,A,3,70,69,80,82,83,,,,,,,,1.51,0.65,1.36*1F
$GPGSV,5,1,17,08,01,321,,10,19,355,36,16,25,251,34,18,32,072,39*7B
$GPGSV,5,2,17,23,04,033,22,25,02,130,21,26,29,219,22,27,36,317,38*72
$GPGSV,5,3,17,28,43,160,38,29,21,147,39,31,28,192,31,32,68,354,39*7F
$GPGSV,5,4,17,36,52,277,39,40,84,353,40,41,58,082,39,49,32,274,*78
$GPGSV,5,5,17,50,10,089,*4A
$GLGSV,3,1,10,69,23,003,37,70,50,281,32,71,23,229,22,73,14,204,*6E
$GLGSV,3,2,10,74,00,244,,80,12,151,32,82,19,131,34,83,48,077,38*61
$GLGSV,3,3,10,84,28,007,28,,,,40*5B
$GNGLL,0419.72761,S,05539.92533,E,110918.00,A,A*67
$GNRMC,110919.00,A,0419.72761,S,05539.92532,E,0.022,,030625,,,A*7C
$GNVTG,,T,,M,0.022,N,0.041,K,A*38
$GNGGA,110919.00,0419.72761,S,05539.92532,E,1,12,0.65,9.5,M,-47.6,M,,*76
$GNGSA,A,3,32,28,27,18,26,16,29,10,31,,,,1.51,0.65,1.36*12
$GNGSA,A,3,70,69,80,82,83,,,,,,,,1.51,0.65,1.36*1F
$GPGSV,5,1,17,08,01,321,,10,19,355,36,16,25,251,34,18,32,072,39*7B
$GPGSV,5,2,17,23,04,033,21,25,02,130,20,26,29,219,21,27,36,317,38*73
$GPGSV,5,3,17,28,43,160,38,29,21,147,39,31,28,192,31,32,68,354,39*7F
$GPGSV,5,4,17,36,52,277,39,40,84,353,40,41,58,082,39,49,32,274,*78
$GPGSV,5,5,17,50,10,089,*4A
$GLGSV,3,1,10,69,23,003,37,70,50,281,32,71,23,229,30,73,14,204,*6D
$GLGSV,3,2,10,74,00,244,,80,12,151,32,82,19,131,34,83,48,077,38*61
$GLGSV,3,3,10,84,28,007,28,,,,40*5B
$GNGLL,0419.72761,S,05539.92532,E,110919.00,A,A*67
$GNRMC,110920.00,A,0419.72759,S,05539.92531,E,0.017,,030625,,,A*78
$GNVTG,,T,,M,0.017,N,0.032,K,A*3A
$GNGGA,110920.00,0419.72759,S,05539.92531,E,1,12,0.65,9.4,M,-47.6,M,,*75
$GNGSA,A,3,32,28,27,18,26,16,29,10,31,,,,1.51,0.65,1.36*12
$GNGSA,A,3,70,69,80,82,83,,,,,,,,1.51,0.65,1.36*1F
$GPGSV,5,1,17,08,01,321,,10,19,355,36,16,25,251,34,18,32,072,39*7B
$GPGSV,5,2,17,23,04,033,21,25,02,130,20,26,29,219,21,27,36,317,38*73
$GPGSV,5,3,17,28,43,160,38,29,21,147,39,31,28,192,30,32,67,355,39*70
$GPGSV,5,4,17,36,52,277,39,40,84,353,40,41,58,082,39,49,32,274,*78
$GPGSV,5,5,17,50,10,089,*4A
$GLGSV,3,1,10,69,23,003,37,70,50,281,32,71,23,229,21,73,14,204,*6D
$GLGSV,3,2,10,74,00,244,,80,12,151,32,82,19,131,34,83,48,077,38*61
$GLGSV,3,3,10,84,28,007,28,,,,40*5B
$GNGLL,0419.72759,S,05539.92531,E,110920.00,A,A*65
$GNRMC,110921.00,A,0419.72759,S,05539.92531,E,0.049,,030625,,,A*72
$GNVTG,,T,,M,0.049,N,0.091,K,A*38
$GNGGA,110921.00,0419.72759,S,05539.92531,E,1,12,0.65,9.4,M,-47.6,M,,*74
$GNGSA,A,3,32,28,27,18,26,16,29,10,31,,,,1.51,0.65,1.36*12
$GNGSA,A,3,70,69,80,82,83,,,,,,,,1.51,0.65,1.36*1F
$GPGSV,5,1,17,08,01,321,,10,19,355,36,16,25,251,35,18,32,072,39*7A
$GPGSV,5,2,17,23,04,033,25,25,02,130,23,26,29,219,25,27,36,317,39*71
$GPGSV,5,3,17,28,43,160,38,29,21,147,40,31,28,192,31,32,67,355,39*7F
$GPGSV,5,4,17,36,52,277,39,40,84,353,40,41,58,082,39,49,32,274,*78
$GPGSV,5,5,17,50,10,089,*4A
$GLGSV,3,1,10,69,23,003,36,70,50,281,30,71,23,229,26,73,14,204,*69
$GLGSV,3,2,10,74,00,244,,80,12,151,31,82,19,131,33,83,48,077,37*6A
$GLGSV,3,3,10,84,28,007,29,,,,41*5B
$GNGLL,0419.72759,S,05539.92531,E,110921.00,A,A*64
$GNRMC,110922.00,A,0419.72759,S,05539.92530,E,0.056,,030625,,,A*7E
$GNVTG,,T,,M,0.056,N,0.104,K,A*3B
$GNGGA,110922.00,0419.72759,S,05539.92530,E,1,12,0.65,9.4,M,-47.6,M,,*76
$GNGSA,A,3,32,28,27,18,26,16,29,10,31,,,,1.51,0.65,1.36*12
$GNGSA,A,3,70,69,80,82,83,,,,,,,,1.51,0.65,1.36*1F
$GPGSV,5,1,17,08,01,321,,10,19,355,37,16,25,251,35,18,32,072,42*77
$GPGSV,5,2,17,23,04,033,23,25,02,130,22,26,29,219,24,27,36,317,40*79
$GPGSV,5,3,17,28,43,160,41,29,21,147,40,31,28,192,31,32,67,355,42*7D
$GPGSV,5,4,17,36,52,277,40,40,84,353,43,41,58,082,42,49,32,274,*79
$GPGSV,5,5,17,50,10,089,*4A
$GLGSV,3,1,10,69,23,003,37,70,50,281,31,71,23,229,27,73,14,204,*68
$GLGSV,3,2,10,74,00,244,,80,12,151,31,82,19,131,35,83,48,077,39*62
$GLGSV,3,3,10,84,28,007,28,,,,41*5A
$GNGLL,0419.72759,S,05539.92530,E,110922.00,A,A*66
$GNRMC,110923.00,A,0419.72758,S,05539.92530,E,0.038,,030625,,,A*76
$GNVTG,,T,,M,0.038,N,0.070,K,A*31
$GNGGA,110923.00,0419.72758,S,05539.92530,E,1,12,0.65,9.4,M,-47.6,M,,*76
$GNGSA,A,3,32,28,27,18,26,16,29,10,31,,,,1.51,0.65,1.36*12
$GNGSA,A,3,70,69,80,82,83,,,,,,,,1.51,0.65,1.36*1F
$GPGSV,5,1,17,08,01,321,22,10,19,355,38,16,25,251,36,18,32,072,41*78
$GPGSV,5,2,17,23,04,033,24,25,02,130,22,26,29,219,23,27,36,317,41*78
$GPGSV,5,3,17,28,43,160,40,29,21,147,41,31,28,192,31,32,67,355,41*7E
$GPGSV,5,4,17,36,52,277,41,40,84,353,43,41,58,082,42,49,32,274,*78
$GPGSV,5,5,17,50,10,089,*4A
$GLGSV,3,1,10,69,23,003,37,70,50,281,32,71,23,229,28,73,14,204,*64
$GLGSV,3,2,10,74,00,244,,80,12,151,32,82,19,132,35,83,48,077,38*63
$GLGSV,3,3,10,84,28,007,28,,,,40*5B
$GNGLL,0419.72758,S,05539.92530,E,110923.00,A,A*66
$GNRMC,110924.00,A,0419.72756,S,05539.92530,E,0.037,,030625,,,A*70
$GNVTG,,T,,M,0.037,N,0.069,K,A*36
$GNGGA,110924.00,0419.72756,S,05539.92530,E,1,12,0.65,9.4,M,-47.6,M,,*7F
$GNGSA,A,3,32,28,27,18,26,16,29,10,31,,,,1.51,0.65,1.36*12
$GNGSA,A,3,70,69,80,82,83,,,,,,,,1.51,0.65,1.36*1F
$GPGSV,5,1,17,08,01,321,19,10,19,355,38,16,25,251,36,18,32,072,41*70
$GPGSV,5,2,17,23,04,033,23,25,02,130,21,26,29,219,21,27,36,317,40*7F
$GPGSV,5,3,17,28,43,160,40,29,21,147,41,31,28,192,31,32,67,355,41*7E
$GPGSV,5,4,17,36,52,277,40,40,84,353,42,41,58,082,41,49,32,274,*7B
$GPGSV,5,5,17,50,10,089,*4A
$GLGSV,3,1,10,69,23,003,38,70,50,281,32,71,23,229,28,73,14,204,*6B
$GLGSV,3,2,10,74,00,244,,80,12,151,32,82,19,132,35,83,48,077,38*63
$GLGSV,3,3,10,84,28,007,28,,,,40*5B
$GNGLL,0419.72756,S,05539.92530,E,110924.00,A,A*6F
$GNRMC,110925.00,A,0419.72755,S,05539.92530,E,0.031,,030625,,,A*74
$GNVTG,,T,,M,0.031,N,0.058,K,A*32
$GNGGA,110925.00,0419.72755,S,05539.92530,E,1,12,0.65,9.4,M,-47.6,M,,*7D
$GNGSA,A,3,32,28,27,18,26,16,29,10,31,,,,1.51,0.65,1.36*12
$GNGSA,A,3,70,69,80,82,83,,,,,,,,1.51,0.65,1.36*1F
$GPGSV,5,1,17,08,01,321,17,10,19,355,38,16,25,251,35,18,32,072,41*7D
$GPGSV,5,2,17,23,04,033,25,25,02,130,21,26,29,219,21,27,36,317,40*79
$GPGSV,5,3,17,28,43,160,40,29,21,147,41,31,28,192,31,32,67,355,41*7E
$GPGSV,5,4,17,36,52,277,40,40,84,353,42,41,58,082,41,49,32,274,*7B
$GPGSV,5,5,17,50,10,089,*4A
$GLGSV,3,1,10,69,23,003,37,70,50,281,32,71,23,229,29,73,14,204,*65
$GLGSV,3,2,10,74,00,244,,80,12,151,32,82,19,132,35,83,48,077,38*63
$GLGSV,3,3,10,84,28,007,28,,,,40*5B
$GNGLL,0419.72755,S,05539.92530,E,110925.00,A,A*6D
$GNRMC,110926.00,A,0419.72754,S,05539.92530,E,0.010,,030625,,,A*75
$GNVTG,,T,,M,0.010,N,0.018,K,A*35
$GNGGA,110926.00,0419.72754,S,05539.92530,E,1,12,0.65,9.4,M,-47.6,M,,*7F
$GNGSA,A,3,32,28,27,18,26,16,29,10,31,,,,1.51,0.65,1.36*12
$GNGSA,A,3,70,69,80,82,83,,,,,,,,1.51,0.65,1.36*1F
$GPGSV,5,1,17,08,01,321,16,10,19,355,38,16,25,251,35,18,32,072,41*7C
$GPGSV,5,2,17,23,04,033,25,25,02,130,21,26,29,219,21,27,36,317,40*79
$GPGSV,5,3,17,28,43,160,40,29,21,147,41,31,28,192,31,32,67,355,41*7E
$GPGSV,5,4,17,36,52,277,41,40,84,353,42,41,58,082,41,49,32,274,*7A
$GPGSV,5,5,17,50,10,089,*4A
$GLGSV,3,1,10,69,23,003,37,70,50,281,32,71,23,229,29,73,14,204,*65
$GLGSV,3,2,10,74,00,244,,80,12,151,32,82,19,132,35,83,48,077,38*63
$GLGSV,3,3,10,84,28,007,28,,,,41*5A
$GNGLL,0419.72754,S,05539.92530,E,110926.00,A,A*6F
$GNRMC,110927.00,A,0419.72753,S,05539.92529,E,0.007,,030625,,,A*7D
$GNVTG,,T,,M,0.007,N,0.012,K,A*39
$GNGGA,110927.00,0419.72753,S,05539.92529,E,1,12,0.65,9.3,M,-47.6,M,,*76
$GNGSA,A,3,32,28,27,18,26,16,29,10,31,,,,1.51,0.65,1.36*12
$GNGSA,A,3,70,69,80,82,83,,,,,,,,1.51,0.65,1.36*1F
$GPGSV,5,1,17,08,01,321,14,10,19,355,38,16,25,251,35,18,32,072,40*7F
$GPGSV,5,2,17,23,04,033,24,25,02,130,19,26,29,219,20,27,36,317,39*7C
$GPGSV,5,3,17,28,43,160,39,29,21,147,40,31,28,192,30,32,67,355,40*71
$GPGSV,5,4,17,36,52,277,40,40,84,353,42,41,58,082,41,49,32,274,*7B
$GPGSV,5,5,17,50,10,089,*4A
$GLGSV,3,1,10,69,23,003,38,70,50,281,32,71,23,229,29,73,14,204,*6A
$GLGSV,3,2,10,74,00,244,,80,12,151,32,82,19,132,34,83,48,078,38*6D
$GLGSV,3,3,10,84,28,007,28,,,,41*5A
$GNGLL,0419.72753,S,05539.92529,E,110927.00,A,A*61
$GNRMC,110928.00,A,0419.72753,S,05539.92529,E,0.025,,030625,,,A*72
$GNVTG,,T,,M,0.025,N,0.046,K,A*38
$GNGGA,110928.00,0419.72753,S,05539.92529,E,1,12,0.65,9.3,M,-47.6,M,,*79
$GNGSA,A,3,32,28,27,18,26,16,29,10,31,,,,1.51,0.65,1.36*12
$GNGSA,A,3,70,69,80,82,83,,,,,,,,1.51,0.65,1.36*1F
$GPGSV,5,1,17,08,01,321,12,10,19,355,37,16,25,251,36,18,32,072,40*75
$GPGSV,5,2,17,23,04,033,22,25,02,130,20,26,29,219,22,27,36,317,38*73
$GPGSV,5,3,17,28,43,160,39,29,21,147,40,31,28,192,33,32,67,355,40*72
$GPGSV,5,4,17,36,52,277,41,40,84,353,41,41,58,082,41,49,32,274,*79
$GPGSV,5,5,17,50,10,089,*4A
$GLGSV,3,1,10,69,23,003,38,70,50,281,32,71,23,229,27,73,14,204,*64
$GLGSV,3,2,10,74,00,244,,80,12,151,32,82,19,132,34,83,48,078,37*62
$GLGSV,3,3,10,84,28,007,28,,,,40*5B
$GNGLL,0419.72753,S,05539.92529,E,110928.00,A,A*6E
$GNRMC,110929.00,A,0419.72753,S,05539.92528,E,0.049,,030625,,,A*78
$GNVTG,,T,,M,0.049,N,0.090,K,A*39
$GNGGA,110929.00,0419.72753,S,05539.92528,E,1,12,0.65,9.2,M,-47.6,M,,*78
$GNGSA,A,3,32,28,27,18,26,16,29,10,31,,,,1.51,0.65,1.36*12
$GNGSA,A,3,70,69,80,82,83,,,,,,,,1.51,0.65,1.36*1F
$GPGSV,5,1,17,08,01,321,12,10,19,355,37,16,25,251,36,18,32,072,40*75
$GPGSV,5,2,17,23,04,033,22,25,02,130,20,26,29,219,27,27,36,317,38*76
$GPGSV,5,3,17,28,43,160,39,29,21,147,40,31,28,192,35,32,67,355,40*74
$GPGSV,5,4,17,36,52,277,41,40,84,353,41,41,58,082,40,49,32,274,*78
$GPGSV,5,5,17,50,10,089,*4A
$GLGSV,3,1,10,69,23,003,37,70,50,281,32,71,23,229,25,73,14,204,*69
$GLGSV,3,2,10,74,00,244,,80,12,151,31,82,19,132,34,83,48,078,37*61
$GLGSV,3,3,10,84,28,007,28,,,,40*5B
$GNGLL,0419.72753,S,05539.92528,E,110929.00,A,A*6E
$GNRMC,110930.00,A,0419.72752,S,05539.92527,E,0.010,,030625,,,A*72
$GNVTG,,T,,M,0.010,N,0.018,K,A*35
$GNGGA,110930.00,0419.72752,S,05539.92527,E,1,12,0.65,9.2,M,-47.6,M,,*7E
$GNGSA,A,3,32,28,27,18,26,16,29,10,31,,,,1.51,0.65,1.36*12
$GNGSA,A,3,70,69,80,82,83,,,,,,,,1.51,0.65,1.36*1F
$GPGSV,5,1,17,08,01,321,12,10,19,355,37,16,25,251,36,18,32,072,40*75
$GPGSV,5,2,17,23,04,033,22,25,02,130,20,26,29,219,28,27,36,317,38*79
$GPGSV,5,3,17,28,43,160,38,29,21,147,40,31,28,192,34,32,67,355,41*75
$GPGSV,5,4,17,36,52,277,40,40,84,353,40,41,58,082,41,49,32,274,*79
$GPGSV,5,5,17,50,10,089,*4A
$GLGSV,3,1,10,69,23,003,37,70,50,281,32,71,23,229,23,73,14,204,*6F
$GLGSV,3,2,10,74,00,244,,80,12,151,32,82,19,132,34,83,48,078,38*6D
$GLGSV,3,3,10,84,28,007,28,,,,42*59
$GNGLL,0419.72752,S,05539.92527,E,110930.00,A,A*68
$GNRMC,110931.00,A,0419.72752,S,05539.92526,E,0.021,,030625,,,A*70
$GNVTG,,T,,M,0.021,N,0.039,K,A*34
$GNGGA,110931.00,0419.72752,S,05539.92526,E,1,12,0.65,9.2,M,-47.6,M,,*7E
$GNGSA,A,3,32,28,27,18,26,16,29,10,31,,,,1.51,0.65,1.36*12
$GNGSA,A,3,70,69,80,82,83,,,,,,,,1.51,0.65,1.36*1F
$GPGSV,5,1,17,08,01,321,12,10,19,355,37,16,25,251,36,18,32,072,41*74
$GPGSV,5,2,17,23,04,033,21,25,02,130,21,26,29,219,29,27,36,317,38*7A
$GPGSV,5,3,17,28,43,160,39,29,21,147,40,31,28,192,34,32,67,355,41*74
$GPGSV,5,4,17,36,52,277,40,40,84,353,40,41,58,082,41,49,32,274,*79
$GPGSV,5,5,17,50,10,089,*4A
$GLGSV,3,1,10,69,23,003,37,70,50,281,31,71,23,229,22,73,14,204,*6D
$GLGSV,3,2,10,74,00,244,,80,12,151,31,82,19,132,34,83,48,078,37*61
$GLGSV,3,3,10,84,28,007,28,,,,42*59
$GNGLL,0419.72752,S,05539.92526,E,110931.00,A,A*68
$GNRMC,110932.00,A,0419.72753,S,05539.92525,E,0.047,,030625,,,A*71
$GNVTG,,T,,M,0.047,N,0.088,K,A*3E
$GNGGA,110932.00,0419.72753,S,05539.92525,E,1,12,0.65,9.1,M,-47.6,M,,*7C
$GNGSA,A,3,32,28,27,18,26,16,29,10,31,,,,1.51,0.65,1.36*12
$GNGSA,A,3,70,69,80,82,83,,,,,,,,1.51,0.65,1.36*1F
$GPGSV,5,1,17,08,01,321,12,10,19,355,37,16,25,251,35,18,32,072,41*77
$GPGSV,5,2,17,23,04,033,20,25,02,130,18,26,29,219,29,27,36,317,38*71
$GPGSV,5,3,17,28,43,160,37,29,21,147,41,31,28,192,32,32,67,355,41*7D
$GPGSV,5,4,17,36,52,277,41,40,84,353,41,41,58,082,41,49,32,274,*79
$GPGSV,5,5,17,50,10,089,*4A
$GLGSV,3,1,10,69,23,003,37,70,50,281,32,71,23,229,22,73,14,204,*6E
$GLGSV,3,2,10,74,00,244,,80,12,151,32,82,19,132,35,83,48,078,38*6C
$GLGSV,3,3,10,84,28,007,28,,,,42*59
$GNGLL,0419.72753,S,05539.92525,E,110932.00,A,A*69
$GNRMC,110933.00,A,0419.72753,S,05539.92525,E,0.012,,030625,,,A*70
$GNVTG,,T,,M,0.012,N,0.022,K,A*3E
$GNGGA,110933.00,0419.72753,S,05539.92525,E,1,12,0.65,9.1,M,-47.6,M,,*7D
$GNGSA,A,3,32,28,27,18,26,16,29,10,31,,,,1.51,0.65,1.36*12
$GNGSA,A,3,70,69,80,82,83,,,,,,,,1.51,0.65,1.36*1F
$GPGSV,5,1,17,08,01,321,11,10,19,355,37,16,25,251,37,18,32,072,40*77
$GPGSV,5,2,17,23,04,033,22,25,02,130,16,26,29,219,28,27,36,317,39*7D
$GPGSV,5,3,17,28,43,160,35,29,21,147,41,31,28,192,23,32,67,355,40*7E
$GPGSV,5,4,17,36,52,277,41,40,84,353,43,41,58,082,41,49,32,274,*7B
$GPGSV,5,5,17,50,10,089,*4A
$GLGSV,3,1,10,69,23,003,37,70,50,281,32,71,23,229,25,73,14,204,*69
$GLGSV,3,2,10,74,00,244,,80,12,151,33,82,19,132,35,83,48,078,38*6D
$GLGSV,3,3,10,84,28,007,28,,,,40*5B
$GNGLL,0419.72753,S,05539.92525,E,110933.00,A,A*68
$GNRMC,110934.00,A,0419.72751,S,05539.92526,E,0.105,,030625,,,A*71
$GNVTG,,T,,M,0.105,N,0.194,K,A*35
$GNGGA,110934.00,0419.72751,S,05539.92526,E,1,12,0.65,9.0,M,-47.6,M,,*7A
$GNGSA,A,3,32,28,27,18,26,16,29,10,31,,,,1.51,0.65,1.36*12
$GNGSA,A,3,70,69,80,82,83,,,,,,,,1.51,0.65,1.36*1F
$GPGSV,5,1,17,08,01,321,13,10,19,355,33,16,25,251,33,18,32,072,37*75
$GPGSV,5,2,17,23,04,033,21,25,02,130,14,26,29,219,26,27,36,317,35*7E
$GPGSV,5,3,17,28,43,160,31,29,21,147,37,31,28,192,21,32,67,355,36*78
$GPGSV,5,4,17,36,52,277,37,40,84,353,39,41,58,082,36,49,32,274,*77
$GPGSV,5,5,17,50,10,089,*4A
$GLGSV,3,1,10,69,23,003,32,70,50,281,30,71,23,229,23,73,14,204,*68
$GLGSV,3,2,10,74,00,244,,80,12,151,31,82,19,132,33,83,48,078,35*64
$GLGSV,3,3,10,84,28,007,26,,,,36*54
$GNGLL,0419.72751,S,05539.92526,E,110934.00,A,A*6E
$GNRMC,110935.00,A,0419.72751,S,05539.92524,E,0.061,,030625,,,A*71
$GNVTG,,T,,M,0.061,N,0.114,K,A*3E
$GNGGA,110935.00,0419.72751,S,05539.92524,E,1,12,0.65,8.9,M,-47.6,M,,*71
$GNGSA,A,3,32,28,27,18,26,16,29,10,31,,,,1.51,0.65,1.36*12
$GNGSA,A,3,70,69,80,82,83,,,,,,,,1.51,0.65,1.36*1F
$GPGSV,5,1,17,08,01,321,11,10,19,355,33,16,25,251,34,18,32,072,36*71
$GPGSV,5,2,17,23,04,033,20,25,02,130,14,26,29,219,24,27,36,317,35*7D
$GPGSV,5,3,17,28,43,160,31,29,21,147,37,31,28,192,18,32,67,355,36*72
$GPGSV,5,4,17,36,52,277,37,40,84,353,39,41,58,082,37,49,32,274,*76
$GPGSV,5,5,17,50,10,089,*4A
$GLGSV,3,1,10,69,23,003,33,70,50,281,29,71,23,229,24,73,14,204,*66
$GLGSV,3,2,10,74,00,244,,80,12,151,30,82,19,132,33,83,48,078,36*66
$GLGSV,3,3,10,84,28,007,25,,,,37*56
$GNGLL,0419.72751,S,05539.92524,E,110935.00,A,A*6D
$GNRMC,110936.00,A,0419.72750,S,05539.92524,E,0.034,,030625,,,A*73
$GNVTG,,T,,M,0.034,N,0.063,K,A*3F
$GNGGA,110936.00,0419.72750,S,05539.92524,E,1,12,0.65,8.9,M,-47.6,M,,*73
$GNGSA,A,3,32,28,27,18,26,16,29,10,31,,,,1.51,0.65,1.36*12
$GNGSA,A,3,70,69,80,82,83,,,,,,,,1.51,0.65,1.36*1F
$GPGSV,5,1,17,08,01,321,06,10,19,355,33,16,25,251,31,18,32,072,36*72
$GPGSV,5,2,17,23,04,033,12,25,02,130,09,26,29,219,21,27,36,317,34*74
$GPGSV,5,3,17,28,43,160,32,29,21,147,36,31,28,192,29,32,67,355,36*72
$GPGSV,5,4,17,36,52,277,37,40,84,353,36,41,58,082,36,49,32,274,*78
$GPGSV,5,5,17,50,10,089,*4A
$GLGSV,3,1,10,69,23,003,34,70,50,281,29,71,23,229,20,73,14,204,*65
$GLGSV,3,2,10,74,00,244,,80,12,151,28,82,19,132,32,83,48,078,36*6E
$GLGSV,3,3,10,84,28,007,25,,,,40*56
$GNGLL,0419.72750,S,05539.92524,E,110936.00,A,A*6F
$GNRMC,110937.00,A,0419.72749,S,05539.92526,E,0.043,,030625,,,A*78
$GNVTG,,T,,M,0.043,N,0.080,K,A*32
$GNGGA,110937.00,0419.72749,S,05539.92526,E,1,12,0.65,8.8,M,-47.6,M,,*79
$GNGSA,A,3,32,28,27,18,26,16,29,10,31,,,,1.51,0.65,1.36*12
$GNGSA,A,3,70,69,80,82,83,,,,,,,,1.51,0.65,1.36*1F
$GPGSV,5,1,17,08,01,321,06,10,19,355,35,16,25,251,35,18,32,072,37*71
$GPGSV,5,2,17,23,04,033,18,25,02,130,11,26,29,219,23,27,36,317,36*77
$GPGSV,5,3,17,28,43,160,32,29,21,147,38,31,28,192,25,32,67,355,37*71
$GPGSV,5,4,17,36,52,277,37,40,84,353,39,41,58,082,38,49,32,274,*79
$GPGSV,5,5,17,50,10,089,*4A
$GLGSV,3,1,10,69,23,003,34,70,50,281,30,71,23,229,22,73,14,204,*6F
$GLGSV,3,2,10,74,00,244,,80,12,151,29,82,19,132,32,83,48,078,37*6E
$GLGSV,3,3,10,84,28,007,25,,,,38*59
$GNGLL,0419.72749,S,05539.92526,E,110937.00,A,A*64
$GNRMC,110938.00,A,0419.72748,S,05539.92526,E,0.031,,030625,,,A*73
$GNVTG,,T,,M,0.031,N,0.057,K,A*3D
$GNGGA,110938.00,0419.72748,S,05539.92526,E,1,12,0.65,8.8,M,-47.6,M,,*77
$GNGSA,A,3,32,28,27,18,26,16,29,10,31,,,,1.51,0.65,1.36*12
$GNGSA,A,3,70,69,80,82,83,,,,,,,,1.51,0.65,1.36*1F
$GPGSV,5,1,17,08,01,321,07,10,19,355,35,16,25,251,32,18,32,072,37*77
$GPGSV,5,2,17,23,04,033,21,25,02,130,11,26,29,219,24,27,36,317,36*7A
$GPGSV,5,3,17,28,43,160,33,29,21,147,39,31,28,192,23,32,67,355,37*77
$GPGSV,5,4,17,36,52,277,37,40,84,353,39,41,58,082,38,49,32,274,*79
$GPGSV,5,5,17,50,10,089,*4A
$GLGSV,3,1,10,69,23,003,35,70,50,281,30,71,23,229,23,73,14,204,*6F
$GLGSV,3,2,10,74,00,244,,80,12,151,31,82,19,132,35,83,48,078,37*60
$GLGSV,3,3,10,84,28,007,26,,,,37*55
$GNGLL,0419.72748,S,05539.92526,E,110938.00,A,A*6A
$GNRMC,110939.00,A,0419.72749,S,05539.92525,E,0.037,,030625,,,A*76
$GNVTG,,T,,M,0.037,N,0.069,K,A*36
$GNGGA,110939.00,0419.72749,S,05539.92525,E,1,12,0.65,8.7,M,-47.6,M,,*7B
$GNGSA,A,3,32,28,27,18,26,16,29,10,31,,,,1.51,0.65,1.36*12
$GNGSA,A,3,70,69,80,82,83,,,,,,,,1.51,0.65,1.36*1F
$GPGSV,5,1,17,08,01,321,08,10,19,355,34,16,25,251,30,18,32,072,38*74
$GPGSV,5,2,17,23,04,033,22,25,02,130,16,26,29,219,23,27,36,317,36*79
$GPGSV,5,3,17,28,43,160,34,29,21,147,39,31,28,192,26,32,67,355,39*7B
$GPGSV,5,4,17,36,52,277,37,40,84,353,39,41,58,082,39,49,32,274,*78
$GPGSV,5,5,17,50,10,089,*4A
$GLGSV,3,1,10,69,23,003,37,70,50,281,30,71,23,229,22,73,14,204,*6C
$GLGSV,3,2,10,74,00,244,,80,12,151,32,82,19,132,37,83,48,078,38*6E
$GLGSV,3,3,10,84,28,007,26,,,,39*5B
$GNGLL,0419.72749,S,05539.92525,E,110939.00,A,A*69
$GNRMC,110940.00,A,0419.72750,S,05539.92524,E,0.039,,030625,,,A*7F
$GNVTG,,T,,M,0.039,N,0.073,K,A*33
$GNGGA,110940.00,0419.72750,S,05539.92524,E,1,12,0.65,8.7,M,-47.6,M,,*7C
$GNGSA,A,3,32,28,27,18,26,16,29,10,31,,,,1.51,0.65,1.36*12
$GNGSA,A,3,70,69,80,82,83,,,,,,,,1.51,0.65,1.36*1F
$GPGSV,5,1,17,08,01,321,07,10,19,355,34,16,25,251,29,18,32,072,40*7C
$GPGSV,5,2,17,23,04,033,22,25,02,130,17,26,29,219,22,27,36,317,36*79
$GPGSV,5,3,17,28,43,160,34,29,21,147,39,31,28,192,28,32,67,355,40*7B
$GPGSV,5,4,17,36,52,277,37,40,84,353,39,41,58,082,39,49,32,274,*78
$GPGSV,5,5,17,50,10,089,*4A
$GLGSV,3,1,10,69,23,003,36,70,50,281,30,71,23,229,19,73,14,204,*65
$GLGSV,3,2,10,74,00,244,,80,12,151,32,82,19,132,36,83,48,078,38*6F
$GLGSV,3,3,10,84,28,007,26,,,,39*5B
$GNGLL,0419.72750,S,05539.92524,E,110940.00,A,A*6E
