b0X
W
?9? E
#! #SI{4"Ta:R! 
bF.YjG!8HIQJKStT'4Uggbg$GNRMC,114115.00,A,0419.69366,S,05539.86033,E,0.135,,190525,,,D*7E
$GNVTG,,T,,M,0.135,N,0.250,K,D*38
$GNGNS,114115.00,0419.69366,S,05539.86033,E,DA,17,0.57,10.7,-47.6,,0000*6F
$GNGGA,114115.00,0419.69366,S,05539.86033,E,2,12,0.57,10.7,M,-47.6,M,,0000*46
$GNGSA,A,3,29,10,25,32,26,18,28,31,16,27,,,1.29,0.57,1.15*1A
$GNGSA,A,3,70,73,83,84,71,85,72,,,,,,1.29,0.57,1.15*1B
$GPGSV,4,1,16,10,24,343,25,16,24,266,27,18,28,057,28,23,08,022,18*72
$GPGSV,4,2,16,24,01,063,,25,07,140,28,26,30,234,32,27,24,325,29*7A
$GPGSV,4,3,16,28,35,175,29,29,33,142,30,31,20,202,29,32,83,329,35*7D
$GPGSV,4,4,16,36,52,277,31,40,84,353,34,41,58,082,,49,32,274,33*79
$GLGSV,3,1,11,70,46,345,24,71,56,260,33,72,16,218,22,73,15,167,20*6C
$GLGSV,3,2,11,74,15,213,17,75,00,257,22,83,23,116,31,84,39,052,20*6A
$GLGSV,3,3,11,85,17,359,27,,,,30,,,,27*52
$GNGLL,0419.69366,S,05539.86033,E,114115.00,A,D*6A
$GNGRS,114115.00,1,0.2,-0.3,2.3,-0.6,-0.3,5.1,1.7,1.6,0.6,0.1,,*7B
$GNGRS,114115.00,1,8.7,0.8,7.7,6.6,-0.3,1.0,-16.1,,,,,*4C
$GNGST,114115.00,33,,,,1.5,1.7,2.8*40
$GNZDA,114115.00,19,05,2025,00,00*71
$GNGBS,114115.00,1.5,1.7,2.8,,,,*56
b0X
W!
B9?%E
#!" (SI{#4&Ta:R# 
bF.YG8HIJKSt|T'4@Ug lb~g$GNRMC,114116.00,A,0419.69367,S,05539.86033,E,0.017,,190525,,,D*7D
$GNVTG,,T,,M,0.017,N,0.032,K,D*3F
$GNGNS,114116.00,0419.69367,S,05539.86033,E,DA,18,0.55,10.7,-47.6,,0000*60
$GNGGA,114116.00,0419.69367,S,05539.86033,E,2,12,0.55,10.7,M,-47.6,M,,0000*46
$GNGSA,A,3,29,10,23,25,32,26,18,28,31,16,27,,1.20,0.55,1.07*13
$GNGSA,A,3,70,73,83,84,71,85,72,,,,,,1.20,0.55,1.07*13
$GPGSV,4,1,16,10,24,343,27,16,24,266,33,18,28,057,28,23,08,022,19*74
$GPGSV,4,2,16,24,01,063,,25,07,140,27,26,30,234,37,27,24,325,29*70
$GPGSV,4,3,16,28,35,175,28,29,33,142,30,31,20,202,28,32,83,329,40*7F
$GPGSV,4,4,16,36,52,277,35,40,84,353,38,41,58,082,,49,32,274,35*77
$GLGSV,3,1,11,70,46,345,22,71,56,260,31,72,16,218,24,73,15,167,19*64
$GLGSV,3,2,11,74,15,213,16,75,00,257,19,83,23,116,30,84,39,052,17*66
$GLGSV,3,3,11,85,17,359,29,,,,32,,,,26*5F
$GNGLL,0419.69367,S,05539.86033,E,114116.00,A,D*68
$GNGRS,114116.00,1,-2.2,-3.8,-0.3,2.5,-0.5,-0.3,0.2,-0.6,0.2,3.2,1.8,*7B
$GNGRS,114116.00,1,9.9,2.0,6.4,5.8,-3.8,-0.9,-16.3,,,,,*6A
$GNGST,114116.00,38,,,,1.5,1.7,2.8*48
$GNZDA,114116.00,19,05,2025,00,00*72
$GNGBS,114116.00,1.5,1.7,2.8,,,,*55
b0X
W%
"9`?L("E
!#!! +SI{&4*Ta:R' 
bF.YrG'8HIJKS tT'4U$g}& dbfgjv$GNRMC,114117.00,A,0419.69368,S,05539.86035,E,0.024,,190525,,,D*75
$GNVTG,,T,,M,0.024,N,0.044,K,D*3E
$GNGNS,114117.00,0419.69368,S,05539.86035,E,DA,18,0.55,10.6,-47.6,,0000*69
$GNGGA,114117.00,0419.69368,S,05539.86035,E,2,12,0.55,10.6,M,-47.6,M,,0000*4F
$GNGSA,A,3,29,10,23,25,32,26,18,28,31,16,27,,1.20,0.55,1.07*13
$GNGSA,A,3,70,73,83,84,71,85,72,,,,,,1.20,0.55,1.07*13
$GPGSV,4,1,16,10,24,343,30,16,24,266,37,18,28,057,34,23,08,022,25*74
$GPGSV,4,2,16,24,01,063,,25,07,140,29,26,30,234,40,27,24,325,34*72
$GPGSV,4,3,16,28,35,175,33,29,33,142,33,31,20,202,27,32,83,329,43*7A
$GPGSV,4,4,16,36,52,277,38,40,84,353,42,41,58,082,,49,32,274,39*7B
$GLGSV,3,1,11,70,46,345,25,71,56,260,39,72,16,218,26,73,15,167,21*62
$GLGSV,3,2,11,74,15,213,17,75,00,257,20,83,23,116,32,84,39,052,20*6B
$GLGSV,3,3,11,85,17,359,36,,,,38,,,,32*5E
$GNGLL,0419.69368,S,05539.86035,E,114117.00,A,D*60
$GNGRS,114117.00,1,-0.8,-3.2,6.5,3.3,-0.6,-0.2,-1.6,-0.2,2.7,1.3,-0.3,*5F
$GNGRS,114117.00,1,11.4,1.3,7.1,5.0,-3.3,-3.9,-13.1,,,,,*5C
$GNGST,114117.00,32,,,,1.5,1.6,2.8*42
$GNZDA,114117.00,19,05,2025,00,00*73
$GNGBS,114117.00,1.5,1.6,2.8,,,,*55
b0X
#W#
+$9?c'#E
 #!! +SI{(4*Ta:R' 
bF.YG+8<H IJKS t;T'48U&g%(!)bNgB$GNRMC,114118.00,A,0419.69368,S,05539.86039,E,0.010,,190525,,,D*71
$GNVTG,,T,,M,0.010,N,0.019,K,D*31
$GNGNS,114118.00,0419.69368,S,05539.86039,E,DA,18,0.55,10.5,-47.6,,0000*69
$GNGGA,114118.00,0419.69368,S,05539.86039,E,2,12,0.55,10.5,M,-47.6,M,,0000*4F
$GNGSA,A,3,29,10,23,25,32,26,18,28,31,16,27,,1.20,0.55,1.07*13
$GNGSA,A,3,70,73,83,84,71,85,72,,,,,,1.20,0.55,1.07*13
$GPGSV,4,1,16,10,24,343,35,16,24,266,35,18,28,057,36,23,08,022,25*71
$GPGSV,4,2,16,24,01,063,,25,07,140,27,26,30,234,39,27,24,325,35*73
$GPGSV,4,3,16,28,35,175,32,29,33,142,33,31,20,202,28,32,83,329,43*74
$GPGSV,4,4,16,36,52,277,40,40,84,353,42,41,58,082,,49,32,274,39*74
$GLGSV,3,1,11,70,46,345,25,71,56,260,43,72,16,218,32,73,15,167,22*69
$GLGSV,3,2,11,74,15,213,18,75,00,257,21,83,23,116,32,84,39,052,23*66
$GLGSV,3,3,11,85,17,359,38,,,,40,,,,33*5E
$GNGLL,0419.69368,S,05539.86039,E,114118.00,A,D*63
$GNGRS,114118.00,1,-0.9,-0.1,7.3,6.1,-0.9,-0.2,0.2,2.1,2.6,3.0,0.3,*77
$GNGRS,114118.00,1,12.0,1.9,8.3,3.1,-4.5,-2.2,-13.0,,,,,*5E
$GNGST,114118.00,28,,,,1.5,1.6,2.8*46
$GNZDA,114118.00,19,05,2025,00,00*7C
$GNGBS,114118.00,1.5,1.6,2.8,,,,*5A
b0Xh
"Wd$
$98?($E
!#i"! +SI{(4+Ta:R& 
bF.YG+8H!fI-JKS!t]T'4U&g(!bh6gF$GNRMC,114119.00,A,0419.69368,S,05539.86043,E,0.027,,190525,,,D*79
$GNVTG,,T,,M,0.027,N,0.049,K,D*30
$GNGNS,114119.00,0419.69368,S,05539.86043,E,DA,18,0.55,10.5,-47.6,,0000*65
$GNGGA,114119.00,0419.69368,S,05539.86043,E,2,12,0.55,10.5,M,-47.6,M,,0000*43
$GNGSA,A,3,29,10,23,25,32,26,18,28,31,16,27,,1.20,0.55,1.07*13
$GNGSA,A,3,70,73,83,84,71,85,72,,,,,,1.20,0.55,1.07*13
$GPGSV,4,1,16,10,24,343,34,16,24,266,36,18,28,057,36,23,08,022,25*73
$GPGSV,4,2,16,24,01,063,,25,07,140,27,26,30,234,40,27,24,325,36*7E
$GPGSV,4,3,16,28,35,175,33,29,33,142,34,31,20,202,29,32,83,329,43*73
$GPGSV,4,4,16,36,52,277,40,40,84,353,43,41,58,082,,49,32,274,38*74
$GLGSV,3,1,11,70,46,345,25,71,56,260,43,72,16,218,33,73,15,167,23*69
$GLGSV,3,2,11,74,15,213,20,75,00,257,23,83,23,116,33,84,39,052,26*6B
$GLGSV,3,3,11,85,17,359,38,,,,40,,,,33*5E
$GNGLL,0419.69368,S,05539.86043,E,114119.00,A,D*6F
$GNGRS,114119.00,1,-2.7,-1.6,4.5,7.1,-0.3,-0.4,0.6,1.0,5.4,1.4,-0.5,*5A
$GNGRS,114119.00,1,9.4,3.0,11.2,4.8,-3.2,-3.8,-16.9,,,,,*5A
$GNGST,114119.00,26,,,,1.5,1.6,2.8*49
$GNZDA,114119.00,19,05,2025,00,00*7D
$GNGBS,114119.00,1.5,1.6,2.8,,,,*5B
b0XP
"W-"
$9Y?j%%E-
#{! *SI{&4*Ta:R& 
bF.YHG'8fHHIwJKS!tT'4}U%g_(mgbPg$GNRMC,114120.00,A,0419.69370,S,05539.86046,E,0.044,,190525,,,D*7A
$GNVTG,,T,,M,0.044,N,0.081,K,D*31
$GNGNS,114120.00,0419.69370,S,05539.86046,E,DA,18,0.58,10.4,-47.6,,0000*6F
$GNGGA,114120.00,0419.69370,S,05539.86046,E,2,12,0.58,10.4,M,-47.6,M,,0000*49
$GNGSA,A,3,29,10,23,25,32,26,18,28,31,16,27,,1.25,0.58,1.10*1D
$GNGSA,A,3,70,73,83,84,71,85,72,,,,,,1.25,0.58,1.10*1D
$GPGSV,4,1,16,10,24,343,34,16,24,266,34,18,28,057,36,23,08,022,25*71
$GPGSV,4,2,16,24,01,063,,25,07,140,27,26,30,234,37,27,24,325,37*7F
$GPGSV,4,3,16,28,35,175,28,29,33,142,28,31,20,202,29,32,83,329,42*75
$GPGSV,4,4,16,36,52,277,38,40,84,353,42,41,58,082,,49,32,274,38*7A
$GLGSV,3,1,11,70,46,345,26,71,56,260,39,72,16,218,30,73,15,167,22*65
$GLGSV,3,2,11,74,15,213,20,75,00,257,23,83,23,116,33,84,39,052,25*68
$GLGSV,3,3,11,85,17,359,37,,,,40,,,,30*52
$GNGLL,0419.69370,S,05539.86046,E,114120.00,A,D*69
$GNGRS,114120.00,1,-0.7,0.4,5.2,8.7,0.2,0.0,-1.7,1.2,3.9,1.4,-2.1,*54
$GNGRS,114120.00,1,8.4,3.7,7.2,3.8,-4.1,-1.6,-14.6,,,,,*63
$GNGST,114120.00,28,,,,1.4,1.6,2.7*43
$GNZDA,114120.00,19,05,2025,00,00*77
$GNGBS,114120.00,1.4,1.6,2.7,,,,*5F
b0X8
"W&
$9v?($E
!#!  +SI{(4*Ta:R) 
bF.YG&8H"hI+JKStzT'4jU$gm' b8g$GNRMC,114121.00,A,0419.69366,S,05539.86045,E,0.045,,190525,,,D*7E
$GNVTG,,T,,M,0.045,N,0.084,K,D*35
$GNGNS,114121.00,0419.69366,S,05539.86045,E,DA,18,0.55,10.4,-47.6,,0000*67
$GNGGA,114121.00,0419.69366,S,05539.86045,E,2,12,0.55,10.4,M,-47.6,M,,0000*41
$GNGSA,A,3,29,10,23,25,32,26,18,28,31,16,27,,1.20,0.55,1.07*13
$GNGSA,A,3,70,73,83,84,71,85,72,,,,,,1.20,0.55,1.07*13
$GPGSV,4,1,16,10,24,343,34,16,24,266,38,18,28,057,36,23,08,022,26*7E
$GPGSV,4,2,16,24,01,063,,25,07,140,26,26,30,234,40,27,24,325,36*7F
$GPGSV,4,3,16,28,35,175,33,29,33,142,29,31,20,202,32,32,83,329,43*75
$GPGSV,4,4,16,36,52,277,40,40,84,353,42,41,58,082,,49,32,274,41*7B
$GLGSV,3,1,11,70,46,345,27,71,56,260,38,72,16,218,34,73,15,167,23*60
$GLGSV,3,2,11,74,15,213,21,75,00,257,23,83,23,116,31,84,39,052,24*6A
$GLGSV,3,3,11,85,17,359,36,,,,39,,,,32*5F
$GNGLL,0419.69366,S,05539.86045,E,114121.00,A,D*6C
$GNGRS,114121.00,1,-2.9,3.8,4.1,6.6,0.0,0.2,-3.9,-0.8,-0.9,4.2,0.1,*73
$GNGRS,114121.00,1,9.0,3.0,6.3,6.2,-3.5,1.1,-14.3,,,,,*43
$GNGST,114121.00,26,,,,1.4,1.6,2.7*4C
$GNZDA,114121.00,19,05,2025,00,00*76
$GNGBS,114121.00,1.4,1.6,2.7,,,,*5E
b0X 
"W&
$9?.($E
!#!o! *SI{'4*Ta:R( 
bQF.YG&8jH"I7JKSt
T'4U#g& Sb g{$GNRMC,114122.00,A,0419.69363,S,05539.86046,E,0.016,,190525,,,D*7D
$GNVTG,,T,,M,0.016,N,0.030,K,D*3C
$GNGNS,114122.00,0419.69363,S,05539.86046,E,DA,18,0.55,10.4,-47.6,,0000*62
$GNGGA,114122.00,0419.69363,S,05539.86046,E,2,12,0.55,10.4,M,-47.6,M,,0000*44
$GNGSA,A,3,29,10,23,25,32,26,18,28,31,16,27,,1.20,0.55,1.07*13
$GNGSA,A,3,70,73,83,84,71,85,72,,,,,,1.20,0.55,1.07*13
$GPGSV,4,1,16,10,24,343,34,16,24,266,38,18,28,057,36,23,08,022,31*78
$GPGSV,4,2,16,24,01,063,,25,07,140,24,26,30,234,40,27,24,325,36*7D
$GPGSV,4,3,16,28,35,175,33,29,33,142,29,31,20,202,33,32,83,329,42*75
$GPGSV,4,4,16,36,52,277,39,40,84,353,42,41,58,082,,49,32,274,40*74
$GLGSV,3,1,11,70,46,345,27,71,56,260,38,72,16,218,34,73,15,167,24*67
$GLGSV,3,2,11,74,15,213,22,75,00,257,23,83,23,116,30,84,39,052,23*6F
$GLGSV,3,3,11,85,17,359,35,,,,38,,,,32*5D
$GNGLL,0419.69363,S,05539.86046,E,114122.00,A,D*69
$GNGRS,114122.00,1,-4.0,2.0,-1.1,5.6,-0.1,0.0,-2.8,-0.7,2.0,2.5,-0.3,*74
$GNGRS,114122.00,1,10.3,3.1,7.8,4.3,-4.1,1.7,-11.1,,,,,*71
$GNGST,114122.00,25,,,,1.4,1.6,2.7*4C
$GNZDA,114122.00,19,05,2025,00,00*75
$GNGBS,114122.00,1.4,1.6,2.7,,,,*5D
b0X
!W#
99?Q& E^
#!Z 'SI{$4(Ta:R& 
blF.Y0G!8HIJKStT'4CUgF"bgy$GNRMC,114123.00,A,0419.69360,S,05539.86044,E,0.156,,190525,,,D*78
$GNVTG,,T,,M,0.156,N,0.290,K,D*31
$GNGNS,114123.00,0419.69360,S,05539.86044,E,DA,18,0.55,10.4,-47.6,,0000*62
$GNGGA,114123.00,0419.69360,S,05539.86044,E,2,12,0.55,10.4,M,-47.6,M,,0000*44
$GNGSA,A,3,29,10,23,25,32,26,18,28,31,16,27,,1.20,0.55,1.07*13
$GNGSA,A,3,70,73,83,84,71,85,72,,,,,,1.20,0.55,1.07*13
$GPGSV,4,1,16,10,24,343,33,16,24,266,35,18,28,057,30,23,08,022,23*77
$GPGSV,4,2,16,24,01,063,,25,07,140,21,26,30,234,38,27,24,325,32*73
$GPGSV,4,3,16,28,35,175,27,29,33,142,27,31,20,202,27,32,83,329,39*77
$GPGSV,4,4,16,36,52,277,36,40,84,353,40,41,58,082,,49,32,274,38*76
$GLGSV,3,1,11,70,46,345,25,71,56,260,33,72,16,218,29,73,15,167,23*65
$GLGSV,3,2,11,74,15,213,21,75,00,257,21,83,23,116,23,84,39,052,21*6E
$GLGSV,3,3,11,85,17,359,31,,,,34,,,,27*51
$GNGLL,0419.69360,S,05539.86044,E,114123.00,A,D*69
$GNGRS,114123.00,1,-1.7,-0.7,-0.9,5.9,-0.4,0.0,-2.0,-0.1,2.3,2.1,0.9,*72
$GNGRS,114123.00,1,10.7,4.4,12.2,3.2,-3.4,0.7,-10.3,,,,,*4E
$GNGST,114123.00,33,,,,1.4,1.6,2.7*4A
$GNZDA,114123.00,19,05,2025,00,00*74
$GNGBS,114123.00,1.4,1.6,2.7,,,,*5C
b0X
 W#
 9?%#E
#>!  'SI{$4(Ta:R& 
bF.YG#8HaIJKStT'4XUg"2bgP<$GNRMC,114124.00,A,0419.69361,S,05539.86043,E,0.107,,190525,,,D*7D
$GNVTG,,T,,M,0.107,N,0.198,K,D*3E
$GNGNS,114124.00,0419.69361,S,05539.86043,E,DA,18,0.55,10.4,-47.6,,0000*63
$GNGGA,114124.00,0419.69361,S,05539.86043,E,2,12,0.55,10.4,M,-47.6,M,,0000*45
$GNGSA,A,3,29,10,23,25,32,26,18,28,31,16,27,,1.21,0.55,1.07*12
$GNGSA,A,3,70,73,83,84,71,85,72,,,,,,1.21,0.55,1.07*12
$GPGSV,4,1,16,10,24,343,32,16,24,266,35,18,28,057,32,23,08,022,26*71
$GPGSV,4,2,16,24,01,063,,25,07,140,21,26,30,234,37,27,24,325,35*7B
$GPGSV,4,3,16,28,35,175,27,29,33,142,28,31,20,202,32,32,83,329,39*7C
$GPGSV,4,4,16,36,52,277,36,40,84,353,40,41,58,082,,49,32,274,38*76
$GLGSV,3,1,11,70,46,345,25,71,56,260,35,72,16,218,31,73,15,167,23*6A
$GLGSV,3,2,11,74,15,213,20,75,00,257,20,83,23,116,25,84,39,052,20*69
$GLGSV,3,3,11,85,17,359,31,,,,34,,,,28*5E
$GNGLL,0419.69361,S,05539.86043,E,114124.00,A,D*68
$GNGRS,114124.00,1,-4.9,-0.5,-2.9,2.3,-0.3,0.0,-3.5,0.6,1.5,2.0,-1.0,*7B
$GNGRS,114124.00,1,9.4,4.2,12.1,3.4,-3.3,2.8,-9.3,,,,,*43
$GNGST,114124.00,31,,,,1.5,1.6,2.7*4E
$GNZDA,114124.00,19,05,2025,00,00*73
$GNGBS,114124.00,1.5,1.6,2.7,,,,*5A
b0X
W
79<?"E
#! !SI{4 Ta:R  
bF.Y4G8HIJKStT'4^Ugbg($GNRMC,114125.00,A,0419.69363,S,05539.86044,E,0.145,,190525,,,D*7F
$GNVTG,,T,,M,0.145,N,0.269,K,D*35
$GNGNS,114125.00,0419.69363,S,05539.86044,E,DA,18,0.55,10.5,-47.6,,0000*66
$GNGGA,114125.00,0419.69363,S,05539.86044,E,2,12,0.55,10.5,M,-47.6,M,,0000*40
$GNGSA,A,3,29,10,23,25,32,26,18,28,31,16,27,,1.21,0.55,1.07*12
$GNGSA,A,3,70,73,83,84,71,85,72,,,,,,1.21,0.55,1.07*12
$GPGSV,4,1,16,10,24,343,30,16,24,266,28,18,28,057,28,23,08,022,26*74
$GPGSV,4,2,16,24,01,063,,25,07,140,19,26,30,234,34,27,24,325,30*76
$GPGSV,4,3,16,28,35,175,28,29,33,142,28,31,20,202,26,32,83,329,33*7C
$GPGSV,4,4,16,36,52,277,29,40,84,353,32,41,58,082,,49,32,274,32*77
$GLGSV,3,1,11,70,46,345,23,71,56,260,31,72,16,218,27,73,15,167,22*6E
$GLGSV,3,2,11,74,15,213,19,75,00,257,19,83,23,116,25,84,39,052,19*63
$GLGSV,3,3,11,85,17,359,27,,,,30,,,,28*5D
$GNGLL,0419.69363,S,05539.86044,E,114125.00,A,D*6C
$GNGRS,114125.00,1,-5.3,2.4,2.7,4.5,-0.8,0.0,0.6,5.1,4.9,3.1,2.5,*7A
$GNGRS,114125.00,1,8.2,4.2,9.0,3.5,-3.3,4.6,-10.7,,,,,*4B
$GNGST,114125.00,36,,,,1.5,1.6,2.8*47
$GNZDA,114125.00,19,05,2025,00,00*72
$GNGBS,114125.00,1.5,1.6,2.8,,,,*54
b0X
W="
o9?&E
#!W &SI{#4%Ta:R$ 
bF.YG'8lH6I}JKSt`T'4U#g':"bg$GNRMC,114126.00,A,0419.69360,S,05539.86046,E,0.112,,190525,,,D*7F
$GNVTG,,T,,M,0.112,N,0.207,K,D*3F
$GNGNS,114126.00,0419.69360,S,05539.86046,E,DA,18,0.55,10.4,-47.6,,0000*65
$GNGGA,114126.00,0419.69360,S,05539.86046,E,2,12,0.55,10.4,M,-47.6,M,,0000*43
$GNGSA,A,3,29,10,23,25,32,26,18,28,31,16,27,,1.21,0.55,1.07*12
$GNGSA,A,3,70,73,83,84,71,85,72,,,,,,1.21,0.55,1.07*12
$GPGSV,4,1,16,10,24,343,30,16,24,266,34,18,28,057,28,23,08,022,27*78
$GPGSV,4,2,16,24,01,063,,25,07,140,18,26,30,234,38,27,24,325,30*7B
$GPGSV,4,3,16,28,35,175,27,29,33,142,27,31,20,202,26,32,83,329,38*77
$GPGSV,4,4,16,36,52,277,35,40,84,353,37,41,58,082,,49,32,274,36*7B
$GLGSV,3,1,11,70,46,345,23,71,56,260,39,72,16,218,27,73,15,167,22*66
$GLGSV,3,2,11,74,15,213,19,75,00,257,19,83,23,116,24,84,39,052,18*63
$GLGSV,3,3,11,85,17,359,35,,,,39,,,,28*57
$GNGLL,0419.69360,S,05539.86046,E,114126.00,A,D*6E
$GNGRS,114126.00,1,-4.2,3.2,0.2,4.0,-0.8,0.1,-2.8,-0.3,4.0,1.1,1.3,*78
$GNGRS,114126.00,1,7.8,3.8,8.6,2.3,-4.0,4.1,-12.3,,,,,*45
$GNGST,114126.00,35,,,,1.5,1.6,2.8*47
$GNZDA,114126.00,19,05,2025,00,00*71
$GNGBS,114126.00,1.5,1.6,2.8,,,,*57
b0X
WN
&98?& E
#R!o !SI{ 4"Ta:R" 
bEF.YG$8]HIJKStET'4Ug bvgt$GNRMC,114127.00,A,0419.69359,S,05539.86047,E,0.089,,190525,,,D*76
$GNVTG,,T,,M,0.089,N,0.165,K,D*3B
$GNGNS,114127.00,0419.69359,S,05539.86047,E,DA,18,0.55,10.3,-47.6,,0000*68
$GNGGA,114127.00,0419.69359,S,05539.86047,E,2,12,0.55,10.3,M,-47.6,M,,0000*4E
$GNGSA,A,3,29,10,23,25,32,26,18,28,31,16,27,,1.21,0.55,1.07*12
$GNGSA,A,3,70,73,83,84,71,85,72,,,,,,1.21,0.55,1.07*12
$GPGSV,4,1,16,10,24,343,28,16,24,266,29,18,28,057,29,23,08,022,26*7D
$GPGSV,4,2,16,24,01,063,,25,07,140,20,26,30,234,32,27,24,325,28*73
$GPGSV,4,3,16,28,35,175,29,29,33,142,28,31,20,202,26,32,83,329,33*7D
$GPGSV,4,4,16,36,52,277,32,40,84,353,34,41,58,082,,49,32,274,34*7D
$GLGSV,3,1,11,70,46,345,25,71,56,260,36,72,16,218,25,73,15,167,23*6C
$GLGSV,3,2,11,74,15,213,19,75,00,257,20,83,23,116,26,84,39,052,19*6A
$GLGSV,3,3,11,85,17,359,30,,,,32,,,,28*59
$GNGLL,0419.69359,S,05539.86047,E,114127.00,A,D*64
$GNGRS,114127.00,1,-3.1,0.8,3.1,5.5,-0.9,0.1,-3.0,-1.7,1.1,0.4,2.7,*7A
$GNGRS,114127.00,1,7.6,4.0,3.2,0.2,-1.6,2.2,-10.6,,,,,*48
$GNGST,114127.00,34,,,,1.5,1.7,2.9*47
$GNZDA,114127.00,19,05,2025,00,00*70
$GNGBS,114127.00,1.5,1.7,2.9,,,,*56
b0X
"W+$
9Bx?z'!Eq
# ! I (SI{&4'Ta:R& !
bDF.Y@G$8H^IJKSt!T'4<U"g&W%b^g$GNRMC,114128.00,A,0419.69357,S,05539.86046,E,0.013,,190525,,,D*75
$GNVTG,,T,,M,0.013,N,0.024,K,D*3C
$GNGNS,114128.00,0419.69357,S,05539.86046,E,DA,18,0.55,10.3,-47.6,,0000*68
$GNGGA,114128.00,0419.69357,S,05539.86046,E,2,12,0.55,10.3,M,-47.6,M,,0000*4E
$GNGSA,A,3,29,10,23,25,32,26,18,28,31,16,27,,1.21,0.55,1.07*12
$GNGSA,A,3,70,73,83,84,71,85,72,,,,,,1.21,0.55,1.07*12
$GPGSV,4,1,16,10,24,343,34,16,24,266,36,18,28,057,30,23,08,022,31*70
$GPGSV,4,2,16,24,01,063,,25,07,140,21,26,30,234,39,27,24,325,33*73
$GPGSV,4,3,16,28,35,175,30,29,33,142,32,31,20,202,32,32,83,329,40*7F
$GPGSV,4,4,16,36,52,277,38,40,84,353,39,41,58,082,,49,32,274,38*76
$GLGSV,3,1,11,70,46,345,25,71,56,260,36,72,16,218,31,73,15,167,23*69
$GLGSV,3,2,11,74,15,213,19,75,00,257,21,83,23,116,27,84,39,052,18*6B
$GLGSV,3,3,11,85,17,359,34,,,,38,,,,29*56
$GNGLL,0419.69357,S,05539.86046,E,114128.00,A,D*64
$GNGRS,114128.00,1,0.3,3.0,-3.9,3.8,-0.7,0.0,-4.5,-0.1,-1.8,1.9,1.1,*5B
$GNGRS,114128.00,1,8.3,2.8,2.9,0.6,-0.5,3.8,-11.9,,,,,*4A
$GNGST,114128.00,29,,,,1.5,1.7,2.9*44
$GNZDA,114128.00,19,05,2025,00,00*7F
$GNGBS,114128.00,1.5,1.7,2.9,,,,*59
b0Xx
 WZ'
!9t?6'!Ej
#! *SI{'4+Ta:R) 
bF.ZG&8fHIJKSt-T'4U g%)bxFgD$GNRMC,114129.00,A,0419.69355,S,05539.86041,E,0.105,,190525,,,D*77
$GNVTG,,T,,M,0.105,N,0.195,K,D*31
$GNGNS,114129.00,0419.69355,S,05539.86041,E,DA,18,0.55,10.4,-47.6,,0000*6B
$GNGGA,114129.00,0419.69355,S,05539.86041,E,2,12,0.55,10.4,M,-47.6,M,,0000*4D
$GNGSA,A,3,29,10,23,25,32,26,18,28,31,16,27,,1.21,0.55,1.07*12
$GNGSA,A,3,70,73,83,84,71,85,72,,,,,,1.21,0.55,1.07*12
$GPGSV,4,1,16,10,24,343,32,16,24,266,39,18,28,057,33,23,08,022,24*7E
$GPGSV,4,2,16,24,01,063,,25,07,140,20,26,30,234,39,27,24,325,33*72
$GPGSV,4,3,16,28,35,175,29,29,33,142,26,31,20,202,31,32,83,329,42*73
$GPGSV,4,4,16,36,52,277,39,40,84,353,43,41,58,082,,49,32,274,41*74
$GLGSV,3,1,11,70,46,346,23,71,56,260,38,72,16,218,31,73,15,167,22*63
$GLGSV,3,2,11,74,15,213,18,75,00,257,18,83,23,116,26,84,39,052,17*6E
$GLGSV,3,3,11,85,17,359,32,,,,37,,,,28*5E
$GNGLL,0419.69355,S,05539.86041,E,114129.00,A,D*60
$GNGRS,114129.00,1,-1.1,6.0,-1.4,5.7,-0.5,0.0,-5.1,4.3,-3.2,2.5,1.1,*5C
$GNGRS,114129.00,1,9.3,-0.6,3.0,-0.2,1.0,5.3,-13.5,,,,,*60
$GNGST,114129.00,36,,,,1.5,1.7,2.9*4B
$GNZDA,114129.00,19,05,2025,00,00*7E
$GNGBS,114129.00,1.5,1.7,2.9,,,,*58
b0X`
W(
9#?xEZ
#! !SI{4!Ta:R 
bF.ZwG"8HIIJKStT'4Ug, b`.g`$GNRMC,114130.00,A,0419.69352,S,05539.86037,E,0.194,,190525,,,D*71
$GNVTG,,T,,M,0.194,N,0.359,K,D*3B
$GNGNS,114130.00,0419.69352,S,05539.86037,E,DA,18,0.55,10.4,-47.6,,0000*65
$GNGGA,114130.00,0419.69352,S,05539.86037,E,2,12,0.55,10.4,M,-47.6,M,,0000*43
$GNGSA,A,3,29,10,23,25,32,26,18,28,31,16,27,,1.21,0.55,1.07*12
$GNGSA,A,3,70,73,83,84,71,85,72,,,,,,1.21,0.55,1.07*12
$GPGSV,4,1,16,10,24,343,29,16,24,266,31,18,28,057,30,23,08,022,22*79
$GPGSV,4,2,16,24,01,063,,25,07,140,20,26,30,234,31,27,24,325,28*70
$GPGSV,4,3,16,28,35,175,22,29,33,142,26,31,20,202,29,32,83,329,33*77
$GPGSV,4,4,16,36,52,277,30,40,84,353,33,41,58,082,,49,32,274,31*7D
$GLGSV,3,1,11,70,46,346,22,71,56,261,34,72,16,218,29,73,15,167,23*67
$GLGSV,3,2,11,74,15,213,19,75,00,257,18,83,23,116,25,84,39,052,18*63
$GLGSV,3,3,11,85,17,359,27,,,,32,,,,28*5F
$GNGLL,0419.69352,S,05539.86037,E,114130.00,A,D*6E
$GNGRS,114130.00,1,4.9,8.1,-2.2,6.3,-0.3,-0.3,-3.3,10.2,1.3,2.7,0.9,*44
$GNGRS,114130.00,1,8.9,0.7,9.0,-0.5,0.2,5.6,-10.9,,,,,*4B
$GNGST,114130.00,37,,,,1.6,1.7,2.9*41
$GNZDA,114130.00,19,05,2025,00,00*76
$GNGBS,114130.00,1.6,1.7,2.9,,,,*53
b0XH
!W$
%9v!?'$E/
#!`! *SI{%4*Ta:R& 
bF.ZG)8H!1IJKStT'4U#gs& bHg8$GNRMC,114131.00,A,0419.69350,S,05539.86033,E,0.029,,190525,,,D*71
$GNVTG,,T,,M,0.029,N,0.054,K,D*32
$GNGNS,114131.00,0419.69350,S,05539.86033,E,DA,18,0.55,10.4,-47.6,,0000*62
$GNGGA,114131.00,0419.69350,S,05539.86033,E,2,12,0.55,10.4,M,-47.6,M,,0000*44
$GNGSA,A,3,29,10,23,25,32,26,18,28,31,16,27,,1.21,0.55,1.07*12
$GNGSA,A,3,70,73,83,84,71,85,72,,,,,,1.21,0.55,1.07*12
$GPGSV,4,1,16,10,24,343,33,16,24,266,36,18,28,057,37,23,08,022,33*72
$GPGSV,4,2,16,24,01,063,,25,07,140,21,26,30,234,39,27,24,325,36*76
$GPGSV,4,3,16,28,35,175,31,29,33,142,26,31,20,202,33,32,83,329,42*78
$GPGSV,4,4,16,36,52,277,37,40,84,353,42,41,58,082,,49,32,274,38*75
$GLGSV,3,1,11,70,46,346,22,71,56,261,41,72,16,219,33,73,15,167,22*6E
$GLGSV,3,2,11,74,15,213,19,75,00,257,16,83,23,116,31,84,39,052,18*68
$GLGSV,3,3,11,85,17,359,35,,,,38,,,,32*5D
$GNGLL,0419.69350,S,05539.86033,E,114131.00,A,D*69
$GNGRS,114131.00,1,-1.6,4.9,1.5,7.8,0.3,-0.2,-6.5,7.8,1.8,4.2,0.5,*52
$GNGRS,114131.00,1,7.3,-0.8,6.6,1.3,-1.2,3.7,-12.3,,,,,*6D
$GNGST,114131.00,32,,,,1.6,1.7,2.9*45
$GNZDA,114131.00,19,05,2025,00,00*77
$GNGBS,114131.00,1.6,1.7,2.9,,,,*52
b0X0
"W#
"9 ?4#$E
#!h  )SI8{&4)Ta:R' 
bF.ZG&8H!I:JKStT'4U#g&%b0gy$GNRMC,114132.00,A,0419.69347,S,05539.86032,E,0.016,,190525,,,D*79
$GNVTG,,T,,M,0.016,N,0.030,K,D*3C
$GNGNS,114132.00,0419.69347,S,05539.86032,E,DA,18,0.55,10.4,-47.6,,0000*66
$GNGGA,114132.00,0419.69347,S,05539.86032,E,2,12,0.55,10.4,M,-47.6,M,,0000*40
$GNGSA,A,3,29,10,23,25,32,26,18,28,31,16,27,,1.21,0.55,1.07*12
$GNGSA,A,3,70,73,83,84,71,85,72,,,,,,1.21,0.55,1.07*12
$GPGSV,4,1,16,10,24,343,34,16,24,266,35,18,28,057,34,23,08,022,32*74
$GPGSV,4,2,16,24,01,063,,25,07,140,22,26,30,234,35,27,24,325,36*79
$GPGSV,4,3,16,28,35,175,31,29,33,142,29,31,20,202,32,32,83,329,41*75
$GPGSV,4,4,16,36,52,277,38,40,84,353,41,41,58,082,,49,32,274,39*78
$GLGSV,3,1,11,70,46,346,25,71,56,261,38,72,16,219,29,73,15,166,23*6C
$GLGSV,3,2,11,74,15,213,19,75,00,257,18,83,23,116,30,84,39,052,20*6C
$GLGSV,3,3,11,85,17,359,35,,,,37,,,,30*50
$GNGLL,0419.69347,S,05539.86032,E,114132.00,A,D*6D
$GNGRS,114132.00,1,-1.5,5.3,-0.8,5.6,0.6,-0.2,-3.3,5.2,-0.4,2.1,2.6,*5E
$GNGRS,114132.00,1,6.4,0.6,4.8,2.1,1.5,5.5,-9.9,,,,,*58
$GNGST,114132.00,28,,,,1.6,1.7,2.9*4D
$GNZDA,114132.00,19,05,2025,00,00*74
$GNGBS,114132.00,1.6,1.7,2.9,,,,*51
b0X
"WT#
-"9R u?L'$E
#;!  (SI{&4)Ta:R' 
bF.ZG&8sHKIJKStT'4EU#g&tbg$GNRMC,114133.00,A,0419.69345,S,05539.86031,E,0.014,,190525,,,D*7B
$GNVTG,,T,,M,0.014,N,0.026,K,D*39
$GNGNS,114133.00,0419.69345,S,05539.86031,E,DA,18,0.55,10.4,-47.6,,0000*66
$GNGGA,114133.00,0419.69345,S,05539.86031,E,2,12,0.55,10.4,M,-47.6,M,,0000*40
$GNGSA,A,3,29,10,23,25,32,26,18,28,31,16,27,,1.21,0.55,1.07*12
$GNGSA,A,3,70,73,83,84,71,85,72,,,,,,1.21,0.55,1.07*12
$GPGSV,4,1,16,10,24,343,34,16,24,266,35,18,28,057,34,23,08,022,32*74
$GPGSV,4,2,16,24,01,063,,25,07,140,23,26,30,234,39,27,24,325,36*74
$GPGSV,4,3,16,28,35,175,30,29,33,142,30,31,20,202,32,32,83,329,40*7D
$GPGSV,4,4,16,36,52,277,38,40,84,353,41,41,58,082,,49,32,274,39*78
$GLGSV,3,1,11,70,46,346,26,71,56,261,38,72,16,219,30,73,15,166,24*60
$GLGSV,3,2,11,74,15,212,19,75,00,257,20,83,23,116,28,84,39,052,21*6E
$GLGSV,3,3,11,85,17,359,35,,,,38,,,,29*57
$GNGLL,0419.69345,S,05539.86031,E,114133.00,A,D*6D
$GNGRS,114133.00,1,-3.5,6.0,-1.4,5.9,0.2,-0.3,-4.3,3.1,-0.4,0.4,-0.2,*74
$GNGRS,114133.00,1,7.4,1.5,1.8,3.3,-1.4,1.9,-9.5,,,,,*74
$GNGST,114133.00,27,,,,1.5,1.7,2.8*41
$GNZDA,114133.00,19,05,2025,00,00*75
$GNGBS,114133.00,1.5,1.7,2.8,,,,*52
b0X
!W$
"!9?|'$E
#!p (SI#{&4(Ta:R' 
b)F.ZG'8VH@IJKStT'4U#g&bgI$GNRMC,114134.00,A,0419.69343,S,05539.86030,E,0.024,,190525,,,D*78
$GNVTG,,T,,M,0.024,N,0.045,K,D*3F
$GNGNS,114134.00,0419.69343,S,05539.86030,E,DA,18,0.55,10.5,-47.6,,0000*67
$GNGGA,114134.00,0419.69343,S,05539.86030,E,2,12,0.55,10.5,M,-47.6,M,,0000*41
$GNGSA,A,3,29,10,23,25,32,26,18,28,31,16,27,,1.21,0.55,1.07*12
$GNGSA,A,3,70,73,83,84,71,85,72,,,,,,1.21,0.55,1.07*12
$GPGSV,4,1,16,10,24,343,33,16,24,266,36,18,28,057,33,23,08,022,30*75
$GPGSV,4,2,16,24,01,063,,25,07,140,23,26,30,234,39,27,24,325,36*74
$GPGSV,4,3,16,28,35,175,30,29,33,142,30,31,20,202,31,32,83,329,40*7E
$GPGSV,4,4,16,36,52,277,38,40,84,353,40,41,58,082,,49,32,274,39*79
$GLGSV,3,1,11,70,46,346,27,71,56,261,39,72,16,219,31,73,15,166,23*66
$GLGSV,3,2,11,74,15,212,19,75,00,257,21,83,23,116,28,84,39,052,20*6E
$GLGSV,3,3,11,85,17,359,35,,,,38,,,,29*57
$GNGLL,0419.69343,S,05539.86030,E,114134.00,A,D*6D
$GNGRS,114134.00,1,-1.4,1.3,1.3,6.4,0.4,-0.2,-3.3,2.4,4.0,0.3,-0.3,*7F
$GNGRS,114134.00,1,7.4,1.5,2.2,4.2,-1.7,2.4,-7.0,,,,,*7A
$GNGST,114134.00,28,,,,1.5,1.7,2.8*49
$GNZDA,114134.00,19,05,2025,00,00*72
$GNGBS,114134.00,1.5,1.7,2.8,,,,*55
b0X
Wy
9n?_wE
#!e $SI{4$Ta:R 
bF.ZG8HIJKSt4T'4Ugbg$GNRMC,114135.00,A,0419.69342,S,05539.86028,E,0.042,,190525,,,D*71
$GNVTG,,T,,M,0.042,N,0.077,K,D*3E
$GNGNS,114135.00,0419.69342,S,05539.86028,E,DA,18,0.55,10.5,-47.6,,0000*6E
$GNGGA,114135.00,0419.69342,S,05539.86028,E,2,12,0.55,10.5,M,-47.6,M,,0000*48
$GNGSA,A,3,29,10,23,25,32,26,18,28,31,16,27,,1.21,0.55,1.07*12
$GNGSA,A,3,70,73,83,84,71,85,72,,,,,,1.21,0.55,1.07*12
$GPGSV,4,1,16,10,24,343,28,16,24,266,27,18,28,057,28,23,08,022,23*77
$GPGSV,4,2,16,24,01,063,,25,07,140,22,26,30,234,26,27,24,325,28*74
$GPGSV,4,3,16,28,35,175,19,29,33,142,22,31,20,202,23,32,83,329,36*74
$GPGSV,4,4,16,36,52,277,30,40,84,353,36,41,58,082,,49,32,274,31*78
$GLGSV,3,1,11,70,46,346,24,71,56,261,30,72,16,219,24,73,15,166,21*6A
$GLGSV,3,2,11,74,15,212,17,75,00,257,19,83,23,116,18,84,39,052,18*63
$GLGSV,3,3,11,85,17,359,23,,,,30,,,,18*5A
$GNGLL,0419.69342,S,05539.86028,E,114135.00,A,D*64
$GNGRS,114135.00,1,-0.8,3.8,6.2,6.1,0.2,-1.4,-5.4,2.5,1.0,2.0,1.4,*57
$GNGRS,114135.00,1,7.2,-3.0,-4.6,4.8,-1.0,1.5,-8.4,,,,,*7C
$GNGST,114135.00,44,,,,1.6,1.7,2.9*40
$GNZDA,114135.00,19,05,2025,00,00*73
$GNGBS,114135.00,1.6,1.7,2.9,,,,*56
b0X
W
]90?|E(
#!f %SI{4$Ta:R# 
bF.ZG 8HI)JKSt!T'4BUgvbgn
$GNRMC,114136.00,A,0419.69343,S,05539.86030,E,0.164,,190525,,,D*7F
$GNVTG,,T,,M,0.164,N,0.304,K,D*3C
$GNGNS,114136.00,0419.69343,S,05539.86030,E,DA,18,0.55,10.4,-47.6,,0000*64
$GNGGA,114136.00,0419.69343,S,05539.86030,E,2,12,0.55,10.4,M,-47.6,M,,0000*42
$GNGSA,A,3,29,10,23,25,32,26,18,28,31,16,27,,1.21,0.55,1.07*12
$GNGSA,A,3,70,73,83,84,71,85,72,,,,,,1.21,0.55,1.07*12
$GPGSV,4,1,16,10,24,343,27,16,24,266,28,18,28,057,28,23,08,022,25*71
$GPGSV,4,2,16,24,01,063,,25,07,140,21,26,30,234,31,27,24,325,31*79
$GPGSV,4,3,16,28,35,175,21,29,33,142,24,31,20,202,29,32,83,329,37*72
$GPGSV,4,4,16,36,52,277,31,40,84,353,36,41,58,082,,49,32,274,35*7D
$GLGSV,3,1,11,70,46,346,22,71,56,261,32,72,16,219,25,73,15,166,20*6E
$GLGSV,3,2,11,74,15,212,16,75,00,257,18,83,23,116,27,84,39,052,17*60
$GLGSV,3,3,11,85,17,359,29,,,,29,,,,26*55
$GNGLL,0419.69343,S,05539.86030,E,114136.00,A,D*6F
$GNGRS,114136.00,1,-0.5,7.8,-0.4,6.4,0.3,-0.6,-2.1,-1.2,1.0,-1.6,-2.2,*5C
$GNGRS,114136.00,1,5.1,-2.1,-4.8,3.2,-2.3,1.2,-10.4,,,,,*43
$GNGST,114136.00,39,,,,1.6,1.7,2.9*49
$GNZDA,114136.00,19,05,2025,00,00*70
$GNGBS,114136.00,1.6,1.7,2.9,,,,*55
b0X
W 
^9|?% Ek
#9!w (SI"{$4'Ta:R% 
bF.ZG#8HiIJKStT'4=U!gD"PbgFr$GNRMC,114137.00,A,0419.69343,S,05539.86031,E,0.016,,190525,,,D*7B
$GNVTG,,T,,M,0.016,N,0.030,K,D*3C
$GNGNS,114137.00,0419.69343,S,05539.86031,E,DA,18,0.55,10.4,-47.6,,0000*64
$GNGGA,114137.00,0419.69343,S,05539.86031,E,2,12,0.55,10.4,M,-47.6,M,,0000*42
$GNGSA,A,3,29,10,23,25,32,26,18,28,31,16,27,,1.21,0.55,1.07*12
$GNGSA,A,3,70,73,83,84,71,85,72,,,,,,1.21,0.55,1.07*12
$GPGSV,4,1,16,10,24,343,28,16,24,266,32,18,28,057,29,23,08,022,26*77
$GPGSV,4,2,16,24,01,063,,25,07,140,21,26,30,234,37,27,24,325,32*7C
$GPGSV,4,3,16,28,35,175,24,29,33,142,30,31,20,202,29,32,83,329,40*72
$GPGSV,4,4,16,36,52,277,36,40,84,353,39,41,58,082,,49,32,274,37*77
$GLGSV,3,1,11,70,46,346,20,71,56,261,35,72,16,219,26,73,15,166,18*63
$GLGSV,3,2,11,74,15,212,14,75,00,257,17,83,23,116,26,84,39,052,16*6D
$GLGSV,3,3,11,85,17,359,33,,,,34,,,,25*51
$GNGLL,0419.69343,S,05539.86031,E,114137.00,A,D*6F
$GNGRS,114137.00,1,-1.4,4.8,-1.3,6.8,0.3,-0.6,-1.2,3.1,-2.3,-1.6,1.1,*78
$GNGRS,114137.00,1,6.4,-2.9,-5.4,3.2,-1.0,-1.9,-9.2,,,,,*59
$GNGST,114137.00,40,,,,1.6,1.8,2.9*49
$GNZDA,114137.00,19,05,2025,00,00*71
$GNGBS,114137.00,1.6,1.8,2.9,,,,*5B
b0X
W 
9`?x%< E
#)!% (SI-{$4'Ta:R$ 
bF.ZG$8HIJKStT'4kUgb#dbng$GNRMC,114138.00,A,0419.69340,S,05539.86028,E,0.042,,190525,,,D*7E
$GNVTG,,T,,M,0.042,N,0.078,K,D*31
$GNGNS,114138.00,0419.69340,S,05539.86028,E,DA,18,0.55,10.5,-47.6,,0000*61
$GNGGA,114138.00,0419.69340,S,05539.86028,E,2,12,0.55,10.5,M,-47.6,M,,0000*47
$GNGSA,A,3,29,10,23,25,32,26,18,28,31,16,27,,1.21,0.55,1.07*12
$GNGSA,A,3,70,73,83,84,71,85,72,,,,,,1.21,0.55,1.07*12
$GPGSV,4,1,16,10,24,343,29,16,24,266,32,18,28,057,28,23,08,022,26*77
$GPGSV,4,2,16,24,01,063,,25,07,140,21,26,30,234,37,27,24,325,32*7C
$GPGSV,4,3,16,28,35,175,25,29,33,142,29,31,20,202,29,32,83,329,40*7B
$GPGSV,4,4,16,36,52,277,36,40,84,353,39,41,58,082,,49,32,274,36*76
$GLGSV,3,1,11,70,46,346,21,71,56,261,36,72,16,219,27,73,15,166,19*61
$GLGSV,3,2,11,74,15,212,15,75,00,257,17,83,23,116,25,84,39,052,16*6F
$GLGSV,3,3,11,85,17,359,30,,,,35,,,,26*50
$GNGLL,0419.69340,S,05539.86028,E,114138.00,A,D*6B
$GNGRS,114138.00,1,-4.8,4.1,-3.0,6.3,0.4,0.6,-6.7,-2.1,-0.5,1.9,-0.2,*70
$GNGRS,114138.00,1,3.9,-2.7,-5.1,3.6,-0.2,1.0,-12.7,,,,,*49
$GNGST,114138.00,39,,,,1.6,1.8,2.9*48
$GNZDA,114138.00,19,05,2025,00,00*7E
$GNGBS,114138.00,1.6,1.8,2.9,,,,*54
b0X
W 
9Y#?%+ E
#!F &SI?{"4%Ta:R" 
bF.ZG"8*HIJKStT'4Ug3 bVgP$GNRMC,114139.00,A,0419.69339,S,05539.86028,E,0.041,,190525,,,D*72
$GNVTG,,T,,M,0.041,N,0.077,K,D*3D
$GNGNS,114139.00,0419.69339,S,05539.86028,E,DA,18,0.55,10.5,-47.6,,0000*6E
$GNGGA,114139.00,0419.69339,S,05539.86028,E,2,12,0.55,10.5,M,-47.6,M,,0000*48
$GNGSA,A,3,29,10,23,25,32,26,18,28,31,16,27,,1.21,0.55,1.07*12
$GNGSA,A,3,70,73,83,84,71,85,72,,,,,,1.21,0.55,1.07*12
$GPGSV,4,1,16,10,24,343,29,16,24,266,32,18,28,057,28,23,08,022,23*72
$GPGSV,4,2,16,24,01,063,,25,07,140,20,26,30,234,37,27,24,325,32*7D
$GPGSV,4,3,16,28,35,175,25,29,33,142,29,31,20,202,28,32,83,329,38*75
$GPGSV,4,4,16,36,52,277,34,40,84,353,37,41,58,082,,49,32,274,34*78
$GLGSV,3,1,11,70,46,346,21,71,56,261,34,72,16,219,27,73,15,166,18*62
$GLGSV,3,2,11,74,15,212,17,75,00,257,16,83,23,116,25,84,39,052,16*6C
$GLGSV,3,3,11,85,17,359,31,,,,32,,,,26*56
$GNGLL,0419.69339,S,05539.86028,E,114139.00,A,D*64
$GNGRS,114139.00,1,-0.7,5.0,-2.2,4.9,0.6,0.4,-6.8,1.4,-1.9,-0.6,-0.3,*7A
$GNGRS,114139.00,1,4.2,-2.7,-3.1,4.8,-2.1,3.1,-13.2,,,,,*4D
$GNGST,114139.00,37,,,,1.6,1.8,2.9*47
$GNZDA,114139.00,19,05,2025,00,00*7F
$GNGBS,114139.00,1.6,1.8,2.9,,,,*55
b0Xp
W#
9%?I% E
#! %SI1{$4$Ta:R# 
bF.Z7G"8)HIJKStT'4Ug!-bp>g$GNRMC,114140.00,A,0419.69338,S,05539.86026,E,0.046,,190525,,,D*74
$GNVTG,,T,,M,0.046,N,0.085,K,D*37
$GNGNS,114140.00,0419.69338,S,05539.86026,E,DA,18,0.55,10.5,-47.6,,0000*6F
$GNGGA,114140.00,0419.69338,S,05539.86026,E,2,12,0.55,10.5,M,-47.6,M,,0000*49
$GNGSA,A,3,29,10,23,25,32,26,18,28,31,16,27,,1.21,0.55,1.07*12
$GNGSA,A,3,70,73,83,84,71,85,72,,,,,,1.21,0.55,1.07*12
$GPGSV,4,1,16,10,24,343,29,16,24,266,35,18,28,057,28,23,08,022,21*77
$GPGSV,4,2,16,24,01,063,,25,07,140,20,26,30,234,37,27,24,325,32*7D
$GPGSV,4,3,16,28,35,175,24,29,33,142,30,31,20,202,28,32,83,329,37*73
$GPGSV,4,4,16,36,52,277,36,40,84,353,36,41,58,082,,49,32,274,35*7A
$GLGSV,3,1,11,70,46,346,22,71,56,261,34,72,16,219,26,73,15,166,17*6F
$GLGSV,3,2,11,74,15,212,17,75,00,257,16,83,23,116,25,84,39,052,15*6F
$GLGSV,3,3,11,85,17,359,31,,,,33,,,,25*54
$GNGLL,0419.69338,S,05539.86026,E,114140.00,A,D*65
$GNGRS,114140.00,1,-3.6,7.3,-3.7,5.8,0.5,0.1,-2.2,-0.9,0.0,4.0,-0.9,*5A
$GNGRS,114140.00,1,5.7,-2.3,-2.9,3.8,-4.7,1.3,-11.3,,,,,*4E
$GNGST,114140.00,37,,,,1.6,1.8,3.0*41
$GNZDA,114140.00,19,05,2025,00,00*71
$GNGBS,114140.00,1.6,1.8,3.0,,,,*53
b0XX
W
93?%!E
#@! %SI?{"4%Ta:R# 
bF.ZG$8EH IqJKStT'4U"g$bX&g $GNRMC,114141.00,A,0419.69335,S,05539.86025,E,0.049,,190525,,,D*74
$GNVTG,,T,,M,0.049,N,0.090,K,D*3C
$GNGNS,114141.00,0419.69335,S,05539.86025,E,DA,18,0.55,10.6,-47.6,,0000*63
$GNGGA,114141.00,0419.69335,S,05539.86025,E,2,12,0.55,10.6,M,-47.6,M,,0000*45
$GNGSA,A,3,29,10,23,25,32,26,18,28,31,16,27,,1.21,0.55,1.07*12
$GNGSA,A,3,70,73,83,84,71,85,72,,,,,,1.21,0.55,1.07*12
$GPGSV,4,1,16,10,24,343,31,16,24,266,31,18,28,057,30,23,08,022,19*78
$GPGSV,4,2,16,24,01,063,,25,07,140,20,26,30,234,37,27,24,325,33*7C
$GPGSV,4,3,16,28,35,175,27,29,33,142,31,31,20,202,30,32,83,329,37*78
$GPGSV,4,4,16,36,52,277,34,40,84,353,37,41,58,082,,49,32,274,35*79
$GLGSV,3,1,11,70,46,346,22,71,56,261,36,72,16,219,32,73,15,166,18*67
$GLGSV,3,2,11,74,15,212,18,75,00,257,17,83,23,116,26,84,39,052,16*61
$GLGSV,3,3,11,85,17,359,34,,,,36,,,,27*56
$GNGLL,0419.69335,S,05539.86025,E,114141.00,A,D*6A
$GNGRS,114141.00,1,-3.7,3.9,-2.3,5.4,0.6,-1.0,-7.2,3.2,-0.7,2.0,1.3,*59
$GNGRS,114141.00,1,6.8,-1.4,-3.4,2.6,-4.4,-2.8,-7.9,,,,,*5F
$GNGST,114141.00,35,,,,1.6,1.8,3.0*42
$GNZDA,114141.00,19,05,2025,00,00*70
$GNGBS,114141.00,1.6,1.8,3.0,,,,*52
b0X@
W]
B9?+#)E
#! "SIL{!4#Ta:R! 
bF.ZG"82HIJKSuT'4Ug!b@g$GNRMC,114142.00,A,0419.69333,S,05539.86025,E,0.014,,190525,,,D*79
$GNVTG,,T,,M,0.014,N,0.026,K,D*39
$GNGNS,114142.00,0419.69333,S,05539.86025,E,DA,18,0.55,10.6,-47.6,,0000*66
$GNGGA,114142.00,0419.69333,S,05539.86025,E,2,12,0.55,10.6,M,-47.6,M,,0000*40
$GNGSA,A,3,29,10,23,25,32,26,18,28,31,16,27,,1.21,0.55,1.07*12
$GNGSA,A,3,70,73,83,84,71,85,72,,,,,,1.21,0.55,1.07*12
$GPGSV,4,1,16,10,24,343,27,16,24,266,31,18,28,057,24,23,08,022,18*7B
$GPGSV,4,2,16,24,01,063,,25,07,140,18,26,30,234,35,27,24,325,30*76
$GPGSV,4,3,16,28,35,175,26,29,33,142,27,31,20,202,27,32,83,329,34*7B
$GPGSV,4,4,16,36,52,277,33,40,84,353,35,41,58,082,,49,32,274,33*7A
$GLGSV,3,1,11,70,46,346,22,71,56,261,34,72,16,219,27,73,15,166,19*60
$GLGSV,3,2,11,74,15,212,19,75,00,257,17,83,23,117,26,84,39,052,17*60
$GLGSV,3,3,11,85,17,359,31,,,,33,,,,26*57
$GNGLL,0419.69333,S,05539.86025,E,114142.00,A,D*6F
$GNGRS,114142.00,1,-4.8,3.5,-2.5,5.6,0.8,0.4,-5.3,4.0,-1.3,0.7,0.2,*7A
$GNGRS,114142.00,1,6.6,-0.5,-2.9,3.8,-2.1,1.9,-6.3,,,,,*76
$GNGST,114142.00,39,,,,1.6,1.8,3.1*4C
$GNZDA,114142.00,19,05,2025,00,00*73
$GNGBS,114142.00,1.6,1.8,3.1,,,,*50
b0X(
 W#
 9{(?G)G"E
#!L] (SIX{&4'Ta:R% 
bF.ZCG)8H!oIJKS uYT(5U%g( ob(gV$GNRMC,114143.00,A,0419.69332,S,05539.86026,E,0.039,,190525,,,D*75
$GNVTG,,T,,M,0.039,N,0.072,K,D*37
$GNGNS,114143.00,0419.69332,S,05539.86026,E,DA,18,0.55,10.6,-47.6,,0000*65
$GNGGA,114143.00,0419.69332,S,05539.86026,E,2,12,0.55,10.6,M,-47.6,M,,0000*43
$GNGSA,A,3,29,10,23,25,32,26,18,28,31,16,27,,1.21,0.55,1.07*12
$GNGSA,A,3,70,73,83,84,71,85,72,,,,,,1.21,0.55,1.07*12
$GPGSV,4,1,16,10,24,343,32,16,24,266,35,18,28,057,32,23,08,022,23*74
$GPGSV,4,2,16,24,01,063,,25,07,140,18,26,30,234,41,27,24,325,34*71
$GPGSV,4,3,16,28,35,175,27,29,33,142,30,31,20,202,31,32,83,329,40*78
$GPGSV,4,4,16,36,52,277,38,40,84,353,39,41,58,082,,49,32,274,37*79
$GLGSV,3,1,11,70,46,346,23,71,56,261,41,72,16,219,33,73,15,166,21*6D
$GLGSV,3,2,11,74,15,212,20,75,00,257,19,83,23,117,32,84,40,053,19*60
$GLGSV,3,3,11,85,17,359,37,,,,40,,,,32*50
$GNGLL,0419.69332,S,05539.86026,E,114143.00,A,D*6C
$GNGRS,114143.00,1,0.8,0.0,-2.2,5.8,0.9,0.7,-3.9,-0.9,3.5,2.1,0.0,*5C
$GNGRS,114143.00,1,5.8,0.0,3.5,2.4,-2.5,2.9,-6.6,,,,,*7D
$GNGST,114143.00,36,,,,1.6,1.8,3.0*43
$GNZDA,114143.00,19,05,2025,00,00*72
$GNGBS,114143.00,1.6,1.8,3.0,,,,*50
b0X
 W$
 9?)#Eq
#!!a" (SIb{%4(Ta:R% 
bF.ZyG)8'H"DIJKSuT(5U%g|)!hbg.U$GNRMC,114144.00,A,0419.69328,S,05539.86027,E,0.019,,190525,,,D*7A
$GNVTG,,T,,M,0.019,N,0.035,K,D*36
$GNGNS,114144.00,0419.69328,S,05539.86027,E,DA,18,0.55,10.6,-47.6,,0000*68
$GNGGA,114144.00,0419.69328,S,05539.86027,E,2,12,0.55,10.6,M,-47.6,M,,0000*4E
$GNGSA,A,3,29,10,23,25,32,26,18,28,31,16,27,,1.21,0.55,1.07*12
$GNGSA,A,3,70,73,83,84,71,85,72,,,,,,1.21,0.55,1.07*12
$GPGSV,4,1,16,10,24,343,32,16,24,266,36,18,28,057,32,23,08,022,24*70
$GPGSV,4,2,16,24,01,063,,25,07,140,20,26,30,234,41,27,24,325,35*7B
$GPGSV,4,3,16,28,35,175,29,29,33,142,33,31,20,202,31,32,83,329,40*75
$GPGSV,4,4,16,36,52,277,37,40,84,353,40,41,58,082,,49,32,274,37*78
$GLGSV,3,1,11,70,46,346,26,71,56,261,41,72,16,219,34,73,15,166,23*6D
$GLGSV,3,2,11,74,15,212,23,75,00,257,21,83,23,117,31,84,40,053,21*60
$GLGSV,3,3,11,85,18,359,37,,,,41,,,,33*5F
$GNGLL,0419.69328,S,05539.86027,E,114144.00,A,D*61
$GNGRS,114144.00,1,-1.6,1.5,-0.8,4.3,1.0,0.2,-3.4,4.8,0.3,2.8,1.1,*5B
$GNGRS,114144.00,1,6.3,0.0,3.9,2.2,-2.2,3.8,-9.6,,,,,*70
$GNGST,114144.00,30,,,,1.6,1.8,3.0*42
$GNZDA,114144.00,19,05,2025,00,00*75
$GNGBS,114144.00,1.6,1.8,3.0,,,,*57
b0X
W
9?%EL
#! %SIc{ 4$Ta:R  
bF.ZqG!8/HIJKSuT(5UgL (bg$GNRMC,114145.00,A,0419.69325,S,05539.86028,E,0.049,,190525,,,D*7C
$GNVTG,,T,,M,0.049,N,0.090,K,D*3C
$GNGNS,114145.00,0419.69325,S,05539.86028,E,DA,18,0.55,10.7,-47.6,,0000*6A
$GNGGA,114145.00,0419.69325,S,05539.86028,E,2,12,0.55,10.7,M,-47.6,M,,0000*4C
$GNGSA,A,3,29,10,23,25,32,26,18,28,31,16,27,,1.21,0.55,1.07*12
$GNGSA,A,3,70,73,83,84,71,85,72,,,,,,1.21,0.55,1.07*12
$GPGSV,4,1,16,10,24,343,27,16,24,266,29,18,28,057,26,23,08,022,21*7A
$GPGSV,4,2,16,24,01,063,,25,07,140,20,26,30,234,37,27,24,325,27*79
$GPGSV,4,3,16,28,35,175,28,29,33,142,28,31,20,202,25,32,83,329,37*7B
$GPGSV,4,4,16,36,52,277,32,40,84,353,36,41,58,082,,49,32,274,32*79
$GLGSV,3,1,11,70,46,346,24,71,56,261,33,72,16,219,29,73,15,166,22*67
$GLGSV,3,2,11,74,15,212,22,75,00,257,20,83,23,117,25,84,40,053,20*64
$GLGSV,3,3,11,85,18,359,30,,,,32,,,,27*59
$GNGLL,0419.69325,S,05539.86028,E,114145.00,A,D*62
$GNGRS,114145.00,1,-2.4,2.8,-0.3,4.0,1.0,0.2,-0.2,0.0,-0.5,2.0,-1.8,*53
$GNGRS,114145.00,1,8.8,-3.1,11.7,2.8,-2.1,3.3,-10.5,,,,,*5F
$GNGST,114145.00,36,,,,1.6,1.8,3.0*45
$GNZDA,114145.00,19,05,2025,00,00*74
$GNGBS,114145.00,1.6,1.8,3.0,,,,*56
b0X
W#
h9A?'E
#! (SI\{%4(Ta:R% 
bF.ZcG"80HSIJKSumT(5UgJ bh$GNRMC,114146.00,A,0419.69325,S,05539.86029,E,0.059,,190525,,,D*7F
$GNVTG,,T,,M,0.059,N,0.110,K,D*34
$GNGNS,114146.00,0419.69325,S,05539.86029,E,DA,18,0.55,10.7,-47.6,,0000*68
$GNGGA,114146.00,0419.69325,S,05539.86029,E,2,12,0.55,10.7,M,-47.6,M,,0000*4E
$GNGSA,A,3,29,10,23,25,32,26,18,28,31,16,27,,1.21,0.55,1.07*12
$GNGSA,A,3,70,73,83,84,71,85,72,,,,,,1.21,0.55,1.07*12
$GPGSV,4,1,16,10,24,343,26,16,24,266,35,18,28,057,27,23,08,022,21*77
$GPGSV,4,2,16,24,01,063,,25,07,140,19,26,30,234,39,27,24,325,26*7C
$GPGSV,4,3,16,28,35,175,28,29,33,142,27,31,20,202,29,32,83,329,40*78
$GPGSV,4,4,16,36,52,277,37,40,84,353,40,41,58,082,,49,32,274,37*78
$GLGSV,3,1,11,70,46,346,22,71,56,261,34,72,16,219,28,73,15,166,20*65
$GLGSV,3,2,11,74,15,212,20,75,00,257,17,83,23,117,23,84,40,053,18*6F
$GLGSV,3,3,11,85,18,359,29,,,,32,,,,27*51
$GNGLL,0419.69325,S,05539.86029,E,114146.00,A,D*60
$GNGRS,114146.00,1,1.7,-1.1,0.3,5.0,0.9,0.3,-4.5,-5.5,6.8,3.6,-1.2,*7A
$GNGRS,114146.00,1,8.7,-3.1,8.8,4.5,-2.1,0.7,-12.0,,,,,*6F
$GNGST,114146.00,38,,,,1.6,1.8,3.0*48
$GNZDA,114146.00,19,05,2025,00,00*77
$GNGBS,114146.00,1.6,1.8,3.0,,,,*55
b0X"
W%
 $9,?)"E1
 #!!! +SIT{'4*Ta:R' 
bF.Z3G*8 H!IDJKS"u5T(5U%g7)b"h$GNRMC,114147.00,A,0419.69321,S,05539.86030,E,0.045,,190525,,,D*7F
$GNVTG,,T,,M,0.045,N,0.083,K,D*32
$GNGNS,114147.00,0419.69321,S,05539.86030,E,DA,18,0.55,10.9,-47.6,,0000*6B
$GNGGA,114147.00,0419.69321,S,05539.86030,E,2,12,0.55,10.9,M,-47.6,M,,0000*4D
$GNGSA,A,3,29,10,23,25,32,26,18,28,31,16,27,,1.21,0.55,1.07*12
$GNGSA,A,3,70,73,83,84,71,85,72,,,,,,1.21,0.55,1.07*12
$GPGSV,4,1,16,10,24,343,31,16,24,266,37,18,28,057,36,23,08,022,20*72
$GPGSV,4,2,16,24,01,063,,25,07,140,20,26,30,234,41,27,24,325,34*7A
$GPGSV,4,3,16,28,35,175,32,29,33,142,33,31,20,202,33,32,83,329,43*7E
$GPGSV,4,4,16,36,52,277,39,40,84,353,42,41,58,082,,49,32,274,39*7A
$GLGSV,3,1,11,70,46,346,23,71,56,261,42,72,16,219,33,73,15,166,20*6F
$GLGSV,3,2,11,74,15,212,19,75,00,257,19,83,23,117,34,84,40,053,19*6C
$GLGSV,3,3,11,85,18,359,37,,,,41,,,,28*55
$GNGLL,0419.69321,S,05539.86030,E,114147.00,A,D*6D
$GNGRS,114147.00,1,-1.3,1.5,-0.9,4.3,0.8,0.2,-2.1,-5.6,-0.7,0.3,-2.1,*7D
$GNGRS,114147.00,1,8.2,-4.4,5.7,4.7,-2.2,3.1,-13.7,,,,,*69
$GNGST,114147.00,39,,,,1.6,1.8,3.0*48
$GNZDA,114147.00,19,05,2025,00,00*76
$GNGBS,114147.00,1.6,1.8,3.0,,,,*54
b0X&
W
H9j@?h"(ED
#!{ %SIO{!4%Ta:R" 
bF.ZtG!83HIDJKSu[T(5UgKdb&~h$GNRMC,114148.00,A,0419.69322,S,05539.86032,E,0.087,,190525,,,D*7F
$GNVTG,,T,,M,0.087,N,0.162,K,D*32
$GNGNS,114148.00,0419.69322,S,05539.86032,E,DA,18,0.55,10.9,-47.6,,0000*65
$GNGGA,114148.00,0419.69322,S,05539.86032,E,2,12,0.55,10.9,M,-47.6,M,,0000*43
$GNGSA,A,3,29,10,23,25,32,26,18,28,31,16,27,,1.21,0.55,1.07*12
$GNGSA,A,3,70,73,83,84,71,85,72,,,,,,1.21,0.55,1.07*12
$GPGSV,4,1,16,10,24,343,25,16,24,266,31,18,28,057,31,23,08,022,22*74
$GPGSV,4,2,16,24,01,063,,25,07,140,22,26,30,234,34,27,24,325,29*76
$GPGSV,4,3,16,28,35,175,26,29,33,142,27,31,20,202,28,32,83,329,37*77
$GPGSV,4,4,16,36,52,277,33,40,84,353,37,41,58,082,,49,32,274,34*7F
$GLGSV,3,1,11,70,46,346,20,71,56,261,33,72,16,219,28,73,15,166,22*62
$GLGSV,3,2,11,74,15,212,20,75,00,257,20,83,23,117,25,84,40,053,19*6C
$GLGSV,3,3,11,85,18,359,31,,,,30,,,,23*5E
$GNGLL,0419.69322,S,05539.86032,E,114148.00,A,D*63
$GNGRS,114148.00,1,-0.2,-2.3,0.6,6.2,0.8,0.4,-1.5,-1.2,1.2,-1.8,5.8,*57
$GNGRS,114148.00,1,6.3,-1.9,8.6,6.4,-2.0,3.3,-11.2,,,,,*6B
$GNGST,114148.00,36,,,,1.6,1.8,3.0*48
$GNZDA,114148.00,19,05,2025,00,00*79
$GNGBS,114148.00,1.6,1.8,3.0,,,,*5B
b0X*
W$
#9f?&"E
#!! *SI-{%4)Ta:R% 
bTF.ZG)8H"IJKSu5T(5}U%gp%b*fhfP$GNRMC,114149.00,A,0419.69321,S,05539.86032,E,0.028,,190525,,,D*78
$GNVTG,,T,,M,0.028,N,0.051,K,D*36
$GNGNS,114149.00,0419.69321,S,05539.86032,E,DA,18,0.55,10.9,-47.6,,0000*67
$GNGGA,114149.00,0419.69321,S,05539.86032,E,2,12,0.55,10.9,M,-47.6,M,,0000*41
$GNGSA,A,3,29,10,23,25,32,26,18,28,31,16,27,,1.21,0.55,1.07*12
$GNGSA,A,3,70,73,83,84,71,85,72,,,,,,1.21,0.55,1.07*12
$GPGSV,4,1,16,10,24,343,28,16,24,266,36,18,28,057,35,23,08,022,27*7F
$GPGSV,4,2,16,24,01,063,,25,07,140,23,26,30,234,38,27,24,325,34*77
$GPGSV,4,3,16,28,35,175,31,29,33,142,30,31,20,202,33,32,83,329,42*7F
$GPGSV,4,4,16,36,52,277,37,40,84,353,41,41,58,082,,49,32,274,37*79
$GLGSV,3,1,11,70,46,346,23,71,56,261,41,72,16,219,34,73,15,166,23*68
$GLGSV,3,2,11,74,15,212,22,75,00,257,21,83,23,117,31,84,40,053,22*62
$GLGSV,3,3,11,85,18,359,37,,,,37,,,,31*5C
$GNGLL,0419.69321,S,05539.86032,E,114149.00,A,D*61
$GNGRS,114149.00,1,-3.4,-3.0,-0.2,4.1,0.5,0.3,-6.7,-1.1,1.4,1.4,1.7,*59
$GNGRS,114149.00,1,7.9,-3.0,13.3,6.4,-2.3,1.1,-10.1,,,,,*54
$GNGST,114149.00,29,,,,1.6,1.8,3.0*47
$GNZDA,114149.00,19,05,2025,00,00*78
$GNGBS,114149.00,1.6,1.8,3.0,,,,*5A
b0X.
WK#
9T?%
E
#S!' )SI{#4(Ta:R$ 
b4F.ZG)8+H!IJKS uxT(5U%g]&b.Nh>$GNRMC,114150.00,A,0419.69319,S,05539.86035,E,0.024,,190525,,,D*70
$GNVTG,,T,,M,0.024,N,0.045,K,D*3F
$GNGNS,114150.00,0419.69319,S,05539.86035,E,DA,18,0.55,10.9,-47.6,,0000*63
$GNGGA,114150.00,0419.69319,S,05539.86035,E,2,12,0.55,10.9,M,-47.6,M,,0000*45
$GNGSA,A,3,29,10,23,25,32,26,18,28,31,16,27,,1.21,0.55,1.07*12
$GNGSA,A,3,70,73,83,84,71,85,72,,,,,,1.21,0.55,1.07*12
$GPGSV,4,1,16,10,24,343,28,16,24,266,35,18,28,057,31,23,08,022,27*78
$GPGSV,4,2,16,24,01,063,,25,07,140,22,26,30,234,37,27,24,325,31*7C
$GPGSV,4,3,16,28,35,175,30,29,33,142,28,31,20,202,31,32,83,329,41*76
$GPGSV,4,4,16,36,52,277,35,40,84,353,40,41,58,082,,49,32,274,36*7B
$GLGSV,3,1,11,70,46,346,29,71,56,261,41,72,16,219,33,73,15,166,25*63
$GLGSV,3,2,11,74,15,212,21,75,00,257,21,83,23,117,32,84,40,053,22*62
$GLGSV,3,3,11,85,18,359,37,,,,38,,,,30*52
$GNGLL,0419.69319,S,05539.86035,E,114150.00,A,D*65
$GNGRS,114150.00,1,-2.2,-1.8,-1.7,2.6,0.2,0.1,-2.6,-1.7,0.2,1.4,-2.4,*75
$GNGRS,114150.00,1,7.1,-1.2,11.4,6.4,-2.1,0.9,-13.4,,,,,*5C
$GNGST,114150.00,29,,,,1.6,1.8,3.0*4F
$GNZDA,114150.00,19,05,2025,00,00*70
$GNGBS,114150.00,1.6,1.8,3.0,,,,*52
b0Xh2
W
$
3"9?&"E^
#;!! +SI{&4*Ta:R( 
bF.ZG(8KH!DIJKS#uT(5DU&gU&!gbh26h $GNRMC,114151.00,A,0419.69316,S,05539.86039,E,0.028,,190525,,,D*7E
$GNVTG,,T,,M,0.028,N,0.053,K,D*34
$GNGNS,114151.00,0419.69316,S,05539.86039,E,DA,18,0.55,10.9,-47.6,,0000*61
$GNGGA,114151.00,0419.69316,S,05539.86039,E,2,12,0.55,10.9,M,-47.6,M,,0000*47
$GNGSA,A,3,29,10,23,25,32,26,18,28,31,16,27,,1.21,0.55,1.07*12
$GNGSA,A,3,70,73,83,84,71,85,72,,,,,,1.21,0.55,1.07*12
$GPGSV,4,1,16,10,24,343,31,16,24,266,36,18,28,057,34,23,08,022,26*77
$GPGSV,4,2,16,24,01,063,,25,07,140,26,26,30,234,38,27,24,325,34*72
$GPGSV,4,3,16,28,35,175,31,29,33,142,28,31,20,202,33,32,83,329,43*77
$GPGSV,4,4,16,36,52,277,38,40,84,353,42,41,58,082,,49,32,274,40*75
$GLGSV,3,1,11,70,46,346,28,71,56,261,40,72,16,219,33,73,15,166,26*60
$GLGSV,3,2,11,74,15,212,23,75,00,257,22,83,23,117,35,84,40,053,24*62
$GLGSV,3,3,11,85,18,359,38,,,,38,,,,33*5E
$GNGLL,0419.69316,S,05539.86039,E,114151.00,A,D*67
$GNGRS,114151.00,1,-3.2,0.1,7.3,3.9,0.0,0.0,-0.4,-2.0,4.8,0.5,-1.6,*79
$GNGRS,114151.00,1,9.0,-0.3,9.7,8.4,-1.8,3.4,-12.1,,,,,*66
$GNGST,114151.00,26,,,,1.6,1.8,2.9*49
$GNZDA,114151.00,19,05,2025,00,00*71
$GNGBS,114151.00,1.6,1.8,2.9,,,,*5B
b0XP6
Wd
9?E
#!5 &SI{ 4$Ta:R! 
b6F.ZtG 8/HI9JKSuT(5AUgY0@bP6h$GNRMC,114152.00,A,0419.69315,S,05539.86038,E,0.119,,190525,,,D*7C
$GNVTG,,T,,M,0.119,N,0.220,K,D*31
$GNGNS,114152.00,0419.69315,S,05539.86038,E,DA,18,0.55,10.8,-47.6,,0000*61
$GNGGA,114152.00,0419.69315,S,05539.86038,E,2,12,0.55,10.8,M,-47.6,M,,0000*47
$GNGSA,A,3,29,10,23,25,32,26,18,28,31,16,27,,1.21,0.55,1.07*12
$GNGSA,A,3,70,73,83,84,71,85,72,,,,,,1.21,0.55,1.07*12
$GPGSV,4,1,16,10,24,343,25,16,24,266,30,18,28,057,27,23,08,022,25*75
$GPGSV,4,2,16,24,01,063,,25,07,140,24,26,30,234,31,27,24,325,30*7D
$GPGSV,4,3,16,28,35,175,26,29,33,142,27,31,20,202,28,32,83,329,38*78
$GPGSV,4,4,16,36,52,277,32,40,84,353,36,41,58,082,,49,32,274,33*78
$GLGSV,3,1,11,70,46,346,25,71,56,261,32,72,16,219,22,73,15,166,24*6A
$GLGSV,3,2,11,74,15,212,20,75,00,257,21,83,23,117,24,84,40,053,21*67
$GLGSV,3,3,11,85,18,359,28,,,,30,,,,22*57
$GNGLL,0419.69315,S,05539.86038,E,114152.00,A,D*66
$GNGRS,114152.00,1,-2.0,3.6,4.4,2.2,-0.3,0.1,0.2,4.1,2.1,1.7,1.3,*79
$GNGRS,114152.00,1,8.8,0.6,10.2,5.8,-2.1,3.4,-12.9,,,,,*7A
$GNGST,114152.00,39,,,,1.6,1.8,3.0*4C
$GNZDA,114152.00,19,05,2025,00,00*72
$GNGBS,114152.00,1.6,1.8,3.0,,,,*50
b0X8:
"W%
!%9t ?(&%E
"#9#!# ,SI{(4+Ta:R) 
bF.Z!G)8QH"pIJKS uT(5GU%g'b8:h$GNRMC,114153.00,A,0419.69314,S,05539.86036,E,0.011,,190525,,,D*7B
$GNVTG,,T,,M,0.011,N,0.021,K,D*3B
$GNGNS,114153.00,0419.69314,S,05539.86036,E,DA,18,0.55,10.8,-47.6,,0000*6F
$GNGGA,114153.00,0419.69314,S,05539.86036,E,2,12,0.55,10.8,M,-47.6,M,,0000*49
$GNGSA,A,3,29,10,23,25,32,26,18,28,31,16,27,,1.21,0.55,1.07*12
$GNGSA,A,3,70,73,83,84,71,85,72,,,,,,1.21,0.55,1.07*12
$GPGSV,4,1,16,10,24,343,34,16,24,266,37,18,28,057,37,23,08,022,32*75
$GPGSV,4,2,16,24,01,063,,25,07,140,26,26,30,234,40,27,24,325,37*7E
$GPGSV,4,3,16,28,35,175,34,29,33,142,35,31,20,202,35,32,83,329,44*7F
$GPGSV,4,4,16,36,52,277,40,40,84,353,43,41,58,082,,49,32,274,41*7A
$GLGSV,3,1,11,70,46,346,25,71,56,261,41,72,16,219,34,73,15,166,25*68
$GLGSV,3,2,11,74,15,212,21,75,00,257,22,83,23,117,32,84,40,053,22*61
$GLGSV,3,3,11,85,18,359,37,,,,39,,,,31*52
$GNGLL,0419.69314,S,05539.86036,E,114153.00,A,D*68
$GNGRS,114153.00,1,-0.9,0.0,-3.1,1.4,-0.1,0.4,-4.0,-2.0,0.2,2.9,-0.5,*7C
$GNGRS,114153.00,1,8.0,-0.3,7.0,5.8,-1.8,4.0,-11.7,,,,,*6B
$GNGST,114153.00,28,,,,1.6,1.8,2.9*45
$GNZDA,114153.00,19,05,2025,00,00*73
$GNGBS,114153.00,1.6,1.8,2.9,,,,*59
b0X >
W! 
 97?Z!E
#!a %SI{"4$Ta:R! 
b+F.ZG!8RHxIJKSuT(5]Uge#b >hU$GNRMC,114154.00,A,0419.69313,S,05539.86037,E,0.063,,190525,,,D*7F
$GNVTG,,T,,M,0.063,N,0.117,K,D*3A
$GNGNS,114154.00,0419.69313,S,05539.86037,E,DA,18,0.55,10.8,-47.6,,0000*6E
$GNGGA,114154.00,0419.69313,S,05539.86037,E,2,12,0.55,10.8,M,-47.6,M,,0000*48
$GNGSA,A,3,29,10,23,25,32,26,18,28,31,16,27,,1.21,0.55,1.07*12
$GNGSA,A,3,70,73,83,84,71,85,72,,,,,,1.21,0.55,1.07*12
$GPGSV,4,1,16,10,24,343,30,16,24,266,32,18,28,057,32,23,08,022,24*76
$GPGSV,4,2,16,24,01,063,13,25,07,140,27,26,30,234,33,27,24,325,31*7F
$GPGSV,4,3,16,28,35,175,28,29,33,142,30,31,20,202,30,32,83,329,37*76
$GPGSV,4,4,16,36,52,277,34,40,84,353,36,41,58,082,,49,32,274,33*7E
$GLGSV,3,1,11,70,46,346,25,71,56,261,33,72,16,219,26,73,15,166,26*6D
$GLGSV,3,2,11,74,15,212,21,75,00,257,24,83,23,117,26,84,40,053,22*62
$GLGSV,3,3,11,85,18,359,30,,,,29,,,,24*50
$GNGLL,0419.69313,S,05539.86037,E,114154.00,A,D*69
$GNGRS,114154.00,1,-1.6,5.4,-4.6,2.5,0.0,0.2,-3.2,-0.1,1.8,2.4,-2.8,*53
$GNGRS,114154.00,1,7.2,-0.3,7.5,6.1,-1.7,1.0,-11.6,,,,,*65
$GNGST,114154.00,31,,,,1.6,1.8,2.9*4A
$GNZDA,114154.00,19,05,2025,00,00*74
$GNGBS,114154.00,1.6,1.8,2.9,,,,*5E
b0XB
Wl&
$9?*Y'#E
#!! *SI{&4)Ta:R' 
bF.ZMG(8$H"ICJKS uAT(5U&gl& bB#hu$GNRMC,114155.00,A,0419.69312,S,05539.86038,E,0.017,,190525,,,D*73
$GNVTG,,T,,M,0.017,N,0.031,K,D*3C
$GNGNS,114155.00,0419.69312,S,05539.86038,E,DA,18,0.55,10.9,-47.6,,0000*60
$GNGGA,114155.00,0419.69312,S,05539.86038,E,2,12,0.55,10.9,M,-47.6,M,,0000*46
$GNGSA,A,3,29,10,23,25,32,26,18,28,31,16,27,,1.21,0.55,1.07*12
$GNGSA,A,3,70,73,83,84,71,85,72,,,,,,1.21,0.55,1.07*12
$GPGSV,4,1,16,10,24,343,31,16,24,266,38,18,28,057,36,23,08,022,24*79
$GPGSV,4,2,16,24,01,063,11,25,07,140,26,26,30,234,39,27,24,325,35*72
$GPGSV,4,3,16,28,35,175,31,29,33,142,30,31,20,202,33,32,83,329,42*7F
$GPGSV,4,4,16,36,52,277,38,40,84,353,41,41,58,082,,49,32,274,39*78
$GLGSV,3,1,11,70,46,346,25,71,56,261,40,72,16,219,34,73,15,166,26*6A
$GLGSV,3,2,11,74,15,212,21,75,00,257,21,83,23,117,32,84,40,053,22*62
$GLGSV,3,3,11,85,18,359,38,,,,38,,,,32*5F
$GNGLL,0419.69312,S,05539.86038,E,114155.00,A,D*66
$GNGRS,114155.00,1,-0.8,3.6,-3.2,2.7,0.2,0.2,-2.7,1.7,4.2,-0.5,-0.9,*56
$GNGRS,114155.00,1,5.9,0.7,3.2,6.5,0.4,1.1,-11.2,,,,,*69
$GNGST,114155.00,27,,,,1.6,1.7,2.9*43
$GNZDA,114155.00,19,05,2025,00,00*75
$GNGBS,114155.00,1.6,1.7,2.9,,,,*50
b0XE
Wx#
; 9?Y2(#E
 #!! )SI&{$4(Ta:R' 
bF.ZG"8HI/JKSumT(5U!gM!bE'hL$GNRMC,114156.00,A,0419.69310,S,05539.86036,E,0.016,,190525,,,D*7D
$GNVTG,,T,,M,0.016,N,0.029,K,D*34
$GNGNS,114156.00,0419.69310,S,05539.86036,E,DA,18,0.55,11.0,-47.6,,0000*67
$GNGGA,114156.00,0419.69310,S,05539.86036,E,2,12,0.55,11.0,M,-47.6,M,,0000*41
$GNGSA,A,3,29,10,23,25,32,26,18,28,31,16,27,,1.21,0.55,1.07*12
$GNGSA,A,3,70,73,83,84,71,85,72,,,,,,1.21,0.55,1.07*12
$GPGSV,4,1,16,10,24,343,30,16,24,266,35,18,28,057,32,23,08,022,25*70
$GPGSV,4,2,16,24,01,063,07,25,07,140,26,26,30,234,40,27,24,325,35*7B
$GPGSV,4,3,16,28,35,175,32,29,33,142,31,31,20,202,33,32,83,329,41*7E
$GPGSV,4,4,16,36,52,277,36,40,84,353,40,41,58,082,,49,32,274,39*77
$GLGSV,3,1,11,70,46,346,25,71,56,261,34,72,16,219,30,73,15,166,26*6D
$GLGSV,3,2,11,74,15,212,23,75,00,257,22,83,23,117,28,84,40,053,22*68
$GLGSV,3,3,11,85,18,359,33,,,,33,,,,28*54
$GNGLL,0419.69310,S,05539.86036,E,114156.00,A,D*69
$GNGRS,114156.00,1,-3.6,3.8,-8.3,3.1,0.4,0.1,-5.0,-2.4,0.3,0.6,-0.9,*58
$GNGRS,114156.00,1,7.7,0.5,3.7,6.7,-0.5,0.8,-13.1,,,,,*46
$GNGST,114156.00,28,,,,1.6,1.7,2.9*4F
$GNZDA,114156.00,19,05,2025,00,00*76
$GNGBS,114156.00,1.6,1.7,2.9,,,,*53
b0XI
Xx!
!9g?ZX#!E
#t!U (SI{$4'Ta:R& 
b-F.ZG*8HIJKS!uT(5yU%g'kbI+h$~$GNRMC,114157.00,A,0419.69309,S,05539.86036,E,0.007,,190525,,,D*74
$GNVTG,,T,,M,0.007,N,0.013,K,D*3D
$GNGNS,114157.00,0419.69309,S,05539.86036,E,DA,18,0.55,11.0,-47.6,,0000*6E
$GNGGA,114157.00,0419.69309,S,05539.86036,E,2,12,0.55,11.0,M,-47.6,M,,0000*48
$GNGSA,A,3,29,10,23,25,32,26,18,28,31,16,27,,1.21,0.55,1.07*12
$GNGSA,A,3,70,73,83,84,71,85,72,,,,,,1.21,0.55,1.07*12
$GPGSV,4,1,16,10,24,344,27,16,24,266,33,18,28,057,33,23,08,022,26*75
$GPGSV,4,2,16,24,01,063,06,25,07,140,25,26,30,234,35,27,24,325,33*7D
$GPGSV,4,3,16,28,35,175,30,29,33,142,30,31,20,202,30,32,83,329,40*7F
$GPGSV,4,4,16,36,52,277,36,40,84,353,39,41,58,082,,49,32,274,38*78
$GLGSV,3,1,11,70,46,346,24,71,56,261,42,72,16,219,30,73,15,166,25*6E
$GLGSV,3,2,11,74,15,212,22,75,00,257,20,83,23,117,33,84,40,053,22*61
$GLGSV,3,3,11,85,18,359,37,,,,39,,,,31*52
$GNGLL,0419.69309,S,05539.86036,E,114157.00,A,D*60
$GNGRS,114157.00,1,0.8,1.2,-5.9,3.4,0.2,-0.1,-4.1,1.2,-1.0,1.7,-0.5,*53
$GNGRS,114157.00,1,7.8,-0.8,2.5,6.3,-0.4,-0.3,-13.1,,,,,*48
$GNGST,114157.00,29,,,,1.6,1.7,2.9*4F
$GNZDA,114157.00,19,05,2025,00,00*77
$GNGBS,114157.00,1.6,1.7,2.9,,,,*52
b0XM
X#
%9#?/$#E\
#!"  *SI{'4)Ta:R' 
bF.ZG)8HIJKS uT(5U%gT& GbM/h$GNRMC,114158.00,A,0419.69309,S,05539.86033,E,0.030,,190525,,,D*7A
$GNVTG,,T,,M,0.030,N,0.056,K,D*38
$GNGNS,114158.00,0419.69309,S,05539.86033,E,DA,18,0.55,11.1,-47.6,,0000*65
$GNGGA,114158.00,0419.69309,S,05539.86033,E,2,12,0.55,11.1,M,-47.6,M,,0000*43
$GNGSA,A,3,29,10,23,25,32,26,18,28,31,16,27,,1.21,0.55,1.07*12
$GNGSA,A,3,70,73,83,84,71,85,72,,,,,,1.21,0.55,1.07*12
$GPGSV,4,1,16,10,24,344,31,16,24,266,35,18,28,057,37,23,08,022,27*71
$GPGSV,4,2,16,24,01,063,07,25,07,140,26,26,30,234,36,27,24,325,35*7A
$GPGSV,4,3,16,28,35,175,31,29,33,142,31,31,20,202,32,32,83,329,42*7F
$GPGSV,4,4,16,36,52,277,39,40,84,353,41,41,58,082,,49,32,274,39*79
$GLGSV,3,1,11,70,46,346,26,71,56,261,41,72,16,219,30,73,15,166,26*6C
$GLGSV,3,2,11,74,15,212,22,75,00,257,22,83,23,117,32,84,40,053,25*65
$GLGSV,3,3,11,85,18,359,37,,,,38,,,,32*50
$GNGLL,0419.69309,S,05539.86033,E,114158.00,A,D*6A
$GNGRS,114158.00,1,2.9,2.5,-2.9,2.7,0.2,-0.1,-4.8,1.5,-0.6,4.5,0.9,*71
$GNGRS,114158.00,1,7.9,-0.7,1.7,6.5,-0.1,-1.7,-10.3,,,,,*4F
$GNGST,114158.00,26,,,,1.6,1.7,2.9*4F
$GNZDA,114158.00,19,05,2025,00,00*78
$GNGBS,114158.00,1.6,1.7,2.9,,,,*5D
b0XQ
 X7$
1%9A
?6 G%#E>
#` !}! +SI{&4*Ta:R( 
bF.ZG)8/HIGJKS uAT(5CU%g& QbQv3hN$GNRMC,114159.00,A,0419.69311,S,05539.86031,E,0.023,,190525,,,D*72
$GNVTG,,T,,M,0.023,N,0.043,K,D*3E
$GNGNS,114159.00,0419.69311,S,05539.86031,E,DA,18,0.55,11.1,-47.6,,0000*6F
$GNGGA,114159.00,0419.69311,S,05539.86031,E,2,12,0.55,11.1,M,-47.6,M,,0000*49
$GNGSA,A,3,29,10,23,25,32,26,18,28,31,16,27,,1.21,0.55,1.07*12
$GNGSA,A,3,70,73,83,84,71,85,72,,,,,,1.21,0.55,1.07*12
$GPGSV,4,1,16,10,24,344,32,16,24,266,36,18,28,057,37,23,08,022,27*71
$GPGSV,4,2,16,24,01,063,10,25,07,140,27,26,30,234,37,27,24,325,35*7C
$GPGSV,4,3,16,28,35,175,31,29,33,142,32,31,20,202,33,32,83,329,43*7C
$GPGSV,4,4,16,36,52,277,38,40,84,353,42,41,58,082,,49,32,274,40*75
$GLGSV,3,1,11,70,46,346,27,71,56,261,41,72,16,219,31,73,15,166,26*6C
$GLGSV,3,2,11,74,15,212,23,75,00,257,23,83,23,117,32,84,40,053,26*66
$GLGSV,3,3,11,85,18,359,37,,,,38,,,,32*50
$GNGLL,0419.69311,S,05539.86031,E,114159.00,A,D*60
$GNGRS,114159.00,1,1.3,0.5,0.3,0.7,-0.2,-0.1,-1.9,6.1,-0.1,3.1,0.6,*7D
$GNGRS,114159.00,1,6.7,-1.9,3.2,5.8,0.5,-3.0,-8.0,,,,,*51
$GNGST,114159.00,25,,,,1.6,1.7,2.8*4C
$GNZDA,114159.00,19,05,2025,00,00*79
$GNGBS,114159.00,1.6,1.7,2.8,,,,*5D
b0XU
#X$
%9
?9 >'$Ea
 # !"d +SI{(4+Ta:R) 
bQF.ZG)8AHI{JKSu-T(5QU%gD&cbU^7h$GNRMC,114200.00,A,0419.69313,S,05539.86028,E,0.010,,190525,,,D*77
$GNVTG,,T,,M,0.010,N,0.019,K,D*31
$GNGNS,114200.00,0419.69313,S,05539.86028,E,DA,18,0.55,11.2,-47.6,,0000*69
$GNGGA,114200.00,0419.69313,S,05539.86028,E,2,12,0.55,11.2,M,-47.6,M,,0000*4F
$GNGSA,A,3,29,10,23,25,32,26,18,28,31,16,27,,1.21,0.55,1.07*12
$GNGSA,A,3,70,73,83,84,71,85,72,,,,,,1.21,0.55,1.07*12
$GPGSV,4,1,16,10,24,344,35,16,24,266,36,18,28,057,37,23,08,022,28*79
$GPGSV,4,2,16,24,01,063,10,25,07,140,27,26,30,234,39,27,24,325,36*71
$GPGSV,4,3,16,28,35,175,32,29,33,142,32,31,21,202,34,32,83,329,43*79
$GPGSV,4,4,16,36,52,277,40,40,84,353,43,41,58,082,,49,32,274,41*7A
$GLGSV,3,1,11,70,46,346,26,71,56,261,41,72,16,219,30,73,15,166,25*6F
$GLGSV,3,2,11,74,15,212,21,75,00,257,23,83,23,117,30,84,40,053,26*66
$GLGSV,3,3,11,85,18,359,37,,,,38,,,,31*53
$GNGLL,0419.69313,S,05539.86028,E,114200.00,A,D*65
$GNGRS,114200.00,1,2.0,-1.3,-0.2,0.6,0.0,-0.3,-2.8,1.6,1.0,1.9,1.0,*7A
$GNGRS,114200.00,1,5.4,-1.3,3.0,5.9,0.7,-4.4,-8.0,,,,,*56
$GNGST,114200.00,25,,,,1.5,1.7,2.8*40
$GNZDA,114200.00,19,05,2025,00,00*76
$GNGBS,114200.00,1.5,1.7,2.8,,,,*51
b0XxY
"X$
H"9l?.'%EO
#{ ! *SI{'4)Ta:R' 
bNF.ZZG#8=HI:JKSuT(5U g8"bxYF;h$GNRMC,114201.00,A,0419.69312,S,05539.86026,E,0.026,,190525,,,D*7C
$GNVTG,,T,,M,0.026,N,0.047,K,D*3F
$GNGNS,114201.00,0419.69312,S,05539.86026,E,DA,18,0.55,11.2,-47.6,,0000*67
$GNGGA,114201.00,0419.69312,S,05539.86026,E,2,12,0.55,11.2,M,-47.6,M,,0000*41
$GNGSA,A,3,29,10,23,25,32,26,18,28,31,16,27,,1.21,0.55,1.07*12
$GNGSA,A,3,70,73,83,84,71,85,72,,,,,,1.21,0.55,1.07*12
$GPGSV,4,1,16,10,24,344,34,16,24,266,36,18,28,057,34,23,08,022,27*74
$GPGSV,4,2,16,24,01,063,09,25,07,140,26,26,30,234,39,27,24,325,37*79
$GPGSV,4,3,16,28,35,175,30,29,33,142,32,31,21,202,31,32,83,329,42*7F
$GPGSV,4,4,16,36,52,277,39,40,84,353,41,41,58,082,,49,32,274,39*79
$GLGSV,3,1,11,70,46,346,25,71,56,261,35,72,16,219,25,73,15,166,24*6A
$GLGSV,3,2,11,74,15,212,19,75,00,257,22,83,23,117,25,84,40,053,23*6D
$GLGSV,3,3,11,85,18,359,32,,,,34,,,,25*5F
$GNGLL,0419.69312,S,05539.86026,E,114201.00,A,D*6B
$GNGRS,114201.00,1,-3.8,2.3,-1.5,-0.2,-0.3,-0.4,-2.5,3.8,-0.5,0.7,0.8,*59
$GNGRS,114201.00,1,6.0,-2.0,7.2,5.0,0.6,-7.1,-10.2,,,,,*63
$GNGST,114201.00,29,,,,1.5,1.7,2.8*4D
$GNZDA,114201.00,19,05,2025,00,00*77
$GNGBS,114201.00,1.5,1.7,2.8,,,,*50
b0X`]
X$
"99"?6 ($E4
#O ! *SI{&4*Ta:R' 
b"F.ZG#85HIJKSuwT(5U!g"z{b`].?h\$GNRMC,114202.00,A,0419.69312,S,05539.86025,E,0.015,,190525,,,D*7C
$GNVTG,,T,,M,0.015,N,0.027,K,D*39
$GNGNS,114202.00,0419.69312,S,05539.86025,E,DA,18,0.55,11.2,-47.6,,0000*67
$GNGGA,114202.00,0419.69312,S,05539.86025,E,2,12,0.55,11.2,M,-47.6,M,,0000*41
$GNGSA,A,3,29,10,23,25,32,26,18,28,31,16,27,,1.21,0.55,1.07*12
$GNGSA,A,3,70,73,83,84,71,85,72,,,,,,1.21,0.55,1.07*12
$GPGSV,4,1,16,10,24,344,30,16,24,266,36,18,28,057,34,23,08,022,25*72
$GPGSV,4,2,16,24,01,063,08,25,07,140,26,26,30,234,40,27,24,325,36*77
$GPGSV,4,3,16,28,35,175,30,29,33,142,32,31,21,202,31,32,83,329,42*7F
$GPGSV,4,4,16,36,52,277,38,40,84,353,42,41,58,082,,49,32,274,39*7B
$GLGSV,3,1,11,70,46,346,23,71,56,261,35,72,16,219,27,73,15,166,23*69
$GLGSV,3,2,11,74,15,212,18,75,00,257,20,83,23,117,27,84,40,053,22*6D
$GLGSV,3,3,11,85,18,359,33,,,,34,,,,27*5C
$GNGLL,0419.69312,S,05539.86025,E,114202.00,A,D*6B
$GNGRS,114202.00,1,-0.9,4.8,0.3,-0.1,-0.6,-0.7,-2.0,0.8,2.1,1.5,0.5,*59
$GNGRS,114202.00,1,7.1,-0.7,6.3,3.9,0.5,-1.1,-7.6,,,,,*5D
$GNGST,114202.00,31,,,,1.5,1.7,2.8*47
$GNZDA,114202.00,19,05,2025,00,00*74
$GNGBS,114202.00,1.5,1.7,2.8,,,,*53
b0XHa
"X[&$9k
?)$E
 ##!!+ *SI{(4*Ta:R( 
b.F.ZG)8!HnIJKS uyT(5U$gG'bHaCh4$GNRMC,114203.00,A,0419.69312,S,05539.86026,E,0.034,,190525,,,D*7D
$GNVTG,,T,,M,0.034,N,0.063,K,D*3A
$GNGNS,114203.00,0419.69312,S,05539.86026,E,DA,18,0.55,11.1,-47.6,,0000*66
$GNGGA,114203.00,0419.69312,S,05539.86026,E,2,12,0.55,11.1,M,-47.6,M,,0000*40
$GNGSA,A,3,29,10,23,25,32,26,18,28,31,16,27,,1.21,0.55,1.07*12
$GNGSA,A,3,70,73,83,84,71,85,72,,,,,,1.21,0.55,1.07*12
$GPGSV,4,1,16,10,24,344,34,16,24,265,38,18,28,057,36,23,08,022,26*7A
$GPGSV,4,2,16,24,01,063,10,25,07,140,27,26,30,234,41,27,24,325,36*7E
$GPGSV,4,3,16,28,35,175,32,29,33,142,35,31,21,202,33,32,83,329,42*78
$GPGSV,4,4,16,36,52,277,40,40,84,353,42,41,58,082,,49,32,274,40*7A
$GLGSV,3,1,11,70,46,346,25,71,56,261,41,72,16,219,28,73,15,166,23*63
$GLGSV,3,2,11,74,15,212,20,75,00,257,21,83,23,117,32,84,40,053,22*63
$GLGSV,3,3,11,85,18,359,36,,,,39,,,,31*53
$GNGLL,0419.69312,S,05539.86026,E,114203.00,A,D*69
$GNGRS,114203.00,1,2.2,3.5,3.6,2.5,-0.6,-0.4,-0.9,2.0,0.4,1.3,0.1,*5C
$GNGRS,114203.00,1,7.9,-0.1,8.9,0.2,0.3,0.7,-9.1,,,,,*7B
$GNGST,114203.00,27,,,,1.5,1.6,2.8*40
$GNZDA,114203.00,19,05,2025,00,00*75
$GNGBS,114203.00,1.5,1.6,2.8,,,,*53
b0X0e
X!9n?#!E
#! %SI{#4%Ta:R# 
bYF.ZG 8<HZIJKSuT(5Ug b0eFhS$GNRMC,114204.00,A,0419.69310,S,05539.86025,E,0.066,,190525,,,D*7C
$GNVTG,,T,,M,0.066,N,0.123,K,D*38
$GNGNS,114204.00,0419.69310,S,05539.86025,E,DA,18,0.55,11.1,-47.6,,0000*60
$GNGGA,114204.00,0419.69310,S,05539.86025,E,2,12,0.55,11.1,M,-47.6,M,,0000*46
$GNGSA,A,3,29,10,23,25,32,26,18,28,31,16,27,,1.21,0.55,1.07*12
$GNGSA,A,3,70,73,83,84,71,85,72,,,,,,1.21,0.55,1.07*12
$GPGSV,4,1,16,10,24,344,28,16,24,265,33,18,28,057,29,23,08,022,25*71
