b0XxA
#Y%';=&"DV
!$&Hc )PR{4&Ta#:R( 
cF,[G)8HBI1<JKSwT)7eUbxAE#l[$GNRMC,114617.00,A,0419.70191,S,05539.86069,E,0.027,,190525,,,D*74
$GNVTG,,T,,M,0.027,N,0.050,K,D*38
$GNGNS,114617.00,0419.70191,S,05539.86069,E,DA,17,0.58,12.3,-47.6,,0000*6E
$GNGGA,114617.00,0419.70191,S,05539.86069,E,2,12,0.58,12.3,M,-47.6,M,,0000*47
$GNGSA,A,3,29,10,23,32,26,18,28,31,16,27,,,1.31,0.58,1.17*18
$GNGSA,A,3,70,73,83,84,71,85,72,,,,,,1.31,0.58,1.17*1F
$GPGSV,4,1,16,10,23,345,35,16,25,263,37,18,29,059,39,23,08,024,31*75
$GPGSV,4,2,16,24,00,061,,25,06,139,,26,30,232,38,27,26,324,34*7F
$GPGSV,4,3,16,28,36,172,33,29,31,143,38,31,22,200,13,32,80,338,41*70
$GPGSV,4,4,16,36,52,277,,40,84,353,38,41,58,082,35,49,32,274,40*75
$GLGSV,3,1,11,70,44,347,21,71,56,265,41,72,18,220,11,73,15,164,09*64
$GLGSV,3,2,11,74,15,210,,75,00,255,,83,22,119,30,84,41,055,18*61
$GLGSV,3,3,11,85,19,000,29,,,,29,,,,23*51
$GNGLL,0419.70191,S,05539.86069,E,114617.00,A,D*62
$GNGRS,114617.00,1,0.7,2.2,2.6,-1.3,-0.2,-2.8,0.2,6.1,-0.4,3.4,,*5B
$GNGRS,114617.00,1,14.9,154,9.5,8.7,-1.0,-0.6,5.8,,,,,*51
$GNGST,114617.00,49,,,,1.7,1.5,3.2*43
$GNZDA,114617.00,19,05,2025,00,00*74
$GNGBS,114617.00,1.7,1.5,3.2,,,,*58
b0X`E
Y&;=!xD
 $I t %PR{4$Ta%:R% 
cTF,[G8kHIJKSwT)7^UCb`E-'l3$GNRMC,114618.00,A,0419.70200,S,05539.86072,E,0.560,,190525,,,D*7C
$GNVTG,,T,,M,0.560,N,1.037,K,D*3E
$GNGNS,114618.00,0419.70200,S,05539.86072,E,DA,17,0.57,12.3,-47.6,,0000*6F
$GNGGA,114618.00,0419.70200,S,05539.86072,E,2,12,0.57,12.3,M,-47.6,M,,0000*46
$GNGSA,A,3,29,10,23,32,26,18,28,31,16,27,,,1.27,0.57,1.14*13
$GNGSA,A,3,70,73,83,84,71,85,72,,,,,,1.27,0.57,1.14*14
$GPGSV,4,1,16,10,23,345,31,16,25,263,25,18,29,059,38,23,08,024,22*71
$GPGSV,4,2,16,24,00,061,,25,06,139,,26,30,232,33,27,26,324,29*78
$GPGSV,4,3,16,28,36,172,32,29,31,143,32,31,22,200,14,32,80,338,37*7D
$GPGSV,4,4,16,36,52,277,,40,84,353,36,41,58,082,37,49,32,274,37*79
$GLGSV,3,1,11,70,44,347,19,71,56,265,29,72,18,220,12,73,15,164,09*62
$GLGSV,3,2,11,74,15,210,,75,00,255,,83,22,119,21,84,41,055,17*6E
$GLGSV,3,3,11,85,19,000,21,,,,18,,,,22*5A
$GNGLL,0419.70200,S,05539.86072,E,114618.00,A,D*6C
$GNGRS,114618.00,1,-1.4,5.4,4.1,0.2,-1.4,-2.3,3.3,4.1,-0.8,1.3,,*53
$GNGRS,114618.00,1,9.4,7.6,2.5,6.1,1.1,0.7,12.1,,,,,*4C
$GNGST,114618.00,59423,,,,1.7,1.5,3.2*78
$GNZDA,114618.00,19,05,2025,00,00*7B
$GNGBS,114618.00,1.7,1.5,3.2,,,,*57
b0XHI
 Y);=#"Dq
#$.$! )PRn{4&Ta):R( 
cF,[G 8bHIJKSwT)7U:bHI+lz$GNRMC,114619.00,A,0419.70206,S,05539.86072,E,0.029,,190525,,,D*73
$GNVTG,,T,,M,0.029,N,0.055,K,D*33
$GNGNS,114619.00,0419.70206,S,05539.86072,E,DA,16,0.58,12.3,-47.6,,0000*66
$GNGGA,114619.00,0419.70206,S,05539.86072,E,2,12,0.58,12.3,M,-47.6,M,,0000*4E
$GNGSA,A,3,29,10,23,32,26,18,28,31,16,27,,,1.31,0.58,1.17*18
$GNGSA,A,3,70,83,84,71,85,72,,,,,,,1.31,0.58,1.17*1B
$GPGSV,4,1,16,10,23,345,32,16,25,263,27,18,29,059,41,23,08,024,20*7C
$GPGSV,4,2,16,24,00,061,,25,06,139,,26,30,232,35,27,26,324,34*72
$GPGSV,4,3,16,28,36,172,35,29,31,143,36,31,22,200,16,32,80,338,41*7D
$GPGSV,4,4,16,36,52,277,,40,84,353,38,41,58,082,41,49,32,274,40*76
$GLGSV,3,1,11,70,44,347,15,71,56,265,32,72,18,220,08,73,15,164,07*61
$GLGSV,3,2,11,74,15,210,,75,00,255,,83,22,119,24,84,41,055,18*64
$GLGSV,3,3,11,85,19,000,24,,,,20,,,,23*55
$GNGLL,0419.70206,S,05539.86072,E,114619.00,A,D*6B
$GNGRS,114619.00,1,0.3,2.6,7.4,-1.5,-0.8,-2.6,3.0,1.6,-1.2,1.1,,*51
$GNGRS,114619.00,1,9.0,4.0,6.7,1.0,1.6,11.8,,,,,,*68
$GNGST,114619.00,90161,,,,1.8,1.6,3.2*73
$GNZDA,114619.00,19,05,2025,00,00*7A
$GNGBS,114619.00,1.8,1.6,3.2,,,,*5A
b0X0M
!Y(;=#" D
$$" *PR{4'Ta):R( 
cF,[G'86HI
JKS#wOT)7-U Zb0M.l$GNRMC,114620.00,A,0419.70208,S,05539.86072,E,0.036,,190525,,,D*79
$GNVTG,,T,,M,0.036,N,0.067,K,D*3C
$GNGNS,114620.00,0419.70208,S,05539.86072,E,DA,17,0.58,12.2,-47.6,,0000*62
$GNGGA,114620.00,0419.70208,S,05539.86072,E,2,12,0.58,12.2,M,-47.6,M,,0000*4B
$GNGSA,A,3,29,10,23,32,26,18,28,31,16,27,,,1.31,0.58,1.17*18
$GNGSA,A,3,70,73,83,84,71,85,72,,,,,,1.31,0.58,1.17*1F
$GPGSV,4,1,16,10,23,345,33,16,25,263,29,18,29,059,40,23,08,024,19*78
$GPGSV,4,2,16,24,00,061,,25,06,139,,26,30,232,35,27,26,324,32*74
$GPGSV,4,3,16,28,36,172,36,29,31,143,34,31,22,200,17,32,80,338,42*7E
$GPGSV,4,4,16,36,52,277,,40,84,353,39,41,58,082,41,49,32,274,40*77
$GLGSV,3,1,11,70,44,347,16,71,56,265,39,72,18,220,14,73,15,164,10*62
$GLGSV,3,2,11,74,15,210,,75,00,255,,83,22,119,35,84,41,055,21*6E
$GLGSV,3,3,11,85,19,000,32,,,,25,,,,30*55
$GNGLL,0419.70208,S,05539.86072,E,114620.00,A,D*6F
$GNGRS,114620.00,1,4.4,7.0,9.5,0.0,0.3,-3.3,2.6,-0.3,1.7,2.4,,*5F
$GNGRS,114620.00,1,9.9,-70.0,3.4,5.6,-2.0,-0.6,9.8,,,,,*65
$GNGST,114620.00,52,,,,1.7,1.6,3.2*4E
$GNZDA,114620.00,19,05,2025,00,00*70
$GNGBS,114620.00,1.7,1.6,3.2,,,,*5F
b0XQ
(Y(*;i=)#D 
$! -PR{4*Ta':R) 
cF,[G*8HIJKS w&T)7BU$"bQ2lG$GNRMC,114621.00,A,0419.70205,S,05539.86073,E,0.039,,190525,,,D*7B
$GNVTG,,T,,M,0.039,N,0.072,K,D*37
$GNGNS,114621.00,0419.70205,S,05539.86073,E,DA,16,0.59,12.2,-47.6,,0000*6F
$GNGGA,114621.00,0419.70205,S,05539.86073,E,2,12,0.59,12.2,M,-47.6,M,,0000*47
$GNGSA,A,3,29,10,23,32,26,18,28,16,27,,,,1.29,0.59,1.15*10
$GNGSA,A,3,70,73,83,84,71,85,72,,,,,,1.29,0.59,1.15*15
$GPGSV,4,1,16,10,23,345,40,16,25,263,40,18,29,059,42,23,08,024,22*79
$GPGSV,4,2,16,24,00,061,,25,06,139,,26,30,232,41,27,26,324,35*70
$GPGSV,4,3,16,28,36,172,31,29,31,143,33,31,22,200,,32,80,338,45*7F
$GPGSV,4,4,16,36,52,277,,40,84,353,42,41,58,082,39,49,32,274,41*75
$GLGSV,3,1,11,70,44,347,21,71,56,265,42,72,18,220,17,73,15,164,12*6B
$GLGSV,3,2,11,74,15,210,,75,00,255,,83,22,119,32,84,41,055,24*6C
$GLGSV,3,3,11,85,19,000,36,,,,34,,,,30*51
$GNGLL,0419.70205,S,05539.86073,E,114621.00,A,D*62
$GNGRS,114621.00,1,1.3,2.3,9.6,1.5,-2.7,-1.5,1.6,1.7,2.9,,,*7C
$GNGRS,114621.00,1,10.4,7.6,10.6,5.8,-0.9,1.3,12.1,,,,,*65
$GNGST,114621.00,41642,,,,1.7,1.6,3.2*7D
$GNZDA,114621.00,19,05,2025,00,00*71
$GNGBS,114621.00,1.7,1.6,3.2,,,,*5E
b0XU
'Yr&(;j='!D
$i!PF +PRk{4)Ta&:R) cuF,[G,8MHIJKS wT)7U&I#HbU6l$GNRMC,114622.00,A,0419.70206,S,05539.86072,E,0.024,,190525,,,D*76
$GNVTG,,T,,M,0.024,N,0.045,K,D*3F
$GNGNS,114622.00,0419.70206,S,05539.86072,E,DA,16,0.59,12.3,-47.6,,0000*6F
$GNGGA,114622.00,0419.70206,S,05539.86072,E,2,12,0.59,12.3,M,-47.6,M,,0000*47
$GNGSA,A,3,29,10,23,32,26,18,28,16,27,,,,1.29,0.59,1.15*10
$GNGSA,A,3,70,73,83,84,71,85,72,,,,,,1.29,0.59,1.15*15
$GPGSV,4,1,16,10,23,345,39,16,25,263,38,18,29,059,40,23,08,024,26*7E
$GPGSV,4,2,16,24,00,061,,25,06,139,,26,30,232,39,27,26,324,33*79
$GPGSV,4,3,16,28,36,172,30,29,31,143,33,31,22,200,17,32,80,338,43*7E
$GPGSV,4,4,16,36,52,277,,40,84,353,41,41,58,082,38,49,32,274,41*77
$GLGSV,3,1,11,70,44,347,25,71,56,265,44,72,18,220,17,73,15,164,12*69
$GLGSV,3,2,11,74,15,210,,75,00,255,,83,22,119,32,84,41,055,25*6D
$GLGSV,3,3,11,85,19,000,38,,,,35,,,,31*5F
$GNGLL,0419.70206,S,05539.86072,E,114622.00,A,D*63
$GNGRS,114622.00,1,3.4,1.1,11.3,1.1,-0.1,-1.3,1.0,2.5,1.9,,,*45
$GNGRS,114622.00,1,9.0,7.4,7.6,7.4,0.8,-4.4,12.0,,,,,*62
$GNGST,114622.00,61146,,,,1.7,1.5,3.1*7F
$GNZDA,114622.00,19,05,2025,00,00*72
$GNGBS,114622.00,1.7,1.5,3.1,,,,*5D
b0XX
'Yo&(;=&!D(
$#* (PR{4&Ta(:R* c%F,[G&8HRI;JKSwT)7U ![bX:li$GNRMC,114623.00,A,0419.70206,S,05539.86072,E,0.033,,190525,,,D*71
$GNVTG,,T,,M,0.033,N,0.061,K,D*3F
$GNGNS,114623.00,0419.70206,S,05539.86072,E,DA,16,0.61,12.3,-47.6,,0000*65
$GNGGA,114623.00,0419.70206,S,05539.86072,E,2,12,0.61,12.3,M,-47.6,M,,0000*4D
$GNGSA,A,3,29,10,23,32,26,18,28,16,27,,,,1.33,0.61,1.19*1C
$GNGSA,A,3,70,73,83,84,71,85,72,,,,,,1.33,0.61,1.19*19
$GPGSV,4,1,16,10,23,345,39,16,25,263,38,18,29,059,40,23,08,024,31*78
$GPGSV,4,2,16,24,00,061,,25,06,139,,26,30,232,38,27,26,324,33*78
$GPGSV,4,3,16,28,36,172,30,29,31,143,35,31,22,200,16,32,80,338,40*7A
$GPGSV,4,4,16,36,52,277,,40,84,353,38,41,58,082,40,49,32,274,42*75
$GLGSV,3,1,11,70,44,347,25,71,56,265,38,72,18,220,13,73,15,164,11*65
$GLGSV,3,2,11,74,15,210,,75,00,255,,83,22,119,31,84,41,055,26*6D
$GLGSV,3,3,11,85,19,000,32,,,,33,,,,27*54
$GNGLL,0419.70206,S,05539.86072,E,114623.00,A,D*62
$GNGRS,114623.00,1,2.3,1.1,4.3,-0.1,-0.2,-0.8,0.2,2.4,0.4,,,*5D
$GNGRS,114623.00,1,9.2,41.6,11.7,6.6,-0.3,-2.9,8.5,,,,,*77
$GNGST,114623.00,36,,,,1.7,1.5,3.1*4F
$GNZDA,114623.00,19,05,2025,00,00*73
$GNGBS,114623.00,1.7,1.5,3.1,,,,*5C
b0X\
!Yp&(;$=(!D
$`#* +PR{4&Ta&:R' cgF,[G+8H
IJKS!wT)7&U " ceb\>lAp$GNRMC,114624.00,A,0419.70207,S,05539.86070,E,0.021,,190525,,,D*76
$GNVTG,,T,,M,0.021,N,0.039,K,D*31
$GNGNS,114624.00,0419.70207,S,05539.86070,E,DA,16,0.59,12.2,-47.6,,0000*6B
$GNGGA,114624.00,0419.70207,S,05539.86070,E,2,12,0.59,12.2,M,-47.6,M,,0000*43
$GNGSA,A,3,29,10,23,32,26,18,28,16,27,,,,1.29,0.59,1.15*10
$GNGSA,A,3,70,73,83,84,71,85,72,,,,,,1.29,0.59,1.15*15
$GPGSV,4,1,16,10,23,345,33,16,25,263,38,18,29,059,40,23,08,024,36*75
$GPGSV,4,2,16,24,00,061,,25,06,139,,26,30,232,40,27,26,324,33*77
$GPGSV,4,3,16,28,36,172,31,29,31,143,35,31,22,200,13,32,80,338,43*7D
$GPGSV,4,4,16,36,52,277,,40,84,353,38,41,58,082,38,49,32,274,39*76
$GLGSV,3,1,11,70,44,347,24,71,56,265,43,72,18,220,10,73,15,164,09*62
$GLGSV,3,2,11,74,15,210,,75,00,255,,83,22,119,33,84,41,055,24*6D
$GLGSV,3,3,11,85,19,000,32,,,,34,,,,32*57
$GNGLL,0419.70207,S,05539.86070,E,114624.00,A,D*66
$GNGRS,114624.00,1,2.3,3.7,1.8,0.0,0.0,-2.4,1.0,2.4,-0.7,,,*70
$GNGRS,114624.00,1,7.6,7.6,10.1,5.5,-0.4,-0.1,11.9,,,,,*76
$GNGST,114624.00,2885324,,,,1.7,1.5,3.1*7F
$GNZDA,114624.00,19,05,2025,00,00*74
$GNGBS,114624.00,1.7,1.5,3.1,,,,*5B
b0X`
#Y&D';a"=(k Dt
 $#; *PR{4'Ta&:R& cF,[G+8JHIJKS"w5T)7U!;%!mPb`Bl$GNRMC,114625.00,A,0419.70206,S,05539.86071,E,0.051,,190525,,,D*70
$GNVTG,,T,,M,0.051,N,0.094,K,D*31
$GNGNS,114625.00,0419.70206,S,05539.86071,E,DA,16,0.59,12.3,-47.6,,0000*6B
$GNGGA,114625.00,0419.70206,S,05539.86071,E,2,12,0.59,12.3,M,-47.6,M,,0000*43
$GNGSA,A,3,29,10,23,32,26,18,28,16,27,,,,1.29,0.59,1.15*10
$GNGSA,A,3,70,73,83,84,71,85,72,,,,,,1.29,0.59,1.15*15
$GPGSV,4,1,16,10,23,345,35,16,25,263,38,18,29,059,39,23,08,024,34*7F
$GPGSV,4,2,16,24,00,061,,25,06,139,,26,30,232,40,27,26,324,32*76
$GPGSV,4,3,16,28,36,172,32,29,31,143,35,31,22,200,13,32,80,338,42*7F
$GPGSV,4,4,16,36,52,277,,40,84,353,39,41,58,082,38,49,32,274,38*76
$GLGSV,3,1,11,70,44,347,24,71,56,265,43,72,18,220,14,73,15,164,12*6C
$GLGSV,3,2,11,74,15,210,,75,00,255,,83,22,119,34,84,41,055,23*6D
$GLGSV,3,3,11,85,19,000,33,,,,37,,,,33*54
$GNGLL,0419.70206,S,05539.86071,E,114625.00,A,D*67
$GNGRS,114625.00,1,0.6,2.6,4.9,1.4,1.1,-1.6,-0.1,0.7,3.7,,,*74
$GNGRS,114625.00,1,7.8,7.4,10.8,7.6,-1.8,0.6,11.7,,,,,*5A
$GNGST,114625.00,2885522,,,,1.7,1.5,3.0*7F
$GNZDA,114625.00,19,05,2025,00,00*75
$GNGBS,114625.00,1.7,1.5,3.0,,,,*5B
b0Xd
$Y&
';N =(DF
!$I"6 *PR|{4'Ta&:R( cF,[G+8WHIJKS wjT)7|U$$ [bdmFl@$GNRMC,114626.00,A,0419.70205,S,05539.86072,E,0.024,,190525,,,D*71
$GNVTG,,T,,M,0.024,N,0.044,K,D*3E
$GNGNS,114626.00,0419.70205,S,05539.86072,E,DA,17,0.58,12.3,-47.6,,0000*68
$GNGGA,114626.00,0419.70205,S,05539.86072,E,2,12,0.58,12.3,M,-47.6,M,,0000*41
$GNGSA,A,3,29,10,23,32,26,18,28,31,16,27,,,1.31,0.58,1.17*18
$GNGSA,A,3,70,73,83,84,71,85,72,,,,,,1.31,0.58,1.17*1F
$GPGSV,4,1,16,10,23,345,36,16,25,263,38,18,29,059,39,23,08,024,32*7A
$GPGSV,4,2,16,24,00,061,,25,06,139,,26,30,232,40,27,26,324,29*7C
$GPGSV,4,3,16,28,36,172,33,29,31,143,34,31,22,200,15,32,80,338,42*79
$GPGSV,4,4,16,36,52,277,,40,84,353,39,41,58,082,38,49,32,274,40*79
$GLGSV,3,1,11,70,44,347,24,71,56,265,43,72,18,220,13,73,15,164,08*60
$GLGSV,3,2,11,74,15,210,,75,00,255,,83,22,119,32,84,41,055,22*6A
$GLGSV,3,3,11,85,19,000,36,,,,36,,,,32*51
$GNGLL,0419.70205,S,05539.86072,E,114626.00,A,D*64
$GNGRS,114626.00,1,0.5,1.7,4.3,1.2,0.3,-1.8,0.7,-13.6,0.1,3.3,,*69
$GNGRS,114626.00,1,6.7,-56.3,6.2,6.4,-1.7,0.0,-14.0,,,,,*51
$GNGST,114626.00,43,,,,1.6,1.5,3.0*48
$GNZDA,114626.00,19,05,2025,00,00*76
$GNGBS,114626.00,1.6,1.5,3.0,,,,*59
b0Xh
%Y"*;Y="!DV
$4$4 (PR`{4'Ta&:R' cF,[*G(88HIJKS$w,T)7DU!h!bhUJl$GNRMC,114627.00,A,0419.70205,S,05539.86074,E,0.040,,190525,,,D*74
$GNVTG,,T,,M,0.040,N,0.073,K,D*38
$GNGNS,114627.00,0419.70205,S,05539.86074,E,DA,17,0.57,12.3,-47.6,,0000*60
$GNGGA,114627.00,0419.70205,S,05539.86074,E,2,12,0.57,12.3,M,-47.6,M,,0000*49
$GNGSA,A,3,29,10,23,32,26,18,28,31,16,27,,,1.27,0.57,1.14*13
$GNGSA,A,3,70,73,83,84,71,85,72,,,,,,1.27,0.57,1.14*14
$GPGSV,4,1,16,10,23,345,37,16,25,263,34,18,29,059,42,23,08,024,26*7E
$GPGSV,4,2,16,24,00,061,,25,06,139,,26,30,232,34,27,26,324,33*74
$GPGSV,4,3,16,28,36,172,31,29,31,143,36,31,22,200,17,32,80,338,40*79
$GPGSV,4,4,16,36,52,277,,40,84,353,39,41,58,082,38,49,32,274,39*77
$GLGSV,3,1,11,70,44,347,23,71,56,265,40,72,18,220,18,73,15,164,08*6F
$GLGSV,3,2,11,74,15,210,,75,00,255,,83,22,119,36,84,41,055,23*6F
$GLGSV,3,3,11,85,19,000,33,,,,33,,,,28*5A
$GNGLL,0419.70205,S,05539.86074,E,114627.00,A,D*63
$GNGRS,114627.00,1,0.5,1.9,5.1,1.0,0.0,-1.7,3.1,-12.7,-0.8,0.9,,*43
$GNGRS,114627.00,1,5.5,7.7,8.1,5.8,-2.0,-1.5,12.0,,,,,*48
$GNGST,114627.00,3965255,,,,1.6,1.5,3.0*75
$GNZDA,114627.00,19,05,2025,00,00*77
$GNGBS,114627.00,1.6,1.5,3.0,,,,*58
b0Xpl
#Y'';e |='"D
 $
 8 *PR[{4)Ta':R) cOF,[nG)8'HIJKS!w|T)7U! bpl=Nl$GNRMC,114628.00,A,0419.70204,S,05539.86075,E,0.004,,190525,,,D*7B
$GNVTG,,T,,M,0.004,N,0.007,K,D*3B
$GNGNS,114628.00,0419.70204,S,05539.86075,E,DA,17,0.57,12.3,-47.6,,0000*6F
$GNGGA,114628.00,0419.70204,S,05539.86075,E,2,12,0.57,12.3,M,-47.6,M,,0000*46
$GNGSA,A,3,29,10,23,32,26,18,28,31,16,27,,,1.27,0.57,1.14*13
$GNGSA,A,3,70,73,83,84,71,85,72,,,,,,1.27,0.57,1.14*14
$GPGSV,4,1,16,10,23,345,35,16,25,263,39,18,29,059,39,23,08,024,32*78
$GPGSV,4,2,16,24,00,061,,25,06,139,,26,30,232,39,27,26,324,34*7E
$GPGSV,4,3,16,28,36,172,32,29,31,143,32,31,22,200,18,32,80,338,42*73
$GPGSV,4,4,16,36,52,277,,40,84,353,41,41,58,082,39,49,32,274,41*76
$GLGSV,3,1,11,70,44,347,23,71,56,265,41,72,18,220,16,73,15,164,12*6B
$GLGSV,3,2,11,74,15,210,,75,00,255,,83,22,119,33,84,41,055,25*6C
$GLGSV,3,3,11,85,19,000,31,,,,33,,,,32*53
$GNGLL,0419.70204,S,05539.86075,E,114628.00,A,D*6C
$GNGRS,114628.00,1,-0.1,2.9,3.8,0.9,0.2,-1.5,-2.5,-7.1,-0.4,1.3,,*7C
$GNGRS,114628.00,1,6.2,7.5,11.5,6.6,-2.2,-3.0,11.7,,,,,*71
$GNGST,114628.00,3965255,,,,1.6,1.5,3.0*7A
$GNZDA,114628.00,19,05,2025,00,00*78
$GNGBS,114628.00,1.6,1.5,3.0,,,,*57
b0XXp
$Y%e';N!^=' D 
$X? )PRY{4'Ta':R% cF+[G(8HIJKSwQT)7U bXp%Rlyx$GNRMC,114629.00,A,0419.70203,S,05539.86075,E,0.032,,190525,,,D*78
$GNVTG,,T,,M,0.032,N,0.059,K,D*35
$GNGNS,114629.00,0419.70203,S,05539.86075,E,DA,16,0.58,12.3,-47.6,,0000*67
$GNGGA,114629.00,0419.70203,S,05539.86075,E,2,12,0.58,12.3,M,-47.6,M,,0000*4F
$GNGSA,A,3,29,10,23,32,26,18,28,31,16,27,,,1.31,0.58,1.17*18
$GNGSA,A,3,70,83,84,71,85,72,,,,,,,1.31,0.58,1.17*1B
$GPGSV,4,1,16,10,23,345,36,16,25,263,37,18,29,059,39,23,08,024,33*74
$GPGSV,4,2,16,24,00,061,,25,06,139,,26,30,232,39,27,26,324,32*78
$GPGSV,4,3,16,28,36,172,31,29,31,143,31,31,22,200,18,32,80,338,41*70
$GPGSV,4,4,16,36,52,277,,40,84,353,39,41,58,082,39,49,32,274,37*78
$GLGSV,3,1,11,70,43,347,23,71,56,265,40,72,18,220,11,73,15,164,05*6C
$GLGSV,3,2,11,74,15,210,,75,00,255,,83,22,119,27,84,41,055,24*68
$GLGSV,3,3,11,85,19,000,32,,,,31,,,,31*51
$GNGLL,0419.70203,S,05539.86075,E,114629.00,A,D*6A
$GNGRS,114629.00,1,0.9,-0.1,3.5,0.9,0.1,-1.8,0.2,-9.6,1.0,2.9,,*7C
$GNGRS,114629.00,1,6.7,8.5,6.8,-2.4,-1.1,11.8,,,,,,*65
$GNGST,114629.00,42,,,,1.6,1.5,3.0*46
$GNZDA,114629.00,19,05,2025,00,00*79
$GNGBS,114629.00,1.6,1.5,3.0,,,,*56
b0X@t
&Y&X);U!=( D
!$ *PRh{4(Ta':R' cuF+[G)8HIJKSw5T)7U  b@tVlQ$GNRMC,114630.00,A,0419.70201,S,05539.86075,E,0.010,,190525,,,D*72
$GNVTG,,T,,M,0.010,N,0.018,K,D*30
$GNGNS,114630.00,0419.70201,S,05539.86075,E,DA,17,0.57,12.3,-47.6,,0000*63
$GNGGA,114630.00,0419.70201,S,05539.86075,E,2,12,0.57,12.3,M,-47.6,M,,0000*4A
$GNGSA,A,3,29,10,23,32,26,18,28,31,16,27,,,1.27,0.57,1.14*13
$GNGSA,A,3,70,73,83,84,71,85,72,,,,,,1.27,0.57,1.14*14
$GPGSV,4,1,16,10,23,345,38,16,25,263,38,18,29,059,41,23,08,024,33*7A
$GPGSV,4,2,16,24,00,061,,25,06,139,,26,30,232,40,27,26,324,32*76
$GPGSV,4,3,16,28,36,172,33,29,31,143,31,31,22,200,18,32,80,338,42*71
$GPGSV,4,4,16,36,52,277,,40,84,353,40,41,58,082,39,49,32,274,39*78
$GLGSV,3,1,11,70,43,347,24,71,56,267,41,72,18,220,11,73,15,164,11*6D
$GLGSV,3,2,11,74,15,210,,75,00,255,,83,22,119,29,84,41,055,23*61
$GLGSV,3,3,11,85,19,000,29,,,,32,,,,32*5B
$GNGLL,0419.70201,S,05539.86075,E,114630.00,A,D*60
$GNGRS,114630.00,1,-3.1,0.0,1.5,1.0,-0.1,-1.7,-3.7,-10.2,0.9,-0.9,,*66
$GNGRS,114630.00,1,6.7,7.7,8.2,7.6,-2.5,1.8,12.1,,,,,*64
$GNGST,114630.00,3998,,,,1.6,1.4,3.0*42
$GNZDA,114630.00,19,05,2025,00,00*71
$GNGBS,114630.00,1.6,1.4,3.0,,,,*5F
b0X(x
$Y'j);j!=(!D
 $ < *PRa{4(Ta&:R( csF+[G*8HIJKSwT)7U!r  m_b(xYl(E$GNRMC,114631.00,A,0419.70200,S,05539.86076,E,0.035,,190525,,,D*76
$GNVTG,,T,,M,0.035,N,0.064,K,D*3C
$GNGNS,114631.00,0419.70200,S,05539.86076,E,DA,17,0.57,12.3,-47.6,,0000*60
$GNGGA,114631.00,0419.70200,S,05539.86076,E,2,12,0.57,12.3,M,-47.6,M,,0000*49
$GNGSA,A,3,29,10,23,32,26,18,28,31,16,27,,,1.27,0.57,1.14*13
$GNGSA,A,3,70,73,83,84,71,85,72,,,,,,1.27,0.57,1.14*14
$GPGSV,4,1,16,10,23,345,36,16,25,263,39,18,29,059,41,23,08,024,33*75
$GPGSV,4,2,16,24,00,061,,25,06,139,,26,30,232,40,27,26,324,33*77
$GPGSV,4,3,16,28,36,172,32,29,31,143,32,31,22,200,17,32,80,338,42*7C
$GPGSV,4,4,16,36,52,277,,40,84,353,40,41,58,082,38,49,32,274,40*77
$GLGSV,3,1,11,70,43,347,25,71,56,267,42,72,18,221,15,73,15,164,08*62
$GLGSV,3,2,11,74,15,210,,75,00,255,,83,22,119,30,84,41,055,24*6E
$GLGSV,3,3,11,85,19,000,33,,,,32,,,,32*50
$GNGLL,0419.70200,S,05539.86076,E,114631.00,A,D*63
$GNGRS,114631.00,1,0.6,-0.5,4.7,1.0,-0.3,-1.5,-0.2,-10.6,1.1,2.6,,*4A
$GNGRS,114631.00,1,7.5,7.5,9.4,7.4,-2.5,-4.0,12.0,,,,,*40
$GNGST,114631.00,5996,,,,1.6,1.4,2.9*43
$GNZDA,114631.00,19,05,2025,00,00*70
$GNGBS,114631.00,1.6,1.4,2.9,,,,*56
b0X|
$Y&M(;U"=(!D
 $B )PRu{4'Ta&:R' cvF+[NG*8HIh-JKSwT)7U?! .b|]l$GNRMC,114632.00,A,0419.70199,S,05539.86076,E,0.006,,190525,,,D*76
$GNVTG,,T,,M,0.006,N,0.011,K,D*3E
$GNGNS,114632.00,0419.70199,S,05539.86076,E,DA,17,0.58,12.3,-47.6,,0000*6F
$GNGGA,114632.00,0419.70199,S,05539.86076,E,2,12,0.58,12.3,M,-47.6,M,,0000*46
$GNGSA,A,3,29,10,23,32,26,18,28,31,16,27,,,1.31,0.58,1.17*18
$GNGSA,A,3,70,73,83,84,71,85,72,,,,,,1.31,0.58,1.17*1F
$GPGSV,4,1,16,10,23,345,36,16,25,263,38,18,29,059,40,23,08,024,34*72
$GPGSV,4,2,16,24,00,061,,25,06,139,,26,30,232,40,27,26,324,33*77
$GPGSV,4,3,16,28,36,172,32,29,31,143,31,31,22,200,17,32,80,338,41*7C
$GPGSV,4,4,16,36,52,277,,40,84,353,39,41,58,082,38,49,32,274,39*77
$GLGSV,3,1,11,70,43,347,26,71,56,267,42,72,18,221,12,73,15,164,08*66
$GLGSV,3,2,11,74,15,210,,75,00,255,,83,22,119,31,84,41,055,25*6E
$GLGSV,3,3,11,85,19,000,31,,,,33,,,,32*53
$GNGLL,0419.70199,S,05539.86076,E,114632.00,A,D*63
$GNGRS,114632.00,1,-0.3,-0.2,2.2,1.2,-0.4,-1.7,2.1,-12.1,0.8,1.9,,*4F
$GNGRS,114632.00,1,8.5,116,4.3,7.8,-2.7,-1.9,-15.5,,,,,*71
$GNGST,114632.00,41,,,,1.6,1.4,2.9*46
$GNZDA,114632.00,19,05,2025,00,00*73
$GNGBS,114632.00,1.6,1.4,2.9,,,,*55
b0X
$Y$a&;D!=' D
 $[  (PR{4&Ta':R% c$F+[G*8HIJKS!wT)7U!"!bal$GNRMC,114633.00,A,0419.70200,S,05539.86078,E,0.023,,190525,,,D*7D
$GNVTG,,T,,M,0.023,N,0.042,K,D*3F
$GNGNS,114633.00,0419.70200,S,05539.86078,E,DA,16,0.58,12.3,-47.6,,0000*62
$GNGGA,114633.00,0419.70200,S,05539.86078,E,2,12,0.58,12.3,M,-47.6,M,,0000*4A
$GNGSA,A,3,29,10,23,32,26,18,28,31,16,27,,,1.31,0.58,1.17*18
$GNGSA,A,3,70,83,84,71,85,72,,,,,,,1.31,0.58,1.17*1B
$GPGSV,4,1,16,10,23,345,36,16,25,263,36,18,29,059,38,23,08,024,33*74
$GPGSV,4,2,16,24,00,061,,25,06,139,,26,30,232,39,27,26,324,32*78
$GPGSV,4,3,16,28,36,172,32,29,31,143,32,31,22,200,17,32,80,338,40*7E
$GPGSV,4,4,16,36,52,277,,40,84,353,38,41,58,082,39,49,32,274,37*79
$GLGSV,3,1,11,70,43,347,26,71,56,267,42,72,18,221,12,73,15,164,07*69
$GLGSV,3,2,11,74,15,209,,75,00,255,,83,22,119,33,84,41,055,25*64
$GLGSV,3,3,11,85,19,000,33,,,,34,,,,33*57
$GNGLL,0419.70200,S,05539.86078,E,114633.00,A,D*6F
$GNGRS,114633.00,1,1.6,-0.2,1.7,1.5,-0.3,-1.9,-1.6,-12.5,1.0,-2.5,,*69
$GNGRS,114633.00,1,7.7,6.5,6.5,-3.0,-2.7,12.1,,,,,,*66
$GNGST,114633.00,2885147,,,,1.6,1.4,2.9*77
$GNZDA,114633.00,19,05,2025,00,00*72
$GNGBS,114633.00,1.6,1.4,2.9,,,,*54
b0X
#Y%O&;J"=' D
 $4  *PR{4(Ta':R& c4F+[G*8HIJKS!wT)7U!j#!}beln$GNRMC,114634.00,A,0419.70199,S,05539.86080,E,0.022,,190525,,,D*7F
$GNVTG,,T,,M,0.022,N,0.040,K,D*3C
$GNGNS,114634.00,0419.70199,S,05539.86080,E,DA,17,0.57,12.4,-47.6,,0000*68
$GNGGA,114634.00,0419.70199,S,05539.86080,E,2,12,0.57,12.4,M,-47.6,M,,0000*41
$GNGSA,A,3,29,10,23,32,26,18,28,31,16,27,,,1.27,0.57,1.14*13
$GNGSA,A,3,70,73,83,84,71,85,72,,,,,,1.27,0.57,1.14*14
$GPGSV,4,1,16,10,23,345,35,16,25,263,37,18,29,059,38,23,08,024,34*71
$GPGSV,4,2,16,24,00,061,,25,06,139,,26,30,232,39,27,26,324,32*78
$GPGSV,4,3,16,28,36,172,32,29,31,143,32,31,22,200,17,32,80,338,42*7C
$GPGSV,4,4,16,36,52,277,,40,84,353,40,41,58,082,39,49,32,274,38*79
$GLGSV,3,1,11,70,43,347,27,71,56,267,42,72,18,221,14,73,15,164,09*60
$GLGSV,3,2,11,74,15,209,,75,00,254,,83,22,119,33,84,41,055,25*65
$GLGSV,3,3,11,85,19,000,33,,,,35,,,,33*56
$GNGLL,0419.70199,S,05539.86080,E,114634.00,A,D*6C
$GNGRS,114634.00,1,1.8,0.0,0.3,1.6,-0.4,-1.8,-2.0,-10.8,0.8,-0.4,,*4F
$GNGRS,114634.00,1,7.5,7.6,4.0,7.8,-3.2,-4.1,11.8,,,,,*4F
$GNGST,114634.00,3965255,,,,1.6,1.4,2.9*7E
$GNZDA,114634.00,19,05,2025,00,00*75
$GNGBS,114634.00,1.6,1.4,2.9,,,,*53
b0X
$Y&[';=$=( D
!$ 5 *PR{4(Ta':R& chF+[G*8H.I
JKS"wHT)7$U!#"'Ybil$GNRMC,114635.00,A,0419.70199,S,05539.86081,E,0.006,,190525,,,D*79
$GNVTG,,T,,M,0.006,N,0.011,K,D*3E
$GNGNS,114635.00,0419.70199,S,05539.86081,E,DA,16,0.61,12.5,-47.6,,0000*6D
$GNGGA,114635.00,0419.70199,S,05539.86081,E,2,12,0.61,12.5,M,-47.6,M,,0000*45
$GNGSA,A,3,29,10,23,32,26,18,28,16,27,,,,1.34,0.61,1.19*1B
$GNGSA,A,3,70,73,83,84,71,85,72,,,,,,1.34,0.61,1.19*1E
$GPGSV,4,1,16,10,23,345,36,16,25,263,38,18,29,059,39,23,08,024,36*7E
$GPGSV,4,2,16,24,00,061,,25,06,139,,26,30,232,40,27,26,324,32*76
$GPGSV,4,3,16,28,36,172,33,29,31,143,32,31,22,200,,32,80,338,42*7B
$GPGSV,4,4,16,36,52,277,,40,84,353,40,41,58,082,39,49,32,274,38*79
$GLGSV,3,1,11,70,43,347,25,71,56,267,42,72,18,221,16,73,15,164,10*68
$GLGSV,3,2,11,74,15,209,,75,00,254,,83,22,119,34,84,41,055,24*63
$GLGSV,3,3,11,85,19,000,33,,,,35,,,,34*51
$GNGLL,0419.70199,S,05539.86081,E,114635.00,A,D*6C
$GNGRS,114635.00,1,0.5,0.2,-0.5,1.5,-0.5,-2.0,-0.4,0.9,-0.2,,,*59
$GNGRS,114635.00,1,6.8,58.4,5.8,8.0,-2.9,-1.2,5.6,,,,,*43
$GNGST,114635.00,35,,,,1.6,1.4,2.9*42
$GNZDA,114635.00,19,05,2025,00,00*74
$GNGBS,114635.00,1.6,1.4,2.9,,,,*52
b0X
$Y%D(;&#}=( D
!$[m )PR{4(Ta':R& cF+[G*8HIJKS!wGT)7U!K"!}b}ml_>$GNRMC,114636.00,A,0419.70198,S,05539.86081,E,0.043,,190525,,,D*7A
$GNVTG,,T,,M,0.043,N,0.080,K,D*37
$GNGNS,114636.00,0419.70198,S,05539.86081,E,DA,16,0.59,12.5,-47.6,,0000*64
$GNGGA,114636.00,0419.70198,S,05539.86081,E,2,12,0.59,12.5,M,-47.6,M,,0000*4C
$GNGSA,A,3,29,10,23,32,26,18,28,16,27,,,,1.29,0.59,1.15*10
$GNGSA,A,3,70,73,83,84,71,85,72,,,,,,1.29,0.59,1.15*15
$GPGSV,4,1,16,10,23,345,36,16,25,263,37,18,29,059,40,23,08,024,35*7C
$GPGSV,4,2,16,24,00,061,,25,06,139,,26,30,232,40,27,26,324,32*76
$GPGSV,4,3,16,28,36,172,33,29,31,143,31,31,22,200,,32,80,338,41*7B
$GPGSV,4,4,16,36,52,277,,40,84,353,40,41,58,082,39,49,32,274,38*79
$GLGSV,3,1,11,70,43,347,25,71,56,267,42,72,18,221,15,73,15,164,11*6A
$GLGSV,3,2,11,74,15,209,,75,00,254,,83,22,119,33,84,41,055,25*65
$GLGSV,3,3,11,85,19,000,33,,,,34,,,,33*57
$GNGLL,0419.70198,S,05539.86081,E,114636.00,A,D*6E
$GNGRS,114636.00,1,-1.5,0.3,1.2,1.5,-0.3,-2.2,-1.6,0.7,1.4,,,*7F
$GNGRS,114636.00,1,6.7,7.9,3.3,7.4,-2.9,-4.4,12.0,,,,,*4D
$GNGST,114636.00,2885147,,,,1.6,1.4,2.9*72
$GNZDA,114636.00,19,05,2025,00,00*77
$GNGBS,114636.00,1.6,1.4,2.9,,,,*51
b0X
"Y{$@);!=#$DF
$(!^ )PR.{4'Ta):R& cBF+[G)8H*IJKS"w`T)7U7 \.beql7$GNRMC,114637.00,A,0419.70196,S,05539.86081,E,0.027,,190525,,,D*77
$GNVTG,,T,,M,0.027,N,0.049,K,D*30
$GNGNS,114637.00,0419.70196,S,05539.86081,E,DA,16,0.59,12.6,-47.6,,0000*68
$GNGGA,114637.00,0419.70196,S,05539.86081,E,2,12,0.59,12.6,M,-47.6,M,,0000*40
$GNGSA,A,3,29,10,23,32,26,18,28,16,27,,,,1.29,0.59,1.15*10
$GNGSA,A,3,70,73,83,84,71,85,72,,,,,,1.29,0.59,1.15*15
$GPGSV,4,1,16,10,23,345,34,16,25,263,36,18,29,059,41,23,08,024,31*7A
$GPGSV,4,2,16,24,00,061,,25,06,139,,26,30,232,35,27,26,324,36*70
$GPGSV,4,3,16,28,36,172,31,29,31,143,33,31,22,200,,32,80,338,41*7B
$GPGSV,4,4,16,36,52,277,,40,84,353,39,41,58,082,41,49,32,274,38*78
$GLGSV,3,1,11,70,43,347,25,71,56,267,41,72,18,221,15,73,15,164,07*6E
$GLGSV,3,2,11,74,15,209,,75,00,254,,83,22,119,34,84,41,055,24*63
$GLGSV,3,3,11,85,19,000,29,,,,32,,,,28*50
$GNGLL,0419.70196,S,05539.86081,E,114637.00,A,D*61
$GNGRS,114637.00,1,-1.6,3.8,4.5,0.5,-0.2,-2.2,-2.2,0.6,0.7,,,*73
$GNGRS,114637.00,1,7.8,8.0,1.0,7.2,-3.0,0.6,10.7,,,,,*65
$GNGST,114637.00,2885147,,,,1.6,1.4,2.9*73
$GNZDA,114637.00,19,05,2025,00,00*76
$GNGBS,114637.00,1.6,1.4,2.9,,,,*50
b0X
%Ym%3(;,#=( D
 $]V *PR\{4(Ta&:R' cPF+[G*8HNIJKSwzT)7U #!!MbMul$GNRMC,114638.00,A,0419.70194,S,05539.86080,E,0.004,,190525,,,D*7A
$GNVTG,,T,,M,0.004,N,0.008,K,D*34
$GNGNS,114638.00,0419.70194,S,05539.86080,E,DA,16,0.61,12.7,-47.6,,0000*6E
$GNGGA,114638.00,0419.70194,S,05539.86080,E,2,12,0.61,12.7,M,-47.6,M,,0000*46
$GNGSA,A,3,29,10,23,32,26,18,28,16,27,,,,1.34,0.61,1.19*1B
$GNGSA,A,3,70,73,83,84,71,85,72,,,,,,1.34,0.61,1.19*1E
$GPGSV,4,1,16,10,23,345,37,16,25,263,37,18,29,059,40,23,08,024,35*7D
$GPGSV,4,2,16,24,00,061,,25,06,139,,26,30,232,40,27,26,324,32*76
$GPGSV,4,3,16,28,36,172,32,29,31,143,31,31,22,200,,32,80,338,42*79
$GPGSV,4,4,16,36,52,277,,40,84,353,40,41,58,082,38,49,32,274,39*79
$GLGSV,3,1,11,70,43,347,25,71,56,267,42,72,18,221,15,73,15,164,13*68
$GLGSV,3,2,11,74,15,209,,75,00,254,,83,22,119,30,84,41,055,25*66
$GLGSV,3,3,11,85,19,000,32,,,,33,,,,33*51
$GNGLL,0419.70194,S,05539.86080,E,114638.00,A,D*6D
$GNGRS,114638.00,1,0.9,1.1,-0.4,0.9,-0.2,-2.1,-1.6,0.5,0.1,,,*71
$GNGRS,114638.00,1,10.0,-43.6,1.2,6.8,-2.7,2.9,8.5,,,,,*79
$GNGST,114638.00,32,,,,1.6,1.4,2.8*49
$GNZDA,114638.00,19,05,2025,00,00*79
$GNGBS,114638.00,1.6,1.4,2.8,,,,*5E
b0Xh
$YZ%';!f=' D
!$ )PRn{4'Ta':R' c F+[G(8HgIJKSw@T)7JU Tobh5ylv$GNRMC,114639.00,A,0419.70194,S,05539.86081,E,0.044,,190525,,,D*7E
$GNVTG,,T,,M,0.044,N,0.081,K,D*31
$GNGNS,114639.00,0419.70194,S,05539.86081,E,DA,16,0.59,12.7,-47.6,,0000*65
$GNGGA,114639.00,0419.70194,S,05539.86081,E,2,12,0.59,12.7,M,-47.6,M,,0000*4D
$GNGSA,A,3,29,10,23,32,26,18,28,16,27,,,,1.29,0.59,1.15*10
$GNGSA,A,3,70,73,83,84,71,85,72,,,,,,1.29,0.59,1.15*15
$GPGSV,4,1,16,10,23,345,36,16,25,263,37,18,29,059,39,23,08,024,33*74
$GPGSV,4,2,16,24,00,061,,25,06,139,,26,30,232,39,27,26,324,32*78
$GPGSV,4,3,16,28,36,172,33,29,31,143,31,31,22,200,,32,80,338,41*7B
$GPGSV,4,4,16,36,52,277,,40,84,353,39,41,58,082,39,49,32,274,39*76
$GLGSV,3,1,11,70,43,347,25,71,56,267,40,72,18,221,14,73,15,164,08*61
$GLGSV,3,2,11,74,15,209,,75,00,254,,83,22,119,31,84,41,055,24*66
$GLGSV,3,3,11,85,19,000,31,,,,31,,,,32*51
$GNGLL,0419.70194,S,05539.86081,E,114639.00,A,D*6D
$GNGRS,114639.00,1,1.4,-1.7,1.0,1.1,-0.5,-2.7,-1.2,0.3,-1.1,,,*59
$GNGRS,114639.00,1,10.0,7.6,-1.9,5.9,-2.7,4.6,8.7,,,,,*4A
$GNGST,114639.00,2885147,,,,1.6,1.4,2.8*7C
$GNZDA,114639.00,19,05,2025,00,00*78
$GNGBS,114639.00,1.6,1.4,2.8,,,,*5F
b0XP
$Y%);$D=( D
"$ *PR{4)Ta':R' cF+[G*8HIJKSwT)7U#S!!6bP}l$GNRMC,114640.00,A,0419.70193,S,05539.86082,E,0.021,,190525,,,D*77
$GNVTG,,T,,M,0.021,N,0.040,K,D*3F
$GNGNS,114640.00,0419.70193,S,05539.86082,E,DA,16,0.59,12.8,-47.6,,0000*60
$GNGGA,114640.00,0419.70193,S,05539.86082,E,2,12,0.59,12.8,M,-47.6,M,,0000*48
$GNGSA,A,3,29,10,23,32,26,18,28,16,27,,,,1.29,0.59,1.15*10
$GNGSA,A,3,70,73,83,84,71,85,72,,,,,,1.29,0.59,1.15*15
$GPGSV,4,1,16,10,23,345,36,16,25,263,37,18,29,059,41,23,08,024,36*7E
$GPGSV,4,2,16,24,00,061,,25,06,139,,26,30,232,40,27,26,324,32*76
$GPGSV,4,3,16,28,36,172,34,29,31,143,30,31,22,200,,32,80,338,42*7E
$GPGSV,4,4,16,36,52,277,,40,84,353,41,41,58,082,39,49,32,274,39*79
$GLGSV,3,1,11,70,43,347,25,71,56,267,42,72,18,221,14,73,15,164,12*68
$GLGSV,3,2,11,74,15,209,,75,00,254,,83,22,119,30,84,41,055,24*67
$GLGSV,3,3,11,85,19,000,35,,,,33,,,,33*56
$GNGLL,0419.70193,S,05539.86082,E,114640.00,A,D*67
$GNGRS,114640.00,1,3.8,-3.4,0.7,1.3,-0.5,-2.8,-1.2,0.3,0.2,,,*7C
$GNGRS,114640.00,1,10.5,7.4,4.7,6.8,-2.5,6.0,10.1,,,,,*5E
$GNGST,114640.00,2885147,,,,1.5,1.4,2.8*71
$GNZDA,114640.00,19,05,2025,00,00*76
$GNGBS,114640.00,1.5,1.4,2.8,,,,*52
b0X8
&Y),;!,=)#D
!$} *PR{4*Ta':R+ cPF+[G&8HIbJKSweT)7Ub8lF$GNRMC,114641.00,A,0419.70194,S,05539.86082,E,0.045,,190525,,,D*73
$GNVTG,,T,,M,0.045,N,0.083,K,D*32
$GNGNS,114641.00,0419.70194,S,05539.86082,E,DA,15,0.61,12.9,-47.6,,0000*6F
$GNGGA,114641.00,0419.70194,S,05539.86082,E,2,12,0.61,12.9,M,-47.6,M,,0000*44
$GNGSA,A,3,29,10,23,32,26,18,28,16,27,,,,1.34,0.61,1.19*1B
$GNGSA,A,3,70,83,84,71,85,72,,,,,,,1.34,0.61,1.19*1A
$GPGSV,4,1,16,10,23,345,38,16,25,263,41,18,29,059,44,23,08,024,33*71
$GPGSV,4,2,16,24,00,061,,25,06,139,,26,30,232,41,27,26,324,35*70
$GPGSV,4,3,16,28,36,172,33,29,31,143,30,31,22,200,,32,80,338,42*79
$GPGSV,4,4,16,36,52,277,,40,84,353,42,41,58,082,39,49,32,274,43*77
$GLGSV,3,1,11,70,43,347,23,71,56,267,38,72,18,221,13,73,15,164,06*61
$GLGSV,3,2,11,74,15,209,,75,00,254,,83,22,119,29,84,41,055,23*68
$GLGSV,3,3,11,85,19,000,30,,,,30,,,,27*55
$GNGLL,0419.70194,S,05539.86082,E,114641.00,A,D*61
$GNGRS,114641.00,1,-0.6,-2.3,-2.1,1.4,-0.5,-2.9,-1.3,0.2,0.2,,,*74
$GNGRS,114641.00,1,10.2,1.0,5.1,-2.7,4.1,9.4,,,,,,*41
$GNGST,114641.00,34,,,,1.5,1.4,2.8*42
$GNZDA,114641.00,19,05,2025,00,00*77
$GNGBS,114641.00,1.5,1.4,2.8,,,,*53
b0X 
&Y &;=%D
$" )PR{4'Ta&:R& cF+[G)8HIJKSwXT)7U$/G%b ln$GNRMC,114642.00,A,0419.70194,S,05539.86083,E,0.039,,190525,,,D*7A
$GNVTG,,T,,M,0.039,N,0.071,K,D*34
$GNGNS,114642.00,0419.70194,S,05539.86083,E,DA,16,0.59,13.0,-47.6,,0000*6D
$GNGGA,114642.00,0419.70194,S,05539.86083,E,2,12,0.59,13.0,M,-47.6,M,,0000*45
$GNGSA,A,3,29,10,23,32,26,18,28,16,27,,,,1.29,0.59,1.15*10
$GNGSA,A,3,70,73,83,84,71,85,72,,,,,,1.29,0.59,1.15*15
$GPGSV,4,1,16,10,23,345,38,16,25,263,32,18,29,059,38,23,08,024,22*7E
$GPGSV,4,2,16,24,00,061,,25,06,139,,26,30,232,37,27,26,324,28*7D
$GPGSV,4,3,16,28,36,172,31,29,31,143,34,31,22,200,,32,80,338,41*7C
$GPGSV,4,4,16,36,52,277,,40,84,353,39,41,58,082,38,49,32,274,38*76
$GLGSV,3,1,11,70,43,347,22,71,56,267,41,72,18,221,14,73,15,164,08*67
$GLGSV,3,2,11,74,15,209,,75,00,254,,83,22,119,29,84,41,055,25*6E
$GLGSV,3,3,11,85,19,000,36,,,,28,,,,25*58
$GNGLL,0419.70194,S,05539.86083,E,114642.00,A,D*63
$GNGRS,114642.00,1,2.4,-0.7,-6.3,1.4,-0.4,-3.0,-1.2,0.2,1.8,,,*59
$GNGRS,114642.00,1,9.1,7.8,3.4,4.0,-2.5,0.5,9.5,,,,,*5D
$GNGST,114642.00,162871,,,,1.5,1.4,2.8*4D
$GNZDA,114642.00,19,05,2025,00,00*74
$GNGBS,114642.00,1.5,1.4,2.8,,,,*50
b0X
$Y);="#D
$ )PRW{4'Ta(:R& cF+[G(8H<IJKS wnT)8@U%AtblF$GNRMC,114643.00,A,0419.70195,S,05539.86083,E,0.016,,190525,,,D*77
$GNVTG,,T,,M,0.016,N,0.030,K,D*3C
$GNGNS,114643.00,0419.70195,S,05539.86083,E,DA,15,0.61,13.0,-47.6,,0000*65
$GNGGA,114643.00,0419.70195,S,05539.86083,E,2,12,0.61,13.0,M,-47.6,M,,0000*4E
$GNGSA,A,3,29,10,23,32,26,18,28,16,27,,,,1.34,0.61,1.19*1B
$GNGSA,A,3,70,83,84,71,85,72,,,,,,,1.34,0.61,1.19*1A
$GPGSV,4,1,16,10,23,345,36,16,25,263,26,18,29,059,41,23,08,024,31*79
$GPGSV,4,2,16,24,00,061,,25,06,139,,26,30,232,34,27,26,324,35*72
$GPGSV,4,3,16,28,36,172,30,29,31,143,30,31,22,200,,32,80,338,41*79
$GPGSV,4,4,16,36,52,277,,40,84,353,39,41,58,082,40,49,32,274,38*79
$GLGSV,3,1,11,70,43,347,21,71,56,267,40,72,18,221,14,73,15,164,05*68
$GLGSV,3,2,11,74,15,209,,75,00,254,,83,22,119,32,84,41,056,26*64
$GLGSV,3,3,11,85,19,000,30,,,,29,,,,24*5E
$GNGLL,0419.70195,S,05539.86083,E,114643.00,A,D*63
$GNGRS,114643.00,1,0.2,-0.3,-5.7,0.9,0.1,-3.3,0.2,-0.8,-0.3,,,*54
$GNGRS,114643.00,1,7.6,6.2,3.2,-2.9,5.5,8.3,,,,,,*7C
$GNGST,114643.00,34,,,,1.5,1.4,2.8*40
$GNZDA,114643.00,19,05,2025,00,00*75
$GNGBS,114643.00,1.5,1.4,2.8,,,,*51
b0X
$Y&Q(;#='"D
 $~! +PR9{4)Ta(:R) cF+[G*8HyIc<JKS wT)86U!\"ubll$GNRMC,114644.00,A,0419.70197,S,05539.86080,E,0.016,,190525,,,D*71
$GNVTG,,T,,M,0.016,N,0.029,K,D*34
$GNGNS,114644.00,0419.70197,S,05539.86080,E,DA,16,0.61,13.0,-47.6,,0000*60
$GNGGA,114644.00,0419.70197,S,05539.86080,E,2,12,0.61,13.0,M,-47.6,M,,0000*48
$GNGSA,A,3,29,10,23,32,26,18,28,16,27,,,,1.34,0.61,1.19*1B
$GNGSA,A,3,70,73,83,84,71,85,72,,,,,,1.34,0.61,1.19*1E
$GPGSV,4,1,16,10,23,345,36,16,25,263,38,18,29,059,40,23,08,024,35*73
$GPGSV,4,2,16,24,00,061,,25,06,139,,26,30,232,39,27,26,324,34*7E
$GPGSV,4,3,16,28,36,172,32,29,31,143,33,31,22,200,,32,80,338,43*7A
$GPGSV,4,4,16,36,52,277,,40,84,353,41,41,58,082,40,49,32,274,41*78
$GLGSV,3,1,11,70,43,347,22,71,56,267,42,72,18,221,14,73,15,164,11*6C
$GLGSV,3,2,11,74,15,209,,75,00,254,,83,22,119,32,84,41,056,25*67
$GLGSV,3,3,11,85,20,001,33,,,,34,,,,31*5E
$GNGLL,0419.70197,S,05539.86080,E,114644.00,A,D*65
$GNGRS,114644.00,1,4.3,-0.3,-0.9,0.6,1.4,-3.4,-1.3,3.4,1.6,,,*77
$GNGRS,114644.00,1,7.1,155,4.8,3.1,-2.9,3.5,8.9,,,,,*4A
$GNGST,114644.00,33,,,,1.5,1.4,2.8*40
$GNZDA,114644.00,19,05,2025,00,00*72
$GNGBS,114644.00,1.5,1.4,2.8,,,,*56
b0X
!Y%G(;#a='"D
 $"s +PR.{4(Ta(:R( cF+[=G*8HGIJKS wFT)8U'$gbl$GNRMC,114645.00,A,0419.70198,S,05539.86080,E,0.019,,190525,,,D*70
$GNVTG,,T,,M,0.019,N,0.035,K,D*36
$GNGNS,114645.00,0419.70198,S,05539.86080,E,DA,16,0.59,13.0,-47.6,,0000*65
$GNGGA,114645.00,0419.70198,S,05539.86080,E,2,12,0.59,13.0,M,-47.6,M,,0000*4D
$GNGSA,A,3,29,10,23,32,26,18,28,16,27,,,,1.29,0.59,1.15*10
$GNGSA,A,3,70,73,83,84,71,85,72,,,,,,1.29,0.59,1.15*15
$GPGSV,4,1,16,10,23,345,33,16,25,263,37,18,29,059,40,23,08,024,35*79
$GPGSV,4,2,16,24,00,061,,25,06,139,,26,30,232,39,27,26,324,34*7E
$GPGSV,4,3,16,28,36,172,32,29,31,143,34,31,22,200,,32,80,338,43*7D
$GPGSV,4,4,16,36,52,277,,40,84,353,40,41,58,082,40,49,32,274,40*78
$GLGSV,3,1,11,70,43,347,22,71,56,267,42,72,18,221,15,73,15,164,11*6D
$GLGSV,3,2,11,74,15,209,,75,00,254,,83,22,119,32,84,41,056,24*66
$GLGSV,3,3,11,85,20,001,27,,,,36,,,,31*59
$GNGLL,0419.70198,S,05539.86080,E,114645.00,A,D*6B
$GNGRS,114645.00,1,3.7,-0.4,-1.6,0.5,1.4,-3.3,-0.2,-1.8,2.6,,,*58
$GNGRS,114645.00,1,5.7,7.8,3.3,2.8,-3.1,2.9,10.9,,,,,*66
$GNGST,114645.00,2909,,,,1.5,1.4,2.8*43
$GNZDA,114645.00,19,05,2025,00,00*73
$GNGBS,114645.00,1.5,1.4,2.8,,,,*57
b0X
$Y"(;"='$D
$! )PR:{4'Ta(:R( cF+[G+8HIJKS wT)8Uv&"ebl<$GNRMC,114646.00,A,0419.70197,S,05539.86081,E,0.036,,190525,,,D*70
$GNVTG,,T,,M,0.036,N,0.066,K,D*3D
$GNGNS,114646.00,0419.70197,S,05539.86081,E,DA,16,0.59,13.0,-47.6,,0000*68
$GNGGA,114646.00,0419.70197,S,05539.86081,E,2,12,0.59,13.0,M,-47.6,M,,0000*40
$GNGSA,A,3,29,10,23,32,26,18,28,16,27,,,,1.29,0.59,1.15*10
$GNGSA,A,3,70,73,83,84,71,85,72,,,,,,1.29,0.59,1.15*15
$GPGSV,4,1,16,10,23,345,36,16,25,263,34,18,29,059,40,23,08,024,34*7E
$GPGSV,4,2,16,24,00,061,,25,06,139,,26,30,232,39,27,26,324,36*7C
$GPGSV,4,3,16,28,36,172,30,29,31,143,33,31,22,200,,32,80,338,41*7A
$GPGSV,4,4,16,36,52,277,,40,84,353,39,41,58,082,40,49,32,274,40*76
$GLGSV,3,1,11,70,43,347,23,71,56,267,43,72,18,221,17,73,15,164,09*66
$GLGSV,3,2,11,74,15,209,,75,00,254,,83,22,119,32,84,41,056,23*61
$GLGSV,3,3,11,85,20,001,27,,,,38,,,,34*52
$GNGLL,0419.70197,S,05539.86081,E,114646.00,A,D*66
$GNGRS,114646.00,1,2.8,-0.7,-3.3,0.6,-2.6,-3.1,-3.2,-0.6,0.2,,,*76
$GNGRS,114646.00,1,6.6,7.8,1.9,2.7,-2.9,11.4,10.3,,,,,*5C
$GNGST,114646.00,4363,,,,1.5,1.4,2.8*40
$GNZDA,114646.00,19,05,2025,00,00*70
$GNGBS,114646.00,1.5,1.4,2.8,,,,*54
b0X
$Y#(;"w='%DV
$ S *PR7{4(Ta(:R' cF+[|G*8HVI
S<JKS!wT)8U$ bul$GNRMC,114647.00,A,0419.70199,S,05539.86080,E,0.002,,190525,,,D*79
$GNVTG,,T,,M,0.002,N,0.004,K,D*3E
$GNGNS,114647.00,0419.70199,S,05539.86080,E,DA,16,0.61,13.0,-47.6,,0000*6D
$GNGGA,114647.00,0419.70199,S,05539.86080,E,2,12,0.61,13.0,M,-47.6,M,,0000*45
$GNGSA,A,3,29,10,23,32,26,18,28,16,27,,,,1.34,0.61,1.19*1B
$GNGSA,A,3,70,73,83,84,71,85,72,,,,,,1.34,0.61,1.19*1E
$GPGSV,4,1,16,10,23,345,36,16,25,263,35,18,29,059,40,23,08,024,34*7F
$GPGSV,4,2,16,24,00,061,,25,06,139,,26,30,232,39,27,26,324,37*7D
$GPGSV,4,3,16,28,36,172,29,29,31,143,32,31,22,200,,32,80,338,42*70
$GPGSV,4,4,16,36,52,277,,40,84,353,40,41,58,082,40,49,32,274,39*76
$GLGSV,3,1,11,70,43,347,23,71,56,267,42,72,18,221,17,73,15,164,10*6F
$GLGSV,3,2,11,74,15,209,,75,00,254,,83,22,119,33,84,41,056,23*60
$GLGSV,3,3,11,85,20,001,27,,,,36,,,,32*5A
$GNGLL,0419.70199,S,05539.86080,E,114647.00,A,D*68
$GNGRS,114647.00,1,0.8,-1.0,-1.4,0.6,0.2,-3.0,4.7,2.1,-1.7,,,*72
$GNGRS,114647.00,1,8.9,154,4.1,3.9,-3.0,7.9,11.1,,,,,*7E
$GNGST,114647.00,33,,,,1.5,1.4,2.8*43
$GNZDA,114647.00,19,05,2025,00,00*71
$GNGBS,114647.00,1.5,1.4,2.8,,,,*55
b0X
&Y$(;!D=(s"D?
$!K *PR:{4)Ta':R' cKF+[G*8H*I
JKS!wQT)8U 7" GPb]l}$GNRMC,114648.00,A,0419.70198,S,05539.86081,E,0.012,,190525,,,D*77
$GNVTG,,T,,M,0.012,N,0.023,K,D*3A
$GNGNS,114648.00,0419.70198,S,05539.86081,E,DA,16,0.59,13.0,-47.6,,0000*69
$GNGGA,114648.00,0419.70198,S,05539.86081,E,2,12,0.59,13.0,M,-47.6,M,,0000*41
$GNGSA,A,3,29,10,23,32,26,18,28,16,27,,,,1.29,0.59,1.15*10
$GNGSA,A,3,70,73,83,84,71,85,72,,,,,,1.29,0.59,1.15*15
$GPGSV,4,1,16,10,23,345,38,16,25,263,36,18,29,059,40,23,08,024,33*75
$GPGSV,4,2,16,24,00,061,,25,06,139,,26,30,232,40,27,26,324,34*70
$GPGSV,4,3,16,28,36,172,30,29,31,143,33,31,22,200,,32,80,338,42*79
$GPGSV,4,4,16,36,52,277,,40,84,353,41,41,58,082,39,49,32,274,39*79
$GLGSV,3,1,11,70,43,347,23,71,56,267,42,72,18,221,16,73,15,164,10*6E
$GLGSV,3,2,11,74,15,209,,75,00,254,,83,22,119,33,84,41,056,23*60
$GLGSV,3,3,11,85,20,001,32,,,,34,,,,32*5C
$GNGLL,0419.70198,S,05539.86081,E,114648.00,A,D*67
$GNGRS,114648.00,1,-1.8,-1.1,0.7,0.6,-1.4,-2.7,2.6,-0.6,-1.9,,,*72
$GNGRS,114648.00,1,9.0,7.6,3.4,2.4,-2.9,5.7,10.7,,,,,*6B
$GNGST,114648.00,2909,,,,1.5,1.4,2.8*4E
$GNZDA,114648.00,19,05,2025,00,00*7E
$GNGBS,114648.00,1.5,1.4,2.8,,,,*5A
b0Xx
&Y%9);!#=(Z"D
 $" *PRH{4)Ta':R' cF+[G*8HIJKS wT)8)U ! DbxElUt$GNRMC,114649.00,A,0419.70199,S,05539.86082,E,0.015,,190525,,,D*73
$GNVTG,,T,,M,0.015,N,0.028,K,D*36
$GNGNS,114649.00,0419.70199,S,05539.86082,E,DA,16,0.59,13.1,-47.6,,0000*6B
$GNGGA,114649.00,0419.70199,S,05539.86082,E,2,12,0.59,13.1,M,-47.6,M,,0000*43
$GNGSA,A,3,29,10,23,32,26,18,28,16,27,,,,1.29,0.59,1.15*10
$GNGSA,A,3,70,73,83,84,71,85,72,,,,,,1.29,0.59,1.15*15
$GPGSV,4,1,16,10,23,345,38,16,25,263,37,18,29,059,41,23,08,024,33*75
$GPGSV,4,2,16,24,00,061,,25,06,139,,26,30,232,40,27,26,324,34*70
$GPGSV,4,3,16,28,36,172,32,29,31,143,34,31,22,200,,32,80,338,42*7C
$GPGSV,4,4,16,36,52,277,,40,84,353,41,41,58,082,39,49,32,274,39*79
$GLGSV,3,1,11,70,43,347,23,71,56,267,42,72,18,221,15,73,15,164,09*65
$GLGSV,3,2,11,74,15,209,,75,00,254,,83,22,119,32,84,41,056,23*61
$GLGSV,3,3,11,85,20,001,32,,,,33,,,,32*5B
$GNGLL,0419.70199,S,05539.86082,E,114649.00,A,D*64
$GNGRS,114649.00,1,-0.5,-1.2,0.4,0.7,-1.7,-2.8,4.7,0.6,-0.8,,,*58
$GNGRS,114649.00,1,7.5,7.3,4.0,0.4,-3.0,4.6,9.8,,,,,*5A
$GNGST,114649.00,4363,,,,1.5,1.4,2.8*4F
$GNZDA,114649.00,19,05,2025,00,00*7F
$GNGBS,114649.00,1.5,1.4,2.8,,,,*5B
b0X`
'YW&*;! =)"D
#$u$ +PRJ{4)Ta':R) cF+[#G*8HIjJKS wyT)8NU!" }b`-l-$GNRMC,114650.00,A,0419.70199,S,05539.86082,E,0.024,,190525,,,D*79
$GNVTG,,T,,M,0.024,N,0.044,K,D*3E
$GNGNS,114650.00,0419.70199,S,05539.86082,E,DA,16,0.61,13.1,-47.6,,0000*68
$GNGGA,114650.00,0419.70199,S,05539.86082,E,2,12,0.61,13.1,M,-47.6,M,,0000*40
$GNGSA,A,3,29,10,23,32,26,18,28,16,27,,,,1.34,0.61,1.19*1B
$GNGSA,A,3,70,73,83,84,71,85,72,,,,,,1.34,0.61,1.19*1E
$GPGSV,4,1,16,10,23,345,39,16,25,263,38,18,29,059,42,23,08,024,33*78
$GPGSV,4,2,16,24,00,061,,25,06,139,,26,30,232,41,27,26,324,34*71
$GPGSV,4,3,16,28,36,172,35,29,31,143,36,31,22,200,,32,80,338,43*78
$GPGSV,4,4,16,36,52,277,,40,84,353,41,41,58,082,39,49,32,274,41*76
$GLGSV,3,1,11,70,43,347,23,71,56,267,42,72,18,221,15,73,15,164,08*64
$GLGSV,3,2,11,74,15,209,,75,00,254,,83,22,119,32,84,41,056,25*67
$GLGSV,3,3,11,85,20,001,33,,,,34,,,,32*5D
$GNGLL,0419.70199,S,05539.86082,E,114650.00,A,D*6C
$GNGRS,114650.00,1,-0.5,-1.7,0.3,0.7,-0.8,-2.7,-1.4,1.6,0.2,,,*5E
$GNGRS,114650.00,1,8.0,-140,8.9,0.8,-2.9,5.1,12.6,,,,,*59
$GNGST,114650.00,31,,,,1.5,1.4,2.7*48
$GNZDA,114650.00,19,05,2025,00,00*77
$GNGBS,114650.00,1.5,1.4,2.7,,,,*5C
b0XH
%Ys%*;!=)"D
!$p# +PR4{4*Ta(:R) c_F+[G)8HIJKSwT)8U dbHlh$GNRMC,114651.00,A,0419.70200,S,05539.86083,E,0.024,,190525,,,D*7A
$GNVTG,,T,,M,0.024,N,0.044,K,D*3E
$GNGNS,114651.00,0419.70200,S,05539.86083,E,DA,16,0.59,13.1,-47.6,,0000*60
$GNGGA,114651.00,0419.70200,S,05539.86083,E,2,12,0.59,13.1,M,-47.6,M,,0000*48
$GNGSA,A,3,29,10,23,32,26,18,28,16,27,,,,1.29,0.59,1.15*10
$GNGSA,A,3,70,73,83,84,71,85,72,,,,,,1.29,0.59,1.15*15
$GPGSV,4,1,16,10,23,345,37,16,25,263,37,18,29,059,42,23,08,024,33*79
$GPGSV,4,2,16,24,00,061,,25,06,139,,26,30,232,41,27,26,324,34*71
$GPGSV,4,3,16,28,36,172,33,29,31,143,35,31,22,200,,32,80,338,43*7D
$GPGSV,4,4,16,36,52,277,,40,84,353,42,41,58,082,40,49,32,274,41*7B
$GLGSV,3,1,11,70,43,347,23,71,56,267,41,72,18,221,16,73,15,164,12*6F
$GLGSV,3,2,11,74,15,209,,75,00,254,,83,22,119,30,84,41,056,25*65
$GLGSV,3,3,11,85,20,001,30,,,,32,,,,30*5A
$GNGLL,0419.70200,S,05539.86083,E,114651.00,A,D*6F
$GNGRS,114651.00,1,2.5,-1.4,1.3,0.5,-0.8,-2.5,1.1,1.7,0.2,,,*5B
$GNGRS,114651.00,1,8.0,7.8,8.9,1.6,-2.7,5.1,14.4,,,,,*64
$GNGST,114651.00,2909,,,,1.5,1.4,2.8*46
$GNZDA,114651.00,19,05,2025,00,00*76
$GNGBS,114651.00,1.5,1.4,2.8,,,,*52
b0X0
#Y"%;=%D
$q &PR;{4&Ta#:R% cKF+[G'8HFIJKSw}T)8Ub0l$GNRMC,114652.00,A,0419.70200,S,05539.86084,E,0.015,,190525,,,D*7C
$GNVTG,,T,,M,0.015,N,0.028,K,D*36
$GNGNS,114652.00,0419.70200,S,05539.86084,E,DA,15,0.63,13.1,-47.6,,0000*6E
$GNGGA,114652.00,0419.70200,S,05539.86084,E,2,12,0.63,13.1,M,-47.6,M,,0000*45
$GNGSA,A,3,29,10,23,32,26,18,28,16,27,,,,1.36,0.63,1.21*10
$GNGSA,A,3,70,73,83,84,71,85,,,,,,,1.36,0.63,1.21*10
$GPGSV,4,1,16,10,23,345,35,16,25,263,34,18,29,059,37,23,08,024,27*7F
$GPGSV,4,2,16,24,00,061,,25,06,139,,26,30,232,37,27,26,324,28*7D
$GPGSV,4,3,16,28,36,172,28,29,31,143,30,31,22,200,,32,80,338,38*7E
$GPGSV,4,4,16,36,52,277,,40,84,353,38,41,58,082,35,49,32,274,37*75
$GLGSV,3,1,11,70,43,347,21,71,56,267,39,72,18,221,08,73,15,164,09*67
$GLGSV,3,2,11,74,15,209,,75,00,254,,83,22,119,27,84,41,056,21*67
$GLGSV,3,3,11,85,20,001,26,,,,31,,,,30*5E
$GNGLL,0419.70200,S,05539.86084,E,114652.00,A,D*6B
$GNGRS,114652.00,1,-0.3,-2.8,2.0,0.6,-1.0,-2.6,1.1,1.5,1.7,,,*71
$GNGRS,114652.00,1,7.9,7.9,8.9,1.9,-2.8,-2.6,,,,,,*52
$GNGST,114652.00,4497,,,,1.5,1.4,2.8*49
$GNZDA,114652.00,19,05,2025,00,00*75
$GNGBS,114652.00,1.5,1.4,2.8,,,,*51
b0X
$Y&#';!N=' D
 $! (PR'{4(Ta&:R& cF+[G+8HIJKSw8T)8U!#bl$GNRMC,114653.00,A,0419.70201,S,05539.86084,E,0.043,,190525,,,D*7F
$GNVTG,,T,,M,0.043,N,0.079,K,D*31
$GNGNS,114653.00,0419.70201,S,05539.86084,E,DA,16,0.61,13.1,-47.6,,0000*6F
$GNGGA,114653.00,0419.70201,S,05539.86084,E,2,12,0.61,13.1,M,-47.6,M,,0000*47
$GNGSA,A,3,29,10,23,32,26,18,28,16,27,,,,1.34,0.61,1.19*1B
$GNGSA,A,3,70,73,83,84,71,85,72,,,,,,1.34,0.61,1.19*1E
$GPGSV,4,1,16,10,23,345,36,16,25,263,35,18,29,059,39,23,08,024,33*76
$GPGSV,4,2,16,24,00,061,,25,06,139,,26,30,232,39,27,26,324,32*78
$GPGSV,4,3,16,28,36,172,32,29,31,143,33,31,22,200,,32,80,338,40*79
$GPGSV,4,4,16,36,52,277,,40,84,353,40,41,58,082,38,49,32,274,38*78
$GLGSV,3,1,11,70,43,347,21,71,56,267,43,72,18,221,08,73,15,164,12*60
$GLGSV,3,2,11,74,15,209,,75,00,254,,83,22,119,30,84,41,056,21*61
$GLGSV,3,3,11,85,20,001,33,,,,35,,,,31*5F
$GNGLL,0419.70201,S,05539.86084,E,114653.00,A,D*6B
$GNGRS,114653.00,1,-2.5,-2.2,0.8,0.4,-0.9,-2.6,3.8,1.6,2.3,,,*71
$GNGRS,114653.00,1,9.7,-57.1,8.2,-0.9,-2.7,-2.7,12.0,,,,,*77
$GNGST,114653.00,39,,,,1.5,1.4,2.8*4C
$GNZDA,114653.00,19,05,2025,00,00*74
$GNGBS,114653.00,1.5,1.4,2.8,,,,*50
b0X
$Y#'; =% D
$  )PR{4(Ta&:R& cF+[AG,8HIJKSwnT)8U!#Zbly$GNRMC,114654.00,A,0419.70202,S,05539.86084,E,0.046,,190525,,,D*7E
$GNVTG,,T,,M,0.046,N,0.085,K,D*37
$GNGNS,114654.00,0419.70202,S,05539.86084,E,DA,16,0.59,13.1,-47.6,,0000*60
$GNGGA,114654.00,0419.70202,S,05539.86084,E,2,12,0.59,13.1,M,-47.6,M,,0000*48
$GNGSA,A,3,29,10,23,32,26,18,28,16,27,,,,1.29,0.59,1.15*10
$GNGSA,A,3,70,73,83,84,71,85,72,,,,,,1.29,0.59,1.15*15
$GPGSV,4,1,16,10,23,345,36,16,25,263,35,18,29,059,39,23,08,024,32*77
$GPGSV,4,2,16,24,00,061,,25,06,139,,26,30,232,37,27,26,324,32*76
$GPGSV,4,3,16,28,36,172,31,29,31,143,32,31,22,200,,32,80,338,41*7A
$GPGSV,4,4,16,36,52,277,,40,84,353,40,41,58,082,38,49,32,274,38*78
$GLGSV,3,1,11,70,43,347,22,71,56,267,44,72,18,221,12,73,15,164,09*65
$GLGSV,3,2,11,74,15,209,,75,00,254,,83,22,119,31,84,41,056,23*62
$GLGSV,3,3,11,85,20,001,33,,,,35,,,,31*5F
$GNGLL,0419.70202,S,05539.86084,E,114654.00,A,D*6F
$GNGRS,114654.00,1,-0.8,-3.6,-1.0,0.2,-0.7,-2.6,-0.2,1.8,2.1,,,*78
$GNGRS,114654.00,1,10.9,7.5,6.2,0.2,-2.4,0.3,11.6,,,,,*5F
$GNGST,114654.00,2886063,,,,1.5,1.4,2.8*70
$GNZDA,114654.00,19,05,2025,00,00*73
$GNGBS,114654.00,1.5,1.4,2.8,,,,*57
b0X
#Y$(; ='!D@
 $  )PR{4(Ta&:R' cF+[G,8HdIJKSwT)8'U!+# iblc$GNRMC,114655.00,A,0419.70201,S,05539.86082,E,0.037,,190525,,,D*7C
$GNVTG,,T,,M,0.037,N,0.068,K,D*32
$GNGNS,114655.00,0419.70201,S,05539.86082,E,DA,16,0.59,13.0,-47.6,,0000*65
$GNGGA,114655.00,0419.70201,S,05539.86082,E,2,12,0.59,13.0,M,-47.6,M,,0000*4D
$GNGSA,A,3,29,10,23,32,26,18,28,16,27,,,,1.29,0.59,1.15*10
$GNGSA,A,3,70,73,83,84,71,85,72,,,,,,1.29,0.59,1.15*15
$GPGSV,4,1,16,10,23,345,35,16,25,263,36,18,29,059,40,23,08,024,32*79
$GPGSV,4,2,16,24,00,061,,25,06,139,,26,30,232,39,27,26,324,33*79
$GPGSV,4,3,16,28,36,172,32,29,31,143,32,31,22,200,,32,80,338,41*79
$GPGSV,4,4,16,36,52,277,,40,84,353,40,41,58,082,38,49,32,274,39*79
$GLGSV,3,1,11,70,43,347,24,71,56,267,44,72,18,221,15,73,15,164,09*64
$GLGSV,3,2,11,74,15,209,,75,00,254,,83,22,119,31,84,41,056,23*62
$GLGSV,3,3,11,85,20,001,33,,,,35,,,,32*5C
$GNGLL,0419.70201,S,05539.86082,E,114655.00,A,D*6B
$GNGRS,114655.00,1,-2.8,2.1,-0.4,-0.1,-0.6,-2.4,4.2,1.9,0.6,,,*55
$GNGRS,114655.00,1,12.8,7.0,4.0,0.4,-2.5,0.4,11.2,,,,,*5C
$GNGST,114655.00,2886063,,,,1.5,1.4,2.8*71
$GNZDA,114655.00,19,05,2025,00,00*72
$GNGBS,114655.00,1.5,1.4,2.8,,,,*56
b0X
#Y!(;="!DL
 $! &PR{4&Ta':R# clF+[DG)8HI
JKSwT)8U!A bl;:$GNRMC,114656.00,A,0419.70199,S,05539.86081,E,0.065,,190525,,,D*79
$GNVTG,,T,,M,0.065,N,0.120,K,D*38
$GNGNS,114656.00,0419.70199,S,05539.86081,E,DA,16,0.61,13.0,-47.6,,0000*6C
$GNGGA,114656.00,0419.70199,S,05539.86081,E,2,12,0.61,13.0,M,-47.6,M,,0000*44
$GNGSA,A,3,29,10,23,32,26,18,28,16,27,,,,1.34,0.61,1.19*1B
$GNGSA,A,3,70,73,83,84,71,85,72,,,,,,1.34,0.61,1.19*1E
$GPGSV,4,1,16,10,23,345,35,16,25,263,33,18,29,059,40,23,08,024,31*7F
$GPGSV,4,2,16,24,00,061,,25,06,139,,26,30,232,34,27,26,324,33*74
$GPGSV,4,3,16,28,36,172,32,29,31,143,33,31,22,200,,32,80,338,38*76
$GPGSV,4,4,16,36,52,277,,40,84,353,38,41,58,082,39,49,32,274,35*7B
$GLGSV,3,1,11,70,43,347,25,71,56,267,41,72,18,221,13,73,15,164,10*6E
$GLGSV,3,2,11,74,15,209,,75,00,254,,83,22,119,23,84,41,056,22*60
$GLGSV,3,3,11,85,20,001,33,,,,32,,,,27*5F
$GNGLL,0419.70199,S,05539.86081,E,114656.00,A,D*69
$GNGRS,114656.00,1,-1.0,1.5,1.6,-0.1,-0.7,-2.4,0.0,1.9,-1.8,,,*51
$GNGRS,114656.00,1,13.5,-41.5,7.0,1.4,-2.6,3.2,10.3,,,,,*4D
$GNGST,114656.00,35,,,,1.5,1.4,2.8*45
$GNZDA,114656.00,19,05,2025,00,00*71
$GNGBS,114656.00,1.5,1.4,2.8,,,,*55
b0X
#Z&;= $D
 $# *PR{4'Ta%:R' cMF+[G(8HIJKSwJT)8U _#bl$GNRMC,114657.00,A,0419.70200,S,05539.86082,E,0.057,,190525,,,D*79
$GNVTG,,T,,M,0.057,N,0.105,K,D*3E
$GNGNS,114657.00,0419.70200,S,05539.86082,E,DA,16,0.59,12.9,-47.6,,0000*6E
$GNGGA,114657.00,0419.70200,S,05539.86082,E,2,12,0.59,12.9,M,-47.6,M,,0000*46
$GNGSA,A,3,29,10,23,32,26,18,28,16,27,,,,1.29,0.59,1.15*10
$GNGSA,A,3,70,73,83,84,71,85,72,,,,,,1.29,0.59,1.15*15
$GPGSV,4,1,16,10,23,346,35,16,25,263,28,18,29,059,38,23,08,024,24*7D
$GPGSV,4,2,16,24,00,061,,25,06,139,,26,30,232,32,27,26,324,36*77
$GPGSV,4,3,16,28,36,172,32,29,31,143,35,31,22,200,,32,80,338,42*7D
$GPGSV,4,4,16,36,52,277,,40,84,353,39,41,58,082,37,49,32,274,39*78
$GLGSV,3,1,11,70,43,347,22,71,56,267,40,72,18,221,18,73,15,164,08*6A
$GLGSV,3,2,11,74,15,209,,75,00,254,,83,22,119,30,84,41,056,21*61
$GLGSV,3,3,11,85,20,001,32,,,,31,,,,27*5D
$GNGLL,0419.70200,S,05539.86082,E,114657.00,A,D*68
$GNGRS,114657.00,1,1.4,-0.4,1.9,-0.3,-0.2,-2.4,-0.4,1.7,-1.1,,,*72
$GNGRS,114657.00,1,14.1,7.7,8.4,2.0,-2.8,6.5,12.0,,,,,*53
$GNGST,114657.00,2885153,,,,1.5,1.4,2.8*72
$GNZDA,114657.00,19,05,2025,00,00*70
$GNGBS,114657.00,1.5,1.4,2.8,,,,*54
b0X
"Z*';="#Dz
 $# )PR{4'Ta&:R& cF+[%G&8HI
JKSwT)8Ubml
$GNRMC,114658.00,A,0419.70203,S,05539.86081,E,0.007,,190525,,,D*73
$GNVTG,,T,,M,0.007,N,0.013,K,D*3D
$GNGNS,114658.00,0419.70203,S,05539.86081,E,DA,16,0.59,12.8,-47.6,,0000*60
$GNGGA,114658.00,0419.70203,S,05539.86081,E,2,12,0.59,12.8,M,-47.6,M,,0000*48
$GNGSA,A,3,29,10,23,32,26,18,28,16,27,,,,1.29,0.59,1.15*10
$GNGSA,A,3,70,73,83,84,71,85,72,,,,,,1.29,0.59,1.15*15
$GPGSV,4,1,16,10,23,346,34,16,25,263,30,18,29,059,39,23,08,024,24*74
$GPGSV,4,2,16,24,00,061,,25,06,139,,26,30,232,34,27,26,324,35*72
$GPGSV,4,3,16,28,36,172,32,29,31,143,35,31,22,200,,32,80,338,41*7E
$GPGSV,4,4,16,36,52,277,,40,84,353,39,41,58,082,38,49,32,274,38*76
$GLGSV,3,1,11,70,43,347,21,71,56,267,38,72,18,221,12,73,15,164,10*65
$GLGSV,3,2,11,74,15,209,,75,00,254,,83,22,119,30,84,41,056,22*62
$GLGSV,3,3,11,85,20,001,27,,,,30,,,,27*58
$GNGLL,0419.70203,S,05539.86081,E,114658.00,A,D*67
$GNGRS,114658.00,1,-0.9,0.4,4.0,-0.5,2.5,-2.7,4.1,2.3,-1.3,,,*79
$GNGRS,114658.00,1,13.2,7.5,9.3,1.9,-2.8,6.5,11.9,,,,,*5C
$GNGST,114658.00,2885160,,,,1.5,1.4,2.8*7D
$GNZDA,114658.00,19,05,2025,00,00*7F
$GNGBS,114658.00,1.5,1.4,2.8,,,,*5B
b0X
"Z|);= $D
$@$ &PR{4%Ta$:R& cF+[6G&8HIJKSwsT)8VUo!f"bUlr$GNRMC,114659.00,A,0419.70202,S,05539.86082,E,0.090,,190525,,,D*7E
$GNVTG,,T,,M,0.090,N,0.166,K,D*30
$GNGNS,114659.00,0419.70202,S,05539.86082,E,DA,16,0.61,12.8,-47.6,,0000*68
$GNGGA,114659.00,0419.70202,S,05539.86082,E,2,12,0.61,12.8,M,-47.6,M,,0000*40
$GNGSA,A,3,29,10,23,32,26,18,28,16,27,,,,1.34,0.61,1.19*1B
$GNGSA,A,3,70,73,83,84,71,85,72,,,,,,1.34,0.61,1.19*1E
$GPGSV,4,1,16,10,23,346,34,16,25,263,28,18,29,059,41,23,08,024,23*75
$GPGSV,4,2,16,24,00,061,,25,06,139,,26,30,232,32,27,26,324,36*77
$GPGSV,4,3,16,28,36,172,26,29,31,143,36,31,22,200,,32,80,338,38*76
$GPGSV,4,4,16,36,52,277,,40,84,353,37,41,58,082,36,49,32,274,38*76
$GLGSV,3,1,11,70,43,347,18,71,56,267,38,72,18,221,15,73,15,164,08*61
$GLGSV,3,2,11,74,15,209,,75,00,254,,83,22,119,30,84,41,056,22*62
$GLGSV,3,3,11,85,20,001,28,,,,33,,,,27*54
$GNGLL,0419.70202,S,05539.86082,E,114659.00,A,D*64
$GNGRS,114659.00,1,-0.5,1.8,-0.8,-0.9,-1.1,-2.8,-1.9,1.2,-0.6,,,*57
$GNGRS,114659.00,1,13.3,-98.2,6.3,3.4,-2.8,8.8,2.7,,,,,*7F
$GNGST,114659.00,44,,,,1.5,1.4,2.9*4D
$GNZDA,114659.00,19,05,2025,00,00*7E
$GNGBS,114659.00,1.5,1.4,2.9,,,,*5B
b0Xp
!Z4!@';*= D
$# (PR{4$Ta%:R( cF+[G'8HIJKSw0T)8Utbp=l$GNRMC,114700.00,A,0419.70203,S,05539.86083,E,0.029,,190525,,,D*71
$GNVTG,,T,,M,0.029,N,0.054,K,D*32
$GNGNS,114700.00,0419.70203,S,05539.86083,E,DA,16,0.59,12.7,-47.6,,0000*61
$GNGGA,114700.00,0419.70203,S,05539.86083,E,2,12,0.59,12.7,M,-47.6,M,,0000*49
$GNGSA,A,3,29,10,23,32,26,18,28,16,27,,,,1.29,0.59,1.15*10
$GNGSA,A,3,70,73,83,84,71,85,72,,,,,,1.29,0.59,1.15*15
$GPGSV,4,1,16,10,23,346,33,16,25,263,33,18,29,059,39,23,08,024,23*77
$GPGSV,4,2,16,24,00,061,,25,06,139,,26,30,232,27,27,26,324,32*77
$GPGSV,4,3,16,28,36,172,28,29,31,143,35,31,22,200,,32,80,338,40*74
$GPGSV,4,4,16,36,52,277,,40,84,353,36,41,58,082,37,49,32,274,40*79
$GLGSV,3,1,11,70,43,347,18,71,56,267,39,72,18,221,19,73,15,164,09*6D
$GLGSV,3,2,11,74,15,209,,75,00,254,,83,22,119,29,84,41,056,23*6B
$GLGSV,3,3,11,85,20,001,30,,,,28,,,,28*58
$GNGLL,0419.70203,S,05539.86083,E,114700.00,A,D*69
$GNGRS,114700.00,1,-0.4,-2.0,-2.1,-1.3,1.7,-2.7,2.5,3.2,-0.4,,,*7B
$GNGRS,114700.00,1,15.0,7.8,8.2,2.3,-2.6,5.3,12.1,,,,,*50
$GNGST,114700.00,2886555,,,,1.5,1.4,2.9*71
$GNZDA,114700.00,19,05,2025,00,00*73
$GNGBS,114700.00,1.5,1.4,2.9,,,,*56
b0XX
"Z$*;{=$!D
#$# )PR{4%Ta':R) cF+[G%8HIJKSwT)8UQ4rbX%lsB$GNRMC,114701.00,A,0419.70204,S,05539.86080,E,0.002,,190525,,,D*7D
$GNVTG,,T,,M,0.002,N,0.005,K,D*3F
$GNGNS,114701.00,0419.70204,S,05539.86080,E,DA,15,0.61,12.5,-47.6,,0000*6E
$GNGGA,114701.00,0419.70204,S,05539.86080,E,2,12,0.61,12.5,M,-47.6,M,,0000*45
$GNGSA,A,3,29,10,23,32,26,18,28,16,27,,,,1.34,0.61,1.19*1B
$GNGSA,A,3,70,83,84,71,85,72,,,,,,,1.34,0.61,1.19*1A
$GPGSV,4,1,16,10,23,346,34,16,25,263,36,18,29,059,42,23,08,024,25*7F
$GPGSV,4,2,16,24,00,061,,25,06,139,,26,30,232,36,27,26,324,33*76
$GPGSV,4,3,16,28,36,172,35,29,31,143,35,31,22,200,,32,80,338,41*79
$GPGSV,4,4,16,36,52,277,,40,84,353,37,41,58,082,39,49,32,274,41*77
$GLGSV,3,1,11,70,43,347,18,71,56,267,37,72,18,221,15,73,15,164,05*63
$GLGSV,3,2,11,74,15,209,,75,00,254,,83,22,119,27,84,41,056,24*62
$GLGSV,3,3,11,85,20,001,30,,,,28,,,,25*55
$GNGLL,0419.70204,S,05539.86080,E,114701.00,A,D*6C
$GNGRS,114701.00,1,-0.3,-0.7,-3.9,-1.3,-0.7,-2.9,1.6,4.2,4.4,,,*7D
$GNGRS,114701.00,1,17.1,10.5,4.1,-2.5,3.4,12.0,,,,,,*4A
$GNGST,114701.00,137905,,,,1.5,1.4,2.9*48
$GNZDA,114701.00,19,05,2025,00,00*72
$GNGBS,114701.00,1.5,1.4,2.9,,,,*57
b0X@
Z*';=! D.
 $  (PR{4$Ta&:R$ cF+[4G(8HIJKSwT)8dU!b@lK$GNRMC,114702.00,A,0419.70203,S,05539.86079,E,0.061,,190525,,,D*7A
$GNVTG,,T,,M,0.061,N,0.113,K,D*3C
$GNGNS,114702.00,0419.70203,S,05539.86079,E,DA,16,0.66,12.4,-47.6,,0000*69
$GNGGA,114702.00,0419.70203,S,05539.86079,E,2,12,0.66,12.4,M,-47.6,M,,0000*41
$GNGSA,A,3,29,10,23,32,26,18,28,16,27,,,,1.43,0.66,1.27*11
$GNGSA,A,3,70,73,83,84,71,85,72,,,,,,1.43,0.66,1.27*14
$GPGSV,4,1,16,10,23,346,29,16,25,263,29,18,29,059,39,23,08,024,26*72
$GPGSV,4,2,16,24,00,061,,25,06,139,,26,30,232,33,27,26,324,32*72
$GPGSV,4,3,16,28,36,172,32,29,31,143,32,31,22,200,,32,80,338,40*78
$GPGSV,4,4,16,36,52,277,,40,84,353,36,41,58,082,38,49,32,274,36*77
$GLGSV,3,1,11,70,43,347,20,71,56,267,40,72,18,221,12,73,15,164,08*62
$GLGSV,3,2,11,74,15,209,,75,00,254,,83,22,119,27,84,41,056,24*62
$GLGSV,3,3,11,85,20,001,30,,,,33,,,,22*58
$GNGLL,0419.70203,S,05539.86079,E,114702.00,A,D*6E
$GNGRS,114702.00,1,-0.3,2.2,-3.2,-1.2,-0.8,-2.8,0.1,0.4,3.0,,,*57
$GNGRS,114702.00,1,15.9,-101,10.4,3.6,-2.5,9.7,-25.4,,,,,*7B
$GNGST,114702.00,35,,,,1.5,1.4,2.9*44
$GNZDA,114702.00,19,05,2025,00,00*71
$GNGBS,114702.00,1.5,1.4,2.9,,,,*54
b0X(
 Zn#';!= 1#D
"$" )PRu{4&Ta(:R& cF+[RG'8H
IJKSwT)8U!#GLb(l"$GNRMC,114703.00,A,0419.70204,S,05539.86078,E,0.046,,190525,,,D*78
$GNVTG,,T,,M,0.046,N,0.086,K,D*34
$GNGNS,114703.00,0419.70204,S,05539.86078,E,DA,15,0.64,12.2,-47.6,,0000*69
$GNGGA,114703.00,0419.70204,S,05539.86078,E,2,12,0.64,12.2,M,-47.6,M,,0000*42
$GNGSA,A,3,29,10,23,32,26,18,28,16,27,,,,1.41,0.64,1.26*10
$GNGSA,A,3,70,83,84,71,85,72,,,,,,,1.41,0.64,1.26*11
$GPGSV,4,1,16,10,23,346,32,16,25,262,35,18,29,059,39,23,08,024,33*70
$GPGSV,4,2,16,24,00,061,,25,06,139,,26,30,232,32,27,26,324,35*74
$GPGSV,4,3,16,28,36,172,34,29,31,143,34,31,22,200,,32,80,338,41*79
$GPGSV,4,4,16,36,52,277,,40,84,353,38,41,58,082,40,49,32,274,38*78
$GLGSV,3,1,11,70,43,347,23,71,56,267,39,72,18,221,10,73,15,164,06*63
$GLGSV,3,2,11,74,15,209,,75,00,254,,83,22,119,27,84,41,056,23*65
$GLGSV,3,3,11,85,20,001,33,,,,35,,,,18*54
$GNGLL,0419.70204,S,05539.86078,E,114703.00,A,D*69
$GNGRS,114703.00,1,-0.3,3.7,-0.8,-1.4,-2.1,-2.8,1.9,1.9,-1.3,,,*7F
$GNGRS,114703.00,1,16.2,11.6,2.8,-2.4,4.2,11.9,,,,,,*4D
$GNGST,114703.00,3071473,,,,1.6,1.4,3.0*7D
$GNZDA,114703.00,19,05,2025,00,00*70
$GNGBS,114703.00,1.6,1.4,3.0,,,,*5E
b0X
"Z';=Z"D^
"$B (PR{4&Ta):R$ clF+[FG(8HIJKSwT)8U!]blw$GNRMC,114704.00,A,0419.70205,S,05539.86078,E,0.074,,190525,,,D*7F
$GNVTG,,T,,M,0.074,N,0.137,K,D*3E
$GNGNS,114704.00,0419.70205,S,05539.86078,E,DA,16,0.59,12.1,-47.6,,0000*61
$GNGGA,114704.00,0419.70205,S,05539.86078,E,2,12,0.59,12.1,M,-47.6,M,,0000*49
$GNGSA,A,3,29,10,23,32,26,18,28,16,27,,,,1.29,0.59,1.15*10
$GNGSA,A,3,70,73,83,84,71,85,72,,,,,,1.29,0.59,1.15*15
$GPGSV,4,1,16,10,23,346,34,16,25,262,25,18,29,059,39,23,08,024,28*7D
$GPGSV,4,2,16,24,00,061,,25,06,139,,26,30,232,31,27,26,324,34*76
$GPGSV,4,3,16,28,36,172,34,29,31,143,31,31,22,200,,32,80,338,40*7D
$GPGSV,4,4,16,36,52,277,,40,84,353,38,41,58,082,41,49,32,274,36*77
$GLGSV,3,1,11,70,43,347,23,71,56,267,40,72,18,221,17,73,15,164,11*6C
$GLGSV,3,2,11,74,15,209,,75,00,254,,83,22,119,27,84,41,056,25*63
$GLGSV,3,3,11,85,20,001,33,,,,30,,,,19*50
$GNGLL,0419.70205,S,05539.86078,E,114704.00,A,D*6F
$GNGRS,114704.00,1,-0.2,1.7,-2.7,-1.2,0.9,-3.0,0.7,1.9,0.9,,,*77
$GNGRS,114704.00,1,16.1,7.1,11.7,1.7,-2.5,-1.6,11.7,,,,,*4F
$GNGST,114704.00,4080214,,,,1.6,1.4,3.0*74
$GNZDA,114704.00,19,05,2025,00,00*77
$GNGBS,114704.00,1.6,1.4,3.0,,,,*59
b0X
"Z$G(<!="ADY
#$! *PR{4(Ta(:R$ "cF+[G&8HIJKSwT)8U bl$GNRMC,114705.00,A,0419.70205,S,05539.86080,E,0.052,,190525,,,D*7D
$GNVTG,,T,,M,0.052,N,0.097,K,D*31
$GNGNS,114705.00,0419.70205,S,05539.86080,E,DA,16,0.61,12.1,-47.6,,0000*6C
$GNGGA,114705.00,0419.70205,S,05539.86080,E,2,12,0.61,12.1,M,-47.6,M,,0000*44
$GNGSA,A,3,29,10,23,32,26,18,28,16,27,,,,1.34,0.61,1.19*1B
$GNGSA,A,3,70,73,83,84,71,85,72,,,,,,1.34,0.61,1.19*1E
$GPGSV,4,1,16,10,23,346,34,16,25,262,36,18,29,060,40,23,08,024,33*71
$GPGSV,4,2,16,24,00,061,,25,06,139,,26,30,232,34,27,26,324,30*77
$GPGSV,4,3,16,28,36,172,35,29,31,143,33,31,22,200,,32,80,338,42*7C
$GPGSV,4,4,16,36,52,277,,40,84,353,40,41,58,082,40,49,32,274,36*79
$GLGSV,3,1,11,70,43,347,23,71,56,267,38,72,18,221,12,73,15,164,12*65
$GLGSV,3,2,11,74,15,209,,75,00,254,,83,22,119,30,84,41,056,24*64
$GLGSV,3,3,11,85,20,001,32,,,,29,,,,29*5A
$GNGLL,0419.70205,S,05539.86080,E,114705.00,A,D*69
$GNGRS,114705.00,1,-0.4,4.1,-2.5,-1.1,-4.5,-2.9,1.6,-1.8,0.9,,,*73
$GNGRS,114705.00,1,16.6,-97.3,7.0,-0.4,-2.4,-4.9,9.4,,,,,*71
$GNGST,114705.00,39,,,,1.6,1.4,3.0*44
$GNZDA,114705.00,19,05,2025,00,00*76
$GNGBS,114705.00,1.6,1.4,3.0,,,,*58
b0X
%Z$(<#=({$D
!$'! *PR{4)Ta&:R( cF+[G)8:HIJKSwT)8<U|blF$GNRMC,114706.00,A,0419.70207,S,05539.86079,E,0.069,,190525,,,D*72
$GNVTG,,T,,M,0.069,N,0.128,K,D*3C
$GNGNS,114706.00,0419.70207,S,05539.86079,E,DA,16,0.59,12.1,-47.6,,0000*60
$GNGGA,114706.00,0419.70207,S,05539.86079,E,2,12,0.59,12.1,M,-47.6,M,,0000*48
$GNGSA,A,3,29,10,23,32,26,18,28,16,27,,,,1.29,0.59,1.15*10
$GNGSA,A,3,70,73,83,84,71,85,72,,,,,,1.29,0.59,1.15*15
$GPGSV,4,1,16,10,23,346,37,16,25,262,36,18,29,060,40,23,08,024,35*74
$GPGSV,4,2,16,24,00,061,,25,06,139,,26,30,232,40,27,26,324,36*72
$GPGSV,4,3,16,28,36,172,33,29,31,143,33,31,22,200,,32,80,338,42*7A
$GPGSV,4,4,16,36,52,277,,40,84,353,41,41,58,082,38,49,32,274,40*76
$GLGSV,3,1,11,70,43,347,22,71,56,267,41,72,18,221,16,73,15,164,09*64
$GLGSV,3,2,11,74,15,209,,75,00,254,,83,22,119,29,84,41,056,23*6B
$GLGSV,3,3,11,85,20,001,29,,,,30,,,,28*59
$GNGLL,0419.70207,S,05539.86079,E,114706.00,A,D*6E
$GNGRS,114706.00,1,-0.9,-0.9,-7.9,-1.2,-1.3,-2.8,0.4,-0.7,0.2,,,*52
$GNGRS,114706.00,1,16.9,7.9,5.4,0.6,-2.0,0.0,12.1,,,,,*51
$GNGST,114706.00,2885219,,,,1.5,1.4,2.9*7B
$GNZDA,114706.00,19,05,2025,00,00*75
$GNGBS,114706.00,1.5,1.4,2.9,,,,*50
b0X
&Z%y&<"i=$'$D
!$4 M *PR{4)Ta(:R( ciF+[bG)8?HIJKSw6T)8U bl$GNRMC,114707.00,A,0419.70210,S,05539.86078,E,0.039,,190525,,,D*71
$GNVTG,,T,,M,0.039,N,0.072,K,D*37
$GNGNS,114707.00,0419.70210,S,05539.86078,E,DA,16,0.59,11.9,-47.6,,0000*6D
