b0@
 \i">.#[
#B>&\ 'MYL{&4(Ta&:R dkF(]G$8NH
@IJKSzT+<iU"!buqn$GNRMC,115239.00,A,0419.70774,S,05539.86095,E,0.108,,190525,,,D*7F
$GNVTG,,T,,M,0.108,N,0.199,K,D*30
$GNGNS,115239.00,0419.70774,S,05539.86095,E,DA,15,0.61,14.7,-47.6,,0000*63
$GNGGA,115239.00,0419.70774,S,05539.86095,E,2,12,0.61,14.7,M,-47.6,M,,0000*48
$GNGSA,A,3,29,10,23,32,18,31,16,27,,,,,1.34,0.61,1.20*1D
$GNGSA,A,3,70,73,83,84,71,85,72,,,,,,1.34,0.61,1.20*14
$GPGSV,4,1,15,10,22,348,32,16,25,260,34,18,30,062,31,23,07,026,35*7C
$GPGSV,4,2,15,25,05,137,,26,30,229,,27,29,322,35,28,38,170,*7E
$GPGSV,4,3,15,29,28,144,15,31,23,198,13,32,77,345,39,36,52,277,38*7D
$GPGSV,4,4,15,40,84,353,40,41,58,082,38,49,32,274,*40
$GLGSV,3,1,10,70,40,349,25,71,56,272,36,72,20,223,10,73,15,161,09*61
$GLGSV,3,2,10,74,15,207,,75,00,252,,83,21,122,15,84,43,060,21*63
$GLGSV,3,3,10,85,22,002,34,,,,33*5C
$GNGLL,0419.70774,S,05539.86095,E,115239.00,A,D*65
$GNGRS,115239.00,1,12.3,1.0,3.5,0.8,-4.7,16.3,5.2,-1.9,,,,*5A
$GNGRS,115239.00,1,7.3,7.9,12.0,13.9,-4.3,-2.5,10.9,,,,,*49
$GNGST,115239.00,393220,,,,3.4,2.6,4.1*4B
$GNZDA,115239.00,19,05,2025,00,00*7D
$GNGBS,115239.00,3.4,2.6,4.1,,,,*54
b0@
\t>
BE&= !MYh{"4%Ta#:R dF(]G8H2I
JKSzT+<Ub]qF$GNRMC,115240.00,A,0419.70774,S,05539.86097,E,0.085,,190525,,,D*77
$GNVTG,,T,,M,0.085,N,0.158,K,D*39
$GNGNS,115240.00,0419.70774,S,05539.86097,E,DA,15,0.61,14.7,-47.6,,0000*6F
$GNGGA,115240.00,0419.70774,S,05539.86097,E,2,12,0.61,14.7,M,-47.6,M,,0000*44
$GNGSA,A,3,29,10,23,32,18,31,16,27,,,,,1.34,0.61,1.20*1D
$GNGSA,A,3,70,73,83,84,71,85,72,,,,,,1.34,0.61,1.20*14
$GPGSV,4,1,15,10,22,348,26,16,25,260,30,18,30,062,24,23,07,026,30*7C
$GPGSV,4,2,15,25,05,137,,26,30,229,15,27,29,322,31,28,38,170,*7E
$GPGSV,4,3,15,29,28,144,12,31,23,198,08,32,77,345,33,36,52,277,34*76
$GPGSV,4,4,15,40,84,353,37,41,58,082,35,49,32,274,*4D
$GLGSV,3,1,10,70,40,349,21,71,56,272,31,72,20,223,11,73,15,161,12*69
$GLGSV,3,2,10,74,15,207,,75,00,252,,83,21,122,09,84,43,060,18*64
$GLGSV,3,3,10,85,22,002,26,,,,26*5B
$GNGLL,0419.70774,S,05539.86097,E,115240.00,A,D*69
$GNGRS,115240.00,1,12.2,1.6,5.2,1.0,-6.0,16.0,3.7,-1.9,,,,*5E
$GNGRS,115240.00,1,6.6,7.8,12.0,16.8,-4.9,0.1,10.7,,,,,*69
$GNGST,115240.00,395777,,,,3.5,2.6,4.1*45
$GNZDA,115240.00,19,05,2025,00,00*73
$GNGBS,115240.00,3.5,2.6,4.1,,,,*5B
b0@x
#\%>%
#BF& +MYv{&4+Ta):R dcF(]kG$8jH
I
s+JKSzhT+<gU#+#kbxEq$GNRMC,115241.00,A,0419.70779,S,05539.86098,E,0.119,,190525,,,D*70
$GNVTG,,T,,M,0.119,N,0.221,K,D*30
$GNGNS,115241.00,0419.70779,S,05539.86098,E,DA,15,0.72,14.6,-47.6,,0000*6F
$GNGGA,115241.00,0419.70779,S,05539.86098,E,2,12,0.72,14.6,M,-47.6,M,,0000*44
$GNGSA,A,3,29,10,23,32,18,31,16,27,,,,,1.45,0.72,1.26*1F
$GNGSA,A,3,70,73,83,84,71,85,72,,,,,,1.45,0.72,1.26*16
$GPGSV,4,1,15,10,22,348,35,16,25,260,37,18,30,062,25,23,07,026,37*7F
$GPGSV,4,2,15,25,05,137,,26,30,229,13,27,29,322,35,28,38,170,*7C
$GPGSV,4,3,15,29,28,144,09,31,23,198,09,32,77,345,43,36,52,277,38*76
$GPGSV,4,4,15,40,84,353,43,41,58,082,41,49,32,274,*4D
$GLGSV,3,1,10,70,40,349,21,71,56,272,36,72,20,223,10,73,15,161,10*6D
$GLGSV,3,2,10,74,15,207,,75,00,252,,83,21,122,15,84,43,060,17*66
$GLGSV,3,3,10,85,22,002,35,,,,35*5B
$GNGLL,0419.70779,S,05539.86098,E,115241.00,A,D*6A
$GNGRS,115241.00,1,20.2,-2.5,4.1,1.2,-3.5,-8.8,4.4,0.7,,,,*4F
$GNGRS,115241.00,1,6.2,111,1.0,18.9,-6.6,0.4,-87.1,,,,,*6C
$GNGST,115241.00,60,,,,3.4,2.6,4.1*4B
$GNZDA,115241.00,19,05,2025,00,00*72
$GNGBS,115241.00,3.4,2.6,4.1,,,,*5B
b0@`!
!\%`>"K
#BV&n
Y +MY2{&4+Ta):R dF(]G$8@H-IJKSzT+<U#
"b`!-r$GNRMC,115242.00,A,0419.70783,S,05539.86098,E,0.031,,190525,,,D*7D
$GNVTG,,T,,M,0.031,N,0.058,K,D*37
$GNGNS,115242.00,0419.70783,S,05539.86098,E,DA,15,0.61,14.5,-47.6,,0000*68
$GNGGA,115242.00,0419.70783,S,05539.86098,E,2,12,0.61,14.5,M,-47.6,M,,0000*43
$GNGSA,A,3,29,10,23,32,18,31,16,27,,,,,1.34,0.61,1.20*1D
$GNGSA,A,3,70,73,83,84,71,85,72,,,,,,1.34,0.61,1.20*14
$GPGSV,4,1,15,10,22,348,33,16,25,260,37,18,30,062,28,23,07,026,34*77
$GPGSV,4,2,15,25,05,137,,26,30,229,13,27,29,322,35,28,38,170,*7C
$GPGSV,4,3,15,29,28,144,13,31,23,198,10,32,77,345,43,36,52,277,38*75
$GPGSV,4,4,15,40,84,353,43,41,58,082,41,49,32,274,*4D
$GLGSV,3,1,10,70,40,349,21,71,56,272,36,72,20,223,09,73,15,161,08*6C
$GLGSV,3,2,10,74,15,207,,75,00,252,,83,21,122,15,84,43,060,18*69
$GLGSV,3,3,10,85,22,002,35,,,,34*5A
$GNGLL,0419.70783,S,05539.86098,E,115242.00,A,D*6C
$GNGRS,115242.00,1,11.3,2.0,3.3,0.5,-3.5,16.2,3.5,-1.7,,,,*56
$GNGRS,115242.00,1,3.8,7.5,11.7,17.6,-4.5,0.1,10.7,,,,,*6A
$GNGST,115242.00,5152961,,,,3.4,2.6,4.0*72
$GNZDA,115242.00,19,05,2025,00,00*71
$GNGBS,115242.00,3.4,2.6,4.0,,,,*59
b0@H%
!\4%G>#
#B&.@ +MYC{&4+Ta):R d!F(]lG$8HIJKSzT+<U#!bH%rR$GNRMC,115243.00,A,0419.70784,S,05539.86092,E,0.037,,190525,,,D*77
$GNVTG,,T,,M,0.037,N,0.068,K,D*32
$GNGNS,115243.00,0419.70784,S,05539.86092,E,DA,15,0.61,14.4,-47.6,,0000*65
$GNGGA,115243.00,0419.70784,S,05539.86092,E,2,12,0.61,14.4,M,-47.6,M,,0000*4E
$GNGSA,A,3,29,10,23,32,18,31,16,27,,,,,1.34,0.61,1.20*1D
$GNGSA,A,3,70,73,83,84,71,85,72,,,,,,1.34,0.61,1.20*14
$GPGSV,4,1,15,10,22,348,33,16,25,260,37,18,30,062,30,23,07,026,35*7F
$GPGSV,4,2,15,25,05,137,,26,30,229,12,27,29,322,35,28,38,170,*7D
$GPGSV,4,3,15,29,28,144,11,31,23,198,09,32,77,345,43,36,52,277,38*7F
$GPGSV,4,4,15,40,84,353,43,41,58,082,41,49,32,274,*4D
$GLGSV,3,1,10,70,40,349,23,71,56,272,36,72,20,223,11,73,15,161,12*6C
$GLGSV,3,2,10,74,15,207,,75,00,252,,83,21,122,13,84,43,060,17*60
$GLGSV,3,3,10,85,22,002,35,,,,33*5D
$GNGLL,0419.70784,S,05539.86092,E,115243.00,A,D*60
$GNGRS,115243.00,1,10.7,0.5,7.1,0.7,-8.2,16.0,5.8,0.1,,,,*7E
$GNGRS,115243.00,1,3.6,7.2,11.5,15.1,-3.6,2.0,10.4,,,,,*61
$GNGST,115243.00,5155290,,,,3.4,2.6,4.0*71
$GNZDA,115243.00,19,05,2025,00,00*70
$GNGBS,115243.00,3.4,2.6,4.0,,,,*58
b0@0)
\Q$>S 
 B&Z9 *MYA{%4*Ta':R dF(]G8HpIgJKSz@T+<U==b0)
r$GNRMC,115244.00,A,0419.70784,S,05539.86087,E,0.119,,190525,,,D*79
$GNVTG,,T,,M,0.119,N,0.221,K,D*30
$GNGNS,115244.00,0419.70784,S,05539.86087,E,DA,15,0.73,14.4,-47.6,,0000*65
$GNGGA,115244.00,0419.70784,S,05539.86087,E,2,12,0.73,14.4,M,-47.6,M,,0000*4E
$GNGSA,A,3,29,10,23,32,26,18,31,16,27,,,,1.48,0.73,1.28*19
$GNGSA,A,3,70,83,84,71,85,72,,,,,,,1.48,0.73,1.28*10
$GPGSV,4,1,15,10,22,348,30,16,25,260,36,18,30,062,29,23,07,026,32*72
$GPGSV,4,2,15,25,05,137,,26,30,229,13,27,29,322,32,28,38,170,20*79
$GPGSV,4,3,15,29,28,144,11,31,23,198,12,32,77,345,42,36,52,277,37*7B
$GPGSV,4,4,15,40,84,353,42,41,58,082,39,49,32,274,*43
$GLGSV,3,1,10,70,40,349,22,71,56,272,30,72,20,223,08,73,15,161,06*66
$GLGSV,3,2,10,74,15,207,,75,00,252,,83,21,122,12,84,43,060,16*60
$GLGSV,3,3,10,85,22,002,27,,,,28*54
$GNGLL,0419.70784,S,05539.86087,E,115244.00,A,D*63
$GNGRS,115244.00,1,-37.1,0.8,5.0,0.7,-11.2,-6.8,32.1,5.3,1.9,,,*69
$GNGRS,115244.00,1,4.0,10.9,17.5,-3.2,0.6,54.9,,,,,,*4A
$GNGST,115244.00,56,,,,3.4,2.6,3.9*44
$GNZDA,115244.00,19,05,2025,00,00*77
$GNGBS,115244.00,3.4,2.6,3.9,,,,*51
b0@-
#\$>F$(
!BI&5jb )MY{'4+Ta(:R dVF(]G%8H<I
JKSzT+<FU! sb-r~$GNRMC,115245.00,A,0419.70779,S,05539.86082,E,0.123,,190525,,,D*76
$GNVTG,,T,,M,0.123,N,0.228,K,D*30
$GNGNS,115245.00,0419.70779,S,05539.86082,E,DA,15,0.61,14.3,-47.6,,0000*67
$GNGGA,115245.00,0419.70779,S,05539.86082,E,2,12,0.61,14.3,M,-47.6,M,,0000*4C
$GNGSA,A,3,29,10,23,32,18,31,16,27,,,,,1.34,0.61,1.20*1D
$GNGSA,A,3,70,73,83,84,71,85,72,,,,,,1.34,0.61,1.20*14
$GPGSV,4,1,15,10,22,348,35,16,25,260,36,18,30,062,29,23,07,026,36*73
$GPGSV,4,2,15,25,05,137,,26,30,229,,27,29,322,33,28,38,170,17*7E
$GPGSV,4,3,15,29,28,144,11,31,23,198,11,32,77,345,41,36,52,277,39*75
$GPGSV,4,4,15,40,84,353,43,41,58,082,40,49,32,274,*4C
$GLGSV,3,1,10,70,40,349,23,71,56,274,37,72,20,223,08,73,15,161,10*61
$GLGSV,3,2,10,74,15,207,,75,00,252,,83,21,122,16,84,43,060,16*64
$GLGSV,3,3,10,85,22,002,33,,,,32*5A
$GNGLL,0419.70779,S,05539.86082,E,115245.00,A,D*65
$GNGRS,115245.00,1,11.3,2.8,5.5,-0.2,-9.5,16.3,4.3,3.3,,,,*52
$GNGRS,115245.00,1,4.6,7.8,12.0,18.6,-3.8,-1.1,10.8,,,,,*4B
$GNGST,115245.00,4209140,,,,3.4,2.6,3.9*7C
$GNZDA,115245.00,19,05,2025,00,00*76
$GNGBS,115245.00,3.4,2.6,3.9,,,,*50
b0@1
#\'>&(
$B&6VL +MYC{(4,Ta+:R dHF(]eG%8H*IJKSzT+<U"Nb1rV$GNRMC,115246.00,A,0419.70777,S,05539.86079,E,0.079,,190525,,,D*71
$GNVTG,,T,,M,0.079,N,0.147,K,D*34
$GNGNS,115246.00,0419.70777,S,05539.86079,E,DA,15,0.61,14.3,-47.6,,0000*6E
$GNGGA,115246.00,0419.70777,S,05539.86079,E,2,12,0.61,14.3,M,-47.6,M,,0000*45
$GNGSA,A,3,29,10,23,32,18,31,16,27,,,,,1.34,0.61,1.20*1D
$GNGSA,A,3,70,73,83,84,71,85,72,,,,,,1.34,0.61,1.20*14
$GPGSV,4,1,15,10,22,348,35,16,25,260,39,18,30,062,28,23,07,026,38*73
$GPGSV,4,2,15,25,05,137,,26,30,229,,27,29,322,36,28,38,170,13*7F
$GPGSV,4,3,15,29,28,144,16,31,23,198,09,32,77,345,43,36,52,277,40*77
$GPGSV,4,4,15,40,84,353,44,41,58,082,43,49,32,274,*48
$GLGSV,3,1,10,70,40,349,22,71,56,274,37,72,20,223,12,73,15,161,09*63
$GLGSV,3,2,10,74,15,207,,75,00,252,,83,21,122,17,84,43,060,17*64
$GLGSV,3,3,10,85,22,002,34,,,,31*5E
$GNGLL,0419.70777,S,05539.86079,E,115246.00,A,D*6C
$GNGRS,115246.00,1,11.1,2.4,5.5,0.7,-8.7,16.1,2.2,-0.8,,,,*54
$GNGRS,115246.00,1,6.1,7.8,11.9,19.7,-3.5,-1.0,10.7,,,,,*44
$GNGST,115246.00,5151021,,,,3.3,2.6,3.9*71
$GNZDA,115246.00,19,05,2025,00,00*75
$GNGBS,115246.00,3.3,2.6,3.9,,,,*54
b0@4
#\%>$$
$B8&4k +MY {(4,Ta):R dF(]G&8HIU<JKSzT+<=U#+ \b4r-$GNRMC,115247.00,A,0419.70772,S,05539.86077,E,0.133,,190525,,,D*74
$GNVTG,,T,,M,0.133,N,0.246,K,D*39
$GNGNS,115247.00,0419.70772,S,05539.86077,E,DA,14,0.82,14.3,-47.6,,0000*68
$GNGGA,115247.00,0419.70772,S,05539.86077,E,2,12,0.82,14.3,M,-47.6,M,,0000*42
$GNGSA,A,3,29,10,23,32,18,31,16,27,,,,,1.64,0.82,1.42*11
$GNGSA,A,3,70,73,83,84,71,85,,,,,,,1.64,0.82,1.42*1D
$GPGSV,4,1,15,10,22,348,35,16,25,260,37,18,30,062,27,23,07,026,36*7C
$GPGSV,4,2,15,25,05,137,,26,30,229,17,27,29,322,36,28,38,170,12*78
$GPGSV,4,3,15,29,28,144,14,31,23,198,11,32,77,345,43,36,52,277,40*7C
$GPGSV,4,4,15,40,84,353,44,41,58,082,41,49,32,274,*4A
$GLGSV,3,1,10,70,40,349,24,71,56,274,38,72,20,223,06,73,15,161,09*6F
$GLGSV,3,2,10,74,15,207,,75,00,252,,83,21,122,11,84,43,060,17*62
$GLGSV,3,3,10,85,22,002,35,,,,32*5C
$GNGLL,0419.70772,S,05539.86077,E,115247.00,A,D*66
$GNGRS,115247.00,1,-5.3,0.0,5.5,0.3,-11.3,-27.1,2.5,0.6,,,,*7A
$GNGRS,115247.00,1,6.7,154,12.0,21.1,-3.7,-2.1,,,,,,*4D
$GNGST,115247.00,51,,,,3.3,2.5,3.8*45
$GNZDA,115247.00,19,05,2025,00,00*74
$GNGBS,115247.00,3.3,2.5,3.8,,,,*57
b0@8
!\&>"
H"B&i3g[ +MY{&4+Ta):R d'F(]G&8H7IJKSzBT+<U# b8rH$GNRMC,115248.00,A,0419.70772,S,05539.86075,E,0.061,,190525,,,D*7F
$GNVTG,,T,,M,0.061,N,0.113,K,D*3C
$GNGNS,115248.00,0419.70772,S,05539.86075,E,DA,15,0.63,14.3,-47.6,,0000*6B
$GNGGA,115248.00,0419.70772,S,05539.86075,E,2,12,0.63,14.3,M,-47.6,M,,0000*40
$GNGSA,A,3,29,10,23,32,18,31,16,27,,,,,1.42,0.63,1.28*16
$GNGSA,A,3,70,73,83,84,71,85,72,,,,,,1.42,0.63,1.28*1F
$GPGSV,4,1,15,10,22,348,33,16,25,260,38,18,30,062,27,23,07,026,34*77
$GPGSV,4,2,15,25,05,137,,26,30,229,15,27,29,322,34,28,38,170,11*7B
$GPGSV,4,3,15,29,28,144,11,31,23,198,11,32,77,345,43,36,52,277,38*76
$GPGSV,4,4,15,40,84,353,43,41,58,082,41,49,32,274,*4D
$GLGSV,3,1,10,70,40,349,25,71,56,274,38,72,20,223,09,73,15,161,09*61
$GLGSV,3,2,10,74,15,206,,75,00,252,,83,21,122,16,84,43,060,18*6B
$GLGSV,3,3,10,85,22,002,35,,,,32*5C
$GNGLL,0419.70772,S,05539.86075,E,115248.00,A,D*6B
$GNGRS,115248.00,1,11.3,-0.7,7.7,0.2,-10.1,16.3,2.4,0.2,,,,*6D
$GNGRS,115248.00,1,7.1,7.6,13.5,22.0,-2.7,-2.8,10.8,,,,,*43
$GNGST,115248.00,4347179,,,,3.3,2.5,3.8*75
$GNZDA,115248.00,19,05,2025,00,00*7B
$GNGBS,115248.00,3.3,2.5,3.8,,,,*58
b0@<
!\&X>#C
"B&I5|D +MY2{'4,Ta):R dF(] G&8H+IJKSzT+<0U$
 Fb<r$GNRMC,115249.00,A,0419.70771,S,05539.86073,E,0.042,,190525,,,D*7A
$GNVTG,,T,,M,0.042,N,0.078,K,D*31
$GNGNS,115249.00,0419.70771,S,05539.86073,E,DA,15,0.63,14.3,-47.6,,0000*6F
$GNGGA,115249.00,0419.70771,S,05539.86073,E,2,12,0.63,14.3,M,-47.6,M,,0000*44
$GNGSA,A,3,29,10,23,32,18,31,16,27,,,,,1.42,0.63,1.28*16
$GNGSA,A,3,70,73,83,84,71,85,72,,,,,,1.42,0.63,1.28*1F
$GPGSV,4,1,15,10,22,348,33,16,25,260,38,18,30,062,27,23,07,026,35*76
$GPGSV,4,2,15,25,05,137,,26,30,229,14,27,29,322,34,28,38,170,08*72
$GPGSV,4,3,15,29,28,144,12,31,23,198,12,32,77,345,43,36,52,277,39*77
$GPGSV,4,4,15,40,84,353,44,41,58,082,41,49,32,274,*4A
$GLGSV,3,1,10,70,40,349,25,71,56,274,38,72,20,223,09,73,15,161,11*68
$GLGSV,3,2,10,74,15,206,,75,00,251,,83,21,122,18,84,43,060,18*66
$GLGSV,3,3,10,85,22,002,36,,,,32*5F
$GNGLL,0419.70771,S,05539.86073,E,115249.00,A,D*6F
$GNGRS,115249.00,1,11.5,-0.2,5.8,0.5,-10.1,16.0,3.4,1.9,,,,*6D
$GNGRS,115249.00,1,8.0,7.4,12.5,21.0,-2.8,0.1,10.7,,,,,*6A
$GNGST,115249.00,5319950,,,,3.2,2.5,3.7*73
$GNZDA,115249.00,19,05,2025,00,00*7A
$GNGBS,115249.00,3.2,2.5,3.7,,,,*57
b0@@
!\$,>M"
y"BG&<5ti? )MYE{%4*Ta(:R dF(]G&8MH;2I
JKSz6T+<eU$ b@m"r$GNRMC,115250.00,A,0419.70769,S,05539.86072,E,0.104,,190525,,,D*79
$GNVTG,,T,,M,0.104,N,0.192,K,D*37
$GNGNS,115250.00,0419.70769,S,05539.86072,E,DA,15,0.82,14.3,-47.6,,0000*60
$GNGGA,115250.00,0419.70769,S,05539.86072,E,2,12,0.82,14.3,M,-47.6,M,,0000*4B
$GNGSA,A,3,29,10,23,32,18,31,16,27,,,,,1.64,0.82,1.42*11
$GNGSA,A,3,70,73,83,84,71,85,72,,,,,,1.64,0.82,1.42*18
$GPGSV,4,1,15,10,22,348,33,16,25,260,36,18,30,062,27,23,07,026,34*79
$GPGSV,4,2,15,25,05,137,,26,30,229,14,27,29,322,34,28,38,170,07*7D
$GPGSV,4,3,15,29,28,144,15,31,23,198,09,32,77,345,41,36,52,277,37*76
$GPGSV,4,4,15,40,84,353,42,41,58,082,40,49,32,274,*4D
$GLGSV,3,1,10,70,40,349,24,71,56,274,38,72,20,223,09,73,15,161,10*68
$GLGSV,3,2,10,74,15,206,,75,00,251,,83,21,122,18,84,43,060,18*66
$GLGSV,3,3,10,85,22,002,36,,,,32*5F
$GNGLL,0419.70769,S,05539.86072,E,115250.00,A,D*6F
$GNGRS,115250.00,1,11.4,1.5,4.0,0.7,-9.5,162,3.0,-1.9,,,,*7D
$GNGRS,115250.00,1,7.1,-140,10.8,21.5,-1.8,-1.0,129,,,,,*5F
$GNGST,115250.00,41,,,,3.2,2.5,3.7*4C
$GNZDA,115250.00,19,05,2025,00,00*72
$GNGBS,115250.00,3.2,2.5,3.7,,,,*5F
b0@D
$\F& >%
)#B&5
Z ,MYH{(4-Ta+:R d;F(]G$8H(IJKSzZT+<&U!Z#bDU&r$GNRMC,115251.00,A,0419.70770,S,05539.86068,E,0.066,,190525,,,D*7E
$GNVTG,,T,,M,0.066,N,0.121,K,D*3A
$GNGNS,115251.00,0419.70770,S,05539.86068,E,DA,16,0.63,14.3,-47.6,,0000*6E
$GNGGA,115251.00,0419.70770,S,05539.86068,E,2,12,0.63,14.3,M,-47.6,M,,0000*46
$GNGSA,A,3,29,10,23,32,26,18,31,16,27,,,,1.42,0.63,1.28*12
$GNGSA,A,3,70,73,83,84,71,85,72,,,,,,1.42,0.63,1.28*1F
$GPGSV,4,1,15,10,22,348,36,16,25,260,38,18,30,062,32,23,07,026,37*75
$GPGSV,4,2,15,25,05,137,,26,30,229,14,27,29,322,35,28,38,170,07*7C
$GPGSV,4,3,15,29,28,144,15,31,23,198,10,32,77,345,44,36,52,277,40*7B
$GPGSV,4,4,15,40,84,353,45,41,58,082,43,49,32,274,*49
$GLGSV,3,1,10,70,40,349,23,71,56,274,36,72,20,223,09,73,15,161,09*69
$GLGSV,3,2,10,74,15,206,,75,00,251,,83,21,122,18,84,43,060,17*69
$GLGSV,3,3,10,85,22,002,33,,,,35*5D
$GNGLL,0419.70770,S,05539.86068,E,115251.00,A,D*6D
$GNGRS,115251.00,1,11.7,0.7,4.6,0.7,-22.6,-10.8,16.3,2.7,0.0,,,*76
$GNGRS,115251.00,1,6.4,7.6,8.6,20.9,-2.3,-1.7,10.6,,,,,*7B
$GNGST,115251.00,3096938,,,,3.2,2.5,3.7*76
$GNZDA,115251.00,19,05,2025,00,00*73
$GNGBS,115251.00,3.2,2.5,3.7,,,,*5E
b0@pH
\>V5I
B&6I MY{4 Ta:R d,F(]G8H

IJKSzuT+<U:bpH=*re$GNRMC,115252.00,A,0419.70764,S,05539.86063,E,0.402,,190525,,,D*75
$GNVTG,,T,,M,0.402,N,0.745,K,D*38
$GNGNS,115252.00,0419.70764,S,05539.86063,E,DA,16,0.61,14.3,-47.6,,0000*61
$GNGGA,115252.00,0419.70764,S,05539.86063,E,2,12,0.61,14.3,M,-47.6,M,,0000*49
$GNGSA,A,3,29,10,23,32,26,18,31,16,27,,,,1.34,0.61,1.20*19
$GNGSA,A,3,70,73,83,84,71,85,72,,,,,,1.34,0.61,1.20*14
$GPGSV,4,1,15,10,22,348,22,16,25,260,27,18,30,062,24,23,07,026,25*7A
$GPGSV,4,2,15,25,05,137,16,26,30,229,13,27,29,322,24,28,38,170,08*73
$GPGSV,4,3,15,29,28,144,12,31,23,198,08,32,77,345,30,36,52,277,28*78
$GPGSV,4,4,15,40,84,353,32,41,58,082,30,49,32,274,*4D
$GLGSV,3,1,10,70,40,349,22,71,56,274,29,72,20,223,10,73,15,161,14*62
$GLGSV,3,2,10,74,15,206,,75,00,251,,83,21,122,18,84,43,060,17*69
$GLGSV,3,3,10,85,22,002,29,,,,27*55
$GNGLL,0419.70764,S,05539.86063,E,115252.00,A,D*60
$GNGRS,115252.00,1,11.7,1.7,5.7,1.4,-27.9,-9.4,16.1,5.4,-0.7,,,*64
$GNGRS,115252.00,1,9.4,7.4,8.9,18.0,-2.3,-0.5,10.3,,,,,*7E
$GNGST,115252.00,2998599,,,,3.2,2.5,3.7*74
$GNZDA,115252.00,19,05,2025,00,00*70
$GNGBS,115252.00,3.2,2.5,3.7,,,,*5D
b0@XL
"\&a>u%u#B&6Q. ,MY{)4,Ta*:R d3F(]G8H|IJKSzT+<UbXL%.r=P$GNRMC,115253.00,A,0419.70764,S,05539.86054,E,0.149,,190525,,,D*7A
$GNVTG,,T,,M,0.149,N,0.276,K,D*37
$GNGNS,115253.00,0419.70764,S,05539.86054,E,DA,13,0.84,14.2,-47.6,,0000*6B
$GNGGA,115253.00,0419.70764,S,05539.86054,E,2,12,0.84,14.2,M,-47.6,M,,0000*46
$GNGSA,A,3,29,10,23,32,18,31,16,27,,,,,1.55,0.84,1.31*11
$GNGSA,A,3,70,83,84,71,85,,,,,,,,1.55,0.84,1.31*19
$GPGSV,4,1,15,10,22,348,34,16,25,260,38,18,30,062,31,23,07,026,37*74
$GPGSV,4,2,15,25,05,137,12,26,30,229,,27,29,322,35,28,38,170,09*74
$GPGSV,4,3,15,29,28,144,14,31,23,198,09,32,77,345,44,36,52,277,41*73
$GPGSV,4,4,15,40,84,353,44,41,58,082,42,49,32,274,*49
$GLGSV,3,1,10,70,40,349,19,71,56,274,30,72,20,223,06,73,15,161,07*67
$GLGSV,3,2,10,74,15,206,,75,00,251,,83,21,122,16,84,43,060,14*64
$GLGSV,3,3,10,85,22,002,28,,,,26*55
$GNGLL,0419.70764,S,05539.86054,E,115253.00,A,D*65
$GNGRS,115253.00,1,-24.8,1.8,3.7,-0.6,-11.6,120,3.5,1.6,,,,*63
$GNGRS,115253.00,1,10.0,7.3,12.8,-2.6,-0.6,,,,,,,*73
$GNGST,115253.00,48,,,,3.2,2.6,3.7*45
$GNZDA,115253.00,19,05,2025,00,00*71
$GNGBS,115253.00,3.2,2.6,3.7,,,,*5F
b0@@P
!\Z$>M#
"B&6H )MY{&4*Ta':R dF(]G$8DH&IJKSzaT+<U"b@P2r$GNRMC,115254.00,A,0419.70764,S,05539.86052,E,0.158,,190525,,,D*7B
$GNVTG,,T,,M,0.158,N,0.293,K,D*3C
$GNGNS,115254.00,0419.70764,S,05539.86052,E,DA,15,0.61,14.2,-47.6,,0000*67
$GNGGA,115254.00,0419.70764,S,05539.86052,E,2,12,0.61,14.2,M,-47.6,M,,0000*4C
$GNGSA,A,3,29,10,23,32,18,31,16,27,,,,,1.34,0.61,1.20*1D
$GNGSA,A,3,70,73,83,84,71,85,72,,,,,,1.34,0.61,1.20*14
$GPGSV,4,1,15,10,22,348,33,16,25,260,36,18,30,062,29,23,07,026,35*76
$GPGSV,4,2,15,25,05,137,,26,30,229,,27,29,322,34,28,38,170,08*77
$GPGSV,4,3,15,29,28,144,15,31,23,198,09,32,77,345,41,36,52,277,38*79
$GPGSV,4,4,15,40,84,353,42,41,58,082,39,49,32,274,*43
$GLGSV,3,1,10,70,40,349,19,71,56,274,36,72,20,223,09,73,15,161,09*60
$GLGSV,3,2,10,74,15,206,,75,00,251,,83,21,122,17,84,43,060,14*65
$GLGSV,3,3,10,85,22,002,34,,,,31*5E
$GNGLL,0419.70764,S,05539.86052,E,115254.00,A,D*64
$GNGRS,115254.00,1,11.6,0.9,2.8,1.4,-6.9,16.1,5.1,-1.0,,,,*5A
$GNGRS,115254.00,1,10.1,7.6,8.6,10.4,-4.4,-0.8,10.6,,,,,*4D
$GNGST,115254.00,5151188,,,,3.2,2.5,3.7*7C
$GNZDA,115254.00,19,05,2025,00,00*76
$GNGBS,115254.00,3.2,2.5,3.7,,,,*5B
b0@(T
!\}&d>o#D
$B&
X *MYN{&4+Ta):R d|F(]nG&8HIJKSzT+<U# fb(T5r$GNRMC,115255.00,A,0419.70765,S,05539.86050,E,0.029,,190525,,,D*7E
$GNVTG,,T,,M,0.029,N,0.054,K,D*32
$GNGNS,115255.00,0419.70765,S,05539.86050,E,DA,14,0.64,14.2,-47.6,,0000*61
$GNGGA,115255.00,0419.70765,S,05539.86050,E,2,12,0.64,14.2,M,-47.6,M,,0000*4B
$GNGSA,A,3,29,10,23,32,18,16,27,,,,,,1.36,0.64,1.20*18
$GNGSA,A,3,70,73,83,84,71,85,72,,,,,,1.36,0.64,1.20*13
$GPGSV,4,1,15,10,22,348,33,16,25,260,38,18,30,062,28,23,07,026,35*79
$GPGSV,4,2,15,25,05,137,,26,30,229,,27,29,322,36,28,38,170,*7D
$GPGSV,4,3,15,29,28,144,10,31,23,198,07,32,77,345,42,36,52,277,38*71
$GPGSV,4,4,15,40,84,353,43,41,58,082,41,49,32,274,*4D
$GLGSV,3,1,10,70,40,349,21,71,56,274,38,72,20,223,09,73,15,161,09*65
$GLGSV,3,2,10,74,15,206,,75,00,251,,83,21,122,17,84,43,060,16*67
$GLGSV,3,3,10,85,22,002,35,,,,32*5C
$GNGLL,0419.70765,S,05539.86050,E,115255.00,A,D*66
$GNGRS,115255.00,1,11.1,3.8,0.7,0.8,-4.0,3.6,2.8,,,,,*6A
$GNGRS,115255.00,1,8.8,7.2,9.9,11.6,-3.0,0.1,10.2,,,,,*56
$GNGST,115255.00,4344206,,,,3.2,2.5,3.7*7F
$GNZDA,115255.00,19,05,2025,00,00*77
$GNGBS,115255.00,3.2,2.5,3.7,,,,*5A
b0@X
!\*&U>\#U
"B&
/ *MYH{'4+Ta):R dF(]G'8H
IgJKSzT+<U$!bX9r$GNRMC,115256.00,A,0419.70764,S,05539.86048,E,0.057,,190525,,,D*7C
$GNVTG,,T,,M,0.057,N,0.105,K,D*3E
$GNGNS,115256.00,0419.70764,S,05539.86048,E,DA,15,0.77,14.1,-47.6,,0000*6A
$GNGGA,115256.00,0419.70764,S,05539.86048,E,2,12,0.77,14.1,M,-47.6,M,,0000*41
$GNGSA,A,3,29,10,23,32,18,31,16,27,,,,,1.52,0.77,1.31*1A
$GNGSA,A,3,70,73,83,84,71,85,72,,,,,,1.52,0.77,1.31*13
$GPGSV,4,1,15,10,22,348,33,16,25,260,38,18,30,062,29,23,07,026,35*78
$GPGSV,4,2,15,25,05,137,,26,30,229,,27,29,322,34,28,38,170,*7F
$GPGSV,4,3,15,29,28,144,12,31,23,198,10,32,77,345,42,36,52,277,39*74
$GPGSV,4,4,15,40,84,353,43,41,58,082,41,49,32,274,*4D
$GLGSV,3,1,10,70,40,349,23,71,56,274,39,72,20,223,10,73,15,161,12*64
$GLGSV,3,2,10,74,15,206,,75,00,251,,83,21,122,20,84,43,060,18*6D
$GLGSV,3,3,10,85,22,002,36,,,,33*5E
$GNGLL,0419.70764,S,05539.86048,E,115256.00,A,D*6D
$GNGRS,115256.00,1,11.8,5.5,0.8,0.7,-4.2,-53.3,3.4,1.7,,,,*51
$GNGRS,115256.00,1,7.8,-29.7,9.7,10.1,-1.1,2.0,-72.9,,,,,*64
$GNGST,115256.00,46,,,,3.2,2.5,3.6*4C
$GNZDA,115256.00,19,05,2025,00,00*74
$GNGBS,115256.00,3.2,2.5,3.6,,,,*58
b0@[
 \$>"n
"B&f )MY2{%4*Ta(:R d-F(]G%8H?IJKS{T+<AU# pb[=r$GNRMC,115257.00,A,0419.70760,S,05539.86046,E,0.087,,190525,,,D*7A
$GNVTG,,T,,M,0.087,N,0.160,K,D*30
$GNGNS,115257.00,0419.70760,S,05539.86046,E,DA,15,0.61,13.9,-47.6,,0000*69
$GNGGA,115257.00,0419.70760,S,05539.86046,E,2,12,0.61,13.9,M,-47.6,M,,0000*42
$GNGSA,A,3,29,10,23,32,18,31,16,27,,,,,1.34,0.61,1.20*1D
$GNGSA,A,3,70,73,83,84,71,85,72,,,,,,1.34,0.61,1.20*14
$GPGSV,4,1,15,10,22,348,32,16,25,260,36,18,30,062,29,23,07,026,34*76
$GPGSV,4,2,15,25,05,137,,26,30,229,,27,29,322,34,28,38,170,*7F
$GPGSV,4,3,15,29,28,144,14,31,23,198,08,32,77,345,41,36,52,277,37*76
$GPGSV,4,4,15,40,84,353,42,41,58,082,40,49,32,274,*4D
$GLGSV,3,1,10,70,40,349,23,71,56,274,37,72,20,223,08,73,15,161,09*69
$GLGSV,3,2,10,74,15,206,,75,00,251,,83,21,123,19,84,43,060,20*6D
$GLGSV,3,3,10,85,22,002,35,,,,32*5C
$GNGLL,0419.70760,S,05539.86046,E,115257.00,A,D*66
$GNGRS,115257.00,1,11.6,0.2,3.7,-2.1,-8.4,16.4,1.6,2.1,,,,*5D
$GNGRS,115257.00,1,9.3,7.8,9.2,8.3,-5.6,1.6,10.9,,,,,*6F
$GNGST,115257.00,4206882,,,,3.1,2.5,3.6*7E
$GNZDA,115257.00,19,05,2025,00,00*75
$GNGBS,115257.00,3.1,2.5,3.6,,,,*5A
b0@_
 \$1>" 
 B&}] )MY{%4*Ta(:R dF(]dG%8H=IJKS{T+<U# b_ArsF$GNRMC,115258.00,A,0419.70758,S,05539.86043,E,0.055,,190525,,,D*74
$GNVTG,,T,,M,0.055,N,0.102,K,D*3B
$GNGNS,115258.00,0419.70758,S,05539.86043,E,DA,15,0.61,13.8,-47.6,,0000*69
$GNGGA,115258.00,0419.70758,S,05539.86043,E,2,12,0.61,13.8,M,-47.6,M,,0000*42
$GNGSA,A,3,29,10,23,32,18,31,16,27,,,,,1.34,0.61,1.20*1D
$GNGSA,A,3,70,73,83,84,71,85,72,,,,,,1.34,0.61,1.20*14
$GPGSV,4,1,15,10,22,348,32,16,25,260,36,18,30,062,28,23,07,026,34*77
$GPGSV,4,2,15,25,05,137,,26,30,229,,27,29,322,32,28,38,170,*79
$GPGSV,4,3,15,29,28,144,16,31,23,198,08,32,77,345,41,36,52,277,37*74
$GPGSV,4,4,15,40,84,353,42,41,58,082,40,49,32,274,*4D
$GLGSV,3,1,10,70,40,349,23,71,56,274,37,72,20,223,08,73,15,161,11*60
$GLGSV,3,2,10,74,15,206,,75,00,251,,83,21,123,20,84,43,060,20*67
$GLGSV,3,3,10,85,22,002,35,,,,32*5C
$GNGLL,0419.70758,S,05539.86043,E,115258.00,A,D*67
$GNGRS,115258.00,1,8.9,-1.1,2.9,-0.7,-8.9,16.3,3.0,2.4,,,,*4A
$GNGRS,115258.00,1,8.7,7.7,7.0,10.2,-3.3,1.3,10.9,,,,,*58
$GNGST,115258.00,4208249,,,,3.1,2.4,3.6*73
$GNZDA,115258.00,19,05,2025,00,00*7A
$GNGBS,115258.00,3.1,2.4,3.6,,,,*54
b0@c
 \!$>o#%
!B& ,MYW{'4*Ta):R dF(]G%8H
I
JKS{T+<U#yobcErK$GNRMC,115259.00,A,0419.70753,S,05539.86044,E,0.098,,190525,,,D*78
$GNVTG,,T,,M,0.098,N,0.182,K,D*32
$GNGNS,115259.00,0419.70753,S,05539.86044,E,DA,15,0.71,13.8,-47.6,,0000*65
$GNGGA,115259.00,0419.70753,S,05539.86044,E,2,12,0.71,13.8,M,-47.6,M,,0000*4E
$GNGSA,A,3,29,10,23,32,18,31,16,27,,,,,1.43,0.71,1.24*18
$GNGSA,A,3,70,73,83,84,71,85,72,,,,,,1.43,0.71,1.24*11
$GPGSV,4,1,15,10,22,348,32,16,25,260,36,18,30,062,28,23,07,026,35*76
$GPGSV,4,2,15,25,05,137,,26,30,229,,27,29,322,33,28,38,170,*78
$GPGSV,4,3,15,29,28,144,15,31,23,198,12,32,77,345,44,36,52,277,39*77
$GPGSV,4,4,15,40,84,353,42,41,58,082,41,49,32,274,*4C
$GLGSV,3,1,10,70,40,349,23,71,56,274,37,72,20,223,10,73,15,161,10*68
$GLGSV,3,2,10,74,15,206,,75,00,251,,83,21,123,19,84,43,060,19*67
$GLGSV,3,3,10,85,22,002,35,,,,31*5F
$GNGLL,0419.70753,S,05539.86044,E,115259.00,A,D*6A
$GNGRS,115259.00,1,4.9,2.9,2.9,0.9,-6.6,-40.8,1.6,2.3,,,,*65
$GNGRS,115259.00,1,7.3,14.9,9.3,10.0,-2.7,1.2,-136,,,,,*6A
$GNGST,115259.00,57,,,,3.1,2.4,3.6*41
$GNZDA,115259.00,19,05,2025,00,00*7B
$GNGBS,115259.00,3.1,2.4,3.6,,,,*55
b0@g
!\%>4#(
#B&
S ,MY{(4+Ta(:R daF(]2G%8H&IJKS{!T+<KU%F!bg}Ir#$GNRMC,115300.00,A,0419.70753,S,05539.86043,E,0.007,,190525,,,D*74
$GNVTG,,T,,M,0.007,N,0.014,K,D*3A
$GNGNS,115300.00,0419.70753,S,05539.86043,E,DA,15,0.61,13.7,-47.6,,0000*61
$GNGGA,115300.00,0419.70753,S,05539.86043,E,2,12,0.61,13.7,M,-47.6,M,,0000*4A
$GNGSA,A,3,29,10,23,32,18,31,16,27,,,,,1.34,0.61,1.20*1D
$GNGSA,A,3,70,73,83,84,71,85,72,,,,,,1.34,0.61,1.20*14
$GPGSV,4,1,15,10,22,348,33,16,25,260,37,18,30,062,27,23,07,026,35*79
$GPGSV,4,2,15,25,05,137,,26,30,229,,27,29,322,35,28,38,170,*7E
$GPGSV,4,3,15,29,28,144,16,31,23,198,10,32,77,345,44,36,52,277,40*78
$GPGSV,4,4,15,40,84,353,43,41,58,082,40,49,32,274,*4C
$GLGSV,3,1,10,70,40,349,23,71,56,274,37,72,20,223,08,73,15,161,12*63
$GLGSV,3,2,10,74,15,206,,75,00,251,,83,21,123,18,84,43,060,18*67
$GLGSV,3,3,10,85,22,002,37,,,,33*5F
$GNGLL,0419.70753,S,05539.86043,E,115300.00,A,D*60
$GNGRS,115300.00,1,6.4,1.7,3.0,0.0,-7.2,16.2,2.1,1.3,,,,*4D
$GNGRS,115300.00,1,8.2,7.8,10.6,8.4,-2.7,0.7,10.6,,,,,*5E
$GNGST,115300.00,2974887,,,,3.1,2.4,3.6*71
$GNZDA,115300.00,19,05,2025,00,00*76
$GNGBS,115300.00,3.1,2.4,3.6,,,,*58
b0@k
!\`$>$'
#B'&> *MY1{'4*Ta):R dF(]G&8HIJKS{rT+<3U$!bkeMr~$GNRMC,115301.00,A,0419.70750,S,05539.86045,E,0.145,,190525,,,D*77
$GNVTG,,T,,M,0.145,N,0.269,K,D*35
$GNGNS,115301.00,0419.70750,S,05539.86045,E,DA,15,0.61,13.7,-47.6,,0000*65
$GNGGA,115301.00,0419.70750,S,05539.86045,E,2,12,0.61,13.7,M,-47.6,M,,0000*4E
$GNGSA,A,3,29,10,23,32,18,31,16,27,,,,,1.34,0.61,1.20*1D
$GNGSA,A,3,70,73,83,84,71,85,72,,,,,,1.34,0.61,1.20*14
$GPGSV,4,1,15,10,22,348,33,16,25,260,36,18,30,062,26,23,07,026,36*7A
$GPGSV,4,2,15,25,05,137,,26,30,229,,27,29,322,35,28,38,170,*7E
$GPGSV,4,3,15,29,28,144,16,31,23,198,09,32,77,345,42,36,52,277,39*78
$GPGSV,4,4,15,40,84,353,42,41,58,082,41,49,32,274,*4C
$GLGSV,3,1,10,70,40,349,24,71,56,274,38,72,20,223,11,73,15,161,13*62
$GLGSV,3,2,10,74,15,206,,75,00,251,,83,21,123,18,84,43,060,18*67
$GLGSV,3,3,10,85,22,002,36,,,,33*5E
$GNGLL,0419.70750,S,05539.86045,E,115301.00,A,D*64
$GNGRS,115301.00,1,4.2,1.0,3.0,0.5,-6.2,16.0,2.1,0.4,,,,*4F
$GNGRS,115301.00,1,7.6,7.7,8.8,8.2,-2.8,0.2,10.3,,,,,*65
$GNGST,115301.00,2975902,,,,3.1,2.4,3.5*7E
$GNZDA,115301.00,19,05,2025,00,00*77
$GNGBS,115301.00,3.1,2.4,3.5,,,,*5A
b0@o
!\&>7$
%B&m ,MY={(4,Ta*:R dF(]G&8H
IJKS{DT+<CU$ YboMQr$GNRMC,115302.00,A,0419.70749,S,05539.86046,E,0.062,,190525,,,D*7B
$GNVTG,,T,,M,0.062,N,0.114,K,D*38
$GNGNS,115302.00,0419.70749,S,05539.86046,E,DA,15,0.77,13.7,-47.6,,0000*6A
$GNGGA,115302.00,0419.70749,S,05539.86046,E,2,12,0.77,13.7,M,-47.6,M,,0000*41
$GNGSA,A,3,29,10,23,32,18,31,16,27,,,,,1.52,0.77,1.31*1A
$GNGSA,A,3,70,73,83,84,71,85,72,,,,,,1.52,0.77,1.31*13
$GPGSV,4,1,15,10,22,348,33,16,25,260,38,18,30,062,25,23,07,026,36*77
$GPGSV,4,2,15,25,05,137,,26,30,229,,27,29,322,37,28,38,170,*7C
$GPGSV,4,3,15,29,28,144,18,31,23,198,09,32,77,345,44,36,52,277,40*7E
$GPGSV,4,4,15,40,84,353,44,41,58,082,42,49,32,274,*49
$GLGSV,3,1,10,70,40,349,24,71,56,274,38,72,20,223,10,73,15,161,12*62
$GLGSV,3,2,10,74,15,206,,75,00,251,,83,21,123,17,84,43,060,18*68
$GLGSV,3,3,10,85,22,002,36,,,,32*5F
$GNGLL,0419.70749,S,05539.86046,E,115302.00,A,D*6C
$GNGRS,115302.00,1,3.6,4.8,2.8,0.6,-4.6,-71.4,2.2,-1.1,,,,*4C
$GNGRS,115302.00,1,7.3,-69.1,10.9,5.8,-2.8,-0.1,-58.9,,,,,*4A
$GNGST,115302.00,45,,,,3.0,2.4,3.5*4F
$GNZDA,115302.00,19,05,2025,00,00*74
$GNGBS,115302.00,3.0,2.4,3.5,,,,*58
b0@hs
 \$>)"9
"B&Zb *MYD{&4)Ta':R dQF(]G&8HLIJKS{CT+<U#!bhs5UrN$GNRMC,115303.00,A,0419.70742,S,05539.86044,E,0.284,,190525,,,D*79
$GNVTG,,T,,M,0.284,N,0.525,K,D*34
$GNGNS,115303.00,0419.70742,S,05539.86044,E,DA,15,0.61,13.8,-47.6,,0000*6A
$GNGGA,115303.00,0419.70742,S,05539.86044,E,2,12,0.61,13.8,M,-47.6,M,,0000*41
$GNGSA,A,3,29,10,23,32,18,31,16,27,,,,,1.34,0.61,1.20*1D
$GNGSA,A,3,70,73,83,84,71,85,72,,,,,,1.34,0.61,1.20*14
$GPGSV,4,1,15,10,22,348,32,16,25,260,36,18,30,062,25,23,07,026,34*7A
$GPGSV,4,2,15,25,05,137,16,26,30,229,,27,29,322,34,28,38,170,*78
$GPGSV,4,3,15,29,28,144,18,31,23,198,11,32,77,345,42,36,52,277,38*7E
$GPGSV,4,4,15,40,84,353,41,41,58,082,39,49,32,274,*40
$GLGSV,3,1,10,70,40,349,23,71,56,274,38,72,20,223,11,73,15,161,09*6E
$GLGSV,3,2,10,74,15,206,,75,00,251,,83,21,123,18,84,43,060,18*67
$GLGSV,3,3,10,85,22,002,35,,,,33*5D
$GNGLL,0419.70742,S,05539.86044,E,115303.00,A,D*64
$GNGRS,115303.00,1,3.5,4.1,2.3,0.7,-4.7,16.3,2.1,-1.0,,,,*65
$GNGRS,115303.00,1,9.2,7.8,10.9,6.6,-2.7,-0.3,11.0,,,,,*71
$GNGST,115303.00,2977638,,,,3.0,2.4,3.5*79
$GNZDA,115303.00,19,05,2025,00,00*75
$GNGBS,115303.00,3.0,2.4,3.5,,,,*59
b0@Pw
 \$>.#19
"B&e
F *MY1{'4*Ta):R dF(]G$8HLIJKS{T+<U! =bPwYr$GNRMC,115304.00,A,0419.70739,S,05539.86042,E,0.117,,190525,,,D*7D
$GNVTG,,T,,M,0.117,N,0.216,K,D*3A
$GNGNS,115304.00,0419.70739,S,05539.86042,E,DA,15,0.61,13.9,-47.6,,0000*66
$GNGGA,115304.00,0419.70739,S,05539.86042,E,2,12,0.61,13.9,M,-47.6,M,,0000*4D
$GNGSA,A,3,29,10,23,32,18,31,16,27,,,,,1.34,0.61,1.20*1D
$GNGSA,A,3,70,73,83,84,71,85,72,,,,,,1.34,0.61,1.20*14
$GPGSV,4,1,15,10,22,348,32,16,25,260,36,18,30,062,25,23,07,026,35*7B
$GPGSV,4,2,15,25,05,137,14,26,30,229,,27,29,322,34,28,38,170,*7A
$GPGSV,4,3,15,29,28,144,17,31,23,198,10,32,77,345,42,36,52,277,39*71
$GPGSV,4,4,15,40,84,353,42,41,58,082,41,49,32,274,*4C
$GLGSV,3,1,10,70,40,349,23,71,56,274,36,72,20,223,12,73,15,161,09*63
$GLGSV,3,2,10,74,15,206,,75,00,251,,83,21,123,19,84,43,060,18*66
$GLGSV,3,3,10,85,22,002,33,,,,32*5A
$GNGLL,0419.70739,S,05539.86042,E,115304.00,A,D*69
$GNGRS,115304.00,1,3.6,1.4,-0.7,0.5,-4.7,16.1,2.0,-0.7,,,,*4D
$GNGRS,115304.00,1,6.5,7.6,9.0,5.0,-2.7,-0.3,11.0,,,,,*44
$GNGST,115304.00,4206134,,,,3.0,2.4,3.5*7E
$GNZDA,115304.00,19,05,2025,00,00*72
$GNGBS,115304.00,3.0,2.4,3.5,,,,*5E
b0@8{
\%>#<57
"B& *MYI{&4*Ta):R dF(]G#8H
IsJKS{T+<U! Fb8{]r[$GNRMC,115305.00,A,0419.70738,S,05539.86041,E,0.117,,190525,,,D*7E
$GNVTG,,T,,M,0.117,N,0.216,K,D*3A
$GNGNS,115305.00,0419.70738,S,05539.86041,E,DA,15,0.77,13.9,-47.6,,0000*62
$GNGGA,115305.00,0419.70738,S,05539.86041,E,2,12,0.77,13.9,M,-47.6,M,,0000*49
$GNGSA,A,3,29,10,23,32,18,31,16,27,,,,,1.52,0.77,1.31*1A
$GNGSA,A,3,70,73,83,84,71,85,72,,,,,,1.52,0.77,1.31*13
$GPGSV,4,1,15,10,22,348,31,16,25,260,37,18,30,062,25,23,07,026,35*79
$GPGSV,4,2,15,25,05,137,11,26,30,229,,27,29,322,34,28,38,170,*7F
$GPGSV,4,3,15,29,28,144,16,31,23,198,09,32,77,345,42,36,52,277,38*79
$GPGSV,4,4,15,40,84,353,42,41,58,082,41,49,32,274,*4C
$GLGSV,3,1,10,70,40,349,23,71,56,274,35,72,20,223,10,73,15,161,08*63
$GLGSV,3,2,10,74,15,206,,75,00,251,,83,21,123,18,84,43,060,18*67
$GLGSV,3,3,10,85,22,002,33,,,,32*5A
$GNGLL,0419.70738,S,05539.86041,E,115305.00,A,D*6A
$GNGRS,115305.00,1,4.0,1.4,0.6,0.7,-4.9,-131,1.7,-0.5,,,,*6D
$GNGRS,115305.00,1,7.9,39.6,6.9,4.4,-2.9,-0.4,-64.5,,,,,*55
$GNGST,115305.00,46,,,,3.0,2.4,3.5*4B
$GNZDA,115305.00,19,05,2025,00,00*73
$GNGBS,115305.00,3.0,2.4,3.5,,,,*5F
b0@ 
 \$>#~8"B{&T )MYQ{&4)Ta(:R dF(]G$8H?IJKS{]T+<$U"G \b `r2$GNRMC,115306.00,A,0419.70736,S,05539.86041,E,0.083,,190525,,,D*7F
$GNVTG,,T,,M,0.083,N,0.153,K,D*34
$GNGNS,115306.00,0419.70736,S,05539.86041,E,DA,15,0.61,14.0,-47.6,,0000*66
$GNGGA,115306.00,0419.70736,S,05539.86041,E,2,12,0.61,14.0,M,-47.6,M,,0000*4D
$GNGSA,A,3,29,10,23,32,18,31,16,27,,,,,1.34,0.61,1.20*1D
$GNGSA,A,3,70,73,83,84,71,85,72,,,,,,1.34,0.61,1.20*14
$GPGSV,4,1,15,10,22,348,32,16,25,260,36,18,30,062,26,23,07,026,35*78
$GPGSV,4,2,15,25,05,137,09,26,30,229,,27,29,322,34,28,38,170,*76
$GPGSV,4,3,15,29,28,144,14,31,23,198,07,32,77,345,41,36,52,277,38*76
$GPGSV,4,4,15,40,84,353,41,41,58,082,40,49,32,274,*4E
$GLGSV,3,1,10,70,40,349,23,71,56,274,36,72,20,223,07,73,15,161,08*66
$GLGSV,3,2,10,74,15,206,,75,00,251,,83,21,123,17,84,43,060,16*66
$GLGSV,3,3,10,85,22,002,34,,,,32*5D
$GNGLL,0419.70736,S,05539.86041,E,115306.00,A,D*67
$GNGRS,115306.00,1,4.8,2.5,3.8,0.8,-3.4,16.2,1.7,-3.9,,,,*66
$GNGRS,115306.00,1,7.5,7.8,6.0,2.9,-3.1,-1.8,10.9,,,,,*4D
$GNGST,115306.00,2998692,,,,3.0,2.4,3.5*7D
$GNZDA,115306.00,19,05,2025,00,00*70
$GNGBS,115306.00,3.0,2.4,3.5,,,,*5C
b0@
!\$>#I>
"B:&3 +MY*{'4*Ta):R doF(]2G$8H
8IJKS{T+<sU# msbdr
$GNRMC,115307.00,A,0419.70735,S,05539.86040,E,0.050,,190525,,,D*72
$GNVTG,,T,,M,0.050,N,0.093,K,D*37
$GNGNS,115307.00,0419.70735,S,05539.86040,E,DA,15,0.61,14.0,-47.6,,0000*65
$GNGGA,115307.00,0419.70735,S,05539.86040,E,2,12,0.61,14.0,M,-47.6,M,,0000*4E
$GNGSA,A,3,29,10,23,32,18,31,16,27,,,,,1.34,0.61,1.20*1D
$GNGSA,A,3,70,73,83,84,71,85,72,,,,,,1.34,0.61,1.20*14
$GPGSV,4,1,15,10,22,348,33,16,25,260,36,18,30,062,27,23,07,026,35*78
$GPGSV,4,2,15,25,05,137,08,26,30,229,,27,29,322,34,28,38,170,*77
$GPGSV,4,3,15,29,28,144,13,31,23,198,08,32,77,345,43,36,52,277,39*7D
$GPGSV,4,4,15,40,84,353,42,41,58,082,41,49,32,274,*4C
$GLGSV,3,1,10,70,40,349,23,71,56,274,36,72,20,223,10,73,15,161,09*61
$GLGSV,3,2,10,74,15,206,,75,00,251,,83,21,123,16,84,43,060,16*67
$GLGSV,3,3,10,85,22,002,35,,,,32*5C
$GNGLL,0419.70735,S,05539.86040,E,115307.00,A,D*64
$GNGRS,115307.00,1,2.2,1.3,3.3,0.4,-5.3,15.9,2.7,-2.0,,,,*6B
$GNGRS,115307.00,1,8.2,7.7,7.8,3.7,-3.4,-0.9,10.8,,,,,*49
$GNGST,115307.00,2998812,,,,3.0,2.4,3.5*7A
$GNZDA,115307.00,19,05,2025,00,00*71
$GNGBS,115307.00,3.0,2.4,3.5,,,,*5D
b0@
!\3%>T"(>
#BT&Ty *MY#{&4*Ta):R diF(]\G$8HI6JKS{YT+<U#XpbhrD$GNRMC,115308.00,A,0419.70734,S,05539.86038,E,0.062,,190525,,,D*72
$GNVTG,,T,,M,0.062,N,0.115,K,D*39
$GNGNS,115308.00,0419.70734,S,05539.86038,E,DA,15,0.77,14.0,-47.6,,0000*63
$GNGGA,115308.00,0419.70734,S,05539.86038,E,2,12,0.77,14.0,M,-47.6,M,,0000*48
$GNGSA,A,3,29,10,23,32,18,31,16,27,,,,,1.52,0.77,1.31*1A
$GNGSA,A,3,70,73,83,84,71,85,72,,,,,,1.52,0.77,1.31*13
$GPGSV,4,1,15,10,22,348,33,16,25,260,37,18,30,062,27,23,07,026,34*78
$GPGSV,4,2,15,25,05,137,08,26,30,229,,27,29,322,35,28,38,170,*76
$GPGSV,4,3,15,29,28,144,15,31,23,198,11,32,77,345,42,36,52,277,38*73
$GPGSV,4,4,15,40,84,353,42,41,58,082,41,49,32,274,*4C
$GLGSV,3,1,10,70,40,349,22,71,56,274,36,72,20,223,09,73,15,161,08*69
$GLGSV,3,2,10,74,15,206,,75,00,251,,83,21,123,16,84,43,060,17*66
$GLGSV,3,3,10,85,22,002,35,,,,31*5F
$GNGLL,0419.70734,S,05539.86038,E,115308.00,A,D*65
$GNGRS,115308.00,1,0.8,0.5,3.0,0.3,-4.3,-52.5,2.3,0.8,,,,*6F
$GNGRS,115308.00,1,6.0,-40.4,8.6,4.6,-3.5,-1.7,-136,,,,,*50
$GNGST,115308.00,47,,,,3.0,2.3,3.4*41
$GNZDA,115308.00,19,05,2025,00,00*7E
$GNGBS,115308.00,3.0,2.3,3.4,,,,*54
b0@
!\$>p#)B
#B&^ *MY9{(4+Ta):R d!F(]G%8H%IJKS{T+<SU# Eblr$GNRMC,115309.00,A,0419.70733,S,05539.86037,E,0.062,,190525,,,D*7B
$GNVTG,,T,,M,0.062,N,0.116,K,D*3A
$GNGNS,115309.00,0419.70733,S,05539.86037,E,DA,15,0.61,14.0,-47.6,,0000*6D
$GNGGA,115309.00,0419.70733,S,05539.86037,E,2,12,0.61,14.0,M,-47.6,M,,0000*46
$GNGSA,A,3,29,10,23,32,18,31,16,27,,,,,1.34,0.61,1.20*1D
$GNGSA,A,3,70,73,83,84,71,85,72,,,,,,1.34,0.61,1.20*14
$GPGSV,4,1,15,10,22,348,33,16,25,260,36,18,30,062,27,23,07,026,35*78
$GPGSV,4,2,15,25,05,137,08,26,30,229,,27,29,322,35,28,38,170,*76
$GPGSV,4,3,15,29,28,144,15,31,23,198,08,32,77,345,42,36,52,277,40*74
$GPGSV,4,4,15,40,84,353,43,41,58,082,41,49,32,274,*4D
$GLGSV,3,1,10,70,40,349,23,71,56,274,37,72,20,223,09,73,15,161,11*61
$GLGSV,3,2,10,74,15,206,,75,00,251,,83,21,123,17,84,43,060,19*69
$GLGSV,3,3,10,85,22,002,35,,,,32*5C
$GNGLL,0419.70733,S,05539.86037,E,115309.00,A,D*6C
$GNGRS,115309.00,1,2.0,0.3,3.0,0.6,-6.6,16.3,2.8,-0.9,,,,*6C
$GNGRS,115309.00,1,6.7,7.8,9.7,3.4,-3.5,-3.0,10.6,,,,,*44
$GNGST,115309.00,4205789,,,,3.0,2.3,3.4*76
$GNZDA,115309.00,19,05,2025,00,00*7F
$GNGBS,115309.00,3.0,2.3,3.4,,,,*55
b0@
!\T$>3"E
#B&
O )MY+{'4+Ta):R dF(]GG&8H
I
JKS{T+<U# )bpr$GNRMC,115310.00,A,0419.70734,S,05539.86037,E,0.048,,190525,,,D*7C
$GNVTG,,T,,M,0.048,N,0.090,K,D*3D
$GNGNS,115310.00,0419.70734,S,05539.86037,E,DA,15,0.61,14.0,-47.6,,0000*62
$GNGGA,115310.00,0419.70734,S,05539.86037,E,2,12,0.61,14.0,M,-47.6,M,,0000*49
$GNGSA,A,3,29,10,23,32,18,31,16,27,,,,,1.34,0.61,1.20*1D
$GNGSA,A,3,70,73,83,84,71,85,72,,,,,,1.34,0.61,1.20*14
$GPGSV,4,1,15,10,22,348,33,16,25,260,36,18,30,062,27,23,07,026,34*79
$GPGSV,4,2,15,25,05,137,08,26,30,229,,27,29,322,35,28,38,170,*76
$GPGSV,4,3,15,29,28,144,16,31,23,198,10,32,77,345,41,36,52,277,39*73
$GPGSV,4,4,15,40,84,353,43,41,58,082,41,49,32,274,*4D
$GLGSV,3,1,10,70,40,349,23,71,56,274,38,72,20,223,10,73,15,161,10*67
$GLGSV,3,2,10,74,15,206,,75,00,251,,83,21,123,16,84,43,060,19*68
$GLGSV,3,3,10,85,22,002,35,,,,32*5C
$GNGLL,0419.70734,S,05539.86037,E,115310.00,A,D*63
$GNGRS,115310.00,1,1.9,0.8,3.8,0.4,-7.2,16.2,1.7,-0.4,,,,*6A
$GNGRS,115310.00,1,5.8,7.7,8.9,4.4,-3.4,-5.0,10.3,,,,,*45
$GNGST,115310.00,4205791,,,,2.9,2.3,3.4*7F
$GNZDA,115310.00,19,05,2025,00,00*77
$GNGBS,115310.00,2.9,2.3,3.4,,,,*55
b0@
"\#*>"I
$B& *MY{'4*Ta):R dF(]bG%8HIJKS{T+<%U# )butri|$GNRMC,115311.00,A,0419.70734,S,05539.86036,E,0.059,,190525,,,D*7C
$GNVTG,,T,,M,0.059,N,0.109,K,D*3C
$GNGNS,115311.00,0419.70734,S,05539.86036,E,DA,15,0.68,14.0,-47.6,,0000*6B
$GNGGA,115311.00,0419.70734,S,05539.86036,E,2,12,0.68,14.0,M,-47.6,M,,0000*40
$GNGSA,A,3,29,10,23,32,18,31,16,27,,,,,1.44,0.68,1.26*15
$GNGSA,A,3,70,73,83,84,71,85,72,,,,,,1.44,0.68,1.26*1C
$GPGSV,4,1,15,10,22,348,34,16,25,260,35,18,30,062,27,23,07,026,34*7D
$GPGSV,4,2,15,25,05,137,08,26,30,229,,27,29,322,36,28,38,170,*75
$GPGSV,4,3,15,29,28,144,17,31,23,198,07,32,77,345,42,36,52,277,39*77
$GPGSV,4,4,15,40,84,353,42,41,58,082,41,49,32,274,*4C
$GLGSV,3,1,10,70,40,349,23,71,56,274,37,72,20,223,09,73,15,161,07*66
$GLGSV,3,2,10,74,15,206,,75,00,251,,83,21,123,16,84,43,060,19*68
$GLGSV,3,3,10,85,22,002,35,,,,32*5C
$GNGLL,0419.70734,S,05539.86036,E,115311.00,A,D*63
$GNGRS,115311.00,1,2.2,-0.3,4.6,0.2,-7.9,-13.1,3.0,-0.3,,,,*68
$GNGRS,115311.00,1,3.5,-139,6.5,2.9,-3.6,-3.5,34.7,,,,,*7D
$GNGST,115311.00,57,,,,2.9,2.3,3.4*40
$GNZDA,115311.00,19,05,2025,00,00*76
$GNGBS,115311.00,2.9,2.3,3.4,,,,*54
b0@
#\1"@>"
$BV&
U (MY!{'4)Ta):R dHF(]G%8H;IJKS{T+<U# b]xrA$GNRMC,115312.00,A,0419.70736,S,05539.86036,E,0.035,,190525,,,D*77
$GNVTG,,T,,M,0.035,N,0.065,K,D*3D
$GNGNS,115312.00,0419.70736,S,05539.86036,E,DA,15,0.61,14.0,-47.6,,0000*63
$GNGGA,115312.00,0419.70736,S,05539.86036,E,2,12,0.61,14.0,M,-47.6,M,,0000*48
$GNGSA,A,3,29,10,23,32,18,31,16,27,,,,,1.34,0.61,1.20*1D
$GNGSA,A,3,70,73,83,84,71,85,72,,,,,,1.34,0.61,1.20*14
$GPGSV,4,1,15,10,22,348,35,16,25,260,34,18,30,062,27,23,07,026,34*7D
$GPGSV,4,2,15,25,05,137,,26,30,229,,27,29,322,36,28,38,170,*7D
$GPGSV,4,3,15,29,28,144,17,31,23,198,10,32,77,345,40,36,52,277,39*73
$GPGSV,4,4,15,40,84,353,41,41,58,082,41,49,32,274,*4F
$GLGSV,3,1,10,70,40,349,23,71,56,274,37,72,20,223,12,73,15,161,09*62
$GLGSV,3,2,10,74,15,206,,75,00,251,,83,21,123,15,84,43,060,20*61
$GLGSV,3,3,10,85,22,002,35,,,,32*5C
$GNGLL,0419.70736,S,05539.86036,E,115312.00,A,D*62
$GNGRS,115312.00,1,5.2,0.5,1.5,0.3,-8.7,16.2,3.2,-1.7,,,,*6D
$GNGRS,115312.00,1,2.3,7.6,6.5,2.0,-3.7,-2.4,10.8,,,,,*41
$GNGST,115312.00,4205789,,,,2.9,2.3,3.4*74
$GNZDA,115312.00,19,05,2025,00,00*75
$GNGBS,115312.00,2.9,2.3,3.4,,,,*57
b0@x
!\t#>"
#B%&s1 )MY7{'4*Ta(:R dlF(]`G&8~H3IJKS{T+<U$!bxE|rL$GNRMC,115313.00,A,0419.70738,S,05539.86037,E,0.050,,190525,,,D*7A
$GNVTG,,T,,M,0.050,N,0.092,K,D*36
$GNGNS,115313.00,0419.70738,S,05539.86037,E,DA,14,0.64,14.0,-47.6,,0000*69
$GNGGA,115313.00,0419.70738,S,05539.86037,E,2,12,0.64,14.0,M,-47.6,M,,0000*43
$GNGSA,A,3,29,10,23,32,18,16,27,,,,,,1.36,0.64,1.20*18
$GNGSA,A,3,70,73,83,84,71,85,72,,,,,,1.36,0.64,1.20*13
$GPGSV,4,1,15,10,22,348,33,16,25,260,35,18,30,062,27,23,07,026,34*7A
$GPGSV,4,2,15,25,05,137,,26,30,229,,27,29,322,35,28,38,170,*7E
$GPGSV,4,3,15,29,28,144,18,31,23,198,06,32,77,345,41,36,52,277,39*7A
$GPGSV,4,4,15,40,84,353,42,41,58,082,40,49,32,274,*4D
$GLGSV,3,1,10,70,40,349,23,71,56,274,38,72,20,223,12,73,15,161,09*6D
$GLGSV,3,2,10,74,15,206,,75,00,251,,83,21,123,16,84,43,060,20*62
$GLGSV,3,3,10,85,22,002,36,,,,33*5E
$GNGLL,0419.70738,S,05539.86037,E,115313.00,A,D*6C
$GNGRS,115313.00,1,6.3,1.2,2.0,0.5,-8.5,2.6,0.4,,,,,*5B
$GNGRS,115313.00,1,1.0,7.2,7.4,1.4,-3.9,-3.1,10.8,,,,,*49
$GNGST,115313.00,3071477,,,,2.9,2.3,3.4*71
$GNZDA,115313.00,19,05,2025,00,00*74
$GNGBS,115313.00,2.9,2.3,3.4,,,,*56
b0@`
!\u">F"[
"B&J? )MY-{&4)Ta(:R dF(]8G&8HIgJKS{;T+<XU$ |gb`-r$GNRMC,115314.00,A,0419.70739,S,05539.86038,E,0.066,,190525,,,D*76
$GNVTG,,T,,M,0.066,N,0.123,K,D*38
$GNGNS,115314.00,0419.70739,S,05539.86038,E,DA,15,0.64,14.0,-47.6,,0000*61
$GNGGA,115314.00,0419.70739,S,05539.86038,E,2,12,0.64,14.0,M,-47.6,M,,0000*4A
$GNGSA,A,3,29,10,23,32,18,31,16,27,,,,,1.36,0.64,1.20*1A
$GNGSA,A,3,70,73,83,84,71,85,72,,,,,,1.36,0.64,1.20*13
$GPGSV,4,1,15,10,22,348,33,16,25,260,34,18,30,062,27,23,07,026,34*7B
$GPGSV,4,2,15,25,05,137,,26,30,229,,27,29,322,34,28,38,170,*7F
$GPGSV,4,3,15,29,28,144,16,31,23,198,08,32,77,345,41,36,52,277,38*7B
$GPGSV,4,4,15,40,84,353,41,41,58,082,40,49,32,274,*4E
$GLGSV,3,1,10,70,40,349,22,71,56,274,38,72,20,223,08,73,15,161,09*67
$GLGSV,3,2,10,74,15,206,,75,00,251,,83,21,123,15,84,43,060,19*6B
$GLGSV,3,3,10,85,22,002,36,,,,32*5F
$GNGLL,0419.70739,S,05539.86038,E,115314.00,A,D*65
$GNGRS,115314.00,1,6.9,1.2,6.0,0.5,-9.5,162,2.8,-1.2,,,,*42
$GNGRS,115314.00,1,0.6,-6.7,8.3,3.4,-3.9,-2.9,12.1,,,,,*68
$GNGST,115314.00,62,,,,2.9,2.3,3.4*43
$GNZDA,115314.00,19,05,2025,00,00*73
$GNGBS,115314.00,2.9,2.3,3.4,,,,*51
b0@H
!\%>#
#B&K )MY:{(4*Ta):R dF(]LG%8hH2I
JKS{T+<U#/KbHr$GNRMC,115315.00,A,0419.70742,S,05539.86039,E,0.015,,190525,,,D*7E
$GNVTG,,T,,M,0.015,N,0.027,K,D*39
$GNGNS,115315.00,0419.70742,S,05539.86039,E,DA,15,0.61,14.0,-47.6,,0000*68
$GNGGA,115315.00,0419.70742,S,05539.86039,E,2,12,0.61,14.0,M,-47.6,M,,0000*43
$GNGSA,A,3,29,10,23,32,18,31,16,27,,,,,1.35,0.61,1.20*1C
$GNGSA,A,3,70,73,83,84,71,85,72,,,,,,1.35,0.61,1.20*15
$GPGSV,4,1,15,10,22,348,33,16,25,260,37,18,30,062,27,23,07,026,35*79
$GPGSV,4,2,15,25,05,137,,26,30,229,,27,29,322,35,28,38,170,*7E
$GPGSV,4,3,15,29,28,144,16,31,23,198,12,32,77,345,41,36,52,277,40*7F
$GPGSV,4,4,15,40,84,353,42,41,58,082,41,49,32,274,*4C
$GLGSV,3,1,10,70,40,349,22,71,56,274,37,72,20,223,08,73,15,161,10*60
$GLGSV,3,2,10,74,15,206,,75,00,251,,83,21,123,16,84,43,060,19*68
$GLGSV,3,3,10,85,22,002,35,,,,31*5F
$GNGLL,0419.70742,S,05539.86039,E,115315.00,A,D*69
$GNGRS,115315.00,1,9.9,-0.1,4.4,0.6,-8.2,16.1,2.5,-0.8,,,,*4B
$GNGRS,115315.00,1,3.3,7.6,9.6,2.2,-4.1,-4.6,10.7,,,,,*43
$GNGST,115315.00,407938,,,,2.9,2.3,3.4*47
$GNZDA,115315.00,19,05,2025,00,00*72
$GNGBS,115315.00,2.9,2.3,3.4,,,,*50
b0@0
!\$>#>
$B&g
  *MYG{'4+Ta*:R dOF(]G%8gH!IJKS{T+<.U#)b0r$GNRMC,115316.00,A,0419.70746,S,05539.86038,E,0.038,,190525,,,D*77
$GNVTG,,T,,M,0.038,N,0.071,K,D*35
$GNGNS,115316.00,0419.70746,S,05539.86038,E,DA,15,0.61,13.9,-47.6,,0000*60
$GNGGA,115316.00,0419.70746,S,05539.86038,E,2,12,0.61,13.9,M,-47.6,M,,0000*4B
$GNGSA,A,3,29,10,23,32,18,31,16,27,,,,,1.35,0.61,1.20*1C
$GNGSA,A,3,70,73,83,84,71,85,72,,,,,,1.35,0.61,1.20*15
$GPGSV,4,1,15,10,22,348,33,16,25,260,36,18,30,062,26,23,07,026,35*79
$GPGSV,4,2,15,25,05,137,,26,30,229,,27,29,322,36,28,38,170,*7D
$GPGSV,4,3,15,29,28,144,16,31,23,198,10,32,77,345,42,36,52,277,39*70
$GPGSV,4,4,15,40,84,353,43,41,58,082,42,49,32,274,*4E
$GLGSV,3,1,10,70,40,349,22,71,56,274,37,72,20,223,08,73,15,161,08*69
$GLGSV,3,2,10,74,15,206,,75,00,251,,83,21,123,15,84,43,060,19*6B
$GLGSV,3,3,10,85,22,002,35,,,,31*5F
$GNGLL,0419.70746,S,05539.86038,E,115316.00,A,D*6F
$GNGRS,115316.00,1,11.3,2.3,3.2,0.7,-8.2,15.7,5.1,-1.3,,,,*5A
$GNGRS,115316.00,1,4.3,7.4,7.8,3.0,-4.1,-4.7,10.6,,,,,*46
$GNGST,115316.00,2998650,,,,2.9,2.3,3.4*7C
$GNZDA,115316.00,19,05,2025,00,00*71
$GNGBS,115316.00,2.9,2.3,3.4,,,,*53
b0@
\j>
Bu&
=$ MYY{4 Ta:R d[F(]rG8kH
Ix.JKS{T+<UFbrx$GNRMC,115317.00,A,0419.70745,S,05539.86039,E,0.084,,190525,,,D*73
$GNVTG,,T,,M,0.084,N,0.156,K,D*36
$GNGNS,115317.00,0419.70745,S,05539.86039,E,DA,15,0.77,14.0,-47.6,,0000*6A
$GNGGA,115317.00,0419.70745,S,05539.86039,E,2,12,0.77,14.0,M,-47.6,M,,0000*41
$GNGSA,A,3,29,10,23,32,18,31,16,27,,,,,1.52,0.77,1.31*1A
$GNGSA,A,3,70,73,83,84,71,85,72,,,,,,1.52,0.77,1.31*13
$GPGSV,4,1,15,10,22,348,26,16,25,260,29,18,30,062,25,23,07,026,28*7C
$GPGSV,4,2,15,25,05,137,,26,30,229,,27,29,322,22,28,38,170,*78
$GPGSV,4,3,15,29,28,144,15,31,23,198,10,32,77,345,31,36,52,277,29*76
$GPGSV,4,4,15,40,84,353,32,41,58,082,31,49,32,274,*4C
$GLGSV,3,1,10,70,40,349,21,71,56,274,27,72,20,223,11,73,15,161,12*68
$GLGSV,3,2,10,74,15,206,,75,00,251,,83,21,123,15,84,43,060,18*6A
$GLGSV,3,3,10,85,22,002,29,,,,25*57
$GNGLL,0419.70745,S,05539.86039,E,115317.00,A,D*6C
$GNGRS,115317.00,1,12.2,3.6,5.3,0.9,-7.7,92.8,4.1,-3.9,,,,*57
$GNGRS,115317.00,1,3.7,119,6.8,4.7,-4.1,-1.9,27.3,,,,,*5B
$GNGST,115317.00,44,,,,2.9,2.3,3.5*45
$GNZDA,115317.00,19,05,2025,00,00*70
$GNGBS,115317.00,2.9,2.3,3.5,,,,*53
b0@
\>
B& &MYq{"4&Ta%:R dF(]mG8dH(IJKS{T+<UbrPQ$GNRMC,115318.00,A,0419.70739,S,05539.86036,E,0.294,,190525,,,D*7B
$GNVTG,,T,,M,0.294,N,0.544,K,D*32
$GNGNS,115318.00,0419.70739,S,05539.86036,E,DA,11,0.74,14.1,-47.6,,0000*67
$GNGGA,115318.00,0419.70739,S,05539.86036,E,2,11,0.74,14.1,M,-47.6,M,,0000*4B
$GNGSA,A,3,10,23,32,18,16,27,,,,,,,1.51,0.74,1.32*10
$GNGSA,A,3,70,83,71,85,72,,,,,,,,1.51,0.74,1.32*18
$GPGSV,4,1,15,10,22,348,27,16,25,259,30,18,30,062,24,23,07,026,29*7F
$GPGSV,4,2,15,25,05,137,,26,30,229,,27,29,322,31,28,38,170,*7A
$GPGSV,4,3,15,29,28,144,,31,23,198,04,32,77,345,38,36,52,277,34*72
$GPGSV,4,4,15,40,84,353,38,41,58,082,37,49,32,274,*40
$GLGSV,3,1,10,70,40,349,19,71,56,274,29,72,20,223,08,73,15,161,07*61
$GLGSV,3,2,10,74,15,206,,75,00,251,,83,21,123,12,84,43,060,*64
$GLGSV,3,3,10,85,22,002,28,,,,25*56
$GNGLL,0419.70739,S,05539.86036,E,115318.00,A,D*67
$GNGRS,115318.00,1,4.2,4.1,1.1,-5.8,2.5,1.6,,,,,,*7C
$GNGRS,115318.00,1,3.7,7.1,-1.6,-5.7,10.6,,,,,,,*41
$GNGST,115318.00,200779,,,,3.0,2.4,3.5*4E
$GNZDA,115318.00,19,05,2025,00,00*7F
$GNGBS,115318.00,3.0,2.4,3.5,,,,*53
b0@
!\ >.!
!B&h )MYb{&4)Ta(:R dlF(]aG&8UH
I
 JKS{T+<U"Wbr'$GNRMC,115319.00,A,0419.70734,S,05539.86037,E,0.245,,190525,,,D*7A
$GNVTG,,T,,M,0.245,N,0.454,K,D*3E
$GNGNS,115319.00,0419.70734,S,05539.86037,E,DA,13,0.66,14.2,-47.6,,0000*68
$GNGGA,115319.00,0419.70734,S,05539.86037,E,2,12,0.66,14.2,M,-47.6,M,,0000*45
$GNGSA,A,3,10,23,32,18,31,16,27,,,,,,1.46,0.66,1.30*15
$GNGSA,A,3,70,73,83,71,85,72,,,,,,,1.46,0.66,1.30*1B
$GPGSV,4,1,15,10,22,348,33,16,25,259,32,18,30,062,25,23,07,026,33*72
$GPGSV,4,2,15,25,05,137,,26,30,229,,27,29,322,33,28,38,170,*78
$GPGSV,4,3,15,29,28,144,,31,23,198,09,32,77,345,41,36,52,277,38*7D
$GPGSV,4,4,15,40,84,353,41,41,58,082,40,49,32,274,*4E
$GLGSV,3,1,10,70,40,349,19,71,56,274,38,72,20,223,10,73,15,161,10*6E
$GLGSV,3,2,10,74,15,206,,75,00,251,,83,21,123,12,84,43,060,*64
$GLGSV,3,3,10,85,22,002,34,,,,31*5E
$GNGLL,0419.70734,S,05539.86037,E,115319.00,A,D*6A
$GNGRS,115319.00,1,1.9,2.5,1.0,-4.7,16.4,2.0,0.2,,,,,*63
$GNGRS,115319.00,1,3.5,8.0,6.4,-4.3,-6.3,10.4,,,,,,*65
$GNGST,115319.00,4496680,,,,3.0,2.4,3.5*75
$GNZDA,115319.00,19,05,2025,00,00*7E
$GNGBS,115319.00,3.0,2.4,3.5,,,,*52
b0@
!\"?"%
"BN& )MY{&4*Ta(:R dFF(]G&81HIJKS{T+<U#b br$GNRMC,115320.00,A,0419.70739,S,05539.86041,E,0.248,,190525,,,D*71
$GNVTG,,T,,M,0.248,N,0.460,K,D*34
$GNGNS,115320.00,0419.70739,S,05539.86041,E,DA,12,0.88,14.0,-47.6,,0000*6D
$GNGGA,115320.00,0419.70739,S,05539.86041,E,2,12,0.88,14.0,M,-47.6,M,,0000*41
$GNGSA,A,3,10,23,32,18,31,16,27,,,,,,1.67,0.88,1.42*13
$GNGSA,A,3,70,73,83,71,85,,,,,,,,1.67,0.88,1.42*18
$GPGSV,4,1,15,10,22,348,33,16,25,259,34,18,30,063,27,23,07,026,34*70
$GPGSV,4,2,15,25,05,137,,26,30,229,,27,29,322,34,28,38,170,*7F
$GPGSV,4,3,15,29,28,144,,31,23,198,08,32,77,345,41,36,52,277,38*7C
$GPGSV,4,4,15,40,84,353,42,41,58,082,40,49,32,274,*4D
$GLGSV,3,1,10,70,40,349,21,71,56,274,38,72,20,223,07,73,15,161,07*65
$GLGSV,3,2,10,74,15,206,,75,00,251,,83,21,123,14,84,43,060,*62
$GLGSV,3,3,10,85,22,002,35,,,,32*5C
$GNGLL,0419.70739,S,05539.86041,E,115320.00,A,D*6C
$GNGRS,115320.00,1,1.7,2.9,-0.4,-3.2,-73.0,2.4,3.3,,,,,*6D
$GNGRS,115320.00,1,4.9,77.1,6.8,-4.6,-1.6,,,,,,,*4D
$GNGST,115320.00,38,,,,3.0,2.4,3.5*45
$GNZDA,115320.00,19,05,2025,00,00*74
$GNGBS,115320.00,3.0,2.4,3.5,,,,*58
b0@
!\#?$
$B&X ,MY{)4,Ta):R dBF(]G&8H*IJKS{!T+<U"S \brz$GNRMC,115321.00,A,0419.70738,S,05539.86044,E,0.002,,190525,,,D*78
$GNVTG,,T,,M,0.002,N,0.004,K,D*3E
$GNGNS,115321.00,0419.70738,S,05539.86044,E,DA,13,0.66,14.1,-47.6,,0000*68
$GNGGA,115321.00,0419.70738,S,05539.86044,E,2,12,0.66,14.1,M,-47.6,M,,0000*45
$GNGSA,A,3,10,23,32,18,31,16,27,,,,,,1.46,0.66,1.30*15
$GNGSA,A,3,70,73,83,71,85,72,,,,,,,1.46,0.66,1.30*1B
$GPGSV,4,1,15,10,22,348,33,16,25,259,35,18,30,063,30,23,07,026,36*75
$GPGSV,4,2,15,25,05,137,,26,30,229,,27,29,322,36,28,38,170,*7D
$GPGSV,4,3,15,29,28,144,06,31,23,198,09,32,77,345,44,36,52,277,41*70
$GPGSV,4,4,15,40,84,353,44,41,58,082,41,49,32,274,*4A
$GLGSV,3,1,10,70,40,349,22,71,56,274,38,72,20,223,08,73,15,161,12*6D
$GLGSV,3,2,10,74,15,206,,75,00,251,,83,21,123,16,84,43,060,19*68
$GLGSV,3,3,10,85,22,002,34,,,,32*5D
$GNGLL,0419.70738,S,05539.86044,E,115321.00,A,D*69
$GNGRS,115321.00,1,1.3,2.5,2.3,-2.2,16.2,1.5,0.0,,,,,*63
$GNGRS,115321.00,1,5.2,7.7,5.5,-3.1,-1.7,10.7,,,,,,*60
$GNGST,115321.00,4499506,,,,3.0,2.4,3.5*7C
$GNZDA,115321.00,19,05,2025,00,00*75
$GNGBS,115321.00,3.0,2.4,3.5,,,,*59
b0@
"\(#?`$%
$B&V ,MY{(4,Ta*:R dOF(]G&8H
'I
JKS{T+<U# >bmr$GNRMC,115322.00,A,0419.70737,S,05539.86043,E,0.017,,190525,,,D*77
$GNVTG,,T,,M,0.017,N,0.032,K,D*3F
$GNGNS,115322.00,0419.70737,S,05539.86043,E,DA,13,0.66,14.1,-47.6,,0000*63
$GNGGA,115322.00,0419.70737,S,05539.86043,E,2,12,0.66,14.1,M,-47.6,M,,0000*4E
$GNGSA,A,3,10,23,32,18,31,16,27,,,,,,1.46,0.66,1.30*15
$GNGSA,A,3,70,73,83,71,85,72,,,,,,,1.46,0.66,1.30*1B
$GPGSV,4,1,15,10,22,348,34,16,25,259,35,18,30,063,30,23,07,026,36*72
$GPGSV,4,2,15,25,05,137,,26,30,229,,27,29,322,36,28,38,170,*7D
$GPGSV,4,3,15,29,28,144,11,31,23,198,13,32,77,345,44,36,52,277,40*7C
$GPGSV,4,4,15,40,84,353,44,41,58,082,42,49,32,274,*49
$GLGSV,3,1,10,70,40,349,23,71,56,274,38,72,20,223,10,73,15,161,10*67
$GLGSV,3,2,10,74,15,206,,75,00,251,,83,21,123,18,84,43,060,18*67
$GLGSV,3,3,10,85,22,002,35,,,,32*5C
$GNGLL,0419.70737,S,05539.86043,E,115322.00,A,D*62
$GNGRS,115322.00,1,3.0,2.9,-0.2,-4.2,16.2,1.8,-2.3,,,,,*64
$GNGRS,115322.00,1,5.3,7.6,4.2,-1.3,-3.4,10.6,,,,,,*65
$GNGST,115322.00,5506669,,,,3.0,2.4,3.5*73
$GNZDA,115322.00,19,05,2025,00,00*76
$GNGBS,115322.00,3.0,2.4,3.5,,,,*5A
b0@
"\S$?]$EI$B&

 +MY {(4,Ta):R dF(]zG%8HI7<JKS{QT+<.U#% bUrJ$GNRMC,115323.00,A,0419.70739,S,05539.86040,E,0.067,,190525,,,D*7C
$GNVTG,,T,,M,0.067,N,0.124,K,D*3E
$GNGNS,115323.00,0419.70739,S,05539.86040,E,DA,12,0.74,14.1,-47.6,,0000*6D
$GNGGA,115323.00,0419.70739,S,05539.86040,E,2,12,0.74,14.1,M,-47.6,M,,0000*41
$GNGSA,A,3,10,23,32,18,31,16,27,,,,,,1.52,0.74,1.32*11
$GNGSA,A,3,70,83,71,85,72,,,,,,,,1.52,0.74,1.32*1B
$GPGSV,4,1,15,10,22,348,34,16,25,259,36,18,30,063,29,23,07,026,36*79
$GPGSV,4,2,15,25,05,137,13,26,30,229,,27,29,322,36,28,38,170,*7F
$GPGSV,4,3,15,29,28,144,,31,23,198,10,32,77,345,43,36,52,277,40*78
$GPGSV,4,4,15,40,84,353,44,41,58,082,41,49,32,274,*4A
$GLGSV,3,1,10,70,40,349,24,71,56,274,37,72,20,223,12,73,15,161,06*6A
$GLGSV,3,2,10,74,15,206,,75,00,251,,83,21,123,19,84,43,060,19*67
$GLGSV,3,3,10,85,22,002,35,,,,32*5C
$GNGLL,0419.70739,S,05539.86040,E,115323.00,A,D*6E
$GNGRS,115323.00,1,0.8,5.8,0.3,-4.2,74.5,2.2,-0.2,,,,,*4D
$GNGRS,115323.00,1,3.8,5.9,-0.3,-4.7,17.3,,,,,,,*4B
$GNGST,115323.00,48,,,,3.0,2.4,3.5*41
$GNZDA,115323.00,19,05,2025,00,00*77
$GNGBS,115323.00,3.0,2.4,3.5,,,,*5B
b0@p
"\>$)?$$B&
] +MY{(4+Ta):R dF(]zG%8H)IJKS{eT+<U# 4bp=r_$GNRMC,115324.00,A,0419.70740,S,05539.86038,E,0.094,,190525,,,D*76
$GNVTG,,T,,M,0.094,N,0.173,K,D*30
$GNGNS,115324.00,0419.70740,S,05539.86038,E,DA,14,0.66,14.1,-47.6,,0000*6E
$GNGGA,115324.00,0419.70740,S,05539.86038,E,2,12,0.66,14.1,M,-47.6,M,,0000*44
$GNGSA,A,3,10,23,32,18,31,16,27,,,,,,1.46,0.66,1.30*15
$GNGSA,A,3,70,73,83,84,71,85,72,,,,,,1.46,0.66,1.30*17
$GPGSV,4,1,15,10,22,348,34,16,25,259,36,18,30,063,28,23,06,027,36*78
$GPGSV,4,2,15,25,05,137,12,26,30,229,,27,29,322,36,28,38,170,04*7A
$GPGSV,4,3,15,29,28,144,18,31,23,198,09,32,77,345,43,36,52,277,40*79
$GPGSV,4,4,15,40,84,353,43,41,58,082,41,49,32,274,*4D
$GLGSV,3,1,10,70,40,349,23,71,56,274,37,72,20,223,09,73,15,161,09*68
$GLGSV,3,2,10,74,15,206,,75,00,251,,83,21,123,18,84,43,060,19*66
$GLGSV,3,3,10,85,22,002,35,,,,32*5C
$GNGLL,0419.70740,S,05539.86038,E,115324.00,A,D*68
$GNGRS,115324.00,1,0.6,4.6,-0.1,-5.4,16.3,3.0,-0.8,,,,,*68
$GNGRS,115324.00,1,3.8,7.6,6.1,-31.6,-2.9,-5.3,10.6,,,,,*50
$GNGST,115324.00,3180133,,,,3.0,2.3,3.5*76
$GNZDA,115324.00,19,05,2025,00,00*70
$GNGBS,115324.00,3.0,2.3,3.5,,,,*5B
b0@X
!\N#1?"#B&
J (MY.{&4*Ta':R d*F(]8G%8HIJKS{WT+<+U" bX%r7$GNRMC,115325.00,A,0419.70741,S,05539.86036,E,0.034,,190525,,,D*72
$GNVTG,,T,,M,0.034,N,0.063,K,D*3A
$GNGNS,115325.00,0419.70741,S,05539.86036,E,DA,14,0.66,14.1,-47.6,,0000*60
$GNGGA,115325.00,0419.70741,S,05539.86036,E,2,12,0.66,14.1,M,-47.6,M,,0000*4A
$GNGSA,A,3,10,23,32,18,31,16,27,,,,,,1.46,0.66,1.30*15
$GNGSA,A,3,70,73,83,84,71,85,72,,,,,,1.46,0.66,1.30*17
$GPGSV,4,1,15,10,22,348,33,16,25,259,35,18,30,063,27,23,06,027,34*71
$GPGSV,4,2,15,25,05,137,09,26,30,229,,27,29,322,35,28,38,170,05*72
$GPGSV,4,3,15,29,28,144,16,31,23,198,08,32,77,345,40,36,52,277,38*7A
$GPGSV,4,4,15,40,84,353,42,41,58,082,39,49,32,274,*43
$GLGSV,3,1,10,70,40,349,23,71,56,274,37,72,20,223,09,73,15,161,09*68
$GLGSV,3,2,10,74,15,206,,75,00,251,,83,21,123,17,84,43,060,20*63
$GLGSV,3,3,10,85,22,002,34,,,,32*5D
$GNGLL,0419.70741,S,05539.86036,E,115325.00,A,D*66
$GNGRS,115325.00,1,0.8,4.0,0.5,-7.6,16.1,3.0,-0.9,,,,,*4B
$GNGRS,115325.00,1,3.1,7.3,8.6,-25.2,-2.7,-5.9,10.5,,,,,*52
$GNGST,115325.00,3181147,,,,2.9,2.3,3.5*7D
$GNZDA,115325.00,19,05,2025,00,00*71
$GNGBS,115325.00,2.9,2.3,3.5,,,,*52
b0@@
\,?<TSB&
% MYo{4Ta:R dF(]G8HB=I
U$JKS{T+<UQ)b@r$GNRMC,115326.00,A,0419.70753,S,05539.86028,E,0.732,,190525,,,D*7C
$GNVTG,,T,,M,0.732,N,1.355,K,D*3C
$GNGNS,115326.00,0419.70753,S,05539.86028,E,DA,16,0.84,14.1,-47.6,,0000*61
$GNGGA,115326.00,0419.70753,S,05539.86028,E,2,12,0.84,14.1,M,-47.6,M,,0000*49
$GNGSA,A,3,10,23,25,32,18,28,31,16,27,,,,1.55,0.84,1.31*17
$GNGSA,A,3,70,73,83,84,71,85,72,,,,,,1.55,0.84,1.31*18
$GPGSV,4,1,15,10,22,348,27,16,25,259,24,18,30,063,26,23,06,027,23*73
$GPGSV,4,2,15,25,05,136,09,26,30,229,,27,29,322,25,28,38,170,07*70
$GPGSV,4,3,15,29,28,144,16,31,23,198,12,32,77,345,31,36,52,277,30*7F
$GPGSV,4,4,15,40,84,353,30,41,58,082,31,49,32,274,*4E
$GLGSV,3,1,10,70,40,349,21,71,56,274,29,72,20,223,08,73,15,161,10*6C
$GLGSV,3,2,10,74,15,206,,75,00,251,,83,21,123,15,84,43,060,18*6A
$GLGSV,3,3,10,85,22,002,24,,,,25*5A
$GNGLL,0419.70753,S,05539.86028,E,115326.00,A,D*69
$GNGRS,115326.00,1,3.0,3.4,36.7,1.1,-4.5,45.5,96.8,4.3,-0.4,,,*4B
$GNGRS,115326.00,1,2.2,93.0,9.7,-15.4,-2.9,-5.3,157,,,,,*45
$GNGST,115326.00,46,,,,3.0,2.4,3.5*4A
$GNZDA,115326.00,19,05,2025,00,00*72
$GNGBS,115326.00,3.0,2.4,3.5,,,,*5E
b0@(
\?
BC
&
\ MY{4Ta:R dF(]CG8H
>IJKS{.T+<pU*b(r$GNRMC,115327.00,A,0419.70772,S,05539.86011,E,0.946,,190525,,,D*79
$GNVTG,,T,,M,0.946,N,1.752,K,D*32
$GNGNS,115327.00,0419.70772,S,05539.86011,E,DA,14,0.66,14.2,-47.6,,0000*64
$GNGGA,115327.00,0419.70772,S,05539.86011,E,2,12,0.66,14.2,M,-47.6,M,,0000*4E
$GNGSA,A,3,10,23,32,18,28,31,16,27,,,,,1.39,0.66,1.23*15
$GNGSA,A,3,70,83,84,71,85,72,,,,,,,1.39,0.66,1.23*19
$GPGSV,4,1,15,10,22,348,19,16,25,259,23,18,30,063,25,23,06,027,28*71
$GPGSV,4,2,15,25,05,136,,26,30,228,,27,29,322,24,28,38,170,10*7F
$GPGSV,4,3,15,29,28,144,15,31,23,198,13,32,77,345,30,36,52,277,30*7C
$GPGSV,4,4,15,40,84,353,31,41,58,082,29,49,32,274,*46
$GLGSV,3,1,10,70,40,349,21,71,56,274,28,72,20,223,10,73,15,161,06*63
$GLGSV,3,2,10,74,15,206,,75,00,251,,83,21,123,15,84,43,060,16*64
$GLGSV,3,3,10,85,22,002,25,,,,26*58
$GNGLL,0419.70772,S,05539.86011,E,115327.00,A,D*61
$GNGRS,115327.00,1,4.1,6.7,-0.7,-5.0,45.2,16.3,2.1,0.7,,,,*56
$GNGRS,115327.00,1,3.2,10.7,-9.1,-3.6,-10.0,10.9,,,,,,*4D
$GNGST,115327.00,86592,,,,3.2,2.6,3.7*7B
$GNZDA,115327.00,19,05,2025,00,00*73
$GNGBS,115327.00,3.2,2.6,3.7,,,,*5D
b0@
"\#"?z!"B&
FL )MYf{%4)Ta':R dF(]eG8SHIJKS{ST+<U >XbrO$GNRMC,115328.00,A,0419.70782,S,05539.86006,E,0.080,,190525,,,D*7C
$GNVTG,,T,,M,0.080,N,0.148,K,D*3D
$GNGNS,115328.00,0419.70782,S,05539.86006,E,DA,14,0.71,14.2,-47.6,,0000*64
$GNGGA,115328.00,0419.70782,S,05539.86006,E,2,12,0.71,14.2,M,-47.6,M,,0000*4E
$GNGSA,A,3,29,10,23,32,18,28,16,27,,,,,1.43,0.71,1.24*10
$GNGSA,A,3,70,73,83,84,71,85,,,,,,,1.43,0.71,1.24*14
$GPGSV,4,1,15,10,22,348,34,16,25,259,34,18,30,063,25,23,06,027,33*72
$GPGSV,4,2,15,25,05,136,,26,30,228,,27,29,322,34,28,38,170,09*76
$GPGSV,4,3,15,29,28,144,13,31,23,198,06,32,77,345,41,36,52,277,37*7F
$GPGSV,4,4,15,40,84,353,41,41,58,082,39,49,32,274,*40
$GLGSV,3,1,10,70,40,349,19,71,56,274,27,72,20,223,05,73,15,161,07*62
$GLGSV,3,2,10,74,15,206,,75,00,251,,83,21,123,12,84,43,060,12*67
$GLGSV,3,3,10,85,22,002,32,,,,27*5F
$GNGLL,0419.70782,S,05539.86006,E,115328.00,A,D*67
$GNGRS,115328.00,1,3.3,2.9,7.0,1.0,-3.9,45.2,2.4,0.0,,,,*43
$GNGRS,115328.00,1,3.6,7.9,13.6,-5.8,-4.3,-9.6,,,,,,*4B
$GNGST,115328.00,3179277,,,,3.3,2.6,3.7*7B
$GNZDA,115328.00,19,05,2025,00,00*7C
$GNGBS,115328.00,3.3,2.6,3.7,,,,*53
b0@
\3?Ba&
h (MY{'4)Ta&:R dF(]G"8YH#I#JKS{iT+<qU \ibr$GNRMC,115329.00,A,0419.70787,S,05539.86006,E,0.049,,190525,,,D*7D
$GNVTG,,T,,M,0.049,N,0.092,K,D*3E
$GNGNS,115329.00,0419.70787,S,05539.86006,E,DA,16,0.77,14.0,-47.6,,0000*66
$GNGGA,115329.00,0419.70787,S,05539.86006,E,2,12,0.77,14.0,M,-47.6,M,,0000*4E
$GNGSA,A,3,29,10,23,32,18,28,31,16,27,,,,1.52,0.77,1.31*10
$GNGSA,A,3,70,73,83,84,71,85,72,,,,,,1.52,0.77,1.31*13
$GPGSV,4,1,15,10,22,348,30,16,25,259,30,18,30,063,25,23,06,027,29*79
$GPGSV,4,2,15,25,05,136,,26,30,228,,27,29,322,31,28,38,169,08*7A
$GPGSV,4,3,15,29,28,144,12,31,23,198,11,32,77,345,40,36,52,277,39*77
$GPGSV,4,4,15,40,84,353,41,41,58,082,38,49,32,274,*41
$GLGSV,3,1,10,70,40,349,19,71,56,274,34,72,20,223,09,73,15,161,08*63
$GLGSV,3,2,10,74,15,206,,75,00,251,,83,21,123,12,84,43,060,12*67
$GLGSV,3,3,10,85,22,002,32,,,,28*50
$GNGLL,0419.70787,S,05539.86006,E,115329.00,A,D*63
$GNGRS,115329.00,1,1.9,0.5,6.7,-0.6,-2.3,-30.5,24.1,1.9,3.5,,,*5A
$GNGRS,115329.00,1,2.0,91.3,13.8,-6.5,-1.7,-7.5,-68.8,,,,,*41
$GNGST,115329.00,53,,,,3.4,2.7,3.8*4B
$GNZDA,115329.00,19,05,2025,00,00*7D
$GNGBS,115329.00,3.4,2.7,3.8,,,,*5B
b0@
#\6 ?`!C BO&y
I\ )MY{(4)Ta':R dF(]G&8H
5IJKS{[T+<U%M#|Obrm$GNRMC,115330.00,A,0419.70781,S,05539.86015,E,0.159,,190525,,,D*71
$GNVTG,,T,,M,0.159,N,0.294,K,D*3A
$GNGNS,115330.00,0419.70781,S,05539.86015,E,DA,14,0.63,14.1,-47.6,,0000*6C
$GNGGA,115330.00,0419.70781,S,05539.86015,E,2,12,0.63,14.1,M,-47.6,M,,0000*46
$GNGSA,A,3,10,23,32,18,28,31,16,27,,,,,1.36,0.63,1.20*1C
$GNGSA,A,3,70,83,84,71,85,72,,,,,,,1.36,0.63,1.20*10
$GPGSV,4,1,15,10,22,348,35,16,25,259,32,18,30,063,25,23,06,027,33*75
$GPGSV,4,2,15,25,05,136,,26,30,228,,27,29,322,32,28,38,169,09*78
