$GNRMC,125844.00,A,0419.78383,S,05539.65544,E,0.037,,200525,,,D*7B
$GNVTG,,T,,M,0.037,N,0.069,K,D*33
$GNGGA,125844.00,0419.78383,S,05539.65544,E,2,12,0.73,8.0,M,-47.6,M,,0000*72
$GNGSA,A,3,32,10,28,26,16,27,31,40,08,,,,1.39,0.73,1.19*18
$GNGSA,A,3,85,72,71,75,86,65,87,,,,,,1.39,0.73,1.19*14
$GPGSV,5,1,17,04,01,221,26,08,17,310,27,10,13,015,28,16,24,226,32*79
$GPGSV,5,2,17,18,32,103,22,23,01,053,,26,28,196,31,27,52,290,28*75
$GPGSV,5,3,17,28,57,127,28,29,01,147,10,31,46,175,30,32,43,004,30*77
$GPGSV,5,4,17,36,52,277,30,40,84,353,28,41,58,082,29,49,32,274,*7E
$GPGSV,5,5,17,50,10,089,*4A
$GLGSV,3,1,11,65,29,261,34,66,01,222,27,71,06,011,25,72,34,329,28*6C
$GLGSV,3,2,11,74,13,120,11,75,18,171,19,76,01,223,29,84,03,149,*69
$GLGSV,3,3,11,85,47,125,27,86,53,017,23,87,15,347,20*5E
$GNGLL,0419.78383,S,05539.65544,E,125844.00,A,D*66
$GNRMC,125845.00,A,0419.78383,S,05539.65542,E,0.015,,200525,,,D*7C
$GNVTG,,T,,M,0.015,N,0.028,K,D*36
$GNGGA,125845.00,0419.78383,S,05539.65542,E,2,12,0.73,8.1,M,-47.6,M,,0000*74
$GNGSA,A,3,32,10,28,26,16,27,31,40,08,,,,1.39,0.73,1.19*18
$GNGSA,A,3,85,72,71,75,86,65,87,,,,,,1.39,0.73,1.19*14
$GPGSV,5,1,17,04,01,221,23,08,17,310,26,10,13,015,29,16,24,226,32*7C
$GPGSV,5,2,17,18,32,103,21,23,01,053,,26,28,196,38,27,52,290,33*75
$GPGSV,5,3,17,28,57,127,29,29,01,147,06,31,46,175,37,32,43,004,34*72
$GPGSV,5,4,17,36,52,277,34,40,84,353,28,41,58,082,30,49,32,274,*72
$GPGSV,5,5,17,50,10,089,*4A
$GLGSV,3,1,11,65,29,261,36,66,01,222,26,71,06,011,26,72,34,329,27*63
$GLGSV,3,2,11,74,13,120,10,75,18,171,17,76,01,223,28,84,03,149,*67
$GLGSV,3,3,11,85,47,125,27,86,53,017,25,87,15,347,19*52
$GNGLL,0419.78383,S,05539.65542,E,125845.00,A,D*61
$GNRMC,125846.00,A,0419.78379,S,05539.65538,E,0.029,,200525,,,D*78
$GNVTG,,T,,M,0.029,N,0.054,K,D*32
$GNGGA,125846.00,0419.78379,S,05539.65538,E,2,12,0.66,8.3,M,-47.6,M,,0000*79
$GNGSA,A,3,32,18,10,28,26,16,27,31,40,08,,,1.23,0.66,1.04*12
$GNGSA,A,3,85,72,71,75,86,65,87,,,,,,1.23,0.66,1.04*17
$GPGSV,5,1,17,04,01,221,22,08,17,310,30,10,13,015,36,16,24,226,38*7E
$GPGSV,5,2,17,18,32,103,24,23,01,053,,26,28,196,41,27,52,290,36*7B
$GPGSV,5,3,17,28,57,127,34,29,01,147,07,31,46,175,40,32,43,004,37*7C
$GPGSV,5,4,17,36,52,277,34,40,84,353,36,41,58,082,37,49,32,274,*7A
$GPGSV,5,5,17,50,10,089,*4A
$GLGSV,3,1,11,65,29,261,38,66,01,222,27,71,06,011,27,72,34,329,28*62
$GLGSV,3,2,11,74,13,120,09,75,18,171,18,76,01,223,31,84,03,149,*68
$GLGSV,3,3,11,85,47,125,30,86,53,017,26,87,15,347,19*57
$GNGLL,0419.78379,S,05539.65538,E,125846.00,A,D*6A
$GNRMC,125847.00,A,0419.78377,S,05539.65537,E,0.018,,200525,,,D*7A
$GNVTG,,T,,M,0.018,N,0.033,K,D*31
$GNGGA,125847.00,0419.78377,S,05539.65537,E,2,12,0.66,8.3,M,-47.6,M,,0000*79
$GNGSA,A,3,32,18,10,28,26,16,27,31,40,08,,,1.23,0.66,1.04*12
$GNGSA,A,3,85,72,71,75,86,65,87,,,,,,1.23,0.66,1.04*17
$GPGSV,5,1,17,04,01,221,25,08,17,310,31,10,13,015,38,16,24,226,41*78
$GPGSV,5,2,17,18,32,103,31,23,01,053,,26,28,196,40,27,52,290,35*7D
$GPGSV,5,3,17,28,57,127,36,29,01,147,07,31,46,175,34,32,43,004,36*7C
$GPGSV,5,4,17,36,52,277,31,40,84,353,38,41,58,082,35,49,32,274,*73
$GPGSV,5,5,17,50,10,089,*4A
$GLGSV,3,1,11,65,29,261,36,66,01,222,31,71,06,011,26,72,34,329,28*6A
$GLGSV,3,2,11,74,13,120,09,75,18,171,20,76,01,223,31,84,03,149,*63
$GLGSV,3,3,11,85,47,125,34,86,53,017,27,87,15,347,21*59
$GNGLL,0419.78377,S,05539.65537,E,125847.00,A,D*6A
$GNRMC,125848.00,A,0419.78373,S,05539.65534,E,0.059,,200525,,,D*77
$GNVTG,,T,,M,0.059,N,0.110,K,D*34
$GNGGA,125848.00,0419.78373,S,05539.65534,E,2,12,0.66,8.6,M,-47.6,M,,0000*74
$GNGSA,A,3,32,18,10,28,26,16,27,31,40,08,,,1.23,0.66,1.04*12
$GNGSA,A,3,85,72,71,75,86,65,87,,,,,,1.23,0.66,1.04*17
$GPGSV,5,1,17,04,01,221,26,08,17,310,31,10,13,015,38,16,24,226,42*78
$GPGSV,5,2,17,18,32,103,31,23,01,053,,26,28,196,40,27,52,290,36*7E
$GPGSV,5,3,17,28,57,127,37,29,01,147,08,31,46,175,35,32,43,004,37*72
$GPGSV,5,4,17,36,52,277,33,40,84,353,39,41,58,082,35,49,32,274,*70
$GPGSV,5,5,17,50,10,089,*4A
$GLGSV,3,1,11,65,29,261,36,66,01,222,31,71,06,011,25,72,34,329,28*69
$GLGSV,3,2,11,74,13,120,07,75,18,171,23,76,01,223,32,84,02,149,*6C
$GLGSV,3,3,11,85,47,125,33,86,53,017,27,87,15,347,20*5F
$GNGLL,0419.78373,S,05539.65534,E,125848.00,A,D*62
$GNRMC,125849.00,A,0419.78371,S,05539.65532,E,0.078,,200525,,,D*71
$GNVTG,,T,,M,0.078,N,0.144,K,D*36
$GNGGA,125849.00,0419.78371,S,05539.65532,E,2,12,0.66,8.9,M,-47.6,M,,0000*7E
$GNGSA,A,3,32,18,10,28,26,16,27,31,40,08,,,1.23,0.66,1.04*12
$GNGSA,A,3,85,72,71,75,86,65,87,,,,,,1.23,0.66,1.04*17
$GPGSV,5,1,17,04,01,221,26,08,17,310,31,10,13,015,38,16,24,226,42*78
$GPGSV,5,2,17,18,32,103,31,23,01,053,,26,28,196,40,27,52,290,35*7D
$GPGSV,5,3,17,28,57,127,37,29,01,147,11,31,46,175,35,32,43,004,37*7A
$GPGSV,5,4,17,36,52,277,33,40,84,353,38,41,58,082,36,49,32,274,*72
$GPGSV,5,5,17,50,10,089,*4A
$GLGSV,3,1,11,65,29,261,36,66,01,222,30,71,06,011,26,72,34,329,29*6A
$GLGSV,3,2,11,74,13,120,11,75,18,171,23,76,01,223,32,84,02,149,*6B
$GLGSV,3,3,11,85,46,126,32,86,53,017,27,87,15,347,19*56
$GNGLL,0419.78371,S,05539.65532,E,125849.00,A,D*67
$GNRMC,125850.00,A,0419.78369,S,05539.65530,E,0.055,,200525,,,D*7D
$GNVTG,,T,,M,0.055,N,0.102,K,D*3B
$GNGGA,125850.00,0419.78369,S,05539.65530,E,2,12,0.66,8.9,M,-47.6,M,,0000*7D
$GNGSA,A,3,32,18,10,28,26,16,27,31,40,08,,,1.23,0.66,1.04*12
$GNGSA,A,3,85,72,71,75,86,74,65,87,,,,,1.23,0.66,1.04*14
$GPGSV,5,1,17,04,01,221,26,08,17,310,24,10,13,015,40,16,24,226,42*73
$GPGSV,5,2,17,18,32,103,26,23,01,053,,26,28,196,42,27,52,290,29*74
$GPGSV,5,3,17,28,57,127,38,29,01,147,08,31,46,175,39,32,43,004,43*72
$GPGSV,5,4,17,36,52,277,28,40,84,353,40,41,58,082,33,49,32,274,*72
$GPGSV,5,5,17,50,10,089,*4A
$GLGSV,3,1,11,65,29,261,36,66,01,222,30,71,06,011,24,72,34,329,29*68
$GLGSV,3,2,11,74,13,120,07,75,18,171,21,76,01,223,31,84,02,149,*6D
$GLGSV,3,3,11,85,46,126,32,86,54,017,35,87,15,347,28*50
$GNGLL,0419.78369,S,05539.65530,E,125850.00,A,D*64
$GNRMC,125851.00,A,0419.78366,S,05539.65529,E,0.079,,200525,,,D*75
$GNVTG,,T,,M,0.079,N,0.146,K,D*35
$GNGGA,125851.00,0419.78366,S,05539.65529,E,2,12,0.65,8.8,M,-47.6,M,,0000*79
$GNGSA,A,3,32,10,28,26,16,27,31,40,08,,,,1.16,0.65,0.96*14
$GNGSA,A,3,85,72,71,75,86,74,65,87,,,,,1.16,0.65,0.96*1B
$GPGSV,5,1,17,04,01,221,27,08,17,310,26,10,13,015,37,16,24,226,43*71
$GPGSV,5,2,17,18,32,103,,23,01,053,,26,28,196,43,27,52,290,31*78
$GPGSV,5,3,17,28,57,127,38,29,01,147,09,31,46,175,43,32,43,004,46*7B
$GPGSV,5,4,17,36,52,277,32,40,84,353,38,41,58,082,37,49,32,274,*72
$GPGSV,5,5,17,50,10,089,*4A
$GLGSV,3,1,11,65,29,261,35,66,01,222,30,71,06,011,22,72,34,329,28*6C
$GLGSV,3,2,11,74,13,120,07,75,18,171,18,76,01,223,31,84,02,149,*67
$GLGSV,3,3,11,85,46,126,33,86,54,017,33,87,15,347,33*5D
$GNGLL,0419.78366,S,05539.65529,E,125851.00,A,D*62
$GNRMC,125852.00,A,0419.78361,S,05539.65529,E,0.144,,200525,,,D*7E
$GNVTG,,T,,M,0.144,N,0.266,K,D*3B
$GNGGA,125852.00,0419.78361,S,05539.65529,E,2,12,0.72,8.9,M,-47.6,M,,0000*7A
$GNGSA,A,3,32,10,28,26,16,27,31,40,08,,,,1.27,0.72,1.05*1B
$GNGSA,A,3,85,72,71,75,86,65,87,,,,,,1.27,0.72,1.05*17
$GPGSV,5,1,17,04,01,221,27,08,17,310,24,10,13,015,37,16,24,226,44*74
$GPGSV,5,2,17,18,32,103,,23,01,053,,26,28,196,43,27,52,290,25*7D
$GPGSV,5,3,17,28,57,127,38,29,01,147,09,31,46,175,41,32,43,004,47*78
$GPGSV,5,4,17,36,52,277,30,40,84,353,42,41,58,082,35,49,32,274,*7F
$GPGSV,5,5,17,50,10,089,*4A
$GLGSV,3,1,11,65,29,261,34,66,01,222,31,71,06,011,19,72,34,329,28*64
$GLGSV,3,2,11,74,13,120,07,75,18,171,15,76,01,223,31,84,02,149,*6A
$GLGSV,3,3,11,85,46,126,32,86,54,017,36,87,15,347,28*53
$GNGLL,0419.78361,S,05539.65529,E,125852.00,A,D*66
$GNRMC,125853.00,A,0419.78358,S,05539.65531,E,0.100,,200525,,,D*7C
$GNVTG,,T,,M,0.100,N,0.186,K,D*36
$GNGGA,125853.00,0419.78358,S,05539.65531,E,2,12,0.72,9.0,M,-47.6,M,,0000*70
$GNGSA,A,3,32,10,28,26,16,27,31,40,08,,,,1.27,0.72,1.05*1B
$GNGSA,A,3,85,72,71,75,86,74,65,87,,,,,1.27,0.72,1.05*14
$GPGSV,5,1,17,04,01,221,27,08,17,310,25,10,13,015,41,16,24,226,42*72
$GPGSV,5,2,17,18,32,103,,23,01,053,,26,28,196,42,27,52,290,31*79
$GPGSV,5,3,17,28,57,127,39,29,01,147,08,31,46,175,42,32,43,004,44*78
$GPGSV,5,4,17,36,52,277,33,40,84,353,42,41,58,082,35,49,32,274,*7C
$GPGSV,5,5,17,50,10,089,*4A
$GLGSV,3,1,11,65,29,261,32,66,01,222,32,71,06,011,22,72,34,329,29*68
$GLGSV,3,2,11,74,13,120,09,75,18,171,16,76,01,223,31,84,02,149,*67
$GLGSV,3,3,11,85,46,126,32,86,54,017,35,87,15,347,26*5E
$GNGLL,0419.78358,S,05539.65531,E,125853.00,A,D*64
$GNRMC,125854.00,A,0419.78356,S,05539.65528,E,0.056,,200525,,,D*7F
$GNVTG,,T,,M,0.056,N,0.103,K,D*39
$GNGGA,125854.00,0419.78356,S,05539.65528,E,2,12,0.61,9.2,M,-47.6,M,,0000*71
$GNGSA,A,3,32,18,10,28,26,16,27,31,40,08,,,1.14,0.61,0.96*1B
$GNGSA,A,3,85,72,71,75,86,74,65,87,,,,,1.14,0.61,0.96*1D
$GPGSV,5,1,17,04,02,221,26,08,17,310,26,10,13,015,41,16,24,226,42*73
$GPGSV,5,2,17,18,32,103,30,23,01,053,,26,28,196,43,27,52,290,30*7A
$GPGSV,5,3,17,28,57,127,39,29,01,147,08,31,46,175,39,32,43,004,40*70
$GPGSV,5,4,17,36,52,277,30,40,84,353,38,41,58,082,36,49,32,274,*71
$GPGSV,5,5,17,50,10,089,*4A
$GLGSV,3,1,11,65,29,261,38,66,01,222,31,71,06,011,22,72,34,329,29*61
$GLGSV,3,2,11,74,13,120,08,75,18,171,16,76,01,223,31,84,02,149,*66
$GLGSV,3,3,11,85,46,126,33,86,54,017,35,87,15,347,27*5E
$GNGLL,0419.78356,S,05539.65528,E,125854.00,A,D*65
$GNRMC,125855.00,A,0419.78355,S,05539.65532,E,0.034,,200525,,,D*72
$GNVTG,,T,,M,0.034,N,0.063,K,D*3A
$GNGGA,125855.00,0419.78355,S,05539.65532,E,2,12,0.61,9.0,M,-47.6,M,,0000*7A
$GNGSA,A,3,32,18,10,28,26,16,27,31,40,08,,,1.14,0.61,0.96*1B
$GNGSA,A,3,85,72,71,75,86,74,65,87,,,,,1.14,0.61,0.96*1D
$GPGSV,5,1,17,04,02,221,26,08,17,310,25,10,13,015,38,16,24,226,41*7D
$GPGSV,5,2,17,18,32,103,28,23,01,053,,26,28,196,42,27,52,290,36*74
$GPGSV,5,3,17,28,57,127,35,29,01,147,11,31,46,175,39,32,43,004,38*7B
$GPGSV,5,4,17,36,52,277,29,40,84,353,36,41,58,082,35,49,32,274,*74
$GPGSV,5,5,17,50,10,089,*4A
$GLGSV,3,1,11,65,29,261,35,66,01,222,31,71,06,011,23,72,34,329,17*60
$GLGSV,3,2,11,74,13,120,10,75,18,171,16,76,01,223,31,84,02,149,*6F
$GLGSV,3,3,11,85,46,126,33,86,54,017,33,87,15,347,36*58
$GNGLL,0419.78355,S,05539.65532,E,125855.00,A,D*6C
$GNRMC,125856.00,A,0419.78352,S,05539.65529,E,0.042,,200525,,,D*7D
$GNVTG,,T,,M,0.042,N,0.077,K,D*3E
$GNGGA,125856.00,0419.78352,S,05539.65529,E,2,12,0.66,9.2,M,-47.6,M,,0000*71
$GNGSA,A,3,32,18,10,28,26,16,27,31,40,08,,,1.23,0.66,1.04*12
$GNGSA,A,3,85,72,71,75,86,65,87,,,,,,1.23,0.66,1.04*17
$GPGSV,5,1,17,04,02,221,26,08,17,310,24,10,13,015,38,16,24,226,41*7C
$GPGSV,5,2,17,18,32,103,29,23,01,053,,26,28,196,42,27,52,290,35*76
$GPGSV,5,3,17,28,57,127,35,29,01,147,11,31,46,175,41,32,43,004,36*7A
$GPGSV,5,4,17,36,52,277,28,40,84,353,36,41,58,082,36,49,32,274,*76
$GPGSV,5,5,17,50,10,089,*4A
$GLGSV,3,1,11,65,29,261,36,66,01,222,32,71,06,011,23,72,34,329,17*60
$GLGSV,3,2,11,74,13,120,10,75,18,171,14,76,01,223,31,84,02,149,*6D
$GLGSV,3,3,11,85,46,126,35,86,54,017,33,87,15,347,37*5F
$GNGLL,0419.78352,S,05539.65529,E,125856.00,A,D*62
$GNRMC,125857.00,A,0419.78350,S,05539.65527,E,0.072,,200525,,,D*73
$GNVTG,,T,,M,0.072,N,0.133,K,D*3C
$GNGGA,125857.00,0419.78350,S,05539.65527,E,2,12,0.66,9.3,M,-47.6,M,,0000*7D
$GNGSA,A,3,32,18,10,28,26,16,27,31,40,08,,,1.23,0.66,1.04*12
$GNGSA,A,3,85,72,71,75,86,65,87,,,,,,1.23,0.66,1.04*17
$GPGSV,5,1,17,04,02,221,26,08,17,310,25,10,13,015,35,16,24,226,39*7F
$GPGSV,5,2,17,18,32,103,29,23,01,053,,26,28,196,41,27,52,290,33*73
$GPGSV,5,3,17,28,57,127,34,29,01,147,11,31,46,175,40,32,43,004,35*79
$GPGSV,5,4,17,36,52,277,27,40,84,353,35,41,58,082,35,49,32,274,*79
$GPGSV,5,5,17,50,10,089,*4A
$GLGSV,3,1,11,65,29,261,36,66,01,222,32,71,06,011,22,72,34,329,18*6E
$GLGSV,3,2,11,74,13,120,09,75,18,171,14,76,01,223,30,84,02,149,*64
$GLGSV,3,3,11,85,46,126,34,86,54,017,35,87,15,347,37*58
$GNGLL,0419.78350,S,05539.65527,E,125857.00,A,D*6F
$GNRMC,125858.00,A,0419.78347,S,05539.65528,E,0.011,,200525,,,D*70
$GNVTG,,T,,M,0.011,N,0.020,K,D*3A
$GNGGA,125858.00,0419.78347,S,05539.65528,E,2,12,0.66,9.3,M,-47.6,M,,0000*7B
$GNGSA,A,3,32,18,10,28,26,16,27,31,40,08,,,1.23,0.66,1.04*12
$GNGSA,A,3,85,72,71,75,86,65,87,,,,,,1.23,0.66,1.04*17
$GPGSV,5,1,17,04,02,221,25,08,17,310,26,10,13,015,35,16,24,226,39*7F
$GPGSV,5,2,17,18,32,103,26,23,01,053,,26,28,196,40,27,52,290,33*7D
$GPGSV,5,3,17,28,57,127,33,29,01,147,08,31,46,175,39,32,43,004,35*78
$GPGSV,5,4,17,36,52,277,27,40,84,353,36,41,58,082,34,49,32,274,*7B
$GPGSV,5,5,17,50,10,089,*4A
$GLGSV,3,1,11,65,29,261,36,66,01,222,32,71,06,011,25,72,34,329,19*68
$GLGSV,3,2,11,74,13,120,08,75,18,171,16,76,01,223,30,84,02,149,*67
$GLGSV,3,3,11,85,46,126,34,86,54,017,36,87,15,347,38*54
$GNGLL,0419.78347,S,05539.65528,E,125858.00,A,D*69
$GNRMC,125859.00,A,0419.78344,S,05539.65525,E,0.098,,200525,,,D*7E
$GNVTG,,T,,M,0.098,N,0.182,K,D*32
$GNGGA,125859.00,0419.78344,S,05539.65525,E,2,12,0.66,9.4,M,-47.6,M,,0000*73
$GNGSA,A,3,32,18,10,28,26,16,27,31,40,08,,,1.23,0.66,1.04*12
$GNGSA,A,3,85,72,71,75,86,65,87,,,,,,1.23,0.66,1.04*17
$GPGSV,5,1,17,04,02,221,25,08,17,310,25,10,13,015,34,16,24,226,38*7C
$GPGSV,5,2,17,18,32,103,24,23,01,053,,26,28,196,40,27,52,290,33*7F
$GPGSV,5,3,17,28,57,127,33,29,01,147,08,31,46,175,39,32,43,004,33*7E
$GPGSV,5,4,17,36,52,277,27,40,84,353,36,41,58,082,33,49,32,274,*7C
$GPGSV,5,5,17,50,10,089,*4A
$GLGSV,3,1,11,65,29,261,36,66,01,222,32,71,06,011,32,72,34,329,19*6E
$GLGSV,3,2,11,74,13,120,11,75,18,171,17,76,01,223,29,84,02,149,*66
$GLGSV,3,3,11,85,46,126,34,86,54,017,36,87,15,347,37*5B
$GNGLL,0419.78344,S,05539.65525,E,125859.00,A,D*66
$GNRMC,125900.00,A,0419.78342,S,05539.65523,E,0.016,,200525,,,D*75
$GNVTG,,T,,M,0.016,N,0.030,K,D*3C
$GNGGA,125900.00,0419.78342,S,05539.65523,E,2,12,0.66,9.5,M,-47.6,M,,0000*7F
$GNGSA,A,3,32,18,10,28,26,16,27,31,40,08,,,1.23,0.66,1.04*12
$GNGSA,A,3,85,72,71,75,86,65,87,,,,,,1.23,0.66,1.04*17
$GPGSV,5,1,17,04,02,221,26,08,18,309,25,10,13,015,35,16,24,226,38*79
$GPGSV,5,2,17,18,32,103,23,23,01,053,,26,28,196,40,27,52,290,32*79
$GPGSV,5,3,17,28,57,127,33,29,01,147,08,31,46,175,39,32,43,004,33*7E
$GPGSV,5,4,17,36,52,277,27,40,84,353,36,41,58,082,33,49,32,274,*7C
$GPGSV,5,5,17,50,10,089,*4A
$GLGSV,3,1,11,65,29,261,36,66,01,222,33,71,06,011,31,72,34,329,20*66
$GLGSV,3,2,11,74,13,120,10,75,18,171,20,76,01,223,28,84,02,149,*62
$GLGSV,3,3,11,85,46,126,35,86,54,017,36,87,15,347,36*5B
$GNGLL,0419.78342,S,05539.65523,E,125900.00,A,D*6B
$GNRMC,125901.00,A,0419.78338,S,05539.65524,E,0.012,,200525,,,D*7A
$GNVTG,,T,,M,0.012,N,0.022,K,D*3B
$GNGGA,125901.00,0419.78338,S,05539.65524,E,2,12,0.66,9.5,M,-47.6,M,,0000*74
$GNGSA,A,3,32,18,10,28,26,16,27,31,40,08,,,1.23,0.66,1.04*12
$GNGSA,A,3,85,72,71,75,86,65,87,,,,,,1.23,0.66,1.04*17
$GPGSV,5,1,17,04,02,221,26,08,18,309,35,10,13,015,35,16,24,226,39*79
$GPGSV,5,2,17,18,32,103,23,23,01,053,,26,28,196,40,27,52,290,32*79
$GPGSV,5,3,17,28,57,127,33,29,01,147,10,31,46,175,37,32,43,004,36*7C
$GPGSV,5,4,17,36,52,277,28,40,84,353,36,41,58,082,33,49,32,274,*73
$GPGSV,5,5,17,50,10,089,*4A
$GLGSV,3,1,11,65,29,261,35,66,01,222,33,71,06,011,29,72,34,329,19*66
$GLGSV,3,2,11,74,13,120,06,75,18,171,20,76,01,223,27,84,02,149,*6A
$GLGSV,3,3,11,85,46,126,35,86,54,017,36,87,15,347,37*5A
$GNGLL,0419.78338,S,05539.65524,E,125901.00,A,D*60
$GNRMC,125902.00,A,0419.78336,S,05539.65524,E,0.056,,200525,,,D*77
$GNVTG,,T,,M,0.056,N,0.104,K,D*3E
$GNGGA,125902.00,0419.78336,S,05539.65524,E,2,12,0.66,9.5,M,-47.6,M,,0000*79
$GNGSA,A,3,32,18,10,28,26,16,27,31,40,08,,,1.23,0.66,1.04*12
$GNGSA,A,3,85,72,71,75,86,65,87,,,,,,1.23,0.66,1.04*17
$GPGSV,5,1,17,04,02,221,27,08,18,309,26,10,13,016,35,16,24,226,38*78
$GPGSV,5,2,17,18,32,103,23,23,01,053,,26,28,196,40,27,52,290,33*78
$GPGSV,5,3,17,28,57,127,33,29,01,147,10,31,46,175,38,32,43,004,36*73
$GPGSV,5,4,17,36,52,277,29,40,84,353,37,41,58,082,33,49,32,274,*73
$GPGSV,5,5,17,50,10,089,*4A
$GLGSV,3,1,11,65,29,261,36,66,01,222,33,71,06,011,19,72,34,329,19*66
$GLGSV,3,2,11,74,13,120,06,75,18,171,20,76,01,223,28,84,02,149,*65
$GLGSV,3,3,11,85,46,126,34,86,54,017,36,87,15,347,37*5B
$GNGLL,0419.78336,S,05539.65524,E,125902.00,A,D*6D
$GNRMC,125903.00,A,0419.78332,S,05539.65522,E,0.057,,200525,,,D*75
$GNVTG,,T,,M,0.057,N,0.105,K,D*3E
$GNGGA,125903.00,0419.78332,S,05539.65522,E,2,12,0.66,9.6,M,-47.6,M,,0000*79
$GNGSA,A,3,32,18,10,28,26,16,27,31,40,08,,,1.23,0.66,1.04*12
$GNGSA,A,3,85,72,71,75,86,65,87,,,,,,1.23,0.66,1.04*17
$GPGSV,5,1,17,04,02,221,27,08,18,309,31,10,13,016,35,16,24,226,38*7E
$GPGSV,5,2,17,18,32,103,24,23,01,053,,26,28,196,40,27,52,290,32*7E
$GPGSV,5,3,17,28,57,127,34,29,01,147,08,31,46,175,40,32,43,004,37*73
$GPGSV,5,4,17,36,52,277,29,40,84,353,37,41,58,082,34,49,32,274,*74
$GPGSV,5,5,17,50,10,089,*4A
$GLGSV,3,1,11,65,29,261,36,66,01,222,33,71,06,011,18,72,34,329,19*67
$GLGSV,3,2,11,74,13,120,11,75,18,171,21,76,01,223,28,84,02,149,*62
$GLGSV,3,3,11,85,46,126,34,86,54,017,36,87,15,347,37*5B
$GNGLL,0419.78332,S,05539.65522,E,125903.00,A,D*6E
$GNRMC,125904.00,A,0419.78330,S,05539.65526,E,0.065,,200525,,,D*75
$GNVTG,,T,,M,0.065,N,0.121,K,D*39
$GNGGA,125904.00,0419.78330,S,05539.65526,E,2,12,0.66,9.4,M,-47.6,M,,0000*7A
$GNGSA,A,3,32,18,10,28,26,16,27,31,40,08,,,1.23,0.66,1.04*12
$GNGSA,A,3,85,72,71,75,86,65,87,,,,,,1.23,0.66,1.04*17
$GPGSV,5,1,17,04,02,221,28,08,18,309,37,10,13,016,35,16,24,226,42*7A
$GPGSV,5,2,17,18,32,103,23,23,01,053,,26,28,196,40,27,52,290,38*73
$GPGSV,5,3,17,28,57,127,34,29,01,147,10,31,46,175,39,32,43,004,43*77
$GPGSV,5,4,17,36,52,277,38,40,84,353,32,41,58,082,36,49,32,274,*73
$GPGSV,5,5,17,50,10,089,*4A
$GLGSV,3,1,11,65,29,261,34,66,01,222,36,71,06,011,26,72,34,329,19*6D
$GLGSV,3,2,11,74,13,120,09,75,18,171,20,76,01,223,28,84,02,149,*6A
$GLGSV,3,3,11,85,46,126,29,86,54,017,27,87,15,347,37*57
$GNGLL,0419.78330,S,05539.65526,E,125904.00,A,D*6F
$GNRMC,125905.00,A,0419.78328,S,05539.65528,E,0.043,,200525,,,D*77
$GNVTG,,T,,M,0.043,N,0.080,K,D*37
$GNGGA,125905.00,0419.78328,S,05539.65528,E,2,12,0.66,9.3,M,-47.6,M,,0000*7B
$GNGSA,A,3,32,18,10,28,26,16,27,31,40,08,,,1.35,0.66,1.18*18
$GNGSA,A,3,85,72,71,75,86,65,87,,,,,,1.35,0.66,1.18*1D
$GPGSV,5,1,17,04,02,221,30,08,18,309,37,10,13,016,34,16,24,226,44*74
$GPGSV,5,2,17,18,32,103,25,23,01,053,,26,28,196,42,27,52,290,33*7C
$GPGSV,5,3,17,28,57,127,33,29,01,147,08,31,46,175,39,32,43,004,43*79
$GPGSV,5,4,17,36,52,277,32,40,84,353,37,41,58,082,39,49,32,274,*73
$GPGSV,5,5,17,50,10,089,*4A
$GLGSV,3,1,11,65,29,261,33,66,01,222,36,71,06,011,28,72,34,329,22*6C
$GLGSV,3,2,11,74,13,120,08,75,18,171,19,76,01,223,30,84,02,149,*68
$GLGSV,3,3,11,85,46,126,29,86,54,017,29,87,15,347,37*59
$GNGLL,0419.78328,S,05539.65528,E,125905.00,A,D*69
$GNRMC,125906.00,A,0419.78328,S,05539.65532,E,0.097,,200525,,,D*76
$GNVTG,,T,,M,0.097,N,0.180,K,D*3F
$GNGGA,125906.00,0419.78328,S,05539.65532,E,2,12,0.66,9.4,M,-47.6,M,,0000*74
$GNGSA,A,3,32,18,10,28,26,16,27,31,40,08,,,1.23,0.66,1.04*12
$GNGSA,A,3,85,72,71,75,86,65,87,,,,,,1.23,0.66,1.04*17
$GPGSV,5,1,17,04,02,221,30,08,18,309,35,10,13,016,33,16,24,226,40*75
$GPGSV,5,2,17,18,32,103,26,23,01,053,,26,28,196,40,27,52,290,29*76
$GPGSV,5,3,17,28,57,127,33,29,01,147,08,31,46,175,41,32,43,004,40*75
$GPGSV,5,4,17,36,52,277,32,40,84,353,29,41,58,082,34,49,32,274,*71
$GPGSV,5,5,17,50,10,089,*4A
$GLGSV,3,1,11,65,29,261,33,66,01,222,35,71,06,011,28,72,34,329,25*68
$GLGSV,3,2,11,74,13,120,10,75,18,171,17,76,01,223,30,84,02,149,*6F
$GLGSV,3,3,11,85,46,126,35,86,54,017,30,87,15,347,36*5D
$GNGLL,0419.78328,S,05539.65532,E,125906.00,A,D*61
$GNRMC,125907.00,A,0419.78328,S,05539.65536,E,0.054,,200525,,,D*7C
$GNVTG,,T,,M,0.054,N,0.100,K,D*38
$GNGGA,125907.00,0419.78328,S,05539.65536,E,2,12,0.66,9.3,M,-47.6,M,,0000*76
$GNGSA,A,3,32,18,10,28,26,16,27,31,40,08,,,1.23,0.66,1.04*12
$GNGSA,A,3,85,72,71,75,86,65,87,,,,,,1.23,0.66,1.04*17
$GPGSV,5,1,17,04,02,221,29,08,18,309,32,10,13,016,35,16,24,226,40*7C
$GPGSV,5,2,17,18,32,103,25,23,01,053,,26,28,196,40,27,52,290,37*7A
$GPGSV,5,3,17,28,57,127,33,29,01,147,08,31,46,175,40,32,43,004,33*70
$GPGSV,5,4,17,36,52,277,32,40,84,353,36,41,58,082,33,49,32,274,*78
$GPGSV,5,5,17,50,10,089,*4A
$GLGSV,3,1,11,65,29,261,35,66,01,222,35,71,06,011,27,72,34,329,24*60
$GLGSV,3,2,11,74,13,120,10,75,18,171,19,76,01,223,29,84,02,149,*69
$GLGSV,3,3,11,85,46,126,35,86,54,017,33,87,15,347,39*51
$GNGLL,0419.78328,S,05539.65536,E,125907.00,A,D*64
$GNRMC,125908.00,A,0419.78326,S,05539.65536,E,0.024,,200525,,,D*7A
$GNVTG,,T,,M,0.024,N,0.044,K,D*3E
$GNGGA,125908.00,0419.78326,S,05539.65536,E,2,12,0.61,9.2,M,-47.6,M,,0000*71
$GNGSA,A,3,32,18,10,28,26,16,27,31,40,08,,,1.14,0.61,0.96*1B
$GNGSA,A,3,85,72,71,75,86,74,65,87,,,,,1.14,0.61,0.96*1D
$GPGSV,5,1,17,04,02,221,29,08,18,309,24,10,13,016,35,16,24,225,40*78
$GPGSV,5,2,17,18,32,103,26,23,01,053,,26,28,196,41,27,52,290,36*79
$GPGSV,5,3,17,28,57,127,34,29,01,147,09,31,46,175,40,32,43,004,39*7C
$GPGSV,5,4,17,36,52,277,33,40,84,353,36,41,58,082,33,49,32,274,*79
$GPGSV,5,5,17,50,10,089,*4A
$GLGSV,3,1,11,65,29,261,36,66,01,222,35,71,06,011,26,72,34,329,23*65
$GLGSV,3,2,11,74,13,120,08,75,18,171,20,76,01,223,29,84,02,149,*6A
$GLGSV,3,3,11,85,46,126,35,86,54,017,33,87,15,347,35*5D
$GNGLL,0419.78326,S,05539.65536,E,125908.00,A,D*65
$GNRMC,125909.00,A,0419.78325,S,05539.65539,E,0.037,,200525,,,D*75
$GNVTG,,T,,M,0.037,N,0.068,K,D*32
$GNGGA,125909.00,0419.78325,S,05539.65539,E,2,12,0.61,9.0,M,-47.6,M,,0000*7E
$GNGSA,A,3,32,18,10,28,26,16,27,31,40,08,,,1.14,0.61,0.96*1B
$GNGSA,A,3,85,72,71,75,86,74,65,87,,,,,1.14,0.61,0.96*1D
$GPGSV,5,1,17,04,02,221,30,08,18,309,31,10,13,016,35,16,24,225,40*74
$GPGSV,5,2,17,18,32,103,26,23,01,053,,26,28,196,41,27,52,290,36*79
$GPGSV,5,3,17,28,57,127,34,29,01,147,09,31,46,175,40,32,43,004,39*7C
$GPGSV,5,4,17,36,52,277,32,40,84,353,36,41,58,082,34,49,32,274,*7F
$GPGSV,5,5,17,50,10,089,*4A
$GLGSV,3,1,11,65,29,261,36,66,01,222,35,71,06,011,26,72,34,329,20*66
$GLGSV,3,2,11,74,13,120,11,75,18,171,20,76,01,223,29,84,02,149,*62
$GLGSV,3,3,11,85,46,126,34,86,54,017,34,87,15,347,35*5B
$GNGLL,0419.78325,S,05539.65539,E,125909.00,A,D*68
$GNRMC,125910.00,A,0419.78325,S,05539.65543,E,0.028,,200525,,,D*7E
$GNVTG,,T,,M,0.028,N,0.053,K,D*34
$GNGGA,125910.00,0419.78325,S,05539.65543,E,2,12,0.61,8.8,M,-47.6,M,,0000*72
$GNGSA,A,3,32,18,10,28,26,16,27,31,40,08,,,1.14,0.61,0.96*1B
$GNGSA,A,3,85,72,71,75,86,74,65,87,,,,,1.14,0.61,0.96*1D
$GPGSV,5,1,17,04,02,221,30,08,18,309,32,10,13,016,35,16,24,225,40*77
$GPGSV,5,2,17,18,31,103,27,23,01,053,,26,28,196,41,27,52,290,37*7A
$GPGSV,5,3,17,28,57,127,34,29,01,147,10,31,46,175,39,32,43,004,39*7A
$GPGSV,5,4,17,36,52,277,33,40,84,353,36,41,58,082,34,49,32,274,*7E
$GPGSV,5,5,17,50,10,089,*4A
$GLGSV,3,1,11,65,29,261,37,66,01,222,36,71,06,011,27,72,34,329,19*6F
$GLGSV,3,2,11,74,13,120,09,75,18,171,20,76,01,223,29,84,02,149,*6B
$GLGSV,3,3,11,85,46,126,34,86,54,017,33,87,15,347,37*5E
$GNGLL,0419.78325,S,05539.65543,E,125910.00,A,D*6D
$GNRMC,125911.00,A,0419.78325,S,05539.65548,E,0.003,,200525,,,D*7D
$GNVTG,,T,,M,0.003,N,0.006,K,D*3D
$GNGGA,125911.00,0419.78325,S,05539.65548,E,2,12,0.66,8.6,M,-47.6,M,,0000*71
$GNGSA,A,3,32,18,10,28,26,16,27,31,40,08,,,1.23,0.66,1.04*12
$GNGSA,A,3,85,72,71,75,86,74,65,87,,,,,1.23,0.66,1.04*14
$GPGSV,5,1,17,04,02,221,31,08,18,309,31,10,13,016,36,16,24,225,42*74
$GPGSV,5,2,17,18,31,103,27,23,01,053,,26,28,196,43,27,52,290,37*78
$GPGSV,5,3,17,28,57,127,35,29,01,147,08,31,46,175,40,32,43,004,41*73
$GPGSV,5,4,17,36,52,277,35,40,84,353,39,41,58,082,35,49,32,274,*76
$GPGSV,5,5,17,50,10,089,*4A
$GLGSV,3,1,11,65,29,261,37,66,01,222,35,71,06,011,26,72,34,329,17*63
$GLGSV,3,2,11,74,13,120,09,75,18,171,20,76,01,223,29,84,02,149,*6B
$GLGSV,3,3,11,85,46,126,34,86,54,017,32,87,15,347,35*5D
$GNGLL,0419.78325,S,05539.65548,E,125911.00,A,D*67
$GNRMC,125912.00,A,0419.78323,S,05539.65550,E,0.039,,200525,,,D*78
$GNVTG,,T,,M,0.039,N,0.071,K,D*34
$GNGGA,125912.00,0419.78323,S,05539.65550,E,2,12,0.61,8.5,M,-47.6,M,,0000*79
$GNGSA,A,3,32,18,10,28,26,16,27,31,40,08,,,1.14,0.61,0.96*1B
$GNGSA,A,3,85,72,71,75,86,74,65,87,,,,,1.14,0.61,0.96*1D
$GPGSV,5,1,17,04,02,221,31,08,18,309,27,10,13,016,37,16,24,225,42*72
$GPGSV,5,2,17,18,31,103,27,23,01,053,,26,28,196,42,27,52,290,37*79
$GPGSV,5,3,17,28,57,127,35,29,01,147,06,31,46,175,40,32,43,004,39*72
$GPGSV,5,4,17,36,52,277,31,40,84,353,38,41,58,082,36,49,32,274,*70
$GPGSV,5,5,17,50,10,089,*4A
$GLGSV,3,1,11,65,29,261,37,66,01,222,35,71,06,011,25,72,34,329,16*61
$GLGSV,3,2,11,74,13,120,08,75,18,171,19,76,01,223,28,84,02,149,*61
$GLGSV,3,3,11,85,46,126,34,86,54,017,33,87,15,347,36*5F
$GNGLL,0419.78323,S,05539.65550,E,125912.00,A,D*6B
$GNRMC,125913.00,A,0419.78321,S,05539.65554,E,0.075,,200525,,,D*77
$GNVTG,,T,,M,0.075,N,0.139,K,D*31
$GNGGA,125913.00,0419.78321,S,05539.65554,E,2,12,0.61,8.4,M,-47.6,M,,0000*7F
$GNGSA,A,3,32,18,10,28,26,16,27,31,40,08,,,1.14,0.61,0.96*1B
$GNGSA,A,3,85,72,71,75,86,74,65,87,,,,,1.14,0.61,0.96*1D
$GPGSV,5,1,17,04,02,221,30,08,18,309,32,10,13,016,35,16,24,225,39*79
$GPGSV,5,2,17,18,31,103,26,23,01,053,,26,28,196,40,27,52,290,37*7A
$GPGSV,5,3,17,28,57,127,34,29,01,147,08,31,46,175,39,32,43,004,38*72
$GPGSV,5,4,17,36,52,277,32,40,84,353,37,41,58,082,33,49,32,274,*79
$GPGSV,5,5,17,50,10,089,*4A
$GLGSV,3,1,11,65,29,261,37,66,01,222,34,71,06,011,21,72,34,329,16*64
$GLGSV,3,2,11,74,13,120,12,75,18,171,20,76,01,223,27,84,02,149,*6F
$GLGSV,3,3,11,85,46,126,34,86,54,017,33,87,15,347,37*5E
$GNGLL,0419.78321,S,05539.65554,E,125913.00,A,D*6C
$GNRMC,125914.00,A,0419.78319,S,05539.65554,E,0.039,,200525,,,D*73
$GNVTG,,T,,M,0.039,N,0.073,K,D*36
$GNGGA,125914.00,0419.78319,S,05539.65554,E,2,12,0.66,8.4,M,-47.6,M,,0000*74
$GNGSA,A,3,32,18,10,28,26,16,27,31,40,08,,,1.23,0.66,1.04*12
$GNGSA,A,3,85,72,71,75,86,74,65,87,,,,,1.23,0.66,1.04*14
$GPGSV,5,1,17,04,02,221,29,08,18,309,25,10,13,016,32,16,24,225,37*7E
$GPGSV,5,2,17,18,31,103,23,23,01,054,,26,28,196,40,27,52,290,35*7A
$GPGSV,5,3,17,28,57,127,33,29,01,147,05,31,46,175,39,32,43,004,36*76
$GPGSV,5,4,17,36,52,277,32,40,84,353,38,41,58,082,33,49,32,274,*76
$GPGSV,5,5,17,50,10,089,*4A
$GLGSV,3,1,11,65,29,261,36,66,01,222,32,71,06,011,19,72,34,329,16*68
$GLGSV,3,2,11,74,13,120,08,75,18,171,22,76,01,223,25,84,02,149,*64
$GLGSV,3,3,11,85,46,126,33,86,54,017,35,87,15,347,36*5E
$GNGLL,0419.78319,S,05539.65554,E,125914.00,A,D*60
$GNRMC,125915.00,A,0419.78316,S,05539.65552,E,0.046,,200525,,,D*73
$GNVTG,,T,,M,0.046,N,0.084,K,D*36
$GNGGA,125915.00,0419.78316,S,05539.65552,E,2,12,0.61,8.4,M,-47.6,M,,0000*7B
$GNGSA,A,3,32,18,10,28,26,16,27,31,40,08,,,1.14,0.61,0.96*1B
$GNGSA,A,3,85,72,71,75,86,74,65,87,,,,,1.14,0.61,0.96*1D
$GPGSV,5,1,17,04,02,221,29,08,18,309,31,10,13,016,32,16,24,225,37*7B
$GPGSV,5,2,17,18,31,103,21,23,01,054,,26,28,196,40,27,52,290,35*78
$GPGSV,5,3,17,28,57,127,33,29,01,147,08,31,46,175,39,32,43,004,39*74
$GPGSV,5,4,17,36,52,277,31,40,84,353,37,41,58,082,33,49,32,274,*7A
$GPGSV,5,5,17,50,10,089,*4A
$GLGSV,3,1,11,65,29,261,37,66,01,222,32,71,06,011,22,72,34,329,16*61
$GLGSV,3,2,11,74,13,120,09,75,18,171,22,76,01,223,25,84,02,149,*65
$GLGSV,3,3,11,85,46,126,33,86,54,017,35,87,15,347,36*5E
$GNGLL,0419.78316,S,05539.65552,E,125915.00,A,D*68
$GNRMC,125916.00,A,0419.78315,S,05539.65550,E,0.058,,200525,,,D*7E
$GNVTG,,T,,M,0.058,N,0.107,K,D*33
$GNGGA,125916.00,0419.78315,S,05539.65550,E,2,12,0.65,8.4,M,-47.6,M,,0000*7D
$GNGSA,A,3,32,10,28,26,16,27,31,40,08,,,,1.16,0.65,0.96*14
$GNGSA,A,3,85,72,71,75,86,74,65,87,,,,,1.16,0.65,0.96*1B
$GPGSV,5,1,17,04,02,221,28,08,18,309,25,10,13,016,35,16,24,225,38*77
$GPGSV,5,2,17,18,31,103,22,23,01,054,,26,28,196,40,27,52,290,34*7A
$GPGSV,5,3,17,28,57,127,33,29,01,147,10,31,46,175,39,32,43,004,38*7C
$GPGSV,5,4,17,36,52,277,32,40,84,353,37,41,58,082,33,49,32,274,*79
$GPGSV,5,5,17,50,10,089,*4A
$GLGSV,3,1,11,65,29,261,37,66,01,222,31,71,06,011,25,72,34,329,17*64
$GLGSV,3,2,11,74,13,120,08,75,18,171,22,76,01,223,23,84,02,149,*62
$GLGSV,3,3,11,85,46,126,33,86,54,017,34,87,15,347,38*51
$GNGLL,0419.78315,S,05539.65550,E,125916.00,A,D*6A
$GNRMC,125917.00,A,0419.78313,S,05539.65548,E,0.046,,200525,,,D*7F
$GNVTG,,T,,M,0.046,N,0.086,K,D*34
$GNGGA,125917.00,0419.78313,S,05539.65548,E,2,12,0.72,8.5,M,-47.6,M,,0000*74
$GNGSA,A,3,32,10,28,26,16,27,31,40,08,,,,1.27,0.72,1.05*1B
$GNGSA,A,3,85,72,71,75,86,65,87,,,,,,1.27,0.72,1.05*17
$GPGSV,5,1,17,04,02,221,28,08,18,309,26,10,13,016,35,16,24,225,38*74
$GPGSV,5,2,17,18,31,103,22,23,01,054,,26,28,195,40,27,52,290,34*79
$GPGSV,5,3,17,28,57,127,32,29,01,147,08,31,46,175,38,32,43,004,33*7E
$GPGSV,5,4,17,36,52,277,31,40,84,353,37,41,58,082,33,49,32,274,*7A
$GPGSV,5,5,17,50,10,089,*4A
$GLGSV,3,1,11,65,29,261,36,66,01,222,32,71,06,011,25,72,34,329,17*66
$GLGSV,3,2,11,74,13,120,09,75,18,171,23,76,01,223,23,84,02,149,*62
$GLGSV,3,3,11,85,46,126,33,86,54,017,35,87,15,347,35*5D
$GNGLL,0419.78313,S,05539.65548,E,125917.00,A,D*64
$GNRMC,125918.00,A,0419.78310,S,05539.65547,E,0.054,,200525,,,D*7F
$GNVTG,,T,,M,0.054,N,0.100,K,D*38
$GNGGA,125918.00,0419.78310,S,05539.65547,E,2,12,0.66,8.5,M,-47.6,M,,0000*72
$GNGSA,A,3,32,18,10,28,26,16,27,31,40,08,,,1.23,0.66,1.04*12
$GNGSA,A,3,85,72,71,75,86,65,87,,,,,,1.23,0.66,1.04*17
$GPGSV,5,1,17,04,02,221,30,08,18,309,33,10,13,016,39,16,24,225,40*7A
$GPGSV,5,2,17,18,31,103,22,23,01,054,,26,28,195,41,27,52,289,34*70
$GPGSV,5,3,17,28,57,127,33,29,01,147,10,31,46,175,40,32,43,004,38*72
$GPGSV,5,4,17,36,52,277,32,40,84,353,38,41,58,082,34,49,32,274,*71
$GPGSV,5,5,17,50,10,089,*4A
$GLGSV,3,1,11,65,29,261,37,66,01,222,32,71,06,011,22,72,34,329,19*6E
$GLGSV,3,2,11,74,13,120,07,75,18,171,22,76,01,223,24,84,02,149,*6A
$GLGSV,3,3,11,85,46,126,32,86,54,017,35,87,15,347,35*5C
$GNGLL,0419.78310,S,05539.65547,E,125918.00,A,D*67
$GNRMC,125919.00,A,0419.78307,S,05539.65542,E,0.057,,200525,,,D*7E
$GNVTG,,T,,M,0.057,N,0.106,K,D*3D
$GNGGA,125919.00,0419.78307,S,05539.65542,E,2,12,0.66,8.7,M,-47.6,M,,0000*72
$GNGSA,A,3,32,18,10,28,26,16,27,31,40,08,,,1.23,0.66,1.04*12
$GNGSA,A,3,85,72,71,75,86,65,87,,,,,,1.23,0.66,1.04*17
$GPGSV,5,1,17,04,02,221,29,08,18,309,27,10,13,016,37,16,24,225,39*77
$GPGSV,5,2,17,18,31,103,22,23,01,054,,26,28,195,41,27,52,289,34*70
$GPGSV,5,3,17,28,57,126,34,29,01,147,11,31,46,175,40,32,43,004,38*75
$GPGSV,5,4,17,36,52,277,33,40,84,353,38,41,58,082,34,49,32,274,*70
$GPGSV,5,5,17,50,10,089,*4A
$GLGSV,3,1,11,65,29,261,37,66,01,222,32,71,06,011,20,72,34,329,18*6D
$GLGSV,3,2,11,74,13,120,09,75,18,171,21,76,01,223,24,84,02,149,*67
$GLGSV,3,3,11,85,46,126,31,86,54,017,35,87,15,347,35*5F
$GNGLL,0419.78307,S,05539.65542,E,125919.00,A,D*65
$GNRMC,125920.00,A,0419.78307,S,05539.65540,E,0.160,,200525,,,D*73
$GNVTG,,T,,M,0.160,N,0.297,K,D*33
$GNGGA,125920.00,0419.78307,S,05539.65540,E,2,12,0.66,8.9,M,-47.6,M,,0000*74
$GNGSA,A,3,32,18,10,28,26,16,27,31,40,08,,,1.23,0.66,1.04*12
$GNGSA,A,3,85,72,71,75,86,65,87,,,,,,1.23,0.66,1.04*17
$GPGSV,5,1,17,04,02,221,29,08,18,309,31,10,13,016,37,16,24,225,38*71
$GPGSV,5,2,17,18,31,103,22,23,01,054,,26,28,195,39,27,52,289,34*7F
$GPGSV,5,3,17,28,57,126,34,29,01,146,08,31,46,175,38,32,43,004,38*73
$GPGSV,5,4,17,36,52,277,32,40,84,353,39,41,58,082,34,49,32,274,*70
$GPGSV,5,5,17,50,10,089,*4A
$GLGSV,3,1,11,65,29,261,36,66,01,222,32,71,06,011,22,72,34,329,17*61
$GLGSV,3,2,11,74,13,120,08,75,18,171,21,76,01,223,25,84,02,149,*67
$GLGSV,3,3,11,85,46,126,30,86,54,017,38,87,15,347,35*53
$GNGLL,0419.78307,S,05539.65540,E,125920.00,A,D*6D
$GNRMC,125921.00,A,0419.78307,S,05539.65539,E,0.074,,200525,,,D*78
$GNVTG,,T,,M,0.074,N,0.137,K,D*3E
$GNGGA,125921.00,0419.78307,S,05539.65539,E,2,12,0.66,9.0,M,-47.6,M,,0000*73
$GNGSA,A,3,32,18,10,28,26,16,27,31,40,08,,,1.23,0.66,1.04*12
$GNGSA,A,3,85,72,71,75,86,65,87,,,,,,1.23,0.66,1.04*17
$GPGSV,5,1,17,04,02,221,29,08,18,309,27,10,13,016,39,16,24,225,38*78
$GPGSV,5,2,17,18,31,103,25,23,01,054,,26,28,195,39,27,52,289,29*74
$GPGSV,5,3,17,28,57,126,34,29,01,146,08,31,46,175,42,32,43,004,29*7E
$GPGSV,5,4,17,36,52,277,,40,84,353,39,41,58,082,35,49,32,274,*70
$GPGSV,5,5,17,50,10,089,*4A
$GLGSV,3,1,11,65,29,261,33,66,01,222,31,71,06,011,22,72,34,329,18*68
$GLGSV,3,2,11,74,13,120,06,75,18,171,21,76,01,223,25,84,02,149,*69
$GLGSV,3,3,11,85,46,126,29,86,54,017,38,87,15,347,35*5B
$GNGLL,0419.78307,S,05539.65539,E,125921.00,A,D*62
$GNRMC,125922.00,A,0419.78303,S,05539.65542,E,0.243,,200525,,,D*75
$GNVTG,,T,,M,0.243,N,0.450,K,D*3C
$GNGGA,125922.00,0419.78303,S,05539.65542,E,2,12,0.66,9.1,M,-47.6,M,,0000*79
$GNGSA,A,3,32,18,10,28,26,16,27,31,40,08,,,1.23,0.66,1.04*12
$GNGSA,A,3,85,72,71,75,86,65,87,,,,,,1.23,0.66,1.04*17
$GPGSV,5,1,17,04,02,221,30,08,18,309,32,10,13,016,43,16,24,225,36*77
$GPGSV,5,2,17,18,31,103,27,23,01,054,,26,28,195,41,27,52,289,26*76
$GPGSV,5,3,17,28,57,126,34,29,01,146,11,31,46,175,40,32,43,004,33*7F
$GPGSV,5,4,17,36,52,277,,40,84,353,39,41,58,082,30,49,32,274,*75
$GPGSV,5,5,17,50,10,089,*4A
$GLGSV,3,1,11,65,29,261,35,66,01,222,32,71,06,011,25,72,34,329,19*6B
$GLGSV,3,2,11,74,13,120,11,75,18,171,20,76,01,223,26,84,02,149,*6D
$GLGSV,3,3,11,85,46,126,29,86,54,017,37,87,15,347,33*52
$GNGLL,0419.78303,S,05539.65542,E,125922.00,A,D*69
$GNRMC,125923.00,A,0419.78303,S,05539.65543,E,0.124,,200525,,,D*77
$GNVTG,,T,,M,0.124,N,0.230,K,D*3E
$GNGGA,125923.00,0419.78303,S,05539.65543,E,2,12,0.66,9.3,M,-47.6,M,,0000*7B
$GNGSA,A,3,32,18,10,28,26,16,27,31,40,08,,,1.23,0.66,1.04*12
$GNGSA,A,3,85,72,71,75,86,74,65,87,,,,,1.23,0.66,1.04*14
$GPGSV,5,1,17,04,02,221,29,08,18,309,32,10,13,016,40,16,24,225,36*7C
$GPGSV,5,2,17,18,31,103,27,23,01,054,,26,28,195,39,27,52,289,23*7C
$GPGSV,5,3,17,28,57,126,33,29,01,146,09,31,46,175,39,32,42,004,31*7C
$GPGSV,5,4,17,36,52,277,,40,84,353,38,41,58,082,30,49,32,274,*74
$GPGSV,5,5,17,50,10,089,*4A
$GLGSV,3,1,11,65,29,261,35,66,01,222,32,71,06,011,25,72,34,329,19*6B
$GLGSV,3,2,11,74,13,120,08,75,18,171,21,76,01,223,26,84,02,149,*64
$GLGSV,3,3,11,85,46,126,30,86,54,017,37,87,15,347,34*5D
$GNGLL,0419.78303,S,05539.65543,E,125923.00,A,D*69
$GNRMC,125924.00,A,0419.78301,S,05539.65542,E,0.056,,200525,,,D*77
$GNVTG,,T,,M,0.056,N,0.104,K,D*3E
$GNGGA,125924.00,0419.78301,S,05539.65542,E,2,12,0.61,9.5,M,-47.6,M,,0000*7E
$GNGSA,A,3,32,18,10,28,26,16,27,31,40,08,,,1.14,0.61,0.96*1B
$GNGSA,A,3,85,72,71,75,86,74,65,87,,,,,1.14,0.61,0.96*1D
$GPGSV,5,1,17,04,02,221,30,08,18,309,35,10,13,016,40,16,24,225,37*72
$GPGSV,5,2,17,18,31,103,27,23,01,054,,26,28,195,39,27,52,289,29*76
$GPGSV,5,3,17,28,57,126,33,29,01,146,08,31,46,175,39,32,42,004,34*78
$GPGSV,5,4,17,36,52,277,,40,84,353,38,41,58,082,32,49,32,274,*76
$GPGSV,5,5,17,50,10,089,*4A
$GLGSV,3,1,11,65,29,261,35,66,01,222,32,71,06,011,24,72,34,329,16*65
$GLGSV,3,2,11,74,13,120,08,75,18,171,20,76,01,223,27,84,02,149,*64
$GLGSV,3,3,11,85,46,126,30,86,54,017,37,87,15,347,35*5C
$GNGLL,0419.78301,S,05539.65542,E,125924.00,A,D*6D
$GNRMC,125925.00,A,0419.78299,S,05539.65540,E,0.051,,200525,,,D*73
$GNVTG,,T,,M,0.051,N,0.094,K,D*31
$GNGGA,125925.00,0419.78299,S,05539.65540,E,2,12,0.66,9.7,M,-47.6,M,,0000*78
$GNGSA,A,3,32,18,10,28,26,16,27,31,40,08,,,1.23,0.66,1.04*12
$GNGSA,A,3,85,72,71,75,86,65,87,,,,,,1.23,0.66,1.04*17
$GPGSV,5,1,17,04,02,221,30,08,18,309,32,10,13,016,40,16,24,225,35*77
$GPGSV,5,2,17,18,31,103,28,23,01,054,,26,28,195,40,27,52,289,19*74
$GPGSV,5,3,17,28,57,126,33,29,01,146,09,31,46,175,39,32,42,004,35*78
$GPGSV,5,4,17,36,52,277,,40,84,353,39,41,58,082,32,49,32,274,*77
$GPGSV,5,5,17,50,10,089,*4A
$GLGSV,3,1,11,65,29,261,35,66,01,222,31,71,06,011,27,72,34,329,20*60
$GLGSV,3,2,11,74,13,120,05,75,18,171,20,76,01,223,27,84,02,149,*69
$GLGSV,3,3,11,85,46,126,31,86,54,017,37,87,15,347,36*5E
$GNGLL,0419.78299,S,05539.65540,E,125925.00,A,D*6E
$GNRMC,125926.00,A,0419.78297,S,05539.65539,E,0.015,,200525,,,D*70
$GNVTG,,T,,M,0.015,N,0.027,K,D*39
$GNGGA,125926.00,0419.78297,S,05539.65539,E,2,12,0.68,9.8,M,-47.6,M,,0000*7A
$GNGSA,A,3,32,18,10,28,26,16,31,40,08,,,,1.29,0.68,1.10*16
$GNGSA,A,3,85,72,71,75,86,65,87,,,,,,1.29,0.68,1.10*16
$GPGSV,5,1,17,04,02,221,30,08,18,309,31,10,13,016,39,16,24,225,37*78
$GPGSV,5,2,17,18,31,103,28,23,01,054,,26,28,195,39,27,52,289,23*73
$GPGSV,5,3,17,28,57,126,33,29,01,146,07,31,46,175,39,32,42,004,35*76
$GPGSV,5,4,17,36,52,277,,40,84,353,39,41,58,082,31,49,32,274,*74
$GPGSV,5,5,17,50,10,089,*4A
$GLGSV,3,1,11,65,29,261,35,66,01,222,31,71,06,011,28,72,34,329,21*6E
$GLGSV,3,2,11,74,13,120,08,75,18,171,22,76,01,223,26,84,02,149,*67
$GLGSV,3,3,11,85,46,126,31,86,54,017,37,87,15,347,33*5B
$GNGLL,0419.78297,S,05539.65539,E,125926.00,A,D*6D
$GNRMC,125927.00,A,0419.78295,S,05539.65535,E,0.071,,200525,,,D*7D
$GNVTG,,T,,M,0.071,N,0.132,K,D*3E
$GNGGA,125927.00,0419.78295,S,05539.65535,E,2,12,0.68,10.0,M,-47.6,M,,0000*45
$GNGSA,A,3,32,18,10,28,26,16,31,40,08,,,,1.29,0.68,1.10*16
$GNGSA,A,3,85,72,71,75,86,65,87,,,,,,1.29,0.68,1.10*16
$GPGSV,5,1,17,04,02,221,29,08,18,309,31,10,13,016,40,16,24,225,36*7F
$GPGSV,5,2,17,18,31,103,28,23,01,054,,26,28,195,39,27,52,289,23*73
$GPGSV,5,3,17,28,57,126,33,29,01,146,08,31,46,175,39,32,42,004,33*7F
$GPGSV,5,4,17,36,52,277,,40,84,353,39,41,58,082,31,49,32,274,*74
$GPGSV,5,5,17,50,10,089,*4A
$GLGSV,3,1,11,65,29,261,37,66,01,222,31,71,06,011,26,72,34,329,22*61
$GLGSV,3,2,11,74,13,120,10,75,18,171,23,76,01,223,26,84,02,149,*6F
$GLGSV,3,3,11,85,46,126,31,86,54,017,38,87,15,347,35*52
$GNGLL,0419.78295,S,05539.65535,E,125927.00,A,D*62
$GNRMC,125928.00,A,0419.78297,S,05539.65534,E,0.091,,200525,,,D*7F
$GNVTG,,T,,M,0.091,N,0.168,K,D*3F
$GNGGA,125928.00,0419.78297,S,05539.65534,E,2,12,0.68,10.1,M,-47.6,M,,0000*48
$GNGSA,A,3,32,18,10,28,26,16,27,31,40,08,,,1.29,0.68,1.10*13
$GNGSA,A,3,85,72,71,75,86,65,87,,,,,,1.29,0.68,1.10*16
$GPGSV,5,1,17,04,02,221,30,08,18,309,38,10,13,016,42,16,24,225,40*7D
$GPGSV,5,2,17,18,31,103,28,23,01,054,,26,28,195,40,27,52,289,25*7B
$GPGSV,5,3,17,28,57,126,34,29,01,146,09,31,46,175,41,32,42,004,39*7C
$GPGSV,5,4,17,36,52,277,,40,84,353,39,41,58,082,33,49,32,274,*76
$GPGSV,5,5,17,50,10,089,*4A
$GLGSV,3,1,11,65,29,261,35,66,01,222,31,71,06,011,23,72,34,329,22*66
$GLGSV,3,2,11,74,13,120,10,75,18,171,23,76,01,223,26,84,02,149,*6F
$GLGSV,3,3,11,85,46,126,31,86,54,017,38,87,15,347,34*53
$GNGLL,0419.78297,S,05539.65534,E,125928.00,A,D*6E
$GNRMC,125929.00,A,0419.78299,S,05539.65534,E,0.033,,200525,,,D*78
$GNVTG,,T,,M,0.033,N,0.061,K,D*3F
$GNGGA,125929.00,0419.78299,S,05539.65534,E,2,12,0.68,10.2,M,-47.6,M,,0000*44
$GNGSA,A,3,32,18,10,28,26,16,27,31,40,08,,,1.29,0.68,1.10*13
$GNGSA,A,3,85,72,71,75,86,74,65,87,,,,,1.29,0.68,1.10*15
$GPGSV,5,1,17,04,02,221,30,08,18,309,36,10,13,016,42,16,24,225,39*7D
$GPGSV,5,2,17,18,31,103,26,23,01,054,,26,28,195,39,27,52,289,26*78
$GPGSV,5,3,17,28,57,126,35,29,01,146,08,31,46,175,39,32,42,004,41*7C
$GPGSV,5,4,17,36,52,277,,40,84,353,39,41,58,082,33,49,32,274,*76
$GPGSV,5,5,17,50,10,089,*4A
$GLGSV,3,1,11,65,29,261,36,66,01,222,31,71,06,011,25,72,34,329,23*62
$GLGSV,3,2,11,74,13,120,08,75,18,171,22,76,01,223,26,84,02,149,*67
$GLGSV,3,3,11,85,46,126,30,86,54,017,38,87,15,347,33*55
$GNGLL,0419.78299,S,05539.65534,E,125929.00,A,D*61
$GNRMC,125930.00,A,0419.78301,S,05539.65533,E,0.000,,200525,,,D*77
$GNVTG,,T,,M,0.000,N,0.001,K,D*39
$GNGGA,125930.00,0419.78301,S,05539.65533,E,2,12,0.61,10.4,M,-47.6,M,,0000*44
$GNGSA,A,3,32,18,10,28,26,16,27,31,40,08,,,1.14,0.61,0.96*1B
$GNGSA,A,3,85,72,71,75,86,74,65,87,,,,,1.14,0.61,0.96*1D
$GPGSV,5,1,17,04,02,221,31,08,18,309,35,10,13,016,42,16,24,225,41*70
$GPGSV,5,2,17,18,31,103,25,23,01,054,,26,28,195,40,27,52,289,32*70
$GPGSV,5,3,17,28,57,126,35,29,01,146,08,31,46,175,40,32,42,004,41*72
$GPGSV,5,4,17,36,52,277,,40,84,353,39,41,58,082,34,49,32,274,*71
$GPGSV,5,5,17,50,10,089,*4A
$GLGSV,3,1,11,65,29,261,36,66,01,222,31,71,06,011,25,72,34,329,24*65
$GLGSV,3,2,11,74,13,120,10,75,18,171,23,76,01,223,26,84,02,149,*6F
$GLGSV,3,3,11,85,46,126,29,86,54,017,38,87,15,347,33*5D
$GNGLL,0419.78301,S,05539.65533,E,125930.00,A,D*6E
$GNRMC,125931.00,A,0419.78301,S,05539.65532,E,0.009,,200525,,,D*7E
$GNVTG,,T,,M,0.009,N,0.017,K,D*37
$GNGGA,125931.00,0419.78301,S,05539.65532,E,2,12,0.66,10.5,M,-47.6,M,,0000*42
$GNGSA,A,3,32,18,10,28,26,16,27,31,40,08,,,1.23,0.66,1.04*12
$GNGSA,A,3,85,72,71,75,86,65,87,,,,,,1.23,0.66,1.04*17
$GPGSV,5,1,17,04,02,221,30,08,18,309,33,10,13,016,41,16,24,225,39*7B
$GPGSV,5,2,17,18,31,103,23,23,01,054,,26,28,195,40,27,52,289,32*76
$GPGSV,5,3,17,28,57,126,34,29,01,146,08,31,46,175,39,32,42,004,41*7D
$GPGSV,5,4,17,36,52,277,,40,84,353,37,41,58,082,33,49,32,274,*78
$GPGSV,5,5,17,50,10,089,*4A
$GLGSV,3,1,11,65,29,261,36,66,01,222,32,71,06,011,26,72,34,329,23*62
$GLGSV,3,2,11,74,13,120,06,75,18,171,23,76,01,223,26,84,02,149,*68
$GLGSV,3,3,11,85,46,126,28,86,54,017,37,87,15,347,35*55
$GNGLL,0419.78301,S,05539.65532,E,125931.00,A,D*6E
$GNRMC,125932.00,A,0419.78303,S,05539.65532,E,0.027,,200525,,,D*73
$GNVTG,,T,,M,0.027,N,0.051,K,D*39
$GNGGA,125932.00,0419.78303,S,05539.65532,E,2,12,0.66,10.6,M,-47.6,M,,0000*40
$GNGSA,A,3,32,18,10,28,26,16,27,31,40,08,,,1.23,0.66,1.04*12
$GNGSA,A,3,85,72,71,75,86,65,87,,,,,,1.23,0.66,1.04*17
$GPGSV,5,1,17,04,02,221,29,08,18,309,34,10,13,016,41,16,24,225,39*74
$GPGSV,5,2,17,18,31,103,22,23,01,054,,26,28,195,39,27,52,289,33*78
$GPGSV,5,3,17,28,57,126,34,29,01,146,09,31,46,175,39,32,42,004,40*7D
$GPGSV,5,4,17,36,52,277,,40,84,353,38,41,58,082,33,49,32,274,*77
$GPGSV,5,5,17,50,10,089,*4A
$GLGSV,3,1,11,65,29,261,36,66,01,222,32,71,06,011,27,72,34,329,22*62
$GLGSV,3,2,11,74,13,120,06,75,18,171,23,76,01,223,26,84,02,149,*68
$GLGSV,3,3,11,85,46,126,27,86,54,017,38,87,15,347,35*55
$GNGLL,0419.78303,S,05539.65532,E,125932.00,A,D*6F
$GNRMC,125933.00,A,0419.78303,S,05539.65535,E,0.007,,200525,,,D*77
$GNVTG,,T,,M,0.007,N,0.012,K,D*3C
$GNGGA,125933.00,0419.78303,S,05539.65535,E,2,12,0.66,10.6,M,-47.6,M,,0000*46
$GNGSA,A,3,32,18,10,28,26,16,27,31,40,08,,,1.23,0.66,1.04*12
$GNGSA,A,3,85,72,71,75,86,65,87,,,,,,1.23,0.66,1.04*17
$GPGSV,5,1,17,04,02,221,29,08,18,309,35,10,13,016,37,16,24,225,39*74
$GPGSV,5,2,17,18,31,103,19,23,01,054,,26,28,195,39,27,52,289,33*70
$GPGSV,5,3,17,28,57,126,33,29,01,146,06,31,46,175,40,32,42,004,38*74
$GPGSV,5,4,17,36,52,277,,40,84,353,36,41,58,082,36,49,32,274,*7C
$GPGSV,5,5,17,50,10,089,*4A
$GLGSV,3,1,11,65,29,261,35,66,01,222,32,71,06,011,24,72,34,329,24*64
$GLGSV,3,2,11,74,13,120,11,75,18,171,24,76,01,223,26,84,02,149,*69
$GLGSV,3,3,11,85,46,126,28,86,54,017,40,87,15,347,34*54
$GNGLL,0419.78303,S,05539.65535,E,125933.00,A,D*69
$GNRMC,125934.00,A,0419.78303,S,05539.65534,E,0.064,,200525,,,D*74
$GNVTG,,T,,M,0.064,N,0.119,K,D*33
$GNGGA,125934.00,0419.78303,S,05539.65534,E,2,12,0.72,10.8,M,-47.6,M,,0000*4B
$GNGSA,A,3,32,10,28,26,16,27,31,40,08,,,,1.27,0.72,1.05*1B
$GNGSA,A,3,85,72,71,75,86,65,87,,,,,,1.27,0.72,1.05*17
$GPGSV,5,1,17,04,02,221,28,08,18,309,35,10,13,016,36,16,24,225,37*7A
$GPGSV,5,2,17,18,31,103,,23,01,054,16,26,28,195,38,27,52,289,28*74
$GPGSV,5,3,17,28,57,126,30,29,01,146,08,31,46,175,39,32,42,004,36*79
$GPGSV,5,4,17,36,52,277,,40,84,353,35,41,58,082,33,49,32,274,*7A
$GPGSV,5,5,17,50,10,089,*4A
$GLGSV,3,1,11,65,29,261,36,66,01,222,32,71,06,011,21,72,34,329,25*63
$GLGSV,3,2,11,74,13,120,08,75,18,171,24,76,01,223,26,84,02,149,*61
$GLGSV,3,3,11,85,46,126,28,86,54,017,41,87,15,347,34*55
$GNGLL,0419.78303,S,05539.65534,E,125934.00,A,D*6F
$GNRMC,125935.00,A,0419.78305,S,05539.65536,E,0.111,,200525,,,D*72
$GNVTG,,T,,M,0.111,N,0.205,K,D*3E
$GNGGA,125935.00,0419.78305,S,05539.65536,E,2,12,0.72,10.9,M,-47.6,M,,0000*4F
$GNGSA,A,3,32,10,28,26,16,27,31,40,08,,,,1.27,0.72,1.05*1B
$GNGSA,A,3,85,72,71,75,86,65,87,,,,,,1.27,0.72,1.05*17
$GPGSV,5,1,17,04,02,221,28,08,18,309,31,10,13,016,38,16,24,225,39*7E
$GPGSV,5,2,17,18,31,103,17,23,01,054,,26,28,195,39,27,52,289,32*7F
$GPGSV,5,3,17,28,57,126,32,29,01,146,08,31,46,175,41,32,42,004,39*7B
$GPGSV,5,4,17,36,52,277,,40,84,353,35,41,58,082,32,49,32,274,*7B
$GPGSV,5,5,17,50,10,089,*4A
$GLGSV,3,1,11,65,29,261,35,66,01,222,33,71,06,011,17,72,34,329,27*66
$GLGSV,3,2,11,74,13,120,09,75,18,171,24,76,01,223,32,84,02,149,*65
$GLGSV,3,3,11,85,46,126,33,86,54,017,38,87,15,347,34*51
$GNGLL,0419.78305,S,05539.65536,E,125935.00,A,D*6A
$GNRMC,125936.00,A,0419.78308,S,05539.65541,E,0.089,,200525,,,D*7C
$GNVTG,,T,,M,0.089,N,0.165,K,D*3B
$GNGGA,125936.00,0419.78308,S,05539.65541,E,2,12,0.72,10.9,M,-47.6,M,,0000*41
$GNGSA,A,3,32,10,28,26,16,27,31,40,08,,,,1.27,0.72,1.05*1B
$GNGSA,A,3,85,72,71,75,86,65,87,,,,,,1.27,0.72,1.05*17
$GPGSV,5,1,17,04,02,221,28,08,18,309,31,10,13,016,37,16,24,225,38*70
$GPGSV,5,2,17,18,31,103,20,23,01,054,,26,28,195,39,27,52,289,32*7B
$GPGSV,5,3,17,28,57,126,32,29,01,146,07,31,46,175,41,32,42,004,40*7A
$GPGSV,5,4,17,36,52,277,,40,84,353,33,41,58,082,30,49,32,274,*7F
$GPGSV,5,5,17,50,10,089,*4A
$GLGSV,3,1,11,65,29,261,35,66,01,222,34,71,06,011,17,72,34,329,27*61
$GLGSV,3,2,11,74,13,120,07,75,18,171,24,76,01,223,30,84,02,149,*69
$GLGSV,3,3,11,85,46,126,31,86,54,017,36,87,15,347,34*5D
$GNGLL,0419.78308,S,05539.65541,E,125936.00,A,D*64
$GNRMC,125937.00,A,0419.78312,S,05539.65547,E,0.027,,200525,,,D*74
$GNVTG,,T,,M,0.027,N,0.050,K,D*38
$GNGGA,125937.00,0419.78312,S,05539.65547,E,2,12,0.72,10.7,M,-47.6,M,,0000*43
$GNGSA,A,3,32,10,28,26,16,27,31,40,08,,,,1.27,0.72,1.05*1B
$GNGSA,A,3,85,72,71,75,86,65,87,,,,,,1.27,0.72,1.05*17
$GPGSV,5,1,17,04,02,221,28,08,18,309,30,10,13,016,37,16,24,225,39*70
$GPGSV,5,2,17,18,31,103,20,23,01,054,,26,28,195,39,27,52,289,32*7B
$GPGSV,5,3,17,28,57,126,33,29,01,146,10,31,46,175,42,32,42,004,40*7E
$GPGSV,5,4,17,36,52,277,,40,84,353,33,41,58,082,34,49,32,274,*7B
$GPGSV,5,5,17,50,10,089,*4A
$GLGSV,3,1,11,65,29,261,34,66,01,222,34,71,06,011,18,72,34,329,26*6E
$GLGSV,3,2,11,74,13,120,09,75,18,171,25,76,01,223,30,84,02,149,*66
$GLGSV,3,3,11,85,46,126,30,86,54,017,35,87,15,347,34*5F
$GNGLL,0419.78312,S,05539.65547,E,125937.00,A,D*68
$GNRMC,125938.00,A,0419.78312,S,05539.65546,E,0.246,,200525,,,D*7F
$GNVTG,,T,,M,0.246,N,0.456,K,D*3F
$GNGGA,125938.00,0419.78312,S,05539.65546,E,2,12,0.66,10.7,M,-47.6,M,,0000*48
$GNGSA,A,3,32,18,10,28,26,16,27,31,40,08,,,1.23,0.66,1.04*12
$GNGSA,A,3,85,72,71,75,86,74,65,87,,,,,1.23,0.66,1.04*14
$GPGSV,5,1,17,04,02,221,28,08,18,309,32,10,13,016,37,16,24,225,40*7C
$GPGSV,5,2,17,18,31,103,20,23,01,054,,26,28,195,39,27,52,289,27*7F
$GPGSV,5,3,17,28,57,126,32,29,01,146,07,31,46,175,44,32,42,004,41*7E
$GPGSV,5,4,17,36,52,277,,40,84,353,33,41,58,082,33,49,32,274,*7C
$GPGSV,5,5,17,50,10,089,*4A
$GLGSV,3,1,11,65,29,261,33,66,01,222,32,71,06,011,22,72,34,329,26*66
$GLGSV,3,2,11,74,13,120,11,75,18,171,23,76,01,223,30,84,02,149,*69
$GLGSV,3,3,11,85,46,126,31,86,54,017,35,87,15,347,35*5F
$GNGLL,0419.78312,S,05539.65546,E,125938.00,A,D*66
$GNRMC,125939.00,A,0419.78314,S,05539.65549,E,0.028,,200525,,,D*7D
$GNVTG,,T,,M,0.028,N,0.053,K,D*34
$GNGGA,125939.00,0419.78314,S,05539.65549,E,2,12,0.65,10.4,M,-47.6,M,,0000*40
$GNGSA,A,3,32,10,28,26,16,27,31,40,08,,,,1.16,0.65,0.96*14
$GNGSA,A,3,85,72,71,75,86,74,65,87,,,,,1.16,0.65,0.96*1B
$GPGSV,5,1,17,04,02,221,29,08,18,309,34,10,13,016,36,16,24,225,42*78
$GPGSV,5,2,17,18,31,103,,23,01,054,,26,28,195,41,27,52,289,35*71
$GPGSV,5,3,17,28,57,126,35,29,01,146,08,31,46,175,44,32,42,004,42*75
$GPGSV,5,4,17,36,52,277,,40,84,353,36,41,58,082,36,49,32,274,*7C
$GPGSV,5,5,17,50,10,089,*4A
$GLGSV,3,1,11,65,29,261,33,66,01,222,33,71,06,011,20,72,34,329,25*66
$GLGSV,3,2,11,74,13,120,09,75,18,171,22,76,01,223,30,84,02,149,*61
$GLGSV,3,3,11,85,46,126,26,86,54,017,35,87,15,347,35*59
$GNGLL,0419.78314,S,05539.65549,E,125939.00,A,D*6E
$GNRMC,125940.00,A,0419.78317,S,05539.65551,E,0.176,,200525,,,D*73
$GNVTG,,T,,M,0.176,N,0.325,K,D*3C
$GNGGA,125940.00,0419.78317,S,05539.65551,E,2,12,0.65,10.3,M,-47.6,M,,0000*43
$GNGSA,A,3,32,10,28,26,16,27,31,40,08,,,,1.16,0.65,0.96*14
$GNGSA,A,3,85,72,71,75,86,74,65,87,,,,,1.16,0.65,0.96*1B
$GPGSV,5,1,17,04,02,221,29,08,18,309,24,10,13,016,35,16,24,225,39*76
$GPGSV,5,2,17,18,31,103,,23,01,054,,26,28,195,39,27,52,289,26*7C
$GPGSV,5,3,17,28,57,126,34,29,01,146,06,31,46,175,43,32,42,004,41*7E
$GPGSV,5,4,17,36,52,277,,40,84,353,35,41,58,082,33,49,32,274,*7A
$GPGSV,5,5,17,50,10,089,*4A
$GLGSV,3,1,11,65,29,261,34,66,01,222,35,71,06,011,18,72,34,329,26*6F
$GLGSV,3,2,11,74,13,120,08,75,18,171,22,76,01,223,31,84,02,149,*61
$GLGSV,3,3,11,85,46,126,28,86,54,017,35,87,15,347,32*50
$GNGLL,0419.78317,S,05539.65551,E,125940.00,A,D*6A
$GNRMC,125941.00,A,0419.78320,S,05539.65555,E,0.063,,200525,,,D*77
$GNVTG,,T,,M,0.063,N,0.117,K,D*3A
$GNGGA,125941.00,0419.78320,S,05539.65555,E,2,12,0.72,10.3,M,-47.6,M,,0000*44
$GNGSA,A,3,32,10,28,26,16,27,31,40,08,,,,1.27,0.72,1.05*1B
$GNGSA,A,3,85,72,71,75,86,65,87,,,,,,1.27,0.72,1.05*17
$GPGSV,5,1,17,04,02,221,29,08,18,309,31,10,13,016,40,16,24,225,40*7E
$GPGSV,5,2,17,18,31,103,25,23,01,054,,26,28,195,39,27,52,289,35*79
$GPGSV,5,3,17,28,57,126,33,29,01,146,10,31,46,175,43,32,42,004,40*7F
$GPGSV,5,4,17,36,52,277,,40,84,353,40,41,58,082,32,49,32,274,*79
$GPGSV,5,5,17,50,10,089,*4A
$GLGSV,3,1,11,65,29,261,36,66,01,222,35,71,06,011,20,72,34,329,25*65
$GLGSV,3,2,11,74,13,120,05,75,18,171,23,76,01,223,32,84,02,149,*6E
$GLGSV,3,3,11,85,46,126,31,86,54,017,35,87,15,347,33*59
$GNGLL,0419.78320,S,05539.65555,E,125941.00,A,D*6B
$GNRMC,125942.00,A,0419.78321,S,05539.65552,E,0.115,,200525,,,D*72
$GNVTG,,T,,M,0.115,N,0.213,K,D*3D
$GNGGA,125942.00,0419.78321,S,05539.65552,E,2,12,0.72,10.3,M,-47.6,M,,0000*41
$GNGSA,A,3,32,10,28,26,16,27,31,40,08,,,,1.27,0.72,1.05*1B
$GNGSA,A,3,85,72,71,75,86,65,87,,,,,,1.27,0.72,1.05*17
$GPGSV,5,1,17,04,02,221,29,08,18,309,32,10,13,016,39,16,24,225,40*73
$GPGSV,5,2,17,18,31,103,25,23,01,054,,26,28,195,39,27,52,289,35*79
$GPGSV,5,3,17,28,57,126,35,29,01,146,09,31,46,175,41,32,42,004,44*77
$GPGSV,5,4,17,36,52,277,,40,84,353,39,41,58,082,33,49,32,274,*76
$GPGSV,5,5,17,50,10,089,*4A
$GLGSV,3,1,11,65,29,261,37,66,01,222,36,71,06,011,22,72,34,329,25*65
$GLGSV,3,2,11,74,13,120,09,75,18,171,24,76,01,223,32,84,02,149,*65
$GLGSV,3,3,11,85,46,126,29,86,54,017,37,87,15,347,33*52
$GNGLL,0419.78321,S,05539.65552,E,125942.00,A,D*6E
$GNRMC,125943.00,A,0419.78322,S,05539.65552,E,0.089,,200525,,,D*74
$GNVTG,,T,,M,0.089,N,0.165,K,D*3B
$GNGGA,125943.00,0419.78322,S,05539.65552,E,2,12,0.72,10.2,M,-47.6,M,,0000*42
$GNGSA,A,3,32,10,28,26,16,27,31,40,08,,,,1.27,0.72,1.05*1B
$GNGSA,A,3,85,72,71,75,86,65,87,,,,,,1.27,0.72,1.05*17
$GPGSV,5,1,17,04,02,221,30,08,18,309,25,10,13,016,39,16,24,225,41*7C
$GPGSV,5,2,17,18,31,103,26,23,01,054,,26,28,195,40,27,52,289,36*77
$GPGSV,5,3,17,28,57,126,35,29,01,146,10,31,46,175,41,32,42,004,44*7F
$GPGSV,5,4,17,36,52,277,,40,84,353,39,41,58,082,33,49,32,274,*76
$GPGSV,5,5,17,50,10,089,*4A
$GLGSV,3,1,11,65,29,261,36,66,01,222,36,71,06,011,31,72,34,329,23*60
$GLGSV,3,2,11,74,13,120,08,75,18,171,24,76,01,223,33,84,02,149,*65
$GLGSV,3,3,11,85,46,126,29,86,54,017,34,87,15,347,33*51
$GNGLL,0419.78322,S,05539.65552,E,125943.00,A,D*6C
$GNRMC,125944.00,A,0419.78325,S,05539.65555,E,0.123,,200525,,,D*72
$GNVTG,,T,,M,0.123,N,0.228,K,D*30
$GNGGA,125944.00,0419.78325,S,05539.65555,E,2,12,0.72,10.1,M,-47.6,M,,0000*46
$GNGSA,A,3,32,10,28,26,16,27,31,40,08,,,,1.27,0.72,1.05*1B
$GNGSA,A,3,85,72,71,75,86,65,87,,,,,,1.27,0.72,1.05*17
$GPGSV,5,1,17,04,02,221,30,08,18,309,31,10,13,016,40,16,24,225,39*78
$GPGSV,5,2,17,18,31,103,25,23,01,054,,26,28,195,41,27,52,289,36*75
$GPGSV,5,3,17,28,57,126,35,29,01,146,10,31,46,175,43,32,42,004,40*79
$GPGSV,5,4,17,36,52,277,,40,84,353,36,41,58,082,32,49,32,274,*78
$GPGSV,5,5,17,50,10,089,*4A
$GLGSV,3,1,11,65,29,262,34,66,01,222,37,71,06,011,31,72,34,329,23*60
$GLGSV,3,2,11,74,13,120,06,75,18,171,23,76,01,223,32,84,02,149,*6D
$GLGSV,3,3,11,85,46,126,29,86,54,017,30,87,15,347,33*55
$GNGLL,0419.78325,S,05539.65555,E,125944.00,A,D*6B
$GNRMC,125945.00,A,0419.78329,S,05539.65562,E,0.054,,200525,,,D*7A
$GNVTG,,T,,M,0.054,N,0.100,K,D*38
$GNGGA,125945.00,0419.78329,S,05539.65562,E,2,12,0.66,9.9,M,-47.6,M,,0000*7A
$GNGSA,A,3,32,18,10,28,26,16,27,31,40,08,,,1.23,0.66,1.04*12
$GNGSA,A,3,85,72,71,75,86,65,87,,,,,,1.23,0.66,1.04*17
$GPGSV,5,1,17,04,02,221,30,08,18,309,39,10,13,016,40,16,24,225,42*7C
$GPGSV,5,2,17,18,31,103,24,23,01,054,,26,28,195,37,27,52,289,34*77
$GPGSV,5,3,17,28,57,126,34,29,01,146,07,31,46,175,43,32,42,004,41*7F
$GPGSV,5,4,17,36,52,277,,40,84,353,40,41,58,082,32,49,32,274,*79
$GPGSV,5,5,17,50,10,089,*4A
$GLGSV,3,1,11,65,29,262,34,66,01,223,38,71,06,011,24,72,34,329,31*69
$GLGSV,3,2,11,74,13,120,07,75,18,171,25,76,01,223,33,84,02,149,*6B
$GLGSV,3,3,11,85,46,126,30,86,54,017,37,87,15,347,27*5F
$GNGLL,0419.78329,S,05539.65562,E,125945.00,A,D*62
$GNRMC,125946.00,A,0419.78329,S,05539.65563,E,0.013,,200525,,,D*7B
$GNVTG,,T,,M,0.013,N,0.024,K,D*3C
$GNGGA,125946.00,0419.78329,S,05539.65563,E,2,12,0.66,9.9,M,-47.6,M,,0000*78
$GNGSA,A,3,32,18,10,28,26,16,27,31,40,08,,,1.23,0.66,1.04*12
$GNGSA,A,3,85,72,71,75,86,65,87,,,,,,1.23,0.66,1.04*17
$GPGSV,5,1,17,04,02,221,29,08,18,309,37,10,13,016,37,16,24,225,41*79
$GPGSV,5,2,17,18,31,103,25,23,01,054,,26,28,195,38,27,52,289,34*79
$GPGSV,5,3,17,28,57,126,34,29,01,146,08,31,46,175,41,32,42,004,39*7D
$GPGSV,5,4,17,36,52,277,,40,84,353,37,41,58,082,35,49,32,274,*7E
$GPGSV,5,5,17,50,10,089,*4A
$GLGSV,3,1,11,65,29,262,34,66,01,223,38,71,06,011,24,72,34,329,30*68
$GLGSV,3,2,11,74,13,120,08,75,18,171,25,76,01,223,33,84,02,149,*64
$GLGSV,3,3,11,85,46,126,29,86,54,017,37,87,15,347,31*50
$GNGLL,0419.78329,S,05539.65563,E,125946.00,A,D*60
$GNRMC,125947.00,A,0419.78328,S,05539.65564,E,0.049,,200525,,,D*73
$GNVTG,,T,,M,0.049,N,0.090,K,D*3C
$GNGGA,125947.00,0419.78328,S,05539.65564,E,2,12,0.66,9.8,M,-47.6,M,,0000*7E
$GNGSA,A,3,32,18,10,28,26,16,27,31,40,08,,,1.23,0.66,1.03*15
$GNGSA,A,3,85,72,71,75,86,65,87,,,,,,1.23,0.66,1.03*10
$GPGSV,5,1,17,04,02,221,28,08,18,309,35,10,13,016,38,16,24,225,40*74
$GPGSV,5,2,17,18,31,103,25,23,01,054,,26,28,195,41,27,52,289,37*74
$GPGSV,5,3,17,28,57,126,37,29,01,146,08,31,46,175,42,32,42,004,38*7C
$GPGSV,5,4,17,36,52,277,,40,84,353,37,41,58,082,35,49,32,274,*7E
$GPGSV,5,5,17,50,10,089,*4A
$GLGSV,3,1,11,65,29,262,34,66,01,223,38,71,06,011,22,72,34,329,29*66
$GLGSV,3,2,11,74,13,120,07,75,18,171,23,76,01,223,34,84,02,149,*6A
$GLGSV,3,3,11,85,46,126,33,86,54,017,37,87,15,347,31*5B
$GNGLL,0419.78328,S,05539.65564,E,125947.00,A,D*67
$GNRMC,125948.00,A,0419.78327,S,05539.65564,E,0.064,,200525,,,D*7C
$GNVTG,,T,,M,0.064,N,0.118,K,D*32
$GNGGA,125948.00,0419.78327,S,05539.65564,E,2,12,0.66,9.8,M,-47.6,M,,0000*7E
$GNGSA,A,3,32,18,10,28,26,16,27,31,40,08,,,1.23,0.66,1.03*15
$GNGSA,A,3,85,72,71,75,86,65,87,,,,,,1.23,0.66,1.03*10
$GPGSV,5,1,17,04,02,221,28,08,18,309,35,10,13,016,37,16,24,225,39*75
$GPGSV,5,2,17,18,31,103,25,23,01,054,,26,28,195,39,27,52,289,35*79
$GPGSV,5,3,17,28,57,126,37,29,01,146,09,31,46,175,41,32,42,004,39*7F
$GPGSV,5,4,17,36,52,277,,40,84,353,37,41,58,082,36,49,32,274,*7D
$GPGSV,5,5,17,50,10,089,*4A
$GLGSV,3,1,11,65,29,262,34,66,01,223,37,71,06,011,19,72,34,329,28*60
$GLGSV,3,2,11,74,13,120,09,75,18,171,21,76,01,223,33,84,02,149,*61
$GLGSV,3,3,11,85,46,126,33,86,54,017,37,87,15,347,31*5B
$GNGLL,0419.78327,S,05539.65564,E,125948.00,A,D*67
$GNRMC,125949.00,A,0419.78326,S,05539.65565,E,0.019,,200525,,,D*77
$GNVTG,,T,,M,0.019,N,0.035,K,D*36
$GNGGA,125949.00,0419.78326,S,05539.65565,E,2,12,0.66,9.9,M,-47.6,M,,0000*7E
$GNGSA,A,3,32,18,10,28,26,16,27,31,40,08,,,1.23,0.66,1.03*15
$GNGSA,A,3,85,72,71,75,86,65,87,,,,,,1.23,0.66,1.03*10
$GPGSV,5,1,17,04,02,221,27,08,18,309,35,10,13,016,35,16,24,225,40*76
$GPGSV,5,2,17,18,31,103,26,23,01,054,,26,28,195,39,27,52,289,36*79
$GPGSV,5,3,17,28,57,126,37,29,01,146,08,31,46,175,41,32,42,004,40*70
$GPGSV,5,4,17,36,52,277,,40,84,353,37,41,58,082,35,49,32,274,*7E
$GPGSV,5,5,17,50,10,089,*4A
$GLGSV,3,1,11,65,29,262,33,66,01,223,37,71,06,011,14,72,34,329,28*6A
$GLGSV,3,2,11,74,13,120,08,75,18,171,21,76,01,223,33,84,02,149,*60
$GLGSV,3,3,11,85,46,126,35,86,54,017,37,87,15,347,30*5C
$GNGLL,0419.78326,S,05539.65565,E,125949.00,A,D*66
$GNRMC,125950.00,A,0419.78327,S,05539.65572,E,0.070,,200525,,,D*77
$GNVTG,,T,,M,0.070,N,0.129,K,D*35
$GNGGA,125950.00,0419.78327,S,05539.65572,E,2,12,0.66,9.8,M,-47.6,M,,0000*70
$GNGSA,A,3,32,18,10,28,26,16,27,31,40,08,,,1.23,0.66,1.03*15
$GNGSA,A,3,85,72,71,75,86,74,65,87,,,,,1.23,0.66,1.03*13
$GPGSV,5,1,17,04,02,221,27,08,18,309,38,10,13,016,36,16,24,225,41*79
$GPGSV,5,2,17,18,31,103,27,23,01,054,,26,28,195,40,27,52,289,38*78
$GPGSV,5,3,17,28,57,126,37,29,01,146,10,31,46,175,41,32,42,004,40*79
$GPGSV,5,4,17,36,52,277,,40,84,353,38,41,58,082,35,49,32,274,*71
$GPGSV,5,5,17,50,10,089,*4A
$GLGSV,3,1,11,65,29,262,34,66,01,223,37,71,05,011,13,72,34,329,29*68
$GLGSV,3,2,11,74,13,120,09,75,18,171,21,76,01,223,32,84,02,149,*60
$GLGSV,3,3,11,85,46,126,36,86,54,017,37,87,15,347,30*5F
$GNGLL,0419.78327,S,05539.65572,E,125950.00,A,D*69
$GNRMC,125951.00,A,0419.78328,S,05539.65575,E,0.030,,200525,,,D*7A
$GNVTG,,T,,M,0.030,N,0.056,K,D*38
$GNGGA,125951.00,0419.78328,S,05539.65575,E,2,12,0.61,9.6,M,-47.6,M,,0000*70
$GNGSA,A,3,32,18,10,28,26,16,27,31,40,08,,,1.14,0.61,0.96*1B
$GNGSA,A,3,85,72,71,75,86,74,65,87,,,,,1.14,0.61,0.96*1D
$GPGSV,5,1,17,04,02,221,28,08,18,309,35,10,13,016,36,16,24,225,39*74
$GPGSV,5,2,17,18,31,103,24,23,01,054,,26,28,195,40,27,52,289,38*7B
$GPGSV,5,3,17,28,57,126,32,29,01,146,07,31,46,175,40,32,42,004,39*75
$GPGSV,5,4,17,36,52,277,,40,84,353,38,41,58,082,35,49,32,274,*71
$GPGSV,5,5,17,50,10,089,*4A
$GLGSV,3,1,11,65,29,262,38,66,01,223,37,71,05,011,29,72,34,330,32*6F
$GLGSV,3,2,11,74,13,120,09,75,18,171,19,76,01,223,33,84,02,149,*6A
$GLGSV,3,3,11,85,46,126,32,86,54,017,35,87,15,347,31*58
$GNGLL,0419.78328,S,05539.65575,E,125951.00,A,D*60
$GNRMC,125952.00,A,0419.78328,S,05539.65577,E,0.037,,200525,,,D*7C
$GNVTG,,T,,M,0.037,N,0.069,K,D*33
$GNGGA,125952.00,0419.78328,S,05539.65577,E,2,12,0.61,9.4,M,-47.6,M,,0000*73
$GNGSA,A,3,32,18,10,28,26,16,27,31,40,08,,,1.14,0.61,0.96*1B
$GNGSA,A,3,85,72,71,75,86,74,65,87,,,,,1.14,0.61,0.96*1D
$GPGSV,5,1,17,04,02,221,27,08,18,309,26,10,13,016,34,16,24,225,37*75
$GPGSV,5,2,17,18,31,103,22,23,01,054,,26,28,195,39,27,52,289,38*73
$GPGSV,5,3,17,28,57,126,33,29,01,146,08,31,46,175,40,32,42,004,40*75
$GPGSV,5,4,17,36,52,277,35,40,84,353,33,41,58,082,33,49,32,274,*7A
$GPGSV,5,5,17,50,10,089,*4A
$GLGSV,3,1,11,65,29,262,36,66,01,223,34,71,05,011,28,72,34,330,27*67
$GLGSV,3,2,11,74,13,120,09,75,18,171,18,76,01,223,27,84,02,149,*6E
$GLGSV,3,3,11,85,46,126,31,86,54,017,30,87,15,347,34*5B
$GNGLL,0419.78328,S,05539.65577,E,125952.00,A,D*61
$GNRMC,125953.00,A,0419.78328,S,05539.65577,E,0.034,,200525,,,D*7E
$GNVTG,,T,,M,0.034,N,0.063,K,D*3A
$GNGGA,125953.00,0419.78328,S,05539.65577,E,2,12,0.66,9.2,M,-47.6,M,,0000*73
$GNGSA,A,3,32,18,10,28,26,16,27,31,40,08,,,1.23,0.66,1.03*15
$GNGSA,A,3,85,72,71,75,86,65,87,,,,,,1.23,0.66,1.03*10
$GPGSV,5,1,17,04,02,221,27,08,18,309,24,10,13,016,35,16,24,225,39*78
$GPGSV,5,2,17,18,31,103,20,23,01,054,,26,28,195,39,27,52,289,37*7E
$GPGSV,5,3,17,28,57,126,37,29,01,146,09,31,46,175,40,32,42,004,41*71
$GPGSV,5,4,17,36,52,277,35,40,84,353,38,41,58,082,33,49,32,274,*71
$GPGSV,5,5,17,50,10,089,*4A
$GLGSV,3,1,11,65,29,262,35,66,01,223,34,71,05,011,27,72,34,330,24*68
$GLGSV,3,2,11,74,13,120,10,75,18,171,18,76,01,223,30,84,02,149,*60
$GLGSV,3,3,11,85,46,126,31,86,54,017,32,87,15,347,30*5D
$GNGLL,0419.78328,S,05539.65577,E,125953.00,A,D*60
$GNRMC,125954.00,A,0419.78329,S,05539.65580,E,0.060,,200525,,,D*71
$GNVTG,,T,,M,0.060,N,0.111,K,D*3F
$GNGGA,125954.00,0419.78329,S,05539.65580,E,2,12,0.66,9.0,M,-47.6,M,,0000*7F
$GNGSA,A,3,32,18,10,28,26,16,27,31,40,08,,,1.23,0.66,1.03*15
$GNGSA,A,3,85,72,71,75,86,65,87,,,,,,1.23,0.66,1.03*10
$GPGSV,5,1,17,04,02,221,27,08,18,309,22,10,13,016,36,16,24,225,38*7C
$GPGSV,5,2,17,18,31,103,21,23,01,054,,26,28,195,39,27,52,289,37*7F
