$GNRMC,130243.00,A,0419.78594,S,05539.66631,E,0.057,,200525,,,D*76
$GNVTG,,T,,M,0.057,N,0.106,K,D*3D
$GNGGA,130243.00,0419.78594,S,05539.66631,E,2,12,0.71,10.7,M,-47.6,M,,0000*45
$GNGSA,A,3,32,18,10,28,16,27,31,40,08,,,,1.36,0.71,1.17*16
$GNGSA,A,3,85,72,75,86,65,87,,,,,,,1.36,0.71,1.17*11
$GPGSV,5,1,17,04,03,222,,08,19,308,38,10,13,017,29,16,24,224,22*75
$GPGSV,5,2,17,18,31,105,08,23,01,055,,26,28,194,,27,53,287,32*72
$GPGSV,5,3,17,28,58,124,16,29,00,146,12,31,47,174,20,32,41,004,27*71
$GPGSV,5,4,17,36,52,277,34,40,84,353,35,41,58,082,,49,32,274,32*7C
$GPGSV,5,5,17,50,10,089,*4A
$GLGSV,3,1,11,65,29,264,26,66,02,224,09,71,05,012,16,72,32,331,26*62
$GLGSV,3,2,11,74,13,118,08,75,18,169,08,76,01,221,,84,01,150,*60
$GLGSV,3,3,11,85,45,128,10,86,56,019,22,87,17,347,18*56
$GNGLL,0419.78594,S,05539.66631,E,130243.00,A,D*6D
$GNRMC,130244.00,A,0419.78574,S,05539.66628,E,0.178,,200525,,,D*7B
$GNVTG,,T,,M,0.178,N,0.331,K,D*37
$GNGGA,130244.00,0419.78574,S,05539.66628,E,2,12,0.86,11.0,M,-47.6,M,,0000*4A
$GNGSA,A,3,32,10,28,16,27,31,40,08,,,,,1.66,0.86,1.41*11
$GNGSA,A,3,85,72,86,65,87,,,,,,,,1.66,0.86,1.41*1D
$GPGSV,5,1,17,04,03,222,,08,19,308,36,10,13,017,28,16,24,224,22*7A
$GPGSV,5,2,17,18,31,105,07,23,01,055,,26,28,194,,27,53,287,31*7E
$GPGSV,5,3,17,28,58,124,16,29,00,146,11,31,47,174,19,32,41,004,26*79
$GPGSV,5,4,17,36,52,277,33,40,84,353,33,41,58,082,,49,32,274,32*7D
$GPGSV,5,5,17,50,10,089,*4A
$GLGSV,3,1,11,65,29,264,25,66,02,224,08,71,05,012,14,72,32,331,25*61
$GLGSV,3,2,11,74,13,118,07,75,18,169,06,76,01,221,,84,01,150,*61
$GLGSV,3,3,11,85,45,128,09,86,56,019,21,87,17,347,17*52
$GNGLL,0419.78574,S,05539.66628,E,130244.00,A,D*6C
$GNRMC,130245.00,A,0419.78570,S,05539.66627,E,0.255,,200525,,,D*7D
$GNVTG,,T,,M,0.255,N,0.473,K,D*3A
$GNGGA,130245.00,0419.78570,S,05539.66627,E,2,12,0.76,11.1,M,-47.6,M,,0000*4E
$GNGSA,A,3,32,18,10,28,16,27,31,40,08,,,,1.52,0.76,1.31*17
$GNGSA,A,3,85,72,86,65,87,,,,,,,,1.52,0.76,1.31*12
$GPGSV,5,1,17,04,03,222,,08,19,308,35,10,13,017,27,16,24,224,19*7E
$GPGSV,5,2,17,18,31,105,11,23,01,055,,26,28,194,,27,53,287,32*7A
$GPGSV,5,3,17,28,58,124,15,29,00,146,10,31,47,174,19,32,41,004,26*7B
$GPGSV,5,4,17,36,52,277,34,40,84,353,35,41,58,082,,49,32,274,32*7C
$GPGSV,5,5,17,50,10,089,*4A
$GLGSV,3,1,11,65,29,264,25,66,02,224,09,71,05,012,15,72,32,331,25*61
$GLGSV,3,2,11,74,13,118,07,75,18,169,06,76,01,221,,84,01,150,*61
$GLGSV,3,3,11,85,45,128,08,86,56,019,22,87,17,347,19*5E
$GNGLL,0419.78570,S,05539.66627,E,130245.00,A,D*66
$GNRMC,130246.00,A,0419.78573,S,05539.66634,E,0.095,,200525,,,D*71
$GNVTG,,T,,M,0.095,N,0.177,K,D*35
$GNGGA,130246.00,0419.78573,S,05539.66634,E,2,12,0.66,11.1,M,-47.6,M,,0000*4D
$GNGSA,A,3,32,18,10,28,16,27,31,40,08,,,,1.25,0.66,1.06*12
$GNGSA,A,3,85,72,75,86,74,65,87,,,,,,1.25,0.66,1.06*16
$GPGSV,5,1,17,04,03,222,,08,19,308,38,10,13,017,28,16,24,224,16*73
$GPGSV,5,2,17,18,31,105,12,23,01,055,,26,28,194,,27,53,287,35*7E
$GPGSV,5,3,17,28,58,124,14,29,00,146,08,31,47,174,19,32,41,004,25*70
$GPGSV,5,4,17,36,52,277,37,40,84,353,36,41,58,082,,49,32,274,33*7D
$GPGSV,5,5,17,50,10,089,*4A
$GLGSV,3,1,11,65,29,264,26,66,02,224,09,71,05,012,17,72,32,331,26*63
$GLGSV,3,2,11,74,13,118,10,75,18,169,09,76,01,221,,84,01,150,*68
$GLGSV,3,3,11,85,45,128,09,86,56,019,21,87,17,347,19*5C
$GNGLL,0419.78573,S,05539.66634,E,130246.00,A,D*64
$GNRMC,130247.00,A,0419.78577,S,05539.66637,E,0.058,,200525,,,D*76
$GNVTG,,T,,M,0.058,N,0.107,K,D*33
$GNGGA,130247.00,0419.78577,S,05539.66637,E,2,12,0.71,11.1,M,-47.6,M,,0000*4D
$GNGSA,A,3,32,18,10,28,16,27,31,40,08,,,,1.36,0.71,1.17*16
$GNGSA,A,3,85,72,75,86,65,87,,,,,,,1.36,0.71,1.17*11
$GPGSV,5,1,17,04,03,222,,08,19,308,36,10,13,017,27,16,24,224,16*72
$GPGSV,5,2,17,18,31,105,09,23,01,055,,26,28,194,,27,53,287,34*75
$GPGSV,5,3,17,28,58,124,15,29,00,146,08,31,47,174,19,32,41,004,24*70
$GPGSV,5,4,17,36,52,277,35,40,84,353,33,41,58,082,,49,32,274,33*7A
$GPGSV,5,5,17,50,10,089,*4A
$GLGSV,3,1,11,65,29,264,27,66,02,224,11,71,05,012,17,72,32,331,27*6A
$GLGSV,3,2,11,74,13,118,09,75,18,169,10,76,01,221,,84,01,150,*68
$GLGSV,3,3,11,85,45,128,09,86,56,019,20,87,17,347,18*5C
$GNGLL,0419.78577,S,05539.66637,E,130247.00,A,D*62
$GNRMC,130248.00,A,0419.78566,S,05539.66637,E,0.207,,200525,,,D*71
$GNVTG,,T,,M,0.207,N,0.383,K,D*35
$GNGGA,130248.00,0419.78566,S,05539.66637,E,2,12,0.78,11.2,M,-47.6,M,,0000*48
$GNGSA,A,3,32,10,28,16,27,31,40,08,,,,,1.43,0.78,1.20*10
$GNGSA,A,3,85,72,75,86,65,87,,,,,,,1.43,0.78,1.20*1E
$GPGSV,5,1,17,04,03,222,,08,19,308,36,10,13,017,28,16,24,224,16*7D
$GPGSV,5,2,17,18,31,105,07,23,01,055,,26,28,194,,27,53,287,34*7B
$GPGSV,5,3,17,28,58,124,14,29,00,146,08,31,47,174,20,32,41,004,22*7D
$GPGSV,5,4,17,36,52,277,33,40,84,353,34,41,58,082,,49,32,274,29*70
$GPGSV,5,5,17,50,10,089,*4A
$GLGSV,3,1,11,65,29,264,27,66,02,224,10,71,05,012,16,72,32,331,27*6A
$GLGSV,3,2,11,74,13,118,08,75,18,169,11,76,01,221,,84,01,150,*68
$GLGSV,3,3,11,85,45,128,13,86,56,019,20,87,17,347,17*58
$GNGLL,0419.78566,S,05539.66637,E,130248.00,A,D*6D
$GNRMC,130249.00,A,0419.78554,S,05539.66634,E,0.181,,200525,,,D*7F
$GNVTG,,T,,M,0.181,N,0.335,K,D*35
$GNGGA,130249.00,0419.78554,S,05539.66634,E,2,12,0.71,11.4,M,-47.6,M,,0000*44
$GNGSA,A,3,32,18,10,28,16,27,31,40,08,,,,1.36,0.71,1.17*16
$GNGSA,A,3,85,72,75,86,65,87,,,,,,,1.36,0.71,1.17*11
$GPGSV,5,1,17,04,03,222,,08,19,308,38,10,13,017,28,16,24,224,15*70
$GPGSV,5,2,17,18,31,105,10,23,01,055,,26,28,194,,27,53,287,32*7B
$GPGSV,5,3,17,28,58,124,13,29,00,146,11,31,47,174,19,32,41,004,24*7E
$GPGSV,5,4,17,36,52,277,33,40,84,353,33,41,58,082,,49,32,274,30*7F
$GPGSV,5,5,17,50,10,089,*4A
$GLGSV,3,1,11,65,29,264,25,66,02,224,12,71,05,012,16,72,32,331,27*6A
$GLGSV,3,2,11,74,13,118,08,75,18,169,09,76,01,221,,84,01,150,*61
$GLGSV,3,3,11,85,45,128,14,86,56,019,19,87,17,347,17*55
$GNGLL,0419.78554,S,05539.66634,E,130249.00,A,D*6E
$GNRMC,130250.00,A,0419.78576,S,05539.66637,E,0.405,,200525,,,D*7D
$GNVTG,,T,,M,0.405,N,0.750,K,D*3B
$GNGGA,130250.00,0419.78576,S,05539.66637,E,2,12,0.67,11.1,M,-47.6,M,,0000*4D
$GNGSA,A,3,32,18,10,16,27,31,40,08,,,,,1.30,0.67,1.11*1B
$GNGSA,A,3,85,72,75,86,74,65,87,,,,,,1.30,0.67,1.11*15
$GPGSV,5,1,17,04,03,222,,08,19,308,36,10,13,017,27,16,24,224,14*70
$GPGSV,5,2,17,18,31,105,08,23,01,055,,26,28,194,,27,53,287,31*71
$GPGSV,5,3,17,28,58,124,09,29,00,146,10,31,47,174,18,32,41,004,24*75
$GPGSV,5,4,17,36,52,277,32,40,84,353,32,41,58,082,,49,32,274,29*77
$GPGSV,5,5,17,50,10,089,*4A
$GLGSV,3,1,11,65,29,264,23,66,02,224,10,71,05,012,16,72,32,331,27*6E
$GLGSV,3,2,11,74,13,118,09,75,18,169,07,76,01,221,,84,01,150,*6E
$GLGSV,3,3,11,85,45,128,11,86,56,019,19,87,17,347,17*50
$GNGLL,0419.78576,S,05539.66637,E,130250.00,A,D*65
$GNRMC,130251.00,A,0419.78582,S,05539.66635,E,0.121,,200525,,,D*76
$GNVTG,,T,,M,0.121,N,0.224,K,D*3E
$GNGGA,130251.00,0419.78582,S,05539.66635,E,2,12,0.67,11.0,M,-47.6,M,,0000*44
$GNGSA,A,3,32,18,10,16,27,31,40,08,,,,,1.30,0.67,1.11*1B
$GNGSA,A,3,85,72,75,86,74,65,87,,,,,,1.30,0.67,1.11*15
$GPGSV,5,1,17,04,03,222,,08,19,308,36,10,13,017,27,16,24,224,15*71
$GPGSV,5,2,17,18,31,105,07,23,01,055,,26,28,194,,27,53,287,32*7D
$GPGSV,5,3,17,28,58,124,09,29,00,146,08,31,47,174,17,32,41,004,25*72
$GPGSV,5,4,17,36,52,277,35,40,84,353,33,41,58,082,,49,32,274,30*79
$GPGSV,5,5,17,50,10,089,*4A
$GLGSV,3,1,11,65,29,264,23,66,02,224,11,71,05,012,15,72,32,331,27*6C
$GLGSV,3,2,11,74,13,118,07,75,18,169,11,76,01,221,,84,01,150,*67
$GLGSV,3,3,11,85,45,128,11,86,56,019,20,87,17,347,18*55
$GNGLL,0419.78582,S,05539.66635,E,130251.00,A,D*6D
$GNRMC,130252.00,A,0419.78586,S,05539.66635,E,0.061,,200525,,,D*74
$GNVTG,,T,,M,0.061,N,0.112,K,D*3D
$GNGGA,130252.00,0419.78586,S,05539.66635,E,2,12,0.66,11.0,M,-47.6,M,,0000*42
$GNGSA,A,3,32,18,10,28,16,27,31,40,08,,,,1.25,0.66,1.06*12
$GNGSA,A,3,85,72,75,86,74,65,87,,,,,,1.25,0.66,1.06*16
$GPGSV,5,1,17,04,03,222,,08,19,308,36,10,13,017,27,16,24,224,16*72
$GPGSV,5,2,17,18,31,105,08,23,01,055,,26,28,194,,27,53,287,34*74
$GPGSV,5,3,17,28,58,124,10,29,00,146,08,31,47,174,19,32,41,004,23*72
$GPGSV,5,4,17,36,52,277,35,40,84,353,34,41,58,082,,49,32,274,31*7F
$GPGSV,5,5,17,50,10,089,*4A
$GLGSV,3,1,11,65,29,264,26,66,02,224,10,71,05,012,16,72,32,331,27*6B
$GLGSV,3,2,11,74,13,118,09,75,18,169,09,76,01,221,,84,01,150,*60
$GLGSV,3,3,11,85,45,128,11,86,56,019,23,87,17,347,18*56
$GNGLL,0419.78586,S,05539.66635,E,130252.00,A,D*6A
$GNRMC,130253.00,A,0419.78598,S,05539.66641,E,0.073,,200525,,,D*7A
$GNVTG,,T,,M,0.073,N,0.136,K,D*38
$GNGGA,130253.00,0419.78598,S,05539.66641,E,2,12,0.78,10.8,M,-47.6,M,,0000*49
$GNGSA,A,3,32,18,10,28,16,27,31,40,08,,,,1.43,0.78,1.20*19
$GNGSA,A,3,85,72,75,86,65,87,,,,,,,1.43,0.78,1.20*1E
$GPGSV,5,1,17,04,03,222,,08,19,308,37,10,13,017,27,16,24,224,16*73
$GPGSV,5,2,17,18,31,105,14,23,01,055,,26,28,194,,27,53,287,35*78
$GPGSV,5,3,17,28,58,124,12,29,00,146,08,31,47,174,20,32,41,004,24*7D
$GPGSV,5,4,17,36,52,277,35,40,84,353,35,41,58,082,,49,32,274,31*7E
$GPGSV,5,5,17,50,10,089,*4A
$GLGSV,3,1,11,65,29,264,25,66,02,224,09,71,05,012,16,72,32,331,30*66
$GLGSV,3,2,11,74,13,118,06,75,18,169,08,76,01,221,,84,01,150,*6E
$GLGSV,3,3,11,85,45,128,14,86,56,019,23,87,17,347,16*5D
$GNGLL,0419.78598,S,05539.66641,E,130253.00,A,D*67
$GNRMC,130254.00,A,0419.78599,S,05539.66644,E,0.070,,200525,,,D*7A
$GNVTG,,T,,M,0.070,N,0.129,K,D*35
$GNGGA,130254.00,0419.78599,S,05539.66644,E,2,12,0.71,10.9,M,-47.6,M,,0000*42
$GNGSA,A,3,32,18,10,28,16,27,31,40,08,,,,1.36,0.71,1.17*16
$GNGSA,A,3,85,72,75,86,65,87,,,,,,,1.36,0.71,1.17*11
$GPGSV,5,1,17,04,03,222,,08,19,308,39,10,13,017,28,16,24,224,16*72
$GPGSV,5,2,17,18,31,105,10,23,01,055,,26,28,194,,27,53,287,36*7F
$GPGSV,5,3,17,28,58,124,17,29,00,146,,31,47,174,21,32,41,004,27*72
$GPGSV,5,4,17,36,52,277,37,40,84,353,38,41,58,082,,49,32,274,32*72
$GPGSV,5,5,17,50,10,089,*4A
$GLGSV,3,1,11,65,29,264,24,66,02,224,08,71,05,012,17,72,32,331,29*6F
$GLGSV,3,2,11,74,13,118,09,75,18,169,10,76,01,221,,84,01,150,*68
$GLGSV,3,3,11,85,45,128,08,86,56,019,24,87,17,347,13*52
$GNGLL,0419.78599,S,05539.66644,E,130254.00,A,D*64
$GNRMC,130255.00,A,0419.78623,S,05539.66656,E,0.229,,200525,,,D*74
$GNVTG,,T,,M,0.229,N,0.424,K,D*33
$GNGGA,130255.00,0419.78623,S,05539.66656,E,2,12,0.72,10.4,M,-47.6,M,,0000*4C
$GNGSA,A,3,32,18,10,28,16,27,31,40,08,,,,1.42,0.72,1.22*10
$GNGSA,A,3,85,72,75,86,65,,,,,,,,1.42,0.72,1.22*18
$GPGSV,5,1,17,04,03,222,,08,19,308,39,10,13,017,29,16,24,224,17*72
$GPGSV,5,2,17,18,31,105,12,23,01,055,,26,28,194,,27,53,287,38*73
$GPGSV,5,3,17,28,58,124,18,29,00,146,,31,47,174,21,32,41,004,27*7D
$GPGSV,5,4,17,36,52,277,37,40,84,353,38,41,58,082,,49,32,274,33*73
$GPGSV,5,5,17,50,10,089,*4A
$GLGSV,3,1,11,65,29,264,25,66,02,224,11,71,05,012,17,72,32,331,29*66
$GLGSV,3,2,11,74,13,118,10,75,18,169,11,76,01,221,,84,01,150,*61
$GLGSV,3,3,11,85,45,128,09,86,56,019,25,87,17,347,10*51
$GNGLL,0419.78623,S,05539.66656,E,130255.00,A,D*64
$GNRMC,130256.00,A,0419.78633,S,05539.66659,E,0.205,,200525,,,D*77
$GNVTG,,T,,M,0.205,N,0.380,K,D*34
$GNGGA,130256.00,0419.78633,S,05539.66659,E,2,12,0.73,10.2,M,-47.6,M,,0000*46
$GNGSA,A,3,32,18,10,28,16,27,31,40,08,,,,1.38,0.73,1.16*1B
$GNGSA,A,3,85,72,75,86,74,65,,,,,,,1.38,0.73,1.16*10
$GPGSV,5,1,17,04,03,222,,08,19,308,39,10,13,017,28,16,24,224,15*71
$GPGSV,5,2,17,18,31,105,10,23,01,055,,26,28,194,,27,53,287,37*7E
$GPGSV,5,3,17,28,58,124,15,29,00,146,,31,47,174,21,32,41,004,26*71
$GPGSV,5,4,17,36,52,277,37,40,84,353,37,41,58,082,,49,32,274,33*7C
$GPGSV,5,5,17,50,10,089,*4A
$GLGSV,3,1,11,65,29,264,24,66,02,224,12,71,05,012,20,72,32,331,30*68
$GLGSV,3,2,11,74,13,118,09,75,18,169,08,76,01,221,,84,01,150,*61
$GLGSV,3,3,11,85,45,128,13,86,56,019,26,87,17,347,08*50
$GNGLL,0419.78633,S,05539.66659,E,130256.00,A,D*69
$GNRMC,130257.00,A,0419.78625,S,05539.66657,E,0.159,,200525,,,D*75
$GNVTG,,T,,M,0.159,N,0.294,K,D*3A
$GNGGA,130257.00,0419.78625,S,05539.66657,E,2,12,0.68,10.4,M,-47.6,M,,0000*42
$GNGSA,A,3,32,18,10,28,16,27,31,40,08,,,,1.29,0.68,1.10*17
$GNGSA,A,3,85,72,75,86,74,65,,,,,,,1.29,0.68,1.10*1C
$GPGSV,5,1,17,04,03,222,,08,19,308,38,10,13,017,28,16,24,224,13*76
$GPGSV,5,2,17,18,31,105,11,23,01,055,,26,28,194,,27,53,287,37*7F
$GPGSV,5,3,17,28,58,124,17,29,00,146,,31,47,174,20,32,41,004,26*72
$GPGSV,5,4,17,36,52,277,36,40,84,353,37,41,58,082,,49,32,274,32*7C
$GPGSV,5,5,17,50,10,089,*4A
$GLGSV,3,1,11,65,29,264,25,66,02,224,09,71,05,012,20,72,32,331,29*6B
$GLGSV,3,2,11,74,13,118,09,75,18,169,09,76,01,221,,84,01,150,*60
$GLGSV,3,3,11,85,45,128,11,86,56,019,26,87,17,347,08*52
$GNGLL,0419.78625,S,05539.66657,E,130257.00,A,D*61
$GNRMC,130258.00,A,0419.78616,S,05539.66657,E,0.087,,200525,,,D*78
$GNVTG,,T,,M,0.087,N,0.161,K,D*31
$GNGGA,130258.00,0419.78616,S,05539.66657,E,2,12,0.72,10.5,M,-47.6,M,,0000*47
$GNGSA,A,3,32,18,10,28,16,27,31,40,08,,,,1.36,0.72,1.16*14
$GNGSA,A,3,85,72,86,74,65,,,,,,,,1.36,0.72,1.16*1D
$GPGSV,5,1,17,04,03,222,,08,19,308,38,10,13,017,27,16,24,224,10*7A
$GPGSV,5,2,17,18,31,105,11,23,01,055,,26,28,194,,27,53,287,37*7F
$GPGSV,5,3,17,28,58,124,18,29,00,146,,31,47,174,21,32,41,004,25*7F
$GPGSV,5,4,17,36,52,277,36,40,84,353,36,41,58,082,,49,32,274,32*7D
$GPGSV,5,5,17,50,10,089,*4A
$GLGSV,3,1,11,65,29,264,24,66,02,224,10,71,05,012,19,72,32,331,30*60
$GLGSV,3,2,11,74,13,118,09,75,18,169,07,76,01,221,,84,01,150,*6E
$GLGSV,3,3,11,85,45,128,11,86,56,019,26,87,17,347,08*52
$GNGLL,0419.78616,S,05539.66657,E,130258.00,A,D*6E
$GNRMC,130259.00,A,0419.78625,S,05539.66654,E,0.160,,200525,,,D*72
$GNVTG,,T,,M,0.160,N,0.296,K,D*32
$GNGGA,130259.00,0419.78625,S,05539.66654,E,2,12,1.09,10.4,M,-47.6,M,,0000*49
$GNGSA,A,3,32,18,10,28,27,31,40,08,,,,,2.01,1.09,1.69*11
$GNGSA,A,3,85,72,75,86,74,65,87,,,,,,2.01,1.09,1.69*12
$GPGSV,5,1,17,04,03,222,,08,19,308,38,10,13,017,27,16,24,224,09*72
$GPGSV,5,2,17,18,31,105,08,23,01,055,,26,28,194,,27,53,287,37*77
$GPGSV,5,3,17,28,58,124,18,29,00,146,,31,47,174,20,32,41,004,25*7E
$GPGSV,5,4,17,36,52,277,36,40,84,353,36,41,58,082,,49,32,274,32*7D
$GPGSV,5,5,17,50,10,089,*4A
$GLGSV,3,1,11,65,29,264,23,66,02,224,10,71,05,012,18,72,32,331,30*66
$GLGSV,3,2,11,74,13,118,10,75,18,169,09,76,01,221,,84,01,150,*68
$GLGSV,3,3,11,85,45,128,09,86,56,019,26,87,17,347,11*53
$GNGLL,0419.78625,S,05539.66654,E,130259.00,A,D*6C
$GNRMC,130300.00,A,0419.78635,S,05539.66655,E,0.092,,200525,,,D*73
$GNVTG,,T,,M,0.092,N,0.170,K,D*35
$GNGGA,130300.00,0419.78635,S,05539.66655,E,2,12,0.75,10.3,M,-47.6,M,,0000*49
$GNGSA,A,3,32,18,10,28,27,31,40,08,,,,,1.35,0.75,1.12*13
$GNGSA,A,3,85,72,75,86,74,65,87,,,,,,1.35,0.75,1.12*10
$GPGSV,5,1,17,04,03,222,,08,19,308,38,10,13,017,27,16,24,224,10*7A
$GPGSV,5,2,17,18,31,105,10,23,01,055,,26,28,194,,27,53,287,37*7E
$GPGSV,5,3,17,28,58,124,19,29,00,146,,31,47,174,19,32,41,004,24*74
$GPGSV,5,4,17,36,52,277,36,40,84,353,37,41,58,082,,49,32,274,32*7C
$GPGSV,5,5,17,50,10,089,*4A
$GLGSV,3,1,11,65,29,264,23,66,02,224,09,71,05,012,19,72,32,331,30*6F
$GLGSV,3,2,11,74,13,118,07,75,18,169,11,76,01,221,,84,01,150,*67
$GLGSV,3,3,11,85,45,128,10,86,56,019,26,87,17,347,12*58
$GNGLL,0419.78635,S,05539.66655,E,130300.00,A,D*61
$GNRMC,130301.00,A,0419.78670,S,05539.66668,E,0.279,,200525,,,D*7A
$GNVTG,,T,,M,0.279,N,0.516,K,D*36
$GNGGA,130301.00,0419.78670,S,05539.66668,E,2,12,0.68,9.7,M,-47.6,M,,0000*77
$GNGSA,A,3,32,18,10,28,16,27,31,40,08,,,,1.29,0.68,1.10*17
$GNGSA,A,3,85,72,75,86,74,65,87,,,,,,1.29,0.68,1.10*13
$GPGSV,5,1,17,04,03,222,,08,19,308,38,10,13,017,27,16,24,224,13*79
$GPGSV,5,2,17,18,31,105,10,23,01,055,,26,28,194,,27,53,287,37*7E
$GPGSV,5,3,17,28,58,124,19,29,00,146,,31,47,174,19,32,41,004,23*73
$GPGSV,5,4,17,36,52,277,36,40,84,353,36,41,58,082,,49,32,274,32*7D
$GPGSV,5,5,17,50,10,089,*4A
$GLGSV,3,1,11,65,29,264,23,66,02,224,10,71,05,012,19,72,32,331,30*67
$GLGSV,3,2,11,74,13,118,10,75,18,169,10,76,01,221,,84,01,150,*60
$GLGSV,3,3,11,85,45,128,10,86,56,019,27,87,17,347,14*5F
$GNGLL,0419.78670,S,05539.66668,E,130301.00,A,D*6F
$GNRMC,130302.00,A,0419.78696,S,05539.66674,E,0.424,,200525,,,D*72
$GNVTG,,T,,M,0.424,N,0.786,K,D*33
$GNGGA,130302.00,0419.78696,S,05539.66674,E,2,12,0.98,9.3,M,-47.6,M,,0000*7A
$GNGSA,A,3,32,18,10,28,16,27,31,40,08,,,,1.80,0.98,1.51*1E
$GNGSA,A,3,85,72,75,86,65,87,,,,,,,1.80,0.98,1.51*19
$GPGSV,5,1,17,04,03,222,,08,19,308,38,10,13,017,27,16,24,224,15*7F
$GPGSV,5,2,17,18,31,105,08,23,01,055,,26,28,193,,27,53,287,37*70
$GPGSV,5,3,17,28,58,124,19,29,00,146,,31,47,174,19,32,41,004,23*73
$GPGSV,5,4,17,36,52,277,36,40,84,353,36,41,58,082,,49,32,274,32*7D
$GPGSV,5,5,17,50,10,089,*4A
$GLGSV,3,1,11,65,29,264,24,66,02,224,13,71,05,012,19,72,32,331,30*63
$GLGSV,3,2,11,74,13,118,10,75,18,169,07,76,01,221,,84,01,150,*66
$GLGSV,3,3,11,85,45,128,11,86,56,019,27,87,17,347,12*58
$GNGLL,0419.78696,S,05539.66674,E,130302.00,A,D*69
$GNRMC,130303.00,A,0419.78683,S,05539.66665,E,0.042,,200525,,,D*73
$GNVTG,,T,,M,0.042,N,0.077,K,D*3E
$GNGGA,130303.00,0419.78683,S,05539.66665,E,2,12,0.78,9.5,M,-47.6,M,,0000*77
$GNGSA,A,3,32,10,28,16,27,31,40,08,,,,,1.43,0.78,1.20*10
$GNGSA,A,3,85,72,75,86,65,87,,,,,,,1.43,0.78,1.20*1E
$GPGSV,5,1,17,04,03,222,,08,19,308,38,10,13,017,27,16,24,224,15*7F
$GPGSV,5,2,17,18,31,105,06,23,01,055,,26,28,193,,27,53,286,37*7F
$GPGSV,5,3,17,28,58,124,18,29,00,146,,31,47,174,19,32,41,004,22*73
$GPGSV,5,4,17,36,52,277,36,40,84,353,37,41,58,082,,49,32,274,32*7C
$GPGSV,5,5,17,50,10,089,*4A
$GLGSV,3,1,11,65,29,264,24,66,02,224,09,71,05,012,19,72,32,331,30*68
$GLGSV,3,2,11,74,13,118,06,75,18,169,10,76,01,221,,84,01,150,*67
$GLGSV,3,3,11,85,45,128,10,86,56,019,26,87,17,347,13*59
$GNGLL,0419.78683,S,05539.66665,E,130303.00,A,D*6C
$GNRMC,130304.00,A,0419.78665,S,05539.66655,E,0.135,,200525,,,D*7E
$GNVTG,,T,,M,0.135,N,0.250,K,D*38
$GNGGA,130304.00,0419.78665,S,05539.66655,E,2,12,0.72,9.7,M,-47.6,M,,0000*73
$GNGSA,A,3,32,18,10,28,16,27,31,40,08,,,,1.42,0.72,1.22*10
$GNGSA,A,3,85,72,75,86,65,,,,,,,,1.42,0.72,1.22*18
$GPGSV,5,1,17,04,03,222,,08,19,308,38,10,13,017,28,16,24,224,14*71
$GPGSV,5,2,17,18,31,105,10,23,01,055,,26,28,193,,27,53,286,37*78
$GPGSV,5,3,17,28,58,123,18,29,00,146,,31,47,174,20,32,41,004,22*7E
$GPGSV,5,4,17,36,52,277,36,40,84,353,37,41,58,082,,49,32,274,32*7C
$GPGSV,5,5,17,50,10,089,*4A
$GLGSV,3,1,11,65,29,264,24,66,02,224,08,71,05,012,18,72,32,331,31*69
$GLGSV,3,2,11,74,13,118,08,75,18,169,11,76,01,221,,84,01,150,*68
$GLGSV,3,3,11,85,45,128,07,86,56,019,27,87,17,347,*5C
$GNGLL,0419.78665,S,05539.66655,E,130304.00,A,D*60
$GNRMC,130305.00,A,0419.78654,S,05539.66652,E,0.082,,200525,,,D*77
$GNVTG,,T,,M,0.082,N,0.152,K,D*34
$GNGGA,130305.00,0419.78654,S,05539.66652,E,2,12,0.72,10.0,M,-47.6,M,,0000*48
$GNGSA,A,3,32,18,10,28,16,27,31,40,08,,,,1.42,0.72,1.22*10
$GNGSA,A,3,85,72,75,86,65,,,,,,,,1.42,0.72,1.22*18
$GPGSV,5,1,17,04,03,222,,08,19,308,38,10,13,017,28,16,24,224,12*77
$GPGSV,5,2,17,18,31,105,10,23,01,055,,26,28,193,,27,53,286,37*78
$GPGSV,5,3,17,28,58,123,19,29,00,146,,31,47,174,20,32,41,004,22*7F
$GPGSV,5,4,17,36,52,277,36,40,84,353,36,41,58,082,,49,32,274,32*7D
$GPGSV,5,5,17,50,10,089,*4A
$GLGSV,3,1,11,65,29,264,23,66,02,224,09,71,05,012,18,72,32,331,30*6E
$GLGSV,3,2,11,74,13,118,10,75,18,169,10,76,01,221,,84,01,150,*60
$GLGSV,3,3,11,85,45,128,11,86,56,019,27,87,17,347,*5B
$GNGLL,0419.78654,S,05539.66652,E,130305.00,A,D*64
$GNRMC,130306.00,A,0419.78670,S,05539.66657,E,0.200,,200525,,,D*7F
$GNVTG,,T,,M,0.200,N,0.370,K,D*3E
$GNGGA,130306.00,0419.78670,S,05539.66657,E,2,12,0.72,9.7,M,-47.6,M,,0000*77
$GNGSA,A,3,32,18,10,28,16,27,31,40,08,,,,1.42,0.72,1.22*10
$GNGSA,A,3,85,72,75,86,65,,,,,,,,1.42,0.72,1.22*18
$GPGSV,5,1,17,04,03,222,,08,19,308,38,10,13,017,28,16,24,224,15*70
$GPGSV,5,2,17,18,31,105,09,23,01,055,,26,28,193,,27,53,286,37*70
$GPGSV,5,3,17,28,58,123,20,29,00,146,,31,47,174,20,32,41,004,23*74
$GPGSV,5,4,17,36,52,277,36,40,84,353,37,41,58,082,,49,32,274,32*7C
$GPGSV,5,5,17,50,10,089,*4A
$GLGSV,3,1,11,65,29,264,22,66,02,224,10,71,05,012,19,72,32,331,30*66
$GLGSV,3,2,11,74,13,118,10,75,18,169,08,76,01,221,,84,01,150,*69
$GLGSV,3,3,11,85,45,128,09,86,56,019,27,87,17,347,*52
$GNGLL,0419.78670,S,05539.66657,E,130306.00,A,D*64
$GNRMC,130307.00,A,0419.78691,S,05539.66662,E,0.227,,200525,,,D*72
$GNVTG,,T,,M,0.227,N,0.420,K,D*39
$GNGGA,130307.00,0419.78691,S,05539.66662,E,2,12,0.72,9.4,M,-47.6,M,,0000*7C
$GNGSA,A,3,32,18,10,28,16,27,31,40,08,,,,1.42,0.72,1.22*10
$GNGSA,A,3,85,72,75,86,65,,,,,,,,1.42,0.72,1.22*18
$GPGSV,5,1,17,04,03,222,,08,19,308,38,10,13,017,28,16,24,224,11*74
$GPGSV,5,2,17,18,31,105,10,23,01,055,,26,28,193,,27,53,286,37*78
$GPGSV,5,3,17,28,58,123,19,29,00,146,,31,48,173,21,32,41,004,23*77
$GPGSV,5,4,17,36,52,277,36,40,84,353,37,41,58,082,,49,32,274,32*7C
$GPGSV,5,5,17,50,10,089,*4A
$GLGSV,3,1,11,65,29,264,23,66,02,224,08,71,05,012,18,72,32,331,30*6F
$GLGSV,3,2,11,74,13,118,11,75,18,169,11,76,01,221,,84,01,150,*60
$GLGSV,3,3,11,85,45,128,12,86,56,019,26,87,17,347,*59
$GNGLL,0419.78691,S,05539.66662,E,130307.00,A,D*6C
$GNRMC,130308.00,A,0419.78674,S,05539.66653,E,0.069,,200525,,,D*7C
$GNVTG,,T,,M,0.069,N,0.129,K,D*3D
$GNGGA,130308.00,0419.78674,S,05539.66653,E,2,12,0.79,9.7,M,-47.6,M,,0000*72
$GNGSA,A,3,32,18,10,28,16,27,31,40,08,,,,1.49,0.79,1.26*14
$GNGSA,A,3,85,72,75,86,65,,,,,,,,1.49,0.79,1.26*1C
$GPGSV,5,1,17,04,03,222,,08,19,308,38,10,13,017,28,16,24,224,12*77
$GPGSV,5,2,17,18,31,105,09,23,01,055,,26,28,193,,27,53,286,37*70
$GPGSV,5,3,17,28,58,123,19,29,00,146,,31,48,173,20,32,41,004,23*76
$GPGSV,5,4,17,36,52,277,36,40,84,353,37,41,58,082,,49,32,274,32*7C
$GPGSV,5,5,17,50,10,089,*4A
$GLGSV,3,1,11,65,29,264,22,66,02,224,09,71,05,012,19,72,32,331,30*6E
$GLGSV,3,2,11,74,13,118,10,75,18,169,10,76,01,221,,84,01,150,*60
$GLGSV,3,3,11,85,45,128,12,86,56,019,27,87,17,347,*58
$GNGLL,0419.78674,S,05539.66653,E,130308.00,A,D*6A
$GNRMC,130309.00,A,0419.78695,S,05539.66659,E,0.200,,200525,,,D*75
$GNVTG,,T,,M,0.200,N,0.370,K,D*3E
$GNGGA,130309.00,0419.78695,S,05539.66659,E,2,12,0.72,9.4,M,-47.6,M,,0000*7E
$GNGSA,A,3,32,18,10,28,16,27,31,40,08,,,,1.42,0.72,1.22*10
$GNGSA,A,3,85,72,75,86,65,,,,,,,,1.42,0.72,1.22*18
$GPGSV,5,1,17,04,03,222,,08,19,308,38,10,13,017,28,16,24,224,12*77
$GPGSV,5,2,17,18,31,105,09,23,01,055,,26,28,193,,27,53,286,37*70
$GPGSV,5,3,17,28,58,123,20,29,00,146,,31,48,173,20,32,41,004,23*7C
$GPGSV,5,4,17,36,52,277,36,40,84,353,37,41,58,082,,49,32,274,32*7C
$GPGSV,5,5,17,50,10,089,*4A
$GLGSV,3,1,11,65,29,264,22,66,02,224,08,71,05,012,20,72,32,331,30*65
$GLGSV,3,2,11,74,13,118,08,75,18,169,10,76,01,221,,84,01,150,*69
$GLGSV,3,3,11,85,45,128,11,86,56,019,27,87,17,347,*5B
$GNGLL,0419.78695,S,05539.66659,E,130309.00,A,D*6E
$GNRMC,130310.00,A,0419.78699,S,05539.66661,E,0.042,,200525,,,D*7E
$GNVTG,,T,,M,0.042,N,0.078,K,D*31
$GNGGA,130310.00,0419.78699,S,05539.66661,E,2,12,0.78,9.4,M,-47.6,M,,0000*7B
$GNGSA,A,3,32,18,10,28,16,27,31,40,08,,,,1.57,0.78,1.36*1B
$GNGSA,A,3,85,72,86,65,,,,,,,,,1.57,0.78,1.36*11
$GPGSV,5,1,17,04,03,222,,08,19,308,38,10,13,017,28,16,24,224,09*7D
$GPGSV,5,2,17,18,31,105,10,23,01,055,,26,28,193,,27,53,286,37*78
$GPGSV,5,3,17,28,58,123,20,29,00,146,,31,48,173,20,32,41,004,23*7C
$GPGSV,5,4,17,36,52,277,36,40,84,353,37,41,58,082,,49,32,274,32*7C
$GPGSV,5,5,17,50,10,089,*4A
$GLGSV,3,1,11,65,29,264,22,66,02,224,10,71,05,012,20,72,32,331,30*6C
$GLGSV,3,2,11,74,13,118,09,75,18,169,06,76,01,221,,84,01,150,*6F
$GLGSV,3,3,11,85,45,128,10,86,56,019,27,87,17,347,*5A
$GNGLL,0419.78699,S,05539.66661,E,130310.00,A,D*61
$GNRMC,130311.00,A,0419.78715,S,05539.66666,E,0.278,,200525,,,D*76
$GNVTG,,T,,M,0.278,N,0.514,K,D*35
$GNGGA,130311.00,0419.78715,S,05539.66666,E,2,12,0.79,9.2,M,-47.6,M,,0000*7F
$GNGSA,A,3,32,18,10,28,16,27,31,40,08,,,,1.49,0.79,1.26*14
$GNGSA,A,3,85,72,75,86,65,,,,,,,,1.49,0.79,1.26*1C
$GPGSV,5,1,17,04,03,222,,08,19,308,38,10,13,017,28,16,24,224,10*75
$GPGSV,5,2,17,18,31,105,10,23,01,055,,26,28,193,,27,53,286,37*78
$GPGSV,5,3,17,28,58,123,20,29,00,146,,31,48,173,21,32,41,004,23*7D
$GPGSV,5,4,17,36,52,277,36,40,84,353,37,41,58,082,,49,32,274,32*7C
$GPGSV,5,5,17,50,10,089,*4A
$GLGSV,3,1,11,65,29,264,22,66,02,224,09,71,05,012,20,72,32,331,30*64
$GLGSV,3,2,11,74,13,118,08,75,18,169,10,76,01,221,,84,01,150,*69
$GLGSV,3,3,11,85,45,128,07,86,56,019,27,87,17,347,*5C
$GNGLL,0419.78715,S,05539.66666,E,130311.00,A,D*62
$GNRMC,130312.00,A,0419.78731,S,05539.66672,E,0.332,,200525,,,D*79
$GNVTG,,T,,M,0.332,N,0.614,K,D*39
$GNGGA,130312.00,0419.78731,S,05539.66672,E,2,12,0.79,9.0,M,-47.6,M,,0000*7D
$GNGSA,A,3,32,18,10,28,27,31,40,08,,,,,1.48,0.79,1.25*11
$GNGSA,A,3,85,72,75,86,65,,,,,,,,1.48,0.79,1.25*1E
$GPGSV,5,1,17,04,03,222,,08,19,308,38,10,13,017,28,16,24,224,06*72
$GPGSV,5,2,17,18,31,105,09,23,01,055,,26,28,193,,27,53,286,37*70
$GPGSV,5,3,17,28,58,123,19,29,00,146,,31,48,173,21,32,41,004,22*76
$GPGSV,5,4,17,36,52,277,36,40,84,353,36,41,58,082,,49,32,274,32*7D
$GPGSV,5,5,17,50,10,089,*4A
$GLGSV,3,1,11,65,29,264,22,66,02,224,10,71,05,012,20,72,32,331,30*6C
$GLGSV,3,2,11,74,13,118,06,75,18,169,10,76,01,221,,84,01,150,*67
$GLGSV,3,3,11,85,45,128,09,86,56,019,27,87,17,347,*52
$GNGLL,0419.78731,S,05539.66672,E,130312.00,A,D*62
$GNRMC,130313.00,A,0419.78736,S,05539.66673,E,0.299,,200525,,,D*7E
$GNVTG,,T,,M,0.299,N,0.553,K,D*39
$GNGGA,130313.00,0419.78736,S,05539.66673,E,2,12,0.72,8.9,M,-47.6,M,,0000*79
$GNGSA,A,3,32,18,10,28,16,27,31,40,08,,,,1.42,0.72,1.22*10
$GNGSA,A,3,85,72,75,86,65,,,,,,,,1.42,0.72,1.22*18
$GPGSV,5,1,17,04,03,222,,08,19,308,38,10,13,017,28,16,24,224,12*77
$GPGSV,5,2,17,18,31,105,13,23,01,055,,26,28,193,,27,53,286,37*7B
$GPGSV,5,3,17,28,58,123,20,29,00,146,,31,48,173,21,32,41,004,22*7C
$GPGSV,5,4,17,36,52,277,36,40,84,353,37,41,58,082,,49,32,274,32*7C
$GPGSV,5,5,17,50,10,089,*4A
$GLGSV,3,1,11,65,29,264,22,66,02,224,08,71,05,012,20,72,32,331,30*65
$GLGSV,3,2,11,74,13,118,07,75,18,169,11,76,01,221,,84,01,150,*67
$GLGSV,3,3,11,85,45,128,12,86,56,019,27,87,17,347,*58
$GNGLL,0419.78736,S,05539.66673,E,130313.00,A,D*65
$GNRMC,130314.00,A,0419.78734,S,05539.66670,E,0.386,,200525,,,D*77
$GNVTG,,T,,M,0.386,N,0.716,K,D*35
$GNGGA,130314.00,0419.78734,S,05539.66670,E,2,12,0.79,9.0,M,-47.6,M,,0000*7C
$GNGSA,A,3,32,18,10,28,16,27,31,40,08,,,,1.49,0.79,1.26*14
$GNGSA,A,3,85,72,75,86,65,,,,,,,,1.49,0.79,1.26*1C
$GPGSV,5,1,17,04,03,222,,08,19,308,38,10,13,017,27,16,24,224,15*7F
$GPGSV,5,2,17,18,31,105,15,23,01,055,,26,28,193,,27,53,286,37*7D
$GPGSV,5,3,17,28,58,123,21,29,00,146,,31,48,173,22,32,41,004,23*7F
$GPGSV,5,4,17,36,52,277,36,40,84,353,36,41,58,082,,49,32,274,32*7D
$GPGSV,5,5,17,50,10,089,*4A
$GLGSV,3,1,11,65,29,264,22,66,02,224,08,71,05,012,20,72,32,331,30*65
$GLGSV,3,2,11,74,13,118,08,75,18,169,10,76,01,221,,84,01,150,*69
$GLGSV,3,3,11,85,45,128,10,86,56,019,27,87,17,347,*5A
$GNGLL,0419.78734,S,05539.66670,E,130314.00,A,D*63
$GNRMC,130315.00,A,0419.78738,S,05539.66670,E,0.210,,200525,,,D*74
$GNVTG,,T,,M,0.210,N,0.390,K,D*31
$GNGGA,130315.00,0419.78738,S,05539.66670,E,2,12,0.72,8.9,M,-47.6,M,,0000*72
$GNGSA,A,3,32,18,10,28,16,27,31,40,08,,,,1.42,0.72,1.22*10
$GNGSA,A,3,85,72,75,86,65,,,,,,,,1.42,0.72,1.22*18
$GPGSV,5,1,17,04,03,222,,08,19,308,38,10,13,017,27,16,24,224,14*7E
$GPGSV,5,2,17,18,31,105,09,23,01,055,,26,28,193,,27,53,286,37*70
$GPGSV,5,3,17,28,58,123,20,29,00,146,,31,48,173,22,32,41,004,24*79
$GPGSV,5,4,17,36,52,277,36,40,84,353,36,41,58,082,,49,32,274,32*7D
$GPGSV,5,5,17,50,10,089,*4A
$GLGSV,3,1,11,65,29,264,22,66,02,224,09,71,05,012,19,72,32,331,30*6E
$GLGSV,3,2,11,74,13,118,09,75,18,169,12,76,01,221,,84,01,150,*6A
$GLGSV,3,3,11,85,45,128,11,86,56,019,27,87,17,347,*5B
$GNGLL,0419.78738,S,05539.66670,E,130315.00,A,D*6E
$GNRMC,130316.00,A,0419.78741,S,05539.66669,E,0.153,,200525,,,D*75
$GNVTG,,T,,M,0.153,N,0.284,K,D*31
$GNGGA,130316.00,0419.78741,S,05539.66669,E,2,12,0.72,8.9,M,-47.6,M,,0000*77
$GNGSA,A,3,32,18,10,28,16,27,31,40,08,,,,1.42,0.72,1.22*10
$GNGSA,A,3,85,72,75,86,65,,,,,,,,1.42,0.72,1.22*18
$GPGSV,5,1,17,04,03,222,,08,19,308,38,10,13,017,28,16,24,224,16*73
$GPGSV,5,2,17,18,31,105,08,23,01,055,,26,28,193,,27,53,286,37*71
$GPGSV,5,3,17,28,58,123,20,29,00,146,,31,48,173,22,32,41,004,23*7E
$GPGSV,5,4,17,36,52,277,36,40,84,353,37,41,58,082,,49,32,274,32*7C
$GPGSV,5,5,17,50,10,089,*4A
$GLGSV,3,1,11,65,29,264,22,66,02,224,07,71,05,012,18,72,32,331,31*60
$GLGSV,3,2,11,74,13,118,09,75,18,169,08,76,01,221,,84,01,150,*61
$GLGSV,3,3,11,85,45,128,11,86,56,019,27,87,17,347,*5B
$GNGLL,0419.78741,S,05539.66669,E,130316.00,A,D*6B
$GNRMC,130317.00,A,0419.78759,S,05539.66675,E,0.328,,200525,,,D*7E
$GNVTG,,T,,M,0.328,N,0.607,K,D*30
$GNGGA,130317.00,0419.78759,S,05539.66675,E,2,12,0.88,8.7,M,-47.6,M,,0000*79
$GNGSA,A,3,32,18,10,28,16,27,31,40,08,,,,1.71,0.88,1.47*16
$GNGSA,A,3,85,72,86,65,,,,,,,,,1.71,0.88,1.47*1C
$GPGSV,5,1,17,04,03,222,,08,19,308,38,10,13,017,28,16,24,224,14*71
$GPGSV,5,2,17,18,31,105,10,23,01,055,,26,28,193,,27,53,286,37*78
$GPGSV,5,3,17,28,58,123,20,29,00,146,,31,48,173,23,32,41,004,23*7F
$GPGSV,5,4,17,36,52,277,36,40,84,353,36,41,58,082,,49,32,274,32*7D
$GPGSV,5,5,17,50,10,089,*4A
$GLGSV,3,1,11,65,29,264,22,66,02,224,09,71,05,012,16,72,32,331,30*61
$GLGSV,3,2,11,74,13,118,07,75,18,169,06,76,01,221,,84,01,150,*61
$GLGSV,3,3,11,85,45,128,09,86,56,019,27,87,17,347,*52
$GNGLL,0419.78759,S,05539.66675,E,130317.00,A,D*6E
$GNRMC,130318.00,A,0419.78763,S,05539.66674,E,0.210,,200525,,,D*73
$GNVTG,,T,,M,0.210,N,0.389,K,D*39
$GNGGA,130318.00,0419.78763,S,05539.66674,E,2,12,0.72,8.6,M,-47.6,M,,0000*7A
$GNGSA,A,3,32,18,10,28,16,27,31,40,08,,,,1.42,0.72,1.22*10
$GNGSA,A,3,85,72,75,86,65,,,,,,,,1.42,0.72,1.22*18
$GPGSV,5,1,17,04,03,222,,08,19,308,38,10,13,017,28,16,24,224,14*71
$GPGSV,5,2,17,18,31,105,13,23,01,055,,26,28,193,,27,53,286,37*7B
$GPGSV,5,3,17,28,58,123,20,29,00,146,,31,48,173,23,32,41,004,23*7F
$GPGSV,5,4,17,36,52,277,36,40,84,353,36,41,58,082,,49,32,274,33*7C
$GPGSV,5,5,17,50,10,089,*4A
$GLGSV,3,1,11,65,29,264,23,66,02,224,10,71,05,012,15,72,32,331,30*6B
$GLGSV,3,2,11,74,13,118,08,75,18,169,10,76,01,221,,84,01,150,*69
$GLGSV,3,3,11,85,45,128,09,86,56,019,27,87,17,347,*52
$GNGLL,0419.78763,S,05539.66674,E,130318.00,A,D*69
$GNRMC,130319.00,A,0419.78754,S,05539.66671,E,0.089,,200525,,,D*71
$GNVTG,,T,,M,0.089,N,0.165,K,D*3B
$GNGGA,130319.00,0419.78754,S,05539.66671,E,2,12,0.72,8.7,M,-47.6,M,,0000*7B
$GNGSA,A,3,32,18,10,28,16,27,31,40,08,,,,1.42,0.72,1.22*10
$GNGSA,A,3,85,72,75,86,65,,,,,,,,1.42,0.72,1.22*18
$GPGSV,5,1,17,04,03,222,,08,19,308,38,10,13,017,28,16,24,224,11*74
$GPGSV,5,2,17,18,31,105,16,23,01,055,,26,28,193,,27,53,286,37*7E
$GPGSV,5,3,17,28,58,123,20,29,00,146,,31,48,173,22,32,41,004,23*7E
$GPGSV,5,4,17,36,52,277,36,40,84,353,37,41,58,082,,49,32,274,32*7C
$GPGSV,5,5,17,50,10,089,*4A
$GLGSV,3,1,11,65,29,264,22,66,02,224,10,71,05,012,15,72,32,331,30*6A
$GLGSV,3,2,11,74,13,118,10,75,18,169,09,76,01,221,,84,01,150,*68
$GLGSV,3,3,11,85,45,128,08,86,56,019,27,87,17,347,*53
$GNGLL,0419.78754,S,05539.66671,E,130319.00,A,D*69
$GNRMC,130320.00,A,0419.78749,S,05539.66670,E,0.059,,200525,,,D*7B
$GNVTG,,T,,M,0.059,N,0.110,K,D*34
$GNGGA,130320.00,0419.78749,S,05539.66670,E,2,12,0.79,8.9,M,-47.6,M,,0000*79
$GNGSA,A,3,32,18,10,28,16,27,31,40,08,,,,1.49,0.79,1.26*14
$GNGSA,A,3,85,72,75,86,65,,,,,,,,1.49,0.79,1.26*1C
$GPGSV,5,1,17,04,03,222,,08,19,308,38,10,13,017,27,16,24,224,11*7B
$GPGSV,5,2,17,18,31,105,14,23,01,055,,26,28,193,,27,53,286,37*7C
$GPGSV,5,3,17,28,58,123,20,29,00,146,,31,48,173,23,32,41,004,23*7F
$GPGSV,5,4,17,36,52,277,36,40,84,353,36,41,58,082,,49,32,274,32*7D
$GPGSV,5,5,17,50,10,089,*4A
$GLGSV,3,1,11,65,29,264,22,66,02,224,10,71,05,012,15,72,32,331,30*6A
$GLGSV,3,2,11,74,13,118,08,75,18,169,10,76,01,221,,84,01,150,*69
$GLGSV,3,3,11,85,45,128,11,86,56,019,27,87,17,347,*5B
$GNGLL,0419.78749,S,05539.66670,E,130320.00,A,D*6E
$GNRMC,130321.00,A,0419.78771,S,05539.66676,E,0.186,,200525,,,D*74
$GNVTG,,T,,M,0.186,N,0.345,K,D*35
$GNGGA,130321.00,0419.78771,S,05539.66676,E,2,12,0.78,8.5,M,-47.6,M,,0000*78
$GNGSA,A,3,32,18,10,28,16,27,31,40,08,,,,1.57,0.78,1.36*1B
$GNGSA,A,3,85,72,86,65,,,,,,,,,1.57,0.78,1.36*11
$GPGSV,5,1,17,04,03,222,,08,19,308,38,10,13,017,27,16,24,224,09*72
$GPGSV,5,2,17,18,31,105,10,23,01,055,,26,28,193,,27,53,286,37*78
$GPGSV,5,3,17,28,58,123,20,29,00,146,,31,48,173,23,32,41,004,22*7E
$GPGSV,5,4,17,36,52,277,36,40,84,353,37,41,58,082,,49,32,274,33*7D
$GPGSV,5,5,17,50,10,089,*4A
$GLGSV,3,1,11,65,29,264,23,66,02,224,10,71,05,012,17,72,32,331,30*69
$GLGSV,3,2,11,74,13,118,08,75,18,169,07,76,01,221,,84,01,150,*6F
$GLGSV,3,3,11,85,45,128,11,86,56,019,27,87,17,347,*5B
$GNGLL,0419.78771,S,05539.66676,E,130321.00,A,D*62
$GNRMC,130322.00,A,0419.78758,S,05539.66669,E,0.110,,200525,,,D*7D
$GNVTG,,T,,M,0.110,N,0.204,K,D*3E
$GNGGA,130322.00,0419.78758,S,05539.66669,E,2,12,0.72,8.7,M,-47.6,M,,0000*76
$GNGSA,A,3,32,18,10,28,16,27,31,40,08,,,,1.42,0.72,1.22*10
$GNGSA,A,3,85,72,75,86,65,,,,,,,,1.42,0.72,1.22*18
$GPGSV,5,1,17,04,03,222,,08,19,308,38,10,13,017,28,16,24,224,15*70
$GPGSV,5,2,17,18,31,105,16,23,01,055,,26,28,193,,27,53,286,37*7E
$GPGSV,5,3,17,28,58,123,20,29,00,146,,31,48,173,22,32,41,004,23*7E
$GPGSV,5,4,17,36,52,277,37,40,84,353,37,41,58,082,,49,32,274,33*7C
$GPGSV,5,5,17,50,10,089,*4A
$GLGSV,3,1,11,65,29,264,23,66,02,224,08,71,05,012,17,72,32,331,29*68
$GLGSV,3,2,11,74,13,118,10,75,18,169,11,76,01,221,,84,01,150,*61
$GLGSV,3,3,11,85,45,128,10,86,56,019,27,87,17,347,21*59
$GNGLL,0419.78758,S,05539.66669,E,130322.00,A,D*64
$GNRMC,130323.00,A,0419.78742,S,05539.66658,E,0.040,,200525,,,D*71
$GNVTG,,T,,M,0.040,N,0.073,K,D*38
$GNGGA,130323.00,0419.78742,S,05539.66658,E,2,12,0.72,9.1,M,-47.6,M,,0000*79
$GNGSA,A,3,32,18,10,28,16,27,31,40,08,,,,1.42,0.72,1.22*10
$GNGSA,A,3,85,72,75,86,65,,,,,,,,1.42,0.72,1.22*18
$GPGSV,5,1,17,04,03,222,,08,19,308,38,10,13,017,28,16,24,224,11*74
$GPGSV,5,2,17,18,31,105,11,23,01,055,,26,28,193,,27,53,286,38*76
$GPGSV,5,3,17,28,58,123,20,29,00,146,,31,48,173,22,32,41,004,24*79
$GPGSV,5,4,17,36,52,277,37,40,84,353,37,41,58,082,,49,32,274,34*7B
$GPGSV,5,5,17,50,10,089,*4A
$GLGSV,3,1,11,65,29,264,23,66,02,224,07,71,05,012,17,72,32,331,29*67
$GLGSV,3,2,11,74,13,118,09,75,18,169,11,76,01,221,,84,01,150,*69
$GLGSV,3,3,11,85,45,128,09,86,56,019,26,87,17,347,18*5A
$GNGLL,0419.78742,S,05539.66658,E,130323.00,A,D*6C
$GNRMC,130324.00,A,0419.78754,S,05539.66661,E,0.103,,200525,,,D*7D
$GNVTG,,T,,M,0.103,N,0.192,K,D*30
$GNGGA,130324.00,0419.78754,S,05539.66661,E,2,12,0.72,8.8,M,-47.6,M,,0000*7B
$GNGSA,A,3,32,18,10,28,16,27,31,40,08,,,,1.42,0.72,1.22*10
$GNGSA,A,3,85,72,75,86,65,,,,,,,,1.42,0.72,1.22*18
$GPGSV,5,1,17,04,03,222,,08,19,308,39,10,13,017,28,16,24,224,12*76
$GPGSV,5,2,17,18,31,105,10,23,01,055,,26,28,193,,27,53,286,38*77
$GPGSV,5,3,17,28,58,123,20,29,00,146,,31,48,173,24,32,41,004,25*7E
$GPGSV,5,4,17,36,52,277,37,40,84,353,37,41,58,082,,49,32,274,33*7C
$GPGSV,5,5,17,50,10,089,*4A
$GLGSV,3,1,11,65,29,264,23,66,02,224,12,71,05,012,18,72,32,331,29*6C
$GLGSV,3,2,11,74,13,118,09,75,18,169,10,76,01,221,,84,01,150,*68
$GLGSV,3,3,11,85,45,128,11,86,56,019,27,87,17,347,17*5D
$GNGLL,0419.78754,S,05539.66661,E,130324.00,A,D*66
$GNRMC,130325.00,A,0419.78778,S,05539.66667,E,0.141,,200525,,,D*72
$GNVTG,,T,,M,0.141,N,0.262,K,D*3A
$GNGGA,130325.00,0419.78778,S,05539.66667,E,2,12,0.72,8.5,M,-47.6,M,,0000*7F
$GNGSA,A,3,32,18,10,28,16,27,31,40,08,,,,1.42,0.72,1.22*10
$GNGSA,A,3,85,72,75,86,65,,,,,,,,1.42,0.72,1.22*18
$GPGSV,5,1,17,04,03,222,,08,19,308,38,10,13,017,28,16,24,224,11*74
$GPGSV,5,2,17,18,31,105,11,23,01,055,,26,28,193,,27,53,286,38*76
$GPGSV,5,3,17,28,58,123,20,29,00,146,,31,48,173,25,32,41,004,26*7C
$GPGSV,5,4,17,36,52,277,37,40,84,353,37,41,58,082,,49,32,274,33*7C
$GPGSV,5,5,17,50,10,089,*4A
$GLGSV,3,1,11,65,29,264,22,66,02,224,08,71,05,012,19,72,32,331,30*6F
$GLGSV,3,2,11,74,13,118,08,75,18,169,10,76,01,221,,84,01,150,*69
$GLGSV,3,3,11,85,45,128,12,86,56,019,27,87,17,347,17*5E
$GNGLL,0419.78778,S,05539.66667,E,130325.00,A,D*6F
$GNRMC,130326.00,A,0419.78773,S,05539.66661,E,0.029,,200525,,,D*73
$GNVTG,,T,,M,0.029,N,0.054,K,D*32
$GNGGA,130326.00,0419.78773,S,05539.66661,E,2,12,0.98,8.6,M,-47.6,M,,0000*76
$GNGSA,A,3,32,18,10,28,16,27,31,40,08,,,,1.80,0.98,1.51*1E
$GNGSA,A,3,85,72,75,86,65,87,,,,,,,1.80,0.98,1.51*19
$GPGSV,5,1,17,04,03,222,11,08,19,308,38,10,13,017,28,16,24,224,12*77
$GPGSV,5,2,17,18,31,105,12,23,01,055,,26,28,193,,27,53,286,38*75
$GPGSV,5,3,17,28,58,123,21,29,00,146,,31,48,173,24,32,41,004,27*7D
$GPGSV,5,4,17,36,52,277,36,40,84,353,37,41,58,082,,49,32,274,33*7D
$GPGSV,5,5,17,50,10,089,*4A
$GLGSV,3,1,11,65,29,264,22,66,02,224,11,71,05,012,19,72,32,331,30*67
$GLGSV,3,2,11,74,13,118,08,75,18,169,10,76,01,221,,84,01,150,*69
$GLGSV,3,3,11,85,45,128,11,86,56,019,28,87,17,347,16*53
$GNGLL,0419.78773,S,05539.66661,E,130326.00,A,D*61
$GNRMC,130327.00,A,0419.78770,S,05539.66656,E,0.118,,200525,,,D*76
$GNVTG,,T,,M,0.118,N,0.218,K,D*3B
$GNGGA,130327.00,0419.78770,S,05539.66656,E,2,12,0.72,8.6,M,-47.6,M,,0000*74
$GNGSA,A,3,32,18,10,28,16,27,31,40,08,,,,1.42,0.72,1.22*10
$GNGSA,A,3,85,72,75,86,65,87,,,,,,,1.42,0.72,1.22*17
$GPGSV,5,1,17,04,03,222,08,08,19,308,38,10,13,017,28,16,24,224,13*7E
$GPGSV,5,2,17,18,31,105,12,23,01,055,,26,28,193,15,27,53,286,38*71
$GPGSV,5,3,17,28,58,123,21,29,00,146,,31,48,173,24,32,41,004,26*7C
$GPGSV,5,4,17,36,52,277,36,40,84,353,37,41,58,082,,49,32,274,32*7C
$GPGSV,5,5,17,50,10,089,*4A
$GLGSV,3,1,11,65,29,264,22,66,02,224,08,71,05,012,20,72,32,331,30*65
$GLGSV,3,2,11,74,13,118,08,75,18,169,08,76,01,221,,84,01,150,*60
$GLGSV,3,3,11,85,45,128,11,86,56,019,28,87,17,347,15*50
$GNGLL,0419.78770,S,05539.66656,E,130327.00,A,D*67
$GNRMC,130328.00,A,0419.78772,S,05539.66654,E,0.096,,200525,,,D*7E
$GNVTG,,T,,M,0.096,N,0.177,K,D*36
$GNGGA,130328.00,0419.78772,S,05539.66654,E,2,12,0.72,8.5,M,-47.6,M,,0000*78
$GNGSA,A,3,32,18,10,28,16,27,31,40,08,,,,1.42,0.72,1.22*10
$GNGSA,A,3,85,72,75,86,65,87,,,,,,,1.42,0.72,1.22*17
$GPGSV,5,1,17,04,03,222,08,08,19,308,38,10,13,017,28,16,24,224,07*7B
$GPGSV,5,2,17,18,31,105,14,23,01,055,,26,28,193,,27,53,286,38*73
$GPGSV,5,3,17,28,58,123,21,29,00,146,,31,48,173,24,32,41,004,26*7C
$GPGSV,5,4,17,36,52,277,36,40,84,353,37,41,58,082,,49,32,274,33*7D
$GPGSV,5,5,17,50,10,089,*4A
$GLGSV,3,1,11,65,29,264,23,66,02,224,07,71,05,012,20,72,32,331,30*6B
$GLGSV,3,2,11,74,13,118,07,75,18,169,08,76,01,221,,84,01,150,*6F
$GLGSV,3,3,11,85,45,128,10,86,56,019,28,87,17,347,15*51
$GNGLL,0419.78772,S,05539.66654,E,130328.00,A,D*68
$GNRMC,130329.00,A,0419.78772,S,05539.66653,E,0.113,,200525,,,D*74
$GNVTG,,T,,M,0.113,N,0.209,K,D*30
$GNGGA,130329.00,0419.78772,S,05539.66653,E,2,12,0.86,8.5,M,-47.6,M,,0000*75
$GNGSA,A,3,32,18,10,28,16,27,31,40,08,,,,1.54,0.86,1.28*16
$GNGSA,A,3,85,72,75,86,65,87,,,,,,,1.54,0.86,1.28*11
$GPGSV,5,1,17,04,03,222,08,08,19,308,38,10,13,017,28,16,24,224,10*7D
$GPGSV,5,2,17,18,31,105,11,23,01,055,,26,28,193,,27,53,286,38*76
$GPGSV,5,3,17,28,58,123,21,29,00,146,,31,48,173,24,32,41,004,26*7C
$GPGSV,5,4,17,36,52,277,37,40,84,353,37,41,58,082,,49,32,274,33*7C
$GPGSV,5,5,17,50,10,089,*4A
$GLGSV,3,1,11,65,29,264,23,66,02,224,06,71,05,012,19,72,32,331,31*61
$GLGSV,3,2,11,74,13,118,07,75,18,169,11,76,01,221,,84,01,150,*67
$GLGSV,3,3,11,85,45,128,12,86,56,019,28,87,17,347,16*50
$GNGLL,0419.78772,S,05539.66653,E,130329.00,A,D*6E
$GNRMC,130330.00,A,0419.78771,S,05539.66649,E,0.095,,200525,,,D*7B
$GNVTG,,T,,M,0.095,N,0.176,K,D*34
$GNGGA,130330.00,0419.78771,S,05539.66649,E,2,12,0.72,8.5,M,-47.6,M,,0000*7E
$GNGSA,A,3,32,18,10,28,16,27,31,40,08,,,,1.42,0.72,1.22*10
$GNGSA,A,3,85,72,75,86,65,87,,,,,,,1.42,0.72,1.22*17
$GPGSV,5,1,17,04,03,222,10,08,19,308,38,10,13,017,28,16,24,224,13*77
$GPGSV,5,2,17,18,31,105,11,23,01,055,,26,28,193,,27,53,286,38*76
$GPGSV,5,3,17,28,58,123,21,29,00,146,,31,48,173,24,32,41,004,25*7F
$GPGSV,5,4,17,36,52,277,37,40,84,353,37,41,58,082,,49,32,274,33*7C
$GPGSV,5,5,17,50,10,089,*4A
$GLGSV,3,1,11,65,29,264,23,66,02,224,11,71,05,012,18,72,32,331,31*66
$GLGSV,3,2,11,74,13,118,10,75,18,169,10,76,01,221,,84,01,150,*60
$GLGSV,3,3,11,85,45,128,18,86,56,019,28,87,17,347,16*5A
$GNGLL,0419.78771,S,05539.66649,E,130330.00,A,D*6E
$GNRMC,130331.00,A,0419.78779,S,05539.66649,E,0.069,,200525,,,D*71
$GNVTG,,T,,M,0.069,N,0.129,K,D*3D
$GNGGA,130331.00,0419.78779,S,05539.66649,E,2,12,0.72,8.5,M,-47.6,M,,0000*77
$GNGSA,A,3,32,18,10,28,16,27,31,40,08,,,,1.42,0.72,1.22*10
$GNGSA,A,3,85,72,75,86,65,87,,,,,,,1.42,0.72,1.22*17
$GPGSV,5,1,17,04,03,222,,08,19,308,37,10,13,017,27,16,24,224,14*71
$GPGSV,5,2,17,18,31,105,10,23,01,055,,26,28,193,,27,53,286,37*78
$GPGSV,5,3,17,28,58,123,21,29,00,146,,31,48,173,24,32,41,004,24*7E
$GPGSV,5,4,17,36,52,277,36,40,84,353,35,41,58,082,,49,32,274,32*7E
$GPGSV,5,5,17,50,10,089,*4A
$GLGSV,3,1,11,65,29,264,22,66,02,224,09,71,05,012,18,72,32,331,30*6F
$GLGSV,3,2,11,74,13,118,06,75,18,169,11,76,01,221,,84,01,150,*66
$GLGSV,3,3,11,85,45,128,09,86,56,019,28,87,17,347,16*5A
$GNGLL,0419.78779,S,05539.66649,E,130331.00,A,D*67
$GNRMC,130332.00,A,0419.78776,S,05539.66642,E,0.066,,200525,,,D*79
$GNVTG,,T,,M,0.066,N,0.123,K,D*38
$GNGGA,130332.00,0419.78776,S,05539.66642,E,2,12,0.79,8.6,M,-47.6,M,,0000*78
$GNGSA,A,3,32,18,10,28,16,27,31,40,08,,,,1.49,0.79,1.26*14
$GNGSA,A,3,85,72,75,86,65,87,,,,,,,1.49,0.79,1.26*13
$GPGSV,5,1,17,04,03,222,,08,19,308,37,10,13,017,27,16,24,224,12*77
$GPGSV,5,2,17,18,31,105,11,23,01,055,,26,28,193,,27,53,286,37*79
$GPGSV,5,3,17,28,58,123,20,29,00,146,,31,48,173,23,32,41,004,22*7E
$GPGSV,5,4,17,36,52,277,35,40,84,353,35,41,58,082,,49,32,274,32*7D
$GPGSV,5,5,17,50,10,089,*4A
$GLGSV,3,1,11,65,29,264,22,66,02,224,10,71,05,012,17,72,32,331,31*69
$GLGSV,3,2,11,74,13,118,09,75,18,169,13,76,01,221,,84,01,150,*6B
$GLGSV,3,3,11,85,45,128,12,86,56,019,28,87,17,347,15*53
$GNGLL,0419.78776,S,05539.66642,E,130332.00,A,D*60
$GNRMC,130333.00,A,0419.78783,S,05539.66641,E,0.057,,200525,,,D*73
$GNVTG,,T,,M,0.057,N,0.106,K,D*3D
$GNGGA,130333.00,0419.78783,S,05539.66641,E,2,12,0.72,8.6,M,-47.6,M,,0000*7B
$GNGSA,A,3,32,18,10,28,16,27,31,40,08,,,,1.42,0.72,1.22*10
$GNGSA,A,3,85,72,75,86,65,87,,,,,,,1.42,0.72,1.22*17
$GPGSV,5,1,17,04,03,222,,08,19,308,37,10,13,017,26,16,24,224,12*76
$GPGSV,5,2,17,18,31,105,10,23,01,055,,26,28,193,,27,53,286,37*78
$GPGSV,5,3,17,28,58,123,20,29,00,146,,31,48,173,21,32,41,004,21*7F
$GPGSV,5,4,17,36,52,277,35,40,84,353,36,41,58,082,,49,32,274,32*7E
$GPGSV,5,5,17,50,10,089,*4A
$GLGSV,3,1,11,65,29,264,22,66,02,224,09,71,05,012,17,72,32,331,31*61
$GLGSV,3,2,11,74,13,118,05,75,18,169,10,76,01,221,,84,01,150,*64
$GLGSV,3,3,11,85,45,128,14,86,56,019,28,87,17,347,11*51
$GNGLL,0419.78783,S,05539.66641,E,130333.00,A,D*68
$GNRMC,130334.00,A,0419.78799,S,05539.66644,E,0.091,,200525,,,D*70
$GNVTG,,T,,M,0.091,N,0.168,K,D*3F
$GNGGA,130334.00,0419.78799,S,05539.66644,E,2,12,0.72,8.3,M,-47.6,M,,0000*77
$GNGSA,A,3,32,18,10,28,16,27,31,40,08,,,,1.42,0.72,1.22*10
$GNGSA,A,3,85,72,75,86,65,,,,,,,,1.42,0.72,1.22*18
$GPGSV,5,1,17,04,03,222,,08,19,308,38,10,13,017,26,16,24,224,13*78
$GPGSV,5,2,17,18,31,105,09,23,01,055,,26,28,193,,27,53,286,37*70
$GPGSV,5,3,17,28,58,123,20,29,00,146,,31,48,173,22,32,41,004,20*7D
$GPGSV,5,4,17,36,52,277,36,40,84,353,36,41,58,082,,49,32,274,32*7D
$GPGSV,5,5,17,50,10,089,*4A
$GLGSV,3,1,11,65,29,264,22,66,02,224,07,71,05,012,16,72,32,331,31*6E
$GLGSV,3,2,11,74,13,118,09,75,18,169,11,76,01,221,,84,01,150,*69
$GLGSV,3,3,11,85,45,128,09,86,56,019,28,87,17,347,09*54
$GNGLL,0419.78799,S,05539.66644,E,130334.00,A,D*61
$GNRMC,130335.00,A,0419.78835,S,05539.66655,E,0.269,,200525,,,D*7D
$GNVTG,,T,,M,0.269,N,0.499,K,D*31
$GNGGA,130335.00,0419.78835,S,05539.66655,E,2,12,0.86,7.8,M,-47.6,M,,0000*70
$GNGSA,A,3,32,18,10,28,27,31,40,08,,,,,1.54,0.86,1.28*11
$GNGSA,A,3,85,72,75,86,65,,,,,,,,1.54,0.86,1.28*1E
$GPGSV,5,1,17,04,03,222,,08,19,308,38,10,13,017,27,16,24,224,07*7C
$GPGSV,5,2,17,18,31,105,10,23,01,055,,26,28,193,,27,53,286,37*78
$GPGSV,5,3,17,28,58,123,21,29,00,146,,31,48,173,23,32,41,004,22*7F
$GPGSV,5,4,17,36,52,277,36,40,84,353,36,41,58,082,,49,32,274,31*7E
$GPGSV,5,5,17,50,10,089,*4A
$GLGSV,3,1,11,65,29,264,23,66,02,224,11,71,04,013,16,72,32,331,31*68
$GLGSV,3,2,11,74,13,118,08,75,18,169,11,76,01,221,,84,01,150,*68
$GLGSV,3,3,11,85,45,128,12,86,56,019,28,87,17,347,09*5E
$GNGLL,0419.78835,S,05539.66655,E,130335.00,A,D*69
$GNRMC,130336.00,A,0419.78846,S,05539.66656,E,0.188,,200525,,,D*75
$GNVTG,,T,,M,0.188,N,0.347,K,D*39
$GNGGA,130336.00,0419.78846,S,05539.66656,E,2,12,0.72,7.7,M,-47.6,M,,0000*70
$GNGSA,A,3,32,18,10,28,16,27,31,40,08,,,,1.42,0.72,1.22*10
$GNGSA,A,3,85,72,75,86,65,,,,,,,,1.42,0.72,1.22*18
$GPGSV,5,1,17,04,03,222,,08,19,308,38,10,13,017,27,16,24,224,13*79
$GPGSV,5,2,17,18,31,105,08,23,01,055,,26,28,193,,27,53,286,37*71
$GPGSV,5,3,17,28,58,123,20,29,00,146,,31,48,173,23,32,41,004,23*7F
$GPGSV,5,4,17,36,52,277,36,40,84,353,36,41,58,082,,49,32,274,32*7D
$GPGSV,5,5,17,50,10,089,*4A
$GLGSV,3,1,11,65,29,264,23,66,02,224,10,71,04,013,14,72,32,331,31*6B
$GLGSV,3,2,11,74,13,118,09,75,18,169,08,76,01,221,,84,01,150,*61
$GLGSV,3,3,11,85,45,128,11,86,56,019,27,87,17,347,08*53
$GNGLL,0419.78846,S,05539.66656,E,130336.00,A,D*6D
$GNRMC,130337.00,A,0419.78848,S,05539.66655,E,0.169,,200525,,,D*76
$GNVTG,,T,,M,0.169,N,0.312,K,D*36
$GNGGA,130337.00,0419.78848,S,05539.66655,E,2,12,0.72,7.7,M,-47.6,M,,0000*7C
$GNGSA,A,3,32,18,10,28,16,27,31,40,08,,,,1.42,0.72,1.22*10
$GNGSA,A,3,85,72,75,86,65,87,,,,,,,1.42,0.72,1.22*17
$GPGSV,5,1,17,04,03,222,,08,19,308,38,10,13,017,28,16,24,224,13*76
$GPGSV,5,2,17,18,31,105,11,23,01,055,,26,28,193,,27,53,286,37*79
$GPGSV,5,3,17,28,58,123,18,29,00,146,,31,48,173,24,32,41,004,23*73
$GPGSV,5,4,17,36,52,277,36,40,84,353,36,41,58,082,,49,32,274,32*7D
$GPGSV,5,5,17,50,10,089,*4A
$GLGSV,3,1,11,65,29,264,22,66,02,224,09,71,04,013,13,72,32,331,31*65
$GLGSV,3,2,11,74,13,118,07,75,18,169,08,76,01,221,,84,01,150,*6F
$GLGSV,3,3,11,85,45,128,09,86,56,019,26,87,17,347,15*57
$GNGLL,0419.78848,S,05539.66655,E,130337.00,A,D*61
$GNRMC,130338.00,A,0419.78847,S,05539.66653,E,0.220,,200525,,,D*7E
$GNVTG,,T,,M,0.220,N,0.407,K,D*3B
$GNGGA,130338.00,0419.78847,S,05539.66653,E,2,12,0.79,7.8,M,-47.6,M,,0000*7E
$GNGSA,A,3,32,18,10,28,16,27,31,40,08,,,,1.49,0.79,1.26*14
$GNGSA,A,3,85,72,75,86,65,87,,,,,,,1.49,0.79,1.26*13
$GPGSV,5,1,17,04,03,222,,08,19,308,38,10,13,017,27,16,24,224,10*7A
$GPGSV,5,2,17,18,31,105,12,23,01,055,,26,28,193,,27,53,286,37*7A
$GPGSV,5,3,17,28,58,123,16,29,00,146,,31,48,173,24,32,41,004,24*7A
$GPGSV,5,4,17,36,52,277,35,40,84,353,36,41,58,082,,49,32,274,32*7E
$GPGSV,5,5,17,50,10,089,*4A
$GLGSV,3,1,11,65,29,264,22,66,02,224,09,71,04,013,15,72,32,331,30*62
$GLGSV,3,2,11,74,13,118,07,75,18,169,11,76,01,221,,84,01,150,*67
$GLGSV,3,3,11,85,45,128,13,86,56,019,27,87,17,347,11*59
$GNGLL,0419.78847,S,05539.66653,E,130338.00,A,D*67
$GNRMC,130339.00,A,0419.78843,S,05539.66651,E,0.026,,200525,,,D*7D
$GNVTG,,T,,M,0.026,N,0.049,K,D*31
$GNGGA,130339.00,0419.78843,S,05539.66651,E,2,12,0.70,7.9,M,-47.6,M,,0000*71
$GNGSA,A,3,32,18,10,28,16,27,31,40,08,,,,1.36,0.70,1.17*17
$GNGSA,A,3,85,72,75,86,65,87,,,,,,,1.36,0.70,1.17*10
$GPGSV,5,1,17,04,03,222,,08,19,308,38,10,13,017,27,16,24,224,08*73
$GPGSV,5,2,17,18,31,105,10,23,01,055,,26,28,193,,27,53,286,37*78
$GPGSV,5,3,17,28,58,123,17,29,00,146,,31,48,173,24,32,41,004,26*79
$GPGSV,5,4,17,36,52,277,36,40,84,353,36,41,58,082,,49,32,274,32*7D
$GPGSV,5,5,17,50,10,089,*4A
$GLGSV,3,1,11,65,29,264,23,66,02,224,09,71,04,013,15,72,32,331,30*63
$GLGSV,3,2,11,74,13,118,07,75,18,168,12,76,01,221,,84,01,150,*65
$GLGSV,3,3,11,85,45,128,11,86,56,019,27,87,17,347,10*5A
$GNGLL,0419.78843,S,05539.66651,E,130339.00,A,D*60
$GNRMC,130340.00,A,0419.78842,S,05539.66652,E,0.072,,200525,,,D*70
$GNVTG,,T,,M,0.072,N,0.133,K,D*3C
$GNGGA,130340.00,0419.78842,S,05539.66652,E,2,12,0.70,7.9,M,-47.6,M,,0000*7D
$GNGSA,A,3,32,18,10,28,16,27,31,40,08,,,,1.36,0.70,1.17*17
$GNGSA,A,3,85,72,75,86,65,87,,,,,,,1.36,0.70,1.17*10
$GPGSV,5,1,17,04,03,222,,08,19,308,38,10,13,017,27,16,24,224,09*72
$GPGSV,5,2,17,18,31,105,12,23,01,055,,26,28,193,,27,53,286,37*7A
$GPGSV,5,3,17,28,58,123,18,29,00,146,,31,48,173,25,32,41,004,26*77
$GPGSV,5,4,17,36,52,277,36,40,84,353,36,41,58,082,,49,32,274,32*7D
$GPGSV,5,5,17,50,10,089,*4A
$GLGSV,3,1,11,65,29,264,23,66,02,224,09,71,04,013,17,72,32,331,30*61
$GLGSV,3,2,11,74,13,118,09,75,18,168,11,76,01,221,,84,01,150,*68
$GLGSV,3,3,11,85,45,128,11,86,56,019,28,87,17,347,09*5D
$GNGLL,0419.78842,S,05539.66652,E,130340.00,A,D*6C
$GNRMC,130341.00,A,0419.78855,S,05539.66660,E,0.011,,200525,,,D*73
$GNVTG,,T,,M,0.011,N,0.020,K,D*3A
$GNGGA,130341.00,0419.78855,S,05539.66660,E,2,12,0.96,7.7,M,-47.6,M,,0000*7D
$GNGSA,A,3,32,18,10,28,16,27,31,40,08,,,,1.83,0.96,1.56*14
$GNGSA,A,3,85,72,75,86,65,87,,,,,,,1.83,0.96,1.56*13
$GPGSV,5,1,17,04,03,222,,08,19,308,38,10,13,017,27,16,24,224,13*79
$GPGSV,5,2,17,18,31,105,10,23,01,055,,26,28,193,,27,53,286,37*78
$GPGSV,5,3,17,28,58,123,18,29,00,146,,31,48,173,25,32,41,004,26*77
$GPGSV,5,4,17,36,52,277,36,40,84,353,37,41,58,082,,49,32,274,32*7C
$GPGSV,5,5,17,50,10,089,*4A
$GLGSV,3,1,11,65,29,264,23,66,02,224,11,71,04,013,17,72,32,331,30*68
$GLGSV,3,2,11,74,13,118,08,75,18,168,09,76,01,221,,84,01,150,*60
$GLGSV,3,3,11,85,45,128,10,86,56,019,28,87,17,347,14*50
$GNGLL,0419.78855,S,05539.66660,E,130341.00,A,D*6A
$GNRMC,130342.00,A,0419.78855,S,05539.66664,E,0.127,,200525,,,D*70
$GNVTG,,T,,M,0.127,N,0.236,K,D*3B
$GNGGA,130342.00,0419.78855,S,05539.66664,E,2,12,0.70,7.7,M,-47.6,M,,0000*72
$GNGSA,A,3,32,18,10,28,16,27,31,40,08,,,,1.36,0.70,1.17*17
$GNGSA,A,3,85,72,75,86,65,87,,,,,,,1.36,0.70,1.17*10
$GPGSV,5,1,17,04,03,222,,08,19,308,38,10,13,017,27,16,24,224,09*72
$GPGSV,5,2,17,18,31,105,11,23,01,055,,26,28,193,,27,53,286,37*79
$GPGSV,5,3,17,28,58,123,19,29,00,146,,31,48,173,25,32,41,004,28*78
$GPGSV,5,4,17,36,52,277,35,40,84,353,37,41,58,082,,49,32,274,32*7F
$GPGSV,5,5,17,50,10,089,*4A
$GLGSV,3,1,11,65,29,264,23,66,02,224,07,71,04,013,15,72,32,331,29*65
$GLGSV,3,2,11,74,13,118,10,75,18,168,10,76,01,221,,84,01,150,*61
$GLGSV,3,3,11,85,45,128,11,86,56,019,28,87,17,347,16*53
$GNGLL,0419.78855,S,05539.66664,E,130342.00,A,D*6D
$GNRMC,130343.00,A,0419.78853,S,05539.66666,E,0.148,,200525,,,D*7C
$GNVTG,,T,,M,0.148,N,0.275,K,D*35
$GNGGA,130343.00,0419.78853,S,05539.66666,E,2,12,0.70,7.7,M,-47.6,M,,0000*77
$GNGSA,A,3,32,18,10,28,16,27,31,40,08,,,,1.36,0.70,1.17*17
$GNGSA,A,3,85,72,75,86,65,87,,,,,,,1.36,0.70,1.17*10
$GPGSV,5,1,17,04,03,222,,08,19,308,38,10,13,017,27,16,24,224,10*7A
$GPGSV,5,2,17,18,31,105,10,23,01,055,,26,28,193,,27,53,286,37*78
$GPGSV,5,3,17,28,58,123,19,29,00,146,,31,48,173,25,32,41,004,28*78
$GPGSV,5,4,17,36,52,277,35,40,84,353,37,41,58,082,,49,32,274,32*7F
$GPGSV,5,5,17,50,10,089,*4A
$GLGSV,3,1,11,65,29,264,22,66,02,224,08,71,04,013,13,72,32,331,28*6C
$GLGSV,3,2,11,74,13,118,07,75,18,168,10,76,01,221,,84,01,150,*67
$GLGSV,3,3,11,85,45,128,15,86,56,019,29,87,17,347,11*51
$GNGLL,0419.78853,S,05539.66666,E,130343.00,A,D*68
$GNRMC,130344.00,A,0419.78850,S,05539.66667,E,0.051,,200525,,,D*70
$GNVTG,,T,,M,0.051,N,0.094,K,D*31
$GNGGA,130344.00,0419.78850,S,05539.66667,E,2,12,0.91,7.8,M,-47.6,M,,0000*72
$GNGSA,A,3,32,18,10,28,16,27,31,40,08,,,,1.71,0.91,1.44*1D
$GNGSA,A,3,85,72,75,86,65,87,,,,,,,1.71,0.91,1.44*1A
$GPGSV,5,1,17,04,03,222,,08,19,308,38,10,13,017,27,16,24,224,11*7B
$GPGSV,5,2,17,18,31,105,13,23,01,055,,26,28,193,,27,53,286,37*7B
$GPGSV,5,3,17,28,58,123,18,29,00,146,,31,48,173,25,32,41,004,28*79
$GPGSV,5,4,17,36,52,277,35,40,84,353,37,41,58,082,,49,32,274,32*7F
$GPGSV,5,5,17,50,10,089,*4A
$GLGSV,3,1,11,65,29,264,23,66,02,224,08,71,04,013,14,72,32,331,28*6A
$GLGSV,3,2,11,74,13,118,07,75,18,168,10,76,01,221,,84,01,150,*67
$GLGSV,3,3,11,85,45,128,11,86,56,019,29,87,17,347,18*5C
$GNGLL,0419.78850,S,05539.66667,E,130344.00,A,D*6D
$GNRMC,130345.00,A,0419.78841,S,05539.66665,E,0.039,,200525,,,D*7D
$GNVTG,,T,,M,0.039,N,0.073,K,D*36
$GNGGA,130345.00,0419.78841,S,05539.66665,E,2,12,0.70,7.9,M,-47.6,M,,0000*7F
$GNGSA,A,3,32,18,10,28,16,27,31,40,08,,,,1.36,0.70,1.17*17
$GNGSA,A,3,85,72,75,86,65,87,,,,,,,1.36,0.70,1.17*10
$GPGSV,5,1,17,04,03,222,,08,19,308,38,10,13,017,27,16,24,224,12*78
$GPGSV,5,2,17,18,31,105,11,23,01,055,,26,28,193,,27,53,286,37*79
$GPGSV,5,3,17,28,58,123,17,29,00,146,,31,48,173,26,32,41,004,28*75
$GPGSV,5,4,17,36,52,277,35,40,84,353,37,41,58,082,,49,32,274,32*7F
$GPGSV,5,5,17,50,10,089,*4A
$GLGSV,3,1,11,65,29,264,23,66,02,224,09,71,04,013,12,72,32,331,28*6D
$GLGSV,3,2,11,74,13,118,07,75,18,168,08,76,01,221,,84,01,150,*6E
$GLGSV,3,3,11,85,45,128,12,86,56,019,29,87,17,347,20*54
$GNGLL,0419.78841,S,05539.66665,E,130345.00,A,D*6E
$GNRMC,130346.00,A,0419.78836,S,05539.66666,E,0.057,,200525,,,D*75
$GNVTG,,T,,M,0.057,N,0.106,K,D*3D
$GNGGA,130346.00,0419.78836,S,05539.66666,E,2,12,0.70,7.9,M,-47.6,M,,0000*7F
$GNGSA,A,3,32,18,10,28,16,27,31,40,08,,,,1.36,0.70,1.17*17
$GNGSA,A,3,85,72,75,86,65,87,,,,,,,1.36,0.70,1.17*10
$GPGSV,5,1,17,04,03,222,,08,19,308,38,10,13,017,26,16,24,224,08*72
$GPGSV,5,2,17,18,31,105,10,23,01,055,,26,28,193,,27,53,286,37*78
$GPGSV,5,3,17,28,58,123,17,29,00,146,,31,48,173,26,32,41,004,27*7A
$GPGSV,5,4,17,36,52,277,35,40,84,353,37,41,58,082,,49,32,274,32*7F
$GPGSV,5,5,17,50,10,089,*4A
$GLGSV,3,1,11,65,29,264,22,66,02,224,08,71,04,013,11,72,32,331,28*6E
$GLGSV,3,2,11,74,13,118,08,75,18,168,10,76,01,221,,84,01,150,*68
$GLGSV,3,3,11,85,45,128,10,86,56,019,29,87,17,347,19*5C
$GNGLL,0419.78836,S,05539.66666,E,130346.00,A,D*6E
$GNRMC,130347.00,A,0419.78834,S,05539.66667,E,0.142,,200525,,,D*72
$GNVTG,,T,,M,0.142,N,0.263,K,D*38
$GNGGA,130347.00,0419.78834,S,05539.66667,E,2,12,0.86,7.9,M,-47.6,M,,0000*74
$GNGSA,A,3,32,18,10,28,16,27,31,40,08,,,,1.66,0.86,1.41*18
$GNGSA,A,3,85,72,75,86,65,87,,,,,,,1.66,0.86,1.41*1F
$GPGSV,5,1,17,04,03,222,,08,19,308,38,10,13,017,26,16,24,224,12*79
$GPGSV,5,2,17,18,31,105,09,23,01,055,,26,28,193,,27,53,286,37*70
$GPGSV,5,3,17,28,58,123,18,29,00,146,,31,48,173,25,32,41,004,27*76
$GPGSV,5,4,17,36,52,277,35,40,84,353,37,41,58,082,,49,32,274,32*7F
$GPGSV,5,5,17,50,10,089,*4A
$GLGSV,3,1,11,65,29,264,22,66,02,224,10,71,04,013,09,72,32,331,28*6E
$GLGSV,3,2,11,74,13,118,10,75,18,168,11,76,01,221,,84,01,150,*60
$GLGSV,3,3,11,85,45,128,15,86,56,019,29,87,17,347,19*59
$GNGLL,0419.78834,S,05539.66667,E,130347.00,A,D*6C
$GNRMC,130348.00,A,0419.78829,S,05539.66668,E,0.152,,200525,,,D*7F
$GNVTG,,T,,M,0.152,N,0.281,K,D*35
$GNGGA,130348.00,0419.78829,S,05539.66668,E,2,12,0.70,8.0,M,-47.6,M,,0000*77
$GNGSA,A,3,32,18,10,28,16,27,31,40,08,,,,1.36,0.70,1.17*17
$GNGSA,A,3,85,72,75,86,65,87,,,,,,,1.36,0.70,1.17*10
$GPGSV,5,1,17,04,03,222,,08,19,308,38,10,13,017,26,16,24,224,10*7B
$GPGSV,5,2,17,18,31,105,14,23,01,055,,26,28,193,,27,53,286,37*7C
$GPGSV,5,3,17,28,58,123,17,29,00,146,,31,48,173,25,32,41,004,27*79
$GPGSV,5,4,17,36,52,277,35,40,84,353,37,41,58,082,,49,32,274,32*7F
$GPGSV,5,5,17,50,10,089,*4A
$GLGSV,3,1,11,65,29,264,22,66,02,224,11,71,04,013,14,72,32,331,28*63
$GLGSV,3,2,11,74,13,118,08,75,18,168,10,76,01,221,,84,00,151,*68
$GLGSV,3,3,11,85,45,128,17,86,56,019,29,87,17,347,20*51
$GNGLL,0419.78829,S,05539.66668,E,130348.00,A,D*60
$GNRMC,130349.00,A,0419.78826,S,05539.66671,E,0.148,,200525,,,D*72
$GNVTG,,T,,M,0.148,N,0.274,K,D*34
$GNGGA,130349.00,0419.78826,S,05539.66671,E,2,12,0.70,8.0,M,-47.6,M,,0000*71
$GNGSA,A,3,32,18,10,28,16,27,31,40,08,,,,1.36,0.70,1.17*17
$GNGSA,A,3,85,72,75,86,65,87,,,,,,,1.36,0.70,1.17*10
$GPGSV,5,1,17,04,03,222,,08,19,308,38,10,13,017,26,16,24,224,10*7B
$GPGSV,5,2,17,18,31,105,14,23,01,055,,26,28,193,16,27,53,286,37*7B
$GPGSV,5,3,17,28,58,123,17,29,00,146,,31,48,173,25,32,41,004,27*79
$GPGSV,5,4,17,36,52,277,35,40,84,353,37,41,58,082,,49,32,274,32*7F
$GPGSV,5,5,17,50,10,089,*4A
$GLGSV,3,1,11,65,29,264,22,66,02,224,12,71,04,013,11,72,32,331,29*64
$GLGSV,3,2,11,74,13,118,09,75,18,168,10,76,01,221,,84,00,151,*69
$GLGSV,3,3,11,85,45,129,12,86,56,019,29,87,17,347,20*55
$GNGLL,0419.78826,S,05539.66671,E,130349.00,A,D*66
$GNRMC,130350.00,A,0419.78820,S,05539.66673,E,0.059,,200525,,,D*7F
$GNVTG,,T,,M,0.059,N,0.110,K,D*34
$GNGGA,130350.00,0419.78820,S,05539.66673,E,2,12,0.87,8.0,M,-47.6,M,,0000*75
$GNGSA,A,3,32,18,10,28,16,27,31,40,08,,,,1.68,0.87,1.43*15
$GNGSA,A,3,85,72,75,86,65,87,,,,,,,1.68,0.87,1.43*12
$GPGSV,5,1,17,04,03,222,,08,19,308,38,10,13,017,26,16,24,224,10*7B
$GPGSV,5,2,17,18,31,105,13,23,01,055,,26,28,193,15,27,53,286,37*7F
$GPGSV,5,3,17,28,58,123,17,29,00,146,,31,48,173,25,32,41,004,27*79
$GPGSV,5,4,17,36,52,277,35,40,84,353,37,41,58,082,,49,32,274,32*7F
$GPGSV,5,5,17,50,10,089,*4A
$GLGSV,3,1,11,65,29,264,22,66,02,224,10,71,04,013,12,72,32,331,28*64
$GLGSV,3,2,11,74,13,118,11,75,18,168,08,76,01,221,,84,00,151,*69
$GLGSV,3,3,11,85,45,129,11,86,57,019,29,87,17,347,20*57
$GNGLL,0419.78820,S,05539.66673,E,130350.00,A,D*6A
$GNRMC,130351.00,A,0419.78818,S,05539.66675,E,0.004,,200525,,,D*7B
$GNVTG,,T,,M,0.004,N,0.008,K,D*34
$GNGGA,130351.00,0419.78818,S,05539.66675,E,2,12,0.70,8.0,M,-47.6,M,,0000*71
$GNGSA,A,3,32,18,10,28,16,27,31,40,08,,,,1.36,0.70,1.17*17
$GNGSA,A,3,85,72,75,86,65,87,,,,,,,1.36,0.70,1.17*10
$GPGSV,5,1,17,04,03,222,,08,19,308,38,10,13,017,26,16,24,224,09*73
$GPGSV,5,2,17,18,31,105,10,23,01,055,,26,28,193,14,27,53,286,37*7D
$GPGSV,5,3,17,28,58,123,17,29,00,146,,31,48,173,25,32,41,004,27*79
$GPGSV,5,4,17,36,52,277,35,40,84,353,37,41,58,082,,49,32,274,32*7F
$GPGSV,5,5,17,50,10,089,*4A
$GLGSV,3,1,11,65,29,264,22,66,02,224,07,71,04,013,18,72,32,331,29*69
$GLGSV,3,2,11,74,13,118,09,75,18,168,07,76,01,221,,84,00,151,*6F
$GLGSV,3,3,11,85,45,129,14,86,57,019,29,87,18,347,20*5D
$GNGLL,0419.78818,S,05539.66675,E,130351.00,A,D*66
$GNRMC,130352.00,A,0419.78809,S,05539.66676,E,0.122,,200525,,,D*7E
$GNVTG,,T,,M,0.122,N,0.225,K,D*3C
$GNGGA,130352.00,0419.78809,S,05539.66676,E,2,12,0.70,8.1,M,-47.6,M,,0000*70
$GNGSA,A,3,32,18,10,28,16,27,31,40,08,,,,1.36,0.70,1.17*17
$GNGSA,A,3,85,72,75,86,65,87,,,,,,,1.36,0.70,1.17*10
$GPGSV,5,1,17,04,03,222,,08,19,308,38,10,13,017,26,16,24,224,12*79
$GPGSV,5,2,17,18,31,105,13,23,01,055,,26,28,193,13,27,53,286,37*79
$GPGSV,5,3,17,28,58,123,17,29,00,146,,31,48,173,25,32,41,004,26*78
$GPGSV,5,4,17,36,52,277,35,40,84,353,37,41,58,082,,49,32,274,32*7F
$GPGSV,5,5,17,50,10,089,*4A
$GLGSV,3,1,11,65,29,264,22,66,02,224,06,71,04,013,12,72,32,331,29*62
$GLGSV,3,2,11,74,13,118,09,75,18,168,15,76,01,221,,84,00,151,*6C
$GLGSV,3,3,11,85,45,129,12,86,57,019,29,87,18,347,20*5B
$GNGLL,0419.78809,S,05539.66676,E,130352.00,A,D*66
$GNRMC,130353.00,A,0419.78809,S,05539.66680,E,0.033,,200525,,,D*77
$GNVTG,,T,,M,0.033,N,0.061,K,D*3F
$GNGGA,130353.00,0419.78809,S,05539.66680,E,2,12,0.87,8.0,M,-47.6,M,,0000*71
$GNGSA,A,3,32,18,10,28,16,27,31,40,08,,,,1.68,0.87,1.43*15
$GNGSA,A,3,85,72,75,86,65,87,,,,,,,1.68,0.87,1.43*12
$GPGSV,5,1,17,04,03,222,,08,19,308,38,10,13,017,26,16,24,224,10*7B
$GPGSV,5,2,17,18,31,105,15,23,01,055,,26,28,193,13,27,53,286,37*7F
$GPGSV,5,3,17,28,58,123,16,29,00,146,,31,48,173,25,32,41,004,26*79
$GPGSV,5,4,17,36,52,277,35,40,84,353,37,41,58,082,,49,32,274,32*7F
$GPGSV,5,5,17,50,10,089,*4A
$GLGSV,3,1,11,65,29,264,22,66,02,224,10,71,04,013,08,72,32,331,29*6E
$GLGSV,3,2,11,74,13,118,07,75,18,168,12,76,01,221,,84,00,151,*65
$GLGSV,3,3,11,85,45,129,10,86,57,019,29,87,18,347,21*58
$GNGLL,0419.78809,S,05539.66680,E,130353.00,A,D*6E
$GNRMC,130354.00,A,0419.78809,S,05539.66682,E,0.029,,200525,,,D*79
$GNVTG,,T,,M,0.029,N,0.054,K,D*32
$GNGGA,130354.00,0419.78809,S,05539.66682,E,2,12,0.68,8.0,M,-47.6,M,,0000*75
$GNGSA,A,3,32,18,10,28,26,16,27,31,40,08,,,1.34,0.68,1.16*19
$GNGSA,A,3,85,72,75,86,65,87,,,,,,,1.34,0.68,1.16*1A
$GPGSV,5,1,17,04,03,222,,08,19,308,38,10,13,017,26,16,24,224,10*7B
$GPGSV,5,2,17,18,31,105,13,23,01,055,,26,28,193,12,27,53,286,37*78
