$GNTXT,01,01,01,More than 100 frame errors, UART RX was disabled*70
b0XDn3#a
w
3Xf&?I{4V^:R
 
Y_EFI
-JWO
P5i
S
T,BU"c<bDnO>6$GNRMC,043404.00,A,0419.77987,S,05539.85032,E,0.284,,210525,,,A*77
$GNVTG,,T,,M,0.284,N,0.525,K,A*31
$GNGNS,043404.00,0419.77987,S,05539.85032,E,AA,12,0.78,37.8,-47.6,,*66
$GNGGA,043404.00,0419.77987,S,05539.85032,E,1,12,0.78,37.8,M,-47.6,M,,*4C
$GNGSA,A,3,24,20,11,05,13,15,22,12,14,,,,1.59,0.78,1.39*14
$GNGSA,A,3,80,73,85,,,,,,,,,,1.59,0.78,1.39*14
$GPGSV,5,1,18,05,51,151,18,06,03,028,,11,35,019,13,12,22,353,18*75
$GPGSV,5,2,18,13,24,167,11,14,08,119,10,15,27,204,21,18,14,223,*7D
$GPGSV,5,3,18,20,51,088,27,22,20,102,11,24,63,273,18,25,01,329,*76
$GPGSV,5,4,18,29,11,287,,36,52,277,,40,86,350,,41,58,082,*79
$GPGSV,5,5,18,49,32,274,,50,10,089,*78
$GLGSV,3,1,09,69,11,135,,70,13,197,,73,45,006,10,74,06,343,*6F
$GLGSV,3,2,09,79,10,143,,80,53,105,23,83,10,011,,84,44,322,*6A
$GLGSV,3,3,09,85,34,252,18*5A
$GNGLL,0419.77987,S,05539.85032,E,043404.00,A,A*61
$GNGRS,043404.00,1,-3.6,2.2,9.2,-2.6,11.7,-5.1,13.2,4.1,25.7,,,*68
$GNGRS,043404.00,1,-5.0,-7.4,-1.6,,,,,,,,,*55
$GNGST,043404.00,4857907,,,,9.5,8.1,26*51
$GNZDA,043404.00,21,05,2025,00,00*7C
$GNGBS,043404.00,9.5,8.1,25.9,,,,*63
$GNTXT,01,01,01,More than 100 frame errors, UART RX was disabled*70
b0XHn3m#a
6
w43Xf?I{4V^:R
 
Y_EFI-JWO
P5iwS
T,BU"|bHnO&$GNRMC,043405.00,A,0419.78031,S,05539.85023,E,0.948,,210525,,,A*76
$GNVTG,,T,,M,0.948,N,1.756,K,A*3D
$GNGNS,043405.00,0419.78031,S,05539.85023,E,AA,12,0.78,35.1,-47.6,,*67
$GNGGA,043405.00,0419.78031,S,05539.85023,E,1,12,0.78,35.1,M,-47.6,M,,*4D
$GNGSA,A,3,24,20,11,05,13,15,22,12,14,,,,1.59,0.78,1.39*14
$GNGSA,A,3,80,73,85,,,,,,,,,,1.59,0.78,1.39*14
$GPGSV,5,1,18,05,51,151,16,06,03,028,,11,35,019,12,12,22,353,17*75
$GPGSV,5,2,18,13,24,167,10,14,08,119,10,15,27,204,19,18,14,223,*77
$GPGSV,5,3,18,20,51,088,27,22,20,102,11,24,63,273,17,25,01,329,*79
$GPGSV,5,4,18,29,11,287,,36,52,277,,40,86,350,,41,58,082,*79
$GPGSV,5,5,18,49,32,274,,50,10,089,*78
$GLGSV,3,1,09,69,11,135,,70,13,197,,73,45,006,13,74,06,343,*6C
$GLGSV,3,2,09,79,10,143,,80,53,105,24,83,10,011,,84,44,322,*6D
$GLGSV,3,3,09,85,34,252,15*57
$GNGLL,0419.78031,S,05539.85023,E,043405.00,A,A*6B
$GNGRS,043405.00,1,-5.8,1.7,6.9,-4.0,36.4,-5.0,-8.6,6.5,133,,,*5E
$GNGRS,043405.00,1,-6.5,-13.3,6.4,,,,,,,,,*48
$GNGST,043405.00,77,,,,9.5,8.2,26*63
$GNZDA,043405.00,21,05,2025,00,00*7D
$GNGBS,043405.00,9.5,8.2,25.8,,,,*60
$GNTXT,01,01,01,More than 100 frame errors, UART RX was disabled*70
b0XLn3"agZw3Xf?qI{4V^:R
 
Y_EFI-5JWO
P5iS
T,BU"d!bLnO$GNRMC,043406.00,A,0419.78006,S,05539.85015,E,0.373,,210525,,,A*76
$GNVTG,,T,,M,0.373,N,0.691,K,A*34
$GNGNS,043406.00,0419.78006,S,05539.85015,E,AA,11,0.82,34.4,-47.6,,*67
$GNGGA,043406.00,0419.78006,S,05539.85015,E,1,11,0.82,34.4,M,-47.6,M,,*4D
$GNGSA,A,3,24,20,05,13,15,22,12,14,,,,,1.62,0.82,1.40*17
$GNGSA,A,3,80,73,85,,,,,,,,,,1.62,0.82,1.40*17
$GPGSV,5,1,18,05,51,151,16,06,03,028,,11,34,019,09,12,22,353,17*7E
$GPGSV,5,2,18,13,24,167,15,14,08,119,08,15,27,204,20,18,14,223,*71
$GPGSV,5,3,18,20,51,088,28,22,20,102,11,24,63,273,18,25,01,329,*79
$GPGSV,5,4,18,29,11,287,,36,52,277,,40,86,350,,41,58,082,*79
$GPGSV,5,5,18,49,32,274,,50,10,089,*78
$GLGSV,3,1,09,69,11,135,,70,13,197,,73,45,006,12,74,06,343,*6D
$GLGSV,3,2,09,79,10,143,,80,53,105,27,83,10,011,,84,44,322,*6E
$GLGSV,3,3,09,85,34,252,18*5A
$GNGLL,0419.78006,S,05539.85015,E,043406.00,A,A*69
$GNGRS,043406.00,1,-6.5,-1.1,-3.4,11.1,-2.3,12.6,6.1,24.6,,,,*63
$GNGRS,043406.00,1,-6.2,-7.1,6.1,,,,,,,,,*7E
$GNGST,043406.00,6212825,,,,9.6,8.3,26*5A
$GNZDA,043406.00,21,05,2025,00,00*7E
$GNGBS,043406.00,9.6,8.3,26.1,,,,*6B
$GNTXT,01,01,01,More than 100 frame errors, UART RX was disabled*70
b0XhPn3 "a&qwO3Xj
f?I{4V^:R
 
Y_EFI-JWO
P5irS
T,BU"r<2bhPnO`k$GNRMC,043407.00,A,0419.77979,S,05539.85011,E,0.142,,210525,,,A*7D
$GNVTG,,T,,M,0.142,N,0.263,K,A*3D
$GNGNS,043407.00,0419.77979,S,05539.85011,E,AA,12,0.78,33.4,-47.6,,*6D
$GNGGA,043407.00,0419.77979,S,05539.85011,E,1,12,0.78,33.4,M,-47.6,M,,*47
$GNGSA,A,3,24,20,11,05,13,15,22,12,14,,,,1.59,0.78,1.39*14
$GNGSA,A,3,80,73,85,,,,,,,,,,1.59,0.78,1.39*14
$GPGSV,5,1,18,05,51,151,17,06,03,028,,11,34,019,12,12,23,353,17*74
$GPGSV,5,2,18,13,24,167,17,14,08,119,12,15,27,204,20,18,14,223,*78
$GPGSV,5,3,18,20,51,088,29,22,20,102,10,24,63,273,19,25,01,329,*78
$GPGSV,5,4,18,29,11,287,,36,52,277,,40,86,350,,41,58,082,*79
$GPGSV,5,5,18,49,32,274,,50,10,089,*78
$GLGSV,3,1,09,69,11,135,,70,13,197,,73,45,006,19,74,06,343,*66
$GLGSV,3,2,09,79,10,143,,80,53,105,25,83,10,011,,84,44,322,*6C
$GLGSV,3,3,09,85,34,252,20*51
$GNGLL,0419.77979,S,05539.85011,E,043407.00,A,A*62
$GNGRS,043407.00,1,-8.2,-1.5,4.1,-4.8,11.4,-0.4,12.0,8.1,23.8,,,*4E
$GNGRS,043407.00,1,-6.5,-8.1,3.7,,,,,,,,,*74
$GNGST,043407.00,5948850,,,,9.6,8.3,26*5E
$GNZDA,043407.00,21,05,2025,00,00*7F
$GNGBS,043407.00,9.6,8.3,26.3,,,,*68
$GNTXT,01,01,01,More than 100 frame errors, UART RX was disabled*70
b0XPTn3'"a-w$3Xfu?I{4V^:R
 
Y_EFI-JWO
P5iS
T,BU"2bPTnO8$GNRMC,043408.00,A,0419.77974,S,05539.85012,E,0.370,,210525,,,A*7F
$GNVTG,,T,,M,0.370,N,0.686,K,A*31
$GNGNS,043408.00,0419.77974,S,05539.85012,E,AA,12,0.78,30.5,-47.6,,*6E
$GNGGA,043408.00,0419.77974,S,05539.85012,E,1,12,0.78,30.5,M,-47.6,M,,*44
$GNGSA,A,3,24,20,11,05,13,15,22,12,14,,,,1.59,0.78,1.39*14
$GNGSA,A,3,80,73,85,,,,,,,,,,1.59,0.78,1.39*14
$GPGSV,5,1,18,05,51,151,21,06,03,028,,11,34,019,15,12,23,353,17*76
$GPGSV,5,2,18,13,24,167,11,14,08,119,09,15,27,204,21,18,14,223,*75
$GPGSV,5,3,18,20,51,088,28,22,20,102,11,24,63,273,20,25,01,329,*72
$GPGSV,5,4,18,29,11,287,,36,52,277,,40,86,350,,41,58,082,*79
$GPGSV,5,5,18,49,32,274,,50,10,089,*78
$GLGSV,3,1,09,69,11,135,,70,13,197,,73,45,006,19,74,06,343,*66
$GLGSV,3,2,09,79,10,143,,80,53,105,27,83,10,011,,84,44,322,*6E
$GLGSV,3,3,09,85,34,252,21*50
$GNGLL,0419.77974,S,05539.85012,E,043408.00,A,A*63
$GNGRS,043408.00,1,-7.5,0.1,4.9,-4.7,3.0,0.0,8.8,6.9,93.5,,,*4B
$GNGRS,043408.00,1,-8.1,-8.9,2.7,,,,,,,,,*78
$GNGST,043408.00,66,,,,9.4,8.3,26*6E
$GNZDA,043408.00,21,05,2025,00,00*70
$GNGBS,043408.00,9.4,8.3,25.8,,,,*6D
$GNTXT,01,01,01,More than 100 frame errors, UART RX was disabled*70
b0X8Xn3"aA4
x
r3Xf1?]I{4V^:R
 
Y_EFI-JWO
P5i1S
T,BU"eb8XnO;$GNRMC,043409.00,A,0419.77973,S,05539.84973,E,0.636,,210525,,,A*71
$GNVTG,,T,,M,0.636,N,1.179,K,A*30
$GNGNS,043409.00,0419.77973,S,05539.84973,E,AA,12,0.78,31.4,-47.6,,*67
$GNGGA,043409.00,0419.77973,S,05539.84973,E,1,12,0.78,31.4,M,-47.6,M,,*4D
$GNGSA,A,3,24,20,11,05,13,15,22,12,14,,,,1.59,0.78,1.39*14
$GNGSA,A,3,80,73,85,,,,,,,,,,1.59,0.78,1.39*14
$GPGSV,5,1,18,05,51,151,22,06,03,028,,11,34,019,15,12,23,353,18*7A
$GPGSV,5,2,18,13,24,167,19,14,08,120,10,15,27,204,21,18,14,223,*7F
$GPGSV,5,3,18,20,51,088,27,22,20,102,14,24,63,273,19,25,01,329,*72
$GPGSV,5,4,18,29,11,287,,36,52,277,,40,86,350,,41,58,082,*79
$GPGSV,5,5,18,49,32,274,,50,10,089,*78
$GLGSV,3,1,09,69,11,135,,70,13,197,,73,45,006,20,74,06,343,*6C
$GLGSV,3,2,09,79,10,143,,80,53,105,28,83,10,011,,84,44,322,*61
$GLGSV,3,3,09,85,34,252,21*50
$GNGLL,0419.77973,S,05539.84973,E,043409.00,A,A*6A
$GNGRS,043409.00,1,-6.7,4.5,4.7,-5.4,10.8,-1.4,13.3,5.8,25.7,,,*6B
$GNGRS,043409.00,1,-7.2,-10.5,3.6,,,,,,,,,*40
$GNGST,043409.00,3436324,,,,9.3,8.3,26*5F
$GNZDA,043409.00,21,05,2025,00,00*71
$GNGBS,043409.00,9.3,8.3,26.1,,,,*61
$GNTXT,01,01,01,More than 100 frame errors, UART RX was disabled*70
b0X \n3"au
x7
b3Xf+?VI{4V^:R
 
Y_EFI-JWO
P5iS
T,BU"]Mb \nO$GNRMC,043410.00,A,0419.77926,S,05539.84968,E,0.831,,210525,,,A*7A
$GNVTG,,T,,M,0.831,N,1.539,K,A*39
$GNGNS,043410.00,0419.77926,S,05539.84968,E,AA,12,0.78,31.6,-47.6,,*67
$GNGGA,043410.00,0419.77926,S,05539.84968,E,1,12,0.78,31.6,M,-47.6,M,,*4D
$GNGSA,A,3,24,20,11,05,13,15,22,12,14,,,,1.59,0.78,1.39*14
$GNGSA,A,3,80,73,85,,,,,,,,,,1.59,0.78,1.39*14
$GPGSV,5,1,18,05,51,151,21,06,03,028,,11,34,019,13,12,23,353,19*7E
$GPGSV,5,2,18,13,24,167,16,14,08,120,10,15,27,203,20,18,14,223,*76
$GPGSV,5,3,18,20,51,088,28,22,20,102,17,24,63,273,17,25,01,329,*70
$GPGSV,5,4,18,29,11,287,,36,52,277,,40,86,350,,41,58,082,*79
$GPGSV,5,5,18,49,32,274,,50,10,089,*78
$GLGSV,3,1,09,69,11,135,,70,13,197,,73,45,006,19,74,06,343,*66
$GLGSV,3,2,09,79,10,143,,80,53,105,27,83,10,011,,84,44,322,*6E
$GLGSV,3,3,09,85,34,252,21*50
$GNGLL,0419.77926,S,05539.84968,E,043410.00,A,A*68
$GNGRS,043410.00,1,-6.8,12.1,3.9,-4.9,11.4,-1.6,13.2,3.9,26.2,,,*55
$GNGRS,043410.00,1,-10.7,-11.1,3.5,,,,,,,,,*7D
$GNGST,043410.00,3437718,,,,9.3,8.3,26*5D
$GNZDA,043410.00,21,05,2025,00,00*79
$GNGBS,043410.00,9.3,8.3,26.3,,,,*6B
$GNTXT,01,01,01,More than 100 frame errors, UART RX was disabled*70
b0X`n3s
"&acx3XfX?
I{4V^:R
 
Y_EFI-XJWO
P5iS
T,BU"<5b`nO$GNRMC,043411.00,A,0419.77932,S,05539.84994,E,0.456,,210525,,,A*70
$GNVTG,,T,,M,0.456,N,0.844,K,A*32
$GNGNS,043411.00,0419.77932,S,05539.84994,E,AA,11,0.80,30.4,-47.6,,*67
$GNGGA,043411.00,0419.77932,S,05539.84994,E,1,11,0.80,30.4,M,-47.6,M,,*4D
$GNGSA,A,3,24,20,11,05,13,15,22,12,,,,,1.83,0.80,1.64*19
$GNGSA,A,3,80,73,85,,,,,,,,,,1.83,0.80,1.64*1C
$GPGSV,5,1,18,05,51,151,22,06,03,028,,11,34,019,10,12,23,353,18*7F
$GPGSV,5,2,18,13,24,167,13,14,08,120,07,15,27,203,19,18,14,223,*7F
$GPGSV,5,3,18,20,51,088,28,22,20,102,17,24,63,273,18,25,01,329,*7F
$GPGSV,5,4,18,29,11,287,,36,52,277,,40,86,350,,41,58,082,*79
$GPGSV,5,5,18,49,32,274,,50,10,089,*78
$GLGSV,3,1,09,69,11,135,,70,13,197,,73,45,006,20,74,06,343,*6C
$GLGSV,3,2,09,79,10,143,,80,53,105,28,83,10,011,,84,44,322,*61
$GLGSV,3,3,09,85,34,252,21*50
$GNGLL,0419.77932,S,05539.84994,E,043411.00,A,A*6F
$GNGRS,043411.00,1,-5.0,1.6,-2.2,-6.5,-8.0,-1.0,6.0,3.6,,,,*75
$GNGRS,043411.00,1,-11.1,-11.9,3.2,,,,,,,,,*74
$GNGST,043411.00,57,,,,9.1,8.3,26*61
$GNZDA,043411.00,21,05,2025,00,00*78
$GNGBS,043411.00,9.1,8.3,26.0,,,,*6B
$GNTXT,01,01,01,More than 100 frame errors, UART RX was disabled*70
b0Xcn3"0ax3X^f
?I{4V^:R
 
Y_EFI-JWO
P5iS
T,BU"y|bcnO~d$GNRMC,043412.00,A,0419.77924,S,05539.84965,E,0.703,,210525,,,A*79
$GNVTG,,T,,M,0.703,N,1.302,K,A*39
$GNGNS,043412.00,0419.77924,S,05539.84965,E,AA,12,0.78,30.0,-47.6,,*6D
$GNGGA,043412.00,0419.77924,S,05539.84965,E,1,12,0.78,30.0,M,-47.6,M,,*47
$GNGSA,A,3,24,20,11,05,13,15,22,12,14,,,,1.59,0.78,1.39*14
$GNGSA,A,3,80,73,85,,,,,,,,,,1.59,0.78,1.39*14
$GPGSV,5,1,18,05,51,151,26,06,03,028,,11,34,019,15,12,23,353,18*7E
$GPGSV,5,2,18,13,24,167,18,14,08,120,09,15,27,203,21,18,14,223,*71
$GPGSV,5,3,18,20,51,088,28,22,20,102,11,24,63,273,17,25,01,329,*76
$GPGSV,5,4,18,29,11,287,,36,52,277,,40,86,350,,41,58,082,*79
$GPGSV,5,5,18,49,32,274,,50,10,089,*78
$GLGSV,3,1,09,69,11,135,,70,13,197,,73,45,006,21,74,06,343,*6D
$GLGSV,3,2,09,79,10,143,,80,53,105,30,83,10,011,,84,44,322,*68
$GLGSV,3,3,09,85,34,252,22*53
$GNGLL,0419.77924,S,05539.84965,E,043412.00,A,A*65
$GNGRS,043412.00,1,-2.7,-1.6,8.2,-8.6,10.4,-2.9,12.9,4.0,24.9,,,*47
$GNGRS,043412.00,1,-8.0,-13.1,3.8,,,,,,,,,*4E
$GNGST,043412.00,4857567,,,,9.0,8.3,26*5B
$GNZDA,043412.00,21,05,2025,00,00*7B
$GNGBS,043412.00,9.0,8.3,26.3,,,,*6A
$GNTXT,01,01,01,More than 100 frame errors, UART RX was disabled*70
b0Xgn3y".ax3X}f?I{4V^:R
 
Y_EFI-JWO
P5iS
T,BU"BbgnOfo$GNRMC,043413.00,A,0419.77915,S,05539.84948,E,0.661,,210525,,,A*70
$GNVTG,,T,,M,0.661,N,1.224,K,A*39
$GNGNS,043413.00,0419.77915,S,05539.84948,E,AA,12,0.78,30.1,-47.6,,*60
$GNGGA,043413.00,0419.77915,S,05539.84948,E,1,12,0.78,30.1,M,-47.6,M,,*4A
$GNGSA,A,3,24,20,11,05,13,15,22,12,14,,,,1.59,0.78,1.39*14
$GNGSA,A,3,80,73,85,,,,,,,,,,1.59,0.78,1.39*14
$GPGSV,5,1,18,05,51,151,26,06,03,028,,11,34,019,15,12,23,353,19*7F
$GPGSV,5,2,18,13,24,167,14,14,08,120,09,15,27,203,23,18,14,223,*7F
$GPGSV,5,3,18,20,51,088,28,22,20,102,13,24,63,273,16,25,01,329,*75
$GPGSV,5,4,18,29,11,287,,36,52,277,,40,86,350,,41,58,082,*79
$GPGSV,5,5,18,49,32,274,,50,10,089,*78
$GLGSV,3,1,09,69,11,135,,70,13,197,,73,45,006,21,74,06,343,*6D
$GLGSV,3,2,09,79,10,143,,80,53,105,29,83,10,011,,84,44,322,*60
$GLGSV,3,3,09,85,34,252,22*53
$GNGLL,0419.77915,S,05539.84948,E,043413.00,A,A*69
$GNGRS,043413.00,1,-2.8,-1.3,8.1,-6.5,10.1,-5.7,13.0,4.3,24.9,,,*45
$GNGRS,043413.00,1,-11.0,-13.9,0.2,,,,,,,,,*76
$GNGST,043413.00,4858874,,,,8.9,8.3,26*52
$GNZDA,043413.00,21,05,2025,00,00*7A
$GNGBS,043413.00,8.9,8.3,26.5,,,,*65
$GNTXT,01,01,01,More than 100 frame errors, UART RX was disabled*70
b0Xkn3M"aPx}'j3X
f?I{4V^:R
 
Y_EFI-JWO
P5iS
T,BU"bknONG4$GNRMC,043414.00,A,0419.77950,S,05539.84969,E,0.632,,210525,,,A*73
$GNVTG,,T,,M,0.632,N,1.171,K,A*3C
$GNGNS,043414.00,0419.77950,S,05539.84969,E,AA,12,0.78,27.3,-47.6,,*61
$GNGGA,043414.00,0419.77950,S,05539.84969,E,1,12,0.78,27.3,M,-47.6,M,,*4B
$GNGSA,A,3,24,20,11,05,13,15,22,12,14,,,,1.59,0.78,1.39*14
$GNGSA,A,3,80,73,85,,,,,,,,,,1.59,0.78,1.39*14
$GPGSV,5,1,18,05,51,151,24,06,03,028,,11,34,019,13,12,23,353,19*7B
$GPGSV,5,2,18,13,24,167,18,14,08,120,08,15,27,203,21,18,14,223,*70
$GPGSV,5,3,18,20,51,088,29,22,20,102,10,24,63,273,20,25,01,329,*72
$GPGSV,5,4,18,29,11,287,,36,52,277,,40,86,350,,41,58,082,*79
$GPGSV,5,5,18,49,32,274,,50,10,089,*78
$GLGSV,3,1,09,69,11,135,,70,13,197,,73,45,006,22,74,06,343,*6E
$GLGSV,3,2,09,79,10,143,,80,53,105,28,83,10,011,,84,44,322,*61
$GLGSV,3,3,09,85,34,252,24*55
$GNGLL,0419.77950,S,05539.84969,E,043414.00,A,A*6C
$GNGRS,043414.00,1,-0.9,0.3,4.8,-4.3,4.6,-4.1,-21.4,3.4,101,,,*50
$GNGRS,043414.00,1,-15.9,-15.2,-3.1,,,,,,,,,*5C
$GNGST,043414.00,67,,,,8.7,8.2,26*61
$GNZDA,043414.00,21,05,2025,00,00*7D
$GNGBS,043414.00,8.7,8.2,25.9,,,,*62
$GNTXT,01,01,01,More than 100 frame errors, UART RX was disabled*70
b0Xon3G
"&a9zx|3W.
f?I{4V^:R
 
Y_EFI-JWO
P5iS
T,BU"gbonO6$GNRMC,043415.00,A,0419.77953,S,05539.84984,E,0.287,,210525,,,A*78
$GNVTG,,T,,M,0.287,N,0.531,K,A*37
$GNGNS,043415.00,0419.77953,S,05539.84984,E,AA,12,0.78,26.1,-47.6,,*63
$GNGGA,043415.00,0419.77953,S,05539.84984,E,1,12,0.78,26.1,M,-47.6,M,,*49
$GNGSA,A,3,24,20,11,05,13,15,22,12,14,,,,1.59,0.78,1.39*14
$GNGSA,A,3,80,73,85,,,,,,,,,,1.59,0.78,1.39*14
$GPGSV,5,1,18,05,51,151,22,06,03,028,,11,34,019,10,12,23,353,18*7F
$GPGSV,5,2,18,13,24,167,20,14,08,120,08,15,27,203,20,18,14,223,*7A
$GPGSV,5,3,18,20,51,087,29,22,20,102,10,24,63,273,23,25,01,329,*7E
$GPGSV,5,4,18,29,11,287,,36,52,277,,40,86,350,,41,58,082,*79
$GPGSV,5,5,18,49,32,274,,50,10,089,*78
$GLGSV,3,1,09,69,11,135,,70,13,197,,73,45,006,24,74,06,343,*68
$GLGSV,3,2,09,79,10,143,,80,53,105,28,83,10,011,,84,44,322,*61
$GLGSV,3,3,09,85,34,252,25*54
$GNGLL,0419.77953,S,05539.84984,E,043415.00,A,A*6D
$GNGRS,043415.00,1,-1.0,-2.1,8.1,-1.9,3.8,-2.7,12.2,3.1,24.3,,,*72
$GNGRS,043415.00,1,-15.8,-13.2,-5.8,,,,,,,,,*55
$GNGST,043415.00,3434892,,,,8.6,8.1,26*50
$GNZDA,043415.00,21,05,2025,00,00*7C
$GNGBS,043415.00,8.6,8.1,25.8,,,,*60
$GNTXT,01,01,01,More than 100 frame errors, UART RX was disabled*70
b0Xsn3"aT`x53W$g?OI{4V^:R
 
Y_EFI-JWO
P5izS
T,BU"A\bsnO$GNRMC,043416.00,A,0419.77970,S,05539.84999,E,0.322,,210525,,,A*78
$GNVTG,,T,,M,0.322,N,0.596,K,A*34
$GNGNS,043416.00,0419.77970,S,05539.84999,E,AA,12,0.78,25.0,-47.6,,*6F
$GNGGA,043416.00,0419.77970,S,05539.84999,E,1,12,0.78,25.0,M,-47.6,M,,*45
$GNGSA,A,3,24,20,11,05,13,15,22,12,14,,,,1.59,0.78,1.39*14
$GNGSA,A,3,80,73,85,,,,,,,,,,1.59,0.78,1.39*14
$GPGSV,5,1,18,05,51,151,21,06,03,028,,11,34,019,09,12,23,353,19*75
$GPGSV,5,2,18,13,24,167,19,14,08,120,11,15,27,203,17,18,14,223,*7C
$GPGSV,5,3,18,20,51,087,29,22,20,103,14,24,63,273,25,25,01,329,*7D
$GPGSV,5,4,18,29,11,287,,36,52,277,,40,86,350,,41,58,082,*79
$GPGSV,5,5,18,49,32,274,,50,10,089,*78
$GLGSV,3,1,09,69,11,135,,70,13,197,,73,45,006,25,74,06,343,*69
$GLGSV,3,2,09,79,10,143,,80,53,105,29,83,10,011,,84,44,322,*60
$GLGSV,3,3,09,85,34,252,25*54
$GNGLL,0419.77970,S,05539.84999,E,043416.00,A,A*63
$GNGRS,043416.00,1,0.8,0.4,7.9,-3.7,6.1,-3.8,11.6,3.4,23.6,,,*76
$GNGRS,043416.00,1,-9.0,-11.5,-8.2,,,,,,,,,*61
$GNGST,043416.00,3435944,,,,8.4,8.0,26*5B
$GNZDA,043416.00,21,05,2025,00,00*7F
$GNGBS,043416.00,8.4,8.0,25.6,,,,*6E
$GNTXT,01,01,01,More than 100 frame errors, UART RX was disabled*70
b0Xxwn3K"a[x3Wg8?I{4V^:R
 
Y_EFI-JWO
P5iS
T,BU"BbxwnOl$GNRMC,043417.00,A,0419.77977,S,05539.84994,E,0.095,,210525,,,A*7C
$GNVTG,,T,,M,0.095,N,0.175,K,A*32
$GNGNS,043417.00,0419.77977,S,05539.84994,E,AA,12,0.78,26.2,-47.6,,*65
$GNGGA,043417.00,0419.77977,S,05539.84994,E,1,12,0.78,26.2,M,-47.6,M,,*4F
$GNGSA,A,3,24,20,11,05,13,15,22,12,14,,,,1.59,0.78,1.39*14
$GNGSA,A,3,80,73,85,,,,,,,,,,1.59,0.78,1.39*14
$GPGSV,5,1,18,05,51,151,22,06,03,028,,11,34,019,12,12,23,353,18*7D
$GPGSV,5,2,18,13,24,167,19,14,08,120,13,15,27,203,19,18,14,223,*70
$GPGSV,5,3,18,20,51,087,28,22,20,103,15,24,63,273,24,25,01,329,*7C
$GPGSV,5,4,18,29,11,287,,36,52,277,,40,86,350,,41,58,082,*79
$GPGSV,5,5,18,49,32,274,,50,10,089,*78
$GLGSV,3,1,09,69,11,135,,70,13,197,,73,45,006,24,74,06,343,*68
$GLGSV,3,2,09,79,10,143,,80,53,105,29,83,10,011,,84,44,322,*60
$GLGSV,3,3,09,85,34,252,23*52
$GNGLL,0419.77977,S,05539.84994,E,043417.00,A,A*68
$GNGRS,043417.00,1,4.0,-0.7,-48.5,-4.4,2.4,-2.9,-19.9,6.0,-8.4,,,*77
$GNGRS,043417.00,1,-2.3,-11.3,-7.0,,,,,,,,,*63
$GNGST,043417.00,63,,,,8.3,7.9,25*65
$GNZDA,043417.00,21,05,2025,00,00*7E
$GNGBS,043417.00,8.3,7.9,24.8,,,,*61
$GNTXT,01,01,01,More than 100 frame errors, UART RX was disabled*70
b0X`{n3a"Qae*xN3WLg?<I{4V^:R
 
Y_EFI-JWO
P5i6S
T,BU"lb`{nO$GNRMC,043418.00,A,0419.77989,S,05539.84994,E,0.327,,210525,,,A*78
$GNVTG,,T,,M,0.327,N,0.606,K,A*3B
$GNGNS,043418.00,0419.77989,S,05539.84994,E,AA,12,0.78,26.0,-47.6,,*69
$GNGGA,043418.00,0419.77989,S,05539.84994,E,1,12,0.78,26.0,M,-47.6,M,,*43
$GNGSA,A,3,24,20,11,05,13,15,22,12,14,,,,1.59,0.78,1.39*14
$GNGSA,A,3,80,73,85,,,,,,,,,,1.59,0.78,1.39*14
$GPGSV,5,1,18,05,51,151,25,06,03,028,,11,34,019,15,12,23,353,20*76
$GPGSV,5,2,18,13,24,167,19,14,08,120,08,15,27,203,21,18,14,223,*71
$GPGSV,5,3,18,20,51,087,30,22,20,103,12,24,63,271,22,25,01,329,*76
$GPGSV,5,4,18,29,11,287,,36,52,277,,40,86,350,,41,58,082,*79
$GPGSV,5,5,18,49,32,274,,50,10,089,*78
$GLGSV,3,1,09,69,11,135,,70,13,197,,73,45,006,23,74,06,343,*6F
$GLGSV,3,2,09,79,10,143,,80,53,105,28,83,10,011,,84,44,322,*61
$GLGSV,3,3,09,85,34,252,25*54
$GNGLL,0419.77989,S,05539.84994,E,043418.00,A,A*66
$GNGRS,043418.00,1,5.7,-4.4,8.5,-6.7,3.0,-4.3,12.7,6.1,24.9,,,*5F
$GNGRS,043418.00,1,0.5,-10.9,-6.6,,,,,,,,,*49
$GNGST,043418.00,5947882,,,,8.2,7.8,25*52
$GNZDA,043418.00,21,05,2025,00,00*71
$GNGBS,043418.00,8.2,7.8,24.7,,,,*61
$GNTXT,01,01,01,More than 100 frame errors, UART RX was disabled*70
b0XHn3"`a
x3Wg?J{4V^:R
 
Y_EFI-AJWO
P5iS
T,BU"MbHnO~9$GNRMC,043419.00,A,0419.78004,S,05539.84995,E,0.575,,210525,,,A*7A
$GNVTG,,T,,M,0.575,N,1.065,K,A*38
$GNGNS,043419.00,0419.78004,S,05539.84995,E,AA,12,0.78,26.0,-47.6,,*6A
$GNGGA,043419.00,0419.78004,S,05539.84995,E,1,12,0.78,26.0,M,-47.6,M,,*40
$GNGSA,A,3,24,20,11,05,13,15,22,12,14,,,,1.59,0.78,1.39*14
$GNGSA,A,3,80,73,85,,,,,,,,,,1.59,0.78,1.39*14
$GPGSV,5,1,18,05,51,151,26,06,03,028,,11,34,019,16,12,23,353,20*76
$GPGSV,5,2,18,13,24,167,19,14,08,120,10,15,27,203,21,18,14,223,*78
$GPGSV,5,3,18,20,51,087,30,22,20,103,14,24,63,271,21,25,01,330,*7B
$GPGSV,5,4,18,29,11,287,,36,52,277,,40,86,350,,41,58,082,*79
$GPGSV,5,5,18,49,32,274,,50,10,089,*78
$GLGSV,3,1,09,69,11,135,,70,13,197,,73,45,006,24,74,06,343,*68
$GLGSV,3,2,09,79,10,143,,80,53,105,25,83,10,011,,84,44,322,*6C
$GLGSV,3,3,09,85,34,252,26*57
$GNGLL,0419.78004,S,05539.84995,E,043419.00,A,A*65
$GNGRS,043419.00,1,6.6,-2.6,8.6,-8.7,0.1,-2.4,12.5,7.8,24.7,,,*52
$GNGRS,043419.00,1,5.0,-9.6,-6.9,,,,,,,,,*70
$GNGST,043419.00,5947882,,,,8.1,7.7,25*5F
$GNZDA,043419.00,21,05,2025,00,00*70
$GNGBS,043419.00,8.1,7.7,24.7,,,,*6C
$GNTXT,01,01,01,More than 100 frame errors, UART RX was disabled*70
b0X0n3"a'x3Wg?oJ{4V^:R
 
Y_EFI-1JWO
P5iS
T,BU"\gAb0nOV$GNRMC,043420.00,A,0419.78002,S,05539.84982,E,0.417,,210525,,,A*75
$GNVTG,,T,,M,0.417,N,0.773,K,A*3C
$GNGNS,043420.00,0419.78002,S,05539.84982,E,AA,11,0.82,27.5,-47.6,,*62
$GNGGA,043420.00,0419.78002,S,05539.84982,E,1,11,0.82,27.5,M,-47.6,M,,*48
$GNGSA,A,3,24,20,05,13,15,22,12,14,,,,,1.62,0.82,1.40*17
$GNGSA,A,3,80,73,85,,,,,,,,,,1.62,0.82,1.40*17
$GPGSV,5,1,18,05,51,151,26,06,03,028,,11,34,019,07,12,23,353,18*7D
$GPGSV,5,2,18,13,24,167,19,14,08,120,13,15,27,203,19,18,14,223,*70
$GPGSV,5,3,18,20,51,087,30,22,20,103,11,24,63,271,23,25,01,330,*7C
$GPGSV,5,4,18,29,11,287,,36,52,277,,40,86,350,,41,58,082,*79
$GPGSV,5,5,18,49,32,274,,50,10,089,*78
$GLGSV,3,1,09,69,11,135,,70,13,197,,73,45,006,23,74,06,343,*6F
$GLGSV,3,2,09,79,10,143,,80,53,105,26,83,10,011,,84,44,322,*6F
$GLGSV,3,3,09,85,34,252,25*54
$GNGLL,0419.78002,S,05539.84982,E,043420.00,A,A*6F
$GNGRS,043420.00,1,6.2,-0.2,-8.6,1.8,-3.6,-16.5,8.1,-121,,,,*5F
$GNGRS,043420.00,1,9.2,-9.8,-6.8,,,,,,,,,*7B
$GNGST,043420.00,76,,,,8.0,7.6,24*68
$GNZDA,043420.00,21,05,2025,00,00*7A
$GNGBS,043420.00,8.0,7.6,24.4,,,,*65
$GNTXT,01,01,01,More than 100 frame errors, UART RX was disabled*70
b0Xn3"ax3Wg?"J{4V^:R
 
Y_EFI-JWO
P5iS
T,BU"$bnO.$GNRMC,043421.00,A,0419.77997,S,05539.84987,E,0.131,,210525,,,A*7A
$GNVTG,,T,,M,0.131,N,0.242,K,A*3A
$GNGNS,043421.00,0419.77997,S,05539.84987,E,AA,11,0.85,28.1,-47.6,,*60
$GNGGA,043421.00,0419.77997,S,05539.84987,E,1,11,0.85,28.1,M,-47.6,M,,*4A
$GNGSA,A,3,24,20,05,13,15,22,12,14,,,,,1.86,0.85,1.66*1E
$GNGSA,A,3,80,73,85,,,,,,,,,,1.86,0.85,1.66*1E
$GPGSV,5,1,18,05,51,151,25,06,03,028,,11,34,019,07,12,23,353,18*7E
$GPGSV,5,2,18,13,24,167,20,14,08,120,09,15,27,203,18,18,14,223,*70
$GPGSV,5,3,18,20,51,087,29,22,20,103,11,24,63,271,26,25,01,330,*71
$GPGSV,5,4,18,29,11,287,,36,52,277,,40,86,350,,41,58,082,*79
$GPGSV,5,5,18,49,32,274,,50,10,089,*78
$GLGSV,3,1,09,69,11,135,,70,13,197,,73,45,006,24,74,06,343,*68
$GLGSV,3,2,09,79,10,143,,80,53,105,26,83,10,011,,84,44,322,*6F
$GLGSV,3,3,09,85,34,252,25*54
$GNGLL,0419.77997,S,05539.84987,E,043421.00,A,A*61
$GNGRS,043421.00,1,5.5,6.5,-4.8,0.1,-3.2,13.1,6.5,25.5,,,,*5D
$GNGRS,043421.00,1,9.0,-8.9,-8.7,,,,,,,,,*79
$GNGST,043421.00,3761771,,,,8.0,7.5,24*59
$GNZDA,043421.00,21,05,2025,00,00*7B
$GNGBS,043421.00,8.0,7.5,24.3,,,,*60
$GNTXT,01,01,01,More than 100 frame errors, UART RX was disabled*70
b0Xn3p"am
x
3Wtg$?J{4V^:R
 
Y_EFI-iJWO
P5iS
T,BU"bnOs$GNRMC,043422.00,A,0419.77992,S,05539.84990,E,0.066,,210525,,,A*79
$GNVTG,,T,,M,0.066,N,0.122,K,A*3C
$GNGNS,043422.00,0419.77992,S,05539.84990,E,AA,12,0.80,28.5,-47.6,,*62
$GNGGA,043422.00,0419.77992,S,05539.84990,E,1,12,0.80,28.5,M,-47.6,M,,*48
$GNGSA,A,3,24,20,11,05,13,15,22,12,14,,,,1.83,0.80,1.64*1C
$GNGSA,A,3,80,73,85,,,,,,,,,,1.83,0.80,1.64*1C
$GPGSV,5,1,18,05,51,151,24,06,03,028,,11,34,019,13,12,23,353,17*75
$GPGSV,5,2,18,13,24,167,21,14,08,120,10,15,27,203,19,18,14,223,*78
$GPGSV,5,3,18,20,51,087,30,22,20,103,12,24,63,271,25,25,01,330,*79
$GPGSV,5,4,18,29,11,287,,36,52,277,,40,86,350,,41,58,082,*79
$GPGSV,5,5,18,49,32,274,,50,10,089,*78
$GLGSV,3,1,09,69,11,135,,70,13,197,,73,45,006,24,74,06,343,*68
$GLGSV,3,2,09,79,10,143,,80,53,105,25,83,10,011,,84,44,322,*6C
$GLGSV,3,3,09,85,34,252,25*54
$GNGLL,0419.77992,S,05539.84990,E,043422.00,A,A*61
$GNGRS,043422.00,1,6.5,-1.4,5.1,-4.0,-1.5,-4.9,13.2,6.8,25.8,,,*73
$GNGRS,043422.00,1,6.7,-9.2,-8.8,,,,,,,,,*77
$GNGST,043422.00,3586708,,,,7.9,7.3,24*5F
$GNZDA,043422.00,21,05,2025,00,00*78
$GNGBS,043422.00,7.9,7.3,23.9,,,,*6E
$GNTXT,01,01,01,More than 100 frame errors, UART RX was disabled*70
b0Xn3"ax53Wg?J {4V^:R
 
Y_EFI-JWO
P5iS
T,BU"{bnOv$GNRMC,043423.00,A,0419.77987,S,05539.84989,E,0.105,,210525,,,A*70
$GNVTG,,T,,M,0.105,N,0.194,K,A*35
$GNGNS,043423.00,0419.77987,S,05539.84989,E,AA,12,0.91,28.9,-47.6,,*63
$GNGGA,043423.00,0419.77987,S,05539.84989,E,1,12,0.91,28.9,M,-47.6,M,,*49
$GNGSA,A,3,24,20,11,05,13,15,22,12,14,,,,2.11,0.91,1.90*1F
$GNGSA,A,3,80,73,85,,,,,,,,,,2.11,0.91,1.90*1F
$GPGSV,5,1,18,05,51,151,23,06,03,028,,11,34,019,17,12,23,353,16*77
$GPGSV,5,2,18,13,24,167,23,14,08,120,11,15,27,203,21,18,14,223,*70
$GPGSV,5,3,18,20,51,087,31,22,20,103,13,24,63,271,25,25,01,330,*79
$GPGSV,5,4,18,29,11,288,,36,52,277,,40,86,350,,41,58,082,*76
$GPGSV,5,5,18,49,32,274,,50,10,089,*78
$GLGSV,3,1,09,69,11,135,,70,13,197,,73,45,006,24,74,06,343,*68
$GLGSV,3,2,09,79,10,143,,80,53,105,25,83,10,011,,84,44,322,*6C
$GLGSV,3,3,09,85,34,252,23*52
$GNGLL,0419.77987,S,05539.84989,E,043423.00,A,A*6C
$GNGRS,043423.00,1,6.7,-3.2,3.9,-7.6,-1.2,-7.2,-21.1,6.5,-120,,,*5D
$GNGRS,043423.00,1,1.6,-10.4,-8.3,,,,,,,,,*45
$GNGST,043423.00,49,,,,7.8,7.2,24*64
$GNZDA,043423.00,21,05,2025,00,00*79
$GNGBS,043423.00,7.8,7.2,23.7,,,,*61
$GNTXT,01,01,01,More than 100 frame errors, UART RX was disabled*70
b0Xn3"aKx 3Wg(?J {4V^:R
 
Y_EFI-$JWO
P5iS
T,BU"HbnO^4$GNRMC,043424.00,A,0419.77987,S,05539.85006,E,0.232,,210525,,,A*7F
$GNVTG,,T,,M,0.232,N,0.430,K,A*39
$GNGNS,043424.00,0419.77987,S,05539.85006,E,AA,12,0.78,29.0,-47.6,,*64
$GNGGA,043424.00,0419.77987,S,05539.85006,E,1,12,0.78,29.0,M,-47.6,M,,*4E
$GNGSA,A,3,24,20,11,05,13,15,22,12,14,,,,1.59,0.78,1.39*14
$GNGSA,A,3,80,73,85,,,,,,,,,,1.59,0.78,1.39*14
$GPGSV,5,1,18,05,51,151,22,06,03,028,,11,34,019,17,12,23,353,13*73
$GPGSV,5,2,18,13,24,167,22,14,08,120,08,15,27,203,22,18,14,223,*7A
$GPGSV,5,3,18,20,51,087,32,22,20,103,14,24,63,271,26,25,01,330,*7E
$GPGSV,5,4,18,29,11,288,,36,52,277,,40,86,350,,41,58,082,*76
$GPGSV,5,5,18,49,32,274,,50,10,089,*78
$GLGSV,3,1,09,69,11,135,,70,13,197,,73,45,006,24,74,06,343,*68
$GLGSV,3,2,09,79,10,143,,80,53,105,24,83,10,011,,84,44,322,*6D
$GLGSV,3,3,09,85,34,252,23*52
$GNGLL,0419.77987,S,05539.85006,E,043424.00,A,A*64
$GNGRS,043424.00,1,5.0,-2.5,1.3,-8.6,-2.6,-8.6,13.2,8.4,25.1,,,*75
$GNGRS,043424.00,1,4.8,-12.4,-9.5,,,,,,,,,*4C
$GNGST,043424.00,443098,,,,7.8,7.1,24*6F
$GNZDA,043424.00,21,05,2025,00,00*7E
$GNGBS,043424.00,7.8,7.1,23.5,,,,*67
$GNTXT,01,01,01,More than 100 frame errors, UART RX was disabled*70
b0Xn3"ax3Wtg?J {4V^:R
 
Y_EFI-JWO
P5itS
T,BU"bnOF$GNRMC,043425.00,A,0419.77991,S,05539.85014,E,0.195,,210525,,,A*74
$GNVTG,,T,,M,0.195,N,0.362,K,A*37
$GNGNS,043425.00,0419.77991,S,05539.85014,E,AA,12,0.78,29.0,-47.6,,*61
$GNGGA,043425.00,0419.77991,S,05539.85014,E,1,12,0.78,29.0,M,-47.6,M,,*4B
$GNGSA,A,3,24,20,11,05,13,15,22,12,14,,,,1.59,0.78,1.39*14
$GNGSA,A,3,80,73,85,,,,,,,,,,1.59,0.78,1.39*14
$GPGSV,5,1,18,05,51,151,22,06,03,028,,11,34,019,16,12,23,353,12*73
$GPGSV,5,2,18,13,24,167,21,14,08,120,12,15,27,203,21,18,14,223,*71
$GPGSV,5,3,18,20,51,087,31,22,20,103,15,24,63,271,26,25,01,330,*7C
$GPGSV,5,4,18,29,11,288,,36,52,277,,40,86,350,,41,58,082,*76
$GPGSV,5,5,18,49,32,274,,50,10,089,*78
$GLGSV,3,1,09,69,11,135,,70,13,197,,73,45,006,25,74,06,343,*69
$GLGSV,3,2,09,79,10,143,,80,53,105,25,83,10,011,,84,44,322,*6C
$GLGSV,3,3,09,85,34,252,23*52
$GNGLL,0419.77991,S,05539.85014,E,043425.00,A,A*61
$GNGRS,043425.00,1,2.6,-6.5,-0.3,-10.6,-2.6,-8.0,11.7,9.0,25.0,,,*61
$GNGRS,043425.00,1,3.7,-13.1,-8.2,,,,,,,,,*47
$GNGST,043425.00,443098,,,,7.7,7.0,23*67
$GNZDA,043425.00,21,05,2025,00,00*7F
$GNGBS,043425.00,7.7,7.0,23.1,,,,*6C
$GNTXT,01,01,01,More than 100 frame errors, UART RX was disabled*70
b0Xn3"aD6x3Wg?MJ {4V^:R
 
Y_EFI-JWO
P5i'S
T,BU"ibnO.f$GNRMC,043426.00,A,0419.77988,S,05539.85024,E,0.156,,210525,,,A*73
$GNVTG,,T,,M,0.156,N,0.290,K,A*34
$GNGNS,043426.00,0419.77988,S,05539.85024,E,AA,12,0.78,29.0,-47.6,,*69
$GNGGA,043426.00,0419.77988,S,05539.85024,E,1,12,0.78,29.0,M,-47.6,M,,*43
$GNGSA,A,3,24,20,11,05,13,15,22,12,14,,,,1.59,0.78,1.39*14
$GNGSA,A,3,80,73,85,,,,,,,,,,1.59,0.78,1.39*14
$GPGSV,5,1,18,05,51,151,23,06,03,028,,11,34,019,14,12,23,353,12*70
$GPGSV,5,2,18,13,24,167,22,14,08,120,12,15,27,203,21,18,14,223,*72
$GPGSV,5,3,18,20,51,087,30,22,20,103,14,24,63,271,26,25,01,330,*7C
$GPGSV,5,4,18,29,11,288,,36,52,277,,40,86,350,,41,58,082,*76
$GPGSV,5,5,18,49,32,274,,50,10,089,*78
$GLGSV,3,1,09,69,11,135,,70,13,197,,73,45,006,24,74,06,343,*68
$GLGSV,3,2,09,79,10,143,,80,53,105,27,83,10,011,,84,44,322,*6E
$GLGSV,3,3,09,85,34,252,24*55
$GNGLL,0419.77988,S,05539.85024,E,043426.00,A,A*69
$GNGRS,043426.00,1,3.3,-3.1,-0.6,-8.1,-4.6,-4.9,11.9,10.9,-5.5,,,*7A
$GNGRS,043426.00,1,2.9,-13.0,-8.0,,,,,,,,,*48
$GNGST,043426.00,59,,,,7.7,6.8,23*63
$GNZDA,043426.00,21,05,2025,00,00*7C
$GNGBS,043426.00,7.7,6.8,22.6,,,,*60
$GNTXT,01,01,01,More than 100 frame errors, UART RX was disabled*70
b0Xn3"Habx'3Wg?DJ {4V^:R
 
Y_EFI-JWO
P5iS
T,BU">YbnO>l$GNRMC,043427.00,A,0419.77985,S,05539.85034,E,0.235,,210525,,,A*78
$GNVTG,,T,,M,0.235,N,0.434,K,A*3A
$GNGNS,043427.00,0419.77985,S,05539.85034,E,AA,12,0.80,28.9,-47.6,,*6B
$GNGGA,043427.00,0419.77985,S,05539.85034,E,1,12,0.80,28.9,M,-47.6,M,,*41
$GNGSA,A,3,24,20,11,05,13,15,22,12,14,,,,1.83,0.80,1.64*1C
$GNGSA,A,3,80,73,85,,,,,,,,,,1.83,0.80,1.64*1C
$GPGSV,5,1,18,05,51,151,26,06,03,028,,11,34,019,12,12,23,353,15*74
$GPGSV,5,2,18,13,24,167,23,14,08,120,11,15,27,203,20,18,14,223,*71
$GPGSV,5,3,18,20,51,087,29,22,20,103,13,24,63,271,24,25,01,330,*71
$GPGSV,5,4,18,29,11,288,,36,52,277,,40,86,350,,41,58,082,*76
$GPGSV,5,5,18,49,32,274,,50,10,089,*78
$GLGSV,3,1,09,69,11,135,,70,13,197,,73,45,006,24,74,06,343,*68
$GLGSV,3,2,09,79,10,143,,80,53,105,29,83,10,011,,84,44,322,*60
$GLGSV,3,3,09,85,34,252,23*52
$GNGLL,0419.77985,S,05539.85034,E,043427.00,A,A*64
$GNGRS,043427.00,1,5.8,-2.3,-1.8,-10.6,-5.6,-4.7,11.9,11.2,25.1,,,*5A
$GNGRS,043427.00,1,0.2,-11.2,-7.1,,,,,,,,,*4E
$GNGST,043427.00,52,,,,7.5,6.8,22*6A
$GNZDA,043427.00,21,05,2025,00,00*7D
$GNGBS,043427.00,7.5,6.8,22.3,,,,*66
$GNTXT,01,01,01,More than 100 frame errors, UART RX was disabled*70
b0Xpn3"aVx3Wxg ?J {4V^:R
 
Y_EFI-JWO
P5i"S
T,BU"bpnO$GNRMC,043428.00,A,0419.77982,S,05539.85049,E,0.424,,210525,,,A*7C
$GNVTG,,T,,M,0.424,N,0.786,K,A*36
$GNGNS,043428.00,0419.77982,S,05539.85049,E,AA,12,0.78,29.0,-47.6,,*66
$GNGGA,043428.00,0419.77982,S,05539.85049,E,1,12,0.78,29.0,M,-47.6,M,,*4C
$GNGSA,A,3,24,20,11,05,13,15,22,12,14,,,,1.59,0.78,1.39*14
$GNGSA,A,3,80,73,85,,,,,,,,,,1.59,0.78,1.39*14
$GPGSV,5,1,18,05,51,151,24,06,03,028,,11,34,019,15,12,23,353,15*71
$GPGSV,5,2,18,13,24,167,24,14,08,120,09,15,27,203,20,18,14,223,*7F
$GPGSV,5,3,18,20,51,087,28,22,20,103,11,24,63,271,25,25,01,330,*73
$GPGSV,5,4,18,29,11,288,,36,52,277,,40,86,350,,41,58,082,*76
$GPGSV,5,5,18,49,32,274,,50,10,089,*78
$GLGSV,3,1,09,69,11,135,,70,13,197,,73,45,006,24,74,06,343,*68
$GLGSV,3,2,09,79,10,143,,80,53,105,28,83,10,011,,84,44,322,*61
$GLGSV,3,3,09,85,34,252,23*52
$GNGLL,0419.77982,S,05539.85049,E,043428.00,A,A*66
$GNGRS,043428.00,1,7.4,1.2,-2.9,-8.4,-5.7,-5.8,13.1,11.1,25.0,,,*4A
$GNGRS,043428.00,1,0.3,-10.0,-6.3,,,,,,,,,*40
$GNGST,043428.00,3434011,,,,7.5,6.7,22*5D
$GNZDA,043428.00,21,05,2025,00,00*72
$GNGBS,043428.00,7.5,6.7,22.1,,,,*64
$GNTXT,01,01,01,More than 100 frame errors, UART RX was disabled*70
b0XXn3"a2
x]3W@g?J {4V^:R
 
Y_EFI-JWO
P5iS
T,BU"bXnO9$GNRMC,043429.00,A,0419.77988,S,05539.85047,E,0.505,,210525,,,A*7B
$GNVTG,,T,,M,0.505,N,0.935,K,A*32
$GNGNS,043429.00,0419.77988,S,05539.85047,E,AA,12,0.78,29.5,-47.6,,*66
$GNGGA,043429.00,0419.77988,S,05539.85047,E,1,12,0.78,29.5,M,-47.6,M,,*4C
$GNGSA,A,3,24,20,11,05,13,15,22,12,14,,,,1.59,0.78,1.39*14
$GNGSA,A,3,80,73,85,,,,,,,,,,1.59,0.78,1.39*14
$GPGSV,5,1,18,05,51,151,24,06,03,028,,11,34,019,18,12,23,353,17*7E
$GPGSV,5,2,18,13,24,167,24,14,08,120,10,15,27,203,20,18,14,223,*77
$GPGSV,5,3,18,20,51,087,29,22,20,103,13,24,63,271,27,25,01,330,*72
$GPGSV,5,4,18,29,11,288,,36,52,277,,40,86,350,,41,58,082,*76
$GPGSV,5,5,18,49,32,274,,50,10,089,*78
$GLGSV,3,1,09,69,11,135,,70,13,197,,73,45,006,24,74,06,343,*68
$GLGSV,3,2,09,79,10,143,,80,53,105,25,83,10,011,,84,44,322,*6C
$GLGSV,3,3,09,85,34,252,21*50
$GNGLL,0419.77988,S,05539.85047,E,043429.00,A,A*63
$GNGRS,043429.00,1,6.5,0.6,-3.0,-8.0,-7.2,-4.2,14.3,10.1,-10.2,,,*63
$GNGRS,043429.00,1,7.4,-8.1,-6.0,,,,,,,,,*7A
$GNGST,043429.00,58,,,,7.4,6.6,22*61
$GNZDA,043429.00,21,05,2025,00,00*73
$GNGBS,043429.00,7.4,6.6,21.6,,,,*61
$GNTXT,01,01,01,More than 100 frame errors, UART RX was disabled*70
b0X@n3""kaTx3Wg?J {4V^:R
 
Y_EFI-JWO
P5i5S
T,BU"yP2b@nO $GNRMC,043430.00,A,0419.77969,S,05539.85064,E,0.237,,210525,,,A*7B
$GNVTG,,T,,M,0.237,N,0.439,K,A*35
$GNGNS,043430.00,0419.77969,S,05539.85064,E,AA,12,0.78,28.8,-47.6,,*6C
$GNGGA,043430.00,0419.77969,S,05539.85064,E,1,12,0.78,28.8,M,-47.6,M,,*46
$GNGSA,A,3,24,20,11,05,13,15,22,12,14,,,,1.59,0.78,1.39*14
$GNGSA,A,3,80,73,85,,,,,,,,,,1.59,0.78,1.39*14
$GPGSV,5,1,18,05,51,151,22,06,03,028,,11,34,019,19,12,23,353,16*78
$GPGSV,5,2,18,13,24,167,23,14,08,120,08,15,27,203,21,18,14,223,*78
$GPGSV,5,3,18,20,51,087,29,22,20,103,14,24,63,271,26,25,01,330,*74
$GPGSV,5,4,18,29,11,288,,36,52,277,,40,86,350,,41,58,082,*76
$GPGSV,5,5,18,49,32,274,,50,10,089,*78
$GLGSV,3,1,09,69,11,135,,70,13,197,,73,45,006,21,74,06,343,*6D
$GLGSV,3,2,09,79,10,143,,80,53,105,22,83,10,011,,84,44,322,*6B
$GLGSV,3,3,09,85,34,252,21*50
$GNGLL,0419.77969,S,05539.85064,E,043430.00,A,A*65
$GNGRS,043430.00,1,7.5,4.5,-4.1,-7.3,-6.8,-5.5,18.2,9.1,24.8,,,*7F
$GNGRS,043430.00,1,10.8,-5.8,-6.5,,,,,,,,,*49
$GNGST,043430.00,3434011,,,,7.3,6.5,21*53
$GNZDA,043430.00,21,05,2025,00,00*7B
$GNGBS,043430.00,7.3,6.5,21.3,,,,*68
$GNTXT,01,01,01,More than 100 frame errors, UART RX was disabled*70
b0X(n3"a1xs3WUg?J {4V^:R
 
Y_kEFI-`JWO
P5iS
T,BU"KIb(nO$$GNRMC,043431.00,A,0419.77961,S,05539.85067,E,0.065,,210525,,,A*74
$GNVTG,,T,,M,0.065,N,0.120,K,A*3D
$GNGNS,043431.00,0419.77961,S,05539.85067,E,AA,12,0.78,29.0,-47.6,,*6F
$GNGGA,043431.00,0419.77961,S,05539.85067,E,1,12,0.78,29.0,M,-47.6,M,,*45
$GNGSA,A,3,24,20,11,05,13,15,22,12,14,,,,1.59,0.78,1.39*14
$GNGSA,A,3,80,73,85,,,,,,,,,,1.59,0.78,1.39*14
$GPGSV,5,1,18,05,51,151,23,06,03,028,,11,34,019,18,12,23,353,13*7D
$GPGSV,5,2,18,13,24,167,22,14,08,120,08,15,27,203,20,18,14,223,*78
$GPGSV,5,3,18,20,51,087,27,22,20,103,12,24,63,271,25,25,01,330,*7F
$GPGSV,5,4,18,29,11,288,,36,52,277,,40,86,350,,41,58,082,*76
$GPGSV,5,5,18,49,32,274,,50,10,089,*78
$GLGSV,3,1,09,69,11,135,,70,13,197,,73,45,006,23,74,06,343,*6F
$GLGSV,3,2,09,79,10,143,,80,53,105,19,83,10,011,,84,44,322,*63
$GLGSV,3,3,09,85,34,252,21*50
$GNGLL,0419.77961,S,05539.85067,E,043431.00,A,A*6F
$GNGRS,043431.00,1,7.2,8.5,-5.7,-8.1,-7.2,-4.0,17.4,9.4,25.1,,,*74
$GNGRS,043431.00,1,9.9,-4.2,-6.9,,,,,,,,,*76
$GNGST,043431.00,3434011,,,,7.3,6.5,21*52
$GNZDA,043431.00,21,05,2025,00,00*7A
$GNGBS,043431.00,7.3,6.5,21.2,,,,*68
$GNTXT,01,01,01,More than 100 frame errors, UART RX was disabled*70
b0Xn3"aSNx(43Wg?%J {4V^:R
 
Y
_PEFI-JWO
P5iS
T,BU"bnO(uq$GNRMC,043432.00,A,0419.77925,S,05539.85074,E,0.643,,210525,,,A*77
$GNVTG,,T,,M,0.643,N,1.191,K,A*34
$GNGNS,043432.00,0419.77925,S,05539.85074,E,AA,12,0.78,27.9,-47.6,,*69
$GNGGA,043432.00,0419.77925,S,05539.85074,E,1,12,0.78,27.9,M,-47.6,M,,*43
$GNGSA,A,3,24,20,11,05,13,15,22,12,14,,,,1.59,0.78,1.39*14
$GNGSA,A,3,80,73,85,,,,,,,,,,1.59,0.78,1.39*14
$GPGSV,5,1,18,05,51,151,25,06,03,028,,11,34,019,16,12,23,353,12*74
$GPGSV,5,2,18,13,24,167,22,14,08,120,11,15,27,203,17,18,14,223,*74
$GPGSV,5,3,18,20,51,087,25,22,20,103,12,24,63,271,25,25,01,330,*7D
$GPGSV,5,4,18,29,11,288,,36,52,277,,40,86,350,,41,58,082,*76
$GPGSV,5,5,18,49,32,274,,50,10,089,*78
$GLGSV,3,1,09,69,11,135,,70,13,197,,73,45,006,22,74,06,343,*6E
$GLGSV,3,2,09,79,10,143,,80,53,105,18,83,10,011,,84,44,322,*62
$GLGSV,3,3,09,85,34,252,21*50
$GNGLL,0419.77925,S,05539.85074,E,043432.00,A,A*6E
$GNGRS,043432.00,1,8.1,7.5,-5.3,-7.6,-6.9,-4.6,17.6,8.5,105,,,*5A
$GNGRS,043432.00,1,9.8,-3.7,-7.4,,,,,,,,,*7A
$GNGST,043432.00,66,,,,7.3,6.5,21*61
$GNZDA,043432.00,21,05,2025,00,00*79
$GNGBS,043432.00,7.3,6.5,21.0,,,,*69
$GNTXT,01,01,01,More than 100 frame errors, UART RX was disabled*70
b0Xn3"
a5x3WZg?/J {4V^:R
 
Y_EFI-WJWO
P5iS
T,BU"(bnO,L$GNRMC,043433.00,A,0419.77898,S,05539.85079,E,0.658,,210525,,,A*76
$GNVTG,,T,,M,0.658,N,1.219,K,A*3D
$GNGNS,043433.00,0419.77898,S,05539.85079,E,AA,12,0.78,28.3,-47.6,,*67
$GNGGA,043433.00,0419.77898,S,05539.85079,E,1,12,0.78,28.3,M,-47.6,M,,*4D
$GNGSA,A,3,24,20,11,05,13,15,22,12,14,,,,1.59,0.78,1.39*14
$GNGSA,A,3,80,73,85,,,,,,,,,,1.59,0.78,1.39*14
$GPGSV,5,1,18,05,51,151,25,06,03,028,,11,34,019,11,12,23,353,10*71
$GPGSV,5,2,18,13,24,167,23,14,08,120,07,15,27,203,13,18,14,223,*76
$GPGSV,5,3,18,20,51,087,24,22,20,103,09,24,63,271,25,25,01,330,*76
$GPGSV,5,4,18,29,11,288,,36,52,277,,40,86,350,,41,58,082,*76
$GPGSV,5,5,18,49,32,274,,50,10,089,*78
$GLGSV,3,1,09,69,11,135,,70,13,197,,73,45,006,21,74,06,343,*6D
$GLGSV,3,2,09,79,10,143,,80,53,105,19,83,10,011,,84,44,322,*63
$GLGSV,3,3,09,85,34,252,23*52
$GNGLL,0419.77898,S,05539.85079,E,043433.00,A,A*65
$GNGRS,043433.00,1,5.6,6.0,-2.4,-8.0,-8.9,-3.2,17.5,8.2,25.2,,,*7A
$GNGRS,043433.00,1,9.7,-4.3,-7.3,,,,,,,,,*70
$GNGST,043433.00,3436024,,,,7.4,6.6,21*50
$GNZDA,043433.00,21,05,2025,00,00*78
$GNGBS,043433.00,7.4,6.6,21.1,,,,*6D
$GNTXT,01,01,01,More than 100 frame errors, UART RX was disabled*70
b0Xn3"a6~x$3Wg?CJ {4V^:R
 
Y_EFI-JWO
P5iS
T,BU"|bnOn0$2$GNRMC,043434.00,A,0419.77878,S,05539.85085,E,0.587,,210525,,,A*7D
$GNVTG,,T,,M,0.587,N,1.087,K,A*39
$GNGNS,043434.00,0419.77878,S,05539.85085,E,AA,12,0.78,28.6,-47.6,,*68
$GNGGA,043434.00,0419.77878,S,05539.85085,E,1,12,0.78,28.6,M,-47.6,M,,*42
$GNGSA,A,3,24,20,11,05,13,15,22,12,14,,,,1.59,0.78,1.39*14
$GNGSA,A,3,80,73,85,,,,,,,,,,1.59,0.78,1.39*14
$GPGSV,5,1,18,05,51,151,26,06,03,028,,11,34,019,12,12,23,353,12*73
$GPGSV,5,2,18,13,24,167,24,14,08,120,09,15,27,203,12,18,14,223,*7E
$GPGSV,5,3,18,20,51,087,23,22,20,103,12,24,63,271,26,25,01,330,*78
$GPGSV,5,4,18,29,11,288,,36,52,277,,40,86,350,,41,58,082,*76
$GPGSV,5,5,18,49,32,274,,50,10,089,*78
$GLGSV,3,1,09,69,11,135,,70,13,197,,73,45,006,20,74,06,343,*6C
$GLGSV,3,2,09,79,10,143,,80,53,105,17,83,10,011,,84,44,322,*6D
$GLGSV,3,3,09,85,34,252,24*55
$GNGLL,0419.77878,S,05539.85085,E,043434.00,A,A*6F
$GNGRS,043434.00,1,0.7,5.0,-2.6,-6.4,-9.0,-2.2,17.4,8.2,24.9,,,*70
$GNGRS,043434.00,1,4.3,-3.6,-9.9,,,,,,,,,*78
$GNGST,043434.00,3437118,,,,7.5,6.6,21*59
$GNZDA,043434.00,21,05,2025,00,00*7F
$GNGBS,043434.00,7.5,6.6,21.2,,,,*68
$GNTXT,01,01,01,More than 100 frame errors, UART RX was disabled*70
b0Xn3#"aG
xc3Wg?J {4V^:R
 
Y_EFI-JWO
P5iS
T,BU"96bnOV4$GNRMC,043435.00,A,0419.77879,S,05539.85090,E,0.121,,210525,,,A*71
$GNVTG,,T,,M,0.121,N,0.224,K,A*3B
$GNGNS,043435.00,0419.77879,S,05539.85090,E,AA,12,0.78,29.3,-47.6,,*68
$GNGGA,043435.00,0419.77879,S,05539.85090,E,1,12,0.78,29.3,M,-47.6,M,,*42
$GNGSA,A,3,24,20,11,05,13,15,22,12,14,,,,1.59,0.78,1.39*14
$GNGSA,A,3,80,73,85,,,,,,,,,,1.59,0.78,1.39*14
$GPGSV,5,1,18,05,51,151,26,06,03,028,,11,34,019,13,12,23,353,14*74
$GPGSV,5,2,18,13,24,167,25,14,08,120,10,15,27,203,11,18,14,223,*74
$GPGSV,5,3,18,20,51,087,21,22,20,103,09,24,63,271,27,25,01,330,*71
$GPGSV,5,4,18,29,11,288,,36,52,277,,40,86,350,,41,58,082,*76
$GPGSV,5,5,18,49,32,274,,50,10,089,*78
$GLGSV,3,1,09,69,11,135,,70,13,197,,73,45,006,18,74,06,343,*67
$GLGSV,3,2,09,79,10,143,,80,53,105,16,83,10,011,,84,44,322,*6C
$GLGSV,3,3,09,85,34,252,23*52
$GNGLL,0419.77879,S,05539.85090,E,043435.00,A,A*6B
$GNGRS,043435.00,1,-1.2,9.6,-2.5,-7.3,-7.6,1.0,-10.7,5.8,-16.2,,,*7A
$GNGRS,043435.00,1,7.2,-3.6,-7.1,,,,,,,,,*7D
$GNGST,043435.00,65,,,,7.5,6.6,21*60
$GNZDA,043435.00,21,05,2025,00,00*7E
$GNGBS,043435.00,7.5,6.6,20.9,,,,*63
$GNTXT,01,01,01,More than 100 frame errors, UART RX was disabled*70
b0Xn3"$ae
xc3Wg?mJ {4V^:R
 
Y_EFI-JWO
P5iS
T,BU",bnO>8$GNRMC,043436.00,A,0419.77860,S,05539.85102,E,0.298,,210525,,,A*71
$GNVTG,,T,,M,0.298,N,0.552,K,A*3C
$GNGNS,043436.00,0419.77860,S,05539.85102,E,AA,12,0.78,29.4,-47.6,,*6E
$GNGGA,043436.00,0419.77860,S,05539.85102,E,1,12,0.78,29.4,M,-47.6,M,,*44
$GNGSA,A,3,24,20,11,05,13,15,22,12,14,,,,1.59,0.78,1.39*14
$GNGSA,A,3,80,73,85,,,,,,,,,,1.59,0.78,1.39*14
$GPGSV,5,1,18,05,51,151,25,06,03,028,,11,34,019,13,12,23,353,13*70
$GPGSV,5,2,18,13,24,167,24,14,08,120,10,15,27,203,09,18,14,223,*7C
$GPGSV,5,3,18,20,51,087,19,22,20,103,11,24,63,271,27,25,01,330,*73
$GPGSV,5,4,18,29,11,288,,36,52,277,,40,86,350,,41,58,082,*76
$GPGSV,5,5,18,49,32,274,,50,10,089,*78
$GLGSV,3,1,09,69,11,135,,70,13,197,,73,45,006,17,74,06,343,*68
$GLGSV,3,2,09,79,10,143,,80,53,105,18,83,10,011,,84,44,322,*62
$GLGSV,3,3,09,85,34,252,22*53
$GNGLL,0419.77860,S,05539.85102,E,043436.00,A,A*6A
$GNGRS,043436.00,1,-1.5,9.2,-4.8,-7.7,-6.7,1.0,12.8,11.6,25.3,,,*42
$GNGRS,043436.00,1,6.7,-3.2,-7.2,,,,,,,,,*7D
$GNGST,043436.00,4857320,,,,7.6,6.6,21*5C
$GNZDA,043436.00,21,05,2025,00,00*7D
$GNGBS,043436.00,7.6,6.6,21.0,,,,*6B
$GNTXT,01,01,01,More than 100 frame errors, UART RX was disabled*70
b0Xn3["acx3Wg?J {4!V^:R
 
Y_EFI-JWO
P5iS
T,BU"0_bnO&<j$GNRMC,043437.00,A,0419.77844,S,05539.85123,E,0.469,,210525,,,A*7D
$GNVTG,,T,,M,0.469,N,0.869,K,A*31
$GNGNS,043437.00,0419.77844,S,05539.85123,E,AA,11,0.85,29.8,-47.6,,*67
$GNGGA,043437.00,0419.77844,S,05539.85123,E,1,11,0.85,29.8,M,-47.6,M,,*4D
$GNGSA,A,3,24,20,11,05,13,22,12,14,,,,,1.66,0.85,1.42*12
$GNGSA,A,3,80,73,85,,,,,,,,,,1.66,0.85,1.42*16
$GPGSV,5,1,18,05,51,151,26,06,03,028,,11,34,019,11,12,23,353,17*75
$GPGSV,5,2,18,13,24,167,22,14,08,120,12,15,27,203,,18,14,223,*71
$GPGSV,5,3,18,20,51,087,18,22,20,103,13,24,63,271,27,25,01,330,*70
$GPGSV,5,4,18,29,11,288,,36,52,277,,40,86,350,33,41,58,082,*76
$GPGSV,5,5,18,49,32,274,,50,10,089,*78
$GLGSV,3,1,09,69,11,135,,70,13,197,,73,45,006,19,74,06,343,*66
$GLGSV,3,2,09,79,10,143,,80,53,105,21,83,10,011,,84,44,322,*68
$GLGSV,3,3,09,85,34,252,21*50
$GNGLL,0419.77844,S,05539.85123,E,043437.00,A,A*6E
$GNGRS,043437.00,1,-3.3,7.9,-6.1,-6.8,-6.1,12.5,11.2,25.4,,,,*60
$GNGRS,043437.00,1,4.7,-2.7,-7.4,,,,,,,,,*7C
$GNGST,043437.00,5072661,,,,7.8,6.7,21*5C
$GNZDA,043437.00,21,05,2025,00,00*7C
$GNGBS,043437.00,7.8,6.7,21.2,,,,*67
$GNTXT,01,01,01,More than 100 frame errors, UART RX was disabled*70
b0Xn3D"a8x3Wgf?0J {4#V^:R
 
Y_EFI-JWO
P5iS
T,BU"(bnO@$GNRMC,043438.00,A,0419.77804,S,05539.85152,E,0.711,,210525,,,A*7C
$GNVTG,,T,,M,0.711,N,1.317,K,A*3E
$GNGNS,043438.00,0419.77804,S,05539.85152,E,AA,11,0.85,29.3,-47.6,,*61
$GNGGA,043438.00,0419.77804,S,05539.85152,E,1,11,0.85,29.3,M,-47.6,M,,*4B
$GNGSA,A,3,24,20,11,05,13,22,12,14,,,,,1.66,0.85,1.42*12
$GNGSA,A,3,80,73,85,,,,,,,,,,1.66,0.85,1.42*16
$GPGSV,5,1,18,05,51,151,30,06,03,028,,11,34,019,12,12,23,353,16*70
$GPGSV,5,2,18,13,24,167,21,14,08,120,08,15,27,203,,18,14,223,*79
$GPGSV,5,3,18,20,51,087,16,22,20,103,16,24,63,271,28,25,01,330,*74
$GPGSV,5,4,18,29,11,288,,36,52,277,,40,86,350,35,41,58,082,*70
$GPGSV,5,5,18,49,32,274,,50,10,089,*78
$GLGSV,3,1,09,69,11,135,,70,13,197,,73,45,006,21,74,06,343,*6D
$GLGSV,3,2,09,79,10,143,,80,53,105,20,83,10,011,,84,44,322,*69
$GLGSV,3,3,09,85,34,252,21*50
$GNGLL,0419.77804,S,05539.85152,E,043438.00,A,A*63
$GNGRS,043438.00,1,-2.1,9.6,-5.7,-7.0,-4.6,6.1,10.1,-8.2,,,,*43
$GNGRS,043438.00,1,4.2,-2.5,-7.3,,,,,,,,,*73
$GNGST,043438.00,63,,,,7.8,6.7,21*67
$GNZDA,043438.00,21,05,2025,00,00*73
$GNGBS,043438.00,7.8,6.7,20.8,,,,*63
$GNTXT,01,01,01,More than 100 frame errors, UART RX was disabled*70
b0Xhn3*"5ac
x3Whg?J {4$V^:R
 
Y_EFI-uJWO
P5iQS
T,BU"9lbhnOC[7$GNRMC,043439.00,A,0419.77804,S,05539.85147,E,0.151,,210525,,,A*7B
$GNVTG,,T,,M,0.151,N,0.279,K,A*34
$GNGNS,043439.00,0419.77804,S,05539.85147,E,AA,11,0.85,29.0,-47.6,,*67
$GNGGA,043439.00,0419.77804,S,05539.85147,E,1,11,0.85,29.0,M,-47.6,M,,*4D
$GNGSA,A,3,24,20,11,05,13,22,12,14,,,,,1.66,0.85,1.42*12
$GNGSA,A,3,80,73,85,,,,,,,,,,1.66,0.85,1.42*16
$GPGSV,5,1,18,05,51,151,28,06,03,028,,11,34,019,15,12,23,353,15*7D
$GPGSV,5,2,18,13,24,167,23,14,08,120,10,15,27,203,,18,14,223,*72
$GPGSV,5,3,18,20,51,087,17,22,20,103,15,24,63,271,29,25,01,330,*77
$GPGSV,5,4,18,29,11,288,,36,52,277,,40,86,350,36,41,58,082,*73
$GPGSV,5,5,18,49,32,274,,50,10,089,*78
$GLGSV,3,1,09,69,11,135,,70,13,197,,73,45,006,20,74,06,343,*6C
$GLGSV,3,2,09,79,10,143,,80,53,105,19,83,10,011,,84,44,322,*63
$GLGSV,3,3,09,85,34,252,21*50
$GNGLL,0419.77804,S,05539.85147,E,043439.00,A,A*66
$GNGRS,043439.00,1,-2.2,11.3,-4.6,-7.3,-4.1,13.1,7.1,25.2,,,,*69
$GNGRS,043439.00,1,3.4,-1.4,-3.4,,,,,,,,,*72
$GNGST,043439.00,3587366,,,,7.8,6.8,21*56
$GNZDA,043439.00,21,05,2025,00,00*72
$GNGBS,043439.00,7.8,6.8,20.8,,,,*6D
$GNTXT,01,01,01,More than 100 frame errors, UART RX was disabled*70
b0XPn3
"a)x3Wg?J {4%V^:R
 
Y_EFI-JWO
P5i6S
T,BU"\.bPnOG3$GNRMC,043440.00,A,0419.77785,S,05539.85167,E,0.274,,210525,,,A*75
$GNVTG,,T,,M,0.274,N,0.507,K,A*3E
$GNGNS,043440.00,0419.77785,S,05539.85167,E,AA,11,0.85,28.4,-47.6,,*68
$GNGGA,043440.00,0419.77785,S,05539.85167,E,1,11,0.85,28.4,M,-47.6,M,,*42
$GNGSA,A,3,24,20,11,05,13,22,12,14,,,,,1.66,0.85,1.42*12
$GNGSA,A,3,80,73,85,,,,,,,,,,1.66,0.85,1.42*16
$GPGSV,5,1,18,05,51,151,28,06,03,028,,11,34,019,16,12,23,353,17*7C
$GPGSV,5,2,18,13,24,167,22,14,08,120,08,15,27,203,,18,14,223,*7A
$GPGSV,5,3,18,20,51,087,17,22,20,103,12,24,63,271,29,25,01,330,*70
$GPGSV,5,4,18,29,11,288,,36,52,277,,40,86,350,37,41,58,082,*72
$GPGSV,5,5,18,49,32,274,,50,10,089,*78
$GLGSV,3,1,09,69,11,135,,70,13,197,,73,45,006,21,74,06,343,*6D
$GLGSV,3,2,09,79,10,143,,80,53,105,19,83,10,011,,84,44,322,*63
$GLGSV,3,3,09,85,34,252,22*53
$GNGLL,0419.77785,S,05539.85167,E,043440.00,A,A*6C
$GNGRS,043440.00,1,-2.3,14.2,-5.2,-7.6,-4.7,12.6,2.7,24.5,,,,*67
$GNGRS,043440.00,1,3.1,-3.5,-1.6,,,,,,,,,*7A
$GNGST,043440.00,3588136,,,,7.7,6.8,21*5F
$GNZDA,043440.00,21,05,2025,00,00*7C
$GNGBS,043440.00,7.7,6.8,20.7,,,,*63
$GNTXT,01,01,01,More than 100 frame errors, UART RX was disabled*70
b0X8n3q"a
x3Wog?+J {4$V^:R
 
Y_EFI-JWO
P5iIS
T,BU"Vb8nOK$GNRMC,043441.00,A,0419.77773,S,05539.85169,E,0.123,,210525,,,A*72
$GNVTG,,T,,M,0.123,N,0.228,K,A*35
$GNGNS,043441.00,0419.77773,S,05539.85169,E,AA,11,0.85,27.3,-47.6,,*66
$GNGGA,043441.00,0419.77773,S,05539.85169,E,1,11,0.85,27.3,M,-47.6,M,,*4C
$GNGSA,A,3,24,20,11,05,13,22,12,14,,,,,1.66,0.85,1.42*12
$GNGSA,A,3,80,73,85,,,,,,,,,,1.66,0.85,1.42*16
$GPGSV,5,1,18,05,51,151,29,06,03,028,,11,34,019,18,12,23,353,17*73
$GPGSV,5,2,18,13,24,167,21,14,08,120,10,15,27,203,,18,14,223,*70
$GPGSV,5,3,18,20,51,087,19,22,20,103,11,24,63,271,29,25,01,330,*7D
$GPGSV,5,4,18,29,11,288,,36,52,277,,40,86,350,36,41,58,082,*73
$GPGSV,5,5,18,49,32,274,,50,10,089,*78
$GLGSV,3,1,09,69,11,135,,70,13,197,,73,45,006,21,74,06,343,*6D
$GLGSV,3,2,09,79,10,143,,80,53,105,18,83,10,011,,84,44,322,*62
$GLGSV,3,3,09,85,34,252,20*51
$GNGLL,0419.77773,S,05539.85169,E,043441.00,A,A*6A
$GNGRS,043441.00,1,-2.1,11.3,-7.8,-14.2,-2.5,9.6,1.9,-43.4,,,,*40
$GNGRS,043441.00,1,3.3,-3.4,-0.3,,,,,,,,,*7C
$GNGST,043441.00,62,,,,7.7,6.8,20*69
$GNZDA,043441.00,21,05,2025,00,00*7D
$GNGBS,043441.00,7.7,6.8,20.4,,,,*61
$GNTXT,01,01,01,More than 100 frame errors, UART RX was disabled*70
b0X n3"agx3Wg?J {4$V^:R
 
Y_EFI-sJWO
P5iS
T,BU"37b nOOo$GNRMC,043442.00,A,0419.77756,S,05539.85181,E,0.542,,210525,,,A*73
$GNVTG,,T,,M,0.542,N,1.004,K,A*3B
$GNGNS,043442.00,0419.77756,S,05539.85181,E,AA,11,0.85,27.6,-47.6,,*61
$GNGGA,043442.00,0419.77756,S,05539.85181,E,1,11,0.85,27.6,M,-47.6,M,,*4B
$GNGSA,A,3,24,20,11,05,13,22,12,14,,,,,1.66,0.85,1.42*12
$GNGSA,A,3,80,73,85,,,,,,,,,,1.66,0.85,1.42*16
$GPGSV,5,1,18,05,51,151,28,06,03,028,,11,34,019,20,12,23,353,18*76
$GPGSV,5,2,18,13,24,167,21,14,08,120,11,15,27,203,,18,14,223,*71
$GPGSV,5,3,18,20,51,087,19,22,20,103,12,24,63,271,29,25,01,330,*7E
$GPGSV,5,4,18,29,11,288,,36,52,277,,40,86,350,36,41,58,082,*73
$GPGSV,5,5,18,49,32,274,,50,10,089,*78
$GLGSV,3,1,09,69,11,135,,70,13,197,,73,45,006,20,74,06,343,*6C
$GLGSV,3,2,09,79,10,143,,80,53,105,19,83,10,011,,84,44,322,*63
$GLGSV,3,3,09,85,34,252,17*55
$GNGLL,0419.77756,S,05539.85181,E,043442.00,A,A*68
$GNGRS,043442.00,1,-0.8,9.3,-11.2,-7.9,0.1,13.0,1.0,25.4,,,,*47
$GNGRS,043442.00,1,5.0,-1.4,0.3,,,,,,,,,*55
$GNGST,043442.00,3586856,,,,7.6,6.9,20*5D
$GNZDA,043442.00,21,05,2025,00,00*7E
$GNGBS,043442.00,7.6,6.9,20.4,,,,*62
$GNTXT,01,01,01,More than 100 frame errors, UART RX was disabled*70
b0Xn3"a0x3Wg?qJ {4$V^:R
 
Y_EFI-JWO
P5iS
T,BU"bS+bnOS$GNRMC,043443.00,A,0419.77757,S,05539.85197,E,0.368,,210525,,,A*7A
$GNVTG,,T,,M,0.368,N,0.681,K,A*3F
$GNGNS,043443.00,0419.77757,S,05539.85197,E,AA,11,0.85,27.4,-47.6,,*64
$GNGGA,043443.00,0419.77757,S,05539.85197,E,1,11,0.85,27.4,M,-47.6,M,,*4E
$GNGSA,A,3,24,20,11,05,13,22,12,14,,,,,1.66,0.85,1.42*12
$GNGSA,A,3,80,73,85,,,,,,,,,,1.66,0.85,1.42*16
$GPGSV,5,1,18,05,51,151,26,06,03,028,,11,34,019,19,12,23,353,18*72
$GPGSV,5,2,18,13,24,167,19,14,08,120,08,15,27,203,,18,14,223,*72
$GPGSV,5,3,18,20,51,087,16,22,20,103,14,24,63,271,29,25,01,330,*77
$GPGSV,5,4,18,29,11,288,,36,52,277,,40,86,350,36,41,58,082,*73
$GPGSV,5,5,18,49,32,274,,50,10,089,*78
$GLGSV,3,1,09,69,11,135,,70,13,197,,73,45,006,18,74,06,343,*67
$GLGSV,3,2,09,79,10,143,,80,53,105,19,83,10,011,,84,44,322,*63
$GLGSV,3,3,09,85,34,252,15*57
$GNGLL,0419.77757,S,05539.85197,E,043443.00,A,A*6F
$GNGRS,043443.00,1,-1.4,9.8,-10.6,-8.0,0.0,12.7,0.5,24.9,,,,*4C
$GNGRS,043443.00,1,4.3,0.0,-1.6,,,,,,,,,*57
$GNGST,043443.00,3587040,,,,7.6,7.0,20*5A
$GNZDA,043443.00,21,05,2025,00,00*7F
$GNGBS,043443.00,7.6,7.0,20.3,,,,*6C
$GNTXT,01,01,01,More than 100 frame errors, UART RX was disabled*70
b0Xn3"BaBxs3Wg?J {4"V^:R
 
Y`EFI-JWO
P5iS
T,BU"bnO~W0$GNRMC,043444.00,A,0419.77753,S,05539.85206,E,0.395,,210525,,,A*70
$GNVTG,,T,,M,0.395,N,0.731,K,A*37
$GNGNS,043444.00,0419.77753,S,05539.85206,E,AA,10,0.87,27.4,-47.6,,*6F
$GNGGA,043444.00,0419.77753,S,05539.85206,E,1,10,0.87,27.4,M,-47.6,M,,*45
$GNGSA,A,3,24,20,11,05,13,22,12,,,,,,1.92,0.87,1.71*1E
$GNGSA,A,3,80,73,85,,,,,,,,,,1.92,0.87,1.71*1F
$GPGSV,5,1,18,05,51,151,25,06,03,028,,11,34,019,19,12,23,353,17*7E
$GPGSV,5,2,18,13,24,167,18,14,08,120,06,15,27,203,,18,14,223,*7D
$GPGSV,5,3,18,20,51,087,14,22,20,103,14,24,63,271,30,25,01,330,*7D
$GPGSV,5,4,18,29,11,288,,36,52,277,,40,86,350,34,41,58,082,*71
$GPGSV,5,5,18,49,32,274,,50,10,089,*78
$GLGSV,3,1,09,69,11,135,,70,13,197,,73,45,006,14,74,06,343,*6B
$GLGSV,3,2,09,79,10,143,,80,53,105,21,83,10,011,,84,44,322,*68
$GLGSV,3,3,09,85,34,252,18*5A
$GNGLL,0419.77753,S,05539.85206,E,043444.00,A,A*67
$GNGRS,043444.00,1,-2.4,7.8,-12.1,-0.4,0.2,0.2,0.7,,,,,*68
$GNGRS,043444.00,1,2.8,1.4,0.0,,,,,,,,,*72
$GNGST,043444.00,55,,,,7.6,7.0,20*60
$GNZDA,043444.00,21,05,2025,00,00*78
$GNGBS,043444.00,7.6,7.0,20.2,,,,*6A
$GNTXT,01,01,01,More than 100 frame errors, UART RX was disabled*70
b0Xn3"ax3W3g?(J {4#V^:R
 
Y`EFI-JWO
P5iS
T,BU";5bnOf[j$GNRMC,043445.00,A,0419.77785,S,05539.85211,E,0.351,,210525,,,A*74
$GNVTG,,T,,M,0.351,N,0.650,K,A*39
$GNGNS,043445.00,0419.77785,S,05539.85211,E,AA,10,0.87,27.0,-47.6,,*67
$GNGGA,043445.00,0419.77785,S,05539.85211,E,1,10,0.87,27.0,M,-47.6,M,,*4D
$GNGSA,A,3,24,20,11,05,13,22,12,,,,,,1.92,0.87,1.71*1E
$GNGSA,A,3,80,73,85,,,,,,,,,,1.92,0.87,1.71*1F
$GPGSV,5,1,18,05,51,151,21,06,03,028,,11,34,019,18,12,23,353,16*7A
$GPGSV,5,2,18,13,24,167,19,14,08,120,07,15,27,203,,18,14,223,*7D
$GPGSV,5,3,18,20,51,087,12,22,20,103,13,24,63,271,30,25,01,330,*7C
$GPGSV,5,4,18,29,11,288,,36,52,277,,40,86,350,35,41,58,082,*70
$GPGSV,5,5,18,49,32,274,,50,10,089,*78
$GLGSV,3,1,09,69,11,135,,70,13,197,,73,45,006,11,74,06,343,*6E
$GLGSV,3,2,09,79,10,143,,80,53,105,22,83,10,011,,84,44,322,*6B
$GLGSV,3,3,09,85,34,252,20*51
$GNGLL,0419.77785,S,05539.85211,E,043445.00,A,A*6B
$GNGRS,043445.00,1,-7.3,10.7,-12.9,-6.1,1.7,12.7,0.0,,,,,*6C
$GNGRS,043445.00,1,1.3,1.7,3.1,,,,,,,,,*7A
$GNGST,043445.00,185348,,,,7.7,7.1,20*62
$GNZDA,043445.00,21,05,2025,00,00*79
$GNGBS,043445.00,7.7,7.1,20.2,,,,*6B
$GNTXT,01,01,01,More than 100 frame errors, UART RX was disabled*70
b0Xn3"a2x3Wyg?J {4%V^:R
 
Y`EFI-JWO
P5iS
T,BU"wbnON_B$GNRMC,043446.00,A,0419.77820,S,05539.85198,E,0.553,,210525,,,A*71
$GNVTG,,T,,M,0.553,N,1.024,K,A*39
$GNGNS,043446.00,0419.77820,S,05539.85198,E,AA,11,0.85,26.7,-47.6,,*63
$GNGGA,043446.00,0419.77820,S,05539.85198,E,1,11,0.85,26.7,M,-47.6,M,,*49
$GNGSA,A,3,24,20,11,05,13,22,12,14,,,,,1.66,0.85,1.42*12
$GNGSA,A,3,80,73,85,,,,,,,,,,1.66,0.85,1.42*16
$GPGSV,5,1,18,05,51,151,18,06,03,028,,11,34,019,18,12,23,353,14*72
$GPGSV,5,2,18,13,24,167,20,14,08,120,09,15,27,203,,18,14,223,*79
$GPGSV,5,3,18,20,51,087,18,22,20,103,16,24,63,271,31,25,01,330,*72
$GPGSV,5,4,18,29,11,288,,36,52,277,,40,86,350,37,41,58,082,*72
$GPGSV,5,5,18,49,32,274,,50,10,089,*78
$GLGSV,3,1,09,69,11,135,,70,13,197,,73,45,006,13,74,06,343,*6C
$GLGSV,3,2,09,79,10,143,,80,53,105,22,83,10,011,,84,44,322,*6B
$GLGSV,3,3,09,85,34,252,20*51
$GNGLL,0419.77820,S,05539.85198,E,043446.00,A,A*6A
$GNGRS,043446.00,1,-3.6,6.3,-10.8,-7.8,1.5,12.9,-2.1,25.0,,,,*6D
$GNGRS,043446.00,1,0.1,2.3,2.8,,,,,,,,,*75
$GNGST,043446.00,3617572,,,,7.8,7.3,20*5C
$GNZDA,043446.00,21,05,2025,00,00*7A
$GNGBS,043446.00,7.8,7.3,20.1,,,,*66
$GNTXT,01,01,01,More than 100 frame errors, UART RX was disabled*70
b0Xn3"max3WwgR?J {4$V^:R
 
Y`EFI
-JWO
P5iS
T,BU"kvbnO6ch$GNRMC,043447.00,A,0419.77876,S,05539.85165,E,0.932,,210525,,,A*7A
$GNVTG,,T,,M,0.932,N,1.726,K,A*37
$GNGNS,043447.00,0419.77876,S,05539.85165,E,AA,11,0.85,27.5,-47.6,,*60
$GNGGA,043447.00,0419.77876,S,05539.85165,E,1,11,0.85,27.5,M,-47.6,M,,*4A
$GNGSA,A,3,24,20,11,05,13,22,12,14,,,,,1.66,0.85,1.42*12
$GNGSA,A,3,80,73,85,,,,,,,,,,1.66,0.85,1.42*16
$GPGSV,5,1,18,05,51,151,17,06,03,028,,11,34,019,17,12,23,353,11*77
$GPGSV,5,2,18,13,24,167,20,14,08,120,07,15,27,203,,18,14,223,*77
$GPGSV,5,3,18,20,51,087,22,22,20,103,08,24,63,271,31,25,01,330,*74
$GPGSV,5,4,18,29,11,288,,36,52,277,,40,86,350,36,41,58,082,*73
$GPGSV,5,5,18,49,32,274,,50,10,089,*78
$GLGSV,3,1,09,69,11,135,,70,13,197,,73,45,006,10,74,06,343,*6F
$GLGSV,3,2,09,79,10,143,,80,53,105,22,83,10,011,,84,44,322,*6B
$GLGSV,3,3,09,85,34,252,20*51
$GNGLL,0419.77876,S,05539.85165,E,043447.00,A,A*6A
$GNGRS,043447.00,1,-3.5,3.7,-11.7,-11.0,0.2,-14.5,-6.1,-25.6,,,,*51
$GNGRS,043447.00,1,-0.9,-25.5,3.6,,,,,,,,,*40
$GNGST,043447.00,74,,,,8.0,7.3,20*6A
$GNZDA,043447.00,21,05,2025,00,00*7B
$GNGBS,043447.00,8.0,7.3,20.1,,,,*60
$GNTXT,01,01,01,More than 100 frame errors, UART RX was disabled*70
b0Xn3"aF
x3Wg(?J {4#V^:R
 
Y`EFI-JWO
P5iS
T,BU"{bnOg$GNRMC,043448.00,A,0419.77901,S,05539.85157,E,0.814,,210525,,,A*70
$GNVTG,,T,,M,0.814,N,1.508,K,A*3C
$GNGNS,043448.00,0419.77901,S,05539.85157,E,AA,11,0.85,27.7,-47.6,,*6D
$GNGGA,043448.00,0419.77901,S,05539.85157,E,1,11,0.85,27.7,M,-47.6,M,,*47
$GNGSA,A,3,24,20,11,05,13,22,12,14,,,,,1.66,0.85,1.42*12
$GNGSA,A,3,80,73,85,,,,,,,,,,1.66,0.85,1.42*16
$GPGSV,5,1,18,05,51,151,18,06,03,028,,11,34,019,16,12,23,353,12*7A
$GPGSV,5,2,18,13,24,167,20,14,08,120,10,15,27,203,22,18,14,223,*71
$GPGSV,5,3,18,20,51,087,22,22,20,103,16,24,63,271,30,25,01,330,*7A
$GPGSV,5,4,18,29,11,288,,36,52,277,,40,86,350,35,41,58,082,*70
$GPGSV,5,5,18,49,32,274,,50,10,089,*78
$GLGSV,3,1,09,69,11,135,,70,13,197,,73,45,006,13,74,06,343,*6C
$GLGSV,3,2,09,79,10,143,,80,53,105,21,83,10,011,,84,44,322,*68
$GLGSV,3,3,09,85,34,252,20*51
$GNGLL,0419.77901,S,05539.85157,E,043448.00,A,A*65
$GNGRS,043448.00,1,-0.9,1.7,-13.6,-13.6,0.7,13.2,-5.6,25.6,,,,*55
$GNGRS,043448.00,1,-0.6,-6.3,1.2,,,,,,,,,*71
$GNGST,043448.00,6212360,,,,8.2,7.4,20*51
$GNZDA,043448.00,21,05,2025,00,00*74
$GNGBS,043448.00,8.2,7.4,20.0,,,,*6B
$GNTXT,01,01,01,More than 100 frame errors, UART RX was disabled*70
b0Xxn3/"
a9x3Wg?J {4#V^:R
 
Y`EFI
-4JWO
P5iYS
T,BU"C4bxnOk8$GNRMC,043449.00,A,0419.77895,S,05539.85164,E,0.422,,210525,,,A*74
$GNVTG,,T,,M,0.422,N,0.781,K,A*37
$GNGNS,043449.00,0419.77895,S,05539.85164,E,AA,09,0.96,27.7,-47.6,,*6B
$GNGGA,043449.00,0419.77895,S,05539.85164,E,1,09,0.96,27.7,M,-47.6,M,,*41
$GNGSA,A,3,24,20,11,05,13,22,,,,,,,2.18,0.96,1.96*15
$GNGSA,A,3,80,73,85,,,,,,,,,,2.18,0.96,1.96*17
$GPGSV,5,1,18,05,51,151,19,06,03,028,,11,34,019,17,12,23,353,10*78
$GPGSV,5,2,18,13,24,167,18,14,08,120,05,15,27,203,21,18,14,223,*7D
$GPGSV,5,3,18,20,51,087,23,22,20,103,11,24,63,271,30,25,01,330,*7C
$GPGSV,5,4,18,29,11,288,,36,52,277,,40,86,350,35,41,58,082,*70
$GPGSV,5,5,18,49,32,274,,50,10,089,*78
$GLGSV,3,1,09,69,11,135,,70,13,197,,73,45,006,10,74,06,343,*6F
$GLGSV,3,2,09,79,10,143,,80,53,105,21,83,10,011,,84,44,322,*68
$GLGSV,3,3,09,85,34,252,22*53
$GNGLL,0419.77895,S,05539.85164,E,043449.00,A,A*68
$GNGRS,043449.00,1,-0.8,-0.3,-14.1,-14.9,-0.5,12.9,,,,,,*4F
$GNGRS,043449.00,1,-1.7,-7.2,-1.9,,,,,,,,,*56
$GNGST,043449.00,5607717,,,,8.4,7.4,20*51
$GNZDA,043449.00,21,05,2025,00,00*75
$GNGBS,043449.00,8.4,7.4,20.1,,,,*6D
$GNTXT,01,01,01,More than 100 frame errors, UART RX was disabled*70
b0X`n3_"a8x)3WYg?J {4"V^:R
 
Y`EFI
-#JWO
P5ifS
T,BU"b`nOn$GNRMC,043450.00,A,0419.77953,S,05539.85139,E,0.964,,210525,,,D*75
$GNVTG,,T,,M,0.964,N,1.785,K,D*38
$GNGNS,043450.00,0419.77953,S,05539.85139,E,DA,11,0.85,29.0,-47.6,,0000*67
$GNGGA,043450.00,0419.77953,S,05539.85139,E,2,11,0.85,29.0,M,-47.6,M,,0000*4B
$GNGSA,A,3,24,20,11,05,13,22,12,14,,,,,1.66,0.85,1.42*12
$GNGSA,A,3,80,73,85,,,,,,,,,,1.66,0.85,1.42*16
$GPGSV,5,1,18,05,51,151,19,06,03,028,,11,34,019,18,12,23,353,11*76
$GPGSV,5,2,18,13,24,167,18,14,08,120,09,15,27,203,19,18,14,223,*7A
$GPGSV,5,3,18,20,51,087,23,22,20,103,09,24,63,271,30,25,01,330,*75
$GPGSV,5,4,18,29,11,288,,36,52,277,,40,86,350,34,41,58,082,*71
$GPGSV,5,5,18,49,32,274,,50,10,089,*78
$GLGSV,3,1,09,69,11,135,,70,13,197,,73,45,006,10,74,06,343,*6F
$GLGSV,3,2,09,79,10,143,,80,53,105,20,83,10,011,,84,44,322,*69
$GLGSV,3,3,09,85,34,252,22*53
$GNGLL,0419.77953,S,05539.85139,E,043450.00,A,D*66
$GNGRS,043450.00,1,-0.1,-1.7,-16.6,-17.0,-2.8,-36.3,-4.6,-102,,,,*75
$GNGRS,043450.00,1,-1.5,-17.6,-3.6,,,,,,,,,*64
$GNGST,043450.00,80,,,,8.5,7.4,20*65
$GNZDA,043450.00,21,05,2025,00,00*7D
$GNGBS,043450.00,8.5,7.4,20.0,,,,*65
$GNTXT,01,01,01,More than 100 frame errors, UART RX was disabled*70
b0XHn3"a3x3W:g?J {4"V^:R
 
Y`EFI-cJWO
P5i:S
T,BU"bHnOr{$GNRMC,043451.00,A,0419.77953,S,05539.85138,E,0.515,,210525,,,D*7F
$GNVTG,,T,,M,0.515,N,0.953,K,D*36
$GNGNS,043451.00,0419.77953,S,05539.85138,E,DA,11,0.85,28.9,-47.6,,0000*6F
$GNGGA,043451.00,0419.77953,S,05539.85138,E,2,11,0.85,28.9,M,-47.6,M,,0000*43
$GNGSA,A,3,24,20,11,05,13,22,12,14,,,,,1.66,0.85,1.42*12
$GNGSA,A,3,80,73,85,,,,,,,,,,1.66,0.85,1.42*16
$GPGSV,5,1,18,05,51,151,18,06,03,028,,11,34,019,19,12,23,353,13*74
$GPGSV,5,2,18,13,24,167,16,14,08,120,09,15,27,203,18,18,14,223,*75
$GPGSV,5,3,18,20,51,087,23,22,20,103,11,24,63,271,29,25,01,330,*74
$GPGSV,5,4,18,29,11,288,,36,52,277,,40,86,350,34,41,58,082,*71
$GPGSV,5,5,18,49,32,274,,50,10,089,*78
$GLGSV,3,1,09,69,11,134,,70,13,197,,73,45,006,16,74,06,343,*68
$GLGSV,3,2,09,79,10,143,,80,53,105,23,83,10,011,,84,44,322,*6A
$GLGSV,3,3,09,85,34,252,21*50
$GNGLL,0419.77953,S,05539.85138,E,043451.00,A,D*66
$GNGRS,043451.00,1,-0.8,-4.5,-16.0,-17.8,-3.2,13.0,-4.6,25.4,,,,*55
$GNGRS,043451.00,1,-2.0,-6.7,-3.1,,,,,,,,,*55
$GNGST,043451.00,5074846,,,,8.8,7.5,20*5C
$GNZDA,043451.00,21,05,2025,00,00*7C
$GNGBS,043451.00,8.8,7.5,20.1,,,,*69
$GNTXT,01,01,01,More than 100 frame errors, UART RX was disabled*70
b0X0o3B"haFx
n3Wg?J {4#V^:R
 
Y`EFI-%JWO
P5iS
T,BU"_b0oOvT$GNRMC,043452.00,A,0419.77907,S,05539.85112,E,0.329,,210525,,,D*7C
$GNVTG,,T,,M,0.329,N,0.609,K,D*3F
