b0X`j2j$p`vj3[e(>H{4V^:R 
Y_EFI*JVOP6d"S
T.?+U"cb`jO&$GNRMC,042949.00,A,0419.79093,S,05539.85152,E,0.196,,210525,,,A*77
$GNVTG,,T,,M,0.196,N,0.362,K,A*34
$GNGNS,042949.00,0419.79093,S,05539.85152,E,AA,12,0.85,9.8,-47.6,,*59
$GNGGA,042949.00,0419.79093,S,05539.85152,E,1,12,0.85,9.8,M,-47.6,M,,*73
$GNGSA,A,3,24,20,11,05,22,12,14,,,,,,1.60,0.85,1.35*16
$GNGSA,A,3,84,80,73,85,79,,,,,,,,1.60,0.85,1.35*12
$GPGSV,5,1,18,05,50,154,27,06,05,028,08,11,36,019,16,12,21,352,15*7A
$GPGSV,5,2,18,13,25,169,22,14,09,118,16,15,27,205,21,18,12,222,*72
$GPGSV,5,3,18,20,51,091,26,22,21,101,16,24,62,277,24,25,00,328,*70
$GPGSV,5,4,18,29,11,286,,36,52,277,,40,86,350,31,41,58,082,*7A
$GPGSV,5,5,18,49,32,274,,50,10,089,*78
$GLGSV,3,1,09,69,11,137,24,70,12,199,,73,42,005,14,74,04,342,*67
$GLGSV,3,2,09,79,12,142,14,80,54,100,20,83,12,010,,84,46,319,14*61
$GLGSV,3,3,09,85,34,249,27*5C
$GNGLL,0419.79093,S,05539.85152,E,042949.00,A,A*61
$GNGRS,042949.00,1,1.3,-0.2,-14.2,1.1,-2.2,14.1,22.8,,,,,*6A
$GNGRS,042949.00,1,0.4,-15.0,-8.7,2.7,6.8,,,,,,,*48
$GNGST,042949.00,3434922,,,,7.1,6.2,17*58
$GNZDA,042949.00,21,05,2025,00,00*79
$GNGBS,042949.00,7.1,6.2,16.7,,,,*6F
$GNTXT,01,01,01,More than 100 frame errors, UART RX was disabled*70
b0Xdj2>
f$`v3[{e>~H{4"V^:R
 
Y_EFI*JVO`P6dfS
T.?U"3kbdjOv$GNRMC,042950.00,A,0419.79111,S,05539.85154,E,0.394,,210525,,,A*72
$GNVTG,,T,,M,0.394,N,0.730,K,A*37
$GNGNS,042950.00,0419.79111,S,05539.85154,E,AA,12,0.85,9.9,-47.6,,*5D
$GNGGA,042950.00,0419.79111,S,05539.85154,E,1,12,0.85,9.9,M,-47.6,M,,*77
$GNGSA,A,3,24,20,11,05,22,12,14,,,,,,1.60,0.85,1.35*16
$GNGSA,A,3,84,80,73,85,79,,,,,,,,1.60,0.85,1.35*12
$GPGSV,5,1,18,05,50,154,26,06,05,028,10,11,36,019,15,12,21,352,14*70
$GPGSV,5,2,18,13,25,169,20,14,09,118,14,15,27,205,20,18,12,222,*73
$GPGSV,5,3,18,20,51,091,25,22,21,101,18,24,62,277,23,25,00,328,*7A
$GPGSV,5,4,18,29,11,286,,36,52,277,,40,86,350,34,41,58,082,*7F
$GPGSV,5,5,18,49,32,274,,50,10,089,*78
$GLGSV,3,1,09,69,11,137,,70,12,199,,73,42,005,12,74,04,342,*67
$GLGSV,3,2,09,79,12,142,14,80,54,100,20,83,12,010,,84,46,319,13*66
$GLGSV,3,3,09,85,34,249,24*5F
$GNGLL,0419.79111,S,05539.85154,E,042950.00,A,A*64
$GNGRS,042950.00,1,-1.3,-1.3,-13.1,0.6,-0.5,12.9,-39.0,,,,,*69
$GNGRS,042950.00,1,-115,-14.3,-8.2,3.1,-24.6,,,,,,,*61
$GNGST,042950.00,77,,,,7.3,6.3,17*6A
$GNZDA,042950.00,21,05,2025,00,00*71
$GNGBS,042950.00,7.3,6.3,16.7,,,,*64
$GNTXT,01,01,01,More than 100 frame errors, UART RX was disabled*70
b0Xhhj 2,$`
vH3[Fef>eH{4&V^:R
 
Y_EFI*JVO9P6dS
T.?U"NbhhjO$GNRMC,042951.00,A,0419.79113,S,05539.85145,E,0.209,,210525,,,A*74
$GNVTG,,T,,M,0.209,N,0.387,K,A*3A
$GNGNS,042951.00,0419.79113,S,05539.85145,E,AA,12,0.80,9.8,-47.6,,*5A
$GNGGA,042951.00,0419.79113,S,05539.85145,E,1,12,0.80,9.8,M,-47.6,M,,*70
$GNGSA,A,3,24,20,05,15,22,12,14,,,,,,1.55,0.80,1.33*17
$GNGSA,A,3,84,80,73,85,79,,,,,,,,1.55,0.80,1.33*17
$GPGSV,5,1,18,05,50,154,32,06,05,028,11,11,36,019,18,12,21,352,13*7E
$GPGSV,5,2,18,13,25,169,20,14,09,118,10,15,27,205,19,18,12,222,*7D
$GPGSV,5,3,18,20,51,091,31,22,21,101,21,24,62,277,30,25,00,328,*77
$GPGSV,5,4,18,29,11,286,,36,52,277,,40,86,350,38,41,58,082,*73
$GPGSV,5,5,18,49,32,274,,50,10,089,*78
$GLGSV,3,1,09,69,11,137,,70,12,199,,73,42,005,17,74,04,342,*62
$GLGSV,3,2,09,79,12,142,12,80,54,100,26,83,12,010,,84,46,319,11*64
$GLGSV,3,3,09,85,34,249,25*5E
$GNGLL,0419.79113,S,05539.85145,E,042951.00,A,A*67
$GNGRS,042951.00,1,1.0,-1.9,0.4,-10.6,-1.5,12.3,23.8,,,,,*6F
$GNGRS,042951.00,1,0.2,-13.8,-7.6,2.1,8.3,,,,,,,*44
$GNGST,042951.00,5948512,,,,7.3,6.2,17*5C
$GNZDA,042951.00,21,05,2025,00,00*70
$GNGBS,042951.00,7.3,6.2,16.7,,,,*64
$GNTXT,01,01,01,More than 100 frame errors, UART RX was disabled*70
b0XPlj2$`9vvb3[-e>H{4#V^:R
 
Y_EFI*JVObP6dS
T.?U"EmbPljO`C$GNRMC,042952.00,A,0419.79102,S,05539.85144,E,0.097,,210525,,,A*73
$GNVTG,,T,,M,0.097,N,0.180,K,A*3A
$GNGNS,042952.00,0419.79102,S,05539.85144,E,AA,10,0.96,9.9,-47.6,,*5C
$GNGGA,042952.00,0419.79102,S,05539.85144,E,1,10,0.96,9.9,M,-47.6,M,,*76
$GNGSA,A,3,24,20,05,15,22,14,,,,,,,1.93,0.96,1.67*18
$GNGSA,A,3,84,80,73,85,,,,,,,,,1.93,0.96,1.67*15
$GPGSV,5,1,18,05,50,154,30,06,05,028,08,11,36,019,20,12,21,352,09*74
$GPGSV,5,2,18,13,25,169,21,14,09,118,14,15,27,205,18,18,12,222,*79
$GPGSV,5,3,18,20,51,091,30,22,21,101,20,24,62,277,29,25,00,328,*7F
$GPGSV,5,4,18,29,11,286,,36,52,277,,40,86,350,35,41,58,082,*7E
$GPGSV,5,5,18,49,32,274,,50,10,089,*78
$GLGSV,3,1,09,69,11,137,,70,12,198,,73,42,005,21,74,04,342,*66
$GLGSV,3,2,09,79,12,142,07,80,54,100,26,83,12,010,,84,46,319,12*63
$GLGSV,3,3,09,85,34,249,25*5E
$GNGLL,0419.79102,S,05539.85144,E,042952.00,A,A*65
$GNGRS,042952.00,1,-0.4,3.0,-3.2,-9.3,-1.2,24.2,,,,,,*63
$GNGRS,042952.00,1,-0.2,-13.0,-8.0,0.7,,,,,,,,*4A
$GNGST,042952.00,5319948,,,,7.3,6.1,17*51
$GNZDA,042952.00,21,05,2025,00,00*73
$GNGBS,042952.00,7.3,6.1,16.7,,,,*64
$GNTXT,01,01,01,More than 100 frame errors, UART RX was disabled*70
b0X8pj2$`ev3[
e>H{4#V^:R
 
Y_EFI*JVO"P6dS
T.?U"b8pjO8$GNRMC,042953.00,A,0419.79123,S,05539.85137,E,0.139,,210525,,,A*70
$GNVTG,,T,,M,0.139,N,0.257,K,A*36
$GNGNS,042953.00,0419.79123,S,05539.85137,E,AA,12,0.85,9.5,-47.6,,*56
$GNGGA,042953.00,0419.79123,S,05539.85137,E,1,12,0.85,9.5,M,-47.6,M,,*7C
$GNGSA,A,3,24,20,11,05,15,22,14,,,,,,1.75,0.85,1.53*15
$GNGSA,A,3,84,80,73,85,79,,,,,,,,1.75,0.85,1.53*16
$GPGSV,5,1,18,05,50,154,29,06,05,028,09,11,36,019,21,12,21,352,08*7D
$GPGSV,5,2,18,13,25,169,23,14,09,118,16,15,27,205,19,18,12,222,*78
$GPGSV,5,3,18,20,51,091,29,22,21,101,20,24,62,277,28,25,00,328,*76
$GPGSV,5,4,18,29,11,286,,36,52,277,,40,86,350,35,41,58,082,*7E
$GPGSV,5,5,18,49,32,274,,50,10,089,*78
$GLGSV,3,1,09,69,11,137,19,70,12,198,,73,42,005,19,74,04,342,*65
$GLGSV,3,2,09,79,12,142,09,80,54,100,26,83,12,010,,84,46,319,14*6B
$GLGSV,3,3,09,85,34,249,24*5F
$GNGLL,0419.79123,S,05539.85137,E,042953.00,A,A*63
$GNGRS,042953.00,1,1.6,0.1,-8.9,-2.4,-5.3,-0.3,-18.6,,,,,*61
$GNGRS,042953.00,1,0.2,-13.5,-8.0,-0.2,87.3,,,,,,,*59
$GNGST,042953.00,69,,,,7.2,6.1,17*65
$GNZDA,042953.00,21,05,2025,00,00*72
$GNGBS,042953.00,7.2,6.1,16.6,,,,*65
$GNTXT,01,01,01,More than 100 frame errors, UART RX was disabled*70
b0X tj2$6`v&3[ve>;H{4!V^:R
 
Y_EFI*JVO.P6dS
T.?:U"`!b tjO$GNRMC,042954.00,A,0419.79140,S,05539.85134,E,0.279,,210525,,,A*76
$GNVTG,,T,,M,0.279,N,0.517,K,A*32
$GNGNS,042954.00,0419.79140,S,05539.85134,E,AA,12,0.85,9.4,-47.6,,*56
$GNGGA,042954.00,0419.79140,S,05539.85134,E,1,12,0.85,9.4,M,-47.6,M,,*7C
$GNGSA,A,3,24,20,11,05,15,22,14,,,,,,1.75,0.85,1.53*15
$GNGSA,A,3,84,80,73,85,79,,,,,,,,1.75,0.85,1.53*16
$GPGSV,5,1,18,05,50,154,28,06,05,028,09,11,36,019,22,12,21,352,08*7F
$GPGSV,5,2,18,13,25,169,23,14,09,118,17,15,27,205,20,18,12,222,*73
$GPGSV,5,3,18,20,51,091,29,22,21,101,19,24,62,277,30,25,00,328,*75
$GPGSV,5,4,18,29,11,286,,36,52,277,,40,86,350,33,41,58,082,*78
$GPGSV,5,5,18,49,32,274,,50,10,089,*78
$GLGSV,3,1,09,69,11,137,17,70,12,198,,73,42,005,18,74,04,342,*6A
$GLGSV,3,2,09,79,12,142,08,80,54,100,24,83,12,010,,84,46,319,11*6D
$GLGSV,3,3,09,85,34,249,25*5E
$GNGLL,0419.79140,S,05539.85134,E,042954.00,A,A*62
$GNGRS,042954.00,1,-2.0,1.2,-7.1,-0.1,-5.4,1.6,23.4,,,,,*45
$GNGRS,042954.00,1,0.6,-13.4,-8.7,-1.6,8.1,,,,,,,*6C
$GNGST,042954.00,3434643,,,,7.2,6.0,17*5D
$GNZDA,042954.00,21,05,2025,00,00*75
$GNGBS,042954.00,7.2,6.0,16.7,,,,*62
$GNTXT,01,01,01,More than 100 frame errors, UART RX was disabled*70
b0Xxj2
$
`v3[8e,>H{4"V^:R
 
Y_EFI+OJVO2P6dS
T.?IU"J)bxjO$GNRMC,042955.00,A,0419.79154,S,05539.85134,E,0.311,,210525,,,D*78
$GNVTG,,T,,M,0.311,N,0.576,K,D*3F
$GNGNS,042955.00,0419.79154,S,05539.85134,E,DA,13,0.76,9.2,-47.6,,0000*5C
$GNGGA,042955.00,0419.79154,S,05539.85134,E,2,12,0.76,9.2,M,-47.6,M,,0000*71
$GNGSA,A,3,24,20,11,05,15,22,12,14,,,,,1.53,0.76,1.33*18
$GNGSA,A,3,84,80,73,85,79,,,,,,,,1.53,0.76,1.33*18
$GPGSV,5,1,18,05,50,154,28,06,05,028,10,11,36,019,24,12,21,352,10*78
$GPGSV,5,2,18,13,25,169,22,14,09,118,13,15,27,205,21,18,12,222,*77
$GPGSV,5,3,18,20,51,091,28,22,21,101,19,24,62,277,31,25,00,328,*75
$GPGSV,5,4,18,29,11,286,,36,52,277,,40,86,350,34,41,58,082,*7F
$GPGSV,5,5,18,49,32,274,,50,10,089,*78
$GLGSV,3,1,09,69,11,137,16,70,12,198,,73,43,005,17,74,04,342,*65
$GLGSV,3,2,09,79,12,142,09,80,54,100,25,83,12,010,,84,46,319,12*6E
$GLGSV,3,3,09,85,34,249,25*5E
$GNGLL,0419.79154,S,05539.85134,E,042955.00,A,D*63
$GNGRS,042955.00,1,-2.3,0.6,-3.1,-1.2,-8.0,3.0,12.3,23.3,,,,*50
$GNGRS,042955.00,1,0.7,-12.8,-9.5,-1.8,8.2,,,,,,,*6F
$GNGST,042955.00,3301831,,,,7.2,6.0,17*56
$GNZDA,042955.00,21,05,2025,00,00*74
$GNGBS,042955.00,7.2,6.0,16.7,,,,*63
$GNTXT,01,01,01,More than 100 frame errors, UART RX was disabled*70
b0X{j2H$`vR3[e >H{4"V^:R
 
Y_EFI+JVOnP6dS
T
.?U"ob{jO~$GNRMC,042956.00,A,0419.79157,S,05539.85130,E,0.189,,210525,,,D*7F
$GNVTG,,T,,M,0.189,N,0.349,K,D*36
$GNGNS,042956.00,0419.79157,S,05539.85130,E,DA,12,0.77,8.8,-47.6,,0000*53
$GNGGA,042956.00,0419.79157,S,05539.85130,E,2,12,0.77,8.8,M,-47.6,M,,0000*7F
$GNGSA,A,3,24,20,11,05,15,22,12,,,,,,1.65,0.77,1.46*1B
$GNGSA,A,3,84,80,73,85,79,,,,,,,,1.65,0.77,1.46*1E
$GPGSV,5,1,18,05,50,154,28,06,05,028,07,11,36,019,23,12,21,352,13*7A
$GPGSV,5,2,18,13,25,169,23,14,09,118,02,15,27,205,21,18,12,222,*76
$GPGSV,5,3,18,20,51,091,27,22,21,101,18,24,62,277,32,25,00,328,*78
$GPGSV,5,4,18,29,11,286,,36,52,277,,40,86,350,34,41,58,082,*7F
$GPGSV,5,5,18,49,32,274,,50,10,089,*78
$GLGSV,3,1,09,69,11,137,15,70,12,198,,73,43,005,14,74,04,342,*65
$GLGSV,3,2,09,79,12,142,12,80,54,100,26,83,12,010,,84,46,319,10*65
$GLGSV,3,3,09,85,34,249,24*5F
$GNGLL,0419.79157,S,05539.85130,E,042956.00,A,D*67
$GNGRS,042956.00,1,1.9,-3.7,-3.0,-2.4,-12.0,4.2,4.1,,,,,*4B
$GNGRS,042956.00,1,-8.0,-10.6,-8.5,-1.5,13.9,,,,,,,*7F
$GNGST,042956.00,65,,,,7.2,5.9,17*67
$GNZDA,042956.00,21,05,2025,00,00*77
$GNGBS,042956.00,7.2,5.9,16.6,,,,*6B
$GNTXT,01,01,01,More than 100 frame errors, UART RX was disabled*70
b0Xj2$`xv')3[e >H{4"V^:R
 
Y_EFI+JVO)P6dS
T.?1U"qUbjOfR$GNRMC,042957.00,A,0419.79159,S,05539.85131,E,0.081,,210525,,,D*78
$GNVTG,,T,,M,0.081,N,0.151,K,D*34
$GNGNS,042957.00,0419.79159,S,05539.85131,E,DA,12,0.77,8.4,-47.6,,0000*51
$GNGGA,042957.00,0419.79159,S,05539.85131,E,2,12,0.77,8.4,M,-47.6,M,,0000*7D
$GNGSA,A,3,24,20,11,05,15,22,12,,,,,,1.65,0.77,1.46*1B
$GNGSA,A,3,84,80,73,85,79,,,,,,,,1.65,0.77,1.46*1E
$GPGSV,5,1,18,05,50,154,28,06,05,028,09,11,36,019,24,12,21,352,15*75
$GPGSV,5,2,18,13,25,169,24,14,09,118,06,15,27,205,21,18,12,222,*75
$GPGSV,5,3,18,20,51,091,27,22,21,101,18,24,62,277,32,25,00,328,*78
$GPGSV,5,4,18,29,11,286,,36,52,277,,40,86,350,34,41,58,082,*7F
$GPGSV,5,5,18,49,32,274,,50,10,089,*78
$GLGSV,3,1,09,69,11,137,14,70,12,198,,73,43,005,14,74,04,342,*64
$GLGSV,3,2,09,79,12,142,08,80,54,100,25,83,12,010,,84,46,319,13*6E
$GLGSV,3,3,09,85,34,249,23*58
$GNGLL,0419.79159,S,05539.85131,E,042957.00,A,D*69
$GNGRS,042957.00,1,-0.6,2.6,-2.4,-0.6,-9.8,2.8,11.6,,,,,*4C
$GNGRS,042957.00,1,0.5,-10.5,-7.7,-0.8,8.1,,,,,,,*6E
$GNGST,042957.00,156544,,,,7.2,5.9,17*62
$GNZDA,042957.00,21,05,2025,00,00*76
$GNGBS,042957.00,7.2,5.9,16.6,,,,*6A
$GNTXT,01,01,01,More than 100 frame errors, UART RX was disabled*70
b0Xj2y$
`Yv3
3[e>uH{4 V^:R
 
Y_EFI+JVO
P6d&S
T
.?-U"{bjONq$GNRMC,042958.00,A,0419.79157,S,05539.85139,E,0.143,,210525,,,D*7E
$GNVTG,,T,,M,0.143,N,0.264,K,D*3E
$GNGNS,042958.00,0419.79157,S,05539.85139,E,DA,13,0.76,7.9,-47.6,,0000*5A
$GNGGA,042958.00,0419.79157,S,05539.85139,E,2,12,0.76,7.9,M,-47.6,M,,0000*77
$GNGSA,A,3,24,20,11,05,15,22,12,14,,,,,1.53,0.76,1.32*19
$GNGSA,A,3,84,80,73,85,79,,,,,,,,1.53,0.76,1.32*19
$GPGSV,5,1,18,05,50,154,27,06,05,028,07,11,36,019,24,12,21,352,10*71
$GPGSV,5,2,18,13,25,169,24,14,09,118,08,15,27,205,22,18,12,222,*78
$GPGSV,5,3,18,20,51,091,27,22,21,101,19,24,62,277,31,25,00,328,*7A
$GPGSV,5,4,18,29,11,286,,36,52,277,,40,86,350,32,41,58,082,*79
$GPGSV,5,5,18,49,32,274,,50,10,089,*78
$GLGSV,3,1,09,69,11,137,12,70,12,198,,73,43,005,13,74,04,342,*65
$GLGSV,3,2,09,79,12,142,09,80,54,100,24,83,12,010,,84,46,319,10*6D
$GLGSV,3,3,09,85,34,249,22*59
$GNGLL,0419.79157,S,05539.85139,E,042958.00,A,D*60
$GNGRS,042958.00,1,-1.4,4.1,-3.4,1.8,-9.9,2.1,11.1,26.1,,,,*76
$GNGRS,042958.00,1,0.5,-9.9,-8.5,-3.2,7.8,,,,,,,*57
$GNGST,042958.00,222711,,,,7.2,5.8,17*6E
$GNZDA,042958.00,21,05,2025,00,00*79
$GNGBS,042958.00,7.2,5.8,16.6,,,,*64
$GNTXT,01,01,01,More than 100 frame errors, UART RX was disabled*70
b0Xj2
$g`-)vTX3[e>H{4V^:R
 
Y_E
FI
+JVO
-P6dS
T.?~U"bjO6I"$GNRMC,042959.00,A,0419.79164,S,05539.85151,E,0.333,,210525,,,D*74
$GNVTG,,T,,M,0.333,N,0.616,K,D*3A
$GNGNS,042959.00,0419.79164,S,05539.85151,E,DA,12,0.78,7.1,-47.6,,0000*52
$GNGGA,042959.00,0419.79164,S,05539.85151,E,2,12,0.78,7.1,M,-47.6,M,,0000*7E
$GNGSA,A,3,24,20,11,05,15,22,12,14,,,,,1.54,0.78,1.33*11
$GNGSA,A,3,84,80,85,79,,,,,,,,,1.54,0.78,1.33*15
$GPGSV,5,1,18,05,50,154,27,06,05,028,10,11,36,019,24,12,21,352,12*75
$GPGSV,5,2,18,13,25,169,22,14,09,118,08,15,27,205,21,18,12,222,*7D
$GPGSV,5,3,18,20,51,091,26,22,21,101,18,24,62,277,30,25,00,328,*7B
$GPGSV,5,4,18,29,11,286,,36,52,277,,40,86,350,31,41,58,082,*7A
$GPGSV,5,5,18,49,32,274,,50,10,089,*78
$GLGSV,3,1,09,69,11,137,10,70,12,198,,73,43,005,10,74,04,342,*64
$GLGSV,3,2,09,79,12,142,10,80,54,100,24,83,12,010,,84,46,319,09*6D
$GLGSV,3,3,09,85,34,249,23*58
$GNGLL,0419.79164,S,05539.85151,E,042959.00,A,D*6F
$GNGRS,042959.00,1,0.0,4.1,-4.1,0.2,-11.9,4.3,8.1,31.6,,,,*52
$GNGRS,042959.00,1,-49.9,-8.6,-1.3,-17.5,,,,,,,,*58
$GNGST,042959.00,69,,,,7.2,5.8,17*65
$GNZDA,042959.00,21,05,2025,00,00*78
$GNGBS,042959.00,7.2,5.8,16.5,,,,*66
$GNTXT,01,01,01,More than 100 frame errors, UART RX was disabled*70
b0Xj2;$j`v|3[e>VH{4!V^:R
 
Y_EFI+JVO
_P6duS
T.?U"3bjO"$GNRMC,043000.00,A,0419.79155,S,05539.85154,E,0.090,,210525,,,D*7D
$GNVTG,,T,,M,0.090,N,0.167,K,D*31
$GNGNS,043000.00,0419.79155,S,05539.85154,E,DA,13,0.76,7.1,-47.6,,0000*5E
$GNGGA,043000.00,0419.79155,S,05539.85154,E,2,12,0.76,7.1,M,-47.6,M,,0000*73
$GNGSA,A,3,24,20,11,05,15,22,12,14,,,,,1.53,0.76,1.32*19
$GNGSA,A,3,84,80,73,85,79,,,,,,,,1.53,0.76,1.32*19
$GPGSV,5,1,18,05,50,154,30,06,05,028,09,11,36,019,23,12,21,352,14*7A
$GPGSV,5,2,18,13,25,169,21,14,09,118,09,15,27,205,19,18,12,222,*74
$GPGSV,5,3,18,20,51,091,27,22,21,101,19,24,62,277,31,25,00,328,*7A
$GPGSV,5,4,18,29,11,286,,36,52,277,,40,86,350,33,41,58,082,*78
$GPGSV,5,5,18,49,32,274,,50,10,089,*78
$GLGSV,3,1,09,69,11,137,12,70,12,198,,73,43,005,13,74,04,342,*65
$GLGSV,3,2,09,79,12,142,10,80,54,100,23,83,12,010,,84,46,319,08*6B
$GLGSV,3,3,09,85,34,249,22*59
$GNGLL,0419.79155,S,05539.85154,E,043000.00,A,D*6C
$GNGRS,043000.00,1,3.4,2.7,-1.5,-2.0,-11.6,2.6,11.8,32.1,,,,*44
$GNGRS,043000.00,1,0.3,-6.5,-3.6,0.5,8.6,,,,,,,*77
$GNGST,043000.00,4666719,,,,7.1,5.8,17*50
$GNZDA,043000.00,21,05,2025,00,00*7C
$GNGBS,043000.00,7.1,5.8,16.5,,,,*61
$GNTXT,01,01,01,More than 100 frame errors, UART RX was disabled*70
b0Xxj2%$1`:v3[e>VH{4!V^:R
 
Y_EFI+JVO
P6dS
T.?U"\&bxjO$GNRMC,043001.00,A,0419.79154,S,05539.85163,E,0.248,,210525,,,D*7E
$GNVTG,,T,,M,0.248,N,0.459,K,D*3E
$GNGNS,043001.00,0419.79154,S,05539.85163,E,DA,13,0.76,7.5,-47.6,,0000*5E
$GNGGA,043001.00,0419.79154,S,05539.85163,E,2,12,0.76,7.5,M,-47.6,M,,0000*73
$GNGSA,A,3,24,20,11,05,15,22,12,14,,,,,1.53,0.76,1.32*19
$GNGSA,A,3,84,80,73,85,79,,,,,,,,1.53,0.76,1.32*19
$GPGSV,5,1,18,05,50,154,28,06,05,028,11,11,36,019,21,12,21,352,16*7A
$GPGSV,5,2,18,13,25,169,20,14,09,118,08,15,27,205,18,18,12,222,*75
$GPGSV,5,3,18,20,51,091,27,22,21,101,19,24,62,277,30,25,00,328,*7B
$GPGSV,5,4,18,29,11,286,,36,52,277,,40,86,350,33,41,58,082,*78
$GPGSV,5,5,18,49,32,274,,50,10,089,*78
$GLGSV,3,1,09,69,11,137,15,70,12,198,,73,43,005,14,74,04,342,*65
$GLGSV,3,2,09,79,11,142,10,80,54,100,22,83,12,010,,84,46,319,08*69
$GLGSV,3,3,09,85,34,249,20*5B
$GNGLL,0419.79154,S,05539.85163,E,043001.00,A,D*68
$GNGRS,043001.00,1,8.5,1.7,-4.6,0.4,-10.0,4.2,11.8,32.8,,,,*6D
$GNGRS,043001.00,1,0.1,-5.4,-0.6,-1.6,9.2,,,,,,,*5F
$GNGST,043001.00,4666814,,,,7.1,5.7,17*5C
$GNZDA,043001.00,21,05,2025,00,00*7D
$GNGBS,043001.00,7.1,5.7,16.5,,,,*6F
$GNTXT,01,01,01,More than 100 frame errors, UART RX was disabled*70
b0X`j2.$`(v3[e>RH{4!V^:R
 
Y_EFI+JVOnP6eS
T.?
U"b`jOY$GNRMC,043002.00,A,0419.79143,S,05539.85169,E,0.278,,210525,,,D*72
$GNVTG,,T,,M,0.278,N,0.514,K,D*35
$GNGNS,043002.00,0419.79143,S,05539.85169,E,DA,13,0.76,8.1,-47.6,,0000*5A
$GNGGA,043002.00,0419.79143,S,05539.85169,E,2,12,0.76,8.1,M,-47.6,M,,0000*77
$GNGSA,A,3,24,20,11,05,15,22,12,14,,,,,1.53,0.76,1.32*19
$GNGSA,A,3,84,80,73,85,79,,,,,,,,1.53,0.76,1.32*19
$GPGSV,5,1,18,05,50,154,25,06,05,028,09,11,36,019,20,12,21,352,11*78
$GPGSV,5,2,18,13,25,169,22,14,09,118,08,15,27,205,16,18,12,222,*79
$GPGSV,5,3,18,20,51,091,26,22,21,101,20,24,62,277,30,25,00,328,*70
$GPGSV,5,4,18,29,11,286,,36,52,277,,40,86,350,33,41,58,082,*78
$GPGSV,5,5,18,49,32,274,,50,10,089,*78
$GLGSV,3,1,09,69,11,137,15,70,12,198,,73,43,005,16,74,04,342,*67
$GLGSV,3,2,09,79,11,142,11,80,54,101,23,83,12,010,,84,46,319,08*68
$GLGSV,3,3,09,85,34,249,18*50
$GNGLL,0419.79143,S,05539.85169,E,043002.00,A,D*67
$GNGRS,043002.00,1,5.9,2.3,-3.7,0.2,-10.8,5.2,10.6,-26.3,,,,*4D
$GNGRS,043002.00,1,28.0,-3.4,-3.8,-1.0,-70.6,,,,,,,*7D
$GNGST,043002.00,73,,,,7.2,5.7,16*66
$GNZDA,043002.00,21,05,2025,00,00*7E
$GNGBS,043002.00,7.2,5.7,16.4,,,,*6E
$GNTXT,01,01,01,More than 100 frame errors, UART RX was disabled*70
b0XHj2$`v8Y3[e>H{4V^:R
 
Y_EFI+JVO P6eS
T.?BU"vbHjO$GNRMC,043003.00,A,0419.79163,S,05539.85173,E,0.541,,210525,,,D*77
$GNVTG,,T,,M,0.541,N,1.003,K,D*3A
$GNGNS,043003.00,0419.79163,S,05539.85173,E,DA,13,0.76,8.3,-47.6,,0000*50
$GNGGA,043003.00,0419.79163,S,05539.85173,E,2,12,0.76,8.3,M,-47.6,M,,0000*7D
$GNGSA,A,3,24,20,11,05,15,22,12,14,,,,,1.53,0.76,1.32*19
$GNGSA,A,3,84,80,73,85,79,,,,,,,,1.53,0.76,1.32*19
$GPGSV,5,1,18,05,50,154,24,06,05,028,09,11,36,019,17,12,21,352,17*7B
$GPGSV,5,2,18,13,25,169,23,14,09,118,09,15,27,205,13,18,12,222,*7C
$GPGSV,5,3,18,20,51,091,27,22,21,101,19,24,62,277,22,25,00,328,*78
$GPGSV,5,4,18,29,11,286,,36,52,277,,40,86,350,29,41,58,082,*73
$GPGSV,5,5,18,49,32,274,,50,10,089,*78
$GLGSV,3,1,09,69,11,137,15,70,12,198,,73,43,005,17,74,04,342,*66
$GLGSV,3,2,09,79,11,142,12,80,54,101,25,83,12,010,,84,46,319,08*6D
$GLGSV,3,3,09,85,34,249,18*50
$GNGLL,0419.79163,S,05539.85173,E,043003.00,A,D*6F
$GNGRS,043003.00,1,2.5,1.5,-5.1,-5.5,-14.5,6.5,9.3,23.6,,,,*70
$GNGRS,043003.00,1,0.7,-1.1,-3.5,-1.4,8.0,,,,,,,*5B
$GNGST,043003.00,4666704,,,,7.3,5.7,16*53
$GNZDA,043003.00,21,05,2025,00,00*7F
$GNGBS,043003.00,7.3,5.7,16.4,,,,*6E
$GNTXT,01,01,01,More than 100 frame errors, UART RX was disabled*70
b0X0j2$`ilv
3[e>1H{4 V^:R
 
Y_EFI+9JVOP6eS
T.?7U"z+b0jO)$GNRMC,043004.00,A,0419.79179,S,05539.85161,E,0.744,,210525,,,D*7F
$GNVTG,,T,,M,0.744,N,1.378,K,D*32
$GNGNS,043004.00,0419.79179,S,05539.85161,E,DA,12,0.78,7.7,-47.6,,0000*5B
$GNGGA,043004.00,0419.79179,S,05539.85161,E,2,12,0.78,7.7,M,-47.6,M,,0000*77
$GNGSA,A,3,24,20,11,05,15,22,12,14,,,,,1.62,0.78,1.42*12
$GNGSA,A,3,84,80,73,85,,,,,,,,,1.62,0.78,1.42*1C
$GPGSV,5,1,18,05,50,154,24,06,05,028,07,11,36,019,16,12,21,352,19*7A
$GPGSV,5,2,18,13,25,169,25,14,09,118,13,15,27,205,10,18,12,222,*72
$GPGSV,5,3,18,20,51,091,28,22,21,101,21,24,62,277,29,25,00,328,*77
$GPGSV,5,4,18,29,11,286,,36,52,277,,40,86,350,32,41,58,082,*79
$GPGSV,5,5,18,49,32,274,,50,10,089,*78
$GLGSV,3,1,09,69,11,137,17,70,12,198,,73,43,005,16,74,04,342,*65
$GLGSV,3,2,09,79,11,142,07,80,54,101,28,83,12,010,,84,46,319,08*64
$GLGSV,3,3,09,85,34,249,15*5D
$GNGLL,0419.79179,S,05539.85161,E,043004.00,A,D*60
$GNGRS,043004.00,1,3.0,1.8,-7.7,-10.7,-18.5,7.3,6.2,23.3,,,,*4C
$GNGRS,043004.00,1,0.6,-0.6,-2.0,2.4,,,,,,,,*57
$GNGST,043004.00,4856426,,,,7.4,5.7,16*5D
$GNZDA,043004.00,21,05,2025,00,00*78
$GNGBS,043004.00,7.4,5.7,16.4,,,,*6E
$GNTXT,01,01,01,More than 100 frame errors, UART RX was disabled*70
b0Xj2$`vM3[e/>H{4 V^:R
 
Y_EFI+2JVOP6eS
T
.?)U"+bjOY$GNRMC,043005.00,A,0419.79129,S,05539.85160,E,0.119,,210525,,,D*74
$GNVTG,,T,,M,0.119,N,0.221,K,D*30
$GNGNS,043005.00,0419.79129,S,05539.85160,E,DA,13,0.76,8.6,-47.6,,0000*5F
$GNGGA,043005.00,0419.79129,S,05539.85160,E,2,12,0.76,8.6,M,-47.6,M,,0000*72
$GNGSA,A,3,24,20,11,05,15,22,12,14,,,,,1.53,0.76,1.32*19
$GNGSA,A,3,84,80,73,85,79,,,,,,,,1.53,0.76,1.32*19
$GPGSV,5,1,18,05,50,154,22,06,05,028,12,11,36,019,16,12,21,352,17*76
$GPGSV,5,2,18,13,25,169,24,14,09,118,11,15,27,205,12,18,12,222,*73
$GPGSV,5,3,18,20,51,091,29,22,21,101,22,24,62,277,29,25,00,328,*75
$GPGSV,5,4,18,29,11,286,,36,52,277,,40,86,350,32,41,58,082,*79
$GPGSV,5,5,18,49,32,274,,50,10,089,*78
$GLGSV,3,1,09,69,11,137,16,70,12,198,,73,43,005,16,74,04,342,*64
$GLGSV,3,2,09,79,11,142,08,80,54,101,27,83,11,010,,84,46,319,10*6E
$GLGSV,3,3,09,85,34,249,14*5C
$GNGLL,0419.79129,S,05539.85160,E,043005.00,A,D*65
$GNGRS,043005.00,1,2.8,-3.2,-5.5,-10.1,-17.7,5.6,4.3,-122,,,,*6E
$GNGRS,043005.00,1,106,1.3,-2.1,4.1,-69.4,,,,,,,*5A
$GNGST,043005.00,87,,,,7.5,5.7,16*6D
$GNZDA,043005.00,21,05,2025,00,00*79
$GNGBS,043005.00,7.5,5.7,16.3,,,,*69
$GNTXT,01,01,01,More than 100 frame errors, UART RX was disabled*70
b0Xj2
$V`/v583[pe>/H{4%V^:R
 
Y_EFI+NJVOcP6eS
T
.@U"4bjO1$GNRMC,043006.00,A,0419.79080,S,05539.85168,E,0.711,,210525,,,D*73
$GNVTG,,T,,M,0.711,N,1.317,K,D*3B
$GNGNS,043006.00,0419.79080,S,05539.85168,E,DA,13,0.76,8.2,-47.6,,0000*52
$GNGGA,043006.00,0419.79080,S,05539.85168,E,2,12,0.76,8.2,M,-47.6,M,,0000*7F
$GNGSA,A,3,24,20,11,05,15,22,12,14,,,,,1.53,0.76,1.32*19
$GNGSA,A,3,84,80,73,85,79,,,,,,,,1.53,0.76,1.32*19
$GPGSV,5,1,18,05,50,154,22,06,05,028,10,11,36,019,16,12,21,352,09*7B
$GPGSV,5,2,18,13,25,169,24,14,09,118,12,15,27,205,15,18,12,222,*77
$GPGSV,5,3,18,20,51,091,29,22,21,101,25,24,62,277,28,25,00,328,*73
$GPGSV,5,4,18,29,11,286,,36,52,277,,40,86,350,37,41,58,082,*7C
$GPGSV,5,5,18,49,32,274,,50,10,089,*78
$GLGSV,3,1,09,69,11,137,14,70,12,198,,73,43,005,14,74,04,342,*64
$GLGSV,3,2,09,79,11,142,08,80,54,101,26,83,11,010,,84,46,320,10*65
$GLGSV,3,3,09,85,34,249,11*59
$GNGLL,0419.79080,S,05539.85168,E,043006.00,A,D*6C
$GNGRS,043006.00,1,-2.1,3.7,-4.3,-10.4,-17.4,4.5,2.7,23.6,,,,*65
$GNGRS,043006.00,1,-0.1,-0.8,3.3,4.8,8.7,,,,,,,*75
$GNGST,043006.00,3328057,,,,7.7,5.7,16*5B
$GNZDA,043006.00,21,05,2025,00,00*7A
$GNGBS,043006.00,7.7,5.7,16.4,,,,*6F
$GNTXT,01,01,01,More than 100 frame errors, UART RX was disabled*70
b0Xj"2
{$)`!v)3[e>H{4%V^:R
 
Y_EFI+-JVOoP6e'S
T.@U"kbjOvR$GNRMC,043007.00,A,0419.79071,S,05539.85169,E,0.372,,210525,,,D*7C
$GNVTG,,T,,M,0.372,N,0.689,K,D*39
$GNGNS,043007.00,0419.79071,S,05539.85169,E,DA,13,0.76,8.1,-47.6,,0000*5F
$GNGGA,043007.00,0419.79071,S,05539.85169,E,2,12,0.76,8.1,M,-47.6,M,,0000*72
$GNGSA,A,3,24,20,11,05,15,22,12,14,,,,,1.53,0.76,1.32*19
$GNGSA,A,3,84,80,73,85,79,,,,,,,,1.53,0.76,1.32*19
$GPGSV,5,1,18,05,50,154,34,06,05,028,10,11,36,019,17,12,21,352,15*70
$GPGSV,5,2,18,13,25,169,25,14,09,118,14,15,27,205,16,18,12,222,*73
$GPGSV,5,3,18,20,51,091,29,22,21,101,26,24,62,277,30,25,00,328,*79
$GPGSV,5,4,18,29,11,286,,36,52,277,,40,86,350,37,41,58,082,*7C
$GPGSV,5,5,18,49,32,274,,50,10,089,*78
$GLGSV,3,1,09,69,11,137,12,70,12,198,,73,43,005,17,74,04,342,*61
$GLGSV,3,2,09,79,11,142,14,80,54,101,26,83,11,010,,84,46,320,11*69
$GLGSV,3,3,09,85,34,250,14*54
$GNGLL,0419.79071,S,05539.85169,E,043007.00,A,D*62
$GNGRS,043007.00,1,-0.7,2.3,-4.7,-3.8,-16.6,4.0,2.9,23.5,,,,*54
$GNGRS,043007.00,1,-0.2,2.9,3.0,3.6,8.8,,,,,,,*5C
$GNGST,043007.00,3328487,,,,7.5,5.7,16*51
$GNZDA,043007.00,21,05,2025,00,00*7B
$GNGBS,043007.00,7.5,5.7,16.4,,,,*6C
$GNTXT,01,01,01,More than 100 frame errors, UART RX was disabled*70
b0Xj2$`
v!3[Ee>$H{4"V^:R
 
Y_EFI+JVOP6eS
T.@U"<bjO^!$GNRMC,043008.00,A,0419.79041,S,05539.85169,E,0.588,,210525,,,D*73
$GNVTG,,T,,M,0.588,N,1.088,K,D*3C
$GNGNS,043008.00,0419.79041,S,05539.85169,E,DA,12,0.85,7.6,-47.6,,0000*56
$GNGGA,043008.00,0419.79041,S,05539.85169,E,2,12,0.85,7.6,M,-47.6,M,,0000*7A
$GNGSA,A,3,24,20,11,05,22,12,14,,,,,,1.59,0.85,1.35*1C
$GNGSA,A,3,84,80,73,85,79,,,,,,,,1.59,0.85,1.35*18
$GPGSV,5,1,18,05,50,154,30,06,05,028,11,11,36,019,17,12,21,352,14*74
$GPGSV,5,2,18,13,25,169,27,14,09,118,10,15,27,205,,18,12,222,19*7A
$GPGSV,5,3,18,20,51,091,20,22,21,101,26,24,62,277,29,25,00,328,*78
$GPGSV,5,4,18,29,11,286,,36,52,277,,40,86,350,34,41,58,082,*7F
$GPGSV,5,5,18,49,32,274,,50,10,089,*78
$GLGSV,3,1,09,69,11,137,12,70,12,198,,73,43,005,16,74,04,342,*60
$GLGSV,3,2,09,79,11,142,11,80,54,101,25,83,11,010,,84,46,320,11*6F
$GLGSV,3,3,09,85,34,250,19*59
$GNGLL,0419.79041,S,05539.85169,E,043008.00,A,D*6E
$GNGRS,043008.00,1,0.4,-4.4,-2.5,-3.1,4.5,18.1,-9.9,,,,,*49
$GNGRS,043008.00,1,-41.7,-0.3,2.2,3.2,4.6,,,,,,,*43
$GNGST,043008.00,67,,,,7.4,5.6,16*6E
$GNZDA,043008.00,21,05,2025,00,00*74
$GNGBS,043008.00,7.4,5.6,16.2,,,,*65
$GNTXT,01,01,01,More than 100 frame errors, UART RX was disabled*70
b0Xj2v
$}`wv3[e)>OH{4%V^:R
 
Y_EFI+JVO7P6e]S
T.@4U"HbjOF%"$GNRMC,043009.00,A,0419.79025,S,05539.85169,E,0.704,,210525,,,D*76
$GNVTG,,T,,M,0.704,N,1.305,K,D*3C
$GNGNS,043009.00,0419.79025,S,05539.85169,E,DA,12,0.85,7.4,-47.6,,0000*57
$GNGGA,043009.00,0419.79025,S,05539.85169,E,2,12,0.85,7.4,M,-47.6,M,,0000*7B
$GNGSA,A,3,24,20,11,05,22,12,14,,,,,,1.59,0.85,1.35*1C
$GNGSA,A,3,84,80,73,85,79,,,,,,,,1.59,0.85,1.35*18
$GPGSV,5,1,18,05,50,154,23,06,05,028,10,11,36,019,17,12,21,352,11*72
$GPGSV,5,2,18,13,25,169,28,14,09,118,14,15,27,205,,18,12,222,19*71
$GPGSV,5,3,18,20,51,091,30,22,21,101,25,24,62,277,30,25,00,328,*72
$GPGSV,5,4,18,29,11,286,,36,52,277,,40,86,350,37,41,58,082,*7C
$GPGSV,5,5,18,49,32,274,,50,10,089,*78
$GLGSV,3,1,09,69,11,137,12,70,12,198,,73,43,005,15,74,04,342,*63
$GLGSV,3,2,09,79,11,142,08,80,54,101,27,83,11,010,,84,46,320,11*65
$GLGSV,3,3,09,85,34,250,16*56
$GNGLL,0419.79025,S,05539.85169,E,043009.00,A,D*6D
$GNGRS,043009.00,1,3.3,0.0,1.3,11.4,3.0,11.8,22.0,,,,,*4D
$GNGRS,043009.00,1,0.5,-1.6,0.3,3.3,8.2,,,,,,,*56
$GNGST,043009.00,4860038,,,,7.6,5.6,16*5D
$GNZDA,043009.00,21,05,2025,00,00*75
$GNGBS,043009.00,7.6,5.6,16.2,,,,*66
$GNTXT,01,01,01,More than 100 frame errors, UART RX was disabled*70
b0Xj2$`0v3[e>iH{4!V^:R
 
Y_EFI+_JVO<P6eS
T.@6U"?,RbjO.)$GNRMC,043010.00,A,0419.79003,S,05539.85167,E,0.823,,210525,,,D*7E
$GNVTG,,T,,M,0.823,N,1.524,K,D*33
$GNGNS,043010.00,0419.79003,S,05539.85167,E,DA,12,0.85,7.1,-47.6,,0000*50
$GNGGA,043010.00,0419.79003,S,05539.85167,E,2,12,0.85,7.1,M,-47.6,M,,0000*7C
$GNGSA,A,3,24,20,11,05,22,12,14,,,,,,1.59,0.85,1.35*1C
$GNGSA,A,3,84,80,73,85,79,,,,,,,,1.59,0.85,1.35*18
$GPGSV,5,1,18,05,50,154,23,06,05,028,06,11,36,019,16,12,21,352,12*77
$GPGSV,5,2,18,13,25,169,26,14,09,118,08,15,27,205,,18,12,222,18*73
$GPGSV,5,3,18,20,51,091,30,22,21,101,23,24,62,277,29,25,00,328,*7C
$GPGSV,5,4,18,29,11,286,,36,52,277,,40,86,350,33,41,58,082,*78
$GPGSV,5,5,18,49,32,274,,50,10,089,*78
$GLGSV,3,1,09,69,11,137,13,70,12,198,,73,43,005,16,74,04,342,*61
$GLGSV,3,2,09,79,11,142,13,80,54,101,27,83,11,010,,84,46,320,11*6F
$GLGSV,3,3,09,85,34,250,17*57
$GNGLL,0419.79003,S,05539.85167,E,043010.00,A,D*6F
$GNGRS,043010.00,1,3.6,-2.4,5.1,10.5,2.3,11.7,22.1,,,,,*61
$GNGRS,043010.00,1,0.5,-1.1,1.0,3.2,8.3,,,,,,,*5B
$GNGST,043010.00,5948370,,,,7.7,5.6,16*51
$GNZDA,043010.00,21,05,2025,00,00*7D
$GNGBS,043010.00,7.7,5.6,16.2,,,,*6F
$GNTXT,01,01,01,More than 100 frame errors, UART RX was disabled*70
b0Xj2$`v3[Ies>H{4!V^:R
 
Y_EFI+JVOP6e[S
T.@U"_bjO-h$GNRMC,043011.00,A,0419.79013,S,05539.85163,E,0.367,,210525,,,D*71
$GNVTG,,T,,M,0.367,N,0.680,K,D*34
$GNGNS,043011.00,0419.79013,S,05539.85163,E,DA,11,0.94,5.7,-47.6,,0000*53
$GNGGA,043011.00,0419.79013,S,05539.85163,E,2,11,0.94,5.7,M,-47.6,M,,0000*7F
$GNGSA,A,3,24,20,11,05,22,14,,,,,,,1.80,0.94,1.54*1C
$GNGSA,A,3,84,80,73,85,79,,,,,,,,1.80,0.94,1.54*1B
$GPGSV,5,1,18,05,50,154,24,06,05,028,09,11,36,019,14,12,21,352,07*79
$GPGSV,5,2,18,13,25,169,25,14,09,118,09,15,27,205,,18,12,222,16*7F
$GPGSV,5,3,18,20,51,091,29,22,21,101,22,24,62,277,28,25,00,328,*74
$GPGSV,5,4,18,29,11,286,,36,52,277,,40,86,350,33,41,58,082,*78
$GPGSV,5,5,18,49,32,274,,50,10,089,*78
$GLGSV,3,1,09,69,11,137,09,70,12,198,,73,43,005,14,74,04,342,*68
$GLGSV,3,2,09,79,11,142,09,80,54,101,25,83,11,010,,84,46,320,13*64
$GLGSV,3,3,09,85,34,250,17*57
$GNGLL,0419.79013,S,05539.85163,E,043011.00,A,D*6B
$GNGRS,043011.00,1,7.1,-1.8,7.6,7.4,1.2,38.7,,,,,,*48
$GNGRS,043011.00,1,25.0,0.9,2.0,3.5,43.1,,,,,,,*75
$GNGST,043011.00,69,,,,7.9,5.6,16*65
$GNZDA,043011.00,21,05,2025,00,00*7C
$GNGBS,043011.00,7.9,5.6,16.2,,,,*60
$GNTXT,01,01,01,More than 100 frame errors, UART RX was disabled*70
b0Xpj23$`v{3[de>H{4"V^:R
 
Y_EFI+JVOPP6eWS
T
.@&U"7KbpjO0?W$GNRMC,043012.00,A,0419.78999,S,05539.85164,E,0.447,,210525,,,D*7A
$GNVTG,,T,,M,0.447,N,0.828,K,D*3D
$GNGNS,043012.00,0419.78999,S,05539.85164,E,DA,11,0.86,5.8,-47.6,,0000*51
$GNGGA,043012.00,0419.78999,S,05539.85164,E,2,11,0.86,5.8,M,-47.6,M,,0000*7D
$GNGSA,A,3,24,20,11,05,22,12,,,,,,,1.73,0.86,1.50*11
$GNGSA,A,3,84,80,73,85,79,,,,,,,,1.73,0.86,1.50*10
$GPGSV,5,1,18,05,50,154,26,06,05,028,08,11,36,019,17,12,21,352,09*77
$GPGSV,5,2,18,13,25,169,26,14,09,118,07,15,27,205,,18,12,222,15*71
$GPGSV,5,3,18,20,51,091,28,22,21,101,20,24,62,277,30,25,00,328,*7E
$GPGSV,5,4,18,29,11,286,,36,52,277,,40,86,350,34,41,58,082,*7F
$GPGSV,5,5,18,49,32,274,,50,10,089,*78
$GLGSV,3,1,09,69,11,137,,70,12,198,,73,43,005,17,74,04,342,*62
$GLGSV,3,2,09,79,11,142,13,80,54,101,26,83,11,010,,84,46,320,10*6F
$GLGSV,3,3,09,85,34,250,19*59
$GNGLL,0419.78999,S,05539.85164,E,043012.00,A,D*65
$GNGRS,043012.00,1,12.1,-1.6,7.7,5.6,4.1,11.8,,,,,,*72
$GNGRS,043012.00,1,0.4,0.9,2.3,0.5,8.5,,,,,,,*7E
$GNGST,043012.00,6213018,,,,8.2,5.6,16*52
$GNZDA,043012.00,21,05,2025,00,00*7F
$GNGBS,043012.00,8.2,5.6,16.3,,,,*66
$GNTXT,01,01,01,More than 100 frame errors, UART RX was disabled*70
b0XXj2$`v3[e>'H{4!V^:R
 
Y_EFI+JVO
MP6eS
T.@U"'tbXjO4$GNRMC,043013.00,A,0419.78999,S,05539.85158,E,0.271,,210525,,,D*77
$GNVTG,,T,,M,0.271,N,0.502,K,D*3B
$GNGNS,043013.00,0419.78999,S,05539.85158,E,DA,11,0.91,5.7,-47.6,,0000*56
$GNGGA,043013.00,0419.78999,S,05539.85158,E,2,11,0.91,5.7,M,-47.6,M,,0000*7A
$GNGSA,A,3,24,20,05,22,12,14,,,,,,,1.62,0.91,1.35*11
$GNGSA,A,3,84,80,73,85,79,,,,,,,,1.62,0.91,1.35*15
$GPGSV,5,1,18,05,50,154,26,06,05,028,09,11,36,019,,12,21,352,20*7B
$GPGSV,5,2,18,13,25,169,26,14,09,118,11,15,27,205,,18,12,222,11*72
$GPGSV,5,3,18,20,51,091,27,22,21,101,19,24,62,277,30,25,00,328,*7B
$GPGSV,5,4,18,29,11,286,,36,52,277,,40,86,350,33,41,58,082,*78
$GPGSV,5,5,18,49,32,274,,50,10,089,*78
$GLGSV,3,1,09,69,11,137,,70,12,198,,73,43,005,16,74,04,342,*63
$GLGSV,3,2,09,79,11,142,10,80,54,101,25,83,11,010,,84,46,320,12*6D
$GLGSV,3,3,09,85,34,250,19*59
$GNGLL,0419.78999,S,05539.85158,E,043013.00,A,D*6B
$GNGRS,043013.00,1,10.6,-2.5,5.2,2.4,11.5,21.8,,,,,,*47
$GNGRS,043013.00,1,0.3,1.8,2.6,0.4,8.4,,,,,,,*7D
$GNGST,043013.00,7173416,,,,8.1,5.6,16*5E
$GNZDA,043013.00,21,05,2025,00,00*7E
$GNGBS,043013.00,8.1,5.6,16.3,,,,*64
$GNTXT,01,01,01,More than 100 frame errors, UART RX was disabled*70
b0X@j2<$`vk3[:e>H{4 V^:R
 
Y_EFI+JVO+P6emS
T
.@JU"b@jO8'$GNRMC,043014.00,A,0419.78991,S,05539.85155,E,0.156,,210525,,,D*73
$GNVTG,,T,,M,0.156,N,0.289,K,D*39
$GNGNS,043014.00,0419.78991,S,05539.85155,E,DA,11,0.91,6.2,-47.6,,0000*52
$GNGGA,043014.00,0419.78991,S,05539.85155,E,2,11,0.91,6.2,M,-47.6,M,,0000*7E
$GNGSA,A,3,24,20,05,22,12,14,,,,,,,1.62,0.91,1.35*11
$GNGSA,A,3,84,80,73,85,79,,,,,,,,1.62,0.91,1.35*15
$GPGSV,5,1,18,05,50,154,25,06,05,028,08,11,36,019,,12,21,352,08*73
$GPGSV,5,2,18,13,25,169,25,14,09,118,11,15,27,205,,18,12,222,08*79
$GPGSV,5,3,18,20,51,091,26,22,21,101,18,24,62,277,30,25,00,328,*7B
$GPGSV,5,4,18,29,11,286,,36,52,277,,40,86,350,32,41,58,082,*79
$GPGSV,5,5,18,49,32,274,,50,10,089,*78
$GLGSV,3,1,09,69,11,137,,70,12,198,,73,43,005,16,74,04,342,*63
$GLGSV,3,2,09,79,11,142,12,80,54,101,25,83,11,010,,84,46,320,10*6D
$GLGSV,3,3,09,85,34,250,17*57
$GNGLL,0419.78991,S,05539.85155,E,043014.00,A,D*69
$GNGRS,043014.00,1,6.4,-2.0,2.3,1.8,-5.0,-124,,,,,,*6B
$GNGRS,043014.00,1,8.4,3.6,1.7,-0.4,-25.2,,,,,,,*42
$GNGST,043014.00,84,,,,8.3,5.6,16*66
$GNZDA,043014.00,21,05,2025,00,00*79
$GNGBS,043014.00,8.3,5.6,16.3,,,,*61
$GNTXT,01,01,01,More than 100 frame errors, UART RX was disabled*70
b0X(j2y$`N5vb3[eq>H{4 V^:R
 
Y_EFI+JVOBP6eeS
T.@U"b(jO<$GNRMC,043015.00,A,0419.78969,S,05539.85159,E,0.446,,210525,,,D*7D
$GNVTG,,T,,M,0.446,N,0.826,K,D*32
$GNGNS,043015.00,0419.78969,S,05539.85159,E,DA,11,0.91,5.8,-47.6,,0000*51
$GNGGA,043015.00,0419.78969,S,05539.85159,E,2,11,0.91,5.8,M,-47.6,M,,0000*7D
$GNGSA,A,3,24,20,05,22,12,14,,,,,,,1.62,0.91,1.35*11
$GNGSA,A,3,84,80,73,85,79,,,,,,,,1.62,0.91,1.35*15
$GPGSV,5,1,18,05,50,153,23,06,05,028,08,11,36,019,,12,21,352,08*72
$GPGSV,5,2,18,13,25,169,24,14,09,118,09,15,27,205,,18,12,222,08*71
$GPGSV,5,3,18,20,51,091,24,22,21,101,15,24,62,277,28,25,00,328,*7D
$GPGSV,5,4,18,29,11,286,,36,52,277,,40,86,350,32,41,58,082,*79
$GPGSV,5,5,18,49,32,274,,50,10,089,*78
$GLGSV,3,1,09,69,11,137,,70,12,198,,73,43,005,14,74,04,342,*61
$GLGSV,3,2,09,79,11,142,12,80,54,101,24,83,11,010,,84,46,320,12*6E
$GLGSV,3,3,09,85,34,250,16*56
$GNGLL,0419.78969,S,05539.85159,E,043015.00,A,D*63
$GNGRS,043015.00,1,7.2,-5.1,3.8,3.7,11.0,21.5,,,,,,*76
$GNGRS,043015.00,1,0.1,3.6,1.9,-2.3,8.3,,,,,,,*56
$GNGST,043015.00,3623521,,,,8.6,5.7,16*5D
$GNZDA,043015.00,21,05,2025,00,00*78
$GNGBS,043015.00,8.6,5.7,16.5,,,,*62
$GNTXT,01,01,01,More than 100 frame errors, UART RX was disabled*70
b0Xj2$`!_vd3[e>H{4!V^:R
 
Y_EFI+JVOTP6eS
T.@U"TbjO@$GNRMC,043016.00,A,0419.78954,S,05539.85169,E,0.593,,210525,,,D*7A
$GNVTG,,T,,M,0.593,N,1.098,K,D*37
$GNGNS,043016.00,0419.78954,S,05539.85169,E,DA,10,0.98,5.9,-47.6,,0000*56
$GNGGA,043016.00,0419.78954,S,05539.85169,E,2,10,0.98,5.9,M,-47.6,M,,0000*7A
$GNGSA,A,3,24,20,05,22,12,14,,,,,,,1.67,0.98,1.35*1D
$GNGSA,A,3,84,80,85,79,,,,,,,,,1.67,0.98,1.35*1D
$GPGSV,5,1,18,05,50,153,26,06,04,028,09,11,36,019,21,12,21,352,08*74
$GPGSV,5,2,18,13,25,169,26,14,09,118,09,15,27,205,,18,12,222,08*73
$GPGSV,5,3,18,20,51,091,23,22,21,101,14,24,62,277,28,25,00,328,*7B
$GPGSV,5,4,18,29,11,286,,36,52,277,,40,86,350,33,41,58,082,*78
$GPGSV,5,5,18,49,32,274,,50,10,089,*78
$GLGSV,3,1,09,69,11,137,,70,12,198,,73,43,005,,74,04,342,*64
$GLGSV,3,2,09,79,11,142,12,80,54,101,23,83,11,010,,84,46,320,15*6E
$GLGSV,3,3,09,85,34,250,17*57
$GNGLL,0419.78954,S,05539.85169,E,043016.00,A,D*6D
$GNGRS,043016.00,1,6.4,-6.1,6.9,2.7,10.6,21.5,,,,,,*73
$GNGRS,043016.00,1,-0.1,2.5,-1.7,8.5,,,,,,,,*5D
$GNGST,043016.00,5344419,,,,8.9,5.8,17*57
$GNZDA,043016.00,21,05,2025,00,00*7B
$GNGBS,043016.00,8.9,5.8,16.6,,,,*62
$GNTXT,01,01,01,More than 100 frame errors, UART RX was disabled*70
b0Xj2<?$`g
v3[&e>H{4!V^
:R 
Y_EFI+JVOnP6eVS
T.@U"bjODvP$GNRMC,043017.00,A,0419.78943,S,05539.85170,E,0.525,,210525,,,D*78
$GNVTG,,T,,M,0.525,N,0.972,K,D*36
$GNGNS,043017.00,0419.78943,S,05539.85170,E,DA,10,0.98,5.7,-47.6,,0000*57
$GNGGA,043017.00,0419.78943,S,05539.85170,E,2,10,0.98,5.7,M,-47.6,M,,0000*7B
$GNGSA,A,3,24,20,05,22,12,14,,,,,,,1.67,0.98,1.35*1D
$GNGSA,A,3,84,80,85,79,,,,,,,,,1.67,0.98,1.35*1D
$GPGSV,5,1,18,05,50,153,26,06,04,028,09,11,36,019,19,12,21,352,16*70
$GPGSV,5,2,18,13,25,169,26,14,09,118,10,15,27,205,,18,12,222,09*7A
$GPGSV,5,3,18,20,51,091,22,22,21,101,17,24,62,277,27,25,00,328,*76
$GPGSV,5,4,18,29,11,286,,36,52,277,,40,86,350,33,41,58,082,*78
$GPGSV,5,5,18,49,32,274,,50,10,089,*78
$GLGSV,3,1,09,69,11,137,,70,12,198,,73,43,005,,74,04,342,*64
$GLGSV,3,2,09,79,11,142,12,80,54,101,21,83,11,010,,84,46,320,08*60
$GLGSV,3,3,09,85,34,250,17*57
$GNGLL,0419.78943,S,05539.85170,E,043017.00,A,D*62
$GNGRS,043017.00,1,7.5,-4.7,5.7,1.9,11.3,-46.5,,,,,,*5E
$GNGRS,043017.00,1,12.1,6.0,-2.9,72.8,,,,,,,,*7E
$GNGST,043017.00,77,,,,8.9,5.9,17*6D
$GNZDA,043017.00,21,05,2025,00,00*7A
$GNGBS,043017.00,8.9,5.9,16.5,,,,*61
$GNTXT,01,01,01,More than 100 frame errors, UART RX was disabled*70
b0Xj2oR$o`vs3[e>H{4!V^
:R 
Y_EFI+JVO
!P6eS
T
.@BU"bjOnHN$GNRMC,043018.00,A,0419.78955,S,05539.85162,E,0.188,,210525,,,D*70
$GNVTG,,T,,M,0.188,N,0.348,K,D*36
$GNGNS,043018.00,0419.78955,S,05539.85162,E,DA,10,0.98,5.5,-47.6,,0000*5E
$GNGGA,043018.00,0419.78955,S,05539.85162,E,2,10,0.98,5.5,M,-47.6,M,,0000*72
$GNGSA,A,3,24,20,05,22,12,14,,,,,,,1.67,0.98,1.35*1D
$GNGSA,A,3,84,80,85,79,,,,,,,,,1.67,0.98,1.35*1D
$GPGSV,5,1,18,05,50,153,27,06,04,028,07,11,36,019,17,12,21,352,11*76
$GPGSV,5,2,18,13,25,169,26,14,09,118,08,15,27,205,,18,12,222,08*72
$GPGSV,5,3,18,20,51,091,22,22,21,101,17,24,62,277,27,25,00,328,*76
$GPGSV,5,4,18,29,11,286,,36,52,277,,40,86,350,33,41,58,082,*78
$GPGSV,5,5,18,49,32,274,,50,10,089,*78
$GLGSV,3,1,09,69,11,137,,70,12,198,,73,43,005,,74,04,342,*64
$GLGSV,3,2,09,79,11,142,10,80,54,101,21,83,11,010,,84,46,320,10*6B
$GLGSV,3,3,09,85,34,250,18*58
$GNGLL,0419.78955,S,05539.85162,E,043018.00,A,D*69
$GNGRS,043018.00,1,1.8,-4.9,3.7,1.5,11.9,21.6,,,,,,*7B
$GNGRS,043018.00,1,0.7,4.4,-3.6,8.0,,,,,,,,*79
$GNGST,043018.00,5322353,,,,9.1,6.0,17*52
$GNZDA,043018.00,21,05,2025,00,00*75
$GNGBS,043018.00,9.1,6.0,16.6,,,,*6E
$GNTXT,01,01,01,More than 100 frame errors, UART RX was disabled*70
b0Xj2Lr$b`qvh3[0eQ!>nH{4!V^
:R 
Y_EFI+JVO
P6eS
T.@.U"IabjOVL& $GNRMC,043019.00,A,0419.78948,S,05539.85165,E,0.178,,210525,,,D*75
$GNVTG,,T,,M,0.178,N,0.329,K,D*3E
$GNGNS,043019.00,0419.78948,S,05539.85165,E,DA,10,0.98,5.6,-47.6,,0000*57
$GNGGA,043019.00,0419.78948,S,05539.85165,E,2,10,0.98,5.6,M,-47.6,M,,0000*7B
$GNGSA,A,3,24,20,05,22,12,14,,,,,,,1.67,0.98,1.35*1D
$GNGSA,A,3,84,80,85,79,,,,,,,,,1.67,0.98,1.35*1D
$GPGSV,5,1,18,05,50,153,27,06,04,028,07,11,36,019,15,12,21,352,15*70
$GPGSV,5,2,18,13,25,169,27,14,09,118,12,15,27,205,,18,12,222,08*78
$GPGSV,5,3,18,20,51,091,25,22,21,101,19,24,62,277,33,25,00,328,*7A
$GPGSV,5,4,18,29,11,286,,36,52,277,,40,86,350,33,41,58,082,*78
$GPGSV,5,5,18,49,32,274,,50,10,089,*78
$GLGSV,3,1,09,69,11,137,,70,12,198,,73,43,005,,74,04,342,*64
$GLGSV,3,2,09,79,11,142,10,80,54,101,21,83,11,010,,84,46,320,12*69
$GLGSV,3,3,09,85,34,250,18*58
$GNGLL,0419.78948,S,05539.85165,E,043019.00,A,D*63
$GNGRS,043019.00,1,6.2,-7.2,5.9,0.8,11.7,21.5,,,,,,*76
$GNGRS,043019.00,1,0.5,5.3,-4.4,7.9,,,,,,,,*7F
$GNGST,043019.00,6515618,,,,9.3,6.1,17*5B
$GNZDA,043019.00,21,05,2025,00,00*74
$GNGBS,043019.00,9.3,6.1,16.7,,,,*6D
$GNTXT,01,01,01,More than 100 frame errors, UART RX was disabled*70
b0Xj2I$`
v,3[el>_H{4!V^
:R 
Y_EFI+JVO)P6eS
T.@U"&bjO>P$GNRMC,043020.00,A,0419.78956,S,05539.85173,E,0.430,,210525,,,D*7E
$GNVTG,,T,,M,0.430,N,0.796,K,D*37
$GNGNS,043020.00,0419.78956,S,05539.85173,E,DA,11,0.89,5.9,-47.6,,0000*5B
$GNGGA,043020.00,0419.78956,S,05539.85173,E,2,11,0.89,5.9,M,-47.6,M,,0000*77
$GNGSA,A,3,24,20,11,05,22,12,14,,,,,,1.62,0.89,1.35*18
$GNGSA,A,3,84,80,85,79,,,,,,,,,1.62,0.89,1.35*18
$GPGSV,5,1,18,05,50,153,27,06,04,028,06,11,36,019,18,12,21,352,09*71
$GPGSV,5,2,18,13,25,169,28,14,09,118,10,15,27,205,07,18,12,222,11*7A
$GPGSV,5,3,18,20,51,091,25,22,21,101,21,24,62,277,31,25,00,328,*73
$GPGSV,5,4,18,29,11,286,,36,52,277,,40,86,350,33,41,58,082,*78
$GPGSV,5,5,18,49,32,274,,50,10,089,*78
$GLGSV,3,1,09,69,11,137,,70,12,198,,73,43,005,,74,04,342,*64
$GLGSV,3,2,09,79,11,142,08,80,54,101,21,83,11,010,,84,46,320,13*61
$GLGSV,3,3,09,85,34,250,18*58
$GNGLL,0419.78956,S,05539.85173,E,043020.00,A,D*61
$GNGRS,043020.00,1,6.1,-5.4,-23.4,7.7,1.1,-134,-125,,,,,*48
$GNGRS,043020.00,1,45.9,4.6,-6.2,107,,,,,,,,*5E
$GNGST,043020.00,104,,,,9.3,6.1,17*5C
$GNZDA,043020.00,21,05,2025,00,00*7E
$GNGBS,043020.00,9.3,6.1,16.7,,,,*67
$GNTXT,01,01,01,More than 100 frame errors, UART RX was disabled*70
b0Xj2
{$`vt3[e(>~H{4"V^
:R 
Y_sEFI+JVO=P6eS
T.@LU"7$bjO&T$GNRMC,043021.00,A,0419.78977,S,05539.85163,E,0.180,,210525,,,D*73
$GNVTG,,T,,M,0.180,N,0.333,K,D*32
$GNGNS,043021.00,0419.78977,S,05539.85163,E,DA,11,0.89,6.1,-47.6,,0000*53
$GNGGA,043021.00,0419.78977,S,05539.85163,E,2,11,0.89,6.1,M,-47.6,M,,0000*7F
$GNGSA,A,3,24,20,11,05,22,12,14,,,,,,1.62,0.89,1.35*18
$GNGSA,A,3,84,80,85,79,,,,,,,,,1.62,0.89,1.35*18
$GPGSV,5,1,18,05,50,153,27,06,04,028,10,11,36,019,20,12,21,352,09*7D
$GPGSV,5,2,18,13,25,169,29,14,09,118,11,15,27,205,13,18,12,222,14*7A
$GPGSV,5,3,18,20,51,091,25,22,21,101,20,24,62,277,30,25,00,328,*73
$GPGSV,5,4,18,29,11,286,,36,52,277,,40,86,350,34,41,58,082,*7F
$GPGSV,5,5,18,49,32,274,,50,10,089,*78
$GLGSV,3,1,09,69,11,137,,70,12,198,,73,43,005,,74,04,342,*64
$GLGSV,3,2,09,79,11,142,12,80,54,101,22,83,11,010,,84,46,320,13*69
$GLGSV,3,3,09,85,34,250,18*58
$GNGLL,0419.78977,S,05539.85163,E,043021.00,A,D*62
$GNGRS,043021.00,1,8.9,-5.2,-20.7,7.1,0.4,12.6,21.6,,,,,*4B
$GNGRS,043021.00,1,0.8,5.3,-7.1,8.3,,,,,,,,*7A
$GNGST,043021.00,5114423,,,,9.5,6.2,17*59
$GNZDA,043021.00,21,05,2025,00,00*7F
$GNGBS,043021.00,9.5,6.2,16.8,,,,*6C
$GNTXT,01,01,01,More than 100 frame errors, UART RX was disabled*70
b0Xj2$\`5v3[e~>fH{4#V^
:R 
Y_EFI+JVOP6eS
T.@nU"TbjOXX$GNRMC,043022.00,A,0419.79004,S,05539.85144,E,0.245,,210525,,,D*73
$GNVTG,,T,,M,0.245,N,0.453,K,D*39
$GNGNS,043022.00,0419.79004,S,05539.85144,E,DA,10,0.94,6.0,-47.6,,0000*55
$GNGGA,043022.00,0419.79004,S,05539.85144,E,2,10,0.94,6.0,M,-47.6,M,,0000*79
$GNGSA,A,3,24,20,11,05,22,12,14,,,,,,1.77,0.94,1.50*13
$GNGSA,A,3,84,80,85,,,,,,,,,,1.77,0.94,1.50*1D
$GPGSV,5,1,18,05,50,153,27,06,04,028,09,11,36,019,19,12,22,352,09*7C
$GPGSV,5,2,18,13,25,169,28,14,09,118,08,15,27,205,16,18,12,222,14*76
$GPGSV,5,3,18,20,51,091,24,22,21,101,21,24,62,277,30,25,00,328,*73
$GPGSV,5,4,18,29,11,286,,36,52,277,,40,86,350,35,41,58,082,*7E
$GPGSV,5,5,18,49,32,274,,50,10,089,*78
$GLGSV,3,1,09,69,11,137,,70,12,198,,73,43,005,,74,04,342,*64
$GLGSV,3,2,09,79,11,142,05,80,54,101,22,83,11,010,,84,46,320,08*65
$GLGSV,3,3,09,85,34,250,18*58
$GNGLL,0419.79004,S,05539.85144,E,043022.00,A,D*68
$GNGRS,043022.00,1,6.1,-5.8,-17.0,6.6,1.3,13.3,21.9,,,,,*4C
$GNGRS,043022.00,1,1.1,5.1,-7.7,,,,,,,,,*50
$GNGST,043022.00,3823889,,,,9.6,6.3,17*5F
$GNZDA,043022.00,21,05,2025,00,00*7C
$GNGBS,043022.00,9.6,6.3,16.9,,,,*6C
$GNTXT,01,01,01,More than 100 frame errors, UART RX was disabled*70
b0Xhj24$`Zvn93[e>H{4#V^
:R 
Y_qEFI+JVOP6eS
T.@1U"bhjO[$GNRMC,043023.00,A,0419.79017,S,05539.85150,E,0.046,,210525,,,D*74
$GNVTG,,T,,M,0.046,N,0.085,K,D*37
$GNGNS,043023.00,0419.79017,S,05539.85150,E,DA,11,0.89,6.8,-47.6,,0000*56
$GNGGA,043023.00,0419.79017,S,05539.85150,E,2,11,0.89,6.8,M,-47.6,M,,0000*7A
$GNGSA,A,3,24,20,11,05,22,12,14,,,,,,1.62,0.89,1.35*18
$GNGSA,A,3,84,80,85,79,,,,,,,,,1.62,0.89,1.35*18
$GPGSV,5,1,18,05,50,153,27,06,04,028,11,11,36,019,17,12,22,352,09*7B
$GPGSV,5,2,18,13,24,168,27,14,09,118,11,15,27,205,15,18,12,222,13*75
$GPGSV,5,3,18,20,51,091,23,22,21,101,21,24,62,277,29,25,00,328,*7C
$GPGSV,5,4,18,29,11,286,,36,52,277,,40,86,350,35,41,58,082,*7E
$GPGSV,5,5,18,49,32,274,,50,10,089,*78
$GLGSV,3,1,09,69,11,137,,70,12,198,,73,43,005,19,74,04,342,*6C
$GLGSV,3,2,09,79,11,142,11,80,54,101,20,83,11,010,,84,46,320,12*69
$GLGSV,3,3,09,85,34,250,19*59
$GNGLL,0419.79017,S,05539.85150,E,043023.00,A,D*6E
$GNGRS,043023.00,1,10.2,-4.9,-15.9,8.2,2.8,-47.7,-1.5,,,,,*4B
$GNGRS,043023.00,1,-110,7.2,-9.0,-108,,,,,,,,*7E
$GNGST,043023.00,91,,,,9.6,6.4,17*62
$GNZDA,043023.00,21,05,2025,00,00*7D
$GNGBS,043023.00,9.6,6.4,16.9,,,,*6A
$GNTXT,01,01,01,More than 100 frame errors, UART RX was disabled*70
b0XPj2$U`"vL'3[e>H{4#V^
:R 
Y_EFI+JVO
HP6eS
T.@U"7bPjO_]%$GNRMC,043024.00,A,0419.79016,S,05539.85155,E,0.037,,210525,,,D*71
$GNVTG,,T,,M,0.037,N,0.069,K,D*33
$GNGNS,043024.00,0419.79016,S,05539.85155,E,DA,11,0.89,7.0,-47.6,,0000*5C
$GNGGA,043024.00,0419.79016,S,05539.85155,E,2,11,0.89,7.0,M,-47.6,M,,0000*70
$GNGSA,A,3,24,20,11,05,22,12,14,,,,,,1.62,0.89,1.35*18
$GNGSA,A,3,84,80,85,79,,,,,,,,,1.62,0.89,1.35*18
$GPGSV,5,1,18,05,50,153,26,06,04,028,08,11,36,019,14,12,22,352,09*71
$GPGSV,5,2,18,13,24,168,28,14,09,118,12,15,27,205,11,18,12,222,13*7D
$GPGSV,5,3,18,20,51,091,23,22,21,101,22,24,62,277,28,25,00,328,*7E
$GPGSV,5,4,18,29,11,286,,36,52,277,,40,86,350,35,41,58,082,*7E
$GPGSV,5,5,18,49,32,274,,50,10,089,*78
$GLGSV,3,1,09,69,11,137,,70,12,198,,73,43,005,21,74,04,342,*67
$GLGSV,3,2,09,79,11,142,10,80,54,101,20,83,11,010,,84,46,320,12*68
$GLGSV,3,3,09,85,34,250,19*59
$GNGLL,0419.79016,S,05539.85155,E,043024.00,A,D*6D
$GNGRS,043024.00,1,15.3,-6.0,-19.6,7.3,-0.4,11.8,21.2,,,,,*54
$GNGRS,043024.00,1,0.3,7.9,-8.9,8.4,,,,,,,,*7C
$GNGST,043024.00,7173416,,,,9.8,6.5,17*53
$GNZDA,043024.00,21,05,2025,00,00*7A
$GNGBS,043024.00,9.8,6.5,16.9,,,,*62
$GNTXT,01,01,01,More than 100 frame errors, UART RX was disabled*70
b0X8j2P$v`vdH
3[e>xH{4#V^
:R 
Y_^EFI+.JVOVP6e S
T.@U"b8jOc5$GNRMC,043025.00,A,0419.79016,S,05539.85158,E,0.065,,210525,,,D*7A
$GNVTG,,T,,M,0.065,N,0.120,K,D*38
$GNGNS,043025.00,0419.79016,S,05539.85158,E,DA,12,0.89,7.4,-47.6,,0000*57
$GNGGA,043025.00,0419.79016,S,05539.85158,E,2,12,0.89,7.4,M,-47.6,M,,0000*7B
$GNGSA,A,3,24,20,11,05,15,22,12,14,,,,,1.62,0.89,1.35*1C
$GNGSA,A,3,84,80,85,79,,,,,,,,,1.62,0.89,1.35*18
$GPGSV,5,1,18,05,50,153,26,06,04,028,09,11,36,019,17,12,22,352,09*73
$GPGSV,5,2,18,13,24,168,27,14,09,118,13,15,27,205,12,18,12,222,11*72
$GPGSV,5,3,18,20,51,091,24,22,21,101,23,24,62,277,28,25,00,328,*78
$GPGSV,5,4,18,29,11,286,,36,52,277,,40,86,350,35,41,58,082,*7E
$GPGSV,5,5,18,49,32,274,,50,10,089,*78
$GLGSV,3,1,09,69,11,137,,70,12,198,,73,43,005,19,74,04,342,*6C
$GLGSV,3,2,09,79,11,142,07,80,54,101,21,83,11,010,,84,46,320,13*6E
$GLGSV,3,3,09,85,34,250,20*53
$GNGLL,0419.79016,S,05539.85158,E,043025.00,A,D*61
$GNGRS,043025.00,1,16.6,-5.9,-14.2,5.9,26.3,1.8,11.6,21.5,,,,*68
$GNGRS,043025.00,1,0.1,5.4,-8.0,8.5,,,,,,,,*78
$GNGST,043025.00,7173416,,,,9.9,6.5,17*53
$GNZDA,043025.00,21,05,2025,00,00*7B
$GNGBS,043025.00,9.9,6.5,17.0,,,,*6A
$GNTXT,01,01,01,More than 100 frame errors, UART RX was disabled*70
b0X j2BH$X`Rv3[e^>(H{4#V^
:R 
Y_EFI+`JVOTP6e+S
T.@@U"b jOg$GNRMC,043026.00,A,0419.79029,S,05539.85161,E,0.072,,210525,,,D*79
$GNVTG,,T,,M,0.072,N,0.134,K,D*3B
$GNGNS,043026.00,0419.79029,S,05539.85161,E,DA,10,0.90,8.6,-47.6,,0000*55
$GNGGA,043026.00,0419.79029,S,05539.85161,E,2,10,0.90,8.6,M,-47.6,M,,0000*79
$GNGSA,A,3,24,20,11,05,22,12,,,,,,,1.75,0.90,1.50*10
$GNGSA,A,3,84,80,85,79,,,,,,,,,1.75,0.90,1.50*15
$GPGSV,5,1,18,05,50,153,27,06,04,028,11,11,36,019,17,12,22,352,08*7A
$GPGSV,5,2,18,13,24,168,26,14,09,118,07,15,27,205,09,18,12,222,12*7F
$GPGSV,5,3,18,20,51,091,24,22,21,101,20,24,62,277,28,25,00,328,*7B
$GPGSV,5,4,18,29,11,286,,36,52,277,,40,86,350,35,41,58,082,*7E
$GPGSV,5,5,18,49,32,274,,50,10,089,*78
$GLGSV,3,1,09,69,11,137,,70,12,198,,73,43,005,17,74,04,342,*62
$GLGSV,3,2,09,79,11,142,08,80,54,101,21,83,11,010,,84,46,320,09*6A
$GLGSV,3,3,09,85,34,250,18*58
$GNGLL,0419.79029,S,05539.85161,E,043026.00,A,D*64
$GNGRS,043026.00,1,10.6,-6.2,-9.4,5.8,3.5,-25.9,,,,,,*75
$GNGRS,043026.00,1,-42.9,8.1,-10.2,-99.0,,,,,,,,*4B
$GNGST,043026.00,82,,,,9.9,6.6,17*68
$GNZDA,043026.00,21,05,2025,00,00*78
$GNGBS,043026.00,9.9,6.6,17.0,,,,*6A
$GNTXT,01,01,01,More than 100 frame errors, UART RX was disabled*70
b0Xj2F$`vo3[e>H{4$V^
:R 
Y_SEFI+JVO3P6eS
T.@9U"R`'bjOk]$GNRMC,043027.00,A,0419.79037,S,05539.85160,E,0.072,,210525,,,D*76
$GNVTG,,T,,M,0.072,N,0.133,K,D*3C
$GNGNS,043027.00,0419.79037,S,05539.85160,E,DA,13,0.85,8.6,-47.6,,0000*5D
$GNGGA,043027.00,0419.79037,S,05539.85160,E,2,12,0.85,8.6,M,-47.6,M,,0000*70
$GNGSA,A,3,24,20,11,05,15,22,12,14,,,,,1.59,0.85,1.35*18
$GNGSA,A,3,84,80,73,85,79,,,,,,,,1.59,0.85,1.35*18
$GPGSV,5,1,18,05,50,153,29,06,04,028,07,11,36,019,15,12,22,352,17*7F
$GPGSV,5,2,18,13,24,168,26,14,09,118,13,15,27,205,11,18,12,222,14*75
$GPGSV,5,3,18,20,51,091,23,22,21,101,19,24,62,277,30,25,00,328,*7F
$GPGSV,5,4,18,29,11,286,,36,52,277,,40,86,350,36,41,58,082,*7D
$GPGSV,5,5,18,49,32,274,,50,10,089,*78
$GLGSV,3,1,09,69,11,137,,70,12,198,,73,43,005,17,74,04,342,*62
$GLGSV,3,2,09,79,11,142,08,80,54,101,24,83,11,010,,84,46,320,13*64
$GLGSV,3,3,09,85,34,250,19*59
$GNGLL,0419.79037,S,05539.85160,E,043027.00,A,D*6B
$GNGRS,043027.00,1,7.4,-5.5,-8.2,2.2,24.4,4.2,12.1,21.6,,,,*68
$GNGRS,043027.00,1,0.6,7.7,-8.1,-12.0,8.2,,,,,,,*4A
$GNGST,043027.00,4858207,,,,9.7,6.6,17*59
$GNZDA,043027.00,21,05,2025,00,00*79
$GNGBS,043027.00,9.7,6.6,17.0,,,,*65
$GNTXT,01,01,01,More than 100 frame errors, UART RX was disabled*70
b0Xj2c$`v}3[e>AH{4'V^
:R 
Y_<EFI+JVO/P6eiS
T.@:U"bjO~o$GNRMC,043028.00,A,0419.79040,S,05539.85157,E,0.178,,210525,,,D*76
$GNVTG,,T,,M,0.178,N,0.330,K,D*36
$GNGNS,043028.00,0419.79040,S,05539.85157,E,DA,12,0.85,8.8,-47.6,,0000*59
$GNGGA,043028.00,0419.79040,S,05539.85157,E,2,12,0.85,8.8,M,-47.6,M,,0000*75
$GNGSA,A,3,24,20,11,05,22,12,14,,,,,,1.59,0.85,1.35*1C
$GNGSA,A,3,84,80,73,85,79,,,,,,,,1.59,0.85,1.35*18
$GPGSV,5,1,18,05,50,153,31,06,04,028,08,11,36,019,18,12,22,352,18*7B
$GPGSV,5,2,18,13,24,168,25,14,09,118,09,15,27,205,,18,13,222,13*7B
$GPGSV,5,3,18,20,51,091,24,22,21,101,19,24,62,277,31,25,00,328,*79
$GPGSV,5,4,18,29,11,286,,36,52,277,,40,86,350,39,41,58,082,*72
$GPGSV,5,5,18,49,32,274,,50,10,089,*78
$GLGSV,3,1,09,69,11,137,,70,12,198,,73,43,005,19,74,04,342,*6C
$GLGSV,3,2,09,79,11,142,12,80,54,101,25,83,11,010,,84,46,320,11*6C
$GLGSV,3,3,09,85,34,250,22*51
$GNGLL,0419.79040,S,05539.85157,E,043028.00,A,D*60
$GNGRS,043028.00,1,8.3,-5.2,-8.0,-2.8,4.4,9.2,21.7,,,,,*6F
$GNGRS,043028.00,1,0.6,6.2,-7.6,-11.4,8.2,,,,,,,*4E
$GNGST,043028.00,4860293,,,,9.5,6.6,17*52
$GNZDA,043028.00,21,05,2025,00,00*76
$GNGBS,043028.00,9.5,6.6,17.0,,,,*68
$GNTXT,01,01,01,More than 100 frame errors, UART RX was disabled*70
b0Xj2f
$,`62
vl3[e=>H{4&V^
:R 
Y_EFI+JVO%P6e6S
T.@]U"
TbjOfs$GNRMC,043029.00,A,0419.79044,S,05539.85155,E,0.015,,210525,,,D*7B
$GNVTG,,T,,M,0.015,N,0.027,K,D*39
$GNGNS,043029.00,0419.79044,S,05539.85155,E,DA,12,0.85,8.6,-47.6,,0000*50
$GNGGA,043029.00,0419.79044,S,05539.85155,E,2,12,0.85,8.6,M,-47.6,M,,0000*7C
$GNGSA,A,3,24,20,11,05,22,12,14,,,,,,1.59,0.85,1.34*1D
$GNGSA,A,3,84,80,73,85,79,,,,,,,,1.59,0.85,1.34*19
$GPGSV,5,1,18,05,50,153,31,06,04,028,10,11,36,019,18,12,22,352,18*72
$GPGSV,5,2,18,13,24,168,26,14,09,118,10,15,27,205,,18,13,222,12*71
$GPGSV,5,3,18,20,51,091,24,22,21,101,18,24,62,277,30,25,00,328,*79
$GPGSV,5,4,18,29,11,286,,36,52,277,,40,86,350,38,41,58,082,*73
$GPGSV,5,5,18,49,32,274,,50,10,089,*78
$GLGSV,3,1,09,69,11,137,,70,12,198,,73,43,005,17,74,04,342,*62
$GLGSV,3,2,09,79,11,142,11,80,54,101,26,83,11,010,,84,46,320,11*6C
$GLGSV,3,3,09,85,34,250,25*56
$GNGLL,0419.79044,S,05539.85155,E,043029.00,A,D*67
$GNGRS,043029.00,1,9.8,-6.1,-7.2,1.0,5.7,8.2,-14.3,,,,,*63
$GNGRS,043029.00,1,31.6,3.1,-13.8,-8.2,33.7,,,,,,,*43
$GNGST,043029.00,69,,,,9.3,6.5,17*6B
$GNZDA,043029.00,21,05,2025,00,00*77
$GNGBS,043029.00,9.3,6.5,16.9,,,,*64
$GNTXT,01,01,01,More than 100 frame errors, UART RX was disabled*70
b0Xk2 _$` v3Ze>H{4$V^
:R 
Y_EFI+2JVO\P6eS
T.@;U"MbkONwm$GNRMC,043030.00,A,0419.79052,S,05539.85153,E,0.092,,210525,,,D*7D
$GNVTG,,T,,M,0.092,N,0.170,K,D*35
$GNGNS,043030.00,0419.79052,S,05539.85153,E,DA,12,0.85,8.8,-47.6,,0000*57
$GNGGA,043030.00,0419.79052,S,05539.85153,E,2,12,0.85,8.8,M,-47.6,M,,0000*7B
$GNGSA,A,3,24,20,11,05,22,12,14,,,,,,1.59,0.85,1.34*1D
$GNGSA,A,3,84,80,73,85,79,,,,,,,,1.59,0.85,1.34*19
$GPGSV,5,1,18,05,50,153,31,06,04,028,09,11,36,019,16,12,22,352,18*74
$GPGSV,5,2,18,13,24,168,25,14,09,118,08,15,27,205,,18,13,222,13*7A
$GPGSV,5,3,18,20,51,090,25,22,21,101,19,24,62,277,30,25,00,328,*78
$GPGSV,5,4,18,29,11,286,,36,52,277,,40,86,350,36,41,58,082,*7D
$GPGSV,5,5,18,49,32,274,,50,10,089,*78
$GLGSV,3,1,09,69,11,137,,70,12,198,,73,43,005,17,74,04,342,*62
$GLGSV,3,2,09,79,11,142,08,80,54,101,27,83,11,010,,84,46,320,11*65
$GLGSV,3,3,09,85,34,250,24*57
$GNGLL,0419.79052,S,05539.85153,E,043030.00,A,D*6E
$GNGRS,043030.00,1,6.6,-3.7,-6.3,-2.2,5.1,6.8,21.9,,,,,*66
$GNGRS,043030.00,1,0.6,2.3,-17.4,-10.6,8.6,,,,,,,*76
$GNGST,043030.00,5947882,,,,9.1,6.5,17*53
$GNZDA,043030.00,21,05,2025,00,00*7F
$GNGBS,043030.00,9.1,6.5,16.8,,,,*6F
$GNTXT,01,01,01,More than 100 frame errors, UART RX was disabled*70
b0Xk2cv$`v3Ze>H{4$V^
:R 
Y_EFI+7JVOyP6eS
T.@9U"bkO6{E$GNRMC,043031.00,A,0419.79050,S,05539.85158,E,0.033,,210525,,,D*7E
$GNVTG,,T,,M,0.033,N,0.060,K,D*3E
$GNGNS,043031.00,0419.79050,S,05539.85158,E,DA,13,0.80,9.1,-47.6,,0000*53
$GNGGA,043031.00,0419.79050,S,05539.85158,E,2,12,0.80,9.1,M,-47.6,M,,0000*7E
$GNGSA,A,3,24,20,11,05,13,22,12,14,,,,,1.56,0.80,1.33*12
$GNGSA,A,3,84,80,73,85,79,,,,,,,,1.56,0.80,1.33*14
$GPGSV,5,1,18,05,50,153,31,06,04,028,09,11,36,019,17,12,22,352,16*7B
$GPGSV,5,2,18,13,24,168,23,14,09,118,09,15,27,205,19,18,13,222,13*75
$GPGSV,5,3,18,20,51,090,24,22,20,101,21,24,62,277,29,25,00,328,*7B
$GPGSV,5,4,18,29,11,286,,36,52,277,,40,86,350,36,41,58,082,*7D
$GPGSV,5,5,18,49,32,274,,50,10,089,*78
$GLGSV,3,1,09,69,11,137,,70,12,198,,73,43,005,18,74,04,342,*6D
$GLGSV,3,2,09,79,11,142,13,80,54,101,25,83,11,010,,84,46,320,11*6D
$GLGSV,3,3,09,85,34,250,22*51
$GNGLL,0419.79050,S,05539.85158,E,043031.00,A,D*66
$GNGRS,043031.00,1,5.0,-0.9,-3.7,-1.6,-7.6,4.1,6.7,21.9,,,,*65
$GNGRS,043031.00,1,0.6,1.6,-17.4,-8.8,8.9,,,,,,,*49
$GNGST,043031.00,5714540,,,,8.9,6.5,17*50
$GNZDA,043031.00,21,05,2025,00,00*7E
$GNGBS,043031.00,8.9,6.5,16.8,,,,*67
$GNTXT,01,01,01,More than 100 frame errors, UART RX was disabled*70
b0Xk2K$`v3Ze>`H{4"V^
:R 
Y_EFI+JVO
P6eS
T.@;U"%6bkOd$GNRMC,043032.00,A,0419.79049,S,05539.85153,E,0.147,,210525,,,D*7C
$GNVTG,,T,,M,0.147,N,0.273,K,D*3C
$GNGNS,043032.00,0419.79049,S,05539.85153,E,DA,13,0.80,9.4,-47.6,,0000*56
$GNGGA,043032.00,0419.79049,S,05539.85153,E,2,12,0.80,9.4,M,-47.6,M,,0000*7B
$GNGSA,A,3,24,20,11,05,13,22,12,14,,,,,1.56,0.80,1.33*12
$GNGSA,A,3,84,80,73,85,79,,,,,,,,1.56,0.80,1.33*14
$GPGSV,5,1,18,05,50,153,30,06,04,028,11,11,36,019,16,12,22,352,15*71
$GPGSV,5,2,18,13,24,168,22,14,09,118,09,15,27,205,18,18,13,222,16*70
$GPGSV,5,3,18,20,51,090,25,22,20,101,20,24,62,277,30,25,00,328,*73
$GPGSV,5,4,18,29,11,286,,36,52,277,,40,86,350,34,41,58,082,*7F
$GPGSV,5,5,18,49,32,274,,50,10,089,*78
$GLGSV,3,1,09,69,11,137,,70,12,198,,73,43,005,19,74,04,342,*6C
$GLGSV,3,2,09,79,11,142,09,80,54,101,24,83,11,010,,84,46,320,11*67
$GLGSV,3,3,09,85,34,250,22*51
$GNGLL,0419.79049,S,05539.85153,E,043032.00,A,D*66
$GNGRS,043032.00,1,8.6,-0.6,-5.0,2.2,-8.9,1.3,9.2,-54.9,,,,*6B
$GNGRS,043032.00,1,-2.0,1.7,-15.4,-9.9,26.9,,,,,,,*5C
$GNGST,043032.00,70,,,,8.7,6.5,17*6C
$GNZDA,043032.00,21,05,2025,00,00*7D
$GNGBS,043032.00,8.7,6.5,16.6,,,,*64
$GNTXT,01,01,01,More than 100 frame errors, UART RX was disabled*70
b0Xxk2<$`-v3=3Z)e>]H{4!V^
:R 
Y_EFI+TJVO@P6eS
T.@ U"bxkO$GNRMC,043033.00,A,0419.79029,S,05539.85171,E,0.411,,210525,,,D*7D
$GNVTG,,T,,M,0.411,N,0.761,K,D*3C
$GNGNS,043033.00,0419.79029,S,05539.85171,E,DA,12,0.85,9.4,-47.6,,0000*55
$GNGGA,043033.00,0419.79029,S,05539.85171,E,2,12,0.85,9.4,M,-47.6,M,,0000*79
$GNGSA,A,3,24,20,05,13,22,12,14,,,,,,1.58,0.85,1.33*19
$GNGSA,A,3,84,80,73,85,79,,,,,,,,1.58,0.85,1.33*1F
$GPGSV,5,1,18,05,50,153,24,06,04,028,11,11,36,019,17,12,22,352,14*74
$GPGSV,5,2,18,13,24,168,21,14,09,118,11,15,27,205,17,18,13,222,17*74
$GPGSV,5,3,18,20,51,090,25,22,20,101,19,24,62,275,29,25,00,328,*73
$GPGSV,5,4,18,29,11,286,,36,52,277,,40,86,350,33,41,58,082,*78
$GPGSV,5,5,18,49,32,274,,50,10,089,*78
$GLGSV,3,1,09,69,11,137,,70,12,198,,73,43,005,17,74,04,342,*62
$GLGSV,3,2,09,79,11,142,08,80,54,101,22,83,11,010,,84,46,320,11*60
$GLGSV,3,3,09,85,34,250,19*59
$GNGLL,0419.79029,S,05539.85171,E,043033.00,A,D*61
$GNGRS,043033.00,1,11.2,-2.1,3.2,-9.8,0.2,10.1,21.0,,,,,*49
$GNGRS,043033.00,1,0.3,1.3,-17.1,-10.1,8.3,,,,,,,*74
$GNGST,043033.00,214318,,,,8.6,6.5,17*66
$GNZDA,043033.00,21,05,2025,00,00*7C
$GNGBS,043033.00,8.6,6.5,16.6,,,,*64
$GNTXT,01,01,01,More than 100 frame errors, UART RX was disabled*70
b0X`k2]$H`
vJ3Z-e >?I{4 V^
:R 
Y_EFI+JVOGP6eS
T.@BU"b`kO1$GNRMC,043034.00,A,0419.79053,S,05539.85158,E,0.280,,210525,,,D*72
$GNVTG,,T,,M,0.280,N,0.518,K,D*3E
$GNGNS,043034.00,0419.79053,S,05539.85158,E,DA,13,0.80,9.9,-47.6,,0000*5D
$GNGGA,043034.00,0419.79053,S,05539.85158,E,2,12,0.80,9.9,M,-47.6,M,,0000*70
$GNGSA,A,3,24,20,11,05,13,22,12,14,,,,,1.56,0.80,1.33*12
$GNGSA,A,3,84,80,73,85,79,,,,,,,,1.56,0.80,1.33*14
$GPGSV,5,1,18,05,50,153,29,06,04,028,06,11,36,019,17,12,22,352,14*7F
$GPGSV,5,2,18,13,24,168,20,14,09,118,10,15,27,205,16,18,13,222,17*75
$GPGSV,5,3,18,20,51,090,26,22,20,101,20,24,62,275,32,25,00,329,*71
$GPGSV,5,4,18,29,11,286,,36,52,277,,40,86,350,32,41,58,082,*79
$GPGSV,5,5,18,49,32,274,,50,10,089,*78
$GLGSV,3,1,09,69,11,137,,70,12,198,,73,43,005,19,74,04,342,*6C
$GLGSV,3,2,09,79,11,142,09,80,54,101,21,83,11,010,,84,46,320,11*62
$GLGSV,3,3,09,85,34,250,19*59
$GNGLL,0419.79053,S,05539.85158,E,043034.00,A,D*60
$GNGRS,043034.00,1,5.7,-7.2,-7.0,-2.9,-8.3,-0.7,9.6,21.2,,,,*44
$GNGRS,043034.00,1,0.7,-0.6,-17.7,-11.2,8.4,,,,,,,*5D
$GNGST,043034.00,3300138,,,,8.4,6.4,16*54
$GNZDA,043034.00,21,05,2025,00,00*7B
$GNGBS,043034.00,8.4,6.4,16.5,,,,*63
$GNTXT,01,01,01,More than 100 frame errors, UART RX was disabled*70
b0XHk2.$d`v3Ze>I{4 V^
:R 
Y_EFI+0JVOP6eS
T
.@U"acbHkO$GNRMC,043035.00,A,0419.79082,S,05539.85138,E,0.578,,210525,,,D*79
$GNVTG,,T,,M,0.578,N,1.070,K,D*34
$GNGNS,043035.00,0419.79082,S,05539.85138,E,DA,12,0.83,10.0,-47.6,,0000*65
$GNGGA,043035.00,0419.79082,S,05539.85138,E,2,12,0.83,10.0,M,-47.6,M,,0000*49
$GNGSA,A,3,24,20,11,05,13,22,12,14,,,,,1.57,0.83,1.33*10
$GNGSA,A,3,80,73,85,79,,,,,,,,,1.57,0.83,1.33*1A
$GPGSV,5,1,18,05,50,153,29,06,04,028,08,11,36,019,15,12,22,352,14*73
$GPGSV,5,2,18,13,24,168,19,14,09,118,09,15,27,205,15,18,13,222,16*75
$GPGSV,5,3,18,20,51,090,24,22,20,101,20,24,62,275,31,25,00,329,*70
$GPGSV,5,4,18,29,11,286,,36,52,277,,40,86,350,32,41,58,082,*79
$GPGSV,5,5,18,49,32,274,,50,10,089,*78
$GLGSV,3,1,09,69,11,137,,70,12,198,,73,43,005,17,74,04,342,*62
$GLGSV,3,2,09,79,11,142,11,80,54,101,22,83,11,010,,84,46,320,10*69
$GLGSV,3,3,09,85,34,250,19*59
$GNGLL,0419.79082,S,05539.85138,E,043035.00,A,D*6B
$GNGRS,043035.00,1,10.3,-8.3,-9.2,4.1,-5.2,2.8,9.6,-28.6,,,,*58
$GNGRS,043035.00,1,1.7,-14.9,-9.3,34.6,,,,,,,,*50
$GNGST,043035.00,66,,,,8.5,6.6,17*6D
$GNZDA,043035.00,21,05,2025,00,00*7A
$GNGBS,043035.00,8.5,6.6,16.6,,,,*62
$GNTXT,01,01,01,More than 100 frame errors, UART RX was disabled*70
b0X0k2
^$+`v3Ze>uI{4$V^
:R 
Y_EFI+>JVO
}P6e|S
T
.@3U"}e)b0kO|$GNRMC,043036.00,A,0419.79089,S,05539.85132,E,0.498,,210525,,,D*74
$GNVTG,,T,,M,0.498,N,0.922,K,D*34
$GNGNS,043036.00,0419.79089,S,05539.85132,E,DA,13,0.76,10.4,-47.6,,0000*68
$GNGGA,043036.00,0419.79089,S,05539.85132,E,2,12,0.76,10.4,M,-47.6,M,,0000*45
$GNGSA,A,3,24,20,11,05,13,15,22,12,14,,,,1.52,0.76,1.32*1A
$GNGSA,A,3,80,73,85,79,,,,,,,,,1.52,0.76,1.32*14
$GPGSV,5,1,18,05,50,153,29,06,04,028,10,11,36,019,16,12,22,352,14*79
$GPGSV,5,2,18,13,24,168,18,14,09,118,08,15,27,205,17,18,13,222,15*74
$GPGSV,5,3,18,20,51,090,23,22,20,101,20,24,62,275,30,25,00,329,*76
$GPGSV,5,4,18,29,11,286,,36,52,277,,40,86,350,36,41,58,082,*7D
$GPGSV,5,5,18,49,32,274,,50,10,089,*78
$GLGSV,3,1,09,69,11,137,,70,12,198,,73,43,005,16,74,04,342,*63
$GLGSV,3,2,09,79,11,142,10,80,54,101,23,83,11,010,,84,46,320,10*69
$GLGSV,3,3,09,85,34,250,20*53
