b0Ly?W0[:#/}
!
5U={4V^:R 
Y
kAGi
HeJKNiL
!VV\PW,X~byrz[Y$GNRMC,053335.00,A,0420.01822,S,05539.73796,E,0.074,,230525,,,A*79
$GNVTG,,T,,M,0.074,N,0.138,K,A*34
$GNGNS,053335.00,0420.01822,S,05539.73796,E,AA,14,0.76,21.0,-47.6,,*60
$GNGGA,053335.00,0420.01822,S,05539.73796,E,1,12,0.76,21.0,M,-47.6,M,,*4C
$GNGSA,A,3,24,20,05,13,15,22,12,18,23,,,,1.51,0.76,1.31*17
$GNGSA,A,3,86,75,87,72,76,,,,,,,,1.51,0.76,1.31*1C
$GPGSV,5,1,17,05,63,087,28,11,08,025,,12,48,014,28,13,16,140,09*78
$GPGSV,5,2,17,15,30,174,19,18,31,249,22,20,35,047,16,22,08,130,10*7A
$GPGSV,5,3,17,23,15,208,19,24,53,210,30,25,25,341,,29,09,317,*7F
$GPGSV,5,4,17,36,52,277,,40,86,350,,41,58,082,30,49,32,274,*7E
$GPGSV,5,5,17,50,10,089,*4A
$GLGSV,3,1,09,65,04,207,,71,17,105,09,72,23,157,13,74,27,149,07*69
$GLGSV,3,2,09,75,78,105,30,76,33,342,10,86,19,348,08,87,29,300,24*62
$GLGSV,3,3,09,88,08,243,*51
$GNGLL,0420.01822,S,05539.73796,E,053335.00,A,A*60
$GNGRS,053335.00,1,-0.2,-9.0,-6.2,16.3,0.6,25.9,4.1,-0.8,5.0,,,*76
$GNGRS,053335.00,1,0.8,-1.3,4.8,-6.7,-2.4,,,,,,,*51
$GNGST,053335.00,4665932,,,,4.4,6.2,11*59
$GNZDA,053335.00,23,05,2025,00,00*7A
$GNGBS,053335.00,4.4,6.2,11.3,,,,*6B
$GNTXT,01,01,01,More than 100 frame errors, UART RX was disabled*70
b0L}?W07#/9
!5U={4V^:R 
Y
kAGi
H_J
KNiL
!VV\DW,FX#b}rb[1$GNRMC,053336.00,A,0420.01820,S,05539.73795,E,0.076,,230525,,,A*79
$GNVTG,,T,,M,0.076,N,0.141,K,A*38
$GNGNS,053336.00,0420.01820,S,05539.73795,E,AA,16,0.68,21.0,-47.6,,*6F
$GNGGA,053336.00,0420.01820,S,05539.73795,E,1,12,0.68,21.0,M,-47.6,M,,*41
$GNGSA,A,3,24,20,05,13,15,22,12,18,23,,,,1.40,0.68,1.22*1A
$GNGSA,A,3,86,74,75,87,71,72,76,,,,,,1.40,0.68,1.22*14
$GPGSV,5,1,17,05,63,087,26,11,08,025,,12,48,014,28,13,16,140,12*7C
$GPGSV,5,2,17,15,30,174,18,18,31,249,21,20,35,047,16,22,08,130,09*70
$GPGSV,5,3,17,23,15,208,18,24,53,210,30,25,25,341,,29,09,317,*7E
$GPGSV,5,4,17,36,52,277,,40,86,350,,41,58,082,29,49,32,274,*76
$GPGSV,5,5,17,50,10,089,*4A
$GLGSV,3,1,09,65,04,207,,71,17,105,11,72,23,157,12,74,27,149,10*67
$GLGSV,3,2,09,75,78,105,29,76,33,342,10,86,19,348,11,87,29,300,23*65
$GLGSV,3,3,09,88,08,243,*51
$GNGLL,0420.01820,S,05539.73795,E,053336.00,A,A*62
$GNGRS,053336.00,1,-0.8,-9.7,-5.3,15.9,-1.0,25.6,1.8,-3.1,5.4,,,*54
$GNGRS,053336.00,1,0.7,-0.2,0.3,5.8,21.9,-9.3,-2.3,,,,,*69
$GNGST,053336.00,4344585,,,,4.4,6.2,11*5C
$GNZDA,053336.00,23,05,2025,00,00*79
$GNGBS,053336.00,4.4,6.2,11.5,,,,*6E
$GNTXT,01,01,01,More than 100 frame errors, UART RX was disabled*70
b0L?WA0#/v5U={4V^:R 
Y
kAGi$
HJ8K!NilL!VRV\W,XbrJ[$GNRMC,053337.00,A,0420.01830,S,05539.73818,E,0.231,,230525,,,A*72
$GNVTG,,T,,M,0.231,N,0.428,K,A*33
$GNGNS,053337.00,0420.01830,S,05539.73818,E,AA,16,0.68,20.4,-47.6,,*60
$GNGGA,053337.00,0420.01830,S,05539.73818,E,1,12,0.68,20.4,M,-47.6,M,,*4E
$GNGSA,A,3,24,20,05,13,15,22,12,18,23,,,,1.40,0.68,1.22*1A
$GNGSA,A,3,86,74,75,87,71,72,76,,,,,,1.40,0.68,1.22*14
$GPGSV,5,1,17,05,63,087,26,11,08,025,,12,48,014,31,13,16,140,17*71
$GPGSV,5,2,17,15,30,174,16,18,31,249,22,20,35,047,18,22,08,130,17*7C
$GPGSV,5,3,17,23,15,208,19,24,53,210,31,25,25,341,,29,09,317,*7E
$GPGSV,5,4,17,36,52,277,,40,86,350,,41,58,082,30,49,32,274,*7E
$GPGSV,5,5,17,50,10,089,*4A
$GLGSV,3,1,09,65,04,207,,71,17,105,12,72,23,157,11,74,27,149,09*6F
$GLGSV,3,2,09,75,78,105,33,76,33,342,14,86,19,348,08,87,29,300,23*62
$GLGSV,3,3,09,88,08,243,*51
$GNGLL,0420.01830,S,05539.73818,E,053337.00,A,A*68
$GNGRS,053337.00,1,-0.2,-9.1,-4.5,12.2,-2.6,-30.6,-0.4,-5.5,4.8,,,*51
$GNGRS,053337.00,1,-84.9,146,1.1,4.0,23.4,-8.0,0.8,,,,,*66
$GNGST,053337.00,81,,,,4.4,6.3,11*6A
$GNZDA,053337.00,23,05,2025,00,00*78
$GNGBS,053337.00,4.4,6.3,11.5,,,,*6E
$GNTXT,01,01,01,More than 100 frame errors, UART RX was disabled*70
b0L?Wt 0>#/A 5_U={4V^:R 
Y
kAGi
HpJ
K!NiL!VV\EW,eXbr2\$GNRMC,053338.00,A,0420.01828,S,05539.73830,E,0.182,,230525,,,A*75
$GNVTG,,T,,M,0.182,N,0.336,K,A*30
$GNGNS,053338.00,0420.01828,S,05539.73830,E,AA,16,0.66,20.3,-47.6,,*65
$GNGGA,053338.00,0420.01828,S,05539.73830,E,1,12,0.66,20.3,M,-47.6,M,,*4B
$GNGSA,A,3,24,20,05,13,15,22,12,18,23,,,,1.31,0.66,1.14*17
$GNGSA,A,3,86,74,75,87,71,72,76,,,,,,1.31,0.66,1.14*19
$GPGSV,5,1,17,05,63,087,28,11,08,025,,12,48,014,32,13,16,140,13*78
$GPGSV,5,2,17,15,30,174,17,18,31,249,24,20,35,047,18,22,08,130,17*7B
$GPGSV,5,3,17,23,15,208,21,24,53,210,32,25,25,341,,29,09,317,*76
$GPGSV,5,4,17,36,52,277,,40,86,350,,41,58,082,31,49,32,274,*7F
$GPGSV,5,5,17,50,10,089,*4A
$GLGSV,3,1,09,65,04,207,,71,17,105,14,72,23,157,14,74,27,149,10*64
$GLGSV,3,2,09,75,78,105,33,76,33,342,12,86,19,348,11,87,29,300,25*6A
$GLGSV,3,3,09,88,08,243,*51
$GNGLL,0420.01828,S,05539.73830,E,053338.00,A,A*64
$GNGRS,053338.00,1,-1.6,-7.8,-1.4,16.0,-3.7,25.5,2.3,-3.4,5.8,,,*5A
$GNGRS,053338.00,1,0.7,-0.2,4.0,3.6,23.3,-6.6,-2.6,,,,,*6F
$GNGST,053338.00,2976826,,,,4.4,6.2,11*5B
$GNZDA,053338.00,23,05,2025,00,00*77
$GNGBS,053338.00,4.4,6.2,11.5,,,,*60
$GNTXT,01,01,01,More than 100 frame errors, UART RX was disabled*70
b0L?W 0U%#/
- 5U={4V^:R 
Y
kAGi
HJ
K!NiL!VV\W,WX=br\Y$GNRMC,053339.00,A,0420.01815,S,05539.73820,E,0.167,,230525,,,A*70
$GNVTG,,T,,M,0.167,N,0.309,K,A*37
$GNGNS,053339.00,0420.01815,S,05539.73820,E,AA,16,0.74,20.1,-47.6,,*6A
$GNGGA,053339.00,0420.01815,S,05539.73820,E,1,12,0.74,20.1,M,-47.6,M,,*44
$GNGSA,A,3,24,20,05,13,15,22,12,18,23,,,,1.49,0.74,1.30*1D
$GNGSA,A,3,86,74,75,87,71,72,76,,,,,,1.49,0.74,1.30*13
$GPGSV,5,1,17,05,63,087,27,11,08,025,,12,48,014,32,13,16,140,13*77
$GPGSV,5,2,17,15,30,174,17,18,31,249,24,20,35,047,21,22,08,130,16*70
$GPGSV,5,3,17,23,15,208,22,24,53,210,32,25,25,341,,29,09,317,*75
$GPGSV,5,4,17,36,52,277,,40,86,350,,41,58,082,30,49,32,274,*7E
$GPGSV,5,5,17,50,10,089,*4A
$GLGSV,3,1,09,65,04,207,,71,17,105,14,72,23,157,16,74,27,149,10*66
$GLGSV,3,2,09,75,78,105,33,76,33,342,11,86,19,348,09,87,29,300,25*60
$GLGSV,3,3,09,88,08,243,*51
$GNGLL,0420.01815,S,05539.73820,E,053339.00,A,A*6A
$GNGRS,053339.00,1,-5.9,-7.8,-5.4,16.2,-0.5,25.7,2.3,-4.8,5.6,,,*50
$GNGRS,053339.00,1,0.2,0.1,-5.8,3.4,21.9,-6.4,-2.9,,,,,*66
$GNGST,053339.00,3179807,,,,4.4,6.3,12*5D
$GNZDA,053339.00,23,05,2025,00,00*76
$GNGBS,053339.00,4.4,6.3,11.6,,,,*63
$GNTXT,01,01,01,More than 100 frame errors, UART RX was disabled*70
b0Lp?W#0Yn#/2= 57U={4V^:R 
Y
kAGil
HJK!NiL!VV
\XW,X{bpr\$GNRMC,053340.00,A,0420.01831,S,05539.73857,E,0.944,,230525,,,A*71
$GNVTG,,T,,M,0.944,N,1.749,K,A*3F
$GNGNS,053340.00,0420.01831,S,05539.73857,E,AA,14,0.81,18.3,-47.6,,*63
$GNGGA,053340.00,0420.01831,S,05539.73857,E,1,12,0.81,18.3,M,-47.6,M,,*4F
$GNGSA,A,3,24,20,05,13,15,12,18,23,,,,,1.67,0.81,1.46*1A
$GNGSA,A,3,86,75,87,71,72,76,,,,,,,1.67,0.81,1.46*17
$GPGSV,5,1,17,05,63,087,26,11,08,025,,12,48,014,35,13,16,140,11*73
$GPGSV,5,2,17,15,30,174,16,18,31,249,25,20,35,047,23,22,08,130,08*7D
$GPGSV,5,3,17,23,15,208,23,24,53,210,32,25,25,341,,29,09,317,*74
$GPGSV,5,4,17,36,52,277,,40,86,350,,41,58,082,29,49,32,274,*76
$GPGSV,5,5,17,50,10,089,*4A
$GLGSV,3,1,09,65,04,207,,71,17,105,12,72,23,157,16,74,27,149,07*66
$GLGSV,3,2,09,75,78,105,33,76,33,342,11,86,19,348,10,87,29,300,25*68
$GLGSV,3,3,09,88,08,243,*51
$GNGLL,0420.01831,S,05539.73857,E,053340.00,A,A*62
$GNGRS,053340.00,1,-2.0,-7.6,-11.3,-6.8,-0.8,0.2,-4.0,3.2,,,,*60
$GNGRS,053340.00,1,-107,-0.8,2.7,19.0,-2.2,0.1,,,,,,*50
$GNGST,053340.00,57,,,,4.3,6.3,12*65
$GNZDA,053340.00,23,05,2025,00,00*78
$GNGBS,053340.00,4.3,6.3,11.6,,,,*6A
$GNTXT,01,01,01,More than 100 frame errors, UART RX was disabled*70
b0LX?Wv"0vV#/ 5U={4V^:R 
Y
kAGh
HJK!NiL!VV\@W,X%qbXr\i&$GNRMC,053341.00,A,0420.01835,S,05539.73870,E,0.053,,230525,,,A*7E
$GNVTG,,T,,M,0.053,N,0.098,K,A*3A
$GNGNS,053341.00,0420.01835,S,05539.73870,E,AA,15,0.68,17.7,-47.6,,*6E
$GNGGA,053341.00,0420.01835,S,05539.73870,E,1,12,0.68,17.7,M,-47.6,M,,*43
$GNGSA,A,3,24,20,05,13,15,12,18,23,,,,,1.40,0.68,1.22*1A
$GNGSA,A,3,86,74,75,87,71,72,76,,,,,,1.40,0.68,1.22*14
$GPGSV,5,1,17,05,63,087,26,11,08,025,,12,48,014,34,13,16,140,09*7B
$GPGSV,5,2,17,15,30,174,18,18,31,249,26,20,35,047,22,22,08,130,08*71
$GPGSV,5,3,17,23,15,208,24,24,53,210,32,25,25,341,,29,09,317,*73
$GPGSV,5,4,17,36,52,277,,40,86,350,,41,58,082,30,49,32,274,*7E
$GPGSV,5,5,17,50,10,089,*4A
$GLGSV,3,1,09,65,04,207,,71,17,104,14,72,23,157,15,74,27,149,13*67
$GLGSV,3,2,09,75,78,105,33,76,33,342,16,86,19,348,11,87,29,300,25*6E
$GLGSV,3,3,09,88,08,243,*51
$GNGLL,0420.01835,S,05539.73870,E,053341.00,A,A*62
$GNGRS,053341.00,1,-5.1,-7.5,-3.9,16.5,0.9,-0.7,-4.9,4.8,,,,*4C
$GNGRS,053341.00,1,0.6,0.2,-1.2,1.8,18.1,-3.1,-2.7,,,,,*62
$GNGST,053341.00,4346187,,,,4.3,6.3,12*5D
$GNZDA,053341.00,23,05,2025,00,00*79
$GNGBS,053341.00,4.3,6.3,11.6,,,,*6B
$GNTXT,01,01,01,More than 100 frame errors, UART RX was disabled*70
b0L@?W"0TX<#/ i5U={4V^:R 
Y
kAGh
HXJK!NiL!VV\W,.Xkb@r\A$GNRMC,053342.00,A,0420.01840,S,05539.73902,E,0.553,,230525,,,A*7E
$GNVTG,,T,,M,0.553,N,1.024,K,A*39
$GNGNS,053342.00,0420.01840,S,05539.73902,E,AA,15,0.68,16.4,-47.6,,*69
$GNGGA,053342.00,0420.01840,S,05539.73902,E,1,12,0.68,16.4,M,-47.6,M,,*44
$GNGSA,A,3,24,20,05,13,15,12,18,23,,,,,1.40,0.68,1.22*1A
$GNGSA,A,3,86,74,75,87,71,72,76,,,,,,1.40,0.68,1.22*14
$GPGSV,5,1,17,05,63,087,27,11,08,025,,12,48,014,34,13,16,140,11*73
$GPGSV,5,2,17,15,30,174,18,18,31,249,26,20,35,047,19,22,08,130,09*78
$GPGSV,5,3,17,23,15,208,26,24,53,210,31,25,25,341,,29,09,317,*72
$GPGSV,5,4,17,36,52,277,,40,86,350,,41,58,082,30,49,32,274,*7E
$GPGSV,5,5,17,50,10,089,*4A
$GLGSV,3,1,09,65,04,207,,71,17,104,13,72,23,156,14,74,27,149,09*6B
$GLGSV,3,2,09,75,78,105,33,76,33,342,17,86,19,348,11,87,29,300,26*6C
$GLGSV,3,3,09,88,08,243,*51
$GNGLL,0420.01840,S,05539.73902,E,053342.00,A,A*67
$GNGRS,053342.00,1,-5.1,-4.8,1.7,16.2,0.6,0.8,-3.6,2.0,,,,*4C
$GNGRS,053342.00,1,-0.1,-0.1,-1.2,3.0,17.9,-1.7,-3.1,,,,,*6B
$GNGST,053342.00,5320178,,,,4.2,6.3,11*5D
$GNZDA,053342.00,23,05,2025,00,00*7A
$GNGBS,053342.00,4.2,6.3,11.5,,,,*6A
$GNTXT,01,01,01,More than 100 frame errors, UART RX was disabled*70
b0L(?W"0z`#/8!5U={4V^:R 
Y
kAGh
HJK NihL!VV\dW,Xb(r\$GNRMC,053343.00,A,0420.01837,S,05539.73913,E,0.259,,230525,,,A*72
$GNVTG,,T,,M,0.259,N,0.479,K,A*39
$GNGNS,053343.00,0420.01837,S,05539.73913,E,AA,15,0.81,16.0,-47.6,,*6B
$GNGGA,053343.00,0420.01837,S,05539.73913,E,1,12,0.81,16.0,M,-47.6,M,,*46
$GNGSA,A,3,24,20,05,13,15,22,12,18,23,,,,1.60,0.81,1.38*14
$GNGSA,A,3,86,74,75,87,71,72,,,,,,,1.60,0.81,1.38*1B
$GPGSV,5,1,17,05,63,087,26,11,08,025,,12,48,014,34,13,16,140,17*74
$GPGSV,5,2,17,15,30,174,16,18,31,249,26,20,35,047,16,22,08,130,11*70
$GPGSV,5,3,17,23,15,208,26,24,53,210,33,25,25,341,,29,09,317,*70
$GPGSV,5,4,17,36,52,277,,40,86,350,,41,58,082,29,49,32,274,*76
$GPGSV,5,5,17,50,10,089,*4A
$GLGSV,3,1,09,65,04,207,,71,17,104,12,72,23,156,13,74,27,149,11*64
$GLGSV,3,2,09,75,78,105,32,76,33,342,06,86,19,348,12,87,29,300,25*6D
$GLGSV,3,3,09,88,08,243,*51
$GNGLL,0420.01837,S,05539.73913,E,053343.00,A,A*66
$GNGRS,053343.00,1,-3.1,-4.6,-0.6,-5.7,1.2,20.1,1.7,-1.6,2.1,,,*67
$GNGRS,053343.00,1,-147,22.5,1.0,4.8,18.2,-0.9,,,,,,*44
$GNGST,053343.00,48,,,,4.2,6.2,11*6B
$GNZDA,053343.00,23,05,2025,00,00*7B
$GNGBS,053343.00,4.2,6.2,11.4,,,,*6B
$GNTXT,01,01,01,More than 100 frame errors, UART RX was disabled*70
b0L?WA"0@j#/
U 5U={!4V^:R 
Y
kAGhA
H
(JK NiL!VuV\cW,Xwbr\^$GNRMC,053344.00,A,0420.01835,S,05539.73915,E,0.271,,230525,,,A*7B
$GNVTG,,T,,M,0.271,N,0.503,K,A*3F
$GNGNS,053344.00,0420.01835,S,05539.73915,E,AA,14,0.70,15.9,-47.6,,*6D
$GNGGA,053344.00,0420.01835,S,05539.73915,E,1,12,0.70,15.9,M,-47.6,M,,*41
$GNGSA,A,3,24,20,05,13,15,12,18,23,,,,,1.41,0.70,1.22*12
$GNGSA,A,3,86,74,75,87,71,72,,,,,,,1.41,0.70,1.22*1D
$GPGSV,5,1,17,05,63,087,26,11,08,025,,12,48,014,34,13,16,140,15*76
$GPGSV,5,2,17,15,30,174,15,18,31,249,25,20,35,047,14,22,08,130,10*73
$GPGSV,5,3,17,23,15,208,25,24,53,210,32,25,25,341,,29,09,317,*72
$GPGSV,5,4,17,36,52,277,33,40,86,350,,41,58,082,29,49,32,274,*76
$GPGSV,5,5,17,50,10,089,*4A
$GLGSV,3,1,09,65,04,207,,71,17,104,13,72,23,156,10,74,26,149,09*6E
$GLGSV,3,2,09,75,78,105,32,76,33,342,08,86,19,348,08,87,29,300,24*69
$GLGSV,3,3,09,88,08,243,*51
$GNGLL,0420.01835,S,05539.73915,E,053344.00,A,A*65
$GNGRS,053344.00,1,-3.7,-5.7,-4.5,16.4,1.6,0.6,-2.8,3.4,,,,*6D
$GNGRS,053344.00,1,1.0,0.0,-0.6,4.0,18.6,-2.2,,,,,,*69
$GNGST,053344.00,4497605,,,,4.2,6.3,12*5F
$GNZDA,053344.00,23,05,2025,00,00*7C
$GNGBS,053344.00,4.2,6.3,11.5,,,,*6C
$GNTXT,01,01,01,More than 100 frame errors, UART RX was disabled*70
b0L?WZ"0,gr#/FJ!5U={4V^:R 
Y
kAGhP
HJKNmL!V2V\UW,XHbr\$GNRMC,053345.00,A,0420.01830,S,05539.73918,E,0.110,,230525,,,A*76
$GNVTG,,T,,M,0.110,N,0.203,K,A*3C
$GNGNS,053345.00,0420.01830,S,05539.73918,E,AA,16,0.68,15.5,-47.6,,*63
$GNGGA,053345.00,0420.01830,S,05539.73918,E,1,12,0.68,15.5,M,-47.6,M,,*4D
$GNGSA,A,3,24,20,05,13,15,22,12,18,23,,,,1.40,0.68,1.22*1A
$GNGSA,A,3,86,74,75,87,71,72,76,,,,,,1.40,0.68,1.22*14
$GPGSV,5,1,17,05,63,087,27,11,08,025,,12,48,014,34,13,16,140,13*71
$GPGSV,5,2,17,15,30,174,17,18,31,249,26,20,35,047,13,22,08,130,09*7D
$GPGSV,5,3,17,23,15,208,25,24,53,210,33,25,25,341,,29,09,317,*73
$GPGSV,5,4,17,36,52,277,30,40,86,350,,41,58,082,31,49,32,274,*7C
$GPGSV,5,5,17,50,10,089,*4A
$GLGSV,3,1,09,65,04,207,,71,17,104,13,72,23,156,11,74,26,149,13*64
$GLGSV,3,2,09,75,78,109,31,76,33,342,14,86,19,348,07,87,29,300,31*60
$GLGSV,3,3,09,88,08,243,*51
$GNGLL,0420.01830,S,05539.73918,E,053345.00,A,A*6C
$GNGRS,053345.00,1,-3.8,-7.0,-4.2,16.4,-1.0,20.4,0.4,-4.0,3.3,,,*59
$GNGRS,053345.00,1,0.8,-0.2,-1.2,2.0,18.7,-2.6,-4.6,,,,,*49
$GNGST,053345.00,4345101,,,,4.1,6.2,12*57
$GNZDA,053345.00,23,05,2025,00,00*7D
$GNGBS,053345.00,4.1,6.2,11.6,,,,*6C
$GNTXT,01,01,01,More than 100 frame errors, UART RX was disabled*70
b0L?Wy#0u#/!5U={4V^:R 
Y
kAGh 
HJlKNm%L"VV
\W,Xbrr\$GNRMC,053346.00,A,0420.01827,S,05539.73915,E,0.128,,230525,,,A*75
$GNVTG,,T,,M,0.128,N,0.237,K,A*30
$GNGNS,053346.00,0420.01827,S,05539.73915,E,AA,16,0.75,15.5,-47.6,,*67
$GNGGA,053346.00,0420.01827,S,05539.73915,E,1,12,0.75,15.5,M,-47.6,M,,*49
$GNGSA,A,3,24,20,05,13,15,22,12,18,23,,,,1.49,0.75,1.29*14
$GNGSA,A,3,86,74,75,87,71,72,76,,,,,,1.49,0.75,1.29*1A
$GPGSV,5,1,17,05,63,087,27,11,08,025,,12,48,014,35,13,16,140,12*71
$GPGSV,5,2,17,15,30,174,18,18,31,249,26,20,35,047,14,22,08,130,11*7C
$GPGSV,5,3,17,23,15,208,25,24,53,210,33,25,25,341,,29,09,317,*73
$GPGSV,5,4,17,36,52,277,31,40,86,350,,41,58,082,31,49,32,274,*7D
$GPGSV,5,5,17,50,10,089,*4A
$GLGSV,3,1,09,65,04,207,,71,17,104,09,72,23,156,12,74,26,149,11*6E
$GLGSV,3,2,09,75,78,109,31,76,34,342,18,86,19,348,10,87,29,300,31*6D
$GLGSV,3,3,09,88,08,243,*51
$GNGLL,0420.01827,S,05539.73915,E,053346.00,A,A*64
$GNGRS,053346.00,1,-3.6,-8.4,-3.9,-8.9,1.2,0.2,0.3,-2.3,1.3,,,*57
$GNGRS,053346.00,1,35.5,-11.7,2.9,2.8,-128,7.2,-5.5,,,,,*41
$GNGST,053346.00,64,,,,4.1,6.1,12*63
$GNZDA,053346.00,23,05,2025,00,00*7E
$GNGBS,053346.00,4.1,6.1,11.5,,,,*6F
$GNTXT,01,01,01,More than 100 frame errors, UART RX was disabled*70
b0L?W#0r#/<
!5U={!4V^:R 
Y
kAGhR
HJKNm)L"V{V\gW,XbrZ#\x$GNRMC,053347.00,A,0420.01826,S,05539.73917,E,0.177,,230525,,,A*7D
$GNVTG,,T,,M,0.177,N,0.328,K,A*35
$GNGNS,053347.00,0420.01826,S,05539.73917,E,AA,16,0.68,15.6,-47.6,,*6A
$GNGGA,053347.00,0420.01826,S,05539.73917,E,1,12,0.68,15.6,M,-47.6,M,,*44
$GNGSA,A,3,24,20,05,13,15,22,12,18,23,,,,1.40,0.68,1.22*1A
$GNGSA,A,3,86,74,75,87,71,72,76,,,,,,1.40,0.68,1.22*14
$GPGSV,5,1,17,05,63,087,28,11,08,025,,12,48,014,35,13,16,140,16*7A
$GPGSV,5,2,17,15,30,174,17,18,31,249,25,20,35,047,15,22,08,130,11*71
$GPGSV,5,3,17,23,15,208,24,24,53,210,33,25,25,341,,29,09,317,*72
$GPGSV,5,4,17,36,52,277,33,40,86,350,,41,58,082,31,49,32,274,*7F
$GPGSV,5,5,17,50,10,089,*4A
$GLGSV,3,1,09,65,04,207,,71,17,104,09,72,23,156,12,74,26,149,14*6B
$GLGSV,3,2,09,75,78,109,31,76,34,342,19,86,19,348,09,87,29,300,30*65
$GLGSV,3,3,09,88,08,243,*51
$GNGLL,0420.01826,S,05539.73917,E,053347.00,A,A*66
$GNGRS,053347.00,1,-3.7,-8.0,-2.3,16.5,2.4,26.2,-0.3,-3.1,1.5,,,*5F
$GNGRS,053347.00,1,1.0,0.2,5.5,2.2,11.1,5.1,-6.5,,,,,*60
$GNGST,053347.00,4346588,,,,4.0,6.1,12*51
$GNZDA,053347.00,23,05,2025,00,00*7F
$GNGBS,053347.00,4.0,6.1,11.6,,,,*6C
$GNTXT,01,01,01,More than 100 frame errors, UART RX was disabled*70
b0L?W"0}#/QJ
"5U={!4V^ :R 
Y
kAGh[
HJ%KNmL"VV\TW,X:SbrB'\P$GNRMC,053348.00,A,0420.01824,S,05539.73916,E,0.225,,230525,,,A*75
$GNVTG,,T,,M,0.225,N,0.416,K,A*3B
$GNGNS,053348.00,0420.01824,S,05539.73916,E,AA,16,0.68,15.4,-47.6,,*64
$GNGGA,053348.00,0420.01824,S,05539.73916,E,1,12,0.68,15.4,M,-47.6,M,,*4A
$GNGSA,A,3,24,20,05,13,15,22,12,18,23,,,,1.40,0.68,1.22*1A
$GNGSA,A,3,86,74,75,87,71,72,76,,,,,,1.40,0.68,1.22*14
$GPGSV,5,1,17,05,63,087,28,11,08,025,,12,48,014,34,13,16,140,16*7B
$GPGSV,5,2,17,15,30,174,18,18,31,249,25,20,35,047,15,22,08,130,08*76
$GPGSV,5,3,17,23,15,208,25,24,53,210,34,25,25,341,,29,09,317,*74
$GPGSV,5,4,17,36,52,277,33,40,86,350,,41,58,082,32,49,32,274,*7C
$GPGSV,5,5,17,50,10,089,*4A
$GLGSV,3,1,09,65,04,207,,71,17,104,07,72,23,156,12,74,26,149,11*60
$GLGSV,3,2,09,75,78,109,30,76,34,342,19,86,19,348,08,87,29,300,30*65
$GLGSV,3,3,09,88,08,243,*51
$GNGLL,0420.01824,S,05539.73916,E,053348.00,A,A*6A
$GNGRS,053348.00,1,-3.6,-6.9,-2.4,16.6,2.7,26.3,-0.4,-3.7,0.0,,,*55
$GNGRS,053348.00,1,0.8,0.4,2.8,7.2,11.1,5.0,-7.6,,,,,*6C
$GNGST,053348.00,4350413,,,,4.0,6.1,12*5A
$GNZDA,053348.00,23,05,2025,00,00*70
$GNGBS,053348.00,4.0,6.1,11.7,,,,*62
$GNTXT,01,01,01,More than 100 frame errors, UART RX was disabled*70
b0L?W"0i#/!5{U={ 4V^ :R 
Y
kAGhU
HJ
nKNm&L"VrV\W,Xbr*+\(W$GNRMC,053349.00,A,0420.01824,S,05539.73921,E,0.147,,230525,,,A*77
$GNVTG,,T,,M,0.147,N,0.273,K,A*39
$GNGNS,053349.00,0420.01824,S,05539.73921,E,AA,15,0.73,15.3,-47.6,,*6F
$GNGGA,053349.00,0420.01824,S,05539.73921,E,1,12,0.73,15.3,M,-47.6,M,,*42
$GNGSA,A,3,24,20,05,13,15,12,18,23,,,,,1.53,0.73,1.34*15
$GNGSA,A,3,86,74,75,87,71,72,76,,,,,,1.53,0.73,1.34*1B
$GPGSV,5,1,17,05,63,087,28,11,08,025,,12,48,014,34,13,16,140,11*7C
$GPGSV,5,2,17,15,30,174,18,18,31,249,26,20,35,047,17,22,08,130,*7F
$GPGSV,5,3,17,23,15,208,26,24,53,210,33,25,25,341,,29,09,317,*70
$GPGSV,5,4,17,36,52,277,32,40,86,350,,41,58,082,32,49,32,274,*7D
$GPGSV,5,5,17,50,10,089,*4A
$GLGSV,3,1,09,65,04,207,,71,17,104,11,72,23,156,12,74,26,149,10*66
$GLGSV,3,2,09,75,78,109,30,76,34,342,19,86,19,348,08,87,29,300,30*65
$GLGSV,3,3,09,88,08,243,*51
$GNGLL,0420.01824,S,05539.73921,E,053349.00,A,A*6F
$GNGRS,053349.00,1,-3.9,-5.2,-3.0,16.4,4.9,-0.7,-5.8,-0.2,,,,*60
$GNGRS,053349.00,1,28.2,8.8,5.5,5.4,11.1,-7.6,-6.5,,,,,*7C
$GNGST,053349.00,61,,,,3.9,6.0,12*67
$GNZDA,053349.00,23,05,2025,00,00*71
$GNGBS,053349.00,3.9,6.0,11.7,,,,*6C
$GNTXT,01,01,01,More than 100 frame errors, UART RX was disabled*70
b0L?W3"0p#/"5jU={!4V^ :R 
Y
kAGh4
HJ
KNmL"VfV\W,Xixbr/\$GNRMC,053350.00,A,0420.01828,S,05539.73936,E,0.137,,230525,,,A*72
$GNVTG,,T,,M,0.137,N,0.253,K,A*3C
$GNGNS,053350.00,0420.01828,S,05539.73936,E,AA,14,0.74,15.1,-47.6,,*69
$GNGGA,053350.00,0420.01828,S,05539.73936,E,1,12,0.74,15.1,M,-47.6,M,,*45
$GNGSA,A,3,24,20,05,13,15,12,18,23,,,,,1.49,0.74,1.30*1D
$GNGSA,A,3,86,74,75,87,72,76,,,,,,,1.49,0.74,1.30*15
$GPGSV,5,1,17,05,63,087,28,11,08,025,,12,48,014,34,13,16,140,17*7A
$GPGSV,5,2,17,15,30,174,18,18,31,249,26,20,35,047,18,22,08,130,*70
$GPGSV,5,3,17,23,15,208,26,24,53,210,34,25,25,341,,29,09,317,*77
$GPGSV,5,4,17,36,52,277,33,40,86,350,,41,58,082,32,49,32,274,*7C
$GPGSV,5,5,17,50,10,089,*4A
$GLGSV,3,1,09,65,04,207,,71,17,104,07,72,23,156,08,74,26,149,10*6A
$GLGSV,3,2,09,75,78,109,30,76,34,342,20,86,19,348,11,87,29,300,30*67
$GLGSV,3,3,09,88,08,243,*51
$GNGLL,0420.01828,S,05539.73936,E,053350.00,A,A*6D
$GNGRS,053350.00,1,-4.1,-3.7,-2.0,13.9,7.4,-1.0,-5.5,-2.3,,,,*6B
$GNGRS,053350.00,1,1.3,-0.2,6.9,-0.1,4.9,-6.7,,,,,,*7F
$GNGST,053350.00,3183390,,,,3.9,6.0,12*5B
$GNZDA,053350.00,23,05,2025,00,00*79
$GNGBS,053350.00,3.9,6.0,11.6,,,,*65
$GNTXT,01,01,01,More than 100 frame errors, UART RX was disabled*70
b0Lh?W#0z"#/o"5sU={!4V^:R 
Y
kAGh
HJKNm@L"VV\W,wXbhr2\$$GNRMC,053351.00,A,0420.01832,S,05539.73951,E,0.145,,230525,,,A*7C
$GNVTG,,T,,M,0.145,N,0.269,K,A*30
$GNGNS,053351.00,0420.01832,S,05539.73951,E,AA,15,0.68,14.7,-47.6,,*69
$GNGGA,053351.00,0420.01832,S,05539.73951,E,1,12,0.68,14.7,M,-47.6,M,,*44
$GNGSA,A,3,24,20,05,13,15,12,18,23,,,,,1.40,0.68,1.22*1A
$GNGSA,A,3,86,74,75,87,71,72,76,,,,,,1.40,0.68,1.22*14
$GPGSV,5,1,17,05,63,087,27,11,08,025,,12,48,014,35,13,16,140,19*7A
$GPGSV,5,2,17,15,30,174,17,18,31,249,26,20,35,047,20,22,08,130,*74
$GPGSV,5,3,17,23,15,208,26,24,53,210,34,25,25,341,,29,09,317,*77
$GPGSV,5,4,17,36,52,277,33,40,86,350,,41,58,082,31,49,32,274,*7F
$GPGSV,5,5,17,50,10,089,*4A
$GLGSV,3,1,09,65,04,207,,71,17,104,12,72,23,156,17,74,26,149,13*63
$GLGSV,3,2,09,75,78,109,30,76,34,342,20,86,19,348,09,87,29,300,30*6E
$GLGSV,3,3,09,88,08,243,*51
$GNGLL,0420.01832,S,05539.73951,E,053351.00,A,A*66
$GNGRS,053351.00,1,-4.0,-3.1,-3.2,15.6,8.0,-1.3,-4.8,-4.0,,,,*66
$GNGRS,053351.00,1,1.4,-0.3,8.3,3.7,10.4,4.5,-6.0,,,,,*44
$GNGST,053351.00,4345665,,,,3.8,5.9,12*51
$GNZDA,053351.00,23,05,2025,00,00*78
$GNGBS,053351.00,3.8,5.9,11.6,,,,*6F
$GNTXT,01,01,01,More than 100 frame errors, UART RX was disabled*70
b0LP?W#0mwo#/!5U={!4V^:R 
Y
kAGh
H

JKNmL"VV\9W,X\bPr6\$GNRMC,053352.00,A,0420.01839,S,05539.73968,E,0.225,,230525,,,A*7B
$GNVTG,,T,,M,0.225,N,0.416,K,A*3B
$GNGNS,053352.00,0420.01839,S,05539.73968,E,AA,14,0.80,14.5,-47.6,,*6E
$GNGGA,053352.00,0420.01839,S,05539.73968,E,1,12,0.80,14.5,M,-47.6,M,,*42
$GNGSA,A,3,24,20,05,13,15,12,18,23,,,,,1.68,0.80,1.47*15
$GNGSA,A,3,74,75,87,71,72,76,,,,,,,1.68,0.80,1.47*15
$GPGSV,5,1,17,05,63,087,28,11,08,025,,12,48,014,35,13,16,140,19*75
$GPGSV,5,2,17,15,30,174,16,18,31,249,25,20,35,047,20,22,08,130,*76
$GPGSV,5,3,17,23,15,208,25,24,53,210,33,25,25,341,,29,09,317,*73
$GPGSV,5,4,17,36,52,277,33,40,86,350,,41,58,082,31,49,32,274,*7F
$GPGSV,5,5,17,50,10,089,*4A
$GLGSV,3,1,09,65,04,207,,71,17,104,12,72,23,156,10,74,26,149,09*6F
$GLGSV,3,2,09,75,78,109,30,76,34,342,20,86,19,348,06,87,29,300,29*69
$GLGSV,3,3,09,88,08,243,*51
$GNGLL,0420.01839,S,05539.73968,E,053352.00,A,A*64
$GNGRS,053352.00,1,-3.7,-3.4,-3.3,14.9,8.9,-1.5,-4.0,-5.0,,,,*69
$GNGRS,053352.00,1,2.8,11.6,-0.1,-101,25.6,-3.2,,,,,,*6C
$GNGST,053352.00,51,,,,3.7,5.8,12*6B
$GNZDA,053352.00,23,05,2025,00,00*7B
$GNGBS,053352.00,3.7,5.8,11.5,,,,*61
$GNTXT,01,01,01,More than 100 frame errors, UART RX was disabled*70
b0L8?W#0W>#/"5rU={"4V^:R 
Y
kAG
h&
HJKNmL"VV\aW,aXOMb8r:\$GNRMC,053353.00,A,0420.01847,S,05539.73985,E,0.279,,230525,,,A*79
$GNVTG,,T,,M,0.279,N,0.517,K,A*32
$GNGNS,053353.00,0420.01847,S,05539.73985,E,AA,14,0.69,14.2,-47.6,,*65
$GNGGA,053353.00,0420.01847,S,05539.73985,E,1,12,0.69,14.2,M,-47.6,M,,*49
$GNGSA,A,3,24,20,05,13,15,12,18,23,,,,,1.40,0.69,1.22*1B
$GNGSA,A,3,86,75,87,71,72,76,,,,,,,1.40,0.69,1.22*16
$GPGSV,5,1,17,05,63,087,27,11,08,025,,12,48,014,35,13,16,140,19*7A
$GPGSV,5,2,17,15,30,174,17,18,31,249,25,20,35,047,19,22,08,130,*7D
$GPGSV,5,3,17,23,15,208,25,24,53,210,34,25,25,341,,29,09,317,*74
$GPGSV,5,4,17,36,52,277,34,40,86,350,,41,58,082,31,49,32,274,*78
$GPGSV,5,5,17,50,10,089,*4A
$GLGSV,3,1,09,65,04,207,,71,17,104,10,72,23,156,11,74,26,149,07*62
$GLGSV,3,2,09,75,78,109,29,76,34,342,19,86,19,348,09,87,29,300,30*6C
$GLGSV,3,3,09,88,08,243,*51
$GNGLL,0420.01847,S,05539.73985,E,053353.00,A,A*6F
$GNGRS,053353.00,1,-4.0,-5.1,-2.8,10.9,12.3,-1.7,-3.3,-5.0,,,,*52
$GNGRS,053353.00,1,1.0,11.7,1.0,10.6,4.7,-3.2,,,,,,*7C
$GNGST,053353.00,4496178,,,,3.7,5.8,11*5C
$GNZDA,053353.00,23,05,2025,00,00*7A
$GNGBS,053353.00,3.7,5.8,11.5,,,,*60
$GNTXT,01,01,01,More than 100 frame errors, UART RX was disabled*70
b0L ?W"06Y#/?!5U={!4V^ :R 
Y
kAGh
HJKNmL"VV\KW,X^b r>\_\$GNRMC,053354.00,A,0420.01852,S,05539.73994,E,0.207,,230525,,,A*73
$GNVTG,,T,,M,0.207,N,0.383,K,A*30
$GNGNS,053354.00,0420.01852,S,05539.73994,E,AA,15,0.68,14.2,-47.6,,*66
$GNGGA,053354.00,0420.01852,S,05539.73994,E,1,12,0.68,14.2,M,-47.6,M,,*4B
$GNGSA,A,3,24,20,05,13,15,12,18,23,,,,,1.40,0.68,1.22*1A
$GNGSA,A,3,86,74,75,87,71,72,76,,,,,,1.40,0.68,1.22*14
$GPGSV,5,1,17,05,63,087,28,11,08,025,,12,48,014,34,13,16,140,20*7E
$GPGSV,5,2,17,15,30,174,18,18,31,249,24,20,35,047,21,22,08,130,*78
$GPGSV,5,3,17,23,15,208,25,24,53,210,33,25,25,341,,29,09,317,*73
$GPGSV,5,4,17,36,52,277,33,40,86,350,,41,58,082,32,49,32,274,*7C
$GPGSV,5,5,17,50,10,089,*4A
$GLGSV,3,1,09,65,04,207,,71,17,104,09,72,23,156,14,74,26,149,08*60
$GLGSV,3,2,09,75,78,109,28,76,34,342,16,86,19,348,11,87,29,300,30*6B
$GLGSV,3,3,09,88,08,243,*51
$GNGLL,0420.01852,S,05539.73994,E,053354.00,A,A*6C
$GNGRS,053354.00,1,-3.8,-4.5,-6.4,9.3,11.1,-2.0,-3.4,-3.0,,,,*61
$GNGRS,053354.00,1,0.7,-0.2,14.2,2.4,10.4,4.3,-10.2,,,,,*4F
$GNGST,053354.00,4344004,,,,3.7,5.7,11*56
$GNZDA,053354.00,23,05,2025,00,00*7D
$GNGBS,053354.00,3.7,5.7,11.4,,,,*69
$GNTXT,01,01,01,More than 100 frame errors, UART RX was disabled*70
b0L?W#02<D#/!5uU={!4V^ :R 
Y
kAGh
H}JKNmL"VV\W,X"brB\7$GNRMC,053355.00,A,0420.01862,S,05539.74007,E,0.258,,230525,,,A*7F
$GNVTG,,T,,M,0.258,N,0.478,K,A*39
$GNGNS,053355.00,0420.01862,S,05539.74007,E,AA,15,0.76,13.9,-47.6,,*63
$GNGGA,053355.00,0420.01862,S,05539.74007,E,1,12,0.76,13.9,M,-47.6,M,,*4E
$GNGSA,A,3,24,20,05,13,15,12,18,23,,,,,1.51,0.76,1.31*17
$GNGSA,A,3,86,74,75,87,71,72,76,,,,,,1.51,0.76,1.31*19
$GPGSV,5,1,17,05,63,087,27,11,08,025,,12,48,014,35,13,16,140,20*70
$GPGSV,5,2,17,15,30,174,18,18,31,249,24,20,35,047,21,22,08,130,*78
$GPGSV,5,3,17,23,15,208,25,24,53,210,33,25,25,341,,29,09,317,*73
$GPGSV,5,4,17,36,52,277,33,40,86,350,,41,58,082,32,49,32,274,*7C
$GPGSV,5,5,17,50,10,089,*4A
$GLGSV,3,1,09,65,04,207,,71,17,104,08,72,23,156,13,74,26,149,11*6E
$GLGSV,3,2,09,75,78,109,28,76,34,342,16,86,19,348,09,87,29,300,30*62
$GLGSV,3,3,09,88,08,243,*51
$GNGLL,0420.01862,S,05539.74007,E,053355.00,A,A*6A
$GNGRS,053355.00,1,-4.0,-5.1,-4.9,5.7,9.5,-2.1,-1.9,-2.3,,,,*5C
$GNGRS,053355.00,1,-13.9,-39.0,12.1,-0.2,-108,8.9,-12.5,,,,,*47
$GNGST,053355.00,55,,,,3.6,5.6,11*64
$GNZDA,053355.00,23,05,2025,00,00*7C
$GNGBS,053355.00,3.6,5.6,11.3,,,,*6F
$GNTXT,01,01,01,More than 100 frame errors, UART RX was disabled*70
b0L?W#0-"tP#/o!5"U={!4V^ :R 
Y
kAGhn
H
JKNmL"V$V
]wW,3XbrF\$GNRMC,053356.00,A,0420.01867,S,05539.73999,E,0.083,,230525,,,A*74
$GNVTG,,T,,M,0.083,N,0.153,K,A*31
$GNGNS,053356.00,0420.01867,S,05539.73999,E,AA,15,0.68,14.1,-47.6,,*6C
$GNGGA,053356.00,0420.01867,S,05539.73999,E,1,12,0.68,14.1,M,-47.6,M,,*41
$GNGSA,A,3,24,20,05,13,15,12,18,23,,,,,1.40,0.68,1.22*1A
$GNGSA,A,3,86,74,75,87,71,72,76,,,,,,1.40,0.68,1.22*14
$GPGSV,5,1,17,05,63,087,27,11,08,025,,12,48,014,35,13,16,140,21*71
$GPGSV,5,2,17,15,30,174,16,18,31,249,24,20,35,047,22,22,08,130,*75
$GPGSV,5,3,17,23,15,208,25,24,53,210,33,25,25,341,,29,09,317,*73
$GPGSV,5,4,17,36,52,277,33,40,86,350,,41,58,082,32,49,32,274,*7C
$GPGSV,5,5,17,50,10,089,*4A
$GLGSV,3,1,09,65,04,207,,71,17,104,07,72,23,156,15,74,26,149,12*64
$GLGSV,3,2,09,75,78,109,28,76,34,342,16,86,19,349,10,87,29,300,30*6B
$GLGSV,3,3,09,88,08,243,*51
$GNGLL,0420.01867,S,05539.73999,E,053356.00,A,A*65
$GNGRS,053356.00,1,0.3,-5.4,-3.1,5.5,8.8,-2.1,-1.8,-1.4,,,,*74
$GNGRS,053356.00,1,1.2,0.3,4.2,5.6,11.3,5.2,-9.9,,,,,*64
$GNGST,053356.00,4346796,,,,3.6,5.6,11*5A
$GNZDA,053356.00,23,05,2025,00,00*7F
$GNGBS,053356.00,3.6,5.6,11.3,,,,*6C
$GNTXT,01,01,01,More than 100 frame errors, UART RX was disabled*70
b0L?W#0;)c#/ex!5U={!4V^ :R 
Y
kAGh
HJ<KNmL"VlV]W-XbrjJ\$GNRMC,053357.00,A,0420.01872,S,05539.73993,E,0.074,,230525,,,A*73
$GNVTG,,T,,M,0.074,N,0.137,K,A*3B
$GNGNS,053357.00,0420.01872,S,05539.73993,E,AA,14,0.69,14.2,-47.6,,*60
$GNGGA,053357.00,0420.01872,S,05539.73993,E,1,12,0.69,14.2,M,-47.6,M,,*4C
$GNGSA,A,3,24,20,05,13,15,12,18,23,,,,,1.40,0.69,1.22*1B
$GNGSA,A,3,86,75,87,71,72,76,,,,,,,1.40,0.69,1.22*16
$GPGSV,5,1,17,05,63,087,26,11,08,025,,12,48,014,35,13,16,140,21*70
$GPGSV,5,2,17,15,30,174,17,18,31,249,24,20,35,047,23,22,08,130,*75
$GPGSV,5,3,17,23,15,208,25,24,53,210,33,25,25,341,,29,09,317,*73
$GPGSV,5,4,17,36,52,277,33,40,86,350,,41,58,082,32,49,32,274,*7C
$GPGSV,5,5,17,50,10,089,*4A
$GLGSV,3,1,09,65,04,207,,71,17,104,08,72,23,156,11,74,26,149,06*6A
$GLGSV,3,2,09,75,78,109,28,76,34,342,17,86,19,349,08,87,28,301,30*63
$GLGSV,3,3,09,88,08,243,*51
$GNGLL,0420.01872,S,05539.73993,E,053357.00,A,A*6A
$GNGRS,053357.00,1,-0.4,-6.7,-5.3,3.0,8.7,-2.0,-0.2,-1.4,,,,*5D
$GNGRS,053357.00,1,1.3,4.2,1.6,11.7,5.3,-11.7,,,,,,*7F
$GNGST,053357.00,4496890,,,,3.6,5.5,11*5B
$GNZDA,053357.00,23,05,2025,00,00*7E
$GNGBS,053357.00,3.6,5.5,11.2,,,,*6F
$GNTXT,01,01,01,More than 100 frame errors, UART RX was disabled*70
b0L?W5#0FrS#/D!5$U={!4V^ :R 
Y
kAG
h)
HJKNmL"VV]W-XNbrRN\$GNRMC,053358.00,A,0420.01871,S,05539.73983,E,0.082,,230525,,,A*77
$GNVTG,,T,,M,0.082,N,0.151,K,A*32
$GNGNS,053358.00,0420.01871,S,05539.73983,E,AA,15,0.79,14.4,-47.6,,*6B
$GNGGA,053358.00,0420.01871,S,05539.73983,E,1,12,0.79,14.4,M,-47.6,M,,*46
$GNGSA,A,3,24,20,05,13,15,12,18,23,,,,,1.65,0.79,1.45*1C
$GNGSA,A,3,86,74,75,87,71,72,76,,,,,,1.65,0.79,1.45*12
$GPGSV,5,1,17,05,63,087,26,11,08,025,,12,48,014,35,13,16,140,21*70
$GPGSV,5,2,17,15,30,174,16,18,31,249,24,20,35,047,23,22,08,130,*74
$GPGSV,5,3,17,23,15,208,24,24,53,210,33,25,25,341,,29,09,317,*72
$GPGSV,5,4,17,36,52,277,33,40,86,350,,41,58,082,32,49,32,274,*7C
$GPGSV,5,5,17,50,10,089,*4A
$GLGSV,3,1,09,65,04,207,,71,17,104,10,72,23,156,14,74,26,149,12*63
$GLGSV,3,2,09,75,78,109,28,76,34,342,17,86,19,349,09,87,28,301,30*62
$GLGSV,3,3,09,88,08,244,*56
$GNGLL,0420.01871,S,05539.73983,E,053358.00,A,A*67
$GNGRS,053358.00,1,-2.2,-7.0,-4.6,1.8,6.3,-1.9,0.8,-0.5,,,,*79
$GNGRS,053358.00,1,80.9,-11.5,4.4,4.0,107,1.7,-11.2,,,,,*5A
$GNGST,053358.00,54,,,,3.5,5.5,11*68
$GNZDA,053358.00,23,05,2025,00,00*71
$GNGBS,053358.00,3.5,5.5,11.1,,,,*60
$GNTXT,01,01,01,More than 100 frame errors, UART RX was disabled*70
b0L?W#0?M[#/!5>U={!4V^ :R 
Y
kAG
h*
HJKNmL"V%V]hW-Xbr:R\U$GNRMC,053359.00,A,0420.01872,S,05539.73988,E,0.222,,230525,,,A*76
$GNVTG,,T,,M,0.222,N,0.411,K,A*3B
$GNGNS,053359.00,0420.01872,S,05539.73988,E,AA,14,0.73,14.1,-47.6,,*6C
$GNGGA,053359.00,0420.01872,S,05539.73988,E,1,12,0.73,14.1,M,-47.6,M,,*40
$GNGSA,A,3,24,20,05,13,15,12,18,23,,,,,1.53,0.73,1.35*14
$GNGSA,A,3,74,75,87,71,72,76,,,,,,,1.53,0.73,1.35*14
$GPGSV,5,1,17,05,63,087,27,11,08,025,,12,48,014,35,13,16,140,22*72
$GPGSV,5,2,17,15,30,174,15,18,31,249,23,20,35,047,23,22,08,130,*70
$GPGSV,5,3,17,23,15,208,24,24,53,210,33,25,25,341,,29,09,317,*72
$GPGSV,5,4,17,36,52,277,33,40,86,350,,41,58,082,32,49,32,274,*7C
$GPGSV,5,5,17,50,10,089,*4A
$GLGSV,3,1,09,65,04,207,,71,17,104,10,72,23,156,13,74,26,149,11*67
$GLGSV,3,2,09,75,78,109,28,76,34,342,17,86,19,349,07,87,28,301,29*64
$GLGSV,3,3,09,88,08,244,*56
$GNGLL,0420.01872,S,05539.73988,E,053359.00,A,A*6E
$GNGRS,053359.00,1,-4.5,-5.5,-3.6,0.1,8.5,-1.9,0.9,-0.2,,,,*7F
$GNGRS,053359.00,1,-0.3,4.6,6.4,10.7,4.7,-9.9,,,,,,*6F
$GNGST,053359.00,3182675,,,,3.5,5.4,11*55
$GNZDA,053359.00,23,05,2025,00,00*70
$GNGBS,053359.00,3.5,5.4,11.1,,,,*60
$GNTXT,01,01,01,More than 100 frame errors, UART RX was disabled*70
b0L?W#0Id8#/1w 56U={!4V^ :R 
Y
kAGh
HJKNm5L"V/V
]qW-fXbr"V\n$GNRMC,053400.00,A,0420.01874,S,05539.73987,E,0.116,,230525,,,A*70
$GNVTG,,T,,M,0.116,N,0.214,K,A*3C
$GNGNS,053400.00,0420.01874,S,05539.73987,E,AA,15,0.68,14.1,-47.6,,*65
$GNGGA,053400.00,0420.01874,S,05539.73987,E,1,12,0.68,14.1,M,-47.6,M,,*48
$GNGSA,A,3,24,20,05,13,15,12,18,23,,,,,1.40,0.68,1.22*1A
$GNGSA,A,3,86,74,75,87,71,72,76,,,,,,1.40,0.68,1.22*14
$GPGSV,5,1,17,05,63,087,26,11,08,025,,12,48,014,35,13,16,140,21*70
$GPGSV,5,2,17,15,30,174,15,18,31,249,22,20,35,047,23,22,08,130,*71
$GPGSV,5,3,17,23,15,208,25,24,53,210,32,25,25,341,,29,09,317,*72
$GPGSV,5,4,17,36,52,277,33,40,86,350,,41,58,082,32,49,32,274,*7C
$GPGSV,5,5,17,50,10,089,*4A
$GLGSV,3,1,09,65,04,207,,71,17,104,09,72,23,156,17,74,26,149,11*6B
$GLGSV,3,2,09,75,78,109,28,76,34,342,18,86,19,349,10,87,28,301,29*6D
$GLGSV,3,3,09,88,08,244,*56
$GNGLL,0420.01874,S,05539.73987,E,053400.00,A,A*6C
$GNGRS,053400.00,1,-2.0,-4.6,-2.6,-0.3,8.7,-1.8,3.1,-1.4,,,,*54
$GNGRS,053400.00,1,1.1,-0.5,3.1,3.6,10.5,4.4,-9.8,,,,,*4B
$GNGST,053400.00,4345247,,,,3.5,5.4,11*55
$GNZDA,053400.00,23,05,2025,00,00*7B
$GNGBS,053400.00,3.5,5.4,11.1,,,,*6B
$GNTXT,01,01,01,More than 100 frame errors, UART RX was disabled*70
b0Lx?W"0]]#/05U={"4V^ :R 
Y
kAGh
H
JKNmOL"VyV]W-|XDbxr
Z\F%$GNRMC,053401.00,A,0420.01878,S,05539.73997,E,0.332,,230525,,,A*78
$GNVTG,,T,,M,0.332,N,0.615,K,A*3D
$GNGNS,053401.00,0420.01878,S,05539.73997,E,AA,15,0.79,13.5,-47.6,,*6A
$GNGGA,053401.00,0420.01878,S,05539.73997,E,1,12,0.79,13.5,M,-47.6,M,,*47
$GNGSA,A,3,24,20,05,13,15,12,18,23,,,,,1.65,0.79,1.45*1C
$GNGSA,A,3,86,74,75,87,71,72,76,,,,,,1.65,0.79,1.45*12
$GPGSV,5,1,17,05,63,087,27,11,08,025,,12,48,014,34,13,16,140,21*70
$GPGSV,5,2,17,15,30,174,16,18,31,249,22,20,35,047,22,22,08,130,*73
$GPGSV,5,3,17,23,15,208,25,24,53,210,31,25,25,341,,29,09,317,*71
$GPGSV,5,4,17,36,52,277,34,40,86,350,,41,58,082,32,49,32,274,*7B
$GPGSV,5,5,17,50,10,089,*4A
$GLGSV,3,1,09,65,04,207,,71,17,104,08,72,23,156,10,74,26,149,11*6D
$GLGSV,3,2,09,75,78,109,27,76,34,342,17,86,19,349,09,87,28,301,29*65
$GLGSV,3,3,09,88,08,244,*56
$GNGLL,0420.01878,S,05539.73997,E,053401.00,A,A*60
$GNGRS,053401.00,1,0.3,-5.0,-3.0,-2.8,10.2,-1.6,0.9,-2.1,,,,*4F
$GNGRS,053401.00,1,-146,-9.0,3.4,6.4,74.2,-1.0,-9.0,,,,,*55
$GNGST,053401.00,58,,,,3.5,5.4,11*6E
$GNZDA,053401.00,23,05,2025,00,00*7A
$GNGBS,053401.00,3.5,5.4,11.0,,,,*6B
$GNTXT,01,01,01,More than 100 frame errors, UART RX was disabled*70
b0L`?W4"0),#/]58U={!4V^ :R 
Y
kAGhK
HJ
KNmL"VV]|W-Xb`r]\$GNRMC,053402.00,A,0420.01885,S,05539.73997,E,0.188,,230525,,,A*7A
$GNVTG,,T,,M,0.188,N,0.349,K,A*32
$GNGNS,053402.00,0420.01885,S,05539.73997,E,AA,15,0.68,13.5,-47.6,,*6B
$GNGGA,053402.00,0420.01885,S,05539.73997,E,1,12,0.68,13.5,M,-47.6,M,,*46
$GNGSA,A,3,24,20,05,13,15,12,18,23,,,,,1.40,0.68,1.22*1A
$GNGSA,A,3,86,74,75,87,71,72,76,,,,,,1.40,0.68,1.22*14
$GPGSV,5,1,17,05,63,087,27,11,08,025,,12,48,014,34,13,16,140,21*70
$GPGSV,5,2,17,15,30,174,18,18,31,249,22,20,35,047,22,22,08,130,04*79
$GPGSV,5,3,17,23,15,208,25,24,53,210,30,25,25,341,,29,09,317,*70
$GPGSV,5,4,17,36,52,277,33,40,86,350,,41,58,082,32,49,32,274,*7C
$GPGSV,5,5,17,50,10,089,*4A
$GLGSV,3,1,09,65,04,207,,71,17,104,11,72,23,156,09,74,26,149,10*6C
$GLGSV,3,2,09,75,78,109,27,76,34,342,16,86,19,349,09,87,28,301,29*64
$GLGSV,3,3,09,88,08,244,*56
$GNGLL,0420.01885,S,05539.73997,E,053402.00,A,A*61
$GNGRS,053402.00,1,0.6,-5.6,-2.0,-3.2,9.1,-2.1,3.0,-1.6,,,,*74
$GNGRS,053402.00,1,1.2,0.1,4.3,-0.3,11.0,5.2,-10.3,,,,,*7D
$GNGST,053402.00,3072929,,,,3.4,5.3,11*52
$GNZDA,053402.00,23,05,2025,00,00*79
$GNGBS,053402.00,3.4,5.3,11.0,,,,*6E
$GNTXT,01,01,01,More than 100 frame errors, UART RX was disabled*70
b0LH?Va#0(f#/Z5U={!4V^ :R 
Y
kAGh
H=J
JKNm7L"VV]W-XLbHra\$GNRMC,053403.00,A,0420.01886,S,05539.73983,E,0.079,,230525,,,A*72
$GNVTG,,T,,M,0.079,N,0.147,K,A*31
$GNGNS,053403.00,0420.01886,S,05539.73983,E,AA,15,0.68,14.1,-47.6,,*6F
$GNGGA,053403.00,0420.01886,S,05539.73983,E,1,12,0.68,14.1,M,-47.6,M,,*42
$GNGSA,A,3,24,20,05,13,15,12,18,23,,,,,1.40,0.68,1.22*1A
$GNGSA,A,3,86,74,75,87,71,72,76,,,,,,1.40,0.68,1.22*14
$GPGSV,5,1,17,05,63,086,26,11,08,025,,12,48,014,35,13,16,140,22*72
$GPGSV,5,2,17,15,30,174,18,18,31,249,22,20,35,047,22,22,08,130,07*7A
$GPGSV,5,3,17,23,15,208,24,24,53,210,31,25,25,341,,29,09,317,*70
$GPGSV,5,4,17,36,52,277,33,40,86,350,,41,58,082,32,49,32,274,*7C
$GPGSV,5,5,17,50,10,089,*4A
$GLGSV,3,1,09,65,04,207,,71,17,104,08,72,23,156,12,74,26,149,10*6E
$GLGSV,3,2,09,75,78,109,27,76,34,342,16,86,19,349,11,87,28,301,29*6D
$GLGSV,3,3,09,88,08,244,*56
$GNGLL,0420.01886,S,05539.73983,E,053403.00,A,A*66
$GNGRS,053403.00,1,0.1,-7.9,-1.6,-5.3,8.7,-2.2,1.3,-1.7,,,,*79
$GNGRS,053403.00,1,1.4,0.7,5.7,2.8,11.7,5.7,-10.6,,,,,*5A
$GNGST,053403.00,3074628,,,,3.4,5.3,11*5B
$GNZDA,053403.00,23,05,2025,00,00*78
$GNGBS,053403.00,3.4,5.3,10.9,,,,*67
$GNTXT,01,01,01,More than 100 frame errors, UART RX was disabled*70
b0L0?V!#0#/S
5:U={!4V^ :R 
Y
kAGh
HJKNmL"VV]W-Xcb0re\Z$GNRMC,053404.00,A,0420.01887,S,05539.73973,E,0.057,,230525,,,A*77
$GNVTG,,T,,M,0.057,N,0.106,K,A*38
$GNGNS,053404.00,0420.01887,S,05539.73973,E,AA,15,0.73,14.5,-47.6,,*68
$GNGGA,053404.00,0420.01887,S,05539.73973,E,1,12,0.73,14.5,M,-47.6,M,,*45
$GNGSA,A,3,24,20,05,13,15,12,18,23,,,,,1.53,0.73,1.35*14
$GNGSA,A,3,86,74,75,87,71,72,76,,,,,,1.53,0.73,1.35*1A
$GPGSV,5,1,17,05,63,086,26,11,08,025,,12,48,014,35,13,16,140,22*72
$GPGSV,5,2,17,15,30,174,19,18,31,249,21,20,35,047,22,22,08,130,10*7E
$GPGSV,5,3,17,23,15,208,24,24,53,210,30,25,25,341,,29,09,317,*71
$GPGSV,5,4,17,36,52,277,33,40,86,350,,41,58,082,32,49,32,274,*7C
$GPGSV,5,5,17,50,10,089,*4A
$GLGSV,3,1,09,65,04,207,,71,17,104,12,72,23,156,14,74,26,149,13*60
$GLGSV,3,2,09,75,78,109,28,76,34,342,16,86,19,349,09,87,28,301,29*6B
$GLGSV,3,3,09,88,08,244,*56
$GNGLL,0420.01887,S,05539.73973,E,053404.00,A,A*6F
$GNGRS,053404.00,1,0.6,-6.8,-2.2,-5.7,4.7,-2.3,-0.1,-0.2,,,,*5D
$GNGRS,053404.00,1,-104,17.6,6.8,4.6,9.2,-2.9,-10.5,,,,,*46
$GNGST,053404.00,60,,,,3.4,5.2,11*67
$GNZDA,053404.00,23,05,2025,00,00*7F
$GNGBS,053404.00,3.4,5.2,10.9,,,,*61
$GNTXT,01,01,01,More than 100 frame errors, UART RX was disabled*70
b0L?V&#0#/W>5U={!4V^ :R 
Y
kAGho
HJKNmL"V*V]W-Xbri\$GNRMC,053405.00,A,0420.01886,S,05539.73962,E,0.067,,230525,,,A*74
$GNVTG,,T,,M,0.067,N,0.124,K,A*3B
$GNGNS,053405.00,0420.01886,S,05539.73962,E,AA,15,0.68,14.8,-47.6,,*6F
$GNGGA,053405.00,0420.01886,S,05539.73962,E,1,12,0.68,14.8,M,-47.6,M,,*42
$GNGSA,A,3,24,20,05,13,15,12,18,23,,,,,1.40,0.68,1.22*1A
$GNGSA,A,3,86,74,75,87,71,72,76,,,,,,1.40,0.68,1.22*14
$GPGSV,5,1,17,05,63,086,27,11,08,025,,12,48,014,35,13,16,140,22*73
$GPGSV,5,2,17,15,30,174,19,18,31,249,21,20,35,047,23,22,08,130,14*7B
$GPGSV,5,3,17,23,15,208,24,24,53,210,30,25,25,341,,29,09,317,*71
$GPGSV,5,4,17,36,52,277,33,40,86,350,,41,58,082,32,49,32,274,*7C
$GPGSV,5,5,17,50,10,089,*4A
$GLGSV,3,1,09,65,04,207,,71,17,104,09,72,23,156,13,74,26,149,07*68
$GLGSV,3,2,09,75,78,109,27,76,34,342,16,86,19,349,09,87,28,301,28*65
$GLGSV,3,3,09,88,08,244,*56
$GNGLL,0420.01886,S,05539.73962,E,053405.00,A,A*6F
$GNGRS,053405.00,1,-2.8,-6.8,-2.2,-5.0,4.6,-2.4,-0.1,0.6,,,,*55
$GNGRS,053405.00,1,1.3,0.3,6.5,5.3,11.3,5.2,-9.8,,,,,*65
$GNGST,053405.00,3078016,,,,3.4,5.2,11*5B
$GNZDA,053405.00,23,05,2025,00,00*7E
$GNGBS,053405.00,3.4,5.2,10.9,,,,*60
$GNTXT,01,01,01,More than 100 frame errors, UART RX was disabled*70
b0L?Vj#0\$#/%5U={!4V^ :R 
Y
kAG
h
H
J
JKNm>L"VfV]W-X~Sbrm\}*$GNRMC,053406.00,A,0420.01886,S,05539.73944,E,0.033,,230525,,,A*72
$GNVTG,,T,,M,0.033,N,0.061,K,A*3A
$GNGNS,053406.00,0420.01886,S,05539.73944,E,AA,16,0.66,15.5,-47.6,,*69
$GNGGA,053406.00,0420.01886,S,05539.73944,E,1,12,0.66,15.5,M,-47.6,M,,*47
$GNGSA,A,3,24,20,05,13,15,22,12,18,23,,,,1.31,0.66,1.14*17
$GNGSA,A,3,86,74,75,87,71,72,76,,,,,,1.31,0.66,1.14*19
$GPGSV,5,1,17,05,63,086,26,11,08,025,,12,48,014,35,13,16,140,22*72
$GPGSV,5,2,17,15,30,174,20,18,31,249,22,20,35,047,23,22,08,130,15*73
$GPGSV,5,3,17,23,15,208,24,24,53,210,30,25,25,341,,29,09,317,*71
$GPGSV,5,4,17,36,52,277,33,40,86,350,,41,58,082,32,49,32,274,*7C
$GPGSV,5,5,17,50,10,089,*4A
$GLGSV,3,1,09,65,04,207,,71,17,104,10,72,23,156,10,74,26,149,10*65
$GLGSV,3,2,09,75,78,109,28,76,34,342,17,86,19,349,09,87,28,301,28*6B
$GLGSV,3,3,09,88,08,244,*56
$GNGLL,0420.01886,S,05539.73944,E,053406.00,A,A*68
$GNGRS,053406.00,1,-0.5,-7.3,-1.5,-4.2,2.9,-18.4,-3.8,0.0,0.2,,,*46
$GNGRS,053406.00,1,1.7,0.7,5.7,5.1,12.0,5.4,-9.2,,,,,*69
$GNGST,053406.00,4208288,,,,3.4,5.2,11*5F
$GNZDA,053406.00,23,05,2025,00,00*7D
$GNGBS,053406.00,3.4,5.2,10.7,,,,*6D
$GNTXT,01,01,01,More than 100 frame errors, UART RX was disabled*70
b0L?V"08#/[5U={"4V^ :R 
Y
kAGh2

HJJ
:KNmL"VTV
]=W-Xqbrzq\T$GNRMC,053407.00,A,0420.01888,S,05539.73939,E,0.070,,230525,,,A*70
$GNVTG,,T,,M,0.070,N,0.129,K,A*30
$GNGNS,053407.00,0420.01888,S,05539.73939,E,AA,16,0.79,15.5,-47.6,,*62
$GNGGA,053407.00,0420.01888,S,05539.73939,E,1,12,0.79,15.5,M,-47.6,M,,*4C
$GNGSA,A,3,24,20,05,13,15,22,12,18,23,,,,1.65,0.79,1.45*1C
$GNGSA,A,3,86,74,75,87,71,72,76,,,,,,1.65,0.79,1.45*12
$GPGSV,5,1,17,05,63,086,27,11,08,025,,12,48,014,34,13,16,140,21*71
$GPGSV,5,2,17,15,30,174,19,18,31,249,22,20,35,047,24,22,08,130,16*7D
$GPGSV,5,3,17,23,15,208,23,24,53,210,30,25,25,341,,29,09,317,*76
$GPGSV,5,4,17,36,52,277,34,40,86,350,,41,58,082,32,49,32,274,*7B
$GPGSV,5,5,17,50,10,089,*4A
$GLGSV,3,1,09,65,04,207,,71,17,104,09,72,23,156,13,74,26,149,10*6E
$GLGSV,3,2,09,75,78,109,28,76,34,342,15,86,19,349,10,87,28,301,29*60
$GLGSV,3,3,09,88,08,244,*56
$GNGLL,0420.01888,S,05539.73939,E,053407.00,A,A*6D
$GNGRS,053407.00,1,-2.3,-9.3,-2.4,-4.6,2.0,-23.6,-3.5,0.3,2.6,,,*40
$GNGRS,053407.00,1,-83.9,15.9,6.6,7.5,26.1,-1.8,-6.8,,,,,*69
$GNGST,053407.00,58,,,,3.4,5.1,11*6C
$GNZDA,053407.00,23,05,2025,00,00*7C
$GNGBS,053407.00,3.4,5.1,10.7,,,,*6F
$GNTXT,01,01,01,More than 100 frame errors, UART RX was disabled*70
b0L?V"0k%#/-#5U={!4V^ :R 
Y
kAGhS
HJKNmL"VV]kW-X~brbu\,$GNRMC,053408.00,A,0420.01890,S,05539.73931,E,0.166,,230525,,,A*78
$GNVTG,,T,,M,0.166,N,0.307,K,A*38
$GNGNS,053408.00,0420.01890,S,05539.73931,E,AA,16,0.68,15.6,-47.6,,*6F
$GNGGA,053408.00,0420.01890,S,05539.73931,E,1,12,0.68,15.6,M,-47.6,M,,*41
$GNGSA,A,3,24,20,05,13,15,22,12,18,23,,,,1.40,0.68,1.22*1A
$GNGSA,A,3,86,74,75,87,71,72,76,,,,,,1.40,0.68,1.22*14
$GPGSV,5,1,17,05,63,086,27,11,08,025,,12,48,014,34,13,16,140,22*72
$GPGSV,5,2,17,15,30,174,19,18,31,249,23,20,35,047,24,22,08,130,16*7C
$GPGSV,5,3,17,23,15,208,23,24,53,210,30,25,25,341,,29,09,317,*76
$GPGSV,5,4,17,36,52,277,33,40,86,350,,41,58,082,32,49,32,274,*7C
$GPGSV,5,5,17,50,10,089,*4A
$GLGSV,3,1,09,65,04,207,,71,17,104,08,72,23,156,14,74,26,149,08*61
$GLGSV,3,2,09,75,78,109,27,76,34,342,16,86,19,349,09,87,28,301,28*65
$GLGSV,3,3,09,88,08,244,*56
$GNGLL,0420.01890,S,05539.73931,E,053408.00,A,A*63
$GNGRS,053408.00,1,-0.9,-9.8,-3.3,-4.1,2.9,-24.2,-2.7,-0.3,2.9,,,*66
$GNGRS,053408.00,1,1.1,0.1,5.2,7.7,11.1,5.0,-6.1,,,,,*6C
$GNGST,053408.00,265411,,,,3.4,5.1,11*6B
$GNZDA,053408.00,23,05,2025,00,00*73
$GNGBS,053408.00,3.4,5.1,10.7,,,,*60
$GNTXT,01,01,01,More than 100 frame errors, UART RX was disabled*70
b0L?V"0 #/(5U={"4V^ :R 
Y
kAGh
HJ7KNmL"VV]]W-XKbrJy\S$GNRMC,053409.00,A,0420.01882,S,05539.73909,E,0.095,,230525,,,A*7C
$GNVTG,,T,,M,0.095,N,0.175,K,A*32
$GNGNS,053409.00,0420.01882,S,05539.73909,E,AA,14,0.73,16.4,-47.6,,*6F
$GNGGA,053409.00,0420.01882,S,05539.73909,E,1,12,0.73,16.4,M,-47.6,M,,*43
$GNGSA,A,3,24,20,05,13,15,22,12,18,23,,,,1.44,0.73,1.25*13
$GNGSA,A,3,75,87,71,72,76,,,,,,,,1.44,0.73,1.25*10
$GPGSV,5,1,17,05,63,086,27,11,07,025,,12,48,014,34,13,16,140,21*7E
$GPGSV,5,2,17,15,30,174,18,18,31,249,23,20,35,047,25,22,08,130,16*7C
$GPGSV,5,3,17,23,15,208,24,24,53,210,30,25,25,341,,29,09,317,*71
$GPGSV,5,4,17,36,52,277,34,40,86,350,,41,58,082,32,49,32,274,*7B
$GPGSV,5,5,17,50,10,089,*4A
$GLGSV,3,1,09,65,04,207,,71,17,104,11,72,23,156,14,74,26,149,06*67
$GLGSV,3,2,09,75,78,109,28,76,34,342,17,86,19,349,06,87,28,301,29*65
$GLGSV,3,3,09,88,08,244,*56
$GNGLL,0420.01882,S,05539.73909,E,053409.00,A,A*6A
$GNGRS,053409.00,1,-2.8,-10.1,-2.7,-4.8,2.6,-25.2,-0.9,-2.4,2.1,,,*56
$GNGRS,053409.00,1,5.0,7.8,11.8,5.4,-4.9,,,,,,,*66
$GNGST,053409.00,3181370,,,,3.4,5.1,11*50
$GNZDA,053409.00,23,05,2025,00,00*72
$GNGBS,053409.00,3.4,5.1,10.6,,,,*60
$GNTXT,01,01,01,More than 100 frame errors, UART RX was disabled*70
b0L?V#1bMY#/QA5U={!4V^ :R 
Y
kAG
hP
HJOKNmL"VV
]W-XKbr2}\$GNRMC,053410.00,A,0420.01882,S,05539.73900,E,0.029,,230525,,,A*7A
$GNVTG,,T,,M,0.029,N,0.054,K,A*37
$GNGNS,053410.00,0420.01882,S,05539.73900,E,AA,16,0.74,16.7,-47.6,,*68
$GNGGA,053410.00,0420.01882,S,05539.73900,E,1,12,0.74,16.7,M,-47.6,M,,*46
$GNGSA,A,3,24,20,05,13,15,22,12,18,23,,,,1.54,0.74,1.35*14
$GNGSA,A,3,86,74,75,87,71,72,76,,,,,,1.54,0.74,1.35*1A
$GPGSV,5,1,17,05,63,086,27,11,07,025,,12,49,014,35,13,16,140,21*7E
$GPGSV,5,2,17,15,30,174,17,18,31,249,22,20,35,047,25,22,08,130,15*71
$GPGSV,5,3,17,23,15,208,24,24,53,210,30,25,25,341,,29,09,317,*71
$GPGSV,5,4,17,36,52,277,33,40,86,350,,41,58,082,32,49,32,274,*7C
$GPGSV,5,5,17,50,10,089,*4A
$GLGSV,3,1,09,65,04,207,,71,17,104,10,72,23,156,12,74,26,149,09*6F
$GLGSV,3,2,09,75,78,109,28,76,34,342,17,86,19,349,10,87,28,301,28*63
$GLGSV,3,3,09,88,08,244,*56
$GNGLL,0420.01882,S,05539.73900,E,053410.00,A,A*6B
$GNGRS,053410.00,1,-3.3,-6.9,-1.1,-4.1,3.3,-19.8,-2.5,-1.7,0.0,,,*6B
$GNGRS,053410.00,1,-146,8.5,4.6,4.8,-17.1,-25.6,-5.2,,,,,*62
$GNGST,053410.00,60,,,,3.3,5.0,11*67
$GNZDA,053410.00,23,05,2025,00,00*7A
$GNGBS,053410.00,3.3,5.0,10.6,,,,*6E
$GNTXT,01,01,01,More than 100 frame errors, UART RX was disabled*70
b0L?V6"1#/45OU={!4V^!:R 
Y
kAGho
HJ+KNmL"VV]|W-6Xbbr\1$GNRMC,053411.00,A,0420.01876,S,05539.73888,E,0.097,,230525,,,A*74
$GNVTG,,T,,M,0.097,N,0.180,K,A*3A
$GNGNS,053411.00,0420.01876,S,05539.73888,E,AA,16,0.66,17.2,-47.6,,*64
$GNGGA,053411.00,0420.01876,S,05539.73888,E,1,12,0.66,17.2,M,-47.6,M,,*4A
$GNGSA,A,3,24,20,05,13,15,22,12,18,23,,,,1.31,0.66,1.14*17
$GNGSA,A,3,86,74,75,87,71,72,76,,,,,,1.31,0.66,1.14*19
$GPGSV,5,1,17,05,63,086,27,11,07,025,,12,49,014,34,13,16,139,21*71
$GPGSV,5,2,17,15,30,174,16,18,31,249,21,20,35,047,25,22,08,130,16*70
$GPGSV,5,3,17,23,15,208,23,24,53,210,30,25,25,341,,29,09,317,*76
$GPGSV,5,4,17,36,52,277,33,40,86,350,,41,58,082,33,49,32,274,*7D
$GPGSV,5,5,17,50,10,089,*4A
$GLGSV,3,1,09,65,04,207,,71,17,104,11,72,23,156,13,74,26,149,08*6E
$GLGSV,3,2,09,75,78,109,28,76,34,342,16,86,19,349,08,87,28,301,29*6A
$GLGSV,3,3,09,88,08,244,*56
$GNGLL,0420.01876,S,05539.73888,E,053411.00,A,A*60
$GNGRS,053411.00,1,-4.3,-4.9,0.5,-3.0,5.3,-19.0,-1.0,-0.2,0.5,,,*48
$GNGRS,053411.00,1,1.2,0.4,4.8,5.7,11.4,5.3,-5.0,,,,,*6F
$GNGST,053411.00,4206568,,,,3.3,5.0,11*5B
$GNZDA,053411.00,23,05,2025,00,00*7B
$GNGBS,053411.00,3.3,5.0,10.5,,,,*6C
$GNTXT,01,01,01,More than 100 frame errors, UART RX was disabled*70
b0Lp
?V#1bcY#/J5U={ 4V^!:R 
Y
kAGhR
HJ'KNm(L"VV]mW-TXbp
r\$GNRMC,053412.00,A,0420.01876,S,05539.73890,E,0.118,,230525,,,A*78
$GNVTG,,T,,M,0.118,N,0.219,K,A*3F
$GNGNS,053412.00,0420.01876,S,05539.73890,E,AA,15,0.73,16.9,-47.6,,*63
$GNGGA,053412.00,0420.01876,S,05539.73890,E,1,12,0.73,16.9,M,-47.6,M,,*4E
$GNGSA,A,3,24,20,05,13,15,22,12,18,23,,,,1.49,0.73,1.30*1A
$GNGSA,A,3,86,74,75,87,72,76,,,,,,,1.49,0.73,1.30*12
$GPGSV,5,1,17,05,63,086,26,11,07,025,,12,49,014,35,13,16,139,21*71
$GPGSV,5,2,17,15,30,174,15,18,31,249,22,20,35,047,24,22,08,130,15*72
$GPGSV,5,3,17,23,15,208,24,24,53,210,30,25,25,341,,29,09,317,*71
$GPGSV,5,4,17,36,52,277,32,40,86,350,,41,58,082,33,49,32,274,*7C
$GPGSV,5,5,17,50,10,089,*4A
$GLGSV,3,1,09,65,04,207,,71,17,104,06,72,23,156,12,74,26,149,09*68
$GLGSV,3,2,09,75,78,109,28,76,34,342,17,86,19,349,08,87,28,301,29*6B
$GLGSV,3,3,09,88,08,244,*56
$GNGLL,0420.01876,S,05539.73890,E,053412.00,A,A*6A
$GNGRS,053412.00,1,-6.1,-5.4,4.2,-5.2,6.1,-22.3,-1.6,-1.7,2.0,,,*4F
$GNGRS,053412.00,1,1.1,0.4,5.5,8.5,4.9,-4.9,,,,,,*75
$GNGST,053412.00,3181864,,,,3.3,5.0,11*52
$GNZDA,053412.00,23,05,2025,00,00*78
$GNGBS,053412.00,3.3,5.0,10.5,,,,*6F
$GNTXT,01,01,01,More than 100 frame errors, UART RX was disabled*70
b0LX?V"1c'#/Q5U={!4V^!:R 
Y
kAGhT
HJ|KNm:L"V<V]W-XbXr\d$GNRMC,053413.00,A,0420.01874,S,05539.73889,E,0.193,,230525,,,A*70
$GNVTG,,T,,M,0.193,N,0.358,K,A*38
$GNGNS,053413.00,0420.01874,S,05539.73889,E,AA,15,0.79,17.0,-47.6,,*6A
$GNGGA,053413.00,0420.01874,S,05539.73889,E,1,12,0.79,17.0,M,-47.6,M,,*47
$GNGSA,A,3,24,20,05,13,15,22,12,18,23,,,,1.65,0.79,1.46*1F
$GNGSA,A,3,74,75,87,71,72,76,,,,,,,1.65,0.79,1.46*1F
$GPGSV,5,1,17,05,63,086,26,11,07,025,,12,49,014,34,13,16,139,22*73
$GPGSV,5,2,17,15,30,173,15,18,31,249,22,20,35,047,22,22,08,130,14*72
$GPGSV,5,3,17,23,15,208,24,24,53,210,30,25,25,341,,29,09,317,*71
$GPGSV,5,4,17,36,52,277,33,40,86,350,,41,58,082,33,49,32,274,*7D
$GPGSV,5,5,17,50,10,089,*4A
$GLGSV,3,1,09,65,04,207,,71,17,104,13,72,23,156,11,74,26,149,09*6F
$GLGSV,3,2,09,75,78,109,28,76,34,342,17,86,19,349,09,87,28,301,29*6A
$GLGSV,3,3,09,88,08,244,*56
$GNGLL,0420.01874,S,05539.73889,E,053413.00,A,A*61
$GNGRS,053413.00,1,-1.2,-5.2,2.4,-5.2,2.9,-23.2,-1.6,-2.6,3.4,,,*47
$GNGRS,053413.00,1,67.8,3.1,5.0,-32.4,-16.6,-4.5,,,,,,*46
$GNGST,053413.00,63,,,,3.3,5.0,11*67
$GNZDA,053413.00,23,05,2025,00,00*79
$GNGBS,053413.00,3.3,5.0,10.5,,,,*6E
$GNTXT,01,01,01,More than 100 frame errors, UART RX was disabled*70
b0L@?V"1aYE#/?5U={ 4V^ :R 
Y
kAGh(
HJKNmL"VV]mW-Xbmb@r\<f$GNRMC,053414.00,A,0420.01873,S,05539.73889,E,0.053,,230525,,,A*7D
$GNVTG,,T,,M,0.053,N,0.099,K,A*3B
$GNGNS,053414.00,0420.01873,S,05539.73889,E,AA,15,0.73,16.7,-47.6,,*66
$GNGGA,053414.00,0420.01873,S,05539.73889,E,1,12,0.73,16.7,M,-47.6,M,,*4B
$GNGSA,A,3,24,20,05,13,15,22,12,18,23,,,,1.53,0.73,1.35*14
$GNGSA,A,3,74,75,87,71,72,76,,,,,,,1.53,0.73,1.35*14
$GPGSV,5,1,17,05,63,086,27,11,07,025,,12,49,014,34,13,16,139,22*72
$GPGSV,5,2,17,15,30,173,15,18,31,249,22,20,35,047,21,22,08,130,14*71
$GPGSV,5,3,17,23,15,208,24,24,53,210,31,25,25,341,,29,09,317,*70
$GPGSV,5,4,17,36,52,277,32,40,86,350,,41,58,082,32,49,32,274,*7D
$GPGSV,5,5,17,50,10,089,*4A
$GLGSV,3,1,09,65,04,207,,71,17,104,13,72,23,156,13,74,26,149,09*6D
$GLGSV,3,2,09,75,78,109,28,76,34,342,16,86,19,349,11,87,28,301,29*62
$GLGSV,3,3,09,88,08,244,*56
$GNGLL,0420.01873,S,05539.73889,E,053414.00,A,A*61
$GNGRS,053414.00,1,-3.9,-5.3,1.4,-5.1,3.5,-25.0,-1.6,-1.9,4.6,,,*48
$GNGRS,053414.00,1,-0.2,1.5,3.8,10.6,4.7,-0.7,,,,,,*69
$GNGST,053414.00,5506669,,,,3.3,5.0,11*5A
$GNZDA,053414.00,23,05,2025,00,00*7E
$GNGBS,053414.00,3.3,5.0,10.5,,,,*69
$GNTXT,01,01,01,More than 100 frame errors, UART RX was disabled*70
b0L(?V6!1_5b#/B5U={ 4V^ :R 
Y
kAGh
HJ
KNmL"VV]gW-XDb(r\$GNRMC,053415.00,A,0420.01870,S,05539.73884,E,0.107,,230525,,,A*72
$GNVTG,,T,,M,0.107,N,0.199,K,A*3A
$GNGNS,053415.00,0420.01870,S,05539.73884,E,AA,15,0.73,16.7,-47.6,,*69
$GNGGA,053415.00,0420.01870,S,05539.73884,E,1,12,0.73,16.7,M,-47.6,M,,*44
$GNGSA,A,3,24,20,05,13,15,22,12,18,23,,,,1.53,0.73,1.35*14
$GNGSA,A,3,74,75,87,71,72,76,,,,,,,1.53,0.73,1.35*14
$GPGSV,5,1,17,05,63,086,27,11,07,025,,12,49,014,33,13,16,139,22*75
$GPGSV,5,2,17,15,30,173,15,18,31,249,21,20,35,047,19,22,08,130,14*79
$GPGSV,5,3,17,23,15,208,23,24,53,210,31,25,25,341,,29,09,317,*77
$GPGSV,5,4,17,36,52,277,32,40,86,350,,41,58,082,32,49,32,274,*7D
$GPGSV,5,5,17,50,10,089,*4A
$GLGSV,3,1,09,65,04,207,,71,17,104,11,72,23,156,12,74,26,149,10*66
$GLGSV,3,2,09,75,78,109,28,76,34,342,17,86,19,349,09,87,28,301,29*6A
$GLGSV,3,3,09,88,08,244,*56
$GNGLL,0420.01870,S,05539.73884,E,053415.00,A,A*6E
$GNGRS,053415.00,1,-6.2,-4.5,0.5,-6.0,3.1,-24.2,-1.6,-1.6,2.0,,,*4A
$GNGRS,053415.00,1,-0.3,1.4,4.9,10.5,4.5,1.6,,,,,,*42
$GNGST,053415.00,5506669,,,,3.3,5.0,11*5B
$GNZDA,053415.00,23,05,2025,00,00*7F
$GNGBS,053415.00,3.3,5.0,10.6,,,,*6B
$GNTXT,01,01,01,More than 100 frame errors, UART RX was disabled*70
b0L?V_"1ji#/T5U={4V^:R 
Y
ktAGh
HtJKNm^L"VV]-W-Xmbr\6$GNRMC,053416.00,A,0420.01870,S,05539.73876,E,0.081,,230525,,,A*73
$GNVTG,,T,,M,0.081,N,0.149,K,A*38
$GNGNS,053416.00,0420.01870,S,05539.73876,E,AA,16,0.73,16.9,-47.6,,*6A
$GNGGA,053416.00,0420.01870,S,05539.73876,E,1,12,0.73,16.9,M,-47.6,M,,*44
$GNGSA,A,3,24,20,05,13,15,22,12,18,23,,,,1.53,0.73,1.35*14
$GNGSA,A,3,86,74,75,87,71,72,76,,,,,,1.53,0.73,1.35*1A
$GPGSV,5,1,17,05,63,086,26,11,07,025,,12,49,014,34,13,16,139,21*70
$GPGSV,5,2,17,15,30,173,15,18,31,250,22,20,35,047,19,22,08,130,14*72
$GPGSV,5,3,17,23,15,208,23,24,53,210,31,25,25,341,,29,09,317,*77
$GPGSV,5,4,17,36,52,277,31,40,86,350,,41,58,082,31,49,32,274,*7D
$GPGSV,5,5,17,50,10,089,*4A
$GLGSV,3,1,09,65,04,207,,71,17,104,16,72,23,156,11,74,26,149,08*6B
$GLGSV,3,2,09,75,78,109,28,76,34,342,18,86,19,349,09,87,28,301,28*64
$GLGSV,3,3,09,88,08,244,*56
$GNGLL,0420.01870,S,05539.73876,E,053416.00,A,A*60
$GNGRS,053416.00,1,-2.9,-4.3,1.0,-4.1,6.6,-25.7,-1.5,-0.1,1.5,,,*42
$GNGRS,053416.00,1,-145,28.3,0.9,1.6,-13.2,6.3,1.7,,,,,*61
$GNGST,053416.00,64,,,,3.3,4.9,11*6D
$GNZDA,053416.00,23,05,2025,00,00*7C
$GNGBS,053416.00,3.3,4.9,10.6,,,,*60
$GNTXT,01,01,01,More than 100 frame errors, UART RX was disabled*70
b0L?Vd"1$#/5U={4V^ :R 
Y
kAGh:
HJKNmZL"ViV
]lW-pXbr\$GNRMC,053417.00,A,0420.01867,S,05539.73873,E,0.036,,230525,,,A*7D
$GNVTG,,T,,M,0.036,N,0.068,K,A*36
$GNGNS,053417.00,0420.01867,S,05539.73873,E,AA,16,0.68,16.9,-47.6,,*62
$GNGGA,053417.00,0420.01867,S,05539.73873,E,1,12,0.68,16.9,M,-47.6,M,,*4C
$GNGSA,A,3,24,20,05,13,15,22,12,18,23,,,,1.40,0.68,1.22*1A
$GNGSA,A,3,86,74,75,87,71,72,76,,,,,,1.40,0.68,1.22*14
$GPGSV,5,1,17,05,63,086,26,11,07,025,,12,49,014,34,13,16,139,22*73
$GPGSV,5,2,17,15,30,173,15,18,31,250,23,20,35,047,19,22,08,130,15*72
$GPGSV,5,3,17,23,15,208,22,24,53,210,31,25,25,341,,29,09,317,*76
$GPGSV,5,4,17,36,52,277,31,40,86,350,,41,58,082,32,49,32,274,*7E
$GPGSV,5,5,17,50,10,089,*4A
$GLGSV,3,1,09,65,04,207,,71,17,104,11,72,23,156,16,74,26,149,14*66
$GLGSV,3,2,09,75,78,109,28,76,34,342,19,86,19,349,10,87,28,301,28*6D
$GLGSV,3,3,09,88,08,244,*56
$GNGLL,0420.01867,S,05539.73873,E,053417.00,A,A*62
$GNGRS,053417.00,1,-4.9,-3.2,3.6,-4.8,6.5,-24.2,-1.1,2.2,2.6,,,*61
$GNGRS,053417.00,1,1.1,0.1,0.9,3.7,10.8,5.1,1.0,,,,,*4A
$GNGST,053417.00,4343760,,,,3.3,4.9,11*5F
$GNZDA,053417.00,23,05,2025,00,00*7D
$GNGBS,053417.00,3.3,4.9,10.6,,,,*61
$GNTXT,01,01,01,More than 100 frame errors, UART RX was disabled*70
b0L!?V#1G".S5U={4V^ :R 
Y

kAGh
HJ
KNmL"VV
]PW-Xb!rr\$GNRMC,053418.00,A,0420.01874,S,05539.73881,E,0.142,,230525,,,A*7F
$GNVTG,,T,,M,0.142,N,0.264,K,A*3A
$GNGNS,053418.00,0420.01874,S,05539.73881,E,AA,16,0.68,16.4,-47.6,,*6F
$GNGGA,053418.00,0420.01874,S,05539.73881,E,1,12,0.68,16.4,M,-47.6,M,,*41
$GNGSA,A,3,24,20,05,13,15,22,12,18,23,,,,1.40,0.68,1.22*1A
$GNGSA,A,3,86,74,75,87,71,72,76,,,,,,1.40,0.68,1.22*14
$GPGSV,5,1,17,05,63,086,26,11,07,025,,12,49,014,35,13,16,139,23*73
$GPGSV,5,2,17,15,30,173,14,18,31,250,23,20,34,046,21,22,08,130,14*79
$GPGSV,5,3,17,23,15,208,21,24,53,210,31,25,25,341,,29,09,317,*75
$GPGSV,5,4,17,36,52,277,31,40,86,350,,41,58,082,32,49,32,274,*7E
$GPGSV,5,5,17,50,10,089,*4A
$GLGSV,3,1,09,65,04,207,,71,17,104,11,72,23,156,12,74,26,149,10*66
$GLGSV,3,2,09,75,78,109,27,76,34,342,20,86,19,349,10,87,28,301,28*68
$GLGSV,3,3,09,88,08,244,*56
$GNGLL,0420.01874,S,05539.73881,E,053418.00,A,A*62
$GNGRS,053418.00,1,-2.4,-1.7,4.5,-5.0,4.1,-24.2,-0.8,3.3,4.1,,,*60
$GNGRS,053418.00,1,0.8,-0.3,2.4,-3.1,10.1,4.6,1.4,,,,,*4D
$GNGST,053418.00,4343811,,,,3.3,4.9,11*59
$GNZDA,053418.00,23,05,2025,00,00*72
$GNGBS,053418.00,3.3,4.9,10.6,,,,*6E
$GNTXT,01,01,01,More than 100 frame errors, UART RX was disabled*70
b0L%?V"1cJ".I 5U={4V^:R 
Y
knAGh
H
JKNmL"VV]"W-Xob%rZ\s_$GNRMC,053419.00,A,0420.01873,S,05539.73880,E,0.059,,230525,,,A*73
$GNVTG,,T,,M,0.059,N,0.109,K,A*39
$GNGNS,053419.00,0420.01873,S,05539.73880,E,AA,16,0.79,16.4,-47.6,,*68
$GNGGA,053419.00,0420.01873,S,05539.73880,E,1,12,0.79,16.4,M,-47.6,M,,*46
$GNGSA,A,3,24,20,05,13,15,22,12,18,23,,,,1.65,0.79,1.46*1F
$GNGSA,A,3,86,74,75,87,71,72,76,,,,,,1.65,0.79,1.46*11
$GPGSV,5,1,17,05,63,086,26,11,07,025,,12,49,014,34,13,16,139,22*73
$GPGSV,5,2,17,15,30,173,14,18,31,250,23,20,34,046,21,22,08,131,14*78
$GPGSV,5,3,17,23,15,208,20,24,53,210,32,25,25,341,,29,09,317,*77
$GPGSV,5,4,17,36,52,277,31,40,86,350,,41,58,082,31,49,32,274,*7D
$GPGSV,5,5,17,50,10,089,*4A
$GLGSV,3,1,09,65,04,207,,71,17,104,12,72,23,156,10,74,26,149,14*63
$GLGSV,3,2,09,75,78,109,27,76,34,342,19,86,19,349,07,87,28,301,28*64
$GLGSV,3,3,09,88,08,244,*56
$GNGLL,0420.01873,S,05539.73880,E,053419.00,A,A*65
$GNGRS,053419.00,1,-6.2,0.1,5.1,-3.6,6.1,-24.9,-0.6,3.3,4.5,,,*4F
$GNGRS,053419.00,1,88.9,-8.0,3.9,0.1,38.2,9.8,1.4,,,,,*5E
$GNGST,053419.00,58,,,,3.3,4.9,11*6D
$GNZDA,053419.00,23,05,2025,00,00*73
$GNGBS,053419.00,3.3,4.9,10.6,,,,*6F
$GNTXT,01,01,01,More than 100 frame errors, UART RX was disabled*70
b0L)?V!1V".[5U={4V^:R 
Y
kAGhM
H
J
KNmL"VV
]bW-Xmb)rB\K$GNRMC,053420.00,A,0420.01866,S,05539.73876,E,0.128,,230525,,,A*73
$GNVTG,,T,,M,0.128,N,0.237,K,A*30
$GNGNS,053420.00,0420.01866,S,05539.73876,E,AA,16,0.68,16.7,-47.6,,*6C
$GNGGA,053420.00,0420.01866,S,05539.73876,E,1,12,0.68,16.7,M,-47.6,M,,*42
$GNGSA,A,3,24,20,05,13,15,22,12,18,23,,,,1.40,0.68,1.22*1A
$GNGSA,A,3,86,74,75,87,71,72,76,,,,,,1.40,0.68,1.22*14
$GPGSV,5,1,17,05,63,086,28,11,07,025,,12,49,014,33,13,16,139,22*7A
$GPGSV,5,2,17,15,30,173,13,18,31,250,23,20,34,046,20,22,08,131,12*78
$GPGSV,5,3,17,23,15,208,22,24,53,210,31,25,25,341,,29,09,317,*76
$GPGSV,5,4,17,36,52,277,31,40,86,350,,41,58,082,29,49,32,274,*74
$GPGSV,5,5,17,50,10,089,*4A
$GLGSV,3,1,09,65,04,207,,71,17,104,17,72,23,156,10,74,26,149,10*62
$GLGSV,3,2,09,75,78,109,27,76,34,342,19,86,19,349,10,87,28,301,27*6D
$GLGSV,3,3,09,88,08,244,*56
$GNGLL,0420.01866,S,05539.73876,E,053420.00,A,A*62
$GNGRS,053420.00,1,-7.6,1.8,4.2,-4.3,6.5,-28.4,-0.7,4.1,3.5,,,*4E
$GNGRS,053420.00,1,1.0,0.2,4.5,1.5,11.0,5.3,2.1,,,,,*4D
$GNGST,053420.00,3077248,,,,3.3,4.9,11*57
$GNZDA,053420.00,23,05,2025,00,00*79
$GNGBS,053420.00,3.3,4.9,10.7,,,,*64
$GNTXT,01,01,01,More than 100 frame errors, UART RX was disabled*70
b0L-?V!1".{
F 4U={4V^:R 
Y
kAGh>
HJKNmL"VV
];W-X9b-r*\#/$GNRMC,053421.00,A,0420.01859,S,05539.73877,E,0.152,,230525,,,A*72
$GNVTG,,T,,M,0.152,N,0.282,K,A*33
$GNGNS,053421.00,0420.01859,S,05539.73877,E,AA,16,0.68,16.7,-47.6,,*60
$GNGGA,053421.00,0420.01859,S,05539.73877,E,1,12,0.68,16.7,M,-47.6,M,,*4E
$GNGSA,A,3,24,20,05,13,15,22,12,18,23,,,,1.40,0.68,1.22*1A
$GNGSA,A,3,86,74,75,87,71,72,76,,,,,,1.40,0.68,1.22*14
$GPGSV,5,1,17,05,63,086,28,11,07,025,,12,49,014,33,13,16,139,22*7A
$GPGSV,5,2,17,15,30,173,12,18,31,250,22,20,34,046,19,22,08,131,10*70
$GPGSV,5,3,17,23,15,208,22,24,52,209,32,25,25,341,,29,09,317,*7C
$GPGSV,5,4,17,36,52,277,30,40,86,350,,41,58,082,29,49,32,274,*75
$GPGSV,5,5,17,50,10,089,*4A
$GLGSV,3,1,09,65,04,207,,71,17,104,17,72,23,156,14,74,26,149,12*64
$GLGSV,3,2,09,75,78,109,27,76,34,342,18,86,19,349,10,87,28,301,28*63
$GLGSV,3,3,09,88,08,244,*56
$GNGLL,0420.01859,S,05539.73877,E,053421.00,A,A*6E
$GNGRS,053421.00,1,-6.2,1.2,5.2,-3.8,2.2,-28.7,-0.9,4.5,3.3,,,*41
$GNGRS,053421.00,1,0.6,0.3,3.9,2.5,10.9,5.3,4.1,,,,,*4C
$GNGST,053421.00,4346116,,,,3.4,4.9,11*5F
$GNZDA,053421.00,23,05,2025,00,00*78
$GNGBS,053421.00,3.4,4.9,10.7,,,,*62
$GNTXT,01,01,01,More than 100 frame errors, UART RX was disabled*70
b0L1?V!1#".| 4U={4V^:R 
Y
kAGh'
HGJKNm8L"VV
]W-Xxb1r\$GNRMC,053422.00,A,0420.01858,S,05539.73881,E,0.120,,230525,,,A*7C
$GNVTG,,T,,M,0.120,N,0.222,K,A*3C
$GNGNS,053422.00,0420.01858,S,05539.73881,E,AA,15,0.73,16.5,-47.6,,*60
$GNGGA,053422.00,0420.01858,S,05539.73881,E,1,12,0.73,16.5,M,-47.6,M,,*4D
$GNGSA,A,3,24,20,05,13,15,12,18,23,,,,,1.53,0.73,1.35*14
$GNGSA,A,3,86,74,75,87,71,72,76,,,,,,1.53,0.73,1.35*1A
$GPGSV,5,1,17,05,63,086,28,11,07,025,,12,49,014,33,13,16,139,21*79
