b0L8?]
.l%$1
6U;{4V^
:R 
Y
kAGlHJKNZ3LWVV["W
)Xb8rXW$GNRMC,052833.00,A,0420.01447,S,05539.74618,E,0.226,,230525,,,A*7F
$GNVTG,,T,,M,0.226,N,0.419,K,A*37
$GNGNS,052833.00,0420.01447,S,05539.74618,E,AA,11,0.81,24.7,-47.6,,*6C
$GNGGA,052833.00,0420.01447,S,05539.74618,E,1,11,0.81,24.7,M,-47.6,M,,*46
$GNGSA,A,3,24,20,05,13,12,18,,,,,,,1.55,0.81,1.33*1C
$GNGSA,A,3,86,75,87,71,76,,,,,,,,1.55,0.81,1.33*11
$GPGSV,5,1,17,05,63,093,27,11,10,024,,12,46,012,29,13,16,142,14*7D
$GPGSV,5,2,17,15,30,176,12,18,30,247,27,20,36,049,16,22,10,129,*74
$GPGSV,5,3,17,23,13,208,12,24,54,213,25,25,23,341,,29,09,315,*76
$GPGSV,5,4,17,36,52,277,,40,86,350,,41,58,082,,49,32,274,*7D
$GPGSV,5,5,17,50,10,089,*4A
$GLGSV,3,1,09,65,03,209,,71,17,108,08,72,22,159,,74,29,148,05*6C
$GLGSV,3,2,09,75,78,090,19,76,31,343,08,86,21,347,11,87,30,297,10*62
$GLGSV,3,3,09,88,07,241,*5C
$GNGLL,0420.01447,S,05539.74618,E,052833.00,A,A*63
$GNGRS,052833.00,1,-3.6,-16.2,-2.6,16.4,0.0,-2.8,,,,,,*52
$GNGRS,052833.00,1,0.3,10.7,5.1,11.6,-1.7,,,,,,,*5D
$GNGST,052833.00,6212600,,,,6.2,8.0,20*57
$GNZDA,052833.00,23,05,2025,00,00*76
$GNGBS,052833.00,6.2,8.0,20.2,,,,*6C
$GNTXT,01,01,01,More than 100 frame errors, UART RX was disabled*70
b0L ?]
.0
[$1
6U;{4V^
:R 
Y
kAGlxHJtKNZL
W.V
[W)X*b r\W($GNRMC,052834.00,A,0420.01459,S,05539.74626,E,0.256,,230525,,,A*7D
$GNVTG,,T,,M,0.256,N,0.474,K,A*3B
$GNGNS,052834.00,0420.01459,S,05539.74626,E,AA,10,0.81,24.8,-47.6,,*67
$GNGGA,052834.00,0420.01459,S,05539.74626,E,1,10,0.81,24.8,M,-47.6,M,,*4D
$GNGSA,A,3,24,20,05,13,12,18,,,,,,,1.79,0.81,1.60*14
$GNGSA,A,3,86,87,71,76,,,,,,,,,1.79,0.81,1.60*1B
$GPGSV,5,1,17,05,63,093,26,11,10,024,,12,46,012,28,13,16,142,12*7B
$GPGSV,5,2,17,15,30,176,12,18,30,247,26,20,36,049,16,22,10,129,*75
$GPGSV,5,3,17,23,13,208,11,24,54,213,23,25,23,341,,29,09,315,*73
$GPGSV,5,4,17,36,52,277,,40,86,350,,41,58,082,,49,32,274,*7D
$GPGSV,5,5,17,50,10,089,*4A
$GLGSV,3,1,09,65,03,209,,71,17,108,09,72,22,159,,74,29,148,06*6E
$GLGSV,3,2,09,75,78,090,,76,31,343,10,86,21,347,10,87,30,297,08*6B
$GLGSV,3,3,09,88,07,241,*5C
$GNGLL,0420.01459,S,05539.74626,E,052834.00,A,A*66
$GNGRS,052834.00,1,-2.3,-15.6,-0.2,26.1,-1.2,-1.7,,,,,,*74
$GNGRS,052834.00,1,-104,-3.6,-39.8,120,,,,,,,,*44
$GNGST,052834.00,94,,,,6.2,8.0,20*6C
$GNZDA,052834.00,23,05,2025,00,00*71
$GNGBS,052834.00,6.2,8.0,20.3,,,,*6A
$GNTXT,01,01,01,More than 100 frame errors, UART RX was disabled*70
b0L?]
.
)1$18
Z6hU;{4V^
:R 
Y
kAGl?HJKNZL
W<V
[W)Xbr`Wi$GNRMC,052835.00,A,0420.01469,S,05539.74628,E,0.076,,230525,,,A*71
$GNVTG,,T,,M,0.076,N,0.140,K,A*39
$GNGNS,052835.00,0420.01469,S,05539.74628,E,AA,10,0.81,25.1,-47.6,,*63
$GNGGA,052835.00,0420.01469,S,05539.74628,E,1,10,0.81,25.1,M,-47.6,M,,*49
$GNGSA,A,3,24,20,05,13,12,18,,,,,,,1.79,0.81,1.60*14
$GNGSA,A,3,86,87,71,76,,,,,,,,,1.79,0.81,1.60*1B
$GPGSV,5,1,17,05,63,093,26,11,10,024,,12,46,012,28,13,16,142,10*79
$GPGSV,5,2,17,15,30,176,14,18,30,247,27,20,36,049,16,22,10,129,*72
$GPGSV,5,3,17,23,13,208,09,24,54,213,24,25,23,341,,29,09,315,*7D
$GPGSV,5,4,17,36,52,277,,40,86,350,,41,58,082,,49,32,274,*7D
$GPGSV,5,5,17,50,10,089,*4A
$GLGSV,3,1,09,65,03,209,,71,17,108,12,72,22,159,,74,29,148,07*65
$GLGSV,3,2,09,75,78,090,,76,31,343,10,86,21,347,10,87,30,297,12*60
$GLGSV,3,3,09,88,07,241,*5C
$GNGLL,0420.01469,S,05539.74628,E,052835.00,A,A*6A
$GNGRS,052835.00,1,-4.1,-12.2,-0.8,15.8,-10.7,1.5,,,,,,*6B
$GNGRS,052835.00,1,0.0,5.2,10.9,-2.0,,,,,,,,*49
$GNGST,052835.00,6518069,,,,6.4,8.3,21*51
$GNZDA,052835.00,23,05,2025,00,00*70
$GNGBS,052835.00,6.4,8.3,20.8,,,,*65
$GNTXT,01,01,01,More than 100 frame errors, UART RX was disabled*70
b0L?]
."P$1
r65U;{4V^
:R 
Y
kAGlHJ
KNZLW'V[W
)XbrdW@$GNRMC,052836.00,A,0420.01483,S,05539.74638,E,0.053,,230525,,,A*70
$GNVTG,,T,,M,0.053,N,0.098,K,A*3A
$GNGNS,052836.00,0420.01483,S,05539.74638,E,AA,11,0.76,24.9,-47.6,,*65
$GNGGA,052836.00,0420.01483,S,05539.74638,E,1,11,0.76,24.9,M,-47.6,M,,*4F
$GNGSA,A,3,24,20,05,13,15,12,18,,,,,,1.77,0.76,1.60*16
$GNGSA,A,3,86,87,71,76,,,,,,,,,1.77,0.76,1.60*1D
$GPGSV,5,1,17,05,63,093,29,11,10,024,,12,46,012,29,13,16,142,13*74
$GPGSV,5,2,17,15,30,176,18,18,30,247,27,20,36,049,16,22,10,129,*7E
$GPGSV,5,3,17,23,13,208,09,24,54,213,23,25,23,341,,29,09,315,*7A
$GPGSV,5,4,17,36,52,277,,40,86,350,,41,58,082,,49,32,274,*7D
$GPGSV,5,5,17,50,10,089,*4A
$GLGSV,3,1,09,65,03,209,,71,17,108,09,72,22,159,,74,29,148,10*69
$GLGSV,3,2,09,75,78,090,21,76,31,343,11,86,21,347,09,87,30,297,10*68
$GLGSV,3,3,09,88,07,241,*5C
$GNGLL,0420.01483,S,05539.74638,E,052836.00,A,A*6C
$GNGRS,052836.00,1,-4.6,-11.5,1.9,15.3,10.2,-9.9,3.4,,,,,*65
$GNGRS,052836.00,1,-0.1,5.2,10.5,-2.2,,,,,,,,*68
$GNGST,052836.00,6218310,,,,6.5,8.4,21*5E
$GNZDA,052836.00,23,05,2025,00,00*73
$GNGBS,052836.00,6.5,8.4,21.4,,,,*6D
$GNTXT,01,01,01,More than 100 frame errors, UART RX was disabled*70
b0L?]l
.<$1
_6-U;{4V^
:R 
Y
kAGlHJKNZLWV[W)kXbrjhWQ$GNRMC,052837.00,A,0420.01510,S,05539.74657,E,0.227,,230525,,,A*72
$GNVTG,,T,,M,0.227,N,0.420,K,A*3C
$GNGNS,052837.00,0420.01510,S,05539.74657,E,AA,13,0.69,23.9,-47.6,,*6D
$GNGGA,052837.00,0420.01510,S,05539.74657,E,1,12,0.69,23.9,M,-47.6,M,,*46
$GNGSA,A,3,24,20,05,13,15,12,18,23,,,,,1.63,0.69,1.47*19
$GNGSA,A,3,86,74,87,71,76,,,,,,,,1.63,0.69,1.47*10
$GPGSV,5,1,17,05,63,093,30,11,10,024,,12,46,012,28,13,16,142,17*79
$GPGSV,5,2,17,15,30,176,14,18,30,247,26,20,36,049,15,22,10,129,*70
$GPGSV,5,3,17,23,13,208,08,24,54,213,23,25,23,341,,29,09,315,*7B
$GPGSV,5,4,17,36,52,277,,40,86,350,,41,58,082,,49,32,274,*7D
$GPGSV,5,5,17,50,10,089,*4A
$GLGSV,3,1,09,65,03,209,,71,17,108,12,72,22,159,,74,29,148,08*6A
$GLGSV,3,2,09,75,78,090,21,76,31,343,08,86,21,347,09,87,30,297,09*68
$GLGSV,3,3,09,88,07,241,*5C
$GNGLL,0420.01510,S,05539.74657,E,052837.00,A,A*6F
$GNGRS,052837.00,1,-2.1,-11.3,-1.5,10.3,8.3,-6.3,1.9,18.9,,,,*6B
$GNGRS,052837.00,1,-68.9,7.0,8.8,-15.6,32.9,,,,,,,*4F
$GNGST,052837.00,82,,,,6.3,8.2,21*6A
$GNZDA,052837.00,23,05,2025,00,00*72
$GNGBS,052837.00,6.3,8.2,20.8,,,,*61
$GNTXT,01,01,01,More than 100 frame errors, UART RX was disabled*70
b0L?][
.<5l$1|
J6U;{4V^:R 
Y
kAGlZHJKNZL
W?V[W)XbrRlW$GNRMC,052838.00,A,0420.01512,S,05539.74647,E,0.087,,230525,,,A*76
$GNVTG,,T,,M,0.087,N,0.160,K,A*35
$GNGNS,052838.00,0420.01512,S,05539.74647,E,AA,13,0.69,23.9,-47.6,,*61
$GNGGA,052838.00,0420.01512,S,05539.74647,E,1,12,0.69,23.9,M,-47.6,M,,*4A
$GNGSA,A,3,24,20,05,13,15,12,18,23,,,,,1.63,0.69,1.47*19
$GNGSA,A,3,86,74,87,71,76,,,,,,,,1.63,0.69,1.47*10
$GPGSV,5,1,17,05,63,093,30,11,10,024,,12,46,012,29,13,16,142,16*79
$GPGSV,5,2,17,15,30,176,16,18,30,247,27,20,36,049,16,22,10,129,*70
$GPGSV,5,3,17,23,13,208,12,24,54,213,24,25,23,341,,29,09,315,*77
$GPGSV,5,4,17,36,52,277,,40,86,350,,41,58,082,,49,32,274,*7D
$GPGSV,5,5,17,50,10,089,*4A
$GLGSV,3,1,09,65,03,209,,71,17,108,11,72,22,159,,74,29,148,09*68
$GLGSV,3,2,09,75,78,090,21,76,31,343,10,86,21,347,12,87,30,297,16*65
$GLGSV,3,3,09,88,07,241,*5C
$GNGLL,0420.01512,S,05539.74647,E,052838.00,A,A*63
$GNGRS,052838.00,1,-3.0,-11.6,-4.2,16.0,8.2,-3.0,3.6,18.7,,,,*62
$GNGRS,052838.00,1,0.0,-0.5,5.1,11.1,-1.9,,,,,,,*42
$GNGST,052838.00,5716319,,,,6.3,8.3,21*50
$GNZDA,052838.00,23,05,2025,00,00*7D
$GNGBS,052838.00,6.3,8.3,21.3,,,,*65
$GNTXT,01,01,01,More than 100 frame errors, UART RX was disabled*70
b0L?]
.2$1
?6U;{4V^
:R 
Y
kAGlcHJKNZL
WYV[W)XEbr:pW!$GNRMC,052839.00,A,0420.01530,S,05539.74645,E,0.243,,230525,,,A*7F
$GNVTG,,T,,M,0.243,N,0.451,K,A*38
$GNGNS,052839.00,0420.01530,S,05539.74645,E,AA,14,0.69,24.3,-47.6,,*68
$GNGGA,052839.00,0420.01530,S,05539.74645,E,1,12,0.69,24.3,M,-47.6,M,,*44
$GNGSA,A,3,24,20,05,13,15,12,18,23,,,,,1.41,0.69,1.23*1B
$GNGSA,A,3,86,74,75,87,71,76,,,,,,,1.41,0.69,1.23*10
$GPGSV,5,1,17,05,63,093,31,11,10,024,,12,46,012,29,13,16,142,15*7B
$GPGSV,5,2,17,15,30,176,17,18,30,247,28,20,36,049,19,22,10,129,*71
$GPGSV,5,3,17,23,13,208,14,24,54,213,25,25,23,341,,29,09,315,*70
$GPGSV,5,4,17,36,52,277,,40,86,350,,41,58,082,,49,32,274,*7D
$GPGSV,5,5,17,50,10,089,*4A
$GLGSV,3,1,09,65,03,209,,71,17,108,13,72,22,159,,74,29,148,09*6A
$GLGSV,3,2,09,75,78,090,21,76,31,343,10,86,21,347,09,87,30,297,12*6B
$GLGSV,3,3,09,88,07,241,*5C
$GNGLL,0420.01530,S,05539.74645,E,052839.00,A,A*60
$GNGRS,052839.00,1,-0.2,-8.8,4.3,15.9,10.4,-7.5,4.2,18.5,,,,*4D
$GNGRS,052839.00,1,0.3,-0.5,-10.7,5.4,11.2,-1.7,,,,,,*7D
$GNGST,052839.00,5509695,,,,6.3,8.4,22*58
$GNZDA,052839.00,23,05,2025,00,00*7C
$GNGBS,052839.00,6.3,8.4,21.6,,,,*66
$GNTXT,01,01,01,More than 100 frame errors, UART RX was disabled*70
b0L?]
.?$1#
Q6UU;{4V^
:R 
Y
kAGlFHJKNZLW'V['9W)"Xbr"tW$GNRMC,052840.00,A,0420.01552,S,05539.74668,E,0.139,,230525,,,A*74
$GNVTG,,T,,M,0.139,N,0.257,K,A*36
$GNGNS,052840.00,0420.01552,S,05539.74668,E,AA,14,0.69,21.9,-47.6,,*62
$GNGGA,052840.00,0420.01552,S,05539.74668,E,1,12,0.69,21.9,M,-47.6,M,,*4E
$GNGSA,A,3,24,20,05,13,15,12,18,23,,,,,1.41,0.69,1.23*1B
$GNGSA,A,3,86,74,75,87,71,76,,,,,,,1.41,0.69,1.23*10
$GPGSV,5,1,17,05,63,093,28,11,10,024,,12,46,012,28,13,16,142,09*7F
$GPGSV,5,2,17,15,30,176,15,18,30,247,27,20,36,049,20,22,10,129,*76
$GPGSV,5,3,17,23,13,208,12,24,54,213,23,25,23,341,,29,09,315,*70
$GPGSV,5,4,17,36,52,277,,40,86,350,,41,58,082,,49,32,274,*7D
$GPGSV,5,5,17,50,10,089,*4A
$GLGSV,3,1,09,65,03,209,,71,17,108,09,72,22,159,,74,29,148,09*61
$GLGSV,3,2,09,75,78,090,22,76,31,343,11,86,21,347,11,87,30,297,11*63
$GLGSV,3,3,09,88,07,241,*5C
$GNGLL,0420.01552,S,05539.74668,E,052840.00,A,A*65
$GNGRS,052840.00,1,-1.7,-9.9,-1.0,10.3,16.0,-10.6,4.2,23.9,,,,*50
$GNGRS,052840.00,1,146,7.6,-7.5,28.5,16.1,102,,,,,,*7C
$GNGST,052840.00,90,,,,6.3,8.2,21*69
$GNZDA,052840.00,23,05,2025,00,00*72
$GNGBS,052840.00,6.3,8.2,21.2,,,,*6A
$GNTXT,01,01,01,More than 100 frame errors, UART RX was disabled*70
b0Lx?]
.F$1
6U;{4V^
:R 
Y
kAGk-HJ
KNZL
WTV[W)X[bxr
xWx$GNRMC,052841.00,A,0420.01568,S,05539.74666,E,0.152,,230525,,,A*7F
$GNVTG,,T,,M,0.152,N,0.281,K,A*30
$GNGNS,052841.00,0420.01568,S,05539.74666,E,AA,14,0.69,21.9,-47.6,,*64
$GNGGA,052841.00,0420.01568,S,05539.74666,E,1,12,0.69,21.9,M,-47.6,M,,*48
$GNGSA,A,3,24,20,05,13,15,12,18,23,,,,,1.41,0.69,1.23*1B
$GNGSA,A,3,86,74,75,87,71,76,,,,,,,1.41,0.69,1.23*10
$GPGSV,5,1,17,05,63,093,27,11,10,024,,12,46,012,27,13,16,142,11*76
$GPGSV,5,2,17,15,30,176,14,18,30,247,27,20,36,049,23,22,10,129,*74
$GPGSV,5,3,17,23,13,208,11,24,54,213,23,25,23,341,,29,09,315,*73
$GPGSV,5,4,17,36,52,277,,40,86,350,,41,58,082,,49,32,274,*7D
$GPGSV,5,5,17,50,10,089,*4A
$GLGSV,3,1,09,65,03,209,,71,17,107,11,72,22,159,,74,29,148,10*6F
$GLGSV,3,2,09,75,78,090,23,76,31,343,10,86,21,347,11,87,30,297,08*6B
$GLGSV,3,3,09,88,07,241,*5C
$GNGLL,0420.01568,S,05539.74666,E,052841.00,A,A*63
$GNGRS,052841.00,1,-0.3,-10.0,-0.9,15.7,15.5,-9.5,2.7,16.8,,,,*55
$GNGRS,052841.00,1,0.2,-1.1,-8.1,5.3,10.7,-1.7,,,,,,*4A
$GNGST,052841.00,4498573,,,,6.4,8.3,22*54
$GNZDA,052841.00,23,05,2025,00,00*73
$GNGBS,052841.00,6.4,8.3,21.5,,,,*6A
$GNTXT,01,01,01,More than 100 frame errors, UART RX was disabled*70
b0L`?]
.P$1R
6EU;{4V^
:R 
Y
kAGkHJVKNZ@LW`V
[W)!Xb`r{WPd$GNRMC,052842.00,A,0420.01583,S,05539.74669,E,0.113,,230525,,,A*73
$GNVTG,,T,,M,0.113,N,0.209,K,A*35
$GNGNS,052842.00,0420.01583,S,05539.74669,E,AA,13,0.74,21.7,-47.6,,*68
$GNGGA,052842.00,0420.01583,S,05539.74669,E,1,12,0.74,21.7,M,-47.6,M,,*43
$GNGSA,A,3,24,20,05,13,15,12,18,,,,,,1.51,0.74,1.32*17
$GNGSA,A,3,86,74,75,87,71,76,,,,,,,1.51,0.74,1.32*1D
$GPGSV,5,1,17,05,63,093,25,11,10,024,,12,46,012,26,13,16,142,12*76
$GPGSV,5,2,17,15,30,176,13,18,30,247,26,20,36,049,23,22,10,129,*72
$GPGSV,5,3,17,23,13,208,05,24,54,213,23,25,23,341,,29,09,315,*76
$GPGSV,5,4,17,36,52,277,,40,86,350,,41,58,082,,49,32,274,*7D
$GPGSV,5,5,17,50,10,089,*4A
$GLGSV,3,1,09,65,03,209,,71,17,107,11,72,22,159,,74,29,148,09*67
$GLGSV,3,2,09,75,78,090,23,76,31,343,13,86,21,347,10,87,30,297,11*61
$GLGSV,3,3,09,88,07,241,*5C
$GNGLL,0420.01583,S,05539.74669,E,052842.00,A,A*6A
$GNGRS,052842.00,1,0.7,-9.4,-3.1,15.2,15.2,-7.7,0.8,,,,,*5A
$GNGRS,052842.00,1,0.2,-1.7,-4.5,5.4,10.1,-1.6,,,,,,*47
$GNGST,052842.00,4670054,,,,6.7,8.5,22*56
$GNZDA,052842.00,23,05,2025,00,00*70
$GNGBS,052842.00,6.7,8.5,21.8,,,,*61
$GNTXT,01,01,01,More than 100 frame errors, UART RX was disabled*70
b0LH?]
.V

K$1
_6U;{4V^
:R 
Y
kAG
k3HJLKNZLWIV[AW)X5cbHrW($GNRMC,052843.00,A,0420.01589,S,05539.74639,E,0.239,,230525,,,A*76
$GNVTG,,T,,M,0.239,N,0.443,K,A*36
$GNGNS,052843.00,0420.01589,S,05539.74639,E,AA,13,0.71,22.7,-47.6,,*60
$GNGGA,052843.00,0420.01589,S,05539.74639,E,1,12,0.71,22.7,M,-47.6,M,,*4B
$GNGSA,A,3,24,20,05,13,15,12,18,23,,,,,1.42,0.71,1.23*11
$GNGSA,A,3,86,75,87,71,76,,,,,,,,1.42,0.71,1.23*19
$GPGSV,5,1,17,05,63,093,26,11,10,024,,12,46,012,27,13,16,142,10*76
$GPGSV,5,2,17,15,30,176,13,18,30,247,26,20,36,049,24,22,10,129,*75
$GPGSV,5,3,17,23,13,208,09,24,54,213,22,25,23,341,,29,09,315,*7B
$GPGSV,5,4,17,36,52,277,,40,86,350,,41,58,082,,49,32,274,*7D
$GPGSV,5,5,17,50,10,089,*4A
$GLGSV,3,1,09,65,03,209,,71,17,107,10,72,22,159,,74,29,148,09*66
$GLGSV,3,2,09,75,78,090,22,76,31,343,12,86,21,347,08,87,30,297,13*6A
$GLGSV,3,3,09,88,07,241,*5C
$GNGLL,0420.01589,S,05539.74639,E,052843.00,A,A*64
$GNGRS,052843.00,1,0.2,-8.9,-5.8,-17.8,13.6,-4.3,2.7,54.7,,,,*68
$GNGRS,052843.00,1,-91.5,-5.4,-103,-60.9,67.3,,,,,,,*5B
$GNGST,052843.00,89,,,,6.8,8.3,21*68
$GNZDA,052843.00,23,05,2025,00,00*71
$GNGBS,052843.00,6.8,8.3,21.4,,,,*65
$GNTXT,01,01,01,More than 100 frame errors, UART RX was disabled*70
b0L0?]
.L$1H

n6PU;{4V^
:R 
Y
kAG
kHJKNZL
WFV[W)Xb0rW4$GNRMC,052844.00,A,0420.01598,S,05539.74641,E,0.070,,230525,,,A*71
$GNVTG,,T,,M,0.070,N,0.129,K,A*30
$GNGNS,052844.00,0420.01598,S,05539.74641,E,AA,13,0.71,22.3,-47.6,,*6C
$GNGGA,052844.00,0420.01598,S,05539.74641,E,1,12,0.71,22.3,M,-47.6,M,,*47
$GNGSA,A,3,24,20,05,13,15,12,18,23,,,,,1.42,0.71,1.23*11
$GNGSA,A,3,86,75,87,71,76,,,,,,,,1.42,0.71,1.23*19
$GPGSV,5,1,17,05,63,093,28,11,10,024,,12,46,012,27,13,16,142,11*79
$GPGSV,5,2,17,15,30,176,14,18,30,247,27,20,36,049,25,22,10,129,*72
$GPGSV,5,3,17,23,13,208,10,24,54,213,22,25,23,341,,29,09,315,*73
$GPGSV,5,4,17,36,52,277,,40,86,350,,41,58,082,,49,32,274,*7D
$GPGSV,5,5,17,50,10,089,*4A
$GLGSV,3,1,09,65,03,209,,71,17,107,10,72,22,159,,74,29,148,09*66
$GLGSV,3,2,09,75,78,090,23,76,31,343,10,86,21,347,11,87,30,297,11*63
$GLGSV,3,3,09,88,07,241,*5C
$GNGLL,0420.01598,S,05539.74641,E,052844.00,A,A*6C
$GNGRS,052844.00,1,0.8,-7.0,-3.1,15.4,11.8,-4.4,1.6,16.5,,,,*42
$GNGRS,052844.00,1,0.0,-6.4,5.2,10.4,-1.9,,,,,,,*49
$GNGST,052844.00,8081581,,,,6.8,8.4,22*57
$GNZDA,052844.00,23,05,2025,00,00*76
$GNGBS,052844.00,6.8,8.4,21.5,,,,*64
$GNTXT,01,01,01,More than 100 frame errors, UART RX was disabled*70
b0L?]
.l$1H

6U;{4V^
:R 
Y
kAGkHJ-KN^eLW<V[W)X/%brW$GNRMC,052845.00,A,0420.01610,S,05539.74656,E,0.092,,230525,,,A*79
$GNVTG,,T,,M,0.092,N,0.170,K,A*30
$GNGNS,052845.00,0420.01610,S,05539.74656,E,AA,12,0.76,21.5,-47.6,,*6B
$GNGGA,052845.00,0420.01610,S,05539.74656,E,1,12,0.76,21.5,M,-47.6,M,,*41
$GNGSA,A,3,24,20,05,13,15,12,18,23,,,,,1.46,0.76,1.24*15
$GNGSA,A,3,86,75,71,76,,,,,,,,,1.46,0.76,1.24*12
$GPGSV,5,1,17,05,63,093,27,11,10,024,,12,46,012,26,13,16,142,12*74
$GPGSV,5,2,17,15,30,176,15,18,30,247,26,20,36,049,24,22,10,129,*73
$GPGSV,5,3,17,23,13,208,10,24,54,213,21,25,23,341,,29,09,315,*70
$GPGSV,5,4,17,36,52,277,,40,86,350,,41,58,082,,49,32,274,*7D
$GPGSV,5,5,17,50,10,089,*4A
$GLGSV,3,1,09,65,03,209,,71,17,107,08,72,22,159,,74,29,148,06*60
$GLGSV,3,2,09,75,78,094,21,76,31,343,08,86,21,347,08,87,30,297,06*62
$GLGSV,3,3,09,88,07,241,*5C
$GNGLL,0420.01610,S,05539.74656,E,052845.00,A,A*68
$GNGRS,052845.00,1,-0.4,-7.0,-3.1,14.3,8.8,-3.0,-0.6,15.6,,,,*73
$GNGRS,052845.00,1,-0.2,-1.6,9.2,-2.0,,,,,,,,*7F
$GNGST,052845.00,7678683,,,,6.9,8.4,22*59
$GNZDA,052845.00,23,05,2025,00,00*77
$GNGBS,052845.00,6.9,8.4,21.7,,,,*66
$GNTXT,01,01,01,More than 100 frame errors, UART RX was disabled*70
b0L?]
.E$1N
`6U;{4V^
:R 
Y
kAGkHJKN^LVVV[,W)mXbrW$GNRMC,052846.00,A,0420.01638,S,05539.74690,E,0.140,,230525,,,A*74
$GNVTG,,T,,M,0.140,N,0.259,K,A*36
$GNGNS,052846.00,0420.01638,S,05539.74690,E,AA,13,0.71,20.4,-47.6,,*6E
$GNGGA,052846.00,0420.01638,S,05539.74690,E,1,12,0.71,20.4,M,-47.6,M,,*45
$GNGSA,A,3,24,20,05,13,15,12,18,23,,,,,1.42,0.71,1.23*11
$GNGSA,A,3,86,75,87,71,76,,,,,,,,1.42,0.71,1.23*19
$GPGSV,5,1,17,05,63,093,26,11,10,024,,12,46,012,26,13,16,142,15*72
$GPGSV,5,2,17,15,30,176,14,18,30,247,26,20,36,049,23,22,10,129,*75
$GPGSV,5,3,17,23,13,208,09,24,54,213,21,25,23,341,,29,09,315,*78
$GPGSV,5,4,17,36,52,277,,40,86,350,,41,58,082,,49,32,274,*7D
$GPGSV,5,5,17,50,10,089,*4A
$GLGSV,3,1,09,65,03,209,,71,17,107,08,72,22,159,,74,29,148,06*60
$GLGSV,3,2,09,75,78,094,22,76,31,342,11,86,21,347,11,87,30,297,11*66
$GLGSV,3,3,09,88,07,241,*5C
$GNGLL,0420.01638,S,05539.74690,E,052846.00,A,A*6B
$GNGRS,052846.00,1,-1.2,-6.9,-3.4,-15.9,9.4,-1.9,-3.0,21.4,,,,*5A
$GNGRS,052846.00,1,-105,0.1,-37.3,45.1,-122,,,,,,,*5D
$GNGST,052846.00,87,,,,6.8,8.3,21*63
$GNZDA,052846.00,23,05,2025,00,00*74
$GNGBS,052846.00,6.8,8.3,21.2,,,,*66
$GNTXT,01,01,01,More than 100 frame errors, UART RX was disabled*70
b0L?]
.0$1,

6zU;{4V^
:R 
Y
kAGk.HJKN^LVZV[W
)XbrzW]$GNRMC,052847.00,A,0420.01636,S,05539.74704,E,0.515,,230525,,,A*73
$GNVTG,,T,,M,0.515,N,0.953,K,A*33
$GNGNS,052847.00,0420.01636,S,05539.74704,E,AA,13,0.71,20.4,-47.6,,*6D
$GNGGA,052847.00,0420.01636,S,05539.74704,E,1,12,0.71,20.4,M,-47.6,M,,*46
$GNGSA,A,3,24,20,05,13,15,12,18,23,,,,,1.42,0.71,1.23*11
$GNGSA,A,3,86,75,87,71,76,,,,,,,,1.42,0.71,1.23*19
$GPGSV,5,1,17,05,63,093,24,11,10,024,,12,46,012,25,13,16,142,12*74
$GPGSV,5,2,17,15,30,176,11,18,30,247,25,20,36,049,24,22,10,129,*74
$GPGSV,5,3,17,23,13,208,10,24,54,213,20,25,23,341,,29,09,315,*71
$GPGSV,5,4,17,36,52,277,,40,86,350,,41,58,082,,49,32,274,*7D
$GPGSV,5,5,17,50,10,089,*4A
$GLGSV,3,1,09,65,03,209,,71,17,107,09,72,22,159,,74,29,148,08*6F
$GLGSV,3,2,09,75,78,094,22,76,31,342,16,86,21,347,12,87,30,297,10*63
$GLGSV,3,3,09,88,07,241,*5C
$GNGLL,0420.01636,S,05539.74704,E,052847.00,A,A*68
$GNGRS,052847.00,1,-1.3,-4.7,-7.6,15.8,9.3,-3.1,-5.4,17.1,,,,*73
$GNGRS,052847.00,1,0.1,-1.2,5.3,10.7,-1.7,,,,,,,*46
$GNGST,052847.00,7377872,,,,7.0,8.4,22*59
$GNZDA,052847.00,23,05,2025,00,00*75
$GNGBS,052847.00,7.0,8.4,21.5,,,,*6E
$GNTXT,01,01,01,More than 100 frame errors, UART RX was disabled*70
b0L?]
.9m$1

6oU;{4V^
:R 
Y
kAGk0HJ
KN^-L
VfV[
W)XbrbW_$GNRMC,052848.00,A,0420.01633,S,05539.74704,E,0.182,,230525,,,A*73
$GNVTG,,T,,M,0.182,N,0.336,K,A*30
$GNGNS,052848.00,0420.01633,S,05539.74704,E,AA,12,0.74,20.3,-47.6,,*64
$GNGGA,052848.00,0420.01633,S,05539.74704,E,1,12,0.74,20.3,M,-47.6,M,,*4E
$GNGSA,A,3,24,20,05,13,12,18,23,,,,,,1.44,0.74,1.23*16
$GNGSA,A,3,86,75,87,71,76,,,,,,,,1.44,0.74,1.23*1A
$GPGSV,5,1,17,05,63,093,26,11,10,024,,12,46,012,26,13,16,142,16*71
$GPGSV,5,2,17,15,30,176,09,18,30,247,27,20,36,049,24,22,10,129,*7F
$GPGSV,5,3,17,23,13,208,10,24,54,213,21,25,23,341,,29,09,315,*70
$GPGSV,5,4,17,36,52,277,,40,86,350,,41,58,082,,49,32,274,*7D
$GPGSV,5,5,17,50,10,089,*4A
$GLGSV,3,1,09,65,03,209,,71,17,107,11,72,22,159,,74,29,148,10*6F
$GLGSV,3,2,09,75,78,094,23,76,31,342,10,86,21,347,09,87,30,297,08*67
$GLGSV,3,3,09,88,07,241,*5C
$GNGLL,0420.01633,S,05539.74704,E,052848.00,A,A*62
$GNGRS,052848.00,1,-4.0,-5.9,-6.3,15.9,-2.8,-4.0,17.0,,,,,*58
$GNGRS,052848.00,1,0.1,0.5,5.3,10.7,-1.5,,,,,,,*60
$GNGST,052848.00,7679694,,,,7.3,8.6,22*5A
$GNZDA,052848.00,23,05,2025,00,00*7A
$GNGBS,052848.00,7.3,8.6,21.9,,,,*6C
$GNTXT,01,01,01,More than 100 frame errors, UART RX was disabled*70
b0L?]
.

I$1A
6U;{4V^
:R 
Y
k%AGkHJKN^LVV[W
)jXO#brJW7-$GNRMC,052849.00,A,0420.01662,S,05539.74723,E,0.175,,230525,,,A*7B
$GNVTG,,T,,M,0.175,N,0.324,K,A*3B
$GNGNS,052849.00,0420.01662,S,05539.74723,E,AA,12,0.74,19.7,-47.6,,*6A
$GNGGA,052849.00,0420.01662,S,05539.74723,E,1,12,0.74,19.7,M,-47.6,M,,*40
$GNGSA,A,3,24,20,05,13,12,18,23,,,,,,1.44,0.74,1.23*16
$GNGSA,A,3,86,75,87,71,76,,,,,,,,1.44,0.74,1.23*1A
$GPGSV,5,1,17,05,63,093,26,11,10,024,,12,46,012,25,13,16,142,15*71
$GPGSV,5,2,17,15,30,176,10,18,30,247,28,20,36,049,25,22,10,129,*79
$GPGSV,5,3,17,23,13,208,12,24,54,213,22,25,23,341,,29,09,315,*71
$GPGSV,5,4,17,36,52,277,,40,86,350,,41,58,082,,49,32,274,*7D
$GPGSV,5,5,17,50,10,089,*4A
$GLGSV,3,1,09,65,03,209,,71,17,107,09,72,22,159,,74,29,148,09*6E
$GLGSV,3,2,09,75,78,094,23,76,31,342,08,86,21,347,08,87,30,297,10*66
$GLGSV,3,3,09,88,07,241,*5C
$GNGLL,0420.01662,S,05539.74723,E,052849.00,A,A*62
$GNGRS,052849.00,1,-5.9,-4.5,-6.2,7.4,-2.7,-1.8,53.6,,,,,*67
$GNGRS,052849.00,1,-38.2,0.3,-68.1,-39.5,-23.8,,,,,,,*7F
$GNGST,052849.00,82,,,,7.4,8.4,21*63
$GNZDA,052849.00,23,05,2025,00,00*7B
$GNGBS,052849.00,7.4,8.4,21.5,,,,*64
$GNTXT,01,01,01,More than 100 frame errors, UART RX was disabled*70
b0L ?]
.Jz$1]
6U;{4V^
:R 
Y
k=#AGkPHJKN^SL
V7V[W)Xcb r2W$GNRMC,052850.00,A,0420.01662,S,05539.74721,E,0.102,,230525,,,A*71
$GNVTG,,T,,M,0.102,N,0.189,K,A*3E
$GNGNS,052850.00,0420.01662,S,05539.74721,E,AA,12,0.74,19.8,-47.6,,*6F
$GNGGA,052850.00,0420.01662,S,05539.74721,E,1,12,0.74,19.8,M,-47.6,M,,*45
$GNGSA,A,3,24,20,05,13,12,18,23,,,,,,1.44,0.74,1.23*16
$GNGSA,A,3,86,75,87,71,76,,,,,,,,1.44,0.74,1.23*1A
$GPGSV,5,1,17,05,63,093,25,11,10,024,,12,46,012,24,13,16,142,13*75
$GPGSV,5,2,17,15,30,176,,18,30,247,28,20,36,049,25,22,10,129,*78
$GPGSV,5,3,17,23,13,208,11,24,54,213,21,25,23,341,,29,09,315,*71
$GPGSV,5,4,17,36,52,277,,40,86,350,,41,58,082,,49,32,274,*7D
$GPGSV,5,5,17,50,10,089,*4A
$GLGSV,3,1,09,65,03,209,,71,17,107,12,72,22,159,,74,29,148,11*6D
$GLGSV,3,2,09,75,78,094,22,76,31,342,10,86,21,347,12,87,30,297,11*64
$GLGSV,3,3,09,88,07,241,*5C
$GNGLL,0420.01662,S,05539.74721,E,052850.00,A,A*68
$GNGRS,052850.00,1,-4.9,-4.2,-5.4,16.1,-3.0,-1.3,17.0,,,,,*52
$GNGRS,052850.00,1,0.1,0.8,5.0,11.0,-2.0,,,,,,,*67
$GNGST,052850.00,6868662,,,,7.7,8.6,22*51
$GNZDA,052850.00,23,05,2025,00,00*73
$GNGBS,052850.00,7.7,8.6,21.8,,,,*60
$GNTXT,01,01,01,More than 100 frame errors, UART RX was disabled*70
b0L$?]
.
!$1
n65U;{4V^
:R 
Y

k!AGk7HJKN^)LVNV[)W
)Xb$rW$GNRMC,052851.00,A,0420.01687,S,05539.74731,E,0.453,,230525,,,A*7B
$GNVTG,,T,,M,0.453,N,0.839,K,A*3D
$GNGNS,052851.00,0420.01687,S,05539.74731,E,AA,12,0.74,19.9,-47.6,,*65
$GNGGA,052851.00,0420.01687,S,05539.74731,E,1,12,0.74,19.9,M,-47.6,M,,*4F
$GNGSA,A,3,24,20,05,13,12,18,23,,,,,,1.44,0.74,1.23*16
$GNGSA,A,3,86,75,87,71,76,,,,,,,,1.44,0.74,1.23*1A
$GPGSV,5,1,17,05,63,093,23,11,10,024,,12,46,012,22,13,16,142,10*76
$GPGSV,5,2,17,15,30,176,,18,30,247,26,20,36,049,23,22,10,129,*70
$GPGSV,5,3,17,23,13,208,11,24,54,213,20,25,23,341,,29,09,315,*70
$GPGSV,5,4,17,36,52,277,,40,86,350,,41,58,082,,49,32,274,*7D
$GPGSV,5,5,17,50,10,089,*4A
$GLGSV,3,1,09,65,03,209,,71,17,107,11,72,22,159,,74,29,148,08*66
$GLGSV,3,2,09,75,78,094,22,76,31,342,11,86,21,347,13,87,30,297,10*65
$GLGSV,3,3,09,88,07,241,*5C
$GNGLL,0420.01687,S,05539.74731,E,052851.00,A,A*63
$GNGRS,052851.00,1,-4.6,-5.9,-5.5,15.7,-3.7,-0.7,16.5,,,,,*54
$GNGRS,052851.00,1,0.4,0.4,5.0,10.8,-1.8,,,,,,,*6D
$GNGST,052851.00,6869427,,,,8.1,8.8,22*55
$GNZDA,052851.00,23,05,2025,00,00*72
$GNGBS,052851.00,8.1,8.8,22.2,,,,*6F
$GNTXT,01,01,01,More than 100 frame errors, UART RX was disabled*70
b0Lp(?]
.6
F$1
6fU;{4V^
:R 
Y
k#!AGk7HJ
@KN^LV38V[W
)Xbp(rWe$GNRMC,052852.00,A,0420.01661,S,05539.74745,E,0.358,,230525,,,A*7F
$GNVTG,,T,,M,0.358,N,0.663,K,A*30
$GNGNS,052852.00,0420.01661,S,05539.74745,E,AA,12,0.70,18.7,-47.6,,*66
$GNGGA,052852.00,0420.01661,S,05539.74745,E,1,12,0.70,18.7,M,-47.6,M,,*4C
$GNGSA,A,3,24,20,05,13,12,18,23,,,,,,1.34,0.70,1.15*10
$GNGSA,A,3,86,75,87,71,76,,,,,,,,1.34,0.70,1.15*1C
$GPGSV,5,1,17,05,63,093,25,11,10,024,,12,46,012,22,13,16,142,10*70
$GPGSV,5,2,17,15,30,176,,18,30,247,27,20,36,049,24,22,10,129,*76
$GPGSV,5,3,17,23,13,208,09,24,54,213,21,25,23,341,,29,09,315,*78
$GPGSV,5,4,17,36,52,277,,40,86,350,,41,58,082,,49,32,274,*7D
$GPGSV,5,5,17,50,10,089,*4A
$GLGSV,3,1,09,65,03,209,,71,17,107,11,72,22,159,,74,29,148,10*6F
$GLGSV,3,2,09,75,78,094,23,76,31,342,09,86,21,347,08,87,30,297,10*67
$GLGSV,3,3,09,88,07,241,*5C
$GNGLL,0420.01661,S,05539.74745,E,052852.00,A,A*6B
$GNGRS,052852.00,1,-6.7,-7.4,-5.8,-23.2,-4.6,0.7,-29.2,,,,,*76
$GNGRS,052852.00,1,-36.8,1.6,-90.1,23.6,144,,,,,,,*5C
$GNGST,052852.00,95,,,,8.2,8.6,22*67
$GNZDA,052852.00,23,05,2025,00,00*71
$GNGBS,052852.00,8.2,8.6,21.6,,,,*66
$GNTXT,01,01,01,More than 100 frame errors, UART RX was disabled*70
b0LX,?]M
.'?T$1J

6U;{4V^
:R 
Y
kAG
k=HJKN^L
V&V[W)XCbX,rW$GNRMC,052853.00,A,0420.01649,S,05539.74735,E,0.428,,230525,,,A*73
$GNVTG,,T,,M,0.428,N,0.793,K,A*3E
$GNGNS,052853.00,0420.01649,S,05539.74735,E,AA,12,0.74,18.6,-47.6,,*6F
$GNGGA,052853.00,0420.01649,S,05539.74735,E,1,12,0.74,18.6,M,-47.6,M,,*45
$GNGSA,A,3,24,20,05,13,12,18,23,,,,,,1.44,0.74,1.23*16
$GNGSA,A,3,86,75,87,71,76,,,,,,,,1.44,0.74,1.23*1A
$GPGSV,5,1,17,05,63,093,26,11,10,024,,12,46,012,24,13,16,142,13*76
$GPGSV,5,2,17,15,30,176,,18,30,247,27,20,36,049,23,22,10,129,*71
$GPGSV,5,3,17,23,13,208,10,24,54,213,20,25,23,341,,29,09,315,*71
$GPGSV,5,4,17,36,52,277,,40,86,350,,41,58,082,,49,32,274,*7D
$GPGSV,5,5,17,50,10,089,*4A
$GLGSV,3,1,09,65,03,209,,71,17,107,10,72,22,159,,74,29,148,08*67
$GLGSV,3,2,09,75,78,094,23,76,31,342,10,86,21,347,08,87,30,297,14*6B
$GLGSV,3,3,09,88,07,241,*5C
$GNGLL,0420.01649,S,05539.74735,E,052853.00,A,A*67
$GNGRS,052853.00,1,-5.0,-6.9,-4.3,16.0,-2.2,0.8,17.0,,,,,*73
$GNGRS,052853.00,1,-0.1,2.1,5.0,10.8,-2.2,,,,,,,*49
$GNGST,052853.00,6869869,,,,8.6,8.8,22*56
$GNZDA,052853.00,23,05,2025,00,00*70
$GNGBS,052853.00,8.6,8.8,22.0,,,,*68
$GNTXT,01,01,01,More than 100 frame errors, UART RX was disabled*70
b0L@0?]
.Qh$1

6|U;{4V^
:R 
Y
kAGkQHJKN^LV6V[%W
)X"b@0rWn2$GNRMC,052854.00,A,0420.01647,S,05539.74725,E,0.295,,230525,,,A*7B
$GNVTG,,T,,M,0.295,N,0.546,K,A*34
$GNGNS,052854.00,0420.01647,S,05539.74725,E,AA,11,0.80,18.8,-47.6,,*61
$GNGGA,052854.00,0420.01647,S,05539.74725,E,1,11,0.80,18.8,M,-47.6,M,,*4B
$GNGSA,A,3,24,20,05,13,12,18,23,,,,,,1.56,0.80,1.34*18
$GNGSA,A,3,75,87,71,76,,,,,,,,,1.56,0.80,1.34*1A
$GPGSV,5,1,17,05,63,093,26,11,10,024,,12,46,012,25,13,16,142,15*71
$GPGSV,5,2,17,15,30,176,,18,30,247,28,20,36,049,23,22,10,129,*7E
$GPGSV,5,3,17,23,13,208,10,24,54,213,20,25,23,341,,29,09,315,*71
$GPGSV,5,4,17,36,52,277,,40,86,350,,41,58,082,,49,32,274,*7D
$GPGSV,5,5,17,50,10,089,*4A
$GLGSV,3,1,09,65,03,209,,71,17,107,14,72,22,159,,74,29,148,07*6C
$GLGSV,3,2,09,75,78,094,24,76,31,342,08,86,21,347,07,87,30,297,10*6E
$GLGSV,3,3,09,88,07,241,*5C
$GNGLL,0420.01647,S,05539.74725,E,052854.00,A,A*6F
$GNGRS,052854.00,1,-3.9,-5.7,-6.1,16.2,-2.6,1.0,17.1,,,,,*78
$GNGRS,052854.00,1,2.2,5.2,11.1,-2.0,,,,,,,,*47
$GNGST,052854.00,7173418,,,,8.8,8.9,22*57
$GNZDA,052854.00,23,05,2025,00,00*77
$GNGBS,052854.00,8.8,8.9,22.3,,,,*63
$GNTXT,01,01,01,More than 100 frame errors, UART RX was disabled*70
b0L(4?]
.$1r
86U;{4V^
:R 
Y
kAGkHJ)KN^mLVV
[.W)X
X6b(4rWF$GNRMC,052855.00,A,0420.01648,S,05539.74708,E,0.124,,230525,,,A*73
$GNVTG,,T,,M,0.124,N,0.229,K,A*33
$GNGNS,052855.00,0420.01648,S,05539.74708,E,AA,11,0.77,19.7,-47.6,,*66
$GNGGA,052855.00,0420.01648,S,05539.74708,E,1,11,0.77,19.7,M,-47.6,M,,*4C
$GNGSA,A,3,24,20,05,13,12,18,23,,,,,,1.47,0.77,1.24*11
$GNGSA,A,3,86,75,87,71,,,,,,,,,1.47,0.77,1.24*1C
$GPGSV,5,1,17,05,63,093,26,11,10,024,,12,46,012,25,13,16,142,14*70
$GPGSV,5,2,17,15,30,176,,18,30,247,28,20,36,049,24,22,10,129,*79
$GPGSV,5,3,17,23,13,208,09,24,54,213,21,25,23,341,,29,09,315,*78
$GPGSV,5,4,17,36,52,277,,40,86,350,,41,58,082,,49,32,274,*7D
$GPGSV,5,5,17,50,10,089,*4A
$GLGSV,3,1,09,65,03,209,,71,17,107,11,72,22,159,,74,29,148,09*67
$GLGSV,3,2,09,75,78,094,24,76,31,342,07,86,21,347,10,87,30,297,12*65
$GLGSV,3,3,09,88,07,241,*5C
$GNGLL,0420.01648,S,05539.74708,E,052855.00,A,A*6E
$GNGRS,052855.00,1,-3.7,-4.0,-5.3,-15.3,-1.3,1.4,-22.5,,,,,*72
$GNGRS,052855.00,1,-145,3.7,26.5,12.8,,,,,,,,*62
$GNGST,052855.00,88,,,,8.8,8.8,22*68
$GNZDA,052855.00,23,05,2025,00,00*76
$GNGBS,052855.00,8.8,8.8,21.9,,,,*6A
$GNTXT,01,01,01,More than 100 frame errors, UART RX was disabled*70
b0L8?]h
..I$1g
6U;{4V^
:R 
Y
kAG
k7HJKN^GL
V*V
[W)Xb8rW$GNRMC,052856.00,A,0420.01645,S,05539.74703,E,0.075,,230525,,,A*73
$GNVTG,,T,,M,0.075,N,0.138,K,A*35
$GNGNS,052856.00,0420.01645,S,05539.74703,E,AA,12,0.74,19.9,-47.6,,*6D
$GNGGA,052856.00,0420.01645,S,05539.74703,E,1,12,0.74,19.9,M,-47.6,M,,*47
$GNGSA,A,3,24,20,05,13,12,18,23,,,,,,1.44,0.74,1.23*16
$GNGSA,A,3,86,75,87,71,76,,,,,,,,1.44,0.74,1.23*1A
$GPGSV,5,1,17,05,63,093,27,11,10,024,,12,46,012,25,13,16,142,14*71
$GPGSV,5,2,17,15,30,176,,18,30,247,29,20,36,049,25,22,10,129,*79
$GPGSV,5,3,17,23,13,208,13,24,54,213,22,25,23,341,,29,09,315,*70
$GPGSV,5,4,17,36,52,277,,40,86,350,,41,58,082,,49,32,274,*7D
$GPGSV,5,5,17,50,10,089,*4A
$GLGSV,3,1,09,65,03,209,,71,17,107,10,72,22,159,,74,29,148,07*68
$GLGSV,3,2,09,75,78,094,24,76,31,342,10,86,21,347,10,87,30,297,11*60
$GLGSV,3,3,09,88,07,241,*5C
$GNGLL,0420.01645,S,05539.74703,E,052856.00,A,A*6B
$GNGRS,052856.00,1,-3.8,-4.1,-4.1,15.8,-0.3,0.7,16.7,,,,,*71
$GNGRS,052856.00,1,-0.1,3.3,4.9,10.8,-2.1,,,,,,,*44
$GNGST,052856.00,5947893,,,,9.1,8.9,22*5F
$GNZDA,052856.00,23,05,2025,00,00*75
$GNGBS,052856.00,9.1,8.9,22.2,,,,*68
$GNTXT,01,01,01,More than 100 frame errors, UART RX was disabled*70
b0L;?]
.j$1
d6U;{4V^
:R 
Y
kAGkHJKN^LLVV[W
*X@b;rW[$GNRMC,052857.00,A,0420.01637,S,05539.74699,E,0.136,,230525,,,A*73
$GNVTG,,T,,M,0.136,N,0.253,K,A*3D
$GNGNS,052857.00,0420.01637,S,05539.74699,E,AA,12,0.74,19.9,-47.6,,*6B
$GNGGA,052857.00,0420.01637,S,05539.74699,E,1,12,0.74,19.9,M,-47.6,M,,*41
$GNGSA,A,3,24,20,05,13,12,18,23,,,,,,1.44,0.74,1.23*16
$GNGSA,A,3,86,75,87,71,76,,,,,,,,1.44,0.74,1.23*1A
$GPGSV,5,1,17,05,63,093,27,11,10,024,,12,46,012,25,13,16,142,15*70
$GPGSV,5,2,17,15,30,176,,18,30,247,29,20,36,049,26,22,10,129,*7A
$GPGSV,5,3,17,23,13,208,14,24,54,213,23,25,23,341,,29,09,315,*76
$GPGSV,5,4,17,36,52,277,,40,86,350,,41,58,082,,49,32,274,*7D
$GPGSV,5,5,17,50,10,089,*4A
$GLGSV,3,1,09,65,03,209,,71,17,107,11,72,22,159,,74,29,148,07*69
$GLGSV,3,2,09,75,78,094,25,76,31,342,08,86,21,347,11,87,30,298,10*67
$GLGSV,3,3,09,88,07,241,*5C
$GNGLL,0420.01637,S,05539.74699,E,052857.00,A,A*6D
$GNGRS,052857.00,1,-2.6,-3.8,-5.0,15.6,-1.5,-0.2,16.4,,,,,*53
$GNGRS,052857.00,1,-0.5,3.3,4.5,10.5,-2.6,,,,,,,*47
$GNGST,052857.00,5947907,,,,9.3,9.0,22*58
$GNZDA,052857.00,23,05,2025,00,00*74
$GNGBS,052857.00,9.3,9.0,22.5,,,,*64
$GNTXT,01,01,01,More than 100 frame errors, UART RX was disabled*70
b0L??]
.$1Y
6|U;{4V^
:R 
Y
kAGkHJ8KN^aL
VK8V
[_W*{Xtb?rrW$GNRMC,052858.00,A,0420.01656,S,05539.74715,E,0.088,,230525,,,A*7A
$GNVTG,,T,,M,0.088,N,0.162,K,A*38
$GNGNS,052858.00,0420.01656,S,05539.74715,E,AA,13,0.74,19.3,-47.6,,*6D
$GNGGA,052858.00,0420.01656,S,05539.74715,E,1,12,0.74,19.3,M,-47.6,M,,*46
$GNGSA,A,3,24,20,05,13,12,18,23,,,,,,1.45,0.74,1.24*10
$GNGSA,A,3,86,74,75,87,71,76,,,,,,,1.45,0.74,1.24*1F
$GPGSV,5,1,17,05,63,093,26,11,10,024,,12,46,012,25,13,16,142,12*76
$GPGSV,5,2,17,15,30,176,,18,30,247,28,20,36,049,25,22,10,129,*78
$GPGSV,5,3,17,23,13,208,09,24,54,213,22,25,23,341,,29,09,315,*7B
$GPGSV,5,4,17,36,52,277,,40,86,350,,41,58,082,,49,32,274,*7D
$GPGSV,5,5,17,50,10,089,*4A
$GLGSV,3,1,09,65,03,209,,71,17,107,12,72,22,159,,74,29,148,12*6E
$GLGSV,3,2,09,75,78,094,25,76,31,342,10,86,21,347,10,87,30,298,13*6C
$GLGSV,3,3,09,88,07,241,*5C
$GNGLL,0420.01656,S,05539.74715,E,052858.00,A,A*60
$GNGRS,052858.00,1,-3.9,-1.7,-5.5,-11.1,-0.3,-0.7,-3.6,,,,,*6D
$GNGRS,052858.00,1,-1.6,145,1.0,-3.9,2.3,144,,,,,,*5E
$GNGST,052858.00,88,,,,9.2,8.9,22*6F
$GNZDA,052858.00,23,05,2025,00,00*7B
$GNGBS,052858.00,9.2,8.9,22.0,,,,*67
$GNTXT,01,01,01,More than 100 frame errors, UART RX was disabled*70
b0LC?]A
.N$1n
6U;{4V^
:R 
Y
kAGkCHJKN^yLV
V
[W*XFbCrZW+$GNRMC,052859.00,A,0420.01632,S,05539.74709,E,0.316,,230525,,,A*70
$GNVTG,,T,,M,0.316,N,0.585,K,A*31
$GNGNS,052859.00,0420.01632,S,05539.74709,E,AA,12,0.74,19.0,-47.6,,*61
$GNGGA,052859.00,0420.01632,S,05539.74709,E,1,12,0.74,19.0,M,-47.6,M,,*4B
$GNGSA,A,3,24,20,05,13,12,18,23,,,,,,1.44,0.74,1.23*16
$GNGSA,A,3,86,75,87,71,76,,,,,,,,1.44,0.74,1.23*1A
$GPGSV,5,1,17,05,63,093,27,11,10,024,,12,46,012,25,13,16,142,15*70
$GPGSV,5,2,17,15,30,176,,18,30,247,29,20,36,049,24,22,10,129,*78
$GPGSV,5,3,17,23,13,208,13,24,54,213,23,25,23,341,,29,09,315,*71
$GPGSV,5,4,17,36,52,277,,40,86,350,,41,58,082,,49,32,274,*7D
$GPGSV,5,5,17,50,10,089,*4A
$GLGSV,3,1,09,65,03,209,,71,17,107,08,72,22,159,,74,29,148,07*61
$GLGSV,3,2,09,75,78,094,24,76,31,342,12,86,21,347,10,87,30,298,11*6D
$GLGSV,3,3,09,88,07,241,*5C
$GNGLL,0420.01632,S,05539.74709,E,052859.00,A,A*6E
$GNGRS,052859.00,1,-5.8,-1.5,-7.0,16.1,-0.6,0.1,17.1,,,,,*75
$GNGRS,052859.00,1,-0.5,1.2,4.8,10.9,-2.5,,,,,,,*48
$GNGST,052859.00,4858246,,,,9.4,9.0,22*51
$GNZDA,052859.00,23,05,2025,00,00*7A
$GNGBS,052859.00,9.4,9.0,22.3,,,,*6B
$GNTXT,01,01,01,More than 100 frame errors, UART RX was disabled*70
b0LG?]
.cB$1c
6U;{4V^
:R 
Y
kAGk;HJKN^LVV[W
*X<bGrBW}$GNRMC,052900.00,A,0420.01636,S,05539.74706,E,0.020,,230525,,,A*70
$GNVTG,,T,,M,0.020,N,0.036,K,A*3A
$GNGNS,052900.00,0420.01636,S,05539.74706,E,AA,13,0.71,19.2,-47.6,,*61
$GNGGA,052900.00,0420.01636,S,05539.74706,E,1,12,0.71,19.2,M,-47.6,M,,*4A
$GNGSA,A,3,24,20,05,13,12,18,23,,,,,,1.42,0.71,1.23*15
$GNGSA,A,3,86,74,75,87,71,76,,,,,,,1.42,0.71,1.23*1A
$GPGSV,5,1,17,05,63,093,27,11,10,024,,12,46,012,25,13,16,142,13*76
$GPGSV,5,2,17,15,30,176,,18,30,247,28,20,36,049,24,22,10,129,*79
$GPGSV,5,3,17,23,13,208,12,24,54,213,22,25,23,341,,29,09,315,*71
$GPGSV,5,4,17,36,52,277,,40,86,350,,41,58,082,,49,32,274,*7D
$GPGSV,5,5,17,50,10,089,*4A
$GLGSV,3,1,09,65,03,209,,71,17,107,09,72,22,159,,74,29,148,09*6E
$GLGSV,3,2,09,75,78,094,24,76,31,342,13,86,21,347,07,87,30,298,10*6B
$GLGSV,3,3,09,88,07,241,*5C
$GNGLL,0420.01636,S,05539.74706,E,052900.00,A,A*68
$GNGRS,052900.00,1,-6.0,-4.1,-8.4,16.0,-1.6,-2.7,17.0,,,,,*51
$GNGRS,052900.00,1,-0.6,-0.6,-0.7,4.6,10.8,-2.6,,,,,,*66
$GNGST,052900.00,4669558,,,,9.6,9.1,23*5A
$GNZDA,052900.00,23,05,2025,00,00*77
$GNGBS,052900.00,9.6,9.1,22.5,,,,*63
$GNTXT,01,01,01,More than 100 frame errors, UART RX was disabled*70
b0LK?]
.B$1y
b6U;{4V^
:R 
Y
kAGkHJKN^L
V(V[vW*SXbbKr*WU$GNRMC,052901.00,A,0420.01630,S,05539.74694,E,0.042,,230525,,,A*79
$GNVTG,,T,,M,0.042,N,0.079,K,A*35
$GNGNS,052901.00,0420.01630,S,05539.74694,E,AA,13,0.91,19.6,-47.6,,*66
$GNGGA,052901.00,0420.01630,S,05539.74694,E,1,12,0.91,19.6,M,-47.6,M,,*4D
$GNGSA,A,3,24,20,05,13,12,18,23,,,,,,1.79,0.91,1.54*13
$GNGSA,A,3,86,74,75,87,71,76,,,,,,,1.79,0.91,1.54*1C
$GPGSV,5,1,17,05,63,093,27,11,10,024,,12,46,012,25,13,16,142,13*76
$GPGSV,5,2,17,15,30,176,,18,30,247,28,20,36,049,25,22,10,129,*78
$GPGSV,5,3,17,23,13,208,14,24,54,213,21,25,23,341,,29,09,315,*74
$GPGSV,5,4,17,36,52,277,,40,86,350,,41,58,082,,49,32,274,*7D
$GPGSV,5,5,17,50,10,089,*4A
$GLGSV,3,1,09,65,03,209,,71,17,107,11,72,22,159,,74,29,148,11*6E
$GLGSV,3,2,09,75,78,094,25,76,31,342,10,86,21,347,08,87,30,298,13*65
$GLGSV,3,3,09,88,07,241,*5C
$GNGLL,0420.01630,S,05539.74694,E,052901.00,A,A*65
$GNGRS,052901.00,1,-7.8,-3.9,-7.8,13.5,-3.3,-3.5,-1.6,,,,,*4D
$GNGRS,052901.00,1,-147,-112,-1.2,-17.1,42.7,104,,,,,,*41
$GNGST,052901.00,78,,,,9.6,9.0,22*61
$GNZDA,052901.00,23,05,2025,00,00*76
$GNGBS,052901.00,9.6,9.0,22.2,,,,*64
$GNTXT,01,01,01,More than 100 frame errors, UART RX was disabled*70
b0LO?]U
.>$1
6=U;{4V^
:R 
Y
kAGkXHJKN^LVJV['W
* XbOrW-c$GNRMC,052902.00,A,0420.01636,S,05539.74690,E,0.087,,230525,,,A*71
$GNVTG,,T,,M,0.087,N,0.161,K,A*34
$GNGNS,052902.00,0420.01636,S,05539.74690,E,AA,13,0.71,19.7,-47.6,,*68
$GNGGA,052902.00,0420.01636,S,05539.74690,E,1,12,0.71,19.7,M,-47.6,M,,*43
$GNGSA,A,3,24,20,05,13,12,18,23,,,,,,1.42,0.71,1.23*15
$GNGSA,A,3,86,74,75,87,71,76,,,,,,,1.42,0.71,1.23*1A
$GPGSV,5,1,17,05,63,093,27,11,10,024,,12,46,012,25,13,16,142,14*71
$GPGSV,5,2,17,15,30,176,,18,30,247,28,20,36,049,25,22,10,129,*78
$GPGSV,5,3,17,23,13,208,09,24,54,213,22,25,23,341,,29,09,315,*7B
$GPGSV,5,4,17,36,52,277,,40,86,350,,41,58,082,,49,32,274,*7D
$GPGSV,5,5,17,50,10,089,*4A
$GLGSV,3,1,09,65,03,209,,71,17,107,11,72,22,159,,74,29,148,09*67
$GLGSV,3,2,09,75,78,094,25,76,31,342,09,86,21,347,09,87,30,298,10*6F
$GLGSV,3,3,09,88,07,241,*5C
$GNGLL,0420.01636,S,05539.74690,E,052902.00,A,A*64
$GNGRS,052902.00,1,-7.1,-3.5,-6.8,16.0,-3.3,1.8,17.0,,,,,*74
$GNGRS,052902.00,1,0.4,-0.4,-0.6,5.4,11.1,-1.8,,,,,,*4E
$GNGST,052902.00,7377516,,,,9.7,9.1,22*5B
$GNZDA,052902.00,23,05,2025,00,00*75
$GNGBS,052902.00,9.7,9.1,22.5,,,,*60
$GNTXT,01,01,01,More than 100 frame errors, UART RX was disabled*70
b0LhS?\0
.-T+$1
6U;{4V^
:R 
Y
kAGkHJKN^LVV[W*X,bhSrW$GNRMC,052903.00,A,0420.01704,S,05539.74679,E,1.163,,230525,,,A*7D
$GNVTG,,T,,M,1.163,N,2.155,K,A*3B
$GNGNS,052903.00,0420.01704,S,05539.74679,E,AA,13,0.71,21.3,-47.6,,*61
$GNGGA,052903.00,0420.01704,S,05539.74679,E,1,12,0.71,21.3,M,-47.6,M,,*4A
$GNGSA,A,3,24,20,05,13,12,18,23,,,,,,1.42,0.71,1.23*15
$GNGSA,A,3,86,74,75,87,71,76,,,,,,,1.42,0.71,1.23*1A
$GPGSV,5,1,17,05,63,092,26,11,10,024,,12,46,012,25,13,16,142,11*74
$GPGSV,5,2,17,15,30,176,,18,30,247,28,20,36,049,23,22,10,129,*7E
$GPGSV,5,3,17,23,13,208,09,24,54,213,22,25,23,341,,29,09,315,*7B
$GPGSV,5,4,17,36,52,277,,40,86,350,,41,58,082,,49,32,274,*7D
$GPGSV,5,5,17,50,10,089,*4A
$GLGSV,3,1,09,65,03,209,,71,17,107,12,72,22,159,,74,29,148,07*6A
$GLGSV,3,2,09,75,78,094,24,76,31,342,11,86,21,347,12,87,30,298,09*65
$GLGSV,3,3,09,88,07,241,*5C
$GNGLL,0420.01704,S,05539.74679,E,052903.00,A,A*62
$GNGRS,052903.00,1,-5.2,-2.5,-4.6,16.2,-2.1,0.4,16.8,,,,,*7C
$GNGRS,052903.00,1,2.5,-0.2,-0.3,6.7,12.0,-0.3,,,,,,*47
$GNGST,052903.00,7377610,,,,10,9.2,23*7C
$GNZDA,052903.00,23,05,2025,00,00*74
$GNGBS,052903.00,9.9,9.2,22.8,,,,*61
$GNTXT,01,01,01,More than 100 frame errors, UART RX was disabled*70
b0LPW?\[
.}
#$1=
6U;{4V^
:R 
Y
kAGkHJKN^#LV}V[0W*XnbPWrW0$GNRMC,052904.00,A,0420.01703,S,05539.74671,E,0.837,,230525,,,A*7C
$GNVTG,,T,,M,0.837,N,1.550,K,A*30
$GNGNS,052904.00,0420.01703,S,05539.74671,E,AA,12,0.74,21.3,-47.6,,*6D
$GNGGA,052904.00,0420.01703,S,05539.74671,E,1,12,0.74,21.3,M,-47.6,M,,*47
$GNGSA,A,3,24,20,05,13,12,18,23,,,,,,1.44,0.74,1.23*16
$GNGSA,A,3,86,75,87,71,76,,,,,,,,1.44,0.74,1.23*1A
$GPGSV,5,1,17,05,63,092,25,11,10,024,,12,46,012,23,13,16,142,10*70
$GPGSV,5,2,17,15,30,176,,18,30,247,27,20,36,049,22,22,10,129,*70
$GPGSV,5,3,17,23,13,208,14,24,54,213,20,25,23,341,,29,09,315,*75
$GPGSV,5,4,17,36,52,277,,40,86,350,,41,58,082,,49,32,274,*7D
$GPGSV,5,5,17,50,10,089,*4A
$GLGSV,3,1,09,65,03,209,,71,17,107,11,72,22,159,,74,29,148,08*66
$GLGSV,3,2,09,75,78,094,22,76,31,342,07,86,21,347,08,87,30,298,08*6E
$GLGSV,3,3,09,88,07,241,*5C
$GNGLL,0420.01703,S,05539.74671,E,052904.00,A,A*6A
$GNGRS,052904.00,1,-6.3,-2.0,-4.2,-12.5,-1.3,-0.9,-14.0,,,,,*50
$GNGRS,052904.00,1,64.5,-2.2,-31.7,15.1,-14.1,,,,,,,*5A
$GNGST,052904.00,84,,,,10,9.1,22*46
$GNZDA,052904.00,23,05,2025,00,00*73
$GNGBS,052904.00,9.9,9.1,22.5,,,,*68
$GNTXT,01,01,01,More than 100 frame errors, UART RX was disabled*70
b0L8[?\
.G$1a
6U;{4V^
:R 
Y
kAGk4HJKN^LV"V[W*Xsb8[rW$GNRMC,052905.00,A,0420.01716,S,05539.74671,E,0.733,,230525,,,A*72
$GNVTG,,T,,M,0.733,N,1.358,K,A*35
$GNGNS,052905.00,0420.01716,S,05539.74671,E,AA,11,0.81,21.4,-47.6,,*66
$GNGGA,052905.00,0420.01716,S,05539.74671,E,1,11,0.81,21.4,M,-47.6,M,,*4C
$GNGSA,A,3,24,20,05,13,12,18,,,,,,,1.55,0.81,1.33*1C
$GNGSA,A,3,86,75,87,71,76,,,,,,,,1.55,0.81,1.33*11
$GPGSV,5,1,17,05,63,092,25,11,10,024,,12,46,012,23,13,16,142,11*71
$GPGSV,5,2,17,15,30,176,,18,30,247,27,20,36,049,22,22,10,129,*70
$GPGSV,5,3,17,23,13,208,07,24,54,213,18,25,23,341,,29,09,315,*7C
$GPGSV,5,4,17,36,52,277,,40,86,350,,41,58,082,,49,32,274,*7D
$GPGSV,5,5,17,50,10,089,*4A
$GLGSV,3,1,09,65,03,209,,71,17,107,12,72,22,159,,74,29,148,09*64
$GLGSV,3,2,09,75,78,094,22,76,31,342,08,86,21,347,08,87,30,298,09*60
$GLGSV,3,3,09,88,07,241,*5C
$GNGLL,0420.01716,S,05539.74671,E,052905.00,A,A*6F
$GNGRS,052905.00,1,-5.7,-1.6,-5.7,16.1,-0.3,-0.7,,,,,,*43
$GNGRS,052905.00,1,-0.4,-3.8,4.9,10.8,-2.2,,,,,,,*63
$GNGST,052905.00,6214869,,,,10,9.3,23*7E
$GNZDA,052905.00,23,05,2025,00,00*72
$GNGBS,052905.00,10.2,9.3,22.8,,,,*55
$GNTXT,01,01,01,More than 100 frame errors, UART RX was disabled*70
b0L _?\
.Xk$1
6QU;{4V^
:R 
Y
kAGk:HJKN^.L
VV[W
*Xb _rW$GNRMC,052906.00,A,0420.01729,S,05539.74665,E,0.746,,230525,,,A*7A
$GNVTG,,T,,M,0.746,N,1.382,K,A*30
$GNGNS,052906.00,0420.01729,S,05539.74665,E,AA,12,0.74,21.9,-47.6,,*68
$GNGGA,052906.00,0420.01729,S,05539.74665,E,1,12,0.74,21.9,M,-47.6,M,,*42
$GNGSA,A,3,24,20,05,13,12,18,23,,,,,,1.44,0.74,1.23*16
$GNGSA,A,3,86,75,87,71,76,,,,,,,,1.44,0.74,1.23*1A
$GPGSV,5,1,17,05,63,092,25,11,10,024,,12,46,012,23,13,16,142,09*78
$GPGSV,5,2,17,15,30,176,,18,30,247,28,20,36,049,23,22,10,129,*7E
$GPGSV,5,3,17,23,13,208,11,24,54,213,20,25,23,341,,29,09,315,*70
$GPGSV,5,4,17,36,52,277,,40,86,350,,41,58,082,,49,32,274,*7D
$GPGSV,5,5,17,50,10,089,*4A
$GLGSV,3,1,09,65,03,209,,71,17,107,12,72,22,159,,74,29,148,08*65
$GLGSV,3,2,09,75,78,094,23,76,31,342,10,86,21,347,11,87,30,298,10*68
$GLGSV,3,3,09,88,07,241,*5C
$GNGLL,0420.01729,S,05539.74665,E,052906.00,A,A*65
$GNGRS,052906.00,1,-4.3,-2.3,-5.4,16.4,0.9,-1.1,17.4,,,,,*79
$GNGRS,052906.00,1,-1.0,-2.1,4.5,10.8,-2.7,,,,,,,*64
$GNGST,052906.00,7678825,,,,10,9.5,23*7C
$GNZDA,052906.00,23,05,2025,00,00*71
$GNGBS,052906.00,10.4,9.5,23.0,,,,*5F
$GNTXT,01,01,01,More than 100 frame errors, UART RX was disabled*70
b0Lc?\
.
$1

6U;{4V^
:R 
Y
kAGkHJ
[KN^@L
V7V[W*X4bcrWdh$GNRMC,052907.00,A,0420.01708,S,05539.74665,E,0.489,,230525,,,A*78
$GNVTG,,T,,M,0.489,N,0.906,K,A*37
$GNGNS,052907.00,0420.01708,S,05539.74665,E,AA,12,0.74,21.2,-47.6,,*61
$GNGGA,052907.00,0420.01708,S,05539.74665,E,1,12,0.74,21.2,M,-47.6,M,,*4B
$GNGSA,A,3,24,20,05,13,12,18,23,,,,,,1.44,0.74,1.23*16
$GNGSA,A,3,86,75,87,71,76,,,,,,,,1.44,0.74,1.23*1A
$GPGSV,5,1,17,05,63,092,26,11,10,024,,12,46,012,23,13,16,142,10*73
$GPGSV,5,2,17,15,30,176,,18,30,247,28,20,36,049,23,22,10,129,*7E
$GPGSV,5,3,17,23,13,208,10,24,54,213,21,25,23,341,,29,09,315,*70
$GPGSV,5,4,17,36,52,277,,40,86,350,,41,58,082,,49,32,274,*7D
$GPGSV,5,5,17,50,10,089,*4A
$GLGSV,3,1,09,65,03,209,,71,17,107,12,72,22,159,,74,29,148,10*6C
$GLGSV,3,2,09,75,78,094,23,76,31,342,10,86,21,347,08,87,30,298,11*61
$GLGSV,3,3,09,88,07,241,*5C
$GNGLL,0420.01708,S,05539.74665,E,052907.00,A,A*67
$GNGRS,052907.00,1,-6.3,-1.3,-5.6,-5.8,2.1,-0.3,-23.3,,,,,*4C
$GNGRS,052907.00,1,79.1,-1.9,-143,12.4,143,,,,,,,*77
$GNGST,052907.00,105,,,,10,9.3,23*7E
$GNZDA,052907.00,23,05,2025,00,00*70
$GNGBS,052907.00,10.4,9.3,22.7,,,,*5E
$GNTXT,01,01,01,More than 100 frame errors, UART RX was disabled*70
b0Lf?\D
.n$1p
6U;{4V^
:R 
Y
kAG
kHJKN^*LVV[W*XeWbfrW;$GNRMC,052908.00,A,0420.01714,S,05539.74676,E,0.505,,230525,,,A*7D
$GNVTG,,T,,M,0.505,N,0.936,K,A*31
$GNGNS,052908.00,0420.01714,S,05539.74676,E,AA,12,0.74,21.1,-47.6,,*62
$GNGGA,052908.00,0420.01714,S,05539.74676,E,1,12,0.74,21.1,M,-47.6,M,,*48
$GNGSA,A,3,24,20,05,13,12,18,23,,,,,,1.44,0.74,1.23*16
$GNGSA,A,3,86,75,87,71,76,,,,,,,,1.44,0.74,1.23*1A
$GPGSV,5,1,17,05,63,092,26,11,10,024,,12,46,012,24,13,16,142,08*7D
$GPGSV,5,2,17,15,30,176,07,18,30,247,28,20,36,049,23,22,10,129,*79
$GPGSV,5,3,17,23,13,208,09,24,54,213,21,25,23,341,,29,09,315,*78
$GPGSV,5,4,17,36,52,277,,40,86,350,,41,58,082,,49,32,274,*7D
$GPGSV,5,5,17,50,10,089,*4A
$GLGSV,3,1,09,65,03,209,,71,17,107,10,72,22,159,,74,29,148,07*68
$GLGSV,3,2,09,75,78,094,22,76,31,342,07,86,21,347,08,87,30,298,11*66
$GLGSV,3,3,09,88,07,241,*5C
$GNGLL,0420.01714,S,05539.74676,E,052908.00,A,A*67
$GNGRS,052908.00,1,-4.9,1.1,-7.0,15.6,1.9,-1.1,16.7,,,,,*55
$GNGRS,052908.00,1,-0.3,-2.1,5.0,10.5,-2.3,,,,,,,*65
$GNGST,052908.00,4857599,,,,11,9.5,23*79
$GNZDA,052908.00,23,05,2025,00,00*7F
$GNGBS,052908.00,10.6,9.5,23.0,,,,*53
$GNTXT,01,01,01,More than 100 frame errors, UART RX was disabled*70
b0Lj?\.
$1
i6U;{4V^
:R 
Y
kAGkHJKN^vLVV[W*XJ^bjrjW)$GNRMC,052909.00,A,0420.01714,S,05539.74678,E,0.474,,230525,,,A*75
$GNVTG,,T,,M,0.474,N,0.878,K,A*3D
$GNGNS,052909.00,0420.01714,S,05539.74678,E,AA,12,0.74,21.3,-47.6,,*6F
$GNGGA,052909.00,0420.01714,S,05539.74678,E,1,12,0.74,21.3,M,-47.6,M,,*45
$GNGSA,A,3,24,20,05,13,12,18,23,,,,,,1.44,0.74,1.23*16
$GNGSA,A,3,86,75,87,71,76,,,,,,,,1.44,0.74,1.23*1A
$GPGSV,5,1,17,05,63,092,26,11,09,024,,12,46,012,25,13,16,142,15*78
$GPGSV,5,2,17,15,30,176,10,18,30,247,28,20,36,049,23,22,10,129,*7F
$GPGSV,5,3,17,23,13,208,11,24,54,213,21,25,23,341,,29,09,315,*71
$GPGSV,5,4,17,36,52,277,,40,86,350,,41,58,082,,49,32,274,*7D
$GPGSV,5,5,17,50,10,089,*4A
$GLGSV,3,1,09,65,03,209,,71,17,107,12,72,22,159,,74,29,148,09*64
$GLGSV,3,2,09,75,78,094,22,76,31,342,09,86,21,347,08,87,30,298,07*6F
$GLGSV,3,3,09,88,07,241,*5C
$GNGLL,0420.01714,S,05539.74678,E,052909.00,A,A*68
$GNGRS,052909.00,1,-3.6,-0.3,-7.5,15.4,4.0,-0.1,16.4,,,,,*7B
$GNGRS,052909.00,1,-0.7,-1.4,4.7,10.3,-2.7,,,,,,,*62
$GNGST,052909.00,4858955,,,,11,9.6,23*78
$GNZDA,052909.00,23,05,2025,00,00*7E
$GNGBS,052909.00,10.8,9.6,23.3,,,,*5C
$GNTXT,01,01,01,More than 100 frame errors, UART RX was disabled*70
b0Ln?\N/'}$1D
6`U;{4V^
:R 
Y
kAGkHJKN^L
V
V[/W*X)?bnrRW$GNRMC,052910.00,A,0420.01622,S,05539.74616,E,0.089,,230525,,,A*77
$GNVTG,,T,,M,0.089,N,0.165,K,A*3E
$GNGNS,052910.00,0420.01622,S,05539.74616,E,AA,12,0.76,22.6,-47.6,,*6F
$GNGGA,052910.00,0420.01622,S,05539.74616,E,1,12,0.76,22.6,M,-47.6,M,,*45
$GNGSA,A,3,24,20,05,13,12,18,23,,,,,,1.45,0.76,1.24*12
$GNGSA,A,3,86,74,75,71,76,,,,,,,,1.45,0.76,1.24*12
$GPGSV,5,1,17,05,63,092,26,11,09,024,,12,47,012,26,13,16,142,11*7E
$GPGSV,5,2,17,15,30,176,14,18,30,247,29,20,36,049,25,22,10,129,*7C
$GPGSV,5,3,17,23,13,208,14,24,54,213,21,25,23,341,,29,09,315,*74
$GPGSV,5,4,17,36,52,277,,40,86,350,,41,58,082,,49,32,274,*7D
$GPGSV,5,5,17,50,10,089,*4A
$GLGSV,3,1,09,65,03,209,,71,17,107,09,72,22,159,,74,29,148,09*6E
$GLGSV,3,2,09,75,78,094,22,76,31,342,10,86,21,347,08,87,30,298,06*66
$GLGSV,3,3,09,88,07,241,*5C
$GNGLL,0420.01622,S,05539.74616,E,052910.00,A,A*6C
$GNGRS,052910.00,1,-4.2,0.7,-6.9,-4.7,1.8,-1.1,1.4,,,,,*70
$GNGRS,052910.00,1,122,-67.2,-3.7,-54.4,27.9,,,,,,,*7D
$GNGST,052910.00,94,,,,10,9.4,23*46
$GNZDA,052910.00,23,05,2025,00,00*76
$GNGBS,052910.00,10.4,9.4,22.8,,,,*50
$GNTXT,01,01,01,More than 100 frame errors, UART RX was disabled*70
b0Lr?\/
%>$1
6PU;{4V^
:R 
Y
kAGk3HJ
KN^ELV.V[W*XHbrr:W$GNRMC,052911.00,A,0420.01617,S,05539.74618,E,0.050,,230525,,,A*7A
$GNVTG,,T,,M,0.050,N,0.092,K,A*33
$GNGNS,052911.00,0420.01617,S,05539.74618,E,AA,13,0.71,22.4,-47.6,,*62
$GNGGA,052911.00,0420.01617,S,05539.74618,E,1,12,0.71,22.4,M,-47.6,M,,*49
$GNGSA,A,3,24,20,05,13,12,18,23,,,,,,1.42,0.71,1.23*15
$GNGSA,A,3,86,74,75,87,71,76,,,,,,,1.42,0.71,1.23*1A
$GPGSV,5,1,17,05,63,092,25,11,09,024,,12,47,012,25,13,16,141,10*7C
$GPGSV,5,2,17,15,30,176,12,18,30,247,29,20,36,049,24,22,10,129,*7B
$GPGSV,5,3,17,23,13,208,09,24,54,213,21,25,23,341,,29,09,315,*78
$GPGSV,5,4,17,36,52,277,,40,86,350,,41,58,082,,49,32,274,*7D
$GPGSV,5,5,17,50,10,089,*4A
$GLGSV,3,1,09,65,03,209,,71,17,107,11,72,22,159,,74,29,148,10*6F
$GLGSV,3,2,09,75,78,094,22,76,31,342,09,86,21,347,08,87,30,298,08*60
$GLGSV,3,3,09,88,07,241,*5C
$GNGLL,0420.01617,S,05539.74618,E,052911.00,A,A*65
$GNGRS,052911.00,1,-4.3,2.2,-6.0,15.7,1.6,-4.5,16.8,,,,,*56
$GNGRS,052911.00,1,0.0,-0.9,-4.4,5.3,10.8,-2.1,,,,,,*46
$GNGST,052911.00,7380511,,,,10,9.5,23*72
$GNZDA,052911.00,23,05,2025,00,00*77
$GNGBS,052911.00,10.4,9.5,23.1,,,,*58
$GNTXT,01,01,01,More than 100 frame errors, UART RX was disabled*70
b0Lv?\/
*6$1w
|6U;{4V^
:R 
Y
kAGk+HJKN^bL
V9V[/W*+Xbvr"Wa$GNRMC,052912.00,A,0420.01623,S,05539.74623,E,0.394,,230525,,,A*7D
$GNVTG,,T,,M,0.394,N,0.729,K,A*3F
$GNGNS,052912.00,0420.01623,S,05539.74623,E,AA,14,0.69,22.9,-47.6,,*6D
$GNGGA,052912.00,0420.01623,S,05539.74623,E,1,12,0.69,22.9,M,-47.6,M,,*41
$GNGSA,A,3,24,20,05,13,15,12,18,23,,,,,1.41,0.69,1.23*1B
$GNGSA,A,3,86,74,75,87,71,76,,,,,,,1.41,0.69,1.23*10
$GPGSV,5,1,17,05,63,092,25,11,09,024,,12,47,012,24,13,16,141,13*7E
$GPGSV,5,2,17,15,30,176,10,18,30,247,29,20,36,049,23,22,10,129,*7E
$GPGSV,5,3,17,23,13,208,12,24,54,213,21,25,23,341,,29,09,315,*72
$GPGSV,5,4,17,36,52,277,,40,86,350,,41,58,082,,49,32,274,*7D
$GPGSV,5,5,17,50,10,089,*4A
$GLGSV,3,1,09,65,03,209,,71,17,107,11,72,22,159,,74,29,148,11*6E
$GLGSV,3,2,09,75,78,094,22,76,31,342,10,86,21,347,11,87,30,298,09*61
$GLGSV,3,3,09,88,07,241,*5C
$GNGLL,0420.01623,S,05539.74623,E,052912.00,A,A*69
$GNGRS,052912.00,1,-3.7,1.2,-2.7,15.4,-17.5,-0.2,0.5,16.6,,,,*6A
$GNGRS,052912.00,1,0.5,-1.2,-4.1,5.5,10.7,-2.0,,,,,,*47
$GNGST,052912.00,7789001,,,,10,9.6,23*7B
$GNZDA,052912.00,23,05,2025,00,00*74
$GNGBS,052912.00,10.4,9.6,23.2,,,,*5B
$GNTXT,01,01,01,More than 100 frame errors, UART RX was disabled*70
b0Lxz?\/
M$1
d6nU;{4V^
:R 
Y
kAGk\HJKN^DL
VV[W*Xhbxzr
Ws$GNRMC,052913.00,A,0420.01614,S,05539.74624,E,0.207,,230525,,,A*74
$GNVTG,,T,,M,0.207,N,0.384,K,A*37
$GNGNS,052913.00,0420.01614,S,05539.74624,E,AA,13,0.82,22.2,-47.6,,*66
$GNGGA,052913.00,0420.01614,S,05539.74624,E,1,12,0.82,22.2,M,-47.6,M,,*4D
$GNGSA,A,3,24,20,05,13,15,12,18,23,,,,,1.62,0.82,1.39*14
$GNGSA,A,3,74,75,87,71,76,,,,,,,,1.62,0.82,1.39*11
$GPGSV,5,1,17,05,63,092,26,11,09,024,,12,47,012,25,13,16,141,10*7F
$GPGSV,5,2,17,15,30,175,08,18,30,247,30,20,36,049,23,22,10,129,*7C
$GPGSV,5,3,17,23,13,208,11,24,54,213,22,25,23,341,,29,09,315,*72
$GPGSV,5,4,17,36,52,277,,40,86,350,,41,58,082,,49,32,274,*7D
$GPGSV,5,5,17,50,10,089,*4A
$GLGSV,3,1,09,65,03,209,,71,17,107,16,72,22,159,,74,29,148,09*60
$GLGSV,3,2,09,75,78,094,22,76,31,342,10,86,21,347,07,87,30,298,09*66
$GLGSV,3,3,09,88,07,241,*5C
$GNGLL,0420.01614,S,05539.74624,E,052913.00,A,A*6B
$GNGRS,052913.00,1,-4.0,-0.3,-2.7,-5.9,-13.6,0.1,-1.8,8.7,,,,*61
$GNGRS,052913.00,1,38.6,-4.4,78.2,-1.6,25.5,,,,,,,*47
$GNGST,052913.00,82,,,,10,9.3,23*45
$GNZDA,052913.00,23,05,2025,00,00*75
$GNGBS,052913.00,10.1,9.3,22.7,,,,*5E
$GNTXT,01,01,01,More than 100 frame errors, UART RX was disabled*70
b0L`~?\]/5Kc$1
6U;{4V^
:R 
Y
kAGkGHJKN^$LV V[W
*Xb`~rWJ.$GNRMC,052914.00,A,0420.01613,S,05539.74624,E,0.133,,230525,,,A*70
$GNVTG,,T,,M,0.133,N,0.247,K,A*3D
$GNGNS,052914.00,0420.01613,S,05539.74624,E,AA,14,0.69,22.1,-47.6,,*67
$GNGGA,052914.00,0420.01613,S,05539.74624,E,1,12,0.69,22.1,M,-47.6,M,,*4B
$GNGSA,A,3,24,20,05,13,15,12,18,23,,,,,1.41,0.69,1.23*1B
$GNGSA,A,3,86,74,75,87,71,76,,,,,,,1.41,0.69,1.23*10
$GPGSV,5,1,17,05,63,092,25,11,09,024,,12,47,012,25,13,16,141,08*75
$GPGSV,5,2,17,15,30,175,12,18,30,247,29,20,36,049,23,22,10,129,*7F
$GPGSV,5,3,17,23,13,208,12,24,54,213,21,25,23,341,,29,09,315,*72
$GPGSV,5,4,17,36,52,277,,40,86,350,,41,58,082,,49,32,274,*7D
$GPGSV,5,5,17,50,10,089,*4A
$GLGSV,3,1,09,65,03,209,,71,17,107,08,72,22,159,,74,29,148,08*6E
$GLGSV,3,2,09,75,78,094,22,76,31,342,08,86,21,347,11,87,30,298,10*60
$GLGSV,3,3,09,88,07,241,*5C
$GNGLL,0420.01613,S,05539.74624,E,052914.00,A,A*6B
$GNGRS,052914.00,1,-3.4,-0.7,0.9,16.1,-13.4,0.5,-1.6,16.9,,,,*6E
$GNGRS,052914.00,1,-0.2,-0.5,-4.8,5.1,11.0,-2.2,,,,,,*64
$GNGST,052914.00,7111293,,,,10,9.4,23*71
$GNZDA,052914.00,23,05,2025,00,00*72
$GNGBS,052914.00,10.1,9.4,22.9,,,,*50
$GNTXT,01,01,01,More than 100 frame errors, UART RX was disabled*70
b0LH?\/gbw$1z
6U;{4V^
:R 
Y
kAGkLHJKN^LL
VV[W*X9bHrW"$GNRMC,052915.00,A,0420.01608,S,05539.74625,E,0.085,,230525,,,A*76
$GNVTG,,T,,M,0.085,N,0.157,K,A*33
$GNGNS,052915.00,0420.01608,S,05539.74625,E,AA,12,0.76,22.1,-47.6,,*65
$GNGGA,052915.00,0420.01608,S,05539.74625,E,1,12,0.76,22.1,M,-47.6,M,,*4F
$GNGSA,A,3,24,20,05,13,15,12,18,23,,,,,1.46,0.76,1.24*15
$GNGSA,A,3,86,75,71,76,,,,,,,,,1.46,0.76,1.24*12
$GPGSV,5,1,17,05,63,092,25,11,09,024,,12,47,012,25,13,16,141,16*7A
$GPGSV,5,2,17,15,30,175,11,18,30,247,30,20,36,049,23,22,10,129,*74
$GPGSV,5,3,17,23,13,208,15,24,54,213,21,25,23,341,,29,09,315,*75
$GPGSV,5,4,17,36,52,277,,40,86,350,,41,58,082,,49,32,274,*7D
$GPGSV,5,5,17,50,10,089,*4A
$GLGSV,3,1,09,65,03,209,,71,17,107,09,72,22,159,,74,29,148,07*60
$GLGSV,3,2,09,75,78,094,22,76,31,342,10,86,21,347,07,87,30,298,07*68
$GLGSV,3,3,09,88,07,241,*5C
$GNGLL,0420.01608,S,05539.74625,E,052915.00,A,A*61
$GNGRS,052915.00,1,-5.2,-1.3,0.3,16.3,-13.2,1.0,-1.4,17.0,,,,*6A
$GNGRS,052915.00,1,-0.6,-4.4,11.0,-2.6,,,,,,,,*45
$GNGST,052915.00,5953836,,,,10,9.5,23*78
$GNZDA,052915.00,23,05,2025,00,00*73
$GNGBS,052915.00,10.2,9.5,23.1,,,,*5A
$GNTXT,01,01,01,More than 100 frame errors, UART RX was disabled*70
b0L0?\/
$1
+6U;{4V^
:R 
Y
kAGkHJ
,KN^LVV[`0W
*3Xb0rX$GNRMC,052916.00,A,0420.01627,S,05539.74650,E,0.063,,230525,,,A*72
$GNVTG,,T,,M,0.063,N,0.117,K,A*3F
$GNGNS,052916.00,0420.01627,S,05539.74650,E,AA,14,0.88,21.0,-47.6,,*6C
$GNGGA,052916.00,0420.01627,S,05539.74650,E,1,12,0.88,21.0,M,-47.6,M,,*40
$GNGSA,A,3,24,20,05,13,15,12,18,23,,,,,1.77,0.88,1.54*11
$GNGSA,A,3,86,74,75,87,71,76,,,,,,,1.77,0.88,1.54*1A
$GPGSV,5,1,17,05,63,092,24,11,09,024,,12,47,012,25,13,16,141,12*7F
$GPGSV,5,2,17,15,30,175,10,18,30,247,30,20,36,049,23,22,10,129,*75
$GPGSV,5,3,17,23,13,208,09,24,54,213,21,25,23,341,,29,09,315,*78
$GPGSV,5,4,17,36,52,277,,40,86,350,,41,58,082,,49,32,274,*7D
$GPGSV,5,5,17,50,10,089,*4A
$GLGSV,3,1,09,65,03,209,,71,17,107,09,72,22,159,,74,29,148,10*66
$GLGSV,3,2,09,75,78,094,22,76,31,342,12,86,21,347,09,87,30,298,10*62
$GLGSV,3,3,09,88,07,241,*5C
$GNGLL,0420.01627,S,05539.74650,E,052916.00,A,A*6D
$GNGRS,052916.00,1,-3.7,0.1,-3.8,0.1,-7.6,0.0,-2.3,18.3,,,,*6C
$GNGRS,052916.00,1,124,115,-4.9,-17.4,-25.6,-49.5,,,,,,*6D
$GNGST,052916.00,83,,,,10,9.4,23*46
$GNZDA,052916.00,23,05,2025,00,00*70
$GNGBS,052916.00,10.0,9.4,22.9,,,,*53
$GNTXT,01,01,01,More than 100 frame errors, UART RX was disabled*70
b0L?\_/g$1
6U;{4V^
:R 
Y
kAG
kiHJKN^LVV
[W*XtZbrXh$GNRMC,052917.00,A,0420.01617,S,05539.74636,E,0.193,,230525,,,A*7E
$GNVTG,,T,,M,0.193,N,0.357,K,A*37
$GNGNS,052917.00,0420.01617,S,05539.74636,E,AA,13,0.74,21.1,-47.6,,*6B
$GNGGA,052917.00,0420.01617,S,05539.74636,E,1,12,0.74,21.1,M,-47.6,M,,*40
$GNGSA,A,3,24,20,05,13,15,12,18,23,,,,,1.44,0.74,1.24*15
$GNGSA,A,3,86,74,75,71,76,,,,,,,,1.44,0.74,1.24*11
$GPGSV,5,1,17,05,63,092,22,11,09,024,,12,47,012,23,13,16,141,13*7E
$GPGSV,5,2,17,15,30,175,11,18,30,247,28,20,36,049,22,22,10,129,*7C
$GPGSV,5,3,17,23,13,208,09,24,54,213,20,25,23,341,,29,09,315,*79
$GPGSV,5,4,17,36,52,277,,40,86,350,,41,58,082,,49,32,274,*7D
$GPGSV,5,5,17,50,10,089,*4A
$GLGSV,3,1,09,65,03,209,,71,17,107,10,72,22,159,,74,29,148,11*6F
$GLGSV,3,2,09,75,78,094,20,76,31,342,13,86,21,347,10,87,30,298,07*6F
$GLGSV,3,3,09,88,07,241,*5C
$GNGLL,0420.01617,S,05539.74636,E,052917.00,A,A*6F
$GNGRS,052917.00,1,-2.3,2.7,-4.2,16.4,10.3,2.6,-2.6,16.9,,,,*48
$GNGRS,052917.00,1,0.0,-0.3,-5.7,11.3,-2.3,,,,,,,*68
$GNGST,052917.00,6601392,,,,10,9.6,23*77
$GNZDA,052917.00,23,05,2025,00,00*71
$GNGBS,052917.00,10.1,9.6,23.1,,,,*58
$GNTXT,01,01,01,More than 100 frame errors, UART RX was disabled*70
b0L?\q/5*$0
6U;{4V^
:R 
Y
kAGkHJ%KN^L
VV[W*XbrX$GNRMC,052918.00,A,0420.01586,S,05539.74615,E,0.573,,230525,,,A*71
$GNVTG,,T,,M,0.573,N,1.062,K,A*39
$GNGNS,052918.00,0420.01586,S,05539.74615,E,AA,13,0.71,20.8,-47.6,,*63
$GNGGA,052918.00,0420.01586,S,05539.74615,E,1,12,0.71,20.8,M,-47.6,M,,*48
$GNGSA,A,3,24,20,05,13,15,12,18,23,,,,,1.42,0.71,1.23*11
$GNGSA,A,3,86,75,87,71,76,,,,,,,,1.42,0.71,1.23*19
$GPGSV,5,1,17,05,63,092,21,11,09,024,,12,47,012,23,13,16,141,13*7D
$GPGSV,5,2,17,15,30,175,09,18,30,247,28,20,36,048,23,22,10,129,*75
$GPGSV,5,3,17,23,13,208,13,24,54,213,19,25,23,341,,29,09,315,*78
$GPGSV,5,4,17,36,52,277,,40,86,350,,41,58,082,,49,32,274,*7D
$GPGSV,5,5,17,50,10,089,*4A
$GLGSV,3,1,09,65,03,209,,71,17,107,09,72,22,159,,74,29,148,06*61
$GLGSV,3,2,09,75,78,094,20,76,31,342,10,86,21,347,09,87,30,298,12*60
$GLGSV,3,3,09,88,07,241,*5C
$GNGLL,0420.01586,S,05539.74615,E,052918.00,A,A*6A
$GNGRS,052918.00,1,-1.0,2.0,-4.0,17.0,10.8,2.3,-2.1,16.9,,,,*4E
$GNGRS,052918.00,1,-0.7,-5.3,4.3,11.7,-3.0,,,,,,,*66
$GNGST,052918.00,7378176,,,,10,9.8,23*74
$GNZDA,052918.00,23,05,2025,00,00*7E
$GNGBS,052918.00,10.3,9.8,23.3,,,,*59
$GNTXT,01,01,01,More than 100 frame errors, UART RX was disabled*70
b0L?\Y/-wC$0?6 U;{4V^
:R 
Y
kAGkHJ`KN^L
VmV
['W*XxbrzX)$GNRMC,052919.00,A,0420.01562,S,05539.74588,E,0.496,,230525,,,A*77
$GNVTG,,T,,M,0.496,N,0.918,K,A*36
$GNGNS,052919.00,0420.01562,S,05539.74588,E,AA,13,0.84,20.9,-47.6,,*64
$GNGGA,052919.00,0420.01562,S,05539.74588,E,1,12,0.84,20.9,M,-47.6,M,,*4F
$GNGSA,A,3,24,20,05,13,15,12,18,23,,,,,1.78,0.84,1.57*11
$GNGSA,A,3,74,75,87,71,76,,,,,,,,1.78,0.84,1.57*14
$GPGSV,5,1,17,05,63,092,19,11,09,024,,12,47,012,22,13,16,141,12*76
$GPGSV,5,2,17,15,30,175,08,18,30,247,27,20,36,048,23,22,09,129,*73
$GPGSV,5,3,17,23,13,208,12,24,54,213,18,25,23,341,,29,09,315,*78
$GPGSV,5,4,17,36,52,277,,40,86,350,,41,58,082,,49,32,274,*7D
$GPGSV,5,5,17,50,10,089,*4A
$GLGSV,3,1,09,65,03,209,,71,17,107,12,72,22,159,,74,29,148,09*64
$GLGSV,3,2,09,75,78,094,20,76,31,342,10,86,21,347,10,87,30,298,11*6B
$GLGSV,3,3,09,88,07,241,*5C
$GNGLL,0420.01562,S,05539.74588,E,052919.00,A,A*66
$GNGRS,052919.00,1,-2.2,1.6,-1.7,8.1,1.2,0.2,-4.4,163,,,,*68
$GNGRS,052919.00,1,-101,-5.2,48.7,-33.3,8.8,,,,,,,*44
$GNGST,052919.00,84,,,,10,9.7,23*4D
$GNZDA,052919.00,23,05,2025,00,00*7F
$GNGBS,052919.00,10.3,9.7,23.2,,,,*56
$GNTXT,01,01,01,More than 100 frame errors, UART RX was disabled*70
b0L?\/$0tc6#U;{4V^
:R 
Y
kAGkHJcKN^LVnV[XW*7XbrbXZ$GNRMC,052920.00,A,0420.01597,S,05539.74597,E,0.445,,230525,,,A*77
$GNVTG,,T,,M,0.445,N,0.823,K,A*31
$GNGNS,052920.00,0420.01597,S,05539.74597,E,AA,13,0.74,21.3,-47.6,,*6E
$GNGGA,052920.00,0420.01597,S,05539.74597,E,1,12,0.74,21.3,M,-47.6,M,,*45
$GNGSA,A,3,24,20,05,13,15,12,18,23,,,,,1.53,0.74,1.34*12
$GNGSA,A,3,74,75,87,71,76,,,,,,,,1.53,0.74,1.34*17
$GPGSV,5,1,17,05,63,092,20,11,09,024,,12,47,012,21,13,16,141,09*75
$GPGSV,5,2,17,15,30,175,09,18,30,247,28,20,36,048,22,22,09,129,*7C
$GPGSV,5,3,17,23,13,208,12,24,54,213,17,25,23,341,,29,09,315,*77
$GPGSV,5,4,17,36,52,277,,40,86,350,,41,58,082,30,49,32,274,*7E
$GPGSV,5,5,17,50,10,089,*4A
$GLGSV,3,1,09,65,03,209,,71,17,107,12,72,22,159,,74,29,148,07*6A
$GLGSV,3,2,09,75,78,094,19,76,31,342,09,86,21,347,11,87,30,298,11*68
$GLGSV,3,3,09,88,07,241,*5C
$GNGLL,0420.01597,S,05539.74597,E,052920.00,A,A*68
$GNGRS,052920.00,1,-2.2,1.2,-0.8,15.2,9.1,-1.2,-2.4,16.4,,,,*5F
$GNGRS,052920.00,1,-1.6,-4.8,5.7,10.1,-1.5,,,,,,,*62
$GNGST,052920.00,5734181,,,,11,9.9,23*79
$GNZDA,052920.00,23,05,2025,00,00*75
$GNGBS,052920.00,10.6,9.9,23.4,,,,*51
$GNTXT,01,01,01,More than 100 frame errors, UART RX was disabled*70
b0L?\/u@$06H6NU;{4V^
 :R 
Y
kAGkHJVKN^MLVtV
[dW
*9XwlbrJX2$GNRMC,052921.00,A,0420.01597,S,05539.74578,E,0.428,,230525,,,A*7C
$GNVTG,,T,,M,0.428,N,0.792,K,A*3F
$GNGNS,052921.00,0420.01597,S,05539.74578,E,AA,13,0.74,21.2,-47.6,,*6F
$GNGGA,052921.00,0420.01597,S,05539.74578,E,1,12,0.74,21.2,M,-47.6,M,,*44
