$GNRMC,123458.00,A,0419.82312,S,05539.61995,E,0.156,,200525,,,D*73
$GNVTG,,T,,M,0.156,N,0.290,K,D*31
$GNGGA,123458.00,0419.82312,S,05539.61995,E,2,12,0.69,7.3,M,-47.6,M,,0000*7B
$GNGSA,A,3,32,18,10,28,26,16,27,31,40,08,,,1.48,0.69,1.32*15
$GNGSA,A,3,85,72,71,75,86,65,,,,,,,1.48,0.69,1.32*1F
$GPGSV,4,1,16,08,10,316,32,10,15,006,24,16,25,237,14,18,33,089,22*79
$GPGSV,4,2,16,23,02,044,21,26,28,206,26,27,46,305,31,28,51,145,24*7D
$GPGSV,4,3,16,29,10,148,,31,37,184,30,32,54,360,27,36,52,277,31*74
$GPGSV,4,4,16,40,84,353,32,41,58,082,29,49,32,274,,50,10,089,*73
$GLGSV,3,1,09,65,27,246,27,71,15,005,25,72,43,317,33,74,12,133,09*62
$GLGSV,3,2,09,75,16,182,25,84,11,142,,85,51,104,27,86,41,010,30*6F
$GLGSV,3,3,09,87,04,344,25*53
$GNGLL,0419.82312,S,05539.61995,E,123458.00,A,D*68
$GNRMC,123459.00,A,0419.82313,S,05539.62000,E,0.021,,200525,,,D*74
$GNVTG,,T,,M,0.021,N,0.038,K,D*30
$GNGGA,123459.00,0419.82313,S,05539.62000,E,2,12,0.72,7.2,M,-47.6,M,,0000*76
$GNGSA,A,3,32,18,10,28,26,27,31,40,08,,,,1.50,0.72,1.32*11
$GNGSA,A,3,85,72,71,75,86,65,,,,,,,1.50,0.72,1.32*1C
$GPGSV,4,1,16,08,10,316,37,10,15,006,23,16,25,237,19,18,33,089,23*77
$GPGSV,4,2,16,23,02,044,20,26,28,206,37,27,46,305,39,28,51,145,31*70
$GPGSV,4,3,16,29,10,148,,31,37,184,37,32,54,360,32,36,52,277,37*71
$GPGSV,4,4,16,40,84,353,35,41,58,082,29,49,32,274,,50,10,089,*74
$GLGSV,3,1,09,65,27,246,33,71,15,005,23,72,43,317,38,74,12,133,09*6A
$GLGSV,3,2,09,75,16,182,24,84,11,142,,85,51,104,32,86,41,010,35*6F
$GLGSV,3,3,09,87,04,344,24*52
$GNGLL,0419.82313,S,05539.62000,E,123459.00,A,D*6E
$GNRMC,123500.00,A,0419.82312,S,05539.62003,E,0.054,,200525,,,D*79
$GNVTG,,T,,M,0.054,N,0.100,K,D*38
$GNGGA,123500.00,0419.82312,S,05539.62003,E,2,12,0.72,7.1,M,-47.6,M,,0000*7A
$GNGSA,A,3,32,18,10,28,26,27,31,40,08,,,,1.35,0.72,1.14*16
$GNGSA,A,3,85,72,71,75,86,65,,,,,,,1.35,0.72,1.14*1B
$GPGSV,4,1,16,08,10,316,37,10,15,006,29,16,25,237,17,18,33,089,25*75
$GPGSV,4,2,16,23,02,044,19,26,28,206,36,27,46,305,38,28,51,145,32*79
$GPGSV,4,3,16,29,10,148,,31,37,184,39,32,54,360,33,36,52,277,39*70
$GPGSV,4,4,16,40,84,353,37,41,58,082,30,49,32,274,,50,10,089,*7E
$GLGSV,3,1,09,65,27,246,30,71,15,005,25,72,43,317,36,74,12,133,10*69
$GLGSV,3,2,09,75,16,182,25,84,11,142,,85,51,104,33,86,41,010,32*68
$GLGSV,3,3,09,87,04,344,25*53
$GNGLL,0419.82312,S,05539.62003,E,123500.00,A,D*61
$GNRMC,123501.00,A,0419.82316,S,05539.62001,E,0.052,,200525,,,D*78
$GNVTG,,T,,M,0.052,N,0.097,K,D*31
$GNGGA,123501.00,0419.82316,S,05539.62001,E,2,12,0.72,7.2,M,-47.6,M,,0000*7E
$GNGSA,A,3,32,18,10,28,26,27,31,40,08,,,,1.35,0.72,1.14*16
$GNGSA,A,3,85,72,71,75,86,65,,,,,,,1.35,0.72,1.14*1B
$GPGSV,4,1,16,08,10,316,36,10,15,006,30,16,25,237,20,18,33,089,27*7A
$GPGSV,4,2,16,23,02,044,20,26,28,206,37,27,46,305,38,28,51,145,32*72
$GPGSV,4,3,16,29,10,148,,31,37,184,39,32,54,360,33,36,52,277,39*70
$GPGSV,4,4,16,40,84,353,38,41,58,082,32,49,32,274,,50,10,089,*73
$GLGSV,3,1,09,65,27,246,33,71,15,005,30,72,43,317,37,74,12,133,08*66
$GLGSV,3,2,09,75,16,182,26,84,11,142,,85,51,104,34,86,41,010,32*6C
$GLGSV,3,3,09,87,04,344,25*53
$GNGLL,0419.82316,S,05539.62001,E,123501.00,A,D*66
$GNRMC,123502.00,A,0419.82317,S,05539.62000,E,0.053,,200525,,,D*7A
$GNVTG,,T,,M,0.053,N,0.098,K,D*3F
$GNGGA,123502.00,0419.82317,S,05539.62000,E,2,12,0.62,7.2,M,-47.6,M,,0000*7C
$GNGSA,A,3,32,18,10,28,26,16,27,31,40,08,,,1.20,0.62,1.03*12
$GNGSA,A,3,85,72,71,75,86,74,65,,,,,,1.20,0.62,1.03*1B
$GPGSV,4,1,16,08,10,316,34,10,15,006,34,16,25,237,22,18,33,089,29*70
$GPGSV,4,2,16,23,02,044,22,26,28,206,39,27,46,305,38,28,51,145,33*7F
$GPGSV,4,3,16,29,10,148,,31,37,184,41,32,54,360,33,36,52,277,39*7F
$GPGSV,4,4,16,40,84,353,40,41,58,082,33,49,32,274,,50,10,089,*7D
$GLGSV,3,1,09,65,27,246,33,71,15,005,30,72,43,317,37,74,12,133,09*67
$GLGSV,3,2,09,75,16,182,27,84,11,142,,85,51,104,34,86,41,010,33*6C
$GLGSV,3,3,09,87,04,344,26*50
$GNGLL,0419.82317,S,05539.62000,E,123502.00,A,D*65
$GNRMC,123503.00,A,0419.82316,S,05539.62000,E,0.038,,200525,,,D*77
$GNVTG,,T,,M,0.038,N,0.070,K,D*34
$GNGGA,123503.00,0419.82316,S,05539.62000,E,2,12,0.62,7.1,M,-47.6,M,,0000*7F
$GNGSA,A,3,32,18,10,28,26,16,27,31,40,08,,,1.20,0.62,1.03*12
$GNGSA,A,3,85,72,71,75,86,74,65,,,,,,1.20,0.62,1.03*1B
$GPGSV,4,1,16,08,10,316,33,10,15,006,29,16,25,237,21,18,33,089,30*70
$GPGSV,4,2,16,23,02,044,23,26,28,206,39,27,46,305,39,28,51,145,33*7F
$GPGSV,4,3,16,29,10,148,,31,37,184,41,32,54,360,34,36,52,277,39*78
$GPGSV,4,4,16,40,84,353,40,41,58,082,33,49,32,274,,50,10,089,*7D
$GLGSV,3,1,09,65,27,246,32,71,15,005,22,72,43,317,36,74,12,133,10*6C
$GLGSV,3,2,09,75,16,182,27,84,11,142,,85,51,104,34,86,41,010,32*6D
$GLGSV,3,3,09,87,04,344,27*51
$GNGLL,0419.82316,S,05539.62000,E,123503.00,A,D*65
$GNRMC,123504.00,A,0419.82316,S,05539.61998,E,0.034,,200525,,,D*77
$GNVTG,,T,,M,0.034,N,0.063,K,D*3A
$GNGGA,123504.00,0419.82316,S,05539.61998,E,2,12,0.62,7.2,M,-47.6,M,,0000*70
$GNGSA,A,3,32,18,10,28,26,16,27,31,40,08,,,1.20,0.62,1.03*12
$GNGSA,A,3,85,72,71,75,86,74,65,,,,,,1.20,0.62,1.03*1B
$GPGSV,4,1,16,08,10,316,28,10,15,006,30,16,25,237,33,18,33,089,30*71
$GPGSV,4,2,16,23,02,044,24,26,28,206,37,27,46,305,38,28,51,145,33*77
$GPGSV,4,3,16,29,10,148,,31,37,184,39,32,54,360,35,36,52,277,38*77
$GPGSV,4,4,16,40,84,353,38,41,58,082,33,49,32,274,,50,10,089,*72
$GLGSV,3,1,09,65,27,246,33,71,15,005,22,72,43,317,36,74,12,133,09*65
$GLGSV,3,2,09,75,16,182,27,84,11,142,,85,51,105,33,86,41,010,32*6B
$GLGSV,3,3,09,87,04,344,33*54
$GNGLL,0419.82316,S,05539.61998,E,123504.00,A,D*69
$GNRMC,123505.00,A,0419.82315,S,05539.61996,E,0.031,,200525,,,D*7E
$GNVTG,,T,,M,0.031,N,0.058,K,D*37
$GNGGA,123505.00,0419.82315,S,05539.61996,E,2,12,0.68,7.1,M,-47.6,M,,0000*75
$GNGSA,A,3,32,18,10,28,26,16,27,31,40,08,,,1.33,0.68,1.14*1C
$GNGSA,A,3,85,72,71,75,86,65,,,,,,,1.33,0.68,1.14*16
$GPGSV,4,1,16,08,10,316,34,10,15,006,23,16,25,237,33,18,33,089,28*77
$GPGSV,4,2,16,23,02,044,25,26,28,206,35,27,46,305,36,28,51,145,34*7D
$GPGSV,4,3,16,29,10,148,,31,37,184,39,32,54,360,35,36,52,277,36*79
$GPGSV,4,4,16,40,84,353,40,41,58,082,34,49,32,274,,50,10,089,*7A
$GLGSV,3,1,09,65,27,246,32,71,15,005,22,72,43,317,34,74,12,133,07*68
$GLGSV,3,2,09,75,16,182,26,84,11,142,,85,51,105,32,86,41,010,31*68
$GLGSV,3,3,09,87,04,344,32*55
$GNGLL,0419.82315,S,05539.61996,E,123505.00,A,D*65
$GNRMC,123506.00,A,0419.82316,S,05539.61998,E,0.049,,200525,,,D*7F
$GNVTG,,T,,M,0.049,N,0.092,K,D*3E
$GNGGA,123506.00,0419.82316,S,05539.61998,E,2,12,0.68,7.0,M,-47.6,M,,0000*7A
$GNGSA,A,3,32,18,10,28,26,16,27,31,40,08,,,1.33,0.68,1.14*1C
$GNGSA,A,3,85,72,71,75,86,65,,,,,,,1.33,0.68,1.14*16
$GPGSV,4,1,16,08,10,316,34,10,15,006,26,16,25,237,36,18,33,089,27*78
$GPGSV,4,2,16,23,02,044,24,26,28,206,33,27,46,305,36,28,51,145,33*7D
$GPGSV,4,3,16,29,10,148,,31,37,184,39,32,54,360,39,36,52,277,36*75
$GPGSV,4,4,16,40,84,353,40,41,58,082,34,49,32,274,,50,10,089,*7A
$GLGSV,3,1,09,65,27,246,29,71,15,005,24,72,43,317,36,74,12,133,09*68
$GLGSV,3,2,09,75,16,182,26,84,11,142,,85,51,105,33,86,41,010,29*60
$GLGSV,3,3,09,87,05,344,31*57
$GNGLL,0419.82316,S,05539.61998,E,123506.00,A,D*6B
$GNRMC,123507.00,A,0419.82316,S,05539.62003,E,0.080,,200525,,,D*73
$GNVTG,,T,,M,0.080,N,0.147,K,D*32
$GNGGA,123507.00,0419.82316,S,05539.62003,E,2,12,0.68,6.8,M,-47.6,M,,0000*7A
$GNGSA,A,3,32,18,10,28,26,16,27,31,40,08,,,1.33,0.68,1.14*1C
$GNGSA,A,3,85,72,71,75,86,65,,,,,,,1.33,0.68,1.14*16
$GPGSV,4,1,16,08,10,316,32,10,15,006,34,16,25,237,35,18,33,089,28*71
$GPGSV,4,2,16,23,02,044,21,26,28,206,37,27,46,305,36,28,51,145,36*79
$GPGSV,4,3,16,29,10,148,,31,37,184,41,32,54,360,38,36,52,277,38*75
$GPGSV,4,4,16,40,84,353,41,41,58,082,34,49,32,274,,50,10,089,*7B
$GLGSV,3,1,09,65,27,246,32,71,15,005,25,72,43,317,38,74,12,133,07*63
$GLGSV,3,2,09,75,16,182,25,84,11,142,,85,51,105,32,86,41,010,29*62
$GLGSV,3,3,09,87,05,344,33*55
$GNGLL,0419.82316,S,05539.62003,E,123507.00,A,D*62
$GNRMC,123508.00,A,0419.82318,S,05539.62000,E,0.066,,200525,,,D*79
$GNVTG,,T,,M,0.066,N,0.123,K,D*38
$GNGGA,123508.00,0419.82318,S,05539.62000,E,2,12,0.62,6.9,M,-47.6,M,,0000*73
$GNGSA,A,3,32,18,10,28,26,16,27,31,40,08,,,1.20,0.62,1.03*12
$GNGSA,A,3,85,72,71,75,86,74,65,,,,,,1.20,0.62,1.03*1B
$GPGSV,4,1,16,08,10,316,31,10,15,006,30,16,25,237,37,18,33,089,30*7D
$GPGSV,4,2,16,23,02,044,18,26,28,206,36,27,46,305,38,28,51,145,33*79
$GPGSV,4,3,16,29,10,148,,31,37,184,39,32,54,360,38,36,52,277,37*75
$GPGSV,4,4,16,40,84,353,39,41,58,082,34,49,32,274,,50,10,089,*74
$GLGSV,3,1,09,65,27,246,32,71,15,005,24,72,43,317,35,74,12,133,08*60
$GLGSV,3,2,09,75,16,182,26,84,11,142,,85,51,105,33,86,41,010,30*68
$GLGSV,3,3,09,87,05,344,32*54
$GNGLL,0419.82318,S,05539.62000,E,123508.00,A,D*60
$GNRMC,123509.00,A,0419.82318,S,05539.61996,E,0.074,,200525,,,D*7E
$GNVTG,,T,,M,0.074,N,0.137,K,D*3E
$GNGGA,123509.00,0419.82318,S,05539.61996,E,2,12,0.68,6.8,M,-47.6,M,,0000*7C
$GNGSA,A,3,32,18,10,28,26,16,27,31,40,08,,,1.33,0.68,1.14*1C
$GNGSA,A,3,85,72,71,75,86,65,,,,,,,1.33,0.68,1.14*16
$GPGSV,4,1,16,08,10,316,30,10,15,006,27,16,25,237,34,18,33,089,36*7F
$GPGSV,4,2,16,23,02,044,20,26,28,206,35,27,46,305,36,28,51,145,28*75
$GPGSV,4,3,16,29,10,148,,31,37,184,36,32,54,360,38,36,52,277,36*7B
$GPGSV,4,4,16,40,84,353,37,41,58,082,33,49,32,274,,50,10,089,*7D
$GLGSV,3,1,09,65,27,246,32,71,15,005,22,72,43,317,33,74,12,133,07*6F
$GLGSV,3,2,09,75,16,182,25,84,11,142,,85,51,105,34,86,41,010,33*6F
$GLGSV,3,3,09,87,05,344,32*54
$GNGLL,0419.82318,S,05539.61996,E,123509.00,A,D*64
$GNRMC,123510.00,A,0419.82318,S,05539.61990,E,0.013,,200525,,,D*71
$GNVTG,,T,,M,0.013,N,0.024,K,D*3C
$GNGGA,123510.00,0419.82318,S,05539.61990,E,2,12,0.68,6.9,M,-47.6,M,,0000*73
$GNGSA,A,3,32,18,10,28,26,16,27,31,40,08,,,1.33,0.68,1.14*1C
$GNGSA,A,3,85,72,71,75,86,65,,,,,,,1.33,0.68,1.14*16
$GPGSV,4,1,16,08,10,316,30,10,15,006,33,16,25,237,36,18,33,089,37*79
$GPGSV,4,2,16,23,02,044,24,26,28,206,39,27,46,305,40,28,51,145,35*70
$GPGSV,4,3,16,29,10,148,,31,37,184,40,32,54,360,38,36,52,277,38*74
$GPGSV,4,4,16,40,84,353,41,41,58,082,34,49,32,274,,50,10,089,*7B
$GLGSV,3,1,09,65,27,246,32,71,15,005,23,72,43,317,34,74,12,133,07*69
$GLGSV,3,2,09,75,16,182,24,84,11,142,,85,51,105,33,86,41,010,32*68
$GLGSV,3,3,09,87,05,344,31*57
$GNGLL,0419.82318,S,05539.61990,E,123510.00,A,D*6A
$GNRMC,123511.00,A,0419.82318,S,05539.61984,E,0.015,,200525,,,D*73
$GNVTG,,T,,M,0.015,N,0.028,K,D*36
$GNGGA,123511.00,0419.82318,S,05539.61984,E,2,12,0.68,7.0,M,-47.6,M,,0000*7F
$GNGSA,A,3,32,18,10,28,26,16,27,31,40,08,,,1.33,0.68,1.14*1C
$GNGSA,A,3,85,72,71,75,86,65,,,,,,,1.33,0.68,1.14*16
$GPGSV,4,1,16,08,10,316,30,10,15,006,33,16,25,237,36,18,33,089,36*78
$GPGSV,4,2,16,23,02,044,25,26,28,206,39,27,46,305,38,28,51,145,35*7E
$GPGSV,4,3,16,29,10,148,,31,37,184,40,32,54,360,37,36,52,277,39*7A
$GPGSV,4,4,16,40,84,353,41,41,58,082,34,49,32,274,,50,10,089,*7B
$GLGSV,3,1,09,65,27,246,32,71,15,005,25,72,43,317,34,74,12,133,09*61
$GLGSV,3,2,09,75,16,182,23,84,11,142,,85,51,105,33,86,41,010,32*6F
$GLGSV,3,3,09,87,05,344,30*56
$GNGLL,0419.82318,S,05539.61984,E,123511.00,A,D*6E
$GNRMC,123512.00,A,0419.82317,S,05539.61984,E,0.022,,200525,,,D*7B
$GNVTG,,T,,M,0.022,N,0.042,K,D*3E
$GNGGA,123512.00,0419.82317,S,05539.61984,E,2,12,0.68,6.9,M,-47.6,M,,0000*7B
$GNGSA,A,3,32,18,10,28,26,16,27,31,40,08,,,1.33,0.68,1.14*1C
$GNGSA,A,3,85,72,71,75,86,65,,,,,,,1.33,0.68,1.14*16
$GPGSV,4,1,16,08,10,316,29,10,15,006,31,16,25,237,36,18,33,089,35*71
$GPGSV,4,2,16,23,02,044,25,26,28,206,39,27,46,305,40,28,51,145,35*71
$GPGSV,4,3,16,29,10,148,,31,37,184,40,32,54,360,37,36,52,277,39*7A
$GPGSV,4,4,16,40,84,353,41,41,58,082,34,49,32,274,,50,10,089,*7B
$GLGSV,3,1,09,65,27,246,31,71,15,005,25,72,43,317,34,74,12,133,08*63
$GLGSV,3,2,09,75,16,182,23,84,11,142,,85,51,105,33,86,41,010,32*6F
$GLGSV,3,3,09,87,05,344,30*56
$GNGLL,0419.82317,S,05539.61984,E,123512.00,A,D*62
$GNRMC,123513.00,A,0419.82318,S,05539.61981,E,0.040,,200525,,,D*74
$GNVTG,,T,,M,0.040,N,0.074,K,D*3F
$GNGGA,123513.00,0419.82318,S,05539.61981,E,2,12,0.68,6.8,M,-47.6,M,,0000*71
$GNGSA,A,3,32,18,10,28,26,16,27,31,40,08,,,1.33,0.68,1.14*1C
$GNGSA,A,3,85,72,71,75,86,65,,,,,,,1.33,0.68,1.14*16
$GPGSV,4,1,16,08,10,316,29,10,15,006,26,16,25,237,32,18,33,089,32*74
$GPGSV,4,2,16,23,02,044,24,26,28,206,36,27,46,305,35,28,51,145,32*7A
$GPGSV,4,3,16,29,10,148,,31,37,184,37,32,54,360,32,36,52,277,35*73
$GPGSV,4,4,16,40,84,353,37,41,58,082,31,49,32,274,,50,10,089,*7F
$GLGSV,3,1,09,65,27,246,32,71,15,005,24,72,43,317,34,74,12,133,06*6F
$GLGSV,3,2,09,75,16,182,23,84,11,142,,85,51,105,33,86,41,010,32*6F
$GLGSV,3,3,09,87,05,344,31*57
$GNGLL,0419.82318,S,05539.61981,E,123513.00,A,D*69
$GNRMC,123514.00,A,0419.82320,S,05539.61980,E,0.049,,200525,,,D*70
$GNVTG,,T,,M,0.049,N,0.091,K,D*3D
$GNGGA,123514.00,0419.82320,S,05539.61980,E,2,12,0.68,6.8,M,-47.6,M,,0000*7C
$GNGSA,A,3,32,18,10,28,26,16,27,31,40,08,,,1.33,0.68,1.14*1C
$GNGSA,A,3,85,72,71,75,86,65,,,,,,,1.33,0.68,1.14*16
$GPGSV,4,1,16,08,10,316,31,10,15,006,26,16,25,237,34,18,33,089,31*78
$GPGSV,4,2,16,23,02,044,31,26,28,206,37,27,46,305,32,28,51,145,32*78
$GPGSV,4,3,16,29,10,148,,31,37,184,38,32,54,360,34,36,52,277,37*78
$GPGSV,4,4,16,40,84,353,35,41,58,082,31,49,32,274,,50,10,089,*7D
$GLGSV,3,1,09,65,27,246,31,71,15,005,23,72,43,317,34,74,12,133,06*6B
$GLGSV,3,2,09,75,16,182,23,84,11,142,,85,51,105,32,86,41,010,24*69
$GLGSV,3,3,09,87,05,344,35*53
$GNGLL,0419.82320,S,05539.61980,E,123514.00,A,D*64
$GNRMC,123515.00,A,0419.82324,S,05539.61978,E,0.116,,200525,,,D*79
$GNVTG,,T,,M,0.116,N,0.216,K,D*3B
$GNGGA,123515.00,0419.82324,S,05539.61978,E,2,12,0.68,6.9,M,-47.6,M,,0000*7F
$GNGSA,A,3,32,18,10,28,26,16,27,31,40,08,,,1.33,0.68,1.14*1C
$GNGSA,A,3,85,72,71,75,86,65,,,,,,,1.33,0.68,1.14*16
$GPGSV,4,1,16,08,10,316,31,10,15,006,23,16,25,237,33,18,33,089,29*73
$GPGSV,4,2,16,23,02,044,29,26,28,206,36,27,46,305,35,28,51,145,32*77
$GPGSV,4,3,16,29,10,148,,31,37,184,40,32,54,360,35,36,52,277,37*76
$GPGSV,4,4,16,40,84,353,40,41,58,082,32,49,32,274,,50,10,089,*7C
$GLGSV,3,1,09,65,27,246,30,71,15,005,20,72,43,317,34,74,12,133,08*67
$GLGSV,3,2,09,75,16,182,24,84,11,142,,85,51,105,31,86,41,010,32*6A
$GLGSV,3,3,09,87,05,344,33*55
$GNGLL,0419.82324,S,05539.61978,E,123515.00,A,D*66
$GNRMC,123516.00,A,0419.82327,S,05539.61975,E,0.020,,200525,,,D*70
$GNVTG,,T,,M,0.020,N,0.038,K,D*31
$GNGGA,123516.00,0419.82327,S,05539.61975,E,2,12,0.68,6.8,M,-47.6,M,,0000*73
$GNGSA,A,3,32,18,10,28,26,16,27,31,40,08,,,1.33,0.68,1.14*1C
$GNGSA,A,3,85,72,71,75,86,65,,,,,,,1.33,0.68,1.14*16
$GPGSV,4,1,16,08,10,316,31,10,15,006,23,16,25,237,33,18,33,089,27*7D
$GPGSV,4,2,16,23,02,044,27,26,28,206,36,27,46,305,38,28,51,145,34*72
$GPGSV,4,3,16,29,10,148,,31,37,184,40,32,54,360,36,36,52,277,37*75
$GPGSV,4,4,16,40,84,353,40,41,58,082,33,49,32,274,,50,10,089,*7D
$GLGSV,3,1,09,65,27,246,34,71,15,005,17,72,43,317,35,74,12,133,08*66
$GLGSV,3,2,09,75,16,182,24,84,11,142,,85,51,105,33,86,41,010,32*68
$GLGSV,3,3,09,87,05,344,33*55
$GNGLL,0419.82327,S,05539.61975,E,123516.00,A,D*6B
$GNRMC,123517.00,A,0419.82328,S,05539.61977,E,0.045,,200525,,,D*7F
$GNVTG,,T,,M,0.045,N,0.084,K,D*35
$GNGGA,123517.00,0419.82328,S,05539.61977,E,2,12,0.68,6.8,M,-47.6,M,,0000*7F
$GNGSA,A,3,32,18,10,28,26,16,27,31,40,08,,,1.33,0.68,1.14*1C
$GNGSA,A,3,85,72,71,75,86,65,,,,,,,1.33,0.68,1.14*16
$GPGSV,4,1,16,08,10,316,33,10,15,006,22,16,25,237,33,18,33,089,26*7F
$GPGSV,4,2,16,23,02,044,26,26,28,206,38,27,46,305,39,28,51,145,35*7D
$GPGSV,4,3,16,29,10,148,,31,37,184,40,32,54,360,36,36,52,277,38*7A
$GPGSV,4,4,16,40,84,353,40,41,58,082,34,49,32,274,,50,10,089,*7A
$GLGSV,3,1,09,65,27,246,31,71,15,005,19,72,43,317,35,74,12,133,08*6D
$GLGSV,3,2,09,75,16,182,25,84,11,142,,85,51,105,32,86,41,010,32*68
$GLGSV,3,3,09,87,05,344,32*54
$GNGLL,0419.82328,S,05539.61977,E,123517.00,A,D*67
$GNRMC,123518.00,A,0419.82330,S,05539.61974,E,0.159,,200525,,,D*76
$GNVTG,,T,,M,0.159,N,0.294,K,D*3A
$GNGGA,123518.00,0419.82330,S,05539.61974,E,2,12,0.68,6.8,M,-47.6,M,,0000*7A
$GNGSA,A,3,32,18,10,28,26,16,27,31,40,08,,,1.33,0.68,1.14*1C
$GNGSA,A,3,85,72,71,75,86,65,,,,,,,1.33,0.68,1.14*16
$GPGSV,4,1,16,08,10,316,33,10,15,006,20,16,25,237,33,18,33,089,26*7D
$GPGSV,4,2,16,23,02,044,25,26,28,206,35,27,46,305,36,28,51,145,35*7C
$GPGSV,4,3,16,29,10,148,,31,37,184,39,32,54,360,33,36,52,277,37*7E
$GPGSV,4,4,16,40,84,353,40,41,58,082,34,49,32,274,,50,10,089,*7A
$GLGSV,3,1,09,65,27,246,32,71,15,005,18,72,43,317,32,74,12,133,07*67
$GLGSV,3,2,09,75,16,182,25,84,11,142,,85,51,105,32,86,41,010,32*68
$GLGSV,3,3,09,87,05,344,32*54
$GNGLL,0419.82330,S,05539.61974,E,123518.00,A,D*62
$GNRMC,123519.00,A,0419.82333,S,05539.61973,E,0.037,,200525,,,D*7A
$GNVTG,,T,,M,0.037,N,0.068,K,D*32
$GNGGA,123519.00,0419.82333,S,05539.61973,E,2,12,0.68,6.7,M,-47.6,M,,0000*70
$GNGSA,A,3,32,18,10,28,26,16,27,31,40,08,,,1.33,0.68,1.14*1C
$GNGSA,A,3,85,72,71,75,86,65,,,,,,,1.33,0.68,1.14*16
$GPGSV,4,1,16,08,10,316,33,10,15,006,20,16,25,237,33,18,33,089,26*7D
$GPGSV,4,2,16,23,02,044,25,26,28,206,35,27,46,305,34,28,51,145,34*7F
$GPGSV,4,3,16,29,10,148,,31,37,184,38,32,54,360,34,36,52,277,36*79
$GPGSV,4,4,16,40,84,353,38,41,58,082,33,49,32,274,,50,10,089,*72
$GLGSV,3,1,09,65,27,246,32,71,15,005,18,72,43,317,34,74,12,133,10*67
$GLGSV,3,2,09,75,16,182,26,84,11,142,,85,51,105,32,86,41,010,31*68
$GLGSV,3,3,09,87,05,344,30*56
$GNGLL,0419.82333,S,05539.61973,E,123519.00,A,D*67
$GNRMC,123520.00,A,0419.82335,S,05539.61974,E,0.088,,200525,,,D*75
$GNVTG,,T,,M,0.088,N,0.164,K,D*3B
$GNGGA,123520.00,0419.82335,S,05539.61974,E,2,12,0.68,6.7,M,-47.6,M,,0000*7B
$GNGSA,A,3,32,18,10,28,26,16,27,31,40,08,,,1.33,0.68,1.14*1C
$GNGSA,A,3,85,72,71,75,86,65,,,,,,,1.33,0.68,1.14*16
$GPGSV,4,1,16,08,10,316,26,10,15,006,23,16,25,237,30,18,33,089,25*7A
$GPGSV,4,2,16,23,02,044,25,26,28,206,35,27,46,305,35,28,51,145,32*78
$GPGSV,4,3,16,29,10,148,,31,37,184,39,32,54,360,32,36,52,277,33*7B
$GPGSV,4,4,16,40,84,353,38,41,58,082,33,49,32,274,,50,10,089,*72
$GLGSV,3,1,09,65,27,246,31,71,15,005,18,72,43,317,34,74,12,133,09*6C
$GLGSV,3,2,09,75,16,182,26,84,11,142,,85,51,105,31,86,41,010,30*6A
$GLGSV,3,3,09,87,05,344,30*56
$GNGLL,0419.82335,S,05539.61974,E,123520.00,A,D*6C
$GNRMC,123521.00,A,0419.82333,S,05539.61975,E,0.092,,200525,,,D*78
$GNVTG,,T,,M,0.092,N,0.170,K,D*35
$GNGGA,123521.00,0419.82333,S,05539.61975,E,2,12,0.68,6.6,M,-47.6,M,,0000*7C
$GNGSA,A,3,32,18,10,28,26,16,27,31,40,08,,,1.33,0.68,1.14*1C
$GNGSA,A,3,85,72,71,75,86,65,,,,,,,1.33,0.68,1.14*16
$GPGSV,4,1,16,08,10,316,27,10,15,006,31,16,25,237,35,18,33,089,26*7E
$GPGSV,4,2,16,23,02,044,25,26,28,206,37,27,46,305,38,28,51,145,36*73
$GPGSV,4,3,16,29,10,148,,31,37,184,40,32,54,360,35,36,52,277,38*79
$GPGSV,4,4,16,40,84,353,40,41,58,082,34,49,32,274,,50,10,089,*7A
$GLGSV,3,1,09,65,27,246,30,71,15,005,21,72,43,317,33,74,12,133,09*60
$GLGSV,3,2,09,75,16,182,25,84,11,142,,85,51,105,31,86,41,010,30*69
$GLGSV,3,3,09,87,05,344,30*56
$GNGLL,0419.82333,S,05539.61975,E,123521.00,A,D*6A
$GNRMC,123522.00,A,0419.82334,S,05539.61973,E,0.062,,200525,,,D*75
$GNVTG,,T,,M,0.062,N,0.114,K,D*38
$GNGGA,123522.00,0419.82334,S,05539.61973,E,2,12,0.68,6.4,M,-47.6,M,,0000*7C
$GNGSA,A,3,32,18,10,28,26,16,27,31,40,08,,,1.33,0.68,1.14*1C
$GNGSA,A,3,85,72,71,75,86,65,,,,,,,1.33,0.68,1.14*16
$GPGSV,4,1,16,08,10,316,26,10,15,006,32,16,25,237,35,18,33,089,26*7C
$GPGSV,4,2,16,23,02,044,26,26,28,206,37,27,46,305,38,28,51,145,36*70
$GPGSV,4,3,16,29,10,148,,31,37,184,40,32,54,360,36,36,52,277,39*7B
$GPGSV,4,4,16,40,84,353,40,41,58,082,35,49,32,274,,50,10,089,*7B
$GLGSV,3,1,09,65,27,246,30,71,15,005,23,72,43,317,34,74,12,133,08*64
$GLGSV,3,2,09,75,16,182,26,84,11,142,,85,51,105,32,86,41,010,30*69
$GLGSV,3,3,09,87,05,344,34*52
$GNGLL,0419.82334,S,05539.61973,E,123522.00,A,D*68
$GNRMC,123523.00,A,0419.82336,S,05539.61975,E,0.172,,200525,,,D*70
$GNVTG,,T,,M,0.172,N,0.319,K,D*37
$GNGGA,123523.00,0419.82336,S,05539.61975,E,2,12,0.68,6.4,M,-47.6,M,,0000*79
$GNGSA,A,3,32,18,10,28,26,16,27,31,40,08,,,1.33,0.68,1.14*1C
$GNGSA,A,3,85,72,71,75,86,65,,,,,,,1.33,0.68,1.14*16
$GPGSV,4,1,16,08,10,316,25,10,15,006,25,16,25,237,35,18,33,089,25*7A
$GPGSV,4,2,16,23,02,044,26,26,28,206,36,27,46,305,37,28,51,145,35*7D
$GPGSV,4,3,16,29,10,148,,31,37,184,40,32,54,360,35,36,52,277,37*76
$GPGSV,4,4,16,40,84,353,39,41,58,082,34,49,32,274,,50,10,089,*74
$GLGSV,3,1,09,65,27,246,30,71,15,005,20,72,43,317,34,74,12,133,08*67
$GLGSV,3,2,09,75,16,182,26,84,11,142,,85,51,105,32,86,41,010,30*69
$GLGSV,3,3,09,87,05,344,34*52
$GNGLL,0419.82336,S,05539.61975,E,123523.00,A,D*6D
$GNRMC,123524.00,A,0419.82336,S,05539.61977,E,0.062,,200525,,,D*75
$GNVTG,,T,,M,0.062,N,0.115,K,D*39
$GNGGA,123524.00,0419.82336,S,05539.61977,E,2,12,0.68,6.2,M,-47.6,M,,0000*7A
$GNGSA,A,3,32,18,10,28,26,16,27,31,40,08,,,1.33,0.68,1.14*1C
$GNGSA,A,3,85,72,71,75,86,65,,,,,,,1.33,0.68,1.14*16
$GPGSV,4,1,16,08,10,316,36,10,15,006,37,16,25,237,35,18,33,089,24*7A
$GPGSV,4,2,16,23,02,044,25,26,28,206,38,27,46,305,37,28,51,145,35*70
$GPGSV,4,3,16,29,10,148,,31,37,184,40,32,54,360,35,36,52,277,38*79
$GPGSV,4,4,16,40,84,353,40,41,58,082,35,49,32,274,,50,10,089,*7B
$GLGSV,3,1,09,65,27,246,29,71,15,005,30,72,43,317,34,74,12,133,09*6F
$GLGSV,3,2,09,75,16,182,26,84,11,142,,85,51,105,32,86,41,010,31*68
$GLGSV,3,3,09,87,05,344,28*5F
$GNGLL,0419.82336,S,05539.61977,E,123524.00,A,D*68
$GNRMC,123525.00,A,0419.82336,S,05539.61973,E,0.013,,200525,,,D*76
$GNVTG,,T,,M,0.013,N,0.025,K,D*3D
$GNGGA,123525.00,0419.82336,S,05539.61973,E,2,12,0.68,6.2,M,-47.6,M,,0000*7F
$GNGSA,A,3,32,18,10,28,26,16,27,31,40,08,,,1.33,0.68,1.14*1C
$GNGSA,A,3,85,72,71,75,86,65,,,,,,,1.33,0.68,1.14*16
$GPGSV,4,1,16,08,10,316,33,10,15,006,36,16,25,237,31,18,33,090,25*73
$GPGSV,4,2,16,23,02,044,25,26,28,206,37,27,46,305,30,28,51,145,35*78
$GPGSV,4,3,16,29,10,148,,31,37,184,39,32,54,360,26,36,52,277,41*7B
$GPGSV,4,4,16,40,84,353,40,41,58,082,34,49,32,274,,50,10,089,*7A
$GLGSV,3,1,09,65,27,246,31,71,15,005,34,72,43,317,30,74,12,133,12*6C
$GLGSV,3,2,09,75,16,182,26,84,11,142,,85,51,105,32,86,41,010,34*6D
$GLGSV,3,3,09,87,05,344,28*5F
$GNGLL,0419.82336,S,05539.61973,E,123525.00,A,D*6D
$GNRMC,123526.00,A,0419.82336,S,05539.61972,E,0.040,,200525,,,D*72
$GNVTG,,T,,M,0.040,N,0.075,K,D*3E
$GNGGA,123526.00,0419.82336,S,05539.61972,E,2,12,0.68,6.0,M,-47.6,M,,0000*7F
$GNGSA,A,3,32,18,10,28,26,16,27,31,40,08,,,1.33,0.68,1.14*1C
$GNGSA,A,3,85,72,71,75,86,65,,,,,,,1.33,0.68,1.14*16
$GPGSV,4,1,16,08,10,316,27,10,15,006,35,16,25,237,31,18,33,090,26*76
$GPGSV,4,2,16,23,02,044,25,26,28,206,38,27,46,305,36,28,51,145,36*72
$GPGSV,4,3,16,29,10,148,,31,37,184,41,32,54,360,32,36,52,277,40*70
$GPGSV,4,4,16,40,84,353,41,41,58,082,35,49,32,274,,50,10,089,*7A
$GLGSV,3,1,09,65,27,246,29,71,15,005,30,72,43,317,33,74,12,133,07*66
$GLGSV,3,2,09,75,16,182,26,84,11,142,,85,51,105,32,86,41,010,34*6D
$GLGSV,3,3,09,87,05,344,31*57
$GNGLL,0419.82336,S,05539.61972,E,123526.00,A,D*6F
$GNRMC,123527.00,A,0419.82335,S,05539.61967,E,0.037,,200525,,,D*74
$GNVTG,,T,,M,0.037,N,0.068,K,D*32
$GNGGA,123527.00,0419.82335,S,05539.61967,E,2,12,0.62,6.0,M,-47.6,M,,0000*73
$GNGSA,A,3,32,18,10,28,26,16,27,31,40,08,,,1.20,0.62,1.03*12
$GNGSA,A,3,85,72,71,75,86,74,65,,,,,,1.20,0.62,1.03*1B
$GPGSV,4,1,16,08,10,316,27,10,15,006,25,16,25,237,30,18,33,090,25*75
$GPGSV,4,2,16,23,02,044,25,26,28,206,38,27,46,305,38,28,51,145,36*7C
$GPGSV,4,3,16,29,10,148,,31,37,184,40,32,54,360,35,36,52,277,39*78
$GPGSV,4,4,16,40,84,353,41,41,58,082,35,49,32,274,,50,10,089,*7A
$GLGSV,3,1,09,65,27,246,30,71,15,005,22,72,43,317,34,74,12,133,09*64
$GLGSV,3,2,09,75,16,182,26,84,11,142,,85,51,105,32,86,41,010,34*6D
$GLGSV,3,3,09,87,05,344,32*54
$GNGLL,0419.82335,S,05539.61967,E,123527.00,A,D*69
$GNRMC,123528.00,A,0419.82335,S,05539.61967,E,0.029,,200525,,,D*74
$GNVTG,,T,,M,0.029,N,0.053,K,D*35
$GNGGA,123528.00,0419.82335,S,05539.61967,E,2,12,0.62,6.0,M,-47.6,M,,0000*7C
$GNGSA,A,3,32,18,10,28,26,16,27,31,40,08,,,1.20,0.62,1.03*12
$GNGSA,A,3,85,72,71,75,86,74,65,,,,,,1.20,0.62,1.03*1B
$GPGSV,4,1,16,08,10,316,37,10,15,006,31,16,25,237,34,18,33,090,24*74
$GPGSV,4,2,16,23,02,044,26,26,28,206,36,27,46,305,38,28,51,145,33*74
$GPGSV,4,3,16,29,10,148,,31,37,184,40,32,54,360,40,36,52,277,38*7B
$GPGSV,4,4,16,40,84,353,35,41,58,082,35,49,32,274,,50,10,089,*79
$GLGSV,3,1,09,65,27,246,29,71,15,005,22,72,43,317,36,74,12,133,09*6E
$GLGSV,3,2,09,75,16,182,26,84,11,142,,85,51,105,32,86,41,010,34*6D
$GLGSV,3,3,09,87,05,344,37*51
$GNGLL,0419.82335,S,05539.61967,E,123528.00,A,D*66
$GNRMC,123529.00,A,0419.82334,S,05539.61972,E,0.075,,200525,,,D*79
$GNVTG,,T,,M,0.075,N,0.139,K,D*31
$GNGGA,123529.00,0419.82334,S,05539.61972,E,2,12,0.72,6.0,M,-47.6,M,,0000*79
$GNGSA,A,3,32,18,10,28,26,16,27,31,40,08,,,1.35,0.72,1.14*11
$GNGSA,A,3,85,72,71,75,86,65,,,,,,,1.35,0.72,1.14*1B
$GPGSV,4,1,16,08,10,316,35,10,15,006,35,16,25,237,31,18,33,090,22*71
$GPGSV,4,2,16,23,02,044,26,26,28,206,37,27,46,305,32,28,51,145,31*7D
$GPGSV,4,3,16,29,10,148,,31,37,184,39,32,54,360,38,36,52,277,38*7A
$GPGSV,4,4,16,40,84,353,35,41,58,082,34,49,32,274,,50,10,089,*78
$GLGSV,3,1,09,65,27,246,26,71,15,005,23,72,43,317,36,74,12,133,07*6E
$GLGSV,3,2,09,75,16,182,26,84,11,142,,85,51,105,31,86,41,010,34*6E
$GLGSV,3,3,09,87,05,344,37*51
$GNGLL,0419.82334,S,05539.61972,E,123529.00,A,D*62
$GNRMC,123530.00,A,0419.82334,S,05539.61975,E,0.081,,200525,,,D*7D
$GNVTG,,T,,M,0.081,N,0.150,K,D*35
$GNGGA,123530.00,0419.82334,S,05539.61975,E,2,12,0.68,5.8,M,-47.6,M,,0000*76
$GNGSA,A,3,32,18,10,28,26,16,27,31,40,08,,,1.33,0.68,1.14*1C
$GNGSA,A,3,85,72,71,75,86,65,,,,,,,1.33,0.68,1.14*16
$GPGSV,4,1,16,08,10,316,31,10,15,006,35,16,25,237,31,18,33,090,19*7D
$GPGSV,4,2,16,23,02,044,28,26,28,206,37,27,46,305,31,28,51,145,31*70
$GPGSV,4,3,16,29,10,148,,31,37,184,39,32,54,360,39,36,52,277,38*7B
$GPGSV,4,4,16,40,84,353,34,41,58,082,34,49,32,274,,50,10,089,*79
$GLGSV,3,1,09,65,27,246,26,71,15,005,26,72,43,317,36,74,12,133,06*6A
$GLGSV,3,2,09,75,16,182,26,84,11,142,,85,51,105,31,86,41,010,34*6E
$GLGSV,3,3,09,87,05,344,37*51
$GNGLL,0419.82334,S,05539.61975,E,123530.00,A,D*6D
$GNRMC,123531.00,A,0419.82332,S,05539.61978,E,0.023,,200525,,,D*7F
$GNVTG,,T,,M,0.023,N,0.043,K,D*3E
$GNGGA,123531.00,0419.82332,S,05539.61978,E,2,12,0.68,5.8,M,-47.6,M,,0000*7C
$GNGSA,A,3,32,18,10,28,26,16,27,31,40,08,,,1.32,0.68,1.14*1D
$GNGSA,A,3,85,72,71,75,86,65,,,,,,,1.32,0.68,1.14*17
$GPGSV,4,1,16,08,10,316,36,10,15,006,34,16,25,237,31,18,33,090,18*7A
$GPGSV,4,2,16,23,02,044,28,26,28,206,37,27,46,305,32,28,51,145,31*73
$GPGSV,4,3,16,29,10,148,,31,37,184,39,32,54,360,39,36,52,277,37*74
$GPGSV,4,4,16,40,84,353,34,41,58,082,34,49,32,274,,50,10,089,*79
$GLGSV,3,1,09,65,27,246,27,71,15,005,28,72,43,317,36,74,12,133,11*63
$GLGSV,3,2,09,75,16,182,26,84,11,142,,85,51,105,32,86,41,010,34*6D
$GLGSV,3,3,09,87,05,344,36*50
$GNGLL,0419.82332,S,05539.61978,E,123531.00,A,D*67
$GNRMC,123532.00,A,0419.82331,S,05539.61984,E,0.058,,200525,,,D*70
$GNVTG,,T,,M,0.058,N,0.107,K,D*33
$GNGGA,123532.00,0419.82331,S,05539.61984,E,2,12,0.68,5.7,M,-47.6,M,,0000*70
$GNGSA,A,3,32,18,10,28,26,16,27,31,40,08,,,1.32,0.68,1.14*1D
$GNGSA,A,3,85,72,71,75,86,65,,,,,,,1.32,0.68,1.14*17
$GPGSV,4,1,16,08,10,316,35,10,15,006,33,16,25,237,31,18,33,090,18*7E
$GPGSV,4,2,16,23,02,044,28,26,28,206,39,27,46,305,35,28,51,145,31*7A
$GPGSV,4,3,16,29,10,148,,31,37,184,40,32,54,360,40,36,52,277,40*74
$GPGSV,4,4,16,40,84,353,34,41,58,082,34,49,32,274,,50,10,089,*79
$GLGSV,3,1,09,65,27,246,27,71,15,005,27,72,43,317,37,74,12,133,08*65
$GLGSV,3,2,09,75,16,182,26,84,11,142,,85,51,105,33,86,41,010,35*6D
$GLGSV,3,3,09,87,05,344,37*51
$GNGLL,0419.82331,S,05539.61984,E,123532.00,A,D*64
$GNRMC,123533.00,A,0419.82329,S,05539.61991,E,0.057,,200525,,,D*73
$GNVTG,,T,,M,0.057,N,0.106,K,D*3D
$GNGGA,123533.00,0419.82329,S,05539.61991,E,2,12,0.68,5.4,M,-47.6,M,,0000*7F
$GNGSA,A,3,32,18,10,28,26,16,27,31,40,08,,,1.32,0.68,1.14*1D
$GNGSA,A,3,85,72,71,75,86,65,,,,,,,1.32,0.68,1.14*17
$GPGSV,4,1,16,08,10,316,32,10,15,006,34,16,25,237,33,18,33,090,20*77
$GPGSV,4,2,16,23,02,044,28,26,28,206,39,27,46,304,38,28,51,145,32*75
$GPGSV,4,3,16,29,10,148,,31,37,184,40,32,54,360,38,36,52,277,38*74
$GPGSV,4,4,16,40,84,353,36,41,58,082,35,49,32,274,,50,10,089,*7A
$GLGSV,3,1,09,65,27,246,28,71,15,005,29,72,43,317,37,74,12,133,05*69
$GLGSV,3,2,09,75,16,182,27,84,11,142,,85,51,105,32,86,41,010,34*6C
$GLGSV,3,3,09,87,05,344,34*52
$GNGLL,0419.82329,S,05539.61991,E,123533.00,A,D*68
$GNRMC,123534.00,A,0419.82329,S,05539.61992,E,0.059,,200525,,,D*79
$GNVTG,,T,,M,0.059,N,0.110,K,D*34
$GNGGA,123534.00,0419.82329,S,05539.61992,E,2,12,0.68,5.3,M,-47.6,M,,0000*7C
$GNGSA,A,3,32,18,10,28,26,16,27,31,40,08,,,1.32,0.68,1.14*1D
$GNGSA,A,3,85,72,71,75,86,65,,,,,,,1.32,0.68,1.14*17
$GPGSV,4,1,16,08,10,316,30,10,15,006,24,16,25,237,32,18,33,090,20*75
$GPGSV,4,2,16,23,02,044,26,26,28,206,37,27,46,304,37,28,52,144,32*78
$GPGSV,4,3,16,29,10,148,,31,37,184,39,32,54,360,36,36,52,277,38*74
$GPGSV,4,4,16,40,84,353,36,41,58,082,34,49,32,274,,50,10,089,*7B
$GLGSV,3,1,09,65,27,246,28,71,15,005,29,72,43,317,37,74,12,133,08*64
$GLGSV,3,2,09,75,16,182,27,84,11,142,,85,51,105,32,86,41,010,34*6C
$GLGSV,3,3,09,87,05,344,35*53
$GNGLL,0419.82329,S,05539.61992,E,123534.00,A,D*6C
$GNRMC,123535.00,A,0419.82330,S,05539.61995,E,0.035,,200525,,,D*7D
$GNVTG,,T,,M,0.035,N,0.064,K,D*3C
$GNGGA,123535.00,0419.82330,S,05539.61995,E,2,12,0.68,5.2,M,-47.6,M,,0000*73
$GNGSA,A,3,32,18,10,28,26,16,27,31,40,08,,,1.32,0.68,1.14*1D
$GNGSA,A,3,85,72,71,75,86,65,,,,,,,1.32,0.68,1.14*17
$GPGSV,4,1,16,08,10,316,22,10,15,006,35,16,25,237,32,18,33,090,20*76
$GPGSV,4,2,16,23,02,044,26,26,28,206,38,27,46,304,36,28,52,144,32*76
$GPGSV,4,3,16,29,10,148,,31,37,184,39,32,54,360,37,36,52,277,38*75
$GPGSV,4,4,16,40,84,353,36,41,58,082,34,49,32,274,,50,10,089,*7B
$GLGSV,3,1,09,65,27,246,28,71,15,005,19,72,43,317,37,74,12,133,05*6A
$GLGSV,3,2,09,75,16,182,27,84,11,142,,85,51,105,31,86,41,010,33*68
$GLGSV,3,3,09,87,05,344,35*53
$GNGLL,0419.82330,S,05539.61995,E,123535.00,A,D*62
$GNRMC,123536.00,A,0419.82326,S,05539.62000,E,0.136,,200525,,,D*7D
$GNVTG,,T,,M,0.136,N,0.252,K,D*39
$GNGGA,123536.00,0419.82326,S,05539.62000,E,2,12,0.68,4.9,M,-47.6,M,,0000*7B
$GNGSA,A,3,32,18,10,28,26,16,27,31,40,08,,,1.32,0.68,1.14*1D
$GNGSA,A,3,85,72,71,75,86,65,,,,,,,1.32,0.68,1.14*17
$GPGSV,4,1,16,08,10,316,20,10,15,006,31,16,25,237,33,18,33,090,21*70
$GPGSV,4,2,16,23,02,044,27,26,28,206,36,27,46,304,40,28,52,144,33*79
$GPGSV,4,3,16,29,10,148,,31,37,184,39,32,54,360,37,36,52,277,38*75
$GPGSV,4,4,16,40,84,353,36,41,58,082,35,49,32,274,,50,10,089,*7A
$GLGSV,3,1,09,65,27,246,29,71,15,005,21,72,43,317,37,74,12,133,08*6D
$GLGSV,3,2,09,75,16,182,27,84,11,142,,85,51,105,31,86,41,010,34*6F
$GLGSV,3,3,09,87,05,344,36*50
$GNGLL,0419.82326,S,05539.62000,E,123536.00,A,D*60
$GNRMC,123537.00,A,0419.82324,S,05539.62004,E,0.071,,200525,,,D*78
$GNVTG,,T,,M,0.071,N,0.132,K,D*3E
$GNGGA,123537.00,0419.82324,S,05539.62004,E,2,12,0.68,4.7,M,-47.6,M,,0000*72
$GNGSA,A,3,32,18,10,28,26,16,27,31,40,08,,,1.32,0.68,1.14*1D
$GNGSA,A,3,85,72,71,75,86,65,,,,,,,1.32,0.68,1.14*17
$GPGSV,4,1,16,08,10,316,33,10,15,006,29,16,25,237,34,18,33,090,21*7C
$GPGSV,4,2,16,23,02,044,26,26,28,206,38,27,46,304,40,28,52,144,33*76
$GPGSV,4,3,16,29,10,148,,31,37,183,40,32,54,360,37,36,52,277,39*7D
$GPGSV,4,4,16,40,84,353,36,41,58,082,34,49,32,274,,50,10,089,*7B
$GLGSV,3,1,09,65,27,246,29,71,15,005,21,72,43,317,37,74,12,133,09*6C
$GLGSV,3,2,09,75,16,182,27,84,11,142,,85,51,105,32,86,41,010,31*69
$GLGSV,3,3,09,87,05,344,32*54
$GNGLL,0419.82324,S,05539.62004,E,123537.00,A,D*67
$GNRMC,123538.00,A,0419.82324,S,05539.62011,E,0.160,,200525,,,D*72
$GNVTG,,T,,M,0.160,N,0.296,K,D*32
$GNGGA,123538.00,0419.82324,S,05539.62011,E,2,12,0.68,4.7,M,-47.6,M,,0000*79
$GNGSA,A,3,32,18,10,28,26,16,27,31,40,08,,,1.32,0.68,1.14*1D
$GNGSA,A,3,85,72,71,75,86,65,,,,,,,1.32,0.68,1.14*17
$GPGSV,4,1,16,08,10,316,36,10,15,006,30,16,25,237,34,18,33,090,22*72
$GPGSV,4,2,16,23,02,044,26,26,28,206,38,27,46,304,36,28,52,144,34*70
$GPGSV,4,3,16,29,10,148,,31,37,183,39,32,53,000,37,36,52,277,37*7F
$GPGSV,4,4,16,40,84,353,38,41,58,082,35,49,32,274,,50,10,089,*74
$GLGSV,3,1,09,65,27,246,30,71,15,005,22,72,43,317,37,74,12,133,07*69
$GLGSV,3,2,09,75,16,182,26,84,11,142,,85,51,105,32,86,41,010,31*68
$GLGSV,3,3,09,87,05,344,26*51
$GNGLL,0419.82324,S,05539.62011,E,123538.00,A,D*6C
$GNRMC,123539.00,A,0419.82324,S,05539.62016,E,0.125,,200525,,,D*75
$GNVTG,,T,,M,0.125,N,0.232,K,D*3D
$GNGGA,123539.00,0419.82324,S,05539.62016,E,2,12,0.68,4.7,M,-47.6,M,,0000*7F
$GNGSA,A,3,32,18,10,28,26,16,27,31,40,08,,,1.32,0.68,1.14*1D
$GNGSA,A,3,85,72,71,75,86,65,,,,,,,1.32,0.68,1.14*17
$GPGSV,4,1,16,08,10,316,34,10,15,006,37,16,25,237,26,18,33,090,22*74
$GPGSV,4,2,16,23,02,044,24,26,28,206,35,27,46,304,37,28,52,144,29*72
$GPGSV,4,3,16,29,10,148,,31,37,183,37,32,53,000,34,36,52,277,38*7D
$GPGSV,4,4,16,40,84,353,33,41,58,082,31,49,32,274,,50,10,089,*7B
$GLGSV,3,1,09,65,27,246,31,71,15,005,33,72,43,317,34,74,12,133,07*6B
$GLGSV,3,2,09,75,16,182,25,84,11,142,,85,51,105,30,86,41,010,33*6B
$GLGSV,3,3,09,87,05,344,32*54
$GNGLL,0419.82324,S,05539.62016,E,123539.00,A,D*6A
$GNRMC,123540.00,A,0419.82322,S,05539.62021,E,0.062,,200525,,,D*7B
$GNVTG,,T,,M,0.062,N,0.114,K,D*38
$GNGGA,123540.00,0419.82322,S,05539.62021,E,2,12,0.68,4.5,M,-47.6,M,,0000*71
$GNGSA,A,3,32,18,10,28,26,16,27,31,40,08,,,1.32,0.68,1.14*1D
$GNGSA,A,3,85,72,71,75,86,65,,,,,,,1.32,0.68,1.14*17
$GPGSV,4,1,16,08,10,316,33,10,15,006,29,16,25,237,30,18,33,090,22*7B
$GPGSV,4,2,16,23,02,044,24,26,28,206,35,27,46,304,36,28,52,144,30*7B
$GPGSV,4,3,16,29,10,148,,31,37,183,37,32,53,000,37,36,52,277,38*7E
$GPGSV,4,4,16,40,84,353,37,41,58,082,35,49,32,274,,50,10,089,*7B
$GLGSV,3,1,09,65,27,246,30,71,15,005,29,72,43,317,37,74,12,133,08*6D
$GLGSV,3,2,09,75,16,182,25,84,11,142,,85,51,105,31,86,41,010,35*6C
$GLGSV,3,3,09,87,05,344,32*54
$GNGLL,0419.82322,S,05539.62021,E,123540.00,A,D*66
$GNRMC,123541.00,A,0419.82321,S,05539.62026,E,0.086,,200525,,,D*74
$GNVTG,,T,,M,0.086,N,0.159,K,D*3B
$GNGGA,123541.00,0419.82321,S,05539.62026,E,2,12,0.68,4.4,M,-47.6,M,,0000*75
$GNGSA,A,3,32,18,10,28,26,16,27,31,40,08,,,1.32,0.68,1.14*1D
$GNGSA,A,3,85,72,71,75,86,65,,,,,,,1.32,0.68,1.14*17
$GPGSV,4,1,16,08,10,316,33,10,15,006,20,16,25,237,30,18,33,090,22*72
$GPGSV,4,2,16,23,02,044,23,26,28,206,36,27,46,304,36,28,52,144,31*7E
$GPGSV,4,3,16,29,10,148,,31,37,183,38,32,53,000,34,36,52,277,38*72
$GPGSV,4,4,16,40,84,353,38,41,58,082,34,49,32,274,,50,10,089,*75
$GLGSV,3,1,09,65,27,246,31,71,15,005,19,72,43,317,37,74,12,133,09*6E
$GLGSV,3,2,09,75,16,182,25,84,11,142,,85,51,105,31,86,41,010,32*6B
$GLGSV,3,3,09,87,05,344,31*57
$GNGLL,0419.82321,S,05539.62026,E,123541.00,A,D*63
$GNRMC,123542.00,A,0419.82321,S,05539.62034,E,0.124,,200525,,,D*7D
$GNVTG,,T,,M,0.124,N,0.230,K,D*3E
$GNGGA,123542.00,0419.82321,S,05539.62034,E,2,12,0.68,4.3,M,-47.6,M,,0000*72
$GNGSA,A,3,32,18,10,28,26,16,27,31,40,08,,,1.32,0.68,1.14*1D
$GNGSA,A,3,85,72,71,75,86,65,,,,,,,1.32,0.68,1.14*17
$GPGSV,4,1,16,08,10,316,27,10,15,006,28,16,25,237,29,18,33,090,23*76
$GPGSV,4,2,16,23,02,044,29,26,28,206,38,27,46,304,29,28,52,144,31*74
$GPGSV,4,3,16,29,10,148,,31,37,183,40,32,53,000,37,36,52,277,39*7F
$GPGSV,4,4,16,40,84,353,37,41,58,082,33,49,32,274,,50,10,089,*7D
$GLGSV,3,1,09,65,27,246,30,71,15,005,20,72,43,317,37,74,12,133,06*6A
$GLGSV,3,2,09,75,16,182,25,84,11,142,,85,51,105,32,86,41,010,33*69
$GLGSV,3,3,09,87,05,344,36*50
$GNGLL,0419.82321,S,05539.62034,E,123542.00,A,D*63
$GNRMC,123543.00,A,0419.82321,S,05539.62037,E,0.041,,200525,,,D*7D
$GNVTG,,T,,M,0.041,N,0.076,K,D*3C
$GNGGA,123543.00,0419.82321,S,05539.62037,E,2,12,0.68,4.4,M,-47.6,M,,0000*77
$GNGSA,A,3,32,18,10,28,26,16,27,31,40,08,,,1.32,0.68,1.14*1D
$GNGSA,A,3,85,72,71,75,86,65,,,,,,,1.32,0.68,1.14*17
$GPGSV,4,1,16,08,10,316,32,10,15,006,27,16,25,237,28,18,33,090,23*7C
$GPGSV,4,2,16,23,02,044,31,26,28,206,38,27,46,304,28,28,52,144,30*7D
$GPGSV,4,3,16,29,10,148,,31,37,183,40,32,53,000,36,36,52,277,39*7E
$GPGSV,4,4,16,40,84,353,36,41,58,082,32,49,32,274,,50,10,089,*7D
$GLGSV,3,1,09,65,27,246,30,71,15,005,21,72,43,317,36,74,12,133,08*64
$GLGSV,3,2,09,75,16,182,25,84,11,142,,85,51,105,33,86,41,010,33*68
$GLGSV,3,3,09,87,05,344,34*52
$GNGLL,0419.82321,S,05539.62037,E,123543.00,A,D*61
$GNRMC,123544.00,A,0419.82322,S,05539.62040,E,0.067,,200525,,,D*7D
$GNVTG,,T,,M,0.067,N,0.123,K,D*39
$GNGGA,123544.00,0419.82322,S,05539.62040,E,2,12,0.68,4.5,M,-47.6,M,,0000*72
$GNGSA,A,3,32,18,10,28,26,16,27,31,40,08,,,1.32,0.68,1.14*1D
$GNGSA,A,3,85,72,71,75,86,65,,,,,,,1.32,0.68,1.14*17
$GPGSV,4,1,16,08,10,316,34,10,15,006,24,16,25,237,27,18,33,090,23*76
$GPGSV,4,2,16,23,02,044,29,26,28,206,38,27,46,304,38,28,52,144,31*74
$GPGSV,4,3,16,29,10,148,,31,37,183,39,32,53,000,30,36,52,277,38*77
$GPGSV,4,4,16,40,84,353,39,41,58,082,32,49,32,274,,50,10,089,*72
$GLGSV,3,1,09,65,27,246,32,71,15,005,26,72,43,317,38,74,12,133,10*66
$GLGSV,3,2,09,75,16,182,26,84,11,142,,85,51,105,34,86,41,010,34*6B
$GLGSV,3,3,09,87,05,344,34*52
$GNGLL,0419.82322,S,05539.62040,E,123544.00,A,D*65
$GNRMC,123545.00,A,0419.82320,S,05539.62034,E,0.098,,200525,,,D*7D
$GNVTG,,T,,M,0.098,N,0.181,K,D*31
$GNGGA,123545.00,0419.82320,S,05539.62034,E,2,12,0.68,4.6,M,-47.6,M,,0000*71
$GNGSA,A,3,32,18,10,28,26,16,27,31,40,08,,,1.32,0.68,1.14*1D
$GNGSA,A,3,85,72,71,75,86,65,,,,,,,1.32,0.68,1.14*17
$GPGSV,4,1,16,08,10,316,37,10,15,006,31,16,25,237,33,18,33,090,25*72
$GPGSV,4,2,16,23,02,044,31,26,28,206,40,27,46,304,35,28,52,144,32*7C
$GPGSV,4,3,16,29,10,148,,31,37,183,41,32,53,000,36,36,52,277,40*71
$GPGSV,4,4,16,40,84,353,38,41,58,082,31,49,32,274,,50,10,089,*70
$GLGSV,3,1,09,65,27,246,34,71,15,005,27,72,43,317,35,74,12,133,10*6C
$GLGSV,3,2,09,75,16,182,26,84,11,142,,85,51,105,35,86,41,010,32*6C
$GLGSV,3,3,09,87,05,344,35*53
$GNGLL,0419.82320,S,05539.62034,E,123545.00,A,D*65
$GNRMC,123546.00,A,0419.82320,S,05539.62035,E,0.013,,200525,,,D*7C
$GNVTG,,T,,M,0.013,N,0.025,K,D*3D
$GNGGA,123546.00,0419.82320,S,05539.62035,E,2,12,0.68,4.5,M,-47.6,M,,0000*70
$GNGSA,A,3,32,18,10,28,26,16,27,31,40,08,,,1.32,0.68,1.14*1D
$GNGSA,A,3,85,72,71,75,86,65,,,,,,,1.32,0.68,1.14*17
$GPGSV,4,1,16,08,10,316,36,10,15,006,23,16,25,237,32,18,33,090,29*7D
$GPGSV,4,2,16,23,02,044,32,26,28,206,41,27,46,304,37,28,52,144,34*7A
$GPGSV,4,3,16,29,10,148,,31,37,183,41,32,53,000,33,36,52,277,39*7A
$GPGSV,4,4,16,40,84,353,39,41,58,082,32,49,32,274,,50,10,089,*72
$GLGSV,3,1,09,65,27,246,35,71,15,005,25,72,43,317,37,74,12,133,10*6D
$GLGSV,3,2,09,75,16,182,26,84,11,142,,85,51,105,34,86,41,010,33*6C
$GLGSV,3,3,09,87,05,344,34*52
$GNGLL,0419.82320,S,05539.62035,E,123546.00,A,D*67
$GNRMC,123547.00,A,0419.82321,S,05539.62029,E,0.098,,200525,,,D*72
$GNVTG,,T,,M,0.098,N,0.182,K,D*32
$GNGGA,123547.00,0419.82321,S,05539.62029,E,2,12,0.68,4.5,M,-47.6,M,,0000*7D
$GNGSA,A,3,32,18,10,28,26,16,27,31,40,08,,,1.32,0.68,1.14*1D
$GNGSA,A,3,85,72,71,75,86,74,65,,,,,,1.32,0.68,1.14*14
$GPGSV,4,1,16,08,10,316,40,10,15,006,30,16,25,237,31,18,33,090,27*73
$GPGSV,4,2,16,23,02,044,31,26,28,206,39,27,46,304,37,28,52,144,34*76
$GPGSV,4,3,16,29,10,148,,31,37,183,41,32,53,000,35,36,52,277,38*7D
$GPGSV,4,4,16,40,84,353,39,41,58,082,32,49,32,274,,50,10,089,*72
$GLGSV,3,1,09,65,27,246,34,71,15,005,25,72,43,317,37,74,12,133,07*6A
$GLGSV,3,2,09,75,16,182,26,84,11,142,,85,51,105,34,86,41,010,34*6B
$GLGSV,3,3,09,87,05,344,35*53
$GNGLL,0419.82321,S,05539.62029,E,123547.00,A,D*6A
$GNRMC,123548.00,A,0419.82320,S,05539.62027,E,0.065,,200525,,,D*70
$GNVTG,,T,,M,0.065,N,0.121,K,D*39
$GNGGA,123548.00,0419.82320,S,05539.62027,E,2,12,0.62,4.6,M,-47.6,M,,0000*74
$GNGSA,A,3,32,18,10,28,26,16,27,31,40,08,,,1.20,0.62,1.03*12
$GNGSA,A,3,85,72,71,75,86,74,65,,,,,,1.20,0.62,1.03*1B
$GPGSV,4,1,16,08,10,316,40,10,15,006,29,16,25,237,29,18,33,090,25*70
$GPGSV,4,2,16,23,02,044,32,26,28,206,39,27,46,304,35,28,52,144,33*70
$GPGSV,4,3,16,29,10,148,,31,37,183,41,32,53,000,35,36,52,277,39*7C
$GPGSV,4,4,16,40,84,353,37,41,58,082,32,49,32,274,,50,10,089,*7C
$GLGSV,3,1,09,65,27,246,32,71,15,005,23,72,43,317,35,74,12,133,09*66
$GLGSV,3,2,09,75,16,182,25,84,11,142,,85,51,105,35,86,41,010,34*69
$GLGSV,3,3,09,87,05,344,36*50
$GNGLL,0419.82320,S,05539.62027,E,123548.00,A,D*6A
$GNRMC,123549.00,A,0419.82320,S,05539.62025,E,0.070,,200525,,,D*77
$GNVTG,,T,,M,0.070,N,0.129,K,D*35
$GNGGA,123549.00,0419.82320,S,05539.62025,E,2,12,0.62,4.6,M,-47.6,M,,0000*77
$GNGSA,A,3,32,18,10,28,26,16,27,31,40,08,,,1.20,0.62,1.03*12
$GNGSA,A,3,85,72,71,75,86,74,65,,,,,,1.20,0.62,1.03*1B
$GPGSV,4,1,16,08,10,316,36,10,15,006,22,16,25,237,29,18,33,090,25*7A
$GPGSV,4,2,16,23,02,044,27,26,28,206,39,27,46,304,36,28,52,144,33*77
$GPGSV,4,3,16,29,10,148,,31,37,183,39,32,53,000,27,36,52,277,37*7E
$GPGSV,4,4,16,40,84,353,39,41,58,082,32,49,32,274,,50,10,089,*72
$GLGSV,3,1,09,65,27,246,32,71,15,005,30,72,43,317,36,74,12,133,08*66
$GLGSV,3,2,09,75,16,182,26,84,11,142,,85,51,105,34,86,41,010,34*6B
$GLGSV,3,3,09,87,05,344,35*53
$GNGLL,0419.82320,S,05539.62025,E,123549.00,A,D*69
$GNRMC,123550.00,A,0419.82317,S,05539.62024,E,0.003,,200525,,,D*7E
$GNVTG,,T,,M,0.003,N,0.005,K,D*3E
$GNGGA,123550.00,0419.82317,S,05539.62024,E,2,12,0.67,4.4,M,-47.6,M,,0000*7D
$GNGSA,A,3,32,18,10,28,26,16,27,31,40,08,,,1.24,0.67,1.04*14
$GNGSA,A,3,85,72,71,75,86,65,87,,,,,,1.24,0.67,1.04*11
$GPGSV,4,1,16,08,10,316,36,10,15,006,30,16,25,237,29,18,33,090,24*78
$GPGSV,4,2,16,23,02,044,32,26,28,206,39,27,46,304,33,28,52,144,32*77
$GPGSV,4,3,16,29,10,148,,31,37,183,40,32,53,000,35,36,52,277,38*7C
$GPGSV,4,4,16,40,84,353,37,41,58,082,31,49,32,274,,50,10,089,*7F
$GLGSV,3,1,09,65,27,246,33,71,15,005,28,72,43,317,36,74,12,133,13*64
$GLGSV,3,2,09,75,16,182,25,84,11,142,,85,51,105,34,86,41,010,34*68
$GLGSV,3,3,09,87,05,344,37*51
$GNGLL,0419.82317,S,05539.62024,E,123550.00,A,D*64
$GNRMC,123551.00,A,0419.82314,S,05539.62025,E,0.034,,200525,,,D*79
$GNVTG,,T,,M,0.034,N,0.063,K,D*3A
$GNGGA,123551.00,0419.82314,S,05539.62025,E,2,12,0.67,4.0,M,-47.6,M,,0000*7A
$GNGSA,A,3,32,18,10,28,26,16,27,31,40,08,,,1.24,0.67,1.04*14
$GNGSA,A,3,85,72,71,75,86,65,87,,,,,,1.24,0.67,1.04*11
$GPGSV,4,1,16,08,10,316,33,10,15,006,31,16,25,237,29,18,33,090,23*7B
$GPGSV,4,2,16,23,02,044,31,26,28,206,38,27,46,304,35,28,52,144,32*73
$GPGSV,4,3,16,29,10,148,,31,37,183,39,32,53,000,35,36,52,277,38*72
$GPGSV,4,4,16,40,84,353,37,41,58,082,31,49,32,274,,50,10,089,*7F
$GLGSV,3,1,09,65,27,246,34,71,15,005,29,72,43,317,36,74,12,133,08*68
$GLGSV,3,2,09,75,16,182,25,84,11,142,,85,51,105,34,86,41,010,34*68
$GLGSV,3,3,09,87,05,344,37*51
$GNGLL,0419.82314,S,05539.62025,E,123551.00,A,D*67
$GNRMC,123552.00,A,0419.82313,S,05539.62028,E,0.055,,200525,,,D*77
$GNVTG,,T,,M,0.055,N,0.103,K,D*3A
$GNGGA,123552.00,0419.82313,S,05539.62028,E,2,12,0.67,3.8,M,-47.6,M,,0000*7C
$GNGSA,A,3,32,18,10,28,26,16,27,31,40,08,,,1.24,0.67,1.04*14
$GNGSA,A,3,85,72,71,75,86,65,87,,,,,,1.24,0.67,1.04*11
$GPGSV,4,1,16,08,10,316,32,10,15,006,35,16,25,237,30,18,33,090,22*77
$GPGSV,4,2,16,23,02,044,30,26,28,206,38,27,46,304,35,28,52,144,32*72
$GPGSV,4,3,16,29,10,148,,31,37,183,39,32,53,000,31,36,52,277,38*76
$GPGSV,4,4,16,40,84,353,38,41,58,082,32,49,32,274,,50,10,089,*73
$GLGSV,3,1,09,65,27,246,29,71,15,005,31,72,43,317,36,74,12,133,09*6C
$GLGSV,3,2,09,75,16,182,24,84,11,142,,85,51,105,34,86,41,010,33*6E
$GLGSV,3,3,09,87,05,344,37*51
$GNGLL,0419.82313,S,05539.62028,E,123552.00,A,D*6E
$GNRMC,123553.00,A,0419.82308,S,05539.62035,E,0.148,,200525,,,D*7D
$GNVTG,,T,,M,0.148,N,0.274,K,D*34
$GNGGA,123553.00,0419.82308,S,05539.62035,E,2,12,0.67,3.5,M,-47.6,M,,0000*76
$GNGSA,A,3,32,18,10,28,26,16,27,31,40,08,,,1.24,0.67,1.04*14
$GNGSA,A,3,85,72,71,75,86,74,65,87,,,,,1.24,0.67,1.04*12
$GPGSV,4,1,16,08,10,316,27,10,15,006,28,16,25,237,30,18,33,090,23*7E
$GPGSV,4,2,16,23,02,044,30,26,28,206,40,27,46,304,37,28,52,144,32*7F
$GPGSV,4,3,16,29,10,148,,31,37,183,40,32,53,000,30,36,52,277,38*79
$GPGSV,4,4,16,40,84,353,39,41,58,082,32,49,32,274,,50,10,089,*72
$GLGSV,3,1,09,65,27,246,33,71,15,005,23,72,43,317,36,74,12,133,09*64
$GLGSV,3,2,09,75,16,182,24,84,11,142,,85,51,105,34,86,41,010,34*69
$GLGSV,3,3,09,87,05,344,36*50
$GNGLL,0419.82308,S,05539.62035,E,123553.00,A,D*69
$GNRMC,123554.00,A,0419.82305,S,05539.62039,E,0.073,,200525,,,D*72
$GNVTG,,T,,M,0.073,N,0.135,K,D*3B
$GNGGA,123554.00,0419.82305,S,05539.62039,E,2,12,0.61,3.4,M,-47.6,M,,0000*77
$GNGSA,A,3,32,18,10,28,26,16,27,31,40,08,,,1.13,0.61,0.95*1F
$GNGSA,A,3,85,72,71,75,86,74,65,87,,,,,1.13,0.61,0.95*19
$GPGSV,4,1,16,08,10,316,38,10,15,006,34,16,25,237,33,18,33,090,22*7F
$GPGSV,4,2,16,23,02,044,33,26,28,206,39,27,46,304,32,28,52,144,31*74
$GPGSV,4,3,16,29,10,148,,31,37,183,40,32,53,000,37,36,52,277,40*71
$GPGSV,4,4,16,40,84,353,38,41,58,082,32,49,32,274,,50,10,089,*73
$GLGSV,3,1,09,65,27,246,32,71,15,005,27,72,43,317,36,74,12,133,11*68
$GLGSV,3,2,09,75,16,182,25,84,11,142,,85,51,105,34,86,41,010,33*6F
$GLGSV,3,3,09,87,05,344,33*55
$GNGLL,0419.82305,S,05539.62039,E,123554.00,A,D*6F
$GNRMC,123555.00,A,0419.82305,S,05539.62036,E,0.018,,200525,,,D*71
$GNVTG,,T,,M,0.018,N,0.034,K,D*36
$GNGGA,123555.00,0419.82305,S,05539.62036,E,2,12,0.61,3.4,M,-47.6,M,,0000*79
$GNGSA,A,3,32,18,10,28,26,16,27,31,40,08,,,1.13,0.61,0.95*1F
$GNGSA,A,3,85,72,71,75,86,74,65,87,,,,,1.13,0.61,0.95*19
$GPGSV,4,1,16,08,10,316,35,10,15,006,30,16,25,237,32,18,33,090,24*71
$GPGSV,4,2,16,23,02,044,30,26,28,206,38,27,46,304,37,28,52,144,31*73
$GPGSV,4,3,16,29,10,148,,31,37,183,39,32,53,000,30,36,52,277,38*77
$GPGSV,4,4,16,40,84,353,40,41,58,082,33,49,32,274,,50,10,089,*7D
$GLGSV,3,1,09,65,27,246,32,71,15,005,34,72,43,317,35,74,12,133,12*6A
$GLGSV,3,2,09,75,16,182,24,84,11,142,,85,51,105,34,86,41,010,33*6E
$GLGSV,3,3,09,87,05,344,30*56
$GNGLL,0419.82305,S,05539.62036,E,123555.00,A,D*61
$GNRMC,123556.00,A,0419.82304,S,05539.62037,E,0.109,,200525,,,D*73
$GNVTG,,T,,M,0.109,N,0.202,K,D*30
$GNGGA,123556.00,0419.82304,S,05539.62037,E,2,12,0.67,3.3,M,-47.6,M,,0000*7B
$GNGSA,A,3,32,18,10,28,26,16,27,31,40,08,,,1.24,0.67,1.04*14
$GNGSA,A,3,85,72,71,75,86,65,87,,,,,,1.24,0.67,1.04*11
$GPGSV,4,1,16,08,10,316,30,10,15,006,25,16,25,237,30,18,33,090,24*72
$GPGSV,4,2,16,23,02,044,28,26,28,206,38,27,46,304,39,28,52,144,31*74
$GPGSV,4,3,16,29,10,148,,31,37,183,37,32,53,000,28,36,52,277,38*70
$GPGSV,4,4,16,40,84,353,40,41,58,082,33,49,32,274,,50,10,089,*7D
$GLGSV,3,1,09,65,27,246,31,71,15,005,29,72,43,317,35,74,12,133,08*6E
$GLGSV,3,2,09,75,16,182,23,84,11,142,,85,51,105,33,86,41,010,32*6F
$GLGSV,3,3,09,87,05,344,30*56
$GNGLL,0419.82304,S,05539.62037,E,123556.00,A,D*62
$GNRMC,123557.00,A,0419.82303,S,05539.62040,E,0.064,,200525,,,D*7F
$GNVTG,,T,,M,0.064,N,0.118,K,D*32
$GNGGA,123557.00,0419.82303,S,05539.62040,E,2,12,0.67,3.2,M,-47.6,M,,0000*7C
$GNGSA,A,3,32,18,10,28,26,16,27,31,40,08,,,1.24,0.67,1.04*14
$GNGSA,A,3,85,72,71,75,86,65,87,,,,,,1.24,0.67,1.04*11
$GPGSV,4,1,16,08,10,316,34,10,15,006,31,16,25,237,34,18,33,090,24*77
$GPGSV,4,2,16,23,02,044,28,26,28,206,37,27,46,304,36,28,52,144,31*74
$GPGSV,4,3,16,29,10,148,,31,37,183,39,32,53,000,33,36,52,277,38*74
$GPGSV,4,4,16,40,84,353,39,41,58,082,30,49,32,274,,50,10,089,*70
$GLGSV,3,1,09,65,27,246,30,71,15,005,31,72,43,317,36,74,12,133,10*6C
$GLGSV,3,2,09,75,16,182,23,84,11,142,,85,51,105,33,86,41,010,33*6E
$GLGSV,3,3,09,87,05,344,34*52
$GNGLL,0419.82303,S,05539.62040,E,123557.00,A,D*64
$GNRMC,123558.00,A,0419.82304,S,05539.62035,E,0.088,,200525,,,D*77
$GNVTG,,T,,M,0.088,N,0.163,K,D*3C
$GNGGA,123558.00,0419.82304,S,05539.62035,E,2,12,0.67,3.4,M,-47.6,M,,0000*70
$GNGSA,A,3,32,18,10,28,26,16,27,31,40,08,,,1.24,0.67,1.04*14
$GNGSA,A,3,85,72,71,75,86,65,87,,,,,,1.24,0.67,1.04*11
$GPGSV,4,1,16,08,10,316,34,10,15,006,34,16,25,237,34,18,33,090,24*72
$GPGSV,4,2,16,23,02,044,32,26,28,206,37,27,46,304,34,28,52,144,30*7C
$GPGSV,4,3,16,29,10,148,,31,37,183,37,32,53,000,31,36,52,277,35*75
$GPGSV,4,4,16,40,84,353,38,41,58,082,30,49,32,274,,50,10,089,*71
$GLGSV,3,1,09,65,27,246,32,71,15,005,34,72,43,317,33,74,12,133,07*68
$GLGSV,3,2,09,75,16,182,23,84,11,142,,85,51,105,32,86,41,010,31*6D
$GLGSV,3,3,09,87,05,344,33*55
$GNGLL,0419.82304,S,05539.62035,E,123558.00,A,D*6E
$GNRMC,123559.00,A,0419.82306,S,05539.62034,E,0.048,,200525,,,D*79
$GNVTG,,T,,M,0.048,N,0.090,K,D*3D
$GNGGA,123559.00,0419.82306,S,05539.62034,E,2,12,0.67,3.5,M,-47.6,M,,0000*73
$GNGSA,A,3,32,18,10,28,26,16,27,31,40,08,,,1.24,0.67,1.04*14
$GNGSA,A,3,85,72,71,75,86,65,87,,,,,,1.24,0.67,1.04*11
$GPGSV,4,1,16,08,10,316,34,10,15,006,34,16,25,237,34,18,33,090,24*72
$GPGSV,4,2,16,23,02,044,31,26,28,206,38,27,46,304,39,28,52,144,30*7D
$GPGSV,4,3,16,29,10,148,,31,37,183,39,32,53,000,25,36,52,277,37*7C
$GPGSV,4,4,16,40,84,353,40,41,58,082,34,49,32,274,,50,10,089,*7A
$GLGSV,3,1,09,65,27,247,32,71,15,005,33,72,43,317,35,74,12,133,07*68
$GLGSV,3,2,09,75,16,182,23,84,11,142,,85,51,105,30,86,41,010,35*6B
$GLGSV,3,3,09,87,05,344,33*55
$GNGLL,0419.82306,S,05539.62034,E,123559.00,A,D*6C
$GNRMC,123600.00,A,0419.82308,S,05539.62037,E,0.057,,200525,,,D*75
$GNVTG,,T,,M,0.057,N,0.105,K,D*3E
$GNGGA,123600.00,0419.82308,S,05539.62037,E,2,12,0.67,3.4,M,-47.6,M,,0000*70
$GNGSA,A,3,32,18,10,28,26,16,27,31,40,08,,,1.24,0.67,1.04*14
$GNGSA,A,3,85,72,71,75,86,65,87,,,,,,1.24,0.67,1.04*11
$GPGSV,4,1,16,08,10,316,32,10,15,006,31,16,25,237,34,18,33,090,24*71
$GPGSV,4,2,16,23,02,044,31,26,28,206,38,27,46,304,37,28,52,144,32*71
$GPGSV,4,3,16,29,10,148,,31,37,183,39,32,53,000,30,36,52,277,36*79
$GPGSV,4,4,16,40,84,353,40,41,58,082,32,49,32,274,,50,10,089,*7C
$GLGSV,3,1,09,65,27,247,33,71,15,005,33,72,43,317,35,74,12,133,09*67
$GLGSV,3,2,09,75,16,182,22,84,11,142,,85,51,105,30,86,41,010,33*6C
$GLGSV,3,3,09,87,05,344,33*55
$GNGLL,0419.82308,S,05539.62037,E,123600.00,A,D*6E
$GNRMC,123601.00,A,0419.82308,S,05539.62040,E,0.033,,200525,,,D*76
$GNVTG,,T,,M,0.033,N,0.062,K,D*3C
$GNGGA,123601.00,0419.82308,S,05539.62040,E,2,12,0.67,3.3,M,-47.6,M,,0000*76
$GNGSA,A,3,32,18,10,28,26,16,27,31,40,08,,,1.24,0.67,1.04*14
$GNGSA,A,3,85,72,71,75,86,65,87,,,,,,1.24,0.67,1.04*11
$GPGSV,4,1,16,08,10,316,35,10,15,006,24,16,25,237,33,18,33,090,25*74
$GPGSV,4,2,16,23,02,044,31,26,28,206,38,27,46,304,39,28,52,144,32*7F
$GPGSV,4,3,16,29,10,148,,31,37,183,37,32,53,000,30,36,52,277,37*76
$GPGSV,4,4,16,40,84,353,41,41,58,082,32,49,32,274,,50,10,089,*7D
$GLGSV,3,1,09,65,27,247,32,71,15,005,28,72,43,317,35,74,12,133,06*63
$GLGSV,3,2,09,75,16,182,22,84,11,142,,85,51,105,30,86,41,010,33*6C
$GLGSV,3,3,09,87,05,344,34*52
$GNGLL,0419.82308,S,05539.62040,E,123601.00,A,D*6F
$GNRMC,123602.00,A,0419.82306,S,05539.62043,E,0.057,,200525,,,D*7A
$GNVTG,,T,,M,0.057,N,0.105,K,D*3E
$GNGGA,123602.00,0419.82306,S,05539.62043,E,2,12,0.67,3.2,M,-47.6,M,,0000*79
$GNGSA,A,3,32,18,10,28,26,16,27,31,40,08,,,1.24,0.67,1.04*14
$GNGSA,A,3,85,72,71,75,86,65,87,,,,,,1.24,0.67,1.04*11
$GPGSV,4,1,16,08,10,316,34,10,15,006,32,16,25,237,34,18,33,090,25*75
$GPGSV,4,2,16,23,02,044,30,26,28,206,39,27,46,304,40,28,52,144,33*70
$GPGSV,4,3,16,29,10,148,,31,37,183,39,32,53,000,21,36,52,277,38*77
$GPGSV,4,4,16,40,84,353,42,41,58,082,33,49,32,274,,50,10,089,*7F
$GLGSV,3,1,09,65,27,247,32,71,15,005,28,72,43,317,34,74,12,133,07*63
$GLGSV,3,2,09,75,16,182,22,84,11,142,,85,51,105,30,86,41,010,32*6D
$GLGSV,3,3,09,87,05,344,33*55
$GNGLL,0419.82306,S,05539.62043,E,123602.00,A,D*61
$GNRMC,123603.00,A,0419.82306,S,05539.62046,E,0.022,,200525,,,D*7C
$GNVTG,,T,,M,0.022,N,0.040,K,D*3C
$GNGGA,123603.00,0419.82306,S,05539.62046,E,2,12,0.67,3.2,M,-47.6,M,,0000*7D
$GNGSA,A,3,32,18,10,28,26,16,27,31,40,08,,,1.24,0.67,1.04*14
$GNGSA,A,3,85,72,71,75,86,65,87,,,,,,1.24,0.67,1.04*11
$GPGSV,4,1,16,08,10,316,34,10,15,006,32,16,25,237,34,18,33,090,26*76
$GPGSV,4,2,16,23,02,044,29,26,28,206,39,27,46,304,40,28,52,144,33*78
$GPGSV,4,3,16,29,10,148,,31,37,183,39,32,53,000,20,36,52,277,37*79
$GPGSV,4,4,16,40,84,353,41,41,58,082,33,49,32,274,,50,10,089,*7C
$GLGSV,3,1,09,65,27,247,32,71,15,005,28,72,43,317,34,74,12,133,09*6D
$GLGSV,3,2,09,75,16,182,22,84,11,142,,85,51,105,30,86,41,010,32*6D
$GLGSV,3,3,09,87,05,344,33*55
$GNGLL,0419.82306,S,05539.62046,E,123603.00,A,D*65
$GNRMC,123604.00,A,0419.82305,S,05539.62046,E,0.033,,200525,,,D*78
$GNVTG,,T,,M,0.033,N,0.062,K,D*3C
$GNGGA,123604.00,0419.82305,S,05539.62046,E,2,12,0.67,3.1,M,-47.6,M,,0000*7A
$GNGSA,A,3,32,18,10,28,26,16,27,31,40,08,,,1.24,0.67,1.04*14
$GNGSA,A,3,85,72,71,75,86,65,87,,,,,,1.24,0.67,1.04*11
$GPGSV,4,1,16,08,10,316,33,10,15,006,32,16,25,237,34,18,33,090,25*72
$GPGSV,4,2,16,23,02,044,29,26,28,206,38,27,46,304,39,28,52,144,33*77
$GPGSV,4,3,16,29,10,148,,31,37,183,39,32,53,000,19,36,52,277,37*73
$GPGSV,4,4,16,40,84,353,40,41,58,082,33,49,32,274,,50,10,089,*7D
$GLGSV,3,1,09,65,27,247,32,71,15,005,29,72,43,317,34,74,12,133,08*6D
$GLGSV,3,2,09,75,16,182,22,84,11,142,,85,51,105,30,86,41,010,31*6E
$GLGSV,3,3,09,87,05,344,33*55
$GNGLL,0419.82305,S,05539.62046,E,123604.00,A,D*61
$GNRMC,123605.00,A,0419.82304,S,05539.62046,E,0.013,,200525,,,D*7A
$GNVTG,,T,,M,0.013,N,0.023,K,D*3B
$GNGGA,123605.00,0419.82304,S,05539.62046,E,2,12,0.67,2.9,M,-47.6,M,,0000*73
$GNGSA,A,3,32,18,10,28,26,16,27,31,40,08,,,1.24,0.67,1.04*14
$GNGSA,A,3,85,72,71,75,86,74,65,87,,,,,1.24,0.67,1.04*12
$GPGSV,4,1,16,08,10,316,33,10,15,006,33,16,25,237,34,18,33,090,25*73
$GPGSV,4,2,16,23,02,044,28,26,28,206,38,27,46,304,39,28,52,144,33*76
$GPGSV,4,3,16,29,10,148,,31,37,183,39,32,53,000,20,36,52,277,37*79
$GPGSV,4,4,16,40,84,353,41,41,58,082,32,49,32,274,,50,10,089,*7D
$GLGSV,3,1,09,65,27,247,33,71,14,005,28,72,43,317,34,74,12,133,10*65
$GLGSV,3,2,09,75,16,182,21,84,11,142,,85,51,105,30,86,41,010,31*6D
$GLGSV,3,3,09,87,05,344,33*55
$GNGLL,0419.82304,S,05539.62046,E,123605.00,A,D*61
$GNRMC,123606.00,A,0419.82303,S,05539.62048,E,0.064,,200525,,,D*70
$GNVTG,,T,,M,0.064,N,0.119,K,D*33
$GNGGA,123606.00,0419.82303,S,05539.62048,E,2,12,0.61,2.7,M,-47.6,M,,0000*71
$GNGSA,A,3,32,18,10,28,26,16,27,31,40,08,,,1.13,0.61,0.95*1F
$GNGSA,A,3,85,72,71,75,86,74,65,87,,,,,1.13,0.61,0.95*19
$GPGSV,4,1,16,08,10,316,33,10,15,006,31,16,25,237,36,18,33,090,25*73
$GPGSV,4,2,16,23,02,044,28,26,28,206,38,27,46,304,39,28,52,144,36*73
$GPGSV,4,3,16,29,10,148,,31,37,183,39,32,53,000,19,36,52,277,36*72
$GPGSV,4,4,16,40,84,353,41,41,58,082,32,49,32,274,,50,10,089,*7D
$GLGSV,3,1,09,65,27,247,33,71,14,005,30,72,43,317,34,74,12,133,09*64
$GLGSV,3,2,09,75,16,182,21,84,11,142,,85,51,105,30,86,41,010,31*6D
$GLGSV,3,3,09,87,05,344,33*55
$GNGLL,0419.82303,S,05539.62048,E,123606.00,A,D*6B
$GNRMC,123607.00,A,0419.82302,S,05539.62047,E,0.014,,200525,,,D*78
$GNVTG,,T,,M,0.014,N,0.025,K,D*3A
$GNGGA,123607.00,0419.82302,S,05539.62047,E,2,12,0.61,2.6,M,-47.6,M,,0000*7F
$GNGSA,A,3,32,18,10,28,26,16,27,31,40,08,,,1.13,0.61,0.95*1F
$GNGSA,A,3,85,72,71,75,86,74,65,87,,,,,1.13,0.61,0.95*19
$GPGSV,4,1,16,08,10,316,33,10,15,006,34,16,25,237,33,18,33,090,25*73
$GPGSV,4,2,16,23,02,044,28,26,28,206,38,27,46,304,39,28,52,144,35*70
$GPGSV,4,3,16,29,10,148,,31,37,183,39,32,53,000,19,36,52,277,38*7C
$GPGSV,4,4,16,40,84,353,42,41,58,082,32,49,32,274,,50,10,089,*7E
$GLGSV,3,1,09,65,27,247,32,71,14,005,29,72,43,317,34,74,12,133,07*63
$GLGSV,3,2,09,75,16,182,20,84,11,142,,85,51,105,31,86,41,010,31*6D
$GLGSV,3,3,09,87,05,344,34*52
$GNGLL,0419.82302,S,05539.62047,E,123607.00,A,D*64
$GNRMC,123608.00,A,0419.82301,S,05539.62049,E,0.079,,200525,,,D*71
$GNVTG,,T,,M,0.079,N,0.145,K,D*36
$GNGGA,123608.00,0419.82301,S,05539.62049,E,2,12,0.67,2.4,M,-47.6,M,,0000*79
$GNGSA,A,3,32,18,10,28,26,16,27,31,40,08,,,1.24,0.67,1.04*14
$GNGSA,A,3,85,72,71,75,86,65,87,,,,,,1.24,0.67,1.04*11
$GPGSV,4,1,16,08,10,316,31,10,15,006,35,16,25,237,33,18,33,090,25*70
$GPGSV,4,2,16,23,02,044,28,26,28,206,38,27,46,304,38,28,52,144,34*70
$GPGSV,4,3,16,29,10,148,,31,37,183,38,32,53,000,18,36,52,277,36*72
$GPGSV,4,4,16,40,84,353,40,41,58,082,33,49,32,274,,50,10,089,*7D
$GLGSV,3,1,09,65,27,247,32,71,14,005,30,72,43,317,34,74,12,132,07*6A
$GLGSV,3,2,09,75,16,182,21,84,11,142,,85,51,105,31,86,41,010,30*6D
$GLGSV,3,3,09,87,05,344,34*52
$GNGLL,0419.82301,S,05539.62049,E,123608.00,A,D*66
$GNRMC,123609.00,A,0419.82300,S,05539.62052,E,0.072,,200525,,,D*70
$GNVTG,,T,,M,0.072,N,0.133,K,D*3C
$GNGGA,123609.00,0419.82300,S,05539.62052,E,2,12,0.67,2.3,M,-47.6,M,,0000*74
$GNGSA,A,3,32,18,10,28,26,16,27,31,40,08,,,1.24,0.67,1.04*14
$GNGSA,A,3,85,72,71,75,86,65,87,,,,,,1.24,0.67,1.04*11
$GPGSV,4,1,16,08,10,316,29,10,15,006,32,16,25,237,33,18,33,090,25*7E
$GPGSV,4,2,16,23,02,044,27,26,28,206,38,27,46,304,39,28,52,144,34*7E
$GPGSV,4,3,16,29,10,148,,31,37,183,38,32,53,000,20,36,52,277,36*79
$GPGSV,4,4,16,40,84,353,41,41,58,082,32,49,32,274,,50,10,089,*7D
$GLGSV,3,1,09,65,27,247,33,71,14,005,35,72,43,317,34,74,12,132,08*61
$GLGSV,3,2,09,75,16,182,21,84,11,142,,85,51,105,31,86,41,010,31*6C
$GLGSV,3,3,09,87,05,344,35*53
$GNGLL,0419.82300,S,05539.62052,E,123609.00,A,D*6C
$GNRMC,123610.00,A,0419.82298,S,05539.62052,E,0.005,,200525,,,D*78
$GNVTG,,T,,M,0.005,N,0.009,K,D*34
$GNGGA,123610.00,0419.82298,S,05539.62052,E,2,12,0.67,2.3,M,-47.6,M,,0000*7C
$GNGSA,A,3,32,18,10,28,26,16,27,31,40,08,,,1.24,0.67,1.04*14
$GNGSA,A,3,85,72,71,75,86,65,87,,,,,,1.24,0.67,1.04*11
$GPGSV,4,1,16,08,10,316,22,10,15,006,25,16,25,237,34,18,33,090,25*74
$GPGSV,4,2,16,23,02,044,28,26,28,206,38,27,46,304,40,28,52,144,34*7F
$GPGSV,4,3,16,29,10,148,,31,37,183,40,32,53,000,23,36,52,277,38*7B
$GPGSV,4,4,16,40,84,353,42,41,58,082,32,49,32,274,,50,10,089,*7E
$GLGSV,3,1,09,65,27,247,31,71,14,005,26,72,43,317,34,74,12,132,07*6E
$GLGSV,3,2,09,75,16,182,21,84,11,142,,85,51,105,30,86,41,010,32*6E
$GLGSV,3,3,09,87,05,344,34*52
$GNGLL,0419.82298,S,05539.62052,E,123610.00,A,D*64
$GNRMC,123611.00,A,0419.82298,S,05539.62047,E,0.022,,200525,,,D*78
$GNVTG,,T,,M,0.022,N,0.041,K,D*3D
$GNGGA,123611.00,0419.82298,S,05539.62047,E,2,12,0.67,2.3,M,-47.6,M,,0000*79
$GNGSA,A,3,32,18,10,28,26,16,27,31,40,08,,,1.24,0.67,1.04*14
$GNGSA,A,3,85,72,71,75,86,65,87,,,,,,1.24,0.67,1.04*11
$GPGSV,4,1,16,08,10,316,34,10,15,006,36,16,25,237,35,18,33,090,26*73
$GPGSV,4,2,16,23,02,044,28,26,28,206,39,27,46,304,40,28,52,144,34*7E
$GPGSV,4,3,16,29,10,148,,31,37,183,40,32,53,000,25,36,52,277,38*7D
$GPGSV,4,4,16,40,84,353,42,41,58,082,33,49,32,274,,50,10,089,*7F
$GLGSV,3,1,09,65,27,247,32,71,14,005,23,72,43,317,34,74,12,132,06*69
$GLGSV,3,2,09,75,16,182,20,84,11,142,,85,51,105,32,86,41,010,32*6D
$GLGSV,3,3,09,87,05,344,32*54
$GNGLL,0419.82298,S,05539.62047,E,123611.00,A,D*61
$GNRMC,123612.00,A,0419.82296,S,05539.62045,E,0.034,,200525,,,D*70
$GNVTG,,T,,M,0.034,N,0.064,K,D*3D
$GNGGA,123612.00,0419.82296,S,05539.62045,E,2,12,0.67,2.4,M,-47.6,M,,0000*71
$GNGSA,A,3,32,18,10,28,26,16,27,31,40,08,,,1.24,0.67,1.04*14
$GNGSA,A,3,85,72,71,75,86,65,87,,,,,,1.24,0.67,1.04*11
$GPGSV,4,1,16,08,10,316,35,10,15,006,38,16,25,237,33,18,33,090,26*7A
$GPGSV,4,2,16,23,02,044,28,26,28,206,38,27,46,304,40,28,52,144,35*7E
$GPGSV,4,3,16,29,10,148,,31,37,183,40,32,53,000,25,36,52,277,38*7D
$GPGSV,4,4,16,40,84,353,42,41,58,082,33,49,32,274,,50,10,089,*7F
$GLGSV,3,1,09,65,27,247,32,71,14,005,34,72,43,317,33,74,12,132,09*67
$GLGSV,3,2,09,75,16,182,19,84,11,142,,85,51,105,32,86,41,010,33*66
$GLGSV,3,3,09,87,05,344,30*56
$GNGLL,0419.82296,S,05539.62045,E,123612.00,A,D*6E
$GNRMC,123613.00,A,0419.82296,S,05539.62041,E,0.016,,200525,,,D*75
$GNVTG,,T,,M,0.016,N,0.030,K,D*3C
$GNGGA,123613.00,0419.82296,S,05539.62041,E,2,12,0.67,2.3,M,-47.6,M,,0000*73
$GNGSA,A,3,32,18,10,28,26,16,27,31,40,08,,,1.24,0.67,1.04*14
$GNGSA,A,3,85,72,71,75,86,65,87,,,,,,1.24,0.67,1.04*11
$GPGSV,4,1,16,08,10,316,35,10,15,006,32,16,25,237,34,18,33,090,26*77
$GPGSV,4,2,16,23,02,044,28,26,28,206,38,27,46,304,39,28,52,144,35*70
$GPGSV,4,3,16,29,10,148,20,31,37,183,41,32,53,000,25,36,52,277,38*7E
