$GNRMC,124324.00,A,0419.82780,S,05539.63254,E,0.051,,200525,,,A*70
$GNVTG,,T,,M,0.051,N,0.094,K,A*34
$GNGGA,124324.00,0419.82780,S,05539.63254,E,1,12,0.61,6.6,M,-47.6,M,,*74
$GNGSA,A,3,32,18,10,28,26,16,27,31,08,,,,1.25,0.61,1.09*1A
$GNGSA,A,3,85,72,71,75,86,74,65,87,,,,,1.25,0.61,1.09*18
$GPGSV,4,1,16,08,13,314,34,10,14,009,23,16,24,233,18,18,33,094,09*7B
$GPGSV,4,2,16,23,01,047,,26,28,203,19,27,48,300,28,28,53,139,20*79
$GPGSV,4,3,16,29,07,147,,31,40,181,21,32,50,001,30,36,52,277,*7C
$GPGSV,4,4,16,40,84,353,,41,58,082,,49,32,274,,50,10,089,*79
$GLGSV,3,1,09,65,28,251,13,71,12,007,26,72,40,321,26,74,12,129,08*62
$GLGSV,3,2,09,75,16,179,11,84,08,145,,85,50,112,21,86,45,012,31*64
$GLGSV,3,3,09,87,08,345,31*5B
$GNGLL,0419.82780,S,05539.63254,E,124324.00,A,A*6D
$GNRMC,124325.00,A,0419.82786,S,05539.63258,E,0.030,,200525,,,A*7C
$GNVTG,,T,,M,0.030,N,0.056,K,A*3D
$GNGGA,124325.00,0419.82786,S,05539.63258,E,1,12,0.65,6.7,M,-47.6,M,,*7A
$GNGSA,A,3,32,18,10,28,26,16,27,31,08,,,,1.27,0.65,1.09*1C
$GNGSA,A,3,85,72,71,75,86,74,87,,,,,,1.27,0.65,1.09*1D
$GPGSV,4,1,16,08,13,314,39,10,14,009,22,16,24,233,16,18,33,094,15*74
$GPGSV,4,2,16,23,01,047,,26,28,203,19,27,48,300,26,28,53,139,19*7D
$GPGSV,4,3,16,29,07,147,,31,40,181,20,32,50,001,35,36,52,277,*78
$GPGSV,4,4,16,40,84,353,,41,58,082,,49,32,274,,50,10,089,*79
$GLGSV,3,1,09,65,28,251,10,71,12,007,26,72,40,321,32,74,12,129,08*64
$GLGSV,3,2,09,75,16,179,08,84,08,145,,85,50,112,21,86,45,012,39*64
$GLGSV,3,3,09,87,08,345,34*5E
$GNGLL,0419.82786,S,05539.63258,E,124325.00,A,A*66
$GNRMC,124326.00,A,0419.82778,S,05539.63262,E,0.103,,200525,,,A*76
$GNVTG,,T,,M,0.103,N,0.191,K,A*36
$GNGGA,124326.00,0419.82778,S,05539.63262,E,1,12,0.68,6.7,M,-47.6,M,,*7C
$GNGSA,A,3,32,18,10,28,26,16,27,31,08,,,,1.33,0.68,1.15*19
$GNGSA,A,3,85,72,71,75,86,74,65,87,,,,,1.33,0.68,1.15*1B
$GPGSV,4,1,16,08,13,314,39,10,14,009,23,16,24,233,17,18,33,094,14*75
$GPGSV,4,2,16,23,01,047,,26,28,203,21,27,48,300,26,28,53,139,20*7C
$GPGSV,4,3,16,29,07,147,,31,40,181,17,32,50,001,36,36,52,277,*7F
$GPGSV,4,4,16,40,84,353,,41,58,082,,49,32,274,,50,10,089,*79
$GLGSV,3,1,09,65,28,251,12,71,12,007,26,72,40,321,32,74,12,129,11*6E
$GLGSV,3,2,09,75,16,179,09,84,08,145,,85,50,112,24,86,45,012,38*61
$GLGSV,3,3,09,87,08,345,34*5E
$GNGLL,0419.82778,S,05539.63262,E,124326.00,A,A*6D
$GNRMC,124327.00,A,0419.82761,S,05539.63260,E,0.127,,200525,,,A*7B
$GNVTG,,T,,M,0.127,N,0.235,K,A*3D
$GNGGA,124327.00,0419.82761,S,05539.63260,E,1,12,0.61,7.0,M,-47.6,M,,*78
$GNGSA,A,3,32,18,10,28,26,16,27,31,08,,,,1.25,0.61,1.09*1A
$GNGSA,A,3,85,72,71,75,86,74,65,87,,,,,1.25,0.61,1.09*18
$GPGSV,4,1,16,08,13,314,38,10,14,009,26,16,24,233,17,18,33,094,16*73
$GPGSV,4,2,16,23,01,047,,26,28,203,23,27,48,300,27,28,53,139,21*7E
$GPGSV,4,3,16,29,07,147,,31,40,181,17,32,50,001,34,36,52,277,*7D
$GPGSV,4,4,16,40,84,353,,41,58,082,,49,32,274,,50,10,089,*79
$GLGSV,3,1,09,65,28,251,11,71,12,007,26,72,40,321,31,74,12,129,08*66
$GLGSV,3,2,09,75,16,179,08,84,08,145,,85,50,112,24,86,45,012,38*60
$GLGSV,3,3,09,87,08,345,33*59
$GNGLL,0419.82761,S,05539.63260,E,124327.00,A,A*66
$GNRMC,124328.00,A,0419.82758,S,05539.63262,E,0.020,,200525,,,A*7A
$GNVTG,,T,,M,0.020,N,0.036,K,A*3A
$GNGGA,124328.00,0419.82758,S,05539.63262,E,1,12,0.61,7.0,M,-47.6,M,,*7F
$GNGSA,A,3,32,18,10,28,26,16,27,31,08,,,,1.25,0.61,1.09*1A
$GNGSA,A,3,85,72,71,75,86,74,65,87,,,,,1.25,0.61,1.09*18
$GPGSV,4,1,16,08,13,314,35,10,14,009,27,16,24,233,17,18,33,094,17*7E
$GPGSV,4,2,16,23,01,047,,26,28,203,24,27,48,300,29,28,53,139,21*77
$GPGSV,4,3,16,29,07,147,,31,40,181,14,32,50,001,33,36,52,277,*79
$GPGSV,4,4,16,40,84,353,,41,58,082,,49,32,274,,50,10,089,*79
$GLGSV,3,1,09,65,28,251,12,71,12,007,27,72,40,321,31,74,12,129,11*6C
$GLGSV,3,2,09,75,16,179,12,84,08,145,,85,50,112,24,86,45,012,38*6B
$GLGSV,3,3,09,87,08,345,31*5B
$GNGLL,0419.82758,S,05539.63262,E,124328.00,A,A*61
$GNRMC,124329.00,A,0419.82765,S,05539.63270,E,0.214,,200525,,,A*73
$GNVTG,,T,,M,0.214,N,0.396,K,A*36
$GNGGA,124329.00,0419.82765,S,05539.63270,E,1,12,0.67,7.0,M,-47.6,M,,*75
$GNGSA,A,3,32,18,10,28,26,16,27,31,08,,,,1.38,0.67,1.20*1B
$GNGSA,A,3,85,72,71,75,86,74,65,87,,,,,1.38,0.67,1.20*19
$GPGSV,4,1,16,08,13,314,35,10,14,009,26,16,24,233,18,18,33,094,17*70
$GPGSV,4,2,16,23,01,047,,26,28,203,23,27,48,300,29,28,53,139,20*71
$GPGSV,4,3,16,29,07,147,,31,40,181,13,32,50,001,32,36,52,277,*7F
$GPGSV,4,4,16,40,84,353,,41,58,082,,49,32,274,,50,10,089,*79
$GLGSV,3,1,09,65,28,252,10,71,12,007,26,72,40,321,30,74,12,129,12*6E
$GLGSV,3,2,09,75,16,179,09,84,08,145,,85,50,112,23,86,45,012,35*6B
$GLGSV,3,3,09,87,08,345,31*5B
$GNGLL,0419.82765,S,05539.63270,E,124329.00,A,A*6D
$GNRMC,124330.00,A,0419.82756,S,05539.63275,E,0.090,,200525,,,A*70
$GNVTG,,T,,M,0.090,N,0.166,K,A*35
$GNGGA,124330.00,0419.82756,S,05539.63275,E,1,12,0.61,7.1,M,-47.6,M,,*7F
$GNGSA,A,3,32,18,10,28,26,16,27,31,08,,,,1.25,0.61,1.09*1A
$GNGSA,A,3,85,72,71,75,86,74,65,87,,,,,1.25,0.61,1.09*18
$GPGSV,4,1,16,08,13,314,38,10,14,009,28,16,24,233,18,18,33,094,17*73
$GPGSV,4,2,16,23,01,047,,26,28,203,23,27,48,300,31,28,53,139,22*7A
$GPGSV,4,3,16,29,07,147,,31,40,181,11,32,50,001,36,36,52,277,*79
$GPGSV,4,4,16,40,84,353,,41,58,082,,49,32,274,,50,10,089,*79
$GLGSV,3,1,09,65,28,252,08,71,12,007,27,72,40,321,31,74,12,129,10*65
$GLGSV,3,2,09,75,16,179,08,84,08,145,,85,50,112,23,86,45,012,36*69
$GLGSV,3,3,09,87,08,345,32*58
$GNGLL,0419.82756,S,05539.63275,E,124330.00,A,A*60
$GNRMC,124331.00,A,0419.82761,S,05539.63282,E,0.078,,200525,,,A*7B
$GNVTG,,T,,M,0.078,N,0.145,K,A*32
$GNGGA,124331.00,0419.82761,S,05539.63282,E,1,12,0.62,6.9,M,-47.6,M,,*78
$GNGSA,A,3,32,18,10,28,26,16,27,08,,,,,1.26,0.62,1.10*10
$GNGSA,A,3,85,72,71,75,86,74,65,87,,,,,1.26,0.62,1.10*10
$GPGSV,4,1,16,08,13,314,36,10,14,009,27,16,24,233,16,18,33,094,18*73
$GPGSV,4,2,16,23,01,047,,26,28,203,23,27,48,300,30,28,53,139,21*78
$GPGSV,4,3,16,29,07,147,,31,40,181,11,32,50,001,35,36,52,277,*7A
$GPGSV,4,4,16,40,84,353,,41,58,082,,49,32,274,,50,10,089,*79
$GLGSV,3,1,09,65,28,252,10,71,12,007,26,72,40,321,29,74,12,129,07*62
$GLGSV,3,2,09,75,16,179,08,84,08,145,,85,50,112,22,86,45,012,36*68
$GLGSV,3,3,09,87,08,345,31*5B
$GNGLL,0419.82761,S,05539.63282,E,124331.00,A,A*6D
$GNRMC,124332.00,A,0419.82755,S,05539.63284,E,0.082,,200525,,,A*7C
$GNVTG,,T,,M,0.082,N,0.152,K,A*31
$GNGGA,124332.00,0419.82755,S,05539.63284,E,1,12,0.79,7.0,M,-47.6,M,,*78
$GNGSA,A,3,32,18,10,28,26,16,27,08,,,,,1.56,0.79,1.34*1B
$GNGSA,A,3,85,72,71,75,86,65,87,,,,,,1.56,0.79,1.34*18
$GPGSV,4,1,16,08,13,314,37,10,14,009,27,16,24,233,13,18,33,094,17*78
$GPGSV,4,2,16,23,01,047,,26,28,203,23,27,48,300,29,28,53,139,21*70
$GPGSV,4,3,16,29,07,147,,31,40,181,09,32,50,001,35,36,52,277,*73
$GPGSV,4,4,16,40,84,353,,41,58,082,,49,32,274,,50,10,089,*79
$GLGSV,3,1,09,65,28,252,07,71,12,007,26,72,40,321,29,74,12,129,06*65
$GLGSV,3,2,09,75,16,179,08,84,08,145,,85,50,112,22,86,45,012,38*66
$GLGSV,3,3,09,87,08,345,32*58
$GNGLL,0419.82755,S,05539.63284,E,124332.00,A,A*6F
$GNRMC,124333.00,A,0419.82754,S,05539.63286,E,0.104,,200525,,,A*71
$GNVTG,,T,,M,0.104,N,0.193,K,A*33
$GNGGA,124333.00,0419.82754,S,05539.63286,E,1,12,0.72,7.1,M,-47.6,M,,*70
$GNGSA,A,3,32,18,10,28,26,16,27,31,08,,,,1.40,0.72,1.20*10
$GNGSA,A,3,85,72,71,75,86,87,,,,,,,1.40,0.72,1.20*12
$GPGSV,4,1,16,08,13,314,38,10,14,009,28,16,24,233,12,18,33,094,18*76
$GPGSV,4,2,16,23,01,047,,26,28,203,23,27,48,300,30,28,53,139,21*78
$GPGSV,4,3,16,29,07,147,,31,40,181,12,32,50,001,35,36,52,277,*79
$GPGSV,4,4,16,40,84,353,,41,58,082,,49,32,274,,50,10,089,*79
$GLGSV,3,1,09,65,28,252,07,71,12,007,26,72,40,321,29,74,12,129,06*65
$GLGSV,3,2,09,75,16,179,08,84,08,145,,85,50,112,22,86,45,012,38*66
$GLGSV,3,3,09,87,08,345,32*58
$GNGLL,0419.82754,S,05539.63286,E,124333.00,A,A*6D
$GNRMC,124334.00,A,0419.82761,S,05539.63295,E,0.145,,200525,,,A*77
$GNVTG,,T,,M,0.145,N,0.269,K,A*30
$GNGGA,124334.00,0419.82761,S,05539.63295,E,1,12,0.67,6.9,M,-47.6,M,,*7E
$GNGSA,A,3,32,18,10,28,26,16,27,31,08,,,,1.38,0.67,1.20*1B
$GNGSA,A,3,85,72,71,75,86,65,87,,,,,,1.38,0.67,1.20*1A
$GPGSV,4,1,16,08,13,314,35,10,14,009,28,16,24,233,15,18,33,094,18*7C
$GPGSV,4,2,16,23,01,047,,26,28,203,22,27,48,300,29,28,53,139,20*70
$GPGSV,4,3,16,29,07,147,,31,40,181,16,32,50,001,32,36,52,277,*7A
$GPGSV,4,4,16,40,84,353,,41,58,082,,49,32,274,,50,10,089,*79
$GLGSV,3,1,09,65,28,252,10,71,12,007,26,72,40,321,28,74,12,129,08*6C
$GLGSV,3,2,09,75,16,179,13,84,08,145,,85,50,112,22,86,45,012,34*60
$GLGSV,3,3,09,87,08,345,31*5B
$GNGLL,0419.82761,S,05539.63295,E,124334.00,A,A*6E
$GNRMC,124335.00,A,0419.82759,S,05539.63304,E,0.062,,200525,,,A*70
$GNVTG,,T,,M,0.062,N,0.115,K,A*3C
$GNGGA,124335.00,0419.82759,S,05539.63304,E,1,12,0.76,6.9,M,-47.6,M,,*7D
$GNGSA,A,3,32,18,10,28,26,16,27,31,08,,,,1.54,0.76,1.34*14
$GNGSA,A,3,85,72,71,86,87,,,,,,,,1.54,0.76,1.34*14
$GPGSV,4,1,16,08,13,314,38,10,14,009,28,16,24,233,12,18,33,094,16*78
$GPGSV,4,2,16,23,01,047,,26,28,203,22,27,48,300,29,28,53,139,20*70
$GPGSV,4,3,16,29,07,147,,31,40,181,17,32,50,001,37,36,52,277,*7E
$GPGSV,4,4,16,40,84,353,,41,58,082,,49,32,274,,50,10,089,*79
$GLGSV,3,1,09,65,28,252,06,71,11,007,25,72,40,321,27,74,12,129,08*64
$GLGSV,3,2,09,75,16,179,06,84,08,145,,85,50,112,21,86,45,012,39*6A
$GLGSV,3,3,09,87,08,345,34*5E
$GNGLL,0419.82759,S,05539.63304,E,124335.00,A,A*6D
$GNRMC,124336.00,A,0419.82768,S,05539.63316,E,0.192,,200525,,,A*7C
$GNVTG,,T,,M,0.192,N,0.355,K,A*34
$GNGGA,124336.00,0419.82768,S,05539.63316,E,1,12,0.67,6.8,M,-47.6,M,,*7E
$GNGSA,A,3,32,18,10,28,26,16,27,31,08,,,,1.38,0.67,1.20*1B
$GNGSA,A,3,85,72,71,75,86,65,87,,,,,,1.38,0.67,1.20*1A
$GPGSV,4,1,16,08,13,314,38,10,14,009,28,16,24,233,15,18,33,094,15*7C
$GPGSV,4,2,16,23,01,047,,26,28,203,22,27,48,300,30,28,53,139,20*78
$GPGSV,4,3,16,29,07,147,,31,40,181,19,32,50,001,36,36,52,277,*71
$GPGSV,4,4,16,40,84,353,,41,58,082,,49,32,274,,50,10,089,*79
$GLGSV,3,1,09,65,28,252,09,71,11,007,25,72,40,321,27,74,12,129,06*65
$GLGSV,3,2,09,75,16,179,08,84,08,145,,85,50,112,20,86,45,012,36*6A
$GLGSV,3,3,09,87,08,345,32*58
$GNGLL,0419.82768,S,05539.63316,E,124336.00,A,A*6F
$GNRMC,124337.00,A,0419.82765,S,05539.63323,E,0.132,,200525,,,A*7C
$GNVTG,,T,,M,0.132,N,0.245,K,A*3E
$GNGGA,124337.00,0419.82765,S,05539.63323,E,1,12,0.67,6.8,M,-47.6,M,,*74
$GNGSA,A,3,32,18,10,28,26,16,27,31,08,,,,1.38,0.67,1.20*1B
$GNGSA,A,3,85,72,71,75,86,65,87,,,,,,1.38,0.67,1.20*1A
$GPGSV,4,1,16,08,13,314,40,10,14,009,29,16,24,233,13,18,33,094,16*77
$GPGSV,4,2,16,23,01,047,,26,28,203,22,27,48,300,31,28,53,139,21*78
$GPGSV,4,3,16,29,07,147,,31,40,181,20,32,50,001,37,36,52,277,*7A
$GPGSV,4,4,16,40,84,353,,41,58,082,,49,32,274,,50,10,089,*79
$GLGSV,3,1,09,65,28,252,10,71,11,007,27,72,40,321,28,74,12,129,10*67
$GLGSV,3,2,09,75,16,179,11,84,08,145,,85,50,112,22,86,45,012,39*6F
$GLGSV,3,3,09,87,08,345,36*5C
$GNGLL,0419.82765,S,05539.63323,E,124337.00,A,A*65
$GNRMC,124338.00,A,0419.82757,S,05539.63324,E,0.152,,200525,,,A*73
$GNVTG,,T,,M,0.152,N,0.282,K,A*33
$GNGGA,124338.00,0419.82757,S,05539.63324,E,1,12,0.84,6.9,M,-47.6,M,,*71
$GNGSA,A,3,32,18,10,28,26,16,27,31,08,,,,1.61,0.84,1.38*13
$GNGSA,A,3,85,72,71,75,86,65,87,,,,,,1.61,0.84,1.38*12
$GPGSV,4,1,16,08,13,314,40,10,14,009,29,16,24,233,14,18,33,094,18*7E
$GPGSV,4,2,16,23,01,047,,26,28,203,22,27,48,300,31,28,53,139,21*78
$GPGSV,4,3,16,29,07,147,,31,40,181,22,32,50,001,37,36,52,277,*78
$GPGSV,4,4,16,40,84,353,,41,58,082,,49,32,274,,50,10,089,*79
$GLGSV,3,1,09,65,28,252,10,71,11,007,28,72,40,321,29,74,13,128,08*60
$GLGSV,3,2,09,75,16,179,11,84,08,145,,85,50,112,22,86,45,012,38*6E
$GLGSV,3,3,09,87,08,345,35*5F
$GNGLL,0419.82757,S,05539.63324,E,124338.00,A,A*6C
$GNRMC,124339.00,A,0419.82756,S,05539.63328,E,0.097,,200525,,,A*77
$GNVTG,,T,,M,0.097,N,0.180,K,A*3A
$GNGGA,124339.00,0419.82756,S,05539.63328,E,1,12,0.67,6.9,M,-47.6,M,,*70
$GNGSA,A,3,32,18,10,28,26,16,27,31,08,,,,1.38,0.67,1.20*1B
$GNGSA,A,3,85,72,71,75,86,65,87,,,,,,1.38,0.67,1.20*1A
$GPGSV,4,1,16,08,13,314,40,10,14,009,29,16,24,233,16,18,33,094,19*7D
$GPGSV,4,2,16,23,01,047,,26,28,203,22,27,48,300,31,28,53,139,20*79
$GPGSV,4,3,16,29,07,147,,31,40,181,21,32,50,001,37,36,52,277,*7B
$GPGSV,4,4,16,40,84,353,,41,58,082,,49,32,274,,50,10,089,*79
$GLGSV,3,1,09,65,28,252,14,71,11,007,27,72,40,321,31,74,13,128,07*6D
$GLGSV,3,2,09,75,16,178,14,84,08,145,,85,50,112,23,86,45,012,39*6A
$GLGSV,3,3,09,87,08,345,34*5E
$GNGLL,0419.82756,S,05539.63328,E,124339.00,A,A*60
$GNRMC,124340.00,A,0419.82760,S,05539.63336,E,0.163,,200525,,,A*79
$GNVTG,,T,,M,0.163,N,0.301,K,A*3B
$GNGGA,124340.00,0419.82760,S,05539.63336,E,1,12,0.67,6.9,M,-47.6,M,,*74
$GNGSA,A,3,32,18,10,28,26,16,27,31,08,,,,1.38,0.67,1.20*1B
$GNGSA,A,3,85,72,71,75,86,65,87,,,,,,1.38,0.67,1.20*1A
$GPGSV,4,1,16,08,13,314,38,10,14,009,28,16,24,233,18,18,33,094,19*7D
$GPGSV,4,2,16,23,01,047,,26,28,203,21,27,48,300,30,28,53,139,19*71
$GPGSV,4,3,16,29,07,147,,31,40,181,20,32,50,001,36,36,52,277,*7B
$GPGSV,4,4,16,40,84,353,,41,58,082,,49,32,274,,50,10,089,*79
$GLGSV,3,1,09,65,28,252,09,71,11,007,26,72,40,321,29,74,13,128,07*69
$GLGSV,3,2,09,75,16,178,08,84,08,145,,85,50,112,23,86,45,012,37*69
$GLGSV,3,3,09,87,08,345,31*5B
$GNGLL,0419.82760,S,05539.63336,E,124340.00,A,A*64
$GNRMC,124341.00,A,0419.82757,S,05539.63340,E,0.155,,200525,,,A*78
$GNVTG,,T,,M,0.155,N,0.288,K,A*3E
$GNGGA,124341.00,0419.82757,S,05539.63340,E,1,12,0.78,7.0,M,-47.6,M,,*76
$GNGSA,A,3,32,18,10,28,26,27,31,08,,,,,1.44,0.78,1.21*18
$GNGSA,A,3,85,72,71,75,86,87,,,,,,,1.44,0.78,1.21*1D
$GPGSV,4,1,16,08,13,314,36,10,14,009,27,16,24,233,07,18,33,094,18*73
$GPGSV,4,2,16,23,01,047,,26,28,203,19,27,48,300,29,28,53,139,20*78
$GPGSV,4,3,16,29,07,147,,31,40,181,19,32,50,001,34,36,52,277,*73
$GPGSV,4,4,16,40,84,353,,41,58,082,,49,32,274,,50,10,089,*79
$GLGSV,3,1,09,65,28,252,07,71,11,007,26,72,40,321,28,74,13,128,08*69
$GLGSV,3,2,09,75,16,178,08,84,08,145,,85,50,112,22,86,45,012,37*68
$GLGSV,3,3,09,87,08,345,30*5A
$GNGLL,0419.82757,S,05539.63340,E,124341.00,A,A*60
$GNRMC,124342.00,A,0419.82762,S,05539.63346,E,0.323,,200525,,,A*78
$GNVTG,,T,,M,0.323,N,0.597,K,A*34
$GNGGA,124342.00,0419.82762,S,05539.63346,E,1,12,0.67,7.0,M,-47.6,M,,*7B
$GNGSA,A,3,32,18,10,28,26,16,27,31,08,,,,1.38,0.67,1.20*1B
$GNGSA,A,3,85,72,71,75,86,65,87,,,,,,1.38,0.67,1.20*1A
$GPGSV,4,1,16,08,13,314,38,10,14,009,27,16,24,233,14,18,33,094,16*71
$GPGSV,4,2,16,23,01,047,,26,28,203,19,27,48,300,29,28,53,139,20*78
$GPGSV,4,3,16,29,07,147,,31,40,181,19,32,50,001,36,36,52,277,*71
$GPGSV,4,4,16,40,84,353,,41,58,082,,49,32,274,,50,10,089,*79
$GLGSV,3,1,09,65,28,252,09,71,11,007,31,72,40,321,31,74,13,128,08*69
$GLGSV,3,2,09,75,16,178,11,84,08,145,,85,50,112,24,86,45,012,37*66
$GLGSV,3,3,09,87,08,345,32*58
$GNGLL,0419.82762,S,05539.63346,E,124342.00,A,A*63
$GNRMC,124343.00,A,0419.82766,S,05539.63348,E,0.301,,200525,,,A*73
$GNVTG,,T,,M,0.301,N,0.558,K,A*37
$GNGGA,124343.00,0419.82766,S,05539.63348,E,1,12,0.67,6.9,M,-47.6,M,,*78
$GNGSA,A,3,32,18,10,28,26,16,27,31,08,,,,1.38,0.67,1.20*1B
$GNGSA,A,3,85,72,71,75,86,65,87,,,,,,1.38,0.67,1.20*1A
$GPGSV,4,1,16,08,13,314,38,10,14,009,26,16,24,233,18,18,33,094,16*7C
$GPGSV,4,2,16,23,01,047,,26,28,203,21,27,48,300,30,28,53,139,22*79
$GPGSV,4,3,16,29,07,147,,31,40,181,17,32,50,001,34,36,52,277,*7D
$GPGSV,4,4,16,40,84,353,,41,58,082,,49,32,274,,50,10,089,*79
$GLGSV,3,1,09,65,28,252,10,71,11,007,30,72,40,321,32,74,13,128,08*63
$GLGSV,3,2,09,75,16,178,11,84,08,145,,85,50,112,26,86,45,012,37*64
$GLGSV,3,3,09,87,08,345,33*59
$GNGLL,0419.82766,S,05539.63348,E,124343.00,A,A*68
$GNRMC,124344.00,A,0419.82760,S,05539.63343,E,0.130,,200525,,,A*79
$GNVTG,,T,,M,0.130,N,0.242,K,A*3B
$GNGGA,124344.00,0419.82760,S,05539.63343,E,1,12,0.76,7.1,M,-47.6,M,,*7B
$GNGSA,A,3,32,18,10,28,26,16,27,31,08,,,,1.54,0.76,1.34*14
$GNGSA,A,3,85,72,71,75,86,74,65,87,,,,,1.54,0.76,1.34*16
$GPGSV,4,1,16,08,13,314,36,10,14,009,27,16,24,233,18,18,33,094,15*70
$GPGSV,4,2,16,23,01,047,,26,28,203,22,27,48,300,31,28,53,139,21*78
$GPGSV,4,3,16,29,07,147,,31,40,181,16,32,50,001,33,36,52,277,*7B
$GPGSV,4,4,16,40,84,353,,41,58,082,,49,32,274,,50,10,089,*79
$GLGSV,3,1,09,65,28,252,16,71,11,007,29,72,40,321,27,74,13,128,09*68
$GLGSV,3,2,09,75,16,178,11,84,08,145,,85,50,112,27,86,45,012,37*65
$GLGSV,3,3,09,87,08,345,29*52
$GNGLL,0419.82760,S,05539.63343,E,124344.00,A,A*62
$GNRMC,124345.00,A,0419.82766,S,05539.63345,E,0.178,,200525,,,A*74
$GNVTG,,T,,M,0.178,N,0.329,K,A*3B
$GNGGA,124345.00,0419.82766,S,05539.63345,E,1,12,0.61,7.0,M,-47.6,M,,*7D
$GNGSA,A,3,32,18,10,28,26,16,27,31,08,,,,1.25,0.61,1.09*1A
$GNGSA,A,3,85,72,71,75,86,74,65,87,,,,,1.25,0.61,1.09*18
$GPGSV,4,1,16,08,13,314,37,10,14,009,27,16,24,233,19,18,33,094,15*70
$GPGSV,4,2,16,23,01,047,,26,28,203,22,27,48,300,31,28,53,139,21*78
$GPGSV,4,3,16,29,07,147,,31,40,181,16,32,50,001,34,36,52,277,*7C
$GPGSV,4,4,16,40,84,353,,41,58,082,,49,32,274,,50,10,089,*79
$GLGSV,3,1,09,65,28,252,11,71,11,007,28,72,40,321,28,74,13,128,09*61
$GLGSV,3,2,09,75,16,178,09,84,08,145,,85,50,112,25,86,45,012,35*6C
$GLGSV,3,3,09,87,08,345,30*5A
$GNGLL,0419.82766,S,05539.63345,E,124345.00,A,A*63
$GNRMC,124346.00,A,0419.82763,S,05539.63343,E,0.145,,200525,,,A*7A
$GNVTG,,T,,M,0.145,N,0.269,K,A*30
$GNGGA,124346.00,0419.82763,S,05539.63343,E,1,12,0.61,7.1,M,-47.6,M,,*7C
$GNGSA,A,3,32,18,10,28,26,16,27,31,08,,,,1.25,0.61,1.09*1A
$GNGSA,A,3,85,72,71,75,86,74,65,87,,,,,1.25,0.61,1.09*18
$GPGSV,4,1,16,08,13,314,37,10,14,009,27,16,24,233,20,18,33,094,15*7A
$GPGSV,4,2,16,23,01,047,,26,28,203,22,27,48,300,31,28,53,139,21*78
$GPGSV,4,3,16,29,07,147,,31,40,181,16,32,50,001,37,36,52,277,*7F
$GPGSV,4,4,16,40,84,353,,41,58,082,,49,32,274,,50,10,089,*79
$GLGSV,3,1,09,65,28,252,12,71,11,007,29,72,40,321,28,74,13,128,08*62
$GLGSV,3,2,09,75,16,178,09,84,08,145,,85,50,112,25,86,45,012,37*6E
$GLGSV,3,3,09,87,08,345,31*5B
$GNGLL,0419.82763,S,05539.63343,E,124346.00,A,A*63
$GNRMC,124347.00,A,0419.82778,S,05539.63342,E,0.460,,200525,,,A*72
$GNVTG,,T,,M,0.460,N,0.852,K,A*30
$GNGGA,124347.00,0419.82778,S,05539.63342,E,1,12,0.72,7.0,M,-47.6,M,,*75
$GNGSA,A,3,32,18,10,28,26,16,27,31,08,,,,1.40,0.72,1.20*10
$GNGSA,A,3,85,72,71,75,86,65,87,,,,,,1.40,0.72,1.20*11
$GPGSV,4,1,16,08,13,314,36,10,14,009,25,16,24,233,19,18,33,094,16*70
$GPGSV,4,2,16,23,01,047,,26,28,203,22,27,48,300,29,28,53,139,21*71
$GPGSV,4,3,16,29,07,147,,31,40,181,17,32,50,001,35,36,52,277,*7C
$GPGSV,4,4,16,40,84,353,,41,58,082,,49,32,274,,50,10,089,*79
$GLGSV,3,1,09,65,28,252,09,71,11,007,28,72,40,321,27,74,13,128,08*66
$GLGSV,3,2,09,75,16,178,08,84,08,145,,85,50,112,23,86,45,012,35*6B
$GLGSV,3,3,09,87,08,345,30*5A
$GNGLL,0419.82778,S,05539.63342,E,124347.00,A,A*69
$GNRMC,124348.00,A,0419.82773,S,05539.63341,E,0.270,,200525,,,A*72
$GNVTG,,T,,M,0.270,N,0.500,K,A*3D
$GNGGA,124348.00,0419.82773,S,05539.63341,E,1,12,0.67,7.2,M,-47.6,M,,*74
$GNGSA,A,3,32,18,10,28,26,16,27,31,08,,,,1.38,0.67,1.20*1B
$GNGSA,A,3,85,72,71,75,86,65,87,,,,,,1.38,0.67,1.20*1A
$GPGSV,4,1,16,08,13,314,36,10,14,009,25,16,24,233,18,18,33,094,16*71
$GPGSV,4,2,16,23,01,047,,26,28,203,21,27,48,300,29,28,53,139,21*72
$GPGSV,4,3,16,29,07,147,,31,40,181,18,32,50,001,36,36,52,277,*70
$GPGSV,4,4,16,40,84,353,,41,58,082,,49,32,274,,50,10,089,*79
$GLGSV,3,1,09,65,28,252,10,71,11,007,28,72,40,321,27,74,13,128,10*67
$GLGSV,3,2,09,75,16,178,09,84,08,145,,85,50,112,23,86,45,012,35*6A
$GLGSV,3,3,09,87,08,345,29*52
$GNGLL,0419.82773,S,05539.63341,E,124348.00,A,A*6E
$GNRMC,124349.00,A,0419.82762,S,05539.63338,E,0.133,,200525,,,A*79
$GNVTG,,T,,M,0.133,N,0.246,K,A*3C
$GNGGA,124349.00,0419.82762,S,05539.63338,E,1,12,0.67,7.3,M,-47.6,M,,*7A
$GNGSA,A,3,32,18,10,28,26,16,27,31,08,,,,1.38,0.67,1.20*1B
$GNGSA,A,3,85,72,71,75,86,65,87,,,,,,1.38,0.67,1.20*1A
$GPGSV,4,1,16,08,13,314,38,10,14,009,26,16,24,233,18,18,33,094,15*7F
$GPGSV,4,2,16,23,01,047,,26,28,203,21,27,48,300,30,28,53,139,21*7A
$GPGSV,4,3,16,29,07,147,,31,40,181,18,32,50,001,35,36,52,277,*73
$GPGSV,4,4,16,40,84,353,,41,58,082,,49,32,274,,50,10,089,*79
$GLGSV,3,1,09,65,28,252,12,71,11,007,28,72,40,321,28,74,13,128,06*6D
$GLGSV,3,2,09,75,16,178,08,84,08,145,,85,50,113,23,86,45,012,35*6A
$GLGSV,3,3,09,87,08,345,30*5A
$GNGLL,0419.82762,S,05539.63338,E,124349.00,A,A*61
$GNRMC,124350.00,A,0419.82762,S,05539.63342,E,0.191,,200525,,,A*74
$GNVTG,,T,,M,0.191,N,0.354,K,A*36
$GNGGA,124350.00,0419.82762,S,05539.63342,E,1,12,0.76,7.3,M,-47.6,M,,*7F
$GNGSA,A,3,32,18,10,28,26,16,27,31,08,,,,1.54,0.76,1.34*14
$GNGSA,A,3,85,72,71,86,87,,,,,,,,1.54,0.76,1.34*14
$GPGSV,4,1,16,08,13,314,38,10,14,009,26,16,24,233,19,18,33,094,15*7E
$GPGSV,4,2,16,23,01,047,,26,28,203,21,27,48,300,30,28,53,139,22*79
$GPGSV,4,3,16,29,07,147,,31,40,181,17,32,50,001,35,36,52,277,*7C
$GPGSV,4,4,16,40,84,353,,41,58,082,,49,32,274,,50,10,089,*79
$GLGSV,3,1,09,65,28,252,07,71,11,007,28,72,40,321,29,74,13,128,05*6B
$GLGSV,3,2,09,75,16,178,07,84,08,145,,85,50,113,23,86,46,013,34*66
$GLGSV,3,3,09,87,08,345,30*5A
$GNGLL,0419.82762,S,05539.63342,E,124350.00,A,A*64
$GNRMC,124351.00,A,0419.82756,S,05539.63339,E,0.060,,200525,,,A*71
$GNVTG,,T,,M,0.060,N,0.112,K,A*39
$GNGGA,124351.00,0419.82756,S,05539.63339,E,1,12,0.67,7.4,M,-47.6,M,,*72
$GNGSA,A,3,32,18,10,28,26,16,27,31,08,,,,1.38,0.67,1.20*1B
$GNGSA,A,3,85,72,71,75,86,65,87,,,,,,1.38,0.67,1.20*1A
$GPGSV,4,1,16,08,13,314,35,10,14,009,27,16,24,233,17,18,33,094,15*7C
$GPGSV,4,2,16,23,01,047,,26,28,203,22,27,48,300,30,28,53,139,22*7A
$GPGSV,4,3,16,29,07,147,,31,40,181,15,32,50,001,34,36,52,277,*7F
$GPGSV,4,4,16,40,84,353,,41,58,082,,49,32,274,,50,10,089,*79
$GLGSV,3,1,09,65,28,252,14,71,11,007,27,72,40,321,31,74,13,128,07*6D
$GLGSV,3,2,09,75,16,178,09,84,08,145,,85,50,113,25,86,46,013,37*6D
$GLGSV,3,3,09,87,08,345,32*58
$GNGLL,0419.82756,S,05539.63339,E,124351.00,A,A*6E
$GNRMC,124352.00,A,0419.82750,S,05539.63337,E,0.083,,200525,,,A*77
$GNVTG,,T,,M,0.083,N,0.153,K,A*31
$GNGGA,124352.00,0419.82750,S,05539.63337,E,1,12,0.67,7.5,M,-47.6,M,,*78
$GNGSA,A,3,32,18,10,28,26,16,27,31,08,,,,1.38,0.67,1.20*1B
$GNGSA,A,3,85,72,71,75,86,65,87,,,,,,1.38,0.67,1.20*1A
$GPGSV,4,1,16,08,13,314,35,10,14,009,27,16,24,233,17,18,33,094,13*7A
$GPGSV,4,2,16,23,01,047,,26,28,203,22,27,48,300,30,28,53,139,23*7B
$GPGSV,4,3,16,29,07,147,,31,40,181,13,32,50,001,34,36,52,277,*79
$GPGSV,4,4,16,40,84,353,,41,58,082,,49,32,274,,50,10,089,*79
$GLGSV,3,1,09,65,28,252,12,71,11,007,29,72,40,321,32,74,13,128,11*61
$GLGSV,3,2,09,75,16,178,09,84,08,145,,85,50,113,26,86,46,013,38*61
$GLGSV,3,3,09,87,08,345,34*5E
$GNGLL,0419.82750,S,05539.63337,E,124352.00,A,A*65
$GNRMC,124353.00,A,0419.82744,S,05539.63336,E,0.010,,200525,,,A*78
$GNVTG,,T,,M,0.010,N,0.018,K,A*35
$GNGGA,124353.00,0419.82744,S,05539.63336,E,1,12,0.72,7.6,M,-47.6,M,,*7A
$GNGSA,A,3,32,18,10,28,26,16,27,31,08,,,,1.52,0.72,1.34*16
$GNGSA,A,3,85,72,71,75,86,65,87,,,,,,1.52,0.72,1.34*17
$GPGSV,4,1,16,08,13,314,38,10,14,009,28,16,24,233,18,18,33,094,14*70
$GPGSV,4,2,16,23,01,047,,26,28,203,23,27,48,300,30,28,53,139,23*7A
$GPGSV,4,3,16,29,07,147,,31,40,181,13,32,50,001,35,36,52,277,*78
$GPGSV,4,4,16,40,84,353,,41,58,082,,49,32,274,,50,10,089,*79
$GLGSV,3,1,09,65,28,252,17,71,11,007,29,72,40,321,32,74,13,128,08*6C
$GLGSV,3,2,09,75,16,178,13,84,08,145,,85,50,113,26,86,46,013,38*6A
$GLGSV,3,3,09,87,08,345,33*59
$GNGLL,0419.82744,S,05539.63336,E,124353.00,A,A*60
$GNRMC,124354.00,A,0419.82739,S,05539.63334,E,0.055,,200525,,,A*76
$GNVTG,,T,,M,0.055,N,0.101,K,A*3D
$GNGGA,124354.00,0419.82739,S,05539.63334,E,1,12,0.68,7.7,M,-47.6,M,,*7F
$GNGSA,A,3,32,18,10,28,26,16,27,08,,,,,1.38,0.68,1.21*17
$GNGSA,A,3,85,72,71,75,86,65,87,,,,,,1.38,0.68,1.21*14
$GPGSV,4,1,16,08,13,314,39,10,14,009,28,16,24,233,19,18,33,094,15*71
$GPGSV,4,2,16,23,01,047,,26,28,203,24,27,48,300,31,28,53,139,24*7B
$GPGSV,4,3,16,29,07,147,,31,40,181,,32,50,001,36,36,52,277,*79
$GPGSV,4,4,16,40,84,353,,41,58,082,,49,32,274,,50,10,089,*79
$GLGSV,3,1,09,65,28,252,16,71,11,007,30,72,40,321,32,74,13,128,09*64
$GLGSV,3,2,09,75,16,178,11,84,08,145,,85,50,113,27,86,46,013,38*69
$GLGSV,3,3,09,87,08,345,33*59
$GNGLL,0419.82739,S,05539.63334,E,124354.00,A,A*6F
$GNRMC,124355.00,A,0419.82732,S,05539.63334,E,0.078,,200525,,,A*73
$GNVTG,,T,,M,0.078,N,0.144,K,A*33
$GNGGA,124355.00,0419.82732,S,05539.63334,E,1,12,0.68,7.8,M,-47.6,M,,*7A
$GNGSA,A,3,32,18,10,28,26,16,27,08,,,,,1.38,0.68,1.21*17
$GNGSA,A,3,85,72,71,75,86,65,87,,,,,,1.38,0.68,1.21*14
$GPGSV,4,1,16,08,13,314,39,10,14,009,28,16,24,233,19,18,33,094,15*71
$GPGSV,4,2,16,23,01,047,,26,28,203,25,27,48,300,31,28,53,139,23*7D
$GPGSV,4,3,16,29,07,147,,31,40,181,16,32,50,001,37,36,52,277,*7F
$GPGSV,4,4,16,40,84,353,,41,58,082,,49,32,274,,50,10,089,*79
$GLGSV,3,1,09,65,28,252,14,71,11,007,30,72,40,321,31,74,13,128,09*65
$GLGSV,3,2,09,75,16,178,07,84,08,145,,85,50,113,26,86,46,013,37*60
$GLGSV,3,3,09,87,08,345,33*59
$GNGLL,0419.82732,S,05539.63334,E,124355.00,A,A*65
$GNRMC,124356.00,A,0419.82724,S,05539.63335,E,0.172,,200525,,,A*7D
$GNVTG,,T,,M,0.172,N,0.318,K,A*33
$GNGGA,124356.00,0419.82724,S,05539.63335,E,1,12,0.74,7.8,M,-47.6,M,,*72
$GNGSA,A,3,32,18,10,28,26,16,27,08,,,,,1.53,0.74,1.34*13
$GNGSA,A,3,85,72,71,75,86,65,87,,,,,,1.53,0.74,1.34*10
$GPGSV,4,1,16,08,13,314,28,10,14,009,29,16,24,233,19,18,33,094,17*72
$GPGSV,4,2,16,23,01,047,,26,28,203,23,27,48,300,35,28,53,139,22*7E
$GPGSV,4,3,16,29,07,147,,31,40,181,27,32,50,001,40,36,52,277,*7D
$GPGSV,4,4,16,40,84,353,,41,58,082,,49,32,274,,50,10,089,*79
$GLGSV,3,1,09,65,28,252,19,71,11,007,23,72,40,321,26,74,13,128,06*63
$GLGSV,3,2,09,75,16,178,10,84,08,145,,85,50,113,25,86,46,013,40*65
$GLGSV,3,3,09,87,08,345,32*58
$GNGLL,0419.82724,S,05539.63335,E,124356.00,A,A*60
$GNRMC,124357.00,A,0419.82749,S,05539.63347,E,0.436,,200525,,,A*77
$GNVTG,,T,,M,0.436,N,0.807,K,A*33
$GNGGA,124357.00,0419.82749,S,05539.63347,E,1,12,0.67,7.5,M,-47.6,M,,*72
$GNGSA,A,3,32,18,10,28,26,16,27,31,08,,,,1.38,0.67,1.20*1B
$GNGSA,A,3,85,72,71,75,86,65,87,,,,,,1.38,0.67,1.20*1A
$GPGSV,4,1,16,08,13,314,28,10,14,009,28,16,24,233,18,18,33,094,15*70
$GPGSV,4,2,16,23,01,047,,26,28,203,21,27,48,300,35,28,53,139,23*7D
$GPGSV,4,3,16,29,07,147,,31,40,181,25,32,50,001,41,36,52,277,*7E
$GPGSV,4,4,16,40,84,353,,41,58,082,,49,32,274,,50,10,089,*79
$GLGSV,3,1,09,65,28,252,17,71,11,007,30,72,40,321,32,74,13,128,07*6B
$GLGSV,3,2,09,75,16,178,12,84,08,145,,85,50,113,23,86,46,013,37*61
$GLGSV,3,3,09,87,08,345,25*5E
$GNGLL,0419.82749,S,05539.63347,E,124357.00,A,A*6F
$GNRMC,124358.00,A,0419.82776,S,05539.63359,E,0.673,,200525,,,A*78
$GNVTG,,T,,M,0.673,N,1.247,K,A*3F
$GNGGA,124358.00,0419.82776,S,05539.63359,E,1,12,0.67,7.2,M,-47.6,M,,*79
$GNGSA,A,3,32,18,10,28,26,16,27,31,08,,,,1.38,0.67,1.20*1B
$GNGSA,A,3,85,72,71,75,86,65,87,,,,,,1.38,0.67,1.20*1A
$GPGSV,4,1,16,08,13,314,29,10,14,009,26,16,24,233,17,18,33,094,14*71
$GPGSV,4,2,16,23,01,047,,26,28,203,19,27,48,300,34,28,53,139,24*70
$GPGSV,4,3,16,29,07,147,,31,40,181,23,32,50,001,41,36,52,277,*78
$GPGSV,4,4,16,40,84,353,,41,58,082,,49,32,274,,50,10,089,*79
$GLGSV,3,1,09,65,28,252,21,71,11,007,30,72,40,321,33,74,13,128,07*6F
$GLGSV,3,2,09,75,16,178,08,84,08,145,,85,50,113,24,86,46,013,36*6C
$GLGSV,3,3,09,87,08,345,24*5F
$GNGLL,0419.82776,S,05539.63359,E,124358.00,A,A*63
$GNRMC,124359.00,A,0419.82776,S,05539.63361,E,0.463,,200525,,,A*71
$GNVTG,,T,,M,0.463,N,0.858,K,A*39
$GNGGA,124359.00,0419.82776,S,05539.63361,E,1,12,0.72,7.1,M,-47.6,M,,*74
$GNGSA,A,3,32,18,10,28,26,16,27,31,08,,,,1.52,0.72,1.34*16
$GNGSA,A,3,85,72,71,75,86,65,87,,,,,,1.52,0.72,1.34*17
$GPGSV,4,1,16,08,13,314,28,10,14,009,27,16,24,233,18,18,33,094,11*7B
$GPGSV,4,2,16,23,01,047,,26,28,203,19,27,48,300,35,28,53,139,25*70
$GPGSV,4,3,16,29,07,147,,31,40,181,22,32,50,001,41,36,52,277,*79
$GPGSV,4,4,16,40,84,353,,41,58,082,,49,32,274,,50,10,089,*79
$GLGSV,3,1,09,65,28,252,22,71,11,007,30,72,40,321,33,74,13,128,10*6A
$GLGSV,3,2,09,75,16,178,07,84,08,145,,85,50,113,23,86,46,013,36*64
$GLGSV,3,3,09,87,08,345,22*59
$GNGLL,0419.82776,S,05539.63361,E,124359.00,A,A*69
$GNRMC,124400.00,A,0419.82777,S,05539.63367,E,0.397,,200525,,,A*71
$GNVTG,,T,,M,0.397,N,0.736,K,A*32
$GNGGA,124400.00,0419.82777,S,05539.63367,E,1,12,0.67,7.0,M,-47.6,M,,*7D
$GNGSA,A,3,32,18,10,28,26,16,27,31,08,,,,1.38,0.67,1.20*1B
$GNGSA,A,3,85,72,71,75,86,65,87,,,,,,1.38,0.67,1.20*1A
$GPGSV,4,1,16,08,13,314,26,10,14,009,26,16,24,233,18,18,33,094,12*77
$GPGSV,4,2,16,23,01,047,,26,28,203,21,27,48,300,35,28,53,139,24*7A
$GPGSV,4,3,16,29,07,147,,31,40,181,21,32,50,001,41,36,52,277,*7A
$GPGSV,4,4,16,40,84,353,,41,58,082,,49,32,274,,50,10,089,*79
$GLGSV,3,1,09,65,28,252,22,71,11,007,29,72,40,321,32,74,13,128,06*64
$GLGSV,3,2,09,75,16,178,11,84,08,145,,85,50,113,22,86,46,013,36*62
$GLGSV,3,3,09,87,08,345,21*5A
$GNGLL,0419.82777,S,05539.63367,E,124400.00,A,A*65
$GNRMC,124401.00,A,0419.82791,S,05539.63380,E,0.543,,200525,,,A*7E
$GNVTG,,T,,M,0.543,N,1.006,K,A*38
$GNGGA,124401.00,0419.82791,S,05539.63380,E,1,12,0.67,6.9,M,-47.6,M,,*75
$GNGSA,A,3,32,18,10,28,26,16,27,31,08,,,,1.38,0.67,1.20*1B
$GNGSA,A,3,85,72,71,75,86,65,87,,,,,,1.38,0.67,1.20*1A
$GPGSV,4,1,16,08,13,314,23,10,14,009,27,16,24,233,19,18,33,094,10*70
$GPGSV,4,2,16,23,01,047,,26,28,203,21,27,48,300,35,28,53,139,22*7C
$GPGSV,4,3,16,29,07,147,,31,40,181,20,32,50,001,41,36,52,277,*7B
$GPGSV,4,4,16,40,84,353,,41,58,082,,49,32,274,,50,10,089,*79
$GLGSV,3,1,09,65,28,252,21,71,11,007,28,72,40,321,31,74,13,128,06*65
$GLGSV,3,2,09,75,16,178,10,84,08,145,,85,50,113,21,86,46,013,35*63
$GLGSV,3,3,09,87,08,345,20*5B
$GNGLL,0419.82791,S,05539.63380,E,124401.00,A,A*65
$GNRMC,124402.00,A,0419.82780,S,05539.63377,E,0.142,,200525,,,A*70
$GNVTG,,T,,M,0.142,N,0.262,K,A*3C
$GNGGA,124402.00,0419.82780,S,05539.63377,E,1,12,0.82,6.9,M,-47.6,M,,*75
$GNGSA,A,3,32,10,28,26,16,27,31,08,,,,,1.60,0.82,1.38*1D
$GNGSA,A,3,85,72,71,75,86,65,87,,,,,,1.60,0.82,1.38*15
$GPGSV,4,1,16,08,13,314,22,10,14,010,26,16,24,233,20,18,33,094,08*7B
$GPGSV,4,2,16,23,01,047,,26,28,203,20,27,48,300,35,28,53,139,21*7E
$GPGSV,4,3,16,29,07,147,,31,40,181,20,32,50,001,41,36,52,277,*7B
$GPGSV,4,4,16,40,84,353,,41,58,082,,49,32,274,,50,10,089,*79
$GLGSV,3,1,09,65,28,252,21,71,11,007,28,72,40,321,31,74,13,128,10*62
$GLGSV,3,2,09,75,16,178,10,84,08,145,,85,50,113,19,86,46,013,34*69
$GLGSV,3,3,09,87,08,345,20*5B
$GNGLL,0419.82780,S,05539.63377,E,124402.00,A,A*6E
$GNRMC,124403.00,A,0419.82792,S,05539.63386,E,0.330,,200525,,,A*7B
$GNVTG,,T,,M,0.330,N,0.611,K,A*3B
$GNGGA,124403.00,0419.82792,S,05539.63386,E,1,12,0.67,6.7,M,-47.6,M,,*7C
$GNGSA,A,3,32,18,10,28,26,16,27,31,08,,,,1.38,0.67,1.20*1B
$GNGSA,A,3,85,72,71,75,86,65,87,,,,,,1.38,0.67,1.20*1A
$GPGSV,4,1,16,08,13,314,22,10,14,010,26,16,24,233,22,18,33,094,11*71
$GPGSV,4,2,16,23,01,047,,26,28,203,19,27,48,300,35,28,53,139,21*74
$GPGSV,4,3,16,29,07,147,,31,40,181,21,32,50,001,41,36,52,277,*7A
$GPGSV,4,4,16,40,84,353,,41,58,082,,49,32,274,,50,10,089,*79
$GLGSV,3,1,09,65,28,252,21,71,11,007,28,72,40,321,32,74,13,128,11*60
$GLGSV,3,2,09,75,16,178,08,84,08,145,,85,50,113,18,86,46,013,35*60
$GLGSV,3,3,09,87,08,345,17*5F
$GNGLL,0419.82792,S,05539.63386,E,124403.00,A,A*62
$GNRMC,124404.00,A,0419.82796,S,05539.63389,E,0.253,,200525,,,A*73
$GNVTG,,T,,M,0.253,N,0.469,K,A*32
$GNGGA,124404.00,0419.82796,S,05539.63389,E,1,12,0.67,6.6,M,-47.6,M,,*71
$GNGSA,A,3,32,18,10,28,26,16,27,31,08,,,,1.38,0.67,1.20*1B
$GNGSA,A,3,85,72,71,75,86,65,87,,,,,,1.38,0.67,1.20*1A
$GPGSV,4,1,16,08,13,314,25,10,14,010,26,16,24,233,23,18,33,094,14*72
$GPGSV,4,2,16,23,01,047,,26,28,203,19,27,48,300,36,28,53,139,21*77
$GPGSV,4,3,16,29,07,147,,31,40,181,21,32,50,001,41,36,52,277,*7A
$GPGSV,4,4,16,40,84,353,,41,58,082,,49,32,274,,50,10,089,*79
$GLGSV,3,1,09,65,28,252,20,71,11,007,28,72,40,321,31,74,13,128,06*64
$GLGSV,3,2,09,75,16,178,09,84,08,145,,85,50,113,19,86,46,013,35*60
$GLGSV,3,3,09,87,08,345,18*50
$GNGLL,0419.82796,S,05539.63389,E,124404.00,A,A*6E
$GNRMC,124405.00,A,0419.82792,S,05539.63390,E,0.035,,200525,,,A*7C
$GNVTG,,T,,M,0.035,N,0.066,K,A*3B
$GNGGA,124405.00,0419.82792,S,05539.63390,E,1,12,0.67,6.5,M,-47.6,M,,*7F
$GNGSA,A,3,32,18,10,28,26,16,27,31,08,,,,1.38,0.67,1.20*1B
$GNGSA,A,3,85,72,71,75,86,74,65,87,,,,,1.38,0.67,1.20*19
$GPGSV,4,1,16,08,13,314,27,10,14,010,26,16,24,233,23,18,33,094,15*71
$GPGSV,4,2,16,23,01,047,,26,28,203,20,27,48,300,35,28,53,139,19*75
$GPGSV,4,3,16,29,07,147,,31,40,181,20,32,50,001,41,36,52,277,*7B
$GPGSV,4,4,16,40,84,353,,41,58,082,,49,32,274,,50,10,089,*79
$GLGSV,3,1,09,65,28,252,19,71,11,007,28,72,40,321,31,74,13,128,08*60
$GLGSV,3,2,09,75,16,178,11,84,08,145,,85,50,113,19,86,46,013,36*6A
$GLGSV,3,3,09,87,08,345,20*5B
$GNGLL,0419.82792,S,05539.63390,E,124405.00,A,A*63
$GNRMC,124406.00,A,0419.82788,S,05539.63392,E,0.064,,200525,,,A*72
$GNVTG,,T,,M,0.064,N,0.119,K,A*36
$GNGGA,124406.00,0419.82788,S,05539.63392,E,1,12,0.61,6.6,M,-47.6,M,,*70
$GNGSA,A,3,32,18,10,28,26,16,27,31,08,,,,1.25,0.61,1.09*1A
$GNGSA,A,3,85,72,71,75,86,74,65,87,,,,,1.25,0.61,1.09*18
$GPGSV,4,1,16,08,13,314,27,10,14,010,26,16,24,233,23,18,33,094,16*72
$GPGSV,4,2,16,23,01,047,,26,28,203,22,27,48,300,35,28,53,139,19*77
$GPGSV,4,3,16,29,07,147,,31,40,181,20,32,50,001,41,36,52,277,*7B
$GPGSV,4,4,16,40,84,353,28,41,58,082,,49,32,274,,50,10,089,*73
$GLGSV,3,1,09,65,28,252,19,71,11,007,29,72,40,321,31,74,13,128,13*6B
$GLGSV,3,2,09,75,16,178,11,84,08,145,,85,50,113,21,86,46,013,38*6F
$GLGSV,3,3,09,87,08,345,21*5A
$GNGLL,0419.82788,S,05539.63392,E,124406.00,A,A*69
$GNRMC,124407.00,A,0419.82778,S,05539.63392,E,0.059,,200525,,,A*72
$GNVTG,,T,,M,0.059,N,0.109,K,A*39
$GNGGA,124407.00,0419.82778,S,05539.63392,E,1,12,0.61,6.6,M,-47.6,M,,*7E
$GNGSA,A,3,32,18,10,28,26,16,27,31,40,08,,,1.25,0.61,1.09*1E
$GNGSA,A,3,85,72,71,75,86,74,65,87,,,,,1.25,0.61,1.09*18
$GPGSV,4,1,16,08,13,314,28,10,14,010,27,16,24,233,23,18,33,094,14*7E
$GPGSV,4,2,16,23,01,047,,26,28,203,20,27,48,300,36,28,53,139,19*76
$GPGSV,4,3,16,29,07,147,,31,40,181,23,32,50,001,41,36,52,277,*78
$GPGSV,4,4,16,40,84,353,27,41,58,082,,49,32,274,,50,10,089,*7C
$GLGSV,3,1,09,65,28,252,19,71,11,007,29,72,40,321,31,74,13,128,09*60
$GLGSV,3,2,09,75,16,178,12,84,08,145,,85,50,113,22,86,46,013,37*60
$GLGSV,3,3,09,87,08,345,23*58
$GNGLL,0419.82778,S,05539.63392,E,124407.00,A,A*67
$GNRMC,124408.00,A,0419.82759,S,05539.63395,E,0.123,,200525,,,A*75
$GNVTG,,T,,M,0.123,N,0.228,K,A*35
$GNGGA,124408.00,0419.82759,S,05539.63395,E,1,12,0.82,6.7,M,-47.6,M,,*79
$GNGSA,A,3,32,10,28,26,16,27,31,40,08,,,,1.60,0.82,1.38*19
$GNGSA,A,3,85,72,71,75,86,74,65,87,,,,,1.60,0.82,1.38*16
$GPGSV,4,1,16,08,13,314,27,10,14,010,26,16,24,232,23,18,33,094,*74
$GPGSV,4,2,16,23,01,047,,26,28,203,18,27,48,300,36,28,53,139,20*77
$GPGSV,4,3,16,29,07,147,,31,40,181,23,32,50,001,41,36,52,277,*78
$GPGSV,4,4,16,40,84,353,27,41,58,082,,49,32,274,,50,10,089,*7C
$GLGSV,3,1,09,65,28,252,20,71,11,007,30,72,40,321,31,74,13,128,10*6A
$GLGSV,3,2,09,75,16,178,11,84,08,145,,85,50,113,21,86,46,013,36*61
$GLGSV,3,3,09,87,08,345,23*58
$GNGLL,0419.82759,S,05539.63395,E,124408.00,A,A*6C
$GNRMC,124409.00,A,0419.82755,S,05539.63401,E,0.077,,200525,,,A*72
$GNVTG,,T,,M,0.077,N,0.142,K,A*3A
$GNGGA,124409.00,0419.82755,S,05539.63401,E,1,12,0.75,6.7,M,-47.6,M,,*76
$GNGSA,A,3,32,10,28,26,16,27,31,40,08,,,,1.43,0.75,1.21*18
$GNGSA,A,3,85,72,71,75,86,65,87,,,,,,1.43,0.75,1.21*14
$GPGSV,4,1,16,08,13,314,27,10,14,010,26,16,24,232,22,18,33,094,04*71
$GPGSV,4,2,16,23,01,047,,26,28,203,18,27,48,300,36,28,53,139,21*76
$GPGSV,4,3,16,29,07,147,,31,40,181,22,32,50,001,41,36,52,277,*79
$GPGSV,4,4,16,40,84,353,27,41,58,082,,49,32,274,,50,10,089,*7C
$GLGSV,3,1,09,65,28,252,19,71,11,007,29,72,40,321,31,74,13,128,06*6F
$GLGSV,3,2,09,75,16,178,09,84,08,145,,85,50,113,20,86,46,013,34*6B
$GLGSV,3,3,09,87,08,345,23*58
$GNGLL,0419.82755,S,05539.63401,E,124409.00,A,A*6B
$GNRMC,124410.00,A,0419.82737,S,05539.63401,E,0.156,,200525,,,A*7C
$GNVTG,,T,,M,0.156,N,0.289,K,A*3C
$GNGGA,124410.00,0419.82737,S,05539.63401,E,1,12,0.66,6.9,M,-47.6,M,,*76
$GNGSA,A,3,32,10,28,26,16,27,31,40,08,,,,1.27,0.66,1.09*12
$GNGSA,A,3,85,72,71,75,86,74,65,87,,,,,1.27,0.66,1.09*1D
$GPGSV,4,1,16,08,13,314,27,10,14,010,27,16,24,232,22,18,32,095,07*73
$GPGSV,4,2,16,23,01,047,,26,28,203,19,27,48,300,36,28,53,139,22*74
$GPGSV,4,3,16,29,07,147,,31,40,181,23,32,50,001,41,36,52,277,*78
$GPGSV,4,4,16,40,84,353,27,41,58,082,,49,32,274,,50,10,089,*7C
$GLGSV,3,1,09,65,28,252,19,71,11,007,29,72,40,321,31,74,13,128,09*60
$GLGSV,3,2,09,75,16,178,14,84,08,145,,85,50,113,20,86,46,013,35*66
$GLGSV,3,3,09,87,08,345,23*58
$GNGLL,0419.82737,S,05539.63401,E,124410.00,A,A*67
$GNRMC,124411.00,A,0419.82730,S,05539.63407,E,0.023,,200525,,,A*7F
$GNVTG,,T,,M,0.023,N,0.042,K,A*3A
$GNGGA,124411.00,0419.82730,S,05539.63407,E,1,12,0.75,7.0,M,-47.6,M,,*7C
$GNGSA,A,3,32,10,28,26,16,27,31,40,08,,,,1.43,0.75,1.21*18
$GNGSA,A,3,85,72,71,75,86,65,87,,,,,,1.43,0.75,1.21*14
$GPGSV,4,1,16,08,13,314,26,10,14,010,27,16,24,232,23,18,32,095,09*7D
$GPGSV,4,2,16,23,01,047,,26,28,203,19,27,48,300,36,28,53,139,22*74
$GPGSV,4,3,16,29,07,147,,31,40,181,23,32,50,001,41,36,52,277,*78
$GPGSV,4,4,16,40,84,353,27,41,58,082,,49,32,274,,50,10,089,*7C
$GLGSV,3,1,09,65,28,252,19,71,11,007,30,72,40,321,31,74,13,128,10*60
$GLGSV,3,2,09,75,16,178,10,84,08,145,,85,50,113,19,86,46,013,36*6B
$GLGSV,3,3,09,87,08,345,23*58
$GNGLL,0419.82730,S,05539.63407,E,124411.00,A,A*67
$GNRMC,124412.00,A,0419.82728,S,05539.63420,E,0.052,,200525,,,A*76
$GNVTG,,T,,M,0.052,N,0.096,K,A*35
$GNGGA,124412.00,0419.82728,S,05539.63420,E,1,12,0.75,7.0,M,-47.6,M,,*73
$GNGSA,A,3,32,10,28,26,16,27,31,40,08,,,,1.43,0.75,1.21*18
$GNGSA,A,3,85,72,71,75,86,65,87,,,,,,1.43,0.75,1.21*14
$GPGSV,4,1,16,08,13,314,31,10,14,010,27,16,24,232,23,18,32,095,09*7B
$GPGSV,4,2,16,23,01,047,,26,28,203,21,27,48,300,37,28,53,139,21*7D
$GPGSV,4,3,16,29,07,147,,31,40,181,22,32,50,001,41,36,52,277,*79
$GPGSV,4,4,16,40,84,353,27,41,58,082,,49,32,274,,50,10,089,*7C
$GLGSV,3,1,09,65,28,252,21,71,11,007,30,72,40,321,32,74,13,128,09*60
$GLGSV,3,2,09,75,16,178,10,84,08,145,,85,50,113,18,86,46,013,36*6A
$GLGSV,3,3,09,87,08,345,23*58
$GNGLL,0419.82728,S,05539.63420,E,124412.00,A,A*68
$GNRMC,124413.00,A,0419.82736,S,05539.63433,E,0.222,,200525,,,A*7F
$GNVTG,,T,,M,0.222,N,0.411,K,A*3B
$GNGGA,124413.00,0419.82736,S,05539.63433,E,1,12,0.75,6.9,M,-47.6,M,,*77
$GNGSA,A,3,32,10,28,26,16,27,31,08,,,,,1.43,0.75,1.21*1C
$GNGSA,A,3,85,72,71,75,86,65,87,,,,,,1.43,0.75,1.21*14
$GPGSV,4,1,16,08,13,314,29,10,14,010,28,16,24,232,23,18,32,095,08*7C
$GPGSV,4,2,16,23,01,047,,26,28,203,22,27,48,300,37,28,53,139,22*7D
$GPGSV,4,3,16,29,07,147,,31,40,181,22,32,50,001,42,36,52,277,*7A
$GPGSV,4,4,16,40,84,353,,41,58,082,,49,32,274,,50,10,089,*79
$GLGSV,3,1,09,65,28,252,22,71,11,007,30,72,40,321,33,74,13,128,12*68
$GLGSV,3,2,09,75,16,178,12,84,08,145,,85,50,113,19,86,46,013,36*69
$GLGSV,3,3,09,87,08,345,25*5E
$GNGLL,0419.82736,S,05539.63433,E,124413.00,A,A*64
$GNRMC,124414.00,A,0419.82744,S,05539.63447,E,0.317,,200525,,,A*79
$GNVTG,,T,,M,0.317,N,0.587,K,A*32
$GNGGA,124414.00,0419.82744,S,05539.63447,E,1,12,0.67,6.8,M,-47.6,M,,*74
$GNGSA,A,3,32,18,10,28,26,16,27,31,08,,,,1.38,0.67,1.20*1B
$GNGSA,A,3,85,72,71,75,86,65,87,,,,,,1.38,0.67,1.20*1A
$GPGSV,4,1,16,08,13,314,29,10,14,010,28,16,24,232,24,18,32,095,09*7A
$GPGSV,4,2,16,23,01,048,,26,28,203,23,27,48,300,37,28,53,139,22*73
$GPGSV,4,3,16,29,07,147,,31,40,181,23,32,50,001,41,36,52,277,*78
$GPGSV,4,4,16,40,84,353,,41,58,082,,49,32,274,,50,10,089,*79
$GLGSV,3,1,09,65,28,252,22,71,11,007,30,72,40,321,33,74,13,128,06*6D
$GLGSV,3,2,09,75,16,178,12,84,08,145,,85,50,113,18,86,46,013,36*68
$GLGSV,3,3,09,87,08,345,25*5E
$GNGLL,0419.82744,S,05539.63447,E,124414.00,A,A*65
$GNRMC,124415.00,A,0419.82756,S,05539.63455,E,0.482,,200525,,,A*73
$GNVTG,,T,,M,0.482,N,0.893,K,A*31
$GNGGA,124415.00,0419.82756,S,05539.63455,E,1,12,0.67,6.7,M,-47.6,M,,*7A
$GNGSA,A,3,32,18,10,28,26,16,27,31,08,,,,1.38,0.67,1.20*1B
$GNGSA,A,3,85,72,71,75,86,65,87,,,,,,1.38,0.67,1.20*1A
$GPGSV,4,1,16,08,13,314,27,10,14,010,28,16,24,232,24,18,32,095,13*7F
$GPGSV,4,2,16,23,01,048,,26,28,203,23,27,48,300,36,28,53,139,22*72
$GPGSV,4,3,16,29,07,147,,31,40,181,23,32,50,001,40,36,52,277,*79
$GPGSV,4,4,16,40,84,353,,41,58,082,,49,32,274,,50,10,089,*79
$GLGSV,3,1,09,65,28,252,22,71,11,007,29,72,40,321,31,74,13,128,06*67
$GLGSV,3,2,09,75,16,178,13,84,08,145,,85,50,113,18,86,46,013,33*6C
$GLGSV,3,3,09,87,08,345,24*5F
$GNGLL,0419.82756,S,05539.63455,E,124415.00,A,A*64
$GNRMC,124416.00,A,0419.82758,S,05539.63459,E,0.322,,200525,,,A*7F
$GNVTG,,T,,M,0.322,N,0.596,K,A*34
$GNGGA,124416.00,0419.82758,S,05539.63459,E,1,12,0.67,6.7,M,-47.6,M,,*7B
$GNGSA,A,3,32,18,10,28,26,16,27,31,08,,,,1.38,0.67,1.20*1B
$GNGSA,A,3,85,72,71,75,86,65,87,,,,,,1.38,0.67,1.20*1A
$GPGSV,4,1,16,08,13,314,27,10,14,010,27,16,24,232,24,18,32,095,08*7A
$GPGSV,4,2,16,23,01,048,,26,28,203,22,27,48,300,36,28,53,139,22*73
$GPGSV,4,3,16,29,07,147,,31,40,181,23,32,50,001,40,36,52,277,*79
$GPGSV,4,4,16,40,84,353,,41,58,082,,49,32,274,,50,10,089,*79
$GLGSV,3,1,09,65,28,252,21,71,11,007,29,72,40,321,30,74,13,128,09*6A
$GLGSV,3,2,09,75,16,178,13,84,08,145,,85,50,113,18,86,46,013,33*6C
$GLGSV,3,3,09,87,08,345,24*5F
$GNGLL,0419.82758,S,05539.63459,E,124416.00,A,A*65
$GNRMC,124417.00,A,0419.82764,S,05539.63462,E,0.509,,200525,,,A*76
$GNVTG,,T,,M,0.509,N,0.942,K,A*3E
$GNGGA,124417.00,0419.82764,S,05539.63462,E,1,12,0.67,6.7,M,-47.6,M,,*7D
$GNGSA,A,3,32,18,10,28,26,16,27,31,08,,,,1.38,0.67,1.20*1B
$GNGSA,A,3,85,72,71,75,86,65,87,,,,,,1.38,0.67,1.20*1A
$GPGSV,4,1,16,08,13,314,28,10,14,010,27,16,24,232,24,18,32,095,15*79
$GPGSV,4,2,16,23,01,048,,26,28,202,22,27,48,300,35,28,53,139,22*71
$GPGSV,4,3,16,29,07,147,,31,40,181,24,32,50,001,41,36,52,277,*7F
$GPGSV,4,4,16,40,84,353,,41,58,082,,49,32,274,,50,10,089,*79
$GLGSV,3,1,09,65,28,252,21,71,11,007,30,72,40,321,31,74,13,128,08*62
$GLGSV,3,2,09,75,16,178,13,84,08,145,,85,50,113,18,86,46,013,36*69
$GLGSV,3,3,09,87,08,345,24*5F
$GNGLL,0419.82764,S,05539.63462,E,124417.00,A,A*63
$GNRMC,124418.00,A,0419.82762,S,05539.63465,E,0.253,,200525,,,A*70
$GNVTG,,T,,M,0.253,N,0.469,K,A*32
$GNGGA,124418.00,0419.82762,S,05539.63465,E,1,12,0.67,6.8,M,-47.6,M,,*7C
$GNGSA,A,3,32,18,10,28,26,16,27,31,08,,,,1.38,0.67,1.20*1B
$GNGSA,A,3,85,72,71,75,86,65,87,,,,,,1.38,0.67,1.20*1A
$GPGSV,4,1,16,08,13,314,28,10,14,010,26,16,24,232,24,18,32,095,10*7D
$GPGSV,4,2,16,23,01,048,,26,28,202,22,27,49,299,35,28,53,139,21*72
$GPGSV,4,3,16,29,07,147,,31,40,181,25,32,50,001,41,36,52,277,*7E
$GPGSV,4,4,16,40,84,353,,41,58,082,,49,32,274,,50,10,089,*79
$GLGSV,3,1,09,65,28,252,22,71,11,007,30,72,40,321,31,74,13,128,09*60
$GLGSV,3,2,09,75,16,178,08,84,08,145,,85,50,113,19,86,46,013,36*62
$GLGSV,3,3,09,87,08,345,25*5E
$GNGLL,0419.82762,S,05539.63465,E,124418.00,A,A*6D
$GNRMC,124419.00,A,0419.82748,S,05539.63462,E,0.151,,200525,,,A*7F
$GNVTG,,T,,M,0.151,N,0.280,K,A*32
$GNGGA,124419.00,0419.82748,S,05539.63462,E,1,12,0.67,7.0,M,-47.6,M,,*7B
$GNGSA,A,3,32,18,10,28,26,16,27,31,08,,,,1.38,0.67,1.20*1B
$GNGSA,A,3,85,72,71,75,86,65,87,,,,,,1.38,0.67,1.20*1A
$GPGSV,4,1,16,08,13,314,28,10,14,010,25,16,24,232,24,18,32,095,10*7E
$GPGSV,4,2,16,23,01,048,,26,28,202,22,27,49,299,35,28,54,138,21*74
$GPGSV,4,3,16,29,07,147,,31,40,181,25,32,50,001,41,36,52,277,*7E
$GPGSV,4,4,16,40,84,353,,41,58,082,,49,32,274,,50,10,089,*79
$GLGSV,3,1,09,65,28,252,23,71,11,007,31,72,40,321,31,74,13,128,08*61
$GLGSV,3,2,09,75,16,178,12,84,08,145,,85,50,113,20,86,46,013,36*63
$GLGSV,3,3,09,87,08,345,27*5C
$GNGLL,0419.82748,S,05539.63462,E,124419.00,A,A*63
$GNRMC,124420.00,A,0419.82747,S,05539.63462,E,0.194,,200525,,,A*73
$GNVTG,,T,,M,0.194,N,0.360,K,A*34
$GNGGA,124420.00,0419.82747,S,05539.63462,E,1,12,0.67,7.1,M,-47.6,M,,*7F
$GNGSA,A,3,32,18,10,28,26,16,27,31,08,,,,1.38,0.67,1.20*1B
$GNGSA,A,3,85,72,71,75,86,65,87,,,,,,1.38,0.67,1.20*1A
$GPGSV,4,1,16,08,13,314,29,10,14,010,26,16,24,232,24,18,32,095,07*7A
$GPGSV,4,2,16,23,01,048,,26,28,202,23,27,49,299,36,28,54,138,22*75
$GPGSV,4,3,16,29,06,147,,31,40,181,25,32,50,001,41,36,52,277,*7F
$GPGSV,4,4,16,40,84,353,,41,58,082,,49,32,274,,50,10,089,*79
$GLGSV,3,1,09,65,28,252,23,71,11,007,31,72,40,321,30,74,13,128,07*6F
$GLGSV,3,2,09,75,16,178,12,84,08,145,,85,50,113,20,86,46,013,35*60
$GLGSV,3,3,09,87,08,345,27*5C
$GNGLL,0419.82747,S,05539.63462,E,124420.00,A,A*66
$GNRMC,124421.00,A,0419.82730,S,05539.63457,E,0.114,,200525,,,A*7C
$GNVTG,,T,,M,0.114,N,0.212,K,A*38
$GNGGA,124421.00,0419.82730,S,05539.63457,E,1,12,0.67,7.3,M,-47.6,M,,*7A
$GNGSA,A,3,32,18,10,28,26,16,27,31,08,,,,1.38,0.67,1.20*1B
$GNGSA,A,3,85,72,71,75,86,65,87,,,,,,1.38,0.67,1.20*1A
$GPGSV,4,1,16,08,13,314,30,10,14,010,26,16,24,232,24,18,32,095,11*75
$GPGSV,4,2,16,23,01,048,,26,28,202,24,27,49,299,37,28,54,138,22*73
$GPGSV,4,3,16,29,06,147,,31,40,181,27,32,50,001,43,36,52,277,*7F
$GPGSV,4,4,16,40,84,353,,41,58,082,,49,32,274,,50,10,089,*79
$GLGSV,3,1,09,65,28,252,23,71,11,007,31,72,40,321,30,74,13,128,08*60
$GLGSV,3,2,09,75,16,178,16,84,08,145,,85,50,113,19,86,46,013,36*6D
$GLGSV,3,3,09,87,08,345,27*5C
$GNGLL,0419.82730,S,05539.63457,E,124421.00,A,A*61
$GNRMC,124422.00,A,0419.82722,S,05539.63454,E,0.086,,200525,,,A*75
$GNVTG,,T,,M,0.086,N,0.159,K,A*3E
$GNGGA,124422.00,0419.82722,S,05539.63454,E,1,12,0.67,7.4,M,-47.6,M,,*7E
$GNGSA,A,3,32,18,10,28,26,16,27,31,08,,,,1.38,0.67,1.20*1B
$GNGSA,A,3,85,72,71,75,86,65,87,,,,,,1.38,0.67,1.20*1A
$GPGSV,4,1,16,08,13,314,30,10,14,010,26,16,24,232,24,18,32,095,11*75
$GPGSV,4,2,16,23,01,048,,26,28,202,24,27,49,299,37,28,54,138,22*73
$GPGSV,4,3,16,29,06,147,,31,41,180,26,32,50,001,43,36,52,277,*7E
$GPGSV,4,4,16,40,84,353,,41,58,082,,49,32,274,,50,10,089,*79
$GLGSV,3,1,09,65,28,252,22,71,11,007,30,72,40,321,30,74,13,128,09*61
$GLGSV,3,2,09,75,16,178,08,84,08,145,,85,50,113,20,86,46,013,36*68
$GLGSV,3,3,09,87,08,345,27*5C
$GNGLL,0419.82722,S,05539.63454,E,124422.00,A,A*62
$GNRMC,124423.00,A,0419.82712,S,05539.63449,E,0.005,,200525,,,A*70
$GNVTG,,T,,M,0.005,N,0.009,K,A*31
$GNGGA,124423.00,0419.82712,S,05539.63449,E,1,12,0.75,7.5,M,-47.6,M,,*72
$GNGSA,A,3,32,18,10,28,26,16,27,31,08,,,,1.43,0.75,1.21*15
$GNGSA,A,3,85,72,71,75,86,65,87,,,,,,1.43,0.75,1.21*14
$GPGSV,4,1,16,08,13,314,27,10,14,010,26,16,24,232,23,18,32,095,10*75
$GPGSV,4,2,16,23,01,048,,26,28,202,24,27,49,299,36,28,54,138,22*72
$GPGSV,4,3,16,29,06,147,,31,41,180,26,32,49,002,42,36,52,277,*74
$GPGSV,4,4,16,40,84,353,,41,58,082,,49,32,274,,50,10,089,*79
$GLGSV,3,1,09,65,28,252,22,71,11,007,29,72,40,321,30,74,13,128,09*69
$GLGSV,3,2,09,75,16,178,12,84,08,145,,85,50,113,20,86,46,013,35*60
$GLGSV,3,3,09,87,08,345,27*5C
$GNGLL,0419.82712,S,05539.63449,E,124423.00,A,A*6C
$GNRMC,124424.00,A,0419.82705,S,05539.63445,E,0.147,,200525,,,A*7A
$GNVTG,,T,,M,0.147,N,0.272,K,A*38
$GNGGA,124424.00,0419.82705,S,05539.63445,E,1,12,0.67,7.5,M,-47.6,M,,*7C
$GNGSA,A,3,32,18,10,28,26,16,27,31,08,,,,1.38,0.67,1.20*1B
$GNGSA,A,3,85,72,71,75,86,65,87,,,,,,1.38,0.67,1.20*1A
$GPGSV,4,1,16,08,13,314,25,10,14,010,25,16,24,232,23,18,32,095,10*74
$GPGSV,4,2,16,23,01,048,,26,28,202,24,27,49,299,35,28,54,138,22*71
$GPGSV,4,3,16,29,06,147,,31,41,180,26,32,49,002,41,36,52,277,*77
$GPGSV,4,4,16,40,84,353,,41,58,082,,49,32,274,,50,10,089,*79
$GLGSV,3,1,09,65,28,252,22,71,11,007,29,72,40,321,31,74,13,128,08*69
$GLGSV,3,2,09,75,16,178,10,84,08,145,,85,50,113,20,86,46,013,35*62
$GLGSV,3,3,09,87,08,345,25*5E
$GNGLL,0419.82705,S,05539.63445,E,124424.00,A,A*61
$GNRMC,124425.00,A,0419.82697,S,05539.63443,E,0.023,,200525,,,A*74
$GNVTG,,T,,M,0.023,N,0.043,K,A*3B
$GNGGA,124425.00,0419.82697,S,05539.63443,E,1,12,0.67,7.7,M,-47.6,M,,*73
$GNGSA,A,3,32,18,10,28,26,16,27,31,08,,,,1.38,0.67,1.20*1B
$GNGSA,A,3,85,72,71,75,86,65,87,,,,,,1.38,0.67,1.20*1A
$GPGSV,4,1,16,08,13,314,25,10,14,010,25,16,24,232,23,18,32,095,09*7C
$GPGSV,4,2,16,23,01,048,,26,28,202,23,27,49,299,35,28,54,138,23*77
$GPGSV,4,3,16,29,06,147,,31,41,180,25,32,49,002,41,36,52,277,*74
$GPGSV,4,4,16,40,84,353,,41,58,082,,49,32,274,,50,10,089,*79
$GLGSV,3,1,09,65,28,252,22,71,11,007,29,72,40,321,31,74,13,128,10*60
$GLGSV,3,2,09,75,16,178,11,84,08,145,,85,50,113,22,86,46,013,36*62
$GLGSV,3,3,09,87,08,345,25*5E
$GNGLL,0419.82697,S,05539.63443,E,124425.00,A,A*6C
$GNRMC,124426.00,A,0419.82690,S,05539.63440,E,0.096,,200525,,,A*7D
$GNVTG,,T,,M,0.096,N,0.179,K,A*3D
$GNGGA,124426.00,0419.82690,S,05539.63440,E,1,12,0.82,7.6,M,-47.6,M,,*7E
$GNGSA,A,3,32,18,10,28,26,16,27,31,08,,,,1.60,0.82,1.38*14
$GNGSA,A,3,85,72,71,75,86,74,65,87,,,,,1.60,0.82,1.38*16
$GPGSV,4,1,16,08,13,314,26,10,14,010,25,16,24,232,22,18,32,095,09*7E
$GPGSV,4,2,16,23,01,048,,26,28,202,23,27,49,299,35,28,54,138,23*77
$GPGSV,4,3,16,29,06,147,,31,41,180,25,32,49,002,41,36,52,277,*74
$GPGSV,4,4,16,40,84,353,,41,58,082,,49,32,274,,50,10,089,*79
$GLGSV,3,1,09,65,28,252,22,71,11,007,29,72,40,321,31,74,13,128,12*62
$GLGSV,3,2,09,75,16,178,13,84,08,145,,85,50,113,22,86,46,013,36*60
$GLGSV,3,3,09,87,08,345,25*5E
$GNGLL,0419.82690,S,05539.63440,E,124426.00,A,A*6B
$GNRMC,124427.00,A,0419.82681,S,05539.63436,E,0.027,,200525,,,A*77
$GNVTG,,T,,M,0.027,N,0.049,K,A*35
$GNGGA,124427.00,0419.82681,S,05539.63436,E,1,12,0.61,7.7,M,-47.6,M,,*72
$GNGSA,A,3,32,18,10,28,26,16,27,31,08,,,,1.25,0.61,1.09*1A
$GNGSA,A,3,85,72,71,75,86,74,65,87,,,,,1.25,0.61,1.09*18
$GPGSV,4,1,16,08,13,314,27,10,14,010,25,16,24,232,23,18,32,095,13*75
$GPGSV,4,2,16,23,01,048,,26,28,202,23,27,49,299,36,28,54,138,24*73
$GPGSV,4,3,16,29,06,147,,31,41,180,25,32,49,002,41,36,52,277,*74
$GPGSV,4,4,16,40,84,353,,41,58,082,,49,32,274,,50,10,089,*79
$GLGSV,3,1,09,65,28,252,22,71,11,007,30,72,40,321,31,74,13,128,09*60
$GLGSV,3,2,09,75,16,178,14,84,08,145,,85,50,113,23,86,46,013,36*66
$GLGSV,3,3,09,87,08,345,26*5D
$GNGLL,0419.82681,S,05539.63436,E,124427.00,A,A*6B
$GNRMC,124428.00,A,0419.82677,S,05539.63433,E,0.118,,200525,,,A*79
$GNVTG,,T,,M,0.118,N,0.218,K,A*3E
$GNGGA,124428.00,0419.82677,S,05539.63433,E,1,12,0.61,7.6,M,-47.6,M,,*70
$GNGSA,A,3,32,18,10,28,26,16,27,31,08,,,,1.25,0.61,1.09*1A
$GNGSA,A,3,85,72,71,75,86,74,65,87,,,,,1.25,0.61,1.09*18
$GPGSV,4,1,16,08,13,314,27,10,14,010,26,16,24,232,21,18,32,095,09*7F
$GPGSV,4,2,16,23,01,048,,26,28,202,22,27,49,299,35,28,54,138,22*77
$GPGSV,4,3,16,29,06,147,,31,41,180,24,32,49,002,38,36,52,277,*7B
$GPGSV,4,4,16,40,84,353,,41,58,082,27,49,32,274,,50,10,089,*7C
$GLGSV,3,1,09,65,28,252,23,71,11,007,29,72,40,321,30,74,13,128,09*68
$GLGSV,3,2,09,75,16,178,12,84,08,145,,85,50,113,23,86,46,013,37*61
$GLGSV,3,3,09,87,08,345,28*53
$GNGLL,0419.82677,S,05539.63433,E,124428.00,A,A*68
$GNRMC,124429.00,A,0419.82664,S,05539.63428,E,0.047,,200525,,,A*7B
$GNVTG,,T,,M,0.047,N,0.087,K,A*31
$GNGGA,124429.00,0419.82664,S,05539.63428,E,1,12,0.82,7.5,M,-47.6,M,,*77
$GNGSA,A,3,32,18,10,28,26,16,27,31,08,,,,1.60,0.82,1.38*14
$GNGSA,A,3,85,72,71,75,86,74,65,87,,,,,1.60,0.82,1.38*16
$GPGSV,4,1,16,08,13,314,33,10,14,010,27,16,24,232,21,18,32,095,08*7A
$GPGSV,4,2,16,23,01,048,,26,28,202,22,27,49,299,34,28,54,138,22*76
$GPGSV,4,3,16,29,06,147,,31,41,180,23,32,49,002,37,36,52,277,*73
$GPGSV,4,4,16,40,84,353,,41,58,082,,49,32,274,,50,10,089,*79
$GLGSV,3,1,09,65,28,252,23,71,11,007,27,72,40,321,31,74,13,128,09*67
$GLGSV,3,2,09,75,16,178,13,84,08,145,,85,50,113,21,86,46,013,37*62
$GLGSV,3,3,09,87,08,345,33*59
$GNGLL,0419.82664,S,05539.63428,E,124429.00,A,A*61
$GNRMC,124430.00,A,0419.82660,S,05539.63427,E,0.109,,200525,,,A*73
$GNVTG,,T,,M,0.109,N,0.202,K,A*35
$GNGGA,124430.00,0419.82660,S,05539.63427,E,1,12,0.61,7.3,M,-47.6,M,,*7F
$GNGSA,A,3,32,18,10,28,26,16,27,31,08,,,,1.25,0.61,1.09*1A
$GNGSA,A,3,85,72,71,75,86,74,65,87,,,,,1.25,0.61,1.09*18
$GPGSV,4,1,16,08,13,314,34,10,14,010,28,16,24,232,20,18,32,095,17*7D
$GPGSV,4,2,16,23,01,048,,26,28,202,21,27,49,299,34,28,54,138,23*74
$GPGSV,4,3,16,29,06,147,,31,41,180,24,32,49,002,39,36,52,277,*7A
$GPGSV,4,4,16,40,84,353,,41,58,082,,49,32,274,,50,10,089,*79
$GLGSV,3,1,09,65,28,252,23,71,11,007,27,72,40,321,32,74,13,128,09*64
$GLGSV,3,2,09,75,16,178,11,84,08,145,,85,50,113,18,86,46,013,37*6A
$GLGSV,3,3,09,87,08,345,33*59
$GNGLL,0419.82660,S,05539.63427,E,124430.00,A,A*62
$GNRMC,124431.00,A,0419.82653,S,05539.63427,E,0.041,,200525,,,A*7F
$GNVTG,,T,,M,0.041,N,0.075,K,A*3A
$GNGGA,124431.00,0419.82653,S,05539.63427,E,1,12,0.61,7.3,M,-47.6,M,,*7E
$GNGSA,A,3,32,18,10,28,26,16,27,31,08,,,,1.25,0.61,1.09*1A
$GNGSA,A,3,85,72,71,75,86,74,65,87,,,,,1.25,0.61,1.09*18
$GPGSV,4,1,16,08,13,314,35,10,14,010,28,16,24,232,20,18,32,095,11*7A
$GPGSV,4,2,16,23,01,048,,26,28,202,22,27,49,299,34,28,54,138,25*71
$GPGSV,4,3,16,29,06,147,,31,41,180,25,32,49,002,39,36,52,277,*7B
$GPGSV,4,4,16,40,84,353,,41,58,082,,49,32,274,,50,10,089,*79
$GLGSV,3,1,09,65,28,252,22,71,11,007,27,72,40,321,32,74,13,128,09*65
$GLGSV,3,2,09,75,16,178,09,84,08,145,,85,50,113,15,86,46,013,36*6F
$GLGSV,3,3,09,87,08,345,33*59
$GNGLL,0419.82653,S,05539.63427,E,124431.00,A,A*63
$GNRMC,124432.00,A,0419.82643,S,05539.63427,E,0.040,,200525,,,A*7C
$GNVTG,,T,,M,0.040,N,0.074,K,A*3A
$GNGGA,124432.00,0419.82643,S,05539.63427,E,1,12,0.75,7.3,M,-47.6,M,,*79
$GNGSA,A,3,32,18,10,28,26,16,27,31,08,,,,1.43,0.75,1.21*15
$GNGSA,A,3,85,72,71,75,86,65,87,,,,,,1.43,0.75,1.21*14
$GPGSV,4,1,16,08,13,314,34,10,14,010,27,16,24,232,20,18,32,095,08*7C
$GPGSV,4,2,16,23,01,048,,26,28,202,20,27,49,299,34,28,54,138,25*73
$GPGSV,4,3,16,29,06,147,,31,41,180,23,32,49,002,38,36,52,277,*7C
$GPGSV,4,4,16,40,84,353,,41,58,082,,49,32,274,,50,10,089,*79
$GLGSV,3,1,09,65,28,252,22,71,11,007,27,72,40,321,32,74,13,128,08*64
$GLGSV,3,2,09,75,16,178,09,84,08,145,,85,50,113,17,86,46,013,36*6D
$GLGSV,3,3,09,87,08,345,33*59
$GNGLL,0419.82643,S,05539.63427,E,124432.00,A,A*61
$GNRMC,124433.00,A,0419.82648,S,05539.63429,E,0.297,,200525,,,A*70
$GNVTG,,T,,M,0.297,N,0.549,K,A*39
$GNGGA,124433.00,0419.82648,S,05539.63429,E,1,12,0.67,7.1,M,-47.6,M,,*7C
$GNGSA,A,3,32,18,10,28,26,16,27,31,08,,,,1.38,0.67,1.20*1B
$GNGSA,A,3,85,72,71,75,86,65,87,,,,,,1.38,0.67,1.20*1A
$GPGSV,4,1,16,08,13,314,33,10,14,010,28,16,24,232,20,18,32,095,09*75
$GPGSV,4,2,16,23,01,048,,26,28,202,19,27,49,299,34,28,54,138,26*7A
$GPGSV,4,3,16,29,06,147,,31,41,180,23,32,49,002,38,36,52,277,*7C
$GPGSV,4,4,16,40,84,353,,41,58,082,,49,32,274,,50,10,089,*79
$GLGSV,3,1,09,65,28,252,22,71,11,007,26,72,40,321,32,74,13,128,08*65
$GLGSV,3,2,09,75,16,178,12,84,08,145,,85,50,113,17,86,46,013,37*66
$GLGSV,3,3,09,87,08,345,32*58
$GNGLL,0419.82648,S,05539.63429,E,124433.00,A,A*65
$GNRMC,124434.00,A,0419.82653,S,05539.63430,E,0.332,,200525,,,A*7B
$GNVTG,,T,,M,0.332,N,0.614,K,A*3C
$GNGGA,124434.00,0419.82653,S,05539.63430,E,1,12,0.67,7.0,M,-47.6,M,,*78
$GNGSA,A,3,32,18,10,28,26,16,27,31,08,,,,1.38,0.67,1.20*1B
$GNGSA,A,3,85,72,71,75,86,65,87,,,,,,1.38,0.67,1.20*1A
$GPGSV,4,1,16,08,13,314,32,10,14,010,28,16,24,232,19,18,32,095,09*7E
$GPGSV,4,2,16,23,01,048,,26,28,202,18,27,49,299,34,28,54,138,25*78
$GPGSV,4,3,16,29,06,147,15,31,41,180,22,32,49,002,38,36,52,277,*79
$GPGSV,4,4,16,40,84,353,,41,58,082,,49,32,274,,50,10,089,*79
$GLGSV,3,1,09,65,28,252,22,71,11,007,26,72,40,321,32,74,13,128,08*65
$GLGSV,3,2,09,75,16,178,10,84,08,145,,85,50,113,17,86,46,013,36*65
$GLGSV,3,3,09,87,08,345,32*58
$GNGLL,0419.82653,S,05539.63430,E,124434.00,A,A*60
$GNRMC,124435.00,A,0419.82640,S,05539.63425,E,0.040,,200525,,,A*7A
$GNVTG,,T,,M,0.040,N,0.074,K,A*3A
$GNGGA,124435.00,0419.82640,S,05539.63425,E,1,12,0.75,7.1,M,-47.6,M,,*7D
$GNGSA,A,3,32,18,10,28,26,16,27,31,08,,,,1.43,0.75,1.21*15
$GNGSA,A,3,85,72,71,75,86,74,65,87,,,,,1.43,0.75,1.21*17
$GPGSV,4,1,16,08,13,314,32,10,14,010,28,16,24,232,19,18,32,095,08*7F
$GPGSV,4,2,16,23,01,048,,26,28,202,16,27,49,299,34,28,54,138,25*76
$GPGSV,4,3,16,29,06,147,,31,41,180,23,32,49,002,39,36,52,277,*7D
$GPGSV,4,4,16,40,84,353,,41,58,082,,49,32,274,,50,10,089,*79
$GLGSV,3,1,09,65,28,252,22,71,11,007,25,72,40,321,32,74,13,128,11*6E
$GLGSV,3,2,09,75,16,178,11,84,08,145,,85,50,113,16,86,46,013,37*64
$GLGSV,3,3,09,87,08,345,31*5B
$GNGLL,0419.82640,S,05539.63425,E,124435.00,A,A*67
$GNRMC,124436.00,A,0419.82631,S,05539.63424,E,0.111,,200525,,,A*7B
$GNVTG,,T,,M,0.111,N,0.206,K,A*38
$GNGGA,124436.00,0419.82631,S,05539.63424,E,1,12,0.61,7.1,M,-47.6,M,,*7C
$GNGSA,A,3,32,18,10,28,26,16,27,31,08,,,,1.25,0.61,1.09*1A
$GNGSA,A,3,85,72,71,75,86,74,65,87,,,,,1.25,0.61,1.09*18
$GPGSV,4,1,16,08,13,314,32,10,14,010,28,16,24,232,19,18,32,095,09*7E
$GPGSV,4,2,16,23,01,048,,26,28,202,16,27,49,299,34,28,54,138,25*76
$GPGSV,4,3,16,29,06,147,,31,41,180,23,32,49,002,38,36,52,277,*7C
$GPGSV,4,4,16,40,84,353,,41,58,082,,49,32,274,,50,10,089,*79
$GLGSV,3,1,09,65,28,252,22,71,11,007,24,72,40,321,31,74,13,128,10*6D
$GLGSV,3,2,09,75,16,178,09,84,08,145,,85,50,113,16,86,46,013,37*6D
$GLGSV,3,3,09,87,08,345,31*5B
$GNGLL,0419.82631,S,05539.63424,E,124436.00,A,A*63
$GNRMC,124437.00,A,0419.82626,S,05539.63421,E,0.122,,200525,,,A*79
$GNVTG,,T,,M,0.122,N,0.226,K,A*3A
$GNGGA,124437.00,0419.82626,S,05539.63421,E,1,12,0.61,7.1,M,-47.6,M,,*7E
$GNGSA,A,3,32,18,10,28,26,16,27,31,08,,,,1.25,0.61,1.09*1A
$GNGSA,A,3,85,72,71,75,86,74,65,87,,,,,1.25,0.61,1.09*18
$GPGSV,4,1,16,08,13,314,31,10,14,010,28,16,24,232,19,18,32,095,13*76
$GPGSV,4,2,16,23,01,048,,26,28,202,15,27,49,299,34,28,54,138,26*76
$GPGSV,4,3,16,29,06,147,,31,41,180,23,32,49,002,39,36,52,277,*7D
$GPGSV,4,4,16,40,84,353,,41,58,082,,49,32,274,,50,10,089,*79
$GLGSV,3,1,09,65,28,252,21,71,11,007,23,72,40,321,31,74,13,128,07*6F
$GLGSV,3,2,09,75,16,178,12,84,08,145,,85,50,113,16,86,46,013,37*67
$GLGSV,3,3,09,87,08,345,31*5B
$GNGLL,0419.82626,S,05539.63421,E,124437.00,A,A*61
$GNRMC,124438.00,A,0419.82621,S,05539.63418,E,0.126,,200525,,,A*7F
$GNVTG,,T,,M,0.126,N,0.234,K,A*3D
$GNGGA,124438.00,0419.82621,S,05539.63418,E,1,12,0.75,7.1,M,-47.6,M,,*79
$GNGSA,A,3,32,18,10,28,26,16,27,31,08,,,,1.43,0.75,1.21*15
$GNGSA,A,3,85,72,71,75,86,65,87,,,,,,1.43,0.75,1.21*14
$GPGSV,4,1,16,08,13,314,31,10,14,010,28,16,24,232,19,18,32,095,09*7D
$GPGSV,4,2,16,23,01,048,,26,28,202,14,27,49,299,34,28,54,138,26*77
$GPGSV,4,3,16,29,06,147,,31,41,180,23,32,49,002,39,36,52,277,*7D
$GPGSV,4,4,16,40,84,353,,41,58,082,,49,32,274,,50,10,089,*79
$GLGSV,3,1,09,65,28,252,21,71,11,007,22,72,40,321,30,74,13,128,06*6E
$GLGSV,3,2,09,75,16,178,09,84,08,145,,85,50,113,16,86,46,013,37*6D
$GLGSV,3,3,09,87,08,345,30*5A
$GNGLL,0419.82621,S,05539.63418,E,124438.00,A,A*63
$GNRMC,124439.00,A,0419.82610,S,05539.63414,E,0.027,,200525,,,A*70
$GNVTG,,T,,M,0.027,N,0.049,K,A*35
$GNGGA,124439.00,0419.82610,S,05539.63414,E,1,12,0.67,7.2,M,-47.6,M,,*76
$GNGSA,A,3,32,18,10,28,26,16,27,31,08,,,,1.38,0.67,1.20*1B
$GNGSA,A,3,85,72,71,75,86,65,87,,,,,,1.38,0.67,1.20*1A
$GPGSV,4,1,16,08,13,314,32,10,14,010,28,16,24,232,19,18,32,095,10*76
$GPGSV,4,2,16,23,01,048,,26,28,202,14,27,49,299,34,28,54,138,26*77
$GPGSV,4,3,16,29,06,147,,31,41,180,23,32,49,002,39,36,52,277,*7D
$GPGSV,4,4,16,40,84,353,,41,58,082,,49,32,274,,50,10,089,*79
$GLGSV,3,1,09,65,28,252,20,71,11,007,23,72,40,321,30,74,13,128,08*60
$GLGSV,3,2,09,75,16,178,13,84,08,145,,85,50,113,16,86,46,013,37*66
$GLGSV,3,3,09,87,08,345,31*5B
$GNGLL,0419.82610,S,05539.63414,E,124439.00,A,A*6C
$GNRMC,124440.00,A,0419.82612,S,05539.63414,E,0.248,,200525,,,A*77
$GNVTG,,T,,M,0.248,N,0.459,K,A*3B
$GNGGA,124440.00,0419.82612,S,05539.63414,E,1,12,0.67,7.1,M,-47.6,M,,*79
$GNGSA,A,3,32,18,10,28,26,16,27,31,08,,,,1.38,0.67,1.20*1B
$GNGSA,A,3,85,72,71,75,86,65,87,,,,,,1.38,0.67,1.20*1A
$GPGSV,4,1,16,08,13,314,31,10,14,010,28,16,24,232,19,18,32,095,10*75
$GPGSV,4,2,16,23,01,048,,26,28,202,12,27,49,299,34,28,54,138,26*71
$GPGSV,4,3,16,29,06,147,,31,41,180,23,32,49,002,39,36,52,277,*7D
$GPGSV,4,4,16,40,84,353,,41,58,082,,49,32,274,,50,10,089,*79
$GLGSV,3,1,09,65,28,252,20,71,11,007,23,72,40,321,30,74,13,128,08*60
