$GNRMC,123934.00,A,0419.83084,S,05539.62306,E,0.044,,200525,,,D*78
$GNVTG,,T,,M,0.044,N,0.082,K,D*32
$GNGGA,123934.00,0419.83084,S,05539.62306,E,2,12,0.67,9.2,M,-47.6,M,,0000*73
$GNGSA,A,3,32,18,10,28,26,16,27,31,40,41,08,,1.24,0.67,1.05*10
$GNGSA,A,3,85,72,71,75,86,65,87,,,,,,1.24,0.67,1.05*10
$GPGSV,4,1,16,08,12,315,39,10,15,008,40,16,25,235,40,18,33,092,15*72
$GPGSV,4,2,16,23,01,046,,26,28,204,31,27,47,302,34,28,53,142,11*7B
$GPGSV,4,3,16,29,08,148,11,31,39,182,18,32,52,001,27,36,52,277,*7F
$GPGSV,4,4,16,40,84,353,33,41,58,082,29,49,32,274,,50,10,089,*72
$GLGSV,3,1,09,65,27,249,36,71,13,006,31,72,42,319,26,74,12,131,08*65
$GLGSV,3,2,09,75,16,181,11,84,09,143,,85,51,109,08,86,43,011,32*62
$GLGSV,3,3,09,87,06,345,29*5C
$GNGLL,0419.83084,S,05539.62306,E,123934.00,A,D*61
$GNRMC,123935.00,A,0419.83086,S,05539.62310,E,0.117,,200525,,,D*7B
$GNVTG,,T,,M,0.117,N,0.216,K,D*3A
$GNGGA,123935.00,0419.83086,S,05539.62310,E,2,12,0.79,9.2,M,-47.6,M,,0000*78
$GNGSA,A,3,32,18,10,28,26,16,27,31,40,41,08,,1.59,0.79,1.39*1A
$GNGSA,A,3,85,72,71,75,86,65,87,,,,,,1.59,0.79,1.39*1A
$GPGSV,4,1,16,08,12,315,38,10,15,008,36,16,25,235,36,18,33,092,15*73
$GPGSV,4,2,16,23,01,046,,26,28,204,30,27,47,302,31,28,53,142,13*7D
$GPGSV,4,3,16,29,08,148,07,31,39,182,17,32,52,001,24,36,52,277,*74
$GPGSV,4,4,16,40,84,353,31,41,58,082,27,49,32,274,,50,10,089,*7E
$GLGSV,3,1,09,65,27,249,33,71,13,006,30,72,42,319,26,74,12,131,10*68
$GLGSV,3,2,09,75,16,181,07,84,09,143,,85,51,109,09,86,43,011,31*67
$GLGSV,3,3,09,87,06,345,28*5D
$GNGLL,0419.83086,S,05539.62310,E,123935.00,A,D*65
$GNRMC,123936.00,A,0419.83088,S,05539.62313,E,0.083,,200525,,,D*79
$GNVTG,,T,,M,0.083,N,0.154,K,D*33
$GNGGA,123936.00,0419.83088,S,05539.62313,E,2,12,0.67,9.0,M,-47.6,M,,0000*7B
$GNGSA,A,3,32,18,10,28,26,16,27,31,40,41,08,,1.24,0.67,1.05*10
$GNGSA,A,3,85,72,71,75,86,65,87,,,,,,1.24,0.67,1.05*10
$GPGSV,4,1,16,08,12,315,38,10,15,008,40,16,25,235,38,18,33,092,13*7A
$GPGSV,4,2,16,23,01,046,,26,28,204,29,27,47,302,36,28,53,142,10*71
$GPGSV,4,3,16,29,08,148,08,31,39,182,17,32,52,001,31,36,52,277,*7F
$GPGSV,4,4,16,40,84,353,32,41,58,082,27,49,32,274,,50,10,089,*7D
$GLGSV,3,1,09,65,27,249,34,71,13,006,30,72,42,319,26,74,12,131,09*67
$GLGSV,3,2,09,75,16,181,08,84,09,143,,85,51,109,12,86,43,011,33*60
$GLGSV,3,3,09,87,06,345,28*5D
$GNGLL,0419.83088,S,05539.62313,E,123936.00,A,D*6B
$GNRMC,123937.00,A,0419.83088,S,05539.62313,E,0.049,,200525,,,D*7E
$GNVTG,,T,,M,0.049,N,0.091,K,D*3D
$GNGGA,123937.00,0419.83088,S,05539.62313,E,2,12,0.76,9.0,M,-47.6,M,,0000*7A
$GNGSA,A,3,32,18,10,28,26,16,27,31,40,41,08,,1.31,0.76,1.06*17
$GNGSA,A,3,85,72,71,75,86,65,87,,,,,,1.31,0.76,1.06*17
$GPGSV,4,1,16,08,12,315,38,10,15,008,40,16,25,235,38,18,33,092,12*7B
$GPGSV,4,2,16,23,01,046,,26,28,204,30,27,47,302,37,28,53,142,10*78
$GPGSV,4,3,16,29,08,148,06,31,39,182,18,32,52,001,32,36,52,277,*7D
$GPGSV,4,4,16,40,84,353,34,41,58,082,28,49,32,274,,50,10,089,*74
$GLGSV,3,1,09,65,27,249,34,71,13,006,30,72,42,319,27,74,12,131,07*68
$GLGSV,3,2,09,75,16,181,10,84,09,143,,85,51,109,09,86,43,011,33*63
$GLGSV,3,3,09,87,06,345,29*5C
$GNGLL,0419.83088,S,05539.62313,E,123937.00,A,D*6A
$GNRMC,123938.00,A,0419.83089,S,05539.62316,E,0.042,,200525,,,D*7E
$GNVTG,,T,,M,0.042,N,0.077,K,D*3E
$GNGGA,123938.00,0419.83089,S,05539.62316,E,2,12,0.82,8.9,M,-47.6,M,,0000*72
$GNGSA,A,3,32,18,10,28,26,16,27,31,40,41,08,,1.45,0.82,1.20*1B
$GNGSA,A,3,85,72,71,75,86,65,87,,,,,,1.45,0.82,1.20*1B
$GPGSV,4,1,16,08,12,315,38,10,15,008,40,16,25,235,38,18,33,092,13*7A
$GPGSV,4,2,16,23,01,046,,26,28,204,29,27,47,302,36,28,53,142,11*70
$GPGSV,4,3,16,29,08,148,11,31,39,182,19,32,52,001,32,36,52,277,*7A
$GPGSV,4,4,16,40,84,353,34,41,58,082,29,49,32,274,,50,10,089,*75
$GLGSV,3,1,09,65,27,249,34,71,13,006,30,72,42,319,27,74,12,131,06*69
$GLGSV,3,2,09,75,16,181,11,84,09,143,,85,51,109,08,86,43,011,33*63
$GLGSV,3,3,09,87,06,345,30*54
$GNGLL,0419.83089,S,05539.62316,E,123938.00,A,D*61
$GNRMC,123939.00,A,0419.83090,S,05539.62319,E,0.096,,200525,,,D*71
$GNVTG,,T,,M,0.096,N,0.177,K,D*36
$GNGGA,123939.00,0419.83090,S,05539.62319,E,2,12,0.76,8.9,M,-47.6,M,,0000*7F
$GNGSA,A,3,32,10,28,26,16,27,31,40,41,08,,,1.31,0.76,1.06*1E
$GNGSA,A,3,85,72,71,75,86,65,87,,,,,,1.31,0.76,1.06*17
$GPGSV,4,1,16,08,12,315,40,10,15,008,41,16,25,235,38,18,33,092,*76
$GPGSV,4,2,16,23,01,046,,26,28,204,29,27,47,302,36,28,53,142,12*73
$GPGSV,4,3,16,29,08,148,15,31,39,182,20,32,52,001,33,36,52,277,*75
$GPGSV,4,4,16,40,84,353,34,41,58,082,29,49,32,274,,50,10,089,*75
$GLGSV,3,1,09,65,27,249,34,71,13,006,30,72,42,319,28,74,12,131,05*65
$GLGSV,3,2,09,75,16,181,11,84,09,143,,85,51,109,10,86,43,011,33*6A
$GLGSV,3,3,09,87,06,345,32*56
$GNGLL,0419.83090,S,05539.62319,E,123939.00,A,D*67
$GNRMC,123940.00,A,0419.83088,S,05539.62317,E,0.016,,200525,,,D*70
$GNVTG,,T,,M,0.016,N,0.029,K,D*34
$GNGGA,123940.00,0419.83088,S,05539.62317,E,2,12,0.73,8.9,M,-47.6,M,,0000*73
$GNGSA,A,3,32,10,28,26,16,27,31,40,41,08,,,1.28,0.73,1.05*10
$GNGSA,A,3,85,72,71,75,86,65,87,,,,,,1.28,0.73,1.05*19
$GPGSV,4,1,16,08,12,315,41,10,15,008,41,16,25,235,38,18,33,092,*77
$GPGSV,4,2,16,23,01,046,,26,28,204,29,27,47,302,36,28,53,142,11*70
$GPGSV,4,3,16,29,08,148,11,31,39,182,20,32,52,001,33,36,52,277,*71
$GPGSV,4,4,16,40,84,353,35,41,58,082,30,49,32,274,,50,10,089,*7C
$GLGSV,3,1,09,65,27,249,35,71,13,006,30,72,42,319,28,74,12,131,11*61
$GLGSV,3,2,09,75,16,181,09,84,09,143,,85,51,109,13,86,43,011,33*60
$GLGSV,3,3,09,87,06,345,33*57
$GNGLL,0419.83088,S,05539.62317,E,123940.00,A,D*6E
$GNRMC,123941.00,A,0419.83087,S,05539.62318,E,0.019,,200525,,,D*7E
$GNVTG,,T,,M,0.019,N,0.035,K,D*36
$GNGGA,123941.00,0419.83087,S,05539.62318,E,2,12,1.04,8.8,M,-47.6,M,,0000*72
$GNGSA,A,3,32,29,10,28,26,16,27,31,40,41,08,,1.59,1.04,1.20*1B
$GNGSA,A,3,85,72,71,75,86,65,87,,,,,,1.59,1.04,1.20*19
$GPGSV,4,1,16,08,12,315,41,10,15,008,41,16,25,235,38,18,33,092,*77
$GPGSV,4,2,16,23,01,046,,26,28,204,30,27,47,302,36,28,53,142,10*79
$GPGSV,4,3,16,29,08,148,11,31,39,182,19,32,52,001,34,36,52,277,*7C
$GPGSV,4,4,16,40,84,353,35,41,58,082,29,49,32,274,,50,10,089,*74
$GLGSV,3,1,09,65,27,249,35,71,13,006,32,72,42,319,28,74,12,131,09*6A
$GLGSV,3,2,09,75,16,181,09,84,09,143,,85,51,109,10,86,43,011,34*64
$GLGSV,3,3,09,87,06,345,37*53
$GNGLL,0419.83087,S,05539.62318,E,123941.00,A,D*6F
$GNRMC,123942.00,A,0419.83088,S,05539.62320,E,0.097,,200525,,,D*7F
$GNVTG,,T,,M,0.097,N,0.179,K,D*39
$GNGGA,123942.00,0419.83088,S,05539.62320,E,2,12,0.76,8.8,M,-47.6,M,,0000*71
$GNGSA,A,3,32,29,10,28,26,16,27,31,40,41,08,,1.31,0.76,1.06*15
$GNGSA,A,3,85,72,71,75,86,65,87,,,,,,1.31,0.76,1.06*17
$GPGSV,4,1,16,08,12,315,39,10,15,008,41,16,25,235,37,18,33,092,*77
$GPGSV,4,2,16,23,01,046,,26,28,204,29,27,47,302,35,28,53,142,14*76
$GPGSV,4,3,16,29,08,148,09,31,39,182,17,32,52,001,32,36,52,277,*7D
$GPGSV,4,4,16,40,84,353,34,41,58,082,28,49,32,274,,50,10,089,*74
$GLGSV,3,1,09,65,27,249,35,71,13,006,27,72,42,319,28,74,12,131,11*67
$GLGSV,3,2,09,75,16,181,10,84,09,143,,85,51,109,11,86,43,011,33*6A
$GLGSV,3,3,09,87,06,345,37*53
$GNGLL,0419.83088,S,05539.62320,E,123942.00,A,D*68
$GNRMC,123943.00,A,0419.83089,S,05539.62322,E,0.072,,200525,,,D*76
$GNVTG,,T,,M,0.072,N,0.134,K,D*3B
$GNGGA,123943.00,0419.83089,S,05539.62322,E,2,12,0.76,8.7,M,-47.6,M,,0000*7C
$GNGSA,A,3,32,29,10,28,26,16,27,31,40,41,08,,1.31,0.76,1.06*15
$GNGSA,A,3,85,72,71,75,86,65,87,,,,,,1.31,0.76,1.06*17
$GPGSV,4,1,16,08,12,315,41,10,15,008,40,16,25,235,37,18,33,092,*79
$GPGSV,4,2,16,23,01,046,,26,28,204,29,27,47,302,34,28,53,142,13*70
$GPGSV,4,3,16,29,08,148,08,31,39,182,16,32,52,001,32,36,52,277,*7D
$GPGSV,4,4,16,40,84,353,34,41,58,082,29,49,32,274,,50,10,089,*75
$GLGSV,3,1,09,65,27,249,35,71,13,006,34,72,42,319,28,74,12,131,09*6C
$GLGSV,3,2,09,75,16,181,10,84,09,143,,85,51,109,13,86,43,011,33*68
$GLGSV,3,3,09,87,06,345,36*52
$GNGLL,0419.83089,S,05539.62322,E,123943.00,A,D*6A
$GNRMC,123944.00,A,0419.83090,S,05539.62324,E,0.035,,200525,,,D*7C
$GNVTG,,T,,M,0.035,N,0.065,K,D*3D
$GNGGA,123944.00,0419.83090,S,05539.62324,E,2,12,1.04,8.7,M,-47.6,M,,0000*71
$GNGSA,A,3,32,10,28,26,16,27,31,40,41,08,,,1.59,1.04,1.20*10
$GNGSA,A,3,85,72,71,75,86,65,87,,,,,,1.59,1.04,1.20*19
$GPGSV,4,1,16,08,12,315,39,10,15,008,40,16,25,235,37,18,33,092,*76
$GPGSV,4,2,16,23,01,046,,26,28,204,29,27,47,302,35,28,53,142,12*70
$GPGSV,4,3,16,29,08,148,08,31,39,182,15,32,52,001,31,36,52,277,*7D
$GPGSV,4,4,16,40,84,353,34,41,58,082,28,49,32,274,,50,10,089,*74
$GLGSV,3,1,09,65,28,249,35,71,13,006,28,72,42,319,28,74,12,131,09*6E
$GLGSV,3,2,09,75,16,181,07,84,09,143,,85,51,109,10,86,43,011,34*6A
$GLGSV,3,3,09,87,06,345,35*51
$GNGLL,0419.83090,S,05539.62324,E,123944.00,A,D*63
$GNRMC,123945.00,A,0419.83091,S,05539.62325,E,0.038,,200525,,,D*70
$GNVTG,,T,,M,0.038,N,0.070,K,D*34
$GNGGA,123945.00,0419.83091,S,05539.62325,E,2,12,0.76,8.7,M,-47.6,M,,0000*74
$GNGSA,A,3,32,10,28,26,16,27,31,40,41,08,,,1.31,0.76,1.06*1E
$GNGSA,A,3,85,72,71,75,86,65,87,,,,,,1.31,0.76,1.06*17
$GPGSV,4,1,16,08,12,315,40,10,15,008,39,16,25,235,37,18,33,092,*76
$GPGSV,4,2,16,23,01,046,,26,28,204,29,27,47,302,35,28,53,142,11*73
$GPGSV,4,3,16,29,08,148,13,31,39,182,14,32,52,001,30,36,52,277,*77
$GPGSV,4,4,16,40,84,353,34,41,58,082,27,49,32,274,,50,10,089,*7B
$GLGSV,3,1,09,65,28,249,35,71,13,006,30,72,42,319,28,74,12,131,09*67
$GLGSV,3,2,09,75,16,181,08,84,09,143,,85,51,109,07,86,43,011,33*64
$GLGSV,3,3,09,87,06,345,33*57
$GNGLL,0419.83091,S,05539.62325,E,123945.00,A,D*62
$GNRMC,123946.00,A,0419.83091,S,05539.62325,E,0.013,,200525,,,D*7A
$GNVTG,,T,,M,0.013,N,0.024,K,D*3C
$GNGGA,123946.00,0419.83091,S,05539.62325,E,2,12,0.76,8.7,M,-47.6,M,,0000*77
$GNGSA,A,3,32,10,28,26,16,27,31,40,08,,,,1.31,0.76,1.06*1B
$GNGSA,A,3,85,72,71,75,86,65,87,,,,,,1.31,0.76,1.06*17
$GPGSV,4,1,16,08,12,315,42,10,15,008,40,16,25,235,37,18,33,092,17*7C
$GPGSV,4,2,16,23,01,046,,26,28,204,29,27,47,302,36,28,53,142,17*76
$GPGSV,4,3,16,29,08,148,07,31,39,182,15,32,52,001,30,36,52,277,34*74
$GPGSV,4,4,16,40,84,353,33,41,58,082,,49,32,274,,50,10,089,*79
$GLGSV,3,1,09,65,28,249,35,71,13,006,28,72,42,319,28,74,12,131,08*6F
$GLGSV,3,2,09,75,16,181,10,84,09,143,,85,51,109,08,86,43,011,33*62
$GLGSV,3,3,09,87,06,345,33*57
$GNGLL,0419.83091,S,05539.62325,E,123946.00,A,D*61
$GNRMC,123947.00,A,0419.83091,S,05539.62326,E,0.061,,200525,,,D*7D
$GNVTG,,T,,M,0.061,N,0.114,K,D*3B
$GNGGA,123947.00,0419.83091,S,05539.62326,E,2,12,0.73,8.7,M,-47.6,M,,0000*70
$GNGSA,A,3,32,29,10,28,26,16,27,31,40,08,,,1.20,0.73,0.95*1E
$GNGSA,A,3,85,72,71,75,86,65,87,,,,,,1.20,0.73,0.95*19
$GPGSV,4,1,16,08,12,315,36,10,15,008,36,16,25,235,35,18,33,092,16*7D
$GPGSV,4,2,16,23,01,046,,26,28,204,29,27,47,302,32,28,53,142,13*76
$GPGSV,4,3,16,29,08,148,11,31,39,182,15,32,52,001,29,36,52,277,33*7C
$GPGSV,4,4,16,40,84,353,32,41,58,082,,49,32,274,,50,10,089,*78
$GLGSV,3,1,09,65,28,249,31,71,13,006,30,72,42,319,27,74,12,131,12*66
$GLGSV,3,2,09,75,16,181,11,84,09,143,,85,51,109,11,86,43,011,31*69
$GLGSV,3,3,09,87,06,345,28*5D
$GNGLL,0419.83091,S,05539.62326,E,123947.00,A,D*63
$GNRMC,123948.00,A,0419.83091,S,05539.62326,E,0.048,,200525,,,D*79
$GNVTG,,T,,M,0.048,N,0.089,K,D*35
$GNGGA,123948.00,0419.83091,S,05539.62326,E,2,12,0.82,8.6,M,-47.6,M,,0000*70
$GNGSA,A,3,32,10,28,26,16,27,31,40,08,,,,1.45,0.82,1.20*17
$GNGSA,A,3,85,72,71,86,65,87,,,,,,,1.45,0.82,1.20*19
$GPGSV,4,1,16,08,12,315,39,10,15,008,38,16,25,235,36,18,33,092,14*7D
$GPGSV,4,2,16,23,01,046,,26,28,204,28,27,47,302,33,28,53,142,09*7D
$GPGSV,4,3,16,29,08,148,06,31,39,182,13,32,52,001,28,36,52,277,32*7C
$GPGSV,4,4,16,40,84,353,32,41,58,082,,49,32,274,,50,10,089,*78
$GLGSV,3,1,09,65,28,249,34,71,13,006,29,72,42,319,26,74,12,131,06*6F
$GLGSV,3,2,09,75,16,181,06,84,09,143,,85,51,109,08,86,43,011,31*67
$GLGSV,3,3,09,87,06,345,31*55
$GNGLL,0419.83091,S,05539.62326,E,123948.00,A,D*6C
$GNRMC,123949.00,A,0419.83091,S,05539.62327,E,0.110,,200525,,,D*75
$GNVTG,,T,,M,0.110,N,0.204,K,D*3E
$GNGGA,123949.00,0419.83091,S,05539.62327,E,2,12,0.76,8.6,M,-47.6,M,,0000*7B
$GNGSA,A,3,32,10,28,26,16,27,31,40,08,,,,1.31,0.76,1.06*1B
$GNGSA,A,3,85,72,71,75,86,65,87,,,,,,1.31,0.76,1.06*17
$GPGSV,4,1,16,08,12,315,41,10,15,008,38,16,25,235,38,18,33,092,10*78
$GPGSV,4,2,16,23,01,046,,26,28,204,28,27,47,302,35,28,53,142,13*70
$GPGSV,4,3,16,29,08,148,05,31,39,182,11,32,52,001,28,36,52,277,33*7C
$GPGSV,4,4,16,40,84,353,32,41,58,082,,49,32,274,,50,10,089,*78
$GLGSV,3,1,09,65,28,249,34,71,13,006,30,72,42,319,26,74,12,131,07*66
$GLGSV,3,2,09,75,16,181,07,84,09,143,,85,51,109,09,86,43,011,30*66
$GLGSV,3,3,09,87,06,345,32*56
$GNGLL,0419.83091,S,05539.62327,E,123949.00,A,D*6C
$GNRMC,123950.00,A,0419.83092,S,05539.62327,E,0.051,,200525,,,D*7A
$GNVTG,,T,,M,0.051,N,0.095,K,D*30
$GNGGA,123950.00,0419.83092,S,05539.62327,E,2,12,0.91,8.6,M,-47.6,M,,0000*79
$GNGSA,A,3,32,10,28,26,16,27,31,40,08,,,,1.50,0.91,1.20*11
$GNGSA,A,3,85,72,71,75,86,65,87,,,,,,1.50,0.91,1.20*1D
$GPGSV,4,1,16,08,12,315,40,10,15,008,39,16,25,235,38,18,33,092,11*79
$GPGSV,4,2,16,23,01,046,,26,28,204,28,27,47,302,35,28,53,142,13*70
$GPGSV,4,3,16,29,08,148,09,31,39,182,12,32,52,001,28,36,52,277,34*74
$GPGSV,4,4,16,40,84,353,33,41,58,082,,49,32,274,,50,10,089,*79
$GLGSV,3,1,09,65,28,249,36,71,13,006,31,72,42,319,27,74,12,131,10*62
$GLGSV,3,2,09,75,16,181,07,84,09,143,,85,51,109,11,86,43,011,31*6E
$GLGSV,3,3,09,87,06,345,34*50
$GNGLL,0419.83092,S,05539.62327,E,123950.00,A,D*67
$GNRMC,123951.00,A,0419.83092,S,05539.62328,E,0.055,,200525,,,D*70
$GNVTG,,T,,M,0.055,N,0.102,K,D*3B
$GNGGA,123951.00,0419.83092,S,05539.62328,E,2,12,0.82,8.6,M,-47.6,M,,0000*75
$GNGSA,A,3,32,18,10,28,26,16,27,31,40,08,,,1.45,0.82,1.20*1E
$GNGSA,A,3,85,72,71,86,65,87,,,,,,,1.45,0.82,1.20*19
$GPGSV,4,1,16,08,12,315,41,10,15,008,39,16,25,235,38,18,33,092,11*78
$GPGSV,4,2,16,23,01,046,,26,28,204,28,27,47,302,35,28,53,142,15*76
$GPGSV,4,3,16,29,08,148,08,31,39,182,10,32,52,001,28,36,52,277,34*77
$GPGSV,4,4,16,40,84,353,33,41,58,082,,49,32,274,,50,10,089,*79
$GLGSV,3,1,09,65,28,249,33,71,13,006,29,72,41,319,26,74,12,131,08*65
$GLGSV,3,2,09,75,16,181,07,84,09,143,,85,51,109,09,86,43,011,26*61
$GLGSV,3,3,09,87,06,345,29*5C
$GNGLL,0419.83092,S,05539.62328,E,123951.00,A,D*69
$GNRMC,123952.00,A,0419.83093,S,05539.62328,E,0.014,,200525,,,D*77
$GNVTG,,T,,M,0.014,N,0.025,K,D*3A
$GNGGA,123952.00,0419.83093,S,05539.62328,E,2,12,0.76,8.6,M,-47.6,M,,0000*7C
$GNGSA,A,3,32,10,28,26,16,27,31,40,08,,,,1.31,0.76,1.06*1B
$GNGSA,A,3,85,72,71,75,86,65,87,,,,,,1.31,0.76,1.06*17
$GPGSV,4,1,16,08,12,315,39,10,15,008,39,16,25,235,37,18,33,092,09*71
$GPGSV,4,2,16,23,01,046,,26,28,204,28,27,47,302,34,28,53,142,11*73
$GPGSV,4,3,16,29,08,148,09,31,39,182,13,32,52,001,29,36,52,277,34*74
$GPGSV,4,4,16,40,84,353,33,41,58,082,,49,32,274,,50,10,089,*79
$GLGSV,3,1,09,65,28,249,33,71,13,006,30,72,41,319,27,74,12,131,14*61
$GLGSV,3,2,09,75,16,181,12,84,09,143,,85,51,109,12,86,43,011,31*69
$GLGSV,3,3,09,87,06,345,29*5C
$GNGLL,0419.83093,S,05539.62328,E,123952.00,A,D*6B
$GNRMC,123953.00,A,0419.83093,S,05539.62328,E,0.165,,200525,,,D*71
$GNVTG,,T,,M,0.165,N,0.306,K,D*3F
$GNGGA,123953.00,0419.83093,S,05539.62328,E,2,12,0.79,8.7,M,-47.6,M,,0000*73
$GNGSA,A,3,32,29,18,10,28,26,16,27,31,40,08,,1.41,0.79,1.17*11
$GNGSA,A,3,85,72,71,75,86,65,87,,,,,,1.41,0.79,1.17*1F
$GPGSV,4,1,16,08,12,315,39,10,15,008,38,16,25,235,37,18,33,092,13*7B
$GPGSV,4,2,16,23,01,046,,26,28,204,28,27,47,302,34,28,53,142,13*71
$GPGSV,4,3,16,29,08,148,09,31,39,182,13,32,52,001,28,36,52,277,33*72
$GPGSV,4,4,16,40,84,353,33,41,58,082,,49,32,274,,50,10,089,*79
$GLGSV,3,1,09,65,28,249,34,71,13,006,31,72,41,319,27,74,12,130,07*64
$GLGSV,3,2,09,75,16,181,09,84,09,143,,85,51,109,08,86,43,011,31*68
$GLGSV,3,3,09,87,06,345,28*5D
$GNGLL,0419.83093,S,05539.62328,E,123953.00,A,D*6A
$GNRMC,123954.00,A,0419.83094,S,05539.62331,E,0.074,,200525,,,D*78
$GNVTG,,T,,M,0.074,N,0.138,K,D*31
$GNGGA,123954.00,0419.83094,S,05539.62331,E,2,12,0.70,8.6,M,-47.6,M,,0000*73
$GNGSA,A,3,32,29,18,10,28,26,16,27,31,40,08,,1.20,0.70,0.98*19
$GNGSA,A,3,72,71,75,86,74,65,87,,,,,,1.20,0.70,0.98*19
$GPGSV,4,1,16,08,12,315,39,10,15,008,38,16,25,235,37,18,33,092,13*7B
$GPGSV,4,2,16,23,01,046,,26,28,204,28,27,47,302,34,28,53,142,11*73
$GPGSV,4,3,16,29,08,148,12,31,39,182,12,32,52,001,28,36,52,277,33*79
$GPGSV,4,4,16,40,84,353,32,41,58,082,,49,32,274,,50,10,089,*78
$GLGSV,3,1,09,65,28,249,34,71,13,006,30,72,41,319,26,74,12,130,08*6B
$GLGSV,3,2,09,75,16,180,08,84,09,143,,85,51,109,07,86,43,011,30*66
$GLGSV,3,3,09,87,06,345,27*52
$GNGLL,0419.83094,S,05539.62331,E,123954.00,A,D*62
$GNRMC,123955.00,A,0419.83094,S,05539.62332,E,0.023,,200525,,,D*78
$GNVTG,,T,,M,0.023,N,0.043,K,D*3E
$GNGGA,123955.00,0419.83094,S,05539.62332,E,2,12,0.61,8.6,M,-47.6,M,,0000*71
$GNGSA,A,3,32,29,18,10,28,26,16,27,31,40,08,,1.13,0.61,0.95*14
$GNGSA,A,3,85,72,71,75,86,74,65,87,,,,,1.13,0.61,0.95*19
$GPGSV,4,1,16,08,12,315,39,10,15,008,38,16,25,235,36,18,33,092,13*7A
$GPGSV,4,2,16,23,01,046,,26,28,204,28,27,47,302,30,28,53,142,14*72
$GPGSV,4,3,16,29,08,148,12,31,39,182,08,32,52,001,28,36,52,277,32*73
$GPGSV,4,4,16,40,84,353,31,41,58,082,,49,32,274,,50,10,089,*7B
$GLGSV,3,1,09,65,28,249,33,71,13,006,30,72,41,319,26,74,12,130,08*6C
$GLGSV,3,2,09,75,16,180,10,84,09,143,,85,51,109,09,86,43,011,29*69
$GLGSV,3,3,09,87,06,345,27*52
$GNGLL,0419.83094,S,05539.62332,E,123955.00,A,D*60
$GNRMC,123956.00,A,0419.83093,S,05539.62332,E,0.031,,200525,,,D*7F
$GNVTG,,T,,M,0.031,N,0.058,K,D*37
$GNGGA,123956.00,0419.83093,S,05539.62332,E,2,12,0.71,8.7,M,-47.6,M,,0000*75
$GNGSA,A,3,32,29,18,10,28,26,16,27,31,40,08,,1.43,0.71,1.24*1B
$GNGSA,A,3,85,72,71,75,86,74,65,87,,,,,1.43,0.71,1.24*16
$GPGSV,4,1,16,08,12,315,37,10,15,008,38,16,25,235,36,18,33,092,14*73
$GPGSV,4,2,16,23,01,046,,26,28,204,27,27,47,302,33,28,53,142,13*79
$GPGSV,4,3,16,29,08,148,10,31,39,182,10,32,52,001,28,36,52,277,32*78
$GPGSV,4,4,16,40,84,353,31,41,58,082,,49,32,274,,50,10,089,*7B
$GLGSV,3,1,09,65,28,249,31,71,13,006,24,72,41,319,25,74,12,130,09*69
$GLGSV,3,2,09,75,16,180,08,84,09,143,,85,51,109,07,86,43,011,28*6F
$GLGSV,3,3,09,87,06,345,30*54
$GNGLL,0419.83093,S,05539.62332,E,123956.00,A,D*64
$GNRMC,123957.00,A,0419.83092,S,05539.62330,E,0.053,,200525,,,D*79
$GNVTG,,T,,M,0.053,N,0.098,K,D*3F
$GNGGA,123957.00,0419.83092,S,05539.62330,E,2,12,0.61,8.7,M,-47.6,M,,0000*76
$GNGSA,A,3,32,29,18,10,28,26,16,27,31,40,08,,1.24,0.61,1.08*15
$GNGSA,A,3,85,72,71,75,86,74,65,87,,,,,1.24,0.61,1.08*18
$GPGSV,4,1,16,08,12,315,40,10,15,008,38,16,25,235,37,18,33,092,12*74
$GPGSV,4,2,16,23,01,046,,26,28,204,27,27,47,302,33,28,53,142,14*7E
$GPGSV,4,3,16,29,08,148,11,31,39,182,09,32,52,001,28,36,52,277,32*71
$GPGSV,4,4,16,40,84,353,32,41,58,082,,49,32,274,,50,10,089,*78
$GLGSV,3,1,09,65,28,249,32,71,13,006,28,72,41,319,25,74,12,130,09*66
$GLGSV,3,2,09,75,16,180,09,84,09,143,,85,51,109,09,86,43,011,28*60
$GLGSV,3,3,09,87,06,345,30*54
$GNGLL,0419.83092,S,05539.62330,E,123957.00,A,D*66
$GNRMC,123958.00,A,0419.83093,S,05539.62331,E,0.010,,200525,,,D*71
$GNVTG,,T,,M,0.010,N,0.019,K,D*31
$GNGGA,123958.00,0419.83093,S,05539.62331,E,2,12,0.66,8.7,M,-47.6,M,,0000*7E
$GNGSA,A,3,32,10,28,26,16,27,31,40,08,,,,1.16,0.66,0.95*14
$GNGSA,A,3,85,72,71,75,86,74,65,87,,,,,1.16,0.66,0.95*1B
$GPGSV,4,1,16,08,12,315,39,10,15,008,38,16,25,235,37,18,33,092,*79
$GPGSV,4,2,16,23,01,046,,26,28,204,27,27,47,302,33,28,53,142,07*7C
$GPGSV,4,3,16,29,08,148,04,31,39,182,10,32,52,001,28,36,52,277,33*7C
$GPGSV,4,4,16,40,84,353,32,41,58,082,,49,32,274,,50,10,089,*78
$GLGSV,3,1,09,65,28,249,34,71,13,006,31,72,41,319,26,74,12,130,07*65
$GLGSV,3,2,09,75,16,180,11,84,09,143,,85,51,109,09,86,43,011,29*68
$GLGSV,3,3,09,87,06,345,32*56
$GNGLL,0419.83093,S,05539.62331,E,123958.00,A,D*69
$GNRMC,123959.00,A,0419.83094,S,05539.62332,E,0.039,,200525,,,D*7F
$GNVTG,,T,,M,0.039,N,0.073,K,D*36
$GNGGA,123959.00,0419.83094,S,05539.62332,E,2,12,0.98,8.7,M,-47.6,M,,0000*7A
$GNGSA,A,3,32,29,10,28,26,16,27,31,40,08,,,1.56,0.98,1.21*14
$GNGSA,A,3,85,72,71,75,86,74,65,87,,,,,1.56,0.98,1.21*10
$GPGSV,4,1,16,08,12,315,39,10,15,008,40,16,25,235,38,18,33,092,*79
$GPGSV,4,2,16,23,01,046,,26,28,204,26,27,47,302,33,28,53,142,12*79
$GPGSV,4,3,16,29,08,148,10,31,39,182,13,32,52,001,28,36,52,277,34*7D
$GPGSV,4,4,16,40,84,353,33,41,58,082,,49,32,274,,50,10,089,*79
$GLGSV,3,1,09,65,28,249,34,71,13,006,30,72,41,319,26,74,12,130,08*6B
$GLGSV,3,2,09,75,16,180,11,84,09,143,,85,51,109,08,86,43,011,28*68
$GLGSV,3,3,09,87,06,345,31*55
$GNGLL,0419.83094,S,05539.62332,E,123959.00,A,D*6C
$GNRMC,124000.00,A,0419.83095,S,05539.62332,E,0.064,,200525,,,D*74
$GNVTG,,T,,M,0.064,N,0.119,K,D*33
$GNGGA,124000.00,0419.83095,S,05539.62332,E,2,12,0.66,8.7,M,-47.6,M,,0000*78
$GNGSA,A,3,32,29,10,28,26,16,27,31,40,08,,,1.16,0.66,0.95*1F
$GNGSA,A,3,85,72,71,75,86,74,65,87,,,,,1.16,0.66,0.95*1B
$GPGSV,4,1,16,08,12,315,39,10,15,008,39,16,25,235,37,18,33,092,*78
$GPGSV,4,2,16,23,01,046,,26,28,204,27,27,47,302,33,28,53,142,13*79
$GPGSV,4,3,16,29,08,148,08,31,39,182,12,32,52,001,29,36,52,277,34*74
$GPGSV,4,4,16,40,84,353,33,41,58,082,27,49,32,274,,50,10,089,*7C
$GLGSV,3,1,09,65,28,249,34,71,13,006,31,72,41,319,26,74,12,130,09*6B
$GLGSV,3,2,09,75,16,180,08,84,09,143,,85,51,109,11,86,43,011,28*68
$GLGSV,3,3,09,87,06,345,30*54
$GNGLL,0419.83095,S,05539.62332,E,124000.00,A,D*6F
$GNRMC,124001.00,A,0419.83094,S,05539.62330,E,0.042,,200525,,,D*72
$GNVTG,,T,,M,0.042,N,0.077,K,D*3E
$GNGGA,124001.00,0419.83094,S,05539.62330,E,2,12,0.70,8.6,M,-47.6,M,,0000*7C
$GNGSA,A,3,32,29,10,28,26,16,27,31,40,41,08,,1.20,0.70,0.98*15
$GNGSA,A,3,72,71,75,86,74,65,87,,,,,,1.20,0.70,0.98*19
$GPGSV,4,1,16,08,12,315,39,10,15,008,37,16,25,235,36,18,33,092,*77
$GPGSV,4,2,16,23,01,046,,26,28,204,27,27,47,302,31,28,53,142,13*7B
$GPGSV,4,3,16,29,08,148,08,31,39,182,12,32,52,001,29,36,52,277,33*73
$GPGSV,4,4,16,40,84,353,33,41,58,082,28,49,32,274,,50,10,089,*73
$GLGSV,3,1,09,65,28,249,34,71,13,006,31,72,41,319,26,74,12,130,08*6A
$GLGSV,3,2,09,75,16,180,09,84,09,143,,85,51,109,06,86,43,011,30*66
$GLGSV,3,3,09,87,06,345,26*53
$GNGLL,0419.83094,S,05539.62330,E,124001.00,A,D*6D
$GNRMC,124002.00,A,0419.83095,S,05539.62331,E,0.011,,200525,,,D*77
$GNVTG,,T,,M,0.011,N,0.020,K,D*3A
$GNGGA,124002.00,0419.83095,S,05539.62331,E,2,12,0.74,8.7,M,-47.6,M,,0000*7A
$GNGSA,A,3,32,29,10,28,26,16,27,31,40,41,08,,1.40,0.74,1.19*1F
$GNGSA,A,3,85,72,71,86,74,65,87,,,,,,1.40,0.74,1.19*1C
$GPGSV,4,1,16,08,12,315,37,10,15,008,37,16,25,235,33,18,33,092,*7C
$GPGSV,4,2,16,23,01,046,,26,28,204,26,27,47,302,31,28,53,142,13*7A
$GPGSV,4,3,16,29,08,148,09,31,39,182,12,32,52,001,28,36,52,277,32*72
$GPGSV,4,4,16,40,84,353,31,41,58,082,27,49,32,274,,50,10,089,*7E
$GLGSV,3,1,09,65,28,249,31,71,13,006,30,72,41,319,25,74,12,130,10*64
$GLGSV,3,2,09,75,16,180,13,84,09,143,,85,51,109,09,86,43,011,29*6A
$GLGSV,3,3,09,87,06,345,26*53
$GNGLL,0419.83095,S,05539.62331,E,124002.00,A,D*6E
$GNRMC,124003.00,A,0419.83096,S,05539.62333,E,0.014,,200525,,,D*72
$GNVTG,,T,,M,0.014,N,0.027,K,D*38
$GNGGA,124003.00,0419.83096,S,05539.62333,E,2,12,0.68,8.7,M,-47.6,M,,0000*77
$GNGSA,A,3,32,29,10,28,26,16,27,31,40,41,08,,1.21,0.68,1.00*1D
$GNGSA,A,3,85,72,71,86,74,65,87,,,,,,1.21,0.68,1.00*1E
$GPGSV,4,1,16,08,12,315,38,10,15,008,35,16,25,235,36,18,33,092,*74
$GPGSV,4,2,16,23,01,046,,26,28,204,26,27,47,302,32,28,53,142,10*7A
$GPGSV,4,3,16,29,08,148,09,31,39,182,10,32,52,001,27,36,52,277,32*7F
$GPGSV,4,4,16,40,84,353,31,41,58,082,27,49,32,274,,50,10,089,*7E
$GLGSV,3,1,09,65,28,249,33,71,13,006,28,72,41,319,25,74,12,130,11*6E
$GLGSV,3,2,09,75,16,180,12,84,09,144,,85,51,109,11,86,43,011,30*6D
$GLGSV,3,3,09,87,06,345,26*53
$GNGLL,0419.83096,S,05539.62333,E,124003.00,A,D*6E
$GNRMC,124004.00,A,0419.83096,S,05539.62331,E,0.023,,200525,,,D*73
$GNVTG,,T,,M,0.023,N,0.043,K,D*3E
$GNGGA,124004.00,0419.83096,S,05539.62331,E,2,12,0.68,8.8,M,-47.6,M,,0000*7D
$GNGSA,A,3,32,29,10,28,26,16,27,31,40,41,08,,1.21,0.68,1.00*1D
$GNGSA,A,3,85,72,71,86,74,65,87,,,,,,1.21,0.68,1.00*1E
$GPGSV,4,1,16,08,12,315,40,10,15,008,39,16,25,235,37,18,33,092,*76
$GPGSV,4,2,16,23,01,046,,26,28,204,27,27,47,302,35,28,53,142,11*7D
$GPGSV,4,3,16,29,08,148,08,31,39,182,09,32,52,001,29,36,52,277,32*78
$GPGSV,4,4,16,40,84,353,33,41,58,082,28,49,32,274,,50,10,089,*73
$GLGSV,3,1,09,65,28,249,33,71,13,006,31,72,41,319,25,74,12,130,08*6E
$GLGSV,3,2,09,75,16,180,09,84,09,144,,85,50,110,11,86,43,011,30*6E
$GLGSV,3,3,09,87,06,345,26*53
$GNGLL,0419.83096,S,05539.62331,E,124004.00,A,D*6B
$GNRMC,124005.00,A,0419.83096,S,05539.62332,E,0.034,,200525,,,D*77
$GNVTG,,T,,M,0.034,N,0.062,K,D*3B
$GNGGA,124005.00,0419.83096,S,05539.62332,E,2,12,0.77,8.8,M,-47.6,M,,0000*71
$GNGSA,A,3,32,29,10,28,26,16,27,31,40,41,08,,1.31,0.77,1.06*14
$GNGSA,A,3,85,72,71,75,86,65,87,,,,,,1.31,0.77,1.06*16
$GPGSV,4,1,16,08,12,315,40,10,15,008,40,16,25,235,37,18,33,092,*78
$GPGSV,4,2,16,23,01,046,,26,28,204,28,27,47,302,35,28,53,142,15*76
$GPGSV,4,3,16,29,08,148,10,31,39,182,10,32,52,001,30,36,52,277,34*77
$GPGSV,4,4,16,40,84,353,34,41,58,082,28,49,32,274,,50,10,089,*74
$GLGSV,3,1,09,65,28,249,33,71,13,006,30,72,41,319,26,74,12,130,11*64
$GLGSV,3,2,09,75,16,180,12,84,09,144,,85,50,110,08,86,44,012,31*69
$GLGSV,3,3,09,87,06,345,32*56
$GNGLL,0419.83096,S,05539.62332,E,124005.00,A,D*69
$GNRMC,124006.00,A,0419.83097,S,05539.62331,E,0.040,,200525,,,D*75
$GNVTG,,T,,M,0.040,N,0.073,K,D*38
$GNGGA,124006.00,0419.83097,S,05539.62331,E,2,12,0.76,8.7,M,-47.6,M,,0000*7E
$GNGSA,A,3,32,29,10,28,26,16,27,31,40,41,08,,1.31,0.76,1.06*15
$GNGSA,A,3,85,72,71,75,86,65,87,,,,,,1.31,0.76,1.06*17
$GPGSV,4,1,16,08,12,315,40,10,15,008,40,16,25,235,37,18,33,092,*78
$GPGSV,4,2,16,23,01,046,,26,28,204,28,27,47,302,34,28,53,142,10*72
$GPGSV,4,3,16,29,08,148,08,31,39,182,09,32,52,001,30,36,52,277,34*76
$GPGSV,4,4,16,40,84,353,33,41,58,082,29,49,32,274,,50,10,089,*72
$GLGSV,3,1,09,65,28,249,34,71,13,006,31,72,41,319,28,74,12,130,11*6C
$GLGSV,3,2,09,75,16,180,12,84,09,144,,85,50,110,09,86,44,012,31*68
$GLGSV,3,3,09,87,07,345,32*57
$GNGLL,0419.83097,S,05539.62331,E,124006.00,A,D*68
$GNRMC,124007.00,A,0419.83097,S,05539.62329,E,0.048,,200525,,,D*75
$GNVTG,,T,,M,0.048,N,0.089,K,D*35
$GNGGA,124007.00,0419.83097,S,05539.62329,E,2,12,0.76,8.7,M,-47.6,M,,0000*76
$GNGSA,A,3,32,29,10,28,26,16,27,31,40,41,08,,1.31,0.76,1.06*15
$GNGSA,A,3,85,72,71,75,86,65,87,,,,,,1.31,0.76,1.06*17
$GPGSV,4,1,16,08,12,315,40,10,15,008,40,16,25,235,37,18,33,092,*78
$GPGSV,4,2,16,23,01,046,,26,28,204,28,27,47,302,34,28,53,142,14*76
$GPGSV,4,3,16,29,08,148,09,31,39,182,10,32,52,001,31,36,52,277,34*7E
$GPGSV,4,4,16,40,84,353,33,41,58,082,29,49,32,274,,50,10,089,*72
$GLGSV,3,1,09,65,28,249,34,71,13,006,31,72,41,319,29,74,12,130,09*64
$GLGSV,3,2,09,75,16,180,12,84,09,144,,85,50,110,12,86,44,012,31*62
$GLGSV,3,3,09,87,07,345,32*57
$GNGLL,0419.83097,S,05539.62329,E,124007.00,A,D*60
$GNRMC,124008.00,A,0419.83100,S,05539.62331,E,0.098,,200525,,,D*71
$GNVTG,,T,,M,0.098,N,0.182,K,D*32
$GNGGA,124008.00,0419.83100,S,05539.62331,E,2,12,0.71,8.6,M,-47.6,M,,0000*79
$GNGSA,A,3,32,29,10,28,26,16,27,31,40,41,08,,1.18,0.71,0.95*12
$GNGSA,A,3,85,72,71,75,86,65,87,,,,,,1.18,0.71,0.95*10
$GPGSV,4,1,16,08,12,315,41,10,15,008,41,16,25,235,37,18,33,092,*78
$GPGSV,4,2,16,23,01,046,,26,28,204,29,27,47,302,35,28,53,142,09*7A
$GPGSV,4,3,16,29,08,148,08,31,39,182,09,32,52,001,32,36,52,277,34*74
$GPGSV,4,4,16,40,84,353,34,41,58,082,30,49,32,274,,50,10,089,*7D
$GLGSV,3,1,09,65,28,249,34,71,13,006,32,72,41,319,30,74,12,130,07*61
$GLGSV,3,2,09,75,16,180,09,84,09,144,,85,50,110,14,86,44,012,31*6E
$GLGSV,3,3,09,87,07,345,31*54
$GNGLL,0419.83100,S,05539.62331,E,124008.00,A,D*69
$GNRMC,124009.00,A,0419.83100,S,05539.62330,E,0.125,,200525,,,D*76
$GNVTG,,T,,M,0.125,N,0.232,K,D*3D
$GNGGA,124009.00,0419.83100,S,05539.62330,E,2,12,0.76,8.6,M,-47.6,M,,0000*7E
$GNGSA,A,3,32,29,10,28,26,16,27,31,40,41,08,,1.31,0.76,1.06*15
$GNGSA,A,3,85,72,71,75,86,65,87,,,,,,1.31,0.76,1.06*17
$GPGSV,4,1,16,08,12,315,40,10,15,008,42,16,25,235,38,18,33,092,*75
$GPGSV,4,2,16,23,01,046,,26,28,204,29,27,47,302,35,28,53,142,14*76
$GPGSV,4,3,16,29,08,148,09,31,39,182,10,32,52,001,32,36,52,277,35*7C
$GPGSV,4,4,16,40,84,353,35,41,58,082,30,49,32,274,,50,10,089,*7C
$GLGSV,3,1,09,65,28,249,34,71,13,006,31,72,41,319,30,74,12,130,09*6C
$GLGSV,3,2,09,75,16,180,10,84,09,144,,85,50,110,14,86,44,012,31*66
$GLGSV,3,3,09,87,07,345,29*5D
$GNGLL,0419.83100,S,05539.62330,E,124009.00,A,D*69
$GNRMC,124010.00,A,0419.83101,S,05539.62328,E,0.014,,200525,,,D*75
$GNVTG,,T,,M,0.014,N,0.026,K,D*39
$GNGGA,124010.00,0419.83101,S,05539.62328,E,2,12,0.76,8.5,M,-47.6,M,,0000*7D
$GNGSA,A,3,32,29,10,28,26,16,27,31,40,41,08,,1.31,0.76,1.06*15
$GNGSA,A,3,85,72,71,75,86,65,87,,,,,,1.31,0.76,1.06*17
$GPGSV,4,1,16,08,12,315,41,10,15,008,40,16,25,235,38,18,33,092,*76
$GPGSV,4,2,16,23,01,046,,26,28,204,29,27,47,302,35,28,53,142,12*70
$GPGSV,4,3,16,29,08,148,12,31,39,182,12,32,52,001,32,36,52,277,35*74
$GPGSV,4,4,16,40,84,353,35,41,58,082,31,49,32,274,,50,10,089,*7D
$GLGSV,3,1,09,65,28,249,34,71,13,006,33,72,41,319,30,74,12,130,09*6E
$GLGSV,3,2,09,75,16,180,11,84,09,144,,85,50,110,12,86,44,012,31*61
$GLGSV,3,3,09,87,07,345,28*5C
$GNGLL,0419.83101,S,05539.62328,E,124010.00,A,D*69
$GNRMC,124011.00,A,0419.83102,S,05539.62326,E,0.081,,200525,,,D*75
$GNVTG,,T,,M,0.081,N,0.149,K,D*3D
$GNGGA,124011.00,0419.83102,S,05539.62326,E,2,12,1.04,8.5,M,-47.6,M,,0000*75
$GNGSA,A,3,32,29,10,28,26,16,27,31,40,41,08,,1.58,1.04,1.20*1A
$GNGSA,A,3,85,72,71,75,86,74,65,87,,,,,1.58,1.04,1.20*1B
$GPGSV,4,1,16,08,12,315,42,10,15,008,42,16,25,235,38,18,33,092,*77
$GPGSV,4,2,16,23,01,046,,26,28,204,29,27,47,302,36,28,53,142,11*70
$GPGSV,4,3,16,29,08,148,08,31,39,182,12,32,52,001,32,36,52,277,35*7F
$GPGSV,4,4,16,40,84,353,35,41,58,082,30,49,32,274,,50,10,089,*7C
$GLGSV,3,1,09,65,28,249,34,71,13,006,31,72,41,319,30,74,12,130,09*6C
$GLGSV,3,2,09,75,16,180,10,84,09,144,,85,50,110,12,86,44,012,31*60
$GLGSV,3,3,09,87,07,345,27*53
$GNGLL,0419.83102,S,05539.62326,E,124011.00,A,D*65
$GNRMC,124012.00,A,0419.83104,S,05539.62326,E,0.084,,200525,,,D*75
$GNVTG,,T,,M,0.084,N,0.156,K,D*36
$GNGGA,124012.00,0419.83104,S,05539.62326,E,2,12,0.64,8.5,M,-47.6,M,,0000*77
$GNGSA,A,3,32,29,10,28,26,16,27,31,40,41,08,,1.12,0.64,0.92*1B
$GNGSA,A,3,85,72,71,75,86,74,65,87,,,,,1.12,0.64,0.92*1A
$GPGSV,4,1,16,08,12,315,41,10,15,008,41,16,25,235,37,18,33,092,*78
$GPGSV,4,2,16,23,01,046,,26,28,204,29,27,47,302,35,28,53,142,14*76
$GPGSV,4,3,16,29,08,148,12,31,39,182,14,32,52,001,32,36,52,277,34*73
$GPGSV,4,4,16,40,84,353,34,41,58,082,30,49,32,274,,50,10,089,*7D
$GLGSV,3,1,09,65,28,249,33,71,13,006,32,72,41,319,30,74,12,130,10*60
$GLGSV,3,2,09,75,16,180,07,84,09,144,,85,50,110,10,86,44,012,30*65
$GLGSV,3,3,09,87,07,345,29*5D
$GNGLL,0419.83104,S,05539.62326,E,124012.00,A,D*60
$GNRMC,124013.00,A,0419.83106,S,05539.62327,E,0.062,,200525,,,D*7F
$GNVTG,,T,,M,0.062,N,0.116,K,D*3A
$GNGGA,124013.00,0419.83106,S,05539.62327,E,2,12,0.66,8.4,M,-47.6,M,,0000*76
$GNGSA,A,3,32,29,10,28,26,16,27,31,40,41,08,,1.16,0.66,0.96*19
$GNGSA,A,3,85,72,71,75,86,74,65,87,,,,,1.16,0.66,0.96*18
$GPGSV,4,1,16,08,12,315,41,10,15,008,41,16,25,235,37,18,33,092,*78
$GPGSV,4,2,16,23,01,046,,26,28,204,28,27,47,302,35,28,53,142,09*7B
$GPGSV,4,3,16,29,08,148,11,31,39,182,11,32,52,001,31,36,52,277,34*76
$GPGSV,4,4,16,40,84,353,34,41,58,082,30,49,32,274,,50,10,089,*7D
$GLGSV,3,1,09,65,28,249,33,71,13,006,31,72,41,319,30,74,12,130,08*6A
$GLGSV,3,2,09,75,16,180,10,84,09,144,,85,50,110,12,86,44,012,30*61
$GLGSV,3,3,09,87,07,345,32*57
$GNGLL,0419.83106,S,05539.62327,E,124013.00,A,D*62
$GNRMC,124014.00,A,0419.83106,S,05539.62327,E,0.013,,200525,,,D*7E
$GNVTG,,T,,M,0.013,N,0.024,K,D*3C
$GNGGA,124014.00,0419.83106,S,05539.62327,E,2,12,0.82,8.3,M,-47.6,M,,0000*7C
$GNGSA,A,3,32,29,10,28,26,16,27,31,40,41,08,,1.34,0.82,1.05*18
$GNGSA,A,3,85,72,71,75,86,65,87,,,,,,1.34,0.82,1.05*1A
$GPGSV,4,1,16,08,12,315,42,10,15,008,40,16,25,235,37,18,33,092,*7A
$GPGSV,4,2,16,23,01,046,,26,28,204,28,27,47,302,35,28,53,142,12*71
$GPGSV,4,3,16,29,08,148,10,31,39,182,10,32,52,001,31,36,52,277,34*76
$GPGSV,4,4,16,40,84,353,34,41,58,082,30,49,32,274,,50,10,089,*7D
$GLGSV,3,1,09,65,28,249,33,71,13,006,31,72,41,319,29,74,12,130,06*6C
$GLGSV,3,2,09,75,16,180,10,84,09,144,,85,50,110,13,86,44,012,30*60
$GLGSV,3,3,09,87,07,345,37*52
$GNGLL,0419.83106,S,05539.62327,E,124014.00,A,D*65
$GNRMC,124015.00,A,0419.83107,S,05539.62327,E,0.026,,200525,,,D*78
$GNVTG,,T,,M,0.026,N,0.049,K,D*31
$GNGGA,124015.00,0419.83107,S,05539.62327,E,2,12,0.73,8.2,M,-47.6,M,,0000*73
$GNGSA,A,3,32,29,10,28,26,16,27,31,40,41,08,,1.28,0.73,1.05*1B
$GNGSA,A,3,85,72,71,75,86,65,87,,,,,,1.28,0.73,1.05*19
$GPGSV,4,1,16,08,12,315,41,10,15,008,40,16,25,235,37,18,33,092,*79
$GPGSV,4,2,16,23,01,046,,26,28,204,28,27,47,302,34,28,53,142,13*71
$GPGSV,4,3,16,29,08,148,11,31,39,182,14,32,52,001,31,36,52,277,34*73
$GPGSV,4,4,16,40,84,353,34,41,58,082,30,49,32,274,,50,10,089,*7D
$GLGSV,3,1,09,65,28,249,33,71,13,006,32,72,41,319,29,74,12,130,09*60
$GLGSV,3,2,09,75,16,180,09,84,09,144,,85,50,110,11,86,44,012,30*6A
$GLGSV,3,3,09,87,07,345,36*53
$GNGLL,0419.83107,S,05539.62327,E,124015.00,A,D*65
$GNRMC,124016.00,A,0419.83109,S,05539.62328,E,0.022,,200525,,,D*7E
$GNVTG,,T,,M,0.022,N,0.040,K,D*3C
$GNGGA,124016.00,0419.83109,S,05539.62328,E,2,12,0.76,8.2,M,-47.6,M,,0000*74
$GNGSA,A,3,32,29,10,28,26,16,27,31,40,41,08,,1.30,0.76,1.06*14
$GNGSA,A,3,85,72,71,75,86,65,87,,,,,,1.30,0.76,1.06*16
$GPGSV,4,1,16,08,12,315,40,10,15,008,40,16,25,235,37,18,33,092,*78
$GPGSV,4,2,16,23,01,046,,26,28,204,28,27,47,302,34,28,53,142,15*77
$GPGSV,4,3,16,29,08,148,12,31,39,182,13,32,52,001,32,36,52,277,34*74
$GPGSV,4,4,16,40,84,353,34,41,58,082,30,49,32,274,,50,10,089,*7D
$GLGSV,3,1,09,65,28,249,34,71,13,006,31,72,41,319,30,74,12,130,07*62
$GLGSV,3,2,09,75,16,180,10,84,09,144,,85,50,110,12,86,44,012,30*61
$GLGSV,3,3,09,87,07,345,32*57
$GNGLL,0419.83109,S,05539.62328,E,124016.00,A,D*67
$GNRMC,124017.00,A,0419.83110,S,05539.62328,E,0.090,,200525,,,D*7E
$GNVTG,,T,,M,0.090,N,0.166,K,D*30
$GNGGA,124017.00,0419.83110,S,05539.62328,E,2,12,0.93,8.2,M,-47.6,M,,0000*76
$GNGSA,A,3,32,10,28,26,16,27,31,40,41,08,,,1.53,0.93,1.21*14
$GNGSA,A,3,85,72,71,86,65,87,,,,,,,1.53,0.93,1.21*1F
$GPGSV,4,1,16,08,12,315,39,10,15,008,40,16,25,235,38,18,33,092,*79
$GPGSV,4,2,16,23,01,046,,26,28,204,29,27,47,302,35,28,53,142,13*71
$GPGSV,4,3,16,29,08,148,06,31,39,182,12,32,52,001,32,36,52,277,34*70
$GPGSV,4,4,16,40,84,353,34,41,58,082,30,49,32,274,,50,10,089,*7D
$GLGSV,3,1,09,65,28,249,34,71,13,006,31,72,41,319,30,74,12,130,09*6C
$GLGSV,3,2,09,75,16,180,07,84,09,144,,85,50,110,14,86,44,012,31*60
$GLGSV,3,3,09,87,07,345,30*55
$GNGLL,0419.83110,S,05539.62328,E,124017.00,A,D*6E
$GNRMC,124018.00,A,0419.83112,S,05539.62328,E,0.062,,200525,,,D*7E
$GNVTG,,T,,M,0.062,N,0.115,K,D*39
$GNGGA,124018.00,0419.83112,S,05539.62328,E,2,12,0.78,8.2,M,-47.6,M,,0000*7E
$GNGSA,A,3,32,29,10,28,26,16,27,31,40,41,08,,1.31,0.78,1.05*18
$GNGSA,A,3,72,71,75,86,65,87,,,,,,,1.31,0.78,1.05*17
$GPGSV,4,1,16,08,12,315,40,10,15,008,41,16,25,235,37,18,33,092,*79
$GPGSV,4,2,16,23,01,046,,26,28,204,29,27,47,302,35,28,53,142,16*74
$GPGSV,4,3,16,29,08,148,10,31,39,182,13,32,52,001,32,36,52,277,34*76
$GPGSV,4,4,16,40,84,353,34,41,58,082,30,49,32,274,,50,10,089,*7D
$GLGSV,3,1,09,65,28,249,34,71,13,006,31,72,41,319,30,74,12,130,08*6D
$GLGSV,3,2,09,75,16,180,11,84,09,144,,85,50,110,06,86,44,012,31*64
$GLGSV,3,3,09,87,07,345,32*57
$GNGLL,0419.83112,S,05539.62328,E,124018.00,A,D*63
$GNRMC,124019.00,A,0419.83114,S,05539.62330,E,0.064,,200525,,,D*76
$GNVTG,,T,,M,0.064,N,0.118,K,D*32
$GNGGA,124019.00,0419.83114,S,05539.62330,E,2,12,0.73,8.1,M,-47.6,M,,0000*78
$GNGSA,A,3,32,29,10,28,26,16,27,31,40,41,08,,1.28,0.73,1.05*1B
$GNGSA,A,3,85,72,71,75,86,65,87,,,,,,1.28,0.73,1.05*19
$GPGSV,4,1,16,08,12,315,41,10,15,008,40,16,25,235,38,18,33,092,*76
$GPGSV,4,2,16,23,01,046,,26,28,204,29,27,47,302,36,28,53,142,12*73
$GPGSV,4,3,16,29,08,148,10,31,39,182,14,32,52,001,32,36,52,277,34*71
$GPGSV,4,4,16,40,84,353,35,41,58,082,30,49,32,274,,50,10,089,*7C
$GLGSV,3,1,09,65,28,249,34,71,13,006,31,72,41,319,31,74,12,130,07*63
$GLGSV,3,2,09,75,16,180,08,84,09,144,,85,50,110,11,86,44,012,31*6A
$GLGSV,3,3,09,87,07,345,33*56
$GNGLL,0419.83114,S,05539.62330,E,124019.00,A,D*6D
$GNRMC,124020.00,A,0419.83115,S,05539.62328,E,0.030,,200525,,,D*75
$GNVTG,,T,,M,0.030,N,0.056,K,D*38
$GNGGA,124020.00,0419.83115,S,05539.62328,E,2,12,0.82,8.0,M,-47.6,M,,0000*75
$GNGSA,A,3,32,10,28,26,16,27,31,40,41,08,,,1.45,0.82,1.20*12
$GNGSA,A,3,85,72,71,75,86,65,87,,,,,,1.45,0.82,1.20*1B
$GPGSV,4,1,16,08,12,315,42,10,15,008,40,16,25,235,38,18,33,092,*75
$GPGSV,4,2,16,23,01,046,,26,28,204,29,27,47,302,35,28,53,142,14*76
$GPGSV,4,3,16,29,08,148,06,31,39,182,13,32,52,001,32,36,52,277,34*71
$GPGSV,4,4,16,40,84,353,34,41,58,082,30,49,32,274,,50,10,089,*7D
$GLGSV,3,1,09,65,28,249,34,71,13,006,31,72,41,319,30,74,12,130,09*6C
$GLGSV,3,2,09,75,16,180,10,84,09,144,,85,50,110,12,86,44,012,30*61
$GLGSV,3,3,09,87,07,345,33*56
$GNGLL,0419.83115,S,05539.62328,E,124020.00,A,D*6F
$GNRMC,124021.00,A,0419.83115,S,05539.62328,E,0.069,,200525,,,D*78
$GNVTG,,T,,M,0.069,N,0.128,K,D*3C
$GNGGA,124021.00,0419.83115,S,05539.62328,E,2,12,0.76,8.0,M,-47.6,M,,0000*7F
$GNGSA,A,3,32,29,10,28,26,16,27,31,40,41,08,,1.30,0.76,1.06*14
$GNGSA,A,3,85,72,71,75,86,65,87,,,,,,1.30,0.76,1.06*16
$GPGSV,4,1,16,08,12,315,40,10,15,008,40,16,25,235,38,18,33,092,*77
$GPGSV,4,2,16,23,01,046,,26,28,204,29,27,47,302,35,28,53,142,15*77
$GPGSV,4,3,16,29,08,148,09,31,39,182,11,32,52,001,32,36,52,277,34*7C
$GPGSV,4,4,16,40,84,353,34,41,58,082,30,49,32,274,,50,10,089,*7D
$GLGSV,3,1,09,65,28,249,34,71,13,006,32,72,41,319,31,74,12,130,10*66
$GLGSV,3,2,09,75,16,180,09,84,09,144,,85,50,110,10,86,44,012,30*6B
$GLGSV,3,3,09,87,07,345,32*57
$GNGLL,0419.83115,S,05539.62328,E,124021.00,A,D*6E
$GNRMC,124022.00,A,0419.83117,S,05539.62329,E,0.072,,200525,,,D*72
$GNVTG,,T,,M,0.072,N,0.134,K,D*3B
$GNGGA,124022.00,0419.83117,S,05539.62329,E,2,12,0.73,7.9,M,-47.6,M,,0000*7C
$GNGSA,A,3,32,29,10,28,26,16,27,31,40,41,08,,1.28,0.73,1.05*1B
$GNGSA,A,3,85,72,71,75,86,65,87,,,,,,1.28,0.73,1.05*19
$GPGSV,4,1,16,08,12,315,41,10,15,008,40,16,25,235,38,18,33,092,*76
$GPGSV,4,2,16,23,01,046,,26,28,204,28,27,47,302,35,28,53,142,16*75
$GPGSV,4,3,16,29,08,148,10,31,39,182,11,32,52,001,32,36,52,277,34*74
$GPGSV,4,4,16,40,84,353,34,41,58,082,30,49,32,274,,50,10,089,*7D
$GLGSV,3,1,09,65,28,249,34,71,13,006,31,72,41,319,31,74,12,130,06*62
$GLGSV,3,2,09,75,16,180,09,84,09,144,,85,50,110,09,86,44,012,30*63
$GLGSV,3,3,09,87,07,345,30*55
$GNGLL,0419.83117,S,05539.62329,E,124022.00,A,D*6E
$GNRMC,124023.00,A,0419.83118,S,05539.62327,E,0.044,,200525,,,D*77
$GNVTG,,T,,M,0.044,N,0.081,K,D*31
$GNGGA,124023.00,0419.83118,S,05539.62327,E,2,12,0.82,7.9,M,-47.6,M,,0000*72
$GNGSA,A,3,32,29,10,26,16,27,31,40,41,08,,,1.45,0.82,1.19*19
$GNGSA,A,3,85,72,71,75,86,65,87,,,,,,1.45,0.82,1.19*11
$GPGSV,4,1,16,08,12,315,41,10,15,008,40,16,24,234,38,18,33,092,*76
$GPGSV,4,2,16,23,01,046,,26,28,204,28,27,47,302,35,28,53,142,09*7B
$GPGSV,4,3,16,29,08,148,10,31,39,182,15,32,52,001,32,36,52,277,33*77
$GPGSV,4,4,16,40,84,353,34,41,58,082,30,49,32,274,,50,10,089,*7D
$GLGSV,3,1,09,65,28,249,34,71,13,006,32,72,41,319,31,74,12,130,06*61
$GLGSV,3,2,09,75,16,180,11,84,09,144,,85,50,110,12,86,44,012,30*60
$GLGSV,3,3,09,87,07,345,31*54
$GNGLL,0419.83118,S,05539.62327,E,124023.00,A,D*6E
$GNRMC,124024.00,A,0419.83118,S,05539.62326,E,0.042,,200525,,,D*77
$GNVTG,,T,,M,0.042,N,0.077,K,D*3E
$GNGGA,124024.00,0419.83118,S,05539.62326,E,2,12,0.64,7.8,M,-47.6,M,,0000*7D
$GNGSA,A,3,32,29,10,28,26,16,27,31,40,41,08,,1.12,0.64,0.92*1B
$GNGSA,A,3,85,72,71,75,86,74,65,87,,,,,1.12,0.64,0.92*1A
$GPGSV,4,1,16,08,12,315,42,10,15,008,40,16,24,234,38,18,33,092,*75
$GPGSV,4,2,16,23,01,046,,26,28,204,28,27,47,302,34,28,53,142,13*71
$GPGSV,4,3,16,29,08,148,08,31,39,182,14,32,52,001,32,36,52,277,33*7F
$GPGSV,4,4,16,40,84,353,34,41,58,082,30,49,32,274,,50,10,089,*7D
$GLGSV,3,1,09,65,28,249,34,71,13,006,32,72,41,319,31,74,12,130,08*6F
$GLGSV,3,2,09,75,16,180,09,84,09,144,,85,50,110,10,86,44,012,30*6B
$GLGSV,3,3,09,87,07,345,32*57
$GNGLL,0419.83118,S,05539.62326,E,124024.00,A,D*68
$GNRMC,124025.00,A,0419.83120,S,05539.62326,E,0.061,,200525,,,D*7C
$GNVTG,,T,,M,0.061,N,0.113,K,D*3C
$GNGGA,124025.00,0419.83120,S,05539.62326,E,2,12,0.64,7.8,M,-47.6,M,,0000*77
$GNGSA,A,3,32,29,10,28,26,16,27,31,40,41,08,,1.12,0.64,0.92*1B
$GNGSA,A,3,85,72,71,75,86,74,65,87,,,,,1.12,0.64,0.92*1A
$GPGSV,4,1,16,08,12,315,41,10,15,008,40,16,24,234,38,18,33,092,*76
$GPGSV,4,2,16,23,01,046,,26,28,204,28,27,47,302,35,28,53,142,15*76
$GPGSV,4,3,16,29,08,148,07,31,39,182,14,32,52,001,32,36,52,277,34*77
$GPGSV,4,4,16,40,84,353,34,41,58,082,31,49,32,274,,50,10,089,*7C
$GLGSV,3,1,09,65,28,249,34,71,13,006,32,72,41,319,31,74,12,130,10*66
$GLGSV,3,2,09,75,16,180,11,84,09,144,,85,50,110,08,86,44,012,30*6B
$GLGSV,3,3,09,87,07,345,32*57
$GNGLL,0419.83120,S,05539.62326,E,124025.00,A,D*62
$GNRMC,124026.00,A,0419.83120,S,05539.62325,E,0.027,,200525,,,D*7E
$GNVTG,,T,,M,0.027,N,0.049,K,D*30
$GNGGA,124026.00,0419.83120,S,05539.62325,E,2,12,0.90,7.7,M,-47.6,M,,0000*73
$GNGSA,A,3,32,29,10,28,26,16,27,40,41,08,,,1.51,0.90,1.21*1C
$GNGSA,A,3,85,72,71,75,86,65,87,,,,,,1.51,0.90,1.21*1C
$GPGSV,4,1,16,08,12,315,40,10,15,008,40,16,24,234,37,18,33,092,*78
$GPGSV,4,2,16,23,01,046,,26,28,204,28,27,47,302,35,28,53,142,16*75
$GPGSV,4,3,16,29,08,148,08,31,39,182,04,32,52,001,32,36,52,277,33*7E
$GPGSV,4,4,16,40,84,353,34,41,58,082,31,49,32,274,,50,10,089,*7C
$GLGSV,3,1,09,65,28,249,33,71,13,006,32,72,41,319,31,74,12,130,09*69
$GLGSV,3,2,09,75,16,180,09,84,09,144,,85,50,110,10,86,44,012,30*6B
$GLGSV,3,3,09,87,07,345,32*57
$GNGLL,0419.83120,S,05539.62325,E,124026.00,A,D*62
$GNRMC,124027.00,A,0419.83122,S,05539.62325,E,0.046,,200525,,,D*7A
$GNVTG,,T,,M,0.046,N,0.086,K,D*34
$GNGGA,124027.00,0419.83122,S,05539.62325,E,2,12,0.74,7.7,M,-47.6,M,,0000*7A
$GNGSA,A,3,32,29,10,28,26,16,27,40,41,08,,,1.29,0.74,1.05*1F
$GNGSA,A,3,85,72,71,75,86,65,87,,,,,,1.29,0.74,1.05*1F
$GPGSV,4,1,16,08,12,315,42,10,15,008,40,16,24,234,37,18,33,092,*7A
$GPGSV,4,2,16,23,01,046,,26,28,204,28,27,47,302,35,28,53,142,16*75
$GPGSV,4,3,16,29,08,148,10,31,39,182,07,32,52,001,32,36,52,277,33*74
$GPGSV,4,4,16,40,84,353,34,41,58,082,30,49,32,274,,50,10,089,*7D
$GLGSV,3,1,09,65,28,249,34,71,13,006,32,72,41,319,30,74,12,130,10*67
$GLGSV,3,2,09,75,16,180,07,84,09,144,,85,50,110,13,86,44,012,29*6E
$GLGSV,3,3,09,87,07,345,32*57
$GNGLL,0419.83122,S,05539.62325,E,124027.00,A,D*61
$GNRMC,124028.00,A,0419.83123,S,05539.62325,E,0.031,,200525,,,D*74
$GNVTG,,T,,M,0.031,N,0.058,K,D*37
$GNGGA,124028.00,0419.83123,S,05539.62325,E,2,12,0.73,7.6,M,-47.6,M,,0000*72
$GNGSA,A,3,32,29,10,28,26,16,27,31,40,41,08,,1.28,0.73,1.05*1B
$GNGSA,A,3,85,72,71,75,86,65,87,,,,,,1.28,0.73,1.05*19
$GPGSV,4,1,16,08,12,315,42,10,15,008,40,16,24,234,37,18,33,092,17*7C
$GPGSV,4,2,16,23,01,046,,26,28,204,28,27,47,302,35,28,53,142,16*75
$GPGSV,4,3,16,29,08,148,11,31,39,182,10,32,52,001,32,36,52,277,34*74
$GPGSV,4,4,16,40,84,353,34,41,58,082,31,49,32,274,,50,10,089,*7C
$GLGSV,3,1,09,65,28,249,34,71,13,006,32,72,41,319,30,74,12,130,10*67
$GLGSV,3,2,09,75,16,180,10,84,09,144,,85,50,110,09,86,44,012,29*63
$GLGSV,3,3,09,87,07,345,31*54
$GNGLL,0419.83123,S,05539.62325,E,124028.00,A,D*6F
$GNRMC,124029.00,A,0419.83124,S,05539.62324,E,0.087,,200525,,,D*7E
$GNVTG,,T,,M,0.087,N,0.162,K,D*32
$GNGGA,124029.00,0419.83124,S,05539.62324,E,2,12,0.91,7.5,M,-47.6,M,,0000*7A
$GNGSA,A,3,32,29,10,28,26,16,27,31,40,41,08,,1.50,0.91,1.20*1F
$GNGSA,A,3,85,72,71,75,86,65,87,,,,,,1.50,0.91,1.20*1D
$GPGSV,4,1,16,08,12,315,38,10,15,008,40,16,24,234,36,18,33,092,14*73
$GPGSV,4,2,16,23,01,046,,26,28,204,28,27,47,302,34,28,53,142,16*74
$GPGSV,4,3,16,29,08,148,08,31,39,182,13,32,52,001,31,36,52,277,33*7B
$GPGSV,4,4,16,40,84,353,34,41,58,082,30,49,32,274,,50,10,089,*7D
$GLGSV,3,1,09,65,28,249,34,71,13,006,32,72,41,319,30,74,12,130,08*6E
$GLGSV,3,2,09,75,16,180,08,84,09,144,,85,50,110,09,86,44,012,29*6A
$GLGSV,3,3,09,87,07,345,31*54
$GNGLL,0419.83124,S,05539.62324,E,124029.00,A,D*68
$GNRMC,124030.00,A,0419.83125,S,05539.62322,E,0.014,,200525,,,D*7B
$GNVTG,,T,,M,0.014,N,0.027,K,D*38
$GNGGA,124030.00,0419.83125,S,05539.62322,E,2,12,0.73,7.4,M,-47.6,M,,0000*78
$GNGSA,A,3,32,29,10,28,26,16,27,31,40,41,08,,1.28,0.73,1.05*1B
$GNGSA,A,3,85,72,71,75,86,65,87,,,,,,1.28,0.73,1.05*19
$GPGSV,4,1,16,08,12,315,41,10,15,008,39,16,24,234,36,18,33,092,13*74
$GPGSV,4,2,16,23,01,046,,26,28,204,27,27,47,302,34,28,53,142,17*7A
$GPGSV,4,3,16,29,08,148,09,31,39,182,13,32,52,001,31,36,52,277,33*7A
$GPGSV,4,4,16,40,84,353,33,41,58,082,30,49,32,274,,50,10,089,*7A
$GLGSV,3,1,09,65,28,249,34,71,13,006,32,72,41,319,30,74,12,130,08*6E
$GLGSV,3,2,09,75,16,180,10,84,09,144,,85,50,110,11,86,44,012,29*6A
$GLGSV,3,3,09,87,07,345,33*56
$GNGLL,0419.83125,S,05539.62322,E,124030.00,A,D*67
$GNRMC,124031.00,A,0419.83126,S,05539.62321,E,0.040,,200525,,,D*7B
$GNVTG,,T,,M,0.040,N,0.074,K,D*3F
$GNGGA,124031.00,0419.83126,S,05539.62321,E,2,12,0.73,7.3,M,-47.6,M,,0000*7E
$GNGSA,A,3,32,29,10,28,26,16,27,31,40,41,08,,1.28,0.73,1.05*1B
$GNGSA,A,3,85,72,71,75,86,65,87,,,,,,1.28,0.73,1.05*19
$GPGSV,4,1,16,08,12,315,42,10,15,008,39,16,24,234,36,18,33,092,12*76
$GPGSV,4,2,16,23,01,046,,26,28,204,28,27,47,302,34,28,53,142,17*75
$GPGSV,4,3,16,29,08,148,08,31,39,182,12,32,52,001,30,36,52,277,34*7C
$GPGSV,4,4,16,40,84,353,34,41,58,082,30,49,32,274,,50,10,089,*7D
$GLGSV,3,1,09,65,28,249,34,71,13,006,32,72,41,319,30,74,12,130,11*66
$GLGSV,3,2,09,75,16,180,11,84,09,144,,85,50,110,07,86,44,012,29*6C
$GLGSV,3,3,09,87,07,345,34*51
$GNGLL,0419.83126,S,05539.62321,E,124031.00,A,D*66
$GNRMC,124032.00,A,0419.83128,S,05539.62322,E,0.069,,200525,,,D*7E
$GNVTG,,T,,M,0.069,N,0.128,K,D*3C
$GNGGA,124032.00,0419.83128,S,05539.62322,E,2,12,0.76,7.3,M,-47.6,M,,0000*75
$GNGSA,A,3,32,10,28,26,16,27,31,40,41,08,,,1.30,0.76,1.06*1F
$GNGSA,A,3,85,72,71,75,86,65,87,,,,,,1.30,0.76,1.06*16
$GPGSV,4,1,16,08,12,315,39,10,15,008,39,16,24,234,36,18,33,092,*79
$GPGSV,4,2,16,23,01,046,,26,28,204,28,27,47,302,35,28,53,142,18*7B
$GPGSV,4,3,16,29,08,148,09,31,39,182,14,32,52,001,31,36,52,277,34*7A
$GPGSV,4,4,16,40,84,353,34,41,58,082,30,49,32,274,,50,10,089,*7D
$GLGSV,3,1,09,65,28,249,34,71,13,006,32,72,41,319,30,74,12,130,07*61
$GLGSV,3,2,09,75,16,180,07,84,09,144,,85,50,110,10,86,44,012,29*6D
$GLGSV,3,3,09,87,07,345,34*51
$GNGLL,0419.83128,S,05539.62322,E,124032.00,A,D*68
$GNRMC,124033.00,A,0419.83130,S,05539.62325,E,0.053,,200525,,,D*78
$GNVTG,,T,,M,0.053,N,0.099,K,D*3E
$GNGGA,124033.00,0419.83130,S,05539.62325,E,2,12,0.76,7.2,M,-47.6,M,,0000*7B
$GNGSA,A,3,32,10,28,26,16,27,31,40,41,08,,,1.30,0.76,1.06*1F
$GNGSA,A,3,85,72,71,75,86,65,87,,,,,,1.30,0.76,1.06*16
$GPGSV,4,1,16,08,12,315,43,10,15,008,39,16,24,234,37,18,33,092,*75
$GPGSV,4,2,16,23,01,046,,26,28,204,27,27,48,302,35,28,53,142,18*7B
$GPGSV,4,3,16,29,08,148,12,31,39,182,14,32,52,001,31,36,52,277,34*70
$GPGSV,4,4,16,40,84,353,34,41,58,082,30,49,32,274,,50,10,089,*7D
$GLGSV,3,1,09,65,28,249,33,71,13,006,33,72,41,319,31,74,12,130,10*60
$GLGSV,3,2,09,75,16,180,07,84,09,144,,85,50,110,14,86,44,012,29*69
$GLGSV,3,3,09,87,07,345,33*56
$GNGLL,0419.83130,S,05539.62325,E,124033.00,A,D*67
$GNRMC,124034.00,A,0419.83131,S,05539.62326,E,0.005,,200525,,,D*7E
$GNVTG,,T,,M,0.005,N,0.009,K,D*34
$GNGGA,124034.00,0419.83131,S,05539.62326,E,2,12,0.76,7.1,M,-47.6,M,,0000*7D
$GNGSA,A,3,32,10,28,26,16,27,31,40,41,08,,,1.30,0.76,1.06*1F
$GNGSA,A,3,85,72,71,75,86,65,87,,,,,,1.30,0.76,1.06*16
$GPGSV,4,1,16,08,12,315,40,10,15,008,39,16,24,234,37,18,33,092,*76
$GPGSV,4,2,16,23,01,046,,26,28,204,27,27,48,302,35,28,53,141,17*77
$GPGSV,4,3,16,29,08,148,07,31,39,182,14,32,52,001,31,36,52,277,34*74
$GPGSV,4,4,16,40,84,353,34,41,58,082,29,49,32,274,,50,10,089,*75
$GLGSV,3,1,09,65,28,249,33,71,13,006,32,72,41,319,31,74,12,130,08*68
$GLGSV,3,2,09,75,16,180,10,84,09,144,,85,50,110,09,86,44,012,29*63
$GLGSV,3,3,09,87,07,345,34*51
$GNGLL,0419.83131,S,05539.62326,E,124034.00,A,D*62
$GNRMC,124035.00,A,0419.83133,S,05539.62326,E,0.068,,200525,,,D*76
$GNVTG,,T,,M,0.068,N,0.126,K,D*33
$GNGGA,124035.00,0419.83133,S,05539.62326,E,2,12,0.85,7.1,M,-47.6,M,,0000*72
$GNGSA,A,3,32,29,10,28,26,16,27,31,40,41,08,,1.46,0.85,1.19*17
$GNGSA,A,3,85,72,71,75,86,65,87,,,,,,1.46,0.85,1.19*15
$GPGSV,4,1,16,08,12,315,41,10,15,008,39,16,24,234,37,18,33,092,*77
$GPGSV,4,2,16,23,01,046,,26,28,204,27,27,48,302,36,28,53,141,17*74
$GPGSV,4,3,16,29,08,148,10,31,39,182,15,32,52,001,30,36,52,277,34*72
$GPGSV,4,4,16,40,84,353,34,41,58,082,29,49,32,274,,50,10,089,*75
$GLGSV,3,1,09,65,28,249,34,71,13,006,32,72,41,319,31,74,12,130,05*62
$GLGSV,3,2,09,75,16,180,08,84,09,144,,85,50,110,09,86,44,012,28*6B
$GLGSV,3,3,09,87,07,345,35*50
$GNGLL,0419.83133,S,05539.62326,E,124035.00,A,D*61
$GNRMC,124036.00,A,0419.83135,S,05539.62328,E,0.018,,200525,,,D*7A
$GNVTG,,T,,M,0.018,N,0.034,K,D*36
$GNGGA,124036.00,0419.83135,S,05539.62328,E,2,12,0.73,7.0,M,-47.6,M,,0000*71
$GNGSA,A,3,32,29,10,28,26,16,27,31,40,41,08,,1.28,0.73,1.05*1B
$GNGSA,A,3,85,72,71,75,86,65,87,,,,,,1.28,0.73,1.05*19
$GPGSV,4,1,16,08,12,315,41,10,15,008,39,16,24,234,37,18,33,092,16*70
$GPGSV,4,2,16,23,01,046,,26,28,204,27,27,48,302,35,28,53,141,16*76
$GPGSV,4,3,16,29,08,148,10,31,39,182,15,32,52,001,30,36,52,277,34*72
$GPGSV,4,4,16,40,84,353,34,41,58,082,29,49,32,274,,50,10,089,*75
$GLGSV,3,1,09,65,28,249,34,71,13,006,32,72,41,319,31,74,12,130,11*67
$GLGSV,3,2,09,75,16,180,09,84,09,144,,85,50,110,09,86,44,012,28*6A
$GLGSV,3,3,09,87,07,345,34*51
$GNGLL,0419.83135,S,05539.62328,E,124036.00,A,D*6A
$GNRMC,124037.00,A,0419.83138,S,05539.62329,E,0.024,,200525,,,D*78
$GNVTG,,T,,M,0.024,N,0.044,K,D*3E
$GNGGA,124037.00,0419.83138,S,05539.62329,E,2,12,0.76,7.0,M,-47.6,M,,0000*79
$GNGSA,A,3,32,29,10,28,26,16,27,31,40,41,08,,1.30,0.76,1.06*14
$GNGSA,A,3,85,72,71,75,86,65,87,,,,,,1.30,0.76,1.06*16
$GPGSV,4,1,16,08,12,315,43,10,15,008,39,16,24,234,37,18,33,092,16*72
$GPGSV,4,2,16,23,01,046,,26,28,204,28,27,48,302,35,28,53,141,16*79
$GPGSV,4,3,16,29,08,148,11,31,39,181,15,32,52,001,30,36,52,277,34*70
$GPGSV,4,4,16,40,84,353,34,41,58,082,29,49,32,274,,50,10,089,*75
$GLGSV,3,1,09,65,28,249,33,71,13,006,32,72,41,319,31,74,12,130,09*69
$GLGSV,3,2,09,75,16,180,10,84,09,144,,85,50,110,10,86,44,012,28*6A
$GLGSV,3,3,09,87,07,345,31*54
$GNGLL,0419.83138,S,05539.62329,E,124037.00,A,D*67
$GNRMC,124038.00,A,0419.83139,S,05539.62331,E,0.037,,200525,,,D*7D
$GNVTG,,T,,M,0.037,N,0.069,K,D*33
$GNGGA,124038.00,0419.83139,S,05539.62331,E,2,12,0.74,7.0,M,-47.6,M,,0000*7C
$GNGSA,A,3,32,29,10,28,26,16,27,31,40,41,08,,1.23,0.74,0.98*12
$GNGSA,A,3,85,72,71,75,86,65,87,,,,,,1.23,0.74,0.98*10
$GPGSV,4,1,16,08,12,315,41,10,15,008,39,16,24,234,37,18,33,092,16*70
$GPGSV,4,2,16,23,01,046,,26,28,204,28,27,48,302,35,28,53,141,17*78
$GPGSV,4,3,16,29,08,148,08,31,39,181,14,32,51,001,30,36,52,277,33*7D
$GPGSV,4,4,16,40,84,353,35,41,58,082,29,49,32,274,,50,10,089,*74
$GLGSV,3,1,09,65,28,249,34,71,13,006,31,72,41,319,31,74,12,130,09*6D
$GLGSV,3,2,09,75,16,180,10,84,09,144,,85,50,110,09,86,44,012,28*62
$GLGSV,3,3,09,87,07,345,35*50
$GNGLL,0419.83139,S,05539.62331,E,124038.00,A,D*60
$GNRMC,124039.00,A,0419.83141,S,05539.62334,E,0.031,,200525,,,D*70
$GNVTG,,T,,M,0.031,N,0.058,K,D*37
$GNGGA,124039.00,0419.83141,S,05539.62334,E,2,12,0.76,6.9,M,-47.6,M,,0000*7D
$GNGSA,A,3,32,10,28,26,16,27,31,40,41,08,,,1.30,0.76,1.06*1F
$GNGSA,A,3,85,72,71,75,86,65,87,,,,,,1.30,0.76,1.06*16
$GPGSV,4,1,16,08,12,315,41,10,15,008,39,16,24,234,37,18,33,092,16*70
$GPGSV,4,2,16,23,01,046,,26,28,204,27,27,48,302,36,28,53,141,17*74
$GPGSV,4,3,16,29,08,148,07,31,39,181,15,32,51,001,29,36,52,277,34*7C
$GPGSV,4,4,16,40,84,353,35,41,58,082,29,49,32,274,,50,10,089,*74
$GLGSV,3,1,09,65,28,249,33,71,13,006,32,72,41,319,32,74,12,130,06*65
$GLGSV,3,2,09,75,16,180,10,84,09,144,,85,50,110,14,86,44,012,28*6E
$GLGSV,3,3,09,87,07,345,34*51
$GNGLL,0419.83141,S,05539.62334,E,124039.00,A,D*6B
$GNRMC,124040.00,A,0419.83141,S,05539.62335,E,0.019,,200525,,,D*75
$GNVTG,,T,,M,0.019,N,0.035,K,D*36
$GNGGA,124040.00,0419.83141,S,05539.62335,E,2,12,0.67,6.9,M,-47.6,M,,0000*72
$GNGSA,A,3,32,29,18,10,28,26,16,27,31,40,41,08,1.24,0.67,1.05*1B
$GNGSA,A,3,85,72,71,75,86,65,87,,,,,,1.24,0.67,1.05*10
$GPGSV,4,1,16,08,12,315,43,10,15,008,39,16,24,234,37,18,33,092,15*71
$GPGSV,4,2,16,23,01,046,,26,28,204,27,27,48,302,35,28,53,141,18*78
$GPGSV,4,3,16,29,08,148,08,31,39,181,14,32,51,001,29,36,52,277,34*72
$GPGSV,4,4,16,40,84,353,34,41,58,082,29,49,32,274,,50,10,089,*75
$GLGSV,3,1,09,65,28,249,34,71,13,006,32,72,41,319,32,74,12,130,10*65
$GLGSV,3,2,09,75,16,180,11,84,09,144,,85,50,110,10,86,44,012,28*6B
$GLGSV,3,3,09,87,07,345,33*56
$GNGLL,0419.83141,S,05539.62335,E,124040.00,A,D*64
$GNRMC,124041.00,A,0419.83142,S,05539.62336,E,0.148,,200525,,,D*71
$GNVTG,,T,,M,0.148,N,0.274,K,D*34
$GNGGA,124041.00,0419.83142,S,05539.62336,E,2,12,0.73,6.9,M,-47.6,M,,0000*76
$GNGSA,A,3,32,29,18,10,28,26,16,27,31,40,41,08,1.35,0.73,1.13*19
$GNGSA,A,3,85,72,71,75,86,65,87,,,,,,1.35,0.73,1.13*12
$GPGSV,4,1,16,08,12,315,40,10,15,008,37,16,24,234,37,18,33,092,14*7D
$GPGSV,4,2,16,23,01,046,,26,28,204,27,27,48,302,35,28,53,141,17*77
$GPGSV,4,3,16,29,08,148,08,31,39,181,14,32,51,001,29,36,52,277,32*74
$GPGSV,4,4,16,40,84,353,34,41,58,082,28,49,32,274,,50,10,089,*74
$GLGSV,3,1,09,65,28,249,34,71,13,006,33,72,41,319,31,74,12,130,09*6F
$GLGSV,3,2,09,75,16,180,09,84,09,144,,85,50,110,10,86,44,012,28*62
$GLGSV,3,3,09,87,07,345,32*57
$GNGLL,0419.83142,S,05539.62336,E,124041.00,A,D*65
$GNRMC,124042.00,A,0419.83143,S,05539.62337,E,0.072,,200525,,,D*7A
$GNVTG,,T,,M,0.072,N,0.134,K,D*3B
$GNGGA,124042.00,0419.83143,S,05539.62337,E,2,12,0.66,6.9,M,-47.6,M,,0000*71
$GNGSA,A,3,32,18,10,28,26,16,27,31,40,41,08,,1.22,0.66,1.02*10
$GNGSA,A,3,85,72,71,75,86,65,87,,,,,,1.22,0.66,1.02*10
$GPGSV,4,1,16,08,12,315,40,10,15,008,37,16,24,234,36,18,33,092,13*7B
$GPGSV,4,2,16,23,01,046,,26,28,204,26,27,48,302,34,28,53,141,17*77
$GPGSV,4,3,16,29,08,148,05,31,39,181,12,32,51,001,28,36,52,277,32*7E
$GPGSV,4,4,16,40,84,353,33,41,58,082,28,49,32,274,,50,10,089,*73
$GLGSV,3,1,09,65,28,249,34,71,13,006,32,72,41,319,31,74,12,130,07*60
$GLGSV,3,2,09,75,16,180,10,84,09,144,,85,50,110,10,86,44,012,28*6A
$GLGSV,3,3,09,87,07,345,32*57
$GNGLL,0419.83143,S,05539.62337,E,124042.00,A,D*66
$GNRMC,124043.00,A,0419.83145,S,05539.62339,E,0.046,,200525,,,D*74
$GNVTG,,T,,M,0.046,N,0.085,K,D*37
$GNGGA,124043.00,0419.83145,S,05539.62339,E,2,12,0.73,6.9,M,-47.6,M,,0000*7C
$GNGSA,A,3,32,29,10,28,26,16,27,31,40,41,08,,1.28,0.73,1.05*1B
$GNGSA,A,3,85,72,71,75,86,65,87,,,,,,1.28,0.73,1.05*19
$GPGSV,4,1,16,08,12,315,40,10,15,008,38,16,24,234,36,18,33,092,10*77
$GPGSV,4,2,16,23,01,046,,26,28,204,27,27,48,302,34,28,53,141,16*77
$GPGSV,4,3,16,29,08,148,07,31,39,181,11,32,51,001,28,36,52,277,32*7F
$GPGSV,4,4,16,40,84,353,33,41,58,082,28,49,32,274,,50,10,089,*73
$GLGSV,3,1,09,65,28,249,34,71,13,006,32,72,41,319,31,74,12,130,07*60
$GLGSV,3,2,09,75,16,180,09,84,09,144,,85,50,110,12,86,44,012,28*60
$GLGSV,3,3,09,87,07,345,31*54
$GNGLL,0419.83145,S,05539.62339,E,124043.00,A,D*6F
$GNRMC,124044.00,A,0419.83146,S,05539.62339,E,0.077,,200525,,,D*72
$GNVTG,,T,,M,0.077,N,0.142,K,D*3F
$GNGGA,124044.00,0419.83146,S,05539.62339,E,2,12,0.85,6.9,M,-47.6,M,,0000*71
$GNGSA,A,3,32,10,28,26,16,27,31,40,41,08,,,1.46,0.85,1.19*1C
$GNGSA,A,3,85,72,71,75,86,65,87,,,,,,1.46,0.85,1.19*15
$GPGSV,4,1,16,08,12,315,41,10,15,008,39,16,24,234,36,18,33,092,10*77
$GPGSV,4,2,16,23,01,046,,26,28,204,27,27,48,302,34,28,53,141,16*77
$GPGSV,4,3,16,29,08,148,11,31,39,181,12,32,51,001,29,36,52,277,32*7A
$GPGSV,4,4,16,40,84,353,33,41,58,082,29,49,32,274,,50,10,089,*72
$GLGSV,3,1,09,65,28,249,34,71,13,006,34,72,41,319,31,74,12,130,06*67
$GLGSV,3,2,09,75,16,180,11,84,09,144,,85,50,110,08,86,44,012,27*6D
$GLGSV,3,3,09,87,07,345,33*56
$GNGLL,0419.83146,S,05539.62339,E,124044.00,A,D*6B
$GNRMC,124045.00,A,0419.83148,S,05539.62341,E,0.011,,200525,,,D*72
$GNVTG,,T,,M,0.011,N,0.021,K,D*3B
$GNGGA,124045.00,0419.83148,S,05539.62341,E,2,12,0.67,6.9,M,-47.6,M,,0000*7D
$GNGSA,A,3,32,18,10,28,26,16,27,31,40,41,08,,1.24,0.67,1.05*10
$GNGSA,A,3,85,72,71,75,86,65,87,,,,,,1.24,0.67,1.05*10
$GPGSV,4,1,16,08,12,315,40,10,15,008,40,16,24,234,36,18,33,092,11*79
$GPGSV,4,2,16,23,01,046,,26,28,204,27,27,48,302,34,28,53,141,17*76
$GPGSV,4,3,16,29,08,148,07,31,39,181,11,32,51,001,29,36,52,277,32*7E
$GPGSV,4,4,16,40,84,353,34,41,58,082,28,49,32,274,,50,10,089,*74
$GLGSV,3,1,09,65,28,249,33,71,13,006,33,72,41,319,31,74,12,130,11*61
$GLGSV,3,2,09,75,16,180,09,84,09,144,,85,50,110,13,86,44,012,27*6E
$GLGSV,3,3,09,87,07,345,35*50
$GNGLL,0419.83148,S,05539.62341,E,124045.00,A,D*6B
$GNRMC,124046.00,A,0419.83150,S,05539.62344,E,0.037,,200525,,,D*79
$GNVTG,,T,,M,0.037,N,0.068,K,D*32
$GNGGA,124046.00,0419.83150,S,05539.62344,E,2,12,0.76,6.8,M,-47.6,M,,0000*73
$GNGSA,A,3,32,10,28,26,16,27,31,40,41,08,,,1.30,0.76,1.06*1F
$GNGSA,A,3,85,72,71,75,86,65,87,,,,,,1.30,0.76,1.06*16
$GPGSV,4,1,16,08,12,315,43,10,15,008,41,16,24,234,39,18,33,092,*74
$GPGSV,4,2,16,23,01,046,,26,28,204,27,27,48,302,37,28,53,141,18*7A
$GPGSV,4,3,16,29,08,148,10,31,39,181,14,32,51,001,29,36,52,277,34*7B
$GPGSV,4,4,16,40,84,353,35,41,58,082,29,49,32,274,,50,10,089,*74
$GLGSV,3,1,09,65,28,249,33,71,13,006,32,72,41,319,31,74,12,130,08*68
$GLGSV,3,2,09,75,16,180,09,84,09,144,,85,50,110,13,86,44,012,27*6E
$GLGSV,3,3,09,87,07,345,35*50
$GNGLL,0419.83150,S,05539.62344,E,124046.00,A,D*64
$GNRMC,124047.00,A,0419.83151,S,05539.62345,E,0.024,,200525,,,D*7A
$GNVTG,,T,,M,0.024,N,0.044,K,D*3E
$GNGGA,124047.00,0419.83151,S,05539.62345,E,2,12,0.82,6.8,M,-47.6,M,,0000*79
$GNGSA,A,3,32,29,10,28,26,16,27,31,40,41,08,,1.45,0.82,1.20*19
$GNGSA,A,3,85,72,71,75,86,65,87,,,,,,1.45,0.82,1.20*1B
$GPGSV,4,1,16,08,12,315,44,10,15,008,40,16,24,234,38,18,33,092,*73
$GPGSV,4,2,16,23,01,046,,26,28,204,28,27,48,302,36,28,53,141,19*75
$GPGSV,4,3,16,29,08,148,10,31,39,181,12,32,51,001,30,36,52,277,34*75
$GPGSV,4,4,16,40,84,353,35,41,58,082,30,49,32,274,,50,10,089,*7C
$GLGSV,3,1,09,65,28,249,33,71,13,006,32,72,41,319,31,74,12,130,05*65
$GLGSV,3,2,09,75,16,180,08,84,09,144,,85,50,110,13,86,44,012,27*6F
$GLGSV,3,3,09,87,07,345,33*56
$GNGLL,0419.83151,S,05539.62345,E,124047.00,A,D*65
$GNRMC,124048.00,A,0419.83153,S,05539.62348,E,0.029,,200525,,,D*77
$GNVTG,,T,,M,0.029,N,0.053,K,D*35
$GNGGA,124048.00,0419.83153,S,05539.62348,E,2,12,0.66,6.8,M,-47.6,M,,0000*73
$GNGSA,A,3,32,29,10,28,26,16,27,31,40,41,08,,1.16,0.66,0.96*19
$GNGSA,A,3,85,72,71,75,86,74,65,87,,,,,1.16,0.66,0.96*18
$GPGSV,4,1,16,08,12,315,41,10,15,008,41,16,24,234,38,18,33,092,15*73
$GPGSV,4,2,16,23,01,046,,26,28,204,28,27,48,302,36,28,53,141,20*7F
$GPGSV,4,3,16,29,08,148,09,31,39,181,09,32,51,001,30,36,52,277,34*77
$GPGSV,4,4,16,40,84,353,35,41,58,082,29,49,32,274,,50,10,089,*74
$GLGSV,3,1,09,65,28,249,34,71,13,006,33,72,41,319,31,74,12,130,11*66
$GLGSV,3,2,09,75,16,180,08,84,09,144,,85,50,110,10,86,44,012,27*6C
$GLGSV,3,3,09,87,07,345,35*50
$GNGLL,0419.83153,S,05539.62348,E,124048.00,A,D*65
$GNRMC,124049.00,A,0419.83153,S,05539.62349,E,0.055,,200525,,,D*7C
$GNVTG,,T,,M,0.055,N,0.102,K,D*3B
$GNGGA,124049.00,0419.83153,S,05539.62349,E,2,12,0.66,6.7,M,-47.6,M,,0000*7C
$GNGSA,A,3,32,29,10,28,26,16,27,31,40,41,08,,1.16,0.66,0.96*19
$GNGSA,A,3,85,72,71,75,86,74,65,87,,,,,1.16,0.66,0.96*18
$GPGSV,4,1,16,08,12,315,41,10,15,008,39,16,24,234,37,18,33,092,14*72
$GPGSV,4,2,16,23,01,046,,26,28,204,28,27,48,302,35,28,53,141,19*76
