$GNTXT,01,01,01,More than 100 frame errors, UART RX was disabled*70
b0@f
B[+t5=LE$g{4V_6:R 
Y|A/B(WoC'D
MNBO :QYR-3b6U$GNRMC,064118.00,A,0419.88558,S,05539.91720,E,1.276,,020625,,,A*7B
$GNVTG,,T,,M,1.276,N,2.364,K,A*3C
$GNGNS,064118.00,0419.88558,S,05539.91720,E,AA,11,1.13,24.9,-47.6,,*68
$GNGGA,064118.00,0419.88558,S,05539.91720,E,1,11,1.13,24.9,M,-47.6,M,,*42
$GNGSA,A,3,05,12,15,23,25,29,40,,,,,,2.17,1.13,1.85*1C
$GNGSA,A,3,78,66,67,79,,,,,,,,,2.17,1.13,1.85*17
$GPGSV,4,1,16,05,24,029,23,10,19,215,,12,66,132,28,13,12,091,25*7A
$GPGSV,4,2,16,15,43,116,20,18,28,309,18,23,61,226,27,24,25,164,20*7A
$GPGSV,4,3,16,25,76,325,20,28,09,277,,29,20,359,21,36,52,277,*7D
$GPGSV,4,4,16,40,86,351,28,41,58,082,29,49,32,274,,50,10,089,*78
$GLGSV,3,1,09,65,08,047,23,66,40,087,27,67,39,164,17,68,04,200,*6F
$GLGSV,3,2,09,77,23,165,15,78,66,235,19,79,32,314,09,81,08,345,*6A
$GLGSV,3,3,09,82,04,301,*50
$GNGLL,0419.88558,S,05539.91720,E,064118.00,A,A*63
$GNGRS,064118.00,1,1.0,-0.2,4.9,1.5,-7.3,2.1,36.4,,,,,*48
$GNGRS,064118.00,1,4.7,-1.5,-2.6,-0.4,,,,,,,,*70
$GNGST,064118.00,1237,,,,5.2,5.4,12*6F
$GNZDA,064118.00,02,06,2025,00,00*73
$GNGBS,064118.00,5.2,5.4,12.4,,,,*64
$GNTXT,01,01,01,More than 100 frame errors, UART RX was disabled*70
b0@
#B[+tj5=LE^g{4V_":R 
Y |A/B(WC'D
MNBPO
!9QYR-nb6=\$GNRMC,064119.00,A,0419.88598,S,05539.91717,E,0.693,,020625,,,A*7C
$GNVTG,,T,,M,0.693,N,1.284,K,A*3E
$GNGNS,064119.00,0419.88598,S,05539.91717,E,AA,11,1.13,23.3,-47.6,,*6C
$GNGGA,064119.00,0419.88598,S,05539.91717,E,1,11,1.13,23.3,M,-47.6,M,,*46
$GNGSA,A,3,05,12,15,23,25,29,40,,,,,,2.17,1.13,1.85*1C
$GNGSA,A,3,78,66,67,79,,,,,,,,,2.17,1.13,1.85*17
$GPGSV,4,1,16,05,24,029,28,10,19,215,,12,66,132,35,13,12,091,31*78
$GPGSV,4,2,16,15,43,116,21,18,28,309,15,23,61,226,27,24,25,164,19*7C
$GPGSV,4,3,16,25,76,325,22,28,09,277,,29,20,359,22,36,52,277,*7C
$GPGSV,4,4,16,40,86,351,27,41,58,082,34,49,32,274,,50,10,089,*7B
$GLGSV,3,1,09,65,08,047,24,66,40,087,30,67,39,164,15,68,04,200,*6C
$GLGSV,3,2,09,77,23,165,11,78,66,235,15,79,33,313,10,81,08,345,*6C
$GLGSV,3,3,09,82,04,301,*50
$GNGLL,0419.88598,S,05539.91717,E,064119.00,A,A*6A
$GNGRS,064119.00,1,-0.3,-3.7,6.2,4.5,-6.7,2.3,31.0,,,,,*68
$GNGRS,064119.00,1,5.9,1.7,-2.7,2.6,,,,,,,,*7D
$GNGST,064119.00,98762,,,,5.4,5.5,13*5D
$GNZDA,064119.00,02,06,2025,00,00*72
$GNGBS,064119.00,5.4,5.5,12.8,,,,*6E
$GNTXT,01,01,01,More than 100 frame errors, UART RX was disabled*70
b0@A
&BX [+t5 =LE6g${4 V_#:R 
Y$|A/B&(WC'D
MNB=O!9QYR-ub6%$GNRMC,064120.00,A,0419.88603,S,05539.91711,E,0.316,,020625,,,A*79
$GNVTG,,T,,M,0.316,N,0.585,K,A*31
$GNGNS,064120.00,0419.88603,S,05539.91711,E,AA,11,1.13,23.0,-47.6,,*62
$GNGGA,064120.00,0419.88603,S,05539.91711,E,1,11,1.13,23.0,M,-47.6,M,,*48
$GNGSA,A,3,05,12,15,23,25,29,40,,,,,,2.17,1.13,1.85*1C
$GNGSA,A,3,78,66,67,79,,,,,,,,,2.17,1.13,1.85*17
$GPGSV,4,1,16,05,24,029,30,10,19,215,,12,66,132,38,13,12,091,32*7F
$GPGSV,4,2,16,15,43,116,31,18,28,309,11,23,61,226,32,24,25,164,18*7C
$GPGSV,4,3,16,25,76,325,29,28,09,277,,29,20,359,24,36,52,277,*71
$GPGSV,4,4,16,40,86,351,32,41,58,082,35,49,32,274,,50,10,089,*7E
$GLGSV,3,1,09,65,08,047,31,66,40,087,38,67,39,164,19,68,04,200,*6C
$GLGSV,3,2,09,77,23,165,15,78,66,235,15,79,33,313,11,81,08,345,*69
$GLGSV,3,3,09,82,04,301,*50
$GNGLL,0419.88603,S,05539.91711,E,064120.00,A,A*67
$GNGRS,064120.00,1,-1.9,-1.7,0.0,2.6,-4.6,0.4,30.8,,,,,*65
$GNGRS,064120.00,1,5.7,-0.9,-2.8,1.8,,,,,,,,*59
$GNGST,064120.00,107325,,,,5.5,5.4,13*67
$GNZDA,064120.00,02,06,2025,00,00*78
$GNGBS,064120.00,5.5,5.4,12.9,,,,*65
$GNTXT,01,01,01,More than 100 frame errors, UART RX was disabled*70
b0@"
$B"["+t5==LEgn{4!V_6%:R 
Y&|A/B%(WC'XD
MNBO!9QYR-*Pb6,$GNRMC,064121.00,A,0419.88600,S,05539.91706,E,0.215,,020625,,,A*7F
$GNVTG,,T,,M,0.215,N,0.398,K,A*39
$GNGNS,064121.00,0419.88600,S,05539.91706,E,AA,11,1.13,23.0,-47.6,,*66
$GNGGA,064121.00,0419.88600,S,05539.91706,E,1,11,1.13,23.0,M,-47.6,M,,*4C
$GNGSA,A,3,05,12,15,23,25,29,40,,,,,,2.17,1.13,1.86*1F
$GNGSA,A,3,78,66,67,79,,,,,,,,,2.17,1.13,1.86*14
$GPGSV,4,1,16,05,24,029,34,10,19,215,,12,66,132,36,13,12,091,34*73
$GPGSV,4,2,16,15,43,116,34,18,28,309,09,23,61,226,26,24,25,164,20*7E
$GPGSV,4,3,16,25,76,325,20,28,09,277,,29,20,359,24,36,52,277,*78
$GPGSV,4,4,16,40,86,351,33,41,58,082,37,49,32,274,,50,10,089,*7D
$GLGSV,3,1,09,65,08,047,30,66,40,087,37,67,39,164,22,68,04,200,*6A
$GLGSV,3,2,09,77,23,165,15,78,66,235,16,79,33,313,12,81,08,345,*69
$GLGSV,3,3,09,82,04,301,*50
$GNGLL,0419.88600,S,05539.91706,E,064121.00,A,A*63
$GNGRS,064121.00,1,1.5,-0.7,0.0,0.6,-0.6,1.1,31.3,,,,,*4C
$GNGRS,064121.00,1,2.0,-1.1,-4.2,-8.8,,,,,,,,*79
$GNGST,064121.00,1237,,,,5.5,5.3,13*64
$GNZDA,064121.00,02,06,2025,00,00*79
$GNGBS,064121.00,5.5,5.3,13.0,,,,*6B
$GNTXT,01,01,01,More than 100 frame errors, UART RX was disabled*70
b0@
&Bm![+tY5=LEgc{4%V_%:R 
Y%|A/B&(WC'cD
MNBO!9JQYR.b6z$GNRMC,064122.00,A,0419.88595,S,05539.91716,E,0.160,,020625,,,A*73
$GNVTG,,T,,M,0.160,N,0.296,K,A*37
$GNGNS,064122.00,0419.88595,S,05539.91716,E,AA,11,1.13,22.8,-47.6,,*62
$GNGGA,064122.00,0419.88595,S,05539.91716,E,1,11,1.13,22.8,M,-47.6,M,,*48
$GNGSA,A,3,05,12,15,23,25,29,40,,,,,,2.17,1.13,1.86*1F
$GNGSA,A,3,78,66,67,79,,,,,,,,,2.17,1.13,1.86*14
$GPGSV,4,1,16,05,24,029,31,10,19,215,,12,66,132,38,13,12,091,33*7F
$GPGSV,4,2,16,15,43,116,30,18,28,309,09,23,61,226,28,24,25,164,24*70
$GPGSV,4,3,16,25,76,325,22,28,09,277,,29,20,359,22,36,52,277,*7C
$GPGSV,4,4,16,40,86,351,37,41,58,082,37,49,32,274,,50,10,089,*79
$GLGSV,3,1,09,65,08,047,30,66,40,087,38,67,39,164,25,68,04,200,*62
$GLGSV,3,2,09,77,23,165,16,78,66,235,21,79,33,313,13,81,08,345,*6F
$GLGSV,3,3,09,82,04,302,*53
$GNGLL,0419.88595,S,05539.91716,E,064122.00,A,A*6E
$GNGRS,064122.00,1,4.3,-1.5,0.9,-0.6,-2.9,3.6,32.3,,,,,*60
$GNGRS,064122.00,1,-2.9,2.3,-6.7,3.3,,,,,,,,*58
$GNGST,064122.00,115707,,,,5.5,5.3,13*65
$GNZDA,064122.00,02,06,2025,00,00*7A
$GNGBS,064122.00,5.5,5.3,13.1,,,,*69
$GNTXT,01,01,01,More than 100 frame errors, UART RX was disabled*70
b0@
&B#["+t5=LEgJ{4"V_':R 
Y%|A /B&(WC')D
MNBO!9qQYR. b6R$GNRMC,064123.00,A,0419.88581,S,05539.91726,E,0.134,,020625,,,A*75
$GNVTG,,T,,M,0.134,N,0.247,K,A*3A
$GNGNS,064123.00,0419.88581,S,05539.91726,E,AA,11,1.13,23.4,-47.6,,*68
$GNGGA,064123.00,0419.88581,S,05539.91726,E,1,11,1.13,23.4,M,-47.6,M,,*42
$GNGSA,A,3,05,12,15,23,25,29,40,,,,,,2.17,1.13,1.86*1F
$GNGSA,A,3,78,66,67,79,,,,,,,,,2.17,1.13,1.86*14
$GPGSV,4,1,16,05,24,029,31,10,19,215,,12,66,132,38,13,12,091,35*79
$GPGSV,4,2,16,15,43,116,34,18,28,309,09,23,61,226,29,24,25,164,24*75
$GPGSV,4,3,16,25,76,325,23,28,09,277,,29,20,359,22,36,52,277,*7D
$GPGSV,4,4,16,40,86,351,34,41,58,082,39,49,32,274,,50,10,089,*74
$GLGSV,3,1,09,65,08,047,32,66,40,087,38,67,39,164,26,68,04,200,*63
$GLGSV,3,2,09,77,23,165,16,78,66,235,22,79,33,313,13,81,08,345,*6C
$GLGSV,3,3,09,82,04,302,*53
$GNGLL,0419.88581,S,05539.91726,E,064123.00,A,A*69
$GNGRS,064123.00,1,-0.5,-0.3,1.3,1.6,-2.8,3.3,32.8,,,,,*61
$GNGRS,064123.00,1,-3.7,0.2,-7.3,3.7,,,,,,,,*54
$GNGST,064123.00,173555,,,,5.4,5.2,13*61
$GNZDA,064123.00,02,06,2025,00,00*7B
$GNGBS,064123.00,5.4,5.2,12.8,,,,*60
$GNTXT,01,01,01,More than 100 frame errors, UART RX was disabled*70
b0@p 
&Bb#[+t5=LEg{4!V_&:R 
Y%|A /B((WC'D
MNBO!9QYR.bp 6*a$GNRMC,064124.00,A,0419.88570,S,05539.91733,E,0.238,,020625,,,A*77
$GNVTG,,T,,M,0.238,N,0.441,K,A*35
$GNGNS,064124.00,0419.88570,S,05539.91733,E,AA,11,1.13,23.5,-47.6,,*64
$GNGGA,064124.00,0419.88570,S,05539.91733,E,1,11,1.13,23.5,M,-47.6,M,,*4E
$GNGSA,A,3,05,12,15,23,25,29,40,,,,,,2.17,1.13,1.86*1F
$GNGSA,A,3,78,66,67,79,,,,,,,,,2.17,1.13,1.86*14
$GPGSV,4,1,16,05,24,029,30,10,19,215,,12,66,132,38,13,12,091,35*78
$GPGSV,4,2,16,15,43,116,30,18,28,309,08,23,61,226,28,24,25,164,21*74
$GPGSV,4,3,16,25,76,325,21,28,09,277,,29,20,359,21,36,52,277,*7C
$GPGSV,4,4,16,40,86,351,33,41,58,082,38,49,32,274,,50,10,089,*72
$GLGSV,3,1,09,65,08,047,32,66,40,087,40,67,39,164,26,68,04,200,*6C
$GLGSV,3,2,09,77,23,165,13,78,66,235,21,79,33,313,13,81,08,345,*6A
$GLGSV,3,3,09,82,04,302,*53
$GNGLL,0419.88570,S,05539.91733,E,064124.00,A,A*64
$GNGRS,064124.00,1,-3.6,-1.6,-3.3,-2.4,1.3,2.8,33.0,,,,,*47
$GNGRS,064124.00,1,-3.6,1.8,-9.9,-0.9,,,,,,,,*7D
$GNGST,064124.00,1237,,,,5.4,5.1,13*62
$GNZDA,064124.00,02,06,2025,00,00*7C
$GNGBS,064124.00,5.4,5.1,12.7,,,,*6B
$GNTXT,01,01,01,More than 100 frame errors, UART RX was disabled*70
b0@X$!
!B[+t25=lLEg{{4V_':R 
Y"|A/B(WC'WD
MNBO!9&QYR.bX$6$GNRMC,064125.00,A,0419.88552,S,05539.91728,E,0.587,,020625,,,A*7F
$GNVTG,,T,,M,0.587,N,1.087,K,A*39
$GNGNS,064125.00,0419.88552,S,05539.91728,E,AA,11,1.17,23.5,-47.6,,*6B
$GNGGA,064125.00,0419.88552,S,05539.91728,E,1,11,1.17,23.5,M,-47.6,M,,*41
$GNGSA,A,3,05,12,15,23,25,29,40,,,,,,2.46,1.17,2.17*14
$GNGSA,A,3,78,66,67,79,,,,,,,,,2.46,1.17,2.17*1F
$GPGSV,4,1,16,05,24,029,33,10,19,215,,12,66,132,33,13,12,091,30*75
$GPGSV,4,2,16,15,43,116,30,18,28,309,08,23,61,226,28,24,25,164,20*75
$GPGSV,4,3,16,25,76,325,25,28,09,277,,29,20,359,30,36,52,277,*78
$GPGSV,4,4,16,40,86,351,29,41,58,082,39,49,32,274,,50,10,089,*78
$GLGSV,3,1,09,65,08,047,31,66,40,087,31,67,39,164,24,68,04,200,*6B
$GLGSV,3,2,09,77,23,165,11,78,66,235,18,79,33,313,12,81,08,345,*63
$GLGSV,3,3,09,82,04,302,*53
$GNGLL,0419.88552,S,05539.91728,E,064125.00,A,A*6F
$GNGRS,064125.00,1,0.0,-1.2,-2.1,1.1,-1.0,3.8,33.4,,,,,*69
$GNGRS,064125.00,1,-2.9,1.6,-11.9,2.9,,,,,,,,*6A
$GNGST,064125.00,64466,,,,5.4,5.1,13*52
$GNZDA,064125.00,02,06,2025,00,00*7D
$GNGBS,064125.00,5.4,5.1,12.8,,,,*65
$GNTXT,01,01,01,More than 100 frame errors, UART RX was disabled*70
b0@@($
#BN[+t75=LEKg{4!V_":R 
Y|A/B(WC',D
MNB)O!9QYR.b@(63$GNRMC,064126.00,A,0419.88553,S,05539.91693,E,1.740,190.13,020625,,,A*60
$GNVTG,190.13,T,,M,1.740,N,3.223,K,A*2B
$GNGNS,064126.00,0419.88553,S,05539.91693,E,AA,11,1.17,22.8,-47.6,,*64
$GNGGA,064126.00,0419.88553,S,05539.91693,E,1,11,1.17,22.8,M,-47.6,M,,*4E
$GNGSA,A,3,05,12,15,23,25,29,40,,,,,,2.46,1.17,2.17*14
$GNGSA,A,3,78,66,67,79,,,,,,,,,2.46,1.17,2.17*1F
$GPGSV,4,1,16,05,24,029,36,10,19,215,,12,66,132,35,13,12,091,29*7E
$GPGSV,4,2,16,15,43,116,24,18,28,309,07,23,61,226,22,24,25,164,21*74
$GPGSV,4,3,16,25,76,325,25,28,09,277,,29,20,359,23,36,52,277,*7A
$GPGSV,4,4,16,40,86,351,33,41,58,082,34,49,32,274,,50,10,089,*7E
$GLGSV,3,1,09,65,08,047,25,66,40,087,26,67,39,164,25,68,04,200,*69
$GLGSV,3,2,09,77,23,165,14,78,66,235,16,79,33,313,13,81,08,345,*69
$GLGSV,3,3,09,82,04,302,*53
$GNGLL,0419.88553,S,05539.91693,E,064126.00,A,A*6C
$GNGRS,064126.00,1,-1.1,0.8,3.1,4.7,-4.4,4.6,33.5,,,,,*47
$GNGRS,064126.00,1,-2.1,1.8,-12.4,2.7,,,,,,,,*6F
$GNGST,064126.00,94803,,,,5.5,5.2,13*53
$GNZDA,064126.00,02,06,2025,00,00*7E
$GNGBS,064126.00,5.5,5.2,13.0,,,,*6D
$GNTXT,01,01,01,More than 100 frame errors, UART RX was disabled*70
b0@(,"
B[+t5=LEg{4$V_7%:R 
Y|A/B(WC'%D
MNBO!9QYR.b(,6}$GNRMC,064127.00,A,0419.88540,S,05539.91691,E,0.061,,020625,,,A*70
$GNVTG,,T,,M,0.061,N,0.113,K,A*39
$GNGNS,064127.00,0419.88540,S,05539.91691,E,AA,11,1.17,22.8,-47.6,,*65
$GNGGA,064127.00,0419.88540,S,05539.91691,E,1,11,1.17,22.8,M,-47.6,M,,*4F
$GNGSA,A,3,05,12,15,23,25,29,40,,,,,,2.46,1.17,2.17*14
$GNGSA,A,3,78,66,67,79,,,,,,,,,2.46,1.17,2.17*1F
$GPGSV,4,1,16,05,24,029,34,10,19,215,,12,66,132,27,13,12,091,29*7F
$GPGSV,4,2,16,15,43,116,25,18,28,309,08,23,61,226,23,24,25,164,24*7E
$GPGSV,4,3,16,25,76,325,27,28,09,277,,29,20,359,22,36,52,277,*79
$GPGSV,4,4,16,40,86,351,36,41,58,082,37,49,32,274,,50,10,089,*78
$GLGSV,3,1,09,65,08,047,24,66,40,087,27,67,39,164,30,68,04,200,*6D
$GLGSV,3,2,09,77,23,165,16,78,66,235,19,79,33,313,19,81,08,345,*6E
$GLGSV,3,3,09,82,04,302,*53
$GNGLL,0419.88540,S,05539.91691,E,064127.00,A,A*6D
$GNGRS,064127.00,1,2.6,2.5,-0.7,1.9,-3.6,3.9,33.8,,,,,*43
$GNGRS,064127.00,1,-3.4,2.6,-9.9,-1.2,,,,,,,,*7B
$GNGST,064127.00,46,,,,5.5,5.4,13*60
$GNZDA,064127.00,02,06,2025,00,00*7F
$GNGBS,064127.00,5.5,5.4,13.1,,,,*6B
$GNTXT,01,01,01,More than 100 frame errors, UART RX was disabled*70
b0@0 M
B[+t]5=LEg{4#V_[&:R 
Y|A/B(WC'D
MNBO!9
QYR.-b06e$GNRMC,064128.00,A,0419.88522,S,05539.91691,E,0.206,,020625,,,A*78
$GNVTG,,T,,M,0.206,N,0.381,K,A*33
$GNGNS,064128.00,0419.88522,S,05539.91691,E,AA,11,1.13,23.7,-47.6,,*64
$GNGGA,064128.00,0419.88522,S,05539.91691,E,1,11,1.13,23.7,M,-47.6,M,,*4E
$GNGSA,A,3,05,12,15,23,25,29,40,,,,,,2.17,1.13,1.86*1F
$GNGSA,A,3,78,66,67,79,,,,,,,,,2.17,1.13,1.86*14
$GPGSV,4,1,16,05,24,029,32,10,19,215,20,12,66,132,27,13,12,091,27*75
$GPGSV,4,2,16,15,43,116,24,18,28,309,07,23,61,226,24,24,25,164,26*75
$GPGSV,4,3,16,25,76,325,29,28,09,277,,29,20,359,24,36,52,277,*71
$GPGSV,4,4,16,40,86,351,35,41,58,082,38,49,32,274,,50,10,089,*74
$GLGSV,3,1,09,65,08,047,23,66,40,087,26,67,39,164,30,68,04,200,*6B
$GLGSV,3,2,09,77,23,165,15,78,66,235,21,79,33,313,16,81,08,345,*69
$GLGSV,3,3,09,82,04,302,*53
$GNGLL,0419.88522,S,05539.91691,E,064128.00,A,A*66
$GNGRS,064128.00,1,0.8,1.9,-4.2,4.0,-2.5,0.2,34.2,,,,,*45
$GNGRS,064128.00,1,-3.3,2.8,-8.9,2.7,,,,,,,,*57
$GNGST,064128.00,50634,,,,5.3,5.4,13*5F
$GNZDA,064128.00,02,06,2025,00,00*70
$GNGBS,064128.00,5.3,5.4,12.8,,,,*6A
$GNTXT,01,01,01,More than 100 frame errors, UART RX was disabled*70
b0@3
B[+tG5=]LETg{4"V_%:R 
Y|A/B(WC'RD
MNBO!9QYR.b36Mb\$GNRMC,064129.00,A,0419.88519,S,05539.91692,E,0.106,,020625,,,A*71
$GNVTG,,T,,M,0.106,N,0.196,K,A*34
$GNGNS,064129.00,0419.88519,S,05539.91692,E,AA,11,1.13,23.9,-47.6,,*60
$GNGGA,064129.00,0419.88519,S,05539.91692,E,1,11,1.13,23.9,M,-47.6,M,,*4A
$GNGSA,A,3,05,12,15,23,25,29,40,,,,,,2.17,1.13,1.86*1F
$GNGSA,A,3,78,66,67,79,,,,,,,,,2.17,1.13,1.86*14
$GPGSV,4,1,16,05,24,029,31,10,19,215,20,12,66,132,29,13,12,091,26*79
$GPGSV,4,2,16,15,43,116,24,18,28,309,,23,61,226,23,24,25,164,26*75
$GPGSV,4,3,16,25,76,325,29,28,09,277,,29,20,359,25,36,52,277,*70
$GPGSV,4,4,16,40,86,351,34,41,58,082,37,49,32,274,,50,10,089,*7A
$GLGSV,3,1,09,65,08,047,20,66,40,087,26,67,39,164,30,68,04,200,*68
$GLGSV,3,2,09,77,23,165,17,78,66,235,23,79,33,313,15,81,08,345,*6A
$GLGSV,3,3,09,82,04,302,*53
$GNGLL,0419.88519,S,05539.91692,E,064129.00,A,A*6C
$GNGRS,064129.00,1,0.3,0.3,-1.8,-1.6,-1.7,-2.7,34.8,,,,,*44
$GNGRS,064129.00,1,-3.1,2.3,-4.3,2.2,,,,,,,,*5C
$GNGST,064129.00,75938,,,,5.2,5.5,13*5A
$GNZDA,064129.00,02,06,2025,00,00*71
$GNGBS,064129.00,5.2,5.5,12.6,,,,*65
$GNTXT,01,01,01,More than 100 frame errors, UART RX was disabled*70
b0@7y
B [+t*5=LEg{4#V_%:R 
Y|A/B(WC'D
MNB_O!9QYR.[b765:$GNRMC,064130.00,A,0419.88515,S,05539.91692,E,0.131,,020625,,,A*71
$GNVTG,,T,,M,0.131,N,0.243,K,A*3B
$GNGNS,064130.00,0419.88515,S,05539.91692,E,AA,11,1.13,24.1,-47.6,,*6B
$GNGGA,064130.00,0419.88515,S,05539.91692,E,1,11,1.13,24.1,M,-47.6,M,,*41
$GNGSA,A,3,05,12,15,23,25,29,40,,,,,,2.17,1.13,1.86*1F
$GNGSA,A,3,78,66,67,79,,,,,,,,,2.17,1.13,1.86*14
$GPGSV,4,1,16,05,24,029,31,10,19,215,21,12,66,132,30,13,12,091,32*75
$GPGSV,4,2,16,15,43,116,26,18,28,309,,23,61,226,22,24,25,164,27*77
$GPGSV,4,3,16,25,76,325,30,28,09,277,,29,20,359,25,36,52,277,*78
$GPGSV,4,4,16,40,86,351,35,41,58,082,37,49,32,274,,50,10,089,*7B
$GLGSV,3,1,09,65,08,047,17,66,40,087,25,67,39,164,30,68,04,200,*6F
$GLGSV,3,2,09,77,23,165,16,78,66,235,23,79,33,313,17,81,08,345,*69
$GLGSV,3,3,09,82,04,302,*53
$GNGLL,0419.88515,S,05539.91692,E,064130.00,A,A*68
$GNGRS,064130.00,1,-1.4,1.7,-4.7,2.7,-3.0,-2.3,32.9,,,,,*41
$GNGRS,064130.00,1,-1.6,2.5,-5.4,1.9,,,,,,,,*59
$GNGST,064130.00,1236,,,,5.1,5.5,12*66
$GNZDA,064130.00,02,06,2025,00,00*79
$GNGBS,064130.00,5.1,5.5,12.4,,,,*6C
$GNTXT,01,01,01,More than 100 frame errors, UART RX was disabled*70
b0@;S
 B[+t5=LE*gQ{4#V_%:R 
Y|A/B (WC'8D
MNBO!9QYR.b;6,$GNRMC,064131.00,A,0419.88510,S,05539.91694,E,0.048,,020625,,,A*7C
$GNVTG,,T,,M,0.048,N,0.090,K,A*38
$GNGNS,064131.00,0419.88510,S,05539.91694,E,AA,11,1.13,24.2,-47.6,,*6A
$GNGGA,064131.00,0419.88510,S,05539.91694,E,1,11,1.13,24.2,M,-47.6,M,,*40
$GNGSA,A,3,05,12,15,23,25,29,40,,,,,,2.17,1.13,1.86*1F
$GNGSA,A,3,78,66,67,79,,,,,,,,,2.17,1.13,1.86*14
$GPGSV,4,1,16,05,24,029,31,10,19,215,19,12,66,132,32,13,12,091,30*7E
$GPGSV,4,2,16,15,43,116,27,18,28,309,,23,61,226,22,24,25,164,26*77
$GPGSV,4,3,16,25,76,325,29,28,09,277,,29,20,359,24,36,52,277,*71
$GPGSV,4,4,16,40,86,351,35,41,58,082,37,49,32,274,,50,10,089,*7B
$GLGSV,3,1,09,65,08,047,15,66,40,087,32,67,39,164,30,68,04,200,*6B
$GLGSV,3,2,09,77,23,165,15,78,66,235,22,79,33,313,19,81,08,345,*65
$GLGSV,3,3,09,82,04,302,*53
$GNGLL,0419.88510,S,05539.91694,E,064131.00,A,A*6A
$GNGRS,064131.00,1,-1.7,5.0,-3.2,2.3,-2.1,3.4,33.3,,,,,*66
$GNGRS,064131.00,1,-0.8,2.2,-4.6,1.7,,,,,,,,*5D
$GNGST,064131.00,1236,,,,5.1,5.5,12*67
$GNZDA,064131.00,02,06,2025,00,00*78
$GNGBS,064131.00,5.1,5.5,12.3,,,,*6A
$GNTXT,01,01,01,More than 100 frame errors, UART RX was disabled*70
b0@?
!B5[+t5=LEgg{4#V_%:R 
Y|A/B(WC'XD
MNBgO!9lQYR.Pb?6$GNRMC,064132.00,A,0419.88492,S,05539.91699,E,0.227,,020625,,,A*72
$GNVTG,,T,,M,0.227,N,0.419,K,A*36
$GNGNS,064132.00,0419.88492,S,05539.91699,E,AA,11,1.13,25.0,-47.6,,*6C
$GNGGA,064132.00,0419.88492,S,05539.91699,E,1,11,1.13,25.0,M,-47.6,M,,*46
$GNGSA,A,3,05,12,15,23,25,29,40,,,,,,2.18,1.13,1.86*10
$GNGSA,A,3,78,66,67,79,,,,,,,,,2.18,1.13,1.86*1B
$GPGSV,4,1,16,05,24,029,30,10,19,215,16,12,66,132,33,13,12,091,30*71
$GPGSV,4,2,16,15,43,116,27,18,28,309,19,23,61,226,21,24,25,164,24*7E
$GPGSV,4,3,16,25,76,325,29,28,09,277,,29,20,359,25,36,52,277,*70
$GPGSV,4,4,16,40,86,351,35,41,58,082,37,49,32,274,,50,10,089,*7B
$GLGSV,3,1,09,65,08,047,14,66,40,087,31,67,39,164,31,68,04,200,*68
$GLGSV,3,2,09,77,23,165,12,78,66,235,21,79,33,313,20,81,08,345,*6B
$GLGSV,3,3,09,82,04,302,*53
$GNGLL,0419.88492,S,05539.91699,E,064132.00,A,A*6F
$GNGRS,064132.00,1,-0.5,3.1,-5.2,2.1,1.0,4.0,33.5,,,,,*4F
$GNGRS,064132.00,1,-1.5,4.9,-6.8,1.1,,,,,,,,*55
$GNGST,064132.00,1236,,,,5.0,5.5,12*65
$GNZDA,064132.00,02,06,2025,00,00*7B
$GNGBS,064132.00,5.0,5.5,12.1,,,,*6A
$GNTXT,01,01,01,More than 100 frame errors, UART RX was disabled*70
b0@C
"B[+t5=gLE+gD{4#V_A&:R 
Y|A/B(WC'D
MNBNO!9HQYR.bC6$GNRMC,064133.00,A,0419.88484,S,05539.91702,E,0.098,,020625,,,A*71
$GNVTG,,T,,M,0.098,N,0.182,K,A*37
$GNGNS,064133.00,0419.88484,S,05539.91702,E,AA,11,1.13,25.3,-47.6,,*6A
$GNGGA,064133.00,0419.88484,S,05539.91702,E,1,11,1.13,25.3,M,-47.6,M,,*40
$GNGSA,A,3,05,12,15,23,25,29,40,,,,,,2.18,1.13,1.86*10
$GNGSA,A,3,78,66,67,79,,,,,,,,,2.18,1.13,1.86*1B
$GPGSV,4,1,16,05,24,029,30,10,19,215,14,12,66,132,34,13,12,091,30*74
$GPGSV,4,2,16,15,43,116,26,18,28,309,19,23,61,226,22,24,25,164,21*79
$GPGSV,4,3,16,25,76,325,30,28,09,277,,29,20,359,25,36,52,277,*78
$GPGSV,4,4,16,40,86,351,35,41,58,082,38,49,32,274,,50,10,089,*74
$GLGSV,3,1,09,65,08,047,14,66,40,087,29,67,39,164,31,68,04,200,*61
$GLGSV,3,2,09,77,23,165,09,78,66,235,20,79,33,313,21,81,08,345,*61
$GLGSV,3,3,09,82,04,302,*53
$GNGLL,0419.88484,S,05539.91702,E,064133.00,A,A*6A
$GNGRS,064133.00,1,-0.7,2.3,-2.7,1.0,-2.1,5.8,33.9,,,,,*65
$GNGRS,064133.00,1,-1.8,4.1,-5.1,-1.8,,,,,,,,*7F
$GNGST,064133.00,1236,,,,4.9,5.4,12*6D
$GNZDA,064133.00,02,06,2025,00,00*7A
$GNGBS,064133.00,4.9,5.4,11.9,,,,*69
$GNTXT,01,01,01,More than 100 frame errors, UART RX was disabled*70
b0@G
#B^[+t5=LE@g]{4"V_n&:R 
Y|A/B(WC'gD
MNB
O!9CQYR.bG6"a$GNRMC,064134.00,A,0419.88479,S,05539.91698,E,0.064,,020625,,,A*75
$GNVTG,,T,,M,0.064,N,0.119,K,A*36
$GNGNS,064134.00,0419.88479,S,05539.91698,E,AA,11,1.13,25.4,-47.6,,*6A
$GNGGA,064134.00,0419.88479,S,05539.91698,E,1,11,1.13,25.4,M,-47.6,M,,*40
$GNGSA,A,3,05,12,15,23,25,29,40,,,,,,2.18,1.13,1.86*10
$GNGSA,A,3,78,66,67,79,,,,,,,,,2.18,1.13,1.86*1B
$GPGSV,4,1,16,05,24,029,29,10,19,215,14,12,66,132,35,13,12,091,29*75
$GPGSV,4,2,16,15,43,116,27,18,28,309,19,23,61,226,23,24,25,164,18*73
$GPGSV,4,3,16,25,76,325,29,28,09,277,,29,20,359,26,36,52,277,*73
$GPGSV,4,4,16,40,86,351,34,41,58,082,38,49,32,274,,50,10,089,*75
$GLGSV,3,1,09,65,08,047,13,66,40,087,28,67,39,164,31,68,04,200,*67
$GLGSV,3,2,09,77,23,165,08,78,66,235,20,79,33,313,20,81,08,345,*61
$GLGSV,3,3,09,82,04,302,*53
$GNGLL,0419.88479,S,05539.91698,E,064134.00,A,A*6D
$GNGRS,064134.00,1,-0.6,0.9,-3.7,1.8,0.6,6.0,34.4,,,,,*4B
$GNGRS,064134.00,1,-2.5,-0.5,-1.5,-1.9,,,,,,,,*5A
$GNGST,064134.00,1236,,,,4.8,5.4,12*6B
$GNZDA,064134.00,02,06,2025,00,00*7D
$GNGBS,064134.00,4.8,5.4,11.8,,,,*6E
$GNTXT,01,01,01,More than 100 frame errors, UART RX was disabled*70
b0@hK
"Bd[+t5=vLEsgW{4"V_&:R 
Y|A/B(WC'bD
MNB?O!9QYR.zbhK6&q$GNRMC,064135.00,A,0419.88477,S,05539.91695,E,0.075,,020625,,,A*77
$GNVTG,,T,,M,0.075,N,0.139,K,A*34
$GNGNS,064135.00,0419.88477,S,05539.91695,E,AA,11,1.13,25.4,-47.6,,*68
$GNGGA,064135.00,0419.88477,S,05539.91695,E,1,11,1.13,25.4,M,-47.6,M,,*42
$GNGSA,A,3,05,12,15,23,25,29,40,,,,,,2.18,1.13,1.86*10
$GNGSA,A,3,78,66,67,79,,,,,,,,,2.18,1.13,1.86*1B
$GPGSV,4,1,16,05,24,029,29,10,19,215,13,12,66,132,34,13,12,091,29*73
$GPGSV,4,2,16,15,43,116,26,18,28,309,18,23,61,226,24,24,25,164,17*7B
$GPGSV,4,3,16,25,76,325,30,28,09,277,,29,20,359,27,36,52,277,*7A
$GPGSV,4,4,16,40,86,351,34,41,58,082,38,49,32,274,,50,10,089,*75
$GLGSV,3,1,09,65,08,047,12,66,40,087,28,67,39,164,31,68,04,200,*66
$GLGSV,3,2,09,77,23,165,08,78,66,235,21,79,33,313,20,81,08,345,*60
$GLGSV,3,3,09,82,04,302,*53
$GNGLL,0419.88477,S,05539.91695,E,064135.00,A,A*6F
$GNGRS,064135.00,1,-0.4,1.0,-7.8,3.7,1.2,3.4,34.7,,,,,*41
$GNGRS,064135.00,1,-1.9,1.3,1.0,-0.6,,,,,,,,*58
$GNGST,064135.00,1236,,,,4.8,5.4,12*6A
$GNZDA,064135.00,02,06,2025,00,00*7C
$GNGBS,064135.00,4.8,5.4,11.6,,,,*61
$GNTXT,01,01,01,More than 100 frame errors, UART RX was disabled*70
b0@PO!
 B[+t5=\LEg{4#V_#:R 
Y |A/B(WC'D
MNB`O!9vQYR.<gbPO6*I1$GNRMC,064136.00,A,0419.88476,S,05539.91690,E,0.080,,020625,,,A*7A
$GNVTG,,T,,M,0.080,N,0.149,K,A*39
$GNGNS,064136.00,0419.88476,S,05539.91690,E,AA,11,1.13,25.5,-47.6,,*6E
$GNGGA,064136.00,0419.88476,S,05539.91690,E,1,11,1.13,25.5,M,-47.6,M,,*44
$GNGSA,A,3,05,12,15,23,25,29,40,,,,,,2.18,1.13,1.86*10
$GNGSA,A,3,78,66,67,79,,,,,,,,,2.18,1.13,1.86*1B
$GPGSV,4,1,16,05,24,029,33,10,19,215,09,12,66,132,32,13,12,091,30*7D
$GPGSV,4,2,16,15,43,116,24,18,28,309,19,23,61,226,25,24,25,164,15*7B
$GPGSV,4,3,16,25,76,325,30,28,09,277,,29,20,359,26,36,52,277,*7B
$GPGSV,4,4,16,40,86,351,35,41,58,082,35,49,32,274,,50,10,089,*79
$GLGSV,3,1,09,65,08,047,13,66,40,087,28,67,39,164,30,68,04,200,*66
$GLGSV,3,2,09,77,23,165,,78,66,235,21,79,33,313,19,81,08,345,*62
$GLGSV,3,3,09,82,04,302,*53
$GNGLL,0419.88476,S,05539.91690,E,064136.00,A,A*68
$GNGRS,064136.00,1,-3.7,1.4,-8.4,6.0,1.7,4.1,34.8,,,,,*4F
$GNGRS,064136.00,1,-1.6,-0.4,-0.6,-1.4,,,,,,,,*56
$GNGST,064136.00,1236,,,,4.7,5.4,12*66
$GNZDA,064136.00,02,06,2025,00,00*7F
$GNGBS,064136.00,4.7,5.4,11.5,,,,*6E
$GNTXT,01,01,01,More than 100 frame errors, UART RX was disabled*70
b0@8ST
B[+t5=LEgD{4"V_ :R 
Y|A/B(WC ')D
MNB@O!9EQYR.1b8S6.!$GNRMC,064137.00,A,0419.88474,S,05539.91687,E,0.123,,020625,,,A*77
$GNVTG,,T,,M,0.123,N,0.227,K,A*3A
$GNGNS,064137.00,0419.88474,S,05539.91687,E,AA,11,1.13,25.6,-47.6,,*68
$GNGGA,064137.00,0419.88474,S,05539.91687,E,1,11,1.13,25.6,M,-47.6,M,,*42
$GNGSA,A,3,05,12,15,23,25,29,40,,,,,,2.18,1.13,1.86*10
$GNGSA,A,3,78,66,67,79,,,,,,,,,2.18,1.13,1.86*1B
$GPGSV,4,1,16,05,24,029,29,10,19,215,09,12,66,132,31,13,12,091,24*70
$GPGSV,4,2,16,15,43,116,25,18,28,309,18,23,61,226,26,24,25,164,*7C
$GPGSV,4,3,16,25,76,325,31,28,09,277,,29,20,359,27,36,52,277,*7B
$GPGSV,4,4,16,40,86,351,34,41,58,082,32,49,32,274,,50,10,089,*7F
$GLGSV,3,1,09,65,08,047,14,66,40,087,26,67,39,164,32,68,04,200,*6D
$GLGSV,3,2,09,77,23,165,,78,66,235,21,79,33,313,20,81,08,345,*68
$GLGSV,3,3,09,82,04,302,*53
$GNGLL,0419.88474,S,05539.91687,E,064137.00,A,A*6D
$GNGRS,064137.00,1,0.8,1.7,-5.1,4.0,-2.7,3.2,34.9,,,,,*4D
$GNGRS,064137.00,1,-1.9,-6.3,-2.2,0.7,,,,,,,,*70
$GNGST,064137.00,1236,,,,4.6,5.4,11*65
$GNZDA,064137.00,02,06,2025,00,00*7E
$GNGBS,064137.00,4.6,5.4,11.4,,,,*6F
$GNTXT,01,01,01,More than 100 frame errors, UART RX was disabled*70
b0@ W^
!Bx[+tP5=<LEg{4!V_&:R 
Y|A/B(WC'D
MNBO!9@QYR.b W6u2$GNRMC,064138.00,A,0419.88476,S,05539.91682,E,0.067,,020625,,,A*7E
$GNVTG,,T,,M,0.067,N,0.125,K,A*3A
$GNGNS,064138.00,0419.88476,S,05539.91682,E,AA,11,1.13,25.5,-47.6,,*63
$GNGGA,064138.00,0419.88476,S,05539.91682,E,1,11,1.13,25.5,M,-47.6,M,,*49
$GNGSA,A,3,05,12,15,23,25,29,40,,,,,,2.18,1.13,1.86*10
$GNGSA,A,3,78,66,67,79,,,,,,,,,2.18,1.13,1.86*1B
$GPGSV,4,1,16,05,24,029,31,10,19,215,09,12,66,132,33,13,12,091,26*79
$GPGSV,4,2,16,15,43,116,26,18,28,309,18,23,61,226,26,24,25,164,*7F
$GPGSV,4,3,16,25,76,325,31,28,09,277,,29,20,359,25,36,52,277,*79
$GPGSV,4,4,16,40,86,351,33,41,58,082,38,49,32,274,,50,10,089,*72
$GLGSV,3,1,09,65,08,047,14,66,40,087,27,67,39,164,31,68,04,200,*6F
$GLGSV,3,2,09,77,23,165,,78,66,235,20,79,33,313,20,81,08,345,*69
$GLGSV,3,3,09,82,04,302,*53
$GNGLL,0419.88476,S,05539.91682,E,064138.00,A,A*65
$GNGRS,064138.00,1,-1.6,1.2,-1.8,5.7,-2.4,1.7,34.9,,,,,*6A
$GNGRS,064138.00,1,-3.0,-2.8,-1.0,0.6,,,,,,,,*7B
$GNGST,064138.00,1236,,,,4.6,5.4,11*6A
$GNZDA,064138.00,02,06,2025,00,00*71
$GNGBS,064138.00,4.6,5.4,11.3,,,,*67
$GNTXT,01,01,01,More than 100 frame errors, UART RX was disabled*70
b0@[

$BF[+tS5= LEg{4"V_&:R 
Y|A/B (WC '1D
MNBO!9TQYR.sb[6]6i$GNRMC,064139.00,A,0419.88475,S,05539.91675,E,0.070,,020625,,,A*72
$GNVTG,,T,,M,0.070,N,0.129,K,A*30
$GNGNS,064139.00,0419.88475,S,05539.91675,E,AA,11,1.13,25.3,-47.6,,*6F
$GNGGA,064139.00,0419.88475,S,05539.91675,E,1,11,1.13,25.3,M,-47.6,M,,*45
$GNGSA,A,3,05,12,15,23,25,29,40,,,,,,2.18,1.13,1.86*10
$GNGSA,A,3,78,66,67,79,,,,,,,,,2.18,1.13,1.86*1B
$GPGSV,4,1,16,05,24,029,31,10,19,215,10,12,66,132,36,13,12,091,29*7B
$GPGSV,4,2,16,15,43,116,27,18,28,309,19,23,61,226,25,24,25,164,*7C
$GPGSV,4,3,16,25,76,325,32,28,09,277,,29,20,359,26,36,52,277,*79
$GPGSV,4,4,16,40,86,351,34,41,58,082,38,49,32,274,,50,10,089,*75
$GLGSV,3,1,09,65,08,047,13,66,40,087,32,67,39,164,32,68,04,200,*6F
$GLGSV,3,2,09,77,23,165,,78,66,235,18,79,33,313,20,81,08,345,*62
$GLGSV,3,3,09,82,04,302,*53
$GNGLL,0419.88475,S,05539.91675,E,064139.00,A,A*6F
$GNGRS,064139.00,1,-1.2,-1.9,-1.7,9.5,-1.1,2.3,35.0,,,,,*41
$GNGRS,064139.00,1,-2.9,-1.0,-2.1,-1.7,,,,,,,,*56
$GNGST,064139.00,1236,,,,4.5,5.4,11*68
$GNZDA,064139.00,02,06,2025,00,00*70
$GNGBS,064139.00,4.5,5.4,11.1,,,,*67
$GNTXT,01,01,01,More than 100 frame errors, UART RX was disabled*70
b0@^

"A[+tc5= LEg{4$V_':R 
Y|A/B(WC'D
MNBO!9QYR.Tb^6E:$GNRMC,064140.00,A,0419.88472,S,05539.91663,E,0.639,,020625,,,A*77
$GNVTG,,T,,M,0.639,N,1.184,K,A*3D
$GNGNS,064140.00,0419.88472,S,05539.91663,E,AA,11,1.13,25.6,-47.6,,*64
$GNGGA,064140.00,0419.88472,S,05539.91663,E,1,11,1.13,25.6,M,-47.6,M,,*4E
$GNGSA,A,3,05,12,15,23,25,29,40,,,,,,2.18,1.13,1.86*10
$GNGSA,A,3,78,66,67,79,,,,,,,,,2.18,1.13,1.86*1B
$GPGSV,4,1,16,05,24,029,31,10,19,215,10,12,65,133,34,13,12,091,30*73
$GPGSV,4,2,16,15,43,116,25,18,28,309,19,23,61,226,25,24,25,164,*7E
$GPGSV,4,3,16,25,76,325,32,28,09,277,,29,20,359,27,36,52,277,*78
$GPGSV,4,4,16,40,86,351,36,41,58,082,39,49,32,274,,50,10,089,*76
$GLGSV,3,1,09,65,08,047,14,66,40,087,30,67,39,164,31,68,04,200,*69
$GLGSV,3,2,09,77,23,165,,78,66,235,16,79,33,313,20,81,08,345,*6C
$GLGSV,3,3,09,82,04,302,*53
$GNGLL,0419.88472,S,05539.91663,E,064140.00,A,A*61
$GNGRS,064140.00,1,-5.8,1.6,-1.6,7.6,-0.6,1.4,34.9,,,,,*65
$GNGRS,064140.00,1,-3.5,0.0,-2.7,-3.3,,,,,,,,*79
$GNGST,064140.00,1236,,,,4.5,5.4,11*66
$GNZDA,064140.00,02,06,2025,00,00*7E
$GNGBS,064140.00,4.5,5.4,11.0,,,,*68
$GNTXT,01,01,01,More than 100 frame errors, UART RX was disabled*70
b0@b 

"A9[+tY5=9 LEg{4$V_':R 
Y|A/B(WC 'D
MNBO!9YQYR.8bb6->*$GNRMC,064141.00,A,0419.88464,S,05539.91662,E,0.021,,020625,,,A*7F
$GNVTG,,T,,M,0.021,N,0.039,K,A*34
$GNGNS,064141.00,0419.88464,S,05539.91662,E,AA,11,1.13,25.9,-47.6,,*6C
$GNGGA,064141.00,0419.88464,S,05539.91662,E,1,11,1.13,25.9,M,-47.6,M,,*46
$GNGSA,A,3,05,12,15,23,25,29,40,,,,,,2.18,1.13,1.86*10
$GNGSA,A,3,78,66,67,79,,,,,,,,,2.18,1.13,1.86*1B
$GPGSV,4,1,16,05,24,029,32,10,19,215,10,12,65,133,34,13,12,091,31*71
$GPGSV,4,2,16,15,43,116,26,18,28,309,19,23,61,226,26,24,25,164,*7E
$GPGSV,4,3,16,25,76,325,32,28,09,277,,29,20,359,27,36,52,277,*78
$GPGSV,4,4,16,40,86,351,36,41,58,082,39,49,32,274,,50,10,089,*76
$GLGSV,3,1,09,65,08,047,15,66,40,087,29,67,39,164,32,68,04,200,*63
$GLGSV,3,2,09,77,23,165,,78,66,235,14,79,33,313,20,81,08,345,*6E
$GLGSV,3,3,09,82,04,302,*53
$GNGLL,0419.88464,S,05539.91662,E,064141.00,A,A*66
$GNGRS,064141.00,1,-2.7,0.6,-1.7,8.2,-0.2,-0.8,34.9,,,,,*43
$GNGRS,064141.00,1,-2.7,2.4,-5.8,-4.2,,,,,,,,*73
$GNGST,064141.00,1236,,,,4.4,5.3,11*61
$GNZDA,064141.00,02,06,2025,00,00*7F
$GNGBS,064141.00,4.4,5.3,10.8,,,,*66
$GNTXT,01,01,01,More than 100 frame errors, UART RX was disabled*70
b0@f!

A[+t5=-LEg'{4#V_&:R 
Y|A/B(WC'/D
MNBO!9QYR.3Kbf6BX$GNRMC,064142.00,A,0419.88461,S,05539.91660,E,0.085,,020625,,,A*75
$GNVTG,,T,,M,0.085,N,0.157,K,A*33
$GNGNS,064142.00,0419.88461,S,05539.91660,E,AA,11,1.13,26.0,-47.6,,*62
$GNGGA,064142.00,0419.88461,S,05539.91660,E,1,11,1.13,26.0,M,-47.6,M,,*48
$GNGSA,A,3,05,12,15,23,25,29,40,,,,,,2.18,1.13,1.86*10
$GNGSA,A,3,78,66,67,79,,,,,,,,,2.18,1.13,1.86*1B
$GPGSV,4,1,16,05,24,029,33,10,19,215,10,12,65,133,31,13,12,091,30*74
$GPGSV,4,2,16,15,43,116,27,18,28,309,19,23,61,226,27,24,25,164,*7E
$GPGSV,4,3,16,25,76,325,31,28,09,277,,29,20,359,27,36,52,277,*7B
$GPGSV,4,4,16,40,86,351,35,41,58,082,38,49,32,274,,50,10,089,*74
$GLGSV,3,1,09,65,08,047,16,66,40,087,28,67,39,164,29,68,04,200,*6B
$GLGSV,3,2,09,77,23,165,,78,66,235,14,79,33,313,19,81,08,345,*64
$GLGSV,3,3,09,82,04,302,*53
$GNGLL,0419.88461,S,05539.91660,E,064142.00,A,A*62
$GNGRS,064142.00,1,1.4,1.6,-1.0,8.1,-0.3,0.4,34.9,,,,,*48
$GNGRS,064142.00,1,-1.2,4.7,-4.6,-3.1,,,,,,,,*78
$GNGST,064142.00,1236,,,,4.4,5.3,11*62
$GNZDA,064142.00,02,06,2025,00,00*7C
$GNGBS,064142.00,4.4,5.3,10.8,,,,*65
$GNTXT,01,01,01,More than 100 frame errors, UART RX was disabled*70
b0@j!
 A[+sx5=LEg{4$V_&:R 
Y|A/B(WAC'CD
MNBO!9TQYR.bj6E/$GNRMC,064143.00,A,0419.88464,S,05539.91658,E,0.061,,020625,,,A*70
$GNVTG,,T,,M,0.061,N,0.113,K,A*39
$GNGNS,064143.00,0419.88464,S,05539.91658,E,AA,11,1.13,25.9,-47.6,,*67
$GNGGA,064143.00,0419.88464,S,05539.91658,E,1,11,1.13,25.9,M,-47.6,M,,*4D
$GNGSA,A,3,05,12,15,23,25,29,40,,,,,,2.18,1.13,1.87*11
$GNGSA,A,3,78,66,67,79,,,,,,,,,2.18,1.13,1.87*1A
$GPGSV,4,1,16,05,24,029,33,10,19,215,09,12,65,133,32,13,12,091,30*7F
$GPGSV,4,2,16,15,43,115,25,18,28,309,19,23,61,226,26,24,25,164,*7E
$GPGSV,4,3,16,25,76,325,30,28,09,277,,29,20,359,26,36,52,277,*7B
$GPGSV,4,4,16,40,86,351,36,41,58,082,38,49,32,274,,50,10,089,*77
$GLGSV,3,1,09,65,08,047,17,66,40,087,28,67,39,164,30,68,04,200,*62
$GLGSV,3,2,09,77,23,165,,78,66,235,17,79,33,313,20,81,08,345,*6D
$GLGSV,3,3,09,82,04,302,*53
$GNGLL,0419.88464,S,05539.91658,E,064143.00,A,A*6D
$GNGRS,064143.00,1,-1.1,1.9,-1.4,7.1,-0.7,0.2,35.0,,,,,*6F
$GNGRS,064143.00,1,0.0,3.2,0.7,-4.3,,,,,,,,*78
$GNGST,064143.00,1236,,,,4.3,5.3,11*64
$GNZDA,064143.00,02,06,2025,00,00*7D
$GNGBS,064143.00,4.3,5.3,10.7,,,,*6C
$GNTXT,01,01,01,More than 100 frame errors, UART RX was disabled*70
b0@n"
 A[+sn5=LEg-{4$V_&:R 
Y|A/B(WC'D
MNBoO!9QYR.gbn6I_$GNRMC,064144.00,A,0419.88469,S,05539.91654,E,0.056,,020625,,,A*72
$GNVTG,,T,,M,0.056,N,0.104,K,A*3B
$GNGNS,064144.00,0419.88469,S,05539.91654,E,AA,11,1.13,25.6,-47.6,,*6E
$GNGGA,064144.00,0419.88469,S,05539.91654,E,1,11,1.13,25.6,M,-47.6,M,,*44
$GNGSA,A,3,05,12,15,23,25,29,40,,,,,,2.18,1.13,1.87*11
$GNGSA,A,3,78,66,67,79,,,,,,,,,2.18,1.13,1.87*1A
$GPGSV,4,1,16,05,24,029,34,10,19,215,12,12,65,133,32,13,12,091,28*7B
$GPGSV,4,2,16,15,43,115,26,18,28,309,18,23,61,226,24,24,25,164,20*7C
$GPGSV,4,3,16,25,76,325,30,28,09,277,,29,20,359,24,36,52,277,*79
$GPGSV,4,4,16,40,86,351,36,41,58,082,38,49,32,274,,50,10,089,*77
$GLGSV,3,1,09,65,08,047,18,66,40,087,14,67,39,164,30,68,04,200,*62
$GLGSV,3,2,09,77,23,165,,78,66,235,19,79,33,313,20,81,08,345,*63
$GLGSV,3,3,09,82,04,302,*53
$GNGLL,0419.88469,S,05539.91654,E,064144.00,A,A*6B
$GNGRS,064144.00,1,-2.4,-2.3,-1.5,9.0,-2.6,3.0,35.1,,,,,*47
$GNGRS,064144.00,1,1.1,5.3,-0.2,-3.8,,,,,,,,*5C
$GNGST,064144.00,1236,,,,4.3,5.3,11*63
$GNZDA,064144.00,02,06,2025,00,00*7A
$GNGBS,064144.00,4.3,5.3,10.7,,,,*6B
$GNTXT,01,01,01,More than 100 frame errors, UART RX was disabled*70
b0@xr P
 A[+s5=LEg{4"V_%:R 
Y|A/B(WC'D
MNBO!9QYR.iHbxr6M$GNRMC,064145.00,A,0419.88472,S,05539.91649,E,0.035,,020625,,,A*70
$GNVTG,,T,,M,0.035,N,0.065,K,A*38
$GNGNS,064145.00,0419.88472,S,05539.91649,E,AA,11,1.13,25.7,-47.6,,*68
$GNGGA,064145.00,0419.88472,S,05539.91649,E,1,11,1.13,25.7,M,-47.6,M,,*42
$GNGSA,A,3,05,12,15,23,25,29,40,,,,,,2.18,1.13,1.87*11
$GNGSA,A,3,78,66,67,79,,,,,,,,,2.18,1.13,1.87*1A
$GPGSV,4,1,16,05,24,029,32,10,19,215,11,12,65,133,32,13,12,091,28*7E
$GPGSV,4,2,16,15,43,115,26,18,28,309,18,23,61,226,25,24,25,164,18*76
$GPGSV,4,3,16,25,76,325,30,28,09,277,,29,20,359,23,36,52,277,*7E
$GPGSV,4,4,16,40,86,351,34,41,58,082,37,49,32,274,,50,10,089,*7A
$GLGSV,3,1,09,65,08,047,18,66,40,087,17,67,39,164,30,68,04,200,*61
$GLGSV,3,2,09,77,23,165,,78,66,235,18,79,33,313,17,81,08,345,*66
$GLGSV,3,3,09,82,04,302,*53
$GNGLL,0419.88472,S,05539.91649,E,064145.00,A,A*6C
$GNGRS,064145.00,1,-6.9,0.3,-0.7,8.0,1.6,4.7,35.3,,,,,*4E
$GNGRS,064145.00,1,1.3,4.3,-0.4,-3.0,,,,,,,,*50
$GNGST,064145.00,1236,,,,4.3,5.4,11*65
$GNZDA,064145.00,02,06,2025,00,00*7B
$GNGBS,064145.00,4.3,5.4,10.7,,,,*6D
$GNTXT,01,01,01,More than 100 frame errors, UART RX was disabled*70
b0@`v
A[+s6=2LE9g{4 V_&:R 
Y|A/B(WC'D
MNBO!9QYR.b`v6Q/$GNRMC,064146.00,A,0419.88473,S,05539.91659,E,0.326,,020625,,,A*72
$GNVTG,,T,,M,0.326,N,0.604,K,A*38
$GNGNS,064146.00,0419.88473,S,05539.91659,E,AA,11,1.13,25.9,-47.6,,*65
$GNGGA,064146.00,0419.88473,S,05539.91659,E,1,11,1.13,25.9,M,-47.6,M,,*4F
$GNGSA,A,3,05,12,15,23,25,29,40,,,,,,2.18,1.13,1.87*11
$GNGSA,A,3,78,66,67,79,,,,,,,,,2.18,1.13,1.87*1A
$GPGSV,4,1,16,05,24,029,31,10,19,215,,12,65,133,31,13,12,091,30*77
$GPGSV,4,2,16,15,43,115,26,18,27,310,17,23,61,226,25,24,25,164,16*70
$GPGSV,4,3,16,25,76,325,31,28,09,277,,29,20,359,23,36,52,277,*7F
$GPGSV,4,4,16,40,86,351,32,41,58,082,38,49,32,274,,50,10,089,*73
$GLGSV,3,1,09,65,08,047,19,66,40,087,23,67,39,164,31,68,04,200,*66
$GLGSV,3,2,09,77,23,165,,78,66,235,19,79,33,313,14,81,08,345,*64
$GLGSV,3,3,09,82,04,302,*53
$GNGLL,0419.88473,S,05539.91659,E,064146.00,A,A*6F
$GNGRS,064146.00,1,-3.4,4.9,-1.2,8.2,-4.5,4.7,35.7,,,,,*62
$GNGRS,064146.00,1,2.3,2.5,-2.6,-6.1,,,,,,,,*54
$GNGST,064146.00,1236,,,,4.2,5.4,11*67
$GNZDA,064146.00,02,06,2025,00,00*78
$GNGBS,064146.00,4.2,5.4,10.6,,,,*6E
$GNTXT,01,01,01,More than 100 frame errors, UART RX was disabled*70
b0@Hz 
 A[+sZ6= LE#g{4$V_&:R 
Y|A/B(WiC'D
MNBvO!9QYR.NIbHz6U$GNRMC,064147.00,A,0419.88475,S,05539.91670,E,0.169,,020625,,,A*77
$GNVTG,,T,,M,0.169,N,0.312,K,A*33
$GNGNS,064147.00,0419.88475,S,05539.91670,E,AA,11,1.13,26.1,-47.6,,*62
$GNGGA,064147.00,0419.88475,S,05539.91670,E,1,11,1.13,26.1,M,-47.6,M,,*48
$GNGSA,A,3,05,12,15,23,25,29,40,,,,,,2.18,1.13,1.87*11
$GNGSA,A,3,78,66,67,79,,,,,,,,,2.18,1.13,1.87*1A
$GPGSV,4,1,16,05,24,029,32,10,19,215,,12,65,133,32,13,12,091,31*76
$GPGSV,4,2,16,15,43,115,26,18,27,310,16,23,61,226,27,24,25,164,14*71
$GPGSV,4,3,16,25,76,325,32,28,09,277,,29,20,359,23,36,52,277,*7C
$GPGSV,4,4,16,40,86,351,36,41,58,082,38,49,32,274,,50,10,089,*77
$GLGSV,3,1,09,65,08,047,18,66,40,087,24,67,39,164,30,68,04,200,*61
$GLGSV,3,2,09,77,23,165,,78,66,235,19,79,33,313,17,81,08,345,*67
$GLGSV,3,3,09,82,04,302,*53
$GNGLL,0419.88475,S,05539.91670,E,064147.00,A,A*63
$GNGRS,064147.00,1,-3.8,4.1,-1.7,6.9,-4.8,5.3,35.9,,,,,*61
$GNGRS,064147.00,1,1.2,3.6,-5.9,-6.4,,,,,,,,*58
$GNGST,064147.00,1236,,,,4.2,5.5,11*67
$GNZDA,064147.00,02,06,2025,00,00*79
$GNGBS,064147.00,4.2,5.5,10.6,,,,*6E
$GNTXT,01,01,01,More than 100 frame errors, UART RX was disabled*70
b0@0~ 
A[+s6=C LEg{4$V_':R 
Y|A/B(W8C'iD
MNBO!9QYR.b0~6Yg$GNRMC,064148.00,A,0419.88469,S,05539.91681,E,0.083,,020625,,,A*7E
$GNVTG,,T,,M,0.083,N,0.154,K,A*36
$GNGNS,064148.00,0419.88469,S,05539.91681,E,AA,11,1.13,26.5,-47.6,,*6A
$GNGGA,064148.00,0419.88469,S,05539.91681,E,1,11,1.13,26.5,M,-47.6,M,,*40
$GNGSA,A,3,05,12,15,23,25,29,40,,,,,,2.18,1.13,1.87*11
$GNGSA,A,3,78,66,67,79,,,,,,,,,2.18,1.13,1.87*1A
$GPGSV,4,1,16,05,24,029,32,10,19,215,,12,65,133,31,13,12,091,30*74
$GPGSV,4,2,16,15,43,115,26,18,27,310,,23,61,226,26,24,25,164,12*71
$GPGSV,4,3,16,25,76,325,32,28,09,277,,29,20,359,22,36,52,277,*7D
$GPGSV,4,4,16,40,86,351,36,41,58,082,39,49,32,274,,50,10,089,*76
$GLGSV,3,1,09,65,08,047,18,66,40,087,26,67,39,164,29,68,04,200,*6B
$GLGSV,3,2,09,77,23,165,,78,66,235,18,79,33,313,21,81,08,345,*63
$GLGSV,3,3,09,82,04,302,*53
$GNGLL,0419.88469,S,05539.91681,E,064148.00,A,A*6F
$GNGRS,064148.00,1,-0.9,2.3,-0.8,5.8,-2.5,4.3,36.0,,,,,*64
$GNGRS,064148.00,1,1.7,3.1,-9.2,-6.2,,,,,,,,*54
$GNGST,064148.00,1236,,,,4.2,5.5,11*68
$GNZDA,064148.00,02,06,2025,00,00*76
$GNGBS,064148.00,4.2,5.5,10.6,,,,*61
$GNTXT,01,01,01,More than 100 frame errors, UART RX was disabled*70
b0@ .
A[[+s6=!LEg{4#V_':R 
Y|A/B(WC'UD
MNBO!9QYR.Ab6m]?g$GNRMC,064149.00,A,0419.88473,S,05539.91685,E,0.045,,020625,,,A*7A
$GNVTG,,T,,M,0.045,N,0.083,K,A*37
$GNGNS,064149.00,0419.88473,S,05539.91685,E,AA,11,1.13,26.4,-47.6,,*65
$GNGGA,064149.00,0419.88473,S,05539.91685,E,1,11,1.13,26.4,M,-47.6,M,,*4F
$GNGSA,A,3,05,12,15,23,25,29,40,,,,,,2.18,1.13,1.87*11
$GNGSA,A,3,78,66,67,79,,,,,,,,,2.18,1.13,1.87*1A
$GPGSV,4,1,16,05,24,029,32,10,19,215,,12,65,133,31,13,12,091,30*74
$GPGSV,4,2,16,15,43,115,28,18,27,310,17,23,61,226,27,24,25,164,13*79
$GPGSV,4,3,16,25,76,325,33,28,09,277,,29,20,359,23,36,52,277,*7D
$GPGSV,4,4,16,40,86,351,35,41,58,082,39,49,32,274,,50,10,089,*75
$GLGSV,3,1,09,65,08,047,17,66,40,087,28,67,39,164,28,68,04,200,*6B
$GLGSV,3,2,09,77,23,165,,78,66,235,17,79,33,313,21,81,08,345,*6C
$GLGSV,3,3,09,82,04,302,*53
$GNGLL,0419.88473,S,05539.91685,E,064149.00,A,A*61
$GNGRS,064149.00,1,-2.1,3.5,2.8,9.3,-5.5,4.9,35.9,,,,,*47
$GNGRS,064149.00,1,0.2,2.5,-6.8,-5.6,,,,,,,,*56
$GNGST,064149.00,1236,,,,4.2,5.5,11*69
$GNZDA,064149.00,02,06,2025,00,00*77
$GNGBS,064149.00,4.2,5.5,10.5,,,,*63
$GNTXT,01,01,01,More than 100 frame errors, UART RX was disabled*70
b0@
AV[+s6=!LEg{4"V_':R 
Y|A/B(W4C'1D
MNBO!9dQYR.b6Ua$GNRMC,064150.00,A,0419.88469,S,05539.91679,E,0.101,,020625,,,A*7B
$GNVTG,,T,,M,0.101,N,0.186,K,A*32
$GNGNS,064150.00,0419.88469,S,05539.91679,E,AA,11,1.13,26.3,-47.6,,*62
$GNGGA,064150.00,0419.88469,S,05539.91679,E,1,11,1.13,26.3,M,-47.6,M,,*48
$GNGSA,A,3,05,12,15,23,25,29,40,,,,,,2.18,1.13,1.87*11
$GNGSA,A,3,78,66,67,79,,,,,,,,,2.18,1.13,1.87*1A
$GPGSV,4,1,16,05,24,029,30,10,19,215,,12,65,133,31,13,12,091,29*7E
$GPGSV,4,2,16,15,43,115,27,18,27,310,17,23,61,226,27,24,25,164,15*70
$GPGSV,4,3,16,25,76,325,33,28,09,277,,29,20,359,22,36,52,277,*7C
$GPGSV,4,4,16,40,86,351,34,41,58,082,39,49,32,274,,50,10,089,*74
$GLGSV,3,1,09,65,08,047,18,66,40,087,29,67,39,164,28,68,04,200,*65
$GLGSV,3,2,09,77,23,165,,78,66,235,17,79,33,313,21,81,08,345,*6C
$GLGSV,3,3,09,82,04,302,*53
$GNGLL,0419.88469,S,05539.91679,E,064150.00,A,A*61
$GNGRS,064150.00,1,-0.6,0.9,2.2,9.0,-0.1,5.4,36.1,,,,,*4A
$GNGRS,064150.00,1,0.0,0.5,-7.2,-4.1,,,,,,,,*53
$GNGST,064150.00,1236,,,,4.2,5.4,11*60
$GNZDA,064150.00,02,06,2025,00,00*7F
$GNGBS,064150.00,4.2,5.4,10.5,,,,*6A
$GNTXT,01,01,01,More than 100 frame errors, UART RX was disabled*70
b0@
AY[+s6=!LEFgE{4"V_&:R 
Y|A/B(WC'D
MNBGO!9QYR.:|b6=e($GNRMC,064151.00,A,0419.88469,S,05539.91674,E,0.042,,020625,,,A*71
$GNVTG,,T,,M,0.042,N,0.077,K,A*3B
$GNGNS,064151.00,0419.88469,S,05539.91674,E,AA,11,1.13,26.2,-47.6,,*6F
$GNGGA,064151.00,0419.88469,S,05539.91674,E,1,11,1.13,26.2,M,-47.6,M,,*45
$GNGSA,A,3,05,12,15,23,25,29,40,,,,,,2.18,1.13,1.87*11
$GNGSA,A,3,78,66,67,79,,,,,,,,,2.18,1.13,1.87*1A
$GPGSV,4,1,16,05,24,029,30,10,19,215,,12,65,133,31,13,12,091,30*76
$GPGSV,4,2,16,15,43,115,27,18,27,310,16,23,61,226,27,24,25,163,17*74
$GPGSV,4,3,16,25,76,325,33,28,09,277,,29,20,359,23,36,52,277,*7D
$GPGSV,4,4,16,40,86,351,34,41,58,082,38,49,32,274,,50,10,089,*75
$GLGSV,3,1,09,65,08,047,17,66,40,087,28,67,39,164,28,68,04,200,*6B
$GLGSV,3,2,09,77,23,165,,78,66,235,16,79,33,313,20,81,08,345,*6C
$GLGSV,3,3,09,82,04,302,*53
$GNGLL,0419.88469,S,05539.91674,E,064151.00,A,A*6D
$GNGRS,064151.00,1,-1.0,0.9,1.8,9.3,-1.9,5.8,35.9,,,,,*48
$GNGRS,064151.00,1,0.7,-0.3,-6.3,-2.3,,,,,,,,*7A
$GNGST,064151.00,1236,,,,4.1,5.4,10*63
$GNZDA,064151.00,02,06,2025,00,00*7E
$GNGBS,064151.00,4.1,5.4,10.5,,,,*68
$GNTXT,01,01,01,More than 100 frame errors, UART RX was disabled*70
b0@ 
A[+s6=!MDg{4#V_':R 
Y|A/B(WDC'D
MNBO!9QYR.b6%i$GNRMC,064152.00,A,0419.88476,S,05539.91666,E,0.075,,020625,,,A*7B
$GNVTG,,T,,M,0.075,N,0.138,K,A*35
$GNGNS,064152.00,0419.88476,S,05539.91666,E,AA,11,1.13,25.8,-47.6,,*68
$GNGGA,064152.00,0419.88476,S,05539.91666,E,1,11,1.13,25.8,M,-47.6,M,,*42
$GNGSA,A,3,05,12,15,23,25,29,40,,,,,,2.18,1.13,1.87*11
$GNGSA,A,3,78,66,67,79,,,,,,,,,2.18,1.13,1.87*1A
$GPGSV,4,1,16,05,24,029,32,10,19,215,,12,65,133,31,13,12,091,29*7C
$GPGSV,4,2,16,15,43,115,27,18,27,310,18,23,61,226,27,24,25,163,20*7E
$GPGSV,4,3,16,25,77,324,33,28,09,277,,29,20,359,23,36,52,277,*7D
$GPGSV,4,4,16,40,86,351,35,41,58,082,39,49,32,274,,50,10,089,*75
$GLGSV,3,1,09,65,08,047,16,66,40,087,26,67,39,164,29,68,04,200,*65
$GLGSV,3,2,09,77,23,165,,78,66,235,14,79,33,313,19,81,08,345,*64
$GLGSV,3,3,09,82,04,302,*53
$GNGLL,0419.88476,S,05539.91666,E,064152.00,A,A*63
$GNGRS,064152.00,1,-2.8,-0.2,2.5,7.9,-3.3,5.3,35.9,,,,,*6F
$GNGRS,064152.00,1,1.9,-1.9,-0.1,-0.6,,,,,,,,*7E
$GNGST,064152.00,1236,,,,4.1,5.4,10*60
$GNZDA,064152.00,02,06,2025,00,00*7D
$GNGBS,064152.00,4.1,5.4,10.5,,,,*6B
$GNTXT,01,01,01,More than 100 frame errors, UART RX was disabled*70
b0@ T
A6[+s6= MDgs{4$V_':R 
Y|A/B(WC'D
MNBO!9(QYR.gb6m$GNRMC,064153.00,A,0419.88482,S,05539.91664,E,0.155,,020625,,,A*70
$GNVTG,,T,,M,0.155,N,0.288,K,A*3E
$GNGNS,064153.00,0419.88482,S,05539.91664,E,AA,11,1.13,25.7,-47.6,,*6F
$GNGGA,064153.00,0419.88482,S,05539.91664,E,1,11,1.13,25.7,M,-47.6,M,,*45
$GNGSA,A,3,05,12,15,23,25,29,40,,,,,,2.19,1.13,1.87*10
$GNGSA,A,3,78,66,67,79,,,,,,,,,2.19,1.13,1.87*1B
$GPGSV,4,1,16,05,24,029,32,10,19,215,,12,65,133,30,13,12,091,29*7D
$GPGSV,4,2,16,15,43,115,26,18,27,310,18,23,61,226,27,24,25,163,20*7F
$GPGSV,4,3,16,25,77,324,32,28,09,277,,29,20,359,24,36,52,277,*7B
$GPGSV,4,4,16,40,86,351,36,41,58,082,39,49,32,274,,50,10,089,*76
$GLGSV,3,1,09,65,08,047,18,66,40,087,25,67,39,164,23,68,04,200,*62
$GLGSV,3,2,09,77,23,165,,78,66,235,12,79,33,313,19,81,08,345,*62
$GLGSV,3,3,09,82,04,302,*53
$GNGLL,0419.88482,S,05539.91664,E,064153.00,A,A*6B
$GNGRS,064153.00,1,-4.3,0.5,3.9,7.9,-3.7,6.3,36.0,,,,,*49
$GNGRS,064153.00,1,1.4,-0.8,-5.5,0.4,,,,,,,,*5C
$GNGST,064153.00,1237,,,,4.1,5.4,11*61
$GNZDA,064153.00,02,06,2025,00,00*7C
$GNGBS,064153.00,4.1,5.4,10.5,,,,*6A
$GNTXT,01,01,01,More than 100 frame errors, UART RX was disabled*70
b0@ 
A[+s6=*!MDg{4$V_(:R 
Y|A/B(WXC'D
MNBO!9sQYR.&b6pws$GNRMC,064154.00,A,0419.88483,S,05539.91664,E,0.130,,020625,,,D*70
$GNVTG,,T,,M,0.130,N,0.241,K,D*3D
$GNGNS,064154.00,0419.88483,S,05539.91664,E,DA,11,1.13,25.7,-47.6,,0000*6C
$GNGGA,064154.00,0419.88483,S,05539.91664,E,2,11,1.13,25.7,M,-47.6,M,,0000*40
$GNGSA,A,3,05,12,15,23,25,29,40,,,,,,2.19,1.13,1.87*10
$GNGSA,A,3,78,66,67,79,,,,,,,,,2.19,1.13,1.87*1B
$GPGSV,4,1,16,05,24,029,32,10,19,215,07,12,65,133,31,13,12,091,27*75
$GPGSV,4,2,16,15,43,115,26,18,27,310,18,23,61,226,27,24,25,163,20*7F
$GPGSV,4,3,16,25,77,324,33,28,09,277,,29,20,359,25,36,52,277,*7B
$GPGSV,4,4,16,40,86,351,36,41,58,082,40,49,32,274,,50,10,089,*78
$GLGSV,3,1,09,65,08,047,18,66,40,087,22,67,39,164,30,68,04,200,*67
$GLGSV,3,2,09,77,23,165,,78,66,235,12,79,33,313,20,81,08,345,*68
$GLGSV,3,3,09,82,04,302,*53
$GNGLL,0419.88483,S,05539.91664,E,064154.00,A,D*68
$GNGRS,064154.00,1,-2.9,1.3,6.7,9.0,-1.0,9.7,35.1,,,,,*45
$GNGRS,064154.00,1,2.2,0.9,1.9,1.2,,,,,,,,*50
$GNGST,064154.00,90399,,,,4.6,5.9,11*51
$GNZDA,064154.00,02,06,2025,00,00*7B
$GNGBS,064154.00,4.6,5.9,10.7,,,,*65
$GNTXT,01,01,01,More than 100 frame errors, UART RX was disabled*70
b0@ 
A[+s6=H+ MDg{4%V_(:R 
Y|A/B(WSC!'DD
MNBO!9:QYR.b6tO$GNRMC,064155.00,A,0419.88488,S,05539.91652,E,0.185,,020625,,,D*71
$GNVTG,,T,,M,0.185,N,0.343,K,D*30
$GNGNS,064155.00,0419.88488,S,05539.91652,E,DA,11,1.13,25.4,-47.6,,0000*60
$GNGGA,064155.00,0419.88488,S,05539.91652,E,2,11,1.13,25.4,M,-47.6,M,,0000*4C
$GNGSA,A,3,05,12,15,23,25,29,40,,,,,,2.19,1.13,1.87*10
$GNGSA,A,3,78,66,67,79,,,,,,,,,2.19,1.13,1.87*1B
$GPGSV,4,1,16,05,24,029,32,10,19,215,08,12,65,133,30,13,12,091,28*74
$GPGSV,4,2,16,15,43,115,24,18,27,310,,23,61,226,26,24,25,163,21*74
$GPGSV,4,3,16,25,77,324,32,28,09,277,,29,20,359,25,36,52,277,*7A
$GPGSV,4,4,16,40,86,351,37,41,58,082,40,49,32,274,,50,10,089,*79
$GLGSV,3,1,09,65,08,047,19,66,40,087,21,67,39,164,33,68,04,200,*66
$GLGSV,3,2,09,77,23,165,,78,66,235,12,79,33,313,20,81,08,345,*68
$GLGSV,3,3,09,82,04,302,*53
$GNGLL,0419.88488,S,05539.91652,E,064155.00,A,D*67
$GNGRS,064155.00,1,-2.7,2.6,6.9,5.3,-1.0,6.9,34.8,,,,,*44
$GNGRS,064155.00,1,1.9,0.8,0.7,0.6,,,,,,,,*52
$GNGST,064155.00,90399,,,,4.6,5.9,11*50
$GNZDA,064155.00,02,06,2025,00,00*7A
$GNGBS,064155.00,4.6,5.9,10.7,,,,*64
$GNTXT,01,01,01,More than 100 frame errors, UART RX was disabled*70
b0@p!
Ad[+s6=*,!MDh{4%V_(:R 
Y|A/B(WC!'D
MNBO!9QYR.bp6x'C$GNRMC,064156.00,A,0419.88492,S,05539.91647,E,0.028,,020625,,,D*7B
$GNVTG,,T,,M,0.028,N,0.053,K,D*34
$GNGNS,064156.00,0419.88492,S,05539.91647,E,DA,11,1.13,25.2,-47.6,,0000*6A
$GNGGA,064156.00,0419.88492,S,05539.91647,E,2,11,1.13,25.2,M,-47.6,M,,0000*46
$GNGSA,A,3,05,12,15,23,25,29,40,,,,,,2.19,1.13,1.87*10
$GNGSA,A,3,78,66,67,79,,,,,,,,,2.19,1.13,1.87*1B
$GPGSV,4,1,16,05,24,029,33,10,19,215,13,12,65,133,30,13,12,091,28*7F
$GPGSV,4,2,16,15,43,115,23,18,27,310,,23,61,226,25,24,25,163,23*72
$GPGSV,4,3,16,25,77,324,33,28,09,277,,29,21,360,25,36,52,277,*70
$GPGSV,4,4,16,40,86,351,37,41,58,082,40,49,32,274,,50,10,089,*79
$GLGSV,3,1,09,65,08,047,17,66,40,087,21,67,39,164,33,68,04,200,*68
$GLGSV,3,2,09,77,23,165,,78,66,235,08,79,33,313,20,81,08,345,*63
$GLGSV,3,3,09,82,04,302,*53
$GNGLL,0419.88492,S,05539.91647,E,064156.00,A,D*6B
$GNGRS,064156.00,1,-2.7,1.0,10.3,5.5,-0.9,7.2,34.7,,,,,*74
$GNGRS,064156.00,1,-11.3,2.3,0.1,1.3,,,,,,,,*4C
$GNGST,064156.00,1237,,,,4.5,6.0,11*67
$GNZDA,064156.00,02,06,2025,00,00*79
$GNGBS,064156.00,4.5,6.0,10.6,,,,*6F
$GNTXT,01,01,01,More than 100 frame errors, UART RX was disabled*70
b0@X 
A[+s6=g, MDfh{4%V_':R 
Y|A/B(WC'D
MNBO!9#QYR.bX6|$GNRMC,064157.00,A,0419.88499,S,05539.91636,E,0.258,,020625,,,D*72
$GNVTG,,T,,M,0.258,N,0.478,K,D*3C
$GNGNS,064157.00,0419.88499,S,05539.91636,E,DA,11,1.13,24.9,-47.6,,0000*6C
$GNGGA,064157.00,0419.88499,S,05539.91636,E,2,11,1.13,24.9,M,-47.6,M,,0000*40
$GNGSA,A,3,05,12,15,23,25,29,40,,,,,,2.19,1.13,1.87*10
$GNGSA,A,3,78,66,67,79,,,,,,,,,2.19,1.13,1.87*1B
$GPGSV,4,1,16,05,24,029,32,10,19,215,12,12,65,133,29,13,12,091,28*77
$GPGSV,4,2,16,15,43,115,21,18,27,310,,23,61,226,26,24,25,163,21*71
$GPGSV,4,3,16,25,77,324,32,28,09,277,,29,21,360,25,36,52,277,*71
$GPGSV,4,4,16,40,86,351,37,41,58,082,39,49,32,274,,50,10,089,*77
$GLGSV,3,1,09,65,08,047,17,66,40,087,21,67,39,164,26,68,04,200,*6C
$GLGSV,3,2,09,77,23,165,,78,66,235,12,79,33,313,21,81,08,345,*69
$GLGSV,3,3,09,82,04,302,*53
$GNGLL,0419.88499,S,05539.91636,E,064157.00,A,D*67
$GNGRS,064157.00,1,-2.6,0.3,11.8,6.1,3.6,7.6,34.7,,,,,*5E
$GNGRS,064157.00,1,-3.2,1.9,2.3,2.9,,,,,,,,*7F
$GNGST,064157.00,166324,,,,4.5,6.0,11*65
$GNZDA,064157.00,02,06,2025,00,00*78
$GNGBS,064157.00,4.5,6.0,10.7,,,,*6F
$GNTXT,01,01,01,More than 100 frame errors, UART RX was disabled*70
b0@@ t
A[+s6==+MDh{4#V_':R 
Y|A/B(WC'D
MNBO!95QYR.b@6$GNRMC,064158.00,A,0419.88508,S,05539.91622,E,0.231,,020625,,,D*7E
$GNVTG,,T,,M,0.231,N,0.428,K,D*36
$GNGNS,064158.00,0419.88508,S,05539.91622,E,DA,11,1.13,24.5,-47.6,,0000*63
$GNGGA,064158.00,0419.88508,S,05539.91622,E,2,11,1.13,24.5,M,-47.6,M,,0000*4F
$GNGSA,A,3,05,12,15,23,25,29,40,,,,,,2.19,1.13,1.87*10
$GNGSA,A,3,78,66,67,79,,,,,,,,,2.19,1.13,1.87*1B
$GPGSV,4,1,16,05,24,029,32,10,19,215,11,12,65,133,31,13,12,091,30*74
$GPGSV,4,2,16,15,43,115,23,18,27,310,,23,61,226,29,24,25,163,18*76
$GPGSV,4,3,16,25,77,324,31,28,09,277,,29,21,360,25,36,52,277,*72
$GPGSV,4,4,16,40,86,351,35,41,58,082,39,49,32,274,,50,10,089,*75
$GLGSV,3,1,09,65,08,047,16,66,40,087,21,67,39,164,25,68,04,200,*6E
$GLGSV,3,2,09,77,23,165,,78,66,235,08,79,33,313,21,81,08,345,*62
$GLGSV,3,3,09,82,04,302,*53
$GNGLL,0419.88508,S,05539.91622,E,064158.00,A,D*64
$GNGRS,064158.00,1,-1.4,2.2,10.3,7.8,-0.2,7.9,34.7,,,,,*74
$GNGRS,064158.00,1,-3.0,2.5,-1.1,3.1,,,,,,,,*58
$GNGST,064158.00,3586708,,,,4.5,6.0,11*59
$GNZDA,064158.00,02,06,2025,00,00*77
$GNGBS,064158.00,4.5,6.0,10.7,,,,*60
$GNTXT,01,01,01,More than 100 frame errors, UART RX was disabled*70
b0@(I

Az[+s}6=+MDh{4%V_&:R 
Y|A/B(WC'D
MNBOO!9QYR.[fb(6}{$GNRMC,064159.00,A,0419.88518,S,05539.91623,E,0.379,,020625,,,D*72
$GNVTG,,T,,M,0.379,N,0.703,K,D*31
$GNGNS,064159.00,0419.88518,S,05539.91623,E,DA,11,1.16,24.2,-47.6,,0000*60
$GNGGA,064159.00,0419.88518,S,05539.91623,E,2,11,1.16,24.2,M,-47.6,M,,0000*4C
$GNGSA,A,3,05,12,15,23,25,29,40,,,,,,2.21,1.16,1.88*11
$GNGSA,A,3,78,66,67,79,,,,,,,,,2.21,1.16,1.88*1A
$GPGSV,4,1,16,05,24,029,31,10,19,215,10,12,65,133,31,13,12,091,29*7E
$GPGSV,4,2,16,15,43,115,26,18,27,310,,23,61,226,28,24,25,163,18*72
$GPGSV,4,3,16,25,77,324,30,28,09,277,,29,21,360,26,36,52,277,*70
$GPGSV,4,4,16,40,86,351,37,41,58,082,38,49,32,274,,50,10,089,*76
$GLGSV,3,1,09,65,08,047,15,66,40,087,21,67,39,164,22,68,04,200,*6A
$GLGSV,3,2,09,77,23,165,,78,66,235,15,79,33,313,20,81,08,345,*6F
$GLGSV,3,3,09,82,04,302,*53
$GNGLL,0419.88518,S,05539.91623,E,064159.00,A,D*65
$GNGRS,064159.00,1,-1.8,-1.3,8.9,5.1,-1.1,6.9,34.8,,,,,*62
$GNGRS,064159.00,1,-32.5,2.1,1.9,4.5,,,,,,,,*4C
$GNGST,064159.00,1297,,,,4.6,6.0,11*61
$GNZDA,064159.00,02,06,2025,00,00*76
$GNGBS,064159.00,4.6,6.0,10.8,,,,*6D
$GNTXT,01,01,01,More than 100 frame errors, UART RX was disabled*70
b0@A
Ao[+s6=x*MDh{4!V_":R 
Y|A/B(WC'D
MNBO!9QYR.Gb6e$GNRMC,064200.00,A,0419.88532,S,05539.91613,E,0.379,,020625,,,D*76
$GNVTG,,T,,M,0.379,N,0.703,K,D*31
$GNGNS,064200.00,0419.88532,S,05539.91613,E,DA,11,1.13,23.7,-47.6,,0000*63
$GNGGA,064200.00,0419.88532,S,05539.91613,E,2,11,1.13,23.7,M,-47.6,M,,0000*4F
$GNGSA,A,3,05,12,15,23,25,29,40,,,,,,2.19,1.13,1.87*10
$GNGSA,A,3,78,66,67,79,,,,,,,,,2.19,1.13,1.87*1B
$GPGSV,4,1,16,05,24,029,26,10,19,215,,12,65,133,31,13,12,091,27*77
$GPGSV,4,2,16,15,43,115,25,18,27,310,,23,61,226,27,24,25,163,18*7E
$GPGSV,4,3,16,25,77,324,28,28,09,277,,29,21,360,26,36,52,277,*79
$GPGSV,4,4,16,40,86,351,33,41,58,082,34,49,32,274,,50,10,089,*7E
$GLGSV,3,1,09,65,08,047,15,66,40,087,21,67,39,164,21,68,04,200,*69
$GLGSV,3,2,09,77,23,165,,78,66,235,11,79,33,313,19,81,08,345,*61
$GLGSV,3,3,09,82,04,302,*53
$GNGLL,0419.88532,S,05539.91613,E,064200.00,A,D*61
$GNGRS,064200.00,1,-4.5,-1.5,9.1,3.8,-0.9,4.7,34.7,,,,,*6F
$GNGRS,064200.00,1,-3.3,1.4,4.4,4.2,,,,,,,,*7E
$GNGST,064200.00,3586708,,,,4.6,6.0,11*54
$GNZDA,064200.00,02,06,2025,00,00*79
$GNGBS,064200.00,4.6,6.0,10.9,,,,*63
$GNTXT,01,01,01,More than 100 frame errors, UART RX was disabled*70
b0@
A[+s6=+MDh*{4!V_$:R 
Y|A/B(WfC';D
MNBO!9cQYR.b6M^<$GNRMC,064201.00,A,0419.88539,S,05539.91619,E,0.306,,020625,,,D*7E
$GNVTG,,T,,M,0.306,N,0.567,K,D*39
$GNGNS,064201.00,0419.88539,S,05539.91619,E,DA,11,1.13,23.6,-47.6,,0000*62
$GNGGA,064201.00,0419.88539,S,05539.91619,E,2,11,1.13,23.6,M,-47.6,M,,0000*4E
$GNGSA,A,3,05,12,15,23,25,29,40,,,,,,2.19,1.13,1.87*10
$GNGSA,A,3,78,66,67,79,,,,,,,,,2.19,1.13,1.87*1B
$GPGSV,4,1,16,05,24,029,29,10,19,215,,12,65,133,31,13,12,091,26*79
$GPGSV,4,2,16,15,43,115,25,18,27,310,,23,61,226,25,24,25,163,15*71
$GPGSV,4,3,16,25,77,324,27,28,09,277,,29,21,360,26,36,52,277,*76
$GPGSV,4,4,16,40,86,351,33,41,58,082,36,49,32,274,,50,10,089,*7C
$GLGSV,3,1,09,65,08,047,13,66,40,087,22,67,39,164,20,68,04,200,*6D
$GLGSV,3,2,09,77,23,165,,78,66,235,14,79,33,313,17,81,08,345,*6A
$GLGSV,3,3,09,82,04,302,*53
$GNGLL,0419.88539,S,05539.91619,E,064201.00,A,D*61
$GNGRS,064201.00,1,-3.7,0.1,7.9,5.1,0.3,5.5,34.6,,,,,*6F
$GNGRS,064201.00,1,-3.6,3.6,5.7,1.0,,,,,,,,*7F
$GNGST,064201.00,3586708,,,,4.7,6.1,11*55
$GNZDA,064201.00,02,06,2025,00,00*78
$GNGBS,064201.00,4.7,6.1,11.1,,,,*6B
$GNTXT,01,01,01,More than 100 frame errors, UART RX was disabled*70
b0@
Ao[+s6=,MDdh{4!V_x#:R 
Y|A/B(W(C'D
MNBO!9QYR.b656$GNRMC,064202.00,A,0419.88545,S,05539.91608,E,0.494,,020625,,,D*7A
$GNVTG,,T,,M,0.494,N,0.915,K,D*3C
$GNGNS,064202.00,0419.88545,S,05539.91608,E,DA,11,1.13,23.4,-47.6,,0000*68
$GNGGA,064202.00,0419.88545,S,05539.91608,E,2,11,1.13,23.4,M,-47.6,M,,0000*44
$GNGSA,A,3,05,12,15,23,25,29,40,,,,,,2.19,1.13,1.87*10
$GNGSA,A,3,78,66,67,79,,,,,,,,,2.19,1.13,1.87*1B
$GPGSV,4,1,16,05,24,029,29,10,19,215,,12,65,133,31,13,12,091,25*7A
$GPGSV,4,2,16,15,43,115,24,18,27,310,,23,61,226,23,24,25,163,12*71
$GPGSV,4,3,16,25,77,324,25,28,09,277,,29,21,360,25,36,52,277,*77
$GPGSV,4,4,16,40,86,351,33,41,58,082,35,49,32,274,,50,10,089,*7F
$GLGSV,3,1,09,65,08,047,11,66,40,087,22,67,39,164,21,68,04,200,*6E
$GLGSV,3,2,09,77,23,165,,78,66,235,11,79,33,313,16,81,08,345,*6E
$GLGSV,3,3,09,82,04,302,*53
$GNGLL,0419.88545,S,05539.91608,E,064202.00,A,D*69
$GNGRS,064202.00,1,-0.5,-1.5,9.4,1.3,6.1,5.2,34.5,,,,,*40
$GNGRS,064202.00,1,-7.6,3.0,4.5,-1.0,,,,,,,,*50
$GNGST,064202.00,1237,,,,4.8,6.2,11*6A
$GNZDA,064202.00,02,06,2025,00,00*7B
$GNGBS,064202.00,4.8,6.2,11.3,,,,*66
$GNTXT,01,01,01,More than 100 frame errors, UART RX was disabled*70
b0@
Av[+s6=W+MDhU{4 V_ :R 
Y|A/B(WC'D
MNBO!9QYR.b6$GNRMC,064203.00,A,0419.88561,S,05539.91617,E,0.767,,020625,,,D*7C
$GNVTG,,T,,M,0.767,N,1.421,K,D*38
$GNGNS,064203.00,0419.88561,S,05539.91617,E,DA,11,1.13,23.0,-47.6,,0000*65
$GNGGA,064203.00,0419.88561,S,05539.91617,E,2,11,1.13,23.0,M,-47.6,M,,0000*49
$GNGSA,A,3,05,12,15,23,25,29,40,,,,,,2.19,1.13,1.87*10
$GNGSA,A,3,78,66,67,79,,,,,,,,,2.19,1.13,1.87*1B
$GPGSV,4,1,16,05,24,029,29,10,19,215,,12,65,133,30,13,12,091,23*7D
$GPGSV,4,2,16,15,43,115,24,18,27,310,,23,61,226,22,24,25,163,09*7A
$GPGSV,4,3,16,25,77,324,25,28,09,277,,29,21,360,23,36,52,277,*71
$GPGSV,4,4,16,40,86,351,32,41,58,082,32,49,32,274,,50,10,089,*79
$GLGSV,3,1,09,65,08,047,12,66,40,087,20,67,39,164,20,68,04,200,*6E
$GLGSV,3,2,09,77,23,165,,78,66,235,08,79,33,313,17,81,08,345,*67
$GLGSV,3,3,09,82,04,302,*53
$GNGLL,0419.88561,S,05539.91617,E,064203.00,A,D*60
$GNGRS,064203.00,1,-2.9,-3.9,6.4,5.2,4.1,6.0,34.6,,,,,*4B
$GNGRS,064203.00,1,-2.9,4.2,4.2,-1.1,,,,,,,,*58
$GNGST,064203.00,43405,,,,4.9,6.3,11*5A
$GNZDA,064203.00,02,06,2025,00,00*7A
$GNGBS,064203.00,4.9,6.3,11.5,,,,*61
$GNTXT,01,01,01,More than 100 frame errors, UART RX was disabled*70
b0@
!A6[+s*6=?,MD!h]{4"V_%:R 
Y|A
/B(WzC'D
MN
BO!9QYR.b6t$GNRMC,064204.00,A,0419.88561,S,05539.91610,E,0.412,,020625,,,D*7D
$GNVTG,,T,,M,0.412,N,0.764,K,D*3A
$GNGNS,064204.00,0419.88561,S,05539.91610,E,DA,11,1.13,22.8,-47.6,,0000*6C
$GNGGA,064204.00,0419.88561,S,05539.91610,E,2,11,1.13,22.8,M,-47.6,M,,0000*40
$GNGSA,A,3,05,12,15,23,25,29,40,,,,,,2.19,1.13,1.88*1F
$GNGSA,A,3,78,66,67,79,,,,,,,,,2.19,1.13,1.88*14
$GPGSV,4,1,16,05,24,029,29,10,19,215,,12,65,133,33,13,12,091,25*78
$GPGSV,4,2,16,15,43,115,27,18,27,310,,23,61,226,24,24,25,163,11*76
$GPGSV,4,3,16,25,77,324,29,28,09,277,,29,21,360,23,36,52,277,*7D
$GPGSV,4,4,16,40,86,351,34,41,58,082,37,49,32,274,,50,10,089,*7A
$GLGSV,3,1,09,65,08,047,10,66,40,087,19,67,39,164,18,68,04,200,*6D
$GLGSV,3,2,09,77,23,165,,78,66,235,10,79,33,313,16,81,08,345,*6F
$GLGSV,3,3,09,82,04,302,*53
$GNGLL,0419.88561,S,05539.91610,E,064204.00,A,D*60
$GNGRS,064204.00,1,-3.4,0.5,5.5,0.6,2.9,3.5,34.6,,,,,*6F
$GNGRS,064204.00,1,-2.9,3.8,3.9,0.3,,,,,,,,*70
$GNGST,064204.00,65093,,,,5.0,6.4,12*5E
$GNZDA,064204.00,02,06,2025,00,00*7D
$GNGBS,064204.00,5.0,6.4,11.7,,,,*6B
$GNTXT,01,01,01,More than 100 frame errors, UART RX was disabled*70
b0@
!A[?+s6=+MD`ht{4#V_s$:R 
Y|A/B(WIC'D
MNBO!9<QYR.''b6$GNRMC,064205.00,A,0419.88569,S,05539.91610,E,0.174,,020625,,,D*71
$GNVTG,,T,,M,0.174,N,0.323,K,D*38
$GNGNS,064205.00,0419.88569,S,05539.91610,E,DA,11,1.13,22.7,-47.6,,0000*6A
$GNGGA,064205.00,0419.88569,S,05539.91610,E,2,11,1.13,22.7,M,-47.6,M,,0000*46
$GNGSA,A,3,05,12,15,23,25,29,40,,,,,,2.19,1.13,1.88*1F
$GNGSA,A,3,78,66,67,79,,,,,,,,,2.19,1.13,1.88*14
$GPGSV,4,1,16,05,24,029,31,10,19,215,,12,65,133,33,13,12,091,27*73
$GPGSV,4,2,16,15,43,115,28,18,27,310,,23,61,226,26,24,25,163,14*7E
$GPGSV,4,3,16,25,77,324,31,28,09,277,,29,21,360,23,36,52,277,*74
$GPGSV,4,4,16,40,86,351,35,41,58,082,36,49,32,274,,50,10,089,*7A
$GLGSV,3,1,09,65,08,047,11,66,40,087,18,67,39,164,17,68,04,200,*62
$GLGSV,3,2,09,77,23,165,,78,66,235,17,79,33,313,18,81,08,345,*66
$GLGSV,3,3,09,82,04,302,*53
$GNGLL,0419.88569,S,05539.91610,E,064205.00,A,D*69
$GNGRS,064205.00,1,-2.4,5.1,5.4,1.9,1.0,3.7,34.4,,,,,*6B
$GNGRS,064205.00,1,14.5,3.3,2.6,0.6,,,,,,,,*67
$GNGST,064205.00,1237,,,,5.0,6.4,12*61
$GNZDA,064205.00,02,06,2025,00,00*7C
$GNGBS,064205.00,5.0,6.4,11.8,,,,*65
$GNTXT,01,01,01,More than 100 frame errors, UART RX was disabled*70
b0@2
!A[?+s6=+MDhk{4%V_h$:R 
Y|A/B(W&C'D
MNBO!9mQYR."b6A$GNRMC,064206.00,A,0419.88572,S,05539.91608,E,0.072,,020625,,,D*76
$GNVTG,,T,,M,0.072,N,0.133,K,D*3C
$GNGNS,064206.00,0419.88572,S,05539.91608,E,DA,11,1.13,22.6,-47.6,,0000*6B
$GNGGA,064206.00,0419.88572,S,05539.91608,E,2,11,1.13,22.6,M,-47.6,M,,0000*47
$GNGSA,A,3,05,12,15,23,25,29,40,,,,,,2.19,1.13,1.88*1F
$GNGSA,A,3,78,66,67,79,,,,,,,,,2.19,1.13,1.88*14
$GPGSV,4,1,16,05,24,029,31,10,19,215,,12,65,133,33,13,12,091,28*7C
$GPGSV,4,2,16,15,43,115,27,18,27,310,,23,61,226,27,24,25,163,16*72
$GPGSV,4,3,16,25,77,324,31,28,09,277,,29,21,360,25,36,52,277,*72
$GPGSV,4,4,16,40,86,351,37,41,58,082,36,49,32,274,,50,10,089,*78
$GLGSV,3,1,09,65,08,047,12,66,40,087,21,67,39,164,18,68,04,200,*64
$GLGSV,3,2,09,77,23,165,,78,66,235,17,79,33,313,19,81,08,345,*67
$GLGSV,3,3,09,82,04,302,*53
$GNGLL,0419.88572,S,05539.91608,E,064206.00,A,D*69
$GNGRS,064206.00,1,0.5,2.3,5.4,4.2,1.4,3.6,34.3,,,,,*4F
$GNGRS,064206.00,1,-3.3,2.9,1.4,1.1,,,,,,,,*75
$GNGST,064206.00,216942,,,,5.1,6.4,12*6E
$GNZDA,064206.00,02,06,2025,00,00*7F
$GNGBS,064206.00,5.1,6.4,11.8,,,,*67
$GNTXT,01,01,01,More than 100 frame errors, UART RX was disabled*70
b0@h >
A][g?+s6=,MDhu{4$V_a%:R 
Y|A/B(WC'^D
MNBO!9QYR.bh6m$GNRMC,064207.00,A,0419.88574,S,05539.91609,E,0.151,,020625,,,D*70
$GNVTG,,T,,M,0.151,N,0.279,K,D*31
$GNGNS,064207.00,0419.88574,S,05539.91609,E,DA,11,1.13,22.6,-47.6,,0000*6D
$GNGGA,064207.00,0419.88574,S,05539.91609,E,2,11,1.13,22.6,M,-47.6,M,,0000*41
$GNGSA,A,3,05,12,15,23,25,29,40,,,,,,2.19,1.13,1.88*1F
$GNGSA,A,3,78,66,67,79,,,,,,,,,2.19,1.13,1.88*14
$GPGSV,4,1,16,05,24,029,32,10,19,215,,12,65,133,30,13,12,091,27*73
$GPGSV,4,2,16,15,43,115,26,18,27,310,,23,61,226,26,24,25,163,14*70
$GPGSV,4,3,16,25,77,324,31,28,09,277,,29,21,360,27,36,52,277,*70
$GPGSV,4,4,16,40,86,351,36,41,58,082,37,49,32,274,,50,10,089,*78
$GLGSV,3,1,09,65,08,047,13,66,40,087,21,67,39,164,20,68,04,200,*6E
