$GNTXT,01,01,01,More than 100 frame errors, UART RX was disabled*70
b0@ Z
?{X,,p8?$O=
{4V_d:R 
Y|A,AB(RC)D
MNAO"7\Q[R0@b 6u$GNRMC,064730.00,A,0419.87723,S,05539.91472,E,0.339,,020625,,,D*7C
$GNVTG,,T,,M,0.339,N,0.627,K,D*32
$GNGNS,064730.00,0419.87723,S,05539.91472,E,DA,14,0.94,15.4,-47.6,,0000*60
$GNGGA,064730.00,0419.87723,S,05539.91472,E,2,12,0.94,15.4,M,-47.6,M,,0000*4A
$GNGSA,A,3,05,12,15,13,23,24,25,29,40,,,,1.61,0.94,1.31*1B
$GNGSA,A,3,78,66,67,79,65,,,,,,,,1.61,0.94,1.31*17
$GPGSV,4,1,16,05,22,029,19,10,21,216,22,12,63,137,28,13,11,088,26*75
$GPGSV,4,2,16,15,44,112,29,18,27,312,,23,63,230,26,24,24,161,18*77
$GPGSV,4,3,16,25,79,317,26,28,10,274,,29,22,002,19,36,52,277,*7A
$GPGSV,4,4,16,40,86,351,28,41,58,082,28,49,32,274,,50,10,089,*79
$GLGSV,3,1,09,65,06,044,22,66,40,082,28,67,41,162,18,68,07,199,*6F
$GLGSV,3,2,09,77,20,164,,78,65,229,25,79,34,311,14,81,07,347,*6F
$GLGSV,3,3,09,82,04,304,*55
$GNGLL,0419.87723,S,05539.91472,E,064730.00,A,D*6F
$GNGRS,064730.00,1,-6.8,1.2,-0.4,-9.8,0.4,7.6,-0.5,-8.7,24.0,,,*64
$GNGRS,064730.00,1,1.8,0.1,-11.3,3.5,3.2,,,,,,,*69
$GNGST,064730.00,80130,,,,4.2,4.5,7.9*7C
$GNZDA,064730.00,02,06,2025,00,00*7F
$GNGBS,064730.00,4.2,4.5,7.9,,,,*50
$GNTXT,01,01,01,More than 100 frame errors, UART RX was disabled*70
b0@
!?X0&,p8??IO=(
{4 V_#:R 
Y|A,B"(RC)D
MNABO"7Q[R0Ab6]}$GNRMC,064731.00,A,0419.87726,S,05539.91473,E,0.014,,020625,,,D*75
$GNVTG,,T,,M,0.014,N,0.026,K,D*39
$GNGNS,064731.00,0419.87726,S,05539.91473,E,DA,14,1.11,15.2,-47.6,,0000*6F
$GNGGA,064731.00,0419.87726,S,05539.91473,E,2,12,1.11,15.2,M,-47.6,M,,0000*45
$GNGSA,A,3,05,12,15,13,23,24,25,29,40,,,,1.80,1.11,1.42*1C
$GNGSA,A,3,78,66,67,79,65,,,,,,,,1.80,1.11,1.42*10
$GPGSV,4,1,16,05,22,029,29,10,21,216,22,12,63,137,33,13,11,088,12*7B
$GPGSV,4,2,16,15,44,112,38,18,27,312,,23,63,230,23,24,24,161,17*7D
$GPGSV,4,3,16,25,79,317,24,28,10,274,,29,22,002,19,36,52,277,*78
$GPGSV,4,4,16,40,86,351,32,41,58,082,35,49,32,274,,50,10,089,*7E
$GLGSV,3,1,09,65,06,044,23,66,40,082,34,67,41,162,29,68,07,199,*61
$GLGSV,3,2,09,77,20,164,,78,65,229,23,79,34,311,08,81,07,347,*64
$GLGSV,3,3,09,82,04,304,*55
$GNGLL,0419.87726,S,05539.91473,E,064731.00,A,D*6A
$GNGRS,064731.00,1,-0.7,2.6,-0.4,-4.6,3.2,11.0,0.4,-10.3,22.5,,,*4E
$GNGRS,064731.00,1,0.7,2.5,-11.2,-24.3,1.7,,,,,,,*78
$GNGST,064731.00,1138,,,,4.2,4.6,8.0*49
$GNZDA,064731.00,02,06,2025,00,00*7E
$GNGBS,064731.00,4.2,4.6,8.0,,,,*54
$GNTXT,01,01,01,More than 100 frame errors, UART RX was disabled*70
b0@Y
&?x!X+,p8?O=8
,{4$V_':R 
Y|A,VB%(RC ))D
MNAO"7[Q[R0kb6Er$GNRMC,064732.00,A,0419.87718,S,05539.91476,E,0.226,,020625,,,D*7D
$GNVTG,,T,,M,0.226,N,0.419,K,D*32
$GNGNS,064732.00,0419.87718,S,05539.91476,E,DA,14,0.94,15.7,-47.6,,0000*6D
$GNGGA,064732.00,0419.87718,S,05539.91476,E,2,12,0.94,15.7,M,-47.6,M,,0000*47
$GNGSA,A,3,05,12,15,13,23,24,25,29,40,,,,1.61,0.94,1.31*1B
$GNGSA,A,3,78,66,67,79,65,,,,,,,,1.61,0.94,1.31*17
$GPGSV,4,1,16,05,22,029,30,10,21,216,22,12,63,137,38,13,11,088,33*7B
$GPGSV,4,2,16,15,44,112,43,18,27,312,,23,63,230,21,24,24,161,16*72
$GPGSV,4,3,16,25,79,317,26,28,10,274,,29,22,002,22,36,52,277,*72
$GPGSV,4,4,16,40,86,351,36,41,58,082,39,49,32,274,,50,10,089,*76
$GLGSV,3,1,09,65,06,044,25,66,40,082,37,67,41,162,32,68,07,199,*6E
$GLGSV,3,2,09,77,20,164,,78,65,229,23,79,34,311,09,81,07,347,*65
$GLGSV,3,3,09,82,04,304,*55
$GNGLL,0419.87718,S,05539.91476,E,064732.00,A,D*61
$GNGRS,064732.00,1,-4.2,1.2,-0.3,-5.8,6.7,9.9,0.6,-9.8,22.6,,,*41
$GNGRS,064732.00,1,1.6,-1.2,-9.8,3.5,0.9,,,,,,,*70
$GNGST,064732.00,3179277,,,,4.2,4.6,8.0*7F
$GNZDA,064732.00,02,06,2025,00,00*7D
$GNGBS,064732.00,4.2,4.6,8.0,,,,*57
$GNTXT,01,01,01,More than 100 frame errors, UART RX was disabled*70
b0@
)?3Xo,,p8?T!O=B
"{4%V_&:R 
Y|A,B'(RC#)D
MN@O"7Q[R0Eb6-J>$GNRMC,064733.00,A,0419.87707,S,05539.91485,E,0.098,,020625,,,D*79
$GNVTG,,T,,M,0.098,N,0.182,K,D*32
$GNGNS,064733.00,0419.87707,S,05539.91485,E,DA,14,0.94,16.0,-47.6,,0000*6A
$GNGGA,064733.00,0419.87707,S,05539.91485,E,2,12,0.94,16.0,M,-47.6,M,,0000*40
$GNGSA,A,3,05,12,15,13,23,24,25,29,40,,,,1.61,0.94,1.31*1B
$GNGSA,A,3,78,66,67,79,65,,,,,,,,1.61,0.94,1.31*17
$GPGSV,4,1,16,05,22,029,30,10,21,216,23,12,63,137,41,13,11,088,31*76
$GPGSV,4,2,16,15,44,112,44,18,27,312,,23,63,230,23,24,24,161,20*72
$GPGSV,4,3,16,25,79,317,33,28,10,274,,29,22,002,23,36,52,277,*77
$GPGSV,4,4,16,40,86,351,37,41,58,082,38,49,32,274,,50,10,089,*76
$GLGSV,3,1,09,65,06,044,31,66,40,082,39,67,41,162,35,68,07,199,*62
$GLGSV,3,2,09,77,20,164,,78,64,228,22,79,34,311,15,81,07,347,*69
$GLGSV,3,3,09,82,04,304,*55
$GNGLL,0419.87707,S,05539.91485,E,064733.00,A,D*62
$GNGRS,064733.00,1,-3.1,0.5,-0.2,-1.5,8.5,7.7,0.7,-9.9,22.6,,,*46
$GNGRS,064733.00,1,2.8,-0.9,-8.1,3.9,5.2,,,,,,,*7C
$GNGST,064733.00,1096,,,,4.1,4.5,7.9*48
$GNZDA,064733.00,02,06,2025,00,00*7C
$GNGBS,064733.00,4.1,4.5,7.9,,,,*50
$GNTXT,01,01,01,More than 100 frame errors, UART RX was disabled*70
b0@|
&? X,,p8?O=
P{4#V_&:R 
Y|A ,vB'(RC")D
MN@O#6Q[R0ub6"$GNRMC,064734.00,A,0419.87702,S,05539.91485,E,0.041,,020625,,,D*7F
$GNVTG,,T,,M,0.041,N,0.075,K,D*3F
$GNGNS,064734.00,0419.87702,S,05539.91485,E,DA,14,0.94,16.3,-47.6,,0000*6B
$GNGGA,064734.00,0419.87702,S,05539.91485,E,2,12,0.94,16.3,M,-47.6,M,,0000*41
$GNGSA,A,3,05,12,15,13,23,24,25,29,40,,,,1.61,0.94,1.31*1B
$GNGSA,A,3,78,66,67,79,65,,,,,,,,1.61,0.94,1.31*17
$GPGSV,4,1,16,05,22,029,31,10,21,216,25,12,63,137,38,13,11,088,32*7C
$GPGSV,4,2,16,15,44,112,44,18,27,312,21,23,63,230,24,24,24,161,23*75
$GPGSV,4,3,16,25,79,317,31,28,10,274,,29,22,002,24,36,52,277,*72
$GPGSV,4,4,16,40,86,351,35,41,58,082,38,49,32,274,,50,10,089,*74
$GLGSV,3,1,09,65,06,044,32,66,40,082,39,67,41,162,34,68,07,199,*60
$GLGSV,3,2,09,77,20,164,,78,64,228,22,79,35,310,17,81,07,347,*6B
$GLGSV,3,3,09,82,04,304,*55
$GNGLL,0419.87702,S,05539.91485,E,064734.00,A,D*60
$GNGRS,064734.00,1,-3.9,2.2,-0.4,-0.3,9.5,6.9,2.0,-12.0,22.4,,,*77
$GNGRS,064734.00,1,2.8,0.2,-7.5,2.7,3.7,,,,,,,*5A
$GNGST,064734.00,1096,,,,4.0,4.5,7.7*40
$GNZDA,064734.00,02,06,2025,00,00*7B
$GNGBS,064734.00,4.0,4.5,7.7,,,,*58
$GNTXT,01,01,01,More than 100 frame errors, UART RX was disabled*70
b0@@
&? XN-,p8?@O=
{4V_':R 
Y|A,B (RC )D
MN@XO#6Q[R0b6$GNRMC,064735.00,A,0419.87702,S,05539.91485,E,0.062,,020625,,,D*7F
$GNVTG,,T,,M,0.062,N,0.115,K,D*39
$GNGNS,064735.00,0419.87702,S,05539.91485,E,DA,14,0.94,16.4,-47.6,,0000*6D
$GNGGA,064735.00,0419.87702,S,05539.91485,E,2,12,0.94,16.4,M,-47.6,M,,0000*47
$GNGSA,A,3,05,12,15,13,23,24,25,29,40,,,,1.61,0.94,1.31*1B
$GNGSA,A,3,78,66,67,79,65,,,,,,,,1.61,0.94,1.31*17
$GPGSV,4,1,16,05,22,029,30,10,21,216,25,12,63,137,38,13,11,088,32*7D
$GPGSV,4,2,16,15,44,112,45,18,27,312,18,23,63,230,23,24,24,161,22*78
$GPGSV,4,3,16,25,79,317,30,28,10,274,,29,22,002,23,36,52,277,*74
$GPGSV,4,4,16,40,86,351,31,41,58,082,39,49,32,274,,50,10,089,*71
$GLGSV,3,1,09,65,06,044,30,66,40,082,32,67,41,162,32,68,07,199,*6F
$GLGSV,3,2,09,77,20,164,,78,64,228,21,79,35,310,18,81,07,347,*67
$GLGSV,3,3,09,82,04,304,*55
$GNGLL,0419.87702,S,05539.91485,E,064735.00,A,D*61
$GNGRS,064735.00,1,-4.5,1.8,-0.2,0.8,9.0,5.8,2.1,-11.4,22.5,,,*54
$GNGRS,064735.00,1,3.4,-2.9,-5.9,2.3,-1.0,,,,,,,*50
$GNGST,064735.00,1096,,,,4.0,4.5,7.7*41
$GNZDA,064735.00,02,06,2025,00,00*7A
$GNGBS,064735.00,4.0,4.5,7.7,,,,*59
$GNTXT,01,01,01,More than 100 frame errors, UART RX was disabled*70
b0@
'?"X,,p8?<O=
-{4V_&:R 
Y|A,AB'(R~C )BD
MN@O#6Q\R0b6s$GNRMC,064736.00,A,0419.87709,S,05539.91480,E,0.108,,020625,,,D*7F
$GNVTG,,T,,M,0.108,N,0.201,K,D*32
$GNGNS,064736.00,0419.87709,S,05539.91480,E,DA,14,0.94,16.5,-47.6,,0000*61
$GNGGA,064736.00,0419.87709,S,05539.91480,E,2,12,0.94,16.5,M,-47.6,M,,0000*4B
$GNGSA,A,3,05,12,15,13,23,24,25,29,40,,,,1.61,0.94,1.31*1B
$GNGSA,A,3,78,66,67,79,65,,,,,,,,1.61,0.94,1.31*17
$GPGSV,4,1,16,05,22,029,29,10,21,216,25,12,63,137,39,13,11,088,34*72
$GPGSV,4,2,16,15,44,112,44,18,27,312,,23,63,230,24,24,24,161,24*71
$GPGSV,4,3,16,25,79,317,28,28,10,274,,29,22,002,22,36,52,277,*7C
$GPGSV,4,4,16,40,86,351,30,41,58,082,38,49,32,274,,50,10,089,*71
$GLGSV,3,1,09,65,06,044,30,66,40,082,39,67,41,162,32,68,07,199,*64
$GLGSV,3,2,09,77,20,164,,78,64,228,20,79,35,310,17,81,07,348,*66
$GLGSV,3,3,09,82,04,304,*55
$GNGLL,0419.87709,S,05539.91480,E,064736.00,A,D*6C
$GNGRS,064736.00,1,-6.1,2.0,-0.2,-2.3,6.7,5.7,1.3,-12.3,22.5,,,*7C
$GNGRS,064736.00,1,2.7,-3.9,-7.0,1.4,-1.9,,,,,,,*56
$GNGST,064736.00,1096,,,,4.0,4.4,7.6*42
$GNZDA,064736.00,02,06,2025,00,00*79
$GNGBS,064736.00,4.0,4.4,7.6,,,,*5A
$GNTXT,01,01,01,More than 100 frame errors, UART RX was disabled*70
b0@x
(?!"X,,p8?O=6
W{4!V_):R 
Y|A,7B'(RHC!)@D
MN@O#6jQ\R1
bx6$GNRMC,064737.00,A,0419.87715,S,05539.91474,E,0.163,,020625,,,D*75
$GNVTG,,T,,M,0.163,N,0.301,K,D*3E
$GNGNS,064737.00,0419.87715,S,05539.91474,E,DA,14,0.96,16.6,-47.6,,0000*67
$GNGGA,064737.00,0419.87715,S,05539.91474,E,2,12,0.96,16.6,M,-47.6,M,,0000*4D
$GNGSA,A,3,05,12,15,13,23,24,25,29,40,,,,1.73,0.96,1.44*18
$GNGSA,A,3,78,66,67,79,65,,,,,,,,1.73,0.96,1.44*14
$GPGSV,4,1,16,05,22,029,29,10,21,216,26,12,63,137,40,13,11,088,34*7F
$GPGSV,4,2,16,15,44,112,44,18,27,312,,23,63,230,27,24,24,161,24*72
$GPGSV,4,3,16,25,79,317,27,28,10,274,,29,22,002,20,36,52,277,*71
$GPGSV,4,4,16,40,86,351,33,41,58,082,41,49,32,274,,50,10,089,*7C
$GLGSV,3,1,09,65,06,044,30,66,40,082,39,67,41,162,33,68,07,199,*65
$GLGSV,3,2,09,77,20,164,,78,64,228,20,79,35,310,17,81,07,348,*66
$GLGSV,3,3,09,82,04,305,*54
$GNGLL,0419.87715,S,05539.91474,E,064737.00,A,D*6B
$GNGRS,064737.00,1,-1.3,2.9,-0.1,-0.3,7.6,2.1,0.5,-11.9,22.5,,,*7F
$GNGRS,064737.00,1,2.6,-4.4,-7.0,1.1,-2.0,,,,,,,*53
$GNGST,064737.00,45,,,,3.9,4.4,7.5*41
$GNZDA,064737.00,02,06,2025,00,00*78
$GNGBS,064737.00,3.9,4.4,7.5,,,,*56
$GNTXT,01,01,01,More than 100 frame errors, UART RX was disabled*70
b0@`w
!?X%,p8?"O=
q{4V_:R 
Y|A,B(RBC)RD
MN@O#6Q\R1zb`6C$GNRMC,064738.00,A,0419.87713,S,05539.91461,E,0.435,,020625,,,D*7E
$GNVTG,,T,,M,0.435,N,0.807,K,D*35
$GNGNS,064738.00,0419.87713,S,05539.91461,E,DA,14,0.94,16.5,-47.6,,0000*6B
$GNGGA,064738.00,0419.87713,S,05539.91461,E,2,12,0.94,16.5,M,-47.6,M,,0000*41
$GNGSA,A,3,05,12,15,13,23,24,25,29,40,,,,1.61,0.94,1.31*1B
$GNGSA,A,3,78,66,67,79,65,,,,,,,,1.61,0.94,1.31*17
$GPGSV,4,1,16,05,22,029,27,10,21,216,24,12,63,137,33,13,11,088,28*7A
$GPGSV,4,2,16,15,44,112,37,18,27,312,,23,63,230,25,24,24,161,21*71
$GPGSV,4,3,16,25,79,317,24,28,10,274,,29,22,002,19,36,52,277,*78
$GPGSV,4,4,16,40,86,351,27,41,58,082,31,49,32,274,,50,10,089,*7E
$GLGSV,3,1,09,65,06,044,29,66,40,082,31,67,41,162,28,68,07,199,*6F
$GLGSV,3,2,09,77,20,164,,78,64,228,20,79,35,310,14,81,07,348,*65
$GLGSV,3,3,09,82,04,305,*54
$GNGLL,0419.87713,S,05539.91461,E,064738.00,A,D*66
$GNGRS,064738.00,1,-3.9,2.4,0.0,2.6,8.0,1.9,-0.7,-11.7,23.1,,,*55
$GNGRS,064738.00,1,2.5,3.2,-9.4,-3.0,-0.1,,,,,,,*54
$GNGST,064738.00,1096,,,,3.9,4.4,7.6*42
$GNZDA,064738.00,02,06,2025,00,00*77
$GNGBS,064738.00,3.9,4.4,7.6,,,,*5A
$GNTXT,01,01,01,More than 100 frame errors, UART RX was disabled*70
b0@H
 ?X%,p8?^O=
X{4V_#:R 
Y|A,-B (RC)qD
MN@OO
#6Q\R1bH6Y$GNRMC,064739.00,A,0419.87708,S,05539.91461,E,0.221,,020625,,,D*76
$GNVTG,,T,,M,0.221,N,0.409,K,D*34
$GNGNS,064739.00,0419.87708,S,05539.91461,E,DA,13,1.11,16.7,-47.6,,0000*69
$GNGGA,064739.00,0419.87708,S,05539.91461,E,2,12,1.11,16.7,M,-47.6,M,,0000*44
$GNGSA,A,3,05,12,15,13,23,24,25,29,40,,,,1.80,1.11,1.42*1C
$GNGSA,A,3,78,66,67,65,,,,,,,,,1.80,1.11,1.42*1E
$GPGSV,4,1,16,05,22,029,25,10,21,216,22,12,63,137,32,13,11,088,28*7F
$GPGSV,4,2,16,15,44,112,37,18,27,312,,23,63,230,22,24,24,161,19*7D
$GPGSV,4,3,16,25,79,317,23,28,10,274,,29,22,002,18,36,52,277,*7E
$GPGSV,4,4,16,40,86,351,28,41,58,082,35,49,32,274,,50,10,089,*75
$GLGSV,3,1,09,65,06,044,26,66,40,082,32,67,41,162,28,68,07,199,*63
$GLGSV,3,2,09,77,20,164,,78,64,228,18,79,35,310,10,81,07,348,*6A
$GLGSV,3,3,09,82,04,305,*54
$GNGLL,0419.87708,S,05539.91461,E,064739.00,A,D*6D
$GNGRS,064739.00,1,-5.6,2.3,0.0,-4.8,9.1,3.5,-0.4,-9.4,24.7,,,*49
$GNGRS,064739.00,1,0.8,1.7,-9.1,3.0,,,,,,,,*77
$GNGST,064739.00,1137,,,,3.9,4.5,7.6*48
$GNZDA,064739.00,02,06,2025,00,00*76
$GNGBS,064739.00,3.9,4.5,7.6,,,,*5A
$GNTXT,01,01,01,More than 100 frame errors, UART RX was disabled*70
b0@09
 ?X&,p8?~O=5
{4V_!:R 
Y|A,<B(RxC)D
MN@O
#6Q\R1'/b061$GNRMC,064740.00,A,0419.87714,S,05539.91455,E,0.351,,020625,,,D*74
$GNVTG,,T,,M,0.351,N,0.650,K,D*3C
$GNGNS,064740.00,0419.87714,S,05539.91455,E,DA,13,1.11,16.7,-47.6,,0000*6D
$GNGGA,064740.00,0419.87714,S,05539.91455,E,2,12,1.11,16.7,M,-47.6,M,,0000*40
$GNGSA,A,3,05,12,15,13,23,24,25,29,40,,,,1.80,1.11,1.42*1C
$GNGSA,A,3,78,66,67,65,,,,,,,,,1.80,1.11,1.42*1E
$GPGSV,4,1,16,05,22,029,22,10,21,216,19,12,63,137,32,13,11,088,28*70
$GPGSV,4,2,16,15,44,112,38,18,27,312,,23,63,230,18,24,24,161,17*75
$GPGSV,4,3,16,25,79,317,23,28,10,274,,29,22,002,16,36,52,277,*70
$GPGSV,4,4,16,40,86,351,27,41,58,082,33,49,32,274,,50,10,089,*7C
$GLGSV,3,1,09,65,06,044,26,66,40,082,27,67,41,162,26,68,07,199,*69
$GLGSV,3,2,09,77,20,164,,78,64,228,17,79,35,310,10,81,07,348,*65
$GLGSV,3,3,09,82,04,305,*54
$GNGLL,0419.87714,S,05539.91455,E,064740.00,A,D*69
$GNGRS,064740.00,1,-7.1,2.2,0.0,-5.4,8.9,1.5,0.5,-10.3,25.5,,,*55
$GNGRS,064740.00,1,-0.2,1.2,-8.3,0.6,,,,,,,,*5D
$GNGST,064740.00,1138,,,,4.0,4.5,7.7*46
$GNZDA,064740.00,02,06,2025,00,00*78
$GNGBS,064740.00,4.0,4.5,7.7,,,,*5B
$GNTXT,01,01,01,More than 100 frame errors, UART RX was disabled*70
b0@
'?!X-,p)8?'O=z
{4$V_

):R 
Y|A,B#(R"C)D
MN@O#6Q\R1b6m{$GNRMC,064741.00,A,0419.87720,S,05539.91464,E,0.334,,020625,,,D*73
$GNVTG,,T,,M,0.334,N,0.619,K,D*32
$GNGNS,064741.00,0419.87720,S,05539.91464,E,DA,12,1.03,16.9,-47.6,,0000*65
$GNGGA,064741.00,0419.87720,S,05539.91464,E,2,12,1.03,16.9,M,-47.6,M,,0000*49
$GNGSA,A,3,12,15,13,23,24,25,40,,,,,,1.68,1.03,1.33*11
$GNGSA,A,3,78,66,67,79,65,,,,,,,,1.68,1.03,1.33*13
$GPGSV,4,1,16,05,22,029,,10,21,216,23,12,63,137,39,13,11,088,33*78
$GPGSV,4,2,16,15,44,112,45,18,27,312,,23,63,230,17,24,24,161,18*7F
$GPGSV,4,3,16,25,79,317,26,28,10,274,,29,22,002,21,36,52,277,*71
$GPGSV,4,4,16,40,86,351,36,41,58,082,41,49,32,274,,50,10,089,*79
$GLGSV,3,1,09,65,06,044,27,66,40,082,35,67,41,162,25,68,07,199,*68
$GLGSV,3,2,09,77,20,164,,78,64,228,15,79,35,310,14,81,07,348,*63
$GLGSV,3,3,09,82,04,305,*54
$GNGLL,0419.87720,S,05539.91464,E,064741.00,A,D*6D
$GNGRS,064741.00,1,2.6,0.4,-0.2,10.3,2.9,1.2,25.7,,,,,*5B
$GNGRS,064741.00,1,2.6,5.5,-6.2,1.9,10.0,,,,,,,*6A
$GNGST,064741.00,1184,,,,4.7,5.1,7.9*4C
$GNZDA,064741.00,02,06,2025,00,00*79
$GNGBS,064741.00,4.7,5.1,7.9,,,,*56
$GNTXT,01,01,01,More than 100 frame errors, UART RX was disabled*70
b0@X
#?X+,p8?PO=
'{4&V_
':R 
Y|A,B!(RC)D
MN@3O#6ZQ\R1o4b6U$GNRMC,064742.00,A,0419.87718,S,05539.91472,E,0.065,,020625,,,D*7B
$GNVTG,,T,,M,0.065,N,0.120,K,D*38
$GNGNS,064742.00,0419.87718,S,05539.91472,E,DA,12,1.03,17.0,-47.6,,0000*62
$GNGGA,064742.00,0419.87718,S,05539.91472,E,2,12,1.03,17.0,M,-47.6,M,,0000*4E
$GNGSA,A,3,12,15,13,23,24,25,40,,,,,,1.68,1.03,1.33*11
$GNGSA,A,3,78,66,67,79,65,,,,,,,,1.68,1.03,1.33*13
$GPGSV,4,1,16,05,22,029,23,10,21,216,21,12,63,137,35,13,11,088,29*7C
$GPGSV,4,2,16,15,44,112,43,18,27,312,,23,63,230,16,24,24,161,18*78
$GPGSV,4,3,16,25,79,317,27,28,10,274,,29,22,002,20,36,52,277,*71
$GPGSV,4,4,16,40,86,351,38,41,58,082,39,49,32,274,,50,10,089,*78
$GLGSV,3,1,09,65,06,044,26,66,40,082,33,67,41,162,27,68,07,199,*6D
$GLGSV,3,2,09,77,20,164,,78,64,228,15,79,35,310,08,81,07,348,*6E
$GLGSV,3,3,09,82,04,305,*54
$GNGLL,0419.87718,S,05539.91472,E,064742.00,A,D*62
$GNGRS,064742.00,1,3.9,0.2,-1.1,11.0,4.1,1.5,25.7,,,,,*59
$GNGRS,064742.00,1,0.5,4.5,-5.9,3.5,14.6,,,,,,,*6D
$GNGST,064742.00,41557,,,,4.7,5.2,7.9*72
$GNZDA,064742.00,02,06,2025,00,00*7A
$GNGBS,064742.00,4.7,5.2,7.9,,,,*56
$GNTXT,01,01,01,More than 100 frame errors, UART RX was disabled*70
b0@
!?g!XC+,p8?^ O=B
{4$V_&:R 
Y|A,B"(RC)XD
MN@=O#6GQ\R14b6=<$GNRMC,064743.00,A,0419.87705,S,05539.91482,E,0.111,,020625,,,D*7B
$GNVTG,,T,,M,0.111,N,0.206,K,D*3D
$GNGNS,064743.00,0419.87705,S,05539.91482,E,DA,12,1.03,17.2,-47.6,,0000*62
$GNGGA,064743.00,0419.87705,S,05539.91482,E,2,12,1.03,17.2,M,-47.6,M,,0000*4E
$GNGSA,A,3,12,15,13,23,24,25,40,,,,,,1.68,1.03,1.33*11
$GNGSA,A,3,78,66,67,79,65,,,,,,,,1.68,1.03,1.33*13
$GPGSV,4,1,16,05,22,029,,10,21,216,21,12,63,137,33,13,11,088,33*70
$GPGSV,4,2,16,15,44,112,43,18,27,312,,23,63,230,18,24,24,161,20*7D
$GPGSV,4,3,16,25,79,317,32,28,10,274,,29,22,002,20,36,52,277,*75
$GPGSV,4,4,16,40,86,351,36,41,58,082,38,49,32,274,,50,10,089,*77
$GLGSV,3,1,09,65,06,044,27,66,40,082,34,67,41,162,28,68,07,199,*64
$GLGSV,3,2,09,77,20,164,,78,64,228,15,79,35,310,11,81,07,348,*66
$GLGSV,3,3,09,82,04,305,*54
$GNGLL,0419.87705,S,05539.91482,E,064743.00,A,D*60
$GNGRS,064743.00,1,3.6,0.2,3.2,11.2,4.2,0.7,25.0,,,,,*7E
$GNGRS,064743.00,1,0.6,7.4,-6.8,3.3,9.8,,,,,,,*5B
$GNGST,064743.00,62322,,,,4.7,5.2,7.9*76
$GNZDA,064743.00,02,06,2025,00,00*7B
$GNGBS,064743.00,4.7,5.2,7.9,,,,*57
$GNTXT,01,01,01,More than 100 frame errors, UART RX was disabled*70
b0@|
!?LXQ%,p8?OO=-
d{4 V_$:R 
Y|A,)B!(RC)yD
MN@eO#68Q\R1yb6%$GNRMC,064744.00,A,0419.87695,S,05539.91485,E,0.046,,020625,,,D*70
$GNVTG,,T,,M,0.046,N,0.084,K,D*36
$GNGNS,064744.00,0419.87695,S,05539.91485,E,DA,13,0.97,17.3,-47.6,,0000*66
$GNGGA,064744.00,0419.87695,S,05539.91485,E,2,12,0.97,17.3,M,-47.6,M,,0000*4B
$GNGSA,A,3,12,15,13,23,24,25,29,40,,,,,1.63,0.97,1.31*1F
$GNGSA,A,3,78,66,67,79,65,,,,,,,,1.63,0.97,1.31*16
$GPGSV,4,1,16,05,22,029,24,10,21,216,22,12,63,137,33,13,11,088,28*7F
$GPGSV,4,2,16,15,44,112,37,18,27,312,,23,63,230,21,24,24,161,22*76
$GPGSV,4,3,16,25,79,317,31,28,10,274,,29,22,002,21,36,52,277,*77
$GPGSV,4,4,16,40,86,351,32,41,58,082,36,49,32,274,,50,10,089,*7D
$GLGSV,3,1,09,65,06,044,31,66,40,082,33,67,41,162,27,68,07,199,*6B
$GLGSV,3,2,09,77,20,164,,78,64,228,18,79,35,310,11,81,07,348,*6B
$GLGSV,3,3,09,82,04,305,*54
$GNGLL,0419.87695,S,05539.91485,E,064744.00,A,D*68
$GNGRS,064744.00,1,3.3,0.0,3.4,13.6,5.1,3.0,-9.2,24.7,,,,*76
$GNGRS,064744.00,1,1.0,2.8,-14.1,-7.1,8.1,,,,,,,*4B
$GNGST,064744.00,1138,,,,4.7,5.2,7.9*4D
$GNZDA,064744.00,02,06,2025,00,00*7C
$GNGBS,064744.00,4.7,5.2,7.9,,,,*50
$GNTXT,01,01,01,More than 100 frame errors, UART RX was disabled*70
b0@
#?!X+,p8?jO=1
{4V_&:R 
Y|A,B%(RC)D
MN@O#6;Q\R1Zb6h$GNRMC,064745.00,A,0419.87683,S,05539.91493,E,0.168,,020625,,,D*7C
$GNVTG,,T,,M,0.168,N,0.311,K,D*34
$GNGNS,064745.00,0419.87683,S,05539.91493,E,DA,13,0.97,17.5,-47.6,,0000*61
$GNGGA,064745.00,0419.87683,S,05539.91493,E,2,12,0.97,17.5,M,-47.6,M,,0000*4C
$GNGSA,A,3,12,15,13,23,24,25,29,40,,,,,1.63,0.97,1.31*1F
$GNGSA,A,3,78,66,67,79,65,,,,,,,,1.63,0.97,1.31*16
$GPGSV,4,1,16,05,22,029,23,10,21,216,22,12,63,137,35,13,11,088,33*74
$GPGSV,4,2,16,15,44,112,43,18,27,312,,23,63,230,22,24,24,161,21*75
$GPGSV,4,3,16,25,79,317,26,28,10,274,,29,22,002,21,36,52,277,*71
$GPGSV,4,4,16,40,86,351,31,41,58,082,38,49,32,274,,50,10,089,*70
$GLGSV,3,1,09,65,06,044,30,66,40,082,37,67,41,162,29,68,07,199,*60
$GLGSV,3,2,09,77,20,164,,78,64,228,19,79,35,310,11,81,07,348,*6A
$GLGSV,3,3,09,82,04,305,*54
$GNGLL,0419.87683,S,05539.91493,E,064745.00,A,D*69
$GNGRS,064745.00,1,1.7,-0.3,-0.8,14.8,6.2,-2.1,-10.4,24.8,,,,*68
$GNGRS,064745.00,1,1.3,4.0,-10.0,3.2,12.0,,,,,,,*52
$GNGST,064745.00,113086,,,,4.7,5.2,7.9*4A
$GNZDA,064745.00,02,06,2025,00,00*7D
$GNGBS,064745.00,4.7,5.2,7.9,,,,*51
$GNTXT,01,01,01,More than 100 frame errors, UART RX was disabled*70
b0@
?X%,p8?AO=
{4V_w!:R 
Y|A,B(RC)D
MN@O#6Q\R1=b6?q$GNRMC,064746.00,A,0419.87679,S,05539.91491,E,0.081,,020625,,,D*7E
$GNVTG,,T,,M,0.081,N,0.150,K,D*35
$GNGNS,064746.00,0419.87679,S,05539.91491,E,DA,14,0.96,17.5,-47.6,,0000*63
$GNGGA,064746.00,0419.87679,S,05539.91491,E,2,12,0.96,17.5,M,-47.6,M,,0000*49
$GNGSA,A,3,05,12,15,13,23,24,25,29,40,,,,1.73,0.96,1.44*18
$GNGSA,A,3,78,66,67,79,65,,,,,,,,1.73,0.96,1.44*14
$GPGSV,4,1,16,05,22,029,24,10,21,216,21,12,63,137,27,13,11,088,29*78
$GPGSV,4,2,16,15,44,112,37,18,27,312,,23,63,230,21,24,24,161,21*75
$GPGSV,4,3,16,25,79,317,27,28,10,274,,29,22,002,20,36,52,277,*71
$GPGSV,4,4,16,40,86,351,29,41,58,082,33,49,32,274,,50,10,089,*72
$GLGSV,3,1,09,65,06,044,24,66,40,082,27,67,41,162,28,68,07,199,*65
$GLGSV,3,2,09,77,20,164,,78,64,228,18,79,35,310,13,81,07,348,*69
$GLGSV,3,3,09,82,04,305,*54
$GNGLL,0419.87679,S,05539.91491,E,064746.00,A,D*6D
$GNGRS,064746.00,1,1.7,2.3,-0.2,-0.2,13.4,6.8,-0.6,-6.2,24.2,,,*70
$GNGRS,064746.00,1,-0.1,4.8,-7.6,2.5,13.0,,,,,,,*40
$GNGST,064746.00,172947,,,,4.7,5.2,8.0*4C
$GNZDA,064746.00,02,06,2025,00,00*7E
$GNGBS,064746.00,4.7,5.2,8.0,,,,*54
$GNTXT,01,01,01,More than 100 frame errors, UART RX was disabled*70
b0@
"?"XR+,p8?N O=
{4"V_[':R 
Y|A,B"(R
C)D
MN@O#6*Q\R1b6$GNRMC,064747.00,A,0419.87674,S,05539.91481,E,0.124,,020625,,,D*7D
$GNVTG,,T,,M,0.124,N,0.229,K,D*36
$GNGNS,064747.00,0419.87674,S,05539.91481,E,DA,14,0.94,17.5,-47.6,,0000*6C
$GNGGA,064747.00,0419.87674,S,05539.91481,E,2,12,0.94,17.5,M,-47.6,M,,0000*46
$GNGSA,A,3,05,12,15,13,23,24,25,29,40,,,,1.61,0.94,1.31*1B
$GNGSA,A,3,78,66,67,79,65,,,,,,,,1.61,0.94,1.31*17
$GPGSV,4,1,16,05,22,029,25,10,21,216,23,12,63,137,34,13,11,088,34*75
$GPGSV,4,2,16,15,44,112,43,18,27,312,,23,63,230,21,24,24,161,19*7D
$GPGSV,4,3,16,25,79,317,32,28,10,274,,29,22,002,21,36,52,277,*74
$GPGSV,4,4,16,40,86,351,34,41,58,082,39,49,32,274,,50,10,089,*74
$GLGSV,3,1,09,65,06,044,26,66,40,082,34,67,41,162,28,68,07,199,*65
$GLGSV,3,2,09,77,20,164,,78,64,228,20,79,35,310,17,81,07,348,*66
$GLGSV,3,3,09,82,04,305,*54
$GNGLL,0419.87674,S,05539.91481,E,064747.00,A,D*60
$GNGRS,064747.00,1,1.7,4.5,-0.4,-1.7,16.1,7.1,2.4,-8.7,23.9,,,*51
$GNGRS,064747.00,1,-0.1,2.7,-8.4,5.5,17.3,,,,,,,*45
$GNGST,064747.00,1097,,,,4.7,5.2,8.0*4C
$GNZDA,064747.00,02,06,2025,00,00*7F
$GNGBS,064747.00,4.7,5.2,8.0,,,,*55
$GNTXT,01,01,01,More than 100 frame errors, UART RX was disabled*70
b0@p/
?:X#,p8?O=
{4V_W :R 
Y|A,5B(RiC)D
MN@O#68Q\R1bp6A$GNRMC,064748.00,A,0419.87672,S,05539.91477,E,0.034,,020625,,,D*7D
$GNVTG,,T,,M,0.034,N,0.063,K,D*3A
$GNGNS,064748.00,0419.87672,S,05539.91477,E,DA,14,0.94,17.4,-47.6,,0000*6D
$GNGGA,064748.00,0419.87672,S,05539.91477,E,2,12,0.94,17.4,M,-47.6,M,,0000*47
$GNGSA,A,3,05,12,15,13,23,24,25,29,40,,,,1.61,0.94,1.31*1B
$GNGSA,A,3,78,66,67,79,65,,,,,,,,1.61,0.94,1.31*17
$GPGSV,4,1,16,05,21,029,25,10,21,216,23,12,63,137,29,13,11,088,28*77
$GPGSV,4,2,16,15,44,112,35,18,27,312,,23,63,230,21,24,24,161,18*7D
$GPGSV,4,3,16,25,79,317,26,28,10,274,,29,22,002,21,36,52,277,*71
$GPGSV,4,4,16,40,86,351,29,41,58,082,32,49,32,274,,50,10,089,*73
$GLGSV,3,1,09,65,06,044,26,66,40,082,31,67,41,162,28,68,07,199,*60
$GLGSV,3,2,09,77,20,164,,78,64,228,21,79,35,310,17,81,07,348,*67
$GLGSV,3,3,09,82,04,305,*54
$GNGLL,0419.87672,S,05539.91477,E,064748.00,A,D*60
$GNGRS,064748.00,1,8.1,0.6,-0.6,-1.1,15.2,6.7,-0.7,-13.0,23.9,,,*44
$GNGRS,064748.00,1,0.1,3.6,-3.0,3.1,13.3,,,,,,,*6E
$GNGST,064748.00,41678,,,,4.7,5.3,8.1*70
$GNZDA,064748.00,02,06,2025,00,00*70
$GNGBS,064748.00,4.7,5.3,8.1,,,,*5A
$GNTXT,01,01,01,More than 100 frame errors, UART RX was disabled*70
b0@XC
#?"X*,p8?O=g
V{4#V_{&:R 
Y|A,B"(RaC )ND
MN@dO#68Q\R1bX6$GNRMC,064749.00,A,0419.87671,S,05539.91481,E,0.021,,020625,,,D*72
$GNVTG,,T,,M,0.021,N,0.039,K,D*31
$GNGNS,064749.00,0419.87671,S,05539.91481,E,DA,14,0.96,17.4,-47.6,,0000*64
$GNGGA,064749.00,0419.87671,S,05539.91481,E,2,12,0.96,17.4,M,-47.6,M,,0000*4E
$GNGSA,A,3,05,12,15,13,23,24,25,29,40,,,,1.73,0.96,1.44*18
$GNGSA,A,3,78,66,67,79,65,,,,,,,,1.73,0.96,1.44*14
$GPGSV,4,1,16,05,21,029,26,10,21,216,23,12,63,137,35,13,11,088,34*74
$GPGSV,4,2,16,15,44,112,42,18,27,312,,23,63,230,21,24,24,161,20*76
$GPGSV,4,3,16,25,79,317,31,28,10,274,,29,22,002,22,36,52,277,*74
$GPGSV,4,4,16,40,86,351,35,41,58,082,38,49,32,274,,50,10,089,*74
$GLGSV,3,1,09,65,06,044,27,66,40,082,34,67,41,162,32,68,07,199,*6F
$GLGSV,3,2,09,77,20,164,,78,64,228,21,79,35,310,16,81,07,348,*66
$GLGSV,3,3,09,82,04,305,*54
$GNGLL,0419.87671,S,05539.91481,E,064749.00,A,D*6B
$GNGRS,064749.00,1,0.7,-0.4,-0.8,1.7,15.5,6.7,-1.5,-17.1,24.3,,,*4D
$GNGRS,064749.00,1,1.0,-1.6,-6.9,3.1,7.5,,,,,,,*7F
$GNGST,064749.00,63192,,,,4.7,5.2,8.0*72
$GNZDA,064749.00,02,06,2025,00,00*71
$GNGBS,064749.00,4.7,5.2,8.0,,,,*5B
$GNTXT,01,01,01,More than 100 frame errors, UART RX was disabled*70
b0@@
?X!,p8?JtO=
{4V_=:R 
Y|A,B(RsC){D
MN@JO
#6Q\R1+Ob@6$GNRMC,064750.00,A,0419.87677,S,05539.91457,E,0.408,,020625,,,D*78
$GNVTG,,T,,M,0.408,N,0.756,K,D*30
$GNGNS,064750.00,0419.87677,S,05539.91457,E,DA,14,0.94,17.0,-47.6,,0000*67
$GNGGA,064750.00,0419.87677,S,05539.91457,E,2,12,0.94,17.0,M,-47.6,M,,0000*4D
$GNGSA,A,3,05,12,15,13,23,24,25,29,40,,,,1.61,0.94,1.31*1B
$GNGSA,A,3,78,66,67,79,65,,,,,,,,1.61,0.94,1.31*17
$GPGSV,4,1,16,05,21,029,24,10,21,216,22,12,63,137,23,13,11,088,24*71
$GPGSV,4,2,16,15,44,112,33,18,27,312,,23,63,230,22,24,24,161,20*73
$GPGSV,4,3,16,25,79,317,26,28,10,274,,29,22,002,21,36,52,277,*71
$GPGSV,4,4,16,40,86,351,29,41,58,082,30,49,32,274,,50,10,089,*71
$GLGSV,3,1,09,65,06,044,26,66,40,082,27,67,41,162,25,68,07,199,*6A
$GLGSV,3,2,09,77,20,164,,78,64,228,21,79,35,310,10,81,07,348,*60
$GLGSV,3,3,09,82,04,305,*54
$GNGLL,0419.87677,S,05539.91457,E,064750.00,A,D*6E
$GNGRS,064750.00,1,-0.9,-0.6,-2.6,-1.1,13.5,6.3,-4.9,-15.7,23.7,,,*4F
$GNGRS,064750.00,1,0.7,-1.4,1.2,6.5,4.3,,,,,,,*56
$GNGST,064750.00,1096,,,,4.7,5.3,8.1*4B
$GNZDA,064750.00,02,06,2025,00,00*79
$GNGBS,064750.00,4.7,5.3,8.1,,,,*53
$GNTXT,01,01,01,More than 100 frame errors, UART RX was disabled*70
b0@(U
"?X(,pZ8?BO=
"{4!V_:#:R 
Y|A,B$(RC)D
MN@'O#6kQ\R12b(6}x$GNRMC,064751.00,A,0419.87678,S,05539.91451,E,0.203,,020625,,,D*7D
$GNVTG,,T,,M,0.203,N,0.376,K,D*3B
$GNGNS,064751.00,0419.87678,S,05539.91451,E,DA,14,0.96,16.9,-47.6,,0000*65
$GNGGA,064751.00,0419.87678,S,05539.91451,E,2,12,0.96,16.9,M,-47.6,M,,0000*4F
$GNGSA,A,3,05,12,15,13,23,24,25,29,40,,,,1.73,0.96,1.44*18
$GNGSA,A,3,78,66,67,79,65,,,,,,,,1.73,0.96,1.44*14
$GPGSV,4,1,16,05,21,029,25,10,21,216,21,12,63,137,34,13,11,088,31*71
$GPGSV,4,2,16,15,44,112,40,18,27,312,,23,63,230,21,24,24,161,21*75
$GPGSV,4,3,16,25,79,317,26,28,10,274,,29,22,002,20,36,52,277,*70
$GPGSV,4,4,16,40,86,351,33,41,58,082,35,49,32,274,,50,10,089,*7F
$GLGSV,3,1,09,65,06,044,27,66,40,082,36,67,41,162,27,68,07,199,*69
$GLGSV,3,2,09,77,20,164,,78,64,228,22,79,35,310,15,81,07,348,*66
$GLGSV,3,3,09,82,04,305,*54
$GNGLL,0419.87678,S,05539.91451,E,064751.00,A,D*66
$GNGRS,064751.00,1,-6.8,1.3,-1.7,-0.8,10.9,5.4,-3.9,-15.0,23.6,,,*60
$GNGRS,064751.00,1,0.4,-0.1,-2.7,3.6,6.9,,,,,,,*75
$GNGST,064751.00,43237,,,,4.7,5.3,8.1*75
$GNZDA,064751.00,02,06,2025,00,00*78
$GNGBS,064751.00,4.7,5.3,8.1,,,,*52
$GNTXT,01,01,01,More than 100 frame errors, UART RX was disabled*70
b0@
'?$X-,p8?>O=$
a{4#V_#(:R 
Y|A,B$(RdC#)D
MN@2O#6Q\R1CZb6eP$GNRMC,064752.00,A,0419.87661,S,05539.91453,E,0.344,,020625,,,D*76
$GNVTG,,T,,M,0.344,N,0.638,K,D*36
$GNGNS,064752.00,0419.87661,S,05539.91453,E,DA,14,0.94,17.6,-47.6,,0000*60
$GNGGA,064752.00,0419.87661,S,05539.91453,E,2,12,0.94,17.6,M,-47.6,M,,0000*4A
$GNGSA,A,3,05,12,15,13,23,24,25,29,40,,,,1.61,0.94,1.31*1B
$GNGSA,A,3,78,66,67,79,65,,,,,,,,1.61,0.94,1.31*17
$GPGSV,4,1,16,05,21,029,24,10,21,216,22,12,63,137,39,13,11,088,36*79
$GPGSV,4,2,16,15,44,112,45,18,27,312,,23,63,230,20,24,24,161,20*70
$GPGSV,4,3,16,25,79,317,27,28,10,274,,29,22,002,20,36,52,277,*71
$GPGSV,4,4,16,40,86,351,35,41,58,082,40,49,32,274,,50,10,089,*7B
$GLGSV,3,1,09,65,06,044,31,66,40,082,36,67,41,162,35,68,07,199,*6D
$GLGSV,3,2,09,77,20,164,,78,64,228,23,79,35,310,14,81,07,348,*66
$GLGSV,3,3,09,82,04,305,*54
$GNGLL,0419.87661,S,05539.91453,E,064752.00,A,D*6F
$GNGRS,064752.00,1,-6.2,2.5,-0.8,-2.3,12.2,5.7,-2.2,-17.0,23.4,,,*6B
$GNGRS,064752.00,1,0.5,1.0,-4.8,3.9,7.9,,,,,,,*5D
$GNGST,064752.00,60903,,,,4.6,5.2,8.0*7A
$GNZDA,064752.00,02,06,2025,00,00*7B
$GNGBS,064752.00,4.6,5.2,8.0,,,,*50
$GNTXT,01,01,01,More than 100 frame errors, UART RX was disabled*70
b0@t
?X ,p8?kO=^
{4V_ :R 
Y|A,"B(RC)D
MN@]O#6JQ\R1#b6M'H$GNRMC,064753.00,A,0419.87672,S,05539.91459,E,0.371,,020625,,,D*79
$GNVTG,,T,,M,0.371,N,0.687,K,D*34
$GNGNS,064753.00,0419.87672,S,05539.91459,E,DA,13,0.97,17.5,-47.6,,0000*6E
$GNGGA,064753.00,0419.87672,S,05539.91459,E,2,12,0.97,17.5,M,-47.6,M,,0000*43
$GNGSA,A,3,12,15,13,23,24,25,29,40,,,,,1.63,0.97,1.31*1F
$GNGSA,A,3,78,66,67,79,65,,,,,,,,1.63,0.97,1.31*16
$GPGSV,4,1,16,05,21,029,26,10,22,217,21,12,63,137,26,13,11,088,28*7B
$GPGSV,4,2,16,15,44,112,32,18,27,312,,23,63,230,21,24,24,161,19*7B
$GPGSV,4,3,16,25,79,317,24,28,10,274,,29,22,002,20,36,52,277,*72
$GPGSV,4,4,16,40,86,351,27,41,58,082,32,49,32,274,,50,10,089,*7D
$GLGSV,3,1,09,65,06,044,24,66,40,082,27,67,41,162,27,68,07,199,*6A
$GLGSV,3,2,09,77,20,164,,78,64,228,22,79,35,310,18,81,07,348,*6B
$GLGSV,3,3,09,82,04,305,*54
$GNGLL,0419.87672,S,05539.91459,E,064753.00,A,D*66
$GNGRS,064753.00,1,2.1,-0.6,-0.5,8.7,7.5,-1.6,-16.5,22.5,,,,*5E
$GNGRS,064753.00,1,0.9,-0.6,-2.7,3.3,10.6,,,,,,,*40
$GNGST,064753.00,1138,,,,4.6,5.3,8.1*4C
$GNZDA,064753.00,02,06,2025,00,00*7A
$GNGBS,064753.00,4.6,5.3,8.1,,,,*51
$GNTXT,01,01,01,More than 100 frame errors, UART RX was disabled*70
b0@
?hX8%,p8?aO=
{4V_!:R 
Y|A,BB(RIC)D
MN@O#6AQ\R1b65$GNRMC,064754.00,A,0419.87675,S,05539.91463,E,0.148,,020625,,,D*78
$GNVTG,,T,,M,0.148,N,0.274,K,D*34
$GNGNS,064754.00,0419.87675,S,05539.91463,E,DA,13,0.97,17.6,-47.6,,0000*64
$GNGGA,064754.00,0419.87675,S,05539.91463,E,2,12,0.97,17.6,M,-47.6,M,,0000*49
$GNGSA,A,3,12,15,13,23,24,25,29,40,,,,,1.63,0.97,1.31*1F
$GNGSA,A,3,78,66,67,79,65,,,,,,,,1.63,0.97,1.31*16
$GPGSV,4,1,16,05,21,029,23,10,22,217,20,12,63,137,31,13,11,088,28*79
$GPGSV,4,2,16,15,44,112,37,18,27,312,,23,63,230,21,24,24,161,18*7F
$GPGSV,4,3,16,25,79,317,25,28,10,274,,29,22,002,19,36,52,277,*79
$GPGSV,4,4,16,40,86,351,30,41,58,082,33,49,32,274,,50,10,089,*7A
$GLGSV,3,1,09,65,06,044,26,66,40,082,31,67,41,162,26,68,07,199,*6E
$GLGSV,3,2,09,77,20,164,,78,64,228,22,79,35,310,18,81,07,348,*6B
$GLGSV,3,3,09,82,04,305,*54
$GNGLL,0419.87675,S,05539.91463,E,064754.00,A,D*6F
$GNGRS,064754.00,1,3.6,-0.7,0.6,8.7,6.9,2.4,-18.6,19.6,,,,*57
$GNGRS,064754.00,1,0.0,0.7,0.2,3.2,0.7,,,,,,,*79
$GNGST,064754.00,1138,,,,4.7,5.3,8.1*4A
$GNZDA,064754.00,02,06,2025,00,00*7D
$GNGBS,064754.00,4.7,5.3,8.1,,,,*57
$GNTXT,01,01,01,More than 100 frame errors, UART RX was disabled*70
b0@
"?=X),p8?4O=
{4!V_&:R 
Y|A,B (RC),D
MN@O#6Q\R1bb6$GNRMC,064755.00,A,0419.87656,S,05539.91417,E,1.010,,020625,,,D*76
$GNVTG,,T,,M,1.010,N,1.871,K,D*37
$GNGNS,064755.00,0419.87656,S,05539.91417,E,DA,14,0.94,17.6,-47.6,,0000*63
$GNGGA,064755.00,0419.87656,S,05539.91417,E,2,12,0.94,17.6,M,-47.6,M,,0000*49
$GNGSA,A,3,05,12,15,13,23,24,25,29,40,,,,1.61,0.94,1.31*1B
$GNGSA,A,3,78,66,67,79,65,,,,,,,,1.61,0.94,1.31*17
$GPGSV,4,1,16,05,21,029,22,10,22,217,20,12,63,138,34,13,11,088,27*7D
$GPGSV,4,2,16,15,44,112,41,18,27,312,,23,63,230,19,24,24,161,17*7A
$GPGSV,4,3,16,25,79,317,24,28,10,274,,29,22,002,19,36,52,277,*78
$GPGSV,4,4,16,40,86,351,33,41,58,082,38,49,32,274,,50,10,089,*72
$GLGSV,3,1,09,65,06,044,26,66,40,082,32,67,41,162,26,68,07,199,*6D
$GLGSV,3,2,09,77,20,164,,78,64,228,21,79,35,310,17,81,07,348,*67
$GLGSV,3,3,09,82,04,305,*54
$GNGLL,0419.87656,S,05539.91417,E,064755.00,A,D*6C
$GNGRS,064755.00,1,2.1,0.6,-0.7,2.0,7.4,8.2,2.2,-18.9,19.7,,,*7D
$GNGRS,064755.00,1,-0.6,-0.1,-2.1,4.4,4.0,,,,,,,*56
$GNGST,064755.00,1097,,,,4.7,5.3,8.2*4C
$GNZDA,064755.00,02,06,2025,00,00*7C
$GNGBS,064755.00,4.7,5.3,8.2,,,,*55
$GNTXT,01,01,01,More than 100 frame errors, UART RX was disabled*70
b0@
&?~#XU,,p8?O=!
O{4"V_(:R 
Y|A,B%(RC )D
MN@O#6Q\R1Nb6$GNRMC,064756.00,A,0419.87652,S,05539.91412,E,0.244,,020625,,,D*76
$GNVTG,,T,,M,0.244,N,0.452,K,D*39
$GNGNS,064756.00,0419.87652,S,05539.91412,E,DA,13,0.97,17.6,-47.6,,0000*65
$GNGGA,064756.00,0419.87652,S,05539.91412,E,2,12,0.97,17.6,M,-47.6,M,,0000*48
$GNGSA,A,3,12,15,13,23,24,25,29,40,,,,,1.63,0.97,1.31*1F
$GNGSA,A,3,78,66,67,79,65,,,,,,,,1.63,0.97,1.31*16
$GPGSV,4,1,16,05,21,029,,10,22,217,21,12,63,138,38,13,11,088,35*73
$GPGSV,4,2,16,15,44,112,44,18,27,312,,23,63,230,20,24,24,161,21*70
$GPGSV,4,3,16,25,79,317,31,28,10,274,,29,22,002,20,36,52,277,*76
$GPGSV,4,4,16,40,86,351,34,41,58,082,40,49,32,274,,50,10,089,*7A
$GLGSV,3,1,09,65,06,044,28,66,40,082,37,67,41,162,32,68,07,199,*63
$GLGSV,3,2,09,77,20,164,,78,64,228,22,79,35,310,17,81,07,348,*64
$GLGSV,3,3,09,82,04,305,*54
$GNGLL,0419.87652,S,05539.91412,E,064756.00,A,D*6E
$GNGRS,064756.00,1,-1.3,-0.7,-4.3,4.8,7.4,0.3,-17.1,19.6,,,,*51
$GNGRS,064756.00,1,-0.8,-1.2,-3.5,6.6,4.9,,,,,,,*55
$GNGST,064756.00,1138,,,,4.7,5.3,8.1*48
$GNZDA,064756.00,02,06,2025,00,00*7F
$GNGBS,064756.00,4.7,5.3,8.1,,,,*55
$GNTXT,01,01,01,More than 100 frame errors, UART RX was disabled*70
b0@#
&?"X,,p`8?_O=
{4"V_(:R 
Y|A,B$(R}C)D
MN@O#6Q\R1K(b6$GNRMC,064757.00,A,0419.87652,S,05539.91424,E,0.072,,020625,,,D*75
$GNVTG,,T,,M,0.072,N,0.134,K,D*3B
$GNGNS,064757.00,0419.87652,S,05539.91424,E,DA,14,0.94,18.0,-47.6,,0000*6C
$GNGGA,064757.00,0419.87652,S,05539.91424,E,2,12,0.94,18.0,M,-47.6,M,,0000*46
$GNGSA,A,3,05,12,15,13,23,24,25,29,40,,,,1.61,0.94,1.31*1B
$GNGSA,A,3,78,66,67,79,65,,,,,,,,1.61,0.94,1.31*17
$GPGSV,4,1,16,05,21,029,29,10,22,217,21,12,63,138,38,13,11,088,34*79
$GPGSV,4,2,16,15,44,112,44,18,27,312,,23,63,230,21,24,24,161,22*72
$GPGSV,4,3,16,25,79,317,30,28,10,274,,29,22,002,23,36,52,277,*74
$GPGSV,4,4,16,40,86,351,34,41,58,082,40,49,32,274,,50,10,089,*7A
$GLGSV,3,1,09,65,06,044,28,66,40,082,36,67,41,162,30,68,07,199,*60
$GLGSV,3,2,09,77,20,164,,78,64,228,25,79,35,310,17,81,07,348,*63
$GLGSV,3,3,09,82,04,305,*54
$GNGLL,0419.87652,S,05539.91424,E,064757.00,A,D*6A
$GNGRS,064757.00,1,-9.9,1.3,-1.6,-3.0,4.3,6.1,-3.2,-16.5,19.9,,,*50
$GNGRS,064757.00,1,-1.1,3.8,-2.4,7.5,4.2,,,,,,,*70
$GNGST,064757.00,1096,,,,4.7,5.2,8.1*4D
$GNZDA,064757.00,02,06,2025,00,00*7E
$GNGBS,064757.00,4.7,5.2,8.1,,,,*55
$GNTXT,01,01,01,More than 100 frame errors, UART RX was disabled*70
b0@#*
$?\X}(,o(8?VO=
{4#V_$:R 
Y|A ,oB%(RC)D
MN@[O#6Q\R1Gb#6^M$GNRMC,064758.00,A,0419.87656,S,05539.91413,E,0.052,,020625,,,D*78
$GNVTG,,T,,M,0.052,N,0.096,K,D*30
$GNGNS,064758.00,0419.87656,S,05539.91413,E,DA,14,0.94,17.8,-47.6,,0000*64
$GNGGA,064758.00,0419.87656,S,05539.91413,E,2,12,0.94,17.8,M,-47.6,M,,0000*4E
$GNGSA,A,3,05,12,15,13,23,24,25,29,40,,,,1.61,0.94,1.31*1B
$GNGSA,A,3,78,66,67,79,65,,,,,,,,1.61,0.94,1.31*17
$GPGSV,4,1,16,05,21,029,29,10,22,217,22,12,63,138,36,13,11,088,31*71
$GPGSV,4,2,16,15,44,111,40,18,27,312,,23,63,230,24,24,24,161,22*70
$GPGSV,4,3,16,25,79,317,30,28,10,274,,29,22,002,23,36,52,277,*74
$GPGSV,4,4,16,40,86,351,35,41,58,082,36,49,32,274,,50,10,089,*7A
$GLGSV,3,1,09,65,06,044,32,66,40,082,37,67,41,162,30,68,07,199,*6A
$GLGSV,3,2,09,77,20,164,,78,64,228,26,79,35,310,19,81,07,348,*6E
$GLGSV,3,3,09,82,04,305,*54
$GNGLL,0419.87656,S,05539.91413,E,064758.00,A,D*65
$GNGRS,064758.00,1,3.0,3.5,-2.2,3.8,2.6,3.4,-2.6,-15.4,20.0,,,*50
$GNGRS,064758.00,1,-1.7,-3.4,-2.9,7.9,8.8,,,,,,,*5F
$GNGST,064758.00,1096,,,,4.6,5.1,8.0*41
$GNZDA,064758.00,02,06,2025,00,00*71
$GNGBS,064758.00,4.6,5.1,8.0,,,,*59
$GNTXT,01,01,01,More than 100 frame errors, UART RX was disabled*70
b0@h'X
$?x#X+,oL8?O,"O=0
{4$V_&:R 
Y|A,B(RC)D
MN@O#6Q\R1]bh'67$GNRMC,064759.00,A,0419.87655,S,05539.91416,E,0.203,,020625,,,D*79
$GNVTG,,T,,M,0.203,N,0.376,K,D*3B
$GNGNS,064759.00,0419.87655,S,05539.91416,E,DA,14,0.94,17.7,-47.6,,0000*6C
$GNGGA,064759.00,0419.87655,S,05539.91416,E,2,12,0.94,17.7,M,-47.6,M,,0000*46
$GNGSA,A,3,05,12,15,13,23,24,25,29,40,,,,1.61,0.94,1.31*1B
$GNGSA,A,3,78,66,67,79,65,,,,,,,,1.61,0.94,1.31*17
$GPGSV,4,1,16,05,21,029,25,10,22,217,23,12,63,138,36,13,11,088,35*78
$GPGSV,4,2,16,15,44,111,43,18,27,312,,23,63,230,25,24,24,161,23*73
$GPGSV,4,3,16,25,79,317,34,28,10,274,,29,22,002,22,36,52,277,*71
$GPGSV,4,4,16,40,86,351,36,41,58,082,38,49,32,274,,50,10,089,*77
$GLGSV,3,1,09,65,06,044,29,66,40,082,29,67,41,162,30,68,07,199,*6F
$GLGSV,3,2,09,77,20,164,,78,64,228,25,79,35,310,19,81,07,348,*6D
$GLGSV,3,3,09,82,04,305,*54
$GNGLL,0419.87655,S,05539.91416,E,064759.00,A,D*62
$GNGRS,064759.00,1,0.9,-1.4,-1.8,-0.7,3.4,3.0,-4.6,-15.3,20.2,,,*59
$GNGRS,064759.00,1,-1.1,-3.1,-5.5,8.0,6.4,,,,,,,*52
$GNGST,064759.00,1096,,,,4.6,5.1,7.9*46
$GNZDA,064759.00,02,06,2025,00,00*70
$GNGBS,064759.00,4.6,5.1,7.9,,,,*5E
$GNTXT,01,01,01,More than 100 frame errors, UART RX was disabled*70
b0@P+
?XB&,oh8? O=
{{4!V_$:R 
Y|A ,B(RZC)D
MN@3O#6Q\R1fbP+6$GNRMC,064800.00,A,0419.87655,S,05539.91410,E,0.151,,020625,,,D*78
$GNVTG,,T,,M,0.151,N,0.279,K,D*31
$GNGNS,064800.00,0419.87655,S,05539.91410,E,DA,14,0.94,17.4,-47.6,,0000*6A
$GNGGA,064800.00,0419.87655,S,05539.91410,E,2,12,0.94,17.4,M,-47.6,M,,0000*40
$GNGSA,A,3,05,12,15,13,23,24,25,29,40,,,,1.61,0.94,1.31*1B
$GNGSA,A,3,78,66,67,79,65,,,,,,,,1.61,0.94,1.31*17
$GPGSV,4,1,16,05,21,029,22,10,22,217,26,12,63,138,30,13,11,088,30*79
$GPGSV,4,2,16,15,44,111,38,18,27,312,,23,63,230,26,24,24,161,21*7E
$GPGSV,4,3,16,25,79,317,32,28,10,274,,29,22,002,22,36,52,277,*77
$GPGSV,4,4,16,40,86,351,33,41,58,082,36,49,32,274,,50,10,089,*7C
$GLGSV,3,1,09,65,06,044,32,66,40,082,28,67,41,162,22,68,07,199,*67
$GLGSV,3,2,09,77,20,164,,78,64,228,23,79,35,310,18,81,07,348,*6A
$GLGSV,3,3,09,82,04,305,*54
$GNGLL,0419.87655,S,05539.91410,E,064800.00,A,D*67
$GNGRS,064800.00,1,-3.6,2.0,-1.5,0.7,4.2,2.0,-3.1,-14.1,19.9,,,*73
$GNGRS,064800.00,1,-2.1,3.5,-5.7,6.9,11.8,,,,,,,*44
$GNGST,064800.00,1096,,,,4.5,5.0,7.9*47
$GNZDA,064800.00,02,06,2025,00,00*73
$GNGBS,064800.00,4.5,5.0,7.9,,,,*5F
$GNTXT,01,01,01,More than 100 frame errors, UART RX was disabled*70
b0@8/
?X*,o9? O=
N{4$V_&:R 
Y|A!,B!(RC)D
MN@O#6Q\R1]b8/6
$GNRMC,064801.00,A,0419.87643,S,05539.91418,E,0.259,,020625,,,D*7D
$GNVTG,,T,,M,0.259,N,0.480,K,D*3A
$GNGNS,064801.00,0419.87643,S,05539.91418,E,DA,13,0.97,17.4,-47.6,,0000*60
$GNGGA,064801.00,0419.87643,S,05539.91418,E,2,12,0.97,17.4,M,-47.6,M,,0000*4D
$GNGSA,A,3,12,15,13,23,24,25,29,40,,,,,1.63,0.97,1.31*1F
$GNGSA,A,3,78,66,67,79,65,,,,,,,,1.63,0.97,1.31*16
$GPGSV,4,1,16,05,21,029,,10,22,217,27,12,63,138,23,13,11,088,30*7A
$GPGSV,4,2,16,15,44,111,42,18,27,313,,23,63,230,26,24,24,161,18*78
$GPGSV,4,3,16,25,79,317,32,28,10,274,,29,22,002,20,36,52,277,*75
$GPGSV,4,4,16,40,86,351,36,41,58,082,38,49,32,274,,50,10,089,*77
$GLGSV,3,1,09,65,06,044,33,66,40,082,33,67,41,162,22,68,07,199,*6C
$GLGSV,3,2,09,77,20,164,,78,64,228,22,79,35,310,18,81,07,348,*6B
$GLGSV,3,3,09,82,04,305,*54
$GNGLL,0419.87643,S,05539.91418,E,064801.00,A,D*69
$GNGRS,064801.00,1,4.8,-0.9,4.1,4.7,-0.4,-3.2,-14.6,20.2,,,,*5E
$GNGRS,064801.00,1,-2.6,4.6,-3.8,6.4,9.6,,,,,,,*75
$GNGST,064801.00,1138,,,,4.6,5.0,7.9*40
$GNZDA,064801.00,02,06,2025,00,00*72
$GNGBS,064801.00,4.6,5.0,7.9,,,,*5D
$GNTXT,01,01,01,More than 100 frame errors, UART RX was disabled*70
b0@ 3
?"X),o9?\O=A
{4!V_$:R 
Y|A!,B!(RC)ND
MN@LO#6Q\R1b 36u$GNRMC,064802.00,A,0419.87626,S,05539.91427,E,0.122,,020625,,,D*7E
$GNVTG,,T,,M,0.122,N,0.227,K,D*3E
$GNGNS,064802.00,0419.87626,S,05539.91427,E,DA,13,0.97,17.5,-47.6,,0000*6D
$GNGGA,064802.00,0419.87626,S,05539.91427,E,2,12,0.97,17.5,M,-47.6,M,,0000*40
$GNGSA,A,3,12,15,13,23,24,25,29,40,,,,,1.63,0.97,1.31*1F
$GNGSA,A,3,78,66,67,79,65,,,,,,,,1.63,0.97,1.31*16
$GPGSV,4,1,16,05,21,029,22,10,22,217,27,12,63,138,26,13,11,088,34*7B
$GPGSV,4,2,16,15,44,111,41,18,27,313,,23,63,230,25,24,24,161,18*78
$GPGSV,4,3,16,25,79,317,29,28,10,274,,29,22,002,17,36,52,277,*7B
$GPGSV,4,4,16,40,86,351,33,41,58,082,36,49,32,274,,50,10,089,*7C
$GLGSV,3,1,09,65,06,044,33,66,40,082,33,67,41,162,25,68,07,199,*6B
$GLGSV,3,2,09,77,20,164,,78,64,228,23,79,35,310,20,81,07,348,*61
$GLGSV,3,3,09,82,04,305,*54
$GNGLL,0419.87626,S,05539.91427,E,064802.00,A,D*65
$GNGRS,064802.00,1,-2.8,-0.3,4.1,2.0,-1.6,-1.9,-12.8,20.1,,,,*7C
$GNGRS,064802.00,1,-1.8,9.9,-12.0,4.0,12.0,,,,,,,*7B
$GNGST,064802.00,1138,,,,4.6,5.0,8.0*45
$GNZDA,064802.00,02,06,2025,00,00*71
$GNGBS,064802.00,4.6,5.0,8.0,,,,*58
$GNTXT,01,01,01,More than 100 frame errors, UART RX was disabled*70
b0@7
?"X*,o9?IUO=
{4 V_&:R 
Y|A!,=B (RC )cD
MN@O#6Q\R1-b76]W$GNRMC,064803.00,A,0419.87605,S,05539.91438,E,0.084,,020625,,,D*7D
$GNVTG,,T,,M,0.084,N,0.156,K,D*36
$GNGNS,064803.00,0419.87605,S,05539.91438,E,DA,13,0.97,17.8,-47.6,,0000*6E
$GNGGA,064803.00,0419.87605,S,05539.91438,E,2,12,0.97,17.8,M,-47.6,M,,0000*43
$GNGSA,A,3,12,15,13,23,24,25,29,40,,,,,1.63,0.97,1.31*1F
$GNGSA,A,3,78,66,67,79,65,,,,,,,,1.63,0.97,1.31*16
$GPGSV,4,1,16,05,21,029,21,10,22,217,27,12,63,138,31,13,11,088,34*7E
$GPGSV,4,2,16,15,44,111,42,18,27,313,,23,63,230,26,24,24,161,19*79
$GPGSV,4,3,16,25,79,317,29,28,10,274,,29,22,002,17,36,52,277,*7B
$GPGSV,4,4,16,40,86,351,32,41,58,082,38,49,32,274,,50,10,089,*73
$GLGSV,3,1,09,65,06,044,33,66,40,082,32,67,41,162,32,68,07,199,*6C
$GLGSV,3,2,09,77,20,164,,78,64,228,24,79,35,310,20,81,07,348,*66
$GLGSV,3,3,09,82,04,305,*54
$GNGLL,0419.87605,S,05539.91438,E,064803.00,A,D*6B
$GNGRS,064803.00,1,-0.5,-0.3,1.5,0.7,0.9,-0.4,-13.1,20.4,,,,*54
$GNGRS,064803.00,1,-0.8,10.2,-11.8,4.0,10.9,,,,,,,*48
$GNGST,064803.00,1138,,,,4.6,4.9,7.9*4A
$GNZDA,064803.00,02,06,2025,00,00*70
$GNGBS,064803.00,4.6,4.9,7.9,,,,*57
$GNTXT,01,01,01,More than 100 frame errors, UART RX was disabled*70
b0@:
 ?~X[+,o
9?O=>
{4$V_":R 
Y|A$,B (RC)WDMN@O#66Q\R1\b:6En$GNRMC,064804.00,A,0419.87597,S,05539.91441,E,0.030,,020625,,,D*73
$GNVTG,,T,,M,0.030,N,0.056,K,D*38
$GNGNS,064804.00,0419.87597,S,05539.91441,E,DA,13,0.97,17.7,-47.6,,0000*60
$GNGGA,064804.00,0419.87597,S,05539.91441,E,2,12,0.97,17.7,M,-47.6,M,,0000*4D
$GNGSA,A,3,12,15,13,23,24,25,29,40,,,,,1.63,0.97,1.31*1F
$GNGSA,A,3,78,66,67,79,65,,,,,,,,1.63,0.97,1.31*16
$GPGSV,4,1,16,05,21,029,,10,22,217,27,12,63,138,32,13,11,088,30*7A
$GPGSV,4,2,16,15,44,111,43,18,27,313,,23,63,230,27,24,24,161,17*77
$GPGSV,4,3,16,25,79,317,30,28,10,274,,29,22,002,21,36,52,277,*76
$GPGSV,4,4,16,40,86,351,36,41,58,082,34,49,32,274,,50,10,089,*7B
$GLGSV,3,1,09,65,06,044,36,66,40,082,32,67,41,162,27,68,07,199,*6D
$GLGSV,3,2,09,77,20,164,,78,64,228,24,79,35,310,19,81,07,348,*6C
$GLGSV,3,3,09,82,04,305,*54
$GNGLL,0419.87597,S,05539.91441,E,064804.00,A,D*6A
$GNGRS,064804.00,1,-1.3,-0.4,-1.7,-3.1,-2.7,-1.9,-11.5,20.4,,,,*7F
$GNGRS,064804.00,1,-0.5,5.3,-9.4,3.1,9.8,,,,,,,*7D
$GNGST,064804.00,1138,,,,4.6,4.9,7.9*4D
$GNZDA,064804.00,02,06,2025,00,00*77
$GNGBS,064804.00,4.6,4.9,7.9,,,,*50
$GNTXT,01,01,01,More than 100 frame errors, UART RX was disabled*70
b0@>
?K X(,o
9@O=R
{4$V_#:R 
Y|A",NB!(RmC)DMN@"O#6Q\R1;b>6-F$GNRMC,064805.00,A,0419.87585,S,05539.91452,E,0.165,,020625,,,D*72
$GNVTG,,T,,M,0.165,N,0.306,K,D*3F
$GNGNS,064805.00,0419.87585,S,05539.91452,E,DA,13,0.97,18.0,-47.6,,0000*68
$GNGGA,064805.00,0419.87585,S,05539.91452,E,2,12,0.97,18.0,M,-47.6,M,,0000*45
$GNGSA,A,3,12,15,13,23,24,25,29,40,,,,,1.63,0.97,1.31*1F
$GNGSA,A,3,78,66,67,79,65,,,,,,,,1.63,0.97,1.31*16
$GPGSV,4,1,16,05,21,029,,10,22,217,26,12,63,138,30,13,11,088,32*7B
$GPGSV,4,2,16,15,44,111,40,18,27,313,,23,64,231,28,24,24,161,15*7F
$GPGSV,4,3,16,25,79,317,29,28,10,274,,29,22,002,21,36,52,277,*7E
$GPGSV,4,4,16,40,86,351,36,41,58,082,35,49,32,274,,50,10,089,*7A
$GLGSV,3,1,09,65,06,044,34,66,40,082,33,67,41,162,26,68,07,199,*6F
$GLGSV,3,2,09,77,20,164,,78,64,228,24,79,35,310,18,81,07,348,*6D
$GLGSV,3,3,09,82,04,305,*54
$GNGLL,0419.87585,S,05539.91452,E,064805.00,A,D*6A
$GNGRS,064805.00,1,-4.4,-0.4,-3.6,-0.2,-7.8,-6.9,-10.9,20.6,,,,*7D
$GNGRS,064805.00,1,0.3,1.1,-10.2,1.8,8.5,,,,,,,*68
$GNGST,064805.00,1137,,,,4.5,4.8,7.9*41
$GNZDA,064805.00,02,06,2025,00,00*76
$GNGBS,064805.00,4.5,4.8,7.9,,,,*53
$GNTXT,01,01,01,More than 100 frame errors, UART RX was disabled*70
b0@B
?P X(,o
9@\O=
y{4!V_$:R 
Y|A!,B (R3C)DMN@SO#6hQ\R1sbB6$GNRMC,064806.00,A,0419.87574,S,05539.91458,E,0.112,,020625,,,D*75
$GNVTG,,T,,M,0.112,N,0.207,K,D*3F
$GNGNS,064806.00,0419.87574,S,05539.91458,E,DA,13,0.97,18.2,-47.6,,0000*6D
$GNGGA,064806.00,0419.87574,S,05539.91458,E,2,12,0.97,18.2,M,-47.6,M,,0000*40
$GNGSA,A,3,12,15,13,23,24,25,29,40,,,,,1.63,0.97,1.31*1F
$GNGSA,A,3,78,66,67,79,65,,,,,,,,1.63,0.97,1.31*16
$GPGSV,4,1,16,05,21,029,,10,22,217,26,12,63,138,30,13,11,088,32*7B
$GPGSV,4,2,16,15,44,111,40,18,27,313,,23,64,231,28,24,24,161,14*7E
$GPGSV,4,3,16,25,79,317,29,28,10,274,,29,22,002,22,36,52,277,*7D
$GPGSV,4,4,16,40,86,351,33,41,58,082,36,49,32,274,,50,10,089,*7C
$GLGSV,3,1,09,65,06,044,33,66,40,082,32,67,41,162,27,68,07,199,*68
$GLGSV,3,2,09,77,20,164,,78,64,228,22,79,35,310,18,81,07,348,*6B
$GLGSV,3,3,09,82,04,305,*54
$GNGLL,0419.87574,S,05539.91458,E,064806.00,A,D*6D
$GNGRS,064806.00,1,-1.8,0.2,-3.0,-2.3,-9.3,0.1,-9.0,20.5,,,,*4D
$GNGRS,064806.00,1,0.8,0.5,-12.7,1.0,9.1,,,,,,,*6F
$GNGST,064806.00,1138,,,,4.5,4.8,7.9*4D
$GNZDA,064806.00,02,06,2025,00,00*75
$GNGBS,064806.00,4.5,4.8,7.9,,,,*50
$GNTXT,01,01,01,More than 100 frame errors, UART RX was disabled*70
b0@F
?a$X8*,o
9@YO:
0{4!V_%:R 
Y|A!,B!(RC)DMN@O#6+Q\R1qbF6!$GNRMC,064807.00,A,0419.87562,S,05539.91464,E,0.158,,020625,,,D*72
$GNVTG,,T,,M,0.158,N,0.293,K,D*3C
$GNGNS,064807.00,0419.87562,S,05539.91464,E,DA,13,0.97,18.4,-47.6,,0000*62
$GNGGA,064807.00,0419.87562,S,05539.91464,E,2,12,0.97,18.4,M,-47.6,M,,0000*4F
$GNGSA,A,3,12,15,13,23,24,25,29,40,,,,,1.63,0.97,1.31*1F
$GNGSA,A,3,78,66,67,79,65,,,,,,,,1.63,0.97,1.31*16
$GPGSV,4,1,16,05,21,029,,10,22,217,26,12,63,138,31,13,11,088,36*7E
$GPGSV,4,2,16,15,44,111,42,18,27,313,,23,64,231,28,24,24,161,16*7E
$GPGSV,4,3,16,25,79,314,28,28,10,274,,29,22,002,20,36,52,277,*7D
$GPGSV,4,4,16,40,86,351,33,41,58,082,37,49,32,274,,50,10,089,*7D
$GLGSV,3,1,09,65,06,044,33,66,40,082,33,67,41,162,28,68,07,199,*66
$GLGSV,3,2,09,77,20,164,,78,64,228,22,79,35,310,17,81,07,348,*64
$GLGSV,3,3,09,82,04,305,*54
$GNGLL,0419.87562,S,05539.91464,E,064807.00,A,D*64
$GNGRS,064807.00,1,1.0,0.3,-2.0,-1.7,-10.3,0.0,-9.8,20.8,,,,*52
$GNGRS,064807.00,1,0.3,-0.3,-16.3,0.4,9.4,,,,,,,*4E
$GNGST,064807.00,1138,,,,4.5,4.8,7.9*4C
$GNZDA,064807.00,02,06,2025,00,00*74
$GNGBS,064807.00,4.5,4.8,7.9,,,,*51
$GNTXT,01,01,01,More than 100 frame errors, UART RX was disabled*70
b0@J
?=$Xg*,o3
9@O:
N{4#V_#:R 
Y|A!,B (RCC)~DMN@O#6sQ\R1bJ6%M$GNRMC,064808.00,A,0419.87555,S,05539.91459,E,0.006,,020625,,,D*7D
$GNVTG,,T,,M,0.006,N,0.011,K,D*3E
$GNGNS,064808.00,0419.87555,S,05539.91459,E,DA,13,0.97,18.4,-47.6,,0000*67
$GNGGA,064808.00,0419.87555,S,05539.91459,E,2,12,0.97,18.4,M,-47.6,M,,0000*4A
$GNGSA,A,3,12,15,13,23,24,25,29,40,,,,,1.63,0.97,1.31*1F
$GNGSA,A,3,78,66,67,79,65,,,,,,,,1.63,0.97,1.31*16
$GPGSV,4,1,16,05,21,029,,10,22,217,27,12,63,138,31,13,11,088,36*7F
$GPGSV,4,2,16,15,44,111,42,18,27,313,,23,64,231,28,24,24,161,15*7D
$GPGSV,4,3,16,25,79,314,28,28,10,274,,29,22,002,19,36,52,277,*77
$GPGSV,4,4,16,40,86,351,35,41,58,082,35,49,32,274,,50,10,089,*79
$GLGSV,3,1,09,65,06,044,33,66,40,082,32,67,41,162,29,68,07,199,*66
$GLGSV,3,2,09,77,20,164,,78,64,228,22,79,35,310,17,81,07,348,*64
$GLGSV,3,3,09,82,04,305,*54
$GNGLL,0419.87555,S,05539.91459,E,064808.00,A,D*61
$GNGRS,064808.00,1,0.6,0.5,-1.5,9.6,-10.4,0.1,-9.5,20.6,,,,*7B
$GNGRS,064808.00,1,1.5,-1.9,-11.5,1.2,9.4,,,,,,,*4B
$GNGST,064808.00,1138,,,,4.5,4.8,7.8*42
$GNZDA,064808.00,02,06,2025,00,00*7B
$GNGBS,064808.00,4.5,4.8,7.8,,,,*5F
$GNTXT,01,01,01,More than 100 frame errors, UART RX was disabled*70
b0@xN
?l"Xt*,o3
9@O:
{4$V_%:R 
Y|A ,B (RC)DMN@O#6Q\R1bxN6)$GNRMC,064809.00,A,0419.87543,S,05539.91460,E,0.124,,020625,,,D*70
$GNVTG,,T,,M,0.124,N,0.230,K,D*3E
$GNGNS,064809.00,0419.87543,S,05539.91460,E,DA,13,0.97,18.6,-47.6,,0000*69
$GNGGA,064809.00,0419.87543,S,05539.91460,E,2,12,0.97,18.6,M,-47.6,M,,0000*44
$GNGSA,A,3,12,15,13,23,24,25,29,40,,,,,1.63,0.97,1.31*1F
$GNGSA,A,3,78,66,67,79,65,,,,,,,,1.63,0.97,1.31*16
$GPGSV,4,1,16,05,21,029,,10,22,217,27,12,63,138,31,13,11,088,34*7D
$GPGSV,4,2,16,15,44,111,42,18,27,313,,23,64,231,27,24,24,161,13*74
$GPGSV,4,3,16,25,79,314,29,28,10,274,,29,22,002,20,36,52,277,*7C
$GPGSV,4,4,16,40,86,351,36,41,58,082,37,49,32,274,,50,10,089,*78
$GLGSV,3,1,09,65,06,044,32,66,40,082,32,67,41,162,28,68,07,199,*66
$GLGSV,3,2,09,77,20,164,,78,64,228,22,79,35,310,16,81,07,348,*65
$GLGSV,3,3,09,82,04,305,*54
$GNGLL,0419.87543,S,05539.91460,E,064809.00,A,D*6D
$GNGRS,064809.00,1,-4.0,0.5,-1.4,10.5,-10.2,1.5,-8.4,20.5,,,,*6F
$GNGRS,064809.00,1,2.8,4.1,-10.9,-0.8,9.4,,,,,,,*4F
$GNGST,064809.00,1138,,,,4.5,4.7,7.8*4C
$GNZDA,064809.00,02,06,2025,00,00*7A
$GNGBS,064809.00,4.5,4.7,7.8,,,,*51
$GNTXT,01,01,01,More than 100 frame errors, UART RX was disabled*70
b0@`R%
?R$X
(,oH
9@O:
i{4!V_%:R 
Y|A!,B!(RRC)DMN@O#64Q\R1b`R6-}$GNRMC,064810.00,A,0419.87530,S,05539.91460,E,0.141,,020625,,,D*7F
$GNVTG,,T,,M,0.141,N,0.262,K,D*3A
$GNGNS,064810.00,0419.87530,S,05539.91460,E,DA,13,0.97,18.8,-47.6,,0000*6B
$GNGGA,064810.00,0419.87530,S,05539.91460,E,2,12,0.97,18.8,M,-47.6,M,,0000*46
$GNGSA,A,3,12,15,13,23,24,25,29,40,,,,,1.63,0.97,1.31*1F
$GNGSA,A,3,78,66,67,79,65,,,,,,,,1.63,0.97,1.31*16
$GPGSV,4,1,16,05,21,029,26,10,22,217,28,12,63,138,31,13,11,088,36*74
$GPGSV,4,2,16,15,44,111,40,18,27,313,,23,64,231,28,24,24,161,13*79
$GPGSV,4,3,16,25,79,314,28,28,10,274,,29,22,002,21,36,52,277,*7C
$GPGSV,4,4,16,40,86,351,33,41,58,082,37,49,32,274,,50,10,089,*7D
$GLGSV,3,1,09,65,06,044,33,66,40,082,33,67,41,162,31,68,07,199,*6E
$GLGSV,3,2,09,77,20,164,,78,64,228,23,79,35,310,19,81,07,348,*6B
$GLGSV,3,3,09,82,04,305,*54
$GNGLL,0419.87530,S,05539.91460,E,064810.00,A,D*61
$GNGRS,064810.00,1,3.4,0.7,-2.5,7.1,-8.5,-0.3,-6.6,20.4,,,,*62
$GNGRS,064810.00,1,2.4,0.8,-10.8,-2.0,6.9,,,,,,,*4F
$GNGST,064810.00,1137,,,,4.5,4.7,7.8*4B
$GNZDA,064810.00,02,06,2025,00,00*72
$GNGBS,064810.00,4.5,4.7,7.8,,,,*59
$GNTXT,01,01,01,More than 100 frame errors, UART RX was disabled*70
b0@HV
#?&"X),oI
9@9AO:
{4 V_$:R 
Y|A!,B (RC )DMN@O#6}Q\R16bHV61U$GNRMC,064811.00,A,0419.87519,S,05539.91463,E,0.074,,020625,,,D*71
$GNVTG,,T,,M,0.074,N,0.137,K,D*3E
$GNGNS,064811.00,0419.87519,S,05539.91463,E,DA,13,0.97,18.9,-47.6,,0000*63
$GNGGA,064811.00,0419.87519,S,05539.91463,E,2,12,0.97,18.9,M,-47.6,M,,0000*4E
$GNGSA,A,3,12,15,13,23,24,25,29,40,,,,,1.63,0.97,1.31*1F
$GNGSA,A,3,78,66,67,79,65,,,,,,,,1.63,0.97,1.31*16
$GPGSV,4,1,16,05,21,029,24,10,22,217,26,12,63,138,35,13,11,088,34*7E
$GPGSV,4,2,16,15,44,111,41,18,27,313,,23,64,231,27,24,24,161,13*77
$GPGSV,4,3,16,25,79,314,26,28,10,274,,29,22,002,20,36,52,277,*73
$GPGSV,4,4,16,40,86,351,32,41,58,082,36,49,32,274,,50,10,089,*7D
$GLGSV,3,1,09,65,06,044,33,66,40,082,32,67,41,162,32,68,07,199,*6C
$GLGSV,3,2,09,77,20,164,,78,64,228,22,79,35,310,19,81,07,348,*6A
$GLGSV,3,3,09,82,04,305,*54
$GNGLL,0419.87519,S,05539.91463,E,064811.00,A,D*68
$GNGRS,064811.00,1,0.4,0.7,-2.6,5.7,-7.0,-1.2,-6.1,19.8,,,,*6C
$GNGRS,064811.00,1,2.8,-0.4,-11.2,-3.9,7.1,,,,,,,*69
$GNGST,064811.00,1138,,,,4.5,4.6,7.8*44
$GNZDA,064811.00,02,06,2025,00,00*73
$GNGBS,064811.00,4.5,4.6,7.8,,,,*59
$GNTXT,01,01,01,More than 100 frame errors, UART RX was disabled*70
b0@0Zp
#? X),oF
9@#O:
2{4V_$:R 
Y|A ,B(RC)DMN@O#6`Q\R1b0Z65-$GNRMC,064812.00,A,0419.87502,S,05539.91473,E,0.062,,020625,,,D*7E
$GNVTG,,T,,M,0.062,N,0.115,K,D*39
$GNGNS,064812.00,0419.87502,S,05539.91473,E,DA,14,0.94,19.3,-47.6,,0000*64
$GNGGA,064812.00,0419.87502,S,05539.91473,E,2,12,0.94,19.3,M,-47.6,M,,0000*4E
$GNGSA,A,3,05,12,15,13,23,24,25,29,40,,,,1.61,0.94,1.31*1B
$GNGSA,A,3,78,66,67,79,65,,,,,,,,1.61,0.94,1.31*17
$GPGSV,4,1,16,05,21,029,23,10,22,217,24,12,63,138,35,13,11,088,32*7D
$GPGSV,4,2,16,15,44,111,41,18,27,313,,23,64,231,28,24,24,161,16*7D
$GPGSV,4,3,16,25,79,314,27,28,10,274,,29,22,002,18,36,52,277,*79
$GPGSV,4,4,16,40,86,351,31,41,58,082,36,49,32,274,,50,10,089,*7E
$GLGSV,3,1,09,65,06,044,32,66,40,082,26,67,41,162,31,68,07,199,*6B
$GLGSV,3,2,09,77,20,164,,78,64,228,23,79,35,310,17,81,07,348,*65
$GLGSV,3,3,09,82,04,305,*54
$GNGLL,0419.87502,S,05539.91473,E,064812.00,A,D*60
$GNGRS,064812.00,1,6.2,-1.2,0.7,-2.7,5.5,-7.4,-3.6,-9.7,19.4,,,*6B
$GNGRS,064812.00,1,2.6,0.0,-13.8,-4.2,12.1,,,,,,,*7D
$GNGST,064812.00,1097,,,,4.5,4.6,7.8*43
$GNZDA,064812.00,02,06,2025,00,00*70
$GNGBS,064812.00,4.5,4.6,7.8,,,,*5A
$GNTXT,01,01,01,More than 100 frame errors, UART RX was disabled*70
b0@^;
 ?$X+,o
9@eO:=
{4!V_#:R 
Y|A,\B$(RC)gDMN@O#6Q\R1S0b^6m9U$GNRMC,064813.00,A,0419.87490,S,05539.91475,E,0.028,,020625,,,D*7D
$GNVTG,,T,,M,0.028,N,0.051,K,D*36
$GNGNS,064813.00,0419.87490,S,05539.91475,E,DA,14,0.94,19.5,-47.6,,0000*6F
$GNGGA,064813.00,0419.87490,S,05539.91475,E,2,12,0.94,19.5,M,-47.6,M,,0000*45
$GNGSA,A,3,05,12,15,13,23,24,25,29,40,,,,1.61,0.94,1.31*1B
$GNGSA,A,3,78,66,67,79,65,,,,,,,,1.61,0.94,1.31*17
$GPGSV,4,1,16,05,21,029,22,10,22,217,24,12,63,138,32,13,11,088,36*7F
$GPGSV,4,2,16,15,44,111,43,18,27,313,,23,64,231,28,24,24,161,16*7F
$GPGSV,4,3,16,25,79,314,28,28,10,274,,29,22,002,15,36,52,277,*7B
$GPGSV,4,4,16,40,86,351,33,41,58,082,35,49,32,274,,50,10,089,*7F
$GLGSV,3,1,09,65,06,044,31,66,40,082,36,67,41,162,30,68,07,199,*68
$GLGSV,3,2,09,77,20,164,,78,64,228,23,79,35,310,15,81,07,348,*67
$GLGSV,3,3,09,82,04,305,*54
$GNGLL,0419.87490,S,05539.91475,E,064813.00,A,D*6D
$GNGRS,064813.00,1,10.8,-2.5,0.1,-2.7,6.1,-7.9,-2.0,-11.0,19.5,,,*67
$GNGRS,064813.00,1,2.4,-0.7,-11.8,-3.7,11.2,,,,,,,*54
$GNGST,064813.00,1097,,,,4.5,4.6,7.7*4D
$GNZDA,064813.00,02,06,2025,00,00*71
$GNGBS,064813.00,4.5,4.6,7.7,,,,*54
$GNTXT,01,01,01,More than 100 frame errors, UART RX was disabled*70
b0@b
%?#X,,o
9@sO:/
]{4$V_&:R 
Y|A,B"(RGC)DMN@O#6Q\R1bb6U=$GNRMC,064814.00,A,0419.87481,S,05539.91475,E,0.077,,020625,,,D*70
$GNVTG,,T,,M,0.077,N,0.142,K,D*3F
$GNGNS,064814.00,0419.87481,S,05539.91475,E,DA,13,0.97,19.6,-47.6,,0000*6F
$GNGGA,064814.00,0419.87481,S,05539.91475,E,2,12,0.97,19.6,M,-47.6,M,,0000*42
$GNGSA,A,3,12,15,13,23,24,25,29,40,,,,,1.63,0.97,1.31*1F
$GNGSA,A,3,78,66,67,79,65,,,,,,,,1.63,0.97,1.31*16
$GPGSV,4,1,16,05,21,029,23,10,22,217,26,12,63,138,37,13,11,088,35*7A
$GPGSV,4,2,16,15,44,111,44,18,27,313,,23,64,231,28,24,24,161,19*77
$GPGSV,4,3,16,25,79,314,29,28,10,274,,29,22,002,17,36,52,277,*78
$GPGSV,4,4,16,40,86,351,36,41,58,082,38,49,32,274,,50,10,089,*77
$GLGSV,3,1,09,65,06,044,31,66,40,082,34,67,41,162,31,68,07,199,*6B
$GLGSV,3,2,09,77,20,164,,78,64,228,25,79,35,310,16,81,07,348,*62
$GLGSV,3,3,09,82,04,305,*54
$GNGLL,0419.87481,S,05539.91475,E,064814.00,A,D*6A
$GNGRS,064814.00,1,-0.1,-0.3,-3.1,3.7,-5.0,-2.1,-14.4,19.7,,,,*53
$GNGRS,064814.00,1,2.1,-4.4,-10.5,-3.8,12.0,,,,,,,*53
$GNGST,064814.00,1138,,,,4.5,4.6,7.7*4E
$GNZDA,064814.00,02,06,2025,00,00*76
$GNGBS,064814.00,4.5,4.6,7.7,,,,*53
$GNTXT,01,01,01,More than 100 frame errors, UART RX was disabled*70
b0@eG
%?"X*,o
9@O:
{4!V_(:R 
Y|A,B(R*C)DMN@'O#6Q\R13be6=A$GNRMC,064815.00,A,0419.87468,S,05539.91483,E,0.103,,020625,,,D*7D
$GNVTG,,T,,M,0.103,N,0.190,K,D*32
$GNGNS,064815.00,0419.87468,S,05539.91483,E,DA,14,0.94,19.9,-47.6,,0000*6B
$GNGGA,064815.00,0419.87468,S,05539.91483,E,2,12,0.94,19.9,M,-47.6,M,,0000*41
$GNGSA,A,3,05,12,15,13,23,24,25,29,40,,,,1.61,0.94,1.31*1B
$GNGSA,A,3,78,66,67,79,65,,,,,,,,1.61,0.94,1.31*17
$GPGSV,4,1,16,05,21,029,25,10,22,217,28,12,63,138,37,13,11,088,34*73
$GPGSV,4,2,16,15,44,111,42,18,27,313,,23,64,231,31,24,24,161,19*79
$GPGSV,4,3,16,25,79,314,30,28,10,274,,29,22,002,18,36,52,277,*7F
$GPGSV,4,4,16,40,86,351,33,41,58,082,40,49,32,274,,50,10,089,*7D
$GLGSV,3,1,09,65,06,044,30,66,40,082,31,67,41,162,30,68,07,199,*6E
$GLGSV,3,2,09,77,20,164,,78,64,228,26,79,35,310,16,81,07,348,*61
$GLGSV,3,3,09,82,04,305,*54
$GNGLL,0419.87468,S,05539.91483,E,064815.00,A,D*65
$GNGRS,064815.00,1,0.7,-0.2,-0.1,-5.7,1.3,-4.9,-3.1,-15.8,19.4,,,*7B
$GNGRS,064815.00,1,2.9,3.0,-13.9,-6.4,12.3,,,,,,,*71
$GNGST,064815.00,1096,,,,4.4,4.5,7.6*49
$GNZDA,064815.00,02,06,2025,00,00*77
$GNGBS,064815.00,4.4,4.5,7.6,,,,*51
$GNTXT,01,01,01,More than 100 frame errors, UART RX was disabled*70
b0@i
#?-X*,o
9 @!O:5
{4$V_&:R 
Y|A,B#(RC)DMN@O#6Q\R10bi6%E~$GNRMC,064816.00,A,0419.87461,S,05539.91489,E,0.042,,020625,,,D*79
$GNVTG,,T,,M,0.042,N,0.078,K,D*31
$GNGNS,064816.00,0419.87461,S,05539.91489,E,DA,14,0.94,20.1,-47.6,,0000*69
$GNGGA,064816.00,0419.87461,S,05539.91489,E,2,12,0.94,20.1,M,-47.6,M,,0000*43
$GNGSA,A,3,05,12,15,13,23,24,25,29,40,,,,1.61,0.94,1.31*1B
$GNGSA,A,3,78,66,67,79,65,,,,,,,,1.61,0.94,1.31*17
$GPGSV,4,1,16,05,21,029,25,10,22,217,28,12,63,138,35,13,11,088,28*7C
$GPGSV,4,2,16,15,44,111,42,18,27,313,,23,64,231,32,24,24,161,21*71
$GPGSV,4,3,16,25,79,314,33,28,10,274,,29,22,002,21,36,52,277,*76
$GPGSV,4,4,16,40,86,351,36,41,58,082,38,49,32,274,,50,10,089,*77
$GLGSV,3,1,09,65,06,044,29,66,40,082,35,67,41,162,25,68,07,199,*66
$GLGSV,3,2,09,77,20,164,,78,64,228,26,79,35,310,19,81,07,348,*6E
$GLGSV,3,3,09,82,04,305,*54
$GNGLL,0419.87461,S,05539.91489,E,064816.00,A,D*65
$GNGRS,064816.00,1,2.1,0.5,-0.5,-0.6,1.9,-2.3,-2.0,-14.1,19.8,,,*54
$GNGRS,064816.00,1,3.9,4.7,-16.3,-5.2,12.8,,,,,,,*72
$GNGST,064816.00,1096,,,,4.4,4.5,7.6*4A
$GNZDA,064816.00,02,06,2025,00,00*74
$GNGBS,064816.00,4.4,4.5,7.6,,,,*52
$GNTXT,01,01,01,More than 100 frame errors, UART RX was disabled*70
b0Lm
 ?X),o
9@O:
{4!V_':R 
Y|A,B&(RC )yDMN@O#6Q\R1WT}bm6Id$GNRMC,064817.00,A,0419.87436,S,05539.91492,E,0.491,,020625,,,D*7A
$GNVTG,,T,,M,0.491,N,0.909,K,D*34
$GNGNS,064817.00,0419.87436,S,05539.91492,E,DA,14,0.94,20.5,-47.6,,0000*64
$GNGGA,064817.00,0419.87436,S,05539.91492,E,2,12,0.94,20.5,M,-47.6,M,,0000*4E
$GNGSA,A,3,05,12,15,13,23,24,25,29,40,,,,1.61,0.94,1.31*1B
$GNGSA,A,3,78,66,67,79,65,,,,,,,,1.61,0.94,1.31*17
$GPGSV,4,1,16,05,21,029,24,10,22,217,27,12,63,138,32,13,11,088,28*75
$GPGSV,4,2,16,15,44,111,41,18,27,313,,23,64,231,26,24,24,161,22*74
$GPGSV,4,3,16,25,79,314,21,28,10,274,,29,22,002,22,36,52,277,*76
$GPGSV,4,4,16,40,86,351,33,41,58,082,39,49,32,274,,50,10,089,*73
$GLGSV,3,1,09,65,06,044,29,66,40,082,38,67,41,162,32,68,07,199,*6D
$GLGSV,3,2,09,77,20,164,,78,64,228,24,79,35,310,20,81,07,348,*66
$GLGSV,3,3,09,82,04,305,*54
$GNGLL,0419.87436,S,05539.91492,E,064817.00,A,D*6C
$GNGRS,064817.00,1,-8.6,1.3,-0.3,1.8,2.8,-0.5,-0.7,-13.0,19.4,,,*5F
$GNGRS,064817.00,1,2.8,2.6,-11.6,-6.4,14.7,,,,,,,*7A
$GNGST,064817.00,1096,,,,4.4,4.4,7.6*4A
$GNZDA,064817.00,02,06,2025,00,00*75
$GNGBS,064817.00,4.4,4.4,7.6,,,,*52
$GNTXT,01,01,01,More than 100 frame errors, UART RX was disabled*70
b0Lq
%?{X*,o
9@@O:O
{4$V_):R 
Y|A,B (RRC )DMN@O#6Q\R1WT+bq6L;K$GNRMC,064818.00,A,0419.87427,S,05539.91502,E,0.318,,020625,,,D*7B
$GNVTG,,T,,M,0.318,N,0.589,K,D*36
$GNGNS,064818.00,0419.87427,S,05539.91502,E,DA,14,0.94,20.7,-47.6,,0000*61
$GNGGA,064818.00,0419.87427,S,05539.91502,E,2,12,0.94,20.7,M,-47.6,M,,0000*4B
$GNGSA,A,3,05,12,15,13,23,24,25,29,40,,,,1.62,0.94,1.31*18
$GNGSA,A,3,78,66,67,79,65,,,,,,,,1.62,0.94,1.31*14
$GPGSV,4,1,16,05,21,029,25,10,22,217,27,12,63,138,37,13,11,088,27*7E
$GPGSV,4,2,16,15,44,111,42,18,27,313,,23,64,231,25,24,24,161,25*73
$GPGSV,4,3,16,25,79,314,23,28,10,274,,29,22,002,22,36,52,277,*74
$GPGSV,4,4,16,40,86,351,36,41,58,082,41,49,32,274,,50,10,089,*79
$GLGSV,3,1,09,65,06,044,30,66,40,082,32,67,41,162,32,68,07,199,*6F
$GLGSV,3,2,09,77,20,164,,78,64,228,22,79,35,310,18,81,07,348,*6B
$GLGSV,3,3,09,82,04,305,*54
$GNGLL,0419.87427,S,05539.91502,E,064818.00,A,D*6B
