$GNTXT,01,01,01,More than 100 frame errors, UART RX was disabled*70
b0Lp<q
S!_nN$.Au=VP

-{4!V_:R 
YeDyEIUO-P?PSST#UbpU
}$GNRMC,043643.00,A,0419.85742,S,05539.66450,E,0.882,,280525,,,D*71
$GNVTG,,T,,M,0.882,N,1.633,K,D*3D
$GNGNS,043643.00,0419.85742,S,05539.66450,E,DA,10,0.99,23.0,-47.6,,0000*65
$GNGGA,043643.00,0419.85742,S,05539.66450,E,2,10,0.99,23.0,M,-47.6,M,,0000*49
$GNGSA,A,3,24,05,20,11,15,12,18,,,,,,2.04,0.99,1.78*1B
$GNGSA,A,3,79,80,83,,,,,,,,,,2.04,0.99,1.78*19
$GPGSV,5,1,18,05,60,127,27,11,21,020,22,12,33,002,22,13,19,155,20*7F
$GPGSV,5,2,18,14,02,130,,15,28,190,16,18,23,233,23,20,46,065,36*7E
$GPGSV,5,3,18,22,16,117,,23,02,213,,24,61,239,25,25,11,336,*7A
$GPGSV,5,4,18,29,10,301,10,36,52,277,,40,86,351,33,41,58,082,*77
$GPGSV,5,5,18,49,32,274,,50,10,089,*78
$GLGSV,2,1,08,68,13,121,,69,17,170,,73,14,341,,79,45,131,23*65
$GLGSV,2,2,08,80,63,021,28,83,30,339,23,84,35,271,,85,06,229,*65
$GNGLL,0419.85742,S,05539.66450,E,043643.00,A,D*62
$GNGRS,043643.00,1,-6.8,-9.1,-0.1,-6.9,10.2,0.9,-1.8,,,,,*6E
$GNGRS,043643.00,1,4.7,0.8,2.0,,,,,,,,,*71
$GNGST,043643.00,22753,,,,4.6,4.3,11*55
$GNZDA,043643.00,28,05,2025,00,00*74
$GNGBS,043643.00,4.6,4.3,11.5,,,,*69
$GNTXT,01,01,01,More than 100 frame errors, UART RX was disabled*70
b0Lp<
!An$.Au=WP
-{4!V_:R 
YeDyEIUO-P"?SST#U8bpU
en3$GNRMC,043644.00,A,0419.85740,S,05539.66451,E,0.091,,280525,,,D*7F
$GNVTG,,T,,M,0.091,N,0.168,K,D*3F
$GNGNS,043644.00,0419.85740,S,05539.66451,E,DA,10,0.99,23.1,-47.6,,0000*60
$GNGGA,043644.00,0419.85740,S,05539.66451,E,2,10,0.99,23.1,M,-47.6,M,,0000*4C
$GNGSA,A,3,24,05,20,11,15,12,18,,,,,,2.04,0.99,1.78*1B
$GNGSA,A,3,79,80,83,,,,,,,,,,2.04,0.99,1.78*19
$GPGSV,5,1,18,05,60,127,27,11,21,020,23,12,33,002,22,13,19,155,19*74
$GPGSV,5,2,18,14,02,130,,15,28,190,19,18,23,233,22,20,46,065,36*70
$GPGSV,5,3,18,22,16,117,,23,02,213,,24,61,239,27,25,11,336,*78
$GPGSV,5,4,18,29,10,301,09,36,52,277,,40,86,351,33,41,58,082,*7F
$GPGSV,5,5,18,49,32,274,,50,10,089,*78
$GLGSV,2,1,08,68,13,121,,69,17,170,,73,14,341,,79,45,131,22*64
$GLGSV,2,2,08,80,63,021,34,83,30,339,23,84,35,271,,85,06,229,*68
$GNGLL,0419.85740,S,05539.66451,E,043644.00,A,D*66
$GNGRS,043644.00,1,-9.4,-7.6,-0.4,-5.8,9.2,3.2,0.2,,,,,*72
$GNGRS,043644.00,1,6.8,6.9,2.2,,,,,,,,,*7E
$GNGST,043644.00,38,,,,4.6,4.3,12*6B
$GNZDA,043644.00,28,05,2025,00,00*73
$GNGBS,043644.00,4.6,4.3,11.5,,,,*6E
$GNTXT,01,01,01,More than 100 frame errors, UART RX was disabled*70
b0Lp<
?!p4&&.Au=(P

-${4"V_:R 
YeDyEIUO-~P#?SSuT#U#jbpU
MF$GNRMC,043645.00,A,0419.85728,S,05539.66438,E,0.135,,280525,,,D*70
$GNVTG,,T,,M,0.135,N,0.250,K,D*38
$GNGNS,043645.00,0419.85728,S,05539.66438,E,DA,11,0.94,23.2,-47.6,,0000*6F
$GNGGA,043645.00,0419.85728,S,05539.66438,E,2,11,0.94,23.2,M,-47.6,M,,0000*43
$GNGSA,A,3,24,05,20,11,15,12,18,29,,,,,1.91,0.94,1.67*1C
$GNGSA,A,3,79,80,83,,,,,,,,,,1.91,0.94,1.67*15
$GPGSV,5,1,18,05,60,127,28,11,21,020,24,12,33,002,22,13,19,155,19*7C
$GPGSV,5,2,18,14,02,130,,15,28,190,23,18,23,233,22,20,46,065,38*77
$GPGSV,5,3,18,22,16,117,,23,02,213,,24,61,239,28,25,11,336,*77
$GPGSV,5,4,18,29,10,301,10,36,52,277,,40,86,351,34,41,58,082,*70
$GPGSV,5,5,18,49,32,274,,50,10,089,*78
$GLGSV,2,1,08,68,13,121,,69,17,170,,73,14,341,,79,45,131,23*65
$GLGSV,2,2,08,80,63,021,35,83,30,339,25,84,35,271,,85,06,229,*6F
$GNGLL,0419.85728,S,05539.66438,E,043645.00,A,D*66
$GNGRS,043645.00,1,-7.3,-6.1,-0.3,-7.0,8.2,4.7,0.4,66.9,,,,*63
$GNGRS,043645.00,1,6.4,7.7,3.7,,,,,,,,,*78
$GNGST,043645.00,48,,,,4.6,4.2,11*6F
$GNZDA,043645.00,28,05,2025,00,00*72
$GNGBS,043645.00,4.6,4.2,11.4,,,,*6F
$GNTXT,01,01,01,More than 100 frame errors, UART RX was disabled*70
b0Lp <
!oH%.Au=CP
-{4!V_:R 
YeDyEIUO-zP"?eSS1T#UhbpU
5$GNRMC,043646.00,A,0419.85720,S,05539.66432,E,0.077,,280525,,,D*76
$GNVTG,,T,,M,0.077,N,0.143,K,D*3E
$GNGNS,043646.00,0419.85720,S,05539.66432,E,DA,11,0.94,23.6,-47.6,,0000*6A
$GNGGA,043646.00,0419.85720,S,05539.66432,E,2,11,0.94,23.6,M,-47.6,M,,0000*46
$GNGSA,A,3,24,05,20,11,15,12,18,29,,,,,1.91,0.94,1.67*1C
$GNGSA,A,3,79,80,83,,,,,,,,,,1.91,0.94,1.67*15
$GPGSV,5,1,18,05,60,127,32,11,21,020,24,12,33,002,18,13,19,155,18*7F
$GPGSV,5,2,18,14,02,130,,15,28,190,23,18,23,233,23,20,46,065,37*79
$GPGSV,5,3,18,22,16,117,,23,02,213,,24,61,239,30,25,11,336,*7E
$GPGSV,5,4,18,29,10,301,12,36,52,277,,40,86,351,33,41,58,082,*75
$GPGSV,5,5,18,49,32,274,,50,10,089,*78
$GLGSV,2,1,08,68,13,121,,69,17,170,,73,14,341,,79,45,131,21*67
$GLGSV,2,2,08,80,63,021,34,83,30,339,25,84,35,271,,85,06,229,*6E
$GNGLL,0419.85720,S,05539.66432,E,043646.00,A,D*67
$GNGRS,043646.00,1,-1.9,-5.9,-0.2,-7.9,5.8,4.8,2.3,22.4,,,,*6F
$GNGRS,043646.00,1,8.9,6.1,5.6,,,,,,,,,*78
$GNGST,043646.00,3586708,,,,4.5,4.2,11*54
$GNZDA,043646.00,28,05,2025,00,00*71
$GNGBS,043646.00,4.5,4.2,11.4,,,,*6F
$GNTXT,01,01,01,More than 100 frame errors, UART RX was disabled*70
b0Lhp <
!Go+%.Au =P
-{4!V_:R 
YeDyEIUO-P"?SST#U bhpU
 k$GNRMC,043647.00,A,0419.85715,S,05539.66423,E,0.108,,280525,,,D*78
$GNVTG,,T,,M,0.108,N,0.199,K,D*30
$GNGNS,043647.00,0419.85715,S,05539.66423,E,DA,11,0.94,23.7,-47.6,,0000*6C
$GNGGA,043647.00,0419.85715,S,05539.66423,E,2,11,0.94,23.7,M,-47.6,M,,0000*40
$GNGSA,A,3,24,05,20,11,15,12,18,29,,,,,1.91,0.94,1.67*1C
$GNGSA,A,3,79,80,83,,,,,,,,,,1.91,0.94,1.67*15
$GPGSV,5,1,18,05,60,127,32,11,21,020,24,12,33,002,15,13,19,155,18*72
$GPGSV,5,2,18,14,02,130,,15,28,190,23,18,23,233,24,20,46,065,37*7E
$GPGSV,5,3,18,22,16,117,,23,02,213,,24,61,239,32,25,11,336,*7C
$GPGSV,5,4,18,29,10,301,11,36,52,277,,40,86,351,33,41,58,082,*76
$GPGSV,5,5,18,49,32,274,,50,10,089,*78
$GLGSV,2,1,08,68,13,121,,69,17,170,,73,14,341,,79,45,131,21*67
$GLGSV,2,2,08,80,63,021,34,83,30,339,26,84,35,271,,85,06,229,*6D
$GNGLL,0419.85715,S,05539.66423,E,043647.00,A,D*60
$GNGRS,043647.00,1,1.3,-5.1,0.0,-7.9,5.6,3.3,1.6,22.3,,,,*6D
$GNGRS,043647.00,1,10.5,5.3,4.4,,,,,,,,,*4E
$GNGST,043647.00,3586708,,,,4.5,4.2,11*55
$GNZDA,043647.00,28,05,2025,00,00*70
$GNGBS,043647.00,4.5,4.2,11.4,,,,*6E
$GNTXT,01,01,01,More than 100 frame errors, UART RX was disabled*70
b0LPp!<V
!tn%.Au!=P

->{4!V_:R 
YeDyEIUO-P"?SSS7T#UbPpU
$$GNRMC,043648.00,A,0419.85716,S,05539.66415,E,0.038,,280525,,,D*73
$GNVTG,,T,,M,0.038,N,0.071,K,D*35
$GNGNS,043648.00,0419.85716,S,05539.66415,E,DA,11,0.94,23.8,-47.6,,0000*6A
$GNGGA,043648.00,0419.85716,S,05539.66415,E,2,11,0.94,23.8,M,-47.6,M,,0000*46
$GNGSA,A,3,24,05,20,11,15,12,18,29,,,,,1.91,0.94,1.67*1C
$GNGSA,A,3,79,80,83,,,,,,,,,,1.91,0.94,1.67*15
$GPGSV,5,1,18,05,60,127,33,11,21,020,24,12,33,002,14,13,19,155,18*72
$GPGSV,5,2,18,14,02,130,,15,28,190,23,18,23,233,25,20,46,065,37*7F
$GPGSV,5,3,18,22,16,117,,23,02,213,,24,61,239,33,25,11,336,*7D
$GPGSV,5,4,18,29,10,301,10,36,52,277,,40,86,351,33,41,58,082,*77
$GPGSV,5,5,18,49,32,274,,50,10,089,*78
$GLGSV,2,1,08,68,13,121,,69,17,170,20,73,14,341,,79,45,131,21*65
$GLGSV,2,2,08,80,63,021,34,83,30,339,27,84,35,271,,85,06,229,*6C
$GNGLL,0419.85716,S,05539.66415,E,043648.00,A,D*69
$GNGRS,043648.00,1,1.5,-1.7,-0.1,-6.1,5.4,4.1,-0.1,-9.6,,,,*7E
$GNGRS,043648.00,1,12.8,5.9,0.5,,,,,,,,,*41
$GNGST,043648.00,50,,,,4.4,4.1,11*6A
$GNZDA,043648.00,28,05,2025,00,00*7F
$GNGBS,043648.00,4.4,4.1,11.2,,,,*65
$GNTXT,01,01,01,More than 100 frame errors, UART RX was disabled*70
b0L8p!<(
!o&.Au"=GP
-{4$V_:R 
YeDyEIUO-(P"?SS`T#Ub8pU
'8$GNRMC,043649.00,A,0419.85712,S,05539.66413,E,0.133,,280525,,,D*7A
$GNVTG,,T,,M,0.133,N,0.246,K,D*39
$GNGNS,043649.00,0419.85712,S,05539.66413,E,DA,11,0.99,23.6,-47.6,,0000*6A
$GNGGA,043649.00,0419.85712,S,05539.66413,E,2,11,0.99,23.6,M,-47.6,M,,0000*46
$GNGSA,A,3,24,05,20,11,15,12,18,29,,,,,2.04,0.99,1.78*10
$GNGSA,A,3,79,80,83,,,,,,,,,,2.04,0.99,1.78*19
$GPGSV,5,1,18,05,60,127,33,11,21,020,24,12,33,002,13,13,19,155,17*7A
$GPGSV,5,2,18,14,02,130,,15,28,190,23,18,23,233,25,20,46,065,38*70
$GPGSV,5,3,18,22,16,117,,23,02,213,,24,61,239,34,25,11,336,21*79
$GPGSV,5,4,18,29,10,301,12,36,52,277,,40,86,351,36,41,58,082,*70
$GPGSV,5,5,18,49,32,274,,50,10,089,*78
$GLGSV,2,1,08,68,13,121,,69,17,170,19,73,14,341,,79,45,131,23*6D
$GLGSV,2,2,08,80,63,021,34,83,30,339,27,84,35,271,,85,06,229,*6C
$GNGLL,0419.85712,S,05539.66413,E,043649.00,A,D*6A
$GNGRS,043649.00,1,-1.9,-2.2,0.2,-4.8,3.9,1.7,-0.2,21.9,,,,*6E
$GNGRS,043649.00,1,13.2,5.2,1.0,,,,,,,,,*44
$GNGST,043649.00,94803,,,,4.4,4.0,11*59
$GNZDA,043649.00,28,05,2025,00,00*7E
$GNGBS,043649.00,4.4,4.0,11.1,,,,*66
$GNTXT,01,01,01,More than 100 frame errors, UART RX was disabled*70
b0L p!<
!ng&.Au"=LP
-m{4#V_:R 
YeDyEIUO-P"?SST#Upb pU
+}$GNRMC,043650.00,A,0419.85705,S,05539.66413,E,0.063,,280525,,,D*70
$GNVTG,,T,,M,0.063,N,0.116,K,D*3B
$GNGNS,043650.00,0419.85705,S,05539.66413,E,DA,11,0.99,23.4,-47.6,,0000*66
$GNGGA,043650.00,0419.85705,S,05539.66413,E,2,11,0.99,23.4,M,-47.6,M,,0000*4A
$GNGSA,A,3,24,05,20,11,15,12,18,29,,,,,2.04,0.99,1.78*10
$GNGSA,A,3,79,80,83,,,,,,,,,,2.04,0.99,1.78*19
$GPGSV,5,1,18,05,60,127,33,11,21,020,24,12,33,002,12,13,19,155,16*7A
$GPGSV,5,2,18,14,02,130,,15,28,190,24,18,23,233,27,20,46,065,38*75
$GPGSV,5,3,18,22,16,117,,23,02,213,,24,61,239,34,25,11,336,19*72
$GPGSV,5,4,18,29,10,301,13,36,52,277,,40,86,351,35,41,58,082,*72
$GPGSV,5,5,18,49,32,274,,50,10,089,*78
$GLGSV,2,1,08,68,13,121,,69,17,170,16,73,14,341,,79,45,131,24*65
$GLGSV,2,2,08,80,63,021,34,83,30,339,27,84,35,271,,85,06,229,*6C
$GNGLL,0419.85705,S,05539.66413,E,043650.00,A,D*64
$GNGRS,043650.00,1,-4.4,-3.3,-0.1,-6.2,3.6,1.4,2.2,21.6,,,,*64
$GNGRS,043650.00,1,15.1,7.5,2.0,,,,,,,,,*4F
$GNGST,043650.00,94803,,,,4.3,3.9,11*58
$GNZDA,043650.00,28,05,2025,00,00*76
$GNGBS,043650.00,4.3,3.9,10.9,,,,*6E
$GNTXT,01,01,01,More than 100 frame errors, UART RX was disabled*70
b0Lp"<~
!Po&.Au"=P

-{4"V_:R 
YeDyEIUO-P"?*SST#UbpU
/U$GNRMC,043651.00,A,0419.85694,S,05539.66408,E,0.030,,280525,,,D*74
$GNVTG,,T,,M,0.030,N,0.055,K,D*3B
$GNGNS,043651.00,0419.85694,S,05539.66408,E,DA,11,0.97,23.3,-47.6,,0000*6D
$GNGGA,043651.00,0419.85694,S,05539.66408,E,2,11,0.97,23.3,M,-47.6,M,,0000*41
$GNGSA,A,3,24,05,20,11,15,12,18,29,,,,,1.93,0.97,1.67*1D
$GNGSA,A,3,79,80,83,,,,,,,,,,1.93,0.97,1.67*14
$GPGSV,5,1,18,05,60,126,34,11,21,020,25,12,33,002,15,13,19,155,18*74
$GPGSV,5,2,18,14,02,130,,15,28,190,24,18,23,233,27,20,46,065,38*75
$GPGSV,5,3,18,22,16,117,,23,02,213,,24,61,239,34,25,11,336,19*72
$GPGSV,5,4,18,29,10,301,10,36,52,277,,40,86,351,34,41,58,082,*70
$GPGSV,5,5,18,49,32,274,,50,10,089,*78
$GLGSV,2,1,08,68,13,121,,69,17,170,15,73,14,341,,79,45,131,24*66
$GLGSV,2,2,08,80,63,021,34,83,30,339,27,84,35,271,,85,06,229,*6C
$GNGLL,0419.85694,S,05539.66408,E,043651.00,A,D*66
$GNGRS,043651.00,1,-2.6,-5.5,-0.1,-3.7,0.0,42.8,5.2,4.7,,,,*6E
$GNGRS,043651.00,1,15.0,8.1,2.9,,,,,,,,,*4D
$GNGST,043651.00,44,,,,4.2,3.8,11*6F
$GNZDA,043651.00,28,05,2025,00,00*77
$GNGBS,043651.00,4.2,3.8,10.7,,,,*61
$GNTXT,01,01,01,More than 100 frame errors, UART RX was disabled*70
b0Lp!<~6
!ioG<&.Au"=P
-{4"V_:R 
YeDyEIUO-P"?0SST#UFbpU
3,a$GNRMC,043652.00,A,0419.85687,S,05539.66406,E,0.066,,280525,,,D*78
$GNVTG,,T,,M,0.066,N,0.123,K,D*38
$GNGNS,043652.00,0419.85687,S,05539.66406,E,DA,11,0.99,23.4,-47.6,,0000*6B
$GNGGA,043652.00,0419.85687,S,05539.66406,E,2,11,0.99,23.4,M,-47.6,M,,0000*47
$GNGSA,A,3,24,05,20,11,15,12,18,29,,,,,2.04,0.99,1.78*10
$GNGSA,A,3,79,80,83,,,,,,,,,,2.04,0.99,1.78*19
$GPGSV,5,1,18,05,60,126,33,11,21,020,24,12,33,002,17,13,19,155,18*70
$GPGSV,5,2,18,14,02,130,,15,28,190,23,18,23,233,28,20,46,065,38*7D
$GPGSV,5,3,18,22,16,117,,23,02,213,,24,61,239,34,25,11,336,19*72
$GPGSV,5,4,18,29,10,301,07,36,52,277,,40,86,351,34,41,58,082,*76
$GPGSV,5,5,18,49,32,274,,50,10,089,*78
$GLGSV,2,1,08,68,13,121,,69,17,170,13,73,14,341,,79,45,131,24*60
$GLGSV,2,2,08,80,63,021,34,83,30,339,27,84,35,271,,85,06,229,*6C
$GNGLL,0419.85687,S,05539.66406,E,043652.00,A,D*69
$GNGRS,043652.00,1,-2.9,-4.6,-0.2,-5.7,0.7,11.3,3.2,22.1,,,,*5B
$GNGRS,043652.00,1,14.1,8.2,2.1,,,,,,,,,*45
$GNGST,043652.00,3761771,,,,4.2,3.8,11*5E
$GNZDA,043652.00,28,05,2025,00,00*74
$GNGBS,043652.00,4.2,3.8,10.5,,,,*60
$GNTXT,01,01,01,More than 100 frame errors, UART RX was disabled*70
b0Lp!<~
!blpJ&.Au"=UP
-{4"V_:R 
YeDyEIUO-P"?SST#UbpU
7$GNRMC,043653.00,A,0419.85681,S,05539.66402,E,0.043,,280525,,,D*7C
$GNVTG,,T,,M,0.043,N,0.080,K,D*37
$GNGNS,043653.00,0419.85681,S,05539.66402,E,DA,11,0.99,23.6,-47.6,,0000*6A
$GNGGA,043653.00,0419.85681,S,05539.66402,E,2,11,0.99,23.6,M,-47.6,M,,0000*46
$GNGSA,A,3,24,05,20,11,15,12,18,29,,,,,2.04,0.99,1.78*10
$GNGSA,A,3,79,80,83,,,,,,,,,,2.04,0.99,1.78*19
$GPGSV,5,1,18,05,60,126,33,11,21,020,23,12,33,002,08,13,19,155,18*79
$GPGSV,5,2,18,14,02,130,,15,28,190,22,18,23,233,28,20,46,065,38*7C
$GPGSV,5,3,18,22,16,117,,23,02,213,,24,61,239,34,25,11,336,18*73
$GPGSV,5,4,18,29,10,301,09,36,52,277,,40,86,351,34,41,58,082,*78
$GPGSV,5,5,18,49,32,274,,50,10,089,*78
$GLGSV,2,1,08,68,13,121,,69,17,170,14,73,14,341,,79,45,131,24*67
$GLGSV,2,2,08,80,63,021,34,83,30,339,27,84,35,271,,85,06,229,*6C
$GNGLL,0419.85681,S,05539.66402,E,043653.00,A,D*6A
$GNGRS,043653.00,1,-1.7,-5.1,-0.4,-5.1,0.7,11.2,1.5,21.9,,,,*5E
$GNGRS,043653.00,1,15.0,7.9,0.0,,,,,,,,,*43
$GNGST,043653.00,3761771,,,,4.1,3.7,10*52
$GNZDA,043653.00,28,05,2025,00,00*75
$GNGBS,043653.00,4.1,3.7,10.4,,,,*6C
$GNTXT,01,01,01,More than 100 frame errors, UART RX was disabled*70
b0Lp!<~
@
!
p/J'.Au#=P
-{4#V_:R 
YeDyEIUO-P!?SST#UbpU
u;1$GNRMC,043654.00,A,0419.85675,S,05539.66400,E,0.049,,280525,,,D*78
$GNVTG,,T,,M,0.049,N,0.090,K,D*3C
$GNGNS,043654.00,0419.85675,S,05539.66400,E,DA,11,1.02,23.5,-47.6,,0000*64
$GNGGA,043654.00,0419.85675,S,05539.66400,E,2,11,1.02,23.5,M,-47.6,M,,0000*48
$GNGSA,A,3,24,05,20,11,15,12,18,29,,,,,2.05,1.02,1.78*12
$GNGSA,A,3,79,80,83,,,,,,,,,,2.05,1.02,1.78*1B
$GPGSV,5,1,18,05,60,126,33,11,21,020,23,12,33,002,10,13,19,155,16*7E
$GPGSV,5,2,18,14,02,130,,15,28,190,22,18,23,233,28,20,46,065,39*7D
$GPGSV,5,3,18,22,16,117,,23,02,213,,24,61,239,35,25,11,336,17*7D
$GPGSV,5,4,18,29,10,301,11,36,52,277,,40,86,351,35,41,58,082,*70
$GPGSV,5,5,18,49,32,274,,50,10,089,*78
$GLGSV,2,1,08,68,13,121,,69,17,170,15,73,14,341,,79,45,131,23*61
$GLGSV,2,2,08,80,63,021,33,83,30,339,27,84,35,271,,85,06,229,*6B
$GNGLL,0419.85675,S,05539.66400,E,043654.00,A,D*64
$GNGRS,043654.00,1,-2.5,-5.0,-0.3,-4.5,0.5,25.7,3.3,-87.8,,,,*7F
$GNGRS,043654.00,1,14.7,7.8,0.0,,,,,,,,,*43
$GNGST,043654.00,30,,,,4.1,3.6,10*65
$GNZDA,043654.00,28,05,2025,00,00*72
$GNGBS,043654.00,4.1,3.6,10.2,,,,*6C
$GNTXT,01,01,01,More than 100 frame errors, UART RX was disabled*70
b0Lp!<~=
h!j'.Au#=P
-{4"V_:R 
YeDyEIUO-P!?SST#U~bpU
]?$GNRMC,043655.00,A,0419.85666,S,05539.66396,E,0.161,,280525,,,D*78
$GNVTG,,T,,M,0.161,N,0.298,K,D*3D
$GNGNS,043655.00,0419.85666,S,05539.66396,E,DA,11,0.99,23.4,-47.6,,0000*6D
$GNGGA,043655.00,0419.85666,S,05539.66396,E,2,11,0.99,23.4,M,-47.6,M,,0000*41
$GNGSA,A,3,24,05,20,11,15,12,18,29,,,,,2.04,0.99,1.78*10
$GNGSA,A,3,79,80,83,,,,,,,,,,2.04,0.99,1.78*19
$GPGSV,5,1,18,05,60,126,33,11,21,020,23,12,33,002,11,13,19,155,16*7F
$GPGSV,5,2,18,14,02,130,,15,28,190,22,18,23,233,28,20,46,065,39*7D
$GPGSV,5,3,18,22,16,117,,23,02,213,,24,61,239,35,25,11,336,16*7C
$GPGSV,5,4,18,29,10,301,15,36,52,277,,40,86,351,34,41,58,082,*75
$GPGSV,5,5,18,49,32,274,,50,10,089,*78
$GLGSV,2,1,08,68,13,121,,69,17,170,14,73,14,341,,79,45,131,23*60
$GLGSV,2,2,08,80,63,021,33,83,30,339,26,84,35,271,,85,06,229,*6A
$GNGLL,0419.85666,S,05539.66396,E,043655.00,A,D*6F
$GNGRS,043655.00,1,-2.8,-4.5,-0.5,-4.1,0.0,11.3,4.4,22.1,,,,*58
$GNGRS,043655.00,1,14.3,7.5,0.2,,,,,,,,,*49
$GNGST,043655.00,189605,,,,4.0,3.5,10*66
$GNZDA,043655.00,28,05,2025,00,00*73
$GNGBS,043655.00,4.0,3.5,10.1,,,,*6C
$GNTXT,01,01,01,More than 100 frame errors, UART RX was disabled*70
b0Lp!<~B
L!`zqG&.Au#=P
-{4!V_:R 
YeDyEIUO-0P"?SST#UbpU
EC$GNRMC,043656.00,A,0419.85657,S,05539.66394,E,0.006,,280525,,,D*7B
$GNVTG,,T,,M,0.006,N,0.012,K,D*3D
$GNGNS,043656.00,0419.85657,S,05539.66394,E,DA,11,0.99,23.5,-47.6,,0000*6F
$GNGGA,043656.00,0419.85657,S,05539.66394,E,2,11,0.99,23.5,M,-47.6,M,,0000*43
$GNGSA,A,3,24,05,20,11,15,12,18,29,,,,,2.04,0.99,1.78*10
$GNGSA,A,3,79,80,83,,,,,,,,,,2.04,0.99,1.78*19
$GPGSV,5,1,18,05,60,126,33,11,21,020,22,12,33,002,11,13,19,155,15*7D
$GPGSV,5,2,18,14,02,130,,15,28,190,21,18,23,233,28,20,46,065,38*7F
$GPGSV,5,3,18,22,16,117,,23,02,213,,24,61,239,35,25,11,336,15*7F
$GPGSV,5,4,18,29,10,301,12,36,52,277,,40,86,351,33,41,58,082,*75
$GPGSV,5,5,18,49,32,274,,50,10,089,*78
$GLGSV,2,1,08,68,13,121,,69,17,170,15,73,14,341,,79,45,131,23*61
$GLGSV,2,2,08,80,63,021,34,83,30,339,27,84,35,271,,85,06,229,*6C
$GNGLL,0419.85657,S,05539.66394,E,043656.00,A,D*6C
$GNGRS,043656.00,1,-2.5,-4.5,-0.4,-1.8,0.7,11.2,1.7,22.1,,,,*5B
$GNGRS,043656.00,1,13.3,7.1,-0.1,,,,,,,,,*67
$GNGST,043656.00,3761771,,,,4.0,3.5,10*54
$GNZDA,043656.00,28,05,2025,00,00*70
$GNGBS,043656.00,4.0,3.5,10.0,,,,*6E
$GNTXT,01,01,01,More than 100 frame errors, UART RX was disabled*70
b0Lxp!<~L
!q(?&.Au#=P
-{4"V_:R 
YeDyEIUO-IP#?SSkT#UFdbxpU
-Gdi$GNRMC,043657.00,A,0419.85646,S,05539.66392,E,0.067,,280525,,,D*7B
$GNVTG,,T,,M,0.067,N,0.123,K,D*39
$GNGNS,043657.00,0419.85646,S,05539.66392,E,DA,11,0.99,23.6,-47.6,,0000*6B
$GNGGA,043657.00,0419.85646,S,05539.66392,E,2,11,0.99,23.6,M,-47.6,M,,0000*47
$GNGSA,A,3,24,05,20,11,15,12,18,29,,,,,2.04,0.99,1.78*10
$GNGSA,A,3,79,80,83,,,,,,,,,,2.04,0.99,1.78*19
$GPGSV,5,1,18,05,60,126,33,11,21,021,22,12,33,002,14,13,19,155,15*79
$GPGSV,5,2,18,14,02,130,,15,28,190,22,18,23,233,28,20,46,065,38*7C
$GPGSV,5,3,18,22,16,117,,23,02,213,,24,61,239,35,25,11,336,14*7E
$GPGSV,5,4,18,29,10,301,17,36,52,277,,40,86,351,34,41,58,082,*77
$GPGSV,5,5,18,49,32,274,,50,10,089,*78
$GLGSV,2,1,08,68,13,121,,69,17,170,16,73,14,341,,79,45,131,23*62
$GLGSV,2,2,08,80,63,021,35,83,30,339,27,84,35,271,,85,06,229,*6D
$GNGLL,0419.85646,S,05539.66392,E,043657.00,A,D*6B
$GNGRS,043657.00,1,-2.6,-4.4,-0.3,0.3,-2.2,19.2,0.6,-30.8,,,,*7D
$GNGRS,043657.00,1,16.1,6.9,-4.1,,,,,,,,,*6C
$GNGST,043657.00,39,,,,4.0,3.4,9.9*43
$GNZDA,043657.00,28,05,2025,00,00*71
$GNGBS,043657.00,4.0,3.4,9.9,,,,*5F
$GNTXT,01,01,01,More than 100 frame errors, UART RX was disabled*70
b0L`p!<~2
"r&.AZu#=P
-{4"V_:R 
YeDyEIUO-9P"?SS1T#U)b`pU
K<$GNRMC,043658.00,A,0419.85635,S,05539.66391,E,0.140,,280525,,,D*77
$GNVTG,,T,,M,0.140,N,0.259,K,D*33
$GNGNS,043658.00,0419.85635,S,05539.66391,E,DA,11,0.94,23.9,-47.6,,0000*61
$GNGGA,043658.00,0419.85635,S,05539.66391,E,2,11,0.94,23.9,M,-47.6,M,,0000*4D
$GNGSA,A,3,24,05,20,11,15,12,18,29,,,,,1.91,0.94,1.66*1D
$GNGSA,A,3,79,80,83,,,,,,,,,,1.91,0.94,1.66*14
$GPGSV,5,1,18,05,60,126,33,11,21,021,23,12,34,002,17,13,19,155,14*7D
$GPGSV,5,2,18,14,02,130,,15,28,190,21,18,23,233,28,20,46,065,38*7F
$GPGSV,5,3,18,22,16,117,,23,02,213,,24,61,239,35,25,11,336,13*79
$GPGSV,5,4,18,29,10,301,08,36,52,277,,40,86,351,34,41,58,082,*79
$GPGSV,5,5,18,49,32,274,,50,10,089,*78
$GLGSV,2,1,08,68,13,121,,69,17,170,16,73,14,341,,79,45,131,23*62
$GLGSV,2,2,08,80,63,021,34,83,30,339,27,84,35,271,,85,06,229,*6C
$GNGLL,0419.85635,S,05539.66391,E,043658.00,A,D*63
$GNGRS,043658.00,1,-2.6,-7.2,-1.7,1.6,-5.2,11.9,0.3,22.4,,,,*55
$GNGRS,043658.00,1,15.9,6.8,-4.6,,,,,,,,,*6E
$GNGST,043658.00,3588036,,,,3.9,3.4,9.8*7A
$GNZDA,043658.00,28,05,2025,00,00*7E
$GNGBS,043658.00,3.9,3.4,9.8,,,,*5F
$GNTXT,01,01,01,More than 100 frame errors, UART RX was disabled*70
b0LHp!<~?
H"0sH&.A_u#=P
-{4!V_:R 
YeDyEIUO-P!?SST#UbHpU
N6$GNRMC,043659.00,A,0419.85627,S,05539.66389,E,0.031,,280525,,,D*7B
$GNVTG,,T,,M,0.031,N,0.057,K,D*38
$GNGNS,043659.00,0419.85627,S,05539.66389,E,DA,11,0.94,24.0,-47.6,,0000*64
$GNGGA,043659.00,0419.85627,S,05539.66389,E,2,11,0.94,24.0,M,-47.6,M,,0000*48
$GNGSA,A,3,24,05,20,11,15,12,18,29,,,,,1.91,0.94,1.66*1D
$GNGSA,A,3,79,80,83,,,,,,,,,,1.91,0.94,1.66*14
$GPGSV,5,1,18,05,60,126,33,11,21,021,23,12,34,002,13,13,19,154,14*78
$GPGSV,5,2,18,14,02,130,,15,28,190,20,18,23,233,28,20,46,065,38*7E
$GPGSV,5,3,18,22,16,117,,23,02,213,,24,61,239,35,25,11,336,12*78
$GPGSV,5,4,18,29,10,301,13,36,52,277,,40,86,351,33,41,58,082,*74
$GPGSV,5,5,18,49,32,274,,50,10,089,*78
$GLGSV,2,1,08,68,13,121,,69,17,170,15,73,14,341,,79,45,131,23*61
$GLGSV,2,2,08,80,63,021,33,83,30,339,27,84,35,271,,85,06,229,*6B
$GNGLL,0419.85627,S,05539.66389,E,043659.00,A,D*68
$GNGRS,043659.00,1,-2.6,-7.0,-1.6,3.3,-5.2,11.9,0.7,22.4,,,,*54
$GNGRS,043659.00,1,19.3,6.8,-5.6,,,,,,,,,*68
$GNGST,043659.00,3589623,,,,3.9,3.3,9.7*70
$GNZDA,043659.00,28,05,2025,00,00*7F
$GNGBS,043659.00,3.9,3.3,9.7,,,,*56
$GNTXT,01,01,01,More than 100 frame errors, UART RX was disabled*70
b0L0p!<~N
{"Xt&.Acu#=P
-{4"V_:R 
YeDyEIUO-P ?SST#Upb0pU
R$GNRMC,043700.00,A,0419.85619,S,05539.66387,E,0.067,,280525,,,D*76
$GNVTG,,T,,M,0.067,N,0.123,K,D*39
$GNGNS,043700.00,0419.85619,S,05539.66387,E,DA,11,0.94,24.2,-47.6,,0000*68
$GNGGA,043700.00,0419.85619,S,05539.66387,E,2,11,0.94,24.2,M,-47.6,M,,0000*44
$GNGSA,A,3,24,05,20,11,15,12,18,29,,,,,1.91,0.94,1.66*1D
$GNGSA,A,3,79,80,83,,,,,,,,,,1.91,0.94,1.66*14
$GPGSV,5,1,18,05,60,126,33,11,21,021,23,12,34,002,12,13,19,154,14*79
$GPGSV,5,2,18,14,01,131,,15,28,190,21,18,23,233,29,20,46,065,38*7C
$GPGSV,5,3,18,22,16,117,,23,02,213,,24,61,239,35,25,11,336,13*79
$GPGSV,5,4,18,29,10,301,14,36,52,277,,40,86,351,34,41,58,082,*74
$GPGSV,5,5,18,49,32,274,,50,10,089,*78
$GLGSV,2,1,08,68,13,121,,69,17,170,12,73,14,341,,79,45,131,23*66
$GLGSV,2,2,08,80,63,021,32,83,30,339,26,84,35,271,,85,06,229,*6B
$GNGLL,0419.85619,S,05539.66387,E,043700.00,A,D*66
$GNGRS,043700.00,1,-2.7,-6.9,-1.6,3.8,-6.4,8.6,1.5,-49.2,,,,*4C
$GNGRS,043700.00,1,20.0,10.0,-6.4,,,,,,,,,*52
$GNGST,043700.00,56,,,,3.9,3.3,9.6*4F
$GNZDA,043700.00,28,05,2025,00,00*72
$GNGBS,043700.00,3.9,3.3,9.6,,,,*5A
$GNTXT,01,01,01,More than 100 frame errors, UART RX was disabled*70
b0Lp!<~g
("at&.Atu#=P
-{4"V_:R 
YeDyEIUO-P ?tSST#UM:bpU
V$GNRMC,043701.00,A,0419.85612,S,05539.66386,E,0.109,,280525,,,D*74
$GNVTG,,T,,M,0.109,N,0.202,K,D*30
$GNGNS,043701.00,0419.85612,S,05539.66386,E,DA,11,0.94,24.0,-47.6,,0000*61
$GNGGA,043701.00,0419.85612,S,05539.66386,E,2,11,0.94,24.0,M,-47.6,M,,0000*4D
$GNGSA,A,3,24,05,20,11,15,12,18,29,,,,,1.91,0.94,1.66*1D
$GNGSA,A,3,79,80,83,,,,,,,,,,1.91,0.94,1.66*14
$GPGSV,5,1,18,05,60,126,33,11,21,021,23,12,34,002,17,13,19,154,13*7B
$GPGSV,5,2,18,14,01,131,,15,28,189,21,18,23,233,28,20,46,065,38*75
$GPGSV,5,3,18,22,16,117,,23,02,213,,24,61,239,35,25,11,336,13*79
$GPGSV,5,4,18,29,10,301,13,36,52,277,,40,86,351,34,41,58,082,*73
$GPGSV,5,5,18,49,32,274,,50,10,089,*78
$GLGSV,2,1,08,68,13,121,,69,17,170,14,73,14,341,,79,45,131,23*60
$GLGSV,2,2,08,80,63,021,32,83,30,339,26,84,35,271,,85,06,229,*6B
$GNGLL,0419.85612,S,05539.66386,E,043701.00,A,D*6D
$GNGRS,043701.00,1,-2.6,-6.7,-1.4,3.0,-8.9,12.0,1.4,22.1,,,,*54
$GNGRS,043701.00,1,19.2,3.7,-5.3,,,,,,,,,*6A
$GNGST,043701.00,3586928,,,,3.9,3.3,9.5*75
$GNZDA,043701.00,28,05,2025,00,00*73
$GNGBS,043701.00,3.9,3.3,9.5,,,,*58
$GNTXT,01,01,01,More than 100 frame errors, UART RX was disabled*70
b0Lp <~
"&.AVu$=P
-{4"V_:R 
YeDyEIUO-P!?SSDT#UbpU
Zn$GNRMC,043702.00,A,0419.85612,S,05539.66389,E,0.076,,280525,,,D*71
$GNVTG,,T,,M,0.076,N,0.142,K,D*3E
$GNGNS,043702.00,0419.85612,S,05539.66389,E,DA,11,0.94,23.8,-47.6,,0000*62
$GNGGA,043702.00,0419.85612,S,05539.66389,E,2,11,0.94,23.8,M,-47.6,M,,0000*4E
$GNGSA,A,3,24,05,20,11,15,12,18,29,,,,,1.91,0.94,1.66*1D
$GNGSA,A,3,79,80,83,,,,,,,,,,1.91,0.94,1.66*14
$GPGSV,5,1,18,05,60,126,32,11,21,021,24,12,34,002,17,13,19,154,13*7D
$GPGSV,5,2,18,14,01,131,,15,28,189,22,18,23,233,28,20,46,065,38*76
$GPGSV,5,3,18,22,16,117,,23,02,213,,24,61,239,36,25,11,336,13*7A
$GPGSV,5,4,18,29,10,301,13,36,52,277,,40,86,351,34,41,58,082,*73
$GPGSV,5,5,18,49,32,274,,50,10,089,*78
$GLGSV,2,1,08,68,13,121,,69,17,170,14,73,14,341,,79,45,131,23*60
$GLGSV,2,2,08,80,63,021,33,83,30,339,27,84,35,271,,85,06,229,*6B
$GNGLL,0419.85612,S,05539.66389,E,043702.00,A,D*61
$GNGRS,043702.00,1,-2.8,-5.3,-1.7,5.3,-8.0,11.8,1.3,22.1,,,,*5D
$GNGRS,043702.00,1,21.9,0.0,-4.4,,,,,,,,,*6B
$GNGST,043702.00,3587174,,,,3.8,3.2,9.4*77
$GNZDA,043702.00,28,05,2025,00,00*70
$GNGBS,043702.00,3.8,3.2,9.4,,,,*5A
$GNTXT,01,01,01,More than 100 frame errors, UART RX was disabled*70
b0Lp <~n
s"uJ&.Adu$=P
-{4"V_:R 
YeDyEIUO-eP"?RSST#UbpU
^r$GNRMC,043703.00,A,0419.85610,S,05539.66392,E,0.114,,280525,,,D*7D
$GNVTG,,T,,M,0.114,N,0.210,K,D*3F
$GNGNS,043703.00,0419.85610,S,05539.66392,E,DA,11,0.94,23.9,-47.6,,0000*6A
$GNGGA,043703.00,0419.85610,S,05539.66392,E,2,11,0.94,23.9,M,-47.6,M,,0000*46
$GNGSA,A,3,24,05,20,11,15,12,18,29,,,,,1.91,0.94,1.66*1D
$GNGSA,A,3,79,80,83,,,,,,,,,,1.91,0.94,1.66*14
$GPGSV,5,1,18,05,60,126,32,11,21,021,25,12,34,002,17,13,19,154,13*7C
$GPGSV,5,2,18,14,01,131,,15,28,189,21,18,23,233,28,20,46,065,38*75
$GPGSV,5,3,18,22,16,117,,23,02,213,,24,61,239,36,25,11,336,13*7A
$GPGSV,5,4,18,29,10,301,13,36,52,277,,40,86,351,34,41,58,082,*73
$GPGSV,5,5,18,49,32,274,,50,10,089,*78
$GLGSV,2,1,08,68,13,121,,69,17,170,15,73,14,341,,79,45,131,24*66
$GLGSV,2,2,08,80,63,021,34,83,30,339,27,84,35,271,,85,06,229,*6C
$GNGLL,0419.85610,S,05539.66392,E,043703.00,A,D*68
$GNGRS,043703.00,1,-3.1,1.1,-1.6,6.3,-9.5,-2.3,2.6,-16.1,,,,*41
$GNGRS,043703.00,1,24.1,5.9,-5.9,,,,,,,,,*67
$GNGST,043703.00,49,,,,3.8,3.2,9.3*47
$GNZDA,043703.00,28,05,2025,00,00*71
$GNGBS,043703.00,3.8,3.2,9.3,,,,*5C
$GNTXT,01,01,01,More than 100 frame errors, UART RX was disabled*70
b0Lq<~
E"u6&.ATu$=P
-{4"V_:R 
YeDyEIUO-
P!?SSET#UIbqU
bK=$GNRMC,043704.00,A,0419.85610,S,05539.66396,E,0.074,,280525,,,D*79
$GNVTG,,T,,M,0.074,N,0.137,K,D*3E
$GNGNS,043704.00,0419.85610,S,05539.66396,E,DA,11,0.99,24.0,-47.6,,0000*6A
$GNGGA,043704.00,0419.85610,S,05539.66396,E,2,11,0.99,24.0,M,-47.6,M,,0000*46
$GNGSA,A,3,24,05,20,11,15,12,18,29,,,,,2.04,0.99,1.78*10
$GNGSA,A,3,79,80,83,,,,,,,,,,2.04,0.99,1.78*19
$GPGSV,5,1,18,05,60,126,31,11,21,021,24,12,34,002,17,13,19,154,15*78
$GPGSV,5,2,18,14,01,131,,15,28,189,20,18,23,233,28,20,46,065,38*74
$GPGSV,5,3,18,22,16,117,,23,02,213,,24,61,239,36,25,11,336,14*7D
$GPGSV,5,4,18,29,10,301,13,36,52,277,,40,86,351,34,41,58,082,*73
$GPGSV,5,5,18,49,32,274,,50,10,089,*78
$GLGSV,2,1,08,68,13,121,,69,17,170,16,73,14,341,,79,45,131,25*64
$GLGSV,2,2,08,80,63,021,33,83,30,339,27,84,35,271,,85,06,229,*6B
$GNGLL,0419.85610,S,05539.66396,E,043704.00,A,D*6B
$GNGRS,043704.00,1,-3.2,2.7,-1.7,5.8,-9.7,12.2,1.8,22.4,,,,*74
$GNGRS,043704.00,1,27.6,7.4,-4.4,,,,,,,,,*67
$GNGST,043704.00,182021,,,,3.8,3.2,9.2*44
$GNZDA,043704.00,28,05,2025,00,00*76
$GNGBS,043704.00,3.8,3.2,9.2,,,,*5A
$GNTXT,01,01,01,More than 100 frame errors, UART RX was disabled*70
b0Lq<~(
"u&.AFu$=P
-{4"V_:R 
YeDyEIUO-.P!?SSHT#U'bqU
mf#$GNRMC,043705.00,A,0419.85612,S,05539.66401,E,0.073,,280525,,,D*74
$GNVTG,,T,,M,0.073,N,0.134,K,D*3A
$GNGNS,043705.00,0419.85612,S,05539.66401,E,DA,11,0.99,23.9,-47.6,,0000*6E
$GNGGA,043705.00,0419.85612,S,05539.66401,E,2,11,0.99,23.9,M,-47.6,M,,0000*42
$GNGSA,A,3,24,05,20,11,15,12,18,29,,,,,2.03,0.99,1.78*17
$GNGSA,A,3,79,80,83,,,,,,,,,,2.03,0.99,1.78*1E
$GPGSV,5,1,18,05,60,126,30,11,21,021,25,12,34,002,17,13,19,154,15*78
$GPGSV,5,2,18,14,01,131,,15,28,189,20,18,23,233,29,20,46,065,38*75
$GPGSV,5,3,18,22,16,117,,23,02,213,,24,61,239,36,25,11,336,15*7C
$GPGSV,5,4,18,29,10,301,13,36,52,277,,40,86,351,34,41,58,082,*73
$GPGSV,5,5,18,49,32,274,,50,10,089,*78
$GLGSV,2,1,08,68,13,121,,69,17,170,16,73,14,341,,79,45,131,26*67
$GLGSV,2,2,08,80,63,021,33,83,30,339,27,84,35,271,,85,06,229,*6B
$GNGLL,0419.85612,S,05539.66401,E,043705.00,A,D*61
$GNGRS,043705.00,1,-3.1,0.4,-1.9,5.3,-10.5,12.1,2.5,22.2,,,,*43
$GNGRS,043705.00,1,28.6,7.1,-4.4,,,,,,,,,*6C
$GNGST,043705.00,3761771,,,,3.8,3.1,9.1*7F
$GNZDA,043705.00,28,05,2025,00,00*77
$GNGBS,043705.00,3.8,3.1,9.1,,,,*5B
$GNTXT,01,01,01,More than 100 frame errors, UART RX was disabled*70
b0Lq<~
">u9&.@Wu$=P
-{4"V_:R 
YeDyEIUO-$P!?SST#UbqU
Uj$GNRMC,043706.00,A,0419.85617,S,05539.66406,E,0.028,,280525,,,D*7B
$GNVTG,,T,,M,0.028,N,0.052,K,D*35
$GNGNS,043706.00,0419.85617,S,05539.66406,E,DA,10,0.99,23.9,-47.6,,0000*6E
$GNGGA,043706.00,0419.85617,S,05539.66406,E,2,10,0.99,23.9,M,-47.6,M,,0000*42
$GNGSA,A,3,24,05,20,11,15,12,18,,,,,,2.03,0.99,1.78*1C
$GNGSA,A,3,79,80,83,,,,,,,,,,2.03,0.99,1.78*1E
$GPGSV,5,1,18,05,60,126,30,11,21,021,25,12,34,002,17,13,19,154,16*7B
$GPGSV,5,2,18,14,01,131,,15,28,189,19,18,23,233,28,20,46,064,38*7F
$GPGSV,5,3,18,22,16,117,,23,02,213,,24,61,239,36,25,11,336,16*7F
$GPGSV,5,4,18,29,10,301,13,36,52,277,,40,86,351,34,41,58,082,*73
$GPGSV,5,5,18,49,32,274,,50,10,089,*78
$GLGSV,2,1,08,68,13,121,,69,17,170,15,73,14,341,,79,45,131,26*64
$GLGSV,2,2,08,80,63,021,33,83,30,339,27,84,35,271,,85,06,229,*6B
$GNGLL,0419.85617,S,05539.66406,E,043706.00,A,D*60
$GNGRS,043706.00,1,-3.1,4.2,-1.7,4.2,-10.7,-4.5,3.1,,,,,*49
$GNGRS,043706.00,1,28.5,9.1,-5.3,,,,,,,,,*64
$GNGST,043706.00,35,,,,3.8,3.1,9.1*48
$GNZDA,043706.00,28,05,2025,00,00*74
$GNGBS,043706.00,3.8,3.1,9.1,,,,*58
$GNTXT,01,01,01,More than 100 frame errors, UART RX was disabled*70
b0Lq<~U
"duq&.@Ru$=P
-{4"V_:R 
YeDyEIUO-
P!?SST#U_bqU
=nu$GNRMC,043707.00,A,0419.85619,S,05539.66410,E,0.049,,280525,,,D*74
$GNVTG,,T,,M,0.049,N,0.090,K,D*3C
$GNGNS,043707.00,0419.85619,S,05539.66410,E,DA,10,0.99,24.0,-47.6,,0000*68
$GNGGA,043707.00,0419.85619,S,05539.66410,E,2,10,0.99,24.0,M,-47.6,M,,0000*44
$GNGSA,A,3,24,05,20,11,15,12,18,,,,,,2.03,0.99,1.78*1C
$GNGSA,A,3,79,80,83,,,,,,,,,,2.03,0.99,1.78*1E
$GPGSV,5,1,18,05,60,126,30,11,21,021,25,12,34,002,20,13,19,154,16*7F
$GPGSV,5,2,18,14,01,131,,15,28,189,20,18,23,233,28,20,46,064,38*75
$GPGSV,5,3,18,22,16,117,,23,02,213,,24,61,239,36,25,11,336,17*7E
$GPGSV,5,4,18,29,10,301,11,36,52,277,,40,86,351,34,41,58,082,*71
$GPGSV,5,5,18,49,32,274,,50,10,089,*78
$GLGSV,2,1,08,68,13,121,,69,17,170,15,73,14,341,,79,45,131,26*64
$GLGSV,2,2,08,80,63,021,33,83,30,339,27,84,35,271,,85,06,229,*6B
$GNGLL,0419.85619,S,05539.66410,E,043707.00,A,D*68
$GNGRS,043707.00,1,-2.8,6.0,-1.7,5.1,-13.1,11.2,3.7,,,,,*5F
$GNGRS,043707.00,1,28.0,10.0,-6.2,,,,,,,,,*5B
$GNGST,043707.00,34,,,,3.7,3.1,9.0*46
$GNZDA,043707.00,28,05,2025,00,00*75
$GNGBS,043707.00,3.7,3.1,9.0,,,,*57
$GNTXT,01,01,01,More than 100 frame errors, UART RX was disabled*70
b0Lpq<~
".u&.@Hu$="P
-{4"V_:R 
YeDyEIUO-nP!?SST#UbpqU
%r$GNRMC,043708.00,A,0419.85625,S,05539.66414,E,0.029,,280525,,,D*76
$GNVTG,,T,,M,0.029,N,0.054,K,D*32
$GNGNS,043708.00,0419.85625,S,05539.66414,E,DA,10,0.99,24.1,-47.6,,0000*6D
$GNGGA,043708.00,0419.85625,S,05539.66414,E,2,10,0.99,24.1,M,-47.6,M,,0000*41
$GNGSA,A,3,24,05,20,11,15,12,18,,,,,,2.03,0.99,1.78*1C
$GNGSA,A,3,79,80,83,,,,,,,,,,2.03,0.99,1.78*1E
$GPGSV,5,1,18,05,60,126,30,11,21,021,25,12,34,002,22,13,19,154,16*7D
$GPGSV,5,2,18,14,01,131,,15,28,189,19,18,23,233,28,20,46,064,38*7F
$GPGSV,5,3,18,22,16,117,,23,02,213,,24,61,239,36,25,11,336,17*7E
$GPGSV,5,4,18,29,10,301,11,36,52,277,,40,86,351,34,41,58,082,*71
$GPGSV,5,5,18,49,32,274,,50,10,089,*78
$GLGSV,2,1,08,68,13,121,,69,17,170,15,73,14,341,,79,45,131,27*65
$GLGSV,2,2,08,80,63,021,33,83,30,339,27,84,35,271,,85,06,229,*6B
$GNGLL,0419.85625,S,05539.66414,E,043708.00,A,D*6C
$GNGRS,043708.00,1,-2.2,7.2,-1.8,4.3,-15.5,7.2,4.0,,,,,*60
$GNGRS,043708.00,1,29.3,10.0,-5.7,,,,,,,,,*50
$GNGST,043708.00,32,,,,3.7,3.0,8.9*46
$GNZDA,043708.00,28,05,2025,00,00*7A
$GNGBS,043708.00,3.7,3.0,8.9,,,,*51
$GNTXT,01,01,01,More than 100 frame errors, UART RX was disabled*70
b0LXq<~
"s[&.@`u$=P
-{4"V_:R 
YeDyEIUO-9P!?SS|T#U8bXqU
vE$GNRMC,043709.00,A,0419.85632,S,05539.66421,E,0.035,,280525,,,D*7A
$GNVTG,,T,,M,0.035,N,0.065,K,D*3D
$GNGNS,043709.00,0419.85632,S,05539.66421,E,DA,11,0.94,24.1,-47.6,,0000*60
$GNGGA,043709.00,0419.85632,S,05539.66421,E,2,11,0.94,24.1,M,-47.6,M,,0000*4C
$GNGSA,A,3,24,05,20,11,15,12,18,29,,,,,1.91,0.94,1.66*1D
$GNGSA,A,3,79,80,83,,,,,,,,,,1.91,0.94,1.66*14
$GPGSV,5,1,18,05,60,126,30,11,21,021,25,12,34,002,24,13,19,154,17*7A
$GPGSV,5,2,18,14,01,131,,15,28,189,20,18,23,233,28,20,46,064,38*75
$GPGSV,5,3,18,22,16,117,,23,02,213,,24,61,237,36,25,11,336,16*71
$GPGSV,5,4,18,29,10,301,11,36,52,277,,40,86,351,34,41,58,082,*71
$GPGSV,5,5,18,49,32,274,,50,10,089,*78
$GLGSV,2,1,08,68,13,121,,69,17,170,15,73,14,341,,79,45,131,28*6A
$GLGSV,2,2,08,80,63,021,33,83,30,339,27,84,35,271,,85,06,229,*6B
$GNGLL,0419.85632,S,05539.66421,E,043709.00,A,D*6D
$GNGRS,043709.00,1,-2.7,7.2,-1.6,5.4,-14.5,2.6,3.9,-13.0,,,,*53
$GNGRS,043709.00,1,28.7,9.7,-3.9,,,,,,,,,*63
$GNGST,043709.00,47,,,,3.7,3.0,8.8*44
$GNZDA,043709.00,28,05,2025,00,00*7B
$GNGBS,043709.00,3.7,3.0,8.8,,,,*51
$GNTXT,01,01,01,More than 100 frame errors, UART RX was disabled*70
b0L@q<~
P"sl&.@Ku$=P
-{4"V_:R 
YeDyEIUO-
P!?SS>T#Ub@qU
yZ$GNRMC,043710.00,A,0419.85636,S,05539.66425,E,0.103,,280525,,,D*76
$GNVTG,,T,,M,0.103,N,0.190,K,D*32
$GNGNS,043710.00,0419.85636,S,05539.66425,E,DA,11,0.99,24.1,-47.6,,0000*65
$GNGGA,043710.00,0419.85636,S,05539.66425,E,2,11,0.99,24.1,M,-47.6,M,,0000*49
$GNGSA,A,3,24,05,20,11,15,12,18,29,,,,,2.03,0.99,1.78*17
$GNGSA,A,3,79,80,83,,,,,,,,,,2.03,0.99,1.78*1E
$GPGSV,5,1,18,05,60,126,30,11,21,021,25,12,34,002,24,13,19,154,16*7B
$GPGSV,5,2,18,14,01,131,,15,28,189,21,18,23,233,28,20,46,064,38*74
$GPGSV,5,3,18,22,16,117,,23,02,213,,24,61,237,36,25,11,336,15*72
$GPGSV,5,4,18,29,10,301,11,36,52,277,,40,86,351,34,41,58,082,*71
$GPGSV,5,5,18,49,32,274,,50,10,089,*78
$GLGSV,2,1,08,68,13,121,,69,17,170,16,73,14,341,,79,45,131,28*69
$GLGSV,2,2,08,80,63,021,33,83,30,339,26,84,35,271,,85,06,229,*6A
$GNGLL,0419.85636,S,05539.66425,E,043710.00,A,D*65
$GNGRS,043710.00,1,-2.8,6.9,-1.8,3.4,-16.8,1.6,5.1,22.4,,,,*7F
$GNGRS,043710.00,1,26.9,9.8,-4.5,,,,,,,,,*6F
$GNGST,043710.00,30,,,,3.7,3.0,8.8*4C
$GNZDA,043710.00,28,05,2025,00,00*73
$GNGBS,043710.00,3.7,3.0,8.8,,,,*59
$GNTXT,01,01,01,More than 100 frame errors, UART RX was disabled*70
b0L(q<~
"s~&.@Hu$=P
-{4"V_:R 
YeDyEIUO-P ?SSOT#Ub(qU
}2$GNRMC,043711.00,A,0419.85641,S,05539.66428,E,0.048,,280525,,,D*74
$GNVTG,,T,,M,0.048,N,0.089,K,D*35
$GNGNS,043711.00,0419.85641,S,05539.66428,E,DA,11,0.99,24.0,-47.6,,0000*68
$GNGGA,043711.00,0419.85641,S,05539.66428,E,2,11,0.99,24.0,M,-47.6,M,,0000*44
$GNGSA,A,3,24,05,20,11,15,12,18,29,,,,,2.03,0.99,1.78*17
$GNGSA,A,3,79,80,83,,,,,,,,,,2.03,0.99,1.78*1E
$GPGSV,5,1,18,05,60,126,29,11,21,021,26,12,34,002,24,13,19,154,16*70
$GPGSV,5,2,18,14,01,131,,15,28,189,21,18,23,233,28,20,46,064,38*74
$GPGSV,5,3,18,22,16,117,,23,02,213,,24,61,237,36,25,11,336,15*72
$GPGSV,5,4,18,29,10,301,11,36,52,277,,40,86,351,34,41,58,082,*71
$GPGSV,5,5,18,49,32,274,,50,10,089,*78
$GLGSV,2,1,08,68,13,121,,69,17,170,16,73,14,341,,79,45,131,28*69
$GLGSV,2,2,08,80,63,021,32,83,30,339,26,84,35,271,,85,06,229,*6B
$GNGLL,0419.85641,S,05539.66428,E,043711.00,A,D*69
$GNGRS,043711.00,1,-2.8,7.9,-1.8,4.2,-19.1,-0.9,6.4,22.4,,,,*5D
$GNGRS,043711.00,1,24.4,9.9,-1.8,,,,,,,,,*68
$GNGST,043711.00,30,,,,3.6,3.0,8.7*43
$GNZDA,043711.00,28,05,2025,00,00*72
$GNGBS,043711.00,3.6,3.0,8.7,,,,*56
$GNTXT,01,01,01,More than 100 frame errors, UART RX was disabled*70
b0L#q<~
="s_&.@*u$=Pz
-{4"V_:R 
YeDyEIUO-P ?SS>T#Ub#qU

z$GNRMC,043712.00,A,0419.85650,S,05539.66434,E,0.052,,280525,,,D*71
$GNVTG,,T,,M,0.052,N,0.096,K,D*30
$GNGNS,043712.00,0419.85650,S,05539.66434,E,DA,11,0.94,24.1,-47.6,,0000*6A
$GNGGA,043712.00,0419.85650,S,05539.66434,E,2,11,0.94,24.1,M,-47.6,M,,0000*46
$GNGSA,A,3,24,05,20,11,15,12,18,29,,,,,1.91,0.94,1.66*1D
$GNGSA,A,3,79,80,83,,,,,,,,,,1.91,0.94,1.66*14
$GPGSV,5,1,18,05,60,126,29,11,21,021,25,12,34,002,24,13,19,154,15*70
$GPGSV,5,2,18,14,01,131,,15,28,189,21,18,23,233,28,20,46,064,38*74
$GPGSV,5,3,18,22,16,117,,23,02,213,,24,61,237,36,25,11,336,14*73
$GPGSV,5,4,18,29,10,301,11,36,52,277,,40,86,351,34,41,58,082,*71
$GPGSV,5,5,18,49,32,274,,50,10,089,*78
$GLGSV,2,1,08,68,13,121,,69,17,170,15,73,14,341,,79,45,131,28*6A
$GLGSV,2,2,08,80,63,021,32,83,30,339,26,84,35,271,,85,06,229,*6B
$GNGLL,0419.85650,S,05539.66434,E,043712.00,A,D*67
$GNGRS,043712.00,1,-3.0,12.2,-2.1,0.6,-19.5,-2.5,5.0,-11.3,,,,*45
$GNGRS,043712.00,1,24.8,9.9,-1.9,,,,,,,,,*66
$GNGST,043712.00,47,,,,3.6,3.0,8.7*40
$GNZDA,043712.00,28,05,2025,00,00*71
$GNGBS,043712.00,3.6,3.0,8.7,,,,*55
$GNTXT,01,01,01,More than 100 frame errors, UART RX was disabled*70
b0L&q<~#
"s\&.@u$=P
-{4"V_:R 
YeDyEIUO-MP!?SST#UtNb&qU
$GNRMC,043713.00,A,0419.85656,S,05539.66438,E,0.100,,280525,,,D*7C
$GNVTG,,T,,M,0.100,N,0.186,K,D*36
$GNGNS,043713.00,0419.85656,S,05539.66438,E,DA,11,0.99,24.3,-47.6,,0000*6E
$GNGGA,043713.00,0419.85656,S,05539.66438,E,2,11,0.99,24.3,M,-47.6,M,,0000*42
$GNGSA,A,3,24,05,20,11,15,12,18,29,,,,,2.03,0.99,1.77*18
$GNGSA,A,3,79,80,83,,,,,,,,,,2.03,0.99,1.77*11
$GPGSV,5,1,18,05,60,126,29,11,21,021,25,12,34,002,25,13,19,154,14*70
$GPGSV,5,2,18,14,01,131,,15,28,189,20,18,23,233,28,20,46,064,38*75
$GPGSV,5,3,18,22,16,117,,23,02,213,,24,61,237,36,25,11,336,14*73
$GPGSV,5,4,18,29,10,301,16,36,52,277,,40,86,351,34,41,58,082,*76
$GPGSV,5,5,18,49,32,274,,50,10,089,*78
$GLGSV,2,1,08,68,13,121,,69,17,170,,73,14,341,,79,45,131,29*6F
$GLGSV,2,2,08,80,63,021,33,83,30,339,25,84,35,271,,85,06,229,*69
$GNGLL,0419.85656,S,05539.66438,E,043713.00,A,D*6C
$GNGRS,043713.00,1,-3.0,13.2,-2.3,0.2,-19.6,-4.9,2.7,22.5,,,,*61
$GNGRS,043713.00,1,23.8,9.5,1.8,,,,,,,,,*40
$GNGST,043713.00,31,,,,3.6,2.9,8.6*49
$GNZDA,043713.00,28,05,2025,00,00*70
$GNGBS,043713.00,3.6,2.9,8.6,,,,*5D
$GNTXT,01,01,01,More than 100 frame errors, UART RX was disabled*70
b0L*q<~f
"4so&.@u#=yP
.r{4"V_:R 
YeDyEIUO-P ?SST#U.b*qU
;$GNRMC,043714.00,A,0419.85671,S,05539.66438,E,0.045,,280525,,,D*7E
$GNVTG,,T,,M,0.045,N,0.084,K,D*35
$GNGNS,043714.00,0419.85671,S,05539.66438,E,DA,11,1.04,24.4,-47.6,,0000*6E
$GNGGA,043714.00,0419.85671,S,05539.66438,E,2,11,1.04,24.4,M,-47.6,M,,0000*42
$GNGSA,A,3,24,05,20,11,15,12,18,29,,,,,2.10,1.04,1.82*15
$GNGSA,A,3,79,80,83,,,,,,,,,,2.10,1.04,1.82*1C
$GPGSV,5,1,18,05,60,126,29,11,21,021,26,12,34,002,25,13,19,154,14*73
$GPGSV,5,2,18,14,01,131,,15,28,189,19,18,23,233,28,20,46,064,38*7F
$GPGSV,5,3,18,22,16,117,,23,02,213,,24,61,237,35,25,11,336,12*76
$GPGSV,5,4,18,29,10,302,12,36,52,277,,40,86,351,34,41,58,082,*71
$GPGSV,5,5,18,49,32,274,,50,10,089,*78
$GLGSV,2,1,08,68,13,121,,69,17,170,,73,14,341,,79,45,131,29*6F
$GLGSV,2,2,08,80,63,021,32,83,30,339,25,84,35,271,,85,06,229,*68
$GNGLL,0419.85671,S,05539.66438,E,043714.00,A,D*6E
$GNGRS,043714.00,1,-3.9,11.3,-3.0,-0.8,-21.9,-8.3,1.8,21.6,,,,*47
$GNGRS,043714.00,1,9.3,4.4,-3.7,,,,,,,,,*58
$GNGST,043714.00,3761771,,,,4.2,3.5,8.8*7E
$GNZDA,043714.00,28,05,2025,00,00*77
$GNGBS,043714.00,4.2,3.5,8.8,,,,*5A
$GNTXT,01,01,01,More than 100 frame errors, UART RX was disabled*70
b0L.q<~
"UjsD&.@u#=PZ
.{4"V_:R 
YeDyEIUO-dP ?SST#Ub.qU
}$GNRMC,043715.00,A,0419.85679,S,05539.66436,E,0.046,,280525,,,D*7A
$GNVTG,,T,,M,0.046,N,0.086,K,D*34
$GNGNS,043715.00,0419.85679,S,05539.66436,E,DA,11,1.08,24.5,-47.6,,0000*64
$GNGGA,043715.00,0419.85679,S,05539.66436,E,2,11,1.08,24.5,M,-47.6,M,,0000*48
$GNGSA,A,3,24,05,20,11,15,12,18,29,,,,,2.26,1.08,1.98*17
$GNGSA,A,3,79,80,83,,,,,,,,,,2.26,1.08,1.98*1E
$GPGSV,5,1,18,05,60,126,29,11,21,021,26,12,34,002,25,13,19,154,15*72
$GPGSV,5,2,18,14,01,131,,15,28,189,20,18,23,233,28,20,46,064,38*75
$GPGSV,5,3,18,22,16,117,,23,02,213,,24,61,237,35,25,11,336,11*75
$GPGSV,5,4,18,29,10,302,11,36,52,277,,40,86,351,34,41,58,082,*72
$GPGSV,5,5,18,49,32,274,,50,10,089,*78
$GLGSV,2,1,08,68,13,121,,69,17,170,,73,14,341,,79,45,131,30*67
$GLGSV,2,2,08,80,63,021,32,83,30,339,25,84,35,271,,85,06,229,*68
$GNGLL,0419.85679,S,05539.66436,E,043715.00,A,D*69
$GNGRS,043715.00,1,-3.1,12.7,-2.6,2.5,-20.8,-9.4,3.2,-21.3,,,,*4A
$GNGRS,043715.00,1,1.0,5.4,-3.3,,,,,,,,,*57
$GNGST,043715.00,27,,,,4.1,3.5,8.8*4B
$GNZDA,043715.00,28,05,2025,00,00*76
$GNGBS,043715.00,4.1,3.5,8.8,,,,*58
$GNTXT,01,01,01,More than 100 frame errors, UART RX was disabled*70
b0L2q<~:
i"kr'&.@u"=P
.{4"V_:R 
YeDyEIUO-P ?3SST#Ub2qU
ei$GNRMC,043716.00,A,0419.85683,S,05539.66433,E,0.108,,280525,,,D*72
$GNVTG,,T,,M,0.108,N,0.200,K,D*33
$GNGNS,043716.00,0419.85683,S,05539.66433,E,DA,11,0.99,24.7,-47.6,,0000*6C
$GNGGA,043716.00,0419.85683,S,05539.66433,E,2,11,0.99,24.7,M,-47.6,M,,0000*40
$GNGSA,A,3,24,05,20,11,15,12,18,29,,,,,2.03,0.99,1.77*18
$GNGSA,A,3,79,80,83,,,,,,,,,,2.03,0.99,1.77*11
$GPGSV,5,1,18,05,60,126,29,11,21,021,26,12,34,002,25,13,19,154,15*72
$GPGSV,5,2,18,14,01,131,,15,28,189,21,18,23,233,28,20,46,064,38*74
$GPGSV,5,3,18,22,16,117,,23,02,213,,24,61,237,34,25,11,336,12*77
$GPGSV,5,4,18,29,10,302,17,36,52,277,,40,86,351,34,41,58,082,*74
$GPGSV,5,5,18,49,32,274,,50,10,089,*78
$GLGSV,2,1,08,68,13,121,,69,17,170,,73,14,341,,79,45,131,31*66
$GLGSV,2,2,08,80,63,021,32,83,30,339,25,84,35,271,,85,06,229,*68
$GNGLL,0419.85683,S,05539.66433,E,043716.00,A,D*6A
$GNGRS,043716.00,1,-2.9,13.4,-2.3,3.6,-17.5,-9.2,3.9,22.8,,,,*64
$GNGRS,043716.00,1,2.2,5.6,-2.7,,,,,,,,,*52
$GNGST,043716.00,29,,,,4.1,3.4,8.7*48
$GNZDA,043716.00,28,05,2025,00,00*75
$GNGBS,043716.00,4.1,3.4,8.7,,,,*55
$GNTXT,01,01,01,More than 100 frame errors, UART RX was disabled*70
b0L6q<~
("lsp%&.@1u"=P
.{4"V_:R 
YeDyEIUO-P ?7SSET#U$b6qU
MAs$GNRMC,043717.00,A,0419.85687,S,05539.66431,E,0.036,,280525,,,D*79
$GNVTG,,T,,M,0.036,N,0.067,K,D*3C
$GNGNS,043717.00,0419.85687,S,05539.66431,E,DA,11,0.99,24.9,-47.6,,0000*65
$GNGGA,043717.00,0419.85687,S,05539.66431,E,2,11,0.99,24.9,M,-47.6,M,,0000*49
$GNGSA,A,3,24,05,20,11,15,12,18,29,,,,,2.03,0.99,1.77*18
$GNGSA,A,3,79,80,83,,,,,,,,,,2.03,0.99,1.77*11
$GPGSV,5,1,18,05,60,126,29,11,21,021,26,12,34,002,25,13,19,154,14*73
$GPGSV,5,2,18,14,01,131,,15,28,189,22,18,23,233,28,20,46,064,38*77
$GPGSV,5,3,18,22,16,117,,23,02,213,,24,61,237,34,25,11,336,11*74
$GPGSV,5,4,18,29,10,302,19,36,52,277,,40,86,351,34,41,58,082,*7A
$GPGSV,5,5,18,49,32,274,,50,10,089,*78
$GLGSV,2,1,08,68,13,121,,69,17,170,,73,14,341,,79,45,131,31*66
$GLGSV,2,2,08,80,63,021,32,83,30,339,24,84,35,271,,85,06,229,*69
$GNGLL,0419.85687,S,05539.66431,E,043717.00,A,D*6D
$GNGRS,043717.00,1,-2.6,10.2,-2.1,3.0,-16.8,-11.7,5.5,23.1,,,,*59
$GNGRS,043717.00,1,1.7,5.7,-1.9,,,,,,,,,*59
$GNGST,043717.00,29,,,,4.0,3.4,8.7*48
$GNZDA,043717.00,28,05,2025,00,00*74
$GNGBS,043717.00,4.0,3.4,8.7,,,,*55
$GNTXT,01,01,01,More than 100 frame errors, UART RX was disabled*70
b0L:q<~E
-"=s&.@)u"=P
.{4"V_:R 
YeDyEIUO-P ?SSST#Ub:qU
5$GNRMC,043718.00,A,0419.85687,S,05539.66425,E,0.047,,280525,,,D*75
$GNVTG,,T,,M,0.047,N,0.087,K,D*34
$GNGNS,043718.00,0419.85687,S,05539.66425,E,DA,11,0.99,25.1,-47.6,,0000*66
$GNGGA,043718.00,0419.85687,S,05539.66425,E,2,11,0.99,25.1,M,-47.6,M,,0000*4A
$GNGSA,A,3,24,05,20,11,15,12,18,29,,,,,2.03,0.99,1.77*18
$GNGSA,A,3,79,80,83,,,,,,,,,,2.03,0.99,1.77*11
$GPGSV,5,1,18,05,60,126,29,11,21,021,26,12,34,002,25,13,19,154,13*74
$GPGSV,5,2,18,14,01,131,,15,28,189,22,18,23,233,28,20,46,064,38*77
$GPGSV,5,3,18,22,16,117,,23,02,213,,24,61,237,34,25,11,336,12*77
$GPGSV,5,4,18,29,10,302,18,36,52,277,,40,86,351,34,41,58,082,*7B
$GPGSV,5,5,18,49,32,274,,50,10,089,*78
$GLGSV,2,1,08,68,13,121,,69,17,170,,73,14,341,,79,45,131,31*66
$GLGSV,2,2,08,80,63,021,32,83,30,339,24,84,35,271,,85,06,229,*69
$GNGLL,0419.85687,S,05539.66425,E,043718.00,A,D*67
$GNGRS,043718.00,1,-2.3,5.8,-2.1,0.4,-16.4,-12.2,6.7,20.5,,,,*66
$GNGRS,043718.00,1,-3.0,5.9,-0.5,,,,,,,,,*7D
$GNGST,043718.00,29,,,,4.0,3.3,8.7*40
$GNZDA,043718.00,28,05,2025,00,00*7B
$GNGBS,043718.00,4.0,3.3,8.7,,,,*5D
$GNTXT,01,01,01,More than 100 frame errors, UART RX was disabled*70
b0Lh>q<~$
"t0&.@4u"=DP
.{4"V_:R 
YeDyEIUO -~P ?iSST#Ubh>qU
C$GNRMC,043719.00,A,0419.85686,S,05539.66416,E,0.116,,280525,,,D*70
$GNVTG,,T,,M,0.116,N,0.215,K,D*38
$GNGNS,043719.00,0419.85686,S,05539.66416,E,DA,11,0.94,25.2,-47.6,,0000*68
$GNGGA,043719.00,0419.85686,S,05539.66416,E,2,11,0.94,25.2,M,-47.6,M,,0000*44
$GNGSA,A,3,24,05,20,11,15,12,18,29,,,,,1.91,0.94,1.66*1D
$GNGSA,A,3,79,80,83,,,,,,,,,,1.91,0.94,1.66*14
$GPGSV,5,1,18,05,60,126,29,11,21,021,26,12,34,002,25,13,19,154,13*74
$GPGSV,5,2,18,14,01,131,,15,28,189,21,18,23,233,28,20,46,064,38*74
$GPGSV,5,3,18,22,16,117,,23,02,213,,24,61,237,34,25,11,336,13*76
$GPGSV,5,4,18,29,10,302,18,36,52,277,,40,86,351,34,41,58,082,*7B
$GPGSV,5,5,18,49,32,274,,50,10,089,*78
$GLGSV,2,1,08,68,13,121,,69,17,170,,73,14,341,,79,45,131,32*65
$GLGSV,2,2,08,80,63,021,32,83,30,339,24,84,35,271,,85,06,229,*69
$GNGLL,0419.85686,S,05539.66416,E,043719.00,A,D*67
$GNGRS,043719.00,1,-1.9,2.9,-2.0,0.0,-14.9,-12.8,7.3,17.7,,,,*6B
$GNGRS,043719.00,1,-3.9,6.2,0.1,,,,,,,,,*54
$GNGST,043719.00,35,,,,3.9,3.3,8.6*43
$GNZDA,043719.00,28,05,2025,00,00*7A
$GNGBS,043719.00,3.9,3.3,8.6,,,,*53
$GNTXT,01,01,01,More than 100 frame errors, UART RX was disabled*70
b0LPBq<~
"?1v"&.@1u"=Pg
.v{4"V_:R 
YeDyEIUO -P ?lSST#UbPBqU
$GNRMC,043720.00,A,0419.85683,S,05539.66407,E,0.010,,280525,,,D*78
$GNVTG,,T,,M,0.010,N,0.018,K,D*30
$GNGNS,043720.00,0419.85683,S,05539.66407,E,DA,11,0.94,25.4,-47.6,,0000*61
$GNGGA,043720.00,0419.85683,S,05539.66407,E,2,11,0.94,25.4,M,-47.6,M,,0000*4D
$GNGSA,A,3,24,05,20,11,15,12,18,29,,,,,1.91,0.94,1.66*1D
$GNGSA,A,3,79,80,83,,,,,,,,,,1.91,0.94,1.66*14
$GPGSV,5,1,18,05,60,126,29,11,21,021,27,12,34,002,25,13,19,154,11*77
$GPGSV,5,2,18,14,01,131,,15,28,189,21,18,23,233,28,20,46,064,38*74
$GPGSV,5,3,18,22,16,117,,23,02,213,,24,61,237,34,25,11,336,14*71
$GPGSV,5,4,18,29,10,302,18,36,52,277,,40,86,351,34,41,58,082,*7B
$GPGSV,5,5,18,49,32,274,,50,10,089,*78
$GLGSV,2,1,08,68,13,121,,69,17,170,,73,14,341,,79,45,131,32*65
$GLGSV,2,2,08,80,63,021,32,83,30,339,23,84,35,271,,85,06,229,*6E
$GNGLL,0419.85683,S,05539.66407,E,043720.00,A,D*68
$GNGRS,043720.00,1,-1.2,7.6,-2.1,0.2,-12.5,-14.7,4.8,16.5,,,,*6B
$GNGRS,043720.00,1,-5.6,6.2,1.7,,,,,,,,,*50
$GNGST,043720.00,34,,,,3.9,3.3,8.6*48
$GNZDA,043720.00,28,05,2025,00,00*70
$GNGBS,043720.00,3.9,3.3,8.6,,,,*59
$GNTXT,01,01,01,More than 100 frame errors, UART RX was disabled*70
b0L8Fq<~
"&.@(u"=P
.{4"V_:R 
YeDyEIUO -P ?bSST#YU0[b8FqU
$GNRMC,043721.00,A,0419.85678,S,05539.66397,E,0.023,,280525,,,D*73
$GNVTG,,T,,M,0.023,N,0.042,K,D*3F
$GNGNS,043721.00,0419.85678,S,05539.66397,E,DA,11,0.94,25.7,-47.6,,0000*69
$GNGGA,043721.00,0419.85678,S,05539.66397,E,2,11,0.94,25.7,M,-47.6,M,,0000*45
$GNGSA,A,3,24,05,20,11,15,12,18,29,,,,,1.91,0.94,1.66*1D
$GNGSA,A,3,79,80,83,,,,,,,,,,1.91,0.94,1.66*14
$GPGSV,5,1,18,05,60,126,30,11,21,021,26,12,34,002,25,13,19,154,*7E
$GPGSV,5,2,18,14,01,131,,15,28,189,21,18,23,233,28,20,46,064,38*74
$GPGSV,5,3,18,22,16,117,,23,02,213,,24,61,237,34,25,11,336,12*77
$GPGSV,5,4,18,29,10,302,19,36,52,277,,40,86,351,34,41,58,082,*7A
$GPGSV,5,5,18,49,32,274,,50,10,089,*78
$GLGSV,2,1,08,68,13,121,,69,17,170,,73,14,341,,79,45,131,32*65
$GLGSV,2,2,08,80,63,021,32,83,30,339,23,84,35,271,06,85,06,229,*68
$GNGLL,0419.85678,S,05539.66397,E,043721.00,A,D*63
$GNGRS,043721.00,1,-0.8,5.2,-2.2,-0.6,-12.8,-15.3,4.8,15.3,,,,*40
$GNGRS,043721.00,1,-6.0,6.1,2.0,,,,,,,,,*53
$GNGST,043721.00,33,,,,3.9,3.2,8.6*4F
$GNZDA,043721.00,28,05,2025,00,00*71
$GNGBS,043721.00,3.9,3.2,8.6,,,,*59
$GNTXT,01,01,01,More than 100 frame errors, UART RX was disabled*70
b0L Jq<~
"+$&.@u!=P
.s{4"V_:R 
YeDyEIUO!-<P ?mSST#Ub JqU
xx$GNRMC,043722.00,A,0419.85672,S,05539.66386,E,0.043,,280525,,,D*7C
$GNVTG,,T,,M,0.043,N,0.079,K,D*31
$GNGNS,043722.00,0419.85672,S,05539.66386,E,DA,11,0.94,25.8,-47.6,,0000*6F
$GNGGA,043722.00,0419.85672,S,05539.66386,E,2,11,0.94,25.8,M,-47.6,M,,0000*43
$GNGSA,A,3,24,05,20,11,15,12,18,29,,,,,1.91,0.94,1.66*1D
$GNGSA,A,3,79,80,83,,,,,,,,,,1.91,0.94,1.66*14
$GPGSV,5,1,18,05,60,126,30,11,21,021,27,12,34,002,25,13,19,154,*7F
$GPGSV,5,2,18,14,01,131,,15,28,189,22,18,23,233,28,20,46,064,38*77
$GPGSV,5,3,18,22,16,117,,23,02,213,,24,61,237,33,25,11,336,12*70
$GPGSV,5,4,18,29,10,302,19,36,52,277,,40,86,351,34,41,58,082,*7A
$GPGSV,5,5,18,49,32,274,,50,10,089,*78
$GLGSV,2,1,08,68,13,121,,69,17,170,,73,14,341,,79,45,131,33*64
$GLGSV,2,2,08,80,63,021,32,83,30,339,24,84,35,271,,85,06,229,*69
$GNGLL,0419.85672,S,05539.66386,E,043722.00,A,D*6A
$GNGRS,043722.00,1,-0.5,4.1,-2.3,-2.8,-9.8,-14.0,5.5,11.4,,,,*76
$GNGRS,043722.00,1,-4.5,6.2,4.1,,,,,,,,,*53
$GNGST,043722.00,32,,,,3.8,3.2,8.5*4F
$GNZDA,043722.00,28,05,2025,00,00*72
$GNGBS,043722.00,3.8,3.2,8.5,,,,*58
$GNTXT,01,01,01,More than 100 frame errors, UART RX was disabled*70
b0LNq<~]
"~x%.@u!=P|
.{4"V_:R 
YeDyEIUO!-P?oSST#UfDbNqU
P$GNRMC,043723.00,A,0419.85669,S,05539.66376,E,0.062,,280525,,,D*7B
$GNVTG,,T,,M,0.062,N,0.115,K,D*39
$GNGNS,043723.00,0419.85669,S,05539.66376,E,DA,11,0.94,26.0,-47.6,,0000*60
$GNGGA,043723.00,0419.85669,S,05539.66376,E,2,11,0.94,26.0,M,-47.6,M,,0000*4C
$GNGSA,A,3,24,05,20,11,15,12,18,29,,,,,1.91,0.94,1.66*1D
$GNGSA,A,3,79,80,83,,,,,,,,,,1.91,0.94,1.66*14
$GPGSV,5,1,18,05,60,126,30,11,21,021,27,12,34,002,26,13,19,154,*7C
$GPGSV,5,2,18,14,01,131,,15,28,189,22,18,23,233,28,20,46,064,37*78
$GPGSV,5,3,18,22,16,117,,23,02,213,,24,61,237,33,25,11,336,12*70
$GPGSV,5,4,18,29,10,302,19,36,52,277,,40,86,351,34,41,58,082,*7A
$GPGSV,5,5,18,49,32,274,,50,10,089,*78
$GLGSV,2,1,08,68,13,121,,69,17,170,,73,14,341,,79,45,131,33*64
$GLGSV,2,2,08,80,63,021,31,83,30,339,24,84,35,271,,85,06,229,*6A
$GNGLL,0419.85669,S,05539.66376,E,043723.00,A,D*6E
$GNGRS,043723.00,1,-0.2,8.6,-2.4,-2.7,-9.0,-13.3,6.3,11.9,,,,*77
$GNGRS,043723.00,1,-5.7,6.2,4.7,,,,,,,,,*57
$GNGST,043723.00,32,,,,3.8,3.2,8.5*4E
$GNZDA,043723.00,28,05,2025,00,00*73
$GNGBS,043723.00,3.8,3.2,8.5,,,,*59
$GNTXT,01,01,01,More than 100 frame errors, UART RX was disabled*70
b0LQq<~P
"D%.@u!=P
.v{4"V_:R 
YeDyEIUO!-P ?xSST#URbQqU
'9$GNRMC,043724.00,A,0419.85667,S,05539.66367,E,0.020,,280525,,,D*74
$GNVTG,,T,,M,0.020,N,0.037,K,D*3E
$GNGNS,043724.00,0419.85667,S,05539.66367,E,DA,11,0.94,26.1,-47.6,,0000*68
$GNGGA,043724.00,0419.85667,S,05539.66367,E,2,11,0.94,26.1,M,-47.6,M,,0000*44
$GNGSA,A,3,24,05,20,11,15,12,18,29,,,,,1.91,0.94,1.66*1D
$GNGSA,A,3,79,80,83,,,,,,,,,,1.91,0.94,1.66*14
$GPGSV,5,1,18,05,60,126,30,11,21,021,27,12,34,002,26,13,19,154,*7C
$GPGSV,5,2,18,14,01,131,,15,28,189,22,18,23,233,28,20,46,064,37*78
$GPGSV,5,3,18,22,16,117,,23,02,213,,24,61,237,33,25,11,336,12*70
$GPGSV,5,4,18,29,10,302,20,36,52,277,,40,86,351,34,41,58,082,*70
$GPGSV,5,5,18,49,32,274,,50,10,089,*78
$GLGSV,2,1,08,68,13,121,,69,17,170,,73,14,341,,79,45,131,33*64
$GLGSV,2,2,08,80,63,021,32,83,30,339,24,84,35,271,,85,06,229,*69
$GNGLL,0419.85667,S,05539.66367,E,043724.00,A,D*67
$GNGRS,043724.00,1,-0.1,0.8,-2.4,-3.5,-5.8,-13.2,5.8,11.4,,,,*76
$GNGRS,043724.00,1,-3.1,6.3,4.8,,,,,,,,,*5E
$GNGST,043724.00,32,,,,3.7,3.1,8.5*45
$GNZDA,043724.00,28,05,2025,00,00*74
$GNGBS,043724.00,3.7,3.1,8.5,,,,*52
$GNTXT,01,01,01,More than 100 frame errors, UART RX was disabled*70
b0LUq<~
"}%.@(u!=P
.{4"V_:R 
YeDyEIUO!-P ?rSST#UbUqU
$GNRMC,043725.00,A,0419.85670,S,05539.66362,E,0.058,,280525,,,D*79
$GNVTG,,T,,M,0.058,N,0.108,K,D*3C
$GNGNS,043725.00,0419.85670,S,05539.66362,E,DA,11,0.94,26.4,-47.6,,0000*6F
$GNGGA,043725.00,0419.85670,S,05539.66362,E,2,11,0.94,26.4,M,-47.6,M,,0000*43
$GNGSA,A,3,24,05,20,11,15,12,18,29,,,,,1.91,0.94,1.66*1D
$GNGSA,A,3,79,80,83,,,,,,,,,,1.91,0.94,1.66*14
$GPGSV,5,1,18,05,60,126,30,11,21,021,27,12,34,002,26,13,19,154,*7C
$GPGSV,5,2,18,14,01,131,,15,28,189,23,18,23,233,28,20,46,064,37*79
$GPGSV,5,3,18,22,16,117,,23,02,213,,24,61,237,33,25,11,336,11*73
$GPGSV,5,4,18,29,10,302,20,36,52,277,,40,86,351,34,41,58,082,*70
$GPGSV,5,5,18,49,32,274,,50,10,089,*78
$GLGSV,2,1,08,68,13,121,,69,17,170,,73,14,341,,79,45,131,33*64
$GLGSV,2,2,08,80,63,021,32,83,30,339,24,84,35,271,,85,06,229,*69
$GNGLL,0419.85670,S,05539.66362,E,043725.00,A,D*65
$GNGRS,043725.00,1,0.1,4.6,-2.2,-7.6,-5.6,-15.3,6.4,10.2,,,,*50
$GNGRS,043725.00,1,-0.3,6.3,4.6,,,,,,,,,*50
$GNGST,043725.00,31,,,,3.7,3.1,8.4*46
$GNZDA,043725.00,28,05,2025,00,00*75
$GNGBS,043725.00,3.7,3.1,8.4,,,,*52
$GNTXT,01,01,01,More than 100 frame errors, UART RX was disabled*70
b0LYq<~&
"V$.@Gu!=!P
.{4"V_:R 
YeDyEIUO!-P ?SST#UbYqU
u$GNRMC,043726.00,A,0419.85670,S,05539.66356,E,0.068,,280525,,,D*7E
$GNVTG,,T,,M,0.068,N,0.125,K,D*30
$GNGNS,043726.00,0419.85670,S,05539.66356,E,DA,11,0.94,26.7,-47.6,,0000*68
$GNGGA,043726.00,0419.85670,S,05539.66356,E,2,11,0.94,26.7,M,-47.6,M,,0000*44
$GNGSA,A,3,24,05,20,11,15,12,18,29,,,,,1.91,0.94,1.66*1D
$GNGSA,A,3,79,80,83,,,,,,,,,,1.91,0.94,1.66*14
$GPGSV,5,1,18,05,60,126,31,11,21,021,27,12,34,002,26,13,19,154,*7D
$GPGSV,5,2,18,14,01,131,,15,28,189,21,18,23,233,28,20,46,064,36*7A
$GPGSV,5,3,18,22,16,117,,23,02,213,,24,61,237,33,25,11,336,11*73
$GPGSV,5,4,18,29,10,302,19,36,52,277,,40,86,351,34,41,58,082,*7A
$GPGSV,5,5,18,49,32,274,,50,10,089,*78
$GLGSV,2,1,08,68,13,121,,69,17,170,,73,14,341,,79,45,131,33*64
$GLGSV,2,2,08,80,63,021,32,83,30,339,24,84,35,271,,85,06,229,*69
$GNGLL,0419.85670,S,05539.66356,E,043726.00,A,D*61
$GNGRS,043726.00,1,0.3,2.9,-1.9,-8.9,-4.3,-16.5,5.3,9.0,,,,*6F
$GNGRS,043726.00,1,-2.6,6.5,6.5,,,,,,,,,*53
$GNGST,043726.00,32,,,,3.6,3.1,8.4*47
$GNZDA,043726.00,28,05,2025,00,00*76
$GNGBS,043726.00,3.6,3.1,8.4,,,,*50
$GNTXT,01,01,01,More than 100 frame errors, UART RX was disabled*70
b0L]q<~
"# $.@Uu!=,P
.{4"V_:R 
YeDyEIUO!-P ?SSqT#Ub]qU
]q$GNRMC,043727.00,A,0419.85678,S,05539.66355,E,0.040,,280525,,,D*7E
$GNVTG,,T,,M,0.040,N,0.073,K,D*38
$GNGNS,043727.00,0419.85678,S,05539.66355,E,DA,11,0.94,26.8,-47.6,,0000*6D
$GNGGA,043727.00,0419.85678,S,05539.66355,E,2,11,0.94,26.8,M,-47.6,M,,0000*41
$GNGSA,A,3,24,05,20,11,15,12,18,29,,,,,1.91,0.94,1.66*1D
$GNGSA,A,3,79,80,83,,,,,,,,,,1.91,0.94,1.66*14
$GPGSV,5,1,18,05,60,126,31,11,21,021,27,12,34,002,26,13,19,154,*7D
$GPGSV,5,2,18,14,01,131,,15,28,189,21,18,23,233,29,20,46,064,36*7B
$GPGSV,5,3,18,22,16,117,,23,02,213,,24,61,237,33,25,11,336,12*70
$GPGSV,5,4,18,29,10,302,19,36,52,277,,40,86,351,34,41,58,082,*7A
$GPGSV,5,5,18,49,32,274,,50,10,089,*78
$GLGSV,2,1,08,68,13,121,,69,17,170,,73,14,341,,79,45,131,33*64
$GLGSV,2,2,08,80,63,021,32,83,30,339,24,84,35,271,,85,06,229,*69
$GNGLL,0419.85678,S,05539.66355,E,043727.00,A,D*6B
$GNGRS,043727.00,1,0.4,4.5,-1.7,-6.3,-2.9,-15.0,5.4,9.4,,,,*60
$GNGRS,043727.00,1,2.2,4.9,6.3,,,,,,,,,*73
$GNGST,043727.00,32,,,,3.6,3.1,8.3*41
$GNZDA,043727.00,28,05,2025,00,00*77
$GNGBS,043727.00,3.6,3.1,8.3,,,,*56
$GNTXT,01,01,01,More than 100 frame errors, UART RX was disabled*70
b0Laq<~O
"$.@Qu!=3P
.{4"V_:R 
YeDyEIUO!-P!?SS0T#UbaqU
E$GNRMC,043728.00,A,0419.85682,S,05539.66351,E,0.037,,280525,,,D*70
$GNVTG,,T,,M,0.037,N,0.069,K,D*33
$GNGNS,043728.00,0419.85682,S,05539.66351,E,DA,11,0.94,26.9,-47.6,,0000*62
$GNGGA,043728.00,0419.85682,S,05539.66351,E,2,11,0.94,26.9,M,-47.6,M,,0000*4E
$GNGSA,A,3,24,05,20,11,15,12,18,29,,,,,1.91,0.94,1.66*1D
$GNGSA,A,3,79,80,83,,,,,,,,,,1.91,0.94,1.66*14
$GPGSV,5,1,18,05,60,126,31,11,21,021,27,12,34,002,26,13,19,154,*7D
$GPGSV,5,2,18,14,01,131,,15,28,189,20,18,23,233,29,20,46,064,36*7A
$GPGSV,5,3,18,22,16,117,,23,02,213,,24,61,237,33,25,11,336,14*76
$GPGSV,5,4,18,29,10,302,20,36,52,277,,40,86,351,34,41,58,082,*70
$GPGSV,5,5,18,49,32,274,,50,10,089,*78
$GLGSV,2,1,08,68,13,121,,69,17,170,,73,14,341,,79,45,131,33*64
$GLGSV,2,2,08,80,63,021,33,83,30,339,24,84,35,271,,85,06,229,*68
$GNGLL,0419.85682,S,05539.66351,E,043728.00,A,D*65
$GNGRS,043728.00,1,0.5,0.8,-1.8,-8.1,-2.7,-15.1,4.4,6.6,,,,*67
$GNGRS,043728.00,1,-1.3,1.7,5.6,,,,,,,,,*5E
$GNGST,043728.00,31,,,,3.5,3.1,8.2*4F
$GNZDA,043728.00,28,05,2025,00,00*78
$GNGBS,043728.00,3.5,3.1,8.2,,,,*5B
$GNTXT,01,01,01,More than 100 frame errors, UART RX was disabled*70
b0Lxeq<~
"G#.@u!=GPu
.{4"V_:R 
YeDyEIUO -P!?SST#UIbxeqU
-_A$GNRMC,043729.00,A,0419.85685,S,05539.66348,E,0.019,,280525,,,D*72
$GNVTG,,T,,M,0.019,N,0.035,K,D*36
$GNGNS,043729.00,0419.85685,S,05539.66348,E,DA,11,0.94,27.1,-47.6,,0000*65
$GNGGA,043729.00,0419.85685,S,05539.66348,E,2,11,0.94,27.1,M,-47.6,M,,0000*49
$GNGSA,A,3,24,05,20,11,15,12,18,29,,,,,1.91,0.94,1.66*1D
$GNGSA,A,3,79,80,83,,,,,,,,,,1.91,0.94,1.66*14
$GPGSV,5,1,18,05,60,126,31,11,21,021,27,12,34,002,27,13,19,154,*7C
$GPGSV,5,2,18,14,01,131,,15,28,189,20,18,23,233,28,20,46,064,35*78
$GPGSV,5,3,18,22,16,117,,23,02,213,,24,61,237,33,25,11,336,14*76
$GPGSV,5,4,18,29,10,302,21,36,52,277,,40,86,351,34,41,58,082,*71
$GPGSV,5,5,18,49,32,274,,50,10,089,*78
$GLGSV,2,1,08,68,13,121,,69,17,170,,73,14,341,,79,45,131,32*65
$GLGSV,2,2,08,80,63,021,33,83,30,339,23,84,35,271,,85,06,229,*6F
$GNGLL,0419.85685,S,05539.66348,E,043729.00,A,D*6B
$GNGRS,043729.00,1,0.7,0.2,-1.3,-8.5,-3.5,-14.7,4.1,6.6,,,,*60
$GNGRS,043729.00,1,-3.4,-0.7,4.7,,,,,,,,,*76
$GNGST,043729.00,32,,,,3.5,3.1,8.2*4D
$GNZDA,043729.00,28,05,2025,00,00*79
$GNGBS,043729.00,3.5,3.1,8.2,,,,*5A
$GNTXT,01,01,01,More than 100 frame errors, UART RX was disabled*70
b0L`iq<~
"#.@u!=FP
.H{4"V_:R 
YeDyEIUO -uP!?:SSoT#Usb`iqU
7$GNRMC,043730.00,A,0419.85691,S,05539.66348,E,0.049,,280525,,,D*7A
$GNVTG,,T,,M,0.049,N,0.092,K,D*3E
$GNGNS,043730.00,0419.85691,S,05539.66348,E,DA,11,0.94,27.3,-47.6,,0000*6A
$GNGGA,043730.00,0419.85691,S,05539.66348,E,2,11,0.94,27.3,M,-47.6,M,,0000*46
$GNGSA,A,3,24,05,20,11,15,12,18,29,,,,,1.91,0.94,1.66*1D
$GNGSA,A,3,79,80,83,,,,,,,,,,1.91,0.94,1.66*14
$GPGSV,5,1,18,05,60,126,31,11,21,021,27,12,34,002,27,13,19,154,*7C
$GPGSV,5,2,18,14,01,131,,15,28,189,19,18,23,233,28,20,46,064,35*72
$GPGSV,5,3,18,22,16,117,,23,02,213,,24,61,237,33,25,11,336,15*77
$GPGSV,5,4,18,29,10,302,21,36,52,277,,40,86,351,34,41,58,082,*71
$GPGSV,5,5,18,49,32,274,,50,10,089,*78
$GLGSV,2,1,08,68,13,121,,69,17,170,,73,14,341,,79,45,131,32*65
$GLGSV,2,2,08,80,63,021,33,83,30,339,23,84,35,271,,85,06,229,*6F
$GNGLL,0419.85691,S,05539.66348,E,043730.00,A,D*66
$GNGRS,043730.00,1,0.7,1.9,-1.0,-7.9,-2.9,-14.0,5.1,3.3,,,,*69
$GNGRS,043730.00,1,-1.4,0.6,3.7,,,,,,,,,*57
$GNGST,043730.00,32,,,,3.5,3.1,8.1*46
$GNZDA,043730.00,28,05,2025,00,00*71
$GNGBS,043730.00,3.5,3.1,8.1,,,,*51
$GNTXT,01,01,01,More than 100 frame errors, UART RX was disabled*70
b0LHmq <~
'"O#.@u =P
.{4"V_:R 
YeDyEIUO -SP!?.SST#UbHmqU
$GNRMC,043731.00,A,0419.85697,S,05539.66347,E,0.022,,280525,,,D*7F
$GNVTG,,T,,M,0.022,N,0.042,K,D*3E
$GNGNS,043731.00,0419.85697,S,05539.66347,E,DA,11,0.94,27.3,-47.6,,0000*62
$GNGGA,043731.00,0419.85697,S,05539.66347,E,2,11,0.94,27.3,M,-47.6,M,,0000*4E
$GNGSA,A,3,24,05,20,11,15,12,18,29,,,,,1.91,0.94,1.66*1D
$GNGSA,A,3,79,80,83,,,,,,,,,,1.91,0.94,1.66*14
$GPGSV,5,1,18,05,60,126,32,11,21,021,27,12,34,002,27,13,19,154,*7F
$GPGSV,5,2,18,14,01,131,,15,28,189,19,18,23,233,28,20,46,064,35*72
$GPGSV,5,3,18,22,16,117,,23,02,213,,24,61,237,32,25,11,336,15*76
$GPGSV,5,4,18,29,10,302,21,36,52,277,,40,86,351,34,41,58,082,*71
$GPGSV,5,5,18,49,32,274,,50,10,089,*78
$GLGSV,2,1,08,68,13,121,,69,17,170,,73,14,341,,79,45,131,32*65
$GLGSV,2,2,08,80,63,021,33,83,30,339,22,84,35,271,,85,06,229,*6E
$GNGLL,0419.85697,S,05539.66347,E,043731.00,A,D*6E
$GNGRS,043731.00,1,1.3,-2.8,-0.8,-7.3,-0.7,-14.6,5.2,3.9,,,,*42
$GNGRS,043731.00,1,-1.7,-2.1,4.4,,,,,,,,,*79
$GNGST,043731.00,32,,,,3.4,3.1,8.1*46
$GNZDA,043731.00,28,05,2025,00,00*70
$GNGBS,043731.00,3.4,3.1,8.1,,,,*51
$GNTXT,01,01,01,More than 100 frame errors, UART RX was disabled*70
b0L0qq <~/
@"#.@u!=P4
.{4"V_:R 
YeDyEIUO -HP!?nSST#UgYb0qqU
v$GNRMC,043732.00,A,0419.85702,S,05539.66345,E,0.083,,280525,,,D*78
$GNVTG,,T,,M,0.083,N,0.154,K,D*33
$GNGNS,043732.00,0419.85702,S,05539.66345,E,DA,11,0.94,27.2,-47.6,,0000*6F
