$GNTXT,01,01,01,More than 100 frame errors, UART RX was disabled*70
b0dp1l:
/Ds>O
+{4V^:R 
YdD|EIUNO/P<RS QT$Ubp1lU
%$GNRMC,043148.00,A,0419.86727,S,05539.66349,E,0.082,,280525,,,A*7F
$GNVTG,,T,,M,0.082,N,0.151,K,A*32
$GNGNS,043148.00,0419.86727,S,05539.66349,E,AA,08,1.56,20.2,-47.6,,*69
$GNGGA,043148.00,0419.86727,S,05539.66349,E,1,08,1.56,20.2,M,-47.6,M,,*43
$GNGSA,A,3,24,05,20,11,12,,,,,,,,3.63,1.56,3.28*13
$GNGSA,A,3,79,80,83,,,,,,,,,,3.63,1.56,3.28*1C
$GPGSV,5,1,18,05,58,132,28,11,23,020,25,12,31,000,28,13,20,157,*7A
$GPGSV,5,2,18,14,03,129,,15,27,192,,18,22,231,19,20,47,068,27*7B
$GPGSV,5,3,18,22,17,115,,23,00,214,,24,62,244,28,25,09,335,20*70
$GPGSV,5,4,18,29,10,299,22,36,52,277,,40,86,350,,41,58,082,*77
$GPGSV,5,5,18,49,32,274,,50,10,089,*78
$GLGSV,3,1,10,68,13,124,,69,17,173,,73,12,341,14,78,01,150,*6F
$GLGSV,3,2,10,79,47,128,24,80,60,019,26,82,00,016,,83,32,337,28*6D
$GLGSV,3,3,10,84,36,268,,85,05,226,*6F
$GNGLL,0419.86727,S,05539.66349,E,043148.00,A,A*64
$GNGRS,043148.00,1,-6.0,1.7,-6.2,7.8,-2.5,,,,,,,*55
$GNGRS,043148.00,1,-10.6,-5.0,7.3,,,,,,,,,*42
$GNGST,043148.00,43,,,,6.3,6.0,20*6B
$GNZDA,043148.00,28,05,2025,00,00*78
$GNGBS,043148.00,6.3,6.0,20.4,,,,*60
$GNTXT,01,01,01,More than 100 frame errors, UART RX was disabled*70
b0dX5l:
/Ds>O
+{4V^:R 
YdD|EIUNO/aP<RS QT$U#bX5lU
$GNRMC,043149.00,A,0419.86733,S,05539.66350,E,0.038,,280525,,,A*72
$GNVTG,,T,,M,0.038,N,0.070,K,A*31
$GNGNS,043149.00,0419.86733,S,05539.66350,E,AA,08,1.56,19.8,-47.6,,*65
$GNGGA,043149.00,0419.86733,S,05539.66350,E,1,08,1.56,19.8,M,-47.6,M,,*4F
$GNGSA,A,3,24,05,20,11,12,,,,,,,,3.63,1.56,3.28*13
$GNGSA,A,3,79,80,83,,,,,,,,,,3.63,1.56,3.28*1C
$GPGSV,5,1,18,05,58,132,30,11,23,020,24,12,31,000,26,13,20,157,*7C
$GPGSV,5,2,18,14,03,129,,15,27,192,,18,22,231,18,20,47,068,28*75
$GPGSV,5,3,18,22,17,115,,23,00,214,,24,62,244,22,25,09,335,19*70
$GPGSV,5,4,18,29,10,299,22,36,52,277,,40,86,350,,41,58,082,*77
$GPGSV,5,5,18,49,32,274,,50,10,089,*78
$GLGSV,3,1,10,68,13,124,,69,17,173,,73,12,341,12,78,01,150,*69
$GLGSV,3,2,10,79,47,128,23,80,60,019,25,82,00,016,,83,32,337,29*68
$GLGSV,3,3,10,84,36,268,,85,05,226,*6F
$GNGLL,0419.86733,S,05539.66350,E,043149.00,A,A*68
$GNGRS,043149.00,1,-5.9,4.6,-3.0,7.4,-4.8,,,,,,,*5A
$GNGRS,043149.00,1,-9.3,-6.3,5.2,,,,,,,,,*7D
$GNGST,043149.00,43,,,,6.4,6.0,21*6C
$GNZDA,043149.00,28,05,2025,00,00*79
$GNGBS,043149.00,6.4,6.0,20.5,,,,*67
$GNTXT,01,01,01,More than 100 frame errors, UART RX was disabled*70
b0d@9l:t
h/Ds>O
+{4V^:R 
YdD|EIUNO/YP<xRS! QT$UBb@9lU
`$GNRMC,043150.00,A,0419.86735,S,05539.66344,E,0.100,,280525,,,A*73
$GNVTG,,T,,M,0.100,N,0.185,K,A*30
$GNGNS,043150.00,0419.86735,S,05539.66344,E,AA,08,1.56,19.5,-47.6,,*63
$GNGGA,043150.00,0419.86735,S,05539.66344,E,1,08,1.56,19.5,M,-47.6,M,,*49
$GNGSA,A,3,24,05,20,11,12,,,,,,,,3.63,1.56,3.27*1C
$GNGSA,A,3,79,80,83,,,,,,,,,,3.63,1.56,3.27*13
$GPGSV,5,1,18,05,58,132,31,11,23,020,23,12,31,000,26,13,20,157,*7A
$GPGSV,5,2,18,14,03,129,,15,27,192,,18,22,231,19,20,47,068,28*74
$GPGSV,5,3,18,22,17,115,,23,00,214,,24,62,244,26,25,09,335,17*7A
$GPGSV,5,4,18,29,10,299,22,36,52,277,,40,86,350,,41,58,082,*77
$GPGSV,5,5,18,49,32,274,,50,10,089,*78
$GLGSV,3,1,10,68,13,124,,69,17,173,,73,12,341,,78,01,150,*6A
$GLGSV,3,2,10,79,47,128,25,80,60,019,28,82,00,016,,83,32,337,33*68
$GLGSV,3,3,10,84,36,268,,85,05,226,*6F
$GNGLL,0419.86735,S,05539.66344,E,043150.00,A,A*63
$GNGRS,043150.00,1,-5.9,3.7,-11.5,5.3,-1.5,,,,,,,*6F
$GNGRS,043150.00,1,-9.3,-3.9,6.6,,,,,,,,,*7D
$GNGST,043150.00,40,,,,6.4,6.0,21*67
$GNZDA,043150.00,28,05,2025,00,00*71
$GNGBS,043150.00,6.4,6.0,20.7,,,,*6D
$GNTXT,01,01,01,More than 100 frame errors, UART RX was disabled*70
b0d(=l!;
v/DVs>]O
+{4V^:R 
YdD|EIUNO/P<VRS" QT$U[b(=lU
b$GNRMC,043151.00,A,0419.86735,S,05539.66344,E,0.053,,280525,,,A*75
$GNVTG,,T,,M,0.053,N,0.099,K,A*3B
$GNGNS,043151.00,0419.86735,S,05539.66344,E,AA,08,1.56,19.1,-47.6,,*66
$GNGGA,043151.00,0419.86735,S,05539.66344,E,1,08,1.56,19.1,M,-47.6,M,,*4C
$GNGSA,A,3,24,05,20,11,12,,,,,,,,3.62,1.56,3.27*1D
$GNGSA,A,3,79,80,83,,,,,,,,,,3.62,1.56,3.27*12
$GPGSV,5,1,18,05,59,131,33,11,23,020,26,12,31,000,26,13,20,157,*7F
$GPGSV,5,2,18,14,03,129,,15,27,192,,18,22,231,20,20,47,068,29*7F
$GPGSV,5,3,18,22,17,115,,23,00,214,,24,62,244,30,25,09,335,18*72
$GPGSV,5,4,18,29,10,299,23,36,52,277,,40,86,350,,41,58,082,*76
$GPGSV,5,5,18,49,32,274,,50,10,089,*78
$GLGSV,3,1,10,68,13,124,,69,17,173,,73,12,341,,78,01,150,*6A
$GLGSV,3,2,10,79,47,128,26,80,60,019,29,82,00,016,,83,32,337,34*6D
$GLGSV,3,3,10,84,36,268,,85,05,226,*6F
$GNGLL,0419.86735,S,05539.66344,E,043151.00,A,A*62
$GNGRS,043151.00,1,-6.7,2.4,-6.8,4.7,-1.4,,,,,,,*5E
$GNGRS,043151.00,1,-7.5,-1.7,7.3,,,,,,,,,*7C
$GNGST,043151.00,37,,,,6.4,6.0,21*66
$GNZDA,043151.00,28,05,2025,00,00*70
$GNGBS,043151.00,6.4,6.0,20.5,,,,*6E
$GNTXT,01,01,01,More than 100 frame errors, UART RX was disabled*70
b0dAl";
1/DXs>O
+{4V^:R 
YdD|EIUNO/P<RS" QT$UbAlU
:0$GNRMC,043152.00,A,0419.86736,S,05539.66350,E,0.085,,280525,,,A*7B
$GNVTG,,T,,M,0.085,N,0.157,K,A*33
$GNGNS,043152.00,0419.86736,S,05539.66350,E,AA,08,1.56,18.5,-47.6,,*66
$GNGGA,043152.00,0419.86736,S,05539.66350,E,1,08,1.56,18.5,M,-47.6,M,,*4C
$GNGSA,A,3,24,05,20,11,12,,,,,,,,3.62,1.56,3.27*1D
$GNGSA,A,3,79,80,83,,,,,,,,,,3.62,1.56,3.27*12
$GPGSV,5,1,18,05,59,131,34,11,23,020,28,12,31,000,27,13,20,157,*77
$GPGSV,5,2,18,14,03,129,,15,27,192,,18,22,231,21,20,47,068,29*7E
$GPGSV,5,3,18,22,17,115,,23,00,214,,24,62,244,31,25,09,335,18*73
$GPGSV,5,4,18,29,10,299,22,36,52,277,,40,86,350,,41,58,082,*77
$GPGSV,5,5,18,49,32,274,,50,10,089,*78
$GLGSV,3,1,10,68,13,124,,69,17,173,,73,12,341,,78,01,150,*6A
$GLGSV,3,2,10,79,47,128,27,80,60,019,29,82,00,016,,83,32,337,34*6C
$GLGSV,3,3,10,84,36,268,,85,05,226,*6F
$GNGLL,0419.86736,S,05539.66350,E,043152.00,A,A*67
$GNGRS,043152.00,1,-8.9,1.8,-1.7,3.1,-0.2,,,,,,,*5C
$GNGRS,043152.00,1,-7.8,4.1,7.7,,,,,,,,,*58
$GNGST,043152.00,35,,,,6.4,6.0,20*66
$GNZDA,043152.00,28,05,2025,00,00*73
$GNGBS,043152.00,6.4,6.0,20.4,,,,*6C
$GNTXT,01,01,01,More than 100 frame errors, UART RX was disabled*70
b0dDl";
3/Ds >O
+{4V^:R 
YdD|EIUNO/P<zRS# QT$UbDlU
$GNRMC,043153.00,A,0419.86723,S,05539.66355,E,0.034,,280525,,,A*71
$GNVTG,,T,,M,0.034,N,0.063,K,A*3F
$GNGNS,043153.00,0419.86723,S,05539.66355,E,AA,08,1.56,19.1,-47.6,,*63
$GNGGA,043153.00,0419.86723,S,05539.66355,E,1,08,1.56,19.1,M,-47.6,M,,*49
$GNGSA,A,3,24,05,20,11,12,,,,,,,,3.62,1.56,3.27*1D
$GNGSA,A,3,79,80,83,,,,,,,,,,3.62,1.56,3.27*12
$GPGSV,5,1,18,05,59,131,34,11,23,020,30,12,31,000,27,13,20,157,*7E
$GPGSV,5,2,18,14,03,129,,15,27,192,18,18,22,231,21,20,47,068,31*7E
$GPGSV,5,3,18,22,17,115,,23,00,214,,24,62,244,32,25,09,335,18*70
$GPGSV,5,4,18,29,10,299,21,36,52,277,,40,86,350,,41,58,082,*74
$GPGSV,5,5,18,49,32,274,,50,10,089,*78
$GLGSV,3,1,10,68,13,124,,69,17,173,,73,12,341,,78,01,150,*6A
$GLGSV,3,2,10,79,47,128,26,80,60,019,30,82,00,016,,83,32,337,35*64
$GLGSV,3,3,10,84,36,268,,85,05,226,*6F
$GNGLL,0419.86723,S,05539.66355,E,043153.00,A,A*67
$GNGRS,043153.00,1,-8.5,3.9,-0.3,-2.0,0.0,,,,,,,*55
$GNGRS,043153.00,1,-8.3,8.9,7.4,,,,,,,,,*5A
$GNGST,043153.00,33,,,,6.4,5.9,20*6B
$GNZDA,043153.00,28,05,2025,00,00*72
$GNGBS,043153.00,6.4,5.9,20.2,,,,*61
$GNTXT,01,01,01,More than 100 frame errors, UART RX was disabled*70
b0dHl";
,w /DUs >O
+{4V^:R 
YdD|EIUNO/P<RS" Q#T$UMbHlU
$GNRMC,043154.00,A,0419.86707,S,05539.66362,E,0.009,,280525,,,A*7A
$GNVTG,,T,,M,0.009,N,0.017,K,A*32
$GNGNS,043154.00,0419.86707,S,05539.66362,E,AA,08,1.56,19.8,-47.6,,*6F
$GNGGA,043154.00,0419.86707,S,05539.66362,E,1,08,1.56,19.8,M,-47.6,M,,*45
$GNGSA,A,3,24,05,20,11,12,,,,,,,,3.62,1.56,3.27*1D
$GNGSA,A,3,79,80,83,,,,,,,,,,3.62,1.56,3.27*12
$GPGSV,5,1,18,05,59,131,34,11,23,020,30,12,31,000,26,13,20,157,17*79
$GPGSV,5,2,18,14,03,129,,15,27,192,18,18,22,231,21,20,47,068,32*7D
$GPGSV,5,3,18,22,17,115,,23,00,214,,24,62,244,32,25,09,335,18*70
$GPGSV,5,4,18,29,10,299,21,36,52,277,,40,86,350,,41,58,082,*74
$GPGSV,5,5,18,49,32,274,,50,10,089,*78
$GLGSV,3,1,10,68,13,124,,69,17,173,,73,12,341,,78,01,150,*6A
$GLGSV,3,2,10,79,47,128,26,80,60,019,30,82,00,016,,83,32,337,34*65
$GLGSV,3,3,10,84,36,268,,85,05,226,*6F
$GNGLL,0419.86707,S,05539.66362,E,043154.00,A,A*62
$GNGRS,043154.00,1,-8.6,2.8,0.9,-2.7,0.4,,,,,,,*75
$GNGRS,043154.00,1,-8.1,10.3,5.5,,,,,,,,,*6F
$GNGST,043154.00,33,,,,6.4,5.8,20*6D
$GNZDA,043154.00,28,05,2025,00,00*75
$GNGBS,043154.00,6.4,5.8,20.0,,,,*65
$GNTXT,01,01,01,More than 100 frame errors, UART RX was disabled*70
b0dLl";
^ /Ds >O
+{4V^:R 
YdD|EIUNO/P<RS! QT$UbLlU
}Y$GNRMC,043155.00,A,0419.86700,S,05539.66362,E,0.044,,280525,,,A*75
$GNVTG,,T,,M,0.044,N,0.081,K,A*34
$GNGNS,043155.00,0419.86700,S,05539.66362,E,AA,08,1.56,20.3,-47.6,,*68
$GNGGA,043155.00,0419.86700,S,05539.66362,E,1,08,1.56,20.3,M,-47.6,M,,*42
$GNGSA,A,3,24,05,20,11,12,,,,,,,,3.62,1.56,3.27*1D
$GNGSA,A,3,79,80,83,,,,,,,,,,3.62,1.56,3.27*12
$GPGSV,5,1,18,05,59,131,34,11,23,020,30,12,31,000,26,13,20,157,13*7D
$GPGSV,5,2,18,14,03,129,,15,27,192,18,18,22,231,21,20,47,068,32*7D
$GPGSV,5,3,18,22,17,115,,23,00,214,,24,62,244,32,25,09,335,18*70
$GPGSV,5,4,18,29,10,299,21,36,52,277,,40,86,350,,41,58,082,*74
$GPGSV,5,5,18,49,32,274,,50,10,089,*78
$GLGSV,3,1,10,68,13,124,,69,17,173,,73,12,341,,78,01,150,*6A
$GLGSV,3,2,10,79,47,128,25,80,60,019,31,82,00,016,,83,32,337,33*60
$GLGSV,3,3,10,84,36,268,19,85,05,226,*67
$GNGLL,0419.86700,S,05539.66362,E,043155.00,A,A*64
$GNGRS,043155.00,1,-5.6,2.1,-2.9,-7.4,2.1,,,,,,,*5E
$GNGRS,043155.00,1,-8.2,1.5,5.1,,,,,,,,,*5F
$GNGST,043155.00,33,,,,6.3,5.8,20*6B
$GNZDA,043155.00,28,05,2025,00,00*74
$GNGBS,043155.00,6.3,5.8,19.8,,,,*61
$GNTXT,01,01,01,More than 100 frame errors, UART RX was disabled*70
b0dPl";
HQ/Ds >QO
+{4V^:R 
YdD|EIUNO/P<RS! QT$UbPlU
e$GNRMC,043156.00,A,0419.86698,S,05539.66361,E,0.011,,280525,,,A*75
$GNVTG,,T,,M,0.011,N,0.020,K,A*3F
$GNGNS,043156.00,0419.86698,S,05539.66361,E,AA,09,1.56,20.5,-47.6,,*6F
$GNGGA,043156.00,0419.86698,S,05539.66361,E,1,09,1.56,20.5,M,-47.6,M,,*45
$GNGSA,A,3,24,05,20,11,15,12,,,,,,,3.62,1.56,3.27*19
$GNGSA,A,3,79,80,83,,,,,,,,,,3.62,1.56,3.27*12
$GPGSV,5,1,18,05,59,131,34,11,23,020,31,12,31,000,26,13,20,157,11*7E
$GPGSV,5,2,18,14,03,129,,15,27,192,18,18,22,231,22,20,47,068,31*7D
$GPGSV,5,3,18,22,17,115,,23,00,214,,24,62,244,32,25,09,335,19*71
$GPGSV,5,4,18,29,10,299,22,36,52,277,,40,86,350,,41,58,082,*77
$GPGSV,5,5,18,49,32,274,,50,10,089,*78
$GLGSV,3,1,10,68,13,124,,69,17,173,,73,12,341,,78,01,150,*6A
$GLGSV,3,2,10,79,47,128,26,80,60,019,30,82,00,016,,83,32,337,33*62
$GLGSV,3,3,10,84,36,268,18,85,05,226,*66
$GNGLL,0419.86698,S,05539.66361,E,043156.00,A,A*64
$GNGRS,043156.00,1,-4.3,4.2,-0.2,-7.0,-24.8,0.3,,,,,,*6C
$GNGRS,043156.00,1,-7.6,-3.8,5.2,,,,,,,,,*76
$GNGST,043156.00,33,,,,6.3,5.7,20*67
$GNZDA,043156.00,28,05,2025,00,00*77
$GNGBS,043156.00,6.3,5.7,19.7,,,,*62
$GNTXT,01,01,01,More than 100 frame errors, UART RX was disabled*70
b0dTl";=
{
(/Ds >O
+{4V^:R 
YdD|EIUNO/gP <RS  QT$UVbTlU
Mq)$GNRMC,043157.00,A,0419.86699,S,05539.66361,E,0.126,,280525,,,A*70
$GNVTG,,T,,M,0.126,N,0.233,K,A*3A
$GNGNS,043157.00,0419.86699,S,05539.66361,E,AA,09,1.56,20.7,-47.6,,*6D
$GNGGA,043157.00,0419.86699,S,05539.66361,E,1,09,1.56,20.7,M,-47.6,M,,*47
$GNGSA,A,3,24,05,20,11,15,12,,,,,,,3.62,1.56,3.27*19
$GNGSA,A,3,79,80,83,,,,,,,,,,3.62,1.56,3.27*12
$GPGSV,5,1,18,05,59,131,34,11,23,020,30,12,31,000,28,13,20,157,10*70
$GPGSV,5,2,18,14,03,129,,15,27,192,19,18,22,231,22,20,47,068,31*7C
$GPGSV,5,3,18,22,17,115,,23,00,214,,24,62,244,32,25,09,335,19*71
$GPGSV,5,4,18,29,10,299,22,36,52,277,,40,86,350,,41,58,082,*77
$GPGSV,5,5,18,49,32,274,,50,10,089,*78
$GLGSV,3,1,10,68,13,124,,69,17,173,,73,12,341,,78,01,150,*6A
$GLGSV,3,2,10,79,47,128,26,80,60,019,32,82,00,016,,83,32,337,32*61
$GLGSV,3,3,10,84,36,268,18,85,05,226,*66
$GNGLL,0419.86699,S,05539.66361,E,043157.00,A,A*64
$GNGRS,043157.00,1,-3.7,3.2,1.9,-9.0,-20.1,-1.2,,,,,,*60
$GNGRS,043157.00,1,-6.7,-3.7,4.5,,,,,,,,,*7E
$GNGST,043157.00,33,,,,6.3,5.7,19*6C
$GNZDA,043157.00,28,05,2025,00,00*76
$GNGBS,043157.00,6.3,5.7,19.5,,,,*61
$GNTXT,01,01,01,More than 100 frame errors, UART RX was disabled*70
b0dXl";6
  /DGs>bO
+{4V^:R 
YdD|EIUNO/P<RS! QT$UbXlU
5I$GNRMC,043158.00,A,0419.86687,S,05539.66364,E,0.022,,280525,,,A*70
$GNVTG,,T,,M,0.022,N,0.041,K,A*38
$GNGNS,043158.00,0419.86687,S,05539.66364,E,AA,09,1.11,21.5,-47.6,,*68
$GNGGA,043158.00,0419.86687,S,05539.66364,E,1,09,1.11,21.5,M,-47.6,M,,*42
$GNGSA,A,3,24,05,20,11,15,12,,,,,,,2.28,1.11,1.99*12
$GNGSA,A,3,79,80,83,,,,,,,,,,2.28,1.11,1.99*19
$GPGSV,5,1,18,05,59,131,34,11,23,020,29,12,32,001,28,13,20,157,09*72
$GPGSV,5,2,18,14,03,129,,15,27,192,18,18,22,231,23,20,47,068,32*7F
$GPGSV,5,3,18,22,17,115,,23,00,214,,24,62,244,29,25,09,335,20*71
$GPGSV,5,4,18,29,10,299,23,36,52,277,,40,86,350,,41,58,082,*76
$GPGSV,5,5,18,49,32,274,,50,10,089,*78
$GLGSV,3,1,10,68,13,124,,69,17,173,,73,12,341,,78,01,150,*6A
$GLGSV,3,2,10,79,47,128,26,80,60,019,31,82,00,016,,83,32,337,33*63
$GLGSV,3,3,10,84,36,268,19,85,05,226,*67
$GNGLL,0419.86687,S,05539.66364,E,043158.00,A,A*61
$GNGRS,043158.00,1,-4.1,3.1,0.7,-7.4,-19.1,-5.2,,,,,,*66
$GNGRS,043158.00,1,-5.1,-3.1,4.9,,,,,,,,,*7E
$GNGST,043158.00,37,,,,6.2,5.6,19*67
$GNZDA,043158.00,28,05,2025,00,00*79
$GNGBS,043158.00,6.2,5.6,19.1,,,,*6A
$GNTXT,01,01,01,More than 100 frame errors, UART RX was disabled*70
b0dh\l#;;
 N /Ds>O
+{4V^:R 
YdD|EIUNO/P<1RS! QT$Ulbh\lU
!$GNRMC,043159.00,A,0419.86682,S,05539.66366,E,0.034,,280525,,,A*71
$GNVTG,,T,,M,0.034,N,0.063,K,A*3F
$GNGNS,043159.00,0419.86682,S,05539.66366,E,AA,09,1.11,21.9,-47.6,,*62
$GNGGA,043159.00,0419.86682,S,05539.66366,E,1,09,1.11,21.9,M,-47.6,M,,*48
$GNGSA,A,3,24,05,20,11,15,12,,,,,,,2.28,1.11,1.99*12
$GNGSA,A,3,79,80,83,,,,,,,,,,2.28,1.11,1.99*19
$GPGSV,5,1,18,05,59,131,35,11,23,020,30,12,32,001,28,13,20,156,09*7A
$GPGSV,5,2,18,14,03,129,,15,27,192,18,18,22,231,25,20,47,068,32*79
$GPGSV,5,3,18,22,17,115,,23,00,214,,24,62,244,28,25,09,335,21*71
$GPGSV,5,4,18,29,10,299,23,36,52,277,,40,86,350,,41,58,082,*76
$GPGSV,5,5,18,49,32,274,,50,10,089,*78
$GLGSV,3,1,10,68,13,124,,69,17,173,,73,12,341,,78,01,150,*6A
$GLGSV,3,2,10,79,47,128,26,80,60,019,27,82,00,016,,83,32,337,33*64
$GLGSV,3,3,10,84,36,268,18,85,05,226,*66
$GNGLL,0419.86682,S,05539.66366,E,043159.00,A,A*67
$GNGRS,043159.00,1,-5.9,3.1,-0.1,-8.4,-10.5,-6.9,,,,,,*4F
$GNGRS,043159.00,1,-3.4,-4.6,4.6,,,,,,,,,*73
$GNGST,043159.00,38,,,,6.1,5.6,19*6A
$GNZDA,043159.00,28,05,2025,00,00*78
$GNGBS,043159.00,6.1,5.6,18.9,,,,*61
$GNTXT,01,01,01,More than 100 frame errors, UART RX was disabled*70
b0dP`l#;
l z /D-s>O
+{4V^:R 
YdD|EIUNO/P<RS! QT$UcbP`lU
a$GNRMC,043200.00,A,0419.86677,S,05539.66365,E,0.086,,280525,,,A*7E
$GNVTG,,T,,M,0.086,N,0.159,K,A*3E
$GNGNS,043200.00,0419.86677,S,05539.66365,E,AA,09,1.11,22.5,-47.6,,*6B
$GNGGA,043200.00,0419.86677,S,05539.66365,E,1,09,1.11,22.5,M,-47.6,M,,*41
$GNGSA,A,3,24,05,20,11,15,12,,,,,,,2.28,1.11,1.99*12
$GNGSA,A,3,79,80,83,,,,,,,,,,2.28,1.11,1.99*19
$GPGSV,5,1,18,05,59,131,35,11,23,020,29,12,32,001,27,13,20,156,08*7C
$GPGSV,5,2,18,14,03,129,,15,27,192,17,18,22,231,25,20,47,068,32*76
$GPGSV,5,3,18,22,17,115,,23,00,214,,24,62,244,27,25,09,335,22*7D
$GPGSV,5,4,18,29,10,299,23,36,52,277,,40,86,350,,41,58,082,*76
$GPGSV,5,5,18,49,32,274,,50,10,089,*78
$GLGSV,3,1,10,68,13,124,,69,17,173,,73,12,341,,78,01,150,*6A
$GLGSV,3,2,10,79,47,128,26,80,60,019,29,82,00,016,,83,32,337,33*6A
$GLGSV,3,3,10,84,36,268,17,85,05,226,*69
$GNGLL,0419.86677,S,05539.66365,E,043200.00,A,A*61
$GNGRS,043200.00,1,-5.6,2.9,0.5,-9.2,-9.0,-6.3,,,,,,*5F
$GNGRS,043200.00,1,-3.8,-1.0,4.8,,,,,,,,,*7D
$GNGST,043200.00,39,,,,6.0,5.6,19*65
$GNZDA,043200.00,28,05,2025,00,00*77
$GNGBS,043200.00,6.0,5.6,18.7,,,,*61
$GNTXT,01,01,01,More than 100 frame errors, UART RX was disabled*70
b0d8dl#;
 /DWs>O
+{4V^:R 
YdD|EIUNO/P<RS" QT$ULb8dlU
$GNRMC,043201.00,A,0419.86673,S,05539.66366,E,0.029,,280525,,,A*7D
$GNVTG,,T,,M,0.029,N,0.054,K,A*37
$GNGNS,043201.00,0419.86673,S,05539.66366,E,AA,09,1.11,22.7,-47.6,,*6F
$GNGGA,043201.00,0419.86673,S,05539.66366,E,1,09,1.11,22.7,M,-47.6,M,,*45
$GNGSA,A,3,24,05,20,11,15,12,,,,,,,2.28,1.11,1.99*12
$GNGSA,A,3,79,80,83,,,,,,,,,,2.28,1.11,1.99*19
$GPGSV,5,1,18,05,59,131,35,11,23,020,29,12,32,001,27,13,20,156,09*7D
$GPGSV,5,2,18,14,03,129,,15,27,191,15,18,22,231,25,20,47,068,31*74
$GPGSV,5,3,18,22,17,115,,23,00,214,,24,62,244,28,25,09,335,21*71
$GPGSV,5,4,18,29,10,299,24,36,52,277,,40,86,350,,41,58,082,*71
$GPGSV,5,5,18,49,32,274,,50,10,089,*78
$GLGSV,3,1,10,68,13,124,,69,17,173,,73,12,341,,78,01,150,*6A
$GLGSV,3,2,10,79,47,128,26,80,60,019,30,82,00,016,,83,32,337,34*65
$GLGSV,3,3,10,84,36,268,18,85,05,226,*66
$GNGLL,0419.86673,S,05539.66366,E,043201.00,A,A*67
$GNGRS,043201.00,1,-2.8,2.8,0.9,-3.6,-10.0,-6.3,,,,,,*6C
$GNGRS,043201.00,1,-2.4,-0.5,4.5,,,,,,,,,*78
$GNGST,043201.00,39,,,,6.0,5.5,19*67
$GNZDA,043201.00,28,05,2025,00,00*76
$GNGBS,043201.00,6.0,5.5,18.5,,,,*61
$GNTXT,01,01,01,More than 100 frame errors, UART RX was disabled*70
b0d hl";M
{ W /Ds>O
+{4V^:R 
YdD|EIUNO/P <RS" QT$Ub hlU
.$GNRMC,043202.00,A,0419.86672,S,05539.66368,E,0.049,,280525,,,A*77
$GNVTG,,T,,M,0.049,N,0.091,K,A*38
$GNGNS,043202.00,0419.86672,S,05539.66368,E,AA,09,1.11,22.8,-47.6,,*6C
$GNGGA,043202.00,0419.86672,S,05539.66368,E,1,09,1.11,22.8,M,-47.6,M,,*46
$GNGSA,A,3,24,05,20,11,15,12,,,,,,,2.28,1.11,1.99*12
$GNGSA,A,3,79,80,83,,,,,,,,,,2.28,1.11,1.99*19
$GPGSV,5,1,18,05,59,131,34,11,23,020,29,12,32,001,26,13,20,156,09*7D
$GPGSV,5,2,18,14,03,129,,15,27,191,15,18,22,231,26,20,47,068,32*74
$GPGSV,5,3,18,22,17,115,,23,00,214,,24,62,244,27,25,09,335,21*7E
$GPGSV,5,4,18,29,10,299,25,36,52,277,,40,86,350,,41,58,082,*70
$GPGSV,5,5,18,49,32,274,,50,10,089,*78
$GLGSV,3,1,10,68,13,124,,69,17,173,,73,12,341,,78,01,150,*6A
$GLGSV,3,2,10,79,47,128,26,80,60,019,32,82,00,016,,83,32,337,34*67
$GLGSV,3,3,10,84,36,268,18,85,05,226,*66
$GNGLL,0419.86672,S,05539.66368,E,043202.00,A,A*6B
$GNGRS,043202.00,1,-0.7,3.3,4.1,-3.9,-8.7,-4.3,,,,,,*57
$GNGRS,043202.00,1,-0.6,-5.3,4.3,,,,,,,,,*7E
$GNGST,043202.00,39,,,,5.9,5.5,18*6F
$GNZDA,043202.00,28,05,2025,00,00*75
$GNGBS,043202.00,5.9,5.5,18.3,,,,*6E
$GNTXT,01,01,01,More than 100 frame errors, UART RX was disabled*70
b0dll";T
 2 /Ds>~O
+{4V^:R 
YdD|EIUNO/P <RS" QT$UbllU
$GNRMC,043203.00,A,0419.86672,S,05539.66367,E,0.054,,280525,,,A*75
$GNVTG,,T,,M,0.054,N,0.100,K,A*3D
$GNGNS,043203.00,0419.86672,S,05539.66367,E,AA,09,1.11,23.1,-47.6,,*6A
$GNGGA,043203.00,0419.86672,S,05539.66367,E,1,09,1.11,23.1,M,-47.6,M,,*40
$GNGSA,A,3,24,05,20,11,15,12,,,,,,,2.28,1.11,1.99*12
$GNGSA,A,3,79,80,83,,,,,,,,,,2.28,1.11,1.99*19
$GPGSV,5,1,18,05,59,131,34,11,23,020,29,12,32,001,26,13,20,156,08*7C
$GPGSV,5,2,18,14,03,129,,15,27,191,16,18,22,231,26,20,47,068,32*77
$GPGSV,5,3,18,22,17,115,,23,00,214,,24,62,244,27,25,09,335,22*7D
$GPGSV,5,4,18,29,10,299,24,36,52,277,,40,86,350,,41,58,082,*71
$GPGSV,5,5,18,49,32,274,,50,10,089,*78
$GLGSV,3,1,10,68,13,124,,69,17,173,,73,12,341,,78,01,150,*6A
$GLGSV,3,2,10,79,47,128,25,80,60,019,32,82,00,016,,83,32,337,34*64
$GLGSV,3,3,10,84,36,268,19,85,05,226,*67
$GNGLL,0419.86672,S,05539.66367,E,043203.00,A,A*65
$GNGRS,043203.00,1,-1.3,3.4,-0.6,-7.7,-7.7,-7.2,,,,,,*7D
$GNGRS,043203.00,1,1.6,-2.7,4.1,,,,,,,,,*52
$GNGST,043203.00,39,,,,5.9,5.5,18*6E
$GNZDA,043203.00,28,05,2025,00,00*74
$GNGBS,043203.00,5.9,5.5,18.1,,,,*6D
$GNTXT,01,01,01,More than 100 frame errors, UART RX was disabled*70
b0dol";I
 9 /Ds>O
+{4V^:R 
YdD|EIUNO/!P <RS" QT$UqKbolU
W$GNRMC,043204.00,A,0419.86670,S,05539.66368,E,0.032,,280525,,,A*7F
$GNVTG,,T,,M,0.032,N,0.059,K,A*30
$GNGNS,043204.00,0419.86670,S,05539.66368,E,AA,09,1.11,23.5,-47.6,,*64
$GNGGA,043204.00,0419.86670,S,05539.66368,E,1,09,1.11,23.5,M,-47.6,M,,*4E
$GNGSA,A,3,24,05,20,11,15,12,,,,,,,2.28,1.11,1.99*12
$GNGSA,A,3,79,80,83,,,,,,,,,,2.28,1.11,1.99*19
$GPGSV,5,1,18,05,59,131,34,11,23,020,29,12,32,001,25,13,20,156,08*7F
$GPGSV,5,2,18,14,03,129,,15,27,191,16,18,22,231,27,20,47,068,32*76
$GPGSV,5,3,18,22,17,115,,23,00,214,,24,62,244,26,25,09,335,22*7C
$GPGSV,5,4,18,29,10,299,25,36,52,277,,40,86,350,,41,58,082,*70
$GPGSV,5,5,18,49,32,274,,50,10,089,*78
$GLGSV,3,1,10,68,13,124,,69,17,173,,73,12,341,,78,01,150,*6A
$GLGSV,3,2,10,79,47,128,24,80,60,019,32,82,00,016,,83,32,337,34*65
$GLGSV,3,3,10,84,36,268,19,85,05,226,*67
$GNGLL,0419.86670,S,05539.66368,E,043204.00,A,A*6F
$GNGRS,043204.00,1,-3.1,3.3,1.5,-7.9,-7.1,-5.2,,,,,,*58
$GNGRS,043204.00,1,5.5,2.6,4.0,,,,,,,,,*7F
$GNGST,043204.00,40,,,,5.8,5.5,18*66
$GNZDA,043204.00,28,05,2025,00,00*73
$GNGBS,043204.00,5.8,5.5,17.9,,,,*6C
$GNTXT,01,01,01,More than 100 frame errors, UART RX was disabled*70
b0dsl";L
 O
 /Ds>zO
+{4V^:R 
YdD|EIUNO/P <?RS" QT$UbslU
/W$GNRMC,043205.00,A,0419.86667,S,05539.66373,E,0.149,,280525,,,A*7F
$GNVTG,,T,,M,0.149,N,0.276,K,A*32
$GNGNS,043205.00,0419.86667,S,05539.66373,E,AA,09,1.11,23.7,-47.6,,*6B
$GNGGA,043205.00,0419.86667,S,05539.66373,E,1,09,1.11,23.7,M,-47.6,M,,*41
$GNGSA,A,3,24,05,20,11,15,12,,,,,,,2.28,1.11,1.99*12
$GNGSA,A,3,79,80,83,,,,,,,,,,2.28,1.11,1.99*19
$GPGSV,5,1,18,05,59,131,34,11,23,020,29,12,32,001,25,13,20,156,10*76
$GPGSV,5,2,18,14,03,129,,15,27,191,16,18,22,231,27,20,47,068,32*76
$GPGSV,5,3,18,22,17,115,,23,00,214,,24,62,244,26,25,09,335,23*7D
$GPGSV,5,4,18,29,10,299,25,36,52,277,,40,86,350,,41,58,082,*70
$GPGSV,5,5,18,49,32,274,,50,10,089,*78
$GLGSV,3,1,10,68,13,124,,69,17,173,,73,12,341,,78,01,150,*6A
$GLGSV,3,2,10,79,47,128,24,80,60,019,32,82,00,016,,83,32,337,34*65
$GLGSV,3,3,10,84,36,268,20,85,05,226,*6D
$GNGLL,0419.86667,S,05539.66373,E,043205.00,A,A*62
$GNGRS,043205.00,1,-3.9,3.3,1.9,-5.8,-8.1,-6.9,,,,,,*59
$GNGRS,043205.00,1,6.6,-1.9,4.1,,,,,,,,,*5E
$GNGST,043205.00,39,,,,5.8,5.5,18*69
$GNZDA,043205.00,28,05,2025,00,00*72
$GNGBS,043205.00,5.8,5.5,17.6,,,,*62
$GNTXT,01,01,01,More than 100 frame errors, UART RX was disabled*70
b0dwl#;7
x A /Ds>>O
+{4V^:R 
YdD|EIUNO/
P <RS" QT$U64bwlU
u$GNRMC,043206.00,A,0419.86676,S,05539.66373,E,0.097,,280525,,,A*7E
$GNVTG,,T,,M,0.097,N,0.180,K,A*3A
$GNGNS,043206.00,0419.86676,S,05539.66373,E,AA,09,1.11,23.5,-47.6,,*6A
$GNGGA,043206.00,0419.86676,S,05539.66373,E,1,09,1.11,23.5,M,-47.6,M,,*40
$GNGSA,A,3,24,05,20,11,15,12,,,,,,,2.28,1.11,1.99*12
$GNGSA,A,3,79,80,83,,,,,,,,,,2.28,1.11,1.99*19
$GPGSV,5,1,18,05,59,131,35,11,23,020,29,12,32,001,24,13,20,156,09*7E
$GPGSV,5,2,18,14,03,129,,15,27,191,15,18,22,231,27,20,47,068,32*75
$GPGSV,5,3,18,22,17,115,,23,00,214,,24,62,244,25,25,09,335,24*79
$GPGSV,5,4,18,29,10,299,25,36,52,277,,40,86,350,,41,58,082,*70
$GPGSV,5,5,18,49,32,274,,50,10,089,*78
$GLGSV,3,1,10,68,13,124,,69,17,173,,73,12,341,,78,01,150,*6A
$GLGSV,3,2,10,79,47,128,22,80,60,019,32,82,00,016,,83,32,337,34*63
$GLGSV,3,3,10,84,36,268,19,85,05,226,*67
$GNGLL,0419.86676,S,05539.66373,E,043206.00,A,A*61
$GNGRS,043206.00,1,-4.5,3.1,1.8,-6.5,-5.3,-7.0,,,,,,*5B
$GNGRS,043206.00,1,7.8,-2.6,4.1,,,,,,,,,*5E
$GNGST,043206.00,41,,,,5.7,5.5,17*65
$GNZDA,043206.00,28,05,2025,00,00*71
$GNGBS,043206.00,5.7,5.5,17.5,,,,*6D
$GNTXT,01,01,01,More than 100 frame errors, UART RX was disabled*70
b0d{l#;
 7!/D3s>wO
+{4V^:R 
YdD|EIUNO/qP <7RS" QT$U#b{lU
]'$GNRMC,043207.00,A,0419.86676,S,05539.66375,E,0.033,,280525,,,A*77
$GNVTG,,T,,M,0.033,N,0.061,K,A*3A
$GNGNS,043207.00,0419.86676,S,05539.66375,E,AA,09,1.11,23.8,-47.6,,*60
$GNGGA,043207.00,0419.86676,S,05539.66375,E,1,09,1.11,23.8,M,-47.6,M,,*4A
$GNGSA,A,3,24,05,20,11,15,12,,,,,,,2.28,1.11,1.99*12
$GNGSA,A,3,79,80,83,,,,,,,,,,2.28,1.11,1.99*19
$GPGSV,5,1,18,05,59,131,35,11,23,020,29,12,32,001,23,13,20,156,09*79
$GPGSV,5,2,18,14,03,129,,15,27,191,17,18,22,231,27,20,47,068,33*76
$GPGSV,5,3,18,22,17,115,,23,00,214,,24,62,244,25,25,09,335,24*79
$GPGSV,5,4,18,29,10,299,24,36,52,277,,40,86,350,,41,58,082,*71
$GPGSV,5,5,18,49,32,274,,50,10,089,*78
$GLGSV,3,1,10,68,13,124,,69,17,173,,73,12,341,,78,01,150,*6A
$GLGSV,3,2,10,79,47,128,22,80,60,019,32,82,00,016,,83,32,337,34*63
$GLGSV,3,3,10,84,36,268,19,85,05,226,*67
$GNGLL,0419.86676,S,05539.66375,E,043207.00,A,A*66
$GNGRS,043207.00,1,-3.9,2.7,0.5,-5.9,-6.3,-7.1,,,,,,*57
$GNGRS,043207.00,1,8.8,-2.0,4.1,,,,,,,,,*56
$GNGST,043207.00,40,,,,5.7,5.5,17*65
$GNZDA,043207.00,28,05,2025,00,00*70
$GNGBS,043207.00,5.7,5.5,17.3,,,,*6A
$GNTXT,01,01,01,More than 100 frame errors, UART RX was disabled*70
b0dl#;
 u!/Ds>WO
+{4V^:R 
YdD|EIUNO/P<RS" QT$U@qblU
E$GNRMC,043208.00,A,0419.86680,S,05539.66375,E,0.028,,280525,,,A*7B
$GNVTG,,T,,M,0.028,N,0.052,K,A*30
$GNGNS,043208.00,0419.86680,S,05539.66375,E,AA,09,1.11,23.7,-47.6,,*69
$GNGGA,043208.00,0419.86680,S,05539.66375,E,1,09,1.11,23.7,M,-47.6,M,,*43
$GNGSA,A,3,24,05,20,11,15,12,,,,,,,2.28,1.11,1.99*12
$GNGSA,A,3,79,80,83,,,,,,,,,,2.28,1.11,1.99*19
$GPGSV,5,1,18,05,59,131,35,11,23,020,29,12,32,001,22,13,20,156,08*79
$GPGSV,5,2,18,14,03,129,,15,27,191,18,18,22,231,27,20,47,068,33*79
$GPGSV,5,3,18,22,17,115,,23,01,213,,24,62,244,24,25,09,335,24*7E
$GPGSV,5,4,18,29,10,299,24,36,52,277,,40,86,350,,41,58,082,*71
$GPGSV,5,5,18,49,32,274,,50,10,089,*78
$GLGSV,3,1,10,68,13,124,,69,17,173,,73,12,341,,78,01,150,*6A
$GLGSV,3,2,10,79,47,128,23,80,60,019,31,82,00,016,,83,32,337,34*61
$GLGSV,3,3,10,84,36,268,18,85,05,226,*66
$GNGLL,0419.86680,S,05539.66375,E,043208.00,A,A*60
$GNGRS,043208.00,1,-4.3,2.5,-0.1,-2.6,-6.5,-8.2,,,,,,*7C
$GNGRS,043208.00,1,9.7,-3.0,4.0,,,,,,,,,*57
$GNGST,043208.00,40,,,,5.6,5.5,17*6B
$GNZDA,043208.00,28,05,2025,00,00*7F
$GNGBS,043208.00,5.6,5.5,17.1,,,,*66
$GNTXT,01,01,01,More than 100 frame errors, UART RX was disabled*70
b0dxl#;
 O /Ds>KO
+{4V^:R 
YdD|EIUNO/P <RS! QT$UbxlU
-$GNRMC,043209.00,A,0419.86684,S,05539.66376,E,0.050,,280525,,,A*72
$GNVTG,,T,,M,0.050,N,0.092,K,A*33
$GNGNS,043209.00,0419.86684,S,05539.66376,E,AA,09,1.11,23.6,-47.6,,*6E
$GNGGA,043209.00,0419.86684,S,05539.66376,E,1,09,1.11,23.6,M,-47.6,M,,*44
$GNGSA,A,3,24,05,20,11,15,12,,,,,,,2.28,1.11,1.99*12
$GNGSA,A,3,79,80,83,,,,,,,,,,2.28,1.11,1.99*19
$GPGSV,5,1,18,05,59,131,35,11,23,020,29,12,32,001,21,13,20,156,09*7B
$GPGSV,5,2,18,14,03,129,,15,27,191,17,18,22,231,27,20,47,068,32*77
$GPGSV,5,3,18,22,17,115,,23,01,213,,24,62,242,23,25,09,335,24*7F
$GPGSV,5,4,18,29,10,299,24,36,52,277,,40,86,350,,41,58,082,*71
$GPGSV,5,5,18,49,32,274,,50,10,089,*78
$GLGSV,3,1,10,68,13,124,,69,17,173,,73,12,341,,78,01,150,*6A
$GLGSV,3,2,10,79,47,128,23,80,60,019,32,82,00,016,,83,32,337,33*65
$GLGSV,3,3,10,84,36,268,20,85,05,226,*6D
$GNGLL,0419.86684,S,05539.66376,E,043209.00,A,A*66
$GNGRS,043209.00,1,-4.4,2.5,0.1,-2.8,-4.3,-6.3,,,,,,*52
$GNGRS,043209.00,1,10.4,-1.2,3.9,,,,,,,,,*63
$GNGST,043209.00,42,,,,5.6,5.5,17*68
$GNZDA,043209.00,28,05,2025,00,00*7E
$GNGBS,043209.00,5.6,5.5,16.9,,,,*6E
$GNTXT,01,01,01,More than 100 frame errors, UART RX was disabled*70
b0d`l#;
 
!/Ds>O
+{4V^:R 
YdD|EIUNO/+P <RS! QGT$Ub`lU
g_$GNRMC,043210.00,A,0419.86678,S,05539.66385,E,0.175,,280525,,,A*73
$GNVTG,,T,,M,0.175,N,0.324,K,A*3B
$GNGNS,043210.00,0419.86678,S,05539.66385,E,AA,09,1.11,23.8,-47.6,,*67
$GNGGA,043210.00,0419.86678,S,05539.66385,E,1,09,1.11,23.8,M,-47.6,M,,*4D
$GNGSA,A,3,24,05,20,11,15,12,,,,,,,2.28,1.11,1.99*12
$GNGSA,A,3,79,80,83,,,,,,,,,,2.28,1.11,1.99*19
$GPGSV,5,1,18,05,59,131,35,11,23,020,29,12,32,001,22,13,20,156,10*70
$GPGSV,5,2,18,14,03,129,,15,27,191,16,18,22,231,27,20,47,068,33*77
$GPGSV,5,3,18,22,17,115,,23,01,213,,24,62,242,24,25,09,335,24*78
$GPGSV,5,4,18,29,10,299,23,36,52,277,,40,86,350,,41,58,082,*76
$GPGSV,5,5,18,49,32,274,,50,10,089,*78
$GLGSV,3,1,10,68,13,124,,69,17,173,,73,12,341,,78,01,150,*6A
$GLGSV,3,2,10,79,47,128,24,80,60,019,32,82,00,016,,83,32,337,33*62
$GLGSV,3,3,10,84,36,268,21,85,05,226,*6C
$GNGLL,0419.86678,S,05539.66385,E,043210.00,A,A*61
$GNGRS,043210.00,1,-2.7,2.6,0.1,-0.4,-5.3,-4.9,,,,,,*5B
$GNGRS,043210.00,1,13.2,2.6,3.3,,,,,,,,,*4E
$GNGST,043210.00,41,,,,5.6,5.5,17*63
$GNZDA,043210.00,28,05,2025,00,00*76
$GNGBS,043210.00,5.6,5.5,16.8,,,,*67
$GNTXT,01,01,01,More than 100 frame errors, UART RX was disabled*70
b0dHl#;
 
f!/Ds>O
+{4V^:R 
YdD|EIUNO/^P!<\RS! Q1T$U~bHlU
>$GNRMC,043211.00,A,0419.86677,S,05539.66387,E,0.049,,280525,,,A*71
$GNVTG,,T,,M,0.049,N,0.091,K,A*38
$GNGNS,043211.00,0419.86677,S,05539.66387,E,AA,09,1.11,24.1,-47.6,,*65
$GNGGA,043211.00,0419.86677,S,05539.66387,E,1,09,1.11,24.1,M,-47.6,M,,*4F
$GNGSA,A,3,24,05,20,11,15,12,,,,,,,2.28,1.11,1.99*12
$GNGSA,A,3,79,80,83,,,,,,,,,,2.28,1.11,1.99*19
$GPGSV,5,1,18,05,59,131,35,11,23,020,29,12,32,001,23,13,20,156,10*71
$GPGSV,5,2,18,14,03,129,,15,27,191,14,18,22,231,27,20,47,068,33*75
$GPGSV,5,3,18,22,17,115,,23,01,213,,24,62,242,24,25,09,335,24*78
$GPGSV,5,4,18,29,10,299,23,36,52,277,,40,86,350,,41,58,082,*76
$GPGSV,5,5,18,49,32,274,,50,10,089,*78
$GLGSV,3,1,10,68,13,124,,69,17,173,,73,12,341,,78,01,150,*6A
$GLGSV,3,2,10,79,47,128,25,80,60,019,33,82,00,016,,83,32,337,33*62
$GLGSV,3,3,10,84,36,268,22,85,05,226,*6F
$GNGLL,0419.86677,S,05539.66387,E,043211.00,A,A*6D
$GNGRS,043211.00,1,-3.0,2.7,0.0,-2.8,-6.7,-3.0,,,,,,*5B
$GNGRS,043211.00,1,13.7,0.9,3.1,,,,,,,,,*45
$GNGST,043211.00,41,,,,5.5,5.5,17*61
$GNZDA,043211.00,28,05,2025,00,00*77
$GNGBS,043211.00,5.5,5.5,16.6,,,,*6B
$GNTXT,01,01,01,More than 100 frame errors, UART RX was disabled*70
b0d0l#;
n s!/Ds>O
+{4V^:R 
YdD|EIUNO/
P!<RS! QT$Ub0lU
,$GNRMC,043212.00,A,0419.86680,S,05539.66389,E,0.019,,280525,,,A*71
$GNVTG,,T,,M,0.019,N,0.035,K,A*33
$GNGNS,043212.00,0419.86680,S,05539.66389,E,AA,09,1.11,24.0,-47.6,,*61
$GNGGA,043212.00,0419.86680,S,05539.66389,E,1,09,1.11,24.0,M,-47.6,M,,*4B
$GNGSA,A,3,24,05,20,11,15,12,,,,,,,2.28,1.11,1.99*12
$GNGSA,A,3,79,80,83,,,,,,,,,,2.28,1.11,1.99*19
$GPGSV,5,1,18,05,59,131,35,11,23,020,29,12,32,001,23,13,20,156,12*73
$GPGSV,5,2,18,14,03,129,,15,27,191,15,18,22,231,26,20,47,068,33*75
$GPGSV,5,3,18,22,17,115,,23,01,213,,24,62,242,23,25,09,335,25*7E
$GPGSV,5,4,18,29,10,299,23,36,52,277,,40,86,350,,41,58,082,*76
$GPGSV,5,5,18,49,32,274,,50,10,089,*78
$GLGSV,3,1,10,68,13,124,,69,17,173,,73,12,341,,78,01,150,*6A
$GLGSV,3,2,10,79,47,128,25,80,60,019,33,82,00,016,,83,32,337,33*62
$GLGSV,3,3,10,84,36,268,23,85,05,226,*6E
$GNGLL,0419.86680,S,05539.66389,E,043212.00,A,A*68
$GNGRS,043212.00,1,-2.9,2.3,0.1,-4.0,-6.5,0.3,,,,,,*74
$GNGRS,043212.00,1,12.9,-0.6,2.8,,,,,,,,,*63
$GNGST,043212.00,41,,,,5.5,5.5,16*63
$GNZDA,043212.00,28,05,2025,00,00*74
$GNGBS,043212.00,5.5,5.5,16.5,,,,*6B
$GNTXT,01,01,01,More than 100 frame errors, UART RX was disabled*70
b0dl$;
 R
,!/Ds>gO
+{4V^:R 
YdD|EIUNO/P!<RS! QT$U}blU
$GNRMC,043213.00,A,0419.86685,S,05539.66391,E,0.020,,280525,,,A*76
$GNVTG,,T,,M,0.020,N,0.036,K,A*3A
$GNGNS,043213.00,0419.86685,S,05539.66391,E,AA,09,1.11,23.8,-47.6,,*63
$GNGGA,043213.00,0419.86685,S,05539.66391,E,1,09,1.11,23.8,M,-47.6,M,,*49
$GNGSA,A,3,24,05,20,11,15,12,,,,,,,2.28,1.11,1.99*12
$GNGSA,A,3,79,80,83,,,,,,,,,,2.28,1.11,1.99*19
$GPGSV,5,1,18,05,59,131,36,11,23,020,29,12,32,001,23,13,20,156,10*72
$GPGSV,5,2,18,14,03,129,,15,27,191,16,18,22,231,26,20,47,068,33*76
$GPGSV,5,3,18,22,17,115,,23,01,213,,24,62,242,22,25,09,335,25*7F
$GPGSV,5,4,18,29,10,299,22,36,52,277,,40,86,350,,41,58,082,*77
$GPGSV,5,5,18,49,32,274,,50,10,089,*78
$GLGSV,3,1,10,68,13,124,,69,17,173,,73,12,341,,78,01,150,*6A
$GLGSV,3,2,10,79,47,128,26,80,60,019,33,82,00,016,,83,32,337,33*61
$GLGSV,3,3,10,84,36,268,23,85,05,226,*6E
$GNGLL,0419.86685,S,05539.66391,E,043213.00,A,A*65
$GNGRS,043213.00,1,-1.5,1.9,0.0,-2.6,-7.2,0.8,,,,,,*7F
$GNGRS,043213.00,1,12.7,-3.7,2.7,,,,,,,,,*61
$GNGST,043213.00,40,,,,5.5,5.5,16*63
$GNZDA,043213.00,28,05,2025,00,00*75
$GNGBS,043213.00,5.5,5.5,16.3,,,,*6C
$GNTXT,01,01,01,More than 100 frame errors, UART RX was disabled*70
b0dl$;
 eb /Ds>O
,{4V^:R 
YdD|EIUNO/P!<jRS! QT$U'blU
$GNRMC,043214.00,A,0419.86692,S,05539.66390,E,0.062,,280525,,,A*70
$GNVTG,,T,,M,0.062,N,0.115,K,A*3C
$GNGNS,043214.00,0419.86692,S,05539.66390,E,AA,09,1.11,23.7,-47.6,,*6C
$GNGGA,043214.00,0419.86692,S,05539.66390,E,1,09,1.11,23.7,M,-47.6,M,,*46
$GNGSA,A,3,24,05,20,11,15,12,,,,,,,2.28,1.11,1.99*12
$GNGSA,A,3,79,80,83,,,,,,,,,,2.28,1.11,1.99*19
$GPGSV,5,1,18,05,59,131,36,11,23,020,29,12,32,001,23,13,20,156,11*73
$GPGSV,5,2,18,14,03,129,,15,27,191,15,18,22,231,26,20,47,068,32*74
$GPGSV,5,3,18,22,17,115,,23,01,213,,24,62,242,21,25,09,335,25*7C
$GPGSV,5,4,18,29,10,300,22,36,52,277,,40,86,350,,41,58,082,*76
$GPGSV,5,5,18,49,32,274,,50,10,089,*78
$GLGSV,3,1,10,68,13,124,,69,17,173,,73,12,341,,78,01,150,*6A
$GLGSV,3,2,10,79,47,128,26,80,60,019,33,82,00,016,,83,32,337,33*61
$GLGSV,3,3,10,84,36,268,23,85,05,226,*6E
$GNGLL,0419.86692,S,05539.66390,E,043214.00,A,A*65
$GNGRS,043214.00,1,0.2,2.0,-0.1,0.1,-4.1,6.1,,,,,,*52
$GNGRS,043214.00,1,14.6,-1.5,2.8,,,,,,,,,*6E
$GNGST,043214.00,42,,,,5.4,5.5,16*67
$GNZDA,043214.00,28,05,2025,00,00*72
$GNGBS,043214.00,5.4,5.5,16.2,,,,*6B
$GNTXT,01,01,01,More than 100 frame errors, UART RX was disabled*70
b0dl$;
 Z /Ds>O
,{4V^:R 
YdD|EIUNO/IP"<RS! Q(T$U6blU
U$GNRMC,043215.00,A,0419.86698,S,05539.66388,E,0.088,,280525,,,A*76
$GNVTG,,T,,M,0.088,N,0.163,K,A*39
$GNGNS,043215.00,0419.86698,S,05539.66388,E,AA,09,1.11,23.5,-47.6,,*6C
$GNGGA,043215.00,0419.86698,S,05539.66388,E,1,09,1.11,23.5,M,-47.6,M,,*46
$GNGSA,A,3,24,05,20,11,15,12,,,,,,,2.28,1.11,1.99*12
$GNGSA,A,3,79,80,83,,,,,,,,,,2.28,1.11,1.99*19
$GPGSV,5,1,18,05,59,131,36,11,23,020,30,12,32,001,22,13,20,156,11*7A
$GPGSV,5,2,18,14,03,129,,15,27,191,13,18,22,231,26,20,47,068,32*72
$GPGSV,5,3,18,22,17,115,,23,01,213,,24,62,242,20,25,09,335,26*7E
$GPGSV,5,4,18,29,10,300,22,36,52,277,,40,86,350,,41,58,082,*76
$GPGSV,5,5,18,49,32,274,,50,10,089,*78
$GLGSV,3,1,10,68,13,124,,69,17,173,,73,12,341,,78,01,150,*6A
$GLGSV,3,2,10,79,47,128,25,80,60,019,34,82,00,016,,83,32,337,33*65
$GLGSV,3,3,10,84,36,268,23,85,05,226,*6E
$GNGLL,0419.86698,S,05539.66388,E,043215.00,A,A*67
$GNGRS,043215.00,1,2.0,1.7,-0.2,-0.3,-6.3,8.6,,,,,,*72
$GNGRS,043215.00,1,16.1,-0.3,3.0,,,,,,,,,*64
$GNGST,043215.00,45,,,,5.4,5.5,16*61
$GNZDA,043215.00,28,05,2025,00,00*73
$GNGBS,043215.00,5.4,5.5,16.0,,,,*68
$GNTXT,01,01,01,More than 100 frame errors, UART RX was disabled*70
b0dl$;
  /Ds>O
,{4V^:R 
YdD|EIUNO/!P"<RS! QT$UblU
u$GNRMC,043216.00,A,0419.86703,S,05539.66387,E,0.119,,280525,,,A*70
$GNVTG,,T,,M,0.119,N,0.221,K,A*35
$GNGNS,043216.00,0419.86703,S,05539.66387,E,AA,09,1.11,23.3,-47.6,,*65
$GNGGA,043216.00,0419.86703,S,05539.66387,E,1,09,1.11,23.3,M,-47.6,M,,*4F
$GNGSA,A,3,24,05,20,11,15,12,,,,,,,2.28,1.11,1.99*12
$GNGSA,A,3,79,80,83,,,,,,,,,,2.28,1.11,1.99*19
$GPGSV,5,1,18,05,59,131,36,11,23,020,29,12,32,001,23,13,20,156,*73
$GPGSV,5,2,18,14,03,129,,15,27,191,14,18,22,231,26,20,47,068,32*75
$GPGSV,5,3,18,22,17,115,,23,01,213,,24,62,242,21,25,09,335,25*7C
$GPGSV,5,4,18,29,10,300,22,36,52,277,,40,86,350,,41,58,082,*76
$GPGSV,5,5,18,49,32,274,,50,10,089,*78
$GLGSV,3,1,10,68,13,124,,69,17,173,,73,12,341,,78,01,150,*6A
$GLGSV,3,2,10,79,47,128,26,80,60,019,34,82,00,016,,83,32,337,33*66
$GLGSV,3,3,10,84,36,268,22,85,05,226,*6F
$GNGLL,0419.86703,S,05539.66387,E,043216.00,A,A*68
$GNGRS,043216.00,1,0.0,1.6,-0.4,-0.8,-7.9,11.6,,,,,,*4C
$GNGRS,043216.00,1,15.7,-0.2,2.8,,,,,,,,,*6A
$GNGST,043216.00,41,,,,5.4,5.5,16*66
$GNZDA,043216.00,28,05,2025,00,00*70
$GNGBS,043216.00,5.4,5.5,15.9,,,,*61
$GNTXT,01,01,01,More than 100 frame errors, UART RX was disabled*70
b0dl%;z
 _!/Ds>O
,{4V^:R 
YdD|EIUNO/P"<RS! QT$UcblU
mN'$GNRMC,043217.00,A,0419.86708,S,05539.66389,E,0.032,,280525,,,A*7C
$GNVTG,,T,,M,0.032,N,0.060,K,A*3A
$GNGNS,043217.00,0419.86708,S,05539.66389,E,AA,09,1.11,23.0,-47.6,,*62
$GNGGA,043217.00,0419.86708,S,05539.66389,E,1,09,1.11,23.0,M,-47.6,M,,*48
$GNGSA,A,3,24,05,20,11,15,12,,,,,,,2.28,1.11,1.99*12
$GNGSA,A,3,79,80,83,,,,,,,,,,2.28,1.11,1.99*19
$GPGSV,5,1,18,05,59,131,37,11,23,020,29,12,32,001,24,13,20,156,*75
$GPGSV,5,2,18,14,03,129,,15,27,191,13,18,22,231,27,20,47,068,33*72
$GPGSV,5,3,18,22,17,115,,23,01,213,,24,62,242,23,25,09,335,25*7E
$GPGSV,5,4,18,29,10,300,22,36,52,277,,40,86,350,,41,58,082,*76
$GPGSV,5,5,18,49,32,274,,50,10,089,*78
$GLGSV,3,1,10,68,13,124,,69,17,173,,73,12,341,,78,01,150,*6A
$GLGSV,3,2,10,79,47,128,25,80,60,019,34,82,00,016,,83,32,337,33*65
$GLGSV,3,3,10,84,36,268,21,85,05,226,*6C
$GNGLL,0419.86708,S,05539.66389,E,043217.00,A,A*6C
$GNGRS,043217.00,1,-3.2,1.2,-0.4,-1.0,-6.7,14.5,,,,,,*65
$GNGRS,043217.00,1,15.1,-0.4,2.6,,,,,,,,,*65
$GNGST,043217.00,46,,,,5.3,5.5,16*67
$GNZDA,043217.00,28,05,2025,00,00*71
$GNGBS,043217.00,5.3,5.5,15.7,,,,*69
$GNTXT,01,01,01,More than 100 frame errors, UART RX was disabled*70
b0dl%;L
  /Ds>\O
,{4V^:R 
YdD|EIUNO/#P"<RS  QT$U6blU
U&$GNRMC,043218.00,A,0419.86709,S,05539.66391,E,0.059,,280525,,,A*76
$GNVTG,,T,,M,0.059,N,0.110,K,A*31
$GNGNS,043218.00,0419.86709,S,05539.66391,E,AA,08,1.55,22.7,-47.6,,*62
$GNGGA,043218.00,0419.86709,S,05539.66391,E,1,08,1.55,22.7,M,-47.6,M,,*48
$GNGSA,A,3,24,05,20,11,12,,,,,,,,3.59,1.55,3.24*15
$GNGSA,A,3,79,80,83,,,,,,,,,,3.59,1.55,3.24*1A
$GPGSV,5,1,18,05,59,131,37,11,23,020,28,12,32,001,25,13,20,156,*75
$GPGSV,5,2,18,14,03,129,,15,27,191,12,18,22,231,26,20,47,068,32*73
$GPGSV,5,3,18,22,17,115,,23,01,213,,24,62,242,25,25,09,335,25*78
$GPGSV,5,4,18,29,10,300,22,36,52,277,31,40,86,350,,41,58,082,*74
$GPGSV,5,5,18,49,32,274,,50,10,089,*78
$GLGSV,3,1,10,68,13,124,,69,17,173,,73,12,341,,78,01,150,*6A
$GLGSV,3,2,10,79,47,128,26,80,60,019,34,82,00,016,,83,32,337,32*67
$GLGSV,3,3,10,84,36,268,21,85,05,226,*6C
$GNGLL,0419.86709,S,05539.66391,E,043218.00,A,A*6B
$GNGRS,043218.00,1,-4.2,0.8,-0.6,4.3,15.7,,,,,,,*4E
$GNGRS,043218.00,1,13.1,-0.4,2.4,,,,,,,,,*6E
$GNGST,043218.00,35,,,,5.3,5.5,16*6C
$GNZDA,043218.00,28,05,2025,00,00*7E
$GNGBS,043218.00,5.3,5.5,15.7,15,,0.7,94.3*5B
$GNTXT,01,01,01,More than 100 frame errors, UART RX was disabled*70
b0dl%;(
 ; /Ds>kO
,{ 4V^:R 
YdD|EIUNO/P"<RS  QT$U(blU
=$GNRMC,043219.00,A,0419.86712,S,05539.66393,E,0.047,,280525,,,A*70
$GNVTG,,T,,M,0.047,N,0.087,K,A*31
$GNGNS,043219.00,0419.86712,S,05539.66393,E,AA,09,1.11,22.4,-47.6,,*69
$GNGGA,043219.00,0419.86712,S,05539.66393,E,1,09,1.11,22.4,M,-47.6,M,,*43
$GNGSA,A,3,24,05,20,11,15,12,,,,,,,2.28,1.11,1.98*13
$GNGSA,A,3,79,80,83,,,,,,,,,,2.28,1.11,1.98*18
$GPGSV,5,1,18,05,59,131,37,11,23,020,28,12,32,001,26,13,20,156,*76
$GPGSV,5,2,18,14,03,129,,15,27,191,12,18,22,231,26,20,47,068,32*73
$GPGSV,5,3,18,22,17,115,,23,01,213,,24,62,242,26,25,09,335,25*7B
$GPGSV,5,4,18,29,10,300,23,36,52,277,32,40,86,350,,41,58,082,*76
$GPGSV,5,5,18,49,32,274,,50,10,089,*78
$GLGSV,3,1,10,68,13,124,,69,17,173,,73,12,341,,78,01,150,*6A
$GLGSV,3,2,10,79,47,128,26,80,60,019,34,82,00,016,,83,32,337,32*67
$GLGSV,3,3,10,84,36,268,21,85,05,226,*6C
$GNGLL,0419.86712,S,05539.66393,E,043219.00,A,A*62
$GNGRS,043219.00,1,-6.6,0.4,-0.8,2.8,0.6,14.7,,,,,,*6F
$GNGRS,043219.00,1,12.6,-0.2,2.3,,,,,,,,,*68
$GNGST,043219.00,44,,,,5.3,5.5,16*6B
$GNZDA,043219.00,28,05,2025,00,00*7F
$GNGBS,043219.00,5.3,5.5,15.6,,,,*66
$GNTXT,01,01,01,More than 100 frame errors, UART RX was disabled*70
b0dpl%;"
 tM /Ds>O
,{ 4V^:R 
YdD|EIUNO/SP"<RS! QT$UbplU
%_$GNRMC,043220.00,A,0419.86717,S,05539.66394,E,0.152,,280525,,,A*7D
$GNVTG,,T,,M,0.152,N,0.282,K,A*33
$GNGNS,043220.00,0419.86717,S,05539.66394,E,AA,09,1.11,21.9,-47.6,,*6F
$GNGGA,043220.00,0419.86717,S,05539.66394,E,1,09,1.11,21.9,M,-47.6,M,,*45
$GNGSA,A,3,24,05,20,11,15,12,,,,,,,2.28,1.11,1.98*13
$GNGSA,A,3,79,80,83,,,,,,,,,,2.28,1.11,1.98*18
$GPGSV,5,1,18,05,59,131,37,11,23,020,28,12,32,001,26,13,20,156,*76
$GPGSV,5,2,18,14,03,129,,15,27,191,11,18,22,231,26,20,47,068,32*70
$GPGSV,5,3,18,22,17,115,,23,01,213,,24,62,242,26,25,09,335,25*7B
$GPGSV,5,4,18,29,10,300,22,36,52,277,32,40,86,350,,41,58,082,*77
$GPGSV,5,5,18,49,32,274,,50,10,089,*78
$GLGSV,3,1,10,68,13,124,,69,17,173,,73,12,341,,78,01,150,*6A
$GLGSV,3,2,10,79,47,128,27,80,60,019,34,82,00,016,,83,32,337,33*67
$GLGSV,3,3,10,84,36,268,21,85,05,226,*6C
$GNGLL,0419.86717,S,05539.66394,E,043220.00,A,A*6A
$GNGRS,043220.00,1,-5.5,0.3,-0.6,5.0,0.8,16.5,,,,,,*6D
$GNGRS,043220.00,1,11.1,-0.1,2.1,,,,,,,,,*67
$GNGST,043220.00,45,,,,5.3,5.5,15*63
$GNZDA,043220.00,28,05,2025,00,00*75
$GNGBS,043220.00,5.3,5.5,15.4,,,,*6E
$GNTXT,01,01,01,More than 100 frame errors, UART RX was disabled*70
b0dXl%;
 V /Ds>dO
,{ 4V^:R 
YdD|EIUNO/P"<RS  QT$U<bXlU
$GNRMC,043221.00,A,0419.86718,S,05539.66397,E,0.084,,280525,,,A*7A
$GNVTG,,T,,M,0.084,N,0.156,K,A*33
$GNGNS,043221.00,0419.86718,S,05539.66397,E,AA,08,1.55,21.5,-47.6,,*6F
$GNGGA,043221.00,0419.86718,S,05539.66397,E,1,08,1.55,21.5,M,-47.6,M,,*45
$GNGSA,A,3,24,05,20,11,12,,,,,,,,3.59,1.55,3.23*12
$GNGSA,A,3,79,80,83,,,,,,,,,,3.59,1.55,3.23*1D
$GPGSV,5,1,18,05,59,131,37,11,23,020,28,12,32,001,26,13,20,156,*76
$GPGSV,5,2,18,14,03,129,,15,27,191,09,18,22,231,25,20,47,068,32*7A
$GPGSV,5,3,18,22,17,115,,23,01,213,,24,62,242,28,25,09,335,25*75
$GPGSV,5,4,18,29,10,300,22,36,52,277,32,40,86,350,,41,58,082,*77
$GPGSV,5,5,18,49,32,274,,50,10,089,*78
$GLGSV,3,1,10,68,13,124,,69,17,173,,73,12,341,,78,01,150,*6A
$GLGSV,3,2,10,79,47,128,27,80,60,019,34,82,00,016,,83,32,337,32*66
$GLGSV,3,3,10,84,36,268,20,85,05,226,*6D
$GNGLL,0419.86718,S,05539.66397,E,043221.00,A,A*67
$GNGRS,043221.00,1,-9.2,-0.1,-0.7,3.9,14.9,,,,,,,*6E
$GNGRS,043221.00,1,7.4,-0.3,2.1,,,,,,,,,*56
$GNGST,043221.00,34,,,,5.2,5.5,15*65
$GNZDA,043221.00,28,05,2025,00,00*74
$GNGBS,043221.00,5.2,5.5,15.4,,,,*6E
$GNTXT,01,01,01,More than 100 frame errors, UART RX was disabled*70
b0d@l&;
 /B /Ds>'O
,{ 4V^:R 
YdD|EIUNO/P"<RS  QT$USb@lU
,$GNRMC,043222.00,A,0419.86718,S,05539.66403,E,0.069,,280525,,,A*70
$GNVTG,,T,,M,0.069,N,0.128,K,A*39
$GNGNS,043222.00,0419.86718,S,05539.66403,E,AA,08,1.55,21.1,-47.6,,*62
$GNGGA,043222.00,0419.86718,S,05539.66403,E,1,08,1.55,21.1,M,-47.6,M,,*48
$GNGSA,A,3,24,05,20,11,12,,,,,,,,3.58,1.55,3.23*13
$GNGSA,A,3,79,80,83,,,,,,,,,,3.58,1.55,3.23*1C
$GPGSV,5,1,18,05,59,131,38,11,23,020,28,12,32,001,27,13,20,156,*78
$GPGSV,5,2,18,14,03,129,,15,27,191,09,18,22,231,24,20,47,068,32*7B
$GPGSV,5,3,18,22,17,115,,23,01,213,,24,62,242,29,25,09,335,25*74
$GPGSV,5,4,18,29,10,300,22,36,52,277,32,40,86,350,,41,58,082,*77
$GPGSV,5,5,18,49,32,274,,50,10,089,*78
$GLGSV,3,1,10,68,13,124,,69,17,173,,73,12,341,,78,01,150,*6A
$GLGSV,3,2,10,79,47,128,27,80,60,019,34,82,00,016,,83,32,337,32*66
$GLGSV,3,3,10,84,36,268,21,85,05,226,*6C
$GNGLL,0419.86718,S,05539.66403,E,043222.00,A,A*6E
$GNGRS,043222.00,1,-9.9,-0.5,-0.9,5.3,13.3,,,,,,,*6D
$GNGRS,043222.00,1,6.9,-0.3,2.1,,,,,,,,,*59
$GNGST,043222.00,33,,,,5.2,5.5,15*61
$GNZDA,043222.00,28,05,2025,00,00*77
$GNGBS,043222.00,5.2,5.5,15.3,,,,*6A
$GNTXT,01,01,01,More than 100 frame errors, UART RX was disabled*70
b0d(l&;
 m /Ds>~O
,{ 4V^:R 
YdD|EIUNO/jP"<RS  QrT$U#b(lU
]$GNRMC,043223.00,A,0419.86716,S,05539.66407,E,0.029,,280525,,,A*7F
$GNVTG,,T,,M,0.029,N,0.053,K,A*30
$GNGNS,043223.00,0419.86716,S,05539.66407,E,AA,08,1.55,20.7,-47.6,,*6E
$GNGGA,043223.00,0419.86716,S,05539.66407,E,1,08,1.55,20.7,M,-47.6,M,,*44
$GNGSA,A,3,24,05,20,11,12,,,,,,,,3.58,1.55,3.23*13
$GNGSA,A,3,79,80,83,,,,,,,,,,3.58,1.55,3.23*1C
$GPGSV,5,1,18,05,59,131,38,11,23,020,28,12,32,001,27,13,20,156,*78
$GPGSV,5,2,18,14,03,129,,15,27,191,09,18,22,231,24,20,47,068,32*7B
$GPGSV,5,3,18,22,17,115,,23,01,213,,24,62,242,29,25,09,335,24*75
$GPGSV,5,4,18,29,10,300,21,36,52,277,32,40,86,350,,41,58,082,*74
$GPGSV,5,5,18,49,32,274,,50,10,089,*78
$GLGSV,3,1,10,68,13,124,,69,17,173,,73,12,341,,78,01,150,*6A
$GLGSV,3,2,10,79,47,128,27,80,60,019,34,82,00,016,,83,32,337,32*66
$GLGSV,3,3,10,84,36,268,20,85,05,226,*6D
$GNGLL,0419.86716,S,05539.66407,E,043223.00,A,A*65
$GNGRS,043223.00,1,-9.0,-0.6,-1.1,4.4,13.9,,,,,,,*63
$GNGRS,043223.00,1,6.2,-0.6,3.7,,,,,,,,,*51
$GNGST,043223.00,33,,,,5.2,5.5,15*60
$GNZDA,043223.00,28,05,2025,00,00*76
$GNGBS,043223.00,5.2,5.5,15.2,,,,*6A
$GNTXT,01,01,01,More than 100 frame errors, UART RX was disabled*70
b0dl&;
S m/Ds>O
,{ 4V^:R 
YdD|EIUNO/P"<RS  Q{T$UGblU
5$GNRMC,043224.00,A,0419.86714,S,05539.66413,E,0.017,,280525,,,A*72
$GNVTG,,T,,M,0.017,N,0.031,K,A*39
$GNGNS,043224.00,0419.86714,S,05539.66413,E,AA,09,1.11,20.5,-47.6,,*6D
$GNGGA,043224.00,0419.86714,S,05539.66413,E,1,09,1.11,20.5,M,-47.6,M,,*47
$GNGSA,A,3,24,05,20,11,15,12,,,,,,,2.28,1.11,1.98*13
$GNGSA,A,3,79,80,83,,,,,,,,,,2.28,1.11,1.98*18
$GPGSV,5,1,18,05,59,131,38,11,23,020,28,12,32,001,27,13,20,156,*78
$GPGSV,5,2,18,14,03,129,,15,27,191,11,18,22,231,23,20,47,068,31*76
$GPGSV,5,3,18,22,17,115,,23,01,213,,24,62,242,29,25,09,335,24*75
$GPGSV,5,4,18,29,10,300,22,36,52,277,32,40,86,350,,41,58,082,*77
$GPGSV,5,5,18,49,32,274,,50,10,089,*78
$GLGSV,3,1,10,68,13,124,,69,17,173,,73,12,341,,78,01,150,*6A
$GLGSV,3,2,10,79,47,128,28,80,60,019,34,82,00,016,,83,32,337,32*69
$GLGSV,3,3,10,84,36,268,19,85,05,226,*67
$GNGLL,0419.86714,S,05539.66413,E,043224.00,A,A*65
$GNGRS,043224.00,1,-8.1,-0.8,-0.7,5.9,19.0,12.8,,,,,,*77
$GNGRS,043224.00,1,4.0,-0.9,-1.3,,,,,,,,,*72
$GNGST,043224.00,99931,,,,5.2,5.5,15*5C
$GNZDA,043224.00,28,05,2025,00,00*71
$GNGBS,043224.00,5.2,5.5,15.2,,,,*6D
$GNTXT,01,01,01,More than 100 frame errors, UART RX was disabled*70
b0dl&;
J /Ds>UO
,{ 4V^:R 
YdD|EIUNO/nP"<RS QT$UblU
 U$GNRMC,043225.00,A,0419.86711,S,05539.66421,E,0.009,,280525,,,A*78
$GNVTG,,T,,M,0.009,N,0.017,K,A*32
$GNGNS,043225.00,0419.86711,S,05539.66421,E,AA,09,1.55,20.0,-47.6,,*6D
$GNGGA,043225.00,0419.86711,S,05539.66421,E,1,09,1.55,20.0,M,-47.6,M,,*47
$GNGSA,A,3,24,05,20,11,15,12,,,,,,,3.58,1.55,3.23*17
$GNGSA,A,3,79,80,83,,,,,,,,,,3.58,1.55,3.23*1C
$GPGSV,5,1,18,05,59,131,38,11,23,020,28,12,32,001,27,13,20,156,*78
$GPGSV,5,2,18,14,03,129,,15,27,191,14,18,22,231,23,20,47,068,31*73
$GPGSV,5,3,18,22,17,115,,23,01,213,,24,62,242,30,25,09,335,24*7D
$GPGSV,5,4,18,29,10,300,21,36,52,277,32,40,86,350,,41,58,082,*74
$GPGSV,5,5,18,49,32,274,,50,10,089,*78
$GLGSV,3,1,10,68,13,124,,69,17,173,,73,12,341,,78,01,150,*6A
$GLGSV,3,2,10,79,47,128,28,80,60,019,34,82,00,016,,83,32,337,31*6A
$GLGSV,3,3,10,84,36,268,20,85,05,226,*6D
$GNGLL,0419.86711,S,05539.66421,E,043225.00,A,A*60
$GNGRS,043225.00,1,-9.4,-0.9,2.7,5.9,-128,16.8,,,,,,*58
$GNGRS,043225.00,1,1.1,-1.1,1.9,,,,,,,,,*59
$GNGST,043225.00,33,,,,5.2,5.5,15*66
$GNZDA,043225.00,28,05,2025,00,00*70
$GNGBS,043225.00,5.2,5.5,15.1,,,,*6F
$GNTXT,01,01,01,More than 100 frame errors, UART RX was disabled*70
b0dl&;
 _
/Ds>O
,{ 4V^:R 
YdD|EIUNO/P"<lRS QbT$UkblU
$$GNRMC,043226.00,A,0419.86706,S,05539.66428,E,0.070,,280525,,,A*7A
$GNVTG,,T,,M,0.070,N,0.129,K,A*30
$GNGNS,043226.00,0419.86706,S,05539.66428,E,AA,09,1.12,19.7,-47.6,,*6F
$GNGGA,043226.00,0419.86706,S,05539.66428,E,1,09,1.12,19.7,M,-47.6,M,,*45
$GNGSA,A,3,24,05,20,11,15,12,,,,,,,2.27,1.12,1.98*1F
$GNGSA,A,3,79,80,83,,,,,,,,,,2.27,1.12,1.98*14
$GPGSV,5,1,18,05,59,131,38,11,23,020,28,12,32,001,27,13,20,156,*78
$GPGSV,5,2,18,14,03,129,,15,27,191,17,18,22,231,22,20,47,068,31*71
$GPGSV,5,3,18,22,17,115,,23,01,213,,24,62,242,30,25,09,335,24*7D
$GPGSV,5,4,18,29,10,300,21,36,52,277,32,40,86,350,,41,58,082,*74
$GPGSV,5,5,18,49,32,274,,50,10,089,*78
$GLGSV,3,1,10,68,13,124,,69,17,173,,73,12,341,,78,01,150,*6A
$GLGSV,3,2,10,79,47,128,29,80,60,019,34,82,00,016,,83,32,337,31*6B
$GLGSV,3,3,10,84,36,268,19,85,05,226,*67
$GNGLL,0419.86706,S,05539.66428,E,043226.00,A,A*6C
$GNGRS,043226.00,1,-8.0,-1.0,1.8,9.4,10.3,16.3,,,,,,*5A
$GNGRS,043226.00,1,-0.3,-1.5,1.0,,,,,,,,,*79
$GNGST,043226.00,511646,,,,5.2,5.4,15*65
$GNZDA,043226.00,28,05,2025,00,00*73
$GNGBS,043226.00,5.2,5.4,15.1,,,,*6D
$GNTXT,01,01,01,More than 100 frame errors, UART RX was disabled*70
b0dl&;
 J/Ds>O
,{ 4V^:R 
YdD|EIUNO/P"<RS QT$U
blU
}(%$GNRMC,043227.00,A,0419.86700,S,05539.66440,E,0.040,,280525,,,A*70
$GNVTG,,T,,M,0.040,N,0.074,K,A*3A
$GNGNS,043227.00,0419.86700,S,05539.66440,E,AA,09,1.12,19.3,-47.6,,*62
$GNGGA,043227.00,0419.86700,S,05539.66440,E,1,09,1.12,19.3,M,-47.6,M,,*48
$GNGSA,A,3,24,05,20,11,15,12,,,,,,,2.27,1.12,1.98*1F
$GNGSA,A,3,79,80,83,,,,,,,,,,2.27,1.12,1.98*14
$GPGSV,5,1,18,05,59,131,38,11,23,020,28,12,32,001,27,13,20,156,*78
$GPGSV,5,2,18,14,03,129,,15,27,191,17,18,22,231,22,20,47,068,31*71
$GPGSV,5,3,18,22,17,115,,23,01,213,,24,62,242,30,25,09,335,24*7D
$GPGSV,5,4,18,29,10,300,21,36,52,277,32,40,86,350,,41,58,082,*74
$GPGSV,5,5,18,49,32,274,,50,10,089,*78
$GLGSV,3,1,10,68,13,124,,69,17,173,,73,12,341,,78,01,150,*6A
$GLGSV,3,2,10,79,47,128,28,80,60,019,34,82,00,016,,83,32,337,31*6A
$GLGSV,3,3,10,84,36,268,19,85,05,226,*67
$GNGLL,0419.86700,S,05539.66440,E,043227.00,A,A*65
$GNGRS,043227.00,1,-11.3,-0.7,4.7,9.6,10.5,18.7,,,,,,*62
$GNGRS,043227.00,1,-3.3,-1.3,1.7,,,,,,,,,*7A
$GNGST,043227.00,511646,,,,5.1,5.4,15*67
$GNZDA,043227.00,28,05,2025,00,00*72
$GNGBS,043227.00,5.1,5.4,15.0,,,,*6E
$GNTXT,01,01,01,More than 100 frame errors, UART RX was disabled*70
b0dl&;
 5
(/DSs>%O
,{ 4V^:R 
YdD|EIUNO/P"<rRS QT$UblU
e,$GNRMC,043228.00,A,0419.86693,S,05539.66449,E,0.026,,280525,,,A*7D
$GNVTG,,T,,M,0.026,N,0.048,K,A*35
$GNGNS,043228.00,0419.86693,S,05539.66449,E,AA,09,1.12,19.0,-47.6,,*6C
$GNGGA,043228.00,0419.86693,S,05539.66449,E,1,09,1.12,19.0,M,-47.6,M,,*46
$GNGSA,A,3,24,05,20,11,15,12,,,,,,,2.27,1.12,1.98*1F
$GNGSA,A,3,79,80,83,,,,,,,,,,2.27,1.12,1.98*14
$GPGSV,5,1,18,05,59,131,38,11,23,020,28,12,32,001,27,13,20,156,*78
$GPGSV,5,2,18,14,03,129,,15,27,191,10,18,22,231,21,20,47,068,30*74
$GPGSV,5,3,18,22,17,115,,23,01,213,,24,62,242,30,25,09,335,23*7A
$GPGSV,5,4,18,29,10,300,22,36,52,277,32,40,86,350,,41,58,082,*77
$GPGSV,5,5,18,49,32,274,,50,10,089,*78
$GLGSV,3,1,10,68,13,124,,69,17,173,,73,12,341,,78,01,150,*6A
$GLGSV,3,2,10,79,47,128,29,80,60,019,34,82,00,016,,83,32,337,31*6B
$GLGSV,3,3,10,84,36,268,18,85,05,226,*66
$GNGLL,0419.86693,S,05539.66449,E,043228.00,A,A*68
$GNGRS,043228.00,1,-7.3,-1.0,6.0,10.3,10.6,18.4,,,,,,*64
$GNGRS,043228.00,1,-6.4,-1.4,0.0,,,,,,,,,*76
$GNGST,043228.00,67,,,,5.1,5.4,15*68
$GNZDA,043228.00,28,05,2025,00,00*7D
$GNGBS,043228.00,5.1,5.4,14.9,,,,*69
$GNTXT,01,01,01,More than 100 frame errors, UART RX was disabled*70
b0dl&;
T Q/Ds>3O
,{ 4 V^:R 
YdD|EIUNO/P!<pRS QqT$UblU
M0l$GNRMC,043229.00,A,0419.86689,S,05539.66456,E,0.052,,280525,,,A*7A
$GNVTG,,T,,M,0.052,N,0.096,K,A*35
$GNGNS,043229.00,0419.86689,S,05539.66456,E,AA,09,1.12,18.7,-47.6,,*6E
$GNGGA,043229.00,0419.86689,S,05539.66456,E,1,09,1.12,18.7,M,-47.6,M,,*44
$GNGSA,A,3,24,05,20,11,15,12,,,,,,,2.27,1.12,1.98*1F
$GNGSA,A,3,79,80,83,,,,,,,,,,2.27,1.12,1.98*14
$GPGSV,5,1,18,05,59,131,38,11,23,020,28,12,32,001,27,13,20,156,*78
$GPGSV,5,2,18,14,03,129,,15,27,191,13,18,22,231,19,20,47,068,30*7C
$GPGSV,5,3,18,22,17,115,,23,01,213,,24,62,242,30,25,09,335,24*7D
$GPGSV,5,4,18,29,10,300,22,36,52,277,32,40,86,350,32,41,58,082,*76
$GPGSV,5,5,18,49,32,274,,50,10,089,*78
$GLGSV,3,1,10,68,13,124,,69,17,173,,73,12,341,,78,01,150,*6A
$GLGSV,3,2,10,79,47,128,30,80,60,019,33,82,00,016,,83,32,337,31*64
$GLGSV,3,3,10,84,36,268,18,85,05,226,*66
$GNGLL,0419.86689,S,05539.66456,E,043229.00,A,A*6C
$GNGRS,043229.00,1,-4.6,-1.1,6.4,11.1,8.5,17.4,,,,,,*50
$GNGRS,043229.00,1,-2.4,-1.4,1.1,,,,,,,,,*73
$GNGST,043229.00,49,,,,5.1,5.4,15*65
$GNZDA,043229.00,28,05,2025,00,00*7C
$GNGBS,043229.00,5.1,5.4,14.9,,,,*68
$GNTXT,01,01,01,More than 100 frame errors, UART RX was disabled*70
b0dl';
 /DRs>O
,{ 4 V^:R 
YdD|EIUNO/6P!<RS QT$UVblU
54D]$GNRMC,043230.00,A,0419.86685,S,05539.66464,E,0.026,,280525,,,A*7C
$GNVTG,,T,,M,0.026,N,0.047,K,A*3A
$GNGNS,043230.00,0419.86685,S,05539.66464,E,AA,09,1.12,18.2,-47.6,,*6E
$GNGGA,043230.00,0419.86685,S,05539.66464,E,1,09,1.12,18.2,M,-47.6,M,,*44
$GNGSA,A,3,24,05,20,11,15,12,,,,,,,2.27,1.12,1.98*1F
$GNGSA,A,3,79,80,83,,,,,,,,,,2.27,1.12,1.98*14
$GPGSV,5,1,18,05,59,131,39,11,23,020,28,12,32,001,27,13,20,156,*79
$GPGSV,5,2,18,14,03,129,,15,27,191,14,18,22,231,17,20,47,068,30*75
$GPGSV,5,3,18,22,17,115,,23,01,213,,24,62,242,29,25,09,335,23*72
$GPGSV,5,4,18,29,10,300,22,36,52,277,32,40,86,350,32,41,58,082,*76
$GPGSV,5,5,18,49,32,274,,50,10,089,*78
$GLGSV,3,1,10,68,13,124,,69,17,173,,73,12,341,,78,01,150,*6A
$GLGSV,3,2,10,79,47,128,30,80,60,019,33,82,00,016,,83,32,337,31*64
$GLGSV,3,3,10,84,36,268,18,85,05,226,*66
$GNGLL,0419.86685,S,05539.66464,E,043230.00,A,A*69
$GNGRS,043230.00,1,-7.5,-1.1,3.4,13.0,5.2,17.3,,,,,,*53
$GNGRS,043230.00,1,-2.0,-1.3,1.4,,,,,,,,,*7D
$GNGST,043230.00,44,,,,5.1,5.4,15*60
$GNZDA,043230.00,28,05,2025,00,00*74
$GNGBS,043230.00,5.1,5.4,14.8,,,,*61
$GNTXT,01,01,01,More than 100 frame errors, UART RX was disabled*70
b0dhl';
 {/Ds>O
,{ 4V^:R 
YdD|EIUNO/P!<RS QT$UbhlU
8$GNRMC,043231.00,A,0419.86678,S,05539.66468,E,0.035,,280525,,,A*71
$GNVTG,,T,,M,0.035,N,0.066,K,A*3B
$GNGNS,043231.00,0419.86678,S,05539.66468,E,AA,09,1.12,17.9,-47.6,,*65
$GNGGA,043231.00,0419.86678,S,05539.66468,E,1,09,1.12,17.9,M,-47.6,M,,*4F
$GNGSA,A,3,24,05,20,11,15,12,,,,,,,2.27,1.12,1.98*1F
$GNGSA,A,3,79,80,83,,,,,,,,,,2.27,1.12,1.98*14
$GPGSV,5,1,18,05,59,131,39,11,23,020,28,12,32,001,28,13,20,156,*76
$GPGSV,5,2,18,14,03,129,,15,27,191,15,18,22,231,17,20,47,068,30*74
$GPGSV,5,3,18,22,17,115,,23,01,213,,24,62,242,29,25,09,335,24*75
$GPGSV,5,4,18,29,10,300,22,36,52,277,32,40,86,350,31,41,58,082,*75
$GPGSV,5,5,18,49,32,274,,50,10,089,*78
$GLGSV,3,1,10,68,13,124,,69,17,173,,73,12,341,,78,01,150,*6A
$GLGSV,3,2,10,79,47,128,30,80,60,019,33,82,00,016,,83,32,337,31*64
$GLGSV,3,3,10,84,36,268,17,85,05,226,*69
$GNGLL,0419.86678,S,05539.66468,E,043231.00,A,A*66
$GNGRS,043231.00,1,-6.4,-1.1,2.2,14.4,2.2,19.1,,,,,,*5D
$GNGRS,043231.00,1,-5.4,-1.1,2.6,,,,,,,,,*7C
$GNGST,043231.00,43,,,,5.0,5.4,15*67
$GNZDA,043231.00,28,05,2025,00,00*75
$GNGBS,043231.00,5.0,5.4,14.7,,,,*6E
$GNTXT,01,01,01,More than 100 frame errors, UART RX was disabled*70
b0dPl';
 /Ds>LO
,{ 4V^:R 
YdD|EIUNO/tP!<RS QT$UObPlU
<-$GNRMC,043232.00,A,0419.86675,S,05539.66472,E,0.032,,280525,,,A*73
$GNVTG,,T,,M,0.032,N,0.060,K,A*3A
$GNGNS,043232.00,0419.86675,S,05539.66472,E,AA,09,1.12,17.5,-47.6,,*6C
$GNGGA,043232.00,0419.86675,S,05539.66472,E,1,09,1.12,17.5,M,-47.6,M,,*46
$GNGSA,A,3,24,05,20,11,15,12,,,,,,,2.27,1.12,1.98*1F
$GNGSA,A,3,79,80,83,,,,,,,,,,2.27,1.12,1.98*14
$GPGSV,5,1,18,05,59,131,39,11,23,020,28,12,32,001,27,13,20,156,*79
$GPGSV,5,2,18,14,03,129,,15,27,191,16,18,22,231,16,20,47,068,29*7E
$GPGSV,5,3,18,22,17,115,,23,01,213,,24,62,242,29,25,09,335,24*75
$GPGSV,5,4,18,29,10,300,21,36,52,277,32,40,86,350,31,41,58,082,*76
$GPGSV,5,5,18,49,32,274,,50,10,089,*78
$GLGSV,3,1,10,68,13,124,,69,17,173,,73,12,341,,78,01,150,*6A
$GLGSV,3,2,10,79,47,128,30,80,60,019,33,82,00,016,,83,32,337,30*65
$GLGSV,3,3,10,84,36,268,18,85,05,226,*66
$GNGLL,0419.86675,S,05539.66472,E,043232.00,A,A*63
$GNGRS,043232.00,1,-1.8,-1.1,5.3,14.8,-0.8,20.1,,,,,,*70
$GNGRS,043232.00,1,-1.4,-1.0,2.8,,,,,,,,,*74
$GNGST,043232.00,42,,,,5.0,5.3,15*62
$GNZDA,043232.00,28,05,2025,00,00*76
$GNGBS,043232.00,5.0,5.3,14.7,,,,*6A
$GNTXT,01,01,01,More than 100 frame errors, UART RX was disabled*70
b0d8l';
Z /Ds>FO
,{ 4V^:R 
YdD|EIUNO/.P!<}RS QT$Ub8lU
?$GNRMC,043233.00,A,0419.86665,S,05539.66477,E,0.028,,280525,,,A*7D
$GNVTG,,T,,M,0.028,N,0.052,K,A*30
$GNGNS,043233.00,0419.86665,S,05539.66477,E,AA,09,1.12,17.3,-47.6,,*6F
$GNGGA,043233.00,0419.86665,S,05539.66477,E,1,09,1.12,17.3,M,-47.6,M,,*45
$GNGSA,A,3,24,05,20,11,15,12,,,,,,,2.27,1.12,1.98*1F
$GNGSA,A,3,79,80,83,,,,,,,,,,2.27,1.12,1.98*14
$GPGSV,5,1,18,05,59,131,39,11,23,020,28,12,32,001,28,13,20,156,*76
$GPGSV,5,2,18,14,03,129,,15,27,191,17,18,22,231,,20,47,068,29*78
$GPGSV,5,3,18,22,17,115,,23,01,213,,24,62,242,28,25,09,335,25*75
$GPGSV,5,4,18,29,10,300,22,36,52,277,32,40,86,350,30,41,58,082,*74
$GPGSV,5,5,18,49,32,274,,50,10,089,*78
$GLGSV,3,1,10,68,13,124,,69,17,173,,73,12,341,,78,01,150,*6A
$GLGSV,3,2,10,79,47,128,30,80,60,019,33,82,00,016,,83,32,337,30*65
$GLGSV,3,3,10,84,36,268,18,85,05,226,*66
$GNGLL,0419.86665,S,05539.66477,E,043233.00,A,A*66
$GNGRS,043233.00,1,-4.4,-1.0,6.6,13.7,-3.8,20.1,,,,,,*74
$GNGRS,043233.00,1,-7.2,-1.3,2.6,,,,,,,,,*78
$GNGST,043233.00,38,,,,5.0,5.3,15*6E
$GNZDA,043233.00,28,05,2025,00,00*77
$GNGBS,043233.00,5.0,5.3,14.6,,,,*6A
$GNTXT,01,01,01,More than 100 frame errors, UART RX was disabled*70
b0d l';
q \/Ds>O
,{ 4V^:R 
YdD|EIUNO/P!<RS QT$Uzb lU
C$GNRMC,043234.00,A,0419.86654,S,05539.66483,E,0.107,,280525,,,A*7F
$GNVTG,,T,,M,0.107,N,0.199,K,A*3A
$GNGNS,043234.00,0419.86654,S,05539.66483,E,AA,09,1.12,17.3,-47.6,,*61
$GNGGA,043234.00,0419.86654,S,05539.66483,E,1,09,1.12,17.3,M,-47.6,M,,*4B
$GNGSA,A,3,24,05,20,11,15,12,,,,,,,2.27,1.12,1.98*1F
$GNGSA,A,3,79,80,83,,,,,,,,,,2.27,1.12,1.98*14
$GPGSV,5,1,18,05,59,131,39,11,23,020,28,12,32,001,28,13,20,156,*76
$GPGSV,5,2,18,14,03,129,,15,27,191,18,18,22,231,,20,47,068,29*77
$GPGSV,5,3,18,22,17,115,,23,01,213,,24,62,242,27,25,09,335,24*7B
$GPGSV,5,4,18,29,10,300,21,36,52,277,32,40,86,350,30,41,58,082,*77
$GPGSV,5,5,18,49,32,274,,50,10,089,*78
$GLGSV,3,1,10,68,13,124,,69,17,173,,73,12,341,,78,01,150,*6A
$GLGSV,3,2,10,79,47,128,30,80,60,019,33,82,00,016,,83,32,337,30*65
$GLGSV,3,3,10,84,36,268,19,85,05,226,*67
$GNGLL,0419.86654,S,05539.66483,E,043234.00,A,A*68
$GNGRS,043234.00,1,0.3,-1.0,2.8,13.9,-6.0,18.8,,,,,,*56
$GNGRS,043234.00,1,-8.3,-1.2,2.8,,,,,,,,,*7E
$GNGST,043234.00,38,,,,4.9,5.3,14*60
$GNZDA,043234.00,28,05,2025,00,00*70
$GNGBS,043234.00,4.9,5.3,14.5,,,,*66
$GNTXT,01,01,01,More than 100 frame errors, UART RX was disabled*70
b0dl&;
 FQ/Drs>O
,{ 4V^:R 
YdD|EIUNO/P!<RS QT$UblU
G{b$GNRMC,043235.00,A,0419.86644,S,05539.66486,E,0.020,,280525,,,A*7E
$GNVTG,,T,,M,0.020,N,0.038,K,A*34
$GNGNS,043235.00,0419.86644,S,05539.66486,E,AA,09,1.12,17.3,-47.6,,*64
$GNGGA,043235.00,0419.86644,S,05539.66486,E,1,09,1.12,17.3,M,-47.6,M,,*4E
$GNGSA,A,3,24,05,20,11,15,12,,,,,,,2.27,1.12,1.98*1F
$GNGSA,A,3,79,80,83,,,,,,,,,,2.27,1.12,1.98*14
$GPGSV,5,1,18,05,59,131,38,11,23,020,28,12,32,001,28,13,20,156,*77
$GPGSV,5,2,18,14,03,129,,15,27,191,18,18,22,231,,20,47,068,30*7F
$GPGSV,5,3,18,22,17,115,,23,01,213,,24,62,242,27,25,09,335,23*7C
$GPGSV,5,4,18,29,10,300,21,36,52,277,32,40,86,350,30,41,58,082,*77
$GPGSV,5,5,18,49,32,274,,50,10,089,*78
$GLGSV,3,1,10,68,13,124,,69,17,173,,73,12,341,,78,01,150,*6A
$GLGSV,3,2,10,79,47,128,30,80,60,019,33,82,00,016,,83,32,337,30*65
$GLGSV,3,3,10,84,36,268,19,85,05,226,*67
$GNGLL,0419.86644,S,05539.66486,E,043235.00,A,A*6D
$GNGRS,043235.00,1,2.4,-0.9,6.3,12.7,-6.9,16.1,,,,,,*54
$GNGRS,043235.00,1,-8.3,-1.0,5.1,,,,,,,,,*73
$GNGST,043235.00,37,,,,4.9,5.3,14*6E
$GNZDA,043235.00,28,05,2025,00,00*71
$GNGBS,043235.00,4.9,5.3,14.4,,,,*66
$GNTXT,01,01,01,More than 100 frame errors, UART RX was disabled*70
b0dl&;
  /Ds>O
,{ 4V^:R 
YdD|EIUNO/-P!<RS Q[T$UblU
KR$GNRMC,043236.00,A,0419.86638,S,05539.66485,E,0.062,,280525,,,A*73
$GNVTG,,T,,M,0.062,N,0.115,K,A*3C
$GNGNS,043236.00,0419.86638,S,05539.66485,E,AA,09,1.12,17.2,-47.6,,*6E
$GNGGA,043236.00,0419.86638,S,05539.66485,E,1,09,1.12,17.2,M,-47.6,M,,*44
$GNGSA,A,3,24,05,20,11,15,12,,,,,,,2.27,1.12,1.98*1F
$GNGSA,A,3,79,80,83,,,,,,,,,,2.27,1.12,1.98*14
$GPGSV,5,1,18,05,59,131,38,11,23,020,28,12,32,001,27,13,20,156,*78
$GPGSV,5,2,18,14,03,129,,15,27,191,19,18,22,231,,20,47,068,30*7E
$GPGSV,5,3,18,22,17,115,,23,01,213,,24,62,242,26,25,09,335,23*7D
