b0LS
 B cL'Z$G.Fk+?G"{4U`:R 
YUFG"I++bJfPpT,fU< V!3bSYps$GNRMC,032327.00,A,0419.90568,S,05539.60852,E,0.187,,220525,,,A*75
$GNVTG,,T,,M,0.187,N,0.347,K,A*33
$GNGNS,032327.00,0419.90568,S,05539.60852,E,AA,11,1.04,7.8,-47.6,,*5D
$GNGGA,032327.00,0419.90568,S,05539.60852,E,1,11,1.04,7.8,M,-47.6,M,,*77
$GNGSA,A,3,11,13,06,24,15,22,29,,,,,,1.74,1.04,1.40*13
$GNGSA,A,3,85,73,71,86,,,,,,,,,1.74,1.04,1.40*1F
$GPGSV,5,1,18,05,31,181,25,06,30,032,20,11,66,032,31,12,06,332,*7E
$GPGSV,5,2,18,13,39,195,27,14,15,090,,15,28,234,36,19,04,029,*76
$GPGSV,5,3,18,20,46,138,23,22,20,070,12,24,43,319,27,29,11,258,34*77
$GPGSV,5,4,18,30,14,143,,36,52,277,,40,85,352,,41,58,082,*7E
$GPGSV,5,5,18,49,32,274,,50,10,089,*78
$GLGSV,2,1,08,70,16,178,,71,14,224,34,73,43,043,22,74,18,358,*60
$GLGSV,2,2,08,80,27,112,,84,44,358,,85,60,262,28,86,13,215,33*6D
$GNGLL,0419.90568,S,05539.60852,E,032327.00,A,A*60
$GNGRS,032327.00,1,1.0,-0.9,4.0,3.3,0.7,11.3,-0.7,,,,,*46
$GNGRS,032327.00,1,0.3,-1.6,-5.8,-1.2,,,,,,,,*70
$GNGST,032327.00,3586708,,,,3.9,4.9,6.5*7D
$GNZDA,032327.00,22,05,2025,00,00*7F
$GNGBS,032327.00,3.9,4.9,6.5,,,,*5C
$GNTXT,01,01,01,More than 100 frame errors, UART RX was disabled*70
b0LS
 B $L'Z.F%+?S{4U`:R 
YUFGI++XJfPpT,fU<V9bSYXK{$GNRMC,032328.00,A,0419.90574,S,05539.60845,E,0.197,,220525,,,A*70
$GNVTG,,T,,M,0.197,N,0.365,K,A*32
$GNGNS,032328.00,0419.90574,S,05539.60845,E,AA,11,1.04,8.1,-47.6,,*5F
$GNGGA,032328.00,0419.90574,S,05539.60845,E,1,11,1.04,8.1,M,-47.6,M,,*75
$GNGSA,A,3,11,13,06,24,15,22,29,,,,,,1.74,1.04,1.40*13
$GNGSA,A,3,85,73,71,86,,,,,,,,,1.74,1.04,1.40*1F
$GPGSV,5,1,18,05,31,181,23,06,30,032,19,11,66,032,25,12,06,332,*77
$GPGSV,5,2,18,13,39,195,26,14,15,090,,15,28,234,30,19,04,029,*71
$GPGSV,5,3,18,20,46,138,20,22,20,070,13,24,43,319,25,29,11,258,31*72
$GPGSV,5,4,18,30,14,143,,36,52,277,,40,85,352,,41,58,082,*7E
$GPGSV,5,5,18,49,32,274,,50,10,089,*78
$GLGSV,2,1,08,70,16,178,,71,14,224,23,73,43,043,19,74,18,358,*6E
$GLGSV,2,2,08,80,27,112,,84,44,358,,85,60,262,25,86,13,215,27*65
$GNGLL,0419.90574,S,05539.60845,E,032328.00,A,A*64
$GNGRS,032328.00,1,-2.2,3.9,2.9,-0.6,-0.2,-12.4,0.8,,,,,*4C
$GNGRS,032328.00,1,2.3,-4.2,-6.4,0.6,,,,,,,,*5B
$GNGST,032328.00,49,,,,3.9,5.0,6.6*43
$GNZDA,032328.00,22,05,2025,00,00*70
$GNGBS,032328.00,3.9,5.0,6.6,,,,*58
$GNTXT,01,01,01,More than 100 frame errors, UART RX was disabled*70
b0LT
  B L'4Z%@.Fr+?"e{4U`:R 
YUFG I++JfPpT,fU <#V 
ZbTY@$$GNRMC,032329.00,A,0419.90576,S,05539.60837,E,0.129,,220525,,,A*73
$GNVTG,,T,,M,0.129,N,0.239,K,A*3F
$GNGNS,032329.00,0419.90576,S,05539.60837,E,AA,10,1.20,8.1,-47.6,,*5E
$GNGGA,032329.00,0419.90576,S,05539.60837,E,1,10,1.20,8.1,M,-47.6,M,,*74
$GNGSA,A,3,11,13,06,24,15,29,,,,,,,1.98,1.20,1.58*1E
$GNGSA,A,3,85,73,71,86,,,,,,,,,1.98,1.20,1.58*12
$GPGSV,5,1,18,05,31,181,23,06,30,032,18,11,66,032,32,12,06,332,*70
$GPGSV,5,2,18,13,39,195,31,14,15,090,,15,28,234,37,19,04,029,*70
$GPGSV,5,3,18,20,46,138,19,22,20,070,06,24,43,319,26,29,11,258,34*7A
$GPGSV,5,4,18,30,14,143,,36,52,277,,40,85,352,,41,58,082,*7E
$GPGSV,5,5,18,49,32,274,,50,10,089,*78
$GLGSV,2,1,08,70,16,178,,71,14,224,32,73,43,043,17,74,18,358,*60
$GLGSV,2,2,08,80,27,112,,84,44,358,,85,60,262,32,86,13,215,32*67
$GNGLL,0419.90576,S,05539.60837,E,032329.00,A,A*62
$GNGRS,032329.00,1,-1.1,-2.0,2.1,0.0,0.6,3.6,,,,,,*5B
$GNGRS,032329.00,1,-2.2,-5.4,-5.5,1.5,,,,,,,,*71
$GNGST,032329.00,31,,,,3.9,5.0,6.6*4D
$GNZDA,032329.00,22,05,2025,00,00*71
$GNGBS,032329.00,3.9,5.0,6.6,,,,*59
$GNTXT,01,01,01,More than 100 frame errors, UART RX was disabled*70
b0LT
  B eL'Z%Z.
Ff+?e"{4U`:R 
YUFG"I++JfPpT+gU <VhbTY(Y$GNRMC,032330.00,A,0419.90569,S,05539.60829,E,0.089,,220525,,,A*71
$GNVTG,,T,,M,0.089,N,0.165,K,A*3E
$GNGNS,032330.00,0419.90569,S,05539.60829,E,AA,11,1.04,8.3,-47.6,,*52
$GNGGA,032330.00,0419.90569,S,05539.60829,E,1,11,1.04,8.3,M,-47.6,M,,*78
$GNGSA,A,3,11,13,06,24,15,22,29,,,,,,1.74,1.04,1.40*13
$GNGSA,A,3,85,73,71,86,,,,,,,,,1.74,1.04,1.40*1F
$GPGSV,5,1,18,05,31,181,23,06,30,032,20,11,66,032,32,12,06,332,*7B
$GPGSV,5,2,18,13,39,195,31,14,15,090,,15,28,234,37,19,04,029,*70
$GPGSV,5,3,18,20,46,138,20,22,20,070,10,24,43,319,26,29,11,258,34*77
$GPGSV,5,4,18,30,14,143,,36,52,277,,40,85,352,,41,58,082,*7E
$GPGSV,5,5,18,49,32,274,,50,10,089,*78
$GLGSV,2,1,08,70,16,178,,71,14,224,34,73,43,043,20,74,18,358,*62
$GLGSV,2,2,08,80,27,112,,84,43,359,,85,60,262,32,86,13,215,31*62
$GNGLL,0419.90569,S,05539.60829,E,032330.00,A,A*6B
$GNGRS,032330.00,1,1.0,-2.4,2.5,1.0,0.9,11.3,1.7,,,,,*6F
$GNGRS,032330.00,1,-3.7,-4.8,-11.3,1.6,,,,,,,,*40
$GNGST,032330.00,3586708,,,,3.8,5.0,6.7*70
$GNZDA,032330.00,22,05,2025,00,00*79
$GNGBS,032330.00,3.8,5.0,6.7,,,,*51
$GNTXT,01,01,01,More than 100 frame errors, UART RX was disabled*70
b0LT
 v B @L 'Z&.F+?4%{4U`:R 
YUFG!I++JfPpT+gU <Vb=`bTY$GNRMC,032331.00,A,0419.90577,S,05539.60817,E,0.158,,220525,,,A*7F
$GNVTG,,T,,M,0.158,N,0.292,K,A*38
$GNGNS,032331.00,0419.90577,S,05539.60817,E,AA,11,1.20,8.8,-47.6,,*5C
$GNGGA,032331.00,0419.90577,S,05539.60817,E,1,11,1.20,8.8,M,-47.6,M,,*76
$GNGSA,A,3,11,13,06,24,15,22,29,,,,,,1.98,1.20,1.58*1E
$GNGSA,A,3,85,73,71,86,,,,,,,,,1.98,1.20,1.58*12
$GPGSV,5,1,18,05,31,181,24,06,30,032,20,11,66,032,32,12,06,332,*7C
$GPGSV,5,2,18,13,39,195,32,14,15,090,,15,28,234,38,19,04,029,*7C
$GPGSV,5,3,18,20,46,138,22,22,20,070,15,24,43,319,27,29,11,258,37*72
$GPGSV,5,4,18,30,14,143,,36,52,277,,40,85,352,,41,58,082,*7E
$GPGSV,5,5,18,49,32,274,,50,10,089,*78
$GLGSV,2,1,08,70,16,178,,71,14,224,33,73,43,043,21,74,18,358,*64
$GLGSV,2,2,08,80,27,112,,84,43,359,,85,60,264,32,86,13,215,31*64
$GNGLL,0419.90577,S,05539.60817,E,032331.00,A,A*68
$GNGRS,032331.00,1,3.2,-2.3,3.7,3.1,4.5,-28.2,-0.4,,,,,*68
$GNGRS,032331.00,1,-3.5,-2.6,-8.2,1.0,,,,,,,,*74
$GNGST,032331.00,28,,,,3.8,4.9,6.6*45
$GNZDA,032331.00,22,05,2025,00,00*78
$GNGBS,032331.00,3.8,4.9,6.6,,,,*59
$GNTXT,01,01,01,More than 100 frame errors, UART RX was disabled*70
b0LpT
  B L!'!Z(.FX+?${4U`:R 
YUFG I++JfPpT+gU <VbpTY&$GNRMC,032332.00,A,0419.90582,S,05539.60816,E,0.099,,220525,,,A*7B
$GNVTG,,T,,M,0.099,N,0.184,K,A*30
$GNGNS,032332.00,0419.90582,S,05539.60816,E,AA,11,1.04,8.9,-47.6,,*53
$GNGGA,032332.00,0419.90582,S,05539.60816,E,1,11,1.04,8.9,M,-47.6,M,,*79
$GNGSA,A,3,11,13,06,24,15,22,29,,,,,,1.74,1.04,1.40*13
$GNGSA,A,3,85,73,71,86,,,,,,,,,1.74,1.04,1.40*1F
$GPGSV,5,1,18,05,31,181,23,06,30,032,21,11,66,032,32,12,06,332,*7A
$GPGSV,5,2,18,13,39,195,33,14,15,090,,15,28,234,40,19,04,029,*72
$GPGSV,5,3,18,20,46,138,23,22,20,070,12,24,43,319,28,29,11,258,36*7A
$GPGSV,5,4,18,30,14,143,,36,52,277,,40,85,352,,41,58,082,*7E
$GPGSV,5,5,18,49,32,274,,50,10,089,*78
$GLGSV,2,1,08,70,16,178,,71,14,224,32,73,43,043,20,74,18,358,*64
$GLGSV,2,2,08,80,27,112,,84,43,359,,85,60,264,32,86,14,216,31*60
$GNGLL,0419.90582,S,05539.60816,E,032332.00,A,A*60
$GNGRS,032332.00,1,1.9,-2.2,6.5,4.4,1.8,11.1,-0.7,,,,,*49
$GNGRS,032332.00,1,-5.7,-3.4,-8.3,1.9,,,,,,,,*78
$GNGST,032332.00,3586708,,,,3.7,4.9,6.6*74
$GNZDA,032332.00,22,05,2025,00,00*7B
$GNGBS,032332.00,3.7,4.9,6.6,,,,*55
$GNTXT,01,01,01,More than 100 frame errors, UART RX was disabled*70
b0LXT
 1!B FL 'Z$.F1+?.${4U`:R 
YUFG I++LJfPpT+gU <VbXTY$GNRMC,032333.00,A,0419.90575,S,05539.60820,E,0.103,,220525,,,A*75
$GNVTG,,T,,M,0.103,N,0.191,K,A*36
$GNGNS,032333.00,0419.90575,S,05539.60820,E,AA,11,1.04,8.8,-47.6,,*5E
$GNGGA,032333.00,0419.90575,S,05539.60820,E,1,11,1.04,8.8,M,-47.6,M,,*74
$GNGSA,A,3,11,13,06,24,15,22,29,,,,,,1.74,1.04,1.40*13
$GNGSA,A,3,85,73,71,86,,,,,,,,,1.74,1.04,1.40*1F
$GPGSV,5,1,18,05,31,181,23,06,30,032,21,11,66,032,33,12,06,332,*7B
$GPGSV,5,2,18,13,39,195,32,14,15,090,,15,28,234,36,19,04,029,*72
$GPGSV,5,3,18,20,46,138,23,22,20,070,11,24,43,319,26,29,11,258,36*77
$GPGSV,5,4,18,30,14,143,,36,52,277,,40,85,352,,41,58,082,*7E
$GPGSV,5,5,18,49,32,274,,50,10,089,*78
$GLGSV,2,1,08,70,16,178,,71,14,224,32,73,43,043,20,74,18,358,*64
$GLGSV,2,2,08,80,27,112,,84,43,359,,85,60,264,32,86,14,216,31*60
$GNGLL,0419.90575,S,05539.60820,E,032333.00,A,A*6C
$GNGRS,032333.00,1,0.7,-3.3,8.2,5.6,1.8,10.7,-0.6,,,,,*4B
$GNGRS,032333.00,1,1.6,-1.8,-7.4,1.9,,,,,,,,*57
$GNGST,032333.00,3586708,,,,3.7,4.9,6.6*75
$GNZDA,032333.00,22,05,2025,00,00*7A
$GNGBS,032333.00,3.7,4.9,6.6,,,,*54
$GNTXT,01,01,01,More than 100 frame errors, UART RX was disabled*70
b0L@T
 !B L'\Z$.
FP+?#'{4U`:R 
YUFG I++6JfPpT+gU <Vob@TY[$GNRMC,032334.00,A,0419.90572,S,05539.60828,E,0.152,,220525,,,A*79
$GNVTG,,T,,M,0.152,N,0.282,K,A*33
$GNGNS,032334.00,0419.90572,S,05539.60828,E,AA,11,1.20,8.5,-47.6,,*5D
$GNGGA,032334.00,0419.90572,S,05539.60828,E,1,11,1.20,8.5,M,-47.6,M,,*77
$GNGSA,A,3,11,13,06,24,15,22,29,,,,,,1.98,1.20,1.58*1E
$GNGSA,A,3,85,73,71,86,,,,,,,,,1.98,1.20,1.58*12
$GPGSV,5,1,18,05,31,181,22,06,30,032,22,11,66,032,33,12,06,332,*79
$GPGSV,5,2,18,13,39,195,30,14,15,090,,15,28,234,36,19,04,029,*70
$GPGSV,5,3,18,20,46,138,23,22,20,070,10,24,43,319,25,29,11,258,35*76
$GPGSV,5,4,18,30,14,143,,36,52,277,,40,85,352,,41,58,082,*7E
$GPGSV,5,5,18,49,32,274,,50,10,089,*78
$GLGSV,2,1,08,70,16,178,,71,14,224,32,73,43,043,20,74,18,358,*64
$GLGSV,2,2,08,80,27,112,,84,43,359,,85,60,264,32,86,14,216,30*61
$GNGLL,0419.90572,S,05539.60828,E,032334.00,A,A*64
$GNGRS,032334.00,1,0.1,-1.6,9.0,6.6,2.8,-24.8,0.4,,,,,*44
$GNGRS,032334.00,1,-3.3,-2.0,-7.4,4.8,,,,,,,,*75
$GNGST,032334.00,29,,,,3.6,4.8,6.6*4E
$GNZDA,032334.00,22,05,2025,00,00*7D
$GNGBS,032334.00,3.6,4.8,6.6,,,,*53
$GNTXT,01,01,01,More than 100 frame errors, UART RX was disabled*70
b0L(T
  B BL'Z!.Fj+?"{4U`:R 
YUFGoI++JfPpT+gU<}VDb(TY3^$GNRMC,032335.00,A,0419.90572,S,05539.60833,E,0.122,,220525,,,A*75
$GNVTG,,T,,M,0.122,N,0.225,K,A*39
$GNGNS,032335.00,0419.90572,S,05539.60833,E,AA,11,1.04,8.5,-47.6,,*50
$GNGGA,032335.00,0419.90572,S,05539.60833,E,1,11,1.04,8.5,M,-47.6,M,,*7A
$GNGSA,A,3,11,13,06,24,15,22,29,,,,,,1.74,1.04,1.40*13
$GNGSA,A,3,85,73,71,86,,,,,,,,,1.74,1.04,1.40*1F
$GPGSV,5,1,18,05,31,181,20,06,30,032,22,11,66,032,32,12,06,332,*7A
$GPGSV,5,2,18,13,39,195,29,14,15,090,,15,28,234,33,19,04,029,*7D
$GPGSV,5,3,18,20,46,138,21,22,20,070,09,24,43,319,21,29,11,258,34*79
$GPGSV,5,4,18,30,14,143,,36,52,277,,40,85,352,,41,58,082,*7E
$GPGSV,5,5,18,49,32,274,,50,10,089,*78
$GLGSV,2,1,08,70,16,178,,71,14,224,26,73,43,043,20,74,18,358,*61
$GLGSV,2,2,08,80,27,112,,84,43,359,,85,60,264,31,86,14,216,28*6B
$GNGLL,0419.90572,S,05539.60833,E,032335.00,A,A*6F
$GNGRS,032335.00,1,0.7,-0.7,7.3,6.6,1.4,11.3,0.3,,,,,*66
$GNGRS,032335.00,1,-6.4,-1.2,-4.0,3.2,,,,,,,,*7D
$GNGST,032335.00,3586708,,,,3.7,4.9,6.7*72
$GNZDA,032335.00,22,05,2025,00,00*7C
$GNGBS,032335.00,3.7,4.9,6.7,,,,*53
$GNTXT,01,01,01,More than 100 frame errors, UART RX was disabled*70
b0LT
 B L'Z#].Fr+?"{4U`:R 
YUFGI++@JfPpT+gU<`V-bTY$GNRMC,032336.00,A,0419.90569,S,05539.60834,E,0.116,,220525,,,A*7C
$GNVTG,,T,,M,0.116,N,0.215,K,A*3D
$GNGNS,032336.00,0419.90569,S,05539.60834,E,AA,11,1.04,8.4,-47.6,,*5F
$GNGGA,032336.00,0419.90569,S,05539.60834,E,1,11,1.04,8.4,M,-47.6,M,,*75
$GNGSA,A,3,11,13,06,24,15,22,29,,,,,,1.74,1.04,1.40*13
$GNGSA,A,3,85,73,71,86,,,,,,,,,1.74,1.04,1.40*1F
$GPGSV,5,1,18,05,31,181,17,06,30,032,22,11,66,032,30,12,06,332,*7C
$GPGSV,5,2,18,13,39,195,28,14,15,090,,15,28,234,35,19,04,029,*7A
$GPGSV,5,3,18,20,46,138,20,22,20,070,12,24,43,319,18,29,11,258,34*78
$GPGSV,5,4,18,30,14,143,,36,52,277,,40,85,352,,41,58,082,*7E
$GPGSV,5,5,18,49,32,274,,50,10,089,*78
$GLGSV,2,1,08,70,16,178,,71,14,224,28,73,43,043,19,74,18,358,*65
$GLGSV,2,2,08,80,27,112,,84,43,359,,85,60,264,30,86,14,216,28*6A
$GNGLL,0419.90569,S,05539.60834,E,032336.00,A,A*61
$GNGRS,032336.00,1,-2.9,-1.1,5.3,7.1,0.9,11.4,0.1,,,,,*4E
$GNGRS,032336.00,1,-4.2,-4.5,-5.3,0.1,,,,,,,,*7A
$GNGST,032336.00,3586708,,,,3.7,4.9,6.7*71
$GNZDA,032336.00,22,05,2025,00,00*7F
$GNGBS,032336.00,3.7,4.9,6.7,,,,*50
$GNTXT,01,01,01,More than 100 frame errors, UART RX was disabled*70
b0L T
 B L'Z"M.F+?${4U`:R 
YUFGI++JfPpT+gU<Vdb TY$GNRMC,032337.00,A,0419.90574,S,05539.60816,E,0.387,,220525,,,A*7B
$GNVTG,,T,,M,0.387,N,0.717,K,A*30
$GNGNS,032337.00,0419.90574,S,05539.60816,E,AA,11,1.20,8.6,-47.6,,*56
$GNGGA,032337.00,0419.90574,S,05539.60816,E,1,11,1.20,8.6,M,-47.6,M,,*7C
$GNGSA,A,3,11,13,06,24,15,22,29,,,,,,1.98,1.20,1.58*1E
$GNGSA,A,3,85,73,71,86,,,,,,,,,1.98,1.20,1.58*12
$GPGSV,5,1,18,05,31,181,14,06,30,032,20,11,66,032,28,12,06,332,*74
$GPGSV,5,2,18,13,39,195,28,14,15,090,,15,28,234,34,19,04,029,*7B
$GPGSV,5,3,18,20,46,138,18,22,20,070,07,24,43,319,15,29,11,258,28*77
$GPGSV,5,4,18,30,14,143,,36,52,277,,40,85,352,,41,58,082,*7E
$GPGSV,5,5,18,49,32,274,,50,10,089,*78
$GLGSV,2,1,08,70,16,178,,71,14,224,27,73,43,043,16,74,18,358,*65
$GLGSV,2,2,08,80,27,112,,84,43,359,,85,60,264,28,86,14,216,27*6C
$GNGLL,0419.90574,S,05539.60816,E,032337.00,A,A*6C
$GNGRS,032337.00,1,0.1,-3.5,4.8,8.0,0.8,-35.8,-0.9,,,,,*69
$GNGRS,032337.00,1,-10.2,-5.3,-3.4,2.1,,,,,,,,*4A
$GNGST,032337.00,42,,,,3.8,5.0,6.9*48
$GNZDA,032337.00,22,05,2025,00,00*7E
$GNGBS,032337.00,3.8,5.0,6.9,,,,*58
$GNTXT,01,01,01,More than 100 frame errors, UART RX was disabled*70
b0L$T
 vB L'IZ$'.FZ+?{4U`:R 
YUFGI++JfPpT+gU <JV@b$TYh$GNRMC,032338.00,A,0419.90573,S,05539.60799,E,0.887,,220525,,,A*70
$GNVTG,,T,,M,0.887,N,1.643,K,A*3A
$GNGNS,032338.00,0419.90573,S,05539.60799,E,AA,11,1.04,8.2,-47.6,,*54
$GNGGA,032338.00,0419.90573,S,05539.60799,E,1,11,1.04,8.2,M,-47.6,M,,*7E
$GNGSA,A,3,11,13,06,24,15,22,29,,,,,,1.74,1.04,1.40*13
$GNGSA,A,3,85,73,71,86,,,,,,,,,1.74,1.04,1.40*1F
$GPGSV,5,1,18,05,31,181,14,06,30,032,17,11,66,032,26,12,06,332,*7E
$GPGSV,5,2,18,13,39,195,27,14,15,090,,15,28,234,36,19,04,029,*76
$GPGSV,5,3,18,20,46,138,17,22,20,070,07,24,43,319,17,29,11,258,30*73
$GPGSV,5,4,18,30,14,143,,36,52,277,,40,85,352,,41,58,082,*7E
$GPGSV,5,5,18,49,32,274,,50,10,089,*78
$GLGSV,2,1,08,70,16,178,,71,14,224,27,73,43,043,11,74,18,358,*62
$GLGSV,2,2,08,80,27,112,,84,43,359,,85,60,264,32,86,14,216,26*66
$GNGLL,0419.90573,S,05539.60799,E,032338.00,A,A*6C
$GNGRS,032338.00,1,0.2,-4.4,6.3,6.4,0.4,11.1,-1.2,,,,,*44
$GNGRS,032338.00,1,-9.5,-11.2,-8.2,1.9,,,,,,,,*48
$GNGST,032338.00,3586708,,,,3.9,5.1,6.9*76
$GNZDA,032338.00,22,05,2025,00,00*71
$GNGBS,032338.00,3.9,5.1,6.9,,,,*57
$GNTXT,01,01,01,More than 100 frame errors, UART RX was disabled*70
b0L(T
 B L'Z:.F+? B{4U`:R 
YUFGI
++JfPpT+gU<:VBb(TYP$GNRMC,032339.00,A,0419.90573,S,05539.60801,E,0.154,,220525,,,A*78
$GNVTG,,T,,M,0.154,N,0.286,K,A*31
$GNGNS,032339.00,0419.90573,S,05539.60801,E,AA,11,1.04,8.0,-47.6,,*59
$GNGGA,032339.00,0419.90573,S,05539.60801,E,1,11,1.04,8.0,M,-47.6,M,,*73
$GNGSA,A,3,11,13,06,24,15,22,29,,,,,,1.74,1.04,1.40*13
$GNGSA,A,3,85,73,71,86,,,,,,,,,1.74,1.04,1.40*1F
$GPGSV,5,1,18,05,31,181,17,06,30,032,12,11,66,032,25,12,06,332,*7B
$GPGSV,5,2,18,13,39,195,25,14,15,090,,15,28,234,29,19,04,029,*7A
$GPGSV,5,3,18,20,46,138,18,22,20,070,07,24,43,319,18,29,11,258,32*71
$GPGSV,5,4,18,30,14,143,,36,52,277,,40,85,352,,41,58,082,*7E
$GPGSV,5,5,18,49,32,274,,50,10,089,*78
$GLGSV,2,1,08,70,16,178,,71,14,224,28,73,43,043,10,74,18,358,*6C
$GLGSV,2,2,08,80,27,112,,84,43,359,,85,60,264,29,86,14,216,26*6C
$GNGLL,0419.90573,S,05539.60801,E,032339.00,A,A*63
$GNGRS,032339.00,1,-1.2,-3.0,9.9,4.8,0.6,10.5,-4.5,,,,,*64
$GNGRS,032339.00,1,-4.5,-15.1,-6.1,0.7,,,,,,,,*41
$GNGST,032339.00,3586708,,,,4.0,5.2,7.1*73
$GNZDA,032339.00,22,05,2025,00,00*70
$GNGBS,032339.00,4.0,5.2,7.1,,,,*52
$GNTXT,01,01,01,More than 100 frame errors, UART RX was disabled*70
b0L,T
B L'Z&%.FX+?*,{4U`:R 
YUFG;I++JfPpT+gU"<V ZlSb,TY8jW$GNRMC,032340.00,A,0419.90563,S,05539.60815,E,0.992,,220525,,,A*70
$GNVTG,,T,,M,0.992,N,1.837,K,A*32
$GNGNS,032340.00,0419.90563,S,05539.60815,E,AA,10,1.20,7.2,-47.6,,*59
$GNGGA,032340.00,0419.90563,S,05539.60815,E,1,10,1.20,7.2,M,-47.6,M,,*73
$GNGSA,A,3,11,13,06,24,15,29,,,,,,,1.98,1.20,1.58*1E
$GNGSA,A,3,85,73,71,86,,,,,,,,,1.98,1.20,1.58*12
$GPGSV,5,1,18,05,31,181,21,06,29,031,11,11,66,032,24,12,06,332,*77
$GPGSV,5,2,18,13,39,195,30,14,15,090,,15,28,234,38,19,04,029,*7E
$GPGSV,5,3,18,20,46,138,18,22,20,070,07,24,43,319,28,29,11,258,42*75
$GPGSV,5,4,18,30,14,143,,36,52,277,,40,85,352,,41,58,082,*7E
$GPGSV,5,5,18,49,32,274,,50,10,089,*78
$GLGSV,2,1,08,70,16,178,,71,14,224,21,73,43,043,11,74,18,358,*64
$GLGSV,2,2,08,80,27,112,,84,43,359,,85,60,264,34,86,14,216,32*65
$GNGLL,0419.90563,S,05539.60815,E,032340.00,A,A*69
$GNGRS,032340.00,1,1.6,-2.7,7.7,5.2,0.4,0.4,,,,,,*7E
$GNGRS,032340.00,1,-2.7,-16.0,-4.5,3.5,,,,,,,,*4E
$GNGST,032340.00,52,,,,3.9,5.3,7.0*43
$GNZDA,032340.00,22,05,2025,00,00*7E
$GNGBS,032340.00,3.9,5.3,7.0,,,,*52
$GNTXT,01,01,01,More than 100 frame errors, UART RX was disabled*70
b0L0T
B L'>Z#.F'+?){4U`:R 
YUFGI++JfPpT+gU<V'b0TY B$GNRMC,032341.00,A,0419.90562,S,05539.60850,E,0.361,,220525,,,A*77
$GNVTG,,T,,M,0.361,N,0.668,K,A*31
$GNGNS,032341.00,0419.90562,S,05539.60850,E,AA,10,1.20,6.6,-47.6,,*5D
$GNGGA,032341.00,0419.90562,S,05539.60850,E,1,10,1.20,6.6,M,-47.6,M,,*77
$GNGSA,A,3,11,13,06,24,15,29,,,,,,,1.98,1.20,1.58*1E
$GNGSA,A,3,85,73,71,86,,,,,,,,,1.98,1.20,1.58*12
$GPGSV,5,1,18,05,31,181,20,06,29,031,16,11,66,032,23,12,06,332,*76
$GPGSV,5,2,18,13,39,195,30,14,15,090,,15,28,234,35,19,04,029,*73
$GPGSV,5,3,18,20,46,138,17,22,20,070,07,24,43,319,29,29,11,258,41*78
$GPGSV,5,4,18,30,14,143,,36,52,277,,40,85,352,,41,58,082,*7E
$GPGSV,5,5,18,49,32,274,,50,10,089,*78
$GLGSV,2,1,08,70,16,178,,71,14,224,30,73,43,043,16,74,18,358,*63
$GLGSV,2,2,08,80,27,112,,84,43,359,,85,60,264,30,86,14,216,39*6A
$GNGLL,0419.90562,S,05539.60850,E,032341.00,A,A*68
$GNGRS,032341.00,1,1.6,-1.9,6.8,2.0,0.2,0.0,,,,,,*7B
$GNGRS,032341.00,1,-3.7,-15.6,-3.0,2.3,,,,,,,,*4E
$GNGST,032341.00,44,,,,3.8,5.3,7.0*44
$GNZDA,032341.00,22,05,2025,00,00*7F
$GNGBS,032341.00,3.8,5.3,7.0,,,,*52
$GNTXT,01,01,01,More than 100 frame errors, UART RX was disabled*70
b0L4T
-B L'rZR.Fb+?+'K{4U`:R 
YUFGI++JfPpT+gU<:V%b4TY'$GNRMC,032342.00,A,0419.90562,S,05539.60846,E,0.528,,220525,,,A*78
$GNVTG,,T,,M,0.528,N,0.978,K,A*34
$GNGNS,032342.00,0419.90562,S,05539.60846,E,AA,10,1.20,6.6,-47.6,,*59
$GNGGA,032342.00,0419.90562,S,05539.60846,E,1,10,1.20,6.6,M,-47.6,M,,*73
$GNGSA,A,3,11,13,06,24,15,29,,,,,,,1.98,1.20,1.58*1E
$GNGSA,A,3,85,73,71,86,,,,,,,,,1.98,1.20,1.58*12
$GPGSV,5,1,18,05,31,181,22,06,29,031,16,11,66,032,23,12,06,332,*74
$GPGSV,5,2,18,13,39,195,28,14,15,090,,15,28,234,25,19,04,029,*7B
$GPGSV,5,3,18,20,46,138,16,22,20,070,07,24,43,319,20,29,11,258,39*7F
$GPGSV,5,4,18,30,14,143,,36,52,277,,40,85,352,,41,58,082,*7E
$GPGSV,5,5,18,49,32,274,,50,10,089,*78
$GLGSV,2,1,08,70,16,178,,71,14,224,24,73,43,043,18,74,18,358,*68
$GLGSV,2,2,08,80,27,112,,84,43,359,,85,60,264,29,86,14,216,37*6C
$GNGLL,0419.90562,S,05539.60846,E,032342.00,A,A*6C
$GNGRS,032342.00,1,2.7,1.1,5.6,0.4,0.8,0.7,,,,,,*59
$GNGRS,032342.00,1,0.6,-15.7,-8.5,1.7,,,,,,,,*6A
$GNGST,032342.00,45,,,,3.8,5.3,7.0*46
$GNZDA,032342.00,22,05,2025,00,00*7C
$GNGBS,032342.00,3.8,5.3,7.0,,,,*51
$GNTXT,01,01,01,More than 100 frame errors, UART RX was disabled*70
b0Lh8T
B AL'Z.F+?({4U`:R 
YUFGI++IJfPpT+gU<V lbh8TY$GNRMC,032343.00,A,0419.90561,S,05539.60849,E,0.399,,220525,,,A*79
$GNVTG,,T,,M,0.399,N,0.739,K,A*33
$GNGNS,032343.00,0419.90561,S,05539.60849,E,AA,10,1.20,6.5,-47.6,,*57
$GNGGA,032343.00,0419.90561,S,05539.60849,E,1,10,1.20,6.5,M,-47.6,M,,*7D
$GNGSA,A,3,11,13,06,24,15,29,,,,,,,1.98,1.20,1.58*1E
$GNGSA,A,3,85,73,71,86,,,,,,,,,1.98,1.20,1.58*12
$GPGSV,5,1,18,05,31,181,20,06,29,031,18,11,66,032,27,12,06,332,*7C
$GPGSV,5,2,18,13,39,195,27,14,15,090,,15,28,234,30,19,04,029,*70
$GPGSV,5,3,18,20,46,138,17,22,20,070,09,24,43,319,17,29,11,258,40*7A
$GPGSV,5,4,18,30,14,143,,36,52,277,,40,85,352,,41,58,082,*7E
$GPGSV,5,5,18,49,32,274,,50,10,089,*78
$GLGSV,2,1,08,70,16,178,,71,14,224,23,73,43,043,21,74,18,358,*65
$GLGSV,2,2,08,80,27,112,,84,43,359,,85,60,264,28,86,14,216,32*68
$GNGLL,0419.90561,S,05539.60849,E,032343.00,A,A*61
$GNGRS,032343.00,1,0.7,-3.3,7.0,-8.8,-0.7,0.1,,,,,,*7E
$GNGRS,032343.00,1,0.2,-14.6,-11.2,2.7,,,,,,,,*53
$GNGST,032343.00,43,,,,3.8,5.4,7.0*46
$GNZDA,032343.00,22,05,2025,00,00*7D
$GNGBS,032343.00,3.8,5.4,7.0,,,,*57
$GNTXT,01,01,01,More than 100 frame errors, UART RX was disabled*70
b0LP<T
B L'Z!S.F+?&{4U`:R 
YUFGI++JfPpT+gU<=V!bP<TY$GNRMC,032344.00,A,0419.90575,S,05539.60827,E,0.168,,220525,,,A*7F
$GNVTG,,T,,M,0.168,N,0.310,K,A*30
$GNGNS,032344.00,0419.90575,S,05539.60827,E,AA,10,1.20,7.0,-47.6,,*59
$GNGGA,032344.00,0419.90575,S,05539.60827,E,1,10,1.20,7.0,M,-47.6,M,,*73
$GNGSA,A,3,11,13,06,24,15,29,,,,,,,1.98,1.20,1.58*1E
$GNGSA,A,3,85,73,71,86,,,,,,,,,1.98,1.20,1.58*12
$GPGSV,5,1,18,05,31,181,20,06,29,031,19,11,66,032,27,12,06,332,*7D
$GPGSV,5,2,18,13,39,195,28,14,15,090,,15,28,234,33,19,04,029,*7C
$GPGSV,5,3,18,20,46,138,15,22,20,070,11,24,43,319,15,29,11,258,38*7C
$GPGSV,5,4,18,30,14,143,,36,52,277,,40,85,352,,41,58,082,*7E
$GPGSV,5,5,18,49,32,274,,50,10,089,*78
$GLGSV,2,1,08,70,16,178,,71,14,224,26,73,43,043,23,74,18,358,*62
$GLGSV,2,2,08,80,27,112,,84,43,359,,85,60,264,28,86,14,216,33*69
$GNGLL,0419.90575,S,05539.60827,E,032344.00,A,A*6B
$GNGRS,032344.00,1,4.7,-0.6,7.5,-13.0,3.4,0.2,,,,,,*62
$GNGRS,032344.00,1,3.2,-13.8,-8.6,2.6,,,,,,,,*63
$GNGST,032344.00,40,,,,3.8,5.3,7.1*44
$GNZDA,032344.00,22,05,2025,00,00*7A
$GNGBS,032344.00,3.8,5.3,7.1,,,,*56
$GNTXT,01,01,01,More than 100 frame errors, UART RX was disabled*70
b0L8@T
AL'jZ.
F+?i({4U`:R 
YUFG!I++ZJfPp`T+gU<V)b8@TY^$GNRMC,032345.00,A,0419.90579,S,05539.60828,E,0.110,,220525,,,A*72
$GNVTG,,T,,M,0.110,N,0.204,K,A*3B
$GNGNS,032345.00,0419.90579,S,05539.60828,E,AA,10,1.20,7.2,-47.6,,*59
$GNGGA,032345.00,0419.90579,S,05539.60828,E,1,10,1.20,7.2,M,-47.6,M,,*73
$GNGSA,A,3,11,13,06,24,15,29,,,,,,,1.98,1.20,1.58*1E
$GNGSA,A,3,85,73,71,86,,,,,,,,,1.98,1.20,1.58*12
$GPGSV,5,1,18,05,31,181,22,06,29,031,20,11,65,031,27,12,06,332,*75
$GPGSV,5,2,18,13,39,195,27,14,15,090,,15,28,234,28,19,04,029,*79
$GPGSV,5,3,18,20,46,138,17,22,20,070,10,24,43,319,15,29,11,258,40*70
$GPGSV,5,4,18,30,14,143,,36,52,277,,40,85,352,,41,58,082,*7E
$GPGSV,5,5,18,49,32,274,,50,10,089,*78
$GLGSV,2,1,08,70,16,178,,71,14,224,25,73,43,043,23,74,18,358,*61
$GLGSV,2,2,08,80,27,112,19,84,43,359,,85,60,264,27,86,14,216,29*65
$GNGLL,0419.90579,S,05539.60828,E,032345.00,A,A*69
$GNGRS,032345.00,1,2.8,3.6,4.6,-6.6,4.2,-0.9,,,,,,*51
$GNGRS,032345.00,1,1.3,-11.9,-17.6,-2.1,,,,,,,,*76
$GNGST,032345.00,42,,,,3.8,5.3,7.1*47
$GNZDA,032345.00,22,05,2025,00,00*7B
$GNGBS,032345.00,3.8,5.3,7.1,,,,*57
$GNTXT,01,01,01,More than 100 frame errors, UART RX was disabled*70
b0L DT
vAL'eZ#.
F'+?){4U`:R 
YUFGI++JfPpT+gU< Vb DTYz$GNRMC,032346.00,A,0419.90587,S,05539.60827,E,0.102,,220525,,,A*7C
$GNVTG,,T,,M,0.102,N,0.189,K,A*3E
$GNGNS,032346.00,0419.90587,S,05539.60827,E,AA,11,1.20,7.4,-47.6,,*53
$GNGGA,032346.00,0419.90587,S,05539.60827,E,1,11,1.20,7.4,M,-47.6,M,,*79
$GNGSA,A,3,11,13,06,24,15,22,29,,,,,,1.98,1.20,1.58*1E
$GNGSA,A,3,85,73,71,86,,,,,,,,,1.98,1.20,1.58*12
$GPGSV,5,1,18,05,31,181,23,06,29,031,20,11,65,031,29,12,06,332,*7A
$GPGSV,5,2,18,13,39,195,25,14,15,090,,15,28,234,35,19,04,029,*77
$GPGSV,5,3,18,20,46,138,16,22,20,070,10,24,43,319,18,29,11,258,41*7D
$GPGSV,5,4,18,30,14,143,,36,52,277,,40,85,352,,41,58,082,*7E
$GPGSV,5,5,18,49,32,274,,50,10,089,*78
$GLGSV,2,1,08,70,16,178,,71,14,224,24,73,43,043,22,74,18,358,*61
$GLGSV,2,2,08,80,27,112,19,84,43,359,,85,60,264,28,86,14,216,29*6A
$GNGLL,0419.90587,S,05539.60827,E,032346.00,A,A*64
$GNGRS,032346.00,1,4.8,6.1,3.7,-3.3,2.0,-58.5,-0.7,,,,,*61
$GNGRS,032346.00,1,-2.2,-11.0,-17.8,2.3,,,,,,,,*72
$GNGST,032346.00,41,,,,3.8,5.3,7.1*47
$GNZDA,032346.00,22,05,2025,00,00*78
$GNGBS,032346.00,3.8,5.3,7.1,,,,*54
$GNTXT,01,01,01,More than 100 frame errors, UART RX was disabled*70
b0LHT
AL'Z$.F+?){4U`:R 
YUFGI++JfPpT+gU<VbHTY
R.$GNRMC,032347.00,A,0419.90593,S,05539.60823,E,0.055,,220525,,,A*7F
$GNVTG,,T,,M,0.055,N,0.101,K,A*3D
$GNGNS,032347.00,0419.90593,S,05539.60823,E,AA,11,1.04,7.6,-47.6,,*57
$GNGGA,032347.00,0419.90593,S,05539.60823,E,1,11,1.04,7.6,M,-47.6,M,,*7D
$GNGSA,A,3,11,13,06,24,15,22,29,,,,,,1.78,1.04,1.45*1A
$GNGSA,A,3,85,73,71,86,,,,,,,,,1.78,1.04,1.45*16
$GPGSV,5,1,18,05,31,181,22,06,29,031,21,11,65,031,29,12,06,332,*7A
$GPGSV,5,2,18,13,39,194,26,14,15,090,,15,28,234,36,19,04,029,*76
$GPGSV,5,3,18,20,46,138,14,22,20,070,13,24,43,319,22,29,11,258,41*75
$GPGSV,5,4,18,30,14,143,,36,52,277,,40,85,352,,41,58,082,*7E
$GPGSV,5,5,18,49,32,274,,50,10,089,*78
$GLGSV,2,1,08,70,16,178,,71,14,224,21,73,43,043,23,74,18,358,*65
$GLGSV,2,2,08,80,27,112,18,84,43,359,,85,60,264,28,86,14,216,28*6A
$GNGLL,0419.90593,S,05539.60823,E,032347.00,A,A*64
$GNGRS,032347.00,1,1.8,0.0,2.6,0.0,-0.7,11.6,-0.7,,,,,*44
$GNGRS,032347.00,1,1.3,-10.5,-20.9,2.1,,,,,,,,*5F
$GNGST,032347.00,3761771,,,,3.8,5.3,7.2*72
$GNZDA,032347.00,22,05,2025,00,00*79
$GNGBS,032347.00,3.8,5.3,7.2,,,,*56
$GNTXT,01,01,01,More than 100 frame errors, UART RX was disabled*70
b0LKT

AL'{[#s.F+?({4U`:R 
YUFGI++0JfPp;T+gU<6VabKTYx)$GNRMC,032348.00,A,0419.90602,S,05539.60815,E,0.285,,220525,,,A*71
$GNVTG,,T,,M,0.285,N,0.529,K,A*3C
$GNGNS,032348.00,0419.90602,S,05539.60815,E,AA,11,1.03,7.8,-47.6,,*5F
$GNGGA,032348.00,0419.90602,S,05539.60815,E,1,11,1.03,7.8,M,-47.6,M,,*75
$GNGSA,A,3,11,13,06,24,15,22,29,,,,,,1.74,1.03,1.40*14
$GNGSA,A,3,85,73,71,86,,,,,,,,,1.74,1.03,1.40*18
$GPGSV,5,1,18,05,31,181,19,06,29,031,21,11,65,031,28,12,06,332,*73
$GPGSV,5,2,18,13,39,194,26,14,14,091,,15,28,234,35,19,04,029,*75
$GPGSV,5,3,18,20,46,138,11,22,20,070,12,24,43,319,23,29,11,258,40*71
$GPGSV,5,4,18,30,14,143,,36,52,277,,40,85,352,,41,58,082,*7E
$GPGSV,5,5,18,49,32,274,,50,10,089,*78
$GLGSV,2,1,08,70,16,178,,71,14,224,19,73,43,043,23,74,18,358,*6E
$GLGSV,2,2,08,80,27,112,15,84,43,359,,85,60,264,27,86,14,216,27*67
$GNGLL,0419.90602,S,05539.60815,E,032348.00,A,A*65
$GNGRS,032348.00,1,6.8,-1.3,2.7,-0.5,-1.4,11.8,-0.5,,,,,*44
$GNGRS,032348.00,1,3.1,-9.8,-19.0,1.0,,,,,,,,*64
$GNGST,032348.00,3586708,,,,3.8,5.3,7.2*78
$GNZDA,032348.00,22,05,2025,00,00*76
$GNGBS,032348.00,3.8,5.3,7.2,,,,*59
$GNTXT,01,01,01,More than 100 frame errors, UART RX was disabled*70
b0LOT
AL'[#.F+?w){4U`:R 
YUFGI++JfPpmT+gU<^V,tbOTY`$GNRMC,032349.00,A,0419.90598,S,05539.60826,E,0.174,,220525,,,A*7D
$GNVTG,,T,,M,0.174,N,0.322,K,A*3C
$GNGNS,032349.00,0419.90598,S,05539.60826,E,AA,12,1.20,7.7,-47.6,,*53
$GNGGA,032349.00,0419.90598,S,05539.60826,E,1,12,1.20,7.7,M,-47.6,M,,*79
$GNGSA,A,3,11,13,06,24,15,22,29,,,,,,1.98,1.20,1.58*1E
$GNGSA,A,3,85,73,80,71,86,,,,,,,,1.98,1.20,1.58*1A
$GPGSV,5,1,18,05,31,181,17,06,29,031,21,11,65,031,28,12,06,332,*7D
$GPGSV,5,2,18,13,39,194,25,14,14,091,,15,28,234,35,19,04,029,*76
$GPGSV,5,3,18,20,46,138,12,22,20,070,14,24,43,319,22,29,11,258,41*74
$GPGSV,5,4,18,30,14,143,,36,52,277,,40,85,352,,41,58,082,*7E
$GPGSV,5,5,18,49,32,274,,50,10,089,*78
$GLGSV,2,1,08,70,16,178,,71,14,224,16,73,43,043,24,74,18,358,*66
$GLGSV,2,2,08,80,27,112,16,84,43,359,,85,60,264,28,86,14,216,26*6A
$GNGLL,0419.90598,S,05539.60826,E,032349.00,A,A*64
$GNGRS,032349.00,1,6.5,-0.4,2.5,-1.4,-1.0,-20.4,-0.2,,,,,*6C
$GNGRS,032349.00,1,0.9,-7.5,-39.9,-20.2,3.0,,,,,,,*57
$GNGST,032349.00,44,,,,3.8,5.4,7.2*49
$GNZDA,032349.00,22,05,2025,00,00*77
$GNGBS,032349.00,3.8,5.4,7.2,80,,39.6,83.7*57
$GNTXT,01,01,01,More than 100 frame errors, UART RX was disabled*70
b0LST
AL'g["&.F+?J*{4U`:R 
YUFGI++JfPpT+gU<5VubSTYHW$GNRMC,032350.00,A,0419.90585,S,05539.60843,E,0.316,,220525,,,A*7C
$GNVTG,,T,,M,0.316,N,0.585,K,A*31
$GNGNS,032350.00,0419.90585,S,05539.60843,E,AA,11,1.03,7.5,-47.6,,*54
$GNGGA,032350.00,0419.90585,S,05539.60843,E,1,11,1.03,7.5,M,-47.6,M,,*7E
$GNGSA,A,3,11,13,06,24,15,22,29,,,,,,1.74,1.03,1.40*14
$GNGSA,A,3,85,73,71,86,,,,,,,,,1.74,1.03,1.40*18
$GPGSV,5,1,18,05,31,181,17,06,29,031,22,11,65,031,28,12,06,332,*7E
$GPGSV,5,2,18,13,39,194,27,14,14,091,,15,28,234,34,19,04,029,*75
$GPGSV,5,3,18,20,46,138,11,22,20,070,11,24,43,319,23,29,11,258,42*70
$GPGSV,5,4,18,30,14,143,,36,52,277,,40,85,352,,41,58,082,*7E
$GPGSV,5,5,18,49,32,274,,50,10,089,*78
$GLGSV,2,1,08,70,16,178,,71,14,224,15,73,43,043,23,74,18,358,*62
$GLGSV,2,2,08,80,27,112,,84,43,359,,85,60,264,28,86,14,216,26*6D
$GNGLL,0419.90585,S,05539.60843,E,032350.00,A,A*63
$GNGRS,032350.00,1,7.2,1.0,2.5,0.7,-2.2,10.5,-0.1,,,,,*48
$GNGRS,032350.00,1,0.5,-5.8,-20.3,1.6,,,,,,,,*69
$GNGST,032350.00,3586708,,,,3.8,5.4,7.3*77
$GNZDA,032350.00,22,05,2025,00,00*7F
$GNGBS,032350.00,3.8,5.4,7.3,,,,*56
$GNTXT,01,01,01,More than 100 frame errors, UART RX was disabled*70
b0LWT
AXL'[ .F+?({4U`:R 
YUFGI++JfPpT+gU<VbWTY0$GNRMC,032351.00,A,0419.90581,S,05539.60847,E,0.178,,220525,,,A*77
$GNVTG,,T,,M,0.178,N,0.329,K,A*3B
$GNGNS,032351.00,0419.90581,S,05539.60847,E,AA,11,1.03,7.5,-47.6,,*55
$GNGGA,032351.00,0419.90581,S,05539.60847,E,1,11,1.03,7.5,M,-47.6,M,,*7F
$GNGSA,A,3,11,13,06,24,15,22,29,,,,,,1.74,1.03,1.40*14
$GNGSA,A,3,85,73,71,86,,,,,,,,,1.74,1.03,1.40*18
$GPGSV,5,1,18,05,31,181,16,06,29,031,22,11,65,031,30,12,06,332,*76
$GPGSV,5,2,18,13,39,194,27,14,14,091,,15,28,234,32,19,04,029,*73
$GPGSV,5,3,18,20,46,138,13,22,20,070,12,24,43,319,23,29,11,258,40*73
$GPGSV,5,4,18,30,14,143,,36,52,277,,40,85,352,,41,58,082,*7E
$GPGSV,5,5,18,49,32,274,,50,10,089,*78
$GLGSV,2,1,08,70,16,178,,71,14,224,13,73,43,043,23,74,18,358,*64
$GLGSV,2,2,08,80,27,112,,84,43,359,,85,60,264,27,86,14,216,27*63
$GNGLL,0419.90581,S,05539.60847,E,032351.00,A,A*62
$GNGRS,032351.00,1,3.4,-0.2,1.7,2.1,-2.6,10.1,-0.1,,,,,*60
$GNGRS,032351.00,1,1.4,-6.0,-20.5,-0.4,,,,,,,,*4B
$GNGST,032351.00,3586708,,,,3.8,5.4,7.3*76
$GNZDA,032351.00,22,05,2025,00,00*7E
$GNGBS,032351.00,3.8,5.4,7.3,,,,*57
$GNTXT,01,01,01,More than 100 frame errors, UART RX was disabled*70
b0L[T
AL'H[~.F+?({4U`:R 
YUFGI++JfPp3T+gU<V6b[TY'$GNRMC,032352.00,A,0419.90582,S,05539.60846,E,0.159,,220525,,,A*75
$GNVTG,,T,,M,0.159,N,0.295,K,A*3E
$GNGNS,032352.00,0419.90582,S,05539.60846,E,AA,10,1.21,7.5,-47.6,,*55
$GNGGA,032352.00,0419.90582,S,05539.60846,E,1,10,1.21,7.5,M,-47.6,M,,*7F
$GNGSA,A,3,11,13,06,24,15,22,29,,,,,,2.04,1.21,1.64*16
$GNGSA,A,3,85,73,86,,,,,,,,,,2.04,1.21,1.64*1C
$GPGSV,5,1,18,05,31,181,14,06,29,031,21,11,65,031,30,12,06,332,*77
$GPGSV,5,2,18,13,39,194,28,14,14,091,,15,28,234,31,19,04,029,*7F
$GPGSV,5,3,18,20,46,138,13,22,20,070,09,24,43,319,26,29,11,258,40*7C
$GPGSV,5,4,18,30,14,143,,36,52,277,,40,85,352,,41,58,082,*7E
$GPGSV,5,5,18,49,32,274,,50,10,089,*78
$GLGSV,2,1,08,70,16,178,,71,14,224,,73,43,043,22,74,18,358,*67
$GLGSV,2,2,08,80,27,112,20,84,43,359,,85,60,264,27,86,14,216,26*60
$GNGLL,0419.90582,S,05539.60846,E,032352.00,A,A*63
$GNGRS,032352.00,1,5.1,0.7,0.3,2.7,1.3,-36.0,0.1,,,,,*65
$GNGRS,032352.00,1,-5.5,-8.6,-2.0,,,,,,,,,*5A
$GNGST,032352.00,33,,,,3.8,5.4,7.4*45
$GNZDA,032352.00,22,05,2025,00,00*7D
$GNGBS,032352.00,3.8,5.4,7.4,,,,*53
$GNTXT,01,01,01,More than 100 frame errors, UART RX was disabled*70
b0Lx_T
A:L'[l.F]+?x){4U`:R 
YUFGI++JfPpT+gU<=VC|Zbx_TY"a$GNRMC,032353.00,A,0419.90581,S,05539.60849,E,0.146,,220525,,,A*76
$GNVTG,,T,,M,0.146,N,0.270,K,A*3B
$GNGNS,032353.00,0419.90581,S,05539.60849,E,AA,10,1.04,7.4,-47.6,,*5E
$GNGGA,032353.00,0419.90581,S,05539.60849,E,1,10,1.04,7.4,M,-47.6,M,,*74
$GNGSA,A,3,11,13,06,24,15,22,29,,,,,,1.78,1.04,1.45*1A
$GNGSA,A,3,85,73,86,,,,,,,,,,1.78,1.04,1.45*10
$GPGSV,5,1,18,05,31,181,13,06,29,031,21,11,65,031,30,12,06,332,*70
$GPGSV,5,2,18,13,39,194,27,14,14,091,,15,28,234,30,19,03,029,*76
$GPGSV,5,3,18,20,46,138,15,22,20,070,13,24,43,319,26,29,11,258,41*70
$GPGSV,5,4,18,30,14,143,,36,52,277,,40,85,352,,41,58,082,*7E
$GPGSV,5,5,18,49,32,274,,50,10,089,*78
$GLGSV,2,1,08,70,16,178,,71,14,224,,73,43,043,23,74,18,358,*66
$GLGSV,2,2,08,80,27,112,19,84,43,359,,85,60,264,27,86,14,216,26*6A
$GNGLL,0419.90581,S,05539.60849,E,032353.00,A,A*6E
$GNGRS,032353.00,1,0.6,-1.2,0.3,3.8,1.1,11.2,0.0,,,,,*68
$GNGRS,032353.00,1,-7.1,-10.0,-1.9,,,,,,,,,*68
$GNGST,032353.00,3761771,,,,3.8,5.4,7.4*76
$GNZDA,032353.00,22,05,2025,00,00*7C
$GNGBS,032353.00,3.8,5.4,7.4,,,,*52
$GNTXT,01,01,01,More than 100 frame errors, UART RX was disabled*70
b0L`cT
DA#L'[V.FC+?#
{4U`:R 
YUFGI++JfPpT+gU<@VMPb`cTY%8$GNRMC,032354.00,A,0419.90575,S,05539.60855,E,0.204,,220525,,,A*72
$GNVTG,,T,,M,0.204,N,0.377,K,A*38
$GNGNS,032354.00,0419.90575,S,05539.60855,E,AA,10,1.04,7.0,-47.6,,*5B
$GNGGA,032354.00,0419.90575,S,05539.60855,E,1,10,1.04,7.0,M,-47.6,M,,*71
$GNGSA,A,3,11,13,06,24,15,22,29,,,,,,1.78,1.04,1.45*1A
$GNGSA,A,3,85,73,86,,,,,,,,,,1.78,1.04,1.45*10
$GPGSV,5,1,18,05,31,181,15,06,29,031,20,11,65,031,24,12,06,332,*72
$GPGSV,5,2,18,13,39,194,25,14,14,091,,15,28,234,22,19,03,029,*77
$GPGSV,5,3,18,20,46,137,15,22,20,070,09,24,43,319,25,29,11,258,35*74
$GPGSV,5,4,18,30,14,143,,36,52,277,,40,85,352,,41,58,082,*7E
$GPGSV,5,5,18,49,32,274,,50,10,089,*78
$GLGSV,2,1,08,70,16,178,,71,14,224,19,73,43,043,23,74,18,358,*6E
$GLGSV,2,2,08,80,27,112,18,84,43,359,,85,60,264,25,86,14,216,26*69
$GNGLL,0419.90575,S,05539.60855,E,032354.00,A,A*6F
$GNGRS,032354.00,1,0.4,-1.1,0.7,4.2,-1.7,10.9,0.1,,,,,*47
$GNGRS,032354.00,1,-9.6,-10.0,0.0,,,,,,,,,*43
$GNGST,032354.00,3761771,,,,3.9,5.5,7.6*73
$GNZDA,032354.00,22,05,2025,00,00*7B
$GNGBS,032354.00,3.9,5.5,7.6,,,,*57
$GNTXT,01,01,01,More than 100 frame errors, UART RX was disabled*70
b0LHgT
AL'[.Gt=+?'{4U`:R 
YUFGI++UJfPpT+gU<V`bHgTY)\$GNRMC,032355.00,A,0419.90579,S,05539.60850,E,0.518,,220525,,,A*70
$GNVTG,,T,,M,0.518,N,0.959,K,A*34
$GNGNS,032355.00,0419.90579,S,05539.60850,E,AA,10,1.21,6.9,-47.6,,*5C
$GNGGA,032355.00,0419.90579,S,05539.60850,E,1,10,1.21,6.9,M,-47.6,M,,*76
$GNGSA,A,3,11,13,06,24,15,22,29,,,,,,2.04,1.21,1.64*16
$GNGSA,A,3,85,73,86,,,,,,,,,,2.04,1.21,1.64*1C
$GPGSV,5,1,18,05,31,181,17,06,29,031,19,11,65,031,24,12,06,332,*7A
$GPGSV,5,2,18,13,39,194,23,14,14,091,,15,28,234,30,19,03,029,*72
$GPGSV,5,3,18,20,46,137,16,22,20,071,09,24,43,319,25,29,11,258,39*7A
$GPGSV,5,4,18,30,14,143,,36,52,277,,40,85,352,,41,58,082,*7E
$GPGSV,5,5,18,49,32,274,,50,10,089,*78
$GLGSV,2,1,08,70,16,178,,71,14,224,22,73,43,043,22,74,18,358,*67
$GLGSV,2,2,08,80,27,112,16,84,43,359,,85,60,264,25,86,14,216,31*61
$GNGLL,0419.90579,S,05539.60850,E,032355.00,A,A*67
$GNGRS,032355.00,1,-3.1,-0.5,-0.1,5.1,-2.5,157,0.0,,,,,*64
$GNGRS,032355.00,1,-8.9,-9.4,-0.5,,,,,,,,,*58
$GNGST,032355.00,37,,,,4.0,5.6,7.8*47
$GNZDA,032355.00,22,05,2025,00,00*7A
$GNGBS,032355.00,4.0,5.6,7.8,,,,*55
$GNTXT,01,01,01,More than 100 frame errors, UART RX was disabled*70
b0L0kT
AL'u[!_.G8+?!+{4U`:R 
YUFGCI++JfPpT+gU<V/Jb0kTY-$GNRMC,032356.00,A,0419.90578,S,05539.60855,E,0.218,,220525,,,A*70
$GNVTG,,T,,M,0.218,N,0.403,K,A*31
$GNGNS,032356.00,0419.90578,S,05539.60855,E,AA,11,1.03,6.6,-47.6,,*55
$GNGGA,032356.00,0419.90578,S,05539.60855,E,1,11,1.03,6.6,M,-47.6,M,,*7F
$GNGSA,A,3,11,13,06,24,15,22,29,,,,,,1.74,1.03,1.40*14
$GNGSA,A,3,85,73,71,86,,,,,,,,,1.74,1.03,1.40*18
$GPGSV,5,1,18,05,31,181,16,06,29,031,18,11,65,031,21,12,06,332,*7F
$GPGSV,5,2,18,13,39,194,21,14,14,091,,15,28,234,33,19,03,029,*73
$GPGSV,5,3,18,20,46,137,15,22,20,071,08,24,43,319,22,29,11,258,33*75
$GPGSV,5,4,18,30,14,143,,36,52,277,,40,85,352,,41,58,082,*7E
$GPGSV,5,5,18,49,32,274,,50,10,089,*78
$GLGSV,2,1,08,70,16,178,,71,14,224,25,73,43,043,18,74,18,358,*69
$GLGSV,2,2,08,80,27,112,11,84,43,359,,85,60,264,23,86,14,216,27*67
$GNGLL,0419.90578,S,05539.60855,E,032356.00,A,A*60
$GNGRS,032356.00,1,-5.2,-1.4,2.3,3.9,3.5,10.8,0.4,,,,,*4D
$GNGRS,032356.00,1,-7.5,-11.2,-24.9,0.5,,,,,,,,*76
$GNGST,032356.00,462801,,,,4.1,5.7,8.0*4E
$GNZDA,032356.00,22,05,2025,00,00*79
$GNGBS,032356.00,4.1,5.7,8.0,,,,*51
$GNTXT,01,01,01,More than 100 frame errors, UART RX was disabled*70
b0LoT
2AL'[.G,?#3{4U`:R 
YUFGI++4JfPpOT+gU!<VJboTY1,$GNRMC,032357.00,A,0419.90572,S,05539.60858,E,0.310,,220525,,,A*7F
$GNVTG,,T,,M,0.310,N,0.574,K,A*39
$GNGNS,032357.00,0419.90572,S,05539.60858,E,AA,11,1.03,6.7,-47.6,,*52
$GNGGA,032357.00,0419.90572,S,05539.60858,E,1,11,1.03,6.7,M,-47.6,M,,*78
$GNGSA,A,3,11,13,06,24,15,22,29,,,,,,1.74,1.03,1.40*14
$GNGSA,A,3,85,73,71,86,,,,,,,,,1.74,1.03,1.40*18
$GPGSV,5,1,18,05,31,181,28,06,29,031,17,11,65,031,23,12,06,332,*7F
$GPGSV,5,2,18,13,39,194,29,14,14,091,,15,28,234,26,19,03,029,*7F
$GPGSV,5,3,18,20,46,137,25,22,20,071,09,24,44,319,21,29,11,258,35*75
$GPGSV,5,4,18,30,14,143,,36,52,277,,40,85,352,,41,58,082,*7E
$GPGSV,5,5,18,49,32,274,,50,10,089,*78
$GLGSV,2,1,08,70,16,178,,71,14,224,27,73,43,043,15,74,18,358,*66
$GLGSV,2,2,08,80,27,112,09,84,43,359,,85,60,264,33,86,14,216,26*6E
$GNGLL,0419.90572,S,05539.60858,E,032357.00,A,A*66
$GNGRS,032357.00,1,-0.1,-1.2,0.5,5.0,1.3,10.3,0.5,,,,,*49
$GNGRS,032357.00,1,0.1,-12.3,-15.3,0.7,,,,,,,,*51
$GNGST,032357.00,462801,,,,4.2,5.8,7.9*45
$GNZDA,032357.00,22,05,2025,00,00*78
$GNGBS,032357.00,4.2,5.8,7.9,,,,*5A
$GNTXT,01,01,01,More than 100 frame errors, UART RX was disabled*70
b0LsT
?AL '[.GL,?y$
{4U`:R 
YUFGI++JJfPpT+gU<IV0bsTY5$GNRMC,032358.00,A,0419.90566,S,05539.60850,E,0.229,,220525,,,A*76
$GNVTG,,T,,M,0.229,N,0.423,K,A*31
$GNGNS,032358.00,0419.90566,S,05539.60850,E,AA,11,1.20,6.7,-47.6,,*51
$GNGGA,032358.00,0419.90566,S,05539.60850,E,1,11,1.20,6.7,M,-47.6,M,,*7B
$GNGSA,A,3,11,13,06,24,15,22,29,,,,,,1.98,1.20,1.58*1E
$GNGSA,A,3,85,73,71,86,,,,,,,,,1.98,1.20,1.58*12
$GPGSV,5,1,18,05,31,181,19,06,29,031,21,11,65,031,26,12,06,332,*7D
$GPGSV,5,2,18,13,39,194,32,14,14,091,,15,28,234,31,19,03,029,*73
$GPGSV,5,3,18,20,46,137,19,22,20,071,12,24,44,319,21,29,11,258,36*73
$GPGSV,5,4,18,30,14,143,,36,52,277,,40,85,352,,41,58,082,*7E
$GPGSV,5,5,18,49,32,274,,50,10,089,*78
$GLGSV,2,1,08,70,16,178,,71,14,224,26,73,43,043,17,74,18,358,*65
$GLGSV,2,2,08,80,27,112,08,84,43,359,,85,60,264,20,86,14,216,23*68
$GNGLL,0419.90566,S,05539.60850,E,032358.00,A,A*64
$GNGRS,032358.00,1,-3.8,-3.0,0.6,3.8,-0.3,-58.1,-2.5,,,,,*61
$GNGRS,032358.00,1,0.7,-12.1,-13.7,-4.6,,,,,,,,*70
$GNGST,032358.00,39,,,,4.3,5.8,8.1*4F
$GNZDA,032358.00,22,05,2025,00,00*77
$GNGBS,032358.00,4.3,5.8,8.1,,,,*53
$GNTXT,01,01,01,More than 100 frame errors, UART RX was disabled*70
b0LvT
AL'[.GQ,?"H{4U`:R 
YUFGnI++>JfPpT+gU<VevbvTYp9o$GNRMC,032359.00,A,0419.90555,S,05539.60861,E,0.485,,220525,,,A*75
$GNVTG,,T,,M,0.485,N,0.899,K,A*3C
$GNGNS,032359.00,0419.90555,S,05539.60861,E,AA,11,1.03,6.3,-47.6,,*57
$GNGGA,032359.00,0419.90555,S,05539.60861,E,1,11,1.03,6.3,M,-47.6,M,,*7D
$GNGSA,A,3,11,13,06,24,15,22,29,,,,,,1.74,1.03,1.40*14
$GNGSA,A,3,85,73,71,86,,,,,,,,,1.74,1.03,1.40*18
$GPGSV,5,1,18,05,31,181,18,06,29,031,22,11,65,031,27,12,06,332,*7E
$GPGSV,5,2,18,13,39,194,27,14,14,091,,15,28,234,29,19,03,029,*7E
$GPGSV,5,3,18,20,46,137,20,22,20,071,13,24,44,319,23,29,11,258,34*78
$GPGSV,5,4,18,30,14,143,,36,52,277,,40,85,352,,41,58,082,*7E
$GPGSV,5,5,18,49,32,274,,50,10,089,*78
$GLGSV,2,1,08,70,16,178,,71,14,224,22,73,43,043,18,74,18,358,*6E
$GLGSV,2,2,08,80,27,112,08,84,43,359,,85,60,264,22,86,14,216,21*68
$GNGLL,0419.90555,S,05539.60861,E,032359.00,A,A*67
$GNGRS,032359.00,1,-0.2,2.3,-0.8,4.1,-1.2,11.0,3.3,,,,,*60
$GNGRS,032359.00,1,-6.4,-12.2,-14.3,-13.5,,,,,,,,*6C
$GNGST,032359.00,3587847,,,,4.3,5.9,8.3*75
$GNZDA,032359.00,22,05,2025,00,00*76
$GNGBS,032359.00,4.3,5.9,8.3,,,,*51
$GNTXT,01,01,01,More than 100 frame errors, UART RX was disabled*70
b0LzT
7AL'A[l.G*,?N${4U`:R 
YUFGI++JfPp|T+gU<VVbzTYX=GU$GNRMC,032400.00,A,0419.90544,S,05539.60873,E,0.251,,220525,,,A*72
$GNVTG,,T,,M,0.251,N,0.465,K,A*3C
$GNGNS,032400.00,0419.90544,S,05539.60873,E,AA,11,1.03,5.9,-47.6,,*56
$GNGGA,032400.00,0419.90544,S,05539.60873,E,1,11,1.03,5.9,M,-47.6,M,,*7C
$GNGSA,A,3,11,13,06,24,15,22,29,,,,,,1.74,1.03,1.40*14
$GNGSA,A,3,85,73,71,86,,,,,,,,,1.74,1.03,1.40*18
$GPGSV,5,1,18,05,31,181,17,06,29,031,22,11,65,031,27,12,06,332,*71
$GPGSV,5,2,18,13,39,194,26,14,14,091,,15,28,234,28,19,03,029,*7E
$GPGSV,5,3,18,20,46,137,22,22,20,071,15,24,44,319,24,29,11,258,36*79
$GPGSV,5,4,18,30,14,143,,36,52,277,,40,85,352,,41,58,082,*7E
$GPGSV,5,5,18,49,32,274,,50,10,089,*78
$GLGSV,2,1,08,70,16,178,,71,14,224,19,73,43,043,18,74,18,358,*66
$GLGSV,2,2,08,80,27,112,08,84,43,359,,85,60,264,23,86,14,216,22*6A
$GNGLL,0419.90544,S,05539.60873,E,032400.00,A,A*6F
$GNGRS,032400.00,1,-0.7,5.8,0.5,5.9,-6.6,10.7,-0.2,,,,,*61
$GNGRS,032400.00,1,-7.7,-12.5,-13.8,-11.9,,,,,,,,*60
$GNGST,032400.00,3587847,,,,4.4,6.0,8.5*75
$GNZDA,032400.00,22,05,2025,00,00*7D
$GNGBS,032400.00,4.4,6.0,8.5,,,,*51
$GNTXT,01,01,01,More than 100 frame errors, UART RX was disabled*70
b0L~T
AL't[".
G,?#{4U`:R 
YUFG.I++JfPpT+gU<[V=sb~TY@A$GNRMC,032401.00,A,0419.90531,S,05539.60865,E,0.344,,220525,,,A*73
$GNVTG,,T,,M,0.344,N,0.638,K,A*33
$GNGNS,032401.00,0419.90531,S,05539.60865,E,AA,11,1.03,5.9,-47.6,,*52
$GNGGA,032401.00,0419.90531,S,05539.60865,E,1,11,1.03,5.9,M,-47.6,M,,*78
$GNGSA,A,3,11,13,06,24,15,22,29,,,,,,1.74,1.03,1.40*14
$GNGSA,A,3,85,73,71,86,,,,,,,,,1.74,1.03,1.40*18
$GPGSV,5,1,18,05,31,181,17,06,29,031,21,11,65,031,26,12,06,332,*73
$GPGSV,5,2,18,13,39,194,25,14,14,091,,15,28,234,34,19,03,029,*70
$GPGSV,5,3,18,20,46,137,24,22,20,071,10,24,44,319,26,29,11,258,35*7B
$GPGSV,5,4,18,30,14,143,,36,52,277,,40,85,352,,41,58,082,*7E
$GPGSV,5,5,18,49,32,274,,50,10,089,*78
$GLGSV,2,1,08,70,16,178,,71,14,224,19,73,43,043,16,74,18,358,*68
$GLGSV,2,2,08,80,27,112,07,84,43,359,,85,60,264,23,86,14,216,22*65
$GNGLL,0419.90531,S,05539.60865,E,032401.00,A,A*6B
$GNGRS,032401.00,1,-1.0,3.7,2.6,4.7,-2.2,-16.1,2.0,,,,,*61
$GNGRS,032401.00,1,-9.3,-13.2,-14.9,-11.2,,,,,,,,*60
$GNGST,032401.00,54,,,,4.4,6.1,8.7*44
$GNZDA,032401.00,22,05,2025,00,00*7C
$GNGBS,032401.00,4.4,6.1,8.7,,,,*53
$GNTXT,01,01,01,More than 100 frame errors, UART RX was disabled*70
b0LT
EAL'[c.
GW,?"{4U`:R 
YUFGI++JfPp<T+gU<V1bTY(E%$GNRMC,032402.00,A,0419.90526,S,05539.60870,E,0.237,,220525,,,A*77
$GNVTG,,T,,M,0.237,N,0.440,K,A*3B
$GNGNS,032402.00,0419.90526,S,05539.60870,E,AA,11,1.03,5.8,-47.6,,*52
$GNGGA,032402.00,0419.90526,S,05539.60870,E,1,11,1.03,5.8,M,-47.6,M,,*78
$GNGSA,A,3,11,13,06,24,15,22,29,,,,,,1.74,1.03,1.40*14
$GNGSA,A,3,85,73,71,86,,,,,,,,,1.74,1.03,1.40*18
$GPGSV,5,1,18,05,31,181,18,06,29,031,22,11,65,031,26,12,06,332,*7F
$GPGSV,5,2,18,13,39,194,23,14,14,091,,15,28,234,30,19,03,029,*72
$GPGSV,5,3,18,20,46,137,26,22,20,071,10,24,44,319,27,29,11,258,34*79
$GPGSV,5,4,18,30,14,143,,36,52,277,,40,85,352,,41,58,082,*7E
$GPGSV,5,5,18,49,32,274,,50,10,089,*78
$GLGSV,2,1,08,70,16,178,,71,14,224,19,73,43,043,18,74,18,358,*66
$GLGSV,2,2,08,80,27,112,07,84,43,359,,85,60,264,24,86,14,216,22*62
$GNGLL,0419.90526,S,05539.60870,E,032402.00,A,A*6A
$GNGRS,032402.00,1,0.1,2.3,3.2,5.3,-4.1,11.1,0.0,,,,,*67
$GNGRS,032402.00,1,-8.5,-12.6,-16.4,-9.8,,,,,,,,*5D
$GNGST,032402.00,3586708,,,,4.5,6.2,8.9*7D
$GNZDA,032402.00,22,05,2025,00,00*7F
$GNGBS,032402.00,4.5,6.2,8.9,,,,*5C
$GNTXT,01,01,01,More than 100 frame errors, UART RX was disabled*70
b0LT
1AGL'[ 2.
G;,?"{4U`:R 
YUFGI++JfPpT+gU<VWbTYI$GNRMC,032403.00,A,0419.90526,S,05539.60879,E,0.257,,220525,,,A*79
$GNVTG,,T,,M,0.257,N,0.476,K,A*38
$GNGNS,032403.00,0419.90526,S,05539.60879,E,AA,11,1.03,5.6,-47.6,,*54
$GNGGA,032403.00,0419.90526,S,05539.60879,E,1,11,1.03,5.6,M,-47.6,M,,*7E
$GNGSA,A,3,11,13,06,24,15,22,29,,,,,,1.74,1.03,1.40*14
$GNGSA,A,3,85,73,71,86,,,,,,,,,1.74,1.03,1.40*18
$GPGSV,5,1,18,05,31,181,19,06,29,031,21,11,65,031,26,12,06,332,*7D
$GPGSV,5,2,18,13,39,194,22,14,14,091,,15,28,234,32,19,03,029,*71
$GPGSV,5,3,18,20,46,137,25,22,20,071,10,24,44,319,27,29,11,258,34*7A
$GPGSV,5,4,18,30,14,143,19,36,52,277,,40,85,352,,41,58,082,*76
$GPGSV,5,5,18,49,32,274,,50,10,089,*78
$GLGSV,2,1,08,70,16,178,,71,14,224,18,73,43,043,18,74,18,358,*67
$GLGSV,2,2,08,80,27,112,07,84,43,359,,85,60,264,24,86,14,216,21*61
$GNGLL,0419.90526,S,05539.60879,E,032403.00,A,A*62
$GNGRS,032403.00,1,-1.9,4.4,3.0,4.2,0.5,10.8,-0.8,,,,,*41
$GNGRS,032403.00,1,-6.2,-13.2,-15.9,-7.8,,,,,,,,*50
$GNGST,032403.00,3586708,,,,4.5,6.3,9.0*75
$GNZDA,032403.00,22,05,2025,00,00*7E
$GNGBS,032403.00,4.5,6.3,9.0,,,,*54
$GNTXT,01,01,01,More than 100 frame errors, UART RX was disabled*70
b0LpT
ArL'[ #.
G,?{4U`:R 
YUFGLI++IJfPpT+gU<cVTbpTYL$GNRMC,032404.00,A,0419.90521,S,05539.60880,E,0.233,,220525,,,A*7D
$GNVTG,,T,,M,0.233,N,0.431,K,A*39
$GNGNS,032404.00,0419.90521,S,05539.60880,E,AA,10,1.20,5.4,-47.6,,*50
$GNGGA,032404.00,0419.90521,S,05539.60880,E,1,10,1.20,5.4,M,-47.6,M,,*7A
$GNGSA,A,3,11,13,06,24,15,29,,,,,,,1.98,1.20,1.58*1E
$GNGSA,A,3,85,73,71,86,,,,,,,,,1.98,1.20,1.58*12
$GPGSV,5,1,18,05,31,181,22,06,29,031,21,11,65,031,27,12,06,332,*74
$GPGSV,5,2,18,13,39,194,25,14,14,091,,15,28,234,32,19,03,029,*76
$GPGSV,5,3,18,20,46,137,23,22,20,071,10,24,44,319,28,29,11,258,31*76
$GPGSV,5,4,18,30,14,143,18,36,52,277,,40,85,352,,41,58,082,*77
$GPGSV,5,5,18,49,32,274,,50,10,089,*78
$GLGSV,2,1,08,70,16,178,,71,14,224,15,73,43,043,16,74,18,358,*64
$GLGSV,2,2,08,80,27,112,08,84,43,359,,85,60,264,23,86,14,216,20*68
$GNGLL,0419.90521,S,05539.60880,E,032404.00,A,A*64
$GNGRS,032404.00,1,-1.4,4.5,2.8,4.0,2.9,-0.5,,,,,,*55
$GNGRS,032404.00,1,-6.7,-12.1,-14.6,-7.6,,,,,,,,*50
$GNGST,032404.00,43,,,,4.5,6.4,9.2*47
$GNZDA,032404.00,22,05,2025,00,00*79
$GNGBS,032404.00,4.5,6.4,9.2,,,,*56
$GNTXT,01,01,01,More than 100 frame errors, UART RX was disabled*70
b0LXT
AL'[.
G,?2_{4U`:R 
YUFGI++>JfPpT+gU<-Vm bXTYP~Z$GNRMC,032405.00,A,0419.90517,S,05539.60874,E,0.185,,220525,,,A*7C
$GNVTG,,T,,M,0.185,N,0.342,K,A*34
$GNGNS,032405.00,0419.90517,S,05539.60874,E,AA,10,1.20,5.2,-47.6,,*59
$GNGGA,032405.00,0419.90517,S,05539.60874,E,1,10,1.20,5.2,M,-47.6,M,,*73
$GNGSA,A,3,11,13,06,24,15,29,,,,,,,1.98,1.20,1.58*1E
$GNGSA,A,3,85,73,71,86,,,,,,,,,1.98,1.20,1.58*12
$GPGSV,5,1,18,05,31,181,22,06,29,031,21,11,65,031,27,12,06,332,*74
$GPGSV,5,2,18,13,39,194,27,14,14,091,,15,28,234,25,19,03,029,*72
$GPGSV,5,3,18,20,46,137,23,22,20,071,10,24,44,319,29,29,11,258,30*76
$GPGSV,5,4,18,30,14,143,17,36,52,277,,40,85,352,,41,58,082,*78
$GPGSV,5,5,18,49,32,274,,50,10,089,*78
$GLGSV,2,1,08,70,16,178,,71,14,224,16,73,43,043,17,74,18,358,*66
$GLGSV,2,2,08,80,27,112,,84,43,359,,85,60,264,24,86,14,216,20*67
$GNGLL,0419.90517,S,05539.60874,E,032405.00,A,A*6B
$GNGRS,032405.00,1,-2.9,2.2,2.2,0.5,4.3,-1.6,,,,,,*5E
$GNGRS,032405.00,1,-7.2,-14.7,-13.8,-7.5,,,,,,,,*5F
$GNGST,032405.00,41,,,,4.5,6.5,9.4*43
$GNZDA,032405.00,22,05,2025,00,00*78
$GNGBS,032405.00,4.5,6.5,9.4,,,,*50
$GNTXT,01,01,01,More than 100 frame errors, UART RX was disabled*70
b0L@T
AL'[$>.
G,?$q{4U`:R 
YUFG}I++JfPpT+gU#<Ve)b@TYTV$GNRMC,032406.00,A,0419.90511,S,05539.60872,E,0.312,,220525,,,A*73
$GNVTG,,T,,M,0.312,N,0.578,K,A*37
$GNGNS,032406.00,0419.90511,S,05539.60872,E,AA,10,1.20,5.2,-47.6,,*5A
$GNGGA,032406.00,0419.90511,S,05539.60872,E,1,10,1.20,5.2,M,-47.6,M,,*70
$GNGSA,A,3,11,13,06,24,15,29,,,,,,,1.98,1.20,1.58*1E
$GNGSA,A,3,85,73,71,86,,,,,,,,,1.98,1.20,1.58*12
$GPGSV,5,1,18,05,31,181,21,06,29,031,20,11,65,031,26,12,06,332,*77
$GPGSV,5,2,18,13,39,194,26,14,14,091,,15,28,234,36,19,03,029,*71
$GPGSV,5,3,18,20,46,137,20,22,20,071,10,24,44,319,18,29,11,258,36*71
$GPGSV,5,4,18,30,14,143,15,36,52,277,,40,85,352,,41,58,082,*7A
$GPGSV,5,5,18,49,32,274,,50,10,089,*78
$GLGSV,2,1,08,70,16,178,,71,14,224,28,73,43,043,16,74,18,358,*6A
$GLGSV,2,2,08,80,27,112,,84,43,359,,85,60,264,35,86,14,216,30*66
$GNGLL,0419.90511,S,05539.60872,E,032406.00,A,A*68
$GNGRS,032406.00,1,-3.7,1.9,1.9,-0.8,0.6,-1.4,,,,,,*71
$GNGRS,032406.00,1,-2.5,-15.4,-14.1,-6.7,,,,,,,,*51
$GNGST,032406.00,38,,,,4.5,6.4,9.1*4A
$GNZDA,032406.00,22,05,2025,00,00*7B
$GNGBS,032406.00,4.5,6.4,9.1,,,,*57
$GNTXT,01,01,01,More than 100 frame errors, UART RX was disabled*70
b0L(T
AL'[.
G,?`n{4U`:R 
YUFGI++JfPpT+gU$<Vb(TYX.*$GNRMC,032407.00,A,0419.90508,S,05539.60860,E,0.449,,220525,,,A*70
$GNVTG,,T,,M,0.449,N,0.832,K,A*3D
$GNGNS,032407.00,0419.90508,S,05539.60860,E,AA,11,1.20,5.5,-47.6,,*56
$GNGGA,032407.00,0419.90508,S,05539.60860,E,1,11,1.20,5.5,M,-47.6,M,,*7C
$GNGSA,A,3,11,13,06,24,15,22,29,,,,,,1.98,1.20,1.58*1E
$GNGSA,A,3,85,73,71,86,,,,,,,,,1.98,1.20,1.58*12
$GPGSV,5,1,18,05,31,181,22,06,29,031,18,11,65,031,23,12,06,332,*7A
$GPGSV,5,2,18,13,39,194,26,14,14,091,,15,28,234,29,19,03,029,*7F
$GPGSV,5,3,18,20,46,137,18,22,20,071,10,24,44,319,22,29,11,258,20*74
$GPGSV,5,4,18,30,14,143,12,36,52,277,,40,85,352,,41,58,082,*7D
$GPGSV,5,5,18,49,32,274,,50,10,089,*78
$GLGSV,2,1,08,70,16,178,,71,14,224,21,73,43,043,17,74,18,358,*62
$GLGSV,2,2,08,80,27,112,,84,43,359,,85,60,264,36,86,14,216,28*6C
$GNGLL,0419.90508,S,05539.60860,E,032407.00,A,A*62
$GNGRS,032407.00,1,-5.1,2.7,2.3,-1.6,1.9,-49.7,1.1,,,,,*64
$GNGRS,032407.00,1,2.2,-13.7,-13.9,-5.6,,,,,,,,*72
$GNGST,032407.00,43,,,,4.5,6.3,8.9*49
$GNZDA,032407.00,22,05,2025,00,00*7A
$GNGBS,032407.00,4.5,6.3,8.9,,,,*58
$GNTXT,01,01,01,More than 100 frame errors, UART RX was disabled*70
b0LT
AL'[6.
Gj,?S{4U`:R 
YUFGVI++JfPpT+gU<VbTY\$GNRMC,032408.00,A,0419.90515,S,05539.60870,E,0.718,,220525,,,A*75
$GNVTG,,T,,M,0.718,N,1.329,K,A*3A
$GNGNS,032408.00,0419.90515,S,05539.60870,E,AA,11,1.03,5.5,-47.6,,*55
$GNGGA,032408.00,0419.90515,S,05539.60870,E,1,11,1.03,5.5,M,-47.6,M,,*7F
$GNGSA,A,3,11,13,06,24,15,22,29,,,,,,1.74,1.03,1.40*14
$GNGSA,A,3,85,73,71,86,,,,,,,,,1.74,1.03,1.40*18
$GPGSV,5,1,18,05,31,181,19,06,29,031,19,11,65,031,21,12,06,332,*71
$GPGSV,5,2,18,13,39,194,23,14,14,091,,15,28,234,18,19,03,029,*78
$GPGSV,5,3,18,20,46,137,15,22,20,071,10,24,44,319,22,29,11,258,27*7E
$GPGSV,5,4,18,30,14,143,09,36,52,277,,40,85,352,,41,58,082,*77
$GPGSV,5,5,18,49,32,274,,50,10,089,*78
$GLGSV,2,1,08,70,16,178,,71,14,224,21,73,43,043,16,74,18,358,*63
$GLGSV,2,2,08,80,27,112,,84,43,359,,85,60,264,29,86,14,216,26*6C
$GNGLL,0419.90515,S,05539.60870,E,032408.00,A,A*60
$GNGRS,032408.00,1,-5.7,2.5,2.5,-1.7,-2.0,11.3,2.3,,,,,*6A
$GNGRS,032408.00,1,-1.1,-15.4,-14.5,-5.0,,,,,,,,*58
$GNGST,032408.00,3586708,,,,4.6,6.5,9.1*7A
$GNZDA,032408.00,22,05,2025,00,00*75
$GNGBS,032408.00,4.6,6.5,9.1,,,,*5B
$GNTXT,01,01,01,More than 100 frame errors, UART RX was disabled*70
b0LT
ANL'[.
G@,?#l{4U`:R 
YUFGI++JfPpT+gU<VbTY`$GNRMC,032409.00,A,0419.90497,S,05539.60879,E,0.592,,220525,,,A*76
$GNVTG,,T,,M,0.592,N,1.097,K,A*3C
$GNGNS,032409.00,0419.90497,S,05539.60879,E,AA,11,1.03,5.0,-47.6,,*53
$GNGGA,032409.00,0419.90497,S,05539.60879,E,1,11,1.03,5.0,M,-47.6,M,,*79
$GNGSA,A,3,11,13,06,24,15,22,29,,,,,,1.74,1.03,1.40*14
$GNGSA,A,3,85,73,71,86,,,,,,,,,1.74,1.03,1.40*18
$GPGSV,5,1,18,05,31,181,17,06,29,031,19,11,65,031,20,12,06,332,*7E
$GPGSV,5,2,18,13,39,194,21,14,14,091,,15,28,234,20,19,03,029,*71
$GPGSV,5,3,18,20,46,137,13,22,20,071,10,24,44,319,21,29,11,258,35*78
$GPGSV,5,4,18,30,14,143,08,36,52,277,,40,85,352,,41,58,082,*76
$GPGSV,5,5,18,49,32,274,,50,10,089,*78
$GLGSV,2,1,08,70,16,178,,71,14,224,21,73,43,043,14,74,18,358,*61
$GLGSV,2,2,08,80,27,112,,84,43,359,,85,60,264,28,86,14,216,23*68
$GNGLL,0419.90497,S,05539.60879,E,032409.00,A,A*63
$GNGRS,032409.00,1,-4.3,1.8,1.3,0.0,-4.9,10.9,-1.5,,,,,*62
$GNGRS,032409.00,1,-5.1,-15.6,-14.0,-3.6,,,,,,,,*5A
$GNGST,032409.00,3586708,,,,4.9,6.6,9.2*74
$GNZDA,032409.00,22,05,2025,00,00*74
$GNGBS,032409.00,4.9,6.6,9.2,,,,*55
$GNTXT,01,01,01,More than 100 frame errors, UART RX was disabled*70
b0LT
A~L'[.
G,?"{4U`:R 
YUFG]I++JfPpT+gU"<dV"7bTYhdS$GNRMC,032410.00,A,0419.90477,S,05539.60875,E,0.439,,220525,,,A*7C
$GNVTG,,T,,M,0.439,N,0.812,K,A*38
$GNGNS,032410.00,0419.90477,S,05539.60875,E,AA,10,1.20,5.0,-47.6,,*59
$GNGGA,032410.00,0419.90477,S,05539.60875,E,1,10,1.20,5.0,M,-47.6,M,,*73
$GNGSA,A,3,11,13,06,24,15,29,,,,,,,1.98,1.20,1.58*1E
$GNGSA,A,3,85,73,71,86,,,,,,,,,1.98,1.20,1.58*12
$GPGSV,5,1,18,05,31,181,16,06,29,031,19,11,65,031,25,12,06,332,19*72
$GPGSV,5,2,18,13,39,194,20,14,14,091,,15,28,234,29,19,03,029,*79
$GPGSV,5,3,18,20,46,137,16,22,20,071,10,24,44,319,21,29,11,258,34*7C
$GPGSV,5,4,18,30,14,143,08,36,52,277,,40,85,352,,41,58,082,*76
$GPGSV,5,5,18,49,32,274,,50,10,089,*78
$GLGSV,2,1,08,70,16,178,,71,14,224,31,73,43,043,19,74,18,358,*6D
$GLGSV,2,2,08,80,27,112,,84,43,359,,85,60,264,34,86,14,216,34*63
$GNGLL,0419.90477,S,05539.60875,E,032410.00,A,A*69
$GNGRS,032410.00,1,-1.3,1.4,2.1,1.3,-3.2,-0.5,,,,,,*7B
$GNGRS,032410.00,1,-4.1,-16.0,-14.4,-1.3,,,,,,,,*55
$GNGST,032410.00,36,,,,5.0,6.6,9.1*45
$GNZDA,032410.00,22,05,2025,00,00*7C
$GNGBS,032410.00,5.0,6.6,9.1,,,,*56
$GNTXT,01,01,01,More than 100 frame errors, UART RX was disabled*70
b0LT
AL'[f.
G\,?{4U`:R 
YUFGI++JfPpT+gU!<VbTYPh$GNRMC,032411.00,A,0419.90464,S,05539.60877,E,0.350,,220525,,,A*75
$GNVTG,,T,,M,0.350,N,0.648,K,A*31
$GNGNS,032411.00,0419.90464,S,05539.60877,E,AA,10,1.20,4.6,-47.6,,*5F
$GNGGA,032411.00,0419.90464,S,05539.60877,E,1,10,1.20,4.6,M,-47.6,M,,*75
$GNGSA,A,3,11,13,06,24,15,29,,,,,,,1.98,1.20,1.58*1E
$GNGSA,A,3,85,73,71,86,,,,,,,,,1.98,1.20,1.58*12
$GPGSV,5,1,18,05,31,181,17,06,29,031,18,11,65,031,22,12,06,332,16*7A
$GPGSV,5,2,18,13,39,194,19,14,14,091,,15,28,234,30,19,03,029,*7B
$GPGSV,5,3,18,20,46,137,15,22,20,071,10,24,44,319,19,29,11,258,25*74
$GPGSV,5,4,18,30,14,143,07,36,52,277,,40,85,352,,41,58,082,*79
$GPGSV,5,5,18,49,32,274,,50,10,089,*78
$GLGSV,2,1,08,70,16,178,,71,14,224,22,73,43,043,11,74,18,358,*67
$GLGSV,2,2,08,80,27,112,,84,43,359,,85,60,264,33,86,14,216,25*64
$GNGLL,0419.90464,S,05539.60877,E,032411.00,A,A*68
$GNGRS,032411.00,1,-0.1,2.3,2.5,1.4,-1.5,2.0,,,,,,*51
$GNGRS,032411.00,1,-3.5,-16.1,-12.6,-0.6,,,,,,,,*56
$GNGST,032411.00,94803,,,,5.1,6.7,9.1*77
$GNZDA,032411.00,22,05,2025,00,00*7D
$GNGBS,032411.00,5.1,6.7,9.1,,,,*57
$GNTXT,01,01,01,More than 100 frame errors, UART RX was disabled*70
b0LT
QAmL'[ .
GP!,?#{4U`:R 
YUFGI++JfPpT+gU"<V8$bTY8le#$GNRMC,032412.00,A,0419.90463,S,05539.60880,E,0.342,,220525,,,A*7A
$GNVTG,,T,,M,0.342,N,0.633,K,A*3E
$GNGNS,032412.00,0419.90463,S,05539.60880,E,AA,10,1.20,4.7,-47.6,,*52
$GNGGA,032412.00,0419.90463,S,05539.60880,E,1,10,1.20,4.7,M,-47.6,M,,*78
$GNGSA,A,3,11,13,06,24,15,29,,,,,,,1.98,1.20,1.58*1E
$GNGSA,A,3,85,73,71,86,,,,,,,,,1.98,1.20,1.58*12
$GPGSV,5,1,18,05,31,181,17,06,29,031,18,11,65,031,22,12,06,332,13*7F
$GPGSV,5,2,18,13,39,194,29,14,14,091,,15,28,234,32,19,03,029,*7A
$GPGSV,5,3,18,20,46,137,18,22,20,071,10,24,44,319,33,29,11,258,35*70
$GPGSV,5,4,18,30,14,143,08,36,52,277,,40,85,352,,41,58,082,*76
$GPGSV,5,5,18,49,32,274,,50,10,089,*78
$GLGSV,2,1,08,70,16,178,,71,14,224,20,73,43,043,09,74,18,358,*6C
$GLGSV,2,2,08,80,27,112,,84,43,359,,85,60,264,34,86,14,216,24*62
$GNGLL,0419.90463,S,05539.60880,E,032412.00,A,A*64
$GNGRS,032412.00,1,-1.5,-0.3,3.4,2.9,2.6,0.2,,,,,,*5B
$GNGRS,032412.00,1,1.7,-16.1,-6.4,-3.1,,,,,,,,*4B
$GNGST,032412.00,94803,,,,5.0,6.8,9.0*7B
$GNZDA,032412.00,22,05,2025,00,00*7E
$GNGBS,032412.00,5.0,6.8,9.0,,,,*5B
$GNTXT,01,01,01,More than 100 frame errors, UART RX was disabled*70
b0LT
AL'[ .
G ,?#*{4U`:R 
YUFG6I++dJfPpT+gU"<zVcbTY p=$GNRMC,032413.00,A,0419.90465,S,05539.60868,E,0.163,,220525,,,A*7A
$GNVTG,,T,,M,0.163,N,0.303,K,A*39
$GNGNS,032413.00,0419.90465,S,05539.60868,E,AA,10,1.20,4.8,-47.6,,*5C
$GNGGA,032413.00,0419.90465,S,05539.60868,E,1,10,1.20,4.8,M,-47.6,M,,*76
$GNGSA,A,3,11,13,06,24,15,29,,,,,,,1.98,1.20,1.58*1E
$GNGSA,A,3,85,73,71,86,,,,,,,,,1.98,1.20,1.58*12
$GPGSV,5,1,18,05,31,181,16,06,29,031,19,11,65,031,22,12,06,332,12*7E
$GPGSV,5,2,18,13,39,194,29,14,14,091,,15,28,234,32,19,03,029,*7A
$GPGSV,5,3,18,20,46,137,20,22,20,071,10,24,44,319,32,29,11,258,35*7A
$GPGSV,5,4,18,30,14,143,08,36,52,277,,40,85,352,,41,58,082,*76
$GPGSV,5,5,18,49,32,274,,50,10,089,*78
$GLGSV,2,1,08,70,16,178,,71,14,224,18,73,43,043,11,74,18,358,*6E
$GLGSV,2,2,08,80,27,112,,84,43,359,,85,60,264,34,86,14,216,20*66
$GNGLL,0419.90465,S,05539.60868,E,032413.00,A,A*65
$GNGRS,032413.00,1,1.7,-2.8,2.1,-2.3,0.0,0.4,,,,,,*5D
$GNGRS,032413.00,1,-1.3,-11.8,-9.7,-10.7,,,,,,,,*55
$GNGST,032413.00,45,,,,5.0,6.8,8.9*45
$GNZDA,032413.00,22,05,2025,00,00*7F
$GNGBS,032413.00,5.0,6.8,8.9,,,,*52
$GNTXT,01,01,01,More than 100 frame errors, UART RX was disabled*70
b0LT
AL'[!.G,?&{ 4U`:R 
YUFGI++dJfPpT+gU"<VXbTYt$GNRMC,032414.00,A,0419.90479,S,05539.60848,E,0.116,,220525,,,A*70
$GNVTG,,T,,M,0.116,N,0.214,K,A*3C
$GNGNS,032414.00,0419.90479,S,05539.60848,E,AA,10,1.20,5.5,-47.6,,*58
$GNGGA,032414.00,0419.90479,S,05539.60848,E,1,10,1.20,5.5,M,-47.6,M,,*72
$GNGSA,A,3,11,13,06,24,15,29,,,,,,,1.98,1.20,1.58*1E
$GNGSA,A,3,85,73,71,86,,,,,,,,,1.98,1.20,1.58*12
$GPGSV,5,1,18,05,31,181,15,06,29,031,19,11,65,031,24,12,06,332,11*78
$GPGSV,5,2,18,13,39,194,28,14,14,091,,15,28,234,33,19,03,029,*7A
$GPGSV,5,3,18,20,46,137,19,22,20,071,12,24,44,319,31,29,11,258,38*7C
$GPGSV,5,4,18,30,14,143,,36,52,277,32,40,85,352,,41,58,082,*7F
$GPGSV,5,5,18,49,32,274,,50,10,089,*78
$GLGSV,2,1,08,70,16,178,,71,14,224,18,73,43,043,12,74,18,358,*6D
$GLGSV,2,2,08,80,27,112,,84,43,359,,85,60,264,34,86,14,216,16*63
$GNGLL,0419.90479,S,05539.60848,E,032414.00,A,A*6D
$GNGRS,032414.00,1,1.8,-3.1,2.9,-2.7,4.3,-1.0,,,,,,*7E
$GNGRS,032414.00,1,1.9,-6.7,-7.8,-8.8,,,,,,,,*7B
$GNGST,032414.00,45505,,,,4.9,6.8,8.9*7A
$GNZDA,032414.00,22,05,2025,00,00*78
$GNGBS,032414.00,4.9,6.8,8.9,,,,*5D
$GNTXT,01,01,01,More than 100 frame errors, UART RX was disabled*70
b0LhT
A:L'2["0.G,?${4U`:R 
YUFGI++CJfPpT+gU$<VbhTYwX$GNRMC,032415.00,A,0419.90470,S,05539.60851,E,0.131,,220525,,,A*75
$GNVTG,,T,,M,0.131,N,0.242,K,A*3A
$GNGNS,032415.00,0419.90470,S,05539.60851,E,AA,10,1.20,5.4,-47.6,,*59
$GNGGA,032415.00,0419.90470,S,05539.60851,E,1,10,1.20,5.4,M,-47.6,M,,*73
$GNGSA,A,3,11,13,06,24,15,29,,,,,,,1.98,1.20,1.58*1E
$GNGSA,A,3,85,73,71,86,,,,,,,,,1.98,1.20,1.58*12
$GPGSV,5,1,18,05,31,181,14,06,29,031,19,11,65,031,25,12,06,332,13*7A
$GPGSV,5,2,18,13,39,194,27,14,14,091,,15,28,234,34,19,03,029,*72
$GPGSV,5,3,18,20,46,137,19,22,20,071,11,24,44,319,31,29,11,258,36*71
$GPGSV,5,4,18,30,14,143,,36,52,277,31,40,85,352,,41,58,082,*7C
$GPGSV,5,5,18,49,32,274,,50,10,089,*78
$GLGSV,2,1,08,70,16,178,,71,14,224,19,73,43,043,12,74,18,358,*6C
$GLGSV,2,2,08,80,27,112,05,84,43,359,,85,60,264,36,86,14,216,15*67
$GNGLL,0419.90470,S,05539.60851,E,032415.00,A,A*6D
$GNGRS,032415.00,1,3.1,-4.6,3.9,-1.1,0.5,1.8,,,,,,*57
$GNGRS,032415.00,1,1.5,-7.0,-8.1,-11.3,,,,,,,,*45
$GNGST,032415.00,68258,,,,4.8,6.8,8.7*74
$GNZDA,032415.00,22,05,2025,00,00*79
$GNGBS,032415.00,4.8,6.8,8.7,,,,*53
$GNTXT,01,01,01,More than 100 frame errors, UART RX was disabled*70
b0LPT
ASL'[".GW,?k&V{ 4U`:R 
YUFGI++JfP
pT+gU%<iVbbPTY{$GNRMC,032416.00,A,0419.90459,S,05539.60845,E,0.067,,220525,,,A*7A
$GNVTG,,T,,M,0.067,N,0.124,K,A*3B
$GNGNS,032416.00,0419.90459,S,05539.60845,E,AA,11,1.28,5.5,-47.6,,*5C
$GNGGA,032416.00,0419.90459,S,05539.60845,E,1,11,1.28,5.5,M,-47.6,M,,*76
$GNGSA,A,3,11,13,06,24,15,22,29,,,,,,2.04,1.28,1.59*11
$GNGSA,A,3,85,73,71,86,,,,,,,,,2.04,1.28,1.59*1D
$GPGSV,5,1,18,05,31,181,13,06,29,031,20,11,65,031,25,12,06,332,14*70
$GPGSV,5,2,18,13,39,194,27,14,14,091,,15,28,234,34,19,03,029,*72
$GPGSV,5,3,18,20,46,137,20,22,20,071,08,24,44,319,30,29,11,258,38*7C
$GPGSV,5,4,18,30,14,143,,36,52,277,32,40,85,352,,41,58,082,*7F
$GPGSV,5,5,18,49,32,274,,50,10,089,*78
$GLGSV,2,1,08,70,16,178,,71,14,224,19,73,43,043,12,74,18,358,*6C
$GLGSV,2,2,08,80,27,112,10,84,43,359,,85,60,264,37,86,14,216,17*60
$GNGLL,0419.90459,S,05539.60845,E,032416.00,A,A*60
