b0L\"
=DO$
_?4@ !/K/;{!4V^:R 
YVFG I.0&JP uT&gU#<Vb\YW$GNRMC,033251.00,A,0419.88205,S,05539.59277,E,0.069,,220525,,,A*77
$GNVTG,,T,,M,0.069,N,0.128,K,A*39
$GNGNS,033251.00,0419.88205,S,05539.59277,E,AA,14,0.96,5.8,-47.6,,*53
$GNGGA,033251.00,0419.88205,S,05539.59277,E,1,12,0.96,5.8,M,-47.6,M,,*7F
$GNGSA,A,3,11,13,20,06,24,15,05,14,29,,,,2.05,0.96,1.81*13
$GNGSA,A,3,85,73,80,71,86,,,,,,,,2.05,0.96,1.81*15
$GPGSV,5,1,18,05,34,178,29,06,26,030,09,11,61,027,29,12,08,335,*7C
$GPGSV,5,2,18,13,36,190,25,14,14,095,10,15,28,230,31,19,02,032,*74
$GPGSV,5,3,18,20,47,131,33,22,21,075,,24,47,315,31,29,11,262,28*72
$GPGSV,5,4,18,30,11,144,,36,52,277,33,40,86,350,,41,58,082,*7D
$GPGSV,5,5,18,49,32,274,,50,10,089,*78
$GLGSV,2,1,08,70,15,174,24,71,13,220,32,73,46,048,27,74,21,000,*63
$GLGSV,2,2,08,80,26,117,32,84,38,359,,85,60,275,35,86,17,218,31*63
$GNGLL,0419.88205,S,05539.59277,E,033251.00,A,A*63
$GNGRS,033251.00,1,5.8,2.4,-0.9,-50.9,1.6,3.2,-1.0,134,-0.4,,,*5D
$GNGRS,033251.00,1,-1.0,0.4,1.6,-7.6,4.9,,,,,,,*76
$GNGST,033251.00,24,,,,3.3,2.1,6.2*4E
$GNZDA,033251.00,22,05,2025,00,00*7E
$GNGBS,033251.00,3.3,2.1,6.2,,,,*5E
$GNTXT,01,01,01,More than 100 frame errors, UART RX was disabled*70
b0L\"
=ZO$_!3 $/K"/;B{&4V^:R 
YVFG I.0JP!uT&gU%<V"#b\Yx[q$GNRMC,033252.00,A,0419.88204,S,05539.59276,E,0.043,,220525,,,A*7C
$GNVTG,,T,,M,0.043,N,0.079,K,A*34
$GNGNS,033252.00,0419.88204,S,05539.59276,E,AA,14,0.73,5.7,-47.6,,*54
$GNGGA,033252.00,0419.88204,S,05539.59276,E,1,12,0.73,5.7,M,-47.6,M,,*78
$GNGSA,A,3,11,13,20,06,24,15,05,14,29,,,,1.48,0.73,1.29*10
$GNGSA,A,3,85,73,80,71,86,,,,,,,,1.48,0.73,1.29*16
$GPGSV,5,1,18,05,34,178,28,06,26,030,11,11,61,027,29,12,08,335,*74
$GPGSV,5,2,18,13,36,190,24,14,14,095,11,15,28,230,33,19,02,032,*76
$GPGSV,5,3,18,20,47,131,36,22,21,075,,24,47,315,34,29,11,262,28*72
$GPGSV,5,4,18,30,11,144,,36,52,277,38,40,86,350,,41,58,082,*76
$GPGSV,5,5,18,49,32,274,,50,10,089,*78
$GLGSV,2,1,08,70,15,174,23,71,13,220,32,73,46,048,27,74,21,000,*64
$GLGSV,2,2,08,80,26,117,33,84,38,359,,85,60,275,37,86,17,218,34*65
$GNGLL,0419.88204,S,05539.59276,E,033252.00,A,A*60
$GNGRS,033252.00,1,3.5,-0.3,-0.7,9.2,0.7,3.1,-3.0,15.1,1.4,,,*69
$GNGRS,033252.00,1,-0.1,-8.2,1.6,-7.4,4.7,,,,,,,*5A
$GNGST,033252.00,4496177,,,,3.3,2.0,6.2*74
$GNZDA,033252.00,22,05,2025,00,00*7D
$GNGBS,033252.00,3.3,2.0,6.2,,,,*5C
$GNTXT,01,01,01,More than 100 frame errors, UART RX was disabled*70
b0L\"y
=O$_! %/K"/;i\{&4V^:R 
YVFG!6I.0AJP%uT&gU'<V%b\Y`_$GNRMC,033253.00,A,0419.88205,S,05539.59275,E,0.021,,220525,,,A*7B
$GNVTG,,T,,M,0.021,N,0.038,K,A*35
$GNGNS,033253.00,0419.88205,S,05539.59275,E,AA,14,0.73,5.6,-47.6,,*56
$GNGGA,033253.00,0419.88205,S,05539.59275,E,1,12,0.73,5.6,M,-47.6,M,,*7A
$GNGSA,A,3,11,13,20,06,24,15,05,14,29,,,,1.48,0.73,1.29*10
$GNGSA,A,3,85,73,80,71,86,,,,,,,,1.48,0.73,1.29*16
$GPGSV,5,1,18,05,34,178,28,06,26,030,11,11,61,027,28,12,08,335,*75
$GPGSV,5,2,18,13,36,190,25,14,14,095,08,15,28,230,33,19,02,032,*7F
$GPGSV,5,3,18,20,47,131,37,22,21,075,,24,47,315,34,29,11,262,29*72
$GPGSV,5,4,18,30,11,144,,36,52,277,38,40,86,350,,41,58,082,*76
$GPGSV,5,5,18,49,32,274,,50,10,089,*78
$GLGSV,2,1,08,70,15,174,23,71,13,220,33,73,46,048,28,74,21,000,*6A
$GLGSV,2,2,08,80,26,117,37,84,38,359,,85,60,275,39,86,17,218,37*6C
$GNGLL,0419.88205,S,05539.59275,E,033253.00,A,A*63
$GNGRS,033253.00,1,-0.4,-0.4,-0.8,9.1,1.1,2.4,-3.9,15.0,-1.6,,,*68
$GNGRS,033253.00,1,0.2,-9.6,1.9,-7.1,4.5,,,,,,,*78
$GNGST,033253.00,4496177,,,,3.3,2.0,6.0*77
$GNZDA,033253.00,22,05,2025,00,00*7C
$GNGBS,033253.00,3.3,2.0,6.0,,,,*5F
$GNTXT,01,01,01,More than 100 frame errors, UART RX was disabled*70
b0L\"
=O$_'" $/K"/;d{'4V^:R 
YVFG"DI.0JP$uT&gU&<.V$Sb\YHcA$GNRMC,033254.00,A,0419.88205,S,05539.59274,E,0.015,,220525,,,A*7A
$GNVTG,,T,,M,0.015,N,0.029,K,A*32
$GNGNS,033254.00,0419.88205,S,05539.59274,E,AA,14,0.73,5.6,-47.6,,*50
$GNGGA,033254.00,0419.88205,S,05539.59274,E,1,12,0.73,5.6,M,-47.6,M,,*7C
$GNGSA,A,3,11,13,20,06,24,15,05,14,29,,,,1.48,0.73,1.29*10
$GNGSA,A,3,85,73,80,71,86,,,,,,,,1.48,0.73,1.29*16
$GPGSV,5,1,18,05,34,178,28,06,26,030,09,11,61,027,28,12,08,335,*7C
$GPGSV,5,2,18,13,36,190,25,14,14,095,08,15,28,230,34,19,02,032,*78
$GPGSV,5,3,18,20,47,131,36,22,21,075,,24,47,315,34,29,11,262,29*73
$GPGSV,5,4,18,30,11,144,,36,52,277,39,40,86,350,,41,58,082,*77
$GPGSV,5,5,18,49,32,274,,50,10,089,*78
$GLGSV,2,1,08,70,15,174,23,71,13,220,34,73,46,048,28,74,21,000,*6D
$GLGSV,2,2,08,80,26,117,36,84,38,359,,85,60,275,38,86,17,218,36*6D
$GNGLL,0419.88205,S,05539.59274,E,033254.00,A,A*65
$GNGRS,033254.00,1,0.0,-0.3,-1.0,14.3,1.0,2.1,2.0,-2.2,-2.3,,,*48
$GNGRS,033254.00,1,0.5,-7.6,1.7,-7.0,4.3,,,,,,,*7F
$GNGST,033254.00,48,,,,3.2,1.9,6.0*49
$GNZDA,033254.00,22,05,2025,00,00*7B
$GNGBS,033254.00,3.2,1.9,6.0,,,,*53
$GNTXT,01,01,01,More than 100 frame errors, UART RX was disabled*70
b0L\"
=HO$_" %/K#/;a{'4V^:R 
YVFG"I.0JP$uT&gU&<+V${Yb\Y0g[$GNRMC,033255.00,A,0419.88206,S,05539.59272,E,0.019,,220525,,,A*72
$GNVTG,,T,,M,0.019,N,0.034,K,A*32
$GNGNS,033255.00,0419.88206,S,05539.59272,E,AA,14,0.73,5.7,-47.6,,*55
$GNGGA,033255.00,0419.88206,S,05539.59272,E,1,12,0.73,5.7,M,-47.6,M,,*79
$GNGSA,A,3,11,13,20,06,24,15,05,14,29,,,,1.48,0.73,1.29*10
$GNGSA,A,3,85,73,80,71,86,,,,,,,,1.48,0.73,1.29*16
$GPGSV,5,1,18,05,34,178,28,06,26,030,09,11,61,027,28,12,08,335,*7C
$GPGSV,5,2,18,13,36,190,26,14,14,095,09,15,28,230,34,19,02,032,*7A
$GPGSV,5,3,18,20,47,131,37,22,21,075,,24,47,315,35,29,11,262,29*73
$GPGSV,5,4,18,30,11,144,,36,52,277,39,40,86,350,,41,58,082,*77
$GPGSV,5,5,18,49,32,274,,50,10,089,*78
$GLGSV,2,1,08,70,15,174,22,71,13,220,34,73,46,048,28,74,21,000,*6C
$GLGSV,2,2,08,80,26,117,36,84,38,359,,85,60,275,38,86,17,218,36*6D
$GNGLL,0419.88206,S,05539.59272,E,033255.00,A,A*61
$GNGRS,033255.00,1,0.7,-0.7,-0.9,9.2,1.0,1.7,-0.8,15.1,-2.3,,,*45
$GNGRS,033255.00,1,0.4,-7.5,1.7,-7.5,3.8,,,,,,,*75
$GNGST,033255.00,200762,,,,3.2,1.9,5.9*4F
$GNZDA,033255.00,22,05,2025,00,00*7A
$GNGBS,033255.00,3.2,1.9,5.9,,,,*58
$GNTXT,01,01,01,More than 100 frame errors, UART RX was disabled*70
b0L\"`
=O$X
_# %/K#/;o{'4V^:R 
YVFG"I.0@JP#uT&gU'<V$s[(b\Yk3$GNRMC,033256.00,A,0419.88204,S,05539.59269,E,0.020,,220525,,,A*73
$GNVTG,,T,,M,0.020,N,0.036,K,A*3A
$GNGNS,033256.00,0419.88204,S,05539.59269,E,AA,14,0.73,5.7,-47.6,,*5E
$GNGGA,033256.00,0419.88204,S,05539.59269,E,1,12,0.73,5.7,M,-47.6,M,,*72
$GNGSA,A,3,11,13,20,06,24,15,05,14,29,,,,1.48,0.73,1.29*10
$GNGSA,A,3,85,73,80,71,86,,,,,,,,1.48,0.73,1.29*16
$GPGSV,5,1,18,05,34,178,29,06,26,030,09,11,61,027,28,12,08,335,*7D
$GPGSV,5,2,18,13,36,190,26,14,14,095,10,15,28,230,35,19,02,032,*73
$GPGSV,5,3,18,20,47,131,37,22,21,075,,24,47,315,35,29,11,262,30*7B
$GPGSV,5,4,18,30,11,144,,36,52,277,39,40,86,350,,41,58,082,*77
$GPGSV,5,5,18,49,32,274,,50,10,089,*78
$GLGSV,2,1,08,70,15,174,22,71,13,220,34,73,46,048,29,74,21,000,*6D
$GLGSV,2,2,08,80,26,117,35,84,38,359,,85,60,275,39,86,17,218,36*6F
$GNGLL,0419.88204,S,05539.59269,E,033256.00,A,A*6A
$GNGRS,033256.00,1,1.7,-4.2,-1.0,9.1,1.1,1.3,-4.2,15.1,-3.6,,,*42
$GNGRS,033256.00,1,0.2,-4.5,1.8,-4.9,3.7,,,,,,,*7C
$GNGST,033256.00,3180454,,,,3.1,1.9,5.8*70
$GNZDA,033256.00,22,05,2025,00,00*79
$GNGBS,033256.00,3.1,1.9,5.8,,,,*59
$GNTXT,01,01,01,More than 100 frame errors, UART RX was disabled*70
b0Lx\"

=O$_#n %/K$/;q{(4V^:R 
YVFG#I.0BJP#uT&gU'<V$c}bx\Yoy$GNRMC,033257.00,A,0419.88203,S,05539.59268,E,0.040,,220525,,,A*72
$GNVTG,,T,,M,0.040,N,0.075,K,A*3B
$GNGNS,033257.00,0419.88203,S,05539.59268,E,AA,14,0.96,5.8,-47.6,,*5D
$GNGGA,033257.00,0419.88203,S,05539.59268,E,1,12,0.96,5.8,M,-47.6,M,,*71
$GNGSA,A,3,11,13,20,06,24,15,05,14,29,,,,2.05,0.96,1.81*13
$GNGSA,A,3,85,73,80,71,86,,,,,,,,2.05,0.96,1.81*15
$GPGSV,5,1,18,05,34,178,28,06,26,030,10,11,61,027,28,12,08,335,*74
$GPGSV,5,2,18,13,36,190,25,14,14,095,11,15,28,230,35,19,02,032,*71
$GPGSV,5,3,18,20,47,131,37,22,21,075,,24,47,315,36,29,11,262,30*78
$GPGSV,5,4,18,30,11,144,,36,52,277,40,40,86,350,,41,58,082,*79
$GPGSV,5,5,18,49,32,274,,50,10,089,*78
$GLGSV,2,1,08,70,15,174,22,71,13,220,35,73,46,048,29,74,21,000,*6C
$GLGSV,2,2,08,80,26,117,35,84,38,359,,85,60,275,39,86,17,218,36*6F
$GNGLL,0419.88203,S,05539.59268,E,033257.00,A,A*6D
$GNGRS,033257.00,1,-0.4,-4.8,-1.0,-51.9,1.1,1.1,-6.2,20.7,-3.7,,,*7F
$GNGRS,033257.00,1,0.3,-7.0,1.7,-7.5,3.5,,,,,,,*78
$GNGST,033257.00,20,,,,3.1,1.8,5.7*42
$GNZDA,033257.00,22,05,2025,00,00*78
$GNGBS,033257.00,3.1,1.8,5.7,,,,*56
$GNTXT,01,01,01,More than 100 frame errors, UART RX was disabled*70
b0L`\"8
=O$
_%X %/K"/;c{(4V^:R 
YVFG"I.0>JP$uT&gU'<V$Pb`\Yr$GNRMC,033258.00,A,0419.88203,S,05539.59266,E,0.048,,220525,,,A*7B
$GNVTG,,T,,M,0.048,N,0.089,K,A*30
$GNGNS,033258.00,0419.88203,S,05539.59266,E,AA,14,0.73,5.8,-47.6,,*57
$GNGGA,033258.00,0419.88203,S,05539.59266,E,1,12,0.73,5.8,M,-47.6,M,,*7B
$GNGSA,A,3,11,13,20,06,24,15,05,14,29,,,,1.48,0.73,1.29*10
$GNGSA,A,3,85,73,80,71,86,,,,,,,,1.48,0.73,1.29*16
$GPGSV,5,1,18,05,34,178,29,06,26,030,12,11,61,027,28,12,08,335,*77
$GPGSV,5,2,18,13,36,190,24,14,14,095,10,15,28,230,37,19,02,032,*73
$GPGSV,5,3,18,20,47,131,37,22,21,075,,24,47,315,34,29,11,262,30*7A
$GPGSV,5,4,18,30,11,144,,36,52,277,40,40,86,350,,41,58,082,*79
$GPGSV,5,5,18,49,32,274,,50,10,089,*78
$GLGSV,2,1,08,70,15,174,23,71,13,220,34,73,46,048,29,74,21,000,*6C
$GLGSV,2,2,08,80,26,117,36,84,38,359,,85,60,275,39,86,17,218,36*6C
$GNGLL,0419.88203,S,05539.59266,E,033258.00,A,A*6C
$GNGRS,033258.00,1,-0.4,-5.9,-1.1,9.5,1.0,0.9,-4.6,15.2,-2.7,,,*61
$GNGRS,033258.00,1,0.3,-7.1,1.7,-7.8,3.4,,,,,,,*7A
$GNGST,033258.00,3179860,,,,3.1,1.8,5.6*7C
$GNZDA,033258.00,22,05,2025,00,00*77
$GNGBS,033258.00,3.1,1.8,5.6,,,,*58
$GNTXT,01,01,01,More than 100 frame errors, UART RX was disabled*70
b0LH\"
=O$
_$R %/K$/;Nz{(4V^:R 
YVFG"I.0JP%uT&gU&<V$'bH\YvF$GNRMC,033259.00,A,0419.88201,S,05539.59267,E,0.059,,220525,,,A*79
$GNVTG,,T,,M,0.059,N,0.108,K,A*38
$GNGNS,033259.00,0419.88201,S,05539.59267,E,AA,14,0.73,5.8,-47.6,,*55
$GNGGA,033259.00,0419.88201,S,05539.59267,E,1,12,0.73,5.8,M,-47.6,M,,*79
$GNGSA,A,3,11,13,20,06,24,15,05,14,29,,,,1.48,0.73,1.29*10
$GNGSA,A,3,85,73,80,71,86,,,,,,,,1.48,0.73,1.29*16
$GPGSV,5,1,18,05,34,178,28,06,26,030,13,11,61,027,27,12,08,335,*78
$GPGSV,5,2,18,13,36,190,25,14,14,095,10,15,28,230,36,19,02,032,*73
$GPGSV,5,3,18,20,47,131,37,22,21,075,,24,47,315,36,29,11,262,29*70
$GPGSV,5,4,18,30,11,144,,36,52,277,40,40,86,350,,41,58,082,*79
$GPGSV,5,5,18,49,32,274,,50,10,089,*78
$GLGSV,2,1,08,70,15,174,23,71,13,220,34,73,46,048,31,74,21,000,*65
$GLGSV,2,2,08,80,26,117,37,84,38,359,,85,60,275,38,86,17,218,36*6C
$GNGLL,0419.88201,S,05539.59267,E,033259.00,A,A*6E
$GNGRS,033259.00,1,-1.1,-5.0,-1.1,9.6,0.8,0.8,-1.2,15.2,-1.3,,,*60
$GNGRS,033259.00,1,0.2,-5.6,1.8,-10.0,3.0,,,,,,,*4A
$GNGST,033259.00,3180543,,,,3.0,1.8,5.6*76
$GNZDA,033259.00,22,05,2025,00,00*76
$GNGBS,033259.00,3.0,1.8,5.6,,,,*58
$GNTXT,01,01,01,More than 100 frame errors, UART RX was disabled*70
b0L0\"}
=O$
_$ %/K$/;Gd{(4V^:R 
YVFG!qI.0JP$uT&gU&<V#,b0\Yz$GNRMC,033300.00,A,0419.88201,S,05539.59266,E,0.024,,220525,,,A*7F
$GNVTG,,T,,M,0.024,N,0.044,K,A*3B
$GNGNS,033300.00,0419.88201,S,05539.59266,E,AA,14,0.84,5.9,-47.6,,*50
$GNGGA,033300.00,0419.88201,S,05539.59266,E,1,12,0.84,5.9,M,-47.6,M,,*7C
$GNGSA,A,3,11,13,20,06,24,15,05,14,29,,,,1.64,0.84,1.41*18
$GNGSA,A,3,85,73,80,71,86,,,,,,,,1.64,0.84,1.41*1E
$GPGSV,5,1,18,05,34,178,28,06,26,030,09,11,61,027,27,12,08,335,*73
$GPGSV,5,2,18,13,36,190,27,14,14,095,10,15,28,230,36,19,02,032,*71
$GPGSV,5,3,18,20,47,131,37,22,21,075,,24,47,315,36,29,11,262,29*70
$GPGSV,5,4,18,30,11,144,,36,52,277,40,40,86,350,,41,58,082,*79
$GPGSV,5,5,18,49,32,274,,50,10,089,*78
$GLGSV,2,1,08,70,15,174,24,71,13,220,33,73,46,048,31,74,21,000,*65
$GLGSV,2,2,08,80,26,117,36,84,38,359,,85,60,275,38,86,17,218,35*6E
$GNGLL,0419.88201,S,05539.59266,E,033300.00,A,A*62
$GNGRS,033300.00,1,-0.2,-6.1,-1.1,-20.7,0.7,0.3,-1.3,5.0,1.0,,,*62
$GNGRS,033300.00,1,0.1,-7.9,1.9,-9.1,3.0,,,,,,,*71
$GNGST,033300.00,38,,,,3.0,1.8,5.5*4B
$GNZDA,033300.00,22,05,2025,00,00*7B
$GNGBS,033300.00,3.0,1.8,5.5,,,,*56
$GNTXT,01,01,01,More than 100 frame errors, UART RX was disabled*70
b0L\"u
=PO$^_#- %/K$/;@{(4V^:R 
YVFG"I.0JP%uT&gU&<V#b\Y~j$GNRMC,033301.00,A,0419.88196,S,05539.59267,E,0.008,,220525,,,A*7C
$GNVTG,,T,,M,0.008,N,0.015,K,A*31
$GNGNS,033301.00,0419.88196,S,05539.59267,E,AA,14,0.73,5.8,-47.6,,*54
$GNGGA,033301.00,0419.88196,S,05539.59267,E,1,12,0.73,5.8,M,-47.6,M,,*78
$GNGSA,A,3,11,13,20,06,24,15,05,14,29,,,,1.48,0.73,1.29*10
$GNGSA,A,3,85,73,80,71,86,,,,,,,,1.48,0.73,1.29*16
$GPGSV,5,1,18,05,34,178,29,06,26,030,15,11,61,027,28,12,08,335,*70
$GPGSV,5,2,18,13,36,190,27,14,14,095,09,15,28,230,35,19,02,032,*7A
$GPGSV,5,3,18,20,47,131,37,22,21,075,,24,47,315,36,29,11,262,29*70
$GPGSV,5,4,18,30,11,144,,36,52,277,40,40,86,350,,41,58,082,*79
$GPGSV,5,5,18,49,32,274,,50,10,089,*78
$GLGSV,2,1,08,70,15,174,24,71,13,220,34,73,46,048,31,74,21,000,*62
$GLGSV,2,2,08,80,26,117,37,84,38,359,,85,60,275,38,86,17,218,35*6F
$GNGLL,0419.88196,S,05539.59267,E,033301.00,A,A*6F
$GNGRS,033301.00,1,0.8,-6.7,-1.2,9.2,0.6,0.4,-4.0,15.1,-0.5,,,*4B
$GNGRS,033301.00,1,0.0,-3.3,1.9,-8.6,2.7,,,,,,,*7F
$GNGST,033301.00,3181144,,,,2.9,1.7,5.5*7C
$GNZDA,033301.00,22,05,2025,00,00*7A
$GNGBS,033301.00,2.9,1.7,5.5,,,,*50
$GNTXT,01,01,01,More than 100 frame errors, UART RX was disabled*70
b0L\"0
=~O$F_$5 '/K!/;A{&4V^:R 
YVFG"I.0#JP%uT&gU&<V$"tb\YB~$GNRMC,033302.00,A,0419.88188,S,05539.59265,E,0.042,,220525,,,A*7C
$GNVTG,,T,,M,0.042,N,0.077,K,A*3B
$GNGNS,033302.00,0419.88188,S,05539.59265,E,AA,14,0.73,5.5,-47.6,,*57
$GNGGA,033302.00,0419.88188,S,05539.59265,E,1,12,0.73,5.5,M,-47.6,M,,*7B
$GNGSA,A,3,11,13,20,06,24,15,05,14,29,,,,1.48,0.73,1.29*10
$GNGSA,A,3,85,73,80,71,86,,,,,,,,1.48,0.73,1.29*16
$GPGSV,5,1,18,05,34,178,30,06,26,030,14,11,61,027,28,12,08,335,*79
$GPGSV,5,2,18,13,36,190,25,14,14,095,11,15,28,230,36,19,02,032,*72
$GPGSV,5,3,18,20,47,131,39,22,21,075,,24,47,315,33,29,11,262,28*7A
$GPGSV,5,4,18,30,11,144,,36,52,277,38,40,86,350,,41,58,082,*76
$GPGSV,5,5,18,49,32,274,,50,10,089,*78
$GLGSV,2,1,08,70,15,174,24,71,13,220,34,73,46,048,30,74,21,000,*63
$GLGSV,2,2,08,80,26,117,37,84,38,359,,85,60,275,38,86,17,218,36*6C
$GNGLL,0419.88188,S,05539.59265,E,033302.00,A,A*61
$GNGRS,033302.00,1,1.3,-7.0,-1.2,9.0,0.7,0.5,-4.6,15.0,-0.9,,,*4D
$GNGRS,033302.00,1,0.0,-2.2,2.1,-8.1,2.5,,,,,,,*72
$GNGST,033302.00,3183642,,,,2.9,1.7,5.4*7D
$GNZDA,033302.00,22,05,2025,00,00*79
$GNGBS,033302.00,2.9,1.7,5.4,,,,*52
$GNTXT,01,01,01,More than 100 frame errors, UART RX was disabled*70
b0L\"
=+O$_K$B &/K%/;9E{&4V^:R 
YVFG"I.0JP$uT&gU&<V$5b\Yp$GNRMC,033303.00,A,0419.88185,S,05539.59264,E,0.006,,220525,,,A*71
$GNVTG,,T,,M,0.006,N,0.011,K,A*3B
$GNGNS,033303.00,0419.88185,S,05539.59264,E,AA,14,0.79,5.5,-47.6,,*50
$GNGGA,033303.00,0419.88185,S,05539.59264,E,1,12,0.79,5.5,M,-47.6,M,,*7C
$GNGSA,A,3,11,13,20,06,24,15,05,14,29,,,,1.67,0.79,1.47*1F
$GNGSA,A,3,85,73,80,71,86,,,,,,,,1.67,0.79,1.47*19
$GPGSV,5,1,18,05,34,178,30,06,26,030,13,11,61,027,31,12,08,335,*76
$GPGSV,5,2,18,13,36,190,24,14,14,095,11,15,28,230,36,19,02,032,*73
$GPGSV,5,3,18,20,47,131,38,22,21,075,,24,47,315,37,29,11,262,29*7E
$GPGSV,5,4,18,30,11,144,,36,52,277,38,40,86,350,,41,58,082,*76
$GPGSV,5,5,18,49,32,274,,50,10,089,*78
$GLGSV,2,1,08,70,15,174,24,71,13,220,34,73,46,048,30,74,21,000,*63
$GLGSV,2,2,08,80,26,117,36,84,38,359,,85,60,275,38,86,17,218,36*6D
$GNGLL,0419.88185,S,05539.59264,E,033303.00,A,A*6C
$GNGRS,033303.00,1,0.4,-5.6,-1.2,-16.6,0.6,0.7,-3.4,46.8,-4.4,,,*5A
$GNGRS,033303.00,1,0.0,-3.2,2.2,-8.3,2.4,,,,,,,*72
$GNGST,033303.00,36,,,,2.8,1.7,5.3*46
$GNZDA,033303.00,22,05,2025,00,00*78
$GNGBS,033303.00,2.8,1.7,5.3,,,,*55
$GNTXT,01,01,01,More than 100 frame errors, UART RX was disabled*70
b0L\"
=O$)
_$K &/K%/;0{'4V^:R 
YVFG"I.0JP$uT&gU'<V$b\YX?$GNRMC,033304.00,A,0419.88184,S,05539.59263,E,0.025,,220525,,,A*71
$GNVTG,,T,,M,0.025,N,0.046,K,A*38
$GNGNS,033304.00,0419.88184,S,05539.59263,E,AA,14,0.73,5.5,-47.6,,*5B
$GNGGA,033304.00,0419.88184,S,05539.59263,E,1,12,0.73,5.5,M,-47.6,M,,*77
$GNGSA,A,3,11,13,20,06,24,15,05,14,29,,,,1.48,0.73,1.29*10
$GNGSA,A,3,85,73,80,71,86,,,,,,,,1.48,0.73,1.29*16
$GPGSV,5,1,18,05,34,178,29,06,26,030,13,11,61,027,30,12,08,335,*7F
$GPGSV,5,2,18,13,36,190,23,14,14,095,10,15,28,230,36,19,02,032,*75
$GPGSV,5,3,18,20,47,131,38,22,21,075,,24,47,315,37,29,11,262,29*7E
$GPGSV,5,4,18,30,11,144,,36,52,277,39,40,86,350,,41,58,082,*77
$GPGSV,5,5,18,49,32,274,,50,10,089,*78
$GLGSV,2,1,08,70,15,174,24,71,13,220,34,73,46,048,30,74,21,000,*63
$GLGSV,2,2,08,80,26,117,36,84,38,359,,85,60,275,39,86,17,218,36*6C
$GNGLL,0419.88184,S,05539.59263,E,033304.00,A,A*6D
$GNGRS,033304.00,1,-3.6,-4.7,-0.9,9.3,0.5,0.8,-2.5,15.1,0.1,,,*42
$GNGRS,033304.00,1,-0.1,-6.0,2.2,-8.3,2.5,,,,,,,*5F
$GNGST,033304.00,4496177,,,,2.8,1.6,5.3*7B
$GNZDA,033304.00,22,05,2025,00,00*7F
$GNGBS,033304.00,2.8,1.6,5.3,,,,*53
$GNTXT,01,01,01,More than 100 frame errors, UART RX was disabled*70
b0L\"
=xO$_
_$Z &/K%/;{'4V^:R 
YVFG"I.0zJP$uT&gU'<V$b\Y@$GNRMC,033305.00,A,0419.88181,S,05539.59262,E,0.025,,220525,,,A*74
$GNVTG,,T,,M,0.025,N,0.047,K,A*39
$GNGNS,033305.00,0419.88181,S,05539.59262,E,AA,13,0.84,5.4,-47.6,,*50
$GNGGA,033305.00,0419.88181,S,05539.59262,E,1,12,0.84,5.4,M,-47.6,M,,*7B
$GNGSA,A,3,11,13,20,24,15,05,14,29,,,,,1.64,0.84,1.41*1E
$GNGSA,A,3,85,73,80,71,86,,,,,,,,1.64,0.84,1.41*1E
$GPGSV,5,1,18,05,34,178,29,06,26,030,07,11,61,027,30,12,08,335,*7A
$GPGSV,5,2,18,13,36,190,25,14,14,095,10,15,28,230,36,19,02,032,*73
$GPGSV,5,3,18,20,47,131,38,22,21,075,,24,47,315,37,29,11,262,29*7E
$GPGSV,5,4,18,30,11,144,,36,52,277,39,40,86,350,,41,58,082,*77
$GPGSV,5,5,18,49,32,274,,50,10,089,*78
$GLGSV,2,1,08,70,15,174,23,71,13,220,34,73,46,048,30,74,21,000,*64
$GLGSV,2,2,08,80,26,117,36,84,38,359,,85,60,275,39,86,17,218,36*6C
$GNGLL,0419.88181,S,05539.59262,E,033305.00,A,A*68
$GNGRS,033305.00,1,1.2,-4.2,-1.0,0.2,0.9,-3.5,15.1,1.4,,,,*42
$GNGRS,033305.00,1,0.1,-3.9,2.2,-8.3,2.5,,,,,,,*7F
$GNGST,033305.00,3299292,,,,2.8,1.6,5.2*7D
$GNZDA,033305.00,22,05,2025,00,00*7E
$GNGBS,033305.00,2.8,1.6,5.2,,,,*53
$GNTXT,01,01,01,More than 100 frame errors, UART RX was disabled*70
b0L\"l
=O$+_$E &/K%/;{&4V^:R 
YVFG"I.05JP$uT&gU&<V$Vb\Y($GNRMC,033306.00,A,0419.88181,S,05539.59260,E,0.028,,220525,,,A*78
$GNVTG,,T,,M,0.028,N,0.052,K,A*30
$GNGNS,033306.00,0419.88181,S,05539.59260,E,AA,14,0.79,5.4,-47.6,,*54
$GNGGA,033306.00,0419.88181,S,05539.59260,E,1,12,0.79,5.4,M,-47.6,M,,*78
$GNGSA,A,3,11,13,20,06,24,15,05,14,29,,,,1.67,0.79,1.47*1F
$GNGSA,A,3,85,73,80,71,86,,,,,,,,1.67,0.79,1.47*19
$GPGSV,5,1,18,05,34,178,29,06,26,030,13,11,61,027,30,12,08,335,*7F
$GPGSV,5,2,18,13,36,190,25,14,14,095,12,15,28,230,36,19,02,032,*71
$GPGSV,5,3,18,20,47,131,38,22,21,075,,24,47,315,37,29,11,262,29*7E
$GPGSV,5,4,18,30,11,144,,36,52,277,38,40,86,350,,41,58,082,*76
$GPGSV,5,5,18,49,32,274,,50,10,089,*78
$GLGSV,2,1,08,70,15,174,23,71,13,220,34,73,46,048,30,74,21,000,*64
$GLGSV,2,2,08,80,26,117,36,84,38,359,,85,60,275,38,86,17,218,36*6D
$GNGLL,0419.88181,S,05539.59260,E,033306.00,A,A*69
$GNGRS,033306.00,1,-0.1,-2.1,-1.2,2.2,0.1,0.7,-4.0,58.0,0.0,,,*45
$GNGRS,033306.00,1,0.3,-7.2,2.4,-8.4,2.3,,,,,,,*76
$GNGST,033306.00,35,,,,2.7,1.6,5.2*4F
$GNZDA,033306.00,22,05,2025,00,00*7D
$GNGBS,033306.00,2.7,1.6,5.2,,,,*5F
$GNTXT,01,01,01,More than 100 frame errors, UART RX was disabled*70
b0L\"v
=
O$_$< &/K%/;}{&4V^:R 
YVFG"I.0JP$uT&gU&<*V$b\Yyw$GNRMC,033307.00,A,0419.88180,S,05539.59259,E,0.037,,220525,,,A*7C
$GNVTG,,T,,M,0.037,N,0.068,K,A*37
$GNGNS,033307.00,0419.88180,S,05539.59259,E,AA,14,0.73,5.4,-47.6,,*54
$GNGGA,033307.00,0419.88180,S,05539.59259,E,1,12,0.73,5.4,M,-47.6,M,,*78
$GNGSA,A,3,11,13,20,06,24,15,05,14,29,,,,1.48,0.73,1.29*10
$GNGSA,A,3,85,73,80,71,86,,,,,,,,1.48,0.73,1.29*16
$GPGSV,5,1,18,05,34,178,29,06,26,030,11,11,61,027,30,12,08,335,*7D
$GPGSV,5,2,18,13,36,190,25,14,14,095,08,15,28,230,36,19,02,032,*7A
$GPGSV,5,3,18,20,47,131,38,22,21,075,,24,47,315,37,29,11,262,29*7E
$GPGSV,5,4,18,30,11,144,,36,52,277,38,40,86,350,,41,58,082,*76
$GPGSV,5,5,18,49,32,274,,50,10,089,*78
$GLGSV,2,1,08,70,15,174,24,71,13,220,34,73,46,048,30,74,21,000,*63
$GLGSV,2,2,08,80,26,117,36,84,38,359,,85,60,275,38,86,17,218,36*6D
$GNGLL,0419.88180,S,05539.59259,E,033307.00,A,A*63
$GNGRS,033307.00,1,2.7,-2.7,-1.1,9.2,0.0,0.6,-3.9,15.1,-1.3,,,*4A
$GNGRS,033307.00,1,0.4,-5.2,2.3,-8.2,2.2,,,,,,,*72
$GNGST,033307.00,3180131,,,,2.7,1.6,5.1*72
$GNZDA,033307.00,22,05,2025,00,00*7C
$GNGBS,033307.00,2.7,1.6,5.1,,,,*5D
$GNTXT,01,01,01,More than 100 frame errors, UART RX was disabled*70
b0Lp\"-

=O$V_%; &/K%/;{&4V^:R 
YVFG"I.0EJP#uT&gU&<V$bp\YP$GNRMC,033308.00,A,0419.88181,S,05539.59258,E,0.027,,220525,,,A*72
$GNVTG,,T,,M,0.027,N,0.050,K,A*3D
$GNGNS,033308.00,0419.88181,S,05539.59258,E,AA,14,0.73,5.5,-47.6,,*5A
$GNGGA,033308.00,0419.88181,S,05539.59258,E,1,12,0.73,5.5,M,-47.6,M,,*76
$GNGSA,A,3,11,13,20,06,24,15,05,14,29,,,,1.48,0.73,1.29*10
$GNGSA,A,3,85,73,80,71,86,,,,,,,,1.48,0.73,1.29*16
$GPGSV,5,1,18,05,34,178,29,06,26,030,10,11,61,027,30,12,08,335,*7C
$GPGSV,5,2,18,13,36,190,26,14,14,095,08,15,28,230,37,19,02,032,*78
$GPGSV,5,3,18,20,47,131,38,22,21,075,,24,47,315,37,29,11,262,29*7E
$GPGSV,5,4,18,30,11,144,,36,52,277,38,40,86,350,,41,58,082,*76
$GPGSV,5,5,18,49,32,274,,50,10,089,*78
$GLGSV,2,1,08,70,15,174,24,71,13,220,34,73,46,048,30,74,21,000,*63
$GLGSV,2,2,08,80,26,117,35,84,38,359,,85,60,275,38,86,17,218,36*6E
$GNGLL,0419.88181,S,05539.59258,E,033308.00,A,A*6C
$GNGRS,033308.00,1,3.9,-1.7,-0.9,9.0,0.0,0.6,-2.1,15.2,-3.5,,,*4C
$GNGRS,033308.00,1,0.3,-7.0,2.2,-8.2,2.1,,,,,,,*78
$GNGST,033308.00,3181144,,,,2.6,1.6,5.1*7F
$GNZDA,033308.00,22,05,2025,00,00*73
$GNGBS,033308.00,2.6,1.6,5.1,,,,*53
$GNTXT,01,01,01,More than 100 frame errors, UART RX was disabled*70
b0LX\"p
==O$[
_z%: &/K%/;{&4V^:R 
YVFG"I.0JP#uT&gU&<V#?bX\Y(D$GNRMC,033309.00,A,0419.88182,S,05539.59258,E,0.018,,220525,,,A*7C
$GNVTG,,T,,M,0.018,N,0.033,K,A*34
$GNGNS,033309.00,0419.88182,S,05539.59258,E,AA,14,0.97,5.6,-47.6,,*51
$GNGGA,033309.00,0419.88182,S,05539.59258,E,1,12,0.97,5.6,M,-47.6,M,,*7D
$GNGSA,A,3,11,13,20,06,24,15,05,14,29,,,,2.05,0.97,1.81*12
$GNGSA,A,3,85,73,80,71,86,,,,,,,,2.05,0.97,1.81*14
$GPGSV,5,1,18,05,34,178,29,06,26,030,13,11,61,027,30,12,08,335,*7F
$GPGSV,5,2,18,13,36,190,25,14,14,095,10,15,28,230,37,19,02,032,*72
$GPGSV,5,3,18,20,47,131,38,22,21,075,,24,47,315,37,29,11,262,30*76
$GPGSV,5,4,18,30,11,144,,36,52,277,38,40,86,350,,41,58,082,*76
$GPGSV,5,5,18,49,32,274,,50,10,089,*78
$GLGSV,2,1,08,70,15,174,24,71,13,220,34,73,46,048,30,74,21,000,*63
$GLGSV,2,2,08,80,26,117,35,84,38,359,,85,60,275,38,86,17,218,35*6D
$GNGLL,0419.88182,S,05539.59258,E,033309.00,A,A*6E
$GNGRS,033309.00,1,2.0,-1.7,-0.7,-138,-0.1,0.6,1.1,70.3,-3.7,,,*79
$GNGRS,033309.00,1,0.1,-2.4,2.0,-8.0,2.0,,,,,,,*7B
$GNGST,033309.00,19,,,,2.6,1.6,5.1*4C
$GNZDA,033309.00,22,05,2025,00,00*72
$GNGBS,033309.00,2.6,1.6,5.1,,,,*52
$GNTXT,01,01,01,More than 100 frame errors, UART RX was disabled*70
b0L@\"

=O$_$( &/K%/;o{&4V^:R 
YVFG!I.0JP#uT&gU&<V#b@\Y$GNRMC,033310.00,A,0419.88181,S,05539.59257,E,0.043,,220525,,,A*76
$GNVTG,,T,,M,0.043,N,0.080,K,A*32
$GNGNS,033310.00,0419.88181,S,05539.59257,E,AA,14,0.73,5.6,-47.6,,*5F
$GNGGA,033310.00,0419.88181,S,05539.59257,E,1,12,0.73,5.6,M,-47.6,M,,*73
$GNGSA,A,3,11,13,20,06,24,15,05,14,29,,,,1.48,0.73,1.29*10
$GNGSA,A,3,85,73,80,71,86,,,,,,,,1.48,0.73,1.29*16
$GPGSV,5,1,18,05,34,178,30,06,26,030,10,11,61,027,30,12,08,335,*74
$GPGSV,5,2,18,13,36,190,25,14,14,095,08,15,28,230,36,19,02,032,*7A
$GPGSV,5,3,18,20,47,131,38,22,21,075,,24,47,315,37,29,11,262,29*7E
$GPGSV,5,4,18,30,11,144,,36,52,277,38,40,86,350,,41,58,082,*76
$GPGSV,5,5,18,49,32,274,,50,10,089,*78
$GLGSV,2,1,08,70,15,174,24,71,13,220,33,73,46,048,30,74,21,000,*64
$GLGSV,2,2,08,80,26,117,35,84,38,359,,85,60,275,38,86,17,218,35*6D
$GNGLL,0419.88181,S,05539.59257,E,033310.00,A,A*6A
$GNGRS,033310.00,1,-0.8,-2.7,-0.9,9.5,-0.1,0.4,2.1,15.2,-4.0,,,*6D
$GNGRS,033310.00,1,0.1,-1.2,1.7,-8.1,2.1,,,,,,,*72
$GNGST,033310.00,3205634,,,,2.6,1.6,5.1*79
$GNZDA,033310.00,22,05,2025,00,00*7A
$GNGBS,033310.00,2.6,1.6,5.1,,,,*5A
$GNTXT,01,01,01,More than 100 frame errors, UART RX was disabled*70
b0L(\"
=O$_$
 &/K&/;{'4V^:R 
YVFG!I.0JP#uT&gU&<V#b(\Y$GNRMC,033311.00,A,0419.88181,S,05539.59256,E,0.032,,220525,,,A*70
$GNVTG,,T,,M,0.032,N,0.059,K,A*30
$GNGNS,033311.00,0419.88181,S,05539.59256,E,AA,14,0.73,5.6,-47.6,,*5F
$GNGGA,033311.00,0419.88181,S,05539.59256,E,1,12,0.73,5.6,M,-47.6,M,,*73
$GNGSA,A,3,11,13,20,06,24,15,05,14,29,,,,1.48,0.73,1.29*10
$GNGSA,A,3,85,73,80,71,86,,,,,,,,1.48,0.73,1.29*16
$GPGSV,5,1,18,05,34,178,30,06,26,030,13,11,61,027,30,12,08,335,*77
$GPGSV,5,2,18,13,36,190,25,14,14,095,11,15,28,230,36,19,02,032,*72
$GPGSV,5,3,18,20,47,131,38,22,21,075,,24,47,315,38,29,11,262,29*71
$GPGSV,5,4,18,30,11,144,,36,52,277,39,40,86,350,,41,58,082,*77
$GPGSV,5,5,18,49,32,274,,50,10,089,*78
$GLGSV,2,1,08,70,15,174,25,71,13,220,33,73,46,048,31,74,21,000,*64
$GLGSV,2,2,08,80,26,117,35,84,38,359,,85,60,275,38,86,17,218,35*6D
$GNGLL,0419.88181,S,05539.59256,E,033311.00,A,A*6A
$GNGRS,033311.00,1,1.6,-2.9,-0.7,9.6,0.0,0.1,1.6,15.2,-0.3,,,*67
$GNGRS,033311.00,1,0.3,-5.6,1.9,-7.8,2.1,,,,,,,*79
$GNGST,033311.00,3205634,,,,2.5,1.6,5.0*7A
$GNZDA,033311.00,22,05,2025,00,00*7B
$GNGBS,033311.00,2.5,1.6,5.0,,,,*59
$GNTXT,01,01,01,More than 100 frame errors, UART RX was disabled*70
b0L\"

8=O$V_$ &/K&/;Z{&4V^:R 
YVFG"I.0JP#uT&gU&<V$hb\Y|$GNRMC,033312.00,A,0419.88182,S,05539.59255,E,0.037,,220525,,,A*76
$GNVTG,,T,,M,0.037,N,0.068,K,A*37
$GNGNS,033312.00,0419.88182,S,05539.59255,E,AA,14,0.97,5.7,-47.6,,*57
$GNGGA,033312.00,0419.88182,S,05539.59255,E,1,12,0.97,5.7,M,-47.6,M,,*7B
$GNGSA,A,3,11,13,20,06,24,15,05,14,29,,,,2.05,0.97,1.81*12
$GNGSA,A,3,85,73,80,71,86,,,,,,,,2.05,0.97,1.81*14
$GPGSV,5,1,18,05,34,178,29,06,26,030,10,11,61,027,30,12,08,335,*7C
$GPGSV,5,2,18,13,36,190,24,14,14,095,08,15,28,230,36,19,02,032,*7B
$GPGSV,5,3,18,20,47,131,38,22,21,075,,24,47,315,38,29,11,262,29*71
$GPGSV,5,4,18,30,11,144,,36,52,277,38,40,86,350,,41,58,082,*76
$GPGSV,5,5,18,49,32,274,,50,10,089,*78
$GLGSV,2,1,08,70,15,174,25,71,13,220,34,73,46,048,31,74,21,000,*63
$GLGSV,2,2,08,80,26,117,35,84,38,359,,85,60,275,38,86,17,218,36*6E
$GNGLL,0419.88182,S,05539.59255,E,033312.00,A,A*69
$GNGRS,033312.00,1,-0.9,-4.3,-0.6,-102,0.1,0.1,4.1,-93.2,3.5,,,*7D
$GNGRS,033312.00,1,-0.1,-7.6,2.0,-7.6,2.3,,,,,,,*51
$GNGST,033312.00,19,,,,2.5,1.5,5.0*47
$GNZDA,033312.00,22,05,2025,00,00*78
$GNGBS,033312.00,2.5,1.5,5.0,,,,*59
$GNTXT,01,01,01,More than 100 frame errors, UART RX was disabled*70
b0L\"
=lO$_% %/K%/;){&4V^:R 
YVFG"I.0RJP#uT&gU&<V$Pb\Y$GNRMC,033313.00,A,0419.88184,S,05539.59256,E,0.063,,220525,,,A*73
$GNVTG,,T,,M,0.063,N,0.117,K,A*3F
$GNGNS,033313.00,0419.88184,S,05539.59256,E,AA,14,0.73,5.7,-47.6,,*59
$GNGGA,033313.00,0419.88184,S,05539.59256,E,1,12,0.73,5.7,M,-47.6,M,,*75
$GNGSA,A,3,11,13,20,06,24,15,05,14,29,,,,1.48,0.73,1.29*10
$GNGSA,A,3,85,73,80,71,86,,,,,,,,1.48,0.73,1.29*16
$GPGSV,5,1,18,05,34,178,28,06,26,030,09,11,61,027,29,12,08,335,*7D
$GPGSV,5,2,18,13,36,190,23,14,14,095,09,15,28,230,37,19,02,032,*7C
$GPGSV,5,3,18,20,47,131,37,22,21,075,,24,47,315,37,29,11,262,29*71
$GPGSV,5,4,18,30,11,144,,36,52,277,38,40,86,350,,41,58,082,*76
$GPGSV,5,5,18,49,32,274,,50,10,089,*78
$GLGSV,2,1,08,70,15,174,24,71,13,220,34,73,46,048,30,74,21,000,*63
$GLGSV,2,2,08,80,26,117,35,84,38,359,,85,60,275,38,86,17,218,36*6E
$GNGLL,0419.88184,S,05539.59256,E,033313.00,A,A*6D
$GNGRS,033313.00,1,1.1,-5.1,-0.2,9.3,-0.1,0.1,2.7,15.1,-2.1,,,*40
$GNGRS,033313.00,1,-0.1,-4.3,2.1,-7.5,2.5,,,,,,,*52
$GNGST,033313.00,4496177,,,,2.5,1.5,5.0*70
$GNZDA,033313.00,22,05,2025,00,00*79
$GNGBS,033313.00,2.5,1.5,5.0,,,,*58
$GNTXT,01,01,01,More than 100 frame errors, UART RX was disabled*70
b0L\"
="O$_% %/K%/;5{&4V^:R 
YVFG"I.0JP#uT&gU&<V$lb\Yh_=$GNRMC,033314.00,A,0419.88184,S,05539.59257,E,0.069,,220525,,,A*7F
$GNVTG,,T,,M,0.069,N,0.127,K,A*36
$GNGNS,033314.00,0419.88184,S,05539.59257,E,AA,14,0.73,5.7,-47.6,,*5F
$GNGGA,033314.00,0419.88184,S,05539.59257,E,1,12,0.73,5.7,M,-47.6,M,,*73
$GNGSA,A,3,11,13,20,06,24,15,05,14,29,,,,1.48,0.73,1.29*10
$GNGSA,A,3,85,73,80,71,86,,,,,,,,1.48,0.73,1.29*16
$GPGSV,5,1,18,05,34,178,28,06,26,030,11,11,61,027,29,12,08,335,*74
$GPGSV,5,2,18,13,36,190,23,14,14,095,08,15,28,230,37,19,02,032,*7D
$GPGSV,5,3,18,20,47,131,37,22,21,075,,24,47,315,37,29,11,262,29*71
$GPGSV,5,4,18,30,11,144,,36,52,277,38,40,86,350,,41,58,082,*76
$GPGSV,5,5,18,49,32,274,,50,10,089,*78
$GLGSV,2,1,08,70,15,174,23,71,13,220,34,73,46,048,30,74,21,000,*64
$GLGSV,2,2,08,80,26,117,35,84,38,359,,85,60,275,38,86,17,218,36*6E
$GNGLL,0419.88184,S,05539.59257,E,033314.00,A,A*6B
$GNGRS,033314.00,1,0.3,-6.2,-0.4,9.1,-0.1,0.3,-0.6,14.9,-2.0,,,*64
$GNGRS,033314.00,1,0.1,-1.1,2.0,-7.4,2.7,,,,,,,*7D
$GNGST,033314.00,4496177,,,,2.5,1.5,5.0*77
$GNZDA,033314.00,22,05,2025,00,00*7E
$GNGBS,033314.00,2.5,1.5,5.0,,,,*5F
$GNTXT,01,01,01,More than 100 frame errors, UART RX was disabled*70
b0L\"5
=O$b_% %/K&/;f{&4V^:R 
YVFG"8I.0JP#uT&gU&<V#b\YP7$GNRMC,033315.00,A,0419.88186,S,05539.59258,E,0.022,,220525,,,A*7C
$GNVTG,,T,,M,0.022,N,0.041,K,A*38
$GNGNS,033315.00,0419.88186,S,05539.59258,E,AA,14,0.97,5.8,-47.6,,*56
$GNGGA,033315.00,0419.88186,S,05539.59258,E,1,12,0.97,5.8,M,-47.6,M,,*7A
$GNGSA,A,3,11,13,20,06,24,15,05,14,29,,,,2.06,0.97,1.81*11
$GNGSA,A,3,85,73,80,71,86,,,,,,,,2.06,0.97,1.81*17
$GPGSV,5,1,18,05,34,178,27,06,26,030,11,11,61,027,29,12,08,335,*7B
$GPGSV,5,2,18,13,36,190,23,14,14,095,08,15,28,230,37,19,02,032,*7D
$GPGSV,5,3,18,20,47,131,37,22,21,075,,24,47,315,38,29,11,262,30*76
$GPGSV,5,4,18,30,11,144,,36,52,277,38,40,86,350,,41,58,082,*76
$GPGSV,5,5,18,49,32,274,,50,10,089,*78
$GLGSV,2,1,08,70,15,174,22,71,13,220,34,73,46,048,30,74,21,000,*65
$GLGSV,2,2,08,80,26,117,35,84,38,359,,85,60,275,38,86,17,218,35*6D
$GNGLL,0419.88186,S,05539.59258,E,033315.00,A,A*67
$GNGRS,033315.00,1,5.4,-6.7,-0.4,-97.5,-0.4,0.2,-2.0,-132,-1.5,,,*75
$GNGRS,033315.00,1,-0.3,-3.6,1.9,-7.1,2.5,,,,,,,*5B
$GNGST,033315.00,21,,,,2.4,1.5,5.0*4A
$GNZDA,033315.00,22,05,2025,00,00*7F
$GNGBS,033315.00,2.4,1.5,5.0,,,,*5F
$GNTXT,01,01,01,More than 100 frame errors, UART RX was disabled*70
b0L\"
=O$_% &/K&/;{&4V^:R 
YVFG"3I.0JP#uT&gU&<V$=b\Y8$GNRMC,033316.00,A,0419.88187,S,05539.59258,E,0.024,,220525,,,A*78
$GNVTG,,T,,M,0.024,N,0.045,K,A*3A
$GNGNS,033316.00,0419.88187,S,05539.59258,E,AA,14,0.73,5.8,-47.6,,*5E
$GNGGA,033316.00,0419.88187,S,05539.59258,E,1,12,0.73,5.8,M,-47.6,M,,*72
$GNGSA,A,3,11,13,20,06,24,15,05,14,29,,,,1.48,0.73,1.29*10
$GNGSA,A,3,85,73,80,71,86,,,,,,,,1.48,0.73,1.29*16
$GPGSV,5,1,18,05,34,178,27,06,26,030,11,11,61,027,30,12,08,335,*73
$GPGSV,5,2,18,13,36,190,23,14,14,095,09,15,28,230,37,19,02,032,*7C
$GPGSV,5,3,18,20,47,131,38,22,21,075,,24,47,315,38,29,11,262,30*79
$GPGSV,5,4,18,30,11,144,,36,52,277,38,40,86,350,,41,58,082,*76
$GPGSV,5,5,18,49,32,274,,50,10,089,*78
$GLGSV,2,1,08,70,15,173,23,71,13,220,34,73,46,048,31,74,21,000,*62
$GLGSV,2,2,08,80,26,117,35,84,38,359,,85,60,275,38,86,17,218,36*6E
$GNGLL,0419.88187,S,05539.59258,E,033316.00,A,A*65
$GNGRS,033316.00,1,6.4,-7.9,-0.4,9.5,-0.3,0.2,1.3,15.1,-2.5,,,*4F
$GNGRS,033316.00,1,-0.4,-4.9,1.9,-7.2,2.5,,,,,,,*54
$GNGST,033316.00,3205634,,,,2.4,1.5,5.0*7F
$GNZDA,033316.00,22,05,2025,00,00*7C
$GNGBS,033316.00,2.4,1.5,5.0,,,,*5C
$GNTXT,01,01,01,More than 100 frame errors, UART RX was disabled*70
b0L\"
=O$_$ &/K#/;"{(4V^:R 
YVFG":I.0JP"uT&gU'<V$3&b\Y u$GNRMC,033317.00,A,0419.88186,S,05539.59259,E,0.033,,220525,,,A*7F
$GNVTG,,T,,M,0.033,N,0.060,K,A*3B
$GNGNS,033317.00,0419.88186,S,05539.59259,E,AA,14,0.73,5.8,-47.6,,*5F
$GNGGA,033317.00,0419.88186,S,05539.59259,E,1,12,0.73,5.8,M,-47.6,M,,*73
$GNGSA,A,3,11,13,20,06,24,15,05,14,29,,,,1.48,0.73,1.29*10
$GNGSA,A,3,85,73,80,71,86,,,,,,,,1.48,0.73,1.29*16
$GPGSV,5,1,18,05,34,178,26,06,26,030,13,11,61,027,29,12,08,335,*78
$GPGSV,5,2,18,13,36,190,25,14,14,095,11,15,28,230,36,19,02,032,*72
$GPGSV,5,3,18,20,47,131,38,22,21,075,,24,47,315,35,29,11,262,30*74
$GPGSV,5,4,18,30,11,144,,36,52,277,40,40,86,350,,41,58,082,*79
$GPGSV,5,5,18,49,32,274,,50,10,089,*78
$GLGSV,2,1,08,70,15,173,23,71,13,219,34,73,46,048,31,74,21,000,*68
$GLGSV,2,2,08,80,26,117,34,84,38,359,,85,60,275,39,86,17,218,36*6E
$GNGLL,0419.88186,S,05539.59259,E,033317.00,A,A*64
$GNGRS,033317.00,1,4.2,-8.2,-0.4,9.5,-0.4,0.2,1.7,15.0,-4.8,,,*47
$GNGRS,033317.00,1,-0.6,-3.5,2.1,-7.1,2.5,,,,,,,*54
$GNGST,033317.00,3205634,,,,2.4,1.5,4.9*76
$GNZDA,033317.00,22,05,2025,00,00*7D
$GNGBS,033317.00,2.4,1.5,4.9,,,,*55
$GNTXT,01,01,01,More than 100 frame errors, UART RX was disabled*70
b0L\"
T=O$V
_# &/K$/;{(4V^:R 
YVFG"@I.0JP!uT&gU'<V$7b\Y$GNRMC,033318.00,A,0419.88186,S,05539.59260,E,0.022,,220525,,,A*7A
$GNVTG,,T,,M,0.022,N,0.041,K,A*38
$GNGNS,033318.00,0419.88186,S,05539.59260,E,AA,14,0.79,5.8,-47.6,,*50
$GNGGA,033318.00,0419.88186,S,05539.59260,E,1,12,0.79,5.8,M,-47.6,M,,*7C
$GNGSA,A,3,11,13,20,06,24,15,05,14,29,,,,1.67,0.79,1.47*1F
$GNGSA,A,3,85,73,80,71,86,,,,,,,,1.67,0.79,1.47*19
$GPGSV,5,1,18,05,34,178,25,06,26,030,09,11,61,027,29,12,08,335,*70
$GPGSV,5,2,18,13,36,190,25,14,14,095,10,15,28,230,35,19,02,032,*70
$GPGSV,5,3,18,20,47,131,38,22,21,075,,24,47,315,36,29,11,262,30*77
$GPGSV,5,4,18,30,11,144,,36,52,277,40,40,86,350,,41,58,082,*79
$GPGSV,5,5,18,49,32,274,,50,10,089,*78
$GLGSV,2,1,08,70,15,173,22,71,13,219,34,73,46,048,31,74,21,000,*69
$GLGSV,2,2,08,80,26,117,33,84,38,359,,85,60,275,39,86,17,218,36*69
$GNGLL,0419.88186,S,05539.59260,E,033318.00,A,A*61
$GNGRS,033318.00,1,2.1,-6.8,-0.1,11.1,-0.3,0.1,1.7,-52.4,-1.1,,,*53
$GNGRS,033318.00,1,-0.4,-5.1,2.4,-7.0,2.6,,,,,,,*5C
$GNGST,033318.00,40,,,,2.4,1.5,4.9*48
$GNZDA,033318.00,22,05,2025,00,00*72
$GNGBS,033318.00,2.4,1.5,4.9,,,,*5A
$GNTXT,01,01,01,More than 100 frame errors, UART RX was disabled*70
b0Lh]"7
=LO$_# &/K$/;{(4V^:R 
YVFG"YI.1JP"uT&gU'<V$bh]YP$GNRMC,033319.00,A,0419.88184,S,05539.59261,E,0.018,,220525,,,A*71
$GNVTG,,T,,M,0.018,N,0.033,K,A*34
$GNGNS,033319.00,0419.88184,S,05539.59261,E,AA,14,0.73,5.8,-47.6,,*58
$GNGGA,033319.00,0419.88184,S,05539.59261,E,1,12,0.73,5.8,M,-47.6,M,,*74
$GNGSA,A,3,11,13,20,06,24,15,05,14,29,,,,1.48,0.73,1.29*10
$GNGSA,A,3,85,73,80,71,86,,,,,,,,1.48,0.73,1.29*16
$GPGSV,5,1,18,05,34,178,25,06,26,030,13,11,61,027,29,12,08,335,*7B
$GPGSV,5,2,18,13,36,190,27,14,14,095,08,15,28,230,35,19,02,032,*7B
$GPGSV,5,3,18,20,47,131,38,22,21,075,,24,47,315,36,29,11,262,30*77
$GPGSV,5,4,18,30,11,144,,36,52,277,40,40,86,350,,41,58,082,*79
$GPGSV,5,5,18,49,32,274,,50,10,089,*78
$GLGSV,2,1,08,70,15,173,23,71,13,219,34,73,46,049,31,74,21,000,*69
$GLGSV,2,2,08,80,26,117,34,84,38,359,,85,60,275,39,86,17,218,36*6E
$GNGLL,0419.88184,S,05539.59261,E,033319.00,A,A*63
$GNGRS,033319.00,1,5.9,-8.8,-0.2,9.3,-0.3,0.2,3.1,15.1,-1.3,,,*45
$GNGRS,033319.00,1,-0.2,1.4,2.2,-6.8,2.6,,,,,,,*78
$GNGST,033319.00,3179317,,,,2.4,1.5,4.9*74
$GNZDA,033319.00,22,05,2025,00,00*73
$GNGBS,033319.00,2.4,1.5,4.9,,,,*5B
$GNTXT,01,01,01,More than 100 frame errors, UART RX was disabled*70
b0LP]"L
=O$y_#
 %/K#/;{(4V^(:R 
YVFG!cI.1JP"uT&gU'<V$E.bP]Yo$GNRMC,033320.00,A,0419.88182,S,05539.59262,E,0.033,,220525,,,A*77
$GNVTG,,T,,M,0.033,N,0.061,K,A*3A
$GNGNS,033320.00,0419.88182,S,05539.59262,E,AA,14,0.73,5.7,-47.6,,*58
$GNGGA,033320.00,0419.88182,S,05539.59262,E,1,12,0.73,5.7,M,-47.6,M,,*74
$GNGSA,A,3,11,13,20,06,24,15,05,14,29,,,,1.48,0.73,1.29*10
$GNGSA,A,3,85,73,80,71,86,,,,,,,,1.48,0.73,1.29*16
$GPGSV,5,1,18,05,34,178,26,06,26,030,09,11,61,027,29,12,08,335,*73
$GPGSV,5,2,18,13,36,190,27,14,14,095,11,15,28,230,35,19,02,032,*73
$GPGSV,5,3,18,20,47,131,37,22,21,075,,24,47,315,35,29,11,262,30*7B
$GPGSV,5,4,18,30,11,144,,36,52,277,40,40,86,350,,41,58,082,40*7D
$GPGSV,5,5,18,49,32,274,,50,10,089,*78
$GLGSV,2,1,08,70,15,173,24,71,13,219,33,73,46,049,31,74,22,000,*6A
$GLGSV,2,2,08,80,26,117,34,84,38,359,,85,60,275,39,86,17,218,36*6E
$GNGLL,0419.88182,S,05539.59262,E,033320.00,A,A*6C
$GNGRS,033320.00,1,-0.5,-9.0,-0.5,9.2,-0.3,0.1,3.3,15.0,1.6,,,*4C
$GNGRS,033320.00,1,-0.4,-1.1,2.4,-6.7,2.4,,,,,,,*57
$GNGST,033320.00,3179368,,,,2.4,1.5,4.9*76
$GNZDA,033320.00,22,05,2025,00,00*79
$GNGBS,033320.00,2.4,1.5,4.9,,,,*51
$GNTXT,01,01,01,More than 100 frame errors, UART RX was disabled*70
b0L8
]"

=O$_# &/K#/;{(4V^(:R 
YVFG"I.1JP"uT&gU'<V$b8
]YG $GNRMC,033321.00,A,0419.88184,S,05539.59262,E,0.020,,220525,,,A*72
$GNVTG,,T,,M,0.020,N,0.036,K,A*3A
$GNGNS,033321.00,0419.88184,S,05539.59262,E,AA,14,0.97,5.7,-47.6,,*55
$GNGGA,033321.00,0419.88184,S,05539.59262,E,1,12,0.97,5.7,M,-47.6,M,,*79
$GNGSA,A,3,11,13,20,06,24,15,05,14,29,,,,2.06,0.97,1.82*12
$GNGSA,A,3,85,73,80,71,86,,,,,,,,2.06,0.97,1.82*14
$GPGSV,5,1,18,05,34,178,27,06,26,030,10,11,61,027,31,12,08,335,*73
$GPGSV,5,2,18,13,36,190,26,14,14,095,09,15,28,230,35,19,02,032,*7B
$GPGSV,5,3,18,20,47,131,38,22,21,075,,24,47,315,35,29,11,262,30*74
$GPGSV,5,4,18,30,11,144,,36,52,277,40,40,86,350,,41,58,082,40*7D
$GPGSV,5,5,18,49,32,274,,50,10,089,*78
$GLGSV,2,1,08,70,15,173,24,71,13,219,34,73,46,049,31,74,22,000,*6D
$GLGSV,2,2,08,80,26,117,34,84,38,359,,85,60,275,39,86,17,218,36*6E
$GNGLL,0419.88184,S,05539.59262,E,033321.00,A,A*6B
$GNGRS,033321.00,1,0.0,-10.2,-0.5,-49.3,-0.3,0.0,2.1,-21.7,-5.7,,,*40
$GNGRS,033321.00,1,-0.2,-8.1,2.3,-6.4,2.5,,,,,,,*5C
$GNGST,033321.00,19,,,,2.4,1.5,4.8*4F
$GNZDA,033321.00,22,05,2025,00,00*78
$GNGBS,033321.00,2.4,1.5,4.8,,,,*51
$GNTXT,01,01,01,More than 100 frame errors, UART RX was disabled*70
b0L ]"

=O$_$ &/K$/;{(4V^&:R 
YVFG"I.1JP#uT&gU'<V#b ]Y$GNRMC,033322.00,A,0419.88183,S,05539.59262,E,0.026,,220525,,,A*70
$GNVTG,,T,,M,0.026,N,0.048,K,A*35
$GNGNS,033322.00,0419.88183,S,05539.59262,E,AA,14,0.73,5.7,-47.6,,*5B
$GNGGA,033322.00,0419.88183,S,05539.59262,E,1,12,0.73,5.7,M,-47.6,M,,*77
$GNGSA,A,3,11,13,20,06,24,15,05,14,29,,,,1.48,0.73,1.28*11
$GNGSA,A,3,85,73,80,71,86,,,,,,,,1.48,0.73,1.28*17
$GPGSV,5,1,18,05,34,178,27,06,26,030,10,11,61,027,31,12,08,335,*73
$GPGSV,5,2,18,13,36,190,27,14,14,095,08,15,28,230,36,19,02,032,*78
$GPGSV,5,3,18,20,47,131,38,22,21,075,,24,47,315,36,29,11,262,30*77
$GPGSV,5,4,18,30,11,144,,36,52,277,40,40,86,350,,41,58,082,38*72
$GPGSV,5,5,18,49,32,274,,50,10,089,*78
$GLGSV,2,1,08,70,15,173,23,71,13,219,34,73,46,049,30,74,22,000,*6B
$GLGSV,2,2,08,80,26,117,35,84,38,359,,85,60,275,39,86,17,218,35*6C
$GNGLL,0419.88183,S,05539.59262,E,033322.00,A,A*6F
$GNGRS,033322.00,1,4.7,-11.2,-0.6,9.4,-0.1,0.1,1.8,15.1,-2.5,,,*7C
$GNGRS,033322.00,1,-0.3,-7.5,2.4,-6.4,2.5,,,,,,,*52
$GNGST,033322.00,4496177,,,,2.4,1.5,4.8*7A
$GNZDA,033322.00,22,05,2025,00,00*7B
$GNGBS,033322.00,2.4,1.5,4.8,,,,*52
$GNTXT,01,01,01,More than 100 frame errors, UART RX was disabled*70
b0L]"
=gO$_$ &/K%/;{'4V^&:R 
YVFG I.1JP#uT&gU'<V#,Mb]Y$GNRMC,033323.00,A,0419.88182,S,05539.59262,E,0.015,,220525,,,A*70
$GNVTG,,T,,M,0.015,N,0.027,K,A*3C
$GNGNS,033323.00,0419.88182,S,05539.59262,E,AA,14,0.73,5.7,-47.6,,*5B
$GNGGA,033323.00,0419.88182,S,05539.59262,E,1,12,0.73,5.7,M,-47.6,M,,*77
$GNGSA,A,3,11,13,20,06,24,15,05,14,29,,,,1.48,0.73,1.28*11
$GNGSA,A,3,85,73,80,71,86,,,,,,,,1.48,0.73,1.28*17
$GPGSV,5,1,18,05,34,178,27,06,26,030,11,11,61,027,30,12,08,335,*73
$GPGSV,5,2,18,13,36,190,26,14,14,095,09,15,28,230,36,19,02,032,*78
$GPGSV,5,3,18,20,47,131,38,22,21,075,,24,47,315,37,29,11,262,30*76
$GPGSV,5,4,18,30,11,144,,36,52,277,39,40,86,350,,41,58,082,38*7C
$GPGSV,5,5,18,49,32,274,,50,10,089,*78
$GLGSV,2,1,08,70,15,173,22,71,13,219,32,73,46,049,29,74,22,000,*64
$GLGSV,2,2,08,80,26,117,35,84,38,359,,85,60,275,39,86,17,218,35*6C
$GNGLL,0419.88182,S,05539.59262,E,033323.00,A,A*6F
$GNGRS,033323.00,1,-1.5,-10.8,-0.7,9.2,-0.1,0.0,1.7,15.1,0.1,,,*7E
$GNGRS,033323.00,1,-0.5,-5.7,2.1,-10.4,2.3,,,,,,,*61
$GNGST,033323.00,4496177,,,,2.4,1.5,4.8*7B
$GNZDA,033323.00,22,05,2025,00,00*7A
$GNGBS,033323.00,2.4,1.5,4.8,,,,*53
$GNTXT,01,01,01,More than 100 frame errors, UART RX was disabled*70
b0L]"
= O$A_% &/K%/;{'4V^$:R 
YVFG#I.1lJP#uT&gU'<V$b]YxI$GNRMC,033324.00,A,0419.88182,S,05539.59263,E,0.037,,220525,,,A*76
$GNVTG,,T,,M,0.037,N,0.068,K,A*37
$GNGNS,033324.00,0419.88182,S,05539.59263,E,AA,14,0.97,5.6,-47.6,,*56
$GNGGA,033324.00,0419.88182,S,05539.59263,E,1,12,0.97,5.6,M,-47.6,M,,*7A
$GNGSA,A,3,11,13,20,06,24,15,05,14,29,,,,2.06,0.97,1.82*12
$GNGSA,A,3,85,73,80,71,86,,,,,,,,2.06,0.97,1.82*14
$GPGSV,5,1,18,05,34,178,28,06,26,030,09,11,61,027,29,12,08,335,*7D
$GPGSV,5,2,18,13,36,190,25,14,14,095,08,15,28,230,37,19,02,032,*7B
$GPGSV,5,3,18,20,47,131,38,22,21,075,,24,47,315,37,29,11,262,30*76
$GPGSV,5,4,18,30,11,144,,36,52,277,39,40,86,350,,41,58,082,36*72
$GPGSV,5,5,18,49,32,274,,50,10,089,*78
$GLGSV,2,1,08,70,15,173,22,71,13,219,35,73,46,049,31,74,22,000,*6A
$GLGSV,2,2,08,80,26,117,35,84,38,359,,85,60,275,39,86,17,218,36*6F
$GNGLL,0419.88182,S,05539.59263,E,033324.00,A,A*69
$GNGRS,033324.00,1,0.3,-12.1,-0.6,-95.2,0.0,0.2,2.7,-132,-2.5,,,*41
$GNGRS,033324.00,1,-0.8,-9.2,2.2,-8.2,2.6,,,,,,,*5B
$GNGST,033324.00,20,,,,2.4,1.5,4.8*40
$GNZDA,033324.00,22,05,2025,00,00*7D
$GNGBS,033324.00,2.4,1.5,4.8,,,,*54
$GNTXT,01,01,01,More than 100 frame errors, UART RX was disabled*70
b0L]"P

=(O$m_$ &/K%/;T{'4V^&:R 
YVFG"I.1JP#uT&gU&<V$cb]Y`$GNRMC,033325.00,A,0419.88183,S,05539.59263,E,0.014,,220525,,,A*77
$GNVTG,,T,,M,0.014,N,0.026,K,A*3C
$GNGNS,033325.00,0419.88183,S,05539.59263,E,AA,14,0.73,5.7,-47.6,,*5D
$GNGGA,033325.00,0419.88183,S,05539.59263,E,1,12,0.73,5.7,M,-47.6,M,,*71
$GNGSA,A,3,11,13,20,06,24,15,05,14,29,,,,1.48,0.73,1.28*11
$GNGSA,A,3,85,73,80,71,86,,,,,,,,1.48,0.73,1.28*17
$GPGSV,5,1,18,05,34,178,28,06,26,030,10,11,61,027,29,12,08,335,*75
$GPGSV,5,2,18,13,36,190,24,14,14,095,11,15,28,230,36,19,02,032,*73
$GPGSV,5,3,18,20,47,131,38,22,21,075,,24,47,315,37,29,11,262,30*76
$GPGSV,5,4,18,30,11,144,,36,52,277,39,40,86,350,,41,58,082,38*7C
$GPGSV,5,5,18,49,32,274,,50,10,089,*78
$GLGSV,2,1,08,70,15,173,22,71,13,219,34,73,46,049,31,74,22,000,*6B
$GLGSV,2,2,08,80,26,117,35,84,38,359,,85,60,275,38,86,17,218,36*6E
$GNGLL,0419.88183,S,05539.59263,E,033325.00,A,A*69
$GNGRS,033325.00,1,0.4,-11.7,-0.6,9.4,0.0,0.0,0.8,15.0,-4.3,,,*54
$GNGRS,033325.00,1,-0.6,-5.4,2.0,-6.2,2.5,,,,,,,*51
$GNGST,033325.00,3205634,,,,2.4,1.5,4.8*76
$GNZDA,033325.00,22,05,2025,00,00*7C
$GNGBS,033325.00,2.4,1.5,4.8,,,,*55
$GNTXT,01,01,01,More than 100 frame errors, UART RX was disabled*70
b0L]"
=O$_$ &/K%/;{'4V^%:R 
YVFG"I .1JP#vT&gU&<V$?b]YH~$GNRMC,033326.00,A,0419.88182,S,05539.59263,E,0.034,,220525,,,A*77
$GNVTG,,T,,M,0.034,N,0.063,K,A*3F
$GNGNS,033326.00,0419.88182,S,05539.59263,E,AA,14,0.73,5.7,-47.6,,*5F
$GNGGA,033326.00,0419.88182,S,05539.59263,E,1,12,0.73,5.7,M,-47.6,M,,*73
$GNGSA,A,3,11,13,20,06,24,15,05,14,29,,,,1.48,0.73,1.28*11
$GNGSA,A,3,85,73,80,71,86,,,,,,,,1.48,0.73,1.28*17
$GPGSV,5,1,18,05,34,178,29,06,26,030,11,11,61,027,29,12,08,335,*75
$GPGSV,5,2,18,13,36,190,23,14,14,095,08,15,28,230,36,19,02,032,*7C
$GPGSV,5,3,18,20,47,131,38,22,21,075,,24,47,315,37,29,11,262,30*76
$GPGSV,5,4,18,30,11,144,,36,52,277,39,40,86,350,,41,58,082,37*73
$GPGSV,5,5,18,49,32,274,,50,10,089,*78
$GLGSV,2,1,08,70,15,173,22,71,13,219,34,73,46,049,32,74,22,000,*68
$GLGSV,2,2,08,80,26,118,35,84,38,359,,85,60,275,38,86,17,218,36*61
$GNGLL,0419.88182,S,05539.59263,E,033326.00,A,A*6B
$GNGRS,033326.00,1,2.1,-13.6,-0.7,9.4,0.2,-0.1,-0.8,15.0,-3.5,,,*50
$GNGRS,033326.00,1,-0.7,-5.5,2.2,-4.9,2.5,,,,,,,*59
$GNGST,033326.00,3205634,,,,2.3,1.5,4.8*72
$GNZDA,033326.00,22,05,2025,00,00*7F
$GNGBS,033326.00,2.3,1.5,4.8,,,,*51
$GNTXT,01,01,01,More than 100 frame errors, UART RX was disabled*70
b0L!]"
p=O$_% &/K%/;{'4V^%:R 
YVFG"I .1xJP#vT&gU&<V$ib!]Y0V$GNRMC,033327.00,A,0419.88181,S,05539.59263,E,0.038,,220525,,,A*79
$GNVTG,,T,,M,0.038,N,0.070,K,A*31
$GNGNS,033327.00,0419.88181,S,05539.59263,E,AA,14,0.97,5.6,-47.6,,*56
$GNGGA,033327.00,0419.88181,S,05539.59263,E,1,12,0.97,5.6,M,-47.6,M,,*7A
$GNGSA,A,3,11,13,20,06,24,15,05,14,29,,,,2.06,0.97,1.82*12
$GNGSA,A,3,85,73,80,71,86,,,,,,,,2.06,0.97,1.82*14
$GPGSV,5,1,18,05,34,178,29,06,26,030,09,11,61,027,29,12,08,335,*7C
$GPGSV,5,2,18,13,36,190,25,14,14,095,12,15,28,230,37,19,02,032,*70
$GPGSV,5,3,18,20,47,131,38,22,21,075,,24,47,315,37,29,11,262,29*7E
$GPGSV,5,4,18,30,11,144,,36,52,277,39,40,86,350,,41,58,082,37*73
$GPGSV,5,5,18,49,32,274,,50,10,089,*78
$GLGSV,2,1,08,70,15,173,22,71,13,219,34,73,46,049,32,74,22,000,*68
$GLGSV,2,2,08,80,26,118,35,84,38,359,,85,60,275,38,86,17,218,36*61
$GNGLL,0419.88181,S,05539.59263,E,033327.00,A,A*69
$GNGRS,033327.00,1,-0.1,-13.1,-0.5,-137,0.1,-0.3,-0.7,55.2,2.2,,,*63
$GNGRS,033327.00,1,-0.7,-3.9,2.2,-2.8,2.3,,,,,,,*53
$GNGST,033327.00,19,,,,2.3,1.5,4.8*4E
$GNZDA,033327.00,22,05,2025,00,00*7E
$GNGBS,033327.00,2.3,1.5,4.8,,,,*50
$GNTXT,01,01,01,More than 100 frame errors, UART RX was disabled*70
b0L%]"
=O$_$ &/K&/;{'4V^%:R 
YVFG!I .1DJP#vT&gU%<V$wb%]Y.$GNRMC,033328.00,A,0419.88179,S,05539.59264,E,0.016,,220525,,,A*7A
$GNVTG,,T,,M,0.016,N,0.030,K,A*39
$GNGNS,033328.00,0419.88179,S,05539.59264,E,AA,14,0.73,5.5,-47.6,,*50
$GNGGA,033328.00,0419.88179,S,05539.59264,E,1,12,0.73,5.5,M,-47.6,M,,*7C
$GNGSA,A,3,11,13,20,06,24,15,05,14,29,,,,1.48,0.73,1.28*11
$GNGSA,A,3,85,73,80,71,86,,,,,,,,1.48,0.73,1.28*17
$GPGSV,5,1,18,05,34,178,29,06,26,030,11,11,61,027,29,12,08,335,*75
$GPGSV,5,2,18,13,36,190,25,14,14,095,09,15,28,230,36,19,02,032,*7B
$GPGSV,5,3,18,20,47,131,38,22,21,075,,24,47,315,38,29,11,262,30*79
$GPGSV,5,4,18,30,11,144,,36,52,277,39,40,86,350,,41,58,082,37*73
$GPGSV,5,5,18,49,32,274,,50,10,089,*78
$GLGSV,2,1,08,70,15,173,22,71,13,219,33,73,46,049,32,74,22,000,*6F
$GLGSV,2,2,08,80,26,118,35,84,38,359,,85,60,275,37,86,17,218,36*6E
$GNGLL,0419.88179,S,05539.59264,E,033328.00,A,A*66
$GNGRS,033328.00,1,1.4,-12.8,-0.2,9.3,-0.1,-0.1,-0.4,15.0,1.9,,,*54
$GNGRS,033328.00,1,-0.5,0.7,2.0,-2.4,2.2,,,,,,,*71
$GNGST,033328.00,3205634,,,,2.3,1.5,4.8*7C
$GNZDA,033328.00,22,05,2025,00,00*71
$GNGBS,033328.00,2.3,1.5,4.8,,,,*5F
$GNTXT,01,01,01,More than 100 frame errors, UART RX was disabled*70
b0Lx)]"
=SO$_$ &/K&/;{'4V^&:R 
YVFG"lI .1JP#vT&gU%<V$bx)]YQ$GNRMC,033329.00,A,0419.88178,S,05539.59264,E,0.026,,220525,,,A*79
$GNVTG,,T,,M,0.026,N,0.048,K,A*35
$GNGNS,033329.00,0419.88178,S,05539.59264,E,AA,14,0.73,5.4,-47.6,,*51
$GNGGA,033329.00,0419.88178,S,05539.59264,E,1,12,0.73,5.4,M,-47.6,M,,*7D
$GNGSA,A,3,11,13,20,06,24,15,05,14,29,,,,1.48,0.73,1.28*11
$GNGSA,A,3,85,73,80,71,86,,,,,,,,1.48,0.73,1.28*17
$GPGSV,5,1,18,05,34,178,29,06,26,030,09,11,61,027,29,12,08,335,*7C
$GPGSV,5,2,18,13,36,190,25,14,14,095,08,15,28,230,36,19,02,032,*7A
$GPGSV,5,3,18,20,47,131,38,22,21,075,,24,47,315,38,29,11,262,29*71
$GPGSV,5,4,18,30,11,144,,36,52,277,39,40,86,350,,41,58,082,38*7C
$GPGSV,5,5,18,49,32,274,,50,10,089,*78
$GLGSV,2,1,08,70,15,173,22,71,13,219,34,73,46,049,32,74,22,000,*68
$GLGSV,2,2,08,80,26,118,35,84,38,359,,85,60,275,37,86,17,218,36*6E
$GNGLL,0419.88178,S,05539.59264,E,033329.00,A,A*66
$GNGRS,033329.00,1,0.8,-11.4,-0.2,9.1,-0.1,-0.2,0.2,14.8,0.2,,,*7E
$GNGRS,033329.00,1,0.1,-2.5,1.9,-1.5,2.0,,,,,,,*7E
$GNGST,033329.00,3205634,,,,2.3,1.5,4.8*7D
$GNZDA,033329.00,22,05,2025,00,00*70
$GNGBS,033329.00,2.3,1.5,4.8,,,,*5E
$GNTXT,01,01,01,More than 100 frame errors, UART RX was disabled*70
b0L`-]"
I=O$
_$ &/K&/;\{'4V^&:R 
YVFG"NI .1JP#vT&hU%<V$Eb`-]Y$GNRMC,033330.00,A,0419.88178,S,05539.59263,E,0.042,,220525,,,A*74
$GNVTG,,T,,M,0.042,N,0.078,K,A*34
$GNGNS,033330.00,0419.88178,S,05539.59263,E,AA,14,0.79,5.4,-47.6,,*54
$GNGGA,033330.00,0419.88178,S,05539.59263,E,1,12,0.79,5.4,M,-47.6,M,,*78
$GNGSA,A,3,11,13,20,06,24,15,05,14,29,,,,1.67,0.79,1.47*1F
$GNGSA,A,3,85,73,80,71,86,,,,,,,,1.67,0.79,1.47*19
$GPGSV,5,1,18,05,34,178,30,06,26,030,11,11,61,027,29,12,08,335,*7D
$GPGSV,5,2,18,13,36,190,25,14,14,095,10,15,28,230,36,19,02,032,*73
$GPGSV,5,3,18,20,47,131,38,22,21,075,,24,47,315,38,29,11,262,29*71
$GPGSV,5,4,18,30,11,144,,36,52,277,39,40,86,350,,41,58,082,38*7C
$GPGSV,5,5,18,49,32,274,,50,10,089,*78
$GLGSV,2,1,08,70,15,173,22,71,13,219,34,73,46,049,32,74,22,000,*68
$GLGSV,2,2,08,80,26,118,35,84,38,360,,85,60,275,37,86,17,218,36*64
$GNGLL,0419.88178,S,05539.59263,E,033330.00,A,A*69
$GNGRS,033330.00,1,-0.5,-10.8,-0.3,-12.1,-0.3,-0.2,-0.5,-65.0,-1.6,,,*6E
$GNGRS,033330.00,1,0.1,-2.8,1.9,-1.8,2.2,,,,,,,*74
$GNGST,033330.00,38,,,,2.3,1.5,4.8*4B
$GNZDA,033330.00,22,05,2025,00,00*78
$GNGBS,033330.00,2.3,1.5,4.8,,,,*56
$GNTXT,01,01,01,More than 100 frame errors, UART RX was disabled*70
b0LH1]"c
=?O$\
_$ &/K&/;{'4V^%:R 
YVFG"%I .1JP#vT&hU%<V$^bH1]Y$GNRMC,033331.00,A,0419.88177,S,05539.59262,E,0.030,,220525,,,A*7E
$GNVTG,,T,,M,0.030,N,0.056,K,A*3D
$GNGNS,033331.00,0419.88177,S,05539.59262,E,AA,14,0.73,5.3,-47.6,,*56
$GNGGA,033331.00,0419.88177,S,05539.59262,E,1,12,0.73,5.3,M,-47.6,M,,*7A
$GNGSA,A,3,11,13,20,06,24,15,05,14,29,,,,1.48,0.73,1.28*11
$GNGSA,A,3,85,73,80,71,86,,,,,,,,1.48,0.73,1.28*17
$GPGSV,5,1,18,05,34,178,29,06,26,030,08,11,61,027,29,12,08,335,*7D
$GPGSV,5,2,18,13,36,190,25,14,14,095,10,15,28,230,36,19,02,032,*73
$GPGSV,5,3,18,20,47,131,38,22,21,075,,24,47,315,38,29,11,262,29*71
$GPGSV,5,4,18,30,11,144,,36,52,277,39,40,86,350,,41,58,082,37*73
$GPGSV,5,5,18,49,32,274,,50,10,089,*78
$GLGSV,2,1,08,70,15,173,23,71,13,219,34,73,46,049,32,74,22,000,*69
$GLGSV,2,2,08,80,26,118,35,84,38,360,,85,60,276,37,86,17,218,36*67
$GNGLL,0419.88177,S,05539.59262,E,033331.00,A,A*66
$GNGRS,033331.00,1,3.2,-11.9,-0.2,9.6,-0.4,-0.2,-1.6,15.1,0.2,,,*51
$GNGRS,033331.00,1,0.3,-3.5,1.9,-2.2,2.0,,,,,,,*70
$GNGST,033331.00,3180058,,,,2.2,1.5,4.8*77
$GNZDA,033331.00,22,05,2025,00,00*79
$GNGBS,033331.00,2.2,1.5,4.8,,,,*56
$GNTXT,01,01,01,More than 100 frame errors, UART RX was disabled*70
b0L05]"
=O$V_# &/K&/;{'4V^%:R 
YVFG"I .1JP#vT&hU%<V$,b05]Y$GNRMC,033332.00,A,0419.88179,S,05539.59261,E,0.025,,220525,,,A*74
$GNVTG,,T,,M,0.025,N,0.047,K,A*39
$GNGNS,033332.00,0419.88179,S,05539.59261,E,AA,14,0.73,5.4,-47.6,,*5F
$GNGGA,033332.00,0419.88179,S,05539.59261,E,1,12,0.73,5.4,M,-47.6,M,,*73
$GNGSA,A,3,11,13,20,06,24,15,05,14,29,,,,1.48,0.73,1.28*11
$GNGSA,A,3,85,73,80,71,86,,,,,,,,1.48,0.73,1.28*17
$GPGSV,5,1,18,05,34,178,29,06,26,030,08,11,61,027,29,12,08,335,*7D
$GPGSV,5,2,18,13,36,190,25,14,14,095,09,15,28,230,35,19,02,032,*78
$GPGSV,5,3,18,20,47,131,38,22,21,075,,24,47,315,38,29,11,262,30*79
$GPGSV,5,4,18,30,11,144,,36,52,277,39,40,86,350,,41,58,082,37*73
$GPGSV,5,5,18,49,32,274,,50,10,089,*78
$GLGSV,2,1,08,70,15,173,23,71,13,219,34,73,46,049,32,74,22,000,*69
$GLGSV,2,2,08,80,26,118,35,84,38,360,,85,60,276,37,86,17,219,36*66
$GNGLL,0419.88179,S,05539.59261,E,033332.00,A,A*68
$GNGRS,033332.00,1,2.4,-11.9,-0.5,9.8,-0.5,0.0,0.3,15.0,-2.6,,,*71
$GNGRS,033332.00,1,-0.1,-5.6,1.9,-2.5,2.0,,,,,,,*5E
$GNGST,033332.00,3180931,,,,2.2,1.5,4.8*72
$GNZDA,033332.00,22,05,2025,00,00*7A
$GNGBS,033332.00,2.2,1.5,4.8,,,,*55
$GNTXT,01,01,01,More than 100 frame errors, UART RX was disabled*70
b0L9]"
J=O$_0! $/K"/;3{$4V^#:R 
YVFG!I.1PJP vT&hU$<V"Pb9]Ye$GNRMC,033333.00,A,0419.88179,S,05539.59261,E,0.017,,220525,,,A*74
$GNVTG,,T,,M,0.017,N,0.032,K,A*3A
$GNGNS,033333.00,0419.88179,S,05539.59261,E,AA,14,0.97,5.4,-47.6,,*54
$GNGGA,033333.00,0419.88179,S,05539.59261,E,1,12,0.97,5.4,M,-47.6,M,,*78
$GNGSA,A,3,11,13,20,06,24,15,05,14,29,,,,2.06,0.97,1.82*12
$GNGSA,A,3,85,73,80,71,86,,,,,,,,2.06,0.97,1.82*14
$GPGSV,5,1,18,05,34,178,28,06,26,030,09,11,61,027,28,12,08,335,*7C
$GPGSV,5,2,18,13,36,190,23,14,14,095,09,15,28,230,33,19,02,032,*78
$GPGSV,5,3,18,20,47,131,36,22,21,075,,24,47,315,34,29,11,262,29*73
$GPGSV,5,4,18,30,11,144,,36,52,277,36,40,86,350,,41,58,082,35*7E
$GPGSV,5,5,18,49,32,274,,50,10,089,*78
$GLGSV,2,1,08,70,15,173,22,71,13,219,33,73,46,049,31,74,22,000,*6C
$GLGSV,2,2,08,80,26,118,32,84,38,360,,85,60,276,36,86,17,219,34*62
$GNGLL,0419.88179,S,05539.59261,E,033333.00,A,A*69
$GNGRS,033333.00,1,1.6,-11.4,-0.4,72.4,-0.3,-0.5,1.4,123,-4.6,,,*49
$GNGRS,033333.00,1,0.2,-4.3,1.7,-2.6,1.8,,,,,,,*73
$GNGST,033333.00,23,,,,2.3,1.5,4.8*42
$GNZDA,033333.00,22,05,2025,00,00*7B
$GNGBS,033333.00,2.3,1.5,4.8,,,,*55
$GNTXT,01,01,01,More than 100 frame errors, UART RX was disabled*70
b0L=]"V
=O$K_# $/K$/;{&4V^$:R 
YVFG!5I.1ZJP#vT&hU%<5V#sb=]Y=V$GNRMC,033334.00,A,0419.88179,S,05539.59262,E,0.029,,220525,,,A*7D
$GNVTG,,T,,M,0.029,N,0.054,K,A*37
$GNGNS,033334.00,0419.88179,S,05539.59262,E,AA,13,0.79,5.4,-47.6,,*57
$GNGGA,033334.00,0419.88179,S,05539.59262,E,1,12,0.79,5.4,M,-47.6,M,,*7C
$GNGSA,A,3,11,13,20,06,24,15,05,29,,,,,1.67,0.79,1.47*1A
$GNGSA,A,3,85,73,80,71,86,,,,,,,,1.67,0.79,1.47*19
$GPGSV,5,1,18,05,34,178,28,06,26,030,07,11,61,027,28,12,08,335,*72
$GPGSV,5,2,18,13,36,190,22,14,14,095,06,15,28,230,35,19,02,032,*70
$GPGSV,5,3,18,20,47,131,36,22,21,075,,24,47,315,36,29,11,262,29*71
$GPGSV,5,4,18,30,11,144,,36,52,277,38,40,86,350,,41,58,082,36*73
$GPGSV,5,5,18,49,32,274,,50,10,089,*78
$GLGSV,2,1,08,70,15,173,23,71,13,219,33,73,46,049,31,74,22,000,*6D
$GLGSV,2,2,08,80,26,118,35,84,38,360,,85,60,276,37,86,17,219,35*65
$GNGLL,0419.88179,S,05539.59262,E,033334.00,A,A*6D
$GNGRS,033334.00,1,4.5,-12.0,-0.4,9.4,-0.3,-0.6,3.4,-2.7,,,,*45
$GNGRS,033334.00,1,0.5,-4.2,1.5,-4.6,1.9,,,,,,,*77
$GNGST,033334.00,3299292,,,,2.3,1.5,4.9*7D
$GNZDA,033334.00,22,05,2025,00,00*7C
$GNGBS,033334.00,2.3,1.5,4.9,,,,*53
$GNTXT,01,01,01,More than 100 frame errors, UART RX was disabled*70
b0L@]"x
=O$_$ &/K%/;~{'4V^%:R 
YVFG"
I .1bJP%vT&hU%<JV$ZRb@]Yp$GNRMC,033335.00,A,0419.88182,S,05539.59262,E,0.054,,220525,,,A*72
$GNVTG,,T,,M,0.054,N,0.100,K,A*3D
$GNGNS,033335.00,0419.88182,S,05539.59262,E,AA,14,0.73,5.5,-47.6,,*5E
$GNGGA,033335.00,0419.88182,S,05539.59262,E,1,12,0.73,5.5,M,-47.6,M,,*72
$GNGSA,A,3,11,13,20,06,24,15,05,14,29,,,,1.48,0.73,1.28*11
$GNGSA,A,3,85,73,80,71,86,,,,,,,,1.48,0.73,1.28*17
$GPGSV,5,1,18,05,34,178,28,06,26,030,12,11,61,027,28,12,08,335,*76
$GPGSV,5,2,18,13,36,190,22,14,14,095,09,15,28,230,36,19,02,032,*7C
$GPGSV,5,3,18,20,47,131,38,22,21,075,,24,47,315,37,29,11,262,30*76
$GPGSV,5,4,18,30,11,144,,36,52,277,39,40,86,350,,41,58,082,37*73
$GPGSV,5,5,18,49,32,274,,50,10,089,*78
$GLGSV,2,1,08,70,15,173,23,71,13,219,34,73,46,049,32,74,22,000,*69
$GLGSV,2,2,08,80,26,118,37,84,38,360,,85,60,276,37,86,17,219,36*64
$GNGLL,0419.88182,S,05539.59262,E,033335.00,A,A*68
$GNGRS,033335.00,1,2.1,-11.3,-0.4,9.4,-0.5,-0.6,-1.4,14.9,-1.3,,,*7A
$GNGRS,033335.00,1,0.7,-4.1,1.6,-2.5,2.2,,,,,,,*79
$GNGST,033335.00,4496177,,,,2.3,1.5,4.9*7A
$GNZDA,033335.00,22,05,2025,00,00*7D
$GNGBS,033335.00,2.3,1.5,4.9,,,,*52
$GNTXT,01,01,01,More than 100 frame errors, UART RX was disabled*70
b0LD]"
c=O$_a% %/K%/;Y{'4V^%:R 
YVFG#I.1JP"vT&hU&<`V%bD]YX$GNRMC,033336.00,A,0419.88181,S,05539.59262,E,0.062,,220525,,,A*77
$GNVTG,,T,,M,0.062,N,0.114,K,A*3D
$GNGNS,033336.00,0419.88181,S,05539.59262,E,AA,14,0.97,5.5,-47.6,,*54
$GNGGA,033336.00,0419.88181,S,05539.59262,E,1,12,0.97,5.5,M,-47.6,M,,*78
$GNGSA,A,3,11,13,20,06,24,15,05,14,29,,,,2.06,0.97,1.82*12
$GNGSA,A,3,85,73,80,71,86,,,,,,,,2.06,0.97,1.82*14
$GPGSV,5,1,18,05,34,178,28,06,26,030,13,11,61,027,28,12,08,335,*77
$GPGSV,5,2,18,13,36,190,20,14,14,095,11,15,28,230,37,19,02,032,*76
$GPGSV,5,3,18,20,47,131,37,22,21,075,,24,47,315,37,29,11,262,29*71
$GPGSV,5,4,18,30,11,144,,36,52,277,39,40,86,350,,41,58,082,37*73
$GPGSV,5,5,18,49,32,274,,50,10,089,*78
$GLGSV,2,1,08,70,15,173,23,71,13,219,35,73,46,049,30,74,22,000,*6A
$GLGSV,2,2,08,80,26,118,34,84,38,360,,85,60,276,38,86,17,219,37*69
$GNGLL,0419.88181,S,05539.59262,E,033336.00,A,A*68
$GNGRS,033336.00,1,-0.9,-11.3,-0.5,-42.5,-0.5,-0.6,-0.6,36.8,0.9,,,*68
$GNGRS,033336.00,1,1.0,-5.1,1.6,-5.0,2.1,,,,,,,*7C
$GNGST,033336.00,23,,,,2.3,1.5,4.9*46
$GNZDA,033336.00,22,05,2025,00,00*7E
$GNGBS,033336.00,2.3,1.5,4.9,,,,*51
$GNTXT,01,01,01,More than 100 frame errors, UART RX was disabled*70
b0LH]"
=O$_" '/K%/;{'4V^(:R 
YVFG#I .1JP vT&hU'<RV$=bH]Y@$GNRMC,033337.00,A,0419.88183,S,05539.59259,E,0.014,,220525,,,A*7D
$GNVTG,,T,,M,0.014,N,0.025,K,A*3F
$GNGNS,033337.00,0419.88183,S,05539.59259,E,AA,14,0.73,5.8,-47.6,,*58
$GNGGA,033337.00,0419.88183,S,05539.59259,E,1,12,0.73,5.8,M,-47.6,M,,*74
$GNGSA,A,3,11,13,20,06,24,15,05,14,29,,,,1.48,0.73,1.28*11
$GNGSA,A,3,85,73,80,71,86,,,,,,,,1.48,0.73,1.28*17
$GPGSV,5,1,18,05,34,178,28,06,26,030,12,11,61,027,30,12,08,335,*7F
$GPGSV,5,2,18,13,36,190,19,14,14,095,08,15,28,230,34,19,02,032,*77
$GPGSV,5,3,18,20,47,131,39,22,21,075,,24,47,315,37,29,11,262,29*7F
$GPGSV,5,4,18,30,11,144,,36,52,277,39,40,86,350,,41,58,082,40*73
$GPGSV,5,5,18,49,32,274,,50,10,089,*78
$GLGSV,2,1,08,70,15,173,22,71,13,219,35,73,46,049,32,74,22,000,*69
$GLGSV,2,2,08,80,26,118,32,84,38,360,,85,60,276,39,86,17,219,36*6F
$GNGLL,0419.88183,S,05539.59259,E,033337.00,A,A*63
$GNGRS,033337.00,1,5.1,-10.3,-0.5,9.6,-0.6,-0.6,-3.4,15.5,-3.0,,,*70
$GNGRS,033337.00,1,0.8,-8.9,2.0,-10.5,2.0,,,,,,,*44
$GNGST,033337.00,4496177,,,,2.3,1.5,4.8*79
$GNZDA,033337.00,22,05,2025,00,00*7F
$GNGBS,033337.00,2.3,1.5,4.8,,,,*51
$GNTXT,01,01,01,More than 100 frame errors, UART RX was disabled*70
b0LL]"J
=O$O_%" '/K$/;{'4V^(:R 
YVFG"\I!.1HJP vT&hU'<eV$bL]Y($GNRMC,033338.00,A,0419.88186,S,05539.59257,E,0.035,,220525,,,A*7A
$GNVTG,,T,,M,0.035,N,0.064,K,A*39
$GNGNS,033338.00,0419.88186,S,05539.59257,E,AA,14,0.73,6.0,-47.6,,*57
$GNGGA,033338.00,0419.88186,S,05539.59257,E,1,12,0.73,6.0,M,-47.6,M,,*7B
$GNGSA,A,3,11,13,20,06,24,15,05,14,29,,,,1.48,0.73,1.28*11
$GNGSA,A,3,85,73,80,71,86,,,,,,,,1.48,0.73,1.28*17
$GPGSV,5,1,18,05,34,178,27,06,26,030,11,11,61,027,29,12,08,335,*7B
$GPGSV,5,2,18,13,36,190,23,14,14,095,11,15,28,230,34,19,02,032,*76
$GPGSV,5,3,18,20,47,131,39,22,21,075,,24,47,315,36,29,11,262,29*7E
$GPGSV,5,4,18,30,11,144,,36,52,277,39,40,86,350,,41,58,082,40*73
$GPGSV,5,5,18,49,32,274,,50,10,089,*78
$GLGSV,2,1,08,70,15,173,22,71,13,219,34,73,46,049,33,74,22,000,*69
$GLGSV,2,2,08,80,26,118,32,84,38,360,,85,60,276,39,86,17,219,36*6F
$GNGLL,0419.88186,S,05539.59257,E,033338.00,A,A*67
$GNGRS,033338.00,1,4.4,-6.9,-0.3,9.6,-0.7,-0.7,-1.8,15.7,-3.0,,,*4C
$GNGRS,033338.00,1,1.0,-7.0,2.1,-9.3,2.4,,,,,,,*7F
$GNGST,033338.00,4496177,,,,2.3,1.5,4.8*76
$GNZDA,033338.00,22,05,2025,00,00*70
$GNGBS,033338.00,2.3,1.5,4.8,,,,*5E
$GNTXT,01,01,01,More than 100 frame errors, UART RX was disabled*70
b0LP]"

=O$_+# &/K$/;}{'4V^(:R 
YVFG"I!.1JP vT&hU'<gV$hbP]YuQ$GNRMC,033339.00,A,0419.88190,S,05539.59254,E,0.018,,220525,,,A*70
$GNVTG,,T,,M,0.018,N,0.034,K,A*33
$GNGNS,033339.00,0419.88190,S,05539.59254,E,AA,14,0.79,6.2,-47.6,,*5A
$GNGGA,033339.00,0419.88190,S,05539.59254,E,1,12,0.79,6.2,M,-47.6,M,,*76
$GNGSA,A,3,11,13,20,06,24,15,05,14,29,,,,1.67,0.79,1.47*1F
$GNGSA,A,3,85,73,80,71,86,,,,,,,,1.67,0.79,1.47*19
$GPGSV,5,1,18,05,34,177,27,06,26,030,10,11,61,027,29,12,08,335,*75
$GPGSV,5,2,18,13,36,190,24,14,14,095,13,15,28,230,35,19,02,032,*72
