b0L ,X! 
@M"&
]H$/Ig-={4#U`:R 
YUGFGI,-JgPrT)gU<V
b ,XYQT$GNRMC,032802.00,A,0419.88852,S,05539.59887,E,0.311,,220525,,,A*7B
$GNVTG,,T,,M,0.311,N,0.577,K,A*3B
$GNGNS,032802.00,0419.88852,S,05539.59887,E,AA,13,0.82,7.7,-47.6,,*5C
$GNGGA,032802.00,0419.88852,S,05539.59887,E,1,12,0.82,7.7,M,-47.6,M,,*77
$GNGSA,A,3,11,13,20,06,15,05,22,29,,,,,1.61,0.82,1.39*17
$GNGSA,A,3,85,73,80,71,86,,,,,,,,1.61,0.82,1.39*12
$GPGSV,5,1,18,05,32,179,33,06,28,031,12,11,64,029,29,12,07,333,*77
$GPGSV,5,2,18,13,38,192,34,14,14,093,,15,28,232,24,19,03,030,*7A
$GPGSV,5,3,18,20,47,135,36,22,20,073,11,24,45,317,18,29,11,260,26*73
$GPGSV,5,4,18,30,12,143,16,36,52,277,,40,85,352,35,41,58,082,*79
$GPGSV,5,5,18,49,32,274,,50,10,089,*78
$GLGSV,2,1,08,70,15,176,,71,14,222,17,73,44,045,24,74,19,359,*6D
$GLGSV,2,2,08,80,27,114,21,84,41,359,,85,60,268,29,86,15,217,20*61
$GNGLL,0419.88852,S,05539.59887,E,032802.00,A,A*63
$GNGRS,032802.00,1,2.1,0.1,-0.6,11.9,5.8,-0.8,11.3,2.6,,,,*54
$GNGRS,032802.00,1,-12.5,4.1,-2.4,-5.4,-29.4,,,,,,,*7E
$GNGST,032802.00,3434011,,,,3.7,3.2,12*5A
$GNZDA,032802.00,22,05,2025,00,00*73
$GNGBS,032802.00,3.7,3.2,12.5,,,,*67
$GNTXT,01,01,01,More than 100 frame errors, UART RX was disabled*70
b0L0X% 
@M&&](/I/-=E{4&U`:R 
YUFGOI,-JgPrT)gU<V:<b0XY)$GNRMC,032803.00,A,0419.88839,S,05539.59889,E,0.210,,220525,,,A*79
$GNVTG,,T,,M,0.210,N,0.388,K,A*3D
$GNGNS,032803.00,0419.88839,S,05539.59889,E,AA,12,0.91,6.7,-47.6,,*5C
$GNGGA,032803.00,0419.88839,S,05539.59889,E,1,12,0.91,6.7,M,-47.6,M,,*76
$GNGSA,A,3,11,13,20,15,05,22,29,,,,,,1.68,0.91,1.41*15
$GNGSA,A,3,85,73,80,71,86,,,,,,,,1.68,0.91,1.41*16
$GPGSV,5,1,18,05,32,179,37,06,28,031,09,11,64,029,29,12,07,333,*79
$GPGSV,5,2,18,13,38,192,38,14,14,093,,15,28,232,23,19,03,030,*71
$GPGSV,5,3,18,20,47,135,40,22,20,073,11,24,45,317,17,29,11,260,23*78
$GPGSV,5,4,18,30,12,143,14,36,52,277,,40,85,352,38,41,58,082,*76
$GPGSV,5,5,18,49,32,274,,50,10,089,*78
$GLGSV,2,1,08,70,15,176,,71,14,222,13,73,44,045,21,74,19,359,*6C
$GLGSV,2,2,08,80,27,114,18,84,41,359,,85,60,268,26,86,15,217,17*60
$GNGLL,0419.88839,S,05539.59889,E,032803.00,A,A*61
$GNGRS,032803.00,1,0.3,0.1,-0.3,5.1,-0.9,10.7,2.5,,,,,*49
$GNGRS,032803.00,1,-12.5,4.4,-3.2,-1.8,-19.9,,,,,,,*7B
$GNGST,032803.00,3434011,,,,3.7,3.1,13*59
$GNZDA,032803.00,22,05,2025,00,00*72
$GNGBS,032803.00,3.7,3.1,12.6,,,,*66
$GNTXT,01,01,01,More than 100 frame errors, UART RX was disabled*70
b0L3X( 
!@M'&]G)/I-=={4%U`:R 
YUFGI,-JgPrT)gU<V"b3XYx$GNRMC,032804.00,A,0419.88830,S,05539.59886,E,0.173,,220525,,,A*7E
$GNVTG,,T,,M,0.173,N,0.320,K,A*39
$GNGNS,032804.00,0419.88830,S,05539.59886,E,AA,12,1.03,6.1,-47.6,,*51
$GNGGA,032804.00,0419.88830,S,05539.59886,E,1,12,1.03,6.1,M,-47.6,M,,*7B
$GNGSA,A,3,11,13,20,15,05,22,29,,,,,,2.05,1.03,1.77*12
$GNGSA,A,3,85,73,80,71,86,,,,,,,,2.05,1.03,1.77*11
$GPGSV,5,1,18,05,32,179,40,06,28,031,09,11,64,029,33,12,07,333,*72
$GPGSV,5,2,18,13,38,192,39,14,14,093,13,15,28,232,22,19,03,030,*73
$GPGSV,5,3,18,20,47,135,41,22,20,073,11,24,45,317,18,29,11,260,21*74
$GPGSV,5,4,18,30,12,143,12,36,52,277,,40,85,352,37,41,58,082,*7F
$GPGSV,5,5,18,49,32,274,,50,10,089,*78
$GLGSV,2,1,08,70,15,176,,71,14,222,11,73,44,045,16,74,19,359,*6A
$GLGSV,2,2,08,80,27,114,15,84,41,359,,85,60,268,25,86,15,217,11*68
$GNGLL,0419.88830,S,05539.59886,E,032804.00,A,A*60
$GNGRS,032804.00,1,-0.3,0.0,-0.2,2.5,-0.3,22.1,2.1,,,,,*69
$GNGRS,032804.00,1,-11.4,4.8,-2.8,1.5,-20.8,,,,,,,*52
$GNGST,032804.00,55,,,,3.7,3.1,13*6E
$GNZDA,032804.00,22,05,2025,00,00*75
$GNGBS,032804.00,3.7,3.1,12.5,,,,*62
$GNTXT,01,01,01,More than 100 frame errors, UART RX was disabled*70
b0L7X( 
!@M'&]M)/IP-={4'U`:R 
YUFGI,-)JgPrT)gU<Vb7XY`}$GNRMC,032805.00,A,0419.88825,S,05539.59887,E,0.141,,220525,,,A*7B
$GNVTG,,T,,M,0.141,N,0.262,K,A*3F
$GNGNS,032805.00,0419.88825,S,05539.59887,E,AA,13,0.82,6.1,-47.6,,*5C
$GNGGA,032805.00,0419.88825,S,05539.59887,E,1,12,0.82,6.1,M,-47.6,M,,*77
$GNGSA,A,3,11,13,20,24,15,05,22,29,,,,,1.66,0.82,1.44*1A
$GNGSA,A,3,85,73,80,71,86,,,,,,,,1.66,0.82,1.44*1F
$GPGSV,5,1,18,05,32,179,40,06,28,031,09,11,64,029,33,12,07,333,*72
$GPGSV,5,2,18,13,38,192,39,14,14,093,12,15,28,232,23,19,03,030,*73
$GPGSV,5,3,18,20,47,135,41,22,20,073,11,24,45,317,19,29,11,260,24*70
$GPGSV,5,4,18,30,12,143,15,36,52,277,,40,85,352,39,41,58,082,*76
$GPGSV,5,5,18,49,32,274,,50,10,089,*78
$GLGSV,2,1,08,70,15,176,,71,14,222,19,73,44,045,18,74,19,359,*6C
$GLGSV,2,2,08,80,27,114,19,84,41,359,,85,60,268,31,86,15,217,21*62
$GNGLL,0419.88825,S,05539.59887,E,032805.00,A,A*64
$GNGRS,032805.00,1,-0.8,-0.1,-0.2,-1.0,0.8,-0.8,11.0,2.4,,,,*4D
$GNGRS,032805.00,1,-6.2,3.0,-3.0,0.2,-21.4,,,,,,,*6E
$GNGST,032805.00,138468,,,,3.7,3.0,12*6F
$GNZDA,032805.00,22,05,2025,00,00*74
$GNGBS,032805.00,3.7,3.0,12.4,,,,*63
$GNTXT,01,01,01,More than 100 frame errors, UART RX was disabled*70
b0L;X( 
% @M(&
])/I-={4'U`:R 
YUFGI,-7JgPrT)gU<MVvb;XYH$GNRMC,032806.00,A,0419.88818,S,05539.59896,E,0.090,,220525,,,A*7B
$GNVTG,,T,,M,0.090,N,0.166,K,A*35
$GNGNS,032806.00,0419.88818,S,05539.59896,E,AA,14,0.82,5.5,-47.6,,*51
$GNGGA,032806.00,0419.88818,S,05539.59896,E,1,12,0.82,5.5,M,-47.6,M,,*7D
$GNGSA,A,3,11,13,20,06,24,15,05,22,29,,,,1.66,0.82,1.44*1C
$GNGSA,A,3,85,73,80,71,86,,,,,,,,1.66,0.82,1.44*1F
$GPGSV,5,1,18,05,32,179,40,06,28,031,09,11,64,029,32,12,07,333,*73
$GPGSV,5,2,18,13,38,192,40,14,14,093,10,15,28,232,24,19,03,030,*78
$GPGSV,5,3,18,20,47,135,41,22,20,073,11,24,45,317,17,29,11,260,26*7C
$GPGSV,5,4,18,30,12,143,15,36,52,277,,40,85,352,39,41,58,082,*76
$GPGSV,5,5,18,49,32,274,,50,10,089,*78
$GLGSV,2,1,08,70,15,176,,71,14,222,22,73,44,045,19,74,19,359,*65
$GLGSV,2,2,08,80,27,114,20,84,41,359,,85,60,268,31,86,15,217,13*69
$GNGLL,0419.88818,S,05539.59896,E,032806.00,A,A*69
$GNGRS,032806.00,1,-0.6,-0.4,0.1,38.8,6.8,0.2,0.1,10.4,-0.4,,,*50
$GNGRS,032806.00,1,-4.3,0.6,-1.3,1.6,-21.9,,,,,,,*62
$GNGST,032806.00,207702,,,,3.7,3.0,12*6C
$GNZDA,032806.00,22,05,2025,00,00*77
$GNGBS,032806.00,3.7,3.0,12.2,,,,*66
$GNTXT,01,01,01,More than 100 frame errors, UART RX was disabled*70
b0L?X( 
V @M'&])/I-={4'U`:R 
YUFGI,-5JgPrjT)gU<ZVp6'b?XY0O$GNRMC,032807.00,A,0419.88817,S,05539.59900,E,0.085,,220525,,,A*7F
$GNVTG,,T,,M,0.085,N,0.157,K,A*33
$GNGNS,032807.00,0419.88817,S,05539.59900,E,AA,14,0.81,5.4,-47.6,,*53
$GNGGA,032807.00,0419.88817,S,05539.59900,E,1,12,0.81,5.4,M,-47.6,M,,*7F
$GNGSA,A,3,11,13,20,06,24,15,05,22,29,,,,1.63,0.81,1.41*1F
$GNGSA,A,3,85,73,80,71,86,,,,,,,,1.63,0.81,1.41*1C
$GPGSV,5,1,18,05,32,179,40,06,28,031,08,11,64,029,32,12,07,333,*72
$GPGSV,5,2,18,13,38,192,39,14,14,093,08,15,28,232,25,19,03,030,*7E
$GPGSV,5,3,18,20,47,135,41,22,20,073,14,24,45,317,17,29,11,260,25*7A
$GPGSV,5,4,18,30,12,143,17,36,52,277,,40,85,352,39,41,58,082,*74
$GPGSV,5,5,18,49,32,274,,50,10,089,*78
$GLGSV,2,1,08,70,15,176,,71,14,222,23,73,44,045,20,74,19,359,*6E
$GLGSV,2,2,08,80,27,114,21,84,41,359,,85,60,268,31,86,15,217,18*63
$GNGLL,0419.88817,S,05539.59900,E,032807.00,A,A*69
$GNGRS,032807.00,1,-0.6,-0.6,0.0,46.9,4.1,-0.3,0.1,-6.4,-0.6,,,*65
$GNGRS,032807.00,1,-1.7,0.5,-1.5,0.2,-19.4,,,,,,,*64
$GNGST,032807.00,53,,,,3.7,2.9,12*63
$GNZDA,032807.00,22,05,2025,00,00*76
$GNGBS,032807.00,3.7,2.9,12.0,,,,*6D
$GNTXT,01,01,01,More than 100 frame errors, UART RX was disabled*70
b0LCX( v
~ @\M'&]&)/I-={4&U`:R 
YUFGpI,-JgPrT)gU<.VZJ@bCXYa$GNRMC,032808.00,A,0419.88816,S,05539.59905,E,0.135,,220525,,,A*7E
$GNVTG,,T,,M,0.135,N,0.250,K,A*3D
$GNGNS,032808.00,0419.88816,S,05539.59905,E,AA,13,0.81,6.0,-47.6,,*58
$GNGGA,032808.00,0419.88816,S,05539.59905,E,1,12,0.81,6.0,M,-47.6,M,,*73
$GNGSA,A,3,11,13,20,24,15,05,22,29,,,,,1.63,0.81,1.41*19
$GNGSA,A,3,85,73,80,71,86,,,,,,,,1.63,0.81,1.41*1C
$GPGSV,5,1,18,05,32,179,40,06,28,031,08,11,64,029,32,12,07,333,*72
$GPGSV,5,2,18,13,38,192,39,14,14,093,08,15,28,232,23,19,03,030,*78
$GPGSV,5,3,18,20,47,135,41,22,20,073,14,24,45,317,19,29,11,260,27*76
$GPGSV,5,4,18,30,12,143,16,36,52,277,,40,85,352,38,41,58,082,*74
$GPGSV,5,5,18,49,32,274,,50,10,089,*78
$GLGSV,2,1,08,70,15,176,,71,14,222,23,73,44,045,20,74,19,359,*6E
$GLGSV,2,2,08,80,27,114,21,84,41,359,,85,60,268,31,86,15,217,20*68
$GNGLL,0419.88816,S,05539.59905,E,032808.00,A,A*62
$GNGRS,032808.00,1,0.9,-0.6,0.3,4.6,-2.2,-1.4,11.6,-0.6,,,,*6A
$GNGRS,032808.00,1,-4.7,-0.6,-2.3,1.1,-17.0,,,,,,,*4D
$GNGST,032808.00,186250,,,,3.7,2.8,12*63
$GNZDA,032808.00,22,05,2025,00,00*79
$GNGBS,032808.00,3.7,2.8,11.7,,,,*67
$GNTXT,01,01,01,More than 100 frame errors, UART RX was disabled*70
b0LxGX( 
r @M(&]d)/Ig-=w{4&U`:R 
YUFGI,-8JgPraT)gU#<OVbxGXY
9$GNRMC,032809.00,A,0419.88809,S,05539.59919,E,0.150,,220525,,,A*7F
$GNVTG,,T,,M,0.150,N,0.278,K,A*34
$GNGNS,032809.00,0419.88809,S,05539.59919,E,AA,13,0.81,5.4,-47.6,,*5D
$GNGGA,032809.00,0419.88809,S,05539.59919,E,1,12,0.81,5.4,M,-47.6,M,,*76
$GNGSA,A,3,11,13,20,24,15,05,22,29,,,,,1.63,0.81,1.41*19
$GNGSA,A,3,85,73,80,71,86,,,,,,,,1.63,0.81,1.41*1C
$GPGSV,5,1,18,05,32,179,40,06,28,031,08,11,64,029,32,12,07,333,*72
$GPGSV,5,2,18,13,38,192,40,14,14,093,08,15,28,232,24,19,03,030,*71
$GPGSV,5,3,18,20,47,135,41,22,20,073,14,24,45,317,21,29,11,260,27*7D
$GPGSV,5,4,18,30,12,143,16,36,52,277,,40,85,352,38,41,58,082,*74
$GPGSV,5,5,18,49,32,274,,50,10,089,*78
$GLGSV,2,1,08,70,15,176,,71,14,222,25,73,44,045,21,74,19,359,*69
$GLGSV,2,2,08,80,27,114,21,84,41,359,,85,60,268,35,86,15,217,22*6E
$GNGLL,0419.88809,S,05539.59919,E,032809.00,A,A*60
$GNGRS,032809.00,1,1.6,-0.6,0.1,-1.4,-0.3,-0.3,11.3,-1.3,,,,*49
$GNGRS,032809.00,1,-4.3,0.6,-1.6,-0.8,-16.6,,,,,,,*41
$GNGST,032809.00,3299292,,,,3.7,2.7,12*5D
$GNZDA,032809.00,22,05,2025,00,00*78
$GNGBS,032809.00,3.7,2.7,11.5,,,,*6B
$GNTXT,01,01,01,More than 100 frame errors, UART RX was disabled*70
b0L`KX' 
 @M'&])/I-={4(U`:R 
YUFGI,-JgPrT)gU <6V`Bb`KXY$GNRMC,032810.00,A,0419.88809,S,05539.59927,E,0.145,,220525,,,A*7E
$GNVTG,,T,,M,0.145,N,0.269,K,A*30
$GNGNS,032810.00,0419.88809,S,05539.59927,E,AA,13,0.81,5.4,-47.6,,*58
$GNGGA,032810.00,0419.88809,S,05539.59927,E,1,12,0.81,5.4,M,-47.6,M,,*73
$GNGSA,A,3,11,13,20,24,15,05,22,29,,,,,1.63,0.81,1.41*19
$GNGSA,A,3,85,73,80,71,86,,,,,,,,1.63,0.81,1.41*1C
$GPGSV,5,1,18,05,32,179,39,06,28,031,08,11,64,029,32,12,07,333,*7C
$GPGSV,5,2,18,13,38,192,39,14,14,093,08,15,28,232,25,19,03,030,*7E
$GPGSV,5,3,18,20,47,135,41,22,20,073,14,24,45,317,20,29,11,260,28*73
$GPGSV,5,4,18,30,12,143,17,36,52,277,,40,85,352,40,41,58,082,*7A
$GPGSV,5,5,18,49,32,274,,50,10,089,*78
$GLGSV,2,1,08,70,15,176,,71,14,222,25,73,44,045,20,74,19,359,*68
$GLGSV,2,2,08,80,27,114,22,84,41,359,,85,60,268,32,86,15,217,21*69
$GNGLL,0419.88809,S,05539.59927,E,032810.00,A,A*65
$GNGRS,032810.00,1,-1.2,-0.7,0.2,-1.0,-0.9,-0.4,14.7,-0.3,,,,*63
$GNGRS,032810.00,1,-4.6,2.0,-3.3,-1.0,-17.0,,,,,,,*41
$GNGST,032810.00,48,,,,3.7,2.7,11*62
$GNZDA,032810.00,22,05,2025,00,00*70
$GNGBS,032810.00,3.7,2.7,11.3,,,,*65
$GNTXT,01,01,01,More than 100 frame errors, UART RX was disabled*70
b0LHOX' 
W@M'&])/IP-=r{4&U`:R 
YUFGI,-dJgPrT)gU <VbHOXY$GNRMC,032811.00,A,0419.88802,S,05539.59935,E,0.142,,220525,,,A*70
$GNVTG,,T,,M,0.142,N,0.263,K,A*3D
$GNGNS,032811.00,0419.88802,S,05539.59935,E,AA,13,0.81,5.1,-47.6,,*54
$GNGGA,032811.00,0419.88802,S,05539.59935,E,1,12,0.81,5.1,M,-47.6,M,,*7F
$GNGSA,A,3,11,13,20,24,15,05,22,29,,,,,1.63,0.81,1.41*19
$GNGSA,A,3,85,73,80,71,86,,,,,,,,1.63,0.81,1.41*1C
$GPGSV,5,1,18,05,32,179,39,06,28,031,07,11,64,029,31,12,07,333,*70
$GPGSV,5,2,18,13,38,192,39,14,14,093,07,15,28,232,23,19,03,030,*77
$GPGSV,5,3,18,20,47,135,41,22,20,073,13,24,45,317,18,29,11,260,26*71
$GPGSV,5,4,18,30,12,143,16,36,52,277,,40,85,352,38,41,58,082,*74
$GPGSV,5,5,18,49,32,274,,50,10,089,*78
$GLGSV,2,1,08,70,15,176,,71,14,222,24,73,44,045,19,74,19,359,*63
$GLGSV,2,2,08,80,27,114,20,84,41,359,,85,60,268,32,86,15,217,20*6A
$GNGLL,0419.88802,S,05539.59935,E,032811.00,A,A*6C
$GNGRS,032811.00,1,-0.2,-0.7,0.1,1.1,0.0,-0.6,11.0,-0.1,,,,*6A
$GNGRS,032811.00,1,-3.1,3.6,-2.4,-1.1,-16.6,,,,,,,*47
$GNGST,032811.00,36585,,,,3.7,2.7,11*52
$GNZDA,032811.00,22,05,2025,00,00*71
$GNGBS,032811.00,3.7,2.7,11.3,,,,*64
$GNTXT,01,01,01,More than 100 frame errors, UART RX was disabled*70
b0L0SX' 
P @M'&]`(/I9-=^{4&U`:R 
YUFGI,-JgPr@T)gU <Vrb0SXYT$GNRMC,032812.00,A,0419.88797,S,05539.59940,E,0.092,,220525,,,A*7E
$GNVTG,,T,,M,0.092,N,0.170,K,A*30
$GNGNS,032812.00,0419.88797,S,05539.59940,E,AA,13,0.81,5.0,-47.6,,*57
$GNGGA,032812.00,0419.88797,S,05539.59940,E,1,12,0.81,5.0,M,-47.6,M,,*7C
$GNGSA,A,3,11,13,20,24,15,05,22,29,,,,,1.63,0.81,1.41*19
$GNGSA,A,3,85,73,80,71,86,,,,,,,,1.63,0.81,1.41*1C
$GPGSV,5,1,18,05,32,179,39,06,28,031,07,11,64,029,32,12,07,333,*73
$GPGSV,5,2,18,13,38,192,39,14,14,093,07,15,28,232,22,19,03,030,*76
$GPGSV,5,3,18,20,47,135,40,22,20,073,13,24,45,317,18,29,11,260,27*71
$GPGSV,5,4,18,30,12,143,16,36,52,277,,40,85,352,38,41,58,082,*74
$GPGSV,5,5,18,49,32,274,,50,10,089,*78
$GLGSV,2,1,08,70,15,176,,71,14,222,23,73,44,045,20,74,19,359,*6E
$GLGSV,2,2,08,80,27,114,20,84,41,359,,85,60,268,32,86,15,217,21*6B
$GNGLL,0419.88797,S,05539.59940,E,032812.00,A,A*6E
$GNGRS,032812.00,1,0.1,-0.8,0.0,0.9,1.0,-0.8,10.8,-0.1,,,,*46
$GNGRS,032812.00,1,-0.6,4.3,-1.9,-0.9,-15.6,,,,,,,*46
$GNGST,032812.00,53214,,,,3.7,2.6,11*5C
$GNZDA,032812.00,22,05,2025,00,00*72
$GNGBS,032812.00,3.7,2.6,11.2,,,,*67
$GNTXT,01,01,01,More than 100 frame errors, UART RX was disabled*70
b0LWX' 
 @N'&],(/I`-=]{4&U`:R 
YUFGI,-mJgPrT)gU <pVk8bWXY$GNRMC,032813.00,A,0419.88797,S,05539.59939,E,0.078,,220525,,,A*75
$GNVTG,,T,,M,0.078,N,0.144,K,A*33
$GNGNS,032813.00,0419.88797,S,05539.59939,E,AA,15,0.78,5.3,-47.6,,*5B
$GNGGA,032813.00,0419.88797,S,05539.59939,E,1,12,0.78,5.3,M,-47.6,M,,*76
$GNGSA,A,3,11,13,20,06,24,15,05,22,14,29,,,1.49,0.78,1.27*14
$GNGSA,A,3,85,73,80,71,86,,,,,,,,1.49,0.78,1.27*12
$GPGSV,5,1,18,05,32,179,39,06,28,031,13,11,64,029,32,12,07,334,*71
$GPGSV,5,2,18,13,38,192,39,14,14,093,09,15,28,232,24,19,03,030,*7E
$GPGSV,5,3,18,20,47,135,40,22,20,073,15,24,45,317,19,29,11,260,27*76
$GPGSV,5,4,18,30,12,143,16,36,52,277,,40,85,352,38,41,58,082,*74
$GPGSV,5,5,18,49,32,274,,50,10,089,*78
$GLGSV,2,1,08,70,15,176,,71,14,222,22,73,44,045,22,74,19,359,*6D
$GLGSV,2,2,08,80,27,114,20,84,41,359,,85,60,268,32,86,15,217,21*6B
$GNGLL,0419.88797,S,05539.59939,E,032813.00,A,A*61
$GNGRS,032813.00,1,0.1,-0.6,-0.3,34.8,1.4,0.4,-0.7,-19.5,1.3,0.9,,*50
$GNGRS,032813.00,1,-1.4,3.6,-2.3,-1.0,-16.9,,,,,,,*4B
$GNGST,032813.00,53,,,,3.6,2.6,11*6B
$GNZDA,032813.00,22,05,2025,00,00*73
$GNGBS,032813.00,3.6,2.6,11.0,,,,*65
$GNTXT,01,01,01,More than 100 frame errors, UART RX was disabled*70
b0L[X( 
~@N'&](/I-={4&U`:R 
YUFGI,-JgPrT)gU <Vb[XYp$$GNRMC,032814.00,A,0419.88801,S,05539.59938,E,0.050,,220525,,,A*79
$GNVTG,,T,,M,0.050,N,0.092,K,A*33
$GNGNS,032814.00,0419.88801,S,05539.59938,E,AA,15,0.71,5.6,-47.6,,*51
$GNGGA,032814.00,0419.88801,S,05539.59938,E,1,12,0.71,5.6,M,-47.6,M,,*7C
$GNGSA,A,3,11,13,20,06,24,15,05,22,14,29,,,1.42,0.71,1.23*12
$GNGSA,A,3,85,73,80,71,86,,,,,,,,1.42,0.71,1.23*14
$GPGSV,5,1,18,05,32,179,40,06,28,031,14,11,64,029,31,12,07,334,*7B
$GPGSV,5,2,18,13,38,192,39,14,14,093,11,15,28,232,24,19,03,030,*77
$GPGSV,5,3,18,20,47,135,40,22,20,073,15,24,45,317,19,29,11,260,27*76
$GPGSV,5,4,18,30,12,143,16,36,52,277,,40,85,352,38,41,58,082,*74
$GPGSV,5,5,18,49,32,274,,50,10,089,*78
$GLGSV,2,1,08,70,15,176,,71,14,222,22,73,44,045,25,74,19,359,*6A
$GLGSV,2,2,08,80,27,114,20,84,41,359,,85,60,268,32,86,15,217,22*68
$GNGLL,0419.88801,S,05539.59938,E,032814.00,A,A*67
$GNGRS,032814.00,1,0.2,-0.4,-0.3,8.9,0.1,1.4,-0.6,11.6,15.1,0.0,,*74
$GNGRS,032814.00,1,-3.5,1.8,-3.0,-2.5,-16.6,,,,,,,*48
$GNGST,032814.00,4346054,,,,3.6,2.6,11*5E
$GNZDA,032814.00,22,05,2025,00,00*74
$GNGBS,032814.00,3.6,2.6,10.8,,,,*6B
$GNTXT,01,01,01,More than 100 frame errors, UART RX was disabled*70
b0L^X( 
@-N'&]n(/I-={4&U`:R 
YUFGI,-JgPrT)gU <VSb^XYp!G}$GNRMC,032815.00,A,0419.88801,S,05539.59941,E,0.094,,220525,,,A*7E
$GNVTG,,T,,M,0.094,N,0.175,K,A*33
$GNGNS,032815.00,0419.88801,S,05539.59941,E,AA,14,0.74,5.8,-47.6,,*54
$GNGGA,032815.00,0419.88801,S,05539.59941,E,1,12,0.74,5.8,M,-47.6,M,,*78
$GNGSA,A,3,11,13,20,06,24,15,05,22,29,,,,1.52,0.74,1.33*12
$GNGSA,A,3,85,73,80,71,86,,,,,,,,1.52,0.74,1.33*11
$GPGSV,5,1,18,05,32,179,40,06,28,031,14,11,64,029,31,12,07,334,*7B
$GPGSV,5,2,18,13,38,192,39,14,14,093,07,15,28,232,24,19,03,030,*70
$GPGSV,5,3,18,20,47,135,40,22,20,073,15,24,45,317,19,29,11,260,27*76
$GPGSV,5,4,18,30,12,143,17,36,52,277,,40,85,352,38,41,58,082,*75
$GPGSV,5,5,18,49,32,274,,50,10,089,*78
$GLGSV,2,1,08,70,15,176,,71,14,222,22,73,44,045,26,74,19,359,*69
$GLGSV,2,2,08,80,27,114,21,84,41,359,,85,60,268,32,86,15,217,22*69
$GNGLL,0419.88801,S,05539.59941,E,032815.00,A,A*68
$GNGRS,032815.00,1,0.5,-0.4,0.0,9.0,1.9,1.1,-0.7,11.8,-2.5,,,*66
$GNGRS,032815.00,1,-2.6,0.0,-2.8,-3.5,-16.0,,,,,,,*4C
$GNGST,032815.00,4496177,,,,3.5,2.6,11*56
$GNZDA,032815.00,22,05,2025,00,00*75
$GNGBS,032815.00,3.5,2.6,10.6,,,,*67
$GNTXT,01,01,01,More than 100 frame errors, UART RX was disabled*70
b0LbX( 
@N&&
]5(/I-={4%U`:R 
YUFGKI,-JgPrT)gU <VbbXYX%$GNRMC,032816.00,A,0419.88804,S,05539.59940,E,0.072,,220525,,,A*71
$GNVTG,,T,,M,0.072,N,0.134,K,A*3E
$GNGNS,032816.00,0419.88804,S,05539.59940,E,AA,13,0.95,6.3,-47.6,,*53
$GNGGA,032816.00,0419.88804,S,05539.59940,E,1,12,0.95,6.3,M,-47.6,M,,*78
$GNGSA,A,3,11,13,20,24,15,05,14,29,,,,,1.98,0.95,1.74*1B
$GNGSA,A,3,85,73,80,71,86,,,,,,,,1.98,0.95,1.74*1B
$GPGSV,5,1,18,05,32,179,40,06,28,031,08,11,64,029,31,12,07,334,*76
$GPGSV,5,2,18,13,38,192,38,14,14,093,10,15,28,232,25,19,03,030,*76
$GPGSV,5,3,18,20,47,135,40,22,20,073,04,24,45,317,20,29,11,260,27*7C
$GPGSV,5,4,18,30,12,143,16,36,52,277,,40,85,352,37,41,58,082,*7B
$GPGSV,5,5,18,49,32,274,,50,10,089,*78
$GLGSV,2,1,08,70,15,176,,71,14,222,21,73,44,045,26,74,19,359,*6A
$GLGSV,2,2,08,80,27,114,21,84,41,359,,85,60,268,32,86,15,217,21*6A
$GNGLL,0419.88804,S,05539.59940,E,032816.00,A,A*6F
$GNGRS,032816.00,1,1.3,-0.3,0.0,2.8,2.0,-0.7,137,-2.8,,,,*6C
$GNGRS,032816.00,1,-2.8,-0.1,-3.0,-4.4,-16.5,,,,,,,*67
$GNGST,032816.00,35,,,,3.5,2.5,10*6F
$GNZDA,032816.00,22,05,2025,00,00*76
$GNGBS,032816.00,3.5,2.5,10.4,,,,*65
$GNTXT,01,01,01,More than 100 frame errors, UART RX was disabled*70
b0LfX( 
@#N'&
](/I:-=X{4%U`:R 
YUFGI,-JgPrT)gU <V=|bfXY@)M$GNRMC,032817.00,A,0419.88807,S,05539.59943,E,0.024,,220525,,,A*73
$GNVTG,,T,,M,0.024,N,0.045,K,A*3A
$GNGNS,032817.00,0419.88807,S,05539.59943,E,AA,13,0.83,6.3,-47.6,,*55
$GNGGA,032817.00,0419.88807,S,05539.59943,E,1,12,0.83,6.3,M,-47.6,M,,*7E
$GNGSA,A,3,11,13,20,24,15,05,14,29,,,,,1.60,0.83,1.37*1C
$GNGSA,A,3,85,73,80,71,86,,,,,,,,1.60,0.83,1.37*1C
$GPGSV,5,1,18,05,32,179,40,06,28,031,09,11,64,029,31,12,07,334,*77
$GPGSV,5,2,18,13,38,192,39,14,14,093,10,15,28,232,22,19,03,030,*70
$GPGSV,5,3,18,20,47,135,40,22,20,073,08,24,45,317,20,29,11,260,27*70
$GPGSV,5,4,18,30,12,143,16,36,52,277,,40,85,352,37,41,58,082,*7B
$GPGSV,5,5,18,49,32,274,,50,10,089,*78
$GLGSV,2,1,08,70,15,176,,71,14,222,21,73,44,045,26,74,19,359,*6A
$GLGSV,2,2,08,80,27,114,22,84,41,359,,85,60,268,32,86,15,217,21*69
$GNGLL,0419.88807,S,05539.59943,E,032817.00,A,A*6E
$GNGRS,032817.00,1,0.3,-0.5,-0.1,0.9,1.7,-0.2,14.9,-4.9,,,,*64
$GNGRS,032817.00,1,-3.4,-0.5,-3.1,-3.8,-15.1,,,,,,,*62
$GNGST,032817.00,3299292,,,,3.5,2.5,10*50
$GNZDA,032817.00,22,05,2025,00,00*77
$GNGBS,032817.00,3.5,2.5,10.3,,,,*63
$GNTXT,01,01,01,More than 100 frame errors, UART RX was disabled*70
b0LjX( 
@0N'&])/
I-=M{4%U`:R 
YUFGI,-JgPrT)gU!<VbjXY(-$GNRMC,032818.00,A,0419.88806,S,05539.59948,E,0.061,,220525,,,A*77
$GNVTG,,T,,M,0.061,N,0.114,K,A*3E
$GNGNS,032818.00,0419.88806,S,05539.59948,E,AA,14,0.74,6.3,-47.6,,*5F
$GNGGA,032818.00,0419.88806,S,05539.59948,E,1,12,0.74,6.3,M,-47.6,M,,*73
$GNGSA,A,3,11,13,20,06,24,15,05,22,29,,,,1.52,0.74,1.33*12
$GNGSA,A,3,85,73,80,71,86,,,,,,,,1.52,0.74,1.33*11
$GPGSV,5,1,18,05,32,179,40,06,28,031,11,11,64,029,31,12,07,334,*7E
$GPGSV,5,2,18,13,38,192,39,14,14,093,07,15,28,232,22,19,03,030,*76
$GPGSV,5,3,18,20,47,135,41,22,20,073,10,24,45,317,21,29,11,260,28*76
$GPGSV,5,4,18,30,12,143,15,36,52,277,,40,85,352,37,41,58,082,*78
$GPGSV,5,5,18,49,32,274,,50,10,089,*78
$GLGSV,2,1,08,70,15,176,,71,14,222,22,73,44,045,25,74,19,359,*6A
$GLGSV,2,2,08,80,27,114,22,84,41,359,,85,60,268,33,86,15,217,20*69
$GNGLL,0419.88806,S,05539.59948,E,032818.00,A,A*6B
$GNGRS,032818.00,1,-2.1,-0.6,0.0,10.5,1.8,2.6,-0.3,15.1,-4.3,,,*73
$GNGRS,032818.00,1,-0.7,-0.1,-2.3,-5.4,-13.5,,,,,,,*62
$GNGST,032818.00,50,,,,3.4,2.5,10*63
$GNZDA,032818.00,22,05,2025,00,00*78
$GNGBS,032818.00,3.4,2.5,10.1,,,,*6F
$GNTXT,01,01,01,More than 100 frame errors, UART RX was disabled*70
b0LnX( 
 @N'&]>)/I-={4&U`:R 
YUFGI-.JgProT)gU <lV,bnXY1$GNRMC,032819.00,A,0419.88803,S,05539.59953,E,0.094,,220525,,,A*73
$GNVTG,,T,,M,0.094,N,0.175,K,A*33
$GNGNS,032819.00,0419.88803,S,05539.59953,E,AA,14,0.74,6.2,-47.6,,*50
$GNGGA,032819.00,0419.88803,S,05539.59953,E,1,12,0.74,6.2,M,-47.6,M,,*7C
$GNGSA,A,3,11,13,20,06,24,15,05,22,29,,,,1.52,0.74,1.33*12
$GNGSA,A,3,85,73,80,71,86,,,,,,,,1.52,0.74,1.33*11
$GPGSV,5,1,18,05,32,179,40,06,28,031,12,11,64,029,32,12,07,334,*7E
$GPGSV,5,2,18,13,38,192,39,14,14,093,06,15,28,232,21,19,03,030,*74
$GPGSV,5,3,18,20,47,135,41,22,20,073,13,24,45,317,20,29,11,260,28*74
$GPGSV,5,4,18,30,12,143,15,36,52,277,,40,85,352,38,41,58,082,*77
$GPGSV,5,5,18,49,32,274,,50,10,089,*78
$GLGSV,2,1,08,70,15,176,,71,14,222,23,73,45,046,25,74,19,359,*69
$GLGSV,2,2,08,80,27,114,22,84,41,359,,85,60,268,32,86,15,217,20*68
$GNGLL,0419.88803,S,05539.59953,E,032819.00,A,A*65
$GNGRS,032819.00,1,-0.7,-0.5,-0.1,9.9,4.0,2.0,0.0,14.9,-5.4,,,*47
$GNGRS,032819.00,1,-1.5,-0.3,-1.5,-7.6,-12.6,,,,,,,*65
$GNGST,032819.00,49,,,,3.4,2.5,10*6A
$GNZDA,032819.00,22,05,2025,00,00*79
$GNGBS,032819.00,3.4,2.5,9.9,,,,*5E
$GNTXT,01,01,01,More than 100 frame errors, UART RX was disabled*70
b0LprX( 
< @dN&&](/I-={4&U`:R 
YUFGvI-.]JgPrT)gU!<3V*`bprXY4~$GNRMC,032820.00,A,0419.88801,S,05539.59954,E,0.156,,220525,,,A*73
$GNVTG,,T,,M,0.156,N,0.288,K,A*3D
$GNGNS,032820.00,0419.88801,S,05539.59954,E,AA,15,0.71,6.4,-47.6,,*5D
$GNGGA,032820.00,0419.88801,S,05539.59954,E,1,12,0.71,6.4,M,-47.6,M,,*70
$GNGSA,A,3,11,13,20,06,24,15,05,22,14,29,,,1.42,0.71,1.23*12
$GNGSA,A,3,85,73,80,71,86,,,,,,,,1.42,0.71,1.23*14
$GPGSV,5,1,18,05,32,179,40,06,28,031,15,11,64,029,32,12,07,334,*79
$GPGSV,5,2,18,13,38,192,38,14,14,093,07,15,28,232,21,19,03,030,*74
$GPGSV,5,3,18,20,47,135,40,22,20,073,12,24,45,317,20,29,11,260,28*74
$GPGSV,5,4,18,30,12,143,15,36,52,277,,40,85,352,38,41,58,082,*77
$GPGSV,5,5,18,49,32,274,,50,10,089,*78
$GLGSV,2,1,08,70,15,176,,71,14,222,22,73,45,046,26,74,20,359,*61
$GLGSV,2,2,08,80,27,114,22,84,41,359,,85,60,268,33,86,15,217,21*68
$GNGLL,0419.88801,S,05539.59954,E,032820.00,A,A*6A
$GNGRS,032820.00,1,1.0,-0.4,0.2,10.8,4.1,2.1,-0.2,14.7,14.9,-4.9,,*4F
$GNGRS,032820.00,1,3.1,-1.6,-0.9,-9.1,-12.4,,,,,,,*46
$GNGST,032820.00,396319,,,,3.3,2.4,9.8*42
$GNZDA,032820.00,22,05,2025,00,00*73
$GNGBS,032820.00,3.3,2.4,9.8,,,,*53
$GNTXT,01,01,01,More than 100 frame errors, UART RX was disabled*70
b0LXvX( 
v @N'&](/I-=Nr{4&U`:R 
YUFGI-.JgPrT)gU!<VbXvXY8V$GNRMC,032821.00,A,0419.88809,S,05539.59952,E,0.042,,220525,,,A*78
$GNVTG,,T,,M,0.042,N,0.079,K,A*35
$GNGNS,032821.00,0419.88809,S,05539.59952,E,AA,15,0.74,7.1,-47.6,,*53
$GNGGA,032821.00,0419.88809,S,05539.59952,E,1,12,0.74,7.1,M,-47.6,M,,*7E
$GNGSA,A,3,11,13,20,06,24,15,05,22,14,29,,,1.48,0.74,1.29*17
$GNGSA,A,3,85,73,80,71,86,,,,,,,,1.48,0.74,1.29*11
$GPGSV,5,1,18,05,32,179,40,06,28,031,16,11,64,029,32,12,07,334,*7A
$GPGSV,5,2,18,13,38,192,39,14,14,093,11,15,28,232,21,19,03,030,*72
$GPGSV,5,3,18,20,47,135,40,22,20,073,12,24,45,317,19,29,11,260,28*7E
$GPGSV,5,4,18,30,12,143,15,36,52,277,,40,85,352,38,41,58,082,*77
$GPGSV,5,5,18,49,32,274,,50,10,089,*78
$GLGSV,2,1,08,70,15,176,,71,14,222,22,73,45,046,26,74,20,359,*61
$GLGSV,2,2,08,80,27,114,22,84,41,359,,85,60,268,33,86,15,217,22*6B
$GNGLL,0419.88809,S,05539.59952,E,032821.00,A,A*65
$GNGRS,032821.00,1,-2.4,-0.2,0.2,11.4,3.3,1.8,-0.4,20.8,15.2,-6.5,,*6A
$GNGRS,032821.00,1,1.7,-2.3,-2.6,-8.2,-12.8,,,,,,,*46
$GNGST,032821.00,410229,,,,3.3,2.4,9.6*46
$GNZDA,032821.00,22,05,2025,00,00*72
$GNGBS,032821.00,3.3,2.4,9.6,,,,*5C
$GNTXT,01,01,01,More than 100 frame errors, UART RX was disabled*70
b0L@zX( 
 @KN'&](/I-=c{4&U`:R 
YUFGI-.JgPrIT)gU!<}VA[b@zXY<.R$GNRMC,032822.00,A,0419.88818,S,05539.59955,E,0.050,,220525,,,A*7F
$GNVTG,,T,,M,0.050,N,0.092,K,A*33
$GNGNS,032822.00,0419.88818,S,05539.59955,E,AA,15,0.74,7.5,-47.6,,*53
$GNGGA,032822.00,0419.88818,S,05539.59955,E,1,12,0.74,7.5,M,-47.6,M,,*7E
$GNGSA,A,3,11,13,20,06,24,15,05,22,14,29,,,1.52,0.74,1.33*17
$GNGSA,A,3,85,73,80,71,86,,,,,,,,1.52,0.74,1.33*11
$GPGSV,5,1,18,05,32,179,40,06,28,031,16,11,64,029,32,12,07,334,*7A
$GPGSV,5,2,18,13,38,192,39,14,14,093,07,15,28,232,22,19,03,030,*76
$GPGSV,5,3,18,20,47,135,40,22,20,073,13,24,45,317,21,29,11,260,29*75
$GPGSV,5,4,18,30,12,143,13,36,52,277,,40,85,352,38,41,58,082,*71
$GPGSV,5,5,18,49,32,274,,50,10,089,*78
$GLGSV,2,1,08,70,15,176,,71,14,222,23,73,45,046,27,74,20,359,*61
$GLGSV,2,2,08,80,27,114,22,84,41,359,,85,60,268,33,86,15,217,22*6B
$GNGLL,0419.88818,S,05539.59955,E,032822.00,A,A*61
$GNGRS,032822.00,1,-1.8,-0.2,0.2,10.0,2.3,2.2,-0.2,17.9,-103,-9.2,,*67
$GNGRS,032822.00,1,-1.3,-3.6,-1.8,-8.6,-12.2,,,,,,,*6B
$GNGST,032822.00,44,,,,3.2,2.4,9.4*4A
$GNZDA,032822.00,22,05,2025,00,00*71
$GNGBS,032822.00,3.2,2.4,9.4,,,,*5C
$GNTXT,01,01,01,More than 100 frame errors, UART RX was disabled*70
b0L(~X( 
 @N'&](/I-={4&U`:R 
YUFGI-.JgPrT)gU!<XVb(~XY@$GNRMC,032823.00,A,0419.88823,S,05539.59955,E,0.092,,220525,,,A*78
$GNVTG,,T,,M,0.092,N,0.171,K,A*31
$GNGNS,032823.00,0419.88823,S,05539.59955,E,AA,15,0.74,7.8,-47.6,,*57
$GNGGA,032823.00,0419.88823,S,05539.59955,E,1,12,0.74,7.8,M,-47.6,M,,*7A
$GNGSA,A,3,11,13,20,06,24,15,05,22,14,29,,,1.48,0.74,1.29*17
$GNGSA,A,3,85,73,80,71,86,,,,,,,,1.48,0.74,1.29*11
$GPGSV,5,1,18,05,32,179,40,06,28,031,17,11,64,029,32,12,07,334,*7B
$GPGSV,5,2,18,13,38,192,39,14,14,093,11,15,28,232,22,19,03,030,*71
$GPGSV,5,3,18,20,47,135,40,22,20,073,12,24,45,317,21,29,11,260,28*75
$GPGSV,5,4,18,30,12,143,14,36,52,277,,40,85,352,38,41,58,082,*76
$GPGSV,5,5,18,49,32,274,,50,10,089,*78
$GLGSV,2,1,08,70,15,176,,71,14,222,23,73,45,046,26,74,20,359,*60
$GLGSV,2,2,08,80,27,114,23,84,41,359,,85,60,268,33,86,15,217,21*69
$GNGLL,0419.88823,S,05539.59955,E,032823.00,A,A*68
$GNGRS,032823.00,1,-1.1,-0.2,0.3,9.9,1.5,1.8,-0.3,23.0,15.0,-5.8,,*5F
$GNGRS,032823.00,1,0.9,-3.1,-2.3,-7.5,-13.2,,,,,,,*4E
$GNGST,032823.00,3179277,,,,3.2,2.4,9.3*72
$GNZDA,032823.00,22,05,2025,00,00*70
$GNGBS,032823.00,3.2,2.4,9.3,,,,*5A
$GNTXT,01,01,01,More than 100 frame errors, UART RX was disabled*70
b0LX% 
@ N$&]%/I-=7{4&U`:R 
YUFGoI-.JgPrbT)gU!<~VIbXYD"$GNRMC,032824.00,A,0419.88829,S,05539.59955,E,0.055,,220525,,,A*7E
$GNVTG,,T,,M,0.055,N,0.102,K,A*3E
$GNGNS,032824.00,0419.88829,S,05539.59955,E,AA,15,0.74,8.1,-47.6,,*5C
$GNGGA,032824.00,0419.88829,S,05539.59955,E,1,12,0.74,8.1,M,-47.6,M,,*71
$GNGSA,A,3,11,13,20,06,24,15,05,22,14,29,,,1.48,0.74,1.29*17
$GNGSA,A,3,85,73,80,71,86,,,,,,,,1.48,0.74,1.29*11
$GPGSV,5,1,18,05,32,179,37,06,28,031,16,11,64,029,27,12,07,334,*7E
$GPGSV,5,2,18,13,38,192,36,14,14,093,11,15,28,232,21,19,03,030,*7D
$GPGSV,5,3,18,20,47,135,37,22,20,073,12,24,45,317,20,29,11,260,26*7A
$GPGSV,5,4,18,30,12,143,13,36,52,277,,40,85,352,38,41,58,082,*71
$GPGSV,5,5,18,49,32,274,,50,10,089,*78
$GLGSV,2,1,08,70,15,176,,71,14,222,22,73,45,046,31,74,20,359,*67
$GLGSV,2,2,08,80,27,114,23,84,41,359,,85,60,268,33,86,15,217,19*62
$GNGLL,0419.88829,S,05539.59955,E,032824.00,A,A*65
$GNGRS,032824.00,1,-2.2,-0.1,0.1,9.1,0.5,1.5,-0.5,24.5,15.1,-3.4,,*52
$GNGRS,032824.00,1,-1.3,-3.5,-1.6,-9.1,-12.1,,,,,,,*65
$GNGST,032824.00,3179277,,,,3.2,2.4,9.3*75
$GNZDA,032824.00,22,05,2025,00,00*77
$GNGBS,032824.00,3.2,2.4,9.3,,,,*5D
$GNTXT,01,01,01,More than 100 frame errors, UART RX was disabled*70
b0LX& 
m@N'&
]'/I-=s{4&U`:R 
YUFGOI-.JgPrT)gU <VbXYH{$GNRMC,032825.00,A,0419.88832,S,05539.59956,E,0.077,,220525,,,A*76
$GNVTG,,T,,M,0.077,N,0.142,K,A*3A
$GNGNS,032825.00,0419.88832,S,05539.59956,E,AA,15,0.80,8.3,-47.6,,*5D
$GNGGA,032825.00,0419.88832,S,05539.59956,E,1,12,0.80,8.3,M,-47.6,M,,*70
$GNGSA,A,3,11,13,20,06,24,15,05,22,14,29,,,1.68,0.80,1.48*19
$GNGSA,A,3,85,73,80,71,86,,,,,,,,1.68,0.80,1.48*1F
$GPGSV,5,1,18,05,32,179,38,06,28,031,16,11,64,029,29,12,07,334,*7F
$GPGSV,5,2,18,13,38,192,39,14,14,093,10,15,28,232,23,19,03,030,*71
$GPGSV,5,3,18,20,47,135,39,22,20,073,12,24,45,317,19,29,11,260,27*7F
$GPGSV,5,4,18,30,12,143,14,36,52,277,,40,85,352,38,41,58,082,*76
$GPGSV,5,5,18,49,32,274,,50,10,089,*78
$GLGSV,2,1,08,70,15,176,,71,14,222,21,73,45,046,30,74,20,359,*65
$GLGSV,2,2,08,80,27,114,22,84,41,359,,85,60,268,32,86,15,217,18*63
$GNGLL,0419.88832,S,05539.59956,E,032825.00,A,A*6D
$GNGRS,032825.00,1,-0.2,-0.1,0.2,8.8,1.2,2.9,-0.4,24.7,-131,-5.6,,*51
$GNGRS,032825.00,1,0.1,-0.8,-0.6,-9.5,-12.6,,,,,,,*46
$GNGST,032825.00,41,,,,3.1,2.4,9.2*4D
$GNZDA,032825.00,22,05,2025,00,00*76
$GNGBS,032825.00,3.1,2.4,9.2,,,,*5E
$GNTXT,01,01,01,More than 100 frame errors, UART RX was disabled*70
b0LX' 
@FN'&]G'/I-={4'U`:R 
YUFGI-.JgPsT)gU<V3bXYhL$GNRMC,032826.00,A,0419.88829,S,05539.59959,E,0.073,,220525,,,A*74
$GNVTG,,T,,M,0.073,N,0.135,K,A*3E
$GNGNS,032826.00,0419.88829,S,05539.59959,E,AA,15,0.74,8.4,-47.6,,*57
$GNGGA,032826.00,0419.88829,S,05539.59959,E,1,12,0.74,8.4,M,-47.6,M,,*7A
$GNGSA,A,3,11,13,20,06,24,15,05,22,14,29,,,1.48,0.74,1.29*17
$GNGSA,A,3,85,73,80,71,86,,,,,,,,1.48,0.74,1.29*11
$GPGSV,5,1,18,05,32,179,39,06,28,031,14,11,64,029,29,12,07,334,*7C
$GPGSV,5,2,18,13,38,192,39,14,14,093,09,15,28,232,22,19,03,030,*78
$GPGSV,5,3,18,20,47,135,39,22,20,073,14,24,45,317,19,29,11,260,26*78
$GPGSV,5,4,18,30,12,143,15,36,52,277,,40,85,352,39,41,58,082,*76
$GPGSV,5,5,18,49,32,274,,50,10,089,*78
$GLGSV,2,1,08,70,15,176,,71,14,222,22,73,45,046,29,74,20,359,*6E
$GLGSV,2,2,08,80,27,115,23,84,41,359,,85,60,268,31,86,15,217,17*6F
$GNGLL,0419.88829,S,05539.59959,E,032826.00,A,A*6B
$GNGRS,032826.00,1,-1.9,-0.4,0.1,9.6,1.5,3.3,-0.4,24.5,14.7,4.0,,*77
$GNGRS,032826.00,1,2.9,-2.3,-0.2,-8.3,-11.4,,,,,,,*44
$GNGST,032826.00,410229,,,,3.1,2.4,9.1*44
$GNZDA,032826.00,22,05,2025,00,00*75
$GNGBS,032826.00,3.1,2.4,9.1,,,,*5E
$GNTXT,01,01,01,More than 100 frame errors, UART RX was disabled*70
b0LX) 
m@N(&])/I-={4(U`:R 
YUFG1I-.JgPsGT)gU<VbXYPPeK$GNRMC,032827.00,A,0419.88834,S,05539.59963,E,0.017,,220525,,,A*72
$GNVTG,,T,,M,0.017,N,0.032,K,A*3A
$GNGNS,032827.00,0419.88834,S,05539.59963,E,AA,14,0.80,8.6,-47.6,,*5B
$GNGGA,032827.00,0419.88834,S,05539.59963,E,1,12,0.80,8.6,M,-47.6,M,,*77
$GNGSA,A,3,11,13,20,06,24,15,05,22,29,,,,1.68,0.80,1.48*1C
$GNGSA,A,3,85,73,80,71,86,,,,,,,,1.68,0.80,1.48*1F
$GPGSV,5,1,18,05,32,179,41,06,28,031,14,11,64,029,30,12,07,334,*7B
$GPGSV,5,2,18,13,38,192,40,14,14,093,07,15,28,232,23,19,03,030,*79
$GPGSV,5,3,18,20,47,135,41,22,20,073,13,24,45,317,19,29,11,260,28*7E
$GPGSV,5,4,18,30,12,143,14,36,52,277,,40,85,352,40,41,58,082,*79
$GPGSV,5,5,18,49,32,274,,50,10,089,*78
$GLGSV,2,1,08,70,15,176,,71,14,222,22,73,45,046,29,74,20,359,*6E
$GLGSV,2,2,08,80,27,115,23,84,41,359,,85,60,268,31,86,15,217,18*60
$GNGLL,0419.88834,S,05539.59963,E,032827.00,A,A*6F
$GNGRS,032827.00,1,2.2,-0.2,0.2,8.8,2.2,2.8,-0.5,24.6,-3.2,,,*61
$GNGRS,032827.00,1,-5.9,-5.8,0.7,-9.7,-12.7,,,,,,,*4E
$GNGST,032827.00,45,,,,3.1,2.3,9.0*4E
$GNZDA,032827.00,22,05,2025,00,00*74
$GNGBS,032827.00,3.1,2.3,9.0,,,,*59
$GNTXT,01,01,01,More than 100 frame errors, UART RX was disabled*70
b0LX( 
s@>N(&]! (/I-=T{4(U`:R 
YUFG}I-.8JgPsT)gU <VJbXY8T=$GNRMC,032828.00,A,0419.88836,S,05539.59965,E,0.038,,220525,,,A*74
$GNVTG,,T,,M,0.038,N,0.070,K,A*31
$GNGNS,032828.00,0419.88836,S,05539.59965,E,AA,14,0.80,8.8,-47.6,,*5E
$GNGGA,032828.00,0419.88836,S,05539.59965,E,1,12,0.80,8.8,M,-47.6,M,,*72
$GNGSA,A,3,11,13,20,06,24,15,05,14,29,,,,1.68,0.80,1.48*19
$GNGSA,A,3,85,73,80,71,86,,,,,,,,1.68,0.80,1.48*1F
$GPGSV,5,1,18,05,32,179,40,06,28,031,15,11,64,029,30,12,07,334,*7B
$GPGSV,5,2,18,13,38,192,40,14,14,093,08,15,28,232,24,19,03,030,*71
$GPGSV,5,3,18,20,47,135,40,22,20,073,09,24,45,317,20,29,11,260,28*7E
$GPGSV,5,4,18,30,12,143,16,36,52,277,,40,85,352,40,41,58,082,*7B
$GPGSV,5,5,18,49,32,274,,50,10,089,*78
$GLGSV,2,1,08,70,15,176,,71,14,222,21,73,45,046,29,74,20,359,*6D
$GLGSV,2,2,08,80,27,115,23,84,41,359,,85,60,268,32,86,15,217,17*6C
$GNGLL,0419.88836,S,05539.59965,E,032828.00,A,A*64
$GNGRS,032828.00,1,0.6,-0.4,0.1,8.8,0.8,1.3,-0.5,82.3,-5.7,,,*67
$GNGRS,032828.00,1,-3.5,-2.0,-0.4,-9.0,-10.6,,,,,,,*6E
$GNGST,032828.00,44,,,,3.0,2.3,8.9*49
$GNZDA,032828.00,22,05,2025,00,00*7B
$GNGBS,032828.00,3.0,2.3,8.9,,,,*5F
$GNTXT,01,01,01,More than 100 frame errors, UART RX was disabled*70
b0LX( 
@N(&]G)/
I-="{4(U`:R 
YUFG{I-.JgPsT)gU <V2bXY X$GNRMC,032829.00,A,0419.88842,S,05539.59964,E,0.046,,220525,,,A*7E
$GNVTG,,T,,M,0.046,N,0.085,K,A*32
$GNGNS,032829.00,0419.88842,S,05539.59964,E,AA,14,0.80,9.0,-47.6,,*54
$GNGGA,032829.00,0419.88842,S,05539.59964,E,1,12,0.80,9.0,M,-47.6,M,,*78
$GNGSA,A,3,11,13,20,06,15,05,22,14,29,,,,1.52,0.80,1.30*19
$GNGSA,A,3,85,73,80,71,86,,,,,,,,1.52,0.80,1.30*19
$GPGSV,5,1,18,05,32,179,40,06,28,031,15,11,64,029,31,12,07,334,*7A
$GPGSV,5,2,18,13,38,192,40,14,14,093,11,15,28,232,25,19,03,030,*78
$GPGSV,5,3,18,20,47,135,41,22,20,073,10,24,45,317,,29,11,260,28*75
$GPGSV,5,4,18,30,12,143,17,36,52,277,,40,85,352,40,41,58,082,*7A
$GPGSV,5,5,18,49,32,274,,50,10,089,*78
$GLGSV,2,1,08,70,15,176,,71,14,222,21,73,45,046,30,74,20,359,*65
$GLGSV,2,2,08,80,27,115,24,84,41,359,,85,60,268,32,86,15,217,18*64
$GNGLL,0419.88842,S,05539.59964,E,032829.00,A,A*67
$GNGRS,032829.00,1,-0.3,-0.1,0.0,7.0,3.3,-0.4,22.4,15.0,0.3,,,*53
$GNGRS,032829.00,1,-3.7,-6.4,0.1,-9.0,-9.7,,,,,,,*7C
$GNGST,032829.00,3299292,,,,3.0,2.3,8.8*71
$GNZDA,032829.00,22,05,2025,00,00*7A
$GNGBS,032829.00,3.0,2.3,8.8,,,,*5F
$GNTXT,01,01,01,More than 100 frame errors, UART RX was disabled*70
b0LX( 
@dN(&]I)/
I{-=}{4'U`:R 
YUFGI-.JgPsT(gU<VbXY\$GNRMC,032830.00,A,0419.88843,S,05539.59965,E,0.032,,220525,,,A*75
$GNVTG,,T,,M,0.032,N,0.060,K,A*3A
$GNGNS,032830.00,0419.88843,S,05539.59965,E,AA,14,0.80,9.2,-47.6,,*5E
$GNGGA,032830.00,0419.88843,S,05539.59965,E,1,12,0.80,9.2,M,-47.6,M,,*72
$GNGSA,A,3,11,13,20,06,15,05,22,14,29,,,,1.52,0.80,1.30*19
$GNGSA,A,3,85,73,80,71,86,,,,,,,,1.52,0.80,1.30*19
$GPGSV,5,1,18,05,32,179,40,06,28,031,15,11,64,029,31,12,07,334,*7A
$GPGSV,5,2,18,13,38,192,40,14,14,093,08,15,28,232,26,19,03,030,*73
$GPGSV,5,3,18,20,47,135,41,22,20,073,14,24,45,317,19,29,11,260,29*78
$GPGSV,5,4,18,30,12,143,16,36,52,277,,40,85,352,39,41,58,082,*75
$GPGSV,5,5,18,49,32,274,,50,10,089,*78
$GLGSV,2,1,08,70,15,176,,71,14,222,21,73,45,046,30,74,20,359,*65
$GLGSV,2,2,08,80,27,115,24,84,40,359,,85,60,268,31,86,15,217,19*67
$GNGLL,0419.88843,S,05539.59965,E,032830.00,A,A*6F
$GNGRS,032830.00,1,1.0,0.0,0.1,4.7,3.3,-0.5,21.7,15.0,-3.4,,,*75
$GNGRS,032830.00,1,-0.6,-0.3,-0.2,-7.9,-10.8,,,,,,,*69
$GNGST,032830.00,3299292,,,,3.0,2.3,8.7*76
$GNZDA,032830.00,22,05,2025,00,00*72
$GNGBS,032830.00,3.0,2.3,8.7,,,,*58
$GNTXT,01,01,01,More than 100 frame errors, UART RX was disabled*70
b0LhX( 
@N(&
]2)/I9-={4'U`:R 
YUFGRI-.IJgPsT(gU<V[bhXY_$GNRMC,032831.00,A,0419.88845,S,05539.59968,E,0.063,,220525,,,A*7B
$GNVTG,,T,,M,0.063,N,0.116,K,A*3E
$GNGNS,032831.00,0419.88845,S,05539.59968,E,AA,14,0.77,9.3,-47.6,,*5D
$GNGGA,032831.00,0419.88845,S,05539.59968,E,1,12,0.77,9.3,M,-47.6,M,,*71
$GNGSA,A,3,11,13,20,06,15,05,22,14,29,,,,1.46,0.77,1.24*11
$GNGSA,A,3,85,73,80,71,86,,,,,,,,1.46,0.77,1.24*11
$GPGSV,5,1,18,05,32,179,40,06,28,031,15,11,64,029,31,12,07,334,*7A
$GPGSV,5,2,18,13,38,192,40,14,14,093,10,15,28,232,25,19,03,030,*79
$GPGSV,5,3,18,20,47,135,41,22,20,073,14,24,45,317,18,29,11,260,30*71
$GPGSV,5,4,18,30,12,143,16,36,52,277,,40,85,352,39,41,58,082,*75
$GPGSV,5,5,18,49,32,274,,50,10,089,*78
$GLGSV,2,1,08,70,15,176,,71,14,222,21,73,45,046,30,74,20,359,*65
$GLGSV,2,2,08,80,27,115,24,84,40,359,,85,60,270,31,86,15,217,18*6F
$GNGLL,0419.88845,S,05539.59968,E,032831.00,A,A*65
$GNGRS,032831.00,1,0.3,-0.2,0.2,5.0,4.8,0.1,18.5,10.7,-5.1,,,*70
$GNGRS,032831.00,1,-0.6,0.7,-0.7,-9.4,-8.4,,,,,,,*72
$GNGST,032831.00,55,,,,2.9,2.3,8.5*45
$GNZDA,032831.00,22,05,2025,00,00*73
$GNGBS,032831.00,2.9,2.3,8.5,,,,*53
$GNTXT,01,01,01,More than 100 frame errors, UART RX was disabled*70
b0LPX( 
@vN(&
])/I;-=@{4(V^:R 
YUFGDI-.UJgPsT(gU <1VoRKbPXYcP$GNRMC,032832.00,A,0419.88841,S,05539.59972,E,0.049,,220525,,,A*7F
$GNVTG,,T,,M,0.049,N,0.090,K,A*39
$GNGNS,032832.00,0419.88841,S,05539.59972,E,AA,14,0.77,9.2,-47.6,,*50
$GNGGA,032832.00,0419.88841,S,05539.59972,E,1,12,0.77,9.2,M,-47.6,M,,*7C
$GNGSA,A,3,11,13,20,06,15,05,22,14,29,,,,1.46,0.77,1.24*11
$GNGSA,A,3,85,73,80,71,86,,,,,,,,1.46,0.77,1.24*11
$GPGSV,5,1,18,05,32,179,40,06,28,031,14,11,64,029,31,12,07,334,*7B
$GPGSV,5,2,18,13,38,192,40,14,14,093,10,15,28,232,25,19,03,030,*79
$GPGSV,5,3,18,20,47,135,41,22,20,073,14,24,45,317,20,29,11,260,29*72
$GPGSV,5,4,18,30,12,143,17,36,52,277,,40,86,350,40,41,58,082,*7B
$GPGSV,5,5,18,49,32,274,,50,10,089,*78
$GLGSV,2,1,08,70,15,176,,71,14,222,21,73,45,046,30,74,20,359,*65
$GLGSV,2,2,08,80,27,115,24,84,40,359,,85,60,270,32,86,16,217,20*64
$GNGLL,0419.88841,S,05539.59972,E,032832.00,A,A*69
$GNGRS,032832.00,1,3.7,-0.3,0.0,6.9,6.6,0.1,18.5,14.6,-2.9,,,*7B
$GNGRS,032832.00,1,0.5,3.4,-0.4,-9.6,-9.1,,,,,,,*5A
$GNGST,032832.00,44869,,,,2.9,2.2,8.4*71
$GNZDA,032832.00,22,05,2025,00,00*70
$GNGBS,032832.00,2.9,2.2,8.4,,,,*50
$GNTXT,01,01,01,More than 100 frame errors, UART RX was disabled*70
b0L8X( 
@N(&
]e)/IT-={4'V^:R 
YUFGI-.JgPsT(gU <VQb8XYgt$GNRMC,032833.00,A,0419.88840,S,05539.59975,E,0.018,,220525,,,A*7C
$GNVTG,,T,,M,0.018,N,0.034,K,A*33
$GNGNS,032833.00,0419.88840,S,05539.59975,E,AA,14,0.77,9.1,-47.6,,*54
$GNGGA,032833.00,0419.88840,S,05539.59975,E,1,12,0.77,9.1,M,-47.6,M,,*78
$GNGSA,A,3,11,13,20,06,15,05,22,14,29,,,,1.46,0.77,1.24*11
$GNGSA,A,3,85,73,80,71,86,,,,,,,,1.46,0.77,1.24*11
$GPGSV,5,1,18,05,32,179,40,06,28,031,15,11,64,029,30,12,07,334,*7B
$GPGSV,5,2,18,13,38,192,40,14,14,093,10,15,28,232,25,19,03,030,*79
$GPGSV,5,3,18,20,47,135,41,22,20,073,14,24,45,317,,29,11,260,29*70
$GPGSV,5,4,18,30,12,143,17,36,52,277,,40,86,350,39,41,58,082,*75
$GPGSV,5,5,18,49,32,274,,50,10,089,*78
$GLGSV,2,1,08,70,15,176,,71,14,222,19,73,45,046,31,74,20,359,*6F
$GLGSV,2,2,08,80,27,115,24,84,40,359,,85,60,270,32,86,16,217,21*65
$GNGLL,0419.88840,S,05539.59975,E,032833.00,A,A*6E
$GNGRS,032833.00,1,-3.2,-0.3,0.0,7.2,6.1,0.0,16.2,14.4,-2.7,,,*5B
$GNGRS,032833.00,1,-0.6,2.9,-0.8,-13.4,-9.4,,,,,,,*49
$GNGST,032833.00,67303,,,,2.8,2.2,8.3*70
$GNZDA,032833.00,22,05,2025,00,00*71
$GNGBS,032833.00,2.8,2.2,8.3,,,,*57
$GNTXT,01,01,01,More than 100 frame errors, UART RX was disabled*70
b0L X( 
@hN(&
]])/It-={4(V^:R 
YUFGI-.JgPsT(gU <VRb XYkL $GNRMC,032834.00,A,0419.88838,S,05539.59978,E,0.076,,220525,,,A*71
$GNVTG,,T,,M,0.076,N,0.140,K,A*39
$GNGNS,032834.00,0419.88838,S,05539.59978,E,AA,13,0.81,9.2,-47.6,,*5C
$GNGGA,032834.00,0419.88838,S,05539.59978,E,1,12,0.81,9.2,M,-47.6,M,,*77
$GNGSA,A,3,11,13,20,06,15,05,22,29,,,,,1.57,0.81,1.35*1D
$GNGSA,A,3,85,73,80,71,86,,,,,,,,1.57,0.81,1.35*18
$GPGSV,5,1,18,05,32,179,40,06,28,031,15,11,64,029,30,12,07,334,*7B
$GPGSV,5,2,18,13,38,192,40,14,14,093,10,15,28,232,25,19,03,030,*79
$GPGSV,5,3,18,20,47,135,41,22,20,073,15,24,45,317,,29,11,260,30*79
$GPGSV,5,4,18,30,12,143,17,36,52,277,,40,86,350,40,41,58,082,*7B
$GPGSV,5,5,18,49,32,274,,50,10,089,*78
$GLGSV,2,1,08,70,15,176,,71,14,222,20,73,45,046,29,74,20,359,*6C
$GLGSV,2,2,08,80,27,115,25,84,40,359,,85,60,270,32,86,16,217,21*64
$GNGLL,0419.88838,S,05539.59978,E,032834.00,A,A*6B
$GNGRS,032834.00,1,1.0,-0.3,0.0,9.6,6.6,-0.1,16.5,-5.3,,,,*4B
$GNGRS,032834.00,1,3.9,2.2,1.6,-13.1,-8.5,,,,,,,*43
$GNGST,032834.00,43,,,,2.8,2.2,8.2*40
$GNZDA,032834.00,22,05,2025,00,00*76
$GNGBS,032834.00,2.8,2.2,8.2,,,,*51
$GNTXT,01,01,01,More than 100 frame errors, UART RX was disabled*70
b0LX' 
@N(&
])/I-=,{4(V^:R 
YUFGI-.JgPsAT(gU <V.bXYo$$GNRMC,032835.00,A,0419.88835,S,05539.59978,E,0.039,,220525,,,A*76
$GNVTG,,T,,M,0.039,N,0.072,K,A*32
$GNGNS,032835.00,0419.88835,S,05539.59978,E,AA,13,0.81,9.2,-47.6,,*50
$GNGGA,032835.00,0419.88835,S,05539.59978,E,1,12,0.81,9.2,M,-47.6,M,,*7B
$GNGSA,A,3,11,13,20,06,15,05,22,29,,,,,1.57,0.81,1.35*1D
$GNGSA,A,3,85,73,80,71,86,,,,,,,,1.57,0.81,1.35*18
$GPGSV,5,1,18,05,32,179,39,06,28,031,15,11,64,029,31,12,07,334,*74
$GPGSV,5,2,18,13,38,192,40,14,14,093,10,15,28,232,25,19,03,030,*79
$GPGSV,5,3,18,20,47,135,41,22,20,073,16,24,45,317,,29,11,260,29*72
$GPGSV,5,4,18,30,12,143,17,36,52,277,,40,86,350,40,41,58,082,*7B
$GPGSV,5,5,18,49,32,274,,50,10,089,*78
$GLGSV,2,1,08,70,15,176,,71,14,222,20,73,45,046,27,74,20,359,*62
$GLGSV,2,2,08,80,27,115,25,84,40,359,,85,60,270,32,86,16,217,20*65
$GNGLL,0419.88835,S,05539.59978,E,032835.00,A,A*67
$GNGRS,032835.00,1,-0.6,-0.6,0.0,9.1,7.7,0.0,12.8,0.4,,,,*68
$GNGRS,032835.00,1,4.0,-1.2,0.7,-13.4,-7.2,,,,,,,*6F
$GNGST,032835.00,44,,,,2.8,2.2,8.2*46
$GNZDA,032835.00,22,05,2025,00,00*77
$GNGBS,032835.00,2.8,2.2,8.2,,,,*50
$GNTXT,01,01,01,More than 100 frame errors, UART RX was disabled*70
b0LX( 
@N(&
]=)/Ik-={4(V^:R 
YUFG5I-.ZJgPsfT(gU <VSbXYxs$GNRMC,032836.00,A,0419.88833,S,05539.59982,E,0.129,,220525,,,A*76
$GNVTG,,T,,M,0.129,N,0.238,K,A*3E
$GNGNS,032836.00,0419.88833,S,05539.59982,E,AA,13,0.81,9.0,-47.6,,*52
$GNGGA,032836.00,0419.88833,S,05539.59982,E,1,12,0.81,9.0,M,-47.6,M,,*79
$GNGSA,A,3,11,13,20,06,15,05,22,29,,,,,1.57,0.81,1.35*1D
$GNGSA,A,3,85,73,80,71,86,,,,,,,,1.57,0.81,1.35*18
$GPGSV,5,1,18,05,32,179,40,06,28,031,15,11,64,029,31,12,07,334,*7A
$GPGSV,5,2,18,13,38,192,40,14,14,093,10,15,28,232,25,19,03,030,*79
$GPGSV,5,3,18,20,47,135,41,22,20,073,16,24,45,317,21,29,11,260,29*71
$GPGSV,5,4,18,30,12,143,16,36,52,277,,40,86,350,40,41,58,082,*7A
$GPGSV,5,5,18,49,32,274,,50,10,089,*78
$GLGSV,2,1,08,70,15,176,,71,14,222,19,73,45,046,27,74,20,359,*68
$GLGSV,2,2,08,80,27,115,25,84,40,359,,85,60,270,32,86,16,217,19*6F
$GNGLL,0419.88833,S,05539.59982,E,032836.00,A,A*67
$GNGRS,032836.00,1,-2.3,-0.9,0.0,6.4,8.3,0.1,11.3,0.0,,,,*6F
$GNGRS,032836.00,1,-0.5,3.5,1.0,-12.3,-6.9,,,,,,,*62
$GNGST,032836.00,44,,,,2.8,2.2,8.1*46
$GNZDA,032836.00,22,05,2025,00,00*74
$GNGBS,032836.00,2.8,2.2,8.1,,,,*50
$GNTXT,01,01,01,More than 100 frame errors, UART RX was disabled*70
b0LX' 
@pN(&]-p)/Il-=+;{4(V^:R 
YUFG(I-.HJgPsT(gU!<dVfbXY`wI$GNRMC,032837.00,A,0419.88831,S,05539.59984,E,0.141,,220525,,,A*7D
$GNVTG,,T,,M,0.141,N,0.261,K,A*3C
$GNGNS,032837.00,0419.88831,S,05539.59984,E,AA,14,0.81,8.7,-47.6,,*56
$GNGGA,032837.00,0419.88831,S,05539.59984,E,1,12,0.81,8.7,M,-47.6,M,,*7A
$GNGSA,A,3,11,13,20,06,15,05,22,14,29,,,,1.57,0.81,1.35*18
$GNGSA,A,3,85,73,80,71,86,,,,,,,,1.57,0.81,1.35*18
$GPGSV,5,1,18,05,32,179,39,06,28,031,15,11,64,029,31,12,07,334,*74
$GPGSV,5,2,18,13,38,192,40,14,14,093,09,15,28,232,23,19,03,030,*77
$GPGSV,5,3,18,20,47,135,41,22,20,073,15,24,45,317,21,29,11,260,29*72
$GPGSV,5,4,18,30,12,143,16,36,52,277,,40,86,350,40,41,58,082,*7A
$GPGSV,5,5,18,49,32,274,,50,10,089,*78
$GLGSV,2,1,08,70,15,176,,71,14,222,21,73,45,046,27,74,20,359,*63
$GLGSV,2,2,08,80,27,115,25,84,40,359,,85,60,270,33,86,16,217,18*6F
$GNGLL,0419.88831,S,05539.59984,E,032837.00,A,A*62
$GNGRS,032837.00,1,-1.4,-1.1,0.0,3.9,6.2,0.3,8.8,117,3.2,,,*63
$GNGRS,032837.00,1,-1.6,0.7,-0.6,-9.8,-4.1,,,,,,,*71
$GNGST,032837.00,48,,,,2.8,2.2,8.0*4A
$GNZDA,032837.00,22,05,2025,00,00*75
$GNGBS,032837.00,2.8,2.2,8.0,,,,*50
$GNTXT,01,01,01,More than 100 frame errors, UART RX was disabled*70
b0LX( *
  @!N)&]*/I^-={4)V^ :R 
YUFGI-.JgPsOT(gU <VbXYH{$GNRMC,032838.00,A,0419.88826,S,05539.59993,E,0.100,,220525,,,A*77
$GNVTG,,T,,M,0.100,N,0.186,K,A*33
$GNGNS,032838.00,0419.88826,S,05539.59993,E,AA,14,0.77,8.2,-47.6,,*55
$GNGGA,032838.00,0419.88826,S,05539.59993,E,1,12,0.77,8.2,M,-47.6,M,,*79
$GNGSA,A,3,11,13,20,06,15,05,22,14,29,,,,1.46,0.77,1.24*11
$GNGSA,A,3,85,73,80,71,86,,,,,,,,1.46,0.77,1.24*11
$GPGSV,5,1,18,05,32,179,40,06,28,031,13,11,64,029,32,12,07,334,*7F
$GPGSV,5,2,18,13,38,192,41,14,14,093,09,15,28,232,23,19,03,030,*76
$GPGSV,5,3,18,20,47,135,42,22,20,073,14,24,45,317,,29,11,260,27*7D
$GPGSV,5,4,18,30,12,143,16,36,52,277,,40,86,350,41,41,58,082,32*7A
$GPGSV,5,5,18,49,32,274,,50,10,089,*78
$GLGSV,2,1,08,70,15,176,,71,14,222,20,73,45,046,26,74,20,359,*63
$GLGSV,2,2,08,80,27,115,23,84,40,359,,85,60,270,32,86,16,217,16*66
$GNGLL,0419.88826,S,05539.59993,E,032838.00,A,A*6D
$GNGRS,032838.00,1,0.3,-1.0,0.1,8.0,5.2,0.4,8.6,14.4,-2.9,,,*40
$GNGRS,032838.00,1,-2.8,1.5,-1.8,-10.5,-8.5,,,,,,,*42
$GNGST,032838.00,3179277,,,,2.7,2.2,8.0*78
$GNZDA,032838.00,22,05,2025,00,00*7A
$GNGBS,032838.00,2.7,2.2,8.0,,,,*50
$GNTXT,01,01,01,More than 100 frame errors, UART RX was disabled*70
b0LX(!6
 @N(&]h*/I-={4)V^ :R 
YUFGI-.JgPsT(gU <VdbXY0$GNRMC,032839.00,A,0419.88824,S,05539.60002,E,0.132,,220525,,,A*7E
$GNVTG,,T,,M,0.132,N,0.244,K,A*3F
$GNGNS,032839.00,0419.88824,S,05539.60002,E,AA,14,0.77,7.8,-47.6,,*58
$GNGGA,032839.00,0419.88824,S,05539.60002,E,1,12,0.77,7.8,M,-47.6,M,,*74
$GNGSA,A,3,11,13,20,06,15,05,22,14,29,,,,1.46,0.77,1.24*11
$GNGSA,A,3,85,73,80,71,86,,,,,,,,1.46,0.77,1.24*11
$GPGSV,5,1,18,05,33,179,40,06,28,031,12,11,64,029,32,12,07,334,*7F
$GPGSV,5,2,18,13,38,192,40,14,14,093,09,15,28,232,23,19,03,030,*77
$GPGSV,5,3,18,20,47,135,42,22,20,073,15,24,45,317,,29,11,260,28*73
$GPGSV,5,4,18,30,12,143,17,36,52,277,,40,86,350,41,41,58,082,32*7B
$GPGSV,5,5,18,49,32,274,,50,10,089,*78
$GLGSV,2,1,08,70,15,176,,71,14,222,20,73,45,046,26,74,20,359,*63
$GLGSV,2,2,08,80,27,115,23,84,40,359,,85,60,270,32,86,16,217,16*66
$GNGLL,0419.88824,S,05539.60002,E,032839.00,A,A*65
$GNGRS,032839.00,1,-0.3,-1.0,-0.2,7.9,4.7,0.5,9.1,13.8,-2.9,,,*4C
$GNGRS,032839.00,1,-5.0,4.2,-0.7,-8.3,-7.6,,,,,,,*73
$GNGST,032839.00,3179277,,,,2.7,2.1,7.9*7C
$GNZDA,032839.00,22,05,2025,00,00*7B
$GNGBS,032839.00,2.7,2.1,7.9,,,,*54
$GNTXT,01,01,01,More than 100 frame errors, UART RX was disabled*70
b0LX)!9
 @ON(&].*/I-=a{4(V^!:R 
YUFG_I-.JgPsXT(gU <2VFbXY[$GNRMC,032840.00,A,0419.88822,S,05539.60007,E,0.012,,220525,,,A*70
$GNVTG,,T,,M,0.012,N,0.022,K,A*3E
$GNGNS,032840.00,0419.88822,S,05539.60007,E,AA,14,0.77,7.6,-47.6,,*5B
$GNGGA,032840.00,0419.88822,S,05539.60007,E,1,12,0.77,7.6,M,-47.6,M,,*77
$GNGSA,A,3,11,13,20,06,15,05,22,14,29,,,,1.46,0.77,1.24*11
$GNGSA,A,3,85,73,80,71,86,,,,,,,,1.46,0.77,1.24*11
$GPGSV,5,1,18,05,33,179,41,06,27,030,13,11,64,029,32,12,07,334,*71
$GPGSV,5,2,18,13,38,192,40,14,14,093,09,15,28,232,24,19,03,030,*70
$GPGSV,5,3,18,20,47,135,42,22,20,073,16,24,45,317,,29,11,260,28*70
$GPGSV,5,4,18,30,12,143,17,36,52,277,,40,86,350,40,41,58,082,33*7B
$GPGSV,5,5,18,49,32,274,,50,10,089,*78
$GLGSV,2,1,08,70,15,176,,71,14,222,19,73,45,046,27,74,20,359,*68
$GLGSV,2,2,08,80,27,115,23,84,40,359,,85,60,270,32,86,16,217,16*66
$GNGLL,0419.88822,S,05539.60007,E,032840.00,A,A*68
$GNGRS,032840.00,1,0.8,-1.0,0.0,4.9,2.2,0.6,7.1,-2.1,-1.6,,,*5E
$GNGRS,032840.00,1,-2.1,2.8,0.9,-9.3,-8.4,,,,,,,*58
$GNGST,032840.00,60,,,,2.7,2.1,7.9*4A
$GNZDA,032840.00,22,05,2025,00,00*75
$GNGBS,032840.00,2.7,2.1,7.9,,,,*5A
$GNTXT,01,01,01,More than 100 frame errors, UART RX was disabled*70
b0LxX(!4
 @EN(&]*/I-={4'V^!:R 
YUFGRI-.JgPsT(gU!<VI,bxXY3$GNRMC,032841.00,A,0419.88823,S,05539.60010,E,0.037,,220525,,,A*71
$GNVTG,,T,,M,0.037,N,0.068,K,A*37
$GNGNS,032841.00,0419.88823,S,05539.60010,E,AA,14,0.77,7.6,-47.6,,*5D
$GNGGA,032841.00,0419.88823,S,05539.60010,E,1,12,0.77,7.6,M,-47.6,M,,*71
$GNGSA,A,3,11,13,20,06,15,05,22,14,29,,,,1.46,0.77,1.24*11
$GNGSA,A,3,85,73,80,71,86,,,,,,,,1.46,0.77,1.24*11
$GPGSV,5,1,18,05,33,179,40,06,27,030,12,11,64,029,32,12,07,334,*71
$GPGSV,5,2,18,13,38,192,40,14,14,093,09,15,28,232,25,19,03,030,*71
$GPGSV,5,3,18,20,47,135,42,22,20,073,16,24,45,317,,29,11,260,29*71
$GPGSV,5,4,18,30,12,143,17,36,52,277,,40,86,350,39,41,58,082,33*75
$GPGSV,5,5,18,49,32,274,,50,10,089,*78
$GLGSV,2,1,08,70,15,176,,71,14,222,19,73,45,046,27,74,20,359,*68
$GLGSV,2,2,08,80,27,115,23,84,40,359,,85,60,270,33,86,16,217,14*65
$GNGLL,0419.88823,S,05539.60010,E,032841.00,A,A*6E
$GNGRS,032841.00,1,0.7,-0.8,-0.1,0.1,2.2,0.5,4.6,14.9,-3.7,,,*6F
$GNGRS,032841.00,1,-0.4,1.4,0.1,-9.4,-7.0,,,,,,,*55
$GNGST,032841.00,173065,,,,2.7,2.1,7.8*4A
$GNZDA,032841.00,22,05,2025,00,00*74
$GNGBS,032841.00,2.7,2.1,7.8,,,,*5A
$GNTXT,01,01,01,More than 100 frame errors, UART RX was disabled*70
b0L`X'!(
@N'&]o(/I}-={4&V^ :R 
YUFG!I-.JgPsT(gU!<Vb`XY
N$GNRMC,032842.00,A,0419.88823,S,05539.60010,E,0.045,,220525,,,A*77
$GNVTG,,T,,M,0.045,N,0.083,K,A*37
$GNGNS,032842.00,0419.88823,S,05539.60010,E,AA,14,0.77,7.6,-47.6,,*5E
$GNGGA,032842.00,0419.88823,S,05539.60010,E,1,12,0.77,7.6,M,-47.6,M,,*72
$GNGSA,A,3,11,13,20,06,15,05,22,14,29,,,,1.46,0.77,1.24*11
$GNGSA,A,3,85,73,80,71,86,,,,,,,,1.46,0.77,1.24*11
$GPGSV,5,1,18,05,33,179,39,06,27,030,11,11,64,029,31,12,07,334,*7F
$GPGSV,5,2,18,13,38,192,39,14,14,093,09,15,28,232,23,19,03,030,*79
$GPGSV,5,3,18,20,47,135,40,22,20,073,14,24,45,317,22,29,11,260,28*70
$GPGSV,5,4,18,30,12,143,15,36,52,277,,40,86,350,38,41,58,082,32*77
$GPGSV,5,5,18,49,32,274,,50,10,089,*78
$GLGSV,2,1,08,70,15,176,,71,14,222,21,73,45,046,27,74,20,359,*63
$GLGSV,2,2,08,80,27,115,24,84,40,359,,85,60,270,33,86,16,217,15*63
$GNGLL,0419.88823,S,05539.60010,E,032842.00,A,A*6D
$GNGRS,032842.00,1,1.6,-0.7,-0.5,-3.2,1.1,0.4,6.4,15.0,-2.6,,,*43
$GNGRS,032842.00,1,2.0,0.1,2.0,-9.9,-3.6,,,,,,,*75
$GNGST,032842.00,3179277,,,,2.7,2.1,7.8*71
$GNZDA,032842.00,22,05,2025,00,00*77
$GNGBS,032842.00,2.7,2.1,7.8,,,,*59
$GNTXT,01,01,01,More than 100 frame errors, UART RX was disabled*70
b0LHX'!!
,@N&%]U(/IZ-={4&V^ :R 
YUFGI-.JgPsT(gU <V(SbHXY$GNRMC,032843.00,A,0419.88824,S,05539.60008,E,0.012,,220525,,,A*7A
$GNVTG,,T,,M,0.012,N,0.022,K,A*3E
$GNGNS,032843.00,0419.88824,S,05539.60008,E,AA,13,0.91,7.8,-47.6,,*50
$GNGGA,032843.00,0419.88824,S,05539.60008,E,1,12,0.91,7.8,M,-47.6,M,,*7B
$GNGSA,A,3,11,13,20,15,05,22,14,29,,,,,1.68,0.91,1.42*13
$GNGSA,A,3,85,73,80,71,86,,,,,,,,1.68,0.91,1.42*15
$GPGSV,5,1,18,05,33,179,39,06,27,030,08,11,64,029,31,12,07,334,*77
$GPGSV,5,2,18,13,37,192,38,14,14,093,08,15,28,232,23,19,03,030,*76
$GPGSV,5,3,18,20,47,135,40,22,20,073,13,24,45,317,,29,11,260,28*77
$GPGSV,5,4,18,30,12,143,15,36,52,277,,40,86,350,38,41,58,082,32*77
$GPGSV,5,5,18,49,32,274,,50,10,089,*78
$GLGSV,2,1,08,70,15,176,,71,14,222,21,73,45,046,28,74,20,359,*6C
$GLGSV,2,2,08,80,27,115,25,84,40,359,,85,60,270,32,86,16,217,14*62
$GNGLL,0419.88824,S,05539.60008,E,032843.00,A,A*62
$GNGRS,032843.00,1,-0.3,-0.9,-0.6,3.4,0.3,6.0,-131,-5.4,,,,*61
$GNGRS,032843.00,1,1.9,-0.2,2.1,-9.0,-4.7,,,,,,,*5E
$GNGST,032843.00,45,,,,2.7,2.1,7.8*4F
$GNZDA,032843.00,22,05,2025,00,00*76
$GNGBS,032843.00,2.7,2.1,7.8,,,,*58
$GNTXT,01,01,01,More than 100 frame errors, UART RX was disabled*70
b0L0X'!*
T@N'%
])/Ip-={4'V^:R 
YUFGuI-.JgPsT(gU <Vb0XY$GNRMC,032844.00,A,0419.88823,S,05539.60007,E,0.086,,220525,,,A*78
$GNVTG,,T,,M,0.086,N,0.159,K,A*3E
$GNGNS,032844.00,0419.88823,S,05539.60007,E,AA,14,0.77,7.8,-47.6,,*50
$GNGGA,032844.00,0419.88823,S,05539.60007,E,1,12,0.77,7.8,M,-47.6,M,,*7C
$GNGSA,A,3,11,13,20,06,15,05,22,14,29,,,,1.46,0.77,1.24*11
$GNGSA,A,3,85,73,80,71,86,,,,,,,,1.46,0.77,1.24*11
$GPGSV,5,1,18,05,33,179,39,06,27,030,08,11,64,029,31,12,07,334,*77
$GPGSV,5,2,18,13,37,192,39,14,14,093,10,15,28,232,20,19,03,030,*7D
$GPGSV,5,3,18,20,47,135,41,22,20,073,12,24,45,317,,29,11,260,27*78
$GPGSV,5,4,18,30,12,143,14,36,52,277,,40,86,350,39,41,58,082,31*74
$GPGSV,5,5,18,49,32,274,,50,10,089,*78
$GLGSV,2,1,08,70,15,176,,71,14,222,21,73,45,046,27,74,20,359,*63
$GLGSV,2,2,08,80,27,115,24,84,40,359,,85,60,270,32,86,16,217,11*66
$GNGLL,0419.88823,S,05539.60007,E,032844.00,A,A*6D
$GNGRS,032844.00,1,1.5,-0.8,-0.6,8.5,9.8,0.4,6.2,14.8,-5.4,,,*60
$GNGRS,032844.00,1,1.6,-0.4,2.6,-9.1,-1.0,,,,,,,*54
$GNGST,032844.00,417981,,,,2.7,2.1,7.8*4B
$GNZDA,032844.00,22,05,2025,00,00*71
$GNGBS,032844.00,2.7,2.1,7.8,,,,*5F
$GNTXT,01,01,01,More than 100 frame errors, UART RX was disabled*70
b0LX'!D

*?N'%])/IO-=B{4'V^ :R 
YUFG5I-.JgPsT(gU#<!VGbXY$GNRMC,032845.00,A,0419.88821,S,05539.60005,E,0.019,,220525,,,A*7F
$GNVTG,,T,,M,0.019,N,0.034,K,A*32
$GNGNS,032845.00,0419.88821,S,05539.60005,E,AA,12,0.82,7.7,-47.6,,*52
$GNGGA,032845.00,0419.88821,S,05539.60005,E,1,12,0.82,7.7,M,-47.6,M,,*78
$GNGSA,A,3,11,13,20,06,15,05,22,29,,,,,1.61,0.82,1.39*17
$GNGSA,A,3,85,73,80,71,,,,,,,,,1.61,0.82,1.39*1C
$GPGSV,5,1,18,05,33,179,39,06,27,030,10,11,63,029,31,12,07,334,*79
$GPGSV,5,2,18,13,37,192,39,14,14,093,07,15,28,232,18,19,03,030,*70
$GPGSV,5,3,18,20,47,135,41,22,20,073,13,24,45,317,,29,11,260,27*79
$GPGSV,5,4,18,30,12,143,14,36,52,277,,40,86,350,39,41,58,082,32*77
$GPGSV,5,5,18,49,32,274,,50,10,089,*78
$GLGSV,2,1,08,70,15,176,,71,14,222,21,73,45,046,27,74,20,359,*63
$GLGSV,2,2,08,80,27,115,23,84,40,359,,85,60,270,35,86,16,217,08*6E
$GNGLL,0419.88821,S,05539.60005,E,032845.00,A,A*6C
$GNGRS,032845.00,1,1.5,-0.8,-0.6,8.1,9.9,0.7,5.9,-4.5,,,,*7C
$GNGRS,032845.00,1,2.9,-0.4,1.4,-9.7,,,,,,,,*5C
$GNGST,032845.00,86543,,,,2.7,2.1,7.7*7B
$GNZDA,032845.00,22,05,2025,00,00*70
$GNGBS,032845.00,2.7,2.1,7.7,,,,*51
$GNTXT,01,01,01,More than 100 frame errors, UART RX was disabled*70
b0LX'!D
?N'%
]>)/I-={4'V^ :R 
YUFGZI-.JgPsT(gU <<VbXYj$GNRMC,032846.00,A,0419.88822,S,05539.60004,E,0.005,,220525,,,A*73
$GNVTG,,T,,M,0.005,N,0.010,K,A*39
$GNGNS,032846.00,0419.88822,S,05539.60004,E,AA,14,0.81,7.7,-47.6,,*56
$GNGGA,032846.00,0419.88822,S,05539.60004,E,1,12,0.81,7.7,M,-47.6,M,,*7A
$GNGSA,A,3,11,13,20,06,15,05,22,14,29,,,,1.57,0.81,1.35*18
$GNGSA,A,3,85,73,80,71,86,,,,,,,,1.57,0.81,1.35*18
$GPGSV,5,1,18,05,33,179,39,06,27,030,13,11,63,029,31,12,07,334,*7A
$GPGSV,5,2,18,13,37,192,39,14,14,093,10,15,28,232,21,19,03,030,*7C
$GPGSV,5,3,18,20,47,135,41,22,20,073,13,24,45,317,,29,11,260,29*77
$GPGSV,5,4,18,30,12,143,14,36,52,277,,40,86,350,39,41,58,082,32*77
$GPGSV,5,5,18,49,32,274,,50,10,089,*78
$GLGSV,2,1,08,70,15,176,,71,14,222,21,73,45,046,28,74,20,359,*6C
$GLGSV,2,2,08,80,27,115,24,84,40,359,,85,60,270,32,86,16,217,13*64
$GNGLL,0419.88822,S,05539.60004,E,032846.00,A,A*6D
$GNGRS,032846.00,1,1.6,-0.8,-0.6,6.9,7.7,0.7,4.8,161,-5.5,,,*4D
$GNGRS,032846.00,1,3.2,-0.8,1.8,-9.3,5.0,,,,,,,*7A
$GNGST,032846.00,51,,,,2.7,2.1,7.7*40
$GNZDA,032846.00,22,05,2025,00,00*73
$GNGBS,032846.00,2.7,2.1,7.7,,,,*52
$GNTXT,01,01,01,More than 100 frame errors, UART RX was disabled*70
b0LX&!1
a ?N'%])/I-={4(V^ :R 
YUFGI-.JgPsXT(gU<VbXYpAG$GNRMC,032847.00,A,0419.88821,S,05539.60001,E,0.032,,220525,,,A*70
$GNVTG,,T,,M,0.032,N,0.059,K,A*30
$GNGNS,032847.00,0419.88821,S,05539.60001,E,AA,14,0.77,7.8,-47.6,,*57
$GNGGA,032847.00,0419.88821,S,05539.60001,E,1,12,0.77,7.8,M,-47.6,M,,*7B
$GNGSA,A,3,11,13,20,06,15,05,22,14,29,,,,1.46,0.77,1.24*11
$GNGSA,A,3,85,73,80,71,86,,,,,,,,1.46,0.77,1.24*11
$GPGSV,5,1,18,05,33,179,38,06,27,030,07,11,63,029,32,12,07,334,*7D
$GPGSV,5,2,18,13,37,192,39,14,14,093,09,15,28,232,30,19,03,030,*74
$GPGSV,5,3,18,20,47,135,41,22,20,073,13,24,45,317,,29,11,260,28*76
$GPGSV,5,4,18,30,12,143,14,36,52,277,,40,86,350,40,41,58,082,32*79
$GPGSV,5,5,18,49,32,274,,50,10,089,*78
$GLGSV,2,1,08,70,15,176,,71,14,222,22,73,45,046,28,74,20,359,*6F
$GLGSV,2,2,08,80,27,115,23,84,40,359,,85,60,270,31,86,16,217,16*65
$GNGLL,0419.88821,S,05539.60001,E,032847.00,A,A*6A
$GNGRS,032847.00,1,-0.9,-0.6,-0.7,8.6,0.0,0.5,5.0,15.0,-2.6,,,*42
$GNGRS,032847.00,1,7.6,-0.1,0.9,-8.8,4.7,,,,,,,*7E
$GNGST,032847.00,418030,,,,2.7,2.1,7.7*4B
$GNZDA,032847.00,22,05,2025,00,00*72
$GNGBS,032847.00,2.7,2.1,7.7,,,,*53
$GNTXT,01,01,01,More than 100 frame errors, UART RX was disabled*70
b0LX'!G
Q ?N(%]*/I\-={4(V^:R 
YUFGI-.~JgPsJT(gU<zV}bXYX$GNRMC,032848.00,A,0419.88822,S,05539.60004,E,0.036,,220525,,,A*7D
$GNVTG,,T,,M,0.036,N,0.066,K,A*38
$GNGNS,032848.00,0419.88822,S,05539.60004,E,AA,14,0.77,7.7,-47.6,,*51
$GNGGA,032848.00,0419.88822,S,05539.60004,E,1,12,0.77,7.7,M,-47.6,M,,*7D
$GNGSA,A,3,11,13,20,06,15,05,22,14,29,,,,1.46,0.77,1.24*11
$GNGSA,A,3,85,73,80,71,86,,,,,,,,1.46,0.77,1.24*11
$GPGSV,5,1,18,05,33,179,39,06,27,030,12,11,63,029,32,12,07,334,*78
$GPGSV,5,2,18,13,37,192,40,14,14,093,09,15,28,232,28,19,03,030,*73
$GPGSV,5,3,18,20,47,135,42,22,20,073,14,24,45,317,,29,11,260,29*73
$GPGSV,5,4,18,30,12,143,16,36,52,277,,40,86,350,40,41,58,082,31*78
$GPGSV,5,5,18,49,32,274,,50,10,089,*78
$GLGSV,2,1,08,70,15,176,,71,14,222,22,73,45,046,27,74,20,359,*60
$GLGSV,2,2,08,80,27,115,22,84,40,359,,85,60,270,30,86,16,217,12*61
$GNGLL,0419.88822,S,05539.60004,E,032848.00,A,A*63
$GNGRS,032848.00,1,1.4,-0.8,-0.5,8.5,1.7,0.7,3.5,14.9,-7.7,,,*68
$GNGRS,032848.00,1,-3.9,1.3,0.7,-8.9,4.4,,,,,,,*75
$GNGST,032848.00,418091,,,,2.6,2.1,7.7*4E
$GNZDA,032848.00,22,05,2025,00,00*7D
$GNGBS,032848.00,2.6,2.1,7.7,,,,*5D
$GNTXT,01,01,01,More than 100 frame errors, UART RX was disabled*70
b0LX'!j

C?N(%
]jc*/Id-={4'V^ :R 
YUFGI-.JgPsT(gU<~VG*bXY@$GNRMC,032849.00,A,0419.88823,S,05539.60006,E,0.027,,220525,,,A*7F
$GNVTG,,T,,M,0.027,N,0.049,K,A*35
$GNGNS,032849.00,0419.88823,S,05539.60006,E,AA,14,0.91,7.5,-47.6,,*59
$GNGGA,032849.00,0419.88823,S,05539.60006,E,1,12,0.91,7.5,M,-47.6,M,,*75
$GNGSA,A,3,11,13,20,06,15,05,22,14,29,,,,1.68,0.91,1.42*15
$GNGSA,A,3,85,73,80,71,86,,,,,,,,1.68,0.91,1.42*15
$GPGSV,5,1,18,05,33,179,39,06,27,030,10,11,63,029,31,12,07,334,*79
$GPGSV,5,2,18,13,37,192,40,14,14,093,10,15,28,231,27,19,03,030,*77
$GPGSV,5,3,18,20,47,135,42,22,20,073,14,24,45,317,,29,11,260,28*72
$GPGSV,5,4,18,30,12,143,17,36,52,277,,40,86,350,39,41,58,082,32*74
$GPGSV,5,5,18,49,32,274,,50,10,089,*78
$GLGSV,2,1,08,70,15,176,,71,14,222,22,73,45,046,26,74,20,359,*61
$GLGSV,2,2,08,80,27,115,23,84,40,359,,85,60,270,30,86,16,217,12*60
$GNGLL,0419.88823,S,05539.60006,E,032849.00,A,A*61
$GNGRS,032849.00,1,1.4,-0.6,-0.7,-24.9,1.0,1.1,6.1,-50.1,-3.6,,,*5B
$GNGRS,032849.00,1,-6.4,-0.6,1.8,-8.8,-1.8,,,,,,,*7E
$GNGST,032849.00,46,,,,2.6,2.1,7.7*48
$GNZDA,032849.00,22,05,2025,00,00*7C
$GNGBS,032849.00,2.6,2.1,7.7,,,,*5C
$GNTXT,01,01,01,More than 100 frame errors, UART RX was disabled*70
b0LX'!
V?N(%
]K)/I-={4&V^ :R 
YUFGI-.JgPsFT(gU <"VtbXY($GNRMC,032850.00,A,0419.88820,S,05539.60011,E,0.068,,220525,,,A*79
$GNVTG,,T,,M,0.068,N,0.126,K,A*36
$GNGNS,032850.00,0419.88820,S,05539.60011,E,AA,14,0.77,6.9,-47.6,,*51
$GNGGA,032850.00,0419.88820,S,05539.60011,E,1,12,0.77,6.9,M,-47.6,M,,*7D
$GNGSA,A,3,11,13,20,06,15,05,22,14,29,,,,1.46,0.77,1.24*11
$GNGSA,A,3,85,73,80,71,86,,,,,,,,1.46,0.77,1.24*11
$GPGSV,5,1,18,05,33,179,39,06,27,030,15,11,63,029,30,12,07,334,*7D
$GPGSV,5,2,18,13,37,192,40,14,14,093,10,15,28,231,26,19,03,030,*76
$GPGSV,5,3,18,20,47,135,41,22,20,073,13,24,45,317,,29,11,260,28*76
$GPGSV,5,4,18,30,12,143,17,36,52,277,,40,86,350,38,41,58,082,32*75
