$GNRMC,075409.00,A,0419.85315,S,05539.91463,E,0.423,,280525,,,A*74
$GNVTG,,T,,M,0.423,N,0.784,K,A*33
$GNGGA,075409.00,0419.85315,S,05539.91463,E,1,11,0.88,17.9,M,-47.6,M,,*42
$GNGSA,A,3,25,23,12,15,18,24,29,13,10,,,,1.71,0.88,1.46*1E
$GNGSA,A,3,73,69,,,,,,,,,,,1.71,0.88,1.46*13
$GPGSV,5,1,19,05,04,029,17,10,38,231,28,12,43,153,27,13,06,068,24*73
$GPGSV,5,2,19,15,42,080,26,18,20,333,17,23,69,293,18,24,18,143,26*74
$GPGSV,5,3,19,25,73,197,26,26,03,316,,28,12,254,,29,34,020,13*7A
$GPGSV,5,4,19,31,00,275,,32,10,210,,36,52,277,,40,85,352,*7C
$GPGSV,5,5,19,41,58,082,34,49,32,274,,50,10,089,*4C
$GLGSV,3,1,10,69,28,049,33,70,61,147,,71,24,192,,73,44,200,23*61
$GLGSV,3,2,10,74,46,273,,75,09,314,,80,05,159,,84,05,013,*64
$GLGSV,3,3,10,85,01,327,,,,,27*5B
$GNGLL,0419.85315,S,05539.91463,E,075409.00,A,A*60
$GNRMC,075410.00,A,0419.85287,S,05539.91474,E,1.237,,280525,,,A*72
$GNVTG,,T,,M,1.237,N,2.290,K,A*33
$GNGGA,075410.00,0419.85287,S,05539.91474,E,1,11,0.88,17.6,M,-47.6,M,,*49
$GNGSA,A,3,25,23,12,15,18,24,29,13,10,,,,1.71,0.88,1.46*1E
$GNGSA,A,3,73,69,,,,,,,,,,,1.71,0.88,1.46*13
$GPGSV,5,1,19,05,04,029,16,10,38,231,27,12,43,153,27,13,06,068,23*7A
$GPGSV,5,2,19,15,42,080,24,18,20,333,13,23,69,293,17,24,18,143,24*7F
$GPGSV,5,3,19,25,73,197,25,26,03,316,,28,12,254,,29,34,020,14*7E
$GPGSV,5,4,19,31,00,275,,32,10,210,,36,52,277,,40,85,352,*7C
$GPGSV,5,5,19,41,58,082,30,49,32,274,,50,10,089,*48
$GLGSV,3,1,10,69,28,049,26,70,61,147,,71,24,192,,73,44,200,22*64
$GLGSV,3,2,10,74,46,273,,75,09,314,,80,05,159,,84,05,013,*64
$GLGSV,3,3,10,85,01,327,,,,,27*5B
$GNGLL,0419.85287,S,05539.91474,E,075410.00,A,A*64
$GNRMC,075411.00,A,0419.85280,S,05539.91460,E,0.620,,280525,,,A*72
$GNVTG,,T,,M,0.620,N,1.149,K,A*34
$GNGGA,075411.00,0419.85280,S,05539.91460,E,1,11,0.88,17.1,M,-47.6,M,,*4D
$GNGSA,A,3,25,23,12,15,18,24,29,13,10,,,,1.71,0.88,1.46*1E
$GNGSA,A,3,73,69,,,,,,,,,,,1.71,0.88,1.46*13
$GPGSV,5,1,19,05,04,029,,10,38,231,26,12,43,153,27,13,06,068,23*7C
$GPGSV,5,2,19,15,42,080,25,18,20,333,12,23,69,293,16,24,18,143,24*7E
$GPGSV,5,3,19,25,73,197,25,26,03,316,,28,12,254,,29,34,020,12*78
$GPGSV,5,4,19,31,00,275,,32,10,210,,36,52,277,,40,85,352,*7C
$GPGSV,5,5,19,41,58,082,31,49,32,274,,50,10,089,*49
$GLGSV,3,1,10,69,28,049,27,70,61,147,,71,24,192,,73,44,200,20*67
$GLGSV,3,2,10,74,46,273,,75,09,314,,80,05,159,,84,05,013,*64
$GLGSV,3,3,10,85,01,327,,,,,26*5A
$GNGLL,0419.85280,S,05539.91460,E,075411.00,A,A*67
$GNRMC,075412.00,A,0419.85256,S,05539.91461,E,0.108,,280525,,,A*76
$GNVTG,,T,,M,0.108,N,0.200,K,A*36
$GNGGA,075412.00,0419.85256,S,05539.91461,E,1,11,0.88,17.2,M,-47.6,M,,*47
$GNGSA,A,3,25,23,12,15,18,24,29,13,10,,,,1.71,0.88,1.46*1E
$GNGSA,A,3,73,69,,,,,,,,,,,1.71,0.88,1.46*13
$GPGSV,5,1,19,05,04,029,17,10,38,231,27,12,43,153,28,13,06,068,25*72
$GPGSV,5,2,19,15,42,080,27,18,20,333,14,23,69,293,16,24,18,143,26*78
$GPGSV,5,3,19,25,73,197,32,26,03,316,,28,12,254,,29,34,020,10*7C
$GPGSV,5,4,19,31,00,275,,32,10,210,,36,52,277,,40,85,352,*7C
$GPGSV,5,5,19,41,58,082,35,49,32,274,,50,10,089,*4D
$GLGSV,3,1,10,69,28,049,34,70,61,147,,71,24,192,,73,44,200,29*6C
$GLGSV,3,2,10,74,46,273,,75,09,314,,80,05,159,,84,05,013,*64
$GLGSV,3,3,10,85,01,327,,,,,33*5E
$GNGLL,0419.85256,S,05539.91461,E,075412.00,A,A*6E
$GNRMC,075413.00,A,0419.85242,S,05539.91456,E,0.043,,280525,,,A*78
$GNVTG,,T,,M,0.043,N,0.080,K,A*32
$GNGGA,075413.00,0419.85242,S,05539.91456,E,1,11,0.88,17.2,M,-47.6,M,,*47
$GNGSA,A,3,25,23,12,15,18,24,29,13,10,,,,1.71,0.88,1.46*1E
$GNGSA,A,3,73,69,,,,,,,,,,,1.71,0.88,1.46*13
$GPGSV,5,1,19,05,04,029,15,10,38,231,26,12,43,153,30,13,06,068,26*7B
$GPGSV,5,2,19,15,42,080,29,18,20,333,14,23,69,293,16,24,18,143,26*76
$GPGSV,5,3,19,25,73,197,34,26,03,316,,28,12,254,,29,34,020,15*7F
$GPGSV,5,4,19,31,00,275,,32,10,210,,36,52,277,,40,85,352,*7C
$GPGSV,5,5,19,41,58,082,36,49,32,274,,50,10,089,*4E
$GLGSV,3,1,10,69,28,049,34,70,61,147,,71,24,192,,73,44,200,29*6C
$GLGSV,3,2,10,74,46,273,,75,09,314,,80,05,159,,84,05,013,*64
$GLGSV,3,3,10,85,01,327,,,,,31*5C
$GNGLL,0419.85242,S,05539.91456,E,075413.00,A,A*6E
$GNRMC,075414.00,A,0419.85216,S,05539.91437,E,0.139,,280525,,,A*75
$GNVTG,,T,,M,0.139,N,0.257,K,A*36
$GNGGA,075414.00,0419.85216,S,05539.91437,E,1,11,0.88,16.7,M,-47.6,M,,*42
$GNGSA,A,3,25,23,12,15,18,24,29,13,10,,,,1.71,0.88,1.46*1E
$GNGSA,A,3,73,69,,,,,,,,,,,1.71,0.88,1.46*13
$GPGSV,5,1,19,05,04,029,15,10,38,231,26,12,43,153,30,13,06,068,25*78
$GPGSV,5,2,19,15,42,080,30,18,20,333,17,23,69,293,20,24,18,143,27*79
$GPGSV,5,3,19,25,73,197,35,26,03,316,,28,12,254,,29,34,020,17*7C
$GPGSV,5,4,19,31,00,275,,32,10,210,,36,52,277,,40,85,352,*7C
$GPGSV,5,5,19,41,58,082,36,49,32,274,,50,10,089,*4E
$GLGSV,3,1,10,69,28,049,34,70,61,147,20,71,24,192,,73,44,200,28*6F
$GLGSV,3,2,10,74,46,273,,75,09,314,,80,05,159,,84,05,013,*64
$GLGSV,3,3,10,85,01,327,,,,,31*5C
$GNGLL,0419.85216,S,05539.91437,E,075414.00,A,A*6F
$GNRMC,075415.00,A,0419.85190,S,05539.91416,E,0.099,,280525,,,A*71
$GNVTG,,T,,M,0.099,N,0.184,K,A*30
$GNGGA,075415.00,0419.85190,S,05539.91416,E,1,11,0.88,16.5,M,-47.6,M,,*4F
$GNGSA,A,3,25,23,12,15,18,24,29,13,10,,,,1.71,0.88,1.46*1E
$GNGSA,A,3,73,69,,,,,,,,,,,1.71,0.88,1.46*13
$GPGSV,5,1,19,05,04,029,12,10,38,231,27,12,43,153,30,13,06,068,23*78
$GPGSV,5,2,19,15,42,080,31,18,20,333,16,23,69,293,23,24,18,143,29*74
$GPGSV,5,3,19,25,73,197,36,26,03,316,,28,12,254,,29,34,020,18*70
$GPGSV,5,4,19,31,00,275,,32,10,210,,36,52,277,,40,85,352,*7C
$GPGSV,5,5,19,41,58,082,35,49,32,274,,50,10,089,*4D
$GLGSV,3,1,10,69,28,049,33,70,61,147,21,71,24,192,,73,44,200,28*69
$GLGSV,3,2,10,74,46,273,,75,09,314,,80,05,159,,84,05,013,*64
$GLGSV,3,3,10,85,01,327,,,,,30*5D
$GNGLL,0419.85190,S,05539.91416,E,075415.00,A,A*60
$GNRMC,075416.00,A,0419.85171,S,05539.91404,E,0.007,,280525,,,A*79
$GNVTG,,T,,M,0.007,N,0.013,K,A*38
$GNGGA,075416.00,0419.85171,S,05539.91404,E,1,11,0.88,16.5,M,-47.6,M,,*40
$GNGSA,A,3,25,23,12,15,18,24,29,13,10,,,,1.71,0.88,1.46*1E
$GNGSA,A,3,73,69,,,,,,,,,,,1.71,0.88,1.46*13
$GPGSV,5,1,19,05,04,029,13,10,38,231,27,12,43,153,29,13,06,068,23*71
$GPGSV,5,2,19,15,42,080,30,18,20,333,17,23,69,293,25,24,18,143,28*73
$GPGSV,5,3,19,25,73,197,35,26,03,316,,28,12,254,,29,34,020,20*78
$GPGSV,5,4,19,31,00,275,,32,10,210,,36,52,277,,40,85,352,*7C
$GPGSV,5,5,19,41,58,082,35,49,32,274,,50,10,089,*4D
$GLGSV,3,1,10,69,28,049,30,70,61,147,19,71,24,192,,73,44,200,27*6E
$GLGSV,3,2,10,74,46,273,,75,09,314,,80,05,159,,84,05,013,*64
$GLGSV,3,3,10,85,01,327,,,,,29*55
$GNGLL,0419.85171,S,05539.91404,E,075416.00,A,A*6F
$GNRMC,075417.00,A,0419.85149,S,05539.91389,E,0.117,,280525,,,A*71
$GNVTG,,T,,M,0.117,N,0.217,K,A*3E
$GNGGA,075417.00,0419.85149,S,05539.91389,E,1,11,0.88,16.5,M,-47.6,M,,*48
$GNGSA,A,3,25,23,12,15,18,24,29,13,10,,,,1.71,0.88,1.46*1E
$GNGSA,A,3,73,69,,,,,,,,,,,1.71,0.88,1.46*13
$GPGSV,5,1,19,05,04,029,15,10,38,231,27,12,43,153,29,13,06,068,24*70
$GPGSV,5,2,19,15,42,080,30,18,20,333,19,23,69,293,25,24,18,143,28*7D
$GPGSV,5,3,19,25,73,197,35,26,03,316,,28,12,254,,29,34,020,23*7B
$GPGSV,5,4,19,31,00,275,,32,10,210,,36,52,277,,40,85,352,*7C
$GPGSV,5,5,19,41,58,082,36,49,32,274,,50,10,089,*4E
$GLGSV,3,1,10,69,28,049,33,70,61,147,19,71,24,192,,73,44,200,27*6D
$GLGSV,3,2,10,74,46,273,,75,09,314,,80,05,159,,84,05,013,*64
$GLGSV,3,3,10,85,01,327,,,,,31*5C
$GNGLL,0419.85149,S,05539.91389,E,075417.00,A,A*67
$GNRMC,075418.00,A,0419.85140,S,05539.91370,E,0.086,,280525,,,A*78
$GNVTG,,T,,M,0.086,N,0.159,K,A*3E
$GNGGA,075418.00,0419.85140,S,05539.91370,E,1,11,0.88,16.3,M,-47.6,M,,*4E
$GNGSA,A,3,25,23,12,15,18,24,29,13,10,,,,1.71,0.88,1.46*1E
$GNGSA,A,3,73,69,,,,,,,,,,,1.71,0.88,1.46*13
$GPGSV,5,1,19,05,04,029,16,10,38,231,26,12,43,153,28,13,06,068,25*72
$GPGSV,5,2,19,15,42,080,30,18,20,333,19,23,69,293,23,24,18,143,27*74
$GPGSV,5,3,19,25,73,197,35,26,03,316,,28,12,254,,29,34,020,25*7D
$GPGSV,5,4,19,31,00,275,,32,10,210,,36,52,277,,40,85,352,*7C
$GPGSV,5,5,19,41,58,082,35,49,32,274,,50,10,089,*4D
$GLGSV,3,1,10,69,28,049,33,70,61,147,20,71,24,192,,73,44,200,26*66
$GLGSV,3,2,10,74,46,273,,75,09,314,,80,05,159,,84,05,013,*64
$GLGSV,3,3,10,85,01,327,,,,,30*5D
$GNGLL,0419.85140,S,05539.91370,E,075418.00,A,A*67
$GNRMC,075419.00,A,0419.85129,S,05539.91346,E,0.229,,280525,,,A*74
$GNVTG,,T,,M,0.229,N,0.423,K,A*31
$GNGGA,075419.00,0419.85129,S,05539.91346,E,1,11,0.88,15.7,M,-47.6,M,,*42
$GNGSA,A,3,25,23,12,15,18,24,29,13,10,,,,1.71,0.88,1.46*1E
$GNGSA,A,3,73,69,,,,,,,,,,,1.71,0.88,1.46*13
$GPGSV,5,1,19,05,04,029,15,10,38,231,28,12,43,153,28,13,06,068,26*7C
$GPGSV,5,2,19,15,42,080,30,18,20,333,19,23,69,293,20,24,18,143,27*77
$GPGSV,5,3,19,25,73,197,35,26,03,316,,28,12,254,,29,34,020,26*7E
$GPGSV,5,4,19,31,00,275,,32,10,210,,36,52,277,,40,85,352,*7C
$GPGSV,5,5,19,41,58,082,35,49,32,274,,50,10,089,*4D
$GLGSV,3,1,10,69,28,049,33,70,61,147,19,71,24,192,,73,44,200,27*6D
$GLGSV,3,2,10,74,46,273,,75,09,314,,80,05,159,,84,05,013,*64
$GLGSV,3,3,10,85,01,327,,,,,30*5D
$GNGLL,0419.85129,S,05539.91346,E,075419.00,A,A*6C
$GNRMC,075420.00,A,0419.85119,S,05539.91324,E,0.070,,280525,,,A*77
$GNVTG,,T,,M,0.070,N,0.130,K,A*38
$GNGGA,075420.00,0419.85119,S,05539.91324,E,1,11,0.88,15.2,M,-47.6,M,,*4A
$GNGSA,A,3,25,23,12,15,18,24,29,13,10,,,,1.71,0.88,1.46*1E
$GNGSA,A,3,73,69,,,,,,,,,,,1.71,0.88,1.46*13
$GPGSV,5,1,19,05,04,029,14,10,38,231,28,12,43,153,27,13,06,068,25*71
$GPGSV,5,2,19,15,42,080,30,18,20,333,17,23,69,293,18,24,18,143,27*72
$GPGSV,5,3,19,25,73,197,35,26,03,316,,28,12,254,,29,34,020,25*7D
$GPGSV,5,4,19,31,00,275,,32,10,210,,36,52,277,,40,85,352,*7C
$GPGSV,5,5,19,41,58,082,35,49,32,274,,50,10,089,*4D
$GLGSV,3,1,10,69,28,049,33,70,61,147,19,71,24,192,,73,44,200,27*6D
$GLGSV,3,2,10,74,46,273,,75,09,314,,80,05,159,,84,05,013,*64
$GLGSV,3,3,10,85,01,327,,,,,30*5D
$GNGLL,0419.85119,S,05539.91324,E,075420.00,A,A*61
$GNRMC,075421.00,A,0419.85113,S,05539.91317,E,0.044,,280525,,,A*7B
$GNVTG,,T,,M,0.044,N,0.081,K,A*34
$GNGGA,075421.00,0419.85113,S,05539.91317,E,1,11,0.88,15.1,M,-47.6,M,,*42
$GNGSA,A,3,25,23,12,15,18,24,29,13,10,,,,1.71,0.88,1.46*1E
$GNGSA,A,3,73,69,,,,,,,,,,,1.71,0.88,1.46*13
$GPGSV,5,1,19,05,04,029,14,10,38,231,26,12,43,153,28,13,06,068,24*71
$GPGSV,5,2,19,15,42,080,29,18,20,333,16,23,69,293,19,24,18,143,29*74
$GPGSV,5,3,19,25,73,197,35,26,03,316,,28,12,254,,29,34,020,26*7E
$GPGSV,5,4,19,31,00,275,,32,10,210,,36,52,277,,40,85,352,*7C
$GPGSV,5,5,19,41,58,082,34,49,32,274,,50,10,089,*4C
$GLGSV,3,1,10,69,28,049,32,70,61,147,19,71,24,192,,73,44,200,27*6C
$GLGSV,3,2,10,74,46,273,,75,09,314,,80,05,159,,84,05,013,*64
$GLGSV,3,3,10,85,01,327,,,,,31*5C
$GNGLL,0419.85113,S,05539.91317,E,075421.00,A,A*6A
$GNRMC,075422.00,A,0419.85109,S,05539.91310,E,0.037,,280525,,,A*70
$GNVTG,,T,,M,0.037,N,0.069,K,A*36
$GNGGA,075422.00,0419.85109,S,05539.91310,E,1,11,0.88,14.7,M,-47.6,M,,*4A
$GNGSA,A,3,25,23,12,15,18,24,29,13,10,,,,1.71,0.88,1.46*1E
$GNGSA,A,3,73,69,,,,,,,,,,,1.71,0.88,1.46*13
$GPGSV,5,1,19,05,04,029,15,10,38,231,27,12,43,153,28,13,06,068,26*73
$GPGSV,5,2,19,15,42,080,29,18,20,333,15,23,69,293,19,24,18,143,28*76
$GPGSV,5,3,19,25,73,197,35,26,03,316,,28,12,254,,29,34,020,25*7D
$GPGSV,5,4,19,31,00,275,,32,10,210,,36,52,277,,40,85,352,*7C
$GPGSV,5,5,19,41,58,082,37,49,32,274,,50,10,089,*4F
$GLGSV,3,1,10,69,28,049,32,70,61,147,18,71,24,192,,73,44,200,27*6D
$GLGSV,3,2,10,74,46,273,,75,09,314,,80,05,159,,84,05,013,*64
$GLGSV,3,3,10,85,01,327,,,,,32*5F
$GNGLL,0419.85109,S,05539.91310,E,075422.00,A,A*65
$GNRMC,075423.00,A,0419.85105,S,05539.91315,E,0.092,,280525,,,A*77
$GNVTG,,T,,M,0.092,N,0.170,K,A*30
$GNGGA,075423.00,0419.85105,S,05539.91315,E,1,11,0.88,14.7,M,-47.6,M,,*42
$GNGSA,A,3,25,23,12,15,18,24,29,13,10,,,,1.71,0.88,1.46*1E
$GNGSA,A,3,73,69,,,,,,,,,,,1.71,0.88,1.46*13
$GPGSV,5,1,19,05,04,029,14,10,38,231,27,12,43,153,28,13,06,068,24*70
$GPGSV,5,2,19,15,42,080,27,18,20,333,16,23,69,293,22,24,18,143,27*7C
$GPGSV,5,3,19,25,73,197,35,26,03,316,,28,12,254,,29,34,020,25*7D
$GPGSV,5,4,19,31,00,275,,32,10,210,,36,52,277,,40,85,352,*7C
$GPGSV,5,5,19,41,58,082,33,49,32,274,,50,10,089,*4B
$GLGSV,3,1,10,69,28,049,32,70,61,147,19,71,24,192,,73,44,200,26*6D
$GLGSV,3,2,10,74,46,273,,75,09,314,,80,05,159,,84,05,013,*64
$GLGSV,3,3,10,85,01,327,,,,,30*5D
$GNGLL,0419.85105,S,05539.91315,E,075423.00,A,A*6D
$GNRMC,075424.00,A,0419.85097,S,05539.91310,E,0.122,,280525,,,A*75
$GNVTG,,T,,M,0.122,N,0.226,K,A*3A
$GNGGA,075424.00,0419.85097,S,05539.91310,E,1,11,0.88,14.5,M,-47.6,M,,*48
$GNGSA,A,3,25,23,12,15,18,24,29,13,10,,,,1.71,0.88,1.46*1E
$GNGSA,A,3,73,69,,,,,,,,,,,1.71,0.88,1.46*13
$GPGSV,5,1,19,05,04,029,12,10,38,231,26,12,43,153,26,13,06,068,23*7E
$GPGSV,5,2,19,15,42,080,28,18,20,333,18,23,69,293,23,24,18,143,27*7C
$GPGSV,5,3,19,25,73,197,35,26,03,316,,28,12,254,,29,34,020,25*7D
$GPGSV,5,4,19,31,00,275,,32,10,210,,36,52,277,,40,85,352,*7C
$GPGSV,5,5,19,41,58,082,36,49,32,274,,50,10,089,*4E
$GLGSV,3,1,10,69,28,049,32,70,61,147,17,71,24,192,,73,44,200,23*66
$GLGSV,3,2,10,74,46,273,,75,09,314,,80,05,159,,84,05,013,*64
$GLGSV,3,3,10,85,01,327,,,,,32*5F
$GNGLL,0419.85097,S,05539.91310,E,075424.00,A,A*65
$GNRMC,075425.00,A,0419.85093,S,05539.91311,E,0.027,,280525,,,A*75
$GNVTG,,T,,M,0.027,N,0.049,K,A*35
$GNGGA,075425.00,0419.85093,S,05539.91311,E,1,11,0.88,14.4,M,-47.6,M,,*4D
$GNGSA,A,3,25,23,12,15,18,24,29,13,10,,,,1.71,0.88,1.46*1E
$GNGSA,A,3,73,69,,,,,,,,,,,1.71,0.88,1.46*13
$GPGSV,5,1,19,05,04,029,10,10,38,231,32,12,43,153,27,13,06,068,24*7F
$GPGSV,5,2,19,15,42,080,28,18,20,333,18,23,69,293,24,24,18,143,28*74
$GPGSV,5,3,19,25,73,197,33,26,03,316,,28,12,254,,29,34,020,25*7B
$GPGSV,5,4,19,31,00,275,,32,10,210,,36,52,277,,40,85,352,*7C
$GPGSV,5,5,19,41,58,082,36,49,32,274,,50,10,089,*4E
$GLGSV,3,1,10,69,28,049,32,70,61,147,16,71,24,192,,73,44,200,21*65
$GLGSV,3,2,10,74,46,273,,75,09,314,,80,05,159,,84,05,013,*64
$GLGSV,3,3,10,85,01,327,,,,,32*5F
$GNGLL,0419.85093,S,05539.91311,E,075425.00,A,A*61
$GNRMC,075426.00,A,0419.85094,S,05539.91303,E,0.040,,280525,,,A*73
$GNVTG,,T,,M,0.040,N,0.074,K,A*3A
$GNGGA,075426.00,0419.85094,S,05539.91303,E,1,11,0.88,14.1,M,-47.6,M,,*4F
$GNGSA,A,3,25,23,12,15,18,24,29,13,10,,,,1.71,0.88,1.46*1E
$GNGSA,A,3,73,69,,,,,,,,,,,1.71,0.88,1.46*13
$GPGSV,5,1,19,05,04,029,12,10,38,231,32,12,43,153,28,13,06,068,25*73
$GPGSV,5,2,19,15,42,080,28,18,20,333,19,23,69,293,23,24,18,143,26*7C
$GPGSV,5,3,19,25,73,197,34,26,03,316,,28,12,254,,29,34,020,24*7D
$GPGSV,5,4,19,31,00,275,,32,10,210,,36,52,277,,40,85,352,36*79
$GPGSV,5,5,19,41,58,082,36,49,32,274,,50,10,089,*4E
$GLGSV,3,1,10,69,28,049,30,70,61,147,15,71,24,192,,73,44,200,18*6E
$GLGSV,3,2,10,74,46,273,,75,09,314,,80,05,159,,84,05,013,*64
$GLGSV,3,3,10,85,01,327,,,,,31*5C
$GNGLL,0419.85094,S,05539.91303,E,075426.00,A,A*66
$GNRMC,075427.00,A,0419.85093,S,05539.91282,E,0.187,,280525,,,A*77
$GNVTG,,T,,M,0.187,N,0.346,K,A*32
$GNGGA,075427.00,0419.85093,S,05539.91282,E,1,11,0.88,13.5,M,-47.6,M,,*42
$GNGSA,A,3,25,23,12,15,18,24,29,13,10,,,,1.71,0.88,1.46*1E
$GNGSA,A,3,73,69,,,,,,,,,,,1.71,0.88,1.46*13
$GPGSV,5,1,19,05,04,029,13,10,38,231,30,12,43,153,27,13,06,068,26*7C
$GPGSV,5,2,19,15,42,080,30,18,20,333,19,23,69,293,20,24,18,143,27*77
$GPGSV,5,3,19,25,73,197,35,26,03,316,,28,12,254,,29,34,020,23*7B
$GPGSV,5,4,19,31,00,275,,32,10,210,,36,52,277,,40,85,352,37*78
$GPGSV,5,5,19,41,58,082,36,49,32,274,,50,10,089,*4E
$GLGSV,3,1,10,69,28,049,30,70,61,147,16,71,24,192,,73,44,200,20*66
$GLGSV,3,2,10,74,46,273,,75,09,314,,80,05,159,,84,05,013,*64
$GLGSV,3,3,10,85,01,327,,,,,29*55
$GNGLL,0419.85093,S,05539.91282,E,075427.00,A,A*68
$GNRMC,075428.00,A,0419.85089,S,05539.91262,E,0.346,,280525,,,A*72
$GNVTG,,T,,M,0.346,N,0.642,K,A*3C
$GNGGA,075428.00,0419.85089,S,05539.91262,E,1,11,0.88,12.9,M,-47.6,M,,*45
$GNGSA,A,3,25,23,12,15,18,24,29,13,10,,,,1.71,0.88,1.46*1E
$GNGSA,A,3,73,69,,,,,,,,,,,1.71,0.88,1.46*13
$GPGSV,5,1,19,05,04,029,11,10,38,231,24,12,43,153,27,13,06,068,26*7B
$GPGSV,5,2,19,15,42,080,30,18,20,333,19,23,69,293,16,24,18,143,27*72
$GPGSV,5,3,19,25,73,197,35,26,03,316,,28,12,254,,29,34,020,21*79
$GPGSV,5,4,19,31,00,275,,32,10,210,,36,52,277,,40,85,352,36*79
$GPGSV,5,5,19,41,58,082,35,49,32,274,,50,10,089,*4D
$GLGSV,3,1,10,69,28,049,31,70,61,147,19,71,24,192,,73,44,200,22*6A
$GLGSV,3,2,10,74,46,273,,75,09,314,,80,05,159,,84,05,013,*64
$GLGSV,3,3,10,85,01,327,,,,,29*55
$GNGLL,0419.85089,S,05539.91262,E,075428.00,A,A*62
$GNRMC,075429.00,A,0419.85089,S,05539.91256,E,0.057,,280525,,,A*77
$GNVTG,,T,,M,0.057,N,0.105,K,A*3B
$GNGGA,075429.00,0419.85089,S,05539.91256,E,1,11,0.88,12.7,M,-47.6,M,,*4D
$GNGSA,A,3,25,23,12,15,18,24,29,13,10,,,,1.71,0.88,1.46*1E
$GNGSA,A,3,73,69,,,,,,,,,,,1.71,0.88,1.46*13
$GPGSV,5,1,19,05,04,029,13,10,38,231,24,12,43,153,26,13,06,068,27*79
$GPGSV,5,2,19,15,42,080,29,18,20,333,19,23,69,293,17,24,18,143,27*7B
$GPGSV,5,3,19,25,73,197,32,26,03,316,,28,12,254,,29,34,020,20*7F
$GPGSV,5,4,19,31,00,275,,32,10,210,,36,52,277,,40,85,352,35*7A
$GPGSV,5,5,19,41,58,082,35,49,32,274,,50,10,089,*4D
$GLGSV,3,1,10,69,28,049,30,70,61,147,20,71,24,192,,73,44,200,24*67
$GLGSV,3,2,10,74,46,273,,75,09,314,,80,05,159,,84,05,013,*64
$GLGSV,3,3,10,85,01,327,,,,,29*55
$GNGLL,0419.85089,S,05539.91256,E,075429.00,A,A*64
$GNRMC,075430.00,A,0419.85085,S,05539.91246,E,0.123,,280525,,,A*70
$GNVTG,,T,,M,0.123,N,0.228,K,A*35
$GNGGA,075430.00,0419.85085,S,05539.91246,E,1,11,0.88,12.3,M,-47.6,M,,*4C
$GNGSA,A,3,25,23,12,15,18,24,29,13,10,,,,1.71,0.88,1.46*1E
$GNGSA,A,3,73,69,,,,,,,,,,,1.71,0.88,1.46*13
$GPGSV,5,1,19,05,04,029,12,10,38,231,25,12,43,153,27,13,06,068,25*7A
$GPGSV,5,2,19,15,42,080,28,18,20,333,18,23,69,293,17,24,18,143,26*7A
$GPGSV,5,3,19,25,73,197,36,26,03,316,,28,12,254,,29,34,020,21*7A
$GPGSV,5,4,19,31,00,275,,32,10,210,,36,52,277,,40,85,352,35*7A
$GPGSV,5,5,19,41,58,082,36,49,32,274,,50,10,089,*4E
$GLGSV,3,1,10,69,28,049,30,70,61,147,20,71,24,192,,73,44,200,25*66
$GLGSV,3,2,10,74,46,273,,75,09,314,,80,05,159,,84,05,013,*64
$GLGSV,3,3,10,85,01,327,,,,,29*55
$GNGLL,0419.85085,S,05539.91246,E,075430.00,A,A*61
$GNRMC,075431.00,A,0419.85087,S,05539.91244,E,0.127,,280525,,,A*75
$GNVTG,,T,,M,0.127,N,0.235,K,A*3D
$GNGGA,075431.00,0419.85087,S,05539.91244,E,1,11,0.88,12.1,M,-47.6,M,,*4F
$GNGSA,A,3,25,23,12,15,18,24,29,13,10,,,,1.71,0.88,1.46*1E
$GNGSA,A,3,73,69,,,,,,,,,,,1.71,0.88,1.46*13
$GPGSV,5,1,19,05,04,029,11,10,38,231,25,12,43,153,27,13,06,068,26*7A
$GPGSV,5,2,19,15,42,080,27,18,20,333,19,23,69,293,16,24,18,143,25*76
$GPGSV,5,3,19,25,73,197,35,26,03,316,,28,12,254,,29,34,020,22*7A
$GPGSV,5,4,19,31,00,275,,32,10,210,,36,52,277,,40,85,352,35*7A
$GPGSV,5,5,19,41,58,082,35,49,32,274,,50,10,089,*4D
$GLGSV,3,1,10,69,28,049,32,70,62,146,21,71,24,192,,73,44,200,22*60
$GLGSV,3,2,10,74,46,273,,75,09,314,,80,05,159,,84,05,013,*64
$GLGSV,3,3,10,85,01,327,,,,,28*54
$GNGLL,0419.85087,S,05539.91244,E,075431.00,A,A*60
$GNRMC,075432.00,A,0419.85084,S,05539.91229,E,0.141,,280525,,,A*7E
$GNVTG,,T,,M,0.141,N,0.262,K,A*3F
$GNGGA,075432.00,0419.85084,S,05539.91229,E,1,11,0.88,11.6,M,-47.6,M,,*40
$GNGSA,A,3,25,23,12,15,18,24,29,13,10,,,,1.71,0.88,1.46*1E
$GNGSA,A,3,73,69,,,,,,,,,,,1.71,0.88,1.46*13
$GPGSV,5,1,19,05,04,029,12,10,38,231,25,12,43,153,26,13,06,068,25*7B
$GPGSV,5,2,19,15,42,080,26,18,20,333,20,23,69,293,14,24,18,143,25*7F
$GPGSV,5,3,19,25,73,197,35,26,03,316,,28,12,254,,29,34,020,19*72
$GPGSV,5,4,19,31,00,275,,32,10,210,,36,52,277,,40,85,352,36*79
$GPGSV,5,5,19,41,58,082,35,49,32,274,,50,10,089,*4D
$GLGSV,3,1,10,69,28,049,32,70,62,146,21,71,24,192,,73,44,200,23*61
$GLGSV,3,2,10,74,46,273,,75,09,314,,80,05,159,,84,05,013,*64
$GLGSV,3,3,10,85,01,327,,,,,29*55
$GNGLL,0419.85084,S,05539.91229,E,075432.00,A,A*6B
$GNRMC,075433.00,A,0419.85079,S,05539.91203,E,0.177,,280525,,,A*70
$GNVTG,,T,,M,0.177,N,0.329,K,A*34
$GNGGA,075433.00,0419.85079,S,05539.91203,E,1,10,0.93,11.0,M,-47.6,M,,*46
$GNGSA,A,3,25,23,12,15,18,24,13,10,,,,,1.75,0.93,1.48*15
$GNGSA,A,3,73,69,,,,,,,,,,,1.75,0.93,1.48*13
$GPGSV,5,1,19,05,04,029,10,10,38,231,26,12,43,153,23,13,06,068,25*7F
$GPGSV,5,2,19,15,42,080,32,18,20,333,19,23,69,293,14,24,18,143,25*70
$GPGSV,5,3,19,25,73,197,35,26,03,316,,28,12,254,,29,34,020,21*79
$GPGSV,5,4,19,31,00,275,,32,10,210,,36,52,277,,40,85,352,36*79
$GPGSV,5,5,19,41,58,082,35,49,32,274,,50,10,089,*4D
$GLGSV,3,1,10,69,28,049,31,70,62,146,20,71,24,192,,73,44,200,22*62
$GLGSV,3,2,10,74,46,273,,75,09,314,,80,05,159,,84,05,013,*64
$GLGSV,3,3,10,85,01,327,,,,,30*5D
$GNGLL,0419.85079,S,05539.91203,E,075433.00,A,A*60
$GNRMC,075434.00,A,0419.85069,S,05539.91188,E,0.363,,280525,,,A*71
$GNVTG,,T,,M,0.363,N,0.672,K,A*38
$GNGGA,075434.00,0419.85069,S,05539.91188,E,1,10,0.93,10.7,M,-47.6,M,,*46
$GNGSA,A,3,25,23,12,15,18,24,13,10,,,,,1.75,0.93,1.48*15
$GNGSA,A,3,73,69,,,,,,,,,,,1.75,0.93,1.48*13
$GPGSV,5,1,19,05,04,029,12,10,38,231,26,12,43,153,21,13,06,068,25*7F
$GPGSV,5,2,19,15,42,080,30,18,20,333,19,23,69,293,17,24,18,143,25*71
$GPGSV,5,3,19,25,73,197,34,26,03,316,,28,12,254,,29,34,020,20*79
$GPGSV,5,4,19,31,00,275,,32,10,210,,36,52,277,,40,85,352,36*79
$GPGSV,5,5,19,41,58,082,36,49,32,274,,50,10,089,*4E
$GLGSV,3,1,10,69,28,049,31,70,62,146,21,71,24,192,22,73,44,199,20*62
$GLGSV,3,2,10,74,46,273,20,75,09,314,,80,05,159,,84,05,013,*66
$GLGSV,3,3,10,85,01,327,,,,,30*5D
$GNGLL,0419.85069,S,05539.91188,E,075434.00,A,A*66
$GNRMC,075435.00,A,0419.85069,S,05539.91184,E,0.197,,280525,,,A*75
$GNVTG,,T,,M,0.197,N,0.365,K,A*32
$GNGGA,075435.00,0419.85069,S,05539.91184,E,1,10,0.93,10.5,M,-47.6,M,,*49
$GNGSA,A,3,25,23,12,15,18,24,13,10,,,,,1.75,0.93,1.48*15
$GNGSA,A,3,73,69,,,,,,,,,,,1.75,0.93,1.48*13
$GPGSV,5,1,19,05,04,029,12,10,38,231,27,12,43,153,22,13,06,068,24*7C
$GPGSV,5,2,19,15,42,080,23,18,20,333,18,23,69,293,19,24,18,143,26*7F
$GPGSV,5,3,19,25,73,197,35,26,03,316,,28,12,254,,29,34,020,19*72
$GPGSV,5,4,19,31,00,275,,32,10,210,,36,52,277,,40,85,352,36*79
$GPGSV,5,5,19,41,58,082,36,49,32,274,,50,10,089,*4E
$GLGSV,3,1,10,69,28,049,31,70,62,146,20,71,24,192,21,73,44,199,21*61
$GLGSV,3,2,10,74,46,271,19,75,09,314,,80,05,159,,84,05,013,*6E
$GLGSV,3,3,10,85,01,327,,,,,31*5C
$GNGLL,0419.85069,S,05539.91184,E,075435.00,A,A*6B
$GNRMC,075436.00,A,0419.85072,S,05539.91194,E,0.102,,280525,,,A*71
$GNVTG,,T,,M,0.102,N,0.189,K,A*3E
$GNGGA,075436.00,0419.85072,S,05539.91194,E,1,11,0.88,10.6,M,-47.6,M,,*49
$GNGSA,A,3,25,23,12,15,18,24,29,13,10,,,,1.71,0.88,1.46*1E
$GNGSA,A,3,73,69,,,,,,,,,,,1.71,0.88,1.46*13
$GPGSV,5,1,19,05,04,029,10,10,38,231,29,12,43,153,22,13,06,068,24*70
$GPGSV,5,2,19,15,42,080,25,18,20,333,19,23,69,293,17,24,18,143,27*77
$GPGSV,5,3,19,25,73,197,34,26,03,316,,28,12,254,,29,34,020,19*73
$GPGSV,5,4,19,31,00,275,,32,10,210,,36,52,277,,40,85,352,36*79
$GPGSV,5,5,19,41,58,082,36,49,32,274,,50,10,089,*4E
$GLGSV,3,1,10,69,28,049,30,70,62,146,19,71,24,192,20,73,44,199,22*68
$GLGSV,3,2,10,74,46,271,16,75,10,313,,80,05,159,,84,05,013,*6E
$GLGSV,3,3,10,85,01,327,,,,,31*5C
$GNGLL,0419.85072,S,05539.91194,E,075436.00,A,A*63
$GNRMC,075437.00,A,0419.85066,S,05539.91197,E,0.144,,280525,,,A*74
$GNVTG,,T,,M,0.144,N,0.266,K,A*3E
$GNGGA,075437.00,0419.85066,S,05539.91197,E,1,11,0.88,10.6,M,-47.6,M,,*4E
$GNGSA,A,3,25,23,12,15,18,24,29,13,10,,,,1.71,0.88,1.46*1E
$GNGSA,A,3,73,69,,,,,,,,,,,1.71,0.88,1.46*13
$GPGSV,5,1,19,05,04,029,09,10,38,231,29,12,43,153,24,13,06,068,24*7E
$GPGSV,5,2,19,15,42,080,26,18,20,333,21,23,69,293,16,24,18,143,26*7F
$GPGSV,5,3,19,25,73,197,34,26,03,316,,28,12,254,,29,34,020,20*79
$GPGSV,5,4,19,31,00,275,,32,10,210,,36,52,277,,40,85,352,37*78
$GPGSV,5,5,19,41,58,082,36,49,32,274,,50,10,089,*4E
$GLGSV,3,1,10,69,28,049,30,70,62,146,18,71,24,192,20,73,44,199,22*69
$GLGSV,3,2,10,74,46,271,18,75,10,313,,80,05,159,,84,05,013,*60
$GLGSV,3,3,10,85,01,327,,,,,31*5C
$GNGLL,0419.85066,S,05539.91197,E,075437.00,A,A*64
$GNRMC,075438.00,A,0419.85074,S,05539.91210,E,0.466,,280525,,,A*71
$GNVTG,,T,,M,0.466,N,0.863,K,A*34
$GNGGA,075438.00,0419.85074,S,05539.91210,E,1,11,0.88,10.7,M,-47.6,M,,*4F
$GNGSA,A,3,25,23,12,15,18,24,29,13,10,,,,1.71,0.88,1.46*1E
$GNGSA,A,3,73,69,,,,,,,,,,,1.71,0.88,1.46*13
$GPGSV,5,1,19,05,04,029,15,10,38,231,29,12,43,153,24,13,06,068,26*71
$GPGSV,5,2,19,15,42,080,25,18,20,333,21,23,69,293,14,24,18,143,26*7E
$GPGSV,5,3,19,25,73,197,34,26,03,316,,28,12,254,,29,34,020,18*72
$GPGSV,5,4,19,31,00,275,,32,10,210,,36,52,277,,40,85,352,34*7B
$GPGSV,5,5,19,41,58,082,36,49,32,274,,50,10,089,*4E
$GLGSV,3,1,10,69,28,049,29,70,62,146,18,71,24,192,20,73,44,199,21*62
$GLGSV,3,2,10,74,46,271,18,75,10,313,,80,05,159,,84,05,013,*60
$GLGSV,3,3,10,85,01,327,,,,,31*5C
$GNGLL,0419.85074,S,05539.91210,E,075438.00,A,A*64
$GNRMC,075439.00,A,0419.85077,S,05539.91217,E,0.213,,280525,,,A*70
$GNVTG,,T,,M,0.213,N,0.395,K,A*32
$GNGGA,075439.00,0419.85077,S,05539.91217,E,1,11,0.88,10.6,M,-47.6,M,,*4B
$GNGSA,A,3,25,23,12,15,18,24,29,13,10,,,,1.71,0.88,1.46*1E
$GNGSA,A,3,73,69,,,,,,,,,,,1.71,0.88,1.46*13
$GPGSV,5,1,19,05,04,029,16,10,38,231,29,12,43,153,24,13,06,068,26*72
$GPGSV,5,2,19,15,42,080,25,18,20,333,20,23,69,293,16,24,18,143,26*7D
$GPGSV,5,3,19,25,73,197,33,26,03,316,,28,12,254,,29,34,020,20*7E
$GPGSV,5,4,19,31,00,275,,32,10,210,,36,52,277,,40,85,352,35*7A
$GPGSV,5,5,19,41,58,082,39,49,32,274,,50,10,089,*41
$GLGSV,3,1,10,69,28,049,30,70,62,146,17,71,24,192,19,73,44,199,20*6E
$GLGSV,3,2,10,74,46,271,18,75,10,313,,80,05,159,,84,05,013,*60
$GLGSV,3,3,10,85,01,327,,,,,31*5C
$GNGLL,0419.85077,S,05539.91217,E,075439.00,A,A*61
$GNRMC,075440.00,A,0419.85078,S,05539.91223,E,0.110,,280525,,,A*76
$GNVTG,,T,,M,0.110,N,0.204,K,A*3B
$GNGGA,075440.00,0419.85078,S,05539.91223,E,1,11,0.88,10.6,M,-47.6,M,,*4D
$GNGSA,A,3,25,23,12,15,18,24,29,13,10,,,,1.71,0.88,1.46*1E
$GNGSA,A,3,73,69,,,,,,,,,,,1.71,0.88,1.46*13
$GPGSV,5,1,19,05,04,029,14,10,38,231,29,12,43,153,25,13,06,068,26*71
$GPGSV,5,2,19,15,42,080,25,18,20,333,20,23,69,293,18,24,18,143,25*70
$GPGSV,5,3,19,25,73,197,32,26,03,316,,28,12,254,,29,34,020,22*7D
$GPGSV,5,4,19,31,00,275,,32,10,210,,36,52,277,,40,85,352,36*79
$GPGSV,5,5,19,41,58,082,37,49,32,274,,50,10,089,*4F
$GLGSV,3,1,10,69,28,049,29,70,62,146,15,71,24,192,20,73,44,199,21*6F
$GLGSV,3,2,10,74,46,271,18,75,10,313,,80,05,159,,84,05,013,*60
$GLGSV,3,3,10,85,01,327,,,,,32*5F
$GNGLL,0419.85078,S,05539.91223,E,075440.00,A,A*67
$GNRMC,075441.00,A,0419.85079,S,05539.91223,E,0.068,,280525,,,A*78
$GNVTG,,T,,M,0.068,N,0.125,K,A*35
$GNGGA,075441.00,0419.85079,S,05539.91223,E,1,11,0.88,10.5,M,-47.6,M,,*4E
$GNGSA,A,3,25,23,12,15,18,24,29,13,10,,,,1.71,0.88,1.46*1E
$GNGSA,A,3,73,69,,,,,,,,,,,1.71,0.88,1.46*13
$GPGSV,5,1,19,05,04,029,14,10,38,231,29,12,43,153,25,13,06,068,26*71
$GPGSV,5,2,19,15,42,080,26,18,20,333,20,23,69,293,20,24,18,143,25*78
$GPGSV,5,3,19,25,73,197,32,26,03,316,,28,12,254,,29,34,020,21*7E
$GPGSV,5,4,19,31,00,275,,32,10,210,,36,52,277,,40,85,352,35*7A
$GPGSV,5,5,19,41,58,082,36,49,32,274,,50,10,089,*4E
$GLGSV,3,1,10,69,28,049,28,70,62,146,16,71,24,192,21,73,44,199,22*6F
$GLGSV,3,2,10,74,46,271,18,75,10,313,,80,05,159,,84,05,013,*60
$GLGSV,3,3,10,85,01,327,,,,,32*5F
$GNGLL,0419.85079,S,05539.91223,E,075441.00,A,A*67
$GNRMC,075442.00,A,0419.85076,S,05539.91217,E,0.041,,280525,,,A*78
$GNVTG,,T,,M,0.041,N,0.077,K,A*38
$GNGGA,075442.00,0419.85076,S,05539.91217,E,1,11,0.88,10.2,M,-47.6,M,,*42
$GNGSA,A,3,25,23,12,15,18,24,29,13,10,,,,1.71,0.88,1.46*1E
$GNGSA,A,3,73,69,,,,,,,,,,,1.71,0.88,1.46*13
$GPGSV,5,1,19,05,04,029,18,10,38,231,29,12,43,153,24,13,06,068,27*7D
$GPGSV,5,2,19,15,42,080,25,18,20,333,19,23,69,293,21,24,18,143,25*70
$GPGSV,5,3,19,25,73,197,32,26,03,316,,28,12,254,,29,34,020,21*7E
$GPGSV,5,4,19,31,00,275,,32,10,210,,36,52,277,,40,85,352,35*7A
$GPGSV,5,5,19,41,58,082,36,49,32,274,,50,10,089,*4E
$GLGSV,3,1,10,69,28,049,28,70,62,146,16,71,24,192,22,73,44,199,23*6D
$GLGSV,3,2,10,74,46,271,18,75,10,313,,80,05,159,,84,05,013,*60
$GLGSV,3,3,10,85,01,327,,,,,31*5C
$GNGLL,0419.85076,S,05539.91217,E,075442.00,A,A*6C
$GNRMC,075443.00,A,0419.85075,S,05539.91216,E,0.089,,280525,,,A*7F
$GNVTG,,T,,M,0.089,N,0.164,K,A*3F
$GNGGA,075443.00,0419.85075,S,05539.91216,E,1,11,0.88,10.2,M,-47.6,M,,*41
$GNGSA,A,3,25,23,12,15,18,24,29,13,10,,,,1.71,0.88,1.46*1E
$GNGSA,A,3,73,69,,,,,,,,,,,1.71,0.88,1.46*13
$GPGSV,5,1,19,05,04,029,19,10,38,231,28,12,43,153,24,13,06,068,26*7C
$GPGSV,5,2,19,15,42,080,25,18,20,333,20,23,69,293,19,24,18,143,25*71
$GPGSV,5,3,19,25,73,197,33,26,03,316,,28,12,254,,29,34,020,19*74
$GPGSV,5,4,19,31,00,275,,32,10,210,,36,52,277,,40,85,352,35*7A
$GPGSV,5,5,19,41,58,082,36,49,32,274,,50,10,089,*4E
$GLGSV,3,1,10,69,28,049,29,70,62,146,16,71,24,192,22,73,44,199,22*6D
$GLGSV,3,2,10,74,46,271,19,75,10,313,,80,05,159,,84,05,013,*61
$GLGSV,3,3,10,85,01,327,,,,,31*5C
$GNGLL,0419.85075,S,05539.91216,E,075443.00,A,A*6F
$GNRMC,075444.00,A,0419.85048,S,05539.91202,E,1.403,323.63,280525,,,A*6D
$GNVTG,323.63,T,,M,1.403,N,2.598,K,A*24
$GNGGA,075444.00,0419.85048,S,05539.91202,E,1,11,0.88,10.3,M,-47.6,M,,*4C
$GNGSA,A,3,25,23,12,15,18,24,29,13,10,,,,1.71,0.88,1.46*1E
$GNGSA,A,3,73,69,,,,,,,,,,,1.71,0.88,1.46*13
$GPGSV,5,1,19,05,04,029,19,10,38,231,29,12,43,153,22,13,06,068,26*7B
$GPGSV,5,2,19,15,42,080,26,18,20,333,21,23,69,293,20,24,18,143,24*78
$GPGSV,5,3,19,25,73,197,33,26,03,316,,28,12,254,,29,34,020,25*7B
$GPGSV,5,4,19,31,00,275,,32,10,210,,36,52,277,,40,85,352,35*7A
$GPGSV,5,5,19,41,58,082,36,49,32,274,,50,10,089,*4E
$GLGSV,3,1,10,69,28,049,29,70,62,146,18,71,24,192,21,73,44,199,21*63
$GLGSV,3,2,10,74,46,271,18,75,10,313,,80,05,159,,84,05,013,*60
$GLGSV,3,3,10,85,01,327,,,,,30*5D
$GNGLL,0419.85048,S,05539.91202,E,075444.00,A,A*63
$GNRMC,075445.00,A,0419.85044,S,05539.91199,E,0.081,,280525,,,A*77
$GNVTG,,T,,M,0.081,N,0.150,K,A*30
$GNGGA,075445.00,0419.85044,S,05539.91199,E,1,11,0.88,10.2,M,-47.6,M,,*41
$GNGSA,A,3,25,23,12,15,18,24,29,13,10,,,,1.71,0.88,1.46*1E
$GNGSA,A,3,73,69,,,,,,,,,,,1.71,0.88,1.46*13
$GPGSV,5,1,19,05,04,029,18,10,38,231,26,12,43,153,22,13,06,068,27*74
$GPGSV,5,2,19,15,42,080,27,18,20,333,20,23,69,293,21,24,18,143,24*79
$GPGSV,5,3,19,25,73,197,32,26,03,316,,28,12,254,,29,34,020,24*7B
$GPGSV,5,4,19,31,00,275,,32,10,210,,36,52,277,,40,85,352,36*79
$GPGSV,5,5,19,41,58,082,35,49,32,274,,50,10,089,*4D
$GLGSV,3,1,10,69,28,049,29,70,62,146,17,71,24,192,20,73,44,199,19*66
$GLGSV,3,2,10,74,46,271,17,75,10,313,,80,05,159,19,84,05,013,*67
$GLGSV,3,3,10,85,01,327,,,,,34*59
$GNGLL,0419.85044,S,05539.91199,E,075445.00,A,A*6F
$GNRMC,075446.00,A,0419.85037,S,05539.91192,E,0.357,,280525,,,A*73
$GNVTG,,T,,M,0.357,N,0.661,K,A*3D
$GNGGA,075446.00,0419.85037,S,05539.91192,E,1,11,0.88,10.0,M,-47.6,M,,*4F
$GNGSA,A,3,25,23,12,15,18,24,29,13,10,,,,1.71,0.88,1.47*1F
$GNGSA,A,3,73,69,,,,,,,,,,,1.71,0.88,1.47*12
$GPGSV,5,1,19,05,04,029,18,10,38,231,31,12,43,153,24,13,06,068,27*74
$GPGSV,5,2,19,15,42,080,27,18,20,333,20,23,69,293,21,24,18,143,25*78
$GPGSV,5,3,19,25,73,197,32,26,03,316,,28,12,254,,29,34,020,23*7C
$GPGSV,5,4,19,31,00,275,,32,10,210,,36,52,277,,40,85,352,36*79
$GPGSV,5,5,19,41,58,082,35,49,32,274,,50,10,089,*4D
$GLGSV,3,1,10,69,28,049,29,70,62,146,17,71,24,192,19,73,44,199,20*66
$GLGSV,3,2,10,74,46,271,17,75,10,313,,80,05,159,18,84,05,013,*66
$GLGSV,3,3,10,85,01,328,,,,,29*5A
$GNGLL,0419.85037,S,05539.91192,E,075446.00,A,A*63
$GNRMC,075447.00,A,0419.85041,S,05539.91201,E,0.066,,280525,,,A*7B
$GNVTG,,T,,M,0.066,N,0.122,K,A*3C
$GNGGA,075447.00,0419.85041,S,05539.91201,E,1,11,0.88,10.1,M,-47.6,M,,*47
$GNGSA,A,3,25,23,12,15,18,24,29,13,10,,,,1.71,0.88,1.47*1F
$GNGSA,A,3,73,69,,,,,,,,,,,1.71,0.88,1.47*12
$GPGSV,5,1,19,05,04,029,16,10,38,231,31,12,43,153,23,13,06,068,27*7D
$GPGSV,5,2,19,15,42,080,24,18,20,333,21,23,69,293,22,24,18,143,25*79
$GPGSV,5,3,19,25,73,197,32,26,03,316,,28,12,254,,29,34,020,25*7A
$GPGSV,5,4,19,31,00,275,,32,10,210,,36,52,277,,40,85,352,36*79
$GPGSV,5,5,19,41,58,082,35,49,32,274,,50,10,089,*4D
$GLGSV,3,1,10,69,28,049,32,70,62,146,15,71,24,192,18,73,44,199,20*6F
$GLGSV,3,2,10,74,46,271,17,75,10,313,,80,05,159,18,84,05,013,*66
$GLGSV,3,3,10,85,01,328,,,,,30*52
$GNGLL,0419.85041,S,05539.91201,E,075447.00,A,A*6A
$GNRMC,075448.00,A,0419.85036,S,05539.91200,E,0.426,,280525,,,A*75
$GNVTG,,T,,M,0.426,N,0.789,K,A*3B
$GNGGA,075448.00,0419.85036,S,05539.91200,E,1,11,0.88,10.1,M,-47.6,M,,*49
$GNGSA,A,3,25,23,12,15,18,24,29,13,10,,,,1.71,0.88,1.47*1F
$GNGSA,A,3,73,69,,,,,,,,,,,1.71,0.88,1.47*12
$GPGSV,5,1,19,05,04,029,15,10,38,231,31,12,43,153,21,13,06,068,26*7D
$GPGSV,5,2,19,15,42,080,22,18,20,333,19,23,69,293,22,24,18,143,24*75
$GPGSV,5,3,19,25,73,197,33,26,03,316,,28,12,254,,29,34,020,25*7B
$GPGSV,5,4,19,31,00,275,,32,10,210,,36,52,277,,40,85,352,35*7A
$GPGSV,5,5,19,41,58,082,33,49,32,274,,50,10,089,*4B
$GLGSV,3,1,10,69,28,049,31,70,62,146,15,71,24,192,19,73,44,199,23*6E
$GLGSV,3,2,10,74,46,271,18,75,10,313,,80,05,159,21,84,05,013,*63
$GLGSV,3,3,10,85,01,328,,,,,30*52
$GNGLL,0419.85036,S,05539.91200,E,075448.00,A,A*64
$GNRMC,075449.00,A,0419.85044,S,05539.91208,E,0.271,,280525,,,A*7D
$GNVTG,,T,,M,0.271,N,0.502,K,A*3E
$GNGGA,075449.00,0419.85044,S,05539.91208,E,1,11,0.89,10.0,M,-47.6,M,,*45
$GNGSA,A,3,25,23,12,15,18,24,29,13,10,,,,1.71,0.89,1.47*1E
$GNGSA,A,3,73,69,,,,,,,,,,,1.71,0.89,1.47*13
$GPGSV,5,1,19,05,04,029,15,10,38,231,32,12,43,153,19,13,06,068,26*75
$GPGSV,5,2,19,15,42,080,20,18,20,333,17,23,69,293,22,24,18,143,24*79
$GPGSV,5,3,19,25,73,197,32,26,03,316,,28,12,254,,29,34,020,22*7D
$GPGSV,5,4,19,31,00,275,,32,10,210,,36,52,277,,40,85,352,34*7B
$GPGSV,5,5,19,41,58,082,35,49,32,274,,50,10,089,*4D
$GLGSV,3,1,10,69,28,049,30,70,62,146,15,71,24,192,19,73,44,199,21*6D
$GLGSV,3,2,10,74,46,271,19,75,10,313,,80,05,159,21,84,05,013,*62
$GLGSV,3,3,10,85,01,328,,,,,32*50
$GNGLL,0419.85044,S,05539.91208,E,075449.00,A,A*68
$GNRMC,075450.00,A,0419.85049,S,05539.91213,E,0.036,,280525,,,A*73
$GNVTG,,T,,M,0.036,N,0.067,K,A*39
$GNGGA,075450.00,0419.85049,S,05539.91213,E,1,11,0.89,10.0,M,-47.6,M,,*4A
$GNGSA,A,3,25,23,12,15,18,24,29,13,10,,,,1.71,0.89,1.47*1E
$GNGSA,A,3,73,69,,,,,,,,,,,1.71,0.89,1.47*13
$GPGSV,5,1,19,05,04,029,17,10,38,231,32,12,43,153,19,13,06,068,25*74
$GPGSV,5,2,19,15,42,080,18,18,20,333,16,23,69,293,25,24,18,143,25*75
$GPGSV,5,3,19,25,73,197,31,26,03,316,,28,12,254,,29,34,020,20*7C
$GPGSV,5,4,19,31,00,275,,32,10,210,,36,52,277,,40,85,352,37*78
$GPGSV,5,5,19,41,58,082,35,49,32,274,,50,10,089,*4D
$GLGSV,3,1,10,69,28,049,31,70,62,146,15,71,24,192,20,73,44,199,19*6D
$GLGSV,3,2,10,74,46,271,20,75,10,313,,80,05,159,21,84,05,013,*68
$GLGSV,3,3,10,85,01,328,,,,,31*53
$GNGLL,0419.85049,S,05539.91213,E,075450.00,A,A*67
$GNRMC,075451.00,A,0419.85052,S,05539.91215,E,0.101,,280525,,,A*7B
$GNVTG,,T,,M,0.101,N,0.187,K,A*33
$GNGGA,075451.00,0419.85052,S,05539.91215,E,1,11,0.89,10.0,M,-47.6,M,,*47
$GNGSA,A,3,25,23,12,15,18,24,29,13,10,,,,1.71,0.89,1.47*1E
$GNGSA,A,3,73,69,,,,,,,,,,,1.71,0.89,1.47*13
$GPGSV,5,1,19,05,04,029,18,10,38,231,32,12,43,153,18,13,06,068,23*7C
$GPGSV,5,2,19,15,42,080,19,18,20,333,16,23,69,293,25,24,18,143,24*75
$GPGSV,5,3,19,25,73,197,30,26,03,316,,28,12,254,,29,34,020,19*77
$GPGSV,5,4,19,31,00,275,,32,10,210,,36,52,277,,40,85,352,35*7A
$GPGSV,5,5,19,41,58,082,35,49,32,274,,50,10,089,*4D
$GLGSV,3,1,10,69,28,049,31,70,62,146,17,71,24,192,19,73,44,199,17*6B
$GLGSV,3,2,10,74,46,271,19,75,10,313,,80,05,159,21,84,05,013,*62
$GLGSV,3,3,10,85,01,328,,,,,31*53
$GNGLL,0419.85052,S,05539.91215,E,075451.00,A,A*6A
$GNRMC,075452.00,A,0419.85053,S,05539.91213,E,0.271,,280525,,,A*7B
$GNVTG,,T,,M,0.271,N,0.502,K,A*3E
$GNGGA,075452.00,0419.85053,S,05539.91213,E,1,11,0.89,9.9,M,-47.6,M,,*72
$GNGSA,A,3,25,23,12,15,18,24,29,13,10,,,,1.71,0.89,1.47*1E
$GNGSA,A,3,73,69,,,,,,,,,,,1.71,0.89,1.47*13
$GPGSV,5,1,19,05,04,029,19,10,38,231,33,12,43,153,18,13,06,068,24*7B
$GPGSV,5,2,19,15,42,080,21,18,20,333,17,23,69,293,24,24,18,143,25*7F
$GPGSV,5,3,19,25,73,197,30,26,03,316,,28,12,254,,29,34,020,20*7D
$GPGSV,5,4,19,31,00,275,,32,10,210,,36,52,277,,40,85,352,35*7A
$GPGSV,5,5,19,41,58,082,34,49,32,274,,50,10,089,*4C
$GLGSV,3,1,10,69,28,049,30,70,62,146,17,71,24,192,20,73,44,199,16*61
$GLGSV,3,2,10,74,46,271,20,75,10,313,,80,05,159,21,84,05,013,*68
$GLGSV,3,3,10,85,01,328,,,,,31*53
$GNGLL,0419.85053,S,05539.91213,E,075452.00,A,A*6E
$GNRMC,075453.00,A,0419.85071,S,05539.91227,E,0.476,,280525,,,A*7C
$GNVTG,,T,,M,0.476,N,0.882,K,A*3A
$GNGGA,075453.00,0419.85071,S,05539.91227,E,1,11,0.89,10.0,M,-47.6,M,,*45
$GNGSA,A,3,25,23,12,15,18,24,29,13,10,,,,1.71,0.89,1.47*1E
$GNGSA,A,3,73,69,,,,,,,,,,,1.71,0.89,1.47*13
$GPGSV,5,1,19,05,04,029,18,10,38,231,32,12,43,153,18,13,06,068,23*7C
$GPGSV,5,2,19,15,42,080,23,18,20,333,16,23,69,293,26,24,18,143,25*7E
$GPGSV,5,3,19,25,73,197,31,26,03,316,,28,12,254,,29,34,020,21*7D
$GPGSV,5,4,19,31,00,275,,32,10,210,,36,52,277,,40,85,352,38*77
$GPGSV,5,5,19,41,58,082,35,49,32,274,,50,10,089,*4D
$GLGSV,3,1,10,69,28,049,30,70,62,146,18,71,24,192,20,73,44,199,15*6D
$GLGSV,3,2,10,74,46,271,20,75,10,313,,80,05,159,20,84,05,013,*69
$GLGSV,3,3,10,85,01,328,,,,,30*52
$GNGLL,0419.85071,S,05539.91227,E,075453.00,A,A*68
$GNRMC,075454.00,A,0419.85085,S,05539.91242,E,0.212,,280525,,,A*77
$GNVTG,,T,,M,0.212,N,0.393,K,A*35
$GNGGA,075454.00,0419.85085,S,05539.91242,E,1,11,0.89,10.1,M,-47.6,M,,*4B
$GNGSA,A,3,25,23,12,15,18,24,29,13,10,,,,1.71,0.89,1.47*1E
$GNGSA,A,3,73,69,,,,,,,,,,,1.71,0.89,1.47*13
$GPGSV,5,1,19,05,03,029,17,10,38,231,32,12,43,153,19,13,06,068,26*70
$GPGSV,5,2,19,15,42,080,25,18,20,333,19,23,69,293,26,24,18,143,27*75
$GPGSV,5,3,19,25,73,197,32,26,03,316,,28,12,254,,29,34,020,20*7F
$GPGSV,5,4,19,31,00,275,,32,10,210,,36,52,277,,40,85,352,38*77
$GPGSV,5,5,19,41,58,082,36,49,32,274,,50,10,089,*4E
$GLGSV,3,1,10,69,28,049,29,70,62,146,18,71,24,192,20,73,44,199,15*65
$GLGSV,3,2,10,74,46,271,19,75,10,313,,80,05,159,19,84,05,013,*69
$GLGSV,3,3,10,85,01,328,,,,,31*53
$GNGLL,0419.85085,S,05539.91242,E,075454.00,A,A*67
$GNRMC,075455.00,A,0419.85088,S,05539.91246,E,0.162,,280525,,,A*7B
$GNVTG,,T,,M,0.162,N,0.300,K,A*3B
$GNGGA,075455.00,0419.85088,S,05539.91246,E,1,11,0.90,10.2,M,-47.6,M,,*48
$GNGSA,A,3,25,23,12,15,18,24,29,13,10,,,,1.85,0.90,1.62*1A
$GNGSA,A,3,73,69,,,,,,,,,,,1.85,0.90,1.62*17
$GPGSV,5,1,19,05,03,029,17,10,38,231,23,12,43,153,23,13,06,068,27*78
$GPGSV,5,2,19,15,42,080,27,18,20,333,21,23,69,293,22,24,18,143,27*78
$GPGSV,5,3,19,25,73,197,34,26,03,316,,28,12,254,,29,34,020,22*7B
$GPGSV,5,4,19,31,00,275,,32,10,210,,36,52,277,,40,85,352,38*77
$GPGSV,5,5,19,41,58,082,37,49,32,274,,50,10,089,*4F
$GLGSV,3,1,10,69,28,049,30,70,62,146,18,71,24,192,19,73,44,199,19*6B
$GLGSV,3,2,10,74,46,271,19,75,10,313,,80,05,159,18,84,05,013,*68
$GLGSV,3,3,10,85,01,328,,,,,27*54
$GNGLL,0419.85088,S,05539.91246,E,075455.00,A,A*6F
$GNRMC,075456.00,A,0419.85090,S,05539.91255,E,0.127,,280525,,,A*72
$GNVTG,,T,,M,0.127,N,0.236,K,A*3E
$GNGGA,075456.00,0419.85090,S,05539.91255,E,1,11,0.89,10.5,M,-47.6,M,,*4F
$GNGSA,A,3,25,23,12,15,18,24,29,13,10,,,,1.71,0.89,1.47*1E
$GNGSA,A,3,73,69,,,,,,,,,,,1.71,0.89,1.47*13
$GPGSV,5,1,19,05,03,029,17,10,38,231,26,12,43,153,24,13,06,068,28*75
$GPGSV,5,2,19,15,42,080,27,18,20,333,22,23,69,293,21,24,18,143,26*79
$GPGSV,5,3,19,25,73,197,34,26,03,316,,28,12,254,,29,34,020,22*7B
$GPGSV,5,4,19,31,00,275,,32,10,210,,36,52,277,,40,85,352,36*79
$GPGSV,5,5,19,41,58,082,36,49,32,274,,50,10,089,*4E
$GLGSV,3,1,10,69,28,049,29,70,62,146,19,71,24,192,19,73,44,199,21*69
$GLGSV,3,2,10,74,46,271,19,75,10,313,,80,05,159,17,84,05,013,*67
$GLGSV,3,3,10,85,01,328,,,,,28*5B
$GNGLL,0419.85090,S,05539.91255,E,075456.00,A,A*67
$GNRMC,075457.00,A,0419.85098,S,05539.91266,E,0.234,,280525,,,A*7A
$GNVTG,,T,,M,0.234,N,0.433,K,A*3C
$GNGGA,075457.00,0419.85098,S,05539.91266,E,1,11,0.89,10.6,M,-47.6,M,,*45
$GNGSA,A,3,25,23,12,15,18,24,29,13,10,,,,1.71,0.89,1.47*1E
$GNGSA,A,3,73,69,,,,,,,,,,,1.71,0.89,1.47*13
$GPGSV,5,1,19,05,03,029,17,10,38,231,27,12,43,153,21,13,06,068,28*71
$GPGSV,5,2,19,15,42,080,27,18,20,333,23,23,69,293,20,24,18,143,24*7B
$GPGSV,5,3,19,25,73,197,32,26,03,316,,28,12,254,,29,34,020,24*7B
$GPGSV,5,4,19,31,00,275,,32,10,210,,36,52,277,,40,85,352,35*7A
$GPGSV,5,5,19,41,58,082,36,49,32,274,,50,10,089,*4E
$GLGSV,3,1,10,69,28,049,26,70,62,146,19,71,24,192,19,73,44,199,20*67
$GLGSV,3,2,10,74,46,271,19,75,10,313,,80,05,159,16,84,05,013,*66
$GLGSV,3,3,10,85,01,328,,,,,29*5A
$GNGLL,0419.85098,S,05539.91266,E,075457.00,A,A*6E
$GNRMC,075458.00,A,0419.85119,S,05539.91282,E,0.430,,280525,,,A*75
$GNVTG,,T,,M,0.430,N,0.796,K,A*32
$GNGGA,075458.00,0419.85119,S,05539.91282,E,1,11,0.92,10.7,M,-47.6,M,,*43
$GNGSA,A,3,25,23,12,15,18,24,29,13,10,,,,1.74,0.92,1.48*1E
$GNGSA,A,3,73,69,,,,,,,,,,,1.74,0.92,1.48*13
$GPGSV,5,1,19,05,03,029,18,10,38,231,27,12,43,153,20,13,06,068,29*7E
$GPGSV,5,2,19,15,42,080,27,18,20,333,23,23,69,293,21,24,18,143,23*7D
$GPGSV,5,3,19,25,73,197,36,26,03,316,,28,12,254,,29,34,020,25*7E
$GPGSV,5,4,19,31,00,275,,32,10,210,,36,52,277,,40,85,352,38*77
$GPGSV,5,5,19,41,58,082,36,49,32,274,,50,10,089,*4E
$GLGSV,3,1,10,69,28,049,28,70,62,146,19,71,24,192,20,73,44,199,19*69
$GLGSV,3,2,10,74,46,271,18,75,10,313,,80,05,159,17,84,05,013,*66
$GLGSV,3,3,10,85,01,328,,,,,29*5A
$GNGLL,0419.85119,S,05539.91282,E,075458.00,A,A*63
$GNRMC,075459.00,A,0419.85142,S,05539.91299,E,0.220,,280525,,,A*77
$GNVTG,,T,,M,0.220,N,0.408,K,A*31
$GNGGA,075459.00,0419.85142,S,05539.91299,E,1,11,0.92,10.8,M,-47.6,M,,*49
$GNGSA,A,3,25,23,12,15,18,24,29,13,10,,,,1.74,0.92,1.48*1E
$GNGSA,A,3,73,69,,,,,,,,,,,1.74,0.92,1.48*13
$GPGSV,5,1,19,05,03,029,19,10,38,231,26,12,43,153,20,13,06,068,28*7F
$GPGSV,5,2,19,15,42,080,27,18,20,333,24,23,69,293,21,24,18,143,24*7D
$GPGSV,5,3,19,25,73,197,35,26,03,316,,28,12,254,,29,34,020,25*7D
$GPGSV,5,4,19,31,00,275,,32,10,210,,36,52,277,,40,85,352,38*77
$GPGSV,5,5,19,41,58,082,37,49,32,274,,50,10,089,*4F
$GLGSV,3,1,10,69,28,049,30,70,62,146,21,71,24,192,20,73,44,199,16*64
$GLGSV,3,2,10,74,46,271,17,75,10,313,,80,05,159,16,84,05,013,*68
$GLGSV,3,3,10,85,01,328,,,,,28*5B
$GNGLL,0419.85142,S,05539.91299,E,075459.00,A,A*66
$GNRMC,075500.00,A,0419.85157,S,05539.91314,E,0.088,,280525,,,A*7A
$GNVTG,,T,,M,0.088,N,0.164,K,A*3E
$GNGGA,075500.00,0419.85157,S,05539.91314,E,1,11,0.92,11.1,M,-47.6,M,,*4C
$GNGSA,A,3,25,23,12,15,18,24,29,13,10,,,,1.74,0.92,1.48*1E
$GNGSA,A,3,73,69,,,,,,,,,,,1.74,0.92,1.48*13
$GPGSV,5,1,19,05,03,029,20,10,38,231,25,12,43,153,21,13,06,068,28*77
$GPGSV,5,2,19,15,42,080,26,18,20,333,24,23,69,293,19,24,18,143,23*70
$GPGSV,5,3,19,25,73,197,33,26,03,316,,28,12,254,,29,34,020,26*78
$GPGSV,5,4,19,31,00,275,,32,10,210,,36,52,277,,40,85,352,38*77
$GPGSV,5,5,19,41,58,082,35,49,32,274,,50,10,089,*4D
$GLGSV,3,1,10,69,28,049,31,70,62,146,21,71,24,192,21,73,44,199,16*64
$GLGSV,3,2,10,74,46,271,17,75,10,313,,80,05,159,15,84,05,013,*6B
$GLGSV,3,3,10,85,01,328,,,,,27*54
$GNGLL,0419.85157,S,05539.91314,E,075500.00,A,A*6B
$GNRMC,075501.00,A,0419.85154,S,05539.91311,E,0.480,,280525,,,A*71
$GNVTG,,T,,M,0.480,N,0.890,K,A*30
$GNGGA,075501.00,0419.85154,S,05539.91311,E,1,11,0.89,11.1,M,-47.6,M,,*41
$GNGSA,A,3,25,23,12,15,18,24,29,13,10,,,,1.71,0.89,1.47*1E
$GNGSA,A,3,73,69,,,,,,,,,,,1.71,0.89,1.47*13
$GPGSV,5,1,19,05,03,029,21,10,38,231,31,12,42,153,20,13,06,068,28*73
$GPGSV,5,2,19,15,42,080,25,18,20,333,22,23,69,293,19,24,18,143,24*72
$GPGSV,5,3,19,25,73,197,33,26,03,316,,28,12,254,,29,34,020,24*7A
$GPGSV,5,4,19,31,00,275,,32,10,210,,36,52,277,,40,85,352,39*76
$GPGSV,5,5,19,41,58,082,35,49,32,274,,50,10,089,*4D
$GLGSV,3,1,10,69,28,049,30,70,62,146,20,71,24,192,20,73,44,199,18*6B
$GLGSV,3,2,10,74,46,271,18,75,10,313,,80,05,159,14,84,05,013,*65
$GLGSV,3,3,10,85,01,328,,,,,27*54
$GNGLL,0419.85154,S,05539.91311,E,075501.00,A,A*6C
$GNRMC,075502.00,A,0419.85160,S,05539.91317,E,0.040,,280525,,,A*7B
$GNVTG,,T,,M,0.040,N,0.073,K,A*3D
$GNGGA,075502.00,0419.85160,S,05539.91317,E,1,11,0.89,11.3,M,-47.6,M,,*41
$GNGSA,A,3,25,23,12,15,18,24,29,13,10,,,,1.71,0.89,1.47*1E
$GNGSA,A,3,73,69,,,,,,,,,,,1.71,0.89,1.47*13
$GPGSV,5,1,19,05,03,029,20,10,38,231,31,12,42,153,20,13,06,067,27*72
$GPGSV,5,2,19,15,42,080,26,18,20,333,21,23,69,293,19,24,18,143,25*73
$GPGSV,5,3,19,25,73,197,32,26,03,316,,28,12,254,,29,34,020,24*7B
$GPGSV,5,4,19,31,00,275,,32,10,210,,36,52,277,,40,85,352,37*78
$GPGSV,5,5,19,41,58,082,36,49,32,274,,50,10,089,*4E
$GLGSV,3,1,10,69,28,049,29,70,62,146,20,71,24,192,19,73,44,199,18*69
$GLGSV,3,2,10,74,46,271,19,75,10,313,,80,05,159,16,84,05,013,*66
$GLGSV,3,3,10,85,01,328,,,,,26*55
$GNGLL,0419.85160,S,05539.91317,E,075502.00,A,A*6E
$GNRMC,075503.00,A,0419.85168,S,05539.91328,E,0.018,,280525,,,A*73
$GNVTG,,T,,M,0.018,N,0.034,K,A*33
$GNGGA,075503.00,0419.85168,S,05539.91328,E,1,11,0.89,11.5,M,-47.6,M,,*42
$GNGSA,A,3,25,23,12,15,18,24,29,13,10,,,,1.71,0.89,1.47*1E
$GNGSA,A,3,73,69,,,,,,,,,,,1.71,0.89,1.47*13
$GPGSV,5,1,19,05,03,029,21,10,38,231,30,12,42,153,18,13,06,067,28*76
$GPGSV,5,2,19,15,42,080,25,18,20,333,21,23,69,293,22,24,18,143,25*78
$GPGSV,5,3,19,25,73,197,33,26,03,316,,28,12,254,,29,34,020,24*7A
$GPGSV,5,4,19,31,00,275,,32,10,210,,36,52,277,,40,85,352,36*79
$GPGSV,5,5,19,41,58,082,35,49,32,274,,50,10,089,*4D
$GLGSV,3,1,10,69,28,049,29,70,62,146,20,71,24,192,19,73,44,199,19*68
$GLGSV,3,2,10,74,46,271,17,75,10,313,,80,05,159,17,84,05,013,*69
$GLGSV,3,3,10,85,01,328,,,,,28*5B
$GNGLL,0419.85168,S,05539.91328,E,075503.00,A,A*6B
$GNRMC,075504.00,A,0419.85177,S,05539.91335,E,0.127,,280525,,,A*7B
$GNVTG,,T,,M,0.127,N,0.235,K,A*3D
$GNGGA,075504.00,0419.85177,S,05539.91335,E,1,11,0.92,11.4,M,-47.6,M,,*4C
$GNGSA,A,3,25,23,12,15,18,24,29,13,10,,,,1.74,0.92,1.48*1E
$GNGSA,A,3,73,69,,,,,,,,,,,1.74,0.92,1.48*13
$GPGSV,5,1,19,05,03,029,20,10,38,231,29,12,42,153,18,13,06,067,28*7F
$GPGSV,5,2,19,15,41,080,25,18,20,333,20,23,69,293,24,24,18,143,26*7F
$GPGSV,5,3,19,25,73,197,30,26,03,316,,28,12,254,,29,34,020,28*75
$GPGSV,5,4,19,31,00,275,,32,10,210,,36,52,277,,40,85,352,38*77
$GPGSV,5,5,19,41,58,082,35,49,32,274,,50,10,089,*4D
$GLGSV,3,1,10,69,28,049,29,70,62,146,20,71,24,192,20,73,44,199,20*68
$GLGSV,3,2,10,74,46,271,16,75,10,313,,80,05,159,19,84,05,013,*66
$GLGSV,3,3,10,85,01,328,,,,,30*52
$GNGLL,0419.85177,S,05539.91335,E,075504.00,A,A*6E
$GNRMC,075505.00,A,0419.85176,S,05539.91331,E,0.254,,280525,,,A*78
$GNVTG,,T,,M,0.254,N,0.470,K,A*3D
$GNGGA,075505.00,0419.85176,S,05539.91331,E,1,11,0.89,11.4,M,-47.6,M,,*42
$GNGSA,A,3,25,23,12,15,18,24,29,13,10,,,,1.71,0.89,1.47*1E
$GNGSA,A,3,73,69,,,,,,,,,,,1.71,0.89,1.47*13
$GPGSV,5,1,19,05,03,029,20,10,38,231,21,12,42,153,21,13,06,067,27*72
$GPGSV,5,2,19,15,41,080,23,18,20,333,20,23,69,293,22,24,18,143,25*7C
$GPGSV,5,3,19,25,73,197,22,26,03,316,,28,12,254,,29,34,020,28*76
$GPGSV,5,4,19,31,00,275,,32,10,210,,36,52,277,,40,85,352,38*77
$GPGSV,5,5,19,41,58,082,35,49,32,274,,50,10,089,*4D
$GLGSV,3,1,10,69,28,049,31,70,62,146,20,71,24,192,19,73,44,199,21*6A
$GLGSV,3,2,10,74,46,271,13,75,10,313,,80,05,159,21,84,05,013,*68
$GLGSV,3,3,10,85,01,328,,,,,30*52
$GNGLL,0419.85176,S,05539.91331,E,075505.00,A,A*6A
$GNRMC,075506.00,A,0419.85194,S,05539.91338,E,0.650,,280525,,,A*7E
$GNVTG,,T,,M,0.650,N,1.204,K,A*39
$GNGGA,075506.00,0419.85194,S,05539.91338,E,1,11,0.89,11.5,M,-47.6,M,,*45
$GNGSA,A,3,25,23,12,15,18,24,29,13,10,,,,1.71,0.89,1.47*1E
$GNGSA,A,3,73,69,,,,,,,,,,,1.71,0.89,1.47*13
$GPGSV,5,1,19,05,03,029,19,10,38,231,24,12,42,153,22,13,06,067,25*7C
$GPGSV,5,2,19,15,41,080,22,18,20,333,21,23,69,293,22,24,18,143,22*7B
$GPGSV,5,3,19,25,73,197,21,26,03,316,,28,12,254,,29,34,020,28*75
$GPGSV,5,4,19,31,00,275,,32,10,210,,36,52,277,,40,85,352,35*7A
$GPGSV,5,5,19,41,58,082,35,49,32,274,,50,10,089,*4D
$GLGSV,3,1,10,69,28,049,32,70,62,146,19,71,24,192,18,73,44,199,21*62
$GLGSV,3,2,10,74,46,271,,75,10,313,,80,05,159,21,84,05,013,*6A
$GLGSV,3,3,10,85,01,328,,,,,29*5A
$GNGLL,0419.85194,S,05539.91338,E,075506.00,A,A*6C
$GNRMC,075507.00,A,0419.85200,S,05539.91344,E,0.137,,280525,,,A*7C
$GNVTG,,T,,M,0.137,N,0.253,K,A*3C
$GNGGA,075507.00,0419.85200,S,05539.91344,E,1,11,0.89,11.6,M,-47.6,M,,*42
$GNGSA,A,3,25,23,12,15,18,24,29,13,10,,,,1.71,0.89,1.47*1E
$GNGSA,A,3,73,69,,,,,,,,,,,1.71,0.89,1.47*13
$GPGSV,5,1,19,05,03,029,18,10,38,231,25,12,42,153,23,13,06,067,23*7B
$GPGSV,5,2,19,15,41,080,20,18,20,334,20,23,69,293,22,24,18,143,24*79
$GPGSV,5,3,19,25,73,197,31,26,03,316,,28,12,254,,29,34,020,26*7A
$GPGSV,5,4,19,31,00,275,,32,10,210,,36,52,277,,40,85,352,35*7A
$GPGSV,5,5,19,41,58,082,35,49,32,274,,50,10,089,*4D
$GLGSV,3,1,10,69,28,049,33,70,62,146,18,71,24,192,17,73,44,199,19*66
$GLGSV,3,2,10,74,46,271,,75,10,313,,80,05,159,19,84,05,013,*61
$GLGSV,3,3,10,85,01,328,,,,,34*56
$GNGLL,0419.85200,S,05539.91344,E,075507.00,A,A*68
$GNRMC,075508.00,A,0419.85206,S,05539.91352,E,0.232,,280525,,,A*74
$GNVTG,,T,,M,0.232,N,0.430,K,A*39
$GNGGA,075508.00,0419.85206,S,05539.91352,E,1,11,0.89,11.6,M,-47.6,M,,*4C
$GNGSA,A,3,25,23,12,15,18,24,29,13,10,,,,1.71,0.89,1.47*1E
$GNGSA,A,3,73,69,,,,,,,,,,,1.71,0.89,1.47*13
$GPGSV,5,1,19,05,03,029,20,10,38,231,26,12,42,153,21,13,06,067,23*71
$GPGSV,5,2,19,15,41,080,23,18,20,334,20,23,69,293,24,24,18,143,26*7E
$GPGSV,5,3,19,25,73,197,30,26,03,316,,28,12,254,,29,34,020,25*78
$GPGSV,5,4,19,31,00,275,,32,10,210,,36,52,277,,40,85,352,36*79
$GPGSV,5,5,19,41,58,082,35,49,32,274,,50,10,089,*4D
$GLGSV,3,1,10,69,28,049,32,70,62,146,18,71,24,192,17,73,44,199,21*6C
$GLGSV,3,2,10,74,46,271,,75,10,313,,80,05,159,18,84,05,013,*60
$GLGSV,3,3,10,85,01,328,,,,,33*51
$GNGLL,0419.85206,S,05539.91352,E,075508.00,A,A*66
$GNRMC,075509.00,A,0419.85211,S,05539.91359,E,0.152,,280525,,,A*7D
$GNVTG,,T,,M,0.152,N,0.281,K,A*30
$GNGGA,075509.00,0419.85211,S,05539.91359,E,1,11,0.89,11.7,M,-47.6,M,,*41
$GNGSA,A,3,25,23,12,15,18,24,29,13,10,,,,1.71,0.89,1.47*1E
$GNGSA,A,3,73,69,,,,,,,,,,,1.71,0.89,1.47*13
$GPGSV,5,1,19,05,03,029,22,10,38,231,24,12,42,153,20,13,06,067,24*77
$GPGSV,5,2,19,15,41,080,24,18,20,334,20,23,69,293,27,24,18,143,26*7A
$GPGSV,5,3,19,25,73,197,31,26,03,316,,28,12,254,,29,34,020,24*78
$GPGSV,5,4,19,31,00,275,,32,10,210,,36,52,277,,40,85,352,36*79
$GPGSV,5,5,19,41,58,082,34,49,32,274,,50,10,089,*4C
$GLGSV,3,1,10,69,28,049,33,70,62,146,17,71,24,192,16,73,44,199,19*68
$GLGSV,3,2,10,74,46,271,,75,10,313,,80,05,159,20,84,05,013,*6B
$GLGSV,3,3,10,85,01,328,,,,,32*50
$GNGLL,0419.85211,S,05539.91359,E,075509.00,A,A*6A
$GNRMC,075510.00,A,0419.85210,S,05539.91367,E,0.071,,280525,,,A*79
$GNVTG,,T,,M,0.071,N,0.132,K,A*3B
$GNGGA,075510.00,0419.85210,S,05539.91367,E,1,11,0.89,12.1,M,-47.6,M,,*40
$GNGSA,A,3,25,23,12,15,18,24,29,13,10,,,,1.71,0.89,1.47*1E
$GNGSA,A,3,73,69,,,,,,,,,,,1.71,0.89,1.47*13
$GPGSV,5,1,19,05,03,029,21,10,38,231,22,12,42,153,18,13,06,067,24*79
$GPGSV,5,2,19,15,41,080,20,18,20,334,20,23,69,293,27,24,18,143,25*7D
$GPGSV,5,3,19,25,73,197,32,26,03,316,,28,12,254,,29,34,020,25*7A
$GPGSV,5,4,19,31,00,275,,32,10,210,,36,52,277,,40,85,352,35*7A
$GPGSV,5,5,19,41,58,082,34,49,32,274,,50,10,089,*4C
$GLGSV,3,1,10,69,28,049,32,70,62,146,18,71,24,192,14,73,44,199,21*6F
$GLGSV,3,2,10,74,46,271,,75,10,313,,80,05,159,21,84,05,013,*6A
$GLGSV,3,3,10,85,01,328,,,,,31*53
$GNGLL,0419.85210,S,05539.91367,E,075510.00,A,A*6E
$GNRMC,075511.00,A,0419.85209,S,05539.91370,E,0.126,,280525,,,A*75
$GNVTG,,T,,M,0.126,N,0.233,K,A*3A
$GNGGA,075511.00,0419.85209,S,05539.91370,E,1,11,0.89,12.1,M,-47.6,M,,*4F
$GNGSA,A,3,25,23,12,15,18,24,29,13,10,,,,1.71,0.89,1.47*1E
$GNGSA,A,3,73,69,,,,,,,,,,,1.71,0.89,1.47*13
$GPGSV,5,1,19,05,03,029,22,10,38,231,22,12,42,153,19,13,06,067,26*79
$GPGSV,5,2,19,15,41,080,19,18,20,334,21,23,69,295,25,24,18,143,26*71
$GPGSV,5,3,19,25,73,197,32,26,03,316,,28,12,254,,29,34,020,25*7A
$GPGSV,5,4,19,31,00,275,,32,10,210,,36,52,277,,40,85,352,34*7B
$GPGSV,5,5,19,41,58,082,33,49,32,274,,50,10,089,*4B
$GLGSV,3,1,10,69,28,049,31,70,62,146,19,71,24,192,15,73,44,199,21*6C
$GLGSV,3,2,10,74,46,271,,75,10,313,,80,05,159,19,84,05,013,*61
$GLGSV,3,3,10,85,01,328,,,,,33*51
$GNGLL,0419.85209,S,05539.91370,E,075511.00,A,A*61
$GNRMC,075512.00,A,0419.85218,S,05539.91392,E,0.323,,280525,,,A*7D
$GNVTG,,T,,M,0.323,N,0.599,K,A*3A
$GNGGA,075512.00,0419.85218,S,05539.91392,E,1,11,0.97,12.5,M,-47.6,M,,*4B
$GNGSA,A,3,25,23,12,15,18,24,29,13,10,,,,1.77,0.97,1.48*18
$GNGSA,A,3,73,69,,,,,,,,,,,1.77,0.97,1.48*15
$GPGSV,5,1,19,05,03,029,22,10,38,231,23,12,42,153,21,13,06,067,31*75
$GPGSV,5,2,19,15,41,080,17,18,20,334,23,23,69,295,25,24,18,143,26*7D
$GPGSV,5,3,19,25,73,197,24,26,03,316,,28,12,254,,29,34,020,25*7D
$GPGSV,5,4,19,31,00,275,,32,10,210,,36,52,277,,40,85,352,34*7B
$GPGSV,5,5,19,41,58,082,36,49,32,274,,50,10,089,*4E
$GLGSV,3,1,10,69,28,049,31,70,62,146,19,71,24,192,16,73,44,199,19*64
$GLGSV,3,2,10,74,46,271,,75,10,313,,80,05,159,17,84,05,013,*6F
$GLGSV,3,3,10,85,01,328,,,,,32*50
$GNGLL,0419.85218,S,05539.91392,E,075512.00,A,A*6E
$GNRMC,075513.00,A,0419.85216,S,05539.91399,E,0.318,,280525,,,A*71
$GNVTG,,T,,M,0.318,N,0.588,K,A*32
$GNGGA,075513.00,0419.85216,S,05539.91399,E,1,11,0.89,12.4,M,-47.6,M,,*41
$GNGSA,A,3,25,23,12,15,18,24,29,13,10,,,,1.71,0.89,1.47*1E
$GNGSA,A,3,73,69,,,,,,,,,,,1.71,0.89,1.47*13
$GPGSV,5,1,19,05,03,029,22,10,38,231,24,12,42,153,19,13,06,067,29*70
$GPGSV,5,2,19,15,41,080,15,18,20,334,23,23,69,295,23,24,18,143,26*79
$GPGSV,5,3,19,25,73,196,23,26,03,316,,28,12,254,,29,34,020,25*7B
$GPGSV,5,4,19,31,00,275,,32,10,210,,36,52,277,,40,85,352,34*7B
$GPGSV,5,5,19,41,58,082,36,49,32,274,,50,10,089,*4E
$GLGSV,3,1,10,69,28,049,31,70,62,146,18,71,24,192,18,73,44,199,17*65
$GLGSV,3,2,10,74,46,271,,75,10,313,,80,05,159,17,84,05,013,*6F
$GLGSV,3,3,10,85,01,328,,,,,31*53
$GNGLL,0419.85216,S,05539.91399,E,075513.00,A,A*6A
$GNRMC,075514.00,A,0419.85222,S,05539.91413,E,0.429,,280525,,,A*71
$GNVTG,,T,,M,0.429,N,0.795,K,A*39
$GNGGA,075514.00,0419.85222,S,05539.91413,E,1,11,0.92,12.6,M,-47.6,M,,*4C
$GNGSA,A,3,25,23,12,15,18,24,29,13,10,,,,1.74,0.92,1.48*1E
$GNGSA,A,3,73,69,,,,,,,,,,,1.74,0.92,1.48*13
$GPGSV,5,1,19,05,03,029,21,10,38,231,24,12,42,153,19,13,06,067,27*7D
$GPGSV,5,2,19,15,41,080,14,18,20,334,23,23,69,295,22,24,18,143,27*78
$GPGSV,5,3,19,25,73,196,35,26,03,316,,28,12,254,,29,34,020,26*7F
$GPGSV,5,4,19,31,00,275,,32,10,210,,36,52,277,,40,85,352,34*7B
$GPGSV,5,5,19,41,58,082,35,49,32,274,,50,10,089,*4D
$GLGSV,3,1,10,69,28,049,31,70,62,146,18,71,24,192,17,73,44,199,17*6A
$GLGSV,3,2,10,74,46,271,,75,10,313,,80,05,159,19,84,05,013,*61
$GLGSV,3,3,10,85,01,328,,,,,32*50
$GNGLL,0419.85222,S,05539.91413,E,075514.00,A,A*6F
$GNRMC,075515.00,A,0419.85227,S,05539.91428,E,0.293,,280525,,,A*7A
$GNVTG,,T,,M,0.293,N,0.543,K,A*37
$GNGGA,075515.00,0419.85227,S,05539.91428,E,1,11,0.89,13.1,M,-47.6,M,,*4C
$GNGSA,A,3,25,23,12,15,18,24,29,13,10,,,,1.71,0.89,1.47*1E
$GNGSA,A,3,73,69,,,,,,,,,,,1.71,0.89,1.47*13
$GPGSV,5,1,19,05,03,029,20,10,38,231,26,12,42,153,20,13,06,067,26*75
$GPGSV,5,2,19,15,41,080,17,18,20,334,23,23,69,295,21,24,18,143,27*78
$GPGSV,5,3,19,25,73,196,35,26,03,316,,28,12,254,,29,34,020,25*7C
$GPGSV,5,4,19,31,00,275,,32,10,210,,36,52,277,,40,85,352,34*7B
$GPGSV,5,5,19,41,58,082,35,49,32,274,,50,10,089,*4D
$GLGSV,3,1,10,69,28,049,31,70,62,146,18,71,24,192,17,73,44,199,18*65
$GLGSV,3,2,10,74,46,271,,75,10,313,,80,05,159,21,84,05,013,*6A
$GLGSV,3,3,10,85,01,328,,,,,33*51
$GNGLL,0419.85227,S,05539.91428,E,075515.00,A,A*63
$GNRMC,075516.00,A,0419.85232,S,05539.91428,E,0.228,,280525,,,A*7D
$GNVTG,,T,,M,0.228,N,0.422,K,A*31
$GNGGA,075516.00,0419.85232,S,05539.91428,E,1,11,0.89,13.0,M,-47.6,M,,*4A
$GNGSA,A,3,25,23,12,15,18,24,29,13,10,,,,1.71,0.89,1.47*1E
$GNGSA,A,3,73,69,,,,,,,,,,,1.71,0.89,1.47*13
$GPGSV,5,1,19,05,03,029,21,10,38,231,32,12,42,153,20,13,06,067,25*72
$GPGSV,5,2,19,15,41,080,18,18,20,334,23,23,69,295,19,24,18,143,27*7C
$GPGSV,5,3,19,25,73,196,33,26,03,316,,28,12,253,,29,34,020,25*7D
$GPGSV,5,4,19,31,00,275,,32,10,210,,36,52,277,,40,85,352,35*7A
$GPGSV,5,5,19,41,58,082,35,49,32,274,,50,10,089,*4D
$GLGSV,3,1,10,69,28,049,31,70,62,146,19,71,24,192,15,73,44,199,19*67
$GLGSV,3,2,10,74,46,271,,75,10,313,,80,05,159,21,84,05,013,*6A
$GLGSV,3,3,10,85,01,328,,,,,34*56
$GNGLL,0419.85232,S,05539.91428,E,075516.00,A,A*64
$GNRMC,075517.00,A,0419.85232,S,05539.91425,E,0.031,,280525,,,A*7B
$GNVTG,,T,,M,0.031,N,0.058,K,A*32
$GNGGA,075517.00,0419.85232,S,05539.91425,E,1,11,0.89,13.0,M,-47.6,M,,*46
$GNGSA,A,3,25,23,12,15,18,24,29,13,10,,,,1.71,0.89,1.47*1E
$GNGSA,A,3,73,69,,,,,,,,,,,1.71,0.89,1.47*13
$GPGSV,5,1,19,05,03,029,22,10,38,231,31,12,42,153,20,13,06,067,25*72
$GPGSV,5,2,19,15,41,080,16,18,20,334,23,23,69,295,20,24,18,143,26*79
$GPGSV,5,3,19,25,73,196,31,26,03,316,,28,12,253,,29,34,020,24*7E
$GPGSV,5,4,19,31,00,275,,32,10,210,,36,52,277,,40,85,352,36*79
$GPGSV,5,5,19,41,58,082,36,49,32,274,,50,10,089,*4E
$GLGSV,3,1,10,69,28,049,30,70,62,146,18,71,24,192,14,73,44,199,19*66
$GLGSV,3,2,10,74,46,271,,75,10,313,,80,05,159,21,84,05,013,*6A
$GLGSV,3,3,10,85,01,328,,,,,34*56
$GNGLL,0419.85232,S,05539.91425,E,075517.00,A,A*68
$GNRMC,075518.00,A,0419.85230,S,05539.91420,E,0.030,,280525,,,A*72
$GNVTG,,T,,M,0.030,N,0.056,K,A*3D
$GNGGA,075518.00,0419.85230,S,05539.91420,E,1,11,0.89,13.0,M,-47.6,M,,*4E
$GNGSA,A,3,25,23,12,15,18,24,29,13,10,,,,1.71,0.89,1.47*1E
$GNGSA,A,3,73,69,,,,,,,,,,,1.71,0.89,1.47*13
$GPGSV,5,1,19,05,03,029,22,10,38,231,31,12,42,153,20,13,06,067,26*71
$GPGSV,5,2,19,15,41,080,17,18,20,334,22,23,69,295,20,24,18,143,26*79
$GPGSV,5,3,19,25,73,196,33,26,03,316,,28,12,253,,29,34,020,24*7C
$GPGSV,5,4,19,31,00,275,,32,10,210,,36,52,277,,40,85,352,35*7A
$GPGSV,5,5,19,41,58,082,35,49,32,274,,50,10,089,*4D
$GLGSV,3,1,10,69,28,049,31,70,62,146,19,71,24,192,13,73,44,199,20*6B
$GLGSV,3,2,10,74,46,271,,75,10,313,,80,05,159,20,84,05,013,*6B
$GLGSV,3,3,10,85,01,328,,,,,34*56
$GNGLL,0419.85230,S,05539.91420,E,075518.00,A,A*60
$GNRMC,075519.00,A,0419.85228,S,05539.91421,E,0.113,,280525,,,A*7B
$GNVTG,,T,,M,0.113,N,0.209,K,A*35
$GNGGA,075519.00,0419.85228,S,05539.91421,E,1,11,0.89,13.1,M,-47.6,M,,*46
$GNGSA,A,3,25,23,12,15,18,24,29,13,10,,,,1.71,0.89,1.47*1E
$GNGSA,A,3,73,69,,,,,,,,,,,1.71,0.89,1.47*13
$GPGSV,5,1,19,05,03,029,21,10,38,231,30,12,42,153,22,13,06,067,25*72
$GPGSV,5,2,19,15,41,080,19,18,20,334,23,23,69,295,20,24,18,143,28*78
$GPGSV,5,3,19,25,73,196,33,26,03,316,,28,12,253,,29,34,020,24*7C
$GPGSV,5,4,19,31,00,274,,32,10,210,,36,52,277,,40,85,352,34*7A
$GPGSV,5,5,19,41,58,082,35,49,32,274,,50,10,089,*4D
$GLGSV,3,1,10,69,28,049,31,70,62,146,19,71,24,192,14,73,44,199,22*6E
$GLGSV,3,2,10,74,46,271,,75,10,313,,80,05,159,19,84,05,013,*61
$GLGSV,3,3,10,85,01,328,,,,,33*51
$GNGLL,0419.85228,S,05539.91421,E,075519.00,A,A*69
$GNRMC,075520.00,A,0419.85225,S,05539.91422,E,0.099,,280525,,,A*7C
$GNVTG,,T,,M,0.099,N,0.183,K,A*37
$GNGGA,075520.00,0419.85225,S,05539.91422,E,1,11,0.89,13.2,M,-47.6,M,,*41
$GNGSA,A,3,25,23,12,15,18,24,29,13,10,,,,1.71,0.89,1.47*1E
$GNGSA,A,3,73,69,,,,,,,,,,,1.71,0.89,1.47*13
$GPGSV,5,1,19,05,03,029,22,10,38,231,29,12,42,153,21,13,06,067,22*7D
$GPGSV,5,2,19,15,41,080,18,18,20,334,23,23,69,295,18,24,18,143,27*7D
$GPGSV,5,3,19,25,73,196,34,26,03,316,,28,12,253,,29,34,020,22*7D
$GPGSV,5,4,19,31,00,274,,32,10,210,,36,52,277,,40,85,352,36*78
$GPGSV,5,5,19,41,58,082,36,49,32,274,,50,10,089,*4E
$GLGSV,3,1,10,69,28,049,30,70,62,146,20,71,24,192,15,73,44,199,24*62
$GLGSV,3,2,10,74,46,271,,75,10,313,,80,05,159,18,84,05,013,*60
$GLGSV,3,3,10,85,01,328,,,,,33*51
$GNGLL,0419.85225,S,05539.91422,E,075520.00,A,A*6D
$GNRMC,075521.00,A,0419.85223,S,05539.91420,E,0.014,,280525,,,A*7C
$GNVTG,,T,,M,0.014,N,0.027,K,A*3D
$GNGGA,075521.00,0419.85223,S,05539.91420,E,1,11,0.89,13.3,M,-47.6,M,,*45
$GNGSA,A,3,25,23,12,15,18,24,29,13,10,,,,1.71,0.89,1.47*1E
$GNGSA,A,3,73,69,,,,,,,,,,,1.71,0.89,1.47*13
$GPGSV,5,1,19,05,03,029,21,10,38,231,28,12,42,153,20,13,06,067,20*7C
$GPGSV,5,2,19,15,41,080,18,18,20,334,23,23,69,295,17,24,18,143,27*72
