$GNRMC,074954.00,A,0419.86168,S,05539.91045,E,0.030,,280525,,,A*7D
$GNVTG,,T,,M,0.030,N,0.056,K,A*3D
$GNGGA,074954.00,0419.86168,S,05539.91045,E,1,11,0.88,19.7,M,-47.6,M,,*4D
$GNGSA,A,3,25,23,12,15,18,24,29,13,10,,,,1.69,0.88,1.44*15
$GNGSA,A,3,73,69,,,,,,,,,,,1.69,0.88,1.44*18
$GPGSV,5,1,18,05,05,029,27,10,36,228,28,12,45,152,30,13,07,070,30*7A
$GPGSV,5,2,18,15,42,084,37,18,21,331,19,23,70,286,31,24,18,145,30*7A
$GPGSV,5,3,18,25,75,201,15,26,01,317,,28,12,256,12,29,32,018,25*7B
$GPGSV,5,4,18,32,08,212,,36,52,277,,40,85,352,37,41,58,082,37*76
$GPGSV,5,5,18,49,32,274,,50,10,089,*78
$GLGSV,3,1,10,69,29,051,30,70,59,149,18,71,22,192,,73,46,202,21*62
$GLGSV,3,2,10,74,46,276,,75,08,315,,80,06,160,22,84,05,011,*6A
$GLGSV,3,3,10,85,01,325,,,,,29*57
$GNGLL,0419.86168,S,05539.91045,E,074954.00,A,A*6F
$GNRMC,074955.00,A,0419.86182,S,05539.91026,E,0.899,,280525,,,A*76
$GNVTG,,T,,M,0.899,N,1.666,K,A*32
$GNGGA,074955.00,0419.86182,S,05539.91026,E,1,11,0.88,19.7,M,-47.6,M,,*4D
$GNGSA,A,3,25,23,12,15,18,24,29,13,10,,,,1.69,0.88,1.44*15
$GNGSA,A,3,73,69,,,,,,,,,,,1.69,0.88,1.44*18
$GPGSV,5,1,18,05,05,029,25,10,36,228,26,12,45,152,29,13,07,070,29*76
$GPGSV,5,2,18,15,42,084,35,18,21,331,18,23,70,286,26,24,18,145,28*76
$GPGSV,5,3,18,25,75,201,16,26,01,317,,28,12,256,10,29,32,018,24*7B
$GPGSV,5,4,18,32,08,212,,36,52,277,,40,85,352,36,41,58,082,35*75
$GPGSV,5,5,18,49,32,274,,50,10,089,*78
$GLGSV,3,1,10,69,29,051,22,70,59,149,,71,22,192,,73,46,202,19*63
$GLGSV,3,2,10,74,46,276,,75,08,315,,80,06,160,20,84,05,011,*68
$GLGSV,3,3,10,85,01,325,,,,,28*56
$GNGLL,0419.86182,S,05539.91026,E,074955.00,A,A*6F
$GNRMC,074956.00,A,0419.86187,S,05539.91020,E,0.113,,280525,,,A*7D
$GNVTG,,T,,M,0.113,N,0.210,K,A*3D
$GNGGA,074956.00,0419.86187,S,05539.91020,E,1,11,0.88,19.7,M,-47.6,M,,*4D
$GNGSA,A,3,25,23,12,15,18,24,29,13,10,,,,1.69,0.88,1.44*15
$GNGSA,A,3,73,69,,,,,,,,,,,1.69,0.88,1.44*18
$GPGSV,5,1,18,05,05,029,23,10,36,228,26,12,45,152,28,13,07,070,28*70
$GPGSV,5,2,18,15,42,084,35,18,21,331,16,23,70,286,27,24,18,145,27*76
$GPGSV,5,3,18,25,75,201,16,26,01,317,,28,12,256,11,29,32,018,25*7B
$GPGSV,5,4,18,32,08,212,,36,52,277,,40,85,352,35,41,58,082,34*77
$GPGSV,5,5,18,49,32,274,,50,10,089,*78
$GLGSV,3,1,10,69,29,051,22,70,59,149,,71,22,192,,73,46,202,20*69
$GLGSV,3,2,10,74,46,276,,75,08,315,,80,06,160,18,84,05,011,*63
$GLGSV,3,3,10,85,01,325,,,,,27*59
$GNGLL,0419.86187,S,05539.91020,E,074956.00,A,A*6F
$GNRMC,074957.00,A,0419.86187,S,05539.91014,E,0.042,,280525,,,A*7E
$GNVTG,,T,,M,0.042,N,0.078,K,A*34
$GNGGA,074957.00,0419.86187,S,05539.91014,E,1,11,0.88,19.6,M,-47.6,M,,*4A
$GNGSA,A,3,25,23,12,15,18,24,29,13,10,,,,1.69,0.88,1.44*15
$GNGSA,A,3,73,69,,,,,,,,,,,1.69,0.88,1.44*18
$GPGSV,5,1,18,05,05,029,23,10,36,228,26,12,45,152,29,13,07,070,27*7E
$GPGSV,5,2,18,15,42,084,36,18,21,331,17,23,70,286,28,24,18,145,27*7B
$GPGSV,5,3,18,25,75,201,20,26,01,317,,28,12,256,08,29,32,018,26*75
$GPGSV,5,4,18,32,08,212,,36,52,277,,40,85,352,36,41,58,082,37*77
$GPGSV,5,5,18,49,32,274,,50,10,089,*78
$GLGSV,3,1,10,69,29,051,31,70,59,149,,71,22,192,,73,46,202,21*6A
$GLGSV,3,2,10,74,46,276,,75,08,315,,80,06,160,21,84,05,011,*69
$GLGSV,3,3,10,85,01,325,,,,,29*57
$GNGLL,0419.86187,S,05539.91014,E,074957.00,A,A*69
$GNRMC,074958.00,A,0419.86190,S,05539.91008,E,0.048,,280525,,,A*70
$GNVTG,,T,,M,0.048,N,0.089,K,A*30
$GNGGA,074958.00,0419.86190,S,05539.91008,E,1,11,0.88,19.4,M,-47.6,M,,*4C
$GNGSA,A,3,25,23,12,15,18,24,29,13,10,,,,1.69,0.88,1.44*15
$GNGSA,A,3,73,69,,,,,,,,,,,1.69,0.88,1.44*18
$GPGSV,5,1,18,05,05,029,26,10,36,228,28,12,45,152,29,13,07,070,28*7A
$GPGSV,5,2,18,15,42,084,38,18,21,331,19,23,70,286,30,24,18,145,28*7D
$GPGSV,5,3,18,25,75,201,18,26,01,317,,28,12,256,08,29,32,018,27*7F
$GPGSV,5,4,18,32,08,212,,36,52,277,,40,85,352,36,41,58,082,37*77
$GPGSV,5,5,18,49,32,274,,50,10,089,*78
$GLGSV,3,1,10,69,29,051,32,70,59,149,,71,22,192,,73,46,202,23*6B
$GLGSV,3,2,10,74,46,276,,75,08,315,,80,06,160,21,84,05,011,*69
$GLGSV,3,3,10,85,01,325,,,,,30*5F
$GNGLL,0419.86190,S,05539.91008,E,074958.00,A,A*6D
$GNRMC,074959.00,A,0419.86186,S,05539.91003,E,0.060,,280525,,,A*77
$GNVTG,,T,,M,0.060,N,0.112,K,A*39
$GNGGA,074959.00,0419.86186,S,05539.91003,E,1,11,0.88,19.5,M,-47.6,M,,*40
$GNGSA,A,3,25,23,12,15,18,24,29,13,10,,,,1.69,0.88,1.44*15
$GNGSA,A,3,73,69,,,,,,,,,,,1.69,0.88,1.44*18
$GPGSV,5,1,18,05,05,029,29,10,37,229,32,12,45,152,28,13,07,070,31*77
$GPGSV,5,2,18,15,42,084,39,18,21,331,20,23,70,286,29,24,18,145,31*76
$GPGSV,5,3,18,25,75,201,20,26,01,317,,28,12,256,08,29,32,018,36*74
$GPGSV,5,4,18,32,08,212,,36,52,277,,40,85,352,32,41,58,082,39*7D
$GPGSV,5,5,18,49,32,274,,50,10,089,*78
$GLGSV,3,1,10,69,29,051,33,70,59,149,,71,22,192,,73,46,202,24*6D
$GLGSV,3,2,10,74,46,276,,75,08,315,,80,06,160,21,84,05,011,*69
$GLGSV,3,3,10,85,01,325,,,,,28*56
$GNGLL,0419.86186,S,05539.91003,E,074959.00,A,A*60
$GNRMC,075000.00,A,0419.86188,S,05539.91004,E,0.041,,280525,,,A*79
$GNVTG,,T,,M,0.041,N,0.077,K,A*38
$GNGGA,075000.00,0419.86188,S,05539.91004,E,1,11,0.88,19.7,M,-47.6,M,,*4F
$GNGSA,A,3,25,23,12,15,18,24,29,13,10,,,,1.69,0.88,1.44*15
$GNGSA,A,3,73,69,,,,,,,,,,,1.69,0.88,1.44*18
$GPGSV,5,1,18,05,05,029,29,10,37,229,26,12,45,152,28,13,07,070,31*72
$GPGSV,5,2,18,15,42,084,37,18,21,331,19,23,70,286,27,24,18,145,31*7C
$GPGSV,5,3,18,25,75,201,22,26,01,317,,28,12,256,07,29,32,018,35*7A
$GPGSV,5,4,18,32,08,212,,36,52,277,,40,85,352,31,41,58,082,39*7E
$GPGSV,5,5,18,49,32,274,,50,10,089,*78
$GLGSV,3,1,10,69,29,051,30,70,59,149,,71,22,192,,73,46,202,24*6E
$GLGSV,3,2,10,74,46,276,20,75,08,315,,80,06,160,17,84,05,011,*6E
$GLGSV,3,3,10,85,01,325,,,,,29*57
$GNGLL,0419.86188,S,05539.91004,E,075000.00,A,A*6D
$GNRMC,075001.00,A,0419.86189,S,05539.90998,E,0.271,,280525,,,A*75
$GNVTG,,T,,M,0.271,N,0.502,K,A*3E
$GNGGA,075001.00,0419.86189,S,05539.90998,E,1,11,0.88,19.7,M,-47.6,M,,*42
$GNGSA,A,3,25,23,12,15,18,24,29,13,10,,,,1.69,0.88,1.44*15
$GNGSA,A,3,73,69,,,,,,,,,,,1.69,0.88,1.44*18
$GPGSV,5,1,18,05,05,029,28,10,37,229,25,12,44,152,27,13,07,070,25*7B
$GPGSV,5,2,18,15,42,084,32,18,21,331,19,23,70,286,26,24,18,145,24*7C
$GPGSV,5,3,18,25,75,201,21,26,01,317,,28,12,256,08,29,32,018,31*72
$GPGSV,5,4,18,32,08,212,,36,52,277,,40,85,352,,41,58,082,31*74
$GPGSV,5,5,18,49,32,274,,50,10,089,*78
$GLGSV,3,1,10,69,29,051,23,70,59,149,,71,22,192,,73,46,202,23*6B
$GLGSV,3,2,10,74,46,276,18,75,08,315,,80,06,160,15,84,05,011,*67
$GLGSV,3,3,10,85,01,325,,,,,29*57
$GNGLL,0419.86189,S,05539.90998,E,075001.00,A,A*60
$GNRMC,075002.00,A,0419.86188,S,05539.90996,E,0.069,,280525,,,A*72
$GNVTG,,T,,M,0.069,N,0.128,K,A*39
$GNGGA,075002.00,0419.86188,S,05539.90996,E,1,11,0.88,19.8,M,-47.6,M,,*41
$GNGSA,A,3,25,23,12,15,18,24,29,13,10,,,,1.69,0.88,1.44*15
$GNGSA,A,3,73,69,,,,,,,,,,,1.69,0.88,1.44*18
$GPGSV,5,1,18,05,05,029,31,10,37,229,25,12,44,152,27,13,07,069,30*7F
$GPGSV,5,2,18,15,42,084,37,18,21,331,22,23,70,286,26,24,18,145,25*70
$GPGSV,5,3,18,25,75,201,22,26,01,317,,28,12,256,07,29,32,018,34*7B
$GPGSV,5,4,18,32,08,212,,36,52,277,,40,85,352,,41,58,082,39*7C
$GPGSV,5,5,18,49,32,274,,50,10,089,*78
$GLGSV,3,1,10,69,29,051,32,70,59,149,,71,22,192,,73,46,202,21*69
$GLGSV,3,2,10,74,46,276,18,75,08,315,,80,06,160,15,84,05,011,*67
$GLGSV,3,3,10,85,01,325,,,,,30*5F
$GNGLL,0419.86188,S,05539.90996,E,075002.00,A,A*6C
$GNRMC,075003.00,A,0419.86190,S,05539.90995,E,0.193,,280525,,,A*7D
$GNVTG,,T,,M,0.193,N,0.357,K,A*37
$GNGGA,075003.00,0419.86190,S,05539.90995,E,1,11,0.88,19.7,M,-47.6,M,,*45
$GNGSA,A,3,25,23,12,15,18,24,29,13,10,,,,1.69,0.88,1.44*15
$GNGSA,A,3,73,69,,,,,,,,,,,1.69,0.88,1.44*18
$GPGSV,5,1,18,05,05,029,26,10,37,229,25,12,44,152,27,13,07,069,28*70
$GPGSV,5,2,18,15,42,084,32,18,21,331,20,23,70,286,24,24,18,145,25*75
$GPGSV,5,3,18,25,75,201,21,26,01,317,,28,12,256,08,29,32,018,31*72
$GPGSV,5,4,18,32,08,212,,36,52,277,,40,85,352,,41,58,082,35*70
$GPGSV,5,5,18,49,32,274,,50,10,089,*78
$GLGSV,3,1,10,69,29,051,25,70,59,149,,71,22,192,,73,46,202,19*64
$GLGSV,3,2,10,74,46,276,18,75,08,315,,80,06,160,14,84,05,011,*66
$GLGSV,3,3,10,85,01,325,,,,,27*59
$GNGLL,0419.86190,S,05539.90995,E,075003.00,A,A*67
$GNRMC,075004.00,A,0419.86189,S,05539.90999,E,0.068,,280525,,,A*7B
$GNVTG,,T,,M,0.068,N,0.126,K,A*36
$GNGGA,075004.00,0419.86189,S,05539.90999,E,1,11,0.88,19.8,M,-47.6,M,,*49
$GNGSA,A,3,25,23,12,15,18,24,29,13,10,,,,1.69,0.88,1.44*15
$GNGSA,A,3,73,69,,,,,,,,,,,1.69,0.88,1.44*18
$GPGSV,5,1,18,05,05,029,26,10,37,229,26,12,44,152,26,13,07,069,28*72
$GPGSV,5,2,18,15,42,083,32,18,21,331,19,23,70,286,23,24,18,145,26*7C
$GPGSV,5,3,18,25,75,201,24,26,01,317,,28,12,256,,29,32,018,33*7D
$GPGSV,5,4,18,32,08,212,,36,52,277,,40,85,352,,41,58,082,35*70
$GPGSV,5,5,18,49,32,274,,50,10,089,*78
$GLGSV,3,1,10,69,29,051,25,70,59,149,,71,22,192,,73,46,202,21*6F
$GLGSV,3,2,10,74,46,276,18,75,08,315,,80,06,160,14,84,05,011,*66
$GLGSV,3,3,10,85,01,325,,,,,26*58
$GNGLL,0419.86189,S,05539.90999,E,075004.00,A,A*64
$GNRMC,075005.00,A,0419.86190,S,05539.91003,E,0.010,,280525,,,A*76
$GNVTG,,T,,M,0.010,N,0.019,K,A*34
$GNGGA,075005.00,0419.86190,S,05539.91003,E,1,11,0.88,19.9,M,-47.6,M,,*4A
$GNGSA,A,3,25,23,12,15,18,24,29,13,10,,,,1.69,0.88,1.44*15
$GNGSA,A,3,73,69,,,,,,,,,,,1.69,0.88,1.44*18
$GPGSV,5,1,18,05,05,029,25,10,37,229,25,12,44,152,25,13,07,069,27*7E
$GPGSV,5,2,18,15,42,083,32,18,21,331,18,23,70,286,20,24,18,145,25*7D
$GPGSV,5,3,18,25,75,201,23,26,01,317,,28,12,256,,29,32,018,32*7B
$GPGSV,5,4,18,32,08,212,,36,52,277,,40,85,352,,41,58,082,34*71
$GPGSV,5,5,18,49,32,274,,50,10,089,*78
$GLGSV,3,1,10,69,29,051,26,70,59,149,,71,22,192,,73,46,202,21*6C
$GLGSV,3,2,10,74,46,276,17,75,08,315,,80,06,160,13,84,05,011,*6E
$GLGSV,3,3,10,85,01,325,,,,,27*59
$GNGLL,0419.86190,S,05539.91003,E,075005.00,A,A*66
$GNRMC,075006.00,A,0419.86189,S,05539.91004,E,0.043,,280525,,,A*7C
$GNVTG,,T,,M,0.043,N,0.079,K,A*34
$GNGGA,075006.00,0419.86189,S,05539.91004,E,1,11,0.88,20.0,M,-47.6,M,,*45
$GNGSA,A,3,25,23,12,15,18,24,29,13,10,,,,1.69,0.88,1.44*15
$GNGSA,A,3,73,69,,,,,,,,,,,1.69,0.88,1.44*18
$GPGSV,5,1,18,05,05,029,26,10,37,229,24,12,44,152,24,13,07,069,27*7D
$GPGSV,5,2,18,15,42,083,33,18,21,331,17,23,70,286,20,24,18,145,25*73
$GPGSV,5,3,18,25,75,201,22,26,01,317,,28,12,256,,29,32,018,32*7A
$GPGSV,5,4,18,32,08,212,,36,52,277,,40,85,352,,41,58,082,35*70
$GPGSV,5,5,18,49,32,274,,50,10,089,*78
$GLGSV,3,1,10,69,29,051,27,70,59,149,,71,22,192,,73,46,202,22*6E
$GLGSV,3,2,10,74,46,276,17,75,08,315,,80,06,160,,84,05,011,*6C
$GLGSV,3,3,10,85,01,325,,,,,28*56
$GNGLL,0419.86189,S,05539.91004,E,075006.00,A,A*6A
$GNRMC,075007.00,A,0419.86190,S,05539.91004,E,0.044,,280525,,,A*72
$GNVTG,,T,,M,0.044,N,0.082,K,A*37
$GNGGA,075007.00,0419.86190,S,05539.91004,E,1,11,0.88,20.1,M,-47.6,M,,*4D
$GNGSA,A,3,25,23,12,15,18,24,29,13,10,,,,1.69,0.88,1.44*15
$GNGSA,A,3,73,69,,,,,,,,,,,1.69,0.88,1.44*18
$GPGSV,5,1,18,05,05,029,26,10,37,229,24,12,44,152,22,13,07,069,27*7B
$GPGSV,5,2,18,15,42,083,34,18,21,332,16,23,70,286,20,24,18,145,25*76
$GPGSV,5,3,18,25,75,201,22,26,01,317,,28,12,256,,29,32,018,32*7A
$GPGSV,5,4,18,32,08,212,,36,52,277,,40,85,352,,41,58,082,35*70
$GPGSV,5,5,18,49,32,274,,50,10,089,*78
$GLGSV,3,1,10,69,29,051,28,70,59,149,,71,22,192,,73,46,202,22*61
$GLGSV,3,2,10,74,46,276,17,75,08,315,,80,06,160,,84,05,011,*6C
$GLGSV,3,3,10,85,01,325,,,,,27*59
$GNGLL,0419.86190,S,05539.91004,E,075007.00,A,A*63
$GNRMC,075008.00,A,0419.86182,S,05539.91005,E,0.074,,280525,,,A*7C
$GNVTG,,T,,M,0.074,N,0.137,K,A*3B
$GNGGA,075008.00,0419.86182,S,05539.91005,E,1,11,0.88,20.4,M,-47.6,M,,*45
$GNGSA,A,3,25,23,12,15,18,24,29,13,10,,,,1.69,0.88,1.44*15
$GNGSA,A,3,73,69,,,,,,,,,,,1.69,0.88,1.44*18
$GPGSV,5,1,18,05,05,029,32,10,37,229,31,12,44,152,23,13,07,069,33*7E
$GPGSV,5,2,18,15,42,083,39,18,21,332,17,23,70,286,21,24,18,145,31*7E
$GPGSV,5,3,18,25,75,201,25,26,01,317,,28,12,256,,29,32,018,35*7A
$GPGSV,5,4,18,32,08,212,,36,52,277,,40,85,352,,41,58,082,39*7C
$GPGSV,5,5,18,49,32,274,,50,10,089,*78
$GLGSV,3,1,10,69,29,051,31,70,59,149,,71,22,192,,73,46,202,22*69
$GLGSV,3,2,10,74,46,276,19,75,08,315,,80,06,160,,84,05,011,*62
$GLGSV,3,3,10,85,01,325,,,,,28*56
$GNGLL,0419.86182,S,05539.91005,E,075008.00,A,A*6E
$GNRMC,075009.00,A,0419.86178,S,05539.91006,E,0.037,,280525,,,A*7C
$GNVTG,,T,,M,0.037,N,0.068,K,A*37
$GNGGA,075009.00,0419.86178,S,05539.91006,E,1,11,0.88,20.5,M,-47.6,M,,*43
$GNGSA,A,3,25,23,12,15,18,24,29,13,10,,,,1.69,0.88,1.44*15
$GNGSA,A,3,73,69,,,,,,,,,,,1.69,0.88,1.44*18
$GPGSV,5,1,18,05,05,029,31,10,37,229,30,12,44,152,23,13,07,069,31*7E
$GPGSV,5,2,18,15,42,083,36,18,21,332,20,23,70,286,21,24,18,145,30*74
$GPGSV,5,3,18,25,75,201,26,26,01,317,,28,12,256,,29,32,018,33*7F
$GPGSV,5,4,18,32,08,212,,36,52,277,,40,85,352,,41,58,082,37*72
$GPGSV,5,5,18,49,32,274,,50,10,089,*78
$GLGSV,3,1,10,69,29,051,31,70,59,149,,71,22,192,,73,46,202,23*68
$GLGSV,3,2,10,74,46,276,21,75,08,315,,80,06,160,,84,05,011,*69
$GLGSV,3,3,10,85,01,325,,,,,29*57
$GNGLL,0419.86178,S,05539.91006,E,075009.00,A,A*69
$GNRMC,075010.00,A,0419.86173,S,05539.91005,E,0.087,,280525,,,A*77
$GNVTG,,T,,M,0.087,N,0.161,K,A*34
$GNGGA,075010.00,0419.86173,S,05539.91005,E,1,11,0.88,20.6,M,-47.6,M,,*40
$GNGSA,A,3,25,23,12,15,18,24,29,13,10,,,,1.69,0.88,1.44*15
$GNGSA,A,3,73,69,,,,,,,,,,,1.69,0.88,1.44*18
$GPGSV,5,1,18,05,05,029,29,10,37,229,28,12,44,152,22,13,07,069,29*76
$GPGSV,5,2,18,15,42,083,32,18,21,332,19,23,70,286,21,24,18,145,27*7C
$GPGSV,5,3,18,25,75,201,24,26,01,317,,28,12,256,,29,32,018,32*7C
$GPGSV,5,4,18,32,08,212,,36,52,277,,40,85,352,,41,58,082,33*76
$GPGSV,5,5,18,49,32,274,,50,10,089,*78
$GLGSV,3,1,10,69,29,051,29,70,59,149,,71,22,192,,73,46,202,22*60
$GLGSV,3,2,10,74,46,276,21,75,08,315,,80,06,160,,84,05,011,*69
$GLGSV,3,3,10,85,01,325,,,,,28*56
$GNGLL,0419.86173,S,05539.91005,E,075010.00,A,A*69
$GNRMC,075011.00,A,0419.86170,S,05539.91006,E,0.079,,280525,,,A*77
$GNVTG,,T,,M,0.079,N,0.146,K,A*30
$GNGGA,075011.00,0419.86170,S,05539.91006,E,1,11,0.88,20.6,M,-47.6,M,,*41
$GNGSA,A,3,25,23,12,15,18,24,29,13,10,,,,1.69,0.88,1.44*15
$GNGSA,A,3,73,69,,,,,,,,,,,1.69,0.88,1.44*18
$GPGSV,5,1,18,05,05,029,30,10,37,229,27,12,44,152,24,13,07,069,32*7D
$GPGSV,5,2,18,15,42,083,38,18,21,332,18,23,69,287,22,24,18,145,27*7D
$GPGSV,5,3,18,25,75,201,31,26,01,317,,28,12,256,,29,32,018,33*79
$GPGSV,5,4,18,32,08,212,,36,52,277,,40,85,352,,41,58,082,39*7C
$GPGSV,5,5,18,49,32,274,,50,10,089,*78
$GLGSV,3,1,10,69,29,051,33,70,59,149,,71,22,192,,73,46,202,24*6D
$GLGSV,3,2,10,74,46,276,22,75,08,315,,80,06,160,,84,05,011,*6A
$GLGSV,3,3,10,85,01,325,,,,,28*56
$GNGLL,0419.86170,S,05539.91006,E,075011.00,A,A*68
$GNRMC,075012.00,A,0419.86174,S,05539.91010,E,0.253,,280525,,,A*7D
$GNVTG,,T,,M,0.253,N,0.468,K,A*33
$GNGGA,075012.00,0419.86174,S,05539.91010,E,1,11,0.88,20.7,M,-47.6,M,,*40
$GNGSA,A,3,25,23,12,15,18,24,29,13,10,,,,1.69,0.88,1.44*15
$GNGSA,A,3,73,69,,,,,,,,,,,1.69,0.88,1.44*18
$GPGSV,5,1,18,05,05,029,29,10,37,229,28,12,44,152,23,13,07,069,26*78
$GPGSV,5,2,18,15,42,083,32,18,21,332,19,23,69,287,23,24,18,145,27*77
$GPGSV,5,3,18,25,75,201,29,26,01,317,,28,12,256,,29,32,018,28*7A
$GPGSV,5,4,18,32,08,212,,36,52,277,,40,85,352,,41,58,082,36*73
$GPGSV,5,5,18,49,32,274,,50,10,089,*78
$GLGSV,3,1,10,69,29,051,30,70,59,149,,71,22,192,,73,46,202,25*6F
$GLGSV,3,2,10,74,46,276,22,75,08,315,,80,06,160,,84,05,011,*6A
$GLGSV,3,3,10,85,01,325,,,,,28*56
$GNGLL,0419.86174,S,05539.91010,E,075012.00,A,A*68
$GNRMC,075013.00,A,0419.86176,S,05539.91015,E,0.131,,280525,,,A*7C
$GNVTG,,T,,M,0.131,N,0.243,K,A*3B
$GNGGA,075013.00,0419.86176,S,05539.91015,E,1,11,0.88,20.9,M,-47.6,M,,*48
$GNGSA,A,3,25,23,12,15,18,24,29,13,10,,,,1.69,0.88,1.44*15
$GNGSA,A,3,73,69,,,,,,,,,,,1.69,0.88,1.44*18
$GPGSV,5,1,18,05,05,029,28,10,37,229,29,12,44,152,21,13,07,069,26*7A
$GPGSV,5,2,18,15,42,083,32,18,21,332,19,23,69,287,23,24,18,145,27*77
$GPGSV,5,3,18,25,75,200,26,26,01,317,,28,12,256,,29,32,018,28*74
$GPGSV,5,4,18,32,08,212,,36,52,277,,40,85,352,,41,58,082,33*76
$GPGSV,5,5,18,49,32,274,,50,10,089,*78
$GLGSV,3,1,10,69,29,051,29,70,59,149,,71,22,192,,73,46,202,25*67
$GLGSV,3,2,10,74,46,276,20,75,08,315,,80,06,160,,84,05,011,*68
$GLGSV,3,3,10,85,01,325,,,,,28*56
$GNGLL,0419.86176,S,05539.91015,E,075013.00,A,A*6E
$GNRMC,075014.00,A,0419.86169,S,05539.91014,E,0.068,,280525,,,A*79
$GNVTG,,T,,M,0.068,N,0.127,K,A*37
$GNGGA,075014.00,0419.86169,S,05539.91014,E,1,11,0.88,20.9,M,-47.6,M,,*40
$GNGSA,A,3,25,23,12,15,18,24,29,13,10,,,,1.69,0.88,1.44*15
$GNGSA,A,3,73,69,,,,,,,,,,,1.69,0.88,1.44*18
$GPGSV,5,1,18,05,05,029,31,10,37,229,29,12,44,152,23,13,07,069,32*75
$GPGSV,5,2,18,15,42,083,37,18,21,332,18,23,69,287,26,24,18,145,29*78
$GPGSV,5,3,18,25,75,200,29,26,02,317,,28,12,256,,29,32,018,33*72
$GPGSV,5,4,18,32,08,212,,36,52,277,,40,85,352,,41,58,082,38*7D
$GPGSV,5,5,18,49,32,274,,50,10,089,*78
$GLGSV,3,1,10,69,29,051,29,70,59,149,,71,22,192,,73,46,202,25*67
$GLGSV,3,2,10,74,46,276,20,75,08,315,,80,06,160,,84,05,011,*68
$GLGSV,3,3,10,85,01,325,,,,,28*56
$GNGLL,0419.86169,S,05539.91014,E,075014.00,A,A*66
$GNRMC,075015.00,A,0419.86165,S,05539.91023,E,0.010,,280525,,,A*7F
$GNVTG,,T,,M,0.010,N,0.019,K,A*34
$GNGGA,075015.00,0419.86165,S,05539.91023,E,1,11,0.88,21.0,M,-47.6,M,,*41
$GNGSA,A,3,25,23,12,15,18,24,29,13,10,,,,1.69,0.88,1.44*15
$GNGSA,A,3,73,69,,,,,,,,,,,1.69,0.88,1.44*18
$GPGSV,5,1,18,05,05,029,31,10,37,229,31,12,44,152,26,13,07,069,30*7B
$GPGSV,5,2,18,15,42,083,38,18,21,332,22,23,69,287,32,24,18,145,28*7A
$GPGSV,5,3,18,25,75,200,31,26,02,317,,28,12,256,,29,32,018,32*7A
$GPGSV,5,4,18,32,08,212,,36,52,277,,40,85,352,,41,58,082,38*7D
$GPGSV,5,5,18,49,32,274,,50,10,089,*78
$GLGSV,3,1,10,69,29,051,29,70,59,149,,71,22,192,,73,46,202,26*64
$GLGSV,3,2,10,74,46,276,22,75,08,315,,80,06,160,,84,05,011,*6A
$GLGSV,3,3,10,85,01,325,,,,,32*5D
$GNGLL,0419.86165,S,05539.91023,E,075015.00,A,A*6F
$GNRMC,075016.00,A,0419.86167,S,05539.91027,E,0.284,,280525,,,A*75
$GNVTG,,T,,M,0.284,N,0.525,K,A*31
$GNGGA,075016.00,0419.86167,S,05539.91027,E,1,11,0.88,21.3,M,-47.6,M,,*47
$GNGSA,A,3,25,23,12,15,18,24,29,13,10,,,,1.69,0.88,1.44*15
$GNGSA,A,3,73,69,,,,,,,,,,,1.69,0.88,1.44*18
$GPGSV,5,1,18,05,05,029,29,10,37,229,27,12,44,152,23,13,07,069,30*70
$GPGSV,5,2,18,15,42,083,33,18,21,332,23,23,69,287,26,24,18,145,28*75
$GPGSV,5,3,18,25,75,200,23,26,02,317,,28,12,255,,29,32,018,31*79
$GPGSV,5,4,18,32,08,212,,36,52,277,,40,85,352,,41,58,082,34*71
$GPGSV,5,5,18,49,32,274,,50,10,089,*78
$GLGSV,3,1,10,69,29,051,29,70,59,149,,71,22,192,,73,46,202,25*67
$GLGSV,3,2,10,74,46,276,22,75,08,315,,80,06,160,,84,05,011,*6A
$GLGSV,3,3,10,85,01,325,,,,,27*59
$GNGLL,0419.86167,S,05539.91027,E,075016.00,A,A*6A
$GNRMC,075017.00,A,0419.86167,S,05539.91030,E,0.086,,280525,,,A*72
$GNVTG,,T,,M,0.086,N,0.160,K,A*34
$GNGGA,075017.00,0419.86167,S,05539.91030,E,1,11,0.88,21.3,M,-47.6,M,,*40
$GNGSA,A,3,25,23,12,15,18,24,29,13,10,,,,1.69,0.88,1.44*15
$GNGSA,A,3,73,69,,,,,,,,,,,1.69,0.88,1.44*18
$GPGSV,5,1,18,05,05,029,29,10,37,229,27,12,44,152,23,13,07,069,30*70
$GPGSV,5,2,18,15,42,083,31,18,21,332,22,23,69,287,27,24,18,145,27*78
$GPGSV,5,3,18,25,75,200,25,26,02,317,,28,12,255,,29,33,018,31*7E
$GPGSV,5,4,18,32,08,212,,36,52,277,,40,85,352,,41,58,082,36*73
$GPGSV,5,5,18,49,32,274,,50,10,089,*78
$GLGSV,3,1,10,69,29,051,30,70,59,149,,71,22,192,,73,46,202,24*6E
$GLGSV,3,2,10,74,46,276,20,75,08,315,,80,06,160,,84,05,011,*68
$GLGSV,3,3,10,85,01,325,,,,,26*58
$GNGLL,0419.86167,S,05539.91030,E,075017.00,A,A*6D
$GNRMC,075018.00,A,0419.86165,S,05539.91032,E,0.116,,280525,,,A*75
$GNVTG,,T,,M,0.116,N,0.214,K,A*3C
$GNGGA,075018.00,0419.86165,S,05539.91032,E,1,11,0.88,21.5,M,-47.6,M,,*49
$GNGSA,A,3,25,23,12,15,18,24,29,13,10,,,,1.69,0.88,1.44*15
$GNGSA,A,3,73,69,,,,,,,,,,,1.69,0.88,1.44*18
$GPGSV,5,1,18,05,05,029,29,10,37,229,28,12,44,152,24,13,07,069,30*78
$GPGSV,5,2,18,15,42,083,35,18,21,332,21,23,69,287,27,24,18,145,27*7F
$GPGSV,5,3,18,25,75,200,26,26,02,317,,28,12,255,,29,33,018,34*78
$GPGSV,5,4,18,32,08,212,,36,52,277,,40,85,352,,41,58,082,38*7D
$GPGSV,5,5,18,49,32,274,,50,10,089,*78
$GLGSV,3,1,10,69,29,051,31,70,59,149,,71,22,192,,73,46,202,25*6E
$GLGSV,3,2,10,74,46,276,18,75,08,315,,80,06,160,,84,05,011,*63
$GLGSV,3,3,10,85,01,325,,,,,27*59
$GNGLL,0419.86165,S,05539.91032,E,075018.00,A,A*62
$GNRMC,075019.00,A,0419.86164,S,05539.91034,E,0.134,,280525,,,A*73
$GNVTG,,T,,M,0.134,N,0.248,K,A*35
$GNGGA,075019.00,0419.86164,S,05539.91034,E,1,11,0.88,21.6,M,-47.6,M,,*4C
$GNGSA,A,3,25,23,12,15,18,24,29,13,10,,,,1.69,0.88,1.44*15
$GNGSA,A,3,73,69,,,,,,,,,,,1.69,0.88,1.44*18
$GPGSV,5,1,18,05,05,029,29,10,37,229,28,12,44,152,24,13,07,069,29*70
$GPGSV,5,2,18,15,42,083,32,18,21,332,21,23,69,287,26,24,18,145,27*79
$GPGSV,5,3,18,25,75,200,28,26,02,317,,28,12,255,,29,33,018,31*73
$GPGSV,5,4,18,32,08,212,,36,52,277,,40,85,352,,41,58,082,35*70
$GPGSV,5,5,18,49,32,274,,50,10,089,*78
$GLGSV,3,1,10,69,29,051,26,70,59,149,,71,22,192,,73,46,202,26*6B
$GLGSV,3,2,10,74,46,276,18,75,08,315,,80,06,160,,84,05,011,*63
$GLGSV,3,3,10,85,01,325,,,,,26*58
$GNGLL,0419.86164,S,05539.91034,E,075019.00,A,A*64
$GNRMC,075020.00,A,0419.86164,S,05539.91040,E,0.026,,280525,,,A*78
$GNVTG,,T,,M,0.026,N,0.048,K,A*35
$GNGGA,075020.00,0419.86164,S,05539.91040,E,1,11,0.88,21.7,M,-47.6,M,,*44
$GNGSA,A,3,25,23,12,15,18,24,29,13,10,,,,1.69,0.88,1.45*14
$GNGSA,A,3,73,69,,,,,,,,,,,1.69,0.88,1.45*19
$GPGSV,5,1,18,05,05,029,30,10,37,229,31,12,44,152,22,13,07,069,29*76
$GPGSV,5,2,18,15,42,083,32,18,21,332,21,23,69,287,27,24,18,145,27*78
$GPGSV,5,3,18,25,75,200,28,26,02,317,,28,12,255,,29,33,018,28*7B
$GPGSV,5,4,18,32,08,211,,36,52,277,,40,85,352,,41,58,082,37*71
$GPGSV,5,5,18,49,32,274,,50,10,089,*78
$GLGSV,3,1,10,69,29,051,27,70,59,149,,71,22,192,,73,46,202,26*6A
$GLGSV,3,2,10,74,46,276,16,75,08,315,,80,06,160,,84,05,011,*6D
$GLGSV,3,3,10,85,01,325,,,,,28*56
$GNGLL,0419.86164,S,05539.91040,E,075020.00,A,A*6D
$GNRMC,075021.00,A,0419.86164,S,05539.91044,E,0.027,,280525,,,A*7C
$GNVTG,,T,,M,0.027,N,0.050,K,A*3D
$GNGGA,075021.00,0419.86164,S,05539.91044,E,1,11,0.88,21.6,M,-47.6,M,,*40
$GNGSA,A,3,25,23,12,15,18,24,29,13,10,,,,1.69,0.88,1.45*14
$GNGSA,A,3,73,69,,,,,,,,,,,1.69,0.88,1.45*19
$GPGSV,5,1,18,05,05,029,29,10,37,229,25,12,44,152,21,13,07,069,28*79
$GPGSV,5,2,18,15,42,083,29,18,21,332,20,23,69,287,26,24,18,145,27*72
$GPGSV,5,3,18,25,75,200,27,26,02,317,,28,12,255,,29,33,018,31*7C
$GPGSV,5,4,18,32,08,211,,36,52,277,,40,85,352,,41,58,082,33*75
$GPGSV,5,5,18,49,32,274,,50,10,089,*78
$GLGSV,3,1,10,69,29,051,28,70,59,149,,71,22,192,,73,46,202,25*66
$GLGSV,3,2,10,74,46,276,16,75,08,315,,80,06,160,,84,05,011,*6D
$GLGSV,3,3,10,85,01,325,,,,,28*56
$GNGLL,0419.86164,S,05539.91044,E,075021.00,A,A*68
$GNRMC,075022.00,A,0419.86168,S,05539.91044,E,0.087,,280525,,,A*79
$GNVTG,,T,,M,0.087,N,0.162,K,A*37
$GNGGA,075022.00,0419.86168,S,05539.91044,E,1,11,0.88,21.6,M,-47.6,M,,*4F
$GNGSA,A,3,25,23,12,15,18,24,29,13,10,,,,1.69,0.88,1.45*14
$GNGSA,A,3,73,69,,,,,,,,,,,1.69,0.88,1.45*19
$GPGSV,5,1,18,05,05,029,29,10,37,229,25,12,44,152,18,13,07,069,28*73
$GPGSV,5,2,18,15,42,083,33,18,21,332,17,23,69,287,24,24,18,145,26*7E
$GPGSV,5,3,18,25,75,200,26,26,02,317,,28,12,255,,29,33,018,32*7E
$GPGSV,5,4,18,32,08,211,,36,52,277,,40,85,352,,41,58,082,33*75
$GPGSV,5,5,18,49,32,274,,50,10,089,*78
$GLGSV,3,1,10,69,29,051,28,70,59,149,,71,22,192,,73,46,202,24*67
$GLGSV,3,2,10,74,46,276,15,75,08,315,,80,06,160,,84,05,011,*6E
$GLGSV,3,3,10,85,01,325,,,,,27*59
$GNGLL,0419.86168,S,05539.91044,E,075022.00,A,A*67
$GNRMC,075023.00,A,0419.86170,S,05539.91043,E,0.064,,280525,,,A*7B
$GNVTG,,T,,M,0.064,N,0.118,K,A*37
$GNGGA,075023.00,0419.86170,S,05539.91043,E,1,11,0.88,21.5,M,-47.6,M,,*43
$GNGSA,A,3,25,23,12,15,18,24,29,13,10,,,,1.69,0.88,1.45*14
$GNGSA,A,3,73,69,,,,,,,,,,,1.69,0.88,1.45*19
$GPGSV,5,1,18,05,05,029,28,10,37,229,26,12,44,152,18,13,07,069,28*71
$GPGSV,5,2,18,15,42,083,31,18,21,332,17,23,69,287,25,24,18,145,26*7D
$GPGSV,5,3,18,25,75,200,25,26,02,317,,28,12,255,,29,33,018,31*7E
$GPGSV,5,4,18,32,08,211,,36,52,277,,40,85,352,,41,58,082,36*70
$GPGSV,5,5,18,49,32,274,,50,10,089,*78
$GLGSV,3,1,10,69,29,051,27,70,59,149,,71,22,192,,73,46,202,22*6E
$GLGSV,3,2,10,74,46,276,15,75,08,315,,80,06,160,22,84,05,011,*6E
$GLGSV,3,3,10,85,01,325,,,,,26*58
$GNGLL,0419.86170,S,05539.91043,E,075023.00,A,A*68
$GNRMC,075024.00,A,0419.86171,S,05539.91051,E,0.030,,280525,,,A*7F
$GNVTG,,T,,M,0.030,N,0.055,K,A*3E
$GNGGA,075024.00,0419.86171,S,05539.91051,E,1,11,0.88,21.7,M,-47.6,M,,*44
$GNGSA,A,3,25,23,12,15,18,24,29,13,10,,,,1.69,0.88,1.45*14
$GNGSA,A,3,73,69,,,,,,,,,,,1.69,0.88,1.45*19
$GPGSV,5,1,18,05,05,029,27,10,37,229,32,12,44,152,21,13,07,069,29*70
$GPGSV,5,2,18,15,42,083,36,18,21,332,19,23,69,287,25,24,18,145,27*75
$GPGSV,5,3,18,25,75,200,25,26,02,317,,28,12,255,,29,33,018,34*7B
$GPGSV,5,4,18,32,08,211,,36,52,277,,40,85,352,,41,58,082,37*71
$GPGSV,5,5,18,49,32,274,,50,10,089,*78
$GLGSV,3,1,10,69,29,051,28,70,59,149,,71,22,192,,73,46,202,23*60
$GLGSV,3,2,10,74,46,276,17,75,08,315,,80,06,160,21,84,05,011,*6F
$GLGSV,3,3,10,85,01,325,,,,,27*59
$GNGLL,0419.86171,S,05539.91051,E,075024.00,A,A*6D
$GNRMC,075025.00,A,0419.86174,S,05539.91052,E,0.100,,280525,,,A*7A
$GNVTG,,T,,M,0.100,N,0.185,K,A*30
$GNGGA,075025.00,0419.86174,S,05539.91052,E,1,11,0.88,21.8,M,-47.6,M,,*4C
$GNGSA,A,3,25,23,12,15,18,24,29,13,10,,,,1.69,0.88,1.45*14
$GNGSA,A,3,73,69,,,,,,,,,,,1.69,0.88,1.45*19
$GPGSV,5,1,18,05,05,029,27,10,37,229,32,12,44,152,22,13,07,069,30*7B
$GPGSV,5,2,18,15,42,083,36,18,21,332,20,23,69,287,26,24,18,145,27*7C
$GPGSV,5,3,18,25,75,200,25,26,02,317,,28,12,255,,29,33,018,32*7D
$GPGSV,5,4,18,32,08,211,,36,52,277,,40,85,352,,41,58,082,35*73
$GPGSV,5,5,18,49,32,274,,50,10,089,*78
$GLGSV,3,1,10,69,29,051,32,70,59,149,,71,22,192,,73,46,202,24*6C
$GLGSV,3,2,10,74,46,276,17,75,08,315,,80,06,160,21,84,05,011,*6F
$GLGSV,3,3,10,85,01,325,,,,,30*5F
$GNGLL,0419.86174,S,05539.91052,E,075025.00,A,A*6A
$GNRMC,075026.00,A,0419.86181,S,05539.91050,E,0.057,,280525,,,A*72
$GNVTG,,T,,M,0.057,N,0.106,K,A*38
$GNGGA,075026.00,0419.86181,S,05539.91050,E,1,11,0.88,21.8,M,-47.6,M,,*47
$GNGSA,A,3,25,23,12,15,18,24,29,13,10,,,,1.69,0.88,1.45*14
$GNGSA,A,3,73,69,,,,,,,,,,,1.69,0.88,1.45*19
$GPGSV,5,1,18,05,05,029,27,10,37,229,33,12,44,152,22,13,07,069,29*72
$GPGSV,5,2,18,15,42,083,37,18,21,332,23,23,69,287,26,24,18,145,30*78
$GPGSV,5,3,18,25,75,200,24,26,02,317,,28,12,255,,29,33,018,33*7D
$GPGSV,5,4,18,32,08,211,,36,52,277,,40,85,352,,41,58,082,38*7E
$GPGSV,5,5,18,49,32,274,,50,10,089,*78
$GLGSV,3,1,10,69,29,051,32,70,59,149,,71,22,192,,73,46,202,26*6E
$GLGSV,3,2,10,74,46,276,18,75,08,315,,80,06,160,25,84,05,011,*64
$GLGSV,3,3,10,85,01,325,,,,,30*5F
$GNGLL,0419.86181,S,05539.91050,E,075026.00,A,A*61
$GNRMC,075027.00,A,0419.86186,S,05539.91052,E,0.070,,280525,,,A*73
$GNVTG,,T,,M,0.070,N,0.129,K,A*30
$GNGGA,075027.00,0419.86186,S,05539.91052,E,1,11,0.88,22.0,M,-47.6,M,,*48
$GNGSA,A,3,25,23,12,15,18,24,29,13,10,,,,1.69,0.88,1.45*14
$GNGSA,A,3,73,69,,,,,,,,,,,1.69,0.88,1.45*19
$GPGSV,5,1,18,05,05,029,27,10,37,229,33,12,44,152,21,13,07,069,29*71
$GPGSV,5,2,18,15,42,083,37,18,21,332,24,23,69,287,27,24,18,145,30*7E
$GPGSV,5,3,18,25,75,200,24,26,02,317,,28,12,255,,29,33,018,34*7A
$GPGSV,5,4,18,32,08,211,,36,52,277,,40,85,352,34,41,58,082,38*79
$GPGSV,5,5,18,49,32,274,,50,10,089,*78
$GLGSV,3,1,10,69,29,051,31,70,59,149,19,71,22,192,,73,46,202,26*65
$GLGSV,3,2,10,74,46,276,20,75,08,315,,80,06,160,24,84,05,011,*6E
$GLGSV,3,3,10,85,01,325,,,,,29*57
$GNGLL,0419.86186,S,05539.91052,E,075027.00,A,A*65
$GNRMC,075028.00,A,0419.86190,S,05539.91065,E,0.072,,280525,,,A*7D
$GNVTG,,T,,M,0.072,N,0.134,K,A*3E
$GNGGA,075028.00,0419.86190,S,05539.91065,E,1,11,0.88,22.3,M,-47.6,M,,*47
$GNGSA,A,3,25,23,12,15,18,24,29,13,10,,,,1.69,0.88,1.45*14
$GNGSA,A,3,73,69,,,,,,,,,,,1.69,0.88,1.45*19
$GPGSV,5,1,18,05,05,029,28,10,37,229,35,12,44,152,23,13,07,069,31*73
$GPGSV,5,2,18,15,42,083,37,18,21,332,26,23,69,287,27,24,18,145,33*7F
$GPGSV,5,3,18,25,75,200,30,26,02,317,,28,12,255,,29,33,018,34*7F
$GPGSV,5,4,18,32,08,211,,36,52,277,,40,85,352,37,41,58,082,38*7A
$GPGSV,5,5,18,49,32,274,,50,10,089,*78
$GLGSV,3,1,10,69,29,051,33,70,59,149,18,71,22,192,,73,46,202,23*63
$GLGSV,3,2,10,74,46,276,21,75,08,315,,80,06,160,24,84,05,011,*6F
$GLGSV,3,3,10,85,01,325,,,,,27*59
$GNGLL,0419.86190,S,05539.91065,E,075028.00,A,A*69
$GNRMC,075029.00,A,0419.86192,S,05539.91071,E,0.058,,280525,,,A*73
$GNVTG,,T,,M,0.058,N,0.108,K,A*39
$GNGGA,075029.00,0419.86192,S,05539.91071,E,1,11,0.88,22.5,M,-47.6,M,,*47
$GNGSA,A,3,25,23,12,15,18,24,29,13,10,,,,1.69,0.88,1.45*14
$GNGSA,A,3,73,69,,,,,,,,,,,1.69,0.88,1.45*19
$GPGSV,5,1,18,05,05,029,30,10,37,229,31,12,44,152,23,13,07,069,31*7E
$GPGSV,5,2,18,15,42,083,37,18,21,332,25,23,69,287,27,24,18,145,31*7E
$GPGSV,5,3,18,25,75,200,31,26,02,317,,28,12,255,,29,33,018,33*79
$GPGSV,5,4,18,32,08,211,,36,52,277,,40,85,352,36,41,58,082,38*7B
$GPGSV,5,5,18,49,32,274,,50,10,089,*78
$GLGSV,3,1,10,69,29,051,31,70,59,149,18,71,22,192,,73,46,202,22*60
$GLGSV,3,2,10,74,46,276,20,75,08,315,,80,06,160,25,84,05,011,*6F
$GLGSV,3,3,10,85,01,325,,,,,26*58
$GNGLL,0419.86192,S,05539.91071,E,075029.00,A,A*6F
$GNRMC,075030.00,A,0419.86197,S,05539.91074,E,0.066,,280525,,,A*76
$GNVTG,,T,,M,0.066,N,0.122,K,A*3C
$GNGGA,075030.00,0419.86197,S,05539.91074,E,1,11,0.88,22.7,M,-47.6,M,,*4D
$GNGSA,A,3,25,23,12,15,18,24,29,13,10,,,,1.69,0.88,1.45*14
$GNGSA,A,3,73,69,,,,,,,,,,,1.69,0.88,1.45*19
$GPGSV,5,1,18,05,05,029,29,10,37,229,32,12,44,152,24,13,07,069,31*72
$GPGSV,5,2,18,15,42,083,37,18,21,332,24,23,69,287,27,24,18,145,30*7E
$GPGSV,5,3,18,25,75,200,30,26,02,317,,28,12,255,,29,33,018,34*7F
$GPGSV,5,4,18,32,08,211,,36,52,277,,40,85,352,34,41,58,082,38*79
$GPGSV,5,5,18,49,32,274,,50,10,089,*78
$GLGSV,3,1,10,69,29,051,30,70,59,149,18,71,22,192,,73,46,202,25*66
$GLGSV,3,2,10,74,46,276,17,75,08,315,,80,06,160,25,84,05,011,*6B
$GLGSV,3,3,10,85,01,325,,,,,24*5A
$GNGLL,0419.86197,S,05539.91074,E,075030.00,A,A*67
$GNRMC,075031.00,A,0419.86202,S,05539.91081,E,0.032,,280525,,,A*73
$GNVTG,,T,,M,0.032,N,0.060,K,A*3A
$GNGGA,075031.00,0419.86202,S,05539.91081,E,1,11,0.88,22.6,M,-47.6,M,,*48
$GNGSA,A,3,25,23,12,15,18,24,29,13,10,,,,1.69,0.88,1.45*14
$GNGSA,A,3,73,69,,,,,,,,,,,1.69,0.88,1.45*19
$GPGSV,5,1,18,05,05,029,29,10,37,229,33,12,44,152,23,13,07,069,31*74
$GPGSV,5,2,18,15,42,083,37,18,21,332,25,23,69,287,27,24,18,145,30*7F
$GPGSV,5,3,18,25,75,200,30,26,02,317,,28,12,255,,29,33,018,35*7E
$GPGSV,5,4,18,32,08,211,,36,52,277,,40,85,352,35,41,58,082,37*77
$GPGSV,5,5,18,49,32,274,,50,10,089,*78
$GLGSV,3,1,10,69,29,051,32,70,59,149,19,71,22,192,,73,46,202,25*65
$GLGSV,3,2,10,74,46,276,18,75,08,315,,80,06,160,26,84,05,011,*67
$GLGSV,3,3,10,85,01,325,,,,,23*5D
$GNGLL,0419.86202,S,05539.91081,E,075031.00,A,A*63
$GNRMC,075032.00,A,0419.86205,S,05539.91087,E,0.103,,280525,,,A*72
$GNVTG,,T,,M,0.103,N,0.191,K,A*36
$GNGGA,075032.00,0419.86205,S,05539.91087,E,1,11,0.88,22.5,M,-47.6,M,,*49
$GNGSA,A,3,25,23,12,15,18,24,29,13,10,,,,1.69,0.88,1.45*14
$GNGSA,A,3,73,69,,,,,,,,,,,1.69,0.88,1.45*19
$GPGSV,5,1,18,05,05,029,28,10,37,229,34,12,44,152,22,13,07,069,31*73
$GPGSV,5,2,18,15,42,083,36,18,21,332,24,23,69,287,26,24,18,145,31*7F
$GPGSV,5,3,18,25,75,200,30,26,02,317,,28,12,255,,29,33,018,35*7E
$GPGSV,5,4,18,32,08,211,,36,52,277,,40,85,352,34,41,58,082,37*76
$GPGSV,5,5,18,49,32,274,,50,10,089,*78
$GLGSV,3,1,10,69,29,051,31,70,59,149,20,71,22,192,,73,46,202,24*6D
$GLGSV,3,2,10,74,46,276,19,75,08,315,,80,06,160,26,84,05,011,*66
$GLGSV,3,3,10,85,01,325,,,,,21*5F
$GNGLL,0419.86205,S,05539.91087,E,075032.00,A,A*61
$GNRMC,075033.00,A,0419.86208,S,05539.91090,E,0.078,,280525,,,A*75
$GNVTG,,T,,M,0.078,N,0.144,K,A*33
$GNGGA,075033.00,0419.86208,S,05539.91090,E,1,11,0.88,22.4,M,-47.6,M,,*42
$GNGSA,A,3,25,23,12,15,18,24,29,13,10,,,,1.69,0.88,1.45*14
$GNGSA,A,3,73,69,,,,,,,,,,,1.69,0.88,1.45*19
$GPGSV,5,1,18,05,05,029,30,10,37,229,35,12,44,152,22,13,07,069,29*72
$GPGSV,5,2,18,15,42,083,36,18,21,332,25,23,69,287,26,24,18,145,30*7F
$GPGSV,5,3,18,25,75,200,29,26,02,317,,28,12,255,,29,33,018,35*76
$GPGSV,5,4,18,32,08,211,,36,52,277,,40,85,352,34,41,58,082,37*76
$GPGSV,5,5,18,49,32,274,,50,10,089,*78
$GLGSV,3,1,10,69,29,051,32,70,59,149,19,71,22,192,,73,46,202,22*62
$GLGSV,3,2,10,74,46,276,19,75,08,315,,80,06,160,26,84,05,011,*66
$GLGSV,3,3,10,85,01,325,,,,,20*5E
$GNGLL,0419.86208,S,05539.91090,E,075033.00,A,A*6B
$GNRMC,075034.00,A,0419.86212,S,05539.91091,E,0.013,,280525,,,A*75
$GNVTG,,T,,M,0.013,N,0.025,K,A*38
$GNGGA,075034.00,0419.86212,S,05539.91091,E,1,11,0.88,22.3,M,-47.6,M,,*48
$GNGSA,A,3,25,23,12,15,18,24,29,13,10,,,,1.69,0.88,1.45*14
$GNGSA,A,3,73,69,,,,,,,,,,,1.69,0.88,1.45*19
$GPGSV,5,1,18,05,05,029,30,10,37,229,34,12,44,152,25,13,07,069,31*7D
$GPGSV,5,2,18,15,42,083,35,18,21,332,26,23,69,287,26,24,18,145,30*7F
$GPGSV,5,3,18,25,75,200,28,26,02,317,,28,12,255,,29,33,018,35*77
$GPGSV,5,4,18,32,08,211,,36,52,277,,40,85,352,34,41,58,082,37*76
$GPGSV,5,5,18,49,32,274,,50,10,089,*78
$GLGSV,3,1,10,69,29,051,34,70,59,149,18,71,22,192,,73,46,202,22*65
$GLGSV,3,2,10,74,46,276,19,75,08,315,,80,06,160,26,84,05,011,*66
$GLGSV,3,3,10,85,01,325,,,,,20*5E
$GNGLL,0419.86212,S,05539.91091,E,075034.00,A,A*66
$GNRMC,075035.00,A,0419.86217,S,05539.91093,E,0.066,,280525,,,A*71
$GNVTG,,T,,M,0.066,N,0.123,K,A*3D
$GNGGA,075035.00,0419.86217,S,05539.91093,E,1,11,0.88,22.1,M,-47.6,M,,*4C
$GNGSA,A,3,25,23,12,15,18,24,29,13,10,,,,1.69,0.88,1.45*14
$GNGSA,A,3,73,69,,,,,,,,,,,1.69,0.88,1.45*19
$GPGSV,5,1,18,05,05,029,31,10,37,229,34,12,44,152,24,13,07,069,31*7D
$GPGSV,5,2,18,15,42,083,35,18,21,332,25,23,69,287,26,24,18,145,29*74
$GPGSV,5,3,18,25,75,200,28,26,02,317,,28,12,255,,29,33,018,36*74
$GPGSV,5,4,18,32,08,211,,36,52,277,,40,85,352,34,41,58,082,36*77
$GPGSV,5,5,18,49,32,274,,50,10,089,*78
$GLGSV,3,1,10,69,29,051,33,70,59,149,19,71,22,192,,73,46,202,22*63
$GLGSV,3,2,10,74,46,276,19,75,08,315,,80,06,160,26,84,05,011,*66
$GLGSV,3,3,10,85,01,325,,,,,22*5C
$GNGLL,0419.86217,S,05539.91093,E,075035.00,A,A*60
$GNRMC,075036.00,A,0419.86222,S,05539.91099,E,0.022,,280525,,,A*7E
$GNVTG,,T,,M,0.022,N,0.042,K,A*3B
$GNGGA,075036.00,0419.86222,S,05539.91099,E,1,11,0.88,22.0,M,-47.6,M,,*42
$GNGSA,A,3,25,23,12,15,18,24,29,13,10,,,,1.69,0.88,1.45*14
$GNGSA,A,3,73,69,,,,,,,,,,,1.69,0.88,1.45*19
$GPGSV,5,1,18,05,05,029,30,10,37,229,35,12,44,152,23,13,07,069,30*7B
$GPGSV,5,2,18,15,42,083,35,18,21,332,25,23,69,287,26,24,18,145,30*7C
$GPGSV,5,3,18,25,75,200,29,26,02,317,,28,12,255,,29,33,018,36*75
$GPGSV,5,4,18,32,08,211,,36,52,277,,40,85,352,35,41,58,082,36*76
$GPGSV,5,5,18,49,32,274,,50,10,089,*78
$GLGSV,3,1,10,69,29,051,32,70,59,149,20,71,22,192,,73,46,202,23*69
$GLGSV,3,2,10,74,46,276,18,75,08,315,,80,06,160,25,84,05,011,*64
$GLGSV,3,3,10,85,01,325,,,,,24*5A
$GNGLL,0419.86222,S,05539.91099,E,075036.00,A,A*6F
$GNRMC,075037.00,A,0419.86227,S,05539.91105,E,0.082,,280525,,,A*74
$GNVTG,,T,,M,0.082,N,0.151,K,A*32
$GNGGA,075037.00,0419.86227,S,05539.91105,E,1,11,0.88,22.1,M,-47.6,M,,*43
$GNGSA,A,3,25,23,12,15,18,24,29,13,10,,,,1.69,0.88,1.45*14
$GNGSA,A,3,73,69,,,,,,,,,,,1.69,0.88,1.45*19
$GPGSV,5,1,18,05,05,029,30,10,37,229,34,12,44,152,22,13,07,069,31*7A
$GPGSV,5,2,18,15,42,083,38,18,21,332,25,23,69,287,26,24,18,145,29*79
$GPGSV,5,3,18,25,75,200,19,26,02,317,,28,12,255,,29,33,018,36*76
$GPGSV,5,4,18,32,08,211,,36,52,277,,40,85,352,35,41,58,082,37*77
$GPGSV,5,5,18,49,32,274,,50,10,089,*78
$GLGSV,3,1,10,69,29,051,30,70,59,149,20,71,22,192,,73,46,202,23*6B
$GLGSV,3,2,10,74,46,276,20,75,08,315,,80,06,160,26,84,05,011,*6C
$GLGSV,3,3,10,85,01,325,,,,,23*5D
$GNGLL,0419.86227,S,05539.91105,E,075037.00,A,A*6F
$GNRMC,075038.00,A,0419.86229,S,05539.91108,E,0.059,,280525,,,A*7E
$GNVTG,,T,,M,0.059,N,0.110,K,A*31
$GNGGA,075038.00,0419.86229,S,05539.91108,E,1,11,0.88,22.2,M,-47.6,M,,*4C
$GNGSA,A,3,25,23,12,15,18,24,29,13,10,,,,1.69,0.88,1.45*14
$GNGSA,A,3,73,69,,,,,,,,,,,1.69,0.88,1.45*19
$GPGSV,5,1,18,05,05,029,30,10,37,229,34,12,44,152,25,13,07,069,32*7E
$GPGSV,5,2,18,15,42,083,37,18,21,332,24,23,69,287,26,24,18,145,29*77
$GPGSV,5,3,18,25,75,200,23,26,02,317,,28,12,255,,29,33,018,36*7F
$GPGSV,5,4,18,32,08,211,,36,52,277,,40,85,352,34,41,58,082,37*76
$GPGSV,5,5,18,49,32,274,,50,10,089,*78
$GLGSV,3,1,10,69,29,051,30,70,59,149,19,71,22,192,22,73,46,202,23*61
$GLGSV,3,2,10,74,46,276,20,75,08,315,,80,06,160,26,84,05,011,*6C
$GLGSV,3,3,10,85,01,325,,,,,22*5C
$GNGLL,0419.86229,S,05539.91108,E,075038.00,A,A*63
$GNRMC,075039.00,A,0419.86232,S,05539.91110,E,0.011,,280525,,,A*70
$GNVTG,,T,,M,0.011,N,0.021,K,A*3E
$GNGGA,075039.00,0419.86232,S,05539.91110,E,1,11,0.88,22.2,M,-47.6,M,,*4E
$GNGSA,A,3,25,23,12,15,18,24,29,13,10,,,,1.69,0.88,1.45*14
$GNGSA,A,3,73,69,,,,,,,,,,,1.69,0.88,1.45*19
$GPGSV,5,1,18,05,05,029,29,10,37,229,34,12,44,152,25,13,07,069,31*75
$GPGSV,5,2,18,15,42,083,36,18,21,332,24,23,69,287,28,24,18,145,29*78
$GPGSV,5,3,18,25,75,200,27,26,02,317,,28,12,255,,29,33,018,36*7B
$GPGSV,5,4,18,32,08,211,,36,52,277,,40,85,352,34,41,58,082,38*79
$GPGSV,5,5,18,49,32,274,,50,10,089,*78
$GLGSV,3,1,10,69,29,051,28,70,59,149,20,71,22,192,20,73,46,202,22*61
$GLGSV,3,2,10,74,46,276,20,75,08,315,,80,06,160,27,84,05,011,*6D
$GLGSV,3,3,10,85,01,325,,,,,23*5D
$GNGLL,0419.86232,S,05539.91110,E,075039.00,A,A*61
$GNRMC,075040.00,A,0419.86241,S,05539.91113,E,0.047,,280525,,,A*7A
$GNVTG,,T,,M,0.047,N,0.086,K,A*30
$GNGGA,075040.00,0419.86241,S,05539.91113,E,1,11,0.88,22.1,M,-47.6,M,,*44
$GNGSA,A,3,25,23,12,15,18,24,29,13,10,,,,1.69,0.88,1.45*14
$GNGSA,A,3,73,69,,,,,,,,,,,1.69,0.88,1.45*19
$GPGSV,5,1,18,05,05,029,28,10,37,229,35,12,44,152,22,13,07,069,30*73
$GPGSV,5,2,18,15,42,083,38,18,21,332,25,23,69,287,28,24,18,145,29*77
$GPGSV,5,3,18,25,75,200,28,26,02,317,,28,12,255,,29,33,018,38*7A
$GPGSV,5,4,18,32,08,211,,36,52,277,,40,85,352,34,41,58,082,38*79
$GPGSV,5,5,18,49,32,274,,50,10,089,*78
$GLGSV,3,1,10,69,29,051,27,70,59,149,20,71,22,192,20,73,46,202,22*6E
$GLGSV,3,2,10,74,46,276,20,75,08,315,,80,06,160,26,84,05,011,*6C
$GLGSV,3,3,10,85,01,325,,,,,21*5F
$GNGLL,0419.86241,S,05539.91113,E,075040.00,A,A*68
$GNRMC,075041.00,A,0419.86247,S,05539.91117,E,0.051,,280525,,,A*7E
$GNVTG,,T,,M,0.051,N,0.095,K,A*35
$GNGGA,075041.00,0419.86247,S,05539.91117,E,1,11,0.88,22.1,M,-47.6,M,,*47
$GNGSA,A,3,25,23,12,15,18,24,29,13,10,,,,1.69,0.88,1.45*14
$GNGSA,A,3,73,69,,,,,,,,,,,1.69,0.88,1.45*19
$GPGSV,5,1,18,05,05,029,28,10,37,229,34,12,44,152,21,13,07,069,29*79
$GPGSV,5,2,18,15,42,083,39,18,21,332,26,23,69,287,28,24,18,145,30*7D
$GPGSV,5,3,18,25,75,200,27,26,02,317,,28,12,255,,29,33,018,37*7A
$GPGSV,5,4,18,32,08,211,,36,52,277,,40,85,352,35,41,58,082,38*78
$GPGSV,5,5,18,49,32,274,,50,10,089,*78
$GLGSV,3,1,10,69,29,051,29,70,59,149,19,71,22,192,21,73,46,202,24*6D
$GLGSV,3,2,10,74,46,276,22,75,08,315,,80,06,160,26,84,05,011,*6E
$GLGSV,3,3,10,85,01,325,,,,,23*5D
$GNGLL,0419.86247,S,05539.91117,E,075041.00,A,A*6B
$GNRMC,075042.00,A,0419.86253,S,05539.91119,E,0.049,,280525,,,A*7F
$GNVTG,,T,,M,0.049,N,0.090,K,A*39
$GNGGA,075042.00,0419.86253,S,05539.91119,E,1,11,0.88,21.9,M,-47.6,M,,*44
$GNGSA,A,3,25,23,12,15,18,24,29,13,10,,,,1.69,0.88,1.45*14
$GNGSA,A,3,73,69,,,,,,,,,,,1.69,0.88,1.45*19
$GPGSV,5,1,18,05,05,029,26,10,37,229,33,12,44,152,24,13,07,069,28*74
$GPGSV,5,2,18,15,42,083,37,18,21,332,26,23,69,287,28,24,18,145,30*73
$GPGSV,5,3,18,25,75,200,29,26,02,317,,28,12,255,,29,33,018,37*74
$GPGSV,5,4,18,32,08,211,,36,52,277,,40,85,352,35,41,58,082,38*78
$GPGSV,5,5,18,49,32,274,,50,10,089,*78
$GLGSV,3,1,10,69,29,051,30,70,59,149,18,71,22,192,21,73,46,202,25*65
$GLGSV,3,2,10,74,46,276,22,75,08,315,,80,06,160,25,84,05,011,*6D
$GLGSV,3,3,10,85,01,325,,,,,22*5C
$GNGLL,0419.86253,S,05539.91119,E,075042.00,A,A*63
$GNRMC,075043.00,A,0419.86257,S,05539.91121,E,0.005,,280525,,,A*79
$GNVTG,,T,,M,0.005,N,0.010,K,A*39
$GNGGA,075043.00,0419.86257,S,05539.91121,E,1,11,0.88,21.7,M,-47.6,M,,*44
$GNGSA,A,3,25,23,12,15,18,24,29,13,10,,,,1.69,0.88,1.45*14
$GNGSA,A,3,73,69,,,,,,,,,,,1.69,0.88,1.45*19
$GPGSV,5,1,18,05,05,029,26,10,37,229,34,12,44,152,24,13,07,069,28*73
$GPGSV,5,2,18,15,42,083,38,18,21,332,26,23,69,287,29,24,18,145,30*7D
$GPGSV,5,3,18,25,75,200,29,26,02,317,,28,12,255,,29,33,018,37*74
$GPGSV,5,4,18,32,08,211,,36,52,277,,40,85,352,34,41,58,082,38*79
$GPGSV,5,5,18,49,32,274,,50,10,089,*78
$GLGSV,3,1,10,69,29,051,30,70,59,149,19,71,22,192,21,73,46,202,26*67
$GLGSV,3,2,10,74,46,276,23,75,08,315,,80,06,160,25,84,05,011,*6C
$GLGSV,3,3,10,85,01,325,,,,,22*5C
$GNGLL,0419.86257,S,05539.91121,E,075043.00,A,A*6D
$GNRMC,075044.00,A,0419.86260,S,05539.91122,E,0.030,,280525,,,A*7F
$GNVTG,,T,,M,0.030,N,0.056,K,A*3D
$GNGGA,075044.00,0419.86260,S,05539.91122,E,1,11,0.88,21.6,M,-47.6,M,,*45
$GNGSA,A,3,25,23,12,15,18,24,29,13,10,,,,1.69,0.88,1.45*14
$GNGSA,A,3,73,69,,,,,,,,,,,1.69,0.88,1.45*19
$GPGSV,5,1,18,05,05,029,27,10,37,229,35,12,44,152,24,13,07,069,28*73
$GPGSV,5,2,18,15,42,083,40,18,21,332,26,23,69,287,28,24,18,145,31*72
$GPGSV,5,3,18,25,75,200,28,26,02,317,,28,12,255,,29,33,018,35*77
$GPGSV,5,4,18,32,08,211,,36,52,277,,40,85,352,34,41,58,082,38*79
$GPGSV,5,5,18,49,32,274,,50,10,089,*78
$GLGSV,3,1,10,69,29,051,30,70,59,149,18,71,22,192,21,73,46,202,26*66
$GLGSV,3,2,10,74,46,276,23,75,08,315,,80,06,160,27,84,05,011,*6E
$GLGSV,3,3,10,85,01,325,,,,,24*5A
$GNGLL,0419.86260,S,05539.91122,E,075044.00,A,A*6D
$GNRMC,075045.00,A,0419.86264,S,05539.91123,E,0.053,,280525,,,A*7E
$GNVTG,,T,,M,0.053,N,0.098,K,A*3A
$GNGGA,075045.00,0419.86264,S,05539.91123,E,1,11,0.88,21.6,M,-47.6,M,,*41
$GNGSA,A,3,25,23,12,15,18,24,29,13,10,,,,1.69,0.88,1.45*14
$GNGSA,A,3,73,69,,,,,,,,,,,1.69,0.88,1.45*19
$GPGSV,5,1,18,05,05,029,26,10,37,229,35,12,44,152,26,13,07,069,27*7F
$GPGSV,5,2,18,15,42,083,39,18,21,332,24,23,69,287,27,24,18,145,31*71
$GPGSV,5,3,18,25,75,200,27,26,02,317,,28,12,255,,29,33,018,36*7B
$GPGSV,5,4,18,32,08,211,,36,52,277,,40,85,352,34,41,58,082,37*76
$GPGSV,5,5,18,49,32,274,,50,10,089,*78
$GLGSV,3,1,10,69,29,051,30,70,59,149,18,71,22,192,21,73,46,202,25*65
$GLGSV,3,2,10,74,46,276,23,75,08,315,,80,06,160,26,84,05,011,*6F
$GLGSV,3,3,10,85,01,325,,,,,25*5B
$GNGLL,0419.86264,S,05539.91123,E,075045.00,A,A*69
$GNRMC,075046.00,A,0419.86266,S,05539.91123,E,0.072,,280525,,,A*7C
$GNVTG,,T,,M,0.072,N,0.133,K,A*39
$GNGGA,075046.00,0419.86266,S,05539.91123,E,1,11,0.88,21.5,M,-47.6,M,,*43
$GNGSA,A,3,25,23,12,15,18,24,29,13,10,,,,1.69,0.88,1.45*14
$GNGSA,A,3,73,69,,,,,,,,,,,1.69,0.88,1.45*19
$GPGSV,5,1,18,05,05,029,24,10,37,229,35,12,44,152,26,13,07,069,29*73
$GPGSV,5,2,18,15,42,083,39,18,21,332,24,23,69,287,27,24,18,145,31*71
$GPGSV,5,3,18,25,75,200,28,26,02,317,,28,12,255,,29,33,018,36*74
$GPGSV,5,4,18,32,08,211,,36,52,277,,40,85,352,34,41,58,082,38*79
$GPGSV,5,5,18,49,32,274,,50,10,089,*78
$GLGSV,3,1,10,69,29,051,34,70,60,149,16,71,22,192,21,73,46,202,25*65
$GLGSV,3,2,10,74,46,276,23,75,08,315,,80,06,160,25,84,05,011,*6C
$GLGSV,3,3,10,85,01,325,,,,,30*5F
$GNGLL,0419.86266,S,05539.91123,E,075046.00,A,A*68
$GNRMC,075047.00,A,0419.86268,S,05539.91122,E,0.042,,280525,,,A*71
$GNVTG,,T,,M,0.042,N,0.078,K,A*34
$GNGGA,075047.00,0419.86268,S,05539.91122,E,1,11,0.88,21.4,M,-47.6,M,,*4C
$GNGSA,A,3,25,23,12,15,18,24,29,13,10,,,,1.69,0.88,1.45*14
$GNGSA,A,3,73,69,,,,,,,,,,,1.69,0.88,1.45*19
$GPGSV,5,1,18,05,05,029,23,10,37,229,35,12,44,152,32,13,07,069,29*71
$GPGSV,5,2,18,15,42,083,39,18,21,332,25,23,69,287,27,24,18,145,30*71
$GPGSV,5,3,18,25,75,200,27,26,02,317,,28,12,255,,29,33,018,36*7B
$GPGSV,5,4,18,32,08,211,,36,52,277,,40,85,352,36,41,58,082,38*7B
$GPGSV,5,5,18,49,32,274,,50,10,089,*78
$GLGSV,3,1,10,69,29,051,33,70,60,149,17,71,22,192,21,73,46,202,27*61
$GLGSV,3,2,10,74,46,276,22,75,08,315,,80,06,160,27,84,05,011,*6F
$GLGSV,3,3,10,85,01,325,,,,,28*56
$GNGLL,0419.86268,S,05539.91122,E,075047.00,A,A*66
$GNRMC,075048.00,A,0419.86270,S,05539.91120,E,0.021,,280525,,,A*70
$GNVTG,,T,,M,0.021,N,0.038,K,A*35
$GNGGA,075048.00,0419.86270,S,05539.91120,E,1,11,0.88,21.4,M,-47.6,M,,*48
$GNGSA,A,3,25,23,12,15,18,24,29,13,10,,,,1.69,0.88,1.45*14
$GNGSA,A,3,73,69,,,,,,,,,,,1.69,0.88,1.45*19
$GPGSV,5,1,18,05,05,029,21,10,37,229,35,12,44,152,30,13,07,069,30*79
$GPGSV,5,2,18,15,42,083,37,18,21,332,25,23,69,287,26,24,18,145,30*7E
$GPGSV,5,3,18,25,75,200,25,26,02,317,,28,12,255,,29,33,018,35*7A
$GPGSV,5,4,18,32,08,211,,36,52,277,,40,85,352,35,41,58,082,38*78
$GPGSV,5,5,18,49,32,274,,50,10,089,*78
$GLGSV,3,1,10,69,29,051,33,70,60,149,18,71,22,192,21,73,46,202,28*61
$GLGSV,3,2,10,74,46,276,24,75,08,315,,80,06,160,29,84,05,011,*67
$GLGSV,3,3,10,85,01,325,,,,,27*59
$GNGLL,0419.86270,S,05539.91120,E,075048.00,A,A*62
$GNRMC,075049.00,A,0419.86272,S,05539.91120,E,0.052,,280525,,,A*77
$GNVTG,,T,,M,0.052,N,0.096,K,A*35
$GNGGA,075049.00,0419.86272,S,05539.91120,E,1,11,0.88,21.4,M,-47.6,M,,*4B
$GNGSA,A,3,25,23,12,15,18,24,29,13,10,,,,1.69,0.88,1.45*14
$GNGSA,A,3,73,69,,,,,,,,,,,1.69,0.88,1.45*19
$GPGSV,5,1,18,05,05,029,20,10,37,229,34,12,44,152,24,13,07,069,28*75
$GPGSV,5,2,18,15,42,083,37,18,21,332,25,23,69,287,26,24,18,145,30*7E
$GPGSV,5,3,18,25,75,200,27,26,02,317,,28,12,255,,29,33,018,36*7B
$GPGSV,5,4,18,32,08,211,,36,52,277,,40,85,352,35,41,58,082,37*77
$GPGSV,5,5,18,49,32,274,,50,10,089,*78
$GLGSV,3,1,10,69,29,051,31,70,60,149,19,71,22,192,20,73,45,201,29*62
$GLGSV,3,2,10,74,46,276,24,75,08,315,,80,06,160,28,84,05,011,*66
$GLGSV,3,3,10,85,01,325,,,,,25*5B
$GNGLL,0419.86272,S,05539.91120,E,075049.00,A,A*61
$GNRMC,075050.00,A,0419.86275,S,05539.91121,E,0.040,,280525,,,A*7A
$GNVTG,,T,,M,0.040,N,0.074,K,A*3A
$GNGGA,075050.00,0419.86275,S,05539.91121,E,1,11,0.88,21.3,M,-47.6,M,,*42
$GNGSA,A,3,25,23,12,15,18,24,29,13,10,,,,1.69,0.88,1.45*14
$GNGSA,A,3,73,69,,,,,,,,,,,1.69,0.88,1.45*19
$GPGSV,5,1,18,05,05,029,19,10,37,229,35,12,44,152,26,13,07,069,27*73
$GPGSV,5,2,18,15,42,083,38,18,21,332,26,23,69,287,26,24,18,145,30*72
$GPGSV,5,3,18,25,75,200,27,26,02,317,,28,12,255,,29,33,018,35*78
$GPGSV,5,4,18,32,08,211,,36,52,277,,40,85,352,34,41,58,082,38*79
$GPGSV,5,5,18,49,32,274,,50,10,089,*78
$GLGSV,3,1,10,69,29,051,31,70,60,149,19,71,22,192,21,73,45,201,27*6D
$GLGSV,3,2,10,74,46,275,23,75,08,315,,80,06,160,29,84,05,011,*63
$GLGSV,3,3,10,85,01,325,,,,,26*58
$GNGLL,0419.86275,S,05539.91121,E,075050.00,A,A*6F
$GNRMC,075051.00,A,0419.86276,S,05539.91120,E,0.030,,280525,,,A*7E
$GNVTG,,T,,M,0.030,N,0.056,K,A*3D
$GNGGA,075051.00,0419.86276,S,05539.91120,E,1,11,0.88,21.4,M,-47.6,M,,*46
$GNGSA,A,3,25,23,12,15,18,24,29,13,10,,,,1.69,0.88,1.45*14
$GNGSA,A,3,73,69,,,,,,,,,,,1.69,0.88,1.45*19
$GPGSV,5,1,18,05,05,029,19,10,37,229,35,12,44,152,26,13,07,069,27*73
$GPGSV,5,2,18,15,42,083,39,18,21,332,26,23,69,287,29,24,18,145,31*7D
$GPGSV,5,3,18,25,75,200,26,26,02,317,,28,12,255,,29,33,018,35*79
$GPGSV,5,4,18,32,08,211,,36,52,277,,40,85,352,34,41,58,082,38*79
$GPGSV,5,5,18,49,32,274,,50,10,089,*78
$GLGSV,3,1,10,69,29,051,31,70,60,149,18,71,22,192,19,73,45,201,28*68
$GLGSV,3,2,10,74,46,275,23,75,09,315,,80,06,160,28,84,05,011,*63
$GLGSV,3,3,10,85,01,325,,,,,25*5B
$GNGLL,0419.86276,S,05539.91120,E,075051.00,A,A*6C
$GNRMC,075052.00,A,0419.86279,S,05539.91118,E,0.030,,280525,,,A*79
$GNVTG,,T,,M,0.030,N,0.056,K,A*3D
$GNGGA,075052.00,0419.86279,S,05539.91118,E,1,11,0.88,21.4,M,-47.6,M,,*41
$GNGSA,A,3,25,23,12,15,18,24,29,13,10,,,,1.69,0.88,1.45*14
$GNGSA,A,3,73,69,,,,,,,,,,,1.69,0.88,1.45*19
$GPGSV,5,1,18,05,05,029,22,10,37,229,36,12,44,152,25,13,07,069,27*7B
$GPGSV,5,2,18,15,42,083,38,18,21,332,26,23,69,287,30,24,18,145,31*74
$GPGSV,5,3,18,25,75,200,25,26,02,317,,28,12,255,,29,33,018,35*7A
$GPGSV,5,4,18,32,08,211,,36,52,277,,40,85,352,34,41,58,082,38*79
$GPGSV,5,5,18,49,32,274,,50,10,089,*78
$GLGSV,3,1,10,69,29,051,30,70,60,149,17,71,22,192,20,73,45,201,28*6C
$GLGSV,3,2,10,74,46,275,23,75,09,315,,80,06,160,28,84,05,011,*63
$GLGSV,3,3,10,85,01,325,,,,,27*59
$GNGLL,0419.86279,S,05539.91118,E,075052.00,A,A*6B
$GNRMC,075053.00,A,0419.86281,S,05539.91119,E,0.044,,280525,,,A*7D
$GNVTG,,T,,M,0.044,N,0.082,K,A*37
$GNGGA,075053.00,0419.86281,S,05539.91119,E,1,11,0.88,21.3,M,-47.6,M,,*41
$GNGSA,A,3,25,23,12,15,18,24,29,13,10,,,,1.69,0.88,1.45*14
$GNGSA,A,3,73,69,,,,,,,,,,,1.69,0.88,1.45*19
$GPGSV,5,1,18,05,05,029,22,10,37,229,35,12,44,152,27,13,07,069,26*7B
$GPGSV,5,2,18,15,42,083,38,18,21,332,26,23,69,287,30,24,18,145,31*74
$GPGSV,5,3,18,25,75,200,25,26,02,317,,28,12,255,,29,33,018,35*7A
$GPGSV,5,4,18,32,08,211,,36,52,277,,40,85,352,35,41,58,082,38*78
$GPGSV,5,5,18,49,32,274,,50,10,089,*78
$GLGSV,3,1,10,69,29,051,28,70,60,149,18,71,22,192,21,73,45,201,28*6B
$GLGSV,3,2,10,74,46,275,23,75,09,315,,80,06,160,28,84,05,011,*63
$GLGSV,3,3,10,85,01,325,,,,,28*56
$GNGLL,0419.86281,S,05539.91119,E,075053.00,A,A*6C
$GNRMC,075054.00,A,0419.86281,S,05539.91117,E,0.023,,280525,,,A*75
$GNVTG,,T,,M,0.023,N,0.043,K,A*3B
$GNGGA,075054.00,0419.86281,S,05539.91117,E,1,11,0.88,21.2,M,-47.6,M,,*49
$GNGSA,A,3,25,23,12,15,18,24,29,13,10,,,,1.69,0.88,1.45*14
$GNGSA,A,3,73,69,,,,,,,,,,,1.69,0.88,1.45*19
$GPGSV,5,1,18,05,05,029,22,10,37,229,35,12,44,152,28,13,07,069,26*74
$GPGSV,5,2,18,15,42,083,38,18,21,332,27,23,69,287,31,24,18,145,31*74
$GPGSV,5,3,18,25,75,200,25,26,02,317,,28,12,255,,29,33,018,35*7A
$GPGSV,5,4,18,32,08,211,,36,52,277,,40,85,352,35,41,58,082,37*77
$GPGSV,5,5,18,49,32,274,,50,10,089,*78
$GLGSV,3,1,10,69,29,051,29,70,60,149,17,71,22,192,20,73,45,201,28*64
$GLGSV,3,2,10,74,46,275,24,75,09,315,,80,06,160,28,84,05,011,*64
$GLGSV,3,3,10,85,01,325,,,,,29*57
$GNGLL,0419.86281,S,05539.91117,E,075054.00,A,A*65
$GNRMC,075055.00,A,0419.86281,S,05539.91115,E,0.027,,280525,,,A*72
$GNVTG,,T,,M,0.027,N,0.049,K,A*35
$GNGGA,075055.00,0419.86281,S,05539.91115,E,1,11,0.88,21.2,M,-47.6,M,,*4A
$GNGSA,A,3,25,23,12,15,18,24,29,13,10,,,,1.69,0.88,1.45*14
$GNGSA,A,3,73,69,,,,,,,,,,,1.69,0.88,1.45*19
$GPGSV,5,1,18,05,05,029,22,10,37,229,37,12,44,152,27,13,07,069,25*7A
$GPGSV,5,2,18,15,42,083,38,18,21,332,27,23,69,287,31,24,18,145,32*77
$GPGSV,5,3,18,25,75,200,24,26,02,317,,28,12,255,,29,33,018,33*7D
$GPGSV,5,4,18,32,08,211,,36,52,277,,40,85,352,36,41,58,082,37*74
$GPGSV,5,5,18,49,32,274,,50,10,089,*78
$GLGSV,3,1,10,69,29,051,29,70,60,149,17,71,22,192,17,73,45,201,29*61
$GLGSV,3,2,10,74,46,275,24,75,09,315,,80,06,160,27,84,05,011,*6B
$GLGSV,3,3,10,85,01,325,,,,,30*5F
$GNGLL,0419.86281,S,05539.91115,E,075055.00,A,A*66
$GNRMC,075056.00,A,0419.86281,S,05539.91114,E,0.057,,280525,,,A*77
$GNVTG,,T,,M,0.057,N,0.105,K,A*3B
$GNGGA,075056.00,0419.86281,S,05539.91114,E,1,11,0.88,21.0,M,-47.6,M,,*4A
$GNGSA,A,3,25,23,12,15,18,24,29,13,10,,,,1.69,0.88,1.45*14
$GNGSA,A,3,73,69,,,,,,,,,,,1.69,0.88,1.45*19
$GPGSV,5,1,18,05,05,029,22,10,37,229,36,12,44,152,25,13,07,069,24*78
$GPGSV,5,2,18,15,42,083,38,18,21,332,27,23,69,287,32,24,18,145,32*74
$GPGSV,5,3,18,25,75,200,22,26,02,317,,28,12,255,,29,33,018,34*7C
$GPGSV,5,4,18,32,08,211,,36,52,277,32,40,85,352,35,41,58,082,37*76
$GPGSV,5,5,18,49,32,274,,50,10,089,*78
$GLGSV,3,1,10,69,29,051,29,70,60,149,16,71,22,192,15,73,45,201,29*62
$GLGSV,3,2,10,74,46,275,24,75,09,315,,80,06,160,26,84,05,011,*6A
$GLGSV,3,3,10,85,01,325,,,,,30*5F
$GNGLL,0419.86281,S,05539.91114,E,075056.00,A,A*64
$GNRMC,075057.00,A,0419.86283,S,05539.91113,E,0.062,,280525,,,A*75
$GNVTG,,T,,M,0.062,N,0.114,K,A*3D
$GNGGA,075057.00,0419.86283,S,05539.91113,E,1,11,0.88,20.9,M,-47.6,M,,*46
$GNGSA,A,3,25,23,12,15,18,24,29,13,10,,,,1.69,0.88,1.45*14
$GNGSA,A,3,73,69,,,,,,,,,,,1.69,0.88,1.45*19
$GPGSV,5,1,18,05,05,029,21,10,37,229,35,12,44,152,25,13,07,069,25*79
$GPGSV,5,2,18,15,42,083,37,18,21,332,26,23,69,287,31,24,18,145,32*79
$GPGSV,5,3,18,25,75,200,22,26,02,317,,28,12,255,,29,33,018,35*7D
$GPGSV,5,4,18,32,08,211,,36,52,277,31,40,85,352,35,41,58,082,37*75
$GPGSV,5,5,18,49,32,274,,50,10,089,*78
$GLGSV,3,1,10,69,29,051,29,70,60,149,13,71,22,192,14,73,45,201,28*67
$GLGSV,3,2,10,74,46,275,23,75,09,315,,80,06,160,27,84,05,011,*6C
$GLGSV,3,3,10,85,01,325,,,,,30*5F
$GNGLL,0419.86283,S,05539.91113,E,075057.00,A,A*60
$GNRMC,075058.00,A,0419.86285,S,05539.91115,E,0.086,,280525,,,A*70
$GNVTG,,T,,M,0.086,N,0.159,K,A*3E
$GNGGA,075058.00,0419.86285,S,05539.91115,E,1,11,0.88,20.9,M,-47.6,M,,*49
$GNGSA,A,3,25,23,12,15,18,24,29,13,10,,,,1.69,0.88,1.45*14
$GNGSA,A,3,73,69,,,,,,,,,,,1.69,0.88,1.45*19
$GPGSV,5,1,18,05,05,029,21,10,37,229,35,12,44,152,25,13,07,069,24*78
$GPGSV,5,2,18,15,42,083,39,18,21,332,25,23,69,287,32,24,18,145,31*74
$GPGSV,5,3,18,25,75,200,23,26,02,317,,28,12,255,,29,33,018,34*7D
$GPGSV,5,4,18,32,08,211,,36,52,277,32,40,85,352,36,41,58,082,37*75
$GPGSV,5,5,18,49,32,274,,50,10,089,*78
$GLGSV,3,1,10,69,29,051,28,70,60,149,13,71,22,192,14,73,45,201,29*67
$GLGSV,3,2,10,74,46,275,23,75,09,315,,80,06,160,26,84,05,011,*6D
$GLGSV,3,3,10,85,01,325,,,,,30*5F
$GNGLL,0419.86285,S,05539.91115,E,075058.00,A,A*6F
$GNRMC,075059.00,A,0419.86286,S,05539.91113,E,0.024,,280525,,,A*7C
$GNVTG,,T,,M,0.024,N,0.045,K,A*3A
$GNGGA,075059.00,0419.86286,S,05539.91113,E,1,11,0.88,20.6,M,-47.6,M,,*42
$GNGSA,A,3,25,23,12,15,18,24,29,13,10,,,,1.69,0.88,1.45*14
$GNGSA,A,3,73,69,,,,,,,,,,,1.69,0.88,1.45*19
$GPGSV,5,1,18,05,05,029,21,10,37,229,36,12,44,152,25,13,07,069,24*7B
$GPGSV,5,2,18,15,42,083,39,18,21,332,25,23,69,287,32,24,18,145,31*74
$GPGSV,5,3,18,25,75,200,23,26,02,317,,28,12,255,,29,33,018,34*7D
$GPGSV,5,4,18,32,08,211,,36,52,277,31,40,85,352,35,41,58,082,37*75
$GPGSV,5,5,18,49,32,274,,50,10,089,*78
$GLGSV,3,1,10,69,29,051,27,70,60,149,11,71,22,192,13,73,45,201,30*65
$GLGSV,3,2,10,74,46,275,23,75,09,315,,80,06,160,25,84,05,011,*6E
$GLGSV,3,3,10,85,01,325,,,,,30*5F
$GNGLL,0419.86286,S,05539.91113,E,075059.00,A,A*6B
$GNRMC,075100.00,A,0419.86284,S,05539.91110,E,0.098,,280525,,,A*77
$GNVTG,,T,,M,0.098,N,0.181,K,A*34
$GNGGA,075100.00,0419.86284,S,05539.91110,E,1,11,0.88,20.4,M,-47.6,M,,*4C
$GNGSA,A,3,25,23,12,15,18,24,29,13,10,,,,1.69,0.88,1.45*14
$GNGSA,A,3,73,69,,,,,,,,,,,1.69,0.88,1.45*19
$GPGSV,5,1,18,05,05,029,20,10,37,229,35,12,44,152,24,13,07,069,25*79
$GPGSV,5,2,18,15,42,083,38,18,21,332,25,23,69,287,33,24,18,145,32*77
$GPGSV,5,3,18,25,75,200,21,26,02,317,,28,12,255,,29,33,018,32*79
$GPGSV,5,4,18,32,08,211,,36,52,277,30,40,85,352,34,41,58,082,38*7A
$GPGSV,5,5,18,49,32,274,,50,10,089,*78
$GLGSV,3,1,10,69,29,051,26,70,60,149,09,71,22,192,13,73,45,201,29*65
$GLGSV,3,2,10,74,46,275,23,75,09,315,,80,06,160,25,84,05,012,*6D
$GLGSV,3,3,10,85,01,325,,,,,31*5E
$GNGLL,0419.86284,S,05539.91110,E,075100.00,A,A*67
$GNRMC,075101.00,A,0419.86281,S,05539.91107,E,0.016,,280525,,,A*73
$GNVTG,,T,,M,0.016,N,0.029,K,A*31
$GNGGA,075101.00,0419.86281,S,05539.91107,E,1,11,0.88,20.3,M,-47.6,M,,*49
$GNGSA,A,3,25,23,12,15,18,24,29,13,10,,,,1.69,0.88,1.45*14
$GNGSA,A,3,73,69,,,,,,,,,,,1.69,0.88,1.45*19
$GPGSV,5,1,18,05,05,029,19,10,37,229,35,12,44,152,24,13,07,069,25*73
$GPGSV,5,2,18,15,42,083,38,18,21,332,25,23,69,287,32,24,18,145,33*77
$GPGSV,5,3,18,25,75,200,24,26,02,317,,28,12,255,,29,33,018,34*7A
$GPGSV,5,4,18,32,08,211,,36,52,277,31,40,85,352,38,41,58,082,37*78
$GPGSV,5,5,18,49,32,274,,50,10,089,*78
$GLGSV,3,1,10,69,29,051,28,70,60,149,11,71,22,192,15,73,45,201,28*65
$GLGSV,3,2,10,74,46,275,22,75,09,315,,80,06,160,27,84,05,012,*6E
$GLGSV,3,3,10,85,01,326,,,,,29*54
$GNGLL,0419.86281,S,05539.91107,E,075101.00,A,A*65
$GNRMC,075102.00,A,0419.86278,S,05539.91104,E,0.068,,280525,,,A*7C
$GNVTG,,T,,M,0.068,N,0.126,K,A*36
$GNGGA,075102.00,0419.86278,S,05539.91104,E,1,11,0.88,20.1,M,-47.6,M,,*4D
$GNGSA,A,3,25,23,12,15,18,24,29,13,10,,,,1.69,0.88,1.45*14
$GNGSA,A,3,73,69,,,,,,,,,,,1.69,0.88,1.45*19
$GPGSV,5,1,18,05,05,029,18,10,37,229,35,12,44,152,25,13,07,069,24*72
$GPGSV,5,2,18,15,42,083,38,18,21,332,26,23,69,287,32,24,18,145,32*75
$GPGSV,5,3,18,25,75,200,24,26,02,317,,28,12,255,,29,33,018,35*7B
$GPGSV,5,4,18,32,08,211,,36,52,277,31,40,85,352,36,41,58,082,36*77
$GPGSV,5,5,18,49,32,274,,50,10,089,*78
$GLGSV,3,1,10,69,29,051,28,70,60,149,13,71,22,192,17,73,45,201,28*65
$GLGSV,3,2,10,74,46,275,22,75,09,315,,80,06,160,26,84,05,012,*6F
$GLGSV,3,3,10,85,01,326,,,,,30*5C
$GNGLL,0419.86278,S,05539.91104,E,075102.00,A,A*63
$GNRMC,075103.00,A,0419.86277,S,05539.91102,E,0.026,,280525,,,A*7E
$GNVTG,,T,,M,0.026,N,0.048,K,A*35
$GNGGA,075103.00,0419.86277,S,05539.91102,E,1,11,0.88,19.9,M,-47.6,M,,*47
$GNGSA,A,3,25,23,12,15,18,24,29,13,10,,,,1.69,0.88,1.45*14
$GNGSA,A,3,73,69,,,,,,,,,,,1.69,0.88,1.45*19
$GPGSV,5,1,18,05,05,029,17,10,37,229,36,12,44,152,24,13,07,069,24*7F
$GPGSV,5,2,18,15,42,083,38,18,21,332,27,23,69,287,32,24,18,145,32*74
$GPGSV,5,3,18,25,75,200,23,26,02,317,,28,12,255,,29,33,018,34*7D
$GPGSV,5,4,18,32,08,211,,36,52,277,31,40,85,352,34,41,58,082,37*74
$GPGSV,5,5,18,49,32,274,,50,10,089,*78
$GLGSV,3,1,10,69,29,051,28,70,60,149,13,71,22,192,16,73,45,201,28*64
$GLGSV,3,2,10,74,46,275,23,75,09,315,,80,06,160,25,84,05,012,*6D
$GLGSV,3,3,10,85,01,326,,,,,32*5E
$GNGLL,0419.86277,S,05539.91102,E,075103.00,A,A*6B
$GNRMC,075104.00,A,0419.86273,S,05539.91099,E,0.025,,280525,,,A*7D
$GNVTG,,T,,M,0.025,N,0.046,K,A*38
$GNGGA,075104.00,0419.86273,S,05539.91099,E,1,11,0.88,19.8,M,-47.6,M,,*46
$GNGSA,A,3,25,23,12,15,18,24,29,13,10,,,,1.69,0.88,1.45*14
$GNGSA,A,3,73,69,,,,,,,,,,,1.69,0.88,1.45*19
$GPGSV,5,1,18,05,05,029,20,10,37,229,33,12,44,152,26,13,07,069,25*7D
$GPGSV,5,2,18,15,42,083,37,18,21,332,27,23,69,287,31,24,18,145,32*78
$GPGSV,5,3,18,25,75,200,21,26,02,317,,28,12,255,,29,33,018,33*78
$GPGSV,5,4,18,32,08,211,,36,52,277,30,40,85,352,35,41,58,082,37*74
$GPGSV,5,5,18,49,32,274,,50,10,089,*78
$GLGSV,3,1,10,69,29,051,27,70,60,149,11,71,22,192,15,73,45,201,28*6A
$GLGSV,3,2,10,74,46,275,22,75,09,315,,80,06,160,25,84,05,012,*6C
$GLGSV,3,3,10,85,01,326,,,,,27*5A
$GNGLL,0419.86273,S,05539.91099,E,075104.00,A,A*6B
$GNRMC,075105.00,A,0419.86271,S,05539.91095,E,0.036,,280525,,,A*70
$GNVTG,,T,,M,0.036,N,0.066,K,A*38
$GNGGA,075105.00,0419.86271,S,05539.91095,E,1,11,0.88,19.8,M,-47.6,M,,*49
$GNGSA,A,3,25,23,12,15,18,24,29,13,10,,,,1.69,0.88,1.45*14
$GNGSA,A,3,73,69,,,,,,,,,,,1.69,0.88,1.45*19
$GPGSV,5,1,18,05,05,029,19,10,37,229,37,12,44,152,25,13,07,069,26*73
$GPGSV,5,2,18,15,42,083,36,18,21,332,27,23,69,287,32,24,18,145,31*79
$GPGSV,5,3,18,25,75,200,20,26,02,317,,28,12,255,,29,33,018,34*7E
$GPGSV,5,4,18,32,08,211,,36,52,277,31,40,85,352,36,41,58,082,37*76
$GPGSV,5,5,18,49,32,274,,50,10,089,*78
$GLGSV,3,1,10,69,29,051,27,70,60,149,11,71,22,192,14,73,45,201,28*6B
$GLGSV,3,2,10,74,46,275,23,75,09,315,,80,06,160,24,84,05,012,*6C
$GLGSV,3,3,10,85,01,326,,,,,30*5C
$GNGLL,0419.86271,S,05539.91095,E,075105.00,A,A*64
$GNRMC,075106.00,A,0419.86272,S,05539.91093,E,0.026,,280525,,,A*77
$GNVTG,,T,,M,0.026,N,0.049,K,A*34
$GNGGA,075106.00,0419.86272,S,05539.91093,E,1,11,0.88,19.7,M,-47.6,M,,*40
$GNGSA,A,3,25,23,12,15,18,24,29,13,10,,,,1.69,0.88,1.45*14
$GNGSA,A,3,73,69,,,,,,,,,,,1.69,0.88,1.45*19
$GPGSV,5,1,18,05,05,029,19,10,37,229,36,12,44,152,25,13,07,069,26*72
$GPGSV,5,2,18,15,42,083,36,18,21,332,27,23,69,287,32,24,18,145,32*7A
$GPGSV,5,3,18,25,75,200,22,26,02,317,,28,12,255,,29,33,018,35*7D
$GPGSV,5,4,18,32,08,211,,36,52,277,32,40,85,352,37,41,58,082,36*75
$GPGSV,5,5,18,49,32,274,,50,10,089,*78
$GLGSV,3,1,10,69,29,051,27,70,60,149,12,71,22,192,10,73,45,201,29*6D
$GLGSV,3,2,10,74,46,275,22,75,09,315,,80,06,160,22,84,05,012,*6B
$GLGSV,3,3,10,85,01,326,,,,,31*5D
$GNGLL,0419.86272,S,05539.91093,E,075106.00,A,A*62
$GNRMC,075107.00,A,0419.86271,S,05539.91089,E,0.051,,280525,,,A*7E
$GNVTG,,T,,M,0.051,N,0.095,K,A*35
$GNGGA,075107.00,0419.86271,S,05539.91089,E,1,11,0.88,19.7,M,-47.6,M,,*49
$GNGSA,A,3,25,23,12,15,18,24,29,13,10,,,,1.69,0.88,1.45*14
$GNGSA,A,3,73,69,,,,,,,,,,,1.69,0.88,1.45*19
$GPGSV,5,1,18,05,05,029,18,10,37,229,36,12,44,152,24,13,07,069,27*73
