$GNRMC,071054.00,A,0419.72806,S,05539.92158,E,0.121,,030625,,,A*7E
$GNVTG,,T,,M,0.121,N,0.224,K,A*3B
$GNGGA,071054.00,0419.72806,S,05539.92158,E,1,12,0.73,9.8,M,-47.6,M,,*7C
$GNGSA,A,3,25,23,12,15,29,18,24,05,28,13,,,1.28,0.73,1.05*1F
$GNGSA,A,3,79,80,67,82,,,,,,,,,1.28,0.73,1.05*1A
$GPGSV,5,1,17,05,11,028,37,10,32,223,33,12,51,149,21,13,09,076,39*7B
$GPGSV,5,2,17,15,43,093,34,18,23,325,34,23,70,264,33,24,20,151,24*7C
$GPGSV,5,3,17,25,81,222,32,28,11,262,24,29,28,012,27,32,04,215,*7A
$GPGSV,5,4,17,36,52,277,34,40,86,351,36,41,58,082,29,49,32,274,*75
$GPGSV,5,5,17,50,10,089,*4A
$GLGSV,2,1,08,67,38,064,22,68,54,141,24,69,20,191,19,78,13,162,*6F
$GLGSV,2,2,08,79,53,205,27,80,41,293,38,82,06,005,33,83,03,318,33*62
$GNGLL,0419.72806,S,05539.92158,E,071054.00,A,A*67
$GNRMC,071055.00,A,0419.72794,S,05539.92166,E,0.035,,030625,,,A*72
$GNVTG,,T,,M,0.035,N,0.064,K,A*39
$GNGGA,071055.00,0419.72794,S,05539.92166,E,1,12,0.69,10.2,M,-47.6,M,,*4D
$GNGSA,A,3,25,23,12,15,29,18,24,10,05,28,13,,1.24,0.69,1.03*1F
$GNGSA,A,3,79,80,67,82,,,,,,,,,1.24,0.69,1.03*1B
$GPGSV,5,1,17,05,11,028,37,10,32,223,36,12,51,149,24,13,09,076,41*74
$GPGSV,5,2,17,15,43,093,34,18,23,325,35,23,70,264,33,24,20,151,22*7B
$GPGSV,5,3,17,25,81,222,33,28,11,262,26,29,28,012,32,32,04,215,*7D
$GPGSV,5,4,17,36,52,277,36,40,86,351,36,41,58,082,33,49,32,274,*7C
$GPGSV,5,5,17,50,10,089,*4A
$GLGSV,2,1,08,67,38,064,23,68,54,141,23,69,20,191,19,78,13,162,*69
$GLGSV,2,2,08,79,53,205,33,80,41,293,41,82,06,005,37,83,03,318,38*66
$GNGLL,0419.72794,S,05539.92166,E,071055.00,A,A*6F
$GNRMC,071056.00,A,0419.72785,S,05539.92180,E,0.066,,030625,,,A*7F
$GNVTG,,T,,M,0.066,N,0.123,K,A*3D
$GNGGA,071056.00,0419.72785,S,05539.92180,E,1,12,0.69,10.5,M,-47.6,M,,*41
$GNGSA,A,3,25,23,12,15,29,18,24,10,05,28,13,,1.24,0.69,1.03*1F
$GNGSA,A,3,79,80,67,82,,,,,,,,,1.24,0.69,1.03*1B
$GPGSV,5,1,17,05,11,028,42,10,32,223,38,12,51,149,26,13,09,076,44*7F
$GPGSV,5,2,17,15,43,093,37,18,23,325,40,23,70,264,38,24,20,151,29*7A
$GPGSV,5,3,17,25,81,222,38,28,11,262,31,29,28,012,35,32,04,215,*77
$GPGSV,5,4,17,36,52,277,39,40,86,351,41,41,58,082,36,49,32,274,*76
$GPGSV,5,5,17,50,10,089,*4A
$GLGSV,2,1,08,67,38,064,29,68,54,141,23,69,20,191,21,78,13,162,*68
$GLGSV,2,2,08,79,53,205,34,80,41,293,39,82,06,005,37,83,03,318,38*6E
$GNGLL,0419.72785,S,05539.92180,E,071056.00,A,A*64
$GNRMC,071057.00,A,0419.72780,S,05539.92187,E,0.035,,030625,,,A*7A
$GNVTG,,T,,M,0.035,N,0.065,K,A*38
$GNGGA,071057.00,0419.72780,S,05539.92187,E,1,12,0.69,10.5,M,-47.6,M,,*42
$GNGSA,A,3,25,23,12,15,29,18,24,10,05,28,13,,1.24,0.69,1.03*1F
$GNGSA,A,3,79,80,67,82,,,,,,,,,1.24,0.69,1.03*1B
$GPGSV,5,1,17,05,11,028,41,10,32,223,36,12,51,149,27,13,09,076,43*74
$GPGSV,5,2,17,15,43,093,36,18,23,325,36,23,70,264,37,24,20,151,29*75
$GPGSV,5,3,17,25,81,222,36,28,11,262,30,29,28,012,31,32,04,215,*7C
$GPGSV,5,4,17,36,52,277,38,40,86,351,40,41,58,082,35,49,32,274,*75
$GPGSV,5,5,17,50,10,089,*4A
$GLGSV,2,1,08,67,38,064,29,68,54,141,24,69,20,191,21,78,13,162,26*6B
$GLGSV,2,2,08,79,52,205,31,80,41,293,39,82,06,005,37,83,03,318,36*64
$GNGLL,0419.72780,S,05539.92187,E,071057.00,A,A*67
$GNRMC,071058.00,A,0419.72778,S,05539.92192,E,0.027,,030625,,,A*75
$GNVTG,,T,,M,0.027,N,0.050,K,A*3D
$GNGGA,071058.00,0419.72778,S,05539.92192,E,1,12,0.69,10.4,M,-47.6,M,,*4F
$GNGSA,A,3,25,23,12,15,29,18,24,10,05,28,13,,1.24,0.69,1.03*1F
$GNGSA,A,3,79,80,67,82,,,,,,,,,1.24,0.69,1.03*1B
$GPGSV,5,1,17,05,11,028,41,10,32,223,36,12,51,149,31,13,09,076,44*74
$GPGSV,5,2,17,15,43,093,36,18,23,325,40,23,70,264,40,24,20,151,29*74
$GPGSV,5,3,17,25,81,222,38,28,11,262,31,29,28,012,31,32,04,215,*73
$GPGSV,5,4,17,36,52,277,40,40,86,351,41,41,58,082,35,49,32,274,*7B
$GPGSV,5,5,17,50,10,089,*4A
$GLGSV,2,1,08,67,38,064,29,68,54,141,26,69,20,191,20,78,13,162,25*6B
$GLGSV,2,2,08,79,52,205,35,80,41,293,39,82,06,005,37,83,03,318,36*60
$GNGLL,0419.72778,S,05539.92192,E,071058.00,A,A*6B
$GNRMC,071059.00,A,0419.72773,S,05539.92197,E,0.056,,030625,,,A*7C
$GNVTG,,T,,M,0.056,N,0.104,K,A*3B
$GNGGA,071059.00,0419.72773,S,05539.92197,E,1,12,0.69,10.4,M,-47.6,M,,*40
$GNGSA,A,3,25,23,12,15,29,18,24,10,05,28,13,,1.24,0.69,1.03*1F
$GNGSA,A,3,79,80,67,82,,,,,,,,,1.24,0.69,1.03*1B
$GPGSV,5,1,17,05,11,028,42,10,32,223,36,12,51,149,29,13,09,076,45*7F
$GPGSV,5,2,17,15,43,093,35,18,23,325,40,23,70,264,40,24,20,151,29*77
$GPGSV,5,3,17,25,81,222,36,28,11,262,32,29,28,012,35,32,04,215,*7A
$GPGSV,5,4,17,36,52,277,40,40,86,351,41,41,58,082,34,49,32,274,*7A
$GPGSV,5,5,17,50,10,089,*4A
$GLGSV,2,1,08,67,38,064,29,68,54,141,27,69,20,191,17,78,13,162,25*6E
$GLGSV,2,2,08,79,52,205,36,80,41,293,37,82,06,005,38,83,03,318,37*63
$GNGLL,0419.72773,S,05539.92197,E,071059.00,A,A*64
$GNRMC,071100.00,A,0419.72772,S,05539.92197,E,0.026,,030625,,,A*77
$GNVTG,,T,,M,0.026,N,0.048,K,A*35
$GNGGA,071100.00,0419.72772,S,05539.92197,E,1,12,0.69,10.4,M,-47.6,M,,*4C
$GNGSA,A,3,25,23,12,15,29,18,24,10,05,28,13,,1.24,0.69,1.03*1F
$GNGSA,A,3,79,80,67,82,,,,,,,,,1.24,0.69,1.03*1B
$GPGSV,5,1,17,05,11,028,40,10,32,223,37,12,51,149,29,13,09,076,42*7B
$GPGSV,5,2,17,15,43,093,35,18,23,325,37,23,70,264,35,24,20,151,30*7D
$GPGSV,5,3,17,25,81,222,36,28,11,262,33,29,28,012,36,32,04,215,*78
$GPGSV,5,4,17,36,52,277,38,40,86,351,38,41,58,082,35,49,32,274,*7A
$GPGSV,5,5,17,50,10,089,*4A
$GLGSV,2,1,08,67,38,064,28,68,54,141,30,69,20,191,18,78,13,162,23*60
$GLGSV,2,2,08,79,52,205,36,80,41,293,37,82,06,005,41,83,03,318,39*63
$GNGLL,0419.72772,S,05539.92197,E,071100.00,A,A*68
$GNRMC,071101.00,A,0419.72769,S,05539.92202,E,0.027,,030625,,,A*72
$GNVTG,,T,,M,0.027,N,0.051,K,A*3C
$GNGGA,071101.00,0419.72769,S,05539.92202,E,1,12,0.71,10.5,M,-47.6,M,,*40
$GNGSA,A,3,25,23,12,15,29,18,24,10,05,28,13,,1.27,0.71,1.05*13
$GNGSA,A,3,79,80,67,82,,,,,,,,,1.27,0.71,1.05*17
$GPGSV,5,1,17,05,11,028,41,10,32,223,37,12,51,149,30,13,09,076,44*74
$GPGSV,5,2,17,15,43,093,35,18,23,325,37,23,70,264,37,24,20,151,30*7F
$GPGSV,5,3,17,25,81,222,36,28,11,262,33,29,28,012,38,32,04,215,*76
$GPGSV,5,4,17,36,52,277,39,40,86,351,39,41,58,082,36,49,32,274,*79
$GPGSV,5,5,17,50,10,089,*4A
$GLGSV,2,1,08,67,38,064,25,68,54,141,32,69,20,191,18,78,13,162,21*6D
$GLGSV,2,2,08,79,52,205,38,80,41,293,37,82,06,005,40,83,03,319,39*6D
$GNGLL,0419.72769,S,05539.92202,E,071101.00,A,A*6C
$GNRMC,071102.00,A,0419.72767,S,05539.92206,E,0.014,,030625,,,A*7B
$GNVTG,,T,,M,0.014,N,0.026,K,A*3C
$GNGGA,071102.00,0419.72767,S,05539.92206,E,1,12,0.71,10.6,M,-47.6,M,,*4A
$GNGSA,A,3,25,23,12,15,29,18,24,10,05,28,13,,1.27,0.71,1.05*13
$GNGSA,A,3,79,80,67,82,,,,,,,,,1.27,0.71,1.05*17
$GPGSV,5,1,17,05,11,028,40,10,32,223,37,12,51,149,31,13,09,076,43*73
$GPGSV,5,2,17,15,43,093,35,18,23,325,37,23,70,264,36,24,20,151,30*7E
$GPGSV,5,3,17,25,81,222,37,28,11,262,32,29,28,012,37,32,04,215,*79
$GPGSV,5,4,17,36,52,277,37,40,86,351,39,41,58,082,36,49,32,274,*77
$GPGSV,5,5,17,50,10,089,*4A
$GLGSV,2,1,08,67,38,064,23,68,54,141,32,69,20,191,20,78,13,162,20*61
$GLGSV,2,2,08,79,52,205,38,80,41,293,38,82,06,005,40,83,03,319,39*62
$GNGLL,0419.72767,S,05539.92206,E,071102.00,A,A*65
$GNRMC,071103.00,A,0419.72763,S,05539.92211,E,0.028,,030625,,,A*77
$GNVTG,,T,,M,0.028,N,0.052,K,A*30
$GNGGA,071103.00,0419.72763,S,05539.92211,E,1,12,0.71,10.8,M,-47.6,M,,*47
$GNGSA,A,3,25,23,12,15,29,18,24,10,05,28,13,,1.27,0.71,1.05*13
$GNGSA,A,3,79,80,67,82,,,,,,,,,1.27,0.71,1.05*17
$GPGSV,5,1,17,05,11,028,41,10,32,223,38,12,51,149,30,13,09,076,42*7D
$GPGSV,5,2,17,15,43,093,35,18,23,325,37,23,70,264,35,24,20,151,30*7D
$GPGSV,5,3,17,25,81,222,36,28,11,262,32,29,28,012,37,32,04,215,*78
$GPGSV,5,4,17,36,52,277,37,40,86,351,39,41,58,082,36,49,32,274,*77
$GPGSV,5,5,17,50,10,089,*4A
$GLGSV,2,1,08,67,38,064,21,68,54,141,32,69,20,191,19,78,13,162,20*69
$GLGSV,2,2,08,79,52,205,38,80,41,293,38,82,06,005,40,83,03,319,39*62
$GNGLL,0419.72763,S,05539.92211,E,071103.00,A,A*66
$GNRMC,071104.00,A,0419.72759,S,05539.92216,E,0.059,,030625,,,A*78
$GNVTG,,T,,M,0.059,N,0.109,K,A*39
$GNGGA,071104.00,0419.72759,S,05539.92216,E,1,12,0.71,10.9,M,-47.6,M,,*4F
$GNGSA,A,3,25,23,12,15,29,18,24,10,05,28,13,,1.27,0.71,1.05*13
$GNGSA,A,3,79,80,67,82,,,,,,,,,1.27,0.71,1.05*17
$GPGSV,5,1,17,05,11,028,41,10,32,223,39,12,51,149,32,13,09,076,43*7F
$GPGSV,5,2,17,15,43,093,36,18,23,325,36,23,70,264,34,24,20,151,30*7E
$GPGSV,5,3,17,25,81,222,37,28,11,262,33,29,28,012,36,32,04,215,*79
$GPGSV,5,4,17,36,52,277,38,40,86,351,38,41,58,082,37,49,32,274,*78
$GPGSV,5,5,17,50,10,089,*4A
$GLGSV,2,1,08,67,38,064,23,68,54,141,32,69,20,191,20,78,13,162,20*61
$GLGSV,2,2,08,79,52,205,38,80,41,293,38,82,06,005,38,83,03,319,39*6D
$GNGLL,0419.72759,S,05539.92216,E,071104.00,A,A*6F
$GNRMC,071105.00,A,0419.72755,S,05539.92221,E,0.035,,030625,,,A*7B
$GNVTG,,T,,M,0.035,N,0.064,K,A*39
$GNGGA,071105.00,0419.72755,S,05539.92221,E,1,12,0.71,11.0,M,-47.6,M,,*4E
$GNGSA,A,3,25,23,12,15,29,18,24,10,05,28,13,,1.27,0.71,1.05*13
$GNGSA,A,3,79,80,67,82,,,,,,,,,1.27,0.71,1.05*17
$GPGSV,5,1,17,05,11,028,43,10,32,223,39,12,51,149,35,13,09,076,44*7D
$GPGSV,5,2,17,15,43,093,36,18,23,325,36,23,70,264,37,24,20,151,31*7C
$GPGSV,5,3,17,25,81,222,38,28,11,262,33,29,28,012,39,32,04,215,*79
$GPGSV,5,4,17,36,52,277,41,40,86,351,38,41,58,082,37,49,32,274,*76
$GPGSV,5,5,17,50,10,089,*4A
$GLGSV,2,1,08,67,38,064,30,68,54,141,32,69,20,191,18,78,13,162,20*68
$GLGSV,2,2,08,79,52,205,38,80,41,293,36,82,06,005,40,83,03,319,37*62
$GNGLL,0419.72755,S,05539.92221,E,071105.00,A,A*66
$GNRMC,071106.00,A,0419.72751,S,05539.92225,E,0.021,,030625,,,A*7D
$GNVTG,,T,,M,0.021,N,0.039,K,A*34
$GNGGA,071106.00,0419.72751,S,05539.92225,E,1,12,0.71,11.1,M,-47.6,M,,*4C
$GNGSA,A,3,25,23,12,15,29,18,24,10,05,28,13,,1.27,0.71,1.05*13
$GNGSA,A,3,79,80,67,82,,,,,,,,,1.27,0.71,1.05*17
$GPGSV,5,1,17,05,11,028,44,10,32,223,39,12,51,149,33,13,09,076,45*7D
$GPGSV,5,2,17,15,43,093,36,18,23,325,36,23,70,264,36,24,20,151,31*7D
$GPGSV,5,3,17,25,81,222,38,28,11,262,33,29,28,012,39,32,04,215,*79
$GPGSV,5,4,17,36,52,277,41,40,86,351,39,41,58,082,36,49,32,274,*76
$GPGSV,5,5,17,50,10,089,*4A
$GLGSV,2,1,08,67,38,064,29,68,54,141,32,69,20,191,17,78,13,162,21*6E
$GLGSV,2,2,08,79,52,205,38,80,41,293,36,82,06,005,42,83,03,319,37*60
$GNGLL,0419.72751,S,05539.92225,E,071106.00,A,A*65
$GNRMC,071107.00,A,0419.72750,S,05539.92230,E,0.151,,030625,,,A*7F
$GNVTG,,T,,M,0.151,N,0.280,K,A*32
$GNGGA,071107.00,0419.72750,S,05539.92230,E,1,12,0.71,11.2,M,-47.6,M,,*4B
$GNGSA,A,3,25,23,12,15,29,18,24,10,05,28,13,,1.27,0.71,1.05*13
$GNGSA,A,3,79,80,67,82,,,,,,,,,1.27,0.71,1.05*17
$GPGSV,5,1,17,05,11,028,42,10,32,223,37,12,51,149,32,13,09,076,44*75
$GPGSV,5,2,17,15,43,093,35,18,23,325,37,23,70,264,36,24,20,151,30*7E
$GPGSV,5,3,17,25,81,222,37,28,11,262,34,29,28,012,39,32,04,215,*71
$GPGSV,5,4,17,36,52,277,40,40,86,351,39,41,58,082,37,49,32,274,*76
$GPGSV,5,5,17,50,10,089,*4A
$GLGSV,2,1,08,67,38,064,28,68,54,141,27,69,20,191,19,78,13,162,20*64
$GLGSV,2,2,08,79,52,205,36,80,41,293,37,82,06,005,40,83,03,319,36*6C
$GNGLL,0419.72750,S,05539.92230,E,071107.00,A,A*61
$GNRMC,071108.00,A,0419.72752,S,05539.92227,E,0.208,,030625,,,A*7B
$GNVTG,,T,,M,0.208,N,0.386,K,A*3A
$GNGGA,071108.00,0419.72752,S,05539.92227,E,1,12,0.69,11.1,M,-47.6,M,,*4A
$GNGSA,A,3,25,23,12,15,29,18,24,10,05,28,13,,1.24,0.69,1.03*1F
$GNGSA,A,3,79,80,67,82,,,,,,,,,1.24,0.69,1.03*1B
$GPGSV,5,1,17,05,11,028,42,10,32,223,25,12,51,149,36,13,09,076,45*73
$GPGSV,5,2,17,15,43,093,39,18,23,325,34,23,70,264,35,24,20,151,36*74
$GPGSV,5,3,17,25,81,222,37,28,11,262,29,29,28,012,31,32,04,215,*75
$GPGSV,5,4,17,36,52,277,37,40,86,351,38,41,58,082,36,49,32,274,*76
$GPGSV,5,5,17,50,10,089,*4A
$GLGSV,2,1,08,67,38,064,38,68,54,141,33,69,20,191,32,78,13,162,30*68
$GLGSV,2,2,08,79,52,205,33,80,41,293,42,82,06,005,42,83,03,319,35*6A
$GNGLL,0419.72752,S,05539.92227,E,071108.00,A,A*6A
$GNRMC,071109.00,A,0419.72749,S,05539.92221,E,0.280,,030625,,,A*76
$GNVTG,,T,,M,0.280,N,0.519,K,A*3A
$GNGGA,071109.00,0419.72749,S,05539.92221,E,1,12,0.69,11.0,M,-47.6,M,,*46
$GNGSA,A,3,25,23,12,15,29,18,24,10,05,28,13,,1.24,0.69,1.03*1F
$GNGSA,A,3,79,80,67,82,,,,,,,,,1.24,0.69,1.03*1B
$GPGSV,5,1,17,05,11,028,45,10,32,223,39,12,51,149,32,13,09,076,45*7D
$GPGSV,5,2,17,15,43,093,40,18,23,325,38,23,70,264,37,24,20,151,32*70
$GPGSV,5,3,17,25,81,222,39,28,11,262,29,29,28,012,35,32,04,215,*7F
$GPGSV,5,4,17,36,52,277,41,40,86,351,38,41,58,082,33,49,32,274,*72
$GPGSV,5,5,17,50,10,089,*4A
$GLGSV,2,1,08,67,38,064,34,68,54,141,33,69,20,191,30,78,13,162,22*65
$GLGSV,2,2,08,79,52,205,37,80,41,293,39,82,06,005,36,83,03,319,33*67
$GNGLL,0419.72749,S,05539.92221,E,071109.00,A,A*67
$GNRMC,071110.00,A,0419.72744,S,05539.92221,E,0.090,,030625,,,A*70
$GNVTG,,T,,M,0.090,N,0.167,K,A*34
$GNGGA,071110.00,0419.72744,S,05539.92221,E,1,12,0.69,11.1,M,-47.6,M,,*42
$GNGSA,A,3,25,23,12,15,29,18,24,10,05,28,13,,1.24,0.69,1.03*1F
$GNGSA,A,3,79,80,67,82,,,,,,,,,1.24,0.69,1.03*1B
$GPGSV,5,1,17,05,11,028,46,10,32,223,43,12,51,149,30,13,09,076,44*70
$GPGSV,5,2,17,15,43,093,42,18,23,325,33,23,70,264,38,24,20,151,30*74
$GPGSV,5,3,17,25,81,222,37,28,11,262,35,29,28,012,40,32,04,215,*7E
$GPGSV,5,4,17,36,52,277,43,40,86,351,38,41,58,082,40,49,32,274,*74
$GPGSV,5,5,17,50,10,089,*4A
$GLGSV,2,1,08,67,38,064,38,68,54,141,32,69,20,191,27,78,13,162,23*6F
$GLGSV,2,2,08,79,52,205,36,80,41,293,29,82,06,005,37,83,03,319,32*67
$GNGLL,0419.72744,S,05539.92221,E,071110.00,A,A*62
$GNRMC,071111.00,A,0419.72739,S,05539.92222,E,0.079,,030625,,,A*7F
$GNVTG,,T,,M,0.079,N,0.146,K,A*30
$GNGGA,071111.00,0419.72739,S,05539.92222,E,1,12,0.71,11.2,M,-47.6,M,,*40
$GNGSA,A,3,25,23,12,15,29,18,24,10,05,28,13,,1.27,0.71,1.05*13
$GNGSA,A,3,79,80,67,82,,,,,,,,,1.27,0.71,1.05*17
$GPGSV,5,1,17,05,10,028,47,10,32,223,44,12,51,149,29,13,09,076,44*7F
$GPGSV,5,2,17,15,43,093,41,18,23,325,33,23,70,264,39,24,20,151,27*70
$GPGSV,5,3,17,25,81,222,37,28,11,262,35,29,28,012,42,32,04,215,*7C
$GPGSV,5,4,17,36,52,277,43,40,86,351,39,41,58,082,39,49,32,274,*7B
$GPGSV,5,5,17,50,10,089,*4A
$GLGSV,2,1,08,67,38,064,39,68,54,141,22,69,20,191,26,78,13,162,23*6E
$GLGSV,2,2,08,79,52,205,35,80,41,293,29,82,06,005,38,83,03,319,32*6B
$GNGLL,0419.72739,S,05539.92222,E,071111.00,A,A*6A
$GNRMC,071112.00,A,0419.72737,S,05539.92221,E,0.017,,030625,,,A*79
$GNVTG,,T,,M,0.017,N,0.031,K,A*39
$GNGGA,071112.00,0419.72737,S,05539.92221,E,1,12,0.69,11.3,M,-47.6,M,,*46
$GNGSA,A,3,25,23,12,15,29,18,24,10,05,28,13,,1.24,0.69,1.03*1F
$GNGSA,A,3,79,80,67,82,,,,,,,,,1.24,0.69,1.03*1B
$GPGSV,5,1,17,05,10,028,46,10,32,223,44,12,51,149,30,13,09,076,44*76
$GPGSV,5,2,17,15,43,093,38,18,23,325,32,23,70,264,40,24,20,151,26*70
$GPGSV,5,3,17,25,81,222,36,28,11,262,35,29,28,012,42,32,04,215,*7D
$GPGSV,5,4,17,36,52,277,42,40,86,351,39,41,58,082,39,49,32,274,*7A
$GPGSV,5,5,17,50,10,089,*4A
$GLGSV,2,1,08,67,38,064,39,68,54,141,24,69,20,191,24,78,13,162,22*6B
$GLGSV,2,2,08,79,52,205,34,80,41,293,29,82,06,005,38,83,03,319,32*6A
$GNGLL,0419.72737,S,05539.92221,E,071112.00,A,A*64
$GNRMC,071113.00,A,0419.72733,S,05539.92222,E,0.055,,030625,,,A*79
$GNVTG,,T,,M,0.055,N,0.101,K,A*3D
$GNGGA,071113.00,0419.72733,S,05539.92222,E,1,12,0.69,11.3,M,-47.6,M,,*40
$GNGSA,A,3,25,23,12,15,29,18,24,10,05,28,13,,1.24,0.69,1.03*1F
$GNGSA,A,3,79,80,67,82,,,,,,,,,1.24,0.69,1.03*1B
$GPGSV,5,1,17,05,10,028,46,10,32,223,44,12,51,149,30,13,09,076,44*76
$GPGSV,5,2,17,15,43,093,38,18,23,325,31,23,70,264,41,24,20,151,25*71
$GPGSV,5,3,17,25,81,222,38,28,11,262,35,29,28,012,42,32,04,215,*73
$GPGSV,5,4,17,36,52,277,41,40,86,351,39,41,58,082,38,49,32,274,*78
$GPGSV,5,5,17,50,10,089,*4A
$GLGSV,2,1,08,67,38,064,40,68,54,141,26,69,20,191,24,78,13,162,21*64
$GLGSV,2,2,08,79,52,205,33,80,41,293,31,82,06,005,37,83,03,319,32*6B
$GNGLL,0419.72733,S,05539.92222,E,071113.00,A,A*62
$GNRMC,071114.00,A,0419.72730,S,05539.92224,E,0.026,,030625,,,A*7F
$GNVTG,,T,,M,0.026,N,0.048,K,A*35
$GNGGA,071114.00,0419.72730,S,05539.92224,E,1,12,0.69,11.3,M,-47.6,M,,*42
$GNGSA,A,3,25,23,12,15,29,18,24,10,05,28,13,,1.24,0.69,1.03*1F
$GNGSA,A,3,79,80,67,82,,,,,,,,,1.24,0.69,1.03*1B
$GPGSV,5,1,17,05,10,028,46,10,32,223,44,12,51,149,30,13,09,076,43*71
$GPGSV,5,2,17,15,43,093,38,18,23,325,30,23,70,264,41,24,20,151,26*73
$GPGSV,5,3,17,25,81,222,37,28,11,262,34,29,28,012,42,32,04,215,*7D
$GPGSV,5,4,17,36,52,277,41,40,86,351,40,41,58,082,39,49,32,274,*77
$GPGSV,5,5,17,50,10,089,*4A
$GLGSV,2,1,08,67,38,064,40,68,54,141,26,69,20,191,25,78,13,162,19*6E
$GLGSV,2,2,08,79,52,205,33,80,41,293,32,82,06,005,37,83,03,319,32*68
$GNGLL,0419.72730,S,05539.92224,E,071114.00,A,A*60
$GNRMC,071115.00,A,0419.72727,S,05539.92223,E,0.060,,030625,,,A*7D
$GNVTG,,T,,M,0.060,N,0.111,K,A*3A
$GNGGA,071115.00,0419.72727,S,05539.92223,E,1,12,0.69,11.3,M,-47.6,M,,*42
$GNGSA,A,3,25,23,12,15,29,18,24,10,05,28,13,,1.24,0.69,1.03*1F
$GNGSA,A,3,79,80,67,82,,,,,,,,,1.24,0.69,1.03*1B
$GPGSV,5,1,17,05,10,028,47,10,32,223,44,12,51,149,35,13,09,076,43*75
$GPGSV,5,2,17,15,43,093,38,18,23,325,30,23,70,264,41,24,20,151,25*70
$GPGSV,5,3,17,25,81,222,38,28,11,262,33,29,28,012,42,32,04,215,*75
$GPGSV,5,4,17,36,52,277,40,40,86,351,41,41,58,082,39,49,32,274,*77
$GPGSV,5,5,17,50,10,089,*4A
$GLGSV,2,1,08,67,38,064,40,68,54,141,26,69,20,191,26,78,13,162,20*67
$GLGSV,2,2,08,79,52,205,32,80,41,293,33,82,06,005,37,83,03,319,33*69
$GNGLL,0419.72727,S,05539.92223,E,071115.00,A,A*60
$GNRMC,071116.00,A,0419.72723,S,05539.92221,E,0.058,,030625,,,A*73
$GNVTG,,T,,M,0.058,N,0.108,K,A*39
$GNGGA,071116.00,0419.72723,S,05539.92221,E,1,12,0.69,11.3,M,-47.6,M,,*47
$GNGSA,A,3,25,23,12,15,29,18,24,10,05,28,13,,1.24,0.69,1.03*1F
$GNGSA,A,3,79,80,67,82,,,,,,,,,1.24,0.69,1.03*1B
$GPGSV,5,1,17,05,10,028,46,10,32,224,44,12,51,149,33,13,09,076,44*72
$GPGSV,5,2,17,15,43,093,35,18,23,325,29,23,70,264,41,24,20,151,26*76
$GPGSV,5,3,17,25,81,222,38,28,11,262,34,29,28,012,42,32,04,215,*72
$GPGSV,5,4,17,36,52,277,40,40,86,351,40,41,58,082,39,49,32,274,*76
$GPGSV,5,5,17,50,10,089,*4A
$GLGSV,2,1,08,67,38,064,40,68,54,141,25,69,20,191,26,78,13,162,20*64
$GLGSV,2,2,08,79,52,205,32,80,41,293,33,82,06,005,38,83,03,319,32*67
$GNGLL,0419.72723,S,05539.92221,E,071116.00,A,A*65
$GNRMC,071117.00,A,0419.72718,S,05539.92220,E,0.036,,030625,,,A*73
$GNVTG,,T,,M,0.036,N,0.066,K,A*38
$GNGGA,071117.00,0419.72718,S,05539.92220,E,1,12,0.69,11.3,M,-47.6,M,,*4F
$GNGSA,A,3,25,23,12,15,29,18,24,10,05,28,13,,1.24,0.69,1.03*1F
$GNGSA,A,3,79,80,67,82,,,,,,,,,1.24,0.69,1.03*1B
$GPGSV,5,1,17,05,10,028,46,10,32,224,43,12,51,149,32,13,09,076,44*74
$GPGSV,5,2,17,15,43,093,36,18,23,325,28,23,70,264,41,24,20,151,27*75
$GPGSV,5,3,17,25,81,222,38,28,11,262,35,29,28,012,41,32,04,215,*70
$GPGSV,5,4,17,36,52,277,39,40,86,351,41,41,58,082,38,49,32,274,*78
$GPGSV,5,5,17,50,10,089,*4A
$GLGSV,2,1,08,67,38,064,40,68,54,141,26,69,20,191,26,78,13,162,20*67
$GLGSV,2,2,08,79,52,205,32,80,41,293,34,82,06,005,38,83,03,319,32*60
$GNGLL,0419.72718,S,05539.92220,E,071117.00,A,A*6D
$GNRMC,071118.00,A,0419.72714,S,05539.92219,E,0.057,,030625,,,A*7D
$GNVTG,,T,,M,0.057,N,0.105,K,A*3B
$GNGGA,071118.00,0419.72714,S,05539.92219,E,1,12,0.69,11.4,M,-47.6,M,,*41
$GNGSA,A,3,25,23,12,15,29,18,24,10,05,28,13,,1.24,0.69,1.03*1F
$GNGSA,A,3,79,80,67,82,,,,,,,,,1.24,0.69,1.03*1B
$GPGSV,5,1,17,05,10,028,46,10,32,224,43,12,51,149,31,13,09,076,43*70
$GPGSV,5,2,17,15,43,093,36,18,23,325,26,23,70,264,41,24,20,151,28*74
$GPGSV,5,3,17,25,81,222,38,28,11,262,34,29,28,012,40,32,04,215,*70
$GPGSV,5,4,17,36,52,277,38,40,86,351,40,41,58,082,37,49,32,274,*77
$GPGSV,5,5,17,50,10,089,*4A
$GLGSV,2,1,08,67,38,064,40,68,54,141,26,69,20,191,26,78,13,162,20*67
$GLGSV,2,2,08,79,52,205,32,80,41,293,35,82,06,005,37,83,03,319,32*6E
$GNGLL,0419.72714,S,05539.92219,E,071118.00,A,A*64
$GNRMC,071119.00,A,0419.72711,S,05539.92217,E,0.032,,030625,,,A*74
$GNVTG,,T,,M,0.032,N,0.059,K,A*30
$GNGGA,071119.00,0419.72711,S,05539.92217,E,1,12,0.69,11.4,M,-47.6,M,,*4B
$GNGSA,A,3,25,23,12,15,29,18,24,10,05,28,13,,1.24,0.69,1.03*1F
$GNGSA,A,3,79,80,67,82,,,,,,,,,1.24,0.69,1.03*1B
$GPGSV,5,1,17,05,10,028,46,10,32,224,43,12,51,149,30,13,09,075,43*72
$GPGSV,5,2,17,15,43,093,37,18,23,325,25,23,70,264,40,24,20,151,28*77
$GPGSV,5,3,17,25,81,222,38,28,11,262,34,29,28,012,40,32,04,215,*70
$GPGSV,5,4,17,36,52,277,37,40,86,351,40,41,58,082,36,49,32,274,*79
$GPGSV,5,5,17,50,10,089,*4A
$GLGSV,2,1,08,67,38,064,40,68,54,141,27,69,20,191,26,78,13,162,20*66
$GLGSV,2,2,08,79,52,205,32,80,41,293,35,82,06,005,37,83,03,319,31*6D
$GNGLL,0419.72711,S,05539.92217,E,071119.00,A,A*6E
$GNRMC,071120.00,A,0419.72709,S,05539.92217,E,0.026,,030625,,,A*72
$GNVTG,,T,,M,0.026,N,0.048,K,A*35
$GNGGA,071120.00,0419.72709,S,05539.92217,E,1,12,0.69,11.5,M,-47.6,M,,*49
$GNGSA,A,3,25,23,12,15,29,18,24,10,05,28,13,,1.24,0.69,1.03*1F
$GNGSA,A,3,79,80,67,82,,,,,,,,,1.24,0.69,1.03*1B
$GPGSV,5,1,17,05,10,028,46,10,32,224,42,12,51,149,30,13,09,075,43*73
$GPGSV,5,2,17,15,43,093,38,18,23,325,24,23,70,264,40,24,20,151,28*79
$GPGSV,5,3,17,25,81,222,39,28,11,262,34,29,28,012,40,32,04,215,*71
$GPGSV,5,4,17,36,52,277,37,40,86,351,40,41,58,082,36,49,32,274,*79
$GPGSV,5,5,17,50,10,089,*4A
$GLGSV,2,1,08,67,38,064,40,68,54,141,27,69,20,191,27,78,13,162,20*67
$GLGSV,2,2,08,79,52,205,32,80,41,293,36,82,06,005,37,83,03,319,31*6E
$GNGLL,0419.72709,S,05539.92217,E,071120.00,A,A*6D
$GNRMC,071121.00,A,0419.72707,S,05539.92216,E,0.020,,030625,,,A*7A
$GNVTG,,T,,M,0.020,N,0.037,K,A*3B
$GNGGA,071121.00,0419.72707,S,05539.92216,E,1,12,0.69,11.5,M,-47.6,M,,*47
$GNGSA,A,3,25,23,12,15,29,18,24,10,05,28,13,,1.24,0.69,1.03*1F
$GNGSA,A,3,79,80,67,82,,,,,,,,,1.24,0.69,1.03*1B
$GPGSV,5,1,17,05,10,028,46,10,32,224,42,12,51,149,30,13,09,075,43*73
$GPGSV,5,2,17,15,43,092,37,18,23,325,24,23,70,264,40,24,20,151,29*76
$GPGSV,5,3,17,25,81,222,39,28,11,262,34,29,28,012,40,32,04,215,*71
$GPGSV,5,4,17,36,52,277,37,40,86,351,41,41,58,082,36,49,32,274,*78
$GPGSV,5,5,17,50,10,089,*4A
$GLGSV,2,1,08,67,38,064,40,68,54,141,28,69,20,191,28,78,13,162,18*6C
$GLGSV,2,2,08,79,52,205,32,80,41,293,35,82,06,005,37,83,03,319,31*6D
$GNGLL,0419.72707,S,05539.92216,E,071121.00,A,A*63
$GNRMC,071122.00,A,0419.72704,S,05539.92216,E,0.052,,030625,,,A*7F
$GNVTG,,T,,M,0.052,N,0.097,K,A*34
$GNGGA,071122.00,0419.72704,S,05539.92216,E,1,12,0.69,11.5,M,-47.6,M,,*47
$GNGSA,A,3,25,23,12,15,29,18,24,10,05,28,13,,1.24,0.69,1.03*1F
$GNGSA,A,3,79,80,67,82,,,,,,,,,1.24,0.69,1.03*1B
$GPGSV,5,1,17,05,10,028,46,10,32,224,42,12,51,149,30,13,09,075,43*73
$GPGSV,5,2,17,15,43,092,37,18,23,325,24,23,70,264,40,24,20,151,29*76
$GPGSV,5,3,17,25,81,222,38,28,11,262,34,29,28,012,40,32,04,215,*70
$GPGSV,5,4,17,36,52,277,37,40,86,351,40,41,58,082,36,49,32,274,*79
$GPGSV,5,5,17,50,10,089,*4A
$GLGSV,2,1,08,67,38,064,39,68,54,141,27,69,20,191,27,78,13,162,16*6C
$GLGSV,2,2,08,79,52,205,32,80,41,293,35,82,06,005,37,83,03,319,32*6E
$GNGLL,0419.72704,S,05539.92216,E,071122.00,A,A*63
$GNRMC,071123.00,A,0419.72702,S,05539.92216,E,0.026,,030625,,,A*7B
$GNVTG,,T,,M,0.026,N,0.048,K,A*35
$GNGGA,071123.00,0419.72702,S,05539.92216,E,1,12,0.69,11.5,M,-47.6,M,,*40
$GNGSA,A,3,25,23,12,15,29,18,24,10,05,28,13,,1.24,0.69,1.03*1F
$GNGSA,A,3,79,80,67,82,,,,,,,,,1.24,0.69,1.03*1B
$GPGSV,5,1,17,05,10,028,46,10,32,224,42,12,51,149,29,13,09,075,43*7B
$GPGSV,5,2,17,15,43,092,37,18,23,325,23,23,70,264,40,24,20,151,29*71
$GPGSV,5,3,17,25,81,222,38,28,11,262,33,29,28,012,40,32,04,215,*77
$GPGSV,5,4,17,36,52,277,37,40,86,351,40,41,58,082,36,49,32,274,*79
$GPGSV,5,5,17,50,10,089,*4A
$GLGSV,2,1,08,67,38,064,40,68,54,141,28,69,20,191,27,78,13,162,17*6C
$GLGSV,2,2,08,79,52,205,32,80,41,293,36,82,06,005,37,83,03,319,31*6E
$GNGLL,0419.72702,S,05539.92216,E,071123.00,A,A*64
$GNRMC,071124.00,A,0419.72701,S,05539.92215,E,0.013,,030625,,,A*7A
$GNVTG,,T,,M,0.013,N,0.024,K,A*39
$GNGGA,071124.00,0419.72701,S,05539.92215,E,1,12,0.73,11.5,M,-47.6,M,,*4C
$GNGSA,A,3,25,23,12,15,29,24,10,05,28,13,,,1.26,0.73,1.03*1F
$GNGSA,A,3,79,80,67,82,,,,,,,,,1.26,0.73,1.03*12
$GPGSV,5,1,17,05,10,028,46,10,32,224,42,12,51,149,29,13,09,075,43*7B
$GPGSV,5,2,17,15,43,092,37,18,23,325,23,23,70,264,40,24,20,151,28*70
$GPGSV,5,3,17,25,81,222,38,28,11,262,34,29,28,012,40,32,04,215,*70
$GPGSV,5,4,17,36,52,277,37,40,86,351,40,41,58,082,36,49,32,274,*79
$GPGSV,5,5,17,50,10,089,*4A
$GLGSV,2,1,08,67,38,064,39,68,54,141,28,69,20,191,26,78,13,162,18*6C
$GLGSV,2,2,08,79,52,205,32,80,41,293,36,82,06,005,37,83,03,319,31*6E
$GNGLL,0419.72701,S,05539.92215,E,071124.00,A,A*63
$GNRMC,071125.00,A,0419.72699,S,05539.92216,E,0.022,,030625,,,A*7A
$GNVTG,,T,,M,0.022,N,0.041,K,A*38
$GNGGA,071125.00,0419.72699,S,05539.92216,E,1,12,0.69,11.6,M,-47.6,M,,*46
$GNGSA,A,3,25,23,12,15,29,18,24,10,05,28,13,,1.24,0.69,1.03*1F
$GNGSA,A,3,79,80,67,82,,,,,,,,,1.24,0.69,1.03*1B
$GPGSV,5,1,17,05,10,028,46,10,32,224,42,12,51,149,30,13,09,075,43*73
$GPGSV,5,2,17,15,43,092,40,18,23,325,24,23,70,264,40,24,20,151,29*76
$GPGSV,5,3,17,25,81,222,38,28,11,262,34,29,28,012,40,32,04,215,*70
$GPGSV,5,4,17,36,52,277,36,40,86,351,40,41,58,082,35,49,32,274,*7B
$GPGSV,5,5,17,50,10,089,*4A
$GLGSV,2,1,08,67,38,064,39,68,54,141,28,69,20,191,27,78,13,162,18*6D
$GLGSV,2,2,08,79,52,205,32,80,41,293,36,82,06,005,37,83,03,319,32*6D
$GNGLL,0419.72699,S,05539.92216,E,071125.00,A,A*61
$GNRMC,071126.00,A,0419.72697,S,05539.92215,E,0.074,,030625,,,A*77
$GNVTG,,T,,M,0.074,N,0.137,K,A*3B
$GNGGA,071126.00,0419.72697,S,05539.92215,E,1,12,0.69,11.5,M,-47.6,M,,*4B
$GNGSA,A,3,25,23,12,15,29,18,24,10,05,28,13,,1.24,0.69,1.03*1F
$GNGSA,A,3,79,80,67,82,,,,,,,,,1.24,0.69,1.03*1B
$GPGSV,5,1,17,05,10,028,46,10,32,224,42,12,51,149,29,13,09,075,44*7C
$GPGSV,5,2,17,15,43,092,39,18,23,325,33,23,70,264,40,24,20,151,30*76
$GPGSV,5,3,17,25,81,222,38,28,11,262,33,29,28,012,40,32,04,215,*77
$GPGSV,5,4,17,36,52,277,39,40,86,351,41,41,58,082,36,49,32,274,*76
$GPGSV,5,5,17,50,10,089,*4A
$GLGSV,2,1,08,67,38,064,39,68,54,141,29,69,20,191,28,78,13,162,17*6C
$GLGSV,2,2,08,79,52,205,31,80,41,293,34,82,06,005,38,83,03,319,31*60
$GNGLL,0419.72697,S,05539.92215,E,071126.00,A,A*6F
$GNRMC,071127.00,A,0419.72693,S,05539.92215,E,0.071,,030625,,,A*77
$GNVTG,,T,,M,0.071,N,0.132,K,A*3B
$GNGGA,071127.00,0419.72693,S,05539.92215,E,1,12,0.69,11.5,M,-47.6,M,,*4E
$GNGSA,A,3,25,23,12,15,29,18,24,10,05,28,13,,1.24,0.69,1.03*1F
$GNGSA,A,3,79,80,67,82,,,,,,,,,1.24,0.69,1.03*1B
$GPGSV,5,1,17,05,10,028,46,10,32,224,44,12,51,149,27,13,09,075,45*75
$GPGSV,5,2,17,15,43,092,39,18,23,325,37,23,70,264,40,24,20,151,31*73
$GPGSV,5,3,17,25,81,222,37,28,11,262,33,29,28,012,41,32,04,215,*79
$GPGSV,5,4,17,36,52,277,40,40,86,351,38,41,58,082,39,49,32,274,*79
$GPGSV,5,5,17,50,10,089,*4A
$GLGSV,2,1,08,67,38,064,39,68,54,141,28,69,20,191,28,78,13,162,18*62
$GLGSV,2,2,08,79,52,205,33,80,41,293,33,82,06,005,41,83,03,319,31*6B
$GNGLL,0419.72693,S,05539.92215,E,071127.00,A,A*6A
$GNRMC,071128.00,A,0419.72690,S,05539.92215,E,0.033,,030625,,,A*7D
$GNVTG,,T,,M,0.033,N,0.060,K,A*3B
$GNGGA,071128.00,0419.72690,S,05539.92215,E,1,12,0.69,11.6,M,-47.6,M,,*41
$GNGSA,A,3,25,23,12,15,29,18,24,10,05,28,13,,1.24,0.69,1.03*1F
$GNGSA,A,3,79,80,67,82,,,,,,,,,1.24,0.69,1.03*1B
$GPGSV,5,1,17,05,10,028,45,10,32,224,44,12,51,149,28,13,09,075,45*79
$GPGSV,5,2,17,15,43,092,36,18,23,325,36,23,70,266,38,24,20,151,30*71
$GPGSV,5,3,17,25,81,222,33,28,11,262,32,29,28,012,40,32,04,215,*7D
$GPGSV,5,4,17,36,52,277,42,40,86,351,36,41,58,082,40,49,32,274,*7B
$GPGSV,5,5,17,50,10,089,*4A
$GLGSV,2,1,08,67,38,064,35,68,54,141,28,69,20,191,29,78,13,162,18*6F
$GLGSV,2,2,08,79,52,205,33,80,41,293,33,82,06,005,39,83,03,319,29*6D
$GNGLL,0419.72690,S,05539.92215,E,071128.00,A,A*66
$GNRMC,071129.00,A,0419.72688,S,05539.92216,E,0.045,,030625,,,A*77
$GNVTG,,T,,M,0.045,N,0.083,K,A*37
$GNGGA,071129.00,0419.72688,S,05539.92216,E,1,12,0.69,11.6,M,-47.6,M,,*4A
$GNGSA,A,3,25,23,12,15,29,18,24,10,05,28,13,,1.24,0.69,1.03*1F
$GNGSA,A,3,79,80,67,82,,,,,,,,,1.24,0.69,1.03*1B
$GPGSV,5,1,17,05,10,028,45,10,32,224,43,12,51,149,28,13,09,075,45*7E
$GPGSV,5,2,17,15,43,092,34,18,23,325,36,23,70,266,39,24,20,150,29*7B
$GPGSV,5,3,17,25,81,222,32,28,11,262,32,29,28,012,40,32,04,215,*7C
$GPGSV,5,4,17,36,52,277,42,40,86,351,37,41,58,082,41,49,32,274,*7B
$GPGSV,5,5,17,50,10,089,*4A
$GLGSV,2,1,08,67,38,064,34,68,54,141,29,69,20,191,29,78,13,162,19*6E
$GLGSV,2,2,08,79,52,205,33,80,41,293,34,82,06,005,38,83,03,319,29*6B
$GNGLL,0419.72688,S,05539.92216,E,071129.00,A,A*6D
$GNRMC,071130.00,A,0419.72686,S,05539.92216,E,0.024,,030625,,,A*76
$GNVTG,,T,,M,0.024,N,0.044,K,A*3B
$GNGGA,071130.00,0419.72686,S,05539.92216,E,1,12,0.69,11.7,M,-47.6,M,,*4D
$GNGSA,A,3,25,23,12,15,29,18,24,10,05,28,13,,1.24,0.69,1.03*1F
$GNGSA,A,3,79,80,67,82,,,,,,,,,1.24,0.69,1.03*1B
$GPGSV,5,1,17,05,10,028,45,10,32,224,43,12,51,149,28,13,09,075,45*7E
$GPGSV,5,2,17,15,43,092,34,18,23,325,36,23,70,266,39,24,20,150,30*73
$GPGSV,5,3,17,25,81,221,32,28,11,262,32,29,28,012,40,32,04,215,*7F
$GPGSV,5,4,17,36,52,277,41,40,86,351,37,41,58,082,41,49,32,274,*78
$GPGSV,5,5,17,50,10,089,*4A
$GLGSV,2,1,08,67,38,064,36,68,54,141,29,69,20,191,28,78,13,162,18*6C
$GLGSV,2,2,08,79,52,205,32,80,41,293,34,82,06,005,38,83,03,319,28*6B
$GNGLL,0419.72686,S,05539.92216,E,071130.00,A,A*6B
$GNRMC,071131.00,A,0419.72684,S,05539.92215,E,0.029,,030625,,,A*7B
$GNVTG,,T,,M,0.029,N,0.054,K,A*37
$GNGGA,071131.00,0419.72684,S,05539.92215,E,1,12,0.69,11.7,M,-47.6,M,,*4D
$GNGSA,A,3,25,23,12,15,29,18,24,10,05,28,13,,1.24,0.69,1.03*1F
$GNGSA,A,3,79,80,67,82,,,,,,,,,1.24,0.69,1.03*1B
$GPGSV,5,1,17,05,10,028,45,10,32,224,44,12,51,149,28,13,09,075,45*79
$GPGSV,5,2,17,15,43,092,34,18,23,325,36,23,70,266,39,24,20,150,32*71
$GPGSV,5,3,17,25,81,221,32,28,11,262,32,29,29,012,40,32,04,215,*7E
$GPGSV,5,4,17,36,52,277,41,40,86,351,37,41,58,082,40,49,32,274,*79
$GPGSV,5,5,17,50,10,089,*4A
$GLGSV,2,1,08,67,38,064,35,68,54,141,29,69,20,191,28,78,13,162,*66
$GLGSV,2,2,08,79,52,204,31,80,41,293,34,82,06,005,38,83,03,319,29*68
$GNGLL,0419.72684,S,05539.92215,E,071131.00,A,A*6B
$GNRMC,071132.00,A,0419.72682,S,05539.92216,E,0.038,,030625,,,A*7D
$GNVTG,,T,,M,0.038,N,0.070,K,A*31
$GNGGA,071132.00,0419.72682,S,05539.92216,E,1,12,0.69,11.7,M,-47.6,M,,*4B
$GNGSA,A,3,25,23,12,15,29,18,24,10,05,28,13,,1.24,0.69,1.03*1F
$GNGSA,A,3,79,80,67,82,,,,,,,,,1.24,0.69,1.03*1B
$GPGSV,5,1,17,05,10,028,45,10,32,224,45,12,51,149,29,13,09,075,45*79
$GPGSV,5,2,17,15,43,092,34,18,23,325,36,23,70,266,39,24,20,150,32*71
$GPGSV,5,3,17,25,81,221,32,28,11,262,31,29,29,012,41,32,04,215,*7C
$GPGSV,5,4,17,36,52,277,41,40,86,351,37,41,58,082,40,49,32,274,*79
$GPGSV,5,5,17,50,10,089,*4A
$GLGSV,2,1,08,67,38,064,33,68,54,141,31,69,20,191,28,78,13,162,*69
$GLGSV,2,2,08,79,52,204,33,80,41,293,35,82,06,005,39,83,03,319,29*6A
$GNGLL,0419.72682,S,05539.92216,E,071132.00,A,A*6D
$GNRMC,071133.00,A,0419.72679,S,05539.92216,E,0.031,,030625,,,A*71
$GNVTG,,T,,M,0.031,N,0.057,K,A*3D
$GNGGA,071133.00,0419.72679,S,05539.92216,E,1,12,0.69,11.8,M,-47.6,M,,*41
$GNGSA,A,3,25,23,12,15,29,18,24,10,05,28,13,,1.24,0.69,1.03*1F
$GNGSA,A,3,79,80,67,82,,,,,,,,,1.24,0.69,1.03*1B
$GPGSV,5,1,17,05,10,028,45,10,32,224,45,12,51,149,29,13,09,075,45*79
$GPGSV,5,2,17,15,43,092,33,18,23,325,36,23,70,266,39,24,20,150,32*76
$GPGSV,5,3,17,25,81,221,32,28,11,261,30,29,29,012,41,32,04,215,20*7C
$GPGSV,5,4,17,36,52,277,42,40,86,351,36,41,58,082,40,49,32,274,*7B
$GPGSV,5,5,17,50,10,089,*4A
$GLGSV,2,1,08,67,38,064,33,68,54,141,31,69,20,191,29,78,13,162,*68
$GLGSV,2,2,08,79,52,204,35,80,41,293,35,82,06,005,39,83,03,319,30*64
$GNGLL,0419.72679,S,05539.92216,E,071133.00,A,A*68
$GNRMC,071134.00,A,0419.72677,S,05539.92217,E,0.023,,030625,,,A*7A
$GNVTG,,T,,M,0.023,N,0.043,K,A*3B
$GNGGA,071134.00,0419.72677,S,05539.92217,E,1,12,0.69,11.8,M,-47.6,M,,*49
$GNGSA,A,3,25,23,12,15,29,18,24,10,05,28,13,,1.24,0.69,1.03*1F
$GNGSA,A,3,79,80,67,82,,,,,,,,,1.24,0.69,1.03*1B
$GPGSV,5,1,17,05,10,028,45,10,32,224,45,12,51,149,29,13,09,075,45*79
$GPGSV,5,2,17,15,43,092,33,18,23,325,35,23,70,266,38,24,20,150,31*77
$GPGSV,5,3,17,25,81,221,31,28,11,261,30,29,29,012,41,32,04,215,19*75
$GPGSV,5,4,17,36,52,277,42,40,86,351,36,41,58,082,40,49,32,274,*7B
$GPGSV,5,5,17,50,10,089,*4A
$GLGSV,2,1,08,67,38,064,32,68,54,141,31,69,20,191,29,78,13,162,*69
$GLGSV,2,2,08,79,52,204,35,80,41,293,34,82,06,005,39,83,03,319,30*65
$GNGLL,0419.72677,S,05539.92217,E,071134.00,A,A*60
$GNRMC,071135.00,A,0419.72674,S,05539.92218,E,0.031,,030625,,,A*74
$GNVTG,,T,,M,0.031,N,0.057,K,A*3D
$GNGGA,071135.00,0419.72674,S,05539.92218,E,1,12,0.69,11.8,M,-47.6,M,,*44
$GNGSA,A,3,25,23,12,15,29,18,24,10,05,28,13,,1.24,0.69,1.03*1F
$GNGSA,A,3,79,80,67,82,,,,,,,,,1.24,0.69,1.03*1B
$GPGSV,5,1,17,05,10,028,45,10,32,224,44,12,51,149,28,13,09,075,45*79
$GPGSV,5,2,17,15,43,092,32,18,23,325,35,23,70,266,38,24,20,150,30*77
$GPGSV,5,3,17,25,81,221,31,28,11,261,30,29,29,012,41,32,04,215,15*79
$GPGSV,5,4,17,36,52,277,42,40,86,351,36,41,58,082,40,49,32,274,*7B
$GPGSV,5,5,17,50,10,089,*4A
$GLGSV,2,1,08,67,38,064,33,68,54,141,30,69,20,191,28,78,13,162,*68
$GLGSV,2,2,08,79,52,204,34,80,41,293,34,82,06,005,39,83,03,319,29*6C
$GNGLL,0419.72674,S,05539.92218,E,071135.00,A,A*6D
$GNRMC,071136.00,A,0419.72672,S,05539.92218,E,0.034,,030625,,,A*74
$GNVTG,,T,,M,0.034,N,0.062,K,A*3E
$GNGGA,071136.00,0419.72672,S,05539.92218,E,1,12,0.69,11.9,M,-47.6,M,,*40
$GNGSA,A,3,25,23,12,15,29,18,24,10,05,28,13,,1.24,0.69,1.03*1F
$GNGSA,A,3,79,80,67,82,,,,,,,,,1.24,0.69,1.03*1B
$GPGSV,5,1,17,05,10,028,45,10,32,224,44,12,51,149,28,13,09,075,45*79
$GPGSV,5,2,17,15,43,092,32,18,23,325,36,23,70,266,38,24,20,150,30*74
$GPGSV,5,3,17,25,81,221,31,28,11,261,30,29,29,012,41,32,04,215,16*7A
$GPGSV,5,4,17,36,52,277,42,40,86,351,35,41,58,082,40,49,32,274,*78
$GPGSV,5,5,17,50,10,089,*4A
$GLGSV,2,1,08,67,38,064,33,68,54,141,30,69,20,191,28,78,13,162,*68
$GLGSV,2,2,08,79,52,204,34,80,41,293,34,82,06,005,39,83,03,319,28*6D
$GNGLL,0419.72672,S,05539.92218,E,071136.00,A,A*68
$GNRMC,071137.00,A,0419.72670,S,05539.92219,E,0.026,,030625,,,A*75
$GNVTG,,T,,M,0.026,N,0.048,K,A*35
$GNGGA,071137.00,0419.72670,S,05539.92219,E,1,12,0.68,11.8,M,-47.6,M,,*42
$GNGSA,A,3,25,23,12,15,29,18,24,10,05,28,13,,1.22,0.68,1.01*1A
$GNGSA,A,3,79,80,67,68,82,,,,,,,,1.22,0.68,1.01*10
$GPGSV,5,1,17,05,10,028,45,10,32,224,45,12,51,149,27,13,09,075,44*76
$GPGSV,5,2,17,15,43,092,35,18,23,325,36,23,70,266,39,24,20,150,30*72
$GPGSV,5,3,17,25,81,221,35,28,11,261,31,29,29,012,41,32,05,215,18*70
$GPGSV,5,4,17,36,52,277,42,40,86,351,36,41,58,082,41,49,32,274,*7A
$GPGSV,5,5,17,50,10,089,*4A
$GLGSV,2,1,08,67,38,064,33,68,55,140,29,69,20,191,29,78,13,162,*61
$GLGSV,2,2,08,79,52,204,34,80,41,293,36,82,06,005,39,83,03,319,28*6F
$GNGLL,0419.72670,S,05539.92219,E,071137.00,A,A*6A
$GNRMC,071138.00,A,0419.72667,S,05539.92218,E,0.041,,030625,,,A*7C
$GNVTG,,T,,M,0.041,N,0.076,K,A*39
$GNGGA,071138.00,0419.72667,S,05539.92218,E,1,12,0.68,11.9,M,-47.6,M,,*4B
$GNGSA,A,3,25,23,12,15,29,18,24,10,05,28,13,,1.22,0.68,1.01*1A
$GNGSA,A,3,79,80,67,68,82,,,,,,,,1.22,0.68,1.01*10
$GPGSV,5,1,17,05,10,028,45,10,32,224,45,12,51,149,28,13,09,075,45*78
$GPGSV,5,2,17,15,43,092,35,18,23,325,36,23,70,266,38,24,20,150,30*73
$GPGSV,5,3,17,25,81,221,30,28,11,261,30,29,29,012,42,32,05,215,19*76
$GPGSV,5,4,17,36,52,277,42,40,86,351,34,41,58,082,41,49,32,274,*78
$GPGSV,5,5,17,50,10,089,*4A
$GLGSV,2,1,08,67,38,064,32,68,55,140,29,69,20,191,29,78,13,162,25*67
$GLGSV,2,2,08,79,52,204,36,80,41,293,34,82,06,005,39,83,03,319,28*6F
$GNGLL,0419.72667,S,05539.92218,E,071138.00,A,A*62
$GNRMC,071139.00,A,0419.72665,S,05539.92218,E,0.020,,030625,,,A*78
$GNVTG,,T,,M,0.020,N,0.037,K,A*3B
$GNGGA,071139.00,0419.72665,S,05539.92218,E,1,12,0.68,11.9,M,-47.6,M,,*48
$GNGSA,A,3,25,23,12,15,29,18,24,10,05,28,13,,1.22,0.68,1.01*1A
$GNGSA,A,3,79,80,67,68,82,,,,,,,,1.22,0.68,1.01*10
$GPGSV,5,1,17,05,10,028,45,10,32,224,43,12,51,149,29,13,09,075,44*7E
$GPGSV,5,2,17,15,43,092,34,18,23,325,37,23,70,266,39,24,20,150,30*72
$GPGSV,5,3,17,25,81,221,34,28,11,261,30,29,29,012,41,32,05,215,19*71
$GPGSV,5,4,17,36,52,277,42,40,86,351,35,41,58,082,41,49,32,274,*79
$GPGSV,5,5,17,50,10,089,*4A
$GLGSV,2,1,08,67,38,063,34,68,55,140,29,69,20,191,30,78,13,162,22*69
$GLGSV,2,2,08,79,52,204,36,80,41,293,34,82,06,005,40,83,03,319,28*61
$GNGLL,0419.72665,S,05539.92218,E,071139.00,A,A*61
$GNRMC,071140.00,A,0419.72662,S,05539.92218,E,0.018,,030625,,,A*7A
$GNVTG,,T,,M,0.018,N,0.034,K,A*33
$GNGGA,071140.00,0419.72662,S,05539.92218,E,1,12,0.68,11.9,M,-47.6,M,,*41
$GNGSA,A,3,25,23,12,15,29,18,24,10,05,28,13,,1.22,0.68,1.01*1A
$GNGSA,A,3,79,80,67,68,82,,,,,,,,1.22,0.68,1.01*10
$GPGSV,5,1,17,05,10,028,45,10,32,224,43,12,51,149,28,13,09,075,44*7F
$GPGSV,5,2,17,15,43,092,34,18,23,325,36,23,70,266,39,24,20,150,30*73
$GPGSV,5,3,17,25,81,221,33,28,11,261,32,29,29,012,41,32,05,215,17*7A
$GPGSV,5,4,17,36,52,277,40,40,86,351,36,41,58,082,40,49,32,274,*79
$GPGSV,5,5,17,50,10,089,*4A
$GLGSV,2,1,08,67,38,063,35,68,55,140,28,69,20,191,29,78,13,162,20*63
$GLGSV,2,2,08,79,52,204,34,80,41,293,34,82,06,005,40,83,03,319,28*63
$GNGLL,0419.72662,S,05539.92218,E,071140.00,A,A*68
$GNRMC,071141.00,A,0419.72660,S,05539.92217,E,0.017,,030625,,,A*79
$GNVTG,,T,,M,0.017,N,0.031,K,A*39
$GNGGA,071141.00,0419.72660,S,05539.92217,E,1,12,0.68,11.8,M,-47.6,M,,*4C
$GNGSA,A,3,25,23,12,15,29,18,24,10,05,28,13,,1.22,0.68,1.01*1A
$GNGSA,A,3,79,80,67,68,82,,,,,,,,1.22,0.68,1.01*10
$GPGSV,5,1,17,05,10,028,45,10,32,224,42,12,51,149,29,13,09,075,43*78
$GPGSV,5,2,17,15,43,092,36,18,23,325,34,23,70,266,40,24,20,150,29*75
$GPGSV,5,3,17,25,81,221,33,28,11,261,32,29,29,012,41,32,05,215,15*78
$GPGSV,5,4,17,36,52,277,40,40,86,351,37,41,58,082,40,49,32,274,*78
$GPGSV,5,5,17,50,10,089,*4A
$GLGSV,2,1,08,67,38,063,35,68,55,140,28,69,20,191,29,78,13,162,20*63
$GLGSV,2,2,08,79,52,204,32,80,41,293,35,82,06,005,40,83,03,319,27*6B
$GNGLL,0419.72660,S,05539.92217,E,071141.00,A,A*64
$GNRMC,071142.00,A,0419.72658,S,05539.92216,E,0.024,,030625,,,A*70
$GNVTG,,T,,M,0.024,N,0.044,K,A*3B
$GNGGA,071142.00,0419.72658,S,05539.92216,E,1,12,0.68,11.8,M,-47.6,M,,*45
$GNGSA,A,3,25,23,12,15,29,18,24,10,05,28,13,,1.22,0.68,1.01*1A
$GNGSA,A,3,79,80,67,68,82,,,,,,,,1.22,0.68,1.01*10
$GPGSV,5,1,17,05,10,028,45,10,32,224,42,12,51,149,35,13,09,075,42*74
$GPGSV,5,2,17,15,43,092,36,18,23,325,34,23,70,266,40,24,20,150,28*74
$GPGSV,5,3,17,25,81,221,34,28,11,261,33,29,29,012,41,32,05,215,15*7E
$GPGSV,5,4,17,36,52,277,40,40,86,351,37,41,58,082,40,49,32,274,*78
$GPGSV,5,5,17,50,10,089,*4A
$GLGSV,2,1,08,67,38,063,35,68,55,140,29,69,20,191,29,78,13,162,19*68
$GLGSV,2,2,08,79,52,204,32,80,41,293,35,82,06,005,40,83,03,319,27*6B
$GNGLL,0419.72658,S,05539.92216,E,071142.00,A,A*6D
$GNRMC,071143.00,A,0419.72655,S,05539.92215,E,0.043,,030625,,,A*7E
$GNVTG,,T,,M,0.043,N,0.080,K,A*32
$GNGGA,071143.00,0419.72655,S,05539.92215,E,1,12,0.68,11.8,M,-47.6,M,,*4A
$GNGSA,A,3,25,23,12,15,29,18,24,10,05,28,13,,1.22,0.68,1.01*1A
$GNGSA,A,3,79,80,67,68,82,,,,,,,,1.22,0.68,1.01*10
$GPGSV,5,1,17,05,10,028,45,10,32,224,42,12,51,149,35,13,09,075,43*75
$GPGSV,5,2,17,15,43,092,36,18,23,325,35,23,70,266,40,24,20,150,28*75
$GPGSV,5,3,17,25,81,221,34,28,11,261,33,29,29,012,41,32,05,215,16*7D
$GPGSV,5,4,17,36,52,277,40,40,86,351,37,41,58,082,40,49,32,274,*78
$GPGSV,5,5,17,50,10,089,*4A
$GLGSV,2,1,08,67,38,063,35,68,55,140,30,69,20,191,29,78,13,162,19*60
$GLGSV,2,2,08,79,52,204,32,80,41,293,35,82,06,005,40,83,03,319,26*6A
$GNGLL,0419.72655,S,05539.92215,E,071143.00,A,A*62
$GNRMC,071144.00,A,0419.72652,S,05539.92214,E,0.065,,030625,,,A*7B
$GNVTG,,T,,M,0.065,N,0.120,K,A*3D
$GNGGA,071144.00,0419.72652,S,05539.92214,E,1,12,0.68,11.8,M,-47.6,M,,*4B
$GNGSA,A,3,25,23,12,15,29,18,24,10,05,28,13,,1.22,0.68,1.01*1A
$GNGSA,A,3,79,80,67,68,82,,,,,,,,1.22,0.68,1.01*10
$GPGSV,5,1,17,05,10,028,45,10,32,224,42,12,51,149,35,13,09,075,43*75
$GPGSV,5,2,17,15,43,092,36,18,23,325,36,23,70,266,38,24,20,150,27*76
$GPGSV,5,3,17,25,81,221,35,28,11,261,33,29,29,012,40,32,05,215,15*7E
$GPGSV,5,4,17,36,52,277,40,40,86,351,38,41,58,082,40,49,32,274,*77
$GPGSV,5,5,17,50,10,089,*4A
$GLGSV,2,1,08,67,38,063,34,68,55,140,31,69,20,191,30,78,13,162,17*66
$GLGSV,2,2,08,79,52,204,34,80,41,293,35,82,06,005,39,83,03,319,26*62
$GNGLL,0419.72652,S,05539.92214,E,071144.00,A,A*63
$GNRMC,071145.00,A,0419.72649,S,05539.92213,E,0.033,,030625,,,A*74
$GNVTG,,T,,M,0.033,N,0.060,K,A*3B
$GNGGA,071145.00,0419.72649,S,05539.92213,E,1,12,0.68,11.7,M,-47.6,M,,*48
$GNGSA,A,3,25,23,12,15,29,18,24,10,05,28,13,,1.22,0.68,1.01*1A
$GNGSA,A,3,79,80,67,68,82,,,,,,,,1.22,0.68,1.01*10
$GPGSV,5,1,17,05,10,028,45,10,32,224,42,12,51,149,35,13,09,075,43*75
$GPGSV,5,2,17,15,43,092,36,18,23,325,36,23,70,266,41,24,20,150,27*78
$GPGSV,5,3,17,25,81,221,35,28,11,261,34,29,29,012,41,32,05,215,15*78
$GPGSV,5,4,17,36,52,277,40,40,86,351,38,41,58,082,40,49,32,274,*77
$GPGSV,5,5,17,50,10,089,*4A
$GLGSV,2,1,08,67,38,063,35,68,55,140,31,69,20,191,29,78,13,162,16*6E
$GLGSV,2,2,08,79,52,204,34,80,42,292,35,82,06,005,40,83,03,319,26*6E
$GNGLL,0419.72649,S,05539.92213,E,071145.00,A,A*6F
$GNRMC,071146.00,A,0419.72648,S,05539.92212,E,0.040,,030625,,,A*73
$GNVTG,,T,,M,0.040,N,0.074,K,A*3A
$GNGGA,071146.00,0419.72648,S,05539.92212,E,1,12,0.68,11.7,M,-47.6,M,,*4B
$GNGSA,A,3,25,23,12,15,29,18,24,10,05,28,13,,1.22,0.68,1.01*1A
$GNGSA,A,3,79,80,67,68,82,,,,,,,,1.22,0.68,1.01*10
$GPGSV,5,1,17,05,10,028,45,10,32,224,44,12,51,149,34,13,09,075,44*75
$GPGSV,5,2,17,15,43,092,36,18,23,325,36,23,70,266,41,24,20,150,28*77
$GPGSV,5,3,17,25,81,221,35,28,11,261,33,29,29,012,40,32,05,215,14*7F
$GPGSV,5,4,17,36,52,277,40,40,86,351,39,41,58,082,40,49,32,274,*76
$GPGSV,5,5,17,50,10,089,*4A
$GLGSV,2,1,08,67,38,063,36,68,55,140,31,69,20,191,30,78,13,162,16*65
$GLGSV,2,2,08,79,52,204,32,80,42,292,35,82,06,005,40,83,03,319,25*6B
$GNGLL,0419.72648,S,05539.92212,E,071146.00,A,A*6C
$GNRMC,071147.00,A,0419.72646,S,05539.92211,E,0.020,,030625,,,A*79
$GNVTG,,T,,M,0.020,N,0.038,K,A*34
$GNGGA,071147.00,0419.72646,S,05539.92211,E,1,12,0.68,11.7,M,-47.6,M,,*47
$GNGSA,A,3,25,23,12,15,29,18,24,10,05,28,13,,1.22,0.68,1.01*1A
$GNGSA,A,3,79,80,67,68,82,,,,,,,,1.22,0.68,1.01*10
$GPGSV,5,1,17,05,10,028,45,10,32,224,44,12,51,149,35,13,09,075,43*73
$GPGSV,5,2,17,15,43,092,36,18,23,325,35,23,70,266,41,24,20,150,28*74
$GPGSV,5,3,17,25,81,221,35,28,11,261,32,29,29,012,40,32,05,215,17*7D
$GPGSV,5,4,17,36,52,277,40,40,86,351,39,41,58,082,40,49,32,274,*76
$GPGSV,5,5,17,50,10,089,*4A
$GLGSV,2,1,08,67,38,063,36,68,55,140,30,69,20,191,30,78,13,162,18*6A
$GLGSV,2,2,08,79,52,204,30,80,42,292,35,82,06,005,40,83,03,319,26*6A
$GNGLL,0419.72646,S,05539.92211,E,071147.00,A,A*60
$GNRMC,071148.00,A,0419.72643,S,05539.92210,E,0.038,,030625,,,A*7B
$GNVTG,,T,,M,0.038,N,0.070,K,A*31
$GNGGA,071148.00,0419.72643,S,05539.92210,E,1,12,0.68,11.7,M,-47.6,M,,*4C
$GNGSA,A,3,25,23,12,15,29,18,24,10,05,28,13,,1.22,0.68,1.01*1A
$GNGSA,A,3,79,80,67,68,82,,,,,,,,1.22,0.68,1.01*10
$GPGSV,5,1,17,05,10,028,42,10,32,224,40,12,51,149,33,13,09,075,40*75
$GPGSV,5,2,17,15,43,092,35,18,23,325,34,23,70,266,38,24,20,150,27*77
$GPGSV,5,3,17,25,81,221,34,28,11,261,31,29,29,012,37,32,05,215,18*70
$GPGSV,5,4,17,36,52,277,37,40,86,351,37,41,58,082,37,49,32,274,*78
$GPGSV,5,5,17,50,10,089,*4A
$GLGSV,2,1,08,67,38,063,36,68,55,140,30,69,20,191,29,78,13,162,18*62
$GLGSV,2,2,08,79,52,204,29,80,42,292,35,82,06,005,39,83,03,319,27*6D
$GNGLL,0419.72643,S,05539.92210,E,071148.00,A,A*6B
$GNRMC,071149.00,A,0419.72641,S,05539.92209,E,0.042,,030625,,,A*7D
$GNVTG,,T,,M,0.042,N,0.077,K,A*3B
$GNGGA,071149.00,0419.72641,S,05539.92209,E,1,12,0.68,11.6,M,-47.6,M,,*46
$GNGSA,A,3,25,23,12,15,29,18,24,10,05,28,13,,1.22,0.68,1.01*1A
$GNGSA,A,3,79,80,67,68,82,,,,,,,,1.22,0.68,1.01*10
$GPGSV,5,1,17,05,10,028,45,10,32,224,44,12,51,149,33,13,09,075,44*72
$GPGSV,5,2,17,15,43,092,35,18,23,325,34,23,70,266,41,24,20,150,26*78
$GPGSV,5,3,17,25,81,221,35,28,11,261,31,29,29,012,40,32,05,215,16*7F
$GPGSV,5,4,17,36,52,277,40,40,86,351,40,41,58,082,40,49,32,274,*78
$GPGSV,5,5,17,50,10,089,*4A
$GLGSV,2,1,08,67,38,063,36,68,55,140,29,69,20,191,29,78,13,162,19*6B
$GLGSV,2,2,08,79,52,204,29,80,42,292,35,82,06,005,39,83,03,319,27*6D
$GNGLL,0419.72641,S,05539.92209,E,071149.00,A,A*60
$GNRMC,071150.00,A,0419.72638,S,05539.92208,E,0.064,,030625,,,A*7E
$GNVTG,,T,,M,0.064,N,0.118,K,A*37
$GNGGA,071150.00,0419.72638,S,05539.92208,E,1,12,0.68,11.6,M,-47.6,M,,*41
$GNGSA,A,3,25,23,12,15,29,18,24,10,05,28,13,,1.22,0.68,1.01*1A
$GNGSA,A,3,79,80,67,68,82,,,,,,,,1.22,0.68,1.01*10
$GPGSV,5,1,17,05,10,028,45,10,32,224,40,12,51,149,34,13,09,075,44*71
$GPGSV,5,2,17,15,43,092,37,18,23,325,35,23,70,266,38,24,20,150,27*74
$GPGSV,5,3,17,25,81,221,34,28,11,261,31,29,29,012,40,32,05,215,*79
$GPGSV,5,4,17,36,52,277,39,40,86,351,37,41,58,082,42,49,32,274,*74
$GPGSV,5,5,17,50,10,089,*4A
$GLGSV,2,1,08,67,38,063,39,68,55,140,31,69,20,191,32,78,13,162,20*6D
$GLGSV,2,2,08,79,52,204,29,80,42,292,36,82,06,005,41,83,03,319,29*6F
$GNGLL,0419.72638,S,05539.92208,E,071150.00,A,A*67
$GNRMC,071151.00,A,0419.72635,S,05539.92208,E,0.073,,030625,,,A*74
$GNVTG,,T,,M,0.073,N,0.135,K,A*3E
$GNGGA,071151.00,0419.72635,S,05539.92208,E,1,12,0.68,11.7,M,-47.6,M,,*4C
$GNGSA,A,3,25,23,12,15,29,18,24,10,05,28,13,,1.22,0.68,1.01*1A
$GNGSA,A,3,79,80,67,68,82,,,,,,,,1.22,0.68,1.01*10
$GPGSV,5,1,17,05,10,028,45,10,32,224,40,12,51,149,34,13,09,075,44*71
$GPGSV,5,2,17,15,43,092,36,18,23,325,37,23,70,266,38,24,20,150,25*75
$GPGSV,5,3,17,25,81,221,33,28,11,261,29,29,29,012,41,32,05,215,*76
$GPGSV,5,4,17,36,52,277,38,40,86,351,37,41,58,082,41,49,32,274,*76
$GPGSV,5,5,17,50,10,089,*4A
$GLGSV,2,1,08,67,38,063,37,68,55,140,31,69,20,191,31,78,13,162,18*6B
$GLGSV,2,2,08,79,52,204,29,80,42,292,34,82,06,005,40,83,03,319,29*6C
$GNGLL,0419.72635,S,05539.92208,E,071151.00,A,A*6B
$GNRMC,071152.00,A,0419.72631,S,05539.92208,E,0.113,,030625,,,A*74
$GNVTG,,T,,M,0.113,N,0.209,K,A*35
$GNGGA,071152.00,0419.72631,S,05539.92208,E,1,12,0.68,11.7,M,-47.6,M,,*4B
$GNGSA,A,3,25,23,12,15,29,18,24,10,05,28,13,,1.22,0.68,1.01*1A
$GNGSA,A,3,79,80,67,68,82,,,,,,,,1.22,0.68,1.01*10
$GPGSV,5,1,17,05,10,028,45,10,32,224,40,12,51,149,34,13,09,075,44*71
$GPGSV,5,2,17,15,43,092,36,18,23,325,36,23,70,266,38,24,20,150,24*75
$GPGSV,5,3,17,25,81,221,34,28,11,261,28,29,29,012,40,32,05,215,*71
$GPGSV,5,4,17,36,52,277,39,40,86,351,38,41,58,082,41,49,32,274,*78
$GPGSV,5,5,17,50,10,089,*4A
$GLGSV,2,1,08,67,38,063,37,68,55,140,31,69,20,191,31,78,13,162,17*64
$GLGSV,2,2,08,79,52,204,28,80,42,292,34,82,06,005,39,83,03,319,30*6B
$GNGLL,0419.72631,S,05539.92208,E,071152.00,A,A*6C
$GNRMC,071153.00,A,0419.72629,S,05539.92207,E,0.031,,030625,,,A*72
$GNVTG,,T,,M,0.031,N,0.058,K,A*32
$GNGGA,071153.00,0419.72629,S,05539.92207,E,1,12,0.68,11.7,M,-47.6,M,,*4C
$GNGSA,A,3,25,23,12,15,29,18,24,10,05,28,13,,1.22,0.68,1.01*1A
$GNGSA,A,3,79,80,67,68,82,,,,,,,,1.22,0.68,1.01*10
$GPGSV,5,1,17,05,10,028,45,10,32,224,40,12,51,149,34,13,09,075,44*71
$GPGSV,5,2,17,15,43,092,30,18,23,325,36,23,70,266,38,24,20,150,23*74
$GPGSV,5,3,17,25,81,221,35,28,11,261,28,29,29,012,41,32,05,215,*71
$GPGSV,5,4,17,36,52,277,38,40,86,351,38,41,58,082,39,49,32,274,*76
$GPGSV,5,5,17,50,10,089,*4A
$GLGSV,2,1,08,67,38,063,35,68,55,140,29,69,20,191,31,78,13,162,12*6A
$GLGSV,2,2,08,79,52,204,29,80,42,292,36,82,06,006,41,83,03,319,30*64
$GNGLL,0419.72629,S,05539.92207,E,071153.00,A,A*6B
$GNRMC,071154.00,A,0419.72627,S,05539.92207,E,0.064,,030625,,,A*7B
$GNVTG,,T,,M,0.064,N,0.118,K,A*37
$GNGGA,071154.00,0419.72627,S,05539.92207,E,1,12,0.68,11.7,M,-47.6,M,,*45
$GNGSA,A,3,25,23,12,15,29,18,24,10,05,28,13,,1.22,0.68,1.01*1A
$GNGSA,A,3,79,80,67,68,82,,,,,,,,1.22,0.68,1.01*10
$GPGSV,5,1,17,05,10,028,45,10,32,224,40,12,51,149,34,13,09,075,44*71
$GPGSV,5,2,17,15,43,092,29,18,23,325,36,23,70,266,38,24,20,150,21*7E
$GPGSV,5,3,17,25,81,221,35,28,11,261,28,29,29,012,41,32,05,215,*71
$GPGSV,5,4,17,36,52,277,38,40,86,351,37,41,58,082,39,49,32,274,*79
$GPGSV,5,5,17,50,10,089,*4A
$GLGSV,2,1,08,67,38,063,33,68,55,140,29,69,20,191,32,78,13,162,16*6B
$GLGSV,2,2,08,79,52,204,30,80,42,292,37,82,06,006,41,83,03,319,31*6C
$GNGLL,0419.72627,S,05539.92207,E,071154.00,A,A*62
$GNRMC,071155.00,A,0419.72626,S,05539.92205,E,0.064,,030625,,,A*79
$GNVTG,,T,,M,0.064,N,0.118,K,A*37
$GNGGA,071155.00,0419.72626,S,05539.92205,E,1,12,0.68,11.6,M,-47.6,M,,*46
$GNGSA,A,3,25,23,12,15,29,18,24,10,05,28,13,,1.22,0.68,1.01*1A
$GNGSA,A,3,79,80,67,68,82,,,,,,,,1.22,0.68,1.01*10
$GPGSV,5,1,17,05,10,028,45,10,32,224,40,12,51,149,34,13,09,075,44*71
$GPGSV,5,2,17,15,43,092,38,18,23,325,36,23,70,266,38,24,20,150,22*7D
$GPGSV,5,3,17,25,81,221,34,28,11,261,29,29,29,012,40,32,05,215,*70
$GPGSV,5,4,17,36,52,277,38,40,86,351,38,41,58,082,41,49,32,274,*79
$GPGSV,5,5,17,50,10,089,*4A
$GLGSV,2,1,08,67,38,063,38,68,55,140,30,69,20,191,32,78,13,162,16*68
$GLGSV,2,2,08,79,52,204,29,80,42,292,37,82,06,006,41,83,03,319,31*64
$GNGLL,0419.72626,S,05539.92205,E,071155.00,A,A*60
$GNRMC,071156.00,A,0419.72625,S,05539.92207,E,0.078,,030625,,,A*76
$GNVTG,,T,,M,0.078,N,0.145,K,A*32
$GNGGA,071156.00,0419.72625,S,05539.92207,E,1,12,0.68,11.7,M,-47.6,M,,*45
$GNGSA,A,3,25,23,12,15,29,18,24,10,05,28,13,,1.22,0.68,1.01*1A
$GNGSA,A,3,79,80,67,68,82,,,,,,,,1.22,0.68,1.01*10
$GPGSV,5,1,17,05,10,028,45,10,32,224,40,12,51,149,35,13,09,075,42*76
$GPGSV,5,2,17,15,43,092,39,18,23,325,35,23,70,266,39,24,20,150,24*78
$GPGSV,5,3,17,25,81,221,33,28,11,261,30,29,29,012,40,32,05,215,*7F
$GPGSV,5,4,17,36,52,277,39,40,86,351,37,41,58,082,41,49,32,274,*77
$GPGSV,5,5,17,50,10,089,*4A
$GLGSV,2,1,08,67,38,063,37,68,55,140,32,69,20,191,30,78,13,162,16*67
$GLGSV,2,2,08,79,52,204,28,80,42,292,36,82,06,006,39,83,03,319,30*6A
$GNGLL,0419.72625,S,05539.92207,E,071156.00,A,A*62
