$GNRMC,060213.00,A,0419.72409,S,05539.92667,E,0.028,,030625,,,A*7F
$GNVTG,,T,,M,0.028,N,0.053,K,A*31
$GNGGA,060213.00,0419.72409,S,05539.92667,E,1,12,0.69,13.6,M,-47.6,M,,*4B
$GNGSA,A,3,25,12,23,15,05,18,29,13,20,,,,1.16,0.69,0.94*1E
$GNGSA,A,3,78,67,66,82,83,80,79,,,,,,1.16,0.69,0.94*11
$GPGSV,5,1,17,05,39,036,40,10,05,213,16,12,73,083,35,13,13,107,40*7E
$GPGSV,5,2,17,15,40,137,37,18,32,291,37,20,07,033,39,23,46,211,31*73
$GPGSV,5,3,17,24,32,177,28,25,59,341,22,28,05,292,33,29,14,346,20*73
$GPGSV,5,4,17,36,52,277,,40,86,351,38,41,58,082,,49,32,274,*77
$GPGSV,5,5,17,50,10,089,39*40
$GLGSV,3,1,09,66,12,063,42,67,39,116,37,68,26,175,,78,47,168,25*6A
$GLGSV,3,2,09,79,70,295,33,80,18,327,39,81,02,016,30,82,12,334,36*60
$GLGSV,3,3,09,83,10,285,42*5F
$GNGLL,0419.72409,S,05539.92667,E,060213.00,A,A*6E
$GNRMC,060214.00,A,0419.72409,S,05539.92666,E,0.055,,030625,,,A*73
$GNVTG,,T,,M,0.055,N,0.102,K,A*3E
$GNGGA,060214.00,0419.72409,S,05539.92666,E,1,12,0.69,13.5,M,-47.6,M,,*4E
$GNGSA,A,3,25,12,23,15,05,18,29,13,20,,,,1.16,0.69,0.94*1E
$GNGSA,A,3,78,67,66,82,83,80,79,,,,,,1.16,0.69,0.94*11
$GPGSV,5,1,17,05,39,036,39,10,05,213,15,12,73,083,37,13,13,107,40*71
$GPGSV,5,2,17,15,40,137,37,18,32,291,35,20,07,033,39,23,46,211,32*72
$GPGSV,5,3,17,24,32,177,27,25,59,341,25,28,05,292,33,29,14,346,29*72
$GPGSV,5,4,17,36,52,277,,40,86,351,38,41,58,082,33,49,32,274,*77
$GPGSV,5,5,17,50,10,089,40*4E
$GLGSV,3,1,09,66,12,062,40,67,39,116,35,68,26,175,,78,47,168,24*6A
$GLGSV,3,2,09,79,70,295,34,80,18,327,35,81,02,016,24,82,12,334,30*68
$GLGSV,3,3,09,83,10,285,37*5D
$GNGLL,0419.72409,S,05539.92666,E,060214.00,A,A*68
$GNRMC,060215.00,A,0419.72410,S,05539.92665,E,0.040,,030625,,,A*7D
$GNVTG,,T,,M,0.040,N,0.075,K,A*3B
$GNGGA,060215.00,0419.72410,S,05539.92665,E,1,12,0.69,13.5,M,-47.6,M,,*44
$GNGSA,A,3,25,12,23,15,05,18,29,13,20,,,,1.16,0.69,0.94*1E
$GNGSA,A,3,78,67,66,82,83,80,79,,,,,,1.16,0.69,0.94*11
$GPGSV,5,1,17,05,39,036,39,10,05,213,15,12,73,083,37,13,13,107,41*70
$GPGSV,5,2,17,15,40,137,39,18,32,291,35,20,07,033,38,23,46,211,31*7E
$GPGSV,5,3,17,24,32,177,28,25,59,341,30,28,05,292,33,29,14,346,29*79
$GPGSV,5,4,17,36,52,277,,40,86,351,39,41,58,082,33,49,32,274,*76
$GPGSV,5,5,17,50,10,089,40*4E
$GLGSV,3,1,09,66,12,062,40,67,39,116,36,68,26,175,,78,47,168,23*6E
$GLGSV,3,2,09,79,70,295,35,80,18,327,38,81,02,016,26,82,12,334,33*65
$GLGSV,3,3,09,83,10,285,38*52
$GNGLL,0419.72410,S,05539.92665,E,060215.00,A,A*62
$GNRMC,060216.00,A,0419.72410,S,05539.92663,E,0.045,,030625,,,A*7D
$GNVTG,,T,,M,0.045,N,0.083,K,A*37
$GNGGA,060216.00,0419.72410,S,05539.92663,E,1,12,0.69,13.5,M,-47.6,M,,*41
$GNGSA,A,3,25,12,23,15,05,18,29,13,20,,,,1.16,0.69,0.94*1E
$GNGSA,A,3,78,67,66,82,83,80,79,,,,,,1.16,0.69,0.94*11
$GPGSV,5,1,17,05,39,036,40,10,05,213,13,12,73,083,37,13,13,107,41*78
$GPGSV,5,2,17,15,40,137,38,18,32,291,34,20,07,033,39,23,46,211,30*7E
$GPGSV,5,3,17,24,32,177,29,25,59,341,30,28,05,292,30,29,14,346,27*75
$GPGSV,5,4,17,36,52,277,,40,86,351,37,41,58,082,34,49,32,274,*7F
$GPGSV,5,5,17,50,10,089,40*4E
$GLGSV,3,1,09,66,12,062,40,67,39,116,36,68,26,175,23,78,47,168,24*68
$GLGSV,3,2,09,79,70,295,33,80,18,327,36,81,02,016,28,82,12,334,35*65
$GLGSV,3,3,09,83,10,285,38*52
$GNGLL,0419.72410,S,05539.92663,E,060216.00,A,A*67
$GNRMC,060217.00,A,0419.72410,S,05539.92662,E,0.040,,030625,,,A*78
$GNVTG,,T,,M,0.040,N,0.073,K,A*3D
$GNGGA,060217.00,0419.72410,S,05539.92662,E,1,12,0.69,13.5,M,-47.6,M,,*41
$GNGSA,A,3,25,12,23,15,05,18,29,13,20,,,,1.16,0.69,0.94*1E
$GNGSA,A,3,78,67,66,82,83,80,79,,,,,,1.16,0.69,0.94*11
$GPGSV,5,1,17,05,39,036,38,10,05,213,11,12,73,083,35,13,13,107,39*78
$GPGSV,5,2,17,15,40,137,37,18,32,291,34,20,07,033,38,23,46,211,29*78
$GPGSV,5,3,17,24,32,177,28,25,59,341,29,28,05,292,29,29,14,346,25*76
$GPGSV,5,4,17,36,52,277,,40,86,351,36,41,58,082,33,49,32,274,*79
$GPGSV,5,5,17,50,10,089,39*40
$GLGSV,3,1,09,66,12,062,40,67,39,116,36,68,26,175,23,78,47,168,24*68
$GLGSV,3,2,09,79,70,295,33,80,18,327,36,81,02,016,27,82,12,334,35*6A
$GLGSV,3,3,09,83,10,285,38*52
$GNGLL,0419.72410,S,05539.92662,E,060217.00,A,A*67
$GNRMC,060218.00,A,0419.72409,S,05539.92659,E,0.054,,030625,,,A*72
$GNVTG,,T,,M,0.054,N,0.099,K,A*3C
$GNGGA,060218.00,0419.72409,S,05539.92659,E,1,12,0.69,13.5,M,-47.6,M,,*4E
$GNGSA,A,3,25,12,23,15,05,18,29,13,20,,,,1.16,0.69,0.94*1E
$GNGSA,A,3,78,67,66,82,83,80,79,,,,,,1.16,0.69,0.94*11
$GPGSV,5,1,17,05,39,036,39,10,05,213,10,12,73,083,38,13,13,107,41*7A
$GPGSV,5,2,17,15,40,137,39,18,32,291,34,20,07,033,37,23,46,211,30*71
$GPGSV,5,3,17,24,32,177,29,25,59,341,28,28,05,291,31,29,14,346,26*7F
$GPGSV,5,4,17,36,52,277,,40,86,351,39,41,58,082,34,49,32,274,*71
$GPGSV,5,5,17,50,10,089,40*4E
$GLGSV,3,1,09,66,12,062,41,67,39,116,38,68,26,175,23,78,47,168,24*67
$GLGSV,3,2,09,79,70,295,35,80,18,327,39,81,02,016,26,82,12,334,35*62
$GLGSV,3,3,09,83,10,285,38*52
$GNGLL,0419.72409,S,05539.92659,E,060218.00,A,A*68
$GNRMC,060219.00,A,0419.72411,S,05539.92655,E,0.099,,030625,,,A*77
$GNVTG,,T,,M,0.099,N,0.183,K,A*37
$GNGGA,060219.00,0419.72411,S,05539.92655,E,1,12,0.69,13.5,M,-47.6,M,,*4A
$GNGSA,A,3,25,12,23,15,05,18,29,13,20,,,,1.16,0.69,0.94*1E
$GNGSA,A,3,78,67,66,82,83,80,79,,,,,,1.16,0.69,0.94*11
$GPGSV,5,1,17,05,39,036,39,10,05,213,14,12,73,083,37,13,13,107,41*71
$GPGSV,5,2,17,15,40,137,39,18,32,291,35,20,07,033,38,23,46,211,31*7E
$GPGSV,5,3,17,24,32,177,30,25,59,341,28,28,05,291,34,29,14,346,28*7C
$GPGSV,5,4,17,36,52,277,,40,86,351,39,41,58,082,34,49,32,274,*71
$GPGSV,5,5,17,50,10,089,40*4E
$GLGSV,3,1,09,66,12,062,43,67,39,116,38,68,26,175,22,78,47,168,23*63
$GLGSV,3,2,09,79,70,295,36,80,18,327,38,81,02,016,26,82,12,334,33*66
$GLGSV,3,3,09,83,10,285,38*52
$GNGLL,0419.72411,S,05539.92655,E,060219.00,A,A*6C
$GNRMC,060220.00,A,0419.72410,S,05539.92652,E,0.047,,030625,,,A*78
$GNVTG,,T,,M,0.047,N,0.087,K,A*31
$GNGGA,060220.00,0419.72410,S,05539.92652,E,1,12,0.69,13.5,M,-47.6,M,,*46
$GNGSA,A,3,25,12,23,15,05,18,29,13,20,,,,1.16,0.69,0.94*1E
$GNGSA,A,3,78,67,66,82,83,80,79,,,,,,1.16,0.69,0.94*11
$GPGSV,5,1,17,05,39,036,39,10,05,213,13,12,73,083,37,13,13,107,41*76
$GPGSV,5,2,17,15,40,137,38,18,32,291,35,20,07,033,40,23,46,211,31*70
$GPGSV,5,3,17,24,32,177,30,25,59,341,28,28,05,291,33,29,14,346,30*72
$GPGSV,5,4,17,36,52,277,,40,86,351,39,41,58,082,34,49,32,274,*71
$GPGSV,5,5,17,50,10,089,41*4F
$GLGSV,3,1,09,66,12,062,42,67,39,116,38,68,26,175,23,78,47,168,22*62
$GLGSV,3,2,09,79,70,295,35,80,18,327,38,81,02,016,26,82,12,334,33*65
$GLGSV,3,3,09,83,10,285,38*52
$GNGLL,0419.72410,S,05539.92652,E,060220.00,A,A*60
$GNRMC,060221.00,A,0419.72410,S,05539.92650,E,0.036,,030625,,,A*7D
$GNVTG,,T,,M,0.036,N,0.068,K,A*36
$GNGGA,060221.00,0419.72410,S,05539.92650,E,1,12,0.69,13.4,M,-47.6,M,,*44
$GNGSA,A,3,25,12,23,15,05,18,29,13,20,,,,1.16,0.69,0.94*1E
$GNGSA,A,3,78,67,66,82,83,80,79,,,,,,1.16,0.69,0.94*11
$GPGSV,5,1,17,05,39,036,39,10,05,213,15,12,73,083,37,13,13,107,41*70
$GPGSV,5,2,17,15,40,137,37,18,32,291,35,20,07,033,38,23,46,211,32*73
$GPGSV,5,3,17,24,32,177,30,25,59,341,28,28,05,291,34,29,14,346,30*75
$GPGSV,5,4,17,36,52,277,,40,86,351,39,41,58,082,34,49,32,274,*71
$GPGSV,5,5,17,50,10,089,41*4F
$GLGSV,3,1,09,66,12,062,42,67,39,116,38,68,26,175,22,78,47,168,20*61
$GLGSV,3,2,09,79,70,295,36,80,18,327,38,81,02,016,26,82,12,334,32*67
$GLGSV,3,3,09,83,10,285,38*52
$GNGLL,0419.72410,S,05539.92650,E,060221.00,A,A*63
$GNRMC,060222.00,A,0419.72410,S,05539.92649,E,0.027,,030625,,,A*76
$GNVTG,,T,,M,0.027,N,0.051,K,A*3C
$GNGGA,060222.00,0419.72410,S,05539.92649,E,1,12,0.69,13.4,M,-47.6,M,,*4F
$GNGSA,A,3,25,12,23,15,05,18,29,13,20,,,,1.16,0.69,0.94*1E
$GNGSA,A,3,78,67,66,82,83,80,79,,,,,,1.16,0.69,0.94*11
$GPGSV,5,1,17,05,39,036,39,10,05,213,16,12,73,083,37,13,13,107,41*73
$GPGSV,5,2,17,15,40,137,38,18,32,291,35,20,07,033,38,23,46,211,31*7F
$GPGSV,5,3,17,24,32,177,30,25,59,341,29,28,05,291,34,29,14,346,30*74
$GPGSV,5,4,17,36,52,277,,40,86,351,39,41,58,082,33,49,32,274,*76
$GPGSV,5,5,17,50,10,089,41*4F
$GLGSV,3,1,09,66,12,062,42,67,39,116,38,68,26,175,22,78,47,168,18*6A
$GLGSV,3,2,09,79,70,295,36,80,18,327,38,81,02,016,26,82,12,334,33*66
$GLGSV,3,3,09,83,10,285,38*52
$GNGLL,0419.72410,S,05539.92649,E,060222.00,A,A*68
$GNRMC,060223.00,A,0419.72410,S,05539.92646,E,0.044,,030625,,,A*7D
$GNVTG,,T,,M,0.044,N,0.082,K,A*37
$GNGGA,060223.00,0419.72410,S,05539.92646,E,1,12,0.69,13.3,M,-47.6,M,,*46
$GNGSA,A,3,25,12,23,15,05,18,29,13,20,,,,1.16,0.69,0.94*1E
$GNGSA,A,3,78,67,66,82,83,80,79,,,,,,1.16,0.69,0.94*11
$GPGSV,5,1,17,05,39,036,39,10,05,213,17,12,73,083,38,13,13,107,41*7D
$GPGSV,5,2,17,15,40,137,38,18,32,291,35,20,07,033,38,23,46,211,30*7E
$GPGSV,5,3,17,24,32,177,30,25,59,341,28,28,05,291,34,29,14,346,30*75
$GPGSV,5,4,17,36,52,277,,40,86,351,40,41,58,082,33,49,32,274,*78
$GPGSV,5,5,17,50,10,089,40*4E
$GLGSV,3,1,09,66,12,062,42,67,39,116,38,68,26,175,21,78,47,168,17*66
$GLGSV,3,2,09,79,70,295,36,80,18,327,38,81,02,016,26,82,12,334,33*66
$GLGSV,3,3,09,83,10,285,38*52
$GNGLL,0419.72410,S,05539.92646,E,060223.00,A,A*66
$GNRMC,060224.00,A,0419.72410,S,05539.92643,E,0.057,,030625,,,A*7D
$GNVTG,,T,,M,0.057,N,0.105,K,A*3B
$GNGGA,060224.00,0419.72410,S,05539.92643,E,1,12,0.69,13.3,M,-47.6,M,,*44
$GNGSA,A,3,25,12,23,15,05,18,29,13,20,,,,1.16,0.69,0.94*1E
$GNGSA,A,3,78,67,66,82,83,80,79,,,,,,1.16,0.69,0.94*11
$GPGSV,5,1,17,05,39,036,39,10,05,213,18,12,73,083,37,13,13,107,42*7E
$GPGSV,5,2,17,15,40,137,39,18,32,291,35,20,07,033,39,23,46,211,30*7E
$GPGSV,5,3,17,24,32,177,31,25,59,341,28,28,05,291,33,29,14,346,30*73
$GPGSV,5,4,17,36,52,277,,40,86,351,40,41,58,082,33,49,32,274,*78
$GPGSV,5,5,17,50,10,089,40*4E
$GLGSV,3,1,09,66,12,062,42,67,39,116,38,68,26,175,21,78,47,168,15*64
$GLGSV,3,2,09,79,70,295,36,80,18,327,38,81,02,016,27,82,12,334,34*60
$GLGSV,3,3,09,83,10,285,38*52
$GNGLL,0419.72410,S,05539.92643,E,060224.00,A,A*64
$GNRMC,060225.00,A,0419.72412,S,05539.92641,E,0.063,,030625,,,A*7B
$GNVTG,,T,,M,0.063,N,0.118,K,A*30
$GNGGA,060225.00,0419.72412,S,05539.92641,E,1,12,0.64,13.3,M,-47.6,M,,*48
$GNGSA,A,3,25,12,23,15,05,18,29,13,20,24,,,1.13,0.64,0.93*17
$GNGSA,A,3,78,67,66,82,83,80,79,,,,,,1.13,0.64,0.93*1E
$GPGSV,5,1,17,05,39,036,39,10,05,213,17,12,73,083,37,13,13,107,40*73
$GPGSV,5,2,17,15,40,137,39,18,32,291,34,20,07,033,39,23,46,211,30*7F
$GPGSV,5,3,17,24,32,176,30,25,59,341,28,28,05,291,32,29,14,346,29*7A
$GPGSV,5,4,17,36,52,277,,40,86,351,39,41,58,082,33,49,32,274,*76
$GPGSV,5,5,17,50,10,089,40*4E
$GLGSV,3,1,09,66,12,062,42,67,39,116,38,68,26,175,22,78,47,168,17*65
$GLGSV,3,2,09,79,70,295,36,80,18,327,38,81,02,016,27,82,12,334,33*67
$GLGSV,3,3,09,83,10,285,38*52
$GNGLL,0419.72412,S,05539.92641,E,060225.00,A,A*65
$GNRMC,060226.00,A,0419.72411,S,05539.92639,E,0.025,,030625,,,A*76
$GNVTG,,T,,M,0.025,N,0.047,K,A*39
$GNGGA,060226.00,0419.72411,S,05539.92639,E,1,12,0.64,13.3,M,-47.6,M,,*47
$GNGSA,A,3,25,12,23,15,05,18,29,13,20,24,,,1.13,0.64,0.93*17
$GNGSA,A,3,78,67,66,82,83,80,79,,,,,,1.13,0.64,0.93*1E
$GPGSV,5,1,17,05,39,036,40,10,05,213,16,12,73,083,37,13,13,107,42*7E
$GPGSV,5,2,17,15,40,137,39,18,32,291,34,20,07,033,38,23,46,211,31*7F
$GPGSV,5,3,17,24,32,176,29,25,59,341,28,28,05,291,32,29,14,346,29*72
$GPGSV,5,4,17,36,52,277,,40,86,351,39,41,58,082,36,49,32,274,*73
$GPGSV,5,5,17,50,10,089,40*4E
$GLGSV,3,1,09,66,12,062,42,67,39,116,38,68,26,175,23,78,46,168,18*6A
$GLGSV,3,2,09,79,70,295,36,80,18,327,37,81,02,016,27,82,12,334,34*6F
$GLGSV,3,3,09,83,10,285,38*52
$GNGLL,0419.72411,S,05539.92639,E,060226.00,A,A*6A
$GNRMC,060227.00,A,0419.72412,S,05539.92638,E,0.074,,030625,,,A*71
$GNVTG,,T,,M,0.074,N,0.138,K,A*34
$GNGGA,060227.00,0419.72412,S,05539.92638,E,1,12,0.64,13.2,M,-47.6,M,,*45
$GNGSA,A,3,25,12,23,15,05,18,29,13,20,24,,,1.13,0.64,0.93*17
$GNGSA,A,3,78,67,66,82,83,80,79,,,,,,1.13,0.64,0.93*1E
$GPGSV,5,1,17,05,39,036,40,10,05,213,19,12,73,083,40,13,13,107,42*71
$GPGSV,5,2,17,15,40,137,39,18,32,291,35,20,07,033,41,23,46,211,30*71
$GPGSV,5,3,17,24,32,176,29,25,59,341,32,28,05,291,32,29,14,346,28*78
$GPGSV,5,4,17,36,52,277,,40,86,351,39,41,58,082,36,49,32,274,*73
$GPGSV,5,5,17,50,10,089,42*4C
$GLGSV,3,1,09,66,12,062,39,67,39,116,35,68,26,175,23,78,46,168,20*60
$GLGSV,3,2,09,79,70,295,32,80,18,327,34,81,02,016,28,82,12,334,33*60
$GLGSV,3,3,09,83,10,285,35*5F
$GNGLL,0419.72412,S,05539.92638,E,060227.00,A,A*69
$GNRMC,060228.00,A,0419.72413,S,05539.92637,E,0.094,,030625,,,A*7E
$GNVTG,,T,,M,0.094,N,0.174,K,A*32
$GNGGA,060228.00,0419.72413,S,05539.92637,E,1,12,0.64,13.2,M,-47.6,M,,*44
$GNGSA,A,3,25,12,23,15,05,18,29,13,20,24,,,1.13,0.64,0.93*17
$GNGSA,A,3,78,67,66,82,83,80,79,,,,,,1.13,0.64,0.93*1E
$GPGSV,5,1,17,05,39,036,41,10,05,213,17,12,73,083,39,13,13,107,42*70
$GPGSV,5,2,17,15,40,137,40,18,32,291,35,20,07,033,41,23,46,211,31*7E
$GPGSV,5,3,17,24,32,176,29,25,59,341,32,28,05,291,32,29,14,346,28*78
$GPGSV,5,4,17,36,52,277,,40,86,351,39,41,58,082,36,49,32,274,*73
$GPGSV,5,5,17,50,10,089,42*4C
$GLGSV,3,1,09,66,12,062,40,67,39,116,36,68,26,175,22,78,46,168,22*6E
$GLGSV,3,2,09,79,70,295,33,80,18,327,35,81,02,016,28,82,12,334,35*66
$GLGSV,3,3,09,83,10,285,36*5C
$GNGLL,0419.72413,S,05539.92637,E,060228.00,A,A*68
$GNRMC,060229.00,A,0419.72414,S,05539.92636,E,0.047,,030625,,,A*77
$GNVTG,,T,,M,0.047,N,0.087,K,A*31
$GNGGA,060229.00,0419.72414,S,05539.92636,E,1,12,0.64,13.2,M,-47.6,M,,*43
$GNGSA,A,3,25,12,23,15,05,18,29,13,20,24,,,1.13,0.64,0.93*17
$GNGSA,A,3,78,67,66,82,83,80,79,,,,,,1.13,0.64,0.93*1E
$GPGSV,5,1,17,05,39,036,43,10,05,213,17,12,73,083,41,13,13,107,44*7B
$GPGSV,5,2,17,15,40,137,40,18,32,291,36,20,07,033,43,23,46,211,32*7C
$GPGSV,5,3,17,24,32,176,30,25,59,341,32,28,05,291,32,29,14,346,29*71
$GPGSV,5,4,17,36,52,277,,40,86,351,41,41,58,082,38,49,32,274,*72
$GPGSV,5,5,17,50,10,089,43*4D
$GLGSV,3,1,09,66,12,062,39,67,39,116,36,68,26,175,21,78,46,168,22*63
$GLGSV,3,2,09,79,70,295,33,80,18,327,35,81,02,016,27,82,12,334,35*69
$GLGSV,3,3,09,83,10,285,36*5C
$GNGLL,0419.72414,S,05539.92636,E,060229.00,A,A*6F
$GNRMC,060230.00,A,0419.72415,S,05539.92635,E,0.029,,030625,,,A*75
$GNVTG,,T,,M,0.029,N,0.053,K,A*30
$GNGGA,060230.00,0419.72415,S,05539.92635,E,1,12,0.64,13.1,M,-47.6,M,,*4A
$GNGSA,A,3,25,12,23,15,05,18,29,13,20,24,,,1.13,0.64,0.93*17
$GNGSA,A,3,78,67,66,82,83,80,79,,,,,,1.13,0.64,0.93*1E
$GPGSV,5,1,17,05,39,036,41,10,05,213,,12,73,083,40,13,13,107,43*79
$GPGSV,5,2,17,15,40,137,40,18,32,291,36,20,07,033,42,23,46,211,32*7D
$GPGSV,5,3,17,24,32,176,30,25,59,341,32,28,05,291,32,29,14,346,29*71
$GPGSV,5,4,17,36,52,277,,40,86,351,41,41,58,082,37,49,32,274,*7D
$GPGSV,5,5,17,50,10,089,42*4C
$GLGSV,3,1,09,66,12,062,39,67,39,116,36,68,26,175,20,78,46,168,23*63
$GLGSV,3,2,09,79,70,295,32,80,18,327,35,81,02,016,26,82,12,334,35*69
$GLGSV,3,3,09,83,10,285,36*5C
$GNGLL,0419.72415,S,05539.92635,E,060230.00,A,A*65
$GNRMC,060231.00,A,0419.72417,S,05539.92634,E,0.029,,030625,,,A*77
$GNVTG,,T,,M,0.029,N,0.053,K,A*30
$GNGGA,060231.00,0419.72417,S,05539.92634,E,1,12,0.61,13.0,M,-47.6,M,,*4C
$GNGSA,A,3,25,12,23,15,05,18,29,13,20,28,24,,1.06,0.61,0.86*18
$GNGSA,A,3,78,67,66,82,83,80,79,,,,,,1.06,0.61,0.86*1B
$GPGSV,5,1,17,05,39,036,41,10,05,213,,12,73,083,40,13,13,107,43*79
$GPGSV,5,2,17,15,40,137,41,18,32,291,36,20,07,033,40,23,46,211,32*7E
$GPGSV,5,3,17,24,32,176,30,25,59,341,32,28,05,291,33,29,14,346,29*70
$GPGSV,5,4,17,36,52,277,,40,86,351,40,41,58,082,37,49,32,274,*7C
$GPGSV,5,5,17,50,10,089,42*4C
$GLGSV,3,1,09,66,12,062,39,67,39,116,37,68,26,175,21,78,46,168,22*62
$GLGSV,3,2,09,79,70,295,33,80,18,327,36,81,02,016,25,82,12,334,34*69
$GLGSV,3,3,09,83,10,285,35*5F
$GNGLL,0419.72417,S,05539.92634,E,060231.00,A,A*67
$GNRMC,060232.00,A,0419.72417,S,05539.92635,E,0.018,,030625,,,A*77
$GNVTG,,T,,M,0.018,N,0.033,K,A*34
$GNGGA,060232.00,0419.72417,S,05539.92635,E,1,12,0.61,13.0,M,-47.6,M,,*4E
$GNGSA,A,3,25,12,23,15,05,18,29,13,20,28,24,,1.06,0.61,0.86*18
$GNGSA,A,3,78,67,66,82,83,80,79,,,,,,1.06,0.61,0.86*1B
$GPGSV,5,1,17,05,39,036,42,10,05,213,,12,73,083,40,13,13,107,43*7A
$GPGSV,5,2,17,15,40,137,40,18,32,291,36,20,07,033,41,23,46,211,32*7E
$GPGSV,5,3,17,24,32,176,31,25,59,341,32,28,05,291,32,29,14,346,29*70
$GPGSV,5,4,17,36,52,277,,40,86,351,40,41,58,082,37,49,32,274,*7C
$GPGSV,5,5,17,50,10,089,42*4C
$GLGSV,3,1,09,66,12,062,41,67,39,116,38,68,26,175,23,78,46,168,23*61
$GLGSV,3,2,09,79,70,295,34,80,18,327,37,81,02,016,26,82,12,334,36*6E
$GLGSV,3,3,09,83,10,285,37*5D
$GNGLL,0419.72417,S,05539.92635,E,060232.00,A,A*65
$GNRMC,060233.00,A,0419.72416,S,05539.92634,E,0.016,,030625,,,A*78
$GNVTG,,T,,M,0.016,N,0.029,K,A*31
$GNGGA,060233.00,0419.72416,S,05539.92634,E,1,12,0.61,12.9,M,-47.6,M,,*47
$GNGSA,A,3,25,12,23,15,05,18,29,13,20,28,24,,1.06,0.61,0.86*18
$GNGSA,A,3,78,67,66,82,83,80,79,,,,,,1.06,0.61,0.86*1B
$GPGSV,5,1,17,05,39,036,41,10,05,213,,12,73,083,39,13,13,107,43*77
$GPGSV,5,2,17,15,40,137,40,18,32,291,36,20,07,033,41,23,46,211,31*7D
$GPGSV,5,3,17,24,32,176,31,25,59,341,32,28,05,291,32,29,14,346,29*70
$GPGSV,5,4,17,36,52,277,,40,86,351,40,41,58,082,36,49,32,274,*7D
$GPGSV,5,5,17,50,10,089,42*4C
$GLGSV,3,1,09,66,12,062,40,67,39,116,38,68,26,175,24,78,46,168,23*67
$GLGSV,3,2,09,79,70,295,34,80,18,327,37,81,02,016,28,82,12,334,35*63
$GLGSV,3,3,09,83,10,285,37*5D
$GNGLL,0419.72416,S,05539.92634,E,060233.00,A,A*64
$GNRMC,060234.00,A,0419.72417,S,05539.92633,E,0.033,,030625,,,A*7E
$GNVTG,,T,,M,0.033,N,0.061,K,A*3A
$GNGGA,060234.00,0419.72417,S,05539.92633,E,1,12,0.61,12.9,M,-47.6,M,,*46
$GNGSA,A,3,25,12,23,15,05,18,29,13,20,28,24,,1.06,0.61,0.86*18
$GNGSA,A,3,78,67,66,82,83,80,79,,,,,,1.06,0.61,0.86*1B
$GPGSV,5,1,17,05,39,036,41,10,05,213,,12,73,083,39,13,13,107,43*77
$GPGSV,5,2,17,15,40,137,40,18,32,291,35,20,07,033,41,23,46,211,30*7F
$GPGSV,5,3,17,24,32,176,30,25,59,341,32,28,05,291,32,29,14,346,29*71
$GPGSV,5,4,17,36,52,277,,40,86,351,40,41,58,082,36,49,32,274,*7D
$GPGSV,5,5,17,50,10,089,42*4C
$GLGSV,3,1,09,66,12,062,41,67,39,116,38,68,26,175,25,78,46,168,23*67
$GLGSV,3,2,09,79,70,295,34,80,18,327,38,81,02,016,29,82,12,334,35*6D
$GLGSV,3,3,09,83,10,285,37*5D
$GNGLL,0419.72417,S,05539.92633,E,060234.00,A,A*65
$GNRMC,060235.00,A,0419.72416,S,05539.92632,E,0.031,,030625,,,A*7D
$GNVTG,,T,,M,0.031,N,0.057,K,A*3D
$GNGGA,060235.00,0419.72416,S,05539.92632,E,1,12,0.61,12.9,M,-47.6,M,,*47
$GNGSA,A,3,25,12,23,15,05,18,29,13,20,28,24,,1.06,0.61,0.86*18
$GNGSA,A,3,78,67,66,82,83,80,79,,,,,,1.06,0.61,0.86*1B
$GPGSV,5,1,17,05,39,036,41,10,05,213,,12,73,083,39,13,13,107,43*77
$GPGSV,5,2,17,15,40,137,40,18,32,291,38,20,07,033,41,23,46,211,31*73
$GPGSV,5,3,17,24,32,176,30,25,59,341,31,28,05,291,32,29,14,346,29*72
$GPGSV,5,4,17,36,52,277,,40,86,351,40,41,58,082,35,49,32,274,*7E
$GPGSV,5,5,17,50,10,089,42*4C
$GLGSV,3,1,09,66,12,062,41,67,39,116,38,68,26,175,25,78,46,168,23*67
$GLGSV,3,2,09,79,70,295,34,80,18,327,37,81,02,016,30,82,12,334,36*69
$GLGSV,3,3,09,83,10,285,38*52
$GNGLL,0419.72416,S,05539.92632,E,060235.00,A,A*64
$GNRMC,060236.00,A,0419.72417,S,05539.92632,E,0.011,,030625,,,A*7D
$GNVTG,,T,,M,0.011,N,0.020,K,A*3F
$GNGGA,060236.00,0419.72417,S,05539.92632,E,1,12,0.61,12.9,M,-47.6,M,,*45
$GNGSA,A,3,25,12,23,15,05,18,29,13,20,28,24,,1.06,0.61,0.86*18
$GNGSA,A,3,78,67,66,82,83,80,79,,,,,,1.06,0.61,0.86*1B
$GPGSV,5,1,17,05,39,036,40,10,05,213,22,12,73,083,39,13,13,107,43*76
$GPGSV,5,2,17,15,40,137,40,18,32,291,39,20,07,033,40,23,46,211,34*76
$GPGSV,5,3,17,24,32,176,32,25,59,341,30,28,05,291,33,29,14,346,28*71
$GPGSV,5,4,17,36,52,277,,40,86,351,39,41,58,082,35,49,32,274,*70
$GPGSV,5,5,17,50,10,089,42*4C
$GLGSV,3,1,09,66,12,062,42,67,39,116,37,68,26,175,23,78,46,168,23*6D
$GLGSV,3,2,09,79,70,295,35,80,18,327,36,81,02,016,30,82,12,334,36*69
$GLGSV,3,3,09,83,10,285,38*52
$GNGLL,0419.72417,S,05539.92632,E,060236.00,A,A*66
$GNRMC,060237.00,A,0419.72417,S,05539.92631,E,0.015,,030625,,,A*7B
$GNVTG,,T,,M,0.015,N,0.028,K,A*33
$GNGGA,060237.00,0419.72417,S,05539.92631,E,1,12,0.61,12.9,M,-47.6,M,,*47
$GNGSA,A,3,25,12,23,15,05,18,29,13,20,28,24,,1.06,0.61,0.86*18
$GNGSA,A,3,78,67,66,82,83,80,79,,,,,,1.06,0.61,0.86*1B
$GPGSV,5,1,17,05,39,036,40,10,05,213,23,12,73,083,39,13,13,107,43*77
$GPGSV,5,2,17,15,40,137,39,18,32,291,40,20,07,033,40,23,46,211,34*76
$GPGSV,5,3,17,24,32,176,33,25,59,341,29,28,05,291,32,29,14,346,28*79
$GPGSV,5,4,17,36,52,277,,40,86,351,39,41,58,082,34,49,32,274,*71
$GPGSV,5,5,17,50,10,089,42*4C
$GLGSV,3,1,09,66,12,062,42,67,39,116,37,68,26,175,21,78,46,168,22*6E
$GLGSV,3,2,09,79,70,295,36,80,18,327,37,81,02,016,30,82,12,334,37*6A
$GLGSV,3,3,09,83,10,285,39*53
$GNGLL,0419.72417,S,05539.92631,E,060237.00,A,A*64
$GNRMC,060238.00,A,0419.72418,S,05539.92631,E,0.029,,030625,,,A*74
$GNVTG,,T,,M,0.029,N,0.054,K,A*37
$GNGGA,060238.00,0419.72418,S,05539.92631,E,1,12,0.61,12.9,M,-47.6,M,,*47
$GNGSA,A,3,25,12,23,15,05,18,29,13,20,28,24,,1.06,0.61,0.86*18
$GNGSA,A,3,78,67,66,82,83,80,79,,,,,,1.06,0.61,0.86*1B
$GPGSV,5,1,17,05,39,036,40,10,05,213,25,12,73,083,39,13,13,107,43*71
$GPGSV,5,2,17,15,40,137,39,18,32,291,40,20,07,033,41,23,46,211,34*77
$GPGSV,5,3,17,24,32,176,33,25,59,341,29,28,05,291,33,29,14,346,28*78
$GPGSV,5,4,17,36,52,277,,40,86,351,40,41,58,082,35,49,32,274,*7E
$GPGSV,5,5,17,50,10,089,41*4F
$GLGSV,3,1,09,66,12,062,41,67,39,116,37,68,26,175,18,78,46,168,23*66
$GLGSV,3,2,09,79,70,295,35,80,18,327,36,81,02,016,30,82,12,334,37*68
$GLGSV,3,3,09,83,10,285,39*53
$GNGLL,0419.72418,S,05539.92631,E,060238.00,A,A*64
$GNRMC,060239.00,A,0419.72418,S,05539.92630,E,0.035,,030625,,,A*79
$GNVTG,,T,,M,0.035,N,0.065,K,A*38
$GNGGA,060239.00,0419.72418,S,05539.92630,E,1,12,0.61,12.9,M,-47.6,M,,*47
$GNGSA,A,3,25,12,23,15,05,18,29,13,20,28,24,,1.06,0.61,0.86*18
$GNGSA,A,3,78,67,66,82,83,80,79,,,,,,1.06,0.61,0.86*1B
$GPGSV,5,1,17,05,39,036,40,10,05,213,24,12,73,083,39,13,13,107,43*70
$GPGSV,5,2,17,15,40,137,39,18,32,291,40,20,07,033,41,23,46,211,34*77
$GPGSV,5,3,17,24,32,176,33,25,59,341,30,28,05,291,33,29,14,346,28*70
$GPGSV,5,4,17,36,52,277,,40,86,351,40,41,58,082,35,49,32,274,*7E
$GPGSV,5,5,17,50,10,089,41*4F
$GLGSV,3,1,09,66,12,062,42,67,39,116,36,68,26,175,13,78,46,168,24*68
$GLGSV,3,2,09,79,70,295,36,80,18,327,36,81,02,016,27,82,12,334,36*6C
$GLGSV,3,3,09,83,10,285,38*52
$GNGLL,0419.72418,S,05539.92630,E,060239.00,A,A*64
$GNRMC,060240.00,A,0419.72419,S,05539.92630,E,0.051,,030625,,,A*74
$GNVTG,,T,,M,0.051,N,0.095,K,A*35
$GNGGA,060240.00,0419.72419,S,05539.92630,E,1,12,0.61,12.9,M,-47.6,M,,*48
$GNGSA,A,3,25,12,23,15,05,18,29,13,20,28,24,,1.06,0.61,0.86*18
$GNGSA,A,3,78,67,66,82,83,80,79,,,,,,1.06,0.61,0.86*1B
$GPGSV,5,1,17,05,39,036,40,10,05,213,25,12,73,083,39,13,13,107,43*71
$GPGSV,5,2,17,15,40,137,39,18,32,291,40,20,07,033,41,23,46,211,34*77
$GPGSV,5,3,17,24,32,176,33,25,59,341,29,28,05,291,33,29,14,346,28*78
$GPGSV,5,4,17,36,52,277,,40,86,351,39,41,58,082,35,49,32,274,*70
$GPGSV,5,5,17,50,10,089,41*4F
$GLGSV,3,1,09,66,12,062,42,67,39,116,36,68,26,175,12,78,46,168,23*6E
$GLGSV,3,2,09,79,70,295,35,80,18,327,36,81,02,016,26,82,12,334,36*6E
$GLGSV,3,3,09,83,10,285,38*52
$GNGLL,0419.72419,S,05539.92630,E,060240.00,A,A*6B
$GNRMC,060241.00,A,0419.72420,S,05539.92630,E,0.042,,030625,,,A*7D
$GNVTG,,T,,M,0.042,N,0.078,K,A*34
$GNGGA,060241.00,0419.72420,S,05539.92630,E,1,12,0.61,12.9,M,-47.6,M,,*43
$GNGSA,A,3,25,12,23,15,05,18,29,13,20,28,24,,1.06,0.61,0.86*18
$GNGSA,A,3,78,67,66,82,83,80,79,,,,,,1.06,0.61,0.86*1B
$GPGSV,5,1,17,05,39,035,40,10,05,213,24,12,73,083,39,13,13,107,43*73
$GPGSV,5,2,17,15,40,137,39,18,32,291,40,20,07,033,41,23,46,211,34*77
$GPGSV,5,3,17,24,32,176,33,25,59,341,29,28,05,291,33,29,14,346,28*78
$GPGSV,5,4,17,36,52,277,,40,86,351,39,41,58,082,35,49,32,274,*70
$GPGSV,5,5,17,50,10,089,41*4F
$GLGSV,3,1,09,66,12,062,42,67,39,116,36,68,26,175,12,78,46,168,22*6F
$GLGSV,3,2,09,79,70,295,35,80,18,327,36,81,02,016,27,82,12,334,36*6F
$GLGSV,3,3,09,83,10,285,38*52
$GNGLL,0419.72420,S,05539.92630,E,060241.00,A,A*60
$GNRMC,060242.00,A,0419.72421,S,05539.92630,E,0.058,,030625,,,A*74
$GNVTG,,T,,M,0.058,N,0.108,K,A*39
$GNGGA,060242.00,0419.72421,S,05539.92630,E,1,12,0.61,12.9,M,-47.6,M,,*41
$GNGSA,A,3,25,12,23,15,05,18,29,13,20,28,24,,1.06,0.61,0.86*18
$GNGSA,A,3,78,67,66,82,83,80,79,,,,,,1.06,0.61,0.86*1B
$GPGSV,5,1,17,05,39,035,40,10,05,213,24,12,73,083,39,13,13,107,43*73
$GPGSV,5,2,17,15,40,137,39,18,32,291,40,20,07,033,41,23,46,211,35*76
$GPGSV,5,3,17,24,32,176,33,25,59,341,29,28,05,291,32,29,14,346,28*79
$GPGSV,5,4,17,36,52,277,,40,86,351,39,41,58,082,35,49,32,274,*70
$GPGSV,5,5,17,50,10,089,41*4F
$GLGSV,3,1,09,66,12,062,42,67,39,116,36,68,26,175,13,78,46,168,21*6D
$GLGSV,3,2,09,79,70,295,36,80,18,327,36,81,02,016,28,82,12,334,36*63
$GLGSV,3,3,09,83,10,285,38*52
$GNGLL,0419.72421,S,05539.92630,E,060242.00,A,A*62
$GNRMC,060243.00,A,0419.72422,S,05539.92630,E,0.006,,030625,,,A*7D
$GNVTG,,T,,M,0.006,N,0.012,K,A*38
$GNGGA,060243.00,0419.72422,S,05539.92630,E,1,12,0.61,12.9,M,-47.6,M,,*43
$GNGSA,A,3,25,12,23,15,05,18,29,13,20,28,24,,1.06,0.61,0.86*18
$GNGSA,A,3,78,67,66,82,83,80,79,,,,,,1.06,0.61,0.86*1B
$GPGSV,5,1,17,05,39,035,40,10,05,213,25,12,73,083,39,13,13,107,43*72
$GPGSV,5,2,17,15,40,137,39,18,32,291,40,20,07,033,41,23,46,211,35*76
$GPGSV,5,3,17,24,32,176,33,25,59,341,29,28,05,291,32,29,14,346,28*79
$GPGSV,5,4,17,36,52,277,,40,86,351,39,41,58,082,34,49,32,274,*71
$GPGSV,5,5,17,50,10,089,41*4F
$GLGSV,3,1,09,66,12,062,41,67,39,116,36,68,26,175,15,78,46,168,20*69
$GLGSV,3,2,09,79,70,295,35,80,18,327,36,81,02,016,28,82,12,334,36*60
$GLGSV,3,3,09,83,10,285,38*52
$GNGLL,0419.72422,S,05539.92630,E,060243.00,A,A*60
$GNRMC,060244.00,A,0419.72422,S,05539.92630,E,0.054,,030625,,,A*7D
$GNVTG,,T,,M,0.054,N,0.099,K,A*3C
$GNGGA,060244.00,0419.72422,S,05539.92630,E,1,12,0.61,12.9,M,-47.6,M,,*44
$GNGSA,A,3,25,12,23,15,05,18,29,13,20,28,24,,1.06,0.61,0.86*18
$GNGSA,A,3,78,67,66,82,83,80,79,,,,,,1.06,0.61,0.86*1B
$GPGSV,5,1,17,05,39,035,41,10,05,213,24,12,73,083,37,13,13,107,42*7D
$GPGSV,5,2,17,15,40,137,38,18,32,291,40,20,07,033,41,23,46,211,29*7A
$GPGSV,5,3,17,24,32,176,32,25,59,341,27,28,05,291,30,29,14,346,28*74
$GPGSV,5,4,17,36,52,277,,40,86,351,39,41,58,082,33,49,32,274,*76
$GPGSV,5,5,17,50,10,089,42*4C
$GLGSV,3,1,09,66,12,062,42,67,39,116,37,68,26,175,20,78,46,168,22*6F
$GLGSV,3,2,09,79,70,295,36,80,18,327,36,81,02,016,30,82,12,334,35*69
$GLGSV,3,3,09,83,10,285,38*52
$GNGLL,0419.72422,S,05539.92630,E,060244.00,A,A*67
$GNRMC,060245.00,A,0419.72423,S,05539.92630,E,0.011,,030625,,,A*7C
$GNVTG,,T,,M,0.011,N,0.020,K,A*3F
$GNGGA,060245.00,0419.72423,S,05539.92630,E,1,12,0.61,12.8,M,-47.6,M,,*45
$GNGSA,A,3,25,12,23,15,05,18,29,13,20,28,24,,1.06,0.61,0.86*18
$GNGSA,A,3,78,67,66,82,83,80,79,,,,,,1.06,0.61,0.86*1B
$GPGSV,5,1,17,05,39,035,41,10,05,213,23,12,73,083,38,13,13,107,42*75
$GPGSV,5,2,17,15,40,137,40,18,32,291,39,20,07,033,40,23,46,211,31*73
$GPGSV,5,3,17,24,32,176,31,25,59,341,27,28,05,291,28,29,14,346,29*7F
$GPGSV,5,4,17,36,52,277,,40,86,351,38,41,58,082,35,49,32,274,*71
$GPGSV,5,5,17,50,10,089,41*4F
$GLGSV,3,1,09,66,12,062,42,67,39,116,37,68,26,175,22,78,46,168,23*6C
$GLGSV,3,2,09,79,70,295,35,80,18,327,36,81,02,016,32,82,12,334,34*69
$GLGSV,3,3,09,83,10,285,38*52
$GNGLL,0419.72423,S,05539.92630,E,060245.00,A,A*67
$GNRMC,060246.00,A,0419.72424,S,05539.92631,E,0.049,,030625,,,A*74
$GNVTG,,T,,M,0.049,N,0.092,K,A*3B
$GNGGA,060246.00,0419.72424,S,05539.92631,E,1,12,0.61,12.8,M,-47.6,M,,*40
$GNGSA,A,3,25,12,23,15,05,18,29,13,20,28,24,,1.06,0.61,0.86*18
$GNGSA,A,3,78,67,66,82,83,80,79,,,,,,1.06,0.61,0.86*1B
$GPGSV,5,1,17,05,39,035,40,10,06,213,21,12,73,083,38,13,13,107,42*75
$GPGSV,5,2,17,15,40,137,40,18,32,291,39,20,07,033,40,23,46,211,31*73
$GPGSV,5,3,17,24,32,176,30,25,59,341,26,28,05,291,27,29,14,346,28*71
$GPGSV,5,4,17,36,52,277,,40,86,351,38,41,58,082,36,49,32,274,*72
$GPGSV,5,5,17,50,10,089,41*4F
$GLGSV,3,1,09,66,12,062,42,67,39,116,37,68,26,175,23,78,46,168,24*6A
$GLGSV,3,2,09,79,70,295,35,80,18,327,36,81,02,016,32,82,12,334,34*69
$GLGSV,3,3,09,83,10,285,39*53
$GNGLL,0419.72424,S,05539.92631,E,060246.00,A,A*62
$GNRMC,060247.00,A,0419.72424,S,05539.92631,E,0.020,,030625,,,A*7A
$GNVTG,,T,,M,0.020,N,0.037,K,A*3B
$GNGGA,060247.00,0419.72424,S,05539.92631,E,1,12,0.61,12.8,M,-47.6,M,,*41
$GNGSA,A,3,25,12,23,15,05,18,29,13,20,28,24,,1.06,0.61,0.86*18
$GNGSA,A,3,78,67,66,82,83,80,79,,,,,,1.06,0.61,0.86*1B
$GPGSV,5,1,17,05,39,035,41,10,06,213,19,12,73,083,39,13,13,107,42*7E
$GPGSV,5,2,17,15,40,137,40,18,32,291,39,20,07,033,41,23,46,211,31*72
$GPGSV,5,3,17,24,32,176,30,25,59,341,27,28,05,291,26,29,14,346,28*71
$GPGSV,5,4,17,36,52,277,,40,86,351,38,41,58,082,36,49,32,274,*72
$GPGSV,5,5,17,50,10,089,41*4F
$GLGSV,3,1,09,66,12,062,42,67,39,116,37,68,26,175,22,78,46,168,23*6C
$GLGSV,3,2,09,79,70,295,34,80,18,327,36,81,02,016,31,82,12,334,34*6B
$GLGSV,3,3,09,83,10,285,39*53
$GNGLL,0419.72424,S,05539.92631,E,060247.00,A,A*63
$GNRMC,060248.00,A,0419.72424,S,05539.92633,E,0.046,,030625,,,A*77
$GNVTG,,T,,M,0.046,N,0.085,K,A*32
$GNGGA,060248.00,0419.72424,S,05539.92633,E,1,12,0.61,12.8,M,-47.6,M,,*4C
$GNGSA,A,3,25,12,23,15,05,18,29,13,20,28,24,,1.06,0.61,0.86*18
$GNGSA,A,3,78,67,66,82,83,80,79,,,,,,1.06,0.61,0.86*1B
$GPGSV,5,1,17,05,39,035,40,10,06,213,18,12,73,084,38,13,13,107,42*78
$GPGSV,5,2,17,15,40,137,40,18,32,291,39,20,07,033,41,23,46,211,31*72
$GPGSV,5,3,17,24,32,176,30,25,59,341,27,28,05,291,25,29,14,346,28*72
$GPGSV,5,4,17,36,52,277,,40,86,351,38,41,58,082,36,49,32,274,*72
$GPGSV,5,5,17,50,10,089,41*4F
$GLGSV,3,1,09,66,12,062,42,67,39,116,37,68,26,175,22,78,46,168,22*6D
$GLGSV,3,2,09,79,70,295,34,80,18,327,36,81,02,016,30,82,12,334,35*6B
$GLGSV,3,3,09,83,10,285,39*53
$GNGLL,0419.72424,S,05539.92633,E,060248.00,A,A*6E
$GNRMC,060249.00,A,0419.72423,S,05539.92633,E,0.031,,030625,,,A*71
$GNVTG,,T,,M,0.031,N,0.057,K,A*3D
$GNGGA,060249.00,0419.72423,S,05539.92633,E,1,12,0.61,12.8,M,-47.6,M,,*4A
$GNGSA,A,3,25,12,23,15,05,18,29,13,20,28,24,,1.06,0.61,0.86*18
$GNGSA,A,3,78,67,66,82,83,80,79,,,,,,1.06,0.61,0.86*1B
$GPGSV,5,1,17,05,39,035,40,10,06,213,17,12,73,084,38,13,13,107,43*76
$GPGSV,5,2,17,15,40,137,39,18,32,291,39,20,07,033,41,23,46,211,32*7F
$GPGSV,5,3,17,24,32,176,30,25,59,341,26,28,05,291,28,29,14,346,28*7E
$GPGSV,5,4,17,36,52,277,,40,86,351,38,41,58,082,35,49,32,274,*71
$GPGSV,5,5,17,50,10,089,41*4F
$GLGSV,3,1,09,66,12,062,42,67,39,116,37,68,26,175,21,78,46,168,21*6D
$GLGSV,3,2,09,79,70,295,33,80,18,327,36,81,02,016,30,82,12,334,38*61
$GLGSV,3,3,09,83,10,285,38*52
$GNGLL,0419.72423,S,05539.92633,E,060249.00,A,A*68
$GNRMC,060250.00,A,0419.72423,S,05539.92633,E,0.030,,030625,,,A*78
$GNVTG,,T,,M,0.030,N,0.056,K,A*3D
$GNGGA,060250.00,0419.72423,S,05539.92633,E,1,12,0.61,12.8,M,-47.6,M,,*42
$GNGSA,A,3,25,12,23,15,05,18,29,13,20,28,24,,1.06,0.61,0.86*18
$GNGSA,A,3,78,67,66,82,83,80,79,,,,,,1.06,0.61,0.86*1B
$GPGSV,5,1,17,05,39,035,41,10,06,213,18,12,73,084,36,13,13,107,42*77
$GPGSV,5,2,17,15,40,137,40,18,32,291,39,20,07,033,41,23,46,211,33*70
$GPGSV,5,3,17,24,32,176,30,25,59,341,23,28,05,291,30,29,14,346,29*73
$GPGSV,5,4,17,36,52,277,,40,86,351,38,41,58,082,32,49,32,274,*76
$GPGSV,5,5,17,50,10,089,41*4F
$GLGSV,3,1,09,66,12,062,42,67,39,116,33,68,26,175,19,78,46,168,19*69
$GLGSV,3,2,09,79,70,295,33,80,18,327,37,81,02,016,30,82,12,334,38*60
$GLGSV,3,3,09,83,10,285,39*53
$GNGLL,0419.72423,S,05539.92633,E,060250.00,A,A*60
$GNRMC,060251.00,A,0419.72424,S,05539.92633,E,0.050,,030625,,,A*78
$GNVTG,,T,,M,0.050,N,0.092,K,A*33
$GNGGA,060251.00,0419.72424,S,05539.92633,E,1,12,0.61,12.8,M,-47.6,M,,*44
$GNGSA,A,3,25,12,23,15,05,18,29,13,20,28,24,,1.06,0.61,0.86*18
$GNGSA,A,3,78,67,66,82,83,80,79,,,,,,1.06,0.61,0.86*1B
$GPGSV,5,1,17,05,39,035,41,10,06,213,19,12,73,084,36,13,13,107,41*75
$GPGSV,5,2,17,15,40,136,41,18,32,291,39,20,07,033,40,23,46,211,33*71
$GPGSV,5,3,17,24,32,176,30,25,59,341,24,28,05,291,30,29,14,346,28*75
$GPGSV,5,4,17,36,52,277,,40,86,351,38,41,58,082,32,49,32,274,*76
$GPGSV,5,5,17,50,10,089,41*4F
$GLGSV,3,1,09,66,12,062,42,67,39,116,32,68,26,175,17,78,46,168,19*66
$GLGSV,3,2,09,79,70,295,34,80,18,327,37,81,02,016,31,82,12,334,37*69
$GLGSV,3,3,09,83,10,285,39*53
$GNGLL,0419.72424,S,05539.92633,E,060251.00,A,A*66
$GNRMC,060252.00,A,0419.72425,S,05539.92633,E,0.009,,030625,,,A*76
$GNVTG,,T,,M,0.009,N,0.017,K,A*32
$GNGGA,060252.00,0419.72425,S,05539.92633,E,1,12,0.61,12.9,M,-47.6,M,,*47
$GNGSA,A,3,25,12,23,15,05,18,29,13,20,28,24,,1.06,0.61,0.86*18
$GNGSA,A,3,78,67,66,82,83,80,79,,,,,,1.06,0.61,0.86*1B
$GPGSV,5,1,17,05,39,035,41,10,06,213,20,12,73,084,35,13,13,107,42*7F
$GPGSV,5,2,17,15,40,136,43,18,32,291,39,20,07,033,39,23,46,211,32*7C
$GPGSV,5,3,17,24,32,176,31,25,59,341,25,28,05,291,29,29,14,346,27*72
$GPGSV,5,4,17,36,52,277,,40,86,351,39,41,58,082,32,49,32,274,*77
$GPGSV,5,5,17,50,10,089,41*4F
$GLGSV,3,1,09,66,12,062,42,67,39,116,34,68,26,175,18,78,46,168,21*64
$GLGSV,3,2,09,79,70,295,34,80,18,327,37,81,02,016,31,82,12,334,36*68
$GLGSV,3,3,09,83,10,285,39*53
$GNGLL,0419.72425,S,05539.92633,E,060252.00,A,A*64
$GNRMC,060253.00,A,0419.72426,S,05539.92633,E,0.013,,030625,,,A*7F
$GNVTG,,T,,M,0.013,N,0.024,K,A*39
$GNGGA,060253.00,0419.72426,S,05539.92633,E,1,12,0.61,12.9,M,-47.6,M,,*45
$GNGSA,A,3,25,12,23,15,05,18,29,13,20,28,24,,1.06,0.61,0.86*18
$GNGSA,A,3,78,67,66,82,83,80,79,,,,,,1.06,0.61,0.86*1B
$GPGSV,5,1,17,05,39,035,40,10,06,213,21,12,73,084,35,13,13,107,42*7F
$GPGSV,5,2,17,15,40,136,42,18,32,291,39,20,07,033,40,23,46,211,32*73
$GPGSV,5,3,17,24,32,176,32,25,59,341,24,28,05,291,29,29,14,346,25*72
$GPGSV,5,4,17,36,52,277,,40,86,351,39,41,58,082,32,49,32,274,*77
$GPGSV,5,5,17,50,10,089,41*4F
$GLGSV,3,1,09,66,12,062,42,67,39,116,35,68,26,175,21,78,46,168,22*6C
$GLGSV,3,2,09,79,70,295,34,80,18,327,37,81,02,016,32,82,12,334,36*6B
$GLGSV,3,3,09,83,10,285,39*53
$GNGLL,0419.72426,S,05539.92633,E,060253.00,A,A*66
$GNRMC,060254.00,A,0419.72426,S,05539.92633,E,0.032,,030625,,,A*7B
$GNVTG,,T,,M,0.032,N,0.059,K,A*30
$GNGGA,060254.00,0419.72426,S,05539.92633,E,1,12,0.61,12.9,M,-47.6,M,,*42
$GNGSA,A,3,25,12,23,15,05,18,29,13,20,28,24,,1.06,0.61,0.86*18
$GNGSA,A,3,78,67,66,82,83,80,79,,,,,,1.06,0.61,0.86*1B
$GPGSV,5,1,17,05,39,035,39,10,06,213,22,12,73,084,36,13,13,107,42*71
$GPGSV,5,2,17,15,40,136,42,18,32,292,39,20,07,033,40,23,46,211,34*76
$GPGSV,5,3,17,24,32,176,32,25,59,341,23,28,05,291,30,29,14,346,25*7D
$GPGSV,5,4,17,36,52,277,,40,86,351,40,41,58,082,32,49,32,274,*79
$GPGSV,5,5,17,50,10,089,41*4F
$GLGSV,3,1,09,66,12,062,41,67,39,116,36,68,26,175,21,78,46,168,22*6C
$GLGSV,3,2,09,79,70,295,33,80,18,327,36,81,02,016,33,82,12,334,35*6F
$GLGSV,3,3,09,83,10,285,38*52
$GNGLL,0419.72426,S,05539.92633,E,060254.00,A,A*61
$GNRMC,060255.00,A,0419.72427,S,05539.92633,E,0.033,,030625,,,A*7A
$GNVTG,,T,,M,0.033,N,0.061,K,A*3A
$GNGGA,060255.00,0419.72427,S,05539.92633,E,1,12,0.61,13.0,M,-47.6,M,,*4A
$GNGSA,A,3,25,12,23,15,05,18,29,13,20,28,24,,1.06,0.61,0.86*18
$GNGSA,A,3,78,67,66,82,83,80,79,,,,,,1.06,0.61,0.86*1B
$GPGSV,5,1,17,05,39,035,39,10,06,213,23,12,73,084,37,13,13,107,43*70
$GPGSV,5,2,17,15,40,136,42,18,32,292,39,20,07,033,40,23,46,211,34*76
$GPGSV,5,3,17,24,32,176,33,25,59,341,22,28,05,291,31,29,14,346,24*7D
$GPGSV,5,4,17,36,52,277,,40,86,351,40,41,58,082,32,49,32,274,*79
$GPGSV,5,5,17,50,10,089,41*4F
$GLGSV,3,1,09,66,12,062,42,67,39,116,36,68,26,175,21,78,46,168,22*6F
$GLGSV,3,2,09,79,70,295,32,80,18,327,37,81,02,016,34,82,12,334,35*68
$GLGSV,3,3,09,83,10,285,39*53
$GNGLL,0419.72427,S,05539.92633,E,060255.00,A,A*61
$GNRMC,060256.00,A,0419.72428,S,05539.92633,E,0.025,,030625,,,A*71
$GNVTG,,T,,M,0.025,N,0.046,K,A*38
$GNGGA,060256.00,0419.72428,S,05539.92633,E,1,12,0.61,13.0,M,-47.6,M,,*46
$GNGSA,A,3,25,12,23,15,05,18,29,13,20,28,24,,1.06,0.61,0.86*18
$GNGSA,A,3,78,67,66,82,83,80,79,,,,,,1.06,0.61,0.86*1B
$GPGSV,5,1,17,05,39,035,39,10,06,213,22,12,73,084,38,13,13,107,43*7E
$GPGSV,5,2,17,15,40,136,39,18,32,292,39,20,07,033,40,23,46,211,33*7D
$GPGSV,5,3,17,24,32,176,33,25,59,341,27,28,05,291,32,29,14,346,24*7B
$GPGSV,5,4,17,36,52,277,,40,86,351,40,41,58,082,33,49,32,274,*78
$GPGSV,5,5,17,50,10,089,41*4F
$GLGSV,3,1,09,66,12,062,41,67,39,116,37,68,26,175,20,78,46,168,22*6C
$GLGSV,3,2,09,79,70,295,32,80,18,327,36,81,02,016,34,82,12,334,34*68
$GLGSV,3,3,09,83,10,285,39*53
$GNGLL,0419.72428,S,05539.92633,E,060256.00,A,A*6D
$GNRMC,060257.00,A,0419.72427,S,05539.92633,E,0.009,,030625,,,A*71
$GNVTG,,T,,M,0.009,N,0.016,K,A*33
$GNGGA,060257.00,0419.72427,S,05539.92633,E,1,12,0.61,13.0,M,-47.6,M,,*48
$GNGSA,A,3,25,12,23,15,05,18,29,13,20,28,24,,1.06,0.61,0.86*18
$GNGSA,A,3,78,67,66,82,83,80,79,,,,,,1.06,0.61,0.86*1B
$GPGSV,5,1,17,05,39,035,41,10,06,213,20,12,73,084,39,13,13,107,43*72
$GPGSV,5,2,17,15,40,136,40,18,32,292,35,20,07,033,39,23,46,211,32*70
$GPGSV,5,3,17,24,32,176,31,25,59,341,32,28,05,291,31,29,14,346,26*7C
$GPGSV,5,4,17,36,52,277,,40,86,351,39,41,58,082,36,49,32,274,*73
$GPGSV,5,5,17,50,10,089,42*4C
$GLGSV,3,1,09,66,12,062,39,67,39,116,37,68,26,175,23,78,46,168,23*61
$GLGSV,3,2,09,79,70,295,32,80,18,327,36,81,02,016,33,82,12,334,35*6E
$GLGSV,3,3,09,83,10,285,38*52
$GNGLL,0419.72427,S,05539.92633,E,060257.00,A,A*63
$GNRMC,060258.00,A,0419.72428,S,05539.92632,E,0.038,,030625,,,A*72
$GNVTG,,T,,M,0.038,N,0.071,K,A*30
$GNGGA,060258.00,0419.72428,S,05539.92632,E,1,12,0.61,13.0,M,-47.6,M,,*49
$GNGSA,A,3,25,12,23,15,05,18,29,13,20,28,24,,1.06,0.61,0.86*18
$GNGSA,A,3,78,67,66,82,83,80,79,,,,,,1.06,0.61,0.86*1B
$GPGSV,5,1,17,05,39,035,41,10,06,213,18,12,73,084,39,13,13,107,42*78
$GPGSV,5,2,17,15,40,136,40,18,32,292,35,20,07,033,39,23,47,211,32*71
$GPGSV,5,3,17,24,32,176,31,25,59,341,32,28,05,291,29,29,14,346,25*76
$GPGSV,5,4,17,36,52,277,,40,86,351,39,41,58,082,36,49,32,274,*73
$GPGSV,5,5,17,50,10,089,42*4C
$GLGSV,3,1,09,66,12,062,40,67,39,116,37,68,26,175,24,78,46,168,22*69
$GLGSV,3,2,09,79,70,295,32,80,18,327,36,81,02,016,33,82,12,334,36*6D
$GLGSV,3,3,09,83,10,285,38*52
$GNGLL,0419.72428,S,05539.92632,E,060258.00,A,A*62
$GNRMC,060259.00,A,0419.72428,S,05539.92632,E,0.043,,030625,,,A*7F
$GNVTG,,T,,M,0.043,N,0.080,K,A*32
$GNGGA,060259.00,0419.72428,S,05539.92632,E,1,12,0.61,12.9,M,-47.6,M,,*40
$GNGSA,A,3,25,12,23,15,05,18,29,13,20,28,24,,1.06,0.61,0.86*18
$GNGSA,A,3,78,67,66,82,83,80,79,,,,,,1.06,0.61,0.86*1B
$GPGSV,5,1,17,05,39,035,40,10,06,213,16,12,73,084,39,13,13,107,42*77
$GPGSV,5,2,17,15,40,136,40,18,32,292,36,20,07,033,40,23,47,211,31*7F
$GPGSV,5,3,17,24,32,176,31,25,59,341,32,28,05,291,28,29,14,346,26*74
$GPGSV,5,4,17,36,52,277,,40,86,351,39,41,58,082,37,49,32,274,*72
$GPGSV,5,5,17,50,10,089,42*4C
$GLGSV,3,1,09,66,12,062,40,67,39,116,37,68,26,175,25,78,46,168,22*68
$GLGSV,3,2,09,79,70,295,33,80,18,327,36,81,02,016,32,82,12,334,36*6D
$GLGSV,3,3,09,83,10,285,38*52
$GNGLL,0419.72428,S,05539.92632,E,060259.00,A,A*63
$GNRMC,060300.00,A,0419.72428,S,05539.92632,E,0.048,,030625,,,A*79
$GNVTG,,T,,M,0.048,N,0.088,K,A*31
$GNGGA,060300.00,0419.72428,S,05539.92632,E,1,12,0.61,12.9,M,-47.6,M,,*4D
$GNGSA,A,3,25,12,23,15,05,18,29,13,20,28,24,,1.06,0.61,0.86*18
$GNGSA,A,3,78,67,66,82,83,80,79,,,,,,1.06,0.61,0.86*1B
$GPGSV,5,1,17,05,39,035,40,10,06,213,13,12,73,084,40,13,13,107,42*7C
$GPGSV,5,2,17,15,40,136,40,18,32,292,36,20,07,033,40,23,47,211,31*7F
$GPGSV,5,3,17,24,32,176,31,25,60,341,32,28,05,291,28,29,14,346,26*7E
$GPGSV,5,4,17,36,52,277,,40,86,351,38,41,58,082,37,49,32,274,*73
$GPGSV,5,5,17,50,10,089,42*4C
$GLGSV,3,1,09,66,12,062,40,67,39,116,37,68,26,175,25,78,46,168,22*68
$GLGSV,3,2,09,79,70,295,34,80,18,327,37,81,02,016,31,82,12,334,36*68
$GLGSV,3,3,09,83,10,285,38*52
$GNGLL,0419.72428,S,05539.92632,E,060300.00,A,A*6E
$GNRMC,060301.00,A,0419.72429,S,05539.92632,E,0.061,,030625,,,A*72
$GNVTG,,T,,M,0.061,N,0.113,K,A*39
$GNGGA,060301.00,0419.72429,S,05539.92632,E,1,12,0.61,12.9,M,-47.6,M,,*4D
$GNGSA,A,3,25,12,23,15,05,18,29,13,20,28,24,,1.06,0.61,0.86*18
$GNGSA,A,3,78,67,66,82,83,80,79,,,,,,1.06,0.61,0.86*1B
$GPGSV,5,1,17,05,39,035,40,10,06,213,14,12,73,084,39,13,13,107,42*75
$GPGSV,5,2,17,15,40,136,40,18,32,292,36,20,07,033,40,23,47,211,32*7C
$GPGSV,5,3,17,24,32,176,30,25,60,341,31,28,05,291,28,29,14,346,26*7C
$GPGSV,5,4,17,36,52,277,,40,86,351,39,41,58,082,37,49,32,274,*72
$GPGSV,5,5,17,50,10,089,42*4C
$GLGSV,3,1,09,66,12,062,40,67,39,116,37,68,26,175,25,78,46,168,22*68
$GLGSV,3,2,09,79,70,295,33,80,18,327,36,81,02,016,31,82,12,334,35*6D
$GLGSV,3,3,09,83,10,285,38*52
$GNGLL,0419.72429,S,05539.92632,E,060301.00,A,A*6E
$GNRMC,060302.00,A,0419.72429,S,05539.92632,E,0.044,,030625,,,A*76
$GNVTG,,T,,M,0.044,N,0.081,K,A*34
$GNGGA,060302.00,0419.72429,S,05539.92632,E,1,12,0.61,12.9,M,-47.6,M,,*4E
$GNGSA,A,3,25,12,23,15,05,18,29,13,20,28,24,,1.06,0.61,0.86*18
$GNGSA,A,3,78,67,66,82,83,80,79,,,,,,1.06,0.61,0.86*1B
$GPGSV,5,1,17,05,39,035,40,10,06,213,16,12,73,084,39,13,13,107,42*77
$GPGSV,5,2,17,15,40,136,40,18,32,292,35,20,07,033,39,23,47,211,31*72
$GPGSV,5,3,17,24,32,176,30,25,60,341,31,28,05,291,26,29,14,346,25*71
$GPGSV,5,4,17,36,52,277,,40,86,351,39,41,58,082,36,49,32,274,*73
$GPGSV,5,5,17,50,10,089,42*4C
$GLGSV,3,1,09,66,12,062,38,67,39,116,35,68,26,175,24,78,46,168,21*67
$GLGSV,3,2,09,79,70,295,32,80,18,327,35,81,02,016,30,82,12,334,35*6E
$GLGSV,3,3,09,83,10,285,37*5D
$GNGLL,0419.72429,S,05539.92632,E,060302.00,A,A*6D
$GNRMC,060303.00,A,0419.72430,S,05539.92632,E,0.040,,030625,,,A*7B
$GNVTG,,T,,M,0.040,N,0.075,K,A*3B
$GNGGA,060303.00,0419.72430,S,05539.92632,E,1,12,0.61,12.9,M,-47.6,M,,*47
$GNGSA,A,3,25,12,23,15,05,18,29,13,20,28,24,,1.06,0.61,0.86*18
$GNGSA,A,3,78,67,66,82,83,80,79,,,,,,1.06,0.61,0.86*1B
$GPGSV,5,1,17,05,39,035,39,10,06,213,15,12,73,084,39,13,13,107,42*7A
$GPGSV,5,2,17,15,40,136,40,18,32,292,35,20,07,033,38,23,47,211,31*73
$GPGSV,5,3,17,24,32,176,30,25,60,341,31,28,05,291,26,29,14,346,25*71
$GPGSV,5,4,17,36,52,277,,40,86,351,39,41,58,082,36,49,32,274,*73
$GPGSV,5,5,17,50,10,089,41*4F
$GLGSV,3,1,09,66,12,062,38,67,39,116,35,68,26,175,23,78,46,168,20*61
$GLGSV,3,2,09,79,70,295,32,80,18,327,34,81,02,016,30,82,12,334,34*6E
$GLGSV,3,3,09,83,10,285,36*5C
$GNGLL,0419.72430,S,05539.92632,E,060303.00,A,A*64
$GNRMC,060304.00,A,0419.72432,S,05539.92631,E,0.040,,030625,,,A*7D
$GNVTG,,T,,M,0.040,N,0.074,K,A*3A
$GNGGA,060304.00,0419.72432,S,05539.92631,E,1,12,0.61,12.9,M,-47.6,M,,*41
$GNGSA,A,3,25,12,23,15,05,18,29,13,20,28,24,,1.06,0.61,0.86*18
$GNGSA,A,3,78,67,66,82,83,80,79,,,,,,1.06,0.61,0.86*1B
$GPGSV,5,1,17,05,39,035,39,10,06,213,14,12,73,084,38,13,13,107,42*7A
$GPGSV,5,2,17,15,40,136,41,18,32,292,36,20,07,033,39,23,47,211,32*73
$GPGSV,5,3,17,24,32,176,30,25,60,341,31,28,05,291,28,29,14,347,26*7D
$GPGSV,5,4,17,36,52,277,,40,86,351,39,41,58,082,36,49,32,274,*73
$GPGSV,5,5,17,50,10,089,41*4F
$GLGSV,3,1,09,66,12,062,38,67,39,116,34,68,26,175,22,78,46,168,19*6B
$GLGSV,3,2,09,79,70,295,32,80,18,327,35,81,02,016,29,82,12,334,33*60
$GLGSV,3,3,09,83,10,285,36*5C
$GNGLL,0419.72432,S,05539.92631,E,060304.00,A,A*62
$GNRMC,060305.00,A,0419.72433,S,05539.92631,E,0.047,,030625,,,A*7A
$GNVTG,,T,,M,0.047,N,0.088,K,A*3E
$GNGGA,060305.00,0419.72433,S,05539.92631,E,1,12,0.61,12.9,M,-47.6,M,,*41
$GNGSA,A,3,25,12,23,15,05,18,29,13,20,28,24,,1.06,0.61,0.86*18
$GNGSA,A,3,78,67,66,82,83,80,79,,,,,,1.06,0.61,0.86*1B
$GPGSV,5,1,17,05,39,035,39,10,06,213,13,12,73,084,39,13,13,107,42*7C
$GPGSV,5,2,17,15,40,136,40,18,32,292,36,20,07,033,39,23,47,211,32*72
$GPGSV,5,3,17,24,32,176,30,25,60,341,30,28,05,291,29,29,14,347,28*73
$GPGSV,5,4,17,36,52,277,,40,86,351,39,41,58,082,35,49,32,274,*70
$GPGSV,5,5,17,50,10,089,42*4C
$GLGSV,3,1,09,66,12,062,41,67,39,116,36,68,26,175,23,78,46,168,19*66
$GLGSV,3,2,09,79,70,295,32,80,18,327,36,81,02,016,30,82,12,334,34*6C
$GLGSV,3,3,09,83,10,285,37*5D
$GNGLL,0419.72433,S,05539.92631,E,060305.00,A,A*62
$GNRMC,060306.00,A,0419.72434,S,05539.92631,E,0.033,,030625,,,A*7D
$GNVTG,,T,,M,0.033,N,0.061,K,A*3A
$GNGGA,060306.00,0419.72434,S,05539.92631,E,1,12,0.61,12.8,M,-47.6,M,,*44
$GNGSA,A,3,25,12,23,15,05,18,29,13,20,28,24,,1.06,0.61,0.86*18
$GNGSA,A,3,78,67,66,82,83,80,79,,,,,,1.06,0.61,0.86*1B
$GPGSV,5,1,17,05,39,035,39,10,06,213,,12,73,084,38,13,13,107,42*7F
$GPGSV,5,2,17,15,40,136,40,18,32,292,36,20,07,033,39,23,47,211,32*72
$GPGSV,5,3,17,24,32,176,30,25,60,341,30,28,05,291,29,29,14,347,28*73
$GPGSV,5,4,17,36,52,277,,40,86,351,39,41,58,082,35,49,32,274,*70
$GPGSV,5,5,17,50,10,089,42*4C
$GLGSV,3,1,09,66,12,062,40,67,39,116,36,68,26,175,25,78,46,168,17*6F
$GLGSV,3,2,09,79,70,295,33,80,18,327,37,81,02,016,30,82,12,334,35*6D
$GLGSV,3,3,09,83,10,285,37*5D
$GNGLL,0419.72434,S,05539.92631,E,060306.00,A,A*66
$GNRMC,060307.00,A,0419.72433,S,05539.92631,E,0.025,,030625,,,A*7C
$GNVTG,,T,,M,0.025,N,0.046,K,A*38
$GNGGA,060307.00,0419.72433,S,05539.92631,E,1,12,0.61,12.8,M,-47.6,M,,*42
$GNGSA,A,3,25,12,23,15,05,18,29,13,20,28,24,,1.06,0.61,0.86*18
$GNGSA,A,3,78,67,66,82,83,80,79,,,,,,1.06,0.61,0.86*1B
$GPGSV,5,1,17,05,39,035,39,10,06,213,,12,73,084,38,13,13,107,43*7E
$GPGSV,5,2,17,15,40,136,40,18,32,292,39,20,07,033,39,23,47,211,32*7D
$GPGSV,5,3,17,24,32,176,30,25,60,341,30,28,05,291,29,29,14,347,27*7C
$GPGSV,5,4,17,36,52,277,,40,86,351,38,41,58,082,36,49,32,274,*72
$GPGSV,5,5,17,50,10,089,41*4F
$GLGSV,3,1,09,66,12,062,40,67,39,116,37,68,26,175,24,78,46,168,18*60
$GLGSV,3,2,09,79,70,295,33,80,18,327,37,81,02,017,30,82,12,334,35*6C
$GLGSV,3,3,09,83,10,285,38*52
$GNGLL,0419.72433,S,05539.92631,E,060307.00,A,A*60
$GNRMC,060308.00,A,0419.72433,S,05539.92633,E,0.016,,030625,,,A*71
$GNVTG,,T,,M,0.016,N,0.030,K,A*39
$GNGGA,060308.00,0419.72433,S,05539.92633,E,1,12,0.61,12.7,M,-47.6,M,,*40
$GNGSA,A,3,25,12,23,15,05,18,29,13,20,28,24,,1.06,0.61,0.86*18
$GNGSA,A,3,78,67,66,82,83,80,79,,,,,,1.06,0.61,0.86*1B
$GPGSV,5,1,17,05,39,035,40,10,06,213,,12,73,084,37,13,13,107,42*7E
$GPGSV,5,2,17,15,40,136,40,18,32,292,38,20,07,033,40,23,47,211,34*74
$GPGSV,5,3,17,24,32,176,30,25,60,341,30,28,05,291,27,29,14,347,27*72
$GPGSV,5,4,17,36,52,277,,40,86,351,38,41,58,082,35,49,32,274,*71
$GPGSV,5,5,17,50,10,089,40*4E
$GLGSV,3,1,09,66,12,062,42,67,39,116,36,68,26,175,21,78,46,168,21*6C
$GLGSV,3,2,09,79,70,295,34,80,18,327,36,81,02,017,30,82,12,334,36*69
$GLGSV,3,3,09,83,10,285,38*52
$GNGLL,0419.72433,S,05539.92633,E,060308.00,A,A*6D
$GNRMC,060309.00,A,0419.72434,S,05539.92632,E,0.051,,030625,,,A*75
$GNVTG,,T,,M,0.051,N,0.094,K,A*34
$GNGGA,060309.00,0419.72434,S,05539.92632,E,1,12,0.61,12.7,M,-47.6,M,,*47
$GNGSA,A,3,25,12,23,15,05,18,29,13,20,28,24,,1.06,0.61,0.86*18
$GNGSA,A,3,78,67,66,82,83,80,79,,,,,,1.06,0.61,0.86*1B
$GPGSV,5,1,17,05,39,035,40,10,06,213,22,12,73,084,38,13,13,107,43*70
$GPGSV,5,2,17,15,40,136,40,18,32,292,38,20,07,033,41,23,47,211,34*75
$GPGSV,5,3,17,24,32,176,30,25,60,341,30,28,05,291,28,29,14,347,27*7D
$GPGSV,5,4,17,36,52,277,,40,86,351,39,41,58,082,34,49,32,274,*71
$GPGSV,5,5,17,50,10,089,41*4F
$GLGSV,3,1,09,66,12,062,42,67,39,116,35,68,26,175,20,78,46,168,22*6D
$GLGSV,3,2,09,79,70,295,34,80,18,327,37,81,02,017,30,82,12,334,36*68
$GLGSV,3,3,09,83,10,285,37*5D
$GNGLL,0419.72434,S,05539.92632,E,060309.00,A,A*6A
$GNRMC,060310.00,A,0419.72434,S,05539.92632,E,0.026,,030625,,,A*7D
$GNVTG,,T,,M,0.026,N,0.049,K,A*34
$GNGGA,060310.00,0419.72434,S,05539.92632,E,1,12,0.61,12.7,M,-47.6,M,,*4F
$GNGSA,A,3,25,12,23,15,05,18,29,13,20,28,24,,1.06,0.61,0.86*18
$GNGSA,A,3,78,67,66,82,83,80,79,,,,,,1.06,0.61,0.86*1B
$GPGSV,5,1,17,05,39,035,38,10,06,213,21,12,73,084,38,13,13,107,42*7D
$GPGSV,5,2,17,15,40,136,39,18,32,292,38,20,07,033,43,23,47,211,32*7F
$GPGSV,5,3,17,24,32,176,30,25,60,341,29,28,05,291,35,29,14,347,26*78
$GPGSV,5,4,17,36,52,277,,40,86,351,39,41,58,082,35,49,32,274,*70
$GPGSV,5,5,17,50,10,089,41*4F
$GLGSV,3,1,09,66,12,062,40,67,39,116,36,68,26,175,19,78,46,168,23*67
$GLGSV,3,2,09,79,70,295,33,80,18,327,37,81,02,017,30,82,12,334,33*6A
$GLGSV,3,3,09,83,10,285,38*52
$GNGLL,0419.72434,S,05539.92632,E,060310.00,A,A*62
$GNRMC,060311.00,A,0419.72435,S,05539.92631,E,0.056,,030625,,,A*79
$GNVTG,,T,,M,0.056,N,0.104,K,A*3B
$GNGGA,060311.00,0419.72435,S,05539.92631,E,1,12,0.61,12.7,M,-47.6,M,,*4C
$GNGSA,A,3,25,12,23,15,05,18,29,13,20,28,24,,1.06,0.61,0.86*18
$GNGSA,A,3,78,67,66,82,83,80,79,,,,,,1.06,0.61,0.86*1B
$GPGSV,5,1,17,05,39,035,40,10,06,213,19,12,73,084,38,13,13,107,42*79
$GPGSV,5,2,17,15,40,136,39,18,32,292,38,20,07,033,41,23,47,211,32*7D
$GPGSV,5,3,17,24,32,176,30,25,60,341,30,28,05,291,35,29,14,347,27*71
$GPGSV,5,4,17,36,52,277,,40,86,351,39,41,58,082,36,49,32,274,*73
$GPGSV,5,5,17,50,10,089,42*4C
$GLGSV,3,1,09,66,12,062,40,67,39,116,36,68,26,175,19,78,46,168,23*67
$GLGSV,3,2,09,79,70,295,33,80,18,327,38,81,02,017,30,82,12,334,33*65
$GLGSV,3,3,09,83,10,285,38*52
$GNGLL,0419.72435,S,05539.92631,E,060311.00,A,A*61
$GNRMC,060312.00,A,0419.72436,S,05539.92631,E,0.058,,030625,,,A*77
$GNVTG,,T,,M,0.058,N,0.108,K,A*39
$GNGGA,060312.00,0419.72436,S,05539.92631,E,1,12,0.61,12.6,M,-47.6,M,,*4D
$GNGSA,A,3,25,12,23,15,05,18,29,13,20,28,24,,1.06,0.61,0.86*18
$GNGSA,A,3,78,67,66,82,83,80,79,,,,,,1.06,0.61,0.86*1B
$GPGSV,5,1,17,05,39,035,40,10,06,213,19,12,73,084,38,13,13,107,42*79
$GPGSV,5,2,17,15,40,136,39,18,32,292,37,20,07,033,39,23,47,211,31*7E
$GPGSV,5,3,17,24,32,176,30,25,60,341,33,28,05,291,35,29,14,347,28*7D
$GPGSV,5,4,17,36,52,277,,40,86,351,39,41,58,082,36,49,32,274,*73
$GPGSV,5,5,17,50,10,089,41*4F
$GLGSV,3,1,09,66,12,062,41,67,39,116,37,68,26,175,20,78,46,168,23*6D
$GLGSV,3,2,09,79,70,295,33,80,18,327,38,81,02,017,31,82,12,334,33*64
$GLGSV,3,3,09,83,10,285,38*52
$GNGLL,0419.72436,S,05539.92631,E,060312.00,A,A*61
$GNRMC,060313.00,A,0419.72437,S,05539.92630,E,0.065,,030625,,,A*78
$GNVTG,,T,,M,0.065,N,0.120,K,A*3D
$GNGGA,060313.00,0419.72437,S,05539.92630,E,1,12,0.61,12.6,M,-47.6,M,,*4C
$GNGSA,A,3,25,12,23,15,05,18,29,13,20,28,24,,1.06,0.61,0.86*18
$GNGSA,A,3,78,67,66,82,83,80,79,,,,,,1.06,0.61,0.86*1B
$GPGSV,5,1,17,05,39,035,41,10,06,213,19,12,73,084,38,13,13,107,43*79
$GPGSV,5,2,17,15,40,136,39,18,32,292,37,20,07,033,39,23,47,211,31*7E
$GPGSV,5,3,17,24,32,176,30,25,60,341,33,28,05,291,34,29,14,347,28*7C
$GPGSV,5,4,17,36,52,277,,40,86,351,39,41,58,082,35,49,32,274,*70
$GPGSV,5,5,17,50,10,089,41*4F
$GLGSV,3,1,09,66,12,062,41,67,39,116,37,68,26,175,19,78,46,168,22*66
$GLGSV,3,2,09,79,70,295,34,80,18,327,37,81,02,017,31,82,12,334,33*6C
$GLGSV,3,3,09,83,10,285,38*52
$GNGLL,0419.72437,S,05539.92630,E,060313.00,A,A*60
$GNRMC,060314.00,A,0419.72438,S,05539.92629,E,0.033,,030625,,,A*7B
$GNVTG,,T,,M,0.033,N,0.060,K,A*3B
$GNGGA,060314.00,0419.72438,S,05539.92629,E,1,12,0.61,12.5,M,-47.6,M,,*4F
$GNGSA,A,3,25,12,23,15,05,18,29,13,20,28,24,,1.06,0.61,0.86*18
$GNGSA,A,3,78,67,66,82,83,80,79,,,,,,1.06,0.61,0.86*1B
$GPGSV,5,1,17,05,39,035,40,10,06,213,19,12,73,084,38,13,13,107,43*78
$GPGSV,5,2,17,15,40,136,39,18,32,292,37,20,07,033,40,23,47,211,31*70
$GPGSV,5,3,17,24,32,176,30,25,60,341,32,28,05,291,34,29,14,347,28*7D
$GPGSV,5,4,17,36,52,277,,40,86,351,40,41,58,082,36,49,32,274,*7D
$GPGSV,5,5,17,50,10,089,41*4F
$GLGSV,3,1,09,66,12,062,41,67,39,116,37,68,26,175,18,78,46,168,23*66
$GLGSV,3,2,09,79,70,295,34,80,18,327,37,81,02,017,31,82,12,334,33*6C
$GLGSV,3,3,09,83,10,285,37*5D
$GNGLL,0419.72438,S,05539.92629,E,060314.00,A,A*60
$GNRMC,060315.00,A,0419.72438,S,05539.92629,E,0.035,,030625,,,A*7C
$GNVTG,,T,,M,0.035,N,0.066,K,A*3B
$GNGGA,060315.00,0419.72438,S,05539.92629,E,1,12,0.61,12.5,M,-47.6,M,,*4E
$GNGSA,A,3,25,12,23,15,05,18,29,13,20,28,24,,1.06,0.61,0.86*18
$GNGSA,A,3,78,67,66,82,83,80,79,,,,,,1.06,0.61,0.86*1B
$GPGSV,5,1,17,05,39,035,40,10,06,213,20,12,73,084,38,13,13,107,43*72
$GPGSV,5,2,17,15,40,136,39,18,32,292,37,20,07,033,40,23,47,211,31*70
$GPGSV,5,3,17,24,32,176,30,25,60,341,32,28,05,291,34,29,14,347,28*7D
$GPGSV,5,4,17,36,52,277,,40,86,351,40,41,58,082,36,49,32,274,*7D
$GPGSV,5,5,17,50,10,089,41*4F
$GLGSV,3,1,09,66,12,062,41,67,39,116,37,68,26,175,18,78,46,168,23*66
$GLGSV,3,2,09,79,70,295,34,80,18,327,38,81,02,017,31,82,12,334,33*63
$GLGSV,3,3,09,83,10,285,37*5D
$GNGLL,0419.72438,S,05539.92629,E,060315.00,A,A*61
$GNRMC,060316.00,A,0419.72438,S,05539.92628,E,0.050,,030625,,,A*7D
$GNVTG,,T,,M,0.050,N,0.092,K,A*33
$GNGGA,060316.00,0419.72438,S,05539.92628,E,1,12,0.61,12.5,M,-47.6,M,,*4C
$GNGSA,A,3,25,12,23,15,05,18,29,13,20,28,24,,1.06,0.61,0.86*18
$GNGSA,A,3,78,67,66,82,83,80,79,,,,,,1.06,0.61,0.86*1B
$GPGSV,5,1,17,05,39,035,40,10,06,213,19,12,73,084,38,13,13,107,43*78
$GPGSV,5,2,17,15,40,136,39,18,32,292,37,20,07,033,40,23,47,211,31*70
$GPGSV,5,3,17,24,32,176,30,25,60,341,30,28,05,291,29,29,14,347,27*7C
$GPGSV,5,4,17,36,52,277,,40,86,351,37,41,58,082,36,49,32,274,*7D
$GPGSV,5,5,17,50,10,089,41*4F
$GLGSV,3,1,09,66,12,062,41,67,39,116,34,68,26,175,20,78,46,168,23*6E
$GLGSV,3,2,09,79,70,295,33,80,18,327,38,81,02,017,31,82,12,334,37*60
$GLGSV,3,3,09,83,10,285,38*52
$GNGLL,0419.72438,S,05539.92628,E,060316.00,A,A*63
