b0L0?
F!Q'|*70!+ !<f
{4%Ta:R jFeG10PHIJKST2X_U&%b0d/$GNRMC,122620.00,A,0419.72479,S,05539.79140,E,0.081,,190525,,,A*77
$GNVTG,,T,,M,0.081,N,0.149,K,A*38
$GNGNS,122620.00,0419.72479,S,05539.79140,E,AA,14,0.76,15.4,-47.6,,*6E
$GNGGA,122620.00,0419.72479,S,05539.79140,E,1,12,0.76,15.4,M,-47.6,M,,*42
$GNGSA,A,3,10,32,26,08,18,28,31,16,27,,,,1.69,0.76,1.51*19
$GNGSA,A,3,70,84,71,85,72,,,,,,,,1.69,0.76,1.51*13
$GPGSV,4,1,16,08,06,319,21,10,17,001,21,16,25,243,25,18,33,081,25*7D
$GPGSV,4,2,16,23,03,039,25,25,01,124,,26,29,212,19,27,42,311,26*74
$GPGSV,4,3,16,28,48,153,27,29,15,147,,31,33,188,18,32,60,358,33*73
$GPGSV,4,4,16,36,52,277,,40,84,353,37,41,58,082,,49,32,274,*78
$GLGSV,3,1,10,70,24,357,12,71,49,304,21,72,29,240,31,73,15,145,*60
$GLGSV,3,2,10,74,15,190,,75,00,236,,83,13,138,,84,50,088,25*62
$GLGSV,3,3,10,85,38,011,24,,,,25*53
$GNGLL,0419.72479,S,05539.79140,E,122620.00,A,A*6D
$GNGRS,122620.00,1,-16.2,2.1,-20.4,-7.9,-0.4,7.6,-2.1,8.4,-18.3,,,*45
$GNGRS,122620.00,1,32.8,1.0,-17.1,-0.2,-13.8,,,,,,,*61
$GNGST,122620.00,42,,,,3.9,4.4,12*6D
$GNZDA,122620.00,19,05,2025,00,00*75
$GNGBS,122620.00,3.9,4.4,11.6,,,,*66
b0L?G
)!Q['c|*7,0X!O <fE
{4$Ta:R jFeG10HIJKST2XU&*Db<$GNRMC,122621.00,A,0419.72474,S,05539.79140,E,0.630,,190525,,,A*77
$GNVTG,,T,,M,0.630,N,1.167,K,A*39
$GNGNS,122621.00,0419.72474,S,05539.79140,E,AA,14,0.74,15.6,-47.6,,*62
$GNGGA,122621.00,0419.72474,S,05539.79140,E,1,12,0.74,15.6,M,-47.6,M,,*4E
$GNGSA,A,3,10,32,26,08,18,28,31,16,27,,,,1.66,0.74,1.49*1D
$GNGSA,A,3,70,84,71,85,72,,,,,,,,1.66,0.74,1.49*17
$GPGSV,4,1,16,08,06,319,20,10,17,001,19,16,25,243,23,18,33,081,23*77
$GPGSV,4,2,16,23,03,039,23,25,01,124,,26,29,212,18,27,42,311,24*71
$GPGSV,4,3,16,28,48,153,25,29,15,147,,31,33,188,16,32,60,358,30*7C
$GPGSV,4,4,16,36,52,277,,40,84,353,36,41,58,082,,49,32,274,*79
$GLGSV,3,1,10,70,24,357,17,71,49,304,20,72,29,240,26,73,15,145,*62
$GLGSV,3,2,10,74,15,190,,75,00,236,,83,13,138,,84,50,088,24*63
$GLGSV,3,3,10,85,38,011,21,,,,23*50
$GNGLL,0419.72474,S,05539.79140,E,122621.00,A,A*61
$GNGRS,122621.00,1,-21.2,3.2,-18.8,-12.1,0.9,8.6,-1.8,10.7,-17.5,,,*6F
$GNGRS,122621.00,1,2.8,2.8,-12.8,-3.2,-12.5,,,,,,,*5B
$GNGST,122621.00,3179277,,,,4.0,4.4,12*5A
$GNZDA,122621.00,19,05,2025,00,00*74
$GNGBS,122621.00,4.0,4.4,11.7,,,,*68
b0L?5
`!Q'|*7'0!  <f
{4$Ta:R jFeDG10H IJKST2XVU&tb$GNRMC,122622.00,A,0419.72481,S,05539.79158,E,0.429,,190525,,,A*7D
$GNVTG,,T,,M,0.429,N,0.794,K,A*38
$GNGNS,122622.00,0419.72481,S,05539.79158,E,AA,14,0.74,16.1,-47.6,,*66
$GNGGA,122622.00,0419.72481,S,05539.79158,E,1,12,0.74,16.1,M,-47.6,M,,*4A
$GNGSA,A,3,10,32,26,08,18,28,31,16,27,,,,1.66,0.74,1.49*1D
$GNGSA,A,3,70,84,71,85,72,,,,,,,,1.66,0.74,1.49*17
$GPGSV,4,1,16,08,06,319,20,10,17,001,16,16,25,243,25,18,33,081,22*7F
$GPGSV,4,2,16,23,03,039,23,25,01,124,,26,29,212,17,27,42,311,27*7D
$GPGSV,4,3,16,28,48,153,25,29,15,147,,31,33,188,14,32,60,358,32*7C
$GPGSV,4,4,16,36,52,277,,40,84,353,36,41,58,082,,49,32,274,*79
$GLGSV,3,1,10,70,24,357,14,71,49,304,17,72,29,240,32,73,15,145,*60
$GLGSV,3,2,10,74,15,190,,75,00,236,,83,13,138,,84,50,088,25*62
$GLGSV,3,3,10,85,38,011,19,,,,23*5B
$GNGLL,0419.72481,S,05539.79158,E,122622.00,A,A*61
$GNGRS,122622.00,1,-17.0,1.3,-18.9,-7.1,2.3,7.6,-3.0,11.8,-15.0,,,*59
$GNGRS,122622.00,1,3.2,0.9,-10.2,1.8,-15.0,,,,,,,*7F
$GNGST,122622.00,3179277,,,,4.1,4.4,12*58
$GNZDA,122622.00,19,05,2025,00,00*77
$GNGBS,122622.00,4.1,4.4,11.9,,,,*64
b0L?
-!Q''|*70!R #<f
{4'Ta:R jFeSG10HIJKST2XU&5$bX$GNRMC,122623.00,A,0419.72478,S,05539.79180,E,0.199,,190525,,,A*71
$GNVTG,,T,,M,0.199,N,0.369,K,A*30
$GNGNS,122623.00,0419.72478,S,05539.79180,E,AA,13,0.76,15.8,-47.6,,*6B
$GNGGA,122623.00,0419.72478,S,05539.79180,E,1,12,0.76,15.8,M,-47.6,M,,*40
$GNGSA,A,3,32,26,08,18,28,31,16,27,,,,,1.77,0.76,1.60*15
$GNGSA,A,3,70,84,71,85,72,,,,,,,,1.77,0.76,1.60*1E
$GPGSV,4,1,16,08,06,319,22,10,17,001,22,16,25,243,26,18,33,081,30*7A
$GPGSV,4,2,16,23,03,039,29,25,01,124,,26,29,212,16,27,42,311,29*78
$GPGSV,4,3,16,28,48,153,31,29,15,147,,31,33,188,15,32,60,358,35*7F
$GPGSV,4,4,16,36,52,277,,40,84,353,39,41,58,082,,49,32,274,*76
$GLGSV,3,1,10,70,24,357,11,71,49,304,18,72,29,240,30,73,15,145,*68
$GLGSV,3,2,10,74,15,190,,75,00,236,,83,13,138,,84,50,088,26*61
$GLGSV,3,3,10,85,38,011,19,,,,23*5B
$GNGLL,0419.72478,S,05539.79180,E,122623.00,A,A*63
$GNGRS,122623.00,1,2.7,-18.6,5.2,0.4,4.9,-1.7,11.6,-11.1,,,,*4E
$GNGRS,122623.00,1,-4.3,0.2,-10.6,5.6,-15.8,,,,,,,*58
$GNGST,122623.00,53,,,,4.1,4.4,12*61
$GNZDA,122623.00,19,05,2025,00,00*76
$GNGBS,122623.00,4.1,4.4,12.0,,,,*6F
b0L?r
 2!Q'|*7h 0!;  <f
{4)Ta:R jFe$G10HIJKST2XU&:b$GNRMC,122624.00,A,0419.72484,S,05539.79180,E,0.150,,190525,,,A*70
$GNVTG,,T,,M,0.150,N,0.277,K,A*3B
$GNGNS,122624.00,0419.72484,S,05539.79180,E,AA,13,0.76,16.2,-47.6,,*66
$GNGGA,122624.00,0419.72484,S,05539.79180,E,1,12,0.76,16.2,M,-47.6,M,,*4D
$GNGSA,A,3,32,26,08,18,28,31,16,27,,,,,1.77,0.76,1.60*15
$GNGSA,A,3,70,84,71,85,72,,,,,,,,1.77,0.76,1.60*1E
$GPGSV,4,1,16,08,06,319,22,10,17,001,21,16,25,243,32,18,33,081,29*74
$GPGSV,4,2,16,23,03,039,19,25,01,124,,26,29,212,14,27,42,311,21*71
$GPGSV,4,3,16,28,48,153,32,29,15,147,15,31,33,188,14,32,60,358,32*7E
$GPGSV,4,4,16,36,52,277,,40,84,353,41,41,58,082,,49,32,274,*79
$GLGSV,3,1,10,70,24,357,12,71,49,304,23,72,29,240,29,73,15,145,*6B
$GLGSV,3,2,10,74,15,190,,75,00,236,,83,13,138,,84,50,088,28*6F
$GLGSV,3,3,10,85,38,011,20,,,,22*50
$GNGLL,0419.72484,S,05539.79180,E,122624.00,A,A*67
$GNGRS,122624.00,1,5.2,-18.6,6.3,0.1,2.1,5.7,5.6,-14.3,,,,*59
$GNGRS,122624.00,1,2.9,-0.5,-10.2,5.1,-5.5,,,,,,,*6B
$GNGST,122624.00,86473,,,,4.1,4.3,12*59
$GNZDA,122624.00,19,05,2025,00,00*71
$GNGBS,122624.00,4.1,4.3,11.9,,,,*65
b0L?
:!M!Q'|*70X!| <f
{4&Ta:R jFeG10(H!|IJKST2XU&+b($GNRMC,122625.00,A,0419.72471,S,05539.79183,E,0.398,,190525,,,A*7E
$GNVTG,,T,,M,0.398,N,0.737,K,A*3C
$GNGNS,122625.00,0419.72471,S,05539.79183,E,AA,14,0.76,15.8,-47.6,,*60
$GNGGA,122625.00,0419.72471,S,05539.79183,E,1,12,0.76,15.8,M,-47.6,M,,*4C
$GNGSA,A,3,10,32,26,08,18,28,31,16,27,,,,1.77,0.76,1.60*14
$GNGSA,A,3,70,84,71,85,72,,,,,,,,1.77,0.76,1.60*1E
$GPGSV,4,1,16,08,06,319,21,10,17,001,29,16,25,243,33,18,33,081,16*72
$GPGSV,4,2,16,23,03,039,29,25,01,124,,26,29,212,16,27,42,311,21*70
$GPGSV,4,3,16,28,48,153,26,29,15,147,14,31,33,188,17,32,60,358,28*72
$GPGSV,4,4,16,36,52,277,,40,84,353,38,41,58,082,,49,32,274,*77
$GLGSV,3,1,10,70,24,357,14,71,49,304,22,72,29,240,33,73,15,145,*67
$GLGSV,3,2,10,74,15,190,,75,00,236,,83,13,138,,84,50,088,26*61
$GLGSV,3,3,10,85,38,011,29,,,,21*5A
$GNGLL,0419.72471,S,05539.79183,E,122625.00,A,A*6F
$GNGRS,122625.00,1,-22.5,4.0,-17.7,5.3,0.3,0.9,6.4,5.9,-12.6,,,*64
$GNGRS,122625.00,1,2.6,2.3,-9.8,3.0,-9.0,,,,,,,*70
$GNGST,122625.00,126384,,,,4.1,4.3,12*6C
$GNZDA,122625.00,19,05,2025,00,00*70
$GNGBS,122625.00,4.1,4.3,12.0,,,,*6E
b0L?V
p$!Q~'|q*703! $<ft
{4'Ta:R jFeG10!H&IJKST2XU&3bkt$GNRMC,122626.00,A,0419.72455,S,05539.79192,E,0.245,,190525,,,A*7A
$GNVTG,,T,,M,0.245,N,0.455,K,A*3A
$GNGNS,122626.00,0419.72455,S,05539.79192,E,AA,13,0.76,15.6,-47.6,,*6C
$GNGGA,122626.00,0419.72455,S,05539.79192,E,1,12,0.76,15.6,M,-47.6,M,,*47
$GNGSA,A,3,10,32,26,08,18,28,31,16,27,,,,1.69,0.76,1.51*19
$GNGSA,A,3,84,71,85,72,,,,,,,,,1.69,0.76,1.51*14
$GPGSV,4,1,16,08,06,319,19,10,17,001,27,16,25,243,36,18,33,081,20*77
$GPGSV,4,2,16,23,03,039,29,25,01,124,,26,29,212,20,27,42,311,20*74
$GPGSV,4,3,16,28,48,153,28,29,15,147,13,31,33,188,29,32,60,358,36*79
$GPGSV,4,4,16,36,52,277,,40,84,353,39,41,58,082,,49,32,274,*76
$GLGSV,3,1,10,70,24,357,07,71,49,304,23,72,29,240,38,73,15,145,*6F
$GLGSV,3,2,10,74,15,190,,75,00,236,,83,13,138,,84,50,088,25*62
$GLGSV,3,3,10,85,38,011,29,,,,19*51
$GNGLL,0419.72455,S,05539.79192,E,122626.00,A,A*6A
$GNGRS,122626.00,1,-4.0,1.2,-14.2,8.5,-1.3,0.5,3.9,6.6,-8.9,,,*4C
$GNGRS,122626.00,1,1.8,-9.9,1.8,-7.6,,,,,,,,*52
$GNGST,122626.00,39,,,,4.0,4.3,12*6E
$GNZDA,122626.00,19,05,2025,00,00*73
$GNGBS,122626.00,4.0,4.3,11.9,,,,*66
b0L?B
 !Q'|]*70u! #<f
{4%Ta:R jFeG10gH&IJKST2X1U&vbSL$GNRMC,122627.00,A,0419.72439,S,05539.79209,E,0.121,,190525,,,A*71
$GNVTG,,T,,M,0.121,N,0.224,K,A*3B
$GNGNS,122627.00,0419.72439,S,05539.79209,E,AA,14,0.74,15.6,-47.6,,*63
$GNGGA,122627.00,0419.72439,S,05539.79209,E,1,12,0.74,15.6,M,-47.6,M,,*4F
$GNGSA,A,3,10,32,26,08,18,28,31,16,27,,,,1.66,0.74,1.49*1D
$GNGSA,A,3,70,84,71,85,72,,,,,,,,1.66,0.74,1.49*17
$GPGSV,4,1,16,08,06,319,15,10,17,001,26,16,25,243,32,18,33,081,22*7C
$GPGSV,4,2,16,23,03,039,29,25,01,124,,26,29,212,22,27,42,311,23*75
$GPGSV,4,3,16,28,48,153,28,29,15,147,09,31,33,188,18,32,60,358,35*73
$GPGSV,4,4,16,36,52,277,,40,84,353,37,41,58,082,,49,32,274,*78
$GLGSV,3,1,10,70,24,357,12,71,49,304,26,72,29,240,38,73,15,145,*6E
$GLGSV,3,2,10,74,15,190,,75,00,236,,83,13,138,,84,50,088,24*63
$GLGSV,3,3,10,85,38,011,29,,,,16*5E
$GNGLL,0419.72439,S,05539.79209,E,122627.00,A,A*60
$GNGRS,122627.00,1,-5.3,1.9,-11.9,10.9,-4.9,1.2,2.0,5.3,-8.1,,,*70
$GNGRS,122627.00,1,2.7,3.0,-9.2,-3.0,-8.7,,,,,,,*50
$GNGST,122627.00,54484,,,,4.0,4.2,12*5D
$GNZDA,122627.00,19,05,2025,00,00*72
$GNGBS,122627.00,4.0,4.2,11.8,,,,*67
b0Lp?
X!!Q'h|k*7'0n! !<f
{4%Ta:R jF
eG10H(IJKST2XU!&nbp;$n$GNRMC,122628.00,A,0419.72434,S,05539.79227,E,0.069,,190525,,,A*72
$GNVTG,,T,,M,0.069,N,0.129,K,A*38
$GNGNS,122628.00,0419.72434,S,05539.79227,E,AA,13,0.75,15.8,-47.6,,*65
$GNGGA,122628.00,0419.72434,S,05539.79227,E,1,12,0.75,15.8,M,-47.6,M,,*4E
$GNGSA,A,3,10,32,26,18,28,31,16,27,,,,,1.91,0.75,1.76*10
$GNGSA,A,3,70,84,71,85,72,,,,,,,,1.91,0.75,1.76*12
$GPGSV,4,1,16,08,06,319,,10,17,001,25,16,25,243,33,18,33,081,23*7B
$GPGSV,4,2,16,23,03,039,29,25,01,124,,26,29,212,23,27,42,311,25*72
$GPGSV,4,3,16,28,48,153,28,29,15,147,08,31,33,188,22,32,60,358,33*7D
$GPGSV,4,4,16,36,52,277,,40,84,353,37,41,58,082,,49,32,274,*78
$GLGSV,3,1,10,70,24,357,10,71,49,304,27,72,29,240,40,73,15,145,*62
$GLGSV,3,2,10,74,15,190,,75,00,236,,83,13,138,,84,50,088,23*64
$GLGSV,3,3,10,85,38,011,33,,,,14*57
$GNGLL,0419.72434,S,05539.79227,E,122628.00,A,A*6E
$GNGRS,122628.00,1,3.4,2.5,-6.6,-5.9,3.7,2.7,4.7,-7.3,,,,*7A
$GNGRS,122628.00,1,2.9,4.3,-10.0,-5.2,-8.8,,,,,,,*64
$GNGST,122628.00,83147,,,,3.9,4.2,12*5C
$GNZDA,122628.00,19,05,2025,00,00*7D
$GNGBS,122628.00,3.9,4.2,11.8,,,,*66
b0LX?
b#A!Q'|C*7<0?! <f
{4&Ta:R jF
fG10IH&IJKST2XU&JbX#$GNRMC,122629.00,A,0419.72438,S,05539.79238,E,0.160,,190525,,,A*79
$GNVTG,,T,,M,0.160,N,0.296,K,A*37
$GNGNS,122629.00,0419.72438,S,05539.79238,E,AA,13,0.78,16.0,-47.6,,*60
$GNGGA,122629.00,0419.72438,S,05539.79238,E,1,12,0.78,16.0,M,-47.6,M,,*4B
$GNGSA,A,3,10,32,26,18,28,31,16,27,,,,,2.02,0.78,1.87*1A
$GNGSA,A,3,70,84,71,85,72,,,,,,,,2.02,0.78,1.87*18
$GPGSV,4,1,16,08,06,319,,10,17,001,24,16,25,243,35,18,33,081,23*7C
$GPGSV,4,2,16,23,03,039,29,25,01,124,,26,29,212,24,27,42,311,25*75
$GPGSV,4,3,16,28,48,153,28,29,15,147,08,31,33,188,25,32,60,358,28*70
$GPGSV,4,4,16,36,52,277,,40,84,353,38,41,58,082,,49,32,274,*77
$GLGSV,3,1,10,70,24,358,10,71,49,304,27,72,29,240,38,73,15,145,*62
$GLGSV,3,2,10,74,15,190,,75,00,236,,83,13,138,,84,50,088,22*65
$GLGSV,3,3,10,85,38,011,31,,,,16*57
$GNGLL,0419.72438,S,05539.79238,E,122629.00,A,A*6D
$GNGRS,122629.00,1,-1.6,4.4,-7.0,-6.4,3.2,2.8,5.8,-7.1,,,,*5E
$GNGRS,122629.00,1,-64.2,4.3,-7.0,-7.4,-7.9,,,,,,,*4F
$GNGST,122629.00,34,,,,3.8,4.2,12*62
$GNZDA,122629.00,19,05,2025,00,00*7C
$GNGBS,122629.00,3.8,4.2,11.8,,,,*66
b0L@?
#$!Q'|*7J0!$ "<f8
{4'Ta:R jFfG01BH&cIJKST2XU&`b@>$GNRMC,122630.00,A,0419.72439,S,05539.79244,E,0.074,,190525,,,A*7F
$GNVTG,,T,,M,0.074,N,0.137,K,A*3B
$GNGNS,122630.00,0419.72439,S,05539.79244,E,AA,13,0.75,16.1,-47.6,,*6E
$GNGGA,122630.00,0419.72439,S,05539.79244,E,1,12,0.75,16.1,M,-47.6,M,,*45
$GNGSA,A,3,10,32,26,18,28,31,16,27,,,,,1.91,0.75,1.76*10
$GNGSA,A,3,70,84,71,85,72,,,,,,,,1.91,0.75,1.76*12
$GPGSV,4,1,16,08,06,319,,10,17,001,23,16,25,243,35,18,33,081,24*7C
$GPGSV,4,2,16,23,03,039,31,25,01,124,14,26,29,212,23,27,42,311,28*73
$GPGSV,4,3,16,28,48,153,28,29,15,147,07,31,33,188,23,32,60,358,34*74
$GPGSV,4,4,16,36,52,277,,40,84,353,39,41,58,082,,49,32,274,*76
$GLGSV,3,1,10,70,24,358,09,71,48,305,27,72,29,240,38,73,15,145,*6A
$GLGSV,3,2,10,74,15,190,,75,00,236,,83,13,138,,84,50,088,22*65
$GLGSV,3,3,10,85,38,011,24,,,,18*5D
$GNGLL,0419.72439,S,05539.79244,E,122630.00,A,A*6F
$GNGRS,122630.00,1,-5.3,0.6,-5.7,-5.2,1.8,2.9,8.0,-4.4,,,,*5B
$GNGRS,122630.00,1,2.7,4.6,-7.0,-5.9,-6.7,,,,,,,*5A
$GNGST,122630.00,3299292,,,,3.8,4.1,12*56
$GNZDA,122630.00,19,05,2025,00,00*74
$GNGBS,122630.00,3.8,4.1,11.7,,,,*62
b0L(?
"!Q'|C*70X!  !<f
{4(Ta:R jFfG01H&IJKST2XU&b($GNRMC,122631.00,A,0419.72437,S,05539.79253,E,0.156,,190525,,,A*77
$GNVTG,,T,,M,0.156,N,0.289,K,A*3C
$GNGNS,122631.00,0419.72437,S,05539.79253,E,AA,13,0.75,15.8,-47.6,,*6D
$GNGGA,122631.00,0419.72437,S,05539.79253,E,1,12,0.75,15.8,M,-47.6,M,,*46
$GNGSA,A,3,10,32,26,18,28,31,16,27,,,,,1.91,0.75,1.76*10
$GNGSA,A,3,70,84,71,85,72,,,,,,,,1.91,0.75,1.76*12
$GPGSV,4,1,16,08,06,319,,10,17,001,22,16,25,243,34,18,33,081,24*7C
$GPGSV,4,2,16,23,03,039,30,25,01,124,12,26,29,212,22,27,42,311,28*75
$GPGSV,4,3,16,28,48,153,28,29,15,147,08,31,33,188,20,32,60,358,33*7F
$GPGSV,4,4,16,36,52,277,,40,84,353,40,41,58,082,,49,32,274,*78
$GLGSV,3,1,10,70,24,358,12,71,48,305,27,72,29,240,38,73,15,145,*60
$GLGSV,3,2,10,74,15,190,,75,00,236,,83,13,138,,84,50,088,22*65
$GLGSV,3,3,10,85,38,011,23,,,,20*51
$GNGLL,0419.72437,S,05539.79253,E,122631.00,A,A*66
$GNGRS,122631.00,1,-3.4,-0.4,-3.7,-2.8,0.2,0.3,7.6,-0.1,,,,*74
$GNGRS,122631.00,1,2.4,2.2,-7.9,-5.7,-5.6,,,,,,,*5F
$GNGST,122631.00,3299292,,,,3.8,4.1,12*57
$GNZDA,122631.00,19,05,2025,00,00*75
$GNGBS,122631.00,3.8,4.1,11.8,,,,*6C
b0L?
"!Q'T|
*7#0! #<f
{4'Ta:R jFfG01`H&IJKST2XU&b$GNRMC,122632.00,A,0419.72430,S,05539.79265,E,0.157,,190525,,,A*77
$GNVTG,,T,,M,0.157,N,0.291,K,A*34
$GNGNS,122632.00,0419.72430,S,05539.79265,E,AA,13,0.75,15.2,-47.6,,*66
$GNGGA,122632.00,0419.72430,S,05539.79265,E,1,12,0.75,15.2,M,-47.6,M,,*4D
$GNGSA,A,3,10,32,26,18,28,31,16,27,,,,,1.91,0.75,1.76*10
$GNGSA,A,3,70,84,71,85,72,,,,,,,,1.91,0.75,1.76*12
$GPGSV,4,1,16,08,06,319,22,10,17,001,23,16,25,243,34,18,33,081,25*7C
$GPGSV,4,2,16,23,03,039,29,25,01,124,,26,29,212,22,27,42,311,26*70
$GPGSV,4,3,16,28,48,153,29,29,15,147,08,31,33,188,18,32,60,358,35*73
$GPGSV,4,4,16,36,52,277,,40,84,353,39,41,58,082,,49,32,274,*76
$GLGSV,3,1,10,70,24,358,08,71,48,305,28,72,29,240,38,73,15,144,*65
$GLGSV,3,2,10,74,15,190,,75,00,236,,83,13,138,,84,50,088,22*65
$GLGSV,3,3,10,85,38,011,25,,,,22*55
$GNGLL,0419.72430,S,05539.79265,E,122632.00,A,A*67
$GNGRS,122632.00,1,-2.6,-2.5,-2.5,-3.1,-3.6,2.5,6.4,0.3,,,,*7E
$GNGRS,122632.00,1,-13.3,2.5,-6.7,7.8,-5.2,,,,,,,*6A
$GNGST,122632.00,50,,,,3.8,4.1,12*69
$GNZDA,122632.00,19,05,2025,00,00*76
$GNGBS,122632.00,3.8,4.1,11.8,,,,*6F
b0L?
d!Q'|F*70n!# <f
{4%Ta:R jF
fG01H#IJKST2XNU&U<b[f$GNRMC,122633.00,A,0419.72421,S,05539.79279,E,0.335,,190525,,,A*7D
$GNVTG,,T,,M,0.335,N,0.620,K,A*3C
$GNGNS,122633.00,0419.72421,S,05539.79279,E,AA,13,0.75,14.5,-47.6,,*6C
$GNGGA,122633.00,0419.72421,S,05539.79279,E,1,12,0.75,14.5,M,-47.6,M,,*47
$GNGSA,A,3,10,32,26,18,28,31,16,27,,,,,1.91,0.75,1.76*10
$GNGSA,A,3,70,84,71,85,72,,,,,,,,1.91,0.75,1.76*12
$GPGSV,4,1,16,08,06,319,19,10,17,001,23,16,25,243,31,18,33,081,24*70
$GPGSV,4,2,16,23,03,039,28,25,01,124,,26,29,212,21,27,42,311,25*71
$GPGSV,4,3,16,28,48,153,30,29,15,147,09,31,33,188,22,32,60,358,26*71
$GPGSV,4,4,16,36,52,277,,40,84,353,37,41,58,082,,49,32,274,*78
$GLGSV,3,1,10,70,24,358,10,71,48,305,26,72,29,240,35,73,15,144,*6F
$GLGSV,3,2,10,74,15,190,,75,00,236,,83,13,138,,84,50,088,21*66
$GLGSV,3,3,10,85,38,011,23,,,,22*53
$GNGLL,0419.72421,S,05539.79279,E,122633.00,A,A*6B
$GNGRS,122633.00,1,-1.6,1.8,-1.9,-2.5,-1.5,2.9,6.6,0.1,,,,*58
$GNGRS,122633.00,1,2.4,0.8,-7.6,6.0,-5.2,,,,,,,*77
$GNGST,122633.00,172947,,,,3.8,4.1,12*63
$GNZDA,122633.00,19,05,2025,00,00*77
$GNGBS,122633.00,3.8,4.1,12.0,,,,*65
b0L"?G
"!Q5'|*701! #<f
{4&Ta:R jFfG01HH$IJKST2XU&kAb"3$GNRMC,122634.00,A,0419.72431,S,05539.79288,E,0.511,,190525,,,A*75
$GNVTG,,T,,M,0.511,N,0.946,K,A*33
$GNGNS,122634.00,0419.72431,S,05539.79288,E,AA,13,0.75,14.8,-47.6,,*69
$GNGGA,122634.00,0419.72431,S,05539.79288,E,1,12,0.75,14.8,M,-47.6,M,,*42
$GNGSA,A,3,10,32,26,18,28,31,16,27,,,,,1.91,0.75,1.76*10
$GNGSA,A,3,70,84,71,85,72,,,,,,,,1.91,0.75,1.76*12
$GPGSV,4,1,16,08,06,319,19,10,17,001,25,16,25,243,34,18,33,081,25*72
$GPGSV,4,2,16,23,03,039,29,25,01,124,,26,29,212,20,27,42,311,23*77
$GPGSV,4,3,16,28,48,153,21,29,15,147,09,31,33,188,19,32,60,358,35*7B
$GPGSV,4,4,16,36,52,277,,40,84,353,38,41,58,082,,49,32,274,*77
$GLGSV,3,1,10,70,24,358,11,71,48,305,26,72,29,240,36,73,15,144,*6D
$GLGSV,3,2,10,74,15,190,,75,00,235,,83,13,138,,84,50,088,20*64
$GLGSV,3,3,10,85,38,011,23,,,,21*50
$GNGLL,0419.72431,S,05539.79288,E,122634.00,A,A*63
$GNGRS,122634.00,1,-0.7,0.1,-3.5,-4.6,5.6,4.6,6.8,-3.7,,,,*59
$GNGRS,122634.00,1,2.7,2.7,-7.0,3.6,-5.1,,,,,,,*78
$GNGST,122634.00,3299292,,,,3.8,4.1,12*52
$GNZDA,122634.00,19,05,2025,00,00*70
$GNGBS,122634.00,3.8,4.1,11.9,,,,*68
b0L&?
M"!Q]'Q|*7n0!k %<f
{4%Ta:R jFfG01H%IJKST2XU&Cb&6$GNRMC,122635.00,A,0419.72444,S,05539.79306,E,0.667,,190525,,,A*73
$GNVTG,,T,,M,0.667,N,1.235,K,A*3F
$GNGNS,122635.00,0419.72444,S,05539.79306,E,AA,14,0.74,14.6,-47.6,,*65
$GNGGA,122635.00,0419.72444,S,05539.79306,E,1,12,0.74,14.6,M,-47.6,M,,*49
$GNGSA,A,3,10,32,26,08,18,28,31,16,27,,,,1.66,0.74,1.49*1D
$GNGSA,A,3,70,84,71,85,72,,,,,,,,1.66,0.74,1.49*17
$GPGSV,4,1,16,08,06,319,21,10,17,001,26,16,25,243,34,18,33,081,24*7B
$GPGSV,4,2,16,23,03,039,29,25,01,124,,26,29,212,22,27,42,311,22*74
$GPGSV,4,3,16,28,48,153,21,29,15,147,,31,33,188,18,32,60,358,37*71
$GPGSV,4,4,16,36,52,277,,40,84,353,37,41,58,082,,49,32,274,*78
$GLGSV,3,1,10,70,24,358,12,71,48,305,26,72,29,240,37,73,15,144,*6F
$GLGSV,3,2,10,74,15,190,,75,00,235,,83,13,138,,84,50,088,19*6E
$GLGSV,3,3,10,85,38,011,25,,,,20*57
$GNGLL,0419.72444,S,05539.79306,E,122635.00,A,A*67
$GNGRS,122635.00,1,-1.8,-0.6,-3.1,9.5,-4.2,10.3,6.2,6.6,-4.0,,,*67
$GNGRS,122635.00,1,12.6,4.9,-6.1,1.9,-5.0,,,,,,,*4D
$GNGST,122635.00,52,,,,3.8,4.1,12*6C
$GNZDA,122635.00,19,05,2025,00,00*71
$GNGBS,122635.00,3.8,4.1,11.8,,,,*68
b0L*?
a!!QV'6|*70! %<f0
{4#Ta:R jFfG01H%IJKST2XU&yb*{$GNRMC,122636.00,A,0419.72450,S,05539.79308,E,0.088,,190525,,,A*7C
$GNVTG,,T,,M,0.088,N,0.162,K,A*38
$GNGNS,122636.00,0419.72450,S,05539.79308,E,AA,14,0.74,14.8,-47.6,,*63
$GNGGA,122636.00,0419.72450,S,05539.79308,E,1,12,0.74,14.8,M,-47.6,M,,*4F
$GNGSA,A,3,10,32,26,08,18,28,31,16,27,,,,1.66,0.74,1.49*1D
$GNGSA,A,3,70,84,71,85,72,,,,,,,,1.66,0.74,1.49*17
$GPGSV,4,1,16,08,06,319,21,10,17,001,31,16,25,243,33,18,33,081,23*7D
$GPGSV,4,2,16,23,03,039,29,25,01,124,,26,29,212,23,27,42,311,20*77
$GPGSV,4,3,16,28,48,153,21,29,15,147,,31,33,188,19,32,60,358,37*70
$GPGSV,4,4,16,36,52,277,,40,84,353,35,41,58,082,,49,32,274,*7A
$GLGSV,3,1,10,70,24,358,09,71,48,305,26,72,29,240,37,73,15,144,*65
$GLGSV,3,2,10,74,15,190,,75,00,235,,83,13,138,,84,50,088,20*64
$GLGSV,3,3,10,85,38,011,27,,,,19*5F
$GNGLL,0419.72450,S,05539.79308,E,122636.00,A,A*6F
$GNGRS,122636.00,1,-1.6,0.5,-2.7,9.0,-4.3,17.3,4.8,7.3,-3.5,,,*4E
$GNGRS,122636.00,1,2.8,2.6,-7.4,-2.7,-5.0,,,,,,,*5C
$GNGST,122636.00,102557,,,,3.8,4.1,11*6F
$GNZDA,122636.00,19,05,2025,00,00*72
$GNGBS,122636.00,3.8,4.1,11.4,,,,*67
b0L.??
o !Qk'r|*70i!9 <f
{4)Ta:R jFfG01H!IJKST2XZU&kb.c$GNRMC,122637.00,A,0419.72455,S,05539.79304,E,0.022,,190525,,,A*74
$GNVTG,,T,,M,0.022,N,0.040,K,A*39
$GNGNS,122637.00,0419.72455,S,05539.79304,E,AA,14,0.74,15.0,-47.6,,*62
$GNGGA,122637.00,0419.72455,S,05539.79304,E,1,12,0.74,15.0,M,-47.6,M,,*4E
$GNGSA,A,3,10,32,26,08,18,28,31,16,27,,,,1.66,0.74,1.49*1D
$GNGSA,A,3,70,84,71,85,72,,,,,,,,1.66,0.74,1.49*17
$GPGSV,4,1,16,08,06,319,22,10,17,001,26,16,25,243,32,18,33,081,25*7F
$GPGSV,4,2,16,23,03,039,29,25,01,124,,26,29,212,21,27,42,311,24*71
$GPGSV,4,3,16,28,48,153,30,29,15,147,,31,33,188,28,32,60,358,31*74
$GPGSV,4,4,16,36,52,277,,40,84,353,41,41,58,082,,49,32,274,*79
$GLGSV,3,1,10,70,24,358,09,71,48,305,26,72,29,240,33,73,15,144,*61
$GLGSV,3,2,10,74,15,190,,75,00,235,,83,13,138,,84,50,088,24*60
$GLGSV,3,3,10,85,38,011,28,,,,19*50
$GNGLL,0419.72455,S,05539.79304,E,122637.00,A,A*67
$GNGRS,122637.00,1,-1.4,4.1,-0.1,0.6,-4.1,6.2,3.1,7.8,-3.3,,,*76
$GNGRS,122637.00,1,2.8,0.9,-6.0,-3.2,-4.9,,,,,,,*59
$GNGST,122637.00,153836,,,,3.7,4.1,11*6F
$GNZDA,122637.00,19,05,2025,00,00*73
$GNGBS,122637.00,3.7,4.1,11.2,,,,*6F
b0X2?
!Qh'|*70! <f
{4,Ta:R jF
fG01H"IJKST2XmU&V!b2Kn$GNRMC,122638.00,A,0419.72461,S,05539.79309,E,0.095,,190525,,,A*7D
$GNVTG,,T,,M,0.095,N,0.175,K,A*32
$GNGNS,122638.00,0419.72461,S,05539.79309,E,AA,14,0.74,14.7,-47.6,,*61
$GNGGA,122638.00,0419.72461,S,05539.79309,E,1,12,0.74,14.7,M,-47.6,M,,*4D
$GNGSA,A,3,10,32,26,08,18,28,31,16,27,,,,1.66,0.74,1.49*1D
$GNGSA,A,3,70,84,71,85,72,,,,,,,,1.66,0.74,1.49*17
$GPGSV,4,1,16,08,06,319,23,10,17,001,28,16,25,243,31,18,33,081,26*70
$GPGSV,4,2,16,23,03,039,29,25,01,124,,26,29,212,19,27,42,311,25*7B
$GPGSV,4,3,16,28,48,153,29,29,15,147,,31,33,188,26,32,60,358,30*73
$GPGSV,4,4,16,36,52,277,,40,84,353,44,41,58,082,,49,32,274,*7C
$GLGSV,3,1,11,70,24,358,10,71,48,305,23,72,29,240,34,73,15,144,*6A
$GLGSV,3,2,11,74,15,190,,75,00,235,,83,13,138,,84,50,088,24*61
$GLGSV,3,3,11,85,38,011,17,,,,33,,,,18*5C
$GNGLL,0419.72461,S,05539.79309,E,122638.00,A,A*62
$GNGRS,122638.00,1,2.7,-6.0,1.9,1.8,-4.1,5.0,4.2,10.2,-3.4,,,*6F
$GNGRS,122638.00,1,3.9,1.1,-5.5,6.0,-5.2,,,,,,,*79
$GNGST,122638.00,48,,,,3.6,4.1,11*67
$GNZDA,122638.00,19,05,2025,00,00*7C
$GNGBS,122638.00,3.6,4.1,11.0,,,,*63
b0Xh6?
 !Qn'
|*70! <f@
{4)Ta:R jF
f*G01H"IJKST2XU&U#bh63k$GNRMC,122639.00,A,0419.72471,S,05539.79309,E,0.052,,190525,,,A*76
$GNVTG,,T,,M,0.052,N,0.097,K,A*34
$GNGNS,122639.00,0419.72471,S,05539.79309,E,AA,14,0.74,15.0,-47.6,,*67
$GNGGA,122639.00,0419.72471,S,05539.79309,E,1,12,0.74,15.0,M,-47.6,M,,*4B
$GNGSA,A,3,10,32,26,08,18,28,31,16,27,,,,1.66,0.74,1.49*1D
$GNGSA,A,3,70,84,71,85,72,,,,,,,,1.66,0.74,1.49*17
$GPGSV,4,1,16,08,06,319,24,10,17,001,31,16,25,243,31,18,33,081,25*7C
$GPGSV,4,2,16,23,03,039,29,25,01,124,,26,29,212,20,27,42,311,27*73
$GPGSV,4,3,16,28,48,153,29,29,15,147,,31,33,188,27,32,60,358,30*72
$GPGSV,4,4,16,36,52,277,,40,84,353,41,41,58,082,,49,32,274,*79
$GLGSV,3,1,11,70,24,358,10,71,48,305,24,72,29,240,34,73,15,144,*6D
$GLGSV,3,2,11,74,15,190,,75,00,235,,83,13,138,,84,50,088,24*61
$GLGSV,3,3,11,85,38,011,19,,,,35,,,,19*55
$GNGLL,0419.72471,S,05539.79309,E,122639.00,A,A*62
$GNGRS,122639.00,1,-4.8,0.6,1.6,1.7,-4.0,7.3,2.2,6.6,-4.8,,,*59
$GNGRS,122639.00,1,3.0,1.7,-3.6,6.0,-5.2,,,,,,,*72
$GNGST,122639.00,12820,,,,3.6,4.0,11*52
$GNZDA,122639.00,19,05,2025,00,00*7D
$GNGBS,122639.00,3.6,4.0,10.8,,,,*6A
b0XP:?
!!Qh'`|Q!*70! <f
{4&Ta:R jFfG01H!IJKST2XU&#bP:C>$GNRMC,122640.00,A,0419.72468,S,05539.79312,E,0.140,,190525,,,A*78
$GNVTG,,T,,M,0.140,N,0.259,K,A*36
$GNGNS,122640.00,0419.72468,S,05539.79312,E,AA,14,0.74,14.7,-47.6,,*6D
$GNGGA,122640.00,0419.72468,S,05539.79312,E,1,12,0.74,14.7,M,-47.6,M,,*41
$GNGSA,A,3,10,32,26,08,18,28,31,16,27,,,,1.66,0.74,1.49*1D
$GNGSA,A,3,70,84,71,85,72,,,,,,,,1.66,0.74,1.49*17
$GPGSV,4,1,16,08,06,319,21,10,17,001,25,16,25,243,33,18,33,081,26*7D
$GPGSV,4,2,16,23,03,039,18,25,01,124,,26,29,212,22,27,42,311,33*76
$GPGSV,4,3,16,28,48,153,17,29,15,147,,31,33,188,27,32,60,358,24*7A
$GPGSV,4,4,16,36,52,277,,40,84,353,38,41,58,082,,49,32,274,*77
$GLGSV,3,1,11,70,24,358,16,71,48,305,27,72,29,240,33,73,15,144,*6F
$GLGSV,3,2,11,74,15,190,,75,00,235,,83,13,138,,84,50,088,24*61
$GLGSV,3,3,11,85,38,011,24,,,,35,,,,23*52
$GNGLL,0419.72468,S,05539.79312,E,122640.00,A,A*6E
$GNGRS,122640.00,1,0.0,9.3,0.8,2.1,-1.5,7.1,1.8,4.7,-0.5,,,*71
$GNGRS,122640.00,1,2.7,1.4,-3.6,7.7,-5.3,,,,,,,*7E
$GNGST,122640.00,19230,,,,3.5,4.0,11*5F
$GNZDA,122640.00,19,05,2025,00,00*73
$GNGBS,122640.00,3.5,4.0,10.8,,,,*67
b0X8>?
!!Q'| *70!W <f
{4)Ta:R jFfG01PH IJKST2XJU&"b8> $GNRMC,122641.00,A,0419.72468,S,05539.79314,E,0.123,,190525,,,A*7A
$GNVTG,,T,,M,0.123,N,0.228,K,A*35
$GNGNS,122641.00,0419.72468,S,05539.79314,E,AA,14,0.76,14.5,-47.6,,*6A
$GNGGA,122641.00,0419.72468,S,05539.79314,E,1,12,0.76,14.5,M,-47.6,M,,*46
$GNGSA,A,3,10,32,26,08,18,28,31,16,27,,,,1.69,0.76,1.51*19
$GNGSA,A,3,70,84,71,85,72,,,,,,,,1.69,0.76,1.51*13
$GPGSV,4,1,16,08,06,319,18,10,17,001,25,16,25,243,33,18,33,081,27*76
$GPGSV,4,2,16,23,03,039,19,25,01,124,,26,29,212,23,27,42,311,32*77
$GPGSV,4,3,16,28,48,153,17,29,15,147,,31,33,188,27,32,60,358,31*7E
$GPGSV,4,4,16,36,52,277,,40,84,353,41,41,58,082,,49,32,274,*79
$GLGSV,3,1,11,70,24,358,14,71,48,305,28,72,29,240,32,73,15,144,*63
$GLGSV,3,2,11,74,15,190,,75,00,235,,83,13,138,,84,50,088,24*61
$GLGSV,3,3,11,85,38,011,26,,,,34,,,,24*56
$GNGLL,0419.72468,S,05539.79314,E,122641.00,A,A*69
$GNGRS,122641.00,1,2.4,9.5,0.2,-1.2,-0.9,11.9,3.4,10.4,-3.4,,,*5F
$GNGRS,122641.00,1,-49.6,3.3,-4.3,-2.6,-5.5,,,,,,,*44
$GNGST,122641.00,37,,,,3.5,4.0,11*63
$GNZDA,122641.00,19,05,2025,00,00*72
$GNGBS,122641.00,3.5,4.0,10.7,,,,*69
b0X B?
 !Q'|*70! <f
{4)Ta:R jFfG01H!IJKST2X,U&#)b B#$GNRMC,122642.00,A,0419.72472,S,05539.79319,E,0.042,,190525,,,A*79
$GNVTG,,T,,M,0.042,N,0.077,K,A*3B
$GNGNS,122642.00,0419.72472,S,05539.79319,E,AA,14,0.74,14.6,-47.6,,*6E
$GNGGA,122642.00,0419.72472,S,05539.79319,E,1,12,0.74,14.6,M,-47.6,M,,*42
$GNGSA,A,3,10,32,26,08,18,28,31,16,27,,,,1.66,0.74,1.49*1D
$GNGSA,A,3,70,84,71,85,72,,,,,,,,1.66,0.74,1.49*17
$GPGSV,4,1,16,08,06,319,19,10,17,001,26,16,25,243,32,18,33,081,28*7A
$GPGSV,4,2,16,23,03,039,23,25,01,124,,26,29,212,23,27,42,311,31*7D
$GPGSV,4,3,16,28,48,153,23,29,15,147,,31,33,188,28,32,60,358,29*7F
$GPGSV,4,4,16,36,52,277,,40,84,353,41,41,58,082,,49,32,274,*79
$GLGSV,3,1,11,70,24,358,11,71,48,305,28,72,29,240,33,73,15,144,*67
$GLGSV,3,2,11,74,15,190,,75,00,235,,83,12,138,,84,50,088,25*61
$GLGSV,3,3,11,85,38,011,25,,,,35,,,,24*54
$GNGLL,0419.72472,S,05539.79319,E,122642.00,A,A*6C
$GNGRS,122642.00,1,2.1,2.4,-0.5,-0.2,-0.3,6.6,1.8,9.0,-8.9,,,*7F
$GNGRS,122642.00,1,2.7,5.6,1.8,0.2,-5.7,,,,,,,*5D
$GNGST,122642.00,3179277,,,,3.5,3.9,11*54
$GNZDA,122642.00,19,05,2025,00,00*71
$GNGBS,122642.00,3.5,3.9,10.7,,,,*64
b0XF?
U .!QB'|*70!~ <f
{4(Ta:R jFfG01H!IJKST2Y4U&$bF's$GNRMC,122643.00,A,0419.72475,S,05539.79325,E,0.074,,190525,,,A*75
$GNVTG,,T,,M,0.074,N,0.136,K,A*3A
$GNGNS,122643.00,0419.72475,S,05539.79325,E,AA,14,0.74,14.5,-47.6,,*64
$GNGGA,122643.00,0419.72475,S,05539.79325,E,1,12,0.74,14.5,M,-47.6,M,,*48
$GNGSA,A,3,10,32,26,08,18,28,31,16,27,,,,1.66,0.74,1.49*1D
$GNGSA,A,3,70,84,71,85,72,,,,,,,,1.66,0.74,1.49*17
$GPGSV,4,1,16,08,06,319,16,10,17,001,25,16,25,243,32,18,33,081,28*76
$GPGSV,4,2,16,23,03,039,23,25,01,124,,26,29,212,21,27,42,311,31*7F
$GPGSV,4,3,16,28,48,153,23,29,15,147,,31,33,188,28,32,60,358,29*7F
$GPGSV,4,4,16,36,52,277,,40,84,353,40,41,58,082,,49,32,274,*78
$GLGSV,3,1,11,70,24,358,09,71,48,305,28,72,29,240,33,73,15,144,*6E
$GLGSV,3,2,11,74,15,190,,75,00,235,,83,12,138,,84,50,089,25*60
$GLGSV,3,3,11,85,38,011,25,,,,36,,,,24*57
$GNGLL,0419.72475,S,05539.79325,E,122643.00,A,A*65
$GNGRS,122643.00,1,0.8,2.2,-0.4,-0.1,0.7,6.6,-1.3,8.1,-5.5,,,*7F
$GNGRS,122643.00,1,2.7,5.6,-1.0,-3.2,-5.7,,,,,,,*57
$GNGST,122643.00,3179277,,,,3.5,3.9,11*55
$GNZDA,122643.00,19,05,2025,00,00*70
$GNGBS,122643.00,3.5,3.9,10.6,,,,*64
b0XI?z
+ !Q"'|*770! <fO
{4*Ta:R jFf$G01H!IJKST2YzU&$]bI+$GNRMC,122644.00,A,0419.72481,S,05539.79328,E,0.039,,190525,,,A*7D
$GNVTG,,T,,M,0.039,N,0.073,K,A*33
$GNGNS,122644.00,0419.72481,S,05539.79328,E,AA,14,0.76,14.9,-47.6,,*6B
$GNGGA,122644.00,0419.72481,S,05539.79328,E,1,12,0.76,14.9,M,-47.6,M,,*47
$GNGSA,A,3,10,32,26,08,18,28,31,16,27,,,,1.69,0.76,1.51*19
$GNGSA,A,3,70,84,71,85,72,,,,,,,,1.69,0.76,1.51*13
$GPGSV,4,1,16,08,06,319,16,10,17,001,27,16,25,243,32,18,33,081,29*75
$GPGSV,4,2,16,23,03,039,25,25,01,124,,26,29,212,20,27,42,311,30*79
$GPGSV,4,3,16,28,48,153,26,29,15,147,,31,33,188,28,32,60,358,27*74
$GPGSV,4,4,16,36,52,277,,40,84,353,42,41,58,082,,49,32,274,*7A
$GLGSV,3,1,11,70,24,358,14,71,48,305,27,72,29,240,33,73,15,144,*6D
$GLGSV,3,2,11,74,15,190,,75,00,235,,83,12,138,,84,50,089,25*60
$GLGSV,3,3,11,85,38,011,26,,,,36,,,,23*53
$GNGLL,0419.72481,S,05539.79328,E,122644.00,A,A*64
$GNGRS,122644.00,1,-4.7,0.8,2.2,1.2,0.3,4.8,-0.1,7.6,-7.1,,,*55
$GNGRS,122644.00,1,92.4,6.3,7.6,-5.0,-11.1,,,,,,,*76
$GNGST,122644.00,35,,,,3.4,3.8,11*6A
$GNZDA,122644.00,19,05,2025,00,00*77
$GNGBS,122644.00,3.4,3.8,10.6,,,,*63
b0XM?
e!Q'|,*7|0!~ <f
{4&Ta:R jFfG01/H!IJKST2YU&!`bM/y4$GNRMC,122645.00,A,0419.72476,S,05539.79330,E,0.353,,190525,,,A*72
$GNVTG,,T,,M,0.353,N,0.654,K,A*3F
$GNGNS,122645.00,0419.72476,S,05539.79330,E,AA,14,0.74,15.2,-47.6,,*63
$GNGGA,122645.00,0419.72476,S,05539.79330,E,1,12,0.74,15.2,M,-47.6,M,,*4F
$GNGSA,A,3,10,32,26,08,18,28,31,16,27,,,,1.66,0.74,1.49*1D
$GNGSA,A,3,70,84,71,85,72,,,,,,,,1.66,0.74,1.49*17
$GPGSV,4,1,16,08,06,319,19,10,17,001,17,16,25,243,30,18,33,081,27*75
$GPGSV,4,2,16,23,03,039,24,25,01,124,,26,29,212,19,27,42,311,22*71
$GPGSV,4,3,16,28,48,153,26,29,15,147,,31,33,188,27,32,60,358,31*7C
$GPGSV,4,4,16,36,52,277,,40,84,353,38,41,58,082,,49,32,274,*77
$GLGSV,3,1,11,70,24,358,09,71,48,305,25,72,29,240,33,73,15,144,*63
$GLGSV,3,2,11,74,15,190,,75,00,235,,83,12,138,,84,50,089,25*60
$GLGSV,3,3,11,85,38,011,27,,,,33,,,,22*56
$GNGLL,0419.72476,S,05539.79330,E,122645.00,A,A*64
$GNGRS,122645.00,1,-4.1,5.1,0.4,1.3,4.1,4.6,-1.3,9.7,-3.9,,,*53
$GNGRS,122645.00,1,2.6,6.9,0.5,-4.9,-10.6,,,,,,,*4C
$GNGST,122645.00,179475,,,,3.4,3.8,11*64
$GNZDA,122645.00,19,05,2025,00,00*76
$GNGBS,122645.00,3.4,3.8,10.6,,,,*62
b0XQ?
K!Q'|*7m0! <f
{4$Ta:R jFfG01zHIJKST2YFU&lbQ3Q$GNRMC,122646.00,A,0419.72455,S,05539.79333,E,0.983,,190525,,,A*74
$GNVTG,,T,,M,0.983,N,1.821,K,A*35
$GNGNS,122646.00,0419.72455,S,05539.79333,E,AA,13,0.76,14.8,-47.6,,*6C
$GNGGA,122646.00,0419.72455,S,05539.79333,E,1,12,0.76,14.8,M,-47.6,M,,*47
$GNGSA,A,3,32,26,08,18,28,31,16,27,,,,,1.78,0.76,1.60*1A
$GNGSA,A,3,70,84,71,85,72,,,,,,,,1.78,0.76,1.60*11
$GPGSV,4,1,16,08,06,319,21,10,17,001,26,16,25,243,21,18,33,081,25*7E
$GPGSV,4,2,16,23,03,039,22,25,01,124,,26,29,212,17,27,42,311,22*79
$GPGSV,4,3,16,28,48,153,25,29,15,147,,31,33,188,25,32,60,358,22*7F
$GPGSV,4,4,16,36,52,277,,40,84,353,36,41,58,082,,49,32,274,*79
$GLGSV,3,1,11,70,24,358,12,71,48,305,22,72,29,240,28,73,15,144,*64
$GLGSV,3,2,11,74,15,190,,75,00,235,,83,12,138,,84,50,089,23*66
$GLGSV,3,3,11,85,38,011,25,,,,29,,,,20*5D
$GNGLL,0419.72455,S,05539.79333,E,122646.00,A,A*65
$GNGRS,122646.00,1,5.4,-0.6,-0.4,7.3,4.9,-0.8,10.4,-4.0,,,,*66
$GNGRS,122646.00,1,2.0,8.4,-1.3,-6.2,-7.8,,,,,,,*51
$GNGST,122646.00,3299292,,,,3.5,3.8,11*57
$GNZDA,122646.00,19,05,2025,00,00*75
$GNGBS,122646.00,3.5,3.8,10.8,,,,*6E
b0XU?
!Qm'<|Z*740a! <f
{4#Ta:R jPF
fhG01HmIJKST2Y;U&|ZbUs7)$GNRMC,122647.00,A,0419.72474,S,05539.79356,E,1.227,,190525,,,A*71
$GNVTG,,T,,M,1.227,N,2.273,K,A*3F
$GNGNS,122647.00,0419.72474,S,05539.79356,E,AA,13,0.76,15.1,-47.6,,*65
$GNGGA,122647.00,0419.72474,S,05539.79356,E,1,12,0.76,15.1,M,-47.6,M,,*4E
$GNGSA,A,3,32,26,08,18,28,31,16,27,,,,,1.78,0.76,1.60*1A
$GNGSA,A,3,70,84,71,85,72,,,,,,,,1.78,0.76,1.60*11
$GPGSV,4,1,16,08,06,319,20,10,17,001,23,16,25,243,21,18,33,081,22*7D
$GPGSV,4,2,16,23,03,039,19,25,01,124,,26,29,212,14,27,42,311,21*71
$GPGSV,4,3,16,28,48,153,23,29,15,147,,31,33,188,22,32,60,358,19*76
$GPGSV,4,4,16,36,52,277,,40,84,353,35,41,58,082,,49,32,274,*7A
$GLGSV,3,1,11,70,24,358,10,71,48,305,19,72,29,240,28,73,15,144,*6E
$GLGSV,3,2,11,74,15,190,,75,00,235,,83,12,138,,84,50,089,20*65
$GLGSV,3,3,11,85,38,011,23,,,,29,,,,19*51
$GNGLL,0419.72474,S,05539.79356,E,122647.00,A,A*64
$GNGRS,122647.00,1,4.9,0.9,-2.6,6.2,8.6,1.6,19.6,0.5,,,,*4F
$GNGRS,122647.00,1,-112,8.3,-2.5,-6.4,-4.0,,,,,,,*6C
$GNGST,122647.00,65,,,,3.7,3.9,11*6E
$GNZDA,122647.00,19,05,2025,00,00*74
$GNGBS,122647.00,3.7,3.9,11.0,,,,*65
b0XY?|
.!Qh'|&*70
1! <f
{4)Ta:R jFfG01H"IJKST2YU&#t'bY[;l$GNRMC,122648.00,A,0419.72461,S,05539.79359,E,0.664,,190525,,,A*77
$GNVTG,,T,,M,0.664,N,1.230,K,A*39
$GNGNS,122648.00,0419.72461,S,05539.79359,E,AA,13,0.76,15.0,-47.6,,*60
$GNGGA,122648.00,0419.72461,S,05539.79359,E,1,12,0.76,15.0,M,-47.6,M,,*4B
$GNGSA,A,3,10,26,08,18,28,31,16,27,,,,,1.89,0.76,1.73*16
$GNGSA,A,3,70,84,71,85,72,,,,,,,,1.89,0.76,1.73*1D
$GPGSV,4,1,16,08,06,319,18,10,17,001,25,16,25,243,30,18,33,081,30*73
$GPGSV,4,2,16,23,03,039,24,25,01,124,,26,29,212,16,27,42,311,24*78
$GPGSV,4,3,16,28,48,153,27,29,15,147,11,31,33,188,25,32,60,358,24*7B
$GPGSV,4,4,16,36,52,277,,40,84,353,41,41,58,082,,49,32,274,*79
$GLGSV,3,1,11,70,24,358,12,71,48,305,19,72,29,240,34,73,15,144,*61
$GLGSV,3,2,11,74,15,190,,75,00,235,,83,12,138,,84,50,089,21*64
$GLGSV,3,3,11,85,38,011,26,,,,35,,,,23*50
$GNGLL,0419.72461,S,05539.79359,E,122648.00,A,A*60
$GNGRS,122648.00,1,-4.7,-2.2,1.2,1.0,4.7,-0.5,11.8,-5.4,,,,*65
$GNGRS,122648.00,1,2.0,6.8,-0.5,-6.2,-7.5,,,,,,,*57
$GNGST,122648.00,3299292,,,,3.8,4.0,11*5B
$GNZDA,122648.00,19,05,2025,00,00*7B
$GNGBS,122648.00,3.8,4.0,11.2,,,,*69
b0Xx]?
!Q'N|*70=-!n <fn
{4(Ta:R jFfG01"H#jIJKST2YU&9%bx]C?$GNRMC,122649.00,A,0419.72463,S,05539.79360,E,0.142,,190525,,,A*7D
$GNVTG,,T,,M,0.142,N,0.262,K,A*3C
$GNGNS,122649.00,0419.72463,S,05539.79360,E,AA,13,0.76,15.1,-47.6,,*68
$GNGGA,122649.00,0419.72463,S,05539.79360,E,1,12,0.76,15.1,M,-47.6,M,,*43
$GNGSA,A,3,10,26,08,18,28,31,16,27,,,,,1.89,0.76,1.73*16
$GNGSA,A,3,70,84,71,85,72,,,,,,,,1.89,0.76,1.73*1D
$GPGSV,4,1,16,08,06,319,18,10,17,001,25,16,25,243,30,18,33,081,29*7B
$GPGSV,4,2,16,23,03,039,26,25,01,124,,26,29,212,16,27,42,311,25*7B
$GPGSV,4,3,16,28,48,153,30,29,15,147,12,31,33,188,27,32,60,358,21*79
$GPGSV,4,4,16,36,52,277,,40,84,353,40,41,58,082,,49,32,274,*78
$GLGSV,3,1,11,70,24,358,12,71,48,305,22,72,29,240,35,73,15,144,*68
$GLGSV,3,2,11,74,15,190,,75,00,235,,83,12,138,,84,50,089,24*61
$GLGSV,3,3,11,85,38,011,27,,,,37,,,,25*55
$GNGLL,0419.72463,S,05539.79360,E,122649.00,A,A*69
$GNGRS,122649.00,1,2.8,-3.2,2.2,-3.6,0.6,-1.5,17.4,-3.3,,,,*64
$GNGRS,122649.00,1,1.5,4.6,-2.2,-7.1,-6.6,,,,,,,*59
$GNGST,122649.00,3299292,,,,3.9,4.0,11*5B
$GNZDA,122649.00,19,05,2025,00,00*7A
$GNGBS,122649.00,3.9,4.0,11.4,,,,*6F
b0X`a?
 j!Qk'T|*7\0m
+! <f
{4)Ta:R jF
f~G01JH#6IJKST2Y
U&$>b`a+C<$GNRMC,122650.00,A,0419.72475,S,05539.79366,E,0.128,,190525,,,A*78
$GNVTG,,T,,M,0.128,N,0.237,K,A*30
$GNGNS,122650.00,0419.72475,S,05539.79366,E,AA,13,0.78,15.0,-47.6,,*6E
$GNGGA,122650.00,0419.72475,S,05539.79366,E,1,12,0.78,15.0,M,-47.6,M,,*45
$GNGSA,A,3,10,26,08,18,28,31,16,27,,,,,1.91,0.78,1.75*17
$GNGSA,A,3,70,84,71,85,72,,,,,,,,1.91,0.78,1.75*1C
$GPGSV,4,1,16,08,06,319,17,10,17,001,26,16,25,243,32,18,33,081,29*75
$GPGSV,4,2,16,23,03,039,25,25,01,124,,26,29,212,19,27,42,311,31*72
$GPGSV,4,3,16,28,48,153,29,29,15,147,10,31,33,188,28,32,60,358,22*7F
$GPGSV,4,4,16,36,52,277,,40,84,353,41,41,58,082,,49,32,274,*79
$GLGSV,3,1,11,70,24,358,10,71,48,305,26,72,29,240,35,73,15,144,*6E
$GLGSV,3,2,11,74,15,190,,75,00,235,,83,12,138,,84,50,089,24*61
$GLGSV,3,3,11,85,38,011,29,,,,36,,,,25*5A
$GNGLL,0419.72475,S,05539.79366,E,122650.00,A,A*60
$GNGRS,122650.00,1,-2.5,-0.7,-0.1,1.1,1.1,-0.5,11.3,-4.2,,,,*4E
$GNGRS,122650.00,1,-62.7,5.2,-1.8,-11.3,-7.1,,,,,,,*74
$GNGST,122650.00,35,,,,3.8,3.9,12*61
$GNZDA,122650.00,19,05,2025,00,00*72
$GNGBS,122650.00,3.8,3.9,11.5,,,,*69
b0XHe?<
!!Q'W|*70#,!R <f'
{4'Ta:R jFf(G01
H IJKST2YU&&(bHeG$GNRMC,122651.00,A,0419.72483,S,05539.79363,E,0.069,,190525,,,A*71
$GNVTG,,T,,M,0.069,N,0.128,K,A*39
$GNGNS,122651.00,0419.72483,S,05539.79363,E,AA,14,0.74,14.8,-47.6,,*61
$GNGGA,122651.00,0419.72483,S,05539.79363,E,1,12,0.74,14.8,M,-47.6,M,,*4D
$GNGSA,A,3,10,32,26,08,18,28,31,16,27,,,,1.66,0.74,1.49*1D
$GNGSA,A,3,70,84,71,85,72,,,,,,,,1.66,0.74,1.49*17
$GPGSV,4,1,16,08,06,319,16,10,17,001,27,16,25,243,33,18,33,081,29*74
$GPGSV,4,2,16,23,03,039,24,25,01,124,,26,29,212,21,27,42,311,31*78
$GPGSV,4,3,16,28,48,153,27,29,15,147,08,31,33,188,29,32,60,358,24*7F
$GPGSV,4,4,16,36,52,277,,40,84,353,39,41,58,082,,49,32,274,*76
$GLGSV,3,1,11,70,24,358,14,71,48,305,26,72,29,240,32,73,15,144,*6D
$GLGSV,3,2,11,74,15,190,,75,00,235,,83,12,138,,84,50,089,24*61
$GLGSV,3,3,11,85,38,011,28,,,,38,,,,25*55
$GNGLL,0419.72483,S,05539.79363,E,122651.00,A,A*6D
$GNGRS,122651.00,1,-2.4,8.1,-2.4,3.2,-2.3,2.2,-1.7,6.7,-0.2,,,*5C
$GNGRS,122651.00,1,3.0,6.4,-2.5,-17.9,-5.0,,,,,,,*6C
$GNGST,122651.00,3179277,,,,3.8,3.9,12*58
$GNZDA,122651.00,19,05,2025,00,00*73
$GNGBS,122651.00,3.8,3.9,11.6,,,,*6B
b0X0i?
2#!Q'|" *70
+! <f
{4'Ta:R jFfBG01=H IJKST2YU&#rb0iJ`$GNRMC,122652.00,A,0419.72494,S,05539.79363,E,0.013,,190525,,,A*79
$GNVTG,,T,,M,0.013,N,0.025,K,A*38
$GNGNS,122652.00,0419.72494,S,05539.79363,E,AA,14,0.74,14.7,-47.6,,*6B
$GNGGA,122652.00,0419.72494,S,05539.79363,E,1,12,0.74,14.7,M,-47.6,M,,*47
$GNGSA,A,3,10,32,26,08,18,28,31,16,27,,,,1.66,0.74,1.49*1D
$GNGSA,A,3,70,84,71,85,72,,,,,,,,1.66,0.74,1.49*17
$GPGSV,4,1,16,08,06,319,17,10,17,001,28,16,25,243,35,18,33,081,29*7C
$GPGSV,4,2,16,23,03,039,23,25,01,124,,26,29,212,22,27,42,311,32*7F
$GPGSV,4,3,16,28,48,153,26,29,15,147,10,31,33,188,28,32,60,358,25*77
$GPGSV,4,4,16,36,52,277,,40,84,353,39,41,58,082,,49,32,274,*76
$GLGSV,3,1,11,70,24,358,08,71,48,305,26,72,29,240,32,73,15,144,*60
$GLGSV,3,2,11,74,15,190,,75,00,235,,83,12,138,,84,50,089,25*60
$GLGSV,3,3,11,85,38,011,28,,,,35,,,,25*58
$GNGLL,0419.72494,S,05539.79363,E,122652.00,A,A*68
$GNGRS,122652.00,1,-4.6,-0.8,-2.2,5.0,2.4,-1.1,-0.8,9.1,-3.2,,,*76
$GNGRS,122652.00,1,3.2,7.2,-2.0,-12.5,-6.1,,,,,,,*64
$GNGST,122652.00,3179277,,,,3.7,3.8,11*56
$GNZDA,122652.00,19,05,2025,00,00*70
$GNGBS,122652.00,3.7,3.8,11.4,,,,*64
b0Xm?
~.!Q'g|*7 0@! <f
{4*Ta:R jFfG01H :IJKST2YU &]#bmN8q$GNRMC,122653.00,A,0419.72505,S,05539.79360,E,0.079,,190525,,,A*7E
$GNVTG,,T,,M,0.079,N,0.146,K,A*30
$GNGNS,122653.00,0419.72505,S,05539.79360,E,AA,14,0.74,15.3,-47.6,,*65
$GNGGA,122653.00,0419.72505,S,05539.79360,E,1,12,0.74,15.3,M,-47.6,M,,*49
$GNGSA,A,3,10,32,26,08,18,28,31,16,27,,,,1.66,0.74,1.49*1D
$GNGSA,A,3,70,84,71,85,72,,,,,,,,1.66,0.74,1.49*17
$GPGSV,4,1,16,08,06,319,15,10,17,001,28,16,25,243,31,18,33,081,29*7A
$GPGSV,4,2,16,23,03,039,26,25,01,124,,26,29,212,21,27,42,311,28*72
$GPGSV,4,3,16,28,48,153,32,29,15,147,,31,33,188,29,32,60,358,25*72
$GPGSV,4,4,16,36,52,277,,40,84,353,42,41,58,082,,49,32,274,*7A
$GLGSV,3,1,11,70,24,358,09,71,48,305,24,72,29,240,32,73,15,144,*63
$GLGSV,3,2,11,74,15,190,,75,00,235,,83,12,138,,84,50,089,25*60
$GLGSV,3,3,11,85,38,011,32,,,,35,,,,23*55
$GNGLL,0419.72505,S,05539.79360,E,122653.00,A,A*63
$GNGRS,122653.00,1,-3.9,10.5,-3.1,5.4,2.5,0.6,-0.7,8.1,-0.9,,,*44
$GNGRS,122653.00,1,7.5,8.0,-1.3,-11.9,-4.5,,,,,,,*62
$GNGST,122653.00,49,,,,3.6,3.7,11*6A
$GNZDA,122653.00,19,05,2025,00,00*71
$GNGBS,122653.00,3.6,3.7,11.3,,,,*6C
b0Xq?:
*H!Q'|2*70,! <f
{4)Ta:R jFfIG01HIJKST2YU &F#bqR$GNRMC,122654.00,A,0419.72519,S,05539.79355,E,0.060,,190525,,,A*7A
$GNVTG,,T,,M,0.060,N,0.112,K,A*39
$GNGNS,122654.00,0419.72519,S,05539.79355,E,AA,14,0.74,16.1,-47.6,,*68
$GNGGA,122654.00,0419.72519,S,05539.79355,E,1,12,0.74,16.1,M,-47.6,M,,*44
$GNGSA,A,3,10,32,26,08,18,28,31,16,27,,,,1.66,0.74,1.49*1D
$GNGSA,A,3,70,84,71,85,72,,,,,,,,1.66,0.74,1.49*17
$GPGSV,4,1,16,08,06,319,16,10,17,001,28,16,25,243,31,18,33,081,29*79
$GPGSV,4,2,16,23,03,039,26,25,01,124,,26,29,212,20,27,42,311,29*72
$GPGSV,4,3,16,28,48,153,30,29,15,147,,31,33,188,29,32,60,358,23*76
$GPGSV,4,4,16,36,52,277,,40,84,353,41,41,58,082,,49,32,274,*79
$GLGSV,3,1,11,70,24,358,11,71,48,305,23,72,29,240,31,73,15,144,*6E
$GLGSV,3,2,11,74,15,190,,75,00,235,,83,12,138,,84,50,089,25*60
$GLGSV,3,3,11,85,38,011,32,,,,35,,,,22*54
$GNGLL,0419.72519,S,05539.79355,E,122654.00,A,A*6F
$GNGRS,122654.00,1,-9.8,10.3,-2.1,3.1,-3.6,3.0,-2.8,8.4,-7.4,,,*64
$GNGRS,122654.00,1,3.3,7.9,-2.8,-7.0,-5.0,,,,,,,*53
$GNGST,122654.00,41664,,,,3.5,3.7,11*52
$GNZDA,122654.00,19,05,2025,00,00*76
$GNGBS,122654.00,3.5,3.7,11.2,,,,*69
b0Xt>
g!Q'|*7D0! <f 
{4(Ta:R jF
feG01HIJKST2YU&$!btV2$GNRMC,122655.00,A,0419.72531,S,05539.79355,E,0.022,,190525,,,A*77
$GNVTG,,T,,M,0.022,N,0.042,K,A*3B
$GNGNS,122655.00,0419.72531,S,05539.79355,E,AA,14,0.74,16.2,-47.6,,*60
$GNGGA,122655.00,0419.72531,S,05539.79355,E,1,12,0.74,16.2,M,-47.6,M,,*4C
$GNGSA,A,3,10,32,26,08,18,28,31,16,27,,,,1.66,0.74,1.49*1D
$GNGSA,A,3,70,84,71,85,72,,,,,,,,1.66,0.74,1.49*17
$GPGSV,4,1,16,08,06,318,14,10,17,001,28,16,25,243,31,18,33,081,29*7A
$GPGSV,4,2,16,23,03,039,26,25,01,124,,26,29,212,19,27,42,311,29*78
$GPGSV,4,3,16,28,48,153,29,29,15,147,,31,33,188,29,32,60,358,25*78
$GPGSV,4,4,16,36,52,277,,40,84,353,40,41,58,082,,49,32,274,*78
$GLGSV,3,1,11,70,24,358,10,71,48,305,23,72,29,240,30,73,15,144,*6E
$GLGSV,3,2,11,74,15,190,,75,00,235,,83,12,138,,84,50,089,25*60
$GLGSV,3,3,11,85,38,011,30,,,,36,,,,22*55
$GNGLL,0419.72531,S,05539.79355,E,122655.00,A,A*64
$GNGRS,122655.00,1,-8.4,0.3,-3.2,4.3,1.4,-1.0,-2.4,6.1,-1.9,,,*50
$GNGRS,122655.00,1,3.6,9.2,-3.8,-13.3,-5.1,,,,,,,*64
$GNGST,122655.00,60893,,,,3.5,3.7,11*56
$GNZDA,122655.00,19,05,2025,00,00*77
$GNGBS,122655.00,3.5,3.7,11.1,,,,*6B
b0Xx>#
!Q6'z|*7 0^!! <f
{4(Ta:R jFf:G01H IJKST2YU&$bxZ$GNRMC,122656.00,A,0419.72537,S,05539.79357,E,0.065,,190525,,,A*73
$GNVTG,,T,,M,0.065,N,0.121,K,A*3C
$GNGNS,122656.00,0419.72537,S,05539.79357,E,AA,14,0.76,16.1,-47.6,,*66
$GNGGA,122656.00,0419.72537,S,05539.79357,E,1,12,0.76,16.1,M,-47.6,M,,*4A
$GNGSA,A,3,10,32,26,08,18,28,31,16,27,,,,1.69,0.76,1.51*19
$GNGSA,A,3,70,84,71,85,72,,,,,,,,1.69,0.76,1.51*13
$GPGSV,4,1,16,08,06,318,12,10,17,001,27,16,25,243,31,18,33,081,28*72
$GPGSV,4,2,16,23,03,039,26,25,01,124,,26,29,212,18,27,42,311,29*79
$GPGSV,4,3,16,28,48,153,29,29,15,147,,31,33,188,28,32,60,358,30*7D
$GPGSV,4,4,16,36,52,277,,40,84,353,40,41,58,082,,49,32,274,*78
$GLGSV,3,1,11,70,24,358,09,71,48,305,24,72,29,240,32,73,15,144,*63
$GLGSV,3,2,11,74,15,190,,75,00,235,,83,12,138,,84,50,089,25*60
$GLGSV,3,3,11,85,38,011,29,,,,36,,,,22*5D
$GNGLL,0419.72537,S,05539.79357,E,122656.00,A,A*63
$GNGRS,122656.00,1,-6.4,-5.1,-3.5,5.5,0.5,-1.6,-4.8,6.9,-2.2,,,*7B
$GNGRS,122656.00,1,150,10.1,-3.2,-10.9,-5.2,,,,,,,*43
$GNGST,122656.00,37,,,,3.4,3.6,11*65
$GNZDA,122656.00,19,05,2025,00,00*74
$GNGBS,122656.00,3.4,3.6,11.0,,,,*69
b0X|>
 !Q'|v*7l0?! <f
{4(Ta:R jFf'G01;H IJKST2Y U&%b|^$GNRMC,122657.00,A,0419.72544,S,05539.79365,E,0.077,,190525,,,A*74
$GNVTG,,T,,M,0.077,N,0.142,K,A*3A
$GNGNS,122657.00,0419.72544,S,05539.79365,E,AA,13,0.75,15.9,-47.6,,*6D
$GNGGA,122657.00,0419.72544,S,05539.79365,E,1,12,0.75,15.9,M,-47.6,M,,*46
$GNGSA,A,3,10,32,26,18,28,31,16,27,,,,,1.91,0.75,1.76*10
$GNGSA,A,3,70,84,71,85,72,,,,,,,,1.91,0.75,1.76*12
$GPGSV,4,1,16,08,06,318,,10,17,001,26,16,25,243,32,18,33,081,28*73
$GPGSV,4,2,16,23,03,039,25,25,01,124,,26,29,212,19,27,42,311,30*73
$GPGSV,4,3,16,28,48,153,28,29,15,147,,31,33,188,28,32,60,358,30*7C
$GPGSV,4,4,16,36,52,277,,40,84,353,40,41,58,082,,49,32,274,*78
$GLGSV,3,1,11,70,24,358,16,71,48,305,24,72,29,240,32,73,15,144,*6D
$GLGSV,3,2,11,74,15,190,,75,00,235,,83,12,138,,84,50,089,25*60
$GLGSV,3,3,11,85,38,011,29,,,,37,,,,23*5D
$GNGLL,0419.72544,S,05539.79365,E,122657.00,A,A*67
$GNGRS,122657.00,1,1.5,-3.1,-3.9,4.1,0.6,-3.5,6.9,-6.6,,,,*53
$GNGRS,122657.00,1,2.9,10.6,-4.5,-13.1,-5.3,,,,,,,*5E
$GNGST,122657.00,3326,,,,3.4,3.6,11*64
$GNZDA,122657.00,19,05,2025,00,00*75
$GNGBS,122657.00,3.4,3.6,11.0,,,,*68
b0X>
T !Q'|*70! <f(
{4(Ta:R jFf0G01H IJKST2YU&%%bkboj$GNRMC,122658.00,A,0419.72547,S,05539.79369,E,0.081,,190525,,,A*7D
$GNVTG,,T,,M,0.081,N,0.150,K,A*30
$GNGNS,122658.00,0419.72547,S,05539.79369,E,AA,13,0.75,15.9,-47.6,,*6D
$GNGGA,122658.00,0419.72547,S,05539.79369,E,1,12,0.75,15.9,M,-47.6,M,,*46
$GNGSA,A,3,10,32,26,18,28,31,16,27,,,,,1.91,0.75,1.76*10
$GNGSA,A,3,70,84,71,85,72,,,,,,,,1.91,0.75,1.76*12
$GPGSV,4,1,16,08,06,318,,10,17,001,26,16,25,243,32,18,33,081,28*73
$GPGSV,4,2,16,23,03,039,24,25,01,124,,26,29,212,20,27,42,311,29*70
$GPGSV,4,3,16,28,48,153,27,29,15,147,,31,33,188,28,32,60,358,30*73
$GPGSV,4,4,16,36,52,277,,40,84,353,40,41,58,082,,49,32,274,*78
$GLGSV,3,1,11,70,24,358,12,71,48,305,25,72,29,240,32,73,15,144,*68
$GLGSV,3,2,11,74,15,190,,75,00,235,,83,12,138,,84,50,089,25*60
$GLGSV,3,3,11,85,38,011,29,,,,37,,,,22*5C
$GNGLL,0419.72547,S,05539.79369,E,122658.00,A,A*67
$GNGRS,122658.00,1,-1.7,-4.7,-2.8,4.5,1.3,-2.6,5.2,-1.0,,,,*79
$GNGRS,122658.00,1,3.0,12.0,-2.9,-5.6,-5.2,,,,,,,*66
$GNGST,122658.00,4989,,,,3.4,3.6,11*63
$GNZDA,122658.00,19,05,2025,00,00*7A
$GNGBS,122658.00,3.4,3.6,10.9,,,,*6F
b0X>
"!Q'Q|*70]! <f
{4(Ta:R jF
fcG01H IJKST2YU&K%jbSfG$GNRMC,122659.00,A,0419.72549,S,05539.79372,E,0.016,,190525,,,A*76
$GNVTG,,T,,M,0.016,N,0.030,K,A*39
$GNGNS,122659.00,0419.72549,S,05539.79372,E,AA,13,0.75,15.9,-47.6,,*68
$GNGGA,122659.00,0419.72549,S,05539.79372,E,1,12,0.75,15.9,M,-47.6,M,,*43
$GNGSA,A,3,10,32,26,18,28,31,16,27,,,,,1.91,0.75,1.76*10
$GNGSA,A,3,70,84,71,85,72,,,,,,,,1.91,0.75,1.76*12
$GPGSV,4,1,16,08,06,318,,10,17,001,27,16,25,243,34,18,33,081,28*74
$GPGSV,4,2,16,23,03,039,22,25,01,124,,26,29,212,22,27,42,311,31*7D
$GPGSV,4,3,16,28,48,153,27,29,15,147,,31,33,188,28,32,60,358,29*7B
$GPGSV,4,4,16,36,52,277,,40,84,353,40,41,58,082,,49,32,274,*78
$GLGSV,3,1,11,70,24,358,10,71,48,305,26,72,29,240,32,73,15,144,*69
$GLGSV,3,2,11,74,15,190,,75,00,235,,83,12,138,,84,50,089,26*63
$GLGSV,3,3,11,85,38,011,28,,,,37,,,,23*5C
$GNGLL,0419.72549,S,05539.79372,E,122659.00,A,A*62
$GNGRS,122659.00,1,-0.9,-1.1,-3.0,4.2,-1.6,-0.6,4.2,1.6,,,,*7A
$GNGRS,122659.00,1,6.1,10.4,-3.5,-6.9,-5.4,,,,,,,*62
$GNGST,122659.00,44,,,,3.3,3.5,11*6A
$GNZDA,122659.00,19,05,2025,00,00*7B
$GNGBS,122659.00,3.3,3.5,10.8,,,,*6B
b0Xp>
!!Qg'F|*70!{ <f
{4(Ta:R jFf!G01H IJKST2YLU&
$.bp;j:$GNRMC,122700.00,A,0419.72549,S,05539.79374,E,0.042,,190525,,,A*7C
$GNVTG,,T,,M,0.042,N,0.078,K,A*34
$GNGNS,122700.00,0419.72549,S,05539.79374,E,AA,13,0.75,15.9,-47.6,,*63
$GNGGA,122700.00,0419.72549,S,05539.79374,E,1,12,0.75,15.9,M,-47.6,M,,*48
$GNGSA,A,3,10,32,26,18,28,31,16,27,,,,,1.91,0.75,1.76*10
$GNGSA,A,3,70,84,71,85,72,,,,,,,,1.91,0.75,1.76*12
$GPGSV,4,1,16,08,06,318,,10,17,001,27,16,25,243,33,18,33,081,27*7C
$GPGSV,4,2,16,23,03,039,22,25,01,124,,26,29,212,22,27,42,311,30*7C
$GPGSV,4,3,16,28,48,153,27,29,15,147,,31,33,188,29,32,60,358,29*7A
$GPGSV,4,4,16,36,52,277,,40,84,353,40,41,58,082,,49,32,274,*78
$GLGSV,3,1,11,70,24,358,08,71,48,305,26,72,29,240,32,73,15,144,*60
$GLGSV,3,2,11,74,15,190,,75,00,235,,83,12,138,,84,50,089,26*63
$GLGSV,3,3,11,85,38,011,29,,,,36,,,,23*5C
$GNGLL,0419.72549,S,05539.79374,E,122700.00,A,A*69
$GNGRS,122700.00,1,-2.5,-3.0,-5.1,6.1,-3.5,-3.9,5.4,1.7,,,,*77
$GNGRS,122700.00,1,2.9,11.0,-2.3,-7.6,-5.4,,,,,,,*6F
$GNGST,122700.00,33259,,,,3.3,3.5,11*59
$GNZDA,122700.00,19,05,2025,00,00*76
$GNGBS,122700.00,3.3,3.5,10.8,,,,*66
b0XX>
!!Q'|*70! <f'
{4(Ta:R jFf<G01H IJKST2YU&%bX#n$GNRMC,122701.00,A,0419.72554,S,05539.79375,E,0.096,,190525,,,A*79
$GNVTG,,T,,M,0.096,N,0.177,K,A*33
$GNGNS,122701.00,0419.72554,S,05539.79375,E,AA,13,0.75,15.9,-47.6,,*6F
$GNGGA,122701.00,0419.72554,S,05539.79375,E,1,12,0.75,15.9,M,-47.6,M,,*44
$GNGSA,A,3,10,32,26,18,28,31,16,27,,,,,1.91,0.75,1.76*10
$GNGSA,A,3,70,84,71,85,72,,,,,,,,1.91,0.75,1.76*12
$GPGSV,4,1,16,08,06,318,,10,17,001,26,16,25,243,33,18,33,081,28*72
$GPGSV,4,2,16,23,03,039,22,25,01,124,,26,29,212,21,27,42,311,29*77
$GPGSV,4,3,16,28,48,153,28,29,15,147,,31,33,188,29,32,60,358,28*74
$GPGSV,4,4,16,36,52,277,,40,84,353,40,41,58,082,,49,32,274,*78
$GLGSV,3,1,11,70,24,358,09,71,48,305,25,72,29,240,32,73,15,144,*62
$GLGSV,3,2,11,74,15,190,,75,00,235,,83,12,138,,84,50,089,25*60
$GLGSV,3,3,11,85,38,011,29,,,,37,,,,24*5A
$GNGLL,0419.72554,S,05539.79375,E,122701.00,A,A*65
$GNGRS,122701.00,1,-3.2,-2.2,-3.8,2.6,-2.7,-6.1,6.5,-3.2,,,,*59
$GNGRS,122701.00,1,3.2,10.2,-3.6,-11.3,-5.5,,,,,,,*50
$GNGST,122701.00,49888,,,,3.2,3.5,11*52
$GNZDA,122701.00,19,05,2025,00,00*77
$GNGBS,122701.00,3.2,3.5,10.8,,,,*66
b0X@>
!Q'W|h*70! <f#
{4'Ta:R jFfWG01H IJKST2YU&%3b@r
$GNRMC,122702.00,A,0419.72557,S,05539.79376,E,0.011,,190525,,,A*75
$GNVTG,,T,,M,0.011,N,0.021,K,A*3E
$GNGNS,122702.00,0419.72557,S,05539.79376,E,AA,13,0.78,15.8,-47.6,,*60
$GNGGA,122702.00,0419.72557,S,05539.79376,E,1,12,0.78,15.8,M,-47.6,M,,*4B
$GNGSA,A,3,10,32,26,18,28,31,16,27,,,,,2.02,0.78,1.87*1A
$GNGSA,A,3,70,84,71,85,72,,,,,,,,2.02,0.78,1.87*18
$GPGSV,4,1,16,08,06,318,,10,17,001,25,16,25,243,31,18,33,081,29*72
$GPGSV,4,2,16,23,03,039,22,25,01,124,,26,29,212,20,27,42,311,28*77
$GPGSV,4,3,16,28,48,153,28,29,15,147,,31,33,188,29,32,60,358,28*74
$GPGSV,4,4,16,36,52,277,,40,84,353,39,41,58,082,,49,32,274,*76
$GLGSV,3,1,11,70,24,358,11,71,48,305,25,72,29,240,32,73,15,144,*6B
$GLGSV,3,2,11,74,15,190,,75,00,235,,83,12,138,,84,50,089,25*60
$GLGSV,3,3,11,85,38,011,30,,,,37,,,,25*53
$GNGLL,0419.72557,S,05539.79376,E,122702.00,A,A*66
$GNGRS,122702.00,1,-0.7,-2.2,-4.1,0.3,-2.6,-3.7,7.3,-0.1,,,,*50
$GNGRS,122702.00,1,-93.8,10.1,-3.3,-8.5,-5.4,,,,,,,*74
$GNGST,122702.00,32,,,,3.2,3.4,11*64
$GNZDA,122702.00,19,05,2025,00,00*74
$GNGBS,122702.00,3.2,3.4,10.8,,,,*64
b0X(>
!!Q#'"| *7g0g! <ft
{4)Ta:R jFfG01H!IJKST2YHU&%G,b(uo$GNRMC,122703.00,A,0419.72560,S,05539.79378,E,0.045,,190525,,,A*7F
$GNVTG,,T,,M,0.045,N,0.084,K,A*30
$GNGNS,122703.00,0419.72560,S,05539.79378,E,AA,13,0.75,15.7,-47.6,,*69
$GNGGA,122703.00,0419.72560,S,05539.79378,E,1,12,0.75,15.7,M,-47.6,M,,*42
$GNGSA,A,3,10,32,26,18,28,31,16,27,,,,,1.91,0.75,1.76*10
$GNGSA,A,3,70,84,71,85,72,,,,,,,,1.91,0.75,1.76*12
$GPGSV,4,1,16,08,06,318,,10,17,001,26,16,25,243,33,18,33,081,30*7B
$GPGSV,4,2,16,23,03,039,22,25,01,124,,26,29,212,21,27,42,311,32*7D
$GPGSV,4,3,16,28,48,153,28,29,15,147,,31,33,188,29,32,60,358,28*74
$GPGSV,4,4,16,36,52,277,,40,84,353,41,41,58,082,,49,32,274,*79
$GLGSV,3,1,11,70,24,358,08,71,48,305,26,72,29,240,33,73,15,144,*61
$GLGSV,3,2,11,74,15,190,,75,00,235,,83,12,138,,84,50,089,26*63
$GLGSV,3,3,11,85,38,011,29,,,,37,,,,23*5D
$GNGLL,0419.72560,S,05539.79378,E,122703.00,A,A*6D
$GNGRS,122703.00,1,-0.9,-1.4,-5.5,0.3,-4.1,-2.7,7.5,-1.5,,,,*5C
$GNGRS,122703.00,1,2.8,11.0,-3.2,-10.5,-5.3,,,,,,,*5F
$GNGST,122703.00,3299292,,,,3.2,3.4,11*5C
$GNZDA,122703.00,19,05,2025,00,00*75
$GNGBS,122703.00,3.2,3.4,10.7,,,,*6A
b0X>
 !Q
'|\*70! <f
{4'Ta:R jFfG01H!IJKST2YU&$kzby~$GNRMC,122704.00,A,0419.72562,S,05539.79382,E,0.062,,190525,,,A*7A
$GNVTG,,T,,M,0.062,N,0.114,K,A*3D
$GNGNS,122704.00,0419.72562,S,05539.79382,E,AA,13,0.75,15.5,-47.6,,*6B
$GNGGA,122704.00,0419.72562,S,05539.79382,E,1,12,0.75,15.5,M,-47.6,M,,*40
$GNGSA,A,3,10,32,26,18,28,31,16,27,,,,,1.91,0.75,1.76*10
$GNGSA,A,3,70,84,71,85,72,,,,,,,,1.91,0.75,1.76*12
$GPGSV,4,1,16,08,06,318,14,10,17,001,27,16,25,243,32,18,33,081,29*76
$GPGSV,4,2,16,23,03,039,20,25,01,124,,26,29,212,21,27,42,311,30*7D
$GPGSV,4,3,16,28,48,153,28,29,15,147,,31,33,188,29,32,60,358,26*7A
$GPGSV,4,4,16,36,52,277,,40,84,353,39,41,58,082,,49,32,274,*76
$GLGSV,3,1,11,70,24,358,14,71,48,305,25,72,29,240,33,73,15,144,*6F
$GLGSV,3,2,11,74,15,190,,75,00,235,,83,12,138,,84,50,089,26*63
$GLGSV,3,3,11,85,38,011,31,,,,36,,,,24*52
$GNGLL,0419.72562,S,05539.79382,E,122704.00,A,A*6D
$GNGRS,122704.00,1,-0.5,-0.3,-4.2,2.7,-3.2,-2.6,7.2,-0.1,,,,*56
$GNGRS,122704.00,1,2.6,10.3,-3.3,-8.8,-5.2,,,,,,,*60
$GNGST,122704.00,3299292,,,,3.2,3.4,11*5B
$GNZDA,122704.00,19,05,2025,00,00*72
$GNGBS,122704.00,3.2,3.4,10.7,,,,*6D
b0X>
 !R}'?|*70! <fp
{4*Ta:R jFf,G01H"IJKST2Y-U&'$b}U0$GNRMC,122705.00,A,0419.72560,S,05539.79383,E,0.084,,190525,,,A*70
$GNVTG,,T,,M,0.084,N,0.155,K,A*30
$GNGNS,122705.00,0419.72560,S,05539.79383,E,AA,13,0.78,15.3,-47.6,,*62
$GNGGA,122705.00,0419.72560,S,05539.79383,E,1,12,0.78,15.3,M,-47.6,M,,*49
$GNGSA,A,3,10,32,26,18,28,31,16,27,,,,,2.02,0.78,1.87*1A
$GNGSA,A,3,70,84,71,85,72,,,,,,,,2.02,0.78,1.87*18
$GPGSV,4,1,16,08,06,318,14,10,17,001,28,16,25,243,32,18,33,082,30*72
$GPGSV,4,2,16,23,03,039,25,25,01,124,,26,29,212,20,27,42,311,30*79
$GPGSV,4,3,16,28,48,153,31,29,15,147,,31,33,188,29,32,60,358,27*73
$GPGSV,4,4,16,36,52,277,,40,84,353,42,41,58,082,,49,32,274,*7A
$GLGSV,3,1,11,70,24,358,08,71,48,305,25,72,29,240,34,73,15,144,*65
$GLGSV,3,2,11,74,15,190,,75,00,235,,83,12,138,,84,50,089,26*63
$GLGSV,3,3,11,85,38,011,30,,,,36,,,,23*54
$GNGLL,0419.72560,S,05539.79383,E,122705.00,A,A*6F
$GNGRS,122705.00,1,0.0,1.1,-5.6,1.2,-4.8,-2.7,7.3,-0.5,,,,*5B
$GNGRS,122705.00,1,-35.4,10.7,-3.8,-2.2,-5.2,,,,,,,*75
$GNGST,122705.00,30,,,,3.1,3.3,11*65
$GNZDA,122705.00,19,05,2025,00,00*73
$GNGBS,122705.00,3.1,3.3,10.6,,,,*69
b0X>
 !R'
|7*70! <f
{4(Ta:R jFfG01H!IJKST2YU&$>b-$GNRMC,122706.00,A,0419.72560,S,05539.79380,E,0.038,,190525,,,A*77
$GNVTG,,T,,M,0.038,N,0.071,K,A*30
$GNGNS,122706.00,0419.72560,S,05539.79380,E,AA,13,0.75,15.4,-47.6,,*68
$GNGGA,122706.00,0419.72560,S,05539.79380,E,1,12,0.75,15.4,M,-47.6,M,,*43
$GNGSA,A,3,10,32,26,18,28,31,16,27,,,,,1.91,0.75,1.76*10
$GNGSA,A,3,70,84,71,85,72,,,,,,,,1.91,0.75,1.76*12
$GPGSV,4,1,16,08,06,318,,10,17,001,27,16,25,243,32,18,33,082,30*78
$GPGSV,4,2,16,23,03,039,23,25,01,124,,26,29,212,19,27,42,311,30*75
$GPGSV,4,3,16,28,48,153,30,29,15,147,,31,33,188,29,32,60,358,26*73
$GPGSV,4,4,16,36,52,277,,40,84,353,40,41,58,082,,49,32,274,*78
$GLGSV,3,1,11,70,24,358,08,71,48,305,25,72,29,240,33,73,15,144,*62
$GLGSV,3,2,11,74,15,190,,75,00,235,,83,12,138,,84,50,089,26*63
$GLGSV,3,3,11,85,38,011,30,,,,36,,,,22*55
$GNGLL,0419.72560,S,05539.79380,E,122706.00,A,A*6F
$GNGRS,122706.00,1,-1.3,1.5,-4.6,-2.4,-3.6,-3.0,7.0,3.9,,,,*74
$GNGRS,122706.00,1,2.7,10.0,-2.8,-6.4,-5.3,,,,,,,*69
$GNGST,122706.00,3299292,,,,3.1,3.3,11*5D
$GNZDA,122706.00,19,05,2025,00,00*70
$GNGBS,122706.00,3.1,3.3,10.6,,,,*6A
b0X>(
!!R'o|R"*7"0!* <fw
{4(Ta:R jFfG01OH IJKST2YU&*#b$GNRMC,122707.00,A,0419.72560,S,05539.79381,E,0.029,,190525,,,A*77
$GNVTG,,T,,M,0.029,N,0.054,K,A*37
$GNGNS,122707.00,0419.72560,S,05539.79381,E,AA,13,0.75,15.3,-47.6,,*6F
$GNGGA,122707.00,0419.72560,S,05539.79381,E,1,12,0.75,15.3,M,-47.6,M,,*44
$GNGSA,A,3,10,32,26,18,28,31,16,27,,,,,1.91,0.75,1.76*10
$GNGSA,A,3,70,84,71,85,72,,,,,,,,1.91,0.75,1.76*12
$GPGSV,4,1,16,08,06,318,16,10,17,001,24,16,25,243,33,18,33,082,27*7B
$GPGSV,4,2,16,23,03,039,23,25,01,124,,26,29,212,21,27,42,311,34*7A
$GPGSV,4,3,16,28,48,153,28,29,15,147,,31,33,188,28,32,60,358,27*7A
$GPGSV,4,4,16,36,52,277,,40,84,353,40,41,58,082,,49,32,274,*78
$GLGSV,3,1,11,70,24,358,12,71,48,305,25,72,29,240,32,73,15,144,*68
$GLGSV,3,2,11,74,15,190,,75,00,235,,83,12,138,,84,50,089,26*63
$GLGSV,3,3,11,85,38,011,22,,,,35,,,,21*56
$GNGLL,0419.72560,S,05539.79381,E,122707.00,A,A*6F
$GNGRS,122707.00,1,-0.9,1.2,-4.3,2.4,-5.2,0.4,7.1,0.3,,,,*71
$GNGRS,122707.00,1,2.6,10.2,-1.8,-9.8,-5.3,,,,,,,*6B
$GNGST,122707.00,3299292,,,,3.1,3.3,11*5C
$GNZDA,122707.00,19,05,2025,00,00*71
$GNGBS,122707.00,3.1,3.3,10.6,,,,*6B
b0X>Q
k"5!R['|}"*70:!9 <f
{4(Ta:R jFf^G01HIJKST2YEU&$b{h$GNRMC,122708.00,A,0419.72558,S,05539.79376,E,0.102,,190525,,,A*73
$GNVTG,,T,,M,0.102,N,0.189,K,A*3E
$GNGNS,122708.00,0419.72558,S,05539.79376,E,AA,13,0.78,15.4,-47.6,,*69
$GNGGA,122708.00,0419.72558,S,05539.79376,E,1,12,0.78,15.4,M,-47.6,M,,*42
$GNGSA,A,3,10,32,26,18,28,31,16,27,,,,,2.02,0.78,1.87*1A
$GNGSA,A,3,70,84,71,85,72,,,,,,,,2.02,0.78,1.87*18
$GPGSV,4,1,16,08,06,318,17,10,17,001,23,16,25,243,34,18,33,082,27*7A
$GPGSV,4,2,16,23,03,039,23,25,01,124,12,26,29,212,24,27,42,311,34*7C
$GPGSV,4,3,16,28,48,153,28,29,15,147,,31,33,188,29,32,60,358,29*75
$GPGSV,4,4,16,36,52,277,,40,84,353,40,41,58,082,,49,32,274,*78
$GLGSV,3,1,11,70,24,358,08,71,48,305,26,72,29,240,31,73,15,144,*63
$GLGSV,3,2,11,74,15,190,,75,00,235,,83,12,138,,84,50,089,26*63
$GLGSV,3,3,11,85,38,011,22,,,,36,,,,22*56
$GNGLL,0419.72558,S,05539.79376,E,122708.00,A,A*63
$GNGRS,122708.00,1,-1.5,1.4,-3.9,0.9,-2.0,-2.0,5.7,4.4,,,,*5E
$GNGRS,122708.00,1,-70.7,10.9,-3.4,-7.4,-5.3,,,,,,,*7A
$GNGST,122708.00,32,,,,3.1,3.3,11*6A
$GNZDA,122708.00,19,05,2025,00,00*7E
$GNGBS,122708.00,3.1,3.3,10.6,,,,*64
b0X>
"!R'|"*70k! <f
{4&Ta:R jFfG01vHIJKST2YYU&$bc$GNRMC,122709.00,A,0419.72555,S,05539.79371,E,0.045,,190525,,,A*7A
$GNVTG,,T,,M,0.045,N,0.083,K,A*37
$GNGNS,122709.00,0419.72555,S,05539.79371,E,AA,13,0.75,15.7,-47.6,,*6C
$GNGGA,122709.00,0419.72555,S,05539.79371,E,1,12,0.75,15.7,M,-47.6,M,,*47
$GNGSA,A,3,10,32,26,18,28,31,16,27,,,,,1.91,0.75,1.76*10
$GNGSA,A,3,70,84,71,85,72,,,,,,,,1.91,0.75,1.76*12
$GPGSV,4,1,16,08,06,318,21,10,17,001,22,16,25,243,34,18,33,082,27*7E
$GPGSV,4,2,16,23,03,039,22,25,01,124,11,26,29,212,25,27,42,311,34*7F
$GPGSV,4,3,16,28,48,153,28,29,15,147,,31,33,188,28,32,60,358,29*74
$GPGSV,4,4,16,36,52,277,,40,84,353,38,41,58,082,,49,32,274,*77
$GLGSV,3,1,11,70,24,358,11,71,48,305,27,72,29,240,31,73,15,144,*6A
$GLGSV,3,2,11,74,15,190,,75,00,235,,83,12,138,,84,50,089,27*62
$GLGSV,3,3,11,85,38,011,23,,,,36,,,,22*57
$GNGLL,0419.72555,S,05539.79371,E,122709.00,A,A*68
$GNGRS,122709.00,1,-3.5,4.7,-3.5,-0.6,-1.5,-0.1,6.9,6.8,,,,*73
$GNGRS,122709.00,1,2.7,11.1,-3.9,2.0,-5.4,,,,,,,*4C
$GNGST,122709.00,212858,,,,3.0,3.2,11*6E
$GNZDA,122709.00,19,05,2025,00,00*7F
$GNGBS,122709.00,3.0,3.2,10.6,,,,*65
b0X> 
!R'R|W!*70! <f
{4)Ta:R jFfG01~HIJKST2YU&$EbK8$GNRMC,122710.00,A,0419.72554,S,05539.79371,E,0.085,,190525,,,A*7F
$GNVTG,,T,,M,0.085,N,0.158,K,A*3C
$GNGNS,122710.00,0419.72554,S,05539.79371,E,AA,14,0.74,15.9,-47.6,,*6D
$GNGGA,122710.00,0419.72554,S,05539.79371,E,1,12,0.74,15.9,M,-47.6,M,,*41
$GNGSA,A,3,10,32,26,08,18,28,31,16,27,,,,1.66,0.74,1.49*1D
$GNGSA,A,3,70,84,71,85,72,,,,,,,,1.66,0.74,1.49*17
$GPGSV,4,1,16,08,06,318,21,10,17,001,24,16,25,243,30,18,33,082,27*7C
$GPGSV,4,2,16,23,03,039,23,25,01,124,11,26,29,212,24,27,42,311,33*78
$GPGSV,4,3,16,28,48,153,29,29,15,147,,31,33,188,28,32,60,358,28*74
$GPGSV,4,4,16,36,52,277,,40,84,353,41,41,58,082,,49,32,274,*79
$GLGSV,3,1,11,70,24,358,12,71,48,305,26,72,29,240,31,73,15,144,*68
$GLGSV,3,2,11,74,15,190,,75,00,235,,83,12,138,,84,50,089,26*63
$GLGSV,3,3,11,85,38,011,30,,,,36,,,,19*5D
$GNGLL,0419.72554,S,05539.79371,E,122710.00,A,A*61
$GNGRS,122710.00,1,-3.2,4.2,-1.7,15.7,-2.3,-0.6,-0.3,6.6,2.0,,,*60
$GNGRS,122710.00,1,2.5,13.0,-3.9,4.0,-5.6,,,,,,,*41
$GNGST,122710.00,205115,,,,3.0,3.2,11*60
$GNZDA,122710.00,19,05,2025,00,00*77
$GNGBS,122710.00,3.0,3.2,10.6,,,,*6D
b0Xh>n
#!R'U|M*7 0! <fK
{4)Ta:R jFfG01%H!IJKST2YSU&:#`bh3e$GNRMC,122711.00,A,0419.72555,S,05539.79374,E,0.035,,190525,,,A*71
$GNVTG,,T,,M,0.035,N,0.065,K,A*38
$GNGNS,122711.00,0419.72555,S,05539.79374,E,AA,14,0.76,15.7,-47.6,,*64
$GNGGA,122711.00,0419.72555,S,05539.79374,E,1,12,0.76,15.7,M,-47.6,M,,*48
$GNGSA,A,3,10,32,26,08,18,28,31,16,27,,,,1.69,0.76,1.51*19
$GNGSA,A,3,70,84,71,85,72,,,,,,,,1.69,0.76,1.51*13
$GPGSV,4,1,16,08,06,318,20,10,17,001,26,16,25,243,30,18,33,082,28*70
$GPGSV,4,2,16,23,03,039,24,25,00,124,09,26,29,212,20,27,42,311,28*79
$GPGSV,4,3,16,28,48,153,32,29,15,147,,31,33,188,28,32,60,358,17*72
$GPGSV,4,4,16,36,52,277,,40,84,353,41,41,58,082,,49,32,274,*79
$GLGSV,3,1,11,70,24,358,11,71,48,305,24,72,29,240,33,73,15,144,*6B
