b0X ?U
#h" O'%~(9. $?e
{4Ta(:R iFdG 2-HIJKST1TU&$
$,b$GNRMC,122209.00,A,0419.71836,S,05539.78839,E,0.078,,190525,,,A*7C
$GNVTG,,T,,M,0.078,N,0.145,K,A*32
$GNGNS,122209.00,0419.71836,S,05539.78839,E,AA,14,0.68,18.9,-47.6,,*6C
$GNGGA,122209.00,0419.71836,S,05539.78839,E,1,12,0.68,18.9,M,-47.6,M,,*40
$GNGSA,A,3,29,10,32,26,18,28,31,16,27,,,,1.70,0.68,1.56*1A
$GNGSA,A,3,70,84,71,85,72,,,,,,,,1.70,0.68,1.56*13
$GPGSV,4,1,16,08,05,319,32,10,17,360,35,16,25,245,24,18,32,079,34*7C
$GPGSV,4,2,16,23,03,037,39,25,01,126,,26,29,215,18,27,40,313,29*7C
$GPGSV,4,3,16,28,46,156,22,29,17,147,08,31,31,189,12,32,63,357,36*77
$GPGSV,4,4,16,36,52,277,,40,84,353,,41,58,082,40,49,32,274,*78
$GLGSV,3,1,11,70,26,356,22,71,50,301,32,72,28,237,20,73,14,147,*6C
$GLGSV,3,2,11,74,15,192,,75,00,237,,83,14,136,,84,49,084,29*61
$GLGSV,3,3,11,85,36,010,38,,,,36,,,,24*54
$GNGLL,0419.71836,S,05539.78839,E,122209.00,A,A*60
$GNGRS,122209.00,1,19.2,-0.4,-0.1,14.4,-2.2,-2.5,-2.8,-3.3,-3.6,,,*5F
$GNGRS,122209.00,1,12.6,4.1,-3.5,-1.2,-16.5,,,,,,,*5E
$GNGST,122209.00,3186094,,,,3.9,3.0,6.0*7D
$GNZDA,122209.00,19,05,2025,00,00*7A
$GNGBS,122209.00,3.9,3.0,6.0,,,,*5A
b0X?
 h Oa%0~(9*.
  ?e
{4Ta":R iFd1G2-HvIJKST1TzU$$
Z bbl$GNRMC,122210.00,A,0419.71812,S,05539.78836,E,0.716,,190525,,,A*72
$GNVTG,,T,,M,0.716,N,1.325,K,A*38
$GNGNS,122210.00,0419.71812,S,05539.78836,E,AA,13,0.78,19.1,-47.6,,*62
$GNGGA,122210.00,0419.71812,S,05539.78836,E,1,12,0.78,19.1,M,-47.6,M,,*49
$GNGSA,A,3,29,10,32,18,28,31,16,27,,,,,1.96,0.78,1.80*1C
$GNGSA,A,3,70,84,71,85,72,,,,,,,,1.96,0.78,1.80*11
$GPGSV,4,1,16,08,05,319,27,10,17,360,32,16,25,245,21,18,32,079,26*79
$GPGSV,4,2,16,23,03,037,31,25,01,126,,26,29,215,03,27,40,313,19*7D
$GPGSV,4,3,16,28,46,156,20,29,17,147,10,31,31,189,09,32,63,357,32*72
$GPGSV,4,4,16,36,52,277,,40,84,353,,41,58,082,34,49,32,274,*7B
$GLGSV,3,1,11,70,26,356,19,71,50,301,26,72,28,237,18,73,14,147,*6A
$GLGSV,3,2,11,74,15,192,,75,00,237,,83,14,136,,84,49,084,22*6A
$GLGSV,3,3,11,85,36,010,36,,,,32,,,,22*58
$GNGLL,0419.71812,S,05539.78836,E,122210.00,A,A*61
$GNGRS,122210.00,1,-126,0.0,-0.2,1.0,-5.3,35.2,-5.1,-2.1,,,,*52
$GNGRS,122210.00,1,15.8,6.3,-3.8,-1.7,-16.7,,,,,,,*55
$GNGST,122210.00,52,,,,4.0,3.0,6.1*4C
$GNZDA,122210.00,19,05,2025,00,00*72
$GNGBS,122210.00,4.0,3.0,6.1,,,,*5D
b0X?E
'h# O#%~(9.2
@ '?e(
{4Ta':R iFdG2-HFIJKST1T@U($
d!LbTv|$GNRMC,122211.00,A,0419.71811,S,05539.78834,E,0.134,,190525,,,A*74
$GNVTG,,T,,M,0.134,N,0.249,K,A*34
$GNGNS,122211.00,0419.71811,S,05539.78834,E,AA,13,0.71,19.4,-47.6,,*6E
$GNGGA,122211.00,0419.71811,S,05539.78834,E,1,12,0.71,19.4,M,-47.6,M,,*45
$GNGSA,A,3,29,10,32,18,28,31,16,27,,,,,1.72,0.71,1.56*14
$GNGSA,A,3,70,84,71,85,72,,,,,,,,1.72,0.71,1.56*19
$GPGSV,4,1,16,08,05,319,31,10,17,360,39,16,25,245,19,18,32,079,35*7C
$GPGSV,4,2,16,23,03,037,35,25,01,126,,26,29,215,09,27,40,313,23*7A
$GPGSV,4,3,16,28,46,156,19,29,17,147,10,31,31,189,11,32,63,357,39*7A
$GPGSV,4,4,16,36,52,277,,40,84,353,,41,58,082,39,49,32,274,*76
$GLGSV,3,1,11,70,26,356,17,71,50,301,29,72,28,237,17,73,14,147,*64
$GLGSV,3,2,11,74,15,192,,75,00,237,,83,14,136,,84,49,084,23*6B
$GLGSV,3,3,11,85,36,010,40,,,,33,,,,21*5B
$GNGLL,0419.71811,S,05539.78834,E,122211.00,A,A*61
$GNGRS,122211.00,1,18.6,-2.6,3.0,-0.9,-4.6,12.6,-5.7,-4.9,,,,*77
$GNGRS,122211.00,1,15.5,5.8,-0.1,-1.6,-17.2,,,,,,,*5E
$GNGST,122211.00,3326643,,,,4.0,3.1,6.1*7E
$GNZDA,122211.00,19,05,2025,00,00*73
$GNGBS,122211.00,4.0,3.1,6.1,,,,*5D
b0Xp#"?\
&hk O%%+~(9.7
 '?ee
{4Ta':R iFdG%2-H3IJKST1TU($
`%rbp#<N$GNRMC,122212.00,A,0419.71819,S,05539.78834,E,0.094,,190525,,,A*74
$GNVTG,,T,,M,0.094,N,0.175,K,A*33
$GNGNS,122212.00,0419.71819,S,05539.78834,E,AA,14,0.68,18.9,-47.6,,*66
$GNGGA,122212.00,0419.71819,S,05539.78834,E,1,12,0.68,18.9,M,-47.6,M,,*4A
$GNGSA,A,3,29,10,32,26,18,28,31,16,27,,,,1.70,0.68,1.56*1A
$GNGSA,A,3,70,84,71,85,72,,,,,,,,1.70,0.68,1.56*13
$GPGSV,4,1,16,08,05,319,34,10,17,360,38,16,25,245,21,18,32,079,30*76
$GPGSV,4,2,16,23,03,037,37,25,01,126,,26,29,214,14,27,40,313,31*76
$GPGSV,4,3,16,28,46,156,20,29,17,147,10,31,31,189,11,32,63,357,39*70
$GPGSV,4,4,16,36,52,277,,40,84,353,,41,58,082,39,49,32,274,*76
$GLGSV,3,1,11,70,26,356,20,71,50,301,37,72,28,237,17,73,14,147,*6F
$GLGSV,3,2,11,74,15,192,,75,00,237,,83,14,136,,84,49,084,30*69
$GLGSV,3,3,11,85,36,010,40,,,,37,,,,23*5D
$GNGLL,0419.71819,S,05539.78834,E,122212.00,A,A*6A
$GNGRS,122212.00,1,17.4,1.1,-4.1,10.5,1.5,-2.0,11.7,-8.5,2.2,,,*6C
$GNGRS,122212.00,1,15.0,7.9,0.3,-1.6,-17.4,,,,,,,*72
$GNGST,122212.00,3205634,,,,4.0,3.1,6.1*7D
$GNZDA,122212.00,19,05,2025,00,00*70
$GNGBS,122212.00,4.0,3.1,6.1,,,,*5E
b0XX'?>
 h: O"%`~)(9@.
o %?e_
{4Ta$:R iFdG#2-HsIJKST1TU)$
d&BbX'$&L$GNRMC,122213.00,A,0419.71823,S,05539.78836,E,0.134,,190525,,,A*75
$GNVTG,,T,,M,0.134,N,0.247,K,A*3A
$GNGNS,122213.00,0419.71823,S,05539.78836,E,AA,14,0.79,18.7,-47.6,,*62
$GNGGA,122213.00,0419.71823,S,05539.78836,E,1,12,0.79,18.7,M,-47.6,M,,*4E
$GNGSA,A,3,29,10,32,26,18,28,31,16,27,,,,1.96,0.79,1.79*1F
$GNGSA,A,3,70,84,71,85,72,,,,,,,,1.96,0.79,1.79*16
$GPGSV,4,1,16,08,05,319,29,10,17,360,32,16,25,245,22,18,32,079,31*72
$GPGSV,4,2,16,23,03,037,34,25,01,126,,26,29,214,15,27,40,313,31*74
$GPGSV,4,3,16,28,46,156,21,29,17,147,10,31,31,189,11,32,63,357,37*7F
$GPGSV,4,4,16,36,52,277,,40,84,353,,41,58,082,36,49,32,274,*79
$GLGSV,3,1,11,70,26,356,22,71,50,301,35,72,28,237,17,73,14,147,*6F
$GLGSV,3,2,11,74,15,192,,75,00,237,,83,14,136,,84,49,084,31*68
$GLGSV,3,3,11,85,36,010,41,,,,38,,,,25*55
$GNGLL,0419.71823,S,05539.78836,E,122213.00,A,A*60
$GNGRS,122213.00,1,-112,3.1,-4.2,10.6,1.7,-0.5,-48.4,-8.5,-1.9,,,*6E
$GNGRS,122213.00,1,15.1,6.6,0.3,-1.6,-16.8,,,,,,,*71
$GNGST,122213.00,44,,,,4.0,3.1,6.1*49
$GNZDA,122213.00,19,05,2025,00,00*71
$GNGBS,122213.00,4.0,3.1,6.1,,,,*5F
b0X@+ ?
)h% O$%I~(9/" '?e
{4Ta&:R iFdQG#2-HrIJKST1TU+$
R)b@+$GNRMC,122214.00,A,0419.71820,S,05539.78839,E,0.063,,190525,,,A*7D
$GNVTG,,T,,M,0.063,N,0.117,K,A*3F
$GNGNS,122214.00,0419.71820,S,05539.78839,E,AA,14,0.68,19.2,-47.6,,*6D
$GNGGA,122214.00,0419.71820,S,05539.78839,E,1,12,0.68,19.2,M,-47.6,M,,*41
$GNGSA,A,3,29,10,32,26,18,28,31,16,27,,,,1.70,0.68,1.56*1A
$GNGSA,A,3,70,84,71,85,72,,,,,,,,1.70,0.68,1.56*13
$GPGSV,4,1,16,08,05,319,32,10,17,360,41,16,25,245,23,18,32,079,37*7B
$GPGSV,4,2,16,23,03,037,36,25,01,126,,26,29,214,17,27,40,313,30*75
$GPGSV,4,3,16,28,47,155,23,29,17,147,14,31,31,189,12,32,63,357,39*76
$GPGSV,4,4,16,36,52,277,,40,84,353,,41,58,082,38,49,32,274,*77
$GLGSV,3,1,11,70,26,356,22,71,50,301,35,72,28,237,20,73,14,147,*6B
$GLGSV,3,2,11,74,15,192,,75,00,237,,83,14,136,,84,49,084,30*69
$GLGSV,3,3,11,85,36,010,43,,,,41,,,,25*59
$GNGLL,0419.71820,S,05539.78839,E,122214.00,A,A*6B
$GNGRS,122214.00,1,19.2,-3.1,1.8,9.2,-0.5,0.2,13.1,-7.7,2.2,,,*5B
$GNGRS,122214.00,1,16.2,6.4,-0.8,-1.7,-14.2,,,,,,,*5B
$GNGST,122214.00,4496177,,,,3.9,3.0,6.0*7E
$GNZDA,122214.00,19,05,2025,00,00*76
$GNGBS,122214.00,3.9,3.0,6.0,,,,*56
b0X(/$?
(h<.# O"%[~(9/e )?e8
{4Ta&:R iFdG2-HIJKST1TU,$
`&b(/$GNRMC,122215.00,A,0419.71823,S,05539.78839,E,0.052,,190525,,,A*7D
$GNVTG,,T,,M,0.052,N,0.097,K,A*34
$GNGNS,122215.00,0419.71823,S,05539.78839,E,AA,14,0.68,19.2,-47.6,,*6F
$GNGGA,122215.00,0419.71823,S,05539.78839,E,1,12,0.68,19.2,M,-47.6,M,,*43
$GNGSA,A,3,29,10,32,26,18,28,31,16,27,,,,1.70,0.68,1.56*1A
$GNGSA,A,3,70,84,71,85,72,,,,,,,,1.70,0.68,1.56*13
$GPGSV,4,1,16,08,05,319,36,10,17,360,40,16,25,245,21,18,32,079,35*7E
$GPGSV,4,2,16,23,03,037,34,25,01,126,,26,29,214,18,27,40,313,28*71
$GPGSV,4,3,16,28,47,155,24,29,16,147,11,31,31,189,14,32,63,357,41*7C
$GPGSV,4,4,16,36,52,277,,40,84,353,,41,58,082,38,49,32,274,*77
$GLGSV,3,1,11,70,26,356,23,71,50,301,31,72,28,237,21,73,14,147,*6F
$GLGSV,3,2,11,74,15,192,,75,00,237,,83,14,136,,84,49,084,29*61
$GLGSV,3,3,11,85,36,010,44,,,,38,,,,26*53
$GNGLL,0419.71823,S,05539.78839,E,122215.00,A,A*69
$GNGRS,122215.00,1,19.3,-2.0,-2.0,6.5,-0.4,1.0,13.1,-7.2,-1.2,,,*5C
$GNGRS,122215.00,1,14.5,7.3,2.6,-1.6,-14.0,,,,,,,*7B
$GNGST,122215.00,4496177,,,,3.9,3.0,6.0*7F
$GNZDA,122215.00,19,05,2025,00,00*77
$GNGBS,122215.00,3.9,3.0,6.0,,,,*57
b0X3?
&h& Ot!%~9(9/e5 )?eW
{4Ta$:R iFd/G2-HIJKST1TU+$
J&b3$GNRMC,122216.00,A,0419.71816,S,05539.78847,E,0.585,,190525,,,A*7E
$GNVTG,,T,,M,0.585,N,1.083,K,A*3F
$GNGNS,122216.00,0419.71816,S,05539.78847,E,AA,14,0.75,19.4,-47.6,,*69
$GNGGA,122216.00,0419.71816,S,05539.78847,E,1,12,0.75,19.4,M,-47.6,M,,*45
$GNGSA,A,3,29,10,32,26,18,28,31,16,27,,,,1.93,0.75,1.78*17
$GNGSA,A,3,70,84,71,85,72,,,,,,,,1.93,0.75,1.78*1E
$GPGSV,4,1,16,08,05,319,31,10,17,360,38,16,25,245,21,18,32,079,38*7B
$GPGSV,4,2,16,23,03,037,33,25,01,126,,26,29,214,19,27,40,313,28*77
$GPGSV,4,3,16,28,47,155,25,29,16,147,12,31,31,189,13,32,63,357,41*79
$GPGSV,4,4,16,36,52,277,,40,84,353,,41,58,082,36,49,32,274,*79
$GLGSV,3,1,11,70,26,356,23,71,50,301,24,72,28,237,21,73,14,147,*6B
$GLGSV,3,2,11,74,15,192,,75,00,237,,83,14,136,,84,49,084,28*60
$GLGSV,3,3,11,85,36,010,43,,,,38,,,,26*54
$GNGLL,0419.71816,S,05539.78847,E,122216.00,A,A*65
$GNGRS,122216.00,1,-127,-2.3,0.9,3.1,-1.4,2.2,-17.4,-5.8,-2.5,,,*57
$GNGRS,122216.00,1,15.8,4.2,4.7,-1.8,-13.9,,,,,,,*71
$GNGST,122216.00,48,,,,3.9,3.0,5.9*44
$GNZDA,122216.00,19,05,2025,00,00*74
$GNGBS,122216.00,3.9,3.0,5.9,,,,*5E
b0X6?
(hP& O%~^(9/P ) '?e
{4Ta!:R iFdG2-HIJKST1TvU)$
M(/db6$GNRMC,122217.00,A,0419.71801,S,05539.78856,E,0.515,,190525,,,A*70
$GNVTG,,T,,M,0.515,N,0.953,K,A*33
$GNGNS,122217.00,0419.71801,S,05539.78856,E,AA,14,0.68,19.6,-47.6,,*60
$GNGGA,122217.00,0419.71801,S,05539.78856,E,1,12,0.68,19.6,M,-47.6,M,,*4C
$GNGSA,A,3,29,10,32,26,18,28,31,16,27,,,,1.70,0.68,1.56*1A
$GNGSA,A,3,70,84,71,85,72,,,,,,,,1.70,0.68,1.56*13
$GPGSV,4,1,16,08,05,319,29,10,17,360,40,16,25,245,23,18,32,079,38*7F
$GPGSV,4,2,16,23,03,037,29,25,01,126,,26,29,214,16,27,40,313,29*72
$GPGSV,4,3,16,28,47,155,25,29,16,147,11,31,32,189,13,32,63,357,39*76
$GPGSV,4,4,16,36,52,277,,40,84,353,,41,58,082,33,49,32,274,*7C
$GLGSV,3,1,11,70,26,356,26,71,50,301,31,72,28,237,19,73,14,147,*61
$GLGSV,3,2,11,74,15,192,,75,00,237,,83,14,136,,84,49,084,29*61
$GLGSV,3,3,11,85,36,010,41,,,,40,,,,24*5B
$GNGLL,0419.71801,S,05539.78856,E,122217.00,A,A*62
$GNGRS,122217.00,1,19.2,0.8,1.6,0.9,-1.1,0.8,13.2,-4.9,3.8,,,*79
$GNGRS,122217.00,1,15.2,1.2,3.9,-1.8,-12.5,,,,,,,*7B
$GNGST,122217.00,3205634,,,,3.8,2.9,5.8*74
$GNZDA,122217.00,19,05,2025,00,00*75
$GNGBS,122217.00,3.8,2.9,5.8,,,,*57
b0X:?
)hk' O!%~(9/w  '>e@
{4Ta!:R iFdG2-WHIJKST1TdU)$
y(b:\B$GNRMC,122218.00,A,0419.71799,S,05539.78856,E,0.088,,190525,,,A*70
$GNVTG,,T,,M,0.088,N,0.163,K,A*39
$GNGNS,122218.00,0419.71799,S,05539.78856,E,AA,13,0.75,19.5,-47.6,,*69
$GNGGA,122218.00,0419.71799,S,05539.78856,E,1,12,0.75,19.5,M,-47.6,M,,*42
$GNGSA,A,3,10,32,26,18,28,31,16,27,,,,,1.93,0.75,1.78*1C
$GNGSA,A,3,70,84,71,85,72,,,,,,,,1.93,0.75,1.78*1E
$GPGSV,4,1,16,08,05,319,27,10,17,360,41,16,25,245,31,18,32,079,39*72
$GPGSV,4,2,16,23,03,037,31,25,01,126,,26,29,214,13,27,40,313,26*71
$GPGSV,4,3,16,28,47,155,24,29,16,147,06,31,32,189,13,32,62,357,39*70
$GPGSV,4,4,16,36,52,277,,40,84,353,,41,58,082,33,49,32,274,*7C
$GLGSV,3,1,11,70,26,356,27,71,50,301,26,72,28,237,17,73,14,147,*68
$GLGSV,3,2,11,74,15,192,,75,00,237,,83,14,136,,84,49,084,29*61
$GLGSV,3,3,11,85,36,010,41,,,,40,,,,26*59
$GNGLL,0419.71799,S,05539.78856,E,122218.00,A,A*63
$GNGRS,122218.00,1,1.3,0.6,1.5,0.3,0.0,12.9,-1.5,7.2,,,,*4F
$GNGRS,122218.00,1,14.3,1.0,0.9,-1.4,-11.2,,,,,,,*7D
$GNGST,122218.00,3299292,,,,3.7,2.9,5.7*76
$GNZDA,122218.00,19,05,2025,00,00*7A
$GNGBS,122218.00,3.7,2.9,5.7,,,,*58
b0X> ?
'h^K& O7"%~
z (9p/+  %>eo
{$4Ta:R iFd?G2-HIJKST1T9U)$
~) b> 4$GNRMC,122219.00,A,0419.71793,S,05539.78856,E,0.148,,190525,,,A*76
$GNVTG,,T,,M,0.148,N,0.274,K,A*31
$GNGNS,122219.00,0419.71793,S,05539.78856,E,AA,13,0.78,19.6,-47.6,,*6C
$GNGGA,122219.00,0419.71793,S,05539.78856,E,1,12,0.78,19.6,M,-47.6,M,,*47
$GNGSA,A,3,29,10,32,18,28,31,16,27,,,,,1.96,0.78,1.80*1C
$GNGSA,A,3,70,84,71,85,72,,,,,,,,1.96,0.78,1.80*11
$GPGSV,4,1,16,08,05,319,32,10,17,360,39,16,25,245,29,18,32,079,38*71
$GPGSV,4,2,16,23,03,037,34,25,01,126,,26,29,214,10,27,40,313,32*72
$GPGSV,4,3,16,28,47,155,24,29,16,147,08,31,32,189,15,32,62,357,37*76
$GPGSV,4,4,16,36,52,277,36,40,84,353,,41,58,082,,49,32,274,*79
$GLGSV,3,1,11,70,26,356,14,71,50,301,31,72,28,237,18,73,14,147,*61
$GLGSV,3,2,11,74,15,192,,75,00,237,,83,14,136,,84,49,084,29*61
$GLGSV,3,3,11,85,36,010,41,,,,41,,,,32*5D
$GNGLL,0419.71793,S,05539.78856,E,122219.00,A,A*68
$GNGRS,122219.00,1,59.3,0.9,1.1,0.6,-0.4,1.6,-1.8,3.7,,,,*65
$GNGRS,122219.00,1,16.0,-4.5,-5.3,-1.3,-13.5,,,,,,,*70
$GNGST,122219.00,47,,,,3.6,2.8,5.7*4C
$GNZDA,122219.00,19,05,2025,00,00*7B
$GNGBS,122219.00,3.6,2.8,5.7,,,,*59
b0XB ?
(hf% Od"%b~(9/c  %>e
{#4Ta:R$ i\FdGG 2-HIJKST1TU)$
z&&ybB|$$GNRMC,122220.00,A,0419.71796,S,05539.78855,E,0.233,,190525,,,A*75
$GNVTG,,T,,M,0.233,N,0.431,K,A*39
$GNGNS,122220.00,0419.71796,S,05539.78855,E,AA,14,0.68,19.6,-47.6,,*66
$GNGGA,122220.00,0419.71796,S,05539.78855,E,1,12,0.68,19.6,M,-47.6,M,,*4A
$GNGSA,A,3,29,10,32,26,18,28,31,16,27,,,,1.70,0.68,1.56*1A
$GNGSA,A,3,70,84,71,85,72,,,,,,,,1.70,0.68,1.56*13
$GPGSV,4,1,16,08,05,319,32,10,17,360,40,16,25,245,29,18,32,079,37*70
$GPGSV,4,2,16,23,03,037,34,25,01,126,,26,29,214,09,27,40,313,31*79
$GPGSV,4,3,16,28,47,155,24,29,16,147,08,31,32,189,07,32,62,357,37*75
$GPGSV,4,4,16,36,52,277,35,40,84,353,,41,58,082,,49,32,274,36*7F
$GLGSV,3,1,11,70,26,356,16,71,50,301,32,72,28,237,21,73,14,147,*6A
$GLGSV,3,2,11,74,15,192,,75,00,237,,83,14,136,,84,49,084,28*60
$GLGSV,3,3,11,85,36,010,41,,,,38,,,,31*50
$GNGLL,0419.71796,S,05539.78855,E,122220.00,A,A*64
$GNGRS,122220.00,1,18.9,1.0,1.4,1.7,1.0,0.0,12.7,-1.0,4.4,,,*54
$GNGRS,122220.00,1,16.1,2.2,-2.6,-1.3,-11.0,,,,,,,*52
$GNGST,122220.00,3182617,,,,3.6,2.8,5.6*7C
$GNZDA,122220.00,19,05,2025,00,00*71
$GNGBS,122220.00,3.6,2.8,5.6,,,,*52
b0XF?
&h?& O'%%{~(9/K
^  %>e
{$4Ta:R% i{FdG#2-#HIJKST1TU*$
y'5bFd(z$GNRMC,122221.00,A,0419.71795,S,05539.78857,E,0.038,,190525,,,A*7C
$GNVTG,,T,,M,0.038,N,0.070,K,A*31
$GNGNS,122221.00,0419.71795,S,05539.78857,E,AA,14,0.68,19.7,-47.6,,*67
$GNGGA,122221.00,0419.71795,S,05539.78857,E,1,12,0.68,19.7,M,-47.6,M,,*4B
$GNGSA,A,3,29,10,32,26,18,28,31,16,27,,,,1.70,0.68,1.56*1A
$GNGSA,A,3,70,84,71,85,72,,,,,,,,1.70,0.68,1.56*13
$GPGSV,4,1,16,08,05,319,29,10,17,360,38,16,25,245,28,18,32,079,38*7B
$GPGSV,4,2,16,23,03,037,37,25,01,126,,26,29,214,13,27,40,313,31*71
$GPGSV,4,3,16,28,47,155,26,29,16,147,10,31,32,189,16,32,62,357,37*7E
$GPGSV,4,4,16,36,52,277,36,40,84,353,,41,58,082,,49,32,274,37*7D
$GLGSV,3,1,11,70,26,356,20,71,50,301,35,72,28,237,23,73,14,147,*6A
$GLGSV,3,2,11,74,15,192,,75,00,237,,83,14,136,,84,49,084,27*6F
$GLGSV,3,3,11,85,36,010,42,,,,39,,,,30*53
$GNGLL,0419.71795,S,05539.78857,E,122221.00,A,A*64
$GNGRS,122221.00,1,18.9,0.6,1.5,1.6,0.4,0.8,12.4,0.0,0.2,,,*72
$GNGRS,122221.00,1,15.6,0.0,-2.2,-1.3,-12.9,,,,,,,*59
$GNGST,122221.00,3185714,,,,3.5,2.7,5.6*74
$GNZDA,122221.00,19,05,2025,00,00*70
$GNGBS,122221.00,3.5,2.7,5.6,,,,*5F
b0XJ?<
$hC" O%9~(9J/F l  >e
{ 4Ta:R  iFdG2-gHIJKST1TU%$
$@TbJL,$GNRMC,122222.00,A,0419.71796,S,05539.78854,E,0.074,,190525,,,A*77
$GNVTG,,T,,M,0.074,N,0.138,K,A*34
$GNGNS,122222.00,0419.71796,S,05539.78854,E,AA,14,0.70,19.7,-47.6,,*6D
$GNGGA,122222.00,0419.71796,S,05539.78854,E,1,12,0.70,19.7,M,-47.6,M,,*41
$GNGSA,A,3,29,10,32,26,18,28,31,16,27,,,,1.63,0.70,1.47*11
$GNGSA,A,3,70,84,71,85,72,,,,,,,,1.63,0.70,1.47*18
$GPGSV,4,1,16,08,05,319,29,10,17,360,36,16,25,245,26,18,32,079,34*77
$GPGSV,4,2,16,23,03,037,31,25,01,126,,26,29,214,15,27,40,313,31*71
$GPGSV,4,3,16,28,47,155,25,29,16,147,08,31,32,189,14,32,62,357,32*73
$GPGSV,4,4,16,36,52,277,32,40,84,353,,41,58,082,,49,32,274,32*7C
$GLGSV,3,1,11,70,26,356,21,71,50,301,28,72,28,237,22,73,14,147,*66
$GLGSV,3,2,11,74,15,192,,75,00,237,,83,14,136,,84,49,084,28*60
$GLGSV,3,3,11,85,36,010,37,,,,36,,,,29*56
$GNGLL,0419.71796,S,05539.78854,E,122222.00,A,A*67
$GNGRS,122222.00,1,-23.0,0.7,1.8,7.8,0.0,0.7,-24.5,3.9,0.7,,,*74
$GNGRS,122222.00,1,14.5,-3.2,1.0,-1.3,-10.8,,,,,,,*5B
$GNGST,122222.00,38,,,,3.5,2.7,5.6*41
$GNZDA,122222.00,19,05,2025,00,00*73
$GNGBS,122222.00,3.5,2.7,5.6,,,,*5C
b0XhN?
h, O%q~
(9/
r !  >e
{4Ta:R i.Fd
G2-VHmIJKST1TU#$
9bhN40J$GNRMC,122223.00,A,0419.71789,S,05539.78852,E,0.259,,190525,,,A*73
$GNVTG,,T,,M,0.259,N,0.479,K,A*39
$GNGNS,122223.00,0419.71789,S,05539.78852,E,AA,14,0.64,19.6,-47.6,,*60
$GNGGA,122223.00,0419.71789,S,05539.78852,E,1,12,0.64,19.6,M,-47.6,M,,*4C
$GNGSA,A,3,29,10,32,26,18,28,31,16,27,,,,1.54,0.64,1.41*16
$GNGSA,A,3,70,84,71,85,72,,,,,,,,1.54,0.64,1.41*1F
$GPGSV,4,1,16,08,05,319,19,10,17,360,29,16,25,245,22,18,32,079,25*7E
$GPGSV,4,2,16,23,03,037,26,25,01,126,,26,29,214,10,27,40,313,25*77
$GPGSV,4,3,16,28,47,155,22,29,16,147,10,31,32,189,08,32,62,357,32*70
$GPGSV,4,4,16,36,52,277,29,40,84,353,,41,58,082,,49,32,274,*77
$GLGSV,3,1,11,70,26,356,20,71,50,301,27,72,28,237,19,73,14,147,*60
$GLGSV,3,2,11,74,15,192,,75,00,237,,83,14,136,,84,49,084,15*6E
$GLGSV,3,3,11,85,36,010,35,,,,28,,,,21*53
$GNGLL,0419.71789,S,05539.78852,E,122223.00,A,A*6E
$GNGRS,122223.00,1,19.1,-2.1,2.2,14.4,-1.2,-1.2,13.1,4.2,-0.1,,,*43
$GNGRS,122223.00,1,15.5,-5.2,-1.7,-1.0,-11.7,,,,,,,*7A
$GNGST,122223.00,4344253,,,,3.5,2.7,5.7*79
$GNZDA,122223.00,19,05,2025,00,00*72
$GNGBS,122223.00,3.5,2.7,5.7,,,,*5C
b0XPR?
%h{% O %~
 (9/`  %>e
{"4Ta:R iFdG$2-HIJKST1TU+$
#bPR4l$GNRMC,122224.00,A,0419.71790,S,05539.78850,E,0.166,,190525,,,A*71
$GNVTG,,T,,M,0.166,N,0.307,K,A*38
$GNGNS,122224.00,0419.71790,S,05539.78850,E,AA,14,0.64,19.7,-47.6,,*6C
$GNGGA,122224.00,0419.71790,S,05539.78850,E,1,12,0.64,19.7,M,-47.6,M,,*40
$GNGSA,A,3,29,10,32,26,18,28,31,16,27,,,,1.54,0.64,1.41*16
$GNGSA,A,3,70,84,71,85,72,,,,,,,,1.54,0.64,1.41*1F
$GPGSV,4,1,16,08,05,319,22,10,17,360,37,16,25,245,24,18,32,079,37*7C
$GPGSV,4,2,16,23,03,037,32,25,01,126,,26,29,214,10,27,40,313,32*74
$GPGSV,4,3,16,28,47,155,23,29,16,147,09,31,32,189,14,32,62,357,37*71
$GPGSV,4,4,16,36,52,277,34,40,84,353,,41,58,082,,49,32,274,*7B
$GLGSV,3,1,11,70,26,356,23,71,50,301,36,72,28,237,19,73,14,147,*63
$GLGSV,3,2,11,74,15,192,,75,00,237,,83,14,136,,84,49,084,28*60
$GLGSV,3,3,11,85,36,010,43,,,,35,,,,29*56
$GNGLL,0419.71790,S,05539.78850,E,122224.00,A,A*63
$GNGRS,122224.00,1,18.9,-1.3,1.3,14.4,-0.7,-0.7,13.0,5.0,-0.6,,,*4B
$GNGRS,122224.00,1,12.9,0.2,-2.4,-0.8,-13.2,,,,,,,*50
$GNGST,122224.00,4344849,,,,3.5,2.7,5.7*7F
$GNZDA,122224.00,19,05,2025,00,00*75
$GNGBS,122224.00,3.5,2.7,5.7,,,,*5B
b0X8V?
&h(X% O$%L~ (9/. O %>e
{#4Ta:R iFdG#2-H4IJKST1TU)$
(b8V8D$GNRMC,122225.00,A,0419.71789,S,05539.78846,E,0.044,,190525,,,A*7E
$GNVTG,,T,,M,0.044,N,0.082,K,A*37
$GNGNS,122225.00,0419.71789,S,05539.78846,E,AA,14,0.67,19.9,-47.6,,*6F
$GNGGA,122225.00,0419.71789,S,05539.78846,E,1,12,0.67,19.9,M,-47.6,M,,*43
$GNGSA,A,3,29,10,32,26,18,28,31,16,27,,,,1.61,0.67,1.47*15
$GNGSA,A,3,70,84,71,85,72,,,,,,,,1.61,0.67,1.47*1C
$GPGSV,4,1,16,08,05,319,23,10,17,360,38,16,25,245,25,18,32,079,37*73
$GPGSV,4,2,16,23,03,037,36,25,01,126,,26,29,214,09,27,40,313,32*78
$GPGSV,4,3,16,28,47,155,25,29,16,147,09,31,32,189,15,32,62,357,37*76
$GPGSV,4,4,16,36,52,277,35,40,84,353,,41,58,082,,49,32,274,*7A
$GLGSV,3,1,11,70,26,356,25,71,50,301,35,72,28,237,19,73,14,147,*66
$GLGSV,3,2,11,74,15,192,,75,00,237,,83,14,136,,84,49,084,28*60
$GLGSV,3,3,11,85,36,010,41,,,,40,,,,29*56
$GNGLL,0419.71789,S,05539.78846,E,122225.00,A,A*6D
$GNGRS,122225.00,1,-53.3,0.4,4.7,-8.6,-0.4,0.1,-12.0,6.0,0.2,,,*74
$GNGRS,122225.00,1,12.8,-3.7,2.4,-1.0,-12.3,,,,,,,*5F
$GNGST,122225.00,52,,,,3.5,2.7,5.7*4B
$GNZDA,122225.00,19,05,2025,00,00*74
$GNGBS,122225.00,3.5,2.7,5.7,,,,*5A
b0X Z?
&h"$ O#%~!(9/mt  #>e
{#4Ta:R iCFdG 2-HIJKST1T;U'$
(,b Z;$GNRMC,122226.00,A,0419.71790,S,05539.78844,E,0.139,,190525,,,A*7C
$GNVTG,,T,,M,0.139,N,0.258,K,A*39
$GNGNS,122226.00,0419.71790,S,05539.78844,E,AA,14,0.64,20.0,-47.6,,*66
$GNGGA,122226.00,0419.71790,S,05539.78844,E,1,12,0.64,20.0,M,-47.6,M,,*4A
$GNGSA,A,3,29,10,32,26,18,28,31,16,27,,,,1.54,0.64,1.41*16
$GNGSA,A,3,70,84,71,85,72,,,,,,,,1.54,0.64,1.41*1F
$GPGSV,4,1,16,08,05,319,25,10,17,360,38,16,25,245,25,18,32,079,36*74
$GPGSV,4,2,16,23,03,037,35,25,01,126,,26,29,214,14,27,40,313,33*76
$GPGSV,4,3,16,28,47,155,26,29,16,147,09,31,32,189,15,32,62,357,35*77
$GPGSV,4,4,16,36,52,277,35,40,84,353,,41,58,082,,49,32,274,*7A
$GLGSV,3,1,11,70,26,356,24,71,50,301,32,72,28,237,19,73,14,147,*60
$GLGSV,3,2,11,74,15,192,,75,00,237,,83,14,136,,84,49,084,28*60
$GLGSV,3,3,11,85,36,010,39,,,,40,,,,30*51
$GNGLL,0419.71790,S,05539.78844,E,122226.00,A,A*64
$GNGRS,122226.00,1,19.1,-2.2,2.3,14.1,-1.1,1.1,13.0,4.8,-0.2,,,*64
$GNGRS,122226.00,1,11.9,-4.5,-0.4,-0.8,-12.9,,,,,,,*77
$GNGST,122226.00,5319948,,,,3.5,2.7,5.7*74
$GNZDA,122226.00,19,05,2025,00,00*77
$GNGBS,122226.00,3.5,2.7,5.7,,,,*59
b0X^?K
&hn% O #%:~u"(91/j  '>e[
{%4Ta:R iFdoG!2-HIJKST1TU)$
%{Tb^?$GNRMC,122227.00,A,0419.71793,S,05539.78845,E,0.026,,190525,,,A*70
$GNVTG,,T,,M,0.026,N,0.047,K,A*3A
$GNGNS,122227.00,0419.71793,S,05539.78845,E,AA,13,0.67,20.1,-47.6,,*60
$GNGGA,122227.00,0419.71793,S,05539.78845,E,1,12,0.67,20.1,M,-47.6,M,,*4B
$GNGSA,A,3,10,32,26,18,28,31,16,27,,,,,1.61,0.67,1.47*1E
$GNGSA,A,3,70,84,71,85,72,,,,,,,,1.61,0.67,1.47*1C
$GPGSV,4,1,16,08,05,319,27,10,17,360,38,16,25,245,25,18,32,079,37*77
$GPGSV,4,2,16,23,03,037,35,25,01,126,,26,29,214,12,27,40,313,34*77
$GPGSV,4,3,16,28,47,155,26,29,16,147,07,31,32,189,12,32,62,357,39*72
$GPGSV,4,4,16,36,52,277,37,40,84,353,,41,58,082,,49,32,274,*78
$GLGSV,3,1,11,70,26,356,23,71,50,301,33,72,28,237,20,73,14,147,*6C
$GLGSV,3,2,11,74,15,192,,75,00,237,,83,14,136,,84,49,084,27*6F
$GLGSV,3,3,11,85,36,010,41,,,,37,,,,30*5E
$GNGLL,0419.71793,S,05539.78845,E,122227.00,A,A*67
$GNGRS,122227.00,1,-3.6,0.9,14.0,0.3,1.8,12.8,6.2,0.5,,,,*72
$GNGRS,122227.00,1,11.3,-2.7,-2.3,-0.9,-11.4,,,,,,,*72
$GNGST,122227.00,4496177,,,,3.4,2.7,5.7*71
$GNZDA,122227.00,19,05,2025,00,00*76
$GNGBS,122227.00,3.4,2.7,5.7,,,,*59
b0Xa?
%hw% Oo"%I~!(9/k  %>e
{$4Ta:R$ i'Fd]G 2-HIJKST1T]U'$
'baC@$GNRMC,122228.00,A,0419.71791,S,05539.78844,E,0.104,,190525,,,A*7D
$GNVTG,,T,,M,0.104,N,0.193,K,A*33
$GNGNS,122228.00,0419.71791,S,05539.78844,E,AA,14,0.67,20.2,-47.6,,*68
$GNGGA,122228.00,0419.71791,S,05539.78844,E,1,12,0.67,20.2,M,-47.6,M,,*44
$GNGSA,A,3,29,10,32,26,18,28,31,16,27,,,,1.61,0.67,1.47*15
$GNGSA,A,3,70,84,71,85,72,,,,,,,,1.61,0.67,1.47*1C
$GPGSV,4,1,16,08,05,319,30,10,17,360,37,16,25,245,24,18,32,079,37*7F
$GPGSV,4,2,16,23,03,037,34,25,01,126,,26,29,214,12,27,40,313,33*71
$GPGSV,4,3,16,28,47,155,25,29,16,147,08,31,32,189,12,32,62,357,37*70
$GPGSV,4,4,16,36,52,277,36,40,84,353,,41,58,082,,49,32,274,36*7C
$GLGSV,3,1,11,70,26,356,22,71,50,301,32,72,28,237,20,73,14,147,*6C
$GLGSV,3,2,11,74,15,192,,75,00,237,,83,14,136,,84,49,084,28*60
$GLGSV,3,3,11,85,36,010,39,,,,39,,,,30*5F
$GNGLL,0419.71791,S,05539.78844,E,122228.00,A,A*6B
$GNGRS,122228.00,1,-33.1,-3.1,1.3,6.7,-1.4,1.1,-5.9,6.3,2.5,,,*4C
$GNGRS,122228.00,1,11.2,-1.6,-3.8,-0.6,-11.0,,,,,,,*7F
$GNGST,122228.00,51,,,,3.4,2.6,5.7*45
$GNZDA,122228.00,19,05,2025,00,00*79
$GNGBS,122228.00,3.4,2.6,5.7,,,,*57
b0Xe?+
&h.' O%~!(9/6u  )>e
{%4Ta:R% iTFd8G 2-HIJKST1TU)$
%beG$GNRMC,122229.00,A,0419.71790,S,05539.78845,E,0.146,,190525,,,A*7A
$GNVTG,,T,,M,0.146,N,0.270,K,A*3B
$GNGNS,122229.00,0419.71790,S,05539.78845,E,AA,13,0.67,20.3,-47.6,,*6F
$GNGGA,122229.00,0419.71790,S,05539.78845,E,1,12,0.67,20.3,M,-47.6,M,,*44
$GNGSA,A,3,10,32,26,18,28,31,16,27,,,,,1.61,0.67,1.47*1E
$GNGSA,A,3,70,84,71,85,72,,,,,,,,1.61,0.67,1.47*1C
$GPGSV,4,1,16,08,05,319,31,10,17,360,38,16,25,245,23,18,32,079,39*78
$GPGSV,4,2,16,23,03,037,29,25,01,126,,26,29,214,11,27,40,313,33*7E
$GPGSV,4,3,16,28,47,155,25,29,16,147,07,31,32,189,12,32,62,357,41*7E
$GPGSV,4,4,16,36,52,277,37,40,84,353,,41,58,082,,49,32,274,37*7C
$GLGSV,3,1,11,70,26,356,21,71,50,301,32,72,28,237,19,73,14,147,*65
$GLGSV,3,2,11,74,15,192,,75,00,237,,83,14,136,,84,49,084,27*6F
$GLGSV,3,3,11,85,36,010,41,,,,37,,,,30*5E
$GNGLL,0419.71790,S,05539.78845,E,122229.00,A,A*6A
$GNGRS,122229.00,1,-0.4,-0.4,14.1,-0.1,3.1,12.9,5.6,2.7,,,,*7E
$GNGRS,122229.00,1,8.2,0.2,1.4,-0.7,-11.1,,,,,,,*4D
$GNGST,122229.00,3180286,,,,3.4,2.6,5.6*77
$GNZDA,122229.00,19,05,2025,00,00*78
$GNGBS,122229.00,3.4,2.6,5.6,,,,*57
b0Xi?B
'h
% O%~} (9/w  '>e
{#4Ta:R' iFd2G#2-<HrIJKST1T(U*$
&7biKz$GNRMC,122230.00,A,0419.71789,S,05539.78851,E,0.156,,190525,,,A*7E
$GNVTG,,T,,M,0.156,N,0.289,K,A*3C
$GNGNS,122230.00,0419.71789,S,05539.78851,E,AA,14,0.68,20.4,-47.6,,*65
$GNGGA,122230.00,0419.71789,S,05539.78851,E,1,12,0.68,20.4,M,-47.6,M,,*49
$GNGSA,A,3,29,10,32,26,18,28,31,16,27,,,,1.70,0.68,1.56*1A
$GNGSA,A,3,70,84,71,85,72,,,,,,,,1.70,0.68,1.56*13
$GPGSV,4,1,16,08,05,319,30,10,17,360,39,16,25,245,23,18,32,079,37*76
$GPGSV,4,2,16,23,03,037,30,25,01,126,,26,29,214,13,27,40,313,32*75
$GPGSV,4,3,16,28,47,155,25,29,16,147,09,31,32,189,11,32,62,357,39*7C
$GPGSV,4,4,16,36,52,277,35,40,84,353,,41,58,082,,49,32,274,39*70
$GLGSV,3,1,11,70,26,356,23,71,50,301,35,72,28,237,20,73,14,147,*6A
$GLGSV,3,2,11,74,15,192,,75,00,237,,83,14,136,,84,49,084,26*6E
$GLGSV,3,3,11,85,36,010,42,,,,38,,,,30*52
$GNGLL,0419.71789,S,05539.78851,E,122230.00,A,A*6F
$GNGRS,122230.00,1,19.1,-2.7,0.3,14.0,-0.1,4.3,12.8,5.2,2.0,,,*4C
$GNGRS,122230.00,1,10.7,0.4,-4.5,-0.9,-9.1,,,,,,,*61
$GNGST,122230.00,4497657,,,,3.3,2.6,5.6*74
$GNZDA,122230.00,19,05,2025,00,00*70
$GNGBS,122230.00,3.3,2.6,5.6,,,,*58
b0Xm?d
%hDR& O%~ (9A/$
#  '>e
{&4Ta:R& iaFdG#2-H$IJKST1T'U'$
#bmtORx$GNRMC,122231.00,A,0419.71786,S,05539.78856,E,0.191,,190525,,,A*7C
$GNVTG,,T,,M,0.191,N,0.353,K,A*31
$GNGNS,122231.00,0419.71786,S,05539.78856,E,AA,14,0.75,20.4,-47.6,,*60
$GNGGA,122231.00,0419.71786,S,05539.78856,E,1,12,0.75,20.4,M,-47.6,M,,*4C
$GNGSA,A,3,29,10,32,26,18,28,31,16,27,,,,1.93,0.75,1.77*18
$GNGSA,A,3,70,84,71,85,72,,,,,,,,1.93,0.75,1.77*11
$GPGSV,4,1,16,08,05,319,30,10,17,360,37,16,25,245,24,18,32,079,38*70
$GPGSV,4,2,16,23,03,037,29,25,01,126,,26,29,214,13,27,40,313,32*7D
$GPGSV,4,3,16,28,47,155,25,29,16,147,10,31,32,189,13,32,62,357,39*76
$GPGSV,4,4,16,36,52,277,38,40,84,353,,41,58,082,,49,32,274,38*7C
$GLGSV,3,1,11,70,26,356,22,71,50,301,35,72,28,237,20,73,14,147,*6B
$GLGSV,3,2,11,74,15,192,,75,00,237,,83,14,136,,84,49,084,26*6E
$GLGSV,3,3,11,85,36,010,39,,,,35,,,,29*5B
$GNGLL,0419.71786,S,05539.78856,E,122231.00,A,A*66
$GNGRS,122231.00,1,91.4,-1.9,-0.2,-8.0,-0.3,5.5,-13.7,5.9,-1.9,,,*73
$GNGRS,122231.00,1,10.0,0.4,-3.4,-0.9,-9.9,,,,,,,*69
$GNGST,122231.00,48,,,,3.3,2.6,5.6*43
$GNZDA,122231.00,19,05,2025,00,00*71
$GNGBS,122231.00,3.3,2.6,5.6,,,,*59
b0Xq?
%hQ& O%$~
n#(9x/Ws  $>e
{%4Ta:R& iuFdG2-?HIJKST1TOU&$
#lbq\S*$GNRMC,122232.00,A,0419.71789,S,05539.78859,E,0.072,,190525,,,A*73
$GNVTG,,T,,M,0.072,N,0.133,K,A*39
$GNGNS,122232.00,0419.71789,S,05539.78859,E,AA,14,0.68,20.4,-47.6,,*6F
$GNGGA,122232.00,0419.71789,S,05539.78859,E,1,12,0.68,20.4,M,-47.6,M,,*43
$GNGSA,A,3,29,10,32,26,18,28,31,16,27,,,,1.70,0.68,1.56*1A
$GNGSA,A,3,70,84,71,85,72,,,,,,,,1.70,0.68,1.56*13
$GPGSV,4,1,16,08,05,319,30,10,17,360,37,16,25,245,25,18,32,079,38*71
$GPGSV,4,2,16,23,03,037,29,25,01,126,,26,29,214,10,27,40,313,35*79
$GPGSV,4,3,16,28,47,155,26,29,16,147,08,31,32,189,12,32,62,357,36*72
$GPGSV,4,4,16,36,52,277,37,40,84,353,,41,58,082,,49,32,274,38*73
$GLGSV,3,1,11,70,26,356,22,71,50,301,31,72,28,237,20,73,14,147,*6F
$GLGSV,3,2,11,74,15,192,,75,00,237,,83,14,136,,84,49,084,26*6E
$GLGSV,3,3,11,85,36,010,38,,,,35,,,,29*5A
$GNGLL,0419.71789,S,05539.78859,E,122232.00,A,A*65
$GNGRS,122232.00,1,19.1,-1.7,-0.3,13.9,-0.3,6.0,12.8,6.4,-1.4,,,*42
$GNGRS,122232.00,1,7.5,0.8,-4.5,-0.8,-8.6,,,,,,,*5C
$GNGST,122232.00,5506669,,,,3.3,2.6,5.6*73
$GNZDA,122232.00,19,05,2025,00,00*72
$GNGBS,122232.00,3.3,2.6,5.6,,,,*5A
b0Xxu?
'hp% O%]~
X!(9/6w  $>e
{#4Ta:R& iFdG 2-HtIJKST1TU*$
(bxuDWH$GNRMC,122233.00,A,0419.71791,S,05539.78859,E,0.038,,190525,,,A*75
$GNVTG,,T,,M,0.038,N,0.070,K,A*31
$GNGNS,122233.00,0419.71791,S,05539.78859,E,AA,14,0.68,20.4,-47.6,,*67
$GNGGA,122233.00,0419.71791,S,05539.78859,E,1,12,0.68,20.4,M,-47.6,M,,*4B
$GNGSA,A,3,29,10,32,26,18,28,31,16,27,,,,1.70,0.68,1.56*1A
$GNGSA,A,3,70,84,71,85,72,,,,,,,,1.70,0.68,1.56*13
$GPGSV,4,1,16,08,05,319,29,10,17,360,39,16,25,245,24,18,32,079,37*79
$GPGSV,4,2,16,23,03,037,31,25,01,126,,26,29,214,10,27,40,313,33*76
$GPGSV,4,3,16,28,47,155,26,29,16,147,08,31,32,189,18,32,62,357,36*78
$GPGSV,4,4,16,36,52,277,35,40,84,353,,41,58,082,,49,32,274,38*71
$GLGSV,3,1,11,70,26,356,25,71,50,301,32,72,28,237,20,73,14,147,*6B
$GLGSV,3,2,11,74,15,192,,75,00,237,,83,14,136,,84,49,084,25*6D
$GLGSV,3,3,11,85,36,010,42,,,,40,,,,30*5D
$GNGLL,0419.71791,S,05539.78859,E,122233.00,A,A*6D
$GNGRS,122233.00,1,19.1,-1.4,-0.1,13.7,-0.4,5.7,12.6,4.3,1.5,,,*68
$GNGRS,122233.00,1,6.8,0.2,-2.8,-0.8,-9.1,,,,,,,*56
$GNGST,122233.00,5506669,,,,3.3,2.5,5.6*71
$GNZDA,122233.00,19,05,2025,00,00*73
$GNGBS,122233.00,3.3,2.5,5.6,,,,*58
b0X`y?Q
'hn& O %~
"(9/x
@3  '>e
{%4Ta:R& iFdG 2-HIJKST1TU($
"b`y,[$GNRMC,122234.00,A,0419.71798,S,05539.78856,E,0.133,,190525,,,A*7E
$GNVTG,,T,,M,0.133,N,0.245,K,A*3F
$GNGNS,122234.00,0419.71798,S,05539.78856,E,AA,14,0.79,20.3,-47.6,,*61
$GNGGA,122234.00,0419.71798,S,05539.78856,E,1,12,0.79,20.3,M,-47.6,M,,*4D
$GNGSA,A,3,29,10,32,26,18,28,31,16,27,,,,1.96,0.79,1.79*1F
$GNGSA,A,3,70,84,71,85,72,,,,,,,,1.96,0.79,1.79*16
$GPGSV,4,1,16,08,05,319,28,10,17,360,39,16,25,245,24,18,32,079,38*77
$GPGSV,4,2,16,23,03,037,32,25,01,126,,26,29,214,10,27,40,313,34*72
$GPGSV,4,3,16,28,47,155,25,29,16,147,10,31,32,189,12,32,62,357,39*77
$GPGSV,4,4,16,36,52,277,37,40,84,353,,41,58,082,,49,32,274,38*73
$GLGSV,3,1,11,70,26,356,25,71,50,301,32,72,28,237,20,73,14,147,*6B
$GLGSV,3,2,11,74,15,192,,75,00,237,,83,14,136,,84,49,084,26*6E
$GLGSV,3,3,11,85,36,010,40,,,,34,,,,29*54
$GNGLL,0419.71798,S,05539.78856,E,122234.00,A,A*6C
$GNGRS,122234.00,1,131,-1.5,-0.1,9.9,-0.8,6.3,-25.6,4.4,0.1,,,*5F
$GNGRS,122234.00,1,7.4,1.8,-6.0,-0.8,-8.4,,,,,,,*5F
$GNGST,122234.00,41,,,,3.3,2.5,5.6*4C
$GNZDA,122234.00,19,05,2025,00,00*74
$GNGBS,122234.00,3.3,2.5,5.6,,,,*5F
b0XH}?
#hf& O%~(9/H
{ ( '>e
{ 4Ta:R$ iFdG 2-HIJKST1TaU)$
%bH}_$GNRMC,122235.00,A,0419.71794,S,05539.78859,E,0.111,,190525,,,A*7C
$GNVTG,,T,,M,0.111,N,0.205,K,A*3B
$GNGNS,122235.00,0419.71794,S,05539.78859,E,AA,14,0.68,20.4,-47.6,,*64
$GNGGA,122235.00,0419.71794,S,05539.78859,E,1,12,0.68,20.4,M,-47.6,M,,*48
$GNGSA,A,3,29,10,32,26,18,28,31,16,27,,,,1.70,0.68,1.56*1A
$GNGSA,A,3,70,84,71,85,72,,,,,,,,1.70,0.68,1.56*13
$GPGSV,4,1,16,08,05,319,27,10,17,360,35,16,25,245,23,18,32,079,38*73
$GPGSV,4,2,16,23,03,037,27,25,01,126,19,26,29,214,09,27,40,313,29*7A
$GPGSV,4,3,16,28,47,155,24,29,16,147,10,31,32,189,11,32,62,357,39*75
$GPGSV,4,4,16,36,52,277,32,40,84,353,,41,58,082,,49,32,274,36*78
$GLGSV,3,1,11,70,26,356,25,71,50,301,32,72,28,237,19,73,14,147,*61
$GLGSV,3,2,11,74,15,192,,75,00,237,,83,14,136,,84,49,084,26*6E
$GLGSV,3,3,11,85,36,010,41,,,,37,,,,29*56
$GNGLL,0419.71794,S,05539.78859,E,122235.00,A,A*6E
$GNGRS,122235.00,1,19.1,-1.5,-0.3,14.3,-0.7,5.8,13.2,2.8,-0.7,,,*44
$GNGRS,122235.00,1,7.1,1.0,-3.6,-0.6,-8.4,,,,,,,*5E
$GNGST,122235.00,4496315,,,,3.3,2.5,5.6*70
$GNZDA,122235.00,19,05,2025,00,00*75
$GNGBS,122235.00,3.3,2.5,5.6,,,,*5E
b0X0?
(haX( O%4~
!(9/Z
  %>e
{$4Ta:R& iFd*G 2-JHuIJKST1TU*$
%3b0b}$GNRMC,122236.00,A,0419.71798,S,05539.78857,E,0.079,,190525,,,A*72
$GNVTG,,T,,M,0.079,N,0.146,K,A*30
$GNGNS,122236.00,0419.71798,S,05539.78857,E,AA,13,0.75,20.4,-47.6,,*6E
$GNGGA,122236.00,0419.71798,S,05539.78857,E,1,12,0.75,20.4,M,-47.6,M,,*45
$GNGSA,A,3,10,32,26,18,28,31,16,27,,,,,1.93,0.75,1.77*13
$GNGSA,A,3,70,84,71,85,72,,,,,,,,1.93,0.75,1.77*11
$GPGSV,4,1,16,08,05,319,27,10,17,360,40,16,25,245,24,18,32,079,40*79
$GPGSV,4,2,16,23,03,037,28,25,01,126,16,26,29,214,10,27,40,313,33*79
$GPGSV,4,3,16,28,47,155,25,29,16,147,07,31,32,189,10,32,62,357,37*7D
$GPGSV,4,4,16,36,52,277,36,40,84,353,,41,58,082,,49,32,274,38*72
$GLGSV,3,1,11,70,26,356,25,71,50,301,32,72,28,237,18,73,14,147,*60
$GLGSV,3,2,11,74,15,192,,75,00,237,,83,14,136,,84,49,084,27*6F
$GLGSV,3,3,11,85,36,010,42,,,,37,,,,29*55
$GNGLL,0419.71798,S,05539.78857,E,122236.00,A,A*6F
$GNGRS,122236.00,1,-1.6,-0.1,14.1,-0.7,6.6,13.0,3.4,0.2,,,,*79
$GNGRS,122236.00,1,8.1,1.9,-4.4,-0.4,-9.1,,,,,,,*58
$GNGST,122236.00,3299721,,,,3.3,2.5,5.6*7E
$GNZDA,122236.00,19,05,2025,00,00*76
$GNGBS,122236.00,3.3,2.5,5.6,,,,*5D
b0X?
$h6& O!%~!(9/u@
  )>e
{!4Ta:R& jFdG$2-]HKIJKST1TNU)$
#bfa$GNRMC,122237.00,A,0419.71799,S,05539.78860,E,0.034,,190525,,,A*7F
$GNVTG,,T,,M,0.034,N,0.063,K,A*3F
$GNGNS,122237.00,0419.71799,S,05539.78860,E,AA,14,0.84,20.5,-47.6,,*62
$GNGGA,122237.00,0419.71799,S,05539.78860,E,1,12,0.84,20.5,M,-47.6,M,,*4E
$GNGSA,A,3,29,10,32,26,18,28,31,16,27,,,,2.02,0.84,1.84*11
$GNGSA,A,3,70,84,71,85,72,,,,,,,,2.02,0.84,1.84*18
$GPGSV,4,1,16,08,05,319,28,10,17,360,36,16,25,245,25,18,32,079,38*79
$GPGSV,4,2,16,23,03,037,33,25,01,126,,26,29,214,12,27,40,313,33*76
$GPGSV,4,3,16,28,47,155,25,29,16,147,12,31,32,189,10,32,62,357,41*78
$GPGSV,4,4,16,36,52,277,33,40,84,353,,41,58,082,,49,32,274,38*77
$GLGSV,3,1,11,70,26,356,23,71,50,301,36,72,28,237,18,73,14,147,*62
$GLGSV,3,2,11,74,15,192,,75,00,237,,83,14,136,,84,49,084,28*60
$GLGSV,3,3,11,85,36,010,41,,,,35,,,,29*54
$GNGLL,0419.71799,S,05539.78860,E,122237.00,A,A*6B
$GNGRS,122237.00,1,165,-2.0,0.0,24.3,-0.4,7.6,-100,2.4,1.4,,,*66
$GNGRS,122237.00,1,7.9,3.3,-4.2,-0.8,-9.5,,,,,,,*58
$GNGST,122237.00,34,,,,3.3,2.5,5.6*4D
$GNZDA,122237.00,19,05,2025,00,00*77
$GNGBS,122237.00,3.3,2.5,5.6,,,,*5C
b0X#?
!h$& O%I~f!(9/r  (>e
{"4Ta:R' jFdG&2-!HmIJKST1T>U'$
bj9M$GNRMC,122238.00,A,0419.71805,S,05539.78859,E,0.048,,190525,,,A*7B
$GNVTG,,T,,M,0.048,N,0.089,K,A*30
$GNGNS,122238.00,0419.71805,S,05539.78859,E,AA,14,0.68,20.3,-47.6,,*69
$GNGGA,122238.00,0419.71805,S,05539.78859,E,1,12,0.68,20.3,M,-47.6,M,,*45
$GNGSA,A,3,29,10,32,26,18,28,31,16,27,,,,1.70,0.68,1.56*1A
$GNGSA,A,3,70,84,71,85,72,,,,,,,,1.70,0.68,1.56*13
$GPGSV,4,1,16,08,05,319,35,10,17,360,33,16,25,245,23,18,32,079,38*76
$GPGSV,4,2,16,23,03,037,30,25,01,126,,26,29,214,17,27,40,313,33*70
$GPGSV,4,3,16,28,47,155,26,29,16,147,09,31,32,189,17,32,62,357,40*77
$GPGSV,4,4,16,36,52,277,34,40,84,353,,41,58,082,,49,32,274,39*71
$GLGSV,3,1,11,70,26,356,21,71,50,301,38,72,28,237,17,73,14,147,*61
$GLGSV,3,2,11,74,15,192,,75,00,237,,83,14,136,,84,49,084,28*60
$GLGSV,3,3,11,85,36,010,39,,,,31,,,,19*5C
$GNGLL,0419.71805,S,05539.78859,E,122238.00,A,A*64
$GNGRS,122238.00,1,19.1,-2.2,-0.1,13.8,-0.6,7.3,12.7,2.2,2.6,,,*6B
$GNGRS,122238.00,1,7.4,3.2,-2.2,-1.1,-6.6,,,,,,,*59
$GNGST,122238.00,3207486,,,,3.3,2.5,5.5*7A
$GNZDA,122238.00,19,05,2025,00,00*78
$GNGBS,122238.00,3.3,2.5,5.5,,,,*50
b0X?
h$ O%~
N(9/
  &>e
{ 4Ta:R% jFdG 2-HIJKST1T]U($
h"<bn$GNRMC,122239.00,A,0419.71807,S,05539.78860,E,0.072,,190525,,,A*7B
$GNVTG,,T,,M,0.072,N,0.134,K,A*3E
$GNGNS,122239.00,0419.71807,S,05539.78860,E,AA,13,0.75,20.3,-47.6,,*6B
$GNGGA,122239.00,0419.71807,S,05539.78860,E,1,12,0.75,20.3,M,-47.6,M,,*40
$GNGSA,A,3,10,32,26,18,28,31,16,27,,,,,1.93,0.75,1.77*13
$GNGSA,A,3,70,84,71,85,72,,,,,,,,1.93,0.75,1.77*11
$GPGSV,4,1,16,08,05,319,31,10,17,360,31,16,25,245,23,18,32,079,36*7E
$GPGSV,4,2,16,23,03,037,31,25,01,126,,26,29,214,10,27,40,313,29*7D
$GPGSV,4,3,16,28,47,155,26,29,16,147,03,31,32,189,10,32,62,357,38*75
$GPGSV,4,4,16,36,52,277,32,40,84,353,,41,58,082,,49,32,274,37*79
$GLGSV,3,1,11,70,26,356,21,71,50,301,32,72,28,237,19,73,14,147,*65
$GLGSV,3,2,11,74,15,192,,75,00,237,,83,14,136,,84,49,084,27*6F
$GLGSV,3,3,11,85,36,010,40,,,,34,,,,30*5C
$GNGLL,0419.71807,S,05539.78860,E,122239.00,A,A*6D
$GNGRS,122239.00,1,-2.5,0.0,13.6,-0.7,4.0,12.4,1.9,2.1,,,,*55
$GNGRS,122239.00,1,9.1,6.1,-1.2,-1.5,-7.4,,,,,,,*51
$GNGST,122239.00,3303821,,,,3.3,2.5,5.6*7C
$GNZDA,122239.00,19,05,2025,00,00*79
$GNGBS,122239.00,3.3,2.5,5.6,,,,*52
b0X%?
"h% O %~"(9/@ r '>e
{$4Ta:R( jl
FdUG$2-jHdIJKST1TU($
br$GNRMC,122240.00,A,0419.71807,S,05539.78856,E,0.275,,190525,,,A*75
$GNVTG,,T,,M,0.275,N,0.509,K,A*31
$GNGNS,122240.00,0419.71807,S,05539.78856,E,AA,14,0.78,20.4,-47.6,,*6D
$GNGGA,122240.00,0419.71807,S,05539.78856,E,1,12,0.78,20.4,M,-47.6,M,,*41
$GNGSA,A,3,29,10,32,26,18,28,31,16,27,,,,1.96,0.78,1.80*18
$GNGSA,A,3,70,84,71,85,72,,,,,,,,1.96,0.78,1.80*11
$GPGSV,4,1,16,08,05,319,37,10,17,360,34,16,25,245,25,18,32,079,37*7A
$GPGSV,4,2,16,23,03,037,32,25,01,126,,26,29,214,07,27,40,313,34*74
$GPGSV,4,3,16,28,47,155,26,29,16,147,12,31,32,189,16,32,62,357,39*72
$GPGSV,4,4,16,36,52,277,36,40,84,353,,41,58,082,,49,32,274,40*7D
$GLGSV,3,1,11,70,26,356,22,71,50,301,36,72,28,237,20,73,14,147,*68
$GLGSV,3,2,11,74,15,192,,75,00,237,,83,14,136,,84,49,084,26*6E
$GLGSV,3,3,11,85,36,010,40,,,,29,,,,22*53
$GNGLL,0419.71807,S,05539.78856,E,122240.00,A,A*66
$GNGRS,122240.00,1,166,-6.0,0.1,-28.5,0.2,4.0,-11.7,5.2,4.5,,,*44
$GNGRS,122240.00,1,8.5,4.2,-1.5,-1.3,-9.2,,,,,,,*52
$GNGST,122240.00,43,,,,3.2,2.5,5.6*4C
$GNZDA,122240.00,19,05,2025,00,00*77
$GNGBS,122240.00,3.2,2.5,5.6,,,,*5D
b0X%?;
"hO^" O %0~{$(9/\  *>e$
{$4Ta:R' j6Fd9G$2-pHnIJKST1TU&$
bvv$GNRMC,122241.00,A,0419.71812,S,05539.78852,E,0.126,,190525,,,A*71
$GNVTG,,T,,M,0.126,N,0.233,K,A*3A
$GNGNS,122241.00,0419.71812,S,05539.78852,E,AA,14,0.68,20.4,-47.6,,*6D
$GNGGA,122241.00,0419.71812,S,05539.78852,E,1,12,0.68,20.4,M,-47.6,M,,*41
$GNGSA,A,3,29,10,32,26,18,28,31,16,27,,,,1.70,0.68,1.56*1A
$GNGSA,A,3,70,84,71,85,72,,,,,,,,1.70,0.68,1.56*13
$GPGSV,4,1,16,08,05,319,37,10,17,360,34,16,25,245,26,18,32,079,34*7A
$GPGSV,4,2,16,23,03,037,32,25,01,126,,26,29,214,14,27,40,313,36*74
$GPGSV,4,3,16,28,47,155,25,29,16,147,08,31,32,189,17,32,62,357,42*77
$GPGSV,4,4,16,36,52,277,36,40,84,353,,41,58,082,,49,32,274,39*73
$GLGSV,3,1,11,70,26,356,25,71,50,301,36,72,28,237,18,73,14,147,*64
$GLGSV,3,2,11,74,15,192,,75,00,237,,83,14,136,,84,49,084,26*6E
$GLGSV,3,3,11,85,36,010,38,,,,28,,,,22*5D
$GNGLL,0419.71812,S,05539.78852,E,122241.00,A,A*67
$GNGRS,122241.00,1,18.8,-1.8,0.4,14.0,2.5,1.9,12.7,6.1,1.8,,,*69
$GNGRS,122241.00,1,10.8,7.1,-1.4,-1.2,-11.7,,,,,,,*5B
$GNGST,122241.00,4514852,,,,3.2,2.4,5.5*73
$GNZDA,122241.00,19,05,2025,00,00*76
$GNGBS,122241.00,3.2,2.4,5.5,,,,*5E
b0X(?
&h% O %F~&(9v/?  )>e
{(4Ta:R( jEFdG!2-HIJKST1TYU#$
blz$GNRMC,122242.00,A,0419.71810,S,05539.78854,E,0.008,,190525,,,A*7B
$GNVTG,,T,,M,0.008,N,0.015,K,A*31
$GNGNS,122242.00,0419.71810,S,05539.78854,E,AA,14,0.68,20.5,-47.6,,*6B
$GNGGA,122242.00,0419.71810,S,05539.78854,E,1,12,0.68,20.5,M,-47.6,M,,*47
$GNGSA,A,3,29,10,32,26,18,28,31,16,27,,,,1.70,0.68,1.56*1A
$GNGSA,A,3,70,84,71,85,72,,,,,,,,1.70,0.68,1.56*13
$GPGSV,4,1,16,08,05,319,40,10,17,360,38,16,25,245,24,18,32,079,37*77
$GPGSV,4,2,16,23,03,037,32,25,01,126,,26,29,214,18,27,40,313,38*76
$GPGSV,4,3,16,28,47,155,24,29,16,147,08,31,32,189,16,32,62,357,41*74
$GPGSV,4,4,16,36,52,277,40,40,84,353,,41,58,082,,49,32,274,40*7C
$GLGSV,3,1,11,70,26,356,25,71,50,301,33,72,28,237,17,73,14,147,*6E
$GLGSV,3,2,11,74,15,192,,75,00,237,,83,14,136,,84,49,084,26*6E
$GLGSV,3,3,11,85,36,010,35,,,,30,,,,22*59
$GNGLL,0419.71810,S,05539.78854,E,122242.00,A,A*60
$GNGRS,122242.00,1,18.6,-2.3,0.2,14.2,-0.1,-0.9,12.6,7.1,-1.4,,,*4E
$GNGRS,122242.00,1,11.6,8.6,-1.3,-0.9,-13.6,,,,,,,*51
$GNGST,122242.00,4514852,,,,3.2,2.4,5.5*70
$GNZDA,122242.00,19,05,2025,00,00*75
$GNGBS,122242.00,3.2,2.4,5.5,,,,*5D
b0X'?
$h;% Ov%~~'(9/  )>e5
{'4Ta:R( jSFdgG!2-HIJKST1TU#$
~bT~pF$GNRMC,122243.00,A,0419.71810,S,05539.78857,E,0.082,,190525,,,A*7B
$GNVTG,,T,,M,0.082,N,0.152,K,A*31
$GNGNS,122243.00,0419.71810,S,05539.78857,E,AA,14,0.75,20.6,-47.6,,*66
$GNGGA,122243.00,0419.71810,S,05539.78857,E,1,12,0.75,20.6,M,-47.6,M,,*4A
$GNGSA,A,3,29,10,32,26,18,28,31,16,27,,,,1.93,0.75,1.77*18
$GNGSA,A,3,70,84,71,85,72,,,,,,,,1.93,0.75,1.77*11
$GPGSV,4,1,16,08,05,319,39,10,17,360,36,16,25,245,21,18,32,079,37*72
$GPGSV,4,2,16,23,03,037,30,25,01,126,,26,29,214,11,27,40,313,39*7C
$GPGSV,4,3,16,28,47,155,23,29,16,147,12,31,32,189,18,32,62,357,41*76
$GPGSV,4,4,16,36,52,277,39,40,84,353,,41,58,082,,49,32,274,40*72
$GLGSV,3,1,11,70,26,356,25,71,50,301,33,72,28,237,16,73,14,147,*6F
$GLGSV,3,2,11,74,15,192,,75,00,237,,83,14,136,,84,49,084,26*6E
$GLGSV,3,3,11,85,36,010,35,,,,29,,,,22*51
$GNGLL,0419.71810,S,05539.78857,E,122243.00,A,A*62
$GNGRS,122243.00,1,50.3,0.6,0.5,14.1,-1.4,-0.6,12.5,7.7,-2.5,,,*64
$GNGRS,122243.00,1,11.3,9.0,-1.1,-1.3,-15.2,,,,,,,*59
$GNGST,122243.00,54,,,,3.2,2.4,5.5*4B
$GNZDA,122243.00,19,05,2025,00,00*74
$GNGBS,122243.00,3.2,2.4,5.5,,,,*5C
b0Xp'?U
#h# O`"%1~&(9/2
z  )>e1
{&4Ta:R' j"FekG"2-HIJKST1TU#$
ubp<H$GNRMC,122244.00,A,0419.71814,S,05539.78857,E,0.115,,190525,,,A*77
$GNVTG,,T,,M,0.115,N,0.214,K,A*3F
$GNGNS,122244.00,0419.71814,S,05539.78857,E,AA,14,0.68,20.6,-47.6,,*69
$GNGGA,122244.00,0419.71814,S,05539.78857,E,1,12,0.68,20.6,M,-47.6,M,,*45
$GNGSA,A,3,29,10,32,26,18,28,31,16,27,,,,1.70,0.68,1.56*1A
$GNGSA,A,3,70,84,71,85,72,,,,,,,,1.70,0.68,1.56*13
$GPGSV,4,1,16,08,05,319,39,10,17,360,35,16,25,245,21,18,32,079,35*73
$GPGSV,4,2,16,23,03,037,34,25,01,126,,26,29,214,15,27,40,313,38*7D
$GPGSV,4,3,16,28,47,155,23,29,16,147,10,31,32,189,20,32,62,357,41*7F
$GPGSV,4,4,16,36,52,277,38,40,84,353,,41,58,082,,49,32,274,39*7D
$GLGSV,3,1,11,70,25,357,24,71,50,301,34,72,28,237,13,73,14,147,*6E
$GLGSV,3,2,11,74,15,192,,75,00,237,,83,14,136,,84,49,084,26*6E
$GLGSV,3,3,11,85,36,010,35,,,,28,,,,21*53
$GNGLL,0419.71814,S,05539.78857,E,122244.00,A,A*61
$GNGRS,122244.00,1,19.1,-0.7,0.5,12.3,-1.6,-2.1,9.2,7.5,-0.5,,,*7E
$GNGRS,122244.00,1,8.7,7.6,-1.2,-1.4,-12.5,,,,,,,*6E
$GNGST,122244.00,3179277,,,,3.3,2.4,5.4*73
$GNZDA,122244.00,19,05,2025,00,00*73
$GNGBS,122244.00,3.3,2.4,5.4,,,,*5B
b0XX'?
!h"L# OK"%~$(9/  +>e
{%4Ta:R% 
jFeG"1.HYIJKST1TU#$
^bX$ $GNRMC,122245.00,A,0419.71818,S,05539.78858,E,0.114,,190525,,,A*74
$GNVTG,,T,,M,0.114,N,0.212,K,A*38
$GNGNS,122245.00,0419.71818,S,05539.78858,E,AA,13,0.72,20.6,-47.6,,*67
$GNGGA,122245.00,0419.71818,S,05539.78858,E,1,12,0.72,20.6,M,-47.6,M,,*4C
$GNGSA,A,3,29,10,32,26,18,28,31,16,27,,,,1.72,0.72,1.56*13
$GNGSA,A,3,70,84,71,85,,,,,,,,,1.72,0.72,1.56*1F
$GPGSV,4,1,16,08,05,319,39,10,17,360,33,16,25,245,21,18,32,079,35*75
$GPGSV,4,2,16,23,03,037,34,25,01,126,,26,29,214,16,27,40,313,36*70
$GPGSV,4,3,16,28,47,155,23,29,16,147,11,31,32,189,20,32,62,357,43*7C
$GPGSV,4,4,16,36,52,277,37,40,84,353,,41,58,082,,49,32,274,37*7C
$GLGSV,3,1,11,70,25,357,25,71,49,302,34,72,28,237,09,73,14,147,*6F
$GLGSV,3,2,11,74,15,192,,75,00,237,,83,14,136,,84,49,084,24*6C
$GLGSV,3,3,11,85,36,010,35,,,,26,,,,21*5D
$GNGLL,0419.71818,S,05539.78858,E,122245.00,A,A*63
$GNGRS,122245.00,1,19.2,0.3,0.2,12.2,0.8,-3.0,9.0,11.0,-1.2,,,*47
$GNGRS,122245.00,1,9.1,4.7,-0.9,-1.6,,,,,,,,*57
$GNGST,122245.00,3299292,,,,3.3,2.4,5.4*74
$GNZDA,122245.00,19,05,2025,00,00*72
$GNGBS,122245.00,3.3,2.4,5.4,,,,*5A
b0X@(?
"h^% O#%~&(9/r 2 ,>e
{%4Ta:R& jFeG"1.HIJKST1TU#$
mb@~$GNRMC,122246.00,A,0419.71817,S,05539.78858,E,0.185,,190525,,,A*70
$GNVTG,,T,,M,0.185,N,0.343,K,A*35
$GNGNS,122246.00,0419.71817,S,05539.78858,E,AA,14,0.75,20.6,-47.6,,*6B
$GNGGA,122246.00,0419.71817,S,05539.78858,E,1,12,0.75,20.6,M,-47.6,M,,*47
$GNGSA,A,3,29,10,32,26,18,28,31,16,27,,,,1.93,0.75,1.77*18
$GNGSA,A,3,70,84,71,85,72,,,,,,,,1.93,0.75,1.77*11
$GPGSV,4,1,16,08,05,319,40,10,17,360,34,16,25,245,21,18,32,079,37*7E
$GPGSV,4,2,16,23,03,037,35,25,01,126,,26,29,214,15,27,40,313,38*7C
$GPGSV,4,3,16,28,47,155,24,29,16,147,08,31,32,189,22,32,62,357,44*76
$GPGSV,4,4,16,36,52,277,37,40,84,353,,41,58,082,,49,32,274,38*73
$GLGSV,3,1,11,70,25,357,25,71,49,302,34,72,28,238,08,73,14,147,*61
$GLGSV,3,2,11,74,15,192,,75,00,237,,83,14,136,,84,49,084,24*6C
$GLGSV,3,3,11,85,36,010,35,,,,24,,,,21*5F
$GNGLL,0419.71817,S,05539.78858,E,122246.00,A,A*6F
$GNGRS,122246.00,1,-37.3,0.0,0.0,12.3,-0.3,-3.3,8.2,11.2,0.3,,,*6D
$GNGRS,122246.00,1,9.2,4.9,-1.0,-1.5,-13.9,,,,,,,*6A
$GNGST,122246.00,53,,,,3.3,2.4,5.4*49
$GNZDA,122246.00,19,05,2025,00,00*71
$GNGBS,122246.00,3.3,2.4,5.4,,,,*59
b0X((?
ha:" O #%~$(9/t B ->e
{'4Ta:R( jFeG"1.H
yIJKST1TU$$
a~1b($GNRMC,122247.00,A,0419.71817,S,05539.78861,E,0.175,,190525,,,A*74
$GNVTG,,T,,M,0.175,N,0.324,K,A*3B
$GNGNS,122247.00,0419.71817,S,05539.78861,E,AA,14,0.64,20.7,-47.6,,*61
$GNGGA,122247.00,0419.71817,S,05539.78861,E,1,12,0.64,20.7,M,-47.6,M,,*4D
$GNGSA,A,3,29,10,32,26,18,28,31,16,27,,,,1.54,0.64,1.40*17
$GNGSA,A,3,70,84,71,85,72,,,,,,,,1.54,0.64,1.40*1E
$GPGSV,4,1,16,08,05,319,40,10,17,360,29,16,25,245,23,18,32,079,34*73
$GPGSV,4,2,16,23,03,037,35,25,01,126,,26,29,214,15,27,40,313,36*72
$GPGSV,4,3,16,28,47,155,25,29,16,147,12,31,32,189,22,32,62,357,45*7D
$GPGSV,4,4,16,36,52,277,39,40,84,353,,41,58,082,,49,32,274,40*72
$GLGSV,3,1,11,70,25,357,24,71,49,302,34,72,28,238,10,73,15,146,*69
$GLGSV,3,2,11,74,15,192,,75,00,237,,83,14,136,,84,49,084,23*6B
$GLGSV,3,3,11,85,36,010,36,,,,21,,,,22*5A
$GNGLL,0419.71817,S,05539.78861,E,122247.00,A,A*64
$GNGRS,122247.00,1,19.1,1.0,-0.5,14.1,0.3,-3.2,5.8,8.3,-0.6,,,*58
$GNGRS,122247.00,1,9.1,4.5,-0.8,-1.6,-14.1,,,,,,,*61
$GNGST,122247.00,3072448,,,,3.3,2.4,5.4*70
$GNZDA,122247.00,19,05,2025,00,00*70
$GNGBS,122247.00,3.3,2.4,5.4,,,,*58
b0X'?
h  O#%~V$(9/
8  ,>e
{$4Ta:R) jFeqG"1.H
6IJKST1TU($
|ebK$GNRMC,122248.00,A,0419.71829,S,05539.78860,E,0.071,,190525,,,A*72
$GNVTG,,T,,M,0.071,N,0.131,K,A*38
$GNGNS,122248.00,0419.71829,S,05539.78860,E,AA,14,0.64,20.4,-47.6,,*61
$GNGGA,122248.00,0419.71829,S,05539.78860,E,1,12,0.64,20.4,M,-47.6,M,,*4D
$GNGSA,A,3,29,10,32,26,18,28,31,16,27,,,,1.54,0.64,1.40*17
$GNGSA,A,3,70,84,71,85,72,,,,,,,,1.54,0.64,1.40*1E
$GPGSV,4,1,16,08,05,319,39,10,17,360,28,16,25,245,26,18,32,079,28*74
$GPGSV,4,2,16,23,03,037,35,25,01,126,,26,29,214,14,27,40,313,36*73
$GPGSV,4,3,16,28,47,155,25,29,16,147,10,31,32,189,22,32,62,357,44*7E
$GPGSV,4,4,16,36,52,277,36,40,84,353,,41,58,082,,49,32,274,41*7C
$GLGSV,3,1,11,70,25,357,25,71,49,302,34,72,28,238,10,73,15,146,*68
$GLGSV,3,2,11,74,15,192,,75,00,237,,83,14,136,,84,49,084,22*6A
$GLGSV,3,3,11,85,36,010,40,,,,25,,,,22*5F
$GNGLL,0419.71829,S,05539.78860,E,122248.00,A,A*67
$GNGRS,122248.00,1,18.5,5.4,-1.0,16.2,0.2,-3.0,7.1,7.2,0.1,,,*7B
$GNGRS,122248.00,1,11.4,5.3,-0.6,-1.3,-14.8,,,,,,,*57
$GNGST,122248.00,3072448,,,,3.3,2.4,5.4*7F
$GNZDA,122248.00,19,05,2025,00,00*7F
$GNGBS,122248.00,3.3,2.4,5.4,,,,*57
b0X&?
ht Oe!%Y~#(9/  +>e
{"4Ta:R( jZFejG"1.HIJKST1T7U&$
{hb~$GNRMC,122249.00,A,0419.71833,S,05539.78856,E,0.035,,190525,,,A*7D
$GNVTG,,T,,M,0.035,N,0.065,K,A*38
$GNGNS,122249.00,0419.71833,S,05539.78856,E,AA,14,0.70,20.1,-47.6,,*6E
$GNGGA,122249.00,0419.71833,S,05539.78856,E,1,12,0.70,20.1,M,-47.6,M,,*42
$GNGSA,A,3,29,10,32,26,18,28,31,16,27,,,,1.64,0.70,1.48*19
$GNGSA,A,3,70,84,71,85,72,,,,,,,,1.64,0.70,1.48*10
$GPGSV,4,1,16,08,05,319,38,10,17,360,29,16,25,245,27,18,32,079,29*74
$GPGSV,4,2,16,23,03,037,33,25,01,126,,26,29,214,14,27,40,313,35*76
$GPGSV,4,3,16,28,47,155,25,29,16,147,08,31,32,189,19,32,62,357,43*78
$GPGSV,4,4,16,36,52,277,34,40,84,353,,41,58,082,,49,32,274,40*7F
$GLGSV,3,1,11,70,25,357,25,71,49,302,34,72,28,238,13,73,15,146,*6B
$GLGSV,3,2,11,74,15,192,,75,00,237,,83,14,136,,84,49,084,21*69
$GLGSV,3,3,11,85,36,010,38,,,,27,,,,21*51
$GNGLL,0419.71833,S,05539.78856,E,122249.00,A,A*68
$GNGRS,122249.00,1,-85.6,5.3,-1.1,15.1,1.0,-2.6,7.5,6.3,1.7,,,*51
$GNGRS,122249.00,1,13.9,3.1,-0.8,-1.3,-36.6,,,,,,,*5D
$GNGST,122249.00,50,,,,3.3,2.4,5.4*45
$GNZDA,122249.00,19,05,2025,00,00*7E
$GNGBS,122249.00,3.3,2.4,5.4,,,,*56
b0X'?
h O=!%U~G!(9/s  +>e
{"4Ta:R( jFeG#1.H
IJKST1T|U&$
bV$GNRMC,122250.00,A,0419.71835,S,05539.78850,E,0.086,,190525,,,A*7D
$GNVTG,,T,,M,0.086,N,0.160,K,A*34
$GNGNS,122250.00,0419.71835,S,05539.78850,E,AA,14,0.64,20.0,-47.6,,*62
$GNGGA,122250.00,0419.71835,S,05539.78850,E,1,12,0.64,20.0,M,-47.6,M,,*4E
$GNGSA,A,3,29,10,32,26,18,28,31,16,27,,,,1.54,0.64,1.40*17
$GNGSA,A,3,70,84,71,85,72,,,,,,,,1.54,0.64,1.40*1E
$GPGSV,4,1,16,08,05,319,39,10,17,360,27,16,25,245,26,18,32,079,29*7A
$GPGSV,4,2,16,23,03,037,33,25,01,126,,26,29,214,13,27,40,313,33*77
$GPGSV,4,3,16,28,47,155,25,29,16,147,08,31,32,189,18,32,62,357,43*79
$GPGSV,4,4,16,36,52,277,34,40,84,353,,41,58,082,,49,32,274,40*7F
$GLGSV,3,1,11,70,25,357,25,71,49,302,35,72,28,238,10,73,15,146,*69
$GLGSV,3,2,11,74,15,192,,75,00,237,,83,14,136,,84,49,084,20*68
$GLGSV,3,3,11,85,36,010,38,,,,29,,,,22*5C
$GNGLL,0419.71835,S,05539.78850,E,122250.00,A,A*60
$GNGRS,122250.00,1,19.1,6.9,-0.9,13.5,0.6,-2.7,5.1,6.6,5.1,,,*73
$GNGRS,122250.00,1,15.1,3.8,-0.8,-1.2,7.0,,,,,,,*4A
$GNGST,122250.00,4343719,,,,3.3,2.4,5.4*77
$GNZDA,122250.00,19,05,2025,00,00*76
$GNGBS,122250.00,3.3,2.4,5.4,,,,*5E
b0X&?2
hn O$!%~,"(9/IZ  ,>e
{#4Ta:R) jFeG#1.HIJKST1TU($
r!/b.t$GNRMC,122251.00,A,0419.71839,S,05539.78846,E,0.048,,190525,,,A*75
$GNVTG,,T,,M,0.048,N,0.089,K,A*30
$GNGNS,122251.00,0419.71839,S,05539.78846,E,AA,14,0.64,19.7,-47.6,,*65
$GNGGA,122251.00,0419.71839,S,05539.78846,E,1,12,0.64,19.7,M,-47.6,M,,*49
$GNGSA,A,3,29,10,32,26,18,28,31,16,27,,,,1.54,0.64,1.40*17
$GNGSA,A,3,70,84,71,85,72,,,,,,,,1.54,0.64,1.40*1E
$GPGSV,4,1,16,08,05,319,38,10,17,360,31,16,25,245,26,18,32,079,31*75
$GPGSV,4,2,16,23,03,037,33,25,01,126,,26,29,214,12,27,40,313,34*71
$GPGSV,4,3,16,28,47,155,25,29,16,147,07,31,32,189,15,32,62,357,44*7C
$GPGSV,4,4,16,36,52,277,35,40,84,353,,41,58,082,,49,32,274,41*7F
$GLGSV,3,1,11,70,25,357,25,71,49,302,35,72,28,238,09,73,15,146,*61
$GLGSV,3,2,11,74,15,192,,75,00,237,,83,14,136,,84,49,084,19*62
$GLGSV,3,3,11,85,36,010,40,,,,33,,,,22*58
$GNGLL,0419.71839,S,05539.78846,E,122251.00,A,A*6A
$GNGRS,122251.00,1,18.8,6.2,-0.7,13.2,2.9,-4.4,5.2,5.1,3.9,,,*79
$GNGRS,122251.00,1,15.2,4.4,-0.9,-1.4,6.6,,,,,,,*43
$GNGST,122251.00,4343719,,,,3.3,2.4,5.4*76
$GNZDA,122251.00,19,05,2025,00,00*77
$GNGBS,122251.00,3.3,2.4,5.4,,,,*5F
b0X(?+
h% Oh"%~"(9O/X'  +>e
{#4Ta:R( jkFeG#1.HIJKST1T&U($
Q!b|$GNRMC,122252.00,A,0419.71845,S,05539.78842,E,0.110,,190525,,,A*75
$GNVTG,,T,,M,0.110,N,0.203,K,A*3C
$GNGNS,122252.00,0419.71845,S,05539.78842,E,AA,14,0.67,19.5,-47.6,,*68
$GNGGA,122252.00,0419.71845,S,05539.78842,E,1,12,0.67,19.5,M,-47.6,M,,*44
$GNGSA,A,3,29,10,32,26,18,28,31,16,27,,,,1.61,0.67,1.47*15
$GNGSA,A,3,70,84,71,85,72,,,,,,,,1.61,0.67,1.47*1C
$GPGSV,4,1,16,08,05,319,40,10,17,360,29,16,25,245,26,18,32,079,37*75
$GPGSV,4,2,16,23,03,037,34,25,01,126,,26,29,214,11,27,40,313,34*75
$GPGSV,4,3,16,28,47,155,26,29,16,147,09,31,32,189,13,32,62,357,43*70
$GPGSV,4,4,16,36,52,277,35,40,84,353,,41,58,082,,49,32,274,40*7E
$GLGSV,3,1,11,70,25,357,24,71,49,302,35,72,28,238,17,73,15,146,*6F
$GLGSV,3,2,11,74,15,192,,75,00,237,,83,14,136,,84,49,084,20*68
$GLGSV,3,3,11,85,36,010,40,,,,33,,,,22*58
$GNGLL,0419.71845,S,05539.78842,E,122252.00,A,A*66
$GNGRS,122252.00,1,101,-0.1,-0.5,12.1,1.0,-3.3,7.8,4.8,3.4,,,*7A
$GNGRS,122252.00,1,14.8,2.9,-1.2,-1.7,0.3,,,,,,,*4A
$GNGST,122252.00,58,,,,3.3,2.4,5.4*47
$GNZDA,122252.00,19,05,2025,00,00*74
$GNGBS,122252.00,3.3,2.4,5.4,,,,*5C
b0X'?
$h# Oh%%~
"(9/Tx  ,>e
{#4Ta:R( jFe+G%1.HIJKST1TU*$
m#bdD$GNRMC,122253.00,A,0419.71852,S,05539.78840,E,0.035,,190525,,,A*76
$GNVTG,,T,,M,0.035,N,0.065,K,A*38
$GNGNS,122253.00,0419.71852,S,05539.78840,E,AA,14,0.64,19.5,-47.6,,*6E
$GNGGA,122253.00,0419.71852,S,05539.78840,E,1,12,0.64,19.5,M,-47.6,M,,*42
$GNGSA,A,3,29,10,32,26,18,28,31,16,27,,,,1.54,0.64,1.40*17
$GNGSA,A,3,70,84,71,85,72,,,,,,,,1.54,0.64,1.40*1E
$GPGSV,4,1,16,08,05,319,39,10,17,360,36,16,25,245,26,18,32,079,35*77
$GPGSV,4,2,16,23,03,037,37,25,01,126,,26,29,214,10,27,40,313,34*77
$GPGSV,4,3,16,28,47,155,26,29,16,147,09,31,32,189,14,32,62,357,44*70
$GPGSV,4,4,16,36,52,277,35,40,84,353,,41,58,082,,49,32,274,40*7E
$GLGSV,3,1,11,70,25,357,22,71,49,302,37,72,28,238,12,73,15,146,*6E
$GLGSV,3,2,11,74,15,192,,75,00,237,,83,14,136,,84,49,084,20*68
$GLGSV,3,3,11,85,36,010,42,,,,35,,,,22*5C
$GNGLL,0419.71852,S,05539.78840,E,122253.00,A,A*63
$GNGRS,122253.00,1,19.1,-5.3,-0.6,11.9,1.0,-4.3,7.6,4.2,5.0,,,*52
$GNGRS,122253.00,1,15.8,4.0,-1.2,-1.5,7.3,,,,,,,*40
$GNGST,122253.00,137983,,,,3.2,2.4,5.3*4A
$GNZDA,122253.00,19,05,2025,00,00*75
$GNGBS,122253.00,3.2,2.4,5.3,,,,*5B
b0X(?
h# Ot'%~%(9/q B ,>e
{&4Ta:R( jFeiG%1.H
IJKST1TU'$
MbL$GNRMC,122254.00,A,0419.71855,S,05539.78839,E,0.090,,190525,,,A*77
$GNVTG,,T,,M,0.090,N,0.167,K,A*34
$GNGNS,122254.00,0419.71855,S,05539.78839,E,AA,13,0.67,19.4,-47.6,,*65
$GNGGA,122254.00,0419.71855,S,05539.78839,E,1,12,0.67,19.4,M,-47.6,M,,*4E
$GNGSA,A,3,29,10,32,18,28,31,16,27,,,,,1.56,0.67,1.40*12
$GNGSA,A,3,70,84,71,85,72,,,,,,,,1.56,0.67,1.40*1F
$GPGSV,4,1,16,08,05,319,40,10,17,360,31,16,25,245,26,18,32,079,35*7E
$GPGSV,4,2,16,23,03,037,39,25,01,126,,26,29,214,05,27,40,313,37*7E
$GPGSV,4,3,16,28,47,155,26,29,16,147,09,31,32,189,17,32,62,357,44*73
$GPGSV,4,4,16,36,52,277,38,40,84,353,,41,58,082,,49,32,274,40*73
$GLGSV,3,1,11,70,25,357,22,71,49,302,37,72,28,238,10,73,15,146,*6C
$GLGSV,3,2,11,74,15,192,,75,00,237,,83,14,136,,84,49,084,20*68
$GLGSV,3,3,11,85,36,010,39,,,,30,,,,23*54
$GNGLL,0419.71855,S,05539.78839,E,122254.00,A,A*6D
$GNGRS,122254.00,1,19.1,-3.4,-1.0,1.2,-2.7,5.8,2.4,0.1,,,,*4C
$GNGRS,122254.00,1,16.4,2.0,-1.1,-1.3,7.3,,,,,,,*4B
$GNGST,122254.00,176008,,,,3.2,2.4,5.3*42
$GNZDA,122254.00,19,05,2025,00,00*72
$GNGBS,122254.00,3.2,2.4,5.3,,,,*5C
b0Xh&?
h@^" Os$%~!(9/e g *>e
{%4Ta:R' jjFeG%1.HIJKST1TU%$
&bh4$GNRMC,122255.00,A,0419.71855,S,05539.78838,E,0.043,,190525,,,A*79
$GNVTG,,T,,M,0.043,N,0.079,K,A*34
$GNGNS,122255.00,0419.71855,S,05539.78838,E,AA,14,0.64,19.2,-47.6,,*67
$GNGGA,122255.00,0419.71855,S,05539.78838,E,1,12,0.64,19.2,M,-47.6,M,,*4B
$GNGSA,A,3,29,10,32,26,18,28,31,16,27,,,,1.54,0.64,1.40*17
$GNGSA,A,3,70,84,71,85,72,,,,,,,,1.54,0.64,1.40*1E
$GPGSV,4,1,16,08,05,319,38,10,17,360,30,16,25,245,26,18,32,079,34*71
$GPGSV,4,2,16,23,03,037,36,25,01,126,,26,29,214,11,27,40,313,33*70
$GPGSV,4,3,16,28,47,155,25,29,16,147,07,31,32,189,21,32,62,357,42*7D
$GPGSV,4,4,16,36,52,277,37,40,84,353,,41,58,082,,49,32,274,39*72
$GLGSV,3,1,11,70,25,357,23,71,49,302,37,72,28,238,09,73,15,146,*65
$GLGSV,3,2,11,74,15,192,,75,00,237,,83,14,136,,84,49,084,21*69
$GLGSV,3,3,11,85,36,010,37,,,,31,,,,24*5C
$GNGLL,0419.71855,S,05539.78838,E,122255.00,A,A*6D
$GNGRS,122255.00,1,-9.2,5.8,-1.1,-7.5,1.2,-3.3,3.6,0.9,0.3,,,*75
$GNGRS,122255.00,1,15.4,1.8,-0.9,-1.2,-13.0,,,,,,,*51
$GNGST,122255.00,64,,,,3.2,2.3,5.3*4E
$GNZDA,122255.00,19,05,2025,00,00*73
$GNGBS,122255.00,3.2,2.3,5.3,,,,*5A
b0XP&?
h! Oq$%~| (9/>  )>e
{$4Ta:R' jFedG$1.HIJKST1T U%$
KbPf|$GNRMC,122256.00,A,0419.71855,S,05539.78841,E,0.168,,190525,,,A*7C
$GNVTG,,T,,M,0.168,N,0.312,K,A*32
$GNGNS,122256.00,0419.71855,S,05539.78841,E,AA,13,0.67,18.9,-47.6,,*64
$GNGGA,122256.00,0419.71855,S,05539.78841,E,1,12,0.67,18.9,M,-47.6,M,,*4F
$GNGSA,A,3,10,32,26,18,28,31,16,27,,,,,1.61,0.67,1.47*1E
$GNGSA,A,3,70,84,71,85,72,,,,,,,,1.61,0.67,1.47*1C
$GPGSV,4,1,16,08,05,319,38,10,17,360,23,16,25,245,26,18,32,079,33*74
$GPGSV,4,2,16,23,03,037,36,25,01,126,,26,29,214,11,27,40,313,32*71
$GPGSV,4,3,16,28,47,155,25,29,16,147,05,31,32,189,22,32,62,357,41*7F
$GPGSV,4,4,16,36,52,277,36,40,84,353,,41,58,082,,49,32,274,39*73
$GLGSV,3,1,11,70,25,357,24,71,49,302,36,72,28,238,09,73,15,146,*63
$GLGSV,3,2,11,74,15,192,,75,00,237,,83,14,136,,84,49,084,21*69
$GLGSV,3,3,11,85,36,010,37,,,,30,,,,24*5D
$GNGLL,0419.71855,S,05539.78841,E,122256.00,A,A*60
$GNGRS,122256.00,1,6.8,-1.0,14.0,1.1,-4.5,2.8,1.3,-0.7,,,,*49
$GNGRS,122256.00,1,13.8,0.3,-0.7,-0.8,7.3,,,,,,,*4C
$GNGST,122256.00,4496177,,,,3.2,2.3,5.3*71
$GNZDA,122256.00,19,05,2025,00,00*70
$GNGBS,122256.00,3.2,2.3,5.3,,,,*59
b0X8$?
h  O$%~n!(9/j
H s )>e
{"4Ta:R& j9FeG$1.HIJKST1TU($
 2b8>$GNRMC,122257.00,A,0419.71852,S,05539.78841,E,0.100,,190525,,,A*74
$GNVTG,,T,,M,0.100,N,0.184,K,A*31
$GNGNS,122257.00,0419.71852,S,05539.78841,E,AA,14,0.64,18.7,-47.6,,*68
$GNGGA,122257.00,0419.71852,S,05539.78841,E,1,12,0.64,18.7,M,-47.6,M,,*44
$GNGSA,A,3,29,10,32,26,18,28,31,16,27,,,,1.54,0.64,1.40*17
$GNGSA,A,3,70,84,71,85,72,,,,,,,,1.54,0.64,1.40*1E
$GPGSV,4,1,16,08,05,319,36,10,17,360,25,16,25,245,26,18,32,079,32*7D
$GPGSV,4,2,16,23,03,037,36,25,01,126,,26,29,214,15,27,40,313,33*74
$GPGSV,4,3,16,28,47,155,25,29,16,147,10,31,32,189,20,32,62,357,41*79
$GPGSV,4,4,16,36,52,277,34,40,84,353,,41,58,082,,49,32,274,38*70
$GLGSV,3,1,11,70,25,357,24,71,49,302,36,72,28,238,14,73,15,146,*6F
$GLGSV,3,2,11,74,15,192,,75,00,237,,83,13,137,,84,49,084,21*6F
$GLGSV,3,3,11,85,36,010,40,,,,32,,,,22*59
$GNGLL,0419.71852,S,05539.78841,E,122257.00,A,A*66
$GNGRS,122257.00,1,18.6,-3.6,-0.7,13.9,-0.4,-6.6,-1.4,2.6,2.2,,,*51
$GNGRS,122257.00,1,12.3,2.0,-0.5,-1.0,7.3,,,,,,,*4D
$GNGST,122257.00,5319948,,,,3.1,2.3,5.3*76
$GNZDA,122257.00,19,05,2025,00,00*71
$GNGBS,122257.00,3.1,2.3,5.3,,,,*5B
b0X $?
h  O$%~~ (9j/ + )>e
{"4Ta:R( j@FeG#1.H
IJKST2UzU($
#hb I$GNRMC,122258.00,A,0419.71847,S,05539.78837,E,0.199,,190525,,,A*7E
$GNVTG,,T,,M,0.199,N,0.369,K,A*30
$GNGNS,122258.00,0419.71847,S,05539.78837,E,AA,14,0.70,18.6,-47.6,,*66
$GNGGA,122258.00,0419.71847,S,05539.78837,E,1,12,0.70,18.6,M,-47.6,M,,*4A
$GNGSA,A,3,29,10,32,26,18,28,31,16,27,,,,1.64,0.70,1.48*19
$GNGSA,A,3,70,84,71,85,72,,,,,,,,1.64,0.70,1.48*10
$GPGSV,4,1,16,08,05,319,36,10,17,360,25,16,25,245,26,18,32,079,32*7D
$GPGSV,4,2,16,23,03,037,36,25,01,126,,26,29,214,12,27,40,313,32*72
$GPGSV,4,3,16,28,47,155,24,29,16,147,11,31,32,189,19,32,62,357,41*73
$GPGSV,4,4,16,36,52,277,34,40,84,353,,41,58,082,,49,32,274,40*7F
$GLGSV,3,1,11,70,25,357,23,71,49,302,35,72,28,238,10,73,15,146,*6F
$GLGSV,3,2,11,74,15,192,,75,00,237,,83,13,137,,84,50,085,22*65
$GLGSV,3,3,11,85,36,010,40,,,,35,,,,21*5D
$GNGLL,0419.71847,S,05539.78837,E,122258.00,A,A*6C
$GNGRS,122258.00,1,-26.6,1.6,-0.3,-11.5,-1.1,-8.4,-2.1,4.7,3.6,,,*7A
$GNGRS,122258.00,1,12.7,1.2,-0.9,-1.0,-61.6,,,,,,,*53
$GNGST,122258.00,50,,,,3.1,2.4,5.4*47
$GNZDA,122258.00,19,05,2025,00,00*7E
$GNGBS,122258.00,3.1,2.4,5.4,,,,*54
b0X$?
hA  O\#%~(9c/Nk  '>e
{ 4Ta:R& jFeG$1.HIJKST2UU(%
$b$GNRMC,122259.00,A,0419.71847,S,05539.78837,E,0.064,,190525,,,A*7C
$GNVTG,,T,,M,0.064,N,0.118,K,A*37
$GNGNS,122259.00,0419.71847,S,05539.78837,E,AA,12,0.70,18.4,-47.6,,*63
$GNGGA,122259.00,0419.71847,S,05539.78837,E,1,12,0.70,18.4,M,-47.6,M,,*49
$GNGSA,A,3,10,32,26,18,28,31,16,27,,,,,1.64,0.70,1.48*12
$GNGSA,A,3,70,84,71,85,,,,,,,,,1.64,0.70,1.48*15
$GPGSV,4,1,16,08,05,319,36,10,17,360,31,16,25,245,26,18,32,079,32*78
$GPGSV,4,2,16,23,03,037,35,25,01,126,,26,29,214,12,27,40,313,31*72
$GPGSV,4,3,16,28,47,155,22,29,16,147,07,31,32,189,17,32,62,357,39*73
$GPGSV,4,4,16,36,52,277,32,40,84,353,,41,58,082,,49,32,274,38*76
$GLGSV,3,1,11,70,25,357,23,71,49,302,36,72,28,238,07,73,15,146,*6A
$GLGSV,3,2,11,74,15,192,,75,00,237,,83,13,137,,84,50,085,23*64
$GLGSV,3,3,11,85,37,010,40,,,,36,,,,20*5E
$GNGLL,0419.71847,S,05539.78837,E,122259.00,A,A*6D
$GNGRS,122259.00,1,-3.5,-0.1,14.1,0.9,-9.5,-3.4,5.8,3.6,,,,*66
$GNGRS,122259.00,1,14.2,2.2,-1.1,-1.1,,,,,,,,*68
$GNGST,122259.00,3299292,,,,3.1,2.4,5.4*7B
