$GLGSV,3,1,11,70,27,355,16,71,51,298,36,72,27,235,33,73,14,149,*6C
$GLGSV,3,2,11,74,15,194,,75,00,239,,83,15,134,,84,49,080,20*67
$GLGSV,3,3,11,85,33,008,36,,,,39,,,,37*5B
$GNGLL,0419.70970,S,05539.78585,E,121749.00,A,A*6A
$GNGRS,121749.00,1,18.0,0.3,1.4,0.2,-1.8,0.2,1.7,1.6,-2.2,,,*41
$GNGRS,121749.00,1,4.6,4.5,-0.7,-4.8,-5.2,,,,,,,*54
$GNGST,121749.00,410229,,,,1.3,1.8,4.5*47
$GNZDA,121749.00,19,05,2025,00,00*78
$GNGBS,121749.00,1.3,1.8,4.5,,,,*5D
b0X$@
%f#3 L##&;$-{!| !AdQ
{4 Ta:R iFclG3*H!%IJKST1PU! #)b$g$GNRMC,121750.00,A,0419.70970,S,05539.78586,E,0.141,,190525,,,A*76
$GNVTG,,T,,M,0.141,N,0.262,K,A*3F
$GNGNS,121750.00,0419.70970,S,05539.78586,E,AA,14,0.69,17.7,-47.6,,*6D
$GNGGA,121750.00,0419.70970,S,05539.78586,E,1,12,0.69,17.7,M,-47.6,M,,*41
$GNGSA,A,3,29,10,32,26,18,28,31,16,27,,,,1.74,0.69,1.60*1A
$GNGSA,A,3,70,84,71,85,72,,,,,,,,1.74,0.69,1.60*13
$GPGSV,4,1,16,08,03,320,23,10,18,358,37,16,25,247,35,18,32,076,28*76
$GPGSV,4,2,16,23,03,035,24,25,02,128,,26,29,217,35,27,38,315,27*75
$GPGSV,4,3,16,28,45,158,36,29,18,147,11,31,30,190,33,32,65,356,33*70
$GPGSV,4,4,16,36,52,277,,40,84,353,32,41,58,082,30,49,32,274,*7E
$GLGSV,3,1,11,70,27,355,13,71,51,298,30,72,27,235,33,73,14,149,*6F
$GLGSV,3,2,11,74,15,194,,75,00,239,,83,15,134,,84,49,080,20*67
$GLGSV,3,3,11,85,33,008,21,,,,32,,,,35*54
$GNGLL,0419.70970,S,05539.78586,E,121750.00,A,A*61
$GNGRS,121750.00,1,17.8,-0.8,-1.8,0.3,-3.0,-1.3,1.2,3.1,-0.3,,,*6C
$GNGRS,121750.00,1,3.6,5.0,-3.1,-5.9,-2.2,,,,,,,*5D
$GNGST,121750.00,410229,,,,1.3,1.8,4.6*4C
$GNZDA,121750.00,19,05,2025,00,00*70
$GNGBS,121750.00,1.3,1.8,4.6,,,,*56
b0X'@
*f"'w  L>#'##&;%-?$s (Ad
{4%Ta:R iFcG 3*H"IJKST1PU! %b'>L$GNRMC,121751.00,A,0419.70972,S,05539.78589,E,0.033,,190525,,,A*7E
$GNVTG,,T,,M,0.033,N,0.061,K,A*3A
$GNGNS,121751.00,0419.70972,S,05539.78589,E,AA,13,0.76,17.3,-47.6,,*6C
$GNGGA,121751.00,0419.70972,S,05539.78589,E,1,12,0.76,17.3,M,-47.6,M,,*47
$GNGSA,A,3,10,32,26,18,28,31,16,27,,,,,1.93,0.76,1.78*1F
$GNGSA,A,3,70,84,71,85,72,,,,,,,,1.93,0.76,1.78*1D
$GPGSV,4,1,16,08,03,320,22,10,18,358,42,16,25,247,39,18,32,076,32*72
$GPGSV,4,2,16,23,03,035,31,25,02,128,,26,29,217,39,27,38,315,35*7E
$GPGSV,4,3,16,28,45,158,37,29,18,147,05,31,30,190,36,32,65,356,40*75
$GPGSV,4,4,16,36,52,277,,40,84,353,37,41,58,082,31,49,32,274,*7A
$GLGSV,3,1,11,70,27,355,20,71,51,298,32,72,27,235,34,73,14,149,*6A
$GLGSV,3,2,11,74,15,194,,75,00,239,,83,15,134,,84,49,080,19*6D
$GLGSV,3,3,11,85,33,008,31,,,,32,,,,37*57
$GNGLL,0419.70972,S,05539.78589,E,121751.00,A,A*6D
$GNGRS,121751.00,1,0.3,-3.0,0.4,-4.5,0.6,1.2,1.2,1.3,,,,*50
$GNGRS,121751.00,1,4.0,4.2,-6.1,-5.6,-5.1,,,,,,,*50
$GNGST,121751.00,29,,,,1.3,1.8,4.5*49
$GNZDA,121751.00,19,05,2025,00,00*71
$GNGBS,121751.00,1.3,1.8,4.5,,,,*54
b0X+@
)f<)N# Ld"#*)%&;(-% (Ad
{4'Ta :R iF!cFG$3*,H%IJKST1PU,!'b+$GNRMC,121752.00,A,0419.70974,S,05539.78584,E,0.050,,190525,,,A*73
$GNVTG,,T,,M,0.050,N,0.093,K,A*32
$GNGNS,121752.00,0419.70974,S,05539.78584,E,AA,14,0.69,17.4,-47.6,,*6A
$GNGGA,121752.00,0419.70974,S,05539.78584,E,1,12,0.69,17.4,M,-47.6,M,,*46
$GNGSA,A,3,29,10,32,26,18,28,31,16,27,,,,1.74,0.69,1.60*1A
$GNGSA,A,3,70,84,71,85,72,,,,,,,,1.74,0.69,1.60*13
$GPGSV,4,1,16,08,03,320,25,10,18,358,41,16,25,247,41,18,32,076,35*7E
$GPGSV,4,2,16,23,03,035,34,25,02,128,,26,29,217,42,27,38,315,37*75
$GPGSV,4,3,16,28,45,158,40,29,18,147,13,31,30,190,37,32,65,356,40*73
$GPGSV,4,4,16,36,52,277,,40,84,353,39,41,58,082,32,49,32,274,*77
$GLGSV,3,1,11,70,27,355,33,71,51,298,36,72,27,235,37,73,14,149,*6F
$GLGSV,3,2,11,74,15,194,,75,00,239,,83,15,134,,84,49,080,17*63
$GLGSV,3,3,11,85,33,008,44,,,,26,,,,39*5E
$GNGLL,0419.70974,S,05539.78584,E,121752.00,A,A*65
$GNGRS,121752.00,1,18.1,-2.0,0.2,0.4,-6.7,1.3,1.6,5.9,2.0,,,*4A
$GNGRS,121752.00,1,3.3,4.6,0.4,0.1,-8.0,,,,,,,*5E
$GNGST,121752.00,410229,,,,1.3,1.8,4.4*4C
$GNZDA,121752.00,19,05,2025,00,00*72
$GNGBS,121752.00,1.3,1.8,4.4,,,,*56
b0X/@
+f-'y  L_%#,*'&;&-#* (Adh
{4&Ta:R iF c!G%3*H%!IJKST1PU,!))Cb/$GNRMC,121753.00,A,0419.70976,S,05539.78584,E,0.075,,190525,,,A*77
$GNVTG,,T,,M,0.075,N,0.139,K,A*34
$GNGNS,121753.00,0419.70976,S,05539.78584,E,AA,14,0.69,17.5,-47.6,,*68
$GNGGA,121753.00,0419.70976,S,05539.78584,E,1,12,0.69,17.5,M,-47.6,M,,*44
$GNGSA,A,3,29,10,32,26,18,28,31,16,27,,,,1.74,0.69,1.60*1A
$GNGSA,A,3,70,84,71,85,72,,,,,,,,1.74,0.69,1.60*13
$GPGSV,4,1,16,08,03,320,24,10,18,358,43,16,25,247,39,18,32,076,32*75
$GPGSV,4,2,16,23,03,035,37,25,02,128,,26,29,217,42,27,38,315,39*78
$GPGSV,4,3,16,28,45,158,38,29,18,147,16,31,30,190,35,32,65,356,40*7B
$GPGSV,4,4,16,36,52,277,,40,84,353,38,41,58,082,31,49,32,274,*75
$GLGSV,3,1,11,70,27,355,32,71,51,298,37,72,27,235,37,73,14,149,*6F
$GLGSV,3,2,11,74,15,194,,75,00,239,,83,15,134,,84,49,080,18*6C
$GLGSV,3,3,11,85,33,008,44,,,,41,,,,41*50
$GNGLL,0419.70976,S,05539.78584,E,121753.00,A,A*66
$GNGRS,121753.00,1,18.2,-2.1,1.0,0.2,-1.6,-0.4,3.0,3.8,-2.5,,,*4A
$GNGRS,121753.00,1,8.0,5.1,-0.3,-0.4,-7.4,,,,,,,*58
$GNGST,121753.00,410229,,,,1.2,1.8,4.3*4B
$GNZDA,121753.00,19,05,2025,00,00*73
$GNGBS,121753.00,1.2,1.8,4.3,,,,*51
b0X3@
)f)! L4%#(#&;$%-#L (Ad
{4#Ta :R i#F cG'3*WH'IJKST1PU,!5((Vb3l$GNRMC,121754.00,A,0419.70978,S,05539.78587,E,0.063,,190525,,,A*7A
$GNVTG,,T,,M,0.063,N,0.116,K,A*3E
$GNGNS,121754.00,0419.70978,S,05539.78587,E,AA,14,0.76,17.3,-47.6,,*6A
$GNGGA,121754.00,0419.70978,S,05539.78587,E,1,12,0.76,17.3,M,-47.6,M,,*46
$GNGSA,A,3,29,10,32,26,18,28,31,16,27,,,,1.93,0.76,1.78*14
$GNGSA,A,3,70,84,71,85,72,,,,,,,,1.93,0.76,1.78*1D
$GPGSV,4,1,16,08,03,320,28,10,18,358,41,16,25,247,41,18,32,076,33*75
$GPGSV,4,2,16,23,03,035,37,25,02,128,,26,29,217,40,27,38,315,35*76
$GPGSV,4,3,16,28,45,158,37,29,18,147,11,31,30,190,35,32,65,356,40*73
$GPGSV,4,4,16,36,52,277,,40,84,353,35,41,58,082,32,49,32,274,*7B
$GLGSV,3,1,11,70,27,355,32,71,51,298,39,72,27,235,39,73,14,149,*6F
$GLGSV,3,2,11,74,15,194,,75,00,239,,83,15,134,,84,49,080,21*66
$GLGSV,3,3,11,85,33,008,44,,,,40,,,,40*50
$GNGLL,0419.70978,S,05539.78587,E,121754.00,A,A*6C
$GNGRS,121754.00,1,30.2,-1.0,-1.2,0.2,-2.0,-0.7,3.3,3.9,0.4,,,*40
$GNGRS,121754.00,1,7.6,7.4,-1.7,-2.0,-8.0,,,,,,,*59
$GNGST,121754.00,24,,,,1.2,1.8,4.3*46
$GNZDA,121754.00,19,05,2025,00,00*74
$GNGBS,121754.00,1.2,1.8,4.3,,,,*56
b0X7@
 f%( LW"#&#&;Y%-P# &Ad
{4#Ta#:R iF cNG&3*H#IJKST1PU,!*&b7T$GNRMC,121755.00,A,0419.70979,S,05539.78589,E,0.055,,190525,,,A*71
$GNVTG,,T,,M,0.055,N,0.101,K,A*3D
$GNGNS,121755.00,0419.70979,S,05539.78589,E,AA,14,0.69,17.2,-47.6,,*6B
$GNGGA,121755.00,0419.70979,S,05539.78589,E,1,12,0.69,17.2,M,-47.6,M,,*47
$GNGSA,A,3,29,10,32,26,18,28,31,16,27,,,,1.74,0.69,1.60*1A
$GNGSA,A,3,70,84,71,85,72,,,,,,,,1.74,0.69,1.60*13
$GPGSV,4,1,16,08,03,320,28,10,18,358,32,16,25,247,37,18,32,076,40*74
$GPGSV,4,2,16,23,03,035,34,25,02,128,,26,29,217,38,27,38,315,35*7A
$GPGSV,4,3,16,28,45,158,37,29,18,147,09,31,30,190,35,32,65,356,38*75
$GPGSV,4,4,16,36,52,277,,40,84,353,35,41,58,082,35,49,32,274,*7C
$GLGSV,3,1,11,70,27,355,32,71,51,298,38,72,27,235,35,73,14,149,*62
$GLGSV,3,2,11,74,15,194,,75,00,239,,83,15,134,,84,49,080,31*67
$GLGSV,3,3,11,85,33,008,44,,,,42,,,,38*5D
$GNGLL,0419.70979,S,05539.78589,E,121755.00,A,A*62
$GNGRS,121755.00,1,17.9,-2.5,-1.1,0.2,-1.7,0.8,2.5,2.4,0.9,,,*6A
$GNGRS,121755.00,1,11.0,7.0,-1.3,-1.1,-8.0,,,,,,,*6B
$GNGST,121755.00,134606,,,,1.2,1.8,4.2*46
$GNZDA,121755.00,19,05,2025,00,00*75
$GNGBS,121755.00,1.2,1.8,4.2,,,,*56
b0Xp;@
0f<%j( L"#l$%&;%-ky "AdX
{4(Ta$:R iF"cMG$3*H#tIJKST1P*U,!#!bp;<vT$GNRMC,121756.00,A,0419.70983,S,05539.78582,E,0.404,,190525,,,A*7C
$GNVTG,,T,,M,0.404,N,0.748,K,A*36
$GNGNS,121756.00,0419.70983,S,05539.78582,E,AA,14,0.69,17.1,-47.6,,*65
$GNGGA,121756.00,0419.70983,S,05539.78582,E,1,12,0.69,17.1,M,-47.6,M,,*49
$GNGSA,A,3,29,10,32,26,18,28,31,16,27,,,,1.74,0.69,1.60*1A
$GNGSA,A,3,70,84,71,85,72,,,,,,,,1.74,0.69,1.60*13
$GPGSV,4,1,16,08,03,320,27,10,18,358,48,16,25,247,37,18,32,076,40*76
$GPGSV,4,2,16,23,03,035,34,25,02,128,,26,29,217,36,27,38,315,37*76
$GPGSV,4,3,16,28,45,158,37,29,18,147,07,31,30,190,26,32,65,356,34*75
$GPGSV,4,4,16,36,52,277,,40,84,353,40,41,58,082,36,49,32,274,*7D
$GLGSV,3,1,11,70,27,355,34,71,51,298,36,72,27,235,35,73,14,149,*6A
$GLGSV,3,2,11,74,15,194,,75,00,239,,83,15,134,,84,49,080,31*67
$GLGSV,3,3,11,85,33,008,44,,,,35,,,,33*56
$GNGLL,0419.70983,S,05539.78582,E,121756.00,A,A*6F
$GNGRS,121756.00,1,17.8,-2.0,0.9,0.2,-0.2,1.1,3.8,3.6,4.6,,,*41
$GNGRS,121756.00,1,8.4,0.4,-0.7,-0.4,-9.1,,,,,,,*56
$GNGST,121756.00,198705,,,,1.2,1.7,4.2*4E
$GNZDA,121756.00,19,05,2025,00,00*76
$GNGBS,121756.00,1.2,1.7,4.2,,,,*5A
b0XX?@
+fo% Ly&#$&;6(- +Ad
{4'Ta(:R iFcG$3*[HTIJKST1P$U)!(vbX?$!N$GNRMC,121757.00,A,0419.70999,S,05539.78575,E,0.741,295.99,190525,,,A*6C
$GNVTG,295.99,T,,M,0.741,N,1.373,K,A*29
$GNGNS,121757.00,0419.70999,S,05539.78575,E,AA,14,0.67,17.1,-47.6,,*69
$GNGGA,121757.00,0419.70999,S,05539.78575,E,1,12,0.67,17.1,M,-47.6,M,,*45
$GNGSA,A,3,29,10,32,26,18,28,31,16,27,,,,1.62,0.67,1.47*16
$GNGSA,A,3,70,84,71,85,72,,,,,,,,1.62,0.67,1.47*1F
$GPGSV,4,1,16,08,03,320,31,10,18,358,43,16,25,247,25,18,32,076,37*79
$GPGSV,4,2,16,23,03,035,38,25,02,128,,26,29,217,31,27,38,315,36*7C
$GPGSV,4,3,16,28,45,158,40,29,18,147,11,31,30,190,26,32,65,356,43*72
$GPGSV,4,4,16,36,52,277,,40,84,353,39,41,58,082,40,49,32,274,*72
$GLGSV,3,1,11,70,27,355,29,71,51,298,36,72,27,235,25,73,14,149,*67
$GLGSV,3,2,11,74,15,194,,75,00,239,,83,15,135,,84,49,080,26*60
$GLGSV,3,3,11,85,33,008,41,,,,40,,,,23*50
$GNGLL,0419.70999,S,05539.78575,E,121757.00,A,A*6D
$GNGRS,121757.00,1,-129,-1.1,-0.9,0.0,1.2,0.3,4.3,1.1,-2.0,,,*61
$GNGRS,121757.00,1,11.9,2.9,-1.7,-2.4,-9.4,,,,,,,*6B
$GNGST,121757.00,30,,,,1.2,1.7,4.2*4E
$GNZDA,121757.00,19,05,2025,00,00*77
$GNGBS,121757.00,1.2,1.7,4.2,,,,*5B
b0X@C@
(f"$ L #$ &;"-!J *Ad
{4 Ta':R iFc$G!3*`H=IJKST1QQU(!(!b@C%&$$GNRMC,121758.00,A,0419.71001,S,05539.78584,E,0.429,,190525,,,A*79
$GNVTG,,T,,M,0.429,N,0.795,K,A*39
$GNGNS,121758.00,0419.71001,S,05539.78584,E,AA,14,0.64,16.7,-47.6,,*65
$GNGGA,121758.00,0419.71001,S,05539.78584,E,1,12,0.64,16.7,M,-47.6,M,,*49
$GNGSA,A,3,29,10,32,26,18,28,31,16,27,,,,1.57,0.64,1.43*17
$GNGSA,A,3,70,84,71,85,72,,,,,,,,1.57,0.64,1.43*1E
$GPGSV,4,1,16,08,03,320,29,10,18,358,40,16,25,247,34,18,32,076,36*72
$GPGSV,4,2,16,23,03,035,32,25,02,128,,26,29,217,36,27,38,315,32*75
$GPGSV,4,3,16,28,45,158,34,29,18,147,11,31,30,190,33,32,65,356,42*74
$GPGSV,4,4,16,36,52,277,,40,84,353,32,41,58,082,39,49,32,274,*77
$GLGSV,3,1,11,70,27,355,28,71,51,298,33,72,27,235,25,73,14,149,*63
$GLGSV,3,2,11,74,15,194,,75,00,239,,83,15,135,,84,49,081,31*67
$GLGSV,3,3,11,85,33,008,40,,,,40,,,,33*50
$GNGLL,0419.71001,S,05539.78584,E,121758.00,A,A*65
$GNGRS,121758.00,1,18.1,5.1,-0.5,1.9,1.8,0.0,3.3,2.1,-0.8,,,*45
$GNGRS,121758.00,1,13.2,3.4,-1.6,-0.4,-7.1,,,,,,,*69
$GNGST,121758.00,396319,,,,1.2,1.7,4.1*46
$GNZDA,121758.00,19,05,2025,00,00*78
$GNGBS,121758.00,1.2,1.7,4.1,,,,*57
b0X(G@
!f$! L#" &;%-9 *Ad
{4%Ta%:R iFcG!3*HIJKST1QU."V+b(G($GNRMC,121759.00,A,0419.70999,S,05539.78583,E,0.263,,190525,,,A*7E
$GNVTG,,T,,M,0.263,N,0.488,K,A*3E
$GNGNS,121759.00,0419.70999,S,05539.78583,E,AA,13,0.67,16.6,-47.6,,*6F
$GNGGA,121759.00,0419.70999,S,05539.78583,E,1,12,0.67,16.6,M,-47.6,M,,*44
$GNGSA,A,3,10,32,26,18,28,31,16,27,,,,,1.62,0.67,1.47*1D
$GNGSA,A,3,70,84,71,85,72,,,,,,,,1.62,0.67,1.47*1F
$GPGSV,4,1,16,08,03,320,27,10,18,358,33,16,25,247,36,18,32,076,33*7F
$GPGSV,4,2,16,23,03,035,31,25,02,128,,26,29,217,34,27,38,315,32*74
$GPGSV,4,3,16,28,45,158,37,29,18,147,05,31,30,190,30,32,65,356,42*71
$GPGSV,4,4,16,36,52,277,,40,84,353,37,41,58,082,37,49,32,274,*7C
$GLGSV,3,1,11,70,27,355,31,71,51,298,33,72,27,235,26,73,14,149,*68
$GLGSV,3,2,11,74,15,194,,75,00,239,,83,15,135,,84,49,081,29*6E
$GLGSV,3,3,11,85,34,009,46,,,,43,,,,29*58
$GNGLL,0419.70999,S,05539.78583,E,121759.00,A,A*6A
$GNGRS,121759.00,1,2.3,-0.7,1.7,1.7,0.2,-2.0,-0.7,7.4,,,,*76
$GNGRS,121759.00,1,6.5,7.3,-3.6,-1.7,-8.3,,,,,,,*55
$GNGST,121759.00,22,,,,1.2,1.7,4.1*40
$GNZDA,121759.00,19,05,2025,00,00*79
$GNGBS,121759.00,1.2,1.7,4.1,,,,*56
b0XK@
#f%$ L##&&;&-< (Ad
{!4%Ta:R iFc]G&3*H#IJKST1QU+"j.!:/bK,$GNRMC,121800.00,A,0419.70996,S,05539.78593,E,0.391,,190525,,,A*7F
$GNVTG,,T,,M,0.391,N,0.724,K,A*37
$GNGNS,121800.00,0419.70996,S,05539.78593,E,AA,13,0.67,16.4,-47.6,,*60
$GNGGA,121800.00,0419.70996,S,05539.78593,E,1,12,0.67,16.4,M,-47.6,M,,*4B
$GNGSA,A,3,10,32,26,18,28,31,16,27,,,,,1.62,0.67,1.47*1D
$GNGSA,A,3,70,84,71,85,72,,,,,,,,1.62,0.67,1.47*1F
$GPGSV,4,1,16,08,03,320,24,10,18,358,35,16,25,247,37,18,32,076,36*7E
$GPGSV,4,2,16,23,03,035,31,25,02,128,,26,29,217,35,27,38,315,38*7F
$GPGSV,4,3,16,28,45,158,38,29,18,147,06,31,30,190,29,32,65,356,40*77
$GPGSV,4,4,16,36,52,277,33,40,84,353,37,41,58,082,31,49,32,274,*7A
$GLGSV,3,1,11,70,27,355,31,71,51,298,38,72,27,235,35,73,14,149,*61
$GLGSV,3,2,11,74,15,194,,75,00,239,,83,15,135,,84,49,081,28*6F
$GLGSV,3,3,11,85,34,009,43,,,,46,,,,33*53
$GNGLL,0419.70996,S,05539.78593,E,121800.00,A,A*67
$GNGRS,121800.00,1,2.1,-0.8,1.9,0.2,0.3,5.7,2.8,-2.7,,,,*55
$GNGRS,121800.00,1,6.0,5.1,-3.0,-1.5,-8.5,,,,,,,*51
$GNGST,121800.00,18,,,,1.2,1.7,4.1*4A
$GNZDA,121800.00,19,05,2025,00,00*7A
$GNGBS,121800.00,1.2,1.7,4.1,,,,*55
b0XN@
(fJ$ L2#!a#&;$-*
Y 'Ad
{ 4%Ta#:R isFc[G$3*H$IJKST1QU%"* YbN0J$GNRMC,121801.00,A,0419.70997,S,05539.78596,E,0.186,,190525,,,A*7E
$GNVTG,,T,,M,0.186,N,0.345,K,A*30
$GNGNS,121801.00,0419.70997,S,05539.78596,E,AA,14,0.64,16.4,-47.6,,*61
$GNGGA,121801.00,0419.70997,S,05539.78596,E,1,12,0.64,16.4,M,-47.6,M,,*4D
$GNGSA,A,3,29,10,32,26,18,28,31,16,27,,,,1.57,0.64,1.43*17
$GNGSA,A,3,70,84,71,85,72,,,,,,,,1.57,0.64,1.43*1E
$GPGSV,4,1,16,08,03,320,23,10,18,358,40,16,25,247,36,18,32,076,28*75
$GPGSV,4,2,16,23,03,035,27,25,02,128,,26,29,217,33,27,38,315,35*73
$GPGSV,4,3,16,28,45,158,36,29,18,147,10,31,30,190,21,32,65,356,39*78
$GPGSV,4,4,16,36,52,277,32,40,84,353,37,41,58,082,35,49,32,274,*7F
$GLGSV,3,1,11,70,27,355,31,71,51,298,36,72,27,235,36,73,14,149,*6C
$GLGSV,3,2,11,74,15,194,,75,00,239,,83,15,135,,84,49,081,27*60
$GLGSV,3,3,11,85,34,009,37,,,,42,,,,32*55
$GNGLL,0419.70997,S,05539.78596,E,121801.00,A,A*62
$GNGRS,121801.00,1,17.8,-1.8,0.0,1.0,0.5,0.4,8.6,1.9,4.6,,,*6B
$GNGRS,121801.00,1,8.6,-1.2,-3.4,-1.2,-8.6,,,,,,,*72
$GNGST,121801.00,3071473,,,,1.2,1.7,4.0*76
$GNZDA,121801.00,19,05,2025,00,00*7B
$GNGBS,121801.00,1.2,1.7,4.0,,,,*55
b0XR@
%fF" L#p$&;#-U %AdB
{4'Ta%:R i#FcG3*gH#IJKST1QU'"%"2bR4$GNRMC,121802.00,A,0419.71001,S,05539.78596,E,0.193,,190525,,,A*7E
$GNVTG,,T,,M,0.193,N,0.358,K,A*38
$GNGNS,121802.00,0419.71001,S,05539.78596,E,AA,14,0.64,16.4,-47.6,,*65
$GNGGA,121802.00,0419.71001,S,05539.78596,E,1,12,0.64,16.4,M,-47.6,M,,*49
$GNGSA,A,3,29,10,32,26,18,28,31,16,27,,,,1.56,0.64,1.43*16
$GNGSA,A,3,70,84,71,85,72,,,,,,,,1.56,0.64,1.43*1F
$GPGSV,4,1,16,08,03,320,19,10,18,358,37,16,25,247,34,18,32,076,23*75
$GPGSV,4,2,16,23,03,035,27,25,02,128,,26,29,217,27,27,38,315,36*75
$GPGSV,4,3,16,28,45,158,35,29,18,147,07,31,30,190,19,32,65,356,37*78
$GPGSV,4,4,16,36,52,277,31,40,84,353,39,41,58,082,37,49,32,274,*70
$GLGSV,3,1,11,70,27,355,30,71,51,298,28,72,27,235,35,73,14,149,*61
$GLGSV,3,2,11,74,15,194,,75,00,239,,83,15,135,,84,49,081,25*62
$GLGSV,3,3,11,85,34,009,39,,,,37,,,,34*5F
$GNGLL,0419.71001,S,05539.78596,E,121802.00,A,A*66
$GNGRS,121802.00,1,17.3,0.7,0.7,7.0,-0.4,0.2,8.5,2.7,-0.3,,,*49
$GNGRS,121802.00,1,7.2,-0.9,-4.1,-1.3,-7.6,,,,,,,*7C
$GNGST,121802.00,3071473,,,,1.2,1.7,4.1*74
$GNZDA,121802.00,19,05,2025,00,00*78
$GNGBS,121802.00,1.2,1.7,4.1,,,,*57
b0XV@
%fF# LL #!$&;#-?2 &Ad5
{4(Ta':R iMFcG3*H$IJKST1Q:U "+%bV8\$GNRMC,121803.00,A,0419.71002,S,05539.78596,E,0.010,,190525,,,A*76
$GNVTG,,T,,M,0.010,N,0.018,K,A*35
$GNGNS,121803.00,0419.71002,S,05539.78596,E,AA,14,0.67,16.4,-47.6,,*64
$GNGGA,121803.00,0419.71002,S,05539.78596,E,1,12,0.67,16.4,M,-47.6,M,,*48
$GNGSA,A,3,29,10,32,26,18,28,31,16,27,,,,1.62,0.67,1.47*16
$GNGSA,A,3,70,84,71,85,72,,,,,,,,1.62,0.67,1.47*1F
$GPGSV,4,1,16,08,03,320,18,10,18,358,37,16,25,247,35,18,32,076,22*74
$GPGSV,4,2,16,23,03,035,32,25,02,128,,26,29,217,33,27,38,315,36*74
$GPGSV,4,3,16,28,45,158,35,29,18,147,07,31,30,190,18,32,65,356,38*76
$GPGSV,4,4,16,36,52,277,30,40,84,353,40,41,58,082,39,49,32,274,*71
$GLGSV,3,1,11,70,27,355,23,71,51,298,25,72,27,235,36,73,14,149,*6D
$GLGSV,3,2,11,74,15,194,,75,00,239,,83,15,135,,84,49,081,27*60
$GLGSV,3,3,11,85,34,009,32,,,,43,,,,37*54
$GNGLL,0419.71002,S,05539.78596,E,121803.00,A,A*64
$GNGRS,121803.00,1,163,0.7,0.5,2.5,-1.8,0.0,10.7,1.3,4.3,,,*7F
$GNGRS,121803.00,1,4.8,0.6,-1.2,-0.4,-5.9,,,,,,,*5B
$GNGST,121803.00,32,,,,1.2,1.7,4.1*41
$GNZDA,121803.00,19,05,2025,00,00*79
$GNGBS,121803.00,1.2,1.7,4.1,,,,*56
b0XZ@
)f" Lu"#8%&;$- %Ad#
{$4)Ta&:R iFcG3*H#IJKST1QU#"H,"bZ|<4$GNRMC,121804.00,A,0419.71001,S,05539.78592,E,0.124,,190525,,,A*70
$GNVTG,,T,,M,0.124,N,0.230,K,A*3B
$GNGNS,121804.00,0419.71001,S,05539.78592,E,AA,14,0.64,16.4,-47.6,,*67
$GNGGA,121804.00,0419.71001,S,05539.78592,E,1,12,0.64,16.4,M,-47.6,M,,*4B
$GNGSA,A,3,29,10,32,26,18,28,31,16,27,,,,1.56,0.64,1.43*16
$GNGSA,A,3,70,84,71,85,72,,,,,,,,1.56,0.64,1.43*1F
$GPGSV,4,1,16,08,03,320,19,10,18,358,41,16,25,247,31,18,32,076,34*77
$GPGSV,4,2,16,23,03,035,34,25,02,128,,26,29,217,31,27,38,315,37*71
$GPGSV,4,3,16,28,45,158,36,29,18,147,09,31,30,190,21,32,65,356,37*7E
$GPGSV,4,4,16,36,52,277,36,40,84,353,41,41,58,082,38,49,32,274,*77
$GLGSV,3,1,11,70,27,355,25,71,51,298,31,72,27,235,35,73,14,149,*6D
$GLGSV,3,2,11,74,15,194,,75,00,239,,83,15,135,,84,49,081,30*66
$GLGSV,3,3,11,85,34,009,35,,,,44,,,,34*57
$GNGLL,0419.71001,S,05539.78592,E,121804.00,A,A*64
$GNGRS,121804.00,1,18.1,0.2,0.3,2.0,-3.9,-0.1,5.1,4.1,4.9,,,*4C
$GNGRS,121804.00,1,3.9,4.9,-0.1,3.3,-6.4,,,,,,,*74
$GNGST,121804.00,396319,,,,1.3,1.7,4.1*41
$GNZDA,121804.00,19,05,2025,00,00*7E
$GNGBS,121804.00,1.3,1.7,4.1,,,,*50
b0X^@
(f" LW"# #&;#-
V $Ad
{#4)Ta$:R iFc}G!3*H$IJKST1QU ",#b^d@$GNRMC,121805.00,A,0419.71001,S,05539.78590,E,0.070,,190525,,,A*73
$GNVTG,,T,,M,0.070,N,0.130,K,A*38
$GNGNS,121805.00,0419.71001,S,05539.78590,E,AA,14,0.64,16.5,-47.6,,*65
$GNGGA,121805.00,0419.71001,S,05539.78590,E,1,12,0.64,16.5,M,-47.6,M,,*49
$GNGSA,A,3,29,10,32,26,18,28,31,16,27,,,,1.56,0.64,1.43*16
$GNGSA,A,3,70,84,71,85,72,,,,,,,,1.56,0.64,1.43*1F
$GPGSV,4,1,16,08,03,320,23,10,18,358,40,16,25,247,31,18,32,076,34*7F
$GPGSV,4,2,16,23,03,035,34,25,02,128,,26,29,217,32,27,38,315,35*70
$GPGSV,4,3,16,28,45,158,35,29,18,147,10,31,30,190,21,32,65,356,36*74
$GPGSV,4,4,16,36,52,277,35,40,84,353,41,41,58,082,36,49,32,274,*7A
$GLGSV,3,1,11,70,27,355,25,71,51,298,33,72,27,235,36,73,14,149,*6C
$GLGSV,3,2,11,74,15,194,,75,00,239,,83,15,135,,84,49,081,31*67
$GLGSV,3,3,11,85,34,009,32,,,,44,,,,35*51
$GNGLL,0419.71001,S,05539.78590,E,121805.00,A,A*67
$GNGRS,121805.00,1,18.1,-0.6,0.1,-1.2,-4.3,0.0,3.4,4.0,4.2,,,*62
$GNGRS,121805.00,1,6.4,0.2,4.4,4.0,-8.7,,,,,,,*57
$GNGST,121805.00,396319,,,,1.3,1.7,4.1*40
$GNZDA,121805.00,19,05,2025,00,00*7F
$GNGBS,121805.00,1.3,1.7,4.1,,,,*51
b0Xb@
*fm!u" L!#<i%&;&-* &Ad
{%4*Ta&:R iFcqG"3*H%0IJKST1QU("#*"MbbLDR$GNRMC,121806.00,A,0419.71000,S,05539.78588,E,0.099,,190525,,,A*7F
$GNVTG,,T,,M,0.099,N,0.183,K,A*37
$GNGNS,121806.00,0419.71000,S,05539.78588,E,AA,14,0.67,16.4,-47.6,,*6C
$GNGGA,121806.00,0419.71000,S,05539.78588,E,1,12,0.67,16.4,M,-47.6,M,,*40
$GNGSA,A,3,29,10,32,26,18,28,31,16,27,,,,1.62,0.67,1.47*16
$GNGSA,A,3,70,84,71,85,72,,,,,,,,1.62,0.67,1.47*1F
$GPGSV,4,1,16,08,03,320,24,10,18,358,42,16,25,247,33,18,32,076,34*78
$GPGSV,4,2,16,23,03,035,33,25,02,128,,26,29,217,31,27,38,315,37*76
$GPGSV,4,3,16,28,45,158,38,29,18,147,13,31,30,190,21,32,65,356,38*74
$GPGSV,4,4,16,36,52,277,37,40,84,353,42,41,58,082,38,49,32,274,*75
$GLGSV,3,1,11,70,27,355,23,71,51,298,34,72,27,235,37,73,14,149,*6C
$GLGSV,3,2,11,74,15,194,,75,00,239,,83,15,135,,84,49,081,31*67
$GLGSV,3,3,11,85,34,009,40,,,,42,,,,34*53
$GNGLL,0419.71000,S,05539.78588,E,121806.00,A,A*6C
$GNGRS,121806.00,1,-31.3,-1.5,0.1,3.6,-5.6,-0.1,5.5,6.3,2.2,,,*44
$GNGRS,121806.00,1,3.7,2.2,-5.4,2.9,-7.2,,,,,,,*79
$GNGST,121806.00,24,,,,1.3,1.7,4.1*42
$GNZDA,121806.00,19,05,2025,00,00*7C
$GNGBS,121806.00,1.3,1.7,4.1,,,,*52
b0Xhf@
#fY%g! L)"# #&;&-9 %Adk
{"4*Ta(:R iFc5G 3*9H%IJKST1QU("*'\bhf4H$GNRMC,121807.00,A,0419.71001,S,05539.78587,E,0.040,,190525,,,A*74
$GNVTG,,T,,M,0.040,N,0.074,K,A*3A
$GNGNS,121807.00,0419.71001,S,05539.78587,E,AA,14,0.64,16.4,-47.6,,*60
$GNGGA,121807.00,0419.71001,S,05539.78587,E,1,12,0.64,16.4,M,-47.6,M,,*4C
$GNGSA,A,3,29,10,32,26,18,28,31,16,27,,,,1.56,0.64,1.43*16
$GNGSA,A,3,70,84,71,85,72,,,,,,,,1.56,0.64,1.43*1F
$GPGSV,4,1,16,08,03,320,22,10,18,358,35,16,25,247,37,18,32,076,33*7D
$GPGSV,4,2,16,23,03,035,34,25,02,128,,26,29,217,32,27,38,315,35*70
$GPGSV,4,3,16,28,45,158,38,29,18,147,14,31,30,190,31,32,65,356,37*7D
$GPGSV,4,4,16,36,52,277,34,40,84,353,42,41,58,082,40,49,32,274,*79
$GLGSV,3,1,11,70,27,355,23,71,51,298,32,72,27,235,37,73,14,149,*6A
$GLGSV,3,2,11,74,15,194,,75,00,239,,83,15,135,,84,49,081,31*67
$GLGSV,3,3,11,85,34,009,40,,,,42,,,,39*5E
$GNGLL,0419.71001,S,05539.78587,E,121807.00,A,A*63
$GNGRS,121807.00,1,18.1,-1.7,1.1,1.8,-2.2,-0.3,5.7,6.1,-0.2,,,*40
$GNGRS,121807.00,1,3.1,4.2,0.6,-0.4,-7.8,,,,,,,*7A
$GNGST,121807.00,3071473,,,,1.3,1.7,4.1*70
$GNZDA,121807.00,19,05,2025,00,00*7D
$GNGBS,121807.00,1.3,1.7,4.1,,,,*53
b0XPj@
"f#| L"# #&;#&- 'Ad
{!4(Ta%:R iFcG!3*H&IJKST1QFU)"E,%HbPjL"$GNRMC,121808.00,A,0419.70999,S,05539.78589,E,0.025,,190525,,,A*7F
$GNVTG,,T,,M,0.025,N,0.046,K,A*38
$GNGNS,121808.00,0419.70999,S,05539.78589,E,AA,14,0.64,16.6,-47.6,,*6A
$GNGGA,121808.00,0419.70999,S,05539.78589,E,1,12,0.64,16.6,M,-47.6,M,,*46
$GNGSA,A,3,29,10,32,26,18,28,31,16,27,,,,1.56,0.64,1.43*16
$GNGSA,A,3,70,84,71,85,72,,,,,,,,1.56,0.64,1.43*1F
$GPGSV,4,1,16,08,03,320,21,10,18,358,34,16,25,247,35,18,32,076,29*76
$GPGSV,4,2,16,23,03,035,34,25,02,128,,26,29,217,32,27,38,315,35*70
$GPGSV,4,3,16,28,45,158,38,29,18,147,09,31,30,190,31,32,65,356,39*7F
$GPGSV,4,4,16,36,52,277,33,40,84,353,40,41,58,082,37,49,32,274,*7C
$GLGSV,3,1,11,70,27,355,26,71,51,298,33,72,27,235,38,73,14,149,*61
$GLGSV,3,2,11,74,15,194,,75,00,239,,83,15,135,,84,49,081,30*66
$GLGSV,3,3,11,85,34,009,41,,,,44,,,,37*57
$GNGLL,0419.70999,S,05539.78589,E,121808.00,A,A*6B
$GNGRS,121808.00,1,18.0,-0.8,1.7,0.3,-0.2,-0.3,4.8,3.8,0.3,,,*60
$GNGRS,121808.00,1,2.7,-1.9,-2.8,0.7,-8.0,,,,,,,*59
$GNGST,121808.00,3071473,,,,1.3,1.7,4.0*7E
$GNZDA,121808.00,19,05,2025,00,00*72
$GNGBS,121808.00,1.3,1.7,4.0,,,,*5D
b0X8n@
%fc& L"#:$&;"'-
  %Ad
{4'Ta%:R i8FchG 3*gH#IJKST1QU*")%Xb8nPl$GNRMC,121809.00,A,0419.70998,S,05539.78588,E,0.014,,190525,,,A*7C
$GNVTG,,T,,M,0.014,N,0.025,K,A*3F
$GNGNS,121809.00,0419.70998,S,05539.78588,E,AA,14,0.64,16.6,-47.6,,*6B
$GNGGA,121809.00,0419.70998,S,05539.78588,E,1,12,0.64,16.6,M,-47.6,M,,*47
$GNGSA,A,3,29,10,32,26,18,28,31,16,27,,,,1.56,0.64,1.43*16
$GNGSA,A,3,70,84,71,85,72,,,,,,,,1.56,0.64,1.43*1F
$GPGSV,4,1,16,08,03,320,21,10,18,358,37,16,25,247,38,18,32,076,28*79
$GPGSV,4,2,16,23,03,035,34,25,02,128,,26,29,217,29,27,38,315,36*79
$GPGSV,4,3,16,28,45,158,39,29,18,147,10,31,30,190,32,32,65,356,37*7B
$GPGSV,4,4,16,36,52,277,31,40,84,353,39,41,58,082,37,49,32,274,*70
$GLGSV,3,1,11,70,27,355,28,71,51,298,32,72,27,235,35,73,14,149,*63
$GLGSV,3,2,11,74,15,194,,75,00,239,,83,15,135,,84,49,081,28*6F
$GLGSV,3,3,11,85,34,009,42,,,,41,,,,37*51
$GNGLL,0419.70998,S,05539.78588,E,121809.00,A,A*6A
$GNGRS,121809.00,1,4.7,3.5,2.4,-0.7,3.9,-0.5,4.1,3.9,0.3,,,*7A
$GNGRS,121809.00,1,1.0,-3.3,1.0,-1.2,-8.3,,,,,,,*58
$GNGST,121809.00,38,,,,1.3,1.7,4.0*41
$GNZDA,121809.00,19,05,2025,00,00*73
$GNGBS,121809.00,1.3,1.7,4.0,,,,*5C
b0X r@
%fz$ L:"# ^"&;&-5 $Adc
{4*Ta':R idFcG 3*nH$IJKST1QU'")$b rSC$GNRMC,121810.00,A,0419.70995,S,05539.78589,E,0.093,,190525,,,A*77
$GNVTG,,T,,M,0.093,N,0.172,K,A*33
$GNGNS,121810.00,0419.70995,S,05539.78589,E,AA,14,0.64,16.7,-47.6,,*6E
$GNGGA,121810.00,0419.70995,S,05539.78589,E,1,12,0.64,16.7,M,-47.6,M,,*42
$GNGSA,A,3,29,10,32,26,18,28,31,16,27,,,,1.56,0.64,1.43*16
$GNGSA,A,3,70,84,71,85,72,,,,,,,,1.56,0.64,1.43*1F
$GPGSV,4,1,16,08,03,320,21,10,18,358,37,16,25,247,36,18,32,076,29*76
$GPGSV,4,2,16,23,03,035,34,25,02,128,,26,29,217,32,27,38,315,34*71
$GPGSV,4,3,16,28,45,158,38,29,18,147,12,31,30,190,31,32,65,356,36*7A
$GPGSV,4,4,16,36,52,277,,40,84,353,42,41,58,082,39,49,32,274,*70
$GLGSV,3,1,11,70,27,355,28,71,51,298,32,72,27,235,36,73,14,149,*60
$GLGSV,3,2,11,74,15,194,,75,00,239,,83,15,135,,84,49,081,28*6F
$GLGSV,3,3,11,85,34,009,39,,,,41,,,,36*5C
$GNGLL,0419.70995,S,05539.78589,E,121810.00,A,A*6E
$GNGRS,121810.00,1,18.1,1.2,8.7,0.9,0.6,-0.4,3.1,5.3,0.1,,,*62
$GNGRS,121810.00,1,9.1,-6.3,1.1,-0.5,-8.3,,,,,,,*5B
$GNGST,121810.00,142427,,,,1.3,1.7,4.1*45
$GNZDA,121810.00,19,05,2025,00,00*7B
$GNGBS,121810.00,1.3,1.7,4.1,,,,*55
b0Xv@
#f# L# &; -S %AdT
{4%Ta%:R iFcG#3*H#IJKST1Q6U,"(!|bvWW$GNRMC,121811.00,A,0419.70992,S,05539.78593,E,0.156,,190525,,,A*72
$GNVTG,,T,,M,0.156,N,0.290,K,A*34
$GNGNS,121811.00,0419.70992,S,05539.78593,E,AA,14,0.64,17.0,-47.6,,*65
$GNGGA,121811.00,0419.70992,S,05539.78593,E,1,12,0.64,17.0,M,-47.6,M,,*49
$GNGSA,A,3,29,10,32,26,18,28,31,16,27,,,,1.56,0.64,1.43*16
$GNGSA,A,3,70,84,71,85,72,,,,,,,,1.56,0.64,1.43*1F
$GPGSV,4,1,16,08,03,320,,10,18,358,35,16,25,247,35,18,32,076,27*7A
$GPGSV,4,2,16,23,03,035,29,25,02,128,,26,29,217,26,27,38,315,32*7E
$GPGSV,4,3,16,28,45,158,32,29,18,147,09,31,30,190,23,32,65,356,37*78
$GPGSV,4,4,16,36,52,277,,40,84,353,37,41,58,082,37,49,32,274,*7C
$GLGSV,3,1,11,70,27,355,27,71,51,298,35,72,27,235,35,73,14,149,*6B
$GLGSV,3,2,11,74,15,194,,75,00,239,,83,15,135,,84,49,081,28*6F
$GLGSV,3,3,11,85,34,009,44,,,,40,,,,33*52
$GNGLL,0419.70992,S,05539.78593,E,121811.00,A,A*63
$GNGRS,121811.00,1,18.1,6.7,6.0,4.1,-3.3,-0.2,0.8,4.3,-0.5,,,*6B
$GNGRS,121811.00,1,12.7,-4.6,-0.8,-0.4,-8.1,,,,,,,*47
$GNGST,121811.00,3071473,,,,1.3,1.7,4.1*77
$GNZDA,121811.00,19,05,2025,00,00*7A
$GNGBS,121811.00,1.3,1.7,4.1,,,,*54
b0Xy@
(f&* Lw"##H&&;#- (Ad{4'Ta$:R
 iF$cG'3*H IJKST1QU("*$tby[$GNRMC,121812.00,A,0419.70992,S,05539.78592,E,0.198,,190525,,,A*72
$GNVTG,,T,,M,0.198,N,0.367,K,A*3F
$GNGNS,121812.00,0419.70992,S,05539.78592,E,AA,14,0.64,17.2,-47.6,,*65
$GNGGA,121812.00,0419.70992,S,05539.78592,E,1,12,0.64,17.2,M,-47.6,M,,*49
$GNGSA,A,3,29,10,32,26,18,28,31,16,27,,,,1.56,0.64,1.43*16
$GNGSA,A,3,70,84,71,85,72,,,,,,,,1.56,0.64,1.43*1F
$GPGSV,4,1,16,08,03,320,25,10,18,358,40,16,25,247,38,18,32,076,42*71
$GPGSV,4,2,16,23,03,035,34,25,02,128,,26,29,217,35,27,38,315,38*7A
$GPGSV,4,3,16,28,45,158,35,29,18,147,08,31,30,190,31,32,65,356,40*7D
$GPGSV,4,4,16,36,52,277,,40,84,353,39,41,58,082,36,49,32,274,*73
$GLGSV,3,1,11,70,27,355,36,71,51,298,39,72,27,235,32,73,14,149,*60
$GLGSV,3,2,11,74,15,194,,75,00,239,,83,15,135,,84,49,081,28*6F
$GLGSV,3,3,11,85,34,009,40,,,,42,,,,36*51
$GNGLL,0419.70992,S,05539.78592,E,121812.00,A,A*61
$GNGRS,121812.00,1,-10.6,0.2,1.7,3.3,-1.4,1.7,0.2,2.8,-0.8,,,*6A
$GNGRS,121812.00,1,7.4,0.1,-3.3,-0.7,-8.0,,,,,,,*57
$GNGST,121812.00,39,,,,1.3,1.7,4.0*4A
$GNZDA,121812.00,19,05,2025,00,00*79
$GNGBS,121812.00,1.3,1.7,4.0,,,,*56
b0X}@
*f$* L$#k#&&;"-U 'Ad{4'Ta :R
' iFcG'3*H IJKST 1QOU."+"b}_$GNRMC,121813.00,A,0419.70993,S,05539.78588,E,0.193,,190525,,,A*72
$GNVTG,,T,,M,0.193,N,0.357,K,A*37
$GNGNS,121813.00,0419.70993,S,05539.78588,E,AA,14,0.64,17.3,-47.6,,*6F
$GNGGA,121813.00,0419.70993,S,05539.78588,E,1,12,0.64,17.3,M,-47.6,M,,*43
$GNGSA,A,3,29,10,32,26,18,28,31,16,27,,,,1.56,0.64,1.43*16
$GNGSA,A,3,70,84,71,85,72,,,,,,,,1.56,0.64,1.43*1F
$GPGSV,4,1,16,08,03,320,28,10,18,358,42,16,25,247,36,18,32,076,42*70
$GPGSV,4,2,16,23,03,035,36,25,02,128,,26,29,217,35,27,38,315,38*78
$GPGSV,4,3,16,28,45,158,34,29,18,147,13,31,30,190,26,32,65,356,39*7E
$GPGSV,4,4,16,36,52,277,,40,84,353,39,41,58,082,32,49,32,274,39*7D
$GLGSV,3,1,11,70,27,355,29,71,51,298,39,72,27,235,32,73,14,149,*6E
$GLGSV,3,2,11,74,15,194,,75,00,239,,83,15,135,,84,49,081,32*64
$GLGSV,3,3,11,85,34,009,46,,,,43,,,,34*54
$GNGLL,0419.70993,S,05539.78588,E,121813.00,A,A*6A
$GNGRS,121813.00,1,18.0,0.3,1.6,-0.4,-0.2,3.4,4.0,2.6,-0.3,,,*64
$GNGRS,121813.00,1,3.9,0.8,-0.3,-0.9,-8.2,,,,,,,*59
$GNGST,121813.00,3071473,,,,1.3,1.7,4.0*74
$GNZDA,121813.00,19,05,2025,00,00*78
$GNGBS,121813.00,1.3,1.7,4.0,,,,*57
b0X@
(fmT L*#.?"&;)- *Ad{4*Ta%:R
$ iF!cG%3*HH!IJKST1Q9U,"q*!bc$GNRMC,121814.00,A,0419.70989,S,05539.78583,E,0.184,,190525,,,A*73
$GNVTG,,T,,M,0.184,N,0.341,K,A*36
$GNGNS,121814.00,0419.70989,S,05539.78583,E,AA,14,0.64,17.5,-47.6,,*6E
$GNGGA,121814.00,0419.70989,S,05539.78583,E,1,12,0.64,17.5,M,-47.6,M,,*42
$GNGSA,A,3,29,10,32,26,18,28,31,16,27,,,,1.56,0.64,1.43*16
$GNGSA,A,3,70,84,71,85,72,,,,,,,,1.56,0.64,1.43*1F
$GPGSV,4,1,16,08,03,320,25,10,18,358,40,16,25,247,31,18,32,076,25*79
$GPGSV,4,2,16,23,03,035,42,25,02,128,,26,29,217,28,27,38,315,34*7B
$GPGSV,4,3,16,28,45,158,41,29,18,147,14,31,30,190,27,32,65,356,42*76
$GPGSV,4,4,16,36,52,277,,40,84,353,42,41,58,082,37,49,32,274,36*7B
$GLGSV,3,1,11,70,27,355,33,71,51,298,37,72,27,235,33,73,14,149,*6A
$GLGSV,3,2,11,74,15,194,,75,00,239,,83,15,135,,84,49,081,27*60
$GLGSV,3,3,11,85,34,009,44,,,,42,,,,33*50
$GNGLL,0419.70989,S,05539.78583,E,121814.00,A,A*6D
$GNGRS,121814.00,1,17.9,-1.5,2.2,0.6,-0.5,-0.9,-0.9,0.8,-0.4,,,*68
$GNGRS,121814.00,1,4.6,-2.0,3.3,-1.4,-6.0,,,,,,,*5F
$GNGST,121814.00,3071473,,,,1.3,1.7,4.0*73
$GNZDA,121814.00,19,05,2025,00,00*7F
$GNGBS,121814.00,1.3,1.7,4.0,,,,*50
b0X@
%f# L'#&;~%- %Adz{4&Ta':R
# iUFc>G%3*H"IJKST1Q*U("! %btgz$GNRMC,121815.00,A,0419.70983,S,05539.78588,E,0.359,,190525,,,A*71
$GNVTG,,T,,M,0.359,N,0.665,K,A*37
$GNGNS,121815.00,0419.70983,S,05539.78588,E,AA,14,0.64,17.3,-47.6,,*68
$GNGGA,121815.00,0419.70983,S,05539.78588,E,1,12,0.64,17.3,M,-47.6,M,,*44
$GNGSA,A,3,29,10,32,26,18,28,31,16,27,,,,1.56,0.64,1.43*16
$GNGSA,A,3,70,84,71,85,72,,,,,,,,1.56,0.64,1.43*1F
$GPGSV,4,1,16,08,03,320,23,10,18,358,37,16,25,247,35,18,32,076,31*7E
$GPGSV,4,2,16,23,03,035,39,25,02,128,,26,29,217,26,27,38,315,30*7D
$GPGSV,4,3,16,28,45,158,37,29,18,147,09,31,30,190,28,32,65,356,37*76
$GPGSV,4,4,16,36,52,277,,40,84,353,38,41,58,082,39,49,32,274,35*7B
$GLGSV,3,1,11,70,27,355,29,71,51,298,37,72,27,235,34,73,14,149,*66
$GLGSV,3,2,11,74,15,194,,75,00,239,,83,15,135,,84,49,081,27*60
$GLGSV,3,3,11,85,34,009,40,,,,32,,,,37*57
$GNGLL,0419.70983,S,05539.78588,E,121815.00,A,A*6D
$GNGRS,121815.00,1,4.0,-0.5,-1.3,1.5,2.7,-0.1,-1.0,4.4,1.3,,,*70
$GNGRS,121815.00,1,3.2,-12.4,-2.6,-2.2,-5.1,,,,,,,*46
$GNGST,121815.00,40,,,,1.3,1.7,4.0*43
$GNZDA,121815.00,19,05,2025,00,00*7E
$GNGBS,121815.00,1.3,1.7,4.0,,,,*51
b0X@
!fc%=% L(#^-)%&;)-C  'Ad{4(Ta*:R
% iFcZG$3*H"IJKST1QU,"-%bb\kRP$GNRMC,121816.00,A,0419.70985,S,05539.78586,E,0.188,,190525,,,A*74
$GNVTG,,T,,M,0.188,N,0.348,K,A*33
$GNGNS,121816.00,0419.70985,S,05539.78586,E,AA,14,0.64,17.5,-47.6,,*65
$GNGGA,121816.00,0419.70985,S,05539.78586,E,1,12,0.64,17.5,M,-47.6,M,,*49
$GNGSA,A,3,29,10,32,26,18,28,31,16,27,,,,1.56,0.64,1.43*16
$GNGSA,A,3,70,84,71,85,72,,,,,,,,1.56,0.64,1.43*1F
$GPGSV,4,1,16,08,03,320,25,10,18,358,33,16,25,247,37,18,32,076,37*78
$GPGSV,4,2,16,23,03,035,40,25,02,128,21,26,29,217,26,27,38,315,37*77
$GPGSV,4,3,16,28,45,158,41,29,18,147,16,31,30,190,32,32,65,356,39*7C
$GPGSV,4,4,16,36,52,277,,40,84,353,40,41,58,082,42,49,32,274,37*7A
$GLGSV,3,1,11,70,27,355,25,71,51,298,36,72,27,235,34,73,14,149,*6B
$GLGSV,3,2,11,74,15,194,,75,00,239,,83,15,135,,84,49,081,30*66
$GLGSV,3,3,11,85,34,009,44,,,,45,,,,37*53
$GNGLL,0419.70985,S,05539.78586,E,121816.00,A,A*66
$GNGRS,121816.00,1,18.1,-1.6,1.9,3.9,-2.6,0.7,4.0,3.2,2.4,,,*4E
$GNGRS,121816.00,1,6.0,-0.4,-3.6,-3.1,-7.7,,,,,,,*76
$GNGST,121816.00,142427,,,,1.2,1.7,4.0*43
$GNZDA,121816.00,19,05,2025,00,00*7D
$GNGBS,121816.00,1.2,1.7,4.0,,,,*53
b0Xx@
!fu  Lm$#"&;(-H %Ad{4(Ta#:R
' i>F"csG'3*H IJKST1QU&"*!bxDo*$GNRMC,121817.00,A,0419.70986,S,05539.78587,E,0.033,,190525,,,A*76
$GNVTG,,T,,M,0.033,N,0.061,K,A*3A
$GNGNS,121817.00,0419.70986,S,05539.78587,E,AA,14,0.64,17.3,-47.6,,*60
$GNGGA,121817.00,0419.70986,S,05539.78587,E,1,12,0.64,17.3,M,-47.6,M,,*4C
$GNGSA,A,3,29,10,32,26,18,28,31,16,27,,,,1.56,0.64,1.43*16
$GNGSA,A,3,70,84,71,85,72,,,,,,,,1.56,0.64,1.43*1F
$GPGSV,4,1,16,08,03,320,26,10,18,358,33,16,25,247,32,18,32,076,31*78
$GPGSV,4,2,16,23,03,035,36,25,02,128,,26,29,217,27,27,38,315,34*77
$GPGSV,4,3,16,28,45,158,40,29,18,147,13,31,30,190,31,32,65,356,37*75
$GPGSV,4,4,16,36,52,277,,40,84,353,40,41,58,082,35,49,32,274,39*74
$GLGSV,3,1,11,70,27,355,34,71,51,298,39,72,27,235,32,73,14,149,*62
$GLGSV,3,2,11,74,15,194,,75,00,239,,83,15,135,,84,49,081,22*65
$GLGSV,3,3,11,85,34,009,38,,,,42,,,,33*5B
$GNGLL,0419.70986,S,05539.78587,E,121817.00,A,A*65
$GNGRS,121817.00,1,18.0,-1.4,-0.4,9.8,3.6,-0.8,-1.8,-0.1,4.9,,,*6E
$GNGRS,121817.00,1,8.8,-3.6,-3.5,-2.9,-5.4,,,,,,,*7B
$GNGST,121817.00,3071473,,,,1.2,1.7,4.0*71
$GNZDA,121817.00,19,05,2025,00,00*7C
$GNGBS,121817.00,1.2,1.7,4.0,,,,*52
b0X`@
*f! L"#Ef'&;#)-" %Ad{4'Ta+:R
$ iFcG&3*HIJKST1QEU-"s#"
b`,s $GNRMC,121818.00,A,0419.70986,S,05539.78592,E,0.116,,190525,,,A*7B
$GNVTG,,T,,M,0.116,N,0.215,K,A*3D
$GNGNS,121818.00,0419.70986,S,05539.78592,E,AA,14,0.64,17.2,-47.6,,*6A
$GNGGA,121818.00,0419.70986,S,05539.78592,E,1,12,0.64,17.2,M,-47.6,M,,*46
$GNGSA,A,3,29,10,32,26,18,28,31,16,27,,,,1.56,0.64,1.43*16
$GNGSA,A,3,70,84,71,85,72,,,,,,,,1.56,0.64,1.43*1F
$GPGSV,4,1,16,08,03,320,26,10,18,358,42,16,25,247,33,18,32,076,27*78
$GPGSV,4,2,16,23,03,035,34,25,02,128,,26,29,217,26,27,38,315,39*79
$GPGSV,4,3,16,28,45,158,41,29,18,147,08,31,30,190,34,32,65,356,37*7B
$GPGSV,4,4,16,36,52,277,,40,84,353,39,41,58,082,43,49,32,274,36*74
$GLGSV,3,1,11,70,27,355,23,71,51,298,38,72,27,235,30,73,14,149,*67
$GLGSV,3,2,11,74,15,194,,75,00,239,,83,15,135,,84,49,081,24*63
$GLGSV,3,3,11,85,34,009,45,,,,35,,,,34*56
$GNGLL,0419.70986,S,05539.78592,E,121818.00,A,A*6E
$GNGRS,121818.00,1,10.4,-1.3,-0.7,8.7,-0.3,-0.8,0.2,0.3,-2.2,,,*65
$GNGRS,121818.00,1,12.2,-7.0,-3.1,1.1,-7.7,,,,,,,*64
$GNGST,121818.00,47,,,,1.2,1.7,4.0*48
$GNZDA,121818.00,19,05,2025,00,00*73
$GNGBS,121818.00,1.2,1.7,4.0,,,,*5D
b0XH@
)f%# L#H!'&;&-"H )Ad{4)Ta":R
) i<FcG$3*H"4IJKST1QU+"%"ObHw$GNRMC,121819.00,A,0419.70989,S,05539.78595,E,0.188,,190525,,,A*75
$GNVTG,,T,,M,0.188,N,0.349,K,A*32
$GNGNS,121819.00,0419.70989,S,05539.78595,E,AA,14,0.64,17.0,-47.6,,*61
$GNGGA,121819.00,0419.70989,S,05539.78595,E,1,12,0.64,17.0,M,-47.6,M,,*4D
$GNGSA,A,3,29,10,32,26,18,28,31,16,27,,,,1.56,0.64,1.43*16
$GNGSA,A,3,70,84,71,85,72,,,,,,,,1.56,0.64,1.43*1F
$GPGSV,4,1,16,08,03,320,26,10,18,358,41,16,25,247,37,18,32,076,35*7C
$GPGSV,4,2,16,23,03,035,30,25,02,128,,26,29,217,33,27,38,315,39*79
$GPGSV,4,3,16,28,45,158,38,29,18,147,08,31,30,190,34,32,65,356,41*74
$GPGSV,4,4,16,36,52,277,,40,84,353,41,41,58,082,34,49,32,274,41*7B
$GLGSV,3,1,11,70,27,355,23,71,51,298,36,72,27,235,34,73,14,149,*6D
$GLGSV,3,2,11,74,15,194,,75,00,239,,83,15,135,,84,49,081,22*65
$GLGSV,3,3,11,85,34,009,43,,,,37,,,,34*52
$GNGLL,0419.70989,S,05539.78595,E,121819.00,A,A*67
$GNGRS,121819.00,1,18.1,-1.0,-0.3,4.9,-2.5,-0.8,0.7,2.7,-0.7,,,*6C
$GNGRS,121819.00,1,12.1,-0.5,-2.9,-1.1,-9.7,,,,,,,*4E
$GNGST,121819.00,80502,,,,1.2,1.7,4.0*75
$GNZDA,121819.00,19,05,2025,00,00*72
$GNGBS,121819.00,1.2,1.7,4.0,,,,*5C
b0X0@
&f%!' M#&|'&;_$-$ *Ad{4'Ta":R
+ ieFcCG&3*H"IJKST1QU+"I/$yTb0z$GNRMC,121820.00,A,0419.70984,S,05539.78598,E,0.308,,190525,,,A*75
$GNVTG,,T,,M,0.308,N,0.570,K,A*34
$GNGNS,121820.00,0419.70984,S,05539.78598,E,AA,14,0.64,16.9,-47.6,,*63
$GNGGA,121820.00,0419.70984,S,05539.78598,E,1,12,0.64,16.9,M,-47.6,M,,*4F
$GNGSA,A,3,29,10,32,26,18,28,31,16,27,,,,1.56,0.64,1.43*16
$GNGSA,A,3,70,84,71,85,72,,,,,,,,1.56,0.64,1.43*1F
$GPGSV,4,1,16,08,03,320,23,10,18,358,38,16,25,247,37,18,32,077,39*7A
$GPGSV,4,2,16,23,03,035,30,25,02,128,,26,29,217,38,27,38,315,39*72
$GPGSV,4,3,16,28,45,158,36,29,18,147,11,31,30,190,36,32,65,356,42*73
$GPGSV,4,4,16,36,52,277,,40,84,353,39,41,58,082,34,49,32,274,43*76
$GLGSV,3,1,11,70,27,355,31,71,51,298,38,72,27,235,34,73,14,149,*60
$GLGSV,3,2,11,74,15,194,,75,00,239,,83,15,135,,84,49,081,25*62
$GLGSV,3,3,11,85,34,009,43,,,,47,,,,36*57
$GNGLL,0419.70984,S,05539.78598,E,121820.00,A,A*6D
$GNGRS,121820.00,1,18.1,-0.7,-0.5,1.2,0.2,-0.5,-0.3,2.9,1.0,,,*41
$GNGRS,121820.00,1,8.3,-0.8,-2.6,-1.8,-10.6,,,,,,,*4F
$GNGST,121820.00,117657,,,,1.2,1.6,3.9*4C
$GNZDA,121820.00,19,05,2025,00,00*78
$GNGBS,121820.00,1.2,1.6,3.9,,,,*59
b0X@
)f$! M##'!&;$-
$ -Ad{4&Ta*:R
( i~FcG(3*H!IJKST!1QU("r-#,b~U$GNRMC,121821.00,A,0419.70983,S,05539.78599,E,0.024,,190525,,,A*7F
$GNVTG,,T,,M,0.024,N,0.044,K,A*3B
$GNGNS,121821.00,0419.70983,S,05539.78599,E,AA,14,0.67,16.8,-47.6,,*66
$GNGGA,121821.00,0419.70983,S,05539.78599,E,1,12,0.67,16.8,M,-47.6,M,,*4A
$GNGSA,A,3,29,10,32,26,18,28,31,16,27,,,,1.62,0.67,1.47*16
$GNGSA,A,3,70,84,71,85,72,,,,,,,,1.62,0.67,1.47*1F
$GPGSV,4,1,16,08,03,320,,10,18,358,41,16,25,247,36,18,32,077,33*7E
$GPGSV,4,2,16,23,03,035,35,25,02,128,,26,29,217,39,27,38,315,33*7C
$GPGSV,4,3,16,28,45,158,36,29,18,147,10,31,30,190,36,32,65,356,45*75
$GPGSV,4,4,16,36,52,277,,40,84,353,38,41,58,082,42,49,32,274,40*75
$GLGSV,3,1,11,70,27,355,24,71,51,298,40,72,27,235,33,73,14,149,*6C
$GLGSV,3,2,11,74,15,194,,75,00,239,,83,15,135,,84,49,081,33*65
$GLGSV,3,3,11,85,34,009,40,,,,45,,,,35*55
$GNGLL,0419.70983,S,05539.78599,E,121821.00,A,A*6A
$GNGRS,121821.00,1,-34.5,-0.9,-0.8,-1.2,-3.0,-0.2,2.7,4.5,1.8,,,*4B
$GNGRS,121821.00,1,7.5,0.3,-2.6,-1.4,-5.9,,,,,,,*56
$GNGST,121821.00,21,,,,1.2,1.6,3.9*4D
$GNZDA,121821.00,19,05,2025,00,00*79
$GNGBS,121821.00,1.2,1.6,3.9,,,,*58
b0X@
'f$o& M ##4"&;y'-& +Ad{4)Ta':R
+ iFcG$3*HIJKST1QsU&"}&"Yba$GNRMC,121822.00,A,0419.70983,S,05539.78601,E,0.170,,190525,,,A*7E
$GNVTG,,T,,M,0.170,N,0.315,K,A*3C
$GNGNS,121822.00,0419.70983,S,05539.78601,E,AA,13,0.67,16.7,-47.6,,*6F
$GNGGA,121822.00,0419.70983,S,05539.78601,E,1,12,0.67,16.7,M,-47.6,M,,*44
$GNGSA,A,3,10,32,26,18,28,31,16,27,,,,,1.62,0.67,1.47*1D
$GNGSA,A,3,70,84,71,85,72,,,,,,,,1.62,0.67,1.47*1F
$GPGSV,4,1,16,08,03,320,,10,18,358,39,16,25,247,36,18,32,077,38*7A
$GPGSV,4,2,16,23,03,035,32,25,02,128,,26,29,217,35,27,38,315,34*70
$GPGSV,4,3,16,28,45,158,39,29,18,147,06,31,30,190,38,32,65,356,43*75
$GPGSV,4,4,16,36,52,277,,40,84,353,41,41,58,082,39,49,32,274,43*74
$GLGSV,3,1,11,70,27,355,23,71,51,298,36,72,27,235,29,73,14,149,*61
$GLGSV,3,2,11,74,15,194,,75,00,239,,83,15,135,,84,49,081,31*67
$GLGSV,3,3,11,85,34,009,38,,,,38,,,,34*51
$GNGLL,0419.70983,S,05539.78601,E,121822.00,A,A*6B
$GNGRS,121822.00,1,-0.5,-0.7,3.1,0.3,-0.1,2.4,3.7,-1.3,,,,*58
$GNGRS,121822.00,1,12.2,-1.4,-2.8,-1.3,-10.9,,,,,,,*70
$GNGST,121822.00,21,,,,1.2,1.6,3.8*4F
$GNZDA,121822.00,19,05,2025,00,00*7A
$GNGBS,121822.00,1.2,1.6,3.8,,,,*5A
b0X@
f& % M'$#~$&;,'-' +Ad{4,Ta+:R
+ i_Fc,G#3*HIJKST1QU'"& >b<:$GNRMC,121823.00,A,0419.70984,S,05539.78600,E,0.112,,190525,,,A*7D
$GNVTG,,T,,M,0.112,N,0.207,K,A*3A
$GNGNS,121823.00,0419.70984,S,05539.78600,E,AA,14,0.64,16.6,-47.6,,*6D
$GNGGA,121823.00,0419.70984,S,05539.78600,E,1,12,0.64,16.6,M,-47.6,M,,*41
$GNGSA,A,3,29,10,32,26,18,28,31,16,27,,,,1.56,0.64,1.43*16
$GNGSA,A,3,70,84,71,85,72,,,,,,,,1.56,0.64,1.43*1F
$GPGSV,4,1,16,08,03,320,,10,18,358,25,16,25,247,38,18,32,077,37*76
$GPGSV,4,2,16,23,03,035,36,25,02,128,,26,29,217,36,27,38,315,28*7A
$GPGSV,4,3,16,28,45,158,39,29,18,147,13,31,30,190,39,32,65,356,43*70
$GPGSV,4,4,16,36,52,277,,40,84,353,44,41,58,082,43,49,32,274,43*7C
$GLGSV,3,1,11,70,27,355,24,71,51,298,35,72,27,235,30,73,14,149,*6D
$GLGSV,3,2,11,74,15,194,,75,00,239,,83,15,135,,84,49,081,29*6E
$GLGSV,3,3,11,85,34,009,39,,,,38,,,,32*56
$GNGLL,0419.70984,S,05539.78600,E,121823.00,A,A*6C
$GNGRS,121823.00,1,17.8,-0.5,-0.5,-2.6,0.4,-0.4,1.4,2.9,-2.1,,,*6F
$GNGRS,121823.00,1,8.1,5.2,-2.6,-0.9,-6.0,,,,,,,*5D
$GNGST,121823.00,3071473,,,,1.2,1.6,3.9*79
$GNZDA,121823.00,19,05,2025,00,00*7B
$GNGBS,121823.00,1.2,1.6,3.9,,,,*5A
b0X@
"fw(& M#$#/&&;0'-' +Ad{4(Ta):R
, iFc:G3*HuIJKST1QU%"$ b$GNRMC,121824.00,A,0419.70984,S,05539.78598,E,0.039,,190525,,,A*70
$GNVTG,,T,,M,0.039,N,0.073,K,A*33
$GNGNS,121824.00,0419.70984,S,05539.78598,E,AA,14,0.64,16.5,-47.6,,*6B
$GNGGA,121824.00,0419.70984,S,05539.78598,E,1,12,0.64,16.5,M,-47.6,M,,*47
$GNGSA,A,3,29,10,32,26,18,28,31,16,27,,,,1.56,0.64,1.43*16
$GNGSA,A,3,70,84,71,85,72,,,,,,,,1.56,0.64,1.43*1F
$GPGSV,4,1,16,08,03,320,,10,18,358,34,16,25,247,40,18,32,077,38*76
$GPGSV,4,2,16,23,03,036,35,25,02,128,,26,29,217,35,27,38,315,38*78
$GPGSV,4,3,16,28,45,158,39,29,18,147,13,31,30,190,39,32,65,356,43*70
$GPGSV,4,4,16,36,52,277,,40,84,353,40,41,58,082,41,49,32,274,44*7D
$GLGSV,3,1,11,70,27,355,25,71,51,298,31,72,27,235,30,73,14,149,*68
$GLGSV,3,2,11,74,15,194,,75,00,239,,83,15,135,,84,49,081,29*6E
$GLGSV,3,3,11,85,34,009,37,,,,36,,,,32*56
$GNGLL,0419.70984,S,05539.78598,E,121824.00,A,A*69
$GNGRS,121824.00,1,-15.6,1.2,-0.5,-2.1,0.2,-0.5,0.0,4.3,0.5,,,*40
$GNGRS,121824.00,1,8.3,3.9,-5.0,-1.1,-3.9,,,,,,,*51
$GNGST,121824.00,41,,,,1.2,1.6,3.9*4E
$GNZDA,121824.00,19,05,2025,00,00*7C
$GNGBS,121824.00,1.2,1.6,3.9,,,,*5D
b0X@
*fz'T" M"$'%&;'-& .Ad{4#Ta):R
* iFcG$3*HCIJKST1QU""n(b
$GNRMC,121825.00,A,0419.70979,S,05539.78604,E,0.447,,190525,,,A*78
$GNVTG,,T,,M,0.447,N,0.828,K,A*38
$GNGNS,121825.00,0419.70979,S,05539.78604,E,AA,14,0.64,16.3,-47.6,,*68
$GNGGA,121825.00,0419.70979,S,05539.78604,E,1,12,0.64,16.3,M,-47.6,M,,*44
$GNGSA,A,3,29,10,32,26,18,28,31,16,27,,,,1.56,0.64,1.43*16
$GNGSA,A,3,70,84,71,85,72,,,,,,,,1.56,0.64,1.43*1F
$GPGSV,4,1,16,08,03,320,,10,18,358,42,16,25,247,39,18,32,077,34*75
$GPGSV,4,2,16,23,03,036,34,25,02,128,,26,29,217,39,27,38,315,37*7A
$GPGSV,4,3,16,28,45,158,39,29,18,147,13,31,30,190,38,32,65,356,46*74
$GPGSV,4,4,16,36,52,277,,40,84,353,35,41,58,082,41,49,32,274,42*79
$GLGSV,3,1,11,70,27,355,24,71,51,298,36,72,27,235,28,73,14,149,*67
$GLGSV,3,2,11,74,15,194,,75,00,239,,83,15,135,,84,49,081,29*6E
$GLGSV,3,3,11,85,34,009,34,,,,40,,,,30*56
$GNGLL,0419.70979,S,05539.78604,E,121825.00,A,A*6C
$GNGRS,121825.00,1,17.9,1.2,-0.2,2.0,-0.8,-0.5,0.1,3.4,-0.5,,,*41
$GNGRS,121825.00,1,10.0,2.8,-4.8,-1.5,-1.9,,,,,,,*65
$GNGST,121825.00,3071473,,,,1.2,1.6,3.8*7E
$GNZDA,121825.00,19,05,2025,00,00*7D
$GNGBS,121825.00,1.2,1.6,3.8,,,,*5D
b0X@
f$:# M#$rR&&;o"-$ (Ad{4%Ta):R
( ivFcG&3*HIJKST1Q#U)"p)Dblr$GNRMC,121826.00,A,0419.70978,S,05539.78608,E,0.014,,190525,,,A*74
$GNVTG,,T,,M,0.014,N,0.026,K,A*3C
$GNGNS,121826.00,0419.70978,S,05539.78608,E,AA,14,0.64,16.3,-47.6,,*66
$GNGGA,121826.00,0419.70978,S,05539.78608,E,1,12,0.64,16.3,M,-47.6,M,,*4A
$GNGSA,A,3,29,10,32,26,18,28,31,16,27,,,,1.56,0.64,1.43*16
$GNGSA,A,3,70,84,71,85,72,,,,,,,,1.56,0.64,1.43*1F
$GPGSV,4,1,16,08,03,320,,10,18,358,28,16,25,247,36,18,32,077,35*77
$GPGSV,4,2,16,23,03,036,35,25,01,127,18,26,29,217,38,27,38,315,31*79
$GPGSV,4,3,16,28,45,158,34,29,18,147,12,31,30,190,36,32,65,356,40*70
$GPGSV,4,4,16,36,52,277,,40,84,353,37,41,58,082,41,49,32,274,40*79
$GLGSV,3,1,11,70,27,355,23,71,51,298,38,72,27,235,27,73,14,149,*61
$GLGSV,3,2,11,74,15,194,,75,00,239,,83,15,135,,84,49,081,30*66
$GLGSV,3,3,11,85,34,009,41,,,,41,,,,30*55
$GNGLL,0419.70978,S,05539.78608,E,121826.00,A,A*62
$GNGRS,121826.00,1,17.5,0.2,-0.1,2.4,-0.7,-0.4,-0.2,3.1,1.1,,,*45
$GNGRS,121826.00,1,7.6,0.4,-5.2,-1.4,-3.6,,,,,,,*5F
$GNGST,121826.00,3071473,,,,1.3,1.7,3.9*7C
$GNZDA,121826.00,19,05,2025,00,00*7E
$GNGBS,121826.00,1.3,1.7,3.9,,,,*5F
b0X@
+f#6$ M!$W!X!&;#-, ,Ad{4$Ta&:R
( iFcvG$3*HIJKST1QU'"|+ oGbT$GNRMC,121827.00,A,0419.70980,S,05539.78607,E,0.048,,190525,,,A*74
$GNVTG,,T,,M,0.048,N,0.089,K,A*30
$GNGNS,121827.00,0419.70980,S,05539.78607,E,AA,14,0.67,16.2,-47.6,,*6D
$GNGGA,121827.00,0419.70980,S,05539.78607,E,1,12,0.67,16.2,M,-47.6,M,,*41
$GNGSA,A,3,29,10,32,26,18,28,31,16,27,,,,1.62,0.67,1.47*16
$GNGSA,A,3,70,84,71,85,72,,,,,,,,1.62,0.67,1.47*1F
$GPGSV,4,1,16,08,03,320,,10,18,358,43,16,25,247,35,18,32,077,36*7A
$GPGSV,4,2,16,23,03,036,33,25,01,127,,26,29,216,33,27,38,315,33*7E
$GPGSV,4,3,16,28,45,158,35,29,18,147,09,31,30,190,29,32,65,356,44*71
$GPGSV,4,4,16,36,52,277,,40,84,353,36,41,58,082,38,49,32,274,40*76
$GLGSV,3,1,11,70,27,355,30,71,51,298,36,72,27,235,23,73,14,149,*69
$GLGSV,3,2,11,74,15,194,,75,00,239,,83,15,135,,84,49,081,27*60
$GLGSV,3,3,11,85,34,009,39,,,,43,,,,32*5A
$GNGLL,0419.70980,S,05539.78607,E,121827.00,A,A*6B
$GNGRS,121827.00,1,-87.6,-1.1,-0.1,-1.7,0.2,1.4,0.4,3.1,4.1,,,*4B
$GNGRS,121827.00,1,6.3,4.1,1.8,-1.3,-3.3,,,,,,,*7A
$GNGST,121827.00,25,,,,1.3,1.7,3.9*4F
$GNZDA,121827.00,19,05,2025,00,00*7F
$GNGBS,121827.00,1.3,1.7,3.9,,,,*5E
b0Xp@
'f$5$ M&$"':0"-a
 (Ad{4%Ta:R
& i%F#cjG$3*H6IJKST1QU-"p)!~bp<p$GNRMC,121828.00,A,0419.70978,S,05539.78603,E,0.161,,190525,,,A*72
$GNVTG,,T,,M,0.161,N,0.299,K,A*39
$GNGNS,121828.00,0419.70978,S,05539.78603,E,AA,14,0.64,16.2,-47.6,,*62
$GNGGA,121828.00,0419.70978,S,05539.78603,E,1,12,0.64,16.2,M,-47.6,M,,*4E
$GNGSA,A,3,29,10,32,26,18,28,31,16,27,,,,1.56,0.64,1.43*16
$GNGSA,A,3,70,84,71,85,72,,,,,,,,1.56,0.64,1.43*1F
$GPGSV,4,1,16,08,03,320,24,10,18,358,39,16,25,247,36,18,32,077,36*72
$GPGSV,4,2,16,23,03,036,28,25,01,127,,26,29,216,31,27,39,314,34*71
$GPGSV,4,3,16,28,45,158,34,29,18,147,07,31,30,190,19,32,65,356,40*79
$GPGSV,4,4,16,36,52,277,,40,84,353,37,41,58,082,28,49,32,274,38*79
$GLGSV,3,1,11,70,27,355,35,71,51,298,36,72,27,235,25,73,14,149,*6A
$GLGSV,3,2,11,74,15,194,,75,00,239,,83,15,135,,84,49,081,27*60
$GLGSV,3,3,11,85,34,009,45,,,,41,,,,33*52
$GNGLL,0419.70978,S,05539.78603,E,121828.00,A,A*67
$GNGRS,121828.00,1,18.0,-0.4,0.3,-0.8,-2.2,1.0,1.6,3.1,0.5,,,*64
$GNGRS,121828.00,1,8.7,4.1,1.6,-1.4,-4.6,,,,,,,*74
$GNGST,121828.00,3071473,,,,1.3,1.7,3.9*72
$GNZDA,121828.00,19,05,2025,00,00*70
$GNGBS,121828.00,1.3,1.7,3.9,,,,*51
b0XX@
!f#!% M$C"':".
 +Ad{4'Ta":R
& iFcJG 3*HIJKST1Q0U)"o0!bX$H$GNRMC,121829.00,A,0419.70978,S,05539.78599,E,0.083,,190525,,,A*7E
$GNVTG,,T,,M,0.083,N,0.153,K,A*31
$GNGNS,121829.00,0419.70978,S,05539.78599,E,AA,14,0.64,16.3,-47.6,,*62
$GNGGA,121829.00,0419.70978,S,05539.78599,E,1,12,0.64,16.3,M,-47.6,M,,*4E
$GNGSA,A,3,29,10,32,26,18,28,31,16,27,,,,1.56,0.64,1.43*16
$GNGSA,A,3,70,84,71,85,72,,,,,,,,1.56,0.64,1.43*1F
$GPGSV,4,1,16,08,03,320,23,10,18,358,33,16,25,247,35,18,32,077,37*7D
$GPGSV,4,2,16,23,03,036,,25,01,127,,26,29,216,31,27,39,314,34*7B
$GPGSV,4,3,16,28,46,157,34,29,18,147,10,31,30,190,19,32,65,356,43*70
$GPGSV,4,4,16,36,52,277,,40,84,353,39,41,58,082,34,49,32,274,38*7A
$GLGSV,3,1,11,70,27,355,25,71,51,298,32,72,27,235,25,73,14,149,*6F
$GLGSV,3,2,11,74,15,194,,75,00,239,,83,15,135,,84,49,081,26*61
$GLGSV,3,3,11,85,34,009,41,,,,48,,,,33*5F
$GNGLL,0419.70978,S,05539.78599,E,121829.00,A,A*66
$GNGRS,121829.00,1,17.9,-5.0,0.2,3.2,-2.5,2.6,2.1,2.9,1.3,,,*4F
$GNGRS,121829.00,1,5.9,5.6,2.4,-1.5,-5.7,,,,,,,*70
$GNGST,121829.00,3071473,,,,1.3,1.7,3.9*73
$GNZDA,121829.00,19,05,2025,00,00*71
$GNGBS,121829.00,1.3,1.7,3.9,,,,*50
b0X@@
)f|#!" M"!$#@':?'.U&b +Ad{4'Ta(:R
! iFcG"3*HKIJKST1QU*"*$b@ $GNRMC,121830.00,A,0419.70978,S,05539.78600,E,0.067,,190525,,,A*7F
$GNVTG,,T,,M,0.067,N,0.123,K,A*3C
$GNGNS,121830.00,0419.70978,S,05539.78600,E,AA,14,0.67,16.3,-47.6,,*6A
$GNGGA,121830.00,0419.70978,S,05539.78600,E,1,12,0.67,16.3,M,-47.6,M,,*46
$GNGSA,A,3,29,10,32,26,18,28,31,16,27,,,,1.62,0.67,1.47*16
$GNGSA,A,3,70,84,71,85,72,,,,,,,,1.62,0.67,1.47*1F
$GPGSV,4,1,16,08,03,320,20,10,18,358,41,16,25,247,35,18,32,077,34*78
$GPGSV,4,2,16,23,03,036,33,25,01,127,,26,29,216,35,27,39,314,31*7A
$GPGSV,4,3,16,28,46,157,39,29,18,147,09,31,30,190,21,32,65,356,43*7E
$GPGSV,4,4,16,36,52,277,,40,84,353,39,41,58,082,40,49,32,274,33*72
$GLGSV,3,1,11,70,27,355,24,71,51,298,34,72,27,235,31,73,14,149,*6D
$GLGSV,3,2,11,74,15,194,,75,00,239,,83,15,135,,84,49,081,27*60
$GLGSV,3,3,11,85,34,009,42,,,,42,,,,36*53
$GNGLL,0419.70978,S,05539.78600,E,121830.00,A,A*6D
$GNGRS,121830.00,1,98.9,-1.3,0.1,0.6,-2.2,0.8,3.5,2.9,0.6,,,*49
$GNGRS,121830.00,1,11.5,4.4,1.8,-1.3,-6.9,,,,,,,*46
$GNGST,121830.00,29,,,,1.3,1.7,3.8*44
$GNZDA,121830.00,19,05,2025,00,00*79
$GNGBS,121830.00,1.3,1.7,3.8,,,,*59
b0X(@
)f#4$ M6$${" ':'. +Ad{4(Ta:R
$ ipF!cuG"3* H(IJKST1Q|U%"v&$Wb(S$GNRMC,121831.00,A,0419.70978,S,05539.78599,E,0.049,,190525,,,A*71
$GNVTG,,T,,M,0.049,N,0.091,K,A*38
$GNGNS,121831.00,0419.70978,S,05539.78599,E,AA,13,0.67,16.3,-47.6,,*6F
$GNGGA,121831.00,0419.70978,S,05539.78599,E,1,12,0.67,16.3,M,-47.6,M,,*44
$GNGSA,A,3,10,32,26,18,28,31,16,27,,,,,1.62,0.67,1.47*1D
$GNGSA,A,3,70,84,71,85,72,,,,,,,,1.62,0.67,1.47*1F
$GPGSV,4,1,16,08,03,320,20,10,18,358,41,16,25,247,35,18,32,077,36*7A
$GPGSV,4,2,16,23,03,036,36,25,01,127,,26,29,216,34,27,39,314,32*7D
$GPGSV,4,3,16,28,46,157,39,29,18,147,07,31,30,190,20,32,65,356,43*71
$GPGSV,4,4,16,36,52,277,,40,84,353,40,41,58,082,31,49,32,274,36*7F
$GLGSV,3,1,11,70,27,355,33,71,51,298,34,72,27,235,31,73,14,149,*6B
$GLGSV,3,2,11,74,15,194,,75,00,239,,83,15,135,,84,49,081,27*60
$GLGSV,3,3,11,85,34,009,37,,,,38,,,,36*5C
$GNGLL,0419.70978,S,05539.78599,E,121831.00,A,A*6F
$GNGRS,121831.00,1,-2.3,0.3,-0.4,-2.0,1.4,2.9,3.1,1.5,,,,*79
$GNGRS,121831.00,1,16.5,3.8,0.3,-1.4,-7.3,,,,,,,*4D
$GNGST,121831.00,29,,,,1.3,1.7,3.8*45
$GNZDA,121831.00,19,05,2025,00,00*78
$GNGBS,121831.00,1.3,1.7,3.8,,,,*58
b0X@
%f"$ MH $_"$':%."l ,Ad{4'Ta:R
$ i*F cG&3*jHIJKST1QYU,"f) Lb$GNRMC,121832.00,A,0419.70977,S,05539.78600,E,0.142,,190525,,,A*74
$GNVTG,,T,,M,0.142,N,0.262,K,A*3C
$GNGNS,121832.00,0419.70977,S,05539.78600,E,AA,14,0.64,16.3,-47.6,,*64
$GNGGA,121832.00,0419.70977,S,05539.78600,E,1,12,0.64,16.3,M,-47.6,M,,*48
$GNGSA,A,3,29,10,32,26,18,28,31,16,27,,,,1.56,0.64,1.43*16
$GNGSA,A,3,70,84,71,85,72,,,,,,,,1.56,0.64,1.43*1F
$GPGSV,4,1,16,08,03,320,,10,18,358,37,16,25,247,34,18,32,077,36*78
$GPGSV,4,2,16,23,03,036,32,25,01,127,,26,29,216,34,27,39,314,36*7D
$GPGSV,4,3,16,28,46,157,37,29,18,147,12,31,31,190,23,32,65,356,44*7E
$GPGSV,4,4,16,36,52,277,,40,84,353,39,41,58,082,31,49,32,274,36*71
$GLGSV,3,1,11,70,27,355,32,71,51,298,38,72,27,235,30,73,14,149,*67
$GLGSV,3,2,11,74,15,194,,75,00,239,,83,15,135,,84,49,081,24*63
$GLGSV,3,3,11,85,34,009,44,,,,41,,,,32*52
$GNGLL,0419.70977,S,05539.78600,E,121832.00,A,A*60
$GNGRS,121832.00,1,18.3,0.1,0.1,0.0,-1.8,-0.5,1.1,2.3,-2.4,,,*69
$GNGRS,121832.00,1,4.2,3.5,1.1,-1.5,-6.4,,,,,,,*73
$GNGST,121832.00,123850,,,,1.3,1.7,3.8*40
$GNZDA,121832.00,19,05,2025,00,00*7B
$GNGBS,121832.00,1.3,1.7,3.8,,,,*5B
b0X@
+f%& MX $p#&':d%.D '@d{4'Ta :R
" iF!cjG&3*8H#IJKST1QU+"\*#_b$GNRMC,121833.00,A,0419.70977,S,05539.78599,E,0.108,,190525,,,A*78
$GNVTG,,T,,M,0.108,N,0.200,K,A*36
$GNGNS,121833.00,0419.70977,S,05539.78599,E,AA,14,0.67,16.4,-47.6,,*62
$GNGGA,121833.00,0419.70977,S,05539.78599,E,1,12,0.67,16.4,M,-47.6,M,,*4E
$GNGSA,A,3,29,10,32,26,18,28,31,16,27,,,,1.62,0.67,1.47*16
$GNGSA,A,3,70,84,71,85,72,,,,,,,,1.62,0.67,1.47*1F
$GPGSV,4,1,16,08,03,320,27,10,18,358,43,16,25,247,37,18,32,077,38*73
$GPGSV,4,2,16,23,03,036,32,25,01,127,,26,29,216,35,27,39,314,38*72
$GPGSV,4,3,16,28,46,157,37,29,18,147,11,31,31,190,23,32,64,356,39*76
$GPGSV,4,4,16,36,52,277,,40,84,353,39,41,58,082,32,49,32,274,34*70
$GLGSV,3,1,11,70,27,355,33,71,51,298,38,72,27,235,35,73,14,149,*63
$GLGSV,3,2,11,74,15,194,,75,00,239,,83,15,135,,84,49,081,24*63
$GLGSV,3,3,11,85,34,009,43,,,,42,,,,35*51
$GNGLL,0419.70977,S,05539.78599,E,121833.00,A,A*62
$GNGRS,121833.00,1,-23.9,-0.7,0.1,1.8,-1.7,0.7,0.1,2.2,3.6,,,*6B
$GNGRS,121833.00,1,6.2,4.8,0.6,-1.6,-11.1,,,,,,,*4C
$GNGST,121833.00,24,,,,1.3,1.7,3.8*4A
$GNZDA,121833.00,19,05,2025,00,00*7A
$GNGBS,121833.00,1.3,1.7,3.8,,,,*5A
b0X@
%f#! Mf$% $':#.S +@d{4%Ta$:R
" iF!cG"3*;H"IJKST1QrU,"S.#b~|$GNRMC,121834.00,A,0419.70979,S,05539.78598,E,0.091,,190525,,,A*71
$GNVTG,,T,,M,0.091,N,0.168,K,A*3A
$GNGNS,121834.00,0419.70979,S,05539.78598,E,AA,14,0.64,16.4,-47.6,,*69
$GNGGA,121834.00,0419.70979,S,05539.78598,E,1,12,0.64,16.4,M,-47.6,M,,*45
$GNGSA,A,3,29,10,32,26,18,28,31,16,27,,,,1.56,0.64,1.43*16
$GNGSA,A,3,70,84,71,85,72,,,,,,,,1.56,0.64,1.43*1F
$GPGSV,4,1,16,08,03,320,26,10,18,358,37,16,25,247,35,18,32,077,33*78
$GPGSV,4,2,16,23,03,036,31,25,01,127,,26,29,216,32,27,39,314,36*78
$GPGSV,4,3,16,28,46,157,35,29,18,147,12,31,31,190,22,32,64,356,43*7B
$GPGSV,4,4,16,36,52,277,,40,84,353,37,41,58,082,36,49,32,274,34*7A
$GLGSV,3,1,11,70,27,355,33,71,51,298,34,72,27,235,34,73,14,149,*6E
$GLGSV,3,2,11,74,15,194,,75,00,239,,83,15,135,,84,49,081,23*64
$GLGSV,3,3,11,85,34,009,44,,,,46,,,,35*52
$GNGLL,0419.70979,S,05539.78598,E,121834.00,A,A*6A
$GNGRS,121834.00,1,18.2,-0.4,0.2,1.4,-1.5,-0.2,-1.7,4.1,1.5,,,*4A
$GNGRS,121834.00,1,6.7,3.7,0.6,-1.7,-5.6,,,,,,,*75
$GNGST,121834.00,3071473,,,,1.3,1.7,3.8*7E
$GNZDA,121834.00,19,05,2025,00,00*7D
$GNGBS,121834.00,1.3,1.7,3.8,,,,*5D
b0X@
&f,! M$$':".
* (@d6{4%Ta$:R
! iF cG%3*&H!IJKST1QU-"\.bV$GNRMC,121835.00,A,0419.70979,S,05539.78597,E,0.033,,190525,,,A*77
$GNVTG,,T,,M,0.033,N,0.060,K,A*3B
$GNGNS,121835.00,0419.70979,S,05539.78597,E,AA,14,0.64,16.4,-47.6,,*67
$GNGGA,121835.00,0419.70979,S,05539.78597,E,1,12,0.64,16.4,M,-47.6,M,,*4B
$GNGSA,A,3,29,10,32,26,18,28,31,16,27,,,,1.56,0.64,1.43*16
$GNGSA,A,3,70,84,71,85,72,,,,,,,,1.56,0.64,1.43*1F
$GPGSV,4,1,16,08,03,320,24,10,18,358,38,16,25,247,31,18,32,077,33*71
$GPGSV,4,2,16,23,03,036,30,25,01,127,,26,29,216,28,27,39,314,36*72
$GPGSV,4,3,16,28,46,157,34,29,18,147,10,31,31,190,23,32,64,356,40*7A
$GPGSV,4,4,16,36,52,277,,40,84,353,37,41,58,082,36,49,32,274,33*7D
$GLGSV,3,1,11,70,27,355,32,71,51,298,37,72,27,235,33,73,14,149,*6B
$GLGSV,3,2,11,74,15,194,,75,00,239,,83,15,135,,84,49,081,25*62
$GLGSV,3,3,11,85,34,009,45,,,,46,,,,31*57
$GNGLL,0419.70979,S,05539.78597,E,121835.00,A,A*64
$GNGRS,121835.00,1,18.3,-0.6,0.5,5.3,-0.6,0.1,-2.8,5.6,1.9,,,*66
$GNGRS,121835.00,1,5.1,5.1,0.4,-1.6,-5.1,,,,,,,*75
$GNGST,121835.00,3071473,,,,1.3,1.7,3.8*7F
$GNZDA,121835.00,19,05,2025,00,00*7C
$GNGBS,121835.00,1.3,1.7,3.8,,,,*5C
b0X@
'f%y$ M$"&':=".GK (@d8{4%Ta$:R
# i>F#cPG#3*0H"IJKST1QBU-"o,!b|.L$GNRMC,121836.00,A,0419.70976,S,05539.78598,E,0.041,,190525,,,A*71
$GNVTG,,T,,M,0.041,N,0.076,K,A*39
$GNGNS,121836.00,0419.70976,S,05539.78598,E,AA,14,0.67,16.4,-47.6,,*67
$GNGGA,121836.00,0419.70976,S,05539.78598,E,1,12,0.67,16.4,M,-47.6,M,,*4B
$GNGSA,A,3,29,10,32,26,18,28,31,16,27,,,,1.62,0.67,1.47*16
$GNGSA,A,3,70,84,71,85,72,,,,,,,,1.62,0.67,1.47*1F
$GPGSV,4,1,16,08,03,320,24,10,18,358,39,16,25,247,37,18,32,077,36*73
$GPGSV,4,2,16,23,03,036,24,25,01,127,,26,29,216,34,27,39,314,38*74
$GPGSV,4,3,16,28,46,157,34,29,18,147,09,31,31,190,21,32,64,356,40*70
$GPGSV,4,4,16,36,52,277,,40,84,353,37,41,58,082,36,49,32,274,35*7B
$GLGSV,3,1,11,70,27,355,35,71,51,298,35,72,27,235,34,73,14,149,*69
$GLGSV,3,2,11,74,15,194,,75,00,239,,83,15,135,,84,49,081,24*63
$GLGSV,3,3,11,85,34,009,45,,,,44,,,,33*57
$GNGLL,0419.70976,S,05539.78598,E,121836.00,A,A*67
$GNGRS,121836.00,1,41.7,-0.3,0.6,-1.1,-1.0,0.2,-1.8,1.2,0.6,,,*49
$GNGRS,121836.00,1,5.9,3.2,0.5,-1.4,-8.8,,,,,,,*7C
$GNGST,121836.00,28,,,,1.3,1.7,3.8*43
$GNZDA,121836.00,19,05,2025,00,00*7F
$GNGBS,121836.00,1.3,1.7,3.8,,,,*5F
b0X@
#f% M$!q&':#."* +@d{4$Ta$:R
 iF!cG"3*-H!oIJKST1QU,"]/w0bd$GNRMC,121837.00,A,0419.70973,S,05539.78601,E,0.127,,190525,,,A*77
$GNVTG,,T,,M,0.127,N,0.235,K,A*3D
$GNGNS,121837.00,0419.70973,S,05539.78601,E,AA,14,0.64,16.4,-47.6,,*63
$GNGGA,121837.00,0419.70973,S,05539.78601,E,1,12,0.64,16.4,M,-47.6,M,,*4F
$GNGSA,A,3,29,10,32,26,18,28,31,16,27,,,,1.56,0.64,1.43*16
$GNGSA,A,3,70,84,71,85,72,,,,,,,,1.56,0.64,1.43*1F
$GPGSV,4,1,16,08,03,320,25,10,18,358,35,16,25,247,31,18,32,077,37*79
$GPGSV,4,2,16,23,03,036,25,25,01,127,,26,29,216,33,27,39,314,38*72
$GPGSV,4,3,16,28,46,157,35,29,18,147,12,31,31,190,19,32,64,356,43*73
$GPGSV,4,4,16,36,52,277,,40,84,353,36,41,58,082,36,49,32,274,31*7E
$GLGSV,3,1,11,70,27,355,33,71,51,298,34,72,27,235,33,73,14,149,*69
$GLGSV,3,2,11,74,15,194,,75,00,239,,83,15,135,,84,49,081,23*64
$GLGSV,3,3,11,85,34,009,44,,,,47,,,,28*5F
$GNGLL,0419.70973,S,05539.78601,E,121837.00,A,A*60
$GNGRS,121837.00,1,18.2,-0.2,0.2,1.1,-0.8,0.3,-2.1,4.9,-0.5,,,*4B
$GNGRS,121837.00,1,7.2,5.3,0.4,-1.6,-11.7,,,,,,,*47
$GNGST,121837.00,3071473,,,,1.3,1.7,3.8*7D
$GNZDA,121837.00,19,05,2025,00,00*7E
$GNGBS,121837.00,1.3,1.7,3.8,,,,*5E
b0X@
$f#& Mi$ %':#.7
 )@d{4$Ta!:R
" iF"c4G#3*H"IJKST1QU,"].$bL$GNRMC,121838.00,A,0419.70972,S,05539.78601,E,0.031,,190525,,,A*7F
$GNVTG,,T,,M,0.031,N,0.058,K,A*32
$GNGNS,121838.00,0419.70972,S,05539.78601,E,AA,14,0.64,16.4,-47.6,,*6D
$GNGGA,121838.00,0419.70972,S,05539.78601,E,1,12,0.64,16.4,M,-47.6,M,,*41
$GNGSA,A,3,29,10,32,26,18,28,31,16,27,,,,1.56,0.64,1.43*16
$GNGSA,A,3,70,84,71,85,72,,,,,,,,1.56,0.64,1.43*1F
$GPGSV,4,1,16,08,03,320,26,10,18,358,36,16,25,247,35,18,32,077,38*72
$GPGSV,4,2,16,23,03,036,26,25,01,127,,26,29,216,32,27,39,314,37*7F
$GPGSV,4,3,16,28,46,157,35,29,18,147,10,31,31,190,19,32,64,356,41*73
$GPGSV,4,4,16,36,52,277,,40,84,353,36,41,58,082,33,49,32,274,34*7E
$GLGSV,3,1,11,70,27,355,34,71,51,298,35,72,27,235,34,73,14,149,*68
$GLGSV,3,2,11,74,15,194,,75,00,239,,83,15,135,,84,49,081,23*64
$GLGSV,3,3,11,85,34,009,44,,,,46,,,,36*51
$GNGLL,0419.70972,S,05539.78601,E,121838.00,A,A*6E
$GNGRS,121838.00,1,18.1,0.2,0.0,2.3,-1.5,0.5,-0.8,1.8,-0.2,,,*6B
$GNGRS,121838.00,1,5.6,4.8,0.2,-1.6,-7.6,,,,,,,*74
$GNGST,121838.00,3071473,,,,1.3,1.7,3.8*72
$GNZDA,121838.00,19,05,2025,00,00*71
$GNGBS,121838.00,1.3,1.7,3.8,,,,*51
b0Xh@
*f&J& Mm$!$':#.G
 (@d{4#Ta#:R
  iF!cG#3*H"IJKST1QU+"m-$#bh4$GNRMC,121839.00,A,0419.70971,S,05539.78599,E,0.038,,190525,,,A*76
$GNVTG,,T,,M,0.038,N,0.070,K,A*31
$GNGNS,121839.00,0419.70971,S,05539.78599,E,AA,14,0.64,16.4,-47.6,,*6D
$GNGGA,121839.00,0419.70971,S,05539.78599,E,1,12,0.64,16.4,M,-47.6,M,,*41
$GNGSA,A,3,29,10,32,26,18,28,31,16,27,,,,1.56,0.64,1.43*16
$GNGSA,A,3,70,84,71,85,72,,,,,,,,1.56,0.64,1.43*1F
$GPGSV,4,1,16,08,03,320,26,10,18,358,42,16,25,247,38,18,32,077,38*7C
$GPGSV,4,2,16,23,03,036,26,25,01,127,,26,29,216,33,27,39,314,36*7F
$GPGSV,4,3,16,28,46,157,35,29,18,147,10,31,31,190,25,32,64,356,40*7D
$GPGSV,4,4,16,36,52,277,,40,84,353,35,41,58,082,35,49,32,274,32*7D
$GLGSV,3,1,11,70,27,355,33,71,51,298,35,72,27,235,34,73,14,149,*6F
$GLGSV,3,2,11,74,15,194,,75,00,239,,83,15,135,,84,49,081,22*65
$GLGSV,3,3,11,85,34,009,43,,,,45,,,,36*55
$GNGLL,0419.70971,S,05539.78599,E,121839.00,A,A*6E
$GNGRS,121839.00,1,-13.5,-0.1,0.1,-0.1,-1.5,0.7,-0.2,3.3,-0.1,,,*48
$GNGRS,121839.00,1,7.2,4.0,0.2,-1.5,-5.7,,,,,,,*7B
$GNGST,121839.00,42,,,,1.3,1.6,3.8*41
$GNZDA,121839.00,19,05,2025,00,00*70
$GNGBS,121839.00,1.3,1.6,3.8,,,,*51
b0XP@
(f&N& M$"!$':#.B# (@d{4$Ta":R
  iF!cG#3*H"IJKST1QU-"O($bP$GNRMC,121840.00,A,0419.70971,S,05539.78597,E,0.022,,190525,,,A*7D
$GNVTG,,T,,M,0.022,N,0.041,K,A*38
$GNGNS,121840.00,0419.70971,S,05539.78597,E,AA,14,0.64,16.4,-47.6,,*6D
$GNGGA,121840.00,0419.70971,S,05539.78597,E,1,12,0.64,16.4,M,-47.6,M,,*41
$GNGSA,A,3,29,10,32,26,18,28,31,16,27,,,,1.56,0.64,1.43*16
$GNGSA,A,3,70,84,71,85,72,,,,,,,,1.56,0.64,1.43*1F
$GPGSV,4,1,16,08,03,320,27,10,18,358,40,16,25,247,38,18,32,077,38*7F
